t_s,phase,subphase,ias_ms,vapp_ms,spd_err_ms,agl_m,gear_h_m,vs_ms,pitch_deg,aoa_deg,hdg_deg,bank_deg,thr_cmd,thr_cur,thr_intg,at_gain,at_tau_s,at_a_up,at_a_dn,at_kp_thr,at_ki_spd,at_thr_slew,as_cmd_deg,as_cap_deg,as_raw_deg,as_spd_err_ms,as_active,aa_hdg_cmd_deg,aa_fpa_cmd_deg,aa_fbw,aa_dir,actual_fpa_deg,ftf_hdg_err_deg,ftf_fix_idx,kos_steer_pit_deg,kos_steer_hdg_deg,aa_dir_vx,aa_dir_vy,aa_dir_vz,aa_dir_pitch_deg,aa_dir_hdg_deg,ils_loc_m,ils_gs_m,ils_dist_km,loc_corr_deg,gs_corr_deg,gs_latched,active_gs_ang_deg,ils_intercept_alt_m,d_gs_ms,fpa_preclamped_deg,gs_nom_alt_m,flare_fpa_cmd,flare_tgt_vs,flare_frac,flare_mode,flare_auth_limited,flare_vs_err,flare_fpa_err,flare_pitch_err,flare_req_up_a,flare_thr_floor,flare_tecs_et_err,flare_tecs_eb_err,flare_tecs_h_ref,flare_tecs_v_ref,flare_gamma_ref,flare_gamma_eb_term,flare_gamma_unsat,steer_hdg_deg,steer_blend,ro_loc_corr_deg,ro_hdg_err_deg,ro_yaw_tgt,ro_yaw_scale,ro_yaw_gate,yaw_cmd,roll_cmd,pitch_cmd,ro_pitch_tgt_deg,ro_pitch_err_deg,ro_pitch_ff,ro_roll_assist,flaps_cur,flaps_tgt,asc_j_ab,asc_j_rk,asc_validity,asc_q_pa,asc_q_raw_pa,asc_mach,asc_apo_m,asc_drag_n,asc_w_prop,asc_edot_aero,asc_edot_orb,asc_pitch_bias,asc_blend,asc_spooling,asc_ab_thr_ratio,asc_ab_t_now,asc_ab_t_avail,asc_ab_ign_on,asc_ab_flameouts,asc_rk_t_now,asc_rk_t_avail,asc_rk_ign_on,asc_rk_flameouts,ship_thrust,ship_avail_thrust,ship_ign_on,ship_flameouts,ifc_raw_dt_s,ifc_dt_s,ifc_loop_n,ifc_hz_est,ifc_raw_dt_max_s,ifc_raw_dt_min_s,phase_el_s,status,craft_name,cfg_file
0.16,APPROACH,ILS_TRACK,154.16,152,-2.16,727.24,649.13,-8.5,14.85,17.86,270.02,0.773,0,0,0,0,0,0,0,0,0,0,0,0,0,0,0,0,0,1,0,-3.19,0,0,0,90,0,0,0,0,0,5.96,-490.05,21.81,0,0,0,3,727.24,0,0,1217.28,0,0,0,,0,0,0,0,0,0,0,0,0,0,0,0,0,270,0,0,0,0,0,0,0,0,0,0,0,0,0,0,0,0,0,VALID,0,0,0,0,0,1,0,0,0,0,0,0,0,0,0,0,0,0,0,0,299.98,1082.03,2,0,0.14,0.14,1,3.7,0.14,0.02,0.16,FLYING,X10-H,0:/Integrated Flight Computer/aircraft/x10_h_cfg.ks (inferred preloaded)
0.42,APPROACH,ILS_TRACK,153.77,152,-1.77,725.24,647.1,-7.26,15.11,17.67,270.03,0.671,0.048,0,-0.217,1,0.6,1.46,0.75,0.35,0.0168,0.4,0.36,21.38,0.36,1.811,1,269.91,0,0,1,-2.78,0,0,0,257.47,0.4187,-0.0016,0.9081,0,269.91,5.83,-489.86,21.774,-0.093,0,0,3,727.24,0.85,0,1215.41,0,0,0,,0,0,0,0,0,0,0,0,0,0,0,0,0,270,0,0,0,0,0,0,0,0,0,0,0,0,0,1,3,0,0,VALID,0,0,0,0,0,1,0,0,0,0,0,0,0,0,0,0,0,0,0,0,273.43,1080.51,2,0,0.12,0.12,3,7.69,0.14,0.12,0.42,FLYING,X10-H,0:/Integrated Flight Computer/aircraft/x10_h_cfg.ks (inferred preloaded)
0.68,APPROACH,ILS_TRACK,153.16,152,-1.16,723.13,645.39,-6.09,13.99,16.01,269.98,0.477,0.152,0,-0.573,1,0.6,2.693,0.756,0.35,0.0168,0.4,0,21.549,0,1.212,0,269.9,0,0,1,-2.33,0,0,0,269.91,0.4188,-0.0018,0.9081,0,269.9,5.7,-489.73,21.732,-0.101,0,0,3,727.24,0.319,0,1213.19,0,0,0,,0,0,0,0,0,0,0,0,0,0,0,0,0,270,0,0,0,0,0,0,0,0,0,0,0,0,0,1,3,0,0,VALID,0,0,0,0,0,1,0,0,0,0,0,0,0,0,0,0,0,0,0,0,255.27,1078.03,2,0,0.12,0.12,5,7.69,0.14,0.12,0.68,FLYING,X10-H,0:/Integrated Flight Computer/aircraft/x10_h_cfg.ks (inferred preloaded)
0.94,APPROACH,ILS_TRACK,152.75,152,-0.75,720.9,643.87,-5.65,11.52,13.32,269.92,0.311,0.256,0,-0.792,1,0.6,3.734,0.756,0.35,0.0168,0.4,0,21.675,0,0.767,0,269.9,0,0,1,-2.12,0,0,0,269.9,0.4189,-0.0018,0.908,0,269.9,5.57,-489.75,21.69,-0.102,0,0,3,727.24,-0.107,0,1210.99,0,0,0,,0,0,0,0,0,0,0,0,0,0,0,0,0,270,0,0,0,0,0,0,0,0,0,0,0,0,0,2,3,0,0,VALID,0,0,0,0,0,1,0,0,0,0,0,0,0,0,0,0,0,0,0,0,248.63,1076.37,2,0,0.12,0.12,7,7.69,0.14,0.12,0.94,FLYING,X10-H,0:/Integrated Flight Computer/aircraft/x10_h_cfg.ks (inferred preloaded)
1.3,APPROACH,ILS_TRACK,152.81,152,-0.81,718,641.75,-6.12,8.57,10.61,269.87,0.227,0.208,0,-1.065,1,0.6,4.5,0.756,0.35,0.0168,0.4,0,21.666,0,0.799,0,269.91,0,0,1,-2.26,0,0,0,269.91,0.419,-0.0016,0.908,0,269.91,5.4,-489.63,21.631,-0.094,0,0,3,727.24,0.622,0,1207.94,0,0,0,,0,0,0,0,0,0,0,0,0,0,0,0,0,270,0,0,0,0,0,0,0,0,0,0,0,0,0,3,3,0,0,VALID,0,0,0,0,0,1,0,0,0,0,0,0,0,0,0,0,0,0,0,0,251.5,1076.72,2,0,0.12,0.12,10,8.33,0.12,0.12,1.3,FLYING,X10-H,0:/Integrated Flight Computer/aircraft/x10_h_cfg.ks (inferred preloaded)
1.66,APPROACH,ILS_TRACK,153.06,152,-1.06,715.44,639.37,-7,7.64,10.11,269.86,0.172,0.064,0,-1.158,1,0.6,4.5,0.756,0.35,0.0168,0.4,0,21.595,0,1.049,0,269.91,0,0,1,-2.59,0,0,0,269.91,0.419,-0.0016,0.908,0,269.91,5.23,-489.18,21.573,-0.093,0,0,3,727.24,1.56,0,1204.88,0,0,0,,0,0,0,0,0,0,0,0,0,0,0,0,0,270,0,0,0,0,0,0,0,0,0,0,0,0,0,3,3,0,0,VALID,0,0,0,0,0,1,0,0,0,0,0,0,0,0,0,0,0,0,0,0,243.14,1077.97,2,0,0.12,0.12,13,8.33,0.12,0.12,1.66,FLYING,X10-H,0:/Integrated Flight Computer/aircraft/x10_h_cfg.ks (inferred preloaded)
2.02,APPROACH,ILS_TRACK,153.25,152,-1.25,713.18,636.74,-7.52,8.81,11.57,269.86,0.154,0,0,-1.141,1,0.6,4.5,0.75,0.35,0.0168,0.4,0,21.54,0,1.244,0,269.92,0,0,1,-2.81,0,0,0,269.91,0.4191,-0.0014,0.9079,0,269.92,5.05,-488.41,21.515,-0.082,0,0,3,727.24,2.416,0,1201.83,0,0,0,,0,0,0,0,0,0,0,0,0,0,0,0,0,270,0,0,0,0,0,0,0,0,0,0,0,0,0,3,3,0,0,VALID,0,0,0,0,0,1,0,0,0,0,0,0,0,0,0,0,0,0,0,0,218.54,1078.98,2,0,0.12,0.12,16,8.33,0.12,0.12,2.02,FLYING,X10-H,0:/Integrated Flight Computer/aircraft/x10_h_cfg.ks (inferred preloaded)
2.38,APPROACH,ILS_TRACK,153.17,152,-1.17,711.11,634.05,-7.45,10.97,13.76,269.87,0.154,0,0,-1.124,1,0.6,4.5,0.75,0.35,0.0168,0.4,0,21.556,0,1.189,0,269.92,0,0,1,-2.8,0,0,0,269.92,0.4192,-0.0014,0.9079,0,269.92,4.89,-487.44,21.456,-0.081,0,0,3,727.24,2.94,0,1198.77,0,0,0,,0,0,0,0,0,0,0,0,0,0,0,0,0,270,0,0,0,0,0,0,0,0,0,0,0,0,0,3,3,0,0,VALID,0,0,0,0,0,1,0,0,0,0,0,0,0,0,0,0,0,0,0,0,192.59,1078.9,2,0,0.12,0.12,19,8.33,0.12,0.12,2.38,FLYING,X10-H,0:/Integrated Flight Computer/aircraft/x10_h_cfg.ks (inferred preloaded)
2.74,APPROACH,ILS_TRACK,152.65,152,-0.65,709.17,631.57,-6.45,13.09,15.47,269.89,0.19,0.096,0,-1.311,1,0.6,4.5,0.75,0.35,0.0168,0.4,0,21.696,0,0.691,0,269.93,0,0,1,-2.47,0,0,0,269.92,0.4193,-0.0013,0.9078,0,269.93,4.72,-486.33,21.398,-0.074,0,0,3,727.24,3.052,0,1195.72,0,0,0,,0,0,0,0,0,0,0,0,0,0,0,0,0,270,0,0,0,0,0,0,0,0,0,0,0,0,0,3,3,0,0,VALID,0,0,0,0,0,1,0,0,0,0,0,0,0,0,0,0,0,0,0,0,171.2,1076.88,2,0,0.12,0.12,22,8.33,0.12,0.12,2.74,FLYING,X10-H,0:/Integrated Flight Computer/aircraft/x10_h_cfg.ks (inferred preloaded)
3.1,APPROACH,ILS_TRACK,151.78,152,0.22,707.19,629.46,-5.25,13.71,15.59,269.91,0.235,0.24,0,-1.357,1,0.6,4.5,0.75,0.35,0.0168,0.4,0,21.938,0,-0.167,0,269.92,0,0,1,-2.03,0,0,0,269.93,0.4194,-0.0013,0.9078,0,269.92,4.56,-485.27,21.34,-0.076,0,0,3,727.24,2.934,0,1192.68,0,0,0,,0,0,0,0,0,0,0,0,0,0,0,0,0,270,0,0,0,0,0,0,0,0,0,0,0,0,0,3,3,0,0,VALID,0,0,0,0,0,1,0,0,0,0,0,0,0,0,0,0,0,0,0,0,167.33,1073.36,2,0,0.12,0.12,25,8.33,0.12,0.12,3.1,FLYING,X10-H,0:/Integrated Flight Computer/aircraft/x10_h_cfg.ks (inferred preloaded)
3.36,APPROACH,ILS_TRACK,151.11,152,0.89,705.74,628.19,-4.58,13.15,14.75,269.91,0.248,0.344,0,-1.179,1,0.6,4.5,0.75,0.35,0.0168,0.4,0,22.128,0,-0.843,0,269.94,0,0,1,-1.77,0,0,0,269.92,0.4195,-0.0011,0.9078,0,269.94,4.45,-484.54,21.299,-0.065,0,0,3,727.24,2.859,0,1190.5,0,0,0,,0,0,0,0,0,0,0,0,0,0,0,0,0,270,0,0,0,0,0,0,0,0,0,0,0,0,0,3,3,0,0,VALID,0,0,0,0,0,1,0,0,0,0,0,0,0,0,0,0,0,0,0,0,172.47,1070.65,2,0,0.12,0.12,27,7.69,0.14,0.12,3.36,FLYING,X10-H,0:/Integrated Flight Computer/aircraft/x10_h_cfg.ks (inferred preloaded)
3.72,APPROACH,ILS_TRACK,150.44,152,1.56,703.88,626.64,-4.1,11.99,13.42,269.92,0.255,0.488,0,-0.704,1,0.6,4.5,0.75,0.35,0.0168,0.4,0,22.321,0,-1.525,0,269.93,0,0,1,-1.57,0,0,0,269.92,0.4195,-0.0013,0.9077,0,269.93,4.31,-483.42,21.241,-0.073,0,0,3,727.24,3.35,0,1187.49,0,0,0,,0,0,0,0,0,0,0,0,0,0,0,0,0,270,0,0,0,0,0,0,0,0,0,0,0,0,0,3,3,0,0,VALID,0,0,0,0,0,1,0,0,0,0,0,0,0,0,0,0,0,0,0,0,188.66,1067.93,2,0,0.12,0.12,30,8.33,0.12,0.12,3.72,FLYING,X10-H,0:/Integrated Flight Computer/aircraft/x10_h_cfg.ks (inferred preloaded)
4.08,APPROACH,ILS_TRACK,149.99,152,2.01,702.3,625.21,-3.83,11.39,12.75,269.92,0.256,0.632,0,-0.039,1,0.6,4.5,0.75,0.35,0.0168,0.4,0,22.453,0,-1.993,0,269.93,0,0,1,-1.48,0,0,0,269.93,0.4196,-0.0012,0.9077,0,269.93,4.17,-482.03,21.184,-0.069,0,0,3,727.24,4.099,0,1184.49,0,0,0,,0,0,0,0,0,0,0,0,0,0,0,0,0,270,0,0,0,0,0,0,0,0,0,0,0,0,0,3,3,0,0,VALID,0,0,0,0,0,1,0,0,0,0,0,0,0,0,0,0,0,0,0,0,214.47,1066.11,2,0,0.12,0.12,33,8.33,0.12,0.12,4.08,FLYING,X10-H,0:/Integrated Flight Computer/aircraft/x10_h_cfg.ks (inferred preloaded)
4.44,APPROACH,ILS_TRACK,149.66,152,2.34,700.92,623.88,-3.53,11.19,12.45,269.92,0.256,0.6165,0,0.762,1,0.6,4.5,0.75,0.35,0.0168,0.4,0,22.547,0,-2.328,0,269.93,0,0,1,-1.36,0,0,0,269.93,0.4197,-0.0012,0.9077,0,269.93,4.03,-480.43,21.127,-0.07,0,0,3,727.24,4.534,0,1181.5,0,0,0,,0,0,0,0,0,0,0,0,0,0,0,0,0,270,0,0,0,0,0,0,0,0,0,0,0,0,0,3,3,0,0,VALID,0,0,0,0,0,1,0,0,0,0,0,0,0,0,0,0,0,0,0,0,247.04,1064.83,2,0,0.12,0.12,36,8.33,0.12,0.12,4.44,FLYING,X10-H,0:/Integrated Flight Computer/aircraft/x10_h_cfg.ks (inferred preloaded)
4.8,APPROACH,ILS_TRACK,149.44,152,2.56,699.65,622.64,-3.23,11.09,12.26,269.93,0.245,0.5346,0,1.657,1,0.6,4.5,0.75,0.35,0.0168,0.4,0,22.61,0,-2.551,0,269.94,0,0,1,-1.27,0,0,0,269.92,0.4198,-0.0011,0.9076,0,269.94,3.9,-478.72,21.07,-0.064,0,0,3,727.24,4.94,0,1178.51,0,0,0,,0,0,0,0,0,0,0,0,0,0,0,0,0,270,0,0,0,0,0,0,0,0,0,0,0,0,0,3,3,0,0,VALID,0,0,0,0,0,1,0,0,0,0,0,0,0,0,0,0,0,0,0,0,273.7,1064.01,2,0,0.12,0.12,39,8.33,0.12,0.12,4.8,FLYING,X10-H,0:/Integrated Flight Computer/aircraft/x10_h_cfg.ks (inferred preloaded)
5.16,APPROACH,ILS_TRACK,149.29,152,2.71,698.45,621.53,-3.02,10.76,11.85,269.93,0.234,0.4693,0,2.617,1,0.6,4.5,0.75,0.35,0.0168,0.4,0,22.653,0,-2.703,0,269.93,0,0,1,-1.17,0,0,0,269.93,0.4199,-0.0012,0.9076,0,269.93,3.78,-476.96,21.013,-0.067,0,0,3,727.24,5.066,0,1175.53,0,0,0,,0,0,0,0,0,0,0,0,0,0,0,0,0,270,0,0,0,0,0,0,0,0,0,0,0,0,0,3,3,0,0,VALID,0,0,0,0,0,1,0,0,0,0,0,0,0,0,0,0,0,0,0,0,293.09,1063.49,2,0,0.12,0.12,42,8.33,0.12,0.12,5.16,FLYING,X10-H,0:/Integrated Flight Computer/aircraft/x10_h_cfg.ks (inferred preloaded)
5.52,APPROACH,ILS_TRACK,149.24,152,2.76,697.38,620.49,-2.79,10.64,11.67,269.93,0.219,0.4006,0,3.605,1,0.6,4.5,0.75,0.35,0.0168,0.4,0,22.669,0,-2.761,0,269.93,0,0,1,-1.09,0,0,0,269.93,0.42,-0.0012,0.9075,0,269.93,3.67,-475.05,20.956,-0.068,0,0,3,727.24,5.452,0,1172.55,0,0,0,,0,0,0,0,0,0,0,0,0,0,0,0,0,270,0,0,0,0,0,0,0,0,0,0,0,0,0,3,3,0,0,VALID,0,0,0,0,0,1,0,0,0,0,0,0,0,0,0,0,0,0,0,0,305.89,1063.34,2,0,0.12,0.12,45,8.33,0.12,0.12,5.52,FLYING,X10-H,0:/Integrated Flight Computer/aircraft/x10_h_cfg.ks (inferred preloaded)
5.78,APPROACH,ILS_TRACK,149.2,152,2.8,696.65,619.81,-2.57,10.49,11.41,269.93,0.209,0.3815,0,4.33,1,0.6,4.5,0.75,0.35,0.0168,0.4,0,22.68,0,-2.799,0,269.93,0,0,1,-0.99,0,0,0,269.93,0.42,-0.0011,0.9075,0,269.93,3.59,-473.63,20.915,-0.066,0,0,3,727.24,5.442,0,1170.39,0,0,0,,0,0,0,0,0,0,0,0,0,0,0,0,0,270,0,0,0,0,0,0,0,0,0,0,0,0,0,3,3,0,0,VALID,0,0,0,0,0,1,0,0,0,0,0,0,0,0,0,0,0,0,0,0,311.8,1063.23,2,0,0.12,0.12,47,7.69,0.14,0.12,5.78,FLYING,X10-H,0:/Integrated Flight Computer/aircraft/x10_h_cfg.ks (inferred preloaded)
6.14,APPROACH,ILS_TRACK,149.18,152,2.82,695.72,618.93,-2.31,10.29,11.11,269.93,0.199,0.3549,0,5.342,1,0.6,4.5,0.75,0.35,0.0168,0.4,0,22.685,0,-2.819,0,269.93,0,0,1,-0.89,0,0,0,269.94,0.4201,-0.0012,0.9075,0,269.93,3.48,-471.6,20.858,-0.067,0,0,3,727.24,5.652,0,1167.41,0,0,0,,0,0,0,0,0,0,0,0,0,0,0,0,0,270,0,0,0,0,0,0,0,0,0,0,0,0,0,3,3,0,0,VALID,0,0,0,0,0,1,0,0,0,0,0,0,0,0,0,0,0,0,0,0,317.49,1063.21,2,0,0.12,0.12,50,8.33,0.12,0.12,6.14,FLYING,X10-H,0:/Integrated Flight Computer/aircraft/x10_h_cfg.ks (inferred preloaded)
6.5,APPROACH,ILS_TRACK,149.18,152,2.82,694.87,618.13,-2.09,10.12,10.86,269.93,0.186,0.3386,0,6.356,1,0.6,4.5,0.75,0.35,0.0168,0.4,0,22.685,0,-2.818,0,269.94,0,0,1,-0.81,0,0,0,269.94,0.4202,-0.0011,0.9074,0,269.94,3.38,-469.47,20.801,-0.065,0,0,3,727.24,5.911,0,1164.43,0,0,0,,0,0,0,0,0,0,0,0,0,0,0,0,0,270,0,0,0,0,0,0,0,0,0,0,0,0,0,3,3,0,0,VALID,0,0,0,0,0,1,0,0,0,0,0,0,0,0,0,0,0,0,0,0,321.14,1063.28,2,0,0.12,0.12,53,8.33,0.12,0.12,6.5,FLYING,X10-H,0:/Integrated Flight Computer/aircraft/x10_h_cfg.ks (inferred preloaded)
6.86,APPROACH,ILS_TRACK,149.22,152,2.78,694.15,617.38,-2.02,10.21,10.97,269.94,0.174,0.3194,0,7.363,1,0.6,4.5,0.75,0.35,0.0168,0.4,0,22.675,0,-2.783,0,269.94,0,0,1,-0.8,0,0,0,269.93,0.4203,-0.0011,0.9074,0,269.94,3.28,-467.22,20.744,-0.064,0,0,3,727.24,6.481,0,1161.45,0,0,0,,0,0,0,0,0,0,0,0,0,0,0,0,0,270,0,0,0,0,0,0,0,0,0,0,0,0,0,3,3,0,0,VALID,0,0,0,0,0,1,0,0,0,0,0,0,0,0,0,0,0,0,0,0,323.47,1063.49,2,0,0.12,0.12,56,8.33,0.12,0.12,6.86,FLYING,X10-H,0:/Integrated Flight Computer/aircraft/x10_h_cfg.ks (inferred preloaded)
7.22,APPROACH,ILS_TRACK,149.23,152,2.77,693.47,616.7,-1.87,10.19,10.88,269.94,0.164,0.3287,0,8.364,1,0.6,4.5,0.75,0.35,0.0168,0.4,0,22.672,0,-2.773,0,269.94,0,0,1,-0.71,0,0,0,269.93,0.4204,-0.0011,0.9073,0,269.94,3.19,-464.93,20.687,-0.064,0,0,3,727.24,6.45,0,1158.47,0,0,0,,0,0,0,0,0,0,0,0,0,0,0,0,0,270,0,0,0,0,0,0,0,0,0,0,0,0,0,3,3,0,0,VALID,0,0,0,0,0,1,0,0,0,0,0,0,0,0,0,0,0,0,0,0,325.07,1063.59,2,0,0.12,0.12,59,8.33,0.12,0.12,7.22,FLYING,X10-H,0:/Integrated Flight Computer/aircraft/x10_h_cfg.ks (inferred preloaded)
7.58,APPROACH,ILS_TRACK,149.24,152,2.76,692.85,616.1,-1.53,10.19,10.72,269.94,0.151,0.3453,0,9.358,1,0.6,4.5,0.75,0.35,0.0168,0.4,0,22.67,0,-2.764,0,269.93,0,0,1,-0.59,0,0,0,269.94,0.4205,-0.0011,0.9073,0,269.93,3.1,-462.56,20.63,-0.065,0,0,3,727.24,6.425,0,1155.49,0,0,0,,0,0,0,0,0,0,0,0,0,0,0,0,0,270,0,0,0,0,0,0,0,0,0,0,0,0,0,3,3,0,0,VALID,0,0,0,0,0,1,0,0,0,0,0,0,0,0,0,0,0,0,0,0,326.83,1063.66,2,0,0.12,0.12,62,8.33,0.12,0.12,7.58,FLYING,X10-H,0:/Integrated Flight Computer/aircraft/x10_h_cfg.ks (inferred preloaded)
7.94,APPROACH,ILS_TRACK,149.3,152,2.7,692.31,615.54,-1.49,10.21,10.77,269.94,0.139,0.3323,0,10.34,1,0.6,4.5,0.75,0.35,0.0168,0.4,0,22.654,0,-2.706,0,269.94,0,0,1,-0.6,0,0,0,269.94,0.4206,-0.001,0.9073,0,269.94,3.01,-460.14,20.574,-0.056,0,0,3,727.24,6.964,0,1152.5,0,0,0,,0,0,0,0,0,0,0,0,0,0,0,0,0,270,0,0,0,0,0,0,0,0,0,0,0,0,0,3,3,0,0,VALID,0,0,0,0,0,1,0,0,0,0,0,0,0,0,0,0,0,0,0,0,329.45,1063.96,2,0,0.12,0.12,65,8.33,0.12,0.12,7.94,FLYING,X10-H,0:/Integrated Flight Computer/aircraft/x10_h_cfg.ks (inferred preloaded)
8.2,APPROACH,ILS_TRACK,149.31,152,2.69,691.91,615.19,-1.31,10.08,10.54,269.94,0.135,0.3458,0,11.04,1,0.6,4.5,0.75,0.35,0.0168,0.4,0,22.649,0,-2.689,0,269.94,0,0,1,-0.5,0,0,0,269.94,0.4206,-0.0011,0.9072,0,269.94,2.95,-458.38,20.532,-0.061,0,0,3,727.24,6.697,0,1150.35,0,0,0,,0,0,0,0,0,0,0,0,0,0,0,0,0,270,0,0,0,0,0,0,0,0,0,0,0,0,0,3,3,0,0,VALID,0,0,0,0,0,1,0,0,0,0,0,0,0,0,0,0,0,0,0,0,330.86,1064.06,2,0,0.12,0.12,67,7.69,0.14,0.12,8.2,FLYING,X10-H,0:/Integrated Flight Computer/aircraft/x10_h_cfg.ks (inferred preloaded)
8.56,APPROACH,ILS_TRACK,149.4,152,2.6,691.47,614.7,-1.24,10.22,10.69,269.94,0.122,0.3305,0,11.988,1,0.6,4.5,0.75,0.35,0.0168,0.4,0,22.625,0,-2.606,0,269.94,0,0,1,-0.5,0,0,0,269.94,0.4207,-0.001,0.9072,0,269.94,2.87,-455.85,20.475,-0.059,0,0,3,727.24,7.228,0,1147.37,0,0,0,,0,0,0,0,0,0,0,0,0,0,0,0,0,270,0,0,0,0,0,0,0,0,0,0,0,0,0,3,3,0,0,VALID,0,0,0,0,0,1,0,0,0,0,0,0,0,0,0,0,0,0,0,0,333.09,1064.44,2,0,0.12,0.12,70,8.33,0.12,0.12,8.56,FLYING,X10-H,0:/Integrated Flight Computer/aircraft/x10_h_cfg.ks (inferred preloaded)
8.92,APPROACH,ILS_TRACK,149.45,152,2.55,690.97,614.31,-1.11,9.87,10.25,269.94,0.109,0.3446,0,12.918,1,0.6,4.5,0.75,0.35,0.0168,0.4,0,22.612,0,-2.56,0,269.94,0,0,1,-0.42,0,0,0,269.94,0.4208,-0.0011,0.9072,0,269.94,2.79,-453.36,20.419,-0.062,0,0,3,727.24,6.879,0,1144.38,0,0,0,,0,0,0,0,0,0,0,0,0,0,0,0,0,270,0,0,0,0,0,0,0,0,0,0,0,0,0,3,3,0,0,VALID,0,0,0,0,0,1,0,0,0,0,0,0,0,0,0,0,0,0,0,0,335.15,1064.67,2,0,0.12,0.12,73,8.33,0.12,0.12,8.92,FLYING,X10-H,0:/Integrated Flight Computer/aircraft/x10_h_cfg.ks (inferred preloaded)
9.28,APPROACH,ILS_TRACK,149.56,152,2.44,690.61,613.9,-1.01,10.04,10.41,269.94,0.098,0.3251,0,13.811,1,0.6,4.5,0.75,0.35,0.0168,0.4,0,22.581,0,-2.448,0,269.95,0,0,1,-0.41,0,0,0,269.94,0.4209,-0.0009,0.9071,0,269.95,2.71,-450.74,20.362,-0.054,0,0,3,727.24,7.366,0,1141.39,0,0,0,,0,0,0,0,0,0,0,0,0,0,0,0,0,270,0,0,0,0,0,0,0,0,0,0,0,0,0,3,3,0,0,VALID,0,0,0,0,0,1,0,0,0,0,0,0,0,0,0,0,0,0,0,0,336.85,1065.16,2,0,0.12,0.12,76,8.33,0.12,0.12,9.28,FLYING,X10-H,0:/Integrated Flight Computer/aircraft/x10_h_cfg.ks (inferred preloaded)
9.64,APPROACH,ILS_TRACK,149.66,152,2.34,690.21,613.54,-1.01,9.88,10.25,269.94,0.087,0.3225,0,14.673,1,0.6,4.5,0.75,0.35,0.0168,0.4,0,22.554,0,-2.352,0,269.95,0,0,1,-0.38,0,0,0,269.94,0.421,-0.0009,0.9071,0,269.95,2.64,-448.15,20.305,-0.052,0,0,3,727.24,7.265,0,1138.4,0,0,0,,0,0,0,0,0,0,0,0,0,0,0,0,0,270,0,0,0,0,0,0,0,0,0,0,0,0,0,3,3,0,0,VALID,0,0,0,0,0,1,0,0,0,0,0,0,0,0,0,0,0,0,0,0,337.97,1065.61,2,0,0.12,0.12,79,8.33,0.12,0.12,9.64,FLYING,X10-H,0:/Integrated Flight Computer/aircraft/x10_h_cfg.ks (inferred preloaded)
10,APPROACH,ILS_TRACK,149.78,152,2.22,689.87,613.2,-0.89,9.89,10.21,269.94,0.084,0.3145,0,15.489,1,0.6,4.5,0.75,0.35,0.0168,0.4,0,22.52,0,-2.231,0,269.95,0,0,1,-0.35,0,0,0,269.95,0.4211,-0.0009,0.907,0,269.95,2.56,-445.5,20.247,-0.05,0,0,3,727.24,7.322,0,1135.41,0,0,0,,0,0,0,0,0,0,0,0,0,0,0,0,0,270,0,0,0,0,0,0,0,0,0,0,0,0,0,3,3,0,0,VALID,0,0,0,0,0,1,0,0,0,0,0,0,0,0,0,0,0,0,0,0,338.14,1066.14,2,0,0.12,0.12,82,8.33,0.12,0.12,10,FLYING,X10-H,0:/Integrated Flight Computer/aircraft/x10_h_cfg.ks (inferred preloaded)
10.36,APPROACH,ILS_TRACK,149.91,152,2.09,689.55,612.89,-0.82,9.85,10.15,269.94,0.078,0.3028,0,16.26,1,0.6,4.5,0.75,0.35,0.0168,0.4,0,22.481,0,-2.095,0,269.95,0,0,1,-0.33,0,0,0,269.95,0.4211,-0.001,0.907,0,269.95,2.49,-442.83,20.19,-0.055,0,0,3,727.24,7.492,0,1132.42,0,0,0,,0,0,0,0,0,0,0,0,0,0,0,0,0,270,0,0,0,0,0,0,0,0,0,0,0,0,0,3,3,0,0,VALID,0,0,0,0,0,1,0,0,0,0,0,0,0,0,0,0,0,0,0,0,337.53,1066.73,2,0,0.12,0.12,85,8.33,0.12,0.12,10.36,FLYING,X10-H,0:/Integrated Flight Computer/aircraft/x10_h_cfg.ks (inferred preloaded)
10.62,APPROACH,ILS_TRACK,150.01,152,1.99,689.33,612.68,-0.79,9.82,10.1,269.94,0.073,0.3015,0,16.787,1,0.6,4.5,0.75,0.35,0.0168,0.4,0,22.455,0,-2.001,0,269.95,0,0,1,-0.3,0,0,0,269.95,0.4212,-0.0009,0.907,0,269.95,2.44,-440.89,20.149,-0.052,0,0,3,727.24,7.496,0,1130.26,0,0,0,,0,0,0,0,0,0,0,0,0,0,0,0,0,270,0,0,0,0,0,0,0,0,0,0,0,0,0,3,3,0,0,VALID,0,0,0,0,0,1,0,0,0,0,0,0,0,0,0,0,0,0,0,0,336.41,1067.14,2,0,0.12,0.12,87,7.69,0.14,0.12,10.62,FLYING,X10-H,0:/Integrated Flight Computer/aircraft/x10_h_cfg.ks (inferred preloaded)
10.98,APPROACH,ILS_TRACK,150.14,152,1.86,689.05,612.41,-0.74,9.78,10.04,269.94,0.07,0.3003,0,17.475,1,0.6,4.5,0.75,0.35,0.0168,0.4,0,22.418,0,-1.869,0,269.95,0,0,1,-0.28,0,0,0,269.95,0.4213,-0.0008,0.9069,0,269.95,2.37,-438.18,20.092,-0.047,0,0,3,727.24,7.528,0,1127.26,0,0,0,,0,0,0,0,0,0,0,0,0,0,0,0,0,270,0,0,0,0,0,0,0,0,0,0,0,0,0,3,3,0,0,VALID,0,0,0,0,0,1,0,0,0,0,0,0,0,0,0,0,0,0,0,0,334.73,1067.71,2,0,0.12,0.12,90,8.33,0.12,0.12,10.98,FLYING,X10-H,0:/Integrated Flight Computer/aircraft/x10_h_cfg.ks (inferred preloaded)
11.34,APPROACH,ILS_TRACK,150.26,152,1.74,688.78,612.15,-0.67,9.76,9.99,269.94,0.068,0.307,0,18.118,1,0.6,4.5,0.75,0.35,0.0168,0.4,0,22.384,0,-1.748,0,269.96,0,0,1,-0.25,0,0,0,269.95,0.4214,-0.0008,0.9069,0,269.96,2.3,-435.45,20.035,-0.043,0,0,3,727.24,7.535,0,1124.26,0,0,0,,0,0,0,0,0,0,0,0,0,0,0,0,0,270,0,0,0,0,0,0,0,0,0,0,0,0,0,3,3,0,0,VALID,0,0,0,0,0,1,0,0,0,0,0,0,0,0,0,0,0,0,0,0,333.25,1068.23,2,0,0.12,0.12,93,8.33,0.12,0.12,11.34,FLYING,X10-H,0:/Integrated Flight Computer/aircraft/x10_h_cfg.ks (inferred preloaded)
11.7,APPROACH,ILS_TRACK,150.38,152,1.62,688.54,611.91,-0.64,9.75,9.97,269.94,0.063,0.3097,0,18.718,1,0.6,4.5,0.75,0.35,0.0168,0.4,0,22.349,0,-1.627,0,269.96,0,0,1,-0.24,0,0,0,269.96,0.4215,-0.0008,0.9068,0,269.96,2.24,-432.69,19.977,-0.043,0,0,3,727.24,7.673,0,1121.25,0,0,0,,0,0,0,0,0,0,0,0,0,0,0,0,0,270,0,0,0,0,0,0,0,0,0,0,0,0,0,3,3,0,0,VALID,0,0,0,0,0,1,0,0,0,0,0,0,0,0,0,0,0,0,0,0,332.81,1068.76,2,0,0.12,0.12,96,8.33,0.12,0.12,11.7,FLYING,X10-H,0:/Integrated Flight Computer/aircraft/x10_h_cfg.ks (inferred preloaded)
12.06,APPROACH,ILS_TRACK,150.49,152,1.51,688.3,611.68,-0.57,9.74,9.93,269.94,0.059,0.3152,0,19.276,1,0.6,4.5,0.75,0.35,0.0168,0.4,0,22.317,0,-1.513,0,269.96,0,0,1,-0.22,0,0,0,269.95,0.4215,-0.0007,0.9068,0,269.96,2.17,-429.92,19.92,-0.037,0,0,3,727.24,7.651,0,1118.25,0,0,0,,0,0,0,0,0,0,0,0,0,0,0,0,0,270,0,0,0,0,0,0,0,0,0,0,0,0,0,3,3,0,0,VALID,0,0,0,0,0,1,0,0,0,0,0,0,0,0,0,0,0,0,0,0,332.89,1069.25,2,0,0.12,0.12,99,8.33,0.12,0.12,12.06,FLYING,X10-H,0:/Integrated Flight Computer/aircraft/x10_h_cfg.ks (inferred preloaded)
12.42,APPROACH,ILS_TRACK,150.61,152,1.39,688.09,611.47,-0.58,9.71,9.91,269.94,0.057,0.3137,0,19.792,1,0.6,4.5,0.75,0.35,0.0168,0.4,0,22.283,0,-1.392,0,269.96,0,0,1,-0.21,0,0,0,269.96,0.4216,-0.0007,0.9068,0,269.96,2.1,-427.13,19.863,-0.04,0,0,3,727.24,7.744,0,1115.24,0,0,0,,0,0,0,0,0,0,0,0,0,0,0,0,0,270,0,0,0,0,0,0,0,0,0,0,0,0,0,3,3,0,0,VALID,0,0,0,0,0,1,0,0,0,0,0,0,0,0,0,0,0,0,0,0,333.29,1069.78,2,0,0.12,0.12,102,8.33,0.12,0.12,12.42,FLYING,X10-H,0:/Integrated Flight Computer/aircraft/x10_h_cfg.ks (inferred preloaded)
12.78,APPROACH,ILS_TRACK,150.74,152,1.26,687.89,611.27,-0.55,9.71,9.91,269.95,0.057,0.3075,0,20,1,0.6,4.5,0.75,0.35,0.0168,0.4,0,22.249,0,-1.27,0,269.97,0,0,1,-0.21,0,0,0,269.96,0.4217,-0.0005,0.9067,0,269.97,2.04,-424.32,19.805,-0.031,0,0,3,727.24,7.809,0,1112.23,0,0,0,,0,0,0,0,0,0,0,0,0,0,0,0,0,270,0,0,0,0,0,0,0,0,0,0,0,0,0,3,3,0,0,VALID,0,0,0,0,0,1,0,0,0,0,0,0,0,0,0,0,0,0,0,0,333.52,1070.31,2,0,0.12,0.12,105,8.33,0.12,0.12,12.78,FLYING,X10-H,0:/Integrated Flight Computer/aircraft/x10_h_cfg.ks (inferred preloaded)
13.04,APPROACH,ILS_TRACK,150.83,152,1.17,687.74,611.13,-0.54,9.66,9.85,269.95,0.057,0.3002,0,20,1,0.6,4.5,0.75,0.35,0.0168,0.4,0,22.224,0,-1.18,0,269.96,0,0,1,-0.2,0,0,0,269.96,0.4218,-0.0006,0.9067,0,269.96,1.99,-422.3,19.764,-0.036,0,0,3,727.24,7.791,0,1110.06,0,0,0,,0,0,0,0,0,0,0,0,0,0,0,0,0,270,0,0,0,0,0,0,0,0,0,0,0,0,0,3,3,0,0,VALID,0,0,0,0,0,1,0,0,0,0,0,0,0,0,0,0,0,0,0,0,333.11,1070.7,2,0,0.12,0.12,107,7.69,0.14,0.12,13.04,FLYING,X10-H,0:/Integrated Flight Computer/aircraft/x10_h_cfg.ks (inferred preloaded)
13.4,APPROACH,ILS_TRACK,150.95,152,1.05,687.56,610.96,-0.52,9.65,9.84,269.95,0.055,0.2911,0,20,1,0.6,4.5,0.75,0.35,0.0168,0.4,0,22.189,0,-1.057,0,269.97,0,0,1,-0.19,0,0,0,269.96,0.4219,-0.0005,0.9067,0,269.97,1.93,-419.47,19.706,-0.028,0,0,3,727.24,7.871,0,1107.05,0,0,0,,0,0,0,0,0,0,0,0,0,0,0,0,0,270,0,0,0,0,0,0,0,0,0,0,0,0,0,3,3,0,0,VALID,0,0,0,0,0,1,0,0,0,0,0,0,0,0,0,0,0,0,0,0,331.49,1071.23,2,0,0.12,0.12,110,8.33,0.12,0.12,13.4,FLYING,X10-H,0:/Integrated Flight Computer/aircraft/x10_h_cfg.ks (inferred preloaded)
13.76,APPROACH,ILS_TRACK,151.06,152,0.94,687.39,610.79,-0.51,9.63,9.82,269.95,0.053,0.2869,0,20,1,0.6,4.5,0.75,0.35,0.0168,0.4,0,22.156,0,-0.942,0,269.97,0,0,1,-0.18,0,0,0,269.96,0.422,-0.0006,0.9066,0,269.97,1.87,-416.62,19.649,-0.032,0,0,3,727.24,7.901,0,1104.03,0,0,0,,0,0,0,0,0,0,0,0,0,0,0,0,0,270,0,0,0,0,0,0,0,0,0,0,0,0,0,3,3,0,0,VALID,0,0,0,0,0,1,0,0,0,0,0,0,0,0,0,0,0,0,0,0,329.09,1071.73,2,0,0.12,0.12,113,8.33,0.12,0.12,13.76,FLYING,X10-H,0:/Integrated Flight Computer/aircraft/x10_h_cfg.ks (inferred preloaded)
14.12,APPROACH,ILS_TRACK,151.16,152,0.84,687.23,610.64,-0.44,9.62,9.77,269.95,0.053,0.2908,0,20,1,0.6,4.5,0.75,0.35,0.0168,0.4,0,22.129,0,-0.845,0,269.97,0,0,1,-0.16,0,0,0,269.96,0.422,-0.0005,0.9066,0,269.97,1.81,-413.76,19.591,-0.03,0,0,3,727.24,7.877,0,1101.01,0,0,0,,0,0,0,0,0,0,0,0,0,0,0,0,0,270,0,0,0,0,0,0,0,0,0,0,0,0,0,3,3,0,0,VALID,0,0,0,0,0,1,0,0,0,0,0,0,0,0,0,0,0,0,0,0,326.64,1072.14,2,0,0.12,0.12,116,8.33,0.12,0.12,14.12,FLYING,X10-H,0:/Integrated Flight Computer/aircraft/x10_h_cfg.ks (inferred preloaded)
14.48,APPROACH,ILS_TRACK,151.24,152,0.76,687.11,610.49,-0.28,9.75,9.83,269.95,0.051,0.2999,0,20,1,0.6,4.5,0.75,0.35,0.0168,0.4,0,22.106,0,-0.764,0,269.97,0,0,1,-0.11,0,0,0,269.97,0.4221,-0.0006,0.9065,0,269.97,1.76,-410.86,19.533,-0.033,0,0,3,727.24,7.949,0,1097.99,0,0,0,,0,0,0,0,0,0,0,0,0,0,0,0,0,270,0,0,0,0,0,0,0,0,0,0,0,0,0,3,3,0,0,VALID,0,0,0,0,0,1,0,0,0,0,0,0,0,0,0,0,0,0,0,0,324.8,1072.48,2,0,0.12,0.12,119,8.33,0.12,0.12,14.48,FLYING,X10-H,0:/Integrated Flight Computer/aircraft/x10_h_cfg.ks (inferred preloaded)
14.84,APPROACH,ILS_TRACK,151.32,152,0.68,686.96,610.36,-0.36,9.63,9.77,269.95,0.05,0.2984,0,20,1,0.6,4.5,0.75,0.35,0.0168,0.4,0,22.084,0,-0.684,0,269.98,0,0,1,-0.15,0,0,0,269.97,0.4222,-0.0004,0.9065,0,269.98,1.69,-408,19.476,-0.021,0,0,3,727.24,8.11,0,1094.97,0,0,0,,0,0,0,0,0,0,0,0,0,0,0,0,0,270,0,0,0,0,0,0,0,0,0,0,0,0,0,3,3,0,0,VALID,0,0,0,0,0,1,0,0,0,0,0,0,0,0,0,0,0,0,0,0,324.82,1072.84,2,0,0.12,0.12,122,8.33,0.12,0.12,14.84,FLYING,X10-H,0:/Integrated Flight Computer/aircraft/x10_h_cfg.ks (inferred preloaded)
15.2,APPROACH,ILS_TRACK,151.41,152,0.59,686.83,610.24,-0.31,9.61,9.72,269.95,0.05,0.2914,0,20,1,0.6,4.5,0.75,0.35,0.0168,0.4,0,22.059,0,-0.595,0,269.98,0,0,1,-0.12,0,0,0,269.97,0.4223,-0.0004,0.9065,0,269.98,1.64,-405.1,19.418,-0.024,0,0,3,727.24,8.036,0,1091.95,0,0,0,,0,0,0,0,0,0,0,0,0,0,0,0,0,270,0,0,0,0,0,0,0,0,0,0,0,0,0,3,3,0,0,VALID,0,0,0,0,0,1,0,0,0,0,0,0,0,0,0,0,0,0,0,0,324.25,1073.22,2,0,0.12,0.12,125,8.33,0.12,0.12,15.2,FLYING,X10-H,0:/Integrated Flight Computer/aircraft/x10_h_cfg.ks (inferred preloaded)
15.46,APPROACH,ILS_TRACK,151.48,152,0.52,686.75,610.16,-0.31,9.6,9.71,269.95,0.049,0.2839,0,20,1,0.6,4.5,0.75,0.35,0.0168,0.4,0,22.039,0,-0.526,0,269.97,0,0,1,-0.11,0,0,0,269.97,0.4224,-0.0005,0.9064,0,269.97,1.6,-403.01,19.376,-0.026,0,0,3,727.24,8.07,0,1089.77,0,0,0,,0,0,0,0,0,0,0,0,0,0,0,0,0,270,0,0,0,0,0,0,0,0,0,0,0,0,0,3,3,0,0,VALID,0,0,0,0,0,1,0,0,0,0,0,0,0,0,0,0,0,0,0,0,323.22,1073.52,2,0,0.12,0.12,127,7.69,0.14,0.12,15.46,FLYING,X10-H,0:/Integrated Flight Computer/aircraft/x10_h_cfg.ks (inferred preloaded)
15.82,APPROACH,ILS_TRACK,151.57,152,0.43,686.64,610.05,-0.3,9.6,9.71,269.95,0.049,0.2777,0,20,1,0.6,4.5,0.75,0.35,0.0168,0.4,0,22.013,0,-0.434,0,269.97,0,0,1,-0.11,0,0,0,269.98,0.4225,-0.0005,0.9064,0,269.97,1.54,-400.09,19.319,-0.026,0,0,3,727.24,8.11,0,1086.74,0,0,0,,0,0,0,0,0,0,0,0,0,0,0,0,0,270,0,0,0,0,0,0,0,0,0,0,0,0,0,3,3,0,0,VALID,0,0,0,0,0,1,0,0,0,0,0,0,0,0,0,0,0,0,0,0,320.87,1073.92,2,0,0.12,0.12,130,8.33,0.12,0.12,15.82,FLYING,X10-H,0:/Integrated Flight Computer/aircraft/x10_h_cfg.ks (inferred preloaded)
16.18,APPROACH,ILS_TRACK,151.65,152,0.35,686.54,609.95,-0.27,9.59,9.68,269.95,0.047,0.2759,0,20,1,0.6,4.5,0.75,0.35,0.0168,0.4,0,21.99,0,-0.351,0,269.98,0,0,1,-0.1,0,0,0,269.98,0.4225,-0.0004,0.9063,0,269.98,1.49,-397.17,19.261,-0.021,0,0,3,727.24,8.138,0,1083.72,0,0,0,,0,0,0,0,0,0,0,0,0,0,0,0,0,270,0,0,0,0,0,0,0,0,0,0,0,0,0,3,3,0,0,VALID,0,0,0,0,0,1,0,0,0,0,0,0,0,0,0,0,0,0,0,0,318.19,1074.27,2,0,0.12,0.12,133,8.33,0.12,0.12,16.18,FLYING,X10-H,0:/Integrated Flight Computer/aircraft/x10_h_cfg.ks (inferred preloaded)
16.54,APPROACH,ILS_TRACK,151.73,152,0.27,686.45,609.86,-0.24,9.59,9.67,269.95,0.045,0.2777,0,20,1,0.6,4.5,0.75,0.35,0.0168,0.4,0,21.969,0,-0.278,0,269.97,0,0,1,-0.1,0,0,0,269.98,0.4226,-0.0005,0.9063,0,269.97,1.44,-394.23,19.203,-0.027,0,0,3,727.24,8.147,0,1080.69,0,0,0,,0,0,0,0,0,0,0,0,0,0,0,0,0,270,0,0,0,0,0,0,0,0,0,0,0,0,0,3,3,0,0,VALID,0,0,0,0,0,1,0,0,0,0,0,0,0,0,0,0,0,0,0,0,315.71,1074.58,2,0,0.12,0.12,136,8.33,0.12,0.12,16.54,FLYING,X10-H,0:/Integrated Flight Computer/aircraft/x10_h_cfg.ks (inferred preloaded)
16.9,APPROACH,ILS_TRACK,151.79,152,0.21,686.36,609.78,-0.21,9.59,9.67,269.95,0.043,0.281,0,20,1,0.6,4.5,0.75,0.35,0.0168,0.4,0,21.951,0,-0.214,0,269.98,0,0,1,-0.09,0,0,0,269.98,0.4227,-0.0003,0.9063,0,269.98,1.38,-391.29,19.145,-0.018,0,0,3,727.24,8.196,0,1077.66,0,0,0,,0,0,0,0,0,0,0,0,0,0,0,0,0,270,0,0,0,0,0,0,0,0,0,0,0,0,0,3,3,0,0,VALID,0,0,0,0,0,1,0,0,0,0,0,0,0,0,0,0,0,0,0,0,313.84,1074.86,2,0,0.12,0.12,139,8.33,0.12,0.12,16.9,FLYING,X10-H,0:/Integrated Flight Computer/aircraft/x10_h_cfg.ks (inferred preloaded)
17.26,APPROACH,ILS_TRACK,151.84,152,0.16,686.28,609.7,-0.2,9.59,9.66,269.95,0.042,0.2851,0,20,1,0.6,4.5,0.75,0.35,0.0168,0.4,0,21.936,0,-0.158,0,269.99,0,0,1,-0.08,0,0,0,269.97,0.4228,-0.0002,0.9062,0,269.99,1.33,-388.34,19.088,-0.014,0,0,3,727.24,8.207,0,1074.63,0,0,0,,0,0,0,0,0,0,0,0,0,0,0,0,0,270,0,0,0,0,0,0,0,0,0,0,0,0,0,3,3,0,0,VALID,0,0,0,0,0,1,0,0,0,0,0,0,0,0,0,0,0,0,0,0,312.66,1075.1,2,0,0.12,0.12,142,8.33,0.12,0.12,17.26,FLYING,X10-H,0:/Integrated Flight Computer/aircraft/x10_h_cfg.ks (inferred preloaded)
17.62,APPROACH,ILS_TRACK,151.9,152,0.1,686.21,609.63,-0.16,9.58,9.64,269.96,0.04,0.2861,0,20,1,0.6,4.5,0.75,0.35,0.0168,0.4,0,21.92,0,-0.104,0,269.99,0,0,1,-0.07,0,0,0,269.98,0.4229,-0.0002,0.9062,0,269.99,1.28,-385.38,19.03,-0.01,0,0,3,727.24,8.246,0,1071.6,0,0,0,,0,0,0,0,0,0,0,0,0,0,0,0,0,270,0,0,0,0,0,0,0,0,0,0,0,0,0,3,3,0,0,VALID,0,0,0,0,0,1,0,0,0,0,0,0,0,0,0,0,0,0,0,0,312.02,1075.33,2,0,0.12,0.12,145,8.33,0.12,0.12,17.62,FLYING,X10-H,0:/Integrated Flight Computer/aircraft/x10_h_cfg.ks (inferred preloaded)
17.88,APPROACH,ILS_TRACK,151.93,152,0.07,686.17,609.58,-0.17,9.58,9.64,269.96,0.04,0.2865,0,20,1,0.6,4.5,0.75,0.35,0.0168,0.4,0,21.91,0,-0.068,0,269.99,0,0,1,-0.07,0,0,0,269.98,0.423,-0.0002,0.9062,0,269.99,1.24,-383.23,18.988,-0.013,0,0,3,727.24,8.277,0,1069.41,0,0,0,,0,0,0,0,0,0,0,0,0,0,0,0,0,270,0,0,0,0,0,0,0,0,0,0,0,0,0,3,3,0,0,VALID,0,0,0,0,0,1,0,0,0,0,0,0,0,0,0,0,0,0,0,0,311.71,1075.49,2,0,0.12,0.12,147,7.69,0.14,0.12,17.88,FLYING,X10-H,0:/Integrated Flight Computer/aircraft/x10_h_cfg.ks (inferred preloaded)
18.24,APPROACH,ILS_TRACK,151.98,152,0.02,686.1,609.53,-0.15,9.57,9.62,269.96,0.04,0.2858,0,20,1,0.6,4.5,0.75,0.35,0.0168,0.4,0,21.896,0,-0.018,0,269.99,0,0,1,-0.05,0,0,0,269.99,0.423,-0.0002,0.9061,0,269.99,1.19,-380.26,18.93,-0.014,0,0,3,727.24,8.259,0,1066.37,0,0,0,,0,0,0,0,0,0,0,0,0,0,0,0,0,270,0,0,0,0,0,0,0,0,0,0,0,0,0,3,3,0,0,VALID,0,0,0,0,0,1,0,0,0,0,0,0,0,0,0,0,0,0,0,0,311.35,1075.7,2,0,0.12,0.12,150,8.33,0.12,0.12,18.24,FLYING,X10-H,0:/Integrated Flight Computer/aircraft/x10_h_cfg.ks (inferred preloaded)
18.6,APPROACH,ILS_TRACK,152.03,152,-0.03,686.05,609.47,-0.14,9.57,9.62,269.96,0.04,0.2842,0,19.995,1,0.6,4.5,0.75,0.35,0.0168,0.4,0,21.882,0,0.03,0,269.99,0,0,1,-0.05,0,0,0,269.99,0.4231,-0.0001,0.9061,0,269.99,1.14,-377.28,18.872,-0.008,0,0,3,727.24,8.282,0,1063.34,0,0,0,,0,0,0,0,0,0,0,0,0,0,0,0,0,270,0,0,0,0,0,0,0,0,0,0,0,0,0,3,3,0,0,VALID,0,0,0,0,0,1,0,0,0,0,0,0,0,0,0,0,0,0,0,0,310.91,1075.91,2,0,0.12,0.12,153,8.33,0.12,0.12,18.6,FLYING,X10-H,0:/Integrated Flight Computer/aircraft/x10_h_cfg.ks (inferred preloaded)
18.96,APPROACH,ILS_TRACK,152.08,152,-0.08,686.01,609.43,-0.11,9.56,9.6,269.96,0.039,0.282,0,19.972,1,0.6,4.5,0.75,0.35,0.0168,0.4,0,21.869,0,0.078,0,269.99,0,0,1,-0.05,0,0,0,269.99,0.4232,-0.0003,0.906,0,269.99,1.09,-374.29,18.814,-0.014,0,0,3,727.24,8.308,0,1060.3,0,0,0,,0,0,0,0,0,0,0,0,0,0,0,0,0,270,0,0,0,0,0,0,0,0,0,0,0,0,0,3,3,0,0,VALID,0,0,0,0,0,1,0,0,0,0,0,0,0,0,0,0,0,0,0,0,310.28,1076.12,2,0,0.12,0.12,156,8.33,0.12,0.12,18.96,FLYING,X10-H,0:/Integrated Flight Computer/aircraft/x10_h_cfg.ks (inferred preloaded)
19.32,APPROACH,ILS_TRACK,152.12,152,-0.12,685.97,609.39,-0.1,9.57,9.61,269.96,0.039,0.281,0,19.933,1,0.6,4.5,0.75,0.35,0.0168,0.4,0,21.856,0,0.122,0,269.99,0,0,1,-0.04,0,0,0,269.99,0.4233,-0.0001,0.906,0,269.99,1.04,-371.3,18.756,-0.008,0,0,3,727.24,8.331,0,1057.27,0,0,0,,0,0,0,0,0,0,0,0,0,0,0,0,0,270,0,0,0,0,0,0,0,0,0,0,0,0,0,3,3,0,0,VALID,0,0,0,0,0,1,0,0,0,0,0,0,0,0,0,0,0,0,0,0,309.45,1076.31,2,0,0.12,0.12,159,8.33,0.12,0.12,19.32,FLYING,X10-H,0:/Integrated Flight Computer/aircraft/x10_h_cfg.ks (inferred preloaded)
19.68,APPROACH,ILS_TRACK,152.17,152,-0.17,685.93,609.36,-0.07,9.56,9.59,269.96,0.038,0.28,0,19.879,1,0.6,4.5,0.75,0.35,0.0168,0.4,0,21.845,0,0.163,0,269.99,0,0,1,-0.03,0,0,0,269.99,0.4234,-0.0001,0.9059,0,269.99,1,-368.3,18.698,-0.007,0,0,3,727.24,8.356,0,1054.23,0,0,0,,0,0,0,0,0,0,0,0,0,0,0,0,0,270,0,0,0,0,0,0,0,0,0,0,0,0,0,3,3,0,0,VALID,0,0,0,0,0,1,0,0,0,0,0,0,0,0,0,0,0,0,0,0,308.63,1076.48,2,0,0.12,0.12,162,8.33,0.12,0.12,19.68,FLYING,X10-H,0:/Integrated Flight Computer/aircraft/x10_h_cfg.ks (inferred preloaded)
20.04,APPROACH,ILS_TRACK,152.2,152,-0.2,685.9,609.33,-0.07,9.56,9.59,269.96,0.038,0.2784,0,19.811,1,0.6,4.5,0.75,0.35,0.0168,0.4,0,21.834,0,0.202,0,269.99,0,0,1,-0.03,0,0,0,269.99,0.4235,-0.0001,0.9059,0,269.99,0.95,-365.29,18.64,-0.008,0,0,3,727.24,8.374,0,1051.19,0,0,0,,0,0,0,0,0,0,0,0,0,0,0,0,0,270,0,0,0,0,0,0,0,0,0,0,0,0,0,3,3,0,0,VALID,0,0,0,0,0,1,0,0,0,0,0,0,0,0,0,0,0,0,0,0,307.79,1076.65,2,0,0.12,0.12,165,8.33,0.12,0.12,20.04,FLYING,X10-H,0:/Integrated Flight Computer/aircraft/x10_h_cfg.ks (inferred preloaded)
20.3,APPROACH,ILS_TRACK,152.23,152,-0.23,685.89,609.31,-0.05,9.56,9.57,269.96,0.037,0.2775,0,19.753,1,0.6,4.5,0.75,0.35,0.0168,0.4,0,21.827,0,0.228,0,270,0,0,1,-0.02,0,0,0,270,0.4235,-0.0001,0.9059,0,270,0.92,-363.11,18.599,-0.003,0,0,3,727.24,8.372,0,1049,0,0,0,,0,0,0,0,0,0,0,0,0,0,0,0,0,270,0,0,0,0,0,0,0,0,0,0,0,0,0,3,3,0,0,VALID,0,0,0,0,0,1,0,0,0,0,0,0,0,0,0,0,0,0,0,0,307.1,1076.76,2,0,0.12,0.12,167,7.69,0.14,0.12,20.3,FLYING,X10-H,0:/Integrated Flight Computer/aircraft/x10_h_cfg.ks (inferred preloaded)
20.66,APPROACH,ILS_TRACK,152.26,152,-0.26,685.87,609.29,-0.05,9.56,9.57,269.96,0.037,0.2764,0,19.663,1,0.6,4.5,0.75,0.35,0.0168,0.4,0,21.817,0,0.262,0,269.99,0,0,1,-0.01,0,0,0,269.99,0.4236,-0.0001,0.9058,0,269.99,0.87,-360.09,18.541,-0.008,0,0,3,727.24,8.396,0,1045.96,0,0,0,,0,0,0,0,0,0,0,0,0,0,0,0,0,270,0,0,0,0,0,0,0,0,0,0,0,0,0,3,3,0,0,VALID,0,0,0,0,0,1,0,0,0,0,0,0,0,0,0,0,0,0,0,0,306.09,1076.9,2,0,0.12,0.12,170,8.33,0.12,0.12,20.66,FLYING,X10-H,0:/Integrated Flight Computer/aircraft/x10_h_cfg.ks (inferred preloaded)
21.02,APPROACH,ILS_TRACK,152.29,152,-0.29,685.86,609.28,-0.02,9.57,9.57,269.96,0.036,0.2767,0,19.562,1,0.6,4.5,0.75,0.35,0.0168,0.4,0,21.809,0,0.291,0,269.99,0,0,1,-0.01,0,0,0,270,0.4237,-0.0001,0.9058,0,269.99,0.83,-357.06,18.483,-0.006,0,0,3,727.24,8.445,0,1042.92,0,0,0,,0,0,0,0,0,0,0,0,0,0,0,0,0,270,0,0,0,0,0,0,0,0,0,0,0,0,0,3,3,0,0,VALID,0,0,0,0,0,1,0,0,0,0,0,0,0,0,0,0,0,0,0,0,305.13,1077.02,2,0,0.12,0.12,173,8.33,0.12,0.12,21.02,FLYING,X10-H,0:/Integrated Flight Computer/aircraft/x10_h_cfg.ks (inferred preloaded)
21.38,APPROACH,ILS_TRACK,152.32,152,-0.32,685.85,609.27,-0.01,9.56,9.57,269.96,0.035,0.2769,0,19.451,1,0.6,4.5,0.75,0.35,0.0168,0.4,0,21.802,0,0.315,0,270,0,0,1,-0.01,0,0,0,270,0.4238,0,0.9058,0,270,0.78,-354.03,18.425,0,0,0,3,727.24,8.427,0,1039.88,0,0,0,,0,0,0,0,0,0,0,0,0,0,0,0,0,270,0,0,0,0,0,0,0,0,0,0,0,0,0,3,3,0,0,VALID,0,0,0,0,0,1,0,0,0,0,0,0,0,0,0,0,0,0,0,0,304.37,1077.13,2,0,0.12,0.12,176,8.33,0.12,0.12,21.38,FLYING,X10-H,0:/Integrated Flight Computer/aircraft/x10_h_cfg.ks (inferred preloaded)
21.74,APPROACH,ILS_TRACK,152.34,152,-0.34,685.85,609.27,0.02,9.57,9.56,269.96,0.034,0.2758,0,19.332,1,0.6,4.5,0.75,0.35,0.0168,0.4,0,21.796,0,0.338,0,270,0,0,1,0,0,0,0,270,0.4239,0,0.9057,0,270,0.73,-350.99,18.367,0.002,0,0,3,727.24,8.458,0,1036.84,0,0,0,,0,0,0,0,0,0,0,0,0,0,0,0,0,270,0,0,0,0,0,0,0,0,0,0,0,0,0,3,3,0,0,VALID,0,0,0,0,0,1,0,0,0,0,0,0,0,0,0,0,0,0,0,0,303.62,1077.22,2,0,0.12,0.12,179,8.33,0.12,0.12,21.74,FLYING,X10-H,0:/Integrated Flight Computer/aircraft/x10_h_cfg.ks (inferred preloaded)
22.1,APPROACH,ILS_TRACK,152.36,152,-0.36,685.86,609.28,0.01,9.56,9.56,269.96,0.034,0.2759,0,19.206,1,0.6,4.5,0.75,0.35,0.0168,0.4,0,21.79,0,0.357,0,270,0,0,1,0.01,0,0,0,270,0.424,0,0.9057,0,270,0.69,-347.95,18.309,0.002,0,0,3,727.24,8.466,0,1033.8,0,0,0,,0,0,0,0,0,0,0,0,0,0,0,0,0,270,0,0,0,0,0,0,0,0,0,0,0,0,0,3,3,0,0,VALID,0,0,0,0,0,1,0,0,0,0,0,0,0,0,0,0,0,0,0,0,302.9,1077.3,2,0,0.12,0.12,182,8.33,0.12,0.12,22.1,FLYING,X10-H,0:/Integrated Flight Computer/aircraft/x10_h_cfg.ks (inferred preloaded)
22.46,APPROACH,ILS_TRACK,152.37,152,-0.37,685.87,609.29,0.02,9.56,9.56,269.96,0.034,0.2757,0,19.074,1,0.6,4.5,0.75,0.35,0.0168,0.4,0,21.786,0,0.373,0,270,0,0,1,0.01,0,0,0,270,0.4241,0,0.9056,0,270,0.65,-344.9,18.251,0,0,0,3,727.24,8.469,0,1030.76,0,0,0,,0,0,0,0,0,0,0,0,0,0,0,0,0,270,0,0,0,0,0,0,0,0,0,0,0,0,0,3,3,0,0,VALID,0,0,0,0,0,1,0,0,0,0,0,0,0,0,0,0,0,0,0,0,302.26,1077.37,2,0,0.12,0.12,185,8.33,0.12,0.12,22.46,FLYING,X10-H,0:/Integrated Flight Computer/aircraft/x10_h_cfg.ks (inferred preloaded)
22.72,APPROACH,ILS_TRACK,152.38,152,-0.38,685.88,609.3,0.04,9.57,9.56,269.96,0.033,0.276,0,18.975,1,0.6,4.5,0.75,0.35,0.0168,0.4,0,21.783,0,0.381,0,270,0,0,1,0.01,0,0,0,270.01,0.4241,0,0.9056,0,270,0.62,-342.69,18.209,0.001,0,0,3,727.24,8.489,0,1028.57,0,0,0,,0,0,0,0,0,0,0,0,0,0,0,0,0,270,0,0,0,0,0,0,0,0,0,0,0,0,0,3,3,0,0,VALID,0,0,0,0,0,1,0,0,0,0,0,0,0,0,0,0,0,0,0,0,301.82,1077.4,2,0,0.12,0.12,187,7.69,0.14,0.12,22.72,FLYING,X10-H,0:/Integrated Flight Computer/aircraft/x10_h_cfg.ks (inferred preloaded)
23.08,APPROACH,ILS_TRACK,152.39,152,-0.39,685.9,609.32,0.06,9.57,9.55,269.96,0.032,0.2756,0,18.835,1,0.6,4.5,0.75,0.35,0.0168,0.4,0,21.78,0,0.392,0,270.01,0,0,1,0.03,0,0,0,270,0.4242,0.0002,0.9056,0,270.01,0.58,-339.63,18.151,0.01,0,0,3,727.24,8.506,0,1025.52,0,0,0,,0,0,0,0,0,0,0,0,0,0,0,0,0,270,0,0,0,0,0,0,0,0,0,0,0,0,0,3,3,0,0,VALID,0,0,0,0,0,1,0,0,0,0,0,0,0,0,0,0,0,0,0,0,301.3,1077.45,2,0,0.12,0.12,190,8.33,0.12,0.12,23.08,FLYING,X10-H,0:/Integrated Flight Computer/aircraft/x10_h_cfg.ks (inferred preloaded)
23.44,APPROACH,ILS_TRACK,152.4,152,-0.4,685.92,609.34,0.08,9.58,9.55,269.96,0.032,0.2754,0,18.692,1,0.6,4.5,0.75,0.35,0.0168,0.4,0,21.778,0,0.4,0,270.01,0,0,1,0.03,0,0,0,270.01,0.4243,0.0001,0.9055,0,270.01,0.53,-336.56,18.093,0.007,0,0,3,727.24,8.545,0,1022.48,0,0,0,,0,0,0,0,0,0,0,0,0,0,0,0,0,270,0,0,0,0,0,0,0,0,0,0,0,0,0,3,3,0,0,VALID,0,0,0,0,0,1,0,0,0,0,0,0,0,0,0,0,0,0,0,0,300.78,1077.48,2,0,0.12,0.12,193,8.33,0.12,0.12,23.44,FLYING,X10-H,0:/Integrated Flight Computer/aircraft/x10_h_cfg.ks (inferred preloaded)
23.8,APPROACH,ILS_TRACK,152.41,152,-0.41,685.95,609.37,0.09,9.58,9.55,269.96,0.032,0.2751,0,18.546,1,0.6,4.5,0.75,0.35,0.0168,0.4,0,21.777,0,0.406,0,270.01,0,0,1,0.03,0,0,0,270.01,0.4244,0.0002,0.9055,0,270.01,0.49,-333.49,18.035,0.009,0,0,3,727.24,8.518,0,1019.44,0,0,0,,0,0,0,0,0,0,0,0,0,0,0,0,0,270,0,0,0,0,0,0,0,0,0,0,0,0,0,3,3,0,0,VALID,0,0,0,0,0,1,0,0,0,0,0,0,0,0,0,0,0,0,0,0,300.32,1077.5,2,0,0.12,0.12,196,8.33,0.12,0.12,23.8,FLYING,X10-H,0:/Integrated Flight Computer/aircraft/x10_h_cfg.ks (inferred preloaded)
24.16,APPROACH,ILS_TRACK,152.41,152,-0.41,685.98,609.4,0.09,9.58,9.55,269.96,0.033,0.2735,0,18.399,1,0.6,4.5,0.75,0.35,0.0168,0.4,0,21.775,0,0.412,0,270.02,0,0,1,0.04,0,0,0,270,0.4245,0.0003,0.9054,0,270.02,0.45,-330.42,17.977,0.018,0,0,3,727.24,8.538,0,1016.4,0,0,0,,0,0,0,0,0,0,0,0,0,0,0,0,0,270,0,0,0,0,0,0,0,0,0,0,0,0,0,3,3,0,0,VALID,0,0,0,0,0,1,0,0,0,0,0,0,0,0,0,0,0,0,0,0,299.8,1077.52,2,0,0.12,0.12,199,8.33,0.12,0.12,24.16,FLYING,X10-H,0:/Integrated Flight Computer/aircraft/x10_h_cfg.ks (inferred preloaded)
24.52,APPROACH,ILS_TRACK,152.42,152,-0.42,686.02,609.44,0.12,9.59,9.55,269.96,0.033,0.2718,0,18.25,1,0.6,4.5,0.75,0.35,0.0168,0.4,0,21.774,0,0.416,0,270.01,0,0,1,0.04,0,0,0,270.01,0.4246,0.0002,0.9054,0,270.01,0.41,-327.34,17.918,0.014,0,0,3,727.24,8.563,0,1013.36,0,0,0,,0,0,0,0,0,0,0,0,0,0,0,0,0,270,0,0,0,0,0,0,0,0,0,0,0,0,0,3,3,0,0,VALID,0,0,0,0,0,1,0,0,0,0,0,0,0,0,0,0,0,0,0,0,299.13,1077.54,2,0,0.12,0.12,202,8.33,0.12,0.12,24.52,FLYING,X10-H,0:/Integrated Flight Computer/aircraft/x10_h_cfg.ks (inferred preloaded)
24.88,APPROACH,ILS_TRACK,152.42,152,-0.42,686.07,609.48,0.12,9.59,9.54,269.97,0.036,0.2711,0,18.099,1,0.6,4.5,0.75,0.35,0.0168,0.4,0,21.773,0,0.418,0,270.01,0,0,1,0.05,0,0,0,270.01,0.4247,0.0001,0.9054,0,270.01,0.37,-324.25,17.86,0.008,0,0,3,727.24,8.575,0,1010.32,0,0,0,,0,0,0,0,0,0,0,0,0,0,0,0,0,270,0,0,0,0,0,0,0,0,0,0,0,0,0,3,3,0,0,VALID,0,0,0,0,0,1,0,0,0,0,0,0,0,0,0,0,0,0,0,0,298.36,1077.54,2,0,0.12,0.12,205,8.33,0.12,0.12,24.88,FLYING,X10-H,0:/Integrated Flight Computer/aircraft/x10_h_cfg.ks (inferred preloaded)
25.14,APPROACH,ILS_TRACK,152.42,152,-0.42,686.1,609.52,0.15,9.6,9.55,269.97,0.035,0.2716,0,17.991,1,0.6,4.5,0.75,0.35,0.0168,0.4,0,21.774,0,0.416,0,270.01,0,0,1,0.05,0,0,0,270.02,0.4247,0.0002,0.9053,0,270.01,0.34,-322.02,17.819,0.012,0,0,3,727.24,8.592,0,1008.12,0,0,0,,0,0,0,0,0,0,0,0,0,0,0,0,0,270,0,0,0,0,0,0,0,0,0,0,0,0,0,3,3,0,0,VALID,0,0,0,0,0,1,0,0,0,0,0,0,0,0,0,0,0,0,0,0,297.81,1077.53,2,0,0.12,0.12,207,7.69,0.14,0.12,25.14,FLYING,X10-H,0:/Integrated Flight Computer/aircraft/x10_h_cfg.ks (inferred preloaded)
25.5,APPROACH,ILS_TRACK,152.41,152,-0.41,686.15,609.57,0.16,9.6,9.54,269.97,0.036,0.2732,0,17.842,1,0.6,4.5,0.75,0.35,0.0168,0.4,0,21.775,0,0.41,0,270.02,0,0,1,0.06,0,0,0,270.01,0.4248,0.0003,0.9053,0,270.02,0.31,-318.93,17.76,0.015,0,0,3,727.24,8.602,0,1005.08,0,0,0,,0,0,0,0,0,0,0,0,0,0,0,0,0,270,0,0,0,0,0,0,0,0,0,0,0,0,0,3,3,0,0,VALID,0,0,0,0,0,1,0,0,0,0,0,0,0,0,0,0,0,0,0,0,297.27,1077.5,2,0,0.12,0.12,210,8.33,0.12,0.12,25.5,FLYING,X10-H,0:/Integrated Flight Computer/aircraft/x10_h_cfg.ks (inferred preloaded)
25.86,APPROACH,ILS_TRACK,152.4,152,-0.4,686.21,609.62,0.14,9.6,9.56,269.97,0.038,0.2742,0,17.697,1,0.6,4.5,0.75,0.35,0.0168,0.4,0,21.778,0,0.402,0,270.01,0,0,1,0.05,0,0,0,270.02,0.4249,0.0002,0.9052,0,270.01,0.27,-315.83,17.702,0.013,0,0,3,727.24,8.601,0,1002.04,0,0,0,,0,0,0,0,0,0,0,0,0,0,0,0,0,270,0,0,0,0,0,0,0,0,0,0,0,0,0,3,3,0,0,VALID,0,0,0,0,0,1,0,0,0,0,0,0,0,0,0,0,0,0,0,0,296.96,1077.46,2,0,0.12,0.12,213,8.33,0.12,0.12,25.86,FLYING,X10-H,0:/Integrated Flight Computer/aircraft/x10_h_cfg.ks (inferred preloaded)
26.22,APPROACH,ILS_TRACK,152.39,152,-0.39,686.27,609.68,0.19,9.62,9.55,269.97,0.039,0.2758,0,17.554,1,0.6,4.5,0.75,0.35,0.0168,0.4,0,21.781,0,0.39,0,270.02,0,0,1,0.07,0,0,0,270.02,0.425,0.0003,0.9052,0,270.02,0.23,-312.73,17.644,0.018,0,0,3,727.24,8.631,0,998.99,0,0,0,,0,0,0,0,0,0,0,0,0,0,0,0,0,270,0,0,0,0,0,0,0,0,0,0,0,0,0,3,3,0,0,VALID,0,0,0,0,0,1,0,0,0,0,0,0,0,0,0,0,0,0,0,0,296.81,1077.41,2,0,0.12,0.12,216,8.33,0.12,0.12,26.22,FLYING,X10-H,0:/Integrated Flight Computer/aircraft/x10_h_cfg.ks (inferred preloaded)
26.58,APPROACH,ILS_TRACK,152.38,152,-0.38,686.34,609.74,0.19,9.62,9.55,269.97,0.04,0.2759,0,17.417,1,0.6,4.5,0.75,0.35,0.0168,0.4,0,21.784,0,0.378,0,270.02,0,0,1,0.07,0,0,0,270.02,0.4251,0.0003,0.9052,0,270.02,0.19,-309.62,17.586,0.018,0,0,3,727.24,8.636,0,995.95,0,0,0,,0,0,0,0,0,0,0,0,0,0,0,0,0,270,0,0,0,0,0,0,0,0,0,0,0,0,0,3,3,0,0,VALID,0,0,0,0,0,1,0,0,0,0,0,0,0,0,0,0,0,0,0,0,296.85,1077.35,2,0,0.12,0.12,219,8.33,0.12,0.12,26.58,FLYING,X10-H,0:/Integrated Flight Computer/aircraft/x10_h_cfg.ks (inferred preloaded)
26.94,APPROACH,ILS_TRACK,152.37,152,-0.37,686.4,609.81,0.18,9.61,9.54,269.97,0.043,0.2732,0,17.283,1,0.6,4.5,0.75,0.35,0.0168,0.4,0,21.787,0,0.37,0,270.02,0,0,1,0.07,0,0,0,270.02,0.4252,0.0003,0.9051,0,270.02,0.16,-306.52,17.528,0.018,0,0,3,727.24,8.629,0,992.91,0,0,0,,0,0,0,0,0,0,0,0,0,0,0,0,0,270,0,0,0,0,0,0,0,0,0,0,0,0,0,3,3,0,0,VALID,0,0,0,0,0,1,0,0,0,0,0,0,0,0,0,0,0,0,0,0,296.79,1077.31,2,0,0.12,0.12,222,8.33,0.12,0.12,26.94,FLYING,X10-H,0:/Integrated Flight Computer/aircraft/x10_h_cfg.ks (inferred preloaded)
27.3,APPROACH,ILS_TRACK,152.36,152,-0.36,686.48,609.88,0.21,9.63,9.56,269.97,0.043,0.2717,0,17.152,1,0.6,4.5,0.75,0.35,0.0168,0.4,0,21.789,0,0.361,0,270.03,0,0,1,0.07,0,0,0,270.01,0.4252,0.0005,0.9051,0,270.03,0.12,-303.4,17.47,0.026,0,0,3,727.24,8.664,0,989.87,0,0,0,,0,0,0,0,0,0,0,0,0,0,0,0,0,270,0,0,0,0,0,0,0,0,0,0,0,0,0,3,3,0,0,VALID,0,0,0,0,0,1,0,0,0,0,0,0,0,0,0,0,0,0,0,0,296.41,1077.27,2,0,0.12,0.12,225,8.33,0.12,0.12,27.3,FLYING,X10-H,0:/Integrated Flight Computer/aircraft/x10_h_cfg.ks (inferred preloaded)
27.56,APPROACH,ILS_TRACK,152.35,152,-0.35,686.53,609.93,0.2,9.62,9.55,269.97,0.044,0.2723,0,17.06,1,0.6,4.5,0.75,0.35,0.0168,0.4,0,21.792,0,0.351,0,270.02,0,0,1,0.07,0,0,0,270.02,0.4253,0.0003,0.905,0,270.02,0.1,-301.16,17.428,0.019,0,0,3,727.24,8.655,0,987.68,0,0,0,,0,0,0,0,0,0,0,0,0,0,0,0,0,270,0,0,0,0,0,0,0,0,0,0,0,0,0,3,3,0,0,VALID,0,0,0,0,0,1,0,0,0,0,0,0,0,0,0,0,0,0,0,0,296.1,1077.22,2,0,0.12,0.12,227,7.69,0.14,0.12,27.56,FLYING,X10-H,0:/Integrated Flight Computer/aircraft/x10_h_cfg.ks (inferred preloaded)
27.92,APPROACH,ILS_TRACK,152.34,152,-0.34,686.61,610.01,0.23,9.63,9.55,269.97,0.044,0.2718,0,16.936,1,0.6,4.5,0.75,0.35,0.0168,0.4,0,21.795,0,0.339,0,270.02,0,0,1,0.08,0,0,0,270.02,0.4254,0.0003,0.905,0,270.02,0.06,-298.03,17.37,0.019,0,0,3,727.24,8.668,0,984.64,0,0,0,,0,0,0,0,0,0,0,0,0,0,0,0,0,270,0,0,0,0,0,0,0,0,0,0,0,0,0,3,3,0,0,VALID,0,0,0,0,0,1,0,0,0,0,0,0,0,0,0,0,0,0,0,0,295.72,1077.17,2,0,0.12,0.12,230,8.33,0.12,0.12,27.92,FLYING,X10-H,0:/Integrated Flight Computer/aircraft/x10_h_cfg.ks (inferred preloaded)
28.28,APPROACH,ILS_TRACK,152.33,152,-0.33,686.69,610.09,0.23,9.63,9.55,269.97,0.046,0.2716,0,16.817,1,0.6,4.5,0.75,0.35,0.0168,0.4,0,21.799,0,0.326,0,270.02,0,0,1,0.09,0,0,0,270.02,0.4255,0.0004,0.905,0,270.02,0.03,-294.91,17.312,0.024,0,0,3,727.24,8.685,0,981.59,0,0,0,,0,0,0,0,0,0,0,0,0,0,0,0,0,270,0,0,0,0,0,0,0,0,0,0,0,0,0,3,3,0,0,VALID,0,0,0,0,0,1,0,0,0,0,0,0,0,0,0,0,0,0,0,0,295.33,1077.1,2,0,0.12,0.12,233,8.33,0.12,0.12,28.28,FLYING,X10-H,0:/Integrated Flight Computer/aircraft/x10_h_cfg.ks (inferred preloaded)
28.64,APPROACH,ILS_TRACK,152.31,152,-0.31,686.78,610.18,0.23,9.63,9.56,269.97,0.047,0.2748,0,16.704,1,0.6,4.5,0.75,0.35,0.0168,0.4,0,21.804,0,0.307,0,270.02,0,0,1,0.09,0,0,0,270.02,0.4256,0.0004,0.9049,0,270.02,0,-291.79,17.254,0.023,0,0,3,727.24,8.666,0,978.55,0,0,0,,0,0,0,0,0,0,0,0,0,0,0,0,0,270,0,0,0,0,0,0,0,0,0,0,0,0,0,3,3,0,0,VALID,0,0,0,0,0,1,0,0,0,0,0,0,0,0,0,0,0,0,0,0,295.07,1077.01,2,0,0.12,0.12,236,8.33,0.12,0.12,28.64,FLYING,X10-H,0:/Integrated Flight Computer/aircraft/x10_h_cfg.ks (inferred preloaded)
29,APPROACH,ILS_TRACK,152.29,152,-0.29,686.87,610.27,0.26,9.65,9.56,269.98,0.047,0.2748,0,16.597,1,0.6,4.5,0.75,0.35,0.0168,0.4,0,21.809,0,0.29,0,270.02,0,0,1,0.1,0,0,0,270.02,0.4257,0.0004,0.9049,0,270.02,-0.03,-288.66,17.196,0.025,0,0,3,727.24,8.703,0,975.52,0,0,0,,0,0,0,0,0,0,0,0,0,0,0,0,0,270,0,0,0,0,0,0,0,0,0,0,0,0,0,3,3,0,0,VALID,0,0,0,0,0,1,0,0,0,0,0,0,0,0,0,0,0,0,0,0,295.08,1076.93,2,0,0.12,0.12,239,8.33,0.12,0.12,29,FLYING,X10-H,0:/Integrated Flight Computer/aircraft/x10_h_cfg.ks (inferred preloaded)
29.36,APPROACH,ILS_TRACK,152.27,152,-0.27,686.96,610.36,0.24,9.63,9.54,269.98,0.048,0.2772,0,16.498,1,0.6,4.5,0.75,0.35,0.0168,0.4,0,21.815,0,0.268,0,270.02,0,0,1,0.1,0,0,0,270.02,0.4257,0.0004,0.9048,0,270.02,-0.07,-285.53,17.138,0.025,0,0,3,727.24,8.653,0,972.48,0,0,0,,0,0,0,0,0,0,0,0,0,0,0,0,0,270,0,0,0,0,0,0,0,0,0,0,0,0,0,3,3,0,0,VALID,0,0,0,0,0,1,0,0,0,0,0,0,0,0,0,0,0,0,0,0,295.16,1076.83,2,0,0.12,0.12,242,8.33,0.12,0.12,29.36,FLYING,X10-H,0:/Integrated Flight Computer/aircraft/x10_h_cfg.ks (inferred preloaded)
29.72,APPROACH,ILS_TRACK,152.25,152,-0.25,687.06,610.45,0.27,9.66,9.56,269.98,0.048,0.2755,0,16.406,1,0.6,4.5,0.75,0.35,0.0168,0.4,0,21.82,0,0.251,0,270.02,0,0,1,0.1,0,0,0,270.03,0.4258,0.0003,0.9048,0,270.02,-0.09,-282.39,17.08,0.018,0,0,3,727.24,8.709,0,969.44,0,0,0,,0,0,0,0,0,0,0,0,0,0,0,0,0,270,0,0,0,0,0,0,0,0,0,0,0,0,0,3,3,0,0,VALID,0,0,0,0,0,1,0,0,0,0,0,0,0,0,0,0,0,0,0,0,295.32,1076.76,2,0,0.12,0.12,245,8.33,0.12,0.12,29.72,FLYING,X10-H,0:/Integrated Flight Computer/aircraft/x10_h_cfg.ks (inferred preloaded)
29.98,APPROACH,ILS_TRACK,152.24,152,-0.24,687.12,610.52,0.3,9.65,9.54,269.98,0.05,0.2748,0,16.343,1,0.6,4.5,0.75,0.35,0.0168,0.4,0,21.823,0,0.239,0,270.02,0,0,1,0.11,0,0,0,270.03,0.4259,0.0004,0.9048,0,270.02,-0.12,-280.13,17.039,0.022,0,0,3,727.24,8.694,0,967.24,0,0,0,,0,0,0,0,0,0,0,0,0,0,0,0,0,270,0,0,0,0,0,0,0,0,0,0,0,0,0,3,3,0,0,VALID,0,0,0,0,0,1,0,0,0,0,0,0,0,0,0,0,0,0,0,0,295.36,1076.7,2,0,0.12,0.12,247,7.69,0.14,0.12,29.98,FLYING,X10-H,0:/Integrated Flight Computer/aircraft/x10_h_cfg.ks (inferred preloaded)
30.34,APPROACH,ILS_TRACK,152.22,152,-0.22,687.23,610.62,0.26,9.66,9.57,269.98,0.051,0.2741,0,16.26,1,0.6,4.5,0.75,0.35,0.0168,0.4,0,21.828,0,0.223,0,270.03,0,0,1,0.1,0,0,0,270.03,0.426,0.0005,0.9047,0,270.03,-0.14,-276.99,16.981,0.026,0,0,3,727.24,8.728,0,964.2,0,0,0,,0,0,0,0,0,0,0,0,0,0,0,0,0,270,0,0,0,0,0,0,0,0,0,0,0,0,0,3,3,0,0,VALID,0,0,0,0,0,1,0,0,0,0,0,0,0,0,0,0,0,0,0,0,295.36,1076.62,2,0,0.12,0.12,250,8.33,0.12,0.12,30.34,FLYING,X10-H,0:/Integrated Flight Computer/aircraft/x10_h_cfg.ks (inferred preloaded)
30.7,APPROACH,ILS_TRACK,152.2,152,-0.2,687.33,610.72,0.29,9.66,9.56,269.98,0.051,0.2744,0,16.184,1,0.6,4.5,0.75,0.35,0.0168,0.4,0,21.833,0,0.205,0,270.02,0,0,1,0.11,0,0,0,270.02,0.4261,0.0004,0.9047,0,270.02,-0.17,-273.85,16.923,0.025,0,0,3,727.24,8.706,0,961.17,0,0,0,,0,0,0,0,0,0,0,0,0,0,0,0,0,270,0,0,0,0,0,0,0,0,0,0,0,0,0,3,3,0,0,VALID,0,0,0,0,0,1,0,0,0,0,0,0,0,0,0,0,0,0,0,0,295.23,1076.54,2,0,0.12,0.12,253,8.33,0.12,0.12,30.7,FLYING,X10-H,0:/Integrated Flight Computer/aircraft/x10_h_cfg.ks (inferred preloaded)
31.06,APPROACH,ILS_TRACK,152.19,152,-0.19,687.43,610.82,0.29,9.67,9.57,269.98,0.052,0.2739,0,16.114,1,0.6,4.5,0.75,0.35,0.0168,0.4,0,21.838,0,0.189,0,270.03,0,0,1,0.11,0,0,0,270.02,0.4262,0.0005,0.9046,0,270.03,-0.2,-270.71,16.865,0.029,0,0,3,727.24,8.735,0,958.13,0,0,0,,0,0,0,0,0,0,0,0,0,0,0,0,0,270,0,0,0,0,0,0,0,0,0,0,0,0,0,3,3,0,0,VALID,0,0,0,0,0,1,0,0,0,0,0,0,0,0,0,0,0,0,0,0,295.19,1076.47,2,0,0.12,0.12,256,8.33,0.12,0.12,31.06,FLYING,X10-H,0:/Integrated Flight Computer/aircraft/x10_h_cfg.ks (inferred preloaded)
31.42,APPROACH,ILS_TRACK,152.17,152,-0.17,687.54,610.93,0.32,9.68,9.57,269.98,0.052,0.2741,0,16.05,1,0.6,4.5,0.75,0.35,0.0168,0.4,0,21.842,0,0.172,0,270.02,0,0,1,0.12,0,0,0,270.03,0.4262,0.0004,0.9046,0,270.02,-0.22,-267.56,16.807,0.025,0,0,3,727.24,8.751,0,955.09,0,0,0,,0,0,0,0,0,0,0,0,0,0,0,0,0,270,0,0,0,0,0,0,0,0,0,0,0,0,0,3,3,0,0,VALID,0,0,0,0,0,1,0,0,0,0,0,0,0,0,0,0,0,0,0,0,295.12,1076.38,2,0,0.12,0.12,259,8.33,0.12,0.12,31.42,FLYING,X10-H,0:/Integrated Flight Computer/aircraft/x10_h_cfg.ks (inferred preloaded)
31.78,APPROACH,ILS_TRACK,152.15,152,-0.15,687.65,611.04,0.3,9.68,9.58,269.98,0.053,0.2761,0,15.993,1,0.6,4.5,0.75,0.35,0.0168,0.4,0,21.848,0,0.152,0,270.03,0,0,1,0.12,0,0,0,270.03,0.4263,0.0005,0.9046,0,270.03,-0.25,-264.41,16.749,0.027,0,0,3,727.24,8.759,0,952.05,0,0,0,,0,0,0,0,0,0,0,0,0,0,0,0,0,270,0,0,0,0,0,0,0,0,0,0,0,0,0,3,3,0,0,VALID,0,0,0,0,0,1,0,0,0,0,0,0,0,0,0,0,0,0,0,0,295.09,1076.29,2,0,0.12,0.12,262,8.33,0.12,0.12,31.78,FLYING,X10-H,0:/Integrated Flight Computer/aircraft/x10_h_cfg.ks (inferred preloaded)
32.14,APPROACH,ILS_TRACK,152.13,152,-0.13,687.76,611.15,0.3,9.67,9.56,269.98,0.055,0.2767,0,15.943,1,0.6,4.5,0.75,0.35,0.0168,0.4,0,21.854,0,0.133,0,270.03,0,0,1,0.12,0,0,0,270.03,0.4264,0.0005,0.9045,0,270.03,-0.27,-261.27,16.691,0.026,0,0,3,727.24,8.724,0,949.02,0,0,0,,0,0,0,0,0,0,0,0,0,0,0,0,0,270,0,0,0,0,0,0,0,0,0,0,0,0,0,3,3,0,0,VALID,0,0,0,0,0,1,0,0,0,0,0,0,0,0,0,0,0,0,0,0,295.25,1076.2,2,0,0.12,0.12,265,8.33,0.12,0.12,32.14,FLYING,X10-H,0:/Integrated Flight Computer/aircraft/x10_h_cfg.ks (inferred preloaded)
32.4,APPROACH,ILS_TRACK,152.12,152,-0.12,687.85,611.23,0.31,9.69,9.58,269.99,0.055,0.2768,0,15.911,1,0.6,4.5,0.75,0.35,0.0168,0.4,0,21.857,0,0.12,0,270.03,0,0,1,0.12,0,0,0,270.02,0.4265,0.0005,0.9045,0,270.03,-0.29,-258.99,16.649,0.031,0,0,3,727.24,8.752,0,946.82,0,0,0,,0,0,0,0,0,0,0,0,0,0,0,0,0,270,0,0,0,0,0,0,0,0,0,0,0,0,0,3,3,0,0,VALID,0,0,0,0,0,1,0,0,0,0,0,0,0,0,0,0,0,0,0,0,295.36,1076.14,2,0,0.12,0.12,267,7.69,0.14,0.12,32.4,FLYING,X10-H,0:/Integrated Flight Computer/aircraft/x10_h_cfg.ks (inferred preloaded)
32.76,APPROACH,ILS_TRACK,152.1,152,-0.1,687.96,611.35,0.31,9.69,9.58,269.99,0.055,0.2768,0,15.872,1,0.6,4.5,0.75,0.35,0.0168,0.4,0,21.862,0,0.102,0,270.03,0,0,1,0.12,0,0,0,270.02,0.4266,0.0005,0.9045,0,270.03,-0.31,-255.84,16.591,0.027,0,0,3,727.24,8.74,0,943.79,0,0,0,,0,0,0,0,0,0,0,0,0,0,0,0,0,270,0,0,0,0,0,0,0,0,0,0,0,0,0,3,3,0,0,VALID,0,0,0,0,0,1,0,0,0,0,0,0,0,0,0,0,0,0,0,0,295.52,1076.06,2,0,0.12,0.12,270,8.33,0.12,0.12,32.76,FLYING,X10-H,0:/Integrated Flight Computer/aircraft/x10_h_cfg.ks (inferred preloaded)
33.12,APPROACH,ILS_TRACK,152.08,152,-0.08,688.08,611.47,0.33,9.69,9.58,269.99,0.056,0.2774,0,15.84,1,0.6,4.5,0.75,0.35,0.0168,0.4,0,21.867,0,0.085,0,270.03,0,0,1,0.12,0,0,0,270.03,0.4267,0.0005,0.9044,0,270.03,-0.33,-252.68,16.533,0.027,0,0,3,727.24,8.762,0,940.75,0,0,0,,0,0,0,0,0,0,0,0,0,0,0,0,0,270,0,0,0,0,0,0,0,0,0,0,0,0,0,3,3,0,0,VALID,0,0,0,0,0,1,0,0,0,0,0,0,0,0,0,0,0,0,0,0,295.67,1075.98,2,0,0.12,0.12,273,8.33,0.12,0.12,33.12,FLYING,X10-H,0:/Integrated Flight Computer/aircraft/x10_h_cfg.ks (inferred preloaded)
33.48,APPROACH,ILS_TRACK,152.07,152,-0.07,688.2,611.59,0.34,9.7,9.58,269.99,0.056,0.2771,0,15.813,1,0.6,4.5,0.75,0.35,0.0168,0.4,0,21.871,0,0.069,0,270.03,0,0,1,0.13,0,0,0,270.03,0.4267,0.0005,0.9044,0,270.03,-0.35,-249.53,16.475,0.029,0,0,3,727.24,8.779,0,937.71,0,0,0,,0,0,0,0,0,0,0,0,0,0,0,0,0,270,0,0,0,0,0,0,0,0,0,0,0,0,0,3,3,0,0,VALID,0,0,0,0,0,1,0,0,0,0,0,0,0,0,0,0,0,0,0,0,295.84,1075.9,2,0,0.12,0.12,276,8.33,0.12,0.12,33.48,FLYING,X10-H,0:/Integrated Flight Computer/aircraft/x10_h_cfg.ks (inferred preloaded)
33.84,APPROACH,ILS_TRACK,152.05,152,-0.05,688.33,611.71,0.34,9.71,9.59,269.99,0.056,0.2777,0,15.792,1,0.6,4.5,0.75,0.35,0.0168,0.4,0,21.876,0,0.053,0,270.03,0,0,1,0.12,0,0,0,270.02,0.4268,0.0005,0.9043,0,270.03,-0.37,-246.37,16.417,0.026,0,0,3,727.24,8.792,0,934.68,0,0,0,,0,0,0,0,0,0,0,0,0,0,0,0,0,270,0,0,0,0,0,0,0,0,0,0,0,0,0,3,3,0,0,VALID,0,0,0,0,0,1,0,0,0,0,0,0,0,0,0,0,0,0,0,0,295.98,1075.82,2,0,0.12,0.12,279,8.33,0.12,0.12,33.84,FLYING,X10-H,0:/Integrated Flight Computer/aircraft/x10_h_cfg.ks (inferred preloaded)
34.2,APPROACH,ILS_TRACK,152.03,152,-0.03,688.51,611.81,0.16,9.89,9.87,269.99,0.056,0.2807,0,15.777,1,0.6,4.5,0.75,0.35,0.0168,0.4,0,21.882,0,0.033,0,270.03,0,0,1,0.07,0,0,0,270.03,0.4269,0.0005,0.9043,0,270.03,-0.39,-243.17,16.359,0.031,0,0,3,727.24,9.054,0,931.64,0,0,0,,0,0,0,0,0,0,0,0,0,0,0,0,0,270,0,0,0,0,0,0,0,0,0,0,0,0,0,3,3,0,0,VALID,0,0,0,0,0,1,0,0,0,0,0,0,0,0,0,0,0,0,0,0,296.18,1075.73,2,0,0.12,0.12,282,8.33,0.12,0.12,34.2,FLYING,X10-H,0:/Integrated Flight Computer/aircraft/x10_h_cfg.ks (inferred preloaded)
34.56,APPROACH,ILS_TRACK,151.93,152,0.07,688.84,611.91,0.44,10.77,10.65,269.99,0.055,0.3239,0,15.785,1,0.6,4.5,0.75,0.35,0.0168,0.4,0,21.907,0,-0.058,0,270.03,0,0,1,0.15,0,0,0,270.03,0.427,0.0005,0.9042,0,270.03,-0.41,-239.8,16.301,0.029,0,0,3,727.24,9.314,0,928.61,0,0,0,,0,0,0,0,0,0,0,0,0,0,0,0,0,270,0,0,0,0,0,0,0,0,0,0,0,0,0,3,3,0,0,VALID,0,0,0,0,0,1,0,0,0,0,0,0,0,0,0,0,0,0,0,0,297.19,1075.33,2,0,0.12,0.12,285,8.33,0.12,0.12,34.56,FLYING,X10-H,0:/Integrated Flight Computer/aircraft/x10_h_cfg.ks (inferred preloaded)
34.82,APPROACH,ILS_TRACK,151.83,152,0.17,689.05,612.07,0.69,11.01,10.78,269.99,0.057,0.3615,0,15.82,1,0.6,4.5,0.75,0.35,0.0168,0.4,0,21.936,0,-0.16,0,270.03,0,0,1,0.25,0,0,0,270.02,0.4271,0.0005,0.9042,0,270.03,-0.42,-237.4,16.26,0.028,0,0,3,727.24,9.224,0,926.42,0,0,0,,0,0,0,0,0,0,0,0,0,0,0,0,0,270,0,0,0,0,0,0,0,0,0,0,0,0,0,3,3,0,0,VALID,0,0,0,0,0,1,0,0,0,0,0,0,0,0,0,0,0,0,0,0,300.02,1074.89,2,0,0.12,0.12,287,7.69,0.14,0.12,34.82,FLYING,X10-H,0:/Integrated Flight Computer/aircraft/x10_h_cfg.ks (inferred preloaded)
35.18,APPROACH,ILS_TRACK,151.7,152,0.3,689.39,612.37,0.97,11.14,10.8,270,0.074,0.3941,0,15.91,1,0.6,4.5,0.75,0.35,0.0168,0.4,0,21.974,0,-0.293,0,270.03,0,0,1,0.36,0,0,0,270.03,0.4272,0.0005,0.9042,0,270.03,-0.43,-234.04,16.202,0.028,0,0,3,727.24,9.399,0,923.39,0,0,0,,0,0,0,0,0,0,0,0,0,0,0,0,0,270,0,0,0,0,0,0,0,0,0,0,0,0,0,3,3,0,0,VALID,0,0,0,0,0,1,0,0,0,0,0,0,0,0,0,0,0,0,0,0,306.82,1074.31,2,0,0.12,0.12,290,8.33,0.12,0.12,35.18,FLYING,X10-H,0:/Integrated Flight Computer/aircraft/x10_h_cfg.ks (inferred preloaded)
35.54,APPROACH,ILS_TRACK,151.59,152,0.41,689.82,612.77,1.24,11.24,10.8,270,0.095,0.4055,0,16.043,1,0.6,4.5,0.75,0.35,0.0168,0.4,0,22.005,0,-0.407,0,270.03,0,0,1,0.46,0,0,0,270.03,0.4272,0.0005,0.9041,0,270.03,-0.45,-230.6,16.144,0.027,0,0,3,727.24,9.662,0,920.36,0,0,0,,0,0,0,0,0,0,0,0,0,0,0,0,0,270,0,0,0,0,0,0,0,0,0,0,0,0,0,3,3,0,0,VALID,0,0,0,0,0,1,0,0,0,0,0,0,0,0,0,0,0,0,0,0,315.09,1073.8,2,0,0.12,0.12,293,8.33,0.12,0.12,35.54,FLYING,X10-H,0:/Integrated Flight Computer/aircraft/x10_h_cfg.ks (inferred preloaded)
35.9,APPROACH,ILS_TRACK,151.5,152,0.5,690.35,613.27,1.52,11.34,10.81,270.01,0.117,0.4035,0,16.211,1,0.6,4.5,0.75,0.35,0.0168,0.4,0,22.03,0,-0.495,0,270.02,0,0,1,0.56,0,0,0,270.03,0.4273,0.0004,0.9041,0,270.02,-0.46,-227.05,16.086,0.025,0,0,3,727.24,9.929,0,917.34,0,0,0,,0,0,0,0,0,0,0,0,0,0,0,0,0,270,0,0,0,0,0,0,0,0,0,0,0,0,0,3,3,0,0,VALID,0,0,0,0,0,1,0,0,0,0,0,0,0,0,0,0,0,0,0,0,323.34,1073.4,2,0,0.12,0.12,296,8.33,0.12,0.12,35.9,FLYING,X10-H,0:/Integrated Flight Computer/aircraft/x10_h_cfg.ks (inferred preloaded)
36.26,APPROACH,ILS_TRACK,151.44,152,0.56,690.97,613.87,1.79,11.43,10.81,270.02,0.135,0.3943,0,16.406,1,0.6,4.5,0.75,0.35,0.0168,0.4,0,22.049,0,-0.56,0,270.03,0,0,1,0.67,0,0,0,270.02,0.4274,0.0005,0.9041,0,270.03,-0.47,-223.41,16.029,0.029,0,0,3,727.24,10.201,0,914.31,0,0,0,,0,0,0,0,0,0,0,0,0,0,0,0,0,270,0,0,0,0,0,0,0,0,0,0,0,0,0,3,3,0,0,VALID,0,0,0,0,0,1,0,0,0,0,0,0,0,0,0,0,0,0,0,0,330.71,1073.09,2,0,0.12,0.12,299,8.33,0.12,0.12,36.26,FLYING,X10-H,0:/Integrated Flight Computer/aircraft/x10_h_cfg.ks (inferred preloaded)
36.62,APPROACH,ILS_TRACK,151.39,152,0.61,691.7,614.56,2.07,11.53,10.81,270.02,0.142,0.3828,0,16.618,1,0.6,4.5,0.75,0.35,0.0168,0.4,0,22.061,0,-0.604,0,270.02,0,0,1,0.77,0,0,0,270.03,0.4275,0.0004,0.904,0,270.02,-0.48,-219.68,15.971,0.024,0,0,3,727.24,10.475,0,911.29,0,0,0,,0,0,0,0,0,0,0,0,0,0,0,0,0,270,0,0,0,0,0,0,0,0,0,0,0,0,0,3,3,0,0,VALID,0,0,0,0,0,1,0,0,0,0,0,0,0,0,0,0,0,0,0,0,336.82,1072.86,2,0,0.12,0.12,302,8.33,0.12,0.12,36.62,FLYING,X10-H,0:/Integrated Flight Computer/aircraft/x10_h_cfg.ks (inferred preloaded)
36.98,APPROACH,ILS_TRACK,151.37,152,0.63,692.52,615.36,2.35,11.63,10.81,270.02,0.141,0.3721,0,16.843,1,0.6,4.5,0.75,0.35,0.0168,0.4,0,22.069,0,-0.633,0,270.02,0,0,1,0.88,0,0,0,270.02,0.4276,0.0003,0.904,0,270.02,-0.48,-215.84,15.913,0.016,0,0,3,727.24,10.752,0,908.27,0,0,0,,0,0,0,0,0,0,0,0,0,0,0,0,0,270,0,0,0,0,0,0,0,0,0,0,0,0,0,3,3,0,0,VALID,0,0,0,0,0,1,0,0,0,0,0,0,0,0,0,0,0,0,0,0,341.67,1072.68,2,0,0.12,0.12,305,8.33,0.12,0.12,36.98,FLYING,X10-H,0:/Integrated Flight Computer/aircraft/x10_h_cfg.ks (inferred preloaded)
37.24,APPROACH,ILS_TRACK,151.35,152,0.65,693.18,616,2.55,11.71,10.81,270.03,0.132,0.3665,0,17.01,1,0.6,4.5,0.75,0.35,0.0168,0.4,0,22.073,0,-0.647,0,270.02,0,0,1,0.95,0,0,0,270.02,0.4277,0.0004,0.9039,0,270.02,-0.48,-213.01,15.872,0.022,0,0,3,727.24,10.955,0,906.08,0,0,0,,0,0,0,0,0,0,0,0,0,0,0,0,0,270,0,0,0,0,0,0,0,0,0,0,0,0,0,3,3,0,0,VALID,0,0,0,0,0,1,0,0,0,0,0,0,0,0,0,0,0,0,0,0,344.51,1072.57,2,0,0.12,0.12,307,7.69,0.14,0.12,37.24,FLYING,X10-H,0:/Integrated Flight Computer/aircraft/x10_h_cfg.ks (inferred preloaded)
37.6,APPROACH,ILS_TRACK,151.34,152,0.66,694.18,616.97,2.83,11.81,10.81,270.03,0.12,0.3603,0,17.247,1,0.6,4.5,0.75,0.35,0.0168,0.4,0,22.077,0,-0.66,0,270.02,0,0,1,1.06,0,0,0,270.01,0.4277,0.0004,0.9039,0,270.02,-0.48,-208.99,15.814,0.021,0,0,3,727.24,11.237,0,903.06,0,0,0,,0,0,0,0,0,0,0,0,0,0,0,0,0,270,0,0,0,0,0,0,0,0,0,0,0,0,0,3,3,0,0,VALID,0,0,0,0,0,1,0,0,0,0,0,0,0,0,0,0,0,0,0,0,347.71,1072.44,2,0,0.12,0.12,310,8.33,0.12,0.12,37.6,FLYING,X10-H,0:/Integrated Flight Computer/aircraft/x10_h_cfg.ks (inferred preloaded)
37.96,APPROACH,ILS_TRACK,151.33,152,0.67,695.28,618.05,3.12,11.91,10.81,270.03,0.103,0.3572,0,17.487,1,0.6,4.5,0.75,0.35,0.0168,0.4,0,22.08,0,-0.669,0,270.01,0,0,1,1.17,0,0,0,270.01,0.4278,0.0002,0.9039,0,270.01,-0.47,-204.88,15.756,0.011,0,0,3,727.24,11.52,0,900.04,0,0,0,,0,0,0,0,0,0,0,0,0,0,0,0,0,270,0,0,0,0,0,0,0,0,0,0,0,0,0,3,3,0,0,VALID,0,0,0,0,0,1,0,0,0,0,0,0,0,0,0,0,0,0,0,0,350.29,1072.33,2,0,0.12,0.12,313,8.33,0.12,0.12,37.96,FLYING,X10-H,0:/Integrated Flight Computer/aircraft/x10_h_cfg.ks (inferred preloaded)
38.32,APPROACH,ILS_TRACK,151.32,152,0.68,696.49,619.23,3.4,12.01,10.81,270.02,0.084,0.3568,0,17.729,1,0.6,4.5,0.75,0.35,0.0168,0.4,0,22.081,0,-0.676,0,270.01,0,0,1,1.28,0,0,0,270.01,0.4279,0.0002,0.9038,0,270.01,-0.46,-200.67,15.699,0.011,0,0,3,727.24,11.805,0,897.02,0,0,0,,0,0,0,0,0,0,0,0,0,0,0,0,0,270,0,0,0,0,0,0,0,0,0,0,0,0,0,3,3,0,0,VALID,0,0,0,0,0,1,0,0,0,0,0,0,0,0,0,0,0,0,0,0,352.51,1072.21,2,0,0.12,0.12,316,8.33,0.12,0.12,38.32,FLYING,X10-H,0:/Integrated Flight Computer/aircraft/x10_h_cfg.ks (inferred preloaded)
