t_s,phase,subphase,ias_ms,vapp_ms,spd_err_ms,agl_m,vs_ms,pitch_deg,aoa_deg,hdg_deg,bank_deg,thr_cmd,thr_intg,aa_hdg_cmd_deg,aa_fpa_cmd_deg,ils_loc_m,ils_gs_m,ils_dist_km,loc_corr_deg,gs_corr_deg,flare_fpa_cmd,flare_tgt_vs,flare_frac,steer_hdg_deg,steer_blend,ro_loc_corr_deg,ro_hdg_err_deg,ro_yaw_tgt,ro_yaw_scale,ro_yaw_gate,yaw_cmd,roll_cmd,pitch_cmd,ro_pitch_tgt_deg,ro_pitch_err_deg,ro_pitch_ff,ro_roll_assist,flaps_cur,flaps_tgt,phase_el_s,status
1,APPROACH,FLY_TO_FIX,144.89,80.4,-64.49,1496.09,0.4,1.07,0.91,268.93,-4.109,0,-20,278.91,0.02,0,0,0,0,0,0,0,0,268.66,0,0,0,0,0,0,0,0,0,0,0,0,0,0,0,1.04,FLYING
1.74,APPROACH,FLY_TO_FIX,144.64,80.8,-63.84,1496.53,0.7,1.4,1.2,269.57,-10.942,0,-20,278.96,0.018,0,0,0,0,0,0,0,0,268.66,0,0,0,0,0,0,0,0,0,0,0,0,0,0,0,1.78,FLYING
2.44,APPROACH,FLY_TO_FIX,144.13,81.2,-62.93,1497.21,1.07,1.49,1.38,270.83,-23.905,0,-20,279,0.014,0,0,0,0,0,0,0,0,268.66,0,0,0,0,0,0,0,0,0,0,0,0,0,0,0,2.48,FLYING
3.14,APPROACH,FLY_TO_FIX,143.7,81.6,-62.1,1497.95,0.98,1.46,1.32,271.88,-26.955,0,-20,279.05,0.011,0,0,0,0,0,0,0,0,268.66,0,0,0,0,0,0,0,0,0,0,0,0,0,0,0,3.18,FLYING
3.84,APPROACH,FLY_TO_FIX,143.21,82,-61.21,1498.54,0.76,1.43,1.26,272.84,-25.15,0,-20,279.08,0.008,0,0,0,0,0,0,0,0,268.66,0,0,0,0,0,0,0,0,0,0,0,0,0,0,0,3.88,FLYING
4.74,APPROACH,FLY_TO_FIX,142.53,82.4,-60.13,1499.07,0.5,1.36,1.23,274,-21.223,0,-20,279.12,0.005,0,0,0,0,0,0,0,0,268.66,0,0,0,0,0,0,0,0,0,0,0,0,0,0,0,4.8,FLYING
5.76,APPROACH,FLY_TO_FIX,141.66,82.8,-58.86,1499.45,0.3,1.31,1.22,275.12,-17.073,0,-20,279.16,0.003,0,0,0,0,0,0,0,0,268.66,0,0,0,0,0,0,0,0,0,0,0,0,0,0,0,5.82,FLYING
6.81,APPROACH,FLY_TO_FIX,140.69,83.2,-57.49,1499.66,0.14,1.28,1.23,276.1,-13.707,0,-20,279.19,0.002,0,0,0,0,0,0,0,0,268.66,0,0,0,0,0,0,0,0,0,0,0,0,0,0,0,6.87,FLYING
7.86,APPROACH,FLY_TO_FIX,139.67,83.6,-56.07,1499.75,0.05,1.29,1.27,276.87,-10.674,0,-20,279.21,0.001,0,0,0,0,0,0,0,0,268.66,0,0,0,0,0,0,0,0,0,0,0,0,0,0,0,7.92,FLYING
8.91,APPROACH,FLY_TO_FIX,138.61,84,-54.61,1499.77,0,1.32,1.33,277.47,-8.122,0,-20,279.22,0.001,0,0,0,0,0,0,0,0,268.66,0,0,0,0,0,0,0,0,0,0,0,0,0,0,0,8.97,FLYING
9.96,APPROACH,FLY_TO_FIX,137.51,84,-53.51,1499.77,-0.02,1.38,1.39,277.92,-6.096,0,-20,279.24,0.001,0,0,0,0,0,0,0,0,268.66,0,0,0,0,0,0,0,0,0,0,0,0,0,0,0,10.02,FLYING
11.01,APPROACH,FLY_TO_FIX,136.38,84,-52.38,1499.75,-0.02,1.45,1.45,278.27,-4.545,0,-20,279.25,0.001,0,0,0,0,0,0,0,0,268.66,0,0,0,0,0,0,0,0,0,0,0,0,0,0,0,11.07,FLYING
12.06,APPROACH,FLY_TO_FIX,135.23,84,-51.23,1499.75,-0.01,1.52,1.53,278.53,-3.376,0,-20,279.25,0.001,0,0,0,0,0,0,0,0,268.66,0,0,0,0,0,0,0,0,0,0,0,0,0,0,0,12.12,FLYING
13.11,APPROACH,FLY_TO_FIX,134.07,84,-50.07,1499.75,0,1.6,1.6,278.72,-2.497,0,-20,279.26,0.001,0,0,0,0,0,0,0,0,268.66,0,0,0,0,0,0,0,0,0,0,0,0,0,0,0,13.17,FLYING
14.16,APPROACH,FLY_TO_FIX,132.9,84,-48.9,1499.77,0.01,1.69,1.68,278.85,-1.728,0,-20,279.26,0.001,0,0,0,0,0,0,0,0,268.66,0,0,0,0,0,0,0,0,0,0,0,0,0,0,0,14.22,FLYING
15.21,APPROACH,FLY_TO_FIX,131.72,84,-47.72,1499.79,0.01,1.77,1.77,278.94,-1.113,0,-20,279.27,0.001,0,0,0,0,0,0,0,0,268.66,0,0,0,0,0,0,0,0,0,0,0,0,0,0,0,15.27,FLYING
16.26,APPROACH,FLY_TO_FIX,130.53,84,-46.53,1499.82,0.02,1.86,1.85,279,-0.725,0,-20,279.27,0.001,0,0,0,0,0,0,0,0,268.66,0,0,0,0,0,0,0,0,0,0,0,0,0,0,0,16.32,FLYING
17.31,APPROACH,FLY_TO_FIX,129.34,84,-45.34,1499.86,0.03,1.96,1.94,279.04,-0.495,0,-20,279.27,0.001,0,0,0,0,0,0,0,0,268.66,0,0,0,0,0,0,0,0,0,0,0,0,0,0,0,17.37,FLYING
18.36,APPROACH,FLY_TO_FIX,128.15,84,-44.15,1499.9,0.03,2.05,2.03,279.07,-0.36,0,-20,279.28,0.001,0,0,0,0,0,0,0,0,268.66,0,0,0,0,0,0,0,0,0,0,0,0,0,0,0,18.42,FLYING
19.41,APPROACH,FLY_TO_FIX,126.96,84,-42.96,1499.96,0.04,2.14,2.13,279.1,-0.276,0,-20,279.28,0,0,0,0,0,0,0,0,0,268.66,0,0,0,0,0,0,0,0,0,0,0,0,0,0,0,19.47,FLYING
20.46,APPROACH,FLY_TO_FIX,125.76,84,-41.76,1500.01,0.04,2.24,2.22,279.11,-0.224,0,-20,279.28,0,0,0,0,0,0,0,0,0,268.66,0,0,0,0,0,0,0,0,0,0,0,0,0,0,0,20.52,FLYING
21.51,APPROACH,FLY_TO_FIX,124.57,84,-40.57,1500.07,0.04,2.34,2.32,279.13,-0.188,0,-20,279.28,0,0,0,0,0,0,0,0,0,268.66,0,0,0,0,0,0,0,0,0,0,0,0,0,0,0,21.57,FLYING
22.56,APPROACH,FLY_TO_FIX,123.38,84,-39.38,1500.13,0.04,2.44,2.42,279.14,-0.163,0,-20,279.28,-0.001,0,0,0,0,0,0,0,0,268.66,0,0,0,0,0,0,0,0,0,0,0,0,0,0,0,22.62,FLYING
23.61,APPROACH,FLY_TO_FIX,122.19,84,-38.19,1500.2,0.04,2.55,2.53,279.15,-0.145,0,-20,279.28,-0.001,0,0,0,0,0,0,0,0,268.66,0,0,0,0,0,0,0,0,0,0,0,0,0,0,0,23.67,FLYING
24.66,APPROACH,FLY_TO_FIX,121,84,-37,1500.26,0.04,2.66,2.64,279.16,-0.127,0,-20,279.28,-0.001,0,0,0,0,0,0,0,0,268.66,0,0,0,0,0,0,0,0,0,0,0,0,0,0,0,24.72,FLYING
25.71,APPROACH,FLY_TO_FIX,119.81,84,-35.81,1500.32,0.04,2.77,2.75,279.17,-0.116,0,-20,279.29,-0.002,0,0,0,0,0,0,0,0,268.66,0,0,0,0,0,0,0,0,0,0,0,0,0,0,0,25.77,FLYING
26.76,APPROACH,FLY_TO_FIX,118.63,84,-34.63,1500.39,0.04,2.89,2.86,279.18,-0.104,0,-20,279.29,-0.002,0,0,0,0,0,0,0,0,268.66,0,0,0,0,0,0,0,0,0,0,0,0,0,0,0,26.82,FLYING
27.81,APPROACH,FLY_TO_FIX,117.44,84,-33.44,1500.45,0.04,3,2.98,279.19,-0.094,0,-20,279.29,-0.002,0,0,0,0,0,0,0,0,268.66,0,0,0,0,0,0,0,0,0,0,0,0,0,0,0,27.87,FLYING
28.86,APPROACH,FLY_TO_FIX,116.25,84,-32.25,1500.51,0.04,3.13,3.11,279.19,-0.085,0,-20,279.29,-0.003,0,0,0,0,0,0,0,0,268.66,0,0,0,0,0,0,0,0,0,0,0,0,0,0,0,28.92,FLYING
29.91,APPROACH,FLY_TO_FIX,115.06,84,-31.06,1500.57,0.04,3.25,3.23,279.2,-0.074,0,-20,279.29,-0.003,0,0,0,0,0,0,0,0,268.66,0,0,0,0,0,0,0,0,0,0,0,0,0,0,0,29.97,FLYING
30.96,APPROACH,FLY_TO_FIX,113.87,84,-29.87,1500.63,0.03,3.38,3.36,279.2,-0.068,0,-20,279.29,-0.003,0,0,0,0,0,0,0,0,268.66,0,0,0,0,0,0,0,0,0,0,0,0,0,0,0,31.02,FLYING
32.01,APPROACH,FLY_TO_FIX,112.68,84,-28.68,1500.68,0.03,3.52,3.5,279.21,-0.065,0,-20,279.29,-0.003,0,0,0,0,0,0,0,0,268.66,0,0,0,0,0,0,0,0,0,0,0,0,0,0,0,32.07,FLYING
33.06,APPROACH,FLY_TO_FIX,111.49,84,-27.49,1500.73,0.02,3.65,3.64,279.22,-0.06,0,-20,279.29,-0.004,0,0,0,0,0,0,0,0,268.66,0,0,0,0,0,0,0,0,0,0,0,0,0,0,0,33.12,FLYING
34.11,APPROACH,FLY_TO_FIX,110.29,84,-26.29,1500.77,0.02,3.8,3.78,279.22,-0.055,0,-20,279.29,-0.004,0,0,0,0,0,0,0,0,268.66,0,0,0,0,0,0,0,0,0,0,0,0,0,0,0,34.17,FLYING
35.16,APPROACH,FLY_TO_FIX,109.1,84,-25.1,1500.81,0.01,3.95,3.94,279.22,-0.051,0,-20,279.3,-0.004,0,0,0,0,0,0,0,0,268.66,0,0,0,0,0,0,0,0,0,0,0,0,0,0,0,35.22,FLYING
36.21,APPROACH,FLY_TO_FIX,107.89,84,-23.89,1500.85,0,4.1,4.09,279.23,-0.049,0,-20,279.3,-0.004,0,0,0,0,0,0,0,0,268.66,0,0,0,0,0,0,0,0,0,0,0,0,0,0,0,36.27,FLYING
37.26,APPROACH,FLY_TO_FIX,106.69,84,-22.69,1500.87,0,4.26,4.25,279.23,-0.045,0,-20,279.3,-0.004,0,0,0,0,0,0,0,0,268.66,0,0,0,0,0,0,0,0,0,0,0,0,0,0,0,37.32,FLYING
38.31,APPROACH,FLY_TO_FIX,105.48,84,-21.48,1500.89,-0.01,4.42,4.42,279.23,-0.043,0,-20,279.3,-0.004,0,0,0,0,0,0,0,0,268.66,0,0,0,0,0,0,0,0,0,0,0,0,0,0,0,38.37,FLYING
39.36,APPROACH,FLY_TO_FIX,104.26,84,-20.26,1500.9,-0.02,4.59,4.6,279.24,-0.039,0,-20,279.3,-0.005,0,0,0,0,0,0,0,0,268.66,0,0,0,0,0,0,0,0,0,0,0,0,0,0,0,39.42,FLYING
40.41,APPROACH,FLY_TO_FIX,103.04,84,-19.04,1500.91,-0.03,4.77,4.78,279.24,-0.035,0,-20,279.3,-0.005,0,0,0,0,0,0,0,0,268.66,0,0,0,0,0,0,0,0,0,0,0,0,0,0,0,40.47,FLYING
41.46,APPROACH,FLY_TO_FIX,101.82,84,-17.82,1500.9,-0.04,4.96,4.97,279.24,-0.033,0,-20,279.3,-0.005,0,0,0,0,0,0,0,0,268.66,0,0,0,0,0,0,0,0,0,0,0,0,0,0,0,41.52,FLYING
42.51,APPROACH,FLY_TO_FIX,100.58,84,-16.58,1500.88,-0.05,5.15,5.17,279.24,-0.032,0,-20,279.3,-0.004,0,0,0,0,0,0,0,0,268.66,0,0,0,0,0,0,0,0,0,0,0,0,0,0,0,42.57,FLYING
43.56,APPROACH,FLY_TO_FIX,99.34,84,-15.34,1500.86,-0.06,5.36,5.38,279.24,-0.03,0,-20,279.3,-0.004,0,0,0,0,0,0,0,0,268.66,0,0,0,0,0,0,0,0,0,0,0,0,0,0,0,43.62,FLYING
44.61,APPROACH,FLY_TO_FIX,98.08,84,-14.08,1500.82,-0.07,5.57,5.6,279.24,-0.027,0,-20,279.3,-0.004,0,0,0,0,0,0,0,0,268.66,0,0,0,0,0,0,0,0,0,0,0,0,0,0,0,44.67,FLYING
45.66,APPROACH,FLY_TO_FIX,96.82,84,-12.82,1500.78,-0.09,5.79,5.83,279.24,-0.024,0.0023,-20,279.3,-0.004,0,0,0,0,0,0,0,0,268.66,0,0,0,0,0,0,0,0,0,0,0,0,0,0,0,45.72,FLYING
46.71,APPROACH,FLY_TO_FIX,95.54,84,-11.54,1500.72,-0.1,6.03,6.08,279.24,-0.022,0.0066,-20,279.3,-0.004,0,0,0,0,0,0,0,0,268.66,0,0,0,0,0,0,0,0,0,0,0,0,0,0,0,46.77,FLYING
47.76,APPROACH,FLY_TO_FIX,94.25,84,-10.25,1500.65,-0.11,6.28,6.33,279.24,-0.022,0.0113,-20,279.31,-0.003,0,0,0,0,0,0,0,0,268.66,0,0,0,0,0,0,0,0,0,0,0,0,0,0,0,47.82,FLYING
48.81,APPROACH,FLY_TO_FIX,92.94,84,-8.94,1500.57,-0.12,6.54,6.6,279.24,-0.021,0.0163,-20,279.31,-0.003,0,0,0,0,0,0,0,0,268.66,0,0,0,0,0,0,0,0,0,0,0,0,0,0,0,48.87,FLYING
49.86,APPROACH,FLY_TO_FIX,91.63,84,-7.63,1500.49,-0.13,6.82,6.89,279.24,-0.021,0.0215,-20,279.31,-0.002,0,0,0,0,0,0,0,0,268.66,0,0,0,0,0,0,0,0,0,0,0,0,0,0,0,49.92,FLYING
50.91,APPROACH,FLY_TO_FIX,90.3,84,-6.3,1500.39,-0.14,7.11,7.18,279.24,-0.02,0.083,-20,279.31,-0.002,0,0,0,0,0,0,0,0,268.66,0,0,0,0,0,0,0,0,0,0,0,0,0,0,0,50.97,FLYING
51.96,APPROACH,FLY_TO_FIX,88.97,84,-4.97,1500.29,-0.15,7.42,7.5,279.24,-0.021,0.1546,-20,279.31,-0.001,0,0,0,0,0,0,0,0,268.66,0,0,0,0,0,0,0,0,0,0,0,0,0,0,0,52.02,FLYING
53.01,APPROACH,FLY_TO_FIX,87.65,84,-3.65,1500.17,-0.16,7.73,7.82,279.24,-0.021,0.2231,-20,279.31,-0.001,0,0,0,0,0,0,0,0,268.66,0,0,0,0,0,0,0,0,0,0,0,0,0,0,0,53.07,FLYING
54.06,APPROACH,FLY_TO_FIX,86.37,84,-2.37,1500.05,-0.17,8.05,8.14,279.24,-0.02,0.2855,-20,279.31,0,0,0,0,0,0,0,0,0,268.66,0,0,0,0,0,0,0,0,0,0,0,0,0,0,0,54.12,FLYING
55.11,APPROACH,FLY_TO_FIX,85.15,84,-1.15,1499.93,-0.17,8.35,8.45,279.24,-0.02,0.3397,-20,279.31,0,0,0,0,0,0,0,0,0,268.66,0,0,0,0,0,0,0,0,0,0,0,0,0,0,0,55.17,FLYING
56.15,APPROACH,FLY_TO_FIX,84.01,84,-0.01,1499.79,-0.18,8.65,8.75,279.24,-0.02,0.3841,-20,279.31,0.001,0,0,0,0,0,0,0,0,268.66,0,0,0,0,0,0,0,0,0,0,0,0,0,0,0,56.2,FLYING
56.9,APPROACH,FLY_TO_FIX,83.19,84,0.81,1499.69,-0.18,8.85,8.95,279.24,-0.019,0.3886,-19.616,279.31,0.001,0,0,0,0,0,0,0,0,268.66,0,0,0,0,0,0,0,0,0,0,0,0,0,0,0,56.94,FLYING
57.6,APPROACH,FLY_TO_FIX,82.52,84,1.48,1499.6,-0.18,9.03,9.13,279.24,-0.019,0.3809,-18.896,279.31,0.002,0,0,0,0,0,0,0,0,268.66,0,0,0,0,0,0,0,0,0,0,0,0,0,0,0,57.64,FLYING
58.3,APPROACH,FLY_TO_FIX,81.89,84,2.11,1499.51,-0.17,9.21,9.31,279.24,-0.018,0.381,-17.861,279.31,0.002,0,0,0,0,0,0,0,0,268.66,0,0,0,0,0,0,0,0,0,0,0,0,0,0,0,58.34,FLYING
59,APPROACH,FLY_TO_FIX,81.3,84,2.7,1499.41,-0.17,9.37,9.48,279.24,-0.017,0.3877,-16.528,279.31,0.003,0,0,0,0,0,0,0,0,268.66,0,0,0,0,0,0,0,0,0,0,0,0,0,0,0,59.04,FLYING
59.7,APPROACH,FLY_TO_FIX,80.75,84,3.25,1499.32,-0.17,9.53,9.64,279.24,-0.016,0.4001,-14.917,279.31,0.003,0,0,0,0,0,0,0,0,268.66,0,0,0,0,0,0,0,0,0,0,0,0,0,0,0,59.74,FLYING
60.4,APPROACH,FLY_TO_FIX,80.23,84,3.77,1499.23,-0.17,9.68,9.79,279.24,-0.015,0.4172,-13.044,279.31,0.004,0,0,0,0,0,0,0,0,268.66,0,0,0,0,0,0,0,0,0,0,0,0,0,0,0,60.44,FLYING
61.1,APPROACH,FLY_TO_FIX,79.74,84,4.26,1499.14,-0.16,9.83,9.93,279.24,-0.015,0.438,-10.93,279.31,0.004,0,0,0,0,0,0,0,0,268.66,0,0,0,0,0,0,0,0,0,0,0,0,0,0,0,61.14,FLYING
61.8,APPROACH,FLY_TO_FIX,79.3,84,4.7,1499.05,-0.16,9.96,10.06,279.24,-0.015,0.4614,-8.592,279.31,0.005,0,0,0,0,0,0,0,0,268.66,0,0,0,0,0,0,0,0,0,0,0,0,0,0,0,61.84,FLYING
62.5,APPROACH,FLY_TO_FIX,78.9,84,5.1,1498.96,-0.15,10.07,10.16,279.24,-0.014,0.4865,-6.052,279.32,0.005,0,0,0,0,0,0,0,0,268.66,0,0,0,0,0,0,0,0,0,0,0,0,0,0,0,62.54,FLYING
63.2,APPROACH,FLY_TO_FIX,78.54,84,5.46,1498.87,-0.14,10.17,10.26,279.24,-0.013,0.5124,-3.331,279.32,0.006,0,0,0,0,0,0,0,0,268.66,0,0,0,0,0,0,0,0,0,0,0,0,0,0,0,63.24,FLYING
63.95,APPROACH,FLY_TO_FIX,78.22,84,5.78,1498.78,-0.14,10.26,10.35,279.24,-0.012,0.538,-0.453,279.32,0.006,0,0,0,0,0,0,0,0,268.66,0,0,0,0,0,0,0,0,0,0,0,0,0,0,0,64.02,FLYING
65.12,APPROACH,FLY_TO_FIX,77.83,84,6.17,1498.64,-0.13,10.37,10.45,279.24,-0.014,0.5833,2.623,279.32,0.007,0,0,0,0,0,0,0,0,268.66,0,0,0,0,0,0,0,0,0,0,0,0,0,0,0,65.19,FLYING
66.31,APPROACH,FLY_TO_FIX,77.56,84,6.44,1498.5,-0.12,10.42,10.5,279.24,-0.015,0.6149,5.839,279.32,0.007,0,0,0,0,0,0,0,0,268.66,0,0,0,0,0,0,0,0,0,0,0,0,0,0,0,66.38,FLYING
67.53,APPROACH,FLY_TO_FIX,77.45,84,6.55,1498.36,-0.09,10.42,10.48,279.24,-0.015,0.6271,9.113,279.32,0.008,0,0,0,0,0,0,0,0,268.66,0,0,0,0,0,0,0,0,0,0,0,0,0,1,1,67.6,FLYING
68.79,APPROACH,FLY_TO_FIX,77.5,84,6.5,1498.25,-0.02,10.2,10.22,279.24,-0.016,0.6205,12.363,279.32,0.009,0,0,0,0,0,0,0,0,268.66,0,0,0,0,0,0,0,0,0,0,0,0,0,1,1,68.86,FLYING
69.98,APPROACH,FLY_TO_FIX,77.7,84,6.3,1498.22,0.03,9.89,9.87,279.24,-0.016,0.6001,15.516,279.32,0.009,0,0,0,0,0,0,0,0,268.66,0,0,0,0,0,0,0,0,0,0,0,0,0,1,1,70.05,FLYING
71.17,APPROACH,FLY_TO_FIX,78.02,84,5.98,1498.23,0.05,9.62,9.59,279.24,-0.017,0.5684,18.51,279.32,0.009,0,0,0,0,0,0,0,0,268.66,0,0,0,0,0,0,0,0,0,0,0,0,0,1,1,71.24,FLYING
72.36,APPROACH,FLY_TO_FIX,78.48,84,5.52,1498.26,0.06,9.46,9.42,279.24,-0.015,0.5096,20,279.32,0.009,0,0,0,0,0,0,0,0,268.66,0,0,0,0,0,0,0,0,0,0,0,0,0,1,1,72.43,FLYING
73.59,APPROACH,FLY_TO_FIX,79.05,84,4.95,1498.32,0.08,9.26,9.21,279.24,-0.017,0.4248,20,279.32,0.008,0,0,0,0,0,0,0,0,268.66,0,0,0,0,0,0,0,0,0,0,0,0,0,1,1,73.66,FLYING
74.63,APPROACH,FLY_TO_FIX,79.64,84,4.36,1498.39,0.1,9.09,9.03,279.24,-0.017,0.3485,20,279.32,0.008,0,0,0,0,0,0,0,0,268.66,0,0,0,0,0,0,0,0,0,0,0,0,0,1,1,74.67,FLYING
75.35,APPROACH,FLY_TO_FIX,80.05,84,3.95,1498.44,0.11,8.97,8.9,279.24,-0.015,0.3098,20,279.33,0.008,0,0,0,0,0,0,0,0,268.66,0,0,0,0,0,0,0,0,0,0,0,0,0,1,1,75.39,FLYING
76.07,APPROACH,FLY_TO_FIX,80.42,84,3.58,1498.51,0.12,8.88,8.8,279.24,-0.014,0.279,20,279.33,0.007,0,0,0,0,0,0,0,0,268.66,0,0,0,0,0,0,0,0,0,0,0,0,0,1,1,76.11,FLYING
76.9,APPROACH,FLY_TO_FIX,80.78,84,3.22,1498.61,0.13,8.8,8.72,279.24,-0.012,0.2532,20,279.33,0.007,0,0,0,0,0,0,0,0,268.66,0,0,0,0,0,0,0,0,0,0,0,0,0,1,1,76.96,FLYING
78.09,APPROACH,FLY_TO_FIX,81.21,84,2.79,1498.76,0.15,8.72,8.63,279.24,-0.014,0.2188,20,279.33,0.006,0,0,0,0,0,0,0,0,268.66,0,0,0,0,0,0,0,0,0,0,0,0,0,1,1,78.16,FLYING
79.31,APPROACH,FLY_TO_FIX,81.49,84,2.51,1498.94,0.16,8.68,8.58,279.24,-0.015,0.2073,20,279.33,0.005,0,0,0,0,0,0,0,0,268.66,0,0,0,0,0,0,0,0,0,0,0,0,0,1,1,79.38,FLYING
80.54,APPROACH,FLY_TO_FIX,81.61,84,2.39,1499.14,0.16,8.69,8.59,279.24,-0.018,0.2213,20,279.33,0.004,0,0,0,0,0,0,0,0,268.66,0,0,0,0,0,0,0,0,0,0,0,0,0,1,1,80.61,FLYING
81.76,APPROACH,FLY_TO_FIX,81.59,84,2.41,1499.35,0.17,8.72,8.62,279.24,-0.018,0.2517,20,279.33,0.003,0,0,0,0,0,0,0,0,268.66,0,0,0,0,0,0,0,0,0,0,0,0,0,1,1,81.83,FLYING
82.99,APPROACH,FLY_TO_FIX,81.5,84,2.5,1499.56,0.17,8.75,8.64,279.24,-0.019,0.2862,20,279.33,0.002,0,0,0,0,0,0,0,0,268.66,0,0,0,0,0,0,0,0,0,0,0,0,0,1,1,83.06,FLYING
84.21,APPROACH,FLY_TO_FIX,81.41,84,2.59,1499.78,0.18,8.78,8.67,279.24,-0.02,0.3156,20,279.33,0.001,0,0,0,0,0,0,0,0,268.66,0,0,0,0,0,0,0,0,0,0,0,0,0,1,1,84.28,FLYING
85.44,APPROACH,FLY_TO_FIX,81.34,84,2.66,1500,0.18,8.8,8.69,279.24,-0.022,0.3376,20,279.33,0,0,0,0,0,0,0,0,0,268.66,0,0,0,0,0,0,0,0,0,0,0,0,0,1,1,85.51,FLYING
86.66,APPROACH,FLY_TO_FIX,81.29,84,2.71,1500.22,0.19,8.81,8.69,279.24,-0.025,0.3516,20,279.34,-0.001,0,0,0,0,0,0,0,0,268.66,0,0,0,0,0,0,0,0,0,0,0,0,0,1,1,86.73,FLYING
87.89,APPROACH,FLY_TO_FIX,81.28,84,2.72,1500.45,0.19,8.8,8.68,279.24,-0.027,0.3575,20,279.34,-0.002,0,0,0,0,0,0,0,0,268.66,0,0,0,0,0,0,0,0,0,0,0,0,0,1,1,87.96,FLYING
89.11,APPROACH,FLY_TO_FIX,81.32,84,2.68,1500.69,0.2,8.78,8.66,279.25,-0.029,0.3561,20,279.34,-0.003,0,0,0,0,0,0,0,0,268.66,0,0,0,0,0,0,0,0,0,0,0,0,0,1,1,89.18,FLYING
90.31,APPROACH,FLY_TO_FIX,81.4,84,2.6,1500.93,0.21,8.76,8.62,279.25,-0.029,0.3484,20,279.34,-0.005,0,0,0,0,0,0,0,0,268.66,0,0,0,0,0,0,0,0,0,0,0,0,0,1,1,90.37,FLYING
91.26,APPROACH,FLY_TO_FIX,81.48,84,2.52,1501.12,0.21,8.72,8.59,279.25,-0.031,0.3395,20,279.34,-0.006,0,0,0,0,0,0,0,0,268.66,0,0,0,0,0,0,0,0,0,0,0,0,0,1,1,91.31,FLYING
92.14,APPROACH,FLY_TO_FIX,81.58,84,2.42,1501.31,0.22,8.69,8.56,279.25,-0.028,0.3303,20,279.34,-0.006,0,0,0,0,0,0,0,0,268.66,0,0,0,0,0,0,0,0,0,0,0,0,0,1,1,92.19,FLYING
93.04,APPROACH,FLY_TO_FIX,81.69,84,2.31,1501.5,0.22,8.65,8.52,279.25,-0.029,0.32,20,279.34,-0.007,0,0,0,0,0,0,0,0,268.66,0,0,0,0,0,0,0,0,0,0,0,0,0,1,1,93.09,FLYING
93.89,APPROACH,FLY_TO_FIX,81.81,84,2.19,1501.68,0.23,8.62,8.48,279.25,-0.027,0.3089,20,279.34,-0.008,0,0,0,0,0,0,0,0,268.66,0,0,0,0,0,0,0,0,0,0,0,0,0,1,1,93.94,FLYING
94.76,APPROACH,FLY_TO_FIX,81.94,84,2.06,1501.88,0.23,8.58,8.44,279.25,-0.029,0.2976,20,279.34,-0.009,0,0,0,0,0,0,0,0,268.66,0,0,0,0,0,0,0,0,0,0,0,0,0,1,1,94.81,FLYING
95.64,APPROACH,FLY_TO_FIX,82.08,84,1.92,1502.08,0.24,8.55,8.4,279.25,-0.029,0.2866,20,279.34,-0.01,0,0,0,0,0,0,0,0,268.66,0,0,0,0,0,0,0,0,0,0,0,0,0,1,1,95.69,FLYING
96.51,APPROACH,FLY_TO_FIX,82.21,84,1.79,1502.28,0.24,8.51,8.36,279.26,-0.03,0.2764,20,279.34,-0.011,0,0,0,0,0,0,0,0,268.66,0,0,0,0,0,0,0,0,0,0,0,0,0,1,1,96.56,FLYING
97.39,APPROACH,FLY_TO_FIX,82.34,84,1.66,1502.48,0.24,8.48,8.33,279.26,-0.03,0.2683,20,279.35,-0.012,0,0,0,0,0,0,0,0,268.66,0,0,0,0,0,0,0,0,0,0,0,0,0,1,1,97.44,FLYING
98.26,APPROACH,FLY_TO_FIX,82.44,84,1.56,1502.69,0.24,8.46,8.31,279.26,-0.029,0.263,20,279.35,-0.013,0,0,0,0,0,0,0,0,268.66,0,0,0,0,0,0,0,0,0,0,0,0,0,1,1,98.31,FLYING
99.14,APPROACH,FLY_TO_FIX,82.53,84,1.47,1502.9,0.24,8.44,8.29,279.26,-0.028,0.2607,20,279.35,-0.014,0,0,0,0,0,0,0,0,268.66,0,0,0,0,0,0,0,0,0,0,0,0,0,1,1,99.19,FLYING
100.01,APPROACH,FLY_TO_FIX,82.6,84,1.4,1503.11,0.25,8.42,8.27,279.26,-0.028,0.2611,20,279.35,-0.015,0,0,0,0,0,0,0,0,268.66,0,0,0,0,0,0,0,0,0,0,0,0,0,1,1,100.06,FLYING
100.89,APPROACH,FLY_TO_FIX,82.65,84,1.35,1503.33,0.25,8.41,8.26,279.26,-0.027,0.2634,20,279.35,-0.017,0,0,0,0,0,0,0,0,268.66,0,0,0,0,0,0,0,0,0,0,0,0,0,1,1,100.94,FLYING
101.76,APPROACH,FLY_TO_FIX,82.68,84,1.32,1503.54,0.25,8.41,8.26,279.26,-0.029,0.2668,20,279.35,-0.018,0,0,0,0,0,0,0,0,268.66,0,0,0,0,0,0,0,0,0,0,0,0,0,1,1,101.81,FLYING
102.64,APPROACH,FLY_TO_FIX,82.71,84,1.29,1503.75,0.24,8.4,8.25,279.26,-0.032,0.2704,20,279.35,-0.019,0,0,0,0,0,0,0,0,268.66,0,0,0,0,0,0,0,0,0,0,0,0,0,1,1,102.69,FLYING
103.54,APPROACH,FLY_TO_FIX,82.74,84,1.26,1503.97,0.25,8.39,8.24,279.27,-0.033,0.2734,20,279.35,-0.02,0,0,0,0,0,0,0,0,268.66,0,0,0,0,0,0,0,0,0,0,0,0,0,1,1,103.59,FLYING
104.67,APPROACH,FLY_TO_FIX,82.77,84,1.23,1504.25,0.24,8.39,8.24,279.27,-0.033,0.2746,20,279.35,-0.021,0,0,0,0,0,0,0,0,268.66,0,0,0,0,0,0,0,0,0,0,0,0,0,1,1,104.74,FLYING
105.89,APPROACH,FLY_TO_FIX,82.81,84,1.19,1504.55,0.24,8.37,8.22,279.27,-0.035,0.2744,20,279.35,-0.023,0,0,0,0,0,0,0,0,268.66,0,0,0,0,0,0,0,0,0,0,0,0,0,1,1,105.96,FLYING
107.12,APPROACH,FLY_TO_FIX,82.85,84,1.15,1504.84,0.24,8.36,8.22,279.27,-0.035,0.2734,20,279.35,-0.024,0,0,0,0,0,0,0,0,268.66,0,0,0,0,0,0,0,0,0,0,0,0,0,1,1,107.19,FLYING
108.34,APPROACH,FLY_TO_FIX,82.89,84,1.11,1505.14,0.24,8.35,8.2,279.27,-0.035,0.2719,20,279.36,-0.026,0,0,0,0,0,0,0,0,268.66,0,0,0,0,0,0,0,0,0,0,0,0,0,1,1,108.41,FLYING
110.41,APPROACH,FLY_TO_FIX,82.96,84,1.04,1505.6,0.2,8.37,8.24,279.28,-0.035,0.2661,20,279.36,-0.028,0,0,0,0,0,0,0,0,268.66,0,0,0,0,0,0,0,0,0,0,0,0,0,1,1,110.57,FLYING
113.21,APPROACH,FLY_TO_FIX,83.05,84,0.95,1506.15,0.2,8.36,8.23,279.3,-0.055,0.2577,20,279.36,-0.03,0,0,0,0,0,0,0,0,268.66,0,0,0,0,0,0,0,0,0,0,0,0,0,1,1,113.37,FLYING
116.01,APPROACH,FLY_TO_FIX,83.08,84,0.92,1506.71,0.2,8.36,8.23,279.31,-0.059,0.2592,20,279.36,-0.033,0,0,0,0,0,0,0,0,268.66,0,0,0,0,0,0,0,0,0,0,0,0,0,1,1,116.17,FLYING
118.81,APPROACH,FLY_TO_FIX,83.04,84,0.96,1507.27,0.2,8.37,8.25,279.33,-0.053,0.2703,20,279.36,-0.036,0,0,0,0,0,0,0,0,268.66,0,0,0,0,0,0,0,0,0,0,0,0,0,1,1,118.97,FLYING
121.61,APPROACH,FLY_TO_FIX,82.99,84,1.01,1507.81,0.19,8.38,8.26,279.34,-0.049,0.2817,20,279.37,-0.039,0,0,0,0,0,0,0,0,268.66,0,0,0,0,0,0,0,0,0,0,0,0,0,1,1,121.77,FLYING
124.41,APPROACH,FLY_TO_FIX,82.96,84,1.04,1508.34,0.19,8.38,8.26,279.36,-0.043,0.2872,20,279.37,-0.041,0,0,0,0,0,0,0,0,268.66,0,0,0,0,0,0,0,0,0,0,0,0,0,1,1,124.57,FLYING
127.21,APPROACH,FLY_TO_FIX,82.99,84,1.01,1508.87,0.19,8.37,8.25,279.37,-0.039,0.2846,20,279.37,-0.044,0,0,0,0,0,0,0,0,268.66,0,0,0,0,0,0,0,0,0,0,0,0,0,1,1,127.37,FLYING
130.01,APPROACH,FLY_TO_FIX,83.06,84,0.94,1509.41,0.2,8.35,8.22,279.38,-0.035,0.2747,20,279.37,-0.047,0,0,0,0,0,0,0,0,268.66,0,0,0,0,0,0,0,0,0,0,0,0,0,1,1,130.17,FLYING
132.81,APPROACH,FLY_TO_FIX,83.17,84,0.83,1509.97,0.2,8.32,8.19,279.39,-0.029,0.2611,20,279.37,-0.05,0,0,0,0,0,0,0,0,268.66,0,0,0,0,0,0,0,0,0,0,0,0,0,1,1,132.97,FLYING
135.61,APPROACH,FLY_TO_FIX,83.26,84,0.74,1510.53,0.2,8.3,8.18,279.39,-0.026,0.2523,20,279.37,-0.052,0,0,0,0,0,0,0,0,268.66,0,0,0,0,0,0,0,0,0,0,0,0,0,1,1,135.77,FLYING
138.41,APPROACH,FLY_TO_FIX,83.25,84,0.75,1511.07,0.19,8.3,8.19,279.4,-0.021,0.2582,20,279.37,-0.055,0,0,0,0,0,0,0,0,268.66,0,0,0,0,0,0,0,0,0,0,0,0,0,1,1,138.57,FLYING
141.21,APPROACH,FLY_TO_FIX,83.17,84,0.83,1511.59,0.18,8.32,8.21,279.41,-0.017,0.274,20,279.37,-0.058,0,0,0,0,0,0,0,0,268.66,0,0,0,0,0,0,0,0,0,0,0,0,0,1,1,141.37,FLYING
144.01,APPROACH,FLY_TO_FIX,83.09,84,0.91,1512.08,0.17,8.33,8.23,279.41,-0.014,0.2869,20,279.37,-0.06,0,0,0,0,0,0,0,0,268.66,0,0,0,0,0,0,0,0,0,0,0,0,0,1,1,144.17,FLYING
146.81,APPROACH,FLY_TO_FIX,83.06,84,0.94,1512.54,0.17,8.33,8.23,279.41,-0.013,0.2914,20,279.37,-0.062,0,0,0,0,0,0,0,0,268.66,0,0,0,0,0,0,0,0,0,0,0,0,0,1,1,146.97,FLYING
149.61,APPROACH,FLY_TO_FIX,83.09,84,0.91,1513,0.17,8.32,8.22,279.42,-0.016,0.2857,20,279.37,-0.065,0,0,0,0,0,0,0,0,268.66,0,0,0,0,0,0,0,0,0,0,0,0,0,1,1,149.77,FLYING
152.41,APPROACH,FLY_TO_FIX,83.19,84,0.81,1513.47,0.17,8.29,8.19,279.42,-0.011,0.2718,20,279.36,-0.067,0,0,0,0,0,0,0,0,268.66,0,0,0,0,0,0,0,0,0,0,0,0,0,1,1,152.57,FLYING
155.21,APPROACH,FLY_TO_FIX,83.31,84,0.69,1513.94,0.17,8.25,8.15,279.42,-0.002,0.2549,20,279.36,-0.069,0,0,0,0,0,0,0,0,268.66,0,0,0,0,0,0,0,0,0,0,0,0,0,1,1,155.37,FLYING
158.01,APPROACH,FLY_TO_FIX,83.39,84,0.61,1514.42,0.17,8.24,8.14,279.42,-0.003,0.2464,20,279.36,-0.072,0,0,0,0,0,0,0,0,268.66,0,0,0,0,0,0,0,0,0,0,0,0,0,1,1,158.17,FLYING
160.81,APPROACH,FLY_TO_FIX,83.34,84,0.66,1514.87,0.15,8.26,8.16,279.42,-0.005,0.2583,20,279.36,-0.074,0,0,0,0,0,0,0,0,268.66,0,0,0,0,0,0,0,0,0,0,0,0,0,1,1,160.97,FLYING
163.61,APPROACH,FLY_TO_FIX,83.21,84,0.79,1515.28,0.14,8.29,8.2,279.42,-0.002,0.281,20,279.36,-0.076,0,0,0,0,0,0,0,0,268.66,0,0,0,0,0,0,0,0,0,0,0,0,0,1,1,163.77,FLYING
166.41,APPROACH,FLY_TO_FIX,83.1,84,0.9,1515.65,0.13,8.31,8.23,279.43,-0.002,0.2972,20,279.35,-0.078,0,0,0,0,0,0,0,0,268.66,0,0,0,0,0,0,0,0,0,0,0,0,0,1,1,166.57,FLYING
169.21,APPROACH,FLY_TO_FIX,83.06,84,0.94,1516,0.13,8.31,8.23,279.43,-0.003,0.3009,20,279.35,-0.08,0,0,0,0,0,0,0,0,268.66,0,0,0,0,0,0,0,0,0,0,0,0,0,1,1,169.37,FLYING
172.01,APPROACH,FLY_TO_FIX,83.12,84,0.88,1516.34,0.13,8.28,8.21,279.42,0.004,0.2905,20,279.35,-0.082,0,0,0,0,0,0,0,0,268.66,0,0,0,0,0,0,0,0,0,0,0,0,0,1,1,172.17,FLYING
174.81,APPROACH,FLY_TO_FIX,83.25,84,0.75,1516.71,0.14,8.25,8.16,279.42,0.005,0.2698,20,279.34,-0.083,0,0,0,0,0,0,0,0,268.66,0,0,0,0,0,0,0,0,0,0,0,0,0,1,1,174.97,FLYING
177.61,APPROACH,FLY_TO_FIX,83.4,84,0.6,1517.09,0.14,8.21,8.12,279.42,0.009,0.2478,20,279.34,-0.085,0,0,0,0,0,0,0,0,268.66,0,0,0,0,0,0,0,0,0,0,0,0,0,1,1,177.77,FLYING
180.41,APPROACH,FLY_TO_FIX,83.47,84,0.53,1517.47,0.13,8.2,8.12,279.42,0.01,0.2411,20,279.34,-0.087,0,0,0,0,0,0,0,0,268.66,0,0,0,0,0,0,0,0,0,0,0,0,0,1,1,180.57,FLYING
183.21,APPROACH,FLY_TO_FIX,83.37,84,0.63,1517.82,0.12,8.23,8.16,279.42,0.007,0.2607,20,279.33,-0.089,0,0,0,0,0,0,0,0,268.66,0,0,0,0,0,0,0,0,0,0,0,0,0,1,1,183.37,FLYING
186.01,APPROACH,FLY_TO_FIX,83.19,84,0.81,1518.12,0.1,8.27,8.21,279.41,0.009,0.2907,20,279.33,-0.09,0,0,0,0,0,0,0,0,268.66,0,0,0,0,0,0,0,0,0,0,0,0,0,1,1,186.17,FLYING
188.81,APPROACH,FLY_TO_FIX,83.04,84,0.96,1518.38,0.09,8.3,8.24,279.41,0.008,0.3106,20,279.32,-0.092,0,0,0,0,0,0,0,0,268.66,0,0,0,0,0,0,0,0,0,0,0,0,0,1,1,188.97,FLYING
191.61,APPROACH,FLY_TO_FIX,83,84,1,1518.63,0.09,8.3,8.24,279.41,0.005,0.3127,20,279.32,-0.093,0,0,0,0,0,0,0,0,268.66,0,0,0,0,0,0,0,0,0,0,0,0,0,1,1,191.77,FLYING
194.41,APPROACH,FLY_TO_FIX,83.08,84,0.92,1518.88,0.1,8.27,8.21,279.41,0.012,0.2962,20,279.31,-0.094,0,0,0,0,0,0,0,0,268.66,0,0,0,0,0,0,0,0,0,0,0,0,0,1,1,194.57,FLYING
197.21,APPROACH,FLY_TO_FIX,83.27,84,0.73,1519.16,0.11,8.21,8.15,279.4,0.015,0.267,20,279.3,-0.096,0,0,0,0,0,0,0,0,268.66,0,0,0,0,0,0,0,0,0,0,0,0,0,1,1,197.37,FLYING
200.01,APPROACH,FLY_TO_FIX,83.46,84,0.54,1519.46,0.12,8.17,8.1,279.4,0.021,0.2392,20,279.29,-0.097,0,0,0,0,0,0,0,0,268.66,0,0,0,0,0,0,0,0,0,0,0,0,0,1,1,200.17,FLYING
202.81,APPROACH,FLY_TO_FIX,83.52,84,0.48,1519.77,0.1,8.17,8.11,279.39,0.023,0.2355,20,279.28,-0.099,0,0,0,0,0,0,0,0,268.66,0,0,0,0,0,0,0,0,0,0,0,0,0,1,1,202.97,FLYING
205.61,APPROACH,FLY_TO_FIX,83.36,84,0.64,1520.03,0.08,8.22,8.17,279.38,0.023,0.2649,20,279.27,-0.1,0,0,0,0,0,0,0,0,268.66,0,0,0,0,0,0,0,0,0,0,0,0,0,1,1,205.77,FLYING
208.41,APPROACH,FLY_TO_FIX,83.11,84,0.89,1520.24,0.06,8.28,8.24,279.38,0.023,0.3037,20,279.25,-0.101,0,0,0,0,0,0,0,0,268.66,0,0,0,0,0,0,0,0,0,0,0,0,0,1,1,208.57,FLYING
211.21,APPROACH,FLY_TO_FIX,82.93,84,1.07,1520.39,0.05,8.31,8.28,279.37,0.029,0.3274,20,279.23,-0.102,0,0,0,0,0,0,0,0,268.66,0,0,0,0,0,0,0,0,0,0,0,0,0,1,1,211.37,FLYING
214.01,APPROACH,FLY_TO_FIX,82.89,84,1.11,1520.53,0.05,8.3,8.27,279.36,0.035,0.3268,20,279.21,-0.103,0,0,0,0,0,0,0,0,268.66,0,0,0,0,0,0,0,0,0,0,0,0,0,1,1,214.17,FLYING
216.89,APPROACH,FLY_TO_FIX,83.02,84,0.98,1520.64,0.12,7.89,7.98,279.33,0.389,0.3013,20,270.61,-3.003,0,0,0,0,0,0,0,0,268.66,0,0,0,0,0,0,0,0,0,0,0,0,0,1,1,217.05,FLYING
219.05,APPROACH,FLY_TO_FIX,83.45,84,0.55,1519.36,-1.05,6.85,7.63,276.51,9.945,0.2353,20,270.49,-2.997,0,0,0,0,0,0,0,0,268.66,0,0,0,0,0,0,0,0,0,0,0,0,0,1,1,219.09,FLYING
219.77,APPROACH,FLY_TO_FIX,83.69,84,0.31,1518.44,-1.38,6.62,7.57,276.01,9.485,0.2058,20,270.46,-2.993,0,0,0,0,0,0,0,0,268.66,0,0,0,0,0,0,0,0,0,0,0,0,0,1,1,219.81,FLYING
220.49,APPROACH,FLY_TO_FIX,83.89,84,0.11,1517.3,-1.69,6.43,7.55,275.46,8.944,0.1859,20,270.43,-2.987,0,0,0,0,0,0,0,0,268.66,0,0,0,0,0,0,0,0,0,0,0,0,0,1,1,220.53,FLYING
221.21,APPROACH,FLY_TO_FIX,84.06,84,-0.06,1515.94,-1.98,6.26,7.54,274.92,8.352,0.1716,19.973,270.41,-2.981,0,0,0,0,0,0,0,0,268.66,0,0,0,0,0,0,0,0,0,0,0,0,0,1,1,221.25,FLYING
221.91,APPROACH,FLY_TO_FIX,84.19,84,-0.19,1514.44,-2.24,6.12,7.54,274.43,7.739,0.163,19.877,270.38,-2.973,0,0,0,0,0,0,0,0,268.66,0,0,0,0,0,0,0,0,0,0,0,0,0,1,1,221.95,FLYING
222.61,APPROACH,FLY_TO_FIX,84.3,84,-0.3,1512.76,-2.48,6,7.56,273.98,7.113,0.1589,19.73,270.36,-2.965,0,0,0,0,0,0,0,0,268.66,0,0,0,0,0,0,0,0,0,0,0,0,0,1,1,222.65,FLYING
223.33,APPROACH,FLY_TO_FIX,84.37,84,-0.37,1510.87,-2.7,5.9,7.57,273.57,6.476,0.1583,19.546,270.34,-2.955,0,0,0,0,0,0,0,0,268.66,0,0,0,0,0,0,0,0,0,0,0,0,0,1,1,223.37,FLYING
224.03,APPROACH,FLY_TO_FIX,84.41,84,-0.41,1508.9,-2.89,5.81,7.6,273.21,5.882,0.1611,19.341,270.33,-2.946,0,0,0,0,0,0,0,0,268.66,0,0,0,0,0,0,0,0,0,0,0,0,0,1,1,224.07,FLYING
224.73,APPROACH,FLY_TO_FIX,84.43,84,-0.43,1506.8,-3.06,5.74,7.62,272.88,5.317,0.1657,19.127,270.31,-2.935,0,0,0,0,0,0,0,0,268.66,0,0,0,0,0,0,0,0,0,0,0,0,0,1,1,224.77,FLYING
225.43,APPROACH,FLY_TO_FIX,84.43,84,-0.43,1504.59,-3.22,5.68,7.65,272.59,4.791,0.1712,18.911,270.3,-2.924,0,0,0,0,0,0,0,0,268.66,0,0,0,0,0,0,0,0,0,0,0,0,0,1,1,225.47,FLYING
226.13,APPROACH,FLY_TO_FIX,84.42,84,-0.42,1502.28,-3.35,5.63,7.67,272.32,4.303,0.1768,18.699,270.29,-2.913,0,0,0,0,0,0,0,0,268.66,0,0,0,0,0,0,0,0,0,0,0,0,0,1,1,226.17,FLYING
226.83,APPROACH,FLY_TO_FIX,84.41,84,-0.41,1499.88,-3.47,5.58,7.7,272.09,3.858,0.1817,18.495,270.28,-2.901,0,0,0,0,0,0,0,0,268.66,0,0,0,0,0,0,0,0,0,0,0,0,0,1,1,226.87,FLYING
227.55,APPROACH,FLY_TO_FIX,84.39,84,-0.39,1497.33,-3.59,5.54,7.72,271.87,3.438,0.1855,18.297,270.27,-2.888,0,0,0,0,0,0,0,0,268.66,0,0,0,0,0,0,0,0,0,0,0,0,0,1,1,227.59,FLYING
228.25,APPROACH,FLY_TO_FIX,84.38,84,-0.38,1494.78,-3.68,5.5,7.74,271.68,3.069,0.1879,18.106,270.26,-2.875,0,0,0,0,0,0,0,0,268.66,0,0,0,0,0,0,0,0,0,0,0,0,0,1,1,228.29,FLYING
228.95,APPROACH,FLY_TO_FIX,84.37,84,-0.37,1492.16,-3.77,5.47,7.75,271.52,2.737,0.1889,17.919,270.25,-2.862,0,0,0,0,0,0,0,0,268.66,0,0,0,0,0,0,0,0,0,0,0,0,0,1,1,228.99,FLYING
229.67,APPROACH,FLY_TO_FIX,84.37,84,-0.37,1489.42,-3.84,5.44,7.76,271.36,2.43,0.1887,17.734,270.24,-2.849,0,0,0,0,0,0,0,0,268.66,0,0,0,0,0,0,0,0,0,0,0,0,0,2,2,229.71,FLYING
230.41,APPROACH,FLY_TO_FIX,84.36,84,-0.36,1486.54,-3.89,5.31,7.67,271.23,2.148,0.1898,17.555,270.24,-2.834,0,0,0,0,0,0,0,0,268.66,0,0,0,0,0,0,0,0,0,0,0,0,0,2,2,230.45,FLYING
231.11,APPROACH,FLY_TO_FIX,84.32,84,-0.32,1483.78,-3.93,5.19,7.58,271.11,1.909,0.1932,17.393,270.23,-2.82,0,0,0,0,0,0,0,0,268.66,0,0,0,0,0,0,0,0,0,0,0,0,0,2,2,231.15,FLYING
231.81,APPROACH,FLY_TO_FIX,84.27,84,-0.27,1481,-3.97,5.09,7.5,271.01,1.697,0.1992,17.256,270.23,-2.807,0,0,0,0,0,0,0,0,268.66,0,0,0,0,0,0,0,0,0,0,0,0,0,2,2,231.85,FLYING
232.51,APPROACH,FLY_TO_FIX,84.2,84,-0.2,1478.19,-4,4.98,7.41,270.92,1.507,0.2082,17.157,270.22,-2.793,0,0,0,0,0,0,0,0,268.66,0,0,0,0,0,0,0,0,0,0,0,0,0,2,2,232.55,FLYING
233.62,APPROACH,FLY_TO_FIX,84.07,84,-0.07,1473.69,-4.08,4.95,7.41,270.79,1.25,0.2227,17.117,270.22,-2.774,0,0,0,0,0,0,0,0,268.66,0,0,0,0,0,0,0,0,0,0,0,0,0,2,2,233.76,FLYING
236.28,APPROACH,FLY_TO_FIX,83.74,84,0.26,1462.76,-4.15,5.08,7.61,270.57,0.763,0.2702,17.243,270.21,-2.72,0,0,0,0,0,0,0,0,268.66,0,0,0,0,0,0,0,0,0,0,0,0,0,2,2,236.44,FLYING
239.08,APPROACH,FLY_TO_FIX,83.48,84,0.52,1451.1,-4.17,5.13,7.68,270.47,0.364,0.3026,17.502,270.2,-2.662,0,0,0,0,0,0,0,0,268.66,0,0,0,0,0,0,0,0,0,0,0,0,0,2,2,239.24,FLYING
241.88,APPROACH,FLY_TO_FIX,83.42,84,0.58,1439.43,-4.16,5.13,7.68,270.41,0.179,0.3018,17.79,270.2,-2.604,0,0,0,0,0,0,0,0,268.66,0,0,0,0,0,0,0,0,0,0,0,0,0,2,2,242.04,FLYING
244.68,APPROACH,FLY_TO_FIX,83.6,84,0.4,1427.79,-4.15,5.07,7.61,270.38,0.107,0.267,17.994,270.2,-2.546,0,0,0,0,0,0,0,0,268.66,0,0,0,0,0,0,0,0,0,0,0,0,0,2,2,244.84,FLYING
247.48,APPROACH,FLY_TO_FIX,83.95,84,0.05,1416.18,-4.14,4.98,7.5,270.36,0.072,0.2098,18.027,270.19,-2.488,0,0,0,0,0,0,0,0,268.66,0,0,0,0,0,0,0,0,0,0,0,0,0,2,2,247.64,FLYING
250.28,APPROACH,FLY_TO_FIX,84.27,84,-0.27,1404.62,-4.12,4.95,7.46,270.34,0.047,0.1616,17.897,270.19,-2.43,0,0,0,0,0,0,0,0,268.66,0,0,0,0,0,0,0,0,0,0,0,0,0,2,2,250.44,FLYING
253,APPROACH,FLY_TO_FIX,84.24,84,-0.24,1393.53,-4.05,5.08,7.53,270.33,0.036,0.1702,17.774,270.19,-2.374,0,0,0,0,0,0,0,0,268.66,0,0,0,0,0,0,0,0,0,0,0,0,0,2,2,253.16,FLYING
255.8,APPROACH,FLY_TO_FIX,83.8,84,0.2,1382.36,-3.96,5.24,7.67,270.33,0.026,0.2416,17.865,270.18,-2.318,0,0,0,0,0,0,0,0,268.66,0,0,0,0,0,0,0,0,0,0,0,0,0,2,2,255.96,FLYING
258.52,APPROACH,FLY_TO_FIX,83.29,84,0.71,1371.71,-3.89,5.39,7.79,270.32,0.026,0.3193,18.213,270.18,-2.265,0,0,0,0,0,0,0,0,268.66,0,0,0,0,0,0,0,0,0,0,0,0,0,2,2,258.68,FLYING
261.24,APPROACH,FLY_TO_FIX,82.95,84,1.05,1361.23,-3.83,5.48,7.86,270.31,0.032,0.3642,18.734,270.18,-2.212,0,0,0,0,0,0,0,0,268.66,0,0,0,0,0,0,0,0,0,0,0,0,0,2,2,261.4,FLYING
263.96,APPROACH,FLY_TO_FIX,82.92,84,1.08,1350.91,-3.76,5.5,7.83,270.3,0.028,0.3592,19.275,270.18,-2.161,0,0,0,0,0,0,0,0,268.66,0,0,0,0,0,0,0,0,0,0,0,0,0,2,2,264.12,FLYING
266.76,APPROACH,FLY_TO_FIX,83.24,84,0.76,1340.49,-3.68,5.43,7.71,270.3,0.025,0.3026,19.661,270.17,-2.108,0,0,0,0,0,0,0,0,268.66,0,0,0,0,0,0,0,0,0,0,0,0,0,2,2,266.92,FLYING
269.56,APPROACH,FLY_TO_FIX,83.82,84,0.18,1330.23,-3.63,5.29,7.52,270.29,0.022,0.2127,19.762,270.17,-2.057,0,0,0,0,0,0,0,0,268.66,0,0,0,0,0,0,0,0,0,0,0,0,0,2,2,269.72,FLYING
272.36,APPROACH,FLY_TO_FIX,84.33,84,-0.33,1320.14,-3.57,5.25,7.43,270.29,0.018,0.14,19.604,270.17,-2.006,0,0,0,0,0,0,0,0,268.66,0,0,0,0,0,0,0,0,0,0,0,0,0,2,2,272.52,FLYING
275.08,APPROACH,FLY_TO_FIX,84.28,84,-0.28,1310.54,-3.5,5.4,7.54,270.28,0.024,0.1577,19.458,270.17,-1.958,0,0,0,0,0,0,0,0,268.66,0,0,0,0,0,0,0,0,0,0,0,0,0,2,2,275.24,FLYING
277.8,APPROACH,FLY_TO_FIX,83.64,84,0.36,1301.2,-3.41,5.62,7.72,270.27,0.015,0.2658,19.625,270.17,-1.911,0,0,0,0,0,0,0,0,268.66,0,0,0,0,0,0,0,0,0,0,0,0,0,2,2,277.96,FLYING
280.52,APPROACH,FLY_TO_FIX,82.9,84,1.1,1292.05,-3.35,5.83,7.91,270.27,0.02,0.3798,20,270.16,-1.866,0,0,0,0,0,0,0,0,268.66,0,0,0,0,0,0,0,0,0,0,0,0,0,2,2,280.68,FLYING
283.32,APPROACH,FLY_TO_FIX,82.42,84,1.58,1282.82,-3.26,5.97,8.01,270.26,0.02,0.4369,20,270.16,-1.819,0,0,0,0,0,0,0,0,268.66,0,0,0,0,0,0,0,0,0,0,0,0,0,2,2,283.48,FLYING
286.12,APPROACH,FLY_TO_FIX,82.42,84,1.58,1273.81,-3.17,5.97,7.96,270.26,0.015,0.415,20,270.16,-1.774,0,0,0,0,0,0,0,0,268.66,0,0,0,0,0,0,0,0,0,0,0,0,0,2,2,286.28,FLYING
288.24,APPROACH,FLY_TO_FIX,82.81,84,1.19,1267.18,-3.06,5.85,7.77,270.26,0.008,0.3384,20,270.16,-1.738,0,0,0,0,0,0,0,0,268.66,0,0,0,0,0,0,0,0,0,0,0,0,0,2,2,288.28,FLYING
288.96,APPROACH,FLY_TO_FIX,83.01,84,0.99,1264.97,-3.04,5.77,7.66,270.26,0.016,0.3001,20,270.16,-1.726,0,0,0,0,0,0,0,0,268.66,0,0,0,0,0,0,0,0,0,0,0,0,0,2,2,289,FLYING
289.68,APPROACH,FLY_TO_FIX,83.2,84,0.8,1262.78,-3.02,5.72,7.61,270.25,0.024,0.2693,20,270.16,-1.715,0,0,0,0,0,0,0,0,268.66,0,0,0,0,0,0,0,0,0,0,0,0,0,2,2,289.72,FLYING
290.4,APPROACH,FLY_TO_FIX,83.39,84,0.61,1260.6,-3.01,5.68,7.55,270.25,0.027,0.2422,20,270.16,-1.704,0,0,0,0,0,0,0,0,268.66,0,0,0,0,0,0,0,0,0,0,0,0,0,2,2,290.44,FLYING
291.12,APPROACH,FLY_TO_FIX,83.58,84,0.42,1258.43,-3,5.65,7.51,270.25,0.03,0.2199,20,270.16,-1.693,0,0,0,0,0,0,0,0,268.66,0,0,0,0,0,0,0,0,0,0,0,0,0,2,2,291.16,FLYING
291.84,APPROACH,FLY_TO_FIX,83.74,84,0.26,1256.27,-2.99,5.63,7.48,270.24,0.032,0.204,20,270.16,-1.683,0,0,0,0,0,0,0,0,268.66,0,0,0,0,0,0,0,0,0,0,0,0,0,2,2,291.88,FLYING
292.56,APPROACH,FLY_TO_FIX,83.86,84,0.14,1254.12,-2.97,5.62,7.45,270.24,0.033,0.195,20,270.15,-1.672,0,0,0,0,0,0,0,0,268.66,0,0,0,0,0,0,0,0,0,0,0,0,0,2,2,292.6,FLYING
293.28,APPROACH,FLY_TO_FIX,83.95,84,0.05,1251.99,-2.96,5.62,7.44,270.24,0.035,0.1926,20,270.15,-1.661,0,0,0,0,0,0,0,0,268.66,0,0,0,0,0,0,0,0,0,0,0,0,0,2,2,293.32,FLYING
294.09,APPROACH,FLY_TO_FIX,84,84,0,1249.62,-2.94,5.63,7.44,270.23,0.035,0.1953,20,270.15,-1.65,0,0,0,0,0,0,0,0,268.66,0,0,0,0,0,0,0,0,0,0,0,0,0,2,2,294.15,FLYING
295.29,APPROACH,FLY_TO_FIX,84,84,0,1246.12,-2.91,5.67,7.46,270.23,0.034,0.2033,19.999,270.15,-1.633,0,0,0,0,0,0,0,0,268.66,0,0,0,0,0,0,0,0,0,0,0,0,0,2,2,295.36,FLYING
296.51,APPROACH,FLY_TO_FIX,83.94,84,0.06,1242.58,-2.88,5.71,7.49,270.22,0.032,0.2191,20,270.15,-1.615,0,0,0,0,0,0,0,0,268.66,0,0,0,0,0,0,0,0,0,0,0,0,0,2,2,296.58,FLYING
297.74,APPROACH,FLY_TO_FIX,83.86,84,0.14,1239.08,-2.85,5.75,7.51,270.21,0.029,0.2367,20,270.15,-1.597,0,0,0,0,0,0,0,0,268.66,0,0,0,0,0,0,0,0,0,0,0,0,0,2,2,297.81,FLYING
298.96,APPROACH,FLY_TO_FIX,83.77,84,0.23,1235.61,-2.82,5.79,7.53,270.21,0.027,0.2519,20,270.15,-1.58,0,0,0,0,0,0,0,0,268.66,0,0,0,0,0,0,0,0,0,0,0,0,0,2,2,299.03,FLYING
300.19,APPROACH,FLY_TO_FIX,83.69,84,0.31,1232.19,-2.79,5.83,7.55,270.2,0.025,0.2638,20,270.15,-1.563,0,0,0,0,0,0,0,0,268.66,0,0,0,0,0,0,0,0,0,0,0,0,0,2,2,300.26,FLYING
301.41,APPROACH,FLY_TO_FIX,83.63,84,0.37,1228.8,-2.75,5.86,7.56,270.2,0.022,0.2719,20,270.15,-1.546,0,0,0,0,0,0,0,0,268.66,0,0,0,0,0,0,0,0,0,0,0,0,0,2,2,301.48,FLYING
302.64,APPROACH,FLY_TO_FIX,83.58,84,0.42,1225.45,-2.72,5.88,7.57,270.2,0.02,0.2761,20,270.15,-1.529,0,0,0,0,0,0,0,0,268.66,0,0,0,0,0,0,0,0,0,0,0,0,0,2,2,302.71,FLYING
303.86,APPROACH,FLY_TO_FIX,83.56,84,0.44,1222.13,-2.7,5.9,7.57,270.19,0.018,0.2767,20,270.15,-1.513,0,0,0,0,0,0,0,0,268.66,0,0,0,0,0,0,0,0,0,0,0,0,0,2,2,303.93,FLYING
305.09,APPROACH,FLY_TO_FIX,83.55,84,0.45,1218.85,-2.67,5.91,7.57,270.19,0.015,0.2742,20,270.15,-1.496,0,0,0,0,0,0,0,0,268.66,0,0,0,0,0,0,0,0,0,0,0,0,0,2,2,305.16,FLYING
306.31,APPROACH,FLY_TO_FIX,83.57,84,0.43,1215.6,-2.64,5.92,7.56,270.18,0.014,0.2692,20,270.15,-1.48,0,0,0,0,0,0,0,0,268.66,0,0,0,0,0,0,0,0,0,0,0,0,0,2,2,306.38,FLYING
307.54,APPROACH,FLY_TO_FIX,83.61,84,0.39,1212.39,-2.61,5.93,7.55,270.18,0.013,0.2624,20,270.15,-1.464,0,0,0,0,0,0,0,0,268.66,0,0,0,0,0,0,0,0,0,0,0,0,0,2,2,307.61,FLYING
308.76,APPROACH,FLY_TO_FIX,83.66,84,0.34,1209.21,-2.58,5.93,7.53,270.18,0.011,0.2547,20,270.15,-1.448,0,0,0,0,0,0,0,0,268.66,0,0,0,0,0,0,0,0,0,0,0,0,0,2,2,308.83,FLYING
309.99,APPROACH,FLY_TO_FIX,83.71,84,0.29,1206.07,-2.56,5.93,7.51,270.17,0.01,0.2468,20,270.15,-1.432,0,0,0,0,0,0,0,0,268.66,0,0,0,0,0,0,0,0,0,0,0,0,0,2,2,310.06,FLYING
311.21,APPROACH,FLY_TO_FIX,83.77,84,0.23,1202.95,-2.53,5.93,7.49,270.17,0.009,0.2392,20,270.15,-1.417,0,0,0,0,0,0,0,0,268.66,0,0,0,0,0,0,0,0,0,0,0,0,0,2,2,311.28,FLYING
312.44,APPROACH,FLY_TO_FIX,83.83,84,0.17,1199.87,-2.5,5.93,7.48,270.17,0.008,0.2329,20,270.15,-1.401,0,0,0,0,0,0,0,0,268.66,0,0,0,0,0,0,0,0,0,0,0,0,0,2,2,312.51,FLYING
313.66,APPROACH,FLY_TO_FIX,83.88,84,0.12,1196.83,-2.48,5.94,7.47,270.17,0.006,0.2291,20,270.15,-1.386,0,0,0,0,0,0,0,0,268.66,0,0,0,0,0,0,0,0,0,0,0,0,0,2,2,313.73,FLYING
314.89,APPROACH,FLY_TO_FIX,83.9,84,0.1,1193.81,-2.45,5.95,7.47,270.16,0.006,0.2285,20,270.15,-1.371,0,0,0,0,0,0,0,0,268.66,0,0,0,0,0,0,0,0,0,0,0,0,0,2,2,314.96,FLYING
316.11,APPROACH,FLY_TO_FIX,83.91,84,0.09,1190.83,-2.42,5.97,7.47,270.16,0.004,0.231,20,270.15,-1.356,0,0,0,0,0,0,0,0,268.66,0,0,0,0,0,0,0,0,0,0,0,0,0,2,2,316.18,FLYING
317.34,APPROACH,FLY_TO_FIX,83.9,84,0.1,1187.89,-2.39,5.99,7.47,270.16,0.004,0.2352,20,270.15,-1.341,0,0,0,0,0,0,0,0,268.66,0,0,0,0,0,0,0,0,0,0,0,0,0,2,2,317.41,FLYING
318.56,APPROACH,FLY_TO_FIX,83.88,84,0.12,1184.97,-2.37,6.01,7.48,270.16,0.002,0.2398,20,270.15,-1.327,0,0,0,0,0,0,0,0,268.66,0,0,0,0,0,0,0,0,0,0,0,0,0,2,2,318.63,FLYING
319.79,APPROACH,FLY_TO_FIX,83.86,84,0.14,1182.09,-2.34,6.03,7.48,270.16,0,0.2438,20,270.15,-1.312,0,0,0,0,0,0,0,0,268.66,0,0,0,0,0,0,0,0,0,0,0,0,0,2,2,319.86,FLYING
321.01,APPROACH,FLY_TO_FIX,83.84,84,0.16,1179.24,-2.32,6.05,7.48,270.15,0,0.2471,20,270.15,-1.298,0,0,0,0,0,0,0,0,268.66,0,0,0,0,0,0,0,0,0,0,0,0,0,2,2,321.08,FLYING
322.24,APPROACH,FLY_TO_FIX,83.83,84,0.17,1176.43,-2.29,6.07,7.49,270.15,-0.002,0.2495,20,270.15,-1.284,0,0,0,0,0,0,0,0,268.66,0,0,0,0,0,0,0,0,0,0,0,0,0,2,2,322.31,FLYING
323.46,APPROACH,FLY_TO_FIX,83.82,84,0.18,1173.64,-2.26,6.09,7.49,270.15,-0.004,0.2509,20,270.15,-1.27,0,0,0,0,0,0,0,0,268.66,0,0,0,0,0,0,0,0,0,0,0,0,0,2,2,323.53,FLYING
324.69,APPROACH,FLY_TO_FIX,83.81,84,0.19,1170.88,-2.24,6.1,7.49,270.15,-0.005,0.2515,20,270.15,-1.256,0,0,0,0,0,0,0,0,268.66,0,0,0,0,0,0,0,0,0,0,0,0,0,2,2,324.76,FLYING
325.91,APPROACH,FLY_TO_FIX,83.81,84,0.19,1168.16,-2.21,6.11,7.49,270.15,-0.006,0.2513,20,270.15,-1.242,0,0,0,0,0,0,0,0,268.66,0,0,0,0,0,0,0,0,0,0,0,0,0,2,2,325.98,FLYING
327.14,APPROACH,FLY_TO_FIX,83.81,84,0.19,1165.47,-2.19,6.13,7.49,270.15,-0.008,0.2504,20,270.15,-1.229,0,0,0,0,0,0,0,0,268.66,0,0,0,0,0,0,0,0,0,0,0,0,0,2,2,327.21,FLYING
328.36,APPROACH,FLY_TO_FIX,83.82,84,0.18,1162.8,-2.16,6.14,7.48,270.15,-0.008,0.2491,20,270.15,-1.216,0,0,0,0,0,0,0,0,268.66,0,0,0,0,0,0,0,0,0,0,0,0,0,2,2,328.43,FLYING
329.59,APPROACH,FLY_TO_FIX,83.83,84,0.17,1160.17,-2.14,6.15,7.48,270.15,-0.009,0.2475,20,270.15,-1.202,0,0,0,0,0,0,0,0,268.66,0,0,0,0,0,0,0,0,0,0,0,0,0,2,2,329.66,FLYING
330.8,APPROACH,FLY_TO_FIX,83.85,84,0.15,1157.58,-2.11,6.16,7.47,270.15,-0.01,0.2457,20,270.15,-1.189,0,0,0,0,0,0,0,0,268.66,0,0,0,0,0,0,0,0,0,0,0,0,0,2,2,330.86,FLYING
331.62,APPROACH,FLY_TO_FIX,83.85,84,0.15,1155.85,-2.1,6.16,7.46,270.15,-0.01,0.2449,20,270.15,-1.18,0,0,0,0,0,0,0,0,268.66,0,0,0,0,0,0,0,0,0,0,0,0,0,2,2,331.66,FLYING
332.34,APPROACH,FLY_TO_FIX,83.86,84,0.14,1154.35,-2.08,6.17,7.46,270.15,-0.009,0.2442,20,270.15,-1.173,0,0,0,0,0,0,0,0,268.66,0,0,0,0,0,0,0,0,0,0,0,0,0,2,2,332.38,FLYING
333.06,APPROACH,FLY_TO_FIX,83.87,84,0.13,1152.86,-2.07,6.17,7.46,270.15,-0.009,0.2436,20,270.15,-1.165,0,0,0,0,0,0,0,0,268.66,0,0,0,0,0,0,0,0,0,0,0,0,0,2,2,333.1,FLYING
333.78,APPROACH,FLY_TO_FIX,83.88,84,0.12,1151.37,-2.06,6.18,7.46,270.15,-0.007,0.2431,20,270.15,-1.158,0,0,0,0,0,0,0,0,268.66,0,0,0,0,0,0,0,0,0,0,0,0,0,2,2,333.82,FLYING
334.5,APPROACH,FLY_TO_FIX,83.88,84,0.12,1149.9,-2.04,6.19,7.45,270.15,-0.007,0.2427,20,270.15,-1.15,0,0,0,0,0,0,0,0,268.66,0,0,0,0,0,0,0,0,0,0,0,0,0,2,2,334.54,FLYING
335.22,APPROACH,FLY_TO_FIX,83.89,84,0.11,1148.44,-2.03,6.19,7.45,270.14,-0.007,0.2424,20,270.15,-1.143,0,0,0,0,0,0,0,0,268.66,0,0,0,0,0,0,0,0,0,0,0,0,0,2,2,335.26,FLYING
335.94,APPROACH,FLY_TO_FIX,83.89,84,0.11,1146.98,-2.01,6.2,7.45,270.14,-0.006,0.2422,20,270.15,-1.136,0,0,0,0,0,0,0,0,268.66,0,0,0,0,0,0,0,0,0,0,0,0,0,2,2,335.98,FLYING
336.66,APPROACH,FLY_TO_FIX,83.9,84,0.1,1145.54,-2,6.21,7.45,270.14,-0.005,0.2421,20,270.15,-1.129,0,0,0,0,0,0,0,0,268.66,0,0,0,0,0,0,0,0,0,0,0,0,0,2,2,336.7,FLYING
337.38,APPROACH,FLY_TO_FIX,83.9,84,0.1,1144.11,-1.98,6.21,7.45,270.14,-0.005,0.242,20,270.15,-1.121,0,0,0,0,0,0,0,0,268.66,0,0,0,0,0,0,0,0,0,0,0,0,0,2,2,337.42,FLYING
338.1,APPROACH,FLY_TO_FIX,83.91,84,0.09,1142.68,-1.97,6.22,7.44,270.14,-0.004,0.2421,20,270.15,-1.114,0,0,0,0,0,0,0,0,268.66,0,0,0,0,0,0,0,0,0,0,0,0,0,2,2,338.14,FLYING
338.82,APPROACH,FLY_TO_FIX,83.91,84,0.09,1141.27,-1.96,6.23,7.44,270.14,-0.004,0.2422,20,270.15,-1.107,0,0,0,0,0,0,0,0,268.66,0,0,0,0,0,0,0,0,0,0,0,0,0,2,2,338.86,FLYING
339.54,APPROACH,FLY_TO_FIX,83.91,84,0.09,1139.87,-1.94,6.24,7.44,270.14,-0.005,0.2423,20,270.15,-1.1,0,0,0,0,0,0,0,0,268.66,0,0,0,0,0,0,0,0,0,0,0,0,0,2,2,339.58,FLYING
340.26,APPROACH,FLY_TO_FIX,83.91,84,0.09,1138.47,-1.93,6.24,7.44,270.14,-0.005,0.2425,20,270.15,-1.093,0,0,0,0,0,0,0,0,268.66,0,0,0,0,0,0,0,0,0,0,0,0,0,2,2,340.3,FLYING
340.98,APPROACH,FLY_TO_FIX,83.91,84,0.09,1137.09,-1.92,6.25,7.44,270.14,-0.005,0.2427,20,270.15,-1.086,0,0,0,0,0,0,0,0,268.66,0,0,0,0,0,0,0,0,0,0,0,0,0,2,2,341.02,FLYING
341.7,APPROACH,FLY_TO_FIX,83.92,84,0.08,1135.71,-1.91,6.26,7.44,270.14,-0.006,0.2429,20,270.15,-1.079,0,0,0,0,0,0,0,0,268.66,0,0,0,0,0,0,0,0,0,0,0,0,0,2,2,341.74,FLYING
342.42,APPROACH,FLY_TO_FIX,83.92,84,0.08,1134.35,-1.89,6.27,7.44,270.14,-0.006,0.2432,20,270.15,-1.072,0,0,0,0,0,0,0,0,268.66,0,0,0,0,0,0,0,0,0,0,0,0,0,2,2,342.46,FLYING
343.14,APPROACH,FLY_TO_FIX,83.91,84,0.09,1132.99,-1.88,6.27,7.44,270.14,-0.006,0.2436,20,270.16,-1.066,0,0,0,0,0,0,0,0,268.66,0,0,0,0,0,0,0,0,0,0,0,0,0,2,2,343.18,FLYING
343.86,APPROACH,FLY_TO_FIX,83.91,84,0.09,1131.64,-1.87,6.28,7.44,270.14,-0.007,0.2439,20,270.16,-1.059,0,0,0,0,0,0,0,0,268.66,0,0,0,0,0,0,0,0,0,0,0,0,0,2,2,343.9,FLYING
344.58,APPROACH,FLY_TO_FIX,83.91,84,0.09,1130.3,-1.85,6.29,7.44,270.14,-0.007,0.2443,20,270.16,-1.052,0,0,0,0,0,0,0,0,268.66,0,0,0,0,0,0,0,0,0,0,0,0,0,2,2,344.62,FLYING
345.3,APPROACH,FLY_TO_FIX,83.91,84,0.09,1128.98,-1.84,6.3,7.44,270.13,-0.007,0.2447,20,270.16,-1.046,0,0,0,0,0,0,0,0,268.66,0,0,0,0,0,0,0,0,0,0,0,0,0,2,2,345.34,FLYING
346.02,APPROACH,FLY_TO_FIX,83.91,84,0.09,1127.66,-1.83,6.31,7.44,270.13,-0.008,0.2451,20,270.16,-1.039,0,0,0,0,0,0,0,0,268.66,0,0,0,0,0,0,0,0,0,0,0,0,0,2,2,346.06,FLYING
346.74,APPROACH,FLY_TO_FIX,83.9,84,0.1,1126.35,-1.81,6.32,7.44,270.13,-0.008,0.2455,20,270.16,-1.032,0,0,0,0,0,0,0,0,268.66,0,0,0,0,0,0,0,0,0,0,0,0,0,2,2,346.78,FLYING
347.46,APPROACH,FLY_TO_FIX,83.9,84,0.1,1125.04,-1.8,6.32,7.44,270.13,-0.008,0.2459,20,270.16,-1.026,0,0,0,0,0,0,0,0,268.66,0,0,0,0,0,0,0,0,0,0,0,0,0,2,2,347.5,FLYING
348.18,APPROACH,FLY_TO_FIX,83.89,84,0.11,1123.75,-1.79,6.33,7.44,270.13,-0.009,0.2463,20,270.16,-1.019,0,0,0,0,0,0,0,0,268.66,0,0,0,0,0,0,0,0,0,0,0,0,0,2,2,348.22,FLYING
348.9,APPROACH,FLY_TO_FIX,83.89,84,0.11,1122.47,-1.78,6.34,7.45,270.13,-0.009,0.2467,20,270.16,-1.013,0,0,0,0,0,0,0,0,268.66,0,0,0,0,0,0,0,0,0,0,0,0,0,2,2,348.94,FLYING
349.62,APPROACH,FLY_TO_FIX,83.89,84,0.11,1121.2,-1.76,6.35,7.45,270.13,-0.009,0.247,20,270.16,-1.007,0,0,0,0,0,0,0,0,268.66,0,0,0,0,0,0,0,0,0,0,0,0,0,2,2,349.66,FLYING
350.34,APPROACH,FLY_TO_FIX,83.88,84,0.12,1119.93,-1.75,6.36,7.45,270.13,-0.009,0.2474,20,270.16,-1,0,0,0,0,0,0,0,0,268.66,0,0,0,0,0,0,0,0,0,0,0,0,0,2,2,350.38,FLYING
351.06,APPROACH,FLY_TO_FIX,83.88,84,0.12,1118.67,-1.74,6.37,7.45,270.13,-0.01,0.2477,20,270.16,-0.994,0,0,0,0,0,0,0,0,268.66,0,0,0,0,0,0,0,0,0,0,0,0,0,2,2,351.1,FLYING
351.78,APPROACH,FLY_TO_FIX,83.87,84,0.13,1117.43,-1.73,6.37,7.45,270.13,-0.01,0.248,20,270.16,-0.988,0,0,0,0,0,0,0,0,268.66,0,0,0,0,0,0,0,0,0,0,0,0,0,2,2,351.82,FLYING
352.5,APPROACH,FLY_TO_FIX,83.87,84,0.13,1116.19,-1.72,6.38,7.45,270.13,-0.01,0.2482,20,270.16,-0.982,0,0,0,0,0,0,0,0,268.66,0,0,0,0,0,0,0,0,0,0,0,0,0,2,2,352.54,FLYING
353.22,APPROACH,FLY_TO_FIX,83.87,84,0.13,1114.96,-1.7,6.39,7.45,270.13,-0.01,0.2485,20,270.16,-0.975,0,0,0,0,0,0,0,0,268.66,0,0,0,0,0,0,0,0,0,0,0,0,0,2,2,353.26,FLYING
353.94,APPROACH,FLY_TO_FIX,83.86,84,0.14,1113.74,-1.69,6.4,7.45,270.13,-0.011,0.2487,20,270.16,-0.969,0,0,0,0,0,0,0,0,268.66,0,0,0,0,0,0,0,0,0,0,0,0,0,2,2,353.98,FLYING
354.66,APPROACH,FLY_TO_FIX,83.86,84,0.14,1112.52,-1.68,6.41,7.45,270.13,-0.011,0.2489,20,270.17,-0.963,0,0,0,0,0,0,0,0,268.66,0,0,0,0,0,0,0,0,0,0,0,0,0,2,2,354.7,FLYING
355.38,APPROACH,FLY_TO_FIX,83.86,84,0.14,1111.32,-1.67,6.41,7.45,270.13,-0.011,0.2491,20,270.17,-0.957,0,0,0,0,0,0,0,0,268.66,0,0,0,0,0,0,0,0,0,0,0,0,0,2,2,355.42,FLYING
356.1,APPROACH,FLY_TO_FIX,83.85,84,0.15,1110.12,-1.65,6.42,7.45,270.13,-0.012,0.2492,20,270.17,-0.951,0,0,0,0,0,0,0,0,268.66,0,0,0,0,0,0,0,0,0,0,0,0,0,2,2,356.14,FLYING
356.82,APPROACH,FLY_TO_FIX,83.85,84,0.15,1108.94,-1.64,6.43,7.45,270.13,-0.012,0.2494,20,270.17,-0.945,0,0,0,0,0,0,0,0,268.66,0,0,0,0,0,0,0,0,0,0,0,0,0,2,2,356.86,FLYING
357.54,APPROACH,FLY_TO_FIX,83.84,84,0.16,1107.76,-1.63,6.44,7.45,270.13,-0.012,0.2496,20,270.17,-0.939,0,0,0,0,0,0,0,0,268.66,0,0,0,0,0,0,0,0,0,0,0,0,0,2,2,357.58,FLYING
358.26,APPROACH,FLY_TO_FIX,83.84,84,0.16,1106.59,-1.62,6.44,7.45,270.13,-0.012,0.2497,20,270.17,-0.934,0,0,0,0,0,0,0,0,268.66,0,0,0,0,0,0,0,0,0,0,0,0,0,2,2,358.3,FLYING
358.98,APPROACH,FLY_TO_FIX,83.84,84,0.16,1105.43,-1.61,6.45,7.45,270.13,-0.013,0.2498,20,270.17,-0.928,0,0,0,0,0,0,0,0,268.66,0,0,0,0,0,0,0,0,0,0,0,0,0,2,2,359.02,FLYING
359.7,APPROACH,FLY_TO_FIX,83.84,84,0.16,1104.27,-1.6,6.46,7.45,270.13,-0.013,0.25,20,270.17,-0.922,0,0,0,0,0,0,0,0,268.66,0,0,0,0,0,0,0,0,0,0,0,0,0,2,2,359.74,FLYING
360.42,APPROACH,FLY_TO_FIX,83.83,84,0.17,1103.13,-1.59,6.47,7.45,270.13,-0.014,0.2501,20,270.17,-0.916,0,0,0,0,0,0,0,0,268.66,0,0,0,0,0,0,0,0,0,0,0,0,0,2,2,360.46,FLYING
361.14,APPROACH,FLY_TO_FIX,83.83,84,0.17,1101.99,-1.57,6.47,7.46,270.13,-0.014,0.2502,20,270.18,-0.911,0,0,0,0,0,0,0,0,268.66,0,0,0,0,0,0,0,0,0,0,0,0,0,2,2,361.18,FLYING
361.86,APPROACH,FLY_TO_FIX,83.83,84,0.17,1100.86,-1.56,6.48,7.46,270.13,-0.014,0.2503,20,270.18,-0.905,0,0,0,0,0,0,0,0,268.66,0,0,0,0,0,0,0,0,0,0,0,0,0,2,2,361.9,FLYING
362.58,APPROACH,FLY_TO_FIX,83.82,84,0.18,1099.74,-1.55,6.49,7.46,270.13,-0.015,0.2504,20,270.18,-0.899,0,0,0,0,0,0,0,0,268.66,0,0,0,0,0,0,0,0,0,0,0,0,0,2,2,362.62,FLYING
363.3,APPROACH,FLY_TO_FIX,83.82,84,0.18,1098.63,-1.54,6.5,7.46,270.13,-0.015,0.2505,20,270.18,-0.894,0,0,0,0,0,0,0,0,268.66,0,0,0,0,0,0,0,0,0,0,0,0,0,2,2,363.34,FLYING
364.02,APPROACH,FLY_TO_FIX,83.82,84,0.18,1097.53,-1.53,6.5,7.46,270.13,-0.015,0.2506,20,270.18,-0.888,0,0,0,0,0,0,0,0,268.66,0,0,0,0,0,0,0,0,0,0,0,0,0,2,2,364.06,FLYING
364.74,APPROACH,FLY_TO_FIX,83.82,84,0.18,1096.43,-1.52,6.51,7.46,270.13,-0.016,0.2507,20,270.18,-0.883,0,0,0,0,0,0,0,0,268.66,0,0,0,0,0,0,0,0,0,0,0,0,0,2,2,364.78,FLYING
365.46,APPROACH,FLY_TO_FIX,83.81,84,0.19,1095.34,-1.51,6.52,7.46,270.13,-0.016,0.2508,20,270.18,-0.877,0,0,0,0,0,0,0,0,268.66,0,0,0,0,0,0,0,0,0,0,0,0,0,2,2,365.5,FLYING
366.18,APPROACH,FLY_TO_FIX,83.81,84,0.19,1094.26,-1.49,6.52,7.46,270.13,-0.017,0.2509,20,270.19,-0.872,0,0,0,0,0,0,0,0,268.66,0,0,0,0,0,0,0,0,0,0,0,0,0,2,2,366.22,FLYING
366.9,APPROACH,FLY_TO_FIX,83.81,84,0.19,1093.19,-1.48,6.53,7.46,270.13,-0.017,0.251,20,270.19,-0.867,0,0,0,0,0,0,0,0,268.66,0,0,0,0,0,0,0,0,0,0,0,0,0,2,2,366.94,FLYING
367.62,APPROACH,FLY_TO_FIX,83.81,84,0.19,1092.13,-1.47,6.54,7.46,270.13,-0.017,0.2511,20,270.19,-0.861,0,0,0,0,0,0,0,0,268.66,0,0,0,0,0,0,0,0,0,0,0,0,0,2,2,367.66,FLYING
368.34,APPROACH,FLY_TO_FIX,83.8,84,0.2,1091.07,-1.46,6.55,7.46,270.13,-0.018,0.2512,20,270.19,-0.856,0,0,0,0,0,0,0,0,268.66,0,0,0,0,0,0,0,0,0,0,0,0,0,2,2,368.38,FLYING
369.06,APPROACH,FLY_TO_FIX,83.8,84,0.2,1090.02,-1.45,6.55,7.46,270.13,-0.018,0.2513,20,270.19,-0.851,0,0,0,0,0,0,0,0,268.66,0,0,0,0,0,0,0,0,0,0,0,0,0,2,2,369.1,FLYING
369.78,APPROACH,FLY_TO_FIX,83.8,84,0.2,1088.98,-1.44,6.56,7.46,270.13,-0.019,0.2514,20,270.2,-0.845,0,0,0,0,0,0,0,0,268.66,0,0,0,0,0,0,0,0,0,0,0,0,0,2,2,369.82,FLYING
370.5,APPROACH,FLY_TO_FIX,83.79,84,0.21,1087.95,-1.43,6.57,7.46,270.13,-0.02,0.2516,20,270.2,-0.84,0,0,0,0,0,0,0,0,268.66,0,0,0,0,0,0,0,0,0,0,0,0,0,2,2,370.54,FLYING
371.22,APPROACH,FLY_TO_FIX,83.79,84,0.21,1086.92,-1.42,6.57,7.46,270.13,-0.02,0.2517,20,270.2,-0.835,0,0,0,0,0,0,0,0,268.66,0,0,0,0,0,0,0,0,0,0,0,0,0,2,2,371.26,FLYING
371.94,APPROACH,FLY_TO_FIX,83.79,84,0.21,1085.91,-1.41,6.58,7.46,270.13,-0.021,0.2519,20,270.2,-0.83,0,0,0,0,0,0,0,0,268.66,0,0,0,0,0,0,0,0,0,0,0,0,0,2,2,371.98,FLYING
372.66,APPROACH,FLY_TO_FIX,83.79,84,0.21,1084.9,-1.4,6.59,7.46,270.13,-0.022,0.252,20,270.21,-0.825,0,0,0,0,0,0,0,0,268.66,0,0,0,0,0,0,0,0,0,0,0,0,0,2,2,372.7,FLYING
373.38,APPROACH,FLY_TO_FIX,83.78,84,0.22,1083.89,-1.39,6.6,7.46,270.13,-0.023,0.2521,20,270.21,-0.82,0,0,0,0,0,0,0,0,268.66,0,0,0,0,0,0,0,0,0,0,0,0,0,2,2,373.42,FLYING
374.1,APPROACH,FLY_TO_FIX,83.78,84,0.22,1082.9,-1.38,6.6,7.46,270.13,-0.024,0.2523,20,270.21,-0.815,0,0,0,0,0,0,0,0,268.66,0,0,0,0,0,0,0,0,0,0,0,0,0,2,2,374.14,FLYING
374.82,APPROACH,FLY_TO_FIX,83.78,84,0.22,1081.91,-1.37,6.61,7.46,270.13,-0.025,0.2524,20,270.22,-0.81,0,0,0,0,0,0,0,0,268.66,0,0,0,0,0,0,0,0,0,0,0,0,0,2,2,374.86,FLYING
375.54,APPROACH,ILS_TRACK,83.78,84,0.22,1080.91,-1.36,6.62,7.46,270.14,-0.026,0.2525,20,270.22,-0.805,0,0,0,0,0,0,0,0,268.66,0,0,0,0,0,0,0,0,0,0,0,0,0,2,2,375.58,FLYING
376.38,APPROACH,ILS_TRACK,83.77,84,0.23,1079.8,-1.33,6.61,7.45,270.14,-0.039,0.2527,20,294,-7,-281.06,86.25,16.404,151.77,-163.879,0,0,0,268.66,0,0,0,0,0,0,0,0,0,0,0,0,0,2,2,376.4,FLYING
377.16,APPROACH,ILS_TRACK,83.77,84,0.23,1078.37,-1.99,5.14,6.38,270.51,-3.356,0.2531,20,279.51,-7,-279.7,88.63,16.333,10.508,-30.399,0,0,0,268.66,0,0,0,0,0,0,0,0,0,0,0,0,0,2,2,377.18,FLYING
377.94,APPROACH,ILS_TRACK,83.88,84,0.12,1076.45,-2.77,4.73,6.54,271.71,-9.743,0.2364,20,279.35,-7,-278.14,90.57,16.261,10.349,-30.269,0,0,0,268.66,0,0,0,0,0,0,0,0,0,0,0,0,0,2,2,377.96,FLYING
378.72,APPROACH,ILS_TRACK,84.08,84,-0.08,1073.89,-3.56,4.3,6.63,272.66,-10.52,0.2086,19.963,278.87,-7,-275.82,91.86,16.19,9.87,-29.629,0,0,0,268.66,0,0,0,0,0,0,0,0,0,0,0,0,0,2,2,378.74,FLYING
379.5,APPROACH,ILS_TRACK,84.31,84,-0.31,1070.74,-4.3,3.86,6.64,273.35,-10.013,0.177,19.809,278.23,-7,-272.49,92.55,16.118,9.234,-28.87,0,0,0,268.66,0,0,0,0,0,0,0,0,0,0,0,0,0,2,2,379.52,FLYING
380.28,APPROACH,ILS_TRACK,84.56,84,-0.56,1067.02,-4.99,3.4,6.57,273.94,-8.978,0.1458,19.532,277.58,-7,-268.19,92.68,16.046,8.58,-28.008,0,0,0,268.66,0,0,0,0,0,0,0,0,0,0,0,0,0,2,2,380.3,FLYING
381.06,APPROACH,ILS_TRACK,84.8,84,-0.8,1062.8,-5.64,3.04,6.58,274.42,-7.619,0.1173,19.135,276.93,-7,-263.01,92.3,15.974,7.931,-27.087,0,0,0,268.66,0,0,0,0,0,0,0,0,0,0,0,0,0,2,2,381.08,FLYING
381.86,APPROACH,ILS_TRACK,85,84,-1,1057.98,-6.25,2.8,6.68,274.73,-5.754,0.095,18.635,276.22,-7,-256.91,91.43,15.9,7.223,-26.033,0,0,0,268.66,0,0,0,0,0,0,0,0,0,0,0,0,0,2,2,381.88,FLYING
382.64,APPROACH,ILS_TRACK,85.16,84,-1.16,1052.85,-6.76,2.53,6.71,274.99,-4.453,0.0804,18.058,275.74,-7,-250.35,90.14,15.828,6.737,-24.973,0,0,0,268.66,0,0,0,0,0,0,0,0,0,0,0,0,0,2,2,382.66,FLYING
383.44,APPROACH,ILS_TRACK,85.26,84,-1.26,1047.21,-7.23,2.32,6.77,275.15,-3.199,0.073,17.428,275.13,-7,-243.15,88.42,15.754,6.126,-23.777,0,0,0,268.66,0,0,0,0,0,0,0,0,0,0,0,0,0,2,2,383.46,FLYING
384.22,APPROACH,ILS_TRACK,85.3,84,-1.3,1041.37,-7.64,2.14,6.84,275.23,-2.012,0.0731,16.776,274.75,-7,-235.79,86.4,15.682,5.75,-22.693,0,0,0,268.66,0,0,0,0,0,0,0,0,0,0,0,0,0,2,2,384.24,FLYING
385,APPROACH,ILS_TRACK,85.3,84,-1.3,1035.24,-8,2,6.92,275.23,-1.017,0.0784,16.126,274.34,-7,-228.21,84.09,15.61,5.338,-21.519,0,0,0,268.66,0,0,0,0,0,0,0,0,0,0,0,0,0,2,2,385.02,FLYING
385.78,APPROACH,ILS_TRACK,85.26,84,-1.26,1028.85,-8.31,1.88,6.99,275.18,-0.165,0.0871,15.497,273.98,-7,-220.52,81.5,15.539,4.975,-20.319,0,0,0,268.66,0,0,0,0,0,0,0,0,0,0,0,0,0,2,2,385.8,FLYING
386.56,APPROACH,ILS_TRACK,85.19,84,-1.19,1022.24,-8.59,1.77,7.07,275.08,0.537,0.0972,14.901,273.65,-7,-212.8,78.68,15.467,4.654,-19.096,0,0,0,268.66,0,0,0,0,0,0,0,0,0,0,0,0,0,2,2,386.58,FLYING
387.34,APPROACH,ILS_TRACK,85.11,84,-1.11,1015.42,-8.83,1.68,7.14,274.95,1.096,0.1068,14.344,273.37,-7,-205.14,75.66,15.395,4.374,-17.852,0,0,0,268.66,0,0,0,0,0,0,0,0,0,0,0,0,0,2,2,387.36,FLYING
388.12,APPROACH,ILS_TRACK,85.03,84,-1.03,1008.43,-9.05,1.6,7.2,274.79,1.524,0.1145,13.828,273.13,-7,-197.59,72.44,15.324,4.127,-16.588,0,0,0,268.66,0,0,0,0,0,0,0,0,0,0,0,0,0,2,2,388.16,FLYING
389.05,APPROACH,ILS_TRACK,84.96,84,-0.96,999.89,-9.28,1.5,7.26,274.58,1.903,0.1198,13.348,272.52,-7,-189.48,68.72,15.245,3.524,-14.66,0,0,0,268.66,0,0,0,0,0,0,0,0,0,0,0,0,0,2,2,389.12,FLYING
390.42,APPROACH,ILS_TRACK,84.86,83.6,-1.26,986.98,-9.58,1.4,7.35,274.2,2.446,0.1046,12.715,269.95,-7,-177.19,62.49,15.122,0.946,-8.784,0,0,0,268.66,0,0,0,0,0,0,0,0,0,0,0,0,0,2,2,390.49,FLYING
391.82,APPROACH,ILS_TRACK,84.77,83.2,-1.57,973.37,-9.82,1.3,7.43,273.42,4.356,0.0852,11.926,269.65,-7,-165.27,55.64,14.994,0.65,-5.735,0,0,0,268.66,0,0,0,0,0,0,0,0,0,0,0,0,0,2,2,391.89,FLYING
393.15,APPROACH,ILS_TRACK,84.68,82.8,-1.88,960.17,-10.02,1.26,7.53,272.73,4.682,0.0629,10.98,270.17,-6.753,-155.19,48.83,14.872,1.168,-3.753,0,0,0,268.66,0,0,0,0,0,0,0,0,0,0,0,0,0,2,2,393.22,FLYING
394.48,APPROACH,ILS_TRACK,84.53,82.4,-2.13,946.77,-10.16,1.34,7.66,272.23,3.873,0.048,9.912,270.52,-4.302,-146.51,41.81,14.751,1.521,-1.302,0,0,0,268.66,0,0,0,0,0,0,0,0,0,0,0,0,0,2,2,394.55,FLYING
395.81,APPROACH,ILS_TRACK,84.13,82,-2.13,933.69,-9.71,2.26,8.34,271.84,2.857,0.0644,8.832,270.85,-2.548,-139.08,34.97,14.63,1.847,0.452,0,0,0,268.66,0,0,0,0,0,0,0,0,0,0,0,0,0,2,2,395.88,FLYING
397.17,APPROACH,ILS_TRACK,83.43,81.6,-1.83,921.24,-8.83,3.3,8.87,271.58,1.908,0.123,7.896,271.01,-1.74,-132.49,28.78,14.507,2.006,1.26,0,0,0,268.66,0,0,0,0,0,0,0,0,0,0,0,0,0,2,2,397.24,FLYING
398.54,APPROACH,ILS_TRACK,82.53,81.2,-1.33,910.04,-7.8,4.09,9.11,271.43,1.219,0.204,7.206,271.16,-2.171,-126.67,23.8,14.385,2.155,0.829,0,0,0,268.66,0,0,0,0,0,0,0,0,0,0,0,0,0,2,2,398.61,FLYING
399.9,APPROACH,ILS_TRACK,81.6,80.8,-0.8,899.98,-7.06,4.57,9.18,271.35,0.729,0.2819,6.783,271.2,-2.758,-121.37,19.92,14.264,2.202,0.242,0,0,0,268.66,0,0,0,0,0,0,0,0,0,0,0,0,0,2,2,399.97,FLYING
401.27,APPROACH,ILS_TRACK,80.73,80.4,-0.33,890.71,-6.59,4.9,9.24,271.3,0.43,0.3427,6.598,271.17,-3.071,-116.39,16.81,14.145,2.169,-0.071,0,0,0,268.66,0,0,0,0,0,0,0,0,0,0,0,0,0,2,2,401.34,FLYING
402.38,APPROACH,ILS_TRACK,80.07,80,-0.07,883.55,-6.3,5.15,9.33,271.27,0.291,0.369,6.558,271.42,-3.711,-112.25,14.53,14.042,2.416,-0.711,0,0,0,268.66,0,0,0,0,0,0,0,0,0,0,0,0,0,2,2,402.43,FLYING
403.21,APPROACH,ILS_TRACK,79.67,80,0.33,878.37,-6.22,5.12,9.26,271.27,0.123,0.3724,6.718,271.93,-4.516,-109.37,13.03,13.969,2.935,-1.516,0,0,0,268.66,0,0,0,0,0,0,0,0,0,0,0,0,0,2,2,403.25,FLYING
404.01,APPROACH,ILS_TRACK,79.38,80,0.62,873.36,-6.27,5.02,9.19,271.32,-0.192,0.3648,7.025,271.92,-4.231,-106.67,11.62,13.9,2.918,-1.231,0,0,0,268.66,0,0,0,0,0,0,0,0,0,0,0,0,0,2,2,404.05,FLYING
404.81,APPROACH,ILS_TRACK,79.14,80,0.86,868.38,-6.26,5.15,9.33,271.37,-0.364,0.356,7.452,271.81,-3.821,-103.97,10.22,13.832,2.81,-0.821,0,0,0,268.66,0,0,0,0,0,0,0,0,0,0,0,0,0,2,2,404.85,FLYING
405.61,APPROACH,ILS_TRACK,78.93,80,1.07,863.43,-6.19,5.33,9.47,271.42,-0.409,0.3487,7.983,271.69,-3.437,-101.24,8.84,13.764,2.686,-0.437,0,0,0,268.66,0,0,0,0,0,0,0,0,0,0,0,0,0,2,2,405.65,FLYING
406.41,APPROACH,ILS_TRACK,78.75,80,1.25,858.55,-6.08,5.52,9.61,271.45,-0.378,0.3437,8.605,271.56,-3.131,-98.48,7.51,13.696,2.559,-0.131,0,0,0,268.66,0,0,0,0,0,0,0,0,0,0,0,0,0,2,2,406.45,FLYING
407.21,APPROACH,ILS_TRACK,78.59,80,1.41,853.78,-5.94,5.71,9.7,271.46,-0.291,0.341,9.309,271.43,-2.903,-95.69,6.27,13.628,2.429,0.097,0,0,0,268.66,0,0,0,0,0,0,0,0,0,0,0,0,0,2,2,407.25,FLYING
408.01,APPROACH,ILS_TRACK,78.44,80,1.56,849.12,-5.78,5.88,9.77,271.46,-0.176,0.3402,10.086,271.3,-2.744,-92.87,5.15,13.56,2.304,0.256,0,0,0,268.66,0,0,0,0,0,0,0,0,0,0,0,0,0,2,2,408.05,FLYING
408.81,APPROACH,ILS_TRACK,78.32,80,1.68,844.6,-5.61,6.03,9.82,271.45,-0.047,0.3406,10.924,271.18,-2.641,-90.03,4.15,13.493,2.182,0.359,0,0,0,268.66,0,0,0,0,0,0,0,0,0,0,0,0,0,2,2,408.85,FLYING
409.61,APPROACH,ILS_TRACK,78.22,80,1.78,840.21,-5.44,6.16,9.84,271.43,0.082,0.3417,11.814,271.07,-2.582,-87.18,3.27,13.425,2.066,0.418,0,0,0,268.66,0,0,0,0,0,0,0,0,0,0,0,0,0,2,2,409.65,FLYING
410.41,APPROACH,ILS_TRACK,78.14,80,1.86,835.95,-5.27,6.26,9.84,271.39,0.203,0.3431,12.746,270.96,-2.556,-84.36,2.52,13.358,1.96,0.444,0,0,0,268.66,0,0,0,0,0,0,0,0,0,0,0,0,0,2,2,410.45,FLYING
411.21,APPROACH,ILS_TRACK,78.08,80,1.92,831.81,-5.12,6.35,9.83,271.35,0.312,0.3442,13.707,270.86,-2.556,-81.55,1.89,13.291,1.86,0.444,0,0,0,268.66,0,0,0,0,0,0,0,0,0,0,0,0,0,2,2,411.25,FLYING
412.01,APPROACH,ILS_TRACK,78.04,80,1.96,827.78,-4.99,6.41,9.8,271.3,0.407,0.3447,14.687,270.77,-2.572,-78.78,1.37,13.223,1.767,0.428,0,0,0,268.66,0,0,0,0,0,0,0,0,0,0,0,0,0,2,2,412.05,FLYING
412.81,APPROACH,ILS_TRACK,78.03,80,1.97,823.84,-4.87,6.45,9.76,271.24,0.486,0.3441,15.672,270.68,-2.603,-76.06,0.94,13.156,1.681,0.397,0,0,0,268.66,0,0,0,0,0,0,0,0,0,0,0,0,0,2,2,412.85,FLYING
413.61,APPROACH,ILS_TRACK,78.04,80,1.96,819.99,-4.76,6.48,9.72,271.18,0.55,0.3423,16.65,270.6,-2.64,-73.39,0.6,13.089,1.6,0.36,0,0,0,268.66,0,0,0,0,0,0,0,0,0,0,0,0,0,2,2,413.65,FLYING
414.41,APPROACH,ILS_TRACK,78.08,80,1.92,816.22,-4.67,6.49,9.67,271.12,0.601,0.339,17.609,270.53,-2.683,-70.78,0.34,13.022,1.528,0.317,0,0,0,268.66,0,0,0,0,0,0,0,0,0,0,0,0,0,2,2,414.45,FLYING
415.21,APPROACH,ILS_TRACK,78.15,80,1.85,812.5,-4.6,6.49,9.61,271.05,0.638,0.3342,18.536,270.46,-2.728,-68.24,0.14,12.954,1.458,0.272,0,0,0,268.66,0,0,0,0,0,0,0,0,0,0,0,0,0,2,2,415.25,FLYING
416.01,APPROACH,ILS_TRACK,78.24,80,1.76,808.84,-4.54,6.46,9.55,270.99,0.664,0.3278,19.419,270.39,-2.774,-65.77,0,12.887,1.394,0.226,0,0,0,268.66,0,0,0,0,0,0,0,0,0,0,0,0,0,2,2,416.05,FLYING
417.05,APPROACH,ILS_TRACK,78.38,80,1.62,804.12,-4.49,6.44,9.48,270.9,0.694,0.3133,20,270.09,-2.791,-62.91,-0.11,12.807,1.087,0.209,0,0,0,268.66,0,0,0,0,0,0,0,0,0,0,0,0,0,2,2,417.12,FLYING
418.42,APPROACH,ILS_TRACK,78.62,80,1.38,798.03,-4.42,6.38,9.36,270.75,0.858,0.2792,20,269.41,-2.851,-59,-0.17,12.691,0.409,0.149,0,0,0,268.66,0,0,0,0,0,0,0,0,0,0,0,0,0,2,2,418.49,FLYING
419.78,APPROACH,ILS_TRACK,78.9,80,1.1,792,-4.37,6.27,9.22,270.52,1.224,0.2432,20,269.39,-3.003,-55.36,-0.14,12.576,0.394,-0.003,0,0,0,268.66,0,0,0,0,0,0,0,0,0,0,0,0,0,2,2,419.85,FLYING
421.15,APPROACH,ILS_TRACK,79.2,80,0.8,786,-4.38,6.15,9.1,270.32,1.259,0.2092,20,269.45,-3.102,-52.09,-0.07,12.46,0.445,-0.102,0,0,0,268.66,0,0,0,0,0,0,0,0,0,0,0,0,0,2,2,421.22,FLYING
422.51,APPROACH,ILS_TRACK,79.45,80,0.55,779.97,-4.41,6.08,9.03,270.16,1.11,0.1856,20,269.53,-3.135,-49.2,0.02,12.343,0.526,-0.135,0,0,0,268.66,0,0,0,0,0,0,0,0,0,0,0,0,0,2,2,422.58,FLYING
423.88,APPROACH,ILS_TRACK,79.58,80,0.42,773.92,-4.45,6.05,9.02,270.03,0.896,0.1806,20,269.61,-3.123,-46.68,0.08,12.227,0.606,-0.123,0,0,0,268.66,0,0,0,0,0,0,0,0,0,0,0,0,0,2,2,423.95,FLYING
425.24,APPROACH,ILS_TRACK,79.59,80,0.41,767.84,-4.47,6.07,9.06,269.95,0.641,0.1941,20,269.67,-3.095,-44.46,0.12,12.11,0.666,-0.095,0,0,0,268.66,0,0,0,0,0,0,0,0,0,0,0,0,0,2,2,425.31,FLYING
426.61,APPROACH,ILS_TRACK,79.51,80,0.49,761.74,-4.47,6.11,9.1,269.9,0.396,0.2189,20,269.7,-3.074,-42.46,0.14,11.993,0.7,-0.074,0,0,0,268.66,0,0,0,0,0,0,0,0,0,0,0,0,0,2,2,426.68,FLYING
427.97,APPROACH,ILS_TRACK,79.41,80,0.59,755.66,-4.46,6.15,9.14,269.87,0.235,0.2443,20,269.7,-3.068,-40.61,0.15,11.877,0.7,-0.068,0,0,0,268.66,0,0,0,0,0,0,0,0,0,0,0,0,0,2,2,428.04,FLYING
429.34,APPROACH,ILS_TRACK,79.31,80,0.69,749.58,-4.45,6.18,9.17,269.85,0.148,0.2643,20,269.67,-3.072,-38.85,0.16,11.761,0.675,-0.072,0,0,0,268.66,0,0,0,0,0,0,0,0,0,0,0,0,0,2,2,429.41,FLYING
430.7,APPROACH,ILS_TRACK,79.24,80,0.76,743.51,-4.44,6.2,9.18,269.84,0.114,0.2771,20,269.64,-3.081,-37.15,0.18,11.645,0.637,-0.081,0,0,0,268.66,0,0,0,0,0,0,0,0,0,0,0,0,0,2,2,430.77,FLYING
432.07,APPROACH,ILS_TRACK,79.21,80,0.79,737.46,-4.43,6.2,9.18,269.82,0.11,0.2821,20,269.59,-3.091,-35.5,0.2,11.529,0.593,-0.091,0,0,0,268.66,0,0,0,0,0,0,0,0,0,0,0,0,0,2,2,432.14,FLYING
433.43,APPROACH,ILS_TRACK,79.22,80,0.78,731.4,-4.43,6.18,9.17,269.79,0.115,0.2797,20,269.55,-3.1,-33.89,0.22,11.413,0.549,-0.1,0,0,0,268.66,0,0,0,0,0,0,0,0,0,0,0,0,0,2,2,433.5,FLYING
434.8,APPROACH,ILS_TRACK,79.28,80,0.72,725.35,-4.43,6.15,9.13,269.77,0.127,0.2706,20,269.51,-3.109,-32.31,0.24,11.297,0.506,-0.109,0,0,0,268.66,0,0,0,0,0,0,0,0,0,0,0,0,0,2,2,434.87,FLYING
436.16,APPROACH,ILS_TRACK,79.39,80,0.61,719.29,-4.43,6.11,9.09,269.74,0.145,0.2567,20,269.47,-3.116,-30.78,0.27,11.181,0.466,-0.116,0,0,0,268.66,0,0,0,0,0,0,0,0,0,0,0,0,0,2,2,436.23,FLYING
