t_s,phase,subphase,ias_ms,vapp_ms,spd_err_ms,agl_m,vs_ms,pitch_deg,aoa_deg,hdg_deg,bank_deg,thr_cmd,thr_intg,aa_hdg_cmd_deg,aa_fpa_cmd_deg,ils_loc_m,ils_gs_m,ils_dist_km,loc_corr_deg,gs_corr_deg,flare_fpa_cmd,flare_tgt_vs,flare_frac,steer_hdg_deg,steer_blend,ro_loc_corr_deg,ro_hdg_err_deg,ro_yaw_tgt,ro_yaw_scale,ro_yaw_gate,yaw_cmd,roll_cmd,pitch_cmd,ro_pitch_tgt_deg,ro_pitch_err_deg,ro_pitch_ff,ro_roll_assist,flaps_cur,flaps_tgt,phase_el_s,status
1,APPROACH,FLY_TO_FIX,71.51,75.45,3.94,1360.6,-0.01,7.4,7.41,90.06,0.065,0.2,1.97,269.75,0.697,0,0,0,0,0,0,0,0,90.05,0,0,0,0,0,0,0,0,0,0,0,0,0,0,0,1.04,FLYING
1.8,APPROACH,FLY_TO_FIX,70.88,75.9,5.02,1361.81,3.01,13.94,11.83,91.82,-5.951,0.3631,4.466,269.76,0.692,0,0,0,0,0,0,0,0,90.05,0,0,0,0,0,0,0,0,0,0,0,0,0,0,0,1.84,FLYING
2.38,APPROACH,FLY_TO_FIX,69.75,76.35,6.6,1364.59,5.94,16.13,11.82,92.46,-5.825,0.5631,7.742,269.76,0.679,0,0,0,0,0,0,0,0,90.05,0,0,0,0,0,0,0,0,0,0,0,0,0,0,0,2.42,FLYING
3.12,APPROACH,FLY_TO_FIX,67.88,76.8,8.92,1370.37,9.06,18.67,11.85,93.22,-5.608,0.7631,12.173,269.76,0.652,0,0,0,0,0,0,0,0,90.05,0,0,0,0,0,0,0,0,0,0,0,0,0,0,0,3.16,FLYING
3.74,APPROACH,FLY_TO_FIX,66.08,77.25,11.17,1376.79,11.15,20.53,11.88,93.81,-5.341,0.9631,17.726,269.77,0.621,0,0,0,0,0,0,0,0,90.05,0,0,0,0,0,0,0,0,0,0,0,0,0,0,0,3.78,FLYING
4.48,APPROACH,FLY_TO_FIX,63.75,77.7,13.95,1385.89,12.98,22.39,11.93,94.42,-4.877,1,20,269.78,0.576,0,0,0,0,0,0,0,0,90.05,0,0,0,0,0,0,0,0,0,0,0,0,0,0,0,4.52,FLYING
5.08,APPROACH,FLY_TO_FIX,61.76,78.15,16.39,1394.06,13.93,23.59,11.97,94.82,-4.366,1,20,269.78,0.535,0,0,0,0,0,0,0,0,90.05,0,0,0,0,0,0,0,0,0,0,0,0,0,0,0,5.12,FLYING
5.82,APPROACH,FLY_TO_FIX,59.23,78.6,19.37,1404.69,14.5,24.65,12.01,95.16,-3.539,1,20,269.79,0.482,0,0,0,0,0,0,0,0,90.05,0,0,0,0,0,0,0,0,0,0,0,0,0,0,0,5.86,FLYING
6.46,APPROACH,FLY_TO_FIX,57.03,79.05,22.02,1414.01,14.46,25.1,12.01,95.29,-2.621,1,20,269.8,0.436,0,0,0,0,0,0,0,0,90.05,0,0,0,0,0,0,0,0,0,0,0,0,0,0,0,6.5,FLYING
7.2,APPROACH,FLY_TO_FIX,54.54,79.5,24.96,1424.51,13.84,25.12,12.01,95.22,-1.278,1,20,269.81,0.383,0,0,0,0,0,0,0,0,90.05,0,0,0,0,0,0,0,0,0,0,0,0,0,0,0,7.24,FLYING
7.8,APPROACH,FLY_TO_FIX,52.6,79.95,27.35,1432.53,12.94,24.7,12.01,94.98,0.082,1,20,269.82,0.343,0,0,0,0,0,0,0,0,90.05,0,0,0,0,0,0,0,0,0,0,0,0,0,0,0,7.84,FLYING
8.56,APPROACH,FLY_TO_FIX,50.29,80.4,30.11,1441.7,11.35,23.62,12.01,94.37,2.429,1,20,269.83,0.296,0,0,0,0,0,0,0,0,90.05,0,0,0,0,0,0,0,0,0,0,0,0,0,0,0,8.6,FLYING
9.2,APPROACH,FLY_TO_FIX,48.51,80.85,32.34,1448.35,9.68,22.2,12.01,93.38,5.68,1,20,269.84,0.262,0,0,0,0,0,0,0,0,90.05,0,0,0,0,0,0,0,0,0,0,0,0,0,0,0,9.24,FLYING
9.96,APPROACH,FLY_TO_FIX,46.66,81.3,34.64,1454.67,7.33,19.56,11.7,91.66,10.882,1,20,269.85,0.23,0,0,0,0,0,0,0,0,90.05,0,0,0,0,0,0,0,0,0,0,0,0,0,0,0,10,FLYING
10.56,APPROACH,FLY_TO_FIX,45.48,81.75,36.27,1458.15,5.04,15.47,10.21,89.98,17.93,1,20,269.86,0.211,0,0,0,0,0,0,0,0,90.05,0,0,0,0,0,0,0,0,0,0,0,0,0,0,0,10.6,FLYING
11.36,APPROACH,FLY_TO_FIX,44.39,82.2,37.81,1460.36,1.31,12.32,11.58,86.95,19.776,1,20,269.86,0.199,0,0,0,0,0,0,0,0,90.05,0,0,0,0,0,0,0,0,0,0,0,0,0,0,0,11.4,FLYING
11.96,APPROACH,FLY_TO_FIX,43.84,82.65,38.81,1460.17,-1.33,9.67,11.51,87.34,10.146,1,20,269.86,0.199,0,0,0,0,0,0,0,0,90.05,0,0,0,0,0,0,0,0,0,0,0,0,0,0,0,12,FLYING
12.7,APPROACH,FLY_TO_FIX,43.68,83,39.32,1457.04,-5.49,-4.89,1.48,89.5,-0.992,1,20,269.86,0.212,0,0,0,0,0,0,0,0,90.05,0,0,0,0,0,0,0,0,0,0,0,0,0,0,0,12.74,FLYING
13.34,APPROACH,FLY_TO_FIX,44.4,83,38.6,1450.46,-12.5,-19.16,-4.8,89.13,-5.261,1,20,269.86,0.242,0,0,0,0,0,0,0,0,90.05,0,0,0,0,0,0,0,0,0,0,0,0,0,0,0,13.38,FLYING
14.1,APPROACH,FLY_TO_FIX,46.19,83,36.81,1436.27,-22.74,-32.92,-7.28,88.36,-4.538,0.8,20,269.86,0.309,0,0,0,0,0,0,0,0,90.05,0,0,0,0,0,0,0,0,0,0,0,0,0,0,0,14.14,FLYING
14.7,APPROACH,FLY_TO_FIX,48.35,83,34.65,1419.71,-30.89,-42.02,-7.88,87.9,-4.034,0.6,20,269.86,0.389,0,0,0,0,0,0,0,0,90.05,0,0,0,0,0,0,0,0,0,0,0,0,0,0,0,14.74,FLYING
15.5,APPROACH,FLY_TO_FIX,52.17,83,30.83,1390.18,-41.65,-52.46,-7.86,87.22,-3.425,0.4,20,269.86,0.532,0,0,0,0,0,0,0,0,90.05,0,0,0,0,0,0,0,0,0,0,0,0,0,0,0,15.54,FLYING
16.1,APPROACH,FLY_TO_FIX,55.59,83,27.41,1362.49,-49.64,-59.66,-7.78,86.53,-3.007,0.2,20,269.86,0.668,0,0,0,0,0,0,0,0,90.05,0,0,0,0,0,0,0,0,0,0,0,0,0,0,0,16.14,FLYING
16.84,APPROACH,FLY_TO_FIX,60.32,83,22.68,1321.92,-59.22,-68.02,-7.85,85.18,-2.563,0,20,269.85,0.867,0,0,0,0,0,0,0,0,90.05,0,0,0,0,0,0,0,0,0,0,0,0,0,0,0,16.88,FLYING
17.48,APPROACH,FLY_TO_FIX,64.75,83,18.25,1281.3,-67.14,-74.8,-7.96,83.04,-2.251,0,20,269.85,1.067,0,0,0,0,0,0,0,0,90.05,0,0,0,0,0,0,0,0,0,0,0,0,0,0,0,17.52,FLYING
18.24,APPROACH,FLY_TO_FIX,70.28,83,12.72,1226.74,-75.95,-82.21,-7.91,76.39,-1.963,0,20,269.85,1.336,0,0,0,0,0,0,0,0,90.05,0,0,0,0,0,0,0,0,0,0,0,0,0,0,0,18.28,FLYING
18.84,APPROACH,FLY_TO_FIX,74.76,83,8.24,1179.18,-82.29,-87.41,-7.81,44.44,-1.787,0,20,269.84,1.571,0,0,0,0,0,0,0,0,90.05,0,0,0,0,0,0,0,0,0,0,0,0,0,0,0,18.88,FLYING
19.64,APPROACH,FLY_TO_FIX,80.78,83,2.22,1110.33,-89.59,-84.13,-7.84,286.24,-1.608,0,20,269.84,1.913,0,0,0,0,0,0,0,0,90.05,0,0,0,0,0,0,0,0,0,0,0,0,0,0,0,19.68,FLYING
20.24,APPROACH,FLY_TO_FIX,85.39,83,-2.39,1055.1,-94.33,-85.94,-1.18,292.62,-1.213,0,18.887,269.83,2.187,0,0,0,0,0,0,0,0,90.05,0,0,0,0,0,0,0,0,0,0,0,0,0,0,0,20.28,FLYING
20.98,APPROACH,FLY_TO_FIX,91.72,83,-8.72,982.86,-100.7,-87.22,-0.04,286.87,0.595,0,14.614,269.83,2.546,0,0,0,0,0,0,0,0,90.05,0,0,0,0,0,0,0,0,0,0,0,0,0,0,0,21.02,FLYING
21.62,APPROACH,FLY_TO_FIX,97.24,83,-14.24,916.61,-106.15,-86.71,0.13,284,2.543,0,7.581,269.82,2.875,0,0,0,0,0,0,0,0,90.05,0,0,0,0,0,0,0,0,0,0,0,0,0,0,0,21.66,FLYING
22.36,APPROACH,FLY_TO_FIX,103.64,83,-20.64,835.68,-112.36,-86.19,0.28,293.78,3.807,0,-2.651,269.82,3.277,0,0,0,0,0,0,0,0,90.05,0,0,0,0,0,0,0,0,0,0,0,0,0,0,0,22.4,FLYING
22.94,APPROACH,FLY_TO_FIX,108.65,83,-25.65,769.06,-117.15,-86.11,0.39,304.94,3.55,0,-15.389,269.81,3.608,0,0,0,0,0,0,0,0,90.05,0,0,0,0,0,0,0,0,0,0,0,0,0,0,0,22.98,FLYING
23.68,APPROACH,FLY_TO_FIX,114.47,83,-31.47,680.5,-121.1,-72.64,9.14,269.82,0.948,0,-20,269.81,4.037,0,0,0,0,0,0,0,0,90.05,0,0,0,0,0,0,0,0,0,0,0,0,0,0,0,23.72,FLYING
24.32,APPROACH,FLY_TO_FIX,118.11,83,-35.11,603.4,-119.79,-63.52,9.19,269.86,0.311,0,-20,269.81,4.423,0,0,0,0,0,0,0,0,90.05,0,0,0,0,0,0,0,0,0,0,0,0,0,0,0,24.36,FLYING
25.08,APPROACH,FLY_TO_FIX,122.05,83,-39.05,514.51,-114.29,-53.92,8.65,269.66,0.019,0,-20,269.81,4.87,0,0,0,0,0,0,0,0,90.05,0,0,0,0,0,0,0,0,0,0,0,0,0,0,0,25.12,FLYING
25.66,APPROACH,FLY_TO_FIX,124.76,83,-41.76,450.34,-107.71,-47.06,8.28,269.69,-0.044,0,-20,269.81,5,0,0,0,0,0,0,0,0,90.05,0,0,0,0,0,0,0,0,0,0,0,0,0,0,0,25.7,FLYING
26.4,APPROACH,FLY_TO_FIX,127.77,83,-44.77,374.84,-97.58,-39.39,7.49,269.22,2.123,0,-20,269.81,5,0,0,0,0,0,0,0,0,90.05,0,0,0,0,0,0,0,0,0,0,0,0,0,0,0,26.44,FLYING
27.04,APPROACH,FLY_TO_FIX,129.71,83,-46.71,316.61,-85.71,-31.69,7.89,266.98,5.463,0,-20,269.81,5,0,0,0,0,0,0,0,0,90.05,0,0,0,0,0,0,0,0,0,0,0,0,0,0,0,27.08,FLYING
27.78,APPROACH,FLY_TO_FIX,131.07,83,-48.07,259.36,-70.33,-23.64,7.74,265.03,8.549,0,-20,269.82,5,0,0,0,0,0,0,0,0,90.05,0,0,0,0,0,0,0,0,0,0,0,0,0,0,0,27.82,FLYING
28.36,APPROACH,FLY_TO_FIX,131.5,83,-48.5,222.73,-57.48,-17.6,7.68,262.89,11.261,0,-20,269.83,5,0,0,0,0,0,0,0,0,90.05,0,0,0,0,0,0,0,0,0,0,0,0,0,0,0,28.4,FLYING
29.1,APPROACH,FLY_TO_FIX,131.19,83,-48.19,187.07,-40.45,-9.97,7.7,260.27,12.672,0,-20,269.86,5,0,0,0,0,0,0,0,0,90.05,0,0,0,0,0,0,0,0,0,0,0,0,0,0,0,29.14,FLYING
29.74,APPROACH,FLY_TO_FIX,130.09,83,-47.09,166.55,-25.38,-3.36,7.82,258.02,13.398,0,-20,269.9,5,0,0,0,0,0,0,0,0,90.05,0,0,0,0,0,0,0,0,0,0,0,0,0,0,0,29.78,FLYING
30.48,APPROACH,FLY_TO_FIX,127.87,83,-44.87,154.86,-8,4.34,8.09,255.18,14.343,0,-20,269.95,5,0,0,0,0,0,0,0,0,90.05,0,0,0,0,0,0,0,0,0,0,0,0,0,0,0,30.52,FLYING
31.06,APPROACH,FLY_TO_FIX,125.37,83,-42.37,154.62,5.36,10.5,8.4,252.73,15.164,0,-20,270,5,0,0,0,0,0,0,0,0,90.05,0,0,0,0,0,0,0,0,0,0,0,0,0,0,0,31.1,FLYING
31.82,APPROACH,FLY_TO_FIX,121.8,83,-38.8,164.04,14.72,9.61,2.78,252.39,9.678,0,-20,270.07,5,0,0,0,0,0,0,0,0,90.05,0,0,0,0,0,0,0,0,0,0,0,0,0,0,0,31.86,FLYING
32.46,APPROACH,FLY_TO_FIX,119.63,83,-36.63,173.57,14.78,9.04,2.59,254.5,-22.616,0,-20,270.14,5,0,0,0,0,0,0,0,0,90.05,0,0,0,0,0,0,0,0,0,0,0,0,0,0,0,32.5,FLYING
33.22,APPROACH,FLY_TO_FIX,117.18,83,-34.18,184.22,13.58,8.41,5.18,261.22,-60.254,0.0294,-20,270.22,5,0,0,0,0,0,0,0,0,90.05,0,0,0,0,0,0,0,0,0,0,0,0,0,0,0,33.26,FLYING
33.8,APPROACH,FLY_TO_FIX,115.21,83,-32.21,191.63,12.09,7.89,4.29,264.18,-57.518,0.0982,-20,270.26,5,0,0,0,0,0,0,0,0,90.05,0,0,0,0,0,0,0,0,0,0,0,0,0,0,0,33.84,FLYING
34.56,APPROACH,FLY_TO_FIX,113.01,83,-30.01,200.14,10.68,8.09,3.69,266.5,-42.237,0.1761,-20,270.3,5,0,0,0,0,0,0,0,0,90.05,0,0,0,0,0,0,0,0,0,0,0,0,0,0,0,34.6,FLYING
35.18,APPROACH,FLY_TO_FIX,111.38,83,-28.38,206.51,10.07,8.13,3.47,267.76,-30.406,0.1811,-20,270.31,5,0,0,0,0,0,0,0,0,90.05,0,0,0,0,0,0,0,0,0,0,0,0,0,0,0,35.22,FLYING
35.94,APPROACH,FLY_TO_FIX,109.49,83,-26.49,213.97,9.7,8.22,3.4,268.72,-18.307,0.2117,-20,270.33,5,0,0,0,0,0,0,0,0,90.05,0,0,0,0,0,0,0,0,0,0,0,0,0,0,0,35.98,FLYING
36.52,APPROACH,FLY_TO_FIX,108.08,83,-25.08,219.55,9.57,8.28,3.42,269.28,-12.86,0.187,-20,270.34,5,0,0,0,0,0,0,0,0,90.05,0,0,0,0,0,0,0,0,0,0,0,0,0,0,0,36.56,FLYING
37.28,APPROACH,FLY_TO_FIX,106.27,83,-23.27,226.75,9.4,8.38,3.5,269.81,-8.296,0.208,-20,270.34,5,0,0,0,0,0,0,0,0,90.05,0,0,0,0,0,0,0,0,0,0,0,0,0,0,0,37.32,FLYING
37.92,APPROACH,FLY_TO_FIX,104.77,83,-21.77,232.73,9.28,8.48,3.58,270.08,-5.498,0.1932,-20,270.35,5,0,0,0,0,0,0,0,0,90.05,0,0,0,0,0,0,0,0,0,0,0,0,0,0,0,37.96,FLYING
38.68,APPROACH,FLY_TO_FIX,103.02,83,-20.02,239.73,9.13,8.59,3.69,270.2,-2.553,0.2069,-20,270.35,5,0,0,0,0,0,0,0,0,90.05,0,0,0,0,0,0,0,0,0,0,0,0,0,0,0,38.72,FLYING
39.26,APPROACH,FLY_TO_FIX,101.7,83,-18.7,245,9.01,8.68,3.78,270.24,-1.264,0.1745,-20,270.35,5,0,0,0,0,0,0,0,0,90.05,0,0,0,0,0,0,0,0,0,0,0,0,0,0,0,39.3,FLYING
40.02,APPROACH,FLY_TO_FIX,99.99,83,-16.99,251.79,8.85,8.81,3.91,270.27,-0.518,0.1874,-20,270.35,5,0,0,0,0,0,0,0,0,90.05,0,0,0,0,0,0,0,0,0,0,0,0,0,0,0,40.06,FLYING
40.66,APPROACH,FLY_TO_FIX,98.57,83,-15.57,257.42,8.74,8.92,4.02,270.29,-0.264,0.1691,-20,270.35,5,0,0,0,0,0,0,0,0,90.05,0,0,0,0,0,0,0,0,0,0,0,0,0,0,0,40.7,FLYING
41.42,APPROACH,FLY_TO_FIX,96.9,83,-13.9,264.01,8.6,9.06,4.16,270.31,-0.139,0.1792,-20,270.35,5,0,0,0,0,0,0,0,0,90.05,0,0,0,0,0,0,0,0,0,0,0,0,0,0,0,41.46,FLYING
42,APPROACH,FLY_TO_FIX,95.64,83,-12.64,268.98,8.49,9.16,4.27,270.32,-0.096,0.1467,-20,270.35,5,0,0,0,0,0,0,0,0,90.05,0,0,0,0,0,0,0,0,0,0,0,0,0,0,0,42.04,FLYING
42.76,APPROACH,FLY_TO_FIX,94,83,-11,275.39,8.35,9.31,4.41,270.32,-0.069,0.1586,-20,270.35,5,0,0,0,0,0,0,0,0,90.05,0,0,0,0,0,0,0,0,0,0,0,0,0,0,0,42.8,FLYING
43.4,APPROACH,FLY_TO_FIX,92.62,83,-9.62,280.7,8.24,9.43,4.53,270.33,-0.058,0.1412,-20,270.35,5,0,0,0,0,0,0,0,0,90.05,0,0,0,0,0,0,0,0,0,0,0,0,0,0,0,43.44,FLYING
44.16,APPROACH,FLY_TO_FIX,91.01,83,-8.01,286.92,8.1,9.59,4.69,270.34,-0.047,0.1518,-20,270.35,5,0,0,0,0,0,0,0,0,90.05,0,0,0,0,0,0,0,0,0,0,0,0,0,0,0,44.2,FLYING
44.74,APPROACH,FLY_TO_FIX,89.78,83,-6.78,291.59,7.99,9.71,4.82,270.34,-0.04,0.1551,-20,270.35,5,0,0,0,0,0,0,0,0,90.05,0,0,0,0,0,0,0,0,0,0,0,0,0,0,0,44.78,FLYING
45.5,APPROACH,FLY_TO_FIX,88.18,83,-5.18,297.62,7.85,9.88,4.99,270.34,-0.032,0.2477,-20,270.35,5,0,0,0,0,0,0,0,0,90.05,0,0,0,0,0,0,0,0,0,0,0,0,0,0,0,45.54,FLYING
46.14,APPROACH,FLY_TO_FIX,86.84,83,-3.84,302.61,7.73,10.03,5.14,270.35,-0.025,0.2988,-20,270.35,5,0,0,0,0,0,0,0,0,90.05,0,0,0,0,0,0,0,0,0,0,0,0,0,0,0,46.18,FLYING
46.9,APPROACH,FLY_TO_FIX,85.26,83,-2.26,308.45,7.59,10.21,5.32,270.35,-0.021,0.3895,-20,270.35,5,0,0,0,0,0,0,0,0,90.05,0,0,0,0,0,0,0,0,0,0,0,0,0,0,0,46.94,FLYING
47.48,APPROACH,FLY_TO_FIX,84.06,83,-1.06,312.83,7.48,10.36,5.47,270.35,-0.015,0.4209,-20,270.35,5,0,0,0,0,0,0,0,0,90.05,0,0,0,0,0,0,0,0,0,0,0,0,0,0,0,47.52,FLYING
48.24,APPROACH,FLY_TO_FIX,82.49,83,0.51,318.47,7.34,10.56,5.67,270.36,-0.011,0.516,-19.765,270.35,5,0,0,0,0,0,0,0,0,90.05,0,0,0,0,0,0,0,0,0,0,0,0,0,0,0,48.28,FLYING
48.86,APPROACH,FLY_TO_FIX,81.21,83,1.79,323,7.23,10.73,5.85,270.36,-0.009,0.572,-18.891,270.35,5,0,0,0,0,0,0,0,0,90.05,0,0,0,0,0,0,0,0,0,0,0,0,0,0,0,48.9,FLYING
49.6,APPROACH,FLY_TO_FIX,79.69,83,3.31,328.31,7.09,10.94,6.07,270.36,-0.008,0.6773,-17.258,270.35,5,0,0,0,0,0,0,0,0,90.05,0,0,0,0,0,0,0,0,0,0,0,0,0,0,0,49.64,FLYING
50.18,APPROACH,FLY_TO_FIX,78.5,83,4.5,332.39,6.98,11.12,6.25,270.36,-0.006,0.7382,-15.03,270.35,5,0,0,0,0,0,0,0,0,90.05,0,0,0,0,0,0,0,0,0,0,0,0,0,0,0,50.22,FLYING
50.92,APPROACH,FLY_TO_FIX,76.99,83,6.01,337.52,6.84,11.36,6.49,270.36,-0.002,0.8623,-12.045,270.35,5,0,0,0,0,0,0,0,0,90.05,0,0,0,0,0,0,0,0,0,0,0,0,0,0,0,50.96,FLYING
51.54,APPROACH,FLY_TO_FIX,75.72,83,7.28,341.74,6.72,11.57,6.71,270.36,-0.001,0.9545,-8.424,270.35,5,0,0,0,0,0,0,0,0,90.05,0,0,0,0,0,0,0,0,0,0,0,0,0,0,0,51.58,FLYING
52.28,APPROACH,FLY_TO_FIX,74.2,83,8.8,346.68,6.58,11.83,6.98,270.37,0.005,1,-4.045,270.35,5,0,0,0,0,0,0,0,0,90.05,0,0,0,0,0,0,0,0,0,0,0,0,0,0,0,52.32,FLYING
52.88,APPROACH,FLY_TO_FIX,72.97,83,10.03,350.61,6.47,12.06,7.21,270.37,0.006,1,0.949,270.35,5,0,0,0,0,0,0,0,0,90.05,0,0,0,0,0,0,0,0,0,0,0,0,0,0,0,52.92,FLYING
53.64,APPROACH,FLY_TO_FIX,71.41,83,11.59,355.48,6.32,12.36,7.52,270.37,0.007,1,6.723,270.35,5,0,0,0,0,0,0,0,0,90.05,0,0,0,0,0,0,0,0,0,0,0,0,0,0,0,53.68,FLYING
54.28,APPROACH,FLY_TO_FIX,70.09,83,12.91,359.51,6.2,12.64,7.8,270.37,0.008,1,13.158,270.35,5,0,0,0,0,0,0,0,0,90.05,0,0,0,0,0,0,0,0,0,0,0,0,0,0,0,54.32,FLYING
55.04,APPROACH,FLY_TO_FIX,68.52,83,14.48,364.18,6.05,12.99,8.17,270.37,0.009,1,20,270.35,5,0,0,0,0,0,0,0,0,90.05,0,0,0,0,0,0,0,0,0,0,0,0,0,0,0,55.08,FLYING
55.64,APPROACH,FLY_TO_FIX,67.27,83,15.73,367.8,5.93,13.29,8.47,270.36,0.009,1,20,270.35,5,0,0,0,0,0,0,0,0,90.05,0,0,0,0,0,0,0,0,0,0,0,0,0,0,0,55.68,FLYING
56.44,APPROACH,FLY_TO_FIX,65.59,83,17.41,372.51,5.78,13.73,8.92,270.36,0.012,1,20,270.35,5,0,0,0,0,0,0,0,0,90.05,0,0,0,0,0,0,0,0,0,0,0,0,0,0,0,56.48,FLYING
57.04,APPROACH,FLY_TO_FIX,64.33,83,18.67,375.97,5.66,14.06,9.26,270.36,0.013,1,20,270.35,5,0,0,0,0,0,0,0,0,90.05,0,0,0,0,0,0,0,0,0,0,0,0,0,0,0,57.08,FLYING
57.8,APPROACH,FLY_TO_FIX,62.71,83,20.29,380.24,5.51,14.53,9.73,270.36,0.013,1,20,270.35,5,0,0,0,0,0,0,0,0,90.05,0,0,0,0,0,0,0,0,0,0,0,0,0,0,0,57.84,FLYING
58.44,APPROACH,FLY_TO_FIX,61.33,83,21.67,383.75,5.38,14.97,10.18,270.36,0.012,1,20,270.35,5,0,0,0,0,0,0,0,0,90.05,0,0,0,0,0,0,0,0,0,0,0,0,0,0,0,58.48,FLYING
59.2,APPROACH,FLY_TO_FIX,59.67,83,23.33,387.81,5.22,15.55,10.78,270.36,0.012,1,20,270.35,5,0,0,0,0,0,0,0,0,90.05,0,0,0,0,0,0,0,0,0,0,0,0,0,0,0,59.24,FLYING
59.8,APPROACH,FLY_TO_FIX,58.33,83,24.67,390.93,5.1,16.05,11.28,270.36,0.012,1,20,270.35,5,0,0,0,0,0,0,0,0,90.05,0,0,0,0,0,0,0,0,0,0,0,0,0,0,0,59.84,FLYING
60.6,APPROACH,FLY_TO_FIX,56.53,83,26.47,394.98,4.93,16.72,11.97,270.35,0.012,1,20,270.35,5,0,0,0,0,0,0,0,0,90.05,0,0,0,0,0,0,0,0,0,0,0,0,0,0,0,60.64,FLYING
61.2,APPROACH,FLY_TO_FIX,55.18,83,27.82,397.86,4.65,16.57,11.98,270.35,0.011,1,20,270.35,5,0,0,0,0,0,0,0,0,90.05,0,0,0,0,0,0,0,0,0,0,0,0,0,0,0,61.24,FLYING
61.96,APPROACH,FLY_TO_FIX,53.57,83,29.43,401.09,3.92,15.97,11.98,270.35,0.011,1,20,270.35,5,0,0,0,0,0,0,0,0,90.05,0,0,0,0,0,0,0,0,0,0,0,0,0,0,0,62,FLYING
62.6,APPROACH,FLY_TO_FIX,52.33,83,30.67,403.28,3.04,15.15,11.98,270.35,0.009,1,20,270.35,5,0,0,0,0,0,0,0,0,90.05,0,0,0,0,0,0,0,0,0,0,0,0,0,0,0,62.64,FLYING
63.36,APPROACH,FLY_TO_FIX,51.04,83,31.96,405.01,1.73,13.82,11.98,270.35,0.008,1,20,270.35,5,0,0,0,0,0,0,0,0,90.05,0,0,0,0,0,0,0,0,0,0,0,0,0,0,0,63.4,FLYING
63.96,APPROACH,FLY_TO_FIX,50.18,83,32.82,405.6,0.52,12.55,11.98,270.34,0.007,1,20,270.35,5,0,0,0,0,0,0,0,0,90.05,0,0,0,0,0,0,0,0,0,0,0,0,0,0,0,64,FLYING
64.76,APPROACH,FLY_TO_FIX,49.28,83,33.72,405.17,-1.28,10.58,11.99,270.34,0.008,1,20,270.35,5,0,0,0,0,0,0,0,0,90.05,0,0,0,0,0,0,0,0,0,0,0,0,0,0,0,64.8,FLYING
65.36,APPROACH,FLY_TO_FIX,48.79,83,34.21,403.86,-2.72,8.96,11.99,270.34,0.01,1,20,270.35,5,0,0,0,0,0,0,0,0,90.05,0,0,0,0,0,0,0,0,0,0,0,0,0,0,0,65.4,FLYING
66.12,APPROACH,FLY_TO_FIX,48.43,83,34.57,400.93,-4.62,6.81,11.99,270.34,0.01,1,20,270.35,5,0,0,0,0,0,0,0,0,90.05,0,0,0,0,0,0,0,0,0,0,0,0,0,0,0,66.16,FLYING
66.76,APPROACH,FLY_TO_FIX,48.34,83,34.66,397.32,-6.25,4.97,11.99,270.34,0.013,1,20,270.35,5,0,0,0,0,0,0,0,0,90.05,0,0,0,0,0,0,0,0,0,0,0,0,0,0,0,66.8,FLYING
67.52,APPROACH,FLY_TO_FIX,48.47,83,34.53,391.68,-8.17,2.83,11.99,270.34,0.014,0.9113,20,270.35,5,0,0,0,0,0,0,0,0,90.05,0,0,0,0,0,0,0,0,0,0,0,0,0,0,0,67.56,FLYING
68.1,APPROACH,FLY_TO_FIX,48.75,83,34.25,386.42,-9.59,1.28,11.99,270.33,0.015,0.8251,20,270.35,5,0,0,0,0,0,0,0,0,90.05,0,0,0,0,0,0,0,0,0,0,0,0,0,0,0,68.14,FLYING
68.86,APPROACH,FLY_TO_FIX,49.31,83,33.69,378.32,-11.36,-0.58,11.99,270.33,0.015,0.7276,20,270.35,5,0,0,0,0,0,0,0,0,90.05,0,0,0,0,0,0,0,0,0,0,0,0,0,0,0,68.9,FLYING
69.5,APPROACH,FLY_TO_FIX,49.93,83,33.07,370.5,-12.74,-1.95,11.99,270.33,0.014,0.6431,20,270.35,5,0,0,0,0,0,0,0,0,90.05,0,0,0,0,0,0,0,0,0,0,0,0,0,0,0,69.54,FLYING
70.26,APPROACH,FLY_TO_FIX,50.82,83,32.18,360.14,-14.22,-3.33,11.99,270.33,0.012,0.5491,20,270.35,5,0,0,0,0,0,0,0,0,90.05,0,0,0,0,0,0,0,0,0,0,0,0,0,0,0,70.3,FLYING
70.84,APPROACH,FLY_TO_FIX,51.58,83,31.42,351.55,-15.2,-4.18,11.99,270.33,0.011,0.4865,20,270.35,5,0,0,0,0,0,0,0,0,90.05,0,0,0,0,0,0,0,0,0,0,0,0,0,0,0,70.88,FLYING
71.6,APPROACH,FLY_TO_FIX,52.65,83,30.35,339.51,-16.28,-5.01,11.99,270.32,0.011,0.4053,20,270.35,5,0,0,0,0,0,0,0,0,90.05,0,0,0,0,0,0,0,0,0,0,0,0,0,0,0,71.64,FLYING
72.24,APPROACH,FLY_TO_FIX,53.59,83,29.41,328.82,-16.99,-5.48,11.97,270.32,0.011,0.3532,20,270.35,5,0,0,0,0,0,0,0,0,90.05,0,0,0,0,0,0,0,0,0,0,0,0,0,0,0,72.28,FLYING
73,APPROACH,FLY_TO_FIX,54.72,83,28.28,315.64,-17.59,-5.78,11.95,270.32,0.009,0.2925,20,270.35,5,0,0,0,0,0,0,0,0,90.05,0,0,0,0,0,0,0,0,0,0,0,0,0,0,0,73.04,FLYING
73.58,APPROACH,FLY_TO_FIX,55.57,83,27.43,305.34,-17.88,-5.82,11.93,270.32,0.009,0.2716,20,270.35,5,0,0,0,0,0,0,0,0,90.05,0,0,0,0,0,0,0,0,0,0,0,0,0,0,0,73.62,FLYING
74.34,APPROACH,FLY_TO_FIX,56.65,83,26.35,291.7,-18.01,-5.65,11.91,270.32,0.007,0.2324,20,270.35,5,0,0,0,0,0,0,0,0,90.05,0,0,0,0,0,0,0,0,0,0,0,0,0,0,0,74.38,FLYING
74.98,APPROACH,FLY_TO_FIX,57.51,83,25.49,280.22,-17.92,-5.31,11.91,270.32,0.005,0.2234,20,270.35,5,0,0,0,0,0,0,0,0,90.05,0,0,0,0,0,0,0,0,0,0,0,0,0,0,0,75.02,FLYING
75.74,APPROACH,FLY_TO_FIX,58.43,83,24.57,266.76,-17.57,-4.72,11.9,270.31,0.004,0.2088,20,270.35,5,0,0,0,0,0,0,0,0,90.05,0,0,0,0,0,0,0,0,0,0,0,0,0,0,0,75.78,FLYING
76.32,APPROACH,FLY_TO_FIX,59.06,83,23.94,256.72,-17.14,-4.15,11.89,270.31,0.003,0.2267,20,270.35,5,0,0,0,0,0,0,0,0,90.05,0,0,0,0,0,0,0,0,0,0,0,0,0,0,0,76.36,FLYING
77.08,APPROACH,FLY_TO_FIX,59.78,83,23.22,244.03,-16.4,-3.27,11.89,270.31,-0.001,0.2327,20,270.35,5,0,0,0,0,0,0,0,0,90.05,0,0,0,0,0,0,0,0,0,0,0,0,0,0,0,77.12,FLYING
77.72,APPROACH,FLY_TO_FIX,60.27,83,22.73,233.84,-15.62,-2.43,11.89,270.31,-0.004,0.2596,20,270.35,5,0,0,0,0,0,0,0,0,90.05,0,0,0,0,0,0,0,0,0,0,0,0,0,0,0,77.76,FLYING
78.48,APPROACH,FLY_TO_FIX,60.72,83,22.28,222.43,-14.56,-1.36,11.88,270.31,-0.006,0.2855,20,270.35,5,0,0,0,0,0,0,0,0,90.05,0,0,0,0,0,0,0,0,0,0,0,0,0,0,0,78.52,FLYING
79.06,APPROACH,FLY_TO_FIX,60.96,83,22.04,214.3,-13.68,-0.5,11.89,270.31,-0.009,0.3271,20,270.35,5,0,0,0,0,0,0,0,0,90.05,0,0,0,0,0,0,0,0,0,0,0,0,0,0,0,79.1,FLYING
79.82,APPROACH,FLY_TO_FIX,61.14,83,21.86,204.45,-12.45,0.65,11.89,270.31,-0.012,0.3663,20,270.35,5,0,0,0,0,0,0,0,0,90.05,0,0,0,0,0,0,0,0,0,0,0,0,0,0,0,79.86,FLYING
80.46,APPROACH,FLY_TO_FIX,61.17,83,21.83,196.89,-11.39,1.62,11.89,270.32,-0.014,0.4122,20,270.35,5,0,0,0,0,0,0,0,0,90.05,0,0,0,0,0,0,0,0,0,0,0,0,0,0,0,80.5,FLYING
81.22,APPROACH,FLY_TO_FIX,61.08,83,21.92,188.8,-10.14,2.74,11.89,270.32,-0.015,0.4615,20,270.35,5,0,0,0,0,0,0,0,0,90.05,0,0,0,0,0,0,0,0,0,0,0,0,0,0,0,81.26,FLYING
81.82,APPROACH,FLY_TO_FIX,60.91,83,22.09,183.07,-9.17,3.6,11.9,270.32,-0.016,0.5086,20,270.35,5,0,0,0,0,0,0,0,0,90.05,0,0,0,0,0,0,0,0,0,0,0,0,0,0,0,81.86,FLYING
82.62,APPROACH,FLY_TO_FIX,60.57,83,22.43,176.29,-7.97,4.67,11.93,270.32,-0.017,0.5637,20,270.35,5,0,0,0,0,0,0,0,0,90.05,0,0,0,0,0,0,0,0,0,0,0,0,0,0,0,82.66,FLYING
83.22,APPROACH,FLY_TO_FIX,60.24,83,22.76,171.82,-7.14,5.41,11.94,270.32,-0.019,0.6074,20,270.35,5,0,0,0,0,0,0,0,0,90.05,0,0,0,0,0,0,0,0,0,0,0,0,0,0,0,83.26,FLYING
83.98,APPROACH,FLY_TO_FIX,59.73,83,23.27,166.82,-6.2,6.23,11.95,270.32,-0.018,0.6596,20,270.35,5,0,0,0,0,0,0,0,0,90.05,0,0,0,0,0,0,0,0,0,0,0,0,0,0,0,84.02,FLYING
84.62,APPROACH,FLY_TO_FIX,59.24,83,23.76,163.12,-5.53,6.81,11.95,270.32,-0.016,0.6993,20,270.35,5,0,0,0,0,0,0,0,0,90.05,0,0,0,0,0,0,0,0,0,0,0,0,0,0,0,84.66,FLYING
85.38,APPROACH,FLY_TO_FIX,58.61,83,24.39,159.22,-4.88,7.38,11.97,270.32,-0.016,0.7455,20,270.35,5,0,0,0,0,0,0,0,0,90.05,0,0,0,0,0,0,0,0,0,0,0,0,0,0,0,85.42,FLYING
85.98,APPROACH,FLY_TO_FIX,58.08,83,24.92,156.43,-4.5,7.71,11.98,270.32,-0.015,0.772,20,270.35,5,0,0,0,0,0,0,0,0,90.05,0,0,0,0,0,0,0,0,0,0,0,0,0,0,0,86.02,FLYING
86.78,APPROACH,FLY_TO_FIX,57.36,83,25.64,153.01,-4.15,7.99,11.99,270.32,-0.013,0.8125,20,270.35,5,0,0,0,0,0,0,0,0,90.05,0,0,0,0,0,0,0,0,0,0,0,0,0,0,0,86.82,FLYING
87.38,APPROACH,FLY_TO_FIX,56.82,83,26.18,150.56,-4.03,8.07,11.99,270.32,-0.013,0.8269,20,270.35,5,0,0,0,0,0,0,0,0,90.05,0,0,0,0,0,0,0,0,0,0,0,0,0,0,0,87.42,FLYING
88.14,APPROACH,FLY_TO_FIX,56.16,83,26.84,147.51,-4.03,8.03,11.99,270.33,-0.012,0.8508,20,270.35,5,0,0,0,0,0,0,0,0,90.05,0,0,0,0,0,0,0,0,0,0,0,0,0,0,0,88.18,FLYING
88.78,APPROACH,FLY_TO_FIX,55.63,83,27.37,144.88,-4.16,7.86,11.99,270.33,-0.011,0.8564,20,270.35,5,0,0,0,0,0,0,0,0,90.05,0,0,0,0,0,0,0,0,0,0,0,0,0,0,0,88.82,FLYING
89.54,APPROACH,FLY_TO_FIX,55.06,83,27.94,141.59,-4.45,7.53,11.99,270.32,-0.006,0.8657,20,270.35,5,0,0,0,0,0,0,0,0,90.05,0,0,0,0,0,0,0,0,0,0,0,0,0,0,0,89.58,FLYING
90.14,APPROACH,FLY_TO_FIX,54.66,83,28.34,138.8,-4.78,7.16,11.99,270.32,-0.006,0.8561,20,270.35,5,0,0,0,0,0,0,0,0,90.05,0,0,0,0,0,0,0,0,0,0,0,0,0,0,0,90.18,FLYING
90.94,APPROACH,FLY_TO_FIX,54.2,83,28.8,134.73,-5.32,6.57,11.99,270.32,-0.003,0.8539,20,270.35,5,0,0,0,0,0,0,0,0,90.05,0,0,0,0,0,0,0,0,0,0,0,0,0,0,0,90.98,FLYING
91.54,APPROACH,FLY_TO_FIX,54.01,83,28.99,131.36,-5.77,6.09,11.99,270.32,-0.001,0.8262,20,270.35,5,0,0,0,0,0,0,0,0,90.05,0,0,0,0,0,0,0,0,0,0,0,0,0,0,0,91.58,FLYING
92.3,APPROACH,FLY_TO_FIX,54.08,83,28.92,126.72,-6.34,5.52,11.99,270.32,0.001,0.7776,20,270.35,5,0,0,0,0,0,0,0,0,90.05,0,0,0,0,0,0,0,0,0,0,0,0,0,0,0,92.34,FLYING
92.94,APPROACH,FLY_TO_FIX,54.37,83,28.63,122.5,-6.75,5.14,11.99,270.32,0.001,0.7162,20,270.35,5,0,0,0,0,0,0,0,0,90.05,0,0,0,0,0,0,0,0,0,0,0,0,0,0,0,92.98,FLYING
93.7,APPROACH,FLY_TO_FIX,54.94,83,28.06,117.19,-7.12,4.83,11.97,270.32,0.002,0.6396,20,270.35,5,0,0,0,0,0,0,0,0,90.05,0,0,0,0,0,0,0,0,0,0,0,0,0,0,0,93.74,FLYING
94.3,APPROACH,FLY_TO_FIX,55.52,83,27.48,112.85,-7.29,4.71,11.96,270.32,0.002,0.5775,20,270.35,5,0,0,0,0,0,0,0,0,90.05,0,0,0,0,0,0,0,0,0,0,0,0,0,0,0,94.34,FLYING
95.1,APPROACH,FLY_TO_FIX,56.39,83,26.61,106.99,-7.33,4.76,11.94,270.32,0.001,0.4982,20,270.35,5,0,0,0,0,0,0,0,0,90.05,0,0,0,0,0,0,0,0,0,0,0,0,0,0,0,95.14,FLYING
95.7,APPROACH,FLY_TO_FIX,57.08,83,25.92,102.64,-7.2,4.97,11.92,270.32,0.001,0.4526,20,270.35,5,0,0,0,0,0,0,0,0,90.05,0,0,0,0,0,0,0,0,0,0,0,0,0,0,0,95.74,FLYING
96.46,APPROACH,FLY_TO_FIX,57.94,83,25.06,97.33,-6.82,5.41,11.91,270.32,0,0.3986,20,270.35,5,0,0,0,0,0,0,0,0,90.05,0,0,0,0,0,0,0,0,0,0,0,0,0,0,0,96.5,FLYING
97.1,APPROACH,FLY_TO_FIX,58.63,83,24.37,93.15,-6.33,5.94,11.9,270.32,-0.003,0.3732,20,270.35,5,0,0,0,0,0,0,0,0,90.05,0,0,0,0,0,0,0,0,0,0,0,0,0,0,0,97.14,FLYING
97.86,APPROACH,FLY_TO_FIX,59.35,83,23.65,88.68,-5.54,6.73,11.89,270.32,-0.006,0.3486,20,270.35,5,0,0,0,0,0,0,0,0,90.05,0,0,0,0,0,0,0,0,0,0,0,0,0,0,0,97.9,FLYING
98.46,APPROACH,FLY_TO_FIX,59.84,83,23.16,85.63,-4.79,7.46,11.88,270.32,-0.009,0.3526,20,270.35,5,0,0,0,0,0,0,0,0,90.05,0,0,0,0,0,0,0,0,0,0,0,0,0,0,0,98.5,FLYING
99.26,APPROACH,FLY_TO_FIX,60.36,83,22.64,82.32,-3.64,8.55,11.89,270.32,-0.017,0.3527,20,270.35,5,0,0,0,0,0,0,0,0,90.05,0,0,0,0,0,0,0,0,0,0,0,0,0,0,0,99.3,FLYING
99.86,APPROACH,FLY_TO_FIX,60.69,83,22.31,80.48,-2.69,9.44,11.89,270.32,-0.021,0.3721,20,270.35,5,0,0,0,0,0,0,0,0,90.05,0,0,0,0,0,0,0,0,0,0,0,0,0,0,0,99.9,FLYING
100.62,APPROACH,FLY_TO_FIX,61.05,83,21.95,79.01,-1.4,10.62,11.88,270.32,-0.028,0.3848,20,270.35,5,0,0,0,0,0,0,0,0,90.05,0,0,0,0,0,0,0,0,0,0,0,0,0,0,0,100.66,FLYING
101.26,APPROACH,FLY_TO_FIX,61.24,83,21.76,78.56,-0.24,11.66,11.87,270.33,-0.036,0.4116,20,270.35,5,0,0,0,0,0,0,0,0,90.05,0,0,0,0,0,0,0,0,0,0,0,0,0,0,0,101.3,FLYING
102.02,APPROACH,FLY_TO_FIX,61.35,83,21.65,78.97,1.09,12.51,11.53,270.33,-0.041,0.4413,20,270.35,5,0,0,0,0,0,0,0,0,90.05,0,0,0,0,0,0,0,0,0,0,0,0,0,0,0,102.06,FLYING
102.62,APPROACH,FLY_TO_FIX,61.4,83,21.6,79.92,1.94,12.93,11.19,270.34,-0.045,0.4706,20,270.35,5,0,0,0,0,0,0,0,0,90.05,0,0,0,0,0,0,0,0,0,0,0,0,0,0,0,102.66,FLYING
103.42,APPROACH,FLY_TO_FIX,61.46,83,21.54,81.88,2.82,13.4,10.86,270.34,-0.046,0.4936,20,270.35,5,0,0,0,0,0,0,0,0,90.05,0,0,0,0,0,0,0,0,0,0,0,0,0,0,0,103.46,FLYING
104.02,APPROACH,FLY_TO_FIX,61.5,83,21.5,83.75,3.35,13.65,10.64,270.35,-0.045,0.5134,20,270.35,5,0,0,0,0,0,0,0,0,90.05,0,0,0,0,0,0,0,0,0,0,0,0,0,0,0,104.06,FLYING
104.78,APPROACH,FLY_TO_FIX,61.58,83,21.42,86.53,3.88,13.9,10.42,270.35,-0.044,0.5264,20,270.35,5,0,0,0,0,0,0,0,0,90.05,0,0,0,0,0,0,0,0,0,0,0,0,0,0,0,104.82,FLYING
105.42,APPROACH,FLY_TO_FIX,61.66,83,21.34,89.14,4.24,14.05,10.25,270.36,-0.039,0.5361,20,270.35,5,0,0,0,0,0,0,0,0,90.05,0,0,0,0,0,0,0,0,0,0,0,0,0,0,0,105.46,FLYING
106.2,APPROACH,FLY_TO_FIX,61.79,83,21.21,92.59,4.58,14.17,10.08,270.36,-0.032,0.5393,20,270.35,5,0,0,0,0,0,0,0,0,90.05,0,0,0,0,0,0,0,0,0,0,0,0,0,1,1,106.24,FLYING
106.82,APPROACH,FLY_TO_FIX,61.91,83,21.09,95.5,4.79,14.26,10,270.36,-0.026,0.5417,20,270.35,5,0,0,0,0,0,0,0,0,90.05,0,0,0,0,0,0,0,0,0,0,0,0,0,1,1,106.86,FLYING
107.64,APPROACH,FLY_TO_FIX,62.09,83,20.91,99.53,5.01,14.37,9.91,270.36,-0.017,0.5383,20,270.35,5,0,0,0,0,0,0,0,0,90.05,0,0,0,0,0,0,0,0,0,0,0,0,0,1,1,107.68,FLYING
108.26,APPROACH,FLY_TO_FIX,62.24,83,20.76,102.68,5.13,14.38,9.83,270.36,-0.012,0.539,20,270.35,5,0,0,0,0,0,0,0,0,90.05,0,0,0,0,0,0,0,0,0,0,0,0,0,1,1,108.3,FLYING
109.04,APPROACH,FLY_TO_FIX,62.43,83,20.57,106.73,5.24,14.4,9.77,270.36,-0.009,0.5347,20,270.35,5,0,0,0,0,0,0,0,0,90.05,0,0,0,0,0,0,0,0,0,0,0,0,0,1,1,109.08,FLYING
109.7,APPROACH,FLY_TO_FIX,62.6,83,20.4,110.22,5.32,14.42,9.73,270.36,-0.008,0.5341,20,270.35,5,0,0,0,0,0,0,0,0,90.05,0,0,0,0,0,0,0,0,0,0,0,0,0,1,1,109.74,FLYING
110.48,APPROACH,FLY_TO_FIX,62.82,83,20.18,114.4,5.4,14.39,9.65,270.36,-0.007,0.5286,20,270.35,5,0,0,0,0,0,0,0,0,90.05,0,0,0,0,0,0,0,0,0,0,0,0,0,1,1,110.52,FLYING
111.1,APPROACH,FLY_TO_FIX,63.01,83,19.99,117.76,5.46,14.35,9.58,270.36,-0.005,0.5266,20,270.35,5,0,0,0,0,0,0,0,0,90.05,0,0,0,0,0,0,0,0,0,0,0,0,0,1,1,111.14,FLYING
111.9,APPROACH,FLY_TO_FIX,63.29,83,19.71,122.15,5.53,14.3,9.49,270.36,-0.003,0.517,20,270.35,5,0,0,0,0,0,0,0,0,90.05,0,0,0,0,0,0,0,0,0,0,0,0,0,1,1,111.94,FLYING
112.5,APPROACH,FLY_TO_FIX,63.51,83,19.49,125.48,5.57,14.25,9.42,270.36,-0.003,0.5146,20,270.35,5,0,0,0,0,0,0,0,0,90.05,0,0,0,0,0,0,0,0,0,0,0,0,0,1,1,112.54,FLYING
113.26,APPROACH,FLY_TO_FIX,63.8,83,19.2,129.73,5.63,14.19,9.33,270.36,-0.001,0.5052,20,270.35,5,0,0,0,0,0,0,0,0,90.05,0,0,0,0,0,0,0,0,0,0,0,0,0,1,1,113.3,FLYING
113.9,APPROACH,FLY_TO_FIX,64.06,83,18.94,133.35,5.68,14.14,9.25,270.36,0,0.5012,20,270.35,5,0,0,0,0,0,0,0,0,90.05,0,0,0,0,0,0,0,0,0,0,0,0,0,1,1,113.94,FLYING
114.66,APPROACH,FLY_TO_FIX,64.38,83,18.62,137.68,5.73,14.07,9.16,270.36,0.001,0.492,20,270.35,5,0,0,0,0,0,0,0,0,90.05,0,0,0,0,0,0,0,0,0,0,0,0,0,1,1,114.7,FLYING
115.26,APPROACH,FLY_TO_FIX,64.64,83,18.36,141.15,5.77,14.01,9.09,270.36,0.002,0.4907,20,270.35,5,0,0,0,0,0,0,0,0,90.05,0,0,0,0,0,0,0,0,0,0,0,0,0,1,1,115.31,FLYING
116.46,APPROACH,FLY_TO_FIX,65.13,83,17.87,148.07,5.86,13.91,8.96,270.36,0.002,0.4672,20,270.35,5,0,0,0,0,0,0,0,0,90.05,0,0,0,0,0,0,0,0,0,0,0,0,0,1,1,116.53,FLYING
117.75,APPROACH,FLY_TO_FIX,65.69,83,17.31,155.71,5.94,13.8,8.82,270.36,0.003,0.4412,20,270.35,5,0,0,0,0,0,0,0,0,90.05,0,0,0,0,0,0,0,0,0,0,0,0,0,1,1,117.82,FLYING
119.12,APPROACH,FLY_TO_FIX,66.19,83,16.81,163.87,6.02,13.71,8.7,270.36,0.001,0.4248,20,270.35,5,0,0,0,0,0,0,0,0,90.05,0,0,0,0,0,0,0,0,0,0,0,0,0,1,1,119.19,FLYING
120.41,APPROACH,FLY_TO_FIX,66.57,83,16.43,171.71,6.08,13.65,8.62,270.36,0.002,0.425,20,270.35,5,0,0,0,0,0,0,0,0,90.05,0,0,0,0,0,0,0,0,0,0,0,0,0,1,1,120.48,FLYING
121.78,APPROACH,FLY_TO_FIX,66.87,83,16.13,180.03,6.13,13.59,8.56,270.36,0.002,0.4326,20,270.35,5,0,0,0,0,0,0,0,0,90.05,0,0,0,0,0,0,0,0,0,0,0,0,0,1,1,121.85,FLYING
123.07,APPROACH,FLY_TO_FIX,67.12,83,15.88,187.99,6.17,13.54,8.5,270.36,0.003,0.4439,20,270.35,5,0,0,0,0,0,0,0,0,90.05,0,0,0,0,0,0,0,0,0,0,0,0,0,1,1,123.14,FLYING
124.44,APPROACH,FLY_TO_FIX,67.39,83,15.61,196.43,6.21,13.49,8.43,270.36,0.002,0.4513,20,270.35,5,0,0,0,0,0,0,0,0,90.05,0,0,0,0,0,0,0,0,0,0,0,0,0,1,1,124.51,FLYING
125.73,APPROACH,FLY_TO_FIX,67.66,83,15.34,204.49,6.25,13.44,8.37,270.36,0.003,0.4573,20,270.35,5,0,0,0,0,0,0,0,0,90.05,0,0,0,0,0,0,0,0,0,0,0,0,0,1,1,125.8,FLYING
127.1,APPROACH,FLY_TO_FIX,67.96,83,15.04,213.04,6.29,13.38,8.3,270.36,0.004,0.4585,20,270.35,5,0,0,0,0,0,0,0,0,90.05,0,0,0,0,0,0,0,0,0,0,0,0,0,1,1,127.17,FLYING
128.39,APPROACH,FLY_TO_FIX,68.27,83,14.73,221.21,6.33,13.31,8.22,270.36,0.003,0.4588,20,270.35,5,0,0,0,0,0,0,0,0,90.05,0,0,0,0,0,0,0,0,0,0,0,0,0,1,1,128.46,FLYING
129.76,APPROACH,FLY_TO_FIX,68.62,83,14.38,229.88,6.38,13.24,8.15,270.36,0.004,0.4553,20,270.35,5,0,0,0,0,0,0,0,0,90.05,0,0,0,0,0,0,0,0,0,0,0,0,0,1,1,129.83,FLYING
131.05,APPROACH,FLY_TO_FIX,68.97,83,14.03,238.17,6.42,13.17,8.07,270.36,0.004,0.4525,20,270.35,5,0,0,0,0,0,0,0,0,90.05,0,0,0,0,0,0,0,0,0,0,0,0,0,1,1,131.12,FLYING
132.42,APPROACH,FLY_TO_FIX,69.35,83,13.65,246.96,6.47,13.1,7.99,270.36,0.006,0.4472,20,270.35,5,0,0,0,0,0,0,0,0,90.05,0,0,0,0,0,0,0,0,0,0,0,0,0,1,1,132.49,FLYING
133.71,APPROACH,FLY_TO_FIX,69.71,83,13.29,255.35,6.51,13.02,7.91,270.36,0.002,0.4442,20,270.35,5,0,0,0,0,0,0,0,0,90.05,0,0,0,0,0,0,0,0,0,0,0,0,0,1,1,133.78,FLYING
135.08,APPROACH,FLY_TO_FIX,70.1,83,12.9,264.26,6.55,12.95,7.83,270.36,0.004,0.4399,20,270.35,5,0,0,0,0,0,0,0,0,90.05,0,0,0,0,0,0,0,0,0,0,0,0,0,1,1,135.15,FLYING
136.37,APPROACH,FLY_TO_FIX,70.45,83,12.55,272.77,6.59,12.88,7.76,270.36,0.007,0.4395,20,270.35,5,0,0,0,0,0,0,0,0,90.05,0,0,0,0,0,0,0,0,0,0,0,0,0,1,1,136.44,FLYING
137.74,APPROACH,FLY_TO_FIX,70.81,83,12.19,281.79,6.63,12.81,7.69,270.36,0.006,0.4387,20,270.35,5,0,0,0,0,0,0,0,0,90.05,0,0,0,0,0,0,0,0,0,0,0,0,0,1,1,137.81,FLYING
139.03,APPROACH,FLY_TO_FIX,71.15,83,11.85,290.39,6.66,12.74,7.62,270.36,0.007,0.4405,20,270.35,5,0,0,0,0,0,0,0,0,90.05,0,0,0,0,0,0,0,0,0,0,0,0,0,1,1,139.1,FLYING
140.4,APPROACH,FLY_TO_FIX,71.5,83,11.5,299.51,6.7,12.68,7.56,270.36,0.007,0.4404,20,270.35,5,0,0,0,0,0,0,0,0,90.05,0,0,0,0,0,0,0,0,0,0,0,0,0,1,1,140.47,FLYING
141.69,APPROACH,FLY_TO_FIX,71.83,83,11.17,308.2,6.73,12.61,7.49,270.36,0.008,0.4418,20,270.35,5,0,0,0,0,0,0,0,0,90.05,0,0,0,0,0,0,0,0,0,0,0,0,0,1,1,141.76,FLYING
143.06,APPROACH,FLY_TO_FIX,72.19,83,10.81,317.42,6.77,12.54,7.42,270.36,0.007,0.4408,20,270.35,5,0,0,0,0,0,0,0,0,90.05,0,0,0,0,0,0,0,0,0,0,0,0,0,1,1,143.13,FLYING
144.35,APPROACH,FLY_TO_FIX,72.53,83,10.47,326.2,6.81,12.48,7.36,270.36,0.008,0.4413,20,270.35,5,0,0,0,0,0,0,0,0,90.05,0,0,0,0,0,0,0,0,0,0,0,0,0,1,1,144.42,FLYING
145.72,APPROACH,FLY_TO_FIX,72.9,83,10.1,335.52,6.84,12.41,7.29,270.36,0.008,0.4396,20,270.35,5,0,0,0,0,0,0,0,0,90.05,0,0,0,0,0,0,0,0,0,0,0,0,0,1,1,145.79,FLYING
147.01,APPROACH,FLY_TO_FIX,73.24,83,9.76,344.4,6.88,12.35,7.23,270.36,0.008,0.4399,20,270.35,5,0,0,0,0,0,0,0,0,90.05,0,0,0,0,0,0,0,0,0,0,0,0,0,1,1,147.08,FLYING
148.38,APPROACH,FLY_TO_FIX,73.61,83,9.39,353.81,6.92,12.29,7.17,270.36,0.009,0.4382,20,270.35,5,0,0,0,0,0,0,0,0,90.05,0,0,0,0,0,0,0,0,0,0,0,0,0,1,1,148.45,FLYING
149.67,APPROACH,FLY_TO_FIX,73.96,83,9.04,362.79,6.95,12.22,7.1,270.36,0.009,0.4388,20,270.35,5,0,0,0,0,0,0,0,0,90.05,0,0,0,0,0,0,0,0,0,0,0,0,0,1,1,149.74,FLYING
151.04,APPROACH,FLY_TO_FIX,74.32,83,8.68,372.31,6.99,12.16,7.04,270.36,0.008,0.4376,20,270.35,5,0,0,0,0,0,0,0,0,90.05,0,0,0,0,0,0,0,0,0,0,0,0,0,1,1,151.11,FLYING
152.33,APPROACH,FLY_TO_FIX,74.67,83,8.33,381.38,7.03,12.1,6.98,270.36,0.009,0.4385,20,270.35,5,0,0,0,0,0,0,0,0,90.05,0,0,0,0,0,0,0,0,0,0,0,0,0,1,1,152.4,FLYING
153.7,APPROACH,FLY_TO_FIX,75.03,83,7.97,390.99,7.06,12.04,6.92,270.36,0.009,0.4374,20,270.35,5,0,0,0,0,0,0,0,0,90.05,0,0,0,0,0,0,0,0,0,0,0,0,0,1,1,153.77,FLYING
154.99,APPROACH,FLY_TO_FIX,75.38,83,7.62,400.16,7.1,11.98,6.86,270.36,0.011,0.4384,20,270.35,5,0,0,0,0,0,0,0,0,90.05,0,0,0,0,0,0,0,0,0,0,0,0,0,1,1,155.06,FLYING
156.39,APPROACH,FLY_TO_FIX,75.75,83,7.25,410.12,7.14,11.92,6.81,270.36,0.011,0.4242,20,270.35,5,0,0,0,0,0,0,0,0,90.05,0,0,0,0,0,0,0,0,0,0,0,0,0,1,1,156.46,FLYING
157.65,APPROACH,FLY_TO_FIX,76.07,83,6.93,419.13,7.17,11.87,6.75,270.36,0.012,0.4116,20,270.35,5,0,0,0,0,0,0,0,0,90.05,0,0,0,0,0,0,0,0,0,0,0,0,0,1,1,157.72,FLYING
158.98,APPROACH,FLY_TO_FIX,76.36,83,6.64,428.68,7.2,11.82,6.71,270.37,0.011,0.4033,20,270.35,5,0,0,0,0,0,0,0,0,90.05,0,0,0,0,0,0,0,0,0,0,0,0,0,1,1,159.05,FLYING
160.24,APPROACH,FLY_TO_FIX,76.57,83,6.43,437.75,7.21,11.79,6.68,270.37,0.014,0.4049,20,270.35,5,0,0,0,0,0,0,0,0,90.05,0,0,0,0,0,0,0,0,0,0,0,0,0,1,1,160.31,FLYING
161.57,APPROACH,FLY_TO_FIX,76.75,83,6.25,447.35,7.23,11.76,6.65,270.37,0.015,0.4094,20,270.35,5,0,0,0,0,0,0,0,0,90.05,0,0,0,0,0,0,0,0,0,0,0,0,0,1,1,161.64,FLYING
162.83,APPROACH,FLY_TO_FIX,76.9,83,6.1,456.47,7.24,11.73,6.63,270.37,0.015,0.4151,20,270.35,5,0,0,0,0,0,0,0,0,90.05,0,0,0,0,0,0,0,0,0,0,0,0,0,1,1,162.9,FLYING
164.23,APPROACH,FLY_TO_FIX,77.08,83,5.92,466.62,7.26,11.7,6.6,270.37,0.016,0.4152,20,270.35,5,0,0,0,0,0,0,0,0,90.05,0,0,0,0,0,0,0,0,0,0,0,0,0,1,1,164.3,FLYING
165.6,APPROACH,FLY_TO_FIX,77.25,83,5.75,476.53,7.28,11.68,6.58,270.37,0.019,0.4134,20,270.35,5,0,0,0,0,0,0,0,0,90.05,0,0,0,0,0,0,0,0,0,0,0,0,0,1,1,165.67,FLYING
166.93,APPROACH,FLY_TO_FIX,77.42,83,5.58,486.22,7.3,11.65,6.55,270.37,0.021,0.4102,20,270.35,5,0,0,0,0,0,0,0,0,90.05,0,0,0,0,0,0,0,0,0,0,0,0,0,1,1,167,FLYING
168.19,APPROACH,FLY_TO_FIX,77.59,83,5.41,495.42,7.31,11.62,6.53,270.37,0.02,0.4073,20,270.35,5,0,0,0,0,0,0,0,0,90.05,0,0,0,0,0,0,0,0,0,0,0,0,0,1,1,168.26,FLYING
169.52,APPROACH,FLY_TO_FIX,77.76,83,5.24,505.16,7.33,11.59,6.5,270.37,0.021,0.4029,20,270.35,4.979,0,0,0,0,0,0,0,0,90.05,0,0,0,0,0,0,0,0,0,0,0,0,0,1,1,169.59,FLYING
170.78,APPROACH,FLY_TO_FIX,77.9,83,5.1,514.4,7.34,11.56,6.47,270.37,0.022,0.401,20,270.35,4.933,0,0,0,0,0,0,0,0,90.05,0,0,0,0,0,0,0,0,0,0,0,0,0,1,1,170.85,FLYING
172.11,APPROACH,FLY_TO_FIX,78.04,83,4.96,524.15,7.33,11.52,6.44,270.37,0.027,0.3992,20,270.35,4.884,0,0,0,0,0,0,0,0,90.05,0,0,0,0,0,0,0,0,0,0,0,0,0,1,1,172.18,FLYING
173.37,APPROACH,FLY_TO_FIX,78.16,83,4.84,533.37,7.31,11.47,6.42,270.37,0.027,0.399,20,270.35,4.838,0,0,0,0,0,0,0,0,90.05,0,0,0,0,0,0,0,0,0,0,0,0,0,1,1,173.44,FLYING
174.7,APPROACH,FLY_TO_FIX,78.28,83,4.72,543.07,7.28,11.42,6.4,270.37,0.029,0.3975,20,270.35,4.79,0,0,0,0,0,0,0,0,90.05,0,0,0,0,0,0,0,0,0,0,0,0,0,1,1,174.77,FLYING
175.96,APPROACH,FLY_TO_FIX,78.39,83,4.61,552.22,7.25,11.36,6.38,270.37,0.029,0.3962,20,270.35,4.744,0,0,0,0,0,0,0,0,90.05,0,0,0,0,0,0,0,0,0,0,0,0,0,1,1,176.03,FLYING
177.29,APPROACH,FLY_TO_FIX,78.51,83,4.49,561.82,7.2,11.3,6.36,270.36,0.03,0.3932,20,270.35,4.696,0,0,0,0,0,0,0,0,90.05,0,0,0,0,0,0,0,0,0,0,0,0,0,1,1,177.36,FLYING
178.51,APPROACH,FLY_TO_FIX,78.62,83,4.38,570.6,7.15,11.24,6.34,270.36,0.031,0.3914,20,270.35,4.652,0,0,0,0,0,0,0,0,90.05,0,0,0,0,0,0,0,0,0,0,0,0,0,1,1,178.58,FLYING
179.84,APPROACH,FLY_TO_FIX,78.73,83,4.27,580.07,7.1,11.18,6.33,270.36,0.029,0.3882,20,270.35,4.605,0,0,0,0,0,0,0,0,90.05,0,0,0,0,0,0,0,0,0,0,0,0,0,1,1,179.91,FLYING
181.1,APPROACH,FLY_TO_FIX,78.83,83,4.17,588.98,7.05,11.12,6.31,270.36,0.025,0.3863,20,270.35,4.56,0,0,0,0,0,0,0,0,90.05,0,0,0,0,0,0,0,0,0,0,0,0,0,1,1,181.17,FLYING
182.43,APPROACH,FLY_TO_FIX,78.93,83,4.07,598.31,6.99,11.06,6.3,270.36,0.025,0.3841,20,270.35,4.513,0,0,0,0,0,0,0,0,90.05,0,0,0,0,0,0,0,0,0,0,0,0,0,1,1,182.5,FLYING
183.69,APPROACH,FLY_TO_FIX,79.01,83,3.99,607.08,6.94,11.01,6.29,270.36,0.022,0.383,20,270.35,4.469,0,0,0,0,0,0,0,0,90.05,0,0,0,0,0,0,0,0,0,0,0,0,0,1,1,183.76,FLYING
185.02,APPROACH,FLY_TO_FIX,79.1,83,3.9,616.26,6.88,10.95,6.28,270.36,0.021,0.3812,20,270.35,4.423,0,0,0,0,0,0,0,0,90.05,0,0,0,0,0,0,0,0,0,0,0,0,0,1,1,185.09,FLYING
186.28,APPROACH,FLY_TO_FIX,79.18,83,3.82,624.89,6.83,10.9,6.27,270.36,0.018,0.38,20,270.35,4.38,0,0,0,0,0,0,0,0,90.05,0,0,0,0,0,0,0,0,0,0,0,0,0,1,1,186.35,FLYING
187.61,APPROACH,FLY_TO_FIX,79.26,83,3.74,633.93,6.77,10.84,6.26,270.36,0.016,0.3779,20,270.35,4.335,0,0,0,0,0,0,0,0,90.05,0,0,0,0,0,0,0,0,0,0,0,0,0,1,1,187.68,FLYING
188.87,APPROACH,FLY_TO_FIX,79.34,83,3.66,642.42,6.72,10.79,6.25,270.36,0.013,0.3763,20,270.35,4.293,0,0,0,0,0,0,0,0,90.05,0,0,0,0,0,0,0,0,0,0,0,0,0,1,1,188.94,FLYING
190.2,APPROACH,FLY_TO_FIX,79.42,83,3.58,651.31,6.66,10.73,6.24,270.36,0.015,0.3742,20,270.35,4.248,0,0,0,0,0,0,0,0,90.05,0,0,0,0,0,0,0,0,0,0,0,0,0,1,1,190.27,FLYING
191.43,APPROACH,FLY_TO_FIX,79.48,83,3.52,659.42,6.61,10.68,6.23,270.36,0.015,0.373,20,270.35,4.208,0,0,0,0,0,0,0,0,90.05,0,0,0,0,0,0,0,0,0,0,0,0,0,1,1,191.5,FLYING
192.76,APPROACH,FLY_TO_FIX,79.55,83,3.45,668.16,6.55,10.62,6.22,270.36,0.016,0.371,20,270.35,4.164,0,0,0,0,0,0,0,0,90.05,0,0,0,0,0,0,0,0,0,0,0,0,0,1,1,192.83,FLYING
193.98,APPROACH,FLY_TO_FIX,79.62,83,3.38,676.14,6.49,10.57,6.21,270.36,0.018,0.3699,20,270.35,4.124,0,0,0,0,0,0,0,0,90.05,0,0,0,0,0,0,0,0,0,0,0,0,0,1,1,194.05,FLYING
195.31,APPROACH,FLY_TO_FIX,79.68,83,3.32,684.73,6.44,10.52,6.2,270.36,0.017,0.368,20,270.35,4.081,0,0,0,0,0,0,0,0,90.05,0,0,0,0,0,0,0,0,0,0,0,0,0,1,1,195.38,FLYING
196.54,APPROACH,FLY_TO_FIX,79.74,83,3.26,692.58,6.38,10.47,6.19,270.36,0.018,0.3669,20,270.35,4.042,0,0,0,0,0,0,0,0,90.05,0,0,0,0,0,0,0,0,0,0,0,0,0,1,1,196.61,FLYING
197.87,APPROACH,FLY_TO_FIX,79.8,83,3.2,701.02,6.33,10.42,6.19,270.36,0.016,0.365,20,270.35,3.999,0,0,0,0,0,0,0,0,90.05,0,0,0,0,0,0,0,0,0,0,0,0,0,1,1,197.94,FLYING
199.09,APPROACH,FLY_TO_FIX,79.85,83,3.15,708.74,6.28,10.37,6.18,270.36,0.016,0.3639,20,270.35,3.961,0,0,0,0,0,0,0,0,90.05,0,0,0,0,0,0,0,0,0,0,0,0,0,1,1,199.16,FLYING
200.42,APPROACH,FLY_TO_FIX,79.91,83,3.09,717.04,6.22,10.33,6.17,270.36,0.018,0.3621,20,270.35,3.919,0,0,0,0,0,0,0,0,90.05,0,0,0,0,0,0,0,0,0,0,0,0,0,1,1,200.49,FLYING
201.65,APPROACH,FLY_TO_FIX,79.96,83,3.04,724.62,6.17,10.28,6.17,270.36,0.017,0.361,20,270.35,3.881,0,0,0,0,0,0,0,0,90.05,0,0,0,0,0,0,0,0,0,0,0,0,0,1,1,201.72,FLYING
202.98,APPROACH,FLY_TO_FIX,80.01,83,2.99,732.77,6.11,10.23,6.16,270.36,0.017,0.3593,20,270.35,3.84,0,0,0,0,0,0,0,0,90.05,0,0,0,0,0,0,0,0,0,0,0,0,0,1,1,203.05,FLYING
204.24,APPROACH,FLY_TO_FIX,80.06,83,2.94,740.43,6.06,10.19,6.15,270.36,0.016,0.358,20,270.35,3.802,0,0,0,0,0,0,0,0,90.05,0,0,0,0,0,0,0,0,0,0,0,0,0,1,1,204.31,FLYING
205.57,APPROACH,FLY_TO_FIX,80.11,83,2.89,748.45,6,10.14,6.15,270.36,0.018,0.3565,20,270.35,3.762,0,0,0,0,0,0,0,0,90.05,0,0,0,0,0,0,0,0,0,0,0,0,0,1,1,205.64,FLYING
206.83,APPROACH,FLY_TO_FIX,80.16,83,2.84,755.97,5.95,10.1,6.14,270.35,0.018,0.3554,20,270.35,3.724,0,0,0,0,0,0,0,0,90.05,0,0,0,0,0,0,0,0,0,0,0,0,0,1,1,206.9,FLYING
208.16,APPROACH,FLY_TO_FIX,80.2,83,2.8,763.84,5.9,10.05,6.14,270.35,0.018,0.3539,20,270.35,3.685,0,0,0,0,0,0,0,0,90.05,0,0,0,0,0,0,0,0,0,0,0,0,0,1,1,208.23,FLYING
209.42,APPROACH,FLY_TO_FIX,80.24,83,2.76,771.23,5.84,10,6.13,270.35,0.018,0.3529,20,270.35,3.648,0,0,0,0,0,0,0,0,90.05,0,0,0,0,0,0,0,0,0,0,0,0,0,1,1,209.49,FLYING
210.75,APPROACH,FLY_TO_FIX,80.29,83,2.71,778.96,5.79,9.96,6.13,270.35,0.017,0.3514,20,270.35,3.609,0,0,0,0,0,0,0,0,90.05,0,0,0,0,0,0,0,0,0,0,0,0,0,1,1,210.82,FLYING
211.97,APPROACH,FLY_TO_FIX,80.33,83,2.67,786.02,5.74,9.92,6.12,270.35,0.018,0.3505,20,270.35,3.574,0,0,0,0,0,0,0,0,90.05,0,0,0,0,0,0,0,0,0,0,0,0,0,1,1,212.04,FLYING
213.3,APPROACH,FLY_TO_FIX,80.37,83,2.63,793.61,5.69,9.87,6.12,270.35,0.018,0.349,20,270.34,3.536,0,0,0,0,0,0,0,0,90.05,0,0,0,0,0,0,0,0,0,0,0,0,0,1,1,213.37,FLYING
214.53,APPROACH,FLY_TO_FIX,80.4,83,2.6,800.54,5.64,9.83,6.11,270.35,0.016,0.3479,20,270.34,3.501,0,0,0,0,0,0,0,0,90.05,0,0,0,0,0,0,0,0,0,0,0,0,0,1,1,214.6,FLYING
215.86,APPROACH,FLY_TO_FIX,80.44,83,2.56,808,5.59,9.79,6.11,270.35,0.018,0.3464,20,270.34,3.464,0,0,0,0,0,0,0,0,90.05,0,0,0,0,0,0,0,0,0,0,0,0,0,1,1,215.93,FLYING
217.08,APPROACH,FLY_TO_FIX,80.48,83,2.52,814.8,5.54,9.75,6.1,270.35,0.018,0.3455,20,270.34,3.43,0,0,0,0,0,0,0,0,90.05,0,0,0,0,0,0,0,0,0,0,0,0,0,1,1,217.15,FLYING
218.41,APPROACH,FLY_TO_FIX,80.51,83,2.49,822.12,5.49,9.71,6.1,270.35,0.018,0.3441,20,270.34,3.393,0,0,0,0,0,0,0,0,90.05,0,0,0,0,0,0,0,0,0,0,0,0,0,1,1,218.48,FLYING
219.64,APPROACH,FLY_TO_FIX,80.55,83,2.45,828.81,5.44,9.67,6.09,270.35,0.019,0.3432,20,270.34,3.36,0,0,0,0,0,0,0,0,90.05,0,0,0,0,0,0,0,0,0,0,0,0,0,1,1,219.71,FLYING
220.97,APPROACH,FLY_TO_FIX,80.58,83,2.42,835.99,5.38,9.63,6.09,270.35,0.016,0.3418,20,270.34,3.324,0,0,0,0,0,0,0,0,90.05,0,0,0,0,0,0,0,0,0,0,0,0,0,1,1,221.04,FLYING
222.19,APPROACH,FLY_TO_FIX,80.61,83,2.39,842.56,5.34,9.59,6.08,270.35,0.016,0.341,20,270.34,3.291,0,0,0,0,0,0,0,0,90.05,0,0,0,0,0,0,0,0,0,0,0,0,0,1,1,222.26,FLYING
223.52,APPROACH,FLY_TO_FIX,80.65,83,2.35,849.61,5.29,9.55,6.08,270.35,0.017,0.3397,20,270.34,3.256,0,0,0,0,0,0,0,0,90.05,0,0,0,0,0,0,0,0,0,0,0,0,0,1,1,223.59,FLYING
224.75,APPROACH,FLY_TO_FIX,80.68,83,2.32,856.05,5.24,9.51,6.08,270.35,0.017,0.3387,20,270.34,3.223,0,0,0,0,0,0,0,0,90.05,0,0,0,0,0,0,0,0,0,0,0,0,0,1,1,224.82,FLYING
226.08,APPROACH,FLY_TO_FIX,80.71,83,2.29,862.98,5.19,9.47,6.07,270.35,0.015,0.3374,20,270.34,3.189,0,0,0,0,0,0,0,0,90.05,0,0,0,0,0,0,0,0,0,0,0,0,0,1,1,226.15,FLYING
227.3,APPROACH,FLY_TO_FIX,80.74,83,2.26,869.3,5.14,9.44,6.07,270.35,0.017,0.3365,20,270.34,3.157,0,0,0,0,0,0,0,0,90.05,0,0,0,0,0,0,0,0,0,0,0,0,0,1,1,227.37,FLYING
228.63,APPROACH,FLY_TO_FIX,80.77,83,2.23,876.11,5.09,9.4,6.07,270.35,0.019,0.3353,20,270.34,3.123,0,0,0,0,0,0,0,0,90.05,0,0,0,0,0,0,0,0,0,0,0,0,0,1,1,228.7,FLYING
229.86,APPROACH,FLY_TO_FIX,80.8,83,2.2,882.31,5.05,9.36,6.06,270.35,0.019,0.3344,20,270.34,3.092,0,0,0,0,0,0,0,0,90.05,0,0,0,0,0,0,0,0,0,0,0,0,0,1,1,229.93,FLYING
231.19,APPROACH,FLY_TO_FIX,80.82,83,2.18,888.99,5,9.33,6.06,270.35,0.019,0.3332,20,270.34,3.059,0,0,0,0,0,0,0,0,90.05,0,0,0,0,0,0,0,0,0,0,0,0,0,1,1,231.26,FLYING
232.45,APPROACH,FLY_TO_FIX,80.85,83,2.15,895.25,4.95,9.29,6.06,270.35,0.02,0.3323,20,270.34,3.027,0,0,0,0,0,0,0,0,90.05,0,0,0,0,0,0,0,0,0,0,0,0,0,1,1,232.52,FLYING
233.78,APPROACH,FLY_TO_FIX,80.88,83,2.12,901.8,4.91,9.25,6.05,270.35,0.02,0.3311,20,270.34,2.994,0,0,0,0,0,0,0,0,90.05,0,0,0,0,0,0,0,0,0,0,0,0,0,1,1,233.85,FLYING
235,APPROACH,FLY_TO_FIX,80.91,83,2.09,907.78,4.86,9.22,6.05,270.35,0.018,0.3303,20,270.34,2.965,0,0,0,0,0,0,0,0,90.05,0,0,0,0,0,0,0,0,0,0,0,0,0,1,1,235.07,FLYING
236.33,APPROACH,FLY_TO_FIX,80.93,83,2.07,914.21,4.81,9.18,6.05,270.35,0.017,0.3292,20,270.34,2.932,0,0,0,0,0,0,0,0,90.05,0,0,0,0,0,0,0,0,0,0,0,0,0,1,1,236.4,FLYING
237.56,APPROACH,FLY_TO_FIX,80.96,83,2.04,920.07,4.77,9.15,6.04,270.35,0.021,0.3284,20,270.34,2.903,0,0,0,0,0,0,0,0,90.05,0,0,0,0,0,0,0,0,0,0,0,0,0,1,1,237.63,FLYING
238.89,APPROACH,FLY_TO_FIX,80.98,83,2.02,926.38,4.72,9.11,6.04,270.35,0.02,0.3272,20,270.34,2.871,0,0,0,0,0,0,0,0,90.05,0,0,0,0,0,0,0,0,0,0,0,0,0,1,1,238.96,FLYING
240.15,APPROACH,FLY_TO_FIX,81.01,83,1.99,932.3,4.68,9.08,6.04,270.35,0.018,0.3263,20,270.34,2.842,0,0,0,0,0,0,0,0,90.05,0,0,0,0,0,0,0,0,0,0,0,0,0,1,1,240.22,FLYING
241.48,APPROACH,FLY_TO_FIX,81.03,83,1.97,938.49,4.64,9.05,6.03,270.35,0.02,0.3252,20,270.34,2.811,0,0,0,0,0,0,0,0,90.05,0,0,0,0,0,0,0,0,0,0,0,0,0,1,1,241.55,FLYING
242.74,APPROACH,FLY_TO_FIX,81.06,83,1.94,944.29,4.59,9.01,6.03,270.35,0.019,0.3243,20,270.34,2.782,0,0,0,0,0,0,0,0,90.05,0,0,0,0,0,0,0,0,0,0,0,0,0,1,1,242.81,FLYING
244.07,APPROACH,FLY_TO_FIX,81.08,83,1.92,950.37,4.55,8.98,6.03,270.35,0.018,0.3233,20,270.34,2.751,0,0,0,0,0,0,0,0,90.05,0,0,0,0,0,0,0,0,0,0,0,0,0,1,1,244.14,FLYING
245.33,APPROACH,FLY_TO_FIX,81.1,83,1.9,956.06,4.5,8.95,6.03,270.35,0.019,0.3225,20,270.34,2.723,0,0,0,0,0,0,0,0,90.05,0,0,0,0,0,0,0,0,0,0,0,0,0,1,1,245.4,FLYING
246.66,APPROACH,FLY_TO_FIX,81.13,83,1.87,962.01,4.46,8.91,6.02,270.35,0.02,0.3215,20,270.34,2.693,0,0,0,0,0,0,0,0,90.05,0,0,0,0,0,0,0,0,0,0,0,0,0,1,1,246.73,FLYING
247.92,APPROACH,FLY_TO_FIX,81.15,83,1.85,967.6,4.42,8.88,6.02,270.35,0.02,0.3207,20,270.34,2.665,0,0,0,0,0,0,0,0,90.05,0,0,0,0,0,0,0,0,0,0,0,0,0,1,1,247.99,FLYING
249.25,APPROACH,FLY_TO_FIX,81.17,83,1.83,973.44,4.37,8.85,6.02,270.35,0.019,0.3197,20,270.34,2.636,0,0,0,0,0,0,0,0,90.05,0,0,0,0,0,0,0,0,0,0,0,0,0,1,1,249.32,FLYING
250.51,APPROACH,FLY_TO_FIX,81.19,83,1.81,978.92,4.33,8.82,6.02,270.35,0.021,0.3188,20,270.34,2.608,0,0,0,0,0,0,0,0,90.05,0,0,0,0,0,0,0,0,0,0,0,0,0,1,1,250.58,FLYING
251.84,APPROACH,FLY_TO_FIX,81.21,83,1.79,984.65,4.29,8.79,6.01,270.35,0.02,0.3179,20,270.34,2.58,0,0,0,0,0,0,0,0,90.05,0,0,0,0,0,0,0,0,0,0,0,0,0,1,1,251.91,FLYING
253.06,APPROACH,FLY_TO_FIX,81.23,83,1.77,989.87,4.25,8.76,6.01,270.35,0.02,0.3172,20,270.34,2.554,0,0,0,0,0,0,0,0,90.05,0,0,0,0,0,0,0,0,0,0,0,0,0,1,1,253.13,FLYING
254.39,APPROACH,FLY_TO_FIX,81.25,83,1.75,995.49,4.21,8.73,6.01,270.35,0.018,0.3162,20,270.34,2.525,0,0,0,0,0,0,0,0,90.05,0,0,0,0,0,0,0,0,0,0,0,0,0,1,1,254.46,FLYING
255.62,APPROACH,FLY_TO_FIX,81.27,83,1.73,1000.62,4.17,8.7,6.01,270.35,0.02,0.3155,20,270.33,2.5,0,0,0,0,0,0,0,0,90.05,0,0,0,0,0,0,0,0,0,0,0,0,0,1,1,255.69,FLYING
256.95,APPROACH,FLY_TO_FIX,81.3,83,1.7,1006.13,4.13,8.66,6,270.35,0.021,0.3145,20,270.33,2.472,0,0,0,0,0,0,0,0,90.05,0,0,0,0,0,0,0,0,0,0,0,0,0,1,1,257.02,FLYING
258.17,APPROACH,FLY_TO_FIX,81.31,83,1.69,1011.16,4.09,8.64,6,270.35,0.022,0.3137,20,270.33,2.447,0,0,0,0,0,0,0,0,90.05,0,0,0,0,0,0,0,0,0,0,0,0,0,1,1,258.24,FLYING
259.5,APPROACH,FLY_TO_FIX,81.34,83,1.66,1016.56,4.05,8.61,6,270.35,0.019,0.3128,20,270.33,2.42,0,0,0,0,0,0,0,0,90.05,0,0,0,0,0,0,0,0,0,0,0,0,0,1,1,259.57,FLYING
260.76,APPROACH,FLY_TO_FIX,81.35,83,1.65,1021.63,4.01,8.58,6,270.34,0.02,0.312,20,270.33,2.395,0,0,0,0,0,0,0,0,90.05,0,0,0,0,0,0,0,0,0,0,0,0,0,1,1,260.83,FLYING
262.09,APPROACH,FLY_TO_FIX,81.37,83,1.63,1026.93,3.97,8.55,5.99,270.34,0.02,0.3111,20,270.33,2.368,0,0,0,0,0,0,0,0,90.05,0,0,0,0,0,0,0,0,0,0,0,0,0,1,1,262.16,FLYING
263.35,APPROACH,FLY_TO_FIX,81.39,83,1.61,1031.91,3.93,8.52,5.99,270.34,0.023,0.3104,20,270.33,2.343,0,0,0,0,0,0,0,0,90.05,0,0,0,0,0,0,0,0,0,0,0,0,0,1,1,263.42,FLYING
264.68,APPROACH,FLY_TO_FIX,81.41,83,1.59,1037.1,3.89,8.49,5.99,270.34,0.021,0.3095,20,270.33,2.317,0,0,0,0,0,0,0,0,90.05,0,0,0,0,0,0,0,0,0,0,0,0,0,1,1,264.75,FLYING
265.94,APPROACH,FLY_TO_FIX,81.43,83,1.57,1041.98,3.85,8.46,5.99,270.34,0.024,0.3088,20,270.33,2.293,0,0,0,0,0,0,0,0,90.05,0,0,0,0,0,0,0,0,0,0,0,0,0,1,1,266.01,FLYING
267.27,APPROACH,FLY_TO_FIX,81.45,83,1.55,1047.07,3.81,8.43,5.98,270.34,0.022,0.3079,20,270.33,2.267,0,0,0,0,0,0,0,0,90.05,0,0,0,0,0,0,0,0,0,0,0,0,0,1,1,267.34,FLYING
268.5,APPROACH,FLY_TO_FIX,81.47,83,1.53,1051.72,3.78,8.41,5.98,270.34,0.022,0.3073,20,270.33,2.244,0,0,0,0,0,0,0,0,90.05,0,0,0,0,0,0,0,0,0,0,0,0,0,1,1,268.57,FLYING
269.83,APPROACH,FLY_TO_FIX,81.48,83,1.52,1056.71,3.74,8.38,5.98,270.34,0.024,0.3064,20,270.33,2.219,0,0,0,0,0,0,0,0,90.05,0,0,0,0,0,0,0,0,0,0,0,0,0,1,1,269.9,FLYING
271.05,APPROACH,FLY_TO_FIX,81.5,83,1.5,1061.27,3.71,8.36,5.98,270.34,0.024,0.3057,20,270.32,2.196,0,0,0,0,0,0,0,0,90.05,0,0,0,0,0,0,0,0,0,0,0,0,0,1,1,271.12,FLYING
272.38,APPROACH,FLY_TO_FIX,81.52,83,1.48,1066.17,3.67,8.33,5.98,270.34,0.024,0.3049,20,270.32,2.172,0,0,0,0,0,0,0,0,90.05,0,0,0,0,0,0,0,0,0,0,0,0,0,1,1,272.45,FLYING
273.61,APPROACH,FLY_TO_FIX,81.54,83,1.46,1070.62,3.74,7.87,5.48,270.32,0.188,0.3042,20,270.02,-2.906,0,0,0,0,0,0,0,0,90.05,0,0,0,0,0,0,0,0,0,0,0,0,0,1,1,273.68,FLYING
274.9,APPROACH,FLY_TO_FIX,82.01,83,0.99,1072.79,0.16,4.85,4.74,270.11,1.329,0.2384,20,270.01,-2.919,0,0,0,0,0,0,0,0,90.05,0,0,0,0,0,0,0,0,0,0,0,0,0,1,1,274.97,FLYING
276.13,APPROACH,FLY_TO_FIX,82.73,83,0.27,1071.52,-1.9,3.96,5.16,270.05,0.818,0.1411,20,270.01,-2.914,0,0,0,0,0,0,0,0,90.05,0,0,0,0,0,0,0,0,0,0,0,0,0,1,1,276.2,FLYING
277.42,APPROACH,FLY_TO_FIX,83.35,83,-0.35,1068.12,-3.15,3.44,5.41,270.03,0.358,0.0672,19.832,270.01,-2.898,0,0,0,0,0,0,0,0,90.05,0,0,0,0,0,0,0,0,0,0,0,0,0,1,1,277.49,FLYING
278.65,APPROACH,FLY_TO_FIX,83.63,83,-0.63,1063.8,-3.8,3.2,5.57,270.02,0.14,0.0509,19.52,270.01,-2.877,0,0,0,0,0,0,0,0,90.05,0,0,0,0,0,0,0,0,0,0,0,0,0,1,1,278.72,FLYING
279.94,APPROACH,FLY_TO_FIX,83.58,83,-0.58,1058.66,-4.08,3.15,5.71,270.02,0.043,0.0832,19.225,270.01,-2.851,0,0,0,0,0,0,0,0,90.05,0,0,0,0,0,0,0,0,0,0,0,0,0,1,1,280.01,FLYING
281.17,APPROACH,FLY_TO_FIX,83.37,83,-0.37,1053.58,-4.19,3.15,5.78,270.01,0.026,0.1364,19.037,270.01,-2.826,0,0,0,0,0,0,0,0,90.05,0,0,0,0,0,0,0,0,0,0,0,0,0,1,1,281.24,FLYING
282.46,APPROACH,FLY_TO_FIX,83.13,83,-0.13,1048.13,-4.24,3.16,5.82,270.02,0.012,0.1863,18.97,270.01,-2.799,0,0,0,0,0,0,0,0,90.05,0,0,0,0,0,0,0,0,0,0,0,0,0,1,1,282.53,FLYING
283.69,APPROACH,FLY_TO_FIX,82.95,83,0.05,1042.93,-4.25,3.17,5.85,270.02,0.01,0.2202,18.991,270.01,-2.773,0,0,0,0,0,0,0,0,90.05,0,0,0,0,0,0,0,0,0,0,0,0,0,1,1,283.76,FLYING
284.98,APPROACH,FLY_TO_FIX,82.85,83,0.15,1037.42,-4.25,3.18,5.86,270.02,0.007,0.2385,19.064,270.01,-2.745,0,0,0,0,0,0,0,0,90.05,0,0,0,0,0,0,0,0,0,0,0,0,0,1,1,285.05,FLYING
286.21,APPROACH,FLY_TO_FIX,82.85,83,0.15,1032.21,-4.25,3.18,5.86,270.02,0.006,0.2399,19.14,270.01,-2.719,0,0,0,0,0,0,0,0,90.05,0,0,0,0,0,0,0,0,0,0,0,0,0,1,1,286.28,FLYING
287.5,APPROACH,FLY_TO_FIX,82.94,83,0.06,1026.71,-4.24,3.17,5.85,270.02,0.004,0.2267,19.172,270.01,-2.692,0,0,0,0,0,0,0,0,90.05,0,0,0,0,0,0,0,0,0,0,0,0,0,1,1,287.57,FLYING
288.73,APPROACH,FLY_TO_FIX,83.1,83,-0.1,1021.53,-4.23,3.16,5.83,270.02,0.008,0.204,19.126,270.01,-2.666,0,0,0,0,0,0,0,0,90.05,0,0,0,0,0,0,0,0,0,0,0,0,0,1,1,288.8,FLYING
290.02,APPROACH,FLY_TO_FIX,83.31,83,-0.31,1016.06,-4.22,3.15,5.8,270.03,0.006,0.1739,18.973,270.01,-2.638,0,0,0,0,0,0,0,0,90.05,0,0,0,0,0,0,0,0,0,0,0,0,0,1,1,290.09,FLYING
291.28,APPROACH,FLY_TO_FIX,83.55,83,-0.55,1010.75,-4.2,3.14,5.77,270.03,0.006,0.1435,18.703,270.01,-2.612,0,0,0,0,0,0,0,0,90.05,0,0,0,0,0,0,0,0,0,0,0,0,0,1,1,291.35,FLYING
292.68,APPROACH,FLY_TO_FIX,83.76,83,-0.76,1004.87,-4.19,3.13,5.75,270.03,0.007,0.1168,18.323,270.01,-2.582,0,0,0,0,0,0,0,0,90.05,0,0,0,0,0,0,0,0,0,0,0,0,0,1,1,292.75,FLYING
294.01,APPROACH,FLY_TO_FIX,83.86,83,-0.86,999.32,-4.17,3.14,5.74,270.03,0.01,0.1094,17.892,270.01,-2.555,0,0,0,0,0,0,0,0,90.05,0,0,0,0,0,0,0,0,0,0,0,0,0,1,1,294.08,FLYING
295.41,APPROACH,FLY_TO_FIX,83.84,83,-0.84,993.5,-4.14,3.16,5.75,270.03,0.011,0.1194,17.47,270.01,-2.525,0,0,0,0,0,0,0,0,90.05,0,0,0,0,0,0,0,0,0,0,0,0,0,1,1,295.48,FLYING
296.74,APPROACH,FLY_TO_FIX,83.76,83,-0.76,988.01,-4.12,3.18,5.76,270.03,0.018,0.1365,17.089,270.01,-2.498,0,0,0,0,0,0,0,0,90.05,0,0,0,0,0,0,0,0,0,0,0,0,0,1,1,296.81,FLYING
298.14,APPROACH,FLY_TO_FIX,83.67,83,-0.67,982.28,-4.08,3.21,5.77,270.03,0.021,0.1524,16.753,270.01,-2.469,0,0,0,0,0,0,0,0,90.05,0,0,0,0,0,0,0,0,0,0,0,0,0,1,1,298.21,FLYING
299.51,APPROACH,FLY_TO_FIX,83.59,83,-0.59,976.73,-4.05,3.24,5.78,270.03,0.022,0.1631,16.455,270.01,-2.442,0,0,0,0,0,0,0,0,90.05,0,0,0,0,0,0,0,0,0,0,0,0,0,1,1,299.58,FLYING
300.84,APPROACH,FLY_TO_FIX,83.55,83,-0.55,971.38,-4.01,3.27,5.79,270.03,0.023,0.1678,16.181,270.01,-2.415,0,0,0,0,0,0,0,0,90.05,0,0,0,0,0,0,0,0,0,0,0,0,0,1,1,300.91,FLYING
302.1,APPROACH,FLY_TO_FIX,83.53,83,-0.53,966.36,-3.97,3.29,5.79,270.03,0.022,0.1672,15.916,270.01,-2.39,0,0,0,0,0,0,0,0,90.05,0,0,0,0,0,0,0,0,0,0,0,0,0,1,1,302.17,FLYING
303.43,APPROACH,FLY_TO_FIX,83.54,83,-0.54,961.1,-3.93,3.32,5.79,270.03,0.025,0.1625,15.648,270.01,-2.363,0,0,0,0,0,0,0,0,90.05,0,0,0,0,0,0,0,0,0,0,0,0,0,1,1,303.5,FLYING
304.69,APPROACH,FLY_TO_FIX,83.56,83,-0.56,956.18,-3.89,3.34,5.79,270.03,0.022,0.1552,15.368,270.01,-2.339,0,0,0,0,0,0,0,0,90.05,0,0,0,0,0,0,0,0,0,0,0,0,0,1,1,304.76,FLYING
306.02,APPROACH,FLY_TO_FIX,83.6,83,-0.6,951.03,-3.85,3.36,5.78,270.03,0.023,0.1465,15.069,270.01,-2.313,0,0,0,0,0,0,0,0,90.05,0,0,0,0,0,0,0,0,0,0,0,0,0,1,1,306.09,FLYING
307.28,APPROACH,FLY_TO_FIX,83.63,83,-0.63,946.2,-3.81,3.38,5.78,270.03,0.023,0.1383,14.754,270.01,-2.289,0,0,0,0,0,0,0,0,90.05,0,0,0,0,0,0,0,0,0,0,0,0,0,1,1,307.35,FLYING
308.61,APPROACH,FLY_TO_FIX,83.65,83,-0.65,941.16,-3.77,3.4,5.78,270.03,0.023,0.1326,14.427,270.01,-2.263,0,0,0,0,0,0,0,0,90.05,0,0,0,0,0,0,0,0,0,0,0,0,0,1,1,308.68,FLYING
309.87,APPROACH,FLY_TO_FIX,83.64,83,-0.64,936.43,-3.73,3.43,5.78,270.03,0.022,0.1319,14.105,270.01,-2.24,0,0,0,0,0,0,0,0,90.05,0,0,0,0,0,0,0,0,0,0,0,0,0,1,1,309.94,FLYING
311.2,APPROACH,FLY_TO_FIX,83.6,83,-0.6,931.5,-3.69,3.46,5.79,270.03,0.023,0.1356,13.805,270.01,-2.215,0,0,0,0,0,0,0,0,90.05,0,0,0,0,0,0,0,0,0,0,0,0,0,1,1,311.27,FLYING
312.46,APPROACH,FLY_TO_FIX,83.54,83,-0.54,926.87,-3.65,3.49,5.79,270.03,0.023,0.1408,13.533,270.01,-2.192,0,0,0,0,0,0,0,0,90.05,0,0,0,0,0,0,0,0,0,0,0,0,0,1,1,312.53,FLYING
313.79,APPROACH,FLY_TO_FIX,83.48,83,-0.48,922.04,-3.61,3.52,5.8,270.03,0.02,0.1461,13.292,270.01,-2.168,0,0,0,0,0,0,0,0,90.05,0,0,0,0,0,0,0,0,0,0,0,0,0,1,1,313.86,FLYING
315.05,APPROACH,FLY_TO_FIX,83.42,83,-0.42,917.52,-3.57,3.55,5.81,270.03,0.021,0.1499,13.079,270.01,-2.145,0,0,0,0,0,0,0,0,90.05,0,0,0,0,0,0,0,0,0,0,0,0,0,1,1,315.12,FLYING
316.38,APPROACH,FLY_TO_FIX,83.37,83,-0.37,912.79,-3.53,3.58,5.81,270.03,0.02,0.1531,12.893,270.01,-2.121,0,0,0,0,0,0,0,0,90.05,0,0,0,0,0,0,0,0,0,0,0,0,0,1,1,316.45,FLYING
317.64,APPROACH,FLY_TO_FIX,83.32,83,-0.32,908.37,-3.49,3.61,5.82,270.03,0.021,0.1545,12.731,270.01,-2.099,0,0,0,0,0,0,0,0,90.05,0,0,0,0,0,0,0,0,0,0,0,0,0,1,1,317.71,FLYING
318.97,APPROACH,FLY_TO_FIX,83.28,83,-0.28,903.75,-3.45,3.64,5.82,270.03,0.021,0.1552,12.588,270.01,-2.076,0,0,0,0,0,0,0,0,90.05,0,0,0,0,0,0,0,0,0,0,0,0,0,1,1,319.04,FLYING
320.23,APPROACH,FLY_TO_FIX,83.25,83,-0.25,899.43,-3.41,3.66,5.83,270.03,0.019,0.1546,12.46,270.01,-2.055,0,0,0,0,0,0,0,0,90.05,0,0,0,0,0,0,0,0,0,0,0,0,0,1,1,320.3,FLYING
321.56,APPROACH,FLY_TO_FIX,83.23,83,-0.23,894.91,-3.38,3.69,5.83,270.03,0.019,0.1536,12.346,270.01,-2.032,0,0,0,0,0,0,0,0,90.05,0,0,0,0,0,0,0,0,0,0,0,0,0,1,1,321.63,FLYING
322.82,APPROACH,FLY_TO_FIX,83.21,83,-0.21,890.68,-3.34,3.71,5.83,270.03,0.022,0.1522,12.243,270.01,-2.011,0,0,0,0,0,0,0,0,90.05,0,0,0,0,0,0,0,0,0,0,0,0,0,1,1,322.89,FLYING
324.15,APPROACH,FLY_TO_FIX,83.18,83,-0.18,886.27,-3.3,3.74,5.83,270.03,0.021,0.1512,12.15,270.01,-1.989,0,0,0,0,0,0,0,0,90.05,0,0,0,0,0,0,0,0,0,0,0,0,0,1,1,324.22,FLYING
325.41,APPROACH,FLY_TO_FIX,83.16,83,-0.16,882.14,-3.26,3.76,5.84,270.03,0.021,0.1504,12.068,270.01,-1.968,0,0,0,0,0,0,0,0,90.05,0,0,0,0,0,0,0,0,0,0,0,0,0,1,1,325.48,FLYING
326.74,APPROACH,FLY_TO_FIX,83.14,83,-0.14,877.82,-3.23,3.79,5.84,270.03,0.02,0.1504,11.997,270.01,-1.946,0,0,0,0,0,0,0,0,90.05,0,0,0,0,0,0,0,0,0,0,0,0,0,1,1,326.81,FLYING
328,APPROACH,FLY_TO_FIX,83.11,83,-0.11,873.78,-3.19,3.81,5.84,270.03,0.02,0.1509,11.94,270.01,-1.926,0,0,0,0,0,0,0,0,90.05,0,0,0,0,0,0,0,0,0,0,0,0,0,1,1,328.07,FLYING
329.33,APPROACH,FLY_TO_FIX,83.08,83,-0.08,869.56,-3.16,3.84,5.85,270.03,0.02,0.1522,11.897,270.01,-1.905,0,0,0,0,0,0,0,0,90.05,0,0,0,0,0,0,0,0,0,0,0,0,0,1,1,329.4,FLYING
330.59,APPROACH,FLY_TO_FIX,83.05,83,-0.05,865.61,-3.12,3.86,5.85,270.03,0.019,0.1537,11.87,270.01,-1.885,0,0,0,0,0,0,0,0,90.05,0,0,0,0,0,0,0,0,0,0,0,0,0,1,1,330.66,FLYING
331.92,APPROACH,FLY_TO_FIX,83.02,83,-0.02,861.49,-3.09,3.89,5.85,270.03,0.018,0.1558,11.86,270.01,-1.865,0,0,0,0,0,0,0,0,90.05,0,0,0,0,0,0,0,0,0,0,0,0,0,1,1,331.99,FLYING
333.18,APPROACH,FLY_TO_FIX,82.99,83,0.01,857.63,-3.05,3.91,5.86,270.03,0.02,0.1578,11.865,270.01,-1.845,0,0,0,0,0,0,0,0,90.05,0,0,0,0,0,0,0,0,0,0,0,0,0,1,1,333.25,FLYING
334.54,APPROACH,FLY_TO_FIX,82.95,83,0.05,853.49,-3.01,3.94,5.86,270.03,0.02,0.1601,11.887,270.01,-1.825,0,0,0,0,0,0,0,0,90.05,0,0,0,0,0,0,0,0,0,0,0,0,0,1,1,334.61,FLYING
335.87,APPROACH,FLY_TO_FIX,82.92,83,0.08,849.5,-2.98,3.96,5.87,270.03,0.019,0.162,11.924,270.01,-1.805,0,0,0,0,0,0,0,0,90.05,0,0,0,0,0,0,0,0,0,0,0,0,0,1,1,335.94,FLYING
337.27,APPROACH,FLY_TO_FIX,82.9,83,0.1,845.36,-2.94,3.99,5.87,270.03,0.019,0.1637,11.975,270.01,-1.784,0,0,0,0,0,0,0,0,90.05,0,0,0,0,0,0,0,0,0,0,0,0,0,1,1,337.34,FLYING
338.6,APPROACH,FLY_TO_FIX,82.88,83,0.12,841.47,-2.91,4.01,5.87,270.03,0.018,0.1648,12.037,270.01,-1.764,0,0,0,0,0,0,0,0,90.05,0,0,0,0,0,0,0,0,0,0,0,0,0,1,1,338.67,FLYING
340,APPROACH,FLY_TO_FIX,82.86,83,0.14,837.42,-2.87,4.04,5.87,270.03,0.02,0.1655,12.109,270.01,-1.744,0,0,0,0,0,0,0,0,90.05,0,0,0,0,0,0,0,0,0,0,0,0,0,1,1,340.07,FLYING
341.3,APPROACH,FLY_TO_FIX,82.84,83,0.16,833.72,-2.84,4.06,5.87,270.03,0.019,0.1658,12.186,270.01,-1.726,0,0,0,0,0,0,0,0,90.05,0,0,0,0,0,0,0,0,0,0,0,0,0,1,1,341.37,FLYING
342.7,APPROACH,FLY_TO_FIX,82.83,83,0.17,829.76,-2.81,4.08,5.88,270.03,0.018,0.1659,12.269,270.01,-1.706,0,0,0,0,0,0,0,0,90.05,0,0,0,0,0,0,0,0,0,0,0,0,0,1,1,342.77,FLYING
344.03,APPROACH,FLY_TO_FIX,82.83,83,0.17,826.05,-2.78,4.1,5.88,270.03,0.02,0.1659,12.355,270.01,-1.687,0,0,0,0,0,0,0,0,90.05,0,0,0,0,0,0,0,0,0,0,0,0,0,1,1,344.1,FLYING
345.43,APPROACH,FLY_TO_FIX,82.82,83,0.18,822.19,-2.74,4.12,5.88,270.03,0.019,0.166,12.444,270.01,-1.668,0,0,0,0,0,0,0,0,90.05,0,0,0,0,0,0,0,0,0,0,0,0,0,1,1,345.5,FLYING
346.72,APPROACH,FLY_TO_FIX,82.82,83,0.18,818.66,-2.71,4.14,5.87,270.03,0.019,0.1661,12.534,270.01,-1.65,0,0,0,0,0,0,0,0,90.05,0,0,0,0,0,0,0,0,0,0,0,0,0,1,1,346.79,FLYING
348.12,APPROACH,FLY_TO_FIX,82.81,83,0.19,814.89,-2.68,4.16,5.88,270.03,0.02,0.1665,12.627,270.01,-1.631,0,0,0,0,0,0,0,0,90.05,0,0,0,0,0,0,0,0,0,0,0,0,0,1,1,348.19,FLYING
349.42,APPROACH,FLY_TO_FIX,82.81,83,0.19,811.43,-2.65,4.18,5.88,270.03,0.02,0.1671,12.722,270.01,-1.614,0,0,0,0,0,0,0,0,90.05,0,0,0,0,0,0,0,0,0,0,0,0,0,1,1,349.49,FLYING
350.82,APPROACH,FLY_TO_FIX,82.81,83,0.19,807.75,-2.62,4.2,5.88,270.03,0.019,0.1679,12.819,270.01,-1.596,0,0,0,0,0,0,0,0,90.05,0,0,0,0,0,0,0,0,0,0,0,0,0,1,1,350.89,FLYING
352.15,APPROACH,FLY_TO_FIX,82.8,83,0.2,804.28,-2.59,4.21,5.88,270.03,0.019,0.1688,12.918,270.01,-1.578,0,0,0,0,0,0,0,0,90.05,0,0,0,0,0,0,0,0,0,0,0,0,0,1,1,352.22,FLYING
353.55,APPROACH,FLY_TO_FIX,82.8,83,0.2,800.68,-2.56,4.24,5.88,270.03,0.019,0.1698,13.019,270.01,-1.56,0,0,0,0,0,0,0,0,90.05,0,0,0,0,0,0,0,0,0,0,0,0,0,1,1,353.62,FLYING
354.88,APPROACH,FLY_TO_FIX,82.8,83,0.2,797.3,-2.53,4.25,5.88,270.03,0.02,0.1708,13.121,270.01,-1.543,0,0,0,0,0,0,0,0,90.05,0,0,0,0,0,0,0,0,0,0,0,0,0,1,1,354.95,FLYING
356.28,APPROACH,FLY_TO_FIX,82.79,83,0.21,793.77,-2.5,4.27,5.88,270.03,0.018,0.1718,13.225,270.01,-1.526,0,0,0,0,0,0,0,0,90.05,0,0,0,0,0,0,0,0,0,0,0,0,0,1,1,356.35,FLYING
357.57,APPROACH,FLY_TO_FIX,82.79,83,0.21,790.55,-2.47,4.29,5.88,270.03,0.019,0.1725,13.328,270.01,-1.51,0,0,0,0,0,0,0,0,90.05,0,0,0,0,0,0,0,0,0,0,0,0,0,1,1,357.64,FLYING
358.97,APPROACH,FLY_TO_FIX,82.79,83,0.21,787.11,-2.44,4.31,5.88,270.03,0.019,0.1732,13.432,270.01,-1.492,0,0,0,0,0,0,0,0,90.05,0,0,0,0,0,0,0,0,0,0,0,0,0,1,1,359.04,FLYING
360.27,APPROACH,FLY_TO_FIX,82.8,83,0.2,783.97,-2.42,4.32,5.88,270.03,0.019,0.1738,13.534,270.01,-1.477,0,0,0,0,0,0,0,0,90.05,0,0,0,0,0,0,0,0,0,0,0,0,0,1,1,360.34,FLYING
361.67,APPROACH,FLY_TO_FIX,82.8,83,0.2,780.6,-2.39,4.34,5.88,270.03,0.019,0.1742,13.634,270.01,-1.46,0,0,0,0,0,0,0,0,90.05,0,0,0,0,0,0,0,0,0,0,0,0,0,1,1,361.74,FLYING
363,APPROACH,FLY_TO_FIX,82.8,83,0.2,777.44,-2.36,4.36,5.88,270.03,0.018,0.1745,13.732,270.01,-1.444,0,0,0,0,0,0,0,0,90.05,0,0,0,0,0,0,0,0,0,0,0,0,0,1,1,363.07,FLYING
364.4,APPROACH,FLY_TO_FIX,82.81,83,0.19,774.16,-2.33,4.38,5.87,270.03,0.019,0.1747,13.827,270.01,-1.427,0,0,0,0,0,0,0,0,90.05,0,0,0,0,0,0,0,0,0,0,0,0,0,1,1,364.47,FLYING
365.73,APPROACH,FLY_TO_FIX,82.82,83,0.18,771.07,-2.31,4.39,5.88,270.03,0.019,0.175,13.919,270.01,-1.412,0,0,0,0,0,0,0,0,90.05,0,0,0,0,0,0,0,0,0,0,0,0,0,1,1,365.8,FLYING
367.13,APPROACH,FLY_TO_FIX,82.82,83,0.18,767.86,-2.28,4.41,5.87,270.03,0.019,0.1753,14.007,270,-1.396,0,0,0,0,0,0,0,0,90.05,0,0,0,0,0,0,0,0,0,0,0,0,0,1,1,367.2,FLYING
368.46,APPROACH,FLY_TO_FIX,82.83,83,0.17,764.84,-2.26,4.42,5.87,270.03,0.018,0.1756,14.092,270,-1.381,0,0,0,0,0,0,0,0,90.05,0,0,0,0,0,0,0,0,0,0,0,0,0,1,1,368.53,FLYING
369.86,APPROACH,FLY_TO_FIX,82.84,83,0.16,761.7,-2.23,4.44,5.87,270.03,0.019,0.176,14.173,270,-1.365,0,0,0,0,0,0,0,0,90.05,0,0,0,0,0,0,0,0,0,0,0,0,0,1,1,369.93,FLYING
371.15,APPROACH,FLY_TO_FIX,82.84,83,0.16,758.83,-2.21,4.45,5.87,270.03,0.019,0.1765,14.252,270,-1.351,0,0,0,0,0,0,0,0,90.05,0,0,0,0,0,0,0,0,0,0,0,0,0,1,1,371.22,FLYING
