t_s,phase,subphase,ias_ms,vapp_ms,spd_err_ms,agl_m,vs_ms,pitch_deg,aoa_deg,hdg_deg,bank_deg,thr_cmd,thr_cur,thr_intg,at_gain,at_tau_s,at_a_up,at_a_dn,at_kp_thr,at_ki_spd,at_thr_slew,aa_hdg_cmd_deg,aa_fpa_cmd_deg,aa_fbw,aa_dir,actual_fpa_deg,ftf_hdg_err_deg,ftf_fix_idx,kos_steer_pit_deg,kos_steer_hdg_deg,aa_dir_vx,aa_dir_vy,aa_dir_vz,aa_dir_pitch_deg,aa_dir_hdg_deg,ils_loc_m,ils_gs_m,ils_dist_km,loc_corr_deg,gs_corr_deg,flare_fpa_cmd,flare_tgt_vs,flare_frac,steer_hdg_deg,steer_blend,ro_loc_corr_deg,ro_hdg_err_deg,ro_yaw_tgt,ro_yaw_scale,ro_yaw_gate,yaw_cmd,roll_cmd,pitch_cmd,ro_pitch_tgt_deg,ro_pitch_err_deg,ro_pitch_ff,ro_roll_assist,flaps_cur,flaps_tgt,asc_j_ab,asc_j_rk,asc_validity,asc_q_pa,asc_q_raw_pa,asc_mach,asc_apo_m,asc_drag_n,asc_w_prop,asc_edot_aero,asc_edot_orb,asc_pitch_bias,asc_blend,asc_spooling,asc_ab_thr_ratio,asc_ab_t_now,asc_ab_t_avail,asc_ab_ign_on,asc_ab_flameouts,asc_rk_t_now,asc_rk_t_avail,asc_rk_ign_on,asc_rk_flameouts,ship_thrust,ship_avail_thrust,ship_ign_on,ship_flameouts,ifc_raw_dt_s,ifc_dt_s,ifc_loop_n,ifc_hz_est,ifc_raw_dt_max_s,ifc_raw_dt_min_s,phase_el_s,status
1.08,TAKEOFF,TO_PREFLIGHT,1.11,80,78.89,1.22,0,-0.61,-1.11,90.55,0.096,0.2,0,0,0,0,0,0,0,0,0,90.4,0,1,0,0.19,0,0,0,90,0,0,0,0,0,0,0,0,0,0,0,0,0,90.4,1,0,0.152,0,0,1,0,0,0,0,0,0,0,1,1,0,0,VALID,0,0,0,0,0,1,0,0,0,0,0,0,0,0,0,0,0,0,0,0,0,38.2,2,0,0.94,0.5,1,2.56,0.94,0.02,0.22,LANDED
1.8,TAKEOFF,TO_PREFLIGHT,0.28,80,79.72,1.2,-0.01,-0.72,63.1,90.42,0.093,0.4,0,0,0,0,0,0,0,0,0,90.4,0,1,0,-0.21,0,0,0,90,0,0,0,0,0,0,0,0,0,0,0,0,0,90.4,1,0,0.152,0,0,1,0,0,0,0,0,0,0,1,1,0,0,VALID,0,0,0,0,0,1,0,0,0,0,0,0,0,0,0,0,0,0,0,0,0.62,38.2,2,0,0.76,0.5,2,1.39,0.94,0.76,0.94,LANDED
2.48,TAKEOFF,TO_PREFLIGHT,0.03,80,79.97,1.21,0.01,-0.6,-63.97,90.29,0.092,0.6,0,0,0,0,0,0,0,0,0,90.4,0,1,0,0.01,0,0,0,90,0,0,0,0,0,0,0,0,0,0,0,0,0,90.4,1,0,0.152,0,0,1,0,0,0,0,0,0,0,1,1,0,0,VALID,0,0,0,0,0,1,0,0,0,0,0,0,0,0,0,0,0,0,0,0,1.75,38.2,2,0,0.68,0.5,3,1.52,0.76,0.68,1.62,LANDED
3.2,TAKEOFF,TO_PREFLIGHT,0.02,80,79.98,1.22,0.01,-0.56,-4.73,90.16,0.1,0.8,0,0,0,0,0,0,0,0,0,90.4,0,1,0,-0.12,0,0,0,90,0,0,0,0,0,0,0,0,0,0,0,0,0,90.4,1,0,0.152,0,0,1,0,0,0,0,0,0,0,1,1,0,0,VALID,0,0,0,0,0,1,0,0,0,0,0,0,0,0,0,0,0,0,0,0,3.51,38.2,2,0,0.68,0.5,4,1.43,0.68,0.68,2.34,LANDED
3.92,TAKEOFF,TO_PREFLIGHT,0.03,80,79.97,1.22,0,-0.55,-1.84,90.05,0.098,1,0,0,0,0,0,0,0,0,0,90.4,0,1,0,0.29,0,0,0,90,0,0,0,0,0,0,0,0,0,0,0,0,0,90.4,1,0,0.152,0,0,1,0,0,0,0,0,0,0,1,1,0,0,VALID,0,0,0,0,0,1,0,0,0,0,0,0,0,0,0,0,0,0,0,0,5.77,38.2,2,0,0.72,0.5,5,1.39,0.72,0.68,3.06,LANDED
4.64,TAKEOFF,TO_GROUND_ROLL,0.04,80,79.96,1.22,0,-0.58,-0.12,89.95,0.092,1,0,0,0,0,0,0,0,0,0,90.4,0,1,0,-0.17,0,0,0,90,0,0,0,0,0,0,0,0,0,0,0,0,0,90.4,1,0,0.152,0,0,1,0,0,0,0,0,0,0,1,1,0,0,VALID,0,0,0,0,0,1,0,0,0,0,0,0,0,0,0,0,0,0,0,0,8.45,38.2,2,0,0.72,0.5,6,1.43,0.72,0.72,3.78,LANDED
5.44,TAKEOFF,TO_GROUND_ROLL,0.77,80,79.23,1.22,-0.01,-0.53,-0.78,89.9,0.096,1,0,0,0,0,0,0,0,0,0,90.66,0,1,0,-0.44,0,0,0,90,0,0,0,0,0,0,0,0,0,0,0,0,0,90.66,1,0,-0.767,0.0086,0.25,1,0.0086,0,0,0,0,0,0,1,1,0,0,VALID,0,0,0,0,0,1,0,0,0,0,0,0,0,0,0,0,0,0,0,0,11.11,38.2,2,0,0.74,0.5,7,1.28,0.74,0.72,4.56,LANDED
6.2,TAKEOFF,TO_GROUND_ROLL,1.91,80,78.09,1.22,-0.02,-0.5,-0.38,90.03,0.092,1,0,0,0,0,0,0,0,0,0,90.35,0,1,0,-0.54,0,0,0,90,0,0,0,0,0,0,0,0,0,0,0,0,0,90.35,1,0,-0.323,0.0033,0.25,1,0.0033,0,0,0,0,0,0,1,1,0,0,VALID,0,0,0,0,0,1,0,0,0,0,0,0,0,0,0,0,0,0,0,0,13.48,38.2,2,0,0.76,0.5,8,1.32,0.76,0.74,5.32,LANDED
6.96,TAKEOFF,TO_GROUND_ROLL,3.26,80,76.74,1.22,-0.03,-0.5,-0.36,90.24,0.092,1,0,0,0,0,0,0,0,0,0,90.31,0,1,0,-0.4,0,0,0,90,0,0,0,0,0,0,0,0,0,0,0,0,0,90.31,1,0,-0.069,0.0005,0.25,1,0.0005,0,0,0,0,0,0,1,1,0,0,VALID,0,0,0,0,0,1,0,0,0,0,0,0,0,0,0,0,0,0,0,0,15.63,38.19,2,0,0.76,0.5,9,1.32,0.76,0.76,6.08,LANDED
7.72,TAKEOFF,TO_GROUND_ROLL,4.79,80,75.21,1.22,-0.03,-0.51,-0.24,90.32,0.094,1,0,0,0,0,0,0,0,0,0,90.37,0,1,0,-0.43,0,0,0,90,0,0,0,0,0,0,0,0,0,0,0,0,0,90.37,1,0,-0.054,0.0004,0.25,1,0.0004,0,0,0,0,0,0,1,1,0,0,VALID,0,0,0,0,0,1,0,0,0,0,0,0,0,0,0,0,0,0,0,0,17.6,38.19,2,0,0.76,0.5,10,1.32,0.76,0.76,6.84,LANDED
8.48,TAKEOFF,TO_GROUND_ROLL,6.51,80,73.49,1.22,-0.05,-0.52,-0.24,90.35,0.095,1,0,0,0,0,0,0,0,0,0,90.39,0,1,0,-0.44,0,0,0,90,0,0,0,0,0,0,0,0,0,0,0,0,0,90.39,1,0,-0.04,0.0003,0.25,1,0.0003,0,0,0,0,0,0,1,1,0,0,VALID,0,0,0,0,0,1,0,0,0,0,0,0,0,0,0,0,0,0,0,0,19.39,38.18,2,0,0.76,0.5,11,1.32,0.76,0.76,7.6,LANDED
9.24,TAKEOFF,TO_GROUND_ROLL,8.38,80,71.62,1.22,-0.06,-0.52,-0.26,90.36,0.084,1,0,0,0,0,0,0,0,0,0,90.39,0,1,0,-0.28,0,0,0,90,0,0,0,0,0,0,0,0,0,0,0,0,0,90.39,1,0,-0.029,0.0002,0.25,1,0.0002,0,0,0,0,0,0,1,1,0,0,VALID,0,0,0,0,0,1,0,0,0,0,0,0,0,0,0,0,0,0,0,0,21.02,38.16,2,0,0.76,0.5,12,1.32,0.76,0.76,8.36,LANDED
10,TAKEOFF,TO_GROUND_ROLL,10.39,80,69.61,1.22,-0.06,-0.5,-0.1,90.42,0.103,1,0,0,0,0,0,0,0,0,0,90.38,0,1,0,-0.32,0,0,0,90,0,0,0,0,0,0,0,0,0,0,0,0,0,90.38,1,0,0.04,-0.0003,0.25,1,-0.0003,0,0,0,0,0,0,1,1,0,0,VALID,0,0,0,0,0,1,0,0,0,0,0,0,0,0,0,0,0,0,0,0,22.51,38.14,2,0,0.76,0.5,13,1.32,0.76,0.76,9.12,LANDED
10.78,TAKEOFF,TO_GROUND_ROLL,12.58,80,67.42,1.22,-0.07,-0.5,-0.31,90.4,0.081,1,0,0,0,0,0,0,0,0,0,90.41,0,1,0,-0.45,0,0,0,90,0,0,0,0,0,0,0,0,0,0,0,0,0,90.41,1,0,-0.007,0,0.25,1,0,0,0,0,0,0,0,1,1,0,0,VALID,0,0,0,0,0,1,0,0,0,0,0,0,0,0,0,0,0,0,0,0,23.89,38.12,2,0,0.78,0.5,14,1.28,0.78,0.76,9.9,LANDED
11.54,TAKEOFF,TO_GROUND_ROLL,14.84,80,65.16,1.22,-0.07,-0.52,-0.12,90.39,0.092,1,0,0,0,0,0,0,0,0,0,90.4,0,1,0,-0.15,0,0,0,90,0,0,0,0,0,0,0,0,0,0,0,0,0,90.4,1,0,-0.011,0.0001,0.25,1,0.0001,0,0,0,0,0,0,1,1,0,0,VALID,0,0,0,0,0,1,0,0,0,0,0,0,0,0,0,0,0,0,0,0,25.11,38.09,2,0,0.76,0.5,15,1.32,0.78,0.76,10.66,LANDED
12.3,TAKEOFF,TO_GROUND_ROLL,17.2,80,62.8,1.22,-0.04,-0.52,-0.04,90.39,0.075,1,0,0,0,0,0,0,0,0,0,90.4,0,1,0,-0.25,0,0,0.01,90,0,0,0,0,0,0,0,0,0,0,0,0,0,90.4,1,0,-0.012,0.0001,0.25,1,0.0001,0,0,0,0,0,0,1,1,0,0,VALID,0,0,0,0,0,1,0,0,0,0,0,0,0,0,0,0,0,0,0,0,26.22,38.05,2,0,0.76,0.5,16,1.32,0.76,0.76,11.42,LANDED
13.06,TAKEOFF,TO_GROUND_ROLL,19.65,80,60.35,1.22,-0.15,-0.49,-0.16,90.41,0.06,1,0,0,0,0,0,0,0,0,0,90.39,0,1,0,-0.32,0,0,0.01,90,0,0,0,0,0,0,0,0,0,0,0,0,0,90.39,1,0,0.019,-0.0001,0.25,1,-0.0001,0,0,0,0,0,0,1,1,0,0,VALID,0,0,0,0,0,1,0,0,0,0,0,0,0,0,0,0,0,0,0,0,27.22,38.01,2,0,0.76,0.5,17,1.32,0.76,0.76,12.18,LANDED
13.82,TAKEOFF,TO_GROUND_ROLL,22.18,80,57.82,1.22,-0.11,-0.49,-0.35,90.4,0.062,1,0,0,0,0,0,0,0,0,0,90.41,0,1,0,-0.13,0,0,0.01,90,0,0,0,0,0,0,0,0,0,0,0,0,0,90.41,1,0,-0.007,0,0.271,0,0,0,0,0,0,0,0,1,1,0,0,VALID,0,0,0,0,0,1,0,0,0,0,0,0,0,0,0,0,0,0,0,0,28.13,37.96,2,0,0.76,0.5,18,1.32,0.76,0.76,12.94,LANDED
14.6,TAKEOFF,TO_GROUND_ROLL,24.84,80,55.16,1.22,-0.14,-0.47,-0.21,90.4,0.088,1,0,0,0,0,0,0,0,0,0,90.4,0,1,0,-0.26,0,0,0.01,90,0,0,0,0,0,0,0,0,0,0,0,0,0,90.4,1,0,0.007,-0.0001,0.3,0,-0.0001,0,0,0,0,0,0,1,1,0,0,VALID,0,0,0,0,0,1,0,0,0,0,0,0,0,0,0,0,0,0,0,0,28.97,37.91,2,0,0.78,0.5,19,1.28,0.78,0.76,13.72,LANDED
15.38,TAKEOFF,TO_GROUND_ROLL,27.57,80,52.43,1.22,-0.04,-0.46,-0.1,90.37,0.1,1,0,0,0,0,0,0,0,0,0,90.41,0,1,0,-0.26,0,0,0.01,90,0,0,0,0,0,0,0,0,0,0,0,0,0,90.41,1,0,-0.045,0.0004,0.329,0,0.0004,0,0,0,0,0,0,1,1,0,0,VALID,0,0,0,0,0,1,0,0,0,0,0,0,0,0,0,0,0,0,0,0,29.72,37.84,2,0,0.78,0.5,20,1.28,0.78,0.78,14.5,LANDED
16.16,TAKEOFF,TO_GROUND_ROLL,30.36,80,49.64,1.22,-0.21,-0.46,-0.13,90.42,0.118,1,0,0,0,0,0,0,0,0,0,90.38,0,1,0,-0.09,0,0,0.01,90,0,0,0,0,0,0,0,0,0,0,0,0,0,90.38,1,0,0.035,-0.0003,0.359,0,-0.0003,0,0,0,0,0,0,1,1,0,0,VALID,0,0,0,0,0,1,0,0,0,0,0,0,0,0,0,0,0,0,0,0,30.39,37.78,2,0,0.78,0.5,21,1.28,0.78,0.78,15.28,LANDED
16.94,TAKEOFF,TO_GROUND_ROLL,33.19,80,46.81,1.23,-0.22,-0.42,-0.11,90.48,0.101,1,0,0,0,0,0,0,0,0,0,90.38,0,1,0,-0.19,0,0,0.02,90,0,0,0,0,0,0,0,0,0,0,0,0,0,90.38,1,0,0.1,-0.0012,0.389,0,-0.0012,0,0,0,0,0,0,1,1,0,0,VALID,0,0,0,0,0,1,0,0,0,0,0,0,0,0,0,0,0,0,0,0,30.99,37.7,2,0,0.78,0.5,22,1.28,0.78,0.78,16.06,LANDED
17.72,TAKEOFF,TO_GROUND_ROLL,36.06,80,43.94,1.23,-0.05,-0.41,0.06,90.33,0.042,1,0,0,0,0,0,0,0,0,0,90.46,0,1,0,-0.08,0,0,0.02,90,0,0,0,0,0,0,0,0,0,0,0,0,0,90.46,1,0,-0.125,0.0016,0.42,0,0.0016,0,0,0,0,0,0,1,1,0,0,VALID,0,0,0,0,0,1,0,0,0,0,0,0,0,0,0,0,0,0,0,0,31.52,37.62,2,0,0.78,0.5,23,1.28,0.78,0.78,16.84,LANDED
18.5,TAKEOFF,TO_GROUND_ROLL,38.96,80,41.04,1.23,-0.26,-0.41,-0.06,90.4,0.109,1,0,0,0,0,0,0,0,0,0,90.37,0,1,0,-0.25,0,0,0.02,90,0,0,0,0,0,0,0,0,0,0,0,0,0,90.37,1,0,0.027,-0.0003,0.451,0,-0.0003,0,0,0,0,0,0,1,1,0,0,VALID,0,0,0,0,0,1,0,0,0,0,0,0,0,0,0,0,0,0,0,0,31.99,37.53,2,0,0.78,0.5,24,1.28,0.78,0.78,17.62,LANDED
19.28,TAKEOFF,TO_GROUND_ROLL,41.89,80,38.11,1.23,-0.04,-0.38,0.06,90.35,0.1,1,0,0,0,0,0,0,0,0,0,90.42,0,1,0,-0.06,0,0,0.03,90,0,0,0,0,0,0,0,0,0,0,0,0,0,90.42,1,0,-0.077,0.0011,0.482,0,0.0011,0,0,0,0,0,0,1,1,0,0,VALID,0,0,0,0,0,1,0,0,0,0,0,0,0,0,0,0,0,0,0,0,32.41,37.44,2,0,0.78,0.5,25,1.28,0.78,0.78,18.4,LANDED
20.04,TAKEOFF,TO_GROUND_ROLL,44.76,80,35.24,1.23,-0.28,-0.35,-0.13,90.49,0.137,1,0,0,0,0,0,0,0,0,0,90.34,0,1,0,-0.38,0,0,0.03,90,0,0,0,0,0,0,0,0,0,0,0,0,0,90.34,1,0,0.143,-0.0024,0.513,0,-0.0024,0,0,0,0,0,0,1,1,0,0,VALID,0,0,0,0,0,1,0,0,0,0,0,0,0,0,0,0,0,0,0,0,32.77,37.35,2,0,0.76,0.5,26,1.32,0.78,0.76,19.16,LANDED
20.8,TAKEOFF,TO_GROUND_ROLL,47.66,80,32.34,1.23,-0.03,-0.33,0.17,90.37,0.006,1,0,0,0,0,0,0,0,0,0,90.45,0,1,0,-0.41,0,0,0.03,90,0,0,0,0,0,0,0,0,0,0,0,0,0,90.45,1,0,-0.071,0.0011,0.544,0,0.0011,0,0,0,0,0,0,1,1,0,0,VALID,0,0,0,0,0,1,0,0,0,0,0,0,0,0,0,0,0,0,0,0,33.08,37.25,2,0,0.76,0.5,27,1.32,0.76,0.76,19.92,LANDED
21.56,TAKEOFF,TO_GROUND_ROLL,50.56,80,29.44,1.23,-0.31,-0.33,-0.12,90.46,0.064,1,0,0,0,0,0,0,0,0,0,90.36,0,1,0,-0.46,0,0,0.04,90,0,0,0,0,0,0,0,0,0,0,0,0,0,90.36,1,0,0.097,-0.0017,0.575,0,-0.0017,0,0,0,0,0,0,1,1,0,0,VALID,0,0,0,0,0,1,0,0,0,0,0,0,0,0,0,0,0,0,0,0,33.36,37.15,2,0,0.76,0.5,28,1.32,0.76,0.76,20.68,LANDED
22.32,TAKEOFF,TO_GROUND_ROLL,53.48,80,26.52,1.24,-0.23,-0.28,-0.15,90.22,0.156,1,0,0,0,0,0,0,0,0,0,90.49,0,1,0,-0.35,0,0,0.04,90,0,0,0,0,0,0,0,0,0,0,0,0,0,90.49,1,0,-0.27,0.0063,0.606,0,0.0063,0,0,0,0,0,0,1,1,0,0,VALID,0,0,0,0,0,1,0,0,0,0,0,0,0,0,0,0,0,0,0,0,33.6,37.05,2,0,0.76,0.5,29,1.32,0.76,0.76,21.44,LANDED
23.08,TAKEOFF,TO_GROUND_ROLL,56.4,80,23.6,1.23,-0.35,-0.31,-0.06,90.53,0.113,1,0,0,0,0,0,0,0,0,0,90.28,0,1,0,-0.22,0,0,0.04,90,0,0,0,0,0,0,0,0,0,0,0,0,0,90.28,1,0,0.258,-0.0062,0.638,0,-0.0062,0,0,0,0,0,0,1,1,0,0,VALID,0,0,0,0,0,1,0,0,0,0,0,0,0,0,0,0,0,0,0,0,33.8,36.94,2,0,0.76,0.5,30,1.32,0.76,0.76,22.2,LANDED
23.84,TAKEOFF,TO_GROUND_ROLL,59.33,80,20.67,1.24,-0.42,-0.27,0.06,90.36,0.01,1,0,0,0,0,0,0,0,0,0,90.47,0,1,0,-0.27,0,0,0.05,90,0,0,0,0,0,0,0,0,0,0,0,0,0,90.47,1,0,-0.105,0.0021,0.669,0,0.0021,0,0,0,0,0,0,1,1,0,0,VALID,0,0,0,0,0,1,0,0,0,0,0,0,0,0,0,0,0,0,0,0,33.97,36.83,2,0,0.76,0.5,31,1.32,0.76,0.76,22.96,LANDED
24.6,TAKEOFF,TO_GROUND_ROLL,62.27,80,17.73,1.24,-0.45,-0.29,0.07,90.67,0.08,1,0,0,0,0,0,0,0,0,0,90.28,0,1,0,-0.01,0,0,0.05,90,0,0,0,0,0,0,0,0,0,0,0,0,0,90.28,1,0,0.387,-0.012,0.7,0,-0.012,0,0,0,0,0,0,1,1,0,0,VALID,0,0,0,0,0,1,0,0,0,0,0,0,0,0,0,0,0,0,0,0,34.12,36.72,2,0,0.76,0.5,32,1.32,0.76,0.76,23.72,LANDED
25.36,TAKEOFF,TO_GROUND_ROLL,65.2,80,14.8,1.24,-0.33,-0.2,-0.09,89.98,0.03,1,0,0,0,0,0,0,0,0,0,90.67,0,1,0,-0.49,0,0,0.06,90,0,0,0,0,0,0,0,0,0,0,0,0,0,90.67,1,0,-0.695,0.0229,0.732,0,0.0229,0,0,0,0,0,0,1,1,0,0,VALID,0,0,0,0,0,1,0,0,0,0,0,0,0,0,0,0,0,0,0,0,34.24,36.61,2,0,0.76,0.5,33,1.32,0.76,0.76,24.48,LANDED
26.14,TAKEOFF,TO_GROUND_ROLL,68.2,80,11.8,1.24,0.06,-0.21,0.17,91.03,0.046,1,0,0,0,0,0,0,0,0,0,89.98,0,1,0,-0.18,0,0,0.06,90,0,0,0,0,0,0,0,0,0,0,0,0,0,89.98,1,0,1.055,-0.0363,0.764,0,-0.0363,0,0,0,0,0,0,1,1,0,0,VALID,0,0,0,0,0,1,0,0,0,0,0,0,0,0,0,0,0,0,0,0,34.35,36.5,2,0,0.78,0.5,34,1.28,0.78,0.76,25.26,LANDED
26.92,TAKEOFF,TO_ROTATE,71.27,80,8.73,1.24,-0.12,-0.25,0.07,89.74,0.164,1,0,0,0,0,0,0,0,0,0,90.92,0,1,0,-0.35,0,0,0.07,90,0,0,0,0,0,0,0,0,0,0,0,0,0,90.92,1,0,-1.178,0.0422,0.796,0,0,0,0,0,0,0,0,1,1,0,0,VALID,0,0,0,0,0,1,0,0,0,0,0,0,0,0,0,0,0,0,0,0,34.43,36.38,2,0,0.78,0.5,35,1.25,0.78,0.78,26.06,LANDED
27.76,TAKEOFF,TO_ROTATE,74.45,80,5.55,1.25,-0.3,-0.21,0.06,89.75,0.048,1,0,0,0,0,0,0,0,0,0,90.4,1.253,1,0,-0.19,0,0,0.07,90,0,0,0,0,0,0,0,0,0,0,0,0,0,90.4,1,0,-0.649,0.0242,0.829,0,0.0242,0,0.1968,1.253,1.46,0.08,0,1,1,0,0,VALID,0,0,0,0,0,1,0,0,0,0,0,0,0,0,0,0,0,0,0,0,34.5,36.26,2,0,0.8,0.5,36,1.22,0.8,0.78,26.9,LANDED
28.56,TAKEOFF,TO_ROTATE,77.58,80,2.42,1.22,-0.24,-0.49,-0.36,90.81,-0.305,1,0,0,0,0,0,0,0,0,0,89.98,2.753,1,0,-0.19,0,0,0.08,90,0,0,0,0,0,0,0,0,0,0,0,0,0,89.98,1,0,0.832,-0.0323,0.862,0,-0.0323,0,0.3396,2.753,3.246,0.08,0,1,1,0,0,VALID,0,0,0,0,0,1,0,0,0,0,0,0,0,0,0,0,0,0,0,0,34.55,36.13,2,0,0.8,0.5,37,1.28,0.8,0.8,27.7,LANDED
29.36,TAKEOFF,TO_ROTATE,80.71,80,-0.71,1.23,-0.28,-0.47,-0.13,88.68,0.44,1,0,0,0,0,0,0,0,0,0,91.25,4.253,1,0,-0.14,0,0,0.09,90,0,0,0,0,0,0,0,0,0,0,0,0,0,91.25,1,0,-2.575,0.1037,0.895,0,0.1037,0,0.45,4.253,4.724,0.08,0,1,1,0,0,VALID,0,0,0,0,0,1,0,0,0,0,0,0,0,0,0,0,0,0,0,0,34.58,36.01,2,0,0.8,0.5,38,1.28,0.8,0.8,28.5,LANDED
30.16,TAKEOFF,TO_ROTATE,83.68,80,-3.68,1.24,-0.4,-0.49,0.11,93.56,-0.92,1,0,0,0,0,0,0,0,0,0,88.45,5.753,1,0,-0.18,0,0,0.09,90,0,0,0,0,0,0,0,0,0,0,0,0,0,88.45,1,0,5.111,-0.2133,0.928,0,-0.2133,0,0.45,5.753,6.241,0.08,0,1,1,0,0,VALID,0,0,0,0,0,1,0,0,0,0,0,0,0,0,0,0,0,0,0,0,34.6,35.9,2,0,0.8,0.5,39,1.28,0.8,0.8,29.3,LANDED
30.96,TAKEOFF,TO_ROTATE,86.38,80,-6.38,1.25,-0.37,-0.44,0.07,87.29,1.166,1,0,0,0,0,0,0,0,0,0,92.91,7.253,1,0,-0.16,0,0,0.1,90,0,0,0,0,0,0,0,0,0,0,0,0,0,92.91,1,0,-5.613,0.2418,0.957,0,0.2418,0,0.45,7.253,7.688,0.08,0,1,1,0,0,VALID,0,0,0,0,0,1,0,0,0,0,0,0,0,0,0,0,0,0,0,0,34.62,35.8,2,0,0.8,0.5,40,1.28,0.8,0.8,30.1,LANDED
31.76,TAKEOFF,TO_ROTATE,89.06,80,-9.06,1.26,-0.38,-0.2,-0.09,86.1,-0.12,1,0,0,0,0,0,0,0,0,0,90.88,8.753,1,0,-0.22,0,0,0.11,90,0,0,0,0,0,0,0,0,0,0,0,0,0,90.88,1,0,-4.775,0.2118,0.986,0,0.2118,0,0.45,8.753,8.955,0.08,0,1,1,0,0,VALID,0,0,0,0,0,1,0,0,0,0,0,0,0,0,0,0,0,0,0,0,34.63,35.7,2,0,0.8,0.5,41,1.28,0.8,0.8,30.9,LANDED
32.56,TAKEOFF,TO_ROTATE,91.36,80,-11.36,1.25,-0.5,-0.1,-0.06,95.18,-0.492,1,0,0,0,0,0,0,0,0,0,86.77,10,1,0,-0.01,0,0,0.11,90,0,0,0,0,0,0,0,0,0,0,0,0,0,86.77,1,0,8.409,-0.3,1,0,-0.3,0,0.45,10,10.099,0.08,0,1,1,0,0,VALID,0,0,0,0,0,1,0,0,0,0,0,0,0,0,0,0,0,0,0,0,34.65,35.61,2,0,0.8,0.5,42,1.28,0.8,0.8,31.7,LANDED
33.38,TAKEOFF,TO_ROTATE,94.03,80,-14.03,1.24,-0.34,-0.07,-0.22,91.88,0.864,1,0,0,0,0,0,0,0,0,0,91.72,10,1,0,-0.32,0,0,0.12,90,0,0,0,0,0,0,0,0,0,0,0,0,0,91.72,1,0,0.157,-0.0052,1,0,-0.0052,0,0.45,10,10.071,0.08,0,1,1,0,0,VALID,0,0,0,0,0,1,0,0,0,0,0,0,0,0,0,0,0,0,0,0,34.64,35.52,2,0,0.82,0.5,43,1.25,0.82,0.8,32.52,LANDED
34.2,TAKEOFF,TO_ROTATE,96.48,80,-16.48,1.24,-0.36,0.06,-0.11,87.45,0.825,1,0,0,0,0,0,0,0,0,0,92.17,10,1,0,-0.22,0,0,0.13,90,0,0,0,0,0,0,0,0,0,0,0,0,0,92.17,1,0,-4.723,0.2126,1,0,0.2126,0,0.45,10,9.941,0.08,0,1,1,0,0,VALID,0,0,0,0,0,1,0,0,0,0,0,0,0,0,0,0,0,0,0,0,34.64,35.43,2,0,0.82,0.5,44,1.25,0.82,0.82,33.34,LANDED
35.02,TAKEOFF,TO_ROTATE,99.19,80,-19.19,1.25,-0.69,-0.01,0.33,93.69,-0.934,1,0,0,0,0,0,0,0,0,0,87.9,10,1,0,-0.34,0,0,0.14,90,0,0,0,0,0,0,0,0,0,0,0,0,0,87.9,1,0,5.783,-0.2602,1,0,-0.2602,0,0.45,10,10.007,0.08,0,1,1,0,0,VALID,0,0,0,0,0,1,0,0,0,0,0,0,0,0,0,0,0,0,0,0,34.62,35.33,2,0,0.82,0.5,45,1.25,0.82,0.82,34.16,LANDED
35.84,TAKEOFF,TO_ROTATE,101.91,80,-21.91,1.26,-0.55,0.04,0.38,88.96,0.685,1,0,0,0,0,0,0,0,0,0,92.29,10,1,0,-0.21,0,0,0.14,90,0,0,0,0,0,0,0,0,0,0,0,0,0,92.29,1,0,-3.334,0.1501,1,0,0.1501,0,0.45,10,9.962,0.08,0,1,1,0,0,VALID,0,0,0,0,0,1,0,0,0,0,0,0,0,0,0,0,0,0,0,0,34.6,35.24,2,0,0.82,0.5,46,1.25,0.82,0.82,34.98,LANDED
36.66,TAKEOFF,TO_ROTATE,104.72,80,-24.72,1.27,0.02,0.21,-0.01,89.93,-0.248,1,0,0,0,0,0,0,0,0,0,90.01,10,1,0,-0.35,0,0,0.15,90,0,0,0,0,0,0,0,0,0,0,0,0,0,90.01,1,0,-0.075,0.0022,1,0,0.0022,0,0.45,10,9.794,0.08,0,1,1,0,0,VALID,0,0,0,0,0,1,0,0,0,0,0,0,0,0,0,0,0,0,0,0,34.57,35.15,2,0,0.82,0.5,47,1.25,0.82,0.82,35.8,LANDED
37.48,TAKEOFF,TO_ROTATE,107.55,80,-27.55,1.29,0.24,0.26,0.17,90.81,0.339,1,0,0,0,0,0,0,0,0,0,90.05,10,1,0,-0.24,0,0,0.16,90,0,0,0,0,0,0,0,0,0,0,0,0,0,90.05,1,0,0.762,-0.0343,1,0,-0.0343,0,0.45,10,9.74,0.08,0,1,1,0,0,VALID,0,0,0,0,0,1,0,0,0,0,0,0,0,0,0,0,0,0,0,0,34.54,35.06,2,0,0.82,0.5,48,1.25,0.82,0.82,36.62,LANDED
38.3,TAKEOFF,TO_ROTATE,110.36,80,-30.36,1.42,-0.3,1.05,1.37,90.86,-0.433,1,0,0,0,0,0,0,0,0,0,90.38,10,1,0,-0.47,0,0,0.17,90,0,0,0,0,0,0,0,0,0,0,0,0,0,90.38,1,0,0.479,-0.0216,1,0,-0.0216,0,0.45,10,8.945,0.08,0,1,1,0,0,VALID,0,0,0,0,0,1,0,0,0,0,0,0,0,0,0,0,0,0,0,0,34.5,34.98,2,0,0.82,0.5,49,1.25,0.82,0.82,37.44,LANDED
39.12,TAKEOFF,TO_ROTATE,112.75,80,-32.75,2.54,2.34,3.91,5.07,90.91,-3.027,1,0,0,0,0,0,0,0,0,0,90.38,10,1,0,1.16,0,0,0.18,90,0,0,0,0,0,0,0,0,0,0,0,0,0,90.38,1,0,0.531,0,0,3,0,0,0.45,10,6.095,0.08,0,1,1,0,0,VALID,0,0,0,0,0,1,0,0,0,0,0,0,0,0,0,0,0,0,0,0,34.47,34.9,2,0,0.82,0.5,50,1.25,0.82,0.82,38.24,FLYING
39.82,TAKEOFF,TO_ROTATE,113.56,80,-33.56,8.57,14.34,15.17,9.99,87.12,-7.444,1,0,0,0,0,0,0,0,0,0,90.4,10,1,0,5.65,0,0,0.19,90,-0.8229,-0.0063,-0.5682,19.98,90.4,0,0,0,0,0,0,0,0,90.4,1,0,-3.285,0,0,3,0,0,0,10,-5.173,0,0,1,1,0,0,VALID,0,0,0,0,0,1,0,0,0,0,0,0,0,0,0,0,0,0,0,0,34.47,34.87,2,0,0.8,0.5,51,1.43,0.82,0.8,38.96,FLYING
40.54,TAKEOFF,TO_CLIMB,114.06,80,-34.06,21.69,17.72,11.57,2.76,87.86,-5.058,1,0,0,0,0,0,0,0,0,0,90.4,10,0,1,9.03,0,0,19.99,90.4,-0.7447,-0.0066,-0.6674,12.75,90.4,0,0,0,0,0,0,0,0,90.4,1,0,-2.545,0,0,3,0,0,0,10,-1.567,0,0,1,1,0,0,VALID,0,0,0,0,0,1,0,0,0,0,0,0,0,0,0,0,0,0,0,0,34.46,34.82,2,0,0.72,0.5,52,1.35,0.8,0.72,39.68,FLYING
41.28,TAKEOFF,TO_CLIMB,115.58,80,-35.58,33.8,15.79,10.32,2.58,88.07,-2.565,0.8,0,0,0,0,0,0,0,0,0,90.4,10.767,0,1,7.98,0,0,12.75,90.4,-0.7514,-0.0066,-0.6598,13.33,90.4,0,0,0,0,0,0,0,0,90.4,1,0,-2.33,0,0,3,0,0,0,10,-1.567,0,0,1,1,0,0,VALID,0,0,0,0,0,1,0,0,0,0,0,0,0,0,0,0,0,0,0,0,34.28,34.74,2,0,0.72,0.5,53,1.39,0.72,0.72,40.4,FLYING
41.98,TAKEOFF,TO_CLIMB,117.05,80,-37.05,44.54,14.67,9.85,2.77,88.27,-0.767,0.78,0,0,0,0,0,0,0,0,0,90.4,9.967,0,1,7.27,0,0,13.34,90.4,-0.7442,-0.0066,-0.6679,12.73,90.4,0,0,0,0,0,0,0,0,90.4,1,0,-2.127,0,0,3,0,0,0,10,-1.567,0,0,1,1,0,0,VALID,0,0,0,0,0,1,0,0,0,0,0,0,0,0,0,0,0,0,0,0,32.28,34.67,2,0,0.7,0.5,54,1.43,0.72,0.7,41.1,FLYING
42.66,TAKEOFF,TO_CLIMB,118.36,80,-38.36,54.35,13.98,9.53,2.9,88.48,0.205,0.78,0,0,0,0,0,0,0,0,0,90.4,9.167,0,1,6.81,0,0,12.73,90.4,-0.7363,-0.0067,-0.6766,12.06,90.4,0,0,0,0,0,0,0,0,90.4,1,0,-1.922,0,0,3,0,0,0,10,-1.567,0,0,1,1,0,0,VALID,0,0,0,0,0,1,0,0,0,0,0,0,0,0,0,0,0,0,0,0,30.71,34.62,2,0,0.68,0.5,55,1.47,0.7,0.68,41.78,FLYING
43.34,TAKEOFF,TO_CLIMB,119.52,80,-39.52,63.85,13.7,9.39,3,88.7,0.574,0.78,0,0,0,0,0,0,0,0,0,90.4,8.367,0,1,6.56,0,0,12.07,90.4,-0.728,-0.0067,-0.6856,11.36,90.4,0,0,0,0,0,0,0,0,90.4,1,0,-1.701,0,0,3,0,0,0,10,-1.567,0,0,1,1,0,0,VALID,0,0,0,0,0,1,0,0,0,0,0,0,0,0,0,0,0,0,0,0,29.59,34.56,2,0,0.68,0.5,56,1.47,0.68,0.68,42.46,FLYING
44.02,TAKEOFF,TO_CLIMB,120.63,80,-40.63,73.26,13.73,9.38,3.06,88.92,0.64,0.78,0,0,0,0,0,0,0,0,0,90.4,8,0,1,6.49,0,0,11.37,90.4,-0.7242,-0.0067,-0.6896,11.05,90.4,0,0,0,0,0,0,0,0,90.4,1,0,-1.48,0,0,3,0,0,0,10,-1.567,0,0,1,1,0,0,VALID,0,0,0,0,0,1,0,0,0,0,0,0,0,0,0,0,0,0,0,0,28.79,34.51,2,0,0.68,0.5,57,1.47,0.68,0.68,43.14,FLYING
44.7,TAKEOFF,TO_CLIMB,121.72,80,-41.72,82.19,12.3,8.23,3.06,89.08,0.51,0.78,0,0,0,0,0,0,0,0,0,90.4,8,0,1,5.74,0,0,11.06,90.4,-0.7235,-0.0067,-0.6903,11.01,90.4,0,0,0,0,0,0,0,0,90.4,1,0,-1.316,0,0,3,0,0,0,10,-1.567,0,0,1,1,0,0,VALID,0,0,0,0,0,1,0,0,0,0,0,0,0,0,0,0,0,0,0,0,28.2,34.46,2,0,0.68,0.5,58,1.47,0.68,0.68,43.82,FLYING
45.42,TAKEOFF,TO_CLIMB,122.83,80,-42.83,91.46,13.17,9.12,3.27,89.33,0.317,0.78,0,0,0,0,0,0,0,0,0,90.4,8,0,1,6.02,0,0,11.02,90.4,-0.7265,-0.0067,-0.6871,11.27,90.4,0,0,0,0,0,0,0,0,90.4,1,0,-1.074,0,0,3,0,0,0,10,-1.567,0,0,0,0,0,0,VALID,0,0,0,0,0,1,0,0,0,0,0,0,0,0,0,0,0,0,0,0,27.77,34.41,2,0,0.7,0.5,59,1.39,0.7,0.68,44.54,FLYING
46.16,TAKEOFF,TO_CLIMB,123.85,80,-43.85,101.8,14.54,9.71,3.32,89.54,0.11,0.78,0,0,0,0,0,0,0,0,0,90.4,8,0,1,6.55,0,0,11.27,90.4,-0.7271,-0.0067,-0.6865,11.32,90.4,0,0,0,0,0,0,0,0,90.4,1,0,-0.859,0,0,3,0,0,0,10,-1.567,0,0,0,0,0,0,VALID,0,0,0,0,0,1,0,0,0,0,0,0,0,0,0,0,0,0,0,0,27.44,34.36,2,0,0.76,0.5,60,1.35,0.76,0.7,45.28,FLYING
46.84,TAKEOFF,TO_CLIMB,124.71,80,-44.71,112.34,16.18,10.38,3.33,89.72,-0.042,0.78,0,0,0,0,0,0,0,0,0,90.4,8,0,1,7.22,0,0,11.33,90.4,-0.727,-0.0067,-0.6866,11.33,90.4,0,0,0,0,0,0,0,0,90.4,1,0,-0.683,0,0,3,0,0,0,10,-1.567,0,0,0,0,0,0,VALID,0,0,0,0,0,1,0,0,0,0,0,0,0,0,0,0,0,0,0,0,27.22,34.31,2,0,0.68,0.5,61,1.47,0.76,0.68,45.96,FLYING
47.52,TAKEOFF,TO_CLIMB,125.48,80,-45.48,124.1,18.11,11.14,3.3,89.89,-0.127,0.78,0,0,0,0,0,0,0,0,0,90.4,8,0,1,8.01,0,0,11.34,90.4,-0.7266,-0.0067,-0.687,11.3,90.4,0,0,0,0,0,0,0,0,90.4,1,0,-0.509,0,0,3,0,0,0,10,-1.567,0,0,0,0,0,0,VALID,0,0,0,0,0,1,0,0,0,0,0,0,0,0,0,0,0,0,0,0,27.05,34.27,2,0,0.68,0.5,62,1.47,0.68,0.68,46.64,FLYING
48.2,TAKEOFF,TO_CLIMB,126.16,80,-46.16,137.12,20.03,11.92,1.86,90.05,-0.185,0.78,0,0,0,0,0,0,0,0,0,90.4,8,0,1,8.89,0,0,11.31,90.4,-0.7147,-0.0067,-0.6994,10.32,90.4,0,0,0,0,0,0,0,0,90.4,1,0,-0.351,0,0,3,0,0,0,10,-1.567,0,0,0,0,0,0,VALID,0,0,0,0,0,1,0,0,0,0,0,0,0,0,0,0,0,0,0,0,26.92,34.22,2,0,0.68,0.5,63,1.47,0.68,0.68,47.32,FLYING
48.9,TAKEOFF,TO_CLIMB,126.89,80,-46.89,150.8,20.15,11.71,3.1,90.19,-0.219,0.78,0,0,0,0,0,0,0,0,0,90.4,8,0,1,8.82,0,0,10.33,90.4,-0.7239,-0.0067,-0.6898,11.1,90.4,0,0,0,0,0,0,0,0,90.4,1,0,-0.214,0,0,3,0,0,0,10,-1.567,0,0,0,0,0,0,VALID,0,0,0,0,0,1,0,0,0,0,0,0,0,0,0,0,0,0,0,0,26.81,34.17,2,0,0.7,0.5,64,1.43,0.7,0.68,48.02,FLYING
49.58,TAKEOFF,TO_CLIMB,127.47,80,-47.47,165.09,22.38,13.18,3.88,90.55,-0.126,0.78,0,0,0,0,0,0,0,0,0,90.4,8,0,1,9.52,0,0,11.1,90.4,-0.733,-0.0067,-0.6802,11.86,90.4,0,0,0,0,0,0,0,0,90.4,1,0,0.153,0,0,3,0,0,0,10,-1.567,0,0,0,0,0,0,VALID,0,0,0,0,0,1,0,0,0,0,0,0,0,0,0,0,0,0,0,0,26.73,34.12,2,0,0.68,0.5,65,1.47,0.7,0.68,48.7,FLYING
50.26,TAKEOFF,TO_CLIMB,127.74,80,-47.74,181.93,26.67,15.07,3.81,90.88,-0.007,0.78,0,0,0,0,0,0,0,0,0,90.4,8,0,1,11.39,0,0,11.87,90.4,-0.7323,-0.0067,-0.6809,11.81,90.4,0,0,0,0,0,0,0,0,90.4,1,0,0.481,0,0,3,0,0,0,10,-1.567,0,0,0,0,0,0,VALID,0,0,0,0,0,1,0,0,0,0,0,0,0,0,0,0,0,0,0,0,26.66,34.07,2,0,0.68,0.5,66,1.47,0.68,0.68,49.38,FLYING
50.98,TAKEOFF,TO_CLIMB,127.8,80,-47.8,202.75,30.74,16.72,3.53,91.04,0.042,0.78,0,0,0,0,0,0,0,0,0,90.4,8,0,1,13.17,0,0,11.82,90.4,-0.7292,-0.0067,-0.6842,11.56,90.4,0,0,0,0,0,0,0,0,90.4,1,0,0.643,0,0,3,0,0,0,10,-1.567,0,0,0,0,0,0,VALID,0,0,0,0,0,1,0,0,0,0,0,0,0,0,0,0,0,0,0,0,26.59,34.02,2,0,0.72,0.5,67,1.39,0.72,0.68,50.1,FLYING
51.68,TAKEOFF,TO_CLIMB,127.73,80,-47.73,225.15,32.86,17.06,2.63,91.18,0.109,0.78,0,0,0,0,0,0,0,0,0,90.4,8,0,1,14.33,0,0,11.57,90.4,-0.7185,-0.0067,-0.6955,10.68,90.4,0,0,0,0,0,0,0,0,90.4,1,0,0.778,0,0,3,0,0,0,10,-1.567,0,0,0,0,0,0,VALID,0,0,0,0,0,1,0,0,0,0,0,0,0,0,0,0,0,0,0,0,26.53,33.96,2,0,0.7,0.5,68,1.43,0.72,0.7,50.8,FLYING
52.38,TAKEOFF,TO_CLIMB,127.7,80,-47.7,248.17,32.86,16.65,2.22,91.28,0.129,0.78,0,0,0,0,0,0,0,0,0,90.4,8,0,1,14.46,0,0,10.69,90.4,-0.713,-0.0067,-0.7012,10.23,90.4,0,0,0,0,0,0,0,0,90.4,1,0,0.882,0,0,3,0,0,0,10,-1.567,0,0,0,0,0,0,VALID,0,0,0,0,0,1,0,0,0,0,0,0,0,0,0,0,0,0,0,0,26.47,33.9,2,0,0.7,0.5,69,1.43,0.7,0.7,51.5,FLYING
53.08,TAKEOFF,TO_CLIMB,127.72,80,-47.72,270.76,31.9,15.95,1.81,91.37,0.144,0.78,0,0,0,0,0,0,0,0,0,90.4,8,0,1,14.16,0,0,10.24,90.4,-0.7079,-0.0067,-0.7063,9.83,90.4,0,0,0,0,0,0,0,0,90.4,1,0,0.968,0,0,3,0,0,0,10,-1.567,0,0,0,0,0,0,VALID,0,0,0,0,0,1,0,0,0,0,0,0,0,0,0,0,0,0,0,0,26.42,33.85,2,0,0.7,0.5,70,1.43,0.7,0.7,52.2,FLYING
53.78,TAKEOFF,TO_CLIMB,127.85,80,-47.85,292.3,29.96,14.85,1.62,91.43,0.154,0.78,0,0,0,0,0,0,0,0,0,90.4,8,0,1,13.39,0,0,9.84,90.4,-0.7052,-0.0068,-0.709,9.62,90.4,0,0,0,0,0,0,0,0,90.4,1,0,1.026,0,0,3,0,0,0,10,-1.567,0,0,0,0,0,0,VALID,0,0,0,0,0,1,0,0,0,0,0,0,0,0,0,0,0,0,0,0,26.37,33.79,2,0,0.7,0.5,71,1.43,0.7,0.7,52.9,FLYING
54.48,DONE,,128.12,80,-48.12,312.84,27.52,13.65,1.44,91.45,0.159,0.78,0,0,0,0,0,0,0,0,0,90.4,8,0,1,12.42,0,0,9.63,90.4,-0.7029,-0.0068,-0.7113,9.44,90.4,0,0,0,0,0,0,0,0,90.4,1,0,1.053,0,0,3,0,0,0,10,-1.567,0,0,0,0,0,0,VALID,0,0,0,0,0,1,0,0,0,0,0,0,0,0,0,0,0,0,0,0,26.32,33.73,2,0,0.7,0.5,72,1.39,0.7,0.7,0.08,FLYING
# end T+54.9  IAS 128.4 m/s
