t_s,phase,subphase,ias_ms,vapp_ms,spd_err_ms,agl_m,vs_ms,pitch_deg,aoa_deg,hdg_deg,bank_deg,thr_cmd,thr_cur,thr_intg,at_gain,at_tau_s,at_a_up,at_a_dn,at_kp_thr,at_ki_spd,at_thr_slew,aa_hdg_cmd_deg,aa_fpa_cmd_deg,aa_fbw,aa_dir,actual_fpa_deg,ftf_hdg_err_deg,ftf_fix_idx,kos_steer_pit_deg,kos_steer_hdg_deg,aa_dir_vx,aa_dir_vy,aa_dir_vz,aa_dir_pitch_deg,aa_dir_hdg_deg,ils_loc_m,ils_gs_m,ils_dist_km,loc_corr_deg,gs_corr_deg,flare_fpa_cmd,flare_tgt_vs,flare_frac,steer_hdg_deg,steer_blend,ro_loc_corr_deg,ro_hdg_err_deg,ro_yaw_tgt,ro_yaw_scale,ro_yaw_gate,yaw_cmd,roll_cmd,pitch_cmd,ro_pitch_tgt_deg,ro_pitch_err_deg,ro_pitch_ff,ro_roll_assist,flaps_cur,flaps_tgt,asc_j_ab,asc_j_rk,asc_validity,asc_q_pa,asc_q_raw_pa,asc_mach,asc_apo_m,asc_drag_n,asc_w_prop,asc_edot_aero,asc_edot_orb,asc_pitch_bias,asc_blend,asc_spooling,asc_ab_thr_ratio,asc_ab_t_now,asc_ab_t_avail,asc_ab_ign_on,asc_ab_flameouts,asc_rk_t_now,asc_rk_t_avail,asc_rk_ign_on,asc_rk_flameouts,ship_thrust,ship_avail_thrust,ship_ign_on,ship_flameouts,ifc_raw_dt_s,ifc_dt_s,ifc_loop_n,ifc_hz_est,ifc_raw_dt_max_s,ifc_raw_dt_min_s,phase_el_s,status,craft_name,cfg_file
0.1,APPROACH,ILS_TRACK,74.75,73,-1.75,2247.56,-9.16,5.57,11.5,271.78,3.162,0,0,0,0,0,0,0,0,0,0,0,0,1,0,-6.99,0,0,0,90,0,0,0,0,0,0,0,33.758,0,0,0,0,0,271.8,0,0,0,0,0,0,0,0,0,0,0,0,0,0,0,0,0,VALID,0,0,0,0,0,1,0,0,0,0,0,0,0,0,0,0,0,0,0,0,208.47,362.62,2,0,0.1,0.1,1,3.7,0.1,0.02,0.1,FLYING,CF1-F,0:/Integrated Flight Computer/aircraft/cf1_f_cfg.ks (inferred preloaded)
0.4,APPROACH,ILS_TRACK,75.32,73,-2.32,2244.98,-8.62,6.07,11.66,271.72,3.07,0,0,0,1,0.6,1.018,0.75,0.35,0.0168,0.4,270,-5.036,0,1,-6.56,0,0,6.68,270.04,0.7868,-0.0002,0.6172,6.64,270,0.73,407.28,33.733,-0.402,0,0,0,0,271.8,0,0,0,0,0,0,0,0,0,0,0,0,0,1,1,0,0,VALID,0,0,0,0,0,1,0,0,0,0,0,0,0,0,0,0,0,0,0,0,193.24,362.37,2,0,0.08,0.08,4,10,0.1,0.08,0.4,FLYING,CF1-F,0:/Integrated Flight Computer/aircraft/cf1_f_cfg.ks (inferred preloaded)
0.66,APPROACH,ILS_TRACK,75.73,73,-2.73,2242.76,-8.09,5.83,11.07,271.8,2.467,0,0,0,1,0.6,1.81,0.75,0.35,0.0168,0.4,269.97,-5.031,0,1,-6.14,0,0,6.44,270.02,0.7924,-0.0007,0.61,6.12,269.97,1.12,406.26,33.71,-0.433,0,0,0,0,271.8,0,0,0,0,0,0,0,0,0,0,0,0,0,1,1,0,0,VALID,0,0,0,0,0,1,0,0,0,0,0,0,0,0,0,0,0,0,0,0,180.96,362.2,2,0,0.1,0.1,7,11.54,0.1,0.06,0.66,FLYING,CF1-F,0:/Integrated Flight Computer/aircraft/cf1_f_cfg.ks (inferred preloaded)
1,APPROACH,ILS_TRACK,76.23,73,-3.23,2239.74,-7.79,3.91,8.88,271.98,1.746,0,0,0,1,0.6,2.6,0.75,0.35,0.0168,0.4,269.91,-5.024,0,1,-5.83,0,0,4.64,269.94,0.8146,-0.0017,0.58,3.99,269.91,1.67,404.83,33.68,-0.49,0,0,0,0,271.8,0,0,0,0,0,0,0,0,0,0,0,0,0,1,1,0,0,VALID,0,0,0,0,0,1,0,0,0,0,0,0,0,0,0,0,0,0,0,0,166.08,361.99,2,0,0.1,0.1,11,11.76,0.1,0.06,1,FLYING,CF1-F,0:/Integrated Flight Computer/aircraft/cf1_f_cfg.ks (inferred preloaded)
1.32,APPROACH,ILS_TRACK,76.78,73,-3.78,2236.9,-8.11,2.04,7.16,271.86,1.416,0,0,0,1,0.6,3.165,0.75,0.35,0.0168,0.4,269.84,-5.017,0,1,-6.01,0,0,2.67,269.85,0.8322,-0.0029,0.5545,2.22,269.84,2.25,403.49,33.651,-0.561,0,0,0,0,271.8,0,0,0,0,0,0,0,0,0,0,0,0,0,1,1,0,0,VALID,0,0,0,0,0,1,0,0,0,0,0,0,0,0,0,0,0,0,0,0,153.18,361.75,2,0,0.1,0.1,15,12.5,0.1,0.06,1.32,FLYING,CF1-F,0:/Integrated Flight Computer/aircraft/cf1_f_cfg.ks (inferred preloaded)
1.66,APPROACH,ILS_TRACK,77.38,73,-4.38,2233.96,-8.81,1.63,7.15,271.75,0.994,0,0,0,1,0.6,3.568,0.75,0.35,0.0168,0.4,269.8,-5.011,0,1,-6.47,0,0,1.93,269.83,0.8334,-0.0035,0.5527,2.09,269.8,2.89,402.15,33.621,-0.598,0,0,0,0,271.8,0,0,0,0,0,0,0,0,0,0,0,0,0,1,1,0,0,VALID,0,0,0,0,0,1,0,0,0,0,0,0,0,0,0,0,0,0,0,0,140.57,361.49,2,0,0.1,0.1,19,11.76,0.1,0.06,1.66,FLYING,CF1-F,0:/Integrated Flight Computer/aircraft/cf1_f_cfg.ks (inferred preloaded)
2,APPROACH,ILS_TRACK,77.92,73,-4.92,2231.04,-9.16,2.42,8.13,271.73,0.738,0,0,0,1,0.6,3.857,0.75,0.35,0.0168,0.4,269.77,-5.004,0,1,-6.69,0,0,2.74,269.78,0.8241,-0.0041,0.5665,3.05,269.77,3.56,400.84,33.59,-0.633,0,0,0,0,271.8,0,0,0,0,0,0,0,0,0,0,0,0,0,1,1,0,0,VALID,0,0,0,0,0,1,0,0,0,0,0,0,0,0,0,0,0,0,0,0,129.01,361.27,2,0,0.1,0.1,23,11.76,0.1,0.06,2,FLYING,CF1-F,0:/Integrated Flight Computer/aircraft/cf1_f_cfg.ks (inferred preloaded)
2.32,APPROACH,ILS_TRACK,78.31,73,-5.31,2228.39,-9.15,4.08,9.79,271.81,0.913,0,0,0,1,0.6,4.063,0.75,0.35,0.0168,0.4,269.73,-4.999,0,1,-6.69,0,0,4.09,269.75,0.8077,-0.0047,0.5896,4.68,269.73,4.18,399.71,33.561,-0.666,0,0,0,0,271.8,0,0,0,0,0,0,0,0,0,0,0,0,0,1,1,0,0,VALID,0,0,0,0,0,1,0,0,0,0,0,0,0,0,0,0,0,0,0,0,119.02,361.14,2,0,0.1,0.1,27,12.5,0.1,0.06,2.32,FLYING,CF1-F,0:/Integrated Flight Computer/aircraft/cf1_f_cfg.ks (inferred preloaded)
2.66,APPROACH,ILS_TRACK,78.57,73,-5.57,2225.67,-8.49,5.8,11.1,271.82,0.512,0,0,0,1,0.6,4.21,0.75,0.35,0.0168,0.4,269.68,-4.993,0,1,-6.21,0,0,5.78,269.7,0.7932,-0.0057,0.609,6.07,269.68,4.89,398.61,33.53,-0.718,0,0,0,0,271.8,0,0,0,0,0,0,0,0,0,0,0,0,0,1,1,0,0,VALID,0,0,0,0,0,1,0,0,0,0,0,0,0,0,0,0,0,0,0,0,109.29,361.11,2,0,0.1,0.1,31,11.76,0.1,0.06,2.66,FLYING,CF1-F,0:/Integrated Flight Computer/aircraft/cf1_f_cfg.ks (inferred preloaded)
2.98,APPROACH,ILS_TRACK,78.67,73,-5.67,2223.16,-7.68,6.28,11.07,271.78,0.339,0,0,0,1,0.6,4.316,0.75,0.35,0.0168,0.4,269.66,-4.988,0,1,-5.61,0,0,6.18,269.67,0.7929,-0.006,0.6094,6.1,269.66,5.55,397.64,33.5,-0.741,0,0,0,0,271.8,0,0,0,0,0,0,0,0,0,0,0,0,0,1,1,0,0,VALID,0,0,0,0,0,1,0,0,0,0,0,0,0,0,0,0,0,0,0,0,100.88,361.16,2,0,0.1,0.1,35,12.5,0.1,0.06,2.98,FLYING,CF1-F,0:/Integrated Flight Computer/aircraft/cf1_f_cfg.ks (inferred preloaded)
3.32,APPROACH,ILS_TRACK,78.71,73,-5.71,2220.72,-6.98,6.5,10.85,271.75,0.035,0,0,0,1,0.6,4.392,0.75,0.35,0.0168,0.4,269.61,-4.984,0,1,-5.1,0,0,5.93,269.61,0.7953,-0.0069,0.6062,5.87,269.61,6.28,396.81,33.469,-0.788,0,0,0,0,271.8,0,0,0,0,0,0,0,0,0,0,0,0,0,1,1,0,0,VALID,0,0,0,0,0,1,0,0,0,0,0,0,0,0,0,0,0,0,0,0,92.66,361.24,2,0,0.1,0.1,39,11.76,0.1,0.06,3.32,FLYING,CF1-F,0:/Integrated Flight Computer/aircraft/cf1_f_cfg.ks (inferred preloaded)
3.66,APPROACH,ILS_TRACK,78.71,73,-5.71,2218.51,-6.31,6.74,10.67,271.67,-0.369,0,0,0,1,0.6,4.446,0.75,0.35,0.0168,0.4,269.57,-4.981,0,1,-4.61,0,0,5.75,269.6,0.7971,-0.0076,0.6037,5.7,269.57,7.01,396.23,33.438,-0.831,0,0,0,0,271.8,0,0,0,0,0,0,0,0,0,0,0,0,0,1,1,0,0,VALID,0,0,0,0,0,1,0,0,0,0,0,0,0,0,0,0,0,0,0,0,85.11,361.34,2,0,0.1,0.1,43,11.76,0.1,0.06,3.66,FLYING,CF1-F,0:/Integrated Flight Computer/aircraft/cf1_f_cfg.ks (inferred preloaded)
3.98,APPROACH,ILS_TRACK,78.66,73,-5.66,2216.63,-5.72,6.98,10.55,271.59,-0.683,0,0,0,1,0.6,4.486,0.75,0.35,0.0168,0.4,269.55,-4.979,0,1,-4.18,0,0,5.61,269.58,0.7985,-0.0079,0.6019,5.57,269.55,7.69,395.88,33.409,-0.846,0,0,0,0,271.8,0,0,0,0,0,0,0,0,0,0,0,0,0,1,1,0,0,VALID,0,0,0,0,0,1,0,0,0,0,0,0,0,0,0,0,0,0,0,0,78.58,361.46,2,0,0.1,0.1,47,12.5,0.1,0.06,3.98,FLYING,CF1-F,0:/Integrated Flight Computer/aircraft/cf1_f_cfg.ks (inferred preloaded)
4.3,APPROACH,ILS_TRACK,78.58,73,-5.58,2214.95,-5.16,7.25,10.48,271.51,-0.941,0,0,0,1,0.6,4.5,0.75,0.35,0.0168,0.4,269.54,-4.979,0,1,-3.78,0,0,5.52,269.57,0.7993,-0.0081,0.6009,5.5,269.54,8.35,395.72,33.379,-0.858,0,0,0,0,271.8,0,0,0,0,0,0,0,0,0,0,0,0,0,1,1,0,0,VALID,0,0,0,0,0,1,0,0,0,0,0,0,0,0,0,0,0,0,0,0,72.55,361.59,2,0,0.1,0.1,51,12.5,0.1,0.06,4.3,FLYING,CF1-F,0:/Integrated Flight Computer/aircraft/cf1_f_cfg.ks (inferred preloaded)
4.64,APPROACH,ILS_TRACK,78.45,73,-5.45,2213.34,-4.61,7.56,10.45,271.42,-1.16,0,0,0,1,0.6,4.5,0.75,0.35,0.0168,0.4,269.54,-4.979,0,1,-3.38,0,0,5.47,269.56,0.7997,-0.0082,0.6004,5.47,269.54,9.03,395.74,33.348,-0.864,0,0,0,0,271.8,0,0,0,0,0,0,0,0,0,0,0,0,0,1,1,0,0,VALID,0,0,0,0,0,1,0,0,0,0,0,0,0,0,0,0,0,0,0,0,66.65,361.75,2,0,0.1,0.1,55,11.76,0.1,0.06,4.64,FLYING,CF1-F,0:/Integrated Flight Computer/aircraft/cf1_f_cfg.ks (inferred preloaded)
4.98,APPROACH,ILS_TRACK,78.28,73,-5.28,2211.93,-4.07,7.85,10.4,271.34,-1.33,0,0,0,1,0.6,4.5,0.75,0.35,0.0168,0.4,269.54,-4.98,0,1,-2.99,0,0,5.45,269.55,0.8001,-0.0081,0.5998,5.43,269.54,9.68,395.94,33.317,-0.862,0,0,0,0,271.8,0,0,0,0,0,0,0,0,0,0,0,0,0,1,1,0,0,VALID,0,0,0,0,0,1,0,0,0,0,0,0,0,0,0,0,0,0,0,0,61.24,361.93,2,0,0.1,0.1,59,11.76,0.1,0.06,4.98,FLYING,CF1-F,0:/Integrated Flight Computer/aircraft/cf1_f_cfg.ks (inferred preloaded)
5.3,APPROACH,ILS_TRACK,78.09,73,-5.09,2210.77,-3.59,8.22,10.48,271.26,-1.452,0,0,0,1,0.6,4.5,0.75,0.35,0.0168,0.4,269.53,-4.981,0,1,-2.65,0,0,5.49,269.54,0.7993,-0.0082,0.6008,5.5,269.53,10.27,396.3,33.288,-0.868,0,0,0,0,271.8,0,0,0,0,0,0,0,0,0,0,0,0,0,1,1,0,0,VALID,0,0,0,0,0,1,0,0,0,0,0,0,0,0,0,0,0,0,0,0,56.55,362.11,2,0,0.1,0.1,63,12.5,0.1,0.06,5.3,FLYING,CF1-F,0:/Integrated Flight Computer/aircraft/cf1_f_cfg.ks (inferred preloaded)
5.64,APPROACH,ILS_TRACK,77.85,73,-4.85,2209.68,-3.12,8.49,10.47,271.18,-1.549,0,0,0,1,0.6,4.5,0.75,0.35,0.0168,0.4,269.54,-4.984,0,1,-2.32,0,0,5.44,269.55,0.7997,-0.0081,0.6003,5.47,269.54,10.86,396.83,33.257,-0.86,0,0,0,0,271.8,0,0,0,0,0,0,0,0,0,0,0,0,0,1,1,0,0,VALID,0,0,0,0,0,1,0,0,0,0,0,0,0,0,0,0,0,0,0,0,51.96,362.31,2,0,0.1,0.1,67,11.76,0.1,0.06,5.64,FLYING,CF1-F,0:/Integrated Flight Computer/aircraft/cf1_f_cfg.ks (inferred preloaded)
5.98,APPROACH,ILS_TRACK,77.58,73,-4.58,2208.77,-2.64,8.84,10.51,271.1,-1.616,0,0,0,1,0.6,4.5,0.75,0.35,0.0168,0.4,269.55,-4.988,0,1,-1.96,0,0,5.54,269.56,0.7992,-0.0079,0.601,5.52,269.55,11.41,397.52,33.226,-0.848,0,0,0,0,271.8,0,0,0,0,0,0,0,0,0,0,0,0,0,1,1,0,0,VALID,0,0,0,0,0,1,0,0,0,0,0,0,0,0,0,0,0,0,0,0,47.74,362.54,2,0,0.1,0.1,71,11.76,0.1,0.06,5.98,FLYING,CF1-F,0:/Integrated Flight Computer/aircraft/cf1_f_cfg.ks (inferred preloaded)
6.32,APPROACH,ILS_TRACK,77.28,73,-4.28,2208.01,-2.19,9.2,10.61,271.02,-1.654,0.0023,0,-1.494,1,0.6,4.5,0.75,0.35,0.0168,0.4,269.55,-4.992,0,1,-1.65,0,0,5.59,269.56,0.7983,-0.0079,0.6022,5.61,269.55,11.93,398.37,33.195,-0.847,0,0,0,0,271.8,0,0,0,0,0,0,0,0,0,0,0,0,0,1,1,0,0,VALID,0,0,0,0,0,1,0,0,0,0,0,0,0,0,0,0,0,0,0,0,43.88,362.77,2,0,0.1,0.1,75,11.76,0.1,0.06,6.32,FLYING,CF1-F,0:/Integrated Flight Computer/aircraft/cf1_f_cfg.ks (inferred preloaded)
6.66,APPROACH,ILS_TRACK,76.95,73,-3.95,2207.4,-1.75,9.52,10.66,270.95,-1.668,0.0117,0,-2.879,1,0.6,4.5,0.75,0.35,0.0168,0.4,269.56,-4.997,0,1,-1.32,0,0,5.66,269.58,0.7978,-0.0078,0.6029,5.67,269.56,12.41,399.35,33.165,-0.842,0,0,0,0,271.8,0,0,0,0,0,0,0,0,0,0,0,0,0,1,1,0,0,VALID,0,0,0,0,0,1,0,0,0,0,0,0,0,0,0,0,0,0,0,0,40.47,363.02,2,0,0.1,0.1,79,11.76,0.1,0.06,6.66,FLYING,CF1-F,0:/Integrated Flight Computer/aircraft/cf1_f_cfg.ks (inferred preloaded)
6.92,APPROACH,ILS_TRACK,76.68,73,-3.68,2207.01,-1.47,9.67,10.62,270.9,-1.659,0.0221,0,-3.858,1,0.6,4.5,0.75,0.35,0.0168,0.4,269.57,-5.001,0,1,-1.12,0,0,5.6,269.57,0.7984,-0.0076,0.6021,5.61,269.57,12.75,400.18,33.141,-0.833,0,0,0,0,271.8,0,0,0,0,0,0,0,0,0,0,0,0,0,1,1,0,0,VALID,0,0,0,0,0,1,0,0,0,0,0,0,0,0,0,0,0,0,0,0,38.24,363.22,2,0,0.08,0.08,82,11.54,0.1,0.08,6.92,FLYING,CF1-F,0:/Integrated Flight Computer/aircraft/cf1_f_cfg.ks (inferred preloaded)
7.18,APPROACH,ILS_TRACK,76.39,73,-3.39,2206.72,-1.18,9.96,10.74,270.85,-1.642,0.0455,0,-4.764,1,0.6,4.5,0.75,0.35,0.0168,0.4,269.58,-5.005,0,1,-0.9,0,0,5.69,269.59,0.7972,-0.0074,0.6037,5.73,269.58,13.06,401.1,33.118,-0.82,0,0,0,0,271.8,0,0,0,0,0,0,0,0,0,0,0,0,0,1,1,0,0,VALID,0,0,0,0,0,1,0,0,0,0,0,0,0,0,0,0,0,0,0,0,36.46,363.42,2,0,0.1,0.1,85,11.54,0.1,0.06,7.18,FLYING,CF1-F,0:/Integrated Flight Computer/aircraft/cf1_f_cfg.ks (inferred preloaded)
7.44,APPROACH,ILS_TRACK,76.09,73,-3.09,2206.5,-0.91,10.22,10.82,270.8,-1.618,0.071,0,-5.595,1,0.6,4.5,0.75,0.35,0.0168,0.4,269.59,-5.01,0,1,-0.7,0,0,5.78,269.59,0.7964,-0.0073,0.6047,5.8,269.59,13.35,402.08,33.095,-0.815,0,0,0,0,271.8,0,0,0,0,0,0,0,0,0,0,0,0,0,1,1,0,0,VALID,0,0,0,0,0,1,0,0,0,0,0,0,0,0,0,0,0,0,0,0,35.33,363.62,2,0,0.08,0.08,88,11.54,0.1,0.08,7.44,FLYING,CF1-F,0:/Integrated Flight Computer/aircraft/cf1_f_cfg.ks (inferred preloaded)
7.7,APPROACH,ILS_TRACK,75.79,73,-2.79,2206.35,-0.63,10.49,10.92,270.75,-1.589,0.097,0,-6.345,1,0.6,4.5,0.75,0.35,0.0168,0.4,269.6,-5.016,0,1,-0.5,0,0,5.86,269.61,0.7955,-0.0071,0.606,5.89,269.6,13.62,403.13,33.072,-0.799,0,0,0,0,271.8,0,0,0,0,0,0,0,0,0,0,0,0,0,1,1,0,0,VALID,0,0,0,0,0,1,0,0,0,0,0,0,0,0,0,0,0,0,0,0,34.86,363.84,2,0,0.1,0.1,91,11.54,0.1,0.06,7.7,FLYING,CF1-F,0:/Integrated Flight Computer/aircraft/cf1_f_cfg.ks (inferred preloaded)
7.96,APPROACH,ILS_TRACK,75.47,73,-2.47,2206.26,-0.37,10.76,11.02,270.7,-1.555,0.1227,0,-7.014,1,0.6,4.5,0.75,0.35,0.0168,0.4,269.62,-5.021,0,1,-0.3,0,0,5.96,269.61,0.7945,-0.0068,0.6072,5.99,269.62,13.87,404.25,33.049,-0.782,0,0,0,0,271.8,0,0,0,0,0,0,0,0,0,0,0,0,0,1,1,0,0,VALID,0,0,0,0,0,1,0,0,0,0,0,0,0,0,0,0,0,0,0,0,34.89,364.05,2,0,0.08,0.08,94,11.54,0.1,0.08,7.96,FLYING,CF1-F,0:/Integrated Flight Computer/aircraft/cf1_f_cfg.ks (inferred preloaded)
8.22,APPROACH,ILS_TRACK,75.14,73,-2.14,2206.25,-0.12,11.03,11.12,270.66,-1.516,0.1482,0,-7.599,1,0.6,4.5,0.75,0.35,0.0168,0.4,269.62,-5.027,0,1,-0.1,0,0,6.05,269.63,0.7935,-0.0068,0.6085,6.08,269.62,14.1,405.42,33.026,-0.783,0,0,0,0,271.8,0,0,0,0,0,0,0,0,0,0,0,0,0,1,1,0,0,VALID,0,0,0,0,0,1,0,0,0,0,0,0,0,0,0,0,0,0,0,0,35.09,364.27,2,0,0.1,0.1,97,11.54,0.1,0.06,8.22,FLYING,CF1-F,0:/Integrated Flight Computer/aircraft/cf1_f_cfg.ks (inferred preloaded)
8.48,APPROACH,ILS_TRACK,74.81,73,-1.81,2206.3,0.13,11.3,11.23,270.61,-1.474,0.1742,0,-8.098,1,0.6,4.5,0.75,0.35,0.0168,0.4,269.64,-5.033,0,1,0.09,0,0,6.16,269.63,0.7924,-0.0064,0.61,6.19,269.64,14.31,406.66,33.003,-0.762,0,0,0,0,271.8,0,0,0,0,0,0,0,0,0,0,0,0,0,1,1,0,0,VALID,0,0,0,0,0,1,0,0,0,0,0,0,0,0,0,0,0,0,0,0,35.43,364.48,2,0,0.08,0.08,100,11.54,0.1,0.08,8.48,FLYING,CF1-F,0:/Integrated Flight Computer/aircraft/cf1_f_cfg.ks (inferred preloaded)
8.74,APPROACH,ILS_TRACK,74.47,73,-1.47,2206.41,0.37,11.58,11.35,270.57,-1.43,0.2013,0,-8.509,1,0.6,4.5,0.75,0.35,0.0168,0.4,269.64,-5.04,0,1,0.27,0,0,6.26,269.64,0.7912,-0.0064,0.6115,6.3,269.64,14.5,407.96,32.981,-0.763,0,0,0,0,271.8,0,0,0,0,0,0,0,0,0,0,0,0,0,1,1,0,0,VALID,0,0,0,0,0,1,0,0,0,0,0,0,0,0,0,0,0,0,0,0,35.91,364.7,2,0,0.1,0.1,103,11.54,0.1,0.06,8.74,FLYING,CF1-F,0:/Integrated Flight Computer/aircraft/cf1_f_cfg.ks (inferred preloaded)
9,APPROACH,ILS_TRACK,74.12,73,-1.12,2206.59,0.61,11.86,11.47,270.53,-1.384,0.2295,0,-8.831,1,0.6,4.5,0.75,0.35,0.0168,0.4,269.66,-5.047,0,1,0.46,0,0,6.38,269.64,0.79,-0.006,0.613,6.42,269.66,14.67,409.32,32.958,-0.74,0,0,0,0,271.8,0,0,0,0,0,0,0,0,0,0,0,0,0,1,1,0,0,VALID,0,0,0,0,0,1,0,0,0,0,0,0,0,0,0,0,0,0,0,0,36.54,364.92,2,0,0.08,0.08,106,11.54,0.1,0.08,9,FLYING,CF1-F,0:/Integrated Flight Computer/aircraft/cf1_f_cfg.ks (inferred preloaded)
9.26,APPROACH,ILS_TRACK,73.77,73,-0.77,2206.83,0.84,12.14,11.6,270.49,-1.336,0.2589,0,-9.061,1,0.6,4.5,0.75,0.35,0.0168,0.4,269.67,-5.054,0,1,0.64,0,0,6.49,269.66,0.7888,-0.0059,0.6146,6.54,269.67,14.81,410.73,32.936,-0.731,0,0,0,0,271.8,0,0,0,0,0,0,0,0,0,0,0,0,0,1,1,0,0,VALID,0,0,0,0,0,1,0,0,0,0,0,0,0,0,0,0,0,0,0,0,37.33,365.15,2,0,0.1,0.1,109,11.54,0.1,0.06,9.26,FLYING,CF1-F,0:/Integrated Flight Computer/aircraft/cf1_f_cfg.ks (inferred preloaded)
9.52,APPROACH,ILS_TRACK,73.41,73,-0.41,2207.13,1.07,12.42,11.73,270.46,-1.287,0.2895,0,-9.199,1,0.6,4.5,0.75,0.35,0.0168,0.4,269.68,-5.061,0,1,0.82,0,0,6.62,269.68,0.7875,-0.0058,0.6163,6.66,269.68,14.95,412.19,32.913,-0.725,0,0,0,0,271.8,0,0,0,0,0,0,0,0,0,0,0,0,0,1,1,0,0,VALID,0,0,0,0,0,1,0,0,0,0,0,0,0,0,0,0,0,0,0,0,38.26,365.37,2,0,0.08,0.08,112,11.54,0.1,0.08,9.52,FLYING,CF1-F,0:/Integrated Flight Computer/aircraft/cf1_f_cfg.ks (inferred preloaded)
9.78,APPROACH,ILS_TRACK,73.05,73,-0.05,2207.49,1.29,12.71,11.86,270.42,-1.238,0.3212,0,-9.244,1,0.6,4.5,0.75,0.35,0.0168,0.4,269.69,-5.069,0,1,1,0,0,6.73,269.69,0.7862,-0.0055,0.618,6.78,269.69,15.06,413.71,32.891,-0.711,0,0,0,0,271.8,0,0,0,0,0,0,0,0,0,0,0,0,0,1,1,0,0,VALID,0,0,0,0,0,1,0,0,0,0,0,0,0,0,0,0,0,0,0,0,39.37,365.59,2,0,0.1,0.1,115,11.54,0.1,0.06,9.78,FLYING,CF1-F,0:/Integrated Flight Computer/aircraft/cf1_f_cfg.ks (inferred preloaded)
10.04,APPROACH,ILS_TRACK,72.69,73,0.31,2207.9,1.5,13,12,270.39,-1.187,0.3541,0,-9.193,1,0.6,4.5,0.75,0.35,0.0168,0.4,269.72,-5.076,0,1,1.17,0,0,6.88,269.68,0.7848,-0.005,0.6198,6.91,269.72,15.16,415.28,32.869,-0.679,0,0,0,0,271.8,0,0,0,0,0,0,0,0,0,0,0,0,0,1,1,0,0,VALID,0,0,0,0,0,1,0,0,0,0,0,0,0,0,0,0,0,0,0,0,40.63,365.82,2,0,0.08,0.08,118,11.54,0.1,0.08,10.04,FLYING,CF1-F,0:/Integrated Flight Computer/aircraft/cf1_f_cfg.ks (inferred preloaded)
10.3,APPROACH,ILS_TRACK,72.32,73,0.68,2208.37,1.71,13.29,12.15,270.36,-1.137,0.3882,0,-9.047,1,0.6,4.5,0.75,0.35,0.0168,0.4,269.72,-5.084,0,1,1.34,0,0,7,269.72,0.7833,-0.005,0.6216,7.05,269.72,15.24,416.9,32.847,-0.68,0,0,0,0,271.8,0,0,0,0,0,0,0,0,0,0,0,0,0,1,1,0,0,VALID,0,0,0,0,0,1,0,0,0,0,0,0,0,0,0,0,0,0,0,0,42.07,366.04,2,0,0.1,0.1,121,11.54,0.1,0.06,10.3,FLYING,CF1-F,0:/Integrated Flight Computer/aircraft/cf1_f_cfg.ks (inferred preloaded)
10.56,APPROACH,ILS_TRACK,71.94,73,1.06,2208.9,1.92,13.58,12.3,270.33,-1.087,0.4235,0,-8.804,1,0.6,4.5,0.75,0.35,0.0168,0.4,269.74,-5.093,0,1,1.51,0,0,7.15,269.72,0.7818,-0.0046,0.6235,7.19,269.74,15.31,418.57,32.825,-0.659,0,0,0,0,271.8,0,0,0,0,0,0,0,0,0,0,0,0,0,1,1,0,0,VALID,0,0,0,0,0,1,0,0,0,0,0,0,0,0,0,0,0,0,0,0,43.68,366.26,2,0,0.08,0.08,124,11.54,0.1,0.08,10.56,FLYING,CF1-F,0:/Integrated Flight Computer/aircraft/cf1_f_cfg.ks (inferred preloaded)
10.82,APPROACH,ILS_TRACK,71.57,73,1.43,2209.47,2.12,13.88,12.45,270.3,-1.038,0.46,0,-8.463,1,0.6,4.5,0.75,0.35,0.0168,0.4,269.74,-5.101,0,1,1.68,0,0,7.28,269.74,0.7802,-0.0046,0.6255,7.34,269.74,15.36,420.28,32.803,-0.655,0,0,0,0,271.8,0,0,0,0,0,0,0,0,0,0,0,0,0,1,1,0,0,VALID,0,0,0,0,0,1,0,0,0,0,0,0,0,0,0,0,0,0,0,0,45.47,366.48,2,0,0.1,0.1,127,11.54,0.1,0.06,10.82,FLYING,CF1-F,0:/Integrated Flight Computer/aircraft/cf1_f_cfg.ks (inferred preloaded)
11.08,APPROACH,ILS_TRACK,71.19,73,1.81,2210.1,2.32,14.18,12.61,270.27,-0.99,0.4975,0,-8.025,1,0.6,4.5,0.75,0.35,0.0168,0.4,269.73,-5.11,0,1,1.85,0,0,7.44,269.76,0.7787,-0.0048,0.6274,7.48,269.73,15.4,422.04,32.782,-0.668,0,0,0,0,271.8,0,0,0,0,0,0,0,0,0,0,0,0,0,1,1,0,0,VALID,0,0,0,0,0,1,0,0,0,0,0,0,0,0,0,0,0,0,0,0,47.44,366.7,2,0,0.08,0.08,130,11.54,0.1,0.08,11.08,FLYING,CF1-F,0:/Integrated Flight Computer/aircraft/cf1_f_cfg.ks (inferred preloaded)
11.34,APPROACH,ILS_TRACK,70.81,73,2.19,2210.78,2.51,14.48,12.76,270.25,-0.942,0.536,0,-7.487,1,0.6,4.5,0.75,0.35,0.0168,0.4,269.75,-5.119,0,1,2.02,0,0,7.57,269.78,0.7771,-0.0046,0.6294,7.63,269.75,15.43,423.85,32.76,-0.654,0,0,0,0,271.8,0,0,0,0,0,0,0,0,0,0,0,0,0,1,1,0,0,VALID,0,0,0,0,0,1,0,0,0,0,0,0,0,0,0,0,0,0,0,0,49.6,366.92,2,0,0.1,0.1,133,11.54,0.1,0.06,11.34,FLYING,CF1-F,0:/Integrated Flight Computer/aircraft/cf1_f_cfg.ks (inferred preloaded)
11.6,APPROACH,ILS_TRACK,70.43,73,2.57,2211.51,2.7,14.78,12.92,270.22,-0.895,0.5754,0,-6.851,1,0.6,4.5,0.75,0.35,0.0168,0.4,269.77,-5.129,0,1,2.18,0,0,7.74,269.77,0.7755,-0.0041,0.6314,7.78,269.77,15.44,425.7,32.739,-0.629,0,0,0,0,271.8,0,0,0,0,0,0,0,0,0,0,0,0,0,1,1,0,0,VALID,0,0,0,0,0,1,0,0,0,0,0,0,0,0,0,0,0,0,0,0,51.95,367.14,2,0,0.08,0.08,136,11.54,0.1,0.08,11.6,FLYING,CF1-F,0:/Integrated Flight Computer/aircraft/cf1_f_cfg.ks (inferred preloaded)
11.86,APPROACH,ILS_TRACK,70.05,73,2.95,2212.29,2.89,15.08,13.08,270.2,-0.849,0.6156,0,-6.115,1,0.6,4.5,0.75,0.35,0.0168,0.4,269.77,-5.138,0,1,2.35,0,0,7.87,269.79,0.7738,-0.0042,0.6334,7.93,269.77,15.45,427.6,32.717,-0.631,0,0,0,0,271.8,0,0,0,0,0,0,0,0,0,0,0,0,0,1,1,0,0,VALID,0,0,0,0,0,1,0,0,0,0,0,0,0,0,0,0,0,0,0,0,54.49,367.36,2,0,0.1,0.1,139,11.54,0.1,0.06,11.86,FLYING,CF1-F,0:/Integrated Flight Computer/aircraft/cf1_f_cfg.ks (inferred preloaded)
12.12,APPROACH,ILS_TRACK,69.67,73,3.33,2213.12,3.07,15.39,13.25,270.18,-0.804,0.6566,0,-5.281,1,0.6,4.5,0.75,0.35,0.0168,0.4,269.78,-5.148,0,1,2.51,0,0,8.04,269.8,0.7721,-0.0039,0.6355,8.09,269.78,15.44,429.53,32.696,-0.618,0,0,0,0,271.8,0,0,0,0,0,0,0,0,0,0,0,0,0,1,1,0,0,VALID,0,0,0,0,0,1,0,0,0,0,0,0,0,0,0,0,0,0,0,0,57.22,367.57,2,0,0.08,0.08,142,11.54,0.1,0.08,12.12,FLYING,CF1-F,0:/Integrated Flight Computer/aircraft/cf1_f_cfg.ks (inferred preloaded)
12.38,APPROACH,ILS_TRACK,69.29,73,3.71,2214,3.25,15.69,13.41,270.16,-0.761,0.6983,0,-4.347,1,0.6,4.5,0.75,0.35,0.0168,0.4,269.8,-5.158,0,1,2.68,0,0,8.18,269.81,0.7704,-0.0036,0.6376,8.24,269.8,15.42,431.51,32.675,-0.6,0,0,0,0,271.8,0,0,0,0,0,0,0,0,0,0,0,0,0,1,1,0,0,VALID,0,0,0,0,0,1,0,0,0,0,0,0,0,0,0,0,0,0,0,0,60.15,367.78,2,0,0.1,0.1,145,11.54,0.1,0.06,12.38,FLYING,CF1-F,0:/Integrated Flight Computer/aircraft/cf1_f_cfg.ks (inferred preloaded)
12.64,APPROACH,ILS_TRACK,68.91,73,4.09,2214.92,3.43,16,13.58,270.14,-0.719,0.7407,0,-3.316,1,0.6,4.5,0.75,0.35,0.0168,0.4,269.83,-5.168,0,1,2.84,0,0,8.35,269.8,0.7687,-0.0031,0.6396,8.4,269.83,15.39,433.53,32.654,-0.571,0,0,0,0,271.8,0,0,0,0,0,0,0,0,0,0,0,0,0,1,1,0,0,VALID,0,0,0,0,0,1,0,0,0,0,0,0,0,0,0,0,0,0,0,0,63.27,367.99,2,0,0.08,0.08,148,11.54,0.1,0.08,12.64,FLYING,CF1-F,0:/Integrated Flight Computer/aircraft/cf1_f_cfg.ks (inferred preloaded)
12.9,APPROACH,ILS_TRACK,68.53,73,4.47,2215.88,3.61,16.3,13.74,270.12,-0.678,0.7837,0,-2.186,1,0.6,4.5,0.75,0.35,0.0168,0.4,269.82,-5.178,0,1,3,0,0,8.49,269.83,0.767,-0.0033,0.6417,8.55,269.82,15.35,435.58,32.633,-0.579,0,0,0,0,271.8,0,0,0,0,0,0,0,0,0,0,0,0,0,1,1,0,0,VALID,0,0,0,0,0,1,0,0,0,0,0,0,0,0,0,0,0,0,0,0,66.6,368.19,2,0,0.1,0.1,151,11.54,0.1,0.06,12.9,FLYING,CF1-F,0:/Integrated Flight Computer/aircraft/cf1_f_cfg.ks (inferred preloaded)
13.16,APPROACH,ILS_TRACK,68.16,73,4.84,2216.9,3.78,16.6,13.91,270.11,-0.639,0.827,0,-0.96,1,0.6,4.5,0.75,0.35,0.0168,0.4,269.84,-5.188,0,1,3.16,0,0,8.66,269.82,0.7653,-0.0029,0.6437,8.71,269.84,15.31,437.68,32.612,-0.556,0,0,0,0,271.8,0,0,0,0,0,0,0,0,0,0,0,0,0,1,1,0,0,VALID,0,0,0,0,0,1,0,0,0,0,0,0,0,0,0,0,0,0,0,0,70.11,368.39,2,0,0.08,0.08,154,11.54,0.1,0.08,13.16,FLYING,CF1-F,0:/Integrated Flight Computer/aircraft/cf1_f_cfg.ks (inferred preloaded)
13.42,APPROACH,ILS_TRACK,67.79,73,5.21,2217.95,3.95,16.9,14.07,270.09,-0.601,0.8708,0,0.363,1,0.6,4.5,0.75,0.35,0.0168,0.4,269.84,-5.199,0,1,3.32,0,0,8.8,269.84,0.7636,-0.003,0.6457,8.86,269.84,15.25,439.82,32.592,-0.561,0,0,0,0,271.8,0,0,0,0,0,0,0,0,0,0,0,0,0,1,1,0,0,VALID,0,0,0,0,0,1,0,0,0,0,0,0,0,0,0,0,0,0,0,0,73.83,368.58,2,0,0.1,0.1,157,11.54,0.1,0.06,13.42,FLYING,CF1-F,0:/Integrated Flight Computer/aircraft/cf1_f_cfg.ks (inferred preloaded)
13.68,APPROACH,ILS_TRACK,67.43,73,5.57,2219.05,4.11,17.2,14.24,270.08,-0.565,0.9149,0,1.78,1,0.6,4.5,0.75,0.35,0.0168,0.4,269.85,-5.21,0,1,3.48,0,0,8.97,269.85,0.7619,-0.0028,0.6477,9.01,269.85,15.19,441.99,32.571,-0.549,0,0,0,0,271.8,0,0,0,0,0,0,0,0,0,0,0,0,0,1,1,0,0,VALID,0,0,0,0,0,1,0,0,0,0,0,0,0,0,0,0,0,0,0,0,77.74,368.77,2,0,0.08,0.08,160,11.54,0.1,0.08,13.68,FLYING,CF1-F,0:/Integrated Flight Computer/aircraft/cf1_f_cfg.ks (inferred preloaded)
13.94,APPROACH,ILS_TRACK,67.07,73,5.93,2220.19,4.28,17.5,14.4,270.06,-0.531,0.9593,0,3.292,1,0.6,4.5,0.75,0.35,0.0168,0.4,269.86,-5.221,0,1,3.64,0,0,9.11,269.85,0.7602,-0.0027,0.6497,9.17,269.86,15.12,444.2,32.551,-0.544,0,0,0,0,271.8,0,0,0,0,0,0,0,0,0,0,0,0,0,1,1,0,0,VALID,0,0,0,0,0,1,0,0,0,0,0,0,0,0,0,0,0,0,0,0,81.85,368.96,2,0,0.1,0.1,163,11.54,0.1,0.06,13.94,FLYING,CF1-F,0:/Integrated Flight Computer/aircraft/cf1_f_cfg.ks (inferred preloaded)
14.2,APPROACH,ILS_TRACK,66.72,73,6.28,2221.38,4.44,17.79,14.56,270.05,-0.498,1,0,4.895,1,0.6,4.5,0.75,0.35,0.0168,0.4,269.88,-5.232,0,1,3.8,0,0,9.27,269.86,0.7585,-0.0022,0.6516,9.31,269.88,15.04,446.44,32.53,-0.518,0,0,0,0,271.8,0,0,0,0,0,0,0,0,0,0,0,0,0,1,1,0,0,VALID,0,0,0,0,0,1,0,0,0,0,0,0,0,0,0,0,0,0,0,0,86.14,369.13,2,0,0.08,0.08,166,11.54,0.1,0.08,14.2,FLYING,CF1-F,0:/Integrated Flight Computer/aircraft/cf1_f_cfg.ks (inferred preloaded)
14.46,APPROACH,ILS_TRACK,66.37,73,6.63,2222.6,4.6,18.08,14.71,270.04,-0.466,1,0,4.822,1,0.6,4.5,0.75,0.35,0.0168,0.4,269.88,-5.244,0,1,3.96,0,0,9.4,269.88,0.7569,-0.0023,0.6535,9.46,269.88,14.96,448.73,32.51,-0.525,0,0,0,0,271.8,0,0,0,0,0,0,0,0,0,0,0,0,0,1,1,0,0,VALID,0,0,0,0,0,1,0,0,0,0,0,0,0,0,0,0,0,0,0,0,90.56,369.3,2,0,0.1,0.1,169,11.54,0.1,0.06,14.46,FLYING,CF1-F,0:/Integrated Flight Computer/aircraft/cf1_f_cfg.ks (inferred preloaded)
14.72,APPROACH,ILS_TRACK,66.03,73,6.97,2223.87,4.76,18.36,14.86,270.03,-0.435,1,0,4.75,1,0.6,4.5,0.75,0.35,0.0168,0.4,269.88,-5.255,0,1,4.11,0,0,9.55,269.88,0.7554,-0.0022,0.6553,9.59,269.88,14.88,451.04,32.49,-0.518,0,0,0,0,271.8,0,0,0,0,0,0,0,0,0,0,0,0,0,1,1,0,0,VALID,0,0,0,0,0,1,0,0,0,0,0,0,0,0,0,0,0,0,0,0,94.92,369.47,2,0,0.08,0.08,172,11.54,0.1,0.08,14.72,FLYING,CF1-F,0:/Integrated Flight Computer/aircraft/cf1_f_cfg.ks (inferred preloaded)
14.98,APPROACH,ILS_TRACK,65.7,73,7.3,2225.17,4.93,18.6,14.95,270.02,-0.405,1,0,4.679,1,0.6,4.5,0.75,0.35,0.0168,0.4,269.89,-5.267,0,1,4.28,0,0,9.66,269.9,0.7544,-0.0021,0.6565,9.68,269.89,14.78,453.39,32.47,-0.511,0,0,0,0,271.8,0,0,0,0,0,0,0,0,0,0,0,0,0,1,1,0,0,VALID,0,0,0,0,0,1,0,0,0,0,0,0,0,0,0,0,0,0,0,0,99.22,369.63,2,0,0.1,0.1,175,11.54,0.1,0.06,14.98,FLYING,CF1-F,0:/Integrated Flight Computer/aircraft/cf1_f_cfg.ks (inferred preloaded)
15.24,APPROACH,ILS_TRACK,65.38,73,7.62,2226.49,5.08,18.74,14.96,270.01,-0.376,1,0,4.609,1,0.6,4.5,0.75,0.35,0.0168,0.4,269.9,-5.279,0,1,4.43,0,0,9.68,269.91,0.7544,-0.002,0.6564,9.68,269.9,14.69,455.76,32.45,-0.502,0,0,0,0,271.8,0,0,0,0,0,0,0,0,0,0,0,0,0,1,1,0,0,VALID,0,0,0,0,0,1,0,0,0,0,0,0,0,0,0,0,0,0,0,0,103.45,369.77,2,0,0.08,0.08,178,11.54,0.1,0.08,15.24,FLYING,CF1-F,0:/Integrated Flight Computer/aircraft/cf1_f_cfg.ks (inferred preloaded)
15.5,APPROACH,ILS_TRACK,65.07,73,7.93,2227.85,5.21,18.85,14.96,270.01,-0.347,1,0,4.541,1,0.6,4.5,0.75,0.35,0.0168,0.4,269.91,-5.291,0,1,4.56,0,0,9.67,269.92,0.7545,-0.0018,0.6563,9.67,269.91,14.58,458.15,32.43,-0.494,0,0,0,0,271.8,0,0,0,0,0,0,0,0,0,0,0,0,0,1,1,0,0,VALID,0,0,0,0,0,1,0,0,0,0,0,0,0,0,0,0,0,0,0,0,107.61,369.91,2,0,0.1,0.1,181,11.54,0.1,0.06,15.5,FLYING,CF1-F,0:/Integrated Flight Computer/aircraft/cf1_f_cfg.ks (inferred preloaded)
15.76,APPROACH,ILS_TRACK,64.78,73,8.22,2229.24,5.31,18.96,14.97,270,-0.319,1,0,4.473,1,0.6,4.5,0.75,0.35,0.0168,0.4,269.93,-5.303,0,1,4.68,0,0,9.67,269.93,0.7546,-0.0014,0.6562,9.67,269.93,14.47,460.57,32.41,-0.47,0,0,0,0,271.8,0,0,0,0,0,0,0,0,0,0,0,0,0,1,1,0,0,VALID,0,0,0,0,0,1,0,0,0,0,0,0,0,0,0,0,0,0,0,0,111.71,370.04,2,0,0.08,0.08,184,11.54,0.1,0.08,15.76,FLYING,CF1-F,0:/Integrated Flight Computer/aircraft/cf1_f_cfg.ks (inferred preloaded)
16.02,APPROACH,ILS_TRACK,64.49,73,8.51,2230.65,5.41,19.05,14.98,270,-0.292,1,0,4.406,1,0.6,4.5,0.75,0.35,0.0168,0.4,269.93,-5.315,0,1,4.79,0,0,9.67,269.91,0.7547,-0.0014,0.6561,9.66,269.93,14.37,463.01,32.391,-0.467,0,0,0,0,271.8,0,0,0,0,0,0,0,0,0,0,0,0,0,1,1,0,0,VALID,0,0,0,0,0,1,0,0,0,0,0,0,0,0,0,0,0,0,0,0,115.75,370.16,2,0,0.1,0.1,187,11.54,0.1,0.06,16.02,FLYING,CF1-F,0:/Integrated Flight Computer/aircraft/cf1_f_cfg.ks (inferred preloaded)
16.28,APPROACH,ILS_TRACK,64.23,73,8.77,2232.08,5.49,19.14,14.98,269.99,-0.267,1,0,4.34,1,0.6,4.5,0.75,0.35,0.0168,0.4,269.93,-5.327,0,1,4.88,0,0,9.66,269.94,0.7548,-0.0014,0.6559,9.65,269.93,14.25,465.46,32.371,-0.468,0,0,0,0,271.8,0,0,0,0,0,0,0,0,0,0,0,0,0,1,1,0,0,VALID,0,0,0,0,0,1,0,0,0,0,0,0,0,0,0,0,0,0,0,0,119.73,370.27,2,0,0.08,0.08,190,11.54,0.1,0.08,16.28,FLYING,CF1-F,0:/Integrated Flight Computer/aircraft/cf1_f_cfg.ks (inferred preloaded)
16.54,APPROACH,ILS_TRACK,63.97,73,9.03,2233.53,5.56,19.21,14.99,269.99,-0.242,1,0,4.276,1,0.6,4.5,0.75,0.35,0.0168,0.4,269.96,-5.34,0,1,4.96,0,0,9.65,269.94,0.7549,-0.001,0.6558,9.65,269.96,14.13,467.93,32.352,-0.445,0,0,0,0,271.8,0,0,0,0,0,0,0,0,0,0,0,0,0,1,1,0,0,VALID,0,0,0,0,0,1,0,0,0,0,0,0,0,0,0,0,0,0,0,0,123.64,370.37,2,0,0.1,0.1,193,11.54,0.1,0.06,16.54,FLYING,CF1-F,0:/Integrated Flight Computer/aircraft/cf1_f_cfg.ks (inferred preloaded)
16.8,APPROACH,ILS_TRACK,63.73,73,9.27,2234.99,5.61,19.26,14.99,269.99,-0.22,1,0,4.212,1,0.6,4.5,0.75,0.35,0.0168,0.4,269.96,-5.352,0,1,5.03,0,0,9.64,269.93,0.7551,-0.0008,0.6556,9.63,269.96,14.01,470.41,32.332,-0.436,0,0,0,0,271.8,0,0,0,0,0,0,0,0,0,0,0,0,0,1,1,0,0,VALID,0,0,0,0,0,1,0,0,0,0,0,0,0,0,0,0,0,0,0,0,127.49,370.46,2,0,0.08,0.08,196,11.54,0.1,0.08,16.8,FLYING,CF1-F,0:/Integrated Flight Computer/aircraft/cf1_f_cfg.ks (inferred preloaded)
