t_s,phase,subphase,ias_ms,vapp_ms,spd_err_ms,agl_m,vs_ms,pitch_deg,aoa_deg,hdg_deg,bank_deg,thr_cmd,thr_cur,thr_intg,at_gain,at_tau_s,at_a_up,at_a_dn,at_kp_thr,at_ki_spd,at_thr_slew,aa_hdg_cmd_deg,aa_fpa_cmd_deg,aa_fbw,aa_dir,actual_fpa_deg,ftf_hdg_err_deg,ftf_fix_idx,kos_steer_pit_deg,kos_steer_hdg_deg,aa_dir_vx,aa_dir_vy,aa_dir_vz,aa_dir_pitch_deg,aa_dir_hdg_deg,ils_loc_m,ils_gs_m,ils_dist_km,loc_corr_deg,gs_corr_deg,flare_fpa_cmd,flare_tgt_vs,flare_frac,steer_hdg_deg,steer_blend,ro_loc_corr_deg,ro_hdg_err_deg,ro_yaw_tgt,ro_yaw_scale,ro_yaw_gate,yaw_cmd,roll_cmd,pitch_cmd,ro_pitch_tgt_deg,ro_pitch_err_deg,ro_pitch_ff,ro_roll_assist,flaps_cur,flaps_tgt,asc_j_ab,asc_j_rk,asc_validity,asc_q_pa,asc_q_raw_pa,asc_mach,asc_apo_m,asc_drag_n,asc_w_prop,asc_edot_aero,asc_edot_orb,asc_pitch_bias,asc_blend,asc_spooling,asc_ab_thr_ratio,asc_ab_t_now,asc_ab_t_avail,asc_ab_ign_on,asc_ab_flameouts,asc_rk_t_now,asc_rk_t_avail,asc_rk_ign_on,asc_rk_flameouts,ship_thrust,ship_avail_thrust,ship_ign_on,ship_flameouts,ifc_raw_dt_s,ifc_dt_s,ifc_loop_n,ifc_hz_est,ifc_raw_dt_max_s,ifc_raw_dt_min_s,phase_el_s,status,craft_name,cfg_file
0.12,TAKEOFF,TO_PREFLIGHT,0.35,80,79.65,3.74,0.12,0.57,-24.67,90.06,0.1,0.04,0,0,0,0,0,0,0,0,0,90.4,0,1,0,9.34,0,0,0,90,0,0,0,0,0,0,0,0,0,0,0,0,0,90.4,1,0,-0.338,0,0,1,0,0,0,0,0,0,0,0,1,0,0,VALID,0,0,0,0,0,1,0,0,0,0,0,0,0,0,0,0,0,0,0,0,0,521.92,2,0,0.1,0.1,1,3.45,0.1,0.02,0.02,PRELAUNCH,CF1-F,0:/Integrated Flight Computer/aircraft/cf1_f_cfg.ks (inferred preloaded)
0.38,TAKEOFF,TO_PREFLIGHT,0.35,80,79.65,3.72,-0.02,0.56,10.28,90.06,0.086,0.112,0,0,0,0,0,0,0,0,0,90.4,0,1,0,-0.98,0,0,0,90,0,0,0,0,0,0,0,0,0,0,0,0,0,90.4,1,0,-0.337,0,0,1,0,0,0,0,0,0,0,1,1,0,0,VALID,0,0,0,0,0,1,0,0,0,0,0,0,0,0,0,0,0,0,0,0,0.35,521.92,2,0,0.04,0.04,6,19.23,0.1,0.04,0.28,PRELAUNCH,CF1-F,0:/Integrated Flight Computer/aircraft/cf1_f_cfg.ks (inferred preloaded)
0.64,TAKEOFF,TO_PREFLIGHT,0.26,80,79.74,3.65,-0.05,0.09,9.8,90.07,0.066,0.216,0,0,0,0,0,0,0,0,0,90.4,0,1,0,-2.9,0,0,0,90,0,0,0,0,0,0,0,0,0,0,0,0,0,90.4,1,0,-0.337,0,0,1,0,0,0,0,0,0,0,1,1,0,0,VALID,0,0,0,0,0,1,0,0,0,0,0,0,0,0,0,0,0,0,0,0,1.45,521.94,2,0,0.04,0.04,11,19.23,0.08,0.04,0.54,PRELAUNCH,CF1-F,0:/Integrated Flight Computer/aircraft/cf1_f_cfg.ks (inferred preloaded)
0.9,TAKEOFF,TO_PREFLIGHT,0.1,80,79.9,3.62,0,-0.06,-39.67,90.07,0.084,0.32,0,0,0,0,0,0,0,0,0,90.4,0,1,0,0.23,0,0,0,90,0,0,0,0,0,0,0,0,0,0,0,0,0,90.4,1,0,-0.337,0,0,1,0,0,0,0,0,0,0,1,1,0,0,VALID,0,0,0,0,0,1,0,0,0,0,0,0,0,0,0,0,0,0,0,0,3.38,521.97,2,0,0.04,0.04,16,19.23,0.08,0.04,0.8,PRELAUNCH,CF1-F,0:/Integrated Flight Computer/aircraft/cf1_f_cfg.ks (inferred preloaded)
1.16,TAKEOFF,TO_PREFLIGHT,0.14,80,79.86,3.65,-0.02,0.26,19.18,90.07,0.117,0.424,0,0,0,0,0,0,0,0,0,90.4,0,1,0,-0.9,0,0,0,90,0,0,0,0,0,0,0,0,0,0,0,0,0,90.4,1,0,-0.337,0,0,1,0,0,0,0,0,0,0,1,1,0,0,VALID,0,0,0,0,0,1,0,0,0,0,0,0,0,0,0,0,0,0,0,0,6.11,521.97,2,0,0.04,0.04,21,19.23,0.08,0.04,1.06,PRELAUNCH,CF1-F,0:/Integrated Flight Computer/aircraft/cf1_f_cfg.ks (inferred preloaded)
1.42,TAKEOFF,TO_PREFLIGHT,0.11,80,79.89,3.71,0.14,0.45,-76.15,90.07,0.134,0.528,0,0,0,0,0,0,0,0,0,90.4,0,1,0,7.84,0,0,0,90,0,0,0,0,0,0,0,0,0,0,0,0,0,90.4,1,0,-0.337,0,0,1,0,0,0,0,0,0,0,1,1,0,0,VALID,0,0,0,0,0,1,0,0,0,0,0,0,0,0,0,0,0,0,0,0,9.65,521.97,2,0,0.04,0.04,26,19.23,0.08,0.04,1.32,PRELAUNCH,CF1-F,0:/Integrated Flight Computer/aircraft/cf1_f_cfg.ks (inferred preloaded)
1.68,TAKEOFF,TO_PREFLIGHT,0.07,80,79.93,3.69,-0.03,0.41,56,90.06,0.115,0.632,0,0,0,0,0,0,0,0,0,90.4,0,1,0,-1.7,0,0,0,90,0,0,0,0,0,0,0,0,0,0,0,0,0,90.4,1,0,-0.337,0,0,1,0,0,0,0,0,0,0,1,1,0,0,VALID,0,0,0,0,0,1,0,0,0,0,0,0,0,0,0,0,0,0,0,0,13.97,521.98,2,0,0.04,0.04,31,19.23,0.08,0.04,1.58,PRELAUNCH,CF1-F,0:/Integrated Flight Computer/aircraft/cf1_f_cfg.ks (inferred preloaded)
1.94,TAKEOFF,TO_PREFLIGHT,0.08,80,79.92,3.66,-0.01,0.17,0.22,90.06,0.088,0.736,0,0,0,0,0,0,0,0,0,90.4,0,1,0,-0.81,0,0,0,90,0,0,0,0,0,0,0,0,0,0,0,0,0,90.4,1,0,-0.337,0,0,1,0,0,0,0,0,0,0,1,1,0,0,VALID,0,0,0,0,0,1,0,0,0,0,0,0,0,0,0,0,0,0,0,0,19.06,521.98,2,0,0.04,0.04,36,19.23,0.08,0.04,1.84,PRELAUNCH,CF1-F,0:/Integrated Flight Computer/aircraft/cf1_f_cfg.ks (inferred preloaded)
2.26,TAKEOFF,TO_PREFLIGHT,0.09,80,79.91,3.62,0.02,0,-29.92,90.05,0.085,0.864,0,0,0,0,0,0,0,0,0,90.4,0,1,0,1.13,0,0,0,90,0,0,0,0,0,0,0,0,0,0,0,0,0,90.4,1,0,-0.337,0,0,1,0,0,0,0,0,0,0,1,1,0,0,VALID,0,0,0,0,0,1,0,0,0,0,0,0,0,0,0,0,0,0,0,0,26.37,521.98,2,0,0.08,0.08,41,15.63,0.08,0.04,2.16,PRELAUNCH,CF1-F,0:/Integrated Flight Computer/aircraft/cf1_f_cfg.ks (inferred preloaded)
2.54,TAKEOFF,TO_PREFLIGHT,0.05,80,79.95,3.64,-0.03,0.16,67.85,90.05,0.104,0.976,0,0,0,0,0,0,0,0,0,90.4,0,1,0,-1.72,0,0,0,90,0,0,0,0,0,0,0,0,0,0,0,0,0,90.4,1,0,-0.337,0,0,1,0,0,0,0,0,0,0,1,1,0,0,VALID,0,0,0,0,0,1,0,0,0,0,0,0,0,0,0,0,0,0,0,0,33.67,521.98,2,0,0.08,0.08,45,14.29,0.08,0.06,2.44,PRELAUNCH,CF1-F,0:/Integrated Flight Computer/aircraft/cf1_f_cfg.ks (inferred preloaded)
2.82,TAKEOFF,TO_PREFLIGHT,0.03,80,79.97,3.64,0,0.13,-9.53,90.05,0.132,1,0,0,0,0,0,0,0,0,0,90.4,0,1,0,0.26,0,0,0,90,0,0,0,0,0,0,0,0,0,0,0,0,0,90.4,1,0,-0.337,0,0,1,0,0,0,0,0,0,0,1,1,0,0,VALID,0,0,0,0,0,1,0,0,0,0,0,0,0,0,0,0,0,0,0,0,41.7,521.99,2,0,0.08,0.08,49,14.29,0.08,0.06,2.72,PRELAUNCH,CF1-F,0:/Integrated Flight Computer/aircraft/cf1_f_cfg.ks (inferred preloaded)
3.1,TAKEOFF,TO_PREFLIGHT,0.06,80,79.94,3.63,0.01,0.04,-15.19,90.05,0.158,1,0,0,0,0,0,0,0,0,0,90.4,0,1,0,0.52,0,0,0,90,0,0,0,0,0,0,0,0,0,0,0,0,0,90.4,1,0,-0.337,0,0,1,0,0,0,0,0,0,0,1,1,0,0,VALID,0,0,0,0,0,1,0,0,0,0,0,0,0,0,0,0,0,0,0,0,49.71,521.98,2,0,0.08,0.08,53,14.29,0.08,0.06,3,PRELAUNCH,CF1-F,0:/Integrated Flight Computer/aircraft/cf1_f_cfg.ks (inferred preloaded)
3.38,TAKEOFF,TO_GROUND_ROLL,0.03,80,79.97,3.63,-0.02,0.1,14.95,90.04,0.158,1,0,0,0,0,0,0,0,0,0,90.4,0,1,0,-0.89,0,0,0,90,0,0,0,0,0,0,0,0,0,0,0,0,0,90.4,1,0,-0.358,0,0,3,0,0,0,0,0,0,0,1,1,0,0,VALID,0,0,0,0,0,1,0,0,0,0,0,0,0,0,0,0,0,0,0,0,57.58,521.99,2,0,0.08,0.08,57,14.29,0.08,0.06,3.3,PRELAUNCH,CF1-F,0:/Integrated Flight Computer/aircraft/cf1_f_cfg.ks (inferred preloaded)
3.66,TAKEOFF,TO_GROUND_ROLL,0.21,80,79.79,3.65,0.01,0.22,-0.37,90.04,0.14,1,0,0,0,0,0,0,0,0,0,90.4,0,1,0,0.3,0,0,0,90,0,0,0,0,0,0,0,0,0,0,0,0,0,90.4,1,0,-0.359,0,0,3,0,0,0,0,0,0,0,1,1,0,0,VALID,0,0,0,0,0,1,0,0,0,0,0,0,0,0,0,0,0,0,0,0,65.32,521.94,2,0,0.08,0.08,61,14.29,0.08,0.06,3.58,PRELAUNCH,CF1-F,0:/Integrated Flight Computer/aircraft/cf1_f_cfg.ks (inferred preloaded)
3.94,TAKEOFF,TO_GROUND_ROLL,0.48,80,79.52,3.66,-0.01,0.28,0.81,90.04,0.127,1,0,0,0,0,0,0,0,0,0,90.4,0,1,0,-0.34,0,0,0,90,0,0,0,0,0,0,0,0,0,0,0,0,0,90.4,1,0,-0.354,0,0,3,0,0,0,0,0,0,0,1,1,0,0,VALID,0,0,0,0,0,1,0,0,0,0,0,0,0,0,0,0,0,0,0,0,72.92,521.88,2,0,0.08,0.08,65,14.29,0.08,0.06,3.86,PRELAUNCH,CF1-F,0:/Integrated Flight Computer/aircraft/cf1_f_cfg.ks (inferred preloaded)
4.22,TAKEOFF,TO_GROUND_ROLL,0.8,80,79.2,3.68,-0.07,0.29,2.75,90.05,0.11,1,0,0,0,0,0,0,0,0,0,90.4,0,1,0,-3.77,0,0,0,90,0,0,0,0,0,0,0,0,0,0,0,0,0,90.4,1,0,-0.349,0,0,3,0,0,0,0,0,0,0,1,1,0,0,VALID,0,0,0,0,0,1,0,0,0,0,0,0,0,0,0,0,0,0,0,0,80.39,521.8,2,0,0.08,0.08,69,14.29,0.08,0.06,4.14,PRELAUNCH,CF1-F,0:/Integrated Flight Computer/aircraft/cf1_f_cfg.ks (inferred preloaded)
4.5,TAKEOFF,TO_GROUND_ROLL,1.13,80,78.87,3.67,0.05,0.24,-1.91,90.05,0.09,1,0,0,0,0,0,0,0,0,0,90.39,0,1,0,2.45,0,0,0,90,0,0,0,0,0,0,0,0,0,0,0,0,0,90.39,1,0,-0.341,0,0,3,0,0,0,0,0,0,0,1,1,0,0,VALID,0,0,0,0,0,1,0,0,0,0,0,0,0,0,0,0,0,0,0,0,87.74,521.72,2,0,0.08,0.08,73,14.29,0.08,0.06,4.42,PRELAUNCH,CF1-F,0:/Integrated Flight Computer/aircraft/cf1_f_cfg.ks (inferred preloaded)
4.78,TAKEOFF,TO_GROUND_ROLL,1.5,80,78.5,3.65,-0.02,0.16,1.17,90.06,0.091,1,0,0,0,0,0,0,0,0,0,90.39,0,1,0,-0.84,0,0,0,90,0,0,0,0,0,0,0,0,0,0,0,0,0,90.39,1,0,-0.329,0,0,3,0,0,0,0,0,0,0,1,1,0,0,VALID,0,0,0,0,0,1,0,0,0,0,0,0,0,0,0,0,0,0,0,0,94.95,521.62,2,0,0.08,0.08,77,14.29,0.08,0.06,4.7,PRELAUNCH,CF1-F,0:/Integrated Flight Computer/aircraft/cf1_f_cfg.ks (inferred preloaded)
5.06,TAKEOFF,TO_GROUND_ROLL,1.9,80,78.1,3.64,0.01,0.18,0.22,90.08,0.108,1,0,0,0,0,0,0,0,0,0,90.39,0,1,0,0.2,0,0,0,90,0,0,0,0,0,0,0,0,0,0,0,0,0,90.39,1,0,-0.315,0,0,3,0,0,0,0,0,0,0,1,1,0,0,VALID,0,0,0,0,0,1,0,0,0,0,0,0,0,0,0,0,0,0,0,0,102.05,521.52,2,0,0.08,0.08,81,14.29,0.08,0.06,4.98,PRELAUNCH,CF1-F,0:/Integrated Flight Computer/aircraft/cf1_f_cfg.ks (inferred preloaded)
5.34,TAKEOFF,TO_GROUND_ROLL,2.32,80,77.68,3.66,-0.03,0.27,0.84,90.09,0.119,1,0,0,0,0,0,0,0,0,0,90.39,0,1,0,-0.68,0,0,0,90,0,0,0,0,0,0,0,0,0,0,0,0,0,90.39,1,0,-0.299,0.003,0.25,1,0.003,0,0,0,0,0,0,1,1,0,0,VALID,0,0,0,0,0,1,0,0,0,0,0,0,0,0,0,0,0,0,0,0,109.01,521.41,2,0,0.08,0.08,85,14.29,0.08,0.06,5.26,LANDED,CF1-F,0:/Integrated Flight Computer/aircraft/cf1_f_cfg.ks (inferred preloaded)
5.62,TAKEOFF,TO_GROUND_ROLL,2.77,80,77.23,3.7,0.06,0.39,-1.52,90.11,0.112,1,0,0,0,0,0,0,0,0,0,90.39,0,1,0,1.32,0,0,0,90,0,0,0,0,0,0,0,0,0,0,0,0,0,90.39,1,0,-0.283,0.0028,0.25,1,0.0028,0,0,0,0,0,0,1,1,0,0,VALID,0,0,0,0,0,1,0,0,0,0,0,0,0,0,0,0,0,0,0,0,115.86,521.29,2,0,0.08,0.08,89,14.29,0.08,0.06,5.54,LANDED,CF1-F,0:/Integrated Flight Computer/aircraft/cf1_f_cfg.ks (inferred preloaded)
5.9,TAKEOFF,TO_GROUND_ROLL,3.25,80,76.75,3.7,0.01,0.47,0.68,90.12,0.096,1,0,0,0,0,0,0,0,0,0,90.39,0,1,0,0.15,0,0,0,90,0,0,0,0,0,0,0,0,0,0,0,0,0,90.39,1,0,-0.266,0.0026,0.25,1,0.0026,0,0,0,0,0,0,1,1,0,0,VALID,0,0,0,0,0,1,0,0,0,0,0,0,0,0,0,0,0,0,0,0,122.59,521.16,2,0,0.08,0.08,93,14.29,0.08,0.06,5.82,LANDED,CF1-F,0:/Integrated Flight Computer/aircraft/cf1_f_cfg.ks (inferred preloaded)
6.18,TAKEOFF,TO_GROUND_ROLL,3.76,80,76.24,3.71,-0.06,0.49,1.3,90.14,0.091,1,0,0,0,0,0,0,0,0,0,90.39,0,1,0,-0.93,0,0,0,90,0,0,0,0,0,0,0,0,0,0,0,0,0,90.39,1,0,-0.248,0.0023,0.25,1,0.0023,0,0,0,0,0,0,1,1,0,0,VALID,0,0,0,0,0,1,0,0,0,0,0,0,0,0,0,0,0,0,0,0,129.2,521.02,2,0,0.08,0.08,97,14.29,0.08,0.06,6.1,LANDED,CF1-F,0:/Integrated Flight Computer/aircraft/cf1_f_cfg.ks (inferred preloaded)
6.46,TAKEOFF,TO_GROUND_ROLL,4.29,80,75.71,3.71,-0.01,0.45,0.5,90.16,0.102,1,0,0,0,0,0,0,0,0,0,90.39,0,1,0,-0.12,0,0,0,90,0,0,0,0,0,0,0,0,0,0,0,0,0,90.39,1,0,-0.23,0.0021,0.25,1,0.0021,0,0,0,0,0,0,1,1,0,0,VALID,0,0,0,0,0,1,0,0,0,0,0,0,0,0,0,0,0,0,0,0,135.69,520.87,2,0,0.08,0.08,101,14.29,0.08,0.06,6.38,LANDED,CF1-F,0:/Integrated Flight Computer/aircraft/cf1_f_cfg.ks (inferred preloaded)
6.74,TAKEOFF,TO_GROUND_ROLL,4.85,80,75.15,3.69,-0.03,0.38,0.71,90.18,0.111,1,0,0,0,0,0,0,0,0,0,90.39,0,1,0,-0.32,0,0,0,90,0,0,0,0,0,0,0,0,0,0,0,0,0,90.39,1,0,-0.211,0.0019,0.25,1,0.0019,0,0,0,0,0,0,1,1,0,0,VALID,0,0,0,0,0,1,0,0,0,0,0,0,0,0,0,0,0,0,0,0,142.07,520.71,2,0,0.08,0.08,105,14.29,0.08,0.06,6.66,LANDED,CF1-F,0:/Integrated Flight Computer/aircraft/cf1_f_cfg.ks (inferred preloaded)
7.02,TAKEOFF,TO_GROUND_ROLL,5.44,80,74.56,3.68,-0.04,0.32,0.67,90.19,0.108,1,0,0,0,0,0,0,0,0,0,90.39,0,1,0,-0.38,0,0,0,90,0,0,0,0,0,0,0,0,-0.001,0,0,0,0,90.39,1,-0.001,-0.193,0.0017,0.25,1,0.0017,0,0,0,0,0,0,1,1,0,0,VALID,0,0,0,0,0,1,0,0,0,0,0,0,0,0,0,0,0,0,0,0,148.33,520.54,2,0,0.08,0.08,109,14.29,0.08,0.06,6.94,LANDED,CF1-F,0:/Integrated Flight Computer/aircraft/cf1_f_cfg.ks (inferred preloaded)
7.3,TAKEOFF,TO_GROUND_ROLL,6.05,80,73.95,3.68,-0.03,0.31,0.59,90.21,0.098,1,0,0,0,0,0,0,0,0,0,90.39,0,1,0,-0.3,0,0,0,90,0,0,0,0,0,0,0,0,-0.001,0,0,0,0,90.39,1,-0.001,-0.174,0.0015,0.25,1,0.0015,0,0,0,0,0,0,1,1,0,0,VALID,0,0,0,0,0,1,0,0,0,0,0,0,0,0,0,0,0,0,0,0,154.48,520.36,2,0,0.08,0.08,113,14.29,0.08,0.06,7.22,LANDED,CF1-F,0:/Integrated Flight Computer/aircraft/cf1_f_cfg.ks (inferred preloaded)
7.58,TAKEOFF,TO_GROUND_ROLL,6.68,80,73.32,3.69,-0.04,0.36,0.67,90.23,0.095,1,0,0,0,0,0,0,0,0,0,90.38,0,1,0,-0.33,0,0,0,90,0,0,0,0,0,0,0,0,-0.001,0,0,0,0,90.38,1,-0.001,-0.153,0.0012,0.25,1,0.0012,0,0,0,0,0,0,1,1,0,0,VALID,0,0,0,0,0,1,0,0,0,0,0,0,0,0,0,0,0,0,0,0,160.52,520.16,2,0,0.08,0.08,117,14.29,0.08,0.06,7.5,LANDED,CF1-F,0:/Integrated Flight Computer/aircraft/cf1_f_cfg.ks (inferred preloaded)
7.86,TAKEOFF,TO_GROUND_ROLL,7.34,80,72.66,3.71,-0.04,0.46,0.76,90.25,0.099,1,0,0,0,0,0,0,0,0,0,90.38,0,1,0,-0.33,0,0,0,90,0,0,0,0,0,0,0,0,-0.001,0,0,0,0,90.38,1,-0.001,-0.131,0.001,0.25,1,0.001,0,0,0,0,0,0,1,1,0,0,VALID,0,0,0,0,0,1,0,0,0,0,0,0,0,0,0,0,0,0,0,0,166.45,519.96,2,0,0.08,0.08,121,14.29,0.08,0.06,7.78,LANDED,CF1-F,0:/Integrated Flight Computer/aircraft/cf1_f_cfg.ks (inferred preloaded)
8.14,TAKEOFF,TO_GROUND_ROLL,8.02,80,71.98,3.73,-0.05,0.57,0.87,90.27,0.104,1,0,0,0,0,0,0,0,0,0,90.38,0,1,0,-0.33,0,0,0,90,0,0,0,0,0,0,0,0,-0.001,0,0,0,0,90.38,1,-0.001,-0.11,0.0008,0.25,1,0.0008,0,0,0,0,0,0,1,1,0,0,VALID,0,0,0,0,0,1,0,0,0,0,0,0,0,0,0,0,0,0,0,0,172.28,519.74,2,0,0.08,0.08,125,14.29,0.08,0.06,8.06,LANDED,CF1-F,0:/Integrated Flight Computer/aircraft/cf1_f_cfg.ks (inferred preloaded)
8.42,TAKEOFF,TO_GROUND_ROLL,8.72,80,71.28,3.74,-0.05,0.67,0.97,90.29,0.103,1,0,0,0,0,0,0,0,0,0,90.38,0,1,0,-0.33,0,0,0,90,0,0,0,0,0,0,0,0,-0.002,0,0,0,0,90.38,1,-0.002,-0.089,0.0007,0.25,1,0.0007,0,0,0,0,0,0,1,1,0,0,VALID,0,0,0,0,0,1,0,0,0,0,0,0,0,0,0,0,0,0,0,0,177.99,519.51,2,0,0.08,0.08,129,14.29,0.08,0.06,8.34,LANDED,CF1-F,0:/Integrated Flight Computer/aircraft/cf1_f_cfg.ks (inferred preloaded)
8.7,TAKEOFF,TO_GROUND_ROLL,9.45,80,70.55,3.75,-0.05,0.72,1.02,90.31,0.098,1,0,0,0,0,0,0,0,0,0,90.38,0,1,0,-0.33,0,0,0,90,0,0,0,0,0,0,0,0,-0.002,0,0,0,0,90.38,1,-0.002,-0.069,0.0005,0.25,1,0.0005,0,0,0,0,0,0,1,1,0,0,VALID,0,0,0,0,0,1,0,0,0,0,0,0,0,0,0,0,0,0,0,0,183.6,519.27,2,0,0.08,0.08,133,14.29,0.08,0.06,8.62,LANDED,CF1-F,0:/Integrated Flight Computer/aircraft/cf1_f_cfg.ks (inferred preloaded)
8.98,TAKEOFF,TO_GROUND_ROLL,10.2,80,69.8,3.75,-0.06,0.72,1.02,90.33,0.096,1,0,0,0,0,0,0,0,0,0,90.38,0,1,0,-0.32,0,0,0,90,0,0,0,0,0,0,0,0,-0.002,0,0,0,0,90.38,1,-0.002,-0.049,0.0003,0.25,1,0.0003,0,0,0,0,0,0,1,1,0,0,VALID,0,0,0,0,0,1,0,0,0,0,0,0,0,0,0,0,0,0,0,0,189.1,519.02,2,0,0.08,0.08,137,14.29,0.08,0.06,8.9,LANDED,CF1-F,0:/Integrated Flight Computer/aircraft/cf1_f_cfg.ks (inferred preloaded)
9.26,TAKEOFF,TO_GROUND_ROLL,10.97,80,69.03,3.74,-0.06,0.68,0.99,90.35,0.098,1,0,0,0,0,0,0,0,0,0,90.38,0,1,0,-0.32,0,0,0,90,0,0,0,0,0,0,0,0,-0.003,0,0,0,0,90.38,1,-0.003,-0.029,0.0002,0.25,1,0.0002,0,0,0,0,0,0,1,1,0,0,VALID,0,0,0,0,0,1,0,0,0,0,0,0,0,0,0,0,0,0,0,0,194.5,518.75,2,0,0.08,0.08,141,14.29,0.08,0.06,9.18,LANDED,CF1-F,0:/Integrated Flight Computer/aircraft/cf1_f_cfg.ks (inferred preloaded)
9.54,TAKEOFF,TO_GROUND_ROLL,11.76,80,68.24,3.74,-0.07,0.63,0.94,90.37,0.101,1,0,0,0,0,0,0,0,0,0,90.38,0,1,0,-0.32,0,0,0,90,0,0,0,0,0,0,0,0,-0.003,0,0,0,0,90.38,1,-0.003,-0.01,0.0001,0.25,1,0.0001,0,0,0,0,0,0,1,1,0,0,VALID,0,0,0,0,0,1,0,0,0,0,0,0,0,0,0,0,0,0,0,0,199.8,518.47,2,0,0.08,0.08,145,14.29,0.08,0.06,9.46,LANDED,CF1-F,0:/Integrated Flight Computer/aircraft/cf1_f_cfg.ks (inferred preloaded)
9.82,TAKEOFF,TO_GROUND_ROLL,12.57,80,67.43,3.73,-0.07,0.61,0.91,90.39,0.1,1,0,0,0,0,0,0,0,0,0,90.38,0,1,0,-0.32,0,0,0,90,0,0,0,0,0,0,0,0,-0.003,0,0,0,0,90.38,1,-0.003,0.01,-0.0001,0.25,1,-0.0001,0,0,0,0,0,0,1,1,0,0,VALID,0,0,0,0,0,1,0,0,0,0,0,0,0,0,0,0,0,0,0,0,205,518.18,2,0,0.08,0.08,149,14.29,0.08,0.06,9.74,LANDED,CF1-F,0:/Integrated Flight Computer/aircraft/cf1_f_cfg.ks (inferred preloaded)
10.1,TAKEOFF,TO_GROUND_ROLL,13.41,80,66.59,3.73,-0.08,0.62,0.92,90.41,0.097,1,0,0,0,0,0,0,0,0,0,90.38,0,1,0,-0.32,0,0,0,90,0,0,0,0,0,0,0,0,-0.004,0,0,0,0,90.38,1,-0.004,0.03,-0.0002,0.25,1,-0.0002,0,0,0,0,0,0,1,1,0,0,VALID,0,0,0,0,0,1,0,0,0,0,0,0,0,0,0,0,0,0,0,0,210.1,517.87,2,0,0.08,0.08,153,14.29,0.08,0.06,10.02,LANDED,CF1-F,0:/Integrated Flight Computer/aircraft/cf1_f_cfg.ks (inferred preloaded)
10.38,TAKEOFF,TO_GROUND_ROLL,14.26,80,65.74,3.74,-0.08,0.67,0.97,90.43,0.095,1,0,0,0,0,0,0,0,0,0,90.38,0,1,0,-0.32,0,0,0,90,0,0,0,0,0,0,0,0,-0.005,0,0,0,0,90.38,1,-0.005,0.05,-0.0003,0.25,1,-0.0003,0,0,0,0,0,0,1,1,0,0,VALID,0,0,0,0,0,1,0,0,0,0,0,0,0,0,0,0,0,0,0,0,215.09,517.55,2,0,0.08,0.08,157,14.29,0.08,0.06,10.3,LANDED,CF1-F,0:/Integrated Flight Computer/aircraft/cf1_f_cfg.ks (inferred preloaded)
10.66,TAKEOFF,TO_GROUND_ROLL,15.13,80,64.87,3.76,-0.09,0.75,1.05,90.45,0.096,1,0,0,0,0,0,0,0,0,0,90.38,0,1,0,-0.32,0,0,0,90,0,0,0,0,0,0,0,0,-0.005,0,0,0,0,90.38,1,-0.005,0.07,-0.0005,0.25,1,-0.0005,0,0,0,0,0,0,1,1,0,0,VALID,0,0,0,0,0,1,0,0,0,0,0,0,0,0,0,0,0,0,0,0,219.99,517.22,2,0,0.08,0.08,161,14.29,0.08,0.06,10.58,LANDED,CF1-F,0:/Integrated Flight Computer/aircraft/cf1_f_cfg.ks (inferred preloaded)
10.94,TAKEOFF,TO_GROUND_ROLL,16.02,80,63.98,3.77,-0.09,0.84,1.14,90.47,0.098,1,0,0,0,0,0,0,0,0,0,90.38,0,1,0,-0.32,0,0,0.01,90,0,0,0,0,0,0,0,0,-0.006,0,0,0,0,90.38,1,-0.006,0.09,-0.0007,0.25,1,-0.0007,0,0,0,0,0,0,1,1,0,0,VALID,0,0,0,0,0,1,0,0,0,0,0,0,0,0,0,0,0,0,0,0,224.8,516.87,2,0,0.08,0.08,165,14.29,0.08,0.06,10.86,LANDED,CF1-F,0:/Integrated Flight Computer/aircraft/cf1_f_cfg.ks (inferred preloaded)
11.22,TAKEOFF,TO_GROUND_ROLL,16.94,80,63.06,3.78,-0.09,0.9,1.2,90.49,0.097,1,0,0,0,0,0,0,0,0,0,90.38,0,1,0,-0.32,0,0,0.01,90,0,0,0,0,0,0,0,0,-0.007,0,0,0,0,90.38,1,-0.007,0.11,-0.0008,0.25,1,-0.0008,0,0,0,0,0,0,1,1,0,0,VALID,0,0,0,0,0,1,0,0,0,0,0,0,0,0,0,0,0,0,0,0,229.51,516.51,2,0,0.08,0.08,169,14.29,0.08,0.06,11.14,LANDED,CF1-F,0:/Integrated Flight Computer/aircraft/cf1_f_cfg.ks (inferred preloaded)
11.5,TAKEOFF,TO_GROUND_ROLL,17.87,80,62.13,3.79,-0.1,0.93,1.23,90.51,0.095,1,0,0,0,0,0,0,0,0,0,90.38,0,1,0,-0.32,0,0,0.01,90,0,0,0,0,0,0,0,0,-0.008,0,0,0,0,90.38,1,-0.008,0.129,-0.001,0.25,1,-0.001,0,0,0,0,0,0,1,1,0,0,VALID,0,0,0,0,0,1,0,0,0,0,0,0,0,0,0,0,0,0,0,0,234.12,516.13,2,0,0.08,0.08,173,14.29,0.08,0.06,11.42,LANDED,CF1-F,0:/Integrated Flight Computer/aircraft/cf1_f_cfg.ks (inferred preloaded)
11.78,TAKEOFF,TO_GROUND_ROLL,18.81,80,61.19,3.79,-0.1,0.92,1.23,90.53,0.095,1,0,0,0,0,0,0,0,0,0,90.38,0,1,0,-0.32,0,0,0.01,90,0,0,0,0,0,0,0,0,-0.009,0,0,0,0,90.38,1,-0.009,0.147,-0.0012,0.25,1,-0.0012,0,0,0,0,0,0,1,1,0,0,VALID,0,0,0,0,0,1,0,0,0,0,0,0,0,0,0,0,0,0,0,0,238.64,515.73,2,0,0.08,0.08,177,14.29,0.08,0.06,11.7,LANDED,CF1-F,0:/Integrated Flight Computer/aircraft/cf1_f_cfg.ks (inferred preloaded)
12.06,TAKEOFF,TO_GROUND_ROLL,19.78,80,60.22,3.78,-0.11,0.9,1.2,90.54,0.095,1,0,0,0,0,0,0,0,0,0,90.38,0,1,0,-0.32,0,0,0.01,90,0,0,0,0,0,0,0,0,-0.01,0,0,0,0,90.38,1,-0.01,0.166,-0.0014,0.25,1,-0.0014,0,0,0,0,0,0,1,1,0,0,VALID,0,0,0,0,0,1,0,0,0,0,0,0,0,0,0,0,0,0,0,0,243.07,515.33,2,0,0.08,0.08,181,14.29,0.08,0.06,11.98,LANDED,CF1-F,0:/Integrated Flight Computer/aircraft/cf1_f_cfg.ks (inferred preloaded)
12.34,TAKEOFF,TO_GROUND_ROLL,20.76,80,59.24,3.78,-0.11,0.88,1.18,90.56,0.096,1,0,0,0,0,0,0,0,0,0,90.38,0,1,0,-0.32,0,0,0.01,90,0,0,0,0,0,0,0,0,-0.011,0,0,0,0,90.38,1,-0.011,0.183,-0.0016,0.258,0,-0.0016,0,0,0,0,0,0,1,1,0,0,VALID,0,0,0,0,0,1,0,0,0,0,0,0,0,0,0,0,0,0,0,0,247.4,514.9,2,0,0.08,0.08,185,14.29,0.08,0.06,12.26,LANDED,CF1-F,0:/Integrated Flight Computer/aircraft/cf1_f_cfg.ks (inferred preloaded)
12.62,TAKEOFF,TO_GROUND_ROLL,21.76,80,58.24,3.78,-0.12,0.88,1.18,90.58,0.095,1,0,0,0,0,0,0,0,0,0,90.38,0,1,0,-0.32,0,0,0.01,90,0,0,0,0,0,0,0,0,-0.012,0,0,0,0,90.38,1,-0.012,0.202,-0.0019,0.269,0,-0.0019,0,0,0,0,0,0,1,1,0,0,VALID,0,0,0,0,0,1,0,0,0,0,0,0,0,0,0,0,0,0,0,0,251.65,514.46,2,0,0.08,0.08,189,14.29,0.08,0.06,12.54,LANDED,CF1-F,0:/Integrated Flight Computer/aircraft/cf1_f_cfg.ks (inferred preloaded)
12.9,TAKEOFF,TO_GROUND_ROLL,22.77,80,57.23,3.78,-0.13,0.91,1.2,90.59,0.094,1,0,0,0,0,0,0,0,0,0,90.37,0,1,0,-0.32,0,0,0.01,90,0,0,0,0,0,0,0,0,-0.014,0,0,0,0,90.37,1,-0.014,0.22,-0.0022,0.28,0,-0.0022,0,0,0,0,0,0,1,1,0,0,VALID,0,0,0,0,0,1,0,0,0,0,0,0,0,0,0,0,0,0,0,0,255.8,514.01,2,0,0.08,0.08,193,14.29,0.08,0.06,12.82,LANDED,CF1-F,0:/Integrated Flight Computer/aircraft/cf1_f_cfg.ks (inferred preloaded)
13.18,TAKEOFF,TO_GROUND_ROLL,23.81,80,56.19,3.79,-0.13,0.96,1.25,90.61,0.093,1,0,0,0,0,0,0,0,0,0,90.37,0,1,0,-0.31,0,0,0.01,90,0,0,0,0,0,0,0,0,-0.015,0,0,0,0,90.37,1,-0.015,0.238,-0.0025,0.291,0,-0.0025,0,0,0,0,0,0,1,1,0,0,VALID,0,0,0,0,0,1,0,0,0,0,0,0,0,0,0,0,0,0,0,0,259.87,513.54,2,0,0.08,0.08,197,14.29,0.08,0.06,13.1,LANDED,CF1-F,0:/Integrated Flight Computer/aircraft/cf1_f_cfg.ks (inferred preloaded)
13.46,TAKEOFF,TO_GROUND_ROLL,24.85,80,55.15,3.8,-0.14,1.02,1.31,90.63,0.093,1,0,0,0,0,0,0,0,0,0,90.37,0,1,0,-0.31,0,0,0.01,90,0,0,0,0,0,0,0,0,-0.017,0,0,0,0,90.37,1,-0.017,0.255,-0.0029,0.302,0,-0.0029,0,0,0,0,0,0,1,1,0,0,VALID,0,0,0,0,0,1,0,0,0,0,0,0,0,0,0,0,0,0,0,0,263.85,513.05,2,0,0.08,0.08,201,14.29,0.08,0.06,13.38,LANDED,CF1-F,0:/Integrated Flight Computer/aircraft/cf1_f_cfg.ks (inferred preloaded)
13.74,TAKEOFF,TO_GROUND_ROLL,25.91,80,54.09,3.81,-0.14,1.07,1.37,90.64,0.094,1,0,0,0,0,0,0,0,0,0,90.37,0,1,0,-0.31,0,0,0.01,90,0,0,0,0,0,0,0,0,-0.018,0,0,0,0,90.37,1,-0.018,0.273,-0.0033,0.313,0,-0.0033,0,0,0,0,0,0,1,1,0,0,VALID,0,0,0,0,0,1,0,0,0,0,0,0,0,0,0,0,0,0,0,0,267.74,512.55,2,0,0.08,0.08,205,14.29,0.08,0.06,13.66,LANDED,CF1-F,0:/Integrated Flight Computer/aircraft/cf1_f_cfg.ks (inferred preloaded)
14.02,TAKEOFF,TO_GROUND_ROLL,26.99,80,53.01,3.82,-0.15,1.11,1.4,90.66,0.094,1,0,0,0,0,0,0,0,0,0,90.37,0,1,0,-0.31,0,0,0.01,90,0,0,0,0,0,0,0,0,-0.02,0,0,0,0,90.37,1,-0.02,0.289,-0.0037,0.325,0,-0.0037,0,0,0,0,0,0,1,1,0,0,VALID,0,0,0,0,0,1,0,0,0,0,0,0,0,0,0,0,0,0,0,0,271.55,512.03,2,0,0.08,0.08,209,14.29,0.08,0.06,13.94,LANDED,CF1-F,0:/Integrated Flight Computer/aircraft/cf1_f_cfg.ks (inferred preloaded)
14.3,TAKEOFF,TO_GROUND_ROLL,28.08,80,51.92,3.82,-0.15,1.13,1.42,90.67,0.093,1,0,0,0,0,0,0,0,0,0,90.37,0,1,0,-0.31,0,0,0.01,90,0,0,0,0,0,0,0,0,-0.022,0,0,0,0,90.37,1,-0.022,0.306,-0.0041,0.337,0,-0.0041,0,0,0,0,0,0,1,1,0,0,VALID,0,0,0,0,0,1,0,0,0,0,0,0,0,0,0,0,0,0,0,0,275.27,511.5,2,0,0.08,0.08,213,14.29,0.08,0.06,14.22,LANDED,CF1-F,0:/Integrated Flight Computer/aircraft/cf1_f_cfg.ks (inferred preloaded)
14.58,TAKEOFF,TO_GROUND_ROLL,29.19,80,50.81,3.82,-0.16,1.12,1.42,90.69,0.093,1,0,0,0,0,0,0,0,0,0,90.37,0,1,0,-0.31,0,0,0.01,90,0,0,0,0,0,0,0,0,-0.024,0,0,0,0,90.37,1,-0.024,0.322,-0.0046,0.348,0,-0.0046,0,0,0,0,0,0,1,1,0,0,VALID,0,0,0,0,0,1,0,0,0,0,0,0,0,0,0,0,0,0,0,0,278.91,510.95,2,0,0.08,0.08,217,14.29,0.08,0.06,14.5,LANDED,CF1-F,0:/Integrated Flight Computer/aircraft/cf1_f_cfg.ks (inferred preloaded)
14.86,TAKEOFF,TO_GROUND_ROLL,30.31,80,49.69,3.82,-0.16,1.12,1.41,90.7,0.093,1,0,0,0,0,0,0,0,0,0,90.36,0,1,0,-0.31,0,0,0.01,90,0,0,0,0,0,0,0,0,-0.026,0,0,0,0,90.36,1,-0.026,0.337,-0.0051,0.36,0,-0.0051,0,0,0,0,0,0,1,1,0,0,VALID,0,0,0,0,0,1,0,0,0,0,0,0,0,0,0,0,0,0,0,0,282.47,510.38,2,0,0.08,0.08,221,14.29,0.08,0.06,14.78,LANDED,CF1-F,0:/Integrated Flight Computer/aircraft/cf1_f_cfg.ks (inferred preloaded)
15.14,TAKEOFF,TO_GROUND_ROLL,31.44,80,48.56,3.82,-0.17,1.12,1.41,90.71,0.093,1,0,0,0,0,0,0,0,0,0,90.36,0,1,0,-0.31,0,0,0.02,90,0,0,0,0,0,0,0,0,-0.028,0,0,0,0,90.36,1,-0.028,0.353,-0.0056,0.373,0,-0.0056,0,0,0,0,0,0,1,1,0,0,VALID,0,0,0,0,0,1,0,0,0,0,0,0,0,0,0,0,0,0,0,0,285.94,509.8,2,0,0.08,0.08,225,14.29,0.08,0.06,15.06,LANDED,CF1-F,0:/Integrated Flight Computer/aircraft/cf1_f_cfg.ks (inferred preloaded)
15.42,TAKEOFF,TO_GROUND_ROLL,32.59,80,47.41,3.82,-0.17,1.14,1.42,90.73,0.093,1,0,0,0,0,0,0,0,0,0,90.36,0,1,0,-0.31,0,0,0.02,90,0,0,0,0,0,0,0,0,-0.031,0,0,0,0,90.36,1,-0.031,0.367,-0.0061,0.385,0,-0.0061,0,0,0,0,0,0,1,1,0,0,VALID,0,0,0,0,0,1,0,0,0,0,0,0,0,0,0,0,0,0,0,0,289.34,509.2,2,0,0.08,0.08,229,14.29,0.08,0.06,15.34,LANDED,CF1-F,0:/Integrated Flight Computer/aircraft/cf1_f_cfg.ks (inferred preloaded)
15.7,TAKEOFF,TO_GROUND_ROLL,33.75,80,46.25,3.83,-0.18,1.17,1.46,90.74,0.093,1,0,0,0,0,0,0,0,0,0,90.36,0,1,0,-0.31,0,0,0.02,90,0,0,0,0,0,0,0,0,-0.033,0,0,0,0,90.36,1,-0.033,0.382,-0.0067,0.397,0,-0.0067,0,0,0,0,0,0,1,1,0,0,VALID,0,0,0,0,0,1,0,0,0,0,0,0,0,0,0,0,0,0,0,0,292.65,508.59,2,0,0.08,0.08,233,14.29,0.08,0.06,15.62,LANDED,CF1-F,0:/Integrated Flight Computer/aircraft/cf1_f_cfg.ks (inferred preloaded)
15.98,TAKEOFF,TO_GROUND_ROLL,34.92,80,45.08,3.84,-0.19,1.21,1.5,90.75,0.092,1,0,0,0,0,0,0,0,0,0,90.36,0,1,0,-0.3,0,0,0.02,90,0,0,0,0,0,0,0,0,-0.036,0,0,0,0,90.36,1,-0.036,0.396,-0.0073,0.41,0,-0.0073,0,0,0,0,0,0,1,1,0,0,VALID,0,0,0,0,0,1,0,0,0,0,0,0,0,0,0,0,0,0,0,0,295.89,507.96,2,0,0.08,0.08,237,14.29,0.08,0.06,15.9,LANDED,CF1-F,0:/Integrated Flight Computer/aircraft/cf1_f_cfg.ks (inferred preloaded)
16.26,TAKEOFF,TO_GROUND_ROLL,36.1,80,43.9,3.84,-0.19,1.25,1.54,90.76,0.092,1,0,0,0,0,0,0,0,0,0,90.35,0,1,0,-0.3,0,0,0.02,90,0,0,0,0,0,0,0,0,-0.039,0,0,0,0,90.35,1,-0.039,0.41,-0.0078,0.422,0,-0.0078,0,0,0,0,0,0,1,1,0,0,VALID,0,0,0,0,0,1,0,0,0,0,0,0,0,0,0,0,0,0,0,0,299.04,507.32,2,0,0.08,0.08,241,14.29,0.08,0.06,16.18,LANDED,CF1-F,0:/Integrated Flight Computer/aircraft/cf1_f_cfg.ks (inferred preloaded)
16.54,TAKEOFF,TO_GROUND_ROLL,37.29,80,42.71,3.85,-0.2,1.28,1.57,90.77,0.093,1,0,0,0,0,0,0,0,0,0,90.35,0,1,0,-0.3,0,0,0.02,90,0,0,0,0,0,0,0,0,-0.042,0,0,0,0,90.35,1,-0.042,0.423,-0.0083,0.435,0,-0.0083,0,0,0,0,0,0,1,1,0,0,VALID,0,0,0,0,0,1,0,0,0,0,0,0,0,0,0,0,0,0,0,0,302.12,506.66,2,0,0.08,0.08,245,14.29,0.08,0.06,16.46,LANDED,CF1-F,0:/Integrated Flight Computer/aircraft/cf1_f_cfg.ks (inferred preloaded)
16.82,TAKEOFF,TO_GROUND_ROLL,38.5,80,41.5,3.85,-0.2,1.31,1.59,90.78,0.093,1,0,0,0,0,0,0,0,0,0,90.35,0,1,0,-0.3,0,0,0.02,90,0,0,0,0,0,0,0,0,-0.045,0,0,0,0,90.35,1,-0.045,0.435,-0.0088,0.448,0,-0.0088,0,0,0,0,0,0,1,1,0,0,VALID,0,0,0,0,0,1,0,0,0,0,0,0,0,0,0,0,0,0,0,0,305.13,505.98,2,0,0.08,0.08,249,14.29,0.08,0.06,16.74,LANDED,CF1-F,0:/Integrated Flight Computer/aircraft/cf1_f_cfg.ks (inferred preloaded)
17.1,TAKEOFF,TO_GROUND_ROLL,39.72,80,40.28,3.85,-0.21,1.32,1.6,90.79,0.093,1,0,0,0,0,0,0,0,0,0,90.35,0,1,0,-0.3,0,0,0.02,90,0,0,0,0,0,0,0,0,-0.048,0,0,0,0,90.35,1,-0.048,0.447,-0.0093,0.461,0,-0.0093,0,0,0,0,0,0,1,1,0,0,VALID,0,0,0,0,0,1,0,0,0,0,0,0,0,0,0,0,0,0,0,0,308.06,505.29,2,0,0.08,0.08,253,14.29,0.08,0.06,17.02,LANDED,CF1-F,0:/Integrated Flight Computer/aircraft/cf1_f_cfg.ks (inferred preloaded)
17.38,TAKEOFF,TO_GROUND_ROLL,40.94,80,39.06,3.86,-0.21,1.32,1.6,90.8,0.093,1,0,0,0,0,0,0,0,0,0,90.34,0,1,0,-0.3,0,0,0.02,90,0,0,0,0,0,0,0,0,-0.051,0,0,0,0,90.34,1,-0.051,0.458,-0.0098,0.474,0,-0.0098,0,0,0,0,0,0,1,1,0,0,VALID,0,0,0,0,0,1,0,0,0,0,0,0,0,0,0,0,0,0,0,0,310.91,504.59,2,0,0.08,0.08,257,14.29,0.08,0.06,17.3,LANDED,CF1-F,0:/Integrated Flight Computer/aircraft/cf1_f_cfg.ks (inferred preloaded)
17.66,TAKEOFF,TO_GROUND_ROLL,42.18,80,37.82,3.86,-0.22,1.33,1.61,90.81,0.094,1,0,0,0,0,0,0,0,0,0,90.34,0,1,0,-0.3,0,0,0.02,90,0,0,0,0,0,0,0,0,-0.055,0,0,0,0,90.34,1,-0.055,0.469,-0.0103,0.488,0,-0.0103,0,0,0,0,0,0,1,1,0,0,VALID,0,0,0,0,0,1,0,0,0,0,0,0,0,0,0,0,0,0,0,0,313.69,503.87,2,0,0.08,0.08,261,14.29,0.08,0.06,17.58,LANDED,CF1-F,0:/Integrated Flight Computer/aircraft/cf1_f_cfg.ks (inferred preloaded)
17.94,TAKEOFF,TO_GROUND_ROLL,43.43,80,36.57,3.86,-0.22,1.35,1.63,90.82,0.094,1,0,0,0,0,0,0,0,0,0,90.34,0,1,0,-0.29,0,0,0.03,90,0,0,0,0,0,0,0,0,-0.058,0,0,0,0,90.34,1,-0.058,0.479,-0.0108,0.501,0,-0.0108,0,0,0,0,0,0,1,1,0,0,VALID,0,0,0,0,0,1,0,0,0,0,0,0,0,0,0,0,0,0,0,0,316.4,503.14,2,0,0.08,0.08,265,14.29,0.08,0.06,17.86,LANDED,CF1-F,0:/Integrated Flight Computer/aircraft/cf1_f_cfg.ks (inferred preloaded)
18.22,TAKEOFF,TO_GROUND_ROLL,44.68,80,35.32,3.86,-0.23,1.37,1.65,90.82,0.094,1,0,0,0,0,0,0,0,0,0,90.33,0,1,0,-0.29,0,0,0.03,90,0,0,0,0,0,0,0,0,-0.062,0,0,0,0,90.33,1,-0.062,0.488,-0.0113,0.514,0,-0.0113,0,0,0,0,0,0,1,1,0,0,VALID,0,0,0,0,0,1,0,0,0,0,0,0,0,0,0,0,0,0,0,0,319.04,502.39,2,0,0.08,0.08,269,14.29,0.08,0.06,18.14,LANDED,CF1-F,0:/Integrated Flight Computer/aircraft/cf1_f_cfg.ks (inferred preloaded)
18.5,TAKEOFF,TO_GROUND_ROLL,45.95,80,34.05,3.87,-0.23,1.4,1.68,90.83,0.094,1,0,0,0,0,0,0,0,0,0,90.33,0,1,0,-0.29,0,0,0.03,90,0,0,0,0,0,0,0,0,-0.066,0,0,0,0,90.33,1,-0.066,0.497,-0.0118,0.528,0,-0.0118,0,0,0,0,0,0,1,1,0,0,VALID,0,0,0,0,0,1,0,0,0,0,0,0,0,0,0,0,0,0,0,0,321.61,501.62,2,0,0.08,0.08,273,14.29,0.08,0.06,18.42,LANDED,CF1-F,0:/Integrated Flight Computer/aircraft/cf1_f_cfg.ks (inferred preloaded)
18.78,TAKEOFF,TO_GROUND_ROLL,47.23,80,32.77,3.88,-0.24,1.43,1.7,90.83,0.095,1,0,0,0,0,0,0,0,0,0,90.33,0,1,0,-0.29,0,0,0.03,90,0,0,0,0,0,0,0,0,-0.07,0,0,0,0,90.33,1,-0.07,0.505,-0.0123,0.542,0,-0.0123,0,0,0,0,0,0,1,1,0,0,VALID,0,0,0,0,0,1,0,0,0,0,0,0,0,0,0,0,0,0,0,0,324.11,500.85,2,0,0.08,0.08,277,14.29,0.08,0.06,18.7,LANDED,CF1-F,0:/Integrated Flight Computer/aircraft/cf1_f_cfg.ks (inferred preloaded)
19.06,TAKEOFF,TO_GROUND_ROLL,48.51,80,31.49,3.88,-0.24,1.45,1.73,90.84,0.096,1,0,0,0,0,0,0,0,0,0,90.32,0,1,0,-0.29,0,0,0.03,90,0,0,0,0,0,0,0,0,-0.074,0,0,0,0,90.32,1,-0.074,0.513,-0.0128,0.555,0,-0.0128,0,0,0,0,0,0,1,1,0,0,VALID,0,0,0,0,0,1,0,0,0,0,0,0,0,0,0,0,0,0,0,0,326.54,500.06,2,0,0.08,0.08,281,14.29,0.08,0.06,18.98,LANDED,CF1-F,0:/Integrated Flight Computer/aircraft/cf1_f_cfg.ks (inferred preloaded)
19.34,TAKEOFF,TO_GROUND_ROLL,49.8,80,30.2,3.88,-0.25,1.47,1.75,90.84,0.096,1,0,0,0,0,0,0,0,0,0,90.32,0,1,0,-0.29,0,0,0.03,90,0,0,0,0,0,0,0,0,-0.078,0,0,0,0,90.32,1,-0.078,0.52,-0.0133,0.569,0,-0.0133,0,0,0,0,0,0,1,1,0,0,VALID,0,0,0,0,0,1,0,0,0,0,0,0,0,0,0,0,0,0,0,0,328.91,499.26,2,0,0.08,0.08,285,14.29,0.08,0.06,19.26,LANDED,CF1-F,0:/Integrated Flight Computer/aircraft/cf1_f_cfg.ks (inferred preloaded)
19.62,TAKEOFF,TO_GROUND_ROLL,51.1,80,28.9,3.89,-0.25,1.49,1.76,90.84,0.097,1,0,0,0,0,0,0,0,0,0,90.32,0,1,0,-0.29,0,0,0.03,90,0,0,0,0,0,0,0,0,-0.082,0,0,0,0,90.32,1,-0.082,0.526,-0.0138,0.583,0,-0.0138,0,0,0,0,0,0,1,1,0,0,VALID,0,0,0,0,0,1,0,0,0,0,0,0,0,0,0,0,0,0,0,0,331.21,498.44,2,0,0.08,0.08,289,14.29,0.08,0.06,19.54,LANDED,CF1-F,0:/Integrated Flight Computer/aircraft/cf1_f_cfg.ks (inferred preloaded)
19.9,TAKEOFF,TO_GROUND_ROLL,52.41,80,27.59,3.89,-0.26,1.5,1.77,90.84,0.097,1,0,0,0,0,0,0,0,0,0,90.31,0,1,0,-0.28,0,0,0.03,90,0,0,0,0,0,0,0,0,-0.087,0,0,0,0,90.31,1,-0.087,0.531,-0.0143,0.597,0,-0.0143,0,0,0,0,0,0,1,1,0,0,VALID,0,0,0,0,0,1,0,0,0,0,0,0,0,0,0,0,0,0,0,0,333.44,497.61,2,0,0.08,0.08,293,14.29,0.08,0.06,19.82,LANDED,CF1-F,0:/Integrated Flight Computer/aircraft/cf1_f_cfg.ks (inferred preloaded)
20.18,TAKEOFF,TO_GROUND_ROLL,53.72,80,26.28,3.89,-0.26,1.51,1.78,90.84,0.098,1,0,0,0,0,0,0,0,0,0,90.31,0,1,0,-0.28,0,0,0.04,90,0,0,0,0,0,0,0,0,-0.091,0,0,0,0,90.31,1,-0.091,0.536,-0.0147,0.611,0,-0.0147,0,0,0,0,0,0,1,1,0,0,VALID,0,0,0,0,0,1,0,0,0,0,0,0,0,0,0,0,0,0,0,0,335.61,496.77,2,0,0.08,0.08,297,14.29,0.08,0.06,20.1,LANDED,CF1-F,0:/Integrated Flight Computer/aircraft/cf1_f_cfg.ks (inferred preloaded)
20.46,TAKEOFF,TO_GROUND_ROLL,55.04,80,24.96,3.89,-0.27,1.53,1.8,90.84,0.099,1,0,0,0,0,0,0,0,0,0,90.3,0,1,0,-0.28,0,0,0.04,90,0,0,0,0,0,0,0,0,-0.096,0,0,0,0,90.3,1,-0.096,0.54,-0.0152,0.625,0,-0.0152,0,0,0,0,0,0,1,1,0,0,VALID,0,0,0,0,0,1,0,0,0,0,0,0,0,0,0,0,0,0,0,0,337.72,495.92,2,0,0.08,0.08,301,14.29,0.08,0.06,20.38,LANDED,CF1-F,0:/Integrated Flight Computer/aircraft/cf1_f_cfg.ks (inferred preloaded)
20.74,TAKEOFF,TO_GROUND_ROLL,56.37,80,23.63,3.9,-0.27,1.55,1.82,90.84,0.1,1,0,0,0,0,0,0,0,0,0,90.3,0,1,0,-0.28,0,0,0.04,90,0,0,0,0,0,0,0,0,-0.101,0,0,0,0,90.3,1,-0.101,0.544,-0.0157,0.64,0,-0.0157,0,0,0,0,0,0,1,1,0,0,VALID,0,0,0,0,0,1,0,0,0,0,0,0,0,0,0,0,0,0,0,0,339.77,495.06,2,0,0.08,0.08,305,14.29,0.08,0.06,20.66,LANDED,CF1-F,0:/Integrated Flight Computer/aircraft/cf1_f_cfg.ks (inferred preloaded)
21.02,TAKEOFF,TO_GROUND_ROLL,57.7,80,22.3,3.9,-0.28,1.57,1.84,90.84,0.101,1,0,0,0,0,0,0,0,0,0,90.3,0,1,0,-0.28,0,0,0.04,90,0,0,0,0,0,0,0,0,-0.106,0,0,0,0,90.3,1,-0.106,0.546,-0.0161,0.654,0,-0.0161,0,0,0,0,0,0,1,1,0,0,VALID,0,0,0,0,0,1,0,0,0,0,0,0,0,0,0,0,0,0,0,0,341.75,494.18,2,0,0.08,0.08,309,14.29,0.08,0.06,20.94,LANDED,CF1-F,0:/Integrated Flight Computer/aircraft/cf1_f_cfg.ks (inferred preloaded)
21.3,TAKEOFF,TO_GROUND_ROLL,59.04,80,20.96,3.91,-0.28,1.59,1.86,90.84,0.101,1,0,0,0,0,0,0,0,0,0,90.29,0,1,0,-0.28,0,0,0.04,90,0,0,0,0,0,0,0,0,-0.111,0,0,0,0,90.29,1,-0.111,0.547,-0.0165,0.668,0,-0.0165,0,0,0,0,0,0,1,1,0,0,VALID,0,0,0,0,0,1,0,0,0,0,0,0,0,0,0,0,0,0,0,0,343.68,493.3,2,0,0.08,0.08,313,14.29,0.08,0.06,21.22,LANDED,CF1-F,0:/Integrated Flight Computer/aircraft/cf1_f_cfg.ks (inferred preloaded)
21.58,TAKEOFF,TO_GROUND_ROLL,60.39,80,19.61,3.91,-0.29,1.61,1.88,90.84,0.102,1,0,0,0,0,0,0,0,0,0,90.29,0,1,0,-0.27,0,0,0.04,90,0,0,0,0,0,0,0,0,-0.116,0,0,0,0,90.29,1,-0.116,0.549,-0.0169,0.683,0,-0.0169,0,0,0,0,0,0,1,1,0,0,VALID,0,0,0,0,0,1,0,0,0,0,0,0,0,0,0,0,0,0,0,0,345.55,492.4,2,0,0.08,0.08,317,14.29,0.08,0.06,21.5,LANDED,CF1-F,0:/Integrated Flight Computer/aircraft/cf1_f_cfg.ks (inferred preloaded)
21.86,TAKEOFF,TO_GROUND_ROLL,61.74,80,18.26,3.91,-0.29,1.63,1.89,90.83,0.105,1,0,0,0,0,0,0,0,0,0,90.28,0,1,0,-0.27,0,0,0.05,90,0,0,0,0,0,0,0,0,-0.121,0,0,0,0,90.28,1,-0.121,0.549,-0.0172,0.697,0,-0.0172,0,0,0,0,0,0,1,1,0,0,VALID,0,0,0,0,0,1,0,0,0,0,0,0,0,0,0,0,0,0,0,0,347.35,491.5,2,0,0.08,0.08,321,14.29,0.08,0.06,21.78,LANDED,CF1-F,0:/Integrated Flight Computer/aircraft/cf1_f_cfg.ks (inferred preloaded)
22.14,TAKEOFF,TO_GROUND_ROLL,63.09,80,16.91,3.93,-0.36,1.69,1.99,90.83,0.11,1,0,0,0,0,0,0,0,0,0,90.28,0,1,0,-0.32,0,0,0.05,90,0,0,0,0,0,0,0,0,-0.126,0,0,0,0,90.28,1,-0.126,0.549,-0.0176,0.712,0,-0.0176,0,0,0,0,0,0,1,1,0,0,VALID,0,0,0,0,0,1,0,0,0,0,0,0,0,0,0,0,0,0,0,0,349.11,490.58,2,0,0.08,0.08,325,14.29,0.08,0.06,22.06,LANDED,CF1-F,0:/Integrated Flight Computer/aircraft/cf1_f_cfg.ks (inferred preloaded)
22.42,TAKEOFF,TO_GROUND_ROLL,64.45,80,15.55,3.94,-0.26,1.78,2.01,90.82,0.114,1,0,0,0,0,0,0,0,0,0,90.27,0,1,0,-0.24,0,0,0.05,90,0,0,0,0,0,0,0,0,-0.132,0,0,0,0,90.27,1,-0.132,0.549,-0.018,0.726,0,-0.018,0,0,0,0,0,0,1,1,0,0,VALID,0,0,0,0,0,1,0,0,0,0,0,0,0,0,0,0,0,0,0,0,350.81,489.66,2,0,0.08,0.08,329,14.29,0.08,0.06,22.34,LANDED,CF1-F,0:/Integrated Flight Computer/aircraft/cf1_f_cfg.ks (inferred preloaded)
22.7,TAKEOFF,TO_GROUND_ROLL,65.82,80,14.18,3.97,-0.3,1.9,2.14,90.82,0.116,1,0,0,0,0,0,0,0,0,0,90.27,0,1,0,-0.26,0,0,0.05,90,0,0,0,0,0,0,0,0,-0.137,0,0,0,0,90.27,1,-0.137,0.549,-0.0183,0.741,0,-0.0183,0,0,0,0,0,0,1,1,0,0,VALID,0,0,0,0,0,1,0,0,0,0,0,0,0,0,0,0,0,0,0,0,352.45,488.73,2,0,0.08,0.08,333,14.29,0.08,0.06,22.62,LANDED,CF1-F,0:/Integrated Flight Computer/aircraft/cf1_f_cfg.ks (inferred preloaded)
22.98,TAKEOFF,TO_GROUND_ROLL,67.18,80,12.82,4,-0.24,2.07,2.29,90.81,0.118,1,0,0,0,0,0,0,0,0,0,90.26,0,1,0,-0.21,0,0,0.05,90,0,0,0,0,0,0,0,0,-0.143,0,0,0,0,90.26,1,-0.143,0.549,-0.0187,0.756,0,-0.0187,0,0,0,0,0,0,1,1,0,0,VALID,0,0,0,0,0,1,0,0,0,0,0,0,0,0,0,0,0,0,0,0,354.04,487.79,2,0,0.08,0.08,337,14.29,0.08,0.06,22.9,LANDED,CF1-F,0:/Integrated Flight Computer/aircraft/cf1_f_cfg.ks (inferred preloaded)
23.26,TAKEOFF,TO_GROUND_ROLL,68.55,80,11.45,4.08,-0.38,2.29,2.53,90.8,0.113,1,0,0,0,0,0,0,0,0,0,90.26,0,1,0,-0.31,0,0,0.06,90,0,0,0,0,0,0,0,0,-0.148,0,0,0,0,90.26,1,-0.148,0.547,-0.019,0.77,0,-0.019,0,0,0,0,0,0,1,1,0,0,VALID,0,0,0,0,0,1,0,0,0,0,0,0,0,0,0,0,0,0,0,0,355.58,486.84,2,0,0.08,0.08,341,14.29,0.08,0.06,23.18,LANDED,CF1-F,0:/Integrated Flight Computer/aircraft/cf1_f_cfg.ks (inferred preloaded)
23.54,TAKEOFF,TO_GROUND_ROLL,69.91,80,10.09,4.13,-0.18,2.67,2.8,90.8,0.107,1,0,0,0,0,0,0,0,0,0,90.25,0,1,0,-0.15,0,0,0.06,90,0,0,0,0,0,0,0,0,-0.154,0,0,0,0,90.25,1,-0.154,0.546,-0.0193,0.785,0,-0.0193,0,0,0,0,0,0,1,1,0,0,VALID,0,0,0,0,0,1,0,0,0,0,0,0,0,0,0,0,0,0,0,0,357.08,485.89,2,0,0.08,0.08,345,14.29,0.08,0.06,23.46,LANDED,CF1-F,0:/Integrated Flight Computer/aircraft/cf1_f_cfg.ks (inferred preloaded)
23.84,TAKEOFF,TO_ROTATE,71.37,80,8.63,4.23,-0.36,3.12,3.41,90.79,0.106,1,0,0,0,0,0,0,0,0,0,90.25,3.409,1,0,-0.3,0,0,0.06,90,0,0,0,0,0,0,0,0,-0.16,0,0,0,0,90.25,1,-0.16,0.544,-0.0196,0.799,0,-0.0196,0,0.12,3.409,0.285,0.08,0,1,1,0,0,VALID,0,0,0,0,0,1,0,0,0,0,0,0,0,0,0,0,0,0,0,0,358.63,484.88,2,0,0.08,0.08,349,13.33,0.08,0.06,23.74,LANDED,CF1-F,0:/Integrated Flight Computer/aircraft/cf1_f_cfg.ks (inferred preloaded)
24.12,TAKEOFF,TO_ROTATE,72.72,80,7.28,4.36,-0.24,3.74,3.91,90.78,0.109,1,0,0,0,0,0,0,0,0,0,90.24,4.249,1,0,-0.18,0,0,0.06,90,0,0,0,0,0,0,0,0,-0.165,0,0,0,0,90.24,1,-0.165,0.543,-0.0199,0.814,0,-0.0199,0,0.1209,4.249,0.511,0.08,0,1,1,0,0,VALID,0,0,0,0,0,1,0,0,0,0,0,0,0,0,0,0,0,0,0,0,360.03,483.93,2,0,0.08,0.08,353,14.29,0.08,0.06,24.02,LANDED,CF1-F,0:/Integrated Flight Computer/aircraft/cf1_f_cfg.ks (inferred preloaded)
24.4,TAKEOFF,TO_ROTATE,74.05,80,5.95,4.51,-0.28,4.56,4.77,90.77,0.11,1,0,0,0,0,0,0,0,0,0,90.23,5.089,1,0,-0.22,0,0,0.06,90,0,0,0,0,0,0,0,0,-0.171,0,0,0,0,90.23,1,-0.171,0.54,-0.0201,0.828,0,-0.0201,0,0.1225,5.089,0.531,0.08,0,1,1,0,0,VALID,0,0,0,0,0,1,0,0,0,0,0,0,0,0,0,0,0,0,0,0,361.39,483,2,0,0.08,0.08,357,14.29,0.08,0.06,24.3,LANDED,CF1-F,0:/Integrated Flight Computer/aircraft/cf1_f_cfg.ks (inferred preloaded)
24.68,TAKEOFF,TO_ROTATE,75.35,80,4.65,4.7,-0.27,5.55,5.74,90.77,0.111,1,0,0,0,0,0,0,0,0,0,90.23,5.929,1,0,-0.2,0,0,0.07,90,0,0,0,0,0,0,0,0,-0.177,0,0,0,0,90.23,1,-0.177,0.536,-0.0203,0.842,0,-0.0203,0,0.12,5.929,0.379,0.08,0,1,1,0,0,VALID,0,0,0,0,0,1,0,0,0,0,0,0,0,0,0,0,0,0,0,0,362.73,482.08,2,0,0.08,0.08,361,14.29,0.08,0.06,24.58,LANDED,CF1-F,0:/Integrated Flight Computer/aircraft/cf1_f_cfg.ks (inferred preloaded)
24.96,TAKEOFF,TO_ROTATE,76.61,80,3.39,4.92,-0.26,6.68,6.87,90.75,0.106,1,0,0,0,0,0,0,0,0,0,90.23,6.769,1,0,-0.2,0,0,0.07,90,0,0,0,0,0,0,0,0,-0.183,0,0,0,0,90.23,1,-0.183,0.529,-0.0204,0.856,0,-0.0204,0,0.12,6.769,0.089,0.08,0,1,1,0,0,VALID,0,0,0,0,0,1,0,0,0,0,0,0,0,0,0,0,0,0,0,0,364.04,481.18,2,0,0.08,0.08,365,14.29,0.08,0.06,24.86,LANDED,CF1-F,0:/Integrated Flight Computer/aircraft/cf1_f_cfg.ks (inferred preloaded)
25.24,TAKEOFF,TO_ROTATE,77.81,80,2.19,5.14,-0.28,7.85,8.05,90.74,0.098,1,0,0,0,0,0,0,0,0,0,90.22,7.609,1,0,-0.21,0,0,0.07,90,0,0,0,0,0,0,0,0,-0.189,0,0,0,0,90.22,1,-0.189,0.518,-0.0202,0.869,0,-0.0202,0,0.0605,7.609,-0.243,0.08,0,1,1,0,0,VALID,0,0,0,0,0,1,0,0,0,0,0,0,0,0,0,0,0,0,0,0,365.34,480.33,2,0,0.08,0.08,369,14.29,0.08,0.06,25.14,LANDED,CF1-F,0:/Integrated Flight Computer/aircraft/cf1_f_cfg.ks (inferred preloaded)
25.5,TAKEOFF,TO_ROTATE,78.87,80,1.13,5.34,-0.11,8.93,8.95,90.72,0.068,1,0,0,0,0,0,0,0,0,0,90.4,8.449,1,0,-0.08,0,0,0.07,90,-0.9224,-0.0064,0.3863,17.4,90.4,0,0,0,0,0,0,0,0,90.4,1,0,0.321,0,0,3,0,0,0,8.449,-0.481,0,0,1,1,0,0,VALID,0,0,0,0,0,1,0,0,0,0,0,0,0,0,0,0,0,0,0,0,366.55,479.58,2,0,0.08,0.08,373,15.38,0.08,0.06,25.4,FLYING,CF1-F,0:/Integrated Flight Computer/aircraft/cf1_f_cfg.ks (inferred preloaded)
25.78,TAKEOFF,TO_ROTATE,79.94,80,0.06,5.61,0.36,9.71,9.43,90.73,0.043,1,0,0,0,0,0,0,0,0,0,90.4,9.289,0,1,0.26,0,0,18.38,90.4,-0.9133,-0.0064,0.4073,18.72,90.4,0,0,0,0,0,0,0,0,90.4,1,0,0.329,0,0,3,0,0,0,9.289,-0.418,0,0,1,1,0,0,VALID,0,0,0,0,0,1,0,0,0,0,0,0,0,0,0,0,0,0,0,0,367.84,478.81,2,0,0.08,0.08,377,14.29,0.08,0.06,25.68,FLYING,CF1-F,0:/Integrated Flight Computer/aircraft/cf1_f_cfg.ks (inferred preloaded)
26.06,TAKEOFF,TO_ROTATE,80.96,80,-0.96,6.07,0.89,10.83,10.14,90.76,-0.008,1,0,0,0,0,0,0,0,0,0,90.4,10,0,1,0.63,0,0,19.74,90.4,-0.9029,-0.0063,0.4299,20.14,90.4,0,0,0,0,0,0,0,0,90.4,1,0,0.365,0,0,3,0,0,0,10,-0.833,0,0,1,1,0,0,VALID,0,0,0,0,0,1,0,0,0,0,0,0,0,0,0,0,0,0,0,0,369.11,478.06,2,0,0.08,0.08,381,14.29,0.08,0.06,25.96,FLYING,CF1-F,0:/Integrated Flight Computer/aircraft/cf1_f_cfg.ks (inferred preloaded)
26.34,TAKEOFF,TO_ROTATE,81.89,80,-1.89,6.79,1.93,12.19,10.89,90.74,-0.036,1,0,0,0,0,0,0,0,0,0,90.4,10,0,1,1.35,0,0,20.82,90.4,-0.8972,-0.0063,0.4415,20.89,90.4,0,0,0,0,0,0,0,0,90.4,1,0,0.339,0,0,3,0,0,0,10,-2.188,0,0,1,1,0,0,VALID,0,0,0,0,0,1,0,0,0,0,0,0,0,0,0,0,0,0,0,0,370.38,477.36,2,0,0.08,0.08,385,14.29,0.08,0.06,26.24,FLYING,CF1-F,0:/Integrated Flight Computer/aircraft/cf1_f_cfg.ks (inferred preloaded)
26.62,TAKEOFF,TO_CLIMB,82.74,80,-2.74,7.65,3.06,12.56,10.55,90.74,-0.047,0.9726,0,0,0,0,0,0,0,0,0,90.4,12.216,0,1,2.12,0,0,23.04,90.4,-0.8823,-0.0062,0.4706,22.76,90.4,0,0,0,0,0,0,0,0,90.4,1,0,0.335,0,0,3,0,0,0,10,-2.44,0,0,1,1,0,0,VALID,0,0,0,0,0,1,0,0,0,0,0,0,0,0,0,0,0,0,0,0,371.63,476.7,2,0,0.08,0.08,389,14.29,0.08,0.06,26.52,FLYING,CF1-F,0:/Integrated Flight Computer/aircraft/cf1_f_cfg.ks (inferred preloaded)
26.9,TAKEOFF,TO_CLIMB,83.59,80,-3.59,8.81,4.07,12.9,10.23,90.73,-0.083,0.9641,0,0,0,0,0,0,0,0,0,90.4,11.768,0,1,2.78,0,0,22.18,90.4,-0.8885,-0.0062,0.4588,22,90.4,0,0,0,0,0,0,0,0,90.4,1,0,0.325,0,0,3,0,0,0,10,-2.44,0,0,1,1,0,0,VALID,0,0,0,0,0,1,0,0,0,0,0,0,0,0,0,0,0,0,0,0,372.62,476.02,2,0,0.08,0.08,393,14.29,0.08,0.06,26.8,FLYING,CF1-F,0:/Integrated Flight Computer/aircraft/cf1_f_cfg.ks (inferred preloaded)
27.18,TAKEOFF,TO_CLIMB,84.42,80,-4.42,10.25,5.14,13.15,9.82,90.72,-0.113,0.9558,0,0,0,0,0,0,0,0,0,90.4,11.32,0,1,3.48,0,0,21.41,90.4,-0.8953,-0.0062,0.4454,21.14,90.4,0,0,0,0,0,0,0,0,90.4,1,0,0.316,0,0,3,0,0,0,10,-2.44,0,0,1,1,0,0,VALID,0,0,0,0,0,1,0,0,0,0,0,0,0,0,0,0,0,0,0,0,373.5,475.34,2,0,0.08,0.08,397,14.29,0.08,0.06,27.08,FLYING,CF1-F,0:/Integrated Flight Computer/aircraft/cf1_f_cfg.ks (inferred preloaded)
27.46,TAKEOFF,TO_CLIMB,85.25,80,-5.25,11.94,6.13,13.2,9.25,90.71,-0.138,0.9475,0,0,0,0,0,0,0,0,0,90.4,10.872,0,1,4.12,0,0,20.41,90.4,-0.9031,-0.0063,0.4293,20.12,90.4,0,0,0,0,0,0,0,0,90.4,1,0,0.307,0,0,3,0,0,0,10,-2.44,0,0,1,1,0,0,VALID,0,0,0,0,0,1,0,0,0,0,0,0,0,0,0,0,0,0,0,0,374.28,474.63,2,0,0.08,0.08,401,14.29,0.08,0.06,27.36,FLYING,CF1-F,0:/Integrated Flight Computer/aircraft/cf1_f_cfg.ks (inferred preloaded)
27.74,TAKEOFF,TO_CLIMB,86.08,80,-6.08,13.91,7.02,13.33,8.82,90.7,-0.148,0.9392,0,0,0,0,0,0,0,0,0,90.4,10.424,0,1,4.66,0,0,19.45,90.4,-0.9096,-0.0064,0.4155,19.25,90.4,0,0,0,0,0,0,0,0,90.4,1,0,0.299,0,0,3,0,0,0,10,-2.44,0,0,1,1,0,0,VALID,0,0,0,0,0,1,0,0,0,0,0,0,0,0,0,0,0,0,0,0,374.95,473.91,2,0,0.08,0.08,405,14.29,0.08,0.06,27.64,FLYING,CF1-F,0:/Integrated Flight Computer/aircraft/cf1_f_cfg.ks (inferred preloaded)
28.02,TAKEOFF,TO_CLIMB,86.9,80,-6.9,16.16,7.89,13.61,8.58,90.69,-0.159,0.931,0,0,0,0,0,0,0,0,0,90.4,9.976,0,1,5.19,0,0,18.71,90.4,-0.9145,-0.0064,0.4045,18.56,90.4,0,0,0,0,0,0,0,0,90.4,1,0,0.293,0,0,3,0,0,0,10,-2.44,0,0,1,1,0,0,VALID,0,0,0,0,0,1,0,0,0,0,0,0,0,0,0,0,0,0,0,0,375.52,473.17,2,0,0.08,0.08,409,14.29,0.08,0.06,27.92,FLYING,CF1-F,0:/Integrated Flight Computer/aircraft/cf1_f_cfg.ks (inferred preloaded)
28.3,TAKEOFF,TO_CLIMB,87.71,80,-7.71,18.64,8.85,13.82,8.25,90.68,-0.184,0.9229,0,0,0,0,0,0,0,0,0,90.4,9.528,0,1,5.76,0,0,18.05,90.4,-0.9199,-0.0064,0.392,17.78,90.4,0,0,0,0,0,0,0,0,90.4,1,0,0.282,0,0,3,0,0,0,10,-2.44,0,0,1,1,0,0,VALID,0,0,0,0,0,1,0,0,0,0,0,0,0,0,0,0,0,0,0,0,376,472.43,2,0,0.08,0.08,413,14.29,0.08,0.06,28.2,FLYING,CF1-F,0:/Integrated Flight Computer/aircraft/cf1_f_cfg.ks (inferred preloaded)
28.58,TAKEOFF,TO_CLIMB,88.51,80,-8.51,21.34,9.7,13.82,7.77,90.67,-0.206,0.9149,0,0,0,0,0,0,0,0,0,90.4,9.08,0,1,6.25,0,0,17.12,90.4,-0.9262,-0.0065,0.3769,16.85,90.4,0,0,0,0,0,0,0,0,90.4,1,0,0.273,0,0,3,0,0,0,10,-2.44,0,0,1,1,0,0,VALID,0,0,0,0,0,1,0,0,0,0,0,0,0,0,0,0,0,0,0,0,376.39,471.67,2,0,0.08,0.08,417,14.29,0.08,0.06,28.48,FLYING,CF1-F,0:/Integrated Flight Computer/aircraft/cf1_f_cfg.ks (inferred preloaded)
28.86,TAKEOFF,TO_CLIMB,89.32,80,-9.32,24.28,10.53,13.88,7.37,90.66,-0.225,0.9068,0,0,0,0,0,0,0,0,0,90.4,8.632,0,1,6.73,0,0,16.25,90.4,-0.9317,-0.0065,0.3631,16,90.4,0,0,0,0,0,0,0,0,90.4,1,0,0.263,0,0,3,0,0,0,10,-2.44,0,0,1,1,0,0,VALID,0,0,0,0,0,1,0,0,0,0,0,0,0,0,0,0,0,0,0,0,376.67,470.9,2,0,0.08,0.08,421,14.29,0.08,0.06,28.76,FLYING,CF1-F,0:/Integrated Flight Computer/aircraft/cf1_f_cfg.ks (inferred preloaded)
29.14,TAKEOFF,TO_CLIMB,90.1,80,-10.1,27.48,11.36,14.05,7.05,90.65,-0.233,0.899,0,0,0,0,0,0,0,0,0,90.4,8.184,0,1,7.19,0,0,15.39,90.4,-0.9365,-0.0065,0.3506,15.23,90.4,0,0,0,0,0,0,0,0,90.4,1,0,0.254,0,0,3,0,0,0,10,-2.44,0,0,1,1,0,0,VALID,0,0,0,0,0,1,0,0,0,0,0,0,0,0,0,0,0,0,0,0,376.88,470.13,2,0,0.08,0.08,425,14.29,0.08,0.06,29.04,FLYING,CF1-F,0:/Integrated Flight Computer/aircraft/cf1_f_cfg.ks (inferred preloaded)
29.42,TAKEOFF,TO_CLIMB,90.87,80,-10.87,30.95,12.25,14.41,6.93,90.64,-0.236,0.8913,0,0,0,0,0,0,0,0,0,90.4,8,0,1,7.68,0,0,14.97,90.4,-0.9384,-0.0066,0.3456,14.93,90.4,0,0,0,0,0,0,0,0,90.4,1,0,0.244,0,0,3,0,0,0,10,-2.44,0,0,1,1,0,0,VALID,0,0,0,0,0,1,0,0,0,0,0,0,0,0,0,0,0,0,0,0,377.01,469.35,2,0,0.08,0.08,429,14.29,0.08,0.06,29.32,FLYING,CF1-F,0:/Integrated Flight Computer/aircraft/cf1_f_cfg.ks (inferred preloaded)
29.7,TAKEOFF,TO_CLIMB,91.61,80,-11.61,34.66,13.14,14.75,6.79,90.64,-0.241,0.8839,0,0,0,0,0,0,0,0,0,90.4,8,0,1,8.16,0,0,14.83,90.4,-0.9392,-0.0066,0.3433,14.79,90.4,0,0,0,0,0,0,0,0,90.4,1,0,0.235,0,0,3,0,0,0,10,-2.44,0,0,1,1,0,0,VALID,0,0,0,0,0,1,0,0,0,0,0,0,0,0,0,0,0,0,0,0,377.06,468.57,2,0,0.08,0.08,433,14.29,0.08,0.06,29.6,FLYING,CF1-F,0:/Integrated Flight Computer/aircraft/cf1_f_cfg.ks (inferred preloaded)
29.98,TAKEOFF,TO_CLIMB,92.34,80,-12.34,38.6,14.12,14.91,6.46,90.62,-0.265,0.8766,0,0,0,0,0,0,0,0,0,90.4,8,0,1,8.69,0,0,14.64,90.4,-0.9412,-0.0066,0.3379,14.46,90.4,0,0,0,0,0,0,0,0,90.4,1,0,0.224,0,0,3,0,0,0,10,-2.44,0,0,1,1,0,0,VALID,0,0,0,0,0,1,0,0,0,0,0,0,0,0,0,0,0,0,0,0,377.04,467.8,2,0,0.08,0.08,437,14.29,0.08,0.06,29.88,FLYING,CF1-F,0:/Integrated Flight Computer/aircraft/cf1_f_cfg.ks (inferred preloaded)
30.26,TAKEOFF,TO_CLIMB,93.04,80,-13.04,42.64,14.89,14.12,5.29,90.62,-0.275,0.8696,0,0,0,0,0,0,0,0,0,90.4,8,0,1,9.09,0,0,13.62,90.4,-0.9479,-0.0066,0.3184,13.29,90.4,0,0,0,0,0,0,0,0,90.4,1,0,0.218,0,0,3,0,0,0,10,-2.44,0,0,1,1,0,0,VALID,0,0,0,0,0,1,0,0,0,0,0,0,0,0,0,0,0,0,0,0,376.95,467.02,2,0,0.08,0.08,441,14.29,0.08,0.06,30.16,FLYING,CF1-F,0:/Integrated Flight Computer/aircraft/cf1_f_cfg.ks (inferred preloaded)
30.54,TAKEOFF,TO_CLIMB,93.82,80,-13.82,46.91,15.18,13.95,4.96,90.61,-0.289,0.8618,0,0,0,0,0,0,0,0,0,90.4,8,0,1,9.19,0,0,12.99,90.4,-0.9497,-0.0066,0.313,12.96,90.4,0,0,0,0,0,0,0,0,90.4,1,0,0.209,0,0,3,0,0,0,10,-2.44,0,0,1,1,0,0,VALID,0,0,0,0,0,1,0,0,0,0,0,0,0,0,0,0,0,0,0,0,376.74,466.17,2,0,0.08,0.08,445,14.29,0.08,0.06,30.44,FLYING,CF1-F,0:/Integrated Flight Computer/aircraft/cf1_f_cfg.ks (inferred preloaded)
30.82,TAKEOFF,TO_CLIMB,94.63,80,-14.63,51.36,15.52,14.34,5.21,90.6,-0.303,0.8537,0,0,0,0,0,0,0,0,0,90.4,8,0,1,9.31,0,0,13.15,90.4,-0.9484,-0.0066,0.3171,13.21,90.4,0,0,0,0,0,0,0,0,90.4,1,0,0.197,0,0,3,0,0,0,10,-2.44,0,0,1,1,0,0,VALID,0,0,0,0,0,1,0,0,0,0,0,0,0,0,0,0,0,0,0,0,376.44,465.3,2,0,0.08,0.08,449,14.29,0.08,0.06,30.72,FLYING,CF1-F,0:/Integrated Flight Computer/aircraft/cf1_f_cfg.ks (inferred preloaded)
31.1,TAKEOFF,TO_CLIMB,95.4,80,-15.4,55.9,16.02,14.53,5.2,90.59,-0.312,0.846,0,0,0,0,0,0,0,0,0,90.4,8,0,1,9.53,0,0,13.22,90.4,-0.9485,-0.0066,0.3168,13.2,90.4,0,0,0,0,0,0,0,0,90.4,1,0,0.186,0,0,3,0,0,0,10,-2.44,0,0,1,1,0,0,VALID,0,0,0,0,0,1,0,0,0,0,0,0,0,0,0,0,0,0,0,0,376.09,464.45,2,0,0.08,0.08,453,14.29,0.08,0.06,31,FLYING,CF1-F,0:/Integrated Flight Computer/aircraft/cf1_f_cfg.ks (inferred preloaded)
31.38,TAKEOFF,TO_CLIMB,96.16,80,-16.16,60.56,16.52,14.58,5.04,90.58,-0.321,0.8384,0,0,0,0,0,0,0,0,0,90.4,8,0,1,9.75,0,0,13.09,90.4,-0.9494,-0.0066,0.3141,13.04,90.4,0,0,0,0,0,0,0,0,90.4,1,0,0.176,0,0,3,0,0,0,10,-2.44,0,0,1,1,0,0,VALID,0,0,0,0,0,1,0,0,0,0,0,0,0,0,0,0,0,0,0,0,375.66,463.6,2,0,0.08,0.08,457,14.29,0.08,0.06,31.28,FLYING,CF1-F,0:/Integrated Flight Computer/aircraft/cf1_f_cfg.ks (inferred preloaded)
31.66,TAKEOFF,TO_CLIMB,96.91,80,-16.91,65.35,16.99,14.58,4.84,90.57,-0.327,0.8309,0,0,0,0,0,0,0,0,0,90.4,8,0,1,9.94,0,0,12.9,90.4,-0.9504,-0.0066,0.3109,12.84,90.4,0,0,0,0,0,0,0,0,90.4,1,0,0.166,0,0,3,0,0,0,10,-2.44,0,0,1,1,0,0,VALID,0,0,0,0,0,1,0,0,0,0,0,0,0,0,0,0,0,0,0,0,375.18,462.74,2,0,0.08,0.08,461,14.29,0.08,0.06,31.56,FLYING,CF1-F,0:/Integrated Flight Computer/aircraft/cf1_f_cfg.ks (inferred preloaded)
31.94,TAKEOFF,TO_CLIMB,97.66,80,-17.66,70.26,17.44,14.58,4.66,90.56,-0.331,0.8234,0,0,0,0,0,0,0,0,0,90.4,8,0,1,10.12,0,0,12.71,90.4,-0.9514,-0.0067,0.3078,12.66,90.4,0,0,0,0,0,0,0,0,90.4,1,0,0.157,0,0,3,0,0,0,10,-2.44,0,0,1,1,0,0,VALID,0,0,0,0,0,1,0,0,0,0,0,0,0,0,0,0,0,0,0,0,374.62,461.89,2,0,0.08,0.08,465,14.29,0.08,0.06,31.84,FLYING,CF1-F,0:/Integrated Flight Computer/aircraft/cf1_f_cfg.ks (inferred preloaded)
32.22,TAKEOFF,TO_CLIMB,98.41,80,-18.41,75.29,17.87,14.59,4.5,90.55,-0.338,0.8159,0,0,0,0,0,0,0,0,0,90.4,8,0,1,10.29,0,0,12.54,90.4,-0.9523,-0.0067,0.305,12.5,90.4,0,0,0,0,0,0,0,0,90.4,1,0,0.147,0,0,3,0,0,0,10,-2.44,0,0,1,1,0,0,VALID,0,0,0,0,0,1,0,0,0,0,0,0,0,0,0,0,0,0,0,0,374.01,461.02,2,0,0.08,0.08,469,14.29,0.08,0.06,32.12,FLYING,CF1-F,0:/Integrated Flight Computer/aircraft/cf1_f_cfg.ks (inferred preloaded)
32.5,TAKEOFF,TO_CLIMB,99.15,80,-19.15,80.44,18.29,14.56,4.31,90.54,-0.342,0.8085,0,0,0,0,0,0,0,0,0,90.4,8,0,1,10.45,0,0,12.36,90.4,-0.9533,-0.0067,0.3019,12.31,90.4,0,0,0,0,0,0,0,0,90.4,1,0,0.138,0,0,3,0,0,0,10,-2.44,0,0,1,1,0,0,VALID,0,0,0,0,0,1,0,0,0,0,0,0,0,0,0,0,0,0,0,0,373.33,460.16,2,0,0.08,0.08,473,14.29,0.08,0.06,32.4,FLYING,CF1-F,0:/Integrated Flight Computer/aircraft/cf1_f_cfg.ks (inferred preloaded)
32.78,TAKEOFF,TO_CLIMB,99.88,80,-19.88,85.71,18.68,14.54,4.15,90.53,-0.346,0.8012,0,0,0,0,0,0,0,0,0,90.4,8,0,1,10.59,0,0,12.19,90.4,-0.9542,-0.0067,0.2991,12.15,90.4,0,0,0,0,0,0,0,0,90.4,1,0,0.129,0,0,3,0,0,0,10,-2.44,0,0,1,1,0,0,VALID,0,0,0,0,0,1,0,0,0,0,0,0,0,0,0,0,0,0,0,0,372.49,459.29,2,0,0.08,0.08,477,14.29,0.08,0.06,32.68,FLYING,CF1-F,0:/Integrated Flight Computer/aircraft/cf1_f_cfg.ks (inferred preloaded)
33.06,TAKEOFF,TO_CLIMB,100.61,80,-20.61,91.07,19.05,14.51,3.98,90.52,-0.35,0.7939,0,0,0,0,0,0,0,0,0,90.4,8,0,1,10.72,0,0,12.03,90.4,-0.9551,-0.0067,0.2963,11.98,90.4,0,0,0,0,0,0,0,0,90.4,1,0,0.119,0,0,3,0,0,0,10,-2.44,0,0,1,1,0,0,VALID,0,0,0,0,0,1,0,0,0,0,0,0,0,0,0,0,0,0,0,0,371.43,458.42,2,0,0.08,0.08,481,14.29,0.08,0.06,32.96,FLYING,CF1-F,0:/Integrated Flight Computer/aircraft/cf1_f_cfg.ks (inferred preloaded)
33.34,TAKEOFF,TO_CLIMB,101.33,80,-21.33,96.53,19.4,14.45,3.81,90.51,-0.355,0.7867,0,0,0,0,0,0,0,0,0,90.4,8,0,1,10.84,0,0,11.86,90.4,-0.956,-0.0067,0.2933,11.81,90.4,0,0,0,0,0,0,0,0,90.4,1,0,0.11,0,0,3,0,0,0,10,-2.44,0,0,1,1,0,0,VALID,0,0,0,0,0,1,0,0,0,0,0,0,0,0,0,0,0,0,0,0,370.16,457.55,2,0,0.08,0.08,485,14.29,0.08,0.06,33.24,FLYING,CF1-F,0:/Integrated Flight Computer/aircraft/cf1_f_cfg.ks (inferred preloaded)
33.62,TAKEOFF,TO_CLIMB,102.05,80,-22.05,102.06,19.72,14.38,3.64,90.5,-0.358,0.78,0,0,0,0,0,0,0,0,0,90.4,8,0,1,10.94,0,0,11.68,90.4,-0.9569,-0.0067,0.2905,11.64,90.4,0,0,0,0,0,0,0,0,90.4,1,0,0.101,0,0,3,0,0,0,10,-2.44,0,0,1,1,0,0,VALID,0,0,0,0,0,1,0,0,0,0,0,0,0,0,0,0,0,0,0,0,368.72,456.68,2,0,0.08,0.08,489,14.29,0.08,0.06,33.52,FLYING,CF1-F,0:/Integrated Flight Computer/aircraft/cf1_f_cfg.ks (inferred preloaded)
33.9,TAKEOFF,TO_CLIMB,102.77,80,-22.77,107.7,20.01,14.3,3.47,90.49,-0.361,0.78,0,0,0,0,0,0,0,0,0,90.4,8,0,1,11.02,0,0,11.52,90.4,-0.9577,-0.0067,0.2877,11.47,90.4,0,0,0,0,0,0,0,0,90.4,1,0,0.092,0,0,3,0,0,0,10,-2.44,0,0,1,1,0,0,VALID,0,0,0,0,0,1,0,0,0,0,0,0,0,0,0,0,0,0,0,0,367.18,455.81,2,0,0.08,0.08,493,14.29,0.08,0.06,33.8,FLYING,CF1-F,0:/Integrated Flight Computer/aircraft/cf1_f_cfg.ks (inferred preloaded)
34.18,TAKEOFF,TO_CLIMB,103.47,80,-23.47,113.41,20.28,14.19,3.29,90.48,-0.359,0.78,0,0,0,0,0,0,0,0,0,90.4,8,0,1,11.09,0,0,11.35,90.4,-0.9586,-0.0067,0.2846,11.29,90.4,0,0,0,0,0,0,0,0,90.4,1,0,0.083,0,0,3,0,0,0,10,-2.44,0,0,1,1,0,0,VALID,0,0,0,0,0,1,0,0,0,0,0,0,0,0,0,0,0,0,0,0,365.69,454.94,2,0,0.08,0.08,497,14.29,0.08,0.06,34.08,FLYING,CF1-F,0:/Integrated Flight Computer/aircraft/cf1_f_cfg.ks (inferred preloaded)
34.46,TAKEOFF,TO_CLIMB,104.18,80,-24.18,119.17,20.5,14.02,3.09,90.48,-0.328,0.78,0,0,0,0,0,0,0,0,0,90.4,8,0,1,11.13,0,0,11.15,90.4,-0.9596,-0.0067,0.2811,11.09,90.4,0,0,0,0,0,0,0,0,90.4,1,0,0.078,0,0,3,0,0,0,10,-2.44,0,0,1,1,0,0,VALID,0,0,0,0,0,1,0,0,0,0,0,0,0,0,0,0,0,0,0,0,364.26,454.07,2,0,0.08,0.08,501,14.29,0.08,0.06,34.36,FLYING,CF1-F,0:/Integrated Flight Computer/aircraft/cf1_f_cfg.ks (inferred preloaded)
34.74,TAKEOFF,TO_CLIMB,104.88,80,-24.88,125,20.67,13.89,2.94,90.47,-0.278,0.78,0,0,0,0,0,0,0,0,0,90.4,8,0,1,11.15,0,0,10.97,90.4,-0.9604,-0.0067,0.2785,10.94,90.4,0,0,0,0,0,0,0,0,90.4,1,0,0.075,0,0,3,0,0,0,10,-2.44,0,0,1,1,0,0,VALID,0,0,0,0,0,1,0,0,0,0,0,0,0,0,0,0,0,0,0,0,362.88,453.19,2,0,0.08,0.08,505,14.29,0.08,0.06,34.64,FLYING,CF1-F,0:/Integrated Flight Computer/aircraft/cf1_f_cfg.ks (inferred preloaded)
35.02,TAKEOFF,TO_CLIMB,105.59,80,-25.59,130.87,20.82,13.8,2.84,90.47,-0.234,0.78,0,0,0,0,0,0,0,0,0,90.4,8,0,1,11.16,0,0,10.86,90.4,-0.9609,-0.0067,0.2769,10.84,90.4,0,0,0,0,0,0,0,0,90.4,1,0,0.072,0,0,3,0,0,0,10,-2.44,0,0,1,1,0,0,VALID,0,0,0,0,0,1,0,0,0,0,0,0,0,0,0,0,0,0,0,0,361.55,452.32,2,0,0.08,0.08,509,14.29,0.08,0.06,34.92,FLYING,CF1-F,0:/Integrated Flight Computer/aircraft/cf1_f_cfg.ks (inferred preloaded)
35.3,TAKEOFF,TO_CLIMB,106.28,80,-26.28,136.79,20.97,13.72,2.75,90.47,-0.205,0.78,0,0,0,0,0,0,0,0,0,90.4,8,0,1,11.16,0,0,10.78,90.4,-0.9613,-0.0067,0.2753,10.75,90.4,0,0,0,0,0,0,0,0,90.4,1,0,0.068,0,0,3,0,0,0,10,-2.44,0,0,1,1,0,0,VALID,0,0,0,0,0,1,0,0,0,0,0,0,0,0,0,0,0,0,0,0,360.27,451.45,2,0,0.08,0.08,513,14.29,0.08,0.06,35.2,FLYING,CF1-F,0:/Integrated Flight Computer/aircraft/cf1_f_cfg.ks (inferred preloaded)
35.58,TAKEOFF,TO_CLIMB,106.98,80,-26.98,142.74,21.12,13.62,2.65,90.46,-0.19,0.78,0,0,0,0,0,0,0,0,0,90.4,8,0,1,11.17,0,0,10.68,90.4,-0.9618,-0.0067,0.2736,10.65,90.4,0,0,0,0,0,0,0,0,90.4,1,0,0.063,0,0,3,0,0,0,10,-2.44,0,0,1,1,0,0,VALID,0,0,0,0,0,1,0,0,0,0,0,0,0,0,0,0,0,0,0,0,359.02,450.58,2,0,0.08,0.08,517,14.29,0.08,0.06,35.48,FLYING,CF1-F,0:/Integrated Flight Computer/aircraft/cf1_f_cfg.ks (inferred preloaded)
35.86,TAKEOFF,TO_CLIMB,107.67,80,-27.67,148.73,21.25,13.5,2.54,90.46,-0.185,0.78,0,0,0,0,0,0,0,0,0,90.4,8,0,1,11.16,0,0,10.57,90.4,-0.9624,-0.0067,0.2717,10.54,90.4,0,0,0,0,0,0,0,0,90.4,1,0,0.059,0,0,3,0,0,0,10,-2.44,0,0,1,1,0,0,VALID,0,0,0,0,0,1,0,0,0,0,0,0,0,0,0,0,0,0,0,0,357.82,449.71,2,0,0.08,0.08,521,14.29,0.08,0.06,35.76,FLYING,CF1-F,0:/Integrated Flight Computer/aircraft/cf1_f_cfg.ks (inferred preloaded)
36.14,TAKEOFF,TO_CLIMB,108.36,80,-28.36,154.73,21.36,13.39,2.44,90.45,-0.18,0.78,0,0,0,0,0,0,0,0,0,90.4,8,0,1,11.15,0,0,10.47,90.4,-0.9629,-0.0067,0.2699,10.44,90.4,0,0,0,0,0,0,0,0,90.4,1,0,0.055,0,0,3,0,0,0,10,-2.44,0,0,1,1,0,0,VALID,0,0,0,0,0,1,0,0,0,0,0,0,0,0,0,0,0,0,0,0,356.66,448.84,2,0,0.08,0.08,525,14.29,0.08,0.06,36.04,FLYING,CF1-F,0:/Integrated Flight Computer/aircraft/cf1_f_cfg.ks (inferred preloaded)
36.42,TAKEOFF,TO_CLIMB,109.04,80,-29.04,160.82,21.45,13.25,2.33,90.45,-0.181,0.78,0,0,0,0,0,0,0,0,0,90.4,8,0,1,11.13,0,0,10.35,90.4,-0.9634,-0.0067,0.268,10.33,90.4,0,0,0,0,0,0,0,0,90.4,1,0,0.05,0,0,3,0,0,0,10,-2.44,0,0,1,1,0,0,VALID,0,0,0,0,0,1,0,0,0,0,0,0,0,0,0,0,0,0,0,0,355.53,447.98,2,0,0.08,0.08,529,14.29,0.08,0.06,36.32,FLYING,CF1-F,0:/Integrated Flight Computer/aircraft/cf1_f_cfg.ks (inferred preloaded)
36.7,TAKEOFF,TO_CLIMB,109.73,80,-29.73,166.89,21.54,13.16,2.26,90.45,-0.173,0.78,0,0,0,0,0,0,0,0,0,90.4,8,0,1,11.1,0,0,10.28,90.4,-0.9637,-0.0067,0.2669,10.26,90.4,0,0,0,0,0,0,0,0,90.4,1,0,0.047,0,0,3,0,0,0,10,-2.44,0,0,1,1,0,0,VALID,0,0,0,0,0,1,0,0,0,0,0,0,0,0,0,0,0,0,0,0,354.44,447.12,2,0,0.08,0.08,533,14.29,0.08,0.06,36.6,FLYING,CF1-F,0:/Integrated Flight Computer/aircraft/cf1_f_cfg.ks (inferred preloaded)
36.98,TAKEOFF,TO_CLIMB,110.41,80,-30.41,172.95,21.62,13.06,2.19,90.44,-0.164,0.78,0,0,0,0,0,0,0,0,0,90.4,8,0,1,11.08,0,0,10.21,90.4,-0.9641,-0.0067,0.2656,10.19,90.4,0,0,0,0,0,0,0,0,90.4,1,0,0.043,0,0,3,0,0,0,10,-2.44,0,0,1,1,0,0,VALID,0,0,0,0,0,1,0,0,0,0,0,0,0,0,0,0,0,0,0,0,353.37,446.25,2,0,0.08,0.08,537,14.29,0.08,0.06,36.88,FLYING,CF1-F,0:/Integrated Flight Computer/aircraft/cf1_f_cfg.ks (inferred preloaded)
37.26,TAKEOFF,TO_CLIMB,111.1,80,-31.1,179.11,21.7,12.95,2.11,90.44,-0.156,0.78,0,0,0,0,0,0,0,0,0,90.4,8,0,1,11.05,0,0,10.13,90.4,-0.9645,-0.0067,0.2642,10.11,90.4,0,0,0,0,0,0,0,0,90.4,1,0,0.04,0,0,3,0,0,0,10,-2.44,0,0,1,1,0,0,VALID,0,0,0,0,0,1,0,0,0,0,0,0,0,0,0,0,0,0,0,0,352.34,445.39,2,0,0.08,0.08,541,14.29,0.08,0.06,37.16,FLYING,CF1-F,0:/Integrated Flight Computer/aircraft/cf1_f_cfg.ks (inferred preloaded)
37.54,TAKEOFF,TO_CLIMB,111.78,80,-31.78,185.25,21.77,12.84,2.03,90.44,-0.148,0.78,0,0,0,0,0,0,0,0,0,90.4,8,0,1,11.02,0,0,10.05,90.4,-0.9648,-0.0068,0.2628,10.03,90.4,0,0,0,0,0,0,0,0,90.4,1,0,0.037,0,0,3,0,0,0,10,-2.44,0,0,1,1,0,0,VALID,0,0,0,0,0,1,0,0,0,0,0,0,0,0,0,0,0,0,0,0,351.33,444.54,2,0,0.08,0.08,545,14.29,0.08,0.06,37.44,FLYING,CF1-F,0:/Integrated Flight Computer/aircraft/cf1_f_cfg.ks (inferred preloaded)
37.82,TAKEOFF,TO_CLIMB,112.45,80,-32.45,191.37,21.83,12.73,1.96,90.43,-0.141,0.78,0,0,0,0,0,0,0,0,0,90.4,8,0,1,10.98,0,0,9.98,90.4,-0.9652,-0.0068,0.2616,9.96,90.4,0,0,0,0,0,0,0,0,90.4,1,0,0.035,0,0,3,0,0,0,10,-2.44,0,0,1,1,0,0,VALID,0,0,0,0,0,1,0,0,0,0,0,0,0,0,0,0,0,0,0,0,350.35,443.68,2,0,0.08,0.08,549,14.29,0.08,0.06,37.72,FLYING,CF1-F,0:/Integrated Flight Computer/aircraft/cf1_f_cfg.ks (inferred preloaded)
38.1,TAKEOFF,TO_CLIMB,113.13,80,-33.13,197.54,21.88,12.62,1.89,90.43,-0.134,0.78,0,0,0,0,0,0,0,0,0,90.4,8,0,1,10.95,0,0,9.91,90.4,-0.9655,-0.0068,0.2603,9.89,90.4,0,0,0,0,0,0,0,0,90.4,1,0,0.032,0,0,3,0,0,0,10,-2.44,0,0,1,1,0,0,VALID,0,0,0,0,0,1,0,0,0,0,0,0,0,0,0,0,0,0,0,0,349.39,442.83,2,0,0.08,0.08,553,14.29,0.08,0.06,38,FLYING,CF1-F,0:/Integrated Flight Computer/aircraft/cf1_f_cfg.ks (inferred preloaded)
38.38,TAKEOFF,TO_CLIMB,113.81,80,-33.81,203.75,21.93,12.51,1.82,90.43,-0.127,0.78,0,0,0,0,0,0,0,0,0,90.4,8,0,1,10.91,0,0,9.84,90.4,-0.9658,-0.0068,0.2591,9.82,90.4,0,0,0,0,0,0,0,0,90.4,1,0,0.029,0,0,3,0,0,0,10,-2.44,0,0,1,1,0,0,VALID,0,0,0,0,0,1,0,0,0,0,0,0,0,0,0,0,0,0,0,0,348.45,441.98,2,0,0.08,0.08,557,14.29,0.08,0.06,38.28,FLYING,CF1-F,0:/Integrated Flight Computer/aircraft/cf1_f_cfg.ks (inferred preloaded)
38.66,TAKEOFF,TO_CLIMB,114.48,80,-34.48,209.95,21.97,12.39,1.75,90.43,-0.121,0.78,0,0,0,0,0,0,0,0,0,90.4,8,0,1,10.87,0,0,9.77,90.4,-0.9661,-0.0068,0.2579,9.75,90.4,0,0,0,0,0,0,0,0,90.4,1,0,0.027,0,0,3,0,0,0,10,-2.44,0,0,1,1,0,0,VALID,0,0,0,0,0,1,0,0,0,0,0,0,0,0,0,0,0,0,0,0,347.53,441.13,2,0,0.08,0.08,561,14.29,0.08,0.06,38.56,FLYING,CF1-F,0:/Integrated Flight Computer/aircraft/cf1_f_cfg.ks (inferred preloaded)
38.94,TAKEOFF,TO_CLIMB,115.15,80,-35.15,216.13,22.01,12.29,1.69,90.42,-0.114,0.78,0,0,0,0,0,0,0,0,0,90.4,8,0,1,10.82,0,0,9.71,90.4,-0.9664,-0.0068,0.2568,9.69,90.4,0,0,0,0,0,0,0,0,90.4,1,0,0.025,0,0,3,0,0,0,10,-2.44,0,0,1,1,0,0,VALID,0,0,0,0,0,1,0,0,0,0,0,0,0,0,0,0,0,0,0,0,346.63,440.28,2,0,0.08,0.08,565,14.29,0.08,0.06,38.84,FLYING,CF1-F,0:/Integrated Flight Computer/aircraft/cf1_f_cfg.ks (inferred preloaded)
39.22,TAKEOFF,TO_CLIMB,115.83,80,-35.83,222.35,22.05,12.18,1.63,90.42,-0.107,0.78,0,0,0,0,0,0,0,0,0,90.4,8,0,1,10.78,0,0,9.65,90.4,-0.9667,-0.0068,0.2558,9.63,90.4,0,0,0,0,0,0,0,0,90.4,1,0,0.023,0,0,3,0,0,0,10,-2.44,0,0,1,1,0,0,VALID,0,0,0,0,0,1,0,0,0,0,0,0,0,0,0,0,0,0,0,0,345.76,439.44,2,0,0.08,0.08,569,14.29,0.08,0.06,39.12,FLYING,CF1-F,0:/Integrated Flight Computer/aircraft/cf1_f_cfg.ks (inferred preloaded)
39.5,TAKEOFF,TO_CLIMB,116.5,80,-36.5,228.55,22.08,12.07,1.57,90.42,-0.101,0.78,0,0,0,0,0,0,0,0,0,90.4,8,0,1,10.73,0,0,9.58,90.4,-0.967,-0.0068,0.2546,9.57,90.4,0,0,0,0,0,0,0,0,90.4,1,0,0.021,0,0,3,0,0,0,10,-2.44,0,0,1,1,0,0,VALID,0,0,0,0,0,1,0,0,0,0,0,0,0,0,0,0,0,0,0,0,344.89,438.59,2,0,0.08,0.08,573,14.29,0.08,0.06,39.4,FLYING,CF1-F,0:/Integrated Flight Computer/aircraft/cf1_f_cfg.ks (inferred preloaded)
39.78,TAKEOFF,TO_CLIMB,117.17,80,-37.17,234.8,22.1,11.96,1.51,90.42,-0.096,0.78,0,0,0,0,0,0,0,0,0,90.4,8,0,1,10.68,0,0,9.53,90.4,-0.9673,-0.0068,0.2536,9.51,90.4,0,0,0,0,0,0,0,0,90.4,1,0,0.019,0,0,3,0,0,0,10,-2.44,0,0,1,1,0,0,VALID,0,0,0,0,0,1,0,0,0,0,0,0,0,0,0,0,0,0,0,0,344.05,437.76,2,0,0.08,0.08,577,14.29,0.08,0.06,39.68,FLYING,CF1-F,0:/Integrated Flight Computer/aircraft/cf1_f_cfg.ks (inferred preloaded)
40.06,TAKEOFF,TO_CLIMB,117.84,80,-37.84,241.03,22.13,11.85,1.45,90.42,-0.091,0.78,0,0,0,0,0,0,0,0,0,90.4,8,0,1,10.64,0,0,9.47,90.4,-0.9675,-0.0068,0.2526,9.45,90.4,0,0,0,0,0,0,0,0,90.4,1,0,0.018,0,0,3,0,0,0,10,-2.44,0,0,1,1,0,0,VALID,0,0,0,0,0,1,0,0,0,0,0,0,0,0,0,0,0,0,0,0,343.22,436.92,2,0,0.08,0.08,581,14.29,0.08,0.06,39.96,FLYING,CF1-F,0:/Integrated Flight Computer/aircraft/cf1_f_cfg.ks (inferred preloaded)
40.34,TAKEOFF,TO_CLIMB,118.51,80,-38.51,247.24,22.15,11.75,1.4,90.42,-0.086,0.78,0,0,0,0,0,0,0,0,0,90.4,8,0,1,10.58,0,0,9.41,90.4,-0.9678,-0.0068,0.2516,9.4,90.4,0,0,0,0,0,0,0,0,90.4,1,0,0.016,0,0,3,0,0,0,10,-2.44,0,0,1,1,0,0,VALID,0,0,0,0,0,1,0,0,0,0,0,0,0,0,0,0,0,0,0,0,342.4,436.08,2,0,0.08,0.08,585,14.29,0.08,0.06,40.24,FLYING,CF1-F,0:/Integrated Flight Computer/aircraft/cf1_f_cfg.ks (inferred preloaded)
