t_s,phase,subphase,ias_ms,vapp_ms,spd_err_ms,agl_m,vs_ms,pitch_deg,aoa_deg,hdg_deg,bank_deg,thr_cmd,thr_intg,aa_hdg_cmd_deg,aa_fpa_cmd_deg,ils_loc_m,ils_gs_m,ils_dist_km,loc_corr_deg,gs_corr_deg,flare_fpa_cmd,flare_tgt_vs,flare_frac,steer_hdg_deg,steer_blend,ro_loc_corr_deg,ro_hdg_err_deg,ro_yaw_tgt,ro_yaw_scale,ro_yaw_gate,yaw_cmd,roll_cmd,pitch_cmd,ro_pitch_tgt_deg,ro_pitch_err_deg,ro_pitch_ff,ro_roll_assist,flaps_cur,flaps_tgt,phase_el_s,status
0.26,APPROACH,FLY_TO_FIX,198.44,140.16,-58.28,2472.79,-23.61,-0.09,6.02,269.61,-1.939,0.04,-5.825,11.89,-4.874,0,0,0,0,0,0,0,0,269.63,0,0,0,0,0,0,0,0,0,0,0,0,0,0,3,0.3,FLYING
0.54,APPROACH,ILS_TRACK,198.87,140.58,-58.29,2465.45,-24.69,-1.92,4.38,269.78,-2.305,0,-20,108.44,-6,0,0,0,0,0,0,0,0,269.63,0,0,0,0,0,0,0,0,0,0,0,0,0,1,3,0.56,FLYING
0.8,APPROACH,ILS_TRACK,199.34,141.02,-58.32,2458.59,-26.11,-2.78,3.78,269.77,-3.607,0,-20,245.4,0,32.75,-26.53,46.134,-30.552,83.77,0,0,0,269.63,0,0,0,0,0,0,0,0,0,0,0,0,0,1,3,0.84,FLYING
1.06,APPROACH,ILS_TRACK,199.72,141.44,-58.28,2451.12,-27.38,-2.6,4.23,269.78,-0.953,0,-20,270.04,0,31.81,-30.65,46.071,-0.363,21.848,0,0,0,269.63,0,0,0,0,0,0,0,0,0,0,0,0,0,2,3,1.1,FLYING
1.38,APPROACH,ILS_TRACK,200.15,141.95,-58.2,2442.67,-28.29,-2.94,4.17,269.49,3.314,0,-20,269.92,0,30.84,-35.36,46.003,-0.478,22.404,0,0,0,269.63,0,0,0,0,0,0,0,0,0,0,0,0,0,2,3,1.42,FLYING
1.64,APPROACH,ILS_TRACK,200.47,142.37,-58.1,2434.5,-29.54,-3.14,4.22,269.31,3.12,0,-20,270.08,0,29.93,-40.16,45.94,-0.323,26.806,0,0,0,269.63,0,0,0,0,0,0,0,0,0,0,0,0,0,3,3,1.68,FLYING
1.9,APPROACH,ILS_TRACK,200.71,141.95,-58.76,2427.49,-30.54,-2.4,5.14,269.25,2.713,0,-20,270.02,0,29.11,-44.34,45.885,-0.38,26.157,0,0,0,269.63,0,0,0,0,0,0,0,0,0,0,0,0,0,3,3,1.94,FLYING
2.16,APPROACH,ILS_TRACK,200.86,141.54,-59.33,2419.8,-30.75,-1.38,6.28,269.22,2.237,0,-20,270.15,0,28.2,-48.87,45.827,-0.25,28.606,0,0,0,269.63,0,0,0,0,0,0,0,0,0,0,0,0,0,3,3,2.2,FLYING
2.46,APPROACH,ILS_TRACK,200.93,141.06,-59.87,2410.71,-30.92,-0.82,6.89,269.24,1.648,0,-20,270.22,0,27.11,-54.37,45.759,-0.177,30.964,0,0,0,269.63,0,0,0,0,0,0,0,0,0,0,0,0,0,3,3,2.5,FLYING
2.72,APPROACH,ILS_TRACK,200.88,140.64,-60.24,2402.88,-31.03,-0.04,7.65,269.29,0.697,0,-20,270.29,0,26.14,-59.16,45.7,-0.114,32.508,0,0,0,269.63,0,0,0,0,0,0,0,0,0,0,0,0,0,3,3,2.76,FLYING
2.98,APPROACH,ILS_TRACK,200.68,140.22,-60.46,2395.25,-30.79,1.37,8.97,269.48,-1.39,0,-20,270.35,0,25.15,-63.81,45.641,-0.052,33.436,0,0,0,269.63,0,0,0,0,0,0,0,0,0,0,0,0,0,3,3,3.02,FLYING
3.24,APPROACH,ILS_TRACK,200.29,140,-60.29,2387.92,-30.1,3.39,10.81,269.76,-2.164,0,-20,270.4,0,24.15,-68.2,45.583,-0.001,33.968,0,0,0,269.63,0,0,0,0,0,0,0,0,0,0,0,0,0,3,3,3.28,FLYING
3.54,APPROACH,ILS_TRACK,199.49,140,-59.49,2379.99,-28.43,6.36,13.41,270.08,-2.698,0,-20,270.41,0,23.03,-72.79,45.515,0.009,34.081,0,0,0,269.63,0,0,0,0,0,0,0,0,0,0,0,0,0,3,3,3.58,FLYING
3.8,APPROACH,ILS_TRACK,198.44,140,-58.44,2373.48,-26.13,8.33,14.91,270.3,-2.956,0,-20,270.39,0,22.12,-76.37,45.457,-0.008,33.927,0,0,0,269.63,0,0,0,0,0,0,0,0,0,0,0,0,0,3,3,3.84,FLYING
4.06,APPROACH,ILS_TRACK,197.12,140,-57.12,2367.34,-23.69,9.43,15.49,270.46,-3.077,0,-20,270.36,0,21.27,-79.63,45.399,-0.038,33.907,0,0,0,269.63,0,0,0,0,0,0,0,0,0,0,0,0,0,3,3,4.1,FLYING
4.32,APPROACH,ILS_TRACK,195.69,140,-55.69,2361.7,-21.36,10.07,15.59,270.55,-3.093,0.083,-20,270.32,0,20.5,-82.45,45.342,-0.078,33.435,0,0,0,269.63,0,0,0,0,0,0,0,0,0,0,0,0,0,3,3,4.36,FLYING
4.62,APPROACH,ILS_TRACK,193.98,140,-53.98,2355.88,-18.81,10.7,15.6,270.61,-3.006,0.203,-20,270.27,0,19.71,-85.06,45.276,-0.127,32.479,0,0,0,269.63,0,0,0,0,0,0,0,0,0,0,0,0,0,3,3,4.66,FLYING
4.88,APPROACH,ILS_TRACK,192.47,140,-52.47,2351.45,-16.65,11.23,15.6,270.64,-2.848,0.307,-20,270.23,0,19.09,-86.73,45.219,-0.172,31.155,0,0,0,269.63,0,0,0,0,0,0,0,0,0,0,0,0,0,3,3,4.92,FLYING
5.14,APPROACH,ILS_TRACK,190.97,140,-50.97,2347.54,-14.41,11.63,15.48,270.64,-2.618,0.411,-20,270.19,0,18.54,-87.87,45.162,-0.213,29.854,0,0,0,269.63,0,0,0,0,0,0,0,0,0,0,0,0,0,3,3,5.18,FLYING
5.4,APPROACH,ILS_TRACK,189.52,140,-49.52,2344.05,-12.3,11.47,14.81,270.6,-2.299,0.5134,-20,270.14,0,18.06,-88.58,45.106,-0.256,28.758,0,0,0,269.63,0,0,0,0,0,0,0,0,0,0,0,0,0,3,3,5.44,FLYING
5.7,APPROACH,ILS_TRACK,188.03,140,-48.03,2340.54,-10.29,10.97,13.79,270.51,-1.856,0.538,-20,270.11,0,17.57,-88.9,45.042,-0.295,27.534,0,0,0,269.63,0,0,0,0,0,0,0,0,0,0,0,0,0,3,3,5.74,FLYING
5.96,APPROACH,ILS_TRACK,186.93,140,-46.93,2337.95,-8.81,10.52,12.96,270.42,-1.439,0.5226,-20,270.08,0,17.19,-88.75,44.987,-0.324,26.141,0,0,0,269.63,0,0,0,0,0,0,0,0,0,0,0,0,0,3,3,6,FLYING
6.22,APPROACH,ILS_TRACK,185.98,140,-45.98,2335.71,-7.54,10.07,12.16,270.33,-1.036,0.4798,-20,270.06,0,16.84,-88.23,44.931,-0.336,24.875,0,0,0,269.63,0,0,0,0,0,0,0,0,0,0,0,0,0,3,3,6.26,FLYING
6.48,APPROACH,ILS_TRACK,185.16,140,-45.16,2333.79,-6.43,9.65,11.44,270.25,-0.686,0.4189,-20,270.05,0,16.51,-87.39,44.877,-0.348,23.642,0,0,0,269.63,0,0,0,0,0,0,0,0,0,0,0,0,0,3,3,6.52,FLYING
6.78,APPROACH,ILS_TRACK,184.37,140,-44.37,2331.88,-5.34,9.1,10.61,270.17,-0.359,0.3463,-20,270.05,0,16.16,-86.1,44.814,-0.349,22.382,0,0,0,269.63,0,0,0,0,0,0,0,0,0,0,0,0,0,3,3,6.82,FLYING
7.04,APPROACH,ILS_TRACK,183.78,140,-43.78,2330.46,-4.58,8.62,9.92,270.13,-0.158,0.2682,-20,270.06,0,15.85,-84.74,44.759,-0.343,21.249,0,0,0,269.63,0,0,0,0,0,0,0,0,0,0,0,0,0,3,3,7.08,FLYING
7.3,APPROACH,ILS_TRACK,183.26,140,-43.26,2329.23,-4.03,8.22,9.35,270.1,-0.031,0.192,-20,270.07,0,15.55,-83.2,44.705,-0.333,20.202,0,0,0,269.63,0,0,0,0,0,0,0,0,0,0,0,0,0,3,3,7.34,FLYING
7.56,APPROACH,ILS_TRACK,182.79,140,-42.79,2328.17,-3.53,7.89,8.88,270.08,0.025,0.1231,-20,270.08,0,15.25,-81.47,44.65,-0.318,19.145,0,0,0,269.63,0,0,0,0,0,0,0,0,0,0,0,0,0,3,3,7.6,FLYING
7.86,APPROACH,ILS_TRACK,182.25,140,-42.25,2327.12,-3.04,7.64,8.5,270.08,0.021,0.0652,-20,270.09,0,14.91,-79.31,44.588,-0.309,18.019,0,0,0,269.63,0,0,0,0,0,0,0,0,0,0,0,0,0,3,3,7.9,FLYING
8.12,APPROACH,ILS_TRACK,181.76,140,-41.76,2326.35,-2.66,7.55,8.3,270.08,-0.012,0.0151,-20,270.11,0,14.6,-77.3,44.534,-0.293,17.003,0,0,0,269.63,0,0,0,0,0,0,0,0,0,0,0,0,0,3,3,8.16,FLYING
8.38,APPROACH,ILS_TRACK,181.24,140,-41.24,2325.67,-2.37,7.46,8.12,270.09,-0.082,0,-20,270.12,0,14.3,-75.19,44.48,-0.278,16.085,0,0,0,269.63,0,0,0,0,0,0,0,0,0,0,0,0,0,3,3,8.42,FLYING
8.64,APPROACH,ILS_TRACK,180.68,140,-40.68,2325.12,-2.08,7.56,8.14,270.11,-0.165,0,-20,270.13,0,14,-72.98,44.427,-0.271,15.078,0,0,0,269.63,0,0,0,0,0,0,0,0,0,0,0,0,0,3,3,8.68,FLYING
8.94,APPROACH,ILS_TRACK,179.99,140,-39.99,2324.5,-1.71,7.32,7.81,270.12,-0.237,0,-20,270.14,0,13.65,-70.36,44.365,-0.259,14.137,0,0,0,269.63,0,0,0,0,0,0,0,0,0,0,0,0,0,3,3,8.98,FLYING
9.2,APPROACH,ILS_TRACK,179.36,140,-39.36,2324.05,-1.67,7.29,7.74,270.13,-0.289,0,-20,270.15,0,13.36,-68.06,44.312,-0.253,13.336,0,0,0,269.63,0,0,0,0,0,0,0,0,0,0,0,0,0,3,3,9.24,FLYING
9.46,APPROACH,ILS_TRACK,178.69,140,-38.69,2323.68,-1.38,7.38,7.78,270.14,-0.32,0,-20,270.16,0,13.07,-65.66,44.258,-0.243,12.293,0,0,0,269.63,0,0,0,0,0,0,0,0,0,0,0,0,0,3,3,9.5,FLYING
9.72,APPROACH,ILS_TRACK,178.02,140,-38.02,2323.29,-1.28,7.18,7.55,270.14,-0.337,0,-20,270.16,0,12.78,-63.28,44.206,-0.238,11.678,0,0,0,269.63,0,0,0,0,0,0,0,0,0,0,0,0,0,3,3,9.76,FLYING
10.02,APPROACH,ILS_TRACK,177.18,140,-37.18,2322.94,-1.33,7.35,7.69,270.15,-0.352,0.0087,-20,270.17,0,12.46,-60.49,44.145,-0.227,10.69,0,0,0,269.63,0,0,0,0,0,0,0,0,0,0,0,0,0,3,3,10.06,FLYING
10.28,APPROACH,ILS_TRACK,176.44,140,-36.44,2322.68,-1.09,7.54,7.86,270.16,-0.365,0.0276,-20,270.18,0,12.18,-57.98,44.092,-0.22,9.687,0,0,0,269.63,0,0,0,0,0,0,0,0,0,0,0,0,0,3,3,10.32,FLYING
10.54,APPROACH,ILS_TRACK,175.69,140,-35.69,2322.4,-1.03,7.49,7.78,270.16,-0.367,0.0425,-20,270.18,0,11.91,-55.53,44.04,-0.219,9.112,0,0,0,269.63,0,0,0,0,0,0,0,0,0,0,0,0,0,3,3,10.58,FLYING
10.82,APPROACH,ILS_TRACK,174.89,140,-34.89,2322.16,-0.98,7.67,7.94,270.17,-0.357,0.0615,-20,270.19,0,11.65,-53.03,43.987,-0.213,8.217,0,0,0,269.63,0,0,0,0,0,0,0,0,0,0,0,0,0,3,3,10.87,FLYING
11.21,APPROACH,ILS_TRACK,173.84,140,-33.84,2321.85,-0.88,7.83,8.07,270.18,-0.349,0.0786,-20,270.22,0,11.29,-49.58,43.916,-0.182,6.579,0,0,0,269.63,0,0,0,0,0,0,0,0,0,0,0,0,0,3,3,11.28,FLYING
11.63,APPROACH,ILS_TRACK,172.65,140,-32.65,2321.57,-0.79,8.08,8.29,270.19,-0.364,0.0921,-20,270.21,0,10.92,-45.76,43.838,-0.186,5.606,0,0,0,269.63,0,0,0,0,0,0,0,0,0,0,0,0,0,3,3,11.7,FLYING
12.05,APPROACH,ILS_TRACK,171.37,140,-31.37,2321.31,-0.68,8.22,8.41,270.19,-0.345,0.1031,-20,270.21,0,10.52,-41.7,43.755,-0.188,4.764,0,0,0,269.63,0,0,0,0,0,0,0,0,0,0,0,0,0,3,3,12.12,FLYING
12.54,APPROACH,ILS_TRACK,169.89,140,-29.89,2321.05,-0.58,8.4,8.57,270.2,-0.301,0.1112,-20,270.22,0,10.09,-36.96,43.659,-0.182,3.345,0,0,0,269.63,0,0,0,0,0,0,0,0,0,0,0,0,0,3,3,12.61,FLYING
12.96,APPROACH,ILS_TRACK,168.63,140,-28.63,2320.85,-0.45,8.51,8.68,270.2,-0.315,0.1154,-20,270.23,-0.872,9.73,-32.89,43.578,-0.173,2.128,0,0,0,269.63,0,0,0,0,0,0,0,0,0,0,0,0,0,3,3,13.03,FLYING
13.38,APPROACH,ILS_TRACK,167.43,140,-27.43,2320.25,-0.25,6.79,7.07,270.22,-0.49,0.1153,-20,270.23,-1.634,9.37,-29.04,43.497,-0.166,1.366,0,0,0,269.63,0,0,0,0,0,0,0,0,0,0,0,0,0,3,3,13.45,FLYING
13.87,APPROACH,ILS_TRACK,166.31,140,-26.31,2319.08,-1.47,4.11,4.65,270.22,-0.622,0.0877,-20,270.24,-1.817,8.97,-25.14,43.403,-0.155,1.183,0,0,0,269.63,0,0,0,0,0,0,0,0,0,0,0,0,0,3,3,13.94,FLYING
14.29,APPROACH,ILS_TRACK,165.49,140,-25.49,2317.84,-3.15,3.29,4.19,270.23,-0.655,0.0461,-20,270.25,-2.167,8.65,-22.1,43.323,-0.155,0.833,0,0,0,269.63,0,0,0,0,0,0,0,0,0,0,0,0,0,3,3,14.36,FLYING
14.71,APPROACH,ILS_TRACK,164.7,140,-24.7,2316.41,-4.63,4.14,5.41,270.25,-0.635,0.0083,-20,270.25,-2.586,8.34,-19.28,43.244,-0.149,0.414,0,0,0,269.63,0,0,0,0,0,0,0,0,0,0,0,0,0,3,3,14.78,FLYING
15.2,APPROACH,ILS_TRACK,163.79,140,-23.79,2314.21,-5.39,5.16,6.76,270.28,-0.587,0,-20,270.26,-2.785,8,-16.4,43.151,-0.145,0.215,0,0,0,269.63,0,0,0,0,0,0,0,0,0,0,0,0,0,3,3,15.27,FLYING
15.62,APPROACH,ILS_TRACK,162.93,140,-22.93,2311.85,-6.06,5.3,7.1,270.28,-0.526,0,-20,270.25,-2.297,7.73,-14.49,43.073,-0.147,0.703,0,0,0,269.63,0,0,0,0,0,0,0,0,0,0,0,0,0,3,3,15.69,FLYING
16.04,APPROACH,ILS_TRACK,161.95,140,-21.95,2309.4,-6.7,6.18,8.11,270.28,-0.388,0,-20,270.26,-2.336,7.47,-12.82,42.994,-0.144,0.664,0,0,0,269.63,0,0,0,0,0,0,0,0,0,0,0,0,0,3,3,16.11,FLYING
16.53,APPROACH,ILS_TRACK,160.68,140,-20.68,2306.37,-6.68,7.11,9.18,270.28,-0.269,0,-20,270.26,-2.704,7.18,-10.98,42.903,-0.143,0.296,0,0,0,269.63,0,0,0,0,0,0,0,0,0,0,0,0,0,3,3,16.6,FLYING
16.95,APPROACH,ILS_TRACK,159.52,140,-19.52,2303.34,-6.71,6.22,8.39,270.27,-0.241,0,-20,270.26,-2.316,6.95,-9.8,42.826,-0.137,0.684,0,0,0,269.63,0,0,0,0,0,0,0,0,0,0,0,0,0,3,3,17.02,FLYING
17.37,APPROACH,ILS_TRACK,158.42,140,-18.42,2300.2,-7.33,5.58,7.87,270.27,-0.174,0.0028,-20,270.26,-2.042,6.73,-8.9,42.749,-0.138,0.958,0,0,0,269.63,0,0,0,0,0,0,0,0,0,0,0,0,0,3,3,17.44,FLYING
17.86,APPROACH,ILS_TRACK,157.15,140,-17.15,2296.5,-8.13,5.96,8.44,270.27,-0.145,0.0088,-20,270.27,-2.206,6.48,-7.93,42.661,-0.13,0.794,0,0,0,269.63,0,0,0,0,0,0,0,0,0,0,0,0,0,3,3,17.93,FLYING
18.28,APPROACH,ILS_TRACK,155.99,140,-15.99,2293.37,-8.5,7.33,9.91,270.27,-0.138,0.0198,-20,270.28,-2.415,6.26,-7.11,42.585,-0.123,0.585,0,0,0,269.63,0,0,0,0,0,0,0,0,0,0,0,0,0,3,3,18.35,FLYING
18.7,APPROACH,ILS_TRACK,154.76,140,-14.76,2290.1,-8.28,8.17,10.81,270.28,-0.129,0.0382,-20,270.28,-2.509,6.06,-6.37,42.51,-0.122,0.491,0,0,0,269.63,0,0,0,0,0,0,0,0,0,0,0,0,0,3,3,18.77,FLYING
19.19,APPROACH,ILS_TRACK,153.24,140,-13.24,2286.16,-8.22,8.49,11.11,270.28,-0.115,0.0613,-20,270.29,-2.271,5.82,-5.76,42.423,-0.112,0.729,0,0,0,269.63,0,0,0,0,0,0,0,0,0,0,0,0,0,3,3,19.26,FLYING
19.61,APPROACH,ILS_TRACK,151.91,140,-11.91,2282.89,-8.03,9.08,11.71,270.28,-0.123,0.0843,-20,270.29,-2.533,5.62,-5.19,42.349,-0.107,0.467,0,0,0,269.63,0,0,0,0,0,0,0,0,0,0,0,0,0,3,3,19.68,FLYING
20.03,APPROACH,ILS_TRACK,150.57,140,-10.57,2279.48,-7.84,8.71,11.32,270.28,-0.103,0.1041,-20,270.29,-2.503,5.44,-4.71,42.276,-0.107,0.497,0,0,0,269.63,0,0,0,0,0,0,0,0,0,0,0,0,0,3,3,20.1,FLYING
20.52,APPROACH,ILS_TRACK,149.11,140,-9.11,2275.57,-8.06,8.66,11.29,270.28,-0.094,0.1108,-20,270.3,-2.499,5.22,-4.23,42.192,-0.099,0.501,0,0,0,269.63,0,0,0,0,0,0,0,0,0,0,0,0,0,3,3,20.59,FLYING
20.94,APPROACH,ILS_TRACK,147.88,140,-7.88,2272.36,-8.07,9.34,12.02,270.28,-0.091,0.1118,-20,270.31,-2.87,5.04,-3.72,42.12,-0.094,0.13,0,0,0,269.63,0,0,0,0,0,0,0,0,0,0,0,0,0,3,3,21.01,FLYING
21.36,APPROACH,ILS_TRACK,146.67,140,-6.67,2269.02,-7.99,9.41,12.09,270.29,-0.098,0.1433,-20,270.31,-2.875,4.86,-3.27,42.049,-0.088,0.125,0,0,0,269.63,0,0,0,0,0,0,0,0,0,0,0,0,0,3,3,21.43,FLYING
21.85,APPROACH,ILS_TRACK,145.28,140,-5.28,2265.19,-7.98,9.76,12.47,270.29,-0.1,0.2093,-20,270.31,-2.929,4.67,-2.8,41.966,-0.087,0.071,0,0,0,269.63,0,0,0,0,0,0,0,0,0,0,0,0,0,3,3,21.92,FLYING
22.27,APPROACH,ILS_TRACK,144.13,140,-4.13,2261.89,-7.94,9.93,12.65,270.29,-0.111,0.2603,-20,270.32,-2.988,4.5,-2.42,41.896,-0.078,0.012,0,0,0,269.63,0,0,0,0,0,0,0,0,0,0,0,0,0,3,3,22.34,FLYING
22.69,APPROACH,ILS_TRACK,143.03,140,-3.03,2258.57,-8.01,10.01,12.74,270.3,-0.13,0.3044,-20,270.32,-2.987,4.33,-2.1,41.827,-0.076,0.013,0,0,0,269.63,0,0,0,0,0,0,0,0,0,0,0,0,0,3,3,22.76,FLYING
23.18,APPROACH,ILS_TRACK,141.84,140,-1.84,2254.74,-7.9,10.27,13.05,270.31,-0.137,0.3473,-20,270.33,-3.127,4.15,-1.71,41.746,-0.07,-0.127,0,0,0,269.63,0,0,0,0,0,0,0,0,0,0,0,0,0,3,3,23.25,FLYING
23.6,APPROACH,ILS_TRACK,140.89,140,-0.89,2251.3,-7.93,9.84,12.64,270.32,-0.17,0.3724,-20,270.33,-2.946,3.99,-1.5,41.678,-0.068,0.054,0,0,0,269.63,0,0,0,0,0,0,0,0,0,0,0,0,0,3,3,23.67,FLYING
24.02,APPROACH,ILS_TRACK,140.09,140,-0.09,2247.93,-8.24,9.94,12.79,270.32,-0.142,0.3794,-20,270.33,-2.886,3.85,-1.35,41.61,-0.069,0.114,0,0,0,269.63,0,0,0,0,0,0,0,0,0,0,0,0,0,3,3,24.09,FLYING
24.51,APPROACH,ILS_TRACK,139.22,140,0.78,2244.09,-8.15,10.67,13.58,270.32,-0.113,0.3902,-19.676,270.34,-3.181,3.68,-1.04,41.531,-0.063,-0.181,0,0,0,269.63,0,0,0,0,0,0,0,0,0,0,0,0,0,3,3,24.58,FLYING
24.93,APPROACH,ILS_TRACK,138.51,140,1.49,2240.6,-8.16,10.4,13.32,270.32,-0.132,0.4011,-19.094,270.34,-2.897,3.55,-0.95,41.463,-0.06,0.103,0,0,0,269.63,0,0,0,0,0,0,0,0,0,0,0,0,0,3,3,25,FLYING
25.35,APPROACH,ILS_TRACK,137.92,140,2.08,2237.22,-8.36,10.77,13.71,270.32,-0.111,0.4004,-18.26,270.34,-2.872,3.41,-0.88,41.396,-0.057,0.128,0,0,0,269.63,0,0,0,0,0,0,0,0,0,0,0,0,0,3,3,25.42,FLYING
25.84,APPROACH,ILS_TRACK,137.28,140,2.72,2233.26,-8.13,11.03,13.97,270.32,-0.104,0.4095,-16.972,270.34,-3.04,3.27,-0.72,41.319,-0.055,-0.04,0,0,0,269.63,0,0,0,0,0,0,0,0,0,0,0,0,0,3,3,25.91,FLYING
26.26,APPROACH,ILS_TRACK,136.8,140,3.2,2229.82,-8.23,11,13.94,270.33,-0.106,0.4125,-15.66,270.35,-2.852,3.14,-0.69,41.252,-0.051,0.148,0,0,0,269.63,0,0,0,0,0,0,0,0,0,0,0,0,0,3,3,26.33,FLYING
26.68,APPROACH,ILS_TRACK,136.39,140,3.61,2226.44,-8.08,11.16,14.1,270.33,-0.099,0.413,-14.171,270.35,-2.988,3.02,-0.6,41.186,-0.05,0.012,0,0,0,269.63,0,0,0,0,0,0,0,0,0,0,0,0,0,3,3,26.75,FLYING
27.17,APPROACH,ILS_TRACK,135.97,140,4.03,2222.47,-8.11,11.18,14.12,270.33,-0.085,0.4205,-12.223,270.35,-2.923,2.89,-0.55,41.109,-0.047,0.077,0,0,0,269.63,0,0,0,0,0,0,0,0,0,0,0,0,0,3,3,27.24,FLYING
27.59,APPROACH,ILS_TRACK,135.68,140,4.32,2219.08,-8.03,11.19,14.12,270.33,-0.075,0.4195,-10.427,270.36,-2.999,2.77,-0.47,41.043,-0.043,0.001,0,0,0,269.63,0,0,0,0,0,0,0,0,0,0,0,0,0,3,3,27.66,FLYING
28.01,APPROACH,ILS_TRACK,135.44,140,4.56,2215.71,-8.05,11.21,14.13,270.33,-0.074,0.4184,-8.525,270.36,-2.988,2.67,-0.42,40.977,-0.044,0.012,0,0,0,269.63,0,0,0,0,0,0,0,0,0,0,0,0,0,3,3,28.08,FLYING
28.5,APPROACH,ILS_TRACK,135.22,140,4.78,2211.77,-7.98,11.19,14.11,270.33,-0.072,0.4221,-6.195,270.36,-3.027,2.54,-0.34,40.901,-0.038,-0.027,0,0,0,269.63,0,0,0,0,0,0,0,0,0,0,0,0,0,3,3,28.57,FLYING
28.92,APPROACH,ILS_TRACK,135.08,140,4.92,2208.41,-7.98,11.16,14.08,270.34,-0.074,0.4198,-4.137,270.36,-3.04,2.44,-0.27,40.835,-0.039,-0.04,0,0,0,269.63,0,0,0,0,0,0,0,0,0,0,0,0,0,3,3,28.99,FLYING
29.34,APPROACH,ILS_TRACK,134.98,140,5.02,2205.04,-7.95,11.13,14.05,270.34,-0.076,0.4173,-2.035,270.37,-3.065,2.34,-0.21,40.77,-0.034,-0.065,0,0,0,269.63,0,0,0,0,0,0,0,0,0,0,0,0,0,3,3,29.41,FLYING
29.83,APPROACH,ILS_TRACK,134.92,140,5.08,2201.12,-7.96,11.08,14.01,270.34,-0.082,0.4189,0.449,270.37,-3.079,2.23,-0.13,40.693,-0.032,-0.079,0,0,0,269.63,0,0,0,0,0,0,0,0,0,0,0,0,0,3,3,29.9,FLYING
30.25,APPROACH,ILS_TRACK,134.91,140,5.09,2197.75,-7.96,11.03,13.95,270.35,-0.084,0.4153,2.585,270.37,-3.096,2.14,-0.07,40.628,-0.029,-0.096,0,0,0,269.63,0,0,0,0,0,0,0,0,0,0,0,0,0,3,3,30.32,FLYING
30.67,APPROACH,ILS_TRACK,134.94,140,5.06,2194.38,-7.98,10.98,13.91,270.35,-0.09,0.4117,4.713,270.37,-3.101,2.05,-0.02,40.563,-0.03,-0.101,0,0,0,269.63,0,0,0,0,0,0,0,0,0,0,0,0,0,3,3,30.74,FLYING
31.16,APPROACH,ILS_TRACK,135,140,5,2190.44,-7.99,10.94,13.88,270.35,-0.093,0.4116,7.167,270.37,-3.11,1.95,0.04,40.486,-0.026,-0.11,0,0,0,269.63,0,0,0,0,0,0,0,0,0,0,0,0,0,3,3,31.23,FLYING
31.58,APPROACH,ILS_TRACK,135.09,140,4.91,2187.06,-8,10.87,13.81,270.36,-0.095,0.4076,9.235,270.38,-3.122,1.86,0.09,40.421,-0.023,-0.122,0,0,0,269.63,0,0,0,0,0,0,0,0,0,0,0,0,0,3,3,31.65,FLYING
32,APPROACH,ILS_TRACK,135.2,140,4.8,2183.67,-8.06,10.84,13.78,270.36,-0.097,0.4038,11.259,270.38,-3.115,1.78,0.13,40.356,-0.024,-0.115,0,0,0,269.63,0,0,0,0,0,0,0,0,0,0,0,0,0,3,3,32.07,FLYING
32.49,APPROACH,ILS_TRACK,135.36,140,4.64,2179.7,-8.04,10.77,13.72,270.36,-0.096,0.4027,13.546,270.38,-3.121,1.69,0.17,40.279,-0.023,-0.121,0,0,0,269.63,0,0,0,0,0,0,0,0,0,0,0,0,0,3,3,32.56,FLYING
32.91,APPROACH,ILS_TRACK,135.51,140,4.49,2176.3,-8.07,10.73,13.69,270.37,-0.098,0.3984,15.443,270.38,-3.117,1.62,0.2,40.214,-0.021,-0.117,0,0,0,269.63,0,0,0,0,0,0,0,0,0,0,0,0,0,3,3,32.98,FLYING
33.33,APPROACH,ILS_TRACK,135.69,140,4.31,2172.88,-8.09,10.68,13.63,270.37,-0.095,0.3938,17.267,270.38,-3.124,1.55,0.23,40.148,-0.018,-0.124,0,0,0,269.63,0,0,0,0,0,0,0,0,0,0,0,0,0,3,3,33.4,FLYING
33.82,APPROACH,ILS_TRACK,135.91,140,4.09,2168.89,-8.13,10.62,13.58,270.37,-0.095,0.3908,19.288,270.38,-3.115,1.47,0.26,40.072,-0.022,-0.115,0,0,0,269.63,0,0,0,0,0,0,0,0,0,0,0,0,0,3,3,33.89,FLYING
34.24,APPROACH,ILS_TRACK,136.11,140,3.89,2165.46,-8.11,10.54,13.5,270.37,-0.086,0.3749,20,270.38,-3.13,1.41,0.28,40.006,-0.019,-0.13,0,0,0,269.63,0,0,0,0,0,0,0,0,0,0,0,0,0,3,3,34.31,FLYING
34.66,APPROACH,ILS_TRACK,136.32,140,3.68,2162.02,-8.19,10.5,13.46,270.38,-0.084,0.3517,20,270.38,-3.109,1.35,0.29,39.94,-0.017,-0.109,0,0,0,269.63,0,0,0,0,0,0,0,0,0,0,0,0,0,3,3,34.73,FLYING
35.15,APPROACH,ILS_TRACK,136.57,140,3.43,2158.01,-8.14,10.46,13.42,270.38,-0.076,0.3288,20,270.38,-3.127,1.28,0.31,39.863,-0.018,-0.127,0,0,0,269.63,0,0,0,0,0,0,0,0,0,0,0,0,0,3,3,35.22,FLYING
35.57,APPROACH,ILS_TRACK,136.77,140,3.23,2154.55,-8.19,10.41,13.38,270.38,-0.075,0.3115,20,270.38,-3.124,1.23,0.33,39.797,-0.018,-0.124,0,0,0,269.63,0,0,0,0,0,0,0,0,0,0,0,0,0,3,3,35.64,FLYING
35.99,APPROACH,ILS_TRACK,136.95,140,3.05,2151.1,-8.21,10.4,13.37,270.38,-0.068,0.2984,20,270.38,-3.124,1.18,0.34,39.731,-0.017,-0.124,0,0,0,269.63,0,0,0,0,0,0,0,0,0,0,0,0,0,3,3,36.06,FLYING
36.48,APPROACH,ILS_TRACK,137.13,140,2.87,2147.07,-8.2,10.38,13.35,270.38,-0.066,0.2896,20,270.39,-3.136,1.12,0.36,39.654,-0.015,-0.136,0,0,0,269.63,0,0,0,0,0,0,0,0,0,0,0,0,0,3,3,36.55,FLYING
36.9,APPROACH,ILS_TRACK,137.24,140,2.76,2143.61,-8.22,10.38,13.35,270.38,-0.063,0.2882,20,270.38,-3.136,1.08,0.37,39.587,-0.016,-0.136,0,0,0,269.63,0,0,0,0,0,0,0,0,0,0,0,0,0,3,3,36.97,FLYING
37.32,APPROACH,ILS_TRACK,137.32,140,2.68,2140.15,-8.27,10.41,13.39,270.38,-0.059,0.2922,20,270.39,-3.128,1.03,0.38,39.521,-0.014,-0.128,0,0,0,269.63,0,0,0,0,0,0,0,0,0,0,0,0,0,3,3,37.39,FLYING
37.81,APPROACH,ILS_TRACK,137.38,140,2.62,2136.11,-8.25,10.41,13.39,270.38,-0.055,0.2994,20,270.39,-3.131,0.98,0.39,39.444,-0.015,-0.131,0,0,0,269.63,0,0,0,0,0,0,0,0,0,0,0,0,0,3,3,37.88,FLYING
38.23,APPROACH,ILS_TRACK,137.4,140,2.6,2132.64,-8.27,10.42,13.4,270.38,-0.051,0.3092,20,270.39,-3.125,0.94,0.39,39.378,-0.015,-0.125,0,0,0,269.63,0,0,0,0,0,0,0,0,0,0,0,0,0,3,3,38.3,FLYING
38.65,APPROACH,ILS_TRACK,137.41,140,2.59,2129.17,-8.26,10.43,13.41,270.38,-0.047,0.3197,20,270.39,-3.128,0.9,0.4,39.311,-0.012,-0.128,0,0,0,269.63,0,0,0,0,0,0,0,0,0,0,0,0,0,3,3,38.72,FLYING
39.14,APPROACH,ILS_TRACK,137.41,140,2.59,2125.12,-8.27,10.44,13.43,270.39,-0.047,0.3297,20,270.39,-3.118,0.86,0.39,39.234,-0.012,-0.118,0,0,0,269.63,0,0,0,0,0,0,0,0,0,0,0,0,0,3,3,39.21,FLYING
39.56,APPROACH,ILS_TRACK,137.4,140,2.6,2121.64,-8.26,10.44,13.42,270.39,-0.043,0.3381,20,270.39,-3.119,0.83,0.39,39.168,-0.012,-0.119,0,0,0,269.63,0,0,0,0,0,0,0,0,0,0,0,0,0,3,3,39.63,FLYING
39.98,APPROACH,ILS_TRACK,137.4,140,2.6,2118.17,-8.27,10.44,13.42,270.39,-0.039,0.3446,20,270.39,-3.113,0.79,0.39,39.102,-0.012,-0.113,0,0,0,269.63,0,0,0,0,0,0,0,0,0,0,0,0,0,3,3,40.05,FLYING
40.47,APPROACH,ILS_TRACK,137.41,140,2.59,2114.12,-8.26,10.43,13.41,270.39,-0.037,0.3486,20,270.39,-3.111,0.75,0.39,39.024,-0.011,-0.111,0,0,0,269.63,0,0,0,0,0,0,0,0,0,0,0,0,0,3,3,40.54,FLYING
40.89,APPROACH,ILS_TRACK,137.43,140,2.57,2110.65,-8.26,10.42,13.4,270.39,-0.035,0.3505,20,270.39,-3.11,0.73,0.39,38.958,-0.013,-0.11,0,0,0,269.63,0,0,0,0,0,0,0,0,0,0,0,0,0,3,3,40.96,FLYING
41.31,APPROACH,ILS_TRACK,137.45,140,2.55,2107.17,-8.26,10.41,13.39,270.39,-0.031,0.3503,20,270.39,-3.109,0.7,0.38,38.892,-0.01,-0.109,0,0,0,269.63,0,0,0,0,0,0,0,0,0,0,0,0,0,3,3,41.38,FLYING
41.8,APPROACH,ILS_TRACK,137.49,140,2.51,2103.12,-8.26,10.39,13.37,270.39,-0.028,0.3478,20,270.39,-3.108,0.66,0.38,38.815,-0.011,-0.108,0,0,0,269.63,0,0,0,0,0,0,0,0,0,0,0,0,0,3,3,41.87,FLYING
42.22,APPROACH,ILS_TRACK,137.54,140,2.46,2099.65,-8.25,10.37,13.35,270.39,-0.026,0.344,20,270.39,-3.109,0.64,0.38,38.748,-0.009,-0.109,0,0,0,269.63,0,0,0,0,0,0,0,0,0,0,0,0,0,3,3,42.29,FLYING
42.64,APPROACH,ILS_TRACK,137.59,140,2.41,2096.18,-8.25,10.36,13.34,270.39,-0.024,0.3393,20,270.39,-3.109,0.61,0.37,38.682,-0.011,-0.109,0,0,0,269.63,0,0,0,0,0,0,0,0,0,0,0,0,0,3,3,42.71,FLYING
43.13,APPROACH,ILS_TRACK,137.66,140,2.34,2092.13,-8.25,10.33,13.31,270.39,-0.023,0.3334,20,270.39,-3.11,0.58,0.37,38.605,-0.007,-0.11,0,0,0,269.63,0,0,0,0,0,0,0,0,0,0,0,0,0,3,3,43.2,FLYING
43.55,APPROACH,ILS_TRACK,137.72,140,2.28,2088.65,-8.26,10.32,13.3,270.39,-0.023,0.328,20,270.39,-3.111,0.56,0.37,38.539,-0.009,-0.111,0,0,0,269.63,0,0,0,0,0,0,0,0,0,0,0,0,0,3,3,43.62,FLYING
43.97,APPROACH,ILS_TRACK,137.78,140,2.22,2085.18,-8.26,10.3,13.28,270.39,-0.022,0.3228,20,270.39,-3.113,0.54,0.37,38.472,-0.009,-0.113,0,0,0,269.63,0,0,0,0,0,0,0,0,0,0,0,0,0,3,3,44.04,FLYING
44.46,APPROACH,ILS_TRACK,137.85,140,2.15,2081.13,-8.26,10.29,13.27,270.39,-0.021,0.3177,20,270.39,-3.114,0.51,0.37,38.395,-0.006,-0.114,0,0,0,269.63,0,0,0,0,0,0,0,0,0,0,0,0,0,3,3,44.53,FLYING
44.88,APPROACH,ILS_TRACK,137.91,140,2.09,2077.66,-8.26,10.28,13.26,270.39,-0.022,0.3143,20,270.39,-3.116,0.49,0.38,38.329,-0.006,-0.116,0,0,0,269.63,0,0,0,0,0,0,0,0,0,0,0,0,0,3,3,44.95,FLYING
45.3,APPROACH,ILS_TRACK,137.95,140,2.05,2074.18,-8.27,10.27,13.25,270.39,-0.02,0.3122,20,270.39,-3.116,0.47,0.38,38.263,-0.008,-0.116,0,0,0,269.63,0,0,0,0,0,0,0,0,0,0,0,0,0,3,3,45.37,FLYING
45.79,APPROACH,ILS_TRACK,138,140,2,2070.13,-8.26,10.27,13.25,270.39,-0.018,0.3111,20,270.4,-3.118,0.45,0.38,38.185,-0.005,-0.118,0,0,0,269.63,0,0,0,0,0,0,0,0,0,0,0,0,0,3,3,45.86,FLYING
46.21,APPROACH,ILS_TRACK,138.03,140,1.97,2066.66,-8.27,10.27,13.25,270.39,-0.018,0.3117,20,270.39,-3.117,0.43,0.38,38.119,-0.007,-0.117,0,0,0,269.63,0,0,0,0,0,0,0,0,0,0,0,0,0,3,3,46.28,FLYING
46.63,APPROACH,ILS_TRACK,138.05,140,1.95,2063.18,-8.27,10.27,13.25,270.39,-0.017,0.3132,20,270.4,-3.119,0.41,0.38,38.053,-0.004,-0.119,0,0,0,269.63,0,0,0,0,0,0,0,0,0,0,0,0,0,3,3,46.7,FLYING
47.12,APPROACH,ILS_TRACK,138.07,140,1.93,2059.13,-8.27,10.27,13.25,270.39,-0.019,0.3152,20,270.39,-3.117,0.39,0.39,37.975,-0.006,-0.117,0,0,0,269.63,0,0,0,0,0,0,0,0,0,0,0,0,0,3,3,47.19,FLYING
47.54,APPROACH,ILS_TRACK,138.08,140,1.92,2055.66,-8.27,10.27,13.25,270.39,-0.018,0.3178,20,270.39,-3.116,0.37,0.39,37.909,-0.006,-0.116,0,0,0,269.63,0,0,0,0,0,0,0,0,0,0,0,0,0,3,3,47.61,FLYING
47.96,APPROACH,ILS_TRACK,138.09,140,1.91,2052.18,-8.27,10.27,13.25,270.39,-0.017,0.3203,20,270.4,-3.116,0.36,0.39,37.843,-0.004,-0.116,0,0,0,269.63,0,0,0,0,0,0,0,0,0,0,0,0,0,3,3,48.03,FLYING
48.45,APPROACH,ILS_TRACK,138.09,140,1.91,2048.13,-8.27,10.27,13.25,270.4,-0.015,0.3223,20,270.4,-3.114,0.34,0.38,37.765,-0.003,-0.114,0,0,0,269.63,0,0,0,0,0,0,0,0,0,0,0,0,0,3,3,48.52,FLYING
48.87,APPROACH,ILS_TRACK,138.1,140,1.9,2044.65,-8.27,10.26,13.25,270.4,-0.015,0.3238,20,270.4,-3.114,0.32,0.38,37.699,-0.004,-0.114,0,0,0,269.63,0,0,0,0,0,0,0,0,0,0,0,0,0,3,3,48.94,FLYING
49.29,APPROACH,ILS_TRACK,138.11,140,1.89,2041.18,-8.27,10.26,13.24,270.4,-0.013,0.3247,20,270.4,-3.113,0.31,0.38,37.633,-0.005,-0.113,0,0,0,269.63,0,0,0,0,0,0,0,0,0,0,0,0,0,3,3,49.36,FLYING
49.78,APPROACH,ILS_TRACK,138.12,140,1.88,2037.13,-8.26,10.25,13.24,270.4,-0.014,0.325,20,270.4,-3.113,0.29,0.38,37.555,-0.002,-0.113,0,0,0,269.63,0,0,0,0,0,0,0,0,0,0,0,0,0,3,3,49.85,FLYING
50.2,APPROACH,ILS_TRACK,138.13,140,1.87,2033.66,-8.26,10.25,13.23,270.4,-0.012,0.3248,20,270.4,-3.112,0.28,0.38,37.489,-0.003,-0.112,0,0,0,269.63,0,0,0,0,0,0,0,0,0,0,0,0,0,3,3,50.27,FLYING
50.62,APPROACH,ILS_TRACK,138.15,140,1.85,2030.18,-8.26,10.24,13.23,270.4,-0.011,0.3241,20,270.4,-3.113,0.26,0.38,37.423,-0.003,-0.113,0,0,0,269.63,0,0,0,0,0,0,0,0,0,0,0,0,0,3,3,50.69,FLYING
51.11,APPROACH,ILS_TRACK,138.17,140,1.83,2026.13,-8.26,10.24,13.22,270.4,-0.011,0.3229,20,270.4,-3.112,0.25,0.38,37.346,-0.002,-0.112,0,0,0,269.63,0,0,0,0,0,0,0,0,0,0,0,0,0,3,3,51.18,FLYING
51.53,APPROACH,ILS_TRACK,138.18,140,1.82,2022.66,-8.26,10.23,13.21,270.4,-0.011,0.3216,20,270.4,-3.113,0.24,0.38,37.279,-0.002,-0.113,0,0,0,269.63,0,0,0,0,0,0,0,0,0,0,0,0,0,3,3,51.6,FLYING
51.95,APPROACH,ILS_TRACK,138.2,140,1.8,2019.19,-8.26,10.22,13.21,270.4,-0.009,0.3201,20,270.4,-3.113,0.22,0.38,37.213,-0.002,-0.113,0,0,0,269.63,0,0,0,0,0,0,0,0,0,0,0,0,0,3,3,52.02,FLYING
52.44,APPROACH,ILS_TRACK,138.23,140,1.77,2015.14,-8.26,10.22,13.2,270.4,-0.01,0.3184,20,270.4,-3.113,0.21,0.38,37.136,-0.002,-0.113,0,0,0,269.63,0,0,0,0,0,0,0,0,0,0,0,0,0,3,3,52.51,FLYING
52.86,APPROACH,ILS_TRACK,138.25,140,1.75,2011.67,-8.26,10.21,13.19,270.4,-0.009,0.3171,20,270.4,-3.114,0.2,0.38,37.07,-0.001,-0.114,0,0,0,269.63,0,0,0,0,0,0,0,0,0,0,0,0,0,3,3,52.93,FLYING
53.28,APPROACH,ILS_TRACK,138.27,140,1.73,2008.2,-8.26,10.21,13.19,270.4,-0.008,0.3159,20,270.4,-3.114,0.19,0.38,37.003,-0.003,-0.114,0,0,0,269.63,0,0,0,0,0,0,0,0,0,0,0,0,0,3,3,53.35,FLYING
53.77,APPROACH,ILS_TRACK,138.29,140,1.71,2004.15,-8.26,10.2,13.18,270.4,-0.009,0.3149,20,270.4,-3.115,0.18,0.38,36.926,-0.002,-0.115,0,0,0,269.63,0,0,0,0,0,0,0,0,0,0,0,0,0,3,3,53.84,FLYING
54.19,APPROACH,ILS_TRACK,138.3,140,1.7,2000.69,-8.27,10.24,13.22,270.4,-0.009,0.3146,20,270.4,-3.121,0.17,0.38,36.86,0,-0.121,0,0,0,269.63,0,0,0,0,0,0,0,0,0,0,0,0,0,3,3,54.26,FLYING
54.61,APPROACH,ILS_TRACK,138.31,140,1.69,1997.22,-8.27,10.24,13.22,270.4,-0.01,0.3153,20,270.4,-3.118,0.16,0.38,36.794,-0.002,-0.118,0,0,0,269.63,0,0,0,0,0,0,0,0,0,0,0,0,0,3,3,54.68,FLYING
55.1,APPROACH,ILS_TRACK,138.32,140,1.68,1993.17,-8.26,10.24,13.23,270.4,-0.01,0.3162,20,270.4,-3.112,0.15,0.38,36.717,0.001,-0.112,0,0,0,269.63,0,0,0,0,0,0,0,0,0,0,0,0,0,3,3,55.17,FLYING
55.52,APPROACH,ILS_TRACK,138.32,140,1.68,1989.7,-8.26,10.25,13.23,270.4,-0.01,0.3174,20,270.4,-3.11,0.14,0.38,36.65,-0.001,-0.11,0,0,0,269.63,0,0,0,0,0,0,0,0,0,0,0,0,0,3,3,55.59,FLYING
55.94,APPROACH,ILS_TRACK,138.32,140,1.68,1986.23,-8.26,10.25,13.24,270.4,-0.012,0.3185,20,270.4,-3.109,0.13,0.38,36.584,0,-0.109,0,0,0,269.63,0,0,0,0,0,0,0,0,0,0,0,0,0,3,3,56.01,FLYING
56.43,APPROACH,ILS_TRACK,138.32,140,1.68,1982.18,-8.26,10.25,13.23,270.4,-0.012,0.3195,20,270.4,-3.108,0.12,0.37,36.507,0,-0.108,0,0,0,269.63,0,0,0,0,0,0,0,0,0,0,0,0,0,3,3,56.5,FLYING
56.85,APPROACH,ILS_TRACK,138.32,140,1.68,1978.71,-8.25,10.25,13.23,270.4,-0.011,0.3202,20,270.4,-3.108,0.12,0.37,36.441,-0.001,-0.108,0,0,0,269.63,0,0,0,0,0,0,0,0,0,0,0,0,0,3,3,56.92,FLYING
57.27,APPROACH,ILS_TRACK,138.32,140,1.68,1975.25,-8.25,10.25,13.23,270.4,-0.011,0.3206,20,270.4,-3.108,0.11,0.37,36.375,0.001,-0.108,0,0,0,269.63,0,0,0,0,0,0,0,0,0,0,0,0,0,3,3,57.34,FLYING
57.76,APPROACH,ILS_TRACK,138.33,140,1.67,1971.2,-8.25,10.24,13.23,270.4,-0.011,0.3207,20,270.4,-3.109,0.1,0.37,36.298,-0.002,-0.109,0,0,0,269.63,0,0,0,0,0,0,0,0,0,0,0,0,0,3,3,57.83,FLYING
58.18,APPROACH,ILS_TRACK,138.33,140,1.67,1967.74,-8.25,10.24,13.22,270.4,-0.009,0.3205,20,270.4,-3.109,0.1,0.37,36.232,0,-0.109,0,0,0,269.63,0,0,0,0,0,0,0,0,0,0,0,0,0,3,3,58.25,FLYING
58.6,APPROACH,ILS_TRACK,138.34,140,1.66,1964.27,-8.24,10.23,13.22,270.4,-0.009,0.32,20,270.4,-3.11,0.09,0.37,36.165,-0.001,-0.11,0,0,0,269.63,0,0,0,0,0,0,0,0,0,0,0,0,0,3,3,58.67,FLYING
59.09,APPROACH,ILS_TRACK,138.35,140,1.65,1960.23,-8.24,10.23,13.21,270.4,-0.007,0.3193,20,270.4,-3.111,0.08,0.37,36.088,0.001,-0.111,0,0,0,269.63,0,0,0,0,0,0,0,0,0,0,0,0,0,3,3,59.16,FLYING
59.51,APPROACH,ILS_TRACK,138.36,140,1.64,1956.77,-8.24,10.23,13.21,270.4,-0.007,0.3185,20,270.4,-3.111,0.08,0.37,36.022,-0.001,-0.111,0,0,0,269.63,0,0,0,0,0,0,0,0,0,0,0,0,0,3,3,59.58,FLYING
59.93,APPROACH,ILS_TRACK,138.37,140,1.63,1953.31,-8.24,10.22,13.2,270.4,-0.006,0.3176,20,270.4,-3.112,0.07,0.37,35.956,0.001,-0.112,0,0,0,269.63,0,0,0,0,0,0,0,0,0,0,0,0,0,3,3,60,FLYING
60.42,APPROACH,ILS_TRACK,138.38,140,1.62,1949.27,-8.24,10.22,13.2,270.4,-0.007,0.3167,20,270.4,-3.113,0.07,0.37,35.879,0,-0.113,0,0,0,269.63,0,0,0,0,0,0,0,0,0,0,0,0,0,3,3,60.49,FLYING
60.84,APPROACH,ILS_TRACK,138.39,140,1.61,1945.81,-8.24,10.21,13.2,270.4,-0.008,0.3159,20,270.4,-3.113,0.06,0.37,35.813,0.001,-0.113,0,0,0,269.63,0,0,0,0,0,0,0,0,0,0,0,0,0,3,3,60.91,FLYING
61.26,APPROACH,ILS_TRACK,138.4,140,1.6,1942.35,-8.24,10.21,13.19,270.4,-0.007,0.3153,20,270.4,-3.114,0.06,0.37,35.747,-0.001,-0.114,0,0,0,269.63,0,0,0,0,0,0,0,0,0,0,0,0,0,3,3,61.33,FLYING
61.75,APPROACH,ILS_TRACK,138.41,140,1.59,1938.32,-8.23,10.21,13.19,270.4,-0.007,0.3149,20,270.4,-3.115,0.06,0.37,35.67,-0.001,-0.115,0,0,0,269.63,0,0,0,0,0,0,0,0,0,0,0,0,0,3,3,61.82,FLYING
62.17,APPROACH,ILS_TRACK,138.41,140,1.59,1934.86,-8.23,10.21,13.19,270.4,-0.005,0.3147,20,270.4,-3.114,0.05,0.38,35.604,0.001,-0.114,0,0,0,269.63,0,0,0,0,0,0,0,0,0,0,0,0,0,3,3,62.24,FLYING
62.59,APPROACH,ILS_TRACK,138.42,140,1.58,1931.4,-8.23,10.2,13.19,270.4,-0.005,0.3147,20,270.4,-3.114,0.05,0.38,35.538,-0.001,-0.114,0,0,0,269.63,0,0,0,0,0,0,0,0,0,0,0,0,0,3,3,62.66,FLYING
63.08,APPROACH,ILS_TRACK,138.42,140,1.58,1927.36,-8.23,10.2,13.19,270.4,-0.003,0.3148,20,270.4,-3.115,0.05,0.38,35.461,0,-0.115,0,0,0,269.63,0,0,0,0,0,0,0,0,0,0,0,0,0,3,3,63.15,FLYING
63.5,APPROACH,ILS_TRACK,138.43,140,1.57,1923.91,-8.23,10.2,13.19,270.4,-0.003,0.3151,20,270.4,-3.114,0.05,0.38,35.395,-0.001,-0.114,0,0,0,269.63,0,0,0,0,0,0,0,0,0,0,0,0,0,3,3,63.57,FLYING
63.92,APPROACH,ILS_TRACK,138.43,140,1.57,1920.45,-8.23,10.2,13.19,270.4,-0.002,0.3154,20,270.4,-3.114,0.04,0.38,35.329,0.001,-0.114,0,0,0,269.63,0,0,0,0,0,0,0,0,0,0,0,0,0,3,3,63.99,FLYING
64.41,APPROACH,ILS_TRACK,138.43,140,1.57,1916.42,-8.23,10.2,13.18,270.4,-0.002,0.3157,20,270.4,-3.113,0.04,0.38,35.252,-0.002,-0.113,0,0,0,269.63,0,0,0,0,0,0,0,0,0,0,0,0,0,3,3,64.48,FLYING
64.83,APPROACH,ILS_TRACK,138.43,140,1.57,1912.96,-8.23,10.2,13.18,270.4,0,0.316,20,270.4,-3.113,0.04,0.38,35.186,-0.001,-0.113,0,0,0,269.63,0,0,0,0,0,0,0,0,0,0,0,0,0,3,3,64.9,FLYING
65.25,APPROACH,ILS_TRACK,138.43,140,1.57,1909.5,-8.23,10.2,13.18,270.4,0.001,0.3162,20,270.4,-3.112,0.04,0.38,35.12,0,-0.112,0,0,0,269.63,0,0,0,0,0,0,0,0,0,0,0,0,0,3,3,65.32,FLYING
65.74,APPROACH,ILS_TRACK,138.44,140,1.56,1905.47,-8.22,10.2,13.18,270.4,0,0.3162,20,270.4,-3.113,0.04,0.38,35.043,0,-0.113,0,0,0,269.63,0,0,0,0,0,0,0,0,0,0,0,0,0,3,3,65.81,FLYING
66.16,APPROACH,ILS_TRACK,138.44,140,1.56,1902.02,-8.22,10.2,13.18,270.4,0,0.3162,20,270.4,-3.112,0.03,0.38,34.977,0,-0.112,0,0,0,269.63,0,0,0,0,0,0,0,0,0,0,0,0,0,3,3,66.23,FLYING
66.58,APPROACH,ILS_TRACK,138.44,140,1.56,1898.56,-8.22,10.19,13.18,270.4,0.001,0.3161,20,270.4,-3.113,0.03,0.38,34.911,-0.001,-0.113,0,0,0,269.63,0,0,0,0,0,0,0,0,0,0,0,0,0,3,3,66.65,FLYING
67.07,APPROACH,ILS_TRACK,138.45,140,1.55,1894.54,-8.22,10.19,13.17,270.4,0.003,0.3158,20,270.4,-3.113,0.03,0.38,34.834,0,-0.113,0,0,0,269.63,0,0,0,0,0,0,0,0,0,0,0,0,0,3,3,67.14,FLYING
67.49,APPROACH,ILS_TRACK,138.45,140,1.55,1891.08,-8.22,10.19,13.17,270.4,0.003,0.3156,20,270.4,-3.112,0.03,0.38,34.769,0,-0.112,0,0,0,269.63,0,0,0,0,0,0,0,0,0,0,0,0,0,3,3,67.56,FLYING
67.91,APPROACH,ILS_TRACK,138.45,140,1.55,1887.63,-8.22,10.19,13.17,270.4,0.003,0.3152,20,270.4,-3.113,0.03,0.38,34.703,-0.001,-0.113,0,0,0,269.63,0,0,0,0,0,0,0,0,0,0,0,0,0,3,3,67.98,FLYING
68.4,APPROACH,ILS_TRACK,138.46,140,1.54,1883.61,-8.21,10.18,13.17,270.4,0.005,0.3149,20,270.4,-3.113,0.03,0.38,34.626,0,-0.113,0,0,0,269.63,0,0,0,0,0,0,0,0,0,0,0,0,0,3,3,68.47,FLYING
68.82,APPROACH,ILS_TRACK,138.46,140,1.54,1880.15,-8.21,10.18,13.17,270.4,0.005,0.3146,20,270.4,-3.113,0.03,0.38,34.56,-0.001,-0.113,0,0,0,269.63,0,0,0,0,0,0,0,0,0,0,0,0,0,3,3,68.89,FLYING
69.24,APPROACH,ILS_TRACK,138.47,140,1.53,1876.7,-8.21,10.18,13.16,270.4,0.003,0.3144,20,270.4,-3.113,0.02,0.38,34.494,0.002,-0.113,0,0,0,269.63,0,0,0,0,0,0,0,0,0,0,0,0,0,3,3,69.31,FLYING
69.73,APPROACH,ILS_TRACK,138.47,140,1.53,1872.68,-8.21,10.18,13.16,270.4,0.004,0.3142,20,270.4,-3.113,0.02,0.38,34.417,-0.001,-0.113,0,0,0,269.63,0,0,0,0,0,0,0,0,0,0,0,0,0,3,3,69.8,FLYING
70.15,APPROACH,ILS_TRACK,138.47,140,1.53,1869.23,-8.21,10.18,13.16,270.4,0.004,0.3141,20,270.4,-3.113,0.02,0.38,34.352,0.001,-0.113,0,0,0,269.63,0,0,0,0,0,0,0,0,0,0,0,0,0,3,3,70.22,FLYING
70.57,APPROACH,ILS_TRACK,138.48,140,1.52,1865.78,-8.21,10.18,13.16,270.4,0.003,0.314,20,270.4,-3.114,0.02,0.38,34.286,-0.001,-0.114,0,0,0,269.63,0,0,0,0,0,0,0,0,0,0,0,0,0,3,3,70.64,FLYING
71.06,APPROACH,ILS_TRACK,138.48,140,1.52,1861.76,-8.21,10.17,13.16,270.4,0.003,0.314,20,270.4,-3.113,0.02,0.38,34.209,0,-0.113,0,0,0,269.63,0,0,0,0,0,0,0,0,0,0,0,0,0,3,3,71.13,FLYING
71.48,APPROACH,ILS_TRACK,138.48,140,1.52,1858.31,-8.21,10.17,13.16,270.4,0.003,0.3141,20,270.4,-3.113,0.01,0.38,34.143,0.002,-0.113,0,0,0,269.63,0,0,0,0,0,0,0,0,0,0,0,0,0,3,3,71.55,FLYING
71.9,APPROACH,ILS_TRACK,138.48,140,1.52,1854.87,-8.2,10.17,13.16,270.4,0.003,0.3141,20,270.4,-3.113,0.01,0.38,34.077,-0.001,-0.113,0,0,0,269.63,0,0,0,0,0,0,0,0,0,0,0,0,0,3,3,71.97,FLYING
72.39,APPROACH,ILS_TRACK,138.49,140,1.51,1850.85,-8.2,10.17,13.15,270.4,0.002,0.3141,20,270.4,-3.114,0.01,0.38,34.001,0.002,-0.114,0,0,0,269.63,0,0,0,0,0,0,0,0,0,0,0,0,0,3,3,72.46,FLYING
72.81,APPROACH,ILS_TRACK,138.49,140,1.51,1847.4,-8.2,10.17,13.15,270.4,0.002,0.3142,20,270.4,-3.113,0.01,0.38,33.935,0,-0.113,0,0,0,269.63,0,0,0,0,0,0,0,0,0,0,0,0,0,3,3,72.88,FLYING
73.23,APPROACH,ILS_TRACK,138.49,140,1.51,1843.96,-8.2,10.17,13.15,270.4,0.001,0.3142,20,270.4,-3.113,0.01,0.38,33.869,0.001,-0.113,0,0,0,269.63,0,0,0,0,0,0,0,0,0,0,0,0,0,3,3,73.3,FLYING
73.72,APPROACH,ILS_TRACK,138.49,140,1.51,1839.94,-8.2,10.17,13.15,270.4,0.003,0.3141,20,270.4,-3.113,0.01,0.38,33.793,0.001,-0.113,0,0,0,269.63,0,0,0,0,0,0,0,0,0,0,0,0,0,3,3,73.79,FLYING
74.14,APPROACH,ILS_TRACK,138.49,140,1.51,1836.5,-8.2,10.16,13.15,270.4,0.001,0.3141,20,270.4,-3.113,0.01,0.38,33.727,-0.001,-0.113,0,0,0,269.63,0,0,0,0,0,0,0,0,0,0,0,0,0,3,3,74.21,FLYING
74.56,APPROACH,ILS_TRACK,138.5,140,1.5,1833.05,-8.19,10.16,13.15,270.4,0.002,0.314,20,270.4,-3.113,0,0.38,33.661,0.002,-0.113,0,0,0,269.63,0,0,0,0,0,0,0,0,0,0,0,0,0,3,3,74.63,FLYING
75.05,APPROACH,ILS_TRACK,138.5,140,1.5,1829.04,-8.19,10.16,13.15,270.4,0.001,0.3138,20,270.4,-3.113,0,0.38,33.585,0.001,-0.113,0,0,0,269.63,0,0,0,0,0,0,0,0,0,0,0,0,0,3,3,75.12,FLYING
75.47,APPROACH,ILS_TRACK,138.5,140,1.5,1825.6,-8.19,10.16,13.15,270.4,0,0.3137,20,270.4,-3.113,0,0.38,33.519,0.001,-0.113,0,0,0,269.63,0,0,0,0,0,0,0,0,0,0,0,0,0,3,3,75.54,FLYING
75.89,APPROACH,ILS_TRACK,138.5,140,1.5,1822.15,-8.19,10.16,13.14,270.4,-0.001,0.3135,20,270.4,-3.113,0,0.38,33.453,0,-0.113,0,0,0,269.63,0,0,0,0,0,0,0,0,0,0,0,0,0,3,3,75.96,FLYING
76.38,APPROACH,ILS_TRACK,138.51,140,1.49,1818.14,-8.19,10.16,13.14,270.4,0,0.3134,20,270.4,-3.114,-0.01,0.38,33.377,0.002,-0.114,0,0,0,269.63,0,0,0,0,0,0,0,0,0,0,0,0,0,3,3,76.45,FLYING
76.8,APPROACH,ILS_TRACK,138.51,140,1.49,1814.7,-8.19,10.16,13.14,270.4,0,0.3132,20,270.4,-3.113,-0.01,0.38,33.311,0,-0.113,0,0,0,269.63,0,0,0,0,0,0,0,0,0,0,0,0,0,3,3,76.87,FLYING
77.22,APPROACH,ILS_TRACK,138.51,140,1.49,1811.26,-8.19,10.15,13.14,270.4,0,0.3131,20,270.4,-3.113,-0.01,0.38,33.245,0.001,-0.113,0,0,0,269.63,0,0,0,0,0,0,0,0,0,0,0,0,0,3,3,77.29,FLYING
77.71,APPROACH,ILS_TRACK,138.51,140,1.49,1807.25,-8.18,10.15,13.14,270.4,0.001,0.313,20,270.4,-3.113,-0.01,0.38,33.169,0,-0.113,0,0,0,269.63,0,0,0,0,0,0,0,0,0,0,0,0,0,3,3,77.78,FLYING
78.13,APPROACH,ILS_TRACK,138.52,140,1.48,1803.81,-8.18,10.15,13.14,270.4,0.001,0.3129,20,270.4,-3.113,-0.01,0.38,33.103,0.003,-0.113,0,0,0,269.63,0,0,0,0,0,0,0,0,0,0,0,0,0,3,3,78.2,FLYING
78.55,APPROACH,ILS_TRACK,138.52,140,1.48,1800.38,-8.18,10.15,13.13,270.4,-0.001,0.3128,20,270.4,-3.114,-0.01,0.38,33.038,-0.001,-0.114,0,0,0,269.63,0,0,0,0,0,0,0,0,0,0,0,0,0,3,3,78.62,FLYING
79.04,APPROACH,ILS_TRACK,138.52,140,1.48,1796.37,-8.18,10.15,13.13,270.4,0.001,0.3128,20,270.4,-3.113,-0.01,0.38,32.961,0,-0.113,0,0,0,269.63,0,0,0,0,0,0,0,0,0,0,0,0,0,3,3,79.11,FLYING
79.46,APPROACH,ILS_TRACK,138.52,140,1.48,1792.93,-8.18,10.15,13.13,270.4,0.001,0.3128,20,270.4,-3.113,-0.01,0.38,32.896,0.001,-0.113,0,0,0,269.63,0,0,0,0,0,0,0,0,0,0,0,0,0,3,3,79.53,FLYING
79.88,APPROACH,ILS_TRACK,138.52,140,1.48,1789.5,-8.18,10.15,13.13,270.4,0,0.3127,20,270.4,-3.113,-0.01,0.38,32.83,0.003,-0.113,0,0,0,269.63,0,0,0,0,0,0,0,0,0,0,0,0,0,3,3,79.95,FLYING
80.37,APPROACH,ILS_TRACK,138.52,140,1.48,1785.49,-8.17,10.14,13.13,270.4,0,0.3127,20,270.4,-3.114,-0.01,0.38,32.754,0,-0.114,0,0,0,269.63,0,0,0,0,0,0,0,0,0,0,0,0,0,3,3,80.44,FLYING
80.79,APPROACH,ILS_TRACK,138.53,140,1.47,1782.06,-8.17,10.14,13.13,270.4,-0.001,0.3126,20,270.4,-3.113,-0.01,0.38,32.688,0,-0.113,0,0,0,269.63,0,0,0,0,0,0,0,0,0,0,0,0,0,3,3,80.86,FLYING
81.21,APPROACH,ILS_TRACK,138.53,140,1.47,1778.62,-8.17,10.14,13.13,270.4,-0.001,0.3126,20,270.4,-3.114,-0.02,0.38,32.623,0.003,-0.114,0,0,0,269.63,0,0,0,0,0,0,0,0,0,0,0,0,0,3,3,81.28,FLYING
81.7,APPROACH,ILS_TRACK,138.53,140,1.47,1774.62,-8.17,10.14,13.13,270.4,-0.002,0.3125,20,270.4,-3.114,-0.02,0.38,32.546,0.002,-0.114,0,0,0,269.63,0,0,0,0,0,0,0,0,0,0,0,0,0,3,3,81.77,FLYING
82.12,APPROACH,ILS_TRACK,138.53,140,1.47,1771.19,-8.17,10.14,13.12,270.4,0.002,0.3124,20,270.4,-3.113,-0.02,0.38,32.481,0.001,-0.113,0,0,0,269.63,0,0,0,0,0,0,0,0,0,0,0,0,0,3,3,82.19,FLYING
82.54,APPROACH,ILS_TRACK,138.53,140,1.47,1767.76,-8.17,10.14,13.12,270.4,0,0.3123,20,270.4,-3.113,-0.01,0.38,32.415,-0.002,-0.113,0,0,0,269.63,0,0,0,0,0,0,0,0,0,0,0,0,0,3,3,82.61,FLYING
83.03,APPROACH,ILS_TRACK,138.53,140,1.47,1763.75,-8.17,10.14,13.12,270.4,0.001,0.3122,20,270.4,-3.114,-0.01,0.38,32.339,0.001,-0.114,0,0,0,269.63,0,0,0,0,0,0,0,0,0,0,0,0,0,3,3,83.1,FLYING
83.45,APPROACH,ILS_TRACK,138.54,140,1.46,1760.32,-8.16,10.13,13.12,270.4,0.002,0.3122,20,270.4,-3.113,-0.01,0.38,32.273,0,-0.113,0,0,0,269.63,0,0,0,0,0,0,0,0,0,0,0,0,0,3,3,83.52,FLYING
83.87,APPROACH,ILS_TRACK,138.54,140,1.46,1756.89,-8.16,10.13,13.12,270.4,0,0.312,20,270.4,-3.114,-0.02,0.38,32.208,0.004,-0.114,0,0,0,269.63,0,0,0,0,0,0,0,0,0,0,0,0,0,3,3,83.94,FLYING
84.36,APPROACH,ILS_TRACK,138.54,140,1.46,1752.89,-8.16,10.13,13.12,270.4,0.001,0.3119,20,270.4,-3.113,-0.02,0.38,32.132,0.001,-0.113,0,0,0,269.63,0,0,0,0,0,0,0,0,0,0,0,0,0,3,3,84.43,FLYING
84.78,APPROACH,ILS_TRACK,138.54,140,1.46,1749.47,-8.16,10.13,13.12,270.4,0,0.3118,20,270.4,-3.114,-0.02,0.38,32.066,0,-0.114,0,0,0,269.63,0,0,0,0,0,0,0,0,0,0,0,0,0,3,3,84.85,FLYING
85.2,APPROACH,ILS_TRACK,138.54,140,1.46,1746.04,-8.16,10.13,13.11,270.4,0,0.3118,20,270.4,-3.113,-0.02,0.38,32.001,-0.001,-0.113,0,0,0,269.63,0,0,0,0,0,0,0,0,0,0,0,0,0,3,3,85.27,FLYING
85.69,APPROACH,ILS_TRACK,138.55,140,1.45,1742.04,-8.16,10.13,13.11,270.4,0,0.3117,20,270.4,-3.114,-0.02,0.38,31.924,0.001,-0.114,0,0,0,269.63,0,0,0,0,0,0,0,0,0,0,0,0,0,3,3,85.76,FLYING
86.11,APPROACH,ILS_TRACK,138.55,140,1.45,1738.61,-8.16,10.13,13.11,270.4,0,0.3116,20,270.4,-3.113,-0.02,0.38,31.859,0.002,-0.113,0,0,0,269.63,0,0,0,0,0,0,0,0,0,0,0,0,0,3,3,86.18,FLYING
86.53,APPROACH,ILS_TRACK,138.55,140,1.45,1735.19,-8.15,10.12,13.11,270.4,-0.001,0.3115,20,270.4,-3.113,-0.02,0.38,31.794,-0.001,-0.113,0,0,0,269.63,0,0,0,0,0,0,0,0,0,0,0,0,0,3,3,86.6,FLYING
87.02,APPROACH,ILS_TRACK,138.55,140,1.45,1731.19,-8.15,10.12,13.11,270.4,0,0.3114,20,270.4,-3.114,-0.02,0.38,31.717,0,-0.114,0,0,0,269.63,0,0,0,0,0,0,0,0,0,0,0,0,0,3,3,87.09,FLYING
87.44,APPROACH,ILS_TRACK,138.55,140,1.45,1727.77,-8.15,10.12,13.11,270.4,0.001,0.3114,20,270.4,-3.114,-0.02,0.38,31.652,0.002,-0.114,0,0,0,269.63,0,0,0,0,0,0,0,0,0,0,0,0,0,3,3,87.51,FLYING
87.86,APPROACH,ILS_TRACK,138.55,140,1.45,1724.34,-8.15,10.12,13.11,270.4,0.002,0.3113,20,270.4,-3.114,-0.02,0.38,31.587,0.001,-0.114,0,0,0,269.63,0,0,0,0,0,0,0,0,0,0,0,0,0,3,3,87.93,FLYING
88.35,APPROACH,ILS_TRACK,138.56,140,1.44,1720.35,-8.15,10.12,13.1,270.4,0.003,0.3113,20,270.4,-3.113,-0.01,0.38,31.511,-0.001,-0.113,0,0,0,269.63,0,0,0,0,0,0,0,0,0,0,0,0,0,3,3,88.42,FLYING
88.77,APPROACH,ILS_TRACK,138.56,140,1.44,1716.93,-8.15,10.12,13.1,270.4,0.003,0.3112,20,270.4,-3.113,-0.01,0.38,31.445,0.001,-0.113,0,0,0,269.63,0,0,0,0,0,0,0,0,0,0,0,0,0,3,3,88.84,FLYING
89.19,APPROACH,ILS_TRACK,138.56,140,1.44,1713.51,-8.14,10.12,13.1,270.4,0.004,0.3111,20,270.4,-3.114,-0.02,0.38,31.38,0.002,-0.114,0,0,0,269.63,0,0,0,0,0,0,0,0,0,0,0,0,0,3,3,89.26,FLYING
89.68,APPROACH,ILS_TRACK,138.56,140,1.44,1709.52,-8.14,10.11,13.1,270.4,0.005,0.311,20,270.4,-3.114,-0.01,0.38,31.304,-0.001,-0.114,0,0,0,269.63,0,0,0,0,0,0,0,0,0,0,0,0,0,3,3,89.75,FLYING
90.1,APPROACH,ILS_TRACK,138.56,140,1.44,1706.1,-8.14,10.11,13.1,270.4,0.005,0.311,20,270.4,-3.114,-0.01,0.38,31.239,0.001,-0.114,0,0,0,269.63,0,0,0,0,0,0,0,0,0,0,0,0,0,3,3,90.17,FLYING
90.52,APPROACH,ILS_TRACK,138.56,140,1.44,1702.68,-8.14,10.11,13.1,270.4,0.005,0.3109,20,270.4,-3.114,-0.01,0.38,31.173,0,-0.114,0,0,0,269.63,0,0,0,0,0,0,0,0,0,0,0,0,0,3,3,90.59,FLYING
91.01,APPROACH,ILS_TRACK,138.57,140,1.43,1698.69,-8.14,10.11,13.1,270.4,0.004,0.3108,20,270.4,-3.114,-0.01,0.38,31.097,0,-0.114,0,0,0,269.63,0,0,0,0,0,0,0,0,0,0,0,0,0,3,3,91.08,FLYING
91.43,APPROACH,ILS_TRACK,138.57,140,1.43,1695.27,-8.14,10.11,13.1,270.4,0.006,0.3107,20,270.4,-3.114,-0.01,0.38,31.032,0,-0.114,0,0,0,269.63,0,0,0,0,0,0,0,0,0,0,0,0,0,3,3,91.5,FLYING
91.85,APPROACH,ILS_TRACK,138.57,140,1.43,1691.85,-8.14,10.11,13.09,270.4,0.004,0.3106,20,270.4,-3.114,-0.01,0.38,30.967,0.001,-0.114,0,0,0,269.63,0,0,0,0,0,0,0,0,0,0,0,0,0,3,3,91.92,FLYING
92.34,APPROACH,ILS_TRACK,138.57,140,1.43,1687.86,-8.13,10.11,13.09,270.4,0.005,0.3105,20,270.4,-3.114,-0.01,0.38,30.891,0,-0.114,0,0,0,269.63,0,0,0,0,0,0,0,0,0,0,0,0,0,3,3,92.41,FLYING
92.76,APPROACH,ILS_TRACK,138.57,140,1.43,1684.45,-8.13,10.1,13.09,270.4,0.006,0.3105,20,270.4,-3.113,-0.01,0.38,30.825,0,-0.113,0,0,0,269.63,0,0,0,0,0,0,0,0,0,0,0,0,0,3,3,92.83,FLYING
93.18,APPROACH,ILS_TRACK,138.57,140,1.43,1681.03,-8.13,10.1,13.09,270.4,0.006,0.3104,20,270.4,-3.114,-0.01,0.38,30.76,0.001,-0.114,0,0,0,269.63,0,0,0,0,0,0,0,0,0,0,0,0,0,3,3,93.25,FLYING
93.67,APPROACH,ILS_TRACK,138.58,140,1.42,1677.05,-8.13,10.1,13.09,270.4,0.005,0.3103,20,270.4,-3.114,-0.01,0.38,30.684,0.001,-0.114,0,0,0,269.63,0,0,0,0,0,0,0,0,0,0,0,0,0,3,3,93.74,FLYING
94.09,APPROACH,ILS_TRACK,138.58,140,1.42,1673.63,-8.13,10.1,13.09,270.4,0.003,0.3102,20,270.4,-3.114,-0.01,0.38,30.619,0.001,-0.114,0,0,0,269.63,0,0,0,0,0,0,0,0,0,0,0,0,0,3,3,94.16,FLYING
94.51,APPROACH,ILS_TRACK,138.58,140,1.42,1670.22,-8.13,10.1,13.09,270.4,0.003,0.3101,20,270.4,-3.114,-0.01,0.38,30.554,-0.001,-0.114,0,0,0,269.63,0,0,0,0,0,0,0,0,0,0,0,0,0,3,3,94.58,FLYING
95,APPROACH,ILS_TRACK,138.58,140,1.42,1666.24,-8.12,10.1,13.08,270.4,0.004,0.3101,20,270.4,-3.114,-0.01,0.38,30.478,0.002,-0.114,0,0,0,269.63,0,0,0,0,0,0,0,0,0,0,0,0,0,3,3,95.07,FLYING
95.42,APPROACH,ILS_TRACK,138.58,140,1.42,1662.82,-8.12,10.1,13.08,270.4,0.002,0.31,20,270.4,-3.114,-0.01,0.38,30.413,0.001,-0.114,0,0,0,269.63,0,0,0,0,0,0,0,0,0,0,0,0,0,3,3,95.49,FLYING
95.84,APPROACH,ILS_TRACK,138.58,140,1.42,1659.41,-8.12,10.1,13.08,270.4,0.005,0.3099,20,270.4,-3.114,-0.01,0.38,30.348,-0.002,-0.114,0,0,0,269.63,0,0,0,0,0,0,0,0,0,0,0,0,0,3,3,95.91,FLYING
96.33,APPROACH,ILS_TRACK,138.59,140,1.41,1655.43,-8.12,10.09,13.08,270.4,0.004,0.3098,20,270.4,-3.114,-0.01,0.38,30.272,0.002,-0.114,0,0,0,269.63,0,0,0,0,0,0,0,0,0,0,0,0,0,3,3,96.4,FLYING
96.75,APPROACH,ILS_TRACK,138.59,140,1.41,1652.02,-8.12,10.09,13.08,270.4,0.004,0.3098,20,270.4,-3.114,-0.01,0.38,30.207,0.001,-0.114,0,0,0,269.63,0,0,0,0,0,0,0,0,0,0,0,0,0,3,3,96.82,FLYING
97.17,APPROACH,ILS_TRACK,138.59,140,1.41,1648.61,-8.12,10.09,13.08,270.4,0.003,0.3097,20,270.4,-3.114,-0.01,0.38,30.142,0.001,-0.114,0,0,0,269.63,0,0,0,0,0,0,0,0,0,0,0,0,0,3,3,97.24,FLYING
97.66,APPROACH,ILS_TRACK,138.59,140,1.41,1644.63,-8.11,10.09,13.08,270.4,0.003,0.3096,20,270.4,-3.114,-0.01,0.38,30.066,0.001,-0.114,0,0,0,269.63,0,0,0,0,0,0,0,0,0,0,0,0,0,3,3,97.73,FLYING
98.08,APPROACH,ILS_TRACK,138.59,140,1.41,1641.22,-8.11,10.09,13.08,270.4,0.004,0.3095,20,270.4,-3.114,-0.02,0.38,30.001,0.001,-0.114,0,0,0,269.63,0,0,0,0,0,0,0,0,0,0,0,0,0,3,3,98.15,FLYING
98.5,APPROACH,ILS_TRACK,138.59,140,1.41,1637.81,-8.11,10.09,13.07,270.4,0.003,0.3095,20,270.4,-3.114,-0.02,0.38,29.936,0.001,-0.114,0,0,0,269.63,0,0,0,0,0,0,0,0,0,0,0,0,0,3,3,98.57,FLYING
98.99,APPROACH,ILS_TRACK,138.59,140,1.41,1633.84,-8.11,10.09,13.07,270.4,0.002,0.3094,20,270.4,-3.114,-0.02,0.38,29.86,0.001,-0.114,0,0,0,269.63,0,0,0,0,0,0,0,0,0,0,0,0,0,3,3,99.06,FLYING
99.41,APPROACH,ILS_TRACK,138.6,140,1.4,1630.43,-8.11,10.08,13.07,270.4,0.002,0.3093,20,270.4,-3.114,-0.02,0.38,29.795,0.001,-0.114,0,0,0,269.63,0,0,0,0,0,0,0,0,0,0,0,0,0,3,3,99.48,FLYING
99.83,APPROACH,ILS_TRACK,138.6,140,1.4,1627.02,-8.11,10.08,13.07,270.4,0.003,0.3092,20,270.4,-3.115,-0.02,0.38,29.73,0.001,-0.115,0,0,0,269.63,0,0,0,0,0,0,0,0,0,0,0,0,0,3,3,99.9,FLYING
100.32,APPROACH,ILS_TRACK,138.6,140,1.4,1623.05,-8.11,10.08,13.07,270.4,0.002,0.3091,20,270.4,-3.114,-0.02,0.38,29.654,0,-0.114,0,0,0,269.63,0,0,0,0,0,0,0,0,0,0,0,0,0,3,3,100.39,FLYING
100.74,APPROACH,ILS_TRACK,138.6,140,1.4,1619.65,-8.11,10.08,13.07,270.4,0.003,0.309,20,270.4,-3.114,-0.02,0.38,29.589,0.003,-0.114,0,0,0,269.63,0,0,0,0,0,0,0,0,0,0,0,0,0,3,3,100.81,FLYING
101.16,APPROACH,ILS_TRACK,138.6,140,1.4,1616.24,-8.1,10.08,13.07,270.4,0.003,0.309,20,270.4,-3.114,-0.02,0.38,29.524,0.001,-0.114,0,0,0,269.63,0,0,0,0,0,0,0,0,0,0,0,0,0,3,3,101.23,FLYING
101.65,APPROACH,ILS_TRACK,138.6,140,1.4,1612.27,-8.1,10.08,13.06,270.4,0.004,0.3089,20,270.4,-3.114,-0.02,0.38,29.448,0.002,-0.114,0,0,0,269.63,0,0,0,0,0,0,0,0,0,0,0,0,0,3,3,101.72,FLYING
102.07,APPROACH,ILS_TRACK,138.61,140,1.39,1608.87,-8.1,10.08,13.06,270.4,0.003,0.3088,20,270.4,-3.114,-0.02,0.38,29.383,0,-0.114,0,0,0,269.63,0,0,0,0,0,0,0,0,0,0,0,0,0,3,3,102.14,FLYING
102.49,APPROACH,ILS_TRACK,138.61,140,1.39,1605.46,-8.1,10.08,13.06,270.4,0.004,0.3088,20,270.4,-3.114,-0.02,0.38,29.318,0.002,-0.114,0,0,0,269.63,0,0,0,0,0,0,0,0,0,0,0,0,0,3,3,102.56,FLYING
102.98,APPROACH,ILS_TRACK,138.61,140,1.39,1601.5,-8.1,10.07,13.06,270.4,0.003,0.3087,20,270.4,-3.114,-0.02,0.38,29.242,0.002,-0.114,0,0,0,269.63,0,0,0,0,0,0,0,0,0,0,0,0,0,3,3,103.05,FLYING
103.4,APPROACH,ILS_TRACK,138.61,140,1.39,1598.09,-8.1,10.07,13.06,270.4,0.002,0.3086,20,270.4,-3.114,-0.02,0.38,29.178,-0.001,-0.114,0,0,0,269.63,0,0,0,0,0,0,0,0,0,0,0,0,0,3,3,103.47,FLYING
103.82,APPROACH,ILS_TRACK,138.61,140,1.39,1594.69,-8.09,10.07,13.06,270.4,0.002,0.3085,20,270.4,-3.114,-0.02,0.38,29.113,0.002,-0.114,0,0,0,269.63,0,0,0,0,0,0,0,0,0,0,0,0,0,3,3,103.89,FLYING
104.31,APPROACH,ILS_TRACK,138.61,140,1.39,1590.73,-8.09,10.07,13.06,270.4,0.001,0.3085,20,270.4,-3.115,-0.03,0.38,29.037,0.003,-0.115,0,0,0,269.63,0,0,0,0,0,0,0,0,0,0,0,0,0,3,3,104.38,FLYING
104.73,APPROACH,ILS_TRACK,138.62,140,1.38,1587.33,-8.09,10.07,13.06,270.4,0,0.3084,20,270.4,-3.114,-0.03,0.38,28.972,0.001,-0.114,0,0,0,269.63,0,0,0,0,0,0,0,0,0,0,0,0,0,3,3,104.8,FLYING
105.15,APPROACH,ILS_TRACK,138.62,140,1.38,1583.93,-8.09,10.07,13.05,270.4,0,0.3083,20,270.4,-3.115,-0.03,0.38,28.907,0,-0.115,0,0,0,269.63,0,0,0,0,0,0,0,0,0,0,0,0,0,3,3,105.22,FLYING
105.64,APPROACH,ILS_TRACK,138.62,140,1.38,1579.96,-8.09,10.07,13.05,270.4,0,0.3082,20,270.4,-3.115,-0.03,0.38,28.832,0.002,-0.115,0,0,0,269.63,0,0,0,0,0,0,0,0,0,0,0,0,0,3,3,105.71,FLYING
106.06,APPROACH,ILS_TRACK,138.62,140,1.38,1576.57,-8.09,10.06,13.05,270.4,0,0.3081,20,270.4,-3.114,-0.03,0.38,28.767,0.002,-0.114,0,0,0,269.63,0,0,0,0,0,0,0,0,0,0,0,0,0,3,3,106.13,FLYING
106.48,APPROACH,ILS_TRACK,138.62,140,1.38,1573.17,-8.09,10.06,13.05,270.4,-0.001,0.308,20,270.4,-3.115,-0.03,0.38,28.702,0.001,-0.115,0,0,0,269.63,0,0,0,0,0,0,0,0,0,0,0,0,0,3,3,106.55,FLYING
106.97,APPROACH,ILS_TRACK,138.62,140,1.38,1569.21,-8.08,10.06,13.05,270.4,0,0.3079,20,270.4,-3.114,-0.02,0.38,28.626,-0.001,-0.114,0,0,0,269.63,0,0,0,0,0,0,0,0,0,0,0,0,0,3,3,107.04,FLYING
107.39,APPROACH,ILS_TRACK,138.62,140,1.38,1565.81,-8.08,10.06,13.05,270.4,0.001,0.3079,20,270.4,-3.115,-0.03,0.38,28.562,0.003,-0.115,0,0,0,269.63,0,0,0,0,0,0,0,0,0,0,0,0,0,3,3,107.46,FLYING
107.81,APPROACH,ILS_TRACK,138.63,140,1.37,1562.42,-8.08,10.06,13.05,270.4,0,0.3078,20,270.4,-3.114,-0.03,0.38,28.497,0.001,-0.114,0,0,0,269.63,0,0,0,0,0,0,0,0,0,0,0,0,0,3,3,107.88,FLYING
108.3,APPROACH,ILS_TRACK,138.63,140,1.37,1558.46,-8.08,10.06,13.05,270.4,0.001,0.3077,20,270.4,-3.114,-0.03,0.38,28.421,0.001,-0.114,0,0,0,269.63,0,0,0,0,0,0,0,0,0,0,0,0,0,3,3,108.37,FLYING
108.72,APPROACH,ILS_TRACK,138.63,140,1.37,1555.06,-8.08,10.06,13.04,270.4,0,0.3076,20,270.4,-3.114,-0.03,0.38,28.356,0.001,-0.114,0,0,0,269.63,0,0,0,0,0,0,0,0,0,0,0,0,0,3,3,108.79,FLYING
109.14,APPROACH,ILS_TRACK,138.63,140,1.37,1551.67,-8.08,10.06,13.04,270.4,-0.001,0.3076,20,270.4,-3.114,-0.03,0.38,28.292,0.002,-0.114,0,0,0,269.63,0,0,0,0,0,0,0,0,0,0,0,0,0,3,3,109.21,FLYING
109.63,APPROACH,ILS_TRACK,138.63,140,1.37,1547.71,-8.07,10.05,13.04,270.4,0,0.3075,20,270.4,-3.114,-0.03,0.38,28.216,0.001,-0.114,0,0,0,269.63,0,0,0,0,0,0,0,0,0,0,0,0,0,3,3,109.7,FLYING
110.05,APPROACH,ILS_TRACK,138.63,140,1.37,1544.32,-8.07,10.05,13.04,270.4,-0.002,0.3074,20,270.4,-3.114,-0.03,0.38,28.151,0.002,-0.114,0,0,0,269.63,0,0,0,0,0,0,0,0,0,0,0,0,0,3,3,110.12,FLYING
110.47,APPROACH,ILS_TRACK,138.64,140,1.36,1540.93,-8.07,10.05,13.04,270.4,-0.001,0.3074,20,270.4,-3.114,-0.03,0.38,28.087,-0.001,-0.114,0,0,0,269.63,0,0,0,0,0,0,0,0,0,0,0,0,0,3,3,110.54,FLYING
110.96,APPROACH,ILS_TRACK,138.64,140,1.36,1536.97,-8.07,10.05,13.04,270.4,-0.002,0.3073,20,270.4,-3.115,-0.03,0.38,28.011,0.002,-0.115,0,0,0,269.63,0,0,0,0,0,0,0,0,0,0,0,0,0,3,3,111.03,FLYING
111.38,APPROACH,ILS_TRACK,138.64,140,1.36,1533.58,-8.07,10.05,13.04,270.4,0,0.3072,20,270.4,-3.114,-0.02,0.38,27.946,-0.001,-0.114,0,0,0,269.63,0,0,0,0,0,0,0,0,0,0,0,0,0,3,3,111.45,FLYING
111.8,APPROACH,ILS_TRACK,138.64,140,1.36,1530.19,-8.07,10.05,13.04,270.4,0,0.3071,20,270.4,-3.115,-0.03,0.38,27.882,0.002,-0.115,0,0,0,269.63,0,0,0,0,0,0,0,0,0,0,0,0,0,3,3,111.87,FLYING
112.29,APPROACH,ILS_TRACK,138.64,140,1.36,1526.24,-8.06,10.05,13.03,270.4,0.001,0.307,20,270.4,-3.114,-0.03,0.38,27.806,0.001,-0.114,0,0,0,269.63,0,0,0,0,0,0,0,0,0,0,0,0,0,3,3,112.36,FLYING
112.71,APPROACH,ILS_TRACK,138.64,140,1.36,1522.85,-8.06,10.04,13.03,270.4,0.001,0.307,20,270.4,-3.114,-0.03,0.38,27.742,0.001,-0.114,0,0,0,269.63,0,0,0,0,0,0,0,0,0,0,0,0,0,3,3,112.78,FLYING
113.13,APPROACH,ILS_TRACK,138.64,140,1.36,1519.46,-8.06,10.04,13.03,270.4,0.003,0.3069,20,270.4,-3.114,-0.02,0.38,27.677,-0.001,-0.114,0,0,0,269.63,0,0,0,0,0,0,0,0,0,0,0,0,0,3,3,113.2,FLYING
113.62,APPROACH,ILS_TRACK,138.65,140,1.35,1515.51,-8.06,10.04,13.03,270.4,0.004,0.3068,20,270.4,-3.115,-0.02,0.38,27.602,0.001,-0.115,0,0,0,269.63,0,0,0,0,0,0,0,0,0,0,0,0,0,3,3,113.69,FLYING
114.04,APPROACH,ILS_TRACK,138.65,140,1.35,1512.13,-8.06,10.04,13.03,270.4,0.004,0.3067,20,270.4,-3.114,-0.02,0.38,27.537,0.001,-0.114,0,0,0,269.63,0,0,0,0,0,0,0,0,0,0,0,0,0,3,3,114.11,FLYING
114.46,APPROACH,ILS_TRACK,138.65,140,1.35,1508.74,-8.06,10.04,13.03,270.4,0.006,0.3066,20,270.4,-3.115,-0.02,0.38,27.472,0.001,-0.115,0,0,0,269.63,0,0,0,0,0,0,0,0,0,0,0,0,0,3,3,114.53,FLYING
114.95,APPROACH,ILS_TRACK,138.65,140,1.35,1504.79,-8.06,10.04,13.03,270.4,0.006,0.3065,20,270.4,-3.115,-0.02,0.38,27.397,-0.001,-0.115,0,0,0,269.63,0,0,0,0,0,0,0,0,0,0,0,0,0,3,3,115.02,FLYING
115.37,APPROACH,ILS_TRACK,138.65,140,1.35,1501.41,-8.06,10.04,13.02,270.4,0.005,0.3065,20,270.4,-3.115,-0.02,0.38,27.332,0.001,-0.115,0,0,0,269.63,0,0,0,0,0,0,0,0,0,0,0,0,0,3,3,115.44,FLYING
115.79,APPROACH,ILS_TRACK,138.65,140,1.35,1498.02,-8.05,10.03,13.02,270.4,0.005,0.3064,20,270.4,-3.114,-0.02,0.38,27.268,0.001,-0.114,0,0,0,269.63,0,0,0,0,0,0,0,0,0,0,0,0,0,3,3,115.86,FLYING
116.28,APPROACH,ILS_TRACK,138.66,140,1.34,1494.08,-8.05,10.03,13.02,270.4,0.003,0.3063,20,270.4,-3.115,-0.02,0.38,27.193,0,-0.115,0,0,0,269.63,0,0,0,0,0,0,0,0,0,0,0,0,0,3,3,116.35,FLYING
116.7,APPROACH,ILS_TRACK,138.66,140,1.34,1490.69,-8.05,10.03,13.02,270.4,0.004,0.3062,20,270.4,-3.114,-0.02,0.38,27.128,0,-0.114,0,0,0,269.63,0,0,0,0,0,0,0,0,0,0,0,0,0,3,3,116.77,FLYING
117.12,APPROACH,ILS_TRACK,138.66,140,1.34,1487.31,-8.05,10.03,13.02,270.4,0.004,0.3062,20,270.4,-3.115,-0.02,0.38,27.064,0.001,-0.115,0,0,0,269.63,0,0,0,0,0,0,0,0,0,0,0,0,0,3,3,117.19,FLYING
117.61,APPROACH,ILS_TRACK,138.66,140,1.34,1483.37,-8.05,10.03,13.02,270.4,0.003,0.3061,20,270.4,-3.114,-0.02,0.38,26.988,0.001,-0.114,0,0,0,269.63,0,0,0,0,0,0,0,0,0,0,0,0,0,3,3,117.68,FLYING
118.03,APPROACH,ILS_TRACK,138.66,140,1.34,1479.99,-8.05,10.03,13.02,270.4,0.002,0.306,20,270.4,-3.114,-0.02,0.38,26.924,0,-0.114,0,0,0,269.63,0,0,0,0,0,0,0,0,0,0,0,0,0,3,3,118.1,FLYING
118.45,APPROACH,ILS_TRACK,138.66,140,1.34,1476.61,-8.05,10.03,13.02,270.4,0.002,0.3059,20,270.4,-3.114,-0.02,0.38,26.859,0,-0.114,0,0,0,269.63,0,0,0,0,0,0,0,0,0,0,0,0,0,3,3,118.52,FLYING
118.94,APPROACH,ILS_TRACK,138.67,140,1.33,1472.66,-8.04,10.03,13.01,270.4,0.002,0.3058,20,270.4,-3.115,-0.02,0.38,26.784,0.001,-0.115,0,0,0,269.63,0,0,0,0,0,0,0,0,0,0,0,0,0,3,3,119.01,FLYING
119.36,APPROACH,ILS_TRACK,138.67,140,1.33,1469.28,-8.04,10.03,13.01,270.4,0.004,0.3058,20,270.4,-3.114,-0.01,0.38,26.72,-0.001,-0.114,0,0,0,269.63,0,0,0,0,0,0,0,0,0,0,0,0,0,3,3,119.43,FLYING
119.78,APPROACH,ILS_TRACK,138.67,140,1.33,1465.91,-8.04,10.02,13.01,270.4,0.003,0.3057,20,270.4,-3.115,-0.01,0.38,26.655,0.001,-0.115,0,0,0,269.63,0,0,0,0,0,0,0,0,0,0,0,0,0,3,3,119.85,FLYING
120.27,APPROACH,ILS_TRACK,138.67,140,1.33,1461.97,-8.04,10.02,13.01,270.4,0.003,0.3056,20,270.4,-3.115,-0.01,0.38,26.58,0,-0.115,0,0,0,269.63,0,0,0,0,0,0,0,0,0,0,0,0,0,3,3,120.34,FLYING
120.69,APPROACH,ILS_TRACK,138.67,140,1.33,1458.59,-8.04,10.02,13.01,270.4,0.003,0.3056,20,270.4,-3.115,-0.01,0.38,26.515,0.002,-0.115,0,0,0,269.63,0,0,0,0,0,0,0,0,0,0,0,0,0,3,3,120.76,FLYING
121.11,APPROACH,ILS_TRACK,138.67,140,1.33,1455.21,-8.04,10.02,13.01,270.4,0.002,0.3055,20,270.4,-3.115,-0.01,0.38,26.451,0,-0.115,0,0,0,269.63,0,0,0,0,0,0,0,0,0,0,0,0,0,3,3,121.18,FLYING
121.6,APPROACH,ILS_TRACK,138.68,140,1.32,1451.27,-8.03,10.02,13.01,270.4,0.001,0.3054,20,270.4,-3.115,-0.01,0.38,26.376,0.001,-0.115,0,0,0,269.63,0,0,0,0,0,0,0,0,0,0,0,0,0,3,3,121.67,FLYING
122.02,APPROACH,ILS_TRACK,138.68,140,1.32,1447.9,-8.03,10.02,13.01,270.4,0.003,0.3053,20,270.4,-3.115,-0.01,0.38,26.311,-0.001,-0.115,0,0,0,269.63,0,0,0,0,0,0,0,0,0,0,0,0,0,3,3,122.09,FLYING
122.44,APPROACH,ILS_TRACK,138.68,140,1.32,1444.53,-8.03,10.02,13,270.4,0.003,0.3052,20,270.4,-3.115,-0.01,0.38,26.247,0,-0.115,0,0,0,269.63,0,0,0,0,0,0,0,0,0,0,0,0,0,3,3,122.51,FLYING
122.93,APPROACH,ILS_TRACK,138.68,140,1.32,1440.59,-8.03,10.01,13,270.4,0.002,0.3051,20,270.4,-3.115,-0.01,0.38,26.172,0.001,-0.115,0,0,0,269.63,0,0,0,0,0,0,0,0,0,0,0,0,0,3,3,123,FLYING
123.35,APPROACH,ILS_TRACK,138.68,140,1.32,1437.22,-8.03,10.01,13,270.4,0.005,0.3051,20,270.4,-3.114,-0.01,0.38,26.108,-0.001,-0.114,0,0,0,269.63,0,0,0,0,0,0,0,0,0,0,0,0,0,3,3,123.42,FLYING
123.77,APPROACH,ILS_TRACK,138.68,140,1.32,1433.84,-8.03,10.01,13,270.4,0.005,0.305,20,270.4,-3.115,-0.01,0.38,26.043,0,-0.115,0,0,0,269.63,0,0,0,0,0,0,0,0,0,0,0,0,0,3,3,123.84,FLYING
124.26,APPROACH,ILS_TRACK,138.68,140,1.32,1429.91,-8.03,10.01,13,270.4,0.005,0.3049,20,270.4,-3.115,-0.01,0.38,25.968,0.001,-0.115,0,0,0,269.63,0,0,0,0,0,0,0,0,0,0,0,0,0,3,3,124.33,FLYING
124.68,APPROACH,ILS_TRACK,138.69,140,1.31,1426.54,-8.02,10.01,13,270.4,0.005,0.3048,20,270.4,-3.115,-0.01,0.38,25.904,0,-0.115,0,0,0,269.63,0,0,0,0,0,0,0,0,0,0,0,0,0,3,3,124.75,FLYING
125.1,APPROACH,ILS_TRACK,138.69,140,1.31,1423.17,-8.02,10.01,13,270.4,0.006,0.3047,20,270.4,-3.114,-0.01,0.38,25.839,0.001,-0.114,0,0,0,269.63,0,0,0,0,0,0,0,0,0,0,0,0,0,3,3,125.17,FLYING
125.59,APPROACH,ILS_TRACK,138.69,140,1.31,1419.24,-8.02,10.01,12.99,270.4,0.004,0.3046,20,270.4,-3.115,-0.01,0.38,25.764,0,-0.115,0,0,0,269.63,0,0,0,0,0,0,0,0,0,0,0,0,0,3,3,125.66,FLYING
126.01,APPROACH,ILS_TRACK,138.69,140,1.31,1415.87,-8.02,10,12.99,270.4,0.003,0.3046,20,270.4,-3.115,-0.01,0.38,25.7,0.001,-0.115,0,0,0,269.63,0,0,0,0,0,0,0,0,0,0,0,0,0,3,3,126.08,FLYING
126.43,APPROACH,ILS_TRACK,138.69,140,1.31,1412.5,-8.02,10,12.99,270.4,0.003,0.3045,20,270.4,-3.115,-0.01,0.38,25.636,0.001,-0.115,0,0,0,269.63,0,0,0,0,0,0,0,0,0,0,0,0,0,3,3,126.5,FLYING
126.92,APPROACH,ILS_TRACK,138.69,140,1.31,1408.57,-8.02,10,12.99,270.4,0.003,0.3044,20,270.4,-3.115,-0.01,0.38,25.561,-0.001,-0.115,0,0,0,269.63,0,0,0,0,0,0,0,0,0,0,0,0,0,3,3,126.99,FLYING
127.34,APPROACH,ILS_TRACK,138.7,140,1.3,1405.2,-8.02,10,12.99,270.4,0.003,0.3044,20,270.4,-3.115,-0.01,0.38,25.497,0,-0.115,0,0,0,269.63,0,0,0,0,0,0,0,0,0,0,0,0,0,3,3,127.41,FLYING
127.76,APPROACH,ILS_TRACK,138.7,140,1.3,1401.83,-8.01,10,12.99,270.4,0.003,0.3043,20,270.4,-3.115,-0.01,0.38,25.432,0.002,-0.115,0,0,0,269.63,0,0,0,0,0,0,0,0,0,0,0,0,0,3,3,127.83,FLYING
128.25,APPROACH,ILS_TRACK,138.7,140,1.3,1397.91,-8.01,10,12.99,270.4,0.001,0.3042,20,270.4,-3.115,-0.01,0.38,25.357,0,-0.115,0,0,0,269.63,0,0,0,0,0,0,0,0,0,0,0,0,0,3,3,128.32,FLYING
128.67,APPROACH,ILS_TRACK,138.7,140,1.3,1394.54,-8.01,10,12.99,270.4,0.001,0.3041,20,270.4,-3.115,-0.01,0.38,25.293,-0.001,-0.115,0,0,0,269.63,0,0,0,0,0,0,0,0,0,0,0,0,0,3,3,128.74,FLYING
129.09,APPROACH,ILS_TRACK,138.7,140,1.3,1391.18,-8.01,10,12.98,270.4,0.001,0.304,20,270.4,-3.115,-0.01,0.38,25.229,0.002,-0.115,0,0,0,269.63,0,0,0,0,0,0,0,0,0,0,0,0,0,3,3,129.16,FLYING
129.58,APPROACH,ILS_TRACK,138.7,140,1.3,1387.25,-8.01,9.99,12.98,270.4,0,0.3039,20,270.4,-3.115,-0.01,0.38,25.154,0,-0.115,0,0,0,269.63,0,0,0,0,0,0,0,0,0,0,0,0,0,3,3,129.65,FLYING
130,APPROACH,ILS_TRACK,138.7,140,1.3,1383.89,-8.01,9.99,12.98,270.4,0.001,0.3039,20,270.4,-3.115,-0.01,0.38,25.09,0,-0.115,0,0,0,269.63,0,0,0,0,0,0,0,0,0,0,0,0,0,3,3,130.07,FLYING
130.42,APPROACH,ILS_TRACK,138.71,140,1.29,1380.52,-8.01,9.99,12.98,270.4,0.001,0.3038,20,270.4,-3.115,-0.01,0.38,25.026,0.001,-0.115,0,0,0,269.63,0,0,0,0,0,0,0,0,0,0,0,0,0,3,3,130.49,FLYING
130.91,APPROACH,ILS_TRACK,138.71,140,1.29,1376.6,-8,9.99,12.98,270.4,0.001,0.3037,20,270.4,-3.115,-0.01,0.38,24.951,0.001,-0.115,0,0,0,269.63,0,0,0,0,0,0,0,0,0,0,0,0,0,3,3,130.98,FLYING
131.33,APPROACH,ILS_TRACK,138.71,140,1.29,1373.24,-8,9.99,12.98,270.4,0.002,0.3037,20,270.4,-3.115,-0.01,0.38,24.887,-0.001,-0.115,0,0,0,269.63,0,0,0,0,0,0,0,0,0,0,0,0,0,3,3,131.4,FLYING
131.75,APPROACH,ILS_TRACK,138.71,140,1.29,1369.88,-8,9.99,12.98,270.4,0.002,0.3036,20,270.4,-3.115,-0.01,0.38,24.823,0.001,-0.115,0,0,0,269.63,0,0,0,0,0,0,0,0,0,0,0,0,0,3,3,131.82,FLYING
132.24,APPROACH,ILS_TRACK,138.71,140,1.29,1365.96,-8,9.99,12.98,270.4,0.002,0.3035,20,270.4,-3.115,-0.01,0.38,24.748,0,-0.115,0,0,0,269.63,0,0,0,0,0,0,0,0,0,0,0,0,0,3,3,132.31,FLYING
132.66,APPROACH,ILS_TRACK,138.71,140,1.29,1362.6,-8,9.99,12.97,270.4,0.002,0.3034,20,270.4,-3.115,-0.01,0.38,24.684,0,-0.115,0,0,0,269.63,0,0,0,0,0,0,0,0,0,0,0,0,0,3,3,132.73,FLYING
133.08,APPROACH,ILS_TRACK,138.72,140,1.28,1359.24,-8,9.98,12.97,270.4,0.002,0.3033,20,270.4,-3.115,-0.01,0.38,24.62,0,-0.115,0,0,0,269.63,0,0,0,0,0,0,0,0,0,0,0,0,0,3,3,133.15,FLYING
