t_s,phase,subphase,ias_ms,vapp_ms,spd_err_ms,agl_m,vs_ms,pitch_deg,aoa_deg,hdg_deg,bank_deg,thr_cmd,thr_intg,aa_hdg_cmd_deg,aa_fpa_cmd_deg,ils_loc_m,ils_gs_m,ils_dist_km,loc_corr_deg,gs_corr_deg,flare_fpa_cmd,flare_tgt_vs,flare_frac,steer_hdg_deg,steer_blend,ro_loc_corr_deg,ro_hdg_err_deg,ro_yaw_tgt,ro_yaw_scale,ro_yaw_gate,yaw_cmd,roll_cmd,pitch_cmd,ro_pitch_tgt_deg,ro_pitch_err_deg,ro_pitch_ff,ro_roll_assist,flaps_cur,flaps_tgt,phase_el_s,status
0.26,APPROACH,FLY_TO_FIX,198.82,140.16,-58.66,2466.67,-24.75,-3.06,3.16,269.5,-2.245,0.04,-5.862,13.56,-4.844,0,0,0,0,0,0,0,0,269.54,0,0,0,0,0,0,0,0,0,0,0,0,0,0,3,0.3,FLYING
0.54,APPROACH,ILS_TRACK,199.38,140.58,-58.81,2458.9,-26.81,-4.91,1.87,269.7,-3.996,0,-20,109.08,-6,0,0,0,0,0,0,0,0,269.54,0,0,0,0,0,0,0,0,0,0,0,0,0,1,3,0.56,FLYING
0.8,APPROACH,ILS_TRACK,199.93,141.02,-58.9,2451.55,-28.88,-5.24,1.95,269.81,-6.989,0,-20,245.4,0,32,-30.78,46.084,-29.852,97.169,0,0,0,269.54,0,0,0,0,0,0,0,0,0,0,0,0,0,1,3,0.84,FLYING
1.06,APPROACH,ILS_TRACK,200.38,141.44,-58.94,2443.44,-30.56,-4.35,3.24,270,-5.821,0,-20,270.07,0,31.05,-35.48,46.021,-0.331,25.127,0,0,0,269.54,0,0,0,0,0,0,0,0,0,0,0,0,0,2,3,1.1,FLYING
1.38,APPROACH,ILS_TRACK,200.9,141.95,-58.95,2434.25,-31.68,-3.81,4.07,269.83,0.221,0,-20,269.93,0,30.11,-40.93,45.953,-0.468,25.904,0,0,0,269.54,0,0,0,0,0,0,0,0,0,0,0,0,0,2,3,1.42,FLYING
1.64,APPROACH,ILS_TRACK,201.26,142.37,-58.9,2425.4,-32.65,-3.22,4.88,269.52,2.534,0,-20,270.03,0,29.27,-46.4,45.89,-0.366,30.754,0,0,0,269.54,0,0,0,0,0,0,0,0,0,0,0,0,0,3,3,1.68,FLYING
1.9,APPROACH,ILS_TRACK,201.54,141.95,-59.59,2417.68,-33.31,-2.52,5.71,269.38,1.906,0,-20,269.95,0,28.55,-51.24,45.835,-0.447,30.247,0,0,0,269.54,0,0,0,0,0,0,0,0,0,0,0,0,0,3,3,1.94,FLYING
2.16,APPROACH,ILS_TRACK,201.67,141.54,-60.13,2409.37,-33.79,-1.04,7.24,269.39,1.034,0,-20,270.08,0,27.73,-56.5,45.777,-0.316,33.153,0,0,0,269.54,0,0,0,0,0,0,0,0,0,0,0,0,0,3,3,2.2,FLYING
2.46,APPROACH,ILS_TRACK,201.59,141.06,-60.53,2400,-33.35,1.45,9.65,269.47,0.188,0,-20,270.16,0,26.73,-62.39,45.709,-0.24,34.405,0,0,0,269.54,0,0,0,0,0,0,0,0,0,0,0,0,0,3,3,2.5,FLYING
2.72,APPROACH,ILS_TRACK,201.28,140.64,-60.64,2391.95,-32.16,3.05,11.03,269.58,-0.339,0,-20,270.2,0,25.86,-67.38,45.65,-0.196,35.581,0,0,0,269.54,0,0,0,0,0,0,0,0,0,0,0,0,0,3,3,2.76,FLYING
2.98,APPROACH,ILS_TRACK,200.75,140.22,-60.53,2384.03,-30.75,3.91,11.61,269.68,-0.723,0,-20,270.22,0,25.01,-72.29,45.591,-0.181,36.776,0,0,0,269.54,0,0,0,0,0,0,0,0,0,0,0,0,0,3,3,3.02,FLYING
3.24,APPROACH,ILS_TRACK,200.11,140,-60.11,2376.36,-29.35,4.33,11.73,269.77,-1.002,0,-20,270.27,0,24.14,-77,45.533,-0.129,37.6,0,0,0,269.54,0,0,0,0,0,0,0,0,0,0,0,0,0,3,3,3.28,FLYING
3.54,APPROACH,ILS_TRACK,199.28,140,-59.28,2367.89,-27.88,4.67,11.73,269.85,-1.255,0,-20,270.26,0,23.19,-82.09,45.466,-0.135,38.215,0,0,0,269.54,0,0,0,0,0,0,0,0,0,0,0,0,0,3,3,3.58,FLYING
3.8,APPROACH,ILS_TRACK,198.51,140,-58.51,2360.92,-26.56,5.01,11.76,269.91,-1.404,0,-20,270.28,0,22.38,-86.14,45.407,-0.118,38.286,0,0,0,269.54,0,0,0,0,0,0,0,0,0,0,0,0,0,3,3,3.84,FLYING
4.06,APPROACH,ILS_TRACK,197.68,140,-57.68,2354.29,-25.24,5.31,11.76,269.96,-1.518,0,-20,270.28,0,21.6,-89.86,45.349,-0.118,38.421,0,0,0,269.54,0,0,0,0,0,0,0,0,0,0,0,0,0,3,3,4.1,FLYING
4.32,APPROACH,ILS_TRACK,196.8,140,-56.8,2348,-23.94,5.63,11.76,270.01,-1.597,0,-20,270.29,0,20.85,-93.26,45.292,-0.111,38.421,0,0,0,269.54,0,0,0,0,0,0,0,0,0,0,0,0,0,3,3,4.36,FLYING
4.62,APPROACH,ILS_TRACK,195.73,140,-55.73,2341.16,-22.45,5.98,11.76,270.06,-1.663,0,-20,270.29,0,20.02,-96.77,45.225,-0.108,38.395,0,0,0,269.54,0,0,0,0,0,0,0,0,0,0,0,0,0,3,3,4.66,FLYING
4.88,APPROACH,ILS_TRACK,194.76,140,-54.76,2335.59,-21.16,6.29,11.77,270.1,-1.7,0.0561,-20,270.28,0,19.34,-99.46,45.168,-0.115,38.13,0,0,0,269.54,0,0,0,0,0,0,0,0,0,0,0,0,0,3,3,4.92,FLYING
5.14,APPROACH,ILS_TRACK,193.75,140,-53.75,2330.36,-19.89,6.59,11.77,270.13,-1.717,0.1157,-20,270.28,0,18.68,-101.84,45.111,-0.115,37.866,0,0,0,269.54,0,0,0,0,0,0,0,0,0,0,0,0,0,3,3,5.18,FLYING
5.4,APPROACH,ILS_TRACK,192.72,140,-52.72,2325.45,-18.58,6.88,11.75,270.16,-1.721,0.1684,-20,270.26,0,18.07,-103.89,45.054,-0.137,37.474,0,0,0,269.54,0,0,0,0,0,0,0,0,0,0,0,0,0,3,3,5.44,FLYING
5.7,APPROACH,ILS_TRACK,191.51,140,-51.51,2320.2,-17.24,7.23,11.75,270.19,-1.706,0.2123,-20,270.27,0,17.39,-105.89,44.989,-0.135,37.1,0,0,0,269.54,0,0,0,0,0,0,0,0,0,0,0,0,0,3,3,5.74,FLYING
5.96,APPROACH,ILS_TRACK,190.46,140,-50.46,2315.98,-15.89,7.48,11.7,270.22,-1.687,0.249,-20,270.26,0,16.84,-107.26,44.933,-0.137,36.406,0,0,0,269.54,0,0,0,0,0,0,0,0,0,0,0,0,0,3,3,6,FLYING
6.22,APPROACH,ILS_TRACK,189.43,140.42,-49.01,2312.05,-14.76,7.62,11.54,270.24,-1.673,0.2746,-20,270.25,0,16.32,-108.39,44.877,-0.152,35.982,0,0,0,269.54,0,0,0,0,0,0,0,0,0,0,0,0,0,3,3,6.26,FLYING
6.48,APPROACH,ILS_TRACK,188.4,140.83,-47.57,2308.49,-13.68,8.05,11.68,270.26,-1.627,0.2788,-20,270.23,0,15.84,-109.18,44.822,-0.173,35.198,0,0,0,269.54,0,0,0,0,0,0,0,0,0,0,0,0,0,3,3,6.52,FLYING
6.78,APPROACH,ILS_TRACK,187.23,141.31,-45.92,2304.72,-12.19,8.36,11.65,270.28,-1.561,0.2957,-20,270.23,0,15.3,-109.71,44.758,-0.167,34.32,0,0,0,269.54,0,0,0,0,0,0,0,0,0,0,0,0,0,3,3,6.82,FLYING
7.04,APPROACH,ILS_TRACK,186.24,141.73,-44.51,2301.77,-11.11,8.59,11.58,270.3,-1.52,0.3052,-20,270.21,0,14.89,-109.9,44.703,-0.195,33.565,0,0,0,269.54,0,0,0,0,0,0,0,0,0,0,0,0,0,3,3,7.08,FLYING
7.3,APPROACH,ILS_TRACK,185.24,142.14,-43.1,2299.16,-9.99,9.05,11.75,270.31,-1.431,0.3124,-20,270.2,0,14.49,-109.77,44.648,-0.198,32.515,0,0,0,269.54,0,0,0,0,0,0,0,0,0,0,0,0,0,3,3,7.34,FLYING
7.56,APPROACH,ILS_TRACK,184.26,142.56,-41.7,2296.8,-8.75,9.25,11.64,270.32,-1.355,0.3161,-20,270.2,0,14.12,-109.36,44.593,-0.204,31.535,0,0,0,269.54,0,0,0,0,0,0,0,0,0,0,0,0,0,3,3,7.6,FLYING
7.86,APPROACH,ILS_TRACK,183.16,143.04,-40.12,2294.43,-7.45,9.45,11.51,270.32,-1.235,0.315,-20,270.17,0,13.73,-108.57,44.531,-0.226,30.483,0,0,0,269.54,0,0,0,0,0,0,0,0,0,0,0,0,0,3,3,7.9,FLYING
8.15,APPROACH,ILS_TRACK,182.2,143.46,-38.74,2292.4,-6.26,9.31,11.07,270.31,-1.056,0.3089,-20,270.17,0,13.4,-107.61,44.475,-0.226,29.36,0,0,0,269.54,0,0,0,0,0,0,0,0,0,0,0,0,0,3,3,8.21,FLYING
8.47,APPROACH,ILS_TRACK,181.21,143.93,-37.28,2290.54,-5.14,9.05,10.53,270.28,-0.875,0.2903,-20,270.17,0,13.05,-106.2,44.411,-0.227,28.032,0,0,0,269.54,0,0,0,0,0,0,0,0,0,0,0,0,0,3,3,8.53,FLYING
8.82,APPROACH,ILS_TRACK,180.25,144.45,-35.8,2288.79,-4.22,8.62,9.85,270.25,-0.681,0.2586,-20,270.16,0,12.71,-104.4,44.343,-0.24,26.858,0,0,0,269.54,0,0,0,0,0,0,0,0,0,0,0,0,0,3,3,8.89,FLYING
9.27,APPROACH,ILS_TRACK,179.13,145.14,-33.99,2287,-3.37,8.27,9.24,270.22,-0.436,0.2136,-20,270.15,0,12.28,-101.59,44.253,-0.247,25.267,0,0,0,269.54,0,0,0,0,0,0,0,0,0,0,0,0,0,3,3,9.34,FLYING
9.69,APPROACH,ILS_TRACK,178.22,145.78,-32.44,2285.72,-2.79,8.21,9.01,270.2,-0.259,0.1639,-20,270.16,0,11.91,-98.67,44.171,-0.239,23.708,0,0,0,269.54,0,0,0,0,0,0,0,0,0,0,0,0,0,3,3,9.76,FLYING
10.11,APPROACH,ILS_TRACK,177.31,146,-31.31,2284.69,-2.29,8.33,8.97,270.19,-0.149,0.1166,-20,270.16,0,11.54,-95.36,44.086,-0.242,22.26,0,0,0,269.54,0,0,0,0,0,0,0,0,0,0,0,0,0,3,3,10.18,FLYING
10.6,APPROACH,ILS_TRACK,176.25,146,-30.25,2283.71,-1.55,8.06,8.56,270.17,-0.07,0.0787,-20,270.17,0,11.12,-91.2,43.987,-0.229,20.582,0,0,0,269.54,0,0,0,0,0,0,0,0,0,0,0,0,0,3,3,10.67,FLYING
11.02,APPROACH,ILS_TRACK,175.36,146,-29.36,2283.02,-1.5,7.86,8.27,270.18,-0.067,0.0462,-20,270.18,0,10.77,-87.58,43.903,-0.222,19.38,0,0,0,269.54,0,0,0,0,0,0,0,0,0,0,0,0,0,3,3,11.09,FLYING
11.44,APPROACH,ILS_TRACK,174.42,146,-28.42,2282.5,-1.24,8.06,8.41,270.18,-0.072,0.0254,-20,270.19,0,10.42,-83.74,43.819,-0.212,17.804,0,0,0,269.54,0,0,0,0,0,0,0,0,0,0,0,0,0,3,3,11.51,FLYING
11.93,APPROACH,ILS_TRACK,173.26,146,-27.26,2281.96,-1.05,8.09,8.39,270.19,-0.091,0.0222,-20,270.21,0,10.02,-79.22,43.722,-0.194,16.379,0,0,0,269.54,0,0,0,0,0,0,0,0,0,0,0,0,0,3,3,12,FLYING
12.35,APPROACH,ILS_TRACK,172.18,146,-26.18,2281.59,-0.86,8.25,8.52,270.19,-0.118,0.0116,-20,270.21,0,9.68,-75.27,43.639,-0.188,15.071,0,0,0,269.54,0,0,0,0,0,0,0,0,0,0,0,0,0,3,3,12.42,FLYING
12.77,APPROACH,ILS_TRACK,171.06,146,-25.06,2281.21,-0.89,8.18,8.41,270.2,-0.134,0.0191,-20,270.22,0,9.35,-71.36,43.557,-0.176,13.954,0,0,0,269.54,0,0,0,0,0,0,0,0,0,0,0,0,0,3,3,12.84,FLYING
13.26,APPROACH,ILS_TRACK,169.65,145.22,-24.43,2280.9,-0.79,8.6,8.82,270.21,-0.155,0.0453,-20,270.23,0,8.98,-66.69,43.461,-0.171,12.382,0,0,0,269.54,0,0,0,0,0,0,0,0,0,0,0,0,0,3,3,13.33,FLYING
13.68,APPROACH,ILS_TRACK,168.41,144.54,-23.86,2280.64,-0.67,8.76,8.96,270.22,-0.161,0.0482,-20,270.24,0,8.67,-62.7,43.38,-0.16,11.217,0,0,0,269.54,0,0,0,0,0,0,0,0,0,0,0,0,0,3,3,13.75,FLYING
14.1,APPROACH,ILS_TRACK,167.13,143.87,-23.26,2280.41,-0.62,8.92,9.09,270.22,-0.165,0.067,-20,270.25,0,8.36,-58.73,43.299,-0.153,10.042,0,0,0,269.54,0,0,0,0,0,0,0,0,0,0,0,0,0,3,3,14.17,FLYING
14.59,APPROACH,ILS_TRACK,165.63,143.09,-22.54,2280.19,-0.55,9.13,9.28,270.23,-0.167,0.0841,-20,270.25,0,8.03,-54.07,43.206,-0.149,8.623,0,0,0,269.54,0,0,0,0,0,0,0,0,0,0,0,0,0,3,3,14.66,FLYING
15.01,APPROACH,ILS_TRACK,164.33,142.42,-21.92,2280.02,-0.49,9.31,9.45,270.23,-0.165,0.0981,-20,270.26,0,7.74,-50.09,43.127,-0.141,7.442,0,0,0,269.54,0,0,0,0,0,0,0,0,0,0,0,0,0,3,3,15.08,FLYING
15.43,APPROACH,ILS_TRACK,163.05,141.74,-21.31,2279.87,-0.45,9.49,9.62,270.24,-0.161,0.1085,-20,270.27,0,7.46,-46.12,43.048,-0.133,6.265,0,0,0,269.54,0,0,0,0,0,0,0,0,0,0,0,0,0,3,3,15.5,FLYING
15.92,APPROACH,ILS_TRACK,161.57,140.96,-20.61,2279.72,-0.4,9.71,9.82,270.24,-0.159,0.1155,-20,270.27,0,7.15,-41.49,42.957,-0.128,4.897,0,0,0,269.54,0,0,0,0,0,0,0,0,0,0,0,0,0,3,3,15.99,FLYING
16.34,APPROACH,ILS_TRACK,160.31,140.29,-20.02,2279.62,-0.36,9.89,9.99,270.25,-0.158,0.1192,-20,270.28,0,6.9,-37.54,42.879,-0.124,3.74,0,0,0,269.54,0,0,0,0,0,0,0,0,0,0,0,0,0,3,3,16.41,FLYING
16.76,APPROACH,ILS_TRACK,159.07,140,-19.07,2279.51,-0.26,10.03,10.14,270.25,-0.163,0.1203,-20,270.28,-0.416,6.65,-33.61,42.802,-0.118,2.584,0,0,0,269.54,0,0,0,0,0,0,0,0,0,0,0,0,0,3,3,16.83,FLYING
17.25,APPROACH,ILS_TRACK,157.68,140,-17.68,2279.19,-0.27,9.32,9.49,270.27,-0.242,0.1166,-20,270.29,-1.478,6.37,-29.18,42.713,-0.11,1.522,0,0,0,269.54,0,0,0,0,0,0,0,0,0,0,0,0,0,3,3,17.32,FLYING
17.67,APPROACH,ILS_TRACK,156.6,140,-16.6,2278.52,-0.5,7.41,7.73,270.28,-0.369,0.1021,-20,270.29,-1.985,6.14,-25.67,42.637,-0.112,1.015,0,0,0,269.54,0,0,0,0,0,0,0,0,0,0,0,0,0,3,3,17.74,FLYING
18.09,APPROACH,ILS_TRACK,155.72,140,-15.72,2277.58,-1.66,5.73,6.32,270.29,-0.406,0.067,-20,270.29,-2.119,5.92,-22.57,42.562,-0.108,0.881,0,0,0,269.54,0,0,0,0,0,0,0,0,0,0,0,0,0,3,3,18.16,FLYING
18.58,APPROACH,ILS_TRACK,154.8,140,-14.8,2276.25,-3.32,5.47,6.45,270.3,-0.403,0.0254,-20,270.3,-2.696,5.68,-19.23,42.474,-0.103,0.304,0,0,0,269.54,0,0,0,0,0,0,0,0,0,0,0,0,0,3,3,18.65,FLYING
19,APPROACH,ILS_TRACK,154.02,140,-14.02,2274.85,-4.23,6.28,7.6,270.31,-0.383,0,-20,270.3,-3.065,5.48,-16.58,42.4,-0.099,-0.065,0,0,0,269.54,0,0,0,0,0,0,0,0,0,0,0,0,0,3,3,19.07,FLYING
19.42,APPROACH,ILS_TRACK,153.24,140,-13.24,2272.84,-4.94,5.96,7.56,270.32,-0.361,0,-20,270.3,-2.723,5.29,-14.45,42.325,-0.102,0.277,0,0,0,269.54,0,0,0,0,0,0,0,0,0,0,0,0,0,3,3,19.49,FLYING
19.91,APPROACH,ILS_TRACK,152.25,140,-12.25,2270.18,-6.13,6.24,8.14,270.32,-0.289,0,-20,270.3,-2.409,5.09,-12.51,42.239,-0.1,0.591,0,0,0,269.54,0,0,0,0,0,0,0,0,0,0,0,0,0,3,3,19.98,FLYING
20.33,APPROACH,ILS_TRACK,151.3,140,-11.3,2267.81,-6.87,7.58,9.68,270.32,-0.203,0,-20,270.29,-2.545,4.94,-11.02,42.166,-0.106,0.455,0,0,0,269.54,0,0,0,0,0,0,0,0,0,0,0,0,0,3,3,20.4,FLYING
20.75,APPROACH,ILS_TRACK,150.24,140,-10.24,2265.24,-6.88,8.74,10.97,270.32,-0.132,0,-20,270.3,-2.712,4.78,-9.65,42.093,-0.1,0.288,0,0,0,269.54,0,0,0,0,0,0,0,0,0,0,0,0,0,3,3,20.82,FLYING
21.24,APPROACH,ILS_TRACK,148.87,140,-8.87,2261.9,-6.98,8.88,11.18,270.31,-0.098,0,-20,270.3,-2.373,4.61,-8.48,42.009,-0.096,0.627,0,0,0,269.54,0,0,0,0,0,0,0,0,0,0,0,0,0,3,3,21.31,FLYING
21.66,APPROACH,ILS_TRACK,147.64,140,-7.64,2259.05,-7.17,9.33,11.69,270.31,-0.06,0.0063,-20,270.31,-2.407,4.47,-7.59,41.937,-0.094,0.593,0,0,0,269.54,0,0,0,0,0,0,0,0,0,0,0,0,0,3,3,21.73,FLYING
22.08,APPROACH,ILS_TRACK,146.39,140,-6.39,2256.1,-7.16,9.53,11.95,270.31,-0.039,0.0761,-20,270.31,-2.574,4.33,-6.75,41.866,-0.094,0.426,0,0,0,269.54,0,0,0,0,0,0,0,0,0,0,0,0,0,3,3,22.15,FLYING
22.57,APPROACH,ILS_TRACK,144.92,140,-4.92,2252.54,-7.3,9.47,11.96,270.31,-0.03,0.1705,-20,270.31,-2.493,4.19,-5.97,41.784,-0.091,0.507,0,0,0,269.54,0,0,0,0,0,0,0,0,0,0,0,0,0,3,3,22.64,FLYING
22.99,APPROACH,ILS_TRACK,143.71,140,-3.71,2249.41,-7.49,9.39,11.97,270.31,-0.019,0.2435,-20,270.31,-2.449,4.06,-5.4,41.714,-0.088,0.551,0,0,0,269.54,0,0,0,0,0,0,0,0,0,0,0,0,0,3,3,23.06,FLYING
23.41,APPROACH,ILS_TRACK,142.58,140,-2.58,2246.18,-7.73,9.29,11.97,270.31,-0.009,0.3019,-20,270.31,-2.361,3.94,-4.96,41.645,-0.087,0.639,0,0,0,269.54,0,0,0,0,0,0,0,0,0,0,0,0,0,3,3,23.48,FLYING
23.9,APPROACH,ILS_TRACK,141.38,140,-1.38,2242.27,-8.05,9.15,11.97,270.31,0.012,0.3513,-20,270.32,-2.192,3.8,-4.61,41.564,-0.08,0.808,0,0,0,269.54,0,0,0,0,0,0,0,0,0,0,0,0,0,3,3,23.97,FLYING
24.32,APPROACH,ILS_TRACK,140.47,140,-0.47,2238.78,-8.37,9.03,11.97,270.3,0.039,0.3743,-20,270.33,-1.929,3.68,-4.47,41.496,-0.075,1.071,0,0,0,269.54,0,0,0,0,0,0,0,0,0,0,0,0,0,3,3,24.39,FLYING
24.74,APPROACH,ILS_TRACK,139.68,140,0.32,2235.15,-8.71,8.89,11.97,270.3,0.055,0.3835,-19.917,270.32,-1.622,3.57,-4.48,41.428,-0.075,1.378,0,0,0,269.54,0,0,0,0,0,0,0,0,0,0,0,0,0,3,3,24.81,FLYING
25.23,APPROACH,ILS_TRACK,138.9,140,1.1,2230.72,-9.14,8.72,11.97,270.3,0.058,0.3885,-19.427,270.33,-1.209,3.43,-4.71,41.35,-0.068,1.791,0,0,0,269.54,0,0,0,0,0,0,0,0,0,0,0,0,0,3,3,25.3,FLYING
25.65,APPROACH,ILS_TRACK,138.35,140,1.65,2226.74,-9.53,8.57,11.97,270.29,0.059,0.378,-18.77,270.34,-0.736,3.31,-5.1,41.282,-0.064,2.264,0,0,0,269.54,0,0,0,0,0,0,0,0,0,0,0,0,0,3,3,25.72,FLYING
26.07,APPROACH,ILS_TRACK,137.9,140,2.1,2222.61,-9.93,8.42,11.97,270.29,0.06,0.362,-17.916,270.34,-0.229,3.2,-5.66,41.216,-0.058,2.771,0,0,0,269.54,0,0,0,0,0,0,0,0,0,0,0,0,0,3,3,26.14,FLYING
26.56,APPROACH,ILS_TRACK,137.48,140,2.52,2217.56,-10.41,8.23,11.97,270.29,0.06,0.3469,-16.709,270.34,0,3.07,-6.55,41.138,-0.058,3.409,0,0,0,269.54,0,0,0,0,0,0,0,0,0,0,0,0,0,3,3,26.63,FLYING
26.98,APPROACH,ILS_TRACK,137.21,140,2.79,2213.05,-10.83,8.08,11.97,270.29,0.062,0.3241,-15.555,270.35,0,2.95,-7.5,41.071,-0.048,4.073,0,0,0,269.54,0,0,0,0,0,0,0,0,0,0,0,0,0,3,3,27.05,FLYING
27.4,APPROACH,ILS_TRACK,137,140,3,2208.36,-11.26,7.92,11.97,270.29,0.063,0.3015,-14.309,270.36,0,2.84,-8.64,41.005,-0.045,4.766,0,0,0,269.54,0,0,0,0,0,0,0,0,0,0,0,0,0,3,3,27.47,FLYING
27.89,APPROACH,ILS_TRACK,136.82,140,3.18,2202.66,-11.76,7.73,11.97,270.29,0.07,0.2839,-12.762,270.36,0,2.7,-10.21,40.928,-0.039,5.618,0,0,0,269.54,0,0,0,0,0,0,0,0,0,0,0,0,0,3,3,27.96,FLYING
28.31,APPROACH,ILS_TRACK,136.71,140,3.29,2197.57,-12.19,7.57,11.97,270.29,0.072,0.2643,-11.387,270.36,0,2.59,-11.75,40.862,-0.036,6.464,0,0,0,269.54,0,0,0,0,0,0,0,0,0,0,0,0,0,3,3,28.38,FLYING
28.73,APPROACH,ILS_TRACK,136.63,140,3.37,2192.31,-12.63,7.41,11.97,270.29,0.074,0.248,-9.977,270.37,0,2.48,-13.48,40.796,-0.033,7.337,0,0,0,269.54,0,0,0,0,0,0,0,0,0,0,0,0,0,3,3,28.8,FLYING
29.22,APPROACH,ILS_TRACK,136.57,140,3.43,2185.93,-13.14,7.22,11.97,270.29,0.077,0.2384,-8.299,270.37,0,2.34,-15.73,40.719,-0.025,8.398,0,0,0,269.54,0,0,0,0,0,0,0,0,0,0,0,0,0,3,3,29.29,FLYING
29.64,APPROACH,ILS_TRACK,136.53,140,3.47,2180.26,-13.58,7.06,11.97,270.29,0.082,0.2292,-6.844,270.38,0,2.22,-17.87,40.653,-0.018,9.424,0,0,0,269.54,0,0,0,0,0,0,0,0,0,0,0,0,0,3,3,29.71,FLYING
30.06,APPROACH,ILS_TRACK,136.51,140,3.49,2174.42,-14.02,6.89,11.97,270.29,0.089,0.2236,-5.378,270.38,0,2.11,-20.19,40.587,-0.016,10.476,0,0,0,269.54,0,0,0,0,0,0,0,0,0,0,0,0,0,3,3,30.13,FLYING
30.55,APPROACH,ILS_TRACK,136.49,140,3.51,2167.36,-14.53,6.7,11.97,270.28,0.093,0.2246,-3.657,270.39,0,1.97,-23.13,40.51,-0.007,11.746,0,0,0,269.54,0,0,0,0,0,0,0,0,0,0,0,0,0,3,3,30.62,FLYING
30.97,APPROACH,ILS_TRACK,136.48,140,3.52,2161.11,-14.97,6.54,11.97,270.28,0.096,0.2257,-2.178,270.39,0,1.86,-25.86,40.444,-0.008,12.95,0,0,0,269.54,0,0,0,0,0,0,0,0,0,0,0,0,0,3,3,31.04,FLYING
31.39,APPROACH,ILS_TRACK,136.47,140,3.53,2154.67,-15.41,6.38,11.97,270.28,0.099,0.2292,-0.696,270.4,0,1.73,-28.77,40.379,0.004,14.181,0,0,0,269.54,0,0,0,0,0,0,0,0,0,0,0,0,0,3,3,31.46,FLYING
31.88,APPROACH,ILS_TRACK,136.48,140,3.52,2146.93,-15.92,6.19,11.97,270.28,0.105,0.2372,1.031,270.41,0,1.59,-32.41,40.302,0.007,15.659,0,0,0,269.54,0,0,0,0,0,0,0,0,0,0,0,0,0,3,3,31.95,FLYING
32.3,APPROACH,ILS_TRACK,136.49,140,3.51,2140.1,-16.36,6.03,11.97,270.28,0.111,0.2428,2.505,270.42,0,1.47,-35.73,40.236,0.016,17.04,0,0,0,269.54,0,0,0,0,0,0,0,0,0,0,0,0,0,3,3,32.37,FLYING
32.72,APPROACH,ILS_TRACK,136.52,140,3.48,2133.08,-16.8,5.87,11.97,270.27,0.114,0.2484,3.968,270.42,0,1.35,-39.23,40.171,0.016,18.445,0,0,0,269.54,0,0,0,0,0,0,0,0,0,0,0,0,0,3,3,32.79,FLYING
33.21,APPROACH,ILS_TRACK,136.58,140,3.42,2124.66,-17.31,5.68,11.97,270.27,0.118,0.2556,5.65,270.43,0,1.2,-43.55,40.094,0.027,20.123,0,0,0,269.54,0,0,0,0,0,0,0,0,0,0,0,0,0,3,3,33.28,FLYING
33.63,APPROACH,ILS_TRACK,136.64,140,3.36,2117.24,-17.74,5.52,11.97,270.27,0.123,0.2591,7.067,270.43,0,1.08,-47.46,40.029,0.028,21.671,0,0,0,269.54,0,0,0,0,0,0,0,0,0,0,0,0,0,3,3,33.7,FLYING
34.05,APPROACH,ILS_TRACK,136.72,140,3.28,2109.65,-18.16,5.37,11.97,270.27,0.125,0.2614,8.45,270.44,0,0.96,-51.54,39.963,0.037,23.24,0,0,0,269.54,0,0,0,0,0,0,0,0,0,0,0,0,0,3,3,34.12,FLYING
34.54,APPROACH,ILS_TRACK,136.84,140,3.16,2100.57,-18.66,5.19,11.97,270.26,0.128,0.2636,10.009,270.45,0,0.8,-56.53,39.887,0.051,25.105,0,0,0,269.54,0,0,0,0,0,0,0,0,0,0,0,0,0,3,3,34.61,FLYING
34.96,APPROACH,ILS_TRACK,136.96,140,3.04,2092.6,-19.07,5.04,11.97,270.26,0.131,0.2623,11.295,270.45,0,0.67,-61,39.821,0.05,26.807,0,0,0,269.54,0,0,0,0,0,0,0,0,0,0,0,0,0,3,3,35.03,FLYING
35.38,APPROACH,ILS_TRACK,137.1,140,2.9,2084.45,-19.48,4.9,11.97,270.26,0.132,0.2595,12.524,270.46,0,0.53,-65.64,39.756,0.057,28.527,0,0,0,269.54,0,0,0,0,0,0,0,0,0,0,0,0,0,3,3,35.45,FLYING
35.87,APPROACH,ILS_TRACK,137.28,140,2.72,2074.74,-19.94,4.74,11.97,270.26,0.135,0.2561,13.872,270.47,0,0.37,-71.26,39.679,0.068,30.562,0,0,0,269.54,0,0,0,0,0,0,0,0,0,0,0,0,0,3,3,35.94,FLYING
36.29,APPROACH,ILS_TRACK,137.45,140,2.55,2066.23,-20.33,4.6,11.97,270.25,0.137,0.2503,14.956,270.47,0,0.24,-76.26,39.614,0.07,32.402,0,0,0,269.54,0,0,0,0,0,0,0,0,0,0,0,0,0,3,3,36.36,FLYING
36.71,APPROACH,ILS_TRACK,137.63,140,2.37,2057.57,-20.71,4.46,11.97,270.25,0.138,0.2409,15.958,270.48,0,0.1,-81.42,39.548,0.077,34.257,0,0,0,269.54,0,0,0,0,0,0,0,0,0,0,0,0,0,3,3,36.78,FLYING
37.2,APPROACH,ILS_TRACK,137.85,140,2.15,2047.26,-21.15,4.31,11.97,270.25,0.139,0.2337,17.018,270.49,0,-0.07,-87.64,39.471,0.09,36.446,0,0,0,269.54,0,0,0,0,0,0,0,0,0,0,0,0,0,3,3,37.27,FLYING
37.62,APPROACH,ILS_TRACK,138.05,140,1.95,2038.26,-21.51,4.19,11.97,270.25,0.141,0.2263,17.845,270.5,0,-0.22,-93.14,39.406,0.097,38.409,0,0,0,269.54,0,0,0,0,0,0,0,0,0,0,0,0,0,3,3,37.69,FLYING
38.04,APPROACH,ILS_TRACK,138.24,140,1.76,2029.11,-21.86,4.07,11.97,270.24,0.141,0.2193,18.589,270.5,0,-0.37,-98.78,39.34,0.102,40.385,0,0,0,269.54,0,0,0,0,0,0,0,0,0,0,0,0,0,3,3,38.11,FLYING
38.53,APPROACH,ILS_TRACK,138.47,140,1.53,2018.25,-22.26,3.93,11.97,270.24,0.143,0.2127,19.347,270.51,0,-0.54,-105.55,39.263,0.111,42.713,0,0,0,269.54,0,0,0,0,0,0,0,0,0,0,0,0,0,3,3,38.6,FLYING
38.95,APPROACH,ILS_TRACK,138.65,140.67,2.02,2008.79,-22.59,3.81,11.97,270.24,0.145,0.2421,20,270.52,0,-0.7,-111.5,39.197,0.12,44.788,0,0,0,269.54,0,0,0,0,0,0,0,0,0,0,0,0,0,3,3,39.02,FLYING
39.37,APPROACH,ILS_TRACK,138.83,141.34,2.51,1999.2,-22.91,3.7,11.97,270.24,0.146,0.2677,20,270.53,0,-0.85,-117.59,39.132,0.128,46.875,0,0,0,269.54,0,0,0,0,0,0,0,0,0,0,0,0,0,3,3,39.44,FLYING
39.86,APPROACH,ILS_TRACK,139.05,142.13,3.07,1987.84,-23.28,3.58,11.97,270.23,0.146,0.2936,20,270.54,0,-1.04,-124.86,39.055,0.136,49.329,0,0,0,269.54,0,0,0,0,0,0,0,0,0,0,0,0,0,3,3,39.93,FLYING
40.28,APPROACH,ILS_TRACK,139.26,142.8,3.54,1977.96,-23.58,3.48,11.97,270.23,0.147,0.3131,20,270.54,0,-1.2,-131.23,38.989,0.141,51.504,0,0,0,269.54,0,0,0,0,0,0,0,0,0,0,0,0,0,3,3,40.35,FLYING
40.7,APPROACH,ILS_TRACK,139.49,143.47,3.98,1967.96,-23.87,3.38,11.97,270.23,0.146,0.3294,20,270.55,0,-1.36,-137.72,38.923,0.151,53.685,0,0,0,269.54,0,0,0,0,0,0,0,0,0,0,0,0,0,3,3,40.77,FLYING
41.19,APPROACH,ILS_TRACK,139.8,144.26,4.46,1956.15,-24.2,3.27,11.97,270.23,0.147,0.3452,20,270.56,0,-1.55,-145.45,38.846,0.161,56.242,0,0,0,269.54,0,0,0,0,0,0,0,0,0,0,0,0,0,3,3,41.26,FLYING
41.61,APPROACH,ILS_TRACK,140.1,144.93,4.83,1945.9,-24.46,3.19,11.97,270.22,0.146,0.3534,20,270.57,0,-1.72,-152.19,38.78,0.168,58.491,0,0,0,269.54,0,0,0,0,0,0,0,0,0,0,0,0,0,3,3,41.68,FLYING
42.03,APPROACH,ILS_TRACK,140.43,145.6,5.17,1935.55,-24.71,3.12,11.97,270.22,0.141,0.358,20,270.58,0,-1.9,-159.03,38.714,0.182,60.739,0,0,0,269.54,0,0,0,0,0,0,0,0,0,0,0,0,0,3,3,42.1,FLYING
42.52,APPROACH,ILS_TRACK,140.86,146,5.14,1923.35,-24.97,3.04,11.97,270.22,0.133,0.3425,20,270.59,0,-2.1,-167.13,38.636,0.188,63.365,0,0,0,269.54,0,0,0,0,0,0,0,0,0,0,0,0,0,3,3,42.59,FLYING
42.94,APPROACH,ILS_TRACK,141.26,146,4.74,1912.8,-25.18,2.99,11.97,270.22,0.124,0.307,20,270.6,0,-2.28,-174.16,38.57,0.201,65.653,0,0,0,269.54,0,0,0,0,0,0,0,0,0,0,0,0,0,3,3,43.01,FLYING
43.36,APPROACH,ILS_TRACK,141.68,146,4.32,1902.16,-25.37,2.94,11.97,270.22,0.114,0.2708,20,270.61,0,-2.46,-181.28,38.503,0.205,67.934,0,0,0,269.54,0,0,0,0,0,0,0,0,0,0,0,0,0,3,3,43.43,FLYING
43.85,APPROACH,ILS_TRACK,142.18,146,3.82,1889.67,-25.56,2.89,11.97,270.22,0.101,0.2324,20,270.62,0,-2.68,-189.66,38.426,0.216,70.587,0,0,0,269.54,0,0,0,0,0,0,0,0,0,0,0,0,0,3,3,43.92,FLYING
44.27,APPROACH,ILS_TRACK,142.6,146,3.4,1878.89,-25.7,2.86,11.97,270.23,0.091,0.2018,20,270.63,0,-2.86,-196.91,38.359,0.226,72.882,0,0,0,269.54,0,0,0,0,0,0,0,0,0,0,0,0,0,3,3,44.34,FLYING
44.69,APPROACH,ILS_TRACK,142.98,146,3.02,1868.06,-25.82,2.84,11.97,270.23,0.081,0.1781,20,270.63,0,-3.05,-204.21,38.292,0.235,75.166,0,0,0,269.54,0,0,0,0,0,0,0,0,0,0,0,0,0,3,3,44.76,FLYING
45.18,APPROACH,ILS_TRACK,143.37,146,2.63,1855.36,-25.94,2.81,11.97,270.23,0.075,0.1607,20,270.64,0,-3.27,-212.78,38.213,0.242,77.824,0,0,0,269.54,0,0,0,0,0,0,0,0,0,0,0,0,0,3,3,45.25,FLYING
45.6,APPROACH,ILS_TRACK,143.64,146,2.36,1844.44,-26.02,2.79,11.97,270.23,0.072,0.1555,20,270.65,0,-3.46,-220.16,38.146,0.249,80.113,0,0,0,269.54,0,0,0,0,0,0,0,0,0,0,0,0,0,3,3,45.67,FLYING
46.02,APPROACH,ILS_TRACK,143.86,146,2.14,1833.49,-26.09,2.77,11.97,270.23,0.062,0.1582,20,270.66,0,-3.65,-227.58,38.079,0.264,82.396,0,0,0,269.54,0,0,0,0,0,0,0,0,0,0,0,0,0,3,3,46.09,FLYING
46.51,APPROACH,ILS_TRACK,144.05,146,1.95,1820.68,-26.17,2.75,11.97,270.23,0.057,0.1665,20,270.67,0,-3.87,-236.26,38,0.267,85.057,0,0,0,269.54,0,0,0,0,0,0,0,0,0,0,0,0,0,3,3,46.58,FLYING
46.93,APPROACH,ILS_TRACK,144.16,146,1.84,1809.67,-26.22,2.73,11.97,270.23,0.056,0.1806,20,270.68,0,-4.07,-243.73,37.933,0.278,87.347,0,0,0,269.54,0,0,0,0,0,0,0,0,0,0,0,0,0,3,3,47,FLYING
47.35,APPROACH,ILS_TRACK,144.24,146,1.76,1798.64,-26.26,2.71,11.97,270.23,0.052,0.1963,20,270.68,0,-4.25,-251.22,37.866,0.282,89.636,0,0,0,269.54,0,0,0,0,0,0,0,0,0,0,0,0,0,3,3,47.42,FLYING
47.84,APPROACH,ILS_TRACK,144.32,146,1.68,1785.76,-26.31,2.69,11.97,270.23,0.052,0.2109,20,270.69,0,-4.47,-259.99,37.787,0.291,92.306,0,0,0,269.54,0,0,0,0,0,0,0,0,0,0,0,0,0,3,3,47.91,FLYING
48.26,APPROACH,ILS_TRACK,144.38,146,1.62,1774.69,-26.35,2.68,11.97,270.23,0.051,0.2237,20,270.7,0,-4.66,-267.52,37.72,0.296,94.604,0,0,0,269.54,0,0,0,0,0,0,0,0,0,0,0,0,0,3,3,48.33,FLYING
48.68,APPROACH,ILS_TRACK,144.43,146,1.57,1763.55,-26.18,2.38,11.71,270.23,0.042,0.2335,20,270.71,0,-4.85,-275.07,37.653,0.31,96.904,0,0,0,269.54,0,0,0,0,0,0,0,0,0,0,0,0,0,3,3,48.75,FLYING
49.17,APPROACH,ILS_TRACK,144.55,146,1.45,1750.32,-26.59,1.27,10.68,270.27,-0.18,0.2355,20,270.72,0,-5.08,-284.14,37.574,0.316,100.05,0,0,0,269.54,0,0,0,0,0,0,0,0,0,0,0,0,0,3,3,49.24,FLYING
49.59,APPROACH,ILS_TRACK,144.75,146,1.25,1739.06,-27.18,1.42,10.93,270.31,-0.305,0.2187,20,270.73,0,-5.27,-291.92,37.507,0.329,102.397,0,0,0,269.54,0,0,0,0,0,0,0,0,0,0,0,0,0,3,3,49.66,FLYING
50.01,APPROACH,ILS_TRACK,144.91,146,1.09,1727.95,-27.47,2.74,12.29,270.34,-0.378,0.2065,20,270.72,0,-5.45,-299.58,37.44,0.321,104.455,0,0,0,269.54,0,0,0,0,0,0,0,0,0,0,0,0,0,3,3,50.08,FLYING
50.5,APPROACH,ILS_TRACK,144.91,146,1.09,1715.24,-27.03,5.12,14.54,270.38,-0.414,0.2189,20,270.72,0,-5.64,-308.27,37.361,0.323,106.677,0,0,0,269.54,0,0,0,0,0,0,0,0,0,0,0,0,0,3,3,50.57,FLYING
50.92,APPROACH,ILS_TRACK,144.64,146,1.36,1704.48,-26.04,6.42,15.6,270.41,-0.435,0.2721,20,270.73,0,-5.8,-315.55,37.294,0.325,108.533,0,0,0,269.54,0,0,0,0,0,0,0,0,0,0,0,0,0,3,3,50.99,FLYING
51.34,APPROACH,ILS_TRACK,144.24,146,1.76,1693.93,-25.03,6.92,15.8,270.43,-0.443,0.345,20,270.71,0,-5.92,-322.7,37.227,0.314,110.419,0,0,0,269.54,0,0,0,0,0,0,0,0,0,0,0,0,0,3,3,51.41,FLYING
51.83,APPROACH,ILS_TRACK,143.75,146,2.25,1682.04,-24,7.25,15.8,270.45,-0.446,0.4156,20,270.71,0,-6.06,-330.68,37.149,0.311,112.229,0,0,0,269.54,0,0,0,0,0,0,0,0,0,0,0,0,0,3,3,51.9,FLYING
52.25,APPROACH,ILS_TRACK,143.37,146,2.63,1672.24,-23.12,7.53,15.8,270.46,-0.436,0.4683,20,270.7,0,-6.15,-337.13,37.082,0.299,113.433,0,0,0,269.54,0,0,0,0,0,0,0,0,0,0,0,0,0,3,3,52.32,FLYING
52.67,APPROACH,ILS_TRACK,143.04,146,2.96,1662.8,-22.28,7.81,15.79,270.47,-0.422,0.5056,20,270.69,0,-6.22,-343.23,37.016,0.291,114.588,0,0,0,269.54,0,0,0,0,0,0,0,0,0,0,0,0,0,3,3,52.74,FLYING
53.16,APPROACH,ILS_TRACK,142.74,146,3.26,1652.23,-21.3,8.13,15.79,270.49,-0.406,0.529,20,270.68,0,-6.28,-349.91,36.938,0.285,115.875,0,0,0,269.54,0,0,0,0,0,0,0,0,0,0,0,0,0,3,3,53.23,FLYING
53.58,APPROACH,ILS_TRACK,142.56,146,3.44,1643.55,-20.49,8.41,15.78,270.5,-0.395,0.5355,20,270.67,0,-6.32,-355.26,36.872,0.271,116.773,0,0,0,269.54,0,0,0,0,0,0,0,0,0,0,0,0,0,3,3,53.65,FLYING
54,APPROACH,ILS_TRACK,142.46,146,3.54,1635.21,-19.66,8.69,15.77,270.51,-0.383,0.5304,20,270.67,0,-6.34,-360.27,36.806,0.269,117.621,0,0,0,269.54,0,0,0,0,0,0,0,0,0,0,0,0,0,3,3,54.07,FLYING
54.49,APPROACH,ILS_TRACK,142.41,146,3.59,1625.91,-18.72,9.02,15.75,270.52,-0.372,0.516,20,270.65,0,-6.33,-365.68,36.728,0.248,118.534,0,0,0,269.54,0,0,0,0,0,0,0,0,0,0,0,0,0,3,3,54.56,FLYING
54.91,APPROACH,ILS_TRACK,142.43,146,3.57,1618.33,-17.86,9.31,15.74,270.53,-0.352,0.4944,20,270.65,0,-6.32,-369.94,36.662,0.245,119.097,0,0,0,269.54,0,0,0,0,0,0,0,0,0,0,0,0,0,3,3,54.98,FLYING
55.33,APPROACH,ILS_TRACK,142.5,146,3.5,1611.09,-17.04,9.62,15.76,270.54,-0.34,0.4699,20,270.63,0,-6.28,-373.85,36.596,0.231,119.601,0,0,0,269.54,0,0,0,0,0,0,0,0,0,0,0,0,0,3,3,55.4,FLYING
55.82,APPROACH,ILS_TRACK,142.6,146,3.4,1603.1,-16.06,9.98,15.75,270.55,-0.318,0.4436,20,270.62,0,-6.23,-377.96,36.518,0.219,120.093,0,0,0,269.54,0,0,0,0,0,0,0,0,0,0,0,0,0,3,3,55.89,FLYING
56.24,APPROACH,ILS_TRACK,142.7,146,3.3,1596.64,-15.2,10.29,15.75,270.56,-0.299,0.4197,20,270.61,0,-6.16,-381.08,36.452,0.208,120.284,0,0,0,269.54,0,0,0,0,0,0,0,0,0,0,0,0,0,3,3,56.31,FLYING
56.66,APPROACH,ILS_TRACK,142.81,146,3.19,1590.54,-14.31,10.61,15.75,270.56,-0.276,0.3993,20,270.6,0,-6.08,-383.85,36.386,0.196,120.419,0,0,0,269.54,0,0,0,0,0,0,0,0,0,0,0,0,0,3,3,56.73,FLYING
57.15,APPROACH,ILS_TRACK,142.91,146,3.09,1583.9,-13.27,10.98,15.76,270.57,-0.245,0.3835,20,270.58,0,-5.97,-386.6,36.308,0.18,120.481,0,0,0,269.54,0,0,0,0,0,0,0,0,0,0,0,0,0,3,3,57.22,FLYING
57.57,APPROACH,ILS_TRACK,142.98,146,3.02,1578.61,-12.43,11.3,15.76,270.57,-0.215,0.3742,20,270.57,0,-5.86,-388.56,36.241,0.172,120.296,0,0,0,269.54,0,0,0,0,0,0,0,0,0,0,0,0,0,3,3,57.64,FLYING
57.99,APPROACH,ILS_TRACK,143.01,146,2.99,1573.69,-11.52,11.63,15.77,270.57,-0.183,0.3701,20,270.56,0,-5.74,-390.14,36.175,0.156,120.054,0,0,0,269.54,0,0,0,0,0,0,0,0,0,0,0,0,0,3,3,58.06,FLYING
58.48,APPROACH,ILS_TRACK,143.02,146,2.98,1568.43,-10.45,12.01,15.77,270.57,-0.141,0.3722,20,270.55,0,-5.59,-391.51,36.097,0.149,119.694,0,0,0,269.54,0,0,0,0,0,0,0,0,0,0,0,0,0,3,3,58.55,FLYING
58.9,APPROACH,ILS_TRACK,142.99,146,3.01,1564.32,-9.59,12.33,15.77,270.56,-0.106,0.3803,20,270.53,0,-5.45,-392.28,36.03,0.135,119.153,0,0,0,269.54,0,0,0,0,0,0,0,0,0,0,0,0,0,3,3,58.97,FLYING
59.32,APPROACH,ILS_TRACK,142.92,146,3.08,1560.58,-8.7,12.63,15.75,270.56,-0.061,0.3919,20,270.52,0,-5.3,-392.68,35.964,0.119,118.556,0,0,0,269.54,0,0,0,0,0,0,0,0,0,0,0,0,0,3,3,59.39,FLYING
59.81,APPROACH,ILS_TRACK,142.82,146,3.18,1556.69,-7.67,12.97,15.72,270.54,-0.005,0.4068,20,270.52,0,-5.13,-392.68,35.886,0.118,117.801,0,0,0,269.54,0,0,0,0,0,0,0,0,0,0,0,0,0,3,3,59.88,FLYING
60.23,APPROACH,ILS_TRACK,142.72,146,3.28,1553.77,-6.78,13.34,15.79,270.53,0.037,0.4222,20,270.51,0,-4.97,-392.27,35.819,0.108,116.907,0,0,0,269.54,0,0,0,0,0,0,0,0,0,0,0,0,0,3,3,60.3,FLYING
60.65,APPROACH,ILS_TRACK,142.6,146,3.4,1551.2,-5.91,13.63,15.76,270.52,0.094,0.4389,20,270.49,0,-4.8,-391.5,35.753,0.089,115.985,0,0,0,269.54,0,0,0,0,0,0,0,0,0,0,0,0,0,3,3,60.72,FLYING
61.14,APPROACH,ILS_TRACK,142.44,146,3.56,1548.66,-4.85,13.92,15.69,270.5,0.172,0.4566,20,270.49,0,-4.62,-390.14,35.675,0.092,114.822,0,0,0,269.54,0,0,0,0,0,0,0,0,0,0,0,0,0,3,3,61.21,FLYING
61.56,APPROACH,ILS_TRACK,142.31,146,3.69,1546.89,-4.05,14.31,15.78,270.48,0.213,0.4707,20,270.48,0,-4.46,-388.61,35.609,0.083,113.669,0,0,0,269.54,0,0,0,0,0,0,0,0,0,0,0,0,0,3,3,61.63,FLYING
61.98,APPROACH,ILS_TRACK,142.14,146,3.86,1545.3,-3.04,13.71,14.88,270.47,0.251,0.4904,20,270.48,0,-4.3,-386.76,35.543,0.079,112.507,0,0,0,269.54,0,0,0,0,0,0,0,0,0,0,0,0,0,3,3,62.05,FLYING
62.47,APPROACH,ILS_TRACK,142.16,146,3.84,1543.83,-2.52,13.36,14.3,270.46,0.268,0.4807,20,270.48,0,-4.14,-384.35,35.465,0.083,111.362,0,0,0,269.54,0,0,0,0,0,0,0,0,0,0,0,0,0,3,3,62.54,FLYING
62.89,APPROACH,ILS_TRACK,142.27,146,3.73,1542.82,-2.03,13.11,13.87,270.45,0.266,0.4548,20,270.48,0,-4,-381.96,35.399,0.075,110.038,0,0,0,269.54,0,0,0,0,0,0,0,0,0,0,0,0,0,3,3,62.96,FLYING
63.31,APPROACH,ILS_TRACK,142.45,146,3.55,1541.99,-1.65,12.87,13.5,270.45,0.265,0.4206,20,270.48,0,-3.87,-379.38,35.332,0.077,108.908,0,0,0,269.54,0,0,0,0,0,0,0,0,0,0,0,0,0,3,3,63.38,FLYING
63.8,APPROACH,ILS_TRACK,142.72,146,3.28,1541.18,-1.27,12.54,13.03,270.45,0.239,0.3804,20,270.47,0,-3.72,-376.17,35.255,0.075,107.612,0,0,0,269.54,0,0,0,0,0,0,0,0,0,0,0,0,0,3,3,63.87,FLYING
64.22,APPROACH,ILS_TRACK,142.99,146,3.01,1540.62,-1.08,12.29,12.7,270.45,0.204,0.3399,20,270.47,0,-3.6,-373.29,35.188,0.072,106.505,0,0,0,269.54,0,0,0,0,0,0,0,0,0,0,0,0,0,3,3,64.29,FLYING
64.64,APPROACH,ILS_TRACK,143.27,146,2.73,1540.15,-0.94,12.14,12.5,270.46,0.172,0.3027,20,270.48,0,-3.5,-370.3,35.121,0.076,105.392,0,0,0,269.54,0,0,0,0,0,0,0,0,0,0,0,0,0,3,3,64.71,FLYING
65.13,APPROACH,ILS_TRACK,143.56,146,2.44,1539.69,-0.81,12.07,12.37,270.46,0.138,0.2728,20,270.46,0,-3.36,-366.7,35.043,0.065,104.135,0,0,0,269.54,0,0,0,0,0,0,0,0,0,0,0,0,0,3,3,65.2,FLYING
65.55,APPROACH,ILS_TRACK,143.75,146,2.25,1539.35,-0.73,12.02,12.28,270.46,0.134,0.2581,20,270.47,0,-3.25,-363.55,34.976,0.068,103.05,0,0,0,269.54,0,0,0,0,0,0,0,0,0,0,0,0,0,3,3,65.62,FLYING
65.97,APPROACH,ILS_TRACK,143.86,146,2.14,1539.06,-0.63,12.02,12.26,270.47,0.119,0.2553,20,270.46,0,-3.15,-360.34,34.909,0.062,102.001,0,0,0,269.54,0,0,0,0,0,0,0,0,0,0,0,0,0,3,3,66.04,FLYING
66.46,APPROACH,ILS_TRACK,143.91,146,2.09,1538.76,-0.58,12.05,12.26,270.47,0.111,0.2647,20,270.46,0,-3.03,-356.55,34.831,0.064,100.781,0,0,0,269.54,0,0,0,0,0,0,0,0,0,0,0,0,0,3,3,66.53,FLYING
66.88,APPROACH,ILS_TRACK,143.88,146,2.12,1538.54,-0.52,12.07,12.26,270.47,0.102,0.2838,20,270.45,0,-2.93,-353.28,34.764,0.055,99.736,0,0,0,269.54,0,0,0,0,0,0,0,0,0,0,0,0,0,3,3,66.95,FLYING
67.3,APPROACH,ILS_TRACK,143.8,146,2.2,1538.34,-0.5,12.12,12.29,270.47,0.102,0.3083,20,270.45,0,-2.83,-349.97,34.697,0.054,98.696,0,0,0,269.54,0,0,0,0,0,0,0,0,0,0,0,0,0,3,3,67.37,FLYING
67.79,APPROACH,ILS_TRACK,143.67,146,2.33,1538.13,-0.42,12.15,12.3,270.46,0.1,0.336,20,270.45,0,-2.71,-346.09,34.619,0.048,97.493,0,0,0,269.54,0,0,0,0,0,0,0,0,0,0,0,0,0,3,3,67.86,FLYING
68.21,APPROACH,ILS_TRACK,143.55,146,2.45,1537.97,-0.38,12.17,12.3,270.46,0.1,0.3606,20,270.45,0,-2.62,-342.75,34.552,0.049,96.463,0,0,0,269.54,0,0,0,0,0,0,0,0,0,0,0,0,0,3,3,68.28,FLYING
68.63,APPROACH,ILS_TRACK,143.43,146,2.57,1537.82,-0.33,12.18,12.3,270.46,0.1,0.3809,20,270.44,0,-2.52,-339.4,34.485,0.045,95.43,0,0,0,269.54,0,0,0,0,0,0,0,0,0,0,0,0,0,3,3,68.7,FLYING
69.12,APPROACH,ILS_TRACK,143.31,146,2.69,1537.67,-0.29,12.19,12.3,270.46,0.095,0.3968,20,270.44,0,-2.42,-335.47,34.407,0.042,94.225,0,0,0,269.54,0,0,0,0,0,0,0,0,0,0,0,0,0,3,3,69.19,FLYING
69.54,APPROACH,ILS_TRACK,143.23,146,2.77,1537.55,-0.26,12.19,12.28,270.46,0.096,0.406,20,270.44,0,-2.33,-332.09,34.34,0.038,93.189,0,0,0,269.54,0,0,0,0,0,0,0,0,0,0,0,0,0,3,3,69.61,FLYING
69.96,APPROACH,ILS_TRACK,143.18,146,2.82,1537.45,-0.23,12.18,12.27,270.46,0.09,0.41,20,270.43,0,-2.23,-328.7,34.273,0.034,92.151,0,0,0,269.54,0,0,0,0,0,0,0,0,0,0,0,0,0,3,3,70.03,FLYING
70.45,APPROACH,ILS_TRACK,143.16,146,2.84,1537.34,-0.19,12.17,12.24,270.46,0.09,0.4088,20,270.43,0,-2.13,-324.73,34.195,0.032,90.938,0,0,0,269.54,0,0,0,0,0,0,0,0,0,0,0,0,0,3,3,70.52,FLYING
70.87,APPROACH,ILS_TRACK,143.16,146,2.84,1537.26,-0.15,12.15,12.21,270.46,0.09,0.4032,20,270.43,0,-2.04,-321.31,34.129,0.028,89.89,0,0,0,269.54,0,0,0,0,0,0,0,0,0,0,0,0,0,3,3,70.94,FLYING
71.29,APPROACH,ILS_TRACK,143.19,146,2.81,1537.19,-0.12,12.13,12.18,270.46,0.088,0.3945,20,270.42,0,-1.95,-317.89,34.062,0.024,88.842,0,0,0,269.54,0,0,0,0,0,0,0,0,0,0,0,0,0,3,3,71.36,FLYING
71.78,APPROACH,ILS_TRACK,143.25,146,2.75,1537.12,-0.1,12.11,12.15,270.46,0.089,0.3831,20,270.42,0,-1.85,-313.88,33.984,0.023,87.615,0,0,0,269.54,0,0,0,0,0,0,0,0,0,0,0,0,0,3,3,71.85,FLYING
72.2,APPROACH,ILS_TRACK,143.32,146,2.68,1537.08,-0.09,12.1,12.14,270.46,0.089,0.371,20,270.42,0,-1.77,-310.43,33.917,0.021,86.554,0,0,0,269.54,0,0,0,0,0,0,0,0,0,0,0,0,0,3,3,72.27,FLYING
72.62,APPROACH,ILS_TRACK,143.4,146,2.6,1537.04,-0.07,12.09,12.11,270.46,0.089,0.3586,20,270.42,0,-1.68,-306.96,33.85,0.016,85.494,0,0,0,269.54,0,0,0,0,0,0,0,0,0,0,0,0,0,3,3,72.69,FLYING
73.11,APPROACH,ILS_TRACK,143.5,146,2.5,1537.01,-0.04,12.07,12.09,270.46,0.09,0.3459,20,270.41,0,-1.58,-302.91,33.772,0.01,84.254,0,0,0,269.54,0,0,0,0,0,0,0,0,0,0,0,0,0,3,3,73.18,FLYING
73.53,APPROACH,ILS_TRACK,143.58,146,2.42,1536.99,-0.02,12.06,12.07,270.46,0.093,0.3357,20,270.41,0,-1.5,-299.42,33.705,0.013,83.183,0,0,0,269.54,0,0,0,0,0,0,0,0,0,0,0,0,0,3,3,73.6,FLYING
73.95,APPROACH,ILS_TRACK,143.65,146,2.35,1536.99,-0.01,12.06,12.06,270.45,0.093,0.3282,20,270.41,0,-1.42,-295.92,33.638,0.008,82.112,0,0,0,269.54,0,0,0,0,0,0,0,0,0,0,0,0,0,3,3,74.02,FLYING
74.44,APPROACH,ILS_TRACK,143.72,146,2.28,1536.99,0.01,12.06,12.06,270.45,0.093,0.3237,20,270.4,0,-1.32,-291.83,33.56,0.005,80.861,0,0,0,269.54,0,0,0,0,0,0,0,0,0,0,0,0,0,3,3,74.51,FLYING
74.86,APPROACH,ILS_TRACK,143.76,146,2.24,1537,0.03,12.07,12.06,270.45,0.095,0.3232,20,270.4,0,-1.23,-288.31,33.493,-0.003,79.785,0,0,0,269.54,0,0,0,0,0,0,0,0,0,0,0,0,0,3,3,74.93,FLYING
75.28,APPROACH,ILS_TRACK,143.77,146,2.23,1537.02,0.05,12.08,12.07,270.45,0.098,0.3256,20,270.4,0,-1.16,-284.78,33.426,0.001,78.71,0,0,0,269.54,0,0,0,0,0,0,0,0,0,0,0,0,0,3,3,75.35,FLYING
75.77,APPROACH,ILS_TRACK,143.77,146,2.23,1537.05,0.07,12.1,12.07,270.45,0.101,0.3306,20,270.4,0,-1.07,-280.65,33.348,-0.004,77.457,0,0,0,269.54,0,0,0,0,0,0,0,0,0,0,0,0,0,3,3,75.84,FLYING
76.19,APPROACH,ILS_TRACK,143.76,146,2.24,1537.09,0.08,12.11,12.08,270.45,0.101,0.337,20,270.39,0,-0.99,-277.1,33.281,-0.006,76.38,0,0,0,269.54,0,0,0,0,0,0,0,0,0,0,0,0,0,3,3,76.26,FLYING
76.61,APPROACH,ILS_TRACK,143.73,146,2.27,1537.13,0.09,12.12,12.08,270.45,0.104,0.3438,20,270.39,0,-0.91,-273.55,33.214,-0.01,75.305,0,0,0,269.54,0,0,0,0,0,0,0,0,0,0,0,0,0,3,3,76.68,FLYING
77.1,APPROACH,ILS_TRACK,143.7,146,2.3,1537.18,0.11,12.12,12.08,270.44,0.107,0.3503,20,270.39,0,-0.82,-269.41,33.136,-0.011,74.051,0,0,0,269.54,0,0,0,0,0,0,0,0,0,0,0,0,0,3,3,77.17,FLYING
77.52,APPROACH,ILS_TRACK,143.68,146,2.32,1537.23,0.13,12.13,12.09,270.44,0.11,0.3555,20,270.39,0,-0.75,-265.85,33.069,-0.015,72.971,0,0,0,269.54,0,0,0,0,0,0,0,0,0,0,0,0,0,3,3,77.59,FLYING
77.94,APPROACH,ILS_TRACK,143.66,146,2.34,1537.29,0.13,12.13,12.08,270.44,0.113,0.3594,20,270.39,0,-0.68,-262.28,33.002,-0.014,71.894,0,0,0,269.54,0,0,0,0,0,0,0,0,0,0,0,0,0,3,3,78.01,FLYING
78.43,APPROACH,ILS_TRACK,143.64,146,2.36,1537.36,0.15,12.13,12.08,270.44,0.117,0.3619,20,270.38,0,-0.6,-258.12,32.924,-0.02,70.635,0,0,0,269.54,0,0,0,0,0,0,0,0,0,0,0,0,0,3,3,78.5,FLYING
78.85,APPROACH,ILS_TRACK,143.63,146,2.37,1537.42,0.17,12.13,12.07,270.44,0.122,0.3628,20,270.38,0,-0.53,-254.54,32.857,-0.018,69.552,0,0,0,269.54,0,0,0,0,0,0,0,0,0,0,0,0,0,3,3,78.92,FLYING
79.27,APPROACH,ILS_TRACK,143.63,146,2.37,1537.5,0.17,12.13,12.06,270.43,0.125,0.3623,20,270.38,0,-0.46,-250.96,32.79,-0.022,68.471,0,0,0,269.54,0,0,0,0,0,0,0,0,0,0,0,0,0,3,3,79.34,FLYING
79.76,APPROACH,ILS_TRACK,143.63,146,2.37,1537.58,0.19,12.12,12.05,270.43,0.126,0.3607,20,270.38,0,-0.39,-246.78,32.711,-0.023,67.207,0,0,0,269.54,0,0,0,0,0,0,0,0,0,0,0,0,0,3,3,79.83,FLYING
80.18,APPROACH,ILS_TRACK,143.65,146,2.35,1537.67,0.2,12.12,12.04,270.43,0.128,0.3583,20,270.37,0,-0.32,-243.19,32.644,-0.026,66.12,0,0,0,269.54,0,0,0,0,0,0,0,0,0,0,0,0,0,3,3,80.25,FLYING
80.6,APPROACH,ILS_TRACK,143.67,146,2.33,1537.75,0.2,12.11,12.04,270.43,0.132,0.3552,20,270.38,0,-0.26,-239.6,32.577,-0.023,65.033,0,0,0,269.54,0,0,0,0,0,0,0,0,0,0,0,0,0,3,3,80.67,FLYING
81.09,APPROACH,ILS_TRACK,143.69,146,2.31,1537.85,0.22,12.1,12.02,270.42,0.134,0.3516,20,270.37,0,-0.19,-235.4,32.499,-0.029,63.766,0,0,0,269.54,0,0,0,0,0,0,0,0,0,0,0,0,0,3,3,81.16,FLYING
81.51,APPROACH,ILS_TRACK,143.72,146,2.28,1537.95,0.23,12.1,12.02,270.42,0.136,0.3482,20,270.37,0,-0.13,-231.79,32.432,-0.029,62.674,0,0,0,269.54,0,0,0,0,0,0,0,0,0,0,0,0,0,3,3,81.58,FLYING
81.93,APPROACH,ILS_TRACK,143.74,146,2.26,1538.04,0.23,12.1,12.01,270.42,0.14,0.3449,20,270.38,0,-0.09,-228.19,32.365,-0.024,61.584,0,0,0,269.54,0,0,0,0,0,0,0,0,0,0,0,0,0,3,3,82,FLYING
82.42,APPROACH,ILS_TRACK,143.77,146,2.23,1538.16,0.25,12.09,12,270.42,0.141,0.3421,20,270.37,0,-0.02,-223.97,32.287,-0.032,60.312,0,0,0,269.54,0,0,0,0,0,0,0,0,0,0,0,0,0,3,3,82.49,FLYING
82.84,APPROACH,ILS_TRACK,143.79,146,2.21,1538.26,0.25,12.09,12,270.41,0.142,0.3403,20,270.37,0,0.02,-220.36,32.22,-0.028,59.218,0,0,0,269.54,0,0,0,0,0,0,0,0,0,0,0,0,0,3,3,82.91,FLYING
83.26,APPROACH,ILS_TRACK,143.81,146,2.19,1538.37,0.25,12.09,12,270.41,0.142,0.3393,20,270.37,0,0.07,-216.74,32.153,-0.03,58.125,0,0,0,269.54,0,0,0,0,0,0,0,0,0,0,0,0,0,3,3,83.33,FLYING
83.75,APPROACH,ILS_TRACK,143.82,146,2.18,1538.5,0.27,12.09,12,270.41,0.143,0.3392,20,270.37,0,0.12,-212.51,32.075,-0.033,56.851,0,0,0,269.54,0,0,0,0,0,0,0,0,0,0,0,0,0,3,3,83.82,FLYING
84.17,APPROACH,ILS_TRACK,143.83,146,2.17,1538.61,0.27,12.09,12,270.41,0.143,0.3401,20,270.37,0,0.16,-208.88,32.008,-0.029,55.757,0,0,0,269.54,0,0,0,0,0,0,0,0,0,0,0,0,0,3,3,84.24,FLYING
84.59,APPROACH,ILS_TRACK,143.83,146,2.17,1538.72,0.27,12.09,11.99,270.4,0.141,0.3413,20,270.37,0,0.2,-205.25,31.94,-0.033,54.664,0,0,0,269.54,0,0,0,0,0,0,0,0,0,0,0,0,0,3,3,84.66,FLYING
85.08,APPROACH,ILS_TRACK,143.83,146,2.17,1538.86,0.28,12.1,12,270.4,0.141,0.3431,20,270.37,0,0.24,-201.02,31.862,-0.032,53.388,0,0,0,269.54,0,0,0,0,0,0,0,0,0,0,0,0,0,3,3,85.15,FLYING
85.5,APPROACH,ILS_TRACK,143.82,146,2.18,1538.98,0.29,12.1,12,270.4,0.14,0.3449,20,270.37,0,0.27,-197.38,31.795,-0.028,52.296,0,0,0,269.54,0,0,0,0,0,0,0,0,0,0,0,0,0,3,3,85.57,FLYING
85.92,APPROACH,ILS_TRACK,143.82,146,2.18,1539.1,0.29,12.1,11.99,270.4,0.136,0.3464,20,270.37,0,0.3,-193.75,31.728,-0.028,51.201,0,0,0,269.54,0,0,0,0,0,0,0,0,0,0,0,0,0,3,3,85.99,FLYING
86.41,APPROACH,ILS_TRACK,143.81,146,2.19,1539.24,0.3,12.1,12,270.4,0.127,0.3478,20,270.36,0,0.34,-189.51,31.65,-0.036,49.924,0,0,0,269.54,0,0,0,0,0,0,0,0,0,0,0,0,0,3,3,86.48,FLYING
86.83,APPROACH,ILS_TRACK,143.81,146,2.19,1539.36,0.29,12.1,12,270.4,0.128,0.3487,20,270.37,0,0.36,-185.87,31.583,-0.027,48.831,0,0,0,269.54,0,0,0,0,0,0,0,0,0,0,0,0,0,3,3,86.9,FLYING
87.25,APPROACH,ILS_TRACK,143.81,146,2.19,1539.49,0.3,12.1,11.99,270.4,0.127,0.3492,20,270.37,0,0.39,-182.23,31.516,-0.03,47.736,0,0,0,269.54,0,0,0,0,0,0,0,0,0,0,0,0,0,3,3,87.32,FLYING
87.74,APPROACH,ILS_TRACK,143.81,146,2.19,1539.64,0.31,12.1,11.99,270.39,0.122,0.3493,20,270.37,0,0.41,-177.98,31.437,-0.029,46.458,0,0,0,269.54,0,0,0,0,0,0,0,0,0,0,0,0,0,3,3,87.81,FLYING
88.16,APPROACH,ILS_TRACK,143.81,146,2.19,1539.77,0.31,12.1,11.98,270.39,0.116,0.3491,20,270.37,0,0.43,-174.34,31.37,-0.028,45.362,0,0,0,269.54,0,0,0,0,0,0,0,0,0,0,0,0,0,3,3,88.23,FLYING
88.58,APPROACH,ILS_TRACK,143.81,146,2.19,1539.9,0.31,12.09,11.98,270.39,0.115,0.3486,20,270.37,0,0.45,-170.69,31.303,-0.028,44.265,0,0,0,269.54,0,0,0,0,0,0,0,0,0,0,0,0,0,3,3,88.65,FLYING
89.07,APPROACH,ILS_TRACK,143.82,146,2.18,1540.05,0.32,12.09,11.98,270.39,0.113,0.3478,20,270.37,0,0.47,-166.44,31.225,-0.028,42.988,0,0,0,269.54,0,0,0,0,0,0,0,0,0,0,0,0,0,3,3,89.14,FLYING
89.49,APPROACH,ILS_TRACK,143.83,146,2.17,1540.18,0.32,12.09,11.97,270.39,0.106,0.347,20,270.37,0,0.48,-162.79,31.158,-0.027,41.89,0,0,0,269.54,0,0,0,0,0,0,0,0,0,0,0,0,0,3,3,89.56,FLYING
89.91,APPROACH,ILS_TRACK,143.83,146,2.17,1540.31,0.32,12.09,11.97,270.39,0.102,0.3461,20,270.37,0,0.5,-159.14,31.091,-0.029,40.792,0,0,0,269.54,0,0,0,0,0,0,0,0,0,0,0,0,0,3,3,89.98,FLYING
90.4,APPROACH,ILS_TRACK,143.84,146,2.16,1540.47,0.32,12.08,11.96,270.39,0.098,0.3454,20,270.37,0,0.51,-154.88,31.013,-0.027,39.507,0,0,0,269.54,0,0,0,0,0,0,0,0,0,0,0,0,0,3,3,90.47,FLYING
90.82,APPROACH,ILS_TRACK,143.85,146,2.15,1540.61,0.35,12.08,11.96,270.39,0.098,0.3451,20,270.38,0,0.52,-151.23,30.945,-0.025,38.418,0,0,0,269.54,0,0,0,0,0,0,0,0,0,0,0,0,0,3,3,90.89,FLYING
91.24,APPROACH,ILS_TRACK,143.85,146,2.15,1540.74,0.34,12.07,11.95,270.39,0.092,0.3452,20,270.38,0,0.52,-147.57,30.878,-0.023,37.307,0,0,0,269.54,0,0,0,0,0,0,0,0,0,0,0,0,0,3,3,91.31,FLYING
91.73,APPROACH,ILS_TRACK,143.85,146,2.15,1540.9,0.33,12.09,11.97,270.39,0.085,0.3455,20,270.37,0,0.54,-143.31,30.8,-0.03,36.04,0,0,0,269.54,0,0,0,0,0,0,0,0,0,0,0,0,0,3,3,91.8,FLYING
92.15,APPROACH,ILS_TRACK,143.85,146,2.15,1541.04,0.33,12.08,11.96,270.39,0.084,0.3451,20,270.38,0,0.54,-139.66,30.733,-0.025,34.937,0,0,0,269.54,0,0,0,0,0,0,0,0,0,0,0,0,0,3,3,92.22,FLYING
92.57,APPROACH,ILS_TRACK,143.86,146,2.14,1541.18,0.33,12.08,11.96,270.39,0.083,0.3445,20,270.38,0,0.54,-136,30.666,-0.024,33.838,0,0,0,269.54,0,0,0,0,0,0,0,0,0,0,0,0,0,3,3,92.64,FLYING
93.06,APPROACH,ILS_TRACK,143.87,146,2.13,1541.35,0.34,12.08,11.96,270.39,0.081,0.3438,20,270.38,0,0.55,-131.74,30.588,-0.025,32.556,0,0,0,269.54,0,0,0,0,0,0,0,0,0,0,0,0,0,3,3,93.13,FLYING
93.48,APPROACH,ILS_TRACK,143.87,146,2.13,1541.49,0.34,12.08,11.96,270.39,0.078,0.3434,20,270.37,0,0.56,-128.08,30.52,-0.027,31.456,0,0,0,269.54,0,0,0,0,0,0,0,0,0,0,0,0,0,3,3,93.55,FLYING
93.9,APPROACH,ILS_TRACK,143.88,146,2.12,1541.63,0.34,12.08,11.96,270.39,0.078,0.3432,20,270.38,0,0.56,-124.42,30.453,-0.025,30.357,0,0,0,269.54,0,0,0,0,0,0,0,0,0,0,0,0,0,3,3,93.97,FLYING
94.39,APPROACH,ILS_TRACK,143.88,146,2.12,1541.79,0.35,12.08,11.96,270.39,0.077,0.3432,20,270.38,0,0.56,-120.15,30.375,-0.021,29.075,0,0,0,269.54,0,0,0,0,0,0,0,0,0,0,0,0,0,3,3,94.46,FLYING
94.81,APPROACH,ILS_TRACK,143.88,146,2.12,1541.94,0.34,12.08,11.95,270.39,0.075,0.3434,20,270.37,0,0.57,-116.49,30.308,-0.032,27.975,0,0,0,269.54,0,0,0,0,0,0,0,0,0,0,0,0,0,3,3,94.88,FLYING
95.23,APPROACH,ILS_TRACK,143.89,146,2.11,1542.08,0.34,12.08,11.95,270.39,0.072,0.3437,20,270.38,0,0.57,-112.83,30.241,-0.018,26.876,0,0,0,269.54,0,0,0,0,0,0,0,0,0,0,0,0,0,3,3,95.3,FLYING
95.72,APPROACH,ILS_TRACK,143.89,146,2.11,1542.25,0.35,12.08,11.96,270.39,0.07,0.3441,20,270.38,0,0.57,-108.56,30.162,-0.024,25.594,0,0,0,269.54,0,0,0,0,0,0,0,0,0,0,0,0,0,3,3,95.79,FLYING
96.14,APPROACH,ILS_TRACK,143.88,146,2.12,1542.39,0.35,12.08,11.95,270.39,0.069,0.3445,20,270.38,0,0.57,-104.9,30.095,-0.023,24.495,0,0,0,269.54,0,0,0,0,0,0,0,0,0,0,0,0,0,3,3,96.21,FLYING
96.56,APPROACH,ILS_TRACK,143.88,146,2.12,1542.54,0.35,12.08,11.95,270.39,0.066,0.3449,20,270.37,0,0.58,-101.24,30.028,-0.027,23.395,0,0,0,269.54,0,0,0,0,0,0,0,0,0,0,0,0,0,3,3,96.63,FLYING
97.05,APPROACH,ILS_TRACK,143.88,146,2.12,1542.7,0.35,12.08,11.96,270.39,0.065,0.3452,20,270.38,0,0.57,-96.96,29.95,-0.022,22.112,0,0,0,269.54,0,0,0,0,0,0,0,0,0,0,0,0,0,3,3,97.12,FLYING
97.47,APPROACH,ILS_TRACK,143.88,146,2.12,1542.85,0.35,12.08,11.95,270.39,0.065,0.3453,20,270.38,0,0.57,-93.3,29.883,-0.021,21.014,0,0,0,269.54,0,0,0,0,0,0,0,0,0,0,0,0,0,3,3,97.54,FLYING
97.89,APPROACH,ILS_TRACK,143.88,146,2.12,1542.99,0.35,12.07,11.95,270.39,0.064,0.3453,20,270.37,0,0.58,-89.64,29.816,-0.028,19.914,0,0,0,269.54,0,0,0,0,0,0,0,0,0,0,0,0,0,3,3,97.96,FLYING
98.38,APPROACH,ILS_TRACK,143.88,146,2.12,1543.16,0.35,12.08,11.95,270.39,0.063,0.3453,20,270.38,0,0.57,-85.36,29.737,-0.018,18.63,0,0,0,269.54,0,0,0,0,0,0,0,0,0,0,0,0,0,3,3,98.45,FLYING
98.8,APPROACH,ILS_TRACK,143.89,146,2.11,1543.31,0.35,12.07,11.95,270.39,0.061,0.3451,20,270.38,0,0.57,-81.7,29.67,-0.024,17.531,0,0,0,269.54,0,0,0,0,0,0,0,0,0,0,0,0,0,3,3,98.87,FLYING
99.22,APPROACH,ILS_TRACK,143.89,146,2.11,1543.45,0.35,12.07,11.94,270.39,0.059,0.3449,20,270.37,0,0.58,-78.03,29.603,-0.027,16.431,0,0,0,269.54,0,0,0,0,0,0,0,0,0,0,0,0,0,3,3,99.29,FLYING
99.71,APPROACH,ILS_TRACK,143.89,146,2.11,1543.63,0.35,12.07,11.95,270.39,0.059,0.3447,20,270.38,0,0.58,-73.76,29.525,-0.022,15.148,0,0,0,269.54,0,0,0,0,0,0,0,0,0,0,0,0,0,3,3,99.78,FLYING
100.13,APPROACH,ILS_TRACK,143.89,146,2.11,1543.77,0.36,12.07,11.95,270.39,0.06,0.3445,20,270.38,0,0.57,-70.1,29.458,-0.022,14.049,0,0,0,269.54,0,0,0,0,0,0,0,0,0,0,0,0,0,3,3,100.2,FLYING
100.55,APPROACH,ILS_TRACK,143.9,145.33,1.43,1543.92,0.36,12.07,11.94,270.39,0.059,0.3106,20,270.38,0,0.57,-66.43,29.39,-0.021,12.948,0,0,0,269.54,0,0,0,0,0,0,0,0,0,0,0,0,0,3,3,100.62,FLYING
101.04,APPROACH,ILS_TRACK,143.89,144.54,0.65,1544.09,0.34,12.08,11.96,270.39,0.059,0.2719,20,270.38,0,0.57,-62.15,29.312,-0.025,11.66,0,0,0,269.54,0,0,0,0,0,0,0,0,0,0,0,0,0,3,3,101.11,FLYING
101.46,APPROACH,ILS_TRACK,143.86,143.87,0.01,1544.24,0.35,12.11,11.98,270.39,0.06,0.2425,20,270.38,0,0.57,-58.48,29.245,-0.023,10.56,0,0,0,269.54,0,0,0,0,0,0,0,0,0,0,0,0,0,3,3,101.53,FLYING
101.88,APPROACH,ILS_TRACK,143.79,143.2,-0.59,1544.4,0.35,12.17,12.05,270.39,0.059,0.2168,19.747,270.38,0,0.57,-54.81,29.178,-0.023,9.454,0,0,0,269.54,0,0,0,0,0,0,0,0,0,0,0,0,0,3,3,101.95,FLYING
102.37,APPROACH,ILS_TRACK,143.62,142.42,-1.2,1544.58,0.33,12.25,12.13,270.39,0.06,0.1916,19.143,270.37,0,0.58,-50.53,29.1,-0.025,8.169,0,0,0,269.54,0,0,0,0,0,0,0,0,0,0,0,0,0,3,3,102.44,FLYING
102.79,APPROACH,ILS_TRACK,143.4,141.74,-1.66,1544.74,0.3,12.34,12.22,270.39,0.06,0.1796,18.429,270.38,0,0.57,-46.86,29.033,-0.021,7.072,0,0,0,269.54,0,0,0,0,0,0,0,0,0,0,0,0,0,3,3,102.86,FLYING
103.21,APPROACH,ILS_TRACK,143.11,141.07,-2.03,1544.9,0.3,12.45,12.33,270.39,0.061,0.1745,17.552,270.38,0,0.58,-43.2,28.966,-0.025,5.983,0,0,0,269.54,0,0,0,0,0,0,0,0,0,0,0,0,0,3,3,103.28,FLYING
103.7,APPROACH,ILS_TRACK,142.67,140.29,-2.38,1545.08,0.29,12.6,12.48,270.39,0.06,0.1719,16.353,270.38,0,0.57,-38.94,28.888,-0.021,4.719,0,0,0,269.54,0,0,0,0,0,0,0,0,0,0,0,0,0,3,3,103.77,FLYING
104.12,APPROACH,ILS_TRACK,142.21,140,-2.21,1545.24,0.28,12.74,12.62,270.39,0.061,0.2011,15.39,270.38,0,0.58,-35.29,28.822,-0.024,3.646,0,0,0,269.54,0,0,0,0,0,0,0,0,0,0,0,0,0,3,3,104.19,FLYING
104.54,APPROACH,ILS_TRACK,141.7,140,-1.7,1545.39,0.39,12.81,12.71,270.39,0.073,0.2512,14.639,270.38,-0.419,0.57,-31.66,28.755,-0.023,2.581,0,0,0,269.54,0,0,0,0,0,0,0,0,0,0,0,0,0,3,3,104.61,FLYING
105.03,APPROACH,ILS_TRACK,141.06,140,-1.06,1545.26,0.4,11.59,11.56,270.38,0.118,0.3104,14.081,270.38,-1.285,0.58,-27.63,28.678,-0.023,1.715,0,0,0,269.54,0,0,0,0,0,0,0,0,0,0,0,0,0,3,3,105.1,FLYING
105.45,APPROACH,ILS_TRACK,140.68,140,-0.68,1544.9,-0.13,10.06,10.19,270.38,0.136,0.3369,13.777,270.38,-1.738,0.57,-24.45,28.612,-0.022,1.262,0,0,0,269.54,0,0,0,0,0,0,0,0,0,0,0,0,0,3,3,105.52,FLYING
105.87,APPROACH,ILS_TRACK,140.45,140,-0.45,1544.46,-0.97,9.45,9.84,270.37,0.144,0.3338,13.574,270.38,-2.343,0.58,-21.42,28.547,-0.025,0.657,0,0,0,269.54,0,0,0,0,0,0,0,0,0,0,0,0,0,3,3,105.94,FLYING
106.36,APPROACH,ILS_TRACK,140.32,140,-0.32,1543.49,-1.81,8.42,9.14,270.37,0.148,0.3162,13.412,270.38,-2.835,0.56,-18.18,28.47,-0.017,0.165,0,0,0,269.54,0,0,0,0,0,0,0,0,0,0,0,0,0,3,3,106.43,FLYING
106.78,APPROACH,ILS_TRACK,140.34,140,-0.34,1542.31,-2.93,7.81,8.85,270.37,0.127,0.2799,13.273,270.38,-2.783,0.56,-15.8,28.405,-0.017,0.217,0,0,0,269.54,0,0,0,0,0,0,0,0,0,0,0,0,0,3,3,106.85,FLYING
107.2,APPROACH,ILS_TRACK,140.38,140,-0.38,1540.99,-3.9,8.36,9.73,270.37,0.115,0.2433,13.116,270.38,-3.038,0.55,-13.64,28.339,-0.019,-0.038,0,0,0,269.54,0,0,0,0,0,0,0,0,0,0,0,0,0,3,3,107.27,FLYING
107.69,APPROACH,ILS_TRACK,140.4,140,-0.4,1538.94,-4.56,8.42,10.07,270.37,0.103,0.2171,12.923,270.39,-3.1,0.54,-11.47,28.263,-0.014,-0.1,0,0,0,269.54,0,0,0,0,0,0,0,0,0,0,0,0,0,3,3,107.76,FLYING
108.11,APPROACH,ILS_TRACK,140.4,140,-0.4,1536.91,-5.26,8.58,10.45,270.37,0.079,0.1969,12.753,270.38,-2.85,0.53,-9.98,28.197,-0.015,0.15,0,0,0,269.54,0,0,0,0,0,0,0,0,0,0,0,0,0,3,3,108.18,FLYING
108.53,APPROACH,ILS_TRACK,140.34,140,-0.34,1534.73,-5.71,9.17,11.23,270.38,0.064,0.1901,12.603,270.39,-2.93,0.51,-8.65,28.132,-0.008,0.07,0,0,0,269.54,0,0,0,0,0,0,0,0,0,0,0,0,0,3,3,108.6,FLYING
109.02,APPROACH,ILS_TRACK,140.16,140,-0.16,1531.91,-6.11,9.45,11.66,270.38,0.031,0.2033,12.51,270.39,-2.874,0.49,-7.37,28.055,-0.01,0.126,0,0,0,269.54,0,0,0,0,0,0,0,0,0,0,0,0,0,3,3,109.09,FLYING
109.44,APPROACH,ILS_TRACK,139.93,140,0.07,1529.37,-6.42,9.76,12.07,270.39,0.024,0.2269,12.52,270.39,-2.812,0.48,-6.45,27.99,-0.013,0.188,0,0,0,269.54,0,0,0,0,0,0,0,0,0,0,0,0,0,3,3,109.51,FLYING
109.86,APPROACH,ILS_TRACK,139.65,140,0.35,1526.75,-6.45,10.16,12.56,270.39,0.026,0.2602,12.646,270.39,-2.923,0.46,-5.61,27.925,-0.006,0.077,0,0,0,269.54,0,0,0,0,0,0,0,0,0,0,0,0,0,3,3,109.93,FLYING
110.35,APPROACH,ILS_TRACK,139.26,140,0.74,1523.42,-6.7,9.66,12.13,270.39,0.014,0.3056,12.987,270.39,-2.716,0.44,-4.89,27.849,-0.011,0.284,0,0,0,269.54,0,0,0,0,0,0,0,0,0,0,0,0,0,3,3,110.42,FLYING
110.77,APPROACH,ILS_TRACK,138.98,140,1.02,1520.62,-7.15,10.1,12.65,270.39,0.012,0.3342,13.395,270.39,-2.764,0.43,-4.33,27.784,-0.009,0.236,0,0,0,269.54,0,0,0,0,0,0,0,0,0,0,0,0,0,3,3,110.84,FLYING
111.19,APPROACH,ILS_TRACK,138.67,140,1.33,1517.8,-6.94,10.64,13.25,270.39,0.017,0.3665,13.93,270.39,-3.089,0.42,-3.7,27.719,-0.009,-0.089,0,0,0,269.54,0,0,0,0,0,0,0,0,0,0,0,0,0,3,3,111.26,FLYING
111.68,APPROACH,ILS_TRACK,138.29,140,1.71,1514.16,-7.01,9.69,12.34,270.39,0.015,0.4099,14.749,270.39,-2.691,0.41,-3.29,27.644,-0.011,0.309,0,0,0,269.54,0,0,0,0,0,0,0,0,0,0,0,0,0,3,3,111.75,FLYING
112.1,APPROACH,ILS_TRACK,138.14,140,1.86,1511.09,-7.52,9.64,12.38,270.39,0.012,0.4183,15.523,270.39,-2.579,0.4,-3.03,27.58,-0.013,0.421,0,0,0,269.54,0,0,0,0,0,0,0,0,0,0,0,0,0,3,3,112.17,FLYING
112.52,APPROACH,ILS_TRACK,138.01,140,1.99,1508.13,-7.61,10.58,13.38,270.39,0.018,0.4209,16.348,270.39,-2.943,0.39,-2.64,27.515,-0.012,0.057,0,0,0,269.54,0,0,0,0,0,0,0,0,0,0,0,0,0,3,3,112.59,FLYING
113.01,APPROACH,ILS_TRACK,137.81,140,2.19,1504.47,-7.55,10.62,13.42,270.4,0.015,0.4392,17.411,270.39,-2.862,0.39,-2.3,27.44,-0.012,0.138,0,0,0,269.54,0,0,0,0,0,0,0,0,0,0,0,0,0,3,3,113.08,FLYING
113.43,APPROACH,ILS_TRACK,137.72,140,2.28,1501.33,-7.5,10.66,13.45,270.4,0.014,0.4427,18.362,270.39,-2.809,0.38,-2.08,27.376,-0.011,0.191,0,0,0,269.54,0,0,0,0,0,0,0,0,0,0,0,0,0,3,3,113.5,FLYING
113.85,APPROACH,ILS_TRACK,137.68,140,2.32,1498.18,-7.43,10.61,13.4,270.4,0.015,0.4405,19.334,270.39,-2.863,0.38,-1.86,27.312,-0.012,0.137,0,0,0,269.54,0,0,0,0,0,0,0,0,0,0,0,0,0,3,3,113.92,FLYING
114.34,APPROACH,ILS_TRACK,137.7,140,2.3,1494.51,-7.39,10.52,13.3,270.4,0.019,0.4284,20,270.38,-2.937,0.38,-1.6,27.237,-0.016,0.063,0,0,0,269.54,0,0,0,0,0,0,0,0,0,0,0,0,0,3,3,114.41,FLYING
114.76,APPROACH,ILS_TRACK,137.78,140,2.22,1491.36,-7.39,10.42,13.2,270.4,0.025,0.4028,20,270.39,-2.976,0.38,-1.39,27.173,-0.014,0.024,0,0,0,269.54,0,0,0,0,0,0,0,0,0,0,0,0,0,3,3,114.83,FLYING
115.18,APPROACH,ILS_TRACK,137.9,140,2.1,1488.2,-7.46,10.29,13.09,270.4,0.027,0.3738,20,270.38,-3.021,0.38,-1.19,27.109,-0.016,-0.021,0,0,0,269.54,0,0,0,0,0,0,0,0,0,0,0,0,0,3,3,115.25,FLYING
115.67,APPROACH,ILS_TRACK,138.08,140,1.92,1484.49,-7.41,10.15,12.95,270.4,0.042,0.3403,20,270.38,-3.115,0.38,-0.95,27.034,-0.018,-0.115,0,0,0,269.54,0,0,0,0,0,0,0,0,0,0,0,0,0,3,3,115.74,FLYING
116.09,APPROACH,ILS_TRACK,138.27,140,1.73,1481.26,-7.67,9.9,12.73,270.39,0.058,0.3101,20,270.38,-3.016,0.39,-0.81,26.969,-0.017,-0.016,0,0,0,269.54,0,0,0,0,0,0,0,0,0,0,0,0,0,3,3,116.16,FLYING
116.51,APPROACH,ILS_TRACK,138.46,140,1.54,1478.09,-7.55,10.11,12.97,270.39,0.065,0.2799,20,270.38,-3.229,0.39,-0.6,26.905,-0.016,-0.229,0,0,0,269.54,0,0,0,0,0,0,0,0,0,0,0,0,0,3,3,116.58,FLYING
117,APPROACH,ILS_TRACK,138.63,140,1.37,1474.19,-7.77,9.46,12.35,270.39,0.075,0.2622,20,270.38,-2.977,0.39,-0.52,26.83,-0.018,0.023,0,0,0,269.54,0,0,0,0,0,0,0,0,0,0,0,0,0,3,3,117.07,FLYING
117.42,APPROACH,ILS_TRACK,138.8,140,1.2,1470.96,-8.04,9.92,12.86,270.39,0.061,0.2411,20,270.38,-3.061,0.4,-0.42,26.765,-0.022,-0.061,0,0,0,269.54,0,0,0,0,0,0,0,0,0,0,0,0,0,3,3,117.49,FLYING
117.84,APPROACH,ILS_TRACK,138.88,140,1.12,1467.67,-7.85,10.08,13.03,270.39,0.061,0.2377,20,270.39,-3.21,0.4,-0.27,26.701,-0.013,-0.21,0,0,0,269.54,0,0,0,0,0,0,0,0,0,0,0,0,0,3,3,117.91,FLYING
118.33,APPROACH,ILS_TRACK,138.9,140,1.1,1463.72,-8.07,9.84,12.8,270.39,0.055,0.2459,20,270.38,-2.921,0.4,-0.27,26.625,-0.018,0.079,0,0,0,269.54,0,0,0,0,0,0,0,0,0,0,0,0,0,3,3,118.4,FLYING
118.75,APPROACH,ILS_TRACK,138.88,140,1.12,1460.42,-8,10.19,13.17,270.39,0.056,0.2572,20,270.38,-3.092,0.41,-0.19,26.561,-0.019,-0.092,0,0,0,269.54,0,0,0,0,0,0,0,0,0,0,0,0,0,3,3,118.82,FLYING
119.17,APPROACH,ILS_TRACK,138.79,140,1.21,1457.06,-8.04,10.25,13.23,270.39,0.05,0.2783,20,270.39,-3.001,0.4,-0.16,26.496,-0.013,-0.001,0,0,0,269.54,0,0,0,0,0,0,0,0,0,0,0,0,0,3,3,119.24,FLYING
119.66,APPROACH,ILS_TRACK,138.67,140,1.33,1453.16,-7.98,10.3,13.28,270.4,0.04,0.3006,20,270.38,-3.026,0.41,-0.12,26.421,-0.019,-0.026,0,0,0,269.54,0,0,0,0,0,0,0,0,0,0,0,0,0,3,3,119.73,FLYING
120.08,APPROACH,ILS_TRACK,138.55,140,1.45,1449.81,-7.97,10.33,13.3,270.4,0.039,0.3211,20,270.38,-3.014,0.41,-0.1,26.357,-0.02,-0.014,0,0,0,269.54,0,0,0,0,0,0,0,0,0,0,0,0,0,3,3,120.15,FLYING
120.5,APPROACH,ILS_TRACK,138.44,140,1.56,1446.47,-7.95,10.34,13.31,270.4,0.038,0.3383,20,270.38,-3.034,0.42,-0.07,26.293,-0.017,-0.034,0,0,0,269.54,0,0,0,0,0,0,0,0,0,0,0,0,0,3,3,120.57,FLYING
120.99,APPROACH,ILS_TRACK,138.33,140,1.67,1442.58,-7.95,10.35,13.31,270.4,0.036,0.3519,20,270.38,-3.041,0.42,-0.04,26.218,-0.02,-0.041,0,0,0,269.54,0,0,0,0,0,0,0,0,0,0,0,0,0,3,3,121.06,FLYING
121.41,APPROACH,ILS_TRACK,138.25,140,1.75,1439.24,-7.89,10.33,13.29,270.4,0.038,0.3597,20,270.38,-3.064,0.43,0,26.153,-0.022,-0.064,0,0,0,269.54,0,0,0,0,0,0,0,0,0,0,0,0,0,3,3,121.48,FLYING
121.83,APPROACH,ILS_TRACK,138.2,140,1.8,1435.92,-7.9,10.32,13.28,270.4,0.039,0.363,20,270.38,-3.069,0.44,0.03,26.089,-0.022,-0.069,0,0,0,269.54,0,0,0,0,0,0,0,0,0,0,0,0,0,3,3,121.9,FLYING
122.32,APPROACH,ILS_TRACK,138.17,140,1.83,1432.03,-7.88,10.28,13.24,270.4,0.042,0.3617,20,270.38,-3.086,0.44,0.07,26.014,-0.021,-0.086,0,0,0,269.54,0,0,0,0,0,0,0,0,0,0,0,0,0,3,3,122.39,FLYING
122.74,APPROACH,ILS_TRACK,138.17,140,1.83,1428.71,-7.9,10.27,13.22,270.4,0.043,0.3561,20,270.38,-3.089,0.45,0.1,25.95,-0.021,-0.089,0,0,0,269.54,0,0,0,0,0,0,0,0,0,0,0,0,0,3,3,122.81,FLYING
123.16,APPROACH,ILS_TRACK,138.19,140,1.81,1425.38,-7.87,10.22,13.18,270.4,0.047,0.3479,20,270.38,-3.107,0.46,0.13,25.886,-0.024,-0.107,0,0,0,269.54,0,0,0,0,0,0,0,0,0,0,0,0,0,3,3,123.23,FLYING
123.65,APPROACH,ILS_TRACK,138.24,140,1.76,1421.49,-7.86,10.19,13.14,270.4,0.054,0.3378,20,270.38,-3.125,0.46,0.18,25.811,-0.023,-0.125,0,0,0,269.54,0,0,0,0,0,0,0,0,0,0,0,0,0,3,3,123.72,FLYING
124.07,APPROACH,ILS_TRACK,138.29,140,1.71,1418.16,-7.93,10.17,13.13,270.4,0.059,0.3275,20,270.38,-3.093,0.47,0.2,25.747,-0.024,-0.093,0,0,0,269.54,0,0,0,0,0,0,0,0,0,0,0,0,0,3,3,124.14,FLYING
124.49,APPROACH,ILS_TRACK,138.35,140,1.65,1414.83,-7.88,10.13,13.09,270.4,0.06,0.3165,20,270.38,-3.137,0.48,0.23,25.683,-0.025,-0.137,0,0,0,269.54,0,0,0,0,0,0,0,0,0,0,0,0,0,3,3,124.56,FLYING
124.98,APPROACH,ILS_TRACK,138.44,140,1.56,1410.93,-7.96,10.12,13.08,270.4,0.065,0.3052,20,270.37,-3.114,0.5,0.25,25.608,-0.027,-0.114,0,0,0,269.54,0,0,0,0,0,0,0,0,0,0,0,0,0,3,3,125.05,FLYING
125.4,APPROACH,ILS_TRACK,138.5,140,1.5,1407.59,-7.92,10.11,13.08,270.39,0.069,0.2963,20,270.38,-3.133,0.5,0.28,25.544,-0.023,-0.133,0,0,0,269.54,0,0,0,0,0,0,0,0,0,0,0,0,0,3,3,125.47,FLYING
125.82,APPROACH,ILS_TRACK,138.56,140,1.44,1404.25,-7.98,10.11,13.08,270.39,0.07,0.2898,20,270.37,-3.121,0.51,0.3,25.48,-0.025,-0.121,0,0,0,269.54,0,0,0,0,0,0,0,0,0,0,0,0,0,3,3,125.89,FLYING
126.31,APPROACH,ILS_TRACK,138.62,140,1.38,1400.34,-7.94,10.09,13.07,270.39,0.072,0.2859,20,270.38,-3.14,0.52,0.32,25.405,-0.024,-0.14,0,0,0,269.54,0,0,0,0,0,0,0,0,0,0,0,0,0,3,3,126.38,FLYING
126.73,APPROACH,ILS_TRACK,138.65,140,1.35,1396.99,-8.01,10.11,13.09,270.39,0.071,0.2854,20,270.37,-3.122,0.52,0.33,25.341,-0.026,-0.122,0,0,0,269.54,0,0,0,0,0,0,0,0,0,0,0,0,0,3,3,126.8,FLYING
127.15,APPROACH,ILS_TRACK,138.65,140,1.35,1393.64,-7.96,10.11,13.09,270.39,0.073,0.2876,20,270.37,-3.138,0.53,0.35,25.277,-0.027,-0.138,0,0,0,269.54,0,0,0,0,0,0,0,0,0,0,0,0,0,3,3,127.22,FLYING
127.64,APPROACH,ILS_TRACK,138.65,140,1.35,1389.73,-7.99,10.15,13.14,270.39,0.073,0.2921,20,270.37,-3.121,0.54,0.36,25.202,-0.027,-0.121,0,0,0,269.54,0,0,0,0,0,0,0,0,0,0,0,0,0,3,3,127.71,FLYING
128.06,APPROACH,ILS_TRACK,138.63,140,1.37,1386.37,-7.97,10.13,13.11,270.39,0.073,0.2981,20,270.38,-3.138,0.55,0.37,25.138,-0.023,-0.138,0,0,0,269.54,0,0,0,0,0,0,0,0,0,0,0,0,0,3,3,128.13,FLYING
128.48,APPROACH,ILS_TRACK,138.61,140,1.39,1383.02,-8.03,10.16,13.14,270.39,0.071,0.3041,20,270.37,-3.115,0.55,0.37,25.073,-0.026,-0.115,0,0,0,269.54,0,0,0,0,0,0,0,0,0,0,0,0,0,3,3,128.55,FLYING
128.97,APPROACH,ILS_TRACK,138.57,140,1.43,1379.1,-7.97,10.16,13.14,270.39,0.071,0.3106,20,270.37,-3.129,0.56,0.38,24.999,-0.025,-0.129,0,0,0,269.54,0,0,0,0,0,0,0,0,0,0,0,0,0,3,3,129.04,FLYING
129.39,APPROACH,ILS_TRACK,138.55,140,1.45,1375.75,-8.02,10.18,13.17,270.39,0.069,0.3151,20,270.38,-3.114,0.56,0.38,24.934,-0.024,-0.114,0,0,0,269.54,0,0,0,0,0,0,0,0,0,0,0,0,0,3,3,129.46,FLYING
129.81,APPROACH,ILS_TRACK,138.52,140,1.48,1372.39,-7.99,10.17,13.16,270.39,0.069,0.3189,20,270.37,-3.122,0.57,0.39,24.87,-0.027,-0.122,0,0,0,269.54,0,0,0,0,0,0,0,0,0,0,0,0,0,3,3,129.88,FLYING
130.3,APPROACH,ILS_TRACK,138.5,140,1.5,1368.47,-7.99,10.17,13.15,270.39,0.069,0.3211,20,270.38,-3.117,0.57,0.39,24.796,-0.025,-0.117,0,0,0,269.54,0,0,0,0,0,0,0,0,0,0,0,0,0,3,3,130.37,FLYING
130.72,APPROACH,ILS_TRACK,138.49,140,1.51,1365.12,-7.98,10.17,13.16,270.39,0.067,0.3216,20,270.38,-3.114,0.57,0.39,24.732,-0.024,-0.114,0,0,0,269.54,0,0,0,0,0,0,0,0,0,0,0,0,0,3,3,130.79,FLYING
131.14,APPROACH,ILS_TRACK,138.49,140,1.51,1361.76,-7.98,10.16,13.15,270.39,0.067,0.3207,20,270.37,-3.115,0.58,0.39,24.668,-0.025,-0.115,0,0,0,269.54,0,0,0,0,0,0,0,0,0,0,0,0,0,3,3,131.21,FLYING
131.63,APPROACH,ILS_TRACK,138.5,140,1.5,1357.85,-7.97,10.15,13.14,270.39,0.066,0.3188,20,270.37,-3.115,0.58,0.39,24.593,-0.025,-0.115,0,0,0,269.54,0,0,0,0,0,0,0,0,0,0,0,0,0,3,3,131.7,FLYING
132.05,APPROACH,ILS_TRACK,138.51,140,1.49,1354.49,-7.98,10.15,13.13,270.39,0.067,0.3162,20,270.38,-3.114,0.58,0.38,24.529,-0.024,-0.114,0,0,0,269.54,0,0,0,0,0,0,0,0,0,0,0,0,0,3,3,132.12,FLYING
132.47,APPROACH,ILS_TRACK,138.53,140,1.47,1351.14,-7.98,10.14,13.13,270.39,0.067,0.3131,20,270.37,-3.116,0.59,0.38,24.465,-0.027,-0.116,0,0,0,269.54,0,0,0,0,0,0,0,0,0,0,0,0,0,3,3,132.54,FLYING
132.96,APPROACH,ILS_TRACK,138.55,140,1.45,1347.23,-7.97,10.13,13.12,270.39,0.068,0.3096,20,270.38,-3.114,0.59,0.38,24.39,-0.024,-0.114,0,0,0,269.54,0,0,0,0,0,0,0,0,0,0,0,0,0,3,3,133.03,FLYING
133.38,APPROACH,ILS_TRACK,138.57,140,1.43,1343.88,-7.97,10.12,13.11,270.39,0.068,0.3063,20,270.37,-3.117,0.6,0.39,24.326,-0.026,-0.117,0,0,0,269.54,0,0,0,0,0,0,0,0,0,0,0,0,0,3,3,133.45,FLYING
133.8,APPROACH,ILS_TRACK,138.6,140,1.4,1340.52,-7.98,10.12,13.1,270.39,0.068,0.3034,20,270.38,-3.117,0.6,0.39,24.262,-0.024,-0.117,0,0,0,269.54,0,0,0,0,0,0,0,0,0,0,0,0,0,3,3,133.87,FLYING
