t_s,phase,subphase,ias_ms,vapp_ms,spd_err_ms,agl_m,vs_ms,pitch_deg,aoa_deg,hdg_deg,bank_deg,thr_cmd,thr_cur,thr_intg,at_gain,at_tau_s,at_a_up,at_a_dn,at_kp_thr,at_ki_spd,at_thr_slew,aa_hdg_cmd_deg,aa_fpa_cmd_deg,ils_loc_m,ils_gs_m,ils_dist_km,loc_corr_deg,gs_corr_deg,flare_fpa_cmd,flare_tgt_vs,flare_frac,steer_hdg_deg,steer_blend,ro_loc_corr_deg,ro_hdg_err_deg,ro_yaw_tgt,ro_yaw_scale,ro_yaw_gate,yaw_cmd,roll_cmd,pitch_cmd,ro_pitch_tgt_deg,ro_pitch_err_deg,ro_pitch_ff,ro_roll_assist,flaps_cur,flaps_tgt,phase_el_s,status
1,APPROACH,FLY_TO_FIX,93.93,75.4,-18.53,6221.28,-2.3,4.99,5.87,83.75,0.043,0,0,0,1,0.6,0.9,0.75,0.35,0.0168,0.4,62.28,-6,0,0,0,0,0,0,0,0,83.76,0,0,0,0,0,0,0,0,0,0,0,0,0,0,0,1.04,FLYING
1.72,APPROACH,FLY_TO_FIX,93.87,75.8,-18.07,6229.1,-2.26,5.03,5.92,83.17,4.696,0,0,0,1,0.6,0.9,0.75,0.35,0.0168,0.4,62.02,-6,0,0,0,0,0,0,0,0,83.76,0,0,0,0,0,0,0,0,0,0,0,0,0,0,0,1.78,FLYING
2.44,APPROACH,FLY_TO_FIX,93.71,76.2,-17.51,6237.35,-2.4,4.48,5.68,81.59,15.965,0,0,0,1,0.6,0.9,0.75,0.35,0.0168,0.4,61.77,-6,0,0,0,0,0,0,0,0,83.76,0,0,0,0,0,0,0,0,0,0,0,0,0,0,0,2.5,FLYING
3.16,APPROACH,FLY_TO_FIX,93.54,76.6,-16.94,6241.03,-3.38,3.18,5.32,79.43,30.162,0,0,0,1,0.6,0.9,0.75,0.35,0.0168,0.4,61.52,-6,0,0,0,0,0,0,0,0,83.76,0,0,0,0,0,0,0,0,0,0,0,0,0,0,0,3.22,FLYING
3.88,APPROACH,FLY_TO_FIX,93.24,77,-16.24,6246.33,-4.31,4.2,8.32,74.66,44.927,0,0,0,1,0.6,0.9,0.75,0.35,0.0168,0.4,61.28,-6,0,0,0,0,0,0,0,0,83.76,0,0,0,0,0,0,0,0,0,0,0,0,0,0,0,3.94,FLYING
4.6,APPROACH,FLY_TO_FIX,92.77,77.4,-15.37,6249.75,-5.53,2.81,8.18,71.62,51.655,0,0,0,1,0.6,0.9,0.75,0.35,0.0168,0.4,61.05,-6,0,0,0,0,0,0,0,0,83.76,0,0,0,0,0,0,0,0,0,0,0,0,0,0,0,4.66,FLYING
5.32,APPROACH,FLY_TO_FIX,92.34,77.8,-14.54,6253.26,-7.34,2.13,7.56,70.04,47.69,0,0,0,1,0.6,1.01,0.75,0.35,0.0168,0.4,60.85,-6,0,0,0,0,0,0,0,0,83.76,0,0,0,0,0,0,0,0,0,0,0,0,0,0,0,5.38,FLYING
6.04,APPROACH,FLY_TO_FIX,92.04,78.2,-13.84,6250.65,-8.77,1.99,7.13,69.05,40.504,0,0,0,1,0.6,1.113,0.75,0.35,0.0168,0.4,60.68,-6,0,0,0,0,0,0,0,0,83.76,0,0,0,0,0,0,0,0,0,0,0,0,0,0,0,6.1,FLYING
6.78,APPROACH,FLY_TO_FIX,91.81,78.6,-13.21,6248.24,-9.83,1.89,6.98,67.93,35.102,0,0,0,1,0.6,1.208,0.75,0.35,0.0168,0.4,60.52,-6,0,0,0,0,0,0,0,0,83.76,0,0,0,0,0,0,0,0,0,0,0,0,0,0,0,6.84,FLYING
7.5,APPROACH,FLY_TO_FIX,91.6,79,-12.6,6246.08,-10.68,1.66,6.84,66.83,31.367,0,0,0,1,0.6,1.295,0.75,0.35,0.0168,0.4,60.38,-6,0,0,0,0,0,0,0,0,83.76,0,0,0,0,0,0,0,0,0,0,0,0,0,0,0,7.56,FLYING
8.24,APPROACH,FLY_TO_FIX,91.42,79.4,-12.02,6246.03,-11.41,1.44,6.72,65.8,28.026,0,0,0,1,0.6,1.376,0.75,0.35,0.0168,0.4,60.26,-6,0,0,0,0,0,0,0,0,83.76,0,0,0,0,0,0,0,0,0,0,0,0,0,0,0,8.3,FLYING
8.98,APPROACH,FLY_TO_FIX,91.26,79.8,-11.46,6238.74,-11.99,1.32,6.65,64.98,24.592,0,0,0,1,0.6,1.45,0.75,0.35,0.0168,0.4,60.15,-6,0,0,0,0,0,0,0,0,83.76,0,0,0,0,0,0,0,0,0,0,0,0,0,0,0,9.04,FLYING
9.7,APPROACH,FLY_TO_FIX,91.11,80.2,-10.91,6223.55,-12.49,1.23,6.63,64.26,21.019,0,0,0,1,0.6,1.519,0.75,0.35,0.0168,0.4,60.06,-6,0,0,0,0,0,0,0,0,83.76,0,0,0,0,0,0,0,0,0,0,0,0,0,0,0,9.76,FLYING
10.42,APPROACH,FLY_TO_FIX,90.98,80.6,-10.38,6208.56,-12.87,1.12,6.6,63.57,18.841,0,0,0,1,0.6,1.583,0.75,0.35,0.0168,0.4,59.98,-6,0,0,0,0,0,0,0,0,83.76,0,0,0,0,0,0,0,0,0,0,0,0,0,0,0,10.48,FLYING
11.14,APPROACH,FLY_TO_FIX,90.86,81,-9.86,6196.13,-13.18,1.07,6.61,62.99,16.73,0,0,0,1,0.6,1.642,0.75,0.35,0.0168,0.4,59.9,-6,0,0,0,0,0,0,0,0,83.76,0,0,0,0,0,0,0,0,0,0,0,0,0,0,0,11.2,FLYING
11.86,APPROACH,FLY_TO_FIX,90.74,81,-9.74,6178.72,-13.45,1.03,6.62,62.5,14.275,0,0,0,1,0.6,1.696,0.75,0.35,0.0168,0.4,59.84,-6,0,0,0,0,0,0,0,0,83.76,0,0,0,0,0,0,0,0,0,0,0,0,0,0,0,11.92,FLYING
12.58,APPROACH,FLY_TO_FIX,90.63,81,-9.63,6163.57,-13.65,0.99,6.64,62,12.98,0,0,0,1,0.6,1.747,0.75,0.35,0.0168,0.4,59.78,-6,0,0,0,0,0,0,0,0,83.76,0,0,0,0,0,0,0,0,0,0,0,0,0,0,0,12.64,FLYING
13.3,APPROACH,FLY_TO_FIX,90.52,81,-9.52,6153.05,-13.83,0.96,6.66,61.57,11.607,0,0,0,1,0.6,1.793,0.75,0.35,0.0168,0.4,59.74,-6,0,0,0,0,0,0,0,0,83.76,0,0,0,0,0,0,0,0,0,0,0,0,0,0,0,13.36,FLYING
14.02,APPROACH,FLY_TO_FIX,90.42,81,-9.42,6141.49,-13.98,0.95,6.69,61.2,10.198,0,0,0,1,0.6,1.836,0.75,0.35,0.0168,0.4,59.69,-6,0,0,0,0,0,0,0,0,83.76,0,0,0,0,0,0,0,0,0,0,0,0,0,0,0,14.08,FLYING
14.76,APPROACH,FLY_TO_FIX,90.31,81,-9.31,6133.87,-14.1,0.95,6.72,60.89,8.803,0,0,0,1,0.6,1.876,0.75,0.35,0.0168,0.4,59.66,-6,0,0,0,0,0,0,0,0,83.76,0,0,0,0,0,0,0,0,0,0,0,0,0,0,0,14.82,FLYING
15.5,APPROACH,FLY_TO_FIX,90.2,81,-9.2,6126.67,-14.19,0.95,6.75,60.64,7.513,0,0,0,1,0.6,1.914,0.75,0.35,0.0168,0.4,59.63,-6,0,0,0,0,0,0,0,0,83.76,0,0,0,0,0,0,0,0,0,0,0,0,0,0,0,15.56,FLYING
16.22,APPROACH,FLY_TO_FIX,90.1,81,-9.1,6120.4,-14.25,0.97,6.78,60.43,6.388,0,0,0,1,0.6,1.948,0.75,0.35,0.0168,0.4,59.6,-6,0,0,0,0,0,0,0,0,83.76,0,0,0,0,0,0,0,0,0,0,0,0,0,0,0,16.28,FLYING
16.94,APPROACH,FLY_TO_FIX,89.99,81,-8.99,6108.68,-14.29,0.98,6.82,60.25,5.397,0,0,0,1,0.6,1.98,0.75,0.35,0.0168,0.4,59.58,-6,0,0,0,0,0,0,0,0,83.76,0,0,0,0,0,0,0,0,0,0,0,0,0,0,0,17,FLYING
17.68,APPROACH,FLY_TO_FIX,89.88,81,-8.88,6103.17,-14.32,1,6.85,60.11,4.513,0,0,0,1,0.6,2.01,0.75,0.35,0.0168,0.4,59.56,-6,0,0,0,0,0,0,0,0,83.76,0,0,0,0,0,0,0,0,0,0,0,0,0,0,0,17.74,FLYING
18.4,APPROACH,FLY_TO_FIX,89.77,81,-8.77,6097.8,-14.33,1.02,6.88,59.99,3.774,0,0,0,1,0.6,2.038,0.75,0.35,0.0168,0.4,59.55,-6,0,0,0,0,0,0,0,0,83.76,0,0,0,0,0,0,0,0,0,0,0,0,0,0,0,18.46,FLYING
19.14,APPROACH,FLY_TO_FIX,89.65,81,-8.65,6089.78,-14.34,1.04,6.92,59.89,3.125,0,0,0,1,0.6,2.064,0.75,0.35,0.0168,0.4,59.53,-6,0,0,0,0,0,0,0,0,83.76,0,0,0,0,0,0,0,0,0,0,0,0,0,0,0,19.2,FLYING
19.86,APPROACH,FLY_TO_FIX,89.52,81,-8.52,6077.52,-14.3,0.89,6.76,59.82,2.592,0,0,0,1,0.6,2.088,0.75,0.35,0.0168,0.4,59.52,-6,0,0,0,0,0,0,0,0,83.76,0,0,0,0,0,0,0,0,0,0,0,0,0,0,0,19.92,FLYING
20.58,APPROACH,FLY_TO_FIX,89.38,81,-8.38,6066.61,-14.29,0.93,6.8,59.76,2.108,0,0,0,1,0.6,2.11,0.75,0.35,0.0168,0.4,59.52,-6,0,0,0,0,0,0,0,0,83.76,0,0,0,0,0,0,0,0,0,0,0,0,0,0,0,20.64,FLYING
21.3,APPROACH,FLY_TO_FIX,89.23,81,-8.23,6052.57,-14.19,0.8,6.65,59.72,1.651,0,0,0,1,0.6,2.131,0.75,0.35,0.0168,0.4,59.51,-6,0,0,0,0,0,0,0,0,83.76,0,0,0,0,0,0,0,0,0,0,0,0,0,0,0,21.36,FLYING
22.02,APPROACH,FLY_TO_FIX,89.08,81,-8.08,6040.63,-14.2,0.77,6.63,59.69,1.27,0,0,0,1,0.6,2.151,0.75,0.35,0.0168,0.4,59.5,-6,0,0,0,0,0,0,0,0,83.76,0,0,0,0,0,0,0,0,0,0,0,0,0,0,0,22.08,FLYING
22.76,APPROACH,FLY_TO_FIX,88.94,81,-7.94,6026.4,-14.24,0.87,6.75,59.67,0.964,0,0,0,1,0.6,2.169,0.75,0.35,0.0168,0.4,59.5,-6,0,0,0,0,0,0,0,0,83.76,0,0,0,0,0,0,0,0,0,0,0,0,0,0,0,22.82,FLYING
23.48,APPROACH,FLY_TO_FIX,88.79,81,-7.79,6013.82,-14.2,1.07,6.96,59.65,0.737,0,0,0,1,0.6,2.186,0.75,0.35,0.0168,0.4,59.49,-6,0,0,0,0,0,0,0,0,83.76,0,0,0,0,0,0,0,0,0,0,0,0,0,0,0,23.54,FLYING
24.2,APPROACH,FLY_TO_FIX,88.64,81,-7.64,5999.77,-14.17,1.11,6.99,59.63,0.574,0,0,0,1,0.6,2.203,0.75,0.35,0.0168,0.4,59.49,-6,0,0,0,0,0,0,0,0,83.76,0,0,0,0,0,0,0,0,0,0,0,0,0,0,0,24.26,FLYING
24.92,APPROACH,FLY_TO_FIX,88.48,81,-7.48,5987.2,-14.13,1.15,7.03,59.62,0.456,0,0,0,1,0.6,2.218,0.75,0.35,0.0168,0.4,59.49,-6,0,0,0,0,0,0,0,0,83.76,0,0,0,0,0,0,0,0,0,0,0,0,0,0,0,24.98,FLYING
25.64,APPROACH,FLY_TO_FIX,88.31,81,-7.31,5976.57,-14.09,1.19,7.07,59.61,0.374,0,0,0,1,0.6,2.232,0.75,0.35,0.0168,0.4,59.48,-6,0,0,0,0,0,0,0,0,83.76,0,0,0,0,0,0,0,0,0,0,0,0,0,0,0,25.7,FLYING
26.7,APPROACH,FLY_TO_FIX,88.13,81,-7.13,5966.81,-14.05,1.26,7.14,59.61,0.274,0,0,0,1,0.6,2.246,0.75,0.35,0.0168,0.4,59.48,-6,0,0,0,0,0,0,0,0,83.76,0,0,0,0,0,0,0,0,0,0,0,0,0,0,0,26.91,FLYING
29.55,APPROACH,FLY_TO_FIX,87.51,81,-6.51,5923.34,-13.91,1.48,7.36,59.56,0.221,0,0,0,1,0.6,2.26,0.75,0.35,0.0168,0.4,59.47,-6,0,0,0,0,0,0,0,0,83.76,0,0,0,0,0,0,0,0,0,0,0,0,0,0,0,29.79,FLYING
32.35,APPROACH,FLY_TO_FIX,86.8,81,-5.8,5875.79,-13.75,1.66,7.54,59.52,0.2,0,0,0,1,0.6,2.274,0.75,0.35,0.0168,0.4,59.46,-6,0,0,0,0,0,0,0,0,83.76,0,0,0,0,0,0,0,0,0,0,0,0,0,0,0,32.59,FLYING
35.15,APPROACH,FLY_TO_FIX,86.06,81,-5.06,5823.43,-13.6,1.86,7.73,59.49,0.174,0,0,-2.565,1,0.6,2.288,0.75,0.35,0.0168,0.4,59.46,-6,0,0,0,0,0,0,0,0,83.76,0,0,0,0,0,0,0,0,0,0,0,0,0,0,0,35.39,FLYING
37.95,APPROACH,FLY_TO_FIX,85.28,81,-4.28,5786.27,-13.45,2.07,7.95,59.46,0.146,0,0,-4.741,1,0.6,2.302,0.75,0.35,0.0168,0.4,59.45,-6,0,0,0,0,0,0,0,0,83.76,0,0,0,0,0,0,0,0,0,0,0,0,0,0,0,38.19,FLYING
40.75,APPROACH,FLY_TO_FIX,84.46,81,-3.46,5754.02,-13.29,2.3,8.18,59.43,0.13,0.0306,0,-6.506,1,0.6,2.317,0.75,0.35,0.0168,0.4,59.45,-6,0,0,0,0,0,0,0,0,83.76,0,0,0,0,0,0,0,0,0,0,0,0,0,0,0,40.99,FLYING
42.95,APPROACH,FLY_TO_FIX,83.68,81,-2.68,5720.15,-13.14,2.47,8.34,59.39,0.142,0.1009,0,-7.865,1,0.6,2.332,0.75,0.35,0.0168,0.4,59.45,-6,0,0,0,0,0,0,0,0,83.76,0,0,0,0,0,0,0,0,0,0,0,0,0,0,0,43.02,FLYING
43.68,APPROACH,FLY_TO_FIX,83.43,81,-2.43,5703.9,-13.11,2.51,8.38,59.4,0.104,0.0533,0,-9.087,1,0.6,2.346,0.75,0.35,0.0168,0.4,59.46,-6,0,0,0,0,0,0,0,0,83.76,0,0,0,0,0,0,0,0,0,0,0,0,0,0,0,43.74,FLYING
44.4,APPROACH,FLY_TO_FIX,83.2,81,-2.2,5692.61,-13.06,2.58,8.45,59.4,0.072,0.0057,0,-10.199,1,0.6,2.359,0.75,0.35,0.0168,0.4,59.46,-6,0,0,0,0,0,0,0,0,83.76,0,0,0,0,0,0,0,0,0,0,0,0,0,0,0,44.46,FLYING
45.18,APPROACH,FLY_TO_FIX,82.98,81,-1.98,5682.5,-13.02,2.66,8.53,59.41,0.042,0,0,-10.148,1,0.6,2.371,0.75,0.35,0.0168,0.4,59.46,-6,0,0,0,0,0,0,0,0,83.76,0,0,0,0,0,0,0,0,0,0,0,0,0,0,0,45.3,FLYING
47.65,APPROACH,FLY_TO_FIX,82.3,81,-1.3,5639.48,-12.9,2.94,8.82,59.4,0.051,0.0464,0,-10.837,1,0.6,2.384,0.75,0.35,0.0168,0.4,59.46,-6,0,0,0,0,0,0,0,0,83.76,0,0,0,0,0,0,0,0,0,0,0,0,0,0,0,47.89,FLYING
50.45,APPROACH,FLY_TO_FIX,81.34,81,-0.34,5594.93,-12.74,3.22,9.1,59.38,0.069,0.178,0,-11.05,1,0.6,2.397,0.75,0.35,0.0168,0.4,59.47,-6,0,0,0,0,0,0,0,0,83.76,0,0,0,0,0,0,0,0,0,0,0,0,0,0,0,50.69,FLYING
53.25,APPROACH,FLY_TO_FIX,80.42,81,0.58,5563.6,-12.59,3.48,9.38,59.37,0.056,0.2986,0,-10.798,1,0.6,2.41,0.75,0.35,0.0168,0.4,59.49,-6,0,0,0,0,0,0,0,0,83.76,0,0,0,0,0,0,0,0,0,0,0,0,0,0,0,53.49,FLYING
56.05,APPROACH,FLY_TO_FIX,79.66,81,1.34,5514.52,-12.46,3.7,9.59,59.36,0.031,0.3848,0,-10.155,1,0.6,2.424,0.75,0.35,0.0168,0.4,59.51,-6,0,0,0,0,0,0,0,0,83.76,0,0,0,0,0,0,0,0,0,0,0,0,0,0,0,56.29,FLYING
57.51,APPROACH,FLY_TO_FIX,79.27,81,1.73,5486.01,-12.37,3.72,9.6,59.35,0.022,0.3981,0,-9.293,1,0.6,2.438,0.75,0.35,0.0168,0.4,59.53,-6,0,0,0,0,0,0,0,0,83.76,0,0,0,0,0,0,0,0,0,0,0,0,0,0,0,57.57,FLYING
58.23,APPROACH,FLY_TO_FIX,79.15,81,1.85,5472.21,-12.35,3.76,9.64,59.36,-0.029,0.3507,0,-8.375,1,0.6,2.45,0.75,0.35,0.0168,0.4,59.55,-6,0,0,0,0,0,0,0,0,83.76,0,0,0,0,0,0,0,0,0,0,0,0,0,0,0,58.29,FLYING
58.97,APPROACH,FLY_TO_FIX,79.06,81,1.94,5462.3,-12.33,3.8,9.68,59.37,-0.088,0.3148,0,-7.407,1,0.6,2.462,0.75,0.35,0.0168,0.4,87.52,-6,0,0,0,0,0,0,0,0,83.76,0,0,0,0,0,0,0,0,0,0,0,0,0,0,0,59.03,FLYING
59.67,APPROACH,FLY_TO_FIX,78.96,81,2.04,5451.39,-12.3,3.72,9.61,59.82,-3.025,0.291,0,-6.393,1,0.6,2.473,0.75,0.35,0.0168,0.4,87.66,-6,0,0,0,0,0,0,0,0,83.76,0,0,0,0,0,0,0,0,0,0,0,0,0,0,0,59.73,FLYING
60.37,APPROACH,FLY_TO_FIX,78.84,81,2.16,5443,-12.19,4.41,10.35,61.19,-10.271,0.283,0,-5.318,1,0.6,2.484,0.75,0.35,0.0168,0.4,87.8,-6,0,0,0,0,0,0,0,0,83.76,0,0,0,0,0,0,0,0,0,0,0,0,0,0,0,60.43,FLYING
61.07,APPROACH,FLY_TO_FIX,78.67,81,2.33,5437.6,-11.98,4.65,10.69,63.2,-18.9,0.2937,0,-4.158,1,0.6,2.494,0.75,0.35,0.0168,0.4,87.93,-6,0,0,0,0,0,0,0,0,83.76,0,0,0,0,0,0,0,0,0,0,0,0,0,0,0,61.13,FLYING
61.77,APPROACH,FLY_TO_FIX,78.5,81,2.5,5431.81,-11.94,4.49,10.83,65.37,-22.429,0.3086,0,-2.917,1,0.6,2.504,0.75,0.35,0.0168,0.4,88.07,-6,0,0,0,0,0,0,0,0,83.76,0,0,0,0,0,0,0,0,0,0,0,0,0,0,0,61.83,FLYING
62.47,APPROACH,FLY_TO_FIX,78.35,81,2.65,5428.13,-11.99,4.27,10.87,67.25,-22.946,0.3274,0,-1.597,1,0.6,2.513,0.75,0.35,0.0168,0.4,88.2,-6,0,0,0,0,0,0,0,0,83.76,0,0,0,0,0,0,0,0,0,0,0,0,0,0,0,62.53,FLYING
63.17,APPROACH,FLY_TO_FIX,78.2,81,2.8,5418.05,-12.07,4.2,10.9,68.75,-23.064,0.3474,0,-0.203,1,0.6,2.522,0.75,0.35,0.0168,0.4,88.32,-6,0,0,0,0,0,0,0,0,83.76,0,0,0,0,0,0,0,0,0,0,0,0,0,0,0,63.23,FLYING
63.89,APPROACH,FLY_TO_FIX,78.07,81,2.93,5408.95,-12.15,4.18,10.93,70.12,-22.982,0.3686,0,1.256,1,0.6,2.53,0.75,0.35,0.0168,0.4,88.44,-6,0,0,0,0,0,0,0,0,83.76,0,0,0,0,0,0,0,0,0,0,0,0,0,0,0,63.95,FLYING
64.61,APPROACH,FLY_TO_FIX,77.96,81,3.04,5401.66,-12.23,4.16,10.95,71.49,-22.815,0.3895,0,2.773,1,0.6,2.538,0.75,0.35,0.0168,0.4,88.56,-6,0,0,0,0,0,0,0,0,83.76,0,0,0,0,0,0,0,0,0,0,0,0,0,0,0,64.67,FLYING
65.33,APPROACH,FLY_TO_FIX,77.86,81,3.14,5389.47,-12.3,4.14,10.97,72.84,-22.614,0.4097,0,4.337,1,0.6,2.546,0.75,0.35,0.0168,0.4,88.67,-6,0,0,0,0,0,0,0,0,83.76,0,0,0,0,0,0,0,0,0,0,0,0,0,0,0,65.39,FLYING
66.05,APPROACH,FLY_TO_FIX,77.79,81,3.21,5380.65,-12.37,4.13,10.98,74.18,-22.399,0.429,0,5.939,1,0.6,2.553,0.75,0.35,0.0168,0.4,88.77,-6,0,0,0,0,0,0,0,0,83.76,0,0,0,0,0,0,0,0,0,0,0,0,0,0,0,66.11,FLYING
66.77,APPROACH,FLY_TO_FIX,77.74,81,3.26,5377.93,-12.43,4.12,11,75.49,-22.191,0.4471,0,7.57,1,0.6,2.56,0.75,0.35,0.0168,0.4,88.87,-6,0,0,0,0,0,0,0,0,83.76,0,0,0,0,0,0,0,0,0,0,0,0,0,0,0,66.83,FLYING
67.49,APPROACH,FLY_TO_FIX,77.7,81,3.3,5369.88,-12.48,4.11,11,76.81,-22.011,0.4641,0,9.218,1,0.6,2.567,0.75,0.35,0.0168,0.4,88.96,-6,0,0,0,0,0,0,0,0,83.76,0,0,0,0,0,0,0,0,0,0,0,0,0,0,0,67.55,FLYING
68.21,APPROACH,FLY_TO_FIX,77.69,81,3.31,5358.24,-12.52,4.1,11.01,78.13,-21.866,0.4795,0,10.874,1,0.6,2.573,0.75,0.35,0.0168,0.4,89.05,-6,0,0,0,0,0,0,0,0,83.76,0,0,0,0,0,0,0,0,0,0,0,0,0,0,0,68.27,FLYING
69.78,APPROACH,FLY_TO_FIX,77.74,81,3.26,5331.81,-12.61,4.1,11.03,81.06,-21.627,0.4861,0,12.511,1,0.6,2.58,0.75,0.35,0.0168,0.4,89.17,-6,0,0,0,0,0,0,0,0,83.76,0,0,0,0,0,0,0,0,0,0,0,0,0,0,0,70.02,FLYING
72.58,APPROACH,FLY_TO_FIX,78.06,81,2.94,5309.42,-12.73,3.83,10.47,84.77,-17.302,0.4416,0,14.005,1,0.6,2.586,0.75,0.35,0.0168,0.4,89.4,-6,0,0,0,0,0,0,0,0,83.76,0,0,0,0,0,0,0,0,0,0,0,0,0,0,0,72.82,FLYING
75.38,APPROACH,FLY_TO_FIX,78.84,81,2.16,5267.88,-12.77,3.52,9.87,86.84,-11.576,0.3036,0,15.124,1,0.6,2.593,0.75,0.35,0.0168,0.4,89.55,-6,0,0,0,0,0,0,0,0,83.76,0,0,0,0,0,0,0,0,0,0,0,0,0,0,0,75.62,FLYING
78.18,APPROACH,FLY_TO_FIX,79.89,81,1.11,5237.83,-12.76,3.22,9.39,88.21,-7.306,0.1175,0,15.725,1,0.6,2.6,0.75,0.35,0.0168,0.4,89.64,-6,0,0,0,0,0,0,0,0,83.76,0,0,0,0,0,0,0,0,0,0,0,0,0,0,0,78.42,FLYING
80.98,APPROACH,FLY_TO_FIX,80.74,81,0.26,5229.92,-12.7,3.09,9.15,88.93,-4.1,0,0,15.878,1,0.6,2.607,0.75,0.35,0.0168,0.4,89.69,-6,0,0,0,0,0,0,0,0,83.76,0,0,0,0,0,0,0,0,0,0,0,0,0,0,0,81.14,FLYING
83.78,APPROACH,FLY_TO_FIX,80.92,81,0.08,5187.35,-12.6,3.17,9.18,89.34,-2.137,0,0,15.911,1,0.6,2.614,0.75,0.35,0.0168,0.4,89.71,-6,0,0,0,0,0,0,0,0,83.76,0,0,0,0,0,0,0,0,0,0,0,0,0,0,0,84.02,FLYING
86.58,APPROACH,FLY_TO_FIX,80.46,81,0.54,5143.99,-12.46,3.4,9.38,89.5,-0.893,0.1394,0,16.156,1,0.6,2.622,0.75,0.35,0.0168,0.4,89.73,-6,0,0,0,0,0,0,0,0,83.76,0,0,0,0,0,0,0,0,0,0,0,0,0,0,0,86.82,FLYING
89.38,APPROACH,FLY_TO_FIX,79.75,81,1.25,5094.51,-12.31,3.63,9.61,89.55,-0.321,0.3308,0,16.752,1,0.6,2.631,0.75,0.35,0.0168,0.4,89.74,-6,0,0,0,0,0,0,0,0,83.76,0,0,0,0,0,0,0,0,0,0,0,0,0,0,0,89.62,FLYING
92.18,APPROACH,FLY_TO_FIX,79.16,81,1.84,5033.08,-12.16,3.8,9.76,89.57,-0.146,0.4807,0,17.654,1,0.6,2.64,0.75,0.35,0.0168,0.4,89.74,-6,0,0,0,0,0,0,0,0,83.76,0,0,0,0,0,0,0,0,0,0,0,0,0,0,0,92.42,FLYING
94.98,APPROACH,FLY_TO_FIX,78.88,81,2.12,5006.46,-12.05,3.86,9.79,89.59,-0.087,0.5525,0,18.712,1,0.6,2.649,0.75,0.35,0.0168,0.4,89.75,-6,0,0,0,0,0,0,0,0,83.76,0,0,0,0,0,0,0,0,0,0,0,0,0,0,0,95.22,FLYING
97.59,APPROACH,FLY_TO_FIX,79,81,2,4990.96,-11.96,3.8,9.69,89.59,-0.041,0.5307,0,19.72,1,0.6,2.659,0.75,0.35,0.0168,0.4,89.75,-6,0,0,0,0,0,0,0,0,83.76,0,0,0,0,0,0,0,0,0,0,0,0,0,0,0,97.67,FLYING
98.33,APPROACH,FLY_TO_FIX,79.14,81,1.86,4989.13,-11.96,3.66,9.54,89.59,-0.053,0.494,0,20,1,0.6,2.668,0.75,0.35,0.0168,0.4,89.75,-6,0,0,0,0,0,0,0,0,83.76,0,0,0,0,0,0,0,0,0,0,0,0,0,0,0,98.4,FLYING
102.3,APPROACH,FLY_TO_FIX,80.05,81,0.95,4954.83,-12.02,3.49,9.34,89.62,-0.102,0.3269,0,20,1,0.6,2.677,0.75,0.35,0.0168,0.4,89.76,-6,0,0,0,0,0,0,0,0,83.76,0,0,0,0,0,0,0,0,0,0,0,0,0,0,0,102.78,FLYING
107.9,APPROACH,FLY_TO_FIX,82.14,81,-1.14,4935.66,-11.89,2.93,8.61,89.62,-0.085,0.1269,0,19.9,1,0.6,2.687,0.75,0.35,0.0168,0.4,89.77,-6,0,0,0,0,0,0,0,0,83.76,0,0,0,0,0,0,0,0,0,0,0,0,0,0,0,108.22,FLYING
113.5,APPROACH,FLY_TO_FIX,83.71,81,-2.71,4941.46,-12.04,2.6,8.28,89.64,-0.096,0,0,19.8,1,0.6,2.697,0.75,0.35,0.0168,0.4,89.78,-6,0,0,0,0,0,0,0,0,83.76,0,0,0,0,0,0,0,0,0,0,0,0,0,0,0,113.82,FLYING
119.1,APPROACH,FLY_TO_FIX,83.4,81,-2.4,5474.13,-12.11,2.77,8.54,89.63,-0.065,0,0,19.701,1,0.6,2.708,0.75,0.35,0.0168,0.4,89.79,-6,0,0,0,0,0,0,0,0,83.76,0,0,0,0,0,0,0,0,0,0,0,0,0,0,0,119.58,FLYING
123.58,APPROACH,ILS_TRACK,82.1,81,-1.1,5420.06,-12.04,3.15,8.98,89.61,-0.034,0,0,19.701,1,0.6,2.708,0.75,0.35,0.0168,0.4,89.79,-6,0,0,0,0,0,0,0,0,83.76,0,0,0,0,0,0,0,0,0,0,0,0,0,0,0,123.9,FLYING
127.77,APPROACH,ILS_TRACK,80.21,80.6,0.39,4895.92,-11.84,4.07,9.86,89.52,0.419,0.2,0,19.839,1,0.6,2.723,0.75,0.35,0.0168,0.4,65.4,0.238,188.69,4085.06,23.295,-101.894,0,0,0,0,83.76,0,0,0,0,0,0,0,0,0,0,0,0,0,0,0,127.88,FLYING
128.65,APPROACH,ILS_TRACK,79.55,80.2,0.65,4886.39,-11.01,5.63,11.19,88.28,7.145,0.4,0,20,1,0.6,2.737,0.75,0.35,0.0168,0.4,83.92,0.3,186.71,4078.6,23.16,-6.476,0,0,0,0,83.76,0,0,0,0,0,0,0,0,0,0,0,0,0,0,0,128.71,FLYING
129.47,APPROACH,ILS_TRACK,78.9,79.8,0.9,4884.23,-9.98,6.65,11.86,86.66,9.483,0.6,0,20,1,0.6,2.751,0.75,0.35,0.0168,0.4,83.99,0.343,184.74,4074.81,23.068,-6.405,0,0,0,0,83.76,0,0,0,0,0,0,0,0,0,0,0,0,0,0,0,129.53,FLYING
130.27,APPROACH,ILS_TRACK,78.23,79.4,1.17,4882.44,-8.98,7.24,11.9,86.59,6.621,0.7076,0,20,1,0.6,2.765,0.75,0.35,0.0168,0.4,84.67,0.381,181.67,4071.83,22.979,-5.733,0,0,0,0,83.76,0,0,0,0,0,0,0,0,0,0,0,0,0,0,0,130.31,FLYING
131.07,APPROACH,ILS_TRACK,77.62,79,1.38,4881.51,-8.05,7.73,11.93,86.39,5.559,0.7512,0,20,1,0.6,2.778,0.75,0.35,0.0168,0.4,85.24,0.415,177.77,4069.59,22.89,-5.157,0,0,0,0,83.76,0,0,0,0,0,0,0,0,0,0,0,0,0,0,0,131.11,FLYING
131.87,APPROACH,ILS_TRACK,77.04,78.6,1.56,4880.52,-7.22,8.17,11.95,86.25,4.409,0.7814,0,20,1,0.6,2.79,0.75,0.35,0.0168,0.4,85.75,0.446,173.21,4068.02,22.802,-4.653,0,0,0,0,83.76,0,0,0,0,0,0,0,0,0,0,0,0,0,0,0,131.91,FLYING
132.67,APPROACH,ILS_TRACK,76.5,78.2,1.7,4878.11,-6.47,8.56,11.96,86.18,3.277,0.7992,0,20,1,0.6,2.802,0.75,0.35,0.0168,0.4,86.21,0.474,168.15,4067.06,22.715,-4.194,0,0,0,0,83.76,0,0,0,0,0,0,0,0,0,0,0,0,0,0,0,132.71,FLYING
133.47,APPROACH,ILS_TRACK,76.01,77.8,1.79,4875.95,-5.81,8.91,11.97,86.19,2.236,0.8058,0,20,1,0.6,2.813,0.75,0.35,0.0168,0.4,86.61,0.498,162.71,4066.64,22.629,-3.788,0,0,0,0,83.76,0,0,0,0,0,0,0,0,0,0,0,0,0,0,0,133.51,FLYING
135.25,APPROACH,ILS_TRACK,75.4,77.4,2,4883.35,-4.7,9.37,11.86,86.43,0.268,0.8113,0,20,1,0.6,2.824,0.75,0.35,0.0168,0.4,87.22,0.526,156.55,4066.7,22.536,-3.182,0,0,0,0,83.76,0,0,0,0,0,0,0,0,0,0,0,0,0,0,0,135.57,FLYING
141.49,APPROACH,ILS_TRACK,73.77,77,3.23,4914.6,-2.38,10.5,11.8,87.69,-5.664,1,0,19.9,1,0.6,2.836,0.75,0.35,0.0168,0.4,107.21,0.64,113.83,4076.49,21.912,16.808,0,0,0,0,83.76,0,0,0,0,0,0,0,0,0,0,0,0,0,0,0,141.81,FLYING
147.58,APPROACH,ILS_TRACK,74.61,76.6,1.99,4967.78,-1.11,10.88,11.71,94.18,-11.105,0.8224,0,20,1,0.6,2.847,0.75,0.35,0.0168,0.4,100.25,0.703,87.16,4097.72,21.257,9.847,0,0,0,0,83.76,0,0,0,0,0,0,0,0,0,0,0,0,0,0,0,147.77,FLYING
149.85,APPROACH,ILS_TRACK,75.62,76.2,0.58,4981.57,-0.31,10.52,10.9,96.31,-11.368,0.6224,0,20,1,0.6,2.856,0.75,0.35,0.0168,0.4,80.92,0.717,98.27,4113.26,20.901,-9.483,0,0,0,0,83.76,0,0,0,0,0,0,0,0,0,0,0,0,0,0,0,149.91,FLYING
150.65,APPROACH,ILS_TRACK,76.01,75.8,-0.21,4987.02,-0.48,9.71,10.07,96.29,-7.163,0.4224,0,19.916,1,0.6,2.865,0.75,0.35,0.0168,0.4,83.15,0.719,104.42,4117.49,20.812,-7.253,0,0,0,0,83.76,0,0,0,0,0,0,0,0,0,0,0,0,0,0,0,150.71,FLYING
151.45,APPROACH,ILS_TRACK,76.38,75.4,-0.98,4991.89,-0.6,10.25,10.55,95.3,1.723,0.2303,0,19.442,1,0.6,2.872,0.75,0.35,0.0168,0.4,82.51,0.721,111.3,4121.61,20.725,-7.891,0,0,0,0,83.76,0,0,0,0,0,0,0,0,0,0,0,0,0,0,0,151.49,FLYING
152.25,APPROACH,ILS_TRACK,76.56,75,-1.56,4995.26,-0.23,10.92,11.11,93.03,12.236,0.1533,0,18.667,1,0.6,2.879,0.75,0.35,0.0168,0.4,82.16,0.722,118.31,4125.9,20.639,-8.241,0,0,0,0,83.76,0,0,0,0,0,0,0,0,0,0,0,0,0,0,0,152.29,FLYING
153.05,APPROACH,ILS_TRACK,76.57,75,-1.57,4998.1,0.03,10.92,11.26,90.6,17.352,0.1441,0,17.877,1,0.6,2.885,0.75,0.35,0.0168,0.4,82.42,0.723,124.33,4130.35,20.552,-7.98,0,0,0,0,83.76,0,0,0,0,0,0,0,0,0,0,0,0,0,0,0,153.09,FLYING
154.78,APPROACH,ILS_TRACK,76.26,75,-1.26,5008.81,0.1,10.86,11.2,87.81,15.217,0.1894,0,17.201,1,0.6,2.891,0.75,0.35,0.0168,0.4,82.43,0.722,129.87,4137.26,20.421,-7.966,0,0,0,0,83.76,0,0,0,0,0,0,0,0,0,0,0,0,0,0,0,154.94,FLYING
157.9,APPROACH,ILS_TRACK,74.69,75,0.31,5008.05,0.17,11.28,11.34,85.42,9.28,0.3894,0,17.257,1,0.6,2.897,0.75,0.35,0.0168,0.4,87.26,0.72,126.06,4155.32,20.087,-3.137,0,0,0,0,83.76,0,0,0,0,0,0,0,0,0,0,0,0,0,0,0,158.06,FLYING
161.02,APPROACH,ILS_TRACK,72.7,75,2.3,5009.07,0.29,12.22,12.06,86.95,-0.356,0.5894,0,18.306,1,0.6,2.904,0.75,0.35,0.0168,0.4,96.05,0.716,106.26,4173.21,19.76,5.652,0,0,0,0,83.76,0,0,0,0,0,0,0,0,0,0,0,0,0,0,0,161.18,FLYING
164.14,APPROACH,ILS_TRACK,71.08,75,3.92,5019,-0.74,11.55,11.99,89.19,-3.138,0.7894,0,18.214,1,0.6,2.912,0.75,0.35,0.0168,0.4,96.5,0.715,87.09,4190.15,19.441,6.099,0,0,0,0,83.76,0,0,0,0,0,0,0,0,0,0,0,0,0,0,0,164.3,FLYING
167.26,APPROACH,ILS_TRACK,70.43,75,4.57,5002.17,-2.44,10.66,12.03,89.32,2.331,0.9894,0,18.123,1,0.6,2.919,0.75,0.35,0.0168,0.4,92.18,0.736,77.34,4202.72,19.127,1.78,0,0,0,0,83.76,0,0,0,0,0,0,0,0,0,0,0,0,0,0,0,167.42,FLYING
170.38,APPROACH,ILS_TRACK,70.96,75,4.04,4986.41,-3.67,9.94,12.02,87.94,2.848,1,0,20,1,0.6,2.925,0.75,0.35,0.0168,0.4,90.56,0.782,71.32,4210.19,18.814,0.162,0,0,0,0,83.76,0,0,0,0,0,0,0,0,0,0,0,0,0,0,0,170.54,FLYING
173.58,APPROACH,ILS_TRACK,72.39,75,2.61,4960.42,-3.81,9.86,11.95,88.14,0.18,0.8,0,20,1,0.6,2.931,0.75,0.35,0.0168,0.4,93.61,0.843,60.08,4215.04,18.489,3.215,0,0,0,0,83.76,0,0,0,0,0,0,0,0,0,0,0,0,0,0,0,173.74,FLYING
176.78,APPROACH,ILS_TRACK,74.11,75,0.89,4953.03,-2.6,10.34,11.79,89.81,-4.818,0.6,0,20,1,0.6,2.936,0.75,0.35,0.0168,0.4,94.88,0.898,47.33,4221.18,18.158,4.48,0,0,0,0,83.76,0,0,0,0,0,0,0,0,0,0,0,0,0,0,0,176.94,FLYING
179.9,APPROACH,ILS_TRACK,75.54,75,-0.54,4932.91,-0.97,10.45,11.06,92.04,-6.338,0.4,0,19.9,1,0.6,2.94,0.75,0.35,0.0168,0.4,92.21,0.93,40.47,4231.97,17.827,1.815,0,0,0,0,83.76,0,0,0,0,0,0,0,0,0,0,0,0,0,0,0,180.06,FLYING
183.1,APPROACH,ILS_TRACK,76.43,75,-1.43,4932.49,0.13,10.71,10.64,91.68,-0.57,0.2,0,19.8,1,0.6,2.943,0.75,0.35,0.0168,0.4,86.89,0.939,43.97,4248.03,17.483,-3.508,0,0,0,0,83.76,0,0,0,0,0,0,0,0,0,0,0,0,0,0,0,183.26,FLYING
186.3,APPROACH,ILS_TRACK,75.99,75,-0.99,4949.02,0.71,11.31,11,88.67,6.457,0,0,19.701,1,0.6,2.946,0.75,0.35,0.0168,0.4,86.03,0.932,48.81,4267.32,17.136,-4.374,0,0,0,0,83.76,0,0,0,0,0,0,0,0,0,0,0,0,0,0,0,186.46,FLYING
189.5,APPROACH,ILS_TRACK,73.83,75,1.17,4947.08,0.83,12.41,11.91,87.49,3.787,0.2,0,20,1,0.6,2.949,0.75,0.35,0.0168,0.4,91.42,0.919,43.31,4287.86,16.795,1.02,0,0,0,0,83.76,0,0,0,0,0,0,0,0,0,0,0,0,0,0,0,189.74,FLYING
191.31,APPROACH,ILS_TRACK,71.68,75,3.32,4946.66,0.54,12.33,12.04,88.5,-1.118,0.4,0,20,1,0.6,2.954,0.75,0.35,0.0168,0.4,93.54,0.91,34.28,4302.49,16.552,3.143,0,0,0,0,83.76,0,0,0,0,0,0,0,0,0,0,0,0,0,0,0,191.37,FLYING
193.3,APPROACH,ILS_TRACK,70.5,75,4.5,4949.07,-0.81,11.42,11.9,89.64,-2.056,0.6,0,19.9,1,0.6,2.959,0.75,0.35,0.0168,0.4,91.07,0.909,30.49,4308.2,16.449,0.674,0,0,0,0,83.76,0,0,0,0,0,0,0,0,0,0,0,0,0,0,0,193.62,FLYING
199.54,APPROACH,ILS_TRACK,68.45,75,6.55,4944.34,-7.3,7.83,12.1,87.3,-0.201,0.8,0,19.8,1,0.6,2.965,0.75,0.35,0.0168,0.4,98.86,1.002,12.57,4322.01,15.865,8.456,0,0,0,0,83.76,0,0,0,0,0,0,0,0,0,0,0,0,0,0,0,199.85,FLYING
201.78,APPROACH,ILS_TRACK,69.26,75,5.74,4938.2,-9.64,6.13,11.69,87.7,4.549,1,0,19.701,1,0.6,2.971,0.75,0.35,0.0168,0.4,98.45,1.131,-3.27,4312.46,15.525,8.052,0,0,0,0,83.76,0,0,0,0,0,0,0,0,0,0,0,0,0,0,0,201.82,FLYING
202.58,APPROACH,ILS_TRACK,69.73,75,5.27,4934.2,-10.46,5.73,11.86,85.78,9.292,0.9916,0,20,1,0.6,2.977,0.75,0.35,0.0168,0.4,92.42,1.171,-6.76,4308.58,15.447,2.018,0,0,0,0,83.76,0,0,0,0,0,0,0,0,0,0,0,0,0,0,0,202.62,FLYING
203.38,APPROACH,ILS_TRACK,70.24,75,4.76,4929.59,-10.99,5.62,12.01,85.2,6.698,0.8289,0,20,1,0.6,2.982,0.75,0.35,0.0168,0.4,93.01,1.214,-11.09,4304.21,15.368,2.609,0,0,0,0,83.76,0,0,0,0,0,0,0,0,0,0,0,0,0,0,0,203.42,FLYING
204.18,APPROACH,ILS_TRACK,70.83,75,4.17,4922.16,-11.36,5.53,12,85.72,3.155,0.676,0,20,1,0.6,2.987,0.75,0.35,0.0168,0.4,93.65,1.259,-16.29,4299.46,15.289,3.248,0,0,0,0,83.76,0,0,0,0,0,0,0,0,0,0,0,0,0,0,0,204.22,FLYING
204.98,APPROACH,ILS_TRACK,71.46,75,3.54,4912.23,-11.6,5.45,11.99,85.74,2.385,0.5349,0,20,1,0.6,2.991,0.75,0.35,0.0168,0.4,94.09,1.304,-21.91,4294.47,15.209,3.685,0,0,0,0,83.76,0,0,0,0,0,0,0,0,0,0,0,0,0,0,0,205.02,FLYING
205.78,APPROACH,ILS_TRACK,72.1,75,2.9,4902.63,-11.7,5.44,11.98,85.76,1.536,0.4107,0,20,1,0.6,2.995,0.75,0.35,0.0168,0.4,94.48,1.351,-27.83,4289.36,15.129,4.075,0,0,0,0,83.76,0,0,0,0,0,0,0,0,0,0,0,0,0,0,0,205.82,FLYING
206.58,APPROACH,ILS_TRACK,72.73,75,2.27,4892.6,-11.68,5.5,11.97,85.87,0.619,0.3058,0,20,1,0.6,2.998,0.75,0.35,0.0168,0.4,94.84,1.398,-33.99,4284.25,15.048,4.441,0,0,0,0,83.76,0,0,0,0,0,0,0,0,0,0,0,0,0,0,0,206.62,FLYING
207.38,APPROACH,ILS_TRACK,73.29,75,1.71,4886.56,-11.54,5.61,11.96,86.04,-0.297,0.2243,0,20,1,0.6,3.001,0.75,0.35,0.0168,0.4,95.17,1.444,-40.3,4279.22,14.967,4.765,0,0,0,0,83.76,0,0,0,0,0,0,0,0,0,0,0,0,0,0,0,207.42,FLYING
208.18,APPROACH,ILS_TRACK,73.76,75,1.24,4880.79,-11.32,5.76,11.96,86.27,-1.137,0.1702,0,20,1,0.6,3.004,0.75,0.35,0.0168,0.4,95.44,1.49,-46.64,4274.36,14.884,5.037,0,0,0,0,83.76,0,0,0,0,0,0,0,0,0,0,0,0,0,0,0,208.22,FLYING
208.98,APPROACH,ILS_TRACK,74.12,75,0.88,4869.44,-11.02,5.94,11.95,86.53,-1.849,0.1436,0,20,1,0.6,3.007,0.75,0.35,0.0168,0.4,95.66,1.535,-52.92,4269.73,14.802,5.256,0,0,0,0,83.76,0,0,0,0,0,0,0,0,0,0,0,0,0,0,0,209.02,FLYING
209.78,APPROACH,ILS_TRACK,74.36,75,0.64,4856.13,-10.69,6.13,11.95,86.81,-2.404,0.1413,0,20,1,0.6,3.009,0.75,0.35,0.0168,0.4,95.82,1.578,-59.04,4265.36,14.719,5.421,0,0,0,0,83.76,0,0,0,0,0,0,0,0,0,0,0,0,0,0,0,209.82,FLYING
210.58,APPROACH,ILS_TRACK,74.5,75,0.5,4844.54,-10.33,6.33,11.95,87.08,-2.794,0.1581,0,20,1,0.6,3.012,0.75,0.35,0.0168,0.4,95.94,1.62,-64.93,4261.28,14.636,5.54,0,0,0,0,83.76,0,0,0,0,0,0,0,0,0,0,0,0,0,0,0,210.62,FLYING
211.38,APPROACH,ILS_TRACK,74.56,75,0.44,4832.71,-9.97,6.53,11.96,87.35,-3.033,0.1881,0,20,1,0.6,3.015,0.75,0.35,0.0168,0.4,96.02,1.661,-70.52,4257.49,14.553,5.62,0,0,0,0,83.76,0,0,0,0,0,0,0,0,0,0,0,0,0,0,0,211.42,FLYING
212.18,APPROACH,ILS_TRACK,74.55,75,0.45,4817.48,-9.62,6.72,11.96,87.61,-3.144,0.225,0,20,1,0.6,3.017,0.75,0.35,0.0168,0.4,96.07,1.7,-75.79,4253.99,14.469,5.666,0,0,0,0,83.76,0,0,0,0,0,0,0,0,0,0,0,0,0,0,0,212.22,FLYING
212.98,APPROACH,ILS_TRACK,74.5,75,0.5,4801.13,-9.27,6.9,11.97,87.85,-3.165,0.2635,0,20,1,0.6,3.02,0.75,0.35,0.0168,0.4,96.09,1.738,-80.72,4250.77,14.386,5.691,0,0,0,0,83.76,0,0,0,0,0,0,0,0,0,0,0,0,0,0,0,213.02,FLYING
213.78,APPROACH,ILS_TRACK,74.42,75,0.58,4785.62,-8.94,7.08,11.97,88.08,-3.122,0.2998,0,20,1,0.6,3.023,0.75,0.35,0.0168,0.4,96.1,1.775,-85.29,4247.82,14.303,5.699,0,0,0,0,83.76,0,0,0,0,0,0,0,0,0,0,0,0,0,0,0,213.82,FLYING
214.58,APPROACH,ILS_TRACK,74.34,75,0.66,4775.7,-8.62,7.25,11.97,88.29,-3.035,0.3325,0,20,1,0.6,3.026,0.75,0.35,0.0168,0.4,96.09,1.81,-89.52,4245.13,14.22,5.694,0,0,0,0,83.76,0,0,0,0,0,0,0,0,0,0,0,0,0,0,0,214.62,FLYING
215.38,APPROACH,ILS_TRACK,74.25,75,0.75,4766.29,-8.32,7.42,11.98,88.49,-2.919,0.3614,0,20,1,0.6,3.029,0.75,0.35,0.0168,0.4,96.08,1.844,-93.4,4242.68,14.137,5.679,0,0,0,0,83.76,0,0,0,0,0,0,0,0,0,0,0,0,0,0,0,215.42,FLYING
216.18,APPROACH,ILS_TRACK,74.15,75,0.85,4761.64,-8.03,7.57,11.98,88.68,-2.784,0.3865,0,20,1,0.6,3.031,0.75,0.35,0.0168,0.4,96.06,1.877,-96.96,4240.46,14.054,5.658,0,0,0,0,83.76,0,0,0,0,0,0,0,0,0,0,0,0,0,0,0,216.22,FLYING
217,APPROACH,ILS_TRACK,74.06,75,0.94,4754.77,-7.75,7.72,11.98,88.85,-2.635,0.4084,0,20,1,0.6,3.034,0.75,0.35,0.0168,0.4,96.08,1.909,-100.29,4238.41,13.969,5.675,0,0,0,0,83.76,0,0,0,0,0,0,0,0,0,0,0,0,0,0,0,217.04,FLYING
217.8,APPROACH,ILS_TRACK,73.97,75,1.03,4746.99,-7.5,7.86,11.98,89.02,-2.49,0.4262,0,20,1,0.6,3.037,0.75,0.35,0.0168,0.4,96,1.94,-103.24,4236.63,13.886,5.603,0,0,0,0,83.76,0,0,0,0,0,0,0,0,0,0,0,0,0,0,0,217.84,FLYING
218.6,APPROACH,ILS_TRACK,73.88,75,1.12,4740.31,-7.25,7.99,11.99,89.17,-2.343,0.4407,0,20,1,0.6,3.04,0.75,0.35,0.0168,0.4,95.97,1.969,-105.91,4235.04,13.804,5.57,0,0,0,0,83.76,0,0,0,0,0,0,0,0,0,0,0,0,0,0,0,218.64,FLYING
219.4,APPROACH,ILS_TRACK,73.8,75,1.2,4728.79,-7.02,8.12,11.99,89.31,-2.204,0.4522,0,20,1,0.6,3.043,0.75,0.35,0.0168,0.4,95.94,1.998,-108.32,4233.63,13.721,5.538,0,0,0,0,83.76,0,0,0,0,0,0,0,0,0,0,0,0,0,0,0,219.44,FLYING
220.2,APPROACH,ILS_TRACK,73.73,75,1.27,4719.09,-6.8,8.24,11.99,89.44,-2.076,0.4608,0,20,1,0.6,3.046,0.75,0.35,0.0168,0.4,95.9,2.025,-110.48,4232.41,13.639,5.501,0,0,0,0,83.76,0,0,0,0,0,0,0,0,0,0,0,0,0,0,0,220.24,FLYING
221,APPROACH,ILS_TRACK,73.67,75,1.33,4712.5,-6.58,8.35,11.99,89.57,-1.962,0.467,0,20,1,0.6,3.049,0.75,0.35,0.0168,0.4,95.86,2.052,-112.42,4231.35,13.557,5.464,0,0,0,0,83.76,0,0,0,0,0,0,0,0,0,0,0,0,0,0,0,221.04,FLYING
221.8,APPROACH,ILS_TRACK,73.61,75,1.39,4701.96,-6.38,8.46,11.99,89.69,-1.862,0.4711,0,20,1,0.6,3.052,0.75,0.35,0.0168,0.4,95.83,2.078,-114.14,4230.46,13.474,5.425,0,0,0,0,83.76,0,0,0,0,0,0,0,0,0,0,0,0,0,0,0,221.84,FLYING
222.6,APPROACH,ILS_TRACK,73.56,75,1.44,4695.14,-6.17,8.57,11.99,89.81,-1.777,0.4734,0,20,1,0.6,3.054,0.75,0.35,0.0168,0.4,95.78,2.103,-115.65,4229.73,13.392,5.384,0,0,0,0,83.76,0,0,0,0,0,0,0,0,0,0,0,0,0,0,0,222.64,FLYING
223.4,APPROACH,ILS_TRACK,73.53,75,1.47,4690.24,-5.98,8.68,11.99,89.93,-1.706,0.4742,0,20,1,0.6,3.057,0.75,0.35,0.0168,0.4,95.74,2.128,-116.97,4229.16,13.31,5.34,0,0,0,0,83.76,0,0,0,0,0,0,0,0,0,0,0,0,0,0,0,223.44,FLYING
225.16,APPROACH,ILS_TRACK,73.49,75,1.51,4683.93,-5.59,8.91,12,90.18,-1.583,0.4743,0,20,1,0.6,3.06,0.75,0.35,0.0168,0.4,95.97,2.166,-118.63,4228.57,13.185,5.575,0,0,0,0,83.76,0,0,0,0,0,0,0,0,0,0,0,0,0,0,0,225.32,FLYING
228.28,APPROACH,ILS_TRACK,73.46,75,1.54,4682.92,-4.86,9.33,12.03,90.6,-1.543,0.4752,0,20,1,0.6,3.063,0.75,0.35,0.0168,0.4,96.46,2.249,-121.07,4228.59,12.866,6.059,0,0,0,0,83.76,0,0,0,0,0,0,0,0,0,0,0,0,0,0,0,228.44,FLYING
231.4,APPROACH,ILS_TRACK,73.45,75,1.55,4684.35,-4.06,9.78,12.04,91.12,-1.68,0.4705,0,20,1,0.6,3.067,0.75,0.35,0.0168,0.4,95.23,2.321,-121.05,4230.92,12.547,4.834,0,0,0,0,83.76,0,0,0,0,0,0,0,0,0,0,0,0,0,0,0,231.56,FLYING
234.52,APPROACH,ILS_TRACK,73.42,75,1.58,4684.49,-3.21,10.25,12.04,91.51,-1.392,0.4699,0,20,1,0.6,3.07,0.75,0.35,0.0168,0.4,93.79,2.379,-118.36,4235.8,12.228,3.39,0,0,0,0,83.76,0,0,0,0,0,0,0,0,0,0,0,0,0,0,0,234.68,FLYING
237.64,APPROACH,ILS_TRACK,73.34,75,1.66,4685.32,-2.35,10.74,12.05,91.71,-0.856,0.481,0,20,1,0.6,3.074,0.75,0.35,0.0168,0.4,92.41,2.425,-113.32,4243.33,11.909,2.015,0,0,0,0,83.76,0,0,0,0,0,0,0,0,0,0,0,0,0,0,0,237.8,FLYING
240.76,APPROACH,ILS_TRACK,73.2,75,1.8,4685.18,-1.54,11.19,12.05,91.74,-0.262,0.5044,0,20,1,0.6,3.077,0.75,0.35,0.0168,0.4,91.38,2.457,-106.74,4253.46,11.591,0.979,0,0,0,0,83.76,0,0,0,0,0,0,0,0,0,0,0,0,0,0,0,240.92,FLYING
243.88,APPROACH,ILS_TRACK,73.01,75,1.99,4692.38,-0.83,11.59,12.06,91.64,0.174,0.5338,0,20,1,0.6,3.081,0.75,0.35,0.0168,0.4,90.81,2.477,-99.59,4266,11.273,0.406,0,0,0,0,83.76,0,0,0,0,0,0,0,0,0,0,0,0,0,0,0,244.04,FLYING
247.08,APPROACH,ILS_TRACK,72.83,75,2.17,4701.44,-0.19,11.95,12.06,91.5,0.384,0.5608,0,20,1,0.6,3.084,0.75,0.35,0.0168,0.4,90.54,2.486,-92.47,4281.04,10.948,0.14,0,0,0,0,83.76,0,0,0,0,0,0,0,0,0,0,0,0,0,0,0,247.24,FLYING
250.28,APPROACH,ILS_TRACK,72.69,75,2.31,4730.5,0.38,12.27,12.06,91.35,0.437,0.5764,0,20,1,0.6,3.087,0.75,0.35,0.0168,0.4,90.61,2.486,-86.01,4298,10.624,0.212,0,0,0,0,83.76,0,0,0,0,0,0,0,0,0,0,0,0,0,0,0,250.44,FLYING
253.48,APPROACH,ILS_TRACK,72.61,75,2.39,4748.81,0.92,12.57,12.05,91.23,0.387,0.5788,0,20,1,0.6,3.09,0.75,0.35,0.0168,0.4,90.79,2.477,-80.36,4316.71,10.3,0.388,0,0,0,0,83.76,0,0,0,0,0,0,0,0,0,0,0,0,0,0,0,253.64,FLYING
256.6,APPROACH,ILS_TRACK,72.57,75,2.43,4754.7,1.45,12.87,12.05,91.14,0.287,0.5727,0,20,1,0.6,3.093,0.75,0.35,0.0168,0.4,91.03,2.459,-75.57,4336.6,9.985,0.627,0,0,0,0,83.76,0,0,0,0,0,0,0,0,0,0,0,0,0,0,0,256.76,FLYING
259.72,APPROACH,ILS_TRACK,72.52,75,2.48,4756.16,2,13.18,12.05,91.1,0.146,0.5683,0,20,1,0.6,3.095,0.75,0.35,0.0168,0.4,91.14,2.434,-71.34,4358.19,9.67,0.738,0,0,0,0,83.76,0,0,0,0,0,0,0,0,0,0,0,0,0,0,0,259.88,FLYING
262.84,APPROACH,ILS_TRACK,72.44,75,2.56,4752.93,2.54,13.49,12.06,91.08,0.038,0.5726,0,20,1,0.6,3.097,0.75,0.35,0.0168,0.4,91.16,2.399,-67.46,4381.48,9.355,0.756,0,0,0,0,83.76,0,0,0,0,0,0,0,0,0,0,0,0,0,0,0,263,FLYING
265.96,APPROACH,ILS_TRACK,72.32,75,2.68,4746.72,3.03,13.77,12.06,91.08,0,0.5865,0,20,1,0.6,3.098,0.75,0.35,0.0168,0.4,91.09,2.357,-63.73,4406.4,9.04,0.686,0,0,0,0,83.76,0,0,0,0,0,0,0,0,0,0,0,0,0,0,0,266.12,FLYING
269.08,APPROACH,ILS_TRACK,72.16,75,2.84,4745.77,3.44,13.95,12.01,91.05,0.054,0.6057,0,20,1,0.6,3.1,0.75,0.35,0.0168,0.4,90.98,2.307,-60.07,4432.75,8.726,0.575,0,0,0,0,83.76,0,0,0,0,0,0,0,0,0,0,0,0,0,0,0,269.24,FLYING
272.2,APPROACH,ILS_TRACK,72.05,75,2.95,4734.56,3.64,14.01,11.95,91,0.117,0.6157,0,20,1,0.6,3.101,0.75,0.35,0.0168,0.4,90.9,2.252,-56.54,4460.13,8.412,0.495,0,0,0,0,83.76,0,0,0,0,0,0,0,0,0,0,0,0,0,0,0,272.36,FLYING
275.4,APPROACH,ILS_TRACK,72.02,75,2.98,4740.55,3.76,14.05,11.92,90.95,0.125,0.61,0,20,1,0.6,3.101,0.75,0.35,0.0168,0.4,90.83,2.193,-53.15,4488.77,8.09,0.431,0,0,0,0,83.76,0,0,0,0,0,0,0,0,0,0,0,0,0,0,0,275.56,FLYING
278.52,APPROACH,ILS_TRACK,72.05,75,2.95,4761.49,3.85,14.05,11.88,90.91,0.107,0.5914,0,20,1,0.6,3.101,0.75,0.35,0.0168,0.4,90.88,2.134,-50.1,4517.04,7.776,0.48,0,0,0,0,83.76,0,0,0,0,0,0,0,0,0,0,0,0,0,0,0,278.68,FLYING
281.64,APPROACH,ILS_TRACK,72.12,75,2.88,4789.09,3.92,14.04,11.83,90.88,0.075,0.5668,0,20,1,0.6,3.101,0.75,0.35,0.0168,0.4,90.88,2.074,-47.29,4545.59,7.461,0.483,0,0,0,0,83.76,0,0,0,0,0,0,0,0,0,0,0,0,0,0,0,281.78,FLYING
282.82,APPROACH,ILS_TRACK,72.17,75,2.83,4788.87,3.96,13.93,11.7,90.86,0.062,0.5506,0,20,1,0.6,3.1,0.75,0.35,0.0168,0.4,91.49,2.042,-45.81,4561.47,7.287,1.092,0,0,0,0,83.76,0,0,0,0,0,0,0,0,0,0,0,0,0,0,0,282.86,FLYING
283.71,APPROACH,ILS_TRACK,72.19,75,2.81,4790.09,3.92,13.93,11.72,90.97,-0.346,0.543,0,20,1,0.6,3.1,0.75,0.35,0.0168,0.4,91.88,2.026,-45.15,4568.73,7.208,1.477,0,0,0,0,83.76,0,0,0,0,0,0,0,0,0,0,0,0,0,0,0,283.8,FLYING
286.59,APPROACH,ILS_TRACK,72.19,75,2.81,4795.77,3.88,13.99,11.81,91.27,-0.768,0.5395,0,20,1,0.6,3.099,0.75,0.35,0.0168,0.4,90.95,1.977,-42.83,4591.19,6.961,0.553,0,0,0,0,83.76,0,0,0,0,0,0,0,0,0,0,0,0,0,0,0,286.75,FLYING
289.71,APPROACH,ILS_TRACK,72.08,75,2.92,4810.13,3.86,13.99,11.82,91.05,0.413,0.5586,0,20,1,0.6,3.098,0.75,0.35,0.0168,0.4,89.96,1.916,-38.84,4619.82,6.646,-0.44,0,0,0,0,83.76,0,0,0,0,0,0,0,0,0,0,0,0,0,0,0,289.87,FLYING
292.83,APPROACH,ILS_TRACK,71.95,75,3.05,4846.5,3.76,13.99,11.88,90.52,1.359,0.5825,0,20,1,0.6,3.097,0.75,0.35,0.0168,0.4,89.94,1.857,-35.12,4648.26,6.331,-0.456,0,0,0,0,83.76,0,0,0,0,0,0,0,0,0,0,0,0,0,0,0,292.99,FLYING
295.95,APPROACH,ILS_TRACK,71.85,75,3.15,4894.32,3.66,13.97,11.91,90.31,0.763,0.597,0,20,1,0.6,3.095,0.75,0.35,0.0168,0.4,90.87,1.799,-33.39,4676.38,6.016,0.471,0,0,0,0,83.76,0,0,0,0,0,0,0,0,0,0,0,0,0,0,0,296.11,FLYING
299.07,APPROACH,ILS_TRACK,71.82,75,3.18,4917.72,3.58,13.92,11.9,90.59,-0.579,0.5978,0,20,1,0.6,3.094,0.75,0.35,0.0168,0.4,91.64,1.742,-33.21,4704.22,5.701,1.242,0,0,0,0,83.76,0,0,0,0,0,0,0,0,0,0,0,0,0,0,0,299.23,FLYING
302.19,APPROACH,ILS_TRACK,71.86,75,3.14,4925.18,3.5,13.83,11.87,91.02,-1.207,0.5835,0,20,1,0.6,3.092,0.75,0.35,0.0168,0.4,91.42,1.687,-32.64,4731.8,5.386,1.018,0,0,0,0,83.76,0,0,0,0,0,0,0,0,0,0,0,0,0,0,0,302.35,FLYING
305.31,APPROACH,ILS_TRACK,71.96,75,3.04,4916.99,3.41,13.72,11.81,91.1,-0.439,0.5572,0,20,1,0.6,3.09,0.75,0.35,0.0168,0.4,90.45,1.633,-30.32,4759.13,5.071,0.053,0,0,0,0,83.76,0,0,0,0,0,0,0,0,0,0,0,0,0,0,0,305.47,FLYING
308.51,APPROACH,ILS_TRACK,72.09,75,2.91,4947.21,3.31,13.63,11.78,90.7,0.884,0.529,0,20,1,0.6,3.087,0.75,0.35,0.0168,0.4,89.77,1.579,-26.91,4786.91,4.746,-0.628,0,0,0,0,83.76,0,0,0,0,0,0,0,0,0,0,0,0,0,0,0,308.67,FLYING
311.63,APPROACH,ILS_TRACK,72.13,75,2.87,4957.56,3.21,13.61,11.81,90.3,1.14,0.52,0,20,1,0.6,3.085,0.75,0.35,0.0168,0.4,90.24,1.528,-24.61,4813.73,4.43,-0.164,0,0,0,0,83.76,0,0,0,0,0,0,0,0,0,0,0,0,0,0,0,311.79,FLYING
314.75,APPROACH,ILS_TRACK,72.03,75,2.97,4972.68,3.15,13.62,11.86,90.36,0.058,0.5418,0,20,1,0.6,3.082,0.75,0.35,0.0168,0.4,91.17,1.478,-24.22,4840.31,4.113,0.772,0,0,0,0,83.76,0,0,0,0,0,0,0,0,0,0,0,0,0,0,0,314.91,FLYING
317.87,APPROACH,ILS_TRACK,71.88,75,3.12,4972.14,3.04,13.63,11.93,90.72,-0.923,0.5738,0,20,1,0.6,3.08,0.75,0.35,0.0168,0.4,91.46,1.43,-24.39,4866.61,3.796,1.06,0,0,0,0,83.76,0,0,0,0,0,0,0,0,0,0,0,0,0,0,0,318.03,FLYING
321.07,APPROACH,ILS_TRACK,71.76,75,3.24,5015.44,2.93,13.64,12,90.98,-0.842,0.5954,0,20,1,0.6,3.077,0.75,0.35,0.0168,0.4,90.84,1.382,-23.39,4893.2,3.472,0.435,0,0,0,0,83.76,0,0,0,0,0,0,0,0,0,0,0,0,0,0,0,321.23,FLYING
324.19,APPROACH,ILS_TRACK,71.7,75,3.3,5084.84,2.9,13.59,11.96,90.83,0.208,0.6026,0,20,1,0.6,3.075,0.75,0.35,0.0168,0.4,90.04,1.336,-20.99,4918.89,3.156,-0.357,0,0,0,0,83.76,0,0,0,0,0,0,0,0,0,0,0,0,0,0,0,324.35,FLYING
327.34,APPROACH,ILS_TRACK,71.75,75,3.25,5100.22,2.8,13.51,11.95,90.43,1.03,0.5875,0,20,1,0.6,3.072,0.75,0.35,0.0168,0.4,89.92,1.291,-18.55,4945.03,2.832,-0.482,0,0,0,0,83.76,0,0,0,0,0,0,0,0,0,0,0,0,0,0,0,327.45,FLYING
328.49,APPROACH,ILS_TRACK,71.8,75,3.2,5103.61,2.77,13.42,11.88,90.34,0.971,0.5702,0,20,1,0.6,3.069,0.75,0.35,0.0168,0.4,90.78,1.27,-17.88,4957.72,2.673,0.38,0,0,0,0,83.76,0,0,0,0,0,0,0,0,0,0,0,0,0,0,0,328.57,FLYING
331.27,APPROACH,ILS_TRACK,71.92,75,3.08,5111.3,2.71,13.35,11.84,90.5,-0.132,0.5463,0,20,1,0.6,3.067,0.75,0.35,0.0168,0.4,90.93,1.237,-17.53,4976.42,2.437,0.53,0,0,0,0,83.76,0,0,0,0,0,0,0,0,0,0,0,0,0,0,0,331.43,FLYING
334.39,APPROACH,ILS_TRACK,72.07,75,2.93,5119.6,2.64,13.28,11.81,90.64,-0.418,0.5158,0,20,1,0.6,3.064,0.75,0.35,0.0168,0.4,90.91,1.195,-17.17,5001.43,2.119,0.507,0,0,0,0,83.76,0,0,0,0,0,0,0,0,0,0,0,0,0,0,0,334.55,FLYING
337.51,APPROACH,ILS_TRACK,72.12,75,2.88,5127.81,2.58,13.29,11.85,90.69,-0.226,0.5071,0,20,1,0.6,3.061,0.75,0.35,0.0168,0.4,90.59,1.155,-16.26,5026.27,1.801,0.192,0,0,0,0,83.76,0,0,0,0,0,0,0,0,0,0,0,0,0,0,0,337.67,FLYING
340.63,APPROACH,ILS_TRACK,72.02,75,2.98,5135.65,2.53,13.3,11.89,90.62,0.114,0.5318,0,20,1,0.6,3.058,0.75,0.35,0.0168,0.4,90.34,1.115,-14.94,5050.96,1.483,-0.063,0,0,0,0,83.76,0,0,0,0,0,0,0,0,0,0,0,0,0,0,0,340.79,FLYING
343.83,APPROACH,ILS_TRACK,71.85,75,3.15,5143.64,2.44,13.34,11.98,90.5,0.287,0.5684,0,20,1,0.6,3.056,0.75,0.35,0.0168,0.4,90.33,1.075,-13.7,5076.04,1.156,-0.069,0,0,0,0,83.76,0,0,0,0,0,0,0,0,0,0,0,0,0,0,0,343.99,FLYING
346.95,APPROACH,ILS_TRACK,71.72,75,3.28,5151.1,2.39,13.36,12.03,90.44,0.176,0.5943,0,20,1,0.6,3.053,0.75,0.35,0.0168,0.4,90.56,1.037,-12.98,5100.25,0.839,0.156,0,0,0,0,83.76,0,0,0,0,0,0,0,0,0,0,0,0,0,0,0,347.11,FLYING
350.07,APPROACH,ILS_TRACK,71.67,75,3.33,5158.49,2.34,13.32,12.01,90.46,-0.045,0.6024,0,20,1,0.6,3.051,0.75,0.35,0.0168,0.4,90.74,1,-12.64,5124.27,0.522,0.338,0,0,0,0,83.76,0,0,0,0,0,0,0,0,0,0,0,0,0,0,0,350.23,FLYING
353.19,APPROACH,ILS_TRACK,71.72,75,3.28,5161.69,2.28,13.24,11.97,90.53,-0.206,0.5875,0,20,1,0.6,3.048,0.75,0.35,0.0168,0.4,90.76,0.964,-12.37,5148.12,0.204,0.358,0,0,0,0,83.76,0,0,0,0,0,0,0,0,0,0,0,0,0,0,0,353.35,FLYING
356.31,APPROACH,ILS_TRACK,71.86,75,3.14,5169.21,2.22,13.14,11.9,90.57,-0.161,0.5545,0,20,1,0.6,3.045,0.75,0.35,0.0168,0.4,90.62,0.929,-11.86,5171.81,-0.113,0.222,0,0,0,0,83.76,0,0,0,0,0,0,0,0,0,0,0,0,0,0,0,356.47,FLYING
359.43,APPROACH,ILS_TRACK,72.06,75,2.94,5176.44,2.19,13.03,11.82,90.55,-0.014,0.515,0,20,1,0.6,3.043,0.75,0.35,0.0168,0.4,90.48,0.894,-11.12,5195.4,-0.432,0.075,0,0,0,0,83.76,0,0,0,0,0,0,0,0,0,0,0,0,0,0,0,359.59,FLYING
362.55,APPROACH,ILS_TRACK,72.19,75,2.81,5183.38,2.14,12.98,11.8,90.5,0.092,0.4898,0,20,1,0.6,3.04,0.75,0.35,0.0168,0.4,90.43,0.861,-10.36,5218.91,-0.752,0.031,0,0,0,0,83.76,0,0,0,0,0,0,0,0,0,0,0,0,0,0,0,362.71,FLYING
364.2,APPROACH,ILS_TRACK,72.19,75,2.81,5186.89,2.11,12.93,11.76,90.47,0.129,0.4973,0,20,1,0.6,3.037,0.75,0.35,0.0168,0.4,90.57,0.839,-9.91,5235.32,-0.976,0.173,0,0,0,0,83.76,0,0,0,0,0,0,0,0,0,0,0,0,0,0,0,364.24,FLYING
365.02,APPROACH,ILS_TRACK,72.16,75,2.84,5188.64,2.1,12.92,11.76,90.48,0.052,0.509,0,20,1,0.6,3.034,0.75,0.35,0.0168,0.4,90.72,0.83,-9.77,5241.45,-1.06,0.322,0,0,0,0,83.76,0,0,0,0,0,0,0,0,0,0,0,0,0,0,0,365.06,FLYING
365.82,APPROACH,ILS_TRACK,72.14,75,2.86,5190.23,2.06,12.93,11.79,90.5,-0.053,0.5198,0,20,1,0.6,3.032,0.75,0.35,0.0168,0.4,90.72,0.822,-9.65,5247.41,-1.142,0.323,0,0,0,0,83.76,0,0,0,0,0,0,0,0,0,0,0,0,0,0,0,365.86,FLYING
366.64,APPROACH,ILS_TRACK,72.11,75,2.89,5191.91,2.03,12.93,11.8,90.52,-0.116,0.5291,0,20,1,0.6,3.03,0.75,0.35,0.0168,0.4,90.72,0.813,-9.52,5253.5,-1.226,0.317,0,0,0,0,83.76,0,0,0,0,0,0,0,0,0,0,0,0,0,0,0,366.68,FLYING
367.46,APPROACH,ILS_TRACK,72.08,75,2.92,5193.54,2.01,12.93,11.82,90.53,-0.148,0.5368,0,20,1,0.6,3.028,0.75,0.35,0.0168,0.4,90.71,0.805,-9.38,5259.56,-1.31,0.305,0,0,0,0,83.76,0,0,0,0,0,0,0,0,0,0,0,0,0,0,0,367.5,FLYING
368.28,APPROACH,ILS_TRACK,72.05,75,2.95,5195.11,1.98,12.94,11.84,90.55,-0.154,0.543,0,20,1,0.6,3.026,0.75,0.35,0.0168,0.4,90.69,0.797,-9.22,5265.6,-1.394,0.291,0,0,0,0,83.76,0,0,0,0,0,0,0,0,0,0,0,0,0,0,0,368.32,FLYING
369.1,APPROACH,ILS_TRACK,72.03,75,2.97,5196.67,1.96,12.93,11.84,90.56,-0.154,0.5478,0,20,1,0.6,3.024,0.75,0.35,0.0168,0.4,90.68,0.789,-9.05,5271.62,-1.478,0.277,0,0,0,0,83.76,0,0,0,0,0,0,0,0,0,0,0,0,0,0,0,369.14,FLYING
369.92,APPROACH,ILS_TRACK,72.01,75,2.99,5198.24,1.94,12.92,11.85,90.57,-0.149,0.5512,0,20,1,0.6,3.022,0.75,0.35,0.0168,0.4,90.66,0.781,-8.87,5277.63,-1.562,0.263,0,0,0,0,83.76,0,0,0,0,0,0,0,0,0,0,0,0,0,0,0,369.96,FLYING
370.56,DONE,ILS_TRACK,72,75,3,5199.38,1.93,12.93,11.87,90.57,-0.138,0.5512,0,20,1,0.6,3.022,0.75,0.35,0.0168,0.4,90.66,0.781,-8.87,5277.63,-1.562,0.263,0,0,0,0,83.76,0,0,0,0,0,0,0,0,0,0,0,0,0,0,0,370.6,FLYING
# end T+371.1  IAS 72 m/s
