t_s,phase,subphase,ias_ms,vapp_ms,spd_err_ms,agl_m,gear_h_m,vs_ms,pitch_deg,aoa_deg,hdg_deg,bank_deg,thr_cmd,thr_cur,thr_intg,at_gain,at_tau_s,at_a_up,at_a_dn,at_kp_thr,at_ki_spd,at_thr_slew,as_cmd_deg,as_cap_deg,as_raw_deg,as_spd_err_ms,as_active,aa_hdg_cmd_deg,aa_fpa_cmd_deg,aa_fbw,aa_dir,actual_fpa_deg,ftf_hdg_err_deg,ftf_fix_idx,kos_steer_pit_deg,kos_steer_hdg_deg,aa_dir_vx,aa_dir_vy,aa_dir_vz,aa_dir_pitch_deg,aa_dir_hdg_deg,ils_loc_m,ils_gs_m,ils_dist_km,loc_corr_deg,gs_corr_deg,gs_latched,active_gs_ang_deg,ils_intercept_alt_m,d_gs_ms,fpa_preclamped_deg,gs_nom_alt_m,flare_fpa_cmd,flare_tgt_vs,flare_frac,flare_mode,flare_auth_limited,flare_vs_err,flare_fpa_err,flare_pitch_err,flare_req_up_a,flare_thr_floor,steer_hdg_deg,steer_blend,ro_loc_corr_deg,ro_hdg_err_deg,ro_yaw_tgt,ro_yaw_scale,ro_yaw_gate,yaw_cmd,roll_cmd,pitch_cmd,ro_pitch_tgt_deg,ro_pitch_err_deg,ro_pitch_ff,ro_roll_assist,flaps_cur,flaps_tgt,asc_j_ab,asc_j_rk,asc_validity,asc_q_pa,asc_q_raw_pa,asc_mach,asc_apo_m,asc_drag_n,asc_w_prop,asc_edot_aero,asc_edot_orb,asc_pitch_bias,asc_blend,asc_spooling,asc_ab_thr_ratio,asc_ab_t_now,asc_ab_t_avail,asc_ab_ign_on,asc_ab_flameouts,asc_rk_t_now,asc_rk_t_avail,asc_rk_ign_on,asc_rk_flameouts,ship_thrust,ship_avail_thrust,ship_ign_on,ship_flameouts,ifc_raw_dt_s,ifc_dt_s,ifc_loop_n,ifc_hz_est,ifc_raw_dt_max_s,ifc_raw_dt_min_s,phase_el_s,status,craft_name,cfg_file
0.16,APPROACH,ILS_TRACK,154.98,152,-2.98,672.14,592.44,-21.38,6.83,14.33,269.97,-0.198,0,0,0,0,0,0,0,0,0,0,0,0,0,0,0,0,0,1,0,-7.86,0,0,0,90,0,0,0,0,0,-0.02,-19.23,11.775,0,0,0,3,672.14,0,0,691.37,0,0,0,,0,0,0,0,0,0,269.98,0,0,0,0,0,0,0,0,0,0,0,0,0,0,0,0,0,VALID,0,0,0,0,0,1,0,0,0,0,0,0,0,0,0,0,0,0,0,0,258.02,1091.33,2,0,0.14,0.14,1,3.7,0.14,0.02,0.16,FLYING,X10-F,0:/Integrated Flight Computer/aircraft/x10_f_cfg.ks (inferred preloaded)
0.42,APPROACH,ILS_TRACK,155.25,152,-3.25,666.59,586.92,-21.11,6.8,14.18,269.95,-0.172,0,0,0,1,0.6,1.485,0.75,0.35,0.0168,0.4,1.962,20.981,1.962,3.23,1,270,0,0,1,-7.76,0,0,0,270.04,0.4118,0.0001,0.9113,0,270,-0.02,-22.05,11.739,0.004,16.894,1,3,672.14,-12.85,0,689.5,0,0,0,,0,0,0,0,0,0,269.98,0,0,0,0,0,0,0,0,0,0,0,0,0,1,3,0,0,VALID,0,0,0,0,0,1,0,0,0,0,0,0,0,0,0,0,0,0,0,0,235.84,1092.9,2,0,0.12,0.12,3,7.69,0.14,0.12,0.42,FLYING,X10-F,0:/Integrated Flight Computer/aircraft/x10_f_cfg.ks (inferred preloaded)
0.68,APPROACH,ILS_TRACK,155.34,152,-3.34,660.87,581.51,-20.67,5.98,13.12,269.96,-0.125,0,0,0,1,0.6,2.743,0.75,0.35,0.0168,0.4,2.085,20.949,2.085,3.342,1,270.01,0,0,1,-7.6,0,0,0,270.01,0.4119,0.0002,0.9112,0,270.01,-0.03,-25.52,11.697,0.009,18.518,1,3,672.14,-13.579,0,687.28,0,0,0,,0,0,0,0,0,0,269.98,0,0,0,0,0,0,0,0,0,0,0,0,0,1,3,0,0,VALID,0,0,0,0,0,1,0,0,0,0,0,0,0,0,0,0,0,0,0,0,215.44,1093.72,2,0,0.12,0.12,5,7.69,0.14,0.12,0.68,FLYING,X10-F,0:/Integrated Flight Computer/aircraft/x10_f_cfg.ks (inferred preloaded)
0.94,APPROACH,ILS_TRACK,155.42,152,-3.42,654.89,576.21,-20.72,3.95,11.01,269.97,-0.082,0,0,0,1,0.6,3.809,0.75,0.35,0.0168,0.4,2.157,20.931,2.157,3.406,1,270.01,0,0,1,-7.57,0,0,0,270.01,0.412,0.0002,0.9112,0,270.01,-0.04,-29.25,11.654,0.012,20.466,1,3,672.14,-14.613,0,685.07,0,0,0,,0,0,0,0,0,0,269.98,0,0,0,0,0,0,0,0,0,0,0,0,0,2,3,0,0,VALID,0,0,0,0,0,1,0,0,0,0,0,0,0,0,0,0,0,0,0,0,196.75,1094.45,2,0,0.12,0.12,7,7.69,0.14,0.12,0.94,FLYING,X10-F,0:/Integrated Flight Computer/aircraft/x10_f_cfg.ks (inferred preloaded)
1.3,APPROACH,ILS_TRACK,155.97,152,-3.97,646.47,568.62,-21.89,1.21,8.72,269.98,-0.046,0,0,0,1,0.6,4.5,0.75,0.35,0.0168,0.4,2.741,20.781,2.741,3.94,1,270.01,0,0,1,-7.93,0,0,0,270.01,0.4121,0.0002,0.9112,0,270.01,-0.05,-34.59,11.596,0.012,22.257,1,3,672.14,-14.85,0,682,0,0,0,,0,0,0,0,0,0,269.98,0,0,0,0,0,0,0,0,0,0,0,0,0,3,3,0,0,VALID,0,0,0,0,0,1,0,0,0,0,0,0,0,0,0,0,0,0,0,0,173.83,1097.37,2,0,0.12,0.12,10,8.33,0.12,0.12,1.3,FLYING,X10-F,0:/Integrated Flight Computer/aircraft/x10_f_cfg.ks (inferred preloaded)
1.66,APPROACH,ILS_TRACK,156.59,152,-4.59,638.07,560.44,-23.46,0.22,8.36,269.98,-0.051,0,0,0,1,0.6,4.5,0.75,0.35,0.0168,0.4,3.406,20.606,3.406,4.558,1,270.01,0,0,1,-8.46,0,0,0,270.02,0.4121,0.0002,0.9111,0,270.01,-0.07,-39.92,11.537,0.013,23.786,1,3,672.14,-14.763,0,678.92,0,0,0,,0,0,0,0,0,0,269.98,0,0,0,0,0,0,0,0,0,0,0,0,0,3,3,0,0,VALID,0,0,0,0,0,1,0,0,0,0,0,0,0,0,0,0,0,0,0,0,153.64,1100.65,2,0,0.12,0.12,13,8.33,0.12,0.12,1.66,FLYING,X10-F,0:/Integrated Flight Computer/aircraft/x10_f_cfg.ks (inferred preloaded)
2.02,APPROACH,ILS_TRACK,157.1,152,-5.1,629.73,551.72,-24.76,1.27,9.97,269.97,-0.052,0,0,0,1,0.6,4.5,0.75,0.35,0.0168,0.4,3.955,20.46,3.955,5.076,1,270.01,0,0,1,-8.92,0,0,0,270.01,0.4122,0.0002,0.9111,0,270.01,-0.08,-45.18,11.478,0.014,25.179,1,3,672.14,-14.53,0,675.84,0,0,0,,0,0,0,0,0,0,269.98,0,0,0,0,0,0,0,0,0,0,0,0,0,3,3,0,0,VALID,0,0,0,0,0,1,0,0,0,0,0,0,0,0,0,0,0,0,0,0,135.76,1103.54,2,0,0.12,0.12,16,8.33,0.12,0.12,2.02,FLYING,X10-F,0:/Integrated Flight Computer/aircraft/x10_f_cfg.ks (inferred preloaded)
2.38,APPROACH,ILS_TRACK,157.35,152,-5.35,621.55,542.6,-25.18,4.11,13.04,269.97,-0.05,0,0,0,1,0.6,4.5,0.75,0.35,0.0168,0.4,4.238,20.384,4.238,5.346,1,270.01,0,0,1,-9.11,0,0,0,270.02,0.4123,0.0002,0.911,0,270.01,-0.1,-50.29,11.419,0.014,26.298,1,3,672.14,-14.013,0,672.75,0,0,0,,0,0,0,0,0,0,269.98,0,0,0,0,0,0,0,0,0,0,0,0,0,3,3,0,0,VALID,0,0,0,0,0,1,0,0,0,0,0,0,0,0,0,0,0,0,0,0,119.84,1105.38,2,0,0.12,0.12,19,8.33,0.12,0.12,2.38,FLYING,X10-F,0:/Integrated Flight Computer/aircraft/x10_f_cfg.ks (inferred preloaded)
2.74,APPROACH,ILS_TRACK,157.05,152,-5.05,613.23,533.67,-24.15,6.35,14.83,269.97,-0.043,0,0,0,1,0.6,4.5,0.75,0.35,0.0168,0.4,3.967,20.457,3.967,5.087,1,270.02,0,0,1,-8.79,0,0,0,270.02,0.4124,0.0003,0.911,0,270.02,-0.11,-55.49,11.36,0.018,28.472,1,3,672.14,-14.781,0,669.67,0,0,0,,0,0,0,0,0,0,269.98,0,0,0,0,0,0,0,0,0,0,0,0,0,3,3,0,0,VALID,0,0,0,0,0,1,0,0,0,0,0,0,0,0,0,0,0,0,0,0,105.57,1104.81,2,0,0.12,0.12,22,8.33,0.12,0.12,2.74,FLYING,X10-F,0:/Integrated Flight Computer/aircraft/x10_f_cfg.ks (inferred preloaded)
3.1,APPROACH,ILS_TRACK,156.47,152,-4.47,604.7,525.15,-23.35,6.4,14.56,269.97,-0.025,0,0,0,1,0.6,4.5,0.75,0.35,0.0168,0.4,3.341,20.624,3.341,4.497,1,270.02,0,0,1,-8.5,0,0,0,270.02,0.4125,0.0003,0.911,0,270.02,-0.13,-60.95,11.302,0.017,30.408,1,3,672.14,-15.153,0,666.59,0,0,0,,0,0,0,0,0,0,269.98,0,0,0,0,0,0,0,0,0,0,0,0,0,3,3,0,0,VALID,0,0,0,0,0,1,0,0,0,0,0,0,0,0,0,0,0,0,0,0,92.87,1102.97,2,0,0.12,0.12,25,8.33,0.12,0.12,3.1,FLYING,X10-F,0:/Integrated Flight Computer/aircraft/x10_f_cfg.ks (inferred preloaded)
3.36,APPROACH,ILS_TRACK,156.16,152,-4.16,598.69,519.12,-23.08,6.41,14.52,269.98,0.018,0.0298,0,-1.109,1,0.6,4.5,0.75,0.35,0.0168,0.4,3.007,20.711,3.007,4.186,1,270.02,0,0,1,-8.42,0,0,0,270.02,0.4126,0.0004,0.9109,0,270.02,-0.15,-64.78,11.26,0.021,31.051,1,3,672.14,-14.522,0,664.38,0,0,0,,0,0,0,0,0,0,269.98,0,0,0,0,0,0,0,0,0,0,0,0,0,3,3,0,0,VALID,0,0,0,0,0,1,0,0,0,0,0,0,0,0,0,0,0,0,0,0,85.09,1102.09,2,0,0.12,0.12,27,7.69,0.14,0.12,3.36,FLYING,X10-F,0:/Integrated Flight Computer/aircraft/x10_f_cfg.ks (inferred preloaded)
3.72,APPROACH,ILS_TRACK,155.64,152,-3.64,590.75,510.85,-22.69,7.3,15.37,269.99,0.058,0.1062,0,-2.497,1,0.6,4.5,0.75,0.35,0.0168,0.4,0,20.855,0,3.674,0,270.02,0,0,1,-8.31,0,0,0,270.02,0.4127,0.0004,0.9109,0,270.02,-0.17,-69.72,11.201,0.022,31.548,1,3,672.14,-13.291,0,661.32,0,0,0,,0,0,0,0,0,0,269.98,0,0,0,0,0,0,0,0,0,0,0,0,0,3,3,0,0,VALID,0,0,0,0,0,1,0,0,0,0,0,0,0,0,0,0,0,0,0,0,81.17,1100.52,2,0,0.12,0.12,30,8.33,0.12,0.12,3.72,FLYING,X10-F,0:/Integrated Flight Computer/aircraft/x10_f_cfg.ks (inferred preloaded)
4.08,APPROACH,ILS_TRACK,154.92,152,-2.92,583.25,502.76,-22.01,9.16,17.08,270,0.079,0.2502,0,-3.656,1,0.6,4.5,0.75,0.35,0.0168,0.4,0,21.055,0,2.966,0,270.03,0,0,1,-8.12,0,0,0,270.02,0.4127,0.0004,0.9108,0,270.03,-0.19,-74.21,11.143,0.025,31.945,1,3,672.14,-12.102,0,658.28,0,0,0,,0,0,0,0,0,0,269.98,0,0,0,0,0,0,0,0,0,0,0,0,0,3,3,0,0,VALID,0,0,0,0,0,1,0,0,0,0,0,0,0,0,0,0,0,0,0,0,86.65,1098.08,2,0,0.12,0.12,33,8.33,0.12,0.12,4.08,FLYING,X10-F,0:/Integrated Flight Computer/aircraft/x10_f_cfg.ks (inferred preloaded)
4.44,APPROACH,ILS_TRACK,153.88,152,-1.88,576.09,495.05,-20.46,11.09,18.47,270.01,0.078,0.3942,0,-4.49,1,0.6,4.5,0.75,0.35,0.0168,0.4,0,21.342,0,1.947,0,270.02,0,0,1,-7.65,0,0,0,270.02,0.4128,0.0004,0.9108,0,270.02,-0.21,-78.36,11.085,0.023,32.594,1,3,672.14,-11.355,0,655.25,0,0,0,,0,0,0,0,0,0,269.98,0,0,0,0,0,0,0,0,0,0,0,0,0,3,3,0,0,VALID,0,0,0,0,0,1,0,0,0,0,0,0,0,0,0,0,0,0,0,0,102.53,1094.25,2,0,0.12,0.12,36,8.33,0.12,0.12,4.44,FLYING,X10-F,0:/Integrated Flight Computer/aircraft/x10_f_cfg.ks (inferred preloaded)
4.81,APPROACH,ILS_TRACK,152.73,152,-0.73,569.01,487.9,-18.83,11.43,18.22,270,0.062,0.5324,0,-4.891,1,0.6,4.5,0.75,0.35,0.0168,0.4,0,21.662,0,0.811,0,270.02,0,0,1,-7.1,0,0,0,270.02,0.4129,0.0004,0.9108,0,270.02,-0.23,-82.21,11.03,0.021,33.347,1,3,672.14,-10.857,0,652.36,0,0,0,,0,0,0,0,0,0,269.98,0,0,0,0,0,0,0,0,0,0,0,0,0,3,3,0,0,VALID,0,0,0,0,0,1,0,0,0,0,0,0,0,0,0,0,0,0,0,0,128.34,1089.92,2,0,0.132,0.132,39,8.19,0.132,0.101,4.81,FLYING,X10-F,0:/Integrated Flight Computer/aircraft/x10_f_cfg.ks (inferred preloaded)
5.12,APPROACH,ILS_TRACK,151.89,152,0.11,563.28,482.18,-17.92,11.4,17.89,270,0.074,0.6562,0,-4.948,1,0.6,4.5,0.75,0.35,0.0168,0.4,0,21.898,0,-0.025,0,270.02,0,0,1,-6.79,0,0,0,270.02,0.413,0.0004,0.9107,0,270.02,-0.24,-85.37,10.981,0.022,33.614,1,3,672.14,-10.005,0,649.79,0,0,0,,0,0,0,0,0,0,269.98,0,0,0,0,0,0,0,0,0,0,0,0,0,3,3,0,0,VALID,0,0,0,0,0,1,0,0,0,0,0,0,0,0,0,0,0,0,0,0,156.73,1086.81,2,0,0.157,0.157,41,6.4,0.157,0.132,5.12,FLYING,X10-F,0:/Integrated Flight Computer/aircraft/x10_f_cfg.ks (inferred preloaded)
5.45,APPROACH,ILS_TRACK,151.05,152,0.95,557.53,476.44,-17.11,11.36,17.59,270.01,0.081,0.7864,0,-4.732,1,0.6,4.5,0.75,0.35,0.0168,0.4,0,22.136,0,-0.87,0,270.02,0,0,1,-6.51,0,0,0,270.02,0.4131,0.0004,0.9107,0,270.02,-0.26,-88.42,10.93,0.021,33.891,1,3,672.14,-9.204,0,647.1,0,0,0,,0,0,0,0,0,0,269.98,0,0,0,0,0,0,0,0,0,0,0,0,0,3,3,0,0,VALID,0,0,0,0,0,1,0,0,0,0,0,0,0,0,0,0,0,0,0,0,193.13,1083.72,2,0,0.165,0.165,43,6.09,0.165,0.157,5.45,FLYING,X10-F,0:/Integrated Flight Computer/aircraft/x10_f_cfg.ks (inferred preloaded)
5.79,APPROACH,ILS_TRACK,150.29,152,1.71,551.79,470.68,-16.36,11.39,17.39,270.01,0.07,0.9232,0,-4.234,1,0.6,4.5,0.75,0.35,0.0168,0.4,0,22.353,0,-1.641,0,270.02,0,0,1,-6.26,0,0,0,270.02,0.4131,0.0004,0.9107,0,270.02,-0.27,-91.36,10.876,0.021,34.112,1,3,672.14,-8.38,0,644.29,0,0,0,,0,0,0,0,0,0,269.98,0,0,0,0,0,0,0,0,0,0,0,0,0,3,3,0,0,VALID,0,0,0,0,0,1,0,0,0,0,0,0,0,0,0,0,0,0,0,0,238.19,1080.98,2,0,0.173,0.173,45,5.8,0.173,0.165,5.79,FLYING,X10-F,0:/Integrated Flight Computer/aircraft/x10_f_cfg.ks (inferred preloaded)
6.14,APPROACH,ILS_TRACK,149.65,152,2.35,546.25,465.12,-15.52,11.47,17.17,270,0.046,0.8984,0,-3.486,1,0.6,4.5,0.75,0.35,0.0168,0.4,0,22.537,0,-2.291,0,270.02,0,0,1,-5.97,0,0,0,270.02,0.4132,0.0003,0.9106,0,270.02,-0.28,-94.09,10.822,0.019,34.325,1,3,672.14,-7.623,0,641.42,0,0,0,,0,0,0,0,0,0,269.98,0,0,0,0,0,0,0,0,0,0,0,0,0,3,3,0,0,VALID,0,0,0,0,0,1,0,0,0,0,0,0,0,0,0,0,0,0,0,0,288.43,1078.77,2,0,0.175,0.175,47,5.71,0.175,0.173,6.14,FLYING,X10-F,0:/Integrated Flight Computer/aircraft/x10_f_cfg.ks (inferred preloaded)
6.53,APPROACH,ILS_TRACK,149.15,152,2.85,540.51,459.31,-14.74,11.65,17.12,270,0.052,0.833,0,-2.447,1,0.6,4.5,0.75,0.35,0.0168,0.4,0,22.684,0,-2.813,0,270.02,0,0,1,-5.69,0,0,0,270.02,0.4133,0.0004,0.9106,0,270.02,-0.3,-96.76,10.762,0.021,34.347,1,3,672.14,-6.65,0,638.28,0,0,0,,0,0,0,0,0,0,269.98,0,0,0,0,0,0,0,0,0,0,0,0,0,3,3,0,0,VALID,0,0,0,0,0,1,0,0,0,0,0,0,0,0,0,0,0,0,0,0,337.89,1077.14,2,0,0.175,0.175,49,5.19,0.21,0.175,6.53,FLYING,X10-F,0:/Integrated Flight Computer/aircraft/x10_f_cfg.ks (inferred preloaded)
6.88,APPROACH,ILS_TRACK,148.82,152,3.18,535.67,454.28,-13.98,12.19,17.43,270,0.068,0.7515,0,-1.372,1,0.6,4.5,0.75,0.35,0.0168,0.4,0,22.779,0,-3.15,0,270.03,0,0,1,-5.43,0,0,0,270.02,0.4134,0.0004,0.9105,0,270.03,-0.32,-98.82,10.707,0.025,34.157,1,3,672.14,-5.638,0,635.42,0,0,0,,0,0,0,0,0,0,269.98,0,0,0,0,0,0,0,0,0,0,0,0,0,3,3,0,0,VALID,0,0,0,0,0,1,0,0,0,0,0,0,0,0,0,0,0,0,0,0,374.53,1076.19,2,0,0.175,0.175,51,5.71,0.175,0.175,6.88,FLYING,X10-F,0:/Integrated Flight Computer/aircraft/x10_f_cfg.ks (inferred preloaded)
7.23,APPROACH,ILS_TRACK,148.53,152,3.47,531.14,449.59,-12.84,12.85,17.65,270.01,0.068,0.6984,0,-0.193,1,0.6,4.5,0.75,0.35,0.0168,0.4,0,22.862,0,-3.444,0,270.02,0,0,1,-5.02,0,0,0,270.02,0.4135,0.0004,0.9105,0,270.02,-0.33,-100.55,10.653,0.021,33.97,1,3,672.14,-4.757,0,632.58,0,0,0,,0,0,0,0,0,0,269.98,0,0,0,0,0,0,0,0,0,0,0,0,0,3,3,0,0,VALID,0,0,0,0,0,1,0,0,0,0,0,0,0,0,0,0,0,0,0,0,402.97,1075.35,2,0,0.175,0.175,53,5.71,0.175,0.175,7.23,FLYING,X10-F,0:/Integrated Flight Computer/aircraft/x10_f_cfg.ks (inferred preloaded)
7.58,APPROACH,ILS_TRACK,148.26,152,3.74,526.91,445.27,-11.89,13.1,17.55,270.01,0.077,0.6712,0,1.086,1,0.6,4.5,0.75,0.35,0.0168,0.4,0,22.939,0,-3.719,0,270.02,0,0,1,-4.65,0,0,0,270.02,0.4136,0.0004,0.9105,0,270.02,-0.34,-102.01,10.598,0.024,33.748,1,3,672.14,-3.932,0,629.73,0,0,0,,0,0,0,0,0,0,269.98,0,0,0,0,0,0,0,0,0,0,0,0,0,3,3,0,0,VALID,0,0,0,0,0,1,0,0,0,0,0,0,0,0,0,0,0,0,0,0,426.06,1074.59,2,0,0.175,0.175,55,5.71,0.175,0.175,7.58,FLYING,X10-F,0:/Integrated Flight Computer/aircraft/x10_f_cfg.ks (inferred preloaded)
7.93,APPROACH,ILS_TRACK,148.05,152,3.95,523.04,441.29,-10.86,13.5,17.61,270.01,0.088,0.6432,0,2.444,1,0.6,4.5,0.75,0.35,0.0168,0.4,0,22.998,0,-3.93,0,270.03,0,0,1,-4.31,0,0,0,270.02,0.4137,0.0005,0.9104,0,270.03,-0.36,-103.1,10.544,0.026,33.221,1,3,672.14,-2.863,0,626.89,0,0,0,,0,0,0,0,0,0,269.98,0,0,0,0,0,0,0,0,0,0,0,0,0,3,3,0,0,VALID,0,0,0,0,0,1,0,0,0,0,0,0,0,0,0,0,0,0,0,0,445.5,1074.06,2,0,0.175,0.175,57,5.71,0.175,0.175,7.93,FLYING,X10-F,0:/Integrated Flight Computer/aircraft/x10_f_cfg.ks (inferred preloaded)
8.28,APPROACH,ILS_TRACK,147.85,152,4.15,519.46,437.7,-9.82,13.58,17.24,270.01,0.069,0.6375,0,3.874,1,0.6,4.5,0.75,0.35,0.0168,0.4,0,23.056,0,-4.135,0,270.02,0,0,1,-3.87,0,0,0,270.02,0.4137,0.0004,0.9104,0,270.02,-0.37,-103.91,10.49,0.023,32.848,1,3,672.14,-2.095,0,624.05,0,0,0,,0,0,0,0,0,0,269.98,0,0,0,0,0,0,0,0,0,0,0,0,0,3,3,0,0,VALID,0,0,0,0,0,1,0,0,0,0,0,0,0,0,0,0,0,0,0,0,461.88,1073.52,2,0,0.175,0.175,59,5.71,0.175,0.175,8.28,FLYING,X10-F,0:/Integrated Flight Computer/aircraft/x10_f_cfg.ks (inferred preloaded)
8.63,APPROACH,ILS_TRACK,147.73,152,4.27,516.22,434.42,-8.99,13.68,17.05,270.01,0.092,0.6123,0,5.355,1,0.6,4.5,0.75,0.35,0.0168,0.4,0,23.091,0,-4.258,0,270.02,0,0,1,-3.54,0,0,0,270.02,0.4138,0.0004,0.9104,0,270.02,-0.38,-104.38,10.436,0.024,32.182,1,3,672.14,-1.086,0,621.22,0,0,0,,0,0,0,0,0,0,269.98,0,0,0,0,0,0,0,0,0,0,0,0,0,3,3,0,0,VALID,0,0,0,0,0,1,0,0,0,0,0,0,0,0,0,0,0,0,0,0,476.58,1073.32,2,0,0.175,0.175,61,5.71,0.175,0.175,8.63,FLYING,X10-F,0:/Integrated Flight Computer/aircraft/x10_f_cfg.ks (inferred preloaded)
8.98,APPROACH,ILS_TRACK,147.68,152,4.32,513.36,431.42,-8.18,14.07,17.19,270.02,0.117,0.5828,0,6.862,1,0.6,4.5,0.75,0.35,0.0168,0.4,0,23.108,0,-4.319,0,270.03,0,0,1,-3.23,0,0,0,270.02,0.4139,0.0004,0.9103,0,270.03,-0.39,-104.48,10.382,0.026,31.354,1,3,672.14,-0.014,0,618.38,0,0,0,,0,0,0,0,0,0,269.98,0,0,0,0,0,0,0,0,0,0,0,0,0,3,3,0,0,VALID,0,0,0,0,0,1,0,0,0,0,0,0,0,0,0,0,0,0,0,0,488.47,1073.33,2,0,0.175,0.175,63,5.71,0.175,0.175,8.98,FLYING,X10-F,0:/Integrated Flight Computer/aircraft/x10_f_cfg.ks (inferred preloaded)
9.33,APPROACH,ILS_TRACK,147.61,152,4.39,510.84,428.76,-7.08,14.6,17.28,270.03,0.124,0.5755,0,8.389,1,0.6,4.5,0.75,0.35,0.0168,0.4,0,23.125,0,-4.379,0,270.02,0,0,1,-2.82,0,0,0,270.02,0.414,0.0004,0.9103,0,270.02,-0.4,-104.22,10.328,0.022,30.541,1,3,672.14,0.908,0,615.54,0,0,0,,0,0,0,0,0,0,269.98,0,0,0,0,0,0,0,0,0,0,0,0,0,3,3,0,0,VALID,0,0,0,0,0,1,0,0,0,0,0,0,0,0,0,0,0,0,0,0,497.59,1073.29,2,0,0.175,0.175,65,5.71,0.175,0.175,9.33,FLYING,X10-F,0:/Integrated Flight Computer/aircraft/x10_f_cfg.ks (inferred preloaded)
9.68,APPROACH,ILS_TRACK,147.54,152,4.46,508.59,426.48,-5.85,14.83,17.05,270.03,0.137,0.5845,0,9.94,1,0.6,4.5,0.75,0.35,0.0168,0.4,0,23.144,0,-4.448,0,270.02,0,0,1,-2.41,0,0,0,270.02,0.4141,0.0004,0.9102,0,270.02,-0.41,-103.68,10.274,0.023,29.681,1,3,672.14,1.78,0,612.71,0,0,0,,0,0,0,0,0,0,269.98,0,0,0,0,0,0,0,0,0,0,0,0,0,3,3,0,0,VALID,0,0,0,0,0,1,0,0,0,0,0,0,0,0,0,0,0,0,0,0,505.86,1073.2,2,0,0.175,0.175,67,5.71,0.175,0.175,9.68,FLYING,X10-F,0:/Integrated Flight Computer/aircraft/x10_f_cfg.ks (inferred preloaded)
10.03,APPROACH,ILS_TRACK,147.43,152,4.57,506.43,424.8,-4.12,13.64,14.97,270.03,0.135,0.6225,0,11.526,1,0.6,4.5,0.75,0.35,0.0168,0.4,0,23.177,0,-4.562,0,270.02,0,0,1,-1.7,0,0,0,270.02,0.4141,0.0004,0.9102,0,270.02,-0.41,-103.01,10.22,0.02,29.335,1,3,672.14,1.961,0,609.88,0,0,0,,0,0,0,0,0,0,269.98,0,0,0,0,0,0,0,0,0,0,0,0,0,3,3,0,0,VALID,0,0,0,0,0,1,0,0,0,0,0,0,0,0,0,0,0,0,0,0,514.39,1072.84,2,0,0.175,0.175,69,5.71,0.175,0.175,10.03,FLYING,X10-F,0:/Integrated Flight Computer/aircraft/x10_f_cfg.ks (inferred preloaded)
10.38,APPROACH,ILS_TRACK,147.62,152,4.38,504.43,423.53,-3.58,11.18,12.28,270.03,0.109,0.5448,0,13.099,1,0.6,4.5,0.75,0.35,0.0168,0.4,0,23.138,0,-4.424,0,270.02,0,0,1,-1.4,0,0,0,270.02,0.4142,0.0003,0.9102,0,270.02,-0.42,-102.23,10.165,0.019,28.73,1,3,672.14,2.424,0,607.04,0,0,0,,0,0,0,0,0,0,269.98,0,0,0,0,0,0,0,0,0,0,0,0,0,3,3,0,0,VALID,0,0,0,0,0,1,0,0,0,0,0,0,0,0,0,0,0,0,0,0,524.72,1073.72,2,0,0.175,0.175,71,5.71,0.175,0.175,10.38,FLYING,X10-F,0:/Integrated Flight Computer/aircraft/x10_f_cfg.ks (inferred preloaded)
10.73,APPROACH,ILS_TRACK,148.27,152,3.73,502.73,422.27,-3.83,9.47,10.77,270.02,0.089,0.4048,0,14.49,1,0.6,4.5,0.75,0.35,0.0168,0.4,0,22.962,0,-3.802,0,270.02,0,0,1,-1.45,0,0,0,270.02,0.4143,0.0003,0.9101,0,270.02,-0.42,-101.15,10.111,0.017,27.69,1,3,672.14,3.318,0,604.19,0,0,0,,0,0,0,0,0,0,269.98,0,0,0,0,0,0,0,0,0,0,0,0,0,3,3,0,0,VALID,0,0,0,0,0,1,0,0,0,0,0,0,0,0,0,0,0,0,0,0,528.14,1076.5,2,0,0.175,0.175,73,5.71,0.175,0.175,10.73,FLYING,X10-F,0:/Integrated Flight Computer/aircraft/x10_f_cfg.ks (inferred preloaded)
11.08,APPROACH,ILS_TRACK,149.06,152,2.94,501.31,420.84,-4.26,9.2,10.8,270.02,0.088,0.2648,0,15.616,1,0.6,4.5,0.75,0.35,0.0168,0.4,0,22.741,0,-3.016,0,270.02,0,0,1,-1.61,0,0,0,270.02,0.4144,0.0003,0.9101,0,270.02,-0.42,-99.76,10.057,0.017,26.588,1,3,672.14,4.176,0,601.33,0,0,0,,0,0,0,0,0,0,269.98,0,0,0,0,0,0,0,0,0,0,0,0,0,3,3,0,0,VALID,0,0,0,0,0,1,0,0,0,0,0,0,0,0,0,0,0,0,0,0,516.23,1079.9,2,0,0.175,0.175,75,5.71,0.175,0.175,11.08,FLYING,X10-F,0:/Integrated Flight Computer/aircraft/x10_f_cfg.ks (inferred preloaded)
11.43,APPROACH,ILS_TRACK,149.79,152,2.21,500.12,419.33,-4.08,10.19,11.8,270.02,0.083,0.1248,0,16.474,1,0.6,4.5,0.75,0.35,0.0168,0.4,0,22.532,0,-2.276,0,270.02,0,0,1,-1.6,0,0,0,270.01,0.4145,0.0003,0.9101,0,270.02,-0.41,-98.11,10.002,0.017,25.538,1,3,672.14,4.867,0,598.46,0,0,0,,0,0,0,0,0,0,269.98,0,0,0,0,0,0,0,0,0,0,0,0,0,3,3,0,0,VALID,0,0,0,0,0,1,0,0,0,0,0,0,0,0,0,0,0,0,0,0,488.17,1083.06,2,0,0.175,0.175,77,5.71,0.175,0.175,11.43,FLYING,X10-F,0:/Integrated Flight Computer/aircraft/x10_f_cfg.ks (inferred preloaded)
11.78,APPROACH,ILS_TRACK,150.32,152,1.68,498.97,418.01,-3.43,10.87,12.15,270.02,0.08,0,0,17.121,1,0.6,4.5,0.75,0.35,0.0168,0.4,0,22.377,0,-1.724,0,270.02,0,0,1,-1.35,0,0,0,270.01,0.4146,0.0003,0.91,0,270.02,-0.41,-96.38,9.947,0.016,24.949,1,3,672.14,4.955,0,595.57,0,0,0,,0,0,0,0,0,0,269.98,0,0,0,0,0,0,0,0,0,0,0,0,0,3,3,0,0,VALID,0,0,0,0,0,1,0,0,0,0,0,0,0,0,0,0,0,0,0,0,445.41,1085.4,2,0,0.175,0.175,79,5.71,0.175,0.175,11.78,FLYING,X10-F,0:/Integrated Flight Computer/aircraft/x10_f_cfg.ks (inferred preloaded)
12.13,APPROACH,ILS_TRACK,150.64,152,1.36,497.88,416.91,-2.87,11.01,12.05,270.02,0.075,0,0,17.631,1,0.6,4.5,0.75,0.35,0.0168,0.4,0,22.282,0,-1.386,0,270.01,0,0,1,-1.13,0,0,0,270.01,0.4146,0.0002,0.91,0,270.01,-0.41,-94.58,9.892,0.014,24.227,1,3,672.14,5.185,0,592.68,0,0,0,,0,0,0,0,0,0,269.98,0,0,0,0,0,0,0,0,0,0,0,0,0,3,3,0,0,VALID,0,0,0,0,0,1,0,0,0,0,0,0,0,0,0,0,0,0,0,0,394.96,1086.82,2,0,0.175,0.175,81,5.71,0.175,0.175,12.13,FLYING,X10-F,0:/Integrated Flight Computer/aircraft/x10_f_cfg.ks (inferred preloaded)
12.48,APPROACH,ILS_TRACK,150.78,152,1.22,496.89,415.99,-2.51,10.78,11.68,270.02,0.072,0.0369,0,18.072,1,0.6,4.5,0.75,0.35,0.0168,0.4,0,22.237,0,-1.229,0,270.01,0,0,1,-0.98,0,0,0,270.01,0.4147,0.0002,0.9099,0,270.01,-0.41,-92.71,9.836,0.012,23.474,1,3,672.14,5.425,0,589.79,0,0,0,,0,0,0,0,0,0,269.98,0,0,0,0,0,0,0,0,0,0,0,0,0,3,3,0,0,VALID,0,0,0,0,0,1,0,0,0,0,0,0,0,0,0,0,0,0,0,0,349.4,1087.5,2,0,0.175,0.175,83,5.71,0.175,0.175,12.48,FLYING,X10-F,0:/Integrated Flight Computer/aircraft/x10_f_cfg.ks (inferred preloaded)
12.83,APPROACH,ILS_TRACK,150.8,152,1.2,496.01,415.16,-2.27,10.6,11.42,270.02,0.071,0.1569,0,18.49,1,0.6,4.5,0.75,0.35,0.0168,0.4,0,22.227,0,-1.193,0,270.01,0,0,1,-0.88,0,0,0,270.01,0.4148,0.0002,0.9099,0,270.01,-0.4,-90.72,9.781,0.013,22.57,1,3,672.14,5.807,0,586.89,0,0,0,,0,0,0,0,0,0,269.98,0,0,0,0,0,0,0,0,0,0,0,0,0,3,3,0,0,VALID,0,0,0,0,0,1,0,0,0,0,0,0,0,0,0,0,0,0,0,0,316.23,1087.66,2,0,0.175,0.175,85,5.71,0.175,0.175,12.83,FLYING,X10-F,0:/Integrated Flight Computer/aircraft/x10_f_cfg.ks (inferred preloaded)
13.18,APPROACH,ILS_TRACK,150.73,152,1.27,495.26,414.4,-2.09,10.59,11.36,270.02,0.065,0.2794,0,18.924,1,0.6,4.5,0.75,0.35,0.0168,0.4,0,22.246,0,-1.261,0,270.01,0,0,1,-0.8,0,0,0,270.01,0.4149,0.0002,0.9099,0,270.01,-0.4,-88.6,9.726,0.012,21.681,1,3,672.14,6.124,0,584,0,0,0,,0,0,0,0,0,0,269.98,0,0,0,0,0,0,0,0,0,0,0,0,0,3,3,0,0,VALID,0,0,0,0,0,1,0,0,0,0,0,0,0,0,0,0,0,0,0,0,301.79,1087.41,2,0,0.175,0.175,87,5.71,0.175,0.175,13.18,FLYING,X10-F,0:/Integrated Flight Computer/aircraft/x10_f_cfg.ks (inferred preloaded)
13.53,APPROACH,ILS_TRACK,150.6,152,1.4,494.58,413.71,-1.86,10.63,11.31,270.02,0.06,0.3871,0,19.397,1,0.6,4.5,0.75,0.35,0.0168,0.4,0,22.281,0,-1.386,0,270.01,0,0,1,-0.71,0,0,0,270.01,0.415,0.0002,0.9098,0,270.01,-0.39,-86.4,9.671,0.011,20.881,1,3,672.14,6.298,0,581.11,0,0,0,,0,0,0,0,0,0,269.98,0,0,0,0,0,0,0,0,0,0,0,0,0,3,3,0,0,VALID,0,0,0,0,0,1,0,0,0,0,0,0,0,0,0,0,0,0,0,0,302.76,1086.93,2,0,0.175,0.175,89,5.71,0.175,0.175,13.53,FLYING,X10-F,0:/Integrated Flight Computer/aircraft/x10_f_cfg.ks (inferred preloaded)
13.88,APPROACH,ILS_TRACK,150.47,152,1.53,493.97,413.11,-1.6,10.63,11.19,270.02,0.052,0.4641,0,19.916,1,0.6,4.5,0.75,0.35,0.0168,0.4,0,22.318,0,-1.515,0,270.01,0,0,1,-0.62,0,0,0,270.01,0.4151,0.0002,0.9098,0,270.01,-0.39,-84.13,9.616,0.011,20.058,1,3,672.14,6.477,0,578.22,0,0,0,,0,0,0,0,0,0,269.98,0,0,0,0,0,0,0,0,0,0,0,0,0,3,3,0,0,VALID,0,0,0,0,0,1,0,0,0,0,0,0,0,0,0,0,0,0,0,0,311.54,1086.44,2,0,0.175,0.175,91,5.71,0.175,0.175,13.88,FLYING,X10-F,0:/Integrated Flight Computer/aircraft/x10_f_cfg.ks (inferred preloaded)
14.23,APPROACH,ILS_TRACK,150.39,152,1.61,493.41,412.57,-1.43,10.56,11.06,270.01,0.049,0.4958,0,20,1,0.6,4.5,0.75,0.35,0.0168,0.4,0,22.344,0,-1.607,0,270.01,0,0,1,-0.56,0,0,0,270.01,0.4151,0.0002,0.9098,0,270.01,-0.38,-81.82,9.561,0.011,19.197,1,3,672.14,6.685,0,575.34,0,0,0,,0,0,0,0,0,0,269.98,0,0,0,0,0,0,0,0,0,0,0,0,0,3,3,0,0,VALID,0,0,0,0,0,1,0,0,0,0,0,0,0,0,0,0,0,0,0,0,324.94,1086.13,2,0,0.175,0.175,93,5.71,0.175,0.175,14.23,FLYING,X10-F,0:/Integrated Flight Computer/aircraft/x10_f_cfg.ks (inferred preloaded)
14.58,APPROACH,ILS_TRACK,150.36,152,1.64,492.9,412.1,-1.27,10.45,10.89,270.01,0.045,0.4908,0,20,1,0.6,4.5,0.75,0.35,0.0168,0.4,0,22.352,0,-1.636,0,270.01,0,0,1,-0.49,0,0,0,270.01,0.4152,0.0002,0.9097,0,270.01,-0.38,-79.45,9.505,0.012,18.391,1,3,672.14,6.805,0,572.45,0,0,0,,0,0,0,0,0,0,269.98,0,0,0,0,0,0,0,0,0,0,0,0,0,3,3,0,0,VALID,0,0,0,0,0,1,0,0,0,0,0,0,0,0,0,0,0,0,0,0,339.37,1086.07,2,0,0.175,0.175,95,5.71,0.175,0.175,14.58,FLYING,X10-F,0:/Integrated Flight Computer/aircraft/x10_f_cfg.ks (inferred preloaded)
14.93,APPROACH,ILS_TRACK,150.41,152,1.59,492.44,411.67,-1.16,10.33,10.75,270.01,0.044,0.4583,0,20,1,0.6,4.5,0.75,0.35,0.0168,0.4,0,22.341,0,-1.596,0,270.01,0,0,1,-0.46,0,0,0,270.01,0.4153,0.0002,0.9097,0,270.01,-0.37,-77.04,9.45,0.011,17.543,1,3,672.14,6.959,0,569.56,0,0,0,,0,0,0,0,0,0,269.98,0,0,0,0,0,0,0,0,0,0,0,0,0,3,3,0,0,VALID,0,0,0,0,0,1,0,0,0,0,0,0,0,0,0,0,0,0,0,0,352.23,1086.3,2,0,0.175,0.175,97,5.71,0.175,0.175,14.93,FLYING,X10-F,0:/Integrated Flight Computer/aircraft/x10_f_cfg.ks (inferred preloaded)
15.28,APPROACH,ILS_TRACK,150.52,152,1.48,492.02,411.28,-1.09,10.24,10.63,270.01,0.043,0.4099,0,20,1,0.6,4.5,0.75,0.35,0.0168,0.4,0,22.312,0,-1.494,0,270.01,0,0,1,-0.41,0,0,0,270.01,0.4154,0.0002,0.9096,0,270.01,-0.37,-74.57,9.395,0.011,16.711,1,3,672.14,7.076,0,566.67,0,0,0,,0,0,0,0,0,0,269.98,0,0,0,0,0,0,0,0,0,0,0,0,0,3,3,0,0,VALID,0,0,0,0,0,1,0,0,0,0,0,0,0,0,0,0,0,0,0,0,361.7,1086.78,2,0,0.175,0.175,99,5.71,0.175,0.175,15.28,FLYING,X10-F,0:/Integrated Flight Computer/aircraft/x10_f_cfg.ks (inferred preloaded)
15.63,APPROACH,ILS_TRACK,150.67,152,1.33,491.65,410.92,-0.96,10.2,10.55,270.01,0.04,0.3577,0,20,1,0.6,4.5,0.75,0.35,0.0168,0.4,0,22.271,0,-1.347,0,270.01,0,0,1,-0.39,0,0,0,270.01,0.4155,0.0002,0.9096,0,270.01,-0.36,-72.06,9.34,0.012,15.842,1,3,672.14,7.22,0,563.78,0,0,0,,0,0,0,0,0,0,269.98,0,0,0,0,0,0,0,0,0,0,0,0,0,3,3,0,0,VALID,0,0,0,0,0,1,0,0,0,0,0,0,0,0,0,0,0,0,0,0,366.99,1087.44,2,0,0.175,0.175,101,5.71,0.175,0.175,15.63,FLYING,X10-F,0:/Integrated Flight Computer/aircraft/x10_f_cfg.ks (inferred preloaded)
15.98,APPROACH,ILS_TRACK,150.84,152,1.16,491.3,410.59,-0.88,10.13,10.43,270.01,0.037,0.3115,0,20,1,0.6,4.5,0.75,0.35,0.0168,0.4,0,22.223,0,-1.179,0,270.01,0,0,1,-0.34,0,0,0,270.01,0.4156,0.0002,0.9096,0,270.01,-0.36,-69.52,9.285,0.01,15.016,1,3,672.14,7.3,0,560.89,0,0,0,,0,0,0,0,0,0,269.98,0,0,0,0,0,0,0,0,0,0,0,0,0,3,3,0,0,VALID,0,0,0,0,0,1,0,0,0,0,0,0,0,0,0,0,0,0,0,0,368.08,1088.18,2,0,0.175,0.175,103,5.71,0.175,0.175,15.98,FLYING,X10-F,0:/Integrated Flight Computer/aircraft/x10_f_cfg.ks (inferred preloaded)
16.33,APPROACH,ILS_TRACK,151.02,152,0.98,490.99,410.29,-0.84,10.07,10.39,270.01,0.032,0.2723,0,20,1,0.6,4.5,0.75,0.35,0.0168,0.4,0,22.172,0,-0.999,0,270.01,0,0,1,-0.33,0,0,0,270.01,0.4156,0.0002,0.9095,0,270.01,-0.35,-66.94,9.23,0.01,14.18,1,3,672.14,7.379,0,557.99,0,0,0,,0,0,0,0,0,0,269.98,0,0,0,0,0,0,0,0,0,0,0,0,0,3,3,0,0,VALID,0,0,0,0,0,1,0,0,0,0,0,0,0,0,0,0,0,0,0,0,364.13,1088.96,2,0,0.175,0.175,105,5.71,0.175,0.175,16.33,FLYING,X10-F,0:/Integrated Flight Computer/aircraft/x10_f_cfg.ks (inferred preloaded)
16.68,APPROACH,ILS_TRACK,151.19,152,0.81,490.7,410.01,-0.76,10.05,10.32,270.01,0.033,0.2459,0,20,1,0.6,4.5,0.75,0.35,0.0168,0.4,0,22.123,0,-0.825,0,270.01,0,0,1,-0.3,0,0,0,270.01,0.4157,0.0002,0.9095,0,270.01,-0.35,-64.34,9.174,0.011,13.308,1,3,672.14,7.49,0,555.09,0,0,0,,0,0,0,0,0,0,269.98,0,0,0,0,0,0,0,0,0,0,0,0,0,3,3,0,0,VALID,0,0,0,0,0,1,0,0,0,0,0,0,0,0,0,0,0,0,0,0,355.97,1089.71,2,0,0.175,0.175,107,5.71,0.175,0.175,16.68,FLYING,X10-F,0:/Integrated Flight Computer/aircraft/x10_f_cfg.ks (inferred preloaded)
17.03,APPROACH,ILS_TRACK,151.33,152,0.67,490.44,409.75,-0.75,10.04,10.3,270.01,0.031,0.2366,0,20,1,0.6,4.5,0.75,0.35,0.0168,0.4,0,22.082,0,-0.679,0,270.01,0,0,1,-0.27,0,0,0,270.01,0.4158,0.0002,0.9094,0,270.01,-0.35,-61.7,9.119,0.012,12.471,1,3,672.14,7.549,0,552.19,0,0,0,,0,0,0,0,0,0,269.98,0,0,0,0,0,0,0,0,0,0,0,0,0,3,3,0,0,VALID,0,0,0,0,0,1,0,0,0,0,0,0,0,0,0,0,0,0,0,0,345.73,1090.33,2,0,0.175,0.175,109,5.71,0.175,0.175,17.03,FLYING,X10-F,0:/Integrated Flight Computer/aircraft/x10_f_cfg.ks (inferred preloaded)
17.38,APPROACH,ILS_TRACK,151.44,152,0.56,490.2,409.51,-0.67,10.05,10.3,270.01,0.031,0.243,0,20,1,0.6,4.5,0.75,0.35,0.0168,0.4,0,22.051,0,-0.57,0,270.01,0,0,1,-0.27,0,0,0,270.01,0.4159,0.0002,0.9094,0,270.01,-0.34,-59.04,9.063,0.011,11.63,1,3,672.14,7.602,0,549.28,0,0,0,,0,0,0,0,0,0,269.98,0,0,0,0,0,0,0,0,0,0,0,0,0,3,3,0,0,VALID,0,0,0,0,0,1,0,0,0,0,0,0,0,0,0,0,0,0,0,0,335.81,1090.79,2,0,0.175,0.175,111,5.71,0.175,0.175,17.38,FLYING,X10-F,0:/Integrated Flight Computer/aircraft/x10_f_cfg.ks (inferred preloaded)
17.73,APPROACH,ILS_TRACK,151.51,152,0.49,489.97,409.28,-0.62,10.05,10.27,270.01,0.03,0.2601,0,20,1,0.6,4.5,0.75,0.35,0.0168,0.4,0,22.031,0,-0.498,0,270.01,0,0,1,-0.23,0,0,0,270.01,0.416,0.0002,0.9094,0,270.01,-0.34,-56.36,9.008,0.012,10.778,1,3,672.14,7.662,0,546.37,0,0,0,,0,0,0,0,0,0,269.98,0,0,0,0,0,0,0,0,0,0,0,0,0,3,3,0,0,VALID,0,0,0,0,0,1,0,0,0,0,0,0,0,0,0,0,0,0,0,0,328.04,1091.1,2,0,0.175,0.175,113,5.71,0.175,0.175,17.73,FLYING,X10-F,0:/Integrated Flight Computer/aircraft/x10_f_cfg.ks (inferred preloaded)
18.08,APPROACH,ILS_TRACK,151.55,152,0.45,489.76,409.07,-0.6,10.05,10.27,270.01,0.029,0.2816,0,20,1,0.6,4.5,0.75,0.35,0.0168,0.4,0,22.019,0,-0.454,0,270.01,0,0,1,-0.22,0,0,0,270.01,0.4161,0.0002,0.9093,0,270.01,-0.34,-53.67,8.952,0.011,9.943,1,3,672.14,7.696,0,543.47,0,0,0,,0,0,0,0,0,0,269.98,0,0,0,0,0,0,0,0,0,0,0,0,0,3,3,0,0,VALID,0,0,0,0,0,1,0,0,0,0,0,0,0,0,0,0,0,0,0,0,323.4,1091.29,2,0,0.175,0.175,115,5.71,0.175,0.175,18.08,FLYING,X10-F,0:/Integrated Flight Computer/aircraft/x10_f_cfg.ks (inferred preloaded)
18.43,APPROACH,ILS_TRACK,151.57,152,0.43,489.57,408.88,-0.51,10.07,10.24,270.01,0.03,0.3022,0,20,1,0.6,4.5,0.75,0.35,0.0168,0.4,0,22.012,0,-0.43,0,270.01,0,0,1,-0.2,0,0,0,270.01,0.4162,0.0002,0.9093,0,270.01,-0.33,-50.95,8.897,0.013,9.077,1,3,672.14,7.761,0,540.56,0,0,0,,0,0,0,0,0,0,269.98,0,0,0,0,0,0,0,0,0,0,0,0,0,3,3,0,0,VALID,0,0,0,0,0,1,0,0,0,0,0,0,0,0,0,0,0,0,0,0,322.01,1091.4,2,0,0.175,0.175,117,5.71,0.175,0.175,18.43,FLYING,X10-F,0:/Integrated Flight Computer/aircraft/x10_f_cfg.ks (inferred preloaded)
18.78,APPROACH,ILS_TRACK,151.59,152,0.41,489.38,408.7,-0.52,10.04,10.22,270.01,0.028,0.3172,0,20,1,0.6,4.5,0.75,0.35,0.0168,0.4,0,22.007,0,-0.411,0,270.01,0,0,1,-0.19,0,0,0,270.01,0.4162,0.0002,0.9093,0,270.01,-0.33,-48.23,8.841,0.012,8.242,1,3,672.14,7.786,0,537.65,0,0,0,,0,0,0,0,0,0,269.98,0,0,0,0,0,0,0,0,0,0,0,0,0,3,3,0,0,VALID,0,0,0,0,0,1,0,0,0,0,0,0,0,0,0,0,0,0,0,0,322.74,1091.5,2,0,0.175,0.175,119,5.71,0.175,0.175,18.78,FLYING,X10-F,0:/Integrated Flight Computer/aircraft/x10_f_cfg.ks (inferred preloaded)
19.13,APPROACH,ILS_TRACK,151.61,152,0.39,489.21,408.53,-0.46,10.04,10.21,270.01,0.029,0.3245,0,20,1,0.6,4.5,0.75,0.35,0.0168,0.4,0,22,0,-0.388,0,270.01,0,0,1,-0.18,0,0,0,270.01,0.4163,0.0002,0.9092,0,270.01,-0.33,-45.5,8.786,0.012,7.382,1,3,672.14,7.834,0,534.74,0,0,0,,0,0,0,0,0,0,269.98,0,0,0,0,0,0,0,0,0,0,0,0,0,3,3,0,0,VALID,0,0,0,0,0,1,0,0,0,0,0,0,0,0,0,0,0,0,0,0,324.46,1091.61,2,0,0.175,0.175,121,5.71,0.175,0.175,19.13,FLYING,X10-F,0:/Integrated Flight Computer/aircraft/x10_f_cfg.ks (inferred preloaded)
19.48,APPROACH,ILS_TRACK,151.65,152,0.35,489.06,408.37,-0.43,10.04,10.2,270.01,0.028,0.3248,0,20,1,0.6,4.5,0.75,0.35,0.0168,0.4,0,21.991,0,-0.357,0,270.01,0,0,1,-0.17,0,0,0,270.01,0.4164,0.0002,0.9092,0,270.01,-0.33,-42.75,8.73,0.014,6.536,1,3,672.14,7.86,0,531.83,0,0,0,,0,0,0,0,0,0,269.98,0,0,0,0,0,0,0,0,0,0,0,0,0,3,3,0,0,VALID,0,0,0,0,0,1,0,0,0,0,0,0,0,0,0,0,0,0,0,0,326.52,1091.76,2,0,0.175,0.175,123,5.71,0.175,0.175,19.48,FLYING,X10-F,0:/Integrated Flight Computer/aircraft/x10_f_cfg.ks (inferred preloaded)
19.83,APPROACH,ILS_TRACK,151.69,152,0.31,488.91,408.23,-0.41,10.03,10.17,270,0.028,0.3206,0,20,1,0.6,4.5,0.75,0.35,0.0168,0.4,0,21.98,0,-0.317,0,270.01,0,0,1,-0.15,0,0,0,270.01,0.4165,0.0002,0.9091,0,270.01,-0.33,-39.99,8.675,0.012,5.684,1,3,672.14,7.891,0,528.92,0,0,0,,0,0,0,0,0,0,269.98,0,0,0,0,0,0,0,0,0,0,0,0,0,3,3,0,0,VALID,0,0,0,0,0,1,0,0,0,0,0,0,0,0,0,0,0,0,0,0,328.44,1091.94,2,0,0.175,0.175,125,5.71,0.175,0.175,19.83,FLYING,X10-F,0:/Integrated Flight Computer/aircraft/x10_f_cfg.ks (inferred preloaded)
20.18,APPROACH,ILS_TRACK,151.74,152,0.26,488.77,408.09,-0.37,10.02,10.15,270,0.028,0.3134,0,20,1,0.6,4.5,0.75,0.35,0.0168,0.4,0,21.967,0,-0.269,0,270.01,0,0,1,-0.14,0,0,0,270.01,0.4166,0.0002,0.9091,0,270.01,-0.33,-37.22,8.619,0.014,4.826,1,3,672.14,7.924,0,526.01,0,0,0,,0,0,0,0,0,0,269.98,0,0,0,0,0,0,0,0,0,0,0,0,0,3,3,0,0,VALID,0,0,0,0,0,1,0,0,0,0,0,0,0,0,0,0,0,0,0,0,329.89,1092.16,2,0,0.175,0.175,127,5.71,0.175,0.175,20.18,FLYING,X10-F,0:/Integrated Flight Computer/aircraft/x10_f_cfg.ks (inferred preloaded)
20.53,APPROACH,ILS_TRACK,151.79,152,0.21,488.64,407.97,-0.34,10,10.13,270,0.028,0.3047,0,20,1,0.6,4.5,0.75,0.35,0.0168,0.4,0,21.951,0,-0.214,0,270.01,0,0,1,-0.13,0,0,0,270.01,0.4167,0.0002,0.9091,0,270.01,-0.33,-34.44,8.564,0.012,3.967,1,3,672.14,7.955,0,523.1,0,0,0,,0,0,0,0,0,0,269.98,0,0,0,0,0,0,0,0,0,0,0,0,0,3,3,0,0,VALID,0,0,0,0,0,1,0,0,0,0,0,0,0,0,0,0,0,0,0,0,330.7,1092.4,2,0,0.175,0.175,129,5.71,0.175,0.175,20.53,FLYING,X10-F,0:/Integrated Flight Computer/aircraft/x10_f_cfg.ks (inferred preloaded)
20.88,APPROACH,ILS_TRACK,151.85,152,0.15,488.52,407.85,-0.32,9.99,10.11,270,0.028,0.296,0,20,1,0.6,4.5,0.75,0.35,0.0168,0.4,0,21.935,0,-0.155,0,270.01,0,0,1,-0.12,0,0,0,270.01,0.4167,0.0002,0.909,0,270.01,-0.33,-31.64,8.508,0.013,3.104,1,3,672.14,7.987,0,520.19,0,0,0,,0,0,0,0,0,0,269.98,0,0,0,0,0,0,0,0,0,0,0,0,0,3,3,0,0,VALID,0,0,0,0,0,1,0,0,0,0,0,0,0,0,0,0,0,0,0,0,330.77,1092.66,2,0,0.175,0.175,131,5.71,0.175,0.175,20.88,FLYING,X10-F,0:/Integrated Flight Computer/aircraft/x10_f_cfg.ks (inferred preloaded)
21.23,APPROACH,ILS_TRACK,151.91,152,0.09,488.39,407.76,-0.21,9.93,9.97,270,0.026,0.2894,0,20,1,0.6,4.5,0.75,0.35,0.0168,0.4,0,21.918,0,-0.097,0,270.01,-0.71,0,1,-0.08,0,0,-0.33,270.01,0.4281,0.0002,0.9038,-0.71,270.01,-0.33,-28.85,8.453,0.013,2.29,1,3,672.14,7.956,-0.71,517.28,0,0,0,,0,0,0,0,0,0,269.98,0,0,0,0,0,0,0,0,0,0,0,0,0,3,3,0,0,VALID,0,0,0,0,0,1,0,0,0,0,0,0,0,0,0,0,0,0,0,0,329.84,1092.91,2,0,0.175,0.175,133,5.71,0.175,0.175,21.23,FLYING,X10-F,0:/Integrated Flight Computer/aircraft/x10_f_cfg.ks (inferred preloaded)
21.58,APPROACH,ILS_TRACK,151.96,152,0.04,488.12,407.74,-0.13,9.25,9.19,270,0.038,0.2857,0,20,1,0.6,4.5,0.75,0.35,0.0168,0.4,0,21.903,0,-0.044,0,270.02,-1.151,0,1,-0.03,0,0,-0.98,270.01,0.4351,0.0002,0.9004,-1.15,270.02,-0.33,-26.18,8.397,0.015,1.849,1,3,672.14,7.504,-1.151,514.36,0,0,0,,0,0,0,0,0,0,269.98,0,0,0,0,0,0,0,0,0,0,0,0,0,3,3,0,0,VALID,0,0,0,0,0,1,0,0,0,0,0,0,0,0,0,0,0,0,0,0,328.3,1093.14,2,0,0.175,0.175,135,5.71,0.175,0.175,21.58,FLYING,X10-F,0:/Integrated Flight Computer/aircraft/x10_f_cfg.ks (inferred preloaded)
21.93,APPROACH,ILS_TRACK,152.09,152,-0.09,487.77,407.66,-0.27,8.4,8.37,270.01,0.059,0.2523,0,19.986,1,0.6,4.5,0.75,0.35,0.0168,0.4,0,21.87,0,0.076,0,270.01,-1.814,0,1,-0.1,0,0,-1.5,270.01,0.4456,0.0002,0.8953,-1.81,270.01,-0.33,-23.58,8.341,0.015,1.186,1,3,672.14,7.361,-1.814,511.44,0,0,0,,0,0,0,0,0,0,269.98,0,0,0,0,0,0,0,0,0,0,0,0,0,3,3,0,0,VALID,0,0,0,0,0,1,0,0,0,0,0,0,0,0,0,0,0,0,0,0,325.98,1093.67,2,0,0.175,0.175,137,5.71,0.175,0.175,21.93,FLYING,X10-F,0:/Integrated Flight Computer/aircraft/x10_f_cfg.ks (inferred preloaded)
22.28,APPROACH,ILS_TRACK,152.29,152,-0.29,487.22,407.5,-0.88,7.08,7.27,270.01,0.079,0.1965,0,19.912,1,0.6,4.5,0.75,0.35,0.0168,0.4,0,21.816,0,0.266,0,270.02,-2.035,0,1,-0.26,0,0,-1.82,270.01,0.4491,0.0002,0.8935,-2.04,270.02,-0.33,-21.19,8.286,0.015,0.965,1,3,672.14,6.741,-2.035,508.52,0,0,0,,0,0,0,0,0,0,269.98,0,0,0,0,0,0,0,0,0,0,0,0,0,3,3,0,0,VALID,0,0,0,0,0,1,0,0,0,0,0,0,0,0,0,0,0,0,0,0,319.43,1094.51,2,0,0.175,0.175,139,5.71,0.175,0.175,22.28,FLYING,X10-F,0:/Integrated Flight Computer/aircraft/x10_f_cfg.ks (inferred preloaded)
22.63,APPROACH,ILS_TRACK,152.55,152,-0.55,486.66,407.03,-1.73,6.59,7.17,270.01,0.088,0.1237,0,19.75,1,0.6,4.5,0.75,0.35,0.0168,0.4,0,21.742,0,0.528,0,270.01,-2.745,0,1,-0.58,0,0,-2.41,270.02,0.4602,0.0002,0.8878,-2.75,270.01,-0.33,-18.83,8.23,0.012,0.255,1,3,672.14,6.742,-2.745,505.6,0,0,0,,0,0,0,0,0,0,269.98,0,0,0,0,0,0,0,0,0,0,0,0,0,3,3,0,0,VALID,0,0,0,0,0,1,0,0,0,0,0,0,0,0,0,0,0,0,0,0,306.01,1095.66,2,0,0.175,0.175,141,5.71,0.175,0.175,22.63,FLYING,X10-F,0:/Integrated Flight Computer/aircraft/x10_f_cfg.ks (inferred preloaded)
22.98,APPROACH,ILS_TRACK,152.8,152,-0.8,485.9,406.37,-2.12,6.41,7.09,270.01,0.085,0.0738,0,19.499,1,0.6,4.5,0.75,0.35,0.0168,0.4,0,21.671,0,0.779,0,270.01,-2.926,0,1,-0.75,0,0,-3,270.01,0.4631,0.0002,0.8863,-2.93,270.01,-0.34,-16.59,8.174,0.014,0.074,1,3,672.14,6.131,-2.926,502.67,0,0,0,,0,0,0,0,0,0,269.98,0,0,0,0,0,0,0,0,0,0,0,0,0,3,3,0,0,VALID,0,0,0,0,0,1,0,0,0,0,0,0,0,0,0,0,0,0,0,0,285.47,1096.75,2,0,0.175,0.175,143,5.72,0.175,0.175,22.98,FLYING,X10-F,0:/Integrated Flight Computer/aircraft/x10_f_cfg.ks (inferred preloaded)
23.3,APPROACH,ILS_TRACK,153,152,-1,485.05,405.56,-2.91,6.14,7.18,270.01,0.091,0.0478,0,19.191,1,0.6,4.5,0.75,0.35,0.0168,0.4,0,21.614,0,0.984,0,270.01,-3.163,0,1,-1.03,0,0,-2.94,270.01,0.4668,0.0002,0.8843,-3.16,270.01,-0.34,-14.7,8.121,0.013,-0.163,1,3,672.14,5.717,-3.163,499.91,0,0,0,,0,0,0,0,0,0,269.98,0,0,0,0,0,0,0,0,0,0,0,0,0,3,3,0,0,VALID,0,0,0,0,0,1,0,0,0,0,0,0,0,0,0,0,0,0,0,0,263.54,1097.66,2,0,0.157,0.157,145,6.27,0.175,0.157,23.3,FLYING,X10-F,0:/Integrated Flight Computer/aircraft/x10_f_cfg.ks (inferred preloaded)
23.55,APPROACH,ILS_TRACK,153.09,152,-1.09,484.3,404.79,-3.05,6.28,7.35,270.01,0.086,0.063,0,18.909,1,0.6,4.5,0.75,0.35,0.0168,0.4,0,21.585,0,1.086,0,270.01,-3.317,0,1,-1.14,0,0,-3.4,270.01,0.4693,0.0002,0.8831,-3.32,270.01,-0.33,-13.23,8.079,0.012,-0.317,1,3,672.14,5.36,-3.317,497.69,0,0,0,,0,0,0,0,0,0,269.98,0,0,0,0,0,0,0,0,0,0,0,0,0,3,3,0,0,VALID,0,0,0,0,0,1,0,0,0,0,0,0,0,0,0,0,0,0,0,0,245.82,1098.11,2,0,0.123,0.123,147,7.88,0.157,0.123,23.55,FLYING,X10-F,0:/Integrated Flight Computer/aircraft/x10_f_cfg.ks (inferred preloaded)
23.9,APPROACH,ILS_TRACK,153.14,152,-1.14,482.98,403.65,-3.7,5.72,7,270.01,0.087,0.1165,0,18.519,1,0.6,4.5,0.75,0.35,0.0168,0.4,0,21.571,0,1.134,0,270.01,-3.112,0,1,-1.34,0,0,-3.04,270.01,0.4662,0.0001,0.8847,-3.11,270.01,-0.33,-11.61,8.023,0.01,-0.112,1,3,672.14,4.493,-3.112,494.76,0,0,0,,0,0,0,0,0,0,269.98,0,0,0,0,0,0,0,0,0,0,0,0,0,3,3,0,0,VALID,0,0,0,0,0,1,0,0,0,0,0,0,0,0,0,0,0,0,0,0,227.98,1098.39,2,0,0.114,0.114,150,8.67,0.123,0.114,23.9,FLYING,X10-F,0:/Integrated Flight Computer/aircraft/x10_f_cfg.ks (inferred preloaded)
24.22,APPROACH,ILS_TRACK,153.15,152,-1.15,481.7,402.34,-4.25,5.78,7.3,270.01,0.079,0.158,0,18.146,1,0.6,4.5,0.75,0.35,0.0168,0.4,0,21.567,0,1.151,0,270.01,-3.439,0,1,-1.58,0,0,-3.41,270.01,0.4713,0.0002,0.882,-3.44,270.01,-0.33,-10.16,7.971,0.012,-0.439,1,3,672.14,4.361,-3.439,492.04,0,0,0,,0,0,0,0,0,0,269.98,0,0,0,0,0,0,0,0,0,0,0,0,0,3,3,0,0,VALID,0,0,0,0,0,1,0,0,0,0,0,0,0,0,0,0,0,0,0,0,218.57,1098.55,2,0,0.105,0.105,153,9.35,0.114,0.105,24.22,FLYING,X10-F,0:/Integrated Flight Computer/aircraft/x10_f_cfg.ks (inferred preloaded)
24.56,APPROACH,ILS_TRACK,153.14,152,-1.14,480.08,400.81,-4.8,5.48,7.17,270.01,0.07,0.1885,0,17.754,1,0.6,4.5,0.75,0.35,0.0168,0.4,0,21.569,0,1.141,0,270.01,-3.151,0,1,-1.76,0,0,-3.14,270.01,0.4669,0.0001,0.8843,-3.15,270.01,-0.33,-8.89,7.916,0.01,-0.151,1,3,672.14,3.522,-3.151,489.17,0,0,0,,0,0,0,0,0,0,269.98,0,0,0,0,0,0,0,0,0,0,0,0,0,3,3,0,0,VALID,0,0,0,0,0,1,0,0,0,0,0,0,0,0,0,0,0,0,0,0,215.05,1098.63,2,0,0.12,0.12,156,8.78,0.12,0.103,24.56,FLYING,X10-F,0:/Integrated Flight Computer/aircraft/x10_f_cfg.ks (inferred preloaded)
24.92,APPROACH,ILS_TRACK,153.12,152,-1.12,478.32,398.93,-5.42,5.81,7.77,270.01,0.06,0.2087,0,17.346,1,0.6,4.5,0.75,0.35,0.0168,0.4,0,21.575,0,1.121,0,270.01,-3.498,0,1,-2.02,0,0,-3.41,270.01,0.4724,0.0001,0.8814,-3.5,270.01,-0.32,-7.63,7.859,0.007,-0.498,1,3,672.14,3.483,-3.498,486.15,0,0,0,,0,0,0,0,0,0,269.98,0,0,0,0,0,0,0,0,0,0,0,0,0,3,3,0,0,VALID,0,0,0,0,0,1,0,0,0,0,0,0,0,0,0,0,0,0,0,0,214.59,1098.69,2,0,0.12,0.12,159,8.33,0.12,0.12,24.92,FLYING,X10-F,0:/Integrated Flight Computer/aircraft/x10_f_cfg.ks (inferred preloaded)
25.28,APPROACH,ILS_TRACK,153.07,152,-1.07,476.28,396.94,-5.76,5.71,7.75,270.01,0.051,0.2298,0,16.955,1,0.6,4.5,0.75,0.35,0.0168,0.4,0,21.589,0,1.073,0,270.01,-3.056,0,1,-2.13,0,0,-3.11,270.01,0.4656,0.0001,0.885,-3.06,270.01,-0.31,-6.62,7.801,0.009,-0.056,1,3,672.14,2.552,-3.056,483.13,0,0,0,,0,0,0,0,0,0,269.98,0,0,0,0,0,0,0,0,0,0,0,0,0,3,3,0,0,VALID,0,0,0,0,0,1,0,0,0,0,0,0,0,0,0,0,0,0,0,0,216.25,1098.65,2,0,0.12,0.12,162,8.33,0.12,0.12,25.28,FLYING,X10-F,0:/Integrated Flight Computer/aircraft/x10_f_cfg.ks (inferred preloaded)
25.54,APPROACH,ILS_TRACK,153.05,152,-1.05,474.78,395.37,-6.27,5.84,8.11,270.01,0.048,0.2279,0,16.679,1,0.6,4.5,0.75,0.35,0.0168,0.4,0,21.593,0,1.056,0,270.01,-3.288,0,1,-2.32,0,0,-3.14,270.01,0.4693,0.0001,0.883,-3.29,270.01,-0.31,-5.95,7.76,0.008,-0.288,1,3,672.14,2.592,-3.288,480.96,0,0,0,,0,0,0,0,0,0,269.98,0,0,0,0,0,0,0,0,0,0,0,0,0,3,3,0,0,VALID,0,0,0,0,0,1,0,0,0,0,0,0,0,0,0,0,0,0,0,0,218.03,1098.7,2,0,0.12,0.12,164,7.69,0.14,0.12,25.54,FLYING,X10-F,0:/Integrated Flight Computer/aircraft/x10_f_cfg.ks (inferred preloaded)
25.9,APPROACH,ILS_TRACK,152.98,152,-0.98,472.56,393.1,-6.32,6.12,8.36,270.01,0.038,0.2526,0,16.314,1,0.6,4.5,0.75,0.35,0.0168,0.4,0,21.614,0,0.983,0,270.01,-3.018,0,1,-2.35,0,0,-3.26,270.01,0.4652,0.0001,0.8852,-3.02,270.01,-0.3,-5.12,7.702,0.008,-0.018,1,3,672.14,1.944,-3.018,477.95,0,0,0,,0,0,0,0,0,0,269.98,0,0,0,0,0,0,0,0,0,0,0,0,0,3,3,0,0,VALID,0,0,0,0,0,1,0,0,0,0,0,0,0,0,0,0,0,0,0,0,220.63,1098.57,2,0,0.12,0.12,167,8.33,0.12,0.12,25.9,FLYING,X10-F,0:/Integrated Flight Computer/aircraft/x10_f_cfg.ks (inferred preloaded)
26.26,APPROACH,ILS_TRACK,152.94,152,-0.94,470.19,390.72,-6.87,6.05,8.53,270.01,0.035,0.2449,0,15.972,1,0.6,4.5,0.75,0.35,0.0168,0.4,0,21.625,0,0.942,0,270.01,-3.112,0,1,-2.55,0,0,-2.98,270,0.4667,0.0001,0.8844,-3.11,270.01,-0.3,-4.49,7.645,0.009,-0.112,1,3,672.14,1.822,-3.112,474.93,0,0,0,,0,0,0,0,0,0,269.98,0,0,0,0,0,0,0,0,0,0,0,0,0,3,3,0,0,VALID,0,0,0,0,0,1,0,0,0,0,0,0,0,0,0,0,0,0,0,0,224.52,1098.6,2,0,0.12,0.12,170,8.33,0.12,0.12,26.26,FLYING,X10-F,0:/Integrated Flight Computer/aircraft/x10_f_cfg.ks (inferred preloaded)
26.6,APPROACH,ILS_TRACK,152.89,152,-0.89,467.9,388.36,-6.9,6.37,8.83,270.01,0.03,0.2487,0,15.671,1,0.6,4.5,0.75,0.35,0.0168,0.4,0,21.639,0,0.892,0,270.01,-3.038,0,1,-2.58,0,0,-3.23,270.01,0.4657,0.0001,0.885,-3.04,270.01,-0.29,-3.91,7.592,0.006,-0.038,1,3,672.14,1.515,-3.038,472.18,0,0,0,,0,0,0,0,0,0,269.98,0,0,0,0,0,0,0,0,0,0,0,0,0,3,3,0,0,VALID,0,0,0,0,0,1,0,0,0,0,0,0,0,0,0,0,0,0,0,0,227.51,1098.57,2,0,0.127,0.127,173,8.79,0.127,0.1,26.6,FLYING,X10-F,0:/Integrated Flight Computer/aircraft/x10_f_cfg.ks (inferred preloaded)
26.87,APPROACH,ILS_TRACK,152.85,152,-0.85,466.04,386.49,-7.2,6.35,8.94,270.01,0.028,0.2479,0,15.445,1,0.6,4.5,0.75,0.35,0.0168,0.4,0,21.65,0,0.854,0,270.01,-3.007,0,1,-2.67,0,0,-2.94,270.01,0.4653,0.0001,0.8852,-3.01,270.01,-0.29,-3.56,7.55,0.008,-0.007,1,3,672.14,1.345,-3.007,469.98,0,0,0,,0,0,0,0,0,0,269.98,0,0,0,0,0,0,0,0,0,0,0,0,0,3,3,0,0,VALID,0,0,0,0,0,1,0,0,0,0,0,0,0,0,0,0,0,0,0,0,229.93,1098.57,2,0,0.133,0.133,175,7.54,0.133,0.127,26.87,FLYING,X10-F,0:/Integrated Flight Computer/aircraft/x10_f_cfg.ks (inferred preloaded)
27.14,APPROACH,ILS_TRACK,152.81,152,-0.81,464.12,384.45,-7.22,6.73,9.35,270.01,0.023,0.2485,0,15.217,1,0.6,4.5,0.75,0.35,0.0168,0.4,0,21.662,0,0.814,0,270.01,-3.237,0,1,-2.73,0,0,-3.17,270.01,0.4689,0.0001,0.8833,-3.24,270.01,-0.28,-3.15,7.506,0.005,-0.237,1,3,672.14,1.479,-3.237,467.67,0,0,0,,0,0,0,0,0,0,269.98,0,0,0,0,0,0,0,0,0,0,0,0,0,3,3,0,0,VALID,0,0,0,0,0,1,0,0,0,0,0,0,0,0,0,0,0,0,0,0,232.21,1098.55,2,0,0.14,0.14,177,7.17,0.14,0.133,27.14,FLYING,X10-F,0:/Integrated Flight Computer/aircraft/x10_f_cfg.ks (inferred preloaded)
27.44,APPROACH,ILS_TRACK,152.72,152,-0.72,461.92,382.35,-7.23,6.49,9.04,270.01,0.019,0.2701,0,14.999,1,0.6,4.5,0.75,0.35,0.0168,0.4,0,21.686,0,0.728,0,270.01,-2.778,0,1,-2.69,0,0,-2.98,270.01,0.4619,0.0001,0.887,-2.78,270.01,-0.28,-2.88,7.46,0.008,0.222,1,3,672.14,0.802,-2.778,465.25,0,0,0,,0,0,0,0,0,0,269.98,0,0,0,0,0,0,0,0,0,0,0,0,0,3,3,0,0,VALID,0,0,0,0,0,1,0,0,0,0,0,0,0,0,0,0,0,0,0,0,234.77,1098.35,2,0,0.147,0.147,179,6.82,0.147,0.14,27.44,FLYING,X10-F,0:/Integrated Flight Computer/aircraft/x10_f_cfg.ks (inferred preloaded)
27.74,APPROACH,ILS_TRACK,152.69,152,-0.69,459.69,380.12,-7.63,6.37,9.12,270.01,0.021,0.2578,0,14.789,1,0.6,4.5,0.75,0.35,0.0168,0.4,0,21.695,0,0.694,0,270.01,-2.958,0,1,-2.83,0,0,-2.8,270.01,0.4647,0.0001,0.8855,-2.96,270.01,-0.27,-2.62,7.412,0.006,0.042,1,3,672.14,0.93,-2.958,462.75,0,0,0,,0,0,0,0,0,0,269.98,0,0,0,0,0,0,0,0,0,0,0,0,0,3,3,0,0,VALID,0,0,0,0,0,1,0,0,0,0,0,0,0,0,0,0,0,0,0,0,238.24,1098.4,2,0,0.15,0.15,181,6.67,0.15,0.147,27.74,FLYING,X10-F,0:/Integrated Flight Computer/aircraft/x10_f_cfg.ks (inferred preloaded)
28.04,APPROACH,ILS_TRACK,152.65,152,-0.65,457.52,377.81,-7.58,6.87,9.62,270.01,0.016,0.2541,0,14.59,1,0.6,4.5,0.75,0.35,0.0168,0.4,0,21.707,0,0.653,0,270.01,-3.218,0,1,-2.87,0,0,-3.18,270.01,0.4688,0.0001,0.8833,-3.22,270.01,-0.26,-2.28,7.365,0.006,-0.218,1,3,672.14,1.128,-3.218,460.25,0,0,0,,0,0,0,0,0,0,269.98,0,0,0,0,0,0,0,0,0,0,0,0,0,3,3,0,0,VALID,0,0,0,0,0,1,0,0,0,0,0,0,0,0,0,0,0,0,0,0,240.81,1098.41,2,0,0.15,0.15,183,6.67,0.15,0.15,28.04,FLYING,X10-F,0:/Integrated Flight Computer/aircraft/x10_f_cfg.ks (inferred preloaded)
28.34,APPROACH,ILS_TRACK,152.57,152,-0.57,455.18,375.56,-7.57,6.65,9.34,270.01,0.015,0.2704,0,14.412,1,0.6,4.5,0.75,0.35,0.0168,0.4,0,21.729,0,0.573,0,270.01,-2.755,0,1,-2.82,0,0,-2.93,270.01,0.4617,0.0001,0.887,-2.76,270.01,-0.26,-2.1,7.317,0.007,0.245,1,3,672.14,0.481,-2.755,457.75,0,0,0,,0,0,0,0,0,0,269.98,0,0,0,0,0,0,0,0,0,0,0,0,0,3,3,0,0,VALID,0,0,0,0,0,1,0,0,0,0,0,0,0,0,0,0,0,0,0,0,243.24,1098.26,2,0,0.15,0.15,185,6.67,0.15,0.15,28.34,FLYING,X10-F,0:/Integrated Flight Computer/aircraft/x10_f_cfg.ks (inferred preloaded)
28.64,APPROACH,ILS_TRACK,152.55,152,-0.55,452.88,373.23,-7.92,6.61,9.49,270.01,0.017,0.2542,0,14.246,1,0.6,4.5,0.75,0.35,0.0168,0.4,0,21.736,0,0.55,0,270.01,-2.981,0,1,-2.94,0,0,-2.81,270.01,0.4653,0.0001,0.8852,-2.98,270.01,-0.26,-1.92,7.269,0.007,0.019,1,3,672.14,0.695,-2.981,455.25,0,0,0,,0,0,0,0,0,0,269.98,0,0,0,0,0,0,0,0,0,0,0,0,0,3,3,0,0,VALID,0,0,0,0,0,1,0,0,0,0,0,0,0,0,0,0,0,0,0,0,246.19,1098.36,2,0,0.15,0.15,187,6.67,0.15,0.15,28.64,FLYING,X10-F,0:/Integrated Flight Computer/aircraft/x10_f_cfg.ks (inferred preloaded)
28.94,APPROACH,ILS_TRACK,152.51,152,-0.51,450.6,370.87,-7.72,6.98,9.76,270.01,0.013,0.2496,0,14.088,1,0.6,4.5,0.75,0.35,0.0168,0.4,0,21.746,0,0.515,0,270.01,-3.068,0,1,-2.92,0,0,-3.17,270.01,0.4667,0.0001,0.8844,-3.07,270.01,-0.25,-1.68,7.221,0.006,-0.068,1,3,672.14,0.713,-3.068,452.75,0,0,0,,0,0,0,0,0,0,269.98,0,0,0,0,0,0,0,0,0,0,0,0,0,3,3,0,0,VALID,0,0,0,0,0,1,0,0,0,0,0,0,0,0,0,0,0,0,0,0,248.07,1098.39,2,0,0.15,0.15,189,6.67,0.15,0.15,28.94,FLYING,X10-F,0:/Integrated Flight Computer/aircraft/x10_f_cfg.ks (inferred preloaded)
29.24,APPROACH,ILS_TRACK,152.46,152,-0.46,448.23,368.54,-7.86,6.79,9.61,270.01,0.015,0.2533,0,13.945,1,0.6,4.5,0.75,0.35,0.0168,0.4,0,21.76,0,0.466,0,270.01,-2.851,0,1,-2.93,0,0,-2.84,270.01,0.4634,0.0001,0.8861,-2.85,270.01,-0.25,-1.56,7.174,0.007,0.149,1,3,672.14,0.397,-2.851,450.25,0,0,0,,0,0,0,0,0,0,269.98,0,0,0,0,0,0,0,0,0,0,0,0,0,3,3,0,0,VALID,0,0,0,0,0,1,0,0,0,0,0,0,0,0,0,0,0,0,0,0,249.7,1098.39,2,0,0.15,0.15,191,6.67,0.15,0.15,29.24,FLYING,X10-F,0:/Integrated Flight Computer/aircraft/x10_f_cfg.ks (inferred preloaded)
29.54,APPROACH,ILS_TRACK,152.44,152,-0.44,445.92,366.16,-7.89,7.02,9.89,270.01,0.014,0.2424,0,13.809,1,0.6,4.5,0.75,0.35,0.0168,0.4,0,21.765,0,0.446,0,270.01,-3.126,0,1,-2.98,0,0,-3.01,270.01,0.4677,0.0001,0.8839,-3.13,270.01,-0.25,-1.37,7.126,0.007,-0.126,1,3,672.14,0.671,-3.126,447.75,0,0,0,,0,0,0,0,0,0,269.98,0,0,0,0,0,0,0,0,0,0,0,0,0,3,3,0,0,VALID,0,0,0,0,0,1,0,0,0,0,0,0,0,0,0,0,0,0,0,0,251.21,1098.5,2,0,0.15,0.15,193,6.67,0.15,0.15,29.54,FLYING,X10-F,0:/Integrated Flight Computer/aircraft/x10_f_cfg.ks (inferred preloaded)
29.84,APPROACH,ILS_TRACK,152.4,152,-0.4,443.53,363.82,-7.85,6.91,9.71,270,0.015,0.2444,0,13.684,1,0.6,4.5,0.75,0.35,0.0168,0.4,0,21.776,0,0.407,0,270.01,-2.867,0,1,-2.93,0,0,-2.98,270.01,0.4638,0.0001,0.8859,-2.87,270.01,-0.24,-1.25,7.078,0.009,0.133,1,3,672.14,0.305,-2.867,445.26,0,0,0,,0,0,0,0,0,0,269.98,0,0,0,0,0,0,0,0,0,0,0,0,0,3,3,0,0,VALID,0,0,0,0,0,1,0,0,0,0,0,0,0,0,0,0,0,0,0,0,252.15,1098.53,2,0,0.15,0.15,195,6.67,0.15,0.15,29.84,FLYING,X10-F,0:/Integrated Flight Computer/aircraft/x10_f_cfg.ks (inferred preloaded)
30.14,APPROACH,ILS_TRACK,152.39,152,-0.39,441.19,361.43,-7.96,7,9.9,270,0.015,0.2355,0,13.566,1,0.6,4.5,0.75,0.35,0.0168,0.4,0,21.781,0,0.389,0,270.01,-3.122,0,1,-3,0,0,-2.95,270.01,0.4678,0.0001,0.8838,-3.12,270.01,-0.24,-1.11,7.031,0.009,-0.122,1,3,672.14,0.569,-3.122,442.76,0,0,0,,0,0,0,0,0,0,269.98,0,0,0,0,0,0,0,0,0,0,0,0,0,3,3,0,0,VALID,0,0,0,0,0,1,0,0,0,0,0,0,0,0,0,0,0,0,0,0,253.02,1098.65,2,0,0.15,0.15,197,6.67,0.15,0.15,30.14,FLYING,X10-F,0:/Integrated Flight Computer/aircraft/x10_f_cfg.ks (inferred preloaded)
30.44,APPROACH,ILS_TRACK,152.36,152,-0.36,438.79,359.07,-7.88,6.94,9.76,270,0.013,0.2363,0,13.456,1,0.6,4.5,0.75,0.35,0.0168,0.4,0,21.79,0,0.359,0,270.01,-2.923,0,1,-2.95,0,0,-3.06,270.01,0.4648,0.0001,0.8854,-2.92,270.01,-0.24,-1,6.983,0.01,0.077,1,3,672.14,0.278,-2.923,440.27,0,0,0,,0,0,0,0,0,0,269.98,0,0,0,0,0,0,0,0,0,0,0,0,0,3,3,0,0,VALID,0,0,0,0,0,1,0,0,0,0,0,0,0,0,0,0,0,0,0,0,253.38,1098.71,2,0,0.15,0.15,199,6.67,0.15,0.15,30.44,FLYING,X10-F,0:/Integrated Flight Computer/aircraft/x10_f_cfg.ks (inferred preloaded)
30.74,APPROACH,ILS_TRACK,152.34,152,-0.34,436.43,356.68,-7.98,7.01,9.91,270,0.015,0.2296,0,13.353,1,0.6,4.5,0.75,0.35,0.0168,0.4,0,21.794,0,0.343,0,270.01,-3.146,0,1,-3.01,0,0,-2.99,270.01,0.4683,0.0001,0.8836,-3.15,270.01,-0.24,-0.87,6.936,0.009,-0.146,1,3,672.14,0.508,-3.146,437.77,0,0,0,,0,0,0,0,0,0,269.98,0,0,0,0,0,0,0,0,0,0,0,0,0,3,3,0,0,VALID,0,0,0,0,0,1,0,0,0,0,0,0,0,0,0,0,0,0,0,0,253.7,1098.85,2,0,0.15,0.15,201,6.67,0.15,0.15,30.74,FLYING,X10-F,0:/Integrated Flight Computer/aircraft/x10_f_cfg.ks (inferred preloaded)
31.04,APPROACH,ILS_TRACK,152.31,152,-0.31,434.02,354.31,-7.91,6.92,9.75,270,0.014,0.2306,0,13.256,1,0.6,4.5,0.75,0.35,0.0168,0.4,0,21.802,0,0.316,0,270.01,-2.953,0,1,-2.96,0,0,-3.09,270.01,0.4654,0.0001,0.8851,-2.95,270.01,-0.24,-0.77,6.888,0.008,0.047,1,3,672.14,0.231,-2.953,435.28,0,0,0,,0,0,0,0,0,0,269.98,0,0,0,0,0,0,0,0,0,0,0,0,0,3,3,0,0,VALID,0,0,0,0,0,1,0,0,0,0,0,0,0,0,0,0,0,0,0,0,253.58,1098.92,2,0,0.15,0.15,203,6.67,0.15,0.15,31.04,FLYING,X10-F,0:/Integrated Flight Computer/aircraft/x10_f_cfg.ks (inferred preloaded)
31.34,APPROACH,ILS_TRACK,152.3,152,-0.3,431.66,351.91,-8.01,6.98,9.9,270,0.016,0.2247,0,13.164,1,0.6,4.5,0.75,0.35,0.0168,0.4,0,21.806,0,0.302,0,270.01,-3.176,0,1,-3.02,0,0,-3.02,270.01,0.4689,0.0001,0.8832,-3.18,270.01,-0.24,-0.66,6.841,0.01,-0.176,1,3,672.14,0.466,-3.176,432.79,0,0,0,,0,0,0,0,0,0,269.98,0,0,0,0,0,0,0,0,0,0,0,0,0,3,3,0,0,VALID,0,0,0,0,0,1,0,0,0,0,0,0,0,0,0,0,0,0,0,0,253.39,1099.07,2,0,0.15,0.15,205,6.67,0.15,0.15,31.34,FLYING,X10-F,0:/Integrated Flight Computer/aircraft/x10_f_cfg.ks (inferred preloaded)
31.64,APPROACH,ILS_TRACK,152.27,152,-0.27,429.23,349.54,-7.94,6.89,9.73,270,0.014,0.2271,0,13.079,1,0.6,4.5,0.75,0.35,0.0168,0.4,0,21.813,0,0.277,0,270.01,-2.969,0,1,-2.97,0,0,-3.12,270.01,0.4658,0.0001,0.8849,-2.97,270.01,-0.24,-0.57,6.793,0.01,0.031,1,3,672.14,0.177,-2.969,430.3,0,0,0,,0,0,0,0,0,0,269.98,0,0,0,0,0,0,0,0,0,0,0,0,0,3,3,0,0,VALID,0,0,0,0,0,1,0,0,0,0,0,0,0,0,0,0,0,0,0,0,252.8,1099.15,2,0,0.15,0.15,207,6.67,0.15,0.15,31.64,FLYING,X10-F,0:/Integrated Flight Computer/aircraft/x10_f_cfg.ks (inferred preloaded)
31.94,APPROACH,ILS_TRACK,152.26,152,-0.26,426.86,347.12,-8.08,6.94,9.89,270,0.016,0.2224,0,12.999,1,0.6,4.5,0.75,0.35,0.0168,0.4,0,21.817,0,0.264,0,270.01,-3.199,0,1,-3.05,0,0,-3.03,270.01,0.4694,0.0001,0.883,-3.2,270.01,-0.24,-0.47,6.745,0.008,-0.199,1,3,672.14,0.427,-3.199,427.8,0,0,0,,0,0,0,0,0,0,269.98,0,0,0,0,0,0,0,0,0,0,0,0,0,3,3,0,0,VALID,0,0,0,0,0,1,0,0,0,0,0,0,0,0,0,0,0,0,0,0,252.44,1099.3,2,0,0.15,0.15,209,6.67,0.15,0.15,31.94,FLYING,X10-F,0:/Integrated Flight Computer/aircraft/x10_f_cfg.ks (inferred preloaded)
32.24,APPROACH,ILS_TRACK,152.23,152,-0.23,424.43,344.72,-7.99,6.9,9.76,270,0.014,0.2282,0,12.926,1,0.6,4.5,0.75,0.35,0.0168,0.4,0,21.825,0,0.233,0,270.01,-3.003,0,1,-2.99,0,0,-3.16,270.01,0.4665,0.0001,0.8845,-3,270.01,-0.24,-0.4,6.698,0.011,-0.003,1,3,672.14,0.152,-3.003,425.31,0,0,0,,0,0,0,0,0,0,269.98,0,0,0,0,0,0,0,0,0,0,0,0,0,3,3,0,0,VALID,0,0,0,0,0,1,0,0,0,0,0,0,0,0,0,0,0,0,0,0,251.75,1099.36,2,0,0.15,0.15,211,6.67,0.15,0.15,32.24,FLYING,X10-F,0:/Integrated Flight Computer/aircraft/x10_f_cfg.ks (inferred preloaded)
32.54,APPROACH,ILS_TRACK,152.21,152,-0.21,422.04,342.29,-8.11,6.97,9.93,270,0.017,0.2257,0,12.861,1,0.6,4.5,0.75,0.35,0.0168,0.4,0,21.83,0,0.216,0,270.01,-3.218,0,1,-3.07,0,0,-3.05,270.01,0.4699,0.0001,0.8827,-3.22,270.01,-0.24,-0.31,6.65,0.011,-0.218,1,3,672.14,0.388,-3.218,422.82,0,0,0,,0,0,0,0,0,0,269.98,0,0,0,0,0,0,0,0,0,0,0,0,0,3,3,0,0,VALID,0,0,0,0,0,1,0,0,0,0,0,0,0,0,0,0,0,0,0,0,251.65,1099.49,2,0,0.15,0.15,213,6.67,0.15,0.15,32.54,FLYING,X10-F,0:/Integrated Flight Computer/aircraft/x10_f_cfg.ks (inferred preloaded)
32.84,APPROACH,ILS_TRACK,152.18,152,-0.18,419.59,339.89,-8.02,6.89,9.76,270,0.016,0.2338,0,12.804,1,0.6,4.5,0.75,0.35,0.0168,0.4,0,21.84,0,0.18,0,270.01,-2.997,0,1,-3.01,0,0,-3.16,270.01,0.4665,0.0002,0.8845,-3,270.01,-0.24,-0.25,6.603,0.011,0.003,1,3,672.14,0.09,-2.997,420.33,0,0,0,,0,0,0,0,0,0,269.98,0,0,0,0,0,0,0,0,0,0,0,0,0,3,3,0,0,VALID,0,0,0,0,0,1,0,0,0,0,0,0,0,0,0,0,0,0,0,0,251.45,1099.53,2,0,0.15,0.15,215,6.67,0.15,0.15,32.84,FLYING,X10-F,0:/Integrated Flight Computer/aircraft/x10_f_cfg.ks (inferred preloaded)
33.14,APPROACH,ILS_TRACK,152.16,152,-0.16,417.19,337.45,-8.16,6.94,9.92,270,0.018,0.2305,0,12.754,1,0.6,4.5,0.75,0.35,0.0168,0.4,0,21.845,0,0.161,0,270.01,-3.211,0,1,-3.08,0,0,-3.05,270.01,0.4699,0.0002,0.8827,-3.21,270.01,-0.24,-0.18,6.555,0.011,-0.211,1,3,672.14,0.331,-3.211,417.85,0,0,0,,0,0,0,0,0,0,269.98,0,0,0,0,0,0,0,0,0,0,0,0,0,3,3,0,0,VALID,0,0,0,0,0,1,0,0,0,0,0,0,0,0,0,0,0,0,0,0,251.77,1099.66,2,0,0.15,0.15,217,6.67,0.15,0.15,33.14,FLYING,X10-F,0:/Integrated Flight Computer/aircraft/x10_f_cfg.ks (inferred preloaded)
33.44,APPROACH,ILS_TRACK,152.13,152,-0.13,414.74,335.03,-8.07,6.9,9.79,270,0.018,0.2346,0,12.712,1,0.6,4.5,0.75,0.35,0.0168,0.4,0,21.854,0,0.132,0,270.01,-3.017,0,1,-3.02,0,0,-3.17,270.01,0.467,0.0002,0.8843,-3.02,270.01,-0.25,-0.13,6.508,0.011,-0.017,1,3,672.14,0.069,-3.017,415.36,0,0,0,,0,0,0,0,0,0,269.98,0,0,0,0,0,0,0,0,0,0,0,0,0,3,3,0,0,VALID,0,0,0,0,0,1,0,0,0,0,0,0,0,0,0,0,0,0,0,0,251.92,1099.73,2,0,0.15,0.15,219,6.67,0.15,0.15,33.44,FLYING,X10-F,0:/Integrated Flight Computer/aircraft/x10_f_cfg.ks (inferred preloaded)
33.74,APPROACH,ILS_TRACK,152.11,152,-0.11,412.33,332.58,-8.17,6.96,9.94,270,0.02,0.2311,0,12.677,1,0.6,4.5,0.75,0.35,0.0168,0.4,0,21.859,0,0.115,0,270.01,-3.212,0,1,-3.08,0,0,-3.07,270.01,0.47,0.0002,0.8826,-3.21,270.01,-0.25,-0.06,6.461,0.012,-0.212,1,3,672.14,0.289,-3.212,412.87,0,0,0,,0,0,0,0,0,0,269.98,0,0,0,0,0,0,0,0,0,0,0,0,0,3,3,0,0,VALID,0,0,0,0,0,1,0,0,0,0,0,0,0,0,0,0,0,0,0,0,252.27,1099.87,2,0,0.15,0.15,221,6.67,0.15,0.15,33.74,FLYING,X10-F,0:/Integrated Flight Computer/aircraft/x10_f_cfg.ks (inferred preloaded)
34.04,APPROACH,ILS_TRACK,152.09,152,-0.09,409.86,330.16,-8.11,6.89,9.81,270,0.021,0.2343,0,12.648,1,0.6,4.5,0.75,0.35,0.0168,0.4,0,21.866,0,0.088,0,270.01,-3.014,0,1,-3.04,0,0,-3.15,270.01,0.467,0.0002,0.8842,-3.01,270.01,-0.25,-0.03,6.413,0.012,-0.014,1,3,672.14,0.028,-3.014,410.39,0,0,0,,0,0,0,0,0,0,269.98,0,0,0,0,0,0,0,0,0,0,0,0,0,3,3,0,0,VALID,0,0,0,0,0,1,0,0,0,0,0,0,0,0,0,0,0,0,0,0,252.44,1099.95,2,0,0.15,0.15,223,6.67,0.15,0.15,34.04,FLYING,X10-F,0:/Integrated Flight Computer/aircraft/x10_f_cfg.ks (inferred preloaded)
34.34,APPROACH,ILS_TRACK,152.07,152,-0.07,407.44,327.7,-8.2,6.97,9.96,270,0.022,0.2307,0,12.625,1,0.6,4.5,0.75,0.35,0.0168,0.4,0,21.87,0,0.074,0,270.01,-3.214,0,1,-3.09,0,0,-3.08,270.01,0.4702,0.0002,0.8826,-3.21,270.01,-0.26,0.03,6.366,0.014,-0.214,1,3,672.14,0.258,-3.214,407.9,0,0,0,,0,0,0,0,0,0,269.98,0,0,0,0,0,0,0,0,0,0,0,0,0,3,3,0,0,VALID,0,0,0,0,0,1,0,0,0,0,0,0,0,0,0,0,0,0,0,0,252.74,1100.1,2,0,0.15,0.15,225,6.67,0.15,0.15,34.34,FLYING,X10-F,0:/Integrated Flight Computer/aircraft/x10_f_cfg.ks (inferred preloaded)
34.64,APPROACH,ILS_TRACK,152.05,152,-0.05,404.97,325.26,-8.15,6.89,9.83,270,0.026,0.234,0,12.608,1,0.6,4.5,0.75,0.35,0.0168,0.4,0,21.877,0,0.05,0,270.01,-3.016,0,1,-3.05,0,0,-3.14,270.01,0.4672,0.0002,0.8841,-3.02,270.01,-0.26,0.05,6.318,0.015,-0.016,1,3,672.14,0.001,-3.016,405.42,0,0,0,,0,0,0,0,0,0,269.98,0,0,0,0,0,0,0,0,0,0,0,0,0,3,3,0,0,VALID,0,0,0,0,0,1,0,0,0,0,0,0,0,0,0,0,0,0,0,0,252.87,1100.2,2,0,0.15,0.15,227,6.67,0.15,0.15,34.64,FLYING,X10-F,0:/Integrated Flight Computer/aircraft/x10_f_cfg.ks (inferred preloaded)
34.94,APPROACH,ILS_TRACK,152.03,152,-0.03,402.54,322.79,-8.2,6.99,9.97,270,0.028,0.2309,0,12.597,1,0.6,4.5,0.75,0.35,0.0168,0.4,0,21.881,0,0.036,0,270.01,-3.207,0,1,-3.1,0,0,-3.09,270.01,0.4702,0.0002,0.8825,-3.21,270.01,-0.26,0.1,6.271,0.014,-0.207,1,3,672.14,0.223,-3.207,402.93,0,0,0,,0,0,0,0,0,0,269.98,0,0,0,0,0,0,0,0,0,0,0,0,0,3,3,0,0,VALID,0,0,0,0,0,1,0,0,0,0,0,0,0,0,0,0,0,0,0,0,253.12,1100.35,2,0,0.15,0.15,229,6.67,0.15,0.15,34.94,FLYING,X10-F,0:/Integrated Flight Computer/aircraft/x10_f_cfg.ks (inferred preloaded)
35.24,APPROACH,ILS_TRACK,152.01,152,-0.01,400.06,320.35,-8.19,6.9,9.86,270,0.028,0.2333,0,12.591,1,0.6,4.5,0.75,0.35,0.0168,0.4,0,21.887,0,0.015,0,270.01,-3.026,0,1,-3.07,0,0,-3.11,270.02,0.4675,0.0002,0.884,-3.03,270.01,-0.27,0.11,6.223,0.013,-0.026,1,3,672.14,-0.009,-3.026,400.45,0,0,0,,0,0,0,0,0,0,269.98,0,0,0,0,0,0,0,0,0,0,0,0,0,3,3,0,0,VALID,0,0,0,0,0,1,0,0,0,0,0,0,0,0,0,0,0,0,0,0,253.25,1100.46,2,0,0.15,0.15,231,6.67,0.15,0.15,35.24,FLYING,X10-F,0:/Integrated Flight Computer/aircraft/x10_f_cfg.ks (inferred preloaded)
35.54,APPROACH,ILS_TRACK,152,152,0,397.63,317.88,-8.19,7.01,9.98,270,0.027,0.2313,0,12.589,1,0.6,4.5,0.75,0.35,0.0168,0.4,0,21.89,0,0.003,0,270.02,-3.189,0,1,-3.09,0,0,-3.12,270.01,0.4701,0.0002,0.8826,-3.19,270.02,-0.27,0.15,6.176,0.015,-0.189,1,3,672.14,0.179,-3.189,397.96,0,0,0,,0,0,0,0,0,0,269.98,0,0,0,0,0,0,0,0,0,0,0,0,0,3,3,0,0,VALID,0,0,0,0,0,1,0,0,0,0,0,0,0,0,0,0,0,0,0,0,253.45,1100.61,2,0,0.15,0.15,233,6.67,0.15,0.15,35.54,FLYING,X10-F,0:/Integrated Flight Computer/aircraft/x10_f_cfg.ks (inferred preloaded)
35.84,APPROACH,ILS_TRACK,151.98,152,0.02,395.16,315.42,-8.25,6.93,9.92,270,0.03,0.2333,0,12.593,1,0.6,4.5,0.75,0.35,0.0168,0.4,0,21.895,0,-0.016,0,270.01,-3.066,0,1,-3.09,0,0,-3.08,270.01,0.4683,0.0002,0.8836,-3.07,270.01,-0.28,0.16,6.129,0.015,-0.066,1,3,672.14,0.021,-3.066,395.48,0,0,0,,0,0,0,0,0,0,269.98,0,0,0,0,0,0,0,0,0,0,0,0,0,3,3,0,0,VALID,0,0,0,0,0,1,0,0,0,0,0,0,0,0,0,0,0,0,0,0,253.59,1100.74,2,0,0.15,0.15,235,6.67,0.15,0.15,35.84,FLYING,X10-F,0:/Integrated Flight Computer/aircraft/x10_f_cfg.ks (inferred preloaded)
36.14,APPROACH,ILS_TRACK,151.97,152,0.03,392.7,312.96,-8.15,7,9.94,270,0.028,0.2334,0,12.6,1,0.6,4.5,0.75,0.35,0.0168,0.4,0,21.9,0,-0.031,0,270.02,-3.121,0,1,-3.07,0,0,-3.18,270.01,0.4692,0.0002,0.8831,-3.12,270.02,-0.28,0.2,6.081,0.016,-0.121,1,3,672.14,0.078,-3.121,393,0,0,0,,0,0,0,0,0,0,269.98,0,0,0,0,0,0,0,0,0,0,0,0,0,3,3,0,0,VALID,0,0,0,0,0,1,0,0,0,0,0,0,0,0,0,0,0,0,0,0,253.78,1100.88,2,0,0.15,0.15,237,6.67,0.15,0.15,36.14,FLYING,X10-F,0:/Integrated Flight Computer/aircraft/x10_f_cfg.ks (inferred preloaded)
36.44,APPROACH,ILS_TRACK,151.95,152,0.05,390.25,310.49,-8.27,6.98,10.01,270,0.032,0.2345,0,12.614,1,0.6,4.5,0.75,0.35,0.0168,0.4,0,21.904,0,-0.047,0,270.02,-3.153,0,1,-3.12,0,0,-3.04,270.02,0.4698,0.0003,0.8828,-3.15,270.02,-0.29,0.21,6.034,0.017,-0.153,1,3,672.14,0.112,-3.153,390.52,0,0,0,,0,0,0,0,0,0,269.98,0,0,0,0,0,0,0,0,0,0,0,0,0,3,3,0,0,VALID,0,0,0,0,0,1,0,0,0,0,0,0,0,0,0,0,0,0,0,0,254.03,1101.02,2,0,0.15,0.15,239,6.67,0.15,0.15,36.44,FLYING,X10-F,0:/Integrated Flight Computer/aircraft/x10_f_cfg.ks (inferred preloaded)
36.74,APPROACH,ILS_TRACK,151.93,152,0.07,387.77,308.04,-8.2,6.98,9.94,270,0.032,0.2386,0,12.633,1,0.6,4.5,0.75,0.35,0.0168,0.4,0,21.91,0,-0.069,0,270.02,-3.062,0,1,-3.08,0,0,-3.17,270.02,0.4684,0.0002,0.8835,-3.06,270.02,-0.29,0.23,5.987,0.016,-0.062,1,3,672.14,-0.009,-3.062,388.04,0,0,0,,0,0,0,0,0,0,269.98,0,0,0,0,0,0,0,0,0,0,0,0,0,3,3,0,0,VALID,0,0,0,0,0,1,0,0,0,0,0,0,0,0,0,0,0,0,0,0,254.32,1101.13,2,0,0.15,0.15,241,6.67,0.15,0.15,36.74,FLYING,X10-F,0:/Integrated Flight Computer/aircraft/x10_f_cfg.ks (inferred preloaded)
