t_s,phase,subphase,ias_ms,vapp_ms,spd_err_ms,agl_m,gear_h_m,vs_ms,pitch_deg,aoa_deg,hdg_deg,bank_deg,thr_cmd,thr_cur,thr_intg,at_gain,at_tau_s,at_a_up,at_a_dn,at_kp_thr,at_ki_spd,at_thr_slew,as_cmd_deg,as_cap_deg,as_raw_deg,as_spd_err_ms,as_active,aa_hdg_cmd_deg,aa_fpa_cmd_deg,aa_fbw,aa_dir,actual_fpa_deg,ftf_hdg_err_deg,ftf_fix_idx,kos_steer_pit_deg,kos_steer_hdg_deg,aa_dir_vx,aa_dir_vy,aa_dir_vz,aa_dir_pitch_deg,aa_dir_hdg_deg,ils_loc_m,ils_gs_m,ils_dist_km,loc_corr_deg,gs_corr_deg,gs_latched,active_gs_ang_deg,ils_intercept_alt_m,d_gs_ms,fpa_preclamped_deg,gs_nom_alt_m,flare_fpa_cmd,flare_tgt_vs,flare_frac,flare_mode,flare_auth_limited,flare_vs_err,flare_fpa_err,flare_pitch_err,flare_req_up_a,flare_thr_floor,flare_tecs_et_err,flare_tecs_eb_err,flare_tecs_h_ref,flare_tecs_v_ref,flare_gamma_ref,flare_gamma_eb_term,flare_gamma_unsat,steer_hdg_deg,steer_blend,ro_loc_corr_deg,ro_hdg_err_deg,ro_yaw_tgt,ro_yaw_scale,ro_yaw_gate,yaw_cmd,roll_cmd,pitch_cmd,ro_pitch_tgt_deg,ro_pitch_err_deg,ro_pitch_ff,ro_roll_assist,flaps_cur,flaps_tgt,asc_j_ab,asc_j_rk,asc_validity,asc_q_pa,asc_q_raw_pa,asc_mach,asc_apo_m,asc_drag_n,asc_w_prop,asc_edot_aero,asc_edot_orb,asc_pitch_bias,asc_blend,asc_spooling,asc_ab_thr_ratio,asc_ab_t_now,asc_ab_t_avail,asc_ab_ign_on,asc_ab_flameouts,asc_rk_t_now,asc_rk_t_avail,asc_rk_ign_on,asc_rk_flameouts,ship_thrust,ship_avail_thrust,ship_ign_on,ship_flameouts,ifc_raw_dt_s,ifc_dt_s,ifc_loop_n,ifc_hz_est,ifc_raw_dt_max_s,ifc_raw_dt_min_s,phase_el_s,status,craft_name,cfg_file
0.16,APPROACH,ILS_TRACK,154.85,152,-2.85,673.03,598.27,-21.32,6.52,14.01,270.02,0.094,0,0,0,0,0,0,0,0,0,0,0,0,0,0,0,0,0,1,0,-7.84,0,0,0,90,0,0,0,0,0,-0.01,-18.69,11.781,0,0,0,3,673.03,0,0,691.71,0,0,0,,0,0,0,0,0,0,0,0,0,0,0,0,0,270.01,0,0,0,0,0,0,0,0,0,0,0,0,0,0,0,0,0,VALID,0,0,0,0,0,1,0,0,0,0,0,0,0,0,0,0,0,0,0,0,257.91,1090.7,2,0,0.14,0.14,1,3.7,0.14,0.02,0.16,FLYING,X10-F,0:/Integrated Flight Computer/aircraft/x10_f_cfg.ks (inferred preloaded)
0.42,APPROACH,ILS_TRACK,155.16,152,-3.16,667.46,592.74,-21.16,6.46,13.86,270.02,0.044,0,0,0,1,0.6,1.484,0.75,0.35,0.0168,0.4,1.866,21.005,1.866,3.144,1,269.99,0,0,1,-7.78,0,0,0,270.02,0.7628,-0.0001,0.6466,0,269.99,-0.01,-21.52,11.745,-0.007,16.763,1,3,673.03,-12.885,0,689.84,0,0,0,,0,0,0,0,0,0,0,0,0,0,0,0,0,270.01,0,0,0,0,0,0,0,0,0,0,0,0,0,1,3,0,0,VALID,0,0,0,0,0,1,0,0,0,0,0,0,0,0,0,0,0,0,0,0,235.79,1092.46,2,0,0.12,0.12,3,7.69,0.14,0.12,0.42,FLYING,X10-F,0:/Integrated Flight Computer/aircraft/x10_f_cfg.ks (inferred preloaded)
0.68,APPROACH,ILS_TRACK,155.38,152,-3.38,661.81,587.27,-20.99,5.95,13.24,270.01,0.025,0,0,0,1,0.6,2.742,0.75,0.35,0.0168,0.4,2.107,20.944,2.107,3.361,1,269.99,0,0,1,-7.71,0,0,0,269.99,0.7628,-0.0001,0.6466,0,269.99,0,-24.94,11.703,-0.006,18.086,1,3,673.03,-13.254,0,687.63,0,0,0,,0,0,0,0,0,0,0,0,0,0,0,0,0,270.01,0,0,0,0,0,0,0,0,0,0,0,0,0,1,3,0,0,VALID,0,0,0,0,0,1,0,0,0,0,0,0,0,0,0,0,0,0,0,0,215.48,1093.79,2,0,0.12,0.12,5,7.69,0.14,0.12,0.68,FLYING,X10-F,0:/Integrated Flight Computer/aircraft/x10_f_cfg.ks (inferred preloaded)
0.94,APPROACH,ILS_TRACK,155.58,152,-3.58,656.02,581.84,-21.04,4.88,12.13,270.01,0.018,0,0,0,1,0.6,3.809,0.75,0.35,0.0168,0.4,2.324,20.888,2.324,3.559,1,270,0,0,1,-7.69,0,0,0,269.99,0.7629,-0.0001,0.6465,0,270,0.01,-28.49,11.661,-0.004,19.565,1,3,673.03,-13.771,0,685.41,0,0,0,,0,0,0,0,0,0,0,0,0,0,0,0,0,270.01,0,0,0,0,0,0,0,0,0,0,0,0,0,2,3,0,0,VALID,0,0,0,0,0,1,0,0,0,0,0,0,0,0,0,0,0,0,0,0,196.9,1095.06,2,0,0.12,0.12,7,7.69,0.14,0.12,0.94,FLYING,X10-F,0:/Integrated Flight Computer/aircraft/x10_f_cfg.ks (inferred preloaded)
1.3,APPROACH,ILS_TRACK,155.99,152,-3.99,647.96,574.17,-21.75,3.51,11.05,270.01,0.038,0,0,0,1,0.6,4.5,0.75,0.35,0.0168,0.4,2.772,20.773,2.772,3.968,1,269.99,0,0,1,-7.91,0,0,0,269.99,0.763,-0.0001,0.6465,0,269.99,0.02,-33.49,11.602,-0.007,21.084,1,3,673.03,-13.798,0,682.34,0,0,0,,0,0,0,0,0,0,0,0,0,0,0,0,0,270.01,0,0,0,0,0,0,0,0,0,0,0,0,0,3,3,0,0,VALID,0,0,0,0,0,1,0,0,0,0,0,0,0,0,0,0,0,0,0,0,173.88,1097.43,2,0,0.12,0.12,10,8.33,0.12,0.12,1.3,FLYING,X10-F,0:/Integrated Flight Computer/aircraft/x10_f_cfg.ks (inferred preloaded)
1.66,APPROACH,ILS_TRACK,156.37,152,-4.37,640.06,566.17,-22.61,3.64,11.56,270.02,0.039,0,0,0,1,0.6,4.5,0.75,0.35,0.0168,0.4,3.189,20.664,3.189,4.355,1,269.99,0,0,1,-8.2,0,0,0,269.99,0.763,-0.0001,0.6464,0,269.99,0.02,-38.34,11.544,-0.006,22.132,1,3,673.03,-13.288,0,679.26,0,0,0,,0,0,0,0,0,0,0,0,0,0,0,0,0,270.01,0,0,0,0,0,0,0,0,0,0,0,0,0,3,3,0,0,VALID,0,0,0,0,0,1,0,0,0,0,0,0,0,0,0,0,0,0,0,0,153.55,1099.69,2,0,0.12,0.12,13,8.33,0.12,0.12,1.66,FLYING,X10-F,0:/Integrated Flight Computer/aircraft/x10_f_cfg.ks (inferred preloaded)
1.98,APPROACH,ILS_TRACK,156.54,152,-4.54,633.18,558.74,-23.03,5.21,13.38,270.02,0.041,0,0,0,1,0.6,4.5,0.75,0.35,0.0168,0.4,3.386,20.612,3.386,4.539,1,270,0,0,1,-8.36,0,0,0,269.99,0.7631,-0.0001,0.6463,0,270,0.03,-42.47,11.491,-0.003,22.81,1,3,673.03,-12.588,0,676.51,0,0,0,,0,0,0,0,0,0,0,0,0,0,0,0,0,270.01,0,0,0,0,0,0,0,0,0,0,0,0,0,3,3,0,0,VALID,0,0,0,0,0,1,0,0,0,0,0,0,0,0,0,0,0,0,0,0,137.26,1101.02,2,0,0.101,0.101,16,9.29,0.12,0.1,1.98,FLYING,X10-F,0:/Integrated Flight Computer/aircraft/x10_f_cfg.ks (inferred preloaded)
2.24,APPROACH,ILS_TRACK,156.5,152,-4.5,627.84,552.73,-22.79,7.16,15.39,270.02,0.039,0,0,0,1,0.6,4.5,0.75,0.35,0.0168,0.4,3.363,20.618,3.363,4.518,1,269.99,0,0,1,-8.34,0,0,0,269.99,0.7631,-0.0002,0.6463,0,269.99,0.04,-45.38,11.452,-0.009,23.196,1,3,673.03,-11.976,0,674.46,0,0,0,,0,0,0,0,0,0,0,0,0,0,0,0,0,270.01,0,0,0,0,0,0,0,0,0,0,0,0,0,3,3,0,0,VALID,0,0,0,0,0,1,0,0,0,0,0,0,0,0,0,0,0,0,0,0,125.34,1101.32,2,0,0.128,0.128,18,7.71,0.128,0.101,2.24,FLYING,X10-F,0:/Integrated Flight Computer/aircraft/x10_f_cfg.ks (inferred preloaded)
2.55,APPROACH,ILS_TRACK,156.12,152,-4.12,621.46,545.81,-21.74,9.13,16.92,270.02,0.024,0,0,0,1,0.6,4.5,0.75,0.35,0.0168,0.4,3.002,20.713,3.002,4.181,1,269.99,0,0,1,-7.99,0,0,0,269.99,0.7632,-0.0002,0.6462,0,269.99,0.05,-49.08,11.402,-0.012,24.396,1,3,673.03,-12.091,0,671.84,0,0,0,,0,0,0,0,0,0,0,0,0,0,0,0,0,270.01,0,0,0,0,0,0,0,0,0,0,0,0,0,3,3,0,0,VALID,0,0,0,0,0,1,0,0,0,0,0,0,0,0,0,0,0,0,0,0,112.28,1100.24,2,0,0.156,0.156,20,6.44,0.156,0.128,2.55,FLYING,X10-F,0:/Integrated Flight Computer/aircraft/x10_f_cfg.ks (inferred preloaded)
2.88,APPROACH,ILS_TRACK,155.47,152,-3.47,614.95,538.87,-20.75,10.52,18,270.01,0.005,0.0181,0,-0.58,1,0.6,4.5,0.75,0.35,0.0168,0.4,2.309,20.892,2.309,3.544,1,269.99,0,0,1,-7.67,0,0,0,269.99,0.7632,-0.0002,0.6461,0,269.99,0.06,-52.84,11.349,-0.01,24.992,1,3,673.03,-11.424,0,669.09,0,0,0,,0,0,0,0,0,0,0,0,0,0,0,0,0,270.01,0,0,0,0,0,0,0,0,0,0,0,0,0,3,3,0,0,VALID,0,0,0,0,0,1,0,0,0,0,0,0,0,0,0,0,0,0,0,0,99.9,1097.98,2,0,0.164,0.164,22,6.13,0.164,0.156,2.88,FLYING,X10-F,0:/Integrated Flight Computer/aircraft/x10_f_cfg.ks (inferred preloaded)
3.22,APPROACH,ILS_TRACK,154.59,152,-2.59,608.5,531.93,-19.68,12.12,19.3,270.01,-0.014,0.1539,0,-1.572,1,0.6,4.5,0.75,0.35,0.0168,0.4,0,21.131,0,2.695,0,269.99,0,0,1,-7.33,0,0,0,269.99,0.7633,-0.0002,0.6461,0,269.99,0.08,-56.43,11.295,-0.012,25.166,1,3,673.03,-10.295,0,666.22,0,0,0,,0,0,0,0,0,0,0,0,0,0,0,0,0,270.01,0,0,0,0,0,0,0,0,0,0,0,0,0,3,3,0,0,VALID,0,0,0,0,0,1,0,0,0,0,0,0,0,0,0,0,0,0,0,0,93.85,1094.78,2,0,0.172,0.172,24,5.83,0.172,0.164,3.22,FLYING,X10-F,0:/Integrated Flight Computer/aircraft/x10_f_cfg.ks (inferred preloaded)
3.57,APPROACH,ILS_TRACK,153.39,152,-1.39,602.27,525.28,-18.21,13.66,20.32,270,-0.02,0.2939,0,-2.216,1,0.6,4.5,0.75,0.35,0.0168,0.4,0,21.461,0,1.526,0,269.99,0,0,1,-6.89,0,0,0,269.99,0.7633,-0.0002,0.646,0,269.99,0.09,-59.78,11.239,-0.01,25.437,1,3,673.03,-9.378,0,663.28,0,0,0,,0,0,0,0,0,0,0,0,0,0,0,0,0,270.01,0,0,0,0,0,0,0,0,0,0,0,0,0,3,3,0,0,VALID,0,0,0,0,0,1,0,0,0,0,0,0,0,0,0,0,0,0,0,0,100.13,1090.19,2,0,0.175,0.175,26,5.71,0.175,0.172,3.57,FLYING,X10-F,0:/Integrated Flight Computer/aircraft/x10_f_cfg.ks (inferred preloaded)
3.92,APPROACH,ILS_TRACK,151.96,152,0.04,596.27,519.26,-16.39,13.99,19.92,270,-0.014,0.4339,0,-2.379,1,0.6,4.5,0.75,0.35,0.0168,0.4,0,21.862,0,0.101,0,269.99,0,0,1,-6.26,0,0,0,269.99,0.7634,-0.0002,0.6459,0,269.99,0.1,-62.91,11.183,-0.01,25.92,1,3,673.03,-8.806,0,660.36,0,0,0,,0,0,0,0,0,0,0,0,0,0,0,0,0,270.01,0,0,0,0,0,0,0,0,0,0,0,0,0,3,3,0,0,VALID,0,0,0,0,0,1,0,0,0,0,0,0,0,0,0,0,0,0,0,0,116.1,1084.57,2,0,0.175,0.175,28,5.71,0.175,0.175,3.92,FLYING,X10-F,0:/Integrated Flight Computer/aircraft/x10_f_cfg.ks (inferred preloaded)
4.27,APPROACH,ILS_TRACK,150.64,152,1.36,590.61,513.77,-15.22,13.46,18.95,270,0.011,0.5739,0,-2.356,1,0.6,4.5,0.75,0.35,0.0168,0.4,0,22.241,0,-1.243,0,269.99,0,0,1,-5.83,0,0,0,269.99,0.7635,-0.0002,0.6458,0,269.99,0.1,-65.75,11.128,-0.01,26.027,1,3,673.03,-7.876,0,657.47,0,0,0,,0,0,0,0,0,0,0,0,0,0,0,0,0,270.01,0,0,0,0,0,0,0,0,0,0,0,0,0,3,3,0,0,VALID,0,0,0,0,0,1,0,0,0,0,0,0,0,0,0,0,0,0,0,0,141.09,1079.45,2,0,0.175,0.175,30,5.71,0.175,0.175,4.27,FLYING,X10-F,0:/Integrated Flight Computer/aircraft/x10_f_cfg.ks (inferred preloaded)
4.62,APPROACH,ILS_TRACK,149.56,152,2.44,585.26,508.61,-14.44,12.82,18.06,270.01,0.018,0.7139,0,-2.332,1,0.6,4.5,0.75,0.35,0.0168,0.4,0,22.55,0,-2.337,0,269.99,0,0,1,-5.56,0,0,0,269.99,0.7635,-0.0002,0.6458,0,269.99,0.11,-68.29,11.073,-0.01,26.111,1,3,673.03,-7.031,0,654.59,0,0,0,,0,0,0,0,0,0,0,0,0,0,0,0,0,270.01,0,0,0,0,0,0,0,0,0,0,0,0,0,3,3,0,0,VALID,0,0,0,0,0,1,0,0,0,0,0,0,0,0,0,0,0,0,0,0,174.48,1075.35,2,0,0.175,0.175,32,5.71,0.175,0.175,4.62,FLYING,X10-F,0:/Integrated Flight Computer/aircraft/x10_f_cfg.ks (inferred preloaded)
4.97,APPROACH,ILS_TRACK,148.7,152,3.3,580.21,503.67,-13.85,12.36,17.43,270.01,0.039,0.8539,0,-2.309,1,0.6,4.5,0.75,0.35,0.0168,0.4,0,22.799,0,-3.221,0,269.99,0,0,1,-5.36,0,0,0,269.99,0.7636,-0.0001,0.6457,0,269.99,0.12,-70.54,11.018,-0.008,26.152,1,3,673.03,-6.238,0,651.73,0,0,0,,0,0,0,0,0,0,0,0,0,0,0,0,0,270.01,0,0,0,0,0,0,0,0,0,0,0,0,0,3,3,0,0,VALID,0,0,0,0,0,1,0,0,0,0,0,0,0,0,0,0,0,0,0,0,215.67,1072.14,2,0,0.175,0.175,34,5.71,0.175,0.175,4.97,FLYING,X10-F,0:/Integrated Flight Computer/aircraft/x10_f_cfg.ks (inferred preloaded)
5.32,APPROACH,ILS_TRACK,148.05,152,3.95,575.43,498.93,-13.28,12.2,17.11,270.02,0.048,0.9939,0,-2.286,1,0.6,4.5,0.75,0.35,0.0168,0.4,0,22.989,0,-3.895,0,269.99,0,0,1,-5.17,0,0,0,269.99,0.7636,-0.0002,0.6456,0,269.99,0.13,-72.52,10.964,-0.011,26.136,1,3,673.03,-5.475,0,648.89,0,0,0,,0,0,0,0,0,0,0,0,0,0,0,0,0,270.01,0,0,0,0,0,0,0,0,0,0,0,0,0,3,3,0,0,VALID,0,0,0,0,0,1,0,0,0,0,0,0,0,0,0,0,0,0,0,0,264.14,1069.8,2,0,0.175,0.175,36,5.71,0.175,0.175,5.32,FLYING,X10-F,0:/Integrated Flight Computer/aircraft/x10_f_cfg.ks (inferred preloaded)
5.67,APPROACH,ILS_TRACK,147.59,152,4.41,570.88,494.39,-12.75,12.13,16.87,270.02,0.04,1,0,-2.263,1,0.6,4.5,0.75,0.35,0.0168,0.4,0,23.124,0,-4.374,0,269.99,0,0,1,-4.97,0,0,0,269.99,0.7637,-0.0002,0.6456,0,269.99,0.13,-74.28,10.91,-0.013,26.175,1,3,673.03,-4.863,0,646.05,0,0,0,,0,0,0,0,0,0,0,0,0,0,0,0,0,270.01,0,0,0,0,0,0,0,0,0,0,0,0,0,3,3,0,0,VALID,0,0,0,0,0,1,0,0,0,0,0,0,0,0,0,0,0,0,0,0,317.57,1068.26,2,0,0.175,0.175,38,5.71,0.175,0.175,5.67,FLYING,X10-F,0:/Integrated Flight Computer/aircraft/x10_f_cfg.ks (inferred preloaded)
6.02,APPROACH,ILS_TRACK,147.31,152,4.69,566.61,490.02,-12.25,12.4,17,270.01,0.019,0.8949,0,-0.652,1,0.6,4.5,0.75,0.35,0.0168,0.4,0,23.206,0,-4.666,0,269.98,0,0,1,-4.79,0,0,0,269.99,0.7638,-0.0003,0.6455,0,269.98,0.14,-75.77,10.856,-0.015,25.978,1,3,673.03,-4.057,0,643.21,0,0,0,,0,0,0,0,0,0,0,0,0,0,0,0,0,270.01,0,0,0,0,0,0,0,0,0,0,0,0,0,3,3,0,0,VALID,0,0,0,0,0,1,0,0,0,0,0,0,0,0,0,0,0,0,0,0,366.86,1067.47,2,0,0.175,0.175,40,5.71,0.175,0.175,6.02,FLYING,X10-F,0:/Integrated Flight Computer/aircraft/x10_f_cfg.ks (inferred preloaded)
6.37,APPROACH,ILS_TRACK,147.14,152,4.86,562.66,485.83,-11.64,13.1,17.53,270.01,-0.007,0.7892,0,1.029,1,0.6,4.5,0.75,0.35,0.0168,0.4,0,23.255,0,-4.841,0,269.99,0,0,1,-4.58,0,0,0,269.99,0.7638,-0.0003,0.6454,0,269.99,0.15,-76.96,10.802,-0.014,25.624,1,3,673.03,-3.17,0,640.38,0,0,0,,0,0,0,0,0,0,0,0,0,0,0,0,0,270.01,0,0,0,0,0,0,0,0,0,0,0,0,0,3,3,0,0,VALID,0,0,0,0,0,1,0,0,0,0,0,0,0,0,0,0,0,0,0,0,405.38,1067.12,2,0,0.175,0.175,42,5.71,0.175,0.175,6.37,FLYING,X10-F,0:/Integrated Flight Computer/aircraft/x10_f_cfg.ks (inferred preloaded)
6.72,APPROACH,ILS_TRACK,146.97,152,5.03,558.95,481.97,-10.5,13.78,17.74,270,-0.003,0.7346,0,2.765,1,0.6,4.5,0.75,0.35,0.0168,0.4,0,23.302,0,-5.007,0,269.99,0,0,1,-4.16,0,0,0,269.99,0.7639,-0.0002,0.6454,0,269.99,0.16,-77.88,10.748,-0.012,25.375,1,3,673.03,-2.515,0,637.56,0,0,0,,0,0,0,0,0,0,0,0,0,0,0,0,0,270.01,0,0,0,0,0,0,0,0,0,0,0,0,0,3,3,0,0,VALID,0,0,0,0,0,1,0,0,0,0,0,0,0,0,0,0,0,0,0,0,434.11,1066.74,2,0,0.175,0.175,44,5.71,0.175,0.175,6.72,FLYING,X10-F,0:/Integrated Flight Computer/aircraft/x10_f_cfg.ks (inferred preloaded)
7.07,APPROACH,ILS_TRACK,146.84,152,5.16,555.52,478.45,-9.66,14.02,17.67,270,-0.01,0.7032,0,4.558,1,0.6,4.5,0.75,0.35,0.0168,0.4,0,23.342,0,-5.15,0,269.99,0,0,1,-3.83,0,0,0,269.99,0.7639,-0.0002,0.6453,0,269.99,0.17,-78.55,10.694,-0.013,24.924,1,3,673.03,-1.697,0,634.73,0,0,0,,0,0,0,0,0,0,0,0,0,0,0,0,0,270.01,0,0,0,0,0,0,0,0,0,0,0,0,0,3,3,0,0,VALID,0,0,0,0,0,1,0,0,0,0,0,0,0,0,0,0,0,0,0,0,457.48,1066.48,2,0,0.175,0.175,46,5.71,0.175,0.175,7.07,FLYING,X10-F,0:/Integrated Flight Computer/aircraft/x10_f_cfg.ks (inferred preloaded)
7.42,APPROACH,ILS_TRACK,146.76,152,5.24,552.45,475.22,-8.83,14.51,17.89,270,-0.019,0.6719,0,6.381,1,0.6,4.5,0.75,0.35,0.0168,0.4,0,23.364,0,-5.229,0,269.99,0,0,1,-3.51,0,0,0,269.99,0.764,-0.0002,0.6452,0,269.99,0.18,-78.87,10.64,-0.013,24.17,1,3,673.03,-0.635,0,631.91,0,0,0,,0,0,0,0,0,0,0,0,0,0,0,0,0,270.01,0,0,0,0,0,0,0,0,0,0,0,0,0,3,3,0,0,VALID,0,0,0,0,0,1,0,0,0,0,0,0,0,0,0,0,0,0,0,0,476.89,1066.43,2,0,0.175,0.175,48,5.71,0.175,0.175,7.42,FLYING,X10-F,0:/Integrated Flight Computer/aircraft/x10_f_cfg.ks (inferred preloaded)
7.77,APPROACH,ILS_TRACK,146.63,152,5.37,549.63,472.41,-7.39,14.75,17.48,269.99,-0.028,0.6854,0,8.24,1,0.6,4.5,0.75,0.35,0.0168,0.4,0,23.399,0,-5.351,0,269.99,0,0,1,-2.98,0,0,0,269.99,0.764,-0.0002,0.6452,0,269.99,0.18,-78.89,10.586,-0.011,23.678,1,3,673.03,-0.012,0,629.08,0,0,0,,0,0,0,0,0,0,0,0,0,0,0,0,0,270.01,0,0,0,0,0,0,0,0,0,0,0,0,0,3,3,0,0,VALID,0,0,0,0,0,1,0,0,0,0,0,0,0,0,0,0,0,0,0,0,492.99,1066.12,2,0,0.175,0.175,50,5.71,0.175,0.175,7.77,FLYING,X10-F,0:/Integrated Flight Computer/aircraft/x10_f_cfg.ks (inferred preloaded)
8.12,APPROACH,ILS_TRACK,146.56,152,5.44,546.99,470,-6.58,13.98,16.37,269.99,-0.032,0.6924,0,10.143,1,0.6,4.5,0.75,0.35,0.0168,0.4,0,23.425,0,-5.443,0,269.99,0,0,1,-2.62,0,0,0,269.99,0.7641,-0.0002,0.6451,0,269.99,0.19,-78.77,10.532,-0.01,23.186,1,3,673.03,0.555,0,626.26,0,0,0,,0,0,0,0,0,0,0,0,0,0,0,0,0,270.01,0,0,0,0,0,0,0,0,0,0,0,0,0,3,3,0,0,VALID,0,0,0,0,0,1,0,0,0,0,0,0,0,0,0,0,0,0,0,0,509.45,1066.02,2,0,0.175,0.175,52,5.71,0.175,0.175,8.12,FLYING,X10-F,0:/Integrated Flight Computer/aircraft/x10_f_cfg.ks (inferred preloaded)
8.47,APPROACH,ILS_TRACK,146.7,152,5.3,544.65,467.81,-6.07,13.38,15.62,269.99,-0.033,0.618,0,12.019,1,0.6,4.5,0.75,0.35,0.0168,0.4,0,23.39,0,-5.318,0,269.99,0,0,1,-2.4,0,0,0,269.99,0.7642,-0.0002,0.645,0,269.99,0.2,-78.34,10.478,-0.009,22.363,1,3,673.03,1.426,0,623.44,0,0,0,,0,0,0,0,0,0,0,0,0,0,0,0,0,270.01,0,0,0,0,0,0,0,0,0,0,0,0,0,3,3,0,0,VALID,0,0,0,0,0,1,0,0,0,0,0,0,0,0,0,0,0,0,0,0,524.42,1066.77,2,0,0.175,0.175,54,5.71,0.175,0.175,8.47,FLYING,X10-F,0:/Integrated Flight Computer/aircraft/x10_f_cfg.ks (inferred preloaded)
8.82,APPROACH,ILS_TRACK,146.97,152,5.03,542.61,465.77,-5.66,13.29,15.42,269.99,-0.029,0.522,0,13.815,1,0.6,4.5,0.75,0.35,0.0168,0.4,0,23.318,0,-5.064,0,269.99,0,0,1,-2.24,0,0,0,269.99,0.7642,-0.0002,0.645,0,269.99,0.2,-77.62,10.424,-0.009,21.445,1,3,673.03,2.3,0,620.61,0,0,0,,0,0,0,0,0,0,0,0,0,0,0,0,0,270.01,0,0,0,0,0,0,0,0,0,0,0,0,0,3,3,0,0,VALID,0,0,0,0,0,1,0,0,0,0,0,0,0,0,0,0,0,0,0,0,533.06,1068.02,2,0,0.175,0.175,56,5.71,0.175,0.175,8.82,FLYING,X10-F,0:/Integrated Flight Computer/aircraft/x10_f_cfg.ks (inferred preloaded)
9.17,APPROACH,ILS_TRACK,147.26,152,4.74,540.8,463.91,-4.89,13.54,15.36,269.99,-0.027,0.4482,0,15.51,1,0.6,4.5,0.75,0.35,0.0168,0.4,0,23.235,0,-4.771,0,269.99,0,0,1,-1.96,0,0,0,269.99,0.7643,-0.0002,0.6449,0,269.99,0.2,-76.61,10.37,-0.009,20.591,1,3,673.03,2.991,0,617.77,0,0,0,,0,0,0,0,0,0,0,0,0,0,0,0,0,270.01,0,0,0,0,0,0,0,0,0,0,0,0,0,3,3,0,0,VALID,0,0,0,0,0,1,0,0,0,0,0,0,0,0,0,0,0,0,0,0,533.97,1069.37,2,0,0.175,0.175,58,5.71,0.175,0.175,9.17,FLYING,X10-F,0:/Integrated Flight Computer/aircraft/x10_f_cfg.ks (inferred preloaded)
9.52,APPROACH,ILS_TRACK,147.54,152,4.46,539.15,462.3,-4.38,13.38,15.02,269.99,-0.019,0.4064,0,17.107,1,0.6,4.5,0.75,0.35,0.0168,0.4,0,23.156,0,-4.49,0,269.99,0,0,1,-1.75,0,0,0,269.99,0.7643,-0.0002,0.6448,0,269.99,0.2,-75.47,10.316,-0.009,19.895,1,3,673.03,3.432,0,614.93,0,0,0,,0,0,0,0,0,0,0,0,0,0,0,0,0,270.01,0,0,0,0,0,0,0,0,0,0,0,0,0,3,3,0,0,VALID,0,0,0,0,0,1,0,0,0,0,0,0,0,0,0,0,0,0,0,0,527.58,1070.68,2,0,0.175,0.175,60,5.71,0.175,0.175,9.52,FLYING,X10-F,0:/Integrated Flight Computer/aircraft/x10_f_cfg.ks (inferred preloaded)
9.87,APPROACH,ILS_TRACK,147.84,152,4.16,537.69,460.87,-3.87,13.29,14.71,269.99,-0.012,0.3717,0,18.599,1,0.6,4.5,0.75,0.35,0.0168,0.4,0,23.071,0,-4.187,0,269.99,0,0,1,-1.53,0,0,0,269.99,0.7644,-0.0002,0.6447,0,269.99,0.2,-74.12,10.262,-0.009,19.05,1,3,673.03,3.982,0,612.09,0,0,0,,0,0,0,0,0,0,0,0,0,0,0,0,0,270.01,0,0,0,0,0,0,0,0,0,0,0,0,0,3,3,0,0,VALID,0,0,0,0,0,1,0,0,0,0,0,0,0,0,0,0,0,0,0,0,516.7,1072.04,2,0,0.175,0.175,62,5.71,0.175,0.175,9.87,FLYING,X10-F,0:/Integrated Flight Computer/aircraft/x10_f_cfg.ks (inferred preloaded)
10.22,APPROACH,ILS_TRACK,148.12,152,3.88,536.4,459.6,-3.45,13.21,14.5,269.99,-0.005,0.3577,0,19.989,1,0.6,4.5,0.75,0.35,0.0168,0.4,0,22.991,0,-3.904,0,269.99,0,0,1,-1.37,0,0,0,269.99,0.7645,-0.0001,0.6447,0,269.99,0.2,-72.59,10.207,-0.007,18.183,1,3,673.03,4.493,0,609.24,0,0,0,,0,0,0,0,0,0,0,0,0,0,0,0,0,270.01,0,0,0,0,0,0,0,0,0,0,0,0,0,3,3,0,0,VALID,0,0,0,0,0,1,0,0,0,0,0,0,0,0,0,0,0,0,0,0,503.27,1073.31,2,0,0.175,0.175,64,5.71,0.175,0.175,10.22,FLYING,X10-F,0:/Integrated Flight Computer/aircraft/x10_f_cfg.ks (inferred preloaded)
10.57,APPROACH,ILS_TRACK,148.37,152,3.63,535.27,458.47,-3.02,13.2,14.35,269.99,0.004,0.3417,0,20,1,0.6,4.5,0.75,0.35,0.0168,0.4,0,22.921,0,-3.655,0,269.99,0,0,1,-1.21,0,0,0,269.99,0.7645,-0.0001,0.6446,0,269.99,0.2,-70.9,10.153,-0.009,17.296,1,3,673.03,4.966,0,606.38,0,0,0,,0,0,0,0,0,0,0,0,0,0,0,0,0,270.01,0,0,0,0,0,0,0,0,0,0,0,0,0,3,3,0,0,VALID,0,0,0,0,0,1,0,0,0,0,0,0,0,0,0,0,0,0,0,0,489.47,1074.41,2,0,0.175,0.175,66,5.71,0.175,0.175,10.57,FLYING,X10-F,0:/Integrated Flight Computer/aircraft/x10_f_cfg.ks (inferred preloaded)
10.92,APPROACH,ILS_TRACK,148.57,152,3.43,534.27,457.5,-2.64,13.11,14.09,270,0.008,0.3441,0,20,1,0.6,4.5,0.75,0.35,0.0168,0.4,0,22.863,0,-3.45,0,269.99,0,0,1,-1.05,0,0,0,270,0.7646,-0.0001,0.6445,0,269.99,0.2,-69.07,10.098,-0.007,16.471,1,3,673.03,5.312,0,603.52,0,0,0,,0,0,0,0,0,0,0,0,0,0,0,0,0,270.01,0,0,0,0,0,0,0,0,0,0,0,0,0,3,3,0,0,VALID,0,0,0,0,0,1,0,0,0,0,0,0,0,0,0,0,0,0,0,0,475.74,1075.33,2,0,0.175,0.175,68,5.71,0.175,0.175,10.92,FLYING,X10-F,0:/Integrated Flight Computer/aircraft/x10_f_cfg.ks (inferred preloaded)
11.27,APPROACH,ILS_TRACK,148.74,152,3.26,533.38,456.64,-2.3,13.03,13.87,270,0.014,0.3541,0,20,1,0.6,4.5,0.75,0.35,0.0168,0.4,0,22.814,0,-3.277,0,269.99,0,0,1,-0.91,0,0,0,269.99,0.7646,-0.0001,0.6445,0,269.99,0.2,-67.11,10.044,-0.006,15.586,1,3,673.03,5.683,0,600.66,0,0,0,,0,0,0,0,0,0,0,0,0,0,0,0,0,270.01,0,0,0,0,0,0,0,0,0,0,0,0,0,3,3,0,0,VALID,0,0,0,0,0,1,0,0,0,0,0,0,0,0,0,0,0,0,0,0,464,1076.1,2,0,0.175,0.175,70,5.71,0.175,0.175,11.27,FLYING,X10-F,0:/Integrated Flight Computer/aircraft/x10_f_cfg.ks (inferred preloaded)
11.62,APPROACH,ILS_TRACK,148.88,152,3.12,532.62,455.89,-1.98,13,13.73,270,0.015,0.3691,0,20,1,0.6,4.5,0.75,0.35,0.0168,0.4,0,22.774,0,-3.134,0,269.99,0,0,1,-0.79,0,0,0,269.99,0.7647,-0.0001,0.6444,0,269.99,0.2,-65.03,9.989,-0.007,14.675,1,3,673.03,6.041,0,597.79,0,0,0,,0,0,0,0,0,0,0,0,0,0,0,0,0,270.01,0,0,0,0,0,0,0,0,0,0,0,0,0,3,3,0,0,VALID,0,0,0,0,0,1,0,0,0,0,0,0,0,0,0,0,0,0,0,0,454.93,1076.74,2,0,0.175,0.175,72,5.71,0.175,0.175,11.62,FLYING,X10-F,0:/Integrated Flight Computer/aircraft/x10_f_cfg.ks (inferred preloaded)
11.97,APPROACH,ILS_TRACK,148.99,152,3.01,531.94,455.24,-1.7,12.91,13.54,270,0.015,0.3856,0,20,1,0.6,4.5,0.75,0.35,0.0168,0.4,0,22.741,0,-3.017,0,269.99,0,0,1,-0.69,0,0,0,270,0.7647,-0.0001,0.6443,0,269.99,0.19,-62.85,9.934,-0.006,13.822,1,3,673.03,6.293,0,594.93,0,0,0,,0,0,0,0,0,0,0,0,0,0,0,0,0,270.01,0,0,0,0,0,0,0,0,0,0,0,0,0,3,3,0,0,VALID,0,0,0,0,0,1,0,0,0,0,0,0,0,0,0,0,0,0,0,0,448.85,1077.28,2,0,0.175,0.175,74,5.71,0.175,0.175,11.97,FLYING,X10-F,0:/Integrated Flight Computer/aircraft/x10_f_cfg.ks (inferred preloaded)
12.32,APPROACH,ILS_TRACK,149.11,152,2.89,531.33,454.69,-1.55,12.69,13.25,270,0.019,0.3958,0,20,1,0.6,4.5,0.75,0.35,0.0168,0.4,0,22.71,0,-2.905,0,269.99,0,0,1,-0.6,0,0,0,269.99,0.7648,-0.0001,0.6443,0,269.99,0.19,-60.62,9.88,-0.006,13.024,1,3,673.03,6.452,0,592.06,0,0,0,,0,0,0,0,0,0,0,0,0,0,0,0,0,270.01,0,0,0,0,0,0,0,0,0,0,0,0,0,3,3,0,0,VALID,0,0,0,0,0,1,0,0,0,0,0,0,0,0,0,0,0,0,0,0,445.43,1077.79,2,0,0.175,0.175,76,5.71,0.175,0.175,12.32,FLYING,X10-F,0:/Integrated Flight Computer/aircraft/x10_f_cfg.ks (inferred preloaded)
12.67,APPROACH,ILS_TRACK,149.23,152,2.77,530.78,454.2,-1.35,12.51,12.98,270,0.022,0.3948,0,20,1,0.6,4.5,0.75,0.35,0.0168,0.4,0,22.675,0,-2.783,0,270,0,0,1,-0.52,0,0,0,269.99,0.7649,-0.0001,0.6442,0,270,0.19,-58.3,9.825,-0.005,12.194,1,3,673.03,6.622,0,589.19,0,0,0,,0,0,0,0,0,0,0,0,0,0,0,0,0,270.01,0,0,0,0,0,0,0,0,0,0,0,0,0,3,3,0,0,VALID,0,0,0,0,0,1,0,0,0,0,0,0,0,0,0,0,0,0,0,0,443.44,1078.34,2,0,0.175,0.175,78,5.71,0.175,0.175,12.67,FLYING,X10-F,0:/Integrated Flight Computer/aircraft/x10_f_cfg.ks (inferred preloaded)
13.02,APPROACH,ILS_TRACK,149.37,152,2.63,530.31,453.73,-1.21,12.49,12.95,270,0.021,0.3855,0,20,1,0.6,4.5,0.75,0.35,0.0168,0.4,0,22.637,0,-2.647,0,269.99,0,0,1,-0.5,0,0,0,269.99,0.7649,-0.0001,0.6441,0,269.99,0.19,-55.91,9.77,-0.008,11.232,1,3,673.03,6.926,0,586.31,0,0,0,,0,0,0,0,0,0,0,0,0,0,0,0,0,270.01,0,0,0,0,0,0,0,0,0,0,0,0,0,3,3,0,0,VALID,0,0,0,0,0,1,0,0,0,0,0,0,0,0,0,0,0,0,0,0,441.42,1078.95,2,0,0.175,0.175,80,5.71,0.175,0.175,13.02,FLYING,X10-F,0:/Integrated Flight Computer/aircraft/x10_f_cfg.ks (inferred preloaded)
13.37,APPROACH,ILS_TRACK,149.52,152,2.48,529.89,453.44,-0.6,12.14,12.31,270,0.016,0.3719,0,20,1,0.6,4.5,0.75,0.35,0.0168,0.4,0,22.596,0,-2.503,0,269.99,0,0,1,-0.26,0,0,0,269.99,0.765,-0.0001,0.644,0,269.99,0.19,-53.47,9.715,-0.007,10.451,1,3,673.03,6.989,0,583.44,0,0,0,,0,0,0,0,0,0,0,0,0,0,0,0,0,270.01,0,0,0,0,0,0,0,0,0,0,0,0,0,3,3,0,0,VALID,0,0,0,0,0,1,0,0,0,0,0,0,0,0,0,0,0,0,0,0,438.53,1079.59,2,0,0.175,0.175,82,5.71,0.175,0.175,13.37,FLYING,X10-F,0:/Integrated Flight Computer/aircraft/x10_f_cfg.ks (inferred preloaded)
13.72,APPROACH,ILS_TRACK,149.73,152,2.27,529.51,453.36,-0.11,11.29,11.21,270,0.021,0.3321,0,20,1,0.6,4.5,0.75,0.35,0.0168,0.4,0,22.538,0,-2.295,0,269.99,0,0,1,-0.05,0,0,0,269.99,0.765,-0.0001,0.644,0,269.99,0.19,-50.97,9.66,-0.007,9.608,1,3,673.03,7.104,0,580.56,0,0,0,,0,0,0,0,0,0,0,0,0,0,0,0,0,270.01,0,0,0,0,0,0,0,0,0,0,0,0,0,3,3,0,0,VALID,0,0,0,0,0,1,0,0,0,0,0,0,0,0,0,0,0,0,0,0,433.69,1080.48,2,0,0.175,0.175,84,5.71,0.175,0.175,13.72,FLYING,X10-F,0:/Integrated Flight Computer/aircraft/x10_f_cfg.ks (inferred preloaded)
14.07,APPROACH,ILS_TRACK,150.05,152,1.95,529.2,453.34,-0.09,10.27,10.2,270,0.027,0.2588,0,20,1,0.6,4.5,0.75,0.35,0.0168,0.4,0,22.452,0,-1.99,0,269.99,0,0,1,-0.02,0,0,0,269.99,0.7651,-0.0001,0.6439,0,269.99,0.19,-48.41,9.605,-0.008,8.624,1,3,673.03,7.374,0,577.67,0,0,0,,0,0,0,0,0,0,0,0,0,0,0,0,0,270.01,0,0,0,0,0,0,0,0,0,0,0,0,0,3,3,0,0,VALID,0,0,0,0,0,1,0,0,0,0,0,0,0,0,0,0,0,0,0,0,424.24,1081.8,2,0,0.175,0.175,86,5.71,0.175,0.175,14.07,FLYING,X10-F,0:/Integrated Flight Computer/aircraft/x10_f_cfg.ks (inferred preloaded)
14.42,APPROACH,ILS_TRACK,150.44,152,1.56,529.03,453.26,-0.32,9.81,9.92,270,0.032,0.1683,0,20,1,0.6,4.5,0.75,0.35,0.0168,0.4,0,22.342,0,-1.599,0,269.99,0,0,1,-0.13,0,0,0,269.99,0.7652,-0.0002,0.6438,0,269.99,0.19,-45.73,9.55,-0.01,7.461,1,3,673.03,7.821,0,574.78,0,0,0,,0,0,0,0,0,0,0,0,0,0,0,0,0,270.01,0,0,0,0,0,0,0,0,0,0,0,0,0,3,3,0,0,VALID,0,0,0,0,0,1,0,0,0,0,0,0,0,0,0,0,0,0,0,0,406.2,1083.45,2,0,0.175,0.175,88,5.71,0.175,0.175,14.42,FLYING,X10-F,0:/Integrated Flight Computer/aircraft/x10_f_cfg.ks (inferred preloaded)
14.77,APPROACH,ILS_TRACK,150.8,152,1.2,528.93,453.11,-0.46,9.9,10.1,270,0.029,0.1137,0,20,1,0.6,4.5,0.75,0.35,0.0168,0.4,0,22.239,0,-1.237,0,269.99,0,0,1,-0.19,0,0,0,269.99,0.7652,-0.0001,0.6438,0,269.99,0.19,-42.94,9.495,-0.007,6.447,1,3,673.03,8.043,0,571.88,0,0,0,,0,0,0,0,0,0,0,0,0,0,0,0,0,270.01,0,0,0,0,0,0,0,0,0,0,0,0,0,3,3,0,0,VALID,0,0,0,0,0,1,0,0,0,0,0,0,0,0,0,0,0,0,0,0,379.57,1084.96,2,0,0.175,0.175,90,5.71,0.175,0.175,14.77,FLYING,X10-F,0:/Integrated Flight Computer/aircraft/x10_f_cfg.ks (inferred preloaded)
15.12,APPROACH,ILS_TRACK,151.05,152,0.95,528.84,452.95,-0.43,10.14,10.31,270,0.025,0.1132,0,20,1,0.6,4.5,0.75,0.35,0.0168,0.4,0,22.165,0,-0.974,0,269.99,0,0,1,-0.16,0,0,0,269.99,0.7653,-0.0001,0.6437,0,269.99,0.19,-40.12,9.439,-0.008,5.594,1,3,673.03,8.052,0,568.98,0,0,0,,0,0,0,0,0,0,0,0,0,0,0,0,0,270.01,0,0,0,0,0,0,0,0,0,0,0,0,0,3,3,0,0,VALID,0,0,0,0,0,1,0,0,0,0,0,0,0,0,0,0,0,0,0,0,350.09,1086.02,2,0,0.175,0.175,92,5.71,0.175,0.175,15.12,FLYING,X10-F,0:/Integrated Flight Computer/aircraft/x10_f_cfg.ks (inferred preloaded)
15.47,APPROACH,ILS_TRACK,151.17,152,0.83,528.74,452.82,-0.37,10.24,10.4,270,0.023,0.1604,0,20,1,0.6,4.5,0.75,0.35,0.0168,0.4,0,22.127,0,-0.837,0,269.99,0,0,1,-0.14,0,0,0,269.99,0.7653,-0.0001,0.6436,0,269.99,0.19,-37.32,9.384,-0.008,4.81,1,3,673.03,7.982,0,566.07,0,0,0,,0,0,0,0,0,0,0,0,0,0,0,0,0,270.01,0,0,0,0,0,0,0,0,0,0,0,0,0,3,3,0,0,VALID,0,0,0,0,0,1,0,0,0,0,0,0,0,0,0,0,0,0,0,0,324.8,1086.56,2,0,0.175,0.175,94,5.71,0.175,0.175,15.47,FLYING,X10-F,0:/Integrated Flight Computer/aircraft/x10_f_cfg.ks (inferred preloaded)
15.82,APPROACH,ILS_TRACK,151.19,152,0.81,528.63,452.71,-0.31,10.26,10.39,270,0.022,0.2333,0,20,1,0.6,4.5,0.75,0.35,0.0168,0.4,0,22.119,0,-0.809,0,269.99,0,0,1,-0.13,0,0,0,269.99,0.7654,-0.0002,0.6436,0,269.99,0.19,-34.52,9.328,-0.01,3.964,1,3,673.03,7.989,0,563.16,0,0,0,,0,0,0,0,0,0,0,0,0,0,0,0,0,270.01,0,0,0,0,0,0,0,0,0,0,0,0,0,3,3,0,0,VALID,0,0,0,0,0,1,0,0,0,0,0,0,0,0,0,0,0,0,0,0,308.88,1086.65,2,0,0.175,0.175,96,5.71,0.175,0.175,15.82,FLYING,X10-F,0:/Integrated Flight Computer/aircraft/x10_f_cfg.ks (inferred preloaded)
16.17,APPROACH,ILS_TRACK,151.15,152,0.85,528.52,452.61,-0.29,10.26,10.35,270,0.019,0.3051,0,20,1,0.6,4.5,0.75,0.35,0.0168,0.4,0,22.128,0,-0.841,0,269.99,0,0,1,-0.1,0,0,0,269.99,0.7655,-0.0002,0.6435,0,269.99,0.2,-31.72,9.273,-0.01,3.118,1,3,673.03,7.996,0,560.26,0,0,0,,0,0,0,0,0,0,0,0,0,0,0,0,0,270.01,0,0,0,0,0,0,0,0,0,0,0,0,0,3,3,0,0,VALID,0,0,0,0,0,1,0,0,0,0,0,0,0,0,0,0,0,0,0,0,303.92,1086.51,2,0,0.175,0.175,98,5.71,0.175,0.175,16.17,FLYING,X10-F,0:/Integrated Flight Computer/aircraft/x10_f_cfg.ks (inferred preloaded)
16.52,APPROACH,ILS_TRACK,151.09,152,0.91,528.4,452.53,-0.13,10.21,10.2,270,0.018,0.3637,0,20,1,0.6,4.5,0.75,0.35,0.0168,0.4,0,22.145,0,-0.902,0,269.99,-0.675,0,1,-0.05,0,0,-0.36,269.99,0.773,-0.0002,0.6343,-0.68,269.99,0.2,-28.92,9.217,-0.011,2.325,1,3,673.03,7.937,-0.675,557.35,0,0,0,,0,0,0,0,0,0,0,0,0,0,0,0,0,270.01,0,0,0,0,0,0,0,0,0,0,0,0,0,3,3,0,0,VALID,0,0,0,0,0,1,0,0,0,0,0,0,0,0,0,0,0,0,0,0,306.34,1086.25,2,0,0.175,0.175,100,5.71,0.175,0.175,16.52,FLYING,X10-F,0:/Integrated Flight Computer/aircraft/x10_f_cfg.ks (inferred preloaded)
16.87,APPROACH,ILS_TRACK,151.05,152,0.95,528.11,452.53,-0.14,9.37,9.31,270,0.004,0.3988,0,20,1,0.6,4.5,0.75,0.35,0.0168,0.4,0,22.16,0,-0.955,0,269.99,-1.056,0,1,-0.02,0,0,-0.87,269.99,0.7773,-0.0002,0.6291,-1.06,269.99,0.2,-26.27,9.162,-0.011,1.944,1,3,673.03,7.422,-1.056,554.45,0,0,0,,0,0,0,0,0,0,0,0,0,0,0,0,0,270.01,0,0,0,0,0,0,0,0,0,0,0,0,0,3,3,0,0,VALID,0,0,0,0,0,1,0,0,0,0,0,0,0,0,0,0,0,0,0,0,312.81,1086.04,2,0,0.175,0.175,102,5.71,0.175,0.175,16.87,FLYING,X10-F,0:/Integrated Flight Computer/aircraft/x10_f_cfg.ks (inferred preloaded)
17.22,APPROACH,ILS_TRACK,151.12,152,0.88,527.78,452.43,-0.41,8.6,8.65,270,-0.011,0.3707,0,20,1,0.6,4.5,0.75,0.35,0.0168,0.4,0,22.142,0,-0.89,0,269.99,-1.822,0,1,-0.14,0,0,-1.43,269.99,0.7857,-0.0002,0.6186,-1.82,269.99,0.21,-23.68,9.106,-0.01,1.178,1,3,673.03,7.407,-1.822,551.54,0,0,0,,0,0,0,0,0,0,0,0,0,0,0,0,0,270.01,0,0,0,0,0,0,0,0,0,0,0,0,0,3,3,0,0,VALID,0,0,0,0,0,1,0,0,0,0,0,0,0,0,0,0,0,0,0,0,320.76,1086.37,2,0,0.175,0.175,104,5.71,0.175,0.175,17.22,FLYING,X10-F,0:/Integrated Flight Computer/aircraft/x10_f_cfg.ks (inferred preloaded)
17.57,APPROACH,ILS_TRACK,151.3,152,0.7,527.3,452.24,-0.91,7.65,7.88,270,-0.021,0.3077,0,20,1,0.6,4.5,0.75,0.35,0.0168,0.4,0,22.095,0,-0.723,0,269.99,-2.155,0,1,-0.29,0,0,-1.95,269.99,0.7893,-0.0002,0.614,-2.16,269.99,0.21,-21.23,9.051,-0.009,0.845,1,3,673.03,6.905,-2.155,548.63,0,0,0,,0,0,0,0,0,0,0,0,0,0,0,0,0,270.01,0,0,0,0,0,0,0,0,0,0,0,0,0,3,3,0,0,VALID,0,0,0,0,0,1,0,0,0,0,0,0,0,0,0,0,0,0,0,0,325.86,1087.12,2,0,0.175,0.175,106,5.71,0.175,0.175,17.57,FLYING,X10-F,0:/Integrated Flight Computer/aircraft/x10_f_cfg.ks (inferred preloaded)
17.92,APPROACH,ILS_TRACK,151.57,152,0.43,526.71,451.84,-1.41,7.01,7.42,270,-0.028,0.2221,0,20,1,0.6,4.5,0.75,0.35,0.0168,0.4,0,22.02,0,-0.459,0,269.99,-2.622,0,1,-0.48,0,0,-2.46,269.99,0.7944,-0.0002,0.6074,-2.62,269.99,0.21,-18.88,8.995,-0.009,0.378,1,3,673.03,6.606,-2.622,545.72,0,0,0,,0,0,0,0,0,0,0,0,0,0,0,0,0,270.01,0,0,0,0,0,0,0,0,0,0,0,0,0,3,3,0,0,VALID,0,0,0,0,0,1,0,0,0,0,0,0,0,0,0,0,0,0,0,0,325.01,1088.28,2,0,0.175,0.175,108,5.71,0.175,0.175,17.92,FLYING,X10-F,0:/Integrated Flight Computer/aircraft/x10_f_cfg.ks (inferred preloaded)
18.27,APPROACH,ILS_TRACK,151.88,152,0.12,525.99,451.2,-2.16,6.62,7.36,270,-0.03,0.1401,0,20,1,0.6,4.5,0.75,0.35,0.0168,0.4,0,21.932,0,-0.146,0,269.99,-3.034,0,1,-0.76,0,0,-2.77,269.99,0.7988,-0.0002,0.6016,-3.03,269.99,0.21,-16.66,8.94,-0.009,-0.034,1,3,673.03,6.29,-3.034,542.8,0,0,0,,0,0,0,0,0,0,0,0,0,0,0,0,0,270.01,0,0,0,0,0,0,0,0,0,0,0,0,0,3,3,0,0,VALID,0,0,0,0,0,1,0,0,0,0,0,0,0,0,0,0,0,0,0,0,313.98,1089.65,2,0,0.175,0.175,110,5.71,0.175,0.175,18.27,FLYING,X10-F,0:/Integrated Flight Computer/aircraft/x10_f_cfg.ks (inferred preloaded)
18.62,APPROACH,ILS_TRACK,152.18,152,-0.18,525.03,450.39,-2.61,6.28,7.12,270,-0.031,0.0871,0,19.973,1,0.6,4.5,0.75,0.35,0.0168,0.4,0,21.849,0,0.149,0,269.99,-3.036,0,1,-0.92,0,0,-3.16,269.99,0.7989,-0.0002,0.6015,-3.04,269.99,0.21,-14.63,8.884,-0.008,-0.036,1,3,673.03,5.533,-3.036,539.88,0,0,0,,0,0,0,0,0,0,0,0,0,0,0,0,0,270.01,0,0,0,0,0,0,0,0,0,0,0,0,0,3,3,0,0,VALID,0,0,0,0,0,1,0,0,0,0,0,0,0,0,0,0,0,0,0,0,294.47,1090.94,2,0,0.175,0.175,112,5.71,0.175,0.175,18.62,FLYING,X10-F,0:/Integrated Flight Computer/aircraft/x10_f_cfg.ks (inferred preloaded)
18.97,APPROACH,ILS_TRACK,152.42,152,-0.42,523.94,449.3,-3.53,6.06,7.33,270,-0.024,0.0626,0,19.853,1,0.6,4.5,0.75,0.35,0.0168,0.4,0,21.778,0,0.402,0,269.99,-3.357,0,1,-1.26,0,0,-3.1,269.99,0.8023,-0.0002,0.597,-3.36,269.99,0.21,-12.79,8.828,-0.007,-0.357,1,3,673.03,5.243,-3.357,536.95,0,0,0,,0,0,0,0,0,0,0,0,0,0,0,0,0,270.01,0,0,0,0,0,0,0,0,0,0,0,0,0,3,3,0,0,VALID,0,0,0,0,0,1,0,0,0,0,0,0,0,0,0,0,0,0,0,0,271.04,1092.06,2,0,0.175,0.175,114,5.71,0.175,0.175,18.97,FLYING,X10-F,0:/Integrated Flight Computer/aircraft/x10_f_cfg.ks (inferred preloaded)
19.32,APPROACH,ILS_TRACK,152.56,152,-0.56,522.68,448.02,-3.8,6.27,7.58,269.99,-0.025,0.083,0,19.671,1,0.6,4.5,0.75,0.35,0.0168,0.4,0,21.735,0,0.553,0,269.99,-3.412,0,1,-1.4,0,0,-3.58,269.99,0.8029,-0.0002,0.5961,-3.41,269.99,0.22,-11.07,8.772,-0.009,-0.412,1,3,673.03,4.668,-3.412,534.03,0,0,0,,0,0,0,0,0,0,0,0,0,0,0,0,0,270.01,0,0,0,0,0,0,0,0,0,0,0,0,0,3,3,0,0,VALID,0,0,0,0,0,1,0,0,0,0,0,0,0,0,0,0,0,0,0,0,248.31,1092.76,2,0,0.173,0.173,116,5.77,0.175,0.173,19.32,FLYING,X10-F,0:/Integrated Flight Computer/aircraft/x10_f_cfg.ks (inferred preloaded)
19.63,APPROACH,ILS_TRACK,152.64,152,-0.64,521.36,446.74,-4.45,6.06,7.64,269.99,-0.02,0.1192,0,19.474,1,0.6,4.5,0.75,0.35,0.0168,0.4,0,21.713,0,0.631,0,269.99,-3.378,0,1,-1.62,0,0,-3.27,269.99,0.8026,-0.0002,0.5965,-3.38,269.99,0.21,-9.73,8.721,-0.009,-0.378,1,3,673.03,4.122,-3.378,531.34,0,0,0,,0,0,0,0,0,0,0,0,0,0,0,0,0,270.01,0,0,0,0,0,0,0,0,0,0,0,0,0,3,3,0,0,VALID,0,0,0,0,0,1,0,0,0,0,0,0,0,0,0,0,0,0,0,0,232.66,1093.17,2,0,0.152,0.152,118,6.42,0.173,0.152,19.63,FLYING,X10-F,0:/Integrated Flight Computer/aircraft/x10_f_cfg.ks (inferred preloaded)
19.99,APPROACH,ILS_TRACK,152.64,152,-0.64,519.68,445.08,-4.73,6.09,7.75,269.99,-0.019,0.1944,0,19.234,1,0.6,4.5,0.75,0.35,0.0168,0.4,0,21.711,0,0.638,0,269.99,-3.299,0,1,-1.75,0,0,-3.49,269.99,0.8018,-0.0001,0.5976,-3.3,269.99,0.21,-8.3,8.661,-0.006,-0.299,1,3,673.03,3.486,-3.299,528.22,0,0,0,,0,0,0,0,0,0,0,0,0,0,0,0,0,270.01,0,0,0,0,0,0,0,0,0,0,0,0,0,3,3,0,0,VALID,0,0,0,0,0,1,0,0,0,0,0,0,0,0,0,0,0,0,0,0,223.04,1093.31,2,0,0.119,0.119,121,8.31,0.152,0.119,19.99,FLYING,X10-F,0:/Integrated Flight Computer/aircraft/x10_f_cfg.ks (inferred preloaded)
20.33,APPROACH,ILS_TRACK,152.63,152,-0.63,517.97,443.38,-5.41,5.95,7.9,269.99,-0.018,0.2376,0,19.021,1,0.6,4.5,0.75,0.35,0.0168,0.4,0,21.714,0,0.627,0,270,-3.461,0,1,-1.99,0,0,-3.32,269.99,0.8036,-0.0001,0.5952,-3.46,270,0.21,-7.19,8.607,-0.005,-0.461,1,3,673.03,3.275,-3.461,525.38,0,0,0,,0,0,0,0,0,0,0,0,0,0,0,0,0,270.01,0,0,0,0,0,0,0,0,0,0,0,0,0,3,3,0,0,VALID,0,0,0,0,0,1,0,0,0,0,0,0,0,0,0,0,0,0,0,0,223.04,1093.4,2,0,0.11,0.11,124,8.96,0.119,0.11,20.33,FLYING,X10-F,0:/Integrated Flight Computer/aircraft/x10_f_cfg.ks (inferred preloaded)
20.64,APPROACH,ILS_TRACK,152.59,152,-0.59,516.3,441.67,-5.51,6.16,8.11,269.99,-0.018,0.2759,0,18.83,1,0.6,4.5,0.75,0.35,0.0168,0.4,0,21.724,0,0.592,0,269.99,-3.351,0,1,-2.06,0,0,-3.56,270,0.8025,-0.0002,0.5967,-3.35,269.99,0.21,-6.23,8.557,-0.009,-0.351,1,3,673.03,2.774,-3.351,522.76,0,0,0,,0,0,0,0,0,0,0,0,0,0,0,0,0,270.01,0,0,0,0,0,0,0,0,0,0,0,0,0,3,3,0,0,VALID,0,0,0,0,0,1,0,0,0,0,0,0,0,0,0,0,0,0,0,0,225.92,1093.38,2,0,0.102,0.102,127,9.65,0.11,0.102,20.64,FLYING,X10-F,0:/Integrated Flight Computer/aircraft/x10_f_cfg.ks (inferred preloaded)
21,APPROACH,ILS_TRACK,152.58,152,-0.58,514.13,439.59,-6.09,5.81,7.98,269.99,-0.018,0.2753,0,18.623,1,0.6,4.5,0.75,0.35,0.0168,0.4,0,21.727,0,0.58,0,269.99,-3.243,0,1,-2.26,0,0,-3.16,270,0.8014,-0.0002,0.5981,-3.24,269.99,0.21,-5.38,8.5,-0.007,-0.243,1,3,673.03,2.319,-3.243,519.74,0,0,0,,0,0,0,0,0,0,0,0,0,0,0,0,0,270.01,0,0,0,0,0,0,0,0,0,0,0,0,0,3,3,0,0,VALID,0,0,0,0,0,1,0,0,0,0,0,0,0,0,0,0,0,0,0,0,231.61,1093.51,2,0,0.12,0.12,130,8.33,0.12,0.102,21,FLYING,X10-F,0:/Integrated Flight Computer/aircraft/x10_f_cfg.ks (inferred preloaded)
21.36,APPROACH,ILS_TRACK,152.58,152,-0.58,511.96,437.29,-6.42,6.22,8.53,269.99,-0.016,0.2685,0,18.413,1,0.6,4.5,0.75,0.35,0.0168,0.4,0,21.726,0,0.585,0,269.99,-3.463,0,1,-2.41,0,0,-3.53,269.99,0.8037,-0.0002,0.595,-3.46,269.99,0.21,-4.52,8.442,-0.008,-0.463,1,3,673.03,2.273,-3.463,516.73,0,0,0,,0,0,0,0,0,0,0,0,0,0,0,0,0,270.01,0,0,0,0,0,0,0,0,0,0,0,0,0,3,3,0,0,VALID,0,0,0,0,0,1,0,0,0,0,0,0,0,0,0,0,0,0,0,0,236.28,1093.72,2,0,0.12,0.12,133,8.33,0.12,0.12,21.36,FLYING,X10-F,0:/Integrated Flight Computer/aircraft/x10_f_cfg.ks (inferred preloaded)
21.72,APPROACH,ILS_TRACK,152.59,152,-0.59,509.61,434.92,-6.81,6.25,8.7,270,-0.012,0.2602,0,18.202,1,0.6,4.5,0.75,0.35,0.0168,0.4,0,21.724,0,0.591,0,269.99,-3.29,0,1,-2.53,0,0,-3.21,269.99,0.802,-0.0002,0.5973,-3.29,269.99,0.21,-3.85,8.385,-0.008,-0.29,1,3,673.03,1.808,-3.29,513.72,0,0,0,,0,0,0,0,0,0,0,0,0,0,0,0,0,270.01,0,0,0,0,0,0,0,0,0,0,0,0,0,3,3,0,0,VALID,0,0,0,0,0,1,0,0,0,0,0,0,0,0,0,0,0,0,0,0,240.33,1093.94,2,0,0.12,0.12,136,8.33,0.12,0.12,21.72,FLYING,X10-F,0:/Integrated Flight Computer/aircraft/x10_f_cfg.ks (inferred preloaded)
22.08,APPROACH,ILS_TRACK,152.58,152,-0.58,507.15,432.47,-6.83,6.34,8.76,270,-0.011,0.2641,0,17.989,1,0.6,4.5,0.75,0.35,0.0168,0.4,0,21.726,0,0.584,0,269.99,-3.075,0,1,-2.55,0,0,-3.3,269.99,0.7998,-0.0002,0.6002,-3.08,269.99,0.21,-3.27,8.327,-0.007,-0.075,1,3,673.03,1.321,-3.075,510.71,0,0,0,,0,0,0,0,0,0,0,0,0,0,0,0,0,270.01,0,0,0,0,0,0,0,0,0,0,0,0,0,3,3,0,0,VALID,0,0,0,0,0,1,0,0,0,0,0,0,0,0,0,0,0,0,0,0,243.35,1094.1,2,0,0.12,0.12,139,8.33,0.12,0.12,22.08,FLYING,X10-F,0:/Integrated Flight Computer/aircraft/x10_f_cfg.ks (inferred preloaded)
22.44,APPROACH,ILS_TRACK,152.61,152,-0.61,504.59,429.92,-7.34,6.21,8.85,270,-0.007,0.2441,0,17.774,1,0.6,4.5,0.75,0.35,0.0168,0.4,0,21.719,0,0.609,0,269.99,-3.2,0,1,-2.73,0,0,-3.06,269.99,0.8012,-0.0002,0.5984,-3.2,269.99,0.2,-2.83,8.27,-0.008,-0.2,1,3,673.03,1.311,-3.2,507.7,0,0,0,,0,0,0,0,0,0,0,0,0,0,0,0,0,270.01,0,0,0,0,0,0,0,0,0,0,0,0,0,3,3,0,0,VALID,0,0,0,0,0,1,0,0,0,0,0,0,0,0,0,0,0,0,0,0,246.23,1094.42,2,0,0.12,0.12,142,8.33,0.12,0.12,22.44,FLYING,X10-F,0:/Integrated Flight Computer/aircraft/x10_f_cfg.ks (inferred preloaded)
22.8,APPROACH,ILS_TRACK,152.61,152,-0.61,502,427.28,-7.31,6.44,9.04,270,-0.006,0.246,0,17.553,1,0.6,4.5,0.75,0.35,0.0168,0.4,0,21.718,0,0.612,0,269.99,-3.045,0,1,-2.74,0,0,-3.25,269.99,0.7996,-0.0002,0.6005,-3.05,269.99,0.2,-2.39,8.213,-0.008,-0.045,1,3,673.03,0.954,-3.045,504.69,0,0,0,,0,0,0,0,0,0,0,0,0,0,0,0,0,270.01,0,0,0,0,0,0,0,0,0,0,0,0,0,3,3,0,0,VALID,0,0,0,0,0,1,0,0,0,0,0,0,0,0,0,0,0,0,0,0,247.63,1094.64,2,0,0.12,0.12,145,8.33,0.12,0.12,22.8,FLYING,X10-F,0:/Integrated Flight Computer/aircraft/x10_f_cfg.ks (inferred preloaded)
23.06,APPROACH,ILS_TRACK,152.63,152,-0.63,500.06,425.34,-7.61,6.37,9.1,270,-0.004,0.2358,0,17.391,1,0.6,4.5,0.75,0.35,0.0168,0.4,0,21.714,0,0.628,0,269.99,-3.073,0,1,-2.83,0,0,-2.99,269.99,0.8,-0.0002,0.6001,-3.07,269.99,0.2,-2.17,8.171,-0.009,-0.073,1,3,673.03,0.904,-3.073,502.52,0,0,0,,0,0,0,0,0,0,0,0,0,0,0,0,0,270.01,0,0,0,0,0,0,0,0,0,0,0,0,0,3,3,0,0,VALID,0,0,0,0,0,1,0,0,0,0,0,0,0,0,0,0,0,0,0,0,248.71,1094.87,2,0,0.12,0.12,147,7.69,0.14,0.12,23.06,FLYING,X10-F,0:/Integrated Flight Computer/aircraft/x10_f_cfg.ks (inferred preloaded)
23.42,APPROACH,ILS_TRACK,152.62,152,-0.62,497.43,422.55,-7.58,6.89,9.63,270,-0.003,0.2436,0,17.165,1,0.6,4.5,0.75,0.35,0.0168,0.4,0,21.716,0,0.621,0,269.99,-3.264,0,1,-2.87,0,0,-3.37,270,0.802,-0.0002,0.5973,-3.26,269.99,0.2,-1.78,8.114,-0.008,-0.264,1,3,673.03,0.998,-3.264,499.51,0,0,0,,0,0,0,0,0,0,0,0,0,0,0,0,0,270.01,0,0,0,0,0,0,0,0,0,0,0,0,0,3,3,0,0,VALID,0,0,0,0,0,1,0,0,0,0,0,0,0,0,0,0,0,0,0,0,249.36,1095.05,2,0,0.12,0.12,150,8.33,0.12,0.12,23.42,FLYING,X10-F,0:/Integrated Flight Computer/aircraft/x10_f_cfg.ks (inferred preloaded)
23.78,APPROACH,ILS_TRACK,152.57,152,-0.57,494.58,419.85,-7.67,6.48,9.21,270,-0.001,0.2669,0,16.959,1,0.6,4.5,0.75,0.35,0.0168,0.4,0,21.731,0,0.566,0,269.99,-2.835,0,1,-2.86,0,0,-2.83,269.99,0.7976,-0.0001,0.6032,-2.84,269.99,0.2,-1.61,8.056,-0.005,0.165,1,3,673.03,0.397,-2.835,496.5,0,0,0,,0,0,0,0,0,0,0,0,0,0,0,0,0,270.01,0,0,0,0,0,0,0,0,0,0,0,0,0,3,3,0,0,VALID,0,0,0,0,0,1,0,0,0,0,0,0,0,0,0,0,0,0,0,0,251.75,1095.05,2,0,0.12,0.12,153,8.33,0.12,0.12,23.78,FLYING,X10-F,0:/Integrated Flight Computer/aircraft/x10_f_cfg.ks (inferred preloaded)
24.14,APPROACH,ILS_TRACK,152.58,152,-0.58,491.83,416.99,-8.02,6.7,9.63,270,0.003,0.2447,0,16.75,1,0.6,4.5,0.75,0.35,0.0168,0.4,0,21.727,0,0.583,0,269.99,-3.277,0,1,-3.02,0,0,-3.09,269.99,0.8023,-0.0002,0.597,-3.28,269.99,0.2,-1.37,7.999,-0.009,-0.277,1,3,673.03,0.859,-3.277,493.5,0,0,0,,0,0,0,0,0,0,0,0,0,0,0,0,0,270.01,0,0,0,0,0,0,0,0,0,0,0,0,0,3,3,0,0,VALID,0,0,0,0,0,1,0,0,0,0,0,0,0,0,0,0,0,0,0,0,253.95,1095.35,2,0,0.12,0.12,156,8.33,0.12,0.12,24.14,FLYING,X10-F,0:/Integrated Flight Computer/aircraft/x10_f_cfg.ks (inferred preloaded)
24.5,APPROACH,ILS_TRACK,152.54,152,-0.54,488.98,414.17,-7.8,6.75,9.52,270,0.003,0.2665,0,16.549,1,0.6,4.5,0.75,0.35,0.0168,0.4,0,21.74,0,0.536,0,270,-2.848,0,1,-2.92,0,0,-3.02,269.99,0.7978,-0.0001,0.6029,-2.85,270,0.19,-1.18,7.942,-0.004,0.152,1,3,673.03,0.254,-2.848,490.49,0,0,0,,0,0,0,0,0,0,0,0,0,0,0,0,0,270.01,0,0,0,0,0,0,0,0,0,0,0,0,0,3,3,0,0,VALID,0,0,0,0,0,1,0,0,0,0,0,0,0,0,0,0,0,0,0,0,255.25,1095.38,2,0,0.12,0.12,159,8.33,0.12,0.12,24.5,FLYING,X10-F,0:/Integrated Flight Computer/aircraft/x10_f_cfg.ks (inferred preloaded)
24.86,APPROACH,ILS_TRACK,152.55,152,-0.55,486.13,411.3,-8.16,6.71,9.67,270,0.008,0.2402,0,16.352,1,0.6,4.5,0.75,0.35,0.0168,0.4,0,21.735,0,0.554,0,270,-3.115,0,1,-3.05,0,0,-2.95,269.99,0.8007,-0.0001,0.5991,-3.12,270,0.19,-1.05,7.884,-0.005,-0.115,1,3,673.03,0.536,-3.115,487.49,0,0,0,,0,0,0,0,0,0,0,0,0,0,0,0,0,270.01,0,0,0,0,0,0,0,0,0,0,0,0,0,3,3,0,0,VALID,0,0,0,0,0,1,0,0,0,0,0,0,0,0,0,0,0,0,0,0,257.21,1095.69,2,0,0.12,0.12,162,8.33,0.12,0.12,24.86,FLYING,X10-F,0:/Integrated Flight Computer/aircraft/x10_f_cfg.ks (inferred preloaded)
25.22,APPROACH,ILS_TRACK,152.52,152,-0.52,483.27,408.41,-7.89,6.9,9.71,270,0.009,0.256,0,16.158,1,0.6,4.5,0.75,0.35,0.0168,0.4,0,21.744,0,0.52,0,269.99,-2.892,0,1,-2.96,0,0,-3.13,270,0.7984,-0.0002,0.6021,-2.89,269.99,0.19,-0.88,7.827,-0.01,0.108,1,3,673.03,0.196,-2.892,484.48,0,0,0,,0,0,0,0,0,0,0,0,0,0,0,0,0,270.01,0,0,0,0,0,0,0,0,0,0,0,0,0,3,3,0,0,VALID,0,0,0,0,0,1,0,0,0,0,0,0,0,0,0,0,0,0,0,0,257.67,1095.77,2,0,0.12,0.12,165,8.33,0.12,0.12,25.22,FLYING,X10-F,0:/Integrated Flight Computer/aircraft/x10_f_cfg.ks (inferred preloaded)
25.48,APPROACH,ILS_TRACK,152.52,152,-0.52,481.15,406.34,-8.09,6.69,9.59,270,0.012,0.2436,0,16.023,1,0.6,4.5,0.75,0.35,0.0168,0.4,0,21.744,0,0.522,0,269.99,-2.917,0,1,-3.02,0,0,-2.83,270,0.7987,-0.0001,0.6017,-2.92,269.99,0.19,-0.84,7.786,-0.006,0.083,1,3,673.03,0.211,-2.917,482.31,0,0,0,,0,0,0,0,0,0,0,0,0,0,0,0,0,270.01,0,0,0,0,0,0,0,0,0,0,0,0,0,3,3,0,0,VALID,0,0,0,0,0,1,0,0,0,0,0,0,0,0,0,0,0,0,0,0,258.79,1095.96,2,0,0.12,0.12,167,7.69,0.14,0.12,25.48,FLYING,X10-F,0:/Integrated Flight Computer/aircraft/x10_f_cfg.ks (inferred preloaded)
25.84,APPROACH,ILS_TRACK,152.52,152,-0.52,478.3,403.4,-8,6.99,9.87,270,0.012,0.2358,0,15.833,1,0.6,4.5,0.75,0.35,0.0168,0.4,0,21.743,0,0.524,0,269.99,-3.1,0,1,-3.02,0,0,-3.21,269.99,0.8007,-0.0002,0.5991,-3.1,269.99,0.19,-0.68,7.728,-0.008,-0.1,1,3,673.03,0.382,-3.1,479.31,0,0,0,,0,0,0,0,0,0,0,0,0,0,0,0,0,270.01,0,0,0,0,0,0,0,0,0,0,0,0,0,3,3,0,0,VALID,0,0,0,0,0,1,0,0,0,0,0,0,0,0,0,0,0,0,0,0,258.95,1096.19,2,0,0.12,0.12,170,8.33,0.12,0.12,25.84,FLYING,X10-F,0:/Integrated Flight Computer/aircraft/x10_f_cfg.ks (inferred preloaded)
26.2,APPROACH,ILS_TRACK,152.51,152,-0.51,475.35,400.51,-8.16,6.76,9.7,270,0.012,0.2333,0,15.65,1,0.6,4.5,0.75,0.35,0.0168,0.4,0,21.747,0,0.512,0,269.99,-2.957,0,1,-3.05,0,0,-2.87,269.99,0.7992,-0.0001,0.601,-2.96,269.99,0.19,-0.64,7.671,-0.006,0.043,1,3,673.03,0.185,-2.957,476.31,0,0,0,,0,0,0,0,0,0,0,0,0,0,0,0,0,270.01,0,0,0,0,0,0,0,0,0,0,0,0,0,3,3,0,0,VALID,0,0,0,0,0,1,0,0,0,0,0,0,0,0,0,0,0,0,0,0,259.32,1096.39,2,0,0.12,0.12,173,8.33,0.12,0.12,26.2,FLYING,X10-F,0:/Integrated Flight Computer/aircraft/x10_f_cfg.ks (inferred preloaded)
26.56,APPROACH,ILS_TRACK,152.5,152,-0.5,472.46,397.57,-8.04,6.97,9.84,270,0.011,0.2315,0,15.466,1,0.6,4.5,0.75,0.35,0.0168,0.4,0,21.748,0,0.507,0,269.99,-3.013,0,1,-3.02,0,0,-3.17,269.99,0.7999,-0.0001,0.6002,-3.01,269.99,0.19,-0.52,7.614,-0.006,-0.013,1,3,673.03,0.21,-3.013,473.31,0,0,0,,0,0,0,0,0,0,0,0,0,0,0,0,0,270.01,0,0,0,0,0,0,0,0,0,0,0,0,0,3,3,0,0,VALID,0,0,0,0,0,1,0,0,0,0,0,0,0,0,0,0,0,0,0,0,258.49,1096.6,2,0,0.12,0.12,176,8.33,0.12,0.12,26.56,FLYING,X10-F,0:/Integrated Flight Computer/aircraft/x10_f_cfg.ks (inferred preloaded)
26.92,APPROACH,ILS_TRACK,152.51,152,-0.51,469.52,394.65,-8.25,6.85,9.83,270,0.012,0.2239,0,15.285,1,0.6,4.5,0.75,0.35,0.0168,0.4,0,21.748,0,0.506,0,269.99,-3.064,0,1,-3.09,0,0,-2.94,269.99,0.8005,-0.0002,0.5994,-3.06,269.99,0.19,-0.47,7.556,-0.009,-0.064,1,3,673.03,0.255,-3.064,470.3,0,0,0,,0,0,0,0,0,0,0,0,0,0,0,0,0,270.01,0,0,0,0,0,0,0,0,0,0,0,0,0,3,3,0,0,VALID,0,0,0,0,0,1,0,0,0,0,0,0,0,0,0,0,0,0,0,0,258.04,1096.84,2,0,0.12,0.12,179,8.33,0.12,0.12,26.92,FLYING,X10-F,0:/Integrated Flight Computer/aircraft/x10_f_cfg.ks (inferred preloaded)
27.28,APPROACH,ILS_TRACK,152.49,152,-0.49,466.58,391.72,-8.09,6.88,9.78,270,0.014,0.2303,0,15.106,1,0.6,4.5,0.75,0.35,0.0168,0.4,0,21.753,0,0.489,0,269.99,-2.927,0,1,-3.03,0,0,-3.05,269.99,0.7991,-0.0002,0.6012,-2.93,269.99,0.19,-0.39,7.499,-0.009,0.073,1,3,673.03,0.055,-2.927,467.3,0,0,0,,0,0,0,0,0,0,0,0,0,0,0,0,0,270.01,0,0,0,0,0,0,0,0,0,0,0,0,0,3,3,0,0,VALID,0,0,0,0,0,1,0,0,0,0,0,0,0,0,0,0,0,0,0,0,256.63,1097,2,0,0.12,0.12,182,8.33,0.12,0.12,27.28,FLYING,X10-F,0:/Integrated Flight Computer/aircraft/x10_f_cfg.ks (inferred preloaded)
27.64,APPROACH,ILS_TRACK,152.49,152,-0.49,463.67,388.77,-8.18,6.97,9.93,270,0.015,0.2218,0,14.929,1,0.6,4.5,0.75,0.35,0.0168,0.4,0,21.753,0,0.49,0,269.99,-3.166,0,1,-3.08,0,0,-3.08,269.99,0.8017,-0.0002,0.5978,-3.17,269.99,0.19,-0.31,7.442,-0.009,-0.166,1,3,673.03,0.325,-3.166,464.3,0,0,0,,0,0,0,0,0,0,0,0,0,0,0,0,0,270.01,0,0,0,0,0,0,0,0,0,0,0,0,0,3,3,0,0,VALID,0,0,0,0,0,1,0,0,0,0,0,0,0,0,0,0,0,0,0,0,255.73,1097.25,2,0,0.12,0.12,185,8.33,0.12,0.12,27.64,FLYING,X10-F,0:/Integrated Flight Computer/aircraft/x10_f_cfg.ks (inferred preloaded)
27.9,APPROACH,ILS_TRACK,152.47,152,-0.47,461.52,386.66,-8.14,6.87,9.79,270,0.014,0.2298,0,14.806,1,0.6,4.5,0.75,0.35,0.0168,0.4,0,21.759,0,0.468,0,269.99,-2.95,0,1,-3.05,0,0,-3.03,269.99,0.7994,-0.0002,0.6007,-2.95,269.99,0.19,-0.29,7.401,-0.008,0.05,1,3,673.03,0.045,-2.95,462.14,0,0,0,,0,0,0,0,0,0,0,0,0,0,0,0,0,270.01,0,0,0,0,0,0,0,0,0,0,0,0,0,3,3,0,0,VALID,0,0,0,0,0,1,0,0,0,0,0,0,0,0,0,0,0,0,0,0,254.86,1097.33,2,0,0.12,0.12,187,7.69,0.14,0.12,27.9,FLYING,X10-F,0:/Integrated Flight Computer/aircraft/x10_f_cfg.ks (inferred preloaded)
28.26,APPROACH,ILS_TRACK,152.46,152,-0.46,458.6,383.7,-8.13,6.98,9.9,270,0.014,0.2262,0,14.639,1,0.6,4.5,0.75,0.35,0.0168,0.4,0,21.762,0,0.459,0,269.99,-3.116,0,1,-3.06,0,0,-3.15,269.99,0.8012,-0.0002,0.5984,-3.12,269.99,0.19,-0.21,7.343,-0.007,-0.116,1,3,673.03,0.224,-3.116,459.14,0,0,0,,0,0,0,0,0,0,0,0,0,0,0,0,0,270.01,0,0,0,0,0,0,0,0,0,0,0,0,0,3,3,0,0,VALID,0,0,0,0,0,1,0,0,0,0,0,0,0,0,0,0,0,0,0,0,254.17,1097.52,2,0,0.12,0.12,190,8.33,0.12,0.12,28.26,FLYING,X10-F,0:/Integrated Flight Computer/aircraft/x10_f_cfg.ks (inferred preloaded)
28.62,APPROACH,ILS_TRACK,152.44,152,-0.44,455.65,380.76,-8.26,6.92,9.91,270,0.013,0.2272,0,14.48,1,0.6,4.5,0.75,0.35,0.0168,0.4,0,21.767,0,0.439,0,269.99,-3.112,0,1,-3.1,0,0,-3,269.99,0.8012,-0.0001,0.5983,-3.11,269.99,0.19,-0.17,7.286,-0.006,-0.112,1,3,673.03,0.204,-3.112,456.14,0,0,0,,0,0,0,0,0,0,0,0,0,0,0,0,0,270.01,0,0,0,0,0,0,0,0,0,0,0,0,0,3,3,0,0,VALID,0,0,0,0,0,1,0,0,0,0,0,0,0,0,0,0,0,0,0,0,253.87,1097.69,2,0,0.12,0.12,193,8.33,0.12,0.12,28.62,FLYING,X10-F,0:/Integrated Flight Computer/aircraft/x10_f_cfg.ks (inferred preloaded)
28.98,APPROACH,ILS_TRACK,152.41,152,-0.41,452.69,377.82,-8.19,6.87,9.81,270,0.012,0.2334,0,14.329,1,0.6,4.5,0.75,0.35,0.0168,0.4,0,21.775,0,0.41,0,269.99,-2.991,0,1,-3.06,0,0,-3.01,269.99,0.8,-0.0002,0.6,-2.99,269.99,0.2,-0.13,7.229,-0.007,0.009,1,3,673.03,0.037,-2.991,453.14,0,0,0,,0,0,0,0,0,0,0,0,0,0,0,0,0,270.01,0,0,0,0,0,0,0,0,0,0,0,0,0,3,3,0,0,VALID,0,0,0,0,0,1,0,0,0,0,0,0,0,0,0,0,0,0,0,0,253.6,1097.8,2,0,0.12,0.12,196,8.33,0.12,0.12,28.98,FLYING,X10-F,0:/Integrated Flight Computer/aircraft/x10_f_cfg.ks (inferred preloaded)
29.34,APPROACH,ILS_TRACK,152.39,152,-0.39,449.75,374.86,-8.11,6.97,9.88,270,0.011,0.2334,0,14.185,1,0.6,4.5,0.75,0.35,0.0168,0.4,0,21.781,0,0.389,0,269.99,-3.077,0,1,-3.05,0,0,-3.19,269.99,0.801,-0.0003,0.5987,-3.08,269.99,0.2,-0.06,7.172,-0.013,-0.077,1,3,673.03,0.121,-3.077,450.15,0,0,0,,0,0,0,0,0,0,0,0,0,0,0,0,0,270.01,0,0,0,0,0,0,0,0,0,0,0,0,0,3,3,0,0,VALID,0,0,0,0,0,1,0,0,0,0,0,0,0,0,0,0,0,0,0,0,253.52,1097.95,2,0,0.12,0.12,199,8.33,0.12,0.12,29.34,FLYING,X10-F,0:/Integrated Flight Computer/aircraft/x10_f_cfg.ks (inferred preloaded)
29.7,APPROACH,ILS_TRACK,152.37,152,-0.37,446.78,371.92,-8.32,6.83,9.84,270,0.01,0.2295,0,14.052,1,0.6,4.5,0.75,0.35,0.0168,0.4,0,21.787,0,0.368,0,269.99,-3.097,0,1,-3.11,0,0,-2.98,269.99,0.8013,-0.0002,0.5983,-3.1,269.99,0.2,-0.05,7.115,-0.011,-0.097,1,3,673.03,0.141,-3.097,447.15,0,0,0,,0,0,0,0,0,0,0,0,0,0,0,0,0,270.01,0,0,0,0,0,0,0,0,0,0,0,0,0,3,3,0,0,VALID,0,0,0,0,0,1,0,0,0,0,0,0,0,0,0,0,0,0,0,0,253.91,1098.11,2,0,0.12,0.12,202,8.33,0.12,0.12,29.7,FLYING,X10-F,0:/Integrated Flight Computer/aircraft/x10_f_cfg.ks (inferred preloaded)
30.06,APPROACH,ILS_TRACK,152.33,152,-0.33,443.82,368.96,-8.15,6.87,9.79,270,0.006,0.2396,0,13.926,1,0.6,4.5,0.75,0.35,0.0168,0.4,0,21.797,0,0.332,0,269.99,-2.953,0,1,-3.06,0,0,-3.1,269.99,0.7998,-0.0002,0.6003,-2.95,269.99,0.21,-0.01,7.058,-0.009,0.047,1,3,673.03,-0.056,-2.953,444.16,0,0,0,,0,0,0,0,0,0,0,0,0,0,0,0,0,270.01,0,0,0,0,0,0,0,0,0,0,0,0,0,3,3,0,0,VALID,0,0,0,0,0,1,0,0,0,0,0,0,0,0,0,0,0,0,0,0,253.75,1098.19,2,0,0.12,0.12,205,8.33,0.12,0.12,30.06,FLYING,X10-F,0:/Integrated Flight Computer/aircraft/x10_f_cfg.ks (inferred preloaded)
30.32,APPROACH,ILS_TRACK,152.33,152,-0.33,441.68,366.81,-8.35,6.82,9.85,270,0.007,0.2291,0,13.841,1,0.6,4.5,0.75,0.35,0.0168,0.4,0,21.798,0,0.328,0,269.99,-3.096,0,1,-3.13,0,0,-2.97,269.99,0.8014,-0.0002,0.5982,-3.1,269.99,0.21,0,7.016,-0.01,-0.096,1,3,673.03,0.12,-3.096,442,0,0,0,,0,0,0,0,0,0,0,0,0,0,0,0,0,270.01,0,0,0,0,0,0,0,0,0,0,0,0,0,3,3,0,0,VALID,0,0,0,0,0,1,0,0,0,0,0,0,0,0,0,0,0,0,0,0,254.13,1098.36,2,0,0.12,0.12,207,7.69,0.14,0.12,30.32,FLYING,X10-F,0:/Integrated Flight Computer/aircraft/x10_f_cfg.ks (inferred preloaded)
30.68,APPROACH,ILS_TRACK,152.29,152,-0.29,438.71,363.85,-8.19,6.89,9.83,270,0.004,0.2363,0,13.729,1,0.6,4.5,0.75,0.35,0.0168,0.4,0,21.807,0,0.297,0,269.99,-2.958,0,1,-3.07,0,0,-3.1,269.99,0.8,-0.0003,0.6,-2.96,269.99,0.21,0.04,6.959,-0.014,0.042,1,3,673.03,-0.066,-2.958,439.01,0,0,0,,0,0,0,0,0,0,0,0,0,0,0,0,0,270.01,0,0,0,0,0,0,0,0,0,0,0,0,0,3,3,0,0,VALID,0,0,0,0,0,1,0,0,0,0,0,0,0,0,0,0,0,0,0,0,253.87,1098.47,2,0,0.12,0.12,210,8.33,0.12,0.12,30.68,FLYING,X10-F,0:/Integrated Flight Computer/aircraft/x10_f_cfg.ks (inferred preloaded)
31.04,APPROACH,ILS_TRACK,152.29,152,-0.29,435.76,360.86,-8.32,6.96,9.98,270,0.005,0.2261,0,13.624,1,0.6,4.5,0.75,0.35,0.0168,0.4,0,21.81,0,0.289,0,269.99,-3.195,0,1,-3.14,0,0,-3.07,269.99,0.8025,-0.0002,0.5967,-3.2,269.99,0.22,0.07,6.902,-0.012,-0.195,1,3,673.03,0.219,-3.195,436.01,0,0,0,,0,0,0,0,0,0,0,0,0,0,0,0,0,270.01,0,0,0,0,0,0,0,0,0,0,0,0,0,3,3,0,0,VALID,0,0,0,0,0,1,0,0,0,0,0,0,0,0,0,0,0,0,0,0,253.96,1098.68,2,0,0.12,0.12,213,8.33,0.12,0.12,31.04,FLYING,X10-F,0:/Integrated Flight Computer/aircraft/x10_f_cfg.ks (inferred preloaded)
31.4,APPROACH,ILS_TRACK,152.26,152,-0.26,432.75,357.9,-8.28,6.85,9.83,270,0.004,0.2334,0,13.529,1,0.6,4.5,0.75,0.35,0.0168,0.4,0,21.819,0,0.255,0,269.99,-2.966,0,1,-3.1,0,0,-2.95,269.99,0.8002,-0.0003,0.5998,-2.97,269.99,0.22,0.06,6.845,-0.014,0.034,1,3,673.03,-0.066,-2.966,433.02,0,0,0,,0,0,0,0,0,0,0,0,0,0,0,0,0,270.01,0,0,0,0,0,0,0,0,0,0,0,0,0,3,3,0,0,VALID,0,0,0,0,0,1,0,0,0,0,0,0,0,0,0,0,0,0,0,0,253.79,1098.79,2,0,0.12,0.12,216,8.33,0.12,0.12,31.4,FLYING,X10-F,0:/Integrated Flight Computer/aircraft/x10_f_cfg.ks (inferred preloaded)
31.76,APPROACH,ILS_TRACK,152.23,152,-0.23,429.8,354.9,-8.21,6.98,9.94,270,0.004,0.2313,0,13.44,1,0.6,4.5,0.75,0.35,0.0168,0.4,0,21.824,0,0.237,0,269.99,-3.065,0,1,-3.09,0,0,-3.18,269.99,0.8013,-0.0002,0.5983,-3.07,269.99,0.22,0.1,6.788,-0.012,-0.065,1,3,673.03,0.045,-3.065,430.03,0,0,0,,0,0,0,0,0,0,0,0,0,0,0,0,0,270.01,0,0,0,0,0,0,0,0,0,0,0,0,0,3,3,0,0,VALID,0,0,0,0,0,1,0,0,0,0,0,0,0,0,0,0,0,0,0,0,253.68,1098.95,2,0,0.12,0.12,219,8.33,0.12,0.12,31.76,FLYING,X10-F,0:/Integrated Flight Computer/aircraft/x10_f_cfg.ks (inferred preloaded)
32.12,APPROACH,ILS_TRACK,152.22,152,-0.22,426.82,351.92,-8.35,6.97,10,270,0.006,0.2289,0,13.361,1,0.6,4.5,0.75,0.35,0.0168,0.4,0,21.83,0,0.217,0,269.99,-3.139,0,1,-3.15,0,0,-3.01,269.99,0.8021,-0.0003,0.5972,-3.14,269.99,0.23,0.1,6.731,-0.013,-0.139,1,3,673.03,0.135,-3.139,427.05,0,0,0,,0,0,0,0,0,0,0,0,0,0,0,0,0,270.01,0,0,0,0,0,0,0,0,0,0,0,0,0,3,3,0,0,VALID,0,0,0,0,0,1,0,0,0,0,0,0,0,0,0,0,0,0,0,0,253.82,1099.12,2,0,0.12,0.12,222,8.33,0.12,0.12,32.12,FLYING,X10-F,0:/Integrated Flight Computer/aircraft/x10_f_cfg.ks (inferred preloaded)
32.48,APPROACH,ILS_TRACK,152.18,152,-0.18,423.83,348.95,-8.28,6.9,9.89,270,0.005,0.2367,0,13.291,1,0.6,4.5,0.75,0.35,0.0168,0.4,0,21.839,0,0.183,0,269.99,-2.976,0,1,-3.11,0,0,-2.97,269.99,0.8004,-0.0003,0.5994,-2.98,269.99,0.23,0.1,6.674,-0.015,0.024,1,3,673.03,-0.067,-2.976,424.06,0,0,0,,0,0,0,0,0,0,0,0,0,0,0,0,0,270.01,0,0,0,0,0,0,0,0,0,0,0,0,0,3,3,0,0,VALID,0,0,0,0,0,1,0,0,0,0,0,0,0,0,0,0,0,0,0,0,253.89,1099.22,2,0,0.12,0.12,225,8.33,0.12,0.12,32.48,FLYING,X10-F,0:/Integrated Flight Computer/aircraft/x10_f_cfg.ks (inferred preloaded)
32.74,APPROACH,ILS_TRACK,152.17,152,-0.17,421.69,346.79,-8.26,7.01,10,270,0.006,0.2322,0,13.245,1,0.6,4.5,0.75,0.35,0.0168,0.4,0,21.842,0,0.173,0,269.98,-3.133,0,1,-3.12,0,0,-3.09,269.99,0.8021,-0.0003,0.5972,-3.13,269.98,0.24,0.12,6.633,-0.015,-0.133,1,3,673.03,0.119,-3.133,421.9,0,0,0,,0,0,0,0,0,0,0,0,0,0,0,0,0,270.01,0,0,0,0,0,0,0,0,0,0,0,0,0,3,3,0,0,VALID,0,0,0,0,0,1,0,0,0,0,0,0,0,0,0,0,0,0,0,0,254.16,1099.35,2,0,0.12,0.12,227,7.69,0.14,0.12,32.74,FLYING,X10-F,0:/Integrated Flight Computer/aircraft/x10_f_cfg.ks (inferred preloaded)
33.1,APPROACH,ILS_TRACK,152.15,152,-0.15,418.72,343.81,-8.29,6.99,10,270.01,0.008,0.2304,0,13.188,1,0.6,4.5,0.75,0.35,0.0168,0.4,0,21.848,0,0.154,0,269.99,-3.1,0,1,-3.13,0,0,-3.02,269.99,0.8018,-0.0003,0.5976,-3.1,269.99,0.24,0.13,6.576,-0.013,-0.1,1,3,673.03,0.076,-3.1,418.91,0,0,0,,0,0,0,0,0,0,0,0,0,0,0,0,0,270.01,0,0,0,0,0,0,0,0,0,0,0,0,0,3,3,0,0,VALID,0,0,0,0,0,1,0,0,0,0,0,0,0,0,0,0,0,0,0,0,254.36,1099.52,2,0,0.12,0.12,230,8.33,0.12,0.12,33.1,FLYING,X10-F,0:/Integrated Flight Computer/aircraft/x10_f_cfg.ks (inferred preloaded)
33.46,APPROACH,ILS_TRACK,152.14,152,-0.14,415.74,340.83,-8.29,7.01,10.02,270.01,0.008,0.2289,0,13.137,1,0.6,4.5,0.75,0.35,0.0168,0.4,0,21.852,0,0.137,0,269.99,-3.11,0,1,-3.13,0,0,-3.03,269.99,0.802,-0.0003,0.5973,-3.11,269.99,0.25,0.14,6.519,-0.015,-0.11,1,3,673.03,0.084,-3.11,415.93,0,0,0,,0,0,0,0,0,0,0,0,0,0,0,0,0,270.01,0,0,0,0,0,0,0,0,0,0,0,0,0,3,3,0,0,VALID,0,0,0,0,0,1,0,0,0,0,0,0,0,0,0,0,0,0,0,0,254.31,1099.69,2,0,0.12,0.12,233,8.33,0.12,0.12,33.46,FLYING,X10-F,0:/Integrated Flight Computer/aircraft/x10_f_cfg.ks (inferred preloaded)
33.82,APPROACH,ILS_TRACK,152.11,152,-0.11,412.77,337.86,-8.33,6.99,10.01,270.01,0.007,0.2306,0,13.094,1,0.6,4.5,0.75,0.35,0.0168,0.4,0,21.858,0,0.116,0,269.99,-3.095,0,1,-3.13,0,0,-3.02,269.99,0.8019,-0.0003,0.5975,-3.1,269.99,0.25,0.15,6.462,-0.014,-0.095,1,3,673.03,0.061,-3.095,412.94,0,0,0,,0,0,0,0,0,0,0,0,0,0,0,0,0,270.01,0,0,0,0,0,0,0,0,0,0,0,0,0,3,3,0,0,VALID,0,0,0,0,0,1,0,0,0,0,0,0,0,0,0,0,0,0,0,0,254.23,1099.85,2,0,0.12,0.12,236,8.33,0.12,0.12,33.82,FLYING,X10-F,0:/Integrated Flight Computer/aircraft/x10_f_cfg.ks (inferred preloaded)
34.18,APPROACH,ILS_TRACK,152.07,152,-0.07,409.78,334.91,-8.17,6.93,9.87,270.01,0.001,0.2448,0,13.061,1,0.6,4.5,0.75,0.35,0.0168,0.4,0,21.87,0,0.074,0,269.98,-2.937,0,1,-3.07,0,0,-3.05,269.99,0.8003,-0.0003,0.5996,-2.94,269.98,0.26,0.16,6.405,-0.015,0.063,1,3,673.03,-0.138,-2.937,409.96,0,0,0,,0,0,0,0,0,0,0,0,0,0,0,0,0,270.01,0,0,0,0,0,0,0,0,0,0,0,0,0,3,3,0,0,VALID,0,0,0,0,0,1,0,0,0,0,0,0,0,0,0,0,0,0,0,0,254.35,1099.91,2,0,0.12,0.12,239,8.33,0.12,0.12,34.18,FLYING,X10-F,0:/Integrated Flight Computer/aircraft/x10_f_cfg.ks (inferred preloaded)
34.54,APPROACH,ILS_TRACK,152.06,152,-0.06,406.83,331.92,-8.31,7,10.02,270.01,0.003,0.234,0,13.036,1,0.6,4.5,0.75,0.35,0.0168,0.4,0,21.872,0,0.066,0,269.98,-3.221,0,1,-3.14,0,0,-3.1,269.98,0.8033,-0.0003,0.5955,-3.22,269.98,0.27,0.18,6.348,-0.016,-0.221,1,3,673.03,0.21,-3.221,406.98,0,0,0,,0,0,0,0,0,0,0,0,0,0,0,0,0,270.01,0,0,0,0,0,0,0,0,0,0,0,0,0,3,3,0,0,VALID,0,0,0,0,0,1,0,0,0,0,0,0,0,0,0,0,0,0,0,0,255.09,1100.13,2,0,0.12,0.12,242,8.33,0.12,0.12,34.54,FLYING,X10-F,0:/Integrated Flight Computer/aircraft/x10_f_cfg.ks (inferred preloaded)
34.9,APPROACH,ILS_TRACK,152.03,152,-0.03,403.82,328.97,-8.24,6.85,9.82,270,-0.004,0.241,0,13.021,1,0.6,4.5,0.75,0.35,0.0168,0.4,0,21.881,0,0.034,0,269.98,-2.945,0,1,-3.09,0,0,-2.96,269.99,0.8005,-0.0003,0.5993,-2.95,269.98,0.27,0.16,6.291,-0.015,0.055,1,3,673.03,-0.128,-2.945,404,0,0,0,,0,0,0,0,0,0,0,0,0,0,0,0,0,270.01,0,0,0,0,0,0,0,0,0,0,0,0,0,3,3,0,0,VALID,0,0,0,0,0,1,0,0,0,0,0,0,0,0,0,0,0,0,0,0,255.57,1100.24,2,0,0.12,0.12,245,8.33,0.12,0.12,34.9,FLYING,X10-F,0:/Integrated Flight Computer/aircraft/x10_f_cfg.ks (inferred preloaded)
35.16,APPROACH,ILS_TRACK,152.03,152,-0.03,401.7,326.8,-8.34,6.95,9.98,270,-0.002,0.2314,0,13.011,1,0.6,4.5,0.75,0.35,0.0168,0.4,0,21.881,0,0.035,0,269.98,-3.184,0,1,-3.15,0,0,-3.05,269.99,0.803,-0.0003,0.5959,-3.18,269.98,0.28,0.18,6.25,-0.017,-0.184,1,3,673.03,0.163,-3.184,401.84,0,0,0,,0,0,0,0,0,0,0,0,0,0,0,0,0,270.01,0,0,0,0,0,0,0,0,0,0,0,0,0,3,3,0,0,VALID,0,0,0,0,0,1,0,0,0,0,0,0,0,0,0,0,0,0,0,0,255.96,1100.43,2,0,0.12,0.12,247,7.69,0.14,0.12,35.16,FLYING,X10-F,0:/Integrated Flight Computer/aircraft/x10_f_cfg.ks (inferred preloaded)
35.52,APPROACH,ILS_TRACK,152.02,152,-0.02,398.71,323.83,-8.31,6.92,9.92,270,-0.003,0.2325,0,13.003,1,0.6,4.5,0.75,0.35,0.0168,0.4,0,21.886,0,0.019,0,269.98,-3.013,0,1,-3.12,0,0,-3,269.98,0.8013,-0.0003,0.5983,-3.01,269.98,0.28,0.17,6.193,-0.015,-0.013,1,3,673.03,-0.05,-3.013,398.86,0,0,0,,0,0,0,0,0,0,0,0,0,0,0,0,0,270.01,0,0,0,0,0,0,0,0,0,0,0,0,0,3,3,0,0,VALID,0,0,0,0,0,1,0,0,0,0,0,0,0,0,0,0,0,0,0,0,255.99,1100.61,2,0,0.12,0.12,250,8.33,0.12,0.12,35.52,FLYING,X10-F,0:/Integrated Flight Computer/aircraft/x10_f_cfg.ks (inferred preloaded)
35.88,APPROACH,ILS_TRACK,152.01,152,-0.01,395.74,320.84,-8.27,6.99,9.98,270,-0.003,0.2314,0,12.998,1,0.6,4.5,0.75,0.35,0.0168,0.4,0,21.889,0,0.008,0,269.98,-3.029,0,1,-3.11,0,0,-3.11,269.98,0.8015,-0.0003,0.598,-3.03,269.98,0.29,0.19,6.136,-0.017,-0.029,1,3,673.03,-0.034,-3.029,395.88,0,0,0,,0,0,0,0,0,0,0,0,0,0,0,0,0,270.01,0,0,0,0,0,0,0,0,0,0,0,0,0,3,3,0,0,VALID,0,0,0,0,0,1,0,0,0,0,0,0,0,0,0,0,0,0,0,0,255.75,1100.81,2,0,0.12,0.12,253,8.33,0.12,0.12,35.88,FLYING,X10-F,0:/Integrated Flight Computer/aircraft/x10_f_cfg.ks (inferred preloaded)
36.24,APPROACH,ILS_TRACK,151.99,152,0.01,392.77,317.86,-8.21,7.01,9.97,270,-0.003,0.2338,0,12.998,1,0.6,4.5,0.75,0.35,0.0168,0.4,0,21.893,0,-0.007,0,269.99,-3.017,0,1,-3.09,0,0,-3.13,269.98,0.8015,-0.0003,0.598,-3.02,269.99,0.29,0.19,6.08,-0.014,-0.017,1,3,673.03,-0.051,-3.017,392.91,0,0,0,,0,0,0,0,0,0,0,0,0,0,0,0,0,270.01,0,0,0,0,0,0,0,0,0,0,0,0,0,3,3,0,0,VALID,0,0,0,0,0,1,0,0,0,0,0,0,0,0,0,0,0,0,0,0,255.53,1100.99,2,0,0.12,0.12,256,8.33,0.12,0.12,36.24,FLYING,X10-F,0:/Integrated Flight Computer/aircraft/x10_f_cfg.ks (inferred preloaded)
36.6,APPROACH,ILS_TRACK,151.98,152,0.02,389.8,314.88,-8.25,7.06,10.06,270.01,-0.001,0.2329,0,13.003,1,0.6,4.5,0.75,0.35,0.0168,0.4,0,21.896,0,-0.019,0,269.98,-3.171,0,1,-3.12,0,0,-3.09,269.98,0.8031,-0.0003,0.5958,-3.17,269.98,0.3,0.21,6.023,-0.018,-0.171,1,3,673.03,0.137,-3.171,389.93,0,0,0,,0,0,0,0,0,0,0,0,0,0,0,0,0,270.01,0,0,0,0,0,0,0,0,0,0,0,0,0,3,3,0,0,VALID,0,0,0,0,0,1,0,0,0,0,0,0,0,0,0,0,0,0,0,0,255.68,1101.19,2,0,0.12,0.12,259,8.33,0.12,0.12,36.6,FLYING,X10-F,0:/Integrated Flight Computer/aircraft/x10_f_cfg.ks (inferred preloaded)
36.96,APPROACH,ILS_TRACK,151.96,152,0.04,386.81,311.92,-8.3,6.92,9.93,270,-0.003,0.2383,0,13.017,1,0.6,4.5,0.75,0.35,0.0168,0.4,0,21.903,0,-0.043,0,269.98,-3.025,0,1,-3.12,0,0,-2.96,269.98,0.8017,-0.0003,0.5978,-3.02,269.98,0.31,0.18,5.966,-0.017,-0.025,1,3,673.03,-0.038,-3.025,386.95,0,0,0,,0,0,0,0,0,0,0,0,0,0,0,0,0,270.01,0,0,0,0,0,0,0,0,0,0,0,0,0,3,3,0,0,VALID,0,0,0,0,0,1,0,0,0,0,0,0,0,0,0,0,0,0,0,0,256.13,1101.34,2,0,0.12,0.12,262,8.33,0.12,0.12,36.96,FLYING,X10-F,0:/Integrated Flight Computer/aircraft/x10_f_cfg.ks (inferred preloaded)
