t_s,phase,subphase,ias_ms,vapp_ms,spd_err_ms,agl_m,vs_ms,pitch_deg,aoa_deg,hdg_deg,bank_deg,thr_cmd,thr_cur,thr_intg,at_gain,at_tau_s,at_a_up,at_a_dn,at_kp_thr,at_ki_spd,at_thr_slew,aa_hdg_cmd_deg,aa_fpa_cmd_deg,aa_fbw,aa_dir,actual_fpa_deg,ftf_hdg_err_deg,ftf_fix_idx,kos_steer_pit_deg,kos_steer_hdg_deg,aa_dir_vx,aa_dir_vy,aa_dir_vz,aa_dir_pitch_deg,aa_dir_hdg_deg,ils_loc_m,ils_gs_m,ils_dist_km,loc_corr_deg,gs_corr_deg,flare_fpa_cmd,flare_tgt_vs,flare_frac,steer_hdg_deg,steer_blend,ro_loc_corr_deg,ro_hdg_err_deg,ro_yaw_tgt,ro_yaw_scale,ro_yaw_gate,yaw_cmd,roll_cmd,pitch_cmd,ro_pitch_tgt_deg,ro_pitch_err_deg,ro_pitch_ff,ro_roll_assist,flaps_cur,flaps_tgt,asc_j_ab,asc_j_rk,asc_validity,asc_q_pa,asc_q_raw_pa,asc_mach,asc_apo_m,asc_drag_n,asc_w_prop,asc_edot_aero,asc_edot_orb,asc_pitch_bias,asc_blend,asc_spooling,asc_ab_thr_ratio,asc_ab_t_now,asc_ab_t_avail,asc_ab_ign_on,asc_ab_flameouts,asc_rk_t_now,asc_rk_t_avail,asc_rk_ign_on,asc_rk_flameouts,ship_thrust,ship_avail_thrust,ship_ign_on,ship_flameouts,ifc_raw_dt_s,ifc_dt_s,ifc_loop_n,ifc_hz_est,ifc_raw_dt_max_s,ifc_raw_dt_min_s,phase_el_s,status
1.04,APPROACH,ILS_TRACK,218.83,140,-78.83,2193.61,13.89,8.9,5.86,274.89,15.095,0,0,0,0,0,0,0,0,0,0,0,0,1,0,3.62,0,0,-0.02,90,0,0,0,0,0,0,0,39.997,0,0,0,0,0,274.3,0,0,0,0,0,0,0,0,0,0,0,0,0,0,0,0,0,VALID,0,0,0,0,0,1,0,0,0,0,0,0,0,0,0,0,0,0,0,0,340.17,1310.36,2,0,0.94,0.5,1,2.7,0.94,0.02,1.1,FLYING
2.02,APPROACH,ILS_TRACK,217.94,140,-77.94,2208.17,15.69,10.08,8.95,277.49,15.292,0,0,0,1,0.6,0.941,0.752,0.35,0.0168,0.4,284.44,-7,1,0,3.78,0,0,-0.04,90,-0.9182,0.2493,0.3078,1.22,284.44,-26.01,48.61,39.803,14.044,-92.367,0,0,0,274.3,0,0,0,0,0,0,0,0,0,0,0,0,0,1,2,0,0,VALID,0,0,0,0,0,1,0,0,0,0,0,0,0,0,0,0,0,0,0,0,241.89,1305.2,2,0,0.74,0.5,2,1.04,0.94,0.74,2.06,FLYING
2.96,APPROACH,ILS_TRACK,215.78,140,-75.78,2222.15,16.23,6.4,0.21,280.31,15.709,0,0,-20,1,0.6,1.797,0.771,0.35,0.0168,0.4,262.73,-7,0,1,4.72,0,0,1.24,284.44,-0.8997,-0.1259,0.4181,-5.04,262.73,-9.88,75.29,39.571,-7.666,-65.271,0,0,0,274.3,0,0,0,0,0,0,0,0,0,0,0,0,0,2,2,0,0,VALID,0,0,0,0,0,1,0,0,0,0,0,0,0,0,0,0,0,0,0,0,171.03,1292.95,2,0,0.96,0.5,3,1.04,0.96,0.74,3.02,FLYING
3.92,APPROACH,ILS_TRACK,214.63,140,-74.63,2231.57,6.92,-1.76,-4.68,276.75,15.606,0,0,-19.9,1,0.6,2.581,0.8,0.35,0.0168,0.4,260.49,-0.187,0,1,2.77,0,0,-5.02,262.73,-0.8992,-0.1647,0.4054,-4.34,260.49,9.21,98.16,39.346,-9.914,0,0,0,0,274.3,0,0,0,0,0,0,0,0,0,0,0,0,0,2,2,0,0,VALID,0,0,0,0,0,1,0,0,0,0,0,0,0,0,0,0,0,0,0,0,122.3,1286.33,2,0,0.96,0.5,4,1.06,0.96,0.96,3.96,FLYING
4.84,APPROACH,ILS_TRACK,213.48,140,-73.48,2232.27,-3.62,-4.68,-5.78,271.51,15.796,0,0,-19.8,1,0.6,3.297,0.835,0.35,0.0168,0.4,259.7,-0.199,0,1,0.08,0,0,-4.32,260.49,-0.8855,-0.1778,0.4293,-5.88,259.7,28.35,112.44,39.126,-10.704,0,0,0,0,274.3,0,0,0,0,0,0,0,0,0,0,0,0,0,1,1,0,0,VALID,0,0,0,0,0,1,0,0,0,0,0,0,0,0,0,0,0,0,0,0,88.11,1280.17,2,0,0.9,0.5,5,1.09,0.96,0.9,4.88,FLYING
5.78,APPROACH,ILS_TRACK,212.45,140,-72.45,2222.45,-15.45,-7.49,-6.06,268.56,16.034,0,0,-19.701,1,0.6,3.952,0.875,0.35,0.0168,0.4,259.47,-0.161,0,1,-3.08,0,0,-5.86,259.7,-0.8807,-0.1815,0.4375,-6.39,259.47,46.49,116.61,38.903,-10.929,0,0,0,0,274.3,0,0,0,0,0,0,0,0,0,0,0,0,0,1,1,0,0,VALID,0,0,0,0,0,1,0,0,0,0,0,0,0,0,0,0,0,0,0,0,63.08,1275.01,2,0,0.96,0.5,6,1.06,0.96,0.9,5.82,FLYING
6.68,APPROACH,ILS_TRACK,212.11,140,-72.11,2202.92,-26.53,-9.37,-5.05,268.03,16.082,0,0,-19.603,1,0.6,4.5,0.905,0.35,0.0168,0.4,260.22,-0.073,0,1,-6.1,0,0,-6.38,259.47,-0.8901,-0.1689,0.4232,-5.42,260.22,61.89,110.41,38.69,-10.176,0,0,0,0,274.3,0,0,0,0,0,0,0,0,0,0,0,0,0,1,1,0,0,VALID,0,0,0,0,0,1,0,0,0,0,0,0,0,0,0,0,0,0,0,0,45.94,1273.92,2,0,0.9,0.5,7,1.11,0.96,0.9,6.72,FLYING
7.58,APPROACH,ILS_TRACK,212.52,140,-72.52,2174.46,-36.06,-9.99,-2.9,268.12,16.061,0,0,-19.505,1,0.6,4.5,0.915,0.35,0.0168,0.4,260.52,0.061,0,1,-8.8,0,0,-5.4,260.22,-0.9063,-0.1643,0.3894,-3.26,260.52,75.59,94.9,38.479,-9.877,0,0,0,0,274.3,0,0,0,0,0,0,0,0,0,0,0,0,0,1,1,0,0,VALID,0,0,0,0,0,1,0,0,0,0,0,0,0,0,0,0,0,0,0,0,33.57,1277.11,2,0,0.9,0.5,8,1.11,0.9,0.9,7.62,FLYING
8.48,APPROACH,ILS_TRACK,213.33,140,-73.33,2138.98,-42.82,-9.25,0.06,268.59,16,0,0,-19.407,1,0.6,4.5,0.902,0.35,0.0168,0.4,260.67,0,0,1,-10.84,0,0,-3.24,260.52,-0.9246,-0.1621,0.3448,-0.47,260.67,88.02,71.8,38.268,-9.731,15.425,0,0,0,274.3,0,0,0,0,0,0,0,0,0,0,0,0,0,1,1,0,0,VALID,0,0,0,0,0,1,0,0,0,0,0,0,0,0,0,0,0,0,0,0,24.58,1282.79,2,0,0.9,0.5,9,1.11,0.9,0.9,8.52,FLYING
9.38,APPROACH,ILS_TRACK,214.07,140,-74.07,2098.43,-46.09,-7.24,3.36,269.42,15.868,0,0,-19.31,1,0.6,4.5,0.871,0.35,0.0168,0.4,260.34,0,0,1,-11.96,0,0,-0.45,260.67,-0.9422,-0.1677,0.2902,2.83,260.34,100.13,44.09,38.053,-10.061,31.119,0,0,0,274.3,0,0,0,0,0,0,0,0,0,0,0,0,0,2,2,0,0,VALID,0,0,0,0,0,1,0,0,0,0,0,0,0,0,0,0,0,0,0,0,17.87,1288.38,2,0,0.9,0.5,10,1.09,0.9,0.9,9.44,FLYING
10.34,APPROACH,ILS_TRACK,214.01,140,-74.01,2055.79,-45.64,-4.51,6.06,270.5,15.635,0,0,-19.214,1,0.6,4.5,0.839,0.35,0.0168,0.4,259.47,0,0,1,-12.16,0,0,2.85,260.34,-0.9534,-0.1819,0.2406,5.75,259.47,112.95,12.02,37.834,-10.93,47.694,0,0,0,274.3,0,0,0,0,0,0,0,0,0,0,0,0,0,2,2,0,0,VALID,0,0,0,0,0,1,0,0,0,0,0,0,0,0,0,0,0,0,0,0,12.86,1289.92,2,0,0.96,0.5,11,1.06,0.96,0.9,10.38,FLYING
11.28,APPROACH,ILS_TRACK,212.67,140,-72.67,2014.88,-42.6,-2.1,8.11,271.49,15.329,0,0,-19.118,1,0.6,4.5,0.83,0.35,0.0168,0.4,258.19,0,0,1,-11.65,0,0,5.77,259.47,-0.9576,-0.2028,0.2048,7.8,258.19,127.19,-18.06,37.616,-12.205,53.544,0,0,0,274.3,0,0,0,0,0,0,0,0,0,0,0,0,0,2,2,0,0,VALID,0,0,0,0,0,1,0,0,0,0,0,0,0,0,0,0,0,0,0,0,9.21,1284.82,2,0,0.94,0.5,12,1.06,0.96,0.94,11.32,FLYING
12.18,APPROACH,ILS_TRACK,210.16,140,-70.16,1979.34,-37.69,0.34,9.43,272.45,14.997,0,0,-19.022,1,0.6,4.5,0.858,0.35,0.0168,0.4,256.95,0,0,1,-10.64,0,0,7.82,258.19,-0.9585,-0.223,0.1779,9.3,256.95,142.67,-43.66,37.409,-13.448,54.055,0,0,0,274.3,0,0,0,0,0,0,0,0,0,0,0,0,0,2,2,0,0,VALID,0,0,0,0,0,1,0,0,0,0,0,0,0,0,0,0,0,0,0,0,6.66,1273.42,2,0,0.9,0.5,13,1.11,0.94,0.9,12.22,FLYING
13.08,APPROACH,ILS_TRACK,206.87,140,-66.87,1948.24,-32.39,1.83,9.45,273.14,14.637,0.1862,0,-20,1,0.6,4.5,0.931,0.35,0.0168,0.4,255.18,0,0,1,-9.34,0,0,9.32,256.95,-0.9519,-0.2525,0.1736,9.42,255.18,160.29,-65.05,37.204,-15.22,53.75,0,0,0,274.3,0,0,0,0,0,0,0,0,0,0,0,0,0,2,2,0,0,VALID,0,0,0,0,0,1,0,0,0,0,0,0,0,0,0,0,0,0,0,0,4.79,1257.89,2,0,0.9,0.5,14,1.11,0.9,0.9,13.12,FLYING
13.98,APPROACH,ILS_TRACK,203.53,140,-63.53,1921.83,-27.32,3.21,9.71,273.79,14.285,0.3862,0,-20,1,0.6,4.5,0.931,0.35,0.0168,0.4,253.37,1.331,0,1,-8.1,0,0,9.44,255.18,-0.9489,-0.281,0.1434,11.04,253.37,179.94,-81.9,37.002,-17.026,0,0,0,0,274.3,0,0,0,0,0,0,0,0,0,0,0,0,0,2,2,0,0,VALID,0,0,0,0,0,1,0,0,0,0,0,0,0,0,0,0,0,0,0,0,42.08,1241.7,2,0,0.9,0.5,15,1.11,0.9,0.9,14.02,FLYING
14.9,APPROACH,ILS_TRACK,200.48,140,-60.48,1899.39,-22.51,4.45,10,274.39,13.951,0.5862,0,-20,1,0.6,4.5,0.931,0.35,0.0168,0.4,251.26,1.448,0,1,-6.87,0,0,11.05,253.37,-0.9393,-0.3152,0.1353,11.31,251.26,202.06,-94.22,36.799,-19.138,0,0,0,0,274.3,0,0,0,0,0,0,0,0,0,0,0,0,0,1,1,0,0,VALID,0,0,0,0,0,1,0,0,0,0,0,0,0,0,0,0,0,0,0,0,112.99,1227.57,2,0,0.9,0.5,16,1.09,0.9,0.9,14.94,FLYING
15.84,APPROACH,ILS_TRACK,198.11,140,-58.11,1881.12,-17.54,6.34,10.53,275.16,13.606,0.7635,0,-20,1,0.6,4.5,0.931,0.35,0.0168,0.4,249.03,1.544,0,1,-5.53,0,0,11.32,251.26,-0.9292,-0.3501,0.1184,12.05,249.03,226.66,-103.15,36.594,-21.367,0,0,0,0,274.3,0,0,0,0,0,0,0,0,0,0,0,0,0,1,1,0,0,VALID,0,0,0,0,0,1,0,0,0,0,0,0,0,0,0,0,0,0,0,0,214.38,1216.49,2,0,0.96,0.5,17,1.06,0.96,0.9,15.88,FLYING
16.74,APPROACH,ILS_TRACK,196.87,140,-56.87,1867.81,-12.97,7.76,10.66,275.77,13.293,0.6663,0,-20,1,0.6,4.5,0.931,0.35,0.0168,0.4,247.58,1.614,0,1,-4.23,0,0,12.07,249.03,-0.9213,-0.3727,0.1109,12.32,247.58,252.12,-107.15,36.399,-22.816,0,0,0,0,274.3,0,0,0,0,0,0,0,0,0,0,0,0,0,1,1,0,0,VALID,0,0,0,0,0,1,0,0,0,0,0,0,0,0,0,0,0,0,0,0,330.02,1210.93,2,0,0.9,0.5,18,1.11,0.96,0.9,16.78,FLYING
17.64,APPROACH,ILS_TRACK,196.69,140.8,-55.89,1858.37,-8.68,8.82,10.42,276.24,12.988,0.4663,0,-20,1,0.6,4.5,0.931,0.35,0.0168,0.4,245.57,1.665,0,1,-2.96,0,0,12.34,247.58,-0.9082,-0.4043,0.1081,12.23,245.57,279.42,-107.26,36.205,-24.827,0,0,0,0,274.3,0,0,0,0,0,0,0,0,0,0,0,0,0,1,1,0,0,VALID,0,0,0,0,0,1,0,0,0,0,0,0,0,0,0,0,0,0,0,0,408.94,1210.56,2,0,0.9,0.5,19,1.11,0.9,0.9,17.68,FLYING
18.56,APPROACH,ILS_TRACK,197.37,141.6,-55.77,1852.2,-4.91,9.13,9.55,276.51,12.682,0.2663,0,-20,1,0.6,4.5,0.931,0.35,0.0168,0.4,245.4,1.699,0,1,-1.81,0,0,12.25,245.57,-0.905,-0.4081,0.1202,11.52,245.4,309.16,-103.75,36.007,-27.236,0,0,0,0,274.3,0,0,0,0,0,0,0,0,0,0,0,0,0,1,1,0,0,VALID,0,0,0,0,0,1,0,0,0,0,0,0,0,0,0,0,0,0,0,0,437.24,1214.27,2,0,0.92,0.5,20,1.09,0.92,0.9,18.6,FLYING
19.44,APPROACH,ILS_TRACK,198.39,142.4,-55.99,1848.78,-2.43,8.56,8.1,276.54,12.432,0.0663,0,-19.9,1,0.6,4.5,0.931,0.35,0.0168,0.4,245.4,1.719,0,1,-0.96,0,0,11.53,245.4,-0.9006,-0.4099,0.1442,10.13,245.4,339.18,-97.68,35.817,-28.579,0,0,0,0,274.3,0,0,0,0,0,0,0,0,0,0,0,0,0,1,1,0,0,VALID,0,0,0,0,0,1,0,0,0,0,0,0,0,0,0,0,0,0,0,0,409.68,1219.55,2,0,0.88,0.5,21,1.14,0.92,0.88,19.48,FLYING
20.32,APPROACH,ILS_TRACK,199.42,143.2,-56.22,1846.63,-1.61,7.05,6.21,276.36,12.196,0,0,-19.8,1,0.6,4.5,0.925,0.35,0.0168,0.4,245.4,1.73,0,1,-0.54,0,0,10.14,245.4,-0.8937,-0.4121,0.1774,8.2,245.4,370.47,-90.02,35.626,-30.463,0,0,0,0,274.3,0,0,0,0,0,0,0,0,0,0,0,0,0,1,1,0,0,VALID,0,0,0,0,0,1,0,0,0,0,0,0,0,0,0,0,0,0,0,0,324.9,1224.81,2,0,0.88,0.5,22,1.14,0.88,0.88,20.36,FLYING
21.22,APPROACH,ILS_TRACK,200.23,144,-56.23,1844.18,-2.65,4.75,4.08,276.02,12.002,0,0,-19.701,1,0.6,4.5,0.898,0.35,0.0168,0.4,245.4,1.742,0,1,-0.62,0,0,8.21,245.4,-0.8847,-0.414,0.2144,6.03,245.4,403.37,-82.02,35.43,-32.585,0,0,0,0,274.3,0,0,0,0,0,0,0,0,0,0,0,0,0,1,1,0,0,VALID,0,0,0,0,0,1,0,0,0,0,0,0,0,0,0,0,0,0,0,0,238.07,1228.94,2,0,0.9,0.5,23,1.11,0.9,0.88,21.26,FLYING
22.12,APPROACH,ILS_TRACK,200.82,144.8,-56.02,1839.97,-5.35,2.56,2.46,275.71,11.848,0,0,-19.603,1,0.6,4.5,0.862,0.35,0.0168,0.4,245.4,0,0,1,-1.26,0,0,6.05,245.4,-0.8682,-0.4159,0.2708,2.67,245.4,436.71,-75.39,35.233,-34.14,12.014,0,0,0,274.3,0,0,0,0,0,0,0,0,0,0,0,0,0,1,1,0,0,VALID,0,0,0,0,0,1,0,0,0,0,0,0,0,0,0,0,0,0,0,0,173.98,1232.03,2,0,0.9,0.5,24,1.11,0.9,0.9,22.16,FLYING
23,APPROACH,ILS_TRACK,201.24,145.6,-55.64,1832.23,-9.95,-0.5,0.36,275.21,11.747,0,0,-19.505,1,0.6,4.5,0.828,0.35,0.0168,0.4,245.4,0,0,1,-2.31,0,0,2.69,245.4,-0.8563,-0.4163,0.3057,0.58,245.4,470.08,-71.71,35.037,-35.486,15.622,0,0,0,274.3,0,0,0,0,0,0,0,0,0,0,0,0,0,2,2,0,0,VALID,0,0,0,0,0,1,0,0,0,0,0,0,0,0,0,0,0,0,0,0,127.07,1234.39,2,0,0.88,0.5,25,1.11,0.9,0.88,23.06,FLYING
23.96,APPROACH,ILS_TRACK,201.54,146.4,-55.14,1818.91,-16.48,-3.67,-1.03,274.69,11.659,0,0,-19.407,1,0.6,4.5,0.795,0.35,0.0168,0.4,245.4,0,0,1,-4.08,0,0,0.6,245.4,-0.847,-0.4162,0.3308,-0.94,245.4,504.44,-73.19,34.831,-37.358,24.323,0,0,0,274.3,0,0,0,0,0,0,0,0,0,0,0,0,0,2,2,0,0,VALID,0,0,0,0,0,1,0,0,0,0,0,0,0,0,0,0,0,0,0,0,91.49,1236.4,2,0,0.96,0.5,26,1.06,0.96,0.88,24,FLYING
24.84,APPROACH,ILS_TRACK,201.69,147.2,-54.49,1800.86,-22.9,-5.9,-1.67,274.36,11.59,0,0,-19.31,1,0.6,4.5,0.763,0.35,0.0168,0.4,245.4,0,0,1,-5.83,0,0,-0.92,245.4,-0.8422,-0.4161,0.3428,-1.66,245.4,535.88,-79.89,34.638,-37.153,34.698,0,0,0,274.3,0,0,0,0,0,0,0,0,0,0,0,0,0,2,2,0,0,VALID,0,0,0,0,0,1,0,0,0,0,0,0,0,0,0,0,0,0,0,0,67.25,1237.95,2,0,0.88,0.5,27,1.14,0.96,0.88,24.88,FLYING
25.72,APPROACH,ILS_TRACK,201.69,148,-53.69,1777.32,-29.3,-7.84,-1.67,274.09,11.516,0,0,-19.214,1,0.6,4.5,0.75,0.35,0.0168,0.4,245.4,2.053,0,1,-7.64,0,0,-1.65,245.4,-0.8541,-0.4163,0.3119,0.25,245.4,566.52,-92.15,34.447,-37.982,0,0,0,0,274.3,0,0,0,0,0,0,0,0,0,0,0,0,0,2,2,0,0,VALID,0,0,0,0,0,1,0,0,0,0,0,0,0,0,0,0,0,0,0,0,49.41,1239.01,2,0,0.88,0.5,28,1.14,0.88,0.88,25.76,FLYING
26.64,APPROACH,ILS_TRACK,201.46,148.8,-52.66,1747.88,-34.4,-7.97,0.11,274.19,11.419,0,0,-19.118,1,0.6,4.5,0.75,0.35,0.0168,0.4,245.4,2.195,0,1,-9.24,0,0,0.26,245.4,-0.8641,-0.416,0.2833,2,245.4,597.72,-109.5,34.247,-39.51,0,0,0,0,274.3,0,0,0,0,0,0,0,0,0,0,0,0,0,1,1,0,0,VALID,0,0,0,0,0,1,0,0,0,0,0,0,0,0,0,0,0,0,0,0,35.78,1239.27,2,0,0.9,0.5,29,1.09,0.9,0.88,26.68,FLYING
27.58,APPROACH,ILS_TRACK,201.3,149,-52.3,1714.2,-37.67,-6.83,2.53,274.56,11.273,0,0,-19.022,1,0.6,4.5,0.75,0.35,0.0168,0.4,245.4,2.361,0,1,-10.37,0,0,2.01,245.4,-0.8769,-0.415,0.2425,4.46,245.4,629.04,-132.6,34.044,-40.824,0,0,0,0,274.3,0,0,0,0,0,0,0,0,0,0,0,0,0,1,1,0,0,VALID,0,0,0,0,0,1,0,0,0,0,0,0,0,0,0,0,0,0,0,0,25.74,1240.21,2,0,0.96,0.5,30,1.06,0.96,0.9,27.62,FLYING
28.48,APPROACH,ILS_TRACK,201.11,149,-52.11,1680.32,-38.56,-4.62,5.12,275.15,11.092,0,0,-18.927,1,0.6,4.5,0.75,0.35,0.0168,0.4,245.4,2.529,0,1,-10.85,0,0,4.48,245.4,-0.8899,-0.4129,0.194,7.36,245.4,658.92,-156.12,33.851,-41.297,0,0,0,0,274.3,0,0,0,0,0,0,0,0,0,0,0,0,0,1,1,0,0,VALID,0,0,0,0,0,1,0,0,0,0,0,0,0,0,0,0,0,0,0,0,18.77,1241.04,2,0,0.9,0.5,31,1.11,0.96,0.9,28.52,FLYING
29.38,APPROACH,ILS_TRACK,200.52,149,-51.52,1646.62,-37.72,-2.39,7.92,275.75,10.868,0,0,-18.832,1,0.6,4.5,0.75,0.35,0.0168,0.4,245.4,2.699,0,1,-10.84,0,0,7.38,245.4,-0.9,-0.4099,0.1485,10.06,245.4,689.14,-179.97,33.659,-42.674,0,0,0,0,274.3,0,0,0,0,0,0,0,0,0,0,0,0,0,1,1,0,0,VALID,0,0,0,0,0,1,0,0,0,0,0,0,0,0,0,0,0,0,0,0,13.67,1239.93,2,0,0.9,0.5,32,1.11,0.9,0.9,29.42,FLYING
30.28,APPROACH,ILS_TRACK,199.1,149,-50.1,1615.03,-34.42,1.17,10.87,276.6,10.58,0,0,-18.738,1,0.6,4.5,0.75,0.35,0.0168,0.4,245.4,2.86,0,1,-10.22,0,0,10.07,245.4,-0.9094,-0.4052,0.094,13.25,245.4,720.02,-202.16,33.467,-44.238,0,0,0,0,274.3,0,0,0,0,0,0,0,0,0,0,0,0,0,1,1,0,0,VALID,0,0,0,0,0,1,0,0,0,0,0,0,0,0,0,0,0,0,0,0,9.93,1234.53,2,0,0.9,0.5,33,1.11,0.9,0.9,30.32,FLYING
31.18,APPROACH,ILS_TRACK,196.44,149,-47.44,1587.31,-29.28,4.57,13.11,277.41,10.257,0,0,-18.645,1,0.6,4.5,0.75,0.35,0.0168,0.4,245.4,3.003,0,1,-9,0,0,13.27,245.4,-0.9145,-0.401,0.0542,15.58,245.4,751.85,-220.97,33.277,-45.993,0,0,0,0,274.3,0,0,0,0,0,0,0,0,0,0,0,0,0,1,1,0,0,VALID,0,0,0,0,0,1,0,0,0,0,0,0,0,0,0,0,0,0,0,0,7.17,1222.78,2,0,0.9,0.5,34,1.11,0.9,0.9,31.22,FLYING
32.08,APPROACH,ILS_TRACK,192.46,149,-43.46,1565.06,-22.43,8.51,15.1,278.3,9.891,0.2,0,-20,1,0.6,4.5,0.784,0.35,0.0168,0.4,245.4,3.12,0,1,-7.34,0,0,15.59,245.4,-0.9182,-0.3959,0.0127,18,245.4,784.75,-234.68,33.09,-47.835,0,0,0,0,274.3,0,0,0,0,0,0,0,0,0,0,0,0,0,1,1,0,0,VALID,0,0,0,0,0,1,0,0,0,0,0,0,0,0,0,0,0,0,0,0,5.15,1203.8,2,0,0.9,0.5,35,1.11,0.9,0.9,32.12,FLYING
33,APPROACH,ILS_TRACK,187.88,149,-38.88,1548.2,-15.59,10.65,14.93,278.83,9.523,0.4,0,-20,1,0.6,4.5,0.784,0.35,0.0168,0.4,245.4,3.21,0,1,-5.38,0,0,18.01,245.4,-0.9184,-0.3955,0.01,18.17,245.4,819.49,-243.02,32.903,-50.153,0,0,0,0,274.3,0,0,0,0,0,0,0,0,0,0,0,0,0,1,1,0,0,VALID,0,0,0,0,0,1,0,0,0,0,0,0,0,0,0,0,0,0,0,0,43.24,1182.73,2,0,0.92,0.5,36,1.09,0.92,0.9,33.04,FLYING
33.9,APPROACH,ILS_TRACK,183.84,149,-34.84,1537.47,-9.68,12.34,15.33,279.25,9.177,0.6,0,-20,1,0.6,4.5,0.784,0.35,0.0168,0.4,245.4,3.269,0,1,-3.64,0,0,18.18,245.4,-0.9187,-0.3948,0.0054,18.45,245.4,854.41,-245.58,32.723,-51.634,0,0,0,0,274.3,0,0,0,0,0,0,0,0,0,0,0,0,0,1,1,0,0,VALID,0,0,0,0,0,1,0,0,0,0,0,0,0,0,0,0,0,0,0,0,111.59,1163.73,2,0,0.9,0.5,37,1.11,0.92,0.9,33.94,FLYING
34.8,APPROACH,ILS_TRACK,180.13,149,-31.13,1532.23,-3.68,14.8,16.21,279.81,8.836,0.8,0,-20,1,0.6,4.5,0.784,0.35,0.0168,0.4,245.4,3.301,0,1,-1.84,0,0,18.46,245.4,-0.9196,-0.3927,-0.0098,19.35,245.4,890.14,-242.81,32.547,-53.472,0,0,0,0,274.3,0,0,0,0,0,0,0,0,0,0,0,0,0,1,1,0,0,VALID,0,0,0,0,0,1,0,0,0,0,0,0,0,0,0,0,0,0,0,0,204.55,1146.27,2,0,0.9,0.5,38,1.11,0.9,0.9,34.84,FLYING
35.7,APPROACH,ILS_TRACK,176.79,149,-27.79,1532.46,2.63,17.42,16.85,280.37,8.48,1,0,-20,1,0.6,4.5,0.784,0.35,0.0168,0.4,245.4,3.305,0,1,0.11,0,0,19.36,245.4,-0.9202,-0.3907,-0.0235,20.15,245.4,926.69,-234.74,32.375,-55.344,0,0,0,0,274.3,0,0,0,0,0,0,0,0,0,0,0,0,0,1,1,0,0,VALID,0,0,0,0,0,1,0,0,0,0,0,0,0,0,0,0,0,0,0,0,316.97,1130.5,2,0,0.9,0.5,39,1.11,0.9,0.9,35.74,FLYING
36.6,APPROACH,ILS_TRACK,174.23,149,-25.23,1538.2,8.88,19.43,16.86,280.79,8.16,1,0,-20,1,0.6,4.5,0.784,0.35,0.0168,0.4,245.4,3.282,0,1,2.17,0,0,20.16,245.4,-0.9203,-0.3905,-0.0243,20.21,245.4,964.07,-221.34,32.205,-57.252,0,0,0,0,274.3,0,0,0,0,0,0,0,0,0,0,0,0,0,1,1,0,0,VALID,0,0,0,0,0,1,0,0,0,0,0,0,0,0,0,0,0,0,0,0,445.57,1118.16,2,0,0.9,0.5,40,1.11,0.9,0.9,36.64,FLYING
37.5,APPROACH,ILS_TRACK,172.69,149,-23.69,1549.25,14.99,20.72,15.91,281.05,7.846,1,0,-20,1,0.6,4.5,0.784,0.35,0.0168,0.4,245.4,3.232,0,1,4.23,0,0,20.22,245.4,-0.9197,-0.3924,-0.0109,19.45,245.4,1002.31,-202.68,32.038,-59.213,0,0,0,0,274.3,0,0,0,0,0,0,0,0,0,0,0,0,0,1,1,0,0,VALID,0,0,0,0,0,1,0,0,0,0,0,0,0,0,0,0,0,0,0,0,552.69,1110.4,2,0,0.9,0.5,41,1.11,0.9,0.9,37.54,FLYING
38.4,APPROACH,ILS_TRACK,172.49,149,-23.49,1565.01,20.04,20.52,14.12,281.02,7.553,0.8752,0,-20,1,0.6,4.5,0.784,0.35,0.0168,0.4,245.4,3.158,0,1,6.02,0,0,19.46,245.4,-0.9177,-0.3967,0.0217,17.57,245.4,1041.45,-179.24,31.872,-61.225,0,0,0,0,274.3,0,0,0,0,0,0,0,0,0,0,0,0,0,1,1,0,0,VALID,0,0,0,0,0,1,0,0,0,0,0,0,0,0,0,0,0,0,0,0,643.62,1108.59,2,0,0.9,0.5,42,1.11,0.9,0.9,38.44,FLYING
39.3,APPROACH,ILS_TRACK,173.61,149,-24.61,1584.5,23.93,19.41,11.53,280.83,7.274,0.6752,0,-20,1,0.6,4.5,0.784,0.35,0.0168,0.4,245.4,3.064,0,1,7.42,0,0,17.59,245.4,-0.9133,-0.4019,0.0659,15.03,245.4,1081.49,-151.8,31.707,-63.28,0,0,0,0,274.3,0,0,0,0,0,0,0,0,0,0,0,0,0,1,1,0,0,VALID,0,0,0,0,0,1,0,0,0,0,0,0,0,0,0,0,0,0,0,0,700.5,1112.72,2,0,0.9,0.5,43,1.11,0.9,0.9,39.34,FLYING
40.2,APPROACH,ILS_TRACK,175.91,149,-26.91,1606.43,26.08,17.38,8.55,280.5,7.021,0.4752,0,-19.9,1,0.6,4.5,0.784,0.35,0.0168,0.4,245.4,2.956,0,1,8.24,0,0,15.04,245.4,-0.9057,-0.4071,0.1181,12,245.4,1122.42,-121.54,31.54,-65.366,0,0,0,0,274.3,0,0,0,0,0,0,0,0,0,0,0,0,0,1,1,0,0,VALID,0,0,0,0,0,1,0,0,0,0,0,0,0,0,0,0,0,0,0,0,715.62,1122.25,2,0,0.9,0.5,44,1.11,0.9,0.9,40.24,FLYING
41.1,APPROACH,ILS_TRACK,178.99,149,-29.99,1628.97,25.69,13.77,5.2,279.96,6.812,0.2752,0,-19.8,1,0.6,4.5,0.784,0.35,0.0168,0.4,245.4,2.843,0,1,8.35,0,0,12.01,245.4,-0.8928,-0.4119,0.1825,8.24,245.4,1164.18,-90.15,31.371,-67.444,0,0,0,0,274.3,0,0,0,0,0,0,0,0,0,0,0,0,0,1,1,0,0,VALID,0,0,0,0,0,1,0,0,0,0,0,0,0,0,0,0,0,0,0,0,675.11,1135.56,2,0,0.9,0.5,45,1.11,0.9,0.9,41.14,FLYING
41.98,APPROACH,ILS_TRACK,182.22,149,-33.22,1649.84,22.63,9.64,1.64,279.39,6.673,0.0752,0,-19.701,1,0.6,4.5,0.784,0.35,0.0168,0.4,245.4,-7,0,1,7.64,0,0,8.25,245.4,-0.8154,-0.4146,0.404,-5.22,245.4,1206.5,-59.67,31.198,-69.423,-30.867,0,0,0,274.3,0,0,0,0,0,0,0,0,0,0,0,0,0,1,1,0,0,VALID,0,0,0,0,0,1,0,0,0,0,0,0,0,0,0,0,0,0,0,0,585.22,1149.76,2,0,0.9,0.5,46,1.11,0.9,0.9,42.04,FLYING
42.9,APPROACH,ILS_TRACK,185.09,149,-36.09,1665.36,16.08,3.71,-5.92,278.62,6.598,0,0,-19.603,1,0.6,4.5,0.753,0.35,0.0168,0.4,245.4,-7,0,1,6.19,0,0,-5.21,245.4,-0.7669,-0.4086,0.4949,-11.13,245.4,1249.96,-32.95,31.019,-71.729,-32.874,0,0,0,274.3,0,0,0,0,0,0,0,0,0,0,0,0,0,2,2,0,0,VALID,0,0,0,0,0,1,0,0,0,0,0,0,0,0,0,0,0,0,0,0,453.67,1162.5,2,0,0.9,0.5,47,1.09,0.9,0.9,42.96,FLYING
43.86,APPROACH,ILS_TRACK,186.41,149,-37.41,1670.37,-0.03,-8.9,-12.15,277.2,6.703,0,0,-19.505,1,0.6,4.5,0.75,0.35,0.0168,0.4,245.4,-7,0,1,1.82,0,0,-11.11,245.4,-0.6935,-0.3948,0.6027,-18.63,245.4,1293.83,-15.3,30.831,-73.684,-23.646,0,0,0,274.3,0,0,0,0,0,0,0,0,0,0,0,0,0,2,2,0,0,VALID,0,0,0,0,0,1,0,0,0,0,0,0,0,0,0,0,0,0,0,0,327.76,1168.23,2,0,0.96,0.5,48,1.06,0.96,0.9,43.9,FLYING
44.74,APPROACH,ILS_TRACK,186.19,149,-37.19,1660.27,-17.95,-17.21,-15.29,276.24,6.824,0,0,-19.407,1,0.6,4.5,0.75,0.35,0.0168,0.4,245.4,-3.362,0,1,-3.43,0,0,-18.62,245.4,-0.6959,-0.3954,0.5995,-18.38,245.4,1333.48,-12.69,30.655,-73.168,-0.362,0,0,0,274.3,0,0,0,0,0,0,0,0,0,0,0,0,0,2,2,0,0,VALID,0,0,0,0,0,1,0,0,0,0,0,0,0,0,0,0,0,0,0,0,240.46,1167.34,2,0,0.88,0.5,49,1.14,0.96,0.88,44.78,FLYING
45.64,APPROACH,ILS_TRACK,185.38,149,-36.38,1634.15,-36.55,-23.1,-14.98,275.49,6.982,0,0,-19.31,1,0.6,4.5,0.75,0.35,0.0168,0.4,245.4,0,0,1,-9.2,0,0,-18.37,245.4,-0.7277,-0.4019,0.5558,-15.25,245.4,1371.99,-25.88,30.476,-74.134,28.858,0,0,0,274.3,0,0,0,0,0,0,0,0,0,0,0,0,0,2,2,0,0,VALID,0,0,0,0,0,1,0,0,0,0,0,0,0,0,0,0,0,0,0,0,174.87,1164.57,2,0,0.9,0.5,50,1.11,0.9,0.88,45.68,FLYING
46.54,APPROACH,ILS_TRACK,185.36,149,-36.36,1593.38,-52.54,-25.23,-11.3,275.16,7.127,0,0,-19.214,1,0.6,4.5,0.75,0.35,0.0168,0.4,245.4,0,0,1,-14.32,0,0,-15.24,245.4,-0.7581,-0.4074,0.5092,-12.03,245.4,1408.25,-54.37,30.301,-74.459,61.902,0,0,0,274.3,0,0,0,0,0,0,0,0,0,0,0,0,0,2,2,0,0,VALID,0,0,0,0,0,1,0,0,0,0,0,0,0,0,0,0,0,0,0,0,127.67,1166.55,2,0,0.9,0.5,51,1.11,0.9,0.9,46.58,FLYING
47.42,APPROACH,ILS_TRACK,186.78,149,-37.78,1541.93,-64.38,-24.36,-6.18,275.25,7.216,0,0,-19.118,1,0.6,4.5,0.75,0.35,0.0168,0.4,245.4,3.199,0,1,-18.03,0,0,-12.02,245.4,-0.8242,-0.4154,0.385,-3.94,245.4,1441.87,-94.64,30.132,-74.484,0,0,0,0,274.3,0,0,0,0,0,0,0,0,0,0,0,0,0,2,2,0,0,VALID,0,0,0,0,0,1,0,0,0,0,0,0,0,0,0,0,0,0,0,0,94.5,1176.29,2,0,0.88,0.5,52,1.14,0.9,0.88,47.46,FLYING
48.34,APPROACH,ILS_TRACK,189.02,149,-40.02,1480.09,-71.81,-21.11,1.03,275.68,7.236,0,0,-19.022,1,0.6,4.5,0.75,0.35,0.0168,0.4,245.4,3.502,0,1,-20.38,0,0,-3.93,245.4,-0.8672,-0.4157,0.2741,2.89,245.4,1475.64,-144.64,29.957,-75.913,0,0,0,0,274.3,0,0,0,0,0,0,0,0,0,0,0,0,0,1,1,0,0,VALID,0,0,0,0,0,1,0,0,0,0,0,0,0,0,0,0,0,0,0,0,69.25,1190.86,2,0,0.9,0.5,53,1.09,0.9,0.88,48.38,FLYING
49.3,APPROACH,ILS_TRACK,190.88,149,-41.88,1412.74,-71.8,-13.24,8.92,276.75,7.087,0,0,-18.927,1,0.6,4.5,0.75,0.35,0.0168,0.4,245.4,3.839,0,1,-20.89,0,0,2.91,245.4,-0.9042,-0.4075,0.1276,11.59,245.4,1510.21,-202.24,29.774,-77.69,0,0,0,0,274.3,0,0,0,0,0,0,0,0,0,0,0,0,0,2,2,0,0,VALID,0,0,0,0,0,1,0,0,0,0,0,0,0,0,0,0,0,0,0,0,49.99,1204.08,2,0,0.96,0.5,54,1.04,0.96,0.9,49.34,FLYING
50.24,APPROACH,ILS_TRACK,190.54,149,-41.54,1348.51,-66.65,-8.1,10.69,277.45,6.784,0,0,-18.832,1,0.6,4.5,0.75,0.35,0.0168,0.4,245.4,4.163,0,1,-19.73,0,0,11.6,245.4,-0.9129,-0.4019,0.071,14.9,245.4,1544.44,-259.11,29.594,-78.892,0,0,0,0,274.3,0,0,0,0,0,0,0,0,0,0,0,0,0,2,2,0,0,VALID,0,0,0,0,0,1,0,0,0,0,0,0,0,0,0,0,0,0,0,0,36,1206.32,2,0,0.96,0.5,55,1.06,0.96,0.96,50.28,FLYING
51.12,APPROACH,ILS_TRACK,189.53,149,-40.53,1292.31,-61.97,-6.99,10.65,277.56,6.508,0,0,-18.738,1,0.6,4.5,0.75,0.35,0.0168,0.4,245.4,4.448,0,1,-18.53,0,0,14.91,245.4,-0.9133,-0.4016,0.0682,15.07,245.4,1577.05,-307.45,29.426,-79.388,0,0,0,0,274.3,0,0,0,0,0,0,0,0,0,0,0,0,0,2,2,0,0,VALID,0,0,0,0,0,1,0,0,0,0,0,0,0,0,0,0,0,0,0,0,26.4,1204.77,2,0,0.88,0.5,56,1.14,0.96,0.88,51.16,FLYING
52.02,APPROACH,ILS_TRACK,188.15,149,-39.15,1239.23,-57.16,-5.47,11.16,277.72,6.221,0,0,-18.645,1,0.6,4.5,0.75,0.35,0.0168,0.4,245.4,4.718,0,1,-17.34,0,0,15.09,245.4,-0.9146,-0.4003,0.0571,15.73,245.4,1610.83,-352.53,29.255,-81.322,0,0,0,0,274.3,0,0,0,0,0,0,0,0,0,0,0,0,0,2,2,0,0,VALID,0,0,0,0,0,1,0,0,0,0,0,0,0,0,0,0,0,0,0,0,19.19,1201.39,2,0,0.9,0.5,57,1.11,0.9,0.88,52.06,FLYING
52.9,APPROACH,ILS_TRACK,186.37,149,-37.37,1191.66,-52.03,-3.58,11.37,277.91,5.913,0,0,-18.551,1,0.6,4.5,0.75,0.35,0.0168,0.4,245.4,4.96,0,1,-16.07,0,0,15.74,245.4,-0.9159,-0.3988,0.045,16.45,245.4,1644.18,-392.28,29.087,-82.444,0,0,0,0,274.3,0,0,0,0,0,0,0,0,0,0,0,0,0,2,2,0,0,VALID,0,0,0,0,0,1,0,0,0,0,0,0,0,0,0,0,0,0,0,0,14.02,1195.73,2,0,0.88,0.5,58,1.14,0.9,0.88,52.94,FLYING
53.8,APPROACH,ILS_TRACK,184.41,149,-35.41,1147.24,-47.43,-2.79,11.09,277.96,5.608,0,0,-18.459,1,0.6,4.5,0.75,0.35,0.0168,0.4,245.4,5,0,1,-14.84,0,0,16.46,245.4,-0.9153,-0.3995,0.0514,16.09,245.4,1678.54,-428.76,28.918,-84.322,0,0,0,0,274.3,0,0,0,0,0,0,0,0,0,0,0,0,0,2,2,0,0,VALID,0,0,0,0,0,1,0,0,0,0,0,0,0,0,0,0,0,0,0,0,10.17,1189.14,2,0,0.9,0.5,59,1.11,0.9,0.88,53.84,FLYING
54.7,APPROACH,ILS_TRACK,182.32,149,-33.32,1106.96,-43.06,-1.56,11.31,278.05,5.311,0.0188,0,-20,1,0.6,4.5,0.75,0.35,0.0168,0.4,245.4,5,0,1,-13.7,0,0,16.1,245.4,-0.9156,-0.3992,0.049,16.24,245.4,1713.03,-461.1,28.749,-85.766,0,0,0,0,274.3,0,0,0,0,0,0,0,0,0,0,0,0,0,2,2,0,0,VALID,0,0,0,0,0,1,0,0,0,0,0,0,0,0,0,0,0,0,0,0,7.36,1181.75,2,0,0.9,0.5,60,1.11,0.9,0.9,54.74,FLYING
55.62,APPROACH,ILS_TRACK,179.99,149,-30.99,1069.76,-38.72,-0.27,11.36,278.13,5.007,0.2188,0,-20,1,0.6,4.5,0.75,0.35,0.0168,0.4,245.4,5,0,1,-12.53,0,0,16.26,245.4,-0.9157,-0.399,0.0474,16.35,245.4,1748.32,-490.2,28.578,-87.576,0,0,0,0,274.3,0,0,0,0,0,0,0,0,0,0,0,0,0,2,2,0,0,VALID,0,0,0,0,0,1,0,0,0,0,0,0,0,0,0,0,0,0,0,0,9.75,1172.94,2,0,0.92,0.5,61,1.09,0.92,0.9,55.66,FLYING
56.52,APPROACH,ILS_TRACK,177.72,149,-28.72,1037.19,-34.77,1.02,11.87,278.2,4.705,0.3759,0,-20,1,0.6,4.5,0.75,0.35,0.0168,0.4,245.4,5,0,1,-11.46,0,0,16.36,245.4,-0.9164,-0.3982,0.0415,16.71,245.4,1782.79,-514.95,28.413,-88.546,0,0,0,0,274.3,0,0,0,0,0,0,0,0,0,0,0,0,0,2,2,0,0,VALID,0,0,0,0,0,1,0,0,0,0,0,0,0,0,0,0,0,0,0,0,49.32,1164.6,2,0,0.9,0.5,62,1.11,0.92,0.9,56.56,FLYING
57.42,APPROACH,ILS_TRACK,175.51,149,-26.51,1008.5,-30.51,3.09,13.03,278.32,4.394,0.4907,0,-20,1,0.6,4.5,0.75,0.35,0.0168,0.4,245.4,5,0,1,-10.32,0,0,16.72,245.4,-0.918,-0.3959,0.0238,17.75,245.4,1817.17,-535.95,28.249,-89.878,0,0,0,0,274.3,0,0,0,0,0,0,0,0,0,0,0,0,0,2,2,0,0,VALID,0,0,0,0,0,1,0,0,0,0,0,0,0,0,0,0,0,0,0,0,112.01,1156.26,2,0,0.9,0.5,63,1.11,0.9,0.9,57.46,FLYING
58.32,APPROACH,ILS_TRACK,173.26,149,-24.26,984.13,-25.55,5.86,14.61,278.48,4.06,0.5859,0,-20,1,0.6,4.5,0.75,0.35,0.0168,0.4,245.4,5,0,1,-8.95,0,0,17.76,245.4,-0.9198,-0.3923,-0.0024,19.28,245.4,1851.46,-552.84,28.087,-91.202,0,0,0,0,274.3,0,0,0,0,0,0,0,0,0,0,0,0,0,2,2,0,0,VALID,0,0,0,0,0,1,0,0,0,0,0,0,0,0,0,0,0,0,0,0,185.34,1147.59,2,0,0.9,0.5,64,1.11,0.9,0.9,58.36,FLYING
59.22,APPROACH,ILS_TRACK,170.93,149,-21.93,964.44,-19.7,8.79,15.16,278.61,3.702,0.6771,0,-20,1,0.6,4.5,0.75,0.35,0.0168,0.4,245.4,5,0,1,-7.22,0,0,19.29,245.4,-0.9207,-0.3898,-0.0196,20.29,245.4,1885.65,-565.14,27.927,-92.522,0,0,0,0,274.3,0,0,0,0,0,0,0,0,0,0,0,0,0,2,2,0,0,VALID,0,0,0,0,0,1,0,0,0,0,0,0,0,0,0,0,0,0,0,0,263.2,1138.27,2,0,0.9,0.5,65,1.11,0.9,0.9,59.26,FLYING
60.12,APPROACH,ILS_TRACK,169.23,149,-20.23,949.46,-14.55,9.87,14.75,278.55,3.362,0.6704,0,-20,1,0.6,4.5,0.75,0.35,0.0168,0.4,245.4,5,0,1,-5.49,0,0,20.3,245.4,-0.9203,-0.3911,-0.0103,19.76,245.4,1919.74,-572.86,27.768,-93.838,0,0,0,0,274.3,0,0,0,0,0,0,0,0,0,0,0,0,0,2,2,0,0,VALID,0,0,0,0,0,1,0,0,0,0,0,0,0,0,0,0,0,0,0,0,344.57,1131.56,2,0,0.9,0.5,66,1.11,0.9,0.9,60.16,FLYING
61.02,APPROACH,ILS_TRACK,168.04,149,-19.04,939.31,-9.48,11.69,15.42,278.52,3.024,0.5857,0,-20,1,0.6,4.5,0.75,0.35,0.0168,0.4,245.4,5,0,1,-3.85,0,0,19.77,245.4,-0.9207,-0.3899,-0.0178,20.21,245.4,1953.72,-575.82,27.61,-95.136,0,0,0,0,274.3,0,0,0,0,0,0,0,0,0,0,0,0,0,2,2,0,0,VALID,0,0,0,0,0,1,0,0,0,0,0,0,0,0,0,0,0,0,0,0,411.25,1126.95,2,0,0.9,0.5,67,1.11,0.9,0.9,61.06,FLYING
61.92,APPROACH,ILS_TRACK,166.7,149,-17.7,934.27,-3.73,14.62,16.8,278.53,2.684,0.5314,0,-20,1,0.6,4.5,0.75,0.35,0.0168,0.4,245.4,5,0,1,-2.01,0,0,20.22,245.4,-0.9214,-0.3865,-0.0399,21.5,245.4,1987.54,-573.8,27.452,-96.414,0,0,0,0,274.3,0,0,0,0,0,0,0,0,0,0,0,0,0,2,2,0,0,VALID,0,0,0,0,0,1,0,0,0,0,0,0,0,0,0,0,0,0,0,0,450.42,1121.35,2,0,0.9,0.5,68,1.11,0.9,0.9,61.96,FLYING
62.82,APPROACH,ILS_TRACK,164.73,149,-15.73,934.67,2.87,18,17.48,278.53,2.293,0.5739,0,-20,1,0.6,4.5,0.75,0.35,0.0168,0.4,245.4,5,0,1,0.17,0,0,21.52,245.4,-0.9217,-0.3834,-0.0589,22.61,245.4,2021.11,-566.42,27.297,-97.628,0,0,0,0,274.3,0,0,0,0,0,0,0,0,0,0,0,0,0,2,2,0,0,VALID,0,0,0,0,0,1,0,0,0,0,0,0,0,0,0,0,0,0,0,0,470.96,1112.59,2,0,0.9,0.5,69,1.11,0.9,0.9,62.86,FLYING
63.72,APPROACH,ILS_TRACK,162.79,149,-13.79,940.43,8.75,19.45,17.04,278.37,1.902,0.6147,0,-20,1,0.6,4.5,0.75,0.35,0.0168,0.4,245.4,5,0,1,2.36,0,0,22.63,245.4,-0.9216,-0.385,-0.049,22.06,245.4,2054.29,-553.81,27.143,-98.764,0,0,0,0,274.3,0,0,0,0,0,0,0,0,0,0,0,0,0,2,2,0,0,VALID,0,0,0,0,0,1,0,0,0,0,0,0,0,0,0,0,0,0,0,0,494.44,1103.58,2,0,0.9,0.5,70,1.11,0.9,0.9,63.76,FLYING
64.62,APPROACH,ILS_TRACK,160.88,149,-11.88,951.6,14.39,21.68,17.82,278.22,1.533,0.6372,0,-20,1,0.6,4.5,0.75,0.35,0.0168,0.4,245.4,5,0,1,4.37,0,0,22.07,245.4,-0.9217,-0.3835,-0.0579,22.59,245.4,2087.01,-535.86,26.99,-99.836,0,0,0,0,274.3,0,0,0,0,0,0,0,0,0,0,0,0,0,2,2,0,0,VALID,0,0,0,0,0,1,0,0,0,0,0,0,0,0,0,0,0,0,0,0,520.31,1094.42,2,0,0.9,0.5,71,1.11,0.9,0.9,64.66,FLYING
65.52,APPROACH,ILS_TRACK,158.5,149,-9.5,968.22,20.41,24.96,19.25,278.1,1.151,0.7155,0,-20,1,0.6,4.5,0.75,0.35,0.0168,0.4,245.4,5,0,1,6.52,0,0,22.6,245.4,-0.9216,-0.3795,-0.081,23.94,245.4,2119.13,-512.6,26.84,-100.827,0,0,0,0,274.3,0,0,0,0,0,0,0,0,0,0,0,0,0,2,2,0,0,VALID,0,0,0,0,0,1,0,0,0,0,0,0,0,0,0,0,0,0,0,0,543.74,1082.93,2,0,0.9,0.5,72,1.11,0.9,0.9,65.56,FLYING
66.42,APPROACH,ILS_TRACK,155.63,149,-6.63,990.15,26.71,27.88,19.24,277.92,0.754,0.8534,0,-20,1,0.6,4.5,0.75,0.35,0.0168,0.4,245.4,5,0,1,8.93,0,0,23.95,245.4,-0.9215,-0.3784,-0.0873,24.32,245.4,2150.5,-484.1,26.693,-101.707,0,0,0,0,274.3,0,0,0,0,0,0,0,0,0,0,0,0,0,2,2,0,0,VALID,0,0,0,0,0,1,0,0,0,0,0,0,0,0,0,0,0,0,0,0,574.18,1069.03,2,0,0.9,0.5,73,1.11,0.9,0.9,66.46,FLYING
67.32,APPROACH,ILS_TRACK,153.07,149,-4.07,1017.37,32.29,29.86,19.48,277.63,0.331,0.9245,0,-20,1,0.6,4.5,0.75,0.35,0.0168,0.4,245.4,5,0,1,11.15,0,0,24.33,245.4,-0.9216,-0.3783,-0.0873,24.33,245.4,2181.03,-450.5,26.549,-102.502,0,0,0,0,274.3,0,0,0,0,0,0,0,0,0,0,0,0,0,2,2,0,0,VALID,0,0,0,0,0,1,0,0,0,0,0,0,0,0,0,0,0,0,0,0,621.99,1056.24,2,0,0.9,0.5,74,1.11,0.9,0.9,67.36,FLYING
68.22,APPROACH,ILS_TRACK,150.51,149,-1.51,1049.74,38.07,32.74,19.92,277.33,-0.085,1,0,-20,1,0.6,4.5,0.75,0.35,0.0168,0.4,245.4,5,0,1,13.39,0,0,24.34,245.4,-0.9213,-0.3763,-0.098,24.96,245.4,2210.62,-411.83,26.407,-103.224,0,0,0,0,274.3,0,0,0,0,0,0,0,0,0,0,0,0,0,2,2,0,0,VALID,0,0,0,0,0,1,0,0,0,0,0,0,0,0,0,0,0,0,0,0,671.92,1043.25,2,0,0.9,0.5,75,1.11,0.9,0.9,68.26,FLYING
69.12,APPROACH,ILS_TRACK,148.19,149,0.81,1087.07,43.58,34.93,19.99,276.93,-0.518,1,0,-19.9,1,0.6,4.5,0.75,0.35,0.0168,0.4,245.4,5,0,1,15.61,0,0,24.97,245.4,-0.9213,-0.3762,-0.0981,24.98,245.4,2239.22,-368.37,26.269,-103.865,0,0,0,0,274.3,0,0,0,0,0,0,0,0,0,0,0,0,0,2,2,0,0,VALID,0,0,0,0,0,1,0,0,0,0,0,0,0,0,0,0,0,0,0,0,724.37,1031.01,2,0,0.9,0.5,76,1.11,0.9,0.9,69.16,FLYING
70.02,APPROACH,ILS_TRACK,146.09,149,2.91,1129.28,48.95,37.09,19.99,276.47,-0.967,1,0,-19.8,1,0.6,4.5,0.75,0.35,0.0168,0.4,245.4,5,0,1,17.77,0,0,24.99,245.4,-0.9213,-0.3762,-0.0979,24.98,245.4,2266.74,-320.14,26.134,-104.432,0,0,0,0,274.3,0,0,0,0,0,0,0,0,0,0,0,0,0,2,2,0,0,VALID,0,0,0,0,0,1,0,0,0,0,0,0,0,0,0,0,0,0,0,0,766.36,1019.5,2,0,0.9,0.5,77,1.11,0.9,0.9,70.06,FLYING
70.92,APPROACH,ILS_TRACK,144.14,149,4.86,1176.22,54.17,39.25,19.93,275.92,-1.454,1,0,-19.701,1,0.6,4.5,0.75,0.35,0.0168,0.4,245.4,5,0,1,19.87,0,0,24.99,245.4,-0.9214,-0.3763,-0.0974,24.96,245.4,2293.13,-267.3,26.002,-104.918,0,0,0,0,274.3,0,0,0,0,0,0,0,0,0,0,0,0,0,2,2,0,0,VALID,0,0,0,0,0,1,0,0,0,0,0,0,0,0,0,0,0,0,0,0,799.35,1008.37,2,0,0.9,0.5,78,1.11,0.9,0.9,70.96,FLYING
71.82,APPROACH,ILS_TRACK,142.32,149,6.68,1227.63,59.25,41.05,19.32,275.31,-1.942,1,0,-19.603,1,0.6,4.5,0.75,0.35,0.0168,0.4,245.4,4.88,0,1,21.89,0,0,24.97,245.4,-0.9217,-0.3779,-0.088,24.43,245.4,2318.29,-210.08,25.872,-105.316,0,0,0,0,274.3,0,0,0,0,0,0,0,0,0,0,0,0,0,2,2,0,0,VALID,0,0,0,0,0,1,0,0,0,0,0,0,0,0,0,0,0,0,0,0,824.98,997.6,2,0,0.9,0.5,79,1.11,0.9,0.9,71.86,FLYING
72.72,APPROACH,ILS_TRACK,140.92,149,8.08,1283.05,63.76,41.63,17.59,274.67,-2.44,1,0,-19.505,1,0.6,4.5,0.75,0.35,0.0168,0.4,245.4,4.607,0,1,23.74,0,0,24.44,245.4,-0.9219,-0.3832,-0.0567,22.62,245.4,2342.18,-148.87,25.746,-105.628,0,0,0,0,274.3,0,0,0,0,0,0,0,0,0,0,0,0,0,2,2,0,0,VALID,0,0,0,0,0,1,0,0,0,0,0,0,0,0,0,0,0,0,0,0,845.54,988.34,2,0,0.9,0.5,80,1.11,0.9,0.9,72.76,FLYING
73.62,APPROACH,ILS_TRACK,140.37,149,8.63,1341.71,67.25,40.25,14.46,274.14,-2.916,1,0,-19.407,1,0.6,4.5,0.75,0.35,0.0168,0.4,245.4,4.317,0,1,25.19,0,0,22.63,245.4,-0.9199,-0.392,0.0012,19.27,245.4,2364.82,-84.37,25.622,-105.914,0,0,0,0,274.3,0,0,0,0,0,0,0,0,0,0,0,0,0,2,2,0,0,VALID,0,0,0,0,0,1,0,0,0,0,0,0,0,0,0,0,0,0,0,0,863.76,982.31,2,0,0.9,0.5,81,1.11,0.9,0.9,73.66,FLYING
74.5,APPROACH,ILS_TRACK,140.89,149,8.11,1402.54,69.46,37.21,10.17,273.74,-3.397,1,0,-19.31,1,0.6,4.5,0.75,0.35,0.0168,0.4,245.4,-7,0,1,26.09,0,0,19.28,245.4,-0.8706,-0.4152,0.2642,3.84,245.4,2386.36,-17.44,25.498,-106.223,-101.86,0,0,0,274.3,0,0,0,0,0,0,0,0,0,0,0,0,0,2,2,0,0,VALID,0,0,0,0,0,1,0,0,0,0,0,0,0,0,0,0,0,0,0,0,881.6,980.49,2,0,0.9,0.5,82,1.11,0.9,0.9,74.56,FLYING
75.42,APPROACH,ILS_TRACK,142.56,149,6.44,1462.88,69.68,30.13,-0.56,273.73,-3.807,0.8,0,-15.969,1,0.6,4.5,0.75,0.35,0.0168,0.4,245.4,-7,0,1,26.48,0,0,3.85,245.4,-0.8135,-0.4149,0.4075,-4.99,245.4,2406.97,49.96,25.374,-106.583,-122.828,0,0,0,274.3,0,0,0,0,0,0,0,0,0,0,0,0,0,2,2,0,0,VALID,0,0,0,0,0,1,0,0,0,0,0,0,0,0,0,0,0,0,0,0,900.37,983.32,2,0,0.9,0.5,83,1.11,0.9,0.9,75.46,FLYING
76.32,APPROACH,ILS_TRACK,145.32,149,3.68,1518.31,61.23,14.64,-11.36,274.41,-3.999,0.6,0,-14.019,1,0.6,4.5,0.75,0.35,0.0168,0.4,245.4,3.426,0,1,24.24,0,0,-4.98,245.4,-0.8016,-0.4139,0.4314,-6.52,245.4,2427.05,113.56,25.245,-107.127,0,0,0,0,274.3,0,0,0,0,0,0,0,0,0,0,0,0,0,2,2,0,0,VALID,0,0,0,0,0,1,0,0,0,0,0,0,0,0,0,0,0,0,0,0,877.08,990.92,2,0,0.9,0.5,84,1.11,0.9,0.9,76.36,FLYING
77.22,APPROACH,ILS_TRACK,147.28,149,1.72,1564.49,47.16,3.91,-15.02,274.77,-3.954,0.4,0,-13.081,1,0.6,4.5,0.75,0.35,0.0168,0.4,245.4,3.184,0,1,19.64,0,0,-6.5,245.4,-0.7586,-0.4085,0.5075,-11.52,245.4,2447.37,169.28,25.11,-108.051,0,0,0,0,274.3,0,0,0,0,0,0,0,0,0,0,0,0,0,2,2,0,0,VALID,0,0,0,0,0,1,0,0,0,0,0,0,0,0,0,0,0,0,0,0,805.72,996.09,2,0,0.9,0.5,85,1.11,0.9,0.9,77.26,FLYING
78.12,APPROACH,ILS_TRACK,148.85,149,0.15,1597.61,31.08,-3.5,-16.11,274.81,-3.85,0.2,0,-12.943,1,0.6,4.5,0.75,0.35,0.0168,0.4,245.4,3.005,0,1,13.96,0,0,-11.51,245.4,-0.7435,-0.4061,0.5313,-13.13,245.4,2468.08,212.92,24.968,-109.079,0,0,0,0,274.3,0,0,0,0,0,0,0,0,0,0,0,0,0,2,2,0,0,VALID,0,0,0,0,0,1,0,0,0,0,0,0,0,0,0,0,0,0,0,0,699.46,1000.51,2,0,0.9,0.5,86,1.11,0.9,0.9,78.16,FLYING
79.02,APPROACH,ILS_TRACK,150.15,149,-1.15,1616.35,14.25,-9.34,-15.49,274.72,-3.724,0,0,-12.878,1,0.6,4.5,0.75,0.35,0.0168,0.4,245.4,2.897,0,1,7.69,0,0,-13.12,245.4,-0.7452,-0.4064,0.5286,-12.94,245.4,2489.1,242.56,24.822,-110.074,0,0,0,0,274.3,0,0,0,0,0,0,0,0,0,0,0,0,0,2,2,0,0,VALID,0,0,0,0,0,1,0,0,0,0,0,0,0,0,0,0,0,0,0,0,567.55,1004.78,2,0,0.9,0.5,87,1.11,0.9,0.9,79.06,FLYING
79.92,APPROACH,ILS_TRACK,151.52,149,-2.52,1620.95,-1.58,-12.95,-13.05,274.44,-3.494,0,0,-12.813,1,0.6,4.5,0.75,0.35,0.0168,0.4,245.4,2.86,0,1,1.48,0,0,-12.93,245.4,-0.7649,-0.4095,0.4972,-10.8,245.4,2510.26,258.07,24.672,-110.992,0,0,0,0,274.3,0,0,0,0,0,0,0,0,0,0,0,0,0,2,2,0,0,VALID,0,0,0,0,0,1,0,0,0,0,0,0,0,0,0,0,0,0,0,0,417.01,1010.26,2,0,0.9,0.5,88,1.11,0.9,0.9,79.96,FLYING
80.82,APPROACH,ILS_TRACK,153.18,149,-4.18,1613.05,-15.09,-13.94,-8.6,273.97,-3.26,0,0,-12.749,1,0.6,4.5,0.75,0.35,0.0168,0.4,245.4,2.888,0,1,-3.99,0,0,-10.78,245.4,-0.8004,-0.4139,0.4337,-6.61,245.4,2531.37,260.69,24.522,-111.81,0,0,0,0,274.3,0,0,0,0,0,0,0,0,0,0,0,0,0,2,2,0,0,VALID,0,0,0,0,0,1,0,0,0,0,0,0,0,0,0,0,0,0,0,0,306.24,1017.79,2,0,0.9,0.5,89,1.11,0.9,0.9,80.86,FLYING
81.72,APPROACH,ILS_TRACK,155.22,149,-6.22,1595.3,-25.18,-12.13,-2.34,273.36,-3.107,0,0,-12.686,1,0.6,4.5,0.75,0.35,0.0168,0.4,245.4,2.968,0,1,-8.18,0,0,-6.59,245.4,-0.8438,-0.4163,0.3386,-0.6,245.4,2552.2,252.79,24.37,-112.502,0,0,0,0,274.3,0,0,0,0,0,0,0,0,0,0,0,0,0,2,2,0,0,VALID,0,0,0,0,0,1,0,0,0,0,0,0,0,0,0,0,0,0,0,0,225.42,1027.74,2,0,0.9,0.5,90,1.11,0.9,0.9,81.76,FLYING
82.62,APPROACH,ILS_TRACK,157.14,149,-8.14,1571.19,-30.73,-7.84,4.65,272.63,-3.069,0,0,-12.622,1,0.6,4.5,0.75,0.35,0.0168,0.4,245.4,3.084,0,1,-10.63,0,0,-0.59,245.4,-0.8823,-0.4134,0.2249,6.3,245.4,2572.44,237.73,24.217,-113.015,0,0,0,0,274.3,0,0,0,0,0,0,0,0,0,0,0,0,0,2,2,0,0,VALID,0,0,0,0,0,1,0,0,0,0,0,0,0,0,0,0,0,0,0,0,165.92,1037.66,2,0,0.9,0.5,91,1.11,0.9,0.9,82.66,FLYING
83.52,APPROACH,ILS_TRACK,157.92,149,-8.92,1544.56,-31.53,-1.73,10.93,271.92,-3.174,0,0,-12.559,1,0.6,4.5,0.75,0.35,0.0168,0.4,245.4,3.216,0,1,-11.39,0,0,6.31,245.4,-0.9078,-0.4047,0.1098,13.08,245.4,2591.81,219.43,24.063,-113.359,0,0,0,0,274.3,0,0,0,0,0,0,0,0,0,0,0,0,0,2,2,0,0,VALID,0,0,0,0,0,1,0,0,0,0,0,0,0,0,0,0,0,0,0,0,121.57,1042.78,2,0,0.9,0.5,92,1.11,0.9,0.9,83.56,FLYING
84.42,APPROACH,ILS_TRACK,156.98,149,-7.98,1518.1,-29.28,2.87,13.91,271.32,-3.401,0,0,-12.496,1,0.6,4.5,0.75,0.35,0.0168,0.4,245.4,3.349,0,1,-10.9,0,0,13.1,245.4,-0.9167,-0.3973,0.0437,16.95,245.4,2610.12,200.81,23.91,-113.56,0,0,0,0,274.3,0,0,0,0,0,0,0,0,0,0,0,0,0,2,2,0,0,VALID,0,0,0,0,0,1,0,0,0,0,0,0,0,0,0,0,0,0,0,0,88.43,1040.32,2,0,0.9,0.5,93,1.11,0.9,0.9,84.46,FLYING
85.32,APPROACH,ILS_TRACK,155.21,149,-6.21,1493.04,-26.84,4.09,13.51,270.84,-3.669,0,0,-12.434,1,0.6,4.5,0.75,0.35,0.0168,0.4,245.4,3.476,0,1,-10.04,0,0,16.96,245.4,-0.9169,-0.397,0.0419,17.06,245.4,2627.19,183.36,23.757,-113.62,0,0,0,0,274.3,0,0,0,0,0,0,0,0,0,0,0,0,0,2,2,0,0,VALID,0,0,0,0,0,1,0,0,0,0,0,0,0,0,0,0,0,0,0,0,64.07,1034.05,2,0,0.9,0.5,94,1.11,0.9,0.9,85.36,FLYING
86.22,APPROACH,ILS_TRACK,153.31,149,-4.31,1469.95,-24.96,4.46,13.63,270.38,-3.924,0,0,-12.372,1,0.6,4.5,0.75,0.35,0.0168,0.4,245.4,3.593,0,1,-9.44,0,0,17.08,245.4,-0.917,-0.3968,0.0408,17.14,245.4,2642.98,167.76,23.606,-113.615,0,0,0,0,274.3,0,0,0,0,0,0,0,0,0,0,0,0,0,2,2,0,0,VALID,0,0,0,0,0,1,0,0,0,0,0,0,0,0,0,0,0,0,0,0,46.4,1027.23,2,0,0.9,0.5,95,1.11,0.9,0.9,86.26,FLYING
87.12,APPROACH,ILS_TRACK,151.17,149,-2.17,1448.68,-23.1,5.47,14.3,269.87,-4.182,0,0,-12.31,1,0.6,4.5,0.75,0.35,0.0168,0.4,245.4,3.701,0,1,-8.89,0,0,17.15,245.4,-0.9181,-0.3953,0.0291,17.83,245.4,2657.49,153.91,23.457,-113.555,0,0,0,0,274.3,0,0,0,0,0,0,0,0,0,0,0,0,0,2,2,0,0,VALID,0,0,0,0,0,1,0,0,0,0,0,0,0,0,0,0,0,0,0,0,33.57,1019.33,2,0,0.9,0.5,96,1.11,0.9,0.9,87.16,FLYING
88.02,APPROACH,ILS_TRACK,148.73,149,0.27,1429.01,-21.07,6.63,14.39,269.35,-4.458,0.2,0,-12.285,1,0.6,4.5,0.75,0.35,0.0168,0.4,245.4,3.801,0,1,-8.27,0,0,17.84,245.4,-0.9189,-0.3941,0.0203,18.35,245.4,2670.69,141.66,23.31,-113.429,0,0,0,0,274.3,0,0,0,0,0,0,0,0,0,0,0,0,0,2,2,0,0,VALID,0,0,0,0,0,1,0,0,0,0,0,0,0,0,0,0,0,0,0,0,24.08,1009.99,2,0,0.9,0.5,97,1.11,0.9,0.9,88.06,FLYING
88.92,APPROACH,ILS_TRACK,146.5,149,2.5,1410.62,-19.8,6.33,13.83,268.89,-4.727,0.4,0,-11.124,1,0.6,4.5,0.75,0.35,0.0168,0.4,245.4,3.894,0,1,-7.81,0,0,18.36,245.4,-0.918,-0.3954,0.0304,17.78,245.4,2682.58,130.58,23.165,-113.248,0,0,0,0,274.3,0,0,0,0,0,0,0,0,0,0,0,0,0,2,2,0,0,VALID,0,0,0,0,0,1,0,0,0,0,0,0,0,0,0,0,0,0,0,0,52.43,1001.95,2,0,0.9,0.5,98,1.11,0.9,0.9,88.96,FLYING
89.82,APPROACH,ILS_TRACK,144.74,149,4.26,1393.38,-18.87,6.55,14.11,268.38,-4.998,0.6,0,-11.068,1,0.6,4.5,0.75,0.35,0.0168,0.4,245.4,3.982,0,1,-7.53,0,0,17.79,245.4,-0.9183,-0.3949,0.0275,17.96,245.4,2693.19,120.61,23.021,-113.034,0,0,0,0,274.3,0,0,0,0,0,0,0,0,0,0,0,0,0,2,2,0,0,VALID,0,0,0,0,0,1,0,0,0,0,0,0,0,0,0,0,0,0,0,0,108.57,995.73,2,0,0.9,0.5,99,1.11,0.9,0.9,89.86,FLYING
90.72,APPROACH,ILS_TRACK,143.42,149,5.58,1377.32,-17.74,7.69,15.32,267.77,-5.281,0.8,0,-11.013,1,0.6,4.5,0.75,0.35,0.0168,0.4,245.4,4.063,0,1,-7.22,0,0,17.98,245.4,-0.9198,-0.3924,0.0088,19.06,245.4,2702.54,111.7,22.88,-112.775,0,0,0,0,274.3,0,0,0,0,0,0,0,0,0,0,0,0,0,2,2,0,0,VALID,0,0,0,0,0,1,0,0,0,0,0,0,0,0,0,0,0,0,0,0,187.75,991.34,2,0,0.9,0.5,100,1.11,0.9,0.9,90.76,FLYING
91.62,APPROACH,ILS_TRACK,142.41,149,6.59,1362.83,-15.82,9.8,16.96,267.03,-5.596,1,0,-10.958,1,0.6,4.5,0.75,0.35,0.0168,0.4,245.4,4.137,0,1,-6.63,0,0,19.07,245.4,-0.9214,-0.388,-0.0205,20.77,245.4,2710.55,104.2,22.739,-112.426,0,0,0,0,274.3,0,0,0,0,0,0,0,0,0,0,0,0,0,2,2,0,0,VALID,0,0,0,0,0,1,0,0,0,0,0,0,0,0,0,0,0,0,0,0,286.07,988.17,2,0,0.9,0.5,101,1.11,0.9,0.9,91.66,FLYING
92.52,APPROACH,ILS_TRACK,141.69,149,7.31,1350.54,-13.08,12.27,18.64,266.2,-5.965,1,0,-10.903,1,0.6,4.5,0.75,0.35,0.0168,0.4,245.4,4.201,0,1,-5.7,0,0,20.78,245.4,-0.9223,-0.3833,-0.0499,22.49,245.4,2717.11,98.69,22.599,-111.963,0,0,0,0,274.3,0,0,0,0,0,0,0,0,0,0,0,0,0,2,2,0,0,VALID,0,0,0,0,0,1,0,0,0,0,0,0,0,0,0,0,0,0,0,0,400.44,986.12,2,0,0.9,0.5,102,1.11,0.9,0.9,92.56,FLYING
93.42,APPROACH,ILS_TRACK,141.14,149,7.86,1341.17,-9.27,15.16,19.97,265.24,-6.373,1,0,-10.849,1,0.6,4.5,0.75,0.35,0.0168,0.4,245.4,4.251,0,1,-4.35,0,0,22.5,245.4,-0.9223,-0.3785,-0.078,24.13,245.4,2722.05,95.97,22.459,-111.354,0,0,0,0,274.3,0,0,0,0,0,0,0,0,0,0,0,0,0,2,2,0,0,VALID,0,0,0,0,0,1,0,0,0,0,0,0,0,0,0,0,0,0,0,0,496.32,984.57,2,0,0.9,0.5,103,1.11,0.9,0.9,93.46,FLYING
94.34,APPROACH,ILS_TRACK,140.91,149,8.09,1335,-5.13,16.8,19.92,264.29,-6.841,1,0,-6.804,1,0.6,4.5,0.75,0.35,0.0168,0.4,245.4,4.286,0,1,-2.66,0,0,24.15,245.4,-0.9223,-0.3783,-0.0788,24.19,245.4,2725.25,96.47,22.316,-110.61,0,0,0,0,274.3,0,0,0,0,0,0,0,0,0,0,0,0,0,2,2,0,0,VALID,0,0,0,0,0,1,0,0,0,0,0,0,0,0,0,0,0,0,0,0,578.23,984.09,2,0,0.92,0.5,104,1.09,0.92,0.9,94.38,FLYING
95.24,APPROACH,ILS_TRACK,141.09,149,7.91,1332.78,-0.85,18.32,19.98,263.28,-7.346,0.979,0,-2.836,1,0.6,4.5,0.75,0.35,0.0168,0.4,245.4,4.301,0,1,-0.97,0,0,24.2,245.4,-0.9223,-0.378,-0.0802,24.29,245.4,2726.43,100.71,22.177,-109.648,0,0,0,0,274.3,0,0,0,0,0,0,0,0,0,0,0,0,0,2,2,0,0,VALID,0,0,0,0,0,1,0,0,0,0,0,0,0,0,0,0,0,0,0,0,645.8,985.01,2,0,0.9,0.5,105,1.11,0.92,0.9,95.28,FLYING
96.14,APPROACH,ILS_TRACK,141.51,149,7.49,1334.5,3.64,19.89,19.99,262.2,-7.867,0.863,0,0.929,1,0.6,4.5,0.75,0.35,0.0168,0.4,245.4,4.296,0,1,0.82,0,0,24.3,245.4,-0.9223,-0.378,-0.0799,24.28,245.4,2725.54,108.88,22.037,-108.575,0,0,0,0,274.3,0,0,0,0,0,0,0,0,0,0,0,0,0,2,2,0,0,VALID,0,0,0,0,0,1,0,0,0,0,0,0,0,0,0,0,0,0,0,0,699.61,986.68,2,0,0.9,0.5,106,1.11,0.9,0.9,96.18,FLYING
97.04,APPROACH,ILS_TRACK,142,149,7,1340.36,8.32,21.48,19.99,261.04,-8.437,0.7549,0,4.448,1,0.6,4.5,0.75,0.35,0.0168,0.4,245.4,4.271,0,1,2.67,0,0,24.29,245.4,-0.9224,-0.3781,-0.0792,24.25,245.4,2722.42,121.16,21.896,-107.334,0,0,0,0,274.3,0,0,0,0,0,0,0,0,0,0,0,0,0,2,2,0,0,VALID,0,0,0,0,0,1,0,0,0,0,0,0,0,0,0,0,0,0,0,0,726.3,988.35,2,0,0.9,0.5,107,1.11,0.9,0.9,97.08,FLYING
97.94,APPROACH,ILS_TRACK,142.32,149,6.68,1350.48,13.1,23.1,19.96,259.8,-9.037,0.7005,0,7.794,1,0.6,4.5,0.75,0.35,0.0168,0.4,245.4,4.225,0,1,4.57,0,0,24.26,245.4,-0.9224,-0.3783,-0.0781,24.2,245.4,2716.93,137.69,21.756,-105.936,0,0,0,0,274.3,0,0,0,0,0,0,0,0,0,0,0,0,0,2,2,0,0,VALID,0,0,0,0,0,1,0,0,0,0,0,0,0,0,0,0,0,0,0,0,730.48,989.09,2,0,0.9,0.5,108,1.11,0.9,0.9,97.98,FLYING
98.84,APPROACH,ILS_TRACK,142.32,149,6.68,1364.89,17.85,24.79,19.98,258.48,-9.666,0.73,0,11.124,1,0.6,4.5,0.75,0.35,0.0168,0.4,245.4,4.157,0,1,6.47,0,0,24.22,245.4,-0.9224,-0.3785,-0.0768,24.14,245.4,2708.97,158.51,21.615,-104.379,0,0,0,0,274.3,0,0,0,0,0,0,0,0,0,0,0,0,0,2,2,0,0,VALID,0,0,0,0,0,1,0,0,0,0,0,0,0,0,0,0,0,0,0,0,719.95,988.25,2,0,0.9,0.5,109,1.11,0.9,0.9,98.88,FLYING
99.74,APPROACH,ILS_TRACK,141.99,149,7.01,1383.54,22.5,26.42,19.99,257.09,-10.324,0.8378,0,14.609,1,0.6,4.5,0.75,0.35,0.0168,0.4,245.4,4.068,0,1,8.35,0,0,24.15,245.4,-0.9225,-0.3788,-0.0749,24.04,245.4,2698.47,183.54,21.476,-102.686,0,0,0,0,274.3,0,0,0,0,0,0,0,0,0,0,0,0,0,2,2,0,0,VALID,0,0,0,0,0,1,0,0,0,0,0,0,0,0,0,0,0,0,0,0,718.25,985.79,2,0,0.9,0.5,110,1.11,0.9,0.9,99.78,FLYING
100.64,APPROACH,ILS_TRACK,141.45,149,7.55,1406.31,27.08,28.03,19.97,255.62,-11.005,0.9907,0,18.357,1,0.6,4.5,0.75,0.35,0.0168,0.4,245.4,3.958,0,1,10.19,0,0,24.05,245.4,-0.9225,-0.3791,-0.073,23.95,245.4,2685.36,212.68,21.337,-100.858,0,0,0,0,274.3,0,0,0,0,0,0,0,0,0,0,0,0,0,2,2,0,0,VALID,0,0,0,0,0,1,0,0,0,0,0,0,0,0,0,0,0,0,0,0,733.03,982.22,2,0,0.9,0.5,111,1.11,0.9,0.9,100.68,FLYING
101.54,APPROACH,ILS_TRACK,140.88,149,8.12,1433.16,31.62,29.63,19.96,254.05,-11.717,1,0,18.266,1,0.6,4.5,0.75,0.35,0.0168,0.4,245.4,3.828,0,1,12,0,0,23.96,245.4,-0.9225,-0.3795,-0.0704,23.81,245.4,2669.55,245.83,21.199,-98.879,0,0,0,0,274.3,0,0,0,0,0,0,0,0,0,0,0,0,0,2,2,0,0,VALID,0,0,0,0,0,1,0,0,0,0,0,0,0,0,0,0,0,0,0,0,769.06,978.28,2,0,0.9,0.5,112,1.11,0.9,0.9,101.58,FLYING
102.44,APPROACH,ILS_TRACK,140.37,149,8.63,1464.09,36.14,31.21,19.98,252.37,-12.488,1,0,18.174,1,0.6,4.5,0.75,0.35,0.0168,0.4,245.4,3.677,0,1,13.8,0,0,23.82,245.4,-0.9225,-0.38,-0.0675,23.65,245.4,2650.94,282.97,21.064,-96.734,0,0,0,0,274.3,0,0,0,0,0,0,0,0,0,0,0,0,0,2,2,0,0,VALID,0,0,0,0,0,1,0,0,0,0,0,0,0,0,0,0,0,0,0,0,800.38,974.4,2,0,0.9,0.5,113,1.11,0.9,0.9,102.48,FLYING
103.36,APPROACH,ILS_TRACK,139.85,149,9.15,1499.91,40.81,32.81,19.93,250.51,-13.316,1,0,18.083,1,0.6,4.5,0.75,0.35,0.0168,0.4,245.4,3.502,0,1,15.63,0,0,23.66,245.4,-0.9225,-0.3805,-0.0641,23.47,245.4,2628.9,325.07,20.926,-94.132,0,0,0,0,274.3,0,0,0,0,0,0,0,0,0,0,0,0,0,2,2,0,0,VALID,0,0,0,0,0,1,0,0,0,0,0,0,0,0,0,0,0,0,0,0,826.11,970.18,2,0,0.92,0.5,114,1.09,0.92,0.9,103.4,FLYING
104.26,APPROACH,ILS_TRACK,139.35,149,9.65,1539,45.31,34.21,19.71,248.6,-14.195,1,0,17.993,1,0.6,4.5,0.75,0.35,0.0168,0.4,245.4,3.311,0,1,17.37,0,0,23.48,245.4,-0.9225,-0.3816,-0.0579,23.12,245.4,2604.24,370.22,20.794,-91.844,0,0,0,0,274.3,0,0,0,0,0,0,0,0,0,0,0,0,0,2,2,0,0,VALID,0,0,0,0,0,1,0,0,0,0,0,0,0,0,0,0,0,0,0,0,846.11,965.84,2,0,0.9,0.5,115,1.11,0.92,0.9,104.3,FLYING
105.16,APPROACH,ILS_TRACK,138.95,149,10.05,1581.81,49.57,34.94,18.62,246.8,-15.089,1,0,17.903,1,0.6,4.5,0.75,0.35,0.0168,0.4,245.4,3.1,0,1,19.05,0,0,23.13,245.4,-0.9222,-0.3848,-0.0383,21.99,245.4,2576.42,419.06,20.663,-89.143,0,0,0,0,274.3,0,0,0,0,0,0,0,0,0,0,0,0,0,2,2,0,0,VALID,0,0,0,0,0,1,0,0,0,0,0,0,0,0,0,0,0,0,0,0,862.19,961.73,2,0,0.9,0.5,116,1.11,0.9,0.9,105.2,FLYING
106.06,APPROACH,ILS_TRACK,139.02,149,9.98,1627.87,53.21,34.42,16.47,245.42,-16,1,0,17.813,1,0.6,4.5,0.75,0.35,0.0168,0.4,245.4,2.873,0,1,20.48,0,0,22.01,245.4,-0.9206,-0.3906,-0.0004,19.81,245.4,2545.31,471.19,20.535,-86.258,0,0,0,0,274.3,0,0,0,0,0,0,0,0,0,0,0,0,0,2,2,0,0,VALID,0,0,0,0,0,1,0,0,0,0,0,0,0,0,0,0,0,0,0,0,876.36,959.29,2,0,0.9,0.5,117,1.11,0.9,0.9,106.1,FLYING
106.96,APPROACH,ILS_TRACK,139.89,149,9.11,1676.37,55.72,32.26,13.19,244.69,-16.945,1,0,17.724,1,0.6,4.5,0.75,0.35,0.0168,0.4,245.4,2.633,0,1,21.48,0,0,19.82,245.4,-0.9152,-0.3986,0.0593,16.35,245.4,2510.78,525.89,20.407,-83.167,0,0,0,0,274.3,0,0,0,0,0,0,0,0,0,0,0,0,0,2,2,0,0,VALID,0,0,0,0,0,1,0,0,0,0,0,0,0,0,0,0,0,0,0,0,890.6,959.98,2,0,0.9,0.5,118,1.11,0.9,0.9,107,FLYING
107.86,APPROACH,ILS_TRACK,141.77,149,7.23,1726.16,56.91,28.71,8.89,244.57,-17.813,0.8,0,20,1,0.6,4.5,0.75,0.35,0.0168,0.4,245.4,2.385,0,1,21.88,0,0,16.36,245.4,-0.9038,-0.4065,0.1338,12.02,245.4,2472.67,582.19,20.28,-79.854,0,0,0,0,274.3,0,0,0,0,0,0,0,0,0,0,0,0,0,2,2,0,0,VALID,0,0,0,0,0,1,0,0,0,0,0,0,0,0,0,0,0,0,0,0,906.43,964.75,2,0,0.9,0.5,119,1.11,0.9,0.9,107.9,FLYING
108.76,APPROACH,ILS_TRACK,144.61,149,4.39,1775.56,55.62,23.28,3.85,245.21,-18.556,0.6,0,20,1,0.6,4.5,0.75,0.35,0.0168,0.4,245.4,2.137,0,1,21.47,0,0,12.04,245.4,-0.8819,-0.4132,0.227,6.54,245.4,2430.85,638.58,20.151,-76.32,0,0,0,0,274.3,0,0,0,0,0,0,0,0,0,0,0,0,0,2,2,0,0,VALID,0,0,0,0,0,1,0,0,0,0,0,0,0,0,0,0,0,0,0,0,878.74,973.66,2,0,0.9,0.5,120,1.11,0.9,0.9,108.8,FLYING
109.66,APPROACH,ILS_TRACK,147.82,149,1.18,1822.55,51.78,17.62,-0.33,245.93,-19.112,0.4,0,20,1,0.6,4.5,0.75,0.35,0.0168,0.4,245.4,1.898,0,1,20.03,0,0,6.55,245.4,-0.8583,-0.4159,0.3007,2.11,245.4,2385.36,693.26,20.019,-72.674,0,0,0,0,274.3,0,0,0,0,0,0,0,0,0,0,0,0,0,2,2,0,0,VALID,0,0,0,0,0,1,0,0,0,0,0,0,0,0,0,0,0,0,0,0,808.74,984.45,2,0,0.9,0.5,121,1.11,0.9,0.9,109.7,FLYING
110.56,APPROACH,ILS_TRACK,150.75,149,-1.75,1864.4,44.6,11.02,-4.48,246.96,-19.501,0.2,0,19.9,1,0.6,4.5,0.75,0.35,0.0168,0.4,245.4,1.683,0,1,17.68,0,0,2.13,245.4,-0.8279,-0.416,0.3762,-2.54,245.4,2336.56,743.58,19.883,-69.058,0,0,0,0,274.3,0,0,0,0,0,0,0,0,0,0,0,0,0,2,2,0,0,VALID,0,0,0,0,0,1,0,0,0,0,0,0,0,0,0,0,0,0,0,0,704.48,994.59,2,0,0.9,0.5,122,1.11,0.9,0.9,110.6,FLYING
111.46,APPROACH,ILS_TRACK,153.05,149,-4.05,1898.84,35.27,5.18,-7.26,247.73,-19.692,0,0,19.8,1,0.6,4.5,0.75,0.35,0.0168,0.4,245.4,1.502,0,1,14.39,0,0,-2.53,245.4,-0.8061,-0.4147,0.4223,-5.45,245.4,2285.22,787.28,19.742,-65.742,0,0,0,0,274.3,0,0,0,0,0,0,0,0,0,0,0,0,0,2,2,0,0,VALID,0,0,0,0,0,1,0,0,0,0,0,0,0,0,0,0,0,0,0,0,573.09,1002.6,2,0,0.9,0.5,123,1.11,0.9,0.9,111.5,FLYING
112.36,APPROACH,ILS_TRACK,154.45,149,-5.45,1924.1,24.03,-0.13,-8.17,248.34,-19.713,0,0,19.701,1,0.6,4.5,0.75,0.35,0.0168,0.4,245.4,1.366,0,1,10.32,0,0,-5.44,245.4,-0.7951,-0.4137,0.4434,-6.8,245.4,2232.29,822.26,19.597,-62.825,0,0,0,0,274.3,0,0,0,0,0,0,0,0,0,0,0,0,0,2,2,0,0,VALID,0,0,0,0,0,1,0,0,0,0,0,0,0,0,0,0,0,0,0,0,420.77,1007.25,2,0,0.9,0.5,124,1.11,0.9,0.9,112.4,FLYING
113.26,APPROACH,ILS_TRACK,155.16,149,-6.16,1939.32,12.36,-3.98,-8.26,248.38,-17.963,0,0,19.603,1,0.6,4.5,0.75,0.35,0.0168,0.4,245.4,1.28,0,1,6.05,0,0,-6.79,245.4,-0.7935,-0.4135,0.4465,-6.98,245.4,2178.59,847.45,19.45,-60.295,0,0,0,0,274.3,0,0,0,0,0,0,0,0,0,0,0,0,0,2,2,0,0,VALID,0,0,0,0,0,1,0,0,0,0,0,0,0,0,0,0,0,0,0,0,307.43,1009.5,2,0,0.9,0.5,125,1.11,0.9,0.9,113.3,FLYING
114.16,APPROACH,ILS_TRACK,155.69,149,-6.69,1944.56,0.98,-6.44,-7.11,246.79,-5.829,0,0,19.505,1,0.6,4.5,0.75,0.35,0.0168,0.4,245.4,1.244,0,1,1.82,0,0,-6.97,245.4,-0.7997,-0.4141,0.4347,-6.2,245.4,2124.57,862.69,19.302,-57.972,0,0,0,0,274.3,0,0,0,0,0,0,0,0,0,0,0,0,0,2,2,0,0,VALID,0,0,0,0,0,1,0,0,0,0,0,0,0,0,0,0,0,0,0,0,224.54,1011.47,2,0,0.9,0.5,126,1.11,0.9,0.9,114.2,FLYING
115.06,APPROACH,ILS_TRACK,156.31,149,-7.31,1940.54,-9.04,-7.42,-4.72,245.47,-0.749,0,0,19.407,1,0.6,4.5,0.75,0.35,0.0168,0.4,245.4,1.255,0,1,-2.08,0,0,-6.19,245.4,-0.817,-0.4155,0.3998,-3.96,245.4,2069.89,868.46,19.152,-55.456,0,0,0,0,274.3,0,0,0,0,0,0,0,0,0,0,0,0,0,2,2,0,0,VALID,0,0,0,0,0,1,0,0,0,0,0,0,0,0,0,0,0,0,0,0,164.15,1014.34,2,0,0.9,0.5,127,1.11,0.9,0.9,115.1,FLYING
115.96,APPROACH,ILS_TRACK,157.01,149,-8.01,1928.83,-17.03,-6.8,-1.12,244.91,1.292,0,0,19.31,1,0.6,4.5,0.75,0.35,0.0168,0.4,245.4,1.307,0,1,-5.3,0,0,-3.94,245.4,-0.8415,-0.4163,0.3444,-0.47,245.4,2014.48,866.13,19.003,-52.872,0,0,0,0,274.3,0,0,0,0,0,0,0,0,0,0,0,0,0,2,2,0,0,VALID,0,0,0,0,0,1,0,0,0,0,0,0,0,0,0,0,0,0,0,0,120.09,1018.02,2,0,0.9,0.5,128,1.11,0.9,0.9,116,FLYING
116.86,APPROACH,ILS_TRACK,157.57,149,-8.57,1911.59,-22.23,-4.74,3.2,244.72,1.568,0,0,19.214,1,0.6,4.5,0.75,0.35,0.0168,0.4,245.4,1.388,0,1,-7.55,0,0,-0.45,245.4,-0.8674,-0.4152,0.2742,3.84,245.4,1958.41,857.71,18.854,-50.303,0,0,0,0,274.3,0,0,0,0,0,0,0,0,0,0,0,0,0,2,2,0,0,VALID,0,0,0,0,0,1,0,0,0,0,0,0,0,0,0,0,0,0,0,0,87.84,1021.44,2,0,0.9,0.5,129,1.11,0.9,0.9,116.9,FLYING
117.76,APPROACH,ILS_TRACK,157.69,149,-8.69,1891.13,-24.86,-1.95,7.29,244.6,1.268,0,0,19.118,1,0.6,4.5,0.75,0.35,0.0168,0.4,245.4,1.489,0,1,-8.73,0,0,3.85,245.4,-0.8872,-0.4121,0.2076,7.83,245.4,1901.86,845.51,18.705,-47.803,0,0,0,0,274.3,0,0,0,0,0,0,0,0,0,0,0,0,0,2,2,0,0,VALID,0,0,0,0,0,1,0,0,0,0,0,0,0,0,0,0,0,0,0,0,64.14,1023.1,2,0,0.9,0.5,130,1.11,0.9,0.9,117.8,FLYING
118.66,APPROACH,ILS_TRACK,156.87,149,-7.87,1869.79,-24.63,2.19,11.15,244.59,1.193,0,0,19.022,1,0.6,4.5,0.75,0.35,0.0168,0.4,245.4,1.595,0,1,-9.03,0,0,7.85,245.4,-0.9039,-0.4064,0.1336,12.21,245.4,1845.12,832,18.557,-45.432,0,0,0,0,274.3,0,0,0,0,0,0,0,0,0,0,0,0,0,2,2,0,0,VALID,0,0,0,0,0,1,0,0,0,0,0,0,0,0,0,0,0,0,0,0,46.65,1020.66,2,0,0.9,0.5,131,1.11,0.9,0.9,118.7,FLYING
119.56,APPROACH,ILS_TRACK,155.14,149,-6.14,1848.92,-23.06,4.86,12.99,244.53,1.015,0,0,15.864,1,0.6,4.5,0.75,0.35,0.0168,0.4,245.4,1.7,0,1,-8.67,0,0,12.22,245.4,-0.9104,-0.4026,0.0953,14.46,245.4,1788.51,818.59,18.411,-43.235,0,0,0,0,274.3,0,0,0,0,0,0,0,0,0,0,0,0,0,2,2,0,0,VALID,0,0,0,0,0,1,0,0,0,0,0,0,0,0,0,0,0,0,0,0,33.79,1014.14,2,0,0.9,0.5,132,1.11,0.9,0.9,119.6,FLYING
120.46,APPROACH,ILS_TRACK,152.89,149,-3.89,1829.35,-21.14,6.28,13.62,244.4,0.778,0.2,0,13.812,1,0.6,4.5,0.75,0.35,0.0168,0.4,245.4,1.8,0,1,-8.09,0,0,14.47,245.4,-0.9126,-0.4009,0.0801,15.36,245.4,1732.29,806.28,18.266,-41.183,0,0,0,0,274.3,0,0,0,0,0,0,0,0,0,0,0,0,0,2,2,0,0,VALID,0,0,0,0,0,1,0,0,0,0,0,0,0,0,0,0,0,0,0,0,24.25,1005.18,2,0,0.9,0.5,133,1.11,0.9,0.9,120.5,FLYING
121.36,APPROACH,ILS_TRACK,150.66,149,-1.66,1811.11,-19.55,6.61,13.2,244.23,0.529,0.4,0,12.89,1,0.6,4.5,0.75,0.35,0.0168,0.4,245.4,1.892,0,1,-7.54,0,0,15.38,245.4,-0.9121,-0.4014,0.0839,15.15,245.4,1676.57,795.23,18.124,-39.201,0,0,0,0,274.3,0,0,0,0,0,0,0,0,0,0,0,0,0,2,2,0,0,VALID,0,0,0,0,0,1,0,0,0,0,0,0,0,0,0,0,0,0,0,0,52.39,996.7,2,0,0.9,0.5,134,1.11,0.9,0.9,121.4,FLYING
122.26,APPROACH,ILS_TRACK,148.89,149,0.11,1794.19,-18.4,6.78,13.31,244.03,0.292,0.6,0,12.879,1,0.6,4.5,0.75,0.35,0.0168,0.4,245.4,1.978,0,1,-7.17,0,0,15.17,245.4,-0.9121,-0.4013,0.0836,15.19,245.4,1621.24,785.39,17.983,-37.187,0,0,0,0,274.3,0,0,0,0,0,0,0,0,0,0,0,0,0,2,2,0,0,VALID,0,0,0,0,0,1,0,0,0,0,0,0,0,0,0,0,0,0,0,0,108.14,990,2,0,0.9,0.5,135,1.11,0.9,0.9,122.3,FLYING
123.16,APPROACH,ILS_TRACK,147.57,149,1.43,1778.59,-17.09,7.82,14.29,243.83,0.043,0.8,0,12.814,1,0.6,4.5,0.75,0.35,0.0168,0.4,245.4,2.057,0,1,-6.79,0,0,15.2,245.4,-0.9142,-0.3995,0.0682,16.1,245.4,1566.11,776.77,17.844,-35.081,0,0,0,0,274.3,0,0,0,0,0,0,0,0,0,0,0,0,0,2,2,0,0,VALID,0,0,0,0,0,1,0,0,0,0,0,0,0,0,0,0,0,0,0,0,186.77,985.28,2,0,0.9,0.5,136,1.11,0.9,0.9,123.2,FLYING
124.06,APPROACH,ILS_TRACK,146.62,149,2.38,1764.67,-15.13,9.71,15.79,243.61,-0.227,1,0,12.75,1,0.6,4.5,0.75,0.35,0.0168,0.4,245.4,2.129,0,1,-6.18,0,0,16.11,245.4,-0.9171,-0.3964,0.0427,17.59,245.4,1510.97,769.65,17.706,-32.866,0,0,0,0,274.3,0,0,0,0,0,0,0,0,0,0,0,0,0,2,2,0,0,VALID,0,0,0,0,0,1,0,0,0,0,0,0,0,0,0,0,0,0,0,0,284.45,982.09,2,0,0.9,0.5,137,1.11,0.9,0.9,124.1,FLYING
124.96,APPROACH,ILS_TRACK,145.98,149,3.02,1753.07,-12.26,12.2,17.49,243.35,-0.514,1,0,12.686,1,0.6,4.5,0.75,0.35,0.0168,0.4,245.4,2.189,0,1,-5.23,0,0,17.61,245.4,-0.9197,-0.3924,0.0132,19.32,245.4,1455.6,764.64,17.569,-30.54,0,0,0,0,274.3,0,0,0,0,0,0,0,0,0,0,0,0,0,2,2,0,0,VALID,0,0,0,0,0,1,0,0,0,0,0,0,0,0,0,0,0,0,0,0,398.12,980.12,2,0,0.9,0.5,138,1.11,0.9,0.9,125,FLYING
125.86,APPROACH,ILS_TRACK,145.46,149,3.54,1744.68,-8.22,15.3,19.34,243.03,-0.842,1,0,12.623,1,0.6,4.5,0.75,0.35,0.0168,0.4,245.4,2.235,0,1,-3.87,0,0,19.33,245.4,-0.9217,-0.3874,-0.0209,21.31,245.4,1399.81,762.62,17.433,-28.098,0,0,0,0,274.3,0,0,0,0,0,0,0,0,0,0,0,0,0,2,2,0,0,VALID,0,0,0,0,0,1,0,0,0,0,0,0,0,0,0,0,0,0,0,0,493.37,978.51,2,0,0.9,0.5,139,1.11,0.9,0.9,125.9,FLYING
126.76,APPROACH,ILS_TRACK,144.93,149,4.07,1740.1,-3.36,18,19.98,242.66,-1.127,1,0,12.56,1,0.6,4.5,0.75,0.35,0.0168,0.4,245.4,2.262,0,1,-2.04,0,0,21.32,245.4,-0.9222,-0.3849,-0.0363,22.22,245.4,1343.52,764.26,17.297,-25.593,0,0,0,0,274.3,0,0,0,0,0,0,0,0,0,0,0,0,0,2,2,0,0,VALID,0,0,0,0,0,1,0,0,0,0,0,0,0,0,0,0,0,0,0,0,572.32,976.6,2,0,0.9,0.5,140,1.11,0.9,0.9,126.8,FLYING
127.66,APPROACH,ILS_TRACK,144.66,149,4.34,1739.85,1.65,19.82,19.99,242.28,-1.324,1,0,12.497,1,0.6,4.5,0.75,0.35,0.0168,0.4,247.38,2.268,0,1,-0.06,0,0,22.23,245.4,-0.9341,-0.3556,-0.0318,22.25,247.38,1286.63,770.1,17.162,-23.022,0,0,0,0,274.3,0,0,0,0,0,0,0,0,0,0,0,0,0,2,2,0,0,VALID,0,0,0,0,0,1,0,0,0,0,0,0,0,0,0,0,0,0,0,0,638.34,975.55,2,0,0.9,0.5,141,1.11,0.9,0.9,127.7,FLYING
128.56,APPROACH,ILS_TRACK,144.63,149,4.37,1744.19,6.81,21.59,19.98,241.99,-1.647,0.953,0,14.683,1,0.6,4.5,0.75,0.35,0.0168,0.4,250.04,2.251,0,1,1.97,0,0,22.27,247.38,-0.9486,-0.3156,-0.0251,22.22,250.04,1229.02,780.46,17.027,-20.356,0,0,0,0,274.3,0,0,0,0,0,0,0,0,0,0,0,0,0,2,2,0,0,VALID,0,0,0,0,0,1,0,0,0,0,0,0,0,0,0,0,0,0,0,0,693.78,975.27,2,0,0.9,0.5,142,1.11,0.9,0.9,128.6,FLYING
129.48,APPROACH,ILS_TRACK,144.71,149,4.29,1753.53,12.26,23.5,19.94,242.69,-1.6,0.8944,0,16.834,1,0.6,4.5,0.75,0.35,0.0168,0.4,253.55,2.209,0,1,4.09,0,0,22.23,250.04,-0.9649,-0.262,-0.0172,22.16,253.55,1169.19,795.9,16.89,-16.854,0,0,0,0,274.3,0,0,0,0,0,0,0,0,0,0,0,0,0,2,2,0,0,VALID,0,0,0,0,0,1,0,0,0,0,0,0,0,0,0,0,0,0,0,0,733.51,975.14,2,0,0.92,0.5,143,1.09,0.92,0.9,129.52,FLYING
130.38,APPROACH,ILS_TRACK,144.81,149,4.19,1767.5,17.73,25.27,19.57,244.76,-1.044,0.8455,0,18.932,1,0.6,4.5,0.75,0.35,0.0168,0.4,255.66,2.144,0,1,6.22,0,0,22.18,253.55,-0.9733,-0.2295,-0.0081,21.85,255.66,1109.88,815.83,16.756,-14.737,0,0,0,0,274.3,0,0,0,0,0,0,0,0,0,0,0,0,0,2,2,0,0,VALID,0,0,0,0,0,1,0,0,0,0,0,0,0,0,0,0,0,0,0,0,756.38,974.87,2,0,0.9,0.5,144,1.11,0.92,0.9,130.42,FLYING
131.28,APPROACH,ILS_TRACK,145.01,149,3.99,1786.11,23.03,26.42,18.66,247.77,-0.045,0.7764,0,20,1,0.6,4.5,0.75,0.35,0.0168,0.4,258.19,2.055,0,1,8.29,0,0,21.86,255.66,-0.9816,-0.1908,0.0108,20.98,258.19,1050.27,840.41,16.623,-12.207,0,0,0,0,274.3,0,0,0,0,0,0,0,0,0,0,0,0,0,2,2,0,0,VALID,0,0,0,0,0,1,0,0,0,0,0,0,0,0,0,0,0,0,0,0,767.63,974.74,2,0,0.9,0.5,145,1.11,0.9,0.9,131.32,FLYING
132.18,APPROACH,ILS_TRACK,145.44,149,3.56,1808.9,27.66,26.42,16.86,250.91,1.009,0.6598,0,20,1,0.6,4.5,0.75,0.35,0.0168,0.4,260.46,1.945,0,1,10.13,0,0,20.99,258.19,-0.9867,-0.1563,0.0449,19.18,260.46,990.88,869.29,16.49,-9.938,0,0,0,0,274.3,0,0,0,0,0,0,0,0,0,0,0,0,0,2,2,0,0,VALID,0,0,0,0,0,1,0,0,0,0,0,0,0,0,0,0,0,0,0,0,765.33,975.29,2,0,0.9,0.5,146,1.11,0.9,0.9,132.22,FLYING
133.08,APPROACH,ILS_TRACK,146.24,149,2.76,1835.08,31.04,25.2,14.39,252.14,1.278,0.4861,0,20,1,0.6,4.5,0.75,0.35,0.0168,0.4,262.41,1.817,0,1,11.58,0,0,19.19,260.46,-0.9875,-0.1265,0.0935,16.5,262.41,932.28,901.78,16.356,-7.991,0,0,0,0,274.3,0,0,0,0,0,0,0,0,0,0,0,0,0,2,2,0,0,VALID,0,0,0,0,0,1,0,0,0,0,0,0,0,0,0,0,0,0,0,0,734.33,977.26,2,0,0.9,0.5,147,1.11,0.9,0.9,133.12,FLYING
133.98,APPROACH,ILS_TRACK,147.3,149,1.7,1863.45,33.01,23.14,11.31,252.43,1.208,0.2861,0,20,1,0.6,4.5,0.75,0.35,0.0168,0.4,264.47,1.677,0,1,12.48,0,0,16.52,262.41,-0.9843,-0.0937,0.1496,13.36,264.47,874.2,936.84,16.222,-5.931,0,0,0,0,274.3,0,0,0,0,0,0,0,0,0,0,0,0,0,2,2,0,0,VALID,0,0,0,0,0,1,0,0,0,0,0,0,0,0,0,0,0,0,0,0,666.89,980.16,2,0,0.9,0.5,148,1.11,0.9,0.9,134.02,FLYING
134.88,APPROACH,ILS_TRACK,148.43,149,0.57,1892.39,33.08,19.8,7.48,252.69,1.167,0.0861,0,20,1,0.6,4.5,0.75,0.35,0.0168,0.4,266.64,1.532,0,1,12.72,0,0,13.37,264.47,-0.9745,-0.0577,0.2167,9.53,266.64,816.41,972.93,16.086,-3.759,0,0,0,0,274.3,0,0,0,0,0,0,0,0,0,0,0,0,0,2,2,0,0,VALID,0,0,0,0,0,1,0,0,0,0,0,0,0,0,0,0,0,0,0,0,565,983.35,2,0,0.9,0.5,149,1.11,0.9,0.9,134.92,FLYING
135.78,APPROACH,ILS_TRACK,149.38,149,-0.38,1920.19,30.77,15.67,4.29,252.92,1.109,0,0,19.9,1,0.6,4.5,0.75,0.35,0.0168,0.4,268.88,1.391,0,1,12.07,0,0,9.54,266.64,-0.9606,-0.0194,0.2771,6,268.88,758.74,1008.34,15.948,-1.516,0,0,0,0,274.3,0,0,0,0,0,0,0,0,0,0,0,0,0,2,2,0,0,VALID,0,0,0,0,0,1,0,0,0,0,0,0,0,0,0,0,0,0,0,0,436.97,985.87,2,0,0.9,0.5,150,1.11,0.9,0.9,135.82,FLYING
136.68,APPROACH,ILS_TRACK,149.81,149,-0.81,1944.73,26.41,11.11,0.71,253.14,1.072,0,0,19.8,1,0.6,4.5,0.75,0.35,0.0168,0.4,271.11,1.265,0,1,10.74,0,0,6.02,268.88,-0.9415,0.0194,0.3366,2.43,271.11,701.21,1041.09,15.809,0.714,0,0,0,0,274.3,0,0,0,0,0,0,0,0,0,0,0,0,0,2,2,0,0,VALID,0,0,0,0,0,1,0,0,0,0,0,0,0,0,0,0,0,0,0,0,319.15,986.34,2,0,0.9,0.5,151,1.11,0.9,0.9,136.72,FLYING
137.58,APPROACH,ILS_TRACK,149.81,149,-0.81,1964.73,20.27,7.19,-0.59,253.37,1.061,0,0,19.701,1,0.6,4.5,0.75,0.35,0.0168,0.4,273.27,1.159,0,1,8.54,0,0,2.45,271.11,-0.9297,0.0571,0.364,0.74,273.27,643.95,1069.59,15.669,2.872,0,0,0,0,274.3,0,0,0,0,0,0,0,0,0,0,0,0,0,2,2,0,0,VALID,0,0,0,0,0,1,0,0,0,0,0,0,0,0,0,0,0,0,0,0,232.39,985.18,2,0,0.9,0.5,152,1.11,0.9,0.9,137.62,FLYING
138.5,APPROACH,ILS_TRACK,149.5,149,-0.5,1978.97,12.89,3.23,-1.89,253.59,1.037,0.0849,0,19.429,1,0.6,4.5,0.75,0.35,0.0168,0.4,276.02,1.082,0,1,5.96,0,0,0.75,273.27,-0.9151,0.1049,0.3893,-0.9,276.02,585.84,1092.79,15.524,5.622,0,0,0,0,274.3,0,0,0,0,0,0,0,0,0,0,0,0,0,2,2,0,0,VALID,0,0,0,0,0,1,0,0,0,0,0,0,0,0,0,0,0,0,0,0,166.67,982.99,2,0,0.92,0.5,153,1.09,0.92,0.9,138.54,FLYING
139.4,APPROACH,ILS_TRACK,149.22,149,-0.22,1986.54,5.47,0.7,-1.58,253.83,1.007,0.1882,0,19.311,1,0.6,4.5,0.75,0.35,0.0168,0.4,277.38,1.038,0,1,3.1,0,0,-0.89,276.02,-0.9135,0.1285,0.3859,-0.75,277.38,529.52,1109.25,15.382,6.983,0,0,0,0,274.3,0,0,0,0,0,0,0,0,0,0,0,0,0,2,2,0,0,VALID,0,0,0,0,0,1,0,0,0,0,0,0,0,0,0,0,0,0,0,0,144.3,981.38,2,0,0.9,0.5,154,1.11,0.92,0.9,139.44,FLYING
140.3,APPROACH,ILS_TRACK,149.24,149,-0.24,1987.99,-1.34,-0.49,-0.3,254.11,0.97,0.2129,0,19.199,1,0.6,4.5,0.75,0.35,0.0168,0.4,279.33,1.024,0,1,0.39,0,0,-0.74,277.38,-0.9168,0.162,0.3649,0.45,279.33,473.76,1119.5,15.24,8.925,0,0,0,0,274.3,0,0,0,0,0,0,0,0,0,0,0,0,0,2,2,0,0,VALID,0,0,0,0,0,1,0,0,0,0,0,0,0,0,0,0,0,0,0,0,150.47,981.34,2,0,0.9,0.5,155,1.11,0.9,0.9,140.34,FLYING
141.2,APPROACH,ILS_TRACK,149.58,149,-0.58,1984.07,-7.1,-0.68,1.83,254.4,0.909,0.1626,0,18.933,1,0.6,4.5,0.75,0.35,0.0168,0.4,281.23,1.039,0,1,-2.01,0,0,0.46,279.33,-0.9237,0.1946,0.3299,2.47,281.23,418.61,1124.18,15.097,10.835,0,0,0,0,274.3,0,0,0,0,0,0,0,0,0,0,0,0,0,2,2,0,0,VALID,0,0,0,0,0,1,0,0,0,0,0,0,0,0,0,0,0,0,0,0,160.29,982.97,2,0,0.9,0.5,156,1.11,0.9,0.9,141.24,FLYING
