t_s,phase,subphase,ias_ms,vapp_ms,spd_err_ms,agl_m,vs_ms,pitch_deg,aoa_deg,hdg_deg,bank_deg,thr_cmd,thr_cur,thr_intg,at_gain,at_tau_s,at_a_up,at_a_dn,at_kp_thr,at_ki_spd,at_thr_slew,aa_hdg_cmd_deg,aa_fpa_cmd_deg,aa_fbw,aa_dir,actual_fpa_deg,ftf_hdg_err_deg,ftf_fix_idx,kos_steer_pit_deg,kos_steer_hdg_deg,aa_dir_vx,aa_dir_vy,aa_dir_vz,aa_dir_pitch_deg,aa_dir_hdg_deg,ils_loc_m,ils_gs_m,ils_dist_km,loc_corr_deg,gs_corr_deg,flare_fpa_cmd,flare_tgt_vs,flare_frac,steer_hdg_deg,steer_blend,ro_loc_corr_deg,ro_hdg_err_deg,ro_yaw_tgt,ro_yaw_scale,ro_yaw_gate,yaw_cmd,roll_cmd,pitch_cmd,ro_pitch_tgt_deg,ro_pitch_err_deg,ro_pitch_ff,ro_roll_assist,flaps_cur,flaps_tgt,asc_j_ab,asc_j_rk,asc_validity,asc_q_pa,asc_q_raw_pa,asc_mach,asc_apo_m,asc_drag_n,asc_w_prop,asc_edot_aero,asc_edot_orb,asc_pitch_bias,asc_blend,asc_spooling,asc_ab_thr_ratio,asc_ab_t_now,asc_ab_t_avail,asc_ab_ign_on,asc_ab_flameouts,asc_rk_t_now,asc_rk_t_avail,asc_rk_ign_on,asc_rk_flameouts,ship_thrust,ship_avail_thrust,ship_ign_on,ship_flameouts,ifc_raw_dt_s,ifc_dt_s,ifc_loop_n,ifc_hz_est,ifc_raw_dt_max_s,ifc_raw_dt_min_s,phase_el_s,status,craft_name,cfg_file
0.12,APPROACH,FLY_TO_FIX,237.42,73.08,-164.34,1419.74,-6.54,-3.02,-1.52,89.7,-1.748,0,0,0,0,0,0,0,0,0,0,179.7,0,1,0,-1.58,178.22,0,0,90,0,0,0,0,0,0,0,56.179,0,0,0,0,0,89.71,0,0,0,0,0,0,0,0,0,0,0,0,0,0,0,0,0,VALID,0,0,0,0,0,1,0,0,0,0,0,0,0,0,0,0,0,0,0,0,106.07,350.49,2,0,0.1,0.1,1,3.45,0.1,0.02,0.12,FLYING,CF1-F,0:/Integrated Flight Computer/aircraft/cf1_f_cfg.ks (inferred preloaded)
0.4,APPROACH,FLY_TO_FIX,237.68,73.3,-164.38,1417.99,-6.11,-2.88,-1.48,89.68,-1.266,0,0,0,0,0,0,0,0,0,0,179.68,0,0,0,-1.48,178.24,0,0,179.67,0,0,0,0,0,0,0,56.249,0,0,0,0,0,89.71,0,0,0,0,0,0,0,0,0,0,0,0,0,0,0,0,0,VALID,0,0,0,0,0,1,0,0,0,0,0,0,0,0,0,0,0,0,0,0,98.92,350.59,2,0,0.06,0.06,5,14.29,0.1,0.06,0.4,FLYING,CF1-F,0:/Integrated Flight Computer/aircraft/cf1_f_cfg.ks (inferred preloaded)
0.68,APPROACH,FLY_TO_FIX,237.84,73.53,-164.31,1416.35,-5.72,-2.84,-1.53,89.74,0.959,0,0,0,0,0,0,0,0,0,0,179.74,0,0,0,-1.38,178.19,0,0,179.72,0,0,0,0,0,0,0,56.319,0,0,0,0,0,89.71,0,0,0,0,0,0,0,0,0,0,0,0,0,0,0,0,0,VALID,0,0,0,0,0,1,0,0,0,0,0,0,0,0,0,0,0,0,0,0,92.24,350.68,2,0,0.06,0.06,9,14.29,0.08,0.06,0.68,FLYING,CF1-F,0:/Integrated Flight Computer/aircraft/cf1_f_cfg.ks (inferred preloaded)
0.96,APPROACH,FLY_TO_FIX,237.76,73.75,-164.01,1414.79,-5.4,-2.87,-1.6,89.87,6.789,0,0,0,0,0,0,0,0,0,0,179.87,0,0,0,-1.3,178.06,0,0,179.85,0,0,0,0,0,0,0,56.389,0,0,0,0,0,89.71,0,0,0,0,0,0,0,0,0,0,0,0,0,0,0,0,0,VALID,0,0,0,0,0,1,0,0,0,0,0,0,0,0,0,0,0,0,0,0,86,350.73,2,0,0.06,0.06,13,14.29,0.08,0.06,0.96,FLYING,CF1-F,0:/Integrated Flight Computer/aircraft/cf1_f_cfg.ks (inferred preloaded)
1.24,APPROACH,FLY_TO_FIX,237.6,73.98,-163.62,1413.26,-5.46,-3.06,-1.73,89.95,13.668,0,0,0,0,0,0,0,0,0,0,179.95,0,0,0,-1.31,177.99,0,0,179.93,0,0,0,0,0,0,0,56.459,0,0,0,0,0,89.71,0,0,0,0,0,0,0,0,0,0,0,0,0,0,0,0,0,VALID,0,0,0,0,0,1,0,0,0,0,0,0,0,0,0,0,0,0,0,0,80.18,350.76,2,0,0.06,0.06,17,14.29,0.08,0.06,1.24,FLYING,CF1-F,0:/Integrated Flight Computer/aircraft/cf1_f_cfg.ks (inferred preloaded)
1.52,APPROACH,FLY_TO_FIX,237.27,74.2,-163.07,1411.7,-5.66,-3.18,-1.72,90.05,21.626,0,0,0,0,0,0,0,0,0,0,180.05,0,0,0,-1.36,177.89,0,0,180.03,0,0,0,0,0,0,0,56.529,0,0,0,0,0,89.71,0,0,0,0,0,0,0,0,0,0,0,0,0,0,0,0,0,VALID,0,0,0,0,0,1,0,0,0,0,0,0,0,0,0,0,0,0,0,0,74.75,350.76,2,0,0.06,0.06,21,14.29,0.08,0.06,1.52,FLYING,CF1-F,0:/Integrated Flight Computer/aircraft/cf1_f_cfg.ks (inferred preloaded)
1.8,APPROACH,FLY_TO_FIX,236.6,74.42,-162.18,1410.03,-6.14,-3.43,-1.82,90.1,30.271,0,0,0,0,0,0,0,0,0,0,180.1,0,0,0,-1.47,177.85,0,0,180.09,0,0,0,0,0,0,0,56.599,0,0,0,0,0,89.71,0,0,0,0,0,0,0,0,0,0,0,0,0,0,0,0,0,VALID,0,0,0,0,0,1,0,0,0,0,0,0,0,0,0,0,0,0,0,0,69.67,350.72,2,0,0.06,0.06,25,14.29,0.08,0.06,1.8,FLYING,CF1-F,0:/Integrated Flight Computer/aircraft/cf1_f_cfg.ks (inferred preloaded)
2.08,APPROACH,FLY_TO_FIX,235.1,74.65,-160.45,1408.17,-6.96,-3.76,-1.97,90.08,39.195,0,0,0,0,0,0,0,0,0,0,180.08,0,0,0,-1.68,177.87,0,0,180.1,0,0,0,0,0,0,0,56.668,0,0,0,0,0,89.71,0,0,0,0,0,0,0,0,0,0,0,0,0,0,0,0,0,VALID,0,0,0,0,0,1,0,0,0,0,0,0,0,0,0,0,0,0,0,0,64.92,350.56,2,0,0.06,0.06,29,14.29,0.08,0.06,2.08,FLYING,CF1-F,0:/Integrated Flight Computer/aircraft/cf1_f_cfg.ks (inferred preloaded)
2.36,APPROACH,FLY_TO_FIX,232.21,74.87,-157.34,1406.39,-7.36,-2.26,0.35,91.92,47.996,0,0,0,0,0,0,0,0,0,0,181.92,0,0,0,-1.86,176.04,0,0,181.19,0,0,0,0,0,0,0,56.737,0,0,0,0,0,89.71,0,0,0,0,0,0,0,0,0,0,0,0,0,0,0,0,0,VALID,0,0,0,0,0,1,0,0,0,0,0,0,0,0,0,0,0,0,0,0,60.46,350.21,2,0,0.06,0.06,33,14.29,0.08,0.06,2.36,FLYING,CF1-F,0:/Integrated Flight Computer/aircraft/cf1_f_cfg.ks (inferred preloaded)
2.64,APPROACH,FLY_TO_FIX,228.01,75.1,-152.91,1404.95,-4.61,-1.27,0.93,93.78,55.885,0,0,0,0,0,0,0,0,0,0,183.78,0,0,0,-1.19,174.19,0,0,183.58,0,0,0,0,0,0,0,56.804,0,0,0,0,0,89.71,0,0,0,0,0,0,0,0,0,0,0,0,0,0,0,0,0,VALID,0,0,0,0,0,1,0,0,0,0,0,0,0,0,0,0,0,0,0,0,56.29,349.7,2,0,0.06,0.06,37,14.29,0.08,0.06,2.64,FLYING,CF1-F,0:/Integrated Flight Computer/aircraft/cf1_f_cfg.ks (inferred preloaded)
2.92,APPROACH,FLY_TO_FIX,223.46,75.32,-148.14,1403.94,-3.37,-1.08,1.01,95.38,63.908,0,0,0,0,0,0,0,0,0,0,185.38,0,0,0,-0.88,172.6,0,0,185.02,0,0,0,0,0,0,0,56.871,0,0,0,0,0,89.71,0,0,0,0,0,0,0,0,0,0,0,0,0,0,0,0,0,VALID,0,0,0,0,0,1,0,0,0,0,0,0,0,0,0,0,0,0,0,0,52.39,349.18,2,0,0.06,0.06,41,14.29,0.08,0.06,2.92,FLYING,CF1-F,0:/Integrated Flight Computer/aircraft/cf1_f_cfg.ks (inferred preloaded)
3.2,APPROACH,FLY_TO_FIX,219.01,75.54,-143.46,1403.1,-3.06,-1.02,1.14,97.16,70.204,0,0,0,0,0,0,0,0,0,0,187.16,0,0,0,-0.8,170.84,0,0,186.78,0,0,0,0,0,0,0,56.936,0,0,0,0,0,89.71,0,0,0,0,0,0,0,0,0,0,0,0,0,0,0,0,0,VALID,0,0,0,0,0,1,0,0,0,0,0,0,0,0,0,0,0,0,0,0,48.78,348.74,2,0,0.06,0.06,45,14.29,0.08,0.06,3.2,FLYING,CF1-F,0:/Integrated Flight Computer/aircraft/cf1_f_cfg.ks (inferred preloaded)
3.48,APPROACH,FLY_TO_FIX,214.71,75.77,-138.94,1402.23,-3.4,-1,1.21,98.94,73.473,0,0,0,0,0,0,0,0,0,0,188.94,0,0,0,-0.9,169.08,0,0,188.56,0,0,0,0,0,0,0,56.999,0,0,0,0,0,89.71,0,0,0,0,0,0,0,0,0,0,0,0,0,0,0,0,0,VALID,0,0,0,0,0,1,0,0,0,0,0,0,0,0,0,0,0,0,0,0,45.43,348.38,2,0,0.06,0.06,49,14.29,0.08,0.06,3.48,FLYING,CF1-F,0:/Integrated Flight Computer/aircraft/cf1_f_cfg.ks (inferred preloaded)
3.76,APPROACH,FLY_TO_FIX,210.55,75.99,-134.56,1401.2,-3.99,-0.94,1.24,100.68,73.807,0,0,0,0,0,0,0,0,0,0,190.68,0,0,0,-1.07,167.37,0,0,190.31,0,0,0,0,0,0,0,57.061,0,0,0,0,0,89.71,0,0,0,0,0,0,0,0,0,0,0,0,0,0,0,0,0,VALID,0,0,0,0,0,1,0,0,0,0,0,0,0,0,0,0,0,0,0,0,42.31,348.11,2,0,0.06,0.06,53,14.29,0.08,0.06,3.76,FLYING,CF1-F,0:/Integrated Flight Computer/aircraft/cf1_f_cfg.ks (inferred preloaded)
4.04,APPROACH,FLY_TO_FIX,206.59,76.22,-130.38,1399.99,-4.59,-0.92,1.32,102.45,73.411,0,0,0,0,0,0,0,0,0,0,192.45,0,0,0,-1.26,165.63,0,0,192.07,0,0,0,0,0,0,0,57.122,0,0,0,0,0,89.71,0,0,0,0,0,0,0,0,0,0,0,0,0,0,0,0,0,VALID,0,0,0,0,0,1,0,0,0,0,0,0,0,0,0,0,0,0,0,0,39.43,347.93,2,0,0.06,0.06,57,14.29,0.08,0.06,4.04,FLYING,CF1-F,0:/Integrated Flight Computer/aircraft/cf1_f_cfg.ks (inferred preloaded)
4.32,APPROACH,FLY_TO_FIX,202.84,76.44,-126.4,1398.61,-5.16,-0.95,1.42,104.24,72.733,0,0,0,0,0,0,0,0,0,0,194.24,0,0,0,-1.44,163.86,0,0,193.86,0,0,0,0,0,0,0,57.182,0,0,0,0,0,89.71,0,0,0,0,0,0,0,0,0,0,0,0,0,0,0,0,0,VALID,0,0,0,0,0,1,0,0,0,0,0,0,0,0,0,0,0,0,0,0,36.74,347.83,2,0,0.06,0.06,61,14.29,0.08,0.06,4.32,FLYING,CF1-F,0:/Integrated Flight Computer/aircraft/cf1_f_cfg.ks (inferred preloaded)
4.6,APPROACH,FLY_TO_FIX,199.28,76.66,-122.61,1397.07,-5.67,-1.01,1.5,106.02,71.838,0,0,0,0,0,0,0,0,0,0,196.02,0,0,0,-1.62,162.12,0,0,195.64,0,0,0,0,0,0,0,57.24,0,0,0,0,0,89.71,0,0,0,0,0,0,0,0,0,0,0,0,0,0,0,0,0,VALID,0,0,0,0,0,1,0,0,0,0,0,0,0,0,0,0,0,0,0,0,34.25,347.8,2,0,0.06,0.06,65,14.29,0.08,0.06,4.6,FLYING,CF1-F,0:/Integrated Flight Computer/aircraft/cf1_f_cfg.ks (inferred preloaded)
4.88,APPROACH,FLY_TO_FIX,195.88,76.89,-118.99,1395.4,-6.12,-1.08,1.57,107.78,70.726,0,0,0,0,0,0,0,0,0,0,197.78,0,0,0,-1.78,160.4,0,0,197.4,0,0,0,0,0,0,0,57.297,0,0,0,0,0,89.71,0,0,0,0,0,0,0,0,0,0,0,0,0,0,0,0,0,VALID,0,0,0,0,0,1,0,0,0,0,0,0,0,0,0,0,0,0,0,0,31.93,347.83,2,0,0.06,0.06,69,14.29,0.08,0.06,4.88,FLYING,CF1-F,0:/Integrated Flight Computer/aircraft/cf1_f_cfg.ks (inferred preloaded)
5.16,APPROACH,FLY_TO_FIX,192.62,77,-115.62,1393.62,-6.44,-1.09,1.66,109.51,69.096,0,0,0,0,0,0,0,0,0,0,199.51,0,0,0,-1.91,158.71,0,0,199.13,0,0,0,0,0,0,0,57.352,0,0,0,0,0,89.71,0,0,0,0,0,0,0,0,0,0,0,0,0,0,0,0,0,VALID,0,0,0,0,0,1,0,0,0,0,0,0,0,0,0,0,0,0,0,0,29.78,347.95,2,0,0.06,0.06,73,14.29,0.08,0.06,5.16,FLYING,CF1-F,0:/Integrated Flight Computer/aircraft/cf1_f_cfg.ks (inferred preloaded)
5.44,APPROACH,FLY_TO_FIX,189.53,77,-112.53,1391.77,-6.67,-1.12,1.77,111.28,68.183,0,0,0,0,0,0,0,0,0,0,201.28,0,0,0,-2.01,156.98,0,0,200.91,0,0,0,0,0,0,0,57.406,0,0,0,0,0,89.71,0,0,0,0,0,0,0,0,0,0,0,0,0,0,0,0,0,VALID,0,0,0,0,0,1,0,0,0,0,0,0,0,0,0,0,0,0,0,0,27.78,348.17,2,0,0.06,0.06,77,14.29,0.08,0.06,5.44,FLYING,CF1-F,0:/Integrated Flight Computer/aircraft/cf1_f_cfg.ks (inferred preloaded)
5.72,APPROACH,FLY_TO_FIX,186.55,77,-109.55,1389.87,-6.84,-1.15,1.85,113,67.228,0,0,0,0,0,0,0,0,0,0,203,0,0,0,-2.09,155.3,0,0,202.64,0,0,0,0,0,0,0,57.459,0,0,0,0,0,89.71,0,0,0,0,0,0,0,0,0,0,0,0,0,0,0,0,0,VALID,0,0,0,0,0,1,0,0,0,0,0,0,0,0,0,0,0,0,0,0,25.92,348.48,2,0,0.06,0.06,81,14.29,0.08,0.06,5.72,FLYING,CF1-F,0:/Integrated Flight Computer/aircraft/cf1_f_cfg.ks (inferred preloaded)
6,APPROACH,FLY_TO_FIX,183.7,77,-106.7,1387.93,-6.96,-1.15,1.92,114.7,66.204,0,0,0,0,0,0,0,0,0,0,204.7,0,0,0,-2.16,153.65,0,0,204.34,0,0,0,0,0,0,0,57.511,0,0,0,0,0,89.71,0,0,0,0,0,0,0,0,0,0,0,0,0,0,0,0,0,VALID,0,0,0,0,0,1,0,0,0,0,0,0,0,0,0,0,0,0,0,0,24.19,348.87,2,0,0.06,0.06,85,14.29,0.08,0.06,6,FLYING,CF1-F,0:/Integrated Flight Computer/aircraft/cf1_f_cfg.ks (inferred preloaded)
6.28,APPROACH,FLY_TO_FIX,180.95,77,-103.95,1385.96,-7.02,-1.14,2,116.38,65.164,0,0,0,0,0,0,0,0,0,0,206.38,0,0,0,-2.22,152.02,0,0,206.02,0,0,0,0,0,0,0,57.561,0,0,0,0,0,89.71,0,0,0,0,0,0,0,0,0,0,0,0,0,0,0,0,0,VALID,0,0,0,0,0,1,0,0,0,0,0,0,0,0,0,0,0,0,0,0,22.58,349.32,2,0,0.06,0.06,89,14.29,0.08,0.06,6.28,FLYING,CF1-F,0:/Integrated Flight Computer/aircraft/cf1_f_cfg.ks (inferred preloaded)
6.56,APPROACH,FLY_TO_FIX,178.31,77,-101.31,1384,-7.02,-1.11,2.07,118.04,64.201,0,0,0,0,0,0,0,0,0,0,208.04,0,0,0,-2.25,150.41,0,0,207.69,0,0,0,0,0,0,0,57.61,0,0,0,0,0,89.71,0,0,0,0,0,0,0,0,0,0,0,0,0,0,0,0,0,VALID,0,0,0,0,0,1,0,0,0,0,0,0,0,0,0,0,0,0,0,0,21.08,349.82,2,0,0.06,0.06,93,14.29,0.08,0.06,6.56,FLYING,CF1-F,0:/Integrated Flight Computer/aircraft/cf1_f_cfg.ks (inferred preloaded)
6.84,APPROACH,FLY_TO_FIX,175.76,77,-98.76,1382.04,-6.99,-1.07,2.14,119.68,63.25,0,0,0,0,0,0,0,0,0,0,209.68,0,0,0,-2.28,148.82,0,0,209.33,0,0,0,0,0,0,0,57.657,0,0,0,0,0,89.71,0,0,0,0,0,0,0,0,0,0,0,0,0,0,0,0,0,VALID,0,0,0,0,0,1,0,0,0,0,0,0,0,0,0,0,0,0,0,0,19.68,350.38,2,0,0.06,0.06,97,14.29,0.08,0.06,6.84,FLYING,CF1-F,0:/Integrated Flight Computer/aircraft/cf1_f_cfg.ks (inferred preloaded)
7.12,APPROACH,FLY_TO_FIX,173.29,77,-96.29,1380.09,-6.92,-1.01,2.21,121.3,62.331,0,0,0,0,0,0,0,0,0,0,211.3,0,0,0,-2.29,147.26,0,0,210.95,0,0,0,0,0,0,0,57.703,0,0,0,0,0,89.71,0,0,0,0,0,0,0,0,0,0,0,0,0,0,0,0,0,VALID,0,0,0,0,0,1,0,0,0,0,0,0,0,0,0,0,0,0,0,0,18.38,350.97,2,0,0.06,0.06,101,14.29,0.08,0.06,7.12,FLYING,CF1-F,0:/Integrated Flight Computer/aircraft/cf1_f_cfg.ks (inferred preloaded)
7.4,APPROACH,FLY_TO_FIX,170.91,77,-93.91,1378.18,-6.81,-0.95,2.27,122.89,61.434,0,0,0,0,0,0,0,0,0,0,212.89,0,0,0,-2.28,145.72,0,0,212.55,0,0,0,0,0,0,0,57.748,0,0,0,0,0,89.71,0,0,0,0,0,0,0,0,0,0,0,0,0,0,0,0,0,VALID,0,0,0,0,0,1,0,0,0,0,0,0,0,0,0,0,0,0,0,0,17.16,351.61,2,0,0.06,0.06,105,14.29,0.08,0.06,7.4,FLYING,CF1-F,0:/Integrated Flight Computer/aircraft/cf1_f_cfg.ks (inferred preloaded)
7.68,APPROACH,FLY_TO_FIX,168.61,77,-91.61,1376.3,-6.68,-0.88,2.34,124.46,60.563,0,0,0,0,0,0,0,0,0,0,214.46,0,0,0,-2.27,144.21,0,0,214.12,0,0,0,0,0,0,0,57.792,0,0,0,0,0,89.71,0,0,0,0,0,0,0,0,0,0,0,0,0,0,0,0,0,VALID,0,0,0,0,0,1,0,0,0,0,0,0,0,0,0,0,0,0,0,0,16.03,352.27,2,0,0.06,0.06,109,14.29,0.08,0.06,7.68,FLYING,CF1-F,0:/Integrated Flight Computer/aircraft/cf1_f_cfg.ks (inferred preloaded)
7.96,APPROACH,FLY_TO_FIX,166.38,77,-89.38,1374.46,-6.52,-0.79,2.41,126.02,59.74,0,0,0,0,0,0,0,0,0,0,216.02,0,0,0,-2.25,142.71,0,0,215.69,0,0,0,0,0,0,0,57.834,0,0,0,0,0,89.71,0,0,0,0,0,0,0,0,0,0,0,0,0,0,0,0,0,VALID,0,0,0,0,0,1,0,0,0,0,0,0,0,0,0,0,0,0,0,0,14.97,352.95,2,0,0.06,0.06,113,14.29,0.08,0.06,7.96,FLYING,CF1-F,0:/Integrated Flight Computer/aircraft/cf1_f_cfg.ks (inferred preloaded)
8.24,APPROACH,FLY_TO_FIX,164.21,77,-87.21,1372.67,-6.35,-0.71,2.47,127.55,58.948,0,0,0,0,0,0,0,0,0,0,217.55,0,0,0,-2.22,141.23,0,0,217.23,0,0,0,0,0,0,0,57.875,0,0,0,0,0,89.71,0,0,0,0,0,0,0,0,0,0,0,0,0,0,0,0,0,VALID,0,0,0,0,0,1,0,0,0,0,0,0,0,0,0,0,0,0,0,0,13.98,353.66,2,0,0.06,0.06,117,14.29,0.08,0.06,8.24,FLYING,CF1-F,0:/Integrated Flight Computer/aircraft/cf1_f_cfg.ks (inferred preloaded)
8.52,APPROACH,FLY_TO_FIX,162.1,77,-85.1,1370.93,-6.16,-0.62,2.53,129.07,58.18,0,0,0,0,0,0,0,0,0,0,219.07,0,0,0,-2.18,139.78,0,0,218.75,0,0,0,0,0,0,0,57.915,0,0,0,0,0,89.71,0,0,0,0,0,0,0,0,0,0,0,0,0,0,0,0,0,VALID,0,0,0,0,0,1,0,0,0,0,0,0,0,0,0,0,0,0,0,0,13.06,354.39,2,0,0.06,0.06,121,14.29,0.08,0.06,8.52,FLYING,CF1-F,0:/Integrated Flight Computer/aircraft/cf1_f_cfg.ks (inferred preloaded)
8.8,APPROACH,FLY_TO_FIX,160.06,77,-83.06,1369.25,-5.96,-0.52,2.59,130.57,57.451,0,0,0,0,0,0,0,0,0,0,220.57,0,0,0,-2.14,138.34,0,0,220.25,0,0,0,0,0,0,0,57.954,0,0,0,0,0,89.71,0,0,0,0,0,0,0,0,0,0,0,0,0,0,0,0,0,VALID,0,0,0,0,0,1,0,0,0,0,0,0,0,0,0,0,0,0,0,0,12.2,355.13,2,0,0.06,0.06,125,14.29,0.08,0.06,8.8,FLYING,CF1-F,0:/Integrated Flight Computer/aircraft/cf1_f_cfg.ks (inferred preloaded)
9.08,APPROACH,FLY_TO_FIX,158.07,77,-81.07,1367.63,-5.75,-0.41,2.65,132.05,56.749,0,0,0,0,0,0,0,0,0,0,222.05,0,0,0,-2.09,136.93,0,0,221.73,0,0,0,0,0,0,0,57.992,0,0,0,0,0,89.71,0,0,0,0,0,0,0,0,0,0,0,0,0,0,0,0,0,VALID,0,0,0,0,0,1,0,0,0,0,0,0,0,0,0,0,0,0,0,0,11.4,355.88,2,0,0.06,0.06,129,14.29,0.08,0.06,9.08,FLYING,CF1-F,0:/Integrated Flight Computer/aircraft/cf1_f_cfg.ks (inferred preloaded)
9.36,APPROACH,FLY_TO_FIX,156.13,77,-79.13,1366.06,-5.55,-0.31,2.71,133.51,56.072,0,0,0,0,0,0,0,0,0,0,223.51,0,0,0,-2.04,135.53,0,0,223.2,0,0,0,0,0,0,0,58.028,0,0,0,0,0,89.71,0,0,0,0,0,0,0,0,0,0,0,0,0,0,0,0,0,VALID,0,0,0,0,0,1,0,0,0,0,0,0,0,0,0,0,0,0,0,0,10.65,356.65,2,0,0.06,0.06,133,14.29,0.08,0.06,9.36,FLYING,CF1-F,0:/Integrated Flight Computer/aircraft/cf1_f_cfg.ks (inferred preloaded)
9.64,APPROACH,FLY_TO_FIX,154.24,77,-77.24,1364.56,-5.33,-0.2,2.77,134.96,55.421,0,0,0,0,0,0,0,0,0,0,224.96,0,0,0,-1.98,134.15,0,0,224.65,0,0,0,0,0,0,0,58.063,0,0,0,0,0,89.71,0,0,0,0,0,0,0,0,0,0,0,0,0,0,0,0,0,VALID,0,0,0,0,0,1,0,0,0,0,0,0,0,0,0,0,0,0,0,0,9.95,357.42,2,0,0.06,0.06,137,14.29,0.08,0.06,9.64,FLYING,CF1-F,0:/Integrated Flight Computer/aircraft/cf1_f_cfg.ks (inferred preloaded)
9.92,APPROACH,FLY_TO_FIX,152.4,77,-75.4,1363.11,-5.12,-0.09,2.83,136.39,54.787,0,0,0,0,0,0,0,0,0,0,226.39,0,0,0,-1.93,132.79,0,0,226.08,0,0,0,0,0,0,0,58.097,0,0,0,0,0,89.71,0,0,0,0,0,0,0,0,0,0,0,0,0,0,0,0,0,VALID,0,0,0,0,0,1,0,0,0,0,0,0,0,0,0,0,0,0,0,0,9.3,358.2,2,0,0.06,0.06,141,14.29,0.08,0.06,9.92,FLYING,CF1-F,0:/Integrated Flight Computer/aircraft/cf1_f_cfg.ks (inferred preloaded)
10.2,APPROACH,FLY_TO_FIX,150.61,77,-73.61,1361.73,-4.91,0.02,2.89,137.8,54.172,0,0,0,0,0,0,0,0,0,0,227.8,0,0,0,-1.87,131.44,0,0,227.5,0,0,0,0,0,0,0,58.13,0,0,0,0,0,89.71,0,0,0,0,0,0,0,0,0,0,0,0,0,0,0,0,0,VALID,0,0,0,0,0,1,0,0,0,0,0,0,0,0,0,0,0,0,0,0,8.69,358.99,2,0,0.06,0.06,145,14.29,0.08,0.06,10.2,FLYING,CF1-F,0:/Integrated Flight Computer/aircraft/cf1_f_cfg.ks (inferred preloaded)
10.48,APPROACH,FLY_TO_FIX,148.85,77,-71.85,1360.4,-4.7,0.13,2.94,139.19,53.575,0,0,0,0,0,0,0,0,0,0,229.19,0,0,0,-1.81,130.11,0,0,228.9,0,0,0,0,0,0,0,58.161,0,0,0,0,0,89.71,0,0,0,0,0,0,0,0,0,0,0,0,0,0,0,0,0,VALID,0,0,0,0,0,1,0,0,0,0,0,0,0,0,0,0,0,0,0,0,8.11,359.78,2,0,0.06,0.06,149,14.29,0.08,0.06,10.48,FLYING,CF1-F,0:/Integrated Flight Computer/aircraft/cf1_f_cfg.ks (inferred preloaded)
10.76,APPROACH,FLY_TO_FIX,147.14,77,-70.14,1359.13,-4.49,0.25,3,140.58,52.996,0,0,0,0,0,0,0,0,0,0,230.58,0,0,0,-1.75,128.8,0,0,230.29,0,0,0,0,0,0,0,58.192,0,0,0,0,0,89.71,0,0,0,0,0,0,0,0,0,0,0,0,0,0,0,0,0,VALID,0,0,0,0,0,1,0,0,0,0,0,0,0,0,0,0,0,0,0,0,7.58,360.57,2,0,0.06,0.06,153,14.29,0.08,0.06,10.76,FLYING,CF1-F,0:/Integrated Flight Computer/aircraft/cf1_f_cfg.ks (inferred preloaded)
11.04,APPROACH,FLY_TO_FIX,145.47,77,-68.47,1357.92,-4.29,0.36,3.06,141.95,52.431,0,0,0,0,0,0,0,0,0,0,231.95,0,0,0,-1.7,127.5,0,0,231.66,0,0,0,0,0,0,0,58.221,0,0,0,0,0,89.71,0,0,0,0,0,0,0,0,0,0,0,0,0,0,0,0,0,VALID,0,0,0,0,0,1,0,0,0,0,0,0,0,0,0,0,0,0,0,0,7.08,361.36,2,0,0.06,0.06,157,14.29,0.08,0.06,11.04,FLYING,CF1-F,0:/Integrated Flight Computer/aircraft/cf1_f_cfg.ks (inferred preloaded)
11.32,APPROACH,FLY_TO_FIX,143.83,77,-66.83,1356.76,-4.1,0.47,3.13,143.3,51.877,0,0,0,0,0,0,0,0,0,0,233.3,0,0,0,-1.64,126.21,0,0,233.01,0,0,0,0,0,0,0,58.25,0,0,0,0,0,89.71,0,0,0,0,0,0,0,0,0,0,0,0,0,0,0,0,0,VALID,0,0,0,0,0,1,0,0,0,0,0,0,0,0,0,0,0,0,0,0,6.62,362.15,2,0,0.06,0.06,161,14.29,0.08,0.06,11.32,FLYING,CF1-F,0:/Integrated Flight Computer/aircraft/cf1_f_cfg.ks (inferred preloaded)
11.6,APPROACH,FLY_TO_FIX,142.23,77,-65.23,1355.66,-3.91,0.59,3.19,144.65,51.337,0,0,0,0,0,0,0,0,0,0,234.65,0,0,0,-1.58,124.94,0,0,234.36,0,0,0,0,0,0,0,58.277,0,0,0,0,0,89.71,0,0,0,0,0,0,0,0,0,0,0,0,0,0,0,0,0,VALID,0,0,0,0,0,1,0,0,0,0,0,0,0,0,0,0,0,0,0,0,6.18,362.94,2,0,0.06,0.06,165,14.29,0.08,0.06,11.6,FLYING,CF1-F,0:/Integrated Flight Computer/aircraft/cf1_f_cfg.ks (inferred preloaded)
11.88,APPROACH,FLY_TO_FIX,140.66,77,-63.66,1354.61,-3.74,0.7,3.25,145.97,50.803,0,0,0,0,0,0,0,0,0,0,235.97,0,0,0,-1.53,123.68,0,0,235.69,0,0,0,0,0,0,0,58.303,0,0,0,0,0,89.71,0,0,0,0,0,0,0,0,0,0,0,0,0,0,0,0,0,VALID,0,0,0,0,0,1,0,0,0,0,0,0,0,0,0,0,0,0,0,0,5.78,363.73,2,0,0.06,0.06,169,14.29,0.08,0.06,11.88,FLYING,CF1-F,0:/Integrated Flight Computer/aircraft/cf1_f_cfg.ks (inferred preloaded)
12.16,APPROACH,FLY_TO_FIX,139.13,77,-62.13,1353.6,-3.57,0.81,3.31,147.28,50.274,0,0,0,0,0,0,0,0,0,0,237.28,0,0,0,-1.47,122.44,0,0,237,0,0,0,0,0,0,0,58.328,0,0,0,0,0,89.71,0,0,0,0,0,0,0,0,0,0,0,0,0,0,0,0,0,VALID,0,0,0,0,0,1,0,0,0,0,0,0,0,0,0,0,0,0,0,0,5.4,364.52,2,0,0.06,0.06,173,14.29,0.08,0.06,12.16,FLYING,CF1-F,0:/Integrated Flight Computer/aircraft/cf1_f_cfg.ks (inferred preloaded)
12.44,APPROACH,FLY_TO_FIX,137.62,77,-60.62,1352.65,-3.4,0.92,3.37,148.59,49.748,0,0,0,0,0,0,0,0,0,0,238.59,0,0,0,-1.42,121.21,0,0,238.31,0,0,0,0,0,0,0,58.352,0,0,0,0,0,89.71,0,0,0,0,0,0,0,0,0,0,0,0,0,0,0,0,0,VALID,0,0,0,0,0,1,0,0,0,0,0,0,0,0,0,0,0,0,0,0,5.04,365.31,2,0,0.06,0.06,177,14.29,0.08,0.06,12.44,FLYING,CF1-F,0:/Integrated Flight Computer/aircraft/cf1_f_cfg.ks (inferred preloaded)
12.72,APPROACH,FLY_TO_FIX,136.15,77,-59.15,1351.73,-3.24,1.03,3.43,149.87,49.227,0,0,0,0,0,0,0,0,0,0,239.87,0,0,0,-1.37,119.99,0,0,239.6,0,0,0,0,0,0,0,58.376,0,0,0,0,0,89.71,0,0,0,0,0,0,0,0,0,0,0,0,0,0,0,0,0,VALID,0,0,0,0,0,1,0,0,0,0,0,0,0,0,0,0,0,0,0,0,4.71,366.09,2,0,0.06,0.06,181,14.29,0.08,0.06,12.72,FLYING,CF1-F,0:/Integrated Flight Computer/aircraft/cf1_f_cfg.ks (inferred preloaded)
13,APPROACH,FLY_TO_FIX,134.71,77,-57.71,1350.86,-3.09,1.14,3.49,151.15,48.708,0,0,0,0,0,0,0,0,0,0,241.15,0,0,0,-1.32,118.79,0,0,240.88,0,0,0,0,0,0,0,58.398,0,0,0,0,0,89.71,0,0,0,0,0,0,0,0,0,0,0,0,0,0,0,0,0,VALID,0,0,0,0,0,1,0,0,0,0,0,0,0,0,0,0,0,0,0,0,4.4,366.87,2,0,0.06,0.06,185,14.29,0.08,0.06,13,FLYING,CF1-F,0:/Integrated Flight Computer/aircraft/cf1_f_cfg.ks (inferred preloaded)
13.28,APPROACH,FLY_TO_FIX,133.29,77,-56.29,1350.04,-2.95,1.25,3.56,152.41,48.193,0,0,0,0,0,0,0,0,0,0,242.41,0,0,0,-1.27,117.59,0,0,242.14,0,0,0,0,0,0,0,58.419,0,0,0,0,0,89.71,0,0,0,0,0,0,0,0,0,0,0,0,0,0,0,0,0,VALID,0,0,0,0,0,1,0,0,0,0,0,0,0,0,0,0,0,0,0,0,4.11,367.64,2,0,0.06,0.06,189,14.29,0.08,0.06,13.28,FLYING,CF1-F,0:/Integrated Flight Computer/aircraft/cf1_f_cfg.ks (inferred preloaded)
13.56,APPROACH,FLY_TO_FIX,131.9,77,-54.9,1349.25,-2.82,1.36,3.63,153.67,47.68,0,0,0,0,0,0,0,0,0,0,243.67,0,0,0,-1.23,116.41,0,0,243.4,0,0,0,0,0,0,0,58.439,0,0,0,0,0,89.71,0,0,0,0,0,0,0,0,0,0,0,0,0,0,0,0,0,VALID,0,0,0,0,0,1,0,0,0,0,0,0,0,0,0,0,0,0,0,0,3.84,368.41,2,0,0.06,0.06,193,14.29,0.08,0.06,13.56,FLYING,CF1-F,0:/Integrated Flight Computer/aircraft/cf1_f_cfg.ks (inferred preloaded)
13.84,APPROACH,FLY_TO_FIX,130.53,77,-53.53,1348.49,-2.69,1.47,3.7,154.91,47.172,0,0,0,0,0,0,0,0,0,0,244.91,0,0,0,-1.18,115.24,0,0,244.64,0,0,0,0,0,0,0,58.458,0,0,0,0,0,89.71,0,0,0,0,0,0,0,0,0,0,0,0,0,0,0,0,0,VALID,0,0,0,0,0,1,0,0,0,0,0,0,0,0,0,0,0,0,0,0,3.59,369.18,2,0,0.06,0.06,197,14.29,0.08,0.06,13.84,FLYING,CF1-F,0:/Integrated Flight Computer/aircraft/cf1_f_cfg.ks (inferred preloaded)
14.12,APPROACH,FLY_TO_FIX,129.19,77,-52.19,1347.78,-2.56,1.58,3.77,156.14,46.676,0,0,0,0,0,0,0,0,0,0,246.14,0,0,0,-1.14,114.08,0,0,245.88,0,0,0,0,0,0,0,58.477,0,0,0,0,0,89.71,0,0,0,0,0,0,0,0,0,0,0,0,0,0,0,0,0,VALID,0,0,0,0,0,1,0,0,0,0,0,0,0,0,0,0,0,0,0,0,3.35,369.94,2,0,0.06,0.06,201,14.29,0.08,0.06,14.12,FLYING,CF1-F,0:/Integrated Flight Computer/aircraft/cf1_f_cfg.ks (inferred preloaded)
14.4,APPROACH,FLY_TO_FIX,127.88,77,-50.88,1347.1,-2.44,1.69,3.84,157.36,46.182,0,0,0,0,0,0,0,0,0,0,247.36,0,0,0,-1.1,112.93,0,0,247.1,0,0,0,0,0,0,0,58.494,0,0,0,0,0,89.71,0,0,0,0,0,0,0,0,0,0,0,0,0,0,0,0,0,VALID,0,0,0,0,0,1,0,0,0,0,0,0,0,0,0,0,0,0,0,0,3.13,370.69,2,0,0.06,0.06,205,14.29,0.08,0.06,14.4,FLYING,CF1-F,0:/Integrated Flight Computer/aircraft/cf1_f_cfg.ks (inferred preloaded)
14.68,APPROACH,FLY_TO_FIX,126.58,77,-49.58,1346.45,-2.33,1.81,3.91,158.58,45.694,0,0,0,0,0,0,0,0,0,0,248.58,0,0,0,-1.06,111.78,0,0,248.32,0,0,0,0,0,0,0,58.511,0,0,0,0,0,89.71,0,0,0,0,0,0,0,0,0,0,0,0,0,0,0,0,0,VALID,0,0,0,0,0,1,0,0,0,0,0,0,0,0,0,0,0,0,0,0,2.92,371.44,2,0,0.06,0.06,209,14.29,0.08,0.06,14.68,FLYING,CF1-F,0:/Integrated Flight Computer/aircraft/cf1_f_cfg.ks (inferred preloaded)
14.96,APPROACH,FLY_TO_FIX,125.31,77,-48.31,1345.83,-2.22,1.92,3.99,159.78,45.208,0,0,0,0,0,0,0,0,0,0,249.78,0,0,0,-1.02,110.65,0,0,249.52,0,0,0,0,0,0,0,58.526,0,0,0,0,0,89.71,0,0,0,0,0,0,0,0,0,0,0,0,0,0,0,0,0,VALID,0,0,0,0,0,1,0,0,0,0,0,0,0,0,0,0,0,0,0,0,2.73,372.19,2,0,0.06,0.06,213,14.29,0.08,0.06,14.96,FLYING,CF1-F,0:/Integrated Flight Computer/aircraft/cf1_f_cfg.ks (inferred preloaded)
15.24,APPROACH,FLY_TO_FIX,124.06,77,-47.06,1345.24,-2.12,2.03,4.06,160.97,44.725,0,0,0,0,0,0,0,0,0,0,250.97,0,0,0,-0.98,109.53,0,0,250.71,0,0,0,0,0,0,0,58.541,0,0,0,0,0,89.71,0,0,0,0,0,0,0,0,0,0,0,0,0,0,0,0,0,VALID,0,0,0,0,0,1,0,0,0,0,0,0,0,0,0,0,0,0,0,0,2.55,372.93,2,0,0.06,0.06,217,14.29,0.08,0.06,15.24,FLYING,CF1-F,0:/Integrated Flight Computer/aircraft/cf1_f_cfg.ks (inferred preloaded)
15.52,APPROACH,FLY_TO_FIX,122.83,77,-45.83,1344.68,-2.02,2.14,4.14,162.15,44.241,0,0,0,0,0,0,0,0,0,0,252.15,0,0,0,-0.95,108.42,0,0,251.9,0,0,0,0,0,0,0,58.555,0,0,0,0,0,89.71,0,0,0,0,0,0,0,0,0,0,0,0,0,0,0,0,0,VALID,0,0,0,0,0,1,0,0,0,0,0,0,0,0,0,0,0,0,0,0,2.38,373.66,2,0,0.06,0.06,221,14.29,0.08,0.06,15.52,FLYING,CF1-F,0:/Integrated Flight Computer/aircraft/cf1_f_cfg.ks (inferred preloaded)
15.8,APPROACH,FLY_TO_FIX,121.62,77,-44.62,1344.14,-1.93,2.25,4.22,163.32,43.762,0,0,0,0,0,0,0,0,0,0,253.32,0,0,0,-0.91,107.32,0,0,253.07,0,0,0,0,0,0,0,58.568,0,0,0,0,0,89.71,0,0,0,0,0,0,0,0,0,0,0,0,0,0,0,0,0,VALID,0,0,0,0,0,1,0,0,0,0,0,0,0,0,0,0,0,0,0,0,2.23,374.39,2,0,0.06,0.06,225,14.29,0.08,0.06,15.8,FLYING,CF1-F,0:/Integrated Flight Computer/aircraft/cf1_f_cfg.ks (inferred preloaded)
16.08,APPROACH,FLY_TO_FIX,120.43,77,-43.43,1343.63,-1.84,2.36,4.3,164.49,43.285,0,0,0,0,0,0,0,0,0,0,254.49,0,0,0,-0.88,106.23,0,0,254.24,0,0,0,0,0,0,0,58.58,0,0,0,0,0,89.71,0,0,0,0,0,0,0,0,0,0,0,0,0,0,0,0,0,VALID,0,0,0,0,0,1,0,0,0,0,0,0,0,0,0,0,0,0,0,0,2.08,375.12,2,0,0.06,0.06,229,14.29,0.08,0.06,16.08,FLYING,CF1-F,0:/Integrated Flight Computer/aircraft/cf1_f_cfg.ks (inferred preloaded)
16.36,APPROACH,FLY_TO_FIX,119.25,77,-42.25,1343.15,-1.76,2.49,4.4,165.66,42.829,0,0,0,0,0,0,0,0,0,0,255.66,0,0,0,-0.85,105.13,0,0,255.4,0,0,0,0,0,0,0,58.592,0,0,0,0,0,89.71,0,0,0,0,0,0,0,0,0,0,0,0,0,0,0,0,0,VALID,0,0,0,0,0,1,0,0,0,0,0,0,0,0,0,0,0,0,0,0,1.94,375.83,2,0,0.06,0.06,233,14.29,0.08,0.06,16.36,FLYING,CF1-F,0:/Integrated Flight Computer/aircraft/cf1_f_cfg.ks (inferred preloaded)
16.64,APPROACH,FLY_TO_FIX,118.1,77,-41.1,1342.69,-1.67,2.61,4.49,166.82,42.41,0,0,0,0,0,0,0,0,0,0,256.82,0,0,0,-0.81,104.04,0,0,256.57,0,0,0,0,0,0,0,58.602,0,0,0,0,0,89.71,0,0,0,0,0,0,0,0,0,0,0,0,0,0,0,0,0,VALID,0,0,0,0,0,1,0,0,0,0,0,0,0,0,0,0,0,0,0,0,1.81,376.55,2,0,0.06,0.06,237,14.29,0.08,0.06,16.64,FLYING,CF1-F,0:/Integrated Flight Computer/aircraft/cf1_f_cfg.ks (inferred preloaded)
16.92,APPROACH,FLY_TO_FIX,116.96,77,-39.96,1342.25,-1.59,2.72,4.58,167.96,41.983,0,0,0,0,0,0,0,0,0,0,257.96,0,0,0,-0.78,102.96,0,0,257.71,0,0,0,0,0,0,0,58.612,0,0,0,0,0,89.71,0,0,0,0,0,0,0,0,0,0,0,0,0,0,0,0,0,VALID,0,0,0,0,0,1,0,0,0,0,0,0,0,0,0,0,0,0,0,0,1.69,377.25,2,0,0.06,0.06,241,14.29,0.08,0.06,16.92,FLYING,CF1-F,0:/Integrated Flight Computer/aircraft/cf1_f_cfg.ks (inferred preloaded)
17.2,APPROACH,FLY_TO_FIX,115.83,77,-38.83,1341.83,-1.48,2.81,4.62,169.08,41.589,0,0,0,0,0,0,0,0,0,0,259.08,0,0,0,-0.74,101.91,0,0,258.85,0,0,0,0,0,0,0,58.621,0,0,0,0,0,89.71,0,0,0,0,0,0,0,0,0,0,0,0,0,0,0,0,0,VALID,0,0,0,0,0,1,0,0,0,0,0,0,0,0,0,0,0,0,0,0,1.58,377.95,2,0,0.06,0.06,245,14.29,0.08,0.06,17.2,FLYING,CF1-F,0:/Integrated Flight Computer/aircraft/cf1_f_cfg.ks (inferred preloaded)
17.48,APPROACH,FLY_TO_FIX,114.73,77,-37.73,1341.41,-1.51,2.76,4.56,170.1,41.445,0,0,0,0,0,0,0,0,0,0,260.1,0,0,0,-0.75,100.96,0,0,259.85,0,0,0,0,0,0,0,58.63,0,0,0,0,0,89.71,0,0,0,0,0,0,0,0,0,0,0,0,0,0,0,0,0,VALID,0,0,0,0,0,1,0,0,0,0,0,0,0,0,0,0,0,0,0,0,1.48,378.65,2,0,0.06,0.06,249,14.29,0.08,0.06,17.48,FLYING,CF1-F,0:/Integrated Flight Computer/aircraft/cf1_f_cfg.ks (inferred preloaded)
17.76,APPROACH,FLY_TO_FIX,113.65,77,-36.65,1341,-1.52,2.86,4.7,171.26,41.264,0,0,0,0,0,0,0,0,0,0,261.26,0,0,0,-0.76,99.87,0,0,261.02,0,0,0,0,0,0,0,58.638,0,0,0,0,0,89.71,0,0,0,0,0,0,0,0,0,0,0,0,0,0,0,0,0,VALID,0,0,0,0,0,1,0,0,0,0,0,0,0,0,0,0,0,0,0,0,1.38,379.33,2,0,0.06,0.06,253,14.29,0.08,0.06,17.76,FLYING,CF1-F,0:/Integrated Flight Computer/aircraft/cf1_f_cfg.ks (inferred preloaded)
18.04,APPROACH,FLY_TO_FIX,112.59,77,-35.59,1340.58,-1.53,2.94,4.8,172.39,41.021,0,0,0,0,0,0,0,0,0,0,262.39,0,0,0,-0.78,98.81,0,0,262.15,0,0,0,0,0,0,0,58.645,0,0,0,0,0,89.71,0,0,0,0,0,0,0,0,0,0,0,0,0,0,0,0,0,VALID,0,0,0,0,0,1,0,0,0,0,0,0,0,0,0,0,0,0,0,0,1.29,380.01,2,0,0.06,0.06,257,14.29,0.08,0.06,18.04,FLYING,CF1-F,0:/Integrated Flight Computer/aircraft/cf1_f_cfg.ks (inferred preloaded)
18.32,APPROACH,FLY_TO_FIX,111.54,77,-34.54,1340.17,-1.55,3.02,4.9,173.51,40.719,0,0,0,0,0,0,0,0,0,0,263.51,0,0,0,-0.79,97.76,0,0,263.27,0,0,0,0,0,0,0,58.651,0,0,0,0,0,89.71,0,0,0,0,0,0,0,0,0,0,0,0,0,0,0,0,0,VALID,0,0,0,0,0,1,0,0,0,0,0,0,0,0,0,0,0,0,0,0,1.2,380.68,2,0,0.06,0.06,261,14.29,0.08,0.06,18.32,FLYING,CF1-F,0:/Integrated Flight Computer/aircraft/cf1_f_cfg.ks (inferred preloaded)
18.6,APPROACH,FLY_TO_FIX,110.51,77,-33.51,1339.74,-1.57,3.09,5,174.61,40.358,0,0,0,0,0,0,0,0,0,0,264.61,0,0,0,-0.81,96.72,0,0,264.37,0,0,0,0,0,0,0,58.657,0,0,0,0,0,89.71,0,0,0,0,0,0,0,0,0,0,0,0,0,0,0,0,0,VALID,0,0,0,0,0,1,0,0,0,0,0,0,0,0,0,0,0,0,0,0,1.12,381.35,2,0,0.06,0.06,265,14.29,0.08,0.06,18.6,FLYING,CF1-F,0:/Integrated Flight Computer/aircraft/cf1_f_cfg.ks (inferred preloaded)
18.88,APPROACH,FLY_TO_FIX,109.49,77,-32.49,1339.31,-1.6,3.17,5.09,175.7,39.94,0,0,0,0,0,0,0,0,0,0,265.7,0,0,0,-0.84,95.7,0,0,265.47,0,0,0,0,0,0,0,58.662,0,0,0,0,0,89.71,0,0,0,0,0,0,0,0,0,0,0,0,0,0,0,0,0,VALID,0,0,0,0,0,1,0,0,0,0,0,0,0,0,0,0,0,0,0,0,1.05,382.01,2,0,0.06,0.06,269,14.29,0.08,0.06,18.88,FLYING,CF1-F,0:/Integrated Flight Computer/aircraft/cf1_f_cfg.ks (inferred preloaded)
19.16,APPROACH,FLY_TO_FIX,108.49,77,-31.49,1338.87,-1.64,3.25,5.18,176.77,39.404,0,0,0,0,0,0,0,0,0,0,266.77,0,0,0,-0.86,94.69,0,0,266.55,0,0,0,0,0,0,0,58.666,0,0,0,0,0,89.71,0,0,0,0,0,0,0,0,0,0,0,0,0,0,0,0,0,VALID,0,0,0,0,0,1,0,0,0,0,0,0,0,0,0,0,0,0,0,0,0.98,382.67,2,0,0.06,0.06,273,14.29,0.08,0.06,19.16,FLYING,CF1-F,0:/Integrated Flight Computer/aircraft/cf1_f_cfg.ks (inferred preloaded)
19.46,APPROACH,FLY_TO_FIX,107.52,77,-30.52,1338.38,-1.65,3.36,5.28,177.87,38.579,0,0,0,0,0,0,0,0,0,0,267.87,0,0,0,-0.88,93.66,0,0,267.59,0,0,0,0,0,0,0,58.67,0,0,0,0,0,89.71,0,0,0,0,0,0,0,0,0,0,0,0,0,0,0,0,0,VALID,0,0,0,0,0,1,0,0,0,0,0,0,0,0,0,0,0,0,0,0,0.91,383.31,2,0,0.077,0.077,278,16.42,0.077,0.041,19.46,FLYING,CF1-F,0:/Integrated Flight Computer/aircraft/cf1_f_cfg.ks (inferred preloaded)
19.77,APPROACH,FLY_TO_FIX,106.54,77,-29.54,1337.87,-1.7,3.44,5.35,178.97,37.676,0,0,0,0,0,0,0,0,0,0,268.97,0,0,0,-0.91,92.63,0,0,268.63,0,0,0,0,0,0,0,58.673,0,0,0,0,0,89.71,0,0,0,0,0,0,0,0,0,0,0,0,0,0,0,0,0,VALID,0,0,0,0,0,1,0,0,0,0,0,0,0,0,0,0,0,0,0,0,0.84,383.96,2,0,0.094,0.094,282,12.92,0.094,0.06,19.77,FLYING,CF1-F,0:/Integrated Flight Computer/aircraft/cf1_f_cfg.ks (inferred preloaded)
20.1,APPROACH,FLY_TO_FIX,105.44,77,-28.44,1337.35,-1.7,3.65,5.52,180.13,36.595,0,0,0,0,0,0,0,0,0,0,270.13,0,0,0,-0.92,91.55,0,0,269.77,0,0,0,0,0,0,0,58.676,0,0,0,0,0,89.71,0,0,0,0,0,0,0,0,0,0,0,0,0,0,0,0,0,VALID,0,0,0,0,0,1,0,0,0,0,0,0,0,0,0,0,0,0,0,0,0.78,384.69,2,0,0.099,0.099,286,12.29,0.099,0.063,20.1,FLYING,CF1-F,0:/Integrated Flight Computer/aircraft/cf1_f_cfg.ks (inferred preloaded)
20.41,APPROACH,FLY_TO_FIX,104.43,77,-27.43,1336.86,-1.66,3.81,5.69,181.28,36.311,0,0,0,0,0,0,0,0,0,0,271.28,0,0,0,-0.91,90.47,0,0,270.89,0,0,0,0,0,0,0,58.677,0,0,0,0,0,89.71,0,0,0,0,0,0,0,0,0,0,0,0,0,0,0,0,0,VALID,0,0,0,0,0,1,0,0,0,0,0,0,0,0,0,0,0,0,0,0,0.72,385.37,2,0,0.103,0.103,289,9.77,0.103,0.099,20.41,FLYING,CF1-F,0:/Integrated Flight Computer/aircraft/cf1_f_cfg.ks (inferred preloaded)
20.72,APPROACH,FLY_TO_FIX,103.39,77,-26.39,1336.36,-1.64,3.93,5.83,182.46,36.007,0,0,0,0,0,0,0,0,0,0,271.82,0.521,0,0,-0.91,89.36,0,0.52,271.8,0,0,0,0,0,0,0,58.678,0,0,0,0,0,89.71,0,0,0,0,0,0,0,0,0,0,0,0,0,0,0,0,0,VALID,0,0,0,0,0,1,0,0,0,0,0,0,0,0,0,0,0,0,0,0,0.67,386.07,2,0,0.105,0.105,292,9.52,0.105,0.103,20.72,FLYING,CF1-F,0:/Integrated Flight Computer/aircraft/cf1_f_cfg.ks (inferred preloaded)
21.07,APPROACH,FLY_TO_FIX,102.23,77,-25.23,1335.81,-1.62,4.08,5.98,183.76,35.607,0,0,0,0,0,0,0,0,0,0,271.9,0.517,0,0,-0.91,88.14,0,0.52,271.88,0,0,0,0,0,0,0,58.679,0,0,0,0,0,89.71,0,0,0,0,0,0,0,0,0,0,0,0,0,0,0,0,0,VALID,0,0,0,0,0,1,0,0,0,0,0,0,0,0,0,0,0,0,0,0,0.61,386.85,2,0,0.105,0.105,295,8.57,0.14,0.105,21.07,FLYING,CF1-F,0:/Integrated Flight Computer/aircraft/cf1_f_cfg.ks (inferred preloaded)
21.39,APPROACH,FLY_TO_FIX,101.2,77,-24.2,1335.33,-1.61,4.22,6.12,184.91,35.211,0,0,0,0,0,0,0,0,0,0,271.97,0.516,0,0,-0.91,87.06,0,0.52,271.95,0,0,0,0,0,0,0,58.679,0,0,0,0,0,89.71,0,0,0,0,0,0,0,0,0,0,0,0,0,0,0,0,0,VALID,0,0,0,0,0,1,0,0,0,0,0,0,0,0,0,0,0,0,0,0,0.57,387.55,2,0,0.105,0.105,298,9.52,0.105,0.105,21.39,FLYING,CF1-F,0:/Integrated Flight Computer/aircraft/cf1_f_cfg.ks (inferred preloaded)
21.7,APPROACH,FLY_TO_FIX,100.18,77,-23.18,1334.85,-1.59,4.37,6.27,186.07,34.799,0,0,0,0,0,0,0,0,0,0,272.04,0.514,0,0,-0.91,85.97,0,0.51,272.02,0,0,0,0,0,0,0,58.678,0,0,0,0,0,89.71,0,0,0,0,0,0,0,0,0,0,0,0,0,0,0,0,0,VALID,0,0,0,0,0,1,0,0,0,0,0,0,0,0,0,0,0,0,0,0,0.53,388.24,2,0,0.105,0.105,301,9.52,0.105,0.105,21.7,FLYING,CF1-F,0:/Integrated Flight Computer/aircraft/cf1_f_cfg.ks (inferred preloaded)
22.02,APPROACH,FLY_TO_FIX,99.18,77,-22.18,1334.38,-1.58,4.52,6.43,187.21,34.377,0,0,0,0,0,0,0,0,0,0,272.11,0.511,0,0,-0.91,84.89,0,0.51,272.09,0,0,0,0,0,0,0,58.676,0,0,0,0,0,89.71,0,0,0,0,0,0,0,0,0,0,0,0,0,0,0,0,0,VALID,0,0,0,0,0,1,0,0,0,0,0,0,0,0,0,0,0,0,0,0,0.49,388.93,2,0,0.105,0.105,304,9.52,0.105,0.105,22.02,FLYING,CF1-F,0:/Integrated Flight Computer/aircraft/cf1_f_cfg.ks (inferred preloaded)
22.33,APPROACH,FLY_TO_FIX,98.18,77,-21.18,1333.91,-1.56,4.67,6.58,188.35,33.937,0,0,0,0,0,0,0,0,0,0,272.18,0.508,0,0,-0.91,83.82,0,0.51,272.15,0,0,0,0,0,0,0,58.674,0,0,0,0,0,89.71,0,0,0,0,0,0,0,0,0,0,0,0,0,0,0,0,0,VALID,0,0,0,0,0,1,0,0,0,0,0,0,0,0,0,0,0,0,0,0,0.45,389.61,2,0,0.105,0.105,307,9.52,0.105,0.105,22.33,FLYING,CF1-F,0:/Integrated Flight Computer/aircraft/cf1_f_cfg.ks (inferred preloaded)
22.65,APPROACH,FLY_TO_FIX,97.19,77,-20.19,1333.45,-1.54,4.85,6.73,189.45,33.182,0,0,0,0,0,0,0,0,0,0,272.24,0.504,0,0,-0.91,82.79,0,0.51,272.22,0,0,0,0,0,0,0,58.671,0,0,0,0,0,89.71,0,0,0,0,0,0,0,0,0,0,0,0,0,0,0,0,0,VALID,0,0,0,0,0,1,0,0,0,0,0,0,0,0,0,0,0,0,0,0,0.42,390.29,2,0,0.105,0.105,310,9.52,0.105,0.105,22.65,FLYING,CF1-F,0:/Integrated Flight Computer/aircraft/cf1_f_cfg.ks (inferred preloaded)
22.96,APPROACH,FLY_TO_FIX,96.21,77,-19.21,1333,-1.51,5.01,6.88,190.54,32.734,0,0,0,0,0,0,0,0,0,0,272.31,0.498,0,0,-0.9,81.77,0,0.5,272.29,0,0,0,0,0,0,0,58.667,0,0,0,0,0,89.71,0,0,0,0,0,0,0,0,0,0,0,0,0,0,0,0,0,VALID,0,0,0,0,0,1,0,0,0,0,0,0,0,0,0,0,0,0,0,0,0.39,390.96,2,0,0.105,0.105,313,9.52,0.105,0.105,22.96,FLYING,CF1-F,0:/Integrated Flight Computer/aircraft/cf1_f_cfg.ks (inferred preloaded)
23.28,APPROACH,FLY_TO_FIX,95.25,77,-18.25,1332.56,-1.48,5.2,7.05,191.64,32.173,0,0,0,0,0,0,0,0,0,0,272.38,0.492,0,0,-0.89,80.74,0,0.5,272.35,0,0,0,0,0,0,0,58.663,0,0,0,0,0,89.71,0,0,0,0,0,0,0,0,0,0,0,0,0,0,0,0,0,VALID,0,0,0,0,0,1,0,0,0,0,0,0,0,0,0,0,0,0,0,0,0.36,391.63,2,0,0.105,0.105,316,9.52,0.105,0.105,23.28,FLYING,CF1-F,0:/Integrated Flight Computer/aircraft/cf1_f_cfg.ks (inferred preloaded)
23.59,APPROACH,FLY_TO_FIX,94.29,77,-17.29,1332.13,-1.44,5.4,7.24,192.74,31.791,0,0,0,0,0,0,0,0,0,0,272.44,0.483,0,0,-0.88,79.7,0,0.49,272.42,0,0,0,0,0,0,0,58.658,0,0,0,0,0,89.71,0,0,0,0,0,0,0,0,0,0,0,0,0,0,0,0,0,VALID,0,0,0,0,0,1,0,0,0,0,0,0,0,0,0,0,0,0,0,0,0.33,392.29,2,0,0.105,0.105,319,9.52,0.105,0.105,23.59,FLYING,CF1-F,0:/Integrated Flight Computer/aircraft/cf1_f_cfg.ks (inferred preloaded)
23.91,APPROACH,FLY_TO_FIX,93.34,77,-16.34,1331.71,-1.41,5.59,7.43,193.86,31.422,0,0,0,0,0,0,0,0,0,0,272.51,0.474,0,0,-0.86,78.65,0,0.48,272.48,0,0,0,0,0,0,0,58.653,0,0,0,0,0,89.71,0,0,0,0,0,0,0,0,0,0,0,0,0,0,0,0,0,VALID,0,0,0,0,0,1,0,0,0,0,0,0,0,0,0,0,0,0,0,0,0.31,392.94,2,0,0.105,0.105,322,9.52,0.105,0.105,23.91,FLYING,CF1-F,0:/Integrated Flight Computer/aircraft/cf1_f_cfg.ks (inferred preloaded)
24.26,APPROACH,FLY_TO_FIX,92.29,77,-15.29,1331.27,-1.36,5.81,7.63,195.08,31.011,0,0,0,0,0,0,0,0,0,0,272.58,0.463,0,0,-0.85,77.5,0,0.47,272.56,0,0,0,0,0,0,0,58.647,0,0,0,0,0,89.71,0,0,0,0,0,0,0,0,0,0,0,0,0,0,0,0,0,VALID,0,0,0,0,0,1,0,0,0,0,0,0,0,0,0,0,0,0,0,0,0.28,393.67,2,0,0.105,0.105,325,8.57,0.14,0.105,24.26,FLYING,CF1-F,0:/Integrated Flight Computer/aircraft/cf1_f_cfg.ks (inferred preloaded)
24.57,APPROACH,FLY_TO_FIX,91.36,77,-14.36,1330.88,-1.32,6.01,7.82,196.17,30.502,0,0,0,0,0,0,0,0,0,0,272.64,0.453,0,0,-0.83,76.47,0,0.46,272.62,0,0,0,0,0,0,0,58.641,0,0,0,0,0,89.71,0,0,0,0,0,0,0,0,0,0,0,0,0,0,0,0,0,VALID,0,0,0,0,0,1,0,0,0,0,0,0,0,0,0,0,0,0,0,0,0.26,394.32,2,0,0.105,0.105,328,9.52,0.105,0.105,24.57,FLYING,CF1-F,0:/Integrated Flight Computer/aircraft/cf1_f_cfg.ks (inferred preloaded)
24.89,APPROACH,FLY_TO_FIX,90.42,77,-13.42,1330.5,-1.28,6.22,8,197.23,30.052,0,0,0,0,0,0,0,0,0,0,272.7,0.441,0,0,-0.81,75.47,0,0.45,272.68,0,0,0,0,0,0,0,58.634,0,0,0,0,0,89.71,0,0,0,0,0,0,0,0,0,0,0,0,0,0,0,0,0,VALID,0,0,0,0,0,1,0,0,0,0,0,0,0,0,0,0,0,0,0,0,0.24,394.97,2,0,0.105,0.105,331,9.52,0.105,0.105,24.89,FLYING,CF1-F,0:/Integrated Flight Computer/aircraft/cf1_f_cfg.ks (inferred preloaded)
25.2,APPROACH,FLY_TO_FIX,89.5,77,-12.5,1330.15,-1.23,6.45,8.19,198.26,29.315,0,0,0,0,0,0,0,0,0,0,272.76,0.43,0,0,-0.79,74.5,0,0.44,272.74,0,0,0,0,0,0,0,58.627,0,0,0,0,0,89.71,0,0,0,0,0,0,0,0,0,0,0,0,0,0,0,0,0,VALID,0,0,0,0,0,1,0,0,0,0,0,0,0,0,0,0,0,0,0,0,0.22,395.61,2,0,0.105,0.105,334,9.52,0.105,0.105,25.2,FLYING,CF1-F,0:/Integrated Flight Computer/aircraft/cf1_f_cfg.ks (inferred preloaded)
25.52,APPROACH,FLY_TO_FIX,88.58,77,-11.58,1329.8,-1.18,6.66,8.35,199.28,28.842,0,0,0,0,0,0,0,0,0,0,272.82,0.416,0,0,-0.76,73.54,0,0.42,272.8,0,0,0,0,0,0,0,58.619,0,0,0,0,0,89.71,0,0,0,0,0,0,0,0,0,0,0,0,0,0,0,0,0,VALID,0,0,0,0,0,1,0,0,0,0,0,0,0,0,0,0,0,0,0,0,5.14,396.25,2,0,0.105,0.105,337,9.52,0.105,0.105,25.52,FLYING,CF1-F,0:/Integrated Flight Computer/aircraft/cf1_f_cfg.ks (inferred preloaded)
25.83,APPROACH,FLY_TO_FIX,87.69,77,-10.69,1329.48,-1.13,6.89,8.53,200.26,28.026,0,0,0,0,0,0,0,0,0,0,272.88,0.403,0,0,-0.74,72.62,0,0.41,272.86,0,0,0,0,0,0,0,58.611,0,0,0,0,0,89.71,0,0,0,0,0,0,0,0,0,0,0,0,0,0,0,0,0,VALID,0,0,0,0,0,1,0,0,0,0,0,0,0,0,0,0,0,0,0,0,11.61,396.87,2,0,0.105,0.105,340,9.52,0.105,0.105,25.83,FLYING,CF1-F,0:/Integrated Flight Computer/aircraft/cf1_f_cfg.ks (inferred preloaded)
26.15,APPROACH,FLY_TO_FIX,86.84,77,-9.84,1329.17,-1.07,7.1,8.7,201.25,27.703,0,0,0,0,0,0,0,0,0,0,272.94,0.386,0,0,-0.71,71.69,0,0.39,272.92,0,0,0,0,0,0,0,58.602,0,0,0,0,0,89.71,0,0,0,0,0,0,0,0,0,0,0,0,0,0,0,0,0,VALID,0,0,0,0,0,1,0,0,0,0,0,0,0,0,0,0,0,0,0,0,17.01,397.46,2,0,0.105,0.105,343,9.52,0.105,0.105,26.15,FLYING,CF1-F,0:/Integrated Flight Computer/aircraft/cf1_f_cfg.ks (inferred preloaded)
26.46,APPROACH,FLY_TO_FIX,86.04,77,-9.04,1328.88,-1.01,7.3,8.88,202.27,27.398,0,0,0,0,0,0,0,0,0,0,273,0.37,0,0,-0.68,70.73,0,0.38,272.98,0,0,0,0,0,0,0,58.593,0,0,0,0,0,89.71,0,0,0,0,0,0,0,0,0,0,0,0,0,0,0,0,0,VALID,0,0,0,0,0,1,0,0,0,0,0,0,0,0,0,0,0,0,0,0,23.21,398.02,2,0,0.105,0.105,346,9.52,0.105,0.105,26.46,FLYING,CF1-F,0:/Integrated Flight Computer/aircraft/cf1_f_cfg.ks (inferred preloaded)
26.78,APPROACH,FLY_TO_FIX,85.27,77,-8.27,1328.6,-0.96,7.5,9.05,203.27,27.085,0,0,0,0,0,0,0,0,0,0,273.06,0.355,0,0,-0.64,69.79,0,0.36,273.04,0,0,0,0,0,0,0,58.584,0,0,0,0,0,89.71,0,0,0,0,0,0,0,0,0,0,0,0,0,0,0,0,0,VALID,0,0,0,0,0,1,0,0,0,0,0,0,0,0,0,0,0,0,0,0,28.28,398.55,2,0,0.105,0.105,349,9.52,0.105,0.105,26.78,FLYING,CF1-F,0:/Integrated Flight Computer/aircraft/cf1_f_cfg.ks (inferred preloaded)
27.09,APPROACH,FLY_TO_FIX,84.54,77,-7.54,1328.34,-0.9,7.7,9.21,204.26,26.691,0,0,0,0,0,0,0,0,0,0,273.11,0.341,0,0,-0.62,68.85,0,0.35,273.09,0,0,0,0,0,0,0,58.574,0,0,0,0,0,89.71,0,0,0,0,0,0,0,0,0,0,0,0,0,0,0,0,0,VALID,0,0,0,0,0,1,0,0,0,0,0,0,0,0,0,0,0,0,0,0,34.22,399.05,2,0,0.105,0.105,352,9.52,0.105,0.105,27.09,FLYING,CF1-F,0:/Integrated Flight Computer/aircraft/cf1_f_cfg.ks (inferred preloaded)
27.44,APPROACH,FLY_TO_FIX,83.79,77,-6.79,1328.07,-0.84,7.91,9.39,205.35,26.343,0,0,0,0,0,0,0,0,0,0,273.17,0.324,0,0,-0.58,67.83,0,0.33,273.16,0,0,0,0,0,0,0,58.563,0,0,0,0,0,89.71,0,0,0,0,0,0,0,0,0,0,0,0,0,0,0,0,0,VALID,0,0,0,0,0,1,0,0,0,0,0,0,0,0,0,0,0,0,0,0,39.74,399.58,2,0,0.105,0.105,355,8.57,0.14,0.105,27.44,FLYING,CF1-F,0:/Integrated Flight Computer/aircraft/cf1_f_cfg.ks (inferred preloaded)
27.76,APPROACH,FLY_TO_FIX,83.16,77,-6.16,1327.85,-0.79,8.1,9.54,206.32,26.04,0,0,0,0,0,0,0,0,0,0,273.23,0.308,0,0,-0.55,66.91,0,0.31,273.21,0,0,0,0,0,0,0,58.552,0,0,0,0,0,89.71,0,0,0,0,0,0,0,0,0,0,0,0,0,0,0,0,0,VALID,0,0,0,0,0,1,0,0,0,0,0,0,0,0,0,0,0,0,0,0,44.31,400.02,2,0,0.105,0.105,358,9.52,0.105,0.105,27.76,FLYING,CF1-F,0:/Integrated Flight Computer/aircraft/cf1_f_cfg.ks (inferred preloaded)
28.07,APPROACH,FLY_TO_FIX,82.57,77,-5.57,1327.64,-0.73,8.29,9.69,207.29,25.749,0,0,0,0,0,0,0,0,0,0,273.28,0.292,0,0,-0.51,66,0,0.3,273.27,0,0,0,0,0,0,0,58.541,0,0,0,0,0,89.71,0,0,0,0,0,0,0,0,0,0,0,0,0,0,0,0,0,VALID,0,0,0,0,0,1,0,0,0,0,0,0,0,0,0,0,0,0,0,0,49.88,400.43,2,0,0.105,0.105,361,9.52,0.105,0.105,28.07,FLYING,CF1-F,0:/Integrated Flight Computer/aircraft/cf1_f_cfg.ks (inferred preloaded)
28.39,APPROACH,FLY_TO_FIX,82.05,77,-5.05,1327.45,-0.67,8.47,9.83,208.24,25.468,0,0,0,0,0,0,0,0,0,0,273.34,0.276,0,0,-0.47,65.1,0,0.28,273.32,0,0,0,0,0,0,0,58.53,0,0,0,0,0,89.71,0,0,0,0,0,0,0,0,0,0,0,0,0,0,0,0,0,VALID,0,0,0,0,0,1,0,0,0,0,0,0,0,0,0,0,0,0,0,0,54.14,400.8,2,0,0.105,0.105,364,9.52,0.105,0.105,28.39,FLYING,CF1-F,0:/Integrated Flight Computer/aircraft/cf1_f_cfg.ks (inferred preloaded)
28.7,APPROACH,FLY_TO_FIX,81.61,77,-4.61,1327.28,-0.61,8.63,9.95,209.19,25.201,0,0,0,0,0,0,0,0,0,0,273.39,0.259,0,0,-0.43,64.2,0,0.27,273.37,0,0,0,0,0,0,0,58.519,0,0,0,0,0,89.71,0,0,0,0,0,0,0,0,0,0,0,0,0,0,0,0,0,VALID,0,0,0,0,0,1,0,0,0,0,0,0,0,0,0,0,0,0,0,0,59.47,401.1,2,0,0.105,0.105,367,9.52,0.105,0.105,28.7,FLYING,CF1-F,0:/Integrated Flight Computer/aircraft/cf1_f_cfg.ks (inferred preloaded)
29.02,APPROACH,FLY_TO_FIX,81.28,77,-4.28,1327.12,-0.55,8.78,10.05,210.12,24.952,0,0,0,0,0,0,0,0,0,0,273.44,0.24,0,0,-0.39,63.33,0,0.25,273.43,0,0,0,0,0,0,0,58.507,0,0,0,0,0,89.71,0,0,0,0,0,0,0,0,0,0,0,0,0,0,0,0,0,VALID,0,0,0,0,0,1,0,0,0,0,0,0,0,0,0,0,0,0,0,0,63.43,401.34,2,0,0.105,0.105,370,9.52,0.105,0.105,29.02,FLYING,CF1-F,0:/Integrated Flight Computer/aircraft/cf1_f_cfg.ks (inferred preloaded)
29.33,APPROACH,FLY_TO_FIX,81.04,77,-4.04,1326.98,-0.48,8.91,10.13,211.03,24.726,0,0,0,0,0,0,0,0,0,0,273.5,0.221,0,0,-0.34,62.46,0,0.23,273.48,0,0,0,0,0,0,0,58.494,0,0,0,0,0,89.71,0,0,0,0,0,0,0,0,0,0,0,0,0,0,0,0,0,VALID,0,0,0,0,0,1,0,0,0,0,0,0,0,0,0,0,0,0,0,0,68.52,401.5,2,0,0.105,0.105,373,9.52,0.105,0.105,29.33,FLYING,CF1-F,0:/Integrated Flight Computer/aircraft/cf1_f_cfg.ks (inferred preloaded)
29.65,APPROACH,FLY_TO_FIX,80.86,77,-3.86,1326.86,-0.4,9.01,10.17,211.94,24.522,0,0,0,0,0,0,0,0,0,0,273.55,0.198,0,0,-0.29,61.61,0,0.21,273.53,0,0,0,0,0,0,0,58.481,0,0,0,0,0,89.71,0,0,0,0,0,0,0,0,0,0,0,0,0,0,0,0,0,VALID,0,0,0,0,0,1,0,0,0,0,0,0,0,0,0,0,0,0,0,0,72.18,401.64,2,0,0.105,0.105,376,9.52,0.105,0.105,29.65,FLYING,CF1-F,0:/Integrated Flight Computer/aircraft/cf1_f_cfg.ks (inferred preloaded)
29.96,APPROACH,FLY_TO_FIX,80.71,77,-3.71,1326.76,-0.32,9.1,10.2,212.83,24.341,0,0,0,0,0,0,0,0,0,0,273.6,0.175,0,0,-0.23,60.77,0,0.18,273.58,0,0,0,0,0,0,0,58.468,0,0,0,0,0,89.71,0,0,0,0,0,0,0,0,0,0,0,0,0,0,0,0,0,VALID,0,0,0,0,0,1,0,0,0,0,0,0,0,0,0,0,0,0,0,0,77.05,401.74,2,0,0.105,0.105,379,9.52,0.105,0.105,29.96,FLYING,CF1-F,0:/Integrated Flight Computer/aircraft/cf1_f_cfg.ks (inferred preloaded)
30.28,APPROACH,FLY_TO_FIX,80.58,77,-3.58,1326.69,-0.24,9.18,10.21,213.72,24.181,0,0,0,0,0,0,0,0,0,0,273.65,0.15,0,0,-0.18,59.93,0,0.16,273.63,0,0,0,0,0,0,0,58.455,0,0,0,0,0,89.71,0,0,0,0,0,0,0,0,0,0,0,0,0,0,0,0,0,VALID,0,0,0,0,0,1,0,0,0,0,0,0,0,0,0,0,0,0,0,0,80.43,401.83,2,0,0.105,0.105,382,9.52,0.105,0.105,30.28,FLYING,CF1-F,0:/Integrated Flight Computer/aircraft/cf1_f_cfg.ks (inferred preloaded)
30.63,APPROACH,FLY_TO_FIX,80.46,77,-3.46,1326.64,-0.14,9.25,10.22,214.7,24.025,0,0,0,0,0,0,0,0,0,0,273.71,0.122,0,0,-0.11,59.01,0,0.13,273.69,0,0,0,0,0,0,0,58.439,0,0,0,0,0,89.71,0,0,0,0,0,0,0,0,0,0,0,0,0,0,0,0,0,VALID,0,0,0,0,0,1,0,0,0,0,0,0,0,0,0,0,0,0,0,0,85.73,401.92,2,0,0.105,0.105,385,8.57,0.14,0.105,30.63,FLYING,CF1-F,0:/Integrated Flight Computer/aircraft/cf1_f_cfg.ks (inferred preloaded)
30.94,APPROACH,FLY_TO_FIX,80.37,77,-3.37,1326.62,-0.06,9.32,10.22,215.57,23.902,0,0,0,0,0,0,0,0,0,0,273.76,0.097,0,0,-0.05,58.18,0,0.11,273.74,0,0,0,0,0,0,0,58.425,0,0,0,0,0,89.71,0,0,0,0,0,0,0,0,0,0,0,0,0,0,0,0,0,VALID,0,0,0,0,0,1,0,0,0,0,0,0,0,0,0,0,0,0,0,0,90.25,401.98,2,0,0.105,0.105,388,9.52,0.105,0.105,30.94,FLYING,CF1-F,0:/Integrated Flight Computer/aircraft/cf1_f_cfg.ks (inferred preloaded)
31.26,APPROACH,FLY_TO_FIX,80.3,77,-3.3,1326.62,0.03,9.38,10.22,216.45,23.797,0,0,0,0,0,0,0,0,0,0,273.81,0.071,0,0,0.01,57.36,0,0.08,273.79,0,0,0,0,0,0,0,58.41,0,0,0,0,0,89.71,0,0,0,0,0,0,0,0,0,0,0,0,0,0,0,0,0,VALID,0,0,0,0,0,1,0,0,0,0,0,0,0,0,0,0,0,0,0,0,93.21,402.03,2,0,0.105,0.105,391,9.52,0.105,0.105,31.26,FLYING,CF1-F,0:/Integrated Flight Computer/aircraft/cf1_f_cfg.ks (inferred preloaded)
31.57,APPROACH,FLY_TO_FIX,80.23,77,-3.23,1326.66,0.11,9.43,10.22,217.32,23.707,0,0,0,0,0,0,0,0,0,0,273.86,0.046,0,0,0.07,56.53,0,0.05,273.84,0,0,0,0,0,0,0,58.395,0,0,0,0,0,89.71,0,0,0,0,0,0,0,0,0,0,0,0,0,0,0,0,0,VALID,0,0,0,0,0,1,0,0,0,0,0,0,0,0,0,0,0,0,0,0,97.54,402.07,2,0,0.105,0.105,394,9.52,0.105,0.105,31.57,FLYING,CF1-F,0:/Integrated Flight Computer/aircraft/cf1_f_cfg.ks (inferred preloaded)
31.89,APPROACH,FLY_TO_FIX,80.19,77,-3.19,1326.72,0.2,9.48,10.2,218.19,23.632,0,0,0,0,0,0,0,0,0,0,273.91,0.019,0,0,0.14,55.71,0,0.03,273.89,0,0,0,0,0,0,0,58.38,0,0,0,0,0,89.71,0,0,0,0,0,0,0,0,0,0,0,0,0,0,0,0,0,VALID,0,0,0,0,0,1,0,0,0,0,0,0,0,0,0,0,0,0,0,0,100.27,402.1,2,0,0.105,0.105,397,9.52,0.105,0.105,31.89,FLYING,CF1-F,0:/Integrated Flight Computer/aircraft/cf1_f_cfg.ks (inferred preloaded)
32.2,APPROACH,FLY_TO_FIX,80.15,77,-3.15,1326.8,0.28,9.53,10.19,219.06,23.57,0,0,0,0,0,0,0,0,0,0,273.95,-0.006,0,0,0.2,54.89,0,0,273.94,0,0,0,0,0,0,0,58.364,0,0,0,0,0,89.71,0,0,0,0,0,0,0,0,0,0,0,0,0,0,0,0,0,VALID,0,0,0,0,0,1,0,0,0,0,0,0,0,0,0,0,0,0,0,0,104.42,402.12,2,0,0.105,0.105,400,9.52,0.105,0.105,32.2,FLYING,CF1-F,0:/Integrated Flight Computer/aircraft/cf1_f_cfg.ks (inferred preloaded)
32.52,APPROACH,FLY_TO_FIX,80.13,77,-3.13,1326.91,0.37,9.56,10.17,219.92,23.519,0,0,0,0,0,0,0,0,0,0,274,-0.033,0,0,0.26,54.08,0,-0.02,273.99,0,0,0,0,0,0,0,58.348,0,0,0,0,0,89.71,0,0,0,0,0,0,0,0,0,0,0,0,0,0,0,0,0,VALID,0,0,0,0,0,1,0,0,0,0,0,0,0,0,0,0,0,0,0,0,106.93,402.13,2,0,0.105,0.105,403,9.52,0.105,0.105,32.52,FLYING,CF1-F,0:/Integrated Flight Computer/aircraft/cf1_f_cfg.ks (inferred preloaded)
32.83,APPROACH,FLY_TO_FIX,80.12,77,-3.12,1327.05,0.45,9.6,10.14,220.79,23.478,0,0,0,0,0,0,0,0,0,0,274.05,-0.058,0,0,0.32,53.26,0,-0.05,274.03,0,0,0,0,0,0,0,58.332,0,0,0,0,0,89.71,0,0,0,0,0,0,0,0,0,0,0,0,0,0,0,0,0,VALID,0,0,0,0,0,1,0,0,0,0,0,0,0,0,0,0,0,0,0,0,110.9,402.13,2,0,0.105,0.105,406,9.52,0.105,0.105,32.83,FLYING,CF1-F,0:/Integrated Flight Computer/aircraft/cf1_f_cfg.ks (inferred preloaded)
33.15,APPROACH,FLY_TO_FIX,80.13,77,-3.13,1327.21,0.53,9.63,10.12,221.65,23.447,0,0,0,0,0,0,0,0,0,0,274.1,-0.083,0,0,0.38,52.45,0,-0.07,274.08,0,0,0,0,0,0,0,58.315,0,0,0,0,0,89.71,0,0,0,0,0,0,0,0,0,0,0,0,0,0,0,0,0,VALID,0,0,0,0,0,1,0,0,0,0,0,0,0,0,0,0,0,0,0,0,113.2,402.12,2,0,0.105,0.105,409,9.52,0.105,0.105,33.15,FLYING,CF1-F,0:/Integrated Flight Computer/aircraft/cf1_f_cfg.ks (inferred preloaded)
33.46,APPROACH,FLY_TO_FIX,80.14,77,-3.14,1327.39,0.61,9.65,10.09,222.51,23.429,0,0,0,0,0,0,0,0,0,0,274.14,-0.108,0,0,0.43,51.63,0,-0.1,274.13,0,0,0,0,0,0,0,58.298,0,0,0,0,0,89.71,0,0,0,0,0,0,0,0,0,0,0,0,0,0,0,0,0,VALID,0,0,0,0,0,1,0,0,0,0,0,0,0,0,0,0,0,0,0,0,117.01,402.1,2,0,0.105,0.105,412,9.52,0.105,0.105,33.46,FLYING,CF1-F,0:/Integrated Flight Computer/aircraft/cf1_f_cfg.ks (inferred preloaded)
33.81,APPROACH,FLY_TO_FIX,80.17,77,-3.17,1327.63,0.7,9.67,10.05,223.46,23.414,0,0,0,0,0,0,0,0,0,0,274.2,-0.135,0,0,0.49,50.73,0,-0.13,274.18,0,0,0,0,0,0,0,58.278,0,0,0,0,0,89.71,0,0,0,0,0,0,0,0,0,0,0,0,0,0,0,0,0,VALID,0,0,0,0,0,1,0,0,0,0,0,0,0,0,0,0,0,0,0,0,119.71,402.07,2,0,0.105,0.105,415,8.57,0.14,0.105,33.81,FLYING,CF1-F,0:/Integrated Flight Computer/aircraft/cf1_f_cfg.ks (inferred preloaded)
34.13,APPROACH,FLY_TO_FIX,80.21,77,-3.21,1327.86,0.77,9.69,10.01,224.32,23.41,0,0,0,0,0,0,0,0,0,0,274.24,-0.159,0,0,0.55,49.92,0,-0.15,274.23,0,0,0,0,0,0,0,58.261,0,0,0,0,0,89.71,0,0,0,0,0,0,0,0,0,0,0,0,0,0,0,0,0,VALID,0,0,0,0,0,1,0,0,0,0,0,0,0,0,0,0,0,0,0,0,121.72,402.03,2,0,0.105,0.105,418,9.52,0.105,0.105,34.13,FLYING,CF1-F,0:/Integrated Flight Computer/aircraft/cf1_f_cfg.ks (inferred preloaded)
34.44,APPROACH,FLY_TO_FIX,80.26,77,-3.26,1328.12,0.85,9.7,9.98,225.18,23.42,0,0,0,0,0,0,0,0,0,0,274.29,-0.182,0,0,0.6,49.11,0,-0.17,274.27,0,0,0,0,0,0,0,58.243,0,0,0,0,0,89.71,0,0,0,0,0,0,0,0,0,0,0,0,0,0,0,0,0,VALID,0,0,0,0,0,1,0,0,0,0,0,0,0,0,0,0,0,0,0,0,125.3,401.99,2,0,0.105,0.105,421,9.52,0.105,0.105,34.44,FLYING,CF1-F,0:/Integrated Flight Computer/aircraft/cf1_f_cfg.ks (inferred preloaded)
34.76,APPROACH,FLY_TO_FIX,80.32,77,-3.32,1328.4,0.92,9.7,9.93,226.03,23.437,0,0,0,0,0,0,0,0,0,0,274.33,-0.205,0,0,0.65,48.3,0,-0.2,274.32,0,0,0,0,0,0,0,58.224,0,0,0,0,0,89.71,0,0,0,0,0,0,0,0,0,0,0,0,0,0,0,0,0,VALID,0,0,0,0,0,1,0,0,0,0,0,0,0,0,0,0,0,0,0,0,127.12,401.93,2,0,0.105,0.105,424,9.52,0.105,0.105,34.76,FLYING,CF1-F,0:/Integrated Flight Computer/aircraft/cf1_f_cfg.ks (inferred preloaded)
35.07,APPROACH,FLY_TO_FIX,80.39,77,-3.39,1328.7,0.98,9.7,9.88,226.89,23.461,0,0,0,0,0,0,0,0,0,0,274.38,-0.227,0,0,0.7,47.49,0,-0.22,274.36,0,0,0,0,0,0,0,58.205,0,0,0,0,0,89.71,0,0,0,0,0,0,0,0,0,0,0,0,0,0,0,0,0,VALID,0,0,0,0,0,1,0,0,0,0,0,0,0,0,0,0,0,0,0,0,130.56,401.87,2,0,0.105,0.105,427,9.52,0.105,0.105,35.07,FLYING,CF1-F,0:/Integrated Flight Computer/aircraft/cf1_f_cfg.ks (inferred preloaded)
35.39,APPROACH,FLY_TO_FIX,80.48,77,-3.48,1329.02,1.05,9.69,9.83,227.74,23.492,0,0,0,0,0,0,0,0,0,0,274.42,-0.248,0,0,0.74,46.68,0,-0.24,274.41,0,0,0,0,0,0,0,58.186,0,0,0,0,0,89.71,0,0,0,0,0,0,0,0,0,0,0,0,0,0,0,0,0,VALID,0,0,0,0,0,1,0,0,0,0,0,0,0,0,0,0,0,0,0,0,132.21,401.8,2,0,0.105,0.105,430,9.52,0.105,0.105,35.39,FLYING,CF1-F,0:/Integrated Flight Computer/aircraft/cf1_f_cfg.ks (inferred preloaded)
35.7,APPROACH,FLY_TO_FIX,80.57,77,-3.57,1329.36,1.11,9.68,9.78,228.59,23.531,0,0,0,0,0,0,0,0,0,0,274.46,-0.268,0,0,0.79,45.87,0,-0.26,274.45,0,0,0,0,0,0,0,58.167,0,0,0,0,0,89.71,0,0,0,0,0,0,0,0,0,0,0,0,0,0,0,0,0,VALID,0,0,0,0,0,1,0,0,0,0,0,0,0,0,0,0,0,0,0,0,135.51,401.72,2,0,0.105,0.105,433,9.52,0.105,0.105,35.7,FLYING,CF1-F,0:/Integrated Flight Computer/aircraft/cf1_f_cfg.ks (inferred preloaded)
36.02,APPROACH,FLY_TO_FIX,80.68,77,-3.68,1329.72,1.17,9.66,9.73,229.44,23.577,0,0,0,0,0,0,0,0,0,0,274.51,-0.288,0,0,0.83,45.06,0,-0.28,274.49,0,0,0,0,0,0,0,58.147,0,0,0,0,0,89.71,0,0,0,0,0,0,0,0,0,0,0,0,0,0,0,0,0,VALID,0,0,0,0,0,1,0,0,0,0,0,0,0,0,0,0,0,0,0,0,136.99,401.63,2,0,0.105,0.105,436,9.52,0.105,0.105,36.02,FLYING,CF1-F,0:/Integrated Flight Computer/aircraft/cf1_f_cfg.ks (inferred preloaded)
36.33,APPROACH,FLY_TO_FIX,80.79,77,-3.79,1330.09,1.23,9.64,9.67,230.3,23.628,0,0,0,0,0,0,0,0,0,0,274.55,-0.306,0,0,0.87,44.25,0,-0.3,274.54,0,0,0,0,0,0,0,58.127,0,0,0,0,0,89.71,0,0,0,0,0,0,0,0,0,0,0,0,0,0,0,0,0,VALID,0,0,0,0,0,1,0,0,0,0,0,0,0,0,0,0,0,0,0,0,140.17,401.53,2,0,0.105,0.105,439,9.52,0.105,0.105,36.33,FLYING,CF1-F,0:/Integrated Flight Computer/aircraft/cf1_f_cfg.ks (inferred preloaded)
36.65,APPROACH,FLY_TO_FIX,80.92,77,-3.92,1330.49,1.28,9.61,9.61,231.15,23.686,0,0,0,0,0,0,0,0,0,0,274.59,-0.324,0,0,0.9,43.45,0,-0.32,274.58,0,0,0,0,0,0,0,58.106,0,0,0,0,0,89.71,0,0,0,0,0,0,0,0,0,0,0,0,0,0,0,0,0,VALID,0,0,0,0,0,1,0,0,0,0,0,0,0,0,0,0,0,0,0,0,141.49,401.42,2,0,0.105,0.105,442,9.52,0.105,0.105,36.65,FLYING,CF1-F,0:/Integrated Flight Computer/aircraft/cf1_f_cfg.ks (inferred preloaded)
37,APPROACH,FLY_TO_FIX,81.07,77,-4.07,1330.94,1.33,9.57,9.53,232.09,23.757,0,0,0,0,0,0,0,0,0,0,274.64,-0.343,0,0,0.94,42.55,0,-0.34,274.63,0,0,0,0,0,0,0,58.083,0,0,0,0,0,89.71,0,0,0,0,0,0,0,0,0,0,0,0,0,0,0,0,0,VALID,0,0,0,0,0,1,0,0,0,0,0,0,0,0,0,0,0,0,0,0,145.04,401.3,2,0,0.105,0.105,445,8.57,0.14,0.105,37,FLYING,CF1-F,0:/Integrated Flight Computer/aircraft/cf1_f_cfg.ks (inferred preloaded)
37.31,APPROACH,FLY_TO_FIX,81.22,77,-4.22,1331.36,1.38,9.53,9.47,232.94,23.827,0,0,0,0,0,0,0,0,0,0,274.68,-0.358,0,0,0.97,41.74,0,-0.35,274.67,0,0,0,0,0,0,0,58.062,0,0,0,0,0,89.71,0,0,0,0,0,0,0,0,0,0,0,0,0,0,0,0,0,VALID,0,0,0,0,0,1,0,0,0,0,0,0,0,0,0,0,0,0,0,0,147.99,401.17,2,0,0.105,0.105,448,9.52,0.105,0.105,37.31,FLYING,CF1-F,0:/Integrated Flight Computer/aircraft/cf1_f_cfg.ks (inferred preloaded)
37.63,APPROACH,FLY_TO_FIX,81.38,77,-4.38,1331.79,1.42,9.49,9.4,233.79,23.904,0,0,0,0,0,0,0,0,0,0,274.72,-0.373,0,0,0.99,40.93,0,-0.37,274.71,0,0,0,0,0,0,0,58.04,0,0,0,0,0,89.71,0,0,0,0,0,0,0,0,0,0,0,0,0,0,0,0,0,VALID,0,0,0,0,0,1,0,0,0,0,0,0,0,0,0,0,0,0,0,0,149.05,401.04,2,0,0.105,0.105,451,9.52,0.105,0.105,37.63,FLYING,CF1-F,0:/Integrated Flight Computer/aircraft/cf1_f_cfg.ks (inferred preloaded)
37.94,APPROACH,FLY_TO_FIX,81.56,77,-4.56,1332.24,1.46,9.45,9.33,234.65,23.987,0,0,0,0,0,0,0,0,0,0,274.76,-0.386,0,0,1.02,40.12,0,-0.38,274.75,0,0,0,0,0,0,0,58.018,0,0,0,0,0,89.71,0,0,0,0,0,0,0,0,0,0,0,0,0,0,0,0,0,VALID,0,0,0,0,0,1,0,0,0,0,0,0,0,0,0,0,0,0,0,0,151.89,400.9,2,0,0.105,0.105,454,9.52,0.105,0.105,37.94,FLYING,CF1-F,0:/Integrated Flight Computer/aircraft/cf1_f_cfg.ks (inferred preloaded)
38.26,APPROACH,FLY_TO_FIX,81.74,77,-4.74,1332.69,1.49,9.39,9.26,235.5,24.075,0,0,0,0,0,0,0,0,0,0,274.8,-0.399,0,0,1.04,39.31,0,-0.39,274.79,0,0,0,0,0,0,0,57.996,0,0,0,0,0,89.71,0,0,0,0,0,0,0,0,0,0,0,0,0,0,0,0,0,VALID,0,0,0,0,0,1,0,0,0,0,0,0,0,0,0,0,0,0,0,0,152.81,400.75,2,0,0.105,0.105,457,9.52,0.105,0.105,38.26,FLYING,CF1-F,0:/Integrated Flight Computer/aircraft/cf1_f_cfg.ks (inferred preloaded)
38.57,APPROACH,FLY_TO_FIX,81.93,77,-4.93,1333.16,1.52,9.33,9.19,236.35,24.17,0,0,0,0,0,0,0,0,0,0,274.84,-0.409,0,0,1.06,38.49,0,-0.41,274.83,0,0,0,0,0,0,0,57.974,0,0,0,0,0,89.71,0,0,0,0,0,0,0,0,0,0,0,0,0,0,0,0,0,VALID,0,0,0,0,0,1,0,0,0,0,0,0,0,0,0,0,0,0,0,0,155.55,400.6,2,0,0.105,0.105,460,9.52,0.105,0.105,38.57,FLYING,CF1-F,0:/Integrated Flight Computer/aircraft/cf1_f_cfg.ks (inferred preloaded)
38.89,APPROACH,FLY_TO_FIX,82.13,77,-5.13,1333.63,1.54,9.27,9.11,237.2,24.27,0,0,0,0,0,0,0,0,0,0,274.88,-0.42,0,0,1.07,37.68,0,-0.42,274.87,0,0,0,0,0,0,0,57.951,0,0,0,0,0,89.71,0,0,0,0,0,0,0,0,0,0,0,0,0,0,0,0,0,VALID,0,0,0,0,0,1,0,0,0,0,0,0,0,0,0,0,0,0,0,0,156.34,400.44,2,0,0.105,0.105,463,9.52,0.105,0.105,38.89,FLYING,CF1-F,0:/Integrated Flight Computer/aircraft/cf1_f_cfg.ks (inferred preloaded)
39.2,APPROACH,FLY_TO_FIX,82.34,77,-5.34,1334.11,1.57,9.21,9.04,238.06,24.374,0,0,0,0,0,0,0,0,0,0,274.92,-0.429,0,0,1.09,36.86,0,-0.43,274.91,0,0,0,0,0,0,0,57.928,0,0,0,0,0,89.71,0,0,0,0,0,0,0,0,0,0,0,0,0,0,0,0,0,VALID,0,0,0,0,0,1,0,0,0,0,0,0,0,0,0,0,0,0,0,0,158.97,400.27,2,0,0.105,0.105,466,9.52,0.105,0.105,39.2,FLYING,CF1-F,0:/Integrated Flight Computer/aircraft/cf1_f_cfg.ks (inferred preloaded)
39.52,APPROACH,FLY_TO_FIX,82.56,77,-5.56,1334.59,1.58,9.14,8.95,238.91,24.482,0,0,0,0,0,0,0,0,0,0,274.96,-0.438,0,0,1.1,36.05,0,-0.43,274.95,0,0,0,0,0,0,0,57.905,0,0,0,0,0,89.71,0,0,0,0,0,0,0,0,0,0,0,0,0,0,0,0,0,VALID,0,0,0,0,0,1,0,0,0,0,0,0,0,0,0,0,0,0,0,0,159.65,400.1,2,0,0.105,0.105,469,9.52,0.105,0.105,39.52,FLYING,CF1-F,0:/Integrated Flight Computer/aircraft/cf1_f_cfg.ks (inferred preloaded)
39.83,APPROACH,FLY_TO_FIX,82.79,77,-5.79,1335.08,1.6,9.07,8.88,239.76,24.595,0,0,0,0,0,0,0,0,0,0,275,-0.443,0,0,1.1,35.23,0,-0.44,274.98,0,0,0,0,0,0,0,57.881,0,0,0,0,0,89.71,0,0,0,0,0,0,0,0,0,0,0,0,0,0,0,0,0,VALID,0,0,0,0,0,1,0,0,0,0,0,0,0,0,0,0,0,0,0,0,162.18,399.92,2,0,0.105,0.105,472,9.52,0.105,0.105,39.83,FLYING,CF1-F,0:/Integrated Flight Computer/aircraft/cf1_f_cfg.ks (inferred preloaded)
40.18,APPROACH,FLY_TO_FIX,83.06,77,-6.06,1335.63,1.61,8.99,8.8,240.72,24.727,0,0,0,0,0,0,0,0,0,0,275.04,-0.45,0,0,1.11,34.32,0,-0.45,275.02,0,0,0,0,0,0,0,57.854,0,0,0,0,0,89.71,0,0,0,0,0,0,0,0,0,0,0,0,0,0,0,0,0,VALID,0,0,0,0,0,1,0,0,0,0,0,0,0,0,0,0,0,0,0,0,163.25,399.71,2,0,0.105,0.105,475,8.57,0.14,0.105,40.18,FLYING,CF1-F,0:/Integrated Flight Computer/aircraft/cf1_f_cfg.ks (inferred preloaded)
40.5,APPROACH,FLY_TO_FIX,83.31,77,-6.31,1336.12,1.61,8.9,8.71,241.57,24.848,0,0,0,0,0,0,0,0,0,0,275.07,-0.454,0,0,1.11,33.5,0,-0.45,275.06,0,0,0,0,0,0,0,57.83,0,0,0,0,0,89.71,0,0,0,0,0,0,0,0,0,0,0,0,0,0,0,0,0,VALID,0,0,0,0,0,1,0,0,0,0,0,0,0,0,0,0,0,0,0,0,163.77,399.52,2,0,0.105,0.105,478,9.52,0.105,0.105,40.5,FLYING,CF1-F,0:/Integrated Flight Computer/aircraft/cf1_f_cfg.ks (inferred preloaded)
40.81,APPROACH,FLY_TO_FIX,83.56,77,-6.56,1336.62,1.62,8.82,8.64,242.43,24.974,0,0,0,0,0,0,0,0,0,0,275.11,-0.456,0,0,1.11,32.68,0,-0.46,275.1,0,0,0,0,0,0,0,57.805,0,0,0,0,0,89.71,0,0,0,0,0,0,0,0,0,0,0,0,0,0,0,0,0,VALID,0,0,0,0,0,1,0,0,0,0,0,0,0,0,0,0,0,0,0,0,166.18,399.32,2,0,0.105,0.105,481,9.52,0.105,0.105,40.81,FLYING,CF1-F,0:/Integrated Flight Computer/aircraft/cf1_f_cfg.ks (inferred preloaded)
41.13,APPROACH,FLY_TO_FIX,83.83,77,-6.83,1337.11,1.61,8.74,8.56,243.29,25.108,0,0,0,0,0,0,0,0,0,0,275.14,-0.459,0,0,1.1,31.85,0,-0.46,275.13,0,0,0,0,0,0,0,57.78,0,0,0,0,0,89.71,0,0,0,0,0,0,0,0,0,0,0,0,0,0,0,0,0,VALID,0,0,0,0,0,1,0,0,0,0,0,0,0,0,0,0,0,0,0,0,166.6,399.11,2,0,0.105,0.105,484,9.52,0.105,0.105,41.13,FLYING,CF1-F,0:/Integrated Flight Computer/aircraft/cf1_f_cfg.ks (inferred preloaded)
41.44,APPROACH,FLY_TO_FIX,84.1,77,-7.1,1337.61,1.61,8.67,8.5,244.17,25.273,0,0,0,0,0,0,0,0,0,0,275.18,-0.46,0,0,1.1,31.01,0,-0.46,275.17,0,0,0,0,0,0,0,57.755,0,0,0,0,0,89.71,0,0,0,0,0,0,0,0,0,0,0,0,0,0,0,0,0,VALID,0,0,0,0,0,1,0,0,0,0,0,0,0,0,0,0,0,0,0,0,168.92,398.9,2,0,0.105,0.105,487,9.52,0.105,0.105,41.44,FLYING,CF1-F,0:/Integrated Flight Computer/aircraft/cf1_f_cfg.ks (inferred preloaded)
41.76,APPROACH,FLY_TO_FIX,84.38,77,-7.38,1338.1,1.61,8.59,8.42,245.04,25.469,0,0,0,0,0,0,0,0,0,0,275.21,-0.463,0,0,1.09,30.17,0,-0.46,275.2,0,0,0,0,0,0,0,57.729,0,0,0,0,0,89.71,0,0,0,0,0,0,0,0,0,0,0,0,0,0,0,0,0,VALID,0,0,0,0,0,1,0,0,0,0,0,0,0,0,0,0,0,0,0,0,169.24,398.69,2,0,0.105,0.105,490,9.52,0.105,0.105,41.76,FLYING,CF1-F,0:/Integrated Flight Computer/aircraft/cf1_f_cfg.ks (inferred preloaded)
42.07,APPROACH,FLY_TO_FIX,84.67,77,-7.67,1338.59,1.6,8.49,8.35,245.92,25.663,0,0,0,0,0,0,0,0,0,0,275.25,-0.463,0,0,1.08,29.32,0,-0.46,275.24,0,0,0,0,0,0,0,57.703,0,0,0,0,0,89.71,0,0,0,0,0,0,0,0,0,0,0,0,0,0,0,0,0,VALID,0,0,0,0,0,1,0,0,0,0,0,0,0,0,0,0,0,0,0,0,171.49,398.46,2,0,0.105,0.105,493,9.52,0.105,0.105,42.07,FLYING,CF1-F,0:/Integrated Flight Computer/aircraft/cf1_f_cfg.ks (inferred preloaded)
42.39,APPROACH,FLY_TO_FIX,84.97,77,-7.97,1339.07,1.59,8.39,8.25,246.8,25.85,0,0,0,0,0,0,0,0,0,0,275.28,-0.463,0,0,1.07,28.48,0,-0.46,275.27,0,0,0,0,0,0,0,57.677,0,0,0,0,0,89.71,0,0,0,0,0,0,0,0,0,0,0,0,0,0,0,0,0,VALID,0,0,0,0,0,1,0,0,0,0,0,0,0,0,0,0,0,0,0,0,171.71,398.24,2,0,0.105,0.105,496,9.52,0.105,0.105,42.39,FLYING,CF1-F,0:/Integrated Flight Computer/aircraft/cf1_f_cfg.ks (inferred preloaded)
42.7,APPROACH,FLY_TO_FIX,85.28,77,-8.28,1339.56,1.57,8.3,8.18,247.68,26.037,0,0,0,0,0,0,0,0,0,0,275.31,-0.46,0,0,1.06,27.63,0,-0.46,275.3,0,0,0,0,0,0,0,57.65,0,0,0,0,0,89.71,0,0,0,0,0,0,0,0,0,0,0,0,0,0,0,0,0,VALID,0,0,0,0,0,1,0,0,0,0,0,0,0,0,0,0,0,0,0,0,173.88,398,2,0,0.105,0.105,499,9.52,0.105,0.105,42.7,FLYING,CF1-F,0:/Integrated Flight Computer/aircraft/cf1_f_cfg.ks (inferred preloaded)
43.02,APPROACH,FLY_TO_FIX,85.59,77,-8.59,1340.03,1.55,8.2,8.1,248.57,26.228,0,0,0,0,0,0,0,0,0,0,275.34,-0.456,0,0,1.04,26.78,0,-0.46,275.33,0,0,0,0,0,0,0,57.623,0,0,0,0,0,89.71,0,0,0,0,0,0,0,0,0,0,0,0,0,0,0,0,0,VALID,0,0,0,0,0,1,0,0,0,0,0,0,0,0,0,0,0,0,0,0,174.02,397.77,2,0,0.105,0.105,502,9.52,0.105,0.105,43.02,FLYING,CF1-F,0:/Integrated Flight Computer/aircraft/cf1_f_cfg.ks (inferred preloaded)
43.37,APPROACH,FLY_TO_FIX,85.95,77,-8.95,1340.55,1.53,8.08,8,249.55,26.444,0,0,0,0,0,0,0,0,0,0,275.38,-0.452,0,0,1.02,25.83,0,-0.45,275.37,0,0,0,0,0,0,0,57.593,0,0,0,0,0,89.71,0,0,0,0,0,0,0,0,0,0,0,0,0,0,0,0,0,VALID,0,0,0,0,0,1,0,0,0,0,0,0,0,0,0,0,0,0,0,0,176.54,397.5,2,0,0.105,0.105,505,8.57,0.14,0.105,43.37,FLYING,CF1-F,0:/Integrated Flight Computer/aircraft/cf1_f_cfg.ks (inferred preloaded)
43.68,APPROACH,FLY_TO_FIX,86.29,77,-9.29,1341.01,1.5,7.97,7.92,250.44,26.628,0,0,0,0,0,0,0,0,0,0,275.41,-0.445,0,0,1,24.97,0,-0.45,275.4,0,0,0,0,0,0,0,57.566,0,0,0,0,0,89.71,0,0,0,0,0,0,0,0,0,0,0,0,0,0,0,0,0,VALID,0,0,0,0,0,1,0,0,0,0,0,0,0,0,0,0,0,0,0,0,178.56,397.24,2,0,0.105,0.105,508,9.52,0.105,0.105,43.68,FLYING,CF1-F,0:/Integrated Flight Computer/aircraft/cf1_f_cfg.ks (inferred preloaded)
44,APPROACH,FLY_TO_FIX,86.64,77,-9.64,1341.45,1.47,7.81,7.77,251.29,26.751,0,0,0,0,0,0,0,0,0,0,275.44,-0.439,0,0,0.97,24.15,0,-0.44,275.43,0,0,0,0,0,0,0,57.538,0,0,0,0,0,89.71,0,0,0,0,0,0,0,0,0,0,0,0,0,0,0,0,0,VALID,0,0,0,0,0,1,0,0,0,0,0,0,0,0,0,0,0,0,0,0,178.53,396.99,2,0,0.105,0.105,511,9.52,0.105,0.105,44,FLYING,CF1-F,0:/Integrated Flight Computer/aircraft/cf1_f_cfg.ks (inferred preloaded)
44.31,APPROACH,FLY_TO_FIX,86.99,77,-9.99,1341.87,1.41,7.64,7.62,252.12,26.753,0,0,0,0,0,0,0,0,0,0,275.47,-0.424,0,0,0.93,23.35,0,-0.43,275.46,0,0,0,0,0,0,0,57.51,0,0,0,0,0,89.71,0,0,0,0,0,0,0,0,0,0,0,0,0,0,0,0,0,VALID,0,0,0,0,0,1,0,0,0,0,0,0,0,0,0,0,0,0,0,0,180.49,396.72,2,0,0.105,0.105,514,9.52,0.105,0.105,44.31,FLYING,CF1-F,0:/Integrated Flight Computer/aircraft/cf1_f_cfg.ks (inferred preloaded)
