t_s,phase,subphase,ias_ms,vapp_ms,spd_err_ms,agl_m,vs_ms,pitch_deg,aoa_deg,hdg_deg,bank_deg,thr_cmd,thr_intg,aa_hdg_cmd_deg,aa_fpa_cmd_deg,ils_loc_m,ils_gs_m,ils_dist_km,loc_corr_deg,gs_corr_deg,flare_fpa_cmd,flare_tgt_vs,flare_frac,steer_hdg_deg,steer_blend,ro_loc_corr_deg,ro_hdg_err_deg,ro_yaw_tgt,ro_yaw_scale,ro_yaw_gate,yaw_cmd,roll_cmd,pitch_cmd,ro_pitch_tgt_deg,ro_pitch_err_deg,ro_pitch_ff,ro_roll_assist,flaps_cur,flaps_tgt,phase_el_s,status
0.24,APPROACH,FLY_TO_FIX,219.43,200.1,-19.32,2715.84,-18.01,-7.93,-3.66,270,0.744,0.032,-1.543,191.31,1.415,0,0,0,0,0,0,0,0,269.98,0,0,0,0,0,0,0,0,0,0,0,0,0,0,1,0.28,FLYING
0.5,APPROACH,FLY_TO_FIX,219.84,200.44,-19.4,2710.18,-22.09,-9.18,-4.2,270,0.538,0,-6.58,192.57,1.442,0,0,0,0,0,0,0,0,269.98,0,0,0,0,0,0,0,0,0,0,0,0,0,1,1,0.54,FLYING
0.74,APPROACH,FLY_TO_FIX,220.06,200.78,-19.28,2704.13,-25.98,-8.32,-2.63,269.97,0.388,0,-11.589,193.73,1.47,0,0,0,0,0,0,0,0,269.98,0,0,0,0,0,0,0,0,0,0,0,0,0,1,1,0.78,FLYING
0.98,APPROACH,FLY_TO_FIX,220.27,201.09,-19.17,2698.31,-28.57,-5.61,0.57,269.95,0.302,0,-16.186,194.89,1.499,0,0,0,0,0,0,0,0,269.98,0,0,0,0,0,0,0,0,0,0,0,0,0,1,1,1.02,FLYING
1.3,APPROACH,FLY_TO_FIX,220.71,201.51,-19.2,2689.92,-29.53,-2.27,4.27,269.82,2.829,0,-20,196.44,1.54,0,0,0,0,0,0,0,0,269.98,0,0,0,0,0,0,0,0,0,0,0,0,0,1,1,1.34,FLYING
1.54,APPROACH,FLY_TO_FIX,220.88,201.82,-19.06,2683.2,-29.48,-1.01,5.62,269.45,9.178,0,-20,197.61,1.573,0,0,0,0,0,0,0,0,269.98,0,0,0,0,0,0,0,0,0,0,0,0,0,1,1,1.58,FLYING
1.78,APPROACH,FLY_TO_FIX,220.86,202.13,-18.73,2676.17,-29.22,-1,5.64,268.96,19.302,0,-20,198.77,1.607,0,0,0,0,0,0,0,0,269.98,0,0,0,0,0,0,0,0,0,0,0,0,0,1,1,1.82,FLYING
2.02,APPROACH,FLY_TO_FIX,220.86,202.44,-18.41,2668.99,-29.53,-1.5,5.2,268.34,28.859,0,-20,199.94,1.643,0,0,0,0,0,0,0,0,269.98,0,0,0,0,0,0,0,0,0,0,0,0,0,1,1,2.06,FLYING
2.32,APPROACH,FLY_TO_FIX,220.79,202.83,-17.96,2659.99,-30.27,-1.59,5.64,266.91,37.438,0,-20,201.41,1.688,0,0,0,0,0,0,0,0,269.98,0,0,0,0,0,0,0,0,0,0,0,0,0,1,1,2.36,FLYING
2.56,APPROACH,FLY_TO_FIX,220.61,203.15,-17.46,2652.83,-30.76,-1.04,7.01,265.02,41.939,0,-20,202.58,1.724,0,0,0,0,0,0,0,0,269.98,0,0,0,0,0,0,0,0,0,0,0,0,0,1,1,2.6,FLYING
2.8,APPROACH,FLY_TO_FIX,220.27,203.46,-16.82,2645.68,-30.79,-0.17,8.85,262.81,44.481,0,-20,203.77,1.76,0,0,0,0,0,0,0,0,269.98,0,0,0,0,0,0,0,0,0,0,0,0,0,1,1,2.84,FLYING
3.04,APPROACH,FLY_TO_FIX,219.79,203.77,-16.02,2638.45,-30.51,0.27,9.88,261.21,45.117,0,-20,204.96,1.796,0,0,0,0,0,0,0,0,269.98,0,0,0,0,0,0,0,0,0,0,0,0,0,1,1,3.08,FLYING
3.34,APPROACH,FLY_TO_FIX,218.96,204.16,-14.8,2629.42,-30.07,0.45,10.37,259.91,45.288,0,-20,206.46,1.841,0,0,0,0,0,0,0,0,269.98,0,0,0,0,0,0,0,0,0,0,0,0,0,1,1,3.38,FLYING
3.58,APPROACH,FLY_TO_FIX,218.2,204.47,-13.72,2622.27,-29.72,0.51,10.45,259.19,45.134,0,-20,207.68,1.877,0,0,0,0,0,0,0,0,269.98,0,0,0,0,0,0,0,0,0,0,0,0,0,1,1,3.62,FLYING
3.82,APPROACH,FLY_TO_FIX,217.37,204.78,-12.59,2615.21,-29.35,0.6,10.46,258.59,44.87,0,-20,208.9,1.912,0,0,0,0,0,0,0,0,269.98,0,0,0,0,0,0,0,0,0,0,0,0,0,1,1,3.86,FLYING
4.06,APPROACH,FLY_TO_FIX,216.51,205.1,-11.41,2608.24,-28.97,0.72,10.48,258,44.576,0,-20,210.13,1.947,0,0,0,0,0,0,0,0,269.98,0,0,0,0,0,0,0,0,0,0,0,0,0,1,1,4.1,FLYING
4.36,APPROACH,FLY_TO_FIX,215.39,205.49,-9.9,2599.68,-28.47,0.86,10.5,257.28,44.18,0.0186,-20,211.68,1.99,0,0,0,0,0,0,0,0,269.98,0,0,0,0,0,0,0,0,0,0,0,0,0,1,1,4.4,FLYING
4.6,APPROACH,FLY_TO_FIX,214.48,205.8,-8.69,2592.94,-28.05,1.01,10.54,256.7,43.782,0.0808,-20,212.93,2.024,0,0,0,0,0,0,0,0,269.98,0,0,0,0,0,0,0,0,0,0,0,0,0,1,1,4.64,FLYING
4.84,APPROACH,FLY_TO_FIX,213.58,206.11,-7.47,2586.29,-27.67,1.12,10.53,256.17,43.348,0.1295,-20,214.19,2.058,0,0,0,0,0,0,0,0,269.98,0,0,0,0,0,0,0,0,0,0,0,0,0,1,1,4.88,FLYING
5.08,APPROACH,FLY_TO_FIX,212.68,206.42,-6.26,2579.75,-27.22,1.28,10.58,255.61,42.85,0.2255,-20,215.45,2.09,0,0,0,0,0,0,0,0,269.98,0,0,0,0,0,0,0,0,0,0,0,0,0,1,1,5.12,FLYING
5.4,APPROACH,FLY_TO_FIX,211.53,206.84,-4.69,2571.17,-26.72,1.42,10.53,254.95,42.21,0.33,-20,217.15,2.134,0,0,0,0,0,0,0,0,269.98,0,0,0,0,0,0,0,0,0,0,0,0,0,1,1,5.44,FLYING
5.64,APPROACH,FLY_TO_FIX,210.69,207.15,-3.54,2564.87,-26.28,1.64,10.63,254.38,41.644,0.4015,-20,218.43,2.165,0,0,0,0,0,0,0,0,269.98,0,0,0,0,0,0,0,0,0,0,0,0,0,1,1,5.68,FLYING
5.88,APPROACH,FLY_TO_FIX,209.91,207.46,-2.45,2558.65,-25.85,1.73,10.56,253.94,41.12,0.454,-20,219.71,2.196,0,0,0,0,0,0,0,0,269.98,0,0,0,0,0,0,0,0,0,0,0,0,0,1,1,5.92,FLYING
6.12,APPROACH,FLY_TO_FIX,209.18,207.77,-1.41,2552.56,-25.47,1.95,10.66,253.38,40.578,0.4946,-20,221.01,2.227,0,0,0,0,0,0,0,0,269.98,0,0,0,0,0,0,0,0,0,0,0,0,0,1,1,6.16,FLYING
6.44,APPROACH,FLY_TO_FIX,208.31,208.19,-0.12,2544.59,-24.85,2.2,10.71,252.71,39.869,0.5349,-20,222.74,2.267,0,0,0,0,0,0,0,0,269.98,0,0,0,0,0,0,0,0,0,0,0,0,0,1,1,6.48,FLYING
6.68,APPROACH,FLY_TO_FIX,207.73,208.5,0.77,2538.73,-24.35,2.36,10.7,252.24,39.33,0.5472,-19.827,224.04,2.297,0,0,0,0,0,0,0,0,269.98,0,0,0,0,0,0,0,0,0,0,0,0,0,1,1,6.72,FLYING
6.92,APPROACH,FLY_TO_FIX,207.22,208.81,1.59,2533,-23.94,2.54,10.72,251.76,38.792,0.5504,-19.455,225.36,2.326,0,0,0,0,0,0,0,0,269.98,0,0,0,0,0,0,0,0,0,0,0,0,0,1,1,6.96,FLYING
7.16,APPROACH,FLY_TO_FIX,206.76,209.13,2.36,2527.39,-23.35,2.78,10.81,251.25,38.181,0.5517,-18.897,226.68,2.354,0,0,0,0,0,0,0,0,269.98,0,0,0,0,0,0,0,0,0,0,0,0,0,1,1,7.2,FLYING
7.48,APPROACH,FLY_TO_FIX,206.27,209.54,3.27,2520.03,-22.73,2.78,10.51,250.84,37.512,0.5563,-17.858,228.45,2.391,0,0,0,0,0,0,0,0,269.98,0,0,0,0,0,0,0,0,0,0,0,0,0,1,1,7.52,FLYING
7.72,APPROACH,FLY_TO_FIX,205.97,209.85,3.88,2514.69,-22.36,3.02,10.61,250.34,36.989,0.5387,-16.932,229.78,2.418,0,0,0,0,0,0,0,0,269.98,0,0,0,0,0,0,0,0,0,0,0,0,0,1,1,7.76,FLYING
7.96,APPROACH,FLY_TO_FIX,205.72,210.17,4.45,2509.51,-21.78,3.42,10.88,249.73,36.537,0.5248,-15.869,231.13,2.444,0,0,0,0,0,0,0,0,269.98,0,0,0,0,0,0,0,0,0,0,0,0,0,1,1,8,FLYING
8.2,APPROACH,FLY_TO_FIX,205.5,210.48,4.98,2504.44,-21.19,3.69,10.99,249.2,36.199,0.5127,-14.678,232.48,2.469,0,0,0,0,0,0,0,0,269.98,0,0,0,0,0,0,0,0,0,0,0,0,0,1,1,8.24,FLYING
8.52,APPROACH,FLY_TO_FIX,205.25,210.89,5.65,2497.9,-20.29,3.98,11.01,248.58,35.473,0.5196,-12.876,234.29,2.502,0,0,0,0,0,0,0,0,269.98,0,0,0,0,0,0,0,0,0,0,0,0,0,1,1,8.56,FLYING
8.76,APPROACH,FLY_TO_FIX,205.1,211.21,6.1,2493.15,-19.72,4.15,10.94,248.21,34.66,0.5119,-11.414,235.66,2.526,0,0,0,0,0,0,0,0,269.98,0,0,0,0,0,0,0,0,0,0,0,0,0,1,1,8.8,FLYING
9,APPROACH,FLY_TO_FIX,204.99,211.52,6.53,2488.59,-19.05,4.49,11.07,247.76,33.851,0.5073,-9.849,237.03,2.55,0,0,0,0,0,0,0,0,269.98,0,0,0,0,0,0,0,0,0,0,0,0,0,1,1,9.04,FLYING
9.24,APPROACH,FLY_TO_FIX,204.91,211.83,6.92,2484.19,-18.36,4.74,11.05,247.41,32.949,0.5055,-8.189,238.41,2.572,0,0,0,0,0,0,0,0,269.98,0,0,0,0,0,0,0,0,0,0,0,0,0,1,1,9.28,FLYING
9.56,APPROACH,FLY_TO_FIX,204.82,212.25,7.42,2478.59,-17.32,5.12,11.01,247.06,30.761,0.5204,-5.815,240.27,2.6,0,0,0,0,0,0,0,0,269.98,0,0,0,0,0,0,0,0,0,0,0,0,0,1,1,9.6,FLYING
9.8,APPROACH,FLY_TO_FIX,204.8,212.56,7.76,2474.64,-16.59,5.51,11.09,246.75,29.956,0.5092,-3.953,241.66,2.62,0,0,0,0,0,0,0,0,269.98,0,0,0,0,0,0,0,0,0,0,0,0,0,1,1,9.84,FLYING
10.04,APPROACH,FLY_TO_FIX,204.77,212.87,8.1,2470.93,-15.67,6.05,11.32,246.41,28.181,0.5015,-2.01,243.07,2.639,0,0,0,0,0,0,0,0,269.98,0,0,0,0,0,0,0,0,0,0,0,0,0,1,1,10.08,FLYING
10.28,APPROACH,FLY_TO_FIX,204.75,213.18,8.43,2467.43,-14.66,6.51,11.37,246.26,25.998,0.5003,0.014,244.48,2.657,0,0,0,0,0,0,0,0,269.98,0,0,0,0,0,0,0,0,0,0,0,0,0,1,1,10.32,FLYING
10.6,APPROACH,FLY_TO_FIX,204.73,213.6,8.87,2463.18,-13.24,7.2,11.49,246.13,23.14,0.5129,2.852,246.37,2.679,0,0,0,0,0,0,0,0,269.98,0,0,0,0,0,0,0,0,0,0,0,0,0,1,1,10.64,FLYING
10.84,APPROACH,FLY_TO_FIX,204.71,213.91,9.2,2460.33,-12.03,7.83,11.65,246.11,20.29,0.5229,5.061,247.8,2.694,0,0,0,0,0,0,0,0,269.98,0,0,0,0,0,0,0,0,0,0,0,0,0,1,1,10.88,FLYING
11.08,APPROACH,FLY_TO_FIX,204.67,214.22,9.55,2457.8,-10.73,8.47,11.75,246.32,15.989,0.5403,7.353,249.23,2.707,0,0,0,0,0,0,0,0,269.98,0,0,0,0,0,0,0,0,0,0,0,0,0,1,1,11.12,FLYING
11.32,APPROACH,FLY_TO_FIX,204.64,214.53,9.89,2455.56,-9.23,8.94,11.62,246.8,11.208,0.5598,9.727,250.66,2.719,0,0,0,0,0,0,0,0,269.98,0,0,0,0,0,0,0,0,0,0,0,0,0,1,1,11.36,FLYING
11.64,APPROACH,FLY_TO_FIX,204.65,214.95,10.3,2453.07,-7.34,9.45,11.37,247.59,3.655,0.5853,13.024,252.58,2.732,0,0,0,0,0,0,0,0,269.98,0,0,0,0,0,0,0,0,0,0,0,0,0,1,1,11.68,FLYING
11.88,APPROACH,FLY_TO_FIX,204.69,215,10.31,2451.57,-5.8,9.66,11.04,248.43,-2.352,0.5956,15.5,254.02,2.74,0,0,0,0,0,0,0,0,269.98,0,0,0,0,0,0,0,0,0,0,0,0,0,1,1,11.92,FLYING
12.12,APPROACH,FLY_TO_FIX,204.79,215,10.21,2450.37,-4.5,9.72,10.62,249.44,-9.606,0.5998,17.954,255.47,2.746,0,0,0,0,0,0,0,0,269.98,0,0,0,0,0,0,0,0,0,0,0,0,0,1,1,12.16,FLYING
12.36,APPROACH,FLY_TO_FIX,204.95,215,10.05,2449.5,-3.37,9.89,10.47,250.63,-15.949,0.5885,20,256.91,2.751,0,0,0,0,0,0,0,0,269.98,0,0,0,0,0,0,0,0,0,0,0,0,0,1,1,12.4,FLYING
12.68,APPROACH,FLY_TO_FIX,205.23,215,9.77,2448.68,-1.78,9.79,10.2,252.3,-23.06,0.5513,20,258.84,2.756,0,0,0,0,0,0,0,0,269.98,0,0,0,0,0,0,0,0,0,0,0,0,0,1,1,12.72,FLYING
12.92,APPROACH,FLY_TO_FIX,205.5,215,9.5,2448.32,-0.96,9.63,10.09,253.54,-27.243,0.5092,20,260.28,2.758,0,0,0,0,0,0,0,0,269.98,0,0,0,0,0,0,0,0,0,0,0,0,0,1,1,12.96,FLYING
13.16,APPROACH,FLY_TO_FIX,205.77,215,9.23,2448.21,-0.22,9.71,10.37,254.9,-30.375,0.4727,20,261.73,2.759,0,0,0,0,0,0,0,0,269.98,0,0,0,0,0,0,0,0,0,0,0,0,0,1,1,13.2,FLYING
13.4,APPROACH,FLY_TO_FIX,206.02,215,8.98,2448.2,0.8,9.39,10.22,256.03,-33.475,0.4487,20,263.17,2.759,0,0,0,0,0,0,0,0,269.98,0,0,0,0,0,0,0,0,0,0,0,0,0,1,1,13.44,FLYING
13.72,APPROACH,FLY_TO_FIX,206.4,215,8.6,2448.36,1.42,8.6,9.82,257.45,-37.104,0.4243,20,265.08,2.759,0,0,0,0,0,0,0,0,269.98,0,0,0,0,0,0,0,0,0,0,0,0,0,1,1,13.76,FLYING
13.96,APPROACH,FLY_TO_FIX,206.69,215,8.31,2448.68,1.62,8.42,9.91,258.48,-38.26,0.3998,20,266.51,2.757,0,0,0,0,0,0,0,0,269.98,0,0,0,0,0,0,0,0,0,0,0,0,0,1,1,14,FLYING
14.2,APPROACH,FLY_TO_FIX,206.96,215,8.04,2449.17,2.03,8.66,10.4,259.62,-39.179,0.3858,20,267.94,2.755,0,0,0,0,0,0,0,0,269.98,0,0,0,0,0,0,0,0,0,0,0,0,0,1,1,14.24,FLYING
14.44,APPROACH,FLY_TO_FIX,207.18,215,7.82,2449.68,2.63,8.44,10.16,260.22,-39.941,0.386,20,269.36,2.752,0,0,0,0,0,0,0,0,269.98,0,0,0,0,0,0,0,0,0,0,0,0,0,1,1,14.48,FLYING
14.76,APPROACH,FLY_TO_FIX,207.51,215,7.49,2450.49,2.87,8.16,9.84,260.89,-40.726,0.3812,20,271.24,2.749,0,0,0,0,0,0,0,0,269.98,0,0,0,0,0,0,0,0,0,0,0,0,0,1,1,14.8,FLYING
15,APPROACH,FLY_TO_FIX,207.73,215,7.27,2451.27,3.07,8.4,10.18,261.75,-41.348,0.3694,20,272.65,2.745,0,0,0,0,0,0,0,0,269.98,0,0,0,0,0,0,0,0,0,0,0,0,0,1,1,15.04,FLYING
15.24,APPROACH,FLY_TO_FIX,207.92,215,7.08,2452.12,3.51,8.59,10.43,262.59,-42.12,0.3678,20,274.05,2.741,0,0,0,0,0,0,0,0,269.98,0,0,0,0,0,0,0,0,0,0,0,0,0,1,1,15.28,FLYING
15.48,APPROACH,FLY_TO_FIX,208.07,215,6.93,2453.03,3.94,8.62,10.48,263.31,-42.836,0.3725,20,275.45,2.736,0,0,0,0,0,0,0,0,269.98,0,0,0,0,0,0,0,0,0,0,0,0,0,1,1,15.52,FLYING
15.8,APPROACH,FLY_TO_FIX,208.25,215,6.75,2454.29,4.26,8.39,10.18,263.99,-43.566,0.3785,20,277.3,2.73,0,0,0,0,0,0,0,0,269.98,0,0,0,0,0,0,0,0,0,0,0,0,0,1,1,15.84,FLYING
16.04,APPROACH,FLY_TO_FIX,208.37,215,6.63,2455.36,4.41,8.52,10.38,264.79,-44.058,0.3864,20,278.68,2.725,0,0,0,0,0,0,0,0,269.98,0,0,0,0,0,0,0,0,0,0,0,0,0,1,1,16.08,FLYING
16.28,APPROACH,FLY_TO_FIX,208.47,215,6.53,2456.49,4.75,8.57,10.44,265.51,-44.46,0.3984,20,280.05,2.719,0,0,0,0,0,0,0,0,269.98,0,0,0,0,0,0,0,0,0,0,0,0,0,1,1,16.32,FLYING
16.52,APPROACH,FLY_TO_FIX,208.56,215,6.44,2457.66,4.96,8.59,10.46,266.18,-44.862,0.4086,20,281.41,2.714,0,0,0,0,0,0,0,0,269.98,0,0,0,0,0,0,0,0,0,0,0,0,0,1,1,16.56,FLYING
16.84,APPROACH,FLY_TO_FIX,208.66,215,6.34,2459.31,5.31,8.6,10.45,267.06,-45.281,0.4181,20,283.21,2.706,0,0,0,0,0,0,0,0,269.98,0,0,0,0,0,0,0,0,0,0,0,0,0,1,1,16.88,FLYING
17.08,APPROACH,FLY_TO_FIX,208.74,215,6.26,2460.59,5.54,8.52,10.32,267.61,-45.459,0.4255,20,284.55,2.699,0,0,0,0,0,0,0,0,269.98,0,0,0,0,0,0,0,0,0,0,0,0,0,1,1,17.12,FLYING
17.32,APPROACH,FLY_TO_FIX,208.84,215,6.16,2461.86,5.76,8.19,9.77,267.8,-45.2,0.4269,20,285.89,2.693,0,0,0,0,0,0,0,0,269.98,0,0,0,0,0,0,0,0,0,0,0,0,0,1,1,17.36,FLYING
17.56,APPROACH,FLY_TO_FIX,209,215,6,2463.17,5.72,7.93,9.33,268.03,-45.066,0.4117,20,287.21,2.686,0,0,0,0,0,0,0,0,269.98,0,0,0,0,0,0,0,0,0,0,0,0,0,1,1,17.6,FLYING
17.88,APPROACH,FLY_TO_FIX,209.22,215,5.78,2465.04,5.57,8.19,9.71,269.08,-45.251,0.3902,20,288.97,2.677,0,0,0,0,0,0,0,0,269.98,0,0,0,0,0,0,0,0,0,0,0,0,0,1,1,17.92,FLYING
18.12,APPROACH,FLY_TO_FIX,209.36,215,5.64,2466.49,5.87,8.45,10.06,269.96,-45.395,0.3822,20,290.27,2.67,0,0,0,0,0,0,0,0,269.98,0,0,0,0,0,0,0,0,0,0,0,0,0,1,1,18.16,FLYING
18.36,APPROACH,FLY_TO_FIX,209.49,215,5.51,2467.91,6.08,8.34,9.87,270.42,-45.406,0.3774,20,291.57,2.663,0,0,0,0,0,0,0,0,269.98,0,0,0,0,0,0,0,0,0,0,0,0,0,1,1,18.4,FLYING
18.6,APPROACH,FLY_TO_FIX,209.62,215,5.38,2469.37,6.09,8.33,9.83,271,-45.52,0.3714,20,292.86,2.656,0,0,0,0,0,0,0,0,269.98,0,0,0,0,0,0,0,0,0,0,0,0,0,1,1,18.64,FLYING
18.92,APPROACH,FLY_TO_FIX,209.74,215,5.26,2471.41,6.32,8.58,10.18,272.1,-45.916,0.3724,20,294.56,2.645,0,0,0,0,0,0,0,0,269.98,0,0,0,0,0,0,0,0,0,0,0,0,0,1,1,18.96,FLYING
19.16,APPROACH,FLY_TO_FIX,209.82,215,5.18,2472.96,6.53,8.58,10.18,272.76,-46.192,0.3787,20,295.83,2.638,0,0,0,0,0,0,0,0,269.98,0,0,0,0,0,0,0,0,0,0,0,0,0,1,1,19.2,FLYING
19.4,APPROACH,FLY_TO_FIX,209.88,215,5.12,2474.53,6.67,8.51,10.07,273.31,-46.261,0.3859,20,297.08,2.63,0,0,0,0,0,0,0,0,269.98,0,0,0,0,0,0,0,0,0,0,0,0,0,1,1,19.44,FLYING
19.64,APPROACH,FLY_TO_FIX,209.95,215,5.05,2476.13,6.72,8.5,10.01,273.88,-46.264,0.3903,20,298.33,2.622,0,0,0,0,0,0,0,0,269.98,0,0,0,0,0,0,0,0,0,0,0,0,0,1,1,19.68,FLYING
19.96,APPROACH,FLY_TO_FIX,210.03,215,4.97,2478.33,6.92,8.55,10.05,274.73,-46.368,0.3943,20,299.97,2.611,0,0,0,0,0,0,0,0,269.98,0,0,0,0,0,0,0,0,0,0,0,0,0,1,1,20,FLYING
20.2,APPROACH,FLY_TO_FIX,210.09,215,4.91,2480.01,7.03,8.56,10.04,275.34,-46.408,0.3974,20,301.2,2.603,0,0,0,0,0,0,0,0,269.98,0,0,0,0,0,0,0,0,0,0,0,0,0,1,1,20.24,FLYING
20.44,APPROACH,FLY_TO_FIX,210.15,215,4.85,2481.72,7.15,8.59,10.05,275.97,-46.474,0.3997,20,302.41,2.594,0,0,0,0,0,0,0,0,269.98,0,0,0,0,0,0,0,0,0,0,0,0,0,1,1,20.48,FLYING
20.68,APPROACH,FLY_TO_FIX,210.21,215,4.79,2483.46,7.28,8.63,10.08,276.62,-46.604,0.4017,20,303.6,2.586,0,0,0,0,0,0,0,0,269.98,0,0,0,0,0,0,0,0,0,0,0,0,0,1,1,20.72,FLYING
21,APPROACH,FLY_TO_FIX,210.28,215,4.72,2485.8,7.43,8.56,9.95,277.38,-46.785,0.4021,20,305.19,2.574,0,0,0,0,0,0,0,0,269.98,0,0,0,0,0,0,0,0,0,0,0,0,0,1,1,21.04,FLYING
21.24,APPROACH,FLY_TO_FIX,210.33,215,4.67,2487.62,7.51,8.67,10.14,278.16,-47.072,0.4036,20,306.36,2.565,0,0,0,0,0,0,0,0,269.98,0,0,0,0,0,0,0,0,0,0,0,0,0,1,1,21.28,FLYING
21.48,APPROACH,FLY_TO_FIX,210.37,215,4.63,2489.46,7.66,8.74,10.25,278.91,-47.351,0.4079,20,307.52,2.556,0,0,0,0,0,0,0,0,269.98,0,0,0,0,0,0,0,0,0,0,0,0,0,1,1,21.52,FLYING
21.72,APPROACH,FLY_TO_FIX,210.41,215,4.59,2491.31,7.78,8.7,10.2,279.54,-47.523,0.4115,20,308.67,2.547,0,0,0,0,0,0,0,0,269.98,0,0,0,0,0,0,0,0,0,0,0,0,0,1,1,21.76,FLYING
22.04,APPROACH,FLY_TO_FIX,210.46,215,4.54,2493.79,7.89,8.62,10.02,280.24,-47.423,0.4115,20,310.18,2.534,0,0,0,0,0,0,0,0,269.98,0,0,0,0,0,0,0,0,0,0,0,0,0,1,1,22.08,FLYING
22.28,APPROACH,FLY_TO_FIX,210.51,215,4.49,2495.71,7.97,8.68,10.07,280.89,-47.373,0.4092,20,311.3,2.525,0,0,0,0,0,0,0,0,269.98,0,0,0,0,0,0,0,0,0,0,0,0,0,1,1,22.32,FLYING
22.52,APPROACH,FLY_TO_FIX,210.57,215,4.43,2497.62,8.04,8.62,9.95,281.41,-47.322,0.4067,20,312.41,2.515,0,0,0,0,0,0,0,0,269.98,0,0,0,0,0,0,0,0,0,0,0,0,0,1,1,22.56,FLYING
22.76,APPROACH,FLY_TO_FIX,210.63,215,4.37,2499.58,8.11,8.72,10.08,282.14,-47.416,0.4023,20,313.51,2.505,0,0,0,0,0,0,0,0,269.98,0,0,0,0,0,0,0,0,0,0,0,0,0,1,1,22.8,FLYING
23.08,APPROACH,FLY_TO_FIX,210.7,215,4.3,2502.19,8.28,8.7,10.03,282.96,-47.556,0.3997,20,314.95,2.492,0,0,0,0,0,0,0,0,269.98,0,0,0,0,0,0,0,0,0,0,0,0,0,1,1,23.12,FLYING
23.32,APPROACH,FLY_TO_FIX,210.75,215,4.25,2504.19,8.26,8.73,10.09,283.65,-47.742,0.3962,20,316.02,2.482,0,0,0,0,0,0,0,0,269.98,0,0,0,0,0,0,0,0,0,0,0,0,0,1,1,23.36,FLYING
23.56,APPROACH,FLY_TO_FIX,210.78,215,4.22,2506.22,8.44,8.81,10.23,284.42,-47.957,0.3985,20,317.07,2.472,0,0,0,0,0,0,0,0,269.98,0,0,0,0,0,0,0,0,0,0,0,0,0,1,1,23.6,FLYING
23.8,APPROACH,FLY_TO_FIX,210.82,215,4.18,2508.23,8.55,8.71,10.04,284.92,-47.91,0.399,20,318.11,2.462,0,0,0,0,0,0,0,0,269.98,0,0,0,0,0,0,0,0,0,0,0,0,0,1,1,23.84,FLYING
24.12,APPROACH,FLY_TO_FIX,210.9,215,4.1,2510.96,8.5,8.73,10.01,285.7,-47.718,0.3943,20,319.47,2.449,0,0,0,0,0,0,0,0,269.98,0,0,0,0,0,0,0,0,0,0,0,0,0,1,1,24.16,FLYING
24.36,APPROACH,FLY_TO_FIX,210.94,215,4.06,2513.05,8.63,8.8,10.1,286.4,-47.799,0.3933,20,320.48,2.438,0,0,0,0,0,0,0,0,269.98,0,0,0,0,0,0,0,0,0,0,0,0,0,1,1,24.4,FLYING
24.6,APPROACH,FLY_TO_FIX,210.99,215,4.01,2515.13,8.74,8.78,10.05,287.01,-47.85,0.3913,20,321.48,2.428,0,0,0,0,0,0,0,0,269.98,0,0,0,0,0,0,0,0,0,0,0,0,0,1,1,24.64,FLYING
24.84,APPROACH,FLY_TO_FIX,211.03,215,3.97,2517.24,8.83,8.81,10.1,287.68,-47.937,0.3904,20,322.46,2.417,0,0,0,0,0,0,0,0,269.98,0,0,0,0,0,0,0,0,0,0,0,0,0,1,1,24.88,FLYING
25.16,APPROACH,FLY_TO_FIX,211.08,215,3.92,2520.06,8.84,8.77,9.99,288.43,-47.88,0.389,20,323.75,2.403,0,0,0,0,0,0,0,0,269.98,0,0,0,0,0,0,0,0,0,0,0,0,0,1,1,25.2,FLYING
25.4,APPROACH,FLY_TO_FIX,211.11,215,3.89,2522.21,8.98,8.78,10,289.07,-47.902,0.3896,20,324.69,2.393,0,0,0,0,0,0,0,0,269.98,0,0,0,0,0,0,0,0,0,0,0,0,0,1,1,25.44,FLYING
25.64,APPROACH,FLY_TO_FIX,211.16,215,3.84,2524.35,9.07,8.74,9.9,289.61,-47.789,0.3877,20,325.63,2.382,0,0,0,0,0,0,0,0,269.98,0,0,0,0,0,0,0,0,0,0,0,0,0,1,1,25.68,FLYING
25.88,APPROACH,FLY_TO_FIX,211.21,215,3.79,2526.48,9.09,8.52,9.5,289.9,-47.444,0.3831,20,326.55,2.371,0,0,0,0,0,0,0,0,269.98,0,0,0,0,0,0,0,0,0,0,0,0,0,1,1,25.92,FLYING
26.2,APPROACH,FLY_TO_FIX,211.32,215,3.68,2529.38,8.9,8.6,9.61,290.75,-47.435,0.3706,20,327.75,2.357,0,0,0,0,0,0,0,0,269.98,0,0,0,0,0,0,0,0,0,0,0,0,0,1,1,26.24,FLYING
26.44,APPROACH,FLY_TO_FIX,211.36,215,3.64,2531.59,9.04,8.8,9.91,291.6,-47.497,0.3688,20,328.64,2.346,0,0,0,0,0,0,0,0,269.98,0,0,0,0,0,0,0,0,0,0,0,0,0,1,1,26.48,FLYING
26.68,APPROACH,FLY_TO_FIX,211.41,215,3.59,2533.78,9.14,8.83,9.93,292.24,-47.523,0.3681,20,329.52,2.335,0,0,0,0,0,0,0,0,269.98,0,0,0,0,0,0,0,0,0,0,0,0,0,1,1,26.72,FLYING
26.92,APPROACH,FLY_TO_FIX,211.44,215,3.56,2535.98,9.18,8.83,9.9,292.84,-47.534,0.3705,20,330.37,2.324,0,0,0,0,0,0,0,0,269.98,0,0,0,0,0,0,0,0,0,0,0,0,0,1,1,26.96,FLYING
27.24,APPROACH,FLY_TO_FIX,211.45,215,3.55,2538.96,9.3,8.93,10.08,293.83,-47.825,0.3779,20,331.5,2.309,0,0,0,0,0,0,0,0,269.98,0,0,0,0,0,0,0,0,0,0,0,0,0,1,1,27.28,FLYING
27.48,APPROACH,FLY_TO_FIX,211.44,215,3.56,2541.21,9.42,8.92,10.08,294.49,-48.014,0.3874,20,332.32,2.298,0,0,0,0,0,0,0,0,269.98,0,0,0,0,0,0,0,0,0,0,0,0,0,1,1,27.52,FLYING
27.72,APPROACH,FLY_TO_FIX,211.43,215,3.57,2543.46,9.47,8.88,10,295.07,-48.043,0.3956,20,333.13,2.286,0,0,0,0,0,0,0,0,269.98,0,0,0,0,0,0,0,0,0,0,0,0,0,1,1,27.76,FLYING
27.96,APPROACH,FLY_TO_FIX,211.43,215,3.57,2545.72,9.53,8.81,9.87,295.59,-47.973,0.401,20,333.92,2.275,0,0,0,0,0,0,0,0,269.98,0,0,0,0,0,0,0,0,0,0,0,0,0,1,1,28,FLYING
28.28,APPROACH,FLY_TO_FIX,211.43,215,3.57,2548.78,9.56,8.86,9.91,296.44,-47.874,0.4036,20,334.95,2.26,0,0,0,0,0,0,0,0,269.98,0,0,0,0,0,0,0,0,0,0,0,0,0,1,1,28.32,FLYING
28.52,APPROACH,FLY_TO_FIX,211.44,215,3.56,2551.09,9.61,8.9,9.95,297.08,-47.878,0.4048,20,335.71,2.248,0,0,0,0,0,0,0,0,269.98,0,0,0,0,0,0,0,0,0,0,0,0,0,1,1,28.56,FLYING
28.76,APPROACH,FLY_TO_FIX,211.45,215,3.55,2553.38,9.67,8.81,9.78,297.58,-47.858,0.4046,20,336.45,2.237,0,0,0,0,0,0,0,0,269.98,0,0,0,0,0,0,0,0,0,0,0,0,0,1,1,28.8,FLYING
29,APPROACH,FLY_TO_FIX,211.47,215,3.53,2555.72,9.67,8.87,9.86,298.25,-47.821,0.4022,20,337.18,2.225,0,0,0,0,0,0,0,0,269.98,0,0,0,0,0,0,0,0,0,0,0,0,0,1,1,29.04,FLYING
29.32,APPROACH,FLY_TO_FIX,211.5,215,3.5,2558.83,9.74,8.89,9.85,299.07,-47.754,0.399,20,338.12,2.21,0,0,0,0,0,0,0,0,269.98,0,0,0,0,0,0,0,0,0,0,0,0,0,1,1,29.36,FLYING
29.56,APPROACH,FLY_TO_FIX,211.53,215,3.47,2561.18,9.78,8.91,9.87,299.7,-47.741,0.3957,20,338.81,2.198,0,0,0,0,0,0,0,0,269.98,0,0,0,0,0,0,0,0,0,0,0,0,0,1,1,29.6,FLYING
29.8,APPROACH,FLY_TO_FIX,211.55,215,3.45,2563.54,9.86,8.92,9.87,300.32,-47.783,0.3929,20,339.48,2.186,0,0,0,0,0,0,0,0,269.98,0,0,0,0,0,0,0,0,0,0,0,0,0,1,1,29.84,FLYING
30.04,APPROACH,FLY_TO_FIX,211.57,215,3.43,2565.91,9.89,8.95,9.91,300.98,-47.857,0.3907,20,340.13,2.174,0,0,0,0,0,0,0,0,269.98,0,0,0,0,0,0,0,0,0,0,0,0,0,1,1,30.08,FLYING
30.36,APPROACH,FLY_TO_FIX,211.6,215,3.4,2569.1,9.98,8.96,9.93,301.83,-47.95,0.3894,20,340.98,2.158,0,0,0,0,0,0,0,0,269.98,0,0,0,0,0,0,0,0,0,0,0,0,0,1,1,30.4,FLYING
30.6,APPROACH,FLY_TO_FIX,211.62,215,3.38,2571.5,10.02,8.96,9.91,302.45,-47.996,0.3889,20,341.6,2.147,0,0,0,0,0,0,0,0,269.98,0,0,0,0,0,0,0,0,0,0,0,0,0,1,1,30.64,FLYING
30.84,APPROACH,FLY_TO_FIX,211.64,215,3.36,2573.91,10.06,8.94,9.87,303.04,-48.003,0.3881,20,342.2,2.135,0,0,0,0,0,0,0,0,269.98,0,0,0,0,0,0,0,0,0,0,0,0,0,1,1,30.88,FLYING
31.08,APPROACH,FLY_TO_FIX,211.65,215,3.35,2576.31,10.16,8.87,9.75,303.57,-48,0.388,20,342.79,2.122,0,0,0,0,0,0,0,0,269.98,0,0,0,0,0,0,0,0,0,0,0,0,0,1,1,31.12,FLYING
31.4,APPROACH,FLY_TO_FIX,211.69,215,3.31,2579.56,10.16,8.9,9.73,304.33,-47.495,0.3845,20,343.54,2.106,0,0,0,0,0,0,0,0,269.98,0,0,0,0,0,0,0,0,0,0,0,0,0,1,1,31.44,FLYING
31.64,APPROACH,FLY_TO_FIX,211.72,215,3.28,2581.94,10.26,8.64,9.26,304.54,-47.256,0.3813,20,344.08,2.094,0,0,0,0,0,0,0,0,269.98,0,0,0,0,0,0,0,0,0,0,0,0,0,1,1,31.68,FLYING
31.88,APPROACH,FLY_TO_FIX,211.8,215,3.2,2584.33,10.12,8.44,9.01,304.95,-47.596,0.3651,20,344.61,2.082,0,0,0,0,0,0,0,0,269.98,0,0,0,0,0,0,0,0,0,0,0,0,0,1,1,31.92,FLYING
32.12,APPROACH,FLY_TO_FIX,211.87,215,3.13,2586.78,9.87,8.61,9.38,305.85,-47.982,0.3532,20,345.13,2.07,0,0,0,0,0,0,0,0,269.98,0,0,0,0,0,0,0,0,0,0,0,0,0,1,1,32.16,FLYING
32.44,APPROACH,FLY_TO_FIX,211.91,215,3.09,2590.06,10.01,8.95,9.96,307.15,-48.284,0.3547,20,345.79,2.054,0,0,0,0,0,0,0,0,269.98,0,0,0,0,0,0,0,0,0,0,0,0,0,1,1,32.48,FLYING
32.68,APPROACH,FLY_TO_FIX,211.9,215,3.1,2592.48,10.11,8.96,9.99,307.83,-48.43,0.3638,20,346.26,2.042,0,0,0,0,0,0,0,0,269.98,0,0,0,0,0,0,0,0,0,0,0,0,0,1,1,32.72,FLYING
32.92,APPROACH,FLY_TO_FIX,211.88,215,3.12,2594.89,10.13,8.91,9.91,308.39,-48.46,0.3758,20,346.72,2.03,0,0,0,0,0,0,0,0,269.98,0,0,0,0,0,0,0,0,0,0,0,0,0,1,1,32.96,FLYING
33.16,APPROACH,FLY_TO_FIX,211.85,215,3.15,2597.32,10.18,8.89,9.85,308.98,-48.434,0.3871,20,347.16,2.017,0,0,0,0,0,0,0,0,269.98,0,0,0,0,0,0,0,0,0,0,0,0,0,1,1,33.2,FLYING
33.48,APPROACH,FLY_TO_FIX,211.81,215,3.19,2600.57,10.19,8.89,9.83,309.78,-48.351,0.3963,20,347.72,2.001,0,0,0,0,0,0,0,0,269.98,0,0,0,0,0,0,0,0,0,0,0,0,0,1,1,33.52,FLYING
33.72,APPROACH,FLY_TO_FIX,211.8,215,3.2,2603.01,10.19,8.86,9.77,310.34,-48.204,0.4012,20,348.12,1.989,0,0,0,0,0,0,0,0,269.98,0,0,0,0,0,0,0,0,0,0,0,0,0,1,1,33.76,FLYING
33.96,APPROACH,FLY_TO_FIX,211.78,215,3.22,2605.48,10.21,8.95,9.89,311.04,-48.205,0.4048,20,348.5,1.977,0,0,0,0,0,0,0,0,269.98,0,0,0,0,0,0,0,0,0,0,0,0,0,1,1,34,FLYING
34.2,APPROACH,FLY_TO_FIX,211.76,215,3.24,2607.94,10.22,8.96,9.91,311.69,-48.313,0.4098,20,348.86,1.964,0,0,0,0,0,0,0,0,269.98,0,0,0,0,0,0,0,0,0,0,0,0,0,1,1,34.24,FLYING
34.52,APPROACH,FLY_TO_FIX,211.74,215,3.26,2611.22,10.31,8.95,9.89,312.52,-48.396,0.4129,20,349.32,1.948,0,0,0,0,0,0,0,0,269.98,0,0,0,0,0,0,0,0,0,0,0,0,0,1,1,34.56,FLYING
34.76,APPROACH,FLY_TO_FIX,211.73,215,3.27,2613.69,10.34,8.93,9.85,313.11,-48.404,0.4134,20,349.64,1.936,0,0,0,0,0,0,0,0,269.98,0,0,0,0,0,0,0,0,0,0,0,0,0,1,1,34.8,FLYING
35,APPROACH,FLY_TO_FIX,211.73,215,3.27,2616.17,10.37,8.88,9.78,313.68,-48.408,0.4117,20,349.94,1.923,0,0,0,0,0,0,0,0,269.98,0,0,0,0,0,0,0,0,0,0,0,0,0,1,1,35.04,FLYING
35.24,APPROACH,FLY_TO_FIX,211.74,215,3.26,2618.63,10.38,8.8,9.63,314.18,-48.278,0.4068,20,350.22,1.911,0,0,0,0,0,0,0,0,269.98,0,0,0,0,0,0,0,0,0,0,0,0,0,1,1,35.28,FLYING
35.56,APPROACH,FLY_TO_FIX,211.78,215,3.22,2621.95,10.31,8.86,9.69,315,-48.07,0.3984,20,350.57,1.894,0,0,0,0,0,0,0,0,269.98,0,0,0,0,0,0,0,0,0,0,0,0,0,1,1,35.6,FLYING
35.8,APPROACH,FLY_TO_FIX,211.81,215,3.19,2624.45,10.34,8.93,9.77,315.68,-48.069,0.3911,20,350.82,1.882,0,0,0,0,0,0,0,0,269.98,0,0,0,0,0,0,0,0,0,0,0,0,0,1,1,35.84,FLYING
36.04,APPROACH,FLY_TO_FIX,211.84,215,3.16,2626.94,10.39,8.95,9.82,316.34,-48.18,0.3861,20,351.04,1.869,0,0,0,0,0,0,0,0,269.98,0,0,0,0,0,0,0,0,0,0,0,0,0,1,1,36.08,FLYING
36.28,APPROACH,FLY_TO_FIX,211.85,215,3.15,2629.44,10.46,8.93,9.8,316.96,-48.296,0.3838,20,351.25,1.857,0,0,0,0,0,0,0,0,269.98,0,0,0,0,0,0,0,0,0,0,0,0,0,1,1,36.32,FLYING
36.6,APPROACH,FLY_TO_FIX,211.88,215,3.12,2632.76,10.41,8.87,9.74,317.76,-48.504,0.381,20,351.5,1.84,0,0,0,0,0,0,0,0,269.98,0,0,0,0,0,0,0,0,0,0,0,0,0,1,1,36.64,FLYING
36.84,APPROACH,FLY_TO_FIX,211.88,215,3.12,2635.3,10.45,8.98,9.94,318.56,-48.708,0.3834,20,351.66,1.828,0,0,0,0,0,0,0,0,269.98,0,0,0,0,0,0,0,0,0,0,0,0,0,1,1,36.88,FLYING
37.08,APPROACH,FLY_TO_FIX,211.88,215,3.12,2637.81,10.53,8.97,9.96,319.23,-48.932,0.3866,20,351.81,1.815,0,0,0,0,0,0,0,0,269.98,0,0,0,0,0,0,0,0,0,0,0,0,0,1,1,37.12,FLYING
37.32,APPROACH,FLY_TO_FIX,211.88,215,3.12,2640.31,10.53,8.87,9.82,319.76,-48.921,0.3892,20,351.93,1.803,0,0,0,0,0,0,0,0,269.98,0,0,0,0,0,0,0,0,0,0,0,0,0,1,1,37.36,FLYING
37.64,APPROACH,FLY_TO_FIX,211.88,215,3.12,2643.66,10.5,8.85,9.75,320.52,-48.759,0.389,20,352.07,1.786,0,0,0,0,0,0,0,0,269.98,0,0,0,0,0,0,0,0,0,0,0,0,0,1,1,37.68,FLYING
37.88,APPROACH,FLY_TO_FIX,211.9,215,3.1,2646.19,10.43,8.9,9.84,321.2,-48.814,0.3874,20,352.15,1.773,0,0,0,0,0,0,0,0,269.98,0,0,0,0,0,0,0,0,0,0,0,0,0,1,1,37.92,FLYING
38.12,APPROACH,FLY_TO_FIX,211.89,215,3.11,2648.72,10.51,8.98,10,321.98,-49.085,0.3902,20,352.22,1.761,0,0,0,0,0,0,0,0,269.98,0,0,0,0,0,0,0,0,0,0,0,0,0,1,1,38.16,FLYING
38.36,APPROACH,FLY_TO_FIX,211.88,215,3.12,2651.24,10.55,8.94,9.98,322.64,-49.298,0.3937,20,352.26,1.748,0,0,0,0,0,0,0,0,269.98,0,0,0,0,0,0,0,0,0,0,0,0,0,1,1,38.4,FLYING
38.68,APPROACH,FLY_TO_FIX,211.87,215,3.13,2654.6,10.54,8.88,9.92,323.44,-49.375,0.3967,20,352.29,1.731,0,0,0,0,0,0,0,0,269.98,0,0,0,0,0,0,0,0,0,0,0,0,0,1,1,38.72,FLYING
38.92,APPROACH,FLY_TO_FIX,211.87,215,3.13,2657.11,10.55,8.84,9.85,324.02,-49.378,0.3973,20,352.29,1.719,0,0,0,0,0,0,0,0,269.98,0,0,0,0,0,0,0,0,0,0,0,0,0,1,1,38.96,FLYING
39.16,APPROACH,FLY_TO_FIX,211.87,215,3.13,2659.62,10.54,8.74,9.71,324.54,-49.35,0.3954,20,352.27,1.706,0,0,0,0,0,0,0,0,269.98,0,0,0,0,0,0,0,0,0,0,0,0,0,1,1,39.2,FLYING
39.4,APPROACH,FLY_TO_FIX,211.9,215,3.1,2662.11,10.42,8.66,9.55,325.01,-49.051,0.3887,20,352.23,1.694,0,0,0,0,0,0,0,0,269.98,0,0,0,0,0,0,0,0,0,0,0,0,0,1,1,39.44,FLYING
39.72,APPROACH,FLY_TO_FIX,211.93,215,3.07,2665.46,10.38,8.78,9.71,325.93,-48.931,0.3834,20,352.15,1.677,0,0,0,0,0,0,0,0,269.98,0,0,0,0,0,0,0,0,0,0,0,0,0,1,1,39.76,FLYING
39.96,APPROACH,FLY_TO_FIX,211.96,215,3.04,2667.97,10.36,8.86,9.86,326.68,-49.093,0.3792,20,352.07,1.664,0,0,0,0,0,0,0,0,269.98,0,0,0,0,0,0,0,0,0,0,0,0,0,1,1,40,FLYING
40.2,APPROACH,FLY_TO_FIX,211.96,215,3.04,2670.47,10.45,8.88,9.95,327.41,-49.412,0.3803,20,351.97,1.652,0,0,0,0,0,0,0,0,269.98,0,0,0,0,0,0,0,0,0,0,0,0,0,1,1,40.24,FLYING
40.44,APPROACH,FLY_TO_FIX,211.96,215,3.04,2672.95,10.42,8.78,9.83,327.97,-49.502,0.3827,20,351.84,1.639,0,0,0,0,0,0,0,0,269.98,0,0,0,0,0,0,0,0,0,0,0,0,0,1,1,40.48,FLYING
40.76,APPROACH,FLY_TO_FIX,211.97,215,3.03,2676.25,10.32,8.71,9.73,328.72,-49.441,0.3822,20,351.65,1.623,0,0,0,0,0,0,0,0,269.98,0,0,0,0,0,0,0,0,0,0,0,0,0,1,1,40.8,FLYING
41,APPROACH,FLY_TO_FIX,211.97,215,3.03,2678.74,10.33,8.76,9.82,329.42,-49.521,0.3835,20,351.49,1.61,0,0,0,0,0,0,0,0,269.98,0,0,0,0,0,0,0,0,0,0,0,0,0,1,1,41.04,FLYING
41.24,APPROACH,FLY_TO_FIX,211.98,215,3.02,2681.21,10.27,8.77,9.9,330.13,-49.748,0.3844,20,351.3,1.598,0,0,0,0,0,0,0,0,269.98,0,0,0,0,0,0,0,0,0,0,0,0,0,1,1,41.28,FLYING
41.48,APPROACH,FLY_TO_FIX,211.97,215,3.03,2683.68,10.25,8.77,9.94,330.83,-49.957,0.3877,20,351.1,1.586,0,0,0,0,0,0,0,0,269.98,0,0,0,0,0,0,0,0,0,0,0,0,0,1,1,41.52,FLYING
41.8,APPROACH,FLY_TO_FIX,211.95,215,3.05,2686.95,10.23,8.73,9.95,331.72,-50.2,0.3927,20,350.79,1.569,0,0,0,0,0,0,0,0,269.98,0,0,0,0,0,0,0,0,0,0,0,0,0,1,1,41.84,FLYING
42.04,APPROACH,FLY_TO_FIX,211.93,215,3.07,2689.38,10.22,8.64,9.84,332.28,-50.245,0.3962,20,350.54,1.557,0,0,0,0,0,0,0,0,269.98,0,0,0,0,0,0,0,0,0,0,0,0,0,1,1,42.08,FLYING
42.28,APPROACH,FLY_TO_FIX,211.94,215,3.06,2691.8,10.16,8.59,9.77,332.85,-50.154,0.3957,20,350.27,1.545,0,0,0,0,0,0,0,0,269.98,0,0,0,0,0,0,0,0,0,0,0,0,0,1,1,42.32,FLYING
42.52,APPROACH,FLY_TO_FIX,211.95,215,3.05,2694.21,10.02,8.52,9.67,333.39,-50.092,0.3922,20,349.98,1.533,0,0,0,0,0,0,0,0,269.98,0,0,0,0,0,0,0,0,0,0,0,0,0,1,1,42.56,FLYING
42.84,APPROACH,FLY_TO_FIX,211.96,215,3.04,2697.41,9.96,8.56,9.77,334.31,-50.136,0.3891,20,349.56,1.517,0,0,0,0,0,0,0,0,269.98,0,0,0,0,0,0,0,0,0,0,0,0,0,1,1,42.88,FLYING
43.08,APPROACH,FLY_TO_FIX,211.98,215,3.02,2699.8,9.89,8.57,9.84,335,-50.244,0.3849,20,349.22,1.505,0,0,0,0,0,0,0,0,269.98,0,0,0,0,0,0,0,0,0,0,0,0,0,1,1,43.12,FLYING
43.32,APPROACH,FLY_TO_FIX,211.99,215,3.01,2702.15,9.88,8.47,9.74,335.58,-50.476,0.3832,20,348.87,1.493,0,0,0,0,0,0,0,0,269.98,0,0,0,0,0,0,0,0,0,0,0,0,0,1,1,43.36,FLYING
43.56,APPROACH,FLY_TO_FIX,212.01,215,2.99,2704.5,9.72,8.5,9.88,336.36,-50.79,0.3809,20,348.49,1.481,0,0,0,0,0,0,0,0,269.98,0,0,0,0,0,0,0,0,0,0,0,0,0,1,1,43.6,FLYING
43.88,APPROACH,FLY_TO_FIX,212,215,3,2707.61,9.72,8.47,9.93,337.3,-51.057,0.3835,20,347.96,1.466,0,0,0,0,0,0,0,0,269.98,0,0,0,0,0,0,0,0,0,0,0,0,0,1,1,43.92,FLYING
44.12,APPROACH,FLY_TO_FIX,212.01,215,2.99,2709.89,9.62,8.34,9.77,337.81,-51.026,0.3835,20,347.54,1.454,0,0,0,0,0,0,0,0,269.98,0,0,0,0,0,0,0,0,0,0,0,0,0,1,1,44.16,FLYING
44.36,APPROACH,FLY_TO_FIX,212.02,215,2.98,2712.17,9.43,8.33,9.77,338.44,-50.987,0.3809,20,347.1,1.443,0,0,0,0,0,0,0,0,269.98,0,0,0,0,0,0,0,0,0,0,0,0,0,1,1,44.4,FLYING
44.6,APPROACH,FLY_TO_FIX,212.03,215,2.97,2714.42,9.4,8.27,9.73,339.05,-51.077,0.3808,20,346.64,1.432,0,0,0,0,0,0,0,0,269.98,0,0,0,0,0,0,0,0,0,0,0,0,0,1,1,44.64,FLYING
44.92,APPROACH,FLY_TO_FIX,212.05,215,2.95,2717.4,9.24,8.29,9.87,340.04,-51.336,0.3787,20,346,1.417,0,0,0,0,0,0,0,0,269.98,0,0,0,0,0,0,0,0,0,0,0,0,0,1,1,44.96,FLYING
45.16,APPROACH,FLY_TO_FIX,212.05,215,2.95,2719.59,9.18,8.25,9.9,340.74,-51.602,0.3792,20,345.49,1.406,0,0,0,0,0,0,0,0,269.98,0,0,0,0,0,0,0,0,0,0,0,0,0,1,1,45.2,FLYING
45.4,APPROACH,FLY_TO_FIX,212.06,215,2.94,2721.74,9.04,8.11,9.76,341.29,-51.759,0.3794,20,344.96,1.395,0,0,0,0,0,0,0,0,269.98,0,0,0,0,0,0,0,0,0,0,0,0,0,1,1,45.44,FLYING
45.64,APPROACH,FLY_TO_FIX,212.07,215,2.93,2723.87,8.86,8.07,9.79,341.97,-51.92,0.3772,20,344.42,1.384,0,0,0,0,0,0,0,0,269.98,0,0,0,0,0,0,0,0,0,0,0,0,0,1,1,45.68,FLYING
45.96,APPROACH,FLY_TO_FIX,212.09,215,2.91,2726.65,8.68,7.97,9.75,342.83,-52.164,0.3756,20,343.66,1.37,0,0,0,0,0,0,0,0,269.98,0,0,0,0,0,0,0,0,0,0,0,0,0,1,1,46,FLYING
46.2,APPROACH,FLY_TO_FIX,212.11,215,2.89,2728.7,8.52,7.94,9.82,343.56,-52.491,0.3732,20,343.07,1.36,0,0,0,0,0,0,0,0,269.98,0,0,0,0,0,0,0,0,0,0,0,0,0,1,1,46.24,FLYING
46.44,APPROACH,FLY_TO_FIX,212.12,215,2.88,2730.69,8.37,7.79,9.72,344.18,-52.959,0.3727,20,342.46,1.35,0,0,0,0,0,0,0,0,269.98,0,0,0,0,0,0,0,0,0,0,0,0,0,1,1,46.48,FLYING
46.68,APPROACH,FLY_TO_FIX,212.13,215,2.87,2732.65,8.06,7.75,9.79,344.91,-52.909,0.3714,20,341.82,1.34,0,0,0,0,0,0,0,0,269.98,0,0,0,0,0,0,0,0,0,0,0,0,0,1,1,46.72,FLYING
47,APPROACH,FLY_TO_FIX,212.1,215,2.9,2735.16,8.05,7.55,9.28,345.24,-50.558,0.3787,20,340.95,1.327,0,0,0,0,0,0,0,0,269.98,0,0,0,0,0,0,0,0,0,0,0,0,0,1,1,47.04,FLYING
47.24,APPROACH,FLY_TO_FIX,212.14,215,2.86,2736.84,7.94,6.72,7.61,344.29,-45.461,0.3742,20,340.27,1.319,0,0,0,0,0,0,0,0,269.98,0,0,0,0,0,0,0,0,0,0,0,0,0,1,1,47.28,FLYING
47.48,APPROACH,FLY_TO_FIX,212.36,215,2.64,2738.37,7.54,5.6,5.51,342.87,-37.152,0.3235,20,339.57,1.311,0,0,0,0,0,0,0,0,269.98,0,0,0,0,0,0,0,0,0,0,0,0,0,1,1,47.52,FLYING
47.72,APPROACH,FLY_TO_FIX,212.77,215,2.23,2739.81,6.86,4.66,3.9,341.68,-27.069,0.2309,20,338.86,1.303,0,0,0,0,0,0,0,0,269.98,0,0,0,0,0,0,0,0,0,0,0,0,0,1,1,47.76,FLYING
48.04,APPROACH,FLY_TO_FIX,213.41,215,1.59,2741.69,5.65,4.28,3.15,340.7,-13.036,0.1224,20,337.9,1.294,0,0,0,0,0,0,0,0,269.98,0,0,0,0,0,0,0,0,0,0,0,0,0,1,1,48.08,FLYING
48.28,APPROACH,FLY_TO_FIX,213.87,215,1.13,2743.12,4.86,4.9,3.71,340.15,-2.758,0.0426,20,337.17,1.287,0,0,0,0,0,0,0,0,269.98,0,0,0,0,0,0,0,0,0,0,0,0,0,1,1,48.32,FLYING
48.52,APPROACH,FLY_TO_FIX,214.24,215,0.76,2744.56,4.6,6.02,4.84,339.37,7.899,0,20,336.44,1.28,0,0,0,0,0,0,0,0,269.98,0,0,0,0,0,0,0,0,0,0,0,0,0,1,1,48.56,FLYING
48.76,APPROACH,FLY_TO_FIX,214.52,215,0.48,2745.95,4.7,6.96,5.89,338.22,17.674,0,20,335.7,1.273,0,0,0,0,0,0,0,0,269.98,0,0,0,0,0,0,0,0,0,0,0,0,0,1,1,48.8,FLYING
49.06,APPROACH,FLY_TO_FIX,214.62,215,0.38,2747.66,5.01,7.83,7.02,336.6,28.416,0.0097,20,334.79,1.264,0,0,0,0,0,0,0,0,269.98,0,0,0,0,0,0,0,0,0,0,0,0,0,1,1,49.1,FLYING
49.3,APPROACH,FLY_TO_FIX,214.53,215,0.47,2749.01,5.3,8.19,7.64,335.33,35.362,0.0793,20,334.06,1.257,0,0,0,0,0,0,0,0,269.98,0,0,0,0,0,0,0,0,0,0,0,0,0,1,1,49.34,FLYING
49.54,APPROACH,FLY_TO_FIX,214.28,215,0.72,2750.38,5.49,8.4,8.32,333.81,41.166,0.1753,20,333.35,1.25,0,0,0,0,0,0,0,0,269.98,0,0,0,0,0,0,0,0,0,0,0,0,0,1,1,49.58,FLYING
49.78,APPROACH,FLY_TO_FIX,213.91,215,1.09,2751.74,5.69,8.47,9.01,332.21,45.569,0.2713,20,332.65,1.244,0,0,0,0,0,0,0,0,269.98,0,0,0,0,0,0,0,0,0,0,0,0,0,1,1,49.82,FLYING
50.1,APPROACH,FLY_TO_FIX,213.3,215,1.7,2753.47,5.87,8.05,9.46,330.37,48.935,0.3993,20,331.73,1.235,0,0,0,0,0,0,0,0,269.98,0,0,0,0,0,0,0,0,0,0,0,0,0,1,1,50.14,FLYING
50.34,APPROACH,FLY_TO_FIX,212.82,215,2.18,2754.69,5.7,7.44,9.2,329.6,49.792,0.4953,20,331.07,1.229,0,0,0,0,0,0,0,0,269.98,0,0,0,0,0,0,0,0,0,0,0,0,0,1,1,50.38,FLYING
50.58,APPROACH,FLY_TO_FIX,212.38,215,2.62,2755.9,5.38,7.03,8.96,329.02,50.186,0.5913,20,330.43,1.223,0,0,0,0,0,0,0,0,269.98,0,0,0,0,0,0,0,0,0,0,0,0,0,1,1,50.62,FLYING
50.82,APPROACH,FLY_TO_FIX,212,215,3,2757.13,4.98,6.98,9.07,328.28,50.07,0.6541,20,329.8,1.216,0,0,0,0,0,0,0,0,269.98,0,0,0,0,0,0,0,0,0,0,0,0,0,1,1,50.86,FLYING
51.14,APPROACH,FLY_TO_FIX,211.54,215,3.46,2758.81,4.73,7.53,9.92,326.87,49.462,0.6968,20,329,1.208,0,0,0,0,0,0,0,0,269.98,0,0,0,0,0,0,0,0,0,0,0,0,0,1,1,51.18,FLYING
51.38,APPROACH,FLY_TO_FIX,211.24,215,3.76,2760,4.85,7.68,10.06,326.18,49.128,0.7193,20,328.41,1.202,0,0,0,0,0,0,0,0,269.98,0,0,0,0,0,0,0,0,0,0,0,0,0,1,1,51.42,FLYING
51.62,APPROACH,FLY_TO_FIX,210.99,215,4.01,2761.17,4.8,7.7,10.05,325.59,48.963,0.7247,20,327.85,1.196,0,0,0,0,0,0,0,0,269.98,0,0,0,0,0,0,0,0,0,0,0,0,0,1,1,51.66,FLYING
51.86,APPROACH,FLY_TO_FIX,210.81,215,4.19,2762.34,4.9,7.74,10.07,324.97,48.761,0.7174,20,327.3,1.19,0,0,0,0,0,0,0,0,269.98,0,0,0,0,0,0,0,0,0,0,0,0,0,1,1,51.9,FLYING
52.18,APPROACH,FLY_TO_FIX,210.68,215,4.32,2763.87,4.91,7.6,9.82,324.35,48.56,0.6912,20,326.6,1.183,0,0,0,0,0,0,0,0,269.98,0,0,0,0,0,0,0,0,0,0,0,0,0,1,1,52.22,FLYING
52.42,APPROACH,FLY_TO_FIX,210.68,215,4.32,2765.01,4.88,7.46,9.58,323.94,48.488,0.6461,20,326.1,1.177,0,0,0,0,0,0,0,0,269.98,0,0,0,0,0,0,0,0,0,0,0,0,0,1,1,52.46,FLYING
52.66,APPROACH,FLY_TO_FIX,210.75,215,4.25,2766.18,4.7,7.56,9.69,323.28,48.099,0.592,20,325.62,1.171,0,0,0,0,0,0,0,0,269.98,0,0,0,0,0,0,0,0,0,0,0,0,0,1,1,52.7,FLYING
52.9,APPROACH,FLY_TO_FIX,210.83,215,4.17,2767.39,4.9,7.79,9.93,322.54,47.672,0.5431,20,325.15,1.165,0,0,0,0,0,0,0,0,269.98,0,0,0,0,0,0,0,0,0,0,0,0,0,1,1,52.94,FLYING
53.22,APPROACH,FLY_TO_FIX,211.01,215,3.99,2768.87,5.03,7.34,9.19,322.33,47.197,0.4883,20,324.55,1.157,0,0,0,0,0,0,0,0,269.98,0,0,0,0,0,0,0,0,0,0,0,0,0,1,1,53.26,FLYING
53.46,APPROACH,FLY_TO_FIX,211.25,215,3.75,2769.95,4.94,6.93,8.53,322.31,46.785,0.4184,20,324.13,1.152,0,0,0,0,0,0,0,0,269.98,0,0,0,0,0,0,0,0,0,0,0,0,0,1,1,53.5,FLYING
53.7,APPROACH,FLY_TO_FIX,211.56,215,3.44,2771.03,4.7,6.7,8.15,322.1,46.125,0.3418,20,323.72,1.147,0,0,0,0,0,0,0,0,269.98,0,0,0,0,0,0,0,0,0,0,0,0,0,1,1,53.74,FLYING
53.94,APPROACH,FLY_TO_FIX,211.9,215,3.1,2772.15,4.46,6.75,8.16,321.65,45.237,0.2694,20,323.32,1.141,0,0,0,0,0,0,0,0,269.98,0,0,0,0,0,0,0,0,0,0,0,0,0,1,1,53.98,FLYING
54.26,APPROACH,FLY_TO_FIX,212.3,215,2.7,2773.64,4.45,7.04,8.4,320.92,43.602,0.2098,20,322.82,1.134,0,0,0,0,0,0,0,0,269.98,0,0,0,0,0,0,0,0,0,0,0,0,0,1,1,54.3,FLYING
54.5,APPROACH,FLY_TO_FIX,212.57,215,2.43,2774.68,4.49,6.93,8.06,320.8,42.221,0.1742,20,322.46,1.128,0,0,0,0,0,0,0,0,269.98,0,0,0,0,0,0,0,0,0,0,0,0,0,1,1,54.54,FLYING
54.74,APPROACH,FLY_TO_FIX,212.81,215,2.19,2775.73,4.4,6.86,7.86,320.55,41.693,0.1485,20,322.12,1.123,0,0,0,0,0,0,0,0,269.98,0,0,0,0,0,0,0,0,0,0,0,0,0,1,1,54.78,FLYING
54.98,APPROACH,FLY_TO_FIX,213,215,2,2776.81,4.35,6.99,7.95,320.1,40.893,0.1399,20,321.79,1.118,0,0,0,0,0,0,0,0,269.98,0,0,0,0,0,0,0,0,0,0,0,0,0,1,1,55.02,FLYING
55.3,APPROACH,FLY_TO_FIX,213.17,215,1.83,2778.18,4.46,6.85,7.61,319.85,39.116,0.1438,20,321.37,1.111,0,0,0,0,0,0,0,0,269.98,0,0,0,0,0,0,0,0,0,0,0,0,0,1,1,55.34,FLYING
55.54,APPROACH,FLY_TO_FIX,213.26,215,1.74,2779.18,4.39,6.61,7.16,319.88,37.566,0.1576,20,321.07,1.106,0,0,0,0,0,0,0,0,269.98,0,0,0,0,0,0,0,0,0,0,0,0,0,1,1,55.58,FLYING
55.78,APPROACH,FLY_TO_FIX,213.32,215,1.68,2780.19,4.21,6.56,7.02,319.66,37.017,0.1747,20,320.79,1.101,0,0,0,0,0,0,0,0,269.98,0,0,0,0,0,0,0,0,0,0,0,0,0,1,1,55.82,FLYING
56.02,APPROACH,FLY_TO_FIX,213.33,215,1.67,2781.26,4.07,6.84,7.3,319.18,36.179,0.1999,20,320.52,1.095,0,0,0,0,0,0,0,0,269.98,0,0,0,0,0,0,0,0,0,0,0,0,0,1,1,56.06,FLYING
56.34,APPROACH,FLY_TO_FIX,213.3,215,1.7,2782.61,4.31,6.85,7.18,318.88,34.335,0.2311,20,320.17,1.089,0,0,0,0,0,0,0,0,269.98,0,0,0,0,0,0,0,0,0,0,0,0,0,1,1,56.38,FLYING
56.58,APPROACH,FLY_TO_FIX,213.27,215,1.73,2783.56,4.27,6.57,6.72,318.94,32.75,0.258,20,319.93,1.084,0,0,0,0,0,0,0,0,269.98,0,0,0,0,0,0,0,0,0,0,0,0,0,1,1,56.62,FLYING
56.82,APPROACH,FLY_TO_FIX,213.24,215,1.76,2784.55,4.11,6.5,6.57,318.79,32.204,0.2784,20,319.7,1.079,0,0,0,0,0,0,0,0,269.98,0,0,0,0,0,0,0,0,0,0,0,0,0,1,1,56.86,FLYING
57.06,APPROACH,FLY_TO_FIX,213.2,215,1.8,2785.6,3.97,6.79,6.86,318.38,31.453,0.2978,20,319.47,1.074,0,0,0,0,0,0,0,0,269.98,0,0,0,0,0,0,0,0,0,0,0,0,0,1,1,57.1,FLYING
57.38,APPROACH,FLY_TO_FIX,213.17,215,1.83,2786.91,4.23,6.77,6.75,318.12,30.102,0.3128,20,319.19,1.067,0,0,0,0,0,0,0,0,269.98,0,0,0,0,0,0,0,0,0,0,0,0,0,1,1,57.42,FLYING
57.62,APPROACH,FLY_TO_FIX,213.17,215,1.83,2787.85,4.19,6.52,6.39,318.11,29.074,0.317,20,318.99,1.062,0,0,0,0,0,0,0,0,269.98,0,0,0,0,0,0,0,0,0,0,0,0,0,1,1,57.66,FLYING
57.86,APPROACH,FLY_TO_FIX,213.18,215,1.82,2788.83,4.03,6.49,6.31,317.94,28.141,0.3165,20,318.8,1.058,0,0,0,0,0,0,0,0,269.98,0,0,0,0,0,0,0,0,0,0,0,0,0,1,1,57.9,FLYING
58.1,APPROACH,FLY_TO_FIX,213.19,215,1.81,2789.86,4.04,6.73,6.52,317.66,27.037,0.3165,20,318.62,1.052,0,0,0,0,0,0,0,0,269.98,0,0,0,0,0,0,0,0,0,0,0,0,0,1,1,58.14,FLYING
58.42,APPROACH,FLY_TO_FIX,213.25,215,1.75,2791.16,4.15,6.67,6.36,317.52,25.571,0.3083,20,318.39,1.046,0,0,0,0,0,0,0,0,269.98,0,0,0,0,0,0,0,0,0,0,0,0,0,1,1,58.46,FLYING
58.66,APPROACH,FLY_TO_FIX,213.29,215,1.71,2792.16,4.1,6.71,6.33,317.38,24.631,0.2998,20,318.23,1.041,0,0,0,0,0,0,0,0,269.98,0,0,0,0,0,0,0,0,0,0,0,0,0,1,1,58.7,FLYING
58.9,APPROACH,FLY_TO_FIX,213.34,215,1.66,2793.18,4.3,6.75,6.33,317.22,23.805,0.2942,20,318.08,1.036,0,0,0,0,0,0,0,0,269.98,0,0,0,0,0,0,0,0,0,0,0,0,0,1,1,58.94,FLYING
59.14,APPROACH,FLY_TO_FIX,213.41,215,1.59,2794.15,4.3,6.52,6.03,317.2,22.848,0.2814,20,317.94,1.031,0,0,0,0,0,0,0,0,269.98,0,0,0,0,0,0,0,0,0,0,0,0,0,1,1,59.18,FLYING
59.46,APPROACH,FLY_TO_FIX,213.51,215,1.49,2795.52,4.21,6.59,6.03,317.05,21.041,0.269,20,317.76,1.024,0,0,0,0,0,0,0,0,269.98,0,0,0,0,0,0,0,0,0,0,0,0,0,1,1,59.5,FLYING
59.7,APPROACH,FLY_TO_FIX,213.59,215,1.41,2796.53,4.28,6.53,5.91,317.03,19.686,0.2576,20,317.63,1.019,0,0,0,0,0,0,0,0,269.98,0,0,0,0,0,0,0,0,0,0,0,0,0,1,1,59.74,FLYING
59.94,APPROACH,FLY_TO_FIX,213.68,215,1.32,2797.56,4.22,6.56,5.9,316.92,19.317,0.2458,20,317.51,1.014,0,0,0,0,0,0,0,0,269.98,0,0,0,0,0,0,0,0,0,0,0,0,0,1,1,59.98,FLYING
60.18,APPROACH,FLY_TO_FIX,213.74,215,1.26,2798.65,4.21,6.85,6.19,316.68,18.855,0.2408,20,317.39,1.009,0,0,0,0,0,0,0,0,269.98,0,0,0,0,0,0,0,0,0,0,0,0,0,1,1,60.22,FLYING
60.5,APPROACH,FLY_TO_FIX,213.82,215,1.18,2799.98,4.48,6.57,5.85,316.63,17.893,0.2379,20,317.25,1.002,0,0,0,0,0,0,0,0,269.98,0,0,0,0,0,0,0,0,0,0,0,0,0,1,1,60.54,FLYING
60.74,APPROACH,FLY_TO_FIX,213.88,215,1.12,2800.99,4.33,6.39,5.64,316.6,17.145,0.2336,20,317.14,0.997,0,0,0,0,0,0,0,0,269.98,0,0,0,0,0,0,0,0,0,0,0,0,0,1,1,60.78,FLYING
60.98,APPROACH,FLY_TO_FIX,213.91,215,1.09,2802.09,4.14,6.71,5.95,316.42,16.348,0.2377,20,317.05,0.991,0,0,0,0,0,0,0,0,269.98,0,0,0,0,0,0,0,0,0,0,0,0,0,1,1,61.02,FLYING
61.22,APPROACH,FLY_TO_FIX,213.91,215,1.09,2803.2,4.58,6.94,6.15,316.28,15.544,0.2488,20,316.95,0.986,0,0,0,0,0,0,0,0,269.98,0,0,0,0,0,0,0,0,0,0,0,0,0,1,1,61.26,FLYING
61.54,APPROACH,FLY_TO_FIX,213.95,215,1.05,2804.49,4.59,6.25,5.39,316.4,14.286,0.2505,20,316.84,0.979,0,0,0,0,0,0,0,0,269.98,0,0,0,0,0,0,0,0,0,0,0,0,0,1,1,61.58,FLYING
61.78,APPROACH,FLY_TO_FIX,213.99,215,1.01,2805.51,4.32,6.08,5.21,316.4,13.435,0.2483,20,316.76,0.974,0,0,0,0,0,0,0,0,269.98,0,0,0,0,0,0,0,0,0,0,0,0,0,1,1,61.82,FLYING
62.02,APPROACH,FLY_TO_FIX,214.01,215,0.99,2806.61,4.2,6.42,5.57,316.27,12.76,0.2512,20,316.68,0.969,0,0,0,0,0,0,0,0,269.98,0,0,0,0,0,0,0,0,0,0,0,0,0,1,1,62.06,FLYING
62.26,APPROACH,FLY_TO_FIX,214.05,215,0.95,2807.64,4.31,6.41,5.54,316.21,12.128,0.2479,20,316.61,0.963,0,0,0,0,0,0,0,0,269.98,0,0,0,0,0,0,0,0,0,0,0,0,0,1,1,62.3,FLYING
62.58,APPROACH,FLY_TO_FIX,214.11,215,0.89,2809,4.17,6.41,5.54,316.15,11.248,0.243,20,316.52,0.957,0,0,0,0,0,0,0,0,269.98,0,0,0,0,0,0,0,0,0,0,0,0,0,1,1,62.62,FLYING
62.82,APPROACH,FLY_TO_FIX,214.14,215,0.86,2810.03,4.27,6.49,5.62,316.08,10.739,0.2449,20,316.46,0.952,0,0,0,0,0,0,0,0,269.98,0,0,0,0,0,0,0,0,0,0,0,0,0,1,1,62.86,FLYING
63.06,APPROACH,FLY_TO_FIX,214.18,215,0.82,2811.03,4.21,6.41,5.52,316.05,10.204,0.242,20,316.4,0.947,0,0,0,0,0,0,0,0,269.98,0,0,0,0,0,0,0,0,0,0,0,0,0,1,1,63.1,FLYING
63.3,APPROACH,FLY_TO_FIX,214.2,215,0.8,2812.05,4.25,6.46,5.57,316,9.655,0.2447,20,316.34,0.941,0,0,0,0,0,0,0,0,269.98,0,0,0,0,0,0,0,0,0,0,0,0,0,1,1,63.34,FLYING
63.62,APPROACH,FLY_TO_FIX,214.24,215,0.76,2813.39,4.12,6.42,5.52,315.97,8.77,0.2438,20,316.27,0.935,0,0,0,0,0,0,0,0,269.98,0,0,0,0,0,0,0,0,0,0,0,0,0,1,1,63.66,FLYING
63.86,APPROACH,FLY_TO_FIX,214.25,215,0.75,2814.39,4.2,6.42,5.51,315.95,8.156,0.2481,20,316.21,0.93,0,0,0,0,0,0,0,0,269.98,0,0,0,0,0,0,0,0,0,0,0,0,0,1,1,63.9,FLYING
64.1,APPROACH,FLY_TO_FIX,214.27,215,0.73,2815.39,4.12,6.42,5.51,315.93,7.538,0.2477,20,316.17,0.925,0,0,0,0,0,0,0,0,269.98,0,0,0,0,0,0,0,0,0,0,0,0,0,1,1,64.14,FLYING
64.34,APPROACH,FLY_TO_FIX,214.29,215,0.71,2816.4,4.14,6.45,5.53,315.92,6.929,0.2501,20,316.12,0.92,0,0,0,0,0,0,0,0,269.98,0,0,0,0,0,0,0,0,0,0,0,0,0,1,1,64.38,FLYING
64.66,APPROACH,FLY_TO_FIX,214.31,215,0.69,2817.72,4.11,6.43,5.51,315.92,6.122,0.2499,20,316.06,0.913,0,0,0,0,0,0,0,0,269.98,0,0,0,0,0,0,0,0,0,0,0,0,0,1,1,64.7,FLYING
64.9,APPROACH,FLY_TO_FIX,214.29,215,0.71,2818.81,4.01,6.84,5.9,315.87,5.669,0.2585,20,316.02,0.908,0,0,0,0,0,0,0,0,269.98,0,0,0,0,0,0,0,0,0,0,0,0,0,1,1,64.94,FLYING
65.14,APPROACH,FLY_TO_FIX,214.25,215,0.75,2819.84,4.54,6.84,5.87,315.86,5.286,0.272,20,315.98,0.902,0,0,0,0,0,0,0,0,269.98,0,0,0,0,0,0,0,0,0,0,0,0,0,1,1,65.18,FLYING
65.38,APPROACH,FLY_TO_FIX,214.25,215,0.75,2820.77,4.53,6.24,5.25,315.9,4.987,0.2744,20,315.94,0.898,0,0,0,0,0,0,0,0,269.98,0,0,0,0,0,0,0,0,0,0,0,0,0,1,1,65.42,FLYING
65.7,APPROACH,FLY_TO_FIX,214.26,215,0.74,2822.12,4.08,6.14,5.18,315.88,4.562,0.2731,20,315.9,0.891,0,0,0,0,0,0,0,0,269.98,0,0,0,0,0,0,0,0,0,0,0,0,0,1,1,65.74,FLYING
65.94,APPROACH,FLY_TO_FIX,214.26,215,0.74,2823.18,4.17,6.41,5.46,315.84,4.338,0.274,20,315.86,0.886,0,0,0,0,0,0,0,0,269.98,0,0,0,0,0,0,0,0,0,0,0,0,0,1,1,65.98,FLYING
66.18,APPROACH,FLY_TO_FIX,214.31,215,0.69,2824.17,4.16,6.37,5.42,315.82,4.171,0.2624,20,315.83,0.881,0,0,0,0,0,0,0,0,269.98,0,0,0,0,0,0,0,0,0,0,0,0,0,1,1,66.22,FLYING
66.42,APPROACH,FLY_TO_FIX,214.34,215,0.66,2825.18,4.16,6.4,5.46,315.79,4.013,0.2562,20,315.8,0.876,0,0,0,0,0,0,0,0,269.98,0,0,0,0,0,0,0,0,0,0,0,0,0,1,1,66.46,FLYING
66.74,APPROACH,FLY_TO_FIX,214.39,215,0.61,2826.51,4.13,6.42,5.48,315.76,3.764,0.2493,20,315.76,0.869,0,0,0,0,0,0,0,0,269.98,0,0,0,0,0,0,0,0,0,0,0,0,0,1,1,66.78,FLYING
66.98,APPROACH,FLY_TO_FIX,214.43,215,0.57,2827.46,4.14,6.25,5.32,315.75,3.641,0.2437,20,315.73,0.864,0,0,0,0,0,0,0,0,269.98,0,0,0,0,0,0,0,0,0,0,0,0,0,1,1,67.02,FLYING
67.22,APPROACH,FLY_TO_FIX,214.46,215,0.54,2828.47,3.93,6.41,5.47,315.72,3.513,0.2416,20,315.7,0.859,0,0,0,0,0,0,0,0,269.98,0,0,0,0,0,0,0,0,0,0,0,0,0,1,1,67.26,FLYING
67.46,APPROACH,FLY_TO_FIX,214.43,215,0.57,2829.55,4.18,6.84,5.9,315.67,3.389,0.2518,20,315.68,0.854,0,0,0,0,0,0,0,0,269.98,0,0,0,0,0,0,0,0,0,0,0,0,0,1,1,67.5,FLYING
67.78,APPROACH,FLY_TO_FIX,214.44,215,0.56,2830.8,4.33,6.36,5.39,315.67,3.269,0.2536,20,315.64,0.848,0,0,0,0,0,0,0,0,269.98,0,0,0,0,0,0,0,0,0,0,0,0,0,1,1,67.82,FLYING
68.02,APPROACH,FLY_TO_FIX,214.45,215,0.55,2831.8,4.12,6.32,5.36,315.65,3.195,0.255,20,315.62,0.843,0,0,0,0,0,0,0,0,269.98,0,0,0,0,0,0,0,0,0,0,0,0,0,1,1,68.06,FLYING
68.26,APPROACH,FLY_TO_FIX,214.46,215,0.54,2832.81,4.22,6.33,5.38,315.63,3.092,0.2555,20,315.59,0.838,0,0,0,0,0,0,0,0,269.98,0,0,0,0,0,0,0,0,0,0,0,0,0,1,1,68.3,FLYING
68.5,APPROACH,FLY_TO_FIX,214.5,215,0.5,2833.79,4.11,6.25,5.3,315.61,2.993,0.2473,20,315.57,0.833,0,0,0,0,0,0,0,0,269.98,0,0,0,0,0,0,0,0,0,0,0,0,0,1,1,68.54,FLYING
68.82,APPROACH,FLY_TO_FIX,214.49,215,0.51,2835.22,3.99,6.81,5.86,315.56,2.8,0.252,20,315.54,0.826,0,0,0,0,0,0,0,0,269.98,0,0,0,0,0,0,0,0,0,0,0,0,0,1,1,68.86,FLYING
69.06,APPROACH,FLY_TO_FIX,214.47,215,0.53,2836.22,4.49,6.68,5.7,315.55,2.739,0.2607,20,315.52,0.82,0,0,0,0,0,0,0,0,269.98,0,0,0,0,0,0,0,0,0,0,0,0,0,1,1,69.1,FLYING
69.3,APPROACH,FLY_TO_FIX,214.48,215,0.52,2837.13,4.38,6.13,5.16,315.55,2.738,0.2593,20,315.51,0.816,0,0,0,0,0,0,0,0,269.98,0,0,0,0,0,0,0,0,0,0,0,0,0,1,1,69.34,FLYING
69.54,APPROACH,FLY_TO_FIX,214.48,215,0.52,2838.13,4.05,6.12,5.17,315.53,2.657,0.2594,20,315.49,0.811,0,0,0,0,0,0,0,0,269.98,0,0,0,0,0,0,0,0,0,0,0,0,0,1,1,69.58,FLYING
69.86,APPROACH,FLY_TO_FIX,214.51,215,0.49,2839.49,4.12,6.32,5.38,315.51,2.477,0.257,20,315.46,0.804,0,0,0,0,0,0,0,0,269.98,0,0,0,0,0,0,0,0,0,0,0,0,0,1,1,69.9,FLYING
70.1,APPROACH,FLY_TO_FIX,214.54,215,0.46,2840.49,4,6.37,5.43,315.49,2.377,0.2481,20,315.45,0.799,0,0,0,0,0,0,0,0,269.98,0,0,0,0,0,0,0,0,0,0,0,0,0,1,1,70.14,FLYING
70.34,APPROACH,FLY_TO_FIX,214.55,215,0.45,2841.49,4.22,6.45,5.51,315.48,2.273,0.2495,20,315.43,0.794,0,0,0,0,0,0,0,0,269.98,0,0,0,0,0,0,0,0,0,0,0,0,0,1,1,70.38,FLYING
70.58,APPROACH,FLY_TO_FIX,214.58,215,0.42,2842.4,4.13,6.12,5.19,315.47,2.227,0.2436,20,315.42,0.79,0,0,0,0,0,0,0,0,269.98,0,0,0,0,0,0,0,0,0,0,0,0,0,1,1,70.62,FLYING
70.9,APPROACH,FLY_TO_FIX,214.59,215,0.41,2843.72,3.96,6.28,5.37,315.45,2.079,0.2449,20,315.4,0.783,0,0,0,0,0,0,0,0,269.98,0,0,0,0,0,0,0,0,0,0,0,0,0,1,1,70.94,FLYING
71.14,APPROACH,FLY_TO_FIX,214.63,215,0.37,2844.67,3.94,6.29,5.38,315.44,1.99,0.2399,20,315.38,0.778,0,0,0,0,0,0,0,0,269.98,0,0,0,0,0,0,0,0,0,0,0,0,0,1,1,71.18,FLYING
71.38,APPROACH,FLY_TO_FIX,214.65,215,0.35,2845.63,3.94,6.33,5.43,315.43,1.902,0.2375,20,315.37,0.773,0,0,0,0,0,0,0,0,269.98,0,0,0,0,0,0,0,0,0,0,0,0,0,1,1,71.42,FLYING
71.62,APPROACH,FLY_TO_FIX,214.67,215,0.33,2846.57,3.92,6.3,5.4,315.42,1.83,0.2358,20,315.36,0.769,0,0,0,0,0,0,0,0,269.98,0,0,0,0,0,0,0,0,0,0,0,0,0,1,1,71.66,FLYING
71.94,APPROACH,FLY_TO_FIX,214.69,215,0.31,2847.83,3.93,6.33,5.43,315.4,1.725,0.2363,20,315.34,0.762,0,0,0,0,0,0,0,0,269.98,0,0,0,0,0,0,0,0,0,0,0,0,0,1,1,71.98,FLYING
72.18,APPROACH,FLY_TO_FIX,214.7,215,0.3,2848.75,3.87,6.27,5.38,315.39,1.668,0.2361,20,315.33,0.758,0,0,0,0,0,0,0,0,269.98,0,0,0,0,0,0,0,0,0,0,0,0,0,1,1,72.22,FLYING
72.42,APPROACH,FLY_TO_FIX,214.7,215,0.3,2849.69,3.89,6.32,5.43,315.38,1.603,0.2398,20,315.32,0.753,0,0,0,0,0,0,0,0,269.98,0,0,0,0,0,0,0,0,0,0,0,0,0,1,1,72.46,FLYING
72.66,APPROACH,FLY_TO_FIX,214.71,215,0.29,2850.62,3.87,6.32,5.44,315.37,1.549,0.2409,20,315.31,0.748,0,0,0,0,0,0,0,0,269.98,0,0,0,0,0,0,0,0,0,0,0,0,0,1,1,72.7,FLYING
72.98,APPROACH,FLY_TO_FIX,214.71,215,0.29,2851.84,3.76,6.31,5.44,315.36,1.459,0.2436,20,315.3,0.742,0,0,0,0,0,0,0,0,269.98,0,0,0,0,0,0,0,0,0,0,0,0,0,1,1,73.02,FLYING
73.22,APPROACH,FLY_TO_FIX,214.7,215,0.3,2852.76,3.8,6.33,5.46,315.35,1.395,0.248,20,315.29,0.738,0,0,0,0,0,0,0,0,269.98,0,0,0,0,0,0,0,0,0,0,0,0,0,1,1,73.26,FLYING
73.46,APPROACH,FLY_TO_FIX,214.7,215,0.3,2853.66,3.8,6.33,5.46,315.35,1.344,0.249,20,315.28,0.733,0,0,0,0,0,0,0,0,269.98,0,0,0,0,0,0,0,0,0,0,0,0,0,1,1,73.5,FLYING
73.7,APPROACH,FLY_TO_FIX,214.7,215,0.3,2854.57,3.79,6.32,5.45,315.34,1.302,0.2503,20,315.28,0.729,0,0,0,0,0,0,0,0,269.98,0,0,0,0,0,0,0,0,0,0,0,0,0,1,1,73.74,FLYING
74.02,APPROACH,FLY_TO_FIX,214.7,215,0.3,2855.77,3.77,6.32,5.45,315.33,1.237,0.2517,20,315.27,0.723,0,0,0,0,0,0,0,0,269.98,0,0,0,0,0,0,0,0,0,0,0,0,0,1,1,74.06,FLYING
74.26,APPROACH,FLY_TO_FIX,214.7,215,0.3,2856.67,3.76,6.31,5.45,315.32,1.191,0.2518,20,315.26,0.718,0,0,0,0,0,0,0,0,269.98,0,0,0,0,0,0,0,0,0,0,0,0,0,1,1,74.3,FLYING
74.5,APPROACH,FLY_TO_FIX,214.7,215,0.3,2857.57,3.75,6.31,5.46,315.31,1.148,0.2519,20,315.25,0.714,0,0,0,0,0,0,0,0,269.98,0,0,0,0,0,0,0,0,0,0,0,0,0,1,1,74.54,FLYING
74.74,APPROACH,FLY_TO_FIX,214.71,215,0.29,2858.46,3.74,6.31,5.46,315.3,1.102,0.252,20,315.25,0.709,0,0,0,0,0,0,0,0,269.98,0,0,0,0,0,0,0,0,0,0,0,0,0,1,1,74.78,FLYING
75.06,APPROACH,FLY_TO_FIX,214.71,215,0.29,2859.65,3.75,6.3,5.45,315.3,1.036,0.2526,20,315.24,0.703,0,0,0,0,0,0,0,0,269.98,0,0,0,0,0,0,0,0,0,0,0,0,0,1,1,75.1,FLYING
75.3,APPROACH,FLY_TO_FIX,214.71,215,0.29,2860.53,3.64,6.27,5.42,315.29,1,0.2509,20,315.24,0.699,0,0,0,0,0,0,0,0,269.98,0,0,0,0,0,0,0,0,0,0,0,0,0,1,1,75.34,FLYING
75.54,APPROACH,FLY_TO_FIX,214.71,215,0.29,2861.42,3.67,6.29,5.45,315.28,0.958,0.2524,20,315.23,0.694,0,0,0,0,0,0,0,0,269.98,0,0,0,0,0,0,0,0,0,0,0,0,0,1,1,75.58,FLYING
75.78,APPROACH,FLY_TO_FIX,214.72,215,0.28,2862.3,3.68,6.29,5.45,315.28,0.922,0.2502,20,315.23,0.69,0,0,0,0,0,0,0,0,269.98,0,0,0,0,0,0,0,0,0,0,0,0,0,1,1,75.82,FLYING
76.1,APPROACH,FLY_TO_FIX,214.73,215,0.27,2863.47,3.66,6.29,5.46,315.27,0.872,0.2486,20,315.22,0.684,0,0,0,0,0,0,0,0,269.98,0,0,0,0,0,0,0,0,0,0,0,0,0,1,1,76.14,FLYING
76.34,APPROACH,FLY_TO_FIX,214.74,215,0.26,2864.34,3.66,6.28,5.45,315.27,0.837,0.2474,20,315.22,0.68,0,0,0,0,0,0,0,0,269.98,0,0,0,0,0,0,0,0,0,0,0,0,0,1,1,76.38,FLYING
76.58,APPROACH,FLY_TO_FIX,214.75,215,0.25,2865.21,3.65,6.28,5.45,315.26,0.806,0.2463,20,315.21,0.675,0,0,0,0,0,0,0,0,269.98,0,0,0,0,0,0,0,0,0,0,0,0,0,1,1,76.62,FLYING
76.82,APPROACH,FLY_TO_FIX,214.76,215,0.24,2866.08,3.61,6.28,5.45,315.26,0.776,0.2456,20,315.21,0.671,0,0,0,0,0,0,0,0,269.98,0,0,0,0,0,0,0,0,0,0,0,0,0,1,1,76.86,FLYING
77.14,APPROACH,FLY_TO_FIX,214.76,215,0.24,2867.23,3.62,6.27,5.45,315.25,0.728,0.2457,20,315.21,0.665,0,0,0,0,0,0,0,0,269.98,0,0,0,0,0,0,0,0,0,0,0,0,0,1,1,77.18,FLYING
77.38,APPROACH,FLY_TO_FIX,214.77,215,0.23,2868.09,3.57,6.27,5.45,315.25,0.699,0.2452,20,315.2,0.661,0,0,0,0,0,0,0,0,269.98,0,0,0,0,0,0,0,0,0,0,0,0,0,1,1,77.42,FLYING
77.62,APPROACH,FLY_TO_FIX,214.77,215,0.23,2868.95,3.57,6.27,5.46,315.24,0.667,0.2454,20,315.2,0.657,0,0,0,0,0,0,0,0,269.98,0,0,0,0,0,0,0,0,0,0,0,0,0,1,1,77.66,FLYING
77.86,APPROACH,FLY_TO_FIX,214.78,215,0.22,2869.8,3.57,6.26,5.45,315.24,0.636,0.2449,20,315.2,0.652,0,0,0,0,0,0,0,0,269.98,0,0,0,0,0,0,0,0,0,0,0,0,0,1,1,77.9,FLYING
78.18,APPROACH,FLY_TO_FIX,214.79,215,0.21,2870.93,3.56,6.25,5.44,315.23,0.598,0.2442,20,315.2,0.647,0,0,0,0,0,0,0,0,269.98,0,0,0,0,0,0,0,0,0,0,0,0,0,1,1,78.22,FLYING
78.42,APPROACH,FLY_TO_FIX,214.8,215,0.2,2871.78,3.56,6.25,5.45,315.23,0.57,0.2437,20,315.19,0.642,0,0,0,0,0,0,0,0,269.98,0,0,0,0,0,0,0,0,0,0,0,0,0,1,1,78.46,FLYING
78.66,APPROACH,FLY_TO_FIX,214.8,215,0.2,2872.62,3.5,6.25,5.45,315.23,0.544,0.2438,20,315.19,0.638,0,0,0,0,0,0,0,0,269.98,0,0,0,0,0,0,0,0,0,0,0,0,0,1,1,78.7,FLYING
78.9,APPROACH,FLY_TO_FIX,214.8,215,0.2,2873.47,3.52,6.25,5.45,315.22,0.516,0.2448,20,315.19,0.634,0,0,0,0,0,0,0,0,269.98,0,0,0,0,0,0,0,0,0,0,0,0,0,1,1,78.94,FLYING
79.22,APPROACH,FLY_TO_FIX,214.81,215,0.19,2874.58,3.51,6.24,5.44,315.22,0.479,0.2449,20,315.19,0.628,0,0,0,0,0,0,0,0,269.98,0,0,0,0,0,0,0,0,0,0,0,0,0,1,1,79.26,FLYING
79.46,APPROACH,FLY_TO_FIX,214.81,215,0.19,2875.41,3.49,6.24,5.45,315.22,0.455,0.2448,20,315.19,0.624,0,0,0,0,0,0,0,0,269.98,0,0,0,0,0,0,0,0,0,0,0,0,0,1,1,79.5,FLYING
79.7,APPROACH,FLY_TO_FIX,214.81,215,0.19,2876.24,3.44,6.24,5.45,315.22,0.431,0.2453,20,315.19,0.62,0,0,0,0,0,0,0,0,269.98,0,0,0,0,0,0,0,0,0,0,0,0,0,1,1,79.74,FLYING
79.94,APPROACH,FLY_TO_FIX,214.81,215,0.19,2877.07,3.45,6.23,5.44,315.21,0.408,0.2461,20,315.19,0.616,0,0,0,0,0,0,0,0,269.98,0,0,0,0,0,0,0,0,0,0,0,0,0,1,1,79.98,FLYING
80.26,APPROACH,FLY_TO_FIX,214.82,215,0.18,2878.16,3.45,6.22,5.44,315.21,0.377,0.2454,20,315.19,0.611,0,0,0,0,0,0,0,0,269.98,0,0,0,0,0,0,0,0,0,0,0,0,0,1,1,80.3,FLYING
80.5,APPROACH,FLY_TO_FIX,214.82,215,0.18,2878.98,3.44,6.22,5.44,315.21,0.355,0.2449,20,315.19,0.606,0,0,0,0,0,0,0,0,269.98,0,0,0,0,0,0,0,0,0,0,0,0,0,1,1,80.54,FLYING
80.74,APPROACH,FLY_TO_FIX,214.83,215,0.17,2879.8,3.39,6.23,5.45,315.21,0.334,0.245,20,315.19,0.602,0,0,0,0,0,0,0,0,269.98,0,0,0,0,0,0,0,0,0,0,0,0,0,1,1,80.78,FLYING
80.98,APPROACH,FLY_TO_FIX,214.83,215,0.17,2880.61,3.35,6.21,5.44,315.21,0.313,0.2456,20,315.19,0.598,0,0,0,0,0,0,0,0,269.98,0,0,0,0,0,0,0,0,0,0,0,0,0,1,1,81.02,FLYING
81.3,APPROACH,FLY_TO_FIX,214.83,215,0.17,2881.69,3.39,6.21,5.44,315.2,0.285,0.2458,20,315.19,0.593,0,0,0,0,0,0,0,0,269.98,0,0,0,0,0,0,0,0,0,0,0,0,0,1,1,81.34,FLYING
81.54,APPROACH,FLY_TO_FIX,214.83,215,0.17,2882.49,3.36,6.21,5.45,315.2,0.265,0.2451,20,315.19,0.589,0,0,0,0,0,0,0,0,269.98,0,0,0,0,0,0,0,0,0,0,0,0,0,1,1,81.58,FLYING
81.78,APPROACH,FLY_TO_FIX,214.83,215,0.17,2883.29,3.33,6.21,5.44,315.2,0.246,0.2454,20,315.19,0.585,0,0,0,0,0,0,0,0,269.98,0,0,0,0,0,0,0,0,0,0,0,0,0,1,1,81.82,FLYING
82.02,APPROACH,FLY_TO_FIX,214.84,215,0.16,2884.09,3.34,6.2,5.44,315.2,0.227,0.2456,20,315.19,0.581,0,0,0,0,0,0,0,0,269.98,0,0,0,0,0,0,0,0,0,0,0,0,0,1,1,82.06,FLYING
82.34,APPROACH,FLY_TO_FIX,214.84,215,0.16,2885.14,3.33,6.18,5.43,315.2,0.203,0.2453,20,315.19,0.576,0,0,0,0,0,0,0,0,269.98,0,0,0,0,0,0,0,0,0,0,0,0,0,1,1,82.38,FLYING
82.58,APPROACH,FLY_TO_FIX,214.84,215,0.16,2885.93,3.31,6.19,5.44,315.2,0.186,0.2446,20,315.19,0.572,0,0,0,0,0,0,0,0,269.98,0,0,0,0,0,0,0,0,0,0,0,0,0,1,1,82.62,FLYING
82.82,APPROACH,FLY_TO_FIX,214.85,215,0.15,2886.72,3.27,6.19,5.44,315.2,0.168,0.2445,20,315.19,0.568,0,0,0,0,0,0,0,0,269.98,0,0,0,0,0,0,0,0,0,0,0,0,0,1,1,82.86,FLYING
83.06,APPROACH,FLY_TO_FIX,214.85,215,0.15,2887.5,3.27,6.19,5.44,315.2,0.152,0.2447,20,315.19,0.564,0,0,0,0,0,0,0,0,269.98,0,0,0,0,0,0,0,0,0,0,0,0,0,1,1,83.1,FLYING
83.38,APPROACH,FLY_TO_FIX,214.85,215,0.15,2888.53,3.26,6.17,5.43,315.2,0.13,0.2445,20,315.19,0.559,0,0,0,0,0,0,0,0,269.98,0,0,0,0,0,0,0,0,0,0,0,0,0,1,1,83.42,FLYING
83.62,APPROACH,FLY_TO_FIX,214.86,215,0.14,2889.31,3.23,6.19,5.45,315.2,0.114,0.2438,20,315.19,0.555,0,0,0,0,0,0,0,0,269.98,0,0,0,0,0,0,0,0,0,0,0,0,0,1,1,83.66,FLYING
83.86,APPROACH,FLY_TO_FIX,214.86,215,0.14,2890.08,3.17,6.16,5.43,315.2,0.099,0.2439,20,315.2,0.551,0,0,0,0,0,0,0,0,269.98,0,0,0,0,0,0,0,0,0,0,0,0,0,1,1,83.9,FLYING
84.1,APPROACH,FLY_TO_FIX,214.86,215,0.14,2890.84,3.2,6.17,5.44,315.2,0.084,0.2448,20,315.2,0.547,0,0,0,0,0,0,0,0,269.98,0,0,0,0,0,0,0,0,0,0,0,0,0,1,1,84.14,FLYING
84.42,APPROACH,FLY_TO_FIX,214.87,215,0.13,2891.86,3.19,6.16,5.43,315.2,0.065,0.2435,20,315.2,0.542,0,0,0,0,0,0,0,0,269.98,0,0,0,0,0,0,0,0,0,0,0,0,0,1,1,84.46,FLYING
84.66,APPROACH,FLY_TO_FIX,214.87,215,0.13,2892.61,3.18,6.15,5.43,315.2,0.051,0.2427,20,315.2,0.538,0,0,0,0,0,0,0,0,269.98,0,0,0,0,0,0,0,0,0,0,0,0,0,1,1,84.7,FLYING
84.9,APPROACH,FLY_TO_FIX,214.88,215,0.12,2893.37,3.15,6.15,5.44,315.2,0.037,0.2426,20,315.2,0.534,0,0,0,0,0,0,0,0,269.98,0,0,0,0,0,0,0,0,0,0,0,0,0,1,1,84.94,FLYING
85.14,APPROACH,FLY_TO_FIX,214.88,215,0.12,2894.12,3.12,6.16,5.44,315.2,0.024,0.2431,20,315.2,0.531,0,0,0,0,0,0,0,0,269.98,0,0,0,0,0,0,0,0,0,0,0,0,0,1,1,85.18,FLYING
85.46,APPROACH,FLY_TO_FIX,214.88,215,0.12,2895.11,3.13,6.14,5.43,315.2,0.008,0.2436,20,315.2,0.526,0,0,0,0,0,0,0,0,269.98,0,0,0,0,0,0,0,0,0,0,0,0,0,1,1,85.5,FLYING
85.7,APPROACH,FLY_TO_FIX,214.88,215,0.12,2895.85,3.07,6.14,5.44,315.2,-0.005,0.2434,20,315.21,0.522,0,0,0,0,0,0,0,0,269.98,0,0,0,0,0,0,0,0,0,0,0,0,0,1,1,85.74,FLYING
85.94,APPROACH,FLY_TO_FIX,214.88,215,0.12,2896.59,3.05,6.14,5.44,315.2,-0.017,0.2441,20,315.21,0.518,0,0,0,0,0,0,0,0,269.98,0,0,0,0,0,0,0,0,0,0,0,0,0,1,1,85.98,FLYING
86.18,APPROACH,FLY_TO_FIX,214.88,215,0.12,2897.32,3.06,6.13,5.43,315.2,-0.028,0.2443,20,315.21,0.515,0,0,0,0,0,0,0,0,269.98,0,0,0,0,0,0,0,0,0,0,0,0,0,1,1,86.22,FLYING
86.5,APPROACH,FLY_TO_FIX,214.89,215,0.11,2898.29,3.05,6.12,5.43,315.2,-0.041,0.2434,20,315.21,0.51,0,0,0,0,0,0,0,0,269.98,0,0,0,0,0,0,0,0,0,0,0,0,0,1,1,86.54,FLYING
86.74,APPROACH,FLY_TO_FIX,214.89,215,0.11,2899.01,3.04,6.12,5.43,315.2,-0.051,0.2427,20,315.21,0.506,0,0,0,0,0,0,0,0,269.98,0,0,0,0,0,0,0,0,0,0,0,0,0,1,1,86.78,FLYING
86.98,APPROACH,FLY_TO_FIX,214.89,215,0.11,2899.73,3,6.13,5.45,315.2,-0.06,0.2428,20,315.21,0.503,0,0,0,0,0,0,0,0,269.98,0,0,0,0,0,0,0,0,0,0,0,0,0,1,1,87.02,FLYING
87.22,APPROACH,FLY_TO_FIX,214.89,215,0.11,2900.44,2.94,6.1,5.42,315.2,-0.07,0.2431,20,315.21,0.499,0,0,0,0,0,0,0,0,269.98,0,0,0,0,0,0,0,0,0,0,0,0,0,1,1,87.26,FLYING
87.54,APPROACH,FLY_TO_FIX,214.89,215,0.11,2901.39,2.98,6.11,5.44,315.21,-0.079,0.2437,20,315.22,0.494,0,0,0,0,0,0,0,0,269.98,0,0,0,0,0,0,0,0,0,0,0,0,0,1,1,87.58,FLYING
87.78,APPROACH,FLY_TO_FIX,214.9,215,0.1,2902.1,2.94,6.12,5.45,315.21,-0.085,0.2431,20,315.22,0.491,0,0,0,0,0,0,0,0,269.98,0,0,0,0,0,0,0,0,0,0,0,0,0,1,1,87.82,FLYING
88.02,APPROACH,FLY_TO_FIX,214.9,215,0.1,2902.8,2.88,6.1,5.43,315.21,-0.094,0.2435,20,315.22,0.487,0,0,0,0,0,0,0,0,269.98,0,0,0,0,0,0,0,0,0,0,0,0,0,1,1,88.06,FLYING
88.26,APPROACH,FLY_TO_FIX,214.89,215,0.11,2903.5,2.89,6.1,5.44,315.21,-0.101,0.2449,20,315.22,0.484,0,0,0,0,0,0,0,0,269.98,0,0,0,0,0,0,0,0,0,0,0,0,0,1,1,88.3,FLYING
88.58,APPROACH,FLY_TO_FIX,214.9,215,0.1,2904.43,2.92,6.1,5.44,315.21,-0.109,0.2441,20,315.22,0.479,0,0,0,0,0,0,0,0,269.98,0,0,0,0,0,0,0,0,0,0,0,0,0,1,1,88.62,FLYING
88.82,APPROACH,FLY_TO_FIX,214.9,215,0.1,2905.12,2.89,6.09,5.44,315.21,-0.117,0.2433,20,315.22,0.476,0,0,0,0,0,0,0,0,269.98,0,0,0,0,0,0,0,0,0,0,0,0,0,1,1,88.86,FLYING
89.06,APPROACH,FLY_TO_FIX,214.9,215,0.1,2905.81,2.87,6.09,5.44,315.21,-0.122,0.2434,20,315.23,0.472,0,0,0,0,0,0,0,0,269.98,0,0,0,0,0,0,0,0,0,0,0,0,0,1,1,89.1,FLYING
89.3,APPROACH,FLY_TO_FIX,214.9,215,0.1,2906.49,2.87,6.09,5.44,315.21,-0.127,0.2433,20,315.23,0.469,0,0,0,0,0,0,0,0,269.98,0,0,0,0,0,0,0,0,0,0,0,0,0,1,1,89.34,FLYING
89.62,APPROACH,FLY_TO_FIX,214.91,215,0.09,2907.39,2.86,6.07,5.42,315.21,-0.133,0.2429,20,315.23,0.464,0,0,0,0,0,0,0,0,269.98,0,0,0,0,0,0,0,0,0,0,0,0,0,1,1,89.66,FLYING
89.86,APPROACH,FLY_TO_FIX,214.91,215,0.09,2908.07,2.82,6.07,5.43,315.22,-0.138,0.2421,20,315.23,0.461,0,0,0,0,0,0,0,0,269.98,0,0,0,0,0,0,0,0,0,0,0,0,0,1,1,89.9,FLYING
90.1,APPROACH,FLY_TO_FIX,214.91,215,0.09,2908.74,2.79,6.07,5.44,315.22,-0.143,0.2421,20,315.23,0.457,0,0,0,0,0,0,0,0,269.98,0,0,0,0,0,0,0,0,0,0,0,0,0,1,1,90.14,FLYING
90.34,APPROACH,FLY_TO_FIX,214.91,215,0.09,2909.41,2.79,6.07,5.44,315.22,-0.146,0.2424,20,315.23,0.454,0,0,0,0,0,0,0,0,269.98,0,0,0,0,0,0,0,0,0,0,0,0,0,1,1,90.38,FLYING
90.66,APPROACH,FLY_TO_FIX,214.91,215,0.09,2910.29,2.79,6.06,5.43,315.22,-0.149,0.2427,20,315.23,0.45,0,0,0,0,0,0,0,0,269.98,0,0,0,0,0,0,0,0,0,0,0,0,0,1,1,90.7,FLYING
90.9,APPROACH,FLY_TO_FIX,214.92,215,0.08,2910.95,2.74,6.06,5.44,315.22,-0.153,0.2423,20,315.24,0.446,0,0,0,0,0,0,0,0,269.98,0,0,0,0,0,0,0,0,0,0,0,0,0,1,1,90.94,FLYING
91.14,APPROACH,FLY_TO_FIX,214.92,215,0.08,2911.61,2.74,6.06,5.44,315.22,-0.155,0.243,20,315.24,0.443,0,0,0,0,0,0,0,0,269.98,0,0,0,0,0,0,0,0,0,0,0,0,0,1,1,91.18,FLYING
91.38,APPROACH,FLY_TO_FIX,214.92,215,0.08,2912.26,2.74,6.05,5.43,315.22,-0.156,0.2427,20,315.24,0.44,0,0,0,0,0,0,0,0,269.98,0,0,0,0,0,0,0,0,0,0,0,0,0,1,1,91.42,FLYING
91.7,APPROACH,FLY_TO_FIX,214.92,215,0.08,2913.12,2.71,6.04,5.42,315.22,-0.159,0.2423,20,315.24,0.435,0,0,0,0,0,0,0,0,269.98,0,0,0,0,0,0,0,0,0,0,0,0,0,1,1,91.74,FLYING
91.94,APPROACH,FLY_TO_FIX,214.92,215,0.08,2913.76,2.7,6.04,5.43,315.22,-0.161,0.2416,20,315.24,0.432,0,0,0,0,0,0,0,0,269.98,0,0,0,0,0,0,0,0,0,0,0,0,0,1,1,91.98,FLYING
92.18,APPROACH,FLY_TO_FIX,214.93,215,0.07,2914.4,2.67,6.04,5.43,315.23,-0.163,0.2413,20,315.24,0.429,0,0,0,0,0,0,0,0,269.98,0,0,0,0,0,0,0,0,0,0,0,0,0,1,1,92.22,FLYING
