t_s,phase,subphase,ias_ms,vapp_ms,spd_err_ms,agl_m,gear_h_m,vs_ms,pitch_deg,aoa_deg,hdg_deg,bank_deg,thr_cmd,thr_cur,thr_intg,at_gain,at_tau_s,at_a_up,at_a_dn,at_kp_thr,at_ki_spd,at_thr_slew,as_cmd_deg,as_cap_deg,as_raw_deg,as_spd_err_ms,as_active,aa_hdg_cmd_deg,aa_fpa_cmd_deg,aa_fbw,aa_dir,actual_fpa_deg,ftf_hdg_err_deg,ftf_fix_idx,kos_steer_pit_deg,kos_steer_hdg_deg,aa_dir_vx,aa_dir_vy,aa_dir_vz,aa_dir_pitch_deg,aa_dir_hdg_deg,ils_loc_m,ils_gs_m,ils_dist_km,loc_corr_deg,gs_corr_deg,gs_latched,active_gs_ang_deg,ils_intercept_alt_m,d_gs_ms,fpa_preclamped_deg,gs_nom_alt_m,flare_fpa_cmd,flare_tgt_vs,flare_frac,flare_round_blend_h,flare_round_blend_ttg,flare_round_blend,flare_mode,flare_auth_limited,flare_auth_reason,flare_vs_err,flare_fpa_err,flare_pitch_err,flare_theta_cmd_raw,flare_theta_cmd_clamped,flare_theta_clamp_active,flare_aoa_clamp_active,flare_pitch_in_cmd,elev_defl_avg_deg,elev_defl_max_deg,elev_defl_n,flare_ctrl_h_m,flare_req_up_a,flare_thr_floor,flare_tecs_et_err,flare_tecs_eb_err,flare_tecs_h_ref,flare_tecs_v_ref,flare_gamma_ref,flare_gamma_eb_term,flare_gamma_unsat,steer_hdg_deg,steer_blend,ro_loc_corr_deg,ro_hdg_err_deg,ro_yaw_tgt,ro_yaw_scale,ro_yaw_gate,yaw_cmd,roll_cmd,pitch_cmd,ro_pitch_tgt_deg,ro_pitch_err_deg,ro_pitch_ff,ro_roll_assist,flaps_cur,flaps_tgt,asc_j_ab,asc_j_rk,asc_validity,asc_q_pa,asc_q_raw_pa,asc_mach,asc_apo_m,asc_drag_n,asc_w_prop,asc_edot_aero,asc_edot_orb,asc_pitch_bias,asc_blend,asc_spooling,asc_ab_thr_ratio,asc_ab_t_now,asc_ab_t_avail,asc_ab_ign_on,asc_ab_flameouts,asc_rk_t_now,asc_rk_t_avail,asc_rk_ign_on,asc_rk_flameouts,ship_thrust,ship_avail_thrust,ship_ign_on,ship_flameouts,ifc_raw_dt_s,ifc_dt_s,ifc_loop_n,ifc_hz_est,ifc_raw_dt_max_s,ifc_raw_dt_min_s,phase_el_s,status,craft_name,cfg_file
5.85,TAKEOFF,TO_PREFLIGHT,0.01,80,79.99,3.61,62.48,0,0.04,0.01,276.44,-0.037,0.126,0,0,0,0,0,0,0,0,0,0,0,0,0,0,270,0,1,0,0,0,0,0,90,0,0,0,0,0,0,0,0,0,0,0,3,0,0,0,69,0,0,0,0,0,0,,0,NONE,0,0,0,0,0,0,0,0,0,0,0,62.48,0,0,0,0,0,0,0,0,0,270,1,0,6.441,0,0,1,0,0,0,0,0,0,0,1,1,0,0,VALID,0,0,0,0,0,1,0,0,0,0,0,0,0,0,0,0,0,0,0,0,5.72,479.9,2,0,0.315,0.315,1,0.17,0.315,0.02,5.53,LANDED,CF1-J,0:/Integrated Flight Computer/aircraft/cf1_j_cfg.ks (inferred preloaded)
6.16,TAKEOFF,TO_PREFLIGHT,0.01,80,79.99,3.61,62.48,0,0.06,-7.3,276.95,-0.037,0.41,0,0,0,0,0,0,0,0,0,0,0,0,0,0,270,0,1,0,-0.01,0,0,0,90,0,0,0,0,0,0,0,0,0,0,0,3,0,0,0,69,0,0,0,0,0,0,,0,NONE,0,0,0,0,0,0,0,0,0,0,0,62.48,0,0,0,0,0,0,0,0,0,270,1,0,6.441,0,0,1,0,0,0,0,0,0,0,1,1,0,0,VALID,0,0,0,0,0,1,0,0,0,0,0,0,0,0,0,0,0,0,0,0,7.43,479.9,2,0,0.105,0.105,4,9.52,5.635,0.105,5.88,LANDED,CF1-J,0:/Integrated Flight Computer/aircraft/cf1_j_cfg.ks (inferred preloaded)
6.44,TAKEOFF,TO_PREFLIGHT,0.01,80,79.99,3.61,62.48,0,0.06,-5.2,276.98,-0.038,0.522,0,0,0,0,0,0,0,0,0,0,0,0,0,0,270,0,1,0,0.07,0,0,0,90,0,0,0,0,0,0,0,0,0,0,0,3,0,0,0,69,0,0,0,0,0,0,,0,NONE,0,0,0,0,0,0,0,0,0,0,0,62.48,0,0,0,0,0,0,0,0,0,270,1,0,6.441,0,0,1,0,0,0,0,0,0,0,1,1,0,0,VALID,0,0,0,0,0,1,0,0,0,0,0,0,0,0,0,0,0,0,0,0,10.66,479.9,2,0,0.105,0.105,7,10.71,0.105,0.07,6.16,LANDED,CF1-J,0:/Integrated Flight Computer/aircraft/cf1_j_cfg.ks (inferred preloaded)
6.79,TAKEOFF,TO_PREFLIGHT,0.02,80,79.98,3.61,62.48,0,0.05,0,277.01,-0.039,0.662,0,0,0,0,0,0,0,0,0,0,0,0,0,0,270,0,1,0,-0.02,0,0,0,90,0,0,0,0,0,0,0,0,0,0,0,3,0,0,0,69,0,0,0,0,0,0,,0,NONE,0,0,0,0,0,0,0,0,0,0,0,62.48,0,0,0,0,0,0,0,0,0,270,1,0,6.441,0,0,1,0,0,0,0,0,0,0,1,1,0,0,VALID,0,0,0,0,0,1,0,0,0,0,0,0,0,0,0,0,0,0,0,0,15.83,479.9,2,0,0.105,0.105,10,8.57,0.14,0.105,6.51,LANDED,CF1-J,0:/Integrated Flight Computer/aircraft/cf1_j_cfg.ks (inferred preloaded)
7.07,TAKEOFF,TO_PREFLIGHT,0.02,80,79.98,3.61,62.48,0,0.05,-1.33,277.03,-0.038,0.774,0,0,0,0,0,0,0,0,0,0,0,0,0,0,270,0,1,0,0.03,0,0,0,90,0,0,0,0,0,0,0,0,0,0,0,3,0,0,0,69,0,0,0,0,0,0,,0,NONE,0,0,0,0,0,0,0,0,0,0,0,62.48,0,0,0,0,0,0,0,0,0,270,1,0,6.441,0,0,1,0,0,0,0,0,0,0,1,1,0,0,VALID,0,0,0,0,0,1,0,0,0,0,0,0,0,0,0,0,0,0,0,0,20.93,479.89,2,0,0.105,0.105,13,10.71,0.105,0.07,6.79,LANDED,CF1-J,0:/Integrated Flight Computer/aircraft/cf1_j_cfg.ks (inferred preloaded)
7.42,TAKEOFF,TO_PREFLIGHT,0.03,80,79.97,3.61,62.48,0,0.04,0.33,277.07,-0.037,0.914,0,0,0,0,0,0,0,0,0,0,0,0,0,0,270,0,1,0,0,0,0,0,90,0,0,0,0,0,0,0,0,0,0,0,3,0,0,0,69,0,0,0,0,0,0,,0,NONE,0,0,0,0,0,0,0,0,0,0,0,62.48,0,0,0,0,0,0,0,0,0,270,1,0,6.441,0,0,1,0,0,0,0,0,0,0,1,1,0,0,VALID,0,0,0,0,0,1,0,0,0,0,0,0,0,0,0,0,0,0,0,0,28.41,479.89,2,0,0.105,0.105,16,8.57,0.14,0.105,7.14,LANDED,CF1-J,0:/Integrated Flight Computer/aircraft/cf1_j_cfg.ks (inferred preloaded)
7.7,TAKEOFF,TO_PREFLIGHT,0.04,80,79.96,3.61,62.48,0,0.03,0.42,277.09,-0.039,1,0,0,0,0,0,0,0,0,0,0,0,0,0,0,270,0,1,0,-0.05,0,0,0,90,0,0,0,0,0,0,0,0,0,0,0,3,0,0,0,69,0,0,0,0,0,0,,0,NONE,0,0,0,0,0,0,0,0,0,0,0,62.48,0,0,0,0,0,0,0,0,0,270,1,0,6.441,0,0,1,0,0,0,0,0,0,0,1,1,0,0,VALID,0,0,0,0,0,1,0,0,0,0,0,0,0,0,0,0,0,0,0,0,35.32,479.89,2,0,0.105,0.105,19,10.71,0.105,0.07,7.42,LANDED,CF1-J,0:/Integrated Flight Computer/aircraft/cf1_j_cfg.ks (inferred preloaded)
8.05,TAKEOFF,TO_PREFLIGHT,0.05,80,79.95,3.61,62.47,0,0.02,-0.51,277.12,-0.039,1,0,0,0,0,0,0,0,0,0,0,0,0,0,0,270,0,1,0,0,0,0,0,90,0,0,0,0,0,0,0,0,0,0,0,3,0,0,0,69,0,0,0,0,0,0,,0,NONE,0,0,0,0,0,0,0,0,0,0,0,62.47,0,0,0,0,0,0,0,0,0,270,1,0,6.441,0,0,1,0,0,0,0,0,0,0,1,1,0,0,VALID,0,0,0,0,0,1,0,0,0,0,0,0,0,0,0,0,0,0,0,0,44.54,479.89,2,0,0.105,0.105,22,8.57,0.14,0.105,7.77,LANDED,CF1-J,0:/Integrated Flight Computer/aircraft/cf1_j_cfg.ks (inferred preloaded)
8.33,TAKEOFF,TO_GROUND_ROLL,0.06,80,79.94,3.6,62.47,0,0.01,0.07,277.14,-0.038,1,0,0,0,0,0,0,0,0,0,0,0,0,0,0,270,0,1,0,-0.02,0,0,0,90,0,0,0,0,0,0,0,0,0,0,0,3,0,0,0,69,0,0,0,0,0,0,,0,NONE,0,0,0,0,0,0,0,0,0,0,0,62.47,0,0,0,0,0,0,0,0,0,270,1,0,6.441,0,0,1,0,0,0,0,0,0,0,1,1,0,0,VALID,0,0,0,0,0,1,0,0,0,0,0,0,0,0,0,0,0,0,0,0,51.8,479.89,2,0,0.105,0.105,25,10.71,0.105,0.07,8.05,LANDED,CF1-J,0:/Integrated Flight Computer/aircraft/cf1_j_cfg.ks (inferred preloaded)
8.72,TAKEOFF,TO_GROUND_ROLL,0.16,80,79.84,3.62,62.49,-0.01,0.1,1.87,277.15,-0.031,1,0,0,0,0,0,0,0,0,0,0,0,0,0,0,270.02,0,1,0,-0.6,0,0,0,90,0,0,0,0,0,0,0,0,0,0,0,3,0,0,0,69,0,0,0,0,0,0,,0,NONE,0,0,0,0,0,0,0,0,0,0,0,62.49,0,0,0,0,0,0,0,0,0,270.02,1,0,7.129,-0.0802,0.25,1,-0.0802,0,0,0,0,0,0,1,1,0,0,VALID,0,0,0,0,0,1,0,0,0,0,0,0,0,0,0,0,0,0,0,0,60.7,479.87,2,0,0.105,0.105,28,8.57,0.14,0.105,8.4,LANDED,CF1-J,0:/Integrated Flight Computer/aircraft/cf1_j_cfg.ks (inferred preloaded)
9,TAKEOFF,TO_GROUND_ROLL,0.42,80,79.58,3.62,62.48,0.01,0.09,-0.43,277.09,-0.037,1,0,0,0,0,0,0,0,0,0,0,0,0,0,0,270.05,0,1,0,0.35,0,0,0,90,0,0,0,0,0,0,0,0,0,0,0,3,0,0,0,69,0,0,0,0,0,0,,0,NONE,0,0,0,0,0,0,0,0,0,0,0,62.48,0,0,0,0,0,0,0,0,0,270.05,1,0,7.041,-0.0792,0.25,1,-0.0792,0,0,0,0,0,0,1,1,0,0,VALID,0,0,0,0,0,1,0,0,0,0,0,0,0,0,0,0,0,0,0,0,67.68,479.81,2,0,0.105,0.105,31,10.71,0.105,0.07,8.68,LANDED,CF1-J,0:/Integrated Flight Computer/aircraft/cf1_j_cfg.ks (inferred preloaded)
9.35,TAKEOFF,TO_GROUND_ROLL,0.85,80,79.15,3.62,62.48,0,0.09,0.3,276.99,-0.041,1,0,0,0,0,0,0,0,0,0,0,0,0,0,0,270.07,0,1,0,-0.24,0,0,0,90,0,0,0,0,0,0,0,0,0.001,0,0,3,0,0,0,69,0,0,0,0,0,0,,0,NONE,0,0,0,0,0,0,0,0,0,0,0,62.48,0,0,0,0,0,0,0,0,0,270.07,1,0.001,6.921,-0.0779,0.25,1,-0.0779,0,0,0,0,0,0,1,1,0,0,VALID,0,0,0,0,0,1,0,0,0,0,0,0,0,0,0,0,0,0,0,0,76.24,479.71,2,0,0.105,0.105,34,8.57,0.14,0.105,9.03,LANDED,CF1-J,0:/Integrated Flight Computer/aircraft/cf1_j_cfg.ks (inferred preloaded)
9.63,TAKEOFF,TO_GROUND_ROLL,1.23,80,78.77,3.62,62.49,0,0.1,0.12,276.87,-0.036,1,0,0,0,0,0,0,0,0,0,0,0,0,0,0,270.09,0,1,0,-0.02,0,0,0,90,0,0,0,0,0,0,0,0,0.002,0,0,3,0,0,0,69,0,0,0,0,0,0,,0,NONE,0,0,0,0,0,0,0,0,0,0,0,62.49,0,0,0,0,0,0,0,0,0,270.09,1,0.002,6.78,-0.0763,0.25,1,-0.0763,0,0,0,0,0,0,1,1,0,0,VALID,0,0,0,0,0,1,0,0,0,0,0,0,0,0,0,0,0,0,0,0,82.96,479.62,2,0,0.105,0.105,37,10.71,0.105,0.07,9.31,LANDED,CF1-J,0:/Integrated Flight Computer/aircraft/cf1_j_cfg.ks (inferred preloaded)
9.98,TAKEOFF,TO_GROUND_ROLL,1.75,80,78.25,3.62,62.48,0,0.09,0.15,276.67,-0.027,1,0,0,0,0,0,0,0,0,0,0,0,0,0,0,270.14,0,1,0,-0.07,0,0,0,90,0,0,0,0,0,0,0,0,0.003,0,0,3,0,0,0,69,0,0,0,0,0,0,,0,NONE,0,0,0,0,0,0,0,0,0,0,0,62.48,0,0,0,0,0,0,0,0,0,270.14,1,0.003,6.529,-0.0734,0.25,1,-0.0734,0,0,0,0,0,0,1,1,0,0,VALID,0,0,0,0,0,1,0,0,0,0,0,0,0,0,0,0,0,0,0,0,91.19,479.5,2,0,0.105,0.105,40,8.57,0.14,0.105,9.66,LANDED,CF1-J,0:/Integrated Flight Computer/aircraft/cf1_j_cfg.ks (inferred preloaded)
10.26,TAKEOFF,TO_GROUND_ROLL,2.2,80,77.8,3.62,62.48,0,0.1,0.16,276.44,-0.023,1,0,0,0,0,0,0,0,0,0,0,0,0,0,0,270.18,0,1,0,-0.07,0,0,0,90,0,0,0,0,0,0,0,0,0.005,0,0,3,0,0,0,69,0,0,0,0,0,0,,0,NONE,0,0,0,0,0,0,0,0,0,0,0,62.48,0,0,0,0,0,0,0,0,0,270.18,1,0.005,6.258,-0.0704,0.25,1,-0.0704,0,0,0,0,0,0,1,1,0,0,VALID,0,0,0,0,0,1,0,0,0,0,0,0,0,0,0,0,0,0,0,0,97.64,479.39,2,0,0.105,0.105,43,10.71,0.105,0.07,9.94,LANDED,CF1-J,0:/Integrated Flight Computer/aircraft/cf1_j_cfg.ks (inferred preloaded)
10.61,TAKEOFF,TO_GROUND_ROLL,2.81,80,77.19,3.62,62.48,0,0.1,0.13,276.07,-0.02,1,0,0,0,0,0,0,0,0,0,0,0,0,0,0,270.23,0,1,0,-0.04,0,0,0,90,0,0,0,0,0,0,0,0,0.007,0,0,3,0,0,0,69,0,0,0,0,0,0,,0,NONE,0,0,0,0,0,0,0,0,0,0,0,62.48,0,0,0,0,0,0,0,0,0,270.23,1,0.007,5.843,-0.0657,0.25,1,-0.0657,0,0,0,0,0,0,1,1,0,0,VALID,0,0,0,0,0,1,0,0,0,0,0,0,0,0,0,0,0,0,0,0,105.55,479.24,2,0,0.105,0.105,46,8.57,0.14,0.105,10.29,LANDED,CF1-J,0:/Integrated Flight Computer/aircraft/cf1_j_cfg.ks (inferred preloaded)
10.89,TAKEOFF,TO_GROUND_ROLL,3.33,80,76.67,3.62,62.48,0,0.1,0.16,275.72,-0.015,1,0,0,0,0,0,0,0,0,0,0,0,0,0,0,270.27,0,1,0,-0.07,0,0,0,90,0,0,0,0,0,0,0,0,0.009,0,0,3,0,0,0,69,0,0,0,0,0,0,,0,NONE,0,0,0,0,0,0,0,0,0,0,0,62.48,0,0,0,0,0,0,0,0,0,270.27,1,0.009,5.449,-0.0613,0.25,1,-0.0613,0,0,0,0,0,0,1,1,0,0,VALID,0,0,0,0,0,1,0,0,0,0,0,0,0,0,0,0,0,0,0,0,111.75,479.11,2,0,0.105,0.105,49,10.71,0.105,0.07,10.57,LANDED,CF1-J,0:/Integrated Flight Computer/aircraft/cf1_j_cfg.ks (inferred preloaded)
11.24,TAKEOFF,TO_GROUND_ROLL,4.03,80,75.97,3.62,62.48,0,0.1,0.14,275.21,-0.001,1,0,0,0,0,0,0,0,0,0,0,0,0,0,0,270.32,0,1,0,-0.05,0,0,0,90,0,0,0,0,0,0,0,0,0.012,0,0,3,0,0,0,69,0,0,0,0,0,0,,0,NONE,0,0,0,0,0,0,0,0,0,0,0,62.48,0,0,0,0,0,0,0,0,0,270.32,1,0.012,4.892,-0.055,0.25,1,-0.055,0,0,0,0,0,0,1,1,0,0,VALID,0,0,0,0,0,1,0,0,0,0,0,0,0,0,0,0,0,0,0,0,119.35,478.93,2,0,0.105,0.105,52,8.57,0.14,0.105,10.92,LANDED,CF1-J,0:/Integrated Flight Computer/aircraft/cf1_j_cfg.ks (inferred preloaded)
11.52,TAKEOFF,TO_GROUND_ROLL,4.63,80,75.37,3.62,62.48,0,0.11,0.15,274.76,0.01,1,0,0,0,0,0,0,0,0,0,0,0,0,0,0,270.35,0,1,0,-0.06,0,0,0,90,0,0,0,0,0,0,0,0,0.014,0,0,3,0,0,0,69,0,0,0,0,0,0,,0,NONE,0,0,0,0,0,0,0,0,0,0,0,62.48,0,0,0,0,0,0,0,0,0,270.35,1,0.014,4.41,-0.0496,0.25,1,-0.0496,0,0,0,0,0,0,1,1,0,0,VALID,0,0,0,0,0,1,0,0,0,0,0,0,0,0,0,0,0,0,0,0,125.31,478.78,2,0,0.105,0.105,55,10.71,0.105,0.07,11.2,LANDED,CF1-J,0:/Integrated Flight Computer/aircraft/cf1_j_cfg.ks (inferred preloaded)
11.83,TAKEOFF,TO_GROUND_ROLL,5.41,80,74.59,3.62,62.48,0,0.11,0.15,274.15,0.022,1,0,0,0,0,0,0,0,0,0,0,0,0,0,0,270.37,0,1,0,-0.05,0,0,0,90,0,0,0,0,0,0,0,0,0.017,0,0,3,0,0,0,69,0,0,0,0,0,0,,0,NONE,0,0,0,0,0,0,0,0,0,0,0,62.48,0,0,0,0,0,0,0,0,0,270.37,1,0.017,3.779,-0.0425,0.25,1,-0.0425,0,0,0,0,0,0,1,1,0,0,VALID,0,0,0,0,0,1,0,0,0,0,0,0,0,0,0,0,0,0,0,0,132.6,478.57,2,0,0.105,0.105,58,8.57,0.14,0.105,11.55,LANDED,CF1-J,0:/Integrated Flight Computer/aircraft/cf1_j_cfg.ks (inferred preloaded)
12.11,TAKEOFF,TO_GROUND_ROLL,6.07,80,73.93,3.62,62.48,-0.01,0.11,0.17,273.65,0.029,1,0,0,0,0,0,0,0,0,0,0,0,0,0,0,270.38,0,1,0,-0.06,0,0,0,90,0,0,0,0,0,0,0,0,0.019,0,0,3,0,0,0,69,0,0,0,0,0,0,,0,NONE,0,0,0,0,0,0,0,0,0,0,0,62.48,0,0,0,0,0,0,0,0,0,270.38,1,0.019,3.272,-0.0368,0.25,1,-0.0368,0,0,0,0,0,0,1,1,0,0,VALID,0,0,0,0,0,1,0,0,0,0,0,0,0,0,0,0,0,0,0,0,138.32,478.39,2,0,0.105,0.105,61,10.71,0.105,0.07,11.83,LANDED,CF1-J,0:/Integrated Flight Computer/aircraft/cf1_j_cfg.ks (inferred preloaded)
12.46,TAKEOFF,TO_GROUND_ROLL,6.93,80,73.07,3.62,62.48,-0.01,0.11,0.16,273.03,0.038,1,0,0,0,0,0,0,0,0,0,0,0,0,0,0,270.38,0,1,0,-0.05,0,0,0,90,0,0,0,0,0,0,0,0,0.022,0,0,3,0,0,0,69,0,0,0,0,0,0,,0,NONE,0,0,0,0,0,0,0,0,0,0,0,62.48,0,0,0,0,0,0,0,0,0,270.38,1,0.022,2.65,-0.0298,0.25,1,-0.0298,0,0,0,0,0,0,1,1,0,0,VALID,0,0,0,0,0,1,0,0,0,0,0,0,0,0,0,0,0,0,0,0,145.32,478.14,2,0,0.105,0.105,64,8.57,0.14,0.105,12.18,LANDED,CF1-J,0:/Integrated Flight Computer/aircraft/cf1_j_cfg.ks (inferred preloaded)
12.74,TAKEOFF,TO_GROUND_ROLL,7.66,80,72.34,3.62,62.48,-0.01,0.11,0.15,272.54,0.044,1,0,0,0,0,0,0,0,0,0,0,0,0,0,0,270.37,0,1,0,-0.04,0,0,0,90,0,0,0,0,0,0,0,0,0.024,0,0,3,0,0,0,69,0,0,0,0,0,0,,0,NONE,0,0,0,0,0,0,0,0,0,0,0,62.48,0,0,0,0,0,0,0,0,0,270.37,1,0.024,2.176,-0.0245,0.25,1,-0.0245,0,0,0,0,0,0,1,1,0,0,VALID,0,0,0,0,0,1,0,0,0,0,0,0,0,0,0,0,0,0,0,0,150.81,477.93,2,0,0.105,0.105,67,10.71,0.105,0.07,12.46,LANDED,CF1-J,0:/Integrated Flight Computer/aircraft/cf1_j_cfg.ks (inferred preloaded)
13.09,TAKEOFF,TO_GROUND_ROLL,8.6,80,71.4,3.62,62.47,-0.01,0.12,0.16,271.97,0.049,1,0,0,0,0,0,0,0,0,0,0,0,0,0,0,270.34,0,1,0,-0.05,0,0,0,90,0,0,0,0,0,0,0,0,0.027,0,0,3,0,0,0,69,0,0,0,0,0,0,,0,NONE,0,0,0,0,0,0,0,0,0,0,0,62.47,0,0,0,0,0,0,0,0,0,270.34,1,0.027,1.629,-0.0183,0.25,1,-0.0183,0,0,0,0,0,0,1,1,0,0,VALID,0,0,0,0,0,1,0,0,0,0,0,0,0,0,0,0,0,0,0,0,157.52,477.65,2,0,0.105,0.105,70,8.57,0.14,0.105,12.81,LANDED,CF1-J,0:/Integrated Flight Computer/aircraft/cf1_j_cfg.ks (inferred preloaded)
13.37,TAKEOFF,TO_GROUND_ROLL,9.38,80,70.62,3.62,62.47,-0.01,0.12,0.16,271.56,0.049,1,0,0,0,0,0,0,0,0,0,0,0,0,0,0,270.31,0,1,0,-0.05,0,0,0,90,0,0,0,0,0,0,0,0,0.028,0,0,3,0,0,0,69,0,0,0,0,0,0,,0,NONE,0,0,0,0,0,0,0,0,0,0,0,62.47,0,0,0,0,0,0,0,0,0,270.31,1,0.028,1.241,-0.014,0.25,1,-0.014,0,0,0,0,0,0,1,1,0,0,VALID,0,0,0,0,0,1,0,0,0,0,0,0,0,0,0,0,0,0,0,0,162.78,477.41,2,0,0.105,0.105,73,10.71,0.105,0.07,13.09,LANDED,CF1-J,0:/Integrated Flight Computer/aircraft/cf1_j_cfg.ks (inferred preloaded)
13.72,TAKEOFF,TO_GROUND_ROLL,10.39,80,69.61,3.62,62.47,-0.01,0.12,0.16,271.1,0.045,1,0,0,0,0,0,0,0,0,0,0,0,0,0,0,270.27,0,1,0,-0.05,0,0,0,90,0,0,0,0,0,0,0,0,0.03,0,0,3,0,0,0,69,0,0,0,0,0,0,,0,NONE,0,0,0,0,0,0,0,0,0,0,0,62.47,0,0,0,0,0,0,0,0,0,270.27,1,0.03,0.832,-0.0094,0.25,1,-0.0094,0,0,0,0,0,0,1,1,0,0,VALID,0,0,0,0,0,1,0,0,0,0,0,0,0,0,0,0,0,0,0,0,169.21,477.1,2,0,0.105,0.105,76,8.57,0.14,0.105,13.44,LANDED,CF1-J,0:/Integrated Flight Computer/aircraft/cf1_j_cfg.ks (inferred preloaded)
14,TAKEOFF,TO_GROUND_ROLL,11.23,80,68.77,3.62,62.47,-0.01,0.12,0.17,270.8,0.038,1,0,0,0,0,0,0,0,0,0,0,0,0,0,0,270.23,0,1,0,-0.05,0,0,0,90,0,0,0,0,0,0,0,0,0.031,0,0,3,0,0,0,69,0,0,0,0,0,0,,0,NONE,0,0,0,0,0,0,0,0,0,0,0,62.47,0,0,0,0,0,0,0,0,0,270.23,1,0.031,0.571,-0.0064,0.25,1,-0.0064,0,0,0,0,0,0,1,1,0,0,VALID,0,0,0,0,0,1,0,0,0,0,0,0,0,0,0,0,0,0,0,0,174.25,476.83,2,0,0.105,0.105,79,10.71,0.105,0.07,13.72,LANDED,CF1-J,0:/Integrated Flight Computer/aircraft/cf1_j_cfg.ks (inferred preloaded)
14.35,TAKEOFF,TO_GROUND_ROLL,12.31,80,67.69,3.62,62.46,-0.01,0.12,0.17,270.51,0.026,1,0,0,0,0,0,0,0,0,0,0,0,0,0,0,270.18,0,1,0,-0.05,0,0,0,90,0,0,0,0,0,0,0,0,0.032,0,0,3,0,0,0,69,0,0,0,0,0,0,,0,NONE,0,0,0,0,0,0,0,0,0,0,0,62.46,0,0,0,0,0,0,0,0,0,270.18,1,0.032,0.321,-0.0033,0.25,1,-0.0033,0,0,0,0,0,0,1,1,0,0,VALID,0,0,0,0,0,1,0,0,0,0,0,0,0,0,0,0,0,0,0,0,180.41,476.47,2,0,0.105,0.105,82,8.57,0.14,0.105,14.07,LANDED,CF1-J,0:/Integrated Flight Computer/aircraft/cf1_j_cfg.ks (inferred preloaded)
14.63,TAKEOFF,TO_GROUND_ROLL,13.2,80,66.8,3.62,62.46,-0.01,0.13,0.17,270.33,0.015,1,0,0,0,0,0,0,0,0,0,0,0,0,0,0,270.15,0,1,0,-0.05,0,0,0,90,0,0,0,0,0,0,0,0,0.033,0,0,3,0,0,0,69,0,0,0,0,0,0,,0,NONE,0,0,0,0,0,0,0,0,0,0,0,62.46,0,0,0,0,0,0,0,0,0,270.15,1,0.033,0.181,-0.0015,0.25,1,-0.0015,0,0,0,0,0,0,1,1,0,0,VALID,0,0,0,0,0,1,0,0,0,0,0,0,0,0,0,0,0,0,0,0,185.23,476.17,2,0,0.105,0.105,85,10.71,0.105,0.07,14.35,LANDED,CF1-J,0:/Integrated Flight Computer/aircraft/cf1_j_cfg.ks (inferred preloaded)
14.98,TAKEOFF,TO_GROUND_ROLL,14.34,80,65.66,3.62,62.46,-0.01,0.13,0.17,270.17,0.001,1,0,0,0,0,0,0,0,0,0,0,0,0,0,0,270.11,0,1,0,-0.05,0,0,0,90,0,0,0,0,0,0,0,0,0.033,0,0,3,0,0,0,69,0,0,0,0,0,0,,0,NONE,0,0,0,0,0,0,0,0,0,0,0,62.46,0,0,0,0,0,0,0,0,0,270.11,1,0.033,0.067,-0.0005,0.25,1,-0.0005,0,0,0,0,0,0,1,1,0,0,VALID,0,0,0,0,0,1,0,0,0,0,0,0,0,0,0,0,0,0,0,0,191.13,475.77,2,0,0.105,0.105,88,8.57,0.14,0.105,14.7,LANDED,CF1-J,0:/Integrated Flight Computer/aircraft/cf1_j_cfg.ks (inferred preloaded)
15.26,TAKEOFF,TO_GROUND_ROLL,15.28,80,64.72,3.62,62.45,-0.01,0.13,0.18,270.1,-0.01,1,0,0,0,0,0,0,0,0,0,0,0,0,0,0,270.08,0,1,0,-0.05,0,0,0,90,0,0,0,0,0,0,0,0,0.033,0,0,3,0,0,0,69,0,0,0,0,0,0,,0,NONE,0,0,0,0,0,0,0,0,0,0,0,62.45,0,0,0,0,0,0,0,0,0,270.08,1,0.033,0.02,-0.0001,0.25,1,-0.0001,0,0,0,0,0,0,1,1,0,0,VALID,0,0,0,0,0,1,0,0,0,0,0,0,0,0,0,0,0,0,0,0,195.74,475.44,2,0,0.105,0.105,91,10.71,0.105,0.07,14.98,LANDED,CF1-J,0:/Integrated Flight Computer/aircraft/cf1_j_cfg.ks (inferred preloaded)
15.61,TAKEOFF,TO_GROUND_ROLL,16.48,80,63.52,3.62,62.45,-0.01,0.13,0.17,270.05,-0.022,1,0,0,0,0,0,0,0,0,0,0,0,0,0,0,270.05,0,1,0,-0.05,0,0,-0.01,90,0,0,0,0,0,0,0,0,0.033,0,0,3,0,0,0,69,0,0,0,0,0,0,,0,NONE,0,0,0,0,0,0,0,0,0,0,0,62.45,0,0,0,0,0,0,0,0,0,270.05,1,0.033,0.001,0,0.25,1,0,0,0,0,0,0,0,1,1,0,0,VALID,0,0,0,0,0,1,0,0,0,0,0,0,0,0,0,0,0,0,0,0,201.37,475,2,0,0.105,0.105,94,8.57,0.14,0.105,15.33,LANDED,CF1-J,0:/Integrated Flight Computer/aircraft/cf1_j_cfg.ks (inferred preloaded)
15.89,TAKEOFF,TO_GROUND_ROLL,17.46,80,62.54,3.62,62.44,-0.02,0.14,0.18,270.04,-0.032,1,0,0,0,0,0,0,0,0,0,0,0,0,0,0,270.03,0,1,0,-0.05,0,0,-0.01,90,0,0,0,0,0,0,0,0,0.033,0,0,3,0,0,0,69,0,0,0,0,0,0,,0,NONE,0,0,0,0,0,0,0,0,0,0,0,62.44,0,0,0,0,0,0,0,0,0,270.03,1,0.033,0.012,-0.0001,0.25,1,-0.0001,0,0,0,0,0,0,1,1,0,0,VALID,0,0,0,0,0,1,0,0,0,0,0,0,0,0,0,0,0,0,0,0,205.78,474.63,2,0,0.105,0.105,97,10.71,0.105,0.07,15.61,LANDED,CF1-J,0:/Integrated Flight Computer/aircraft/cf1_j_cfg.ks (inferred preloaded)
16.24,TAKEOFF,TO_GROUND_ROLL,18.71,80,61.29,3.62,62.44,-0.01,0.14,0.18,270.06,-0.046,1,0,0,0,0,0,0,0,0,0,0,0,0,0,0,270.02,0,1,0,-0.04,0,0,-0.01,90,0,0,0,0,0,0,0,0,0.034,0,0,3,0,0,0,69,0,0,0,0,0,0,,0,NONE,0,0,0,0,0,0,0,0,0,0,0,62.44,0,0,0,0,0,0,0,0,0,270.02,1,0.034,0.042,-0.0003,0.25,1,-0.0003,0,0,0,0,0,0,1,1,0,0,VALID,0,0,0,0,0,1,0,0,0,0,0,0,0,0,0,0,0,0,0,0,211.16,474.15,2,0,0.105,0.105,100,8.57,0.14,0.105,15.96,LANDED,CF1-J,0:/Integrated Flight Computer/aircraft/cf1_j_cfg.ks (inferred preloaded)
16.52,TAKEOFF,TO_GROUND_ROLL,19.73,80,60.27,3.62,62.44,-0.02,0.14,0.18,270.08,-0.05,1,0,0,0,0,0,0,0,0,0,0,0,0,0,0,270.02,0,1,0,-0.05,0,0,-0.01,90,0,0,0,0,0,0,0,0,0.034,0,0,3,0,0,0,69,0,0,0,0,0,0,,0,NONE,0,0,0,0,0,0,0,0,0,0,0,62.44,0,0,0,0,0,0,0,0,0,270.02,1,0.034,0.062,-0.0004,0.25,1,-0.0004,0,0,0,0,0,0,1,1,0,0,VALID,0,0,0,0,0,1,0,0,0,0,0,0,0,0,0,0,0,0,0,0,215.37,473.75,2,0,0.105,0.105,103,10.71,0.105,0.07,16.24,LANDED,CF1-J,0:/Integrated Flight Computer/aircraft/cf1_j_cfg.ks (inferred preloaded)
16.91,TAKEOFF,TO_GROUND_ROLL,21.03,80,58.97,3.63,62.43,-0.02,0.14,0.19,270.1,-0.042,1,0,0,0,0,0,0,0,0,0,0,0,0,0,0,270.02,0,1,0,-0.05,0,0,-0.01,90,0,0,0,0,0,0,0,0,0.034,0,0,3,0,0,0,69,0,0,0,0,0,0,,0,NONE,0,0,0,0,0,0,0,0,0,0,0,62.43,0,0,0,0,0,0,0,0,0,270.02,1,0.034,0.08,-0.0006,0.261,0,-0.0006,0,0,0,0,0,0,1,1,0,0,VALID,0,0,0,0,0,1,0,0,0,0,0,0,0,0,0,0,0,0,0,0,220.5,473.23,2,0,0.105,0.105,106,8.57,0.14,0.105,16.59,LANDED,CF1-J,0:/Integrated Flight Computer/aircraft/cf1_j_cfg.ks (inferred preloaded)
17.19,TAKEOFF,TO_GROUND_ROLL,22.09,80,57.91,3.63,62.43,-0.02,0.15,0.19,270.12,-0.034,1,0,0,0,0,0,0,0,0,0,0,0,0,0,0,270.03,0,1,0,-0.05,0,0,-0.01,90,0,0,0,0,0,0,0,0,0.034,0,0,3,0,0,0,69,0,0,0,0,0,0,,0,NONE,0,0,0,0,0,0,0,0,0,0,0,62.43,0,0,0,0,0,0,0,0,0,270.03,1,0.034,0.089,-0.0007,0.272,0,-0.0007,0,0,0,0,0,0,1,1,0,0,VALID,0,0,0,0,0,1,0,0,0,0,0,0,0,0,0,0,0,0,0,0,224.51,472.8,2,0,0.105,0.105,109,10.71,0.105,0.07,16.87,LANDED,CF1-J,0:/Integrated Flight Computer/aircraft/cf1_j_cfg.ks (inferred preloaded)
17.54,TAKEOFF,TO_GROUND_ROLL,23.44,80,56.56,3.63,62.42,-0.02,0.15,0.19,270.12,-0.03,1,0,0,0,0,0,0,0,0,0,0,0,0,0,0,270.03,0,1,0,-0.04,0,0,-0.01,90,0,0,0,0,0,0,0,0,0.034,0,0,3,0,0,0,69,0,0,0,0,0,0,,0,NONE,0,0,0,0,0,0,0,0,0,0,0,62.42,0,0,0,0,0,0,0,0,0,270.03,1,0.034,0.091,-0.0008,0.287,0,-0.0008,0,0,0,0,0,0,1,1,0,0,VALID,0,0,0,0,0,1,0,0,0,0,0,0,0,0,0,0,0,0,0,0,229.4,472.23,2,0,0.105,0.105,112,8.57,0.14,0.105,17.22,LANDED,CF1-J,0:/Integrated Flight Computer/aircraft/cf1_j_cfg.ks (inferred preloaded)
17.82,TAKEOFF,TO_GROUND_ROLL,24.53,80,55.47,3.63,62.42,-0.02,0.15,0.19,270.12,-0.031,1,0,0,0,0,0,0,0,0,0,0,0,0,0,0,270.03,0,1,0,-0.04,0,0,-0.01,90,0,0,0,0,0,0,0,0,0.035,0,0,3,0,0,0,69,0,0,0,0,0,0,,0,NONE,0,0,0,0,0,0,0,0,0,0,0,62.42,0,0,0,0,0,0,0,0,0,270.03,1,0.035,0.089,-0.0008,0.299,0,-0.0008,0,0,0,0,0,0,1,1,0,0,VALID,0,0,0,0,0,1,0,0,0,0,0,0,0,0,0,0,0,0,0,0,233.22,471.76,2,0,0.105,0.105,115,10.71,0.105,0.07,17.5,LANDED,CF1-J,0:/Integrated Flight Computer/aircraft/cf1_j_cfg.ks (inferred preloaded)
18.17,TAKEOFF,TO_GROUND_ROLL,25.92,80,54.08,3.63,62.41,-0.02,0.15,0.19,270.12,-0.032,1,0,0,0,0,0,0,0,0,0,0,0,0,0,0,270.04,0,1,0,-0.04,0,0,-0.01,90,0,0,0,0,0,0,0,0,0.035,0,0,3,0,0,0,69,0,0,0,0,0,0,,0,NONE,0,0,0,0,0,0,0,0,0,0,0,62.41,0,0,0,0,0,0,0,0,0,270.04,1,0.035,0.084,-0.0008,0.313,0,-0.0008,0,0,0,0,0,0,1,1,0,0,VALID,0,0,0,0,0,1,0,0,0,0,0,0,0,0,0,0,0,0,0,0,237.88,471.16,2,0,0.105,0.105,118,8.57,0.14,0.105,17.85,LANDED,CF1-J,0:/Integrated Flight Computer/aircraft/cf1_j_cfg.ks (inferred preloaded)
18.45,TAKEOFF,TO_GROUND_ROLL,27.04,80,52.96,3.63,62.41,-0.02,0.16,0.19,270.12,-0.031,1,0,0,0,0,0,0,0,0,0,0,0,0,0,0,270.04,0,1,0,-0.04,0,0,-0.01,90,0,0,0,0,0,0,0,0,0.035,0,0,3,0,0,0,69,0,0,0,0,0,0,,0,NONE,0,0,0,0,0,0,0,0,0,0,0,62.41,0,0,0,0,0,0,0,0,0,270.04,1,0.035,0.08,-0.0008,0.325,0,-0.0008,0,0,0,0,0,0,1,1,0,0,VALID,0,0,0,0,0,1,0,0,0,0,0,0,0,0,0,0,0,0,0,0,241.52,470.66,2,0,0.105,0.105,121,10.71,0.105,0.07,18.13,LANDED,CF1-J,0:/Integrated Flight Computer/aircraft/cf1_j_cfg.ks (inferred preloaded)
18.8,TAKEOFF,TO_GROUND_ROLL,28.46,80,51.54,3.63,62.4,-0.02,0.16,0.19,270.12,-0.029,1,0,0,0,0,0,0,0,0,0,0,0,0,0,0,270.04,0,1,0,-0.04,0,0,-0.01,90,0,0,0,0,0,0,0,0,0.036,0,0,3,0,0,0,69,0,0,0,0,0,0,,0,NONE,0,0,0,0,0,0,0,0,0,0,0,62.4,0,0,0,0,0,0,0,0,0,270.04,1,0.036,0.077,-0.0008,0.341,0,-0.0008,0,0,0,0,0,0,1,1,0,0,VALID,0,0,0,0,0,1,0,0,0,0,0,0,0,0,0,0,0,0,0,0,245.95,470.01,2,0,0.105,0.105,124,8.57,0.14,0.105,18.48,LANDED,CF1-J,0:/Integrated Flight Computer/aircraft/cf1_j_cfg.ks (inferred preloaded)
19.08,TAKEOFF,TO_GROUND_ROLL,29.61,80,50.39,3.63,62.39,-0.02,0.16,0.2,270.11,-0.03,1,0,0,0,0,0,0,0,0,0,0,0,0,0,0,270.04,0,1,0,-0.04,0,0,-0.01,90,0,0,0,0,0,0,0,0,0.036,0,0,3,0,0,0,69,0,0,0,0,0,0,,0,NONE,0,0,0,0,0,0,0,0,0,0,0,62.39,0,0,0,0,0,0,0,0,0,270.04,1,0.036,0.076,-0.0008,0.353,0,-0.0008,0,0,0,0,0,0,1,1,0,0,VALID,0,0,0,0,0,1,0,0,0,0,0,0,0,0,0,0,0,0,0,0,249.4,469.48,2,0,0.105,0.105,127,10.71,0.105,0.07,18.76,LANDED,CF1-J,0:/Integrated Flight Computer/aircraft/cf1_j_cfg.ks (inferred preloaded)
19.43,TAKEOFF,TO_GROUND_ROLL,31.06,80,48.94,3.63,62.39,-0.02,0.16,0.2,270.11,-0.033,1,0,0,0,0,0,0,0,0,0,0,0,0,0,0,270.04,0,1,0,-0.04,0,0,-0.01,90,0,0,0,0,0,0,0,0,0.037,0,0,3,0,0,0,69,0,0,0,0,0,0,,0,NONE,0,0,0,0,0,0,0,0,0,0,0,62.39,0,0,0,0,0,0,0,0,0,270.04,1,0.037,0.077,-0.0008,0.369,0,-0.0008,0,0,0,0,0,0,1,1,0,0,VALID,0,0,0,0,0,1,0,0,0,0,0,0,0,0,0,0,0,0,0,0,253.61,468.79,2,0,0.105,0.105,130,8.57,0.14,0.105,19.11,LANDED,CF1-J,0:/Integrated Flight Computer/aircraft/cf1_j_cfg.ks (inferred preloaded)
19.71,TAKEOFF,TO_GROUND_ROLL,32.24,80,47.76,3.63,62.38,-0.02,0.17,0.2,270.11,-0.035,1,0,0,0,0,0,0,0,0,0,0,0,0,0,0,270.04,0,1,0,-0.03,0,0,-0.02,90,0,0,0,0,0,0,0,0,0.037,0,0,3,0,0,0,69,0,0,0,0,0,0,,0,NONE,0,0,0,0,0,0,0,0,0,0,0,62.38,0,0,0,0,0,0,0,0,0,270.04,1,0.037,0.078,-0.0009,0.381,0,-0.0009,0,0,0,0,0,0,1,1,0,0,VALID,0,0,0,0,0,1,0,0,0,0,0,0,0,0,0,0,0,0,0,0,256.89,468.23,2,0,0.105,0.105,133,10.71,0.105,0.07,19.39,LANDED,CF1-J,0:/Integrated Flight Computer/aircraft/cf1_j_cfg.ks (inferred preloaded)
20.06,TAKEOFF,TO_GROUND_ROLL,33.71,80,46.29,3.63,62.38,-0.02,0.17,0.2,270.12,-0.035,1,0,0,0,0,0,0,0,0,0,0,0,0,0,0,270.04,0,1,0,-0.04,0,0,-0.02,90,0,0,0,0,0,0,0,0,0.038,0,0,3,0,0,0,69,0,0,0,0,0,0,,0,NONE,0,0,0,0,0,0,0,0,0,0,0,62.38,0,0,0,0,0,0,0,0,0,270.04,1,0.038,0.082,-0.0009,0.397,0,-0.0009,0,0,0,0,0,0,1,1,0,0,VALID,0,0,0,0,0,1,0,0,0,0,0,0,0,0,0,0,0,0,0,0,260.89,467.5,2,0,0.105,0.105,136,8.57,0.14,0.105,19.74,LANDED,CF1-J,0:/Integrated Flight Computer/aircraft/cf1_j_cfg.ks (inferred preloaded)
20.34,TAKEOFF,TO_GROUND_ROLL,34.9,80,45.1,3.63,62.37,-0.02,0.17,0.21,270.12,-0.034,1,0,0,0,0,0,0,0,0,0,0,0,0,0,0,270.03,0,1,0,-0.03,0,0,-0.02,90,0,0,0,0,0,0,0,0,0.038,0,0,3,0,0,0,69,0,0,0,0,0,0,,0,NONE,0,0,0,0,0,0,0,0,0,0,0,62.37,0,0,0,0,0,0,0,0,0,270.03,1,0.038,0.088,-0.0011,0.41,0,-0.0011,0,0,0,0,0,0,1,1,0,0,VALID,0,0,0,0,0,1,0,0,0,0,0,0,0,0,0,0,0,0,0,0,264,466.91,2,0,0.105,0.105,139,10.71,0.105,0.07,20.02,LANDED,CF1-J,0:/Integrated Flight Computer/aircraft/cf1_j_cfg.ks (inferred preloaded)
20.69,TAKEOFF,TO_GROUND_ROLL,36.4,80,43.6,3.63,62.36,-0.02,0.18,0.2,270.13,-0.035,1,0,0,0,0,0,0,0,0,0,0,0,0,0,0,270.03,0,1,0,-0.03,0,0,-0.02,90,0,0,0,0,0,0,0,0,0.038,0,0,3,0,0,0,69,0,0,0,0,0,0,,0,NONE,0,0,0,0,0,0,0,0,0,0,0,62.36,0,0,0,0,0,0,0,0,0,270.03,1,0.038,0.098,-0.0012,0.426,0,-0.0012,0,0,0,0,0,0,1,1,0,0,VALID,0,0,0,0,0,1,0,0,0,0,0,0,0,0,0,0,0,0,0,0,267.79,466.15,2,0,0.105,0.105,142,8.57,0.14,0.105,20.37,LANDED,CF1-J,0:/Integrated Flight Computer/aircraft/cf1_j_cfg.ks (inferred preloaded)
20.97,TAKEOFF,TO_GROUND_ROLL,37.61,80,42.39,3.63,62.36,-0.02,0.18,0.21,270.14,-0.036,1,0,0,0,0,0,0,0,0,0,0,0,0,0,0,270.03,0,1,0,-0.03,0,0,-0.02,90,0,0,0,0,0,0,0,0,0.039,0,0,3,0,0,0,69,0,0,0,0,0,0,,0,NONE,0,0,0,0,0,0,0,0,0,0,0,62.36,0,0,0,0,0,0,0,0,0,270.03,1,0.039,0.104,-0.0014,0.439,0,-0.0014,0,0,0,0,0,0,1,1,0,0,VALID,0,0,0,0,0,1,0,0,0,0,0,0,0,0,0,0,0,0,0,0,270.74,465.53,2,0,0.105,0.105,145,10.71,0.105,0.07,20.65,LANDED,CF1-J,0:/Integrated Flight Computer/aircraft/cf1_j_cfg.ks (inferred preloaded)
21.32,TAKEOFF,TO_GROUND_ROLL,39.12,80,40.88,3.63,62.35,-0.02,0.18,0.21,270.15,-0.039,1,0,0,0,0,0,0,0,0,0,0,0,0,0,0,270.03,0,1,0,-0.03,0,0,-0.02,90,0,0,0,0,0,0,0,0,0.04,0,0,3,0,0,0,69,0,0,0,0,0,0,,0,NONE,0,0,0,0,0,0,0,0,0,0,0,62.35,0,0,0,0,0,0,0,0,0,270.03,1,0.04,0.119,-0.0017,0.455,0,-0.0017,0,0,0,0,0,0,1,1,0,0,VALID,0,0,0,0,0,1,0,0,0,0,0,0,0,0,0,0,0,0,0,0,274.33,464.74,2,0,0.105,0.105,148,8.57,0.14,0.105,21,LANDED,CF1-J,0:/Integrated Flight Computer/aircraft/cf1_j_cfg.ks (inferred preloaded)
21.6,TAKEOFF,TO_GROUND_ROLL,40.34,80,39.66,3.64,62.35,-0.02,0.18,0.21,270.16,-0.042,1,0,0,0,0,0,0,0,0,0,0,0,0,0,0,270.03,0,1,0,-0.03,0,0,-0.02,90,0,0,0,0,0,0,0,0,0.04,0,0,3,0,0,0,69,0,0,0,0,0,0,,0,NONE,0,0,0,0,0,0,0,0,0,0,0,62.35,0,0,0,0,0,0,0,0,0,270.03,1,0.04,0.132,-0.002,0.468,0,-0.002,0,0,0,0,0,0,1,1,0,0,VALID,0,0,0,0,0,1,0,0,0,0,0,0,0,0,0,0,0,0,0,0,277.12,464.1,2,0,0.105,0.105,151,10.71,0.105,0.07,21.28,LANDED,CF1-J,0:/Integrated Flight Computer/aircraft/cf1_j_cfg.ks (inferred preloaded)
21.95,TAKEOFF,TO_GROUND_ROLL,41.87,80,38.13,3.64,62.34,-0.02,0.19,0.21,270.18,-0.047,1,0,0,0,0,0,0,0,0,0,0,0,0,0,0,270.03,0,1,0,-0.03,0,0,-0.02,90,0,0,0,0,0,0,0,0,0.041,0,0,3,0,0,0,69,0,0,0,0,0,0,,0,NONE,0,0,0,0,0,0,0,0,0,0,0,62.34,0,0,0,0,0,0,0,0,0,270.03,1,0.041,0.155,-0.0025,0.484,0,-0.0025,0,0,0,0,0,0,1,1,0,0,VALID,0,0,0,0,0,1,0,0,0,0,0,0,0,0,0,0,0,0,0,0,280.52,463.27,2,0,0.105,0.105,154,8.57,0.14,0.105,21.63,LANDED,CF1-J,0:/Integrated Flight Computer/aircraft/cf1_j_cfg.ks (inferred preloaded)
22.23,TAKEOFF,TO_GROUND_ROLL,43.09,80,36.91,3.64,62.34,-0.02,0.2,0.22,270.2,-0.051,1,0,0,0,0,0,0,0,0,0,0,0,0,0,0,270.03,0,1,0,-0.02,0,0,-0.03,90,0,0,0,0,0,0,0,0,0.042,0,0,3,0,0,0,69,0,0,0,0,0,0,,0,NONE,0,0,0,0,0,0,0,0,0,0,0,62.34,0,0,0,0,0,0,0,0,0,270.03,1,0.042,0.179,-0.003,0.497,0,-0.003,0,0,0,0,0,0,1,1,0,0,VALID,0,0,0,0,0,1,0,0,0,0,0,0,0,0,0,0,0,0,0,0,283.16,462.61,2,0,0.105,0.105,157,10.71,0.105,0.07,21.91,LANDED,CF1-J,0:/Integrated Flight Computer/aircraft/cf1_j_cfg.ks (inferred preloaded)
22.58,TAKEOFF,TO_GROUND_ROLL,44.63,80,35.37,3.65,62.34,-0.02,0.25,0.27,270.24,-0.055,1,0,0,0,0,0,0,0,0,0,0,0,0,0,0,270.03,0,1,0,-0.02,0,0,-0.03,90,0,0,0,0,0,0,0,0,0.043,0,0,3,0,0,0,69,0,0,0,0,0,0,,0,NONE,0,0,0,0,0,0,0,0,0,0,0,62.34,0,0,0,0,0,0,0,0,0,270.03,1,0.043,0.209,-0.0038,0.514,0,-0.0038,0,0,0,0,0,0,1,1,0,0,VALID,0,0,0,0,0,1,0,0,0,0,0,0,0,0,0,0,0,0,0,0,286.37,461.76,2,0,0.105,0.105,160,8.57,0.14,0.105,22.26,LANDED,CF1-J,0:/Integrated Flight Computer/aircraft/cf1_j_cfg.ks (inferred preloaded)
22.86,TAKEOFF,TO_GROUND_ROLL,45.86,80,34.14,3.66,62.35,-0.01,0.31,0.33,270.26,-0.056,1,0,0,0,0,0,0,0,0,0,0,0,0,0,0,270.03,0,1,0,-0.01,0,0,-0.03,90,0,0,0,0,0,0,0,0,0.044,0,0,3,0,0,0,69,0,0,0,0,0,0,,0,NONE,0,0,0,0,0,0,0,0,0,0,0,62.35,0,0,0,0,0,0,0,0,0,270.03,1,0.044,0.236,-0.0046,0.527,0,-0.0046,0,0,0,0,0,0,1,1,0,0,VALID,0,0,0,0,0,1,0,0,0,0,0,0,0,0,0,0,0,0,0,0,288.86,461.07,2,0,0.105,0.105,163,10.71,0.105,0.07,22.54,LANDED,CF1-J,0:/Integrated Flight Computer/aircraft/cf1_j_cfg.ks (inferred preloaded)
23.21,TAKEOFF,TO_GROUND_ROLL,47.39,80,32.61,3.7,62.38,-0.06,0.45,0.52,270.3,-0.052,1,0,0,0,0,0,0,0,0,0,0,0,0,0,0,270.03,0,1,0,-0.07,0,0,-0.03,90,0,0,0,0,0,0,0,0,0.046,0,0,3,0,0,0,69,0,0,0,0,0,0,,0,NONE,0,0,0,0,0,0,0,0,0,0,0,62.38,0,0,0,0,0,0,0,0,0,270.03,1,0.046,0.269,-0.0056,0.544,0,-0.0056,0,0,0,0,0,0,1,1,0,0,VALID,0,0,0,0,0,1,0,0,0,0,0,0,0,0,0,0,0,0,0,0,291.9,460.2,2,0,0.105,0.105,166,8.57,0.14,0.105,22.89,LANDED,CF1-J,0:/Integrated Flight Computer/aircraft/cf1_j_cfg.ks (inferred preloaded)
23.49,TAKEOFF,TO_GROUND_ROLL,48.62,80,31.38,3.73,62.4,0.01,0.61,0.6,270.32,-0.049,1,0,0,0,0,0,0,0,0,0,0,0,0,0,0,270.03,0,1,0,0.01,0,0,-0.03,90,0,0,0,0,0,0,0,0,0.048,0,0,3,0,0,0,69,0,0,0,0,0,0,,0,NONE,0,0,0,0,0,0,0,0,0,0,0,62.4,0,0,0,0,0,0,0,0,0,270.03,1,0.048,0.293,-0.0065,0.557,0,-0.0065,0,0,0,0,0,0,1,1,0,0,VALID,0,0,0,0,0,1,0,0,0,0,0,0,0,0,0,0,0,0,0,0,294.25,459.5,2,0,0.105,0.105,169,10.71,0.105,0.07,23.17,LANDED,CF1-J,0:/Integrated Flight Computer/aircraft/cf1_j_cfg.ks (inferred preloaded)
23.84,TAKEOFF,TO_GROUND_ROLL,50.16,80,29.84,3.76,62.43,0,0.8,0.8,270.35,-0.047,1,0,0,0,0,0,0,0,0,0,0,0,0,0,0,270.03,0,1,0,0,0,0,-0.03,90,0,0,0,0,0,0,0,0,0.05,0,0,3,0,0,0,69,0,0,0,0,0,0,,0,NONE,0,0,0,0,0,0,0,0,0,0,0,62.43,0,0,0,0,0,0,0,0,0,270.03,1,0.05,0.321,-0.0076,0.573,0,-0.0076,0,0,0,0,0,0,1,1,0,0,VALID,0,0,0,0,0,1,0,0,0,0,0,0,0,0,0,0,0,0,0,0,297.12,458.61,2,0,0.105,0.105,172,8.57,0.14,0.105,23.52,LANDED,CF1-J,0:/Integrated Flight Computer/aircraft/cf1_j_cfg.ks (inferred preloaded)
24.12,TAKEOFF,TO_GROUND_ROLL,51.38,80,28.62,3.78,62.44,-0.01,0.91,0.92,270.38,-0.049,1,0,0,0,0,0,0,0,0,0,0,0,0,0,0,270.04,0,1,0,-0.01,0,0,-0.03,90,0,0,0,0,0,0,0,0,0.052,0,0,3,0,0,0,69,0,0,0,0,0,0,,0,NONE,0,0,0,0,0,0,0,0,0,0,0,62.44,0,0,0,0,0,0,0,0,0,270.04,1,0.052,0.34,-0.0084,0.586,0,-0.0084,0,0,0,0,0,0,1,1,0,0,VALID,0,0,0,0,0,1,0,0,0,0,0,0,0,0,0,0,0,0,0,0,299.35,457.9,2,0,0.105,0.105,175,10.71,0.105,0.07,23.8,LANDED,CF1-J,0:/Integrated Flight Computer/aircraft/cf1_j_cfg.ks (inferred preloaded)
24.47,TAKEOFF,TO_GROUND_ROLL,52.9,80,27.1,3.79,62.45,-0.01,1,1.01,270.4,-0.048,1,0,0,0,0,0,0,0,0,0,0,0,0,0,0,270.04,0,1,0,-0.01,0,0,-0.04,90,0,0,0,0,0,0,0,0,0.054,0,0,3,0,0,0,69,0,0,0,0,0,0,,0,NONE,0,0,0,0,0,0,0,0,0,0,0,62.45,0,0,0,0,0,0,0,0,0,270.04,1,0.054,0.358,-0.0092,0.603,0,-0.0092,0,0,0,0,0,0,1,1,0,0,VALID,0,0,0,0,0,1,0,0,0,0,0,0,0,0,0,0,0,0,0,0,302.05,457,2,0,0.105,0.105,178,8.57,0.14,0.105,24.15,LANDED,CF1-J,0:/Integrated Flight Computer/aircraft/cf1_j_cfg.ks (inferred preloaded)
24.75,TAKEOFF,TO_GROUND_ROLL,54.11,80,25.89,3.8,62.46,-0.01,1.04,1.05,270.42,-0.044,1,0,0,0,0,0,0,0,0,0,0,0,0,0,0,270.05,0,1,0,-0.01,0,0,-0.04,90,0,0,0,0,0,0,0,0,0.056,0,0,3,0,0,0,69,0,0,0,0,0,0,,0,NONE,0,0,0,0,0,0,0,0,0,0,0,62.46,0,0,0,0,0,0,0,0,0,270.05,1,0.056,0.37,-0.0099,0.616,0,-0.0099,0,0,0,0,0,0,1,1,0,0,VALID,0,0,0,0,0,1,0,0,0,0,0,0,0,0,0,0,0,0,0,0,304.16,456.27,2,0,0.105,0.105,181,10.71,0.105,0.07,24.43,LANDED,CF1-J,0:/Integrated Flight Computer/aircraft/cf1_j_cfg.ks (inferred preloaded)
25.1,TAKEOFF,TO_GROUND_ROLL,55.62,80,24.38,3.81,62.47,-0.01,1.1,1.11,270.43,-0.04,1,0,0,0,0,0,0,0,0,0,0,0,0,0,0,270.05,0,1,0,-0.01,0,0,-0.04,90,0,0,0,0,0,0,0,0,0.059,0,0,3,0,0,0,69,0,0,0,0,0,0,,0,NONE,0,0,0,0,0,0,0,0,0,0,0,62.47,0,0,0,0,0,0,0,0,0,270.05,1,0.059,0.378,-0.0105,0.632,0,-0.0105,0,0,0,0,0,0,1,1,0,0,VALID,0,0,0,0,0,1,0,0,0,0,0,0,0,0,0,0,0,0,0,0,306.71,455.37,2,0,0.105,0.105,184,8.57,0.14,0.105,24.78,LANDED,CF1-J,0:/Integrated Flight Computer/aircraft/cf1_j_cfg.ks (inferred preloaded)
25.38,TAKEOFF,TO_GROUND_ROLL,56.83,80,23.17,3.83,62.48,0,1.17,1.17,270.44,-0.038,1,0,0,0,0,0,0,0,0,0,0,0,0,0,0,270.06,0,1,0,0,0,0,-0.04,90,0,0,0,0,0,0,0,0,0.062,0,0,3,0,0,0,69,0,0,0,0,0,0,,0,NONE,0,0,0,0,0,0,0,0,0,0,0,62.48,0,0,0,0,0,0,0,0,0,270.06,1,0.062,0.384,-0.0109,0.645,0,-0.0109,0,0,0,0,0,0,1,1,0,0,VALID,0,0,0,0,0,1,0,0,0,0,0,0,0,0,0,0,0,0,0,0,308.7,454.64,2,0,0.105,0.105,187,10.71,0.105,0.07,25.06,LANDED,CF1-J,0:/Integrated Flight Computer/aircraft/cf1_j_cfg.ks (inferred preloaded)
25.73,TAKEOFF,TO_GROUND_ROLL,58.32,80,21.68,3.85,62.49,0,1.28,1.28,270.45,-0.036,1,0,0,0,0,0,0,0,0,0,0,0,0,0,0,270.06,0,1,0,0,0,0,-0.04,90,0,0,0,0,0,0,0,0,0.065,0,0,3,0,0,0,69,0,0,0,0,0,0,,0,NONE,0,0,0,0,0,0,0,0,0,0,0,62.49,0,0,0,0,0,0,0,0,0,270.06,1,0.065,0.387,-0.0113,0.661,0,-0.0113,0,0,0,0,0,0,1,1,0,0,VALID,0,0,0,0,0,1,0,0,0,0,0,0,0,0,0,0,0,0,0,0,311.11,453.73,2,0,0.105,0.105,190,8.57,0.14,0.105,25.41,LANDED,CF1-J,0:/Integrated Flight Computer/aircraft/cf1_j_cfg.ks (inferred preloaded)
26.01,TAKEOFF,TO_GROUND_ROLL,59.51,80,20.49,3.87,62.51,0,1.38,1.38,270.45,-0.034,1,0,0,0,0,0,0,0,0,0,0,0,0,0,0,270.07,0,1,0,0,0,0,-0.04,90,0,0,0,0,0,0,0,0,0.068,0,0,3,0,0,0,69,0,0,0,0,0,0,,0,NONE,0,0,0,0,0,0,0,0,0,0,0,62.51,0,0,0,0,0,0,0,0,0,270.07,1,0.068,0.386,-0.0115,0.673,0,-0.0115,0,0,0,0,0,0,1,1,0,0,VALID,0,0,0,0,0,1,0,0,0,0,0,0,0,0,0,0,0,0,0,0,312.99,452.99,2,0,0.105,0.105,193,10.71,0.105,0.07,25.69,LANDED,CF1-J,0:/Integrated Flight Computer/aircraft/cf1_j_cfg.ks (inferred preloaded)
26.36,TAKEOFF,TO_GROUND_ROLL,60.98,80,19.02,3.89,62.54,0.02,1.52,1.5,270.45,-0.031,1,0,0,0,0,0,0,0,0,0,0,0,0,0,0,270.07,0,1,0,0.02,0,0,-0.05,90,0,0,0,0,0,0,0,0,0.071,0,0,3,0,0,0,69,0,0,0,0,0,0,,0,NONE,0,0,0,0,0,0,0,0,0,0,0,62.54,0,0,0,0,0,0,0,0,0,270.07,1,0.071,0.38,-0.0115,0.689,0,-0.0115,0,0,0,0,0,0,1,1,0,0,VALID,0,0,0,0,0,1,0,0,0,0,0,0,0,0,0,0,0,0,0,0,315.27,452.08,2,0,0.105,0.105,196,8.57,0.14,0.105,26.04,LANDED,CF1-J,0:/Integrated Flight Computer/aircraft/cf1_j_cfg.ks (inferred preloaded)
26.64,TAKEOFF,TO_GROUND_ROLL,62.14,80,17.86,3.93,62.57,0.03,1.69,1.67,270.45,-0.03,1,0,0,0,0,0,0,0,0,0,0,0,0,0,0,270.08,0,1,0,0.03,0,0,-0.05,90,0,0,0,0,0,0,0,0,0.074,0,0,3,0,0,0,69,0,0,0,0,0,0,,0,NONE,0,0,0,0,0,0,0,0,0,0,0,62.57,0,0,0,0,0,0,0,0,0,270.08,1,0.074,0.373,-0.0114,0.702,0,-0.0114,0,0,0,0,0,0,1,1,0,0,VALID,0,0,0,0,0,1,0,0,0,0,0,0,0,0,0,0,0,0,0,0,317.04,451.35,2,0,0.105,0.105,199,10.71,0.105,0.07,26.32,LANDED,CF1-J,0:/Integrated Flight Computer/aircraft/cf1_j_cfg.ks (inferred preloaded)
26.99,TAKEOFF,TO_GROUND_ROLL,63.58,80,16.42,4.02,62.66,0.26,2,1.78,270.45,-0.028,1,0,0,0,0,0,0,0,0,0,0,0,0,0,0,270.08,0,1,0,0.23,0,0,-0.05,90,0,0,0,0,0,0,0,0,0.078,0,0,3,0,0,0,69,0,0,0,0,0,0,,0,NONE,0,0,0,0,0,0,0,0,0,0,0,62.66,0,0,0,0,0,0,0,0,0,270.08,1,0.078,0.366,-0.0113,0.717,0,-0.0113,0,0,0,0,0,0,1,1,0,0,VALID,0,0,0,0,0,1,0,0,0,0,0,0,0,0,0,0,0,0,0,0,319.19,450.45,2,0,0.105,0.105,202,8.57,0.14,0.105,26.67,LANDED,CF1-J,0:/Integrated Flight Computer/aircraft/cf1_j_cfg.ks (inferred preloaded)
27.27,TAKEOFF,TO_GROUND_ROLL,64.72,80,15.28,4.12,62.75,0.01,2.53,2.52,270.44,-0.023,1,0,0,0,0,0,0,0,0,0,0,0,0,0,0,270.08,0,1,0,0.01,0,0,-0.05,90,0,0,0,0,0,0,0,0,0.081,0,0,3,0,0,0,69,0,0,0,0,0,0,,0,NONE,0,0,0,0,0,0,0,0,0,0,0,62.75,0,0,0,0,0,0,0,0,0,270.08,1,0.081,0.356,-0.0111,0.729,0,-0.0111,0,0,0,0,0,0,1,1,0,0,VALID,0,0,0,0,0,1,0,0,0,0,0,0,0,0,0,0,0,0,0,0,320.87,449.73,2,0,0.105,0.105,205,10.71,0.105,0.07,26.95,LANDED,CF1-J,0:/Integrated Flight Computer/aircraft/cf1_j_cfg.ks (inferred preloaded)
27.62,TAKEOFF,TO_GROUND_ROLL,66.11,80,13.89,4.31,62.94,0.06,3.44,3.39,270.43,-0.025,1,0,0,0,0,0,0,0,0,0,0,0,0,0,0,270.09,0,1,0,0.05,0,0,-0.06,90,0,0,0,0,0,0,0,0,0.084,0,0,3,0,0,0,69,0,0,0,0,0,0,,0,NONE,0,0,0,0,0,0,0,0,0,0,0,62.94,0,0,0,0,0,0,0,0,0,270.09,1,0.084,0.344,-0.0108,0.744,0,-0.0108,0,0,0,0,0,0,1,1,0,0,VALID,0,0,0,0,0,1,0,0,0,0,0,0,0,0,0,0,0,0,0,0,322.91,448.84,2,0,0.105,0.105,208,8.57,0.14,0.105,27.3,LANDED,CF1-J,0:/Integrated Flight Computer/aircraft/cf1_j_cfg.ks (inferred preloaded)
27.9,TAKEOFF,TO_GROUND_ROLL,67.18,80,12.82,4.51,63.13,0.16,4.43,4.29,270.43,-0.033,1,0,0,0,0,0,0,0,0,0,0,0,0,0,0,270.09,0,1,0,0.14,0,0,-0.06,90,0,0,0,0,0,0,0,0,0.087,0,0,3,0,0,0,69,0,0,0,0,0,0,,0,NONE,0,0,0,0,0,0,0,0,0,0,0,63.13,0,0,0,0,0,0,0,0,0,270.09,1,0.087,0.333,-0.0105,0.755,0,-0.0105,0,0,0,0,0,0,1,1,0,0,VALID,0,0,0,0,0,1,0,0,0,0,0,0,0,0,0,0,0,0,0,0,324.51,448.16,2,0,0.105,0.105,211,10.71,0.105,0.07,27.58,LANDED,CF1-J,0:/Integrated Flight Computer/aircraft/cf1_j_cfg.ks (inferred preloaded)
28.25,TAKEOFF,TO_ROTATE,68.56,80,11.44,4.8,63.46,0.19,5.95,5.81,270.42,-0.04,1,0,0,0,0,0,0,0,0,0,0,0,0,0,0,270.1,5.78,1,0,0.15,0,0,-0.06,90,0,0,0,0,0,0,0,0,0.091,0,0,3,0,0,0,69,0,0,0,0,0,0,,0,NONE,0,0,0,0,0,0,0,0.0668,0,0,0,63.46,0,0,0,0,0,0,0,0,0,270.1,1,0.091,0.317,-0.01,0.769,0,-0.01,0,0.0668,5.78,-0.166,0.08,0,1,1,0,0,VALID,0,0,0,0,0,1,0,0,0,0,0,0,0,0,0,0,0,0,0,0,326.69,447.26,2,0,0.105,0.105,214,7.79,0.14,0.105,27.93,LANDED,CF1-J,0:/Integrated Flight Computer/aircraft/cf1_j_cfg.ks (inferred preloaded)
28.56,TAKEOFF,TO_ROTATE,69.6,80,10.4,5.13,63.79,0.58,7.5,6.97,270.4,-0.08,1,0,0,0,0,0,0,0,0,0,0,0,0,0,0,270,6.83,1,0,0.48,0,0,-0.06,90,0.8274,-0.0031,0.5617,6.83,270,0,0,0,0,0,0,3,0,0,0,69,0,0,0,0,0,0,,0,NONE,0,0,0,0,0,0,0,0,0,0,0,63.79,0,0,0,0,0,0,0,0,0,270,1,0,0.397,0,0,3,0,0,0,6.83,-0.668,0,0,1,1,0,0,VALID,0,0,0,0,0,1,0,0,0,0,0,0,0,0,0,0,0,0,0,0,328.44,446.59,2,0,0.105,0.105,217,9.52,0.14,0.105,28.28,FLYING,CF1-J,0:/Integrated Flight Computer/aircraft/cf1_j_cfg.ks (inferred preloaded)
28.91,TAKEOFF,TO_ROTATE,70.64,80,9.36,5.52,64.18,1.48,7.56,6.55,270.39,-0.111,1,0,0,0,0,0,0,0,0,0,0,0,0,0,0,270,7.88,0,1,1.2,0,0,7.57,270,0.817,-0.0036,0.5767,7.88,270,0,0,0,0,0,0,3,0,0,0,69,0,0,0,0,0,0,,0,NONE,0,0,0,0,0,0,0,0,0,0,0,64.18,0,0,0,0,0,0,0,0,0,270,1,0,0.391,0,0,3,0,0,0,7.88,0.317,0,0,1,1,0,0,VALID,0,0,0,0,0,1,0,0,0,0,0,0,0,0,0,0,0,0,0,0,330.39,445.89,2,0,0.105,0.105,221,11.43,0.105,0.035,28.63,FLYING,CF1-J,0:/Integrated Flight Computer/aircraft/cf1_j_cfg.ks (inferred preloaded)
29.19,TAKEOFF,TO_CLIMB,71.44,80,8.56,5.91,64.58,1.87,7.04,5.68,270.4,-0.139,1,0,0,0,0,0,0,0,0,0,0,0,0,0,0,270,7.366,0,1,1.5,0,0,8.41,270,0.8221,-0.0034,0.5693,7.37,270,0,0,0,0,0,0,3,0,0,0,69,0,0,0,0,0,0,,0,NONE,0,0,0,0,0,0,0,0,0,0,0,64.58,0,0,0,0,0,0,0,0,0,270,1,0,0.395,0,0,3,0,0,0,8.405,1.208,0,0,1,1,0,0,VALID,0,0,0,0,0,1,0,0,0,0,0,0,0,0,0,0,0,0,0,0,331.91,445.34,2,0,0.105,0.105,224,10.71,0.105,0.07,28.91,FLYING,CF1-J,0:/Integrated Flight Computer/aircraft/cf1_j_cfg.ks (inferred preloaded)
29.54,TAKEOFF,TO_CLIMB,72.48,80,7.52,6.63,65.31,2.31,7.04,5.36,270.39,-0.172,1,0,0,0,0,0,0,0,0,0,0,0,0,0,0,270,7.799,0,1,1.82,0,0,7.76,270,0.8178,-0.0036,0.5754,7.8,270,0,0,0,0,0,0,3,0,0,0,69,0,0,0,0,0,0,,0,NONE,0,0,0,0,0,0,0,0,0,0,0,65.31,0,0,0,0,0,0,0,0,0,270,1,0,0.388,0,0,3,0,0,0,8.405,1.208,0,0,1,1,0,0,VALID,0,0,0,0,0,1,0,0,0,0,0,0,0,0,0,0,0,0,0,0,333.73,444.62,2,0,0.105,0.105,228,11.43,0.105,0.035,29.26,FLYING,CF1-J,0:/Integrated Flight Computer/aircraft/cf1_j_cfg.ks (inferred preloaded)
29.82,TAKEOFF,TO_CLIMB,73.31,80,6.69,7.31,66,2.71,6.89,4.94,270.38,-0.195,1,0,0,0,0,0,0,0,0,0,0,0,0,0,0,270,7.865,0,1,2.12,0,0,7.84,270,0.8172,-0.0036,0.5764,7.86,270,0,0,0,0,0,0,3,0,0,0,69,0,0,0,0,0,0,,0,NONE,0,0,0,0,0,0,0,0,0,0,0,66,0,0,0,0,0,0,0,0,0,270,1,0,0.381,0,0,3,0,0,0,8.405,1.208,0,0,1,1,0,0,VALID,0,0,0,0,0,1,0,0,0,0,0,0,0,0,0,0,0,0,0,0,335.14,444.04,2,0,0.105,0.105,231,10.71,0.105,0.07,29.54,FLYING,CF1-J,0:/Integrated Flight Computer/aircraft/cf1_j_cfg.ks (inferred preloaded)
30.17,TAKEOFF,TO_CLIMB,74.34,80,5.66,8.31,67.01,3.12,6.78,4.53,270.37,-0.219,1,0,0,0,0,0,0,0,0,0,0,0,0,0,0,270,7.947,0,1,2.4,0,0,7.92,270,0.8164,-0.0037,0.5775,7.95,270,0,0,0,0,0,0,3,0,0,0,69,0,0,0,0,0,0,,0,NONE,0,0,0,0,0,0,0,0,0,0,0,67.01,0,0,0,0,0,0,0,0,0,270,1,0,0.372,0,0,3,0,0,0,8.405,1.208,0,0,1,1,0,0,VALID,0,0,0,0,0,1,0,0,0,0,0,0,0,0,0,0,0,0,0,0,336.85,443.31,2,0,0.105,0.105,235,11.43,0.105,0.035,29.89,FLYING,CF1-J,0:/Integrated Flight Computer/aircraft/cf1_j_cfg.ks (inferred preloaded)
30.45,TAKEOFF,TO_CLIMB,75.16,80,4.84,9.22,67.93,3.47,6.74,4.27,270.36,-0.236,0.9984,0,0,0,0,0,0,0,0,0,0,0,0,0,0,270,8,0,1,2.65,0,0,7.99,270,0.8159,-0.0037,0.5782,8,270,0,0,0,0,0,0,3,0,0,0,69,0,0,0,0,0,0,,0,NONE,0,0,0,0,0,0,0,0,0,0,0,67.93,0,0,0,0,0,0,0,0,0,270,1,0,0.364,0,0,3,0,0,0,8.405,1.208,0,0,1,1,0,0,VALID,0,0,0,0,0,1,0,0,0,0,0,0,0,0,0,0,0,0,0,0,338.17,442.71,2,0,0.105,0.105,238,10.71,0.105,0.07,30.17,FLYING,CF1-J,0:/Integrated Flight Computer/aircraft/cf1_j_cfg.ks (inferred preloaded)
30.8,TAKEOFF,TO_CLIMB,76.17,80,3.83,10.49,69.22,3.89,6.66,3.91,270.35,-0.254,0.9883,0,0,0,0,0,0,0,0,0,0,0,0,0,0,270,8,0,1,2.93,0,0,8,270,0.8159,-0.0037,0.5782,8,270,0,0,0,0,0,0,3,0,0,0,69,0,0,0,0,0,0,,0,NONE,0,0,0,0,0,0,0,0,0,0,0,69.22,0,0,0,0,0,0,0,0,0,270,1,0,0.355,0,0,3,0,0,0,8.405,1.208,0,0,1,1,0,0,VALID,0,0,0,0,0,1,0,0,0,0,0,0,0,0,0,0,0,0,0,0,339.75,441.97,2,0,0.105,0.105,242,11.43,0.105,0.035,30.52,FLYING,CF1-J,0:/Integrated Flight Computer/aircraft/cf1_j_cfg.ks (inferred preloaded)
31.08,TAKEOFF,TO_CLIMB,76.97,80,3.03,11.62,70.35,4.23,6.64,3.69,270.35,-0.265,0.9803,0,0,0,0,0,0,0,0,0,0,0,0,0,0,270,8,0,1,3.14,0,0,8,270,0.8159,-0.0037,0.5782,8,270,0,0,0,0,0,0,3,0,0,0,69,0,0,0,0,0,0,,0,NONE,0,0,0,0,0,0,0,0,0,0,0,70.35,0,0,0,0,0,0,0,0,0,270,1,0,0.347,0,0,3,0,0,0,8.405,1.208,0,0,1,1,0,0,VALID,0,0,0,0,0,1,0,0,0,0,0,0,0,0,0,0,0,0,0,0,340.9,441.37,2,0,0.105,0.105,245,10.71,0.105,0.07,30.8,FLYING,CF1-J,0:/Integrated Flight Computer/aircraft/cf1_j_cfg.ks (inferred preloaded)
31.43,TAKEOFF,TO_CLIMB,77.97,80,2.03,13.15,71.9,4.64,6.57,3.36,270.34,-0.277,0.9703,0,0,0,0,0,0,0,0,0,0,0,0,0,0,270,8,0,1,3.41,0,0,8,270,0.8159,-0.0037,0.5781,8,270,0,0,0,0,0,0,3,0,0,0,69,0,0,0,0,0,0,,0,NONE,0,0,0,0,0,0,0,0,0,0,0,71.9,0,0,0,0,0,0,0,0,0,270,1,0,0.338,0,0,3,0,0,0,8.405,1.208,0,0,1,1,0,0,VALID,0,0,0,0,0,1,0,0,0,0,0,0,0,0,0,0,0,0,0,0,342.21,440.62,2,0,0.105,0.105,249,11.43,0.105,0.035,31.15,FLYING,CF1-J,0:/Integrated Flight Computer/aircraft/cf1_j_cfg.ks (inferred preloaded)
31.71,TAKEOFF,TO_CLIMB,78.75,80,1.25,14.48,73.25,4.96,6.53,3.13,270.33,-0.284,0.9625,0,0,0,0,0,0,0,0,0,0,0,0,0,0,270,8,0,1,3.61,0,0,8,270,0.816,-0.0037,0.5781,8,270,0,0,0,0,0,0,3,0,0,0,69,0,0,0,0,0,0,,0,NONE,0,0,0,0,0,0,0,0,0,0,0,73.25,0,0,0,0,0,0,0,0,0,270,1,0,0.331,0,0,3,0,0,0,8.405,1.208,0,0,1,1,0,0,VALID,0,0,0,0,0,1,0,0,0,0,0,0,0,0,0,0,0,0,0,0,343.16,440.02,2,0,0.105,0.105,252,10.71,0.105,0.07,31.43,FLYING,CF1-J,0:/Integrated Flight Computer/aircraft/cf1_j_cfg.ks (inferred preloaded)
32.06,TAKEOFF,TO_CLIMB,79.73,80,0.27,16.26,75.05,5.36,6.44,2.81,270.32,-0.291,0.9527,0,0,0,0,0,0,0,0,0,0,0,0,0,0,270,8,0,1,3.85,0,0,8,270,0.816,-0.0037,0.578,8,270,0,0,0,0,0,0,3,0,0,0,69,0,0,0,0,0,0,,0,NONE,0,0,0,0,0,0,0,0,0,0,0,75.05,0,0,0,0,0,0,0,0,0,270,1,0,0.321,0,0,3,0,0,0,8.405,1.208,0,0,1,1,0,0,VALID,0,0,0,0,0,1,0,0,0,0,0,0,0,0,0,0,0,0,0,0,344.23,439.27,2,0,0.105,0.105,256,11.43,0.105,0.035,31.78,FLYING,CF1-J,0:/Integrated Flight Computer/aircraft/cf1_j_cfg.ks (inferred preloaded)
32.34,TAKEOFF,TO_CLIMB,80.5,80,-0.5,17.79,76.59,5.65,6.38,2.58,270.31,-0.295,0.945,0,0,0,0,0,0,0,0,0,0,0,0,0,0,270,8,0,1,4.01,0,0,8,270,0.816,-0.0037,0.578,8,270,0,0,0,0,0,0,3,0,0,0,69,0,0,0,0,0,0,,0,NONE,0,0,0,0,0,0,0,0,0,0,0,76.59,0,0,0,0,0,0,0,0,0,270,1,0,0.314,0,0,3,0,0,0,8.405,1.208,0,0,1,1,0,0,VALID,0,0,0,0,0,1,0,0,0,0,0,0,0,0,0,0,0,0,0,0,344.99,438.66,2,0,0.105,0.105,259,10.71,0.105,0.07,32.06,FLYING,CF1-J,0:/Integrated Flight Computer/aircraft/cf1_j_cfg.ks (inferred preloaded)
32.69,TAKEOFF,TO_CLIMB,81.45,80,-1.45,19.8,78.62,6.01,6.33,2.34,270.3,-0.299,0.9355,0,0,0,0,0,0,0,0,0,0,0,0,0,0,270,8,0,1,4.22,0,0,8,270,0.816,-0.0037,0.578,8,270,0,0,0,0,0,0,3,0,0,0,69,0,0,0,0,0,0,,0,NONE,0,0,0,0,0,0,0,0,0,0,0,78.62,0,0,0,0,0,0,0,0,0,270,1,0,0.305,0,0,3,0,0,0,8.405,1.208,0,0,1,1,0,0,VALID,0,0,0,0,0,1,0,0,0,0,0,0,0,0,0,0,0,0,0,0,345.83,437.91,2,0,0.105,0.105,263,11.43,0.105,0.035,32.41,FLYING,CF1-J,0:/Integrated Flight Computer/aircraft/cf1_j_cfg.ks (inferred preloaded)
32.97,TAKEOFF,TO_CLIMB,82.2,80,-2.2,21.51,80.35,6.29,6.3,2.15,270.3,-0.301,0.928,0,0,0,0,0,0,0,0,0,0,0,0,0,0,270,8,0,1,4.38,0,0,8,270,0.8161,-0.0037,0.5779,8,270,0,0,0,0,0,0,3,0,0,0,69,0,0,0,0,0,0,,0,NONE,0,0,0,0,0,0,0,0,0,0,0,80.35,0,0,0,0,0,0,0,0,0,270,1,0,0.298,0,0,3,0,0,0,8.405,1.208,0,0,1,1,0,0,VALID,0,0,0,0,0,1,0,0,0,0,0,0,0,0,0,0,0,0,0,0,346.42,437.31,2,0,0.105,0.105,266,10.71,0.105,0.07,32.69,FLYING,CF1-J,0:/Integrated Flight Computer/aircraft/cf1_j_cfg.ks (inferred preloaded)
33.32,TAKEOFF,TO_CLIMB,83.12,80,-3.12,23.74,82.61,6.63,6.26,1.92,270.29,-0.303,0.9188,0,0,0,0,0,0,0,0,0,0,0,0,0,0,270,8,0,1,4.56,0,0,8,270,0.8161,-0.0037,0.5779,8,270,0,0,0,0,0,0,3,0,0,0,69,0,0,0,0,0,0,,0,NONE,0,0,0,0,0,0,0,0,0,0,0,82.61,0,0,0,0,0,0,0,0,0,270,1,0,0.287,0,0,3,0,0,0,8.405,1.208,0,0,1,1,0,0,VALID,0,0,0,0,0,1,0,0,0,0,0,0,0,0,0,0,0,0,0,0,347.04,436.56,2,0,0.105,0.105,270,11.43,0.105,0.035,33.04,FLYING,CF1-J,0:/Integrated Flight Computer/aircraft/cf1_j_cfg.ks (inferred preloaded)
33.6,TAKEOFF,TO_CLIMB,83.85,80,-3.85,25.62,84.51,6.91,6.24,1.77,270.28,-0.305,0.9115,0,0,0,0,0,0,0,0,0,0,0,0,0,0,270,8,0,1,4.71,0,0,8,270,0.8161,-0.0037,0.5779,8,270,0,0,0,0,0,0,3,0,0,0,69,0,0,0,0,0,0,,0,NONE,0,0,0,0,0,0,0,0,0,0,0,84.51,0,0,0,0,0,0,0,0,0,270,1,0,0.278,0,0,3,0,0,0,8.405,1.208,0,0,1,1,0,0,VALID,0,0,0,0,0,1,0,0,0,0,0,0,0,0,0,0,0,0,0,0,347.46,435.95,2,0,0.105,0.105,273,10.71,0.105,0.07,33.32,FLYING,CF1-J,0:/Integrated Flight Computer/aircraft/cf1_j_cfg.ks (inferred preloaded)
33.95,TAKEOFF,TO_CLIMB,84.75,80,-4.75,28.07,86.98,7.24,6.21,1.57,270.27,-0.307,0.9025,0,0,0,0,0,0,0,0,0,0,0,0,0,0,270,8,0,1,4.88,0,0,8,270,0.8162,-0.0037,0.5778,8,270,0,0,0,0,0,0,3,0,0,0,69,0,0,0,0,0,0,,0,NONE,0,0,0,0,0,0,0,0,0,0,0,86.98,0,0,0,0,0,0,0,0,0,270,1,0,0.266,0,0,3,0,0,0,8.405,1.208,0,0,1,1,0,0,VALID,0,0,0,0,0,1,0,0,0,0,0,0,0,0,0,0,0,0,0,0,347.89,435.21,2,0,0.105,0.105,277,11.43,0.105,0.035,33.67,FLYING,CF1-J,0:/Integrated Flight Computer/aircraft/cf1_j_cfg.ks (inferred preloaded)
34.23,TAKEOFF,TO_CLIMB,85.46,80,-5.46,30.11,89.05,7.5,6.18,1.42,270.26,-0.309,0.8954,0,0,0,0,0,0,0,0,0,0,0,0,0,0,270,8,0,1,5.02,0,0,8,270,0.8162,-0.0037,0.5778,8,270,0,0,0,0,0,0,3,0,0,0,69,0,0,0,0,0,0,,0,NONE,0,0,0,0,0,0,0,0,0,0,0,89.05,0,0,0,0,0,0,0,0,0,270,1,0,0.257,0,0,3,0,0,0,8.405,1.208,0,0,1,1,0,0,VALID,0,0,0,0,0,1,0,0,0,0,0,0,0,0,0,0,0,0,0,0,348.16,434.61,2,0,0.105,0.105,280,10.71,0.105,0.07,33.95,FLYING,CF1-J,0:/Integrated Flight Computer/aircraft/cf1_j_cfg.ks (inferred preloaded)
34.51,TAKEOFF,TO_CLIMB,86.15,80,-6.15,32.22,91.19,7.76,6.16,1.26,270.25,-0.307,0.8885,0,0,0,0,0,0,0,0,0,0,0,0,0,0,270,8,0,1,5.14,0,0,8,270,0.8162,-0.0037,0.5778,8,270,0,0,0,0,0,0,3,0,0,0,69,0,0,0,0,0,0,,0,NONE,0,0,0,0,0,0,0,0,0,0,0,91.19,0,0,0,0,0,0,0,0,0,270,1,0,0.248,0,0,3,0,0,0,8.405,1.208,0,0,1,1,0,0,VALID,0,0,0,0,0,1,0,0,0,0,0,0,0,0,0,0,0,0,0,0,348.36,434.02,2,0,0.105,0.105,283,10.71,0.105,0.07,34.23,FLYING,CF1-J,0:/Integrated Flight Computer/aircraft/cf1_j_cfg.ks (inferred preloaded)
34.86,TAKEOFF,TO_CLIMB,87.01,80,-7.01,39.08,93.96,8.07,6.14,1.09,270.24,-0.303,0.8799,0,0,0,0,0,0,0,0,0,0,0,0,0,0,270,8,0,1,5.3,0,0,8,270,0.8162,-0.0037,0.5777,8,270,0,0,0,0,0,0,3,0,0,0,69,0,0,0,0,0,0,,0,NONE,0,0,0,0,0,0,0,0,0,0,0,93.96,0,0,0,0,0,0,0,0,0,270,1,0,0.237,0,0,3,0,0,0,8.405,1.208,0,0,1,1,0,0,VALID,0,0,0,0,0,1,0,0,0,0,0,0,0,0,0,0,0,0,0,0,348.54,433.28,2,0,0.105,0.105,286,8.57,0.14,0.105,34.58,FLYING,CF1-J,0:/Integrated Flight Computer/aircraft/cf1_j_cfg.ks (inferred preloaded)
35.14,TAKEOFF,TO_CLIMB,87.68,80,-7.68,52.59,96.25,8.31,6.12,0.96,270.23,-0.298,0.8732,0,0,0,0,0,0,0,0,0,0,0,0,0,0,270,8,0,1,5.42,0,0,8,270,0.8163,-0.0037,0.5777,8,270,0,0,0,0,0,0,3,0,0,0,69,0,0,0,0,0,0,,0,NONE,0,0,0,0,0,0,0,0,0,0,0,96.25,0,0,0,0,0,0,0,0,0,270,1,0,0.228,0,0,3,0,0,0,8.405,1.208,0,0,1,1,0,0,VALID,0,0,0,0,0,1,0,0,0,0,0,0,0,0,0,0,0,0,0,0,348.61,432.7,2,0,0.105,0.105,289,10.71,0.105,0.07,34.86,FLYING,CF1-J,0:/Integrated Flight Computer/aircraft/cf1_j_cfg.ks (inferred preloaded)
35.49,TAKEOFF,TO_CLIMB,88.5,80,-8.5,71.05,99.22,8.61,6.1,0.8,270.22,-0.293,0.865,0,0,0,0,0,0,0,0,0,0,0,0,0,0,270,8,0,1,5.56,0,0,8,270,0.8163,-0.0037,0.5776,8,270,0,0,0,0,0,0,3,0,0,0,69,0,0,0,0,0,0,,0,NONE,0,0,0,0,0,0,0,0,0,0,0,99.22,0,0,0,0,0,0,0,0,0,270,1,0,0.218,0,0,3,0,0,0,8.405,1.208,0,0,1,1,0,0,VALID,0,0,0,0,0,1,0,0,0,0,0,0,0,0,0,0,0,0,0,0,348.62,431.97,2,0,0.105,0.105,292,8.57,0.14,0.105,35.21,FLYING,CF1-J,0:/Integrated Flight Computer/aircraft/cf1_j_cfg.ks (inferred preloaded)
35.77,TAKEOFF,TO_CLIMB,89.15,80,-9.15,86.47,101.66,8.85,6.09,0.68,270.21,-0.288,0.8585,0,0,0,0,0,0,0,0,0,0,0,0,0,0,270,8,0,1,5.67,0,0,8,270,0.8163,-0.0037,0.5776,8,270,0,0,0,0,0,0,3,0,0,0,69,0,0,0,0,0,0,,0,NONE,0,0,0,0,0,0,0,0,0,0,0,101.66,0,0,0,0,0,0,0,0,0,270,1,0,0.21,0,0,3,0,0,0,8.405,1.208,0,0,1,1,0,0,VALID,0,0,0,0,0,1,0,0,0,0,0,0,0,0,0,0,0,0,0,0,348.57,431.39,2,0,0.105,0.105,295,10.71,0.105,0.07,35.49,FLYING,CF1-J,0:/Integrated Flight Computer/aircraft/cf1_j_cfg.ks (inferred preloaded)
36.12,TAKEOFF,TO_CLIMB,89.93,80,-9.93,99.34,104.82,9.16,6.07,0.53,270.2,-0.282,0.8507,0,0,0,0,0,0,0,0,0,0,0,0,0,0,270,8,0,1,5.81,0,0,8,270,0.8163,-0.0037,0.5776,8,270,0,0,0,0,0,0,3,0,0,0,69,0,0,0,0,0,0,,0,NONE,0,0,0,0,0,0,0,0,0,0,0,104.82,0,0,0,0,0,0,0,0,0,270,1,0,0.2,0,0,3,0,0,0,8.405,1.208,0,0,1,1,0,0,VALID,0,0,0,0,0,1,0,0,0,0,0,0,0,0,0,0,0,0,0,0,348.43,430.68,2,0,0.105,0.105,298,8.57,0.14,0.105,35.84,FLYING,CF1-J,0:/Integrated Flight Computer/aircraft/cf1_j_cfg.ks (inferred preloaded)
36.4,TAKEOFF,TO_CLIMB,90.55,80,-10.55,105.29,107.41,9.38,6.04,0.39,270.19,-0.276,0.8445,0,0,0,0,0,0,0,0,0,0,0,0,0,0,270,8,0,1,5.91,0,0,8,270,0.8164,-0.0037,0.5775,8,270,0,0,0,0,0,0,3,0,0,0,69,0,0,0,0,0,0,,0,NONE,0,0,0,0,0,0,0,0,0,0,0,107.41,0,0,0,0,0,0,0,0,0,270,1,0,0.192,0,0,3,0,0,0,8.405,1.208,0,0,1,1,0,0,VALID,0,0,0,0,0,1,0,0,0,0,0,0,0,0,0,0,0,0,0,0,348.27,430.11,2,0,0.105,0.105,301,10.71,0.105,0.07,36.12,FLYING,CF1-J,0:/Integrated Flight Computer/aircraft/cf1_j_cfg.ks (inferred preloaded)
36.75,TAKEOFF,TO_CLIMB,91.3,80,-11.3,111.94,110.75,9.66,6.03,0.26,270.18,-0.267,0.837,0,0,0,0,0,0,0,0,0,0,0,0,0,0,270,8,0,1,6.04,0,0,8,270,0.8164,-0.0037,0.5775,8,270,0,0,0,0,0,0,3,0,0,0,69,0,0,0,0,0,0,,0,NONE,0,0,0,0,0,0,0,0,0,0,0,110.75,0,0,0,0,0,0,0,0,0,270,1,0,0.183,0,0,3,0,0,0,8.405,1.208,0,0,1,1,0,0,VALID,0,0,0,0,0,1,0,0,0,0,0,0,0,0,0,0,0,0,0,0,348.01,429.41,2,0,0.105,0.105,304,8.57,0.14,0.105,36.47,FLYING,CF1-J,0:/Integrated Flight Computer/aircraft/cf1_j_cfg.ks (inferred preloaded)
37.03,TAKEOFF,TO_CLIMB,91.89,80,-11.89,117.43,113.48,9.87,6.02,0.16,270.18,-0.261,0.8311,0,0,0,0,0,0,0,0,0,0,0,0,0,0,270,8,0,1,6.13,0,0,8,270,0.8164,-0.0037,0.5774,8,270,0,0,0,0,0,0,3,0,0,0,69,0,0,0,0,0,0,,0,NONE,0,0,0,0,0,0,0,0,0,0,0,113.48,0,0,0,0,0,0,0,0,0,270,1,0,0.176,0,0,3,0,0,0,8.405,1.208,0,0,1,1,0,0,VALID,0,0,0,0,0,1,0,0,0,0,0,0,0,0,0,0,0,0,0,0,347.74,428.85,2,0,0.105,0.105,307,10.71,0.105,0.07,36.75,FLYING,CF1-J,0:/Integrated Flight Computer/aircraft/cf1_j_cfg.ks (inferred preloaded)
37.38,TAKEOFF,TO_CLIMB,92.61,80,-12.61,124.71,116.99,10.14,6.02,0.04,270.17,-0.253,0.8239,0,0,0,0,0,0,0,0,0,0,0,0,0,0,270,8,0,1,6.25,0,0,8,270,0.8165,-0.0037,0.5774,8,270,0,0,0,0,0,0,3,0,0,0,69,0,0,0,0,0,0,,0,NONE,0,0,0,0,0,0,0,0,0,0,0,116.99,0,0,0,0,0,0,0,0,0,270,1,0,0.167,0,0,3,0,0,0,8.405,1.208,0,0,1,1,0,0,VALID,0,0,0,0,0,1,0,0,0,0,0,0,0,0,0,0,0,0,0,0,347.36,428.17,2,0,0.105,0.105,310,8.57,0.14,0.105,37.1,FLYING,CF1-J,0:/Integrated Flight Computer/aircraft/cf1_j_cfg.ks (inferred preloaded)
37.66,TAKEOFF,TO_CLIMB,93.17,80,-13.17,130.83,119.86,10.35,6.01,-0.05,270.16,-0.247,0.8183,0,0,0,0,0,0,0,0,0,0,0,0,0,0,270,8,0,1,6.34,0,0,8,270,0.8165,-0.0037,0.5773,8,270,0,0,0,0,0,0,3,0,0,0,69,0,0,0,0,0,0,,0,NONE,0,0,0,0,0,0,0,0,0,0,0,119.86,0,0,0,0,0,0,0,0,0,270,1,0,0.16,0,0,3,0,0,0,8.405,1.208,0,0,1,1,0,0,VALID,0,0,0,0,0,1,0,0,0,0,0,0,0,0,0,0,0,0,0,0,347,427.62,2,0,0.105,0.105,313,10.71,0.105,0.07,37.38,FLYING,CF1-J,0:/Integrated Flight Computer/aircraft/cf1_j_cfg.ks (inferred preloaded)
38.01,TAKEOFF,TO_CLIMB,93.85,80,-13.85,138.53,123.53,10.6,6,-0.16,270.15,-0.238,0.8115,0,0,0,0,0,0,0,0,0,0,0,0,0,0,270,8,0,1,6.44,0,0,8,270,0.8165,-0.0037,0.5773,8,270,0,0,0,0,0,0,3,0,0,0,69,0,0,0,0,0,0,,0,NONE,0,0,0,0,0,0,0,0,0,0,0,123.53,0,0,0,0,0,0,0,0,0,270,1,0,0.152,0,0,3,0,0,0,8.405,1.208,0,0,1,1,0,0,VALID,0,0,0,0,0,1,0,0,0,0,0,0,0,0,0,0,0,0,0,0,346.51,426.95,2,0,0.105,0.105,316,8.57,0.14,0.105,37.73,FLYING,CF1-J,0:/Integrated Flight Computer/aircraft/cf1_j_cfg.ks (inferred preloaded)
38.29,TAKEOFF,TO_CLIMB,94.38,80,-14.38,144.65,126.53,10.8,6,-0.25,270.15,-0.232,0.8062,0,0,0,0,0,0,0,0,0,0,0,0,0,0,270,8,0,1,6.53,0,0,8,270,0.8165,-0.0037,0.5773,8,270,0,0,0,0,0,0,3,0,0,0,69,0,0,0,0,0,0,,0,NONE,0,0,0,0,0,0,0,0,0,0,0,126.53,0,0,0,0,0,0,0,0,0,270,1,0,0.146,0,0,3,0,0,0,8.405,1.208,0,0,1,1,0,0,VALID,0,0,0,0,0,1,0,0,0,0,0,0,0,0,0,0,0,0,0,0,346.08,426.42,2,0,0.105,0.105,319,10.71,0.105,0.07,38.01,FLYING,CF1-J,0:/Integrated Flight Computer/aircraft/cf1_j_cfg.ks (inferred preloaded)
38.64,TAKEOFF,TO_CLIMB,95.02,80,-15.02,156.23,130.35,11.04,5.99,-0.35,270.14,-0.223,0.7998,0,0,0,0,0,0,0,0,0,0,0,0,0,0,270,8,0,1,6.63,0,0,8,270,0.8166,-0.0037,0.5772,8,270,0,0,0,0,0,0,3,0,0,0,69,0,0,0,0,0,0,,0,NONE,0,0,0,0,0,0,0,0,0,0,0,130.35,0,0,0,0,0,0,0,0,0,270,1,0,0.138,0,0,3,0,0,0,8.405,1.208,0,0,1,1,0,0,VALID,0,0,0,0,0,1,0,0,0,0,0,0,0,0,0,0,0,0,0,0,345.33,425.76,2,0,0.105,0.105,322,8.57,0.14,0.105,38.36,FLYING,CF1-J,0:/Integrated Flight Computer/aircraft/cf1_j_cfg.ks (inferred preloaded)
38.92,TAKEOFF,TO_CLIMB,95.52,80,-15.52,163.85,133.47,11.22,5.99,-0.42,270.13,-0.216,0.7948,0,0,0,0,0,0,0,0,0,0,0,0,0,0,270,8,0,1,6.7,0,0,8,270,0.8166,-0.0037,0.5772,8,270,0,0,0,0,0,0,3,0,0,0,69,0,0,0,0,0,0,,0,NONE,0,0,0,0,0,0,0,0,0,0,0,133.47,0,0,0,0,0,0,0,0,0,270,1,0,0.132,0,0,3,0,0,0,8.405,1.208,0,0,1,1,0,0,VALID,0,0,0,0,0,1,0,0,0,0,0,0,0,0,0,0,0,0,0,0,344.57,425.24,2,0,0.105,0.105,325,10.71,0.105,0.07,38.64,FLYING,CF1-J,0:/Integrated Flight Computer/aircraft/cf1_j_cfg.ks (inferred preloaded)
39.27,TAKEOFF,TO_CLIMB,96.13,80,-16.13,172.46,137.44,11.45,5.98,-0.52,270.13,-0.209,0.7887,0,0,0,0,0,0,0,0,0,0,0,0,0,0,270,8,0,1,6.79,0,0,8,270,0.8166,-0.0037,0.5771,8,270,0,0,0,0,0,0,3,0,0,0,69,0,0,0,0,0,0,,0,NONE,0,0,0,0,0,0,0,0,0,0,0,137.44,0,0,0,0,0,0,0,0,0,270,1,0,0.125,0,0,3,0,0,0,8.405,1.208,0,0,1,1,0,0,VALID,0,0,0,0,0,1,0,0,0,0,0,0,0,0,0,0,0,0,0,0,343.47,424.61,2,0,0.105,0.105,328,8.57,0.14,0.105,38.99,FLYING,CF1-J,0:/Integrated Flight Computer/aircraft/cf1_j_cfg.ks (inferred preloaded)
39.55,TAKEOFF,TO_CLIMB,96.6,80,-16.6,181.49,140.67,11.62,5.98,-0.59,270.12,-0.203,0.784,0,0,0,0,0,0,0,0,0,0,0,0,0,0,270,8,0,1,6.86,0,0,8,270,0.8167,-0.0037,0.5771,8,270,0,0,0,0,0,0,3,0,0,0,69,0,0,0,0,0,0,,0,NONE,0,0,0,0,0,0,0,0,0,0,0,140.67,0,0,0,0,0,0,0,0,0,270,1,0,0.12,0,0,3,0,0,0,8.405,1.208,0,0,1,1,0,0,VALID,0,0,0,0,0,1,0,0,0,0,0,0,0,0,0,0,0,0,0,0,342.48,424.1,2,0,0.105,0.105,331,10.71,0.105,0.07,39.27,FLYING,CF1-J,0:/Integrated Flight Computer/aircraft/cf1_j_cfg.ks (inferred preloaded)
39.9,TAKEOFF,TO_CLIMB,97.16,80,-17.16,187.82,144.78,11.83,5.98,-0.67,270.11,-0.195,0.78,0,0,0,0,0,0,0,0,0,0,0,0,0,0,270,8,0,1,6.94,0,0,8,270,0.8167,-0.0037,0.577,8,270,0,0,0,0,0,0,3,0,0,0,69,0,0,0,0,0,0,,0,NONE,0,0,0,0,0,0,0,0,0,0,0,144.78,0,0,0,0,0,0,0,0,0,270,1,0,0.114,0,0,3,0,0,0,8.405,1.208,0,0,1,1,0,0,VALID,0,0,0,0,0,1,0,0,0,0,0,0,0,0,0,0,0,0,0,0,341.11,423.48,2,0,0.105,0.105,334,8.57,0.14,0.105,39.62,FLYING,CF1-J,0:/Integrated Flight Computer/aircraft/cf1_j_cfg.ks (inferred preloaded)
40.18,TAKEOFF,TO_CLIMB,97.6,80,-17.6,192.12,148.12,11.99,5.97,-0.74,270.11,-0.189,0.78,0,0,0,0,0,0,0,0,0,0,0,0,0,0,270,8,0,1,7,0,0,8,270,0.8167,-0.0037,0.577,8,270,0,0,0,0,0,0,3,0,0,0,69,0,0,0,0,0,0,,0,NONE,0,0,0,0,0,0,0,0,0,0,0,148.12,0,0,0,0,0,0,0,0,0,270,1,0,0.109,0,0,3,0,0,0,8.405,1.208,0,0,1,1,0,0,VALID,0,0,0,0,0,1,0,0,0,0,0,0,0,0,0,0,0,0,0,0,339.99,423,2,0,0.105,0.105,337,10.71,0.105,0.07,39.9,FLYING,CF1-J,0:/Integrated Flight Computer/aircraft/cf1_j_cfg.ks (inferred preloaded)
40.53,TAKEOFF,TO_CLIMB,98.12,80,-18.12,206.39,152.35,12.19,5.97,-0.81,270.1,-0.182,0.78,0,0,0,0,0,0,0,0,0,0,0,0,0,0,270,8,0,1,7.08,0,0,8,270,0.8168,-0.0037,0.577,8,270,0,0,0,0,0,0,3,0,0,0,69,0,0,0,0,0,0,,0,NONE,0,0,0,0,0,0,0,0,0,0,0,152.35,0,0,0,0,0,0,0,0,0,270,1,0,0.103,0,0,3,0,0,0,8.405,1.208,0,0,1,1,0,0,VALID,0,0,0,0,0,1,0,0,0,0,0,0,0,0,0,0,0,0,0,0,338.67,422.4,2,0,0.105,0.105,340,8.57,0.14,0.105,40.25,FLYING,CF1-J,0:/Integrated Flight Computer/aircraft/cf1_j_cfg.ks (inferred preloaded)
40.81,TAKEOFF,TO_CLIMB,98.53,80,-18.53,219.24,155.79,12.34,5.97,-0.87,270.1,-0.175,0.78,0,0,0,0,0,0,0,0,0,0,0,0,0,0,270,8,0,1,7.14,0,0,8,270,0.8168,-0.0037,0.5769,8,270,0,0,0,0,0,0,3,0,0,0,69,0,0,0,0,0,0,,0,NONE,0,0,0,0,0,0,0,0,0,0,0,155.79,0,0,0,0,0,0,0,0,0,270,1,0,0.098,0,0,3,0,0,0,8.405,1.208,0,0,1,1,0,0,VALID,0,0,0,0,0,1,0,0,0,0,0,0,0,0,0,0,0,0,0,0,337.67,421.93,2,0,0.105,0.105,343,10.71,0.105,0.07,40.53,FLYING,CF1-J,0:/Integrated Flight Computer/aircraft/cf1_j_cfg.ks (inferred preloaded)
41.16,TAKEOFF,TO_CLIMB,99.01,80,-19.01,234.38,160.14,12.52,5.97,-0.94,270.09,-0.167,0.78,0,0,0,0,0,0,0,0,0,0,0,0,0,0,270,8,0,1,7.21,0,0,8,270,0.8168,-0.0037,0.5769,8,270,0,0,0,0,0,0,3,0,0,0,69,0,0,0,0,0,0,,0,NONE,0,0,0,0,0,0,0,0,0,0,0,160.14,0,0,0,0,0,0,0,0,0,270,1,0,0.093,0,0,3,0,0,0,8.405,1.208,0,0,1,1,0,0,VALID,0,0,0,0,0,1,0,0,0,0,0,0,0,0,0,0,0,0,0,0,336.49,421.35,2,0,0.105,0.105,346,8.57,0.14,0.105,40.88,FLYING,CF1-J,0:/Integrated Flight Computer/aircraft/cf1_j_cfg.ks (inferred preloaded)
41.44,TAKEOFF,TO_CLIMB,99.39,80,-19.39,237.96,163.67,12.66,5.97,-0.99,270.09,-0.161,0.78,0,0,0,0,0,0,0,0,0,0,0,0,0,0,270,8,0,1,7.26,0,0,8,270,0.8169,-0.0037,0.5768,8,270,0,0,0,0,0,0,3,0,0,0,69,0,0,0,0,0,0,,0,NONE,0,0,0,0,0,0,0,0,0,0,0,163.67,0,0,0,0,0,0,0,0,0,270,1,0,0.089,0,0,3,0,0,0,8.405,1.208,0,0,1,1,0,0,VALID,0,0,0,0,0,1,0,0,0,0,0,0,0,0,0,0,0,0,0,0,335.6,420.9,2,0,0.105,0.105,349,10.71,0.105,0.07,41.16,FLYING,CF1-J,0:/Integrated Flight Computer/aircraft/cf1_j_cfg.ks (inferred preloaded)
41.79,TAKEOFF,TO_CLIMB,99.84,80,-19.84,242.42,168.13,12.83,5.97,-1.05,270.08,-0.156,0.78,0,0,0,0,0,0,0,0,0,0,0,0,0,0,270,8,0,1,7.32,0,0,8,270,0.8169,-0.0037,0.5768,8,270,0,0,0,0,0,0,3,0,0,0,69,0,0,0,0,0,0,,0,NONE,0,0,0,0,0,0,0,0,0,0,0,168.13,0,0,0,0,0,0,0,0,0,270,1,0,0.083,0,0,3,0,0,0,8.405,1.208,0,0,1,1,0,0,VALID,0,0,0,0,0,1,0,0,0,0,0,0,0,0,0,0,0,0,0,0,334.54,420.34,2,0,0.105,0.105,352,8.57,0.14,0.105,41.51,FLYING,CF1-J,0:/Integrated Flight Computer/aircraft/cf1_j_cfg.ks (inferred preloaded)
42.07,TAKEOFF,TO_CLIMB,100.19,80,-20.19,246.03,171.74,12.96,5.97,-1.1,270.08,-0.15,0.78,0,0,0,0,0,0,0,0,0,0,0,0,0,0,270,8,0,1,7.37,0,0,8,270,0.8169,-0.0037,0.5767,8,270,0,0,0,0,0,0,3,0,0,0,69,0,0,0,0,0,0,,0,NONE,0,0,0,0,0,0,0,0,0,0,0,171.74,0,0,0,0,0,0,0,0,0,270,1,0,0.08,0,0,3,0,0,0,8.405,1.208,0,0,1,1,0,0,VALID,0,0,0,0,0,1,0,0,0,0,0,0,0,0,0,0,0,0,0,0,333.74,419.89,2,0,0.105,0.105,355,10.71,0.105,0.07,41.79,FLYING,CF1-J,0:/Integrated Flight Computer/aircraft/cf1_j_cfg.ks (inferred preloaded)
42.46,APPROACH,FLY_TO_FIX,100.65,70,-30.65,251.06,158.06,13.13,5.97,-1.16,270.08,-0.144,0.78,0,0,0,0,0,0,0,0,0,0,0,0,0,0,270,8,0,1,7.43,0,0,8,270,0.817,-0.0037,0.5767,8,270,0,0,0,0,0,0,4,0,0,0,93,0,0,0,0,0,0,,0,NONE,0,0,0,0,0,0,0,0,0,0,0,158.06,0,0,0,0,0,0,0,0,0,270,1,0,0.075,0,0,3,0,0,0,8.405,1.208,0,0,1,1,0,0,VALID,0,0,0,0,0,1,0,0,0,0,0,0,0,0,0,0,0,0,0,0,332.7,419.3,2,0,0.105,0.105,358,7.79,0.14,0.105,0,FLYING,CF1-J,0:/Integrated Flight Computer/aircraft/cf1_j_cfg.ks (inferred preloaded)
