t_s,phase,subphase,ias_ms,vapp_ms,spd_err_ms,agl_m,vs_ms,pitch_deg,aoa_deg,hdg_deg,bank_deg,thr_cmd,thr_intg,aa_hdg_cmd_deg,aa_fpa_cmd_deg,ils_loc_m,ils_gs_m,ils_dist_km,loc_corr_deg,gs_corr_deg,flare_fpa_cmd,flare_tgt_vs,flare_frac,steer_hdg_deg,steer_blend,ro_loc_corr_deg,ro_hdg_err_deg,ro_yaw_tgt,yaw_cmd,roll_cmd,flaps_cur,flaps_tgt,phase_el_s,status
0.18,APPROACH,FLY_TO_FIX,78.2,76,-2.2,541.84,-19.4,-17.22,-3.81,270.41,0.096,0,-0.11,172.8,4.787,0,0,0,0,0,0,0,0,270.4,0,0,0,0,0,0,0,1,0.22,FLYING
0.4,APPROACH,ILS_TRACK,78.6,76,-2.6,537.4,-23.18,-19.63,-3.8,270.41,0.434,0,-0.24,101.89,-0.247,0,0,0,0,0,0,0,0,270.4,0,0,0,0,0,0,0,1,0.42,FLYING
0.6,APPROACH,ILS_TRACK,79.09,76,-3.09,532.3,-26.49,-21.36,-3.22,270.46,0.938,0,-0.394,280.34,0,-1.97,-24.79,9.315,9.936,404.126,0,0,0,270.4,0,0,0,0,0,0,1,1,0.62,FLYING
0.78,APPROACH,ILS_TRACK,79.64,76,-3.64,527.13,-29.35,-23.53,-3.4,270.49,0.677,0,-0.574,270.44,0,-1.96,-29,9.299,0.042,75.974,0,0,0,270.4,0,0,0,0,0,0,1,1,0.82,FLYING
0.98,APPROACH,ILS_TRACK,80.25,76,-4.25,520.72,-32.8,-26.73,-4.31,270.5,0.535,0,-0.783,270.42,0,-1.95,-34.43,9.283,0.024,97.205,0,0,0,270.4,0,0,0,0,0,0,1,1,1.02,FLYING
1.2,APPROACH,ILS_TRACK,80.98,76,-4.98,512.88,-37,-29.07,-4.06,270.51,0.41,0,-1.028,270.4,0,-1.94,-41.21,9.265,0.002,120.811,0,0,0,270.4,0,0,0,0,0,0,1,1,1.24,FLYING
1.4,APPROACH,ILS_TRACK,81.72,76,-5.72,505.13,-40.23,-28.78,-1.76,270.49,0.312,0,-1.31,270.39,0,-1.92,-48.03,9.25,-0.013,123.576,0,0,0,270.4,0,0,0,0,0,0,1,1,1.44,FLYING
1.6,APPROACH,ILS_TRACK,82.54,76,-6.54,496.92,-42.46,-26.84,1.4,270.46,0.229,0,-1.633,270.38,0,-1.9,-55.35,9.234,-0.022,133.776,0,0,0,270.4,0,0,0,0,0,0,1,1,1.64,FLYING
1.8,APPROACH,ILS_TRACK,83.39,76,-7.39,488.49,-43.17,-23.54,5.03,270.44,0.191,0,-1.998,270.39,0,-1.88,-62.93,9.218,-0.008,140.151,0,0,0,270.4,0,0,0,0,0,0,1,1,1.84,FLYING
2,APPROACH,ILS_TRACK,84.16,76,-8.16,480.04,-42.69,-20.89,7.24,270.43,0.158,0,-2.403,270.4,0,-1.87,-70.57,9.203,-0.004,143.338,0,0,0,270.4,0,0,0,0,0,0,1,1,2.04,FLYING
2.22,APPROACH,ILS_TRACK,84.87,76,-8.87,470.89,-41.52,-18.96,8.23,270.43,0.129,0,-2.844,270.39,0,-1.85,-78.83,9.185,-0.007,155.94,0,0,0,270.4,0,0,0,0,0,0,1,1,2.26,FLYING
2.42,APPROACH,ILS_TRACK,85.41,76,-9.41,462.78,-40.3,-17.87,8.35,270.43,0.109,0,-3.311,270.41,0,-1.84,-86.14,9.169,0.008,142.672,0,0,0,270.4,0,0,0,0,0,0,1,1,2.46,FLYING
2.62,APPROACH,ILS_TRACK,85.89,76,-9.89,454.91,-39.1,-17.05,8.21,270.43,0.092,0,-3.803,270.41,0,-1.83,-93.2,9.153,0.01,140.992,0,0,0,270.4,0,0,0,0,0,0,1,1,2.66,FLYING
2.82,APPROACH,ILS_TRACK,86.33,76,-10.33,447.26,-37.95,-16.26,8.08,270.43,0.078,0,-4.318,270.41,0,-1.81,-100.02,9.136,0.011,139.161,0,0,0,270.4,0,0,0,0,0,0,1,1,2.86,FLYING
3.02,APPROACH,ILS_TRACK,86.74,76,-10.74,439.84,-36.8,-15.51,7.97,270.43,0.068,0,-4.852,270.41,0,-1.8,-106.6,9.119,0.011,137.288,0,0,0,270.4,0,0,0,0,0,0,1,1,3.06,FLYING
3.24,APPROACH,ILS_TRACK,87.15,76,-11.15,431.94,-35.56,-14.73,7.82,270.43,0.059,0,-5.408,270.42,0,-1.79,-113.58,9.1,0.015,145.607,0,0,0,270.4,0,0,0,0,0,0,1,1,3.28,FLYING
3.44,APPROACH,ILS_TRACK,87.5,76,-11.5,424.99,-34.46,-13.96,7.77,270.43,0.053,0,-5.982,270.41,0,-1.78,-119.67,9.083,0.011,133.388,0,0,0,270.4,0,0,0,0,0,0,1,1,3.48,FLYING
3.64,APPROACH,ILS_TRACK,87.82,76,-11.82,418.26,-33.37,-13.28,7.67,270.43,0.05,0,-6.571,270.41,0,-1.77,-125.53,9.066,0.011,131.505,0,0,0,270.4,0,0,0,0,0,0,1,1,3.68,FLYING
3.84,APPROACH,ILS_TRACK,88.12,76,-12.12,411.74,-32.29,-12.6,7.57,270.43,0.049,0,-7.176,270.43,0,-1.76,-131.17,9.048,0.027,129.595,0,0,0,270.4,0,0,0,0,0,0,1,1,3.88,FLYING
4.04,APPROACH,ILS_TRACK,88.38,76,-12.38,405.44,-31.21,-12,7.41,270.43,0.042,0,-7.794,270.39,0,-1.74,-136.59,9.031,-0.006,127.691,0,0,0,270.4,0,0,0,0,0,0,1,1,4.08,FLYING
4.26,APPROACH,ILS_TRACK,88.64,76,-12.64,398.76,-30.04,-11.34,7.29,270.43,0.04,0,-8.424,270.42,0,-1.73,-142.3,9.011,0.022,134.022,0,0,0,270.4,0,0,0,0,0,0,1,1,4.3,FLYING
4.46,APPROACH,ILS_TRACK,88.85,76,-12.85,392.9,-28.99,-10.71,7.25,270.43,0.038,0,-9.066,270.41,0,-1.72,-147.27,8.993,0.011,123.605,0,0,0,270.4,0,0,0,0,0,0,1,1,4.5,FLYING
4.66,APPROACH,ILS_TRACK,89.04,76,-13.04,387.23,-28.09,-10.06,7.24,270.43,0.037,0,-9.717,270.41,0,-1.71,-152.03,8.975,0.009,121.842,0,0,0,270.4,0,0,0,0,0,0,1,1,4.7,FLYING
4.86,APPROACH,ILS_TRACK,89.21,76,-13.21,381.75,-27.14,-9.81,6.86,270.43,0.038,0,-10.377,270.41,0,-1.7,-156.61,8.957,0.012,120.175,0,0,0,270.4,0,0,0,0,0,0,1,1,4.9,FLYING
5.06,APPROACH,ILS_TRACK,89.36,76,-13.36,376.45,-26.2,-9.2,6.9,270.43,0.036,0,-11.044,270.42,0,-1.69,-160.98,8.939,0.02,118.335,0,0,0,270.4,0,0,0,0,0,0,1,1,5.1,FLYING
5.28,APPROACH,ILS_TRACK,89.5,76,-13.5,370.84,-25.22,-8.51,6.96,270.43,0.035,0,-11.718,270.41,0,-1.68,-165.59,8.919,0.005,123.348,0,0,0,270.4,0,0,0,0,0,0,1,1,5.32,FLYING
5.48,APPROACH,ILS_TRACK,89.61,76,-13.61,365.92,-24.37,-8,6.89,270.43,0.035,0,-12.398,270.41,0,-1.67,-169.59,8.901,0.011,114.872,0,0,0,270.4,0,0,0,0,0,0,1,1,5.52,FLYING
5.68,APPROACH,ILS_TRACK,89.7,76,-13.7,361.18,-23.46,-7.5,6.82,270.43,0.035,0,-13.083,270.41,0,-1.65,-173.4,8.883,0.011,113.072,0,0,0,270.4,0,0,0,0,0,0,1,1,5.72,FLYING
5.88,APPROACH,ILS_TRACK,89.78,76,-13.78,356.61,-22.6,-7.04,6.74,270.43,0.034,0,-13.771,270.42,0,-1.64,-177.04,8.864,0.016,111.339,0,0,0,270.4,0,0,0,0,0,0,1,1,5.92,FLYING
6.08,APPROACH,ILS_TRACK,89.84,76,-13.84,352.21,-21.76,-6.57,6.68,270.43,0.034,0,-14.463,270.41,0,-1.63,-180.51,8.846,0.01,109.606,0,0,0,270.4,0,0,0,0,0,0,1,1,6.12,FLYING
6.3,APPROACH,ILS_TRACK,89.89,76,-13.89,347.56,-20.87,-6.1,6.6,270.43,0.034,0,-15.158,270.41,0,-1.62,-184.13,8.825,0.014,113.169,0,0,0,270.4,0,0,0,0,0,0,1,1,6.34,FLYING
6.5,APPROACH,ILS_TRACK,89.93,76,-13.93,343.49,-20.1,-5.67,6.54,270.43,0.034,0,-15.854,270.41,0,-1.61,-187.25,8.807,0.011,106.129,0,0,0,270.4,0,0,0,0,0,0,1,1,6.54,FLYING
6.7,APPROACH,ILS_TRACK,89.95,76,-13.95,339.59,-19.33,-5.26,6.49,270.43,0.034,0,-16.551,270.41,0,-1.6,-190.22,8.788,0.013,104.525,0,0,0,270.4,0,0,0,0,0,0,1,1,6.74,FLYING
6.9,APPROACH,ILS_TRACK,89.96,76,-13.96,335.82,-18.6,-4.87,6.43,270.43,0.034,0,-17.249,270.41,0,-1.59,-193.03,8.77,0.012,102.964,0,0,0,270.4,0,0,0,0,0,0,1,1,6.94,FLYING
7.1,APPROACH,ILS_TRACK,89.95,76,-13.95,332.2,-17.89,-4.5,6.37,270.43,0.033,0,-17.947,270.43,0,-1.58,-195.7,8.751,0.027,101.443,0,0,0,270.4,0,0,0,0,0,0,1,1,7.14,FLYING
7.32,APPROACH,ILS_TRACK,89.93,76,-13.93,328.38,-17.15,-4.11,6.31,270.43,0.029,0,-18.644,270.4,0,-1.57,-198.48,8.73,-0.003,103.974,0,0,0,270.4,0,0,0,0,0,0,1,1,7.36,FLYING
7.52,APPROACH,ILS_TRACK,89.91,76,-13.91,325.05,-16.5,-3.75,6.27,270.43,0.03,0,-19.339,270.42,0,-1.56,-200.86,8.712,0.024,98.399,0,0,0,270.4,0,0,0,0,0,0,1,1,7.56,FLYING
7.72,APPROACH,ILS_TRACK,89.87,76,-13.87,321.84,-15.86,-3.41,6.23,270.42,0.031,0,-20,270.42,0,-1.55,-203.12,8.693,0.02,97.006,0,0,0,270.4,0,0,0,0,0,0,1,1,7.76,FLYING
7.92,APPROACH,ILS_TRACK,89.82,76,-13.82,318.75,-15.25,-3.09,6.18,270.42,0.03,0,-20,270.42,0,-1.55,-205.25,8.674,0.022,95.65,0,0,0,270.4,0,0,0,0,0,0,1,1,7.96,FLYING
8.12,APPROACH,ILS_TRACK,89.77,76,-13.77,315.79,-14.66,-2.78,6.14,270.42,0.027,0,-20,270.41,0,-1.54,-207.26,8.656,0.012,94.332,0,0,0,270.4,0,0,0,0,0,0,1,1,8.16,FLYING
8.34,APPROACH,ILS_TRACK,89.69,76,-13.69,312.66,-14.05,-2.45,6.1,270.42,0.025,0,-20,270.42,0,-1.53,-209.34,8.635,0.017,96.049,0,0,0,270.4,0,0,0,0,0,0,1,1,8.38,FLYING
8.54,APPROACH,ILS_TRACK,89.62,76,-13.62,309.93,-13.5,-2.15,6.07,270.42,0.025,0,-20,270.42,0,-1.52,-211.11,8.617,0.018,91.697,0,0,0,270.4,0,0,0,0,0,0,1,1,8.58,FLYING
8.74,APPROACH,ILS_TRACK,89.53,76,-13.53,307.3,-12.98,-1.88,6.03,270.42,0.026,0,-20,270.42,0,-1.51,-212.78,8.598,0.017,90.503,0,0,0,270.4,0,0,0,0,0,0,1,1,8.78,FLYING
8.94,APPROACH,ILS_TRACK,89.44,76,-13.44,304.78,-12.47,-1.61,6,270.42,0.025,0,-20,270.43,0,-1.5,-214.34,8.579,0.027,89.336,0,0,0,270.4,0,0,0,0,0,0,1,1,8.98,FLYING
9.14,APPROACH,ILS_TRACK,89.34,76,-13.34,302.35,-11.99,-1.34,5.98,270.42,0.02,0,-20,270.42,0,-1.5,-215.81,8.561,0.022,88.199,0,0,0,270.4,0,0,0,0,0,0,1,1,9.18,FLYING
9.36,APPROACH,ILS_TRACK,89.22,76,-13.22,299.79,-11.48,-1.07,5.95,270.42,0.017,0,-20,270.42,0,-1.49,-217.31,8.54,0.022,89.259,0,0,0,270.4,0,0,0,0,0,0,1,1,9.4,FLYING
9.56,APPROACH,ILS_TRACK,89.1,76,-13.1,297.56,-11.03,-0.83,5.92,270.42,0.016,0,-20,270.42,0,-1.48,-218.58,8.521,0.017,85.934,0,0,0,270.4,0,0,0,0,0,0,1,1,9.6,FLYING
9.76,APPROACH,ILS_TRACK,88.98,76,-12.98,295.42,-10.6,-0.59,5.91,270.42,0.015,0,-20,270.42,0,-1.47,-219.77,8.503,0.025,84.904,0,0,0,270.4,0,0,0,0,0,0,1,1,9.8,FLYING
9.96,APPROACH,ILS_TRACK,88.85,76,-12.85,293.36,-10.19,-0.37,5.89,270.42,0.013,0,-20,270.42,0,-1.47,-220.87,8.484,0.025,83.902,0,0,0,270.4,0,0,0,0,0,0,1,1,10,FLYING
10.16,APPROACH,ILS_TRACK,88.71,76,-12.71,291.38,-9.79,-0.15,5.87,270.42,0.011,0,-20,270.42,0,-1.46,-221.89,8.466,0.022,82.93,0,0,0,270.4,0,0,0,0,0,0,1,1,10.2,FLYING
10.38,APPROACH,ILS_TRACK,88.56,76,-12.56,289.29,-9.37,0.08,5.85,270.42,0.01,0,-20,270.42,0,-1.45,-222.93,8.445,0.016,83.461,0,0,0,270.4,0,0,0,0,0,0,1,1,10.42,FLYING
10.58,APPROACH,ILS_TRACK,88.41,76,-12.41,287.47,-9.01,0.28,5.84,270.42,0.009,0,-20,270.43,0,-1.44,-223.8,8.427,0.026,80.985,0,0,0,270.4,0,0,0,0,0,0,1,1,10.62,FLYING
10.78,APPROACH,ILS_TRACK,88.26,76,-12.26,285.72,-8.66,0.48,5.83,270.42,0.009,0,-20,270.42,0,-1.44,-224.59,8.408,0.018,80.092,0,0,0,270.4,0,0,0,0,0,0,1,1,10.82,FLYING
10.98,APPROACH,ILS_TRACK,88.1,76,-12.1,284.03,-8.32,0.66,5.81,270.42,0.008,0,-20,270.43,0,-1.43,-225.32,8.39,0.028,79.235,0,0,0,270.4,0,0,0,0,0,0,1,1,11.02,FLYING
11.18,APPROACH,ILS_TRACK,87.93,76,-11.93,282.42,-7.99,0.85,5.81,270.42,0.006,0,-20,270.43,0,-1.43,-225.98,8.371,0.029,78.394,0,0,0,270.4,0,0,0,0,0,0,1,1,11.22,FLYING
11.4,APPROACH,ILS_TRACK,87.75,76,-11.75,280.71,-7.65,1.04,5.79,270.42,0.002,0,-20,270.41,0,-1.42,-226.64,8.351,0.015,78.51,0,0,0,270.4,0,0,0,0,0,0,1,1,11.44,FLYING
11.6,APPROACH,ILS_TRACK,87.57,76,-11.57,279.23,-7.35,1.21,5.79,270.42,0.002,0,-20,270.42,0,-1.41,-227.17,8.333,0.022,76.722,0,0,0,270.4,0,0,0,0,0,0,1,1,11.64,FLYING
11.8,APPROACH,ILS_TRACK,87.39,76,-11.39,277.8,-7.07,1.37,5.78,270.42,0.001,0,-20,270.43,0,-1.4,-227.65,8.314,0.029,75.959,0,0,0,270.4,0,0,0,0,0,0,1,1,11.84,FLYING
12,APPROACH,ILS_TRACK,87.21,76,-11.21,276.42,-6.79,1.54,5.79,270.42,0.001,0,-20,270.43,0,-1.4,-228.08,8.296,0.031,75.218,0,0,0,270.4,0,0,0,0,0,0,1,1,12.04,FLYING
12.2,APPROACH,ILS_TRACK,87.02,76,-11.02,275.1,-6.53,1.7,5.79,270.42,0,0,-20,270.41,0,-1.39,-228.45,8.278,0.01,74.492,0,0,0,270.4,0,0,0,0,0,0,1,1,12.24,FLYING
12.42,APPROACH,ILS_TRACK,86.81,76,-10.81,273.71,-6.25,1.86,5.79,270.42,0.002,0,-20,270.42,0,-1.38,-228.8,8.258,0.019,74.271,0,0,0,270.4,0,0,0,0,0,0,1,1,12.46,FLYING
12.62,APPROACH,ILS_TRACK,86.62,76,-10.62,272.5,-6,2.01,5.79,270.42,0.003,0,-20,270.43,0,-1.38,-229.07,8.239,0.031,73.033,0,0,0,270.4,0,0,0,0,0,0,1,1,12.66,FLYING
12.82,APPROACH,ILS_TRACK,86.42,76,-10.42,271.33,-5.77,2.15,5.78,270.42,0.002,0,-20,270.42,0,-1.37,-229.29,8.221,0.018,72.37,0,0,0,270.4,0,0,0,0,0,0,1,1,12.86,FLYING
13.02,APPROACH,ILS_TRACK,86.22,76,-10.22,270.21,-5.54,2.28,5.79,270.42,0.002,0,-20,270.42,0,-1.36,-229.47,8.203,0.023,71.723,0,0,0,270.4,0,0,0,0,0,0,1,1,13.06,FLYING
13.22,APPROACH,ILS_TRACK,86.01,76,-10.01,269.14,-5.33,2.42,5.79,270.42,0.002,0,-20,270.42,0,-1.36,-229.61,8.185,0.02,71.098,0,0,0,270.4,0,0,0,0,0,0,1,1,13.26,FLYING
13.44,APPROACH,ILS_TRACK,85.78,76,-9.78,268,-5.1,2.56,5.8,270.42,0.003,0,-20,270.42,0,-1.35,-229.72,8.165,0.022,70.613,0,0,0,270.4,0,0,0,0,0,0,1,1,13.48,FLYING
13.64,APPROACH,ILS_TRACK,85.57,76,-9.57,267.01,-4.91,2.68,5.81,270.42,0.002,0,-20,270.42,0,-1.35,-229.78,8.147,0.024,69.84,0,0,0,270.4,0,0,0,0,0,0,1,1,13.68,FLYING
13.84,APPROACH,ILS_TRACK,85.35,76,-9.35,266.06,-4.72,2.8,5.82,270.42,0.002,0,-20,270.42,0,-1.34,-229.8,8.129,0.02,69.261,0,0,0,270.4,0,0,0,0,0,0,1,1,13.88,FLYING
14.04,APPROACH,ILS_TRACK,85.14,76,-9.14,265.14,-4.54,2.92,5.82,270.42,0.002,0,-20,270.43,0,-1.33,-229.78,8.111,0.027,68.706,0,0,0,270.4,0,0,0,0,0,0,1,1,14.08,FLYING
14.24,APPROACH,ILS_TRACK,84.92,76,-8.92,264.26,-4.37,3.04,5.84,270.42,0.003,0,-20,270.42,0,-1.33,-229.73,8.094,0.021,68.161,0,0,0,270.4,0,0,0,0,0,0,1,1,14.28,FLYING
14.46,APPROACH,ILS_TRACK,84.67,76,-8.67,263.33,-4.18,3.16,5.85,270.42,0.003,0,-20,270.41,0,-1.32,-229.64,8.074,0.014,67.468,0,0,0,270.4,0,0,0,0,0,0,1,1,14.5,FLYING
14.66,APPROACH,ILS_TRACK,84.45,76,-8.45,262.52,-4.02,3.28,5.87,270.42,0.003,0,-20,270.42,0,-1.31,-229.53,8.056,0.025,67.055,0,0,0,270.4,0,0,0,0,0,0,1,1,14.7,FLYING
14.86,APPROACH,ILS_TRACK,84.22,76,-8.22,261.74,-3.86,3.38,5.88,270.42,0.002,0,-20,270.42,0,-1.31,-229.39,8.039,0.02,66.543,0,0,0,270.4,0,0,0,0,0,0,1,1,14.9,FLYING
15.06,APPROACH,ILS_TRACK,83.99,76,-7.99,260.99,-3.72,3.48,5.89,270.42,0.001,0,-20,270.43,0,-1.3,-229.22,8.021,0.028,66.049,0,0,0,270.4,0,0,0,0,0,0,1,1,15.1,FLYING
15.26,APPROACH,ILS_TRACK,83.76,76,-7.76,260.27,-3.57,3.58,5.9,270.42,0.001,0,-20,270.42,0,-1.3,-229.02,8.003,0.018,65.568,0,0,0,270.4,0,0,0,0,0,0,1,1,15.3,FLYING
15.48,APPROACH,ILS_TRACK,83.5,76,-7.5,259.5,-3.43,3.68,5.92,270.42,0,0,-20,270.42,0,-1.29,-228.78,7.984,0.021,64.719,0,0,0,270.4,0,0,0,0,0,0,1,1,15.52,FLYING
15.68,APPROACH,ILS_TRACK,83.26,76,-7.26,258.84,-3.3,3.78,5.94,270.42,0.001,0,-20,270.42,0,-1.28,-228.53,7.966,0.016,64.594,0,0,0,270.4,0,0,0,0,0,0,1,1,15.72,FLYING
15.88,APPROACH,ILS_TRACK,83.02,76,-7.02,258.2,-3.17,3.87,5.96,270.42,0.001,0,-20,270.43,0,-1.28,-228.26,7.949,0.026,64.155,0,0,0,270.4,0,0,0,0,0,0,1,1,15.92,FLYING
16.08,APPROACH,ILS_TRACK,82.78,76,-6.78,257.58,-3.05,3.97,5.98,270.42,0,0,-20,270.42,0,-1.27,-227.97,7.932,0.02,63.713,0,0,0,270.4,0,0,0,0,0,0,1,1,16.12,FLYING
16.28,APPROACH,ILS_TRACK,82.54,76,-6.54,256.99,-2.94,4.06,5.99,270.42,0.001,0,-20,270.42,0,-1.27,-227.66,7.914,0.02,63.29,0,0,0,270.4,0,0,0,0,0,0,1,1,16.32,FLYING
16.5,APPROACH,ILS_TRACK,82.28,76,-6.28,256.37,-2.82,4.16,6.02,270.42,0.002,0,-20,270.41,0,-1.26,-227.29,7.895,0.013,62.303,0,0,0,270.4,0,0,0,0,0,0,1,1,16.54,FLYING
16.7,APPROACH,ILS_TRACK,82.03,76,-6.03,255.82,-2.71,4.24,6.04,270.42,0.003,0,-20,270.42,0,-1.25,-226.93,7.878,0.023,62.417,0,0,0,270.4,0,0,0,0,0,0,1,1,16.74,FLYING
16.9,APPROACH,ILS_TRACK,81.78,76,-5.78,255.29,-2.61,4.33,6.06,270.42,0.004,0,-20,270.42,0,-1.25,-226.56,7.861,0.018,62.011,0,0,0,270.4,0,0,0,0,0,0,1,1,16.94,FLYING
17.1,APPROACH,ILS_TRACK,81.54,76,-5.54,254.79,-2.51,4.41,6.09,270.42,0.004,0,-20,270.42,0,-1.24,-226.17,7.844,0.018,61.617,0,0,0,270.4,0,0,0,0,0,0,1,1,17.14,FLYING
17.3,APPROACH,ILS_TRACK,81.29,76,-5.29,254.3,-2.42,4.49,6.11,270.42,0.005,0,-20,270.42,0,-1.23,-225.77,7.826,0.021,61.23,0,0,0,270.4,0,0,0,0,0,0,1,1,17.34,FLYING
17.52,APPROACH,ILS_TRACK,81.01,76,-5.01,253.79,-2.32,4.58,6.14,270.42,0.004,0,-20,270.42,0,-1.23,-225.3,7.808,0.017,60.151,0,0,0,270.4,0,0,0,0,0,0,1,1,17.56,FLYING
17.72,APPROACH,ILS_TRACK,80.76,76,-4.76,253.34,-2.23,4.66,6.16,270.42,0.005,0,-20,270.42,0,-1.22,-224.86,7.791,0.015,60.442,0,0,0,270.4,0,0,0,0,0,0,1,1,17.76,FLYING
17.92,APPROACH,ILS_TRACK,80.51,76,-4.51,252.91,-2.15,4.73,6.19,270.42,0.005,0,-20,270.42,0,-1.21,-224.41,7.774,0.019,60.082,0,0,0,270.4,0,0,0,0,0,0,1,1,17.96,FLYING
18.12,APPROACH,ILS_TRACK,80.25,76,-4.25,252.49,-2.07,4.81,6.21,270.42,0.006,0,-20,270.42,0,-1.21,-223.94,7.757,0.019,59.729,0,0,0,270.4,0,0,0,0,0,0,1,1,18.16,FLYING
18.32,APPROACH,ILS_TRACK,80,76,-4,252.09,-1.99,4.88,6.24,270.42,0.005,0,-20,270.42,0,-1.2,-223.47,7.74,0.018,59.381,0,0,0,270.4,0,0,0,0,0,0,1,1,18.36,FLYING
18.54,APPROACH,ILS_TRACK,79.72,76,-3.72,251.67,-1.91,4.96,6.27,270.42,0.005,0,-20,270.41,0,-1.2,-222.93,7.722,0.012,58.233,0,0,0,270.4,0,0,0,0,0,0,1,1,18.58,FLYING
18.74,APPROACH,ILS_TRACK,79.46,76,-3.46,251.3,-1.85,5.03,6.3,270.42,0.006,0,-20,270.42,0,-1.19,-222.42,7.705,0.021,58.681,0,0,0,270.4,0,0,0,0,0,0,1,1,18.78,FLYING
18.94,APPROACH,ILS_TRACK,79.2,76,-3.2,250.94,-1.78,5.1,6.33,270.42,0.005,0,-20,270.42,0,-1.18,-221.91,7.688,0.018,58.351,0,0,0,270.4,0,0,0,0,0,0,1,1,18.98,FLYING
19.14,APPROACH,ILS_TRACK,78.94,76,-2.94,250.59,-1.72,5.18,6.36,270.42,0.006,0,-20,270.41,0,-1.18,-221.38,7.672,0.01,58.033,0,0,0,270.4,0,0,0,0,0,0,1,1,19.18,FLYING
19.34,APPROACH,ILS_TRACK,78.68,76,-2.68,250.26,-1.65,5.25,6.39,270.42,0.007,0,-20,270.42,0,-1.17,-220.85,7.655,0.019,57.717,0,0,0,270.4,0,0,0,0,0,0,1,1,19.38,FLYING
19.56,APPROACH,ILS_TRACK,78.39,76,-2.39,249.91,-1.59,5.32,6.42,270.42,0.007,0,-20,270.42,0,-1.17,-220.25,7.637,0.015,56.516,0,0,0,270.4,0,0,0,0,0,0,1,1,19.6,FLYING
19.76,APPROACH,ILS_TRACK,78.13,76,-2.13,249.6,-1.53,5.39,6.46,270.42,0.008,0,-20,270.42,0,-1.16,-219.7,7.62,0.016,57.069,0,0,0,270.4,0,0,0,0,0,0,1,1,19.8,FLYING
19.96,APPROACH,ILS_TRACK,77.87,76,-1.87,249.31,-1.48,5.46,6.49,270.42,0.009,0,-20,270.41,0,-1.15,-219.14,7.604,0.013,56.769,0,0,0,270.4,0,0,0,0,0,0,1,1,20,FLYING
20.16,APPROACH,ILS_TRACK,77.6,76,-1.6,249.02,-1.43,5.52,6.52,270.42,0.008,0,-20,270.42,0,-1.15,-218.57,7.588,0.018,56.474,0,0,0,270.4,0,0,0,0,0,0,1,1,20.2,FLYING
20.36,APPROACH,ILS_TRACK,77.34,76,-1.34,248.75,-1.37,5.59,6.56,270.42,0.008,0,-20,270.42,0,-1.14,-218,7.571,0.018,56.184,0,0,0,270.4,0,0,0,0,0,0,1,1,20.4,FLYING
20.58,APPROACH,ILS_TRACK,77.05,76,-1.05,248.46,-1.32,5.66,6.59,270.42,0.008,0,-20,270.4,0,-1.13,-217.35,7.553,0.003,54.94,0,0,0,270.4,0,0,0,0,0,0,1,1,20.62,FLYING
20.78,APPROACH,ILS_TRACK,76.78,76,-0.78,248.2,-1.28,5.73,6.63,270.42,0.01,0,-20,270.42,0,-1.13,-216.76,7.537,0.018,55.59,0,0,0,270.4,0,0,0,0,0,0,1,1,20.82,FLYING
20.98,APPROACH,ILS_TRACK,76.52,76,-0.52,247.95,-1.23,5.79,6.67,270.42,0.01,0,-20,270.41,0,-1.12,-216.17,7.521,0.012,55.314,0,0,0,270.4,0,0,0,0,0,0,1,1,21.02,FLYING
21.18,APPROACH,ILS_TRACK,76.25,76,-0.25,247.71,-1.19,5.86,6.7,270.42,0.01,0,-20,270.41,0,-1.11,-215.57,7.505,0.012,55.04,0,0,0,270.4,0,0,0,0,0,0,1,1,21.22,FLYING
21.38,APPROACH,ILS_TRACK,75.98,76,0.02,247.49,-1.15,5.92,6.74,270.42,0.01,0,-20,270.42,0,-1.11,-214.96,7.489,0.018,54.776,0,0,0,270.4,0,0,0,0,0,0,1,1,21.42,FLYING
21.6,APPROACH,ILS_TRACK,75.68,76,0.32,247.24,-1.11,5.99,6.78,270.42,0.01,0,-19.986,270.4,0,-1.1,-214.29,7.472,0.002,53.507,0,0,0,270.4,0,0,0,0,0,0,1,1,21.64,FLYING
21.8,APPROACH,ILS_TRACK,75.42,76,0.58,247.03,-1.07,6.05,6.82,270.42,0.012,0,-19.958,270.42,0,-1.1,-213.67,7.456,0.019,54.226,0,0,0,270.4,0,0,0,0,0,0,1,1,21.84,FLYING
22,APPROACH,ILS_TRACK,75.15,76,0.85,246.82,-1.04,6.11,6.86,270.42,0.013,0,-19.916,270.4,0,-1.09,-213.05,7.44,0.002,53.968,0,0,0,270.4,0,0,0,0,0,0,1,1,22.04,FLYING
22.2,APPROACH,ILS_TRACK,74.88,76,1.12,246.62,-1,6.18,6.9,270.42,0.013,0,-19.861,270.42,0,-1.08,-212.42,7.424,0.02,53.719,0,0,0,270.4,0,0,0,0,0,0,1,1,22.24,FLYING
22.4,APPROACH,ILS_TRACK,74.6,76,1.4,246.43,-0.97,6.24,6.94,270.42,0.013,0,-19.793,270.41,0,-1.08,-211.79,7.408,0.007,53.465,0,0,0,270.4,0,0,0,0,0,0,1,1,22.44,FLYING
22.62,APPROACH,ILS_TRACK,74.31,76,1.69,246.22,-0.93,6.31,6.99,270.42,0.013,0,-19.71,270.4,0,-1.07,-211.1,7.391,0.004,52.188,0,0,0,270.4,0,0,0,0,0,0,1,1,22.66,FLYING
22.82,APPROACH,ILS_TRACK,74.03,76,1.97,246.04,-0.9,6.37,7.03,270.42,0.013,0,-19.613,270.41,0,-1.06,-210.46,7.376,0.013,52.954,0,0,0,270.4,0,0,0,0,0,0,1,1,22.86,FLYING
23.02,APPROACH,ILS_TRACK,73.76,76,2.24,245.87,-0.88,6.43,7.08,270.42,0.014,0,-19.502,270.4,0,-1.05,-209.82,7.36,0.002,52.713,0,0,0,270.4,0,0,0,0,0,0,1,1,23.06,FLYING
23.22,APPROACH,ILS_TRACK,73.49,76,2.51,245.7,-0.85,6.5,7.12,270.42,0.015,0,-19.378,270.41,0,-1.05,-209.18,7.345,0.009,52.476,0,0,0,270.4,0,0,0,0,0,0,1,1,23.26,FLYING
23.42,APPROACH,ILS_TRACK,73.21,76,2.79,245.54,-0.82,6.56,7.17,270.42,0.016,0,-19.24,270.4,0,-1.04,-208.53,7.329,0.005,52.243,0,0,0,270.4,0,0,0,0,0,0,1,1,23.46,FLYING
23.64,APPROACH,ILS_TRACK,72.91,76,3.09,245.37,-0.79,6.63,7.22,270.42,0.017,0,-19.087,270.41,0,-1.03,-207.82,7.312,0.007,50.955,0,0,0,270.4,0,0,0,0,0,0,1,1,23.68,FLYING
23.84,APPROACH,ILS_TRACK,72.64,76,3.36,245.22,-0.77,6.69,7.26,270.42,0.017,0,-18.92,270.4,0,-1.03,-207.17,7.297,0.003,51.759,0,0,0,270.4,0,0,0,0,0,0,1,1,23.88,FLYING
24.04,APPROACH,ILS_TRACK,72.36,76,3.64,245.07,-0.74,6.75,7.31,270.43,0.019,0,-18.739,270.4,0,-1.02,-206.52,7.282,0.005,51.536,0,0,0,270.4,0,0,0,0,0,0,1,1,24.08,FLYING
24.24,APPROACH,ILS_TRACK,72.09,76,3.91,244.93,-0.72,6.81,7.35,270.43,0.02,0,-18.545,270.41,0,-1.01,-205.87,7.266,0.007,51.315,0,0,0,270.4,0,0,0,0,0,0,1,1,24.28,FLYING
24.44,APPROACH,ILS_TRACK,71.81,76,4.19,244.79,-0.7,6.87,7.41,270.43,0.02,0.0089,-18.337,270.4,0,-1,-205.21,7.251,0.003,51.096,0,0,0,270.4,0,0,0,0,0,0,1,1,24.48,FLYING
24.66,APPROACH,ILS_TRACK,71.5,76,4.5,244.64,-0.68,6.94,7.46,270.43,0.021,0.0283,-18.114,270.4,0,-1,-204.49,7.235,-0.001,49.815,0,0,0,270.4,0,0,0,0,0,0,1,1,24.7,FLYING
24.86,APPROACH,ILS_TRACK,71.23,76,4.77,244.51,-0.66,7,7.51,270.43,0.022,0.0464,-17.876,270.41,0,-0.99,-203.84,7.22,0.009,50.652,0,0,0,270.4,0,0,0,0,0,0,1,1,24.9,FLYING
25.06,APPROACH,ILS_TRACK,70.95,76,5.05,244.39,-0.64,7.06,7.56,270.43,0.021,0.0647,-17.625,270.4,0,-0.98,-203.18,7.205,-0.001,50.445,0,0,0,270.4,0,0,0,0,0,0,1,1,25.1,FLYING
25.26,APPROACH,ILS_TRACK,70.68,76,5.32,244.26,-0.63,7.13,7.61,270.43,0.022,0.083,-17.36,270.4,0,-0.97,-202.52,7.19,-0.002,50.242,0,0,0,270.4,0,0,0,0,0,0,1,1,25.3,FLYING
25.46,APPROACH,ILS_TRACK,70.4,76,5.6,244.14,-0.61,7.19,7.66,270.43,0.022,0.1015,-17.082,270.41,0,-0.97,-201.86,7.175,0.009,50.044,0,0,0,270.4,0,0,0,0,0,0,1,1,25.5,FLYING
25.68,APPROACH,ILS_TRACK,70.1,76,5.9,244.01,-0.59,7.25,7.71,270.43,0.022,0.1216,-16.788,270.39,0,-0.96,-201.14,7.159,-0.01,48.77,0,0,0,270.4,0,0,0,0,0,0,1,1,25.72,FLYING
25.88,APPROACH,ILS_TRACK,69.83,76,6.17,243.9,-0.58,7.31,7.77,270.43,0.023,0.1402,-16.481,270.4,0,-0.95,-200.48,7.144,-0.001,49.632,0,0,0,270.4,0,0,0,0,0,0,1,1,25.92,FLYING
26.08,APPROACH,ILS_TRACK,69.56,76,6.44,243.79,-0.57,7.37,7.82,270.43,0.024,0.1589,-16.16,270.39,0,-0.94,-199.83,7.129,-0.008,49.432,0,0,0,270.4,0,0,0,0,0,0,1,1,26.12,FLYING
26.28,APPROACH,ILS_TRACK,69.29,76,6.71,243.68,-0.56,7.43,7.87,270.43,0.025,0.1776,-15.826,270.4,0,-0.93,-199.17,7.115,-0.004,49.245,0,0,0,270.4,0,0,0,0,0,0,1,1,26.32,FLYING
26.48,APPROACH,ILS_TRACK,69.03,76,6.97,243.58,-0.54,7.49,7.92,270.43,0.026,0.1962,-15.479,270.4,0,-0.93,-198.51,7.1,0.003,49.052,0,0,0,270.4,0,0,0,0,0,0,1,1,26.52,FLYING
26.7,APPROACH,ILS_TRACK,68.74,76,7.26,243.46,-0.53,7.56,7.98,270.43,0.026,0.2163,-15.117,270.39,0,-0.92,-197.79,7.084,-0.01,47.801,0,0,0,270.4,0,0,0,0,0,0,1,1,26.74,FLYING
26.9,APPROACH,ILS_TRACK,68.49,76,7.51,243.36,-0.52,7.62,8.03,270.43,0.027,0.2349,-14.743,270.4,0,-0.91,-197.14,7.07,-0.005,48.653,0,0,0,270.4,0,0,0,0,0,0,1,1,26.94,FLYING
27.1,APPROACH,ILS_TRACK,68.24,76,7.76,243.26,-0.51,7.67,8.07,270.43,0.026,0.2534,-14.356,270.39,0,-0.9,-196.48,7.056,-0.012,48.475,0,0,0,270.4,0,0,0,0,0,0,1,1,27.14,FLYING
27.3,APPROACH,ILS_TRACK,67.99,76,8.01,243.17,-0.5,7.73,8.13,270.43,0.028,0.2718,-13.957,270.39,0,-0.89,-195.83,7.041,-0.009,48.285,0,0,0,270.4,0,0,0,0,0,0,1,1,27.34,FLYING
27.5,APPROACH,ILS_TRACK,67.75,76,8.25,243.07,-0.49,7.78,8.17,270.43,0.028,0.29,-13.545,270.39,0,-0.88,-195.18,7.027,-0.01,48.099,0,0,0,270.4,0,0,0,0,0,0,1,1,27.54,FLYING
27.72,APPROACH,ILS_TRACK,67.49,76,8.51,242.97,-0.48,7.84,8.22,270.43,0.029,0.3094,-13.121,270.39,0,-0.87,-194.46,7.011,-0.007,46.859,0,0,0,270.4,0,0,0,0,0,0,1,1,27.76,FLYING
27.92,APPROACH,ILS_TRACK,67.26,76,8.74,242.88,-0.47,7.89,8.27,270.43,0.03,0.3273,-12.685,270.39,0,-0.86,-193.81,6.997,-0.013,47.715,0,0,0,270.4,0,0,0,0,0,0,1,1,27.96,FLYING
28.12,APPROACH,ILS_TRACK,67.03,76,8.97,242.79,-0.46,7.94,8.31,270.43,0.031,0.3451,-12.237,270.38,0,-0.85,-193.16,6.983,-0.017,47.54,0,0,0,270.4,0,0,0,0,0,0,1,1,28.16,FLYING
28.32,APPROACH,ILS_TRACK,66.82,76,9.18,242.7,-0.45,7.99,8.36,270.44,0.03,0.3626,-11.779,270.38,0,-0.84,-192.51,6.969,-0.019,47.352,0,0,0,270.4,0,0,0,0,0,0,1,1,28.36,FLYING
28.52,APPROACH,ILS_TRACK,66.6,76,9.4,242.61,-0.45,8.04,8.4,270.44,0.03,0.3799,-11.311,270.39,0,-0.83,-191.86,6.955,-0.015,47.175,0,0,0,270.4,0,0,0,0,0,0,1,1,28.56,FLYING
28.74,APPROACH,ILS_TRACK,66.38,76,9.62,242.52,-0.44,8.09,8.45,270.44,0.03,0.398,-10.831,270.38,0,-0.82,-191.14,6.939,-0.025,45.94,0,0,0,270.4,0,0,0,0,0,0,1,1,28.78,FLYING
28.94,APPROACH,ILS_TRACK,66.18,76,9.82,242.43,-0.43,8.14,8.49,270.44,0.031,0.4148,-10.341,270.38,0,-0.81,-190.5,6.925,-0.017,46.794,0,0,0,270.4,0,0,0,0,0,0,1,1,28.98,FLYING
29.14,APPROACH,ILS_TRACK,65.99,76,10.01,242.35,-0.43,8.18,8.53,270.44,0.031,0.4312,-9.841,270.38,0,-0.8,-189.85,6.912,-0.017,46.614,0,0,0,270.4,0,0,0,0,0,0,1,1,29.18,FLYING
29.34,APPROACH,ILS_TRACK,65.81,76,10.19,242.27,-0.42,8.23,8.57,270.44,0.034,0.4474,-9.333,270.38,0,-0.79,-189.2,6.898,-0.016,46.428,0,0,0,270.4,0,0,0,0,0,0,1,1,29.38,FLYING
29.54,APPROACH,ILS_TRACK,65.64,76,10.36,242.19,-0.41,8.27,8.61,270.44,0.034,0.4633,-8.816,270.37,0,-0.78,-188.56,6.884,-0.029,46.248,0,0,0,270.4,0,0,0,0,0,0,1,1,29.58,FLYING
29.76,APPROACH,ILS_TRACK,65.45,76,10.55,242.1,-0.4,8.31,8.65,270.44,0.034,0.4797,-8.289,270.37,0,-0.77,-187.85,6.869,-0.027,45.011,0,0,0,270.4,0,0,0,0,0,0,1,1,29.8,FLYING
29.96,APPROACH,ILS_TRACK,65.3,76,10.7,242.03,-0.4,8.35,8.68,270.44,0.035,0.4948,-7.755,270.38,0,-0.76,-187.21,6.855,-0.024,45.858,0,0,0,270.4,0,0,0,0,0,0,1,1,30,FLYING
30.16,APPROACH,ILS_TRACK,65.15,76,10.85,241.95,-0.39,8.39,8.71,270.44,0.036,0.5096,-7.213,270.38,0,-0.75,-186.56,6.841,-0.024,45.676,0,0,0,270.4,0,0,0,0,0,0,1,1,30.2,FLYING
30.36,APPROACH,ILS_TRACK,65.01,76,10.99,241.87,-0.38,8.42,8.74,270.44,0.037,0.524,-6.664,270.37,0,-0.74,-185.92,6.827,-0.029,45.483,0,0,0,270.4,0,0,0,0,0,0,1,1,30.4,FLYING
30.56,APPROACH,ILS_TRACK,64.87,76,11.13,241.8,-0.38,8.45,8.77,270.44,0.037,0.5379,-6.108,270.38,0,-0.72,-185.28,6.814,-0.024,45.301,0,0,0,270.4,0,0,0,0,0,0,1,1,30.6,FLYING
30.78,APPROACH,ILS_TRACK,64.74,76,11.26,241.72,-0.37,8.49,8.8,270.44,0.038,0.5522,-5.545,270.36,0,-0.71,-184.57,6.799,-0.041,44.059,0,0,0,270.4,0,0,0,0,0,0,1,1,30.82,FLYING
30.98,APPROACH,ILS_TRACK,64.62,76,11.38,241.65,-0.36,8.51,8.82,270.45,0.039,0.5653,-4.977,270.37,0,-0.7,-183.93,6.785,-0.034,44.898,0,0,0,270.4,0,0,0,0,0,0,1,1,31.02,FLYING
31.18,APPROACH,ILS_TRACK,64.52,76,11.48,241.58,-0.36,8.54,8.84,270.45,0.039,0.578,-4.404,270.37,0,-0.69,-183.29,6.771,-0.033,44.71,0,0,0,270.4,0,0,0,0,0,0,1,1,31.22,FLYING
31.38,APPROACH,ILS_TRACK,64.43,76,11.57,241.51,-0.35,8.56,8.86,270.45,0.038,0.5902,-3.826,270.37,0,-0.67,-182.64,6.758,-0.034,44.51,0,0,0,270.4,0,0,0,0,0,0,1,1,31.42,FLYING
31.58,APPROACH,ILS_TRACK,64.34,76,11.66,241.44,-0.35,8.58,8.87,270.45,0.039,0.602,-3.243,270.36,0,-0.66,-182,6.744,-0.038,44.32,0,0,0,270.4,0,0,0,0,0,0,1,1,31.62,FLYING
31.8,APPROACH,ILS_TRACK,64.26,76,11.74,241.37,-0.34,8.6,8.89,270.45,0.04,0.6137,-2.656,270.36,0,-0.65,-181.29,6.729,-0.039,43.072,0,0,0,270.4,0,0,0,0,0,0,1,1,31.84,FLYING
32,APPROACH,ILS_TRACK,64.19,76,11.81,241.3,-0.33,8.62,8.9,270.45,0.04,0.6244,-2.066,270.36,0,-0.64,-180.65,6.716,-0.038,43.905,0,0,0,270.4,0,0,0,0,0,0,1,1,32.04,FLYING
32.2,APPROACH,ILS_TRACK,64.13,76,11.87,241.24,-0.33,8.63,8.91,270.45,0.041,0.6347,-1.473,270.36,0,-0.62,-180.01,6.702,-0.039,43.703,0,0,0,270.4,0,0,0,0,0,0,1,1,32.24,FLYING
32.4,APPROACH,ILS_TRACK,64.09,76,11.91,241.17,-0.32,8.64,8.91,270.45,0.043,0.6445,-0.877,270.36,0,-0.61,-179.36,6.689,-0.039,43.5,0,0,0,270.4,0,0,0,0,0,0,1,1,32.44,FLYING
32.6,APPROACH,ILS_TRACK,64.05,76,11.95,241.11,-0.31,8.65,8.92,270.45,0.043,0.6538,-0.28,270.36,0,-0.6,-178.72,6.675,-0.043,43.296,0,0,0,270.4,0,0,0,0,0,0,1,1,32.64,FLYING
32.82,APPROACH,ILS_TRACK,64.02,76,11.98,241.04,-0.31,8.66,8.92,270.45,0.045,0.6627,0.319,270.35,0,-0.58,-178.01,6.66,-0.048,42.036,0,0,0,270.4,0,0,0,0,0,0,1,1,32.86,FLYING
33.02,APPROACH,ILS_TRACK,64,76,12,240.98,-0.3,8.66,8.92,270.45,0.046,0.6709,0.919,270.35,0,-0.57,-177.36,6.647,-0.048,42.862,0,0,0,270.4,0,0,0,0,0,0,1,1,33.06,FLYING
33.22,APPROACH,ILS_TRACK,63.99,76,12.01,240.92,-0.29,8.67,8.92,270.45,0.046,0.6785,1.519,270.36,0,-0.56,-176.71,6.633,-0.044,42.65,0,0,0,270.4,0,0,0,0,0,0,1,1,33.26,FLYING
33.42,APPROACH,ILS_TRACK,64,76,12,240.86,-0.29,8.67,8.91,270.45,0.046,0.6857,2.12,270.35,0,-0.54,-176.06,6.62,-0.051,42.437,0,0,0,270.4,0,0,0,0,0,0,1,1,33.46,FLYING
33.62,APPROACH,ILS_TRACK,64.01,76,11.99,240.81,-0.28,8.66,8.9,270.45,0.048,0.6923,2.719,270.36,0,-0.53,-175.41,6.607,-0.045,42.223,0,0,0,270.4,0,0,0,0,0,0,1,1,33.66,FLYING
33.84,APPROACH,ILS_TRACK,64.03,76,11.97,240.75,-0.27,8.66,8.89,270.45,0.048,0.6982,3.318,270.34,0,-0.51,-174.7,6.592,-0.055,40.943,0,0,0,270.4,0,0,0,0,0,0,1,1,33.88,FLYING
34.04,APPROACH,ILS_TRACK,64.06,76,11.94,240.69,-0.27,8.65,8.88,270.45,0.048,0.7036,3.915,270.35,0,-0.5,-174.04,6.578,-0.05,41.763,0,0,0,270.4,0,0,0,0,0,0,1,1,34.08,FLYING
34.24,APPROACH,ILS_TRACK,64.11,76,11.89,240.64,-0.26,8.64,8.86,270.45,0.048,0.7086,4.51,270.35,0,-0.49,-173.39,6.565,-0.046,41.543,0,0,0,270.4,0,0,0,0,0,0,1,1,34.28,FLYING
34.44,APPROACH,ILS_TRACK,64.16,76,11.84,240.59,-0.25,8.63,8.84,270.45,0.048,0.7129,5.102,270.34,0,-0.47,-172.73,6.551,-0.059,41.316,0,0,0,270.4,0,0,0,0,0,0,1,1,34.48,FLYING
34.64,APPROACH,ILS_TRACK,64.22,76,11.78,240.53,-0.25,8.61,8.82,270.45,0.048,0.7167,5.692,270.35,0,-0.46,-172.07,6.538,-0.049,41.09,0,0,0,270.4,0,0,0,0,0,0,1,1,34.68,FLYING
34.86,APPROACH,ILS_TRACK,64.29,76,11.71,240.48,-0.24,8.59,8.8,270.45,0.049,0.7196,6.277,270.34,0,-0.44,-171.35,6.523,-0.061,39.784,0,0,0,270.4,0,0,0,0,0,0,1,1,34.9,FLYING
35.06,APPROACH,ILS_TRACK,64.37,76,11.63,240.43,-0.23,8.57,8.77,270.45,0.049,0.7222,6.859,270.34,0,-0.43,-170.69,6.509,-0.058,40.605,0,0,0,270.4,0,0,0,0,0,0,1,1,35.1,FLYING
35.26,APPROACH,ILS_TRACK,64.46,76,11.54,240.38,-0.23,8.55,8.74,270.46,0.049,0.7243,7.436,270.34,0,-0.41,-170.02,6.496,-0.057,40.371,0,0,0,270.4,0,0,0,0,0,0,1,1,35.3,FLYING
35.46,APPROACH,ILS_TRACK,64.56,76,11.44,240.34,-0.22,8.53,8.72,270.46,0.05,0.7259,8.009,270.34,0,-0.4,-169.35,6.482,-0.06,40.135,0,0,0,270.4,0,0,0,0,0,0,1,1,35.5,FLYING
35.66,APPROACH,ILS_TRACK,64.67,76,11.33,240.29,-0.21,8.51,8.68,270.46,0.05,0.7269,8.576,270.35,0,-0.38,-168.68,6.468,-0.054,39.895,0,0,0,270.4,0,0,0,0,0,0,1,1,35.7,FLYING
35.88,APPROACH,ILS_TRACK,64.79,76,11.21,240.25,-0.21,8.48,8.65,270.46,0.051,0.7267,9.137,270.33,0,-0.36,-167.95,6.453,-0.069,38.556,0,0,0,270.4,0,0,0,0,0,0,1,1,35.92,FLYING
36.08,APPROACH,ILS_TRACK,64.92,76,11.08,240.2,-0.2,8.45,8.62,270.46,0.051,0.7265,9.692,270.34,0,-0.35,-167.27,6.44,-0.062,39.384,0,0,0,270.4,0,0,0,0,0,0,1,1,36.12,FLYING
36.28,APPROACH,ILS_TRACK,65.05,76,10.95,240.16,-0.19,8.42,8.58,270.46,0.051,0.7259,10.24,270.34,0,-0.33,-166.59,6.426,-0.062,39.138,0,0,0,270.4,0,0,0,0,0,0,1,1,36.32,FLYING
36.48,APPROACH,ILS_TRACK,65.19,76,10.81,240.12,-0.18,8.39,8.54,270.46,0.053,0.7247,10.781,270.33,0,-0.32,-165.91,6.412,-0.07,38.888,0,0,0,270.4,0,0,0,0,0,0,1,1,36.52,FLYING
36.68,APPROACH,ILS_TRACK,65.34,76,10.66,240.09,-0.18,8.36,8.5,270.46,0.054,0.723,11.315,270.34,0,-0.3,-165.23,6.398,-0.059,38.637,0,0,0,270.4,0,0,0,0,0,0,1,1,36.72,FLYING
36.9,APPROACH,ILS_TRACK,65.51,76,10.49,240.04,-0.17,8.32,8.46,270.46,0.054,0.7198,11.84,270.33,0,-0.29,-164.47,6.383,-0.068,37.264,0,0,0,270.4,0,0,0,0,0,0,1,1,36.94,FLYING
37.1,APPROACH,ILS_TRACK,65.68,76,10.32,240.01,-0.16,8.28,8.42,270.46,0.054,0.7171,12.357,270.32,0,-0.27,-163.78,6.369,-0.077,38.099,0,0,0,270.4,0,0,0,0,0,0,1,1,37.14,FLYING
37.3,APPROACH,ILS_TRACK,65.85,76,10.15,239.98,-0.16,8.25,8.37,270.46,0.055,0.7138,12.866,270.33,0,-0.25,-163.09,6.355,-0.067,37.842,0,0,0,270.4,0,0,0,0,0,0,1,1,37.34,FLYING
37.5,APPROACH,ILS_TRACK,66.03,76,9.97,239.94,-0.15,8.21,8.33,270.46,0.056,0.71,13.365,270.33,0,-0.24,-162.4,6.342,-0.067,37.582,0,0,0,270.4,0,0,0,0,0,0,1,1,37.54,FLYING
37.7,APPROACH,ILS_TRACK,66.21,76,9.79,239.91,-0.14,8.17,8.29,270.46,0.056,0.7057,13.856,270.33,0,-0.22,-161.7,6.328,-0.075,37.315,0,0,0,270.4,0,0,0,0,0,0,1,1,37.74,FLYING
37.92,APPROACH,ILS_TRACK,66.42,76,9.58,239.88,-0.13,8.13,8.24,270.46,0.057,0.6998,14.336,270.32,0,-0.21,-160.92,6.312,-0.078,35.903,0,0,0,270.4,0,0,0,0,0,0,1,1,37.96,FLYING
38.12,APPROACH,ILS_TRACK,66.62,76,9.38,239.85,-0.13,8.09,8.19,270.46,0.058,0.6946,14.806,270.33,0,-0.19,-160.22,6.298,-0.074,36.755,0,0,0,270.4,0,0,0,0,0,0,1,1,38.16,FLYING
38.32,APPROACH,ILS_TRACK,66.83,76,9.17,239.82,-0.12,8.04,8.14,270.46,0.057,0.6888,15.265,270.33,0,-0.17,-159.51,6.284,-0.07,36.485,0,0,0,270.4,0,0,0,0,0,0,1,1,38.36,FLYING
38.52,APPROACH,ILS_TRACK,67.04,76,8.96,239.8,-0.11,8,8.09,270.46,0.057,0.6827,15.714,270.33,0,-0.16,-158.79,6.27,-0.073,36.212,0,0,0,270.4,0,0,0,0,0,0,1,1,38.56,FLYING
38.72,APPROACH,ILS_TRACK,67.25,76,8.75,239.77,-0.11,7.96,8.05,270.46,0.057,0.6761,16.153,270.33,0,-0.14,-158.07,6.256,-0.074,35.938,0,0,0,270.4,0,0,0,0,0,0,1,1,38.76,FLYING
38.94,APPROACH,ILS_TRACK,67.5,76,8.5,239.75,-0.1,7.91,7.99,270.46,0.057,0.6678,16.579,270.31,0,-0.12,-157.28,6.24,-0.089,34.479,0,0,0,270.4,0,0,0,0,0,0,1,1,38.98,FLYING
39.14,APPROACH,ILS_TRACK,67.72,76,8.28,239.73,-0.09,7.87,7.94,270.46,0.058,0.6603,16.994,270.33,0,-0.11,-156.55,6.226,-0.071,35.351,0,0,0,270.4,0,0,0,0,0,0,1,1,39.18,FLYING
39.34,APPROACH,ILS_TRACK,67.96,76,8.04,239.71,-0.08,7.83,7.89,270.46,0.059,0.6525,17.397,270.33,0,-0.09,-155.82,6.212,-0.073,35.072,0,0,0,270.4,0,0,0,0,0,0,1,1,39.38,FLYING
39.54,APPROACH,ILS_TRACK,68.19,76,7.81,239.69,-0.08,7.78,7.84,270.46,0.058,0.6442,17.789,270.32,0,-0.08,-155.09,6.197,-0.078,34.785,0,0,0,270.4,0,0,0,0,0,0,1,1,39.58,FLYING
39.74,APPROACH,ILS_TRACK,68.43,76,7.57,239.67,-0.07,7.74,7.79,270.46,0.059,0.6357,18.169,270.32,0,-0.06,-154.35,6.183,-0.077,34.5,0,0,0,270.4,0,0,0,0,0,0,1,1,39.78,FLYING
39.96,APPROACH,ILS_TRACK,68.7,76,7.3,239.65,-0.06,7.69,7.74,270.46,0.057,0.6254,18.535,270.31,0,-0.04,-153.54,6.167,-0.092,32.996,0,0,0,270.4,0,0,0,0,0,0,1,1,40,FLYING
40.16,APPROACH,ILS_TRACK,68.94,76,7.06,239.64,-0.05,7.65,7.69,270.46,0.058,0.6161,18.889,270.32,0,-0.03,-152.79,6.152,-0.075,33.892,0,0,0,270.4,0,0,0,0,0,0,1,1,40.2,FLYING
40.36,APPROACH,ILS_TRACK,69.19,76,6.81,239.63,-0.05,7.6,7.64,270.45,0.058,0.6065,19.231,270.32,0,-0.01,-152.04,6.138,-0.078,33.599,0,0,0,270.4,0,0,0,0,0,0,1,1,40.4,FLYING
40.56,APPROACH,ILS_TRACK,69.44,76,6.56,239.61,-0.04,7.56,7.59,270.45,0.058,0.5966,19.56,270.32,0,0.01,-151.28,6.123,-0.081,33.305,0,0,0,270.4,0,0,0,0,0,0,1,1,40.6,FLYING
40.76,APPROACH,ILS_TRACK,69.7,76,6.3,239.6,-0.03,7.52,7.54,270.45,0.058,0.5865,19.876,270.32,0,0.02,-150.52,6.108,-0.078,33.008,0,0,0,270.4,0,0,0,0,0,0,1,1,40.8,FLYING
40.98,APPROACH,ILS_TRACK,69.98,76,6.02,239.6,-0.02,7.47,7.49,270.45,0.058,0.5725,20,270.32,0,0.04,-149.68,6.092,-0.085,31.465,0,0,0,270.4,0,0,0,0,0,0,1,1,41.02,FLYING
41.18,APPROACH,ILS_TRACK,70.24,76,5.76,239.59,-0.02,7.43,7.44,270.45,0.059,0.5583,20,270.32,0,0.05,-148.92,6.077,-0.081,32.382,0,0,0,270.4,0,0,0,0,0,0,1,1,41.22,FLYING
41.38,APPROACH,ILS_TRACK,70.5,76,5.5,239.58,-0.01,7.38,7.39,270.45,0.058,0.5441,20,270.32,0,0.07,-148.14,6.063,-0.076,32.082,0,0,0,270.4,0,0,0,0,0,0,1,1,41.42,FLYING
41.58,APPROACH,ILS_TRACK,70.76,76,5.24,239.58,0,7.34,7.34,270.45,0.059,0.5297,20,270.32,0,0.08,-147.37,6.048,-0.084,31.779,0,0,0,270.4,0,0,0,0,0,0,1,1,41.62,FLYING
41.78,APPROACH,ILS_TRACK,71.02,76,4.98,239.58,0.01,7.3,7.29,270.45,0.058,0.5154,20,270.32,0,0.1,-146.59,6.033,-0.082,31.475,0,0,0,270.4,0,0,0,0,0,0,1,1,41.82,FLYING
42,APPROACH,ILS_TRACK,71.31,76,4.69,239.58,0.01,7.25,7.24,270.45,0.058,0.4996,20,270.31,0,0.12,-145.72,6.016,-0.087,29.885,0,0,0,270.4,0,0,0,0,0,0,1,1,42.04,FLYING
42.2,APPROACH,ILS_TRACK,71.57,76,4.43,239.58,0.02,7.21,7.2,270.45,0.058,0.4853,20,270.32,0,0.13,-144.93,6.001,-0.081,30.833,0,0,0,270.4,0,0,0,0,0,0,1,1,42.24,FLYING
42.4,APPROACH,ILS_TRACK,71.83,76,4.17,239.58,0.03,7.18,7.15,270.45,0.058,0.471,20,270.32,0,0.15,-144.14,5.986,-0.078,30.527,0,0,0,270.4,0,0,0,0,0,0,1,1,42.44,FLYING
42.6,APPROACH,ILS_TRACK,72.08,76,3.92,239.59,0.03,7.14,7.11,270.45,0.058,0.457,20,270.32,0,0.16,-143.34,5.971,-0.079,30.219,0,0,0,270.4,0,0,0,0,0,0,1,1,42.64,FLYING
42.8,APPROACH,ILS_TRACK,72.33,76,3.67,239.59,0.04,7.1,7.07,270.45,0.058,0.4431,20,270.32,0,0.17,-142.53,5.956,-0.081,29.91,0,0,0,270.4,0,0,0,0,0,0,1,1,42.84,FLYING
43.02,APPROACH,ILS_TRACK,72.6,76,3.4,239.6,0.05,7.06,7.03,270.45,0.058,0.4282,20,270.32,0,0.19,-141.65,5.939,-0.081,28.284,0,0,0,270.4,0,0,0,0,0,0,1,1,43.06,FLYING
43.22,APPROACH,ILS_TRACK,72.84,76,3.16,239.61,0.05,7.03,6.99,270.45,0.058,0.415,20,270.32,0,0.2,-140.83,5.924,-0.08,29.267,0,0,0,270.4,0,0,0,0,0,0,1,1,43.26,FLYING
43.42,APPROACH,ILS_TRACK,73.07,76,2.93,239.62,0.06,7,6.95,270.44,0.058,0.4021,20,270.32,0,0.22,-140.02,5.908,-0.083,28.959,0,0,0,270.4,0,0,0,0,0,0,1,1,43.46,FLYING
43.62,APPROACH,ILS_TRACK,73.3,76,2.7,239.63,0.07,6.96,6.92,270.44,0.057,0.3897,20,270.32,0,0.23,-139.2,5.893,-0.078,28.654,0,0,0,270.4,0,0,0,0,0,0,1,1,43.66,FLYING
43.82,APPROACH,ILS_TRACK,73.52,76,2.48,239.64,0.07,6.94,6.88,270.44,0.058,0.3778,20,270.33,0,0.24,-138.38,5.877,-0.073,28.35,0,0,0,270.4,0,0,0,0,0,0,1,1,43.86,FLYING
44.04,APPROACH,ILS_TRACK,73.74,76,2.26,239.65,0.08,6.91,6.85,270.44,0.057,0.3652,20,270.31,0,0.26,-137.47,5.86,-0.087,26.698,0,0,0,270.4,0,0,0,0,0,0,1,1,44.08,FLYING
44.24,APPROACH,ILS_TRACK,73.94,76,2.06,239.67,0.08,6.88,6.82,270.44,0.058,0.3543,20,270.33,0,0.27,-136.64,5.845,-0.071,27.717,0,0,0,270.4,0,0,0,0,0,0,1,1,44.28,FLYING
44.44,APPROACH,ILS_TRACK,74.13,76,1.87,239.68,0.09,6.86,6.79,270.44,0.058,0.3439,20,270.32,0,0.29,-135.81,5.829,-0.083,27.413,0,0,0,270.4,0,0,0,0,0,0,1,1,44.48,FLYING
44.64,APPROACH,ILS_TRACK,74.31,76,1.69,239.7,0.09,6.83,6.77,270.44,0.058,0.334,20,270.33,0,0.3,-134.97,5.813,-0.071,27.118,0,0,0,270.4,0,0,0,0,0,0,1,1,44.68,FLYING
44.84,APPROACH,ILS_TRACK,74.48,76,1.52,239.72,0.1,6.81,6.74,270.44,0.057,0.3247,20,270.32,0,0.31,-134.13,5.798,-0.079,26.82,0,0,0,270.4,0,0,0,0,0,0,1,1,44.88,FLYING
45.06,APPROACH,ILS_TRACK,74.65,76,1.35,239.74,0.1,6.79,6.72,270.44,0.056,0.3151,20,270.32,0,0.32,-133.21,5.78,-0.079,25.153,0,0,0,270.4,0,0,0,0,0,0,1,1,45.1,FLYING
45.26,APPROACH,ILS_TRACK,74.8,76,1.2,239.76,0.1,6.77,6.7,270.44,0.056,0.307,20,270.33,0,0.34,-132.36,5.765,-0.073,26.205,0,0,0,270.4,0,0,0,0,0,0,1,1,45.3,FLYING
45.46,APPROACH,ILS_TRACK,74.93,76,1.07,239.78,0.11,6.75,6.68,270.44,0.055,0.2994,20,270.33,0,0.35,-131.52,5.749,-0.071,25.914,0,0,0,270.4,0,0,0,0,0,0,1,1,45.5,FLYING
45.66,APPROACH,ILS_TRACK,75.06,76,0.94,239.8,0.11,6.74,6.66,270.44,0.055,0.2923,20,270.34,0,0.36,-130.67,5.733,-0.064,25.626,0,0,0,270.4,0,0,0,0,0,0,1,1,45.7,FLYING
45.86,APPROACH,ILS_TRACK,75.18,76,0.82,239.82,0.11,6.72,6.64,270.43,0.055,0.2858,20,270.32,0,0.37,-129.82,5.717,-0.076,25.339,0,0,0,270.4,0,0,0,0,0,0,1,1,45.9,FLYING
46.08,APPROACH,ILS_TRACK,75.3,76,0.7,239.84,0.11,6.71,6.63,270.43,0.056,0.2792,20,270.33,0,0.38,-128.88,5.7,-0.074,23.665,0,0,0,270.4,0,0,0,0,0,0,1,1,46.12,FLYING
46.28,APPROACH,ILS_TRACK,75.4,76,0.6,239.86,0.12,6.7,6.62,270.43,0.055,0.2737,20,270.33,0,0.39,-128.02,5.684,-0.07,24.743,0,0,0,270.4,0,0,0,0,0,0,1,1,46.32,FLYING
46.48,APPROACH,ILS_TRACK,75.49,76,0.51,239.89,0.12,6.69,6.6,270.43,0.056,0.2688,20,270.33,0,0.4,-127.17,5.668,-0.068,24.464,0,0,0,270.4,0,0,0,0,0,0,1,1,46.52,FLYING
46.68,APPROACH,ILS_TRACK,75.57,76,0.43,239.91,0.12,6.68,6.59,270.43,0.054,0.2643,20,270.33,0,0.41,-126.31,5.652,-0.07,24.185,0,0,0,270.4,0,0,0,0,0,0,1,1,46.72,FLYING
46.88,APPROACH,ILS_TRACK,75.64,76,0.36,239.93,0.12,6.67,6.58,270.43,0.054,0.2603,20,270.33,0,0.42,-125.45,5.636,-0.066,23.906,0,0,0,270.4,0,0,0,0,0,0,1,1,46.92,FLYING
47.1,APPROACH,ILS_TRACK,75.71,76,0.29,239.96,0.12,6.67,6.58,270.43,0.054,0.2564,20,270.33,0,0.43,-124.51,5.619,-0.069,22.231,0,0,0,270.4,0,0,0,0,0,0,1,1,47.14,FLYING
47.3,APPROACH,ILS_TRACK,75.76,76,0.24,239.99,0.13,6.66,6.57,270.43,0.053,0.2533,20,270.34,0,0.44,-123.65,5.603,-0.065,23.33,0,0,0,270.4,0,0,0,0,0,0,1,1,47.34,FLYING
47.5,APPROACH,ILS_TRACK,75.81,76,0.19,240.01,0.13,6.65,6.56,270.43,0.053,0.2506,20,270.33,0,0.45,-122.79,5.587,-0.066,23.059,0,0,0,270.4,0,0,0,0,0,0,1,1,47.54,FLYING
47.7,APPROACH,ILS_TRACK,75.85,76,0.15,240.04,0.13,6.65,6.56,270.43,0.052,0.2483,20,270.34,0,0.46,-121.93,5.571,-0.062,22.789,0,0,0,270.4,0,0,0,0,0,0,1,1,47.74,FLYING
47.9,APPROACH,ILS_TRACK,75.89,76,0.11,240.06,0.13,6.65,6.55,270.42,0.052,0.2464,20,270.34,0,0.47,-121.06,5.555,-0.062,22.52,0,0,0,270.4,0,0,0,0,0,0,1,1,47.94,FLYING
48.12,APPROACH,ILS_TRACK,75.92,76,0.08,240.09,0.13,6.64,6.55,270.42,0.052,0.2446,20,270.34,0,0.48,-120.11,5.537,-0.063,20.846,0,0,0,270.4,0,0,0,0,0,0,1,1,48.16,FLYING
48.32,APPROACH,ILS_TRACK,75.94,76,0.06,240.12,0.13,6.64,6.55,270.42,0.052,0.2434,20,270.34,0,0.49,-119.25,5.521,-0.06,21.96,0,0,0,270.4,0,0,0,0,0,0,1,1,48.36,FLYING
48.52,APPROACH,ILS_TRACK,75.96,76,0.04,240.14,0.13,6.64,6.55,270.42,0.051,0.2424,20,270.34,0,0.5,-118.39,5.505,-0.061,21.695,0,0,0,270.4,0,0,0,0,0,0,1,1,48.56,FLYING
48.72,APPROACH,ILS_TRACK,75.97,76,0.03,240.17,0.13,6.64,6.55,270.42,0.05,0.2417,20,270.34,0,0.5,-117.52,5.489,-0.062,21.431,0,0,0,270.4,0,0,0,0,0,0,1,1,48.76,FLYING
48.92,APPROACH,ILS_TRACK,75.98,76,0.02,240.19,0.13,6.64,6.55,270.42,0.05,0.2413,20,270.35,0,0.51,-116.66,5.473,-0.053,21.168,0,0,0,270.4,0,0,0,0,0,0,1,1,48.96,FLYING
49.14,APPROACH,ILS_TRACK,75.98,76,0.02,240.22,0.13,6.64,6.55,270.42,0.048,0.2411,20,270.34,0,0.52,-115.71,5.456,-0.065,19.499,0,0,0,270.4,0,0,0,0,0,0,1,1,49.18,FLYING
49.34,APPROACH,ILS_TRACK,75.98,76,0.02,240.25,0.13,6.64,6.55,270.42,0.048,0.2411,20,270.35,0,0.53,-114.84,5.44,-0.054,20.62,0,0,0,270.4,0,0,0,0,0,0,1,1,49.38,FLYING
49.54,APPROACH,ILS_TRACK,75.97,76,0.03,240.28,0.13,6.64,6.55,270.42,0.047,0.2414,20,270.35,0,0.53,-113.98,5.424,-0.05,20.363,0,0,0,270.4,0,0,0,0,0,0,1,1,49.58,FLYING
49.74,APPROACH,ILS_TRACK,75.97,76,0.03,240.3,0.13,6.65,6.55,270.42,0.046,0.2418,20,270.35,0,0.54,-113.11,5.408,-0.052,20.102,0,0,0,270.4,0,0,0,0,0,0,1,1,49.78,FLYING
49.94,APPROACH,ILS_TRACK,75.96,76,0.04,240.33,0.13,6.65,6.55,270.42,0.045,0.2423,20,270.34,0,0.54,-112.25,5.392,-0.056,19.844,0,0,0,270.4,0,0,0,0,0,0,1,1,49.98,FLYING
50.16,APPROACH,ILS_TRACK,75.94,76,0.06,240.36,0.13,6.65,6.56,270.42,0.044,0.2431,20,270.35,0,0.55,-111.3,5.374,-0.053,18.18,0,0,0,270.4,0,0,0,0,0,0,1,1,50.2,FLYING
50.36,APPROACH,ILS_TRACK,75.93,76,0.07,240.39,0.13,6.65,6.56,270.42,0.044,0.244,20,270.35,0,0.56,-110.44,5.358,-0.052,19.305,0,0,0,270.4,0,0,0,0,0,0,1,1,50.4,FLYING
50.56,APPROACH,ILS_TRACK,75.91,76,0.09,240.41,0.13,6.66,6.56,270.41,0.044,0.2449,20,270.35,0,0.56,-109.57,5.342,-0.052,19.049,0,0,0,270.4,0,0,0,0,0,0,1,1,50.6,FLYING
50.76,APPROACH,ILS_TRACK,75.89,76,0.11,240.44,0.13,6.66,6.57,270.41,0.043,0.246,20,270.35,0,0.57,-108.71,5.326,-0.05,18.793,0,0,0,270.4,0,0,0,0,0,0,1,1,50.8,FLYING
50.96,APPROACH,ILS_TRACK,75.87,76,0.13,240.46,0.13,6.66,6.57,270.41,0.042,0.2471,20,270.35,0,0.57,-107.84,5.31,-0.048,18.538,0,0,0,270.4,0,0,0,0,0,0,1,1,51,FLYING
51.18,APPROACH,ILS_TRACK,75.85,76,0.15,240.49,0.13,6.67,6.57,270.41,0.042,0.2484,20,270.35,0,0.58,-106.89,5.293,-0.051,16.876,0,0,0,270.4,0,0,0,0,0,0,1,1,51.22,FLYING
51.38,APPROACH,ILS_TRACK,75.82,76,0.18,240.52,0.13,6.67,6.58,270.41,0.04,0.2496,20,270.35,0,0.58,-106.03,5.277,-0.05,18.004,0,0,0,270.4,0,0,0,0,0,0,1,1,51.42,FLYING
51.58,APPROACH,ILS_TRACK,75.8,76,0.2,240.55,0.13,6.67,6.58,270.41,0.038,0.2509,20,270.35,0,0.59,-105.17,5.261,-0.048,17.749,0,0,0,270.4,0,0,0,0,0,0,1,1,51.62,FLYING
51.78,APPROACH,ILS_TRACK,75.78,76,0.22,240.57,0.13,6.68,6.58,270.41,0.037,0.2522,20,270.36,0,0.59,-104.31,5.245,-0.044,17.496,0,0,0,270.4,0,0,0,0,0,0,1,1,51.82,FLYING
51.98,APPROACH,ILS_TRACK,75.75,76,0.25,240.6,0.13,6.68,6.59,270.41,0.037,0.2536,20,270.35,0,0.6,-103.45,5.229,-0.046,17.242,0,0,0,270.4,0,0,0,0,0,0,1,1,52.02,FLYING
52.2,APPROACH,ILS_TRACK,75.72,76,0.28,240.63,0.13,6.69,6.59,270.41,0.035,0.2551,20,270.35,0,0.6,-102.5,5.211,-0.046,15.584,0,0,0,270.4,0,0,0,0,0,0,1,1,52.24,FLYING
52.4,APPROACH,ILS_TRACK,75.7,76,0.3,240.65,0.13,6.69,6.6,270.41,0.036,0.2564,20,270.35,0,0.61,-101.64,5.196,-0.048,16.708,0,0,0,270.4,0,0,0,0,0,0,1,1,52.44,FLYING
52.6,APPROACH,ILS_TRACK,75.67,76,0.33,240.68,0.13,6.69,6.6,270.41,0.035,0.2577,20,270.36,0,0.61,-100.77,5.18,-0.043,16.455,0,0,0,270.4,0,0,0,0,0,0,1,1,52.64,FLYING
52.8,APPROACH,ILS_TRACK,75.65,76,0.35,240.71,0.13,6.7,6.6,270.41,0.034,0.2591,20,270.36,0,0.61,-99.91,5.164,-0.039,16.202,0,0,0,270.4,0,0,0,0,0,0,1,1,52.84,FLYING
53,APPROACH,ILS_TRACK,75.63,76,0.37,240.73,0.13,6.7,6.61,270.41,0.034,0.2604,20,270.35,0,0.62,-99.05,5.148,-0.047,15.948,0,0,0,270.4,0,0,0,0,0,0,1,1,53.04,FLYING
53.22,APPROACH,ILS_TRACK,75.6,76,0.4,240.76,0.13,6.7,6.61,270.41,0.033,0.2619,20,270.36,0,0.62,-98.11,5.13,-0.042,14.294,0,0,0,270.4,0,0,0,0,0,0,1,1,53.26,FLYING
53.42,APPROACH,ILS_TRACK,75.58,76,0.42,240.79,0.13,6.71,6.61,270.41,0.033,0.2632,20,270.35,0,0.63,-97.25,5.114,-0.048,15.415,0,0,0,270.4,0,0,0,0,0,0,1,1,53.46,FLYING
53.62,APPROACH,ILS_TRACK,75.55,76,0.45,240.81,0.13,6.71,6.62,270.41,0.033,0.2645,20,270.37,0,0.63,-96.39,5.098,-0.035,15.163,0,0,0,270.4,0,0,0,0,0,0,1,1,53.66,FLYING
53.82,APPROACH,ILS_TRACK,75.53,76,0.47,240.84,0.13,6.71,6.62,270.41,0.032,0.2658,20,270.36,0,0.63,-95.53,5.083,-0.045,14.909,0,0,0,270.4,0,0,0,0,0,0,1,1,53.86,FLYING
54.02,APPROACH,ILS_TRACK,75.51,76,0.49,240.87,0.13,6.72,6.62,270.41,0.031,0.2671,20,270.36,0,0.63,-94.67,5.067,-0.042,14.656,0,0,0,270.4,0,0,0,0,0,0,1,1,54.06,FLYING
54.24,APPROACH,ILS_TRACK,75.48,76,0.52,240.9,0.13,6.72,6.63,270.41,0.031,0.2685,20,270.36,0,0.64,-93.72,5.049,-0.042,13.003,0,0,0,270.4,0,0,0,0,0,0,1,1,54.28,FLYING
54.44,APPROACH,ILS_TRACK,75.46,76,0.54,240.92,0.13,6.72,6.63,270.41,0.03,0.2697,20,270.36,0,0.64,-92.87,5.033,-0.037,14.125,0,0,0,270.4,0,0,0,0,0,0,1,1,54.48,FLYING
54.64,APPROACH,ILS_TRACK,75.43,76,0.57,240.95,0.13,6.73,6.63,270.41,0.029,0.271,20,270.36,0,0.64,-92.01,5.017,-0.035,13.87,0,0,0,270.4,0,0,0,0,0,0,1,1,54.68,FLYING
54.84,APPROACH,ILS_TRACK,75.41,76,0.59,240.97,0.13,6.73,6.64,270.41,0.028,0.2722,20,270.36,0,0.65,-91.15,5.002,-0.043,13.617,0,0,0,270.4,0,0,0,0,0,0,1,1,54.88,FLYING
55.04,APPROACH,ILS_TRACK,75.39,76,0.61,241,0.13,6.73,6.64,270.41,0.028,0.2734,20,270.36,0,0.65,-90.29,4.986,-0.038,13.363,0,0,0,270.4,0,0,0,0,0,0,1,1,55.08,FLYING
55.26,APPROACH,ILS_TRACK,75.37,76,0.63,241.03,0.13,6.74,6.64,270.41,0.026,0.2747,20,270.36,0,0.65,-89.35,4.968,-0.041,11.713,0,0,0,270.4,0,0,0,0,0,0,1,1,55.3,FLYING
55.46,APPROACH,ILS_TRACK,75.35,76,0.65,241.05,0.13,6.74,6.65,270.41,0.026,0.2758,20,270.36,0,0.65,-88.49,4.952,-0.038,12.831,0,0,0,270.4,0,0,0,0,0,0,1,1,55.5,FLYING
55.66,APPROACH,ILS_TRACK,75.33,76,0.67,241.08,0.13,6.74,6.65,270.41,0.025,0.2769,20,270.36,0,0.66,-87.63,4.936,-0.042,12.579,0,0,0,270.4,0,0,0,0,0,0,1,1,55.7,FLYING
55.86,APPROACH,ILS_TRACK,75.31,76,0.69,241.11,0.13,6.75,6.65,270.41,0.025,0.278,20,270.37,0,0.66,-86.78,4.921,-0.034,12.326,0,0,0,270.4,0,0,0,0,0,0,1,1,55.9,FLYING
56.06,APPROACH,ILS_TRACK,75.29,76,0.71,241.13,0.13,6.75,6.66,270.41,0.025,0.2791,20,270.36,0,0.66,-85.92,4.905,-0.036,12.072,0,0,0,270.4,0,0,0,0,0,0,1,1,56.1,FLYING
56.28,APPROACH,ILS_TRACK,75.27,76,0.73,241.16,0.13,6.75,6.66,270.41,0.024,0.2802,20,270.36,0,0.66,-84.98,4.887,-0.039,10.423,0,0,0,270.4,0,0,0,0,0,0,1,1,56.32,FLYING
56.48,APPROACH,ILS_TRACK,75.25,76,0.75,241.19,0.13,6.76,6.66,270.41,0.025,0.2813,20,270.36,0,0.67,-84.12,4.872,-0.042,11.538,0,0,0,270.4,0,0,0,0,0,0,1,1,56.52,FLYING
56.68,APPROACH,ILS_TRACK,75.23,76,0.77,241.21,0.13,6.76,6.67,270.41,0.024,0.2823,20,270.37,0,0.67,-83.27,4.856,-0.032,11.287,0,0,0,270.4,0,0,0,0,0,0,1,1,56.72,FLYING
56.88,APPROACH,ILS_TRACK,75.21,76,0.79,241.24,0.13,6.76,6.67,270.41,0.023,0.2832,20,270.36,0,0.67,-82.41,4.84,-0.043,11.03,0,0,0,270.4,0,0,0,0,0,0,1,1,56.92,FLYING
57.08,APPROACH,ILS_TRACK,75.2,76,0.8,241.26,0.13,6.76,6.67,270.41,0.022,0.2841,20,270.37,0,0.67,-81.56,4.824,-0.035,10.778,0,0,0,270.4,0,0,0,0,0,0,1,1,57.12,FLYING
57.3,APPROACH,ILS_TRACK,75.18,76,0.82,241.29,0.13,6.77,6.67,270.41,0.022,0.2851,20,270.36,0,0.67,-80.62,4.807,-0.04,9.129,0,0,0,270.4,0,0,0,0,0,0,1,1,57.34,FLYING
57.5,APPROACH,ILS_TRACK,75.16,76,0.84,241.32,0.13,6.77,6.67,270.4,0.022,0.286,20,270.37,0,0.68,-79.76,4.791,-0.034,10.244,0,0,0,270.4,0,0,0,0,0,0,1,1,57.54,FLYING
57.7,APPROACH,ILS_TRACK,75.15,76,0.85,241.35,0.13,6.77,6.68,270.4,0.022,0.2868,20,270.36,0,0.68,-78.9,4.775,-0.038,9.99,0,0,0,270.4,0,0,0,0,0,0,1,1,57.74,FLYING
57.9,APPROACH,ILS_TRACK,75.13,76,0.87,241.37,0.13,6.77,6.68,270.4,0.022,0.2876,20,270.36,0,0.68,-78.05,4.759,-0.038,9.735,0,0,0,270.4,0,0,0,0,0,0,1,1,57.94,FLYING
58.1,APPROACH,ILS_TRACK,75.12,76,0.88,241.4,0.13,6.78,6.68,270.4,0.022,0.2884,20,270.37,0,0.68,-77.2,4.743,-0.035,9.482,0,0,0,270.4,0,0,0,0,0,0,1,1,58.14,FLYING
58.32,APPROACH,ILS_TRACK,75.1,76,0.9,241.43,0.13,6.78,6.68,270.4,0.021,0.2892,20,270.36,0,0.68,-76.25,4.726,-0.038,7.834,0,0,0,270.4,0,0,0,0,0,0,1,1,58.36,FLYING
58.52,APPROACH,ILS_TRACK,75.09,76,0.91,241.45,0.13,6.78,6.69,270.4,0.021,0.2899,20,270.37,0,0.68,-75.4,4.71,-0.033,8.947,0,0,0,270.4,0,0,0,0,0,0,1,1,58.56,FLYING
58.72,APPROACH,ILS_TRACK,75.08,76,0.92,241.48,0.13,6.78,6.69,270.4,0.021,0.2906,20,270.36,0,0.69,-74.55,4.694,-0.039,8.692,0,0,0,270.4,0,0,0,0,0,0,1,1,58.76,FLYING
58.92,APPROACH,ILS_TRACK,75.07,76,0.93,241.5,0.13,6.78,6.69,270.4,0.02,0.2912,20,270.36,0,0.69,-73.69,4.679,-0.037,8.436,0,0,0,270.4,0,0,0,0,0,0,1,1,58.96,FLYING
59.12,APPROACH,ILS_TRACK,75.06,76,0.94,241.53,0.13,6.78,6.69,270.4,0.02,0.2918,20,270.36,0,0.69,-72.84,4.663,-0.039,8.182,0,0,0,270.4,0,0,0,0,0,0,1,1,59.16,FLYING
59.34,APPROACH,ILS_TRACK,75.05,76,0.95,241.56,0.13,6.79,6.69,270.4,0.02,0.2924,20,270.37,0,0.69,-71.9,4.645,-0.034,6.536,0,0,0,270.4,0,0,0,0,0,0,1,1,59.38,FLYING
59.54,APPROACH,ILS_TRACK,75.04,76,0.96,241.59,0.13,6.79,6.69,270.4,0.02,0.293,20,270.36,0,0.69,-71.04,4.63,-0.037,7.645,0,0,0,270.4,0,0,0,0,0,0,1,1,59.58,FLYING
59.74,APPROACH,ILS_TRACK,75.03,76,0.97,241.61,0.13,6.79,6.69,270.4,0.02,0.2934,20,270.36,0,0.7,-70.19,4.614,-0.035,7.391,0,0,0,270.4,0,0,0,0,0,0,1,1,59.78,FLYING
59.94,APPROACH,ILS_TRACK,75.02,76,0.98,241.64,0.13,6.79,6.7,270.4,0.018,0.2939,20,270.36,0,0.7,-69.33,4.598,-0.04,7.134,0,0,0,270.4,0,0,0,0,0,0,1,1,59.98,FLYING
60.14,APPROACH,ILS_TRACK,75.01,76,0.99,241.67,0.13,6.79,6.7,270.4,0.017,0.2943,20,270.36,0,0.7,-68.48,4.582,-0.036,6.879,0,0,0,270.4,0,0,0,0,0,0,1,1,60.18,FLYING
60.36,APPROACH,ILS_TRACK,75,76,1,241.69,0.13,6.79,6.7,270.4,0.017,0.2948,20,270.36,0,0.7,-67.54,4.565,-0.037,5.233,0,0,0,270.4,0,0,0,0,0,0,1,1,60.4,FLYING
60.56,APPROACH,ILS_TRACK,75,76,1,241.72,0.13,6.79,6.7,270.4,0.017,0.2951,20,270.37,0,0.7,-66.69,4.549,-0.034,6.341,0,0,0,270.4,0,0,0,0,0,0,1,1,60.6,FLYING
60.76,APPROACH,ILS_TRACK,74.99,76,1.01,241.75,0.13,6.8,6.7,270.4,0.016,0.2955,20,270.36,0,0.7,-65.83,4.533,-0.038,6.087,0,0,0,270.4,0,0,0,0,0,0,1,1,60.8,FLYING
60.96,APPROACH,ILS_TRACK,74.99,76,1.01,241.77,0.13,6.8,6.7,270.4,0.016,0.2958,20,270.36,0,0.71,-64.98,4.517,-0.036,5.831,0,0,0,270.4,0,0,0,0,0,0,1,1,61,FLYING
61.16,APPROACH,ILS_TRACK,74.98,76,1.02,241.8,0.13,6.8,6.7,270.41,0.015,0.296,20,270.36,0,0.71,-64.13,4.502,-0.04,5.573,0,0,0,270.4,0,0,0,0,0,0,1,1,61.2,FLYING
61.38,APPROACH,ILS_TRACK,74.98,76,1.02,241.83,0.13,6.8,6.7,270.4,0.016,0.2963,20,270.36,0,0.71,-63.19,4.484,-0.037,3.925,0,0,0,270.4,0,0,0,0,0,0,1,1,61.42,FLYING
61.58,APPROACH,ILS_TRACK,74.97,76,1.03,241.86,0.13,6.8,6.7,270.41,0.016,0.2965,20,270.36,0,0.71,-62.33,4.468,-0.039,5.035,0,0,0,270.4,0,0,0,0,0,0,1,1,61.62,FLYING
61.78,APPROACH,ILS_TRACK,74.97,76,1.03,241.88,0.13,6.8,6.7,270.41,0.015,0.2966,20,270.36,0,0.71,-61.48,4.453,-0.038,4.78,0,0,0,270.4,0,0,0,0,0,0,1,1,61.82,FLYING
61.98,APPROACH,ILS_TRACK,74.97,76,1.03,241.91,0.13,6.8,6.7,270.41,0.016,0.2968,20,270.36,0,0.72,-60.62,4.437,-0.035,4.522,0,0,0,270.4,0,0,0,0,0,0,1,1,62.02,FLYING
62.18,APPROACH,ILS_TRACK,74.97,76,1.03,241.94,0.14,6.8,6.7,270.41,0.016,0.2969,20,270.36,0,0.72,-59.77,4.421,-0.041,4.265,0,0,0,270.4,0,0,0,0,0,0,1,1,62.22,FLYING
62.4,APPROACH,ILS_TRACK,74.96,76,1.04,241.97,0.14,6.8,6.7,270.41,0.016,0.2969,20,270.36,-0.385,0.72,-58.83,4.404,-0.039,2.615,0,0,0,270.4,0,0,0,0,0,0,1,1,62.44,FLYING
62.6,APPROACH,ILS_TRACK,74.96,76,1.04,241.99,0.13,6.74,6.65,270.4,0.021,0.2969,20,270.36,0,0.72,-57.98,4.388,-0.037,3.772,0,0,0,270.4,0,0,0,0,0,0,1,1,62.64,FLYING
62.8,APPROACH,ILS_TRACK,74.97,76,1.03,242.02,0.11,6.78,6.7,270.4,0.022,0.2969,20,270.36,0,0.72,-57.13,4.372,-0.039,3.5,0,0,0,270.4,0,0,0,0,0,0,1,1,62.84,FLYING
63,APPROACH,ILS_TRACK,74.97,76,1.03,242.04,0.12,6.79,6.7,270.4,0.022,0.2968,20,270.36,0,0.73,-56.28,4.356,-0.04,3.265,0,0,0,270.4,0,0,0,0,0,0,1,1,63.04,FLYING
63.2,APPROACH,ILS_TRACK,74.97,76,1.03,242.06,0.12,6.79,6.7,270.4,0.022,0.2968,20,270.36,0,0.73,-55.42,4.341,-0.038,3.016,0,0,0,270.4,0,0,0,0,0,0,1,1,63.24,FLYING
63.42,APPROACH,ILS_TRACK,74.97,76,1.03,242.09,0.12,6.79,6.7,270.4,0.021,0.2967,20,270.36,-1.63,0.73,-54.49,4.323,-0.038,1.37,0,0,0,270.4,0,0,0,0,0,0,1,1,63.46,FLYING
63.62,APPROACH,ILS_TRACK,74.98,76,1.02,242.09,0.08,6.42,6.37,270.4,0.03,0.2964,20,270.36,-0.261,0.73,-53.65,4.308,-0.035,2.739,0,0,0,270.4,0,0,0,0,0,0,1,1,63.66,FLYING
63.82,APPROACH,ILS_TRACK,74.99,76,1.01,242.11,-0.01,6.66,6.67,270.4,0.03,0.2959,20,270.36,-0.616,0.73,-52.81,4.292,-0.044,2.384,0,0,0,270.4,0,0,0,0,0,0,1,1,63.86,FLYING
64.02,APPROACH,ILS_TRACK,75,76,1,242.1,-0.02,6.59,6.61,270.4,0.038,0.2953,20,270.37,-0.591,0.73,-51.99,4.276,-0.034,2.409,0,0,0,270.4,0,0,0,0,0,0,1,1,64.06,FLYING
64.22,APPROACH,ILS_TRACK,75.01,76,0.99,242.1,-0.04,6.58,6.61,270.4,0.039,0.2947,20,270.36,-0.789,0.74,-51.17,4.26,-0.038,2.211,0,0,0,270.4,0,0,0,0,0,0,1,1,64.26,FLYING
64.44,APPROACH,ILS_TRACK,75.02,76,0.98,242.08,-0.08,6.54,6.59,270.4,0.043,0.294,20,270.36,-2.247,0.74,-50.27,4.243,-0.037,0.753,0,0,0,270.4,0,0,0,0,0,0,1,1,64.48,FLYING
64.64,APPROACH,ILS_TRACK,75.04,76,0.96,242.05,-0.15,6.28,6.39,270.4,0.045,0.2931,20,270.36,-0.903,0.74,-49.47,4.227,-0.038,2.097,0,0,0,270.4,0,0,0,0,0,0,1,1,64.68,FLYING
64.84,APPROACH,ILS_TRACK,75.06,76,0.94,242.01,-0.22,6.42,6.57,270.4,0.046,0.292,20,270.37,-1.143,0.74,-48.68,4.211,-0.031,1.857,0,0,0,270.4,0,0,0,0,0,0,1,1,64.88,FLYING
65.04,APPROACH,ILS_TRACK,75.08,76,0.92,241.96,-0.25,6.37,6.55,270.4,0.047,0.2909,20,270.37,-1.116,0.74,-47.9,4.195,-0.032,1.884,0,0,0,270.4,0,0,0,0,0,0,1,1,65.08,FLYING
65.24,APPROACH,ILS_TRACK,75.1,76,0.9,241.9,-0.3,6.34,6.55,270.4,0.047,0.2898,20,270.37,-1.23,0.74,-47.13,4.18,-0.033,1.77,0,0,0,270.4,0,0,0,0,0,0,1,1,65.28,FLYING
65.46,APPROACH,ILS_TRACK,75.12,76,0.88,241.83,-0.34,6.29,6.54,270.4,0.048,0.2884,20,270.37,-2.554,0.74,-46.29,4.162,-0.03,0.446,0,0,0,270.4,0,0,0,0,0,0,1,1,65.5,FLYING
65.66,APPROACH,ILS_TRACK,75.15,76,0.85,241.73,-0.43,5.85,6.16,270.39,0.047,0.287,20,270.37,-1.131,0.74,-45.55,4.146,-0.03,1.869,0,0,0,270.4,0,0,0,0,0,0,1,1,65.7,FLYING
65.86,APPROACH,ILS_TRACK,75.18,76,0.82,241.64,-0.58,6.13,6.55,270.39,0.046,0.2852,20,270.37,-1.335,0.74,-44.81,4.131,-0.027,1.665,0,0,0,270.4,0,0,0,0,0,0,1,1,65.9,FLYING
66.06,APPROACH,ILS_TRACK,75.21,76,0.79,241.52,-0.6,6.1,6.53,270.39,0.047,0.2835,20,270.37,-1.209,0.74,-44.1,4.115,-0.033,1.791,0,0,0,270.4,0,0,0,0,0,0,1,1,66.1,FLYING
66.26,APPROACH,ILS_TRACK,75.24,76,0.76,241.4,-0.63,6.09,6.55,270.39,0.047,0.2818,20,270.38,-1.297,0.74,-43.39,4.099,-0.023,1.703,0,0,0,270.4,0,0,0,0,0,0,1,1,66.3,FLYING
66.48,APPROACH,ILS_TRACK,75.28,76,0.72,241.25,-0.67,6.05,6.54,270.39,0.046,0.2799,20,270.37,-2.517,0.74,-42.62,4.081,-0.031,0.483,0,0,0,270.4,0,0,0,0,0,0,1,1,66.52,FLYING
66.68,APPROACH,ILS_TRACK,75.31,76,0.69,241.1,-0.76,5.77,6.31,270.39,0.045,0.2781,20,270.38,-1.278,0.74,-41.94,4.066,-0.018,1.722,0,0,0,270.4,0,0,0,0,0,0,1,1,66.72,FLYING
66.88,APPROACH,ILS_TRACK,75.35,76,0.65,240.94,-0.83,5.96,6.56,270.39,0.043,0.2762,20,270.38,-1.521,0.74,-41.26,4.05,-0.023,1.479,0,0,0,270.4,0,0,0,0,0,0,1,1,66.92,FLYING
67.08,APPROACH,ILS_TRACK,75.38,76,0.62,240.77,-0.85,5.89,6.51,270.39,0.04,0.2742,20,270.38,-1.438,0.74,-40.6,4.034,-0.023,1.562,0,0,0,270.4,0,0,0,0,0,0,1,1,67.12,FLYING
67.28,APPROACH,ILS_TRACK,75.42,76,0.58,240.6,-0.89,5.88,6.52,270.39,0.039,0.2723,20,270.38,-1.546,0.73,-39.94,4.018,-0.023,1.454,0,0,0,270.4,0,0,0,0,0,0,1,1,67.32,FLYING
67.5,APPROACH,ILS_TRACK,75.45,76,0.55,240.4,-0.93,5.84,6.51,270.39,0.038,0.2702,20,270.38,-2.664,0.73,-39.22,4.001,-0.019,0.336,0,0,0,270.4,0,0,0,0,0,0,1,1,67.54,FLYING
67.7,APPROACH,ILS_TRACK,75.49,76,0.51,240.18,-1.02,5.46,6.19,270.39,0.035,0.2681,20,270.38,-1.439,0.73,-38.6,3.985,-0.022,1.561,0,0,0,270.4,0,0,0,0,0,0,1,1,67.74,FLYING
67.9,APPROACH,ILS_TRACK,75.53,76,0.47,239.98,-1.12,5.72,6.53,270.39,0.035,0.2659,20,270.39,-1.656,0.73,-37.97,3.969,-0.014,1.344,0,0,0,270.4,0,0,0,0,0,0,1,1,67.94,FLYING
68.1,APPROACH,ILS_TRACK,75.57,76,0.43,239.75,-1.14,5.67,6.49,270.39,0.032,0.2637,20,270.38,-1.522,0.73,-37.36,3.953,-0.021,1.478,0,0,0,270.4,0,0,0,0,0,0,1,1,68.14,FLYING
68.3,APPROACH,ILS_TRACK,75.61,76,0.39,239.52,-1.17,5.66,6.5,270.39,0.029,0.2617,20,270.39,-1.614,0.72,-36.76,3.937,-0.014,1.386,0,0,0,270.4,0,0,0,0,0,0,1,1,68.34,FLYING
68.52,APPROACH,ILS_TRACK,75.65,76,0.35,239.25,-1.21,5.62,6.49,270.39,0.027,0.2595,20,270.38,-2.646,0.72,-36.11,3.919,-0.018,0.354,0,0,0,270.4,0,0,0,0,0,0,1,1,68.56,FLYING
68.72,APPROACH,ILS_TRACK,75.69,76,0.31,239,-1.28,5.44,6.35,270.39,0.026,0.2575,20,270.39,-1.631,0.72,-35.52,3.903,-0.014,1.369,0,0,0,270.4,0,0,0,0,0,0,1,1,68.76,FLYING
68.92,APPROACH,ILS_TRACK,75.72,76,0.28,238.74,-1.33,5.54,6.49,270.39,0.024,0.2554,20,270.39,-1.78,0.72,-34.95,3.888,-0.015,1.22,0,0,0,270.4,0,0,0,0,0,0,1,1,68.96,FLYING
69.12,APPROACH,ILS_TRACK,75.76,76,0.24,238.47,-1.36,5.49,6.47,270.39,0.022,0.2534,20,270.38,-1.739,0.71,-34.38,3.872,-0.016,1.261,0,0,0,270.4,0,0,0,0,0,0,1,1,69.16,FLYING
69.32,APPROACH,ILS_TRACK,75.79,76,0.21,238.19,-1.39,5.47,6.47,270.39,0.021,0.2515,20,270.39,-1.817,0.71,-33.82,3.856,-0.01,1.183,0,0,0,270.4,0,0,0,0,0,0,1,1,69.36,FLYING
69.54,APPROACH,ILS_TRACK,75.83,76,0.17,237.88,-1.43,5.43,6.46,270.39,0.018,0.2495,20,270.38,-2.761,0.71,-33.21,3.838,-0.017,0.239,0,0,0,270.4,0,0,0,0,0,0,1,1,69.58,FLYING
69.74,APPROACH,ILS_TRACK,75.87,76,0.13,237.57,-1.51,5.09,6.18,270.39,0.018,0.2476,20,270.39,-1.697,0.7,-32.68,3.822,-0.01,1.303,0,0,0,270.4,0,0,0,0,0,0,1,1,69.78,FLYING
69.94,APPROACH,ILS_TRACK,75.9,76,0.1,237.26,-1.6,5.34,6.49,270.39,0.017,0.2455,20,270.39,-1.893,0.7,-32.15,3.806,-0.013,1.107,0,0,0,270.4,0,0,0,0,0,0,1,1,69.98,FLYING
70.14,APPROACH,ILS_TRACK,75.94,76,0.06,236.94,-1.62,5.29,6.45,270.39,0.016,0.2436,20,270.39,-1.759,0.7,-31.63,3.79,-0.013,1.241,0,0,0,270.4,0,0,0,0,0,0,1,1,70.18,FLYING
70.34,APPROACH,ILS_TRACK,75.97,76,0.03,236.61,-1.65,5.28,6.46,270.39,0.016,0.2418,20,270.39,-1.839,0.69,-31.12,3.774,-0.014,1.161,0,0,0,270.4,0,0,0,0,0,0,1,1,70.38,FLYING
70.56,APPROACH,ILS_TRACK,76,76,0,236.24,-1.68,5.25,6.46,270.39,0.016,0.24,20,270.39,-2.708,0.69,-30.57,3.757,-0.013,0.292,0,0,0,270.4,0,0,0,0,0,0,1,1,70.6,FLYING
70.76,APPROACH,ILS_TRACK,76.03,76,-0.03,235.89,-1.74,5.09,6.33,270.39,0.015,0.2383,19.998,270.39,-1.835,0.69,-30.07,3.741,-0.007,1.165,0,0,0,270.4,0,0,0,0,0,0,1,1,70.8,FLYING
70.96,APPROACH,ILS_TRACK,76.06,76,-0.06,235.54,-1.78,5.18,6.46,270.39,0.015,0.2366,19.995,270.39,-1.971,0.68,-29.58,3.725,-0.012,1.029,0,0,0,270.4,0,0,0,0,0,0,1,1,71,FLYING
71.16,APPROACH,ILS_TRACK,76.09,76,-0.09,235.18,-1.81,5.15,6.44,270.39,0.014,0.2349,19.991,270.39,-1.927,0.68,-29.11,3.709,-0.013,1.073,0,0,0,270.4,0,0,0,0,0,0,1,1,71.2,FLYING
71.36,APPROACH,ILS_TRACK,76.12,76,-0.12,234.82,-1.84,5.13,6.44,270.39,0.013,0.2334,19.985,270.39,-1.998,0.68,-28.63,3.693,-0.011,1.002,0,0,0,270.4,0,0,0,0,0,0,1,1,71.4,FLYING
71.58,APPROACH,ILS_TRACK,76.15,76,-0.15,234.41,-1.87,5.1,6.44,270.39,0.013,0.2318,19.978,270.39,-2.794,0.67,-28.12,3.675,-0.01,0.206,0,0,0,270.4,0,0,0,0,0,0,1,1,71.62,FLYING
71.78,APPROACH,ILS_TRACK,76.18,76,-0.18,234.01,-1.95,4.75,6.13,270.39,0.012,0.2302,19.969,270.39,-1.85,0.67,-27.67,3.659,-0.007,1.15,0,0,0,270.4,0,0,0,0,0,0,1,1,71.82,FLYING
71.98,APPROACH,ILS_TRACK,76.2,76,-0.2,233.62,-2.04,5.02,6.47,270.39,0.01,0.2285,19.959,270.39,-2.044,0.67,-27.22,3.643,-0.012,0.956,0,0,0,270.4,0,0,0,0,0,0,1,1,72.02,FLYING
72.18,APPROACH,ILS_TRACK,76.23,76,-0.23,233.21,-2.04,4.98,6.43,270.39,0.01,0.2269,19.948,270.39,-1.892,0.66,-26.79,3.627,-0.012,1.108,0,0,0,270.4,0,0,0,0,0,0,1,1,72.22,FLYING
72.38,APPROACH,ILS_TRACK,76.25,76,-0.25,232.8,-2.06,4.99,6.46,270.39,0.008,0.2255,19.935,270.39,-1.982,0.66,-26.36,3.611,-0.011,1.018,0,0,0,270.4,0,0,0,0,0,0,1,1,72.42,FLYING
72.6,APPROACH,ILS_TRACK,76.27,76,-0.27,232.34,-2.08,4.96,6.45,270.39,0.008,0.2241,19.922,270.39,-2.727,0.66,-25.89,3.593,-0.008,0.273,0,0,0,270.4,0,0,0,0,0,0,1,1,72.64,FLYING
72.8,APPROACH,ILS_TRACK,76.3,76,-0.3,231.92,-2.13,4.82,6.34,270.39,0.007,0.2228,19.907,270.39,-1.998,0.66,-25.47,3.577,-0.012,1.002,0,0,0,270.4,0,0,0,0,0,0,1,1,72.84,FLYING
