t_s,phase,subphase,ias_ms,vapp_ms,spd_err_ms,agl_m,vs_ms,pitch_deg,aoa_deg,hdg_deg,bank_deg,thr_cmd,thr_intg,aa_hdg_cmd_deg,aa_fpa_cmd_deg,ils_loc_m,ils_gs_m,ils_dist_km,loc_corr_deg,gs_corr_deg,flare_fpa_cmd,flare_tgt_vs,flare_frac,steer_hdg_deg,steer_blend,ro_loc_corr_deg,ro_hdg_err_deg,ro_yaw_tgt,ro_yaw_scale,ro_yaw_gate,yaw_cmd,roll_cmd,pitch_cmd,ro_pitch_tgt_deg,ro_pitch_err_deg,ro_pitch_ff,ro_roll_assist,flaps_cur,flaps_tgt,phase_el_s,status
0.26,APPROACH,FLY_TO_FIX,198.19,200.13,1.94,2476.57,-23.27,0.86,6.85,269.61,-2.078,0.032,0.159,10.83,-4.893,0,0,0,0,0,0,0,0,269.64,0,0,0,0,0,0,0,0,0,0,0,0,0,0,3,0.3,FLYING
0.54,APPROACH,ILS_TRACK,198.53,200.58,2.04,2469.53,-24.18,-0.5,5.64,269.84,-3.112,0.144,0.739,108.02,-6,0,0,0,0,0,0,0,0,269.64,0,0,0,0,0,0,0,0,0,0,0,0,0,1,3,0.58,FLYING
0.8,APPROACH,ILS_TRACK,198.92,201.02,2.1,2463.02,-25.05,-0.83,5.49,269.98,-4.701,0.256,1.336,245.4,0,33.23,-23.89,46.165,-31,75.43,0,0,0,269.64,0,0,0,0,0,0,0,0,0,0,0,0,0,1,3,0.84,FLYING
1.06,APPROACH,ILS_TRACK,199.28,201.44,2.16,2455.75,-25.73,-1.4,5.1,269.96,-2.558,0.2202,1.904,270.01,0,32.3,-27.74,46.102,-0.394,20.172,0,0,0,269.64,0,0,0,0,0,0,0,0,0,0,0,0,0,2,3,1.1,FLYING
1.38,APPROACH,ILS_TRACK,199.8,201.95,2.15,2447.67,-26.69,-2.09,4.63,269.68,0.907,0.1315,2.603,269.87,0,31.37,-32.17,46.035,-0.533,20.72,0,0,0,269.64,0,0,0,0,0,0,0,0,0,0,0,0,0,2,3,1.42,FLYING
1.64,APPROACH,ILS_TRACK,200.27,202.37,2.1,2439.91,-27.88,-2.49,4.46,269.53,0.998,0.0481,3.158,270.02,0,30.5,-36.56,45.971,-0.384,24.481,0,0,0,269.64,0,0,0,0,0,0,0,0,0,0,0,0,0,3,3,1.68,FLYING
1.92,APPROACH,ILS_TRACK,200.71,201.92,1.21,2432.71,-29,-1.78,5.36,269.48,1.061,0,3.506,269.94,0,29.69,-40.7,45.913,-0.457,24.048,0,0,0,269.64,0,0,0,0,0,0,0,0,0,0,0,0,0,3,3,1.96,FLYING
2.18,APPROACH,ILS_TRACK,201.01,201.5,0.49,2425.47,-29.2,-0.56,6.69,269.46,0.957,0,3.638,270.06,0,28.84,-44.81,45.854,-0.341,26.061,0,0,0,269.64,0,0,0,0,0,0,0,0,0,0,0,0,0,3,3,2.22,FLYING
2.48,APPROACH,ILS_TRACK,201.23,201.02,-0.2,2416.91,-29.28,0.14,7.4,269.47,0.66,0,3.58,270.11,0,27.85,-49.77,45.786,-0.293,28.164,0,0,0,269.64,0,0,0,0,0,0,0,0,0,0,0,0,0,3,3,2.52,FLYING
2.74,APPROACH,ILS_TRACK,201.26,200.61,-0.66,2409.63,-29.31,1.33,8.54,269.51,0.151,0,3.409,270.15,0,26.99,-54.04,45.727,-0.245,29.355,0,0,0,269.64,0,0,0,0,0,0,0,0,0,0,0,0,0,3,3,2.78,FLYING
3,APPROACH,ILS_TRACK,201.11,200.19,-0.92,2402.59,-28.66,3.07,10.13,269.59,-0.42,0,3.166,270.19,0,26.11,-58.08,45.668,-0.206,29.848,0,0,0,269.64,0,0,0,0,0,0,0,0,0,0,0,0,0,3,3,3.04,FLYING
3.26,APPROACH,ILS_TRACK,200.75,200,-0.75,2395.7,-27.42,4.43,11.25,269.7,-0.882,0,2.953,270.24,0,25.23,-61.94,45.609,-0.161,30.473,0,0,0,269.64,0,0,0,0,0,0,0,0,0,0,0,0,0,3,3,3.3,FLYING
3.56,APPROACH,ILS_TRACK,200.1,200,-0.1,2387.98,-25.75,5.24,11.71,269.81,-1.257,0.1124,2.894,270.26,0,24.24,-66.21,45.541,-0.145,31.241,0,0,0,269.64,0,0,0,0,0,0,0,0,0,0,0,0,0,3,3,3.6,FLYING
3.82,APPROACH,ILS_TRACK,199.43,200,0.57,2381.56,-24.39,5.52,11.68,269.89,-1.493,0.2164,3.016,270.28,0,23.39,-69.67,45.483,-0.121,31.554,0,0,0,269.64,0,0,0,0,0,0,0,0,0,0,0,0,0,3,3,3.86,FLYING
4.08,APPROACH,ILS_TRACK,198.72,200,1.28,2375.49,-23.04,5.8,11.65,269.96,-1.68,0.3204,3.319,270.28,0,22.58,-72.82,45.425,-0.115,31.518,0,0,0,269.64,0,0,0,0,0,0,0,0,0,0,0,0,0,3,3,4.12,FLYING
4.34,APPROACH,ILS_TRACK,198.02,200,1.98,2369.76,-21.81,6.14,11.69,270.02,-1.824,0.4244,3.807,270.28,0,21.79,-75.64,45.366,-0.118,31.377,0,0,0,269.64,0,0,0,0,0,0,0,0,0,0,0,0,0,3,3,4.38,FLYING
4.64,APPROACH,ILS_TRACK,197.21,200,2.79,2363.6,-20.24,6.58,11.75,270.09,-1.942,0.5444,4.612,270.28,0,20.93,-78.44,45.3,-0.116,31.012,0,0,0,269.64,0,0,0,0,0,0,0,0,0,0,0,0,0,3,3,4.68,FLYING
4.9,APPROACH,ILS_TRACK,196.54,200,3.46,2358.61,-18.9,6.88,11.73,270.14,-2.012,0.6484,5.499,270.27,0,20.22,-80.53,45.242,-0.128,30.587,0,0,0,269.64,0,0,0,0,0,0,0,0,0,0,0,0,0,3,3,4.94,FLYING
5.16,APPROACH,ILS_TRACK,195.91,200,4.09,2353.97,-17.56,7.21,11.73,270.19,-2.057,0.7524,6.551,270.27,0,19.54,-82.28,45.184,-0.13,30.074,0,0,0,269.64,0,0,0,0,0,0,0,0,0,0,0,0,0,3,3,5.2,FLYING
5.42,APPROACH,ILS_TRACK,195.34,200,4.66,2349.68,-16.25,7.5,11.68,270.23,-2.094,0.8419,7.752,270.26,0,18.9,-83.7,45.127,-0.14,29.458,0,0,0,269.64,0,0,0,0,0,0,0,0,0,0,0,0,0,3,3,5.46,FLYING
5.72,APPROACH,ILS_TRACK,194.77,200,5.23,2345.17,-14.63,7.86,11.65,270.27,-2.114,0.8818,9.311,270.25,0,18.21,-84.88,45.06,-0.151,28.632,0,0,0,269.64,0,0,0,0,0,0,0,0,0,0,0,0,0,3,3,5.76,FLYING
5.98,APPROACH,ILS_TRACK,194.37,200,5.63,2341.67,-13.32,8.28,11.73,270.31,-2.117,0.8957,10.767,270.24,0,17.64,-85.55,45.003,-0.164,27.701,0,0,0,269.64,0,0,0,0,0,0,0,0,0,0,0,0,0,3,3,6.02,FLYING
6.24,APPROACH,ILS_TRACK,194.04,200,5.96,2338.51,-11.91,8.63,11.71,270.35,-2.102,0.8977,12.31,270.21,0,17.13,-85.84,44.946,-0.187,26.655,0,0,0,269.64,0,0,0,0,0,0,0,0,0,0,0,0,0,3,3,6.28,FLYING
6.5,APPROACH,ILS_TRACK,193.79,200,6.21,2335.71,-10.46,8.97,11.69,270.38,-2.046,0.8888,13.92,270.2,0,16.64,-85.78,44.889,-0.204,25.549,0,0,0,269.64,0,0,0,0,0,0,0,0,0,0,0,0,0,3,3,6.54,FLYING
6.8,APPROACH,ILS_TRACK,193.59,200,6.41,2332.9,-8.64,9.07,11.36,270.38,-1.927,0.8748,15.841,270.18,0,16.13,-85.28,44.823,-0.219,24.245,0,0,0,269.64,0,0,0,0,0,0,0,0,0,0,0,0,0,3,3,6.84,FLYING
7.06,APPROACH,ILS_TRACK,193.53,200,6.47,2330.77,-7.28,8.81,10.76,270.37,-1.741,0.8382,17.522,270.16,0,15.73,-84.53,44.766,-0.245,23.074,0,0,0,269.64,0,0,0,0,0,0,0,0,0,0,0,0,0,3,3,7.1,FLYING
7.32,APPROACH,ILS_TRACK,193.6,200,6.4,2328.93,-6.03,8.39,10.02,270.33,-1.473,0.7827,19.189,270.13,0,15.37,-83.49,44.709,-0.266,21.83,0,0,0,269.64,0,0,0,0,0,0,0,0,0,0,0,0,0,3,3,7.36,FLYING
7.58,APPROACH,ILS_TRACK,193.8,200,6.2,2327.34,-4.98,7.8,9.17,270.28,-1.171,0.7001,20,270.13,0,15.03,-82.18,44.652,-0.271,20.62,0,0,0,269.64,0,0,0,0,0,0,0,0,0,0,0,0,0,3,3,7.62,FLYING
7.88,APPROACH,ILS_TRACK,194.18,200,5.82,2325.79,-4.12,7.11,8.23,270.23,-0.859,0.59,20,270.12,0,14.66,-80.37,44.586,-0.284,19.298,0,0,0,269.64,0,0,0,0,0,0,0,0,0,0,0,0,0,3,3,7.92,FLYING
8.14,APPROACH,ILS_TRACK,194.6,200,5.4,2324.71,-3.54,6.81,7.76,270.2,-0.614,0.486,20,270.12,0,14.36,-78.55,44.529,-0.285,17.95,0,0,0,269.64,0,0,0,0,0,0,0,0,0,0,0,0,0,3,3,8.18,FLYING
8.4,APPROACH,ILS_TRACK,195.06,200,4.94,2323.75,-2.89,6.32,7.11,270.17,-0.432,0.3834,20,270.13,0,14.06,-76.53,44.471,-0.271,16.753,0,0,0,269.64,0,0,0,0,0,0,0,0,0,0,0,0,0,3,3,8.44,FLYING
8.66,APPROACH,ILS_TRACK,195.55,200,4.45,2322.95,-2.59,6.02,6.71,270.16,-0.331,0.2849,20,270.12,0,13.77,-74.39,44.414,-0.276,15.715,0,0,0,269.64,0,0,0,0,0,0,0,0,0,0,0,0,0,3,3,8.7,FLYING
8.96,APPROACH,ILS_TRACK,196.13,200,3.87,2322.18,-2.24,5.84,6.42,270.15,-0.235,0.1969,20,270.14,0,13.44,-71.71,44.347,-0.259,14.389,0,0,0,269.64,0,0,0,0,0,0,0,0,0,0,0,0,0,3,3,9,FLYING
9.22,APPROACH,ILS_TRACK,196.58,200,3.42,2321.63,-1.88,5.75,6.25,270.15,-0.225,0.133,20,270.15,0,13.16,-69.27,44.289,-0.252,13.254,0,0,0,269.64,0,0,0,0,0,0,0,0,0,0,0,0,0,3,3,9.26,FLYING
9.48,APPROACH,ILS_TRACK,196.98,200,3.02,2321.13,-1.65,5.57,6,270.15,-0.233,0.0893,20,270.16,0,12.87,-66.76,44.231,-0.243,12.3,0,0,0,269.64,0,0,0,0,0,0,0,0,0,0,0,0,0,3,3,9.52,FLYING
9.74,APPROACH,ILS_TRACK,197.3,200,2.7,2320.69,-1.44,5.45,5.83,270.15,-0.25,0.0698,20,270.17,0,12.59,-64.17,44.173,-0.231,11.295,0,0,0,269.64,0,0,0,0,0,0,0,0,0,0,0,0,0,3,3,9.78,FLYING
10.04,APPROACH,ILS_TRACK,197.56,200,2.44,2320.26,-1.27,5.37,5.7,270.16,-0.282,0.0713,20,270.18,0,12.26,-61.11,44.106,-0.219,10.176,0,0,0,269.64,0,0,0,0,0,0,0,0,0,0,0,0,0,3,3,10.08,FLYING
10.3,APPROACH,ILS_TRACK,197.69,200,2.31,2319.93,-1.14,5.32,5.62,270.17,-0.31,0.0947,20,270.19,0,11.99,-58.41,44.048,-0.213,9.203,0,0,0,269.64,0,0,0,0,0,0,0,0,0,0,0,0,0,3,3,10.34,FLYING
10.56,APPROACH,ILS_TRACK,197.75,200,2.25,2319.63,-1.04,5.28,5.55,270.17,-0.318,0.1318,20,270.19,0,11.72,-55.67,43.99,-0.209,8.279,0,0,0,269.64,0,0,0,0,0,0,0,0,0,0,0,0,0,3,3,10.6,FLYING
10.82,APPROACH,ILS_TRACK,197.73,200,2.27,2319.37,-0.95,5.27,5.52,270.17,-0.324,0.1782,20,270.2,0,11.45,-52.9,43.932,-0.197,7.337,0,0,0,269.64,0,0,0,0,0,0,0,0,0,0,0,0,0,3,3,10.86,FLYING
11.12,APPROACH,ILS_TRACK,197.64,200,2.36,2319.1,-0.85,5.27,5.5,270.18,-0.33,0.2296,20,270.21,0,11.14,-49.66,43.865,-0.193,6.277,0,0,0,269.64,0,0,0,0,0,0,0,0,0,0,0,0,0,3,3,11.16,FLYING
11.38,APPROACH,ILS_TRACK,197.54,200,2.46,2318.88,-0.8,5.27,5.48,270.18,-0.34,0.2792,20,270.22,0,10.87,-46.84,43.807,-0.176,5.373,0,0,0,269.64,0,0,0,0,0,0,0,0,0,0,0,0,0,3,3,11.42,FLYING
11.64,APPROACH,ILS_TRACK,197.43,200,2.57,2318.69,-0.72,5.27,5.45,270.19,-0.347,0.3238,20,270.22,0,10.62,-44,43.748,-0.183,4.449,0,0,0,269.64,0,0,0,0,0,0,0,0,0,0,0,0,0,3,3,11.68,FLYING
11.9,APPROACH,ILS_TRACK,197.32,200,2.68,2318.51,-0.66,5.27,5.44,270.19,-0.339,0.3596,20,270.23,0,10.37,-41.14,43.69,-0.171,3.545,0,0,0,269.64,0,0,0,0,0,0,0,0,0,0,0,0,0,3,3,11.94,FLYING
12.2,APPROACH,ILS_TRACK,197.21,200,2.79,2318.31,-0.53,5.25,5.41,270.19,-0.363,0.3866,20,270.24,-0.496,10.08,-37.82,43.623,-0.158,2.504,0,0,0,269.64,0,0,0,0,0,0,0,0,0,0,0,0,0,3,3,12.24,FLYING
12.46,APPROACH,ILS_TRACK,197.16,200,2.84,2318,-0.29,4.51,4.67,270.2,-0.513,0.3998,20,270.24,-1.118,9.83,-35.02,43.565,-0.161,1.882,0,0,0,269.64,0,0,0,0,0,0,0,0,0,0,0,0,0,3,3,12.5,FLYING
12.72,APPROACH,ILS_TRACK,197.19,200,2.81,2317.52,-0.56,3.17,3.4,270.21,-0.726,0.3904,20,270.25,-1.334,9.59,-32.4,43.507,-0.146,1.666,0,0,0,269.64,0,0,0,0,0,0,0,0,0,0,0,0,0,3,3,12.76,FLYING
12.98,APPROACH,ILS_TRACK,197.28,200,2.72,2316.98,-1.37,2.19,2.58,270.22,-0.914,0.3676,20,270.26,-1.767,9.35,-29.89,43.449,-0.144,1.233,0,0,0,269.64,0,0,0,0,0,0,0,0,0,0,0,0,0,3,3,13.02,FLYING
13.28,APPROACH,ILS_TRACK,197.41,200,2.59,2316.33,-2.47,1.99,2.59,270.23,-1.045,0.343,20,270.25,-2.539,9.09,-27.02,43.382,-0.148,0.461,0,0,0,269.64,0,0,0,0,0,0,0,0,0,0,0,0,0,3,3,13.32,FLYING
13.54,APPROACH,ILS_TRACK,197.59,200,2.41,2315.5,-2.68,1.47,2.24,270.24,-1.131,0.3079,20,270.27,-2.928,8.86,-24.64,43.324,-0.133,0.072,0,0,0,269.64,0,0,0,0,0,0,0,0,0,0,0,0,0,3,3,13.58,FLYING
13.8,APPROACH,ILS_TRACK,197.86,200,2.14,2314.24,-3.65,-0.07,0.95,270.22,-1.215,0.2557,20,270.25,-2.103,8.65,-22.72,43.266,-0.147,0.897,0,0,0,269.64,0,0,0,0,0,0,0,0,0,0,0,0,0,3,3,13.84,FLYING
14.06,APPROACH,ILS_TRACK,198.12,200,1.88,2312.78,-5.21,-1.09,0.25,270.21,-1.05,0.2107,20,270.26,-1.77,8.45,-21.07,43.208,-0.142,1.23,0,0,0,269.64,0,0,0,0,0,0,0,0,0,0,0,0,0,3,3,14.1,FLYING
14.36,APPROACH,ILS_TRACK,198.32,200,1.68,2310.97,-7.11,-0.89,0.82,270.22,-0.777,0.1899,20,270.27,-1.864,8.21,-19.32,43.141,-0.134,1.136,0,0,0,269.64,0,0,0,0,0,0,0,0,0,0,0,0,0,3,3,14.4,FLYING
14.62,APPROACH,ILS_TRACK,198.43,200,1.57,2309.35,-8.35,0.55,2.51,270.24,-0.577,0.1869,20,270.26,-2.086,8.03,-17.87,43.082,-0.139,0.914,0,0,0,269.64,0,0,0,0,0,0,0,0,0,0,0,0,0,3,3,14.66,FLYING
14.88,APPROACH,ILS_TRACK,198.59,200,1.41,2307.58,-8.49,2.04,4.11,270.25,-0.43,0.1789,20,270.27,-2.299,7.83,-16.49,43.024,-0.128,0.701,0,0,0,269.64,0,0,0,0,0,0,0,0,0,0,0,0,0,3,3,14.92,FLYING
15.14,APPROACH,ILS_TRACK,198.72,200,1.28,2305.55,-8.41,2.56,4.67,270.26,-0.367,0.1712,20,270.27,-1.804,7.65,-15.38,42.966,-0.129,1.196,0,0,0,269.64,0,0,0,0,0,0,0,0,0,0,0,0,0,3,3,15.18,FLYING
15.44,APPROACH,ILS_TRACK,198.74,200,1.26,2303.13,-8.61,3.02,5.15,270.26,-0.364,0.1878,20,270.28,-1.642,7.44,-14.28,42.898,-0.125,1.358,0,0,0,269.64,0,0,0,0,0,0,0,0,0,0,0,0,0,3,3,15.48,FLYING
15.7,APPROACH,ILS_TRACK,198.65,200,1.35,2301.12,-8.38,3.79,5.9,270.27,-0.366,0.2313,20,270.28,-2.206,7.27,-13.25,42.84,-0.125,0.794,0,0,0,269.64,0,0,0,0,0,0,0,0,0,0,0,0,0,3,3,15.74,FLYING
15.96,APPROACH,ILS_TRACK,198.54,200,1.46,2298.92,-7.81,3.37,5.42,270.27,-0.304,0.2735,20,270.28,-2.23,7.1,-12.3,42.782,-0.125,0.77,0,0,0,269.64,0,0,0,0,0,0,0,0,0,0,0,0,0,3,3,16,FLYING
16.22,APPROACH,ILS_TRACK,198.46,200,1.54,2296.66,-7.96,2.63,4.68,270.27,-0.268,0.2999,20,270.28,-1.961,6.94,-11.52,42.723,-0.118,1.039,0,0,0,269.64,0,0,0,0,0,0,0,0,0,0,0,0,0,3,3,16.26,FLYING
16.52,APPROACH,ILS_TRACK,198.36,200,1.64,2294.18,-8.36,2.56,4.66,270.27,-0.238,0.3241,20,270.29,-2.484,6.74,-10.53,42.656,-0.107,0.516,0,0,0,269.64,0,0,0,0,0,0,0,0,0,0,0,0,0,3,3,16.56,FLYING
16.78,APPROACH,ILS_TRACK,198.34,200,1.66,2292.01,-8.29,2.53,4.67,270.27,-0.306,0.3325,20,270.29,-2.951,6.58,-9.6,42.598,-0.112,0.049,0,0,0,269.64,0,0,0,0,0,0,0,0,0,0,0,0,0,3,3,16.82,FLYING
17.04,APPROACH,ILS_TRACK,198.39,200,1.61,2289.61,-8.28,1.62,3.8,270.28,-0.398,0.3223,20,270.3,-2.645,6.43,-8.86,42.54,-0.105,0.355,0,0,0,269.64,0,0,0,0,0,0,0,0,0,0,0,0,0,3,3,17.08,FLYING
17.3,APPROACH,ILS_TRACK,198.47,200,1.53,2287.11,-8.95,0.74,3.05,270.28,-0.405,0.3022,20,270.3,-2.264,6.27,-8.29,42.482,-0.1,0.736,0,0,0,269.64,0,0,0,0,0,0,0,0,0,0,0,0,0,3,3,17.34,FLYING
17.6,APPROACH,ILS_TRACK,198.54,200,1.46,2284.28,-9.93,0.76,3.23,270.28,-0.311,0.2895,20,270.3,-2.474,6.1,-7.63,42.414,-0.1,0.526,0,0,0,269.64,0,0,0,0,0,0,0,0,0,0,0,0,0,3,3,17.64,FLYING
17.86,APPROACH,ILS_TRACK,198.56,200,1.44,2281.9,-10.43,1.77,4.33,270.28,-0.266,0.2871,20,270.31,-2.891,5.95,-6.98,42.356,-0.094,0.109,0,0,0,269.64,0,0,0,0,0,0,0,0,0,0,0,0,0,3,3,17.9,FLYING
18.12,APPROACH,ILS_TRACK,198.65,200,1.35,2279.35,-10.12,2.21,4.8,270.29,-0.275,0.2735,20,270.3,-2.963,5.8,-6.37,42.298,-0.096,0.037,0,0,0,269.64,0,0,0,0,0,0,0,0,0,0,0,0,0,3,3,18.16,FLYING
18.38,APPROACH,ILS_TRACK,198.75,200,1.25,2276.61,-10.21,1.82,4.43,270.29,-0.309,0.2572,20,270.32,-2.301,5.65,-6.01,42.24,-0.078,0.699,0,0,0,269.64,0,0,0,0,0,0,0,0,0,0,0,0,0,3,3,18.42,FLYING
18.68,APPROACH,ILS_TRACK,198.81,200,1.19,2273.48,-10.69,1.86,4.53,270.3,-0.342,0.2501,20,270.31,-2.267,5.5,-5.65,42.172,-0.093,0.733,0,0,0,269.64,0,0,0,0,0,0,0,0,0,0,0,0,0,3,3,18.72,FLYING
18.94,APPROACH,ILS_TRACK,198.8,200,1.2,2270.91,-10.83,2.72,5.41,270.31,-0.326,0.2614,20,270.32,-2.771,5.36,-5.22,42.114,-0.082,0.229,0,0,0,269.64,0,0,0,0,0,0,0,0,0,0,0,0,0,3,3,18.98,FLYING
19.2,APPROACH,ILS_TRACK,198.8,200,1.2,2268.2,-10.19,2.75,5.39,270.3,-0.279,0.2697,20,270.33,-2.933,5.22,-4.77,42.056,-0.074,0.067,0,0,0,269.64,0,0,0,0,0,0,0,0,0,0,0,0,0,3,3,19.24,FLYING
19.46,APPROACH,ILS_TRACK,198.84,200,1.16,2265.32,-10.23,1.92,4.57,270.3,-0.318,0.2679,20,270.32,-2.243,5.09,-4.57,41.998,-0.082,0.757,0,0,0,269.64,0,0,0,0,0,0,0,0,0,0,0,0,0,3,3,19.5,FLYING
19.76,APPROACH,ILS_TRACK,198.89,200,1.11,2262.06,-10.74,1.55,4.26,270.31,-0.323,0.2625,20,270.33,-2.305,4.95,-4.35,41.93,-0.074,0.695,0,0,0,269.64,0,0,0,0,0,0,0,0,0,0,0,0,0,3,3,19.8,FLYING
20.02,APPROACH,ILS_TRACK,198.89,200,1.11,2259.39,-11.1,2.16,4.91,270.32,-0.325,0.2681,20,270.32,-2.777,4.83,-4.03,41.872,-0.078,0.223,0,0,0,269.64,0,0,0,0,0,0,0,0,0,0,0,0,0,3,3,20.06,FLYING
20.28,APPROACH,ILS_TRACK,198.92,200,1.08,2256.63,-10.66,2.39,5.14,270.31,-0.254,0.2675,20,270.33,-3.046,4.71,-3.65,41.814,-0.075,-0.046,0,0,0,269.64,0,0,0,0,0,0,0,0,0,0,0,0,0,3,3,20.32,FLYING
20.54,APPROACH,ILS_TRACK,199,200,1,2253.69,-10.7,1.81,4.56,270.31,-0.259,0.2558,20,270.32,-2.438,4.59,-3.5,41.756,-0.075,0.562,0,0,0,269.64,0,0,0,0,0,0,0,0,0,0,0,0,0,3,3,20.58,FLYING
20.84,APPROACH,ILS_TRACK,199.05,200,0.95,2250.37,-11.16,1.65,4.45,270.32,-0.26,0.2484,20,270.34,-2.415,4.46,-3.34,41.688,-0.063,0.585,0,0,0,269.64,0,0,0,0,0,0,0,0,0,0,0,0,0,3,3,20.88,FLYING
21.1,APPROACH,ILS_TRACK,199.04,200,0.96,2247.63,-11.42,2.39,5.22,270.32,-0.279,0.2567,20,270.33,-2.878,4.35,-3.08,41.63,-0.071,0.122,0,0,0,269.64,0,0,0,0,0,0,0,0,0,0,0,0,0,3,3,21.14,FLYING
21.36,APPROACH,ILS_TRACK,199.05,200,0.95,2244.79,-10.79,2.54,5.33,270.32,-0.227,0.263,20,270.34,-3.118,4.23,-2.77,41.572,-0.056,-0.118,0,0,0,269.64,0,0,0,0,0,0,0,0,0,0,0,0,0,3,3,21.4,FLYING
21.62,APPROACH,ILS_TRACK,199.09,200,0.91,2241.75,-10.81,1.69,4.49,270.32,-0.272,0.2592,20,270.33,-2.355,4.14,-2.72,41.514,-0.072,0.645,0,0,0,269.64,0,0,0,0,0,0,0,0,0,0,0,0,0,3,3,21.66,FLYING
21.92,APPROACH,ILS_TRACK,199.16,200,0.84,2238.3,-11.34,1.23,4.1,270.32,-0.264,0.2502,20,270.34,-2.277,4.02,-2.69,41.447,-0.063,0.723,0,0,0,269.64,0,0,0,0,0,0,0,0,0,0,0,0,0,3,3,21.96,FLYING
22.18,APPROACH,ILS_TRACK,199.16,200,0.84,2235.44,-11.79,1.76,4.69,270.33,-0.28,0.2532,20,270.34,-2.656,3.92,-2.55,41.388,-0.058,0.344,0,0,0,269.64,0,0,0,0,0,0,0,0,0,0,0,0,0,3,3,22.22,FLYING
22.44,APPROACH,ILS_TRACK,199.2,200,0.8,2232.57,-11.52,2.33,5.25,270.34,-0.253,0.2534,20,270.34,-2.976,3.82,-2.33,41.33,-0.057,0.024,0,0,0,269.64,0,0,0,0,0,0,0,0,0,0,0,0,0,3,3,22.48,FLYING
22.7,APPROACH,ILS_TRACK,199.25,200,0.75,2229.51,-11.31,1.96,4.87,270.33,-0.212,0.2455,20,270.34,-2.515,3.72,-2.27,41.272,-0.059,0.485,0,0,0,269.64,0,0,0,0,0,0,0,0,0,0,0,0,0,3,3,22.74,FLYING
23,APPROACH,ILS_TRACK,199.29,200,0.71,2226.01,-11.63,1.73,4.67,270.33,-0.222,0.2412,20,270.34,-2.269,3.62,-2.28,41.205,-0.057,0.731,0,0,0,269.64,0,0,0,0,0,0,0,0,0,0,0,0,0,3,3,23.04,FLYING
23.26,APPROACH,ILS_TRACK,199.26,200,0.74,2223.12,-11.85,2.34,5.29,270.34,-0.237,0.253,20,270.35,-2.664,3.53,-2.18,41.146,-0.055,0.336,0,0,0,269.64,0,0,0,0,0,0,0,0,0,0,0,0,0,3,3,23.3,FLYING
23.52,APPROACH,ILS_TRACK,199.25,200,0.75,2220.16,-11.32,2.5,5.41,270.34,-0.21,0.2623,20,270.34,-2.905,3.44,-2.01,41.088,-0.056,0.095,0,0,0,269.64,0,0,0,0,0,0,0,0,0,0,0,0,0,3,3,23.56,FLYING
23.78,APPROACH,ILS_TRACK,199.28,200,0.72,2217.09,-11.32,2.03,4.93,270.34,-0.175,0.2601,20,270.35,-2.375,3.36,-2.02,41.03,-0.052,0.625,0,0,0,269.64,0,0,0,0,0,0,0,0,0,0,0,0,0,3,3,23.82,FLYING
24.08,APPROACH,ILS_TRACK,199.27,200,0.73,2213.67,-11.62,2.09,5.01,270.34,-0.202,0.2639,20,270.35,-2.506,3.26,-1.98,40.963,-0.055,0.494,0,0,0,269.64,0,0,0,0,0,0,0,0,0,0,0,0,0,3,3,24.12,FLYING
24.34,APPROACH,ILS_TRACK,199.22,200,0.78,2210.82,-11.42,2.67,5.57,270.35,-0.192,0.2775,20,270.36,-3.032,3.18,-1.8,40.905,-0.042,-0.032,0,0,0,269.64,0,0,0,0,0,0,0,0,0,0,0,0,0,3,3,24.38,FLYING
24.6,APPROACH,ILS_TRACK,199.23,200,0.77,2207.79,-11.04,2.22,5.08,270.35,-0.174,0.2775,20,270.36,-2.79,3.09,-1.7,40.846,-0.044,0.21,0,0,0,269.64,0,0,0,0,0,0,0,0,0,0,0,0,0,3,3,24.64,FLYING
24.86,APPROACH,ILS_TRACK,199.26,200,0.74,2204.75,-11.27,1.72,4.6,270.34,-0.146,0.2699,20,270.35,-2.444,3.02,-1.71,40.788,-0.053,0.556,0,0,0,269.64,0,0,0,0,0,0,0,0,0,0,0,0,0,3,3,24.9,FLYING
25.16,APPROACH,ILS_TRACK,199.25,200,0.75,2201.4,-11.61,2.04,4.95,270.34,-0.145,0.2724,20,270.35,-2.784,2.94,-1.61,40.721,-0.046,0.216,0,0,0,269.64,0,0,0,0,0,0,0,0,0,0,0,0,0,3,3,25.2,FLYING
25.42,APPROACH,ILS_TRACK,199.28,200,0.72,2198.47,-11.35,2.23,5.13,270.35,-0.132,0.2684,20,270.36,-3.069,2.86,-1.45,40.663,-0.04,-0.069,0,0,0,269.64,0,0,0,0,0,0,0,0,0,0,0,0,0,3,3,25.46,FLYING
25.68,APPROACH,ILS_TRACK,199.34,200,0.66,2195.45,-11.35,1.95,4.85,270.35,-0.135,0.255,20,270.36,-2.732,2.79,-1.4,40.605,-0.041,0.268,0,0,0,269.64,0,0,0,0,0,0,0,0,0,0,0,0,0,3,3,25.72,FLYING
25.94,APPROACH,ILS_TRACK,199.36,200,0.64,2192.5,-11.57,2.08,5,270.35,-0.132,0.2521,20,270.36,-2.775,2.72,-1.34,40.547,-0.042,0.225,0,0,0,269.64,0,0,0,0,0,0,0,0,0,0,0,0,0,3,3,25.98,FLYING
26.24,APPROACH,ILS_TRACK,199.4,200,0.6,2189.1,-11.35,2.23,5.13,270.35,-0.123,0.2495,20,270.36,-3.025,2.64,-1.2,40.48,-0.036,-0.025,0,0,0,269.64,0,0,0,0,0,0,0,0,0,0,0,0,0,3,3,26.28,FLYING
26.5,APPROACH,ILS_TRACK,199.45,200,0.55,2186.09,-11.39,2.02,4.92,270.35,-0.121,0.2407,20,270.36,-2.809,2.57,-1.15,40.421,-0.041,0.191,0,0,0,269.64,0,0,0,0,0,0,0,0,0,0,0,0,0,3,3,26.54,FLYING
26.76,APPROACH,ILS_TRACK,199.46,200,0.54,2183.16,-11.41,2.16,5.07,270.35,-0.105,0.2439,20,270.36,-2.939,2.51,-1.06,40.363,-0.037,0.061,0,0,0,269.64,0,0,0,0,0,0,0,0,0,0,0,0,0,3,3,26.8,FLYING
27.02,APPROACH,ILS_TRACK,199.49,200,0.51,2180.18,-11.43,2.11,5.02,270.35,-0.095,0.2411,20,270.36,-2.968,2.44,-0.98,40.305,-0.036,0.032,0,0,0,269.64,0,0,0,0,0,0,0,0,0,0,0,0,0,3,3,27.06,FLYING
27.32,APPROACH,ILS_TRACK,199.52,200,0.48,2176.77,-11.35,2.13,5.03,270.35,-0.091,0.2409,20,270.38,-3.011,2.36,-0.88,40.238,-0.025,-0.011,0,0,0,269.64,0,0,0,0,0,0,0,0,0,0,0,0,0,3,3,27.36,FLYING
27.58,APPROACH,ILS_TRACK,199.54,200,0.46,2173.8,-11.42,2.11,5.01,270.35,-0.099,0.2392,20,270.37,-2.988,2.3,-0.8,40.18,-0.034,0.012,0,0,0,269.64,0,0,0,0,0,0,0,0,0,0,0,0,0,3,3,27.62,FLYING
27.84,APPROACH,ILS_TRACK,199.55,200,0.45,2170.84,-11.34,2.11,5.01,270.35,-0.1,0.2412,20,270.37,-3.083,2.24,-0.71,40.122,-0.03,-0.083,0,0,0,269.64,0,0,0,0,0,0,0,0,0,0,0,0,0,3,3,27.88,FLYING
28.1,APPROACH,ILS_TRACK,199.58,200,0.42,2167.85,-11.4,1.94,4.84,270.35,-0.112,0.2391,20,270.37,-2.989,2.17,-0.65,40.064,-0.027,0.011,0,0,0,269.64,0,0,0,0,0,0,0,0,0,0,0,0,0,3,3,28.14,FLYING
28.4,APPROACH,ILS_TRACK,199.56,200,0.44,2164.45,-11.38,2.08,4.99,270.35,-0.111,0.2463,20,270.38,-3.129,2.1,-0.54,39.996,-0.023,-0.129,0,0,0,269.64,0,0,0,0,0,0,0,0,0,0,0,0,0,3,3,28.44,FLYING
28.66,APPROACH,ILS_TRACK,199.59,200,0.41,2161.42,-11.4,1.81,4.72,270.36,-0.137,0.243,20,270.38,-2.997,2.04,-0.49,39.938,-0.02,0.003,0,0,0,269.64,0,0,0,0,0,0,0,0,0,0,0,0,0,3,3,28.7,FLYING
28.92,APPROACH,ILS_TRACK,199.58,200,0.42,2158.46,-11.62,1.93,4.87,270.36,-0.125,0.2477,20,270.38,-2.996,1.98,-0.45,39.88,-0.023,0.004,0,0,0,269.64,0,0,0,0,0,0,0,0,0,0,0,0,0,3,3,28.96,FLYING
29.18,APPROACH,ILS_TRACK,199.58,200,0.42,2155.49,-11.47,2.06,4.99,270.36,-0.12,0.2521,20,270.38,-3.207,1.92,-0.35,39.822,-0.017,-0.207,0,0,0,269.64,0,0,0,0,0,0,0,0,0,0,0,0,0,3,3,29.22,FLYING
29.48,APPROACH,ILS_TRACK,199.61,200,0.39,2151.96,-11.53,1.71,4.66,270.36,-0.157,0.2468,20,270.38,-2.915,1.86,-0.34,39.755,-0.023,0.085,0,0,0,269.64,0,0,0,0,0,0,0,0,0,0,0,0,0,3,3,29.52,FLYING
29.74,APPROACH,ILS_TRACK,199.59,200,0.41,2148.97,-11.76,1.87,4.84,270.36,-0.134,0.2517,20,270.39,-2.947,1.79,-0.33,39.697,-0.008,0.053,0,0,0,269.64,0,0,0,0,0,0,0,0,0,0,0,0,0,3,3,29.78,FLYING
30,APPROACH,ILS_TRACK,199.6,200,0.4,2145.97,-11.61,2.02,5,270.36,-0.129,0.2544,20,270.38,-3.151,1.74,-0.25,39.639,-0.022,-0.151,0,0,0,269.64,0,0,0,0,0,0,0,0,0,0,0,0,0,3,3,30.04,FLYING
30.26,APPROACH,ILS_TRACK,199.63,200,0.37,2142.9,-11.66,1.84,4.81,270.36,-0.132,0.2486,20,270.39,-2.892,1.68,-0.26,39.581,-0.015,0.108,0,0,0,269.64,0,0,0,0,0,0,0,0,0,0,0,0,0,3,3,30.3,FLYING
30.56,APPROACH,ILS_TRACK,199.6,200,0.4,2139.44,-11.7,2.05,5.03,270.37,-0.124,0.2549,20,270.38,-2.993,1.63,-0.24,39.514,-0.015,0.007,0,0,0,269.64,0,0,0,0,0,0,0,0,0,0,0,0,0,3,3,30.6,FLYING
30.82,APPROACH,ILS_TRACK,199.61,200,0.39,2136.41,-11.69,2.07,5.05,270.37,-0.107,0.2532,20,270.38,-2.989,1.58,-0.22,39.456,-0.017,0.011,0,0,0,269.64,0,0,0,0,0,0,0,0,0,0,0,0,0,3,3,30.86,FLYING
31.08,APPROACH,ILS_TRACK,199.62,200,0.38,2133.38,-11.65,2.08,5.05,270.36,-0.094,0.2535,20,270.39,-2.988,1.53,-0.2,39.398,-0.013,0.012,0,0,0,269.64,0,0,0,0,0,0,0,0,0,0,0,0,0,3,3,31.12,FLYING
31.34,APPROACH,ILS_TRACK,199.63,200,0.37,2130.35,-11.63,2.09,5.05,270.36,-0.09,0.2528,20,270.39,-2.989,1.48,-0.19,39.34,-0.009,0.011,0,0,0,269.64,0,0,0,0,0,0,0,0,0,0,0,0,0,3,3,31.38,FLYING
31.64,APPROACH,ILS_TRACK,199.64,200,0.36,2126.86,-11.59,2.08,5.04,270.37,-0.091,0.252,20,270.39,-3.01,1.42,-0.17,39.273,-0.011,-0.01,0,0,0,269.64,0,0,0,0,0,0,0,0,0,0,0,0,0,3,3,31.68,FLYING
31.9,APPROACH,ILS_TRACK,199.64,200,0.36,2123.85,-11.58,2.07,5.03,270.37,-0.093,0.2514,20,270.39,-3.024,1.38,-0.15,39.215,-0.012,-0.024,0,0,0,269.64,0,0,0,0,0,0,0,0,0,0,0,0,0,3,3,31.94,FLYING
32.16,APPROACH,ILS_TRACK,199.65,200,0.35,2120.83,-11.54,2.05,5.01,270.37,-0.094,0.2505,20,270.39,-3.043,1.33,-0.12,39.157,-0.013,-0.043,0,0,0,269.64,0,0,0,0,0,0,0,0,0,0,0,0,0,3,3,32.2,FLYING
32.42,APPROACH,ILS_TRACK,199.66,200,0.34,2117.82,-11.56,2.05,5,270.37,-0.097,0.2497,20,270.4,-3.048,1.28,-0.09,39.099,0.001,-0.048,0,0,0,269.64,0,0,0,0,0,0,0,0,0,0,0,0,0,3,3,32.46,FLYING
32.72,APPROACH,ILS_TRACK,199.67,200,0.33,2114.35,-11.51,2.03,4.98,270.37,-0.107,0.249,20,270.39,-3.094,1.24,-0.05,39.032,-0.013,-0.094,0,0,0,269.64,0,0,0,0,0,0,0,0,0,0,0,0,0,3,3,32.76,FLYING
32.98,APPROACH,ILS_TRACK,199.69,200,0.31,2111.34,-11.62,1.99,4.94,270.37,-0.111,0.2464,20,270.4,-3.041,1.19,-0.04,38.974,0,-0.041,0,0,0,269.64,0,0,0,0,0,0,0,0,0,0,0,0,0,3,3,33.02,FLYING
33.24,APPROACH,ILS_TRACK,199.69,200,0.31,2108.34,-11.51,2.02,4.97,270.37,-0.118,0.2488,20,270.4,-3.153,1.14,0.01,38.916,-0.003,-0.153,0,0,0,269.64,0,0,0,0,0,0,0,0,0,0,0,0,0,3,3,33.28,FLYING
33.5,APPROACH,ILS_TRACK,199.72,200,0.28,2105.29,-11.58,1.83,4.79,270.38,-0.138,0.2435,20,270.39,-3.002,1.1,0.01,38.858,-0.006,-0.002,0,0,0,269.64,0,0,0,0,0,0,0,0,0,0,0,0,0,3,3,33.54,FLYING
33.8,APPROACH,ILS_TRACK,199.7,200,0.3,2101.84,-11.58,2,4.97,270.38,-0.114,0.2491,20,270.39,-3.136,1.06,0.06,38.791,-0.01,-0.136,0,0,0,269.64,0,0,0,0,0,0,0,0,0,0,0,0,0,3,3,33.84,FLYING
34.06,APPROACH,ILS_TRACK,199.72,200,0.28,2098.79,-11.62,1.86,4.83,270.38,-0.119,0.2447,20,270.4,-3.04,1.02,0.06,38.733,0.004,-0.04,0,0,0,269.64,0,0,0,0,0,0,0,0,0,0,0,0,0,3,3,34.1,FLYING
34.32,APPROACH,ILS_TRACK,199.71,200,0.29,2095.79,-11.62,1.99,4.96,270.38,-0.115,0.2489,20,270.4,-3.104,0.98,0.09,38.675,-0.003,-0.104,0,0,0,269.64,0,0,0,0,0,0,0,0,0,0,0,0,0,3,3,34.36,FLYING
34.58,APPROACH,ILS_TRACK,199.73,200,0.27,2092.76,-11.69,1.95,4.92,270.38,-0.119,0.2459,20,270.4,-3.05,0.94,0.1,38.617,0.001,-0.05,0,0,0,269.64,0,0,0,0,0,0,0,0,0,0,0,0,0,3,3,34.62,FLYING
34.88,APPROACH,ILS_TRACK,199.73,200,0.27,2089.28,-11.6,2,4.97,270.38,-0.113,0.2476,20,270.4,-3.111,0.9,0.12,38.55,-0.002,-0.111,0,0,0,269.64,0,0,0,0,0,0,0,0,0,0,0,0,0,3,3,34.92,FLYING
35.14,APPROACH,ILS_TRACK,199.74,200,0.26,2086.24,-11.7,1.97,4.95,270.38,-0.114,0.2451,20,270.4,-3.023,0.86,0.12,38.492,0.002,-0.023,0,0,0,269.64,0,0,0,0,0,0,0,0,0,0,0,0,0,3,3,35.18,FLYING
35.4,APPROACH,ILS_TRACK,199.74,200,0.26,2083.23,-11.59,2.01,4.99,270.38,-0.105,0.2482,20,270.4,-3.127,0.83,0.15,38.434,-0.003,-0.127,0,0,0,269.64,0,0,0,0,0,0,0,0,0,0,0,0,0,3,3,35.44,FLYING
35.66,APPROACH,ILS_TRACK,199.75,200,0.25,2080.18,-11.67,1.92,4.89,270.38,-0.107,0.2451,20,270.4,-3.014,0.8,0.14,38.376,0.001,-0.014,0,0,0,269.64,0,0,0,0,0,0,0,0,0,0,0,0,0,3,3,35.7,FLYING
35.96,APPROACH,ILS_TRACK,199.74,200,0.26,2076.71,-11.59,2.01,4.98,270.38,-0.095,0.2493,20,270.4,-3.132,0.76,0.17,38.309,0,-0.132,0,0,0,269.64,0,0,0,0,0,0,0,0,0,0,0,0,0,3,3,36,FLYING
36.22,APPROACH,ILS_TRACK,199.76,200,0.24,2073.66,-11.66,1.88,4.86,270.38,-0.101,0.2453,20,270.4,-3.005,0.73,0.15,38.251,0.002,-0.005,0,0,0,269.64,0,0,0,0,0,0,0,0,0,0,0,0,0,3,3,36.26,FLYING
36.48,APPROACH,ILS_TRACK,199.74,200,0.26,2070.65,-11.6,2,4.98,270.38,-0.088,0.2513,20,270.39,-3.132,0.7,0.18,38.194,-0.006,-0.132,0,0,0,269.64,0,0,0,0,0,0,0,0,0,0,0,0,0,3,3,36.52,FLYING
36.74,APPROACH,ILS_TRACK,199.76,200,0.24,2067.61,-11.68,1.9,4.88,270.38,-0.09,0.2476,20,270.4,-3.018,0.67,0.17,38.136,0.003,-0.018,0,0,0,269.64,0,0,0,0,0,0,0,0,0,0,0,0,0,3,3,36.78,FLYING
37.04,APPROACH,ILS_TRACK,199.75,200,0.25,2064.13,-11.6,2,4.98,270.38,-0.083,0.2515,20,270.4,-3.123,0.64,0.19,38.069,0.003,-0.123,0,0,0,269.64,0,0,0,0,0,0,0,0,0,0,0,0,0,3,3,37.08,FLYING
37.3,APPROACH,ILS_TRACK,199.76,200,0.24,2061.09,-11.69,1.92,4.9,270.39,-0.09,0.2472,20,270.4,-3.012,0.61,0.18,38.011,0.004,-0.012,0,0,0,269.64,0,0,0,0,0,0,0,0,0,0,0,0,0,3,3,37.34,FLYING
37.56,APPROACH,ILS_TRACK,199.75,200,0.25,2058.07,-11.6,2,4.98,270.39,-0.083,0.2516,20,270.4,-3.129,0.59,0.2,37.953,-0.002,-0.129,0,0,0,269.64,0,0,0,0,0,0,0,0,0,0,0,0,0,3,3,37.6,FLYING
37.82,APPROACH,ILS_TRACK,199.77,200,0.23,2055.02,-11.69,1.9,4.88,270.39,-0.087,0.2471,20,270.41,-3.003,0.55,0.19,37.895,0.009,-0.003,0,0,0,269.64,0,0,0,0,0,0,0,0,0,0,0,0,0,3,3,37.86,FLYING
38.12,APPROACH,ILS_TRACK,199.76,200,0.24,2051.55,-11.6,2,4.98,270.39,-0.082,0.2508,20,270.4,-3.126,0.53,0.21,37.828,0,-0.126,0,0,0,269.64,0,0,0,0,0,0,0,0,0,0,0,0,0,3,3,38.16,FLYING
38.38,APPROACH,ILS_TRACK,199.77,200,0.23,2048.5,-11.69,1.91,4.89,270.39,-0.086,0.2462,20,270.41,-3.007,0.5,0.19,37.771,0.007,-0.007,0,0,0,269.64,0,0,0,0,0,0,0,0,0,0,0,0,0,3,3,38.42,FLYING
38.64,APPROACH,ILS_TRACK,199.77,200,0.23,2045.49,-11.61,1.99,4.98,270.39,-0.079,0.2501,20,270.4,-3.122,0.48,0.21,37.713,0.003,-0.122,0,0,0,269.64,0,0,0,0,0,0,0,0,0,0,0,0,0,3,3,38.68,FLYING
38.9,APPROACH,ILS_TRACK,199.78,200,0.22,2042.45,-11.69,1.91,4.89,270.39,-0.083,0.2458,20,270.4,-3.014,0.46,0.2,37.655,0.003,-0.014,0,0,0,269.64,0,0,0,0,0,0,0,0,0,0,0,0,0,3,3,38.94,FLYING
39.2,APPROACH,ILS_TRACK,199.78,200,0.22,2038.97,-11.6,1.99,4.97,270.39,-0.071,0.2487,20,270.41,-3.118,0.43,0.22,37.588,0.006,-0.118,0,0,0,269.64,0,0,0,0,0,0,0,0,0,0,0,0,0,3,3,39.24,FLYING
39.46,APPROACH,ILS_TRACK,199.79,200,0.21,2035.93,-11.69,1.92,4.9,270.39,-0.076,0.2448,20,270.4,-3.013,0.41,0.2,37.53,0.003,-0.013,0,0,0,269.64,0,0,0,0,0,0,0,0,0,0,0,0,0,3,3,39.5,FLYING
39.72,APPROACH,ILS_TRACK,199.78,200,0.22,2032.91,-11.59,1.99,4.97,270.39,-0.069,0.2491,20,270.41,-3.13,0.39,0.22,37.473,0.007,-0.13,0,0,0,269.64,0,0,0,0,0,0,0,0,0,0,0,0,0,3,3,39.76,FLYING
39.98,APPROACH,ILS_TRACK,199.8,200,0.2,2029.87,-11.68,1.89,4.87,270.39,-0.077,0.2449,20,270.41,-3.004,0.36,0.2,37.415,0.006,-0.004,0,0,0,269.64,0,0,0,0,0,0,0,0,0,0,0,0,0,3,3,40.02,FLYING
40.28,APPROACH,ILS_TRACK,199.79,200,0.21,2026.4,-11.59,1.99,4.97,270.39,-0.069,0.2486,20,270.41,-3.128,0.34,0.23,37.348,0.008,-0.128,0,0,0,269.64,0,0,0,0,0,0,0,0,0,0,0,0,0,3,3,40.32,FLYING
40.54,APPROACH,ILS_TRACK,199.8,200,0.2,2023.35,-11.67,1.89,4.87,270.39,-0.075,0.2445,20,270.41,-3.01,0.32,0.21,37.29,0.006,-0.01,0,0,0,269.64,0,0,0,0,0,0,0,0,0,0,0,0,0,3,3,40.58,FLYING
40.8,APPROACH,ILS_TRACK,199.79,200,0.21,2020.34,-11.59,1.98,4.96,270.39,-0.067,0.2489,20,270.4,-3.124,0.3,0.23,37.233,0.002,-0.124,0,0,0,269.64,0,0,0,0,0,0,0,0,0,0,0,0,0,3,3,40.84,FLYING
41.06,APPROACH,ILS_TRACK,199.81,200,0.19,2017.3,-11.68,1.91,4.89,270.39,-0.07,0.245,20,270.41,-3.019,0.28,0.21,37.175,0.008,-0.019,0,0,0,269.64,0,0,0,0,0,0,0,0,0,0,0,0,0,3,3,41.1,FLYING
41.36,APPROACH,ILS_TRACK,199.8,200,0.2,2013.83,-11.59,1.98,4.96,270.39,-0.067,0.2481,20,270.41,-3.119,0.26,0.23,37.108,0.009,-0.119,0,0,0,269.64,0,0,0,0,0,0,0,0,0,0,0,0,0,3,3,41.4,FLYING
41.62,APPROACH,ILS_TRACK,199.81,200,0.19,2010.79,-11.67,1.91,4.9,270.39,-0.072,0.2447,20,270.41,-3.019,0.24,0.22,37.051,0.008,-0.019,0,0,0,269.64,0,0,0,0,0,0,0,0,0,0,0,0,0,3,3,41.66,FLYING
41.88,APPROACH,ILS_TRACK,199.81,200,0.19,2007.78,-11.58,1.97,4.95,270.39,-0.068,0.2479,20,270.4,-3.121,0.23,0.23,36.993,0.005,-0.121,0,0,0,269.64,0,0,0,0,0,0,0,0,0,0,0,0,0,3,3,41.92,FLYING
42.14,APPROACH,ILS_TRACK,199.82,200,0.18,2004.74,-11.68,1.91,4.89,270.39,-0.072,0.2445,20,270.41,-3.022,0.2,0.22,36.935,0.015,-0.022,0,0,0,269.64,0,0,0,0,0,0,0,0,0,0,0,0,0,3,3,42.18,FLYING
42.44,APPROACH,ILS_TRACK,199.81,200,0.19,2001.27,-11.58,1.98,4.96,270.4,-0.072,0.2475,20,270.41,-3.129,0.19,0.24,36.868,0.006,-0.129,0,0,0,269.64,0,0,0,0,0,0,0,0,0,0,0,0,0,3,3,42.48,FLYING
42.7,APPROACH,ILS_TRACK,199.82,200,0.18,1998.23,-11.67,1.9,4.89,270.4,-0.074,0.2443,20,270.41,-3.02,0.17,0.22,36.811,0.006,-0.02,0,0,0,269.64,0,0,0,0,0,0,0,0,0,0,0,0,0,3,3,42.74,FLYING
42.96,APPROACH,ILS_TRACK,199.81,200,0.19,1995.22,-11.57,1.97,4.95,270.4,-0.065,0.2483,20,270.41,-3.128,0.16,0.24,36.753,0.006,-0.128,0,0,0,269.64,0,0,0,0,0,0,0,0,0,0,0,0,0,3,3,43,FLYING
43.22,APPROACH,ILS_TRACK,199.83,200,0.17,1992.19,-11.67,1.89,4.88,270.4,-0.069,0.2447,20,270.41,-3.02,0.14,0.23,36.695,0.014,-0.02,0,0,0,269.64,0,0,0,0,0,0,0,0,0,0,0,0,0,3,3,43.26,FLYING
43.52,APPROACH,ILS_TRACK,199.82,200,0.18,1988.72,-11.57,1.97,4.95,270.4,-0.068,0.2481,20,270.4,-3.129,0.13,0.25,36.629,0.005,-0.129,0,0,0,269.64,0,0,0,0,0,0,0,0,0,0,0,0,0,3,3,43.56,FLYING
43.78,APPROACH,ILS_TRACK,199.83,200,0.17,1985.68,-11.67,1.9,4.88,270.4,-0.07,0.2447,20,270.41,-3.018,0.12,0.23,36.571,0.009,-0.018,0,0,0,269.64,0,0,0,0,0,0,0,0,0,0,0,0,0,3,3,43.82,FLYING
44.04,APPROACH,ILS_TRACK,199.82,200,0.18,1982.67,-11.57,1.96,4.94,270.4,-0.064,0.2492,20,270.41,-3.132,0.1,0.25,36.513,0.007,-0.132,0,0,0,269.64,0,0,0,0,0,0,0,0,0,0,0,0,0,3,3,44.08,FLYING
44.3,APPROACH,ILS_TRACK,199.83,200,0.17,1979.64,-11.67,1.9,4.88,270.4,-0.066,0.2455,20,270.4,-3.019,0.1,0.23,36.456,0.005,-0.019,0,0,0,269.64,0,0,0,0,0,0,0,0,0,0,0,0,0,3,3,44.34,FLYING
44.6,APPROACH,ILS_TRACK,199.82,200,0.18,1976.17,-11.57,1.96,4.95,270.4,-0.057,0.2486,20,270.41,-3.13,0.08,0.25,36.389,0.01,-0.13,0,0,0,269.64,0,0,0,0,0,0,0,0,0,0,0,0,0,3,3,44.64,FLYING
44.86,APPROACH,ILS_TRACK,199.83,200,0.17,1973.14,-11.66,1.9,4.88,270.4,-0.061,0.2452,20,270.41,-3.024,0.07,0.24,36.332,0.01,-0.024,0,0,0,269.64,0,0,0,0,0,0,0,0,0,0,0,0,0,3,3,44.9,FLYING
45.12,APPROACH,ILS_TRACK,199.82,200,0.18,1970.14,-11.56,1.96,4.94,270.4,-0.057,0.2489,20,270.4,-3.134,0.06,0.26,36.274,0.004,-0.134,0,0,0,269.64,0,0,0,0,0,0,0,0,0,0,0,0,0,3,3,45.16,FLYING
45.38,APPROACH,ILS_TRACK,199.84,200,0.16,1967.1,-11.65,1.87,4.86,270.4,-0.06,0.2448,20,270.41,-3.015,0.04,0.24,36.216,0.013,-0.015,0,0,0,269.64,0,0,0,0,0,0,0,0,0,0,0,0,0,3,3,45.42,FLYING
45.68,APPROACH,ILS_TRACK,199.83,200,0.17,1963.63,-11.56,1.95,4.94,270.4,-0.057,0.2479,20,270.41,-3.128,0.04,0.26,36.15,0.006,-0.128,0,0,0,269.64,0,0,0,0,0,0,0,0,0,0,0,0,0,3,3,45.72,FLYING
45.94,APPROACH,ILS_TRACK,199.84,200,0.16,1960.6,-11.66,1.89,4.88,270.4,-0.06,0.2441,20,270.41,-3.019,0.02,0.24,36.092,0.011,-0.019,0,0,0,269.64,0,0,0,0,0,0,0,0,0,0,0,0,0,3,3,45.98,FLYING
46.2,APPROACH,ILS_TRACK,199.83,200,0.17,1957.6,-11.57,1.96,4.94,270.4,-0.057,0.2477,20,270.41,-3.129,0.01,0.26,36.035,0.01,-0.129,0,0,0,269.64,0,0,0,0,0,0,0,0,0,0,0,0,0,3,3,46.24,FLYING
46.46,APPROACH,ILS_TRACK,199.84,200,0.16,1954.57,-11.66,1.89,4.88,270.4,-0.059,0.2441,20,270.41,-3.025,0.01,0.24,35.977,0.006,-0.025,0,0,0,269.64,0,0,0,0,0,0,0,0,0,0,0,0,0,3,3,46.5,FLYING
46.76,APPROACH,ILS_TRACK,199.84,200,0.16,1951.1,-11.56,1.96,4.94,270.4,-0.05,0.2468,20,270.41,-3.121,0,0.26,35.911,0.009,-0.121,0,0,0,269.64,0,0,0,0,0,0,0,0,0,0,0,0,0,3,3,46.8,FLYING
47.02,APPROACH,ILS_TRACK,199.85,200,0.15,1948.07,-11.65,1.91,4.9,270.4,-0.053,0.2439,20,270.4,-3.028,-0.01,0.24,35.853,0.004,-0.028,0,0,0,269.64,0,0,0,0,0,0,0,0,0,0,0,0,0,3,3,47.06,FLYING
47.28,APPROACH,ILS_TRACK,199.84,200,0.16,1945.07,-11.55,1.95,4.93,270.4,-0.048,0.2469,20,270.41,-3.128,-0.02,0.26,35.796,0.011,-0.128,0,0,0,269.64,0,0,0,0,0,0,0,0,0,0,0,0,0,3,3,47.32,FLYING
47.54,APPROACH,ILS_TRACK,199.85,200,0.15,1942.04,-11.65,1.89,4.88,270.4,-0.05,0.2437,20,270.4,-3.023,-0.02,0.24,35.738,0.005,-0.023,0,0,0,269.64,0,0,0,0,0,0,0,0,0,0,0,0,0,3,3,47.58,FLYING
47.84,APPROACH,ILS_TRACK,199.84,200,0.16,1938.58,-11.55,1.96,4.94,270.4,-0.045,0.2472,20,270.41,-3.131,-0.04,0.26,35.672,0.013,-0.131,0,0,0,269.64,0,0,0,0,0,0,0,0,0,0,0,0,0,3,3,47.88,FLYING
48.1,APPROACH,ILS_TRACK,199.85,200,0.15,1935.55,-11.62,1.87,4.86,270.4,-0.05,0.2443,20,270.41,-3.029,-0.04,0.25,35.614,0.005,-0.029,0,0,0,269.64,0,0,0,0,0,0,0,0,0,0,0,0,0,3,3,48.14,FLYING
48.36,APPROACH,ILS_TRACK,199.84,200,0.16,1932.55,-11.53,1.94,4.93,270.4,-0.045,0.2489,20,270.41,-3.14,-0.05,0.27,35.557,0.006,-0.14,0,0,0,269.64,0,0,0,0,0,0,0,0,0,0,0,0,0,3,3,48.4,FLYING
48.62,APPROACH,ILS_TRACK,199.85,200,0.15,1929.52,-11.63,1.85,4.83,270.4,-0.049,0.2449,20,270.41,-3.015,-0.06,0.25,35.499,0.012,-0.015,0,0,0,269.64,0,0,0,0,0,0,0,0,0,0,0,0,0,3,3,48.66,FLYING
48.92,APPROACH,ILS_TRACK,199.84,200,0.16,1926.06,-11.54,1.94,4.93,270.4,-0.046,0.2485,20,270.4,-3.138,-0.06,0.27,35.433,0.005,-0.138,0,0,0,269.64,0,0,0,0,0,0,0,0,0,0,0,0,0,3,3,48.96,FLYING
49.18,APPROACH,ILS_TRACK,199.86,200,0.14,1923.03,-11.63,1.85,4.84,270.4,-0.047,0.2442,20,270.41,-3.017,-0.07,0.25,35.375,0.012,-0.017,0,0,0,269.64,0,0,0,0,0,0,0,0,0,0,0,0,0,3,3,49.22,FLYING
49.44,APPROACH,ILS_TRACK,199.84,200,0.16,1920.03,-11.55,1.94,4.93,270.4,-0.045,0.2483,20,270.41,-3.129,-0.07,0.27,35.318,0.007,-0.129,0,0,0,269.64,0,0,0,0,0,0,0,0,0,0,0,0,0,3,3,49.48,FLYING
49.7,APPROACH,ILS_TRACK,199.86,200,0.14,1917.01,-11.63,1.86,4.85,270.4,-0.046,0.2441,20,270.4,-3.024,-0.07,0.25,35.26,0.003,-0.024,0,0,0,269.64,0,0,0,0,0,0,0,0,0,0,0,0,0,3,3,49.74,FLYING
50,APPROACH,ILS_TRACK,199.85,200,0.15,1913.54,-11.54,1.94,4.93,270.4,-0.04,0.2471,20,270.41,-3.124,-0.08,0.27,35.194,0.014,-0.124,0,0,0,269.64,0,0,0,0,0,0,0,0,0,0,0,0,0,3,3,50.04,FLYING
50.26,APPROACH,ILS_TRACK,199.86,200,0.14,1910.52,-11.63,1.88,4.86,270.4,-0.044,0.2435,20,270.41,-3.019,-0.09,0.25,35.137,0.005,-0.019,0,0,0,269.64,0,0,0,0,0,0,0,0,0,0,0,0,0,3,3,50.3,FLYING
50.52,APPROACH,ILS_TRACK,199.85,200,0.15,1907.52,-11.53,1.94,4.93,270.4,-0.037,0.2472,20,270.41,-3.129,-0.09,0.26,35.079,0.007,-0.129,0,0,0,269.64,0,0,0,0,0,0,0,0,0,0,0,0,0,3,3,50.56,FLYING
50.78,APPROACH,ILS_TRACK,199.87,200,0.13,1904.5,-11.63,1.87,4.85,270.4,-0.041,0.2433,20,270.41,-3.016,-0.1,0.25,35.022,0.01,-0.016,0,0,0,269.64,0,0,0,0,0,0,0,0,0,0,0,0,0,3,3,50.82,FLYING
51.08,APPROACH,ILS_TRACK,199.86,200,0.14,1901.04,-11.54,1.94,4.93,270.4,-0.04,0.2464,20,270.41,-3.124,-0.1,0.26,34.955,0.009,-0.124,0,0,0,269.64,0,0,0,0,0,0,0,0,0,0,0,0,0,3,3,51.12,FLYING
51.34,APPROACH,ILS_TRACK,199.87,200,0.13,1898.02,-11.63,1.89,4.88,270.4,-0.043,0.2433,20,270.41,-3.025,-0.1,0.25,34.898,0.005,-0.025,0,0,0,269.64,0,0,0,0,0,0,0,0,0,0,0,0,0,3,3,51.38,FLYING
51.6,APPROACH,ILS_TRACK,199.86,200,0.14,1895.02,-11.53,1.94,4.92,270.4,-0.038,0.2466,20,270.41,-3.125,-0.11,0.26,34.841,0.01,-0.125,0,0,0,269.64,0,0,0,0,0,0,0,0,0,0,0,0,0,3,3,51.64,FLYING
51.86,APPROACH,ILS_TRACK,199.87,200,0.13,1892,-11.62,1.88,4.86,270.4,-0.042,0.2434,20,270.41,-3.021,-0.11,0.24,34.783,0.009,-0.021,0,0,0,269.64,0,0,0,0,0,0,0,0,0,0,0,0,0,3,3,51.9,FLYING
52.16,APPROACH,ILS_TRACK,199.86,200,0.14,1888.54,-11.52,1.93,4.92,270.4,-0.041,0.2461,20,270.41,-3.126,-0.12,0.26,34.717,0.007,-0.126,0,0,0,269.64,0,0,0,0,0,0,0,0,0,0,0,0,0,3,3,52.2,FLYING
52.42,APPROACH,ILS_TRACK,199.87,200,0.13,1885.52,-11.62,1.88,4.86,270.4,-0.043,0.243,20,270.41,-3.022,-0.12,0.25,34.659,0.013,-0.022,0,0,0,269.64,0,0,0,0,0,0,0,0,0,0,0,0,0,3,3,52.46,FLYING
52.68,APPROACH,ILS_TRACK,199.86,200,0.14,1882.53,-11.51,1.93,4.91,270.4,-0.039,0.2471,20,270.41,-3.136,-0.13,0.26,34.602,0.007,-0.136,0,0,0,269.64,0,0,0,0,0,0,0,0,0,0,0,0,0,3,3,52.72,FLYING
52.94,APPROACH,ILS_TRACK,199.87,200,0.13,1879.51,-11.61,1.85,4.84,270.4,-0.043,0.2435,20,270.41,-3.02,-0.13,0.25,34.545,0.008,-0.02,0,0,0,269.64,0,0,0,0,0,0,0,0,0,0,0,0,0,3,3,52.98,FLYING
53.24,APPROACH,ILS_TRACK,199.87,200,0.13,1876.06,-11.51,1.93,4.92,270.4,-0.04,0.247,20,270.41,-3.137,-0.13,0.27,34.479,0.007,-0.137,0,0,0,269.64,0,0,0,0,0,0,0,0,0,0,0,0,0,3,3,53.28,FLYING
53.5,APPROACH,ILS_TRACK,199.88,200,0.12,1873.03,-11.59,1.84,4.82,270.41,-0.042,0.2432,20,270.41,-3.018,-0.13,0.25,34.421,0.006,-0.018,0,0,0,269.64,0,0,0,0,0,0,0,0,0,0,0,0,0,3,3,53.54,FLYING
53.76,APPROACH,ILS_TRACK,199.86,200,0.14,1870.04,-11.51,1.92,4.91,270.41,-0.036,0.2481,20,270.41,-3.136,-0.14,0.27,34.364,0.009,-0.136,0,0,0,269.64,0,0,0,0,0,0,0,0,0,0,0,0,0,3,3,53.8,FLYING
54.02,APPROACH,ILS_TRACK,199.87,200,0.13,1867.02,-11.6,1.84,4.83,270.41,-0.037,0.244,20,270.41,-3.02,-0.14,0.25,34.307,0.007,-0.02,0,0,0,269.64,0,0,0,0,0,0,0,0,0,0,0,0,0,3,3,54.06,FLYING
54.32,APPROACH,ILS_TRACK,199.87,200,0.13,1863.57,-11.51,1.92,4.91,270.41,-0.034,0.2474,20,270.41,-3.13,-0.14,0.27,34.24,0.006,-0.13,0,0,0,269.64,0,0,0,0,0,0,0,0,0,0,0,0,0,3,3,54.36,FLYING
54.58,APPROACH,ILS_TRACK,199.88,200,0.12,1860.56,-11.6,1.85,4.84,270.41,-0.036,0.2436,20,270.41,-3.022,-0.14,0.25,34.183,0.01,-0.022,0,0,0,269.64,0,0,0,0,0,0,0,0,0,0,0,0,0,3,3,54.62,FLYING
54.84,APPROACH,ILS_TRACK,199.87,200,0.13,1857.57,-11.5,1.92,4.91,270.41,-0.035,0.2476,20,270.41,-3.133,-0.14,0.27,34.126,0.005,-0.133,0,0,0,269.64,0,0,0,0,0,0,0,0,0,0,0,0,0,3,3,54.88,FLYING
55.1,APPROACH,ILS_TRACK,199.88,200,0.12,1854.55,-11.59,1.84,4.83,270.41,-0.036,0.2434,20,270.41,-3.016,-0.15,0.25,34.068,0.01,-0.016,0,0,0,269.64,0,0,0,0,0,0,0,0,0,0,0,0,0,3,3,55.14,FLYING
55.4,APPROACH,ILS_TRACK,199.87,200,0.13,1851.1,-11.5,1.92,4.91,270.41,-0.035,0.2468,20,270.4,-3.129,-0.14,0.27,34.002,0.004,-0.129,0,0,0,269.64,0,0,0,0,0,0,0,0,0,0,0,0,0,3,3,55.44,FLYING
55.66,APPROACH,ILS_TRACK,199.88,200,0.12,1848.08,-11.59,1.85,4.83,270.41,-0.035,0.2429,20,270.41,-3.022,-0.15,0.25,33.945,0.009,-0.022,0,0,0,269.64,0,0,0,0,0,0,0,0,0,0,0,0,0,3,3,55.7,FLYING
55.92,APPROACH,ILS_TRACK,199.87,200,0.13,1845.1,-11.49,1.92,4.9,270.41,-0.033,0.2468,20,270.41,-3.132,-0.15,0.27,33.888,0.005,-0.132,0,0,0,269.64,0,0,0,0,0,0,0,0,0,0,0,0,0,3,3,55.96,FLYING
56.18,APPROACH,ILS_TRACK,199.88,200,0.12,1842.08,-11.58,1.84,4.82,270.41,-0.034,0.2427,20,270.41,-3.018,-0.15,0.25,33.831,0.006,-0.018,0,0,0,269.64,0,0,0,0,0,0,0,0,0,0,0,0,0,3,3,56.22,FLYING
56.48,APPROACH,ILS_TRACK,199.88,200,0.12,1838.63,-11.49,1.92,4.9,270.41,-0.027,0.2459,20,270.41,-3.131,-0.15,0.27,33.764,0.009,-0.131,0,0,0,269.64,0,0,0,0,0,0,0,0,0,0,0,0,0,3,3,56.52,FLYING
56.74,APPROACH,ILS_TRACK,199.89,200,0.11,1835.62,-11.58,1.83,4.82,270.41,-0.031,0.242,20,270.4,-3.014,-0.15,0.25,33.707,0.003,-0.014,0,0,0,269.64,0,0,0,0,0,0,0,0,0,0,0,0,0,3,3,56.78,FLYING
57,APPROACH,ILS_TRACK,199.88,200,0.12,1832.63,-11.5,1.91,4.9,270.41,-0.028,0.2464,20,270.41,-3.13,-0.15,0.26,33.65,0.006,-0.13,0,0,0,269.64,0,0,0,0,0,0,0,0,0,0,0,0,0,3,3,57.04,FLYING
57.26,APPROACH,ILS_TRACK,199.89,200,0.11,1829.62,-11.58,1.84,4.83,270.41,-0.03,0.2425,20,270.41,-3.023,-0.15,0.25,33.593,0.009,-0.023,0,0,0,269.64,0,0,0,0,0,0,0,0,0,0,0,0,0,3,3,57.3,FLYING
57.56,APPROACH,ILS_TRACK,199.88,200,0.12,1826.17,-11.49,1.91,4.9,270.41,-0.029,0.2454,20,270.41,-3.123,-0.15,0.26,33.527,0.01,-0.123,0,0,0,269.64,0,0,0,0,0,0,0,0,0,0,0,0,0,3,3,57.6,FLYING
57.82,APPROACH,ILS_TRACK,199.89,200,0.11,1823.16,-11.59,1.86,4.84,270.41,-0.033,0.2422,20,270.4,-3.023,-0.15,0.25,33.47,0.004,-0.023,0,0,0,269.64,0,0,0,0,0,0,0,0,0,0,0,0,0,3,3,57.86,FLYING
58.08,APPROACH,ILS_TRACK,199.88,200,0.12,1820.18,-11.48,1.91,4.9,270.41,-0.028,0.2459,20,270.41,-3.132,-0.15,0.26,33.412,0.006,-0.132,0,0,0,269.64,0,0,0,0,0,0,0,0,0,0,0,0,0,3,3,58.12,FLYING
58.34,APPROACH,ILS_TRACK,199.9,200,0.1,1817.16,-11.57,1.82,4.81,270.41,-0.031,0.2422,20,270.41,-3.013,-0.15,0.24,33.355,0.009,-0.013,0,0,0,269.64,0,0,0,0,0,0,0,0,0,0,0,0,0,3,3,58.38,FLYING
58.64,APPROACH,ILS_TRACK,199.88,200,0.12,1813.72,-11.48,1.91,4.9,270.41,-0.028,0.2459,20,270.41,-3.13,-0.16,0.26,33.289,0.009,-0.13,0,0,0,269.64,0,0,0,0,0,0,0,0,0,0,0,0,0,3,3,58.68,FLYING
58.9,APPROACH,ILS_TRACK,199.9,200,0.1,1810.71,-11.57,1.83,4.82,270.41,-0.032,0.2422,20,270.4,-3.014,-0.16,0.24,33.232,0.004,-0.014,0,0,0,269.64,0,0,0,0,0,0,0,0,0,0,0,0,0,3,3,58.94,FLYING
59.16,APPROACH,ILS_TRACK,199.88,200,0.12,1807.73,-11.48,1.92,4.91,270.41,-0.029,0.2469,20,270.41,-3.131,-0.16,0.26,33.175,0.007,-0.131,0,0,0,269.64,0,0,0,0,0,0,0,0,0,0,0,0,0,3,3,59.2,FLYING
59.42,APPROACH,ILS_TRACK,199.9,200,0.1,1804.71,-11.56,1.82,4.81,270.41,-0.033,0.243,20,270.41,-3.018,-0.16,0.24,33.118,0.008,-0.018,0,0,0,269.64,0,0,0,0,0,0,0,0,0,0,0,0,0,3,3,59.46,FLYING
59.72,APPROACH,ILS_TRACK,199.88,200,0.12,1801.27,-11.48,1.9,4.89,270.41,-0.029,0.2471,20,270.4,-3.121,-0.16,0.26,33.052,0.005,-0.121,0,0,0,269.64,0,0,0,0,0,0,0,0,0,0,0,0,0,3,3,59.76,FLYING
59.98,APPROACH,ILS_TRACK,199.89,200,0.11,1798.27,-11.58,1.87,4.85,270.41,-0.029,0.2438,20,270.41,-3.024,-0.16,0.24,32.995,0.008,-0.024,0,0,0,269.64,0,0,0,0,0,0,0,0,0,0,0,0,0,3,3,60.02,FLYING
60.24,APPROACH,ILS_TRACK,199.88,200,0.12,1795.29,-11.47,1.91,4.9,270.41,-0.026,0.2466,20,270.41,-3.125,-0.16,0.26,32.937,0.01,-0.125,0,0,0,269.64,0,0,0,0,0,0,0,0,0,0,0,0,0,3,3,60.28,FLYING
60.5,APPROACH,ILS_TRACK,199.89,200,0.11,1792.28,-11.56,1.86,4.84,270.41,-0.029,0.2433,20,270.4,-3.027,-0.16,0.24,32.88,0.001,-0.027,0,0,0,269.64,0,0,0,0,0,0,0,0,0,0,0,0,0,3,3,60.54,FLYING
60.8,APPROACH,ILS_TRACK,199.89,200,0.11,1788.84,-11.47,1.92,4.91,270.41,-0.024,0.2458,20,270.41,-3.126,-0.16,0.26,32.814,0.008,-0.126,0,0,0,269.64,0,0,0,0,0,0,0,0,0,0,0,0,0,3,3,60.84,FLYING
61.06,APPROACH,ILS_TRACK,199.9,200,0.1,1785.83,-11.53,1.83,4.81,270.41,-0.027,0.2425,20,270.41,-3.028,-0.16,0.25,32.757,0.008,-0.028,0,0,0,269.64,0,0,0,0,0,0,0,0,0,0,0,0,0,3,3,61.1,FLYING
61.32,APPROACH,ILS_TRACK,199.89,200,0.11,1782.86,-11.45,1.9,4.88,270.41,-0.027,0.2467,20,270.41,-3.135,-0.16,0.27,32.7,0.006,-0.135,0,0,0,269.64,0,0,0,0,0,0,0,0,0,0,0,0,0,3,3,61.36,FLYING
61.58,APPROACH,ILS_TRACK,199.9,200,0.1,1779.85,-11.54,1.82,4.8,270.41,-0.03,0.2425,20,270.41,-3.022,-0.16,0.25,32.643,0.007,-0.022,0,0,0,269.64,0,0,0,0,0,0,0,0,0,0,0,0,0,3,3,61.62,FLYING
61.88,APPROACH,ILS_TRACK,199.89,200,0.11,1776.42,-11.44,1.9,4.89,270.41,-0.027,0.246,20,270.4,-3.141,-0.16,0.27,32.577,0.004,-0.141,0,0,0,269.64,0,0,0,0,0,0,0,0,0,0,0,0,0,3,3,61.92,FLYING
62.14,APPROACH,ILS_TRACK,199.9,200,0.1,1773.41,-11.52,1.78,4.77,270.41,-0.029,0.2416,20,270.41,-3.012,-0.16,0.25,32.52,0.008,-0.012,0,0,0,269.64,0,0,0,0,0,0,0,0,0,0,0,0,0,3,3,62.18,FLYING
62.4,APPROACH,ILS_TRACK,199.89,200,0.11,1770.44,-11.46,1.89,4.88,270.41,-0.026,0.2467,20,270.4,-3.137,-0.15,0.27,32.463,0.002,-0.137,0,0,0,269.64,0,0,0,0,0,0,0,0,0,0,0,0,0,3,3,62.44,FLYING
62.66,APPROACH,ILS_TRACK,199.9,200,0.1,1767.43,-11.54,1.8,4.79,270.41,-0.026,0.2424,20,270.41,-3.024,-0.15,0.25,32.406,0.006,-0.024,0,0,0,269.64,0,0,0,0,0,0,0,0,0,0,0,0,0,3,3,62.7,FLYING
62.96,APPROACH,ILS_TRACK,199.89,200,0.11,1764,-11.46,1.89,4.88,270.41,-0.023,0.2455,20,270.41,-3.127,-0.16,0.27,32.34,0.008,-0.127,0,0,0,269.64,0,0,0,0,0,0,0,0,0,0,0,0,0,3,3,63,FLYING
63.22,APPROACH,ILS_TRACK,199.91,200,0.09,1761,-11.56,1.83,4.82,270.41,-0.026,0.2415,20,270.41,-3.018,-0.16,0.25,32.283,0.006,-0.018,0,0,0,269.64,0,0,0,0,0,0,0,0,0,0,0,0,0,3,3,63.26,FLYING
63.48,APPROACH,ILS_TRACK,199.9,200,0.1,1758.02,-11.45,1.89,4.88,270.41,-0.024,0.2451,20,270.41,-3.13,-0.16,0.27,32.226,0.008,-0.13,0,0,0,269.64,0,0,0,0,0,0,0,0,0,0,0,0,0,3,3,63.52,FLYING
63.74,APPROACH,ILS_TRACK,199.91,200,0.09,1755.01,-11.54,1.82,4.8,270.41,-0.028,0.2412,20,270.41,-3.011,-0.16,0.25,32.169,0.007,-0.011,0,0,0,269.64,0,0,0,0,0,0,0,0,0,0,0,0,0,3,3,63.78,FLYING
64.04,APPROACH,ILS_TRACK,199.9,200,0.1,1751.58,-11.45,1.89,4.88,270.41,-0.026,0.2444,20,270.41,-3.124,-0.16,0.26,32.103,0.005,-0.124,0,0,0,269.64,0,0,0,0,0,0,0,0,0,0,0,0,0,3,3,64.08,FLYING
64.3,APPROACH,ILS_TRACK,199.91,200,0.09,1748.58,-11.54,1.83,4.82,270.41,-0.027,0.241,20,270.41,-3.018,-0.16,0.25,32.046,0.006,-0.018,0,0,0,269.64,0,0,0,0,0,0,0,0,0,0,0,0,0,3,3,64.34,FLYING
64.56,APPROACH,ILS_TRACK,199.9,200,0.1,1745.61,-11.43,1.88,4.87,270.41,-0.027,0.2457,20,270.41,-3.133,-0.16,0.26,31.989,0.007,-0.133,0,0,0,269.64,0,0,0,0,0,0,0,0,0,0,0,0,0,3,3,64.6,FLYING
64.82,APPROACH,ILS_TRACK,199.91,200,0.09,1742.61,-11.54,1.83,4.81,270.41,-0.03,0.2423,20,270.4,-3.012,-0.15,0.24,31.932,0.004,-0.012,0,0,0,269.64,0,0,0,0,0,0,0,0,0,0,0,0,0,3,3,64.86,FLYING
65.12,APPROACH,ILS_TRACK,199.9,200,0.1,1739.18,-11.43,1.89,4.88,270.41,-0.028,0.2452,20,270.41,-3.129,-0.15,0.26,31.867,0.007,-0.129,0,0,0,269.64,0,0,0,0,0,0,0,0,0,0,0,0,0,3,3,65.16,FLYING
65.38,APPROACH,ILS_TRACK,199.91,200,0.09,1736.18,-11.52,1.81,4.79,270.41,-0.029,0.2417,20,270.41,-3.02,-0.16,0.24,31.81,0.007,-0.02,0,0,0,269.64,0,0,0,0,0,0,0,0,0,0,0,0,0,3,3,65.42,FLYING
65.64,APPROACH,ILS_TRACK,199.9,200,0.1,1733.21,-11.42,1.88,4.87,270.41,-0.024,0.2466,20,270.4,-3.14,-0.15,0.26,31.753,0.004,-0.14,0,0,0,269.64,0,0,0,0,0,0,0,0,0,0,0,0,0,3,3,65.68,FLYING
65.9,APPROACH,ILS_TRACK,199.91,200,0.09,1730.2,-11.51,1.78,4.76,270.41,-0.026,0.2422,20,270.41,-3.005,-0.15,0.24,31.696,0.006,-0.005,0,0,0,269.64,0,0,0,0,0,0,0,0,0,0,0,0,0,3,3,65.94,FLYING
66.2,APPROACH,ILS_TRACK,199.9,200,0.1,1726.78,-11.42,1.87,4.85,270.41,-0.024,0.247,20,270.4,-3.141,-0.15,0.27,31.63,0.004,-0.141,0,0,0,269.64,0,0,0,0,0,0,0,0,0,0,0,0,0,3,3,66.24,FLYING
66.46,APPROACH,ILS_TRACK,199.91,200,0.09,1723.78,-11.53,1.8,4.79,270.41,-0.024,0.2427,20,270.41,-3.006,-0.15,0.24,31.573,0.006,-0.006,0,0,0,269.64,0,0,0,0,0,0,0,0,0,0,0,0,0,3,3,66.5,FLYING
66.72,APPROACH,ILS_TRACK,199.89,200,0.11,1720.82,-11.41,1.87,4.86,270.41,-0.023,0.2474,20,270.41,-3.146,-0.15,0.27,31.516,0.007,-0.146,0,0,0,269.64,0,0,0,0,0,0,0,0,0,0,0,0,0,3,3,66.76,FLYING
66.98,APPROACH,ILS_TRACK,199.91,200,0.09,1717.81,-11.52,1.77,4.76,270.41,-0.025,0.2426,20,270.4,-2.995,-0.15,0.24,31.459,0.005,0.005,0,0,0,269.64,0,0,0,0,0,0,0,0,0,0,0,0,0,3,3,67.02,FLYING
67.28,APPROACH,ILS_TRACK,199.9,200,0.1,1714.39,-11.43,1.87,4.86,270.41,-0.023,0.2464,20,270.41,-3.131,-0.15,0.26,31.394,0.006,-0.131,0,0,0,269.64,0,0,0,0,0,0,0,0,0,0,0,0,0,3,3,67.32,FLYING
67.54,APPROACH,ILS_TRACK,199.91,200,0.09,1711.39,-11.53,1.81,4.8,270.41,-0.026,0.2418,20,270.4,-3.012,-0.15,0.24,31.337,0.003,-0.012,0,0,0,269.64,0,0,0,0,0,0,0,0,0,0,0,0,0,3,3,67.58,FLYING
67.8,APPROACH,ILS_TRACK,199.9,200,0.1,1708.42,-11.43,1.88,4.87,270.41,-0.024,0.2449,20,270.41,-3.125,-0.15,0.26,31.28,0.006,-0.125,0,0,0,269.64,0,0,0,0,0,0,0,0,0,0,0,0,0,3,3,67.84,FLYING
68.06,APPROACH,ILS_TRACK,199.92,200,0.08,1705.43,-11.52,1.81,4.8,270.41,-0.028,0.2407,20,270.41,-3.009,-0.15,0.24,31.223,0.006,-0.009,0,0,0,269.64,0,0,0,0,0,0,0,0,0,0,0,0,0,3,3,68.1,FLYING
68.36,APPROACH,ILS_TRACK,199.91,200,0.09,1702,-11.43,1.89,4.88,270.41,-0.023,0.2435,20,270.4,-3.116,-0.14,0.25,31.158,0.003,-0.116,0,0,0,269.64,0,0,0,0,0,0,0,0,0,0,0,0,0,3,3,68.4,FLYING
68.62,APPROACH,ILS_TRACK,199.92,200,0.08,1699.01,-11.5,1.82,4.8,270.41,-0.025,0.2403,20,270.41,-3.023,-0.14,0.24,31.101,0.006,-0.023,0,0,0,269.64,0,0,0,0,0,0,0,0,0,0,0,0,0,3,3,68.66,FLYING
68.88,APPROACH,ILS_TRACK,199.91,200,0.09,1696.04,-11.39,1.87,4.85,270.41,-0.024,0.2451,20,270.4,-3.134,-0.14,0.25,31.044,0.005,-0.134,0,0,0,269.64,0,0,0,0,0,0,0,0,0,0,0,0,0,3,3,68.92,FLYING
69.14,APPROACH,ILS_TRACK,199.92,200,0.08,1693.05,-11.51,1.81,4.79,270.41,-0.025,0.2418,20,270.4,-3.003,-0.14,0.23,30.987,0.003,-0.003,0,0,0,269.64,0,0,0,0,0,0,0,0,0,0,0,0,0,3,3,69.18,FLYING
69.44,APPROACH,ILS_TRACK,199.9,200,0.1,1689.63,-11.38,1.86,4.84,270.41,-0.021,0.246,20,270.4,-3.142,-0.14,0.26,30.921,0.004,-0.142,0,0,0,269.64,0,0,0,0,0,0,0,0,0,0,0,0,0,3,3,69.48,FLYING
69.7,APPROACH,ILS_TRACK,199.91,200,0.09,1686.64,-11.5,1.81,4.79,270.41,-0.022,0.2425,20,270.41,-3.011,-0.14,0.24,30.865,0.01,-0.011,0,0,0,269.64,0,0,0,0,0,0,0,0,0,0,0,0,0,3,3,69.74,FLYING
69.96,APPROACH,ILS_TRACK,199.9,200,0.1,1683.68,-11.39,1.87,4.86,270.41,-0.021,0.2463,20,270.4,-3.15,-0.14,0.26,30.808,0.001,-0.15,0,0,0,269.64,0,0,0,0,0,0,0,0,0,0,0,0,0,3,3,70,FLYING
70.22,APPROACH,ILS_TRACK,199.92,200,0.08,1680.69,-11.47,1.76,4.75,270.41,-0.019,0.2416,20,270.41,-3.016,-0.14,0.24,30.751,0.008,-0.016,0,0,0,269.64,0,0,0,0,0,0,0,0,0,0,0,0,0,3,3,70.26,FLYING
70.52,APPROACH,ILS_TRACK,199.91,200,0.09,1677.28,-11.39,1.86,4.85,270.41,-0.016,0.245,20,270.4,-3.135,-0.13,0.26,30.685,0.001,-0.135,0,0,0,269.64,0,0,0,0,0,0,0,0,0,0,0,0,0,3,3,70.56,FLYING
70.78,APPROACH,ILS_TRACK,199.92,200,0.08,1674.28,-11.48,1.77,4.75,270.41,-0.016,0.2401,20,270.4,-3.016,-0.13,0.25,30.629,0.005,-0.016,0,0,0,269.64,0,0,0,0,0,0,0,0,0,0,0,0,0,3,3,70.82,FLYING
71.04,APPROACH,ILS_TRACK,199.91,200,0.09,1671.33,-11.4,1.87,4.86,270.41,-0.016,0.2445,20,270.41,-3.138,-0.14,0.26,30.572,0.007,-0.138,0,0,0,269.64,0,0,0,0,0,0,0,0,0,0,0,0,0,3,3,71.08,FLYING
71.3,APPROACH,ILS_TRACK,199.93,200,0.07,1668.33,-11.47,1.75,4.74,270.41,-0.02,0.2399,20,270.41,-3.014,-0.14,0.24,30.515,0.006,-0.014,0,0,0,269.64,0,0,0,0,0,0,0,0,0,0,0,0,0,3,3,71.34,FLYING
71.6,APPROACH,ILS_TRACK,199.92,200,0.08,1664.92,-11.41,1.87,4.86,270.41,-0.019,0.2439,20,270.4,-3.123,-0.13,0.26,30.45,0.004,-0.123,0,0,0,269.64,0,0,0,0,0,0,0,0,0,0,0,0,0,3,3,71.64,FLYING
71.86,APPROACH,ILS_TRACK,199.93,200,0.07,1661.92,-11.49,1.8,4.79,270.41,-0.021,0.2397,20,270.41,-3.019,-0.14,0.24,30.393,0.008,-0.019,0,0,0,269.64,0,0,0,0,0,0,0,0,0,0,0,0,0,3,3,71.9,FLYING
72.12,APPROACH,ILS_TRACK,199.92,200,0.08,1658.96,-11.4,1.86,4.85,270.41,-0.02,0.244,20,270.4,-3.123,-0.13,0.26,30.336,0.003,-0.123,0,0,0,269.64,0,0,0,0,0,0,0,0,0,0,0,0,0,3,3,72.16,FLYING
72.38,APPROACH,ILS_TRACK,199.93,200,0.07,1655.98,-11.5,1.81,4.8,270.41,-0.022,0.2405,20,270.4,-3.015,-0.13,0.24,30.279,0.003,-0.015,0,0,0,269.64,0,0,0,0,0,0,0,0,0,0,0,0,0,3,3,72.42,FLYING
72.68,APPROACH,ILS_TRACK,199.92,200,0.08,1652.56,-11.38,1.87,4.86,270.41,-0.02,0.2433,20,270.41,-3.123,-0.13,0.26,30.214,0.007,-0.123,0,0,0,269.64,0,0,0,0,0,0,0,0,0,0,0,0,0,3,3,72.72,FLYING
72.94,APPROACH,ILS_TRACK,199.93,200,0.07,1649.57,-11.48,1.8,4.79,270.41,-0.024,0.2404,20,270.41,-3.014,-0.13,0.24,30.157,0.006,-0.014,0,0,0,269.64,0,0,0,0,0,0,0,0,0,0,0,0,0,3,3,72.98,FLYING
73.2,APPROACH,ILS_TRACK,199.92,200,0.08,1646.62,-11.37,1.87,4.85,270.41,-0.022,0.2444,20,270.41,-3.134,-0.13,0.26,30.101,0.006,-0.134,0,0,0,269.64,0,0,0,0,0,0,0,0,0,0,0,0,0,3,3,73.24,FLYING
73.46,APPROACH,ILS_TRACK,199.93,200,0.07,1643.63,-11.46,1.77,4.75,270.41,-0.024,0.2404,20,270.4,-3.01,-0.13,0.24,30.044,-0.001,-0.01,0,0,0,269.64,0,0,0,0,0,0,0,0,0,0,0,0,0,3,3,73.5,FLYING
73.76,APPROACH,ILS_TRACK,199.92,200,0.08,1640.22,-11.37,1.86,4.85,270.41,-0.022,0.2444,20,270.41,-3.131,-0.13,0.26,29.978,0.01,-0.131,0,0,0,269.64,0,0,0,0,0,0,0,0,0,0,0,0,0,3,3,73.8,FLYING
74.02,APPROACH,ILS_TRACK,199.93,200,0.07,1637.23,-11.47,1.78,4.77,270.41,-0.027,0.2404,20,270.41,-3.012,-0.13,0.24,29.922,0.006,-0.012,0,0,0,269.64,0,0,0,0,0,0,0,0,0,0,0,0,0,3,3,74.06,FLYING
74.28,APPROACH,ILS_TRACK,199.92,200,0.08,1634.28,-11.38,1.86,4.85,270.41,-0.025,0.2448,20,270.4,-3.131,-0.13,0.26,29.865,0.003,-0.131,0,0,0,269.64,0,0,0,0,0,0,0,0,0,0,0,0,0,3,3,74.32,FLYING
74.54,APPROACH,ILS_TRACK,199.94,200,0.06,1631.29,-11.46,1.77,4.76,270.41,-0.025,0.2408,20,270.41,-3.018,-0.13,0.24,29.808,0.007,-0.018,0,0,0,269.64,0,0,0,0,0,0,0,0,0,0,0,0,0,3,3,74.58,FLYING
74.84,APPROACH,ILS_TRACK,199.93,200,0.07,1627.88,-11.37,1.85,4.84,270.41,-0.023,0.244,20,270.4,-3.122,-0.13,0.26,29.743,0.003,-0.122,0,0,0,269.64,0,0,0,0,0,0,0,0,0,0,0,0,0,3,3,74.88,FLYING
75.1,APPROACH,ILS_TRACK,199.94,200,0.06,1624.9,-11.47,1.79,4.78,270.41,-0.024,0.2403,20,270.41,-3.021,-0.13,0.24,29.686,0.007,-0.021,0,0,0,269.64,0,0,0,0,0,0,0,0,0,0,0,0,0,3,3,75.14,FLYING
75.36,APPROACH,ILS_TRACK,199.93,200,0.07,1621.95,-11.36,1.85,4.84,270.41,-0.02,0.2442,20,270.4,-3.133,-0.13,0.26,29.63,0,-0.133,0,0,0,269.64,0,0,0,0,0,0,0,0,0,0,0,0,0,3,3,75.4,FLYING
75.62,APPROACH,ILS_TRACK,199.94,200,0.06,1618.96,-11.45,1.77,4.76,270.4,-0.018,0.2403,20,270.4,-3.018,-0.13,0.24,29.573,0.004,-0.018,0,0,0,269.64,0,0,0,0,0,0,0,0,0,0,0,0,0,3,3,75.66,FLYING
75.92,APPROACH,ILS_TRACK,199.93,200,0.07,1615.56,-11.35,1.85,4.84,270.4,-0.018,0.2445,20,270.41,-3.14,-0.13,0.26,29.508,0.009,-0.14,0,0,0,269.64,0,0,0,0,0,0,0,0,0,0,0,0,0,3,3,75.96,FLYING
76.18,APPROACH,ILS_TRACK,199.94,200,0.06,1612.57,-11.43,1.74,4.73,270.41,-0.023,0.2404,20,270.4,-3.01,-0.13,0.24,29.451,0,-0.01,0,0,0,269.64,0,0,0,0,0,0,0,0,0,0,0,0,0,3,3,76.22,FLYING
76.44,APPROACH,ILS_TRACK,199.92,200,0.08,1609.63,-11.36,1.84,4.83,270.4,-0.021,0.2453,20,270.41,-3.137,-0.13,0.26,29.395,0.01,-0.137,0,0,0,269.64,0,0,0,0,0,0,0,0,0,0,0,0,0,3,3,76.48,FLYING
76.7,APPROACH,ILS_TRACK,199.94,200,0.06,1606.65,-11.45,1.77,4.76,270.41,-0.026,0.241,20,270.4,-3.028,-0.13,0.25,29.338,0.003,-0.028,0,0,0,269.64,0,0,0,0,0,0,0,0,0,0,0,0,0,3,3,76.74,FLYING
77,APPROACH,ILS_TRACK,199.93,200,0.07,1603.24,-11.36,1.84,4.83,270.41,-0.022,0.2438,20,270.41,-3.128,-0.13,0.26,29.273,0.007,-0.128,0,0,0,269.64,0,0,0,0,0,0,0,0,0,0,0,0,0,3,3,77.04,FLYING
77.26,APPROACH,ILS_TRACK,199.94,200,0.06,1600.27,-11.46,1.79,4.78,270.41,-0.026,0.24,20,270.41,-3.023,-0.13,0.25,29.216,0.005,-0.023,0,0,0,269.64,0,0,0,0,0,0,0,0,0,0,0,0,0,3,3,77.3,FLYING
77.52,APPROACH,ILS_TRACK,199.93,200,0.07,1597.32,-11.36,1.85,4.84,270.41,-0.025,0.2433,20,270.4,-3.13,-0.13,0.26,29.16,0.004,-0.13,0,0,0,269.64,0,0,0,0,0,0,0,0,0,0,0,0,0,3,3,77.56,FLYING
77.78,APPROACH,ILS_TRACK,199.95,200,0.05,1594.34,-11.44,1.77,4.75,270.41,-0.027,0.2394,20,270.4,-3.02,-0.13,0.25,29.103,0.002,-0.02,0,0,0,269.64,0,0,0,0,0,0,0,0,0,0,0,0,0,3,3,77.82,FLYING
78.08,APPROACH,ILS_TRACK,199.94,200,0.06,1590.93,-11.35,1.84,4.83,270.41,-0.023,0.2425,20,270.41,-3.127,-0.13,0.26,29.038,0.01,-0.127,0,0,0,269.64,0,0,0,0,0,0,0,0,0,0,0,0,0,3,3,78.12,FLYING
78.34,APPROACH,ILS_TRACK,199.95,200,0.05,1587.96,-11.45,1.79,4.78,270.41,-0.026,0.239,20,270.4,-3.025,-0.13,0.25,28.981,0.001,-0.025,0,0,0,269.64,0,0,0,0,0,0,0,0,0,0,0,0,0,3,3,78.38,FLYING
78.6,APPROACH,ILS_TRACK,199.94,200,0.06,1585.01,-11.34,1.84,4.83,270.41,-0.022,0.2424,20,270.41,-3.133,-0.13,0.27,28.925,0.008,-0.133,0,0,0,269.64,0,0,0,0,0,0,0,0,0,0,0,0,0,3,3,78.64,FLYING
78.86,APPROACH,ILS_TRACK,199.95,200,0.05,1582.03,-11.44,1.77,4.76,270.41,-0.025,0.2389,20,270.41,-3.023,-0.13,0.25,28.868,0.007,-0.023,0,0,0,269.64,0,0,0,0,0,0,0,0,0,0,0,0,0,3,3,78.9,FLYING
79.16,APPROACH,ILS_TRACK,199.95,200,0.05,1578.63,-11.34,1.83,4.82,270.41,-0.022,0.2418,20,270.4,-3.13,-0.13,0.27,28.803,0.005,-0.13,0,0,0,269.64,0,0,0,0,0,0,0,0,0,0,0,0,0,3,3,79.2,FLYING
79.42,APPROACH,ILS_TRACK,199.96,200,0.04,1575.66,-11.43,1.78,4.76,270.41,-0.024,0.2388,20,270.4,-3.028,-0.13,0.25,28.747,0.003,-0.028,0,0,0,269.64,0,0,0,0,0,0,0,0,0,0,0,0,0,3,3,79.46,FLYING
79.69,APPROACH,ILS_TRACK,199.95,200,0.05,1572.62,-11.33,1.84,4.82,270.41,-0.023,0.2426,20,270.41,-3.143,-0.13,0.27,28.689,0.005,-0.143,0,0,0,269.64,0,0,0,0,0,0,0,0,0,0,0,0,0,3,3,79.73,FLYING
79.97,APPROACH,ILS_TRACK,199.96,200,0.04,1569.34,-11.45,1.76,4.74,270.41,-0.027,0.2389,20,270.4,-3.015,-0.13,0.25,28.629,0.005,-0.015,0,0,0,269.64,0,0,0,0,0,0,0,0,0,0,0,0,0,3,3,80.02,FLYING
80.33,APPROACH,ILS_TRACK,199.95,200,0.05,1565.33,-11.35,1.85,4.85,270.41,-0.026,0.2424,20,270.41,-3.138,-0.13,0.27,28.554,0.005,-0.138,0,0,0,269.64,0,0,0,0,0,0,0,0,0,0,0,0,0,3,3,80.38,FLYING
80.65,APPROACH,ILS_TRACK,199.95,200,0.05,1561.64,-11.48,1.86,4.86,270.41,-0.03,0.2413,20,270.4,-3.025,-0.13,0.25,28.484,0.005,-0.025,0,0,0,269.64,0,0,0,0,0,0,0,0,0,0,0,0,0,3,3,80.7,FLYING
80.96,APPROACH,ILS_TRACK,199.93,200,0.07,1558.17,-11.34,1.89,4.89,270.41,-0.03,0.2464,20,270.4,-3.135,-0.13,0.27,28.419,0.004,-0.135,0,0,0,269.64,0,0,0,0,0,0,0,0,0,0,0,0,0,3,3,81.01,FLYING
81.28,APPROACH,ILS_TRACK,199.93,200,0.07,1554.49,-11.5,1.86,4.85,270.41,-0.033,0.2451,20,270.41,-2.992,-0.13,0.24,28.351,0.006,0.008,0,0,0,269.64,0,0,0,0,0,0,0,0,0,0,0,0,0,3,3,81.34,FLYING
81.68,APPROACH,ILS_TRACK,199.9,200,0.1,1549.92,-11.35,1.94,4.94,270.41,-0.031,0.2506,20,270.41,-3.118,-0.13,0.26,28.266,0.006,-0.118,0,0,0,269.64,0,0,0,0,0,0,0,0,0,0,0,0,0,3,3,81.74,FLYING
82.04,APPROACH,ILS_TRACK,199.88,200,0.12,1545.83,-11.45,1.98,4.98,270.41,-0.034,0.2516,20,270.41,-3.011,-0.13,0.24,28.188,0.006,-0.011,0,0,0,269.64,0,0,0,0,0,0,0,0,0,0,0,0,0,3,3,82.1,FLYING
82.4,APPROACH,ILS_TRACK,199.86,200,0.14,1541.73,-11.34,1.99,4.99,270.41,-0.033,0.2559,20,270.41,-3.104,-0.13,0.25,28.11,0.006,-0.104,0,0,0,269.64,0,0,0,0,0,0,0,0,0,0,0,0,0,3,3,82.46,FLYING
82.82,APPROACH,ILS_TRACK,199.84,200,0.16,1536.95,-11.4,1.99,4.98,270.41,-0.037,0.2571,20,270.41,-3.033,-0.13,0.23,28.019,0.008,-0.033,0,0,0,269.64,0,0,0,0,0,0,0,0,0,0,0,0,0,3,3,82.88,FLYING
83.18,APPROACH,ILS_TRACK,199.83,200,0.17,1532.86,-11.31,1.99,4.99,270.41,-0.036,0.2584,20,270.4,-3.085,-0.13,0.24,27.941,0.003,-0.085,0,0,0,269.64,0,0,0,0,0,0,0,0,0,0,0,0,0,3,3,83.24,FLYING
83.54,APPROACH,ILS_TRACK,199.82,200,0.18,1528.78,-11.32,2.01,4.99,270.41,-0.034,0.2578,20,270.41,-3.061,-0.13,0.23,27.863,0.008,-0.061,0,0,0,269.64,0,0,0,0,0,0,0,0,0,0,0,0,0,3,3,83.6,FLYING
83.96,APPROACH,ILS_TRACK,199.81,200,0.19,1524.02,-11.28,1.98,4.97,270.41,-0.036,0.257,20,270.4,-3.091,-0.13,0.24,27.772,0.005,-0.091,0,0,0,269.64,0,0,0,0,0,0,0,0,0,0,0,0,0,3,3,84.02,FLYING
84.32,APPROACH,ILS_TRACK,199.82,200,0.18,1519.94,-11.31,1.99,4.97,270.41,-0.037,0.2544,20,270.4,-3.087,-0.13,0.25,27.694,0.001,-0.087,0,0,0,269.64,0,0,0,0,0,0,0,0,0,0,0,0,0,3,3,84.38,FLYING
84.68,APPROACH,ILS_TRACK,199.83,200,0.17,1515.87,-11.27,1.96,4.94,270.4,-0.031,0.2512,20,270.41,-3.113,-0.13,0.26,27.616,0.01,-0.113,0,0,0,269.64,0,0,0,0,0,0,0,0,0,0,0,0,0,3,3,84.74,FLYING
85.1,APPROACH,ILS_TRACK,199.85,200,0.15,1511.12,-11.31,1.97,4.95,270.41,-0.036,0.2479,20,270.41,-3.102,-0.14,0.27,27.525,0.006,-0.102,0,0,0,269.64,0,0,0,0,0,0,0,0,0,0,0,0,0,3,3,85.16,FLYING
85.46,APPROACH,ILS_TRACK,199.87,200,0.13,1507.04,-11.27,1.95,4.93,270.41,-0.034,0.2442,20,270.4,-3.123,-0.14,0.29,27.447,0.005,-0.123,0,0,0,269.64,0,0,0,0,0,0,0,0,0,0,0,0,0,3,3,85.52,FLYING
85.82,APPROACH,ILS_TRACK,199.88,200,0.12,1502.97,-11.32,1.95,4.93,270.41,-0.035,0.2413,20,270.4,-3.108,-0.13,0.3,27.369,0.003,-0.108,0,0,0,269.64,0,0,0,0,0,0,0,0,0,0,0,0,0,3,3,85.88,FLYING
86.24,APPROACH,ILS_TRACK,199.9,200,0.1,1498.22,-11.28,1.94,4.92,270.41,-0.035,0.2394,20,270.4,-3.124,-0.13,0.31,27.279,0.005,-0.124,0,0,0,269.64,0,0,0,0,0,0,0,0,0,0,0,0,0,3,3,86.3,FLYING
86.6,APPROACH,ILS_TRACK,199.91,200,0.09,1494.15,-11.32,1.96,4.94,270.41,-0.037,0.238,20,270.41,-3.108,-0.13,0.32,27.201,0.007,-0.108,0,0,0,269.64,0,0,0,0,0,0,0,0,0,0,0,0,0,3,3,86.66,FLYING
86.96,APPROACH,ILS_TRACK,199.92,200,0.08,1490.07,-11.28,1.93,4.92,270.41,-0.039,0.2379,20,270.41,-3.129,-0.13,0.33,27.123,0.005,-0.129,0,0,0,269.64,0,0,0,0,0,0,0,0,0,0,0,0,0,3,3,87.02,FLYING
87.38,APPROACH,ILS_TRACK,199.92,200,0.08,1485.32,-11.33,1.95,4.94,270.41,-0.036,0.2387,20,270.41,-3.108,-0.14,0.34,27.032,0.006,-0.108,0,0,0,269.64,0,0,0,0,0,0,0,0,0,0,0,0,0,3,3,87.44,FLYING
