t_s,phase,subphase,ias_ms,vapp_ms,spd_err_ms,agl_m,vs_ms,pitch_deg,aoa_deg,hdg_deg,bank_deg,thr_cmd,thr_cur,thr_intg,at_gain,at_tau_s,at_a_up,at_a_dn,at_kp_thr,at_ki_spd,at_thr_slew,as_cmd_deg,as_cap_deg,as_raw_deg,as_spd_err_ms,as_active,aa_hdg_cmd_deg,aa_fpa_cmd_deg,aa_fbw,aa_dir,actual_fpa_deg,ftf_hdg_err_deg,ftf_fix_idx,kos_steer_pit_deg,kos_steer_hdg_deg,aa_dir_vx,aa_dir_vy,aa_dir_vz,aa_dir_pitch_deg,aa_dir_hdg_deg,ils_loc_m,ils_gs_m,ils_dist_km,loc_corr_deg,gs_corr_deg,gs_latched,active_gs_ang_deg,ils_intercept_alt_m,d_gs_ms,fpa_preclamped_deg,gs_nom_alt_m,flare_fpa_cmd,flare_tgt_vs,flare_frac,steer_hdg_deg,steer_blend,ro_loc_corr_deg,ro_hdg_err_deg,ro_yaw_tgt,ro_yaw_scale,ro_yaw_gate,yaw_cmd,roll_cmd,pitch_cmd,ro_pitch_tgt_deg,ro_pitch_err_deg,ro_pitch_ff,ro_roll_assist,flaps_cur,flaps_tgt,asc_j_ab,asc_j_rk,asc_validity,asc_q_pa,asc_q_raw_pa,asc_mach,asc_apo_m,asc_drag_n,asc_w_prop,asc_edot_aero,asc_edot_orb,asc_pitch_bias,asc_blend,asc_spooling,asc_ab_thr_ratio,asc_ab_t_now,asc_ab_t_avail,asc_ab_ign_on,asc_ab_flameouts,asc_rk_t_now,asc_rk_t_avail,asc_rk_ign_on,asc_rk_flameouts,ship_thrust,ship_avail_thrust,ship_ign_on,ship_flameouts,ifc_raw_dt_s,ifc_dt_s,ifc_loop_n,ifc_hz_est,ifc_raw_dt_max_s,ifc_raw_dt_min_s,phase_el_s,status,craft_name,cfg_file
0.22,APPROACH,FLY_TO_FIX,84.97,70.14,-14.82,1213.23,0.8,4.88,4.39,282.1,0.136,0,0,0,1,0.6,0.9,0.75,0.35,0.0168,0.4,4.5,50.51,40.782,14.822,1,282.4,0.427,1,0,0.54,0.3,0,0,90,0,0,0,0,0,0,0,31.1,0,0,0,3,0,0,0,1704.19,0,0,0,282.1,0,0,0,0,0,0,0,0,0,0,0,0,0,0,0,0,0,VALID,0,0,0,0,0,1,0,0,0,0,0,0,0,0,0,0,0,0,0,0,72.7,381.48,2,0,0.18,0.18,1,3.45,0.18,0.02,0.22,FLYING,CF1-J,0:/Integrated Flight Computer/aircraft/cf1_j_cfg.ks (inferred preloaded)
0.52,APPROACH,FLY_TO_FIX,84.95,70.38,-14.57,1213.44,0.85,4.74,4.19,282.1,0.058,0,0,0,1,0.6,1.749,0.75,0.35,0.0168,0.4,12,50.513,40.018,14.572,1,270.85,-2.02,0,0,0.57,11.25,1,-2.01,270.86,0,0,0,0,0,0,0,31.075,0,0,0,3,0,0,0,1702.84,0,0,0,282.1,0,0,0,0,0,0,0,0,0,0,0,0,0,1,1,0,0,VALID,0,0,0,0,0,1,0,0,0,0,0,0,0,0,0,0,0,0,0,0,67.43,381.47,2,0,0.1,0.1,4,10,0.18,0.08,0.52,FLYING,CF1-J,0:/Integrated Flight Computer/aircraft/cf1_j_cfg.ks (inferred preloaded)
0.78,APPROACH,FLY_TO_FIX,84.91,70.59,-14.32,1213.61,0.73,4.44,3.98,282.04,-0.674,0,0,0,1,0.6,2.727,0.75,0.35,0.0168,0.4,18.5,50.526,39.258,14.32,1,270.84,-1.991,0,0,0.51,11.2,1,-2,270.84,0,0,0,0,0,0,0,31.051,0,0,0,3,0,0,0,1701.59,0,0,0,282.1,0,0,0,0,0,0,0,0,0,0,0,0,0,1,1,0,0,VALID,0,0,0,0,0,1,0,0,0,0,0,0,0,0,0,0,0,0,0,0,63.18,381.49,2,0,0.08,0.08,7,11.54,0.1,0.08,0.78,FLYING,CF1-J,0:/Integrated Flight Computer/aircraft/cf1_j_cfg.ks (inferred preloaded)
1.06,APPROACH,FLY_TO_FIX,84.81,70.82,-13.99,1213.78,0.66,4.31,3.9,281.86,-2.414,0,0,0,1,0.6,3.489,0.75,0.35,0.0168,0.4,25.5,50.554,38.309,14.003,1,270.82,-1.97,0,0,0.46,11.04,1,-1.98,270.82,0,0,0,0,0,0,0,31.025,0,0,0,3,0,0,0,1700.25,0,0,0,282.1,0,0,0,0,0,0,0,0,0,0,0,0,0,1,1,0,0,VALID,0,0,0,0,0,1,0,0,0,0,0,0,0,0,0,0,0,0,0,0,58.91,381.54,2,0,0.1,0.1,10,10.71,0.1,0.08,1.06,FLYING,CF1-J,0:/Integrated Flight Computer/aircraft/cf1_j_cfg.ks (inferred preloaded)
1.32,APPROACH,FLY_TO_FIX,84.68,71.02,-13.65,1213.93,0.59,4.24,3.9,281.58,-4.727,0,0,0,1,0.6,4.082,0.75,0.35,0.0168,0.4,32,50.593,37.305,13.666,1,270.8,-1.945,0,0,0.4,10.78,1,-1.95,270.8,0,0,0,0,0,0,0,31.001,0,0,0,3,0,0,0,1699,0,0,0,282.1,0,0,0,0,0,0,0,0,0,0,0,0,0,1,1,0,0,VALID,0,0,0,0,0,1,0,0,0,0,0,0,0,0,0,0,0,0,0,0,55.2,381.62,2,0,0.08,0.08,13,11.54,0.1,0.08,1.32,FLYING,CF1-J,0:/Integrated Flight Computer/aircraft/cf1_j_cfg.ks (inferred preloaded)
1.62,APPROACH,FLY_TO_FIX,84.48,71.26,-13.21,1214.08,0.54,4.11,3.83,281.18,-7.532,0,0,0,1,0.6,4.5,0.75,0.35,0.0168,0.4,36.005,50.652,36.005,13.229,1,270.78,-1.929,0,0,0.36,10.4,1,-1.93,270.79,0,0,0,0,0,0,0,30.974,0,0,0,3,0,0,0,1697.56,0,0,0,282.1,0,0,0,0,0,0,0,0,0,0,0,0,0,1,1,0,0,VALID,0,0,0,0,0,1,0,0,0,0,0,0,0,0,0,0,0,0,0,0,51.22,381.74,2,0,0.08,0.08,16,10,0.12,0.08,1.62,FLYING,CF1-J,0:/Integrated Flight Computer/aircraft/cf1_j_cfg.ks (inferred preloaded)
1.9,APPROACH,FLY_TO_FIX,84.19,71.49,-12.7,1214.19,0.47,3.95,3.72,280.82,-9.256,0,0,-1.272,1,0.6,4.5,0.75,0.35,0.0168,0.4,34.514,50.736,34.514,12.724,1,270.76,-1.911,0,0,0.32,10.06,1,-1.92,270.77,0,0,0,0,0,0,0,30.948,0,0,0,3,0,0,0,1696.23,0,0,0,282.1,0,0,0,0,0,0,0,0,0,0,0,0,0,1,1,0,0,VALID,0,0,0,0,0,1,0,0,0,0,0,0,0,0,0,0,0,0,0,0,47.77,381.92,2,0,0.1,0.1,19,10.71,0.1,0.08,1.9,FLYING,CF1-J,0:/Integrated Flight Computer/aircraft/cf1_j_cfg.ks (inferred preloaded)
2.16,APPROACH,FLY_TO_FIX,83.78,71.7,-12.08,1214.29,0.38,3.84,3.67,280.57,-9.785,0.067,0,-4.476,1,0.6,4.5,0.75,0.35,0.0168,0.4,32.709,50.858,32.709,12.112,1,270.75,-1.889,0,0,0.27,9.83,1,-1.89,270.75,0,0,0,0,0,0,0,30.925,0,0,0,3,0,0,0,1694.99,0,0,0,282.1,0,0,0,0,0,0,0,0,0,0,0,0,0,1,1,0,0,VALID,0,0,0,0,0,1,0,0,0,0,0,0,0,0,0,0,0,0,0,0,45.12,382.18,2,0,0.08,0.08,22,11.54,0.1,0.08,2.16,FLYING,CF1-J,0:/Integrated Flight Computer/aircraft/cf1_j_cfg.ks (inferred preloaded)
2.44,APPROACH,FLY_TO_FIX,83.34,71.92,-11.42,1214.37,0.31,3.75,3.61,280.33,-9.955,0.0813,0,-7.742,1,0.6,4.5,0.75,0.35,0.0168,0.4,25.709,50.989,0,11.449,1,270.73,-1.868,0,0,0.22,9.6,1,-1.87,270.74,0,0,0,0,0,0,0,30.899,0,0,0,3,0,0,0,1693.66,0,0,0,282.1,0,0,0,0,0,0,0,0,0,0,0,0,0,1,1,0,0,VALID,0,0,0,0,0,1,0,0,0,0,0,0,0,0,0,0,0,0,0,0,44.03,382.45,2,0,0.1,0.1,25,10.71,0.1,0.08,2.44,FLYING,CF1-J,0:/Integrated Flight Computer/aircraft/cf1_j_cfg.ks (inferred preloaded)
2.78,APPROACH,ILS_TRACK,82.93,71.86,-11.07,1214.33,0.18,3.06,2.93,280.13,-10.039,0.1273,0,-10.421,1,0.6,4.5,0.75,0.35,0.0168,0.4,23.709,51.115,0,11.095,1,273.62,0,0,1,0.15,9.54,1,0,295,-0.918,0.0632,0.3916,0,273.62,-197.11,-477.71,30.869,3.621,0,0,3,1214.38,4.488,0,1692.05,0,0,0,282.1,0,0,0,0,0,0,0,0,0,0,0,0,0,1,1,0,0,VALID,0,0,0,0,0,1,0,0,0,0,0,0,0,0,0,0,0,0,0,0,42.89,382.71,2,0,0.1,0.1,29,11.76,0.1,0.06,2.78,FLYING,CF1-J,0:/Integrated Flight Computer/aircraft/cf1_j_cfg.ks (inferred preloaded)
3.04,APPROACH,ILS_TRACK,82.68,71.65,-11.03,1214.31,-0.28,2.81,3.06,279.93,-9.817,0.0233,0,-12.351,1,0.6,4.5,0.75,0.35,0.0168,0.4,26.209,51.191,29.62,11.047,1,273.56,0,0,1,-0.15,9.54,1,0,273.57,-0.918,0.062,0.3917,0,273.56,-192.75,-476.52,30.845,3.555,0,0,3,1214.38,4.701,0,1690.83,0,0,0,282.1,0,0,0,0,0,0,0,0,0,0,0,0,0,1,1,0,0,VALID,0,0,0,0,0,1,0,0,0,0,0,0,0,0,0,0,0,0,0,0,42.42,382.87,2,0,0.08,0.08,32,11.54,0.1,0.08,3.04,FLYING,CF1-J,0:/Integrated Flight Computer/aircraft/cf1_j_cfg.ks (inferred preloaded)
3.34,APPROACH,ILS_TRACK,82.34,71.41,-10.93,1214.33,-0.27,3.64,3.89,279.52,-9.508,0,0,-12.167,1,0.6,4.5,0.793,0.35,0.0168,0.4,29.409,51.289,29.409,10.961,1,273.49,0,0,1,-0.21,9.54,1,0,273.5,-0.9181,0.0609,0.3917,0,273.49,-187.86,-475.08,30.819,3.492,0,0,3,1214.38,4.686,0,1689.42,0,0,0,282.1,0,0,0,0,0,0,0,0,0,0,0,0,0,1,1,0,0,VALID,0,0,0,0,0,1,0,0,0,0,0,0,0,0,0,0,0,0,0,0,39.72,383.09,2,0,0.08,0.08,35,10,0.12,0.08,3.34,FLYING,CF1-J,0:/Integrated Flight Computer/aircraft/cf1_j_cfg.ks (inferred preloaded)
3.68,APPROACH,ILS_TRACK,81.8,71.14,-10.66,1214.24,-0.23,3.56,3.75,279.22,-9.136,0,0,-11.985,1,0.6,4.5,0.872,0.35,0.0168,0.4,28.669,51.451,28.669,10.694,1,273.44,0,0,1,-0.16,9.54,1,0,273.45,-0.9181,0.0599,0.3918,0,273.44,-182.53,-473.58,30.788,3.437,0,0,3,1214.38,4.413,0,1687.83,0,0,0,282.1,0,0,0,0,0,0,0,0,0,0,0,0,0,1,1,0,0,VALID,0,0,0,0,0,1,0,0,0,0,0,0,0,0,0,0,0,0,0,0,36.51,383.44,2,0,0.1,0.1,38,8.82,0.12,0.08,3.68,FLYING,CF1-J,0:/Integrated Flight Computer/aircraft/cf1_j_cfg.ks (inferred preloaded)
3.94,APPROACH,ILS_TRACK,81.37,70.93,-10.44,1214.19,-0.22,3.59,3.77,278.99,-8.835,0,0,-11.806,1,0.6,4.5,0.96,0.35,0.0168,0.4,28.062,51.579,28.062,10.477,1,273.41,0,0,1,-0.15,9.54,1,0,273.41,-0.9181,0.0594,0.3919,0,273.41,-178.6,-472.42,30.765,3.407,0,0,3,1214.38,4.42,0,1686.62,0,0,0,282.1,0,0,0,0,0,0,0,0,0,0,0,0,0,1,1,0,0,VALID,0,0,0,0,0,1,0,0,0,0,0,0,0,0,0,0,0,0,0,0,34.23,383.72,2,0,0.08,0.08,41,11.54,0.1,0.08,3.94,FLYING,CF1-J,0:/Integrated Flight Computer/aircraft/cf1_j_cfg.ks (inferred preloaded)
4.24,APPROACH,ILS_TRACK,80.89,70.69,-10.2,1214.13,-0.24,3.66,3.86,278.72,-8.49,0,0,-11.63,1,0.6,4.5,1.046,0.35,0.0168,0.4,27.372,51.724,27.372,10.232,1,273.37,0,0,1,-0.17,9.54,1,0,273.37,-0.9181,0.0587,0.3919,0,273.37,-174.21,-471.09,30.739,3.367,0,0,3,1214.38,4.431,0,1685.23,0,0,0,282.1,0,0,0,0,0,0,0,0,0,0,0,0,0,1,1,0,0,VALID,0,0,0,0,0,1,0,0,0,0,0,0,0,0,0,0,0,0,0,0,31.78,384.03,2,0,0.08,0.08,44,10,0.12,0.08,4.24,FLYING,CF1-J,0:/Integrated Flight Computer/aircraft/cf1_j_cfg.ks (inferred preloaded)
4.54,APPROACH,ILS_TRACK,80.41,70.45,-9.96,1214.07,-0.27,3.75,3.96,278.45,-8.151,0,0,-11.456,1,0.6,4.5,1.125,0.35,0.0168,0.4,26.692,51.868,26.692,9.991,1,273.32,0,0,1,-0.19,9.54,1,0,273.32,-0.9182,0.058,0.392,0,273.32,-169.98,-469.77,30.712,3.322,0,0,3,1214.38,4.39,0,1683.85,0,0,0,282.1,0,0,0,0,0,0,0,0,0,0,0,0,0,1,1,0,0,VALID,0,0,0,0,0,1,0,0,0,0,0,0,0,0,0,0,0,0,0,0,29.5,384.34,2,0,0.08,0.08,47,10,0.12,0.08,4.54,FLYING,CF1-J,0:/Integrated Flight Computer/aircraft/cf1_j_cfg.ks (inferred preloaded)
4.84,APPROACH,ILS_TRACK,79.93,70.21,-9.72,1214,-0.3,3.85,4.09,278.19,-7.819,0,0,-11.285,1,0.6,4.5,1.197,0.35,0.0168,0.4,26.015,52.012,26.015,9.753,1,273.29,0,0,1,-0.21,9.54,1,0,273.28,-0.9182,0.0573,0.392,0,273.29,-165.9,-468.46,30.686,3.287,0,0,3,1214.38,4.343,0,1682.47,0,0,0,282.1,0,0,0,0,0,0,0,0,0,0,0,0,0,1,1,0,0,VALID,0,0,0,0,0,1,0,0,0,0,0,0,0,0,0,0,0,0,0,0,27.38,384.65,2,0,0.08,0.08,50,10,0.12,0.08,4.84,FLYING,CF1-J,0:/Integrated Flight Computer/aircraft/cf1_j_cfg.ks (inferred preloaded)
5.14,APPROACH,ILS_TRACK,79.45,70,-9.45,1213.93,-0.32,3.97,4.21,277.94,-7.492,0,0,-11.117,1,0.6,4.5,1.26,0.35,0.0168,0.4,25.237,52.155,25.237,9.484,1,273.23,0,0,1,-0.23,9.54,1,0,273.24,-0.9182,0.0563,0.3921,0,273.23,-161.95,-467.17,30.66,3.226,0,0,3,1214.38,4.298,0,1681.1,0,0,0,282.1,0,0,0,0,0,0,0,0,0,0,0,0,0,1,1,0,0,VALID,0,0,0,0,0,1,0,0,0,0,0,0,0,0,0,0,0,0,0,0,25.42,384.96,2,0,0.08,0.08,53,10,0.12,0.08,5.14,FLYING,CF1-J,0:/Integrated Flight Computer/aircraft/cf1_j_cfg.ks (inferred preloaded)
5.44,APPROACH,ILS_TRACK,78.98,70,-8.98,1213.85,-0.35,4.09,4.35,277.7,-7.172,0,0,-10.951,1,0.6,4.5,1.316,0.35,0.0168,0.4,23.798,52.298,23.798,9.008,1,273.19,0,0,1,-0.25,9.54,1,0,273.21,-0.9182,0.0556,0.3921,0,273.19,-158.15,-465.89,30.634,3.19,0,0,3,1214.38,4.252,0,1679.74,0,0,0,282.1,0,0,0,0,0,0,0,0,0,0,0,0,0,1,1,0,0,VALID,0,0,0,0,0,1,0,0,0,0,0,0,0,0,0,0,0,0,0,0,23.6,385.27,2,0,0.08,0.08,56,10,0.12,0.08,5.44,FLYING,CF1-J,0:/Integrated Flight Computer/aircraft/cf1_j_cfg.ks (inferred preloaded)
5.74,APPROACH,ILS_TRACK,78.5,70,-8.5,1213.76,-0.37,4.21,4.49,277.47,-6.862,0,0,-10.788,1,0.6,4.5,1.365,0.35,0.0168,0.4,22.362,52.439,22.362,8.536,1,273.16,0,0,1,-0.27,9.54,1,0,273.16,-0.9182,0.0552,0.3922,0,273.16,-154.48,-464.62,30.608,3.162,0,0,3,1214.38,4.211,0,1678.39,0,0,0,282.1,0,0,0,0,0,0,0,0,0,0,0,0,0,1,1,0,0,VALID,0,0,0,0,0,1,0,0,0,0,0,0,0,0,0,0,0,0,0,0,21.91,385.58,2,0,0.08,0.08,59,10,0.12,0.08,5.74,FLYING,CF1-J,0:/Integrated Flight Computer/aircraft/cf1_j_cfg.ks (inferred preloaded)
6.04,APPROACH,ILS_TRACK,78.03,70,-8.03,1213.67,-0.39,4.34,4.63,277.25,-6.56,0,0,-10.627,1,0.6,4.5,1.408,0.35,0.0168,0.4,20.923,52.58,20.923,8.066,1,273.12,0,0,1,-0.28,9.54,1,0,273.12,-0.9182,0.0545,0.3922,0,273.12,-150.93,-463.36,30.582,3.122,0,0,3,1214.38,4.167,0,1677.04,0,0,0,282.1,0,0,0,0,0,0,0,0,0,0,0,0,0,1,1,0,0,VALID,0,0,0,0,0,1,0,0,0,0,0,0,0,0,0,0,0,0,0,0,20.34,385.88,2,0,0.08,0.08,62,10,0.12,0.08,6.04,FLYING,CF1-J,0:/Integrated Flight Computer/aircraft/cf1_j_cfg.ks (inferred preloaded)
6.34,APPROACH,ILS_TRACK,77.56,70,-7.56,1213.57,-0.4,4.47,4.77,277.04,-6.267,0,0,-10.468,1,0.6,4.5,1.445,0.35,0.0168,0.4,19.475,52.721,19.475,7.595,1,273.08,0,0,1,-0.29,9.54,1,0,273.09,-0.9183,0.0537,0.3923,0,273.08,-147.5,-462.12,30.557,3.075,0,0,3,1214.38,4.129,0,1675.7,0,0,0,282.1,0,0,0,0,0,0,0,0,0,0,0,0,0,1,1,0,0,VALID,0,0,0,0,0,1,0,0,0,0,0,0,0,0,0,0,0,0,0,0,18.88,386.19,2,0,0.08,0.08,65,10,0.12,0.08,6.34,FLYING,CF1-J,0:/Integrated Flight Computer/aircraft/cf1_j_cfg.ks (inferred preloaded)
6.64,APPROACH,ILS_TRACK,77.09,70,-7.09,1213.47,-0.42,4.61,4.92,276.83,-5.985,0,0,-10.312,1,0.6,4.5,1.478,0.35,0.0168,0.4,18.015,52.863,18.015,7.123,1,273.04,0,0,1,-0.31,9.54,1,0,273.06,-0.9183,0.053,0.3924,0,273.04,-144.19,-460.89,30.531,3.037,0,0,3,1214.38,4.095,0,1674.37,0,0,0,282.1,0,0,0,0,0,0,0,0,0,0,0,0,0,1,1,0,0,VALID,0,0,0,0,0,1,0,0,0,0,0,0,0,0,0,0,0,0,0,0,17.53,386.49,2,0,0.08,0.08,68,10,0.12,0.08,6.64,FLYING,CF1-J,0:/Integrated Flight Computer/aircraft/cf1_j_cfg.ks (inferred preloaded)
6.94,APPROACH,ILS_TRACK,76.62,70,-6.62,1213.36,-0.43,4.75,5.07,276.64,-5.713,0,0,-10.158,1,0.6,4.5,1.507,0.35,0.0168,0.4,16.539,53.005,16.539,6.648,1,273.03,0,0,1,-0.32,9.54,1,0,273.01,-0.9183,0.0528,0.3924,0,273.03,-141,-459.67,30.506,3.026,0,0,3,1214.38,4.054,0,1673.05,0,0,0,282.1,0,0,0,0,0,0,0,0,0,0,0,0,0,1,1,0,0,VALID,0,0,0,0,0,1,0,0,0,0,0,0,0,0,0,0,0,0,0,0,16.27,386.8,2,0,0.08,0.08,71,10,0.12,0.08,6.94,FLYING,CF1-J,0:/Integrated Flight Computer/aircraft/cf1_j_cfg.ks (inferred preloaded)
7.24,APPROACH,ILS_TRACK,76.14,70,-6.14,1213.26,-0.44,4.89,5.22,276.45,-5.449,0,0,-10.006,1,0.6,4.5,1.534,0.35,0.0168,0.4,15.045,53.149,15.045,6.171,1,272.97,0,0,1,-0.33,9.54,1,0,272.97,-0.9183,0.0518,0.3925,0,272.97,-137.9,-458.46,30.481,2.967,0,0,3,1214.38,4.022,0,1671.73,0,0,0,282.1,0,0,0,0,0,0,0,0,0,0,0,0,0,1,1,0,0,VALID,0,0,0,0,0,1,0,0,0,0,0,0,0,0,0,0,0,0,0,0,15.1,387.11,2,0,0.08,0.08,74,10,0.12,0.08,7.24,FLYING,CF1-J,0:/Integrated Flight Computer/aircraft/cf1_j_cfg.ks (inferred preloaded)
7.54,APPROACH,ILS_TRACK,75.66,70,-5.66,1213.15,-0.45,5.04,5.38,276.27,-5.196,0,0,-9.857,1,0.6,4.5,1.559,0.35,0.0168,0.4,13.53,53.293,13.53,5.689,1,272.93,0,0,1,-0.34,9.54,1,0,272.95,-0.9183,0.0511,0.3925,0,272.93,-134.91,-457.26,30.456,2.928,0,0,3,1214.38,3.989,0,1670.42,0,0,0,282.1,0,0,0,0,0,0,0,0,0,0,0,0,0,1,1,0,0,VALID,0,0,0,0,0,1,0,0,0,0,0,0,0,0,0,0,0,0,0,0,14.02,387.43,2,0,0.08,0.08,77,10,0.12,0.08,7.54,FLYING,CF1-J,0:/Integrated Flight Computer/aircraft/cf1_j_cfg.ks (inferred preloaded)
7.84,APPROACH,ILS_TRACK,75.17,70,-5.17,1213.04,-0.45,5.2,5.54,276.09,-4.954,0.0065,0,-11.466,1,0.6,4.5,1.583,0.35,0.0168,0.4,11.991,53.439,11.991,5.202,1,272.9,0,0,1,-0.35,9.54,1,0,272.91,-0.9183,0.0506,0.3926,0,272.9,-132.02,-456.07,30.431,2.9,0,0,3,1214.38,3.958,0,1669.12,0,0,0,282.1,0,0,0,0,0,0,0,0,0,0,0,0,0,1,1,0,0,VALID,0,0,0,0,0,1,0,0,0,0,0,0,0,0,0,0,0,0,0,0,13.03,387.74,2,0,0.08,0.08,80,10,0.12,0.08,7.84,FLYING,CF1-J,0:/Integrated Flight Computer/aircraft/cf1_j_cfg.ks (inferred preloaded)
8.14,APPROACH,ILS_TRACK,74.68,70,-4.68,1212.92,-0.46,5.35,5.7,275.93,-4.722,0.0215,0,-12.928,1,0.6,4.5,1.606,0.35,0.0168,0.4,10.428,53.587,10.428,4.711,1,272.87,0,0,1,-0.35,9.54,1,0,272.88,-0.9183,0.0501,0.3926,0,272.87,-129.23,-454.88,30.406,2.873,0,0,3,1214.38,3.928,0,1667.82,0,0,0,282.1,0,0,0,0,0,0,0,0,0,0,0,0,0,1,1,0,0,VALID,0,0,0,0,0,1,0,0,0,0,0,0,0,0,0,0,0,0,0,0,12.38,388.06,2,0,0.08,0.08,83,10,0.12,0.08,8.14,FLYING,CF1-J,0:/Integrated Flight Computer/aircraft/cf1_j_cfg.ks (inferred preloaded)
8.44,APPROACH,ILS_TRACK,74.18,70,-4.18,1212.81,-0.47,5.51,5.87,275.77,-4.501,0.0384,0,-14.241,1,0.6,4.5,1.628,0.35,0.0168,0.4,8.846,53.735,8.846,4.216,1,272.85,0,0,1,-0.36,9.54,1,0,272.84,-0.9183,0.0498,0.3927,0,272.85,-126.53,-453.71,30.382,2.855,0,0,3,1214.38,3.896,0,1666.54,0,0,0,282.1,0,0,0,0,0,0,0,0,0,0,0,0,0,1,1,0,0,VALID,0,0,0,0,0,1,0,0,0,0,0,0,0,0,0,0,0,0,0,0,12.21,388.39,2,0,0.08,0.08,86,10,0.12,0.08,8.44,FLYING,CF1-J,0:/Integrated Flight Computer/aircraft/cf1_j_cfg.ks (inferred preloaded)
8.74,APPROACH,ILS_TRACK,73.69,70,-3.69,1212.7,-0.47,5.68,6.03,275.62,-4.29,0.0564,0,-15.407,1,0.6,4.5,1.648,0.35,0.0168,0.4,7.251,53.884,7.251,3.72,1,272.81,0,0,1,-0.37,9.54,1,0,272.81,-0.9184,0.0489,0.3927,0,272.81,-123.91,-452.55,30.358,2.805,0,0,3,1214.38,3.865,0,1665.26,0,0,0,282.1,0,0,0,0,0,0,0,0,0,0,0,0,0,1,1,0,0,VALID,0,0,0,0,0,1,0,0,0,0,0,0,0,0,0,0,0,0,0,0,12.3,388.71,2,0,0.08,0.08,89,10,0.12,0.08,8.74,FLYING,CF1-J,0:/Integrated Flight Computer/aircraft/cf1_j_cfg.ks (inferred preloaded)
9.04,APPROACH,ILS_TRACK,73.19,70,-3.19,1212.58,-0.48,5.84,6.21,275.47,-4.09,0.0754,0,-16.423,1,0.6,4.5,1.667,0.35,0.0168,0.4,5.647,54.033,5.647,3.225,1,272.76,0,0,1,-0.37,9.54,1,0,272.77,-0.9184,0.0482,0.3928,0,272.76,-121.37,-451.39,30.333,2.765,0,0,3,1214.38,3.836,0,1663.99,0,0,0,282.1,0,0,0,0,0,0,0,0,0,0,0,0,0,1,1,0,0,VALID,0,0,0,0,0,1,0,0,0,0,0,0,0,0,0,0,0,0,0,0,12.52,389.03,2,0,0.08,0.08,92,10,0.12,0.08,9.04,FLYING,CF1-J,0:/Integrated Flight Computer/aircraft/cf1_j_cfg.ks (inferred preloaded)
9.34,APPROACH,ILS_TRACK,72.7,70,-2.7,1212.47,-0.48,6.01,6.38,275.33,-3.9,0.0957,0,-17.29,1,0.6,4.5,1.673,0.35,0.0168,0.4,0,54.181,0,2.729,0,272.73,0,0,1,-0.38,9.54,1,0,272.74,-0.9184,0.0477,0.3928,0,272.73,-118.92,-450.25,30.309,2.732,0,0,3,1214.38,3.808,0,1662.73,0,0,0,282.1,0,0,0,0,0,0,0,0,0,0,0,0,0,1,1,0,0,VALID,0,0,0,0,0,1,0,0,0,0,0,0,0,0,0,0,0,0,0,0,12.87,389.35,2,0,0.08,0.08,95,10,0.12,0.08,9.34,FLYING,CF1-J,0:/Integrated Flight Computer/aircraft/cf1_j_cfg.ks (inferred preloaded)
9.64,APPROACH,ILS_TRACK,72.2,70,-2.2,1212.35,-0.48,6.19,6.56,275.2,-3.719,0.1167,0,-18.01,1,0.6,4.5,1.673,0.35,0.0168,0.4,0,54.329,0,2.237,0,272.71,0,0,1,-0.38,9.54,1,0,272.7,-0.9184,0.0473,0.3928,0,272.71,-116.54,-449.11,30.285,2.711,0,0,3,1214.38,3.777,0,1661.48,0,0,0,282.1,0,0,0,0,0,0,0,0,0,0,0,0,0,1,1,0,0,VALID,0,0,0,0,0,1,0,0,0,0,0,0,0,0,0,0,0,0,0,0,13.35,389.67,2,0,0.08,0.08,98,10,0.12,0.08,9.64,FLYING,CF1-J,0:/Integrated Flight Computer/aircraft/cf1_j_cfg.ks (inferred preloaded)
9.94,APPROACH,ILS_TRACK,71.71,70,-1.71,1212.23,-0.48,6.36,6.74,275.07,-3.547,0.14,0,-18.582,1,0.6,4.5,1.673,0.35,0.0168,0.4,0,54.476,0,1.746,0,272.67,0,0,1,-0.39,9.54,1,0,272.67,-0.9184,0.0466,0.3929,0,272.67,-114.24,-447.98,30.262,2.672,0,0,3,1214.38,3.75,0,1660.23,0,0,0,282.1,0,0,0,0,0,0,0,0,0,0,0,0,0,1,1,0,0,VALID,0,0,0,0,0,1,0,0,0,0,0,0,0,0,0,0,0,0,0,0,13.98,389.99,2,0,0.08,0.08,101,10,0.12,0.08,9.94,FLYING,CF1-J,0:/Integrated Flight Computer/aircraft/cf1_j_cfg.ks (inferred preloaded)
10.24,APPROACH,ILS_TRACK,71.22,70,-1.22,1212.11,-0.49,6.54,6.92,274.95,-3.385,0.1655,0,-19.007,1,0.6,4.5,1.673,0.35,0.0168,0.4,0,54.623,0,1.256,0,272.65,0,0,1,-0.39,9.54,1,0,272.65,-0.9184,0.0462,0.3929,0,272.65,-112.01,-446.86,30.238,2.648,0,0,3,1214.38,3.72,0,1658.99,0,0,0,282.1,0,0,0,0,0,0,0,0,0,0,0,0,0,1,1,0,0,VALID,0,0,0,0,0,1,0,0,0,0,0,0,0,0,0,0,0,0,0,0,14.76,390.3,2,0,0.08,0.08,104,10,0.12,0.08,10.24,FLYING,CF1-J,0:/Integrated Flight Computer/aircraft/cf1_j_cfg.ks (inferred preloaded)
10.54,APPROACH,ILS_TRACK,70.74,70,-0.74,1212,-0.49,6.72,7.1,274.83,-3.229,0.1929,0,-19.286,1,0.6,4.5,1.673,0.35,0.0168,0.4,0,54.769,0,0.769,0,272.6,0,0,1,-0.4,9.54,1,0,272.61,-0.9184,0.0454,0.393,0,272.6,-109.84,-445.75,30.215,2.602,0,0,3,1214.38,3.694,0,1657.77,0,0,0,282.1,0,0,0,0,0,0,0,0,0,0,0,0,0,1,1,0,0,VALID,0,0,0,0,0,1,0,0,0,0,0,0,0,0,0,0,0,0,0,0,15.71,390.62,2,0,0.08,0.08,107,10,0.12,0.08,10.54,FLYING,CF1-J,0:/Integrated Flight Computer/aircraft/cf1_j_cfg.ks (inferred preloaded)
10.84,APPROACH,ILS_TRACK,70.25,70,-0.25,1211.88,-0.49,6.91,7.29,274.72,-3.084,0.2218,0,-19.419,1,0.6,4.5,1.673,0.35,0.0168,0.4,0,54.915,0,0.284,0,272.57,0,0,1,-0.4,9.54,1,0,272.58,-0.9184,0.0449,0.393,0,272.57,-107.73,-444.65,30.191,2.575,0,0,3,1214.38,3.668,0,1656.54,0,0,0,282.1,0,0,0,0,0,0,0,0,0,0,0,0,0,1,1,0,0,VALID,0,0,0,0,0,1,0,0,0,0,0,0,0,0,0,0,0,0,0,0,16.85,390.93,2,0,0.08,0.08,110,10,0.12,0.08,10.84,FLYING,CF1-J,0:/Integrated Flight Computer/aircraft/cf1_j_cfg.ks (inferred preloaded)
11.14,APPROACH,ILS_TRACK,69.77,70,0.23,1211.76,-0.49,7.09,7.48,274.61,-2.945,0.252,0,-19.407,1,0.6,4.5,1.673,0.35,0.0168,0.4,0,55,0,-0.197,0,272.53,0,0,1,-0.4,9.54,1,0,272.56,-0.9184,0.0442,0.3931,0,272.53,-105.69,-443.55,30.168,2.533,0,0,3,1214.38,3.641,0,1655.33,0,0,0,282.1,0,0,0,0,0,0,0,0,0,0,0,0,0,1,1,0,0,VALID,0,0,0,0,0,1,0,0,0,0,0,0,0,0,0,0,0,0,0,0,18.16,391.24,2,0,0.08,0.08,113,10,0.12,0.08,11.14,FLYING,CF1-J,0:/Integrated Flight Computer/aircraft/cf1_j_cfg.ks (inferred preloaded)
11.44,APPROACH,ILS_TRACK,69.3,70,0.7,1211.64,-0.49,7.28,7.67,274.5,-2.813,0.2834,0,-19.252,1,0.6,4.5,1.673,0.35,0.0168,0.4,0,55,0,-0.673,0,272.51,0,0,1,-0.41,9.54,1,0,272.52,-0.9184,0.0437,0.3931,0,272.51,-103.71,-442.47,30.145,2.506,0,0,3,1214.38,3.613,0,1654.13,0,0,0,282.1,0,0,0,0,0,0,0,0,0,0,0,0,0,1,1,0,0,VALID,0,0,0,0,0,1,0,0,0,0,0,0,0,0,0,0,0,0,0,0,19.67,391.55,2,0,0.08,0.08,116,10,0.12,0.08,11.44,FLYING,CF1-J,0:/Integrated Flight Computer/aircraft/cf1_j_cfg.ks (inferred preloaded)
11.74,APPROACH,ILS_TRACK,68.83,70,1.17,1211.53,-0.49,7.47,7.86,274.4,-2.689,0.3157,0,-18.955,1,0.6,4.5,1.673,0.35,0.0168,0.4,0,55,0,-1.143,0,272.5,0,0,1,-0.41,9.54,1,0,272.48,-0.9184,0.0436,0.3932,0,272.5,-101.79,-441.39,30.122,2.5,0,0,3,1214.38,3.586,0,1652.93,0,0,0,282.1,0,0,0,0,0,0,0,0,0,0,0,0,0,1,1,0,0,VALID,0,0,0,0,0,1,0,0,0,0,0,0,0,0,0,0,0,0,0,0,21.38,391.85,2,0,0.08,0.08,119,10,0.12,0.08,11.74,FLYING,CF1-J,0:/Integrated Flight Computer/aircraft/cf1_j_cfg.ks (inferred preloaded)
12.04,APPROACH,ILS_TRACK,68.36,70,1.64,1211.41,-0.49,7.65,8.05,274.31,-2.571,0.3488,0,-18.519,1,0.6,4.5,1.673,0.35,0.0168,0.4,0,55,0,-1.607,0,272.46,0,0,1,-0.41,9.54,1,0,272.46,-0.9184,0.043,0.3932,0,272.46,-99.92,-440.32,30.1,2.462,0,0,3,1214.38,3.56,0,1651.74,0,0,0,282.1,0,0,0,0,0,0,0,0,0,0,0,0,0,1,1,0,0,VALID,0,0,0,0,0,1,0,0,0,0,0,0,0,0,0,0,0,0,0,0,23.29,392.15,2,0,0.08,0.08,122,10,0.12,0.08,12.04,FLYING,CF1-J,0:/Integrated Flight Computer/aircraft/cf1_j_cfg.ks (inferred preloaded)
12.34,APPROACH,ILS_TRACK,67.91,70,2.09,1211.29,-0.49,7.84,8.24,274.21,-2.46,0.3826,0,-17.944,1,0.6,4.5,1.673,0.35,0.0168,0.4,0,55,0,-2.064,0,272.43,0,0,1,-0.42,9.54,1,0,272.43,-0.9185,0.0424,0.3933,0,272.43,-98.1,-439.26,30.077,2.43,0,0,3,1214.38,3.534,0,1650.56,0,0,0,282.1,0,0,0,0,0,0,0,0,0,0,0,0,0,1,1,0,0,VALID,0,0,0,0,0,1,0,0,0,0,0,0,0,0,0,0,0,0,0,0,25.4,392.44,2,0,0.08,0.08,125,10,0.12,0.08,12.34,FLYING,CF1-J,0:/Integrated Flight Computer/aircraft/cf1_j_cfg.ks (inferred preloaded)
12.64,APPROACH,ILS_TRACK,67.46,70,2.54,1211.17,-0.49,8.03,8.43,274.12,-2.354,0.4171,0,-17.235,1,0.6,4.5,1.673,0.35,0.0168,0.4,0,55,0,-2.511,0,272.39,0,0,1,-0.42,9.54,1,0,272.4,-0.9185,0.0418,0.3933,0,272.39,-96.34,-438.2,30.055,2.394,0,0,3,1214.38,3.509,0,1649.39,0,0,0,282.1,0,0,0,0,0,0,0,0,0,0,0,0,0,1,1,0,0,VALID,0,0,0,0,0,1,0,0,0,0,0,0,0,0,0,0,0,0,0,0,27.71,392.73,2,0,0.08,0.08,128,10,0.12,0.08,12.64,FLYING,CF1-J,0:/Integrated Flight Computer/aircraft/cf1_j_cfg.ks (inferred preloaded)
12.94,APPROACH,ILS_TRACK,67.02,70,2.98,1211.05,-0.49,8.22,8.61,274.04,-2.254,0.4519,0,-16.393,1,0.6,4.5,1.673,0.35,0.0168,0.4,0,55,0,-2.95,0,272.37,0,0,1,-0.42,9.54,1,0,272.37,-0.9185,0.0413,0.3933,0,272.37,-94.62,-437.15,30.032,2.37,0,0,3,1214.38,3.484,0,1648.22,0,0,0,282.1,0,0,0,0,0,0,0,0,0,0,0,0,0,1,1,0,0,VALID,0,0,0,0,0,1,0,0,0,0,0,0,0,0,0,0,0,0,0,0,30.23,393.01,2,0,0.08,0.08,131,10,0.12,0.08,12.94,FLYING,CF1-J,0:/Integrated Flight Computer/aircraft/cf1_j_cfg.ks (inferred preloaded)
13.24,APPROACH,ILS_TRACK,66.59,70,3.41,1210.93,-0.49,8.4,8.8,273.96,-2.16,0.487,0,-15.422,1,0.6,4.5,1.673,0.35,0.0168,0.4,0,55,0,-3.378,0,272.33,0,0,1,-0.42,9.54,1,0,272.36,-0.9185,0.0407,0.3934,0,272.33,-92.95,-436.11,30.01,2.332,0,0,3,1214.38,3.462,0,1647.06,0,0,0,282.1,0,0,0,0,0,0,0,0,0,0,0,0,0,1,1,0,0,VALID,0,0,0,0,0,1,0,0,0,0,0,0,0,0,0,0,0,0,0,0,32.95,393.28,2,0,0.08,0.08,134,10,0.12,0.08,13.24,FLYING,CF1-J,0:/Integrated Flight Computer/aircraft/cf1_j_cfg.ks (inferred preloaded)
13.54,APPROACH,ILS_TRACK,66.18,70,3.82,1210.81,-0.49,8.58,8.98,273.88,-2.07,0.5221,0,-14.324,1,0.6,4.5,1.673,0.35,0.0168,0.4,0,55,0,-3.794,0,272.3,0,0,1,-0.42,9.54,1,0,272.32,-0.9185,0.0402,0.3934,0,272.3,-91.32,-435.08,29.988,2.302,0,0,3,1214.38,3.437,0,1645.91,0,0,0,282.1,0,0,0,0,0,0,0,0,0,0,0,0,0,2,2,0,0,VALID,0,0,0,0,0,1,0,0,0,0,0,0,0,0,0,0,0,0,0,0,35.87,393.55,2,0,0.08,0.08,137,10,0.12,0.08,13.54,FLYING,CF1-J,0:/Integrated Flight Computer/aircraft/cf1_j_cfg.ks (inferred preloaded)
13.84,APPROACH,ILS_TRACK,65.77,70,4.23,1210.69,-0.46,8.73,9.1,273.8,-1.986,0.561,0,-13.104,1,0.6,4.5,1.673,0.35,0.0168,0.4,0,55,0,-4.202,0,272.28,0,0,1,-0.41,9.54,1,0,272.28,-0.9185,0.0398,0.3935,0,272.28,-89.73,-434.05,29.966,2.28,0,0,3,1214.38,3.394,0,1644.76,0,0,0,282.1,0,0,0,0,0,0,0,0,0,0,0,0,0,2,2,0,0,VALID,0,0,0,0,0,1,0,0,0,0,0,0,0,0,0,0,0,0,0,0,39,393.81,2,0,0.08,0.08,140,10,0.12,0.08,13.84,FLYING,CF1-J,0:/Integrated Flight Computer/aircraft/cf1_j_cfg.ks (inferred preloaded)
14.14,APPROACH,ILS_TRACK,65.36,70,4.64,1210.57,-0.44,8.8,9.16,273.73,-1.906,0.6072,0,-11.761,1,0.6,4.5,1.673,0.35,0.0168,0.4,0,55,0,-4.611,0,272.25,0,0,1,-0.39,9.54,1,0,272.25,-0.9185,0.0392,0.3935,0,272.25,-88.19,-433.04,29.945,2.245,0,0,3,1214.38,3.378,0,1643.62,0,0,0,282.1,0,0,0,0,0,0,0,0,0,0,0,0,0,2,2,0,0,VALID,0,0,0,0,0,1,0,0,0,0,0,0,0,0,0,0,0,0,0,0,42.36,394.07,2,0,0.08,0.08,143,10,0.12,0.08,14.14,FLYING,CF1-J,0:/Integrated Flight Computer/aircraft/cf1_j_cfg.ks (inferred preloaded)
14.44,APPROACH,ILS_TRACK,64.96,70,5.04,1210.45,-0.42,8.87,9.21,273.66,-1.83,0.6562,0,-10.296,1,0.6,4.5,1.673,0.35,0.0168,0.4,0,55,0,-5.017,0,272.22,0,0,1,-0.37,9.54,1,0,272.23,-0.9185,0.0388,0.3935,0,272.22,-86.68,-432.03,29.923,2.222,0,0,3,1214.38,3.372,0,1642.49,0,0,0,282.1,0,0,0,0,0,0,0,0,0,0,0,0,0,2,2,0,0,VALID,0,0,0,0,0,1,0,0,0,0,0,0,0,0,0,0,0,0,0,0,45.99,394.33,2,0,0.08,0.08,146,10,0.12,0.08,14.44,FLYING,CF1-J,0:/Integrated Flight Computer/aircraft/cf1_j_cfg.ks (inferred preloaded)
14.74,APPROACH,ILS_TRACK,64.55,70,5.45,1210.34,-0.4,8.93,9.25,273.6,-1.758,0.706,0,-8.71,1,0.6,4.5,1.673,0.35,0.0168,0.4,0,55,0,-5.419,0,272.19,0,0,1,-0.36,9.54,1,0,272.2,-0.9185,0.0383,0.3936,0,272.19,-85.21,-431.02,29.902,2.194,0,0,3,1214.38,3.369,0,1641.37,0,0,0,282.1,0,0,0,0,0,0,0,0,0,0,0,0,0,2,2,0,0,VALID,0,0,0,0,0,1,0,0,0,0,0,0,0,0,0,0,0,0,0,0,49.92,394.58,2,0,0.08,0.08,149,10,0.12,0.08,14.74,FLYING,CF1-J,0:/Integrated Flight Computer/aircraft/cf1_j_cfg.ks (inferred preloaded)
15.04,APPROACH,ILS_TRACK,64.16,70,5.84,1210.23,-0.37,8.98,9.29,273.53,-1.689,0.7559,0,-7.004,1,0.6,4.5,1.673,0.35,0.0168,0.4,0,55,0,-5.814,0,272.17,0,0,1,-0.34,9.54,1,0,272.18,-0.9185,0.0379,0.3936,0,272.17,-83.79,-430.01,29.88,2.17,0,0,3,1214.38,3.366,0,1640.25,0,0,0,282.1,0,0,0,0,0,0,0,0,0,0,0,0,0,2,2,0,0,VALID,0,0,0,0,0,1,0,0,0,0,0,0,0,0,0,0,0,0,0,0,54.13,394.83,2,0,0.08,0.08,152,10,0.12,0.08,15.04,FLYING,CF1-J,0:/Integrated Flight Computer/aircraft/cf1_j_cfg.ks (inferred preloaded)
15.34,APPROACH,ILS_TRACK,63.77,70,6.23,1210.12,-0.36,9.02,9.31,273.47,-1.624,0.8054,0,-5.182,1,0.6,4.5,1.673,0.35,0.0168,0.4,0,55,0,-6.2,0,272.13,0,0,1,-0.32,9.54,1,0,272.16,-0.9185,0.0371,0.3937,0,272.13,-82.39,-429,29.859,2.129,0,0,3,1214.38,3.344,0,1639.14,0,0,0,282.1,0,0,0,0,0,0,0,0,0,0,0,0,0,2,2,0,0,VALID,0,0,0,0,0,1,0,0,0,0,0,0,0,0,0,0,0,0,0,0,58.62,395.08,2,0,0.08,0.08,155,10,0.12,0.08,15.34,FLYING,CF1-J,0:/Integrated Flight Computer/aircraft/cf1_j_cfg.ks (inferred preloaded)
15.64,APPROACH,ILS_TRACK,63.4,70,6.6,1210.03,-0.35,9.07,9.35,273.41,-1.562,0.8543,0,-3.246,1,0.6,4.5,1.673,0.35,0.0168,0.4,0,55,0,-6.576,0,272.13,0,0,1,-0.31,9.54,1,0,272.13,-0.9185,0.0372,0.3937,0,272.13,-81.03,-428,29.838,2.131,0,0,3,1214.38,3.341,0,1638.03,0,0,0,282.1,0,0,0,0,0,0,0,0,0,0,0,0,0,2,2,0,0,VALID,0,0,0,0,0,1,0,0,0,0,0,0,0,0,0,0,0,0,0,0,63.38,395.31,2,0,0.08,0.08,158,10,0.12,0.08,15.64,FLYING,CF1-J,0:/Integrated Flight Computer/aircraft/cf1_j_cfg.ks (inferred preloaded)
15.94,APPROACH,ILS_TRACK,63.04,70,6.96,1209.93,-0.33,9.12,9.4,273.35,-1.503,0.9022,0,-1.2,1,0.6,4.5,1.673,0.35,0.0168,0.4,0,55,0,-6.941,0,272.08,0,0,1,-0.31,9.54,1,0,272.1,-0.9185,0.0364,0.3937,0,272.08,-79.7,-426.99,29.817,2.084,0,0,3,1214.38,3.347,0,1636.93,0,0,0,282.1,0,0,0,0,0,0,0,0,0,0,0,0,0,2,2,0,0,VALID,0,0,0,0,0,1,0,0,0,0,0,0,0,0,0,0,0,0,0,0,68.41,395.54,2,0,0.08,0.08,161,10,0.12,0.08,15.94,FLYING,CF1-J,0:/Integrated Flight Computer/aircraft/cf1_j_cfg.ks (inferred preloaded)
16.24,APPROACH,ILS_TRACK,62.68,70,7.32,1209.84,-0.33,9.17,9.45,273.3,-1.447,0.9521,0,0.954,1,0.6,4.5,1.673,0.35,0.0168,0.4,0,55,0,-7.296,0,272.07,0,0,1,-0.3,9.54,1,0,272.07,-0.9185,0.0361,0.3938,0,272.07,-78.4,-425.99,29.796,2.068,0,0,3,1214.38,3.341,0,1635.84,0,0,0,282.1,0,0,0,0,0,0,0,0,0,0,0,0,0,2,2,0,0,VALID,0,0,0,0,0,1,0,0,0,0,0,0,0,0,0,0,0,0,0,0,73.7,395.76,2,0,0.08,0.08,164,10,0.12,0.08,16.24,FLYING,CF1-J,0:/Integrated Flight Computer/aircraft/cf1_j_cfg.ks (inferred preloaded)
16.54,APPROACH,ILS_TRACK,62.28,70,7.72,1209.76,-0.39,9.31,9.65,273.25,-1.392,1,0,2.592,1,0.6,4.5,1.673,0.35,0.0168,0.4,0,55,0,-7.687,0,272.02,0,0,1,-0.35,9.54,1,0,272.05,-0.9185,0.0353,0.3938,0,272.02,-77.13,-424.98,29.775,2.025,0,0,3,1214.38,3.337,0,1634.76,0,0,0,282.1,0,0,0,0,0,0,0,0,0,0,0,0,0,2,2,0,0,VALID,0,0,0,0,0,1,0,0,0,0,0,0,0,0,0,0,0,0,0,0,79.28,396.01,2,0,0.08,0.08,167,10,0.12,0.08,16.54,FLYING,CF1-J,0:/Integrated Flight Computer/aircraft/cf1_j_cfg.ks (inferred preloaded)
16.84,APPROACH,ILS_TRACK,61.76,70,8.24,1209.67,-0.55,9.59,10.06,273.21,-1.335,1,0,2.553,1,0.6,4.5,1.673,0.35,0.0168,0.4,0,55,0,-8.193,0,272.01,0,0,1,-0.48,9.54,1,0,272.02,-0.9185,0.0351,0.3939,0,272.01,-75.89,-424,29.755,2.01,0,0,3,1214.38,3.256,0,1633.68,0,0,0,282.1,0,0,0,0,0,0,0,0,0,0,0,0,0,2,2,0,0,VALID,0,0,0,0,0,1,0,0,0,0,0,0,0,0,0,0,0,0,0,0,85,396.34,2,0,0.08,0.08,170,10,0.12,0.08,16.84,FLYING,CF1-J,0:/Integrated Flight Computer/aircraft/cf1_j_cfg.ks (inferred preloaded)
17.14,APPROACH,ILS_TRACK,60.94,70,9.06,1209.53,-0.92,10.08,10.88,273.19,-1.282,1,0,2.515,1,0.6,4.5,1.673,0.35,0.0168,0.4,0,55,0,-8.998,0,271.98,0,0,1,-0.81,9.54,1,0,271.99,-0.9185,0.0346,0.3939,0,271.98,-74.67,-423.06,29.735,1.981,0,0,3,1214.38,3.023,0,1632.61,0,0,0,282.1,0,0,0,0,0,0,0,0,0,0,0,0,0,2,2,0,0,VALID,0,0,0,0,0,1,0,0,0,0,0,0,0,0,0,0,0,0,0,0,90.67,396.86,2,0,0.08,0.08,173,10,0.12,0.08,17.14,FLYING,CF1-J,0:/Integrated Flight Computer/aircraft/cf1_j_cfg.ks (inferred preloaded)
17.44,APPROACH,ILS_TRACK,59.74,70,10.26,1209.24,-1.34,10.56,11.69,273.17,-1.188,1,0,2.477,1,0.6,4.5,1.673,0.35,0.0168,0.4,0,55,0,-10.172,0,271.96,0,0,1,-1.24,9.54,1,0,271.96,-0.9185,0.0341,0.3939,0,271.96,-73.48,-422.27,29.715,1.955,0,0,3,1214.38,2.262,0,1631.57,0,0,0,282.1,0,0,0,0,0,0,0,0,0,0,0,0,0,2,2,0,0,VALID,0,0,0,0,0,1,0,0,0,0,0,0,0,0,0,0,0,0,0,0,96.31,397.6,2,0,0.08,0.08,176,10,0.12,0.08,17.44,FLYING,CF1-J,0:/Integrated Flight Computer/aircraft/cf1_j_cfg.ks (inferred preloaded)
17.74,APPROACH,ILS_TRACK,58.46,70,11.54,1208.53,-1.67,9.26,10.54,273.23,-0.905,1,0,2.44,1,0.6,4.5,1.673,0.35,0.0168,0.4,0,55,0,-11.467,0,271.94,0,0,1,-1.58,9.54,1,0,271.95,-0.9185,0.0339,0.394,0,271.94,-72.33,-421.89,29.695,1.944,0,0,3,1214.38,0.643,0,1630.54,0,0,0,282.1,0,0,0,0,0,0,0,0,0,0,0,0,0,2,2,0,0,VALID,0,0,0,0,0,1,0,0,0,0,0,0,0,0,0,0,0,0,0,0,101.9,398.4,2,0,0.08,0.08,179,10,0.12,0.08,17.74,FLYING,CF1-J,0:/Integrated Flight Computer/aircraft/cf1_j_cfg.ks (inferred preloaded)
18.04,APPROACH,ILS_TRACK,57.65,70,12.35,1207.46,-2.36,6.34,8.21,273.31,-0.66,1,0,2.404,1,0.6,4.5,1.673,0.35,0.0168,0.4,0,55,0,-12.315,0,271.88,0,0,1,-2.23,9.54,1,0,271.91,-0.9185,0.0329,0.394,0,271.88,-71.18,-421.92,29.676,1.884,0,0,3,1214.38,-0.4,0,1629.54,0,0,0,282.1,0,0,0,0,0,0,0,0,0,0,0,0,0,2,2,0,0,VALID,0,0,0,0,0,1,0,0,0,0,0,0,0,0,0,0,0,0,0,0,107.33,398.92,2,0,0.08,0.08,182,10,0.12,0.08,18.04,FLYING,CF1-J,0:/Integrated Flight Computer/aircraft/cf1_j_cfg.ks (inferred preloaded)
18.34,APPROACH,ILS_TRACK,57.3,70,12.7,1206.25,-3.4,4.02,6.91,273.36,-0.45,1,0,2.368,1,0.6,4.5,1.673,0.35,0.0168,0.4,0,55,0,-12.681,0,271.85,0,0,1,-3.25,9.54,1,0,271.88,-0.9185,0.0322,0.394,0,271.85,-70.04,-422.12,29.657,1.846,0,0,3,1214.38,-0.799,0,1628.54,0,0,0,282.1,0,0,0,0,0,0,0,0,0,0,0,0,0,2,2,0,0,VALID,0,0,0,0,0,1,0,0,0,0,0,0,0,0,0,0,0,0,0,0,112.61,399.17,2,0,0.08,0.08,185,10,0.12,0.08,18.34,FLYING,CF1-J,0:/Integrated Flight Computer/aircraft/cf1_j_cfg.ks (inferred preloaded)
18.64,APPROACH,ILS_TRACK,57.17,70,12.83,1204.9,-4.46,2.89,6.81,273.41,-0.265,1,0,2.333,1,0.6,4.5,1.673,0.35,0.0168,0.4,0,55,0,-12.829,0,271.8,0,0,1,-4.32,9.54,1,0,271.84,-0.9185,0.0314,0.3941,0,271.8,-68.91,-422.46,29.638,1.801,0,0,3,1214.38,-1.321,0,1627.55,0,0,0,282.1,0,0,0,0,0,0,0,0,0,0,0,0,0,2,2,0,0,VALID,0,0,0,0,0,1,0,0,0,0,0,0,0,0,0,0,0,0,0,0,117.77,399.31,2,0,0.08,0.08,188,10,0.12,0.08,18.64,FLYING,CF1-J,0:/Integrated Flight Computer/aircraft/cf1_j_cfg.ks (inferred preloaded)
18.94,APPROACH,ILS_TRACK,57.12,70,12.88,1203.4,-5.43,2.81,7.69,273.41,-0.138,1,0,2.298,1,0.6,4.5,1.673,0.35,0.0168,0.4,0,55,0,-12.874,0,271.77,0,0,1,-5.33,9.54,1,0,271.78,-0.9185,0.0309,0.3941,0,271.77,-67.78,-422.94,29.619,1.771,0,0,3,1214.38,-1.773,0,1626.55,0,0,0,282.1,0,0,0,0,0,0,0,0,0,0,0,0,0,2,2,0,0,VALID,0,0,0,0,0,1,0,0,0,0,0,0,0,0,0,0,0,0,0,0,122.83,399.41,2,0,0.08,0.08,191,10,0.12,0.08,18.94,FLYING,CF1-J,0:/Integrated Flight Computer/aircraft/cf1_j_cfg.ks (inferred preloaded)
19.24,APPROACH,ILS_TRACK,57.11,70,12.89,1201.68,-6.16,2.98,8.51,273.43,-0.002,1,0,2.264,1,0.6,4.5,1.673,0.35,0.0168,0.4,0,55,0,-12.886,0,271.72,0,0,1,-6.06,9.54,1,0,271.74,-0.9186,0.03,0.3942,0,271.72,-66.65,-423.64,29.6,1.719,0,0,3,1214.38,-2.622,0,1625.56,0,0,0,282.1,0,0,0,0,0,0,0,0,0,0,0,0,0,2,2,0,0,VALID,0,0,0,0,0,1,0,0,0,0,0,0,0,0,0,0,0,0,0,0,127.79,399.5,2,0,0.08,0.08,194,10,0.12,0.08,19.24,FLYING,CF1-J,0:/Integrated Flight Computer/aircraft/cf1_j_cfg.ks (inferred preloaded)
19.54,APPROACH,ILS_TRACK,57.11,70,12.89,1199.8,-6.84,3.36,9.55,273.46,0.128,1,0,2.23,1,0.6,4.5,1.673,0.35,0.0168,0.4,0,55,0,-12.885,0,271.67,0,0,1,-6.74,9.54,1,0,271.69,-0.9186,0.0292,0.3942,0,271.67,-65.52,-424.52,29.581,1.674,0,0,3,1214.38,-3.083,0,1624.57,0,0,0,282.1,0,0,0,0,0,0,0,0,0,0,0,0,0,2,2,0,0,VALID,0,0,0,0,0,1,0,0,0,0,0,0,0,0,0,0,0,0,0,0,132.67,399.6,2,0,0.08,0.08,197,10,0.12,0.08,19.54,FLYING,CF1-J,0:/Integrated Flight Computer/aircraft/cf1_j_cfg.ks (inferred preloaded)
19.84,APPROACH,ILS_TRACK,56.99,70,13.01,1197.8,-7.44,4.25,11.04,273.55,0.28,1,0,2.197,1,0.6,4.5,1.673,0.35,0.0168,0.4,0,55,0,-12.988,0,271.62,0,0,1,-7.36,9.54,1,0,271.64,-0.9186,0.0283,0.3942,0,271.62,-64.38,-425.52,29.562,1.622,0,0,3,1214.38,-3.471,0,1623.59,0,0,0,282.1,0,0,0,0,0,0,0,0,0,0,0,0,0,2,2,0,0,VALID,0,0,0,0,0,1,0,0,0,0,0,0,0,0,0,0,0,0,0,0,137.5,399.78,2,0,0.08,0.08,200,10,0.12,0.08,19.84,FLYING,CF1-J,0:/Integrated Flight Computer/aircraft/cf1_j_cfg.ks (inferred preloaded)
20.14,APPROACH,ILS_TRACK,56.48,70,13.52,1195.55,-7.92,4.82,12.05,273.67,0.417,1,0,2.164,1,0.6,4.5,1.673,0.35,0.0168,0.4,0,55,0,-13.476,0,271.58,0,0,1,-7.9,9.54,1,0,271.59,-0.9186,0.0275,0.3943,0,271.58,-63.24,-426.73,29.544,1.577,0,0,3,1214.38,-4.503,0,1622.61,0,0,0,282.1,0,0,0,0,0,0,0,0,0,0,0,0,0,2,2,0,0,VALID,0,0,0,0,0,1,0,0,0,0,0,0,0,0,0,0,0,0,0,0,142.32,400.2,2,0,0.08,0.08,203,10,0.12,0.08,20.14,FLYING,CF1-J,0:/Integrated Flight Computer/aircraft/cf1_j_cfg.ks (inferred preloaded)
20.44,APPROACH,ILS_TRACK,55.79,70,14.21,1193.01,-8.51,4.42,12.25,273.71,0.516,1,0,2.131,1,0.6,4.5,1.673,0.35,0.0168,0.4,0,55,0,-14.167,0,271.53,0,0,1,-8.57,9.54,1,0,271.54,-0.9186,0.0266,0.3943,0,271.53,-62.09,-428.28,29.525,1.526,0,0,3,1214.38,-5.458,0,1621.64,0,0,0,282.1,0,0,0,0,0,0,0,0,0,0,0,0,0,2,2,0,0,VALID,0,0,0,0,0,1,0,0,0,0,0,0,0,0,0,0,0,0,0,0,147.12,400.74,2,0,0.08,0.08,206,10,0.12,0.08,20.44,FLYING,CF1-J,0:/Integrated Flight Computer/aircraft/cf1_j_cfg.ks (inferred preloaded)
20.74,APPROACH,ILS_TRACK,55.15,70,14.85,1190.25,-9.17,3.79,12.32,273.76,0.611,1,0,2.1,1,0.6,4.5,1.673,0.35,0.0168,0.4,0,55,0,-14.808,0,271.48,0,0,1,-9.34,9.54,1,0,271.5,-0.9186,0.0259,0.3943,0,271.48,-60.94,-430.06,29.507,1.484,0,0,3,1214.38,-6.227,0,1620.69,0,0,0,282.1,0,0,0,0,0,0,0,0,0,0,0,0,0,2,2,0,0,VALID,0,0,0,0,0,1,0,0,0,0,0,0,0,0,0,0,0,0,0,0,151.84,401.25,2,0,0.08,0.08,209,10,0.12,0.08,20.74,FLYING,CF1-J,0:/Integrated Flight Computer/aircraft/cf1_j_cfg.ks (inferred preloaded)
21.04,APPROACH,ILS_TRACK,54.59,70,15.41,1187.28,-9.89,3.11,12.42,273.8,0.693,1,0,2.068,1,0.6,4.5,1.673,0.35,0.0168,0.4,0,55,0,-15.373,0,271.43,0,0,1,-10.16,9.54,1,0,271.45,-0.9186,0.025,0.3944,0,271.43,-59.8,-432.06,29.489,1.432,0,0,3,1214.38,-6.935,0,1619.75,0,0,0,282.1,0,0,0,0,0,0,0,0,0,0,0,0,0,2,2,0,0,VALID,0,0,0,0,0,1,0,0,0,0,0,0,0,0,0,0,0,0,0,0,156.48,401.72,2,0,0.08,0.08,212,10,0.12,0.08,21.04,FLYING,CF1-J,0:/Integrated Flight Computer/aircraft/cf1_j_cfg.ks (inferred preloaded)
21.34,APPROACH,ILS_TRACK,54.1,70,15.9,1184.12,-10.64,2.62,12.76,273.87,0.784,1,0,2.037,1,0.6,4.5,1.673,0.35,0.0168,0.4,0,55,0,-15.872,0,271.41,0,0,1,-11.01,9.54,1,0,271.41,-0.9186,0.0246,0.3944,0,271.41,-58.67,-434.27,29.471,1.407,0,0,3,1214.38,-7.589,0,1618.82,0,0,0,282.1,0,0,0,0,0,0,0,0,0,0,0,0,0,2,2,0,0,VALID,0,0,0,0,0,1,0,0,0,0,0,0,0,0,0,0,0,0,0,0,161.04,402.17,2,0,0.08,0.08,215,10,0.12,0.08,21.34,FLYING,CF1-J,0:/Integrated Flight Computer/aircraft/cf1_j_cfg.ks (inferred preloaded)
21.64,APPROACH,ILS_TRACK,53.6,70,16.4,1180.77,-11.37,2.34,13.31,273.94,0.87,1,0,2.007,1,0.6,4.5,1.673,0.35,0.0168,0.4,0,55,0,-16.363,0,271.37,0,0,1,-11.87,9.54,1,0,271.36,-0.9186,0.0238,0.3944,0,271.37,-57.53,-436.67,29.454,1.367,0,0,3,1214.38,-8.28,0,1617.9,0,0,0,282.1,0,0,0,0,0,0,0,0,0,0,0,0,0,2,2,0,0,VALID,0,0,0,0,0,1,0,0,0,0,0,0,0,0,0,0,0,0,0,0,165.53,402.63,2,0,0.08,0.08,218,10,0.12,0.08,21.64,FLYING,CF1-J,0:/Integrated Flight Computer/aircraft/cf1_j_cfg.ks (inferred preloaded)
21.94,APPROACH,ILS_TRACK,53.1,70,16.9,1177.16,-12.03,1.85,13.54,274.01,0.949,1,0,1.977,1,0.6,4.5,1.673,0.35,0.0168,0.4,0,55,0,-16.869,0,271.29,0,0,1,-12.66,9.54,1,0,271.32,-0.9186,0.0225,0.3945,0,271.29,-56.39,-439.33,29.436,1.289,0,0,3,1214.38,-9.246,0,1616.99,0,0,0,282.1,0,0,0,0,0,0,0,0,0,0,0,0,0,2,2,0,0,VALID,0,0,0,0,0,1,0,0,0,0,0,0,0,0,0,0,0,0,0,0,169.96,403.1,2,0,0.08,0.08,221,10,0.12,0.08,21.94,FLYING,CF1-J,0:/Integrated Flight Computer/aircraft/cf1_j_cfg.ks (inferred preloaded)
22.24,APPROACH,ILS_TRACK,52.66,70,17.34,1173.29,-12.77,0.94,13.46,274.07,1.022,1,0,1.948,1,0.6,4.5,1.673,0.35,0.0168,0.4,0,55,0,-17.317,0,271.25,0,0,1,-13.51,9.54,1,0,271.28,-0.9186,0.0217,0.3945,0,271.25,-55.25,-442.28,29.419,1.246,0,0,3,1214.38,-10.113,0,1616.09,0,0,0,282.1,0,0,0,0,0,0,0,0,0,0,0,0,0,2,2,0,0,VALID,0,0,0,0,0,1,0,0,0,0,0,0,0,0,0,0,0,0,0,0,174.31,403.55,2,0,0.08,0.08,224,10,0.12,0.08,22.24,FLYING,CF1-J,0:/Integrated Flight Computer/aircraft/cf1_j_cfg.ks (inferred preloaded)
22.54,APPROACH,ILS_TRACK,52.3,70,17.7,1169.19,-13.56,0.07,13.48,274.14,1.09,1,0,1.918,1,0.6,4.5,1.673,0.35,0.0168,0.4,0,55,0,-17.674,0,271.22,0,0,1,-14.41,9.54,1,0,271.22,-0.9186,0.0212,0.3945,0,271.22,-54.11,-445.46,29.402,1.216,0,0,3,1214.38,-10.861,0,1615.21,0,0,0,282.1,0,0,0,0,0,0,0,0,0,0,0,0,0,2,2,0,0,VALID,0,0,0,0,0,1,0,0,0,0,0,0,0,0,0,0,0,0,0,0,178.58,403.95,2,0,0.08,0.08,227,10,0.12,0.08,22.54,FLYING,CF1-J,0:/Integrated Flight Computer/aircraft/cf1_j_cfg.ks (inferred preloaded)
22.84,APPROACH,ILS_TRACK,52.03,70,17.97,1164.89,-14.36,-0.63,13.68,274.21,1.154,1,0,1.89,1,0.6,4.5,1.673,0.35,0.0168,0.4,0,55,0,-17.954,0,271.15,0,0,1,-15.31,9.54,1,0,271.18,-0.9186,0.0201,0.3946,0,271.15,-52.96,-448.85,29.386,1.154,0,0,3,1214.38,-11.59,0,1614.33,0,0,0,282.1,0,0,0,0,0,0,0,0,0,0,0,0,0,2,2,0,0,VALID,0,0,0,0,0,1,0,0,0,0,0,0,0,0,0,0,0,0,0,0,182.77,404.32,2,0,0.08,0.08,230,10,0.12,0.08,22.84,FLYING,CF1-J,0:/Integrated Flight Computer/aircraft/cf1_j_cfg.ks (inferred preloaded)
