t_s,phase,subphase,ias_ms,vapp_ms,spd_err_ms,agl_m,vs_ms,pitch_deg,aoa_deg,hdg_deg,bank_deg,thr_cmd,thr_cur,thr_intg,at_gain,at_tau_s,at_a_up,at_a_dn,at_kp_thr,at_ki_spd,at_thr_slew,aa_hdg_cmd_deg,aa_fpa_cmd_deg,aa_fbw,aa_dir,actual_fpa_deg,ftf_hdg_err_deg,ftf_fix_idx,kos_steer_pit_deg,kos_steer_hdg_deg,aa_dir_vx,aa_dir_vy,aa_dir_vz,aa_dir_pitch_deg,aa_dir_hdg_deg,ils_loc_m,ils_gs_m,ils_dist_km,loc_corr_deg,gs_corr_deg,flare_fpa_cmd,flare_tgt_vs,flare_frac,steer_hdg_deg,steer_blend,ro_loc_corr_deg,ro_hdg_err_deg,ro_yaw_tgt,ro_yaw_scale,ro_yaw_gate,yaw_cmd,roll_cmd,pitch_cmd,ro_pitch_tgt_deg,ro_pitch_err_deg,ro_pitch_ff,ro_roll_assist,flaps_cur,flaps_tgt,asc_j_ab,asc_j_rk,asc_validity,asc_q_pa,asc_q_raw_pa,asc_mach,asc_apo_m,asc_drag_n,asc_w_prop,asc_edot_aero,asc_edot_orb,asc_pitch_bias,asc_blend,asc_spooling,asc_ab_thr_ratio,asc_ab_t_now,asc_ab_t_avail,asc_ab_ign_on,asc_ab_flameouts,asc_rk_t_now,asc_rk_t_avail,asc_rk_ign_on,asc_rk_flameouts,ship_thrust,ship_avail_thrust,ship_ign_on,ship_flameouts,ifc_raw_dt_s,ifc_dt_s,ifc_loop_n,ifc_hz_est,ifc_raw_dt_max_s,ifc_raw_dt_min_s,phase_el_s,status,craft_name,cfg_file
0.1,APPROACH,FLY_TO_FIX,0.31,73,72.69,3.84,-0.03,1.21,18.74,89.85,0.098,0,0,0,0,0,0,0,0,0,0,0,0,1,0,-1.7,0,0,0,90,0,0,0,0,0,0,0,-4.528,0,0,0,0,0,89.86,0,0,0,0,0,0,0,0,0,0,0,0,0,0,0,0,0,VALID,0,0,0,0,0,1,0,0,0,0,0,0,0,0,0,0,0,0,0,0,0,0,0,0,0.1,0.1,1,3.7,0.1,0.02,0.1,PRELAUNCH,CF1-F,0:/Integrated Flight Computer/aircraft/cf1_f_cfg.ks (inferred preloaded)
0.38,APPROACH,ILS_TRACK,0.25,72.89,72.64,3.57,-0.01,-0.37,1.15,89.82,0.154,0.056,0,10.173,1,0.6,0.9,0.75,0.35,0.0168,0.4,245.4,0.001,0,1,-0.4,0,1,-5.2,245.4,0.9073,-0.4144,-0.0714,5.36,245.4,940.64,248.69,-4.528,-37.621,0,0,0,0,89.86,0,0,0,0,0,0,0,0,0,0,0,0,0,0,0,0,0,VALID,0,0,0,0,0,1,0,0,0,0,0,0,0,0,0,0,0,0,0,0,0,0,0,0,0.06,0.06,5,14.29,0.1,0.04,0.38,PRELAUNCH,CF1-F,0:/Integrated Flight Computer/aircraft/cf1_f_cfg.ks (inferred preloaded)
0.64,APPROACH,ILS_TRACK,0.27,72.68,72.41,3.68,-0.31,0.27,51.56,89.79,0.146,0.16,0,20,1,0.6,0.9,0.75,0.35,0.0168,0.4,245.4,0,0,1,-18.62,0,1,-16.6,245.4,0.7041,-0.2619,0.66,50.91,245.4,940.64,248.78,-4.528,-37.627,0,0,0,0,89.86,0,0,0,0,0,0,0,0,0,0,0,0,0,0,0,0,0,VALID,0,0,0,0,0,1,0,0,0,0,0,0,0,0,0,0,0,0,0,0,0,0,0,0,0.1,0.1,8,11.54,0.1,0.06,0.64,PRELAUNCH,CF1-F,0:/Integrated Flight Computer/aircraft/cf1_f_cfg.ks (inferred preloaded)
0.92,FLARE,,0.33,73,72.67,3.88,-0.12,1.33,11.73,89.77,0.083,0.28,0,20,1,0.6,0.9,0.75,0.35,0.0168,0.4,270.4,-0.156,0,1,-6.92,0,1,-42.75,270.4,0.9998,0.007,0.0203,11.57,270.4,940.64,248.81,-4.528,-37.627,0,-0.156,-0.05,0,89.86,0,0,0,0,0,0,0,0,0,0,0,0,0,0,0,0,0,VALID,0,0,0,0,0,1,0,0,0,0,0,0,0,0,0,0,0,0,0,0,0,0,0,0,0.08,0.08,12,14.29,0.1,0.06,0.24,PRELAUNCH,CF1-F,0:/Integrated Flight Computer/aircraft/cf1_f_cfg.ks (inferred preloaded)
1.2,FLARE,,0.29,73,72.71,3.9,0.17,1.49,-29.79,89.74,0.075,0.392,0,20,1,0.6,0.9,0.75,0.35,0.0168,0.4,270.4,-0.286,0,1,9.74,0,1,-5.79,270.4,0.7605,0.0057,-0.6493,-30.08,270.4,940.64,248.81,-4.528,-37.627,0,-0.286,-0.05,0,89.86,0,0,0,0,0,0,0,0,0,0,0,0,0,0,0,0,0,VALID,0,0,0,0,0,1,0,0,0,0,0,0,0,0,0,0,0,0,0,0,0,0,0,0,0.08,0.08,16,14.29,0.08,0.06,0.52,PRELAUNCH,CF1-F,0:/Integrated Flight Computer/aircraft/cf1_f_cfg.ks (inferred preloaded)
1.48,FLARE,,0.31,73,72.69,3.76,-0.01,0.75,10.08,89.7,0.132,0.504,0,20,1,0.6,0.9,0.75,0.35,0.0168,0.4,270.4,-0.286,0,1,-0.53,0,1,26.66,270.4,0.9999,0.007,-0.0108,9.79,270.4,940.64,248.81,-4.528,-37.627,0,-0.286,-0.05,0,89.86,0,0,0,0,0,0,0,0,0,0,0,0,0,0,0,0,0,VALID,0,0,0,0,0,1,0,0,0,0,0,0,0,0,0,0,0,0,0,0,0,0,0,0,0.08,0.08,20,14.29,0.08,0.06,0.8,PRELAUNCH,CF1-F,0:/Integrated Flight Computer/aircraft/cf1_f_cfg.ks (inferred preloaded)
1.76,FLARE,,0.32,73,72.68,3.58,-0.05,-0.33,7.5,89.66,0.153,0.616,0,20,1,0.6,0.9,0.75,0.35,0.0168,0.4,270.4,-0.304,0,1,-3,0,1,-6.89,270.4,0.9984,0.007,-0.056,7.2,270.4,940.64,248.81,-4.528,-37.627,0,-0.304,-0.053,0.012,89.86,0,0,0,0,0,0,0,0,0,0,0,0,0,0,0,0,0,VALID,0,0,0,0,0,1,0,0,0,0,0,0,0,0,0,0,0,0,0,0,0,0,0,0,0.08,0.08,24,14.29,0.08,0.06,1.08,PRELAUNCH,CF1-F,0:/Integrated Flight Computer/aircraft/cf1_f_cfg.ks (inferred preloaded)
2.04,FLARE,,0.34,73,72.66,3.69,-0.13,0.4,25.48,89.64,0.123,0.6275,0,20,1,0.6,0.9,0.75,0.35,0.0168,0.4,270.4,-0.291,0,1,-7.5,0,1,21.98,270.4,0.9669,0.0066,0.2551,25.19,270.4,940.64,248.81,-4.528,-37.627,0,-0.291,-0.051,0.003,89.86,0,0,0,0,0,0,0,0,0,0,0,0,0,0,0,0,0,VALID,0,0,0,0,0,1,0,0,0,0,0,0,0,0,0,0,0,0,0,0,0,0,0,0,0.08,0.08,28,14.29,0.08,0.06,1.36,PRELAUNCH,CF1-F,0:/Integrated Flight Computer/aircraft/cf1_f_cfg.ks (inferred preloaded)
2.32,FLARE,,0.36,73,72.64,3.82,-0.15,1.06,18.6,89.62,0.106,0.6239,0,20,1,0.6,0.9,0.75,0.35,0.0168,0.4,270.4,-0.286,0,1,-8.48,0,1,-19.34,270.4,0.9905,0.0069,0.1375,18.31,270.4,940.64,248.81,-4.528,-37.627,0,-0.286,-0.05,0,89.86,0,0,0,0,0,0,0,0,0,0,0,0,0,0,0,0,0,VALID,0,0,0,0,0,1,0,0,0,0,0,0,0,0,0,0,0,0,0,0,0,0,0,0,0.08,0.08,32,14.29,0.08,0.06,1.64,PRELAUNCH,CF1-F,0:/Integrated Flight Computer/aircraft/cf1_f_cfg.ks (inferred preloaded)
2.6,FLARE,,0.36,73,72.64,3.83,0.08,1.12,-13.51,89.59,0.107,0.6433,0,20,1,0.6,0.9,0.75,0.35,0.0168,0.4,270.4,-0.286,0,1,4.81,0,1,-8.15,270.4,0.9121,0.0066,-0.41,-13.79,270.4,940.64,248.81,-4.528,-37.627,0,-0.286,-0.05,0,89.86,0,0,0,0,0,0,0,0,0,0,0,0,0,0,0,0,0,VALID,0,0,0,0,0,1,0,0,0,0,0,0,0,0,0,0,0,0,0,0,0,0,0,0,0.08,0.08,36,14.29,0.08,0.06,1.92,PRELAUNCH,CF1-F,0:/Integrated Flight Computer/aircraft/cf1_f_cfg.ks (inferred preloaded)
2.88,FLARE,,0.37,73,72.63,3.73,0.01,0.57,2.02,89.56,0.113,0.6364,0,20,1,0.6,0.9,0.75,0.35,0.0168,0.4,270.4,-0.286,0,1,0.51,0,1,10.19,270.4,0.9885,0.007,-0.1508,1.74,270.4,940.64,248.81,-4.528,-37.627,0,-0.286,-0.05,0,89.86,0,0,0,0,0,0,0,0,0,0,0,0,0,0,0,0,0,VALID,0,0,0,0,0,1,0,0,0,0,0,0,0,0,0,0,0,0,0,0,0,0,0,0,0.08,0.08,40,14.29,0.08,0.06,2.2,PRELAUNCH,CF1-F,0:/Integrated Flight Computer/aircraft/cf1_f_cfg.ks (inferred preloaded)
3.16,FLARE,,0.38,73,72.62,3.6,-0.05,-0.21,7.41,89.52,0.109,0.6358,0,20,1,0.6,0.9,0.75,0.35,0.0168,0.4,270.4,-0.303,0,1,-2.95,0,1,-2.32,270.4,0.9983,0.007,-0.0576,7.11,270.4,940.64,248.81,-4.528,-37.627,0,-0.303,-0.053,0.011,89.86,0,0,0,0,0,0,0,0,0,0,0,0,0,0,0,0,0,VALID,0,0,0,0,0,1,0,0,0,0,0,0,0,0,0,0,0,0,0,0,0,0,0,0,0.08,0.08,44,14.29,0.08,0.06,2.48,PRELAUNCH,CF1-F,0:/Integrated Flight Computer/aircraft/cf1_f_cfg.ks (inferred preloaded)
3.44,FLARE,,0.4,73,72.6,3.67,-0.12,0.31,18.2,89.51,0.121,0.6299,0,20,1,0.6,0.9,0.75,0.35,0.0168,0.4,270.4,-0.294,0,1,-6.84,0,1,12.76,270.4,0.9914,0.0069,0.1304,17.9,270.4,940.64,248.81,-4.528,-37.627,0,-0.294,-0.051,0.005,89.86,0,0,0,0,0,0,0,0,0,0,0,0,0,0,0,0,0,VALID,0,0,0,0,0,1,0,0,0,0,0,0,0,0,0,0,0,0,0,0,0,0,0,0,0.08,0.08,48,14.29,0.08,0.06,2.76,PRELAUNCH,CF1-F,0:/Integrated Flight Computer/aircraft/cf1_f_cfg.ks (inferred preloaded)
3.72,FLARE,,0.44,73,72.56,3.76,-0.05,0.72,0.44,89.49,0.164,0.6134,0,20,1,0.6,0.9,0.75,0.35,0.0168,0.4,270.4,-0.286,0,1,-3,0,1,-25.08,270.4,0.984,0.007,-0.178,0.16,270.4,940.64,248.81,-4.528,-37.627,0,-0.286,-0.05,0,89.86,0,0,0,0,0,0,0,0,0,0,0,0,0,0,0,0,0,VALID,0,0,0,0,0,1,0,0,0,0,0,0,0,0,0,0,0,0,0,0,0,0,0,0,0.08,0.08,52,14.29,0.08,0.06,3.04,PRELAUNCH,CF1-F,0:/Integrated Flight Computer/aircraft/cf1_f_cfg.ks (inferred preloaded)
4,FLARE,,0.43,73,72.57,3.75,0.09,0.71,-9.54,89.47,0.15,0.6391,0,20,1,0.6,0.9,0.75,0.35,0.0168,0.4,270.4,-0.286,0,1,5.21,0,1,4.63,270.4,0.9382,0.0068,-0.3459,-9.83,270.4,940.64,248.81,-4.528,-37.627,0,-0.286,-0.05,0,89.86,0,0,0,0,0,0,0,0,0,0,0,0,0,0,0,0,0,VALID,0,0,0,0,0,1,0,0,0,0,0,0,0,0,0,0,0,0,0,0,0,0,0,0,0.08,0.08,56,14.29,0.08,0.06,3.32,PRELAUNCH,CF1-F,0:/Integrated Flight Computer/aircraft/cf1_f_cfg.ks (inferred preloaded)
4.28,FLARE,,0.44,73,72.56,3.68,-0.04,0.33,6.69,89.44,0.096,0.6381,0,20,1,0.6,0.9,0.75,0.35,0.0168,0.4,270.4,-0.292,0,1,-2.43,0,1,5.5,270.4,0.9975,0.007,-0.0699,6.4,270.4,940.64,248.81,-4.528,-37.627,0,-0.292,-0.051,0.004,89.86,0,0,0,0,0,0,0,0,0,0,0,0,0,0,0,0,0,VALID,0,0,0,0,0,1,0,0,0,0,0,0,0,0,0,0,0,0,0,0,0,0,0,0,0.08,0.08,60,14.29,0.08,0.06,3.6,PRELAUNCH,CF1-F,0:/Integrated Flight Computer/aircraft/cf1_f_cfg.ks (inferred preloaded)
4.56,FLARE,,0.45,73,72.55,3.61,-0.04,-0.08,5.21,89.4,0.073,0.6356,0,20,1,0.6,0.9,0.75,0.35,0.0168,0.4,270.4,-0.301,0,1,-2.17,0,1,1.69,270.4,0.9954,0.007,-0.0959,4.91,270.4,940.64,248.81,-4.528,-37.627,0,-0.301,-0.053,0.01,89.86,0,0,0,0,0,0,0,0,0,0,0,0,0,0,0,0,0,VALID,0,0,0,0,0,1,0,0,0,0,0,0,0,0,0,0,0,0,0,0,0,0,0,0,0.08,0.08,64,14.29,0.08,0.06,3.88,PRELAUNCH,CF1-F,0:/Integrated Flight Computer/aircraft/cf1_f_cfg.ks (inferred preloaded)
4.84,FLARE,,0.47,73,72.53,3.66,-0.04,0.28,6.5,89.38,0.097,0.6331,0,20,1,0.6,0.9,0.75,0.35,0.0168,0.4,270.4,-0.295,0,1,-2.43,0,1,7.33,270.4,0.9973,0.007,-0.0734,6.2,270.4,940.64,248.81,-4.528,-37.627,0,-0.295,-0.051,0.006,89.86,0,0,0,0,0,0,0,0,0,0,0,0,0,0,0,0,0,VALID,0,0,0,0,0,1,0,0,0,0,0,0,0,0,0,0,0,0,0,0,0,0,0,0,0.08,0.08,68,14.29,0.08,0.06,4.16,PRELAUNCH,CF1-F,0:/Integrated Flight Computer/aircraft/cf1_f_cfg.ks (inferred preloaded)
5.12,FLARE,,0.5,73,72.5,3.72,0.03,0.46,-8.41,89.36,0.131,0.621,0,20,1,0.6,0.9,0.75,0.35,0.0168,0.4,270.4,-0.288,0,1,1.91,0,1,-20.46,270.4,0.9449,0.0068,-0.3274,-8.7,270.4,940.64,248.81,-4.528,-37.627,0,-0.288,-0.05,0.001,89.86,0,0,0,0,0,0,0,0,0,0,0,0,0,0,0,0,0,VALID,0,0,0,0,0,1,0,0,0,0,0,0,0,0,0,0,0,0,0,0,0,0,0,0,0.08,0.08,72,14.29,0.08,0.06,4.44,PRELAUNCH,CF1-F,0:/Integrated Flight Computer/aircraft/cf1_f_cfg.ks (inferred preloaded)
5.4,FLARE,,0.5,73,72.5,3.68,0.05,0.35,-3.24,89.33,0.137,0.6338,0,20,1,0.6,0.9,0.75,0.35,0.0168,0.4,270.4,-0.292,0,1,2.92,0,1,8.01,270.4,0.9705,0.0069,-0.2409,-3.53,270.4,940.64,248.81,-4.528,-37.627,0,-0.292,-0.051,0.004,89.86,0,0,0,0,0,0,0,0,0,0,0,0,0,0,0,0,0,VALID,0,0,0,0,0,1,0,0,0,0,0,0,0,0,0,0,0,0,0,0,0,0,0,0,0.08,0.08,76,14.29,0.08,0.06,4.72,PRELAUNCH,CF1-F,0:/Integrated Flight Computer/aircraft/cf1_f_cfg.ks (inferred preloaded)
5.68,FLARE,,0.51,73,72.49,3.63,-0.1,0.04,7.59,89.3,0.115,0.6362,0,20,1,0.6,0.9,0.75,0.35,0.0168,0.4,270.4,-0.299,0,1,-5.62,0,1,1.18,270.4,0.9985,0.007,-0.0545,7.29,270.4,940.64,248.81,-4.528,-37.627,0,-0.299,-0.052,0.008,89.86,0,0,0,0,0,0,0,0,0,0,0,0,0,0,0,0,0,VALID,0,0,0,0,0,1,0,0,0,0,0,0,0,0,0,0,0,0,0,0,0,0,0,0,0.08,0.08,80,14.29,0.08,0.06,5,PRELAUNCH,CF1-F,0:/Integrated Flight Computer/aircraft/cf1_f_cfg.ks (inferred preloaded)
5.96,FLARE,,0.52,73,72.48,3.65,-0.01,0.16,0.03,89.27,0.096,0.6362,0,20,1,0.6,0.9,0.75,0.35,0.0168,0.4,270.4,-0.297,0,1,-0.5,0,1,-1.98,270.4,0.9826,0.007,-0.1854,-0.27,270.4,940.64,248.81,-4.528,-37.627,0,-0.297,-0.052,0.007,89.86,0,0,0,0,0,0,0,0,0,0,0,0,0,0,0,0,0,VALID,0,0,0,0,0,1,0,0,0,0,0,0,0,0,0,0,0,0,0,0,0,0,0,0,0.08,0.08,84,14.29,0.08,0.06,5.28,PRELAUNCH,CF1-F,0:/Integrated Flight Computer/aircraft/cf1_f_cfg.ks (inferred preloaded)
6.24,FLARE,,0.54,73,72.46,3.67,0.09,0.3,-4.07,89.24,0.099,0.6347,0,20,1,0.6,0.9,0.75,0.35,0.0168,0.4,270.4,-0.294,0,1,5.23,0,1,1.37,270.4,0.9669,0.0069,-0.255,-4.37,270.4,940.64,248.81,-4.528,-37.627,0,-0.294,-0.051,0.006,89.86,0,0,0,0,0,0,0,0,0,0,0,0,0,0,0,0,0,VALID,0,0,0,0,0,1,0,0,0,0,0,0,0,0,0,0,0,0,0,0,0,0,0,0,0.08,0.08,88,14.29,0.08,0.06,5.56,PRELAUNCH,CF1-F,0:/Integrated Flight Computer/aircraft/cf1_f_cfg.ks (inferred preloaded)
6.52,FLARE,,0.55,73,72.45,3.67,-0.1,0.23,9.91,89.21,0.117,0.636,0,20,1,0.6,0.9,0.75,0.35,0.0168,0.4,270.4,-0.295,0,1,-5.75,0,1,0.49,270.4,0.9999,0.007,-0.0138,9.62,270.4,940.64,248.81,-4.528,-37.627,0,-0.295,-0.051,0.006,89.86,0,0,0,0,0,0,0,0,0,0,0,0,0,0,0,0,0,VALID,0,0,0,0,0,1,0,0,0,0,0,0,0,0,0,0,0,0,0,0,0,0,0,0,0.08,0.08,92,14.29,0.08,0.06,5.84,PRELAUNCH,CF1-F,0:/Integrated Flight Computer/aircraft/cf1_f_cfg.ks (inferred preloaded)
6.8,FLARE,,0.57,73,72.43,3.63,-0.04,0.06,4.91,89.18,0.131,0.635,0,20,1,0.6,0.9,0.75,0.35,0.0168,0.4,270.4,-0.3,0,1,-2.19,0,1,4.2,270.4,0.9948,0.007,-0.1011,4.61,270.4,940.64,248.81,-4.528,-37.627,0,-0.3,-0.052,0.009,89.86,0,0,0,0,0,0,0,0,0,0,0,0,0,0,0,0,0,VALID,0,0,0,0,0,1,0,0,0,0,0,0,0,0,0,0,0,0,0,0,0,0,0,0,0.08,0.08,96,14.29,0.08,0.06,6.12,PRELAUNCH,CF1-F,0:/Integrated Flight Computer/aircraft/cf1_f_cfg.ks (inferred preloaded)
7.08,FLARE,,0.58,73,72.42,3.64,-0.02,0.15,2.22,89.14,0.128,0.6348,0,20,1,0.6,0.9,0.75,0.35,0.0168,0.4,270.4,-0.298,0,1,-1.4,0,1,-0.59,270.4,0.989,0.007,-0.1476,1.92,270.4,940.64,248.81,-4.528,-37.627,0,-0.298,-0.052,0.008,89.86,0,0,0,0,0,0,0,0,0,0,0,0,0,0,0,0,0,VALID,0,0,0,0,0,1,0,0,0,0,0,0,0,0,0,0,0,0,0,0,0,0,0,0,0.08,0.08,100,14.29,0.08,0.06,6.4,PRELAUNCH,CF1-F,0:/Integrated Flight Computer/aircraft/cf1_f_cfg.ks (inferred preloaded)
7.36,FLARE,,0.59,73,72.41,3.64,0.01,0.15,-0.79,89.11,0.115,0.6342,0,20,1,0.6,0.9,0.75,0.35,0.0168,0.4,270.4,-0.298,0,1,0.57,0,1,-0.44,270.4,0.9799,0.007,-0.1994,-1.09,270.4,940.64,248.81,-4.528,-37.627,0,-0.298,-0.052,0.008,89.86,0,0,0,0,0,0,0,0,0,0,0,0,0,0,0,0,0,VALID,0,0,0,0,0,1,0,0,0,0,0,0,0,0,0,0,0,0,0,0,0,0,0,0,0.08,0.08,104,14.29,0.08,0.06,6.68,PRELAUNCH,CF1-F,0:/Integrated Flight Computer/aircraft/cf1_f_cfg.ks (inferred preloaded)
7.64,FLARE,,0.61,73,72.39,3.63,0,0.09,-0.11,89.07,0.106,0.6338,0,20,1,0.6,0.9,0.75,0.35,0.0168,0.4,270.4,-0.299,0,1,0.19,0,1,0.17,270.4,0.9822,0.007,-0.1878,-0.41,270.4,940.64,248.81,-4.528,-37.627,0,-0.299,-0.052,0.009,89.86,0,0,0,0,0,0,0,0,0,0,0,0,0,0,0,0,0,VALID,0,0,0,0,0,1,0,0,0,0,0,0,0,0,0,0,0,0,0,0,0,0,0,0,0.08,0.08,108,14.29,0.08,0.06,6.96,PRELAUNCH,CF1-F,0:/Integrated Flight Computer/aircraft/cf1_f_cfg.ks (inferred preloaded)
7.92,FLARE,,0.62,73,72.38,3.64,-0.01,0.12,1.41,89.03,0.11,0.6337,0,20,1,0.6,0.9,0.75,0.35,0.0168,0.4,270.4,-0.299,0,1,-0.77,0,1,0.98,270.4,0.9868,0.007,-0.1616,1.11,270.4,940.64,248.81,-4.528,-37.627,0,-0.299,-0.052,0.009,89.86,0,0,0,0,0,0,0,0,0,0,0,0,0,0,0,0,0,VALID,0,0,0,0,0,1,0,0,0,0,0,0,0,0,0,0,0,0,0,0,0,0,0,0,0.08,0.08,112,14.29,0.08,0.06,7.24,PRELAUNCH,CF1-F,0:/Integrated Flight Computer/aircraft/cf1_f_cfg.ks (inferred preloaded)
8.2,FLARE,,0.63,73,72.37,3.64,0,0.12,-0.07,89,0.12,0.6336,0,20,1,0.6,0.9,0.75,0.35,0.0168,0.4,270.4,-0.299,0,1,0.11,0,1,-0.3,270.4,0.9823,0.007,-0.187,-0.37,270.4,940.64,248.81,-4.528,-37.627,0,-0.299,-0.052,0.009,89.86,0,0,0,0,0,0,0,0,0,0,0,0,0,0,0,0,0,VALID,0,0,0,0,0,1,0,0,0,0,0,0,0,0,0,0,0,0,0,0,0,0,0,0,0.08,0.08,116,14.29,0.08,0.06,7.52,PRELAUNCH,CF1-F,0:/Integrated Flight Computer/aircraft/cf1_f_cfg.ks (inferred preloaded)
8.48,FLARE,,0.65,73,72.35,3.64,-0.01,0.11,0.51,88.96,0.126,0.6336,0,20,1,0.6,0.9,0.75,0.35,0.0168,0.4,270.4,-0.299,0,1,-0.31,0,1,-0.01,270.4,0.9842,0.007,-0.177,0.21,270.4,940.64,248.81,-4.528,-37.627,0,-0.299,-0.052,0.009,89.86,0,0,0,0,0,0,0,0,0,0,0,0,0,0,0,0,0,VALID,0,0,0,0,0,1,0,0,0,0,0,0,0,0,0,0,0,0,0,0,0,0,0,0,0.08,0.08,120,14.29,0.08,0.06,7.8,PRELAUNCH,CF1-F,0:/Integrated Flight Computer/aircraft/cf1_f_cfg.ks (inferred preloaded)
8.76,FLARE,,0.66,73,72.34,3.64,0,0.12,0.55,88.92,0.122,0.6336,0,20,1,0.6,0.9,0.75,0.35,0.0168,0.4,270.4,-0.299,0,1,-0.26,0,1,0.42,270.4,0.9843,0.007,-0.1763,0.26,270.4,940.64,248.81,-4.528,-37.627,0,-0.299,-0.052,0.009,89.86,0,0,0,0,0,0,0,0,0,0,0,0,0,0,0,0,0,VALID,0,0,0,0,0,1,0,0,0,0,0,0,0,0,0,0,0,0,0,0,0,0,0,0,0.08,0.08,124,14.29,0.08,0.06,8.08,PRELAUNCH,CF1-F,0:/Integrated Flight Computer/aircraft/cf1_f_cfg.ks (inferred preloaded)
9.04,FLARE,,0.68,73,72.32,3.64,0,0.11,0.21,88.88,0.115,0.6336,0,20,1,0.6,0.9,0.75,0.35,0.0168,0.4,270.4,-0.3,0,1,-0.09,0,1,-0.11,270.4,0.9832,0.007,-0.1822,-0.09,270.4,940.64,248.81,-4.528,-37.627,0,-0.3,-0.052,0.009,89.86,0,0,0,0,0,0,0,0,0,0,0,0,0,0,0,0,0,VALID,0,0,0,0,0,1,0,0,0,0,0,0,0,0,0,0,0,0,0,0,0,0,0,0,0.08,0.08,128,14.29,0.08,0.06,8.36,PRELAUNCH,CF1-F,0:/Integrated Flight Computer/aircraft/cf1_f_cfg.ks (inferred preloaded)
9.32,FLARE,,0.69,73,72.31,3.64,-0.01,0.11,0.56,88.84,0.112,0.6336,0,20,1,0.6,0.9,0.75,0.35,0.0168,0.4,270.4,-0.3,0,1,-0.33,0,1,0.2,270.4,0.9843,0.007,-0.1763,0.26,270.4,940.64,248.81,-4.528,-37.627,0,-0.3,-0.052,0.009,89.86,0,0,0,0,0,0,0,0,0,0,0,0,0,0,0,0,0,VALID,0,0,0,0,0,1,0,0,0,0,0,0,0,0,0,0,0,0,0,0,0,0,0,0,0.08,0.08,132,14.29,0.08,0.06,8.64,PRELAUNCH,CF1-F,0:/Integrated Flight Computer/aircraft/cf1_f_cfg.ks (inferred preloaded)
9.6,FLARE,,0.7,73,72.3,3.64,0,0.12,0.39,88.8,0.116,0.6336,0,20,1,0.6,0.9,0.75,0.35,0.0168,0.4,270.4,-0.3,0,1,-0.18,0,1,0.15,270.4,0.9838,0.007,-0.1792,0.09,270.4,940.64,248.81,-4.528,-37.627,0,-0.3,-0.052,0.009,89.86,0,0,0,0,0,0,0,0,0,0,0,0,0,0,0,0,0,VALID,0,0,0,0,0,1,0,0,0,0,0,0,0,0,0,0,0,0,0,0,0,0,0,0,0.08,0.08,136,14.29,0.08,0.06,8.92,PRELAUNCH,CF1-F,0:/Integrated Flight Computer/aircraft/cf1_f_cfg.ks (inferred preloaded)
9.88,FLARE,,0.72,73,72.28,3.64,0,0.11,0.39,88.75,0.122,0.6336,0,20,1,0.6,0.9,0.75,0.35,0.0168,0.4,270.4,-0.3,0,1,-0.23,0,1,0.03,270.4,0.9838,0.007,-0.1791,0.09,270.4,940.64,248.81,-4.528,-37.627,0,-0.3,-0.052,0.009,89.86,0,0,0,0,0,0,0,0,0,0,0,0,0,0,0,0,0,VALID,0,0,0,0,0,1,0,0,0,0,0,0,0,0,0,0,0,0,0,0,0,0,0,0,0.08,0.08,140,14.29,0.08,0.06,9.2,PRELAUNCH,CF1-F,0:/Integrated Flight Computer/aircraft/cf1_f_cfg.ks (inferred preloaded)
10.16,FLARE,,0.73,73,72.27,3.64,0,0.12,0.49,88.71,0.124,0.6336,0,20,1,0.6,0.9,0.75,0.35,0.0168,0.4,270.4,-0.3,0,1,-0.28,0,1,0.19,270.4,0.9841,0.007,-0.1775,0.19,270.4,940.64,248.81,-4.528,-37.627,0,-0.3,-0.052,0.01,89.86,0,0,0,0,0,0,0,0,0,0,0,0,0,0,0,0,0,VALID,0,0,0,0,0,1,0,0,0,0,0,0,0,0,0,0,0,0,0,0,0,0,0,0,0.08,0.08,144,14.29,0.08,0.06,9.48,PRELAUNCH,CF1-F,0:/Integrated Flight Computer/aircraft/cf1_f_cfg.ks (inferred preloaded)
10.44,FLARE,,0.75,73,72.25,3.64,0,0.12,0.36,88.67,0.121,0.6336,0,20,1,0.6,0.9,0.75,0.35,0.0168,0.4,270.4,-0.3,0,1,-0.2,0,1,0.08,270.4,0.9837,0.007,-0.1796,0.06,270.4,940.64,248.81,-4.528,-37.627,0,-0.3,-0.052,0.01,89.86,0,0,0,0,0,0,0,0,0,0,0,0,0,0,0,0,0,VALID,0,0,0,0,0,1,0,0,0,0,0,0,0,0,0,0,0,0,0,0,0.79,521.8,2,0,0.08,0.08,148,14.29,0.08,0.06,9.76,PRELAUNCH,CF1-F,0:/Integrated Flight Computer/aircraft/cf1_f_cfg.ks (inferred preloaded)
10.72,FLARE,,0.77,73,72.23,3.64,-0.01,0.12,0.47,88.63,0.117,0.7456,0,19.9,1,0.6,2.244,0.75,0.35,0.0168,0.4,270.4,-0.3,0,1,-0.31,0,1,0.13,270.4,0.984,0.007,-0.1778,0.17,270.4,940.64,248.81,-4.528,-37.627,0,-0.3,-0.052,0.01,89.86,0,0,0,0,0,0,0,0,0,0,0,0,0,0,0,0,0,VALID,0,0,0,0,0,1,0,0,0,0,0,0,0,0,0,0,0,0,0,0,6.56,521.8,2,0,0.08,0.08,152,14.29,0.08,0.06,10.04,PRELAUNCH,CF1-F,0:/Integrated Flight Computer/aircraft/cf1_f_cfg.ks (inferred preloaded)
11,FLARE,,0.81,73,72.19,3.64,-0.01,0.12,0.44,88.59,0.116,0.8576,0,19.505,1,0.6,3.474,0.75,0.35,0.0168,0.4,270.4,-0.3,0,1,-0.29,0,1,0.16,270.4,0.984,0.007,-0.1782,0.14,270.4,940.64,248.81,-4.528,-37.627,0,-0.3,-0.052,0.01,89.86,0,0,0,0,0,0,0,0,0,0,0,0,0,0,0,0,0,VALID,0,0,0,0,0,1,0,0,0,0,0,0,0,0,0,0,0,0,0,0,13.16,521.79,2,0,0.08,0.08,156,14.29,0.08,0.06,10.32,PRELAUNCH,CF1-F,0:/Integrated Flight Computer/aircraft/cf1_f_cfg.ks (inferred preloaded)
11.28,FLARE,,0.88,73,72.12,3.64,0,0.12,0.4,88.54,0.119,0.9696,0,19.118,1,0.6,4.355,0.75,0.35,0.0168,0.4,270.4,-0.301,0,1,-0.28,0,1,0.13,270.4,0.9838,0.007,-0.1789,0.1,270.4,940.64,248.81,-4.528,-37.627,0,-0.301,-0.052,0.01,89.86,0,0,0,0,0,0,0,0,0,0,0,0,0,0,0,0,0,VALID,0,0,0,0,0,1,0,0,0,0,0,0,0,0,0,0,0,0,0,0,20.62,521.77,2,0,0.08,0.08,160,14.29,0.08,0.06,10.6,PRELAUNCH,CF1-F,0:/Integrated Flight Computer/aircraft/cf1_f_cfg.ks (inferred preloaded)
11.56,FLARE,,0.98,73,72.02,3.64,-0.01,0.12,0.44,88.5,0.123,1,0,18.738,1,0.6,4.5,0.75,0.35,0.0168,0.4,270.4,-0.301,0,1,-0.36,0,1,0.16,270.4,0.984,0.007,-0.1782,0.14,270.4,940.64,248.81,-4.528,-37.627,0,-0.301,-0.052,0.01,89.86,0,0,0,0,0,0,0,0,0,0,0,0,0,0,0,0,0,VALID,0,0,0,0,0,1,0,0,0,0,0,0,0,0,0,0,0,0,0,0,28.83,521.74,2,0,0.08,0.08,164,14.29,0.08,0.06,10.88,PRELAUNCH,CF1-F,0:/Integrated Flight Computer/aircraft/cf1_f_cfg.ks (inferred preloaded)
11.84,FLARE,,1.12,73,71.88,3.64,-0.01,0.13,0.44,88.46,0.124,1,0,18.366,1,0.6,4.5,0.75,0.35,0.0168,0.4,270.4,-0.301,0,1,-0.35,0,1,0.15,270.4,0.984,0.007,-0.1783,0.14,270.4,940.64,248.81,-4.528,-37.627,0,-0.301,-0.053,0.01,89.86,0,0,0,0,0,0,0,0,0,0,0,0,0,0,0,0,0,VALID,0,0,0,0,0,1,0,0,0,0,0,0,0,0,0,0,0,0,0,0,37.04,521.71,2,0,0.08,0.08,168,14.29,0.08,0.06,11.16,PRELAUNCH,CF1-F,0:/Integrated Flight Computer/aircraft/cf1_f_cfg.ks (inferred preloaded)
12.12,FLARE,,1.28,73,71.72,3.64,-0.01,0.13,0.44,88.41,0.122,1,0,18.002,1,0.6,4.5,0.75,0.35,0.0168,0.4,270.4,-0.301,0,1,-0.34,0,1,0.14,270.4,0.9839,0.007,-0.1784,0.13,270.4,940.64,248.81,-4.528,-37.627,0,-0.301,-0.053,0.01,89.86,0,0,0,0,0,0,0,0,0,0,0,0,0,0,0,0,0,VALID,0,0,0,0,0,1,0,0,0,0,0,0,0,0,0,0,0,0,0,0,45.12,521.67,2,0,0.08,0.08,172,14.29,0.08,0.06,11.44,PRELAUNCH,CF1-F,0:/Integrated Flight Computer/aircraft/cf1_f_cfg.ks (inferred preloaded)
12.4,FLARE,,1.48,73,71.52,3.64,-0.01,0.13,0.44,88.36,0.12,1,0,17.644,1,0.6,4.5,0.75,0.35,0.0168,0.4,270.4,-0.301,0,1,-0.34,0,1,0.15,270.4,0.984,0.007,-0.1783,0.14,270.4,940.64,248.81,-4.528,-37.627,0,-0.301,-0.053,0.01,89.86,0,0,0,0,0,0,0,0,0,0,0,0,0,0,0,0,0,VALID,0,0,0,0,0,1,0,0,0,0,0,0,0,0,0,0,0,0,0,0,53.05,521.62,2,0,0.08,0.08,176,14.29,0.08,0.06,11.72,PRELAUNCH,CF1-F,0:/Integrated Flight Computer/aircraft/cf1_f_cfg.ks (inferred preloaded)
12.68,FLARE,,1.71,73,71.29,3.64,-0.01,0.13,0.43,88.31,0.121,1,0,17.294,1,0.6,4.5,0.75,0.35,0.0168,0.4,270.4,-0.302,0,1,-0.32,0,1,0.15,270.4,0.9839,0.007,-0.1785,0.13,270.4,940.64,248.81,-4.528,-37.627,0,-0.302,-0.053,0.011,89.86,0,0,0,0,0,0,0,0,0,0,0,0,0,0,0,0,0,VALID,0,0,0,0,0,1,0,0,0,0,0,0,0,0,0,0,0,0,0,0,60.86,521.56,2,0,0.08,0.08,180,14.29,0.08,0.06,12,PRELAUNCH,CF1-F,0:/Integrated Flight Computer/aircraft/cf1_f_cfg.ks (inferred preloaded)
12.96,FLARE,,1.97,73,71.03,3.64,-0.01,0.14,0.45,88.26,0.124,1,0,16.951,1,0.6,4.5,0.75,0.35,0.0168,0.4,270.4,-0.302,0,1,-0.35,0,1,0.14,270.4,0.984,0.007,-0.1781,0.15,270.4,940.64,248.81,-4.528,-37.627,0,-0.302,-0.053,0.011,89.86,0,0,0,0,0,0,0,0,0,0,0,0,0,0,0,0,0,VALID,0,0,0,0,0,1,0,0,0,0,0,0,0,0,0,0,0,0,0,0,68.53,521.49,2,0,0.08,0.08,184,14.29,0.08,0.06,12.28,PRELAUNCH,CF1-F,0:/Integrated Flight Computer/aircraft/cf1_f_cfg.ks (inferred preloaded)
13.24,FLARE,,2.26,73,70.74,3.64,-0.01,0.15,0.46,88.21,0.126,1,0,16.614,1,0.6,4.5,0.75,0.35,0.0168,0.4,270.4,-0.302,0,1,-0.33,0,1,0.15,270.4,0.984,0.007,-0.178,0.16,270.4,940.64,248.81,-4.528,-37.627,0,-0.302,-0.053,0.011,89.86,0,0,0,0,0,0,0,0,0,0,0,0,0,0,0,0,0,VALID,0,0,0,0,0,1,0,0,0,0,0,0,0,0,0,0,0,0,0,0,76.07,521.41,2,0,0.08,0.08,188,14.29,0.08,0.06,12.56,LANDED,CF1-F,0:/Integrated Flight Computer/aircraft/cf1_f_cfg.ks (inferred preloaded)
13.5,TOUCHDOWN,,2.56,73,70.44,3.65,-0.02,0.18,0.48,88.15,0.126,0,0,16.531,1,0.6,4.5,0.75,0.35,0.0168,0.4,270.4,-0.302,1,0,-0.34,0,1,0.16,270.4,0.984,0.007,-0.178,0.16,270.4,940.64,248.81,-4.528,-37.627,0,-0.302,-0.053,0.011,89.86,0,0,0,0,0,0,0,0,-0.0141,0,-0.176,0,0,0,0,0,0,VALID,0,0,0,0,0,1,0,0,0,0,0,0,0,0,0,0,0,0,0,0,79.24,521.33,2,0,0.06,0.06,192,15.38,0.08,0.06,0.2,LANDED,CF1-F,0:/Integrated Flight Computer/aircraft/cf1_f_cfg.ks (inferred preloaded)
# end T+13.7  IAS 2.7 m/s
