t_s,phase,subphase,ias_ms,vapp_ms,spd_err_ms,agl_m,gear_h_m,vs_ms,pitch_deg,aoa_deg,hdg_deg,bank_deg,thr_cmd,thr_cur,thr_intg,at_gain,at_tau_s,at_a_up,at_a_dn,at_kp_thr,at_ki_spd,at_thr_slew,as_cmd_deg,as_cap_deg,as_raw_deg,as_spd_err_ms,as_active,aa_hdg_cmd_deg,aa_fpa_cmd_deg,aa_fbw,aa_dir,actual_fpa_deg,ftf_hdg_err_deg,ftf_fix_idx,kos_steer_pit_deg,kos_steer_hdg_deg,aa_dir_vx,aa_dir_vy,aa_dir_vz,aa_dir_pitch_deg,aa_dir_hdg_deg,ils_loc_m,ils_gs_m,ils_dist_km,loc_corr_deg,gs_corr_deg,gs_latched,active_gs_ang_deg,ils_intercept_alt_m,d_gs_ms,fpa_preclamped_deg,gs_nom_alt_m,flare_fpa_cmd,flare_tgt_vs,flare_frac,flare_mode,flare_auth_limited,flare_vs_err,flare_fpa_err,flare_pitch_err,flare_req_up_a,flare_thr_floor,flare_tecs_et_err,flare_tecs_eb_err,flare_tecs_h_ref,flare_tecs_v_ref,flare_gamma_ref,flare_gamma_eb_term,flare_gamma_unsat,steer_hdg_deg,steer_blend,ro_loc_corr_deg,ro_hdg_err_deg,ro_yaw_tgt,ro_yaw_scale,ro_yaw_gate,yaw_cmd,roll_cmd,pitch_cmd,ro_pitch_tgt_deg,ro_pitch_err_deg,ro_pitch_ff,ro_roll_assist,flaps_cur,flaps_tgt,asc_j_ab,asc_j_rk,asc_validity,asc_q_pa,asc_q_raw_pa,asc_mach,asc_apo_m,asc_drag_n,asc_w_prop,asc_edot_aero,asc_edot_orb,asc_pitch_bias,asc_blend,asc_spooling,asc_ab_thr_ratio,asc_ab_t_now,asc_ab_t_avail,asc_ab_ign_on,asc_ab_flameouts,asc_rk_t_now,asc_rk_t_avail,asc_rk_ign_on,asc_rk_flameouts,ship_thrust,ship_avail_thrust,ship_ign_on,ship_flameouts,ifc_raw_dt_s,ifc_dt_s,ifc_loop_n,ifc_hz_est,ifc_raw_dt_max_s,ifc_raw_dt_min_s,phase_el_s,status,craft_name,cfg_file
0.16,APPROACH,ILS_TRACK,155.04,152,-3.04,670.88,596,-21.35,6.92,14.41,270.02,-0.007,0,0,0,0,0,0,0,0,0,0,0,0,0,0,0,0,0,1,0,-7.85,0,0,0,90,0,0,0,0,0,-0.01,-19.98,11.765,0,0,0,3,670.88,0,0,690.86,0,0,0,,0,0,0,0,0,0,0,0,0,0,0,0,0,270.01,0,0,0,0,0,0,0,0,0,0,0,0,0,0,0,0,0,VALID,0,0,0,0,0,1,0,0,0,0,0,0,0,0,0,0,0,0,0,0,258.05,1091.68,2,0,0.14,0.14,1,3.7,0.14,0.02,0.16,FLYING,X10-F,0:/Integrated Flight Computer/aircraft/x10_f_cfg.ks (inferred preloaded)
0.42,APPROACH,ILS_TRACK,155.3,152,-3.3,665.36,590.48,-21.12,6.94,14.34,270.01,-0.007,0,0,0,1,0.6,1.485,0.75,0.35,0.0168,0.4,2.018,20.966,2.018,3.281,1,269.99,0,0,1,-7.76,0,0,0,270.02,0.8647,-0.0002,0.5022,0,269.99,-0.01,-22.78,11.729,-0.009,17.011,1,3,670.88,-12.722,0,688.99,0,0,0,,0,0,0,0,0,0,0,0,0,0,0,0,0,270.01,0,0,0,0,0,0,0,0,0,0,0,0,0,1,3,0,0,VALID,0,0,0,0,0,1,0,0,0,0,0,0,0,0,0,0,0,0,0,0,235.87,1093.22,2,0,0.12,0.12,3,7.69,0.14,0.12,0.42,FLYING,X10-F,0:/Integrated Flight Computer/aircraft/x10_f_cfg.ks (inferred preloaded)
0.68,APPROACH,ILS_TRACK,155.43,152,-3.43,659.75,585.06,-20.68,6.48,13.66,270,0.001,0,0,0,1,0.6,2.744,0.75,0.35,0.0168,0.4,2.181,20.925,2.181,3.429,1,270,0,0,1,-7.61,0,0,0,270,0.8648,-0.0001,0.5022,0,270,0,-26.15,11.687,-0.004,18.343,1,3,670.88,-13.124,0,686.77,0,0,0,,0,0,0,0,0,0,0,0,0,0,0,0,0,270.01,0,0,0,0,0,0,0,0,0,0,0,0,0,1,3,0,0,VALID,0,0,0,0,0,1,0,0,0,0,0,0,0,0,0,0,0,0,0,0,215.49,1094.21,2,0,0.12,0.12,5,7.69,0.14,0.12,0.68,FLYING,X10-F,0:/Integrated Flight Computer/aircraft/x10_f_cfg.ks (inferred preloaded)
0.94,APPROACH,ILS_TRACK,155.43,152,-3.43,653.88,579.77,-20.42,4.81,11.78,270.01,0.014,0,0,0,1,0.6,3.81,0.75,0.35,0.0168,0.4,2.178,20.926,2.178,3.426,1,270,0,0,1,-7.48,0,0,0,270,0.8648,-0.0001,0.5021,0,270,0,-29.76,11.645,-0.005,20.292,1,3,670.88,-14.206,0,684.56,0,0,0,,0,0,0,0,0,0,0,0,0,0,0,0,0,270.01,0,0,0,0,0,0,0,0,0,0,0,0,0,2,3,0,0,VALID,0,0,0,0,0,1,0,0,0,0,0,0,0,0,0,0,0,0,0,0,196.75,1094.58,2,0,0.12,0.12,7,7.69,0.14,0.12,0.94,FLYING,X10-F,0:/Integrated Flight Computer/aircraft/x10_f_cfg.ks (inferred preloaded)
1.3,APPROACH,ILS_TRACK,155.84,152,-3.84,645.5,572.36,-21.27,1.7,8.95,270.01,0.014,0,0,0,1,0.6,4.5,0.75,0.35,0.0168,0.4,2.598,20.818,2.598,3.808,1,270,0,0,1,-7.73,0,0,0,269.99,0.8649,-0.0001,0.502,0,270,0,-35.05,11.586,-0.003,22.357,1,3,670.88,-14.803,0,681.49,0,0,0,,0,0,0,0,0,0,0,0,0,0,0,0,0,270.01,0,0,0,0,0,0,0,0,0,0,0,0,0,3,3,0,0,VALID,0,0,0,0,0,1,0,0,0,0,0,0,0,0,0,0,0,0,0,0,173.73,1096.89,2,0,0.12,0.12,10,8.33,0.12,0.12,1.3,FLYING,X10-F,0:/Integrated Flight Computer/aircraft/x10_f_cfg.ks (inferred preloaded)
1.66,APPROACH,ILS_TRACK,156.48,152,-4.48,636.97,564.4,-22.83,-0.48,7.36,270.01,0.018,0,0,0,1,0.6,4.5,0.75,0.35,0.0168,0.4,3.287,20.638,3.287,4.446,1,269.99,0,0,1,-8.24,0,0,0,270,0.8649,-0.0001,0.5019,0,269.99,0.01,-40.49,11.527,-0.006,24.289,1,3,670.88,-15.18,0,678.41,0,0,0,,0,0,0,0,0,0,0,0,0,0,0,0,0,270.01,0,0,0,0,0,0,0,0,0,0,0,0,0,3,3,0,0,VALID,0,0,0,0,0,1,0,0,0,0,0,0,0,0,0,0,0,0,0,0,153.56,1100.24,2,0,0.12,0.12,13,8.33,0.12,0.12,1.68,FLYING,X10-F,0:/Integrated Flight Computer/aircraft/x10_f_cfg.ks (inferred preloaded)
1.98,APPROACH,ILS_TRACK,157.04,152,-5.04,629.34,556.83,-24.31,-0.9,7.53,270.01,0.018,0,0,0,1,0.6,4.5,0.75,0.35,0.0168,0.4,3.881,20.48,3.881,5.005,1,269.99,0,0,1,-8.74,0,0,0,270,0.865,-0.0001,0.5019,0,269.99,0.02,-45.37,11.475,-0.006,25.893,1,3,670.88,-15.351,0,675.67,0,0,0,,0,0,0,0,0,0,0,0,0,0,0,0,0,270.01,0,0,0,0,0,0,0,0,0,0,0,0,0,3,3,0,0,VALID,0,0,0,0,0,1,0,0,0,0,0,0,0,0,0,0,0,0,0,0,137.61,1103.23,2,0,0.12,0.12,16,9.38,0.12,0.08,2,FLYING,X10-F,0:/Integrated Flight Computer/aircraft/x10_f_cfg.ks (inferred preloaded)
2.3,APPROACH,ILS_TRACK,157.53,152,-5.53,621.65,548.87,-25.56,0,8.94,270.01,0.014,0,0,0,1,0.6,4.5,0.75,0.35,0.0168,0.4,4.398,20.341,4.398,5.5,1,269.99,0,0,1,-9.17,0,0,0,269.99,0.865,-0.0001,0.5018,0,269.99,0.02,-50.32,11.423,-0.007,27.451,1,3,670.88,-15.445,0,672.92,0,0,0,,0,0,0,0,0,0,0,0,0,0,0,0,0,270.01,0,0,0,0,0,0,0,0,0,0,0,0,0,3,3,0,0,VALID,0,0,0,0,0,1,0,0,0,0,0,0,0,0,0,0,0,0,0,0,123.29,1105.97,2,0,0.12,0.12,19,9.38,0.12,0.08,2.3,FLYING,X10-F,0:/Integrated Flight Computer/aircraft/x10_f_cfg.ks (inferred preloaded)
2.66,APPROACH,ILS_TRACK,157.83,152,-5.83,613.1,539.44,-26.3,2.65,11.95,270.01,0.01,0,0,0,1,0.6,4.5,0.75,0.35,0.0168,0.4,4.731,20.25,4.731,5.822,1,269.99,0,0,1,-9.45,0,0,0,270,0.865,-0.0001,0.5017,0,269.99,0.03,-55.8,11.364,-0.007,28.783,1,3,670.88,-15.055,0,669.83,0,0,0,,0,0,0,0,0,0,0,0,0,0,0,0,0,270.01,0,0,0,0,0,0,0,0,0,0,0,0,0,3,3,0,0,VALID,0,0,0,0,0,1,0,0,0,0,0,0,0,0,0,0,0,0,0,0,108.86,1108.06,2,0,0.12,0.12,22,8.33,0.12,0.12,2.66,FLYING,X10-F,0:/Integrated Flight Computer/aircraft/x10_f_cfg.ks (inferred preloaded)
3.02,APPROACH,ILS_TRACK,157.72,152,-5.72,604.63,529.98,-25.69,5.88,14.97,270.01,0.002,0,0,0,1,0.6,4.5,0.75,0.35,0.0168,0.4,4.651,20.272,4.651,5.744,1,269.99,0,0,1,-9.29,0,0,0,269.99,0.8651,-0.0001,0.5016,0,269.99,0.03,-61.18,11.305,-0.007,30.346,1,3,670.88,-14.992,0,666.74,0,0,0,,0,0,0,0,0,0,0,0,0,0,0,0,0,270.01,0,0,0,0,0,0,0,0,0,0,0,0,0,3,3,0,0,VALID,0,0,0,0,0,1,0,0,0,0,0,0,0,0,0,0,0,0,0,0,95.96,1108.38,2,0,0.12,0.12,25,8.33,0.12,0.12,3.02,FLYING,X10-F,0:/Integrated Flight Computer/aircraft/x10_f_cfg.ks (inferred preloaded)
3.28,APPROACH,ILS_TRACK,157.34,152,-5.34,598.54,523.37,-24.94,7.6,16.43,270.01,-0.004,0,0,0,1,0.6,4.5,0.75,0.35,0.0168,0.4,4.265,20.377,4.265,5.373,1,270,0,0,1,-9.04,0,0,0,269.99,0.8651,-0.0001,0.5015,0,270,0.04,-65.05,11.262,-0.004,31.367,1,3,670.88,-14.813,0,664.52,0,0,0,,0,0,0,0,0,0,0,0,0,0,0,0,0,270.01,0,0,0,0,0,0,0,0,0,0,0,0,0,3,3,0,0,VALID,0,0,0,0,0,1,0,0,0,0,0,0,0,0,0,0,0,0,0,0,87.5,1107.24,2,0,0.12,0.12,27,7.69,0.14,0.12,3.28,FLYING,X10-F,0:/Integrated Flight Computer/aircraft/x10_f_cfg.ks (inferred preloaded)
3.62,APPROACH,ILS_TRACK,156.56,152,-4.56,590.87,514.99,-23.84,9.87,18.38,270,-0.012,0.0817,0,-1.052,1,0.6,4.5,0.75,0.35,0.0168,0.4,1.221,20.589,0,4.619,1,269.99,0,0,1,-8.7,0,0,0,270,0.8652,-0.0002,0.5015,0,269.99,0.04,-69.84,11.207,-0.009,31.845,1,3,670.88,-13.615,0,661.61,0,0,0,,0,0,0,0,0,0,0,0,0,0,0,0,0,270.01,0,0,0,0,0,0,0,0,0,0,0,0,0,3,3,0,0,VALID,0,0,0,0,0,1,0,0,0,0,0,0,0,0,0,0,0,0,0,0,78.71,1104.58,2,0,0.101,0.101,30,8.77,0.12,0.101,3.62,FLYING,X10-F,0:/Integrated Flight Computer/aircraft/x10_f_cfg.ks (inferred preloaded)
3.87,APPROACH,ILS_TRACK,155.85,152,-3.85,585.51,509.13,-22.76,11.51,19.73,270,-0.02,0.1775,0,-2.038,1,0.6,4.5,0.75,0.35,0.0168,0.4,0,20.78,0,3.942,0,269.99,0,0,1,-8.4,0,0,0,269.99,0.8652,-0.0001,0.5014,0,269.99,0.05,-72.97,11.168,-0.007,32.182,1,3,670.88,-12.864,0,659.58,0,0,0,,0,0,0,0,0,0,0,0,0,0,0,0,0,270.01,0,0,0,0,0,0,0,0,0,0,0,0,0,3,3,0,0,VALID,0,0,0,0,0,1,0,0,0,0,0,0,0,0,0,0,0,0,0,0,79.84,1101.99,2,0,0.128,0.128,32,7.99,0.128,0.101,3.87,FLYING,X10-F,0:/Integrated Flight Computer/aircraft/x10_f_cfg.ks (inferred preloaded)
4.14,APPROACH,ILS_TRACK,154.75,152,-2.75,579.92,503.29,-20.99,12.6,20.14,270,-0.026,0.2834,0,-2.877,1,0.6,4.5,0.75,0.35,0.0168,0.4,0,21.079,0,2.881,0,270,0,0,1,-7.84,0,0,0,269.99,0.8652,-0.0001,0.5013,0,270,0.05,-76.29,11.125,-0.004,32.849,1,3,670.88,-12.454,0,657.34,0,0,0,,0,0,0,0,0,0,0,0,0,0,0,0,0,270.01,0,0,0,0,0,0,0,0,0,0,0,0,0,3,3,0,0,VALID,0,0,0,0,0,1,0,0,0,0,0,0,0,0,0,0,0,0,0,0,86.52,1097.73,2,0,0.134,0.134,34,7.48,0.134,0.128,4.14,FLYING,X10-F,0:/Integrated Flight Computer/aircraft/x10_f_cfg.ks (inferred preloaded)
4.44,APPROACH,ILS_TRACK,153.49,152,-1.49,573.92,497.33,-19.49,12.6,19.58,270,-0.026,0.3991,0,-3.429,1,0.6,4.5,0.75,0.35,0.0168,0.4,0,21.438,0,1.608,0,269.99,0,0,1,-7.32,0,0,0,270,0.8653,-0.0002,0.5013,0,269.99,0.06,-79.77,11.079,-0.009,33.388,1,3,670.88,-11.822,0,654.91,0,0,0,,0,0,0,0,0,0,0,0,0,0,0,0,0,270.01,0,0,0,0,0,0,0,0,0,0,0,0,0,3,3,0,0,VALID,0,0,0,0,0,1,0,0,0,0,0,0,0,0,0,0,0,0,0,0,100.21,1092.79,2,0,0.152,0.152,36,6.74,0.152,0.134,4.44,FLYING,X10-F,0:/Integrated Flight Computer/aircraft/x10_f_cfg.ks (inferred preloaded)
4.78,APPROACH,ILS_TRACK,152.3,152,-0.3,567.4,490.96,-18.33,12.16,18.73,269.99,-0.028,0.5314,0,-3.66,1,0.6,4.5,0.75,0.35,0.0168,0.4,0,21.772,0,0.422,0,270,0,0,1,-6.93,0,0,0,269.99,0.8653,-0.0001,0.5012,0,270,0.06,-83.44,11.026,-0.005,33.738,1,3,670.88,-10.883,0,652.16,0,0,0,,0,0,0,0,0,0,0,0,0,0,0,0,0,270.01,0,0,0,0,0,0,0,0,0,0,0,0,0,3,3,0,0,VALID,0,0,0,0,0,1,0,0,0,0,0,0,0,0,0,0,0,0,0,0,123.29,1088.25,2,0,0.175,0.175,38,5.9,0.175,0.152,4.78,FLYING,X10-F,0:/Integrated Flight Computer/aircraft/x10_f_cfg.ks (inferred preloaded)
5.13,APPROACH,ILS_TRACK,151.16,152,0.84,561.01,484.73,-17.44,11.6,17.89,269.99,-0.026,0.6714,0,-3.624,1,0.6,4.5,0.75,0.35,0.0168,0.4,0,22.098,0,-0.737,0,269.99,0,0,1,-6.63,0,0,0,270,0.8654,-0.0001,0.5011,0,269.99,0.06,-87,10.971,-0.005,34.07,1,3,670.88,-9.961,0,649.27,0,0,0,,0,0,0,0,0,0,0,0,0,0,0,0,0,270.01,0,0,0,0,0,0,0,0,0,0,0,0,0,3,3,0,0,VALID,0,0,0,0,0,1,0,0,0,0,0,0,0,0,0,0,0,0,0,0,155.15,1083.9,2,0,0.175,0.175,40,5.71,0.175,0.175,5.13,FLYING,X10-F,0:/Integrated Flight Computer/aircraft/x10_f_cfg.ks (inferred preloaded)
5.48,APPROACH,ILS_TRACK,150.21,152,1.79,554.93,478.77,-16.73,11.17,17.26,269.99,-0.021,0.8114,0,-3.588,1,0.6,4.5,0.75,0.35,0.0168,0.4,0,22.371,0,-1.703,0,270,0,0,1,-6.4,0,0,0,270,0.8654,-0.0001,0.501,0,270,0.06,-90.26,10.916,-0.003,34.356,1,3,670.88,-9.097,0,646.39,0,0,0,,0,0,0,0,0,0,0,0,0,0,0,0,0,270.01,0,0,0,0,0,0,0,0,0,0,0,0,0,3,3,0,0,VALID,0,0,0,0,0,1,0,0,0,0,0,0,0,0,0,0,0,0,0,0,194.97,1080.4,2,0,0.175,0.175,42,5.71,0.175,0.175,5.48,FLYING,X10-F,0:/Integrated Flight Computer/aircraft/x10_f_cfg.ks (inferred preloaded)
5.83,APPROACH,ILS_TRACK,149.48,152,2.52,549.16,473.03,-16.13,10.99,16.91,269.99,-0.02,0.9514,0,-3.552,1,0.6,4.5,0.75,0.35,0.0168,0.4,0,22.584,0,-2.46,0,270,0,0,1,-6.2,0,0,0,270,0.8655,0,0.501,0,270,0.06,-93.23,10.862,-0.002,34.587,1,3,670.88,-8.273,0,643.52,0,0,0,,0,0,0,0,0,0,0,0,0,0,0,0,0,270.01,0,0,0,0,0,0,0,0,0,0,0,0,0,3,3,0,0,VALID,0,0,0,0,0,1,0,0,0,0,0,0,0,0,0,0,0,0,0,0,242.22,1077.78,2,0,0.175,0.175,44,5.71,0.175,0.175,5.83,FLYING,X10-F,0:/Integrated Flight Computer/aircraft/x10_f_cfg.ks (inferred preloaded)
6.18,APPROACH,ILS_TRACK,148.93,152,3.07,543.69,467.5,-15.54,11.14,16.91,269.99,-0.018,0.9852,0,-3.004,1,0.6,4.5,0.75,0.35,0.0168,0.4,0,22.744,0,-3.027,0,270,0,0,1,-6,0,0,0,270,0.8655,0,0.5009,0,270,0.07,-95.91,10.807,-0.003,34.722,1,3,670.88,-7.438,0,640.67,0,0,0,,0,0,0,0,0,0,0,0,0,0,0,0,0,270.01,0,0,0,0,0,0,0,0,0,0,0,0,0,3,3,0,0,VALID,0,0,0,0,0,1,0,0,0,0,0,0,0,0,0,0,0,0,0,0,295.79,1075.93,2,0,0.175,0.175,46,5.71,0.175,0.175,6.18,FLYING,X10-F,0:/Integrated Flight Computer/aircraft/x10_f_cfg.ks (inferred preloaded)
6.53,APPROACH,ILS_TRACK,148.53,152,3.47,538.55,462.17,-14.89,11.66,17.25,269.99,-0.015,0.882,0,-1.835,1,0.6,4.5,0.75,0.35,0.0168,0.4,0,22.859,0,-3.434,0,270,0,0,1,-5.78,0,0,0,270,0.8656,0,0.5008,0,270,0.06,-98.27,10.753,-0.001,34.707,1,3,670.88,-6.531,0,637.82,0,0,0,,0,0,0,0,0,0,0,0,0,0,0,0,0,270.01,0,0,0,0,0,0,0,0,0,0,0,0,0,3,3,0,0,VALID,0,0,0,0,0,1,0,0,0,0,0,0,0,0,0,0,0,0,0,0,345.81,1074.73,2,0,0.175,0.175,48,5.71,0.175,0.175,6.53,FLYING,X10-F,0:/Integrated Flight Computer/aircraft/x10_f_cfg.ks (inferred preloaded)
6.88,APPROACH,ILS_TRACK,148.23,152,3.77,533.76,457.09,-14.09,12.57,17.91,269.99,-0.012,0.7936,0,-0.551,1,0.6,4.5,0.75,0.35,0.0168,0.4,0,22.946,0,-3.743,0,270,0,0,1,-5.5,0,0,0,270,0.8656,0,0.5007,0,270,0.06,-100.29,10.699,-0.001,34.496,1,3,670.88,-5.509,0,634.98,0,0,0,,0,0,0,0,0,0,0,0,0,0,0,0,0,270.01,0,0,0,0,0,0,0,0,0,0,0,0,0,3,3,0,0,VALID,0,0,0,0,0,1,0,0,0,0,0,0,0,0,0,0,0,0,0,0,385.28,1073.89,2,0,0.175,0.175,50,5.71,0.175,0.175,6.88,FLYING,X10-F,0:/Integrated Flight Computer/aircraft/x10_f_cfg.ks (inferred preloaded)
7.23,APPROACH,ILS_TRACK,147.91,152,4.09,529.29,452.39,-12.81,13.47,18.3,269.99,-0.012,0.7563,0,0.839,1,0.6,4.5,0.75,0.35,0.0168,0.4,0,23.033,0,-4.053,0,270,0,0,1,-5.04,0,0,0,270,0.8656,0,0.5007,0,270,0.06,-101.98,10.644,-0.001,34.329,1,3,670.88,-4.669,0,632.14,0,0,0,,0,0,0,0,0,0,0,0,0,0,0,0,0,270.01,0,0,0,0,0,0,0,0,0,0,0,0,0,3,3,0,0,VALID,0,0,0,0,0,1,0,0,0,0,0,0,0,0,0,0,0,0,0,0,416.06,1072.98,2,0,0.175,0.175,52,5.71,0.175,0.175,7.23,FLYING,X10-F,0:/Integrated Flight Computer/aircraft/x10_f_cfg.ks (inferred preloaded)
7.58,APPROACH,ILS_TRACK,147.61,152,4.39,525.11,448.12,-11.67,13.81,18.2,269.99,-0.006,0.7494,0,2.341,1,0.6,4.5,0.75,0.35,0.0168,0.4,0,23.121,0,-4.364,0,270,0,0,1,-4.6,0,0,0,270,0.8657,0,0.5006,0,270,0.05,-103.39,10.59,0.002,34.054,1,3,670.88,-3.795,0,629.31,0,0,0,,0,0,0,0,0,0,0,0,0,0,0,0,0,270.01,0,0,0,0,0,0,0,0,0,0,0,0,0,3,3,0,0,VALID,0,0,0,0,0,1,0,0,0,0,0,0,0,0,0,0,0,0,0,0,442.55,1072.07,2,0,0.175,0.175,54,5.71,0.175,0.175,7.58,FLYING,X10-F,0:/Integrated Flight Computer/aircraft/x10_f_cfg.ks (inferred preloaded)
7.93,APPROACH,ILS_TRACK,147.38,152,4.62,521.31,444.23,-10.65,14.1,18.12,269.99,-0.001,0.7319,0,3.932,1,0.6,4.5,0.75,0.35,0.0168,0.4,0,23.188,0,-4.601,0,270,0,0,1,-4.21,0,0,0,270,0.8657,0,0.5005,0,270,0.05,-104.44,10.536,0.002,33.506,1,3,670.88,-2.716,0,626.48,0,0,0,,0,0,0,0,0,0,0,0,0,0,0,0,0,270.01,0,0,0,0,0,0,0,0,0,0,0,0,0,3,3,0,0,VALID,0,0,0,0,0,1,0,0,0,0,0,0,0,0,0,0,0,0,0,0,466.55,1071.44,2,0,0.175,0.175,56,5.71,0.175,0.175,7.93,FLYING,X10-F,0:/Integrated Flight Computer/aircraft/x10_f_cfg.ks (inferred preloaded)
8.28,APPROACH,ILS_TRACK,147.2,152,4.8,517.93,440.69,-9.63,14.57,18.24,269.99,0.004,0.7158,0,5.592,1,0.6,4.5,0.75,0.35,0.0168,0.4,0,23.24,0,-4.788,0,270,0,0,1,-3.82,0,0,0,270,0.8658,0,0.5004,0,270,0.04,-105.08,10.483,0.002,32.755,1,3,670.88,-1.537,0,623.66,0,0,0,,0,0,0,0,0,0,0,0,0,0,0,0,0,270.01,0,0,0,0,0,0,0,0,0,0,0,0,0,3,3,0,0,VALID,0,0,0,0,0,1,0,0,0,0,0,0,0,0,0,0,0,0,0,0,487.69,1070.98,2,0,0.175,0.175,58,5.71,0.175,0.175,8.28,FLYING,X10-F,0:/Integrated Flight Computer/aircraft/x10_f_cfg.ks (inferred preloaded)
8.63,APPROACH,ILS_TRACK,147.04,152,4.96,514.98,437.52,-8.56,15.29,18.6,270,0.008,0.7083,0,7.309,1,0.6,4.5,0.75,0.35,0.0168,0.4,0,23.284,0,-4.944,0,270,0,0,1,-3.42,0,0,0,270,0.8658,0.0001,0.5003,0,270,0.04,-105.3,10.429,0.003,31.832,1,3,670.88,-0.302,0,620.83,0,0,0,,0,0,0,0,0,0,0,0,0,0,0,0,0,270.01,0,0,0,0,0,0,0,0,0,0,0,0,0,3,3,0,0,VALID,0,0,0,0,0,1,0,0,0,0,0,0,0,0,0,0,0,0,0,0,506.32,1070.62,2,0,0.175,0.175,60,5.71,0.175,0.175,8.63,FLYING,X10-F,0:/Integrated Flight Computer/aircraft/x10_f_cfg.ks (inferred preloaded)
8.98,APPROACH,ILS_TRACK,146.81,152,5.19,512.31,434.89,-6.45,15.57,17.95,270,0.017,0.7458,0,9.091,1,0.6,4.5,0.75,0.35,0.0168,0.4,0,23.344,0,-5.157,0,270,0,0,1,-2.71,0,0,0,270,0.8659,0,0.5003,0,270,0.03,-105.17,10.375,0.003,31.201,1,3,670.88,0.438,0,618.01,0,0,0,,0,0,0,0,0,0,0,0,0,0,0,0,0,270.01,0,0,0,0,0,0,0,0,0,0,0,0,0,3,3,0,0,VALID,0,0,0,0,0,1,0,0,0,0,0,0,0,0,0,0,0,0,0,0,523.25,1069.87,2,0,0.175,0.175,62,5.71,0.175,0.175,8.98,FLYING,X10-F,0:/Integrated Flight Computer/aircraft/x10_f_cfg.ks (inferred preloaded)
9.33,APPROACH,ILS_TRACK,146.53,152,5.47,509.71,433.01,-4.79,13.47,15.04,270,0.02,0.8258,0,10.985,1,0.6,4.5,0.75,0.35,0.0168,0.4,0,23.433,0,-5.471,0,270,0,0,1,-2,0,0,0,270,0.8659,0,0.5002,0,270,0.03,-104.98,10.321,0.002,30.97,1,3,670.88,0.655,0,615.2,0,0,0,,0,0,0,0,0,0,0,0,0,0,0,0,0,270.01,0,0,0,0,0,0,0,0,0,0,0,0,0,3,3,0,0,VALID,0,0,0,0,0,1,0,0,0,0,0,0,0,0,0,0,0,0,0,0,542.92,1068.85,2,0,0.175,0.175,64,5.71,0.175,0.175,9.33,FLYING,X10-F,0:/Integrated Flight Computer/aircraft/x10_f_cfg.ks (inferred preloaded)
9.68,APPROACH,ILS_TRACK,146.86,152,5.14,507.25,431.53,-4.31,10.22,11.51,270,0.026,0.6949,0,12.844,1,0.6,4.5,0.75,0.35,0.0168,0.4,0,23.357,0,-5.202,0,270,0,0,1,-1.67,0,0,0,270,0.866,0,0.5001,0,270,0.02,-104.66,10.267,0.001,30.558,1,3,670.88,1.048,0,612.37,0,0,0,,0,0,0,0,0,0,0,0,0,0,0,0,0,270.01,0,0,0,0,0,0,0,0,0,0,0,0,0,3,3,0,0,VALID,0,0,0,0,0,1,0,0,0,0,0,0,0,0,0,0,0,0,0,0,564.67,1070.3,2,0,0.175,0.175,66,5.71,0.175,0.175,9.68,FLYING,X10-F,0:/Integrated Flight Computer/aircraft/x10_f_cfg.ks (inferred preloaded)
10.03,APPROACH,ILS_TRACK,147.76,152,4.24,505.08,429.97,-4.84,7.91,9.54,270,0.035,0.5549,0,14.448,1,0.6,4.5,0.75,0.35,0.0168,0.4,0,23.114,0,-4.341,0,270,0,0,1,-1.82,0,0,0,270,0.866,0,0.5,0,270,0.02,-104.04,10.213,0.001,29.625,1,3,670.88,1.986,0,609.54,0,0,0,,0,0,0,0,0,0,0,0,0,0,0,0,0,270.01,0,0,0,0,0,0,0,0,0,0,0,0,0,3,3,0,0,VALID,0,0,0,0,0,1,0,0,0,0,0,0,0,0,0,0,0,0,0,0,577.18,1074.13,2,0,0.175,0.175,68,5.71,0.175,0.175,10.03,FLYING,X10-F,0:/Integrated Flight Computer/aircraft/x10_f_cfg.ks (inferred preloaded)
10.38,APPROACH,ILS_TRACK,148.88,152,3.12,503.21,428.14,-5.58,7.42,9.5,270,0.036,0.4149,0,15.68,1,0.6,4.5,0.75,0.35,0.0168,0.4,0,22.803,0,-3.237,0,270,0,0,1,-2.1,0,0,0,270,0.8661,0,0.5,0,270,0.02,-103.12,10.159,0.002,28.637,1,3,670.88,2.872,0,606.68,0,0,0,,0,0,0,0,0,0,0,0,0,0,0,0,0,270.01,0,0,0,0,0,0,0,0,0,0,0,0,0,3,3,0,0,VALID,0,0,0,0,0,1,0,0,0,0,0,0,0,0,0,0,0,0,0,0,578.21,1078.9,2,0,0.175,0.175,70,5.71,0.175,0.175,10.38,FLYING,X10-F,0:/Integrated Flight Computer/aircraft/x10_f_cfg.ks (inferred preloaded)
10.73,APPROACH,ILS_TRACK,149.98,152,2.02,501.63,426.06,-5.9,8.76,11.13,270,0.035,0.2749,0,16.519,1,0.6,4.5,0.75,0.35,0.0168,0.4,0,22.49,0,-2.125,0,270,0,0,1,-2.29,0,0,0,270,0.8661,0.0001,0.4999,0,270,0.01,-101.88,10.104,0.005,27.545,1,3,670.88,3.772,0,603.8,0,0,0,,0,0,0,0,0,0,0,0,0,0,0,0,0,270.01,0,0,0,0,0,0,0,0,0,0,0,0,0,3,3,0,0,VALID,0,0,0,0,0,1,0,0,0,0,0,0,0,0,0,0,0,0,0,0,562.74,1083.68,2,0,0.175,0.175,72,5.71,0.175,0.175,10.73,FLYING,X10-F,0:/Integrated Flight Computer/aircraft/x10_f_cfg.ks (inferred preloaded)
11.08,APPROACH,ILS_TRACK,150.87,152,1.13,500.12,424.1,-5.17,10.39,12.41,270,0.032,0.1349,0,17.015,1,0.6,4.5,0.75,0.35,0.0168,0.4,0,22.23,0,-1.204,0,270,0,0,1,-2.03,0,0,0,270,0.8661,0,0.4998,0,270,0.01,-100.49,10.048,0.001,26.977,1,3,670.88,3.963,0,600.91,0,0,0,,0,0,0,0,0,0,0,0,0,0,0,0,0,270.01,0,0,0,0,0,0,0,0,0,0,0,0,0,3,3,0,0,VALID,0,0,0,0,0,1,0,0,0,0,0,0,0,0,0,0,0,0,0,0,531.17,1087.61,2,0,0.175,0.175,74,5.71,0.175,0.175,11.08,FLYING,X10-F,0:/Integrated Flight Computer/aircraft/x10_f_cfg.ks (inferred preloaded)
11.43,APPROACH,ILS_TRACK,151.51,152,0.49,498.74,422.4,-4.43,11.49,13.25,270,0.031,0,0,17.258,1,0.6,4.5,0.75,0.35,0.0168,0.4,0,22.044,0,-0.544,0,270,0,0,1,-1.78,0,0,0,270,0.8662,0,0.4997,0,270,0.01,-99.01,9.993,0.002,26.159,1,3,670.88,4.428,0,598,0,0,0,,0,0,0,0,0,0,0,0,0,0,0,0,0,270.01,0,0,0,0,0,0,0,0,0,0,0,0,0,3,3,0,0,VALID,0,0,0,0,0,1,0,0,0,0,0,0,0,0,0,0,0,0,0,0,485.06,1090.43,2,0,0.175,0.175,76,5.71,0.175,0.175,11.43,FLYING,X10-F,0:/Integrated Flight Computer/aircraft/x10_f_cfg.ks (inferred preloaded)
11.78,APPROACH,ILS_TRACK,151.76,152,0.24,497.34,421.12,-3.24,11.48,12.57,270,0.026,0,0,17.361,1,0.6,4.5,0.75,0.35,0.0168,0.4,0,21.962,0,-0.252,0,270,0,0,1,-1.27,0,0,0,270,0.8662,0,0.4996,0,270,0.01,-97.47,9.937,0,25.849,1,3,670.88,4.242,0,595.09,0,0,0,,0,0,0,0,0,0,0,0,0,0,0,0,0,270.01,0,0,0,0,0,0,0,0,0,0,0,0,0,3,3,0,0,VALID,0,0,0,0,0,1,0,0,0,0,0,0,0,0,0,0,0,0,0,0,430.12,1091.6,2,0,0.175,0.175,78,5.71,0.175,0.175,11.78,FLYING,X10-F,0:/Integrated Flight Computer/aircraft/x10_f_cfg.ks (inferred preloaded)
12.13,APPROACH,ILS_TRACK,151.92,152,0.08,496.06,420.06,-2.91,10.66,11.65,270,0.031,0,0,17.413,1,0.6,4.5,0.75,0.35,0.0168,0.4,0,21.92,0,-0.102,0,270,0,0,1,-1.11,0,0,0,270,0.8663,0,0.4996,0,270,0.01,-95.88,9.882,-0.001,24.986,1,3,670.88,4.724,0,592.18,0,0,0,,0,0,0,0,0,0,0,0,0,0,0,0,0,270.01,0,0,0,0,0,0,0,0,0,0,0,0,0,3,3,0,0,VALID,0,0,0,0,0,1,0,0,0,0,0,0,0,0,0,0,0,0,0,0,380.49,1092.34,2,0,0.175,0.175,80,5.71,0.175,0.175,12.13,FLYING,X10-F,0:/Integrated Flight Computer/aircraft/x10_f_cfg.ks (inferred preloaded)
12.48,APPROACH,ILS_TRACK,152.04,152,-0.04,495.03,419.05,-2.94,10.44,11.53,270,0.03,0,0,17.329,1,0.6,4.5,0.75,0.35,0.0168,0.4,0,21.882,0,0.031,0,270,0,0,1,-1.1,0,0,0,270,0.8663,0,0.4995,0,270,0.01,-94.05,9.826,-0.001,23.861,1,3,670.88,5.441,0,589.26,0,0,0,,0,0,0,0,0,0,0,0,0,0,0,0,0,270.01,0,0,0,0,0,0,0,0,0,0,0,0,0,3,3,0,0,VALID,0,0,0,0,0,1,0,0,0,0,0,0,0,0,0,0,0,0,0,0,336.56,1092.93,2,0,0.175,0.175,82,5.71,0.175,0.175,12.48,FLYING,X10-F,0:/Integrated Flight Computer/aircraft/x10_f_cfg.ks (inferred preloaded)
12.83,APPROACH,ILS_TRACK,152,152,0,494.18,418.06,-2.6,10.9,11.91,270,0.024,0.0937,0,17.32,1,0.6,4.5,0.75,0.35,0.0168,0.4,0,21.888,0,0.009,0,270,0,0,1,-1.03,0,0,0,270,0.8664,0,0.4994,0,270,0.01,-92,9.771,-0.001,22.849,1,3,670.88,5.939,0,586.35,0,0,0,,0,0,0,0,0,0,0,0,0,0,0,0,0,270.01,0,0,0,0,0,0,0,0,0,0,0,0,0,3,3,0,0,VALID,0,0,0,0,0,1,0,0,0,0,0,0,0,0,0,0,0,0,0,0,298.89,1092.85,2,0,0.175,0.175,84,5.71,0.175,0.175,12.83,FLYING,X10-F,0:/Integrated Flight Computer/aircraft/x10_f_cfg.ks (inferred preloaded)
13.18,APPROACH,ILS_TRACK,151.78,152,0.22,493.34,417.26,-2.16,10.88,11.64,270,0.02,0.2337,0,17.367,1,0.6,4.5,0.75,0.35,0.0168,0.4,0,21.945,0,-0.193,0,270,0,0,1,-0.83,0,0,0,270,0.8664,0,0.4993,0,270,0.01,-89.93,9.715,-0.001,22.268,1,3,670.88,5.888,0,583.43,0,0,0,,0,0,0,0,0,0,0,0,0,0,0,0,0,270.01,0,0,0,0,0,0,0,0,0,0,0,0,0,3,3,0,0,VALID,0,0,0,0,0,1,0,0,0,0,0,0,0,0,0,0,0,0,0,0,278.77,1092,2,0,0.175,0.175,86,5.71,0.175,0.175,13.18,FLYING,X10-F,0:/Integrated Flight Computer/aircraft/x10_f_cfg.ks (inferred preloaded)
13.53,APPROACH,ILS_TRACK,151.53,152,0.47,492.59,416.57,-1.9,10.66,11.33,270,0.019,0.3737,0,17.501,1,0.6,4.5,0.75,0.35,0.0168,0.4,0,22.017,0,-0.447,0,270,0,0,1,-0.72,0,0,0,270,0.8665,0,0.4992,0,270,0.01,-87.8,9.66,-0.001,21.437,1,3,670.88,6.126,0,580.53,0,0,0,,0,0,0,0,0,0,0,0,0,0,0,0,0,270.01,0,0,0,0,0,0,0,0,0,0,0,0,0,3,3,0,0,VALID,0,0,0,0,0,1,0,0,0,0,0,0,0,0,0,0,0,0,0,0,277.49,1090.99,2,0,0.175,0.175,88,5.71,0.175,0.175,13.53,FLYING,X10-F,0:/Integrated Flight Computer/aircraft/x10_f_cfg.ks (inferred preloaded)
13.88,APPROACH,ILS_TRACK,151.3,152,0.7,491.96,415.93,-1.72,10.64,11.27,270,0.015,0.465,0,17.719,1,0.6,4.5,0.75,0.35,0.0168,0.4,0,22.082,0,-0.677,0,270,0,0,1,-0.67,0,0,0,270,0.8665,0,0.4992,0,270,0.01,-85.55,9.604,-0.002,20.45,1,3,670.88,6.517,0,577.62,0,0,0,,0,0,0,0,0,0,0,0,0,0,0,0,0,270.01,0,0,0,0,0,0,0,0,0,0,0,0,0,3,3,0,0,VALID,0,0,0,0,0,1,0,0,0,0,0,0,0,0,0,0,0,0,0,0,287.29,1090.09,2,0,0.175,0.175,90,5.71,0.175,0.175,13.88,FLYING,X10-F,0:/Integrated Flight Computer/aircraft/x10_f_cfg.ks (inferred preloaded)
14.23,APPROACH,ILS_TRACK,151.12,152,0.88,491.39,415.38,-1.49,10.62,11.16,270,0.01,0.5063,0,18.007,1,0.6,4.5,0.75,0.35,0.0168,0.4,0,22.134,0,-0.864,0,270,0,0,1,-0.58,0,0,0,270,0.8666,-0.0001,0.4991,0,270,0.01,-83.23,9.549,-0.003,19.63,1,3,670.88,6.673,0,574.72,0,0,0,,0,0,0,0,0,0,0,0,0,0,0,0,0,270.01,0,0,0,0,0,0,0,0,0,0,0,0,0,3,3,0,0,VALID,0,0,0,0,0,1,0,0,0,0,0,0,0,0,0,0,0,0,0,0,302.51,1089.37,2,0,0.175,0.175,92,5.71,0.175,0.175,14.23,FLYING,X10-F,0:/Integrated Flight Computer/aircraft/x10_f_cfg.ks (inferred preloaded)
14.58,APPROACH,ILS_TRACK,151.01,152,0.99,490.86,414.89,-1.31,10.5,10.96,270,0.008,0.5116,0,18.342,1,0.6,4.5,0.75,0.35,0.0168,0.4,0,22.168,0,-0.985,0,270,0,0,1,-0.51,0,0,0,270,0.8666,0,0.499,0,270,0.01,-80.86,9.494,-0.001,18.827,1,3,670.88,6.789,0,571.82,0,0,0,,0,0,0,0,0,0,0,0,0,0,0,0,0,270.01,0,0,0,0,0,0,0,0,0,0,0,0,0,3,3,0,0,VALID,0,0,0,0,0,1,0,0,0,0,0,0,0,0,0,0,0,0,0,0,319.35,1088.93,2,0,0.175,0.175,94,5.71,0.175,0.175,14.58,FLYING,X10-F,0:/Integrated Flight Computer/aircraft/x10_f_cfg.ks (inferred preloaded)
14.93,APPROACH,ILS_TRACK,150.97,152,1.03,490.41,414.46,-1.27,10.37,10.84,270,0.009,0.4869,0,18.7,1,0.6,4.5,0.75,0.35,0.0168,0.4,0,22.181,0,-1.028,0,270,0,0,1,-0.47,0,0,0,270,0.8667,0,0.4989,0,270,0.01,-78.44,9.438,-0.001,17.966,1,3,670.88,6.958,0,568.93,0,0,0,,0,0,0,0,0,0,0,0,0,0,0,0,0,270.01,0,0,0,0,0,0,0,0,0,0,0,0,0,3,3,0,0,VALID,0,0,0,0,0,1,0,0,0,0,0,0,0,0,0,0,0,0,0,0,335.17,1088.82,2,0,0.175,0.175,96,5.71,0.175,0.175,14.93,FLYING,X10-F,0:/Integrated Flight Computer/aircraft/x10_f_cfg.ks (inferred preloaded)
15.28,APPROACH,ILS_TRACK,150.99,152,1.01,489.98,414.08,-1.03,10.27,10.62,270,0.007,0.4511,0,19.057,1,0.6,4.5,0.75,0.35,0.0168,0.4,0,22.177,0,-1.016,0,270,0,0,1,-0.39,0,0,0,270,0.8667,0,0.4988,0,270,0.02,-75.97,9.383,-0.002,17.19,1,3,670.88,7,0,566.03,0,0,0,,0,0,0,0,0,0,0,0,0,0,0,0,0,270.01,0,0,0,0,0,0,0,0,0,0,0,0,0,3,3,0,0,VALID,0,0,0,0,0,1,0,0,0,0,0,0,0,0,0,0,0,0,0,0,347.98,1088.92,2,0,0.175,0.175,98,5.71,0.175,0.175,15.28,FLYING,X10-F,0:/Integrated Flight Computer/aircraft/x10_f_cfg.ks (inferred preloaded)
15.63,APPROACH,ILS_TRACK,151.07,152,0.93,489.6,413.73,-0.98,10.16,10.51,270,0.007,0.4004,0,19.394,1,0.6,4.5,0.75,0.35,0.0168,0.4,0,22.155,0,-0.937,0,270,0,0,1,-0.37,0,0,0,270,0.8667,0,0.4988,0,270,0.02,-73.46,9.328,0.001,16.269,1,3,670.88,7.21,0,563.13,0,0,0,,0,0,0,0,0,0,0,0,0,0,0,0,0,270.01,0,0,0,0,0,0,0,0,0,0,0,0,0,3,3,0,0,VALID,0,0,0,0,0,1,0,0,0,0,0,0,0,0,0,0,0,0,0,0,357.26,1089.31,2,0,0.175,0.175,100,5.71,0.175,0.175,15.63,FLYING,X10-F,0:/Integrated Flight Computer/aircraft/x10_f_cfg.ks (inferred preloaded)
15.98,APPROACH,ILS_TRACK,151.21,152,0.79,489.27,413.41,-0.87,10.12,10.43,270,0.009,0.3447,0,19.688,1,0.6,4.5,0.75,0.35,0.0168,0.4,0,22.118,0,-0.804,0,270,0,0,1,-0.34,0,0,0,270,0.8668,0,0.4987,0,270,0.02,-70.9,9.272,0,15.396,1,3,670.88,7.341,0,560.23,0,0,0,,0,0,0,0,0,0,0,0,0,0,0,0,0,270.01,0,0,0,0,0,0,0,0,0,0,0,0,0,3,3,0,0,VALID,0,0,0,0,0,1,0,0,0,0,0,0,0,0,0,0,0,0,0,0,362.17,1089.91,2,0,0.175,0.175,102,5.71,0.175,0.175,15.98,FLYING,X10-F,0:/Integrated Flight Computer/aircraft/x10_f_cfg.ks (inferred preloaded)
16.33,APPROACH,ILS_TRACK,151.37,152,0.63,488.96,413.11,-0.82,10.06,10.36,270,0.003,0.2958,0,19.928,1,0.6,4.5,0.75,0.35,0.0168,0.4,0,22.073,0,-0.646,0,270,0,0,1,-0.31,0,0,0,270,0.8668,0,0.4986,0,270,0.02,-68.31,9.217,-0.002,14.56,1,3,670.88,7.416,0,557.33,0,0,0,,0,0,0,0,0,0,0,0,0,0,0,0,0,270.01,0,0,0,0,0,0,0,0,0,0,0,0,0,3,3,0,0,VALID,0,0,0,0,0,1,0,0,0,0,0,0,0,0,0,0,0,0,0,0,362.43,1090.6,2,0,0.175,0.175,104,5.71,0.175,0.175,16.33,FLYING,X10-F,0:/Integrated Flight Computer/aircraft/x10_f_cfg.ks (inferred preloaded)
16.68,APPROACH,ILS_TRACK,151.54,152,0.46,488.68,412.85,-0.74,10.03,10.29,270,0.005,0.2563,0,20,1,0.6,4.5,0.75,0.35,0.0168,0.4,0,22.026,0,-0.481,0,270,0,0,1,-0.28,0,0,0,270,0.8669,0,0.4985,0,270,0.02,-65.69,9.161,-0.002,13.695,1,3,670.88,7.515,0,554.42,0,0,0,,0,0,0,0,0,0,0,0,0,0,0,0,0,270.01,0,0,0,0,0,0,0,0,0,0,0,0,0,3,3,0,0,VALID,0,0,0,0,0,1,0,0,0,0,0,0,0,0,0,0,0,0,0,0,357.22,1091.32,2,0,0.175,0.175,106,5.71,0.175,0.175,16.68,FLYING,X10-F,0:/Integrated Flight Computer/aircraft/x10_f_cfg.ks (inferred preloaded)
17.03,APPROACH,ILS_TRACK,151.68,152,0.32,488.42,412.59,-0.69,10,10.26,270,0,0.2326,0,20,1,0.6,4.5,0.75,0.35,0.0168,0.4,0,21.984,0,-0.33,0,270,0,0,1,-0.27,0,0,0,270,0.8669,0,0.4984,0,270,0.02,-63.04,9.106,-0.001,12.852,1,3,670.88,7.576,0,551.51,0,0,0,,0,0,0,0,0,0,0,0,0,0,0,0,0,270.01,0,0,0,0,0,0,0,0,0,0,0,0,0,3,3,0,0,VALID,0,0,0,0,0,1,0,0,0,0,0,0,0,0,0,0,0,0,0,0,347.91,1091.96,2,0,0.175,0.175,108,5.71,0.175,0.175,17.03,FLYING,X10-F,0:/Integrated Flight Computer/aircraft/x10_f_cfg.ks (inferred preloaded)
17.38,APPROACH,ILS_TRACK,151.8,152,0.2,488.19,412.36,-0.65,9.99,10.23,270,0.002,0.2264,0,20,1,0.6,4.5,0.75,0.35,0.0168,0.4,0,21.95,0,-0.209,0,270,0,0,1,-0.25,0,0,0,270,0.867,-0.0001,0.4984,0,270,0.03,-60.37,9.05,-0.003,11.99,1,3,670.88,7.65,0,548.6,0,0,0,,0,0,0,0,0,0,0,0,0,0,0,0,0,270.01,0,0,0,0,0,0,0,0,0,0,0,0,0,3,3,0,0,VALID,0,0,0,0,0,1,0,0,0,0,0,0,0,0,0,0,0,0,0,0,337.02,1092.48,2,0,0.175,0.175,110,5.71,0.175,0.175,17.38,FLYING,X10-F,0:/Integrated Flight Computer/aircraft/x10_f_cfg.ks (inferred preloaded)
17.73,APPROACH,ILS_TRACK,151.88,152,0.12,487.97,412.14,-0.61,10,10.22,270,0.003,0.2351,0,20,1,0.6,4.5,0.75,0.35,0.0168,0.4,0,21.926,0,-0.124,0,270,0,0,1,-0.23,0,0,0,270,0.867,0,0.4983,0,270,0.03,-57.68,8.995,-0.001,11.136,1,3,670.88,7.709,0,545.69,0,0,0,,0,0,0,0,0,0,0,0,0,0,0,0,0,270.01,0,0,0,0,0,0,0,0,0,0,0,0,0,3,3,0,0,VALID,0,0,0,0,0,1,0,0,0,0,0,0,0,0,0,0,0,0,0,0,326.89,1092.84,2,0,0.175,0.175,112,5.71,0.175,0.175,17.73,FLYING,X10-F,0:/Integrated Flight Computer/aircraft/x10_f_cfg.ks (inferred preloaded)
18.08,APPROACH,ILS_TRACK,151.93,152,0.07,487.77,411.94,-0.57,10.01,10.22,270,0.003,0.2547,0,20,1,0.6,4.5,0.75,0.35,0.0168,0.4,0,21.913,0,-0.077,0,270,0,0,1,-0.22,0,0,0,270,0.8671,0,0.4982,0,270,0.03,-54.96,8.939,-0.002,10.283,1,3,670.88,7.758,0,542.77,0,0,0,,0,0,0,0,0,0,0,0,0,0,0,0,0,270.01,0,0,0,0,0,0,0,0,0,0,0,0,0,3,3,0,0,VALID,0,0,0,0,0,1,0,0,0,0,0,0,0,0,0,0,0,0,0,0,319.22,1093.04,2,0,0.175,0.175,114,5.71,0.175,0.175,18.08,FLYING,X10-F,0:/Integrated Flight Computer/aircraft/x10_f_cfg.ks (inferred preloaded)
18.43,APPROACH,ILS_TRACK,151.94,152,0.06,487.58,411.75,-0.53,10.03,10.22,270,0.003,0.279,0,20,1,0.6,4.5,0.75,0.35,0.0168,0.4,0,21.908,0,-0.061,0,270,0,0,1,-0.2,0,0,0,270,0.8671,0,0.4981,0,270,0.03,-52.24,8.884,-0.002,9.438,1,3,670.88,7.792,0,539.86,0,0,0,,0,0,0,0,0,0,0,0,0,0,0,0,0,270.01,0,0,0,0,0,0,0,0,0,0,0,0,0,3,3,0,0,VALID,0,0,0,0,0,1,0,0,0,0,0,0,0,0,0,0,0,0,0,0,315.01,1093.12,2,0,0.175,0.175,116,5.71,0.175,0.175,18.43,FLYING,X10-F,0:/Integrated Flight Computer/aircraft/x10_f_cfg.ks (inferred preloaded)
18.78,APPROACH,ILS_TRACK,151.94,152,0.06,487.41,411.57,-0.51,10.03,10.22,270,0.005,0.3016,0,20,1,0.6,4.5,0.75,0.35,0.0168,0.4,0,21.908,0,-0.062,0,270,0,0,1,-0.19,0,0,0,270,0.8672,0,0.498,0,270,0.03,-49.5,8.828,-0.002,8.594,1,3,670.88,7.822,0,536.95,0,0,0,,0,0,0,0,0,0,0,0,0,0,0,0,0,270.01,0,0,0,0,0,0,0,0,0,0,0,0,0,3,3,0,0,VALID,0,0,0,0,0,1,0,0,0,0,0,0,0,0,0,0,0,0,0,0,314.25,1093.12,2,0,0.175,0.175,118,5.71,0.175,0.175,18.78,FLYING,X10-F,0:/Integrated Flight Computer/aircraft/x10_f_cfg.ks (inferred preloaded)
19.13,APPROACH,ILS_TRACK,151.93,152,0.07,487.24,411.4,-0.43,10.06,10.21,270,0.005,0.3189,0,20,1,0.6,4.5,0.75,0.35,0.0168,0.4,0,21.91,0,-0.069,0,270,0,0,1,-0.17,0,0,0,270,0.8672,-0.0001,0.498,0,270,0.04,-46.75,8.772,-0.003,7.742,1,3,670.88,7.855,0,534.03,0,0,0,,0,0,0,0,0,0,0,0,0,0,0,0,0,270.01,0,0,0,0,0,0,0,0,0,0,0,0,0,3,3,0,0,VALID,0,0,0,0,0,1,0,0,0,0,0,0,0,0,0,0,0,0,0,0,315.5,1093.1,2,0,0.175,0.175,120,5.71,0.175,0.175,19.13,FLYING,X10-F,0:/Integrated Flight Computer/aircraft/x10_f_cfg.ks (inferred preloaded)
19.48,APPROACH,ILS_TRACK,151.93,152,0.07,487.09,411.25,-0.42,10.04,10.19,270,0.005,0.3285,0,20,1,0.6,4.5,0.75,0.35,0.0168,0.4,0,21.912,0,-0.074,0,270,0,0,1,-0.16,0,0,0,270,0.8673,0,0.4979,0,270,0.04,-44,8.717,-0.002,6.89,1,3,670.88,7.886,0,531.12,0,0,0,,0,0,0,0,0,0,0,0,0,0,0,0,0,270.01,0,0,0,0,0,0,0,0,0,0,0,0,0,3,3,0,0,VALID,0,0,0,0,0,1,0,0,0,0,0,0,0,0,0,0,0,0,0,0,317.86,1093.1,2,0,0.175,0.175,122,5.71,0.175,0.175,19.48,FLYING,X10-F,0:/Integrated Flight Computer/aircraft/x10_f_cfg.ks (inferred preloaded)
19.83,APPROACH,ILS_TRACK,151.93,152,0.07,486.95,411.11,-0.39,10.03,10.17,270,0.005,0.3299,0,20,1,0.6,4.5,0.75,0.35,0.0168,0.4,0,21.91,0,-0.067,0,270,0,0,1,-0.15,0,0,0,270,0.8673,0,0.4978,0,270,0.04,-41.23,8.661,-0.002,6.033,1,3,670.88,7.919,0,528.2,0,0,0,,0,0,0,0,0,0,0,0,0,0,0,0,0,270.01,0,0,0,0,0,0,0,0,0,0,0,0,0,3,3,0,0,VALID,0,0,0,0,0,1,0,0,0,0,0,0,0,0,0,0,0,0,0,0,320.69,1093.15,2,0,0.175,0.175,124,5.71,0.175,0.175,19.83,FLYING,X10-F,0:/Integrated Flight Computer/aircraft/x10_f_cfg.ks (inferred preloaded)
20.18,APPROACH,ILS_TRACK,151.95,152,0.05,486.82,410.98,-0.36,10.02,10.15,270,0.005,0.3256,0,20,1,0.6,4.5,0.75,0.35,0.0168,0.4,0,21.904,0,-0.048,0,270,0,0,1,-0.14,0,0,0,270,0.8673,0,0.4977,0,270,0.04,-38.45,8.606,-0.003,5.173,1,3,670.88,7.951,0,525.29,0,0,0,,0,0,0,0,0,0,0,0,0,0,0,0,0,270.01,0,0,0,0,0,0,0,0,0,0,0,0,0,3,3,0,0,VALID,0,0,0,0,0,1,0,0,0,0,0,0,0,0,0,0,0,0,0,0,323.38,1093.24,2,0,0.175,0.175,126,5.71,0.175,0.175,20.18,FLYING,X10-F,0:/Integrated Flight Computer/aircraft/x10_f_cfg.ks (inferred preloaded)
20.53,APPROACH,ILS_TRACK,151.99,152,0.01,486.69,410.86,-0.32,10.02,10.13,270,0.005,0.3178,0,20,1,0.6,4.5,0.75,0.35,0.0168,0.4,0,21.896,0,-0.018,0,270,0,0,1,-0.13,0,0,0,270,0.8674,0,0.4976,0,270,0.04,-35.66,8.55,-0.001,4.307,1,3,670.88,7.988,0,522.37,0,0,0,,0,0,0,0,0,0,0,0,0,0,0,0,0,270.01,0,0,0,0,0,0,0,0,0,0,0,0,0,3,3,0,0,VALID,0,0,0,0,0,1,0,0,0,0,0,0,0,0,0,0,0,0,0,0,325.55,1093.38,2,0,0.175,0.175,128,5.71,0.175,0.175,20.53,FLYING,X10-F,0:/Integrated Flight Computer/aircraft/x10_f_cfg.ks (inferred preloaded)
20.88,APPROACH,ILS_TRACK,152.02,152,-0.02,486.58,410.75,-0.3,10.01,10.12,270,0.004,0.3085,0,19.997,1,0.6,4.5,0.75,0.35,0.0168,0.4,0,21.886,0,0.019,0,270,0,0,1,-0.12,0,0,0,270,0.8674,-0.0001,0.4975,0,270,0.04,-32.86,8.494,-0.003,3.45,1,3,670.88,8.008,0,519.46,0,0,0,,0,0,0,0,0,0,0,0,0,0,0,0,0,270.01,0,0,0,0,0,0,0,0,0,0,0,0,0,3,3,0,0,VALID,0,0,0,0,0,1,0,0,0,0,0,0,0,0,0,0,0,0,0,0,326.98,1093.55,2,0,0.175,0.175,130,5.71,0.175,0.175,20.88,FLYING,X10-F,0:/Integrated Flight Computer/aircraft/x10_f_cfg.ks (inferred preloaded)
21.23,APPROACH,ILS_TRACK,152.07,152,-0.07,486.48,410.65,-0.28,10,10.1,270,0.005,0.2985,0,19.978,1,0.6,4.5,0.75,0.35,0.0168,0.4,0,21.873,0,0.063,0,270,-0.414,0,1,-0.11,0,0,0,270,0.8711,-0.0001,0.4912,-0.41,270,0.04,-30.05,8.439,-0.004,2.586,1,3,670.88,8.036,-0.414,516.54,0,0,0,,0,0,0,0,0,0,0,0,0,0,0,0,0,270.01,0,0,0,0,0,0,0,0,0,0,0,0,0,3,3,0,0,VALID,0,0,0,0,0,1,0,0,0,0,0,0,0,0,0,0,0,0,0,0,327.62,1093.75,2,0,0.175,0.175,132,5.71,0.175,0.175,21.23,FLYING,X10-F,0:/Integrated Flight Computer/aircraft/x10_f_cfg.ks (inferred preloaded)
21.58,APPROACH,ILS_TRACK,152.11,152,-0.11,486.28,410.62,-0.06,9.63,9.56,270,0.001,0.2932,0,19.946,1,0.6,4.5,0.75,0.35,0.0168,0.4,0,21.862,0,0.102,0,270,-1.001,0,1,-0.02,0,0,-0.79,270,0.8761,-0.0001,0.4822,-1,270,0.05,-27.3,8.383,-0.003,1.999,1,3,670.88,7.738,-1.001,513.63,0,0,0,,0,0,0,0,0,0,0,0,0,0,0,0,0,270.01,0,0,0,0,0,0,0,0,0,0,0,0,0,3,3,0,0,VALID,0,0,0,0,0,1,0,0,0,0,0,0,0,0,0,0,0,0,0,0,327.39,1093.9,2,0,0.175,0.175,134,5.71,0.175,0.175,21.58,FLYING,X10-F,0:/Integrated Flight Computer/aircraft/x10_f_cfg.ks (inferred preloaded)
21.93,APPROACH,ILS_TRACK,152.2,152,-0.2,485.98,410.57,-0.32,8.76,8.79,270,0,0.2694,0,19.891,1,0.6,4.5,0.75,0.35,0.0168,0.4,0,21.84,0,0.182,0,270,-1.589,0,1,-0.09,0,0,-1.22,270,0.881,-0.0001,0.4731,-1.59,270,0.05,-24.67,8.327,-0.003,1.411,1,3,670.88,7.488,-1.589,510.71,0,0,0,,0,0,0,0,0,0,0,0,0,0,0,0,0,270.01,0,0,0,0,0,0,0,0,0,0,0,0,0,3,3,0,0,VALID,0,0,0,0,0,1,0,0,0,0,0,0,0,0,0,0,0,0,0,0,326.41,1094.28,2,0,0.175,0.175,136,5.71,0.175,0.175,21.93,FLYING,X10-F,0:/Integrated Flight Computer/aircraft/x10_f_cfg.ks (inferred preloaded)
22.28,APPROACH,ILS_TRACK,152.37,152,-0.37,485.59,410.45,-0.57,7.95,8.04,270,0,0.2153,0,19.786,1,0.6,4.5,0.75,0.35,0.0168,0.4,0,21.793,0,0.346,0,270,-2.119,0,1,-0.17,0,0,-1.93,270,0.8854,-0.0001,0.4648,-2.12,270,0.05,-22.11,8.272,-0.003,0.881,1,3,670.88,7.19,-2.119,507.79,0,0,0,,0,0,0,0,0,0,0,0,0,0,0,0,0,270.01,0,0,0,0,0,0,0,0,0,0,0,0,0,3,3,0,0,VALID,0,0,0,0,0,1,0,0,0,0,0,0,0,0,0,0,0,0,0,0,321.82,1094.99,2,0,0.175,0.175,138,5.71,0.175,0.175,22.28,FLYING,X10-F,0:/Integrated Flight Computer/aircraft/x10_f_cfg.ks (inferred preloaded)
22.63,APPROACH,ILS_TRACK,152.59,152,-0.59,485.07,410.16,-1.11,7.14,7.44,270,-0.002,0.1487,0,19.607,1,0.6,4.5,0.75,0.35,0.0168,0.4,0,21.73,0,0.57,0,270,-2.595,0,1,-0.36,0,0,-2.34,270,0.8893,-0.0001,0.4574,-2.6,270,0.05,-19.68,8.216,-0.003,0.405,1,3,670.88,6.874,-2.595,504.86,0,0,0,,0,0,0,0,0,0,0,0,0,0,0,0,0,270.01,0,0,0,0,0,0,0,0,0,0,0,0,0,3,3,0,0,VALID,0,0,0,0,0,1,0,0,0,0,0,0,0,0,0,0,0,0,0,0,310.75,1095.98,2,0,0.175,0.175,140,5.71,0.175,0.175,22.63,FLYING,X10-F,0:/Integrated Flight Computer/aircraft/x10_f_cfg.ks (inferred preloaded)
22.98,APPROACH,ILS_TRACK,152.85,152,-0.85,484.4,409.67,-1.77,6.54,7.11,270,-0.004,0.0872,0,19.342,1,0.6,4.5,0.75,0.35,0.0168,0.4,0,21.66,0,0.821,0,270,-2.959,0,1,-0.6,0,0,-2.76,270,0.8922,-0.0001,0.4516,-2.96,270,0.05,-17.38,8.16,-0.002,0.041,1,3,670.88,6.468,-2.959,501.93,0,0,0,,0,0,0,0,0,0,0,0,0,0,0,0,0,270.01,0,0,0,0,0,0,0,0,0,0,0,0,0,3,3,0,0,VALID,0,0,0,0,0,1,0,0,0,0,0,0,0,0,0,0,0,0,0,0,292.6,1097.07,2,0,0.175,0.175,142,5.71,0.175,0.175,22.98,FLYING,X10-F,0:/Integrated Flight Computer/aircraft/x10_f_cfg.ks (inferred preloaded)
23.33,APPROACH,ILS_TRACK,153.07,152,-1.07,483.56,408.94,-2.41,6.15,6.95,270,-0.004,0.0481,0,18.993,1,0.6,4.5,0.75,0.35,0.0168,0.4,0,21.595,0,1.05,0,270,-3.173,0,1,-0.84,0,0,-3.11,270,0.8939,-0.0001,0.4482,-3.17,270,0.05,-15.25,8.104,-0.002,-0.173,1,3,670.88,5.935,-3.173,499,0,0,0,,0,0,0,0,0,0,0,0,0,0,0,0,0,270.01,0,0,0,0,0,0,0,0,0,0,0,0,0,3,3,0,0,VALID,0,0,0,0,0,1,0,0,0,0,0,0,0,0,0,0,0,0,0,0,269.15,1098.07,2,0,0.175,0.175,144,5.71,0.175,0.175,23.33,FLYING,X10-F,0:/Integrated Flight Computer/aircraft/x10_f_cfg.ks (inferred preloaded)
23.68,APPROACH,ILS_TRACK,153.23,152,-1.23,482.55,407.97,-2.95,6.06,7.06,270,-0.006,0.0426,0,18.581,1,0.6,4.5,0.75,0.35,0.0168,0.4,0,21.549,0,1.214,0,270,-3.435,0,1,-1.08,0,0,-3.34,270,0.896,-0.0001,0.444,-3.44,270,0.05,-13.28,8.048,-0.002,-0.435,1,3,670.88,5.523,-3.435,496.06,0,0,0,,0,0,0,0,0,0,0,0,0,0,0,0,0,270.01,0,0,0,0,0,0,0,0,0,0,0,0,0,3,3,0,0,VALID,0,0,0,0,0,1,0,0,0,0,0,0,0,0,0,0,0,0,0,0,244,1098.8,2,0,0.175,0.175,146,5.71,0.175,0.175,23.68,FLYING,X10-F,0:/Integrated Flight Computer/aircraft/x10_f_cfg.ks (inferred preloaded)
24.03,APPROACH,ILS_TRACK,153.3,152,-1.3,481.25,406.82,-3.72,5.52,6.79,270,-0.002,0.0659,0,18.133,1,0.6,4.5,0.75,0.35,0.0168,0.4,0,21.525,0,1.298,0,270,-3.215,0,1,-1.32,0,0,-3.22,270,0.8944,-0.0001,0.4474,-3.22,270,0.05,-11.61,7.992,-0.002,-0.215,1,3,670.88,4.621,-3.215,493.12,0,0,0,,0,0,0,0,0,0,0,0,0,0,0,0,0,270.01,0,0,0,0,0,0,0,0,0,0,0,0,0,3,3,0,0,VALID,0,0,0,0,0,1,0,0,0,0,0,0,0,0,0,0,0,0,0,0,221.76,1099.23,2,0,0.175,0.175,148,5.71,0.175,0.175,24.03,FLYING,X10-F,0:/Integrated Flight Computer/aircraft/x10_f_cfg.ks (inferred preloaded)
24.38,APPROACH,ILS_TRACK,153.31,152,-1.31,479.89,405.34,-4.57,5.74,7.41,270,-0.002,0.1071,0,17.673,1,0.6,4.5,0.75,0.35,0.0168,0.4,0,21.521,0,1.311,0,270,-3.601,0,1,-1.65,0,0,-3.39,270,0.8974,-0.0001,0.4412,-3.6,270,0.05,-10.02,7.936,-0.001,-0.601,1,3,670.88,4.509,-3.601,490.19,0,0,0,,0,0,0,0,0,0,0,0,0,0,0,0,0,270.01,0,0,0,0,0,0,0,0,0,0,0,0,0,3,3,0,0,VALID,0,0,0,0,0,1,0,0,0,0,0,0,0,0,0,0,0,0,0,0,205.18,1099.36,2,0,0.175,0.175,150,5.71,0.175,0.175,24.38,FLYING,X10-F,0:/Integrated Flight Computer/aircraft/x10_f_cfg.ks (inferred preloaded)
24.73,APPROACH,ILS_TRACK,153.22,152,-1.22,478.4,403.64,-4.79,6.53,8.28,270,-0.006,0.1706,0,17.233,1,0.6,4.5,0.75,0.35,0.0168,0.4,0,21.544,0,1.23,0,270,-3.765,0,1,-1.81,0,0,-3.77,270,0.8987,-0.0001,0.4386,-3.77,270,0.05,-8.52,7.88,-0.001,-0.765,1,3,670.88,4.151,-3.765,487.25,0,0,0,,0,0,0,0,0,0,0,0,0,0,0,0,0,270.01,0,0,0,0,0,0,0,0,0,0,0,0,0,3,3,0,0,VALID,0,0,0,0,0,1,0,0,0,0,0,0,0,0,0,0,0,0,0,0,196.26,1099.11,2,0,0.175,0.175,152,5.71,0.175,0.175,24.73,FLYING,X10-F,0:/Integrated Flight Computer/aircraft/x10_f_cfg.ks (inferred preloaded)
25.08,APPROACH,ILS_TRACK,153.04,152,-1.04,476.59,401.91,-5.21,6.31,8.14,270,-0.002,0.2523,0,16.848,1,0.6,4.5,0.75,0.35,0.0168,0.4,0,21.594,0,1.053,0,270,-3.303,0,1,-1.9,0,0,-3.39,270,0.8952,-0.0001,0.4457,-3.3,270,0.05,-7.36,7.824,-0.002,-0.303,1,3,670.88,3.14,-3.303,484.32,0,0,0,,0,0,0,0,0,0,0,0,0,0,0,0,0,270.01,0,0,0,0,0,0,0,0,0,0,0,0,0,3,3,0,0,VALID,0,0,0,0,0,1,0,0,0,0,0,0,0,0,0,0,0,0,0,0,196.21,1098.49,2,0,0.175,0.175,154,5.71,0.175,0.175,25.08,FLYING,X10-F,0:/Integrated Flight Computer/aircraft/x10_f_cfg.ks (inferred preloaded)
25.43,APPROACH,ILS_TRACK,152.88,152,-0.88,474.72,399.99,-5.59,6.46,8.45,270,-0.003,0.297,0,16.52,1,0.6,4.5,0.75,0.35,0.0168,0.4,0,21.637,0,0.9,0,270,-3.561,0,1,-2.08,0,0,-3.44,270,0.8972,-0.0001,0.4416,-3.56,270,0.05,-6.28,7.768,-0.002,-0.561,1,3,670.88,3.057,-3.561,481.39,0,0,0,,0,0,0,0,0,0,0,0,0,0,0,0,0,270.01,0,0,0,0,0,0,0,0,0,0,0,0,0,3,3,0,0,VALID,0,0,0,0,0,1,0,0,0,0,0,0,0,0,0,0,0,0,0,0,202.07,1098,2,0,0.175,0.175,156,5.71,0.175,0.175,25.43,FLYING,X10-F,0:/Integrated Flight Computer/aircraft/x10_f_cfg.ks (inferred preloaded)
25.78,APPROACH,ILS_TRACK,152.75,152,-0.75,472.6,398.01,-5.87,6.11,8.14,270,-0.002,0.3214,0,16.242,1,0.6,4.5,0.75,0.35,0.0168,0.4,0,21.676,0,0.763,0,270,-3.155,0,1,-2.16,0,0,-3.37,270,0.8941,-0.0001,0.4479,-3.16,270,0.05,-5.43,7.712,-0.002,-0.155,1,3,670.88,2.23,-3.155,478.47,0,0,0,,0,0,0,0,0,0,0,0,0,0,0,0,0,270.01,0,0,0,0,0,0,0,0,0,0,0,0,0,3,3,0,0,VALID,0,0,0,0,0,1,0,0,0,0,0,0,0,0,0,0,0,0,0,0,210.74,1097.59,2,0,0.175,0.175,158,5.71,0.175,0.175,25.78,FLYING,X10-F,0:/Integrated Flight Computer/aircraft/x10_f_cfg.ks (inferred preloaded)
26.13,APPROACH,ILS_TRACK,152.67,152,-0.67,470.45,395.82,-6.56,6.01,8.39,270,0.002,0.3148,0,15.997,1,0.6,4.5,0.75,0.35,0.0168,0.4,0,21.699,0,0.682,0,270,-3.36,0,1,-2.41,0,0,-3.18,270,0.8957,-0.0001,0.4446,-3.36,270,0.05,-4.67,7.656,0,-0.36,1,3,670.88,2.202,-3.36,475.54,0,0,0,,0,0,0,0,0,0,0,0,0,0,0,0,0,270.01,0,0,0,0,0,0,0,0,0,0,0,0,0,3,3,0,0,VALID,0,0,0,0,0,1,0,0,0,0,0,0,0,0,0,0,0,0,0,0,220.25,1097.44,2,0,0.175,0.175,160,5.71,0.175,0.175,26.13,FLYING,X10-F,0:/Integrated Flight Computer/aircraft/x10_f_cfg.ks (inferred preloaded)
26.48,APPROACH,ILS_TRACK,152.6,152,-0.6,468.21,393.5,-6.59,6.44,8.79,270,-0.001,0.3076,0,15.777,1,0.6,4.5,0.75,0.35,0.0168,0.4,0,21.719,0,0.611,0,270,-3.367,0,1,-2.48,0,0,-3.53,270,0.8958,0,0.4444,-3.37,270,0.04,-3.94,7.601,0,-0.367,1,3,670.88,1.935,-3.367,472.62,0,0,0,,0,0,0,0,0,0,0,0,0,0,0,0,0,270.01,0,0,0,0,0,0,0,0,0,0,0,0,0,3,3,0,0,VALID,0,0,0,0,0,1,0,0,0,0,0,0,0,0,0,0,0,0,0,0,228.66,1097.34,2,0,0.175,0.175,162,5.71,0.175,0.175,26.48,FLYING,X10-F,0:/Integrated Flight Computer/aircraft/x10_f_cfg.ks (inferred preloaded)
26.83,APPROACH,ILS_TRACK,152.56,152,-0.56,465.78,391.13,-7.02,6.19,8.69,270,0.003,0.2937,0,15.577,1,0.6,4.5,0.75,0.35,0.0168,0.4,0,21.732,0,0.563,0,270,-3.061,0,1,-2.59,0,0,-3.07,270,0.8935,-0.0001,0.4491,-3.06,270,0.04,-3.44,7.545,-0.001,-0.061,1,3,670.88,1.366,-3.061,469.7,0,0,0,,0,0,0,0,0,0,0,0,0,0,0,0,0,270.01,0,0,0,0,0,0,0,0,0,0,0,0,0,3,3,0,0,VALID,0,0,0,0,0,1,0,0,0,0,0,0,0,0,0,0,0,0,0,0,235.93,1097.35,2,0,0.175,0.175,164,5.71,0.175,0.175,26.83,FLYING,X10-F,0:/Integrated Flight Computer/aircraft/x10_f_cfg.ks (inferred preloaded)
27.18,APPROACH,ILS_TRACK,152.54,152,-0.54,463.39,388.58,-7.28,6.64,9.31,270,0.004,0.2738,0,15.384,1,0.6,4.5,0.75,0.35,0.0168,0.4,0,21.738,0,0.543,0,270,-3.39,0,1,-2.75,0,0,-3.22,270,0.8961,0,0.4439,-3.39,270,0.04,-2.91,7.489,0.001,-0.39,1,3,670.88,1.577,-3.39,466.79,0,0,0,,0,0,0,0,0,0,0,0,0,0,0,0,0,270.01,0,0,0,0,0,0,0,0,0,0,0,0,0,3,3,0,0,VALID,0,0,0,0,0,1,0,0,0,0,0,0,0,0,0,0,0,0,0,0,241.49,1097.46,2,0,0.175,0.175,166,5.71,0.175,0.175,27.18,FLYING,X10-F,0:/Integrated Flight Computer/aircraft/x10_f_cfg.ks (inferred preloaded)
27.53,APPROACH,ILS_TRACK,152.49,152,-0.49,460.8,386.05,-7.32,6.56,9.15,270,0.003,0.271,0,15.206,1,0.6,4.5,0.75,0.35,0.0168,0.4,0,21.751,0,0.498,0,270,-2.918,0,1,-2.72,0,0,-3.16,270,0.8924,-0.0001,0.4512,-2.92,270,0.04,-2.54,7.434,-0.001,0.082,1,3,670.88,0.852,-2.918,463.87,0,0,0,,0,0,0,0,0,0,0,0,0,0,0,0,0,270.01,0,0,0,0,0,0,0,0,0,0,0,0,0,3,3,0,0,VALID,0,0,0,0,0,1,0,0,0,0,0,0,0,0,0,0,0,0,0,0,245.5,1097.48,2,0,0.175,0.175,168,5.71,0.175,0.175,27.53,FLYING,X10-F,0:/Integrated Flight Computer/aircraft/x10_f_cfg.ks (inferred preloaded)
27.88,APPROACH,ILS_TRACK,152.49,152,-0.49,458.23,383.4,-7.77,6.65,9.5,270,0.007,0.2536,0,15.035,1,0.6,4.5,0.75,0.35,0.0168,0.4,0,21.753,0,0.489,0,270,-3.148,0,1,-2.89,0,0,-2.96,270,0.8943,0,0.4475,-3.15,270,0.04,-2.22,7.378,0,-0.148,1,3,670.88,1.017,-3.148,460.95,0,0,0,,0,0,0,0,0,0,0,0,0,0,0,0,0,270.01,0,0,0,0,0,0,0,0,0,0,0,0,0,3,3,0,0,VALID,0,0,0,0,0,1,0,0,0,0,0,0,0,0,0,0,0,0,0,0,248.83,1097.66,2,0,0.175,0.175,170,5.71,0.175,0.175,27.88,FLYING,X10-F,0:/Integrated Flight Computer/aircraft/x10_f_cfg.ks (inferred preloaded)
28.23,APPROACH,ILS_TRACK,152.44,152,-0.44,455.61,380.72,-7.48,7.06,9.72,270,0.004,0.2556,0,14.872,1,0.6,4.5,0.75,0.35,0.0168,0.4,0,21.764,0,0.45,0,270,-3.078,0,1,-2.83,0,0,-3.32,270,0.8938,0,0.4485,-3.08,270,0.03,-1.88,7.322,0,-0.078,1,3,670.88,0.802,-3.078,458.04,0,0,0,,0,0,0,0,0,0,0,0,0,0,0,0,0,270.01,0,0,0,0,0,0,0,0,0,0,0,0,0,3,3,0,0,VALID,0,0,0,0,0,1,0,0,0,0,0,0,0,0,0,0,0,0,0,0,250.83,1097.7,2,0,0.175,0.175,172,5.71,0.175,0.175,28.23,FLYING,X10-F,0:/Integrated Flight Computer/aircraft/x10_f_cfg.ks (inferred preloaded)
28.58,APPROACH,ILS_TRACK,152.4,152,-0.4,452.83,378.07,-7.75,6.57,9.33,270,0.009,0.2611,0,14.73,1,0.6,4.5,0.75,0.35,0.0168,0.4,0,21.779,0,0.398,0,270,-2.776,0,1,-2.88,0,0,-2.77,270,0.8914,0,0.4531,-2.78,270,0.03,-1.74,7.267,0,0.224,1,3,670.88,0.374,-2.776,455.12,0,0,0,,0,0,0,0,0,0,0,0,0,0,0,0,0,270.01,0,0,0,0,0,0,0,0,0,0,0,0,0,3,3,0,0,VALID,0,0,0,0,0,1,0,0,0,0,0,0,0,0,0,0,0,0,0,0,253.05,1097.72,2,0,0.175,0.175,174,5.71,0.175,0.175,28.58,FLYING,X10-F,0:/Integrated Flight Computer/aircraft/x10_f_cfg.ks (inferred preloaded)
28.93,APPROACH,ILS_TRACK,152.4,152,-0.4,450.18,375.28,-8.04,6.87,9.84,270,0.011,0.2432,0,14.59,1,0.6,4.5,0.75,0.35,0.0168,0.4,0,21.778,0,0.4,0,270,-3.181,0,1,-3.03,0,0,-2.94,270,0.8947,0,0.4467,-3.18,270,0.03,-1.51,7.211,0.001,-0.181,1,3,670.88,0.791,-3.181,452.21,0,0,0,,0,0,0,0,0,0,0,0,0,0,0,0,0,270.01,0,0,0,0,0,0,0,0,0,0,0,0,0,3,3,0,0,VALID,0,0,0,0,0,1,0,0,0,0,0,0,0,0,0,0,0,0,0,0,255.06,1097.96,2,0,0.175,0.175,176,5.71,0.175,0.175,28.93,FLYING,X10-F,0:/Integrated Flight Computer/aircraft/x10_f_cfg.ks (inferred preloaded)
29.28,APPROACH,ILS_TRACK,152.37,152,-0.37,447.43,372.51,-7.9,7.07,9.9,270,0.007,0.2449,0,14.457,1,0.6,4.5,0.75,0.35,0.0168,0.4,0,21.787,0,0.37,0,270,-2.918,0,1,-2.96,0,0,-3.14,270,0.8927,-0.0001,0.4508,-2.92,270,0.03,-1.32,7.156,-0.001,0.082,1,3,670.88,0.392,-2.918,449.3,0,0,0,,0,0,0,0,0,0,0,0,0,0,0,0,0,270.01,0,0,0,0,0,0,0,0,0,0,0,0,0,3,3,0,0,VALID,0,0,0,0,0,1,0,0,0,0,0,0,0,0,0,0,0,0,0,0,255.91,1098.05,2,0,0.175,0.175,178,5.71,0.175,0.175,29.28,FLYING,X10-F,0:/Integrated Flight Computer/aircraft/x10_f_cfg.ks (inferred preloaded)
29.63,APPROACH,ILS_TRACK,152.34,152,-0.34,444.69,369.71,-7.96,7.22,10.11,270,0.01,0.2431,0,14.334,1,0.6,4.5,0.75,0.35,0.0168,0.4,0,21.793,0,0.346,0,270,-3.083,0,1,-3,0,0,-2.95,270,0.894,0,0.4481,-3.08,270,0.02,-1.15,7.1,0.001,-0.083,1,3,670.88,0.535,-3.083,446.39,0,0,0,,0,0,0,0,0,0,0,0,0,0,0,0,0,270.01,0,0,0,0,0,0,0,0,0,0,0,0,0,3,3,0,0,VALID,0,0,0,0,0,1,0,0,0,0,0,0,0,0,0,0,0,0,0,0,256.8,1098.18,2,0,0.175,0.175,180,5.71,0.175,0.175,29.63,FLYING,X10-F,0:/Integrated Flight Computer/aircraft/x10_f_cfg.ks (inferred preloaded)
29.98,APPROACH,ILS_TRACK,152.31,152,-0.31,441.9,366.94,-7.97,7.16,10.03,270,0.008,0.2452,0,14.221,1,0.6,4.5,0.75,0.35,0.0168,0.4,0,21.802,0,0.314,0,270,-2.935,0,1,-2.98,0,0,-2.99,270,0.8929,0,0.4503,-2.94,270,0.02,-1.03,7.045,0.001,0.065,1,3,670.88,0.304,-2.935,443.48,0,0,0,,0,0,0,0,0,0,0,0,0,0,0,0,0,270.01,0,0,0,0,0,0,0,0,0,0,0,0,0,3,3,0,0,VALID,0,0,0,0,0,1,0,0,0,0,0,0,0,0,0,0,0,0,0,0,257.56,1098.27,2,0,0.175,0.175,182,5.71,0.175,0.175,29.98,FLYING,X10-F,0:/Integrated Flight Computer/aircraft/x10_f_cfg.ks (inferred preloaded)
30.33,APPROACH,ILS_TRACK,152.28,152,-0.28,439.13,364.16,-7.86,7.28,10.09,270,0.006,0.2474,0,14.119,1,0.6,4.5,0.75,0.35,0.0168,0.4,0,21.811,0,0.282,0,270,-3.062,0,1,-2.96,0,0,-3.09,270,0.8939,0,0.4483,-3.06,270,0.02,-0.88,6.989,0.001,-0.062,1,3,670.88,0.405,-3.062,440.57,0,0,0,,0,0,0,0,0,0,0,0,0,0,0,0,0,270.01,0,0,0,0,0,0,0,0,0,0,0,0,0,3,3,0,0,VALID,0,0,0,0,0,1,0,0,0,0,0,0,0,0,0,0,0,0,0,0,258.36,1098.36,2,0,0.175,0.175,184,5.71,0.175,0.175,30.33,FLYING,X10-F,0:/Integrated Flight Computer/aircraft/x10_f_cfg.ks (inferred preloaded)
30.68,APPROACH,ILS_TRACK,152.25,152,-0.25,436.35,361.38,-7.99,7.21,10.12,270,0.011,0.2498,0,14.03,1,0.6,4.5,0.75,0.35,0.0168,0.4,0,21.821,0,0.247,0,270,-3.092,0,1,-3.01,0,0,-2.95,270,0.8942,0,0.4477,-3.09,270,0.02,-0.76,6.934,0.001,-0.092,1,3,670.88,0.4,-3.092,437.66,0,0,0,,0,0,0,0,0,0,0,0,0,0,0,0,0,270.01,0,0,0,0,0,0,0,0,0,0,0,0,0,3,3,0,0,VALID,0,0,0,0,0,1,0,0,0,0,0,0,0,0,0,0,0,0,0,0,259.37,1098.45,2,0,0.175,0.175,186,5.71,0.175,0.175,30.68,FLYING,X10-F,0:/Integrated Flight Computer/aircraft/x10_f_cfg.ks (inferred preloaded)
31.03,APPROACH,ILS_TRACK,152.22,152,-0.22,433.56,358.6,-7.95,7.18,10.05,270,0.01,0.2478,0,13.95,1,0.6,4.5,0.75,0.35,0.0168,0.4,0,21.828,0,0.222,0,270,-3.045,0,1,-2.98,0,0,-3.11,270,0.8939,0,0.4484,-3.05,270,0.01,-0.64,6.878,0.001,-0.045,1,3,670.88,0.296,-3.045,434.75,0,0,0,,0,0,0,0,0,0,0,0,0,0,0,0,0,270.01,0,0,0,0,0,0,0,0,0,0,0,0,0,3,3,0,0,VALID,0,0,0,0,0,1,0,0,0,0,0,0,0,0,0,0,0,0,0,0,260.38,1098.57,2,0,0.175,0.175,188,5.71,0.175,0.175,31.03,FLYING,X10-F,0:/Integrated Flight Computer/aircraft/x10_f_cfg.ks (inferred preloaded)
31.38,APPROACH,ILS_TRACK,152.21,152,-0.21,430.77,355.82,-7.91,7.19,10.02,270,0.01,0.2414,0,13.876,1,0.6,4.5,0.75,0.35,0.0168,0.4,0,21.832,0,0.21,0,270,-3.116,0,1,-2.97,0,0,-3.12,270,0.8945,0,0.4472,-3.12,270,0.01,-0.52,6.823,0.003,-0.116,1,3,670.88,0.339,-3.116,431.85,0,0,0,,0,0,0,0,0,0,0,0,0,0,0,0,0,270.01,0,0,0,0,0,0,0,0,0,0,0,0,0,3,3,0,0,VALID,0,0,0,0,0,1,0,0,0,0,0,0,0,0,0,0,0,0,0,0,261.13,1098.75,2,0,0.175,0.175,190,5.71,0.175,0.175,31.38,FLYING,X10-F,0:/Integrated Flight Computer/aircraft/x10_f_cfg.ks (inferred preloaded)
31.73,APPROACH,ILS_TRACK,152.2,152,-0.2,427.99,353.03,-7.98,7.18,10.07,270,0.011,0.2355,0,13.805,1,0.6,4.5,0.75,0.35,0.0168,0.4,0,21.834,0,0.201,0,270,-3.189,0,1,-3.01,0,0,-3.08,270,0.8951,0,0.446,-3.19,270,0.01,-0.4,6.767,0.002,-0.189,1,3,670.88,0.385,-3.189,428.94,0,0,0,,0,0,0,0,0,0,0,0,0,0,0,0,0,270.01,0,0,0,0,0,0,0,0,0,0,0,0,0,3,3,0,0,VALID,0,0,0,0,0,1,0,0,0,0,0,0,0,0,0,0,0,0,0,0,261.41,1098.95,2,0,0.175,0.175,192,5.71,0.175,0.175,31.73,FLYING,X10-F,0:/Integrated Flight Computer/aircraft/x10_f_cfg.ks (inferred preloaded)
32.08,APPROACH,ILS_TRACK,152.2,152,-0.2,425.16,350.25,-8.02,7.03,9.92,270,0.013,0.2305,0,13.736,1,0.6,4.5,0.75,0.35,0.0168,0.4,0,21.836,0,0.195,0,270,-3.063,0,1,-3,0,0,-3.12,270,0.8941,0,0.4478,-3.06,270,0.01,-0.31,6.712,0.001,-0.063,1,3,670.88,0.197,-3.063,426.04,0,0,0,,0,0,0,0,0,0,0,0,0,0,0,0,0,270.01,0,0,0,0,0,0,0,0,0,0,0,0,0,3,3,0,0,VALID,0,0,0,0,0,1,0,0,0,0,0,0,0,0,0,0,0,0,0,0,261.06,1099.15,2,0,0.175,0.175,194,5.71,0.175,0.175,32.08,FLYING,X10-F,0:/Integrated Flight Computer/aircraft/x10_f_cfg.ks (inferred preloaded)
32.43,APPROACH,ILS_TRACK,152.19,152,-0.19,422.37,347.44,-7.94,7.15,9.99,270,0.011,0.227,0,13.668,1,0.6,4.5,0.75,0.35,0.0168,0.4,0,21.837,0,0.19,0,270,-3.21,0,1,-3,0,0,-3.21,270,0.8953,0,0.4455,-3.21,270,0,-0.19,6.656,0.001,-0.21,1,3,670.88,0.335,-3.21,423.13,0,0,0,,0,0,0,0,0,0,0,0,0,0,0,0,0,270.01,0,0,0,0,0,0,0,0,0,0,0,0,0,3,3,0,0,VALID,0,0,0,0,0,1,0,0,0,0,0,0,0,0,0,0,0,0,0,0,260.07,1099.35,2,0,0.175,0.175,196,5.71,0.175,0.175,32.43,FLYING,X10-F,0:/Integrated Flight Computer/aircraft/x10_f_cfg.ks (inferred preloaded)
32.78,APPROACH,ILS_TRACK,152.18,152,-0.18,419.55,344.62,-8.16,7.03,10,270,0.014,0.2278,0,13.606,1,0.6,4.5,0.75,0.35,0.0168,0.4,0,21.841,0,0.176,0,270,-3.164,0,1,-3.05,0,0,-3.06,270,0.895,0,0.4461,-3.16,270,0,-0.12,6.601,0.002,-0.164,1,3,670.88,0.252,-3.164,420.23,0,0,0,,0,0,0,0,0,0,0,0,0,0,0,0,0,270.01,0,0,0,0,0,0,0,0,0,0,0,0,0,3,3,0,0,VALID,0,0,0,0,0,1,0,0,0,0,0,0,0,0,0,0,0,0,0,0,259,1099.54,2,0,0.175,0.175,198,5.71,0.175,0.175,32.78,FLYING,X10-F,0:/Integrated Flight Computer/aircraft/x10_f_cfg.ks (inferred preloaded)
33.13,APPROACH,ILS_TRACK,152.16,152,-0.16,416.72,341.81,-7.99,7.08,9.94,270,0.012,0.2297,0,13.548,1,0.6,4.5,0.75,0.35,0.0168,0.4,0,21.846,0,0.161,0,270,-3.117,0,1,-3,0,0,-3.28,270,0.8947,0,0.4468,-3.12,270,0,-0.03,6.546,0.001,-0.117,1,3,670.88,0.157,-3.117,417.33,0,0,0,,0,0,0,0,0,0,0,0,0,0,0,0,0,270.01,0,0,0,0,0,0,0,0,0,0,0,0,0,3,3,0,0,VALID,0,0,0,0,0,1,0,0,0,0,0,0,0,0,0,0,0,0,0,0,258.02,1099.69,2,0,0.175,0.175,200,5.71,0.175,0.175,33.13,FLYING,X10-F,0:/Integrated Flight Computer/aircraft/x10_f_cfg.ks (inferred preloaded)
33.48,APPROACH,ILS_TRACK,152.15,152,-0.15,413.89,338.96,-8.22,7.02,10.03,270,0.015,0.2286,0,13.495,1,0.6,4.5,0.75,0.35,0.0168,0.4,0,21.849,0,0.15,0,270,-3.203,0,1,-3.09,0,0,-3.05,270,0.8954,0,0.4453,-3.2,270,0,0.02,6.49,0.001,-0.203,1,3,670.88,0.245,-3.203,414.42,0,0,0,,0,0,0,0,0,0,0,0,0,0,0,0,0,270.01,0,0,0,0,0,0,0,0,0,0,0,0,0,3,3,0,0,VALID,0,0,0,0,0,1,0,0,0,0,0,0,0,0,0,0,0,0,0,0,257.44,1099.89,2,0,0.175,0.175,202,5.71,0.175,0.175,33.48,FLYING,X10-F,0:/Integrated Flight Computer/aircraft/x10_f_cfg.ks (inferred preloaded)
33.83,APPROACH,ILS_TRACK,152.12,152,-0.12,411.03,336.13,-8.08,7.04,9.94,270,0.013,0.2337,0,13.448,1,0.6,4.5,0.75,0.35,0.0168,0.4,0,21.855,0,0.126,0,270,-3.081,0,1,-3.03,0,0,-3.26,270,0.8945,0,0.4471,-3.08,270,0,0.09,6.435,0.001,-0.081,1,3,670.88,0.069,-3.081,411.52,0,0,0,,0,0,0,0,0,0,0,0,0,0,0,0,0,270.01,0,0,0,0,0,0,0,0,0,0,0,0,0,3,3,0,0,VALID,0,0,0,0,0,1,0,0,0,0,0,0,0,0,0,0,0,0,0,0,256.87,1100.01,2,0,0.175,0.175,204,5.71,0.175,0.175,33.83,FLYING,X10-F,0:/Integrated Flight Computer/aircraft/x10_f_cfg.ks (inferred preloaded)
34.18,APPROACH,ILS_TRACK,152.11,152,-0.11,408.2,333.26,-8.24,7.08,10.09,270,0.016,0.2323,0,13.408,1,0.6,4.5,0.75,0.35,0.0168,0.4,0,21.859,0,0.113,0,270,-3.235,0,1,-3.11,0,0,-3.08,270,0.8957,0,0.4447,-3.24,270,-0.01,0.14,6.379,0.001,-0.235,1,3,670.88,0.24,-3.235,408.62,0,0,0,,0,0,0,0,0,0,0,0,0,0,0,0,0,270.01,0,0,0,0,0,0,0,0,0,0,0,0,0,3,3,0,0,VALID,0,0,0,0,0,1,0,0,0,0,0,0,0,0,0,0,0,0,0,0,256.89,1100.21,2,0,0.175,0.175,206,5.71,0.175,0.175,34.18,FLYING,X10-F,0:/Integrated Flight Computer/aircraft/x10_f_cfg.ks (inferred preloaded)
34.53,APPROACH,ILS_TRACK,152.08,152,-0.08,405.32,330.41,-8.19,7.04,9.99,270,0.015,0.2379,0,13.375,1,0.6,4.5,0.75,0.35,0.0168,0.4,0,21.866,0,0.087,0,270,-3.057,0,1,-3.07,0,0,-3.19,270,0.8944,0,0.4473,-3.06,270,-0.01,0.17,6.324,0.002,-0.057,1,3,670.88,0.007,-3.057,405.72,0,0,0,,0,0,0,0,0,0,0,0,0,0,0,0,0,270.01,0,0,0,0,0,0,0,0,0,0,0,0,0,3,3,0,0,VALID,0,0,0,0,0,1,0,0,0,0,0,0,0,0,0,0,0,0,0,0,256.87,1100.32,2,0,0.175,0.175,208,5.71,0.175,0.175,34.53,FLYING,X10-F,0:/Integrated Flight Computer/aircraft/x10_f_cfg.ks (inferred preloaded)
34.88,APPROACH,ILS_TRACK,152.06,152,-0.06,402.47,327.53,-8.17,7.16,10.11,270,0.015,0.2391,0,13.35,1,0.6,4.5,0.75,0.35,0.0168,0.4,0,21.872,0,0.067,0,270,-3.204,0,1,-3.08,0,0,-3.16,270,0.8955,0,0.445,-3.2,270,-0.01,0.23,6.269,0.001,-0.204,1,3,670.88,0.17,-3.204,402.82,0,0,0,,0,0,0,0,0,0,0,0,0,0,0,0,0,270.01,0,0,0,0,0,0,0,0,0,0,0,0,0,3,3,0,0,VALID,0,0,0,0,0,1,0,0,0,0,0,0,0,0,0,0,0,0,0,0,257.23,1100.48,2,0,0.175,0.175,210,5.71,0.175,0.175,34.88,FLYING,X10-F,0:/Integrated Flight Computer/aircraft/x10_f_cfg.ks (inferred preloaded)
35.23,APPROACH,ILS_TRACK,152.04,152,-0.04,399.6,324.66,-8.28,7.08,10.09,270,0.016,0.2407,0,13.332,1,0.6,4.5,0.75,0.35,0.0168,0.4,0,21.878,0,0.046,0,270,-3.112,0,1,-3.1,0,0,-3.09,270,0.8949,0,0.4463,-3.11,270,-0.01,0.24,6.213,0.001,-0.112,1,3,670.88,0.05,-3.112,399.92,0,0,0,,0,0,0,0,0,0,0,0,0,0,0,0,0,270.01,0,0,0,0,0,0,0,0,0,0,0,0,0,3,3,0,0,VALID,0,0,0,0,0,1,0,0,0,0,0,0,0,0,0,0,0,0,0,0,257.72,1100.63,2,0,0.175,0.175,212,5.71,0.175,0.175,35.23,FLYING,X10-F,0:/Integrated Flight Computer/aircraft/x10_f_cfg.ks (inferred preloaded)
35.58,APPROACH,ILS_TRACK,152.02,152,-0.02,396.72,321.78,-8.15,7.16,10.09,270,0.015,0.2414,0,13.321,1,0.6,4.5,0.75,0.35,0.0168,0.4,0,21.883,0,0.027,0,270,-3.128,0,1,-3.07,0,0,-3.21,270,0.895,0,0.446,-3.13,270,-0.01,0.28,6.158,0,-0.128,1,3,670.88,0.056,-3.128,397.03,0,0,0,,0,0,0,0,0,0,0,0,0,0,0,0,0,270.01,0,0,0,0,0,0,0,0,0,0,0,0,0,3,3,0,0,VALID,0,0,0,0,0,1,0,0,0,0,0,0,0,0,0,0,0,0,0,0,258.23,1100.79,2,0,0.175,0.175,214,5.71,0.175,0.175,35.58,FLYING,X10-F,0:/Integrated Flight Computer/aircraft/x10_f_cfg.ks (inferred preloaded)
35.93,APPROACH,ILS_TRACK,152.01,152,-0.01,393.86,318.9,-8.26,7.15,10.16,270,0.017,0.2416,0,13.316,1,0.6,4.5,0.75,0.35,0.0168,0.4,0,21.888,0,0.01,0,270,-3.189,0,1,-3.12,0,0,-3.06,270,0.8956,0,0.445,-3.19,270,-0.01,0.3,6.103,0,-0.189,1,3,670.88,0.125,-3.189,394.13,0,0,0,,0,0,0,0,0,0,0,0,0,0,0,0,0,270.01,0,0,0,0,0,0,0,0,0,0,0,0,0,3,3,0,0,VALID,0,0,0,0,0,1,0,0,0,0,0,0,0,0,0,0,0,0,0,0,258.79,1100.96,2,0,0.175,0.175,216,5.71,0.175,0.175,35.93,FLYING,X10-F,0:/Integrated Flight Computer/aircraft/x10_f_cfg.ks (inferred preloaded)
36.28,APPROACH,ILS_TRACK,151.99,152,0.01,390.97,316.03,-8.25,7.11,10.1,270,0.015,0.2431,0,13.317,1,0.6,4.5,0.75,0.35,0.0168,0.4,0,21.893,0,-0.009,0,270,-3.086,0,1,-3.1,0,0,-3.15,270,0.8948,0,0.4465,-3.09,270,-0.01,0.31,6.048,0.001,-0.086,1,3,670.88,-0.007,-3.086,391.24,0,0,0,,0,0,0,0,0,0,0,0,0,0,0,0,0,270.01,0,0,0,0,0,0,0,0,0,0,0,0,0,3,3,0,0,VALID,0,0,0,0,0,1,0,0,0,0,0,0,0,0,0,0,0,0,0,0,259.34,1101.12,2,0,0.175,0.175,218,5.71,0.175,0.175,36.28,FLYING,X10-F,0:/Integrated Flight Computer/aircraft/x10_f_cfg.ks (inferred preloaded)
36.63,APPROACH,ILS_TRACK,151.98,152,0.02,388.09,313.15,-8.18,7.15,10.09,270,0.012,0.2423,0,13.324,1,0.6,4.5,0.75,0.35,0.0168,0.4,0,21.897,0,-0.022,0,270,-3.119,0,1,-3.08,0,0,-3.19,270,0.8951,0,0.4459,-3.12,270,-0.01,0.33,5.992,0.001,-0.119,1,3,670.88,0.025,-3.119,388.34,0,0,0,,0,0,0,0,0,0,0,0,0,0,0,0,0,270.01,0,0,0,0,0,0,0,0,0,0,0,0,0,3,3,0,0,VALID,0,0,0,0,0,1,0,0,0,0,0,0,0,0,0,0,0,0,0,0,259.92,1101.3,2,0,0.175,0.175,220,5.71,0.175,0.175,36.63,FLYING,X10-F,0:/Integrated Flight Computer/aircraft/x10_f_cfg.ks (inferred preloaded)
36.98,APPROACH,ILS_TRACK,151.97,152,0.03,385.22,310.26,-8.23,7.17,10.17,270,0.014,0.2409,0,13.335,1,0.6,4.5,0.75,0.35,0.0168,0.4,0,21.9,0,-0.033,0,270,-3.198,0,1,-3.11,0,0,-3.09,270,0.8957,0,0.4446,-3.2,270,-0.01,0.35,5.937,0.001,-0.198,1,3,670.88,0.116,-3.198,385.45,0,0,0,,0,0,0,0,0,0,0,0,0,0,0,0,0,270.01,0,0,0,0,0,0,0,0,0,0,0,0,0,3,3,0,0,VALID,0,0,0,0,0,1,0,0,0,0,0,0,0,0,0,0,0,0,0,0,260.43,1101.5,2,0,0.175,0.175,222,5.71,0.175,0.175,36.98,FLYING,X10-F,0:/Integrated Flight Computer/aircraft/x10_f_cfg.ks (inferred preloaded)
37.33,APPROACH,ILS_TRACK,151.96,152,0.04,382.32,307.4,-8.27,7.05,10.04,270,0.015,0.2407,0,13.349,1,0.6,4.5,0.75,0.35,0.0168,0.4,0,21.903,0,-0.044,0,270,-3.053,0,1,-3.1,0,0,-3.11,270,0.8947,0,0.4467,-3.05,270,-0.01,0.34,5.882,0.001,-0.053,1,3,670.88,-0.061,-3.053,382.55,0,0,0,,0,0,0,0,0,0,0,0,0,0,0,0,0,270.01,0,0,0,0,0,0,0,0,0,0,0,0,0,3,3,0,0,VALID,0,0,0,0,0,1,0,0,0,0,0,0,0,0,0,0,0,0,0,0,260.82,1101.69,2,0,0.175,0.175,224,5.71,0.175,0.175,37.33,FLYING,X10-F,0:/Integrated Flight Computer/aircraft/x10_f_cfg.ks (inferred preloaded)
37.68,APPROACH,ILS_TRACK,151.95,152,0.05,379.44,304.51,-8.2,7.16,10.11,270,0.012,0.239,0,13.366,1,0.6,4.5,0.75,0.35,0.0168,0.4,0,21.905,0,-0.051,0,270,-3.154,0,1,-3.09,0,0,-3.19,270,0.8955,0,0.4451,-3.15,270,-0.01,0.37,5.827,0.001,-0.154,1,3,670.88,0.054,-3.154,379.66,0,0,0,,0,0,0,0,0,0,0,0,0,0,0,0,0,270.01,0,0,0,0,0,0,0,0,0,0,0,0,0,3,3,0,0,VALID,0,0,0,0,0,1,0,0,0,0,0,0,0,0,0,0,0,0,0,0,261.12,1101.9,2,0,0.175,0.175,226,5.71,0.175,0.175,37.68,FLYING,X10-F,0:/Integrated Flight Computer/aircraft/x10_f_cfg.ks (inferred preloaded)
38.03,APPROACH,ILS_TRACK,151.94,152,0.06,376.57,301.61,-8.26,7.17,10.18,270,0.014,0.2388,0,13.386,1,0.6,4.5,0.75,0.35,0.0168,0.4,0,21.907,0,-0.059,0,270,-3.179,0,1,-3.12,0,0,-3.08,270,0.8957,0,0.4446,-3.18,270,-0.01,0.38,5.772,0,-0.179,1,3,670.88,0.083,-3.179,376.77,0,0,0,,0,0,0,0,0,0,0,0,0,0,0,0,0,270.01,0,0,0,0,0,0,0,0,0,0,0,0,0,3,3,0,0,VALID,0,0,0,0,0,1,0,0,0,0,0,0,0,0,0,0,0,0,0,0,261.34,1102.12,2,0,0.175,0.175,228,5.71,0.175,0.175,38.03,FLYING,X10-F,0:/Integrated Flight Computer/aircraft/x10_f_cfg.ks (inferred preloaded)
