t_s,phase,subphase,ias_ms,vapp_ms,spd_err_ms,agl_m,vs_ms,pitch_deg,aoa_deg,hdg_deg,bank_deg,thr_cmd,thr_cur,thr_intg,at_gain,at_tau_s,at_a_up,at_a_dn,at_kp_thr,at_ki_spd,at_thr_slew,aa_hdg_cmd_deg,aa_fpa_cmd_deg,aa_fbw,aa_dir,actual_fpa_deg,ftf_hdg_err_deg,ftf_fix_idx,kos_steer_pit_deg,kos_steer_hdg_deg,aa_dir_vx,aa_dir_vy,aa_dir_vz,aa_dir_pitch_deg,aa_dir_hdg_deg,ils_loc_m,ils_gs_m,ils_dist_km,loc_corr_deg,gs_corr_deg,flare_fpa_cmd,flare_tgt_vs,flare_frac,steer_hdg_deg,steer_blend,ro_loc_corr_deg,ro_hdg_err_deg,ro_yaw_tgt,ro_yaw_scale,ro_yaw_gate,yaw_cmd,roll_cmd,pitch_cmd,ro_pitch_tgt_deg,ro_pitch_err_deg,ro_pitch_ff,ro_roll_assist,flaps_cur,flaps_tgt,asc_j_ab,asc_j_rk,asc_validity,asc_q_pa,asc_q_raw_pa,asc_mach,asc_apo_m,asc_drag_n,asc_w_prop,asc_edot_aero,asc_edot_orb,asc_pitch_bias,asc_blend,asc_spooling,asc_ab_thr_ratio,asc_ab_t_now,asc_ab_t_avail,asc_ab_ign_on,asc_ab_flameouts,asc_rk_t_now,asc_rk_t_avail,asc_rk_ign_on,asc_rk_flameouts,ship_thrust,ship_avail_thrust,ship_ign_on,ship_flameouts,ifc_raw_dt_s,ifc_dt_s,ifc_loop_n,ifc_hz_est,ifc_raw_dt_max_s,ifc_raw_dt_min_s,phase_el_s,status,craft_name,cfg_file
0.12,TAKEOFF,TO_PREFLIGHT,1.41,80,78.59,3.64,-0.01,0.12,0.43,85.84,0.135,0.04,0,0,0,0,0,0,0,0,0,90.4,0,1,0,-0.32,0,0,0,90,0,0,0,0,0,0,0,0,0,0,0,0,0,90.4,1,0,-4.556,0,0,1,0,0,0,0,0,0,0,0,1,0,0,VALID,0,0,0,0,0,1,0,0,0,0,0,0,0,0,0,0,0,0,0,0,0,519.65,2,0,0.1,0.1,1,3.45,0.1,0.02,0.02,PRELAUNCH,CF1-F,0:/Integrated Flight Computer/aircraft/cf1_f_cfg.ks (inferred preloaded)
0.38,TAKEOFF,TO_PREFLIGHT,1.41,80,78.59,3.63,0,0.11,0.3,85.79,0.135,0.112,0,0,0,0,0,0,0,0,0,90.4,0,1,0,-0.14,0,0,0,90,0,0,0,0,0,0,0,0,0,0,0,0,0,90.4,1,0,-4.574,0,0,1,0,0,0,0,0,0,0,1,1,0,0,VALID,0,0,0,0,0,1,0,0,0,0,0,0,0,0,0,0,0,0,0,0,0.35,519.65,2,0,0.04,0.04,6,19.23,0.1,0.04,0.28,PRELAUNCH,CF1-F,0:/Integrated Flight Computer/aircraft/cf1_f_cfg.ks (inferred preloaded)
0.64,TAKEOFF,TO_PREFLIGHT,1.31,80,78.69,3.63,0,0.04,-0.11,85.74,0.134,0.216,0,0,0,0,0,0,0,0,0,90.4,0,1,0,0.17,0,0,0,90,0,0,0,0,0,0,0,0,0,0,0,0,0,90.4,1,0,-4.574,0,0,1,0,0,0,0,0,0,0,1,1,0,0,VALID,0,0,0,0,0,1,0,0,0,0,0,0,0,0,0,0,0,0,0,0,1.45,519.67,2,0,0.04,0.04,11,19.23,0.08,0.04,0.54,PRELAUNCH,CF1-F,0:/Integrated Flight Computer/aircraft/cf1_f_cfg.ks (inferred preloaded)
0.9,TAKEOFF,TO_PREFLIGHT,1.06,80,78.94,3.62,0,-0.01,0.16,85.71,0.131,0.32,0,0,0,0,0,0,0,0,0,90.4,0,1,0,-0.15,0,0,0,90,0,0,0,0,0,0,0,0,0,0,0,0,0,90.4,1,0,-4.574,0,0,1,0,0,0,0,0,0,0,1,1,0,0,VALID,0,0,0,0,0,1,0,0,0,0,0,0,0,0,0,0,0,0,0,0,3.36,519.73,2,0,0.04,0.04,16,19.23,0.08,0.04,0.8,PRELAUNCH,CF1-F,0:/Integrated Flight Computer/aircraft/cf1_f_cfg.ks (inferred preloaded)
1.16,TAKEOFF,TO_PREFLIGHT,0.69,80,79.31,3.62,0,-0.02,0.18,85.74,0.135,0.424,0,0,0,0,0,0,0,0,0,90.4,0,1,0,-0.15,0,0,0,90,0,0,0,0,0,0,0,0,0,0,0,0,0,90.4,1,0,-4.574,0,0,1,0,0,0,0,0,0,0,1,1,0,0,VALID,0,0,0,0,0,1,0,0,0,0,0,0,0,0,0,0,0,0,0,0,6.09,519.83,2,0,0.04,0.04,21,19.23,0.08,0.04,1.06,PRELAUNCH,CF1-F,0:/Integrated Flight Computer/aircraft/cf1_f_cfg.ks (inferred preloaded)
1.42,TAKEOFF,TO_PREFLIGHT,0.29,80,79.71,3.62,0,-0.01,0.9,85.77,0.142,0.528,0,0,0,0,0,0,0,0,0,90.4,0,1,0,-0.15,0,0,0,90,0,0,0,0,0,0,0,0,0,0,0,0,0,90.4,1,0,-4.574,0,0,1,0,0,0,0,0,0,0,1,1,0,0,VALID,0,0,0,0,0,1,0,0,0,0,0,0,0,0,0,0,0,0,0,0,9.61,519.92,2,0,0.04,0.04,26,19.23,0.08,0.04,1.32,PRELAUNCH,CF1-F,0:/Integrated Flight Computer/aircraft/cf1_f_cfg.ks (inferred preloaded)
1.68,TAKEOFF,TO_PREFLIGHT,0.03,80,79.97,3.63,-0.02,0.08,17.53,85.79,0.138,0.632,0,0,0,0,0,0,0,0,0,90.4,0,1,0,-1.16,0,0,0,90,0,0,0,0,0,0,0,0,0,0,0,0,0,90.4,1,0,-4.574,0,0,1,0,0,0,0,0,0,0,1,1,0,0,VALID,0,0,0,0,0,1,0,0,0,0,0,0,0,0,0,0,0,0,0,0,13.91,519.98,2,0,0.04,0.04,31,19.23,0.08,0.04,1.58,PRELAUNCH,CF1-F,0:/Integrated Flight Computer/aircraft/cf1_f_cfg.ks (inferred preloaded)
1.94,TAKEOFF,TO_PREFLIGHT,0.04,80,79.96,3.65,0.01,0.21,-23.64,85.79,0.126,0.736,0,0,0,0,0,0,0,0,0,90.4,0,1,0,0.63,0,0,0,90,0,0,0,0,0,0,0,0,0,0,0,0,0,90.4,1,0,-4.574,0,0,1,0,0,0,0,0,0,0,1,1,0,0,VALID,0,0,0,0,0,1,0,0,0,0,0,0,0,0,0,0,0,0,0,0,18.99,519.98,2,0,0.04,0.04,36,19.23,0.08,0.04,1.84,PRELAUNCH,CF1-F,0:/Integrated Flight Computer/aircraft/cf1_f_cfg.ks (inferred preloaded)
2.26,TAKEOFF,TO_PREFLIGHT,0.03,80,79.97,3.64,0,0.16,2.77,85.78,0.126,0.864,0,0,0,0,0,0,0,0,0,90.4,0,1,0,0,0,0,0,90,0,0,0,0,0,0,0,0,0,0,0,0,0,90.4,1,0,-4.574,0,0,1,0,0,0,0,0,0,0,1,1,0,0,VALID,0,0,0,0,0,1,0,0,0,0,0,0,0,0,0,0,0,0,0,0,26.27,519.98,2,0,0.08,0.08,41,15.63,0.08,0.04,2.16,PRELAUNCH,CF1-F,0:/Integrated Flight Computer/aircraft/cf1_f_cfg.ks (inferred preloaded)
2.54,TAKEOFF,TO_PREFLIGHT,0.05,80,79.95,3.63,0.01,0.07,-16.62,85.77,0.135,0.976,0,0,0,0,0,0,0,0,0,90.4,0,1,0,0.49,0,0,0,90,0,0,0,0,0,0,0,0,0,0,0,0,0,90.4,1,0,-4.574,0,0,1,0,0,0,0,0,0,0,1,1,0,0,VALID,0,0,0,0,0,1,0,0,0,0,0,0,0,0,0,0,0,0,0,0,33.54,519.98,2,0,0.08,0.08,45,14.29,0.08,0.06,2.44,PRELAUNCH,CF1-F,0:/Integrated Flight Computer/aircraft/cf1_f_cfg.ks (inferred preloaded)
2.82,TAKEOFF,TO_PREFLIGHT,0.02,80,79.98,3.63,-0.01,0.1,44.03,85.76,0.141,1,0,0,0,0,0,0,0,0,0,90.4,0,1,0,-0.5,0,0,0,90,0,0,0,0,0,0,0,0,0,0,0,0,0,90.4,1,0,-4.574,0,0,1,0,0,0,0,0,0,0,1,1,0,0,VALID,0,0,0,0,0,1,0,0,0,0,0,0,0,0,0,0,0,0,0,0,41.54,519.98,2,0,0.08,0.08,49,14.29,0.08,0.06,2.72,PRELAUNCH,CF1-F,0:/Integrated Flight Computer/aircraft/cf1_f_cfg.ks (inferred preloaded)
3.1,TAKEOFF,TO_PREFLIGHT,0.02,80,79.98,3.63,0,0.12,-3.67,85.76,0.139,1,0,0,0,0,0,0,0,0,0,90.4,0,1,0,0.21,0,0,0,90,0,0,0,0,0,0,0,0,0,0,0,0,0,90.4,1,0,-4.574,0,0,1,0,0,0,0,0,0,0,1,1,0,0,VALID,0,0,0,0,0,1,0,0,0,0,0,0,0,0,0,0,0,0,0,0,49.52,519.98,2,0,0.08,0.08,53,14.29,0.08,0.06,3,PRELAUNCH,CF1-F,0:/Integrated Flight Computer/aircraft/cf1_f_cfg.ks (inferred preloaded)
3.38,TAKEOFF,TO_GROUND_ROLL,0.05,80,79.95,3.63,0,0.1,-2.06,85.75,0.131,1,0,0,0,0,0,0,0,0,0,90.41,0,1,0,0.09,0,0,0,90,0,0,0,0,0,0,0,0,0.002,0,0,0,0,90.41,1,0.002,-4.653,0,0,3,0,0,0,0,0,0,0,1,1,0,0,VALID,0,0,0,0,0,1,0,0,0,0,0,0,0,0,0,0,0,0,0,0,57.36,519.97,2,0,0.08,0.08,57,14.29,0.08,0.06,3.3,PRELAUNCH,CF1-F,0:/Integrated Flight Computer/aircraft/cf1_f_cfg.ks (inferred preloaded)
3.66,TAKEOFF,TO_GROUND_ROLL,0.24,80,79.76,3.65,-0.01,0.2,2.52,85.74,0.125,1,0,0,0,0,0,0,0,0,0,90.41,0,1,0,-0.54,0,0,0,90,0,0,0,0,0,0,0,0,0.002,0,0,0,0,90.41,1,0.002,-4.67,0,0,3,0,0,0,0,0,0,0,1,1,0,0,VALID,0,0,0,0,0,1,0,0,0,0,0,0,0,0,0,0,0,0,0,0,65.06,519.93,2,0,0.08,0.08,61,14.29,0.08,0.06,3.58,PRELAUNCH,CF1-F,0:/Integrated Flight Computer/aircraft/cf1_f_cfg.ks (inferred preloaded)
3.94,TAKEOFF,TO_GROUND_ROLL,0.51,80,79.49,3.66,0,0.29,0.32,85.72,0.127,1,0,0,0,0,0,0,0,0,0,90.42,0,1,0,-0.09,0,0,0,90,0,0,0,0,0,0,0,0,0.002,0,0,0,0,90.42,1,0.002,-4.697,0,0,3,0,0,0,0,0,0,0,1,1,0,0,VALID,0,0,0,0,0,1,0,0,0,0,0,0,0,0,0,0,0,0,0,0,72.64,519.86,2,0,0.08,0.08,65,14.29,0.08,0.06,3.86,PRELAUNCH,CF1-F,0:/Integrated Flight Computer/aircraft/cf1_f_cfg.ks (inferred preloaded)
4.22,TAKEOFF,TO_GROUND_ROLL,0.83,80,79.17,3.69,-0.01,0.34,-1.5,85.69,0.134,1,0,0,0,0,0,0,0,0,0,90.43,0,1,0,-0.44,0,0,0,90,0,0,0,0,0,0,0,0,0.003,0,0,0,0,90.43,1,0.003,-4.733,0,0,3,0,0,0,0,0,0,0,1,1,0,0,VALID,0,0,0,0,0,1,0,0,0,0,0,0,0,0,0,0,0,0,0,0,80.08,519.78,2,0,0.08,0.08,69,14.29,0.08,0.06,4.14,PRELAUNCH,CF1-F,0:/Integrated Flight Computer/aircraft/cf1_f_cfg.ks (inferred preloaded)
4.5,TAKEOFF,TO_GROUND_ROLL,1.16,80,78.84,3.68,0.05,0.31,-1.29,85.66,0.135,1,0,0,0,0,0,0,0,0,0,90.43,0,1,0,2.37,0,0,0,90,0,0,0,0,0,0,0,0,0.003,0,0,0,0,90.43,1,0.003,-4.775,0,0,3,0,0,0,0,0,0,0,1,1,0,0,VALID,0,0,0,0,0,1,0,0,0,0,0,0,0,0,0,0,0,0,0,0,87.4,519.7,2,0,0.08,0.08,73,14.29,0.08,0.06,4.42,PRELAUNCH,CF1-F,0:/Integrated Flight Computer/aircraft/cf1_f_cfg.ks (inferred preloaded)
4.78,TAKEOFF,TO_GROUND_ROLL,1.52,80,78.48,3.66,-0.04,0.22,1.72,85.61,0.134,1,0,0,0,0,0,0,0,0,0,90.44,0,1,0,-1.51,0,0,0,90,0,0,0,0,0,0,0,0,0.004,0,0,0,0,90.44,1,0.004,-4.823,0,0,3,0,0,0,0,0,0,0,1,1,0,0,VALID,0,0,0,0,0,1,0,0,0,0,0,0,0,0,0,0,0,0,0,0,94.59,519.61,2,0,0.08,0.08,77,14.29,0.08,0.06,4.7,PRELAUNCH,CF1-F,0:/Integrated Flight Computer/aircraft/cf1_f_cfg.ks (inferred preloaded)
5.06,TAKEOFF,TO_GROUND_ROLL,1.92,80,78.08,3.64,-0.11,0.15,3.2,85.57,0.131,1,0,0,0,0,0,0,0,0,0,90.44,0,1,0,-3.28,0,0,0,90,0,0,0,0,0,0,0,0,0.005,0,0,0,0,90.44,1,0.005,-4.868,0,0,3,0,0,0,0,0,0,0,1,1,0,0,VALID,0,0,0,0,0,1,0,0,0,0,0,0,0,0,0,0,0,0,0,0,101.65,519.51,2,0,0.08,0.08,81,14.29,0.08,0.06,4.98,PRELAUNCH,CF1-F,0:/Integrated Flight Computer/aircraft/cf1_f_cfg.ks (inferred preloaded)
5.34,TAKEOFF,TO_GROUND_ROLL,2.34,80,77.66,3.65,0,0.22,0.06,85.54,0.137,1,0,0,0,0,0,0,0,0,0,90.42,0,1,0,0.04,0,0,0,90,0,0,0,0,0,0,0,0,0.006,0,0,0,0,90.42,1,0.006,-4.887,0.055,0.25,1,0.055,0,0,0,0,0,0,1,1,0,0,VALID,0,0,0,0,0,1,0,0,0,0,0,0,0,0,0,0,0,0,0,0,108.59,519.4,2,0,0.08,0.08,85,14.29,0.08,0.06,5.26,LANDED,CF1-F,0:/Integrated Flight Computer/aircraft/cf1_f_cfg.ks (inferred preloaded)
5.62,TAKEOFF,TO_GROUND_ROLL,2.79,80,77.21,3.67,0.03,0.34,0.68,85.51,0.143,1,0,0,0,0,0,0,0,0,0,90.43,0,1,0,0.67,0,0,0,90,0,0,0,0,0,0,0,0,0.007,0,0,0,0,90.43,1,0.007,-4.924,0.0554,0.25,1,0.0554,0,0,0,0,0,0,1,1,0,0,VALID,0,0,0,0,0,1,0,0,0,0,0,0,0,0,0,0,0,0,0,0,115.42,519.28,2,0,0.08,0.08,89,14.29,0.08,0.06,5.54,LANDED,CF1-F,0:/Integrated Flight Computer/aircraft/cf1_f_cfg.ks (inferred preloaded)
5.9,TAKEOFF,TO_GROUND_ROLL,3.27,80,76.73,3.71,-0.12,0.46,2.22,85.47,0.139,1,0,0,0,0,0,0,0,0,0,90.44,0,1,0,-2.15,0,0,0,90,0,0,0,0,0,0,0,0,0.009,0,0,0,0,90.44,1,0.009,-4.97,0.0559,0.25,1,0.0559,0,0,0,0,0,0,1,1,0,0,VALID,0,0,0,0,0,1,0,0,0,0,0,0,0,0,0,0,0,0,0,0,122.12,519.15,2,0,0.08,0.08,93,14.29,0.08,0.06,5.82,LANDED,CF1-F,0:/Integrated Flight Computer/aircraft/cf1_f_cfg.ks (inferred preloaded)
6.18,TAKEOFF,TO_GROUND_ROLL,3.77,80,76.23,3.72,0.03,0.52,-0.01,85.42,0.131,1,0,0,0,0,0,0,0,0,0,90.44,0,1,0,0.44,0,0,0,90,0,0,0,0,0,0,0,0,0.01,0,0,0,0,90.44,1,0.01,-5.019,0.0565,0.25,1,0.0565,0,0,0,0,0,0,1,1,0,0,VALID,0,0,0,0,0,1,0,0,0,0,0,0,0,0,0,0,0,0,0,0,128.7,519.01,2,0,0.08,0.08,97,14.29,0.08,0.06,6.1,LANDED,CF1-F,0:/Integrated Flight Computer/aircraft/cf1_f_cfg.ks (inferred preloaded)
6.46,TAKEOFF,TO_GROUND_ROLL,4.3,80,75.7,3.71,-0.02,0.51,0.94,85.38,0.13,1,0,0,0,0,0,0,0,0,0,90.45,0,1,0,-0.33,0,0,0,90,0,0,0,0,0,0,0,0,0.012,0,0,0,0,90.45,1,0.012,-5.072,0.0571,0.25,1,0.0571,0,0,0,0,0,0,1,1,0,0,VALID,0,0,0,0,0,1,0,0,0,0,0,0,0,0,0,0,0,0,0,0,135.17,518.86,2,0,0.08,0.08,101,14.29,0.08,0.06,6.38,LANDED,CF1-F,0:/Integrated Flight Computer/aircraft/cf1_f_cfg.ks (inferred preloaded)
6.74,TAKEOFF,TO_GROUND_ROLL,4.85,80,75.15,3.7,-0.04,0.45,0.86,85.32,0.138,1,0,0,0,0,0,0,0,0,0,90.45,0,1,0,-0.47,0,0,0,90,0,0,0,0,0,0,0,0,0.015,0,0,0,0,90.45,1,0.015,-5.128,0.0577,0.25,1,0.0577,0,0,0,0,0,0,1,1,0,0,VALID,0,0,0,0,0,1,0,0,0,0,0,0,0,0,0,0,0,0,0,0,141.52,518.7,2,0,0.08,0.08,105,14.29,0.08,0.06,6.66,LANDED,CF1-F,0:/Integrated Flight Computer/aircraft/cf1_f_cfg.ks (inferred preloaded)
7.02,TAKEOFF,TO_GROUND_ROLL,5.43,80,74.57,3.69,-0.02,0.37,0.59,85.27,0.144,1,0,0,0,0,0,0,0,0,0,90.46,0,1,0,-0.23,0,0,0,90,0,0,0,0,0,0,0,0,0.017,0,0,0,0,90.46,1,0.017,-5.188,0.0584,0.25,1,0.0584,0,0,0,0,0,0,1,1,0,0,VALID,0,0,0,0,0,1,0,0,0,0,0,0,0,0,0,0,0,0,0,0,147.76,518.54,2,0,0.08,0.08,109,14.29,0.08,0.06,6.94,LANDED,CF1-F,0:/Integrated Flight Computer/aircraft/cf1_f_cfg.ks (inferred preloaded)
7.3,TAKEOFF,TO_GROUND_ROLL,6.04,80,73.96,3.68,-0.04,0.33,0.65,85.21,0.143,1,0,0,0,0,0,0,0,0,0,90.46,0,1,0,-0.33,0,0,0,90,0,0,0,0,0,0,0,0,0.02,0,0,0,0,90.46,1,0.02,-5.251,0.0591,0.25,1,0.0591,0,0,0,0,0,0,1,1,0,0,VALID,0,0,0,0,0,1,0,0,0,0,0,0,0,0,0,0,0,0,0,0,153.89,518.36,2,0,0.08,0.08,113,14.29,0.08,0.06,7.22,LANDED,CF1-F,0:/Integrated Flight Computer/aircraft/cf1_f_cfg.ks (inferred preloaded)
7.58,TAKEOFF,TO_GROUND_ROLL,6.67,80,73.33,3.68,-0.04,0.34,0.63,85.15,0.139,1,0,0,0,0,0,0,0,0,0,90.47,0,1,0,-0.32,0,0,0,90,0,0,0,0,0,0,0,0,0.023,0,0,0,0,90.47,1,0.023,-5.317,0.0598,0.25,1,0.0598,0,0,0,0,0,0,1,1,0,0,VALID,0,0,0,0,0,1,0,0,0,0,0,0,0,0,0,0,0,0,0,0,159.91,518.16,2,0,0.08,0.08,117,14.29,0.08,0.06,7.5,LANDED,CF1-F,0:/Integrated Flight Computer/aircraft/cf1_f_cfg.ks (inferred preloaded)
7.86,TAKEOFF,TO_GROUND_ROLL,7.32,80,72.68,3.7,-0.04,0.41,0.69,85.09,0.14,1,0,0,0,0,0,0,0,0,0,90.47,0,1,0,-0.31,0,0,0,90,0,0,0,0,0,0,0,0,0.027,0,0,0,0,90.47,1,0.027,-5.386,0.0606,0.25,1,0.0606,0,0,0,0,0,0,1,1,0,0,VALID,0,0,0,0,0,1,0,0,0,0,0,0,0,0,0,0,0,0,0,0,165.82,517.96,2,0,0.08,0.08,121,14.29,0.08,0.06,7.78,LANDED,CF1-F,0:/Integrated Flight Computer/aircraft/cf1_f_cfg.ks (inferred preloaded)
8.14,TAKEOFF,TO_GROUND_ROLL,8,80,72,3.72,-0.05,0.52,0.81,85.02,0.144,1,0,0,0,0,0,0,0,0,0,90.48,0,1,0,-0.32,0,0,0,90,0,0,0,0,0,0,0,0,0.031,0,0,0,0,90.48,1,0.031,-5.456,0.0614,0.25,1,0.0614,0,0,0,0,0,0,1,1,0,0,VALID,0,0,0,0,0,1,0,0,0,0,0,0,0,0,0,0,0,0,0,0,171.62,517.75,2,0,0.08,0.08,125,14.29,0.08,0.06,8.06,LANDED,CF1-F,0:/Integrated Flight Computer/aircraft/cf1_f_cfg.ks (inferred preloaded)
8.42,TAKEOFF,TO_GROUND_ROLL,8.7,80,71.3,3.74,-0.05,0.63,0.92,84.96,0.147,1,0,0,0,0,0,0,0,0,0,90.48,0,1,0,-0.31,0,0,0,90,0,0,0,0,0,0,0,0,0.035,0,0,0,0,90.48,1,0.035,-5.527,0.0622,0.25,1,0.0622,0,0,0,0,0,0,1,1,0,0,VALID,0,0,0,0,0,1,0,0,0,0,0,0,0,0,0,0,0,0,0,0,177.31,517.52,2,0,0.08,0.08,129,14.29,0.08,0.06,8.34,LANDED,CF1-F,0:/Integrated Flight Computer/aircraft/cf1_f_cfg.ks (inferred preloaded)
8.7,TAKEOFF,TO_GROUND_ROLL,9.42,80,70.58,3.75,-0.05,0.72,1.01,84.89,0.148,1,0,0,0,0,0,0,0,0,0,90.49,0,1,0,-0.31,0,0,0,90,0,0,0,0,0,0,0,0,0.04,0,0,0,0,90.49,1,0.04,-5.599,0.063,0.25,1,0.063,0,0,0,0,0,0,1,1,0,0,VALID,0,0,0,0,0,1,0,0,0,0,0,0,0,0,0,0,0,0,0,0,182.9,517.28,2,0,0.08,0.08,133,14.29,0.08,0.06,8.62,LANDED,CF1-F,0:/Integrated Flight Computer/aircraft/cf1_f_cfg.ks (inferred preloaded)
8.98,TAKEOFF,TO_GROUND_ROLL,10.17,80,69.83,3.76,-0.06,0.75,1.05,84.82,0.147,1,0,0,0,0,0,0,0,0,0,90.49,0,1,0,-0.31,0,0,0,90,0,0,0,0,0,0,0,0,0.045,0,0,0,0,90.49,1,0.045,-5.671,0.0638,0.25,1,0.0638,0,0,0,0,0,0,1,1,0,0,VALID,0,0,0,0,0,1,0,0,0,0,0,0,0,0,0,0,0,0,0,0,188.38,517.03,2,0,0.08,0.08,137,14.29,0.08,0.06,8.9,LANDED,CF1-F,0:/Integrated Flight Computer/aircraft/cf1_f_cfg.ks (inferred preloaded)
9.26,TAKEOFF,TO_GROUND_ROLL,10.93,80,69.07,3.75,-0.06,0.73,1.03,84.76,0.148,1,0,0,0,0,0,0,0,0,0,90.5,0,1,0,-0.31,0,0,0,90,0,0,0,0,0,0,0,0,0.051,0,0,0,0,90.5,1,0.051,-5.742,0.0646,0.25,1,0.0646,0,0,0,0,0,0,1,1,0,0,VALID,0,0,0,0,0,1,0,0,0,0,0,0,0,0,0,0,0,0,0,0,193.76,516.77,2,0,0.08,0.08,141,14.29,0.08,0.06,9.18,LANDED,CF1-F,0:/Integrated Flight Computer/aircraft/cf1_f_cfg.ks (inferred preloaded)
9.54,TAKEOFF,TO_GROUND_ROLL,11.72,80,68.28,3.74,-0.06,0.69,0.98,84.69,0.15,1,0,0,0,0,0,0,0,0,0,90.5,0,1,0,-0.31,0,0,0,90,0,0,0,0,0,0,0,0,0.057,0,0,0,0,90.5,1,0.057,-5.812,0.0654,0.25,1,0.0654,0,0,0,0,0,0,1,1,0,0,VALID,0,0,0,0,0,1,0,0,0,0,0,0,0,0,0,0,0,0,0,0,199.04,516.49,2,0,0.08,0.08,145,14.29,0.08,0.06,9.46,LANDED,CF1-F,0:/Integrated Flight Computer/aircraft/cf1_f_cfg.ks (inferred preloaded)
9.82,TAKEOFF,TO_GROUND_ROLL,12.53,80,67.47,3.74,-0.07,0.64,0.93,84.63,0.152,1,0,0,0,0,0,0,0,0,0,90.51,0,1,0,-0.31,0,0,0,90,0,0,0,0,0,0,0,0,0.064,0,0,0,0,90.51,1,0.064,-5.883,0.0662,0.25,1,0.0662,0,0,0,0,0,0,1,1,0,0,VALID,0,0,0,0,0,1,0,0,0,0,0,0,0,0,0,0,0,0,0,0,204.22,516.2,2,0,0.08,0.08,149,14.29,0.08,0.06,9.74,LANDED,CF1-F,0:/Integrated Flight Computer/aircraft/cf1_f_cfg.ks (inferred preloaded)
10.1,TAKEOFF,TO_GROUND_ROLL,13.35,80,66.65,3.73,-0.07,0.62,0.91,84.56,0.153,1,0,0,0,0,0,0,0,0,0,90.52,0,1,0,-0.31,0,0,0,90,0,0,0,0,0,0,0,0,0.072,0,0,0,0,90.52,1,0.072,-5.954,0.067,0.25,1,0.067,0,0,0,0,0,0,1,1,0,0,VALID,0,0,0,0,0,1,0,0,0,0,0,0,0,0,0,0,0,0,0,0,209.3,515.9,2,0,0.08,0.08,153,14.29,0.08,0.06,10.02,LANDED,CF1-F,0:/Integrated Flight Computer/aircraft/cf1_f_cfg.ks (inferred preloaded)
10.38,TAKEOFF,TO_GROUND_ROLL,14.2,80,65.8,3.74,-0.08,0.65,0.94,84.5,0.152,1,0,0,0,0,0,0,0,0,0,90.52,0,1,0,-0.31,0,0,0,90,0,0,0,0,0,0,0,0,0.079,0,0,0,0,90.52,1,0.079,-6.025,0.0678,0.25,1,0.0678,0,0,0,0,0,0,1,1,0,0,VALID,0,0,0,0,0,1,0,0,0,0,0,0,0,0,0,0,0,0,0,0,214.28,515.58,2,0,0.08,0.08,157,14.29,0.08,0.06,10.3,LANDED,CF1-F,0:/Integrated Flight Computer/aircraft/cf1_f_cfg.ks (inferred preloaded)
10.66,TAKEOFF,TO_GROUND_ROLL,15.07,80,64.93,3.75,-0.08,0.72,1,84.44,0.153,1,0,0,0,0,0,0,0,0,0,90.53,0,1,0,-0.31,0,0,0,90,0,0,0,0,0,0,0,0,0.088,0,0,0,0,90.53,1,0.088,-6.096,0.0686,0.25,1,0.0686,0,0,0,0,0,0,1,1,0,0,VALID,0,0,0,0,0,1,0,0,0,0,0,0,0,0,0,0,0,0,0,0,219.16,515.25,2,0,0.08,0.08,161,14.29,0.08,0.06,10.58,LANDED,CF1-F,0:/Integrated Flight Computer/aircraft/cf1_f_cfg.ks (inferred preloaded)
10.94,TAKEOFF,TO_GROUND_ROLL,15.96,80,64.04,3.76,-0.08,0.81,1.09,84.38,0.155,1,0,0,0,0,0,0,0,0,0,90.54,0,1,0,-0.3,0,0,0.01,90,0,0,0,0,0,0,0,0,0.097,0,0,0,0,90.54,1,0.097,-6.166,0.0694,0.25,1,0.0694,0,0,0,0,0,0,1,1,0,0,VALID,0,0,0,0,0,1,0,0,0,0,0,0,0,0,0,0,0,0,0,0,223.94,514.91,2,0,0.08,0.08,165,14.29,0.08,0.06,10.86,LANDED,CF1-F,0:/Integrated Flight Computer/aircraft/cf1_f_cfg.ks (inferred preloaded)
11.22,TAKEOFF,TO_GROUND_ROLL,16.86,80,63.14,3.78,-0.09,0.89,1.17,84.31,0.157,1,0,0,0,0,0,0,0,0,0,90.55,0,1,0,-0.31,0,0,0.01,90,0,0,0,0,0,0,0,0,0.106,0,0,0,0,90.55,1,0.106,-6.234,0.0701,0.25,1,0.0701,0,0,0,0,0,0,1,1,0,0,VALID,0,0,0,0,0,1,0,0,0,0,0,0,0,0,0,0,0,0,0,0,228.64,514.55,2,0,0.08,0.08,169,14.29,0.08,0.06,11.14,LANDED,CF1-F,0:/Integrated Flight Computer/aircraft/cf1_f_cfg.ks (inferred preloaded)
11.5,TAKEOFF,TO_GROUND_ROLL,17.78,80,62.22,3.79,-0.09,0.94,1.22,84.26,0.157,1,0,0,0,0,0,0,0,0,0,90.56,0,1,0,-0.3,0,0,0.01,90,0,0,0,0,0,0,0,0,0.117,0,0,0,0,90.56,1,0.117,-6.301,0.0709,0.25,1,0.0709,0,0,0,0,0,0,1,1,0,0,VALID,0,0,0,0,0,1,0,0,0,0,0,0,0,0,0,0,0,0,0,0,233.23,514.17,2,0,0.08,0.08,173,14.29,0.08,0.06,11.42,LANDED,CF1-F,0:/Integrated Flight Computer/aircraft/cf1_f_cfg.ks (inferred preloaded)
11.78,TAKEOFF,TO_GROUND_ROLL,18.73,80,61.27,3.79,-0.1,0.96,1.24,84.2,0.156,1,0,0,0,0,0,0,0,0,0,90.57,0,1,0,-0.31,0,0,0.01,90,0,0,0,0,0,0,0,0,0.128,0,0,0,0,90.57,1,0.128,-6.367,0.0716,0.25,1,0.0716,0,0,0,0,0,0,1,1,0,0,VALID,0,0,0,0,0,1,0,0,0,0,0,0,0,0,0,0,0,0,0,0,237.74,513.79,2,0,0.08,0.08,177,14.29,0.08,0.06,11.7,LANDED,CF1-F,0:/Integrated Flight Computer/aircraft/cf1_f_cfg.ks (inferred preloaded)
12.06,TAKEOFF,TO_GROUND_ROLL,19.68,80,60.32,3.79,-0.1,0.94,1.23,84.15,0.156,1,0,0,0,0,0,0,0,0,0,90.58,0,1,0,-0.3,0,0,0.01,90,0,0,0,0,0,0,0,0,0.139,0,0,0,0,90.58,1,0.139,-6.43,0.0723,0.25,1,0.0723,0,0,0,0,0,0,1,1,0,0,VALID,0,0,0,0,0,1,0,0,0,0,0,0,0,0,0,0,0,0,0,0,242.15,513.38,2,0,0.08,0.08,181,14.29,0.08,0.06,11.98,LANDED,CF1-F,0:/Integrated Flight Computer/aircraft/cf1_f_cfg.ks (inferred preloaded)
12.34,TAKEOFF,TO_GROUND_ROLL,20.66,80,59.34,3.78,-0.11,0.91,1.2,84.1,0.157,1,0,0,0,0,0,0,0,0,0,90.59,0,1,0,-0.3,0,0,0.01,90,0,0,0,0,0,0,0,0,0.152,0,0,0,0,90.59,1,0.152,-6.491,0.0751,0.257,0,0.0751,0,0,0,0,0,0,1,1,0,0,VALID,0,0,0,0,0,1,0,0,0,0,0,0,0,0,0,0,0,0,0,0,246.47,512.96,2,0,0.08,0.08,185,14.29,0.08,0.06,12.26,LANDED,CF1-F,0:/Integrated Flight Computer/aircraft/cf1_f_cfg.ks (inferred preloaded)
12.62,TAKEOFF,TO_GROUND_ROLL,21.65,80,58.35,3.78,-0.11,0.9,1.18,84.05,0.157,1,0,0,0,0,0,0,0,0,0,90.6,0,1,0,-0.3,0,0,0.01,90,0,0,0,0,0,0,0,0,0.165,0,0,0,0,90.6,1,0.165,-6.551,0.0789,0.268,0,0.0789,0,0,0,0,0,0,1,1,0,0,VALID,0,0,0,0,0,1,0,0,0,0,0,0,0,0,0,0,0,0,0,0,250.7,512.53,2,0,0.08,0.08,189,14.29,0.08,0.06,12.54,LANDED,CF1-F,0:/Integrated Flight Computer/aircraft/cf1_f_cfg.ks (inferred preloaded)
12.9,TAKEOFF,TO_GROUND_ROLL,22.66,80,57.34,3.78,-0.12,0.9,1.19,84,0.158,1,0,0,0,0,0,0,0,0,0,90.61,0,1,0,-0.3,0,0,0.01,90,0,0,0,0,0,0,0,0,0.178,0,0,0,0,90.61,1,0.178,-6.61,0.0828,0.279,0,0.0828,0,0,0,0,0,0,1,1,0,0,VALID,0,0,0,0,0,1,0,0,0,0,0,0,0,0,0,0,0,0,0,0,254.84,512.08,2,0,0.08,0.08,193,14.29,0.08,0.06,12.82,LANDED,CF1-F,0:/Integrated Flight Computer/aircraft/cf1_f_cfg.ks (inferred preloaded)
13.18,TAKEOFF,TO_GROUND_ROLL,23.69,80,56.31,3.79,-0.12,0.94,1.22,83.96,0.157,1,0,0,0,0,0,0,0,0,0,90.62,0,1,0,-0.3,0,0,0.01,90,0,0,0,0,0,0,0,0,0.193,0,0,0,0,90.62,1,0.193,-6.667,0.0869,0.29,0,0.0869,0,0,0,0,0,0,1,1,0,0,VALID,0,0,0,0,0,1,0,0,0,0,0,0,0,0,0,0,0,0,0,0,258.9,511.61,2,0,0.08,0.08,197,14.29,0.08,0.06,13.1,LANDED,CF1-F,0:/Integrated Flight Computer/aircraft/cf1_f_cfg.ks (inferred preloaded)
13.46,TAKEOFF,TO_GROUND_ROLL,24.73,80,55.27,3.8,-0.13,1,1.27,83.91,0.157,1,0,0,0,0,0,0,0,0,0,90.64,0,1,0,-0.3,0,0,0.01,90,0,0,0,0,0,0,0,0,0.208,0,0,0,0,90.64,1,0.208,-6.722,0.091,0.301,0,0.091,0,0,0,0,0,0,1,1,0,0,VALID,0,0,0,0,0,1,0,0,0,0,0,0,0,0,0,0,0,0,0,0,262.86,511.13,2,0,0.08,0.08,201,14.29,0.08,0.06,13.38,LANDED,CF1-F,0:/Integrated Flight Computer/aircraft/cf1_f_cfg.ks (inferred preloaded)
13.74,TAKEOFF,TO_GROUND_ROLL,25.78,80,54.22,3.81,-0.13,1.06,1.34,83.88,0.156,1,0,0,0,0,0,0,0,0,0,90.65,0,1,0,-0.3,0,0,0.01,90,0,0,0,0,0,0,0,0,0.224,0,0,0,0,90.65,1,0.224,-6.775,0.0951,0.312,0,0.0951,0,0,0,0,0,0,1,1,0,0,VALID,0,0,0,0,0,1,0,0,0,0,0,0,0,0,0,0,0,0,0,0,266.74,510.64,2,0,0.08,0.08,205,14.29,0.08,0.06,13.66,LANDED,CF1-F,0:/Integrated Flight Computer/aircraft/cf1_f_cfg.ks (inferred preloaded)
14.02,TAKEOFF,TO_GROUND_ROLL,26.86,80,53.14,3.82,-0.14,1.11,1.39,83.84,0.156,1,0,0,0,0,0,0,0,0,0,90.66,0,1,0,-0.3,0,0,0.01,90,0,0,0,0,0,0,0,0,0.24,0,0,0,0,90.66,1,0.24,-6.825,0.0993,0.323,0,0.0993,0,0,0,0,0,0,1,1,0,0,VALID,0,0,0,0,0,1,0,0,0,0,0,0,0,0,0,0,0,0,0,0,270.54,510.12,2,0,0.08,0.08,209,14.29,0.08,0.06,13.94,LANDED,CF1-F,0:/Integrated Flight Computer/aircraft/cf1_f_cfg.ks (inferred preloaded)
14.3,TAKEOFF,TO_GROUND_ROLL,27.94,80,52.06,3.82,-0.14,1.14,1.42,83.81,0.154,1,0,0,0,0,0,0,0,0,0,90.68,0,1,0,-0.29,0,0,0.01,90,0,0,0,0,0,0,0,0,0.258,0,0,0,0,90.68,1,0.258,-6.871,0.1036,0.335,0,0.1036,0,0,0,0,0,0,1,1,0,0,VALID,0,0,0,0,0,1,0,0,0,0,0,0,0,0,0,0,0,0,0,0,274.25,509.6,2,0,0.08,0.08,213,14.29,0.08,0.06,14.22,LANDED,CF1-F,0:/Integrated Flight Computer/aircraft/cf1_f_cfg.ks (inferred preloaded)
14.58,TAKEOFF,TO_GROUND_ROLL,29.04,80,50.96,3.82,-0.15,1.15,1.43,83.78,0.152,1,0,0,0,0,0,0,0,0,0,90.69,0,1,0,-0.29,0,0,0.01,90,0,0,0,0,0,0,0,0,0.276,0,0,0,0,90.69,1,0.276,-6.914,0.1079,0.347,0,0.1079,0,0,0,0,0,0,1,1,0,0,VALID,0,0,0,0,0,1,0,0,0,0,0,0,0,0,0,0,0,0,0,0,277.88,509.05,2,0,0.08,0.08,217,14.29,0.08,0.06,14.5,LANDED,CF1-F,0:/Integrated Flight Computer/aircraft/cf1_f_cfg.ks (inferred preloaded)
14.86,TAKEOFF,TO_GROUND_ROLL,30.15,80,49.85,3.82,-0.15,1.14,1.42,83.76,0.149,1,0,0,0,0,0,0,0,0,0,90.71,0,1,0,-0.29,0,0,0.01,90,0,0,0,0,0,0,0,0,0.295,0,0,0,0,90.71,1,0.295,-6.953,0.1122,0.359,0,0.1122,0,0,0,0,0,0,1,1,0,0,VALID,0,0,0,0,0,1,0,0,0,0,0,0,0,0,0,0,0,0,0,0,281.42,508.49,2,0,0.08,0.08,221,14.29,0.08,0.06,14.78,LANDED,CF1-F,0:/Integrated Flight Computer/aircraft/cf1_f_cfg.ks (inferred preloaded)
15.14,TAKEOFF,TO_GROUND_ROLL,31.28,80,48.72,3.82,-0.16,1.14,1.41,83.74,0.147,1,0,0,0,0,0,0,0,0,0,90.73,0,1,0,-0.29,0,0,0.02,90,0,0,0,0,0,0,0,0,0.315,0,0,0,0,90.73,1,0.315,-6.988,0.1166,0.371,0,0.1166,0,0,0,0,0,0,1,1,0,0,VALID,0,0,0,0,0,1,0,0,0,0,0,0,0,0,0,0,0,0,0,0,284.89,507.92,2,0,0.08,0.08,225,14.29,0.08,0.06,15.06,LANDED,CF1-F,0:/Integrated Flight Computer/aircraft/cf1_f_cfg.ks (inferred preloaded)
15.42,TAKEOFF,TO_GROUND_ROLL,32.42,80,47.58,3.82,-0.16,1.14,1.42,83.72,0.146,1,0,0,0,0,0,0,0,0,0,90.74,0,1,0,-0.29,0,0,0.02,90,0,0,0,0,0,0,0,0,0.335,0,0,0,0,90.74,1,0.335,-7.02,0.121,0.383,0,0.121,0,0,0,0,0,0,1,1,0,0,VALID,0,0,0,0,0,1,0,0,0,0,0,0,0,0,0,0,0,0,0,0,288.27,507.33,2,0,0.08,0.08,229,14.29,0.08,0.06,15.34,LANDED,CF1-F,0:/Integrated Flight Computer/aircraft/cf1_f_cfg.ks (inferred preloaded)
15.7,TAKEOFF,TO_GROUND_ROLL,33.57,80,46.43,3.83,-0.17,1.16,1.43,83.71,0.143,1,0,0,0,0,0,0,0,0,0,90.76,0,1,0,-0.29,0,0,0.02,90,0,0,0,0,0,0,0,0,0.357,0,0,0,0,90.76,1,0.357,-7.049,0.1254,0.395,0,0.1254,0,0,0,0,0,0,1,1,0,0,VALID,0,0,0,0,0,1,0,0,0,0,0,0,0,0,0,0,0,0,0,0,291.58,506.72,2,0,0.08,0.08,233,14.29,0.08,0.06,15.62,LANDED,CF1-F,0:/Integrated Flight Computer/aircraft/cf1_f_cfg.ks (inferred preloaded)
15.98,TAKEOFF,TO_GROUND_ROLL,34.73,80,45.27,3.83,-0.17,1.2,1.47,83.71,0.14,1,0,0,0,0,0,0,0,0,0,90.78,0,1,0,-0.29,0,0,0.02,90,0,0,0,0,0,0,0,0,0.379,0,0,0,0,90.78,1,0.379,-7.074,0.1298,0.408,0,0.1298,0,0,0,0,0,0,1,1,0,0,VALID,0,0,0,0,0,1,0,0,0,0,0,0,0,0,0,0,0,0,0,0,294.8,506.1,2,0,0.08,0.08,237,14.29,0.08,0.06,15.9,LANDED,CF1-F,0:/Integrated Flight Computer/aircraft/cf1_f_cfg.ks (inferred preloaded)
16.26,TAKEOFF,TO_GROUND_ROLL,35.91,80,44.09,3.84,-0.18,1.24,1.51,83.71,0.136,1,0,0,0,0,0,0,0,0,0,90.8,0,1,0,-0.29,0,0,0.02,90,0,0,0,0,0,0,0,0,0.402,0,0,0,0,90.8,1,0.402,-7.094,0.1342,0.42,0,0.1342,0,0,0,0,0,0,1,1,0,0,VALID,0,0,0,0,0,1,0,0,0,0,0,0,0,0,0,0,0,0,0,0,297.95,505.47,2,0,0.08,0.08,241,14.29,0.08,0.06,16.18,LANDED,CF1-F,0:/Integrated Flight Computer/aircraft/cf1_f_cfg.ks (inferred preloaded)
16.54,TAKEOFF,TO_GROUND_ROLL,37.1,80,42.9,3.85,-0.19,1.28,1.55,83.71,0.133,1,0,0,0,0,0,0,0,0,0,90.82,0,1,0,-0.29,0,0,0.02,90,0,0,0,0,0,0,0,0,0.425,0,0,0,0,90.82,1,0.425,-7.109,0.1386,0.433,0,0.1386,0,0,0,0,0,0,1,1,0,0,VALID,0,0,0,0,0,1,0,0,0,0,0,0,0,0,0,0,0,0,0,0,301.02,504.81,2,0,0.08,0.08,245,14.29,0.08,0.06,16.46,LANDED,CF1-F,0:/Integrated Flight Computer/aircraft/cf1_f_cfg.ks (inferred preloaded)
16.82,TAKEOFF,TO_GROUND_ROLL,38.29,80,41.71,3.85,-0.19,1.31,1.58,83.72,0.128,1,0,0,0,0,0,0,0,0,0,90.84,0,1,0,-0.28,0,0,0.02,90,0,0,0,0,0,0,0,0,0.45,0,0,0,0,90.84,1,0.45,-7.119,0.1429,0.446,0,0.1429,0,0,0,0,0,0,1,1,0,0,VALID,0,0,0,0,0,1,0,0,0,0,0,0,0,0,0,0,0,0,0,0,304.02,504.15,2,0,0.08,0.08,249,14.29,0.08,0.06,16.74,LANDED,CF1-F,0:/Integrated Flight Computer/aircraft/cf1_f_cfg.ks (inferred preloaded)
17.1,TAKEOFF,TO_GROUND_ROLL,39.5,80,40.5,3.85,-0.19,1.33,1.6,83.74,0.123,1,0,0,0,0,0,0,0,0,0,90.86,0,1,0,-0.28,0,0,0.02,90,0,0,0,0,0,0,0,0,0.475,0,0,0,0,90.86,1,0.475,-7.125,0.1472,0.459,0,0.1472,0,0,0,0,0,0,1,1,0,0,VALID,0,0,0,0,0,1,0,0,0,0,0,0,0,0,0,0,0,0,0,0,306.94,503.47,2,0,0.08,0.08,253,14.29,0.08,0.06,17.02,LANDED,CF1-F,0:/Integrated Flight Computer/aircraft/cf1_f_cfg.ks (inferred preloaded)
17.38,TAKEOFF,TO_GROUND_ROLL,40.72,80,39.28,3.86,-0.2,1.34,1.6,83.76,0.117,1,0,0,0,0,0,0,0,0,0,90.88,0,1,0,-0.28,0,0,0.02,90,0,0,0,0,0,0,0,0,0.5,0,0,0,0,90.88,1,0.5,-7.125,0.1513,0.472,0,0.1513,0,0,0,0,0,0,1,1,0,0,VALID,0,0,0,0,0,1,0,0,0,0,0,0,0,0,0,0,0,0,0,0,309.79,502.77,2,0,0.08,0.08,257,14.29,0.08,0.06,17.3,LANDED,CF1-F,0:/Integrated Flight Computer/aircraft/cf1_f_cfg.ks (inferred preloaded)
17.66,TAKEOFF,TO_GROUND_ROLL,41.95,80,38.05,3.86,-0.2,1.34,1.61,83.79,0.112,1,0,0,0,0,0,0,0,0,0,90.91,0,1,0,-0.28,0,0,0.02,90,0,0,0,0,0,0,0,0,0.527,0,0,0,0,90.91,1,0.527,-7.119,0.1554,0.485,0,0.1554,0,0,0,0,0,0,1,1,0,0,VALID,0,0,0,0,0,1,0,0,0,0,0,0,0,0,0,0,0,0,0,0,312.57,502.06,2,0,0.08,0.08,261,14.29,0.08,0.06,17.58,LANDED,CF1-F,0:/Integrated Flight Computer/aircraft/cf1_f_cfg.ks (inferred preloaded)
17.94,TAKEOFF,TO_GROUND_ROLL,43.19,80,36.81,3.86,-0.21,1.35,1.62,83.82,0.105,1,0,0,0,0,0,0,0,0,0,90.93,0,1,0,-0.28,0,0,0.03,90,0,0,0,0,0,0,0,0,0.554,0,0,0,0,90.93,1,0.554,-7.108,0.1594,0.499,0,0.1594,0,0,0,0,0,0,1,1,0,0,VALID,0,0,0,0,0,1,0,0,0,0,0,0,0,0,0,0,0,0,0,0,315.27,501.33,2,0,0.08,0.08,265,14.29,0.08,0.06,17.86,LANDED,CF1-F,0:/Integrated Flight Computer/aircraft/cf1_f_cfg.ks (inferred preloaded)
18.22,TAKEOFF,TO_GROUND_ROLL,44.44,80,35.56,3.86,-0.22,1.37,1.63,83.86,0.099,1,0,0,0,0,0,0,0,0,0,90.95,0,1,0,-0.28,0,0,0.03,90,0,0,0,0,0,0,0,0,0.582,0,0,0,0,90.95,1,0.582,-7.092,0.1634,0.512,0,0.1634,0,0,0,0,0,0,1,1,0,0,VALID,0,0,0,0,0,1,0,0,0,0,0,0,0,0,0,0,0,0,0,0,317.9,500.59,2,0,0.08,0.08,269,14.29,0.08,0.06,18.14,LANDED,CF1-F,0:/Integrated Flight Computer/aircraft/cf1_f_cfg.ks (inferred preloaded)
18.5,TAKEOFF,TO_GROUND_ROLL,45.7,80,34.3,3.87,-0.22,1.4,1.66,83.91,0.092,1,0,0,0,0,0,0,0,0,0,90.98,0,1,0,-0.28,0,0,0.03,90,0,0,0,0,0,0,0,0,0.61,0,0,0,0,90.98,1,0.61,-7.069,0.1671,0.525,0,0.1671,0,0,0,0,0,0,1,1,0,0,VALID,0,0,0,0,0,1,0,0,0,0,0,0,0,0,0,0,0,0,0,0,320.47,499.84,2,0,0.08,0.08,273,14.29,0.08,0.06,18.42,LANDED,CF1-F,0:/Integrated Flight Computer/aircraft/cf1_f_cfg.ks (inferred preloaded)
18.78,TAKEOFF,TO_GROUND_ROLL,46.97,80,33.03,3.87,-0.23,1.43,1.68,83.96,0.086,1,0,0,0,0,0,0,0,0,0,91,0,1,0,-0.27,0,0,0.03,90,0,0,0,0,0,0,0,0,0.639,0,0,0,0,91,1,0.639,-7.041,0.1708,0.539,0,0.1708,0,0,0,0,0,0,1,1,0,0,VALID,0,0,0,0,0,1,0,0,0,0,0,0,0,0,0,0,0,0,0,0,322.96,499.07,2,0,0.08,0.08,277,14.29,0.08,0.06,18.7,LANDED,CF1-F,0:/Integrated Flight Computer/aircraft/cf1_f_cfg.ks (inferred preloaded)
19.06,TAKEOFF,TO_GROUND_ROLL,48.25,80,31.75,3.88,-0.23,1.45,1.71,84.02,0.077,1,0,0,0,0,0,0,0,0,0,91.02,0,1,0,-0.27,0,0,0.03,90,0,0,0,0,0,0,0,0,0.668,0,0,0,0,91.02,1,0.668,-7.007,0.1742,0.553,0,0.1742,0,0,0,0,0,0,1,1,0,0,VALID,0,0,0,0,0,1,0,0,0,0,0,0,0,0,0,0,0,0,0,0,325.39,498.29,2,0,0.08,0.08,281,14.29,0.08,0.06,18.98,LANDED,CF1-F,0:/Integrated Flight Computer/aircraft/cf1_f_cfg.ks (inferred preloaded)
19.34,TAKEOFF,TO_GROUND_ROLL,49.53,80,30.47,3.88,-0.23,1.48,1.74,84.08,0.069,1,0,0,0,0,0,0,0,0,0,91.05,0,1,0,-0.27,0,0,0.03,90,0,0,0,0,0,0,0,0,0.698,0,0,0,0,91.05,1,0.698,-6.967,0.1776,0.566,0,0.1776,0,0,0,0,0,0,1,1,0,0,VALID,0,0,0,0,0,1,0,0,0,0,0,0,0,0,0,0,0,0,0,0,327.75,497.5,2,0,0.08,0.08,285,14.29,0.08,0.06,19.26,LANDED,CF1-F,0:/Integrated Flight Computer/aircraft/cf1_f_cfg.ks (inferred preloaded)
19.62,TAKEOFF,TO_GROUND_ROLL,50.82,80,29.18,3.88,-0.24,1.5,1.75,84.16,0.061,1,0,0,0,0,0,0,0,0,0,91.07,0,1,0,-0.27,0,0,0.03,90,0,0,0,0,0,0,0,0,0.728,0,0,0,0,91.07,1,0.728,-6.92,0.1807,0.58,0,0.1807,0,0,0,0,0,0,1,1,0,0,VALID,0,0,0,0,0,1,0,0,0,0,0,0,0,0,0,0,0,0,0,0,330.05,496.69,2,0,0.08,0.08,289,14.29,0.08,0.06,19.54,LANDED,CF1-F,0:/Integrated Flight Computer/aircraft/cf1_f_cfg.ks (inferred preloaded)
19.9,TAKEOFF,TO_GROUND_ROLL,52.12,80,27.88,3.89,-0.24,1.51,1.77,84.23,0.052,1,0,0,0,0,0,0,0,0,0,91.1,0,1,0,-0.27,0,0,0.03,90,0,0,0,0,0,0,0,0,0.759,0,0,0,0,91.1,1,0.759,-6.868,0.1836,0.594,0,0.1836,0,0,0,0,0,0,1,1,0,0,VALID,0,0,0,0,0,1,0,0,0,0,0,0,0,0,0,0,0,0,0,0,332.28,495.87,2,0,0.08,0.08,293,14.29,0.08,0.06,19.82,LANDED,CF1-F,0:/Integrated Flight Computer/aircraft/cf1_f_cfg.ks (inferred preloaded)
20.18,TAKEOFF,TO_GROUND_ROLL,53.43,80,26.57,3.89,-0.25,1.52,1.78,84.32,0.044,1,0,0,0,0,0,0,0,0,0,91.13,0,1,0,-0.27,0,0,0.04,90,0,0,0,0,0,0,0,0,0.79,0,0,0,0,91.13,1,0.79,-6.812,0.1864,0.608,0,0.1864,0,0,0,0,0,0,1,1,0,0,VALID,0,0,0,0,0,1,0,0,0,0,0,0,0,0,0,0,0,0,0,0,334.44,495.04,2,0,0.08,0.08,297,14.29,0.08,0.06,20.1,LANDED,CF1-F,0:/Integrated Flight Computer/aircraft/cf1_f_cfg.ks (inferred preloaded)
20.46,TAKEOFF,TO_GROUND_ROLL,54.74,80,25.26,3.89,-0.25,1.53,1.79,84.41,0.035,1,0,0,0,0,0,0,0,0,0,91.15,0,1,0,-0.27,0,0,0.04,90,0,0,0,0,0,0,0,0,0.821,0,0,0,0,91.15,1,0.821,-6.747,0.1889,0.622,0,0.1889,0,0,0,0,0,0,1,1,0,0,VALID,0,0,0,0,0,1,0,0,0,0,0,0,0,0,0,0,0,0,0,0,336.55,494.2,2,0,0.08,0.08,301,14.29,0.08,0.06,20.38,LANDED,CF1-F,0:/Integrated Flight Computer/aircraft/cf1_f_cfg.ks (inferred preloaded)
20.74,TAKEOFF,TO_GROUND_ROLL,56.06,80,23.94,3.9,-0.26,1.55,1.8,84.5,0.025,1,0,0,0,0,0,0,0,0,0,91.18,0,1,0,-0.26,0,0,0.04,90,0,0,0,0,0,0,0,0,0.853,0,0,0,0,91.18,1,0.853,-6.679,0.1913,0.636,0,0.1913,0,0,0,0,0,0,1,1,0,0,VALID,0,0,0,0,0,1,0,0,0,0,0,0,0,0,0,0,0,0,0,0,338.59,493.35,2,0,0.08,0.08,305,14.29,0.08,0.06,20.66,LANDED,CF1-F,0:/Integrated Flight Computer/aircraft/cf1_f_cfg.ks (inferred preloaded)
21.02,TAKEOFF,TO_GROUND_ROLL,57.39,80,22.61,3.9,-0.26,1.58,1.82,84.6,0.009,1,0,0,0,0,0,0,0,0,0,91.21,0,1,0,-0.26,0,0,0.04,90,0,0,0,0,0,0,0,0,0.884,0,0,0,0,91.21,1,0.884,-6.606,0.1934,0.651,0,0.1934,0,0,0,0,0,0,1,1,0,0,VALID,0,0,0,0,0,1,0,0,0,0,0,0,0,0,0,0,0,0,0,0,340.58,492.48,2,0,0.08,0.08,309,14.29,0.08,0.06,20.94,LANDED,CF1-F,0:/Integrated Flight Computer/aircraft/cf1_f_cfg.ks (inferred preloaded)
21.3,TAKEOFF,TO_GROUND_ROLL,58.72,80,21.28,3.91,-0.26,1.62,1.86,84.71,-0.021,1,0,0,0,0,0,0,0,0,0,91.24,0,1,0,-0.26,0,0,0.04,90,0,0,0,0,0,0,0,0,0.916,0,0,0,0,91.24,1,0.916,-6.53,0.1954,0.665,0,0.1954,0,0,0,0,0,0,1,1,0,0,VALID,0,0,0,0,0,1,0,0,0,0,0,0,0,0,0,0,0,0,0,0,342.5,491.6,2,0,0.08,0.08,313,14.29,0.08,0.06,21.22,LANDED,CF1-F,0:/Integrated Flight Computer/aircraft/cf1_f_cfg.ks (inferred preloaded)
21.58,TAKEOFF,TO_GROUND_ROLL,60.06,80,19.94,3.92,-0.27,1.68,1.92,84.82,-0.061,1,0,0,0,0,0,0,0,0,0,91.27,0,1,0,-0.26,0,0,0.04,90,0,0,0,0,0,0,0,0,0.948,0,0,0,0,91.27,1,0.948,-6.45,0.1971,0.679,0,0.1971,0,0,0,0,0,0,1,1,0,0,VALID,0,0,0,0,0,1,0,0,0,0,0,0,0,0,0,0,0,0,0,0,344.36,490.72,2,0,0.08,0.08,317,14.29,0.08,0.06,21.5,LANDED,CF1-F,0:/Integrated Flight Computer/aircraft/cf1_f_cfg.ks (inferred preloaded)
21.86,TAKEOFF,TO_GROUND_ROLL,61.4,80,18.6,3.94,-0.26,1.76,1.97,84.93,-0.093,1,0,0,0,0,0,0,0,0,0,91.3,0,1,0,-0.24,0,0,0.05,90,0,0,0,0,0,0,0,0,0.98,0,0,0,0,91.3,1,0.98,-6.367,0.1987,0.694,0,0.1987,0,0,0,0,0,0,1,1,0,0,VALID,0,0,0,0,0,1,0,0,0,0,0,0,0,0,0,0,0,0,0,0,346.17,489.82,2,0,0.08,0.08,321,14.29,0.08,0.06,21.78,LANDED,CF1-F,0:/Integrated Flight Computer/aircraft/cf1_f_cfg.ks (inferred preloaded)
22.14,TAKEOFF,TO_GROUND_ROLL,62.75,80,17.25,3.97,-0.21,1.85,2.02,85.05,-0.129,1,0,0,0,0,0,0,0,0,0,91.33,0,1,0,-0.19,0,0,0.05,90,0,0,0,0,0,0,0,0,1.012,0,0,0,0,91.33,1,1.012,-6.28,0.2001,0.708,0,0.2001,0,0,0,0,0,0,1,1,0,0,VALID,0,0,0,0,0,1,0,0,0,0,0,0,0,0,0,0,0,0,0,0,347.92,488.92,2,0,0.08,0.08,325,14.29,0.08,0.06,22.06,LANDED,CF1-F,0:/Integrated Flight Computer/aircraft/cf1_f_cfg.ks (inferred preloaded)
22.42,TAKEOFF,TO_GROUND_ROLL,64.1,80,15.9,4,-0.28,1.97,2.19,85.17,-0.111,1,0,0,0,0,0,0,0,0,0,91.36,0,1,0,-0.25,0,0,0.05,90,0,0,0,0,0,0,0,0,1.043,0,0,0,0,91.36,1,1.043,-6.188,0.2012,0.722,0,0.2012,0,0,0,0,0,0,1,1,0,0,VALID,0,0,0,0,0,1,0,0,0,0,0,0,0,0,0,0,0,0,0,0,349.62,488,2,0,0.08,0.08,329,14.29,0.08,0.06,22.34,LANDED,CF1-F,0:/Integrated Flight Computer/aircraft/cf1_f_cfg.ks (inferred preloaded)
22.7,TAKEOFF,TO_GROUND_ROLL,65.45,80,14.55,4.04,-0.27,2.15,2.36,85.29,-0.066,1,0,0,0,0,0,0,0,0,0,91.39,0,1,0,-0.23,0,0,0.05,90,0,0,0,0,0,0,0,0,1.075,0,0,0,0,91.39,1,1.075,-6.093,0.2021,0.737,0,0.2021,0,0,0,0,0,0,1,1,0,0,VALID,0,0,0,0,0,1,0,0,0,0,0,0,0,0,0,0,0,0,0,0,351.27,487.08,2,0,0.08,0.08,333,14.29,0.08,0.06,22.62,LANDED,CF1-F,0:/Integrated Flight Computer/aircraft/cf1_f_cfg.ks (inferred preloaded)
22.98,TAKEOFF,TO_GROUND_ROLL,66.81,80,13.19,4.08,-0.28,2.39,2.6,85.42,-0.05,1,0,0,0,0,0,0,0,0,0,91.41,0,1,0,-0.24,0,0,0.05,90,0,0,0,0,0,0,0,0,1.106,0,0,0,0,91.41,1,1.106,-5.991,0.2026,0.751,0,0.2026,0,0,0,0,0,0,1,1,0,0,VALID,0,0,0,0,0,1,0,0,0,0,0,0,0,0,0,0,0,0,0,0,352.86,486.16,2,0,0.08,0.08,337,14.29,0.08,0.06,22.9,LANDED,CF1-F,0:/Integrated Flight Computer/aircraft/cf1_f_cfg.ks (inferred preloaded)
23.26,TAKEOFF,TO_GROUND_ROLL,68.16,80,11.84,4.14,-0.27,2.7,2.89,85.56,-0.079,1,0,0,0,0,0,0,0,0,0,91.44,0,1,0,-0.22,0,0,0.05,90,0,0,0,0,0,0,0,0,1.138,0,0,0,0,91.44,1,1.138,-5.886,0.2029,0.766,0,0.2029,0,0,0,0,0,0,1,1,0,0,VALID,0,0,0,0,0,1,0,0,0,0,0,0,0,0,0,0,0,0,0,0,354.4,485.23,2,0,0.08,0.08,341,14.29,0.08,0.06,23.18,LANDED,CF1-F,0:/Integrated Flight Computer/aircraft/cf1_f_cfg.ks (inferred preloaded)
23.54,TAKEOFF,TO_GROUND_ROLL,69.51,80,10.49,4.22,-0.27,3.1,3.29,85.69,-0.121,1,0,0,0,0,0,0,0,0,0,91.47,0,1,0,-0.23,0,0,0.06,90,0,0,0,0,0,0,0,0,1.168,0,0,0,0,91.47,1,1.168,-5.776,0.2028,0.78,0,0.2028,0,0,0,0,0,0,1,1,0,0,VALID,0,0,0,0,0,1,0,0,0,0,0,0,0,0,0,0,0,0,0,0,355.9,484.29,2,0,0.08,0.08,345,14.29,0.08,0.06,23.46,LANDED,CF1-F,0:/Integrated Flight Computer/aircraft/cf1_f_cfg.ks (inferred preloaded)
23.84,TAKEOFF,TO_ROTATE,70.94,80,9.06,4.32,-0.27,3.59,3.8,85.83,-0.146,1,0,0,0,0,0,0,0,0,0,91.5,3.752,1,0,-0.22,0,0,0.06,90,0,0,0,0,0,0,0,0,1.199,0,0,0,0,91.5,1,1.199,-5.664,0.2026,0.795,0,0.2026,0,0.12,3.752,0.164,0.08,0,1,1,0,0,VALID,0,0,0,0,0,1,0,0,0,0,0,0,0,0,0,0,0,0,0,0,357.46,483.3,2,0,0.08,0.08,349,13.33,0.08,0.06,23.74,LANDED,CF1-F,0:/Integrated Flight Computer/aircraft/cf1_f_cfg.ks (inferred preloaded)
24.12,TAKEOFF,TO_ROTATE,72.27,80,7.73,4.44,-0.26,4.2,4.4,85.97,-0.135,1,0,0,0,0,0,0,0,0,0,91.53,4.592,1,0,-0.21,0,0,0.06,90,0,0,0,0,0,0,0,0,1.229,0,0,0,0,91.53,1,1.229,-5.557,0.2023,0.809,0,0.2023,0,0.12,4.592,0.39,0.08,0,1,1,0,0,VALID,0,0,0,0,0,1,0,0,0,0,0,0,0,0,0,0,0,0,0,0,358.86,482.37,2,0,0.08,0.08,353,14.29,0.08,0.06,24.02,LANDED,CF1-F,0:/Integrated Flight Computer/aircraft/cf1_f_cfg.ks (inferred preloaded)
24.42,TAKEOFF,TO_ROTATE,73.68,80,6.32,4.6,-0.26,5.06,5.25,86.13,-0.112,1,0,0,0,0,0,0,0,0,0,91.55,5.492,1,0,-0.2,0,0,0.06,90,0,0,0,0,0,0,0,0,1.261,0,0,0,0,91.55,1,1.261,-5.426,0.2012,0.824,0,0.2012,0,0.12,5.492,0.436,0.08,0,1,1,0,0,VALID,0,0,0,0,0,1,0,0,0,0,0,0,0,0,0,0,0,0,0,0,360.33,481.39,2,0,0.08,0.08,357,13.33,0.08,0.06,24.32,LANDED,CF1-F,0:/Integrated Flight Computer/aircraft/cf1_f_cfg.ks (inferred preloaded)
24.7,TAKEOFF,TO_ROTATE,74.95,80,5.05,4.79,-0.25,6.03,6.21,86.29,-0.106,1,0,0,0,0,0,0,0,0,0,91.57,6.332,1,0,-0.19,0,0,0.06,90,0,0,0,0,0,0,0,0,1.29,0,0,0,0,91.57,1,1.29,-5.287,0.1993,0.838,0,0.1993,0,0.12,6.332,0.305,0.08,0,1,1,0,0,VALID,0,0,0,0,0,1,0,0,0,0,0,0,0,0,0,0,0,0,0,0,361.68,480.49,2,0,0.08,0.08,361,14.29,0.08,0.06,24.6,LANDED,CF1-F,0:/Integrated Flight Computer/aircraft/cf1_f_cfg.ks (inferred preloaded)
24.98,TAKEOFF,TO_ROTATE,76.18,80,3.82,4.99,-0.25,7.11,7.29,86.46,-0.096,1,0,0,0,0,0,0,0,0,0,91.59,7.172,1,0,-0.19,0,0,0.07,90,0,0,0,0,0,0,0,0,1.318,0,0,0,0,91.59,1,1.318,-5.125,0.1963,0.851,0,0.1963,0,0.12,7.172,0.061,0.08,0,1,1,0,0,VALID,0,0,0,0,0,1,0,0,0,0,0,0,0,0,0,0,0,0,0,0,363,479.62,2,0,0.08,0.08,365,14.29,0.08,0.06,24.88,LANDED,CF1-F,0:/Integrated Flight Computer/aircraft/cf1_f_cfg.ks (inferred preloaded)
25.26,TAKEOFF,TO_ROTATE,77.36,80,2.64,5.21,-0.22,8.22,8.37,86.66,-0.111,1,0,0,0,0,0,0,0,0,0,91.6,8.012,1,0,-0.16,0,0,0.07,90,0,0,0,0,0,0,0,0,1.347,0,0,0,0,91.6,1,1.347,-4.949,0.1923,0.864,0,0.1923,0,0.0635,8.012,-0.206,0.08,0,1,1,0,0,VALID,0,0,0,0,0,1,0,0,0,0,0,0,0,0,0,0,0,0,0,0,364.31,478.79,2,0,0.08,0.08,369,14.29,0.08,0.06,25.16,LANDED,CF1-F,0:/Integrated Flight Computer/aircraft/cf1_f_cfg.ks (inferred preloaded)
25.52,TAKEOFF,TO_ROTATE,78.4,80,1.6,5.42,0,9.21,9.16,86.86,-0.179,1,0,0,0,0,0,0,0,0,0,90.4,8.852,1,0,0,0,0,0.07,90,-0.7975,-0.0064,-0.6033,18.01,90.4,0,0,0,0,0,0,0,0,90.4,1,0,-3.535,0,0,3,0,0,0,8.852,-0.354,0,0,1,1,0,0,VALID,0,0,0,0,0,1,0,0,0,0,0,0,0,0,0,0,0,0,0,0,365.52,478.05,2,0,0.08,0.08,373,15.38,0.08,0.06,25.42,FLYING,CF1-F,0:/Integrated Flight Computer/aircraft/cf1_f_cfg.ks (inferred preloaded)
25.8,TAKEOFF,TO_ROTATE,79.45,80,0.55,5.68,0.52,9.8,9.44,87.02,-0.072,1,0,0,0,0,0,0,0,0,0,90.4,9.692,0,1,0.38,0,0,18.91,90.4,-0.8091,-0.0063,-0.5876,19.13,90.4,0,0,0,0,0,0,0,0,90.4,1,0,-3.376,0,0,3,0,0,0,9.692,-0.103,0,0,1,1,0,0,VALID,0,0,0,0,0,1,0,0,0,0,0,0,0,0,0,0,0,0,0,0,366.81,477.3,2,0,0.08,0.08,377,14.29,0.08,0.06,25.7,FLYING,CF1-F,0:/Integrated Flight Computer/aircraft/cf1_f_cfg.ks (inferred preloaded)
26.08,TAKEOFF,TO_ROTATE,80.46,80,-0.46,6.17,1.06,9.95,9.24,86.9,0.062,1,0,0,0,0,0,0,0,0,0,90.4,10,0,1,0.75,0,0,19.31,90.4,-0.8102,-0.0063,-0.5861,19.24,90.4,0,0,0,0,0,0,0,0,90.4,1,0,-3.504,0,0,3,0,0,0,10,0.05,0,0,1,1,0,0,VALID,0,0,0,0,0,1,0,0,0,0,0,0,0,0,0,0,0,0,0,0,368.08,476.56,2,0,0.08,0.08,381,14.29,0.08,0.06,25.98,FLYING,CF1-F,0:/Integrated Flight Computer/aircraft/cf1_f_cfg.ks (inferred preloaded)
26.36,TAKEOFF,TO_CLIMB,81.47,80,-1.47,6.99,1.61,9.94,8.88,86.64,0.104,1,0,0,0,0,0,0,0,0,0,90.4,10,0,1,1.13,0,0,19.01,90.4,-0.8064,-0.0063,-0.5913,18.88,90.4,0,0,0,0,0,0,0,0,90.4,1,0,-3.759,0,0,3,0,0,0,10,0.055,0,0,1,1,0,0,VALID,0,0,0,0,0,1,0,0,0,0,0,0,0,0,0,0,0,0,0,0,369.31,475.81,2,0,0.08,0.08,385,14.29,0.08,0.06,26.26,FLYING,CF1-F,0:/Integrated Flight Computer/aircraft/cf1_f_cfg.ks (inferred preloaded)
26.64,TAKEOFF,TO_CLIMB,82.48,80,-2.48,7.95,2.11,10.05,8.65,86.54,0.189,0.9752,0,0,0,0,0,0,0,0,0,90.4,9.497,0,1,1.46,0,0,18.32,90.4,-0.7987,-0.0064,-0.6016,18.14,90.4,0,0,0,0,0,0,0,0,90.4,1,0,-3.862,0,0,3,0,0,0,10,0.055,0,0,1,1,0,0,VALID,0,0,0,0,0,1,0,0,0,0,0,0,0,0,0,0,0,0,0,0,370.4,475.05,2,0,0.08,0.08,389,14.29,0.08,0.06,26.54,FLYING,CF1-F,0:/Integrated Flight Computer/aircraft/cf1_f_cfg.ks (inferred preloaded)
26.92,TAKEOFF,TO_CLIMB,83.48,80,-3.48,8.52,2.59,10.83,9.07,86.58,0.619,0.9652,0,0,0,0,0,0,0,0,0,90.4,9.049,0,1,1.78,0,0,18.02,90.4,-0.7984,-0.0064,-0.6021,18.11,90.4,0,0,0,0,0,0,0,0,90.4,1,0,-3.824,0,0,3,0,0,0,10,0.055,0,0,1,1,0,0,VALID,0,0,0,0,0,1,0,0,0,0,0,0,0,0,0,0,0,0,0,0,371.33,474.29,2,0,0.08,0.08,393,14.29,0.08,0.06,26.82,FLYING,CF1-F,0:/Integrated Flight Computer/aircraft/cf1_f_cfg.ks (inferred preloaded)
27.2,TAKEOFF,TO_CLIMB,84.42,80,-4.42,9.31,3.51,11.75,9.46,86.68,0.981,0.9558,0,0,0,0,0,0,0,0,0,90.4,8.601,0,1,2.38,0,0,18.18,90.4,-0.7979,-0.0064,-0.6028,18.07,90.4,0,0,0,0,0,0,0,0,90.4,1,0,-3.722,0,0,3,0,0,0,10,0.055,0,0,1,1,0,0,VALID,0,0,0,0,0,1,0,0,0,0,0,0,0,0,0,0,0,0,0,0,372.18,473.55,2,0,0.08,0.08,397,14.29,0.08,0.06,27.1,FLYING,CF1-F,0:/Integrated Flight Computer/aircraft/cf1_f_cfg.ks (inferred preloaded)
27.48,TAKEOFF,TO_CLIMB,85.31,80,-5.31,10.54,4.46,12.1,9.23,86.74,1.106,0.9469,0,0,0,0,0,0,0,0,0,90.4,8.153,0,1,2.99,0,0,17.6,90.4,-0.7907,-0.0064,-0.6122,17.39,90.4,0,0,0,0,0,0,0,0,90.4,1,0,-3.656,0,0,3,0,0,0,10,0.055,0,0,1,1,0,0,VALID,0,0,0,0,0,1,0,0,0,0,0,0,0,0,0,0,0,0,0,0,372.94,472.84,2,0,0.08,0.08,401,14.29,0.08,0.06,27.38,FLYING,CF1-F,0:/Integrated Flight Computer/aircraft/cf1_f_cfg.ks (inferred preloaded)
27.76,TAKEOFF,TO_CLIMB,86.18,80,-6.18,12.07,5.39,12.39,8.96,86.81,1.277,0.9382,0,0,0,0,0,0,0,0,0,90.4,8,0,1,3.58,0,0,17.04,90.4,-0.786,-0.0064,-0.6182,16.96,90.4,0,0,0,0,0,0,0,0,90.4,1,0,-3.593,0,0,3,0,0,0,10,0.055,0,0,1,1,0,0,VALID,0,0,0,0,0,1,0,0,0,0,0,0,0,0,0,0,0,0,0,0,373.6,472.12,2,0,0.08,0.08,405,14.29,0.08,0.06,27.66,FLYING,CF1-F,0:/Integrated Flight Computer/aircraft/cf1_f_cfg.ks (inferred preloaded)
28.04,TAKEOFF,TO_CLIMB,87.04,80,-7.04,13.85,6.3,12.64,8.65,86.87,1.393,0.9296,0,0,0,0,0,0,0,0,0,90.4,8,0,1,4.14,0,0,16.73,90.4,-0.7827,-0.0064,-0.6224,16.65,90.4,0,0,0,0,0,0,0,0,90.4,1,0,-3.529,0,0,3,0,0,0,10,0.055,0,0,1,1,0,0,VALID,0,0,0,0,0,1,0,0,0,0,0,0,0,0,0,0,0,0,0,0,374.16,471.39,2,0,0.08,0.08,409,14.29,0.08,0.06,27.94,FLYING,CF1-F,0:/Integrated Flight Computer/aircraft/cf1_f_cfg.ks (inferred preloaded)
28.32,TAKEOFF,TO_CLIMB,87.89,80,-7.89,15.87,7.22,12.97,8.44,86.94,1.501,0.9211,0,0,0,0,0,0,0,0,0,90.4,8,0,1,4.69,0,0,16.5,90.4,-0.7804,-0.0064,-0.6253,16.44,90.4,0,0,0,0,0,0,0,0,90.4,1,0,-3.464,0,0,3,0,0,0,10,0.055,0,0,1,1,0,0,VALID,0,0,0,0,0,1,0,0,0,0,0,0,0,0,0,0,0,0,0,0,374.63,470.65,2,0,0.08,0.08,413,14.29,0.08,0.06,28.22,FLYING,CF1-F,0:/Integrated Flight Computer/aircraft/cf1_f_cfg.ks (inferred preloaded)
28.6,TAKEOFF,TO_CLIMB,88.72,80,-8.72,18.17,8.15,13.24,8.18,86.99,1.487,0.9128,0,0,0,0,0,0,0,0,0,90.4,8,0,1,5.25,0,0,16.26,90.4,-0.7775,-0.0065,-0.6289,16.18,90.4,0,0,0,0,0,0,0,0,90.4,1,0,-3.411,0,0,3,0,0,0,10,0.055,0,0,1,1,0,0,VALID,0,0,0,0,0,1,0,0,0,0,0,0,0,0,0,0,0,0,0,0,375,469.91,2,0,0.08,0.08,417,14.29,0.08,0.06,28.5,FLYING,CF1-F,0:/Integrated Flight Computer/aircraft/cf1_f_cfg.ks (inferred preloaded)
28.88,TAKEOFF,TO_CLIMB,89.54,80,-9.54,20.72,9.05,13.5,7.92,87.02,1.414,0.9046,0,0,0,0,0,0,0,0,0,90.4,8,0,1,5.77,0,0,15.99,90.4,-0.7745,-0.0065,-0.6325,15.92,90.4,0,0,0,0,0,0,0,0,90.4,1,0,-3.378,0,0,3,0,0,0,10,0.055,0,0,1,1,0,0,VALID,0,0,0,0,0,1,0,0,0,0,0,0,0,0,0,0,0,0,0,0,375.29,469.15,2,0,0.08,0.08,421,14.29,0.08,0.06,28.78,FLYING,CF1-F,0:/Integrated Flight Computer/aircraft/cf1_f_cfg.ks (inferred preloaded)
29.16,TAKEOFF,TO_CLIMB,90.34,80,-10.34,23.51,10.01,13.66,7.58,87.06,1.443,0.8966,0,0,0,0,0,0,0,0,0,90.4,8,0,1,6.32,0,0,15.73,90.4,-0.7707,-0.0065,-0.6371,15.58,90.4,0,0,0,0,0,0,0,0,90.4,1,0,-3.335,0,0,3,0,0,0,10,0.055,0,0,1,1,0,0,VALID,0,0,0,0,0,1,0,0,0,0,0,0,0,0,0,0,0,0,0,0,375.49,468.4,2,0,0.08,0.08,425,14.29,0.08,0.06,29.06,FLYING,CF1-F,0:/Integrated Flight Computer/aircraft/cf1_f_cfg.ks (inferred preloaded)
29.44,TAKEOFF,TO_CLIMB,91.13,80,-11.13,26.47,10.81,13.31,6.79,87.14,1.823,0.8887,0,0,0,0,0,0,0,0,0,90.4,8,0,1,6.76,0,0,14.99,90.4,-0.7619,-0.0065,-0.6477,14.79,90.4,0,0,0,0,0,0,0,0,90.4,1,0,-3.256,0,0,3,0,0,0,10,0.055,0,0,1,1,0,0,VALID,0,0,0,0,0,1,0,0,0,0,0,0,0,0,0,0,0,0,0,0,375.6,467.63,2,0,0.08,0.08,429,14.29,0.08,0.06,29.34,FLYING,CF1-F,0:/Integrated Flight Computer/aircraft/cf1_f_cfg.ks (inferred preloaded)
29.72,TAKEOFF,TO_CLIMB,91.96,80,-11.96,29.66,11.42,13.21,6.35,87.25,2.174,0.8804,0,0,0,0,0,0,0,0,0,90.4,8,0,1,7.08,0,0,14.45,90.4,-0.7569,-0.0065,-0.6535,14.35,90.4,0,0,0,0,0,0,0,0,90.4,1,0,-3.155,0,0,3,0,0,0,10,0.055,0,0,1,1,0,0,VALID,0,0,0,0,0,1,0,0,0,0,0,0,0,0,0,0,0,0,0,0,375.61,466.83,2,0,0.08,0.08,433,14.29,0.08,0.06,29.62,FLYING,CF1-F,0:/Integrated Flight Computer/aircraft/cf1_f_cfg.ks (inferred preloaded)
30,TAKEOFF,TO_CLIMB,92.79,80,-12.79,33.04,12.01,13.23,6.07,87.35,2.474,0.8721,0,0,0,0,0,0,0,0,0,90.4,8,0,1,7.38,0,0,14.15,90.4,-0.7537,-0.0066,-0.6572,14.07,90.4,0,0,0,0,0,0,0,0,90.4,1,0,-3.051,0,0,3,0,0,0,10,0.055,0,0,1,1,0,0,VALID,0,0,0,0,0,1,0,0,0,0,0,0,0,0,0,0,0,0,0,0,375.53,466.01,2,0,0.08,0.08,437,14.29,0.08,0.06,29.9,FLYING,CF1-F,0:/Integrated Flight Computer/aircraft/cf1_f_cfg.ks (inferred preloaded)
30.28,TAKEOFF,TO_CLIMB,93.62,80,-13.62,36.59,12.58,13.28,5.84,87.45,2.727,0.8638,0,0,0,0,0,0,0,0,0,90.4,8,0,1,7.65,0,0,13.91,90.4,-0.751,-0.0066,-0.6602,13.84,90.4,0,0,0,0,0,0,0,0,90.4,1,0,-2.948,0,0,3,0,0,0,10,0.055,0,0,1,1,0,0,VALID,0,0,0,0,0,1,0,0,0,0,0,0,0,0,0,0,0,0,0,0,375.36,465.19,2,0,0.08,0.08,441,14.29,0.08,0.06,30.18,FLYING,CF1-F,0:/Integrated Flight Computer/aircraft/cf1_f_cfg.ks (inferred preloaded)
30.56,TAKEOFF,TO_CLIMB,94.44,80,-14.44,41.82,13.14,13.31,5.61,87.55,2.938,0.8556,0,0,0,0,0,0,0,0,0,90.4,8,0,1,7.92,0,0,13.68,90.4,-0.7483,-0.0066,-0.6633,13.61,90.4,0,0,0,0,0,0,0,0,90.4,1,0,-2.847,0,0,3,0,0,0,10,0.055,0,0,1,1,0,0,VALID,0,0,0,0,0,1,0,0,0,0,0,0,0,0,0,0,0,0,0,0,375.12,464.36,2,0,0.08,0.08,445,14.29,0.08,0.06,30.46,FLYING,CF1-F,0:/Integrated Flight Computer/aircraft/cf1_f_cfg.ks (inferred preloaded)
30.84,TAKEOFF,TO_CLIMB,95.26,80,-15.26,50.56,13.67,13.33,5.39,87.65,3.108,0.8474,0,0,0,0,0,0,0,0,0,90.4,8,0,1,8.17,0,0,13.46,90.4,-0.7457,-0.0066,-0.6662,13.39,90.4,0,0,0,0,0,0,0,0,90.4,1,0,-2.748,0,0,3,0,0,0,10,0.055,0,0,1,1,0,0,VALID,0,0,0,0,0,1,0,0,0,0,0,0,0,0,0,0,0,0,0,0,374.8,463.52,2,0,0.08,0.08,449,14.29,0.08,0.06,30.74,FLYING,CF1-F,0:/Integrated Flight Computer/aircraft/cf1_f_cfg.ks (inferred preloaded)
31.12,TAKEOFF,TO_CLIMB,96.07,80,-16.07,55.65,14.18,13.33,5.17,87.75,3.234,0.8393,0,0,0,0,0,0,0,0,0,90.4,8,0,1,8.4,0,0,13.23,90.4,-0.7431,-0.0066,-0.6692,13.17,90.4,0,0,0,0,0,0,0,0,90.4,1,0,-2.651,0,0,3,0,0,0,10,0.055,0,0,1,1,0,0,VALID,0,0,0,0,0,1,0,0,0,0,0,0,0,0,0,0,0,0,0,0,374.41,462.68,2,0,0.08,0.08,453,14.29,0.08,0.06,31.02,FLYING,CF1-F,0:/Integrated Flight Computer/aircraft/cf1_f_cfg.ks (inferred preloaded)
31.4,TAKEOFF,TO_CLIMB,96.88,80,-16.88,59.69,14.66,13.32,4.95,87.84,3.323,0.8312,0,0,0,0,0,0,0,0,0,90.4,8,0,1,8.61,0,0,13.01,90.4,-0.7405,-0.0066,-0.6721,12.95,90.4,0,0,0,0,0,0,0,0,90.4,1,0,-2.556,0,0,3,0,0,0,10,0.055,0,0,1,1,0,0,VALID,0,0,0,0,0,1,0,0,0,0,0,0,0,0,0,0,0,0,0,0,373.94,461.83,2,0,0.08,0.08,457,14.29,0.08,0.06,31.3,FLYING,CF1-F,0:/Integrated Flight Computer/aircraft/cf1_f_cfg.ks (inferred preloaded)
31.68,TAKEOFF,TO_CLIMB,97.68,80,-17.68,63.87,15.12,13.3,4.74,87.94,3.383,0.8232,0,0,0,0,0,0,0,0,0,90.4,8,0,1,8.8,0,0,12.8,90.4,-0.738,-0.0066,-0.6748,12.74,90.4,0,0,0,0,0,0,0,0,90.4,1,0,-2.464,0,0,3,0,0,0,10,0.055,0,0,1,1,0,0,VALID,0,0,0,0,0,1,0,0,0,0,0,0,0,0,0,0,0,0,0,0,373.4,460.98,2,0,0.08,0.08,461,14.29,0.08,0.06,31.58,FLYING,CF1-F,0:/Integrated Flight Computer/aircraft/cf1_f_cfg.ks (inferred preloaded)
31.96,TAKEOFF,TO_CLIMB,98.49,80,-18.49,68.17,15.55,13.28,4.54,88.03,3.42,0.8151,0,0,0,0,0,0,0,0,0,90.4,8,0,1,8.97,0,0,12.6,90.4,-0.7356,-0.0066,-0.6774,12.54,90.4,0,0,0,0,0,0,0,0,90.4,1,0,-2.372,0,0,3,0,0,0,10,0.055,0,0,1,1,0,0,VALID,0,0,0,0,0,1,0,0,0,0,0,0,0,0,0,0,0,0,0,0,372.79,460.12,2,0,0.08,0.08,465,14.29,0.08,0.06,31.86,FLYING,CF1-F,0:/Integrated Flight Computer/aircraft/cf1_f_cfg.ks (inferred preloaded)
32.24,TAKEOFF,TO_CLIMB,99.28,80,-19.28,72.59,15.96,13.27,4.36,88.12,3.448,0.8072,0,0,0,0,0,0,0,0,0,90.4,8,0,1,9.13,0,0,12.42,90.4,-0.7335,-0.0066,-0.6797,12.36,90.4,0,0,0,0,0,0,0,0,90.4,1,0,-2.28,0,0,3,0,0,0,10,0.055,0,0,1,1,0,0,VALID,0,0,0,0,0,1,0,0,0,0,0,0,0,0,0,0,0,0,0,0,372.12,459.26,2,0,0.08,0.08,469,14.29,0.08,0.06,32.14,FLYING,CF1-F,0:/Integrated Flight Computer/aircraft/cf1_f_cfg.ks (inferred preloaded)
32.52,TAKEOFF,TO_CLIMB,100.07,80,-20.07,77.13,16.35,13.24,4.19,88.21,3.459,0.7993,0,0,0,0,0,0,0,0,0,90.4,8,0,1,9.28,0,0,12.24,90.4,-0.7314,-0.0066,-0.6819,12.19,90.4,0,0,0,0,0,0,0,0,90.4,1,0,-2.191,0,0,3,0,0,0,10,0.055,0,0,1,1,0,0,VALID,0,0,0,0,0,1,0,0,0,0,0,0,0,0,0,0,0,0,0,0,371.27,458.4,2,0,0.08,0.08,473,14.29,0.08,0.06,32.42,FLYING,CF1-F,0:/Integrated Flight Computer/aircraft/cf1_f_cfg.ks (inferred preloaded)
32.8,TAKEOFF,TO_CLIMB,100.86,80,-20.86,81.77,16.73,13.22,4.03,88.3,3.456,0.7914,0,0,0,0,0,0,0,0,0,90.4,8,0,1,9.42,0,0,12.08,90.4,-0.7294,-0.0066,-0.684,12.03,90.4,0,0,0,0,0,0,0,0,90.4,1,0,-2.102,0,0,3,0,0,0,10,0.055,0,0,1,1,0,0,VALID,0,0,0,0,0,1,0,0,0,0,0,0,0,0,0,0,0,0,0,0,370.19,457.54,2,0,0.08,0.08,477,14.29,0.08,0.06,32.7,FLYING,CF1-F,0:/Integrated Flight Computer/aircraft/cf1_f_cfg.ks (inferred preloaded)
33.08,TAKEOFF,TO_CLIMB,101.64,80,-21.64,86.51,17.08,13.18,3.87,88.38,3.439,0.7836,0,0,0,0,0,0,0,0,0,90.4,8,0,1,9.54,0,0,11.92,90.4,-0.7275,-0.0066,-0.6861,11.87,90.4,0,0,0,0,0,0,0,0,90.4,1,0,-2.016,0,0,3,0,0,0,10,0.055,0,0,1,1,0,0,VALID,0,0,0,0,0,1,0,0,0,0,0,0,0,0,0,0,0,0,0,0,368.89,456.67,2,0,0.08,0.08,481,14.29,0.08,0.06,32.98,FLYING,CF1-F,0:/Integrated Flight Computer/aircraft/cf1_f_cfg.ks (inferred preloaded)
33.36,TAKEOFF,TO_CLIMB,102.41,80,-22.41,86.53,17.42,13.14,3.72,88.47,3.407,0.78,0,0,0,0,0,0,0,0,0,90.4,8,0,1,9.65,0,0,11.76,90.4,-0.7257,-0.0066,-0.688,11.72,90.4,0,0,0,0,0,0,0,0,90.4,1,0,-1.932,0,0,3,0,0,0,10,0.055,0,0,1,1,0,0,VALID,0,0,0,0,0,1,0,0,0,0,0,0,0,0,0,0,0,0,0,0,367.4,455.81,2,0,0.08,0.08,485,14.29,0.08,0.06,33.26,FLYING,CF1-F,0:/Integrated Flight Computer/aircraft/cf1_f_cfg.ks (inferred preloaded)
33.64,TAKEOFF,TO_CLIMB,103.18,80,-23.18,89.96,17.74,13.1,3.57,88.55,3.366,0.78,0,0,0,0,0,0,0,0,0,90.4,8,0,1,9.75,0,0,11.61,90.4,-0.7239,-0.0067,-0.6899,11.57,90.4,0,0,0,0,0,0,0,0,90.4,1,0,-1.851,0,0,3,0,0,0,10,0.055,0,0,1,1,0,0,VALID,0,0,0,0,0,1,0,0,0,0,0,0,0,0,0,0,0,0,0,0,365.9,454.94,2,0,0.08,0.08,489,14.29,0.08,0.06,33.54,FLYING,CF1-F,0:/Integrated Flight Computer/aircraft/cf1_f_cfg.ks (inferred preloaded)
33.92,TAKEOFF,TO_CLIMB,103.94,80,-23.94,95.05,18.04,13.06,3.44,88.63,3.316,0.78,0,0,0,0,0,0,0,0,0,90.4,8,0,1,9.85,0,0,11.48,90.4,-0.7222,-0.0067,-0.6917,11.44,90.4,0,0,0,0,0,0,0,0,90.4,1,0,-1.772,0,0,3,0,0,0,10,0.055,0,0,1,1,0,0,VALID,0,0,0,0,0,1,0,0,0,0,0,0,0,0,0,0,0,0,0,0,364.46,454.08,2,0,0.08,0.08,493,14.29,0.08,0.06,33.82,FLYING,CF1-F,0:/Integrated Flight Computer/aircraft/cf1_f_cfg.ks (inferred preloaded)
34.2,TAKEOFF,TO_CLIMB,104.69,80,-24.69,100.21,18.32,13.01,3.31,88.71,3.26,0.78,0,0,0,0,0,0,0,0,0,90.4,8,0,1,9.93,0,0,11.34,90.4,-0.7206,-0.0067,-0.6933,11.31,90.4,0,0,0,0,0,0,0,0,90.4,1,0,-1.695,0,0,3,0,0,0,10,0.055,0,0,1,1,0,0,VALID,0,0,0,0,0,1,0,0,0,0,0,0,0,0,0,0,0,0,0,0,363.08,453.22,2,0,0.08,0.08,497,14.29,0.08,0.06,34.1,FLYING,CF1-F,0:/Integrated Flight Computer/aircraft/cf1_f_cfg.ks (inferred preloaded)
34.48,TAKEOFF,TO_CLIMB,105.43,80,-25.43,105.46,18.6,12.96,3.18,88.78,3.197,0.78,0,0,0,0,0,0,0,0,0,90.4,8,0,1,10,0,0,11.22,90.4,-0.719,-0.0067,-0.695,11.18,90.4,0,0,0,0,0,0,0,0,90.4,1,0,-1.62,0,0,3,0,0,0,10,0.055,0,0,1,1,0,0,VALID,0,0,0,0,0,1,0,0,0,0,0,0,0,0,0,0,0,0,0,0,361.74,452.35,2,0,0.08,0.08,501,14.29,0.08,0.06,34.38,FLYING,CF1-F,0:/Integrated Flight Computer/aircraft/cf1_f_cfg.ks (inferred preloaded)
34.76,TAKEOFF,TO_CLIMB,106.17,80,-26.17,110.77,18.85,12.91,3.06,88.85,3.129,0.78,0,0,0,0,0,0,0,0,0,90.4,8,0,1,10.07,0,0,11.09,90.4,-0.7175,-0.0067,-0.6965,11.06,90.4,0,0,0,0,0,0,0,0,90.4,1,0,-1.547,0,0,3,0,0,0,10,0.055,0,0,1,1,0,0,VALID,0,0,0,0,0,1,0,0,0,0,0,0,0,0,0,0,0,0,0,0,360.46,451.49,2,0,0.08,0.08,505,14.29,0.08,0.06,34.66,FLYING,CF1-F,0:/Integrated Flight Computer/aircraft/cf1_f_cfg.ks (inferred preloaded)
35.04,TAKEOFF,TO_CLIMB,106.91,80,-26.91,116.15,19.1,12.85,2.94,88.92,3.056,0.78,0,0,0,0,0,0,0,0,0,90.4,8,0,1,10.13,0,0,10.98,90.4,-0.7161,-0.0067,-0.698,10.94,90.4,0,0,0,0,0,0,0,0,90.4,1,0,-1.478,0,0,3,0,0,0,10,0.055,0,0,1,1,0,0,VALID,0,0,0,0,0,1,0,0,0,0,0,0,0,0,0,0,0,0,0,0,359.21,450.64,2,0,0.08,0.08,509,14.29,0.08,0.06,34.94,FLYING,CF1-F,0:/Integrated Flight Computer/aircraft/cf1_f_cfg.ks (inferred preloaded)
35.32,TAKEOFF,TO_CLIMB,107.64,80,-27.64,121.6,19.33,12.79,2.83,88.99,2.98,0.78,0,0,0,0,0,0,0,0,0,90.4,8,0,1,10.18,0,0,10.87,90.4,-0.7147,-0.0067,-0.6994,10.83,90.4,0,0,0,0,0,0,0,0,90.4,1,0,-1.41,0,0,3,0,0,0,10,0.055,0,0,1,1,0,0,VALID,0,0,0,0,0,1,0,0,0,0,0,0,0,0,0,0,0,0,0,0,358.01,449.78,2,0,0.08,0.08,513,14.29,0.08,0.06,35.22,FLYING,CF1-F,0:/Integrated Flight Computer/aircraft/cf1_f_cfg.ks (inferred preloaded)
35.6,TAKEOFF,TO_CLIMB,108.36,80,-28.36,127.11,19.54,12.73,2.73,89.06,2.9,0.78,0,0,0,0,0,0,0,0,0,90.4,8,0,1,10.22,0,0,10.76,90.4,-0.7134,-0.0067,-0.7008,10.73,90.4,0,0,0,0,0,0,0,0,90.4,1,0,-1.345,0,0,3,0,0,0,10,0.055,0,0,1,1,0,0,VALID,0,0,0,0,0,1,0,0,0,0,0,0,0,0,0,0,0,0,0,0,356.85,448.92,2,0,0.08,0.08,517,14.29,0.08,0.06,35.5,FLYING,CF1-F,0:/Integrated Flight Computer/aircraft/cf1_f_cfg.ks (inferred preloaded)
35.88,TAKEOFF,TO_CLIMB,109.08,80,-29.08,132.68,19.75,12.67,2.63,89.12,2.82,0.78,0,0,0,0,0,0,0,0,0,90.4,8,0,1,10.26,0,0,10.66,90.4,-0.7121,-0.0067,-0.7021,10.63,90.4,0,0,0,0,0,0,0,0,90.4,1,0,-1.282,0,0,3,0,0,0,10,0.055,0,0,1,1,0,0,VALID,0,0,0,0,0,1,0,0,0,0,0,0,0,0,0,0,0,0,0,0,355.72,448.07,2,0,0.08,0.08,521,14.29,0.08,0.06,35.78,FLYING,CF1-F,0:/Integrated Flight Computer/aircraft/cf1_f_cfg.ks (inferred preloaded)
36.16,TAKEOFF,TO_CLIMB,109.8,80,-29.8,138.3,19.94,12.6,2.53,89.18,2.739,0.78,0,0,0,0,0,0,0,0,0,90.4,8,0,1,10.29,0,0,10.56,90.4,-0.7109,-0.0067,-0.7033,10.53,90.4,0,0,0,0,0,0,0,0,90.4,1,0,-1.221,0,0,3,0,0,0,10,0.055,0,0,1,1,0,0,VALID,0,0,0,0,0,1,0,0,0,0,0,0,0,0,0,0,0,0,0,0,354.62,447.21,2,0,0.08,0.08,525,14.29,0.08,0.06,36.06,FLYING,CF1-F,0:/Integrated Flight Computer/aircraft/cf1_f_cfg.ks (inferred preloaded)
36.44,TAKEOFF,TO_CLIMB,110.51,80,-30.51,143.97,20.13,12.53,2.43,89.24,2.657,0.78,0,0,0,0,0,0,0,0,0,90.4,8,0,1,10.32,0,0,10.46,90.4,-0.7097,-0.0067,-0.7045,10.43,90.4,0,0,0,0,0,0,0,0,90.4,1,0,-1.163,0,0,3,0,0,0,10,0.055,0,0,1,1,0,0,VALID,0,0,0,0,0,1,0,0,0,0,0,0,0,0,0,0,0,0,0,0,353.56,446.36,2,0,0.08,0.08,529,14.29,0.08,0.06,36.34,FLYING,CF1-F,0:/Integrated Flight Computer/aircraft/cf1_f_cfg.ks (inferred preloaded)
36.72,TAKEOFF,TO_CLIMB,111.21,80,-31.21,149.69,20.3,12.46,2.34,89.29,2.573,0.78,0,0,0,0,0,0,0,0,0,90.4,8,0,1,10.34,0,0,10.37,90.4,-0.7085,-0.0067,-0.7057,10.34,90.4,0,0,0,0,0,0,0,0,90.4,1,0,-1.107,0,0,3,0,0,0,10,0.055,0,0,1,1,0,0,VALID,0,0,0,0,0,1,0,0,0,0,0,0,0,0,0,0,0,0,0,0,352.52,445.51,2,0,0.08,0.08,533,14.29,0.08,0.06,36.62,FLYING,CF1-F,0:/Integrated Flight Computer/aircraft/cf1_f_cfg.ks (inferred preloaded)
37,TAKEOFF,TO_CLIMB,111.92,80,-31.92,156.49,20.46,12.39,2.25,89.35,2.491,0.78,0,0,0,0,0,0,0,0,0,90.4,8,0,1,10.36,0,0,10.28,90.4,-0.7074,-0.0067,-0.7068,10.25,90.4,0,0,0,0,0,0,0,0,90.4,1,0,-1.053,0,0,3,0,0,0,10,0.055,0,0,1,1,0,0,VALID,0,0,0,0,0,1,0,0,0,0,0,0,0,0,0,0,0,0,0,0,351.51,444.66,2,0,0.08,0.08,537,14.29,0.08,0.06,36.9,FLYING,CF1-F,0:/Integrated Flight Computer/aircraft/cf1_f_cfg.ks (inferred preloaded)
37.28,TAKEOFF,TO_CLIMB,112.62,80,-32.62,166.6,20.62,12.32,2.17,89.4,2.409,0.78,0,0,0,0,0,0,0,0,0,90.4,8,0,1,10.38,0,0,10.19,90.4,-0.7063,-0.0067,-0.7079,10.17,90.4,0,0,0,0,0,0,0,0,90.4,1,0,-1.001,0,0,3,0,0,0,10,0.055,0,0,1,1,0,0,VALID,0,0,0,0,0,1,0,0,0,0,0,0,0,0,0,0,0,0,0,0,350.53,443.81,2,0,0.08,0.08,541,14.29,0.08,0.06,37.18,FLYING,CF1-F,0:/Integrated Flight Computer/aircraft/cf1_f_cfg.ks (inferred preloaded)
37.56,TAKEOFF,TO_CLIMB,113.31,80,-33.31,172.36,20.77,12.25,2.09,89.45,2.328,0.78,0,0,0,0,0,0,0,0,0,90.4,8,0,1,10.38,0,0,10.11,90.4,-0.7053,-0.0067,-0.7089,10.09,90.4,0,0,0,0,0,0,0,0,90.4,1,0,-0.952,0,0,3,0,0,0,10,0.055,0,0,1,1,0,0,VALID,0,0,0,0,0,1,0,0,0,0,0,0,0,0,0,0,0,0,0,0,349.57,442.97,2,0,0.08,0.08,545,14.29,0.08,0.06,37.46,FLYING,CF1-F,0:/Integrated Flight Computer/aircraft/cf1_f_cfg.ks (inferred preloaded)
37.84,TAKEOFF,TO_CLIMB,114.01,80,-34.01,178.17,20.9,12.17,2.01,89.5,2.245,0.78,0,0,0,0,0,0,0,0,0,90.4,8,0,1,10.39,0,0,10.03,90.4,-0.7042,-0.0067,-0.7099,10.01,90.4,0,0,0,0,0,0,0,0,90.4,1,0,-0.904,0,0,3,0,0,0,10,0.055,0,0,1,1,0,0,VALID,0,0,0,0,0,1,0,0,0,0,0,0,0,0,0,0,0,0,0,0,348.63,442.12,2,0,0.08,0.08,549,14.29,0.08,0.06,37.74,FLYING,CF1-F,0:/Integrated Flight Computer/aircraft/cf1_f_cfg.ks (inferred preloaded)
38.12,TAKEOFF,TO_CLIMB,114.7,80,-34.7,184.04,21.03,12.1,1.93,89.54,2.163,0.78,0,0,0,0,0,0,0,0,0,90.4,8,0,1,10.39,0,0,9.96,90.4,-0.7033,-0.0067,-0.7109,9.93,90.4,0,0,0,0,0,0,0,0,90.4,1,0,-0.858,0,0,3,0,0,0,10,0.055,0,0,1,1,0,0,VALID,0,0,0,0,0,1,0,0,0,0,0,0,0,0,0,0,0,0,0,0,347.72,441.28,2,0,0.08,0.08,553,14.29,0.08,0.06,38.02,FLYING,CF1-F,0:/Integrated Flight Computer/aircraft/cf1_f_cfg.ks (inferred preloaded)
38.4,TAKEOFF,TO_CLIMB,115.39,80,-35.39,189.94,21.16,12.02,1.86,89.59,2.082,0.78,0,0,0,0,0,0,0,0,0,90.4,8,0,1,10.39,0,0,9.88,90.4,-0.7023,-0.0067,-0.7118,9.86,90.4,0,0,0,0,0,0,0,0,90.4,1,0,-0.815,0,0,3,0,0,0,10,0.055,0,0,1,1,0,0,VALID,0,0,0,0,0,1,0,0,0,0,0,0,0,0,0,0,0,0,0,0,346.82,440.44,2,0,0.08,0.08,557,14.29,0.08,0.06,38.3,FLYING,CF1-F,0:/Integrated Flight Computer/aircraft/cf1_f_cfg.ks (inferred preloaded)
38.68,TAKEOFF,TO_CLIMB,116.07,80,-36.07,195.87,21.27,11.94,1.79,89.63,2.002,0.78,0,0,0,0,0,0,0,0,0,90.4,8,0,1,10.38,0,0,9.81,90.4,-0.7014,-0.0067,-0.7128,9.79,90.4,0,0,0,0,0,0,0,0,90.4,1,0,-0.773,0,0,3,0,0,0,10,0.055,0,0,1,1,0,0,VALID,0,0,0,0,0,1,0,0,0,0,0,0,0,0,0,0,0,0,0,0,345.94,439.6,2,0,0.08,0.08,561,14.29,0.08,0.06,38.58,FLYING,CF1-F,0:/Integrated Flight Computer/aircraft/cf1_f_cfg.ks (inferred preloaded)
38.96,TAKEOFF,TO_CLIMB,116.76,80,-36.76,201.82,21.38,11.86,1.72,89.67,1.925,0.78,0,0,0,0,0,0,0,0,0,90.4,8,0,1,10.38,0,0,9.75,90.4,-0.7005,-0.0067,-0.7136,9.72,90.4,0,0,0,0,0,0,0,0,90.4,1,0,-0.733,0,0,3,0,0,0,10,0.055,0,0,1,1,0,0,VALID,0,0,0,0,0,1,0,0,0,0,0,0,0,0,0,0,0,0,0,0,345.08,438.77,2,0,0.08,0.08,565,14.29,0.08,0.06,38.86,FLYING,CF1-F,0:/Integrated Flight Computer/aircraft/cf1_f_cfg.ks (inferred preloaded)
39.22,TAKEOFF,TO_CLIMB,117.39,80,-37.39,207.36,21.48,11.79,1.66,89.7,1.856,0.78,0,0,0,0,0,0,0,0,0,90.4,8,0,1,10.37,0,0,9.67,90.4,-0.6997,-0.0067,-0.7144,9.66,90.4,0,0,0,0,0,0,0,0,90.4,1,0,-0.697,0,0,3,0,0,0,10,0.055,0,0,1,1,0,0,VALID,0,0,0,0,0,1,0,0,0,0,0,0,0,0,0,0,0,0,0,0,344.3,437.99,2,0,0.06,0.06,569,15.38,0.08,0.06,39.12,FLYING,CF1-F,0:/Integrated Flight Computer/aircraft/cf1_f_cfg.ks (inferred preloaded)
39.54,TAKEOFF,TO_CLIMB,118.1,80,-38.1,214.24,21.59,11.71,1.59,89.74,1.772,0.78,0,0,0,0,0,0,0,0,0,90.4,8,0,1,10.36,0,0,9.61,90.4,-0.6988,-0.0067,-0.7153,9.59,90.4,0,0,0,0,0,0,0,0,90.4,1,0,-0.655,0,0,3,0,0,0,10,0.055,0,0,1,1,0,0,VALID,0,0,0,0,0,1,0,0,0,0,0,0,0,0,0,0,0,0,0,0,343.39,437.09,2,0,0.077,0.077,575,18.65,0.077,0.025,39.44,FLYING,CF1-F,0:/Integrated Flight Computer/aircraft/cf1_f_cfg.ks (inferred preloaded)
39.81,TAKEOFF,TO_CLIMB,118.67,80,-38.67,219.97,21.68,11.64,1.54,89.78,1.701,0.78,0,0,0,0,0,0,0,0,0,90.4,8,0,1,10.35,0,0,9.56,90.4,-0.6981,-0.0067,-0.7159,9.54,90.4,0,0,0,0,0,0,0,0,90.4,1,0,-0.623,0,0,3,0,0,0,10,0.055,0,0,1,1,0,0,VALID,0,0,0,0,0,1,0,0,0,0,0,0,0,0,0,0,0,0,0,0,342.68,436.36,2,0,0.092,0.092,579,15.05,0.092,0.031,39.71,FLYING,CF1-F,0:/Integrated Flight Computer/aircraft/cf1_f_cfg.ks (inferred preloaded)
40.09,TAKEOFF,TO_CLIMB,119.33,80,-39.33,226.19,21.78,11.57,1.48,89.81,1.628,0.78,0,0,0,0,0,0,0,0,0,90.4,8,0,1,10.34,0,0,9.5,90.4,-0.6974,-0.0067,-0.7167,9.48,90.4,0,0,0,0,0,0,0,0,90.4,1,0,-0.59,0,0,3,0,0,0,10,0.055,0,0,1,1,0,0,VALID,0,0,0,0,0,1,0,0,0,0,0,0,0,0,0,0,0,0,0,0,341.88,435.53,2,0,0.097,0.097,583,13.99,0.097,0.032,39.99,FLYING,CF1-F,0:/Integrated Flight Computer/aircraft/cf1_f_cfg.ks (inferred preloaded)
40.39,TAKEOFF,TO_CLIMB,120.03,80,-40.03,232.72,21.87,11.49,1.42,89.84,1.553,0.78,0,0,0,0,0,0,0,0,0,90.4,8,0,1,10.33,0,0,9.44,90.4,-0.6965,-0.0067,-0.7175,9.42,90.4,0,0,0,0,0,0,0,0,90.4,1,0,-0.557,0,0,3,0,0,0,10,0.055,0,0,1,1,0,0,VALID,0,0,0,0,0,1,0,0,0,0,0,0,0,0,0,0,0,0,0,0,341.05,434.66,2,0,0.101,0.101,587,13.38,0.101,0.033,40.29,FLYING,CF1-F,0:/Integrated Flight Computer/aircraft/cf1_f_cfg.ks (inferred preloaded)
