t_s,phase,subphase,ias_ms,vapp_ms,spd_err_ms,agl_m,vs_ms,pitch_deg,aoa_deg,hdg_deg,bank_deg,thr_cmd,thr_cur,thr_intg,at_gain,at_tau_s,at_a_up,at_a_dn,at_kp_thr,at_ki_spd,at_thr_slew,aa_hdg_cmd_deg,aa_fpa_cmd_deg,aa_fbw,aa_dir,actual_fpa_deg,ftf_hdg_err_deg,ftf_fix_idx,kos_steer_pit_deg,kos_steer_hdg_deg,aa_dir_vx,aa_dir_vy,aa_dir_vz,aa_dir_pitch_deg,aa_dir_hdg_deg,ils_loc_m,ils_gs_m,ils_dist_km,loc_corr_deg,gs_corr_deg,gs_latched,active_gs_ang_deg,ils_intercept_alt_m,d_gs_ms,fpa_preclamped_deg,gs_nom_alt_m,flare_fpa_cmd,flare_tgt_vs,flare_frac,steer_hdg_deg,steer_blend,ro_loc_corr_deg,ro_hdg_err_deg,ro_yaw_tgt,ro_yaw_scale,ro_yaw_gate,yaw_cmd,roll_cmd,pitch_cmd,ro_pitch_tgt_deg,ro_pitch_err_deg,ro_pitch_ff,ro_roll_assist,flaps_cur,flaps_tgt,asc_j_ab,asc_j_rk,asc_validity,asc_q_pa,asc_q_raw_pa,asc_mach,asc_apo_m,asc_drag_n,asc_w_prop,asc_edot_aero,asc_edot_orb,asc_pitch_bias,asc_blend,asc_spooling,asc_ab_thr_ratio,asc_ab_t_now,asc_ab_t_avail,asc_ab_ign_on,asc_ab_flameouts,asc_rk_t_now,asc_rk_t_avail,asc_rk_ign_on,asc_rk_flameouts,ship_thrust,ship_avail_thrust,ship_ign_on,ship_flameouts,ifc_raw_dt_s,ifc_dt_s,ifc_loop_n,ifc_hz_est,ifc_raw_dt_max_s,ifc_raw_dt_min_s,phase_el_s,status,craft_name,cfg_file
0.12,TAKEOFF,TO_PREFLIGHT,0.18,80,79.82,3.61,-0.04,-0.29,5.38,90,0.112,0.04,0,0,0,0,0,0,0,0,0,90.4,0,1,0,-1.06,0,0,0,90,0,0,0,0,0,0,0,0,0,0,0,3,0,0,0,69,0,0,0,90.4,1,0,-0.403,0,0,1,0,0,0,0,0,0,0,0,1,0,0,VALID,0,0,0,0,0,1,0,0,0,0,0,0,0,0,0,0,0,0,0,0,0,518.08,2,0,0.1,0.1,1,3.45,0.1,0.02,0.02,LANDED,CF1-H,0:/Integrated Flight Computer/aircraft/cf1_h_cfg.ks (inferred preloaded)
0.38,TAKEOFF,TO_PREFLIGHT,0.17,80,79.83,3.62,0,-0.17,-1.77,89.99,0.118,0.112,0,0,0,0,0,0,0,0,0,90.4,0,1,0,0.22,0,0,0,90,0,0,0,0,0,0,0,0,0,0,0,3,0,0,0,69,0,0,0,90.4,1,0,-0.403,0,0,1,0,0,0,0,0,0,0,1,1,0,0,VALID,0,0,0,0,0,1,0,0,0,0,0,0,0,0,0,0,0,0,0,0,0.35,518.08,2,0,0.04,0.04,6,19.23,0.1,0.04,0.28,LANDED,CF1-H,0:/Integrated Flight Computer/aircraft/cf1_h_cfg.ks (inferred preloaded)
0.64,TAKEOFF,TO_PREFLIGHT,0.06,80,79.94,3.61,0.02,-0.27,-44.77,89.99,0.109,0.216,0,0,0,0,0,0,0,0,0,90.4,0,1,0,1.29,0,0,0,90,0,0,0,0,0,0,0,0,0,0,0,3,0,0,0,69,0,0,0,90.4,1,0,-0.403,0,0,1,0,0,0,0,0,0,0,1,1,0,0,VALID,0,0,0,0,0,1,0,0,0,0,0,0,0,0,0,0,0,0,0,0,1.44,518.1,2,0,0.04,0.04,11,19.23,0.08,0.04,0.54,LANDED,CF1-H,0:/Integrated Flight Computer/aircraft/cf1_h_cfg.ks (inferred preloaded)
0.9,TAKEOFF,TO_PREFLIGHT,0.01,80,79.99,3.62,-0.04,-0.22,47.52,89.98,0.098,0.32,0,0,0,0,0,0,0,0,0,90.4,0,1,0,-2.19,0,0,0,90,0,0,0,0,0,0,0,0,0,0,0,3,0,0,0,69,0,0,0,90.4,1,0,-0.403,0,0,1,0,0,0,0,0,0,0,1,1,0,0,VALID,0,0,0,0,0,1,0,0,0,0,0,0,0,0,0,0,0,0,0,0,3.35,518.11,2,0,0.04,0.04,16,19.23,0.08,0.04,0.8,LANDED,CF1-H,0:/Integrated Flight Computer/aircraft/cf1_h_cfg.ks (inferred preloaded)
1.16,TAKEOFF,TO_PREFLIGHT,0.03,80,79.97,3.62,0.02,-0.15,-60.55,89.97,0.092,0.424,0,0,0,0,0,0,0,0,0,90.4,0,1,0,0.95,0,0,0,90,0,0,0,0,0,0,0,0,0,0,0,3,0,0,0,69,0,0,0,90.4,1,0,-0.403,0,0,1,0,0,0,0,0,0,0,1,1,0,0,VALID,0,0,0,0,0,1,0,0,0,0,0,0,0,0,0,0,0,0,0,0,6.07,518.11,2,0,0.04,0.04,21,19.23,0.08,0.04,1.06,LANDED,CF1-H,0:/Integrated Flight Computer/aircraft/cf1_h_cfg.ks (inferred preloaded)
1.42,TAKEOFF,TO_PREFLIGHT,0.02,80,79.98,3.61,0,-0.21,-0.34,89.96,0.1,0.528,0,0,0,0,0,0,0,0,0,90.4,0,1,0,0.03,0,0,0,90,0,0,0,0,0,0,0,0,0,0,0,3,0,0,0,69,0,0,0,90.4,1,0,-0.403,0,0,1,0,0,0,0,0,0,0,1,1,0,0,VALID,0,0,0,0,0,1,0,0,0,0,0,0,0,0,0,0,0,0,0,0,9.57,518.11,2,0,0.04,0.04,26,19.23,0.08,0.04,1.32,LANDED,CF1-H,0:/Integrated Flight Computer/aircraft/cf1_h_cfg.ks (inferred preloaded)
1.68,TAKEOFF,TO_PREFLIGHT,0.02,80,79.98,3.61,-0.01,-0.22,20.34,89.96,0.112,0.632,0,0,0,0,0,0,0,0,0,90.4,0,1,0,-0.61,0,0,0,90,0,0,0,0,0,0,0,0,0,0,0,3,0,0,0,69,0,0,0,90.4,1,0,-0.403,0,0,1,0,0,0,0,0,0,0,1,1,0,0,VALID,0,0,0,0,0,1,0,0,0,0,0,0,0,0,0,0,0,0,0,0,13.86,518.11,2,0,0.04,0.04,31,19.23,0.08,0.04,1.58,LANDED,CF1-H,0:/Integrated Flight Computer/aircraft/cf1_h_cfg.ks (inferred preloaded)
1.94,TAKEOFF,TO_PREFLIGHT,0.03,80,79.97,3.62,0,-0.16,36.52,89.95,0.115,0.736,0,0,0,0,0,0,0,0,0,90.4,0,1,0,0.07,0,0,0,90,0,0,0,0,0,0,0,0,0,0,0,3,0,0,0,69,0,0,0,90.4,1,0,-0.403,0,0,1,0,0,0,0,0,0,0,1,1,0,0,VALID,0,0,0,0,0,1,0,0,0,0,0,0,0,0,0,0,0,0,0,0,18.92,518.11,2,0,0.04,0.04,36,19.23,0.08,0.04,1.84,LANDED,CF1-H,0:/Integrated Flight Computer/aircraft/cf1_h_cfg.ks (inferred preloaded)
2.26,TAKEOFF,TO_PREFLIGHT,0.02,80,79.98,3.61,0,-0.19,2.5,89.93,0.108,0.864,0,0,0,0,0,0,0,0,0,90.4,0,1,0,-0.03,0,0,0,90,0,0,0,0,0,0,0,0,0,0,0,3,0,0,0,69,0,0,0,90.4,1,0,-0.403,0,0,1,0,0,0,0,0,0,0,1,1,0,0,VALID,0,0,0,0,0,1,0,0,0,0,0,0,0,0,0,0,0,0,0,0,26.17,518.11,2,0,0.08,0.08,41,15.63,0.08,0.04,2.16,LANDED,CF1-H,0:/Integrated Flight Computer/aircraft/cf1_h_cfg.ks (inferred preloaded)
2.54,TAKEOFF,TO_PREFLIGHT,0.03,80,79.97,3.61,0,-0.23,-2.1,89.92,0.101,0.976,0,0,0,0,0,0,0,0,0,90.4,0,1,0,-0.03,0,0,0,90,0,0,0,0,0,0,0,0,0,0,0,3,0,0,0,69,0,0,0,90.4,1,0,-0.403,0,0,1,0,0,0,0,0,0,0,1,1,0,0,VALID,0,0,0,0,0,1,0,0,0,0,0,0,0,0,0,0,0,0,0,0,33.42,518.11,2,0,0.08,0.08,45,14.29,0.08,0.06,2.44,LANDED,CF1-H,0:/Integrated Flight Computer/aircraft/cf1_h_cfg.ks (inferred preloaded)
2.82,TAKEOFF,TO_PREFLIGHT,0.02,80,79.98,3.61,0,-0.2,5.41,89.91,0.1,1,0,0,0,0,0,0,0,0,0,90.4,0,1,0,-0.08,0,0,0,90,0,0,0,0,0,0,0,0,0,0,0,3,0,0,0,69,0,0,0,90.4,1,0,-0.403,0,0,1,0,0,0,0,0,0,0,1,1,0,0,VALID,0,0,0,0,0,1,0,0,0,0,0,0,0,0,0,0,0,0,0,0,41.39,518.11,2,0,0.08,0.08,49,14.29,0.08,0.06,2.72,LANDED,CF1-H,0:/Integrated Flight Computer/aircraft/cf1_h_cfg.ks (inferred preloaded)
3.1,TAKEOFF,TO_PREFLIGHT,0.03,80,79.97,3.61,0,-0.22,-2.72,89.9,0.105,1,0,0,0,0,0,0,0,0,0,90.4,0,1,0,0.11,0,0,0,90,0,0,0,0,0,0,0,0,0,0,0,3,0,0,0,69,0,0,0,90.4,1,0,-0.403,0,0,1,0,0,0,0,0,0,0,1,1,0,0,VALID,0,0,0,0,0,1,0,0,0,0,0,0,0,0,0,0,0,0,0,0,49.34,518.1,2,0,0.08,0.08,53,14.29,0.08,0.06,3,LANDED,CF1-H,0:/Integrated Flight Computer/aircraft/cf1_h_cfg.ks (inferred preloaded)
3.38,TAKEOFF,TO_GROUND_ROLL,0.06,80,79.94,3.61,0,-0.22,0.18,89.89,0.11,1,0,0,0,0,0,0,0,0,0,90.41,0,1,0,-0.11,0,0,0,90,0,0,0,0,0,0,0,0,0,0,0,3,0,0,0,69,0,0,0,90.41,1,0,-0.513,0.0058,0.25,1,0.0058,0,0,0,0,0,0,1,1,0,0,VALID,0,0,0,0,0,1,0,0,0,0,0,0,0,0,0,0,0,0,0,0,57.15,518.1,2,0,0.08,0.08,57,14.29,0.08,0.06,3.3,LANDED,CF1-H,0:/Integrated Flight Computer/aircraft/cf1_h_cfg.ks (inferred preloaded)
3.66,TAKEOFF,TO_GROUND_ROLL,0.28,80,79.72,3.62,-0.01,-0.11,1.5,89.89,0.111,1,0,0,0,0,0,0,0,0,0,90.4,0,1,0,-0.53,0,0,0,90,0,0,0,0,0,0,0,0,0,0,0,3,0,0,0,69,0,0,0,90.4,1,0,-0.516,0.0058,0.25,1,0.0058,0,0,0,0,0,0,1,1,0,0,VALID,0,0,0,0,0,1,0,0,0,0,0,0,0,0,0,0,0,0,0,0,64.83,518.04,2,0,0.08,0.08,61,14.29,0.08,0.06,3.58,LANDED,CF1-H,0:/Integrated Flight Computer/aircraft/cf1_h_cfg.ks (inferred preloaded)
3.94,TAKEOFF,TO_GROUND_ROLL,0.61,80,79.39,3.62,0,-0.16,-0.47,89.89,0.108,1,0,0,0,0,0,0,0,0,0,90.4,0,1,0,0.16,0,0,0,90,0,0,0,0,0,0,0,0,0,0,0,3,0,0,0,69,0,0,0,90.4,1,0,-0.514,0.0058,0.25,1,0.0058,0,0,0,0,0,0,1,1,0,0,VALID,0,0,0,0,0,1,0,0,0,0,0,0,0,0,0,0,0,0,0,0,72.37,517.96,2,0,0.08,0.08,65,14.29,0.08,0.06,3.86,LANDED,CF1-H,0:/Integrated Flight Computer/aircraft/cf1_h_cfg.ks (inferred preloaded)
4.22,TAKEOFF,TO_GROUND_ROLL,0.98,80,79.02,3.62,-0.01,-0.15,0.43,89.89,0.103,1,0,0,0,0,0,0,0,0,0,90.4,0,1,0,-0.69,0,0,0,90,0,0,0,0,0,0,0,0,0,0,0,3,0,0,0,69,0,0,0,90.4,1,0,-0.506,0.0057,0.25,1,0.0057,0,0,0,0,0,0,1,1,0,0,VALID,0,0,0,0,0,1,0,0,0,0,0,0,0,0,0,0,0,0,0,0,79.79,517.87,2,0,0.08,0.08,69,14.29,0.08,0.06,4.14,LANDED,CF1-H,0:/Integrated Flight Computer/aircraft/cf1_h_cfg.ks (inferred preloaded)
4.5,TAKEOFF,TO_GROUND_ROLL,1.39,80,78.61,3.62,-0.01,-0.13,0.12,89.9,0.102,1,0,0,0,0,0,0,0,0,0,90.39,0,1,0,-0.26,0,0,0,90,0,0,0,0,0,0,0,0,0,0,0,3,0,0,0,69,0,0,0,90.39,1,0,-0.493,0.0055,0.25,1,0.0055,0,0,0,0,0,0,1,1,0,0,VALID,0,0,0,0,0,1,0,0,0,0,0,0,0,0,0,0,0,0,0,0,87.07,517.77,2,0,0.08,0.08,73,14.29,0.08,0.06,4.42,LANDED,CF1-H,0:/Integrated Flight Computer/aircraft/cf1_h_cfg.ks (inferred preloaded)
4.78,TAKEOFF,TO_GROUND_ROLL,1.83,80,78.17,3.62,-0.01,-0.15,0.15,89.91,0.105,1,0,0,0,0,0,0,0,0,0,90.39,0,1,0,-0.36,0,0,0,90,0,0,0,0,0,0,0,0,0,0,0,3,0,0,0,69,0,0,0,90.39,1,0,-0.476,0.0054,0.25,1,0.0054,0,0,0,0,0,0,1,1,0,0,VALID,0,0,0,0,0,1,0,0,0,0,0,0,0,0,0,0,0,0,0,0,94.23,517.66,2,0,0.08,0.08,77,14.29,0.08,0.06,4.7,LANDED,CF1-H,0:/Integrated Flight Computer/aircraft/cf1_h_cfg.ks (inferred preloaded)
5.06,TAKEOFF,TO_GROUND_ROLL,2.31,80,77.69,3.62,-0.02,-0.13,0.21,89.93,0.108,1,0,0,0,0,0,0,0,0,0,90.39,0,1,0,-0.38,0,0,0,90,0,0,0,0,0,0,0,0,0,0,0,3,0,0,0,69,0,0,0,90.39,1,0,-0.455,0.0051,0.25,1,0.0051,0,0,0,0,0,0,1,1,0,0,VALID,0,0,0,0,0,1,0,0,0,0,0,0,0,0,0,0,0,0,0,0,101.27,517.53,2,0,0.08,0.08,81,14.29,0.08,0.06,4.98,LANDED,CF1-H,0:/Integrated Flight Computer/aircraft/cf1_h_cfg.ks (inferred preloaded)
5.34,TAKEOFF,TO_GROUND_ROLL,2.82,80,77.18,3.62,-0.02,-0.13,0.15,89.95,0.107,1,0,0,0,0,0,0,0,0,0,90.38,0,1,0,-0.31,0,0,0,90,0,0,0,0,0,0,0,0,0,0,0,3,0,0,0,69,0,0,0,90.38,1,0,-0.429,0.0048,0.25,1,0.0048,0,0,0,0,0,0,1,1,0,0,VALID,0,0,0,0,0,1,0,0,0,0,0,0,0,0,0,0,0,0,0,0,108.18,517.4,2,0,0.08,0.08,85,14.29,0.08,0.06,5.26,LANDED,CF1-H,0:/Integrated Flight Computer/aircraft/cf1_h_cfg.ks (inferred preloaded)
5.62,TAKEOFF,TO_GROUND_ROLL,3.37,80,76.63,3.62,-0.02,-0.13,0.19,89.98,0.104,1,0,0,0,0,0,0,0,0,0,90.38,0,1,0,-0.36,0,0,0,90,0,0,0,0,0,0,0,0,0,0,0,3,0,0,0,69,0,0,0,90.38,1,0,-0.4,0.0045,0.25,1,0.0045,0,0,0,0,0,0,1,1,0,0,VALID,0,0,0,0,0,1,0,0,0,0,0,0,0,0,0,0,0,0,0,0,114.97,517.25,2,0,0.08,0.08,89,14.29,0.08,0.06,5.54,LANDED,CF1-H,0:/Integrated Flight Computer/aircraft/cf1_h_cfg.ks (inferred preloaded)
5.9,TAKEOFF,TO_GROUND_ROLL,3.95,80,76.05,3.62,-0.02,-0.13,0.18,90.01,0.101,1,0,0,0,0,0,0,0,0,0,90.38,0,1,0,-0.34,0,0,0,90,0,0,0,0,0,0,0,0,0,0,0,3,0,0,0,69,0,0,0,90.38,1,0,-0.367,0.004,0.25,1,0.004,0,0,0,0,0,0,1,1,0,0,VALID,0,0,0,0,0,1,0,0,0,0,0,0,0,0,0,0,0,0,0,0,121.63,517.09,2,0,0.08,0.08,93,14.29,0.08,0.06,5.82,LANDED,CF1-H,0:/Integrated Flight Computer/aircraft/cf1_h_cfg.ks (inferred preloaded)
6.18,TAKEOFF,TO_GROUND_ROLL,4.56,80,75.44,3.62,-0.03,-0.13,0.17,90.04,0.101,1,0,0,0,0,0,0,0,0,0,90.38,0,1,0,-0.33,0,0,0,90,0,0,0,0,0,0,0,0,0,0,0,3,0,0,0,69,0,0,0,90.38,1,0,-0.332,0.0034,0.25,1,0.0034,0,0,0,0,0,0,1,1,0,0,VALID,0,0,0,0,0,1,0,0,0,0,0,0,0,0,0,0,0,0,0,0,128.18,516.92,2,0,0.08,0.08,97,14.29,0.08,0.06,6.1,LANDED,CF1-H,0:/Integrated Flight Computer/aircraft/cf1_h_cfg.ks (inferred preloaded)
6.46,TAKEOFF,TO_GROUND_ROLL,5.2,80,74.8,3.62,-0.03,-0.12,0.19,90.08,0.102,1,0,0,0,0,0,0,0,0,0,90.37,0,1,0,-0.34,0,0,0,90,0,0,0,0,0,0,0,0,0,0,0,3,0,0,0,69,0,0,0,90.37,1,0,-0.295,0.0029,0.25,1,0.0029,0,0,0,0,0,0,1,1,0,0,VALID,0,0,0,0,0,1,0,0,0,0,0,0,0,0,0,0,0,0,0,0,134.62,516.74,2,0,0.08,0.08,101,14.29,0.08,0.06,6.38,LANDED,CF1-H,0:/Integrated Flight Computer/aircraft/cf1_h_cfg.ks (inferred preloaded)
6.74,TAKEOFF,TO_GROUND_ROLL,5.88,80,74.12,3.62,-0.03,-0.12,0.18,90.12,0.103,1,0,0,0,0,0,0,0,0,0,90.37,0,1,0,-0.33,0,0,0,90,0,0,0,0,0,0,0,0,0,0,0,3,0,0,0,69,0,0,0,90.37,1,0,-0.258,0.0025,0.25,1,0.0025,0,0,0,0,0,0,1,1,0,0,VALID,0,0,0,0,0,1,0,0,0,0,0,0,0,0,0,0,0,0,0,0,140.93,516.54,2,0,0.08,0.08,105,14.29,0.08,0.06,6.66,LANDED,CF1-H,0:/Integrated Flight Computer/aircraft/cf1_h_cfg.ks (inferred preloaded)
7.02,TAKEOFF,TO_GROUND_ROLL,6.58,80,73.42,3.62,-0.04,-0.12,0.19,90.15,0.102,1,0,0,0,0,0,0,0,0,0,90.37,0,1,0,-0.33,0,0,0,90,0,0,0,0,0,0,0,0,0,0,0,3,0,0,0,69,0,0,0,90.37,1,0,-0.222,0.002,0.25,1,0.002,0,0,0,0,0,0,1,1,0,0,VALID,0,0,0,0,0,1,0,0,0,0,0,0,0,0,0,0,0,0,0,0,147.13,516.32,2,0,0.08,0.08,109,14.29,0.08,0.06,6.94,LANDED,CF1-H,0:/Integrated Flight Computer/aircraft/cf1_h_cfg.ks (inferred preloaded)
7.3,TAKEOFF,TO_GROUND_ROLL,7.31,80,72.69,3.62,-0.04,-0.12,0.19,90.19,0.1,1,0,0,0,0,0,0,0,0,0,90.37,0,1,0,-0.33,0,0,0,90,0,0,0,0,0,0,0,0,-0.001,0,0,3,0,0,0,69,0,0,0,90.37,1,-0.001,-0.187,0.0016,0.25,1,0.0016,0,0,0,0,0,0,1,1,0,0,VALID,0,0,0,0,0,1,0,0,0,0,0,0,0,0,0,0,0,0,0,0,153.22,516.1,2,0,0.08,0.08,113,14.29,0.08,0.06,7.22,LANDED,CF1-H,0:/Integrated Flight Computer/aircraft/cf1_h_cfg.ks (inferred preloaded)
7.58,TAKEOFF,TO_GROUND_ROLL,8.08,80,71.92,3.62,-0.05,-0.12,0.19,90.22,0.098,1,0,0,0,0,0,0,0,0,0,90.38,0,1,0,-0.33,0,0,0,90,0,0,0,0,0,0,0,0,-0.001,0,0,3,0,0,0,69,0,0,0,90.38,1,-0.001,-0.154,0.0013,0.25,1,0.0013,0,0,0,0,0,0,1,1,0,0,VALID,0,0,0,0,0,1,0,0,0,0,0,0,0,0,0,0,0,0,0,0,159.2,515.86,2,0,0.08,0.08,117,14.29,0.08,0.06,7.5,LANDED,CF1-H,0:/Integrated Flight Computer/aircraft/cf1_h_cfg.ks (inferred preloaded)
7.86,TAKEOFF,TO_GROUND_ROLL,8.87,80,71.13,3.62,-0.05,-0.11,0.19,90.25,0.098,1,0,0,0,0,0,0,0,0,0,90.38,0,1,0,-0.33,0,0,0,90,0,0,0,0,0,0,0,0,-0.001,0,0,3,0,0,0,69,0,0,0,90.38,1,-0.001,-0.124,0.001,0.25,1,0.001,0,0,0,0,0,0,1,1,0,0,VALID,0,0,0,0,0,1,0,0,0,0,0,0,0,0,0,0,0,0,0,0,165.06,515.6,2,0,0.08,0.08,121,14.29,0.08,0.06,7.78,LANDED,CF1-H,0:/Integrated Flight Computer/aircraft/cf1_h_cfg.ks (inferred preloaded)
8.14,TAKEOFF,TO_GROUND_ROLL,9.69,80,70.31,3.62,-0.06,-0.11,0.2,90.28,0.099,1,0,0,0,0,0,0,0,0,0,90.38,0,1,0,-0.33,0,0,0,90,0,0,0,0,0,0,0,0,-0.001,0,0,3,0,0,0,69,0,0,0,90.38,1,-0.001,-0.097,0.0007,0.25,1,0.0007,0,0,0,0,0,0,1,1,0,0,VALID,0,0,0,0,0,1,0,0,0,0,0,0,0,0,0,0,0,0,0,0,170.82,515.33,2,0,0.08,0.08,125,14.29,0.08,0.06,8.06,LANDED,CF1-H,0:/Integrated Flight Computer/aircraft/cf1_h_cfg.ks (inferred preloaded)
8.42,TAKEOFF,TO_GROUND_ROLL,10.54,80,69.46,3.62,-0.06,-0.11,0.19,90.31,0.099,1,0,0,0,0,0,0,0,0,0,90.38,0,1,0,-0.33,0,0,0,90,0,0,0,0,0,0,0,0,-0.002,0,0,3,0,0,0,69,0,0,0,90.38,1,-0.002,-0.073,0.0005,0.25,1,0.0005,0,0,0,0,0,0,1,1,0,0,VALID,0,0,0,0,0,1,0,0,0,0,0,0,0,0,0,0,0,0,0,0,176.46,515.04,2,0,0.08,0.08,129,14.29,0.08,0.06,8.34,LANDED,CF1-H,0:/Integrated Flight Computer/aircraft/cf1_h_cfg.ks (inferred preloaded)
8.7,TAKEOFF,TO_GROUND_ROLL,11.42,80,68.58,3.62,-0.07,-0.11,0.2,90.33,0.1,1,0,0,0,0,0,0,0,0,0,90.38,0,1,0,-0.33,0,0,0,90,0,0,0,0,0,0,0,0,-0.002,0,0,3,0,0,0,69,0,0,0,90.38,1,-0.002,-0.053,0.0004,0.25,1,0.0004,0,0,0,0,0,0,1,1,0,0,VALID,0,0,0,0,0,1,0,0,0,0,0,0,0,0,0,0,0,0,0,0,182,514.74,2,0,0.08,0.08,133,14.29,0.08,0.06,8.62,LANDED,CF1-H,0:/Integrated Flight Computer/aircraft/cf1_h_cfg.ks (inferred preloaded)
8.98,TAKEOFF,TO_GROUND_ROLL,12.32,80,67.68,3.62,-0.07,-0.1,0.2,90.35,0.099,1,0,0,0,0,0,0,0,0,0,90.39,0,1,0,-0.33,0,0,0,90,0,0,0,0,0,0,0,0,-0.002,0,0,3,0,0,0,69,0,0,0,90.39,1,-0.002,-0.037,0.0003,0.25,1,0.0003,0,0,0,0,0,0,1,1,0,0,VALID,0,0,0,0,0,1,0,0,0,0,0,0,0,0,0,0,0,0,0,0,187.43,514.42,2,0,0.08,0.08,137,14.29,0.08,0.06,8.9,LANDED,CF1-H,0:/Integrated Flight Computer/aircraft/cf1_h_cfg.ks (inferred preloaded)
9.26,TAKEOFF,TO_GROUND_ROLL,13.25,80,66.75,3.62,-0.08,-0.1,0.2,90.36,0.1,1,0,0,0,0,0,0,0,0,0,90.39,0,1,0,-0.33,0,0,0,90,0,0,0,0,0,0,0,0,-0.003,0,0,3,0,0,0,69,0,0,0,90.39,1,-0.003,-0.025,0.0002,0.25,1,0.0002,0,0,0,0,0,0,1,1,0,0,VALID,0,0,0,0,0,1,0,0,0,0,0,0,0,0,0,0,0,0,0,0,192.75,514.08,2,0,0.08,0.08,141,14.29,0.08,0.06,9.18,LANDED,CF1-H,0:/Integrated Flight Computer/aircraft/cf1_h_cfg.ks (inferred preloaded)
9.54,TAKEOFF,TO_GROUND_ROLL,14.21,80,65.79,3.63,-0.08,-0.1,0.2,90.37,0.101,1,0,0,0,0,0,0,0,0,0,90.39,0,1,0,-0.32,0,0,0,90,0,0,0,0,0,0,0,0,-0.003,0,0,3,0,0,0,69,0,0,0,90.39,1,-0.003,-0.017,0.0001,0.25,1,0.0001,0,0,0,0,0,0,1,1,0,0,VALID,0,0,0,0,0,1,0,0,0,0,0,0,0,0,0,0,0,0,0,0,197.97,513.72,2,0,0.08,0.08,145,14.29,0.08,0.06,9.46,LANDED,CF1-H,0:/Integrated Flight Computer/aircraft/cf1_h_cfg.ks (inferred preloaded)
9.82,TAKEOFF,TO_GROUND_ROLL,15.19,80,64.81,3.63,-0.09,-0.1,0.21,90.38,0.102,1,0,0,0,0,0,0,0,0,0,90.39,0,1,0,-0.32,0,0,0,90,0,0,0,0,0,0,0,0,-0.004,0,0,3,0,0,0,69,0,0,0,90.39,1,-0.004,-0.012,0.0001,0.25,1,0.0001,0,0,0,0,0,0,1,1,0,0,VALID,0,0,0,0,0,1,0,0,0,0,0,0,0,0,0,0,0,0,0,0,203.09,513.35,2,0,0.08,0.08,149,14.29,0.08,0.06,9.74,LANDED,CF1-H,0:/Integrated Flight Computer/aircraft/cf1_h_cfg.ks (inferred preloaded)
10.1,TAKEOFF,TO_GROUND_ROLL,16.19,80,63.81,3.63,-0.09,-0.1,0.21,90.38,0.103,1,0,0,0,0,0,0,0,0,0,90.4,0,1,0,-0.32,0,0,0,90,0,0,0,0,0,0,0,0,-0.005,0,0,3,0,0,0,69,0,0,0,90.4,1,-0.005,-0.012,0.0001,0.25,1,0.0001,0,0,0,0,0,0,1,1,0,0,VALID,0,0,0,0,0,1,0,0,0,0,0,0,0,0,0,0,0,0,0,0,208.1,512.96,2,0,0.08,0.08,153,14.29,0.08,0.06,10.02,LANDED,CF1-H,0:/Integrated Flight Computer/aircraft/cf1_h_cfg.ks (inferred preloaded)
10.38,TAKEOFF,TO_GROUND_ROLL,17.22,80,62.78,3.63,-0.1,-0.09,0.21,90.38,0.104,1,0,0,0,0,0,0,0,0,0,90.39,0,1,0,-0.32,0,0,0.01,90,0,0,0,0,0,0,0,0,-0.005,0,0,3,0,0,0,69,0,0,0,90.39,1,-0.005,-0.012,0.0001,0.25,1,0.0001,0,0,0,0,0,0,1,1,0,0,VALID,0,0,0,0,0,1,0,0,0,0,0,0,0,0,0,0,0,0,0,0,213.02,512.55,2,0,0.08,0.08,157,14.29,0.08,0.06,10.3,LANDED,CF1-H,0:/Integrated Flight Computer/aircraft/cf1_h_cfg.ks (inferred preloaded)
10.66,TAKEOFF,TO_GROUND_ROLL,18.27,80,61.73,3.63,-0.1,-0.09,0.21,90.38,0.105,1,0,0,0,0,0,0,0,0,0,90.39,0,1,0,-0.32,0,0,0.01,90,0,0,0,0,0,0,0,0,-0.006,0,0,3,0,0,0,69,0,0,0,90.39,1,-0.006,-0.012,0.0001,0.25,1,0.0001,0,0,0,0,0,0,1,1,0,0,VALID,0,0,0,0,0,1,0,0,0,0,0,0,0,0,0,0,0,0,0,0,217.83,512.12,2,0,0.08,0.08,161,14.29,0.08,0.06,10.58,LANDED,CF1-H,0:/Integrated Flight Computer/aircraft/cf1_h_cfg.ks (inferred preloaded)
10.94,TAKEOFF,TO_GROUND_ROLL,19.35,80,60.65,3.63,-0.11,-0.09,0.21,90.38,0.105,1,0,0,0,0,0,0,0,0,0,90.4,0,1,0,-0.32,0,0,0.01,90,0,0,0,0,0,0,0,0,-0.007,0,0,3,0,0,0,69,0,0,0,90.4,1,-0.007,-0.017,0.0001,0.25,1,0.0001,0,0,0,0,0,0,1,1,0,0,VALID,0,0,0,0,0,1,0,0,0,0,0,0,0,0,0,0,0,0,0,0,222.54,511.67,2,0,0.08,0.08,165,14.29,0.08,0.06,10.86,LANDED,CF1-H,0:/Integrated Flight Computer/aircraft/cf1_h_cfg.ks (inferred preloaded)
11.22,TAKEOFF,TO_GROUND_ROLL,20.45,80,59.55,3.63,-0.11,-0.09,0.21,90.37,0.105,1,0,0,0,0,0,0,0,0,0,90.4,0,1,0,-0.32,0,0,0.01,90,0,0,0,0,0,0,0,0,-0.008,0,0,3,0,0,0,69,0,0,0,90.4,1,-0.008,-0.021,0.0001,0.255,0,0.0001,0,0,0,0,0,0,1,1,0,0,VALID,0,0,0,0,0,1,0,0,0,0,0,0,0,0,0,0,0,0,0,0,227.15,511.21,2,0,0.08,0.08,169,14.29,0.08,0.06,11.14,LANDED,CF1-H,0:/Integrated Flight Computer/aircraft/cf1_h_cfg.ks (inferred preloaded)
11.5,TAKEOFF,TO_GROUND_ROLL,21.57,80,58.43,3.63,-0.12,-0.09,0.21,90.37,0.105,1,0,0,0,0,0,0,0,0,0,90.39,0,1,0,-0.32,0,0,0.01,90,0,0,0,0,0,0,0,0,-0.008,0,0,3,0,0,0,69,0,0,0,90.39,1,-0.008,-0.018,0.0001,0.267,0,0.0001,0,0,0,0,0,0,1,1,0,0,VALID,0,0,0,0,0,1,0,0,0,0,0,0,0,0,0,0,0,0,0,0,231.67,510.72,2,0,0.08,0.08,173,14.29,0.08,0.06,11.42,LANDED,CF1-H,0:/Integrated Flight Computer/aircraft/cf1_h_cfg.ks (inferred preloaded)
11.78,TAKEOFF,TO_GROUND_ROLL,22.71,80,57.29,3.63,-0.13,-0.08,0.21,90.38,0.104,1,0,0,0,0,0,0,0,0,0,90.39,0,1,0,-0.32,0,0,0.01,90,0,0,0,0,0,0,0,0,-0.009,0,0,3,0,0,0,69,0,0,0,90.39,1,-0.009,-0.013,0.0001,0.279,0,0.0001,0,0,0,0,0,0,1,1,0,0,VALID,0,0,0,0,0,1,0,0,0,0,0,0,0,0,0,0,0,0,0,0,236.09,510.21,2,0,0.08,0.08,177,14.29,0.08,0.06,11.7,LANDED,CF1-H,0:/Integrated Flight Computer/aircraft/cf1_h_cfg.ks (inferred preloaded)
12.06,TAKEOFF,TO_GROUND_ROLL,23.87,80,56.13,3.63,-0.13,-0.08,0.21,90.38,0.102,1,0,0,0,0,0,0,0,0,0,90.39,0,1,0,-0.32,0,0,0.01,90,0,0,0,0,0,0,0,0,-0.01,0,0,3,0,0,0,69,0,0,0,90.39,1,-0.01,-0.012,0.0001,0.291,0,0.0001,0,0,0,0,0,0,1,1,0,0,VALID,0,0,0,0,0,1,0,0,0,0,0,0,0,0,0,0,0,0,0,0,240.41,509.69,2,0,0.08,0.08,181,14.29,0.08,0.06,11.98,LANDED,CF1-H,0:/Integrated Flight Computer/aircraft/cf1_h_cfg.ks (inferred preloaded)
12.34,TAKEOFF,TO_GROUND_ROLL,25.05,80,54.95,3.63,-0.14,-0.08,0.22,90.38,0.101,1,0,0,0,0,0,0,0,0,0,90.39,0,1,0,-0.31,0,0,0.01,90,0,0,0,0,0,0,0,0,-0.011,0,0,3,0,0,0,69,0,0,0,90.39,1,-0.011,-0.008,0.0001,0.304,0,0.0001,0,0,0,0,0,0,1,1,0,0,VALID,0,0,0,0,0,1,0,0,0,0,0,0,0,0,0,0,0,0,0,0,244.64,509.14,2,0,0.08,0.08,185,14.29,0.08,0.06,12.26,LANDED,CF1-H,0:/Integrated Flight Computer/aircraft/cf1_h_cfg.ks (inferred preloaded)
12.62,TAKEOFF,TO_GROUND_ROLL,26.25,80,53.75,3.63,-0.14,-0.08,0.22,90.38,0.103,1,0,0,0,0,0,0,0,0,0,90.39,0,1,0,-0.31,0,0,0.01,90,0,0,0,0,0,0,0,0,-0.012,0,0,3,0,0,0,69,0,0,0,90.39,1,-0.012,-0.01,0.0001,0.317,0,0.0001,0,0,0,0,0,0,1,1,0,0,VALID,0,0,0,0,0,1,0,0,0,0,0,0,0,0,0,0,0,0,0,0,248.77,508.57,2,0,0.08,0.08,189,14.29,0.08,0.06,12.54,LANDED,CF1-H,0:/Integrated Flight Computer/aircraft/cf1_h_cfg.ks (inferred preloaded)
12.9,TAKEOFF,TO_GROUND_ROLL,27.48,80,52.52,3.63,-0.15,-0.08,0.22,90.38,0.105,1,0,0,0,0,0,0,0,0,0,90.39,0,1,0,-0.31,0,0,0.01,90,0,0,0,0,0,0,0,0,-0.013,0,0,3,0,0,0,69,0,0,0,90.39,1,-0.013,-0.01,0.0001,0.33,0,0.0001,0,0,0,0,0,0,1,1,0,0,VALID,0,0,0,0,0,1,0,0,0,0,0,0,0,0,0,0,0,0,0,0,252.81,507.99,2,0,0.08,0.08,193,14.29,0.08,0.06,12.82,LANDED,CF1-H,0:/Integrated Flight Computer/aircraft/cf1_h_cfg.ks (inferred preloaded)
13.18,TAKEOFF,TO_GROUND_ROLL,28.72,80,51.28,3.63,-0.16,-0.08,0.22,90.38,0.106,1,0,0,0,0,0,0,0,0,0,90.38,0,1,0,-0.31,0,0,0.01,90,0,0,0,0,0,0,0,0,-0.014,0,0,3,0,0,0,69,0,0,0,90.38,1,-0.014,-0.007,0.0001,0.343,0,0.0001,0,0,0,0,0,0,1,1,0,0,VALID,0,0,0,0,0,1,0,0,0,0,0,0,0,0,0,0,0,0,0,0,256.76,507.38,2,0,0.08,0.08,197,14.29,0.08,0.06,13.1,LANDED,CF1-H,0:/Integrated Flight Computer/aircraft/cf1_h_cfg.ks (inferred preloaded)
13.46,TAKEOFF,TO_GROUND_ROLL,29.98,80,50.02,3.63,-0.16,-0.07,0.22,90.38,0.105,1,0,0,0,0,0,0,0,0,0,90.39,0,1,0,-0.31,0,0,0.01,90,0,0,0,0,0,0,0,0,-0.016,0,0,3,0,0,0,69,0,0,0,90.39,1,-0.016,-0.011,0.0001,0.357,0,0.0001,0,0,0,0,0,0,1,1,0,0,VALID,0,0,0,0,0,1,0,0,0,0,0,0,0,0,0,0,0,0,0,0,260.61,506.75,2,0,0.08,0.08,201,14.29,0.08,0.06,13.38,LANDED,CF1-H,0:/Integrated Flight Computer/aircraft/cf1_h_cfg.ks (inferred preloaded)
13.74,TAKEOFF,TO_GROUND_ROLL,31.26,80,48.74,3.63,-0.17,-0.07,0.22,90.37,0.104,1,0,0,0,0,0,0,0,0,0,90.38,0,1,0,-0.31,0,0,0.01,90,0,0,0,0,0,0,0,0,-0.017,0,0,3,0,0,0,69,0,0,0,90.38,1,-0.017,-0.01,0.0001,0.371,0,0.0001,0,0,0,0,0,0,1,1,0,0,VALID,0,0,0,0,0,1,0,0,0,0,0,0,0,0,0,0,0,0,0,0,264.38,506.1,2,0,0.08,0.08,205,14.29,0.08,0.06,13.66,LANDED,CF1-H,0:/Integrated Flight Computer/aircraft/cf1_h_cfg.ks (inferred preloaded)
14.02,TAKEOFF,TO_GROUND_ROLL,32.55,80,47.45,3.63,-0.18,-0.07,0.22,90.37,0.103,1,0,0,0,0,0,0,0,0,0,90.38,0,1,0,-0.31,0,0,0.01,90,0,0,0,0,0,0,0,0,-0.018,0,0,3,0,0,0,69,0,0,0,90.38,1,-0.018,-0.01,0.0001,0.384,0,0.0001,0,0,0,0,0,0,1,1,0,0,VALID,0,0,0,0,0,1,0,0,0,0,0,0,0,0,0,0,0,0,0,0,268.06,505.43,2,0,0.08,0.08,209,14.29,0.08,0.06,13.94,LANDED,CF1-H,0:/Integrated Flight Computer/aircraft/cf1_h_cfg.ks (inferred preloaded)
14.3,TAKEOFF,TO_GROUND_ROLL,33.86,80,46.14,3.63,-0.18,-0.07,0.22,90.37,0.104,1,0,0,0,0,0,0,0,0,0,90.38,0,1,0,-0.31,0,0,0.02,90,0,0,0,0,0,0,0,0,-0.019,0,0,3,0,0,0,69,0,0,0,90.38,1,-0.019,-0.013,0.0001,0.399,0,0.0001,0,0,0,0,0,0,1,1,0,0,VALID,0,0,0,0,0,1,0,0,0,0,0,0,0,0,0,0,0,0,0,0,271.64,504.74,2,0,0.08,0.08,213,14.29,0.08,0.06,14.22,LANDED,CF1-H,0:/Integrated Flight Computer/aircraft/cf1_h_cfg.ks (inferred preloaded)
14.58,TAKEOFF,TO_GROUND_ROLL,35.19,80,44.81,3.63,-0.19,-0.07,0.22,90.37,0.105,1,0,0,0,0,0,0,0,0,0,90.38,0,1,0,-0.31,0,0,0.02,90,0,0,0,0,0,0,0,0,-0.021,0,0,3,0,0,0,69,0,0,0,90.38,1,-0.021,-0.012,0.0001,0.413,0,0.0001,0,0,0,0,0,0,1,1,0,0,VALID,0,0,0,0,0,1,0,0,0,0,0,0,0,0,0,0,0,0,0,0,275.14,504.03,2,0,0.08,0.08,217,14.29,0.08,0.06,14.5,LANDED,CF1-H,0:/Integrated Flight Computer/aircraft/cf1_h_cfg.ks (inferred preloaded)
14.86,TAKEOFF,TO_GROUND_ROLL,36.54,80,43.46,3.63,-0.19,-0.07,0.22,90.37,0.105,1,0,0,0,0,0,0,0,0,0,90.38,0,1,0,-0.31,0,0,0.02,90,0,0,0,0,0,0,0,0,-0.022,0,0,3,0,0,0,69,0,0,0,90.38,1,-0.022,-0.01,0.0001,0.427,0,0.0001,0,0,0,0,0,0,1,1,0,0,VALID,0,0,0,0,0,1,0,0,0,0,0,0,0,0,0,0,0,0,0,0,278.56,503.3,2,0,0.08,0.08,221,14.29,0.08,0.06,14.78,LANDED,CF1-H,0:/Integrated Flight Computer/aircraft/cf1_h_cfg.ks (inferred preloaded)
15.14,TAKEOFF,TO_GROUND_ROLL,37.9,80,42.1,3.63,-0.2,-0.06,0.22,90.37,0.103,1,0,0,0,0,0,0,0,0,0,90.37,0,1,0,-0.3,0,0,0.02,90,0,0,0,0,0,0,0,0,-0.023,0,0,3,0,0,0,69,0,0,0,90.37,1,-0.023,-0.006,0.0001,0.442,0,0.0001,0,0,0,0,0,0,1,1,0,0,VALID,0,0,0,0,0,1,0,0,0,0,0,0,0,0,0,0,0,0,0,0,281.88,502.55,2,0,0.08,0.08,225,14.29,0.08,0.06,15.06,LANDED,CF1-H,0:/Integrated Flight Computer/aircraft/cf1_h_cfg.ks (inferred preloaded)
15.42,TAKEOFF,TO_GROUND_ROLL,39.28,80,40.72,3.63,-0.21,-0.06,0.22,90.37,0.101,1,0,0,0,0,0,0,0,0,0,90.37,0,1,0,-0.3,0,0,0.02,90,0,0,0,0,0,0,0,0,-0.025,0,0,3,0,0,0,69,0,0,0,90.37,1,-0.025,-0.003,0,0.457,0,0,0,0,0,0,0,0,1,1,0,0,VALID,0,0,0,0,0,1,0,0,0,0,0,0,0,0,0,0,0,0,0,0,285.12,501.78,2,0,0.08,0.08,229,14.29,0.08,0.06,15.34,LANDED,CF1-H,0:/Integrated Flight Computer/aircraft/cf1_h_cfg.ks (inferred preloaded)
15.7,TAKEOFF,TO_GROUND_ROLL,40.67,80,39.33,3.63,-0.21,-0.06,0.23,90.37,0.101,1,0,0,0,0,0,0,0,0,0,90.38,0,1,0,-0.3,0,0,0.02,90,0,0,0,0,0,0,0,0,-0.026,0,0,3,0,0,0,69,0,0,0,90.38,1,-0.026,-0.005,0.0001,0.471,0,0.0001,0,0,0,0,0,0,1,1,0,0,VALID,0,0,0,0,0,1,0,0,0,0,0,0,0,0,0,0,0,0,0,0,288.28,500.99,2,0,0.08,0.08,233,14.29,0.08,0.06,15.62,LANDED,CF1-H,0:/Integrated Flight Computer/aircraft/cf1_h_cfg.ks (inferred preloaded)
15.98,TAKEOFF,TO_GROUND_ROLL,42.08,80,37.92,3.63,-0.22,-0.06,0.23,90.37,0.104,1,0,0,0,0,0,0,0,0,0,90.37,0,1,0,-0.3,0,0,0.02,90,0,0,0,0,0,0,0,0,-0.028,0,0,3,0,0,0,69,0,0,0,90.37,1,-0.028,-0.005,0.0001,0.487,0,0.0001,0,0,0,0,0,0,1,1,0,0,VALID,0,0,0,0,0,1,0,0,0,0,0,0,0,0,0,0,0,0,0,0,291.36,500.17,2,0,0.08,0.08,237,14.29,0.08,0.06,15.9,LANDED,CF1-H,0:/Integrated Flight Computer/aircraft/cf1_h_cfg.ks (inferred preloaded)
16.26,TAKEOFF,TO_GROUND_ROLL,43.5,80,36.5,3.63,-0.23,-0.06,0.23,90.37,0.107,1,0,0,0,0,0,0,0,0,0,90.37,0,1,0,-0.3,0,0,0.02,90,0,0,0,0,0,0,0,0,-0.03,0,0,3,0,0,0,69,0,0,0,90.37,1,-0.03,-0.004,0.0001,0.502,0,0.0001,0,0,0,0,0,0,1,1,0,0,VALID,0,0,0,0,0,1,0,0,0,0,0,0,0,0,0,0,0,0,0,0,294.35,499.34,2,0,0.08,0.08,241,14.29,0.08,0.06,16.18,LANDED,CF1-H,0:/Integrated Flight Computer/aircraft/cf1_h_cfg.ks (inferred preloaded)
16.54,TAKEOFF,TO_GROUND_ROLL,44.93,80,35.07,3.63,-0.23,-0.06,0.23,90.36,0.107,1,0,0,0,0,0,0,0,0,0,90.37,0,1,0,-0.3,0,0,0.02,90,0,0,0,0,0,0,0,0,-0.031,0,0,3,0,0,0,69,0,0,0,90.37,1,-0.031,-0.009,0.0001,0.517,0,0.0001,0,0,0,0,0,0,1,1,0,0,VALID,0,0,0,0,0,1,0,0,0,0,0,0,0,0,0,0,0,0,0,0,297.26,498.5,2,0,0.08,0.08,245,14.29,0.08,0.06,16.46,LANDED,CF1-H,0:/Integrated Flight Computer/aircraft/cf1_h_cfg.ks (inferred preloaded)
16.82,TAKEOFF,TO_GROUND_ROLL,46.38,80,33.62,3.63,-0.24,-0.05,0.23,90.35,0.108,1,0,0,0,0,0,0,0,0,0,90.37,0,1,0,-0.3,0,0,0.03,90,0,0,0,0,0,0,0,0,-0.033,0,0,3,0,0,0,69,0,0,0,90.37,1,-0.033,-0.02,0.0003,0.533,0,0.0003,0,0,0,0,0,0,1,1,0,0,VALID,0,0,0,0,0,1,0,0,0,0,0,0,0,0,0,0,0,0,0,0,300.1,497.63,2,0,0.08,0.08,249,14.29,0.08,0.06,16.74,LANDED,CF1-H,0:/Integrated Flight Computer/aircraft/cf1_h_cfg.ks (inferred preloaded)
17.1,TAKEOFF,TO_GROUND_ROLL,47.84,80,32.16,3.63,-0.25,-0.05,0.23,90.35,0.112,1,0,0,0,0,0,0,0,0,0,90.37,0,1,0,-0.29,0,0,0.03,90,0,0,0,0,0,0,0,0,-0.035,0,0,3,0,0,0,69,0,0,0,90.37,1,-0.035,-0.024,0.0003,0.548,0,0.0003,0,0,0,0,0,0,1,1,0,0,VALID,0,0,0,0,0,1,0,0,0,0,0,0,0,0,0,0,0,0,0,0,302.85,496.74,2,0,0.08,0.08,253,14.29,0.08,0.06,17.02,LANDED,CF1-H,0:/Integrated Flight Computer/aircraft/cf1_h_cfg.ks (inferred preloaded)
17.38,TAKEOFF,TO_GROUND_ROLL,49.31,80,30.69,3.63,-0.25,-0.05,0.23,90.34,0.112,1,0,0,0,0,0,0,0,0,0,90.37,0,1,0,-0.29,0,0,0.03,90,0,0,0,0,0,0,0,0,-0.036,0,0,3,0,0,0,69,0,0,0,90.37,1,-0.036,-0.025,0.0004,0.564,0,0.0004,0,0,0,0,0,0,1,1,0,0,VALID,0,0,0,0,0,1,0,0,0,0,0,0,0,0,0,0,0,0,0,0,305.53,495.84,2,0,0.08,0.08,257,14.29,0.08,0.06,17.3,LANDED,CF1-H,0:/Integrated Flight Computer/aircraft/cf1_h_cfg.ks (inferred preloaded)
17.66,TAKEOFF,TO_GROUND_ROLL,50.79,80,29.21,3.63,-0.26,-0.05,0.23,90.34,0.107,1,0,0,0,0,0,0,0,0,0,90.36,0,1,0,-0.29,0,0,0.03,90,0,0,0,0,0,0,0,0,-0.038,0,0,3,0,0,0,69,0,0,0,90.36,1,-0.038,-0.025,0.0004,0.58,0,0.0004,0,0,0,0,0,0,1,1,0,0,VALID,0,0,0,0,0,1,0,0,0,0,0,0,0,0,0,0,0,0,0,0,308.13,494.91,2,0,0.08,0.08,261,14.29,0.08,0.06,17.58,LANDED,CF1-H,0:/Integrated Flight Computer/aircraft/cf1_h_cfg.ks (inferred preloaded)
17.94,TAKEOFF,TO_GROUND_ROLL,52.29,80,27.71,3.64,-0.26,-0.05,0.23,90.34,0.101,1,0,0,0,0,0,0,0,0,0,90.36,0,1,0,-0.29,0,0,0.03,90,0,0,0,0,0,0,0,0,-0.04,0,0,3,0,0,0,69,0,0,0,90.36,1,-0.04,-0.024,0.0004,0.596,0,0.0004,0,0,0,0,0,0,1,1,0,0,VALID,0,0,0,0,0,1,0,0,0,0,0,0,0,0,0,0,0,0,0,0,310.65,493.97,2,0,0.08,0.08,265,14.29,0.08,0.06,17.86,LANDED,CF1-H,0:/Integrated Flight Computer/aircraft/cf1_h_cfg.ks (inferred preloaded)
18.22,TAKEOFF,TO_GROUND_ROLL,53.8,80,26.2,3.64,-0.27,-0.05,0.23,90.34,0.101,1,0,0,0,0,0,0,0,0,0,90.36,0,1,0,-0.29,0,0,0.03,90,0,0,0,0,0,0,0,0,-0.042,0,0,3,0,0,0,69,0,0,0,90.36,1,-0.042,-0.025,0.0004,0.612,0,0.0004,0,0,0,0,0,0,1,1,0,0,VALID,0,0,0,0,0,1,0,0,0,0,0,0,0,0,0,0,0,0,0,0,313.1,493.02,2,0,0.08,0.08,269,14.29,0.08,0.06,18.14,LANDED,CF1-H,0:/Integrated Flight Computer/aircraft/cf1_h_cfg.ks (inferred preloaded)
18.5,TAKEOFF,TO_GROUND_ROLL,55.31,80,24.69,3.64,-0.28,-0.05,0.23,90.33,0.104,1,0,0,0,0,0,0,0,0,0,90.36,0,1,0,-0.29,0,0,0.03,90,0,0,0,0,0,0,0,0,-0.044,0,0,3,0,0,0,69,0,0,0,90.36,1,-0.044,-0.025,0.0004,0.628,0,0.0004,0,0,0,0,0,0,1,1,0,0,VALID,0,0,0,0,0,1,0,0,0,0,0,0,0,0,0,0,0,0,0,0,315.48,492.04,2,0,0.08,0.08,273,14.29,0.08,0.06,18.42,LANDED,CF1-H,0:/Integrated Flight Computer/aircraft/cf1_h_cfg.ks (inferred preloaded)
18.78,TAKEOFF,TO_GROUND_ROLL,56.84,80,23.16,3.64,-0.28,-0.04,0.23,90.33,0.107,1,0,0,0,0,0,0,0,0,0,90.36,0,1,0,-0.28,0,0,0.04,90,0,0,0,0,0,0,0,0,-0.045,0,0,3,0,0,0,69,0,0,0,90.36,1,-0.045,-0.027,0.0005,0.645,0,0.0005,0,0,0,0,0,0,1,1,0,0,VALID,0,0,0,0,0,1,0,0,0,0,0,0,0,0,0,0,0,0,0,0,317.78,491.06,2,0,0.08,0.08,277,14.29,0.08,0.06,18.7,LANDED,CF1-H,0:/Integrated Flight Computer/aircraft/cf1_h_cfg.ks (inferred preloaded)
19.06,TAKEOFF,TO_GROUND_ROLL,58.38,80,21.62,3.64,-0.29,-0.04,0.23,90.33,0.109,1,0,0,0,0,0,0,0,0,0,90.36,0,1,0,-0.28,0,0,0.04,90,0,0,0,0,0,0,0,0,-0.047,0,0,3,0,0,0,69,0,0,0,90.36,1,-0.047,-0.029,0.0005,0.661,0,0.0005,0,0,0,0,0,0,1,1,0,0,VALID,0,0,0,0,0,1,0,0,0,0,0,0,0,0,0,0,0,0,0,0,320.02,490.05,2,0,0.08,0.08,281,14.29,0.08,0.06,18.98,LANDED,CF1-H,0:/Integrated Flight Computer/aircraft/cf1_h_cfg.ks (inferred preloaded)
19.34,TAKEOFF,TO_GROUND_ROLL,59.93,80,20.07,3.64,-0.29,-0.02,0.25,90.32,0.108,1,0,0,0,0,0,0,0,0,0,90.35,0,1,0,-0.28,0,0,0.04,90,0,0,0,0,0,0,0,0,-0.049,0,0,3,0,0,0,69,0,0,0,90.35,1,-0.049,-0.033,0.0006,0.678,0,0.0006,0,0,0,0,0,0,1,1,0,0,VALID,0,0,0,0,0,1,0,0,0,0,0,0,0,0,0,0,0,0,0,0,322.18,489.03,2,0,0.08,0.08,285,14.29,0.08,0.06,19.26,LANDED,CF1-H,0:/Integrated Flight Computer/aircraft/cf1_h_cfg.ks (inferred preloaded)
19.62,TAKEOFF,TO_GROUND_ROLL,61.48,80,18.52,3.65,-0.3,0.01,0.27,90.32,0.107,1,0,0,0,0,0,0,0,0,0,90.35,0,1,0,-0.28,0,0,0.04,90,0,0,0,0,0,0,0,0,-0.051,0,0,3,0,0,0,69,0,0,0,90.35,1,-0.051,-0.035,0.0006,0.694,0,0.0006,0,0,0,0,0,0,1,1,0,0,VALID,0,0,0,0,0,1,0,0,0,0,0,0,0,0,0,0,0,0,0,0,324.28,488,2,0,0.08,0.08,289,14.29,0.08,0.06,19.54,LANDED,CF1-H,0:/Integrated Flight Computer/aircraft/cf1_h_cfg.ks (inferred preloaded)
19.9,TAKEOFF,TO_GROUND_ROLL,63.05,80,16.95,3.65,-0.3,0.05,0.31,90.31,0.107,1,0,0,0,0,0,0,0,0,0,90.35,0,1,0,-0.27,0,0,0.04,90,0,0,0,0,0,0,0,0,-0.053,0,0,3,0,0,0,69,0,0,0,90.35,1,-0.053,-0.038,0.0007,0.711,0,0.0007,0,0,0,0,0,0,1,1,0,0,VALID,0,0,0,0,0,1,0,0,0,0,0,0,0,0,0,0,0,0,0,0,326.31,486.95,2,0,0.08,0.08,293,14.29,0.08,0.06,19.82,LANDED,CF1-H,0:/Integrated Flight Computer/aircraft/cf1_h_cfg.ks (inferred preloaded)
20.18,TAKEOFF,TO_GROUND_ROLL,64.62,80,15.38,3.67,-0.21,0.09,0.26,90.31,0.108,1,0,0,0,0,0,0,0,0,0,90.35,0,1,0,-0.18,0,0,0.04,90,0,0,0,0,0,0,0,0,-0.055,0,0,3,0,0,0,69,0,0,0,90.35,1,-0.055,-0.04,0.0008,0.728,0,0.0008,0,0,0,0,0,0,1,1,0,0,VALID,0,0,0,0,0,1,0,0,0,0,0,0,0,0,0,0,0,0,0,0,328.27,485.89,2,0,0.08,0.08,297,14.29,0.08,0.06,20.1,LANDED,CF1-H,0:/Integrated Flight Computer/aircraft/cf1_h_cfg.ks (inferred preloaded)
20.46,TAKEOFF,TO_GROUND_ROLL,66.2,80,13.8,3.68,-0.34,0.16,0.45,90.3,0.105,1,0,0,0,0,0,0,0,0,0,90.35,0,1,0,-0.29,0,0,0.05,90,0,0,0,0,0,0,0,0,-0.057,0,0,3,0,0,0,69,0,0,0,90.35,1,-0.057,-0.043,0.0009,0.745,0,0.0009,0,0,0,0,0,0,1,1,0,0,VALID,0,0,0,0,0,1,0,0,0,0,0,0,0,0,0,0,0,0,0,0,330.17,484.81,2,0,0.08,0.08,301,14.29,0.08,0.06,20.38,LANDED,CF1-H,0:/Integrated Flight Computer/aircraft/cf1_h_cfg.ks (inferred preloaded)
20.74,TAKEOFF,TO_GROUND_ROLL,67.79,80,12.21,3.7,-0.32,0.23,0.48,90.3,0.104,1,0,0,0,0,0,0,0,0,0,90.34,0,1,0,-0.27,0,0,0.05,90,0,0,0,0,0,0,0,0,-0.059,0,0,3,0,0,0,69,0,0,0,90.34,1,-0.059,-0.043,0.0009,0.762,0,0.0009,0,0,0,0,0,0,1,1,0,0,VALID,0,0,0,0,0,1,0,0,0,0,0,0,0,0,0,0,0,0,0,0,332,483.73,2,0,0.08,0.08,305,14.29,0.08,0.06,20.66,LANDED,CF1-H,0:/Integrated Flight Computer/aircraft/cf1_h_cfg.ks (inferred preloaded)
21.02,TAKEOFF,TO_GROUND_ROLL,69.38,80,10.62,3.71,-0.38,0.27,0.56,90.3,0.103,1,0,0,0,0,0,0,0,0,0,90.34,0,1,0,-0.31,0,0,0.05,90,0,0,0,0,0,0,0,0,-0.061,0,0,3,0,0,0,69,0,0,0,90.34,1,-0.061,-0.044,0.0009,0.779,0,0.0009,0,0,0,0,0,0,1,1,0,0,VALID,0,0,0,0,0,1,0,0,0,0,0,0,0,0,0,0,0,0,0,0,333.78,482.63,2,0,0.08,0.08,309,14.29,0.08,0.06,20.94,LANDED,CF1-H,0:/Integrated Flight Computer/aircraft/cf1_h_cfg.ks (inferred preloaded)
21.32,TAKEOFF,TO_ROTATE,71.1,80,8.9,3.71,-0.31,0.32,0.55,90.29,0.103,1,0,0,0,0,0,0,0,0,0,90.34,0.722,1,0,-0.24,0,0,0.05,90,0,0,0,0,0,0,0,0,-0.064,0,0,3,0,0,0,69,0,0,0,90.34,1,-0.064,-0.043,0.0009,0.796,0,0.0009,0,0.12,0.722,0.406,0.08,0,1,1,0,0,VALID,0,0,0,0,0,1,0,0,0,0,0,0,0,0,0,0,0,0,0,0,335.61,481.44,2,0,0.08,0.08,313,13.33,0.08,0.06,21.22,LANDED,CF1-H,0:/Integrated Flight Computer/aircraft/cf1_h_cfg.ks (inferred preloaded)
21.6,TAKEOFF,TO_ROTATE,72.7,80,7.3,3.72,-0.33,0.38,0.63,90.29,0.102,1,0,0,0,0,0,0,0,0,0,90.33,1.562,1,0,-0.26,0,0,0.05,90,0,0,0,0,0,0,0,0,-0.066,0,0,3,0,0,0,69,0,0,0,90.33,1,-0.066,-0.042,0.0009,0.813,0,0.0009,0,0.1747,1.562,1.184,0.08,0,1,1,0,0,VALID,0,0,0,0,0,1,0,0,0,0,0,0,0,0,0,0,0,0,0,0,337.26,480.33,2,0,0.08,0.08,317,14.29,0.08,0.06,21.5,LANDED,CF1-H,0:/Integrated Flight Computer/aircraft/cf1_h_cfg.ks (inferred preloaded)
21.88,TAKEOFF,TO_ROTATE,74.31,80,5.69,3.75,-0.33,0.52,0.77,90.29,0.101,1,0,0,0,0,0,0,0,0,0,90.33,2.402,1,0,-0.25,0,0,0.06,90,0,0,0,0,0,0,0,0,-0.068,0,0,3,0,0,0,69,0,0,0,90.33,1,-0.068,-0.04,0.0009,0.831,0,0.0009,0,0.2301,2.402,1.877,0.08,0,1,1,0,0,VALID,0,0,0,0,0,1,0,0,0,0,0,0,0,0,0,0,0,0,0,0,338.85,479.2,2,0,0.08,0.08,321,14.29,0.08,0.06,21.78,LANDED,CF1-H,0:/Integrated Flight Computer/aircraft/cf1_h_cfg.ks (inferred preloaded)
22.18,TAKEOFF,TO_ROTATE,76.04,80,3.96,3.8,-0.32,0.79,1.03,90.29,0.099,1,0,0,0,0,0,0,0,0,0,90.33,3.302,1,0,-0.24,0,0,0.06,90,0,0,0,0,0,0,0,0,-0.07,0,0,3,0,0,0,69,0,0,0,90.33,1,-0.07,-0.036,0.0008,0.849,0,0.0008,0,0.2807,3.302,2.509,0.08,0,1,1,0,0,VALID,0,0,0,0,0,1,0,0,0,0,0,0,0,0,0,0,0,0,0,0,340.49,477.99,2,0,0.08,0.08,325,13.33,0.08,0.06,22.08,LANDED,CF1-H,0:/Integrated Flight Computer/aircraft/cf1_h_cfg.ks (inferred preloaded)
22.46,TAKEOFF,TO_ROTATE,77.65,80,2.35,3.86,-0.33,1.09,1.32,90.29,0.096,1,0,0,0,0,0,0,0,0,0,90.33,4.142,1,0,-0.24,0,0,0.06,90,0,0,0,0,0,0,0,0,-0.073,0,0,3,0,0,0,69,0,0,0,90.33,1,-0.073,-0.031,0.0007,0.866,0,0.0007,0,0.3239,4.142,3.049,0.08,0,1,1,0,0,VALID,0,0,0,0,0,1,0,0,0,0,0,0,0,0,0,0,0,0,0,0,341.97,476.85,2,0,0.08,0.08,329,14.29,0.08,0.06,22.36,LANDED,CF1-H,0:/Integrated Flight Computer/aircraft/cf1_h_cfg.ks (inferred preloaded)
22.74,TAKEOFF,TO_ROTATE,79.26,80,0.74,3.91,-0.32,1.37,1.59,90.3,0.093,1,0,0,0,0,0,0,0,0,0,90.32,4.982,1,0,-0.23,0,0,0.06,90,0,0,0,0,0,0,0,0,-0.075,0,0,3,0,0,0,69,0,0,0,90.32,1,-0.075,-0.024,0.0006,0.884,0,0.0006,0,0.3691,4.982,3.614,0.08,0,1,1,0,0,VALID,0,0,0,0,0,1,0,0,0,0,0,0,0,0,0,0,0,0,0,0,343.4,475.72,2,0,0.08,0.08,333,14.29,0.08,0.06,22.64,LANDED,CF1-H,0:/Integrated Flight Computer/aircraft/cf1_h_cfg.ks (inferred preloaded)
23.02,TAKEOFF,TO_ROTATE,80.86,80,-0.86,3.96,-0.31,1.63,1.84,90.3,0.089,1,0,0,0,0,0,0,0,0,0,90.32,5.822,1,0,-0.22,0,0,0.06,90,0,0,0,0,0,0,0,0,-0.077,0,0,3,0,0,0,69,0,0,0,90.32,1,-0.077,-0.016,0.0004,0.901,0,0.0004,0,0.415,5.822,4.188,0.08,0,1,1,0,0,VALID,0,0,0,0,0,1,0,0,0,0,0,0,0,0,0,0,0,0,0,0,344.78,474.58,2,0,0.08,0.08,337,14.29,0.08,0.06,22.92,LANDED,CF1-H,0:/Integrated Flight Computer/aircraft/cf1_h_cfg.ks (inferred preloaded)
23.3,TAKEOFF,TO_ROTATE,82.46,80,-2.46,4.06,-0.3,1.96,2.13,90.31,0.086,1,0,0,0,0,0,0,0,0,0,90.32,6.662,1,0,-0.17,0,0,0.07,90,0,0,0,0,0,0,0,0,-0.08,0,0,3,0,0,0,69,0,0,0,90.32,1,-0.08,-0.007,0.0002,0.918,0,0.0002,0,0.45,6.662,4.699,0.08,0,1,1,0,0,VALID,0,0,0,0,0,1,0,0,0,0,0,0,0,0,0,0,0,0,0,0,346.11,473.44,2,0,0.08,0.08,341,14.29,0.08,0.06,23.2,LANDED,CF1-H,0:/Integrated Flight Computer/aircraft/cf1_h_cfg.ks (inferred preloaded)
23.58,TAKEOFF,TO_ROTATE,84.05,80,-4.05,4.18,-0.19,2.63,2.77,90.31,0.088,1,0,0,0,0,0,0,0,0,0,90.31,7.502,1,0,-0.14,0,0,0.07,90,0,0,0,0,0,0,0,0,-0.083,0,0,3,0,0,0,69,0,0,0,90.31,1,-0.083,0.002,0,0.935,0,0,0,0.45,7.502,4.872,0.08,0,1,1,0,0,VALID,0,0,0,0,0,1,0,0,0,0,0,0,0,0,0,0,0,0,0,0,347.41,472.31,2,0,0.08,0.08,345,14.29,0.08,0.06,23.48,LANDED,CF1-H,0:/Integrated Flight Computer/aircraft/cf1_h_cfg.ks (inferred preloaded)
23.86,TAKEOFF,TO_ROTATE,85.61,80,-5.61,4.35,-0.3,3.47,3.67,90.32,0.088,1,0,0,0,0,0,0,0,0,0,90.31,8.342,1,0,-0.2,0,0,0.07,90,0,0,0,0,0,0,0,0,-0.085,0,0,3,0,0,0,69,0,0,0,90.31,1,-0.085,0.011,-0.0003,0.952,0,-0.0003,0,0.45,8.342,4.868,0.08,0,1,1,0,0,VALID,0,0,0,0,0,1,0,0,0,0,0,0,0,0,0,0,0,0,0,0,348.66,471.2,2,0,0.08,0.08,349,14.29,0.08,0.06,23.76,LANDED,CF1-H,0:/Integrated Flight Computer/aircraft/cf1_h_cfg.ks (inferred preloaded)
24.14,TAKEOFF,TO_ROTATE,87.13,80,-7.13,4.56,-0.2,4.5,4.63,90.33,0.086,1,0,0,0,0,0,0,0,0,0,90.31,9.182,1,0,-0.13,0,0,0.07,90,0,0,0,0,0,0,0,0,-0.088,0,0,3,0,0,0,69,0,0,0,90.31,1,-0.088,0.021,-0.0005,0.968,0,-0.0005,0,0.45,9.182,4.678,0.08,0,1,1,0,0,VALID,0,0,0,0,0,1,0,0,0,0,0,0,0,0,0,0,0,0,0,0,349.9,470.11,2,0,0.08,0.08,353,14.29,0.08,0.06,24.04,LANDED,CF1-H,0:/Integrated Flight Computer/aircraft/cf1_h_cfg.ks (inferred preloaded)
24.4,TAKEOFF,TO_ROTATE,88.49,80,-8.49,4.79,0.05,5.55,5.48,90.33,0.067,1,0,0,0,0,0,0,0,0,0,90.4,10,1,0,0.03,0,0,0.08,90,-0.9337,-0.0067,0.3579,10,90.4,0,0,0,0,0,0,3,0,0,0,69,0,0,0,90.4,1,0,-0.067,0,0,3,0,0,0,10,4.447,0,0,1,1,0,0,VALID,0,0,0,0,0,1,0,0,0,0,0,0,0,0,0,0,0,0,0,0,351.03,469.14,2,0,0.08,0.08,357,15.38,0.08,0.06,24.3,FLYING,CF1-H,0:/Integrated Flight Computer/aircraft/cf1_h_cfg.ks (inferred preloaded)
24.68,TAKEOFF,TO_ROTATE,89.89,80,-9.89,5.09,0.72,6.07,5.64,90.33,0.067,1,0,0,0,0,0,0,0,0,0,90.4,10,0,1,0.46,0,0,10,90.4,-0.9337,-0.0067,0.3579,10,90.4,0,0,0,0,0,0,3,0,0,0,69,0,0,0,90.4,1,0,-0.067,0,0,3,0,0,0,10,3.931,0,0,1,1,0,0,VALID,0,0,0,0,0,1,0,0,0,0,0,0,0,0,0,0,0,0,0,0,352.24,468.12,2,0,0.08,0.08,361,14.29,0.08,0.06,24.58,FLYING,CF1-H,0:/Integrated Flight Computer/aircraft/cf1_h_cfg.ks (inferred preloaded)
24.96,TAKEOFF,TO_ROTATE,91.26,80,-11.26,5.52,1.38,6.3,5.49,90.34,0.067,1,0,0,0,0,0,0,0,0,0,90.4,10,0,1,0.87,0,0,10,90.4,-0.9337,-0.0067,0.3579,10,90.4,0,0,0,0,0,0,3,0,0,0,69,0,0,0,90.4,1,0,-0.064,0,0,3,0,0,0,10,3.698,0,0,1,1,0,0,VALID,0,0,0,0,0,1,0,0,0,0,0,0,0,0,0,0,0,0,0,0,353.41,467.12,2,0,0.08,0.08,365,14.29,0.08,0.06,24.86,FLYING,CF1-H,0:/Integrated Flight Computer/aircraft/cf1_h_cfg.ks (inferred preloaded)
25.24,TAKEOFF,TO_CLIMB,92.62,80,-12.62,6.12,2.09,6.27,5.07,90.34,0.066,0.968,0,0,0,0,0,0,0,0,0,90.4,6.455,0,1,1.29,0,0,10,90.4,-0.9541,-0.0069,0.2994,6.46,90.4,0,0,0,0,0,0,3,0,0,0,69,0,0,0,90.4,1,0,-0.062,0,0,3,0,0,0,10,3.673,0,0,1,1,0,0,VALID,0,0,0,0,0,1,0,0,0,0,0,0,0,0,0,0,0,0,0,0,354.54,466.11,2,0,0.08,0.08,369,14.29,0.08,0.06,25.14,FLYING,CF1-H,0:/Integrated Flight Computer/aircraft/cf1_h_cfg.ks (inferred preloaded)
25.52,TAKEOFF,TO_CLIMB,94,80,-14,6.82,2.64,5.8,4.3,90.34,0.066,0.86,0,0,0,0,0,0,0,0,0,90.4,6.903,0,1,1.61,0,0,6.78,90.4,-0.9517,-0.0068,0.3068,6.9,90.4,0,0,0,0,0,0,3,0,0,0,69,0,0,0,90.4,1,0,-0.06,0,0,3,0,0,0,10,3.673,0,0,1,1,0,0,VALID,0,0,0,0,0,1,0,0,0,0,0,0,0,0,0,0,0,0,0,0,355.16,465.08,2,0,0.08,0.08,373,14.29,0.08,0.06,25.42,FLYING,CF1-H,0:/Integrated Flight Computer/aircraft/cf1_h_cfg.ks (inferred preloaded)
25.8,TAKEOFF,TO_CLIMB,95.4,80,-15.4,7.67,2.95,5.49,3.81,90.34,0.066,0.846,0,0,0,0,0,0,0,0,0,90.4,7.351,0,1,1.77,0,0,7.22,90.4,-0.9493,-0.0068,0.3142,7.35,90.4,0,0,0,0,0,0,3,0,0,0,69,0,0,0,90.4,1,0,-0.057,0,0,3,0,0,0,10,3.673,0,0,1,1,0,0,VALID,0,0,0,0,0,1,0,0,0,0,0,0,0,0,0,0,0,0,0,0,355.1,464.02,2,0,0.08,0.08,377,14.29,0.08,0.06,25.7,FLYING,CF1-H,0:/Integrated Flight Computer/aircraft/cf1_h_cfg.ks (inferred preloaded)
26.08,TAKEOFF,TO_CLIMB,96.82,80,-16.82,8.62,3.21,5.38,3.57,90.35,0.065,0.8318,0,0,0,0,0,0,0,0,0,90.4,7.799,0,1,1.9,0,0,7.67,90.4,-0.9469,-0.0068,0.3216,7.8,90.4,0,0,0,0,0,0,3,0,0,0,69,0,0,0,90.4,1,0,-0.055,0,0,3,0,0,0,10,3.673,0,0,1,1,0,0,VALID,0,0,0,0,0,1,0,0,0,0,0,0,0,0,0,0,0,0,0,0,354.88,462.94,2,0,0.08,0.08,381,14.29,0.08,0.06,25.98,FLYING,CF1-H,0:/Integrated Flight Computer/aircraft/cf1_h_cfg.ks (inferred preloaded)
26.36,TAKEOFF,TO_CLIMB,98.24,80,-18.24,9.65,3.48,5.32,3.38,90.35,0.063,0.8176,0,0,0,0,0,0,0,0,0,90.4,8,0,1,2.03,0,0,8,90.4,-0.9457,-0.0068,0.3248,8,90.4,0,0,0,0,0,0,3,0,0,0,69,0,0,0,90.4,1,0,-0.053,0,0,3,0,0,0,10,3.673,0,0,1,1,0,0,VALID,0,0,0,0,0,1,0,0,0,0,0,0,0,0,0,0,0,0,0,0,354.53,461.87,2,0,0.08,0.08,385,14.29,0.08,0.06,26.26,FLYING,CF1-H,0:/Integrated Flight Computer/aircraft/cf1_h_cfg.ks (inferred preloaded)
26.64,TAKEOFF,TO_CLIMB,99.65,80,-19.65,10.76,3.75,5.26,3.19,90.35,0.061,0.8035,0,0,0,0,0,0,0,0,0,90.4,8,0,1,2.16,0,0,8,90.4,-0.9458,-0.0068,0.3248,8,90.4,0,0,0,0,0,0,3,0,0,0,69,0,0,0,90.4,1,0,-0.051,0,0,3,0,0,0,10,3.673,0,0,1,1,0,0,VALID,0,0,0,0,0,1,0,0,0,0,0,0,0,0,0,0,0,0,0,0,354.07,460.79,2,0,0.08,0.08,389,14.29,0.08,0.06,26.54,FLYING,CF1-H,0:/Integrated Flight Computer/aircraft/cf1_h_cfg.ks (inferred preloaded)
26.92,TAKEOFF,TO_CLIMB,101.07,80,-21.07,11.95,4.02,5.2,3.02,90.35,0.06,0.7893,0,0,0,0,0,0,0,0,0,90.4,8,0,1,2.28,0,0,8,90.4,-0.9458,-0.0068,0.3248,8,90.4,0,0,0,0,0,0,3,0,0,0,69,0,0,0,90.4,1,0,-0.049,0,0,3,0,0,0,10,3.673,0,0,1,1,0,0,VALID,0,0,0,0,0,1,0,0,0,0,0,0,0,0,0,0,0,0,0,0,353.48,459.71,2,0,0.08,0.08,393,14.29,0.08,0.06,26.82,FLYING,CF1-H,0:/Integrated Flight Computer/aircraft/cf1_h_cfg.ks (inferred preloaded)
27.2,TAKEOFF,TO_CLIMB,102.47,80,-22.47,13.21,4.3,5.15,2.84,90.35,0.059,0.78,0,0,0,0,0,0,0,0,0,90.4,8,0,1,2.4,0,0,8,90.4,-0.9458,-0.0068,0.3247,8,90.4,0,0,0,0,0,0,3,0,0,0,69,0,0,0,90.4,1,0,-0.047,0,0,3,0,0,0,10,3.673,0,0,1,1,0,0,VALID,0,0,0,0,0,1,0,0,0,0,0,0,0,0,0,0,0,0,0,0,352.79,458.63,2,0,0.08,0.08,397,14.29,0.08,0.06,27.1,FLYING,CF1-H,0:/Integrated Flight Computer/aircraft/cf1_h_cfg.ks (inferred preloaded)
27.48,TAKEOFF,TO_CLIMB,103.88,80,-23.88,14.56,4.57,5.1,2.67,90.36,0.057,0.78,0,0,0,0,0,0,0,0,0,90.4,8,0,1,2.52,0,0,8,90.4,-0.9458,-0.0068,0.3247,8,90.4,0,0,0,0,0,0,3,0,0,0,69,0,0,0,90.4,1,0,-0.045,0,0,3,0,0,0,10,3.673,0,0,1,1,0,0,VALID,0,0,0,0,0,1,0,0,0,0,0,0,0,0,0,0,0,0,0,0,352.04,457.56,2,0,0.08,0.08,401,14.29,0.08,0.06,27.38,FLYING,CF1-H,0:/Integrated Flight Computer/aircraft/cf1_h_cfg.ks (inferred preloaded)
27.76,TAKEOFF,TO_CLIMB,105.27,80,-25.27,15.97,4.91,5.02,2.46,90.36,0.056,0.78,0,0,0,0,0,0,0,0,0,90.4,8,0,1,2.67,0,0,8,90.4,-0.9458,-0.0068,0.3246,8,90.4,0,0,0,0,0,0,3,0,0,0,69,0,0,0,90.4,1,0,-0.044,0,0,3,0,0,0,10,3.673,0,0,1,1,0,0,VALID,0,0,0,0,0,1,0,0,0,0,0,0,0,0,0,0,0,0,0,0,351.3,456.48,2,0,0.08,0.08,405,14.29,0.08,0.06,27.66,FLYING,CF1-H,0:/Integrated Flight Computer/aircraft/cf1_h_cfg.ks (inferred preloaded)
28.04,TAKEOFF,TO_CLIMB,106.65,80,-26.65,17.48,5.19,4.86,2.18,90.36,0.055,0.78,0,0,0,0,0,0,0,0,0,90.4,8,0,1,2.79,0,0,8,90.4,-0.9458,-0.0068,0.3246,8,90.4,0,0,0,0,0,0,3,0,0,0,69,0,0,0,90.4,1,0,-0.044,0,0,3,0,0,0,10,3.673,0,0,1,1,0,0,VALID,0,0,0,0,0,1,0,0,0,0,0,0,0,0,0,0,0,0,0,0,350.56,455.42,2,0,0.08,0.08,409,14.29,0.08,0.06,27.94,FLYING,CF1-H,0:/Integrated Flight Computer/aircraft/cf1_h_cfg.ks (inferred preloaded)
28.32,TAKEOFF,TO_CLIMB,108.03,80,-28.03,19.06,5.45,4.8,2.02,90.36,0.054,0.78,0,0,0,0,0,0,0,0,0,90.4,8,0,1,2.89,0,0,8,90.4,-0.9459,-0.0068,0.3245,8,90.4,0,0,0,0,0,0,3,0,0,0,69,0,0,0,90.4,1,0,-0.044,0,0,3,0,0,0,10,3.673,0,0,1,1,0,0,VALID,0,0,0,0,0,1,0,0,0,0,0,0,0,0,0,0,0,0,0,0,349.81,454.35,2,0,0.08,0.08,413,14.29,0.08,0.06,28.22,FLYING,CF1-H,0:/Integrated Flight Computer/aircraft/cf1_h_cfg.ks (inferred preloaded)
28.6,TAKEOFF,TO_CLIMB,109.41,80,-29.41,20.72,5.7,4.76,1.88,90.36,0.053,0.78,0,0,0,0,0,0,0,0,0,90.4,8,0,1,2.98,0,0,8,90.4,-0.9459,-0.0068,0.3245,8,90.4,0,0,0,0,0,0,3,0,0,0,69,0,0,0,90.4,1,0,-0.044,0,0,3,0,0,0,10,3.673,0,0,1,1,0,0,VALID,0,0,0,0,0,1,0,0,0,0,0,0,0,0,0,0,0,0,0,0,349.07,453.28,2,0,0.08,0.08,417,14.29,0.08,0.06,28.5,FLYING,CF1-H,0:/Integrated Flight Computer/aircraft/cf1_h_cfg.ks (inferred preloaded)
28.88,TAKEOFF,TO_CLIMB,110.79,80,-30.79,22.46,5.96,4.72,1.75,90.36,0.053,0.78,0,0,0,0,0,0,0,0,0,90.4,8,0,1,3.08,0,0,8,90.4,-0.9459,-0.0068,0.3244,8,90.4,0,0,0,0,0,0,3,0,0,0,69,0,0,0,90.4,1,0,-0.045,0,0,3,0,0,0,10,3.673,0,0,1,1,0,0,VALID,0,0,0,0,0,1,0,0,0,0,0,0,0,0,0,0,0,0,0,0,348.33,452.22,2,0,0.08,0.08,421,14.29,0.08,0.06,28.78,FLYING,CF1-H,0:/Integrated Flight Computer/aircraft/cf1_h_cfg.ks (inferred preloaded)
29.16,TAKEOFF,TO_CLIMB,112.16,80,-32.16,24.26,6.21,4.69,1.63,90.36,0.051,0.78,0,0,0,0,0,0,0,0,0,90.4,8,0,1,3.17,0,0,8,90.4,-0.9459,-0.0068,0.3244,8,90.4,0,0,0,0,0,0,3,0,0,0,69,0,0,0,90.4,1,0,-0.045,0,0,3,0,0,0,10,3.673,0,0,1,1,0,0,VALID,0,0,0,0,0,1,0,0,0,0,0,0,0,0,0,0,0,0,0,0,347.58,451.16,2,0,0.08,0.08,425,14.29,0.08,0.06,29.06,FLYING,CF1-H,0:/Integrated Flight Computer/aircraft/cf1_h_cfg.ks (inferred preloaded)
29.44,TAKEOFF,TO_CLIMB,113.52,80,-33.52,26.14,6.37,4.77,1.65,90.36,0.05,0.78,0,0,0,0,0,0,0,0,0,90.4,8,0,1,3.21,0,0,8,90.4,-0.9459,-0.0068,0.3243,8,90.4,0,0,0,0,0,0,3,0,0,0,69,0,0,0,90.4,1,0,-0.043,0,0,3,0,0,0,10,3.673,0,0,1,1,0,0,VALID,0,0,0,0,0,1,0,0,0,0,0,0,0,0,0,0,0,0,0,0,346.84,450.1,2,0,0.08,0.08,429,14.29,0.08,0.06,29.34,FLYING,CF1-H,0:/Integrated Flight Computer/aircraft/cf1_h_cfg.ks (inferred preloaded)
29.72,TAKEOFF,TO_CLIMB,114.88,80,-34.88,28.07,6.66,4.77,1.57,90.36,0.051,0.78,0,0,0,0,0,0,0,0,0,90.4,8,0,1,3.32,0,0,8,90.4,-0.9459,-0.0068,0.3243,8,90.4,0,0,0,0,0,0,3,0,0,0,69,0,0,0,90.4,1,0,-0.041,0,0,3,0,0,0,10,3.673,0,0,1,1,0,0,VALID,0,0,0,0,0,1,0,0,0,0,0,0,0,0,0,0,0,0,0,0,346.1,449.05,2,0,0.08,0.08,433,14.29,0.08,0.06,29.62,FLYING,CF1-H,0:/Integrated Flight Computer/aircraft/cf1_h_cfg.ks (inferred preloaded)
30,TAKEOFF,TO_CLIMB,116.23,80,-36.23,30.07,6.91,4.75,1.46,90.36,0.051,0.78,0,0,0,0,0,0,0,0,0,90.4,8,0,1,3.4,0,0,8,90.4,-0.946,-0.0068,0.3242,8,90.4,0,0,0,0,0,0,3,0,0,0,69,0,0,0,90.4,1,0,-0.039,0,0,3,0,0,0,10,3.673,0,0,1,1,0,0,VALID,0,0,0,0,0,1,0,0,0,0,0,0,0,0,0,0,0,0,0,0,345.37,448,2,0,0.08,0.08,437,14.29,0.08,0.06,29.9,FLYING,CF1-H,0:/Integrated Flight Computer/aircraft/cf1_h_cfg.ks (inferred preloaded)
30.28,TAKEOFF,TO_CLIMB,117.57,80,-37.57,32.15,7.18,4.75,1.37,90.36,0.051,0.78,0,0,0,0,0,0,0,0,0,90.4,8,0,1,3.49,0,0,8,90.4,-0.946,-0.0068,0.3242,8,90.4,0,0,0,0,0,0,3,0,0,0,69,0,0,0,90.4,1,0,-0.037,0,0,3,0,0,0,10,3.673,0,0,1,1,0,0,VALID,0,0,0,0,0,1,0,0,0,0,0,0,0,0,0,0,0,0,0,0,344.63,446.96,2,0,0.08,0.08,441,14.29,0.08,0.06,30.18,FLYING,CF1-H,0:/Integrated Flight Computer/aircraft/cf1_h_cfg.ks (inferred preloaded)
30.56,TAKEOFF,TO_CLIMB,118.91,80,-38.91,34.29,7.45,4.72,1.25,90.36,0.05,0.78,0,0,0,0,0,0,0,0,0,90.4,8,0,1,3.58,0,0,8,90.4,-0.946,-0.0068,0.3241,8,90.4,0,0,0,0,0,0,3,0,0,0,69,0,0,0,90.4,1,0,-0.035,0,0,3,0,0,0,10,3.673,0,0,1,1,0,0,VALID,0,0,0,0,0,1,0,0,0,0,0,0,0,0,0,0,0,0,0,0,343.9,445.93,2,0,0.08,0.08,445,14.29,0.08,0.06,30.46,FLYING,CF1-H,0:/Integrated Flight Computer/aircraft/cf1_h_cfg.ks (inferred preloaded)
30.84,TAKEOFF,TO_CLIMB,120.24,80,-40.24,36.51,7.71,4.7,1.15,90.37,0.05,0.78,0,0,0,0,0,0,0,0,0,90.4,8,0,1,3.67,0,0,8,90.4,-0.946,-0.0068,0.324,8,90.4,0,0,0,0,0,0,3,0,0,0,69,0,0,0,90.4,1,0,-0.034,0,0,3,0,0,0,10,3.673,0,0,1,1,0,0,VALID,0,0,0,0,0,1,0,0,0,0,0,0,0,0,0,0,0,0,0,0,343.17,444.9,2,0,0.08,0.08,449,14.29,0.08,0.06,30.74,FLYING,CF1-H,0:/Integrated Flight Computer/aircraft/cf1_h_cfg.ks (inferred preloaded)
31.12,TAKEOFF,TO_CLIMB,121.56,80,-41.56,38.79,7.96,4.69,1.06,90.37,0.049,0.78,0,0,0,0,0,0,0,0,0,90.4,8,0,1,3.74,0,0,8,90.4,-0.946,-0.0068,0.324,8,90.4,0,0,0,0,0,0,3,0,0,0,69,0,0,0,90.4,1,0,-0.032,0,0,3,0,0,0,10,3.673,0,0,1,1,0,0,VALID,0,0,0,0,0,1,0,0,0,0,0,0,0,0,0,0,0,0,0,0,342.45,443.87,2,0,0.08,0.08,453,14.29,0.08,0.06,31.02,FLYING,CF1-H,0:/Integrated Flight Computer/aircraft/cf1_h_cfg.ks (inferred preloaded)
31.4,TAKEOFF,TO_CLIMB,122.88,80,-42.88,41.15,8.22,4.68,0.97,90.37,0.048,0.78,0,0,0,0,0,0,0,0,0,90.4,8,0,1,3.82,0,0,8,90.4,-0.9461,-0.0068,0.3239,8,90.4,0,0,0,0,0,0,3,0,0,0,69,0,0,0,90.4,1,0,-0.031,0,0,3,0,0,0,10,3.673,0,0,1,1,0,0,VALID,0,0,0,0,0,1,0,0,0,0,0,0,0,0,0,0,0,0,0,0,341.73,442.85,2,0,0.08,0.08,457,14.29,0.08,0.06,31.3,FLYING,CF1-H,0:/Integrated Flight Computer/aircraft/cf1_h_cfg.ks (inferred preloaded)
31.68,TAKEOFF,TO_CLIMB,124.19,80,-44.19,43.59,8.47,4.66,0.88,90.37,0.047,0.78,0,0,0,0,0,0,0,0,0,90.4,8,0,1,3.9,0,0,8,90.4,-0.9461,-0.0068,0.3239,8,90.4,0,0,0,0,0,0,3,0,0,0,69,0,0,0,90.4,1,0,-0.03,0,0,3,0,0,0,10,3.673,0,0,1,1,0,0,VALID,0,0,0,0,0,1,0,0,0,0,0,0,0,0,0,0,0,0,0,0,341.01,441.84,2,0,0.08,0.08,461,14.29,0.08,0.06,31.58,FLYING,CF1-H,0:/Integrated Flight Computer/aircraft/cf1_h_cfg.ks (inferred preloaded)
31.96,TAKEOFF,TO_CLIMB,125.5,80,-45.5,46.09,8.73,4.65,0.79,90.37,0.047,0.78,0,0,0,0,0,0,0,0,0,90.4,8,0,1,3.98,0,0,8,90.4,-0.9461,-0.0068,0.3238,8,90.4,0,0,0,0,0,0,3,0,0,0,69,0,0,0,90.4,1,0,-0.029,0,0,3,0,0,0,10,3.673,0,0,1,1,0,0,VALID,0,0,0,0,0,1,0,0,0,0,0,0,0,0,0,0,0,0,0,0,340.29,440.83,2,0,0.08,0.08,465,14.29,0.08,0.06,31.86,FLYING,CF1-H,0:/Integrated Flight Computer/aircraft/cf1_h_cfg.ks (inferred preloaded)
32.24,TAKEOFF,TO_CLIMB,126.8,80,-46.8,48.67,8.99,4.65,0.71,90.37,0.046,0.78,0,0,0,0,0,0,0,0,0,90.4,8,0,1,4.05,0,0,8,90.4,-0.9461,-0.0068,0.3238,8,90.4,0,0,0,0,0,0,3,0,0,0,69,0,0,0,90.4,1,0,-0.028,0,0,3,0,0,0,10,3.673,0,0,1,1,0,0,VALID,0,0,0,0,0,1,0,0,0,0,0,0,0,0,0,0,0,0,0,0,339.58,439.83,2,0,0.08,0.08,469,14.29,0.08,0.06,32.14,FLYING,CF1-H,0:/Integrated Flight Computer/aircraft/cf1_h_cfg.ks (inferred preloaded)
32.52,TAKEOFF,TO_CLIMB,128.09,80,-48.09,51.31,9.24,4.64,0.63,90.37,0.045,0.78,0,0,0,0,0,0,0,0,0,90.4,8,0,1,4.13,0,0,8,90.4,-0.9461,-0.0068,0.3237,8,90.4,0,0,0,0,0,0,3,0,0,0,69,0,0,0,90.4,1,0,-0.027,0,0,3,0,0,0,10,3.673,0,0,1,1,0,0,VALID,0,0,0,0,0,1,0,0,0,0,0,0,0,0,0,0,0,0,0,0,338.87,438.84,2,0,0.08,0.08,473,14.29,0.08,0.06,32.42,FLYING,CF1-H,0:/Integrated Flight Computer/aircraft/cf1_h_cfg.ks (inferred preloaded)
32.8,TAKEOFF,TO_CLIMB,129.37,80,-49.37,54.03,9.5,4.63,0.55,90.37,0.045,0.78,0,0,0,0,0,0,0,0,0,90.4,8,0,1,4.2,0,0,8,90.4,-0.9462,-0.0068,0.3236,8,90.4,0,0,0,0,0,0,3,0,0,0,69,0,0,0,90.4,1,0,-0.026,0,0,3,0,0,0,10,3.673,0,0,1,1,0,0,VALID,0,0,0,0,0,1,0,0,0,0,0,0,0,0,0,0,0,0,0,0,338.17,437.86,2,0,0.08,0.08,477,14.29,0.08,0.06,32.7,FLYING,CF1-H,0:/Integrated Flight Computer/aircraft/cf1_h_cfg.ks (inferred preloaded)
33.08,TAKEOFF,TO_CLIMB,130.65,80,-50.65,56.82,9.76,4.63,0.48,90.38,0.043,0.78,0,0,0,0,0,0,0,0,0,90.4,8,0,1,4.27,0,0,8,90.4,-0.9462,-0.0068,0.3236,8,90.4,0,0,0,0,0,0,3,0,0,0,69,0,0,0,90.4,1,0,-0.024,0,0,3,0,0,0,10,3.673,0,0,1,1,0,0,VALID,0,0,0,0,0,1,0,0,0,0,0,0,0,0,0,0,0,0,0,0,337.47,436.88,2,0,0.08,0.08,481,14.29,0.08,0.06,32.98,FLYING,CF1-H,0:/Integrated Flight Computer/aircraft/cf1_h_cfg.ks (inferred preloaded)
33.36,TAKEOFF,TO_CLIMB,131.92,80,-51.92,59.68,10.01,4.62,0.41,90.38,0.043,0.78,0,0,0,0,0,0,0,0,0,90.4,8,0,1,4.34,0,0,8,90.4,-0.9462,-0.0068,0.3235,8,90.4,0,0,0,0,0,0,3,0,0,0,69,0,0,0,90.4,1,0,-0.023,0,0,3,0,0,0,10,3.673,0,0,1,1,0,0,VALID,0,0,0,0,0,1,0,0,0,0,0,0,0,0,0,0,0,0,0,0,336.77,435.9,2,0,0.08,0.08,485,14.29,0.08,0.06,33.26,FLYING,CF1-H,0:/Integrated Flight Computer/aircraft/cf1_h_cfg.ks (inferred preloaded)
33.64,TAKEOFF,TO_CLIMB,133.19,80,-53.19,62.6,10.26,4.62,0.34,90.38,0.042,0.78,0,0,0,0,0,0,0,0,0,90.4,8,0,1,4.41,0,0,8,90.4,-0.9462,-0.0068,0.3235,8,90.4,0,0,0,0,0,0,3,0,0,0,69,0,0,0,90.4,1,0,-0.022,0,0,3,0,0,0,10,3.673,0,0,1,1,0,0,VALID,0,0,0,0,0,1,0,0,0,0,0,0,0,0,0,0,0,0,0,0,336.08,434.94,2,0,0.08,0.08,489,14.29,0.08,0.06,33.54,FLYING,CF1-H,0:/Integrated Flight Computer/aircraft/cf1_h_cfg.ks (inferred preloaded)
33.92,TAKEOFF,TO_CLIMB,134.44,80,-54.44,65.6,10.52,4.63,0.27,90.38,0.042,0.78,0,0,0,0,0,0,0,0,0,90.4,8,0,1,4.47,0,0,8,90.4,-0.9462,-0.0068,0.3234,8,90.4,0,0,0,0,0,0,3,0,0,0,69,0,0,0,90.4,1,0,-0.021,0,0,3,0,0,0,10,3.673,0,0,1,1,0,0,VALID,0,0,0,0,0,1,0,0,0,0,0,0,0,0,0,0,0,0,0,0,335.4,433.98,2,0,0.08,0.08,493,14.29,0.08,0.06,33.82,FLYING,CF1-H,0:/Integrated Flight Computer/aircraft/cf1_h_cfg.ks (inferred preloaded)
34.2,TAKEOFF,TO_CLIMB,135.69,80,-55.69,68.67,10.78,4.63,0.21,90.38,0.041,0.78,0,0,0,0,0,0,0,0,0,90.4,8,0,1,4.54,0,0,8,90.4,-0.9463,-0.0068,0.3233,8,90.4,0,0,0,0,0,0,3,0,0,0,69,0,0,0,90.4,1,0,-0.02,0,0,3,0,0,0,10,3.673,0,0,1,1,0,0,VALID,0,0,0,0,0,1,0,0,0,0,0,0,0,0,0,0,0,0,0,0,334.71,433.03,2,0,0.08,0.08,497,14.29,0.08,0.06,34.1,FLYING,CF1-H,0:/Integrated Flight Computer/aircraft/cf1_h_cfg.ks (inferred preloaded)
34.48,TAKEOFF,TO_CLIMB,136.93,80,-56.93,71.81,11.04,4.64,0.15,90.38,0.041,0.78,0,0,0,0,0,0,0,0,0,90.4,8,0,1,4.61,0,0,8,90.4,-0.9463,-0.0068,0.3233,8,90.4,0,0,0,0,0,0,3,0,0,0,69,0,0,0,90.4,1,0,-0.019,0,0,3,0,0,0,10,3.673,0,0,1,1,0,0,VALID,0,0,0,0,0,1,0,0,0,0,0,0,0,0,0,0,0,0,0,0,334.04,432.09,2,0,0.08,0.08,501,14.29,0.08,0.06,34.38,FLYING,CF1-H,0:/Integrated Flight Computer/aircraft/cf1_h_cfg.ks (inferred preloaded)
34.76,TAKEOFF,TO_CLIMB,138.16,80,-58.16,75.04,11.3,4.64,0.09,90.38,0.041,0.78,0,0,0,0,0,0,0,0,0,90.4,8,0,1,4.68,0,0,8,90.4,-0.9463,-0.0068,0.3232,8,90.4,0,0,0,0,0,0,3,0,0,0,69,0,0,0,90.4,1,0,-0.018,0,0,3,0,0,0,10,3.673,0,0,1,1,0,0,VALID,0,0,0,0,0,1,0,0,0,0,0,0,0,0,0,0,0,0,0,0,333.37,431.16,2,0,0.08,0.08,505,14.29,0.08,0.06,34.66,FLYING,CF1-H,0:/Integrated Flight Computer/aircraft/cf1_h_cfg.ks (inferred preloaded)
35.04,TAKEOFF,TO_CLIMB,139.39,80,-59.39,78.32,11.56,4.64,0.03,90.38,0.04,0.78,0,0,0,0,0,0,0,0,0,90.4,8,0,1,4.74,0,0,8,90.4,-0.9463,-0.0068,0.3232,8,90.4,0,0,0,0,0,0,3,0,0,0,69,0,0,0,90.4,1,0,-0.017,0,0,3,0,0,0,10,3.673,0,0,1,1,0,0,VALID,0,0,0,0,0,1,0,0,0,0,0,0,0,0,0,0,0,0,0,0,332.7,430.24,2,0,0.08,0.08,509,14.29,0.08,0.06,34.94,FLYING,CF1-H,0:/Integrated Flight Computer/aircraft/cf1_h_cfg.ks (inferred preloaded)
35.32,TAKEOFF,TO_CLIMB,140.6,80,-60.6,81.67,11.81,4.65,-0.03,90.38,0.039,0.78,0,0,0,0,0,0,0,0,0,90.4,8,0,1,4.8,0,0,8,90.4,-0.9463,-0.0068,0.3231,8,90.4,0,0,0,0,0,0,3,0,0,0,69,0,0,0,90.4,1,0,-0.016,0,0,3,0,0,0,10,3.673,0,0,1,1,0,0,VALID,0,0,0,0,0,1,0,0,0,0,0,0,0,0,0,0,0,0,0,0,332.05,429.32,2,0,0.08,0.08,513,14.29,0.08,0.06,35.22,FLYING,CF1-H,0:/Integrated Flight Computer/aircraft/cf1_h_cfg.ks (inferred preloaded)
35.6,TAKEOFF,TO_CLIMB,141.81,80,-61.81,85.09,12.07,4.65,-0.09,90.39,0.038,0.78,0,0,0,0,0,0,0,0,0,90.4,8,0,1,4.87,0,0,8,90.4,-0.9464,-0.0068,0.323,8,90.4,0,0,0,0,0,0,3,0,0,0,69,0,0,0,90.4,1,0,-0.015,0,0,3,0,0,0,10,3.673,0,0,1,1,0,0,VALID,0,0,0,0,0,1,0,0,0,0,0,0,0,0,0,0,0,0,0,0,331.39,428.42,2,0,0.08,0.08,517,14.29,0.08,0.06,35.5,FLYING,CF1-H,0:/Integrated Flight Computer/aircraft/cf1_h_cfg.ks (inferred preloaded)
35.88,TAKEOFF,TO_CLIMB,143.01,80,-63.01,88.58,12.32,4.66,-0.14,90.39,0.038,0.78,0,0,0,0,0,0,0,0,0,90.4,8,0,1,4.93,0,0,8,90.4,-0.9464,-0.0068,0.323,8,90.4,0,0,0,0,0,0,3,0,0,0,69,0,0,0,90.4,1,0,-0.014,0,0,3,0,0,0,10,3.673,0,0,1,1,0,0,VALID,0,0,0,0,0,1,0,0,0,0,0,0,0,0,0,0,0,0,0,0,330.74,427.52,2,0,0.08,0.08,521,14.29,0.08,0.06,35.78,FLYING,CF1-H,0:/Integrated Flight Computer/aircraft/cf1_h_cfg.ks (inferred preloaded)
36.16,TAKEOFF,TO_CLIMB,144.2,80,-64.2,92.14,12.58,4.67,-0.19,90.39,0.037,0.78,0,0,0,0,0,0,0,0,0,90.4,8,0,1,4.98,0,0,8,90.4,-0.9464,-0.0068,0.3229,8,90.4,0,0,0,0,0,0,3,0,0,0,69,0,0,0,90.4,1,0,-0.013,0,0,3,0,0,0,10,3.673,0,0,1,1,0,0,VALID,0,0,0,0,0,1,0,0,0,0,0,0,0,0,0,0,0,0,0,0,330.1,426.63,2,0,0.08,0.08,525,14.29,0.08,0.06,36.06,FLYING,CF1-H,0:/Integrated Flight Computer/aircraft/cf1_h_cfg.ks (inferred preloaded)
36.44,TAKEOFF,TO_CLIMB,145.39,80,-65.39,95.77,12.83,4.68,-0.24,90.39,0.036,0.78,0,0,0,0,0,0,0,0,0,90.4,8,0,1,5.04,0,0,8,90.4,-0.9464,-0.0068,0.3228,8,90.4,0,0,0,0,0,0,3,0,0,0,69,0,0,0,90.4,1,0,-0.012,0,0,3,0,0,0,10,3.673,0,0,1,1,0,0,VALID,0,0,0,0,0,1,0,0,0,0,0,0,0,0,0,0,0,0,0,0,329.46,425.75,2,0,0.08,0.08,529,14.29,0.08,0.06,36.34,FLYING,CF1-H,0:/Integrated Flight Computer/aircraft/cf1_h_cfg.ks (inferred preloaded)
36.72,TAKEOFF,TO_CLIMB,146.57,80,-66.57,99.47,13.09,4.69,-0.29,90.39,0.036,0.78,0,0,0,0,0,0,0,0,0,90.4,8,0,1,5.1,0,0,8,90.4,-0.9465,-0.0068,0.3228,8,90.4,0,0,0,0,0,0,3,0,0,0,69,0,0,0,90.4,1,0,-0.011,0,0,3,0,0,0,10,3.673,0,0,1,1,0,0,VALID,0,0,0,0,0,1,0,0,0,0,0,0,0,0,0,0,0,0,0,0,328.83,424.87,2,0,0.08,0.08,533,14.29,0.08,0.06,36.62,FLYING,CF1-H,0:/Integrated Flight Computer/aircraft/cf1_h_cfg.ks (inferred preloaded)
37,TAKEOFF,TO_CLIMB,147.74,80,-67.74,103.23,13.34,4.7,-0.34,90.39,0.035,0.78,0,0,0,0,0,0,0,0,0,90.4,8,0,1,5.16,0,0,8,90.4,-0.9465,-0.0068,0.3227,8,90.4,0,0,0,0,0,0,3,0,0,0,69,0,0,0,90.4,1,0,-0.01,0,0,3,0,0,0,10,3.673,0,0,1,1,0,0,VALID,0,0,0,0,0,1,0,0,0,0,0,0,0,0,0,0,0,0,0,0,328.21,424.01,2,0,0.08,0.08,537,14.29,0.08,0.06,36.9,FLYING,CF1-H,0:/Integrated Flight Computer/aircraft/cf1_h_cfg.ks (inferred preloaded)
37.28,TAKEOFF,TO_CLIMB,148.9,80,-68.9,107.07,13.59,4.72,-0.38,90.39,0.034,0.78,0,0,0,0,0,0,0,0,0,90.4,8,0,1,5.22,0,0,8,90.4,-0.9465,-0.0068,0.3226,8,90.4,0,0,0,0,0,0,3,0,0,0,69,0,0,0,90.4,1,0,-0.009,0,0,3,0,0,0,10,3.673,0,0,1,1,0,0,VALID,0,0,0,0,0,1,0,0,0,0,0,0,0,0,0,0,0,0,0,0,327.59,423.15,2,0,0.08,0.08,541,14.29,0.08,0.06,37.18,FLYING,CF1-H,0:/Integrated Flight Computer/aircraft/cf1_h_cfg.ks (inferred preloaded)
37.56,TAKEOFF,TO_CLIMB,150.05,80,-70.05,110.98,13.86,4.74,-0.42,90.39,0.034,0.78,0,0,0,0,0,0,0,0,0,90.4,8,0,1,5.28,0,0,8,90.4,-0.9465,-0.0068,0.3226,8,90.4,0,0,0,0,0,0,3,0,0,0,69,0,0,0,90.4,1,0,-0.008,0,0,3,0,0,0,10,3.673,0,0,1,1,0,0,VALID,0,0,0,0,0,1,0,0,0,0,0,0,0,0,0,0,0,0,0,0,326.97,422.31,2,0,0.08,0.08,545,14.29,0.08,0.06,37.46,FLYING,CF1-H,0:/Integrated Flight Computer/aircraft/cf1_h_cfg.ks (inferred preloaded)
37.84,TAKEOFF,TO_CLIMB,151.2,80,-71.2,114.96,14.14,4.77,-0.45,90.39,0.033,0.78,0,0,0,0,0,0,0,0,0,90.4,8,0,1,5.34,0,0,8,90.4,-0.9465,-0.0068,0.3225,8,90.4,0,0,0,0,0,0,3,0,0,0,69,0,0,0,90.4,1,0,-0.007,0,0,3,0,0,0,10,3.673,0,0,1,1,0,0,VALID,0,0,0,0,0,1,0,0,0,0,0,0,0,0,0,0,0,0,0,0,326.36,421.47,2,0,0.08,0.08,549,14.29,0.08,0.06,37.74,FLYING,CF1-H,0:/Integrated Flight Computer/aircraft/cf1_h_cfg.ks (inferred preloaded)
38.12,TAKEOFF,TO_CLIMB,152.33,80,-72.33,119.02,14.41,4.8,-0.49,90.39,0.032,0.78,0,0,0,0,0,0,0,0,0,90.4,8,0,1,5.4,0,0,8,90.4,-0.9466,-0.0068,0.3224,8,90.4,0,0,0,0,0,0,3,0,0,0,69,0,0,0,90.4,1,0,-0.006,0,0,3,0,0,0,10,3.673,0,0,1,1,0,0,VALID,0,0,0,0,0,1,0,0,0,0,0,0,0,0,0,0,0,0,0,0,325.76,420.64,2,0,0.08,0.08,553,14.29,0.08,0.06,38.02,FLYING,CF1-H,0:/Integrated Flight Computer/aircraft/cf1_h_cfg.ks (inferred preloaded)
38.4,TAKEOFF,TO_CLIMB,153.46,80,-73.46,123.15,14.69,4.82,-0.53,90.39,0.031,0.78,0,0,0,0,0,0,0,0,0,90.4,8,0,1,5.47,0,0,8,90.4,-0.9466,-0.0068,0.3224,8,90.4,0,0,0,0,0,0,3,0,0,0,69,0,0,0,90.4,1,0,-0.006,0,0,3,0,0,0,10,3.673,0,0,1,1,0,0,VALID,0,0,0,0,0,1,0,0,0,0,0,0,0,0,0,0,0,0,0,0,325.17,419.82,2,0,0.08,0.08,557,14.29,0.08,0.06,38.3,FLYING,CF1-H,0:/Integrated Flight Computer/aircraft/cf1_h_cfg.ks (inferred preloaded)
38.68,TAKEOFF,TO_CLIMB,154.58,80,-74.58,127.36,14.97,4.84,-0.57,90.4,0.03,0.78,0,0,0,0,0,0,0,0,0,90.4,8,0,1,5.53,0,0,8,90.4,-0.9466,-0.0068,0.3223,8,90.4,0,0,0,0,0,0,3,0,0,0,69,0,0,0,90.4,1,0,-0.005,0,0,3,0,0,0,10,3.673,0,0,1,1,0,0,VALID,0,0,0,0,0,1,0,0,0,0,0,0,0,0,0,0,0,0,0,0,324.57,419.01,2,0,0.08,0.08,561,14.29,0.08,0.06,38.58,FLYING,CF1-H,0:/Integrated Flight Computer/aircraft/cf1_h_cfg.ks (inferred preloaded)
38.96,TAKEOFF,TO_CLIMB,155.69,80,-75.69,131.64,15.25,4.86,-0.61,90.4,0.029,0.78,0,0,0,0,0,0,0,0,0,90.4,8,0,1,5.59,0,0,8,90.4,-0.9466,-0.0068,0.3222,8,90.4,0,0,0,0,0,0,3,0,0,0,69,0,0,0,90.4,1,0,-0.004,0,0,3,0,0,0,10,3.673,0,0,1,1,0,0,VALID,0,0,0,0,0,1,0,0,0,0,0,0,0,0,0,0,0,0,0,0,323.99,418.2,2,0,0.08,0.08,565,14.29,0.08,0.06,38.86,FLYING,CF1-H,0:/Integrated Flight Computer/aircraft/cf1_h_cfg.ks (inferred preloaded)
39.24,TAKEOFF,TO_CLIMB,156.8,80,-76.8,135.99,15.53,4.88,-0.65,90.4,0.028,0.78,0,0,0,0,0,0,0,0,0,90.4,8,0,1,5.66,0,0,8,90.4,-0.9467,-0.0068,0.3222,8,90.4,0,0,0,0,0,0,3,0,0,0,69,0,0,0,90.4,1,0,-0.003,0,0,3,0,0,0,10,3.673,0,0,1,1,0,0,VALID,0,0,0,0,0,1,0,0,0,0,0,0,0,0,0,0,0,0,0,0,323.41,417.41,2,0,0.08,0.08,569,14.29,0.08,0.06,39.14,FLYING,CF1-H,0:/Integrated Flight Computer/aircraft/cf1_h_cfg.ks (inferred preloaded)
