t_s,phase,subphase,ias_ms,vapp_ms,spd_err_ms,agl_m,vs_ms,pitch_deg,aoa_deg,hdg_deg,bank_deg,thr_cmd,thr_cur,thr_intg,at_gain,at_tau_s,at_a_up,at_a_dn,at_kp_thr,at_ki_spd,at_thr_slew,aa_hdg_cmd_deg,aa_fpa_cmd_deg,ils_loc_m,ils_gs_m,ils_dist_km,loc_corr_deg,gs_corr_deg,flare_fpa_cmd,flare_tgt_vs,flare_frac,steer_hdg_deg,steer_blend,ro_loc_corr_deg,ro_hdg_err_deg,ro_yaw_tgt,ro_yaw_scale,ro_yaw_gate,yaw_cmd,roll_cmd,pitch_cmd,ro_pitch_tgt_deg,ro_pitch_err_deg,ro_pitch_ff,ro_roll_assist,flaps_cur,flaps_tgt,asc_j_ab,asc_j_rk,asc_validity,asc_q_pa,asc_q_raw_pa,asc_mach,asc_apo_m,asc_drag_n,asc_w_prop,asc_edot_aero,asc_edot_orb,asc_pitch_bias,asc_blend,asc_spooling,asc_ab_thr_ratio,asc_ab_t_now,asc_ab_t_avail,asc_ab_ign_on,asc_ab_flameouts,asc_rk_t_now,asc_rk_t_avail,asc_rk_ign_on,asc_rk_flameouts,ship_thrust,ship_avail_thrust,ship_ign_on,ship_flameouts,ifc_raw_dt_s,ifc_dt_s,ifc_loop_n,ifc_hz_est,ifc_raw_dt_max_s,ifc_raw_dt_min_s,phase_el_s,status
1.12,APPROACH,FLY_TO_FIX,221.34,140.8,-80.54,2499.73,0.24,5.79,5.73,270.06,0.351,0,0,0,1,0.6,0.9,0.75,0.35,0.0168,0.4,258.35,0,0,0,0,0,0,0,0,0,270.04,0,0,0,0,0,0,0,0,0,0,0,0,0,0,0,0,0,VALID,0,0,0,0,0,1,0,0,0,0,0,0,0,0,0,0,0,0,0,0,107.28,3547.36,6,0,0.82,0.5,1,0.43,0.82,0.02,1.2,FLYING
3.48,APPROACH,FLY_TO_FIX,213.68,143.2,-70.48,2501.53,-1.76,11.37,14.82,256.35,59.768,0.2,0,-20,1,0.6,2.359,0.842,0.35,0.0168,0.4,258.14,0,0,0,0,0,0,0,0,0,270.04,0,0,0,0,0,0,0,0,0,0,0,0,0,0,0,0,0,VALID,0,0,0,0,0,1,0,0,0,0,0,0,0,0,0,0,0,0,0,0,44.56,3462.52,6,0,0.74,0.5,4,1.28,0.88,0.74,3.54,FLYING
5.78,APPROACH,FLY_TO_FIX,201.64,145.6,-56.04,2496.44,-0.87,3.99,7.04,252.41,24.171,0.8,0,-20,1,0.6,3.593,0.842,0.35,0.0168,0.4,258.04,0,0,0,0,0,0,0,0,0,270.04,0,0,0,0,0,0,0,0,0,0,0,0,0,0,0,0,0,VALID,0,0,0,0,0,1,0,0,0,0,0,0,0,0,0,0,0,0,0,0,528.87,3325.25,6,0,0.74,0.5,7,1.3,0.82,0.74,5.84,FLYING
8.12,APPROACH,FLY_TO_FIX,200.37,148,-52.37,2495.93,-0.68,6.53,6.9,256.38,7.316,0.3753,0,-20,1,0.6,4.5,0.842,0.35,0.0168,0.4,258.02,0,0,0,0,0,0,0,0,0,270.04,0,0,0,0,0,0,0,0,0,0,0,0,0,0,0,0,0,VALID,0,0,0,0,0,1,0,0,0,0,0,0,0,0,0,0,0,0,0,0,1209.66,3311.35,6,0,0.74,0.5,10,1.28,0.86,0.74,8.18,FLYING
10.44,APPROACH,FLY_TO_FIX,201.14,149,-52.14,2495.09,-0.23,6.71,6.77,258.01,1.427,0,0,-19.8,1,0.6,4.5,0.856,0.35,0.0168,0.4,258.01,0,0,0,0,0,0,0,0,0,270.04,0,0,0,0,0,0,0,0,0,0,0,0,0,0,0,0,0,VALID,0,0,0,0,0,1,0,0,0,0,0,0,0,0,0,0,0,0,0,0,819.58,3320.3,6,0,0.74,0.5,13,1.29,0.84,0.74,10.5,FLYING
12.76,APPROACH,FLY_TO_FIX,198.5,149,-49.5,2495.05,-0.01,7.01,7.02,258.07,0.432,0,0,-19.505,1,0.6,4.5,0.917,0.35,0.0168,0.4,258.01,0,0,0,0,0,0,0,0,0,270.04,0,0,0,0,0,0,0,0,0,0,0,0,0,0,0,0,0,VALID,0,0,0,0,0,1,0,0,0,0,0,0,0,0,0,0,0,0,0,0,349.22,3288.79,6,0,0.74,0.5,16,1.29,0.84,0.74,12.82,FLYING
15.08,APPROACH,FLY_TO_FIX,193.87,149,-44.87,2495.47,0.13,7.41,7.38,258.06,0.219,0.0741,0,-20,1,0.6,4.5,1.065,0.35,0.0168,0.4,258.01,0,0,0,0,0,0,0,0,0,270.04,0,0,0,0,0,0,0,0,0,0,0,0,0,0,0,0,0,VALID,0,0,0,0,0,1,0,0,0,0,0,0,0,0,0,0,0,0,0,0,156.9,3232.83,6,0,0.74,0.5,19,1.29,0.84,0.74,15.14,FLYING
17.38,APPROACH,FLY_TO_FIX,189,149,-40,2496.16,0.24,7.76,7.7,258.05,0.159,0.215,0,-20,1,0.6,4.5,1.134,0.35,0.0168,0.4,258.01,0,0,0,0,0,0,0,0,0,270.04,0,0,0,0,0,0,0,0,0,0,0,0,0,0,0,0,0,VALID,0,0,0,0,0,1,0,0,0,0,0,0,0,0,0,0,0,0,0,0,263.33,3173.42,6,0,0.74,0.5,22,1.29,0.84,0.74,17.46,FLYING
19.7,APPROACH,FLY_TO_FIX,185.19,149,-36.19,2497.01,0.33,8.03,7.94,258.04,0.128,0.1791,0,-20,1,0.6,4.5,1.134,0.35,0.0168,0.4,258,0,0,0,0,0,0,0,0,0,270.04,0,0,0,0,0,0,0,0,0,0,0,0,0,0,0,0,0,VALID,0,0,0,0,0,1,0,0,0,0,0,0,0,0,0,0,0,0,0,0,421,3125.65,6,0,0.74,0.5,25,1.29,0.84,0.74,19.78,FLYING
22.02,APPROACH,FLY_TO_FIX,182.05,149,-33.05,2498.05,0.39,8.3,8.19,258.03,0.106,0.0883,0,-20,1,0.6,4.5,1.134,0.35,0.0168,0.4,258,0,0,0,0,0,0,0,0,0,270.04,0,0,0,0,0,0,0,0,0,0,0,0,0,0,0,0,0,VALID,0,0,0,0,0,1,0,0,0,0,0,0,0,0,0,0,0,0,0,0,428.45,3085.72,6,0,0.74,0.5,28,1.29,0.84,0.74,22.1,FLYING
24.36,APPROACH,FLY_TO_FIX,178.59,149,-29.59,2499.23,0.42,8.64,8.52,258.02,0.084,0.0595,0,-20,1,0.6,4.5,1.19,0.35,0.0168,0.4,258,0,0,0,0,0,0,0,0,0,270.04,0,0,0,0,0,0,0,0,0,0,0,0,0,0,0,0,0,VALID,0,0,0,0,0,1,0,0,0,0,0,0,0,0,0,0,0,0,0,0,328.6,3040.95,6,0,0.74,0.5,31,1.29,0.84,0.74,24.42,FLYING
26.68,APPROACH,FLY_TO_FIX,174.59,149,-25.59,2500.52,0.43,9.05,8.93,258.01,0.063,0.0548,0,-20,1,0.6,4.5,1.363,0.35,0.0168,0.4,258,0,0,0,0,0,0,0,0,0,270.04,0,0,0,0,0,0,0,0,0,0,0,0,0,0,0,0,0,VALID,0,0,0,0,0,1,0,0,0,0,0,0,0,0,0,0,0,0,0,0,247.51,2989.13,6,0,0.74,0.5,34,1.29,0.84,0.74,26.74,FLYING
29,APPROACH,FLY_TO_FIX,170.26,149,-21.26,2501.84,0.43,9.51,9.38,258.01,0.044,0.0581,0,-20,1,0.6,4.5,1.54,0.35,0.0168,0.4,258,0,0,0,0,0,0,0,0,0,270.04,0,0,0,0,0,0,0,0,0,0,0,0,0,0,0,0,0,VALID,0,0,0,0,0,1,0,0,0,0,0,0,0,0,0,0,0,0,0,0,216.08,2932.52,6,0,0.74,0.5,37,1.29,0.84,0.74,29.06,FLYING
31.32,APPROACH,FLY_TO_FIX,165.8,149,-16.8,2503.17,0.42,10.01,9.88,258.01,0.034,0.0443,0,-20,1,0.6,4.5,1.716,0.35,0.0168,0.4,258,0,0,0,0,0,0,0,0,0,270.04,0,0,0,0,0,0,0,0,0,0,0,0,0,0,0,0,0,VALID,0,0,0,0,0,1,0,0,0,0,0,0,0,0,0,0,0,0,0,0,194.5,2873.82,6,0,0.74,0.5,40,1.29,0.84,0.74,31.38,FLYING
33.64,APPROACH,FLY_TO_FIX,161.16,149,-12.16,2504.52,0.4,10.58,10.45,258,0.021,0.0294,0,-20,1,0.6,4.5,1.888,0.35,0.0168,0.4,258,0,0,0,0,0,0,0,0,0,270.04,0,0,0,0,0,0,0,0,0,0,0,0,0,0,0,0,0,VALID,0,0,0,0,0,1,0,0,0,0,0,0,0,0,0,0,0,0,0,0,159.63,2812.45,6,0,0.74,0.5,43,1.29,0.84,0.74,33.7,FLYING
35.96,APPROACH,FLY_TO_FIX,156.28,149,-7.28,2505.87,0.37,11.23,11.11,258,0.011,0.2219,0,-20,1,0.6,4.5,2.003,0.35,0.0168,0.4,258,0,0,0,0,0,0,0,0,0,270.04,0,0,0,0,0,0,0,0,0,0,0,0,0,0,0,0,0,VALID,0,0,0,0,0,1,0,0,0,0,0,0,0,0,0,0,0,0,0,0,155.5,2748.36,6,0,0.74,0.5,46,1.29,0.84,0.74,36.02,FLYING
38.28,APPROACH,FLY_TO_FIX,152.09,149,-3.09,2507.03,0.38,11.65,11.53,258,0.006,0.4614,0,-20,1,0.6,4.5,2.003,0.35,0.0168,0.4,258,0,0,0,0,0,0,0,0,0,270.04,0,0,0,0,0,0,0,0,0,0,0,0,0,0,0,0,0,VALID,0,0,0,0,0,1,0,0,0,0,0,0,0,0,0,0,0,0,0,0,437.85,2692.87,6,0,0.74,0.5,49,1.29,0.84,0.74,38.34,FLYING
40.6,APPROACH,FLY_TO_FIX,149.81,149,-0.81,2508.02,0.4,11.78,11.65,258,0.001,0.3789,0,-20,1,0.6,4.5,2.003,0.35,0.0168,0.4,258,0,0,0,0,0,0,0,0,0,270.04,0,0,0,0,0,0,0,0,0,0,0,0,0,0,0,0,0,VALID,0,0,0,0,0,1,0,0,0,0,0,0,0,0,0,0,0,0,0,0,726.3,2662.74,6,0,0.74,0.5,52,1.29,0.84,0.74,40.66,FLYING
42.92,APPROACH,FLY_TO_FIX,148.61,149,0.39,2509.06,0.4,11.94,11.8,258,-0.003,0.223,0,-19.821,1,0.6,4.5,2.003,0.35,0.0168,0.4,258,0,0,0,0,0,0,0,0,0,270.04,0,0,0,0,0,0,0,0,0,0,0,0,0,0,0,0,0,VALID,0,0,0,0,0,1,0,0,0,0,0,0,0,0,0,0,0,0,0,0,762.04,2646.79,6,0,0.74,0.5,55,1.29,0.84,0.74,42.98,FLYING
45.24,APPROACH,FLY_TO_FIX,147.06,149,1.94,2510.2,0.4,12.24,12.11,258,-0.002,0.2828,0,-17.787,1,0.6,4.5,2.003,0.35,0.0168,0.4,258,0,0,0,0,0,0,0,0,0,270.04,0,0,0,0,0,0,0,0,0,0,0,0,0,0,0,0,0,VALID,0,0,0,0,0,1,0,0,0,0,0,0,0,0,0,0,0,0,0,0,671.37,2626.32,6,0,0.74,0.5,58,1.29,0.84,0.74,45.3,FLYING
47.56,APPROACH,FLY_TO_FIX,145.36,149,3.64,2511.26,0.4,12.45,12.31,258,-0.002,0.4508,0,-13.158,1,0.6,4.5,2.003,0.35,0.0168,0.4,258,0,0,0,0,0,0,0,0,0,270.04,0,0,0,0,0,0,0,0,0,0,0,0,0,0,0,0,0,VALID,0,0,0,0,0,1,0,0,0,0,0,0,0,0,0,0,0,0,0,0,754.57,2604.14,6,0,0.74,0.5,61,1.29,0.84,0.74,47.62,FLYING
49.88,APPROACH,FLY_TO_FIX,144.51,149,4.49,2512.2,0.41,12.44,12.3,258,-0.002,0.508,0,-6.733,1,0.6,4.5,2.003,0.35,0.0168,0.4,258,0,0,0,0,0,0,0,0,0,270.04,0,0,0,0,0,0,0,0,0,0,0,0,0,0,0,0,0,VALID,0,0,0,0,0,1,0,0,0,0,0,0,0,0,0,0,0,0,0,0,939.57,2593.13,6,0,0.74,0.5,64,1.29,0.84,0.74,49.94,FLYING
52.2,APPROACH,FLY_TO_FIX,144.7,149,4.3,2513.08,0.42,12.31,12.17,258,-0.002,0.4345,0,-0.092,1,0.6,4.5,2.003,0.35,0.0168,0.4,258,0,0,0,0,0,0,0,0,0,270.04,0,0,0,0,0,0,0,0,0,0,0,0,0,0,0,0,0,VALID,0,0,0,0,0,1,0,0,0,0,0,0,0,0,0,0,0,0,0,0,1061.94,2595.62,6,0,0.74,0.5,67,1.29,0.84,0.74,52.26,FLYING
54.52,APPROACH,FLY_TO_FIX,145.28,149,3.72,2514.01,0.43,12.23,12.08,258,-0.003,0.3619,0,5.781,1,0.6,4.5,2.003,0.35,0.0168,0.4,258,0,0,0,0,0,0,0,0,0,270.04,0,0,0,0,0,0,0,0,0,0,0,0,0,0,0,0,0,VALID,0,0,0,0,0,1,0,0,0,0,0,0,0,0,0,0,0,0,0,0,1046.4,2603.17,6,0,0.74,0.5,70,1.29,0.84,0.74,54.58,FLYING
56.84,APPROACH,FLY_TO_FIX,145.57,149,3.43,2515,0.43,12.22,12.08,258,-0.001,0.3966,0,11.039,1,0.6,4.5,2.003,0.35,0.0168,0.4,258,0,0,0,0,0,0,0,0,0,270.04,0,0,0,0,0,0,0,0,0,0,0,0,0,0,0,0,0,VALID,0,0,0,0,0,1,0,0,0,0,0,0,0,0,0,0,0,0,0,0,994.88,2606.86,6,0,0.74,0.5,73,1.29,0.84,0.74,56.9,FLYING
59.16,APPROACH,FLY_TO_FIX,145.8,149,3.2,2515.95,0.43,12.16,12.01,258,0.001,0.451,0,15.984,1,0.6,4.5,2.003,0.35,0.0168,0.4,258,0,0,0,0,0,0,0,0,0,270.04,0,0,0,0,0,0,0,0,0,0,0,0,0,0,0,0,0,VALID,0,0,0,0,0,1,0,0,0,0,0,0,0,0,0,0,0,0,0,0,1030.8,2609.93,6,0,0.74,0.5,76,1.29,0.84,0.74,59.22,FLYING
61.48,APPROACH,FLY_TO_FIX,146.36,149,2.64,2516.88,0.44,12.03,11.88,258,0,0.4356,0,20,1,0.6,4.5,2.003,0.35,0.0168,0.4,257.99,0,0,0,0,0,0,0,0,0,270.04,0,0,0,0,0,0,0,0,0,0,0,0,0,0,0,0,0,VALID,0,0,0,0,0,1,0,0,0,0,0,0,0,0,0,0,0,0,0,0,1087.99,2617.32,6,0,0.74,0.5,79,1.29,0.84,0.74,61.54,FLYING
63.8,APPROACH,FLY_TO_FIX,147.12,149,1.88,2517.84,0.44,11.94,11.79,258,-0.001,0.3388,0,20,1,0.6,4.5,2.003,0.35,0.0168,0.4,257.99,0,0,0,0,0,0,0,0,0,270.04,0,0,0,0,0,0,0,0,0,0,0,0,0,0,0,0,0,VALID,0,0,0,0,0,1,0,0,0,0,0,0,0,0,0,0,0,0,0,0,1054.12,2627.25,6,0,0.74,0.5,82,1.29,0.84,0.74,63.86,FLYING
66.12,APPROACH,FLY_TO_FIX,147.39,149,1.61,2518.88,0.44,11.97,11.82,258,-0.003,0.3549,0,20,1,0.6,4.5,2.003,0.35,0.0168,0.4,257.99,0,0,0,0,0,0,0,0,0,270.04,0,0,0,0,0,0,0,0,0,0,0,0,0,0,0,0,0,VALID,0,0,0,0,0,1,0,0,0,0,0,0,0,0,0,0,0,0,0,0,955.36,2630.61,6,0,0.74,0.5,85,1.29,0.84,0.74,66.18,FLYING
68.44,APPROACH,FLY_TO_FIX,147.34,149,1.66,2519.9,0.44,11.97,11.82,258,0.002,0.4084,0,20,1,0.6,4.5,2.003,0.35,0.0168,0.4,257.99,0,0,0,0,0,0,0,0,0,270.04,0,0,0,0,0,0,0,0,0,0,0,0,0,0,0,0,0,VALID,0,0,0,0,0,1,0,0,0,0,0,0,0,0,0,0,0,0,0,0,966.09,2630.04,6,0,0.74,0.5,88,1.29,0.84,0.74,68.5,FLYING
70.76,APPROACH,FLY_TO_FIX,148.11,149,0.89,2520.82,0.46,11.8,11.65,258,0.002,0.2852,0,20,1,0.6,4.5,2.003,0.35,0.0168,0.4,257.99,0,0,0,0,0,0,0,0,0,270.04,0,0,0,0,0,0,0,0,0,0,0,0,0,0,0,0,0,VALID,0,0,0,0,0,1,0,0,0,0,0,0,0,0,0,0,0,0,0,0,1001.19,2640.27,6,0,0.74,0.5,91,1.29,0.84,0.74,70.82,FLYING
73.08,APPROACH,FLY_TO_FIX,149.33,149,-0.33,2521.88,0.45,11.82,11.67,258,-0.001,0.1166,0,19.778,1,0.6,4.5,2.003,0.35,0.0168,0.4,257.99,0,0,0,0,0,0,0,0,0,270.04,0,0,0,0,0,0,0,0,0,0,0,0,0,0,0,0,0,VALID,0,0,0,0,0,1,0,0,0,0,0,0,0,0,0,0,0,0,0,0,715.76,2656.19,6,0,0.74,0.5,94,1.29,0.84,0.74,73.14,FLYING
75.4,APPROACH,FLY_TO_FIX,148.82,149,0.18,2523.04,0.44,12.01,11.86,258,0.001,0.304,0,19.657,1,0.6,4.5,2.003,0.35,0.0168,0.4,257.99,0,0,0,0,0,0,0,0,0,270.04,0,0,0,0,0,0,0,0,0,0,0,0,0,0,0,0,0,VALID,0,0,0,0,0,1,0,0,0,0,0,0,0,0,0,0,0,0,0,0,565.79,2649.28,6,0,0.74,0.5,97,1.29,0.84,0.74,75.46,FLYING
77.72,APPROACH,FLY_TO_FIX,148.33,149,0.67,2524.05,0.45,11.97,11.82,258,0,0.4159,0,20,1,0.6,4.5,2.003,0.35,0.0168,0.4,257.99,0,0,0,0,0,0,0,0,0,270.04,0,0,0,0,0,0,0,0,0,0,0,0,0,0,0,0,0,VALID,0,0,0,0,0,1,0,0,0,0,0,0,0,0,0,0,0,0,0,0,710.17,2642.95,6,0,0.74,0.5,100,1.29,0.84,0.74,77.78,FLYING
80.04,APPROACH,FLY_TO_FIX,148.81,149,0.19,2524.99,0.46,11.82,11.67,258,0,0.311,0,20,1,0.6,4.5,2.003,0.35,0.0168,0.4,257.99,0,0,0,0,0,0,0,0,0,270.04,0,0,0,0,0,0,0,0,0,0,0,0,0,0,0,0,0,VALID,0,0,0,0,0,1,0,0,0,0,0,0,0,0,0,0,0,0,0,0,830.43,2649.34,6,0,0.74,0.5,103,1.29,0.84,0.74,80.1,FLYING
82.36,APPROACH,FLY_TO_FIX,149.54,149,-0.54,2526.02,0.48,11.75,11.59,258,-0.003,0.1904,0,19.514,1,0.6,4.5,2.003,0.35,0.0168,0.4,257.99,0,0,0,0,0,0,0,0,0,270.04,0,0,0,0,0,0,0,0,0,0,0,0,0,1,1,0,0,VALID,0,0,0,0,0,1,0,0,0,0,0,0,0,0,0,0,0,0,0,0,742.61,2658.78,6,0,0.74,0.5,106,1.28,0.84,0.74,82.44,FLYING
84.7,APPROACH,FLY_TO_FIX,149.42,149,-0.42,2526.71,0.52,10.99,10.81,258,0.005,0.2482,0,18.728,1,0.6,4.5,2.003,0.35,0.0168,0.4,257.99,0,0,0,0,0,0,0,0,0,270.04,0,0,0,0,0,0,0,0,0,0,0,0,0,1,1,0,0,VALID,0,0,0,0,0,1,0,0,0,0,0,0,0,0,0,0,0,0,0,0,621.86,2657.06,6,0,0.72,0.5,109,1.29,0.9,0.72,84.76,FLYING
86.96,APPROACH,FLY_TO_FIX,148.74,149,0.26,2527.82,0.79,10.74,10.5,258,0.003,0.3933,0,18.775,1,0.6,4.5,2.003,0.35,0.0168,0.4,257.99,0,0,0,0,0,0,0,0,0,270.04,0,0,0,0,0,0,0,0,0,0,0,0,0,1,1,0,0,VALID,0,0,0,0,0,1,0,0,0,0,0,0,0,0,0,0,0,0,0,0,686.25,2648.1,6,0,0.72,0.5,112,1.33,0.82,0.72,87.02,FLYING
89.28,APPROACH,FLY_TO_FIX,149.06,149,-0.06,2529.35,0.64,10.69,10.49,258,0,0.3091,0,18.921,1,0.6,4.5,2.003,0.35,0.0168,0.4,257.99,0,0,0,0,0,0,0,0,0,270.04,0,0,0,0,0,0,0,0,0,0,0,0,0,1,1,0,0,VALID,0,0,0,0,0,1,0,0,0,0,0,0,0,0,0,0,0,0,0,0,796.09,2652.33,6,0,0.74,0.5,115,1.29,0.82,0.72,89.34,FLYING
91.6,APPROACH,FLY_TO_FIX,149.67,149,-0.67,2530.69,0.58,10.58,10.38,258,0.003,0.1867,0,18.221,1,0.6,4.5,2.003,0.35,0.0168,0.4,257.99,0,0,0,0,0,0,0,0,0,270.04,0,0,0,0,0,0,0,0,0,0,0,0,0,1,1,0,0,VALID,0,0,0,0,0,1,0,0,0,0,0,0,0,0,0,0,0,0,0,0,732.67,2660.38,6,0,0.74,0.5,118,1.29,0.84,0.74,91.66,FLYING
93.92,APPROACH,FLY_TO_FIX,149.63,149,-0.63,2532.04,0.53,10.68,10.5,258,0,0.213,0,17.14,1,0.6,4.5,2.003,0.35,0.0168,0.4,257.99,0,0,0,0,0,0,0,0,0,270.04,0,0,0,0,0,0,0,0,0,0,0,0,0,1,1,0,0,VALID,0,0,0,0,0,1,0,0,0,0,0,0,0,0,0,0,0,0,0,0,590.11,2659.71,6,0,0.74,0.5,121,1.29,0.84,0.74,93.98,FLYING
96.24,APPROACH,FLY_TO_FIX,149.15,149,-0.15,2533.27,0.5,10.73,10.56,258,-0.004,0.3076,0,16.679,1,0.6,4.5,2.003,0.35,0.0168,0.4,257.99,0,0,0,0,0,0,0,0,0,270.04,0,0,0,0,0,0,0,0,0,0,0,0,0,1,1,0,0,VALID,0,0,0,0,0,1,0,0,0,0,0,0,0,0,0,0,0,0,0,0,616.01,2653.35,6,0,0.74,0.5,124,1.29,0.84,0.74,96.3,FLYING
98.56,APPROACH,FLY_TO_FIX,149.04,149,-0.04,2534.39,0.48,10.7,10.53,258,-0.002,0.3078,0,16.627,1,0.6,4.5,2.003,0.35,0.0168,0.4,257.99,0,0,0,0,0,0,0,0,0,270.04,0,0,0,0,0,0,0,0,0,0,0,0,0,1,1,0,0,VALID,0,0,0,0,0,1,0,0,0,0,0,0,0,0,0,0,0,0,0,0,698.96,2651.91,6,0,0.74,0.5,127,1.29,0.84,0.74,98.62,FLYING
100.88,APPROACH,FLY_TO_FIX,149.31,149,-0.31,2535.47,0.48,10.64,10.48,258,-0.001,0.2383,0,16.333,1,0.6,4.5,2.003,0.35,0.0168,0.4,257.99,0,0,0,0,0,0,0,0,0,270.04,0,0,0,0,0,0,0,0,0,0,0,0,0,1,1,0,0,VALID,0,0,0,0,0,1,0,0,0,0,0,0,0,0,0,0,0,0,0,0,718.6,2655.43,6,0,0.74,0.5,130,1.29,0.84,0.74,100.94,FLYING
103.2,APPROACH,FLY_TO_FIX,149.41,149,-0.41,2536.6,0.47,10.66,10.51,258,-0.001,0.2168,0,15.719,1,0.6,4.5,2.003,0.35,0.0168,0.4,257.99,0,0,0,0,0,0,0,0,0,270.04,0,0,0,0,0,0,0,0,0,0,0,0,0,1,1,0,0,VALID,0,0,0,0,0,1,0,0,0,0,0,0,0,0,0,0,0,0,0,0,645.17,2656.74,6,0,0.74,0.5,133,1.29,0.84,0.74,103.26,FLYING
105.52,APPROACH,FLY_TO_FIX,149.16,149,-0.16,2537.71,0.46,10.71,10.56,258,-0.003,0.2654,0,15.334,1,0.6,4.5,2.003,0.35,0.0168,0.4,257.99,0,0,0,0,0,0,0,0,0,270.04,0,0,0,0,0,0,0,0,0,0,0,0,0,1,1,0,0,VALID,0,0,0,0,0,1,0,0,0,0,0,0,0,0,0,0,0,0,0,0,628.24,2653.39,6,0,0.74,0.5,136,1.29,0.84,0.74,105.58,FLYING
107.84,APPROACH,FLY_TO_FIX,148.99,149,0.01,2538.79,0.46,10.71,10.56,258,-0.003,0.2855,0,15.286,1,0.6,4.5,2.003,0.35,0.0168,0.4,257.99,0,0,0,0,0,0,0,0,0,270.04,0,0,0,0,0,0,0,0,0,0,0,0,0,1,1,0,0,VALID,0,0,0,0,0,1,0,0,0,0,0,0,0,0,0,0,0,0,0,0,667.1,2651.19,6,0,0.74,0.5,139,1.29,0.84,0.74,107.9,FLYING
110.16,APPROACH,FLY_TO_FIX,149.06,149,-0.06,2539.84,0.46,10.68,10.53,257.99,0.001,0.2591,0,15.255,1,0.6,4.5,2.003,0.35,0.0168,0.4,257.99,0,0,0,0,0,0,0,0,0,270.04,0,0,0,0,0,0,0,0,0,0,0,0,0,1,1,0,0,VALID,0,0,0,0,0,1,0,0,0,0,0,0,0,0,0,0,0,0,0,0,693.67,2652.05,6,0,0.74,0.5,142,1.29,0.84,0.74,110.22,FLYING
112.48,APPROACH,FLY_TO_FIX,149.16,149,-0.16,2540.91,0.46,10.68,10.53,257.99,0,0.2334,0,15.05,1,0.6,4.5,2.003,0.35,0.0168,0.4,257.99,0,0,0,0,0,0,0,0,0,270.04,0,0,0,0,0,0,0,0,0,0,0,0,0,1,1,0,0,VALID,0,0,0,0,0,1,0,0,0,0,0,0,0,0,0,0,0,0,0,0,670.81,2653.4,6,0,0.74,0.5,145,1.29,0.84,0.74,112.54,FLYING
114.8,APPROACH,FLY_TO_FIX,149.08,149,-0.08,2541.99,0.46,10.7,10.55,257.99,-0.003,0.2497,0,14.87,1,0.6,4.5,2.003,0.35,0.0168,0.4,257.99,0,0,0,0,0,0,0,0,0,270.04,0,0,0,0,0,0,0,0,0,0,0,0,0,1,1,0,0,VALID,0,0,0,0,0,1,0,0,0,0,0,0,0,0,0,0,0,0,0,0,647.34,2652.27,6,0,0.74,0.5,148,1.29,0.84,0.74,114.86,FLYING
117.12,APPROACH,FLY_TO_FIX,148.96,149,0.04,2543.06,0.45,10.72,10.57,257.99,0,0.2695,0,14.883,1,0.6,4.5,2.003,0.35,0.0168,0.4,257.99,0,0,0,0,0,0,0,0,0,270.04,0,0,0,0,0,0,0,0,0,0,0,0,0,1,1,0,0,VALID,0,0,0,0,0,1,0,0,0,0,0,0,0,0,0,0,0,0,0,0,661.17,2650.63,6,0,0.74,0.5,151,1.29,0.84,0.74,117.18,FLYING
119.44,APPROACH,FLY_TO_FIX,148.95,149,0.05,2544.11,0.45,10.7,10.55,257.99,0,0.2645,0,14.975,1,0.6,4.5,2.003,0.35,0.0168,0.4,257.99,0,0,0,0,0,0,0,0,0,270.04,0,0,0,0,0,0,0,0,0,0,0,0,0,1,1,0,0,VALID,0,0,0,0,0,1,0,0,0,0,0,0,0,0,0,0,0,0,0,0,681.23,2650.5,6,0,0.74,0.5,154,1.29,0.84,0.74,119.5,FLYING
121.76,APPROACH,FLY_TO_FIX,149.01,149,-0.01,2545.17,0.46,10.69,10.54,257.99,0.001,0.2484,0,14.99,1,0.6,4.5,2.003,0.35,0.0168,0.4,257.99,0,0,0,0,0,0,0,0,0,270.04,0,0,0,0,0,0,0,0,0,0,0,0,0,1,1,0,0,VALID,0,0,0,0,0,1,0,0,0,0,0,0,0,0,0,0,0,0,0,0,681.34,2651.35,6,0,0.74,0.5,157,1.29,0.84,0.74,121.82,FLYING
124.08,APPROACH,FLY_TO_FIX,149.03,149,-0.03,2546.24,0.46,10.7,10.55,257.99,-0.001,0.2461,0,14.94,1,0.6,4.5,2.003,0.35,0.0168,0.4,257.99,0,0,0,0,0,0,0,0,0,270.04,0,0,0,0,0,0,0,0,0,0,0,0,0,1,1,0,0,VALID,0,0,0,0,0,1,0,0,0,0,0,0,0,0,0,0,0,0,0,0,663.5,2651.53,6,0,0.74,0.5,160,1.29,0.84,0.74,124.14,FLYING
126.4,APPROACH,FLY_TO_FIX,148.97,149,0.03,2547.31,0.45,10.71,10.57,257.99,0,0.258,0,14.949,1,0.6,4.5,2.003,0.35,0.0168,0.4,257.98,0,0,0,0,0,0,0,0,0,270.04,0,0,0,0,0,0,0,0,0,0,0,0,0,1,1,0,0,VALID,0,0,0,0,0,1,0,0,0,0,0,0,0,0,0,0,0,0,0,0,662.31,2650.77,6,0,0.74,0.5,163,1.29,0.84,0.74,126.46,FLYING
128.72,APPROACH,FLY_TO_FIX,148.94,149,0.06,2548.37,0.45,10.7,10.55,257.99,0.002,0.2617,0,15.026,1,0.6,4.5,2.003,0.35,0.0168,0.4,257.98,0,0,0,0,0,0,0,0,0,270.04,0,0,0,0,0,0,0,0,0,0,0,0,0,1,1,0,0,VALID,0,0,0,0,0,1,0,0,0,0,0,0,0,0,0,0,0,0,0,0,672.7,2650.39,6,0,0.74,0.5,166,1.29,0.84,0.74,128.78,FLYING
131.04,APPROACH,FLY_TO_FIX,148.97,149,0.03,2549.43,0.46,10.69,10.55,257.99,0.001,0.2547,0,15.086,1,0.6,4.5,2.003,0.35,0.0168,0.4,257.98,0,0,0,0,0,0,0,0,0,270.04,0,0,0,0,0,0,0,0,0,0,0,0,0,1,1,0,0,VALID,0,0,0,0,0,1,0,0,0,0,0,0,0,0,0,0,0,0,0,0,678.71,2650.76,6,0,0.74,0.5,169,1.29,0.84,0.74,131.1,FLYING
133.36,APPROACH,FLY_TO_FIX,149.01,149,-0.01,2550.49,0.46,10.69,10.54,257.99,-0.001,0.2481,0,15.083,1,0.6,4.5,2.003,0.35,0.0168,0.4,257.98,0,0,0,0,0,0,0,0,0,270.04,0,0,0,0,0,0,0,0,0,0,0,0,0,1,1,0,0,VALID,0,0,0,0,0,1,0,0,0,0,0,0,0,0,0,0,0,0,0,0,671.73,2651.23,6,0,0.74,0.5,172,1.29,0.84,0.74,133.42,FLYING
135.68,APPROACH,FLY_TO_FIX,149,149,0,2551.56,0.45,10.7,10.55,257.99,0,0.2527,0,15.072,1,0.6,4.5,2.003,0.35,0.0168,0.4,257.98,0,0,0,0,0,0,0,0,0,270.04,0,0,0,0,0,0,0,0,0,0,0,0,0,1,1,0,0,VALID,0,0,0,0,0,1,0,0,0,0,0,0,0,0,0,0,0,0,0,0,665.2,2651.02,6,0,0.74,0.5,175,1.29,0.84,0.74,135.74,FLYING
138,APPROACH,FLY_TO_FIX,148.97,149,0.03,2552.62,0.46,10.7,10.55,257.99,0.001,0.2584,0,15.104,1,0.6,4.5,2.003,0.35,0.0168,0.4,257.98,0,0,0,0,0,0,0,0,0,270.04,0,0,0,0,0,0,0,0,0,0,0,0,0,1,1,0,0,VALID,0,0,0,0,0,1,0,0,0,0,0,0,0,0,0,0,0,0,0,0,669.28,2650.66,6,0,0.74,0.5,178,1.29,0.84,0.74,138.06,FLYING
140.32,APPROACH,FLY_TO_FIX,148.98,149,0.02,2553.68,0.45,10.69,10.54,257.99,0.001,0.2555,0,15.14,1,0.6,4.5,2.003,0.35,0.0168,0.4,257.98,0,0,0,0,0,0,0,0,0,270.04,0,0,0,0,0,0,0,0,0,0,0,0,0,1,1,0,0,VALID,0,0,0,0,0,1,0,0,0,0,0,0,0,0,0,0,0,0,0,0,674.72,2650.79,6,0,0.74,0.5,181,1.29,0.84,0.74,140.38,FLYING
142.64,APPROACH,FLY_TO_FIX,149.01,149,-0.01,2554.73,0.45,10.69,10.53,257.99,0.002,0.2503,0,15.136,1,0.6,4.5,2.003,0.35,0.0168,0.4,257.98,0,0,0,0,0,0,0,0,0,270.04,0,0,0,0,0,0,0,0,0,0,0,0,0,1,1,0,0,VALID,0,0,0,0,0,1,0,0,0,0,0,0,0,0,0,0,0,0,0,0,672.59,2651.15,6,0,0.74,0.5,184,1.29,0.84,0.74,142.7,FLYING
144.96,APPROACH,FLY_TO_FIX,149.01,149,-0.01,2555.8,0.46,10.69,10.54,257.99,0.001,0.2518,0,15.115,1,0.6,4.5,2.003,0.35,0.0168,0.4,257.98,0,0,0,0,0,0,0,0,0,270.04,0,0,0,0,0,0,0,0,0,0,0,0,0,1,1,0,0,VALID,0,0,0,0,0,1,0,0,0,0,0,0,0,0,0,0,0,0,0,0,667.21,2651.12,6,0,0.74,0.5,187,1.29,0.84,0.74,145.02,FLYING
147.28,APPROACH,FLY_TO_FIX,149,149,0,2556.86,0.46,10.69,10.53,257.99,0.003,0.255,0,15.11,1,0.6,4.5,2.003,0.35,0.0168,0.4,257.98,0,0,0,0,0,0,0,0,0,270.04,0,0,0,0,0,0,0,0,0,0,0,0,0,1,1,0,0,VALID,0,0,0,0,0,1,0,0,0,0,0,0,0,0,0,0,0,0,0,0,668.13,2650.91,6,0,0.74,0.5,190,1.29,0.84,0.74,147.34,FLYING
149.6,APPROACH,FLY_TO_FIX,149,149,0,2557.92,0.46,10.68,10.53,257.99,0.003,0.2546,0,15.116,1,0.6,4.5,2.003,0.35,0.0168,0.4,257.98,0,0,0,0,0,0,0,0,0,270.04,0,0,0,0,0,0,0,0,0,0,0,0,0,1,1,0,0,VALID,0,0,0,0,0,1,0,0,0,0,0,0,0,0,0,0,0,0,0,0,671.13,2650.89,6,0,0.74,0.5,193,1.29,0.84,0.74,149.66,FLYING
151.92,APPROACH,FLY_TO_FIX,149.01,149,-0.01,2558.98,0.45,10.69,10.54,257.99,0,0.2524,0,15.112,1,0.6,4.5,2.003,0.35,0.0168,0.4,257.98,0,0,0,0,0,0,0,0,0,270.04,0,0,0,0,0,0,0,0,0,0,0,0,0,1,1,0,0,VALID,0,0,0,0,0,1,0,0,0,0,0,0,0,0,0,0,0,0,0,0,671.89,2651.01,6,0,0.74,0.5,196,1.29,0.84,0.74,151.98,FLYING
154.24,APPROACH,FLY_TO_FIX,149.01,149,-0.01,2560.05,0.46,10.68,10.54,257.98,0.006,0.2512,0,15.094,1,0.6,4.5,2.003,0.35,0.0168,0.4,257.97,0,0,0,0,0,0,0,0,0,270.04,0,0,0,0,0,0,0,0,0,0,0,0,0,1,1,0,0,VALID,0,0,0,0,0,1,0,0,0,0,0,0,0,0,0,0,0,0,0,0,669.61,2651.09,6,0,0.74,0.5,199,1.29,0.84,0.74,154.3,FLYING
156.56,APPROACH,FLY_TO_FIX,149.01,149,-0.01,2561.11,0.45,10.69,10.54,257.98,0.009,0.2516,0,15.071,1,0.6,4.5,2.003,0.35,0.0168,0.4,257.97,0,0,0,0,0,0,0,0,0,270.04,0,0,0,0,0,0,0,0,0,0,0,0,0,1,1,0,0,VALID,0,0,0,0,0,1,0,0,0,0,0,0,0,0,0,0,0,0,0,0,667.59,2651.07,6,0,0.74,0.5,202,1.29,0.84,0.74,156.62,FLYING
158.88,APPROACH,FLY_TO_FIX,149,149,0,2562.17,0.46,10.68,10.53,257.98,0.007,0.2534,0,15.059,1,0.6,4.5,2.003,0.35,0.0168,0.4,257.97,0,0,0,0,0,0,0,0,0,270.04,0,0,0,0,0,0,0,0,0,0,0,0,0,1,1,0,0,VALID,0,0,0,0,0,1,0,0,0,0,0,0,0,0,0,0,0,0,0,0,667.83,2650.95,6,0,0.74,0.5,205,1.29,0.84,0.74,158.94,FLYING
161.2,APPROACH,FLY_TO_FIX,149,149,0,2563.23,0.46,10.68,10.52,257.98,0.01,0.253,0,15.054,1,0.6,4.5,2.003,0.35,0.0168,0.4,257.97,0,0,0,0,0,0,0,0,0,270.04,0,0,0,0,0,0,0,0,0,0,0,0,0,1,1,0,0,VALID,0,0,0,0,0,1,0,0,0,0,0,0,0,0,0,0,0,0,0,0,669.3,2650.93,6,0,0.74,0.5,208,1.29,0.84,0.74,161.26,FLYING
163.5,APPROACH,FLY_TO_FIX,148.35,149,0.65,2563.57,-0.8,10.82,10.57,259.18,-21.658,0.39,0,15.478,1,0.6,4.5,2.003,0.35,0.0168,0.4,269.22,0,0,0,0,0,0,0,0,0,270.04,0,0,0,0,0,0,0,0,0,0,0,0,0,1,1,0,0,VALID,0,0,0,0,0,1,0,0,0,0,0,0,0,0,0,0,0,0,0,0,683.23,2642.29,6,0,0.72,0.5,211,1.3,0.86,0.72,163.56,FLYING
165.76,APPROACH,FLY_TO_FIX,146.89,149,2.11,2559.72,-2.34,11.7,12.99,265.33,-6.425,0.6493,0,17.872,1,0.6,4.5,2.003,0.35,0.0168,0.4,269.47,0,0,0,0,0,0,0,0,0,270.04,0,0,0,0,0,0,0,0,0,0,0,0,0,1,1,0,0,VALID,0,0,0,0,0,1,0,0,0,0,0,0,0,0,0,0,0,0,0,0,891.56,2623.08,6,0,0.72,0.5,214,1.33,0.82,0.72,165.82,FLYING
168.06,APPROACH,FLY_TO_FIX,146.31,149,2.69,2557.18,-1.2,13.23,13.86,268.01,-33.321,0.6863,0,20,1,0.6,4.5,2.003,0.35,0.0168,0.4,269.68,0,0,0,0,0,0,0,0,0,270.04,0,0,0,0,0,0,0,0,0,0,0,0,0,1,1,0,0,VALID,0,0,0,0,0,1,0,0,0,0,0,0,0,0,0,0,0,0,0,0,1242.81,2615.77,6,0,0.74,0.5,217,1.3,0.82,0.72,168.12,FLYING
170.44,APPROACH,FLY_TO_FIX,147.84,149,1.16,2553.41,-1.9,10.48,11.82,271.85,-13.271,0.32,0,20,1,0.6,4.5,2.003,0.35,0.0168,0.4,269.8,0,0,0,0,0,0,0,0,0,270.04,0,0,0,0,0,0,0,0,0,0,0,0,0,2,2,0,0,VALID,0,0,0,0,0,1,0,0,0,0,0,0,0,0,0,0,0,0,0,0,1351.35,2635.91,6,0,0.8,0.5,220,1.26,0.84,0.74,170.5,FLYING
172.74,APPROACH,FLY_TO_FIX,149.71,149,-0.71,2551.66,0.05,8.99,9.09,270.29,-8.37,0.0191,0,19.647,1,0.6,4.5,2.003,0.35,0.0168,0.4,269.85,0,0,0,0,0,0,0,0,0,270.04,0,0,0,0,0,0,0,0,0,0,0,0,0,2,2,0,0,VALID,0,0,0,0,0,1,0,0,0,0,0,0,0,0,0,0,0,0,0,0,895.85,2660.32,6,0,0.72,0.5,223,1.3,0.84,0.72,172.8,FLYING
175,APPROACH,FLY_TO_FIX,149.13,149,-0.13,2551.81,0.25,10.25,10.18,269.91,-2.964,0.2388,0,18.891,1,0.6,4.5,1.846,0.35,0.0168,0.4,269.87,0,0,0,0,0,0,0,0,0,270.04,0,0,0,0,0,0,0,0,0,0,0,0,0,2,2,0,0,VALID,0,0,0,0,0,1,0,0,0,0,0,0,0,0,0,0,0,0,0,0,496.79,2652.53,6,0,0.72,0.5,226,1.33,0.82,0.72,175.06,FLYING
177.34,APPROACH,FLY_TO_FIX,147.92,149,1.08,2553.8,1.29,10.36,9.94,269.94,-1.44,0.51,0,20,1,0.6,4.5,1.846,0.35,0.0168,0.4,269.88,0,0,0,0,0,0,0,0,0,270.04,0,0,0,0,0,0,0,0,0,0,0,0,0,2,2,0,0,VALID,0,0,0,0,0,1,0,0,0,0,0,0,0,0,0,0,0,0,0,0,663.12,2636.69,6,0,0.74,0.5,229,1.28,0.86,0.72,177.4,FLYING
179.66,APPROACH,FLY_TO_FIX,148.14,149,0.86,2556.54,0.62,9.59,9.35,269.92,-0.618,0.4224,0,20,1,0.6,4.5,1.846,0.35,0.0168,0.4,269.89,0,0,0,0,0,0,0,0,0,270.04,0,0,0,0,0,0,0,0,0,0,0,0,0,2,2,0,0,VALID,0,0,0,0,0,1,0,0,0,0,0,0,0,0,0,0,0,0,0,0,910.03,2639.62,6,0,0.74,0.5,232,1.29,0.84,0.74,179.72,FLYING
181.98,APPROACH,FLY_TO_FIX,149.51,149,-0.51,2558.34,0.76,9.34,9.09,269.88,-0.18,0.152,0,19.741,1,0.6,4.5,1.846,0.35,0.0168,0.4,269.89,0,0,0,0,0,0,0,0,0,270.04,0,0,0,0,0,0,0,0,0,0,0,0,0,2,2,0,0,VALID,0,0,0,0,0,1,0,0,0,0,0,0,0,0,0,0,0,0,0,0,858.47,2657.71,6,0,0.74,0.5,235,1.29,0.84,0.74,182.04,FLYING
184.3,APPROACH,FLY_TO_FIX,149.45,149,-0.45,2559.65,0.46,9.68,9.55,269.88,-0.061,0.2222,0,18.74,1,0.6,4.5,1.846,0.35,0.0168,0.4,269.89,0,0,0,0,0,0,0,0,0,270.04,0,0,0,0,0,0,0,0,0,0,0,0,0,2,2,0,0,VALID,0,0,0,0,0,1,0,0,0,0,0,0,0,0,0,0,0,0,0,0,576.57,2656.71,6,0,0.74,0.5,238,1.29,0.84,0.74,184.36,FLYING
186.62,APPROACH,FLY_TO_FIX,148.92,149,0.08,2560.5,0.43,9.51,9.37,269.88,-0.047,0.3479,0,18.607,1,0.6,4.5,1.846,0.35,0.0168,0.4,269.89,0,0,0,0,0,0,0,0,0,270.04,0,0,0,0,0,0,0,0,0,0,0,0,0,2,2,0,0,VALID,0,0,0,0,0,1,0,0,0,0,0,0,0,0,0,0,0,0,0,0,630.32,2649.7,6,0,0.74,0.5,241,1.29,0.84,0.74,186.68,FLYING
188.94,APPROACH,FLY_TO_FIX,148.96,149,0.04,2561.47,0.46,9.43,9.28,269.88,-0.038,0.3274,0,18.766,1,0.6,4.5,1.846,0.35,0.0168,0.4,269.89,0,0,0,0,0,0,0,0,0,270.04,0,0,0,0,0,0,0,0,0,0,0,0,0,2,2,0,0,VALID,0,0,0,0,0,1,0,0,0,0,0,0,0,0,0,0,0,0,0,0,742.28,2650.34,6,0,0.74,0.5,244,1.29,0.84,0.74,189,FLYING
191.26,APPROACH,FLY_TO_FIX,149.49,149,-0.49,2562.49,0.47,9.36,9.21,269.89,-0.034,0.2188,0,18.304,1,0.6,4.5,1.846,0.35,0.0168,0.4,269.89,0,0,0,0,0,0,0,0,0,270.04,0,0,0,0,0,0,0,0,0,0,0,0,0,2,2,0,0,VALID,0,0,0,0,0,1,0,0,0,0,0,0,0,0,0,0,0,0,0,0,740.51,2657.28,6,0,0.74,0.5,247,1.29,0.84,0.74,191.32,FLYING
193.58,APPROACH,FLY_TO_FIX,149.62,149,-0.62,2563.61,0.46,9.41,9.25,269.89,-0.025,0.2067,0,17.355,1,0.6,4.5,1.846,0.35,0.0168,0.4,269.89,0,0,0,0,0,0,0,0,0,270.04,0,0,0,0,0,0,0,0,0,0,0,0,0,2,2,0,0,VALID,0,0,0,0,0,1,0,0,0,0,0,0,0,0,0,0,0,0,0,0,624.71,2658.93,6,0,0.74,0.5,250,1.29,0.84,0.74,193.64,FLYING
195.92,APPROACH,ILS_TRACK,148.79,147.4,-1.39,2564.81,-0.53,10.2,10.28,269.71,7.649,0.2392,0,16.024,1,0.6,4.5,1.846,0.35,0.0168,0.4,263.11,-0.004,197.4,1164.08,25.39,-7.29,0,0,0,0,270.04,0,0,0,0,0,0,0,0,0,0,0,0,0,2,2,0,0,VALID,0,0,0,0,0,1,0,0,0,0,0,0,0,0,0,0,0,0,0,0,574.01,2648.01,6,0,0.8,0.5,253,1.27,0.84,0.7,196,FLYING
198.42,APPROACH,ILS_TRACK,146.62,145,-1.62,2559.84,-3.18,10.39,11.54,263.03,1.71,0.3954,0,13.597,1,0.6,4.5,1.846,0.35,0.0168,0.4,265.23,0.018,188.05,1182.42,24.958,-5.171,0,0,0,0,270.04,0,0,0,0,0,0,0,0,0,0,0,0,0,2,2,0,0,VALID,0,0,0,0,0,1,0,0,0,0,0,0,0,0,0,0,0,0,0,0,658.37,2619.47,6,0,0.8,0.5,256,1.2,0.9,0.8,198.5,FLYING
200.98,APPROACH,ILS_TRACK,144.7,142.6,-2.1,2552.63,-2.88,10.8,11.71,264.64,-1.04,0.3908,0,10.824,1,0.6,4.5,1.846,0.35,0.0168,0.4,267.33,0.054,167.45,1198.01,24.522,-3.067,0,0,0,0,270.04,0,0,0,0,0,0,0,0,0,0,0,0,0,2,2,0,0,VALID,0,0,0,0,0,1,0,0,0,0,0,0,0,0,0,0,0,0,0,0,840.13,2594.43,6,0,0.82,0.5,259,1.17,0.92,0.8,201.06,FLYING
203.54,APPROACH,ILS_TRACK,143.82,140.2,-3.62,2547.78,-2.32,11.33,12.12,268.09,-1.391,0.1283,0,6.049,1,0.6,4.5,1.846,0.35,0.0168,0.4,267.92,0.08,145.3,1215.57,24.09,-2.477,0,0,0,0,270.04,0,0,0,0,0,0,0,0,0,0,0,0,0,2,2,0,0,VALID,0,0,0,0,0,1,0,0,0,0,0,0,0,0,0,0,0,0,0,0,756.05,2583.14,6,0,0.82,0.5,262,1.17,0.92,0.82,203.62,FLYING
206.1,APPROACH,ILS_TRACK,141.05,140,-1.05,2545.07,-2.31,13.26,14.02,268.23,-1.078,0.4237,0,2.485,1,0.6,4.5,1.846,0.35,0.0168,0.4,268.37,0.093,125.94,1235.22,23.662,-2.031,0,0,0,0,270.04,0,0,0,0,0,0,0,0,0,0,0,0,0,2,2,0,0,VALID,0,0,0,0,0,1,0,0,0,0,0,0,0,0,0,0,0,0,0,0,555.1,2547.2,6,0,0.82,0.5,265,1.17,0.92,0.82,206.18,FLYING
208.66,APPROACH,ILS_TRACK,136.08,140,3.92,2542.66,-0.96,16.46,16.79,267.21,2.429,1,0,3.906,1,0.6,4.5,1.846,0.35,0.0168,0.4,268.81,0.106,108.38,1254.46,23.246,-1.587,0,0,0,0,270.04,0,0,0,0,0,0,0,0,0,0,0,0,0,2,2,0,0,VALID,0,0,0,0,0,1,0,0,0,0,0,0,0,0,0,0,0,0,0,0,956.56,2483.56,6,0,0.82,0.5,268,1.17,0.92,0.82,208.74,FLYING
211.22,APPROACH,ILS_TRACK,133.15,140,6.85,2545.36,2.33,18.33,17.66,270.6,-7.615,1,0,3.848,1,0.6,4.5,1.846,0.35,0.0168,0.4,269.86,0.095,89.57,1277.83,22.842,-0.543,0,0,0,0,270.04,0,0,0,0,0,0,0,0,0,0,0,0,0,2,2,0,0,VALID,0,0,0,0,0,1,0,0,0,0,0,0,0,0,0,0,0,0,0,0,1544.86,2446.38,6,0,0.82,0.5,271,1.17,0.92,0.82,211.3,FLYING
213.8,APPROACH,ILS_TRACK,132.68,140,7.32,2557.48,6.4,19.71,17.34,270.18,0.607,1,0,3.79,1,0.6,4.5,1.846,0.35,0.0168,0.4,268.58,0.038,78.02,1310.1,22.439,-1.817,0,0,0,0,270.04,0,0,0,0,0,0,0,0,0,0,0,0,0,2,2,0,0,VALID,0,0,0,0,0,1,0,0,0,0,0,0,0,0,0,0,0,0,0,0,1903.96,2440.28,6,0,0.82,0.5,274,1.16,0.94,0.82,213.88,FLYING
216.36,APPROACH,ILS_TRACK,135.58,140,4.42,2577.61,11.54,11.45,7.44,268.58,1.037,0.6116,0,13.001,1,0.6,4.5,1.846,0.35,0.0168,0.4,269.39,-0.062,69.17,1350.99,22.038,-1.006,0,0,0,0,270.04,0,0,0,0,0,0,0,0,0,0,0,0,0,2,2,0,0,VALID,0,0,0,0,0,1,0,0,0,0,0,0,0,0,0,0,0,0,0,0,2053.56,2475.94,6,0,0.82,0.5,277,1.17,0.92,0.82,216.44,FLYING
218.92,APPROACH,ILS_TRACK,142.19,140,-2.19,2593.59,4.56,10.39,8.91,269.91,-4.428,0.0116,0,13.735,1,0.6,4.5,1.846,0.35,0.0168,0.4,269.72,-0.146,57.92,1389.92,21.62,-0.678,0,0,0,0,270.04,0,0,0,0,0,0,0,0,0,0,0,0,0,2,2,0,0,VALID,0,0,0,0,0,1,0,0,0,0,0,0,0,0,0,0,0,0,0,0,1429.46,2561.15,6,0,0.82,0.5,280,1.17,0.92,0.82,219,FLYING
221.48,APPROACH,ILS_TRACK,144.43,140,-4.43,2600.12,1.49,9.07,8.57,269.78,-0.905,0,0,13.53,1,0.6,4.5,1.634,0.35,0.0168,0.4,269.43,-0.18,50.39,1419.43,21.188,-0.973,0,0,0,0,270.04,0,0,0,0,0,0,0,0,0,0,0,0,0,2,2,0,0,VALID,0,0,0,0,0,1,0,0,0,0,0,0,0,0,0,0,0,0,0,0,575.92,2590.15,6,0,0.82,0.5,283,1.17,0.92,0.82,221.56,FLYING
224.04,APPROACH,ILS_TRACK,143.4,140,-3.4,2599.3,-1.71,8.18,8.76,269.6,-0.008,0,0,13.328,1,0.6,4.5,1.445,0.35,0.0168,0.4,269.6,-0.178,44.32,1441.97,20.754,-0.796,0,0,0,0,270.04,0,0,0,0,0,0,0,0,0,0,0,0,0,2,2,0,0,VALID,0,0,0,0,0,1,0,0,0,0,0,0,0,0,0,0,0,0,0,0,226.41,2576.6,6,0,0.82,0.5,286,1.17,0.92,0.82,224.12,FLYING
226.62,APPROACH,ILS_TRACK,141.35,140,-1.35,2589.51,-5.28,6.96,8.78,269.49,0.556,0.2184,0,11.515,1,0.6,4.5,1.337,0.35,0.0168,0.4,269.85,-0.133,38.21,1455.67,20.323,-0.549,0,0,0,0,270.04,0,0,0,0,0,0,0,0,0,0,0,0,0,2,2,0,0,VALID,0,0,0,0,0,1,0,0,0,0,0,0,0,0,0,0,0,0,0,0,136.71,2549.79,6,0,0.82,0.5,289,1.16,0.94,0.82,226.7,FLYING
229.18,APPROACH,ILS_TRACK,139.93,140,0.07,2570.97,-8.97,7.89,10.98,269.49,-0.233,0.41,0,10.95,1,0.6,4.5,1.337,0.35,0.0168,0.4,270.15,-0.042,31.85,1459.84,19.9,-0.25,0,0,0,0,270.04,0,0,0,0,0,0,0,0,0,0,0,0,0,2,2,0,0,VALID,0,0,0,0,0,1,0,0,0,0,0,0,0,0,0,0,0,0,0,0,390.2,2531.63,6,0,0.82,0.5,292,1.17,0.92,0.82,229.26,FLYING
231.74,APPROACH,ILS_TRACK,138.93,140,1.07,2547.92,-9.35,9.51,12.77,269.81,-0.676,0.5008,0,12.11,1,0.6,4.5,1.337,0.35,0.0168,0.4,270.27,0.072,25.75,1458.9,19.482,-0.131,0,0,0,0,270.04,0,0,0,0,0,0,0,0,0,0,0,0,0,2,2,0,0,VALID,0,0,0,0,0,1,0,0,0,0,0,0,0,0,0,0,0,0,0,0,693.23,2519.3,6,0,0.82,0.5,295,1.17,0.92,0.82,231.82,FLYING
234.3,APPROACH,ILS_TRACK,138.1,140,1.9,2526.14,-8.6,10.9,13.93,269.79,-0.38,0.5812,0,14.538,1,0.6,4.5,1.337,0.35,0.0168,0.4,270.35,0.181,20.65,1458.76,19.066,-0.049,0,0,0,0,270.04,0,0,0,0,0,0,0,0,0,0,0,0,0,2,2,0,0,VALID,0,0,0,0,0,1,0,0,0,0,0,0,0,0,0,0,0,0,0,0,950.07,2509.15,6,0,0.82,0.5,298,1.17,0.92,0.82,234.38,FLYING
236.86,APPROACH,ILS_TRACK,137.49,140,2.51,2504.69,-8.39,11.95,14.92,269.7,0.05,0.6523,0,18.069,1,0.6,4.5,1.337,0.35,0.0168,0.4,270.56,0.289,15.83,1458.92,18.653,0.156,0,0,0,0,270.04,0,0,0,0,0,0,0,0,0,0,0,0,0,2,2,0,0,VALID,0,0,0,0,0,1,0,0,0,0,0,0,0,0,0,0,0,0,0,0,1187.59,2501.79,6,0,0.82,0.5,301,1.17,0.92,0.82,236.94,FLYING
239.42,APPROACH,ILS_TRACK,137.92,140,2.08,2484.02,-7.56,11.23,13.91,269.27,1.748,0.5212,0,20,1,0.6,4.5,1.337,0.35,0.0168,0.4,270.77,0.392,10.87,1459.82,18.241,0.368,0,0,0,0,270.04,0,0,0,0,0,0,0,0,0,0,0,0,0,2,2,0,0,VALID,0,0,0,0,0,1,0,0,0,0,0,0,0,0,0,0,0,0,0,0,1346.4,2507.76,6,0,0.82,0.5,304,1.17,0.92,0.82,239.5,FLYING
241.98,APPROACH,ILS_TRACK,139.08,140,0.92,2463.59,-8.1,10.9,13.75,268.77,2.529,0.2922,0,20,1,0.6,4.5,1.337,0.35,0.0168,0.4,271.34,0.494,4.62,1461.1,17.827,0.939,0,0,0,0,270.04,0,0,0,0,0,0,0,0,0,0,0,0,0,2,2,0,0,VALID,0,0,0,0,0,1,0,0,0,0,0,0,0,0,0,0,0,0,0,0,1148.82,2522.99,6,0,0.82,0.5,307,1.17,0.92,0.82,242.06,FLYING
244.54,APPROACH,ILS_TRACK,138.46,140,1.54,2442.35,-8.09,11.02,13.92,268.13,3.751,0.4602,0,20,1,0.6,4.5,1.337,0.35,0.0168,0.4,272.13,0.6,-4.17,1461.66,17.413,1.729,0,0,0,0,270.04,0,0,0,0,0,0,0,0,0,0,0,0,0,2,2,0,0,VALID,0,0,0,0,0,1,0,0,0,0,0,0,0,0,0,0,0,0,0,0,965.79,2515.55,6,0,0.82,0.5,310,1.17,0.92,0.82,244.62,FLYING
247.1,APPROACH,ILS_TRACK,136.87,140,3.13,2425.07,-6.04,14,16.17,270.08,-0.562,0.746,0,20,1,0.6,4.5,1.337,0.35,0.0168,0.4,272.73,0.689,-15.34,1465.38,17.001,2.325,0,0,0,0,270.04,0,0,0,0,0,0,0,0,0,0,0,0,0,2,2,0,0,VALID,0,0,0,0,0,1,0,0,0,0,0,0,0,0,0,0,0,0,0,0,1110.3,2496,6,0,0.82,0.5,313,1.17,0.92,0.82,247.18,FLYING
249.66,APPROACH,ILS_TRACK,136.31,140,3.69,2411.56,-4.77,13.3,15.12,266.4,7.883,0.7506,0,20,1,0.6,4.5,1.337,0.35,0.0168,0.4,273.34,0.758,-25.28,1472.91,16.595,2.939,0,0,0,0,270.04,0,0,0,0,0,0,0,0,0,0,0,0,0,2,2,0,0,VALID,0,0,0,0,0,1,0,0,0,0,0,0,0,0,0,0,0,0,0,0,1473.44,2489.15,6,0,0.82,0.5,316,1.17,0.92,0.82,249.74,FLYING
252.22,APPROACH,ILS_TRACK,137.37,140,2.63,2402.65,-2.14,14.56,15.59,271.73,-8.908,0.4786,0,20,1,0.6,4.5,1.337,0.35,0.0168,0.4,274.42,0.804,-41.38,1484.88,16.187,4.017,0,0,0,0,270.04,0,0,0,0,0,0,0,0,0,0,0,0,0,2,2,0,0,VALID,0,0,0,0,0,1,0,0,0,0,0,0,0,0,0,0,0,0,0,0,1520.61,2502.99,6,0,0.82,0.5,319,1.17,0.92,0.82,252.3,FLYING
254.78,APPROACH,ILS_TRACK,136.87,140,3.13,2399.94,0.35,15.46,15.17,271.19,5.223,0.5918,0,20,1,0.6,4.5,1.337,0.35,0.0168,0.4,272.91,0.819,-47.69,1503.2,15.777,2.51,0,0,0,0,270.04,0,0,0,0,0,0,0,0,0,0,0,0,0,2,2,0,0,VALID,0,0,0,0,0,1,0,0,0,0,0,0,0,0,0,0,0,0,0,0,1354.31,2496.83,6,0,0.82,0.5,322,1.17,0.92,0.82,254.86,FLYING
257.34,APPROACH,ILS_TRACK,137.06,140,2.94,2401.17,0.78,14.74,14.85,273.89,-11.248,0.5349,0,20,1,0.6,4.5,1.337,0.35,0.0168,0.4,273.12,0.815,-53.01,1525.47,15.369,2.715,0,0,0,0,270.04,0,0,0,0,0,0,0,0,0,0,0,0,0,2,2,0,0,VALID,0,0,0,0,0,1,0,0,0,0,0,0,0,0,0,0,0,0,0,0,1399.73,2499.15,6,0,0.82,0.5,325,1.17,0.92,0.82,257.42,FLYING
259.9,APPROACH,ILS_TRACK,137.34,140,2.66,2406.26,2.19,13.69,12.86,273.35,1.595,0.4871,0,20,1,0.6,4.5,1.337,0.35,0.0168,0.4,270.58,0.79,-46.81,1551.72,14.96,0.181,0,0,0,0,270.04,0,0,0,0,0,0,0,0,0,0,0,0,0,2,2,0,0,VALID,0,0,0,0,0,1,0,0,0,0,0,0,0,0,0,0,0,0,0,0,1367.42,2502.37,6,0,0.82,0.5,328,1.17,0.92,0.82,259.98,FLYING
262.46,APPROACH,ILS_TRACK,137.25,140,2.75,2414.37,4.92,15.27,13.64,269.87,4.838,0.5313,0,20,1,0.6,4.5,1.337,0.35,0.0168,0.4,270.71,0.75,-37.37,1581.21,14.55,0.313,0,0,0,0,270.04,0,0,0,0,0,0,0,0,0,0,0,0,0,2,2,0,0,VALID,0,0,0,0,0,1,0,0,0,0,0,0,0,0,0,0,0,0,0,0,1208.7,2501.27,6,0,0.82,0.5,331,1.17,0.92,0.82,262.54,FLYING
