t_s,phase,subphase,ias_ms,vapp_ms,spd_err_ms,agl_m,vs_ms,pitch_deg,aoa_deg,hdg_deg,bank_deg,thr_cmd,thr_intg,aa_hdg_cmd_deg,aa_fpa_cmd_deg,ils_loc_m,ils_gs_m,ils_dist_km,loc_corr_deg,gs_corr_deg,flare_fpa_cmd,flare_tgt_vs,flare_frac,steer_hdg_deg,steer_blend,ro_loc_corr_deg,ro_hdg_err_deg,ro_yaw_tgt,ro_yaw_scale,ro_yaw_gate,yaw_cmd,roll_cmd,pitch_cmd,ro_pitch_tgt_deg,ro_pitch_err_deg,ro_pitch_ff,ro_roll_assist,flaps_cur,flaps_tgt,phase_el_s,status
0.2,APPROACH,FLY_TO_FIX,78.17,76,-2.17,542.55,-18.49,-16.32,-3.45,270.41,0.078,0,-0.171,172.64,4.785,0,0,0,0,0,0,0,0,270.4,0,0,0,0,0,0,0,0,0,0,0,0,0,0,1,0.24,FLYING
0.42,APPROACH,ILS_TRACK,78.61,76,-2.61,537.78,-22.63,-19.79,-4.2,270.41,-0.004,0,-0.736,101.6,-0.249,0,0,0,0,0,0,0,0,270.4,0,0,0,0,0,0,0,0,0,0,0,0,0,0,1,0.46,FLYING
0.64,APPROACH,ILS_TRACK,79.13,76,-3.13,532.09,-26.68,-24.16,-5.68,270.41,-0.004,0,-1.413,272.72,0,-1.97,-24.88,9.313,2.319,97.955,0,0,0,270.4,0,0,0,0,0,0,0,0,0,0,0,0,0,1,1,0.68,FLYING
0.84,APPROACH,ILS_TRACK,79.61,76,-3.61,526.04,-31.19,-28.95,-7.24,270.41,-0.003,0,-2.197,270.48,0,-1.97,-29.93,9.297,0.079,27.318,0,0,0,270.4,0,0,0,0,0,0,0,0,0,0,0,0,0,1,1,0.88,FLYING
1.04,APPROACH,ILS_TRACK,80.13,76,-4.13,519.23,-35.88,-29.24,-4.75,270.4,-0.005,0,-3.011,270.48,0,-1.97,-35.77,9.281,0.076,34.092,0,0,0,270.4,0,0,0,0,0,0,0,0,0,0,0,0,0,1,1,1.08,FLYING
1.28,APPROACH,ILS_TRACK,80.98,76,-4.98,510.05,-39.44,-27.06,-0.27,270.4,0.03,0,-4.191,270.48,0,-1.97,-43.75,9.262,0.078,39.636,0,0,0,270.4,0,0,0,0,0,0,0,0,0,0,0,0,0,1,1,1.33,FLYING
1.52,APPROACH,ILS_TRACK,81.82,76,-5.82,500.5,-41.36,-24.14,3.38,270.39,0.042,0,-5.334,270.48,0,-1.97,-51.57,9.245,0.079,46.732,0,0,0,270.4,0,0,0,0,0,0,0,0,0,0,0,0,0,1,1,1.58,FLYING
1.82,APPROACH,ILS_TRACK,82.87,76,-6.87,488.48,-41.11,-17.11,9.6,270.4,0.002,0,-7.122,270.48,0,-1.97,-62.09,9.223,0.079,50.362,0,0,0,270.4,0,0,0,0,0,0,0,0,0,0,0,0,0,1,1,1.89,FLYING
2.14,APPROACH,ILS_TRACK,83.67,76,-7.67,476.44,-37.38,-12.41,11.97,270.41,-0.034,0,-9.52,270.48,0,-1.97,-73.01,9.198,0.08,49.65,0,0,0,270.4,0,0,0,0,0,0,0,0,0,0,0,0,0,1,1,2.21,FLYING
2.52,APPROACH,ILS_TRACK,84.05,76,-8.05,463.27,-32.51,-9.16,11.81,270.43,-0.072,0,-12.612,270.48,0,-1.97,-84.85,9.166,0.079,50.064,0,0,0,270.4,0,0,0,0,0,0,0,0,0,0,0,0,0,1,1,2.59,FLYING
2.84,APPROACH,ILS_TRACK,84.13,76,-8.13,453.88,-28.56,-6.62,11.7,270.43,-0.075,0,-15.172,270.47,0,-1.97,-93.14,9.14,0.075,48.977,0,0,0,270.4,0,0,0,0,0,0,0,0,0,0,0,0,0,1,1,2.91,FLYING
3.15,APPROACH,ILS_TRACK,84.07,76,-8.07,445.68,-24.74,-4.85,11.04,270.44,-0.077,0,-17.718,270.47,0,-1.96,-100.19,9.113,0.073,47.965,0,0,0,270.4,0,0,0,0,0,0,0,0,0,0,0,0,0,1,1,3.22,FLYING
3.54,APPROACH,ILS_TRACK,83.91,76,-7.91,437.13,-20.73,-3.06,10.24,270.44,-0.076,0,-20,270.47,0,-1.94,-107.28,9.08,0.069,46.925,0,0,0,270.4,0,0,0,0,0,0,0,0,0,0,0,0,0,1,1,3.61,FLYING
3.85,APPROACH,ILS_TRACK,83.74,76,-7.74,431.18,-17.91,-1.82,9.66,270.45,-0.065,0,-20,270.47,0,-1.93,-112,9.052,0.065,45.569,0,0,0,270.4,0,0,0,0,0,0,0,0,0,0,0,0,0,1,1,3.92,FLYING
4.17,APPROACH,ILS_TRACK,83.54,76,-7.54,426.05,-15.44,-0.64,9.26,270.46,-0.062,0,-20,270.46,0,-1.91,-115.86,9.025,0.062,44.568,0,0,0,270.4,0,0,0,0,0,0,0,0,0,0,0,0,0,1,1,4.24,FLYING
4.55,APPROACH,ILS_TRACK,83.23,76,-7.23,420.77,-12.71,0.59,8.77,270.46,-0.052,0,-20,270.46,0,-1.88,-119.56,8.991,0.056,43.569,0,0,0,270.4,0,0,0,0,0,0,0,0,0,0,0,0,0,1,1,4.62,FLYING
4.87,APPROACH,ILS_TRACK,82.93,76,-6.93,417.15,-10.86,1.4,8.41,270.47,-0.033,0,-20,270.45,0,-1.86,-121.88,8.964,0.053,42.441,0,0,0,270.4,0,0,0,0,0,0,0,0,0,0,0,0,0,1,1,4.94,FLYING
5.18,APPROACH,ILS_TRACK,82.61,76,-6.61,414.06,-9.24,2.09,8.08,270.47,-0.009,0,-20,270.45,0,-1.83,-123.64,8.936,0.05,41.565,0,0,0,270.4,0,0,0,0,0,0,0,0,0,0,0,0,0,1,1,5.25,FLYING
5.57,APPROACH,ILS_TRACK,82.19,76,-6.19,410.9,-7.6,2.78,7.72,270.47,0.015,0,-20,270.45,0,-1.79,-125.16,8.903,0.047,40.707,0,0,0,270.4,0,0,0,0,0,0,0,0,0,0,0,0,0,1,1,5.64,FLYING
5.88,APPROACH,ILS_TRACK,81.83,76,-5.83,408.74,-6.47,3.26,7.49,270.46,0.036,0,-20,270.44,0,-1.76,-125.97,8.876,0.045,39.849,0,0,0,270.4,0,0,0,0,0,0,0,0,0,0,0,0,0,1,1,5.95,FLYING
6.2,APPROACH,ILS_TRACK,81.46,76,-5.46,406.9,-5.52,3.67,7.3,270.46,0.05,0,-20,270.44,0,-1.72,-126.45,8.849,0.043,39.165,0,0,0,270.4,0,0,0,0,0,0,0,0,0,0,0,0,0,1,1,6.27,FLYING
6.58,APPROACH,ILS_TRACK,81,76,-5,405.01,-4.55,4.11,7.11,270.46,0.057,0,-20,270.44,0,-1.68,-126.68,8.816,0.041,38.463,0,0,0,270.4,0,0,0,0,0,0,0,0,0,0,0,0,0,1,1,6.65,FLYING
6.9,APPROACH,ILS_TRACK,80.61,76,-4.61,403.72,-3.88,4.41,6.99,270.46,0.063,0,-20,270.44,0,-1.65,-126.6,8.789,0.042,37.801,0,0,0,270.4,0,0,0,0,0,0,0,0,0,0,0,0,0,1,1,6.97,FLYING
7.21,APPROACH,ILS_TRACK,80.21,76,-4.21,402.61,-3.32,4.68,6.9,270.46,0.067,0,-20,270.44,0,-1.62,-126.34,8.762,0.041,37.244,0,0,0,270.4,0,0,0,0,0,0,0,0,0,0,0,0,0,1,1,7.28,FLYING
7.6,APPROACH,ILS_TRACK,79.72,76,-3.72,401.47,-2.75,4.97,6.81,270.45,0.071,0,-20,270.44,0,-1.59,-125.81,8.729,0.04,36.642,0,0,0,270.4,0,0,0,0,0,0,0,0,0,0,0,0,0,1,1,7.67,FLYING
7.91,APPROACH,ILS_TRACK,79.3,76,-3.3,400.69,-2.36,5.18,6.77,270.45,0.072,0,-20,270.44,0,-1.56,-125.24,8.703,0.041,36.103,0,0,0,270.4,0,0,0,0,0,0,0,0,0,0,0,0,0,1,1,7.98,FLYING
8.23,APPROACH,ILS_TRACK,78.89,76,-2.89,400.01,-2.04,5.36,6.73,270.45,0.073,0,-20,270.44,0,-1.53,-124.55,8.676,0.04,35.624,0,0,0,270.4,0,0,0,0,0,0,0,0,0,0,0,0,0,1,1,8.3,FLYING
8.61,APPROACH,ILS_TRACK,78.37,76,-2.37,399.32,-1.7,5.57,6.72,270.45,0.068,0,-20,270.44,0,-1.5,-123.59,8.644,0.039,35.086,0,0,0,270.4,0,0,0,0,0,0,0,0,0,0,0,0,0,1,1,8.68,FLYING
8.93,APPROACH,ILS_TRACK,77.95,76,-1.95,398.83,-1.47,5.71,6.72,270.44,0.067,0,-20,270.44,0,-1.48,-122.73,8.618,0.04,34.621,0,0,0,270.4,0,0,0,0,0,0,0,0,0,0,0,0,0,1,1,9,FLYING
9.24,APPROACH,ILS_TRACK,77.52,76,-1.52,398.41,-1.28,5.86,6.73,270.44,0.061,0,-20,270.44,0,-1.45,-121.8,8.592,0.039,34.189,0,0,0,270.4,0,0,0,0,0,0,0,0,0,0,0,0,0,1,1,9.31,FLYING
9.63,APPROACH,ILS_TRACK,76.99,76,-0.99,397.97,-1.08,6.01,6.75,270.44,0.056,0,-20,270.44,0,-1.43,-120.6,8.561,0.04,33.691,0,0,0,270.4,0,0,0,0,0,0,0,0,0,0,0,0,0,1,1,9.7,FLYING
9.94,APPROACH,ILS_TRACK,76.56,76,-0.56,397.66,-0.94,6.13,6.79,270.44,0.054,0,-20,270.44,0,-1.41,-119.58,8.535,0.04,33.271,0,0,0,270.4,0,0,0,0,0,0,0,0,0,0,0,0,0,1,1,10.01,FLYING
10.26,APPROACH,ILS_TRACK,76.13,76,-0.13,397.39,-0.83,6.24,6.82,270.44,0.05,0,-20,270.44,0,-1.38,-118.52,8.51,0.039,32.871,0,0,0,270.4,0,0,0,0,0,0,0,0,0,0,0,0,0,1,1,10.33,FLYING
10.64,APPROACH,ILS_TRACK,75.59,76,0.41,397.11,-0.71,6.36,6.86,270.44,0.045,0,-19.862,270.44,0,-1.36,-117.19,8.479,0.039,32.4,0,0,0,270.4,0,0,0,0,0,0,0,0,0,0,0,0,0,1,1,10.71,FLYING
10.96,APPROACH,ILS_TRACK,75.15,76,0.85,396.9,-0.64,6.44,6.9,270.44,0.044,0,-19.611,270.44,0,-1.34,-116.09,8.454,0.038,32.015,0,0,0,270.4,0,0,0,0,0,0,0,0,0,0,0,0,0,1,1,11.03,FLYING
11.27,APPROACH,ILS_TRACK,74.72,76,1.28,396.72,-0.58,6.53,6.94,270.44,0.036,0,-19.222,270.44,0,-1.32,-114.97,8.429,0.037,31.645,0,0,0,270.4,0,0,0,0,0,0,0,0,0,0,0,0,0,1,1,11.34,FLYING
11.66,APPROACH,ILS_TRACK,74.18,76,1.82,396.51,-0.53,6.63,7.01,270.44,0.034,0,-18.54,270.44,0,-1.3,-113.59,8.398,0.037,31.207,0,0,0,270.4,0,0,0,0,0,0,0,0,0,0,0,0,0,1,1,11.73,FLYING
11.97,APPROACH,ILS_TRACK,73.74,76,2.26,396.35,-0.5,6.72,7.07,270.44,0.029,0,-17.844,270.44,0,-1.28,-112.45,8.374,0.038,30.852,0,0,0,270.4,0,0,0,0,0,0,0,0,0,0,0,0,0,1,1,12.04,FLYING
12.29,APPROACH,ILS_TRACK,73.3,76,2.7,396.21,-0.47,6.8,7.14,270.44,0.03,0,-17.011,270.44,0,-1.26,-111.31,8.349,0.036,30.503,0,0,0,270.4,0,0,0,0,0,0,0,0,0,0,0,0,0,1,1,12.36,FLYING
12.67,APPROACH,ILS_TRACK,72.77,76,3.23,396.04,-0.44,6.91,7.22,270.44,0.03,0,-15.785,270.44,0,-1.24,-109.92,8.319,0.036,30.084,0,0,0,270.4,0,0,0,0,0,0,0,0,0,0,0,0,0,1,1,12.74,FLYING
12.99,APPROACH,ILS_TRACK,72.33,76,3.67,395.91,-0.42,6.99,7.3,270.44,0.03,0.0236,-14.643,270.44,0,-1.22,-108.78,8.295,0.035,29.745,0,0,0,270.4,0,0,0,0,0,0,0,0,0,0,0,0,0,1,1,13.06,FLYING
13.3,APPROACH,ILS_TRACK,71.89,76,4.11,395.78,-0.4,7.07,7.37,270.44,0.028,0.0632,-13.363,270.43,0,-1.21,-107.65,8.271,0.034,29.408,0,0,0,270.4,0,0,0,0,0,0,0,0,0,0,0,0,0,1,1,13.37,FLYING
13.69,APPROACH,ILS_TRACK,71.35,76,4.65,395.64,-0.39,7.18,7.46,270.44,0.031,0.1139,-11.592,270.43,0,-1.19,-106.26,8.242,0.034,29.001,0,0,0,270.4,0,0,0,0,0,0,0,0,0,0,0,0,0,1,1,13.76,FLYING
14,APPROACH,ILS_TRACK,70.92,76,5.08,395.52,-0.38,7.26,7.54,270.44,0.029,0.1569,-10.005,270.43,0,-1.17,-105.13,8.218,0.032,28.672,0,0,0,270.4,0,0,0,0,0,0,0,0,0,0,0,0,0,1,1,14.07,FLYING
14.32,APPROACH,ILS_TRACK,70.49,76,5.51,395.41,-0.37,7.35,7.62,270.44,0.029,0.2013,-8.283,270.43,0,-1.15,-104.01,8.194,0.032,28.346,0,0,0,270.4,0,0,0,0,0,0,0,0,0,0,0,0,0,1,1,14.39,FLYING
14.7,APPROACH,ILS_TRACK,69.97,76,6.03,395.28,-0.36,7.44,7.71,270.44,0.028,0.2573,-5.98,270.43,0,-1.13,-102.64,8.166,0.031,27.948,0,0,0,270.4,0,0,0,0,0,0,0,0,0,0,0,0,0,1,1,14.77,FLYING
15.02,APPROACH,ILS_TRACK,69.56,76,6.44,395.17,-0.35,7.53,7.79,270.44,0.029,0.3041,-3.966,270.43,0,-1.11,-101.52,8.142,0.03,27.627,0,0,0,270.4,0,0,0,0,0,0,0,0,0,0,0,0,0,1,1,15.09,FLYING
15.33,APPROACH,ILS_TRACK,69.16,76,6.84,395.07,-0.34,7.61,7.87,270.44,0.029,0.3517,-1.826,270.43,0,-1.09,-100.42,8.119,0.03,27.307,0,0,0,270.4,0,0,0,0,0,0,0,0,0,0,0,0,0,1,1,15.4,FLYING
15.72,APPROACH,ILS_TRACK,68.7,76,7.3,394.94,-0.34,7.7,7.96,270.44,0.028,0.4109,0.969,270.43,0,-1.07,-99.07,8.091,0.028,26.916,0,0,0,270.4,0,0,0,0,0,0,0,0,0,0,0,0,0,1,1,15.79,FLYING
16.03,APPROACH,ILS_TRACK,68.34,76,7.66,394.84,-0.33,7.77,8.03,270.44,0.029,0.4596,3.37,270.43,0,-1.05,-97.97,8.068,0.028,26.599,0,0,0,270.4,0,0,0,0,0,0,0,0,0,0,0,0,0,1,1,16.1,FLYING
16.35,APPROACH,ILS_TRACK,68,76,8,394.75,-0.33,7.84,8.09,270.45,0.027,0.5086,5.879,270.43,0,-1.03,-96.87,8.045,0.026,26.282,0,0,0,270.4,0,0,0,0,0,0,0,0,0,0,0,0,0,1,1,16.42,FLYING
16.73,APPROACH,ILS_TRACK,67.61,76,8.39,394.63,-0.32,7.92,8.16,270.45,0.028,0.5686,9.095,270.42,0,-1.01,-95.54,8.018,0.025,25.892,0,0,0,270.4,0,0,0,0,0,0,0,0,0,0,0,0,0,1,1,16.8,FLYING
17.05,APPROACH,ILS_TRACK,67.32,76,8.68,394.53,-0.31,7.98,8.22,270.45,0.03,0.6174,11.819,270.42,0,-0.99,-94.45,7.995,0.025,25.577,0,0,0,270.4,0,0,0,0,0,0,0,0,0,0,0,0,0,1,1,17.12,FLYING
17.36,APPROACH,ILS_TRACK,67.06,76,8.94,394.44,-0.3,8.03,8.27,270.45,0.032,0.6656,14.626,270.42,0,-0.97,-93.37,7.973,0.023,25.258,0,0,0,270.4,0,0,0,0,0,0,0,0,0,0,0,0,0,1,1,17.43,FLYING
17.75,APPROACH,ILS_TRACK,66.78,76,9.22,394.33,-0.3,8.09,8.32,270.45,0.033,0.7239,18.167,270.42,0,-0.94,-92.05,7.945,0.021,24.869,0,0,0,270.4,0,0,0,0,0,0,0,0,0,0,0,0,0,1,1,17.82,FLYING
18.06,APPROACH,ILS_TRACK,66.58,76,9.42,394.24,-0.29,8.13,8.36,270.45,0.036,0.7569,20,270.42,0,-0.92,-90.97,7.923,0.021,24.549,0,0,0,270.4,0,0,0,0,0,0,0,0,0,0,0,0,0,1,1,18.13,FLYING
18.38,APPROACH,ILS_TRACK,66.42,76,9.58,394.15,-0.28,8.16,8.38,270.45,0.036,0.7661,20,270.42,0,-0.9,-89.89,7.901,0.019,24.228,0,0,0,270.4,0,0,0,0,0,0,0,0,0,0,0,0,0,1,1,18.45,FLYING
18.76,APPROACH,ILS_TRACK,66.26,76,9.74,394.05,-0.27,8.19,8.41,270.45,0.039,0.7749,20,270.42,0,-0.88,-88.57,7.874,0.019,23.831,0,0,0,270.4,0,0,0,0,0,0,0,0,0,0,0,0,0,1,1,18.83,FLYING
19.08,APPROACH,ILS_TRACK,66.17,76,9.83,393.97,-0.25,8.21,8.42,270.45,0.04,0.7801,20,270.42,0,-0.86,-87.49,7.851,0.017,23.504,0,0,0,270.4,0,0,0,0,0,0,0,0,0,0,0,0,0,1,1,19.15,FLYING
19.39,APPROACH,ILS_TRACK,66.11,76,9.89,393.89,-0.24,8.22,8.42,270.45,0.043,0.7835,20,270.42,0,-0.83,-86.41,7.829,0.016,23.173,0,0,0,270.4,0,0,0,0,0,0,0,0,0,0,0,0,0,1,1,19.46,FLYING
19.78,APPROACH,ILS_TRACK,66.08,76,9.92,393.8,-0.23,8.23,8.42,270.45,0.042,0.7854,20,270.41,0,-0.81,-85.08,7.802,0.014,22.766,0,0,0,270.4,0,0,0,0,0,0,0,0,0,0,0,0,0,1,1,19.85,FLYING
20.09,APPROACH,ILS_TRACK,66.09,76,9.91,393.73,-0.21,8.23,8.4,270.45,0.045,0.785,20,270.41,0,-0.78,-83.99,7.78,0.014,22.429,0,0,0,270.4,0,0,0,0,0,0,0,0,0,0,0,0,0,1,1,20.16,FLYING
20.41,APPROACH,ILS_TRACK,66.13,76,9.87,393.67,-0.2,8.22,8.38,270.45,0.044,0.783,20,270.41,0,-0.76,-82.9,7.758,0.011,22.088,0,0,0,270.4,0,0,0,0,0,0,0,0,0,0,0,0,0,1,1,20.48,FLYING
20.79,APPROACH,ILS_TRACK,66.22,76,9.78,393.59,-0.18,8.2,8.35,270.45,0.045,0.7785,20,270.41,0,-0.73,-81.55,7.731,0.011,21.671,0,0,0,270.4,0,0,0,0,0,0,0,0,0,0,0,0,0,1,1,20.86,FLYING
21.11,APPROACH,ILS_TRACK,66.32,76,9.68,393.53,-0.17,8.18,8.32,270.46,0.044,0.7731,20,270.41,0,-0.71,-80.44,7.709,0.01,21.322,0,0,0,270.4,0,0,0,0,0,0,0,0,0,0,0,0,0,1,1,21.18,FLYING
21.42,APPROACH,ILS_TRACK,66.45,76,9.55,393.48,-0.15,8.15,8.28,270.46,0.044,0.7662,20,270.41,0,-0.68,-79.33,7.686,0.009,20.972,0,0,0,270.4,0,0,0,0,0,0,0,0,0,0,0,0,0,1,1,21.49,FLYING
21.81,APPROACH,ILS_TRACK,66.64,76,9.36,393.42,-0.13,8.11,8.23,270.46,0.042,0.756,20,270.41,0,-0.65,-77.96,7.659,0.007,20.541,0,0,0,270.4,0,0,0,0,0,0,0,0,0,0,0,0,0,1,1,21.88,FLYING
22.12,APPROACH,ILS_TRACK,66.82,76,9.18,393.38,-0.12,8.08,8.18,270.46,0.041,0.7463,20,270.41,0,-0.63,-76.83,7.637,0.005,20.181,0,0,0,270.4,0,0,0,0,0,0,0,0,0,0,0,0,0,1,1,22.19,FLYING
22.44,APPROACH,ILS_TRACK,67.02,76,8.98,393.35,-0.1,8.04,8.13,270.46,0.041,0.7353,20,270.4,0,-0.6,-75.69,7.614,0.004,19.818,0,0,0,270.4,0,0,0,0,0,0,0,0,0,0,0,0,0,1,1,22.51,FLYING
22.82,APPROACH,ILS_TRACK,67.29,76,8.71,393.31,-0.09,7.99,8.06,270.46,0.043,0.7203,20,270.4,0,-0.57,-74.29,7.587,0.003,19.373,0,0,0,270.4,0,0,0,0,0,0,0,0,0,0,0,0,0,1,1,22.89,FLYING
23.14,APPROACH,ILS_TRACK,67.54,76,8.46,393.28,-0.07,7.94,8,270.46,0.041,0.7069,20,270.4,0,-0.55,-73.13,7.564,0.001,19.001,0,0,0,270.4,0,0,0,0,0,0,0,0,0,0,0,0,0,1,1,23.21,FLYING
23.45,APPROACH,ILS_TRACK,67.8,76,8.2,393.26,-0.05,7.9,7.95,270.46,0.043,0.6924,20,270.4,0,-0.52,-71.97,7.541,0.001,18.626,0,0,0,270.4,0,0,0,0,0,0,0,0,0,0,0,0,0,1,1,23.52,FLYING
23.84,APPROACH,ILS_TRACK,68.15,76,7.85,393.24,-0.03,7.84,7.87,270.46,0.044,0.6736,20,270.4,0,-0.49,-70.53,7.514,-0.001,18.166,0,0,0,270.4,0,0,0,0,0,0,0,0,0,0,0,0,0,1,1,23.91,FLYING
24.15,APPROACH,ILS_TRACK,68.45,76,7.55,393.23,-0.01,7.79,7.8,270.46,0.044,0.6573,20,270.4,0,-0.47,-69.34,7.491,-0.002,17.78,0,0,0,270.4,0,0,0,0,0,0,0,0,0,0,0,0,0,1,1,24.22,FLYING
24.47,APPROACH,ILS_TRACK,68.76,76,7.24,393.22,0,7.73,7.74,270.46,0.042,0.6403,20,270.4,0,-0.44,-68.14,7.468,-0.003,17.393,0,0,0,270.4,0,0,0,0,0,0,0,0,0,0,0,0,0,1,1,24.54,FLYING
24.85,APPROACH,ILS_TRACK,69.15,76,6.85,393.22,0.02,7.67,7.66,270.46,0.046,0.6187,20,270.4,0,-0.41,-66.66,7.439,-0.005,16.917,0,0,0,270.4,0,0,0,0,0,0,0,0,0,0,0,0,0,1,1,24.92,FLYING
25.17,APPROACH,ILS_TRACK,69.49,76,6.51,393.23,0.04,7.61,7.59,270.46,0.044,0.6004,20,270.39,0,-0.38,-65.43,7.416,-0.005,16.518,0,0,0,270.4,0,0,0,0,0,0,0,0,0,0,0,0,0,1,1,25.24,FLYING
25.48,APPROACH,ILS_TRACK,69.83,76,6.17,393.24,0.06,7.56,7.52,270.46,0.047,0.5816,20,270.39,0,-0.35,-64.19,7.393,-0.008,16.118,0,0,0,270.4,0,0,0,0,0,0,0,0,0,0,0,0,0,1,1,25.55,FLYING
25.87,APPROACH,ILS_TRACK,70.26,76,5.74,393.27,0.08,7.49,7.44,270.46,0.047,0.558,20,270.39,0,-0.32,-62.67,7.364,-0.008,15.629,0,0,0,270.4,0,0,0,0,0,0,0,0,0,0,0,0,0,1,1,25.94,FLYING
26.18,APPROACH,ILS_TRACK,70.61,76,5.39,393.29,0.09,7.44,7.37,270.46,0.051,0.5385,20,270.39,0,-0.3,-61.41,7.34,-0.009,15.219,0,0,0,270.4,0,0,0,0,0,0,0,0,0,0,0,0,0,1,1,26.25,FLYING
26.5,APPROACH,ILS_TRACK,70.97,76,5.03,393.32,0.11,7.38,7.31,270.46,0.051,0.5187,20,270.39,0,-0.27,-60.13,7.317,-0.011,14.809,0,0,0,270.4,0,0,0,0,0,0,0,0,0,0,0,0,0,1,1,26.57,FLYING
26.88,APPROACH,ILS_TRACK,71.41,76,4.59,393.36,0.13,7.32,7.23,270.45,0.054,0.4944,20,270.39,0,-0.24,-58.56,7.287,-0.011,14.306,0,0,0,270.4,0,0,0,0,0,0,0,0,0,0,0,0,0,1,1,26.95,FLYING
27.2,APPROACH,ILS_TRACK,71.78,76,4.22,393.4,0.14,7.26,7.16,270.46,0.055,0.4744,20,270.39,0,-0.21,-57.27,7.263,-0.012,13.886,0,0,0,270.4,0,0,0,0,0,0,0,0,0,0,0,0,0,1,1,27.27,FLYING
27.51,APPROACH,ILS_TRACK,72.14,76,3.86,393.44,0.16,7.21,7.1,270.45,0.06,0.4545,20,270.39,0,-0.19,-55.96,7.239,-0.013,13.466,0,0,0,270.4,0,0,0,0,0,0,0,0,0,0,0,0,0,1,1,27.58,FLYING
27.9,APPROACH,ILS_TRACK,72.57,76,3.43,393.5,0.17,7.14,7.02,270.45,0.063,0.4306,20,270.39,0,-0.16,-54.35,7.21,-0.013,12.953,0,0,0,270.4,0,0,0,0,0,0,0,0,0,0,0,0,0,1,1,27.97,FLYING
28.21,APPROACH,ILS_TRACK,72.92,76,3.08,393.56,0.18,7.1,6.97,270.45,0.067,0.4115,20,270.39,0,-0.13,-53.02,7.185,-0.015,12.526,0,0,0,270.4,0,0,0,0,0,0,0,0,0,0,0,0,0,1,1,28.28,FLYING
28.53,APPROACH,ILS_TRACK,73.25,76,2.75,393.61,0.19,7.05,6.91,270.45,0.071,0.3932,20,270.39,0,-0.11,-51.68,7.161,-0.014,12.101,0,0,0,270.4,0,0,0,0,0,0,0,0,0,0,0,0,0,1,1,28.6,FLYING
28.91,APPROACH,ILS_TRACK,73.63,76,2.37,393.68,0.2,7,6.85,270.44,0.073,0.372,20,270.38,0,-0.08,-50.03,7.131,-0.016,11.582,0,0,0,270.4,0,0,0,0,0,0,0,0,0,0,0,0,0,1,1,28.98,FLYING
29.23,APPROACH,ILS_TRACK,73.93,76,2.07,393.75,0.21,6.95,6.81,270.44,0.073,0.3558,20,270.39,0,-0.06,-48.67,7.106,-0.014,11.154,0,0,0,270.4,0,0,0,0,0,0,0,0,0,0,0,0,0,1,1,29.3,FLYING
29.54,APPROACH,ILS_TRACK,74.2,76,1.8,393.81,0.21,6.92,6.77,270.44,0.074,0.3406,20,270.38,0,-0.04,-47.31,7.081,-0.015,10.727,0,0,0,270.4,0,0,0,0,0,0,0,0,0,0,0,0,0,1,1,29.61,FLYING
29.93,APPROACH,ILS_TRACK,74.51,76,1.49,393.89,0.22,6.88,6.72,270.44,0.073,0.3236,20,270.38,0,-0.01,-45.63,7.051,-0.016,10.208,0,0,0,270.4,0,0,0,0,0,0,0,0,0,0,0,0,0,1,1,30,FLYING
30.24,APPROACH,ILS_TRACK,74.73,76,1.27,393.96,0.22,6.84,6.69,270.43,0.075,0.3111,20,270.38,0,0.01,-44.25,7.026,-0.015,9.781,0,0,0,270.4,0,0,0,0,0,0,0,0,0,0,0,0,0,1,1,30.31,FLYING
30.56,APPROACH,ILS_TRACK,74.94,76,1.06,394.02,0.22,6.81,6.66,270.43,0.076,0.2997,20,270.38,0,0.03,-42.87,7.001,-0.016,9.357,0,0,0,270.4,0,0,0,0,0,0,0,0,0,0,0,0,0,1,1,30.63,FLYING
30.94,APPROACH,ILS_TRACK,75.16,76,0.84,394.1,0.22,6.78,6.63,270.43,0.077,0.2874,20,270.38,0,0.05,-41.18,6.97,-0.016,8.841,0,0,0,270.4,0,0,0,0,0,0,0,0,0,0,0,0,0,1,1,31.01,FLYING
31.26,APPROACH,ILS_TRACK,75.31,76,0.69,394.17,0.21,6.76,6.61,270.43,0.077,0.2786,20,270.38,0,0.07,-39.8,6.945,-0.016,8.418,0,0,0,270.4,0,0,0,0,0,0,0,0,0,0,0,0,0,1,1,31.33,FLYING
31.57,APPROACH,ILS_TRACK,75.45,76,0.55,394.24,0.21,6.74,6.59,270.42,0.076,0.271,20,270.38,0,0.08,-38.41,6.919,-0.015,7.997,0,0,0,270.4,0,0,0,0,0,0,0,0,0,0,0,0,0,1,1,31.64,FLYING
31.96,APPROACH,ILS_TRACK,75.59,76,0.41,394.31,0.2,6.72,6.57,270.42,0.076,0.2632,20,270.38,0,0.1,-36.71,6.888,-0.015,7.485,0,0,0,270.4,0,0,0,0,0,0,0,0,0,0,0,0,0,1,1,32.03,FLYING
32.27,APPROACH,ILS_TRACK,75.68,76,0.32,394.38,0.2,6.7,6.56,270.42,0.075,0.2579,20,270.39,0,0.11,-35.32,6.863,-0.015,7.066,0,0,0,270.4,0,0,0,0,0,0,0,0,0,0,0,0,0,1,1,32.34,FLYING
32.59,APPROACH,ILS_TRACK,75.76,76,0.24,394.44,0.2,6.69,6.55,270.42,0.072,0.2536,20,270.39,0,0.12,-33.93,6.838,-0.014,6.648,0,0,0,270.4,0,0,0,0,0,0,0,0,0,0,0,0,0,1,1,32.66,FLYING
32.97,APPROACH,ILS_TRACK,75.83,76,0.17,394.51,0.19,6.68,6.55,270.42,0.068,0.2495,20,270.39,0,0.14,-32.23,6.807,-0.014,6.139,0,0,0,270.4,0,0,0,0,0,0,0,0,0,0,0,0,0,1,1,33.04,FLYING
33.29,APPROACH,ILS_TRACK,75.88,76,0.12,394.57,0.19,6.67,6.54,270.41,0.067,0.2471,20,270.39,0,0.15,-30.84,6.781,-0.014,5.724,0,0,0,270.4,0,0,0,0,0,0,0,0,0,0,0,0,0,1,1,33.36,FLYING
33.6,APPROACH,ILS_TRACK,75.91,76,0.09,394.63,0.18,6.67,6.54,270.41,0.059,0.2454,20,270.39,0,0.16,-29.45,6.756,-0.014,5.31,0,0,0,270.4,0,0,0,0,0,0,0,0,0,0,0,0,0,1,1,33.67,FLYING
33.99,APPROACH,ILS_TRACK,75.93,76,0.07,394.7,0.17,6.66,6.54,270.41,0.054,0.2442,20,270.39,0,0.17,-27.76,6.725,-0.013,4.805,0,0,0,270.4,0,0,0,0,0,0,0,0,0,0,0,0,0,1,1,34.06,FLYING
34.3,APPROACH,ILS_TRACK,75.93,76,0.07,394.75,0.17,6.66,6.54,270.41,0.048,0.2438,20,270.39,0,0.17,-26.37,6.7,-0.013,4.393,0,0,0,270.4,0,0,0,0,0,0,0,0,0,0,0,0,0,1,1,34.37,FLYING
34.62,APPROACH,ILS_TRACK,75.93,76,0.07,394.8,0.16,6.66,6.54,270.41,0.045,0.244,20,270.39,0,0.18,-24.99,6.674,-0.013,3.982,0,0,0,270.4,0,0,0,0,0,0,0,0,0,0,0,0,0,1,1,34.69,FLYING
35,APPROACH,ILS_TRACK,75.91,76,0.09,394.87,0.16,6.66,6.55,270.41,0.043,0.2449,20,270.39,0,0.19,-23.3,6.643,-0.013,3.48,0,0,0,270.4,0,0,0,0,0,0,0,0,0,0,0,0,0,1,1,35.07,FLYING
35.32,APPROACH,ILS_TRACK,75.89,76,0.11,394.92,0.15,6.66,6.55,270.41,0.044,0.2459,20,270.39,0,0.19,-21.92,6.618,-0.012,3.071,0,0,0,270.4,0,0,0,0,0,0,0,0,0,0,0,0,0,1,1,35.39,FLYING
35.63,APPROACH,ILS_TRACK,75.86,76,0.14,394.96,0.15,6.64,6.56,270.41,0.04,0.2473,20,270.39,-0.338,0.2,-20.54,6.592,-0.012,2.662,0,0,0,270.4,0,0,0,0,0,0,0,0,0,0,0,0,0,1,1,35.7,FLYING
36.02,APPROACH,ILS_TRACK,75.83,76,0.17,395.01,0.1,6.49,6.47,270.4,0.047,0.2492,20,270.39,-0.811,0.2,-18.87,6.561,-0.012,2.189,0,0,0,270.4,0,0,0,0,0,0,0,0,0,0,0,0,0,1,1,36.09,FLYING
36.33,APPROACH,ILS_TRACK,75.81,76,0.19,395,-0.03,6.24,6.3,270.4,0.058,0.2504,20,270.39,-1.132,0.21,-17.53,6.536,-0.012,1.868,0,0,0,270.4,0,0,0,0,0,0,0,0,0,0,0,0,0,1,1,36.4,FLYING
36.65,APPROACH,ILS_TRACK,75.8,76,0.2,394.95,-0.21,6.04,6.23,270.4,0.059,0.2511,20,270.39,-1.402,0.21,-16.24,6.511,-0.011,1.598,0,0,0,270.4,0,0,0,0,0,0,0,0,0,0,0,0,0,1,1,36.72,FLYING
37.03,APPROACH,ILS_TRACK,75.8,76,0.2,394.8,-0.47,5.82,6.19,270.4,0.062,0.2511,20,270.39,-1.682,0.22,-14.75,6.48,-0.011,1.318,0,0,0,270.4,0,0,0,0,0,0,0,0,0,0,0,0,0,1,1,37.1,FLYING
37.35,APPROACH,ILS_TRACK,75.81,76,0.19,394.61,-0.69,5.62,6.14,270.4,0.062,0.2505,20,270.39,-1.835,0.22,-13.6,6.454,-0.01,1.165,0,0,0,270.4,0,0,0,0,0,0,0,0,0,0,0,0,0,1,1,37.42,FLYING
37.66,APPROACH,ILS_TRACK,75.83,76,0.17,394.34,-0.93,5.46,6.14,270.39,0.062,0.2494,20,270.39,-1.977,0.22,-12.53,6.429,-0.009,1.023,0,0,0,270.4,0,0,0,0,0,0,0,0,0,0,0,0,0,1,1,37.73,FLYING
38.05,APPROACH,ILS_TRACK,75.87,76,0.13,393.91,-1.2,5.27,6.16,270.39,0.053,0.2474,20,270.39,-2.14,0.22,-11.31,6.398,-0.009,0.86,0,0,0,270.4,0,0,0,0,0,0,0,0,0,0,0,0,0,1,1,38.12,FLYING
38.36,APPROACH,ILS_TRACK,75.91,76,0.09,393.49,-1.43,5.11,6.15,270.39,0.049,0.2453,20,270.39,-2.216,0.22,-10.39,6.373,-0.008,0.784,0,0,0,270.4,0,0,0,0,0,0,0,0,0,0,0,0,0,1,1,38.43,FLYING
38.68,APPROACH,ILS_TRACK,75.95,76,0.05,392.99,-1.64,4.98,6.17,270.39,0.041,0.2429,20,270.39,-2.299,0.22,-9.54,6.347,-0.008,0.701,0,0,0,270.4,0,0,0,0,0,0,0,0,0,0,0,0,0,1,1,38.75,FLYING
39.06,APPROACH,ILS_TRACK,76.01,76,-0.01,392.3,-1.89,4.83,6.19,270.39,0.036,0.2395,19.997,270.39,-2.403,0.21,-8.59,6.316,-0.006,0.597,0,0,0,270.4,0,0,0,0,0,0,0,0,0,0,0,0,0,1,1,39.13,FLYING
39.38,APPROACH,ILS_TRACK,76.07,76,-0.07,391.66,-2.07,4.71,6.19,270.39,0.028,0.2363,19.977,270.39,-2.445,0.21,-7.87,6.291,-0.006,0.555,0,0,0,270.4,0,0,0,0,0,0,0,0,0,0,0,0,0,1,1,39.45,FLYING
39.69,APPROACH,ILS_TRACK,76.13,76,-0.13,390.97,-2.25,4.61,6.21,270.39,0.02,0.2327,19.94,270.39,-2.499,0.21,-7.22,6.265,-0.006,0.501,0,0,0,270.4,0,0,0,0,0,0,0,0,0,0,0,0,0,1,1,39.76,FLYING
40.08,APPROACH,ILS_TRACK,76.2,76,-0.2,390.06,-2.45,4.49,6.23,270.39,0.014,0.2278,19.865,270.39,-2.571,0.2,-6.49,6.234,-0.005,0.429,0,0,0,270.4,0,0,0,0,0,0,0,0,0,0,0,0,0,1,1,40.15,FLYING
40.39,APPROACH,ILS_TRACK,76.26,76,-0.26,389.26,-2.59,4.39,6.24,270.39,0.012,0.2235,19.786,270.39,-2.598,0.2,-5.94,6.209,-0.005,0.402,0,0,0,270.4,0,0,0,0,0,0,0,0,0,0,0,0,0,1,1,40.46,FLYING
40.71,APPROACH,ILS_TRACK,76.32,76,-0.32,388.41,-2.73,4.31,6.25,270.39,0.008,0.2189,19.686,270.4,-2.635,0.19,-5.45,6.183,-0.005,0.365,0,0,0,270.4,0,0,0,0,0,0,0,0,0,0,0,0,0,1,1,40.78,FLYING
41.09,APPROACH,ILS_TRACK,76.4,76,-0.4,387.32,-2.89,4.22,6.27,270.39,0.006,0.213,19.536,270.4,-2.687,0.19,-4.89,6.152,-0.004,0.313,0,0,0,270.4,0,0,0,0,0,0,0,0,0,0,0,0,0,1,1,41.16,FLYING
41.41,APPROACH,ILS_TRACK,76.46,76,-0.46,386.38,-3,4.15,6.27,270.39,0.004,0.208,19.395,270.4,-2.705,0.19,-4.48,6.126,-0.005,0.295,0,0,0,270.4,0,0,0,0,0,0,0,0,0,0,0,0,0,1,1,41.48,FLYING
41.72,APPROACH,ILS_TRACK,76.51,76,-0.51,385.42,-3.11,4.09,6.29,270.39,0.003,0.203,19.235,270.4,-2.733,0.18,-4.1,6.101,-0.004,0.267,0,0,0,270.4,0,0,0,0,0,0,0,0,0,0,0,0,0,1,1,41.79,FLYING
42.11,APPROACH,ILS_TRACK,76.58,76,-0.58,384.19,-3.22,4.04,6.32,270.39,0.001,0.1967,19.015,270.4,-2.776,0.18,-3.68,6.07,-0.005,0.224,0,0,0,270.4,0,0,0,0,0,0,0,0,0,0,0,0,0,1,1,42.18,FLYING
42.42,APPROACH,ILS_TRACK,76.63,76,-0.63,383.16,-3.29,3.99,6.32,270.39,0.001,0.1917,18.82,270.4,-2.797,0.17,-3.36,6.044,-0.004,0.203,0,0,0,270.4,0,0,0,0,0,0,0,0,0,0,0,0,0,1,1,42.49,FLYING
42.74,APPROACH,ILS_TRACK,76.67,76,-0.67,382.11,-3.37,3.95,6.33,270.39,0,0.1868,18.61,270.4,-2.827,0.17,-3.06,6.018,-0.004,0.173,0,0,0,270.4,0,0,0,0,0,0,0,0,0,0,0,0,0,1,1,42.81,FLYING
43.12,APPROACH,ILS_TRACK,76.72,76,-0.72,380.8,-3.44,3.9,6.34,270.39,-0.001,0.1809,18.337,270.4,-2.867,0.17,-2.73,5.987,-0.005,0.133,0,0,0,270.4,0,0,0,0,0,0,0,0,0,0,0,0,0,1,1,43.19,FLYING
43.44,APPROACH,ILS_TRACK,76.75,76,-0.75,379.7,-3.5,3.86,6.33,270.39,0,0.1763,18.102,270.4,-2.887,0.16,-2.48,5.961,-0.005,0.113,0,0,0,270.4,0,0,0,0,0,0,0,0,0,0,0,0,0,1,1,43.51,FLYING
43.75,APPROACH,ILS_TRACK,76.77,76,-0.77,378.58,-3.56,3.83,6.34,270.4,-0.001,0.1719,17.859,270.4,-2.911,0.16,-2.25,5.936,-0.004,0.089,0,0,0,270.4,0,0,0,0,0,0,0,0,0,0,0,0,0,1,1,43.82,FLYING
44.14,APPROACH,ILS_TRACK,76.8,76,-0.8,377.2,-3.62,3.79,6.35,270.39,-0.001,0.1668,17.552,270.4,-2.942,0.16,-1.99,5.905,-0.004,0.058,0,0,0,270.4,0,0,0,0,0,0,0,0,0,0,0,0,0,1,1,44.21,FLYING
44.45,APPROACH,ILS_TRACK,76.81,76,-0.81,376.04,-3.67,3.76,6.35,270.4,-0.001,0.1629,17.297,270.39,-2.956,0.16,-1.8,5.879,-0.005,0.044,0,0,0,270.4,0,0,0,0,0,0,0,0,0,0,0,0,0,1,1,44.52,FLYING
44.77,APPROACH,ILS_TRACK,76.82,76,-0.82,374.88,-3.72,3.74,6.35,270.4,0.001,0.1593,17.038,270.4,-2.973,0.16,-1.62,5.853,-0.004,0.027,0,0,0,270.4,0,0,0,0,0,0,0,0,0,0,0,0,0,1,1,44.84,FLYING
45.15,APPROACH,ILS_TRACK,76.82,76,-0.82,373.43,-3.77,3.71,6.36,270.4,0.003,0.1553,16.721,270.4,-2.996,0.15,-1.42,5.822,-0.004,0.004,0,0,0,270.4,0,0,0,0,0,0,0,0,0,0,0,0,0,1,1,45.22,FLYING
45.47,APPROACH,ILS_TRACK,76.82,76,-0.82,372.24,-3.8,3.69,6.37,270.4,0.003,0.1525,16.463,270.4,-3.005,0.15,-1.26,5.796,-0.005,-0.005,0,0,0,270.4,0,0,0,0,0,0,0,0,0,0,0,0,0,1,1,45.54,FLYING
45.78,APPROACH,ILS_TRACK,76.81,76,-0.81,371.03,-3.84,3.67,6.37,270.4,0.003,0.1499,16.207,270.4,-3.017,0.15,-1.12,5.771,-0.005,-0.017,0,0,0,270.4,0,0,0,0,0,0,0,0,0,0,0,0,0,1,1,45.85,FLYING
46.17,APPROACH,ILS_TRACK,76.79,76,-0.79,369.55,-3.88,3.65,6.39,270.4,0.005,0.1473,15.903,270.39,-3.034,0.15,-0.97,5.739,-0.005,-0.034,0,0,0,270.4,0,0,0,0,0,0,0,0,0,0,0,0,0,1,1,46.24,FLYING
46.48,APPROACH,ILS_TRACK,76.77,76,-0.77,368.32,-3.91,3.64,6.39,270.4,0.004,0.1456,15.66,270.4,-3.04,0.15,-0.85,5.714,-0.005,-0.04,0,0,0,270.4,0,0,0,0,0,0,0,0,0,0,0,0,0,1,1,46.55,FLYING
46.8,APPROACH,ILS_TRACK,76.74,76,-0.74,367.08,-3.93,3.63,6.4,270.4,0.005,0.1442,15.426,270.4,-3.049,0.15,-0.74,5.688,-0.005,-0.049,0,0,0,270.4,0,0,0,0,0,0,0,0,0,0,0,0,0,1,1,46.87,FLYING
47.18,APPROACH,ILS_TRACK,76.7,76,-0.7,365.56,-3.96,3.62,6.41,270.4,0.006,0.143,15.154,270.4,-3.06,0.14,-0.63,5.657,-0.005,-0.06,0,0,0,270.4,0,0,0,0,0,0,0,0,0,0,0,0,0,1,1,47.25,FLYING
47.5,APPROACH,ILS_TRACK,76.67,76,-0.67,364.31,-3.99,3.61,6.42,270.4,0.006,0.1425,14.943,270.39,-3.064,0.14,-0.54,5.631,-0.005,-0.064,0,0,0,270.4,0,0,0,0,0,0,0,0,0,0,0,0,0,1,1,47.57,FLYING
47.81,APPROACH,ILS_TRACK,76.63,76,-0.63,363.05,-4,3.6,6.43,270.4,0.007,0.1423,14.745,270.4,-3.069,0.14,-0.46,5.606,-0.005,-0.069,0,0,0,270.4,0,0,0,0,0,0,0,0,0,0,0,0,0,1,1,47.88,FLYING
48.2,APPROACH,ILS_TRACK,76.57,76,-0.57,361.5,-4.03,3.6,6.44,270.4,0.007,0.1425,14.523,270.39,-3.077,0.14,-0.37,5.575,-0.005,-0.077,0,0,0,270.4,0,0,0,0,0,0,0,0,0,0,0,0,0,1,1,48.27,FLYING
48.51,APPROACH,ILS_TRACK,76.53,76,-0.53,360.23,-4.04,3.59,6.45,270.4,0.008,0.143,14.355,270.39,-3.079,0.14,-0.3,5.549,-0.005,-0.079,0,0,0,270.4,0,0,0,0,0,0,0,0,0,0,0,0,0,1,1,48.58,FLYING
48.83,APPROACH,ILS_TRACK,76.48,76,-0.48,358.95,-4.06,3.59,6.46,270.4,0.009,0.1439,14.203,270.39,-3.082,0.14,-0.24,5.524,-0.006,-0.082,0,0,0,270.4,0,0,0,0,0,0,0,0,0,0,0,0,0,1,1,48.9,FLYING
49.21,APPROACH,ILS_TRACK,76.42,76,-0.42,357.39,-4.08,3.59,6.47,270.4,0.009,0.1453,14.041,270.39,-3.087,0.14,-0.17,5.492,-0.005,-0.087,0,0,0,270.4,0,0,0,0,0,0,0,0,0,0,0,0,0,1,1,49.28,FLYING
49.53,APPROACH,ILS_TRACK,76.36,76,-0.36,356.1,-4.09,3.59,6.48,270.4,0.008,0.1468,13.925,270.39,-3.087,0.14,-0.12,5.467,-0.005,-0.087,0,0,0,270.4,0,0,0,0,0,0,0,0,0,0,0,0,0,1,1,49.6,FLYING
49.84,APPROACH,ILS_TRACK,76.31,76,-0.31,354.81,-4.1,3.59,6.49,270.4,0.01,0.1485,13.825,270.39,-3.089,0.14,-0.08,5.442,-0.006,-0.089,0,0,0,270.4,0,0,0,0,0,0,0,0,0,0,0,0,0,1,1,49.91,FLYING
50.23,APPROACH,ILS_TRACK,76.25,76,-0.25,353.23,-4.11,3.59,6.51,270.4,0.008,0.1509,13.728,270.39,-3.091,0.14,-0.03,5.41,-0.006,-0.091,0,0,0,270.4,0,0,0,0,0,0,0,0,0,0,0,0,0,1,1,50.3,FLYING
50.54,APPROACH,ILS_TRACK,76.19,76,-0.19,351.94,-4.12,3.59,6.51,270.4,0.009,0.153,13.665,270.39,-3.091,0.14,0,5.385,-0.005,-0.091,0,0,0,270.4,0,0,0,0,0,0,0,0,0,0,0,0,0,1,1,50.61,FLYING
50.86,APPROACH,ILS_TRACK,76.14,76,-0.14,350.64,-4.13,3.59,6.52,270.4,0.008,0.1553,13.618,270.39,-3.091,0.14,0.04,5.36,-0.006,-0.091,0,0,0,270.4,0,0,0,0,0,0,0,0,0,0,0,0,0,1,1,50.93,FLYING
51.24,APPROACH,ILS_TRACK,76.08,76,-0.08,349.05,-4.13,3.59,6.54,270.4,0.009,0.1584,13.586,270.39,-3.092,0.14,0.07,5.329,-0.006,-0.092,0,0,0,270.4,0,0,0,0,0,0,0,0,0,0,0,0,0,1,1,51.31,FLYING
51.56,APPROACH,ILS_TRACK,76.03,76,-0.03,347.74,-4.14,3.6,6.54,270.4,0.008,0.161,13.575,270.39,-3.091,0.14,0.09,5.303,-0.006,-0.091,0,0,0,270.4,0,0,0,0,0,0,0,0,0,0,0,0,0,1,1,51.63,FLYING
51.87,APPROACH,ILS_TRACK,75.98,76,0.02,346.44,-4.15,3.6,6.55,270.4,0.008,0.1638,13.58,270.39,-3.09,0.14,0.12,5.278,-0.006,-0.09,0,0,0,270.4,0,0,0,0,0,0,0,0,0,0,0,0,0,1,1,51.94,FLYING
52.26,APPROACH,ILS_TRACK,75.92,76,0.08,344.84,-4.15,3.6,6.56,270.4,0.009,0.1675,13.609,270.39,-3.09,0.14,0.14,5.247,-0.006,-0.09,0,0,0,270.4,0,0,0,0,0,0,0,0,0,0,0,0,0,1,1,52.33,FLYING
52.57,APPROACH,ILS_TRACK,75.87,76,0.13,343.53,-4.15,3.61,6.57,270.4,0.009,0.1706,13.648,270.39,-3.089,0.14,0.16,5.222,-0.006,-0.089,0,0,0,270.4,0,0,0,0,0,0,0,0,0,0,0,0,0,1,1,52.64,FLYING
52.89,APPROACH,ILS_TRACK,75.82,76,0.18,342.22,-4.16,3.61,6.58,270.4,0.009,0.1738,13.702,270.39,-3.088,0.14,0.17,5.197,-0.006,-0.088,0,0,0,270.4,0,0,0,0,0,0,0,0,0,0,0,0,0,1,1,52.96,FLYING
53.27,APPROACH,ILS_TRACK,75.77,76,0.23,340.62,-4.16,3.61,6.59,270.4,0.009,0.1779,13.788,270.39,-3.087,0.14,0.19,5.166,-0.006,-0.087,0,0,0,270.4,0,0,0,0,0,0,0,0,0,0,0,0,0,1,1,53.34,FLYING
53.59,APPROACH,ILS_TRACK,75.73,76,0.27,339.31,-4.17,3.62,6.6,270.4,0.011,0.1813,13.873,270.39,-3.085,0.14,0.2,5.141,-0.006,-0.085,0,0,0,270.4,0,0,0,0,0,0,0,0,0,0,0,0,0,1,1,53.66,FLYING
53.9,APPROACH,ILS_TRACK,75.68,76,0.32,338,-4.17,3.62,6.6,270.4,0.012,0.1848,13.971,270.39,-3.083,0.14,0.2,5.115,-0.007,-0.083,0,0,0,270.4,0,0,0,0,0,0,0,0,0,0,0,0,0,1,1,53.97,FLYING
54.29,APPROACH,ILS_TRACK,75.64,76,0.36,336.39,-4.17,3.63,6.61,270.4,0.009,0.1891,14.11,270.39,-3.082,0.15,0.21,5.085,-0.007,-0.082,0,0,0,270.4,0,0,0,0,0,0,0,0,0,0,0,0,0,1,1,54.36,FLYING
54.6,APPROACH,ILS_TRACK,75.6,76,0.4,335.08,-4.17,3.63,6.62,270.4,0.008,0.1927,14.235,270.39,-3.079,0.15,0.22,5.059,-0.007,-0.079,0,0,0,270.4,0,0,0,0,0,0,0,0,0,0,0,0,0,1,1,54.67,FLYING
54.92,APPROACH,ILS_TRACK,75.56,76,0.44,333.77,-4.17,3.63,6.62,270.4,0.008,0.1963,14.372,270.39,-3.078,0.15,0.22,5.034,-0.007,-0.078,0,0,0,270.4,0,0,0,0,0,0,0,0,0,0,0,0,0,1,1,54.99,FLYING
55.3,APPROACH,ILS_TRACK,75.52,76,0.48,332.16,-4.17,3.64,6.63,270.4,0.009,0.2007,14.554,270.39,-3.077,0.15,0.23,5.004,-0.007,-0.077,0,0,0,270.4,0,0,0,0,0,0,0,0,0,0,0,0,0,1,1,55.37,FLYING
55.62,APPROACH,ILS_TRACK,75.49,76,0.51,330.85,-4.17,3.64,6.63,270.4,0.009,0.2044,14.714,270.39,-3.075,0.15,0.23,4.978,-0.007,-0.075,0,0,0,270.4,0,0,0,0,0,0,0,0,0,0,0,0,0,1,1,55.69,FLYING
55.93,APPROACH,ILS_TRACK,75.46,76,0.54,329.53,-4.17,3.64,6.64,270.4,0.009,0.2079,14.882,270.39,-3.074,0.15,0.23,4.953,-0.008,-0.074,0,0,0,270.4,0,0,0,0,0,0,0,0,0,0,0,0,0,1,1,56,FLYING
56.32,APPROACH,ILS_TRACK,75.43,76,0.57,327.93,-4.17,3.64,6.64,270.4,0.011,0.2122,15.099,270.39,-3.072,0.16,0.23,4.923,-0.008,-0.072,0,0,0,270.4,0,0,0,0,0,0,0,0,0,0,0,0,0,1,1,56.39,FLYING
56.63,APPROACH,ILS_TRACK,75.41,76,0.59,326.61,-4.17,3.65,6.65,270.41,0.01,0.2157,15.284,270.39,-3.071,0.16,0.23,4.898,-0.008,-0.071,0,0,0,270.4,0,0,0,0,0,0,0,0,0,0,0,0,0,1,1,56.7,FLYING
56.95,APPROACH,ILS_TRACK,75.39,76,0.61,325.3,-4.17,3.65,6.65,270.4,0.011,0.219,15.475,270.39,-3.069,0.16,0.23,4.872,-0.008,-0.069,0,0,0,270.4,0,0,0,0,0,0,0,0,0,0,0,0,0,1,1,57.02,FLYING
57.33,APPROACH,ILS_TRACK,75.37,76,0.63,323.69,-4.17,3.65,6.65,270.41,0.01,0.223,15.716,270.39,-3.068,0.16,0.23,4.842,-0.008,-0.068,0,0,0,270.4,0,0,0,0,0,0,0,0,0,0,0,0,0,1,1,57.4,FLYING
57.65,APPROACH,ILS_TRACK,75.36,76,0.64,322.37,-4.17,3.65,6.65,270.4,0.013,0.2261,15.917,270.39,-3.067,0.17,0.23,4.817,-0.009,-0.067,0,0,0,270.4,0,0,0,0,0,0,0,0,0,0,0,0,0,1,1,57.72,FLYING
57.96,APPROACH,ILS_TRACK,75.35,76,0.65,321.06,-4.17,3.65,6.65,270.41,0.012,0.2291,16.121,270.39,-3.066,0.17,0.23,4.792,-0.009,-0.066,0,0,0,270.4,0,0,0,0,0,0,0,0,0,0,0,0,0,1,1,58.03,FLYING
58.35,APPROACH,ILS_TRACK,75.34,76,0.66,319.45,-4.17,3.65,6.66,270.4,0.012,0.2325,16.373,270.39,-3.065,0.17,0.23,4.761,-0.009,-0.065,0,0,0,270.4,0,0,0,0,0,0,0,0,0,0,0,0,0,1,1,58.42,FLYING
58.66,APPROACH,ILS_TRACK,75.34,76,0.66,318.14,-4.17,3.65,6.66,270.41,0.013,0.2351,16.58,270.39,-3.064,0.17,0.23,4.736,-0.009,-0.064,0,0,0,270.4,0,0,0,0,0,0,0,0,0,0,0,0,0,1,1,58.73,FLYING
58.98,APPROACH,ILS_TRACK,75.34,76,0.66,316.82,-4.17,3.65,6.65,270.4,0.013,0.2376,16.787,270.39,-3.063,0.18,0.22,4.711,-0.009,-0.063,0,0,0,270.4,0,0,0,0,0,0,0,0,0,0,0,0,0,1,1,59.05,FLYING
59.36,APPROACH,ILS_TRACK,75.35,76,0.65,315.22,-4.17,3.65,6.65,270.41,0.014,0.2402,17.038,270.39,-3.063,0.18,0.22,4.68,-0.01,-0.063,0,0,0,270.4,0,0,0,0,0,0,0,0,0,0,0,0,0,1,1,59.43,FLYING
59.68,APPROACH,ILS_TRACK,75.36,76,0.64,313.9,-4.17,3.65,6.65,270.4,0.015,0.2422,17.24,270.39,-3.063,0.18,0.22,4.655,-0.01,-0.063,0,0,0,270.4,0,0,0,0,0,0,0,0,0,0,0,0,0,1,1,59.75,FLYING
59.99,APPROACH,ILS_TRACK,75.37,76,0.63,312.59,-4.17,3.65,6.65,270.41,0.015,0.2439,17.438,270.39,-3.062,0.19,0.22,4.63,-0.01,-0.062,0,0,0,270.4,0,0,0,0,0,0,0,0,0,0,0,0,0,1,1,60.06,FLYING
60.38,APPROACH,ILS_TRACK,75.39,76,0.61,310.98,-4.17,3.64,6.64,270.41,0.016,0.2456,17.673,270.39,-3.062,0.19,0.22,4.6,-0.009,-0.062,0,0,0,270.4,0,0,0,0,0,0,0,0,0,0,0,0,0,1,1,60.45,FLYING
60.69,APPROACH,ILS_TRACK,75.41,76,0.59,309.66,-4.17,3.64,6.64,270.41,0.015,0.2468,17.859,270.39,-3.063,0.19,0.22,4.575,-0.011,-0.063,0,0,0,270.4,0,0,0,0,0,0,0,0,0,0,0,0,0,1,1,60.76,FLYING
61.01,APPROACH,ILS_TRACK,75.44,76,0.56,308.35,-4.17,3.64,6.64,270.41,0.014,0.2477,18.038,270.39,-3.063,0.2,0.22,4.549,-0.01,-0.063,0,0,0,270.4,0,0,0,0,0,0,0,0,0,0,0,0,0,1,1,61.08,FLYING
61.39,APPROACH,ILS_TRACK,75.47,76,0.53,306.74,-4.17,3.63,6.63,270.41,0.014,0.2483,18.244,270.39,-3.064,0.2,0.22,4.519,-0.01,-0.064,0,0,0,270.4,0,0,0,0,0,0,0,0,0,0,0,0,0,1,1,61.46,FLYING
61.71,APPROACH,ILS_TRACK,75.5,76,0.5,305.43,-4.17,3.63,6.63,270.41,0.015,0.2486,18.403,270.39,-3.065,0.2,0.22,4.494,-0.011,-0.065,0,0,0,270.4,0,0,0,0,0,0,0,0,0,0,0,0,0,1,1,61.78,FLYING
62.02,APPROACH,ILS_TRACK,75.53,76,0.47,304.11,-4.17,3.62,6.62,270.41,0.014,0.2485,18.551,270.39,-3.065,0.21,0.22,4.469,-0.011,-0.065,0,0,0,270.4,0,0,0,0,0,0,0,0,0,0,0,0,0,1,1,62.09,FLYING
62.41,APPROACH,ILS_TRACK,75.58,76,0.42,302.51,-4.18,3.61,6.61,270.41,0.012,0.248,18.715,270.39,-3.067,0.21,0.22,4.438,-0.011,-0.067,0,0,0,270.4,0,0,0,0,0,0,0,0,0,0,0,0,0,1,1,62.48,FLYING
62.72,APPROACH,ILS_TRACK,75.62,76,0.38,301.19,-4.18,3.61,6.61,270.41,0.012,0.2472,18.836,270.39,-3.068,0.21,0.22,4.413,-0.011,-0.068,0,0,0,270.4,0,0,0,0,0,0,0,0,0,0,0,0,0,1,1,62.79,FLYING
63.04,APPROACH,ILS_TRACK,75.66,76,0.34,299.87,-4.18,3.6,6.6,270.41,0.012,0.2461,18.944,270.39,-3.069,0.22,0.22,4.388,-0.011,-0.069,0,0,0,270.4,0,0,0,0,0,0,0,0,0,0,0,0,0,1,1,63.11,FLYING
63.42,APPROACH,ILS_TRACK,75.72,76,0.28,298.26,-4.18,3.59,6.59,270.41,0.013,0.2444,19.054,270.39,-3.071,0.22,0.22,4.357,-0.012,-0.071,0,0,0,270.4,0,0,0,0,0,0,0,0,0,0,0,0,0,1,1,63.49,FLYING
63.74,APPROACH,ILS_TRACK,75.77,76,0.23,296.95,-4.18,3.59,6.58,270.41,0.014,0.2426,19.128,270.39,-3.072,0.22,0.22,4.332,-0.012,-0.072,0,0,0,270.4,0,0,0,0,0,0,0,0,0,0,0,0,0,1,1,63.81,FLYING
64.05,APPROACH,ILS_TRACK,75.82,76,0.18,295.63,-4.18,3.58,6.57,270.41,0.014,0.2404,19.187,270.39,-3.074,0.23,0.23,4.307,-0.012,-0.074,0,0,0,270.4,0,0,0,0,0,0,0,0,0,0,0,0,0,1,1,64.12,FLYING
64.44,APPROACH,ILS_TRACK,75.89,76,0.11,294.02,-4.18,3.57,6.56,270.41,0.015,0.2374,19.233,270.39,-3.076,0.23,0.23,4.276,-0.012,-0.076,0,0,0,270.4,0,0,0,0,0,0,0,0,0,0,0,0,0,1,1,64.51,FLYING
64.75,APPROACH,ILS_TRACK,75.94,76,0.06,292.7,-4.19,3.56,6.55,270.41,0.016,0.2346,19.253,270.39,-3.077,0.24,0.23,4.251,-0.012,-0.077,0,0,0,270.4,0,0,0,0,0,0,0,0,0,0,0,0,0,1,1,64.82,FLYING
65.07,APPROACH,ILS_TRACK,76,76,0,291.38,-4.19,3.55,6.54,270.41,0.016,0.2314,19.255,270.39,-3.079,0.24,0.24,4.225,-0.013,-0.079,0,0,0,270.4,0,0,0,0,0,0,0,0,0,0,0,0,0,1,1,65.14,FLYING
65.45,APPROACH,ILS_TRACK,76.07,76,-0.07,289.77,-4.19,3.54,6.53,270.41,0.017,0.2272,19.23,270.39,-3.08,0.24,0.24,4.194,-0.012,-0.08,0,0,0,270.4,0,0,0,0,0,0,0,0,0,0,0,0,0,1,1,65.52,FLYING
65.77,APPROACH,ILS_TRACK,76.13,76,-0.13,288.45,-4.19,3.53,6.52,270.41,0.017,0.2234,19.19,270.39,-3.082,0.25,0.24,4.169,-0.013,-0.082,0,0,0,270.4,0,0,0,0,0,0,0,0,0,0,0,0,0,1,1,65.84,FLYING
66.08,APPROACH,ILS_TRACK,76.19,76,-0.19,287.12,-4.2,3.52,6.51,270.41,0.019,0.2193,19.131,270.39,-3.083,0.25,0.25,4.144,-0.013,-0.083,0,0,0,270.4,0,0,0,0,0,0,0,0,0,0,0,0,0,1,1,66.15,FLYING
66.47,APPROACH,ILS_TRACK,76.27,76,-0.27,285.51,-4.2,3.51,6.5,270.41,0.018,0.2139,19.03,270.39,-3.085,0.25,0.25,4.113,-0.013,-0.085,0,0,0,270.4,0,0,0,0,0,0,0,0,0,0,0,0,0,1,1,66.54,FLYING
66.78,APPROACH,ILS_TRACK,76.33,76,-0.33,284.18,-4.2,3.5,6.49,270.41,0.018,0.2092,18.927,270.39,-3.086,0.26,0.25,4.088,-0.013,-0.086,0,0,0,270.4,0,0,0,0,0,0,0,0,0,0,0,0,0,1,1,66.85,FLYING
67.1,APPROACH,ILS_TRACK,76.4,76,-0.4,282.86,-4.2,3.49,6.48,270.4,0.018,0.2043,18.805,270.39,-3.088,0.26,0.26,4.062,-0.013,-0.088,0,0,0,270.4,0,0,0,0,0,0,0,0,0,0,0,0,0,1,1,67.17,FLYING
67.48,APPROACH,ILS_TRACK,76.47,76,-0.47,281.24,-4.21,3.48,6.47,270.41,0.018,0.1981,18.627,270.39,-3.089,0.26,0.26,4.031,-0.013,-0.089,0,0,0,270.4,0,0,0,0,0,0,0,0,0,0,0,0,0,1,1,67.55,FLYING
67.8,APPROACH,ILS_TRACK,76.53,76,-0.53,279.91,-4.21,3.47,6.46,270.4,0.019,0.1929,18.462,270.39,-3.09,0.27,0.27,4.006,-0.013,-0.09,0,0,0,270.4,0,0,0,0,0,0,0,0,0,0,0,0,0,1,1,67.87,FLYING
68.11,APPROACH,ILS_TRACK,76.58,76,-0.58,278.58,-4.22,3.46,6.45,270.4,0.019,0.1876,18.28,270.39,-3.091,0.27,0.27,3.98,-0.013,-0.091,0,0,0,270.4,0,0,0,0,0,0,0,0,0,0,0,0,0,1,1,68.18,FLYING
68.5,APPROACH,ILS_TRACK,76.65,76,-0.65,276.96,-4.22,3.45,6.45,270.4,0.018,0.1812,18.034,270.39,-3.091,0.27,0.28,3.949,-0.013,-0.091,0,0,0,270.4,0,0,0,0,0,0,0,0,0,0,0,0,0,1,1,68.57,FLYING
68.81,APPROACH,ILS_TRACK,76.69,76,-0.69,275.63,-4.22,3.45,6.44,270.4,0.018,0.1761,17.818,270.39,-3.092,0.28,0.28,3.924,-0.013,-0.092,0,0,0,270.4,0,0,0,0,0,0,0,0,0,0,0,0,0,1,1,68.88,FLYING
69.13,APPROACH,ILS_TRACK,76.73,76,-0.73,274.3,-4.23,3.44,6.44,270.4,0.019,0.1711,17.589,270.39,-3.092,0.28,0.28,3.899,-0.013,-0.092,0,0,0,270.4,0,0,0,0,0,0,0,0,0,0,0,0,0,1,1,69.2,FLYING
69.51,APPROACH,ILS_TRACK,76.77,76,-0.77,272.67,-4.23,3.44,6.43,270.4,0.018,0.1652,17.292,270.39,-3.091,0.28,0.28,3.867,-0.013,-0.091,0,0,0,270.4,0,0,0,0,0,0,0,0,0,0,0,0,0,1,1,69.58,FLYING
69.83,APPROACH,ILS_TRACK,76.8,76,-0.8,271.34,-4.23,3.43,6.43,270.4,0.018,0.1607,17.041,270.39,-3.091,0.28,0.29,3.842,-0.013,-0.091,0,0,0,270.4,0,0,0,0,0,0,0,0,0,0,0,0,0,1,1,69.9,FLYING
70.14,APPROACH,ILS_TRACK,76.82,76,-0.82,270,-4.23,3.43,6.43,270.4,0.018,0.1564,16.784,270.39,-3.09,0.29,0.29,3.816,-0.013,-0.09,0,0,0,270.4,0,0,0,0,0,0,0,0,0,0,0,0,0,1,1,70.21,FLYING
70.53,APPROACH,ILS_TRACK,76.84,76,-0.84,268.37,-4.24,3.43,6.43,270.4,0.018,0.1516,16.462,270.39,-3.088,0.29,0.29,3.785,-0.013,-0.088,0,0,0,270.4,0,0,0,0,0,0,0,0,0,0,0,0,0,1,1,70.6,FLYING
70.84,APPROACH,ILS_TRACK,76.84,76,-0.84,267.04,-4.24,3.43,6.42,270.4,0.018,0.1481,16.198,270.39,-3.087,0.29,0.29,3.76,-0.013,-0.087,0,0,0,270.4,0,0,0,0,0,0,0,0,0,0,0,0,0,1,1,70.91,FLYING
71.16,APPROACH,ILS_TRACK,76.84,76,-0.84,265.7,-4.24,3.43,6.43,270.4,0.017,0.145,15.933,270.39,-3.085,0.29,0.29,3.734,-0.013,-0.085,0,0,0,270.4,0,0,0,0,0,0,0,0,0,0,0,0,0,1,1,71.23,FLYING
71.54,APPROACH,ILS_TRACK,76.83,76,-0.83,264.07,-4.24,3.43,6.43,270.4,0.018,0.1417,15.613,270.39,-3.083,0.3,0.29,3.703,-0.013,-0.083,0,0,0,270.4,0,0,0,0,0,0,0,0,0,0,0,0,0,1,1,71.61,FLYING
71.86,APPROACH,ILS_TRACK,76.81,76,-0.81,262.73,-4.24,3.43,6.43,270.4,0.015,0.1394,15.356,270.39,-3.081,0.3,0.29,3.678,-0.013,-0.081,0,0,0,270.4,0,0,0,0,0,0,0,0,0,0,0,0,0,1,1,71.93,FLYING
72.17,APPROACH,ILS_TRACK,76.79,76,-0.79,261.4,-4.24,3.43,6.44,270.4,0.017,0.1376,15.106,270.39,-3.079,0.3,0.28,3.652,-0.013,-0.079,0,0,0,270.4,0,0,0,0,0,0,0,0,0,0,0,0,0,1,1,72.24,FLYING
72.56,APPROACH,ILS_TRACK,76.76,76,-0.76,259.76,-4.24,3.44,6.45,270.4,0.017,0.1359,14.814,270.39,-3.077,0.3,0.28,3.621,-0.013,-0.077,0,0,0,270.4,0,0,0,0,0,0,0,0,0,0,0,0,0,1,1,72.63,FLYING
72.87,APPROACH,ILS_TRACK,76.72,76,-0.72,258.43,-4.24,3.44,6.45,270.4,0.017,0.135,14.585,270.39,-3.074,0.3,0.28,3.596,-0.013,-0.074,0,0,0,270.4,0,0,0,0,0,0,0,0,0,0,0,0,0,1,1,72.94,FLYING
73.19,APPROACH,ILS_TRACK,76.68,76,-0.68,257.09,-4.24,3.45,6.46,270.4,0.014,0.1346,14.368,270.39,-3.072,0.3,0.27,3.57,-0.013,-0.072,0,0,0,270.4,0,0,0,0,0,0,0,0,0,0,0,0,0,1,1,73.26,FLYING
73.57,APPROACH,ILS_TRACK,76.63,76,-0.63,255.46,-4.24,3.46,6.47,270.4,0.015,0.1345,14.123,270.39,-3.068,0.31,0.27,3.539,-0.013,-0.068,0,0,0,270.4,0,0,0,0,0,0,0,0,0,0,0,0,0,1,1,73.64,FLYING
73.89,APPROACH,ILS_TRACK,76.58,76,-0.58,254.13,-4.24,3.46,6.48,270.4,0.015,0.135,13.938,270.39,-3.065,0.31,0.26,3.514,-0.013,-0.065,0,0,0,270.4,0,0,0,0,0,0,0,0,0,0,0,0,0,1,1,73.96,FLYING
74.2,APPROACH,ILS_TRACK,76.53,76,-0.53,252.79,-4.24,3.47,6.48,270.4,0.015,0.1357,13.769,270.39,-3.062,0.31,0.26,3.489,-0.014,-0.062,0,0,0,270.4,0,0,0,0,0,0,0,0,0,0,0,0,0,1,1,74.27,FLYING
74.59,APPROACH,ILS_TRACK,76.46,76,-0.46,251.16,-4.23,3.48,6.49,270.4,0.014,0.1372,13.588,270.39,-3.058,0.31,0.25,3.458,-0.013,-0.058,0,0,0,270.4,0,0,0,0,0,0,0,0,0,0,0,0,0,1,1,74.66,FLYING
74.9,APPROACH,ILS_TRACK,76.41,76,-0.41,249.83,-4.23,3.49,6.5,270.4,0.013,0.1387,13.458,270.39,-3.055,0.31,0.24,3.432,-0.014,-0.055,0,0,0,270.4,0,0,0,0,0,0,0,0,0,0,0,0,0,1,1,74.97,FLYING
75.22,APPROACH,ILS_TRACK,76.35,76,-0.35,248.5,-4.23,3.5,6.51,270.4,0.017,0.1406,13.346,270.39,-3.051,0.31,0.23,3.407,-0.013,-0.051,0,0,0,270.4,0,0,0,0,0,0,0,0,0,0,0,0,0,1,1,75.29,FLYING
75.6,APPROACH,ILS_TRACK,76.28,76,-0.28,246.87,-4.23,3.51,6.52,270.4,0.015,0.1432,13.237,270.39,-3.047,0.31,0.22,3.376,-0.014,-0.047,0,0,0,270.4,0,0,0,0,0,0,0,0,0,0,0,0,0,1,1,75.67,FLYING
75.92,APPROACH,ILS_TRACK,76.22,76,-0.22,245.54,-4.22,3.51,6.53,270.4,0.016,0.1457,13.166,270.39,-3.044,0.32,0.22,3.351,-0.013,-0.044,0,0,0,270.4,0,0,0,0,0,0,0,0,0,0,0,0,0,1,1,75.99,FLYING
76.23,APPROACH,ILS_TRACK,76.16,76,-0.16,244.21,-4.22,3.52,6.54,270.4,0.014,0.1483,13.114,270.39,-3.041,0.32,0.21,3.326,-0.014,-0.041,0,0,0,270.4,0,0,0,0,0,0,0,0,0,0,0,0,0,1,1,76.3,FLYING
76.62,APPROACH,ILS_TRACK,76.09,76,-0.09,242.58,-4.22,3.53,6.55,270.4,0.015,0.1518,13.078,270.39,-3.037,0.32,0.2,3.295,-0.014,-0.037,0,0,0,270.4,0,0,0,0,0,0,0,0,0,0,0,0,0,1,1,76.69,FLYING
76.93,APPROACH,ILS_TRACK,76.03,76,-0.03,241.26,-4.21,3.54,6.56,270.4,0.016,0.1549,13.067,270.39,-3.034,0.32,0.19,3.27,-0.014,-0.034,0,0,0,270.4,0,0,0,0,0,0,0,0,0,0,0,0,0,1,1,77,FLYING
77.25,APPROACH,ILS_TRACK,75.97,76,0.03,239.93,-4.21,3.55,6.57,270.4,0.016,0.1582,13.075,270.39,-3.031,0.32,0.18,3.245,-0.014,-0.031,0,0,0,270.4,0,0,0,0,0,0,0,0,0,0,0,0,0,1,1,77.32,FLYING
77.63,APPROACH,ILS_TRACK,75.9,76,0.1,238.31,-4.21,3.56,6.58,270.4,0.015,0.1625,13.111,270.39,-3.027,0.32,0.17,3.214,-0.014,-0.027,0,0,0,270.4,0,0,0,0,0,0,0,0,0,0,0,0,0,1,1,77.7,FLYING
77.95,APPROACH,ILS_TRACK,75.84,76,0.16,236.99,-4.21,3.57,6.59,270.4,0.015,0.1661,13.158,270.39,-3.024,0.32,0.16,3.189,-0.014,-0.024,0,0,0,270.4,0,0,0,0,0,0,0,0,0,0,0,0,0,1,1,78.02,FLYING
78.26,APPROACH,ILS_TRACK,75.79,76,0.21,235.66,-4.2,3.58,6.6,270.4,0.014,0.1699,13.222,270.39,-3.022,0.33,0.15,3.164,-0.014,-0.022,0,0,0,270.4,0,0,0,0,0,0,0,0,0,0,0,0,0,1,1,78.33,FLYING
78.65,APPROACH,ILS_TRACK,75.72,76,0.28,234.05,-4.2,3.59,6.61,270.4,0.013,0.1748,13.326,270.39,-3.018,0.33,0.14,3.133,-0.014,-0.018,0,0,0,270.4,0,0,0,0,0,0,0,0,0,0,0,0,0,1,1,78.72,FLYING
78.96,APPROACH,ILS_TRACK,75.67,76,0.33,232.72,-4.19,3.6,6.62,270.4,0.013,0.1788,13.428,270.39,-3.016,0.33,0.13,3.108,-0.014,-0.016,0,0,0,270.4,0,0,0,0,0,0,0,0,0,0,0,0,0,1,1,79.03,FLYING
79.28,APPROACH,ILS_TRACK,75.62,76,0.38,231.4,-4.19,3.6,6.62,270.4,0.011,0.183,13.545,270.39,-3.013,0.33,0.12,3.083,-0.014,-0.013,0,0,0,270.4,0,0,0,0,0,0,0,0,0,0,0,0,0,1,1,79.35,FLYING
79.66,APPROACH,ILS_TRACK,75.56,76,0.44,229.79,-4.19,3.61,6.63,270.4,0.009,0.1882,13.711,270.39,-3.01,0.33,0.11,3.053,-0.015,-0.01,0,0,0,270.4,0,0,0,0,0,0,0,0,0,0,0,0,0,1,1,79.73,FLYING
79.98,APPROACH,ILS_TRACK,75.52,76,0.48,228.47,-4.18,3.62,6.64,270.4,0.009,0.1926,13.861,270.39,-3.008,0.33,0.1,3.028,-0.015,-0.008,0,0,0,270.4,0,0,0,0,0,0,0,0,0,0,0,0,0,1,1,80.05,FLYING
80.29,APPROACH,ILS_TRACK,75.47,76,0.53,227.16,-4.18,3.63,6.65,270.4,0.009,0.1969,14.025,270.39,-3.006,0.34,0.09,3.003,-0.015,-0.006,0,0,0,270.4,0,0,0,0,0,0,0,0,0,0,0,0,0,1,1,80.36,FLYING
80.68,APPROACH,ILS_TRACK,75.43,76,0.57,225.55,-4.18,3.64,6.65,270.4,0.01,0.2023,14.245,270.39,-3.004,0.34,0.08,2.972,-0.015,-0.004,0,0,0,270.4,0,0,0,0,0,0,0,0,0,0,0,0,0,1,1,80.75,FLYING
80.99,APPROACH,ILS_TRACK,75.39,76,0.61,224.24,-4.17,3.64,6.66,270.41,0.011,0.2067,14.436,270.38,-3.003,0.34,0.07,2.947,-0.015,-0.003,0,0,0,270.4,0,0,0,0,0,0,0,0,0,0,0,0,0,1,1,81.06,FLYING
81.31,APPROACH,ILS_TRACK,75.35,76,0.65,222.92,-4.17,3.65,6.66,270.4,0.01,0.211,14.639,270.38,-3.001,0.34,0.07,2.922,-0.015,-0.001,0,0,0,270.4,0,0,0,0,0,0,0,0,0,0,0,0,0,1,1,81.38,FLYING
81.69,APPROACH,ILS_TRACK,75.31,76,0.69,221.32,-4.16,3.65,6.67,270.4,0.01,0.2163,14.901,270.38,-3,0.34,0.06,2.892,-0.016,0,0,0,0,270.4,0,0,0,0,0,0,0,0,0,0,0,0,0,1,1,81.76,FLYING
82.01,APPROACH,ILS_TRACK,75.29,76,0.71,220.01,-4.16,3.66,6.67,270.4,0.01,0.2205,15.125,270.38,-2.999,0.35,0.05,2.867,-0.016,0.001,0,0,0,270.4,0,0,0,0,0,0,0,0,0,0,0,0,0,1,1,82.08,FLYING
82.32,APPROACH,ILS_TRACK,75.26,76,0.74,218.7,-4.16,3.66,6.67,270.41,0.011,0.2247,15.356,270.38,-2.998,0.35,0.05,2.842,-0.016,0.002,0,0,0,270.4,0,0,0,0,0,0,0,0,0,0,0,0,0,1,1,82.39,FLYING
82.71,APPROACH,ILS_TRACK,75.24,76,0.76,217.1,-4.15,3.67,6.68,270.41,0.012,0.2296,15.649,270.38,-2.998,0.35,0.04,2.812,-0.017,0.002,0,0,0,270.4,0,0,0,0,0,0,0,0,0,0,0,0,0,1,1,82.78,FLYING
83.02,APPROACH,ILS_TRACK,75.22,76,0.78,215.79,-4.15,3.67,6.68,270.41,0.011,0.2335,15.894,270.38,-2.998,0.36,0.03,2.787,-0.016,0.002,0,0,0,270.4,0,0,0,0,0,0,0,0,0,0,0,0,0,1,1,83.09,FLYING
83.34,APPROACH,ILS_TRACK,75.21,76,0.79,214.48,-4.15,3.67,6.68,270.41,0.013,0.2372,16.143,270.38,-2.999,0.36,0.03,2.762,-0.017,0.001,0,0,0,270.4,0,0,0,0,0,0,0,0,0,0,0,0,0,1,1,83.41,FLYING
83.72,APPROACH,ILS_TRACK,75.2,76,0.8,212.89,-4.14,3.68,6.68,270.41,0.015,0.2415,16.451,270.38,-2.999,0.36,0.03,2.731,-0.017,0.001,0,0,0,270.4,0,0,0,0,0,0,0,0,0,0,0,0,0,1,1,83.79,FLYING
84.04,APPROACH,ILS_TRACK,75.19,76,0.81,211.58,-4.14,3.68,6.68,270.41,0.015,0.2448,16.705,270.38,-3,0.37,0.02,2.707,-0.017,0,0,0,0,270.4,0,0,0,0,0,0,0,0,0,0,0,0,0,1,1,84.11,FLYING
84.35,APPROACH,ILS_TRACK,75.19,76,0.81,210.28,-4.14,3.68,6.68,270.41,0.014,0.2478,16.959,270.38,-3.001,0.37,0.02,2.682,-0.017,-0.001,0,0,0,270.4,0,0,0,0,0,0,0,0,0,0,0,0,0,1,1,84.42,FLYING
84.74,APPROACH,ILS_TRACK,75.2,76,0.8,208.68,-4.14,3.68,6.68,270.41,0.014,0.2513,17.267,270.38,-3.003,0.37,0.02,2.651,-0.017,-0.003,0,0,0,270.4,0,0,0,0,0,0,0,0,0,0,0,0,0,1,1,84.81,FLYING
85.05,APPROACH,ILS_TRACK,75.21,76,0.79,207.38,-4.13,3.68,6.68,270.41,0.014,0.2538,17.517,270.38,-3.005,0.38,0.02,2.627,-0.018,-0.005,0,0,0,270.4,0,0,0,0,0,0,0,0,0,0,0,0,0,1,1,85.12,FLYING
85.37,APPROACH,ILS_TRACK,75.22,76,0.78,206.08,-4.13,3.68,6.68,270.41,0.017,0.256,17.762,270.38,-3.007,0.38,0.02,2.602,-0.018,-0.007,0,0,0,270.4,0,0,0,0,0,0,0,0,0,0,0,0,0,1,1,85.44,FLYING
85.75,APPROACH,ILS_TRACK,75.24,76,0.76,204.49,-4.13,3.68,6.67,270.4,0.018,0.2584,18.054,270.38,-3.01,0.38,0.02,2.571,-0.018,-0.01,0,0,0,270.4,0,0,0,0,0,0,0,0,0,0,0,0,0,1,1,85.82,FLYING
86.07,APPROACH,ILS_TRACK,75.27,76,0.73,203.19,-4.13,3.67,6.67,270.41,0.015,0.2599,18.286,270.38,-3.013,0.39,0.02,2.546,-0.018,-0.013,0,0,0,270.4,0,0,0,0,0,0,0,0,0,0,0,0,0,1,1,86.14,FLYING
86.38,APPROACH,ILS_TRACK,75.29,76,0.71,201.89,-4.13,3.67,6.66,270.41,0.015,0.2612,18.51,270.38,-3.016,0.39,0.03,2.522,-0.018,-0.016,0,0,0,270.4,0,0,0,0,0,0,0,0,0,0,0,0,0,1,1,86.45,FLYING
86.77,APPROACH,ILS_TRACK,75.33,76,0.67,200.3,-4.12,3.67,6.65,270.41,0.014,0.2622,18.769,270.38,-3.019,0.39,0.03,2.491,-0.018,-0.019,0,0,0,270.4,0,0,0,0,0,0,0,0,0,0,0,0,0,1,1,86.84,FLYING
87.08,APPROACH,ILS_TRACK,75.37,76,0.63,199,-4.12,3.66,6.65,270.41,0.015,0.2627,18.97,270.38,-3.023,0.4,0.04,2.466,-0.018,-0.023,0,0,0,270.4,0,0,0,0,0,0,0,0,0,0,0,0,0,1,1,87.15,FLYING
87.4,APPROACH,ILS_TRACK,75.41,76,0.59,197.7,-4.12,3.66,6.64,270.41,0.015,0.2628,19.159,270.38,-3.027,0.4,0.04,2.441,-0.019,-0.027,0,0,0,270.4,0,0,0,0,0,0,0,0,0,0,0,0,0,1,1,87.47,FLYING
87.78,APPROACH,ILS_TRACK,75.46,76,0.54,196.11,-4.12,3.65,6.63,270.41,0.017,0.2624,19.369,270.38,-3.032,0.4,0.05,2.411,-0.019,-0.032,0,0,0,270.4,0,0,0,0,0,0,0,0,0,0,0,0,0,1,1,87.85,FLYING
88.1,APPROACH,ILS_TRACK,75.51,76,0.49,194.81,-4.12,3.64,6.62,270.41,0.018,0.2617,19.526,270.38,-3.036,0.41,0.06,2.386,-0.019,-0.036,0,0,0,270.4,0,0,0,0,0,0,0,0,0,0,0,0,0,1,1,88.17,FLYING
88.41,APPROACH,ILS_TRACK,75.56,76,0.44,193.51,-4.12,3.64,6.61,270.41,0.018,0.2606,19.667,270.38,-3.041,0.41,0.07,2.361,-0.019,-0.041,0,0,0,270.4,0,0,0,0,0,0,0,0,0,0,0,0,0,1,1,88.48,FLYING
88.8,APPROACH,ILS_TRACK,75.63,76,0.37,191.93,-4.12,3.62,6.6,270.41,0.018,0.2587,19.813,270.38,-3.046,0.42,0.08,2.331,-0.02,-0.046,0,0,0,270.4,0,0,0,0,0,0,0,0,0,0,0,0,0,1,1,88.87,FLYING
89.11,APPROACH,ILS_TRACK,75.68,76,0.32,190.63,-4.13,3.62,6.59,270.4,0.021,0.2567,19.915,270.38,-3.05,0.42,0.09,2.306,-0.019,-0.05,0,0,0,270.4,0,0,0,0,0,0,0,0,0,0,0,0,0,1,1,89.18,FLYING
89.43,APPROACH,ILS_TRACK,75.75,76,0.25,189.33,-4.13,3.61,6.58,270.41,0.019,0.2543,19.997,270.38,-3.055,0.42,0.1,2.281,-0.02,-0.055,0,0,0,270.4,0,0,0,0,0,0,0,0,0,0,0,0,0,1,1,89.5,FLYING
89.81,APPROACH,ILS_TRACK,75.83,76,0.17,187.74,-4.13,3.59,6.57,270.4,0.021,0.25,20,270.38,-3.06,0.43,0.11,2.25,-0.02,-0.06,0,0,0,270.4,0,0,0,0,0,0,0,0,0,0,0,0,0,1,1,89.88,FLYING
90.13,APPROACH,ILS_TRACK,75.89,76,0.11,186.43,-4.13,3.58,6.56,270.41,0.023,0.2463,20,270.38,-3.065,0.43,0.12,2.225,-0.02,-0.065,0,0,0,270.4,0,0,0,0,0,0,0,0,0,0,0,0,0,1,1,90.2,FLYING
90.44,APPROACH,ILS_TRACK,75.96,76,0.04,185.13,-4.13,3.57,6.55,270.4,0.025,0.2425,20,270.38,-3.069,0.43,0.13,2.2,-0.02,-0.069,0,0,0,270.4,0,0,0,0,0,0,0,0,0,0,0,0,0,1,1,90.51,FLYING
90.82,APPROACH,ILS_TRACK,76.05,76,-0.05,183.55,-4.14,3.56,6.53,270.4,0.025,0.2375,19.984,270.38,-3.074,0.44,0.15,2.169,-0.02,-0.074,0,0,0,270.4,0,0,0,0,0,0,0,0,0,0,0,0,0,1,1,90.89,FLYING
91.12,APPROACH,ILS_TRACK,76.12,76,-0.12,182.31,-4.14,3.55,6.52,270.4,0.024,0.2332,19.949,270.38,-3.077,0.44,0.16,2.145,-0.02,-0.077,0,0,0,270.4,0,0,0,0,0,0,0,0,0,0,0,0,0,1,1,91.18,FLYING
91.39,APPROACH,ILS_TRACK,76.19,76,-0.19,181.22,-4.14,3.54,6.51,270.4,0.024,0.2288,19.898,270.38,-3.079,0.44,0.17,2.124,-0.019,-0.079,0,0,0,270.4,0,0,0,0,0,0,0,0,0,0,0,0,0,1,1,91.43,FLYING
91.63,APPROACH,ILS_TRACK,76.25,76,-0.25,180.21,-4.15,3.53,6.5,270.4,0.025,0.2245,19.832,270.38,-3.082,0.44,0.18,2.103,-0.02,-0.082,0,0,0,270.4,0,0,0,0,0,0,0,0,0,0,0,0,0,1,1,91.68,FLYING
91.89,APPROACH,ILS_TRACK,76.32,76,-0.32,179.14,-4.15,3.52,6.49,270.4,0.025,0.2197,19.745,270.38,-3.085,0.45,0.19,2.082,-0.02,-0.085,0,0,0,270.4,0,0,0,0,0,0,0,0,0,0,0,0,0,1,1,91.93,FLYING
92.09,APPROACH,ILS_TRACK,76.37,76,-0.37,178.3,-4.15,3.51,6.48,270.4,0.026,0.2161,19.672,270.38,-3.088,0.45,0.19,2.066,-0.019,-0.088,0,0,0,270.4,0,0,0,0,0,0,0,0,0,0,0,0,0,1,1,92.13,FLYING
92.29,APPROACH,ILS_TRACK,76.42,76,-0.42,177.47,-4.16,3.5,6.47,270.4,0.026,0.2125,19.59,270.38,-3.09,0.45,0.2,2.05,-0.019,-0.09,0,0,0,270.4,0,0,0,0,0,0,0,0,0,0,0,0,0,1,1,92.33,FLYING
92.49,APPROACH,ILS_TRACK,76.46,76,-0.46,176.64,-4.16,3.49,6.47,270.4,0.026,0.2088,19.498,270.38,-3.091,0.45,0.21,2.034,-0.02,-0.091,0,0,0,270.4,0,0,0,0,0,0,0,0,0,0,0,0,0,1,1,92.53,FLYING
92.69,APPROACH,ILS_TRACK,76.51,76,-0.51,175.81,-4.16,3.49,6.46,270.4,0.026,0.205,19.397,270.38,-3.092,0.45,0.22,2.018,-0.02,-0.092,0,0,0,270.4,0,0,0,0,0,0,0,0,0,0,0,0,0,1,1,92.73,FLYING
92.93,APPROACH,ILS_TRACK,76.57,76,-0.57,174.81,-4.17,3.48,6.45,270.4,0.026,0.2003,19.263,270.38,-3.094,0.45,0.22,1.999,-0.019,-0.094,0,0,0,270.4,0,0,0,0,0,0,0,0,0,0,0,0,0,1,1,92.97,FLYING
93.13,APPROACH,ILS_TRACK,76.61,76,-0.61,173.97,-4.17,3.47,6.45,270.4,0.026,0.1964,19.142,270.38,-3.095,0.45,0.23,1.983,-0.019,-0.095,0,0,0,270.4,0,0,0,0,0,0,0,0,0,0,0,0,0,1,1,93.17,FLYING
93.33,APPROACH,ILS_TRACK,76.65,76,-0.65,173.14,-4.17,3.46,6.44,270.4,0.026,0.1925,19.012,270.38,-3.095,0.45,0.24,1.967,-0.019,-0.095,0,0,0,270.4,0,0,0,0,0,0,0,0,0,0,0,0,0,1,1,93.37,FLYING
93.53,APPROACH,ILS_TRACK,76.69,76,-0.69,172.3,-4.18,3.46,6.44,270.4,0.025,0.1886,18.874,270.38,-3.096,0.45,0.24,1.951,-0.019,-0.096,0,0,0,270.4,0,0,0,0,0,0,0,0,0,0,0,0,0,1,1,93.57,FLYING
93.73,APPROACH,ILS_TRACK,76.73,76,-0.73,171.47,-4.18,3.45,6.43,270.4,0.026,0.1848,18.729,270.38,-3.096,0.45,0.25,1.935,-0.019,-0.096,0,0,0,270.4,0,0,0,0,0,0,0,0,0,0,0,0,0,1,1,93.77,FLYING
93.97,APPROACH,ILS_TRACK,76.77,76,-0.77,170.46,-4.18,3.44,6.42,270.4,0.025,0.1802,18.544,270.38,-3.097,0.46,0.25,1.915,-0.019,-0.097,0,0,0,270.4,0,0,0,0,0,0,0,0,0,0,0,0,0,1,1,94.01,FLYING
94.17,APPROACH,ILS_TRACK,76.81,76,-0.81,169.62,-4.19,3.44,6.42,270.4,0.025,0.1764,18.383,270.38,-3.097,0.46,0.26,1.899,-0.019,-0.097,0,0,0,270.4,0,0,0,0,0,0,0,0,0,0,0,0,0,1,1,94.21,FLYING
94.37,APPROACH,ILS_TRACK,76.84,76,-0.84,168.79,-4.19,3.43,6.42,270.4,0.026,0.1727,18.216,270.38,-3.097,0.46,0.26,1.883,-0.019,-0.097,0,0,0,270.4,0,0,0,0,0,0,0,0,0,0,0,0,0,1,1,94.41,FLYING
94.57,APPROACH,ILS_TRACK,76.87,76,-0.87,167.95,-4.19,3.43,6.41,270.4,0.026,0.1691,18.044,270.38,-3.097,0.46,0.27,1.867,-0.019,-0.097,0,0,0,270.4,0,0,0,0,0,0,0,0,0,0,0,0,0,1,1,94.61,FLYING
94.77,APPROACH,ILS_TRACK,76.89,76,-0.89,167.11,-4.2,3.42,6.41,270.4,0.025,0.1656,17.866,270.38,-3.097,0.46,0.27,1.851,-0.019,-0.097,0,0,0,270.4,0,0,0,0,0,0,0,0,0,0,0,0,0,1,1,94.81,FLYING
95.01,APPROACH,ILS_TRACK,76.92,76,-0.92,166.1,-4.2,3.42,6.41,270.4,0.025,0.1615,17.647,270.38,-3.097,0.46,0.28,1.832,-0.018,-0.097,0,0,0,270.4,0,0,0,0,0,0,0,0,0,0,0,0,0,1,1,95.05,FLYING
95.21,APPROACH,ILS_TRACK,76.93,76,-0.93,165.26,-4.2,3.42,6.41,270.4,0.025,0.1583,17.461,270.38,-3.097,0.46,0.28,1.816,-0.018,-0.097,0,0,0,270.4,0,0,0,0,0,0,0,0,0,0,0,0,0,1,1,95.25,FLYING
95.41,APPROACH,ILS_TRACK,76.95,76,-0.95,164.42,-4.2,3.42,6.4,270.4,0.023,0.1552,17.271,270.38,-3.097,0.46,0.28,1.799,-0.018,-0.097,0,0,0,270.4,0,0,0,0,0,0,0,0,0,0,0,0,0,1,1,95.45,FLYING
95.61,APPROACH,ILS_TRACK,76.96,76,-0.96,163.58,-4.21,3.41,6.4,270.4,0.024,0.1522,17.079,270.38,-3.096,0.46,0.29,1.783,-0.018,-0.096,0,0,0,270.4,0,0,0,0,0,0,0,0,0,0,0,0,0,1,1,95.65,FLYING
95.81,APPROACH,ILS_TRACK,76.97,76,-0.97,162.74,-4.21,3.41,6.4,270.4,0.024,0.1494,16.886,270.38,-3.096,0.46,0.29,1.767,-0.018,-0.096,0,0,0,270.4,0,0,0,0,0,0,0,0,0,0,0,0,0,1,1,95.85,FLYING
96.05,APPROACH,ILS_TRACK,76.97,76,-0.97,161.73,-4.21,3.41,6.4,270.4,0.024,0.1462,16.652,270.38,-3.095,0.46,0.29,1.748,-0.017,-0.095,0,0,0,270.4,0,0,0,0,0,0,0,0,0,0,0,0,0,1,1,96.09,FLYING
96.25,APPROACH,ILS_TRACK,76.98,76,-0.98,160.88,-4.21,3.41,6.41,270.4,0.024,0.1438,16.457,270.38,-3.095,0.46,0.29,1.732,-0.018,-0.095,0,0,0,270.4,0,0,0,0,0,0,0,0,0,0,0,0,0,1,1,96.29,FLYING
96.45,APPROACH,ILS_TRACK,76.97,76,-0.97,160.04,-4.21,3.41,6.41,270.4,0.023,0.1415,16.262,270.38,-3.094,0.45,0.29,1.716,-0.017,-0.094,0,0,0,270.4,0,0,0,0,0,0,0,0,0,0,0,0,0,1,1,96.49,FLYING
96.65,APPROACH,ILS_TRACK,76.97,76,-0.97,159.2,-4.21,3.41,6.41,270.39,0.022,0.1394,16.067,270.38,-3.093,0.45,0.29,1.7,-0.017,-0.093,0,0,0,270.4,0,0,0,0,0,0,0,0,0,0,0,0,0,1,1,96.69,FLYING
96.85,APPROACH,ILS_TRACK,76.96,76,-0.96,158.36,-4.21,3.41,6.41,270.4,0.022,0.1375,15.875,270.38,-3.092,0.45,0.3,1.684,-0.017,-0.092,0,0,0,270.4,0,0,0,0,0,0,0,0,0,0,0,0,0,1,1,96.89,FLYING
97.09,APPROACH,ILS_TRACK,76.95,76,-0.95,157.34,-4.21,3.41,6.41,270.39,0.021,0.1355,15.647,270.38,-3.091,0.45,0.3,1.664,-0.017,-0.091,0,0,0,270.4,0,0,0,0,0,0,0,0,0,0,0,0,0,1,1,97.13,FLYING
97.29,APPROACH,ILS_TRACK,76.94,76,-0.94,156.5,-4.22,3.42,6.41,270.39,0.021,0.134,15.459,270.38,-3.09,0.45,0.3,1.648,-0.017,-0.09,0,0,0,270.4,0,0,0,0,0,0,0,0,0,0,0,0,0,1,1,97.33,FLYING
97.49,APPROACH,ILS_TRACK,76.92,76,-0.92,155.66,-4.22,3.42,6.42,270.39,0.019,0.1327,15.275,270.38,-3.089,0.45,0.3,1.632,-0.017,-0.089,0,0,0,270.4,0,0,0,0,0,0,0,0,0,0,0,0,0,1,1,97.53,FLYING
97.69,APPROACH,ILS_TRACK,76.9,76,-0.9,154.82,-4.22,3.42,6.42,270.39,0.02,0.1316,15.095,270.38,-3.088,0.45,0.3,1.616,-0.017,-0.088,0,0,0,270.4,0,0,0,0,0,0,0,0,0,0,0,0,0,1,1,97.73,FLYING
97.89,APPROACH,ILS_TRACK,76.88,76,-0.88,153.97,-4.22,3.42,6.43,270.39,0.02,0.1307,14.919,270.38,-3.087,0.45,0.3,1.6,-0.017,-0.087,0,0,0,270.4,0,0,0,0,0,0,0,0,0,0,0,0,0,1,1,97.93,FLYING
98.13,APPROACH,ILS_TRACK,76.85,76,-0.85,152.96,-4.21,3.43,6.43,270.39,0.02,0.1298,14.715,270.38,-3.086,0.45,0.29,1.581,-0.016,-0.086,0,0,0,270.4,0,0,0,0,0,0,0,0,0,0,0,0,0,1,1,98.17,FLYING
98.33,APPROACH,ILS_TRACK,76.82,76,-0.82,152.12,-4.21,3.43,6.44,270.39,0.019,0.1293,14.55,270.38,-3.084,0.45,0.29,1.565,-0.016,-0.084,0,0,0,270.4,0,0,0,0,0,0,0,0,0,0,0,0,0,1,1,98.37,FLYING
98.53,APPROACH,ILS_TRACK,76.79,76,-0.79,151.28,-4.21,3.44,6.44,270.39,0.019,0.129,14.392,270.38,-3.083,0.44,0.29,1.548,-0.016,-0.083,0,0,0,270.4,0,0,0,0,0,0,0,0,0,0,0,0,0,1,1,98.57,FLYING
98.73,APPROACH,ILS_TRACK,76.76,76,-0.76,150.43,-4.21,3.44,6.45,270.39,0.019,0.1289,14.239,270.38,-3.082,0.44,0.29,1.532,-0.016,-0.082,0,0,0,270.4,0,0,0,0,0,0,0,0,0,0,0,0,0,1,1,98.77,FLYING
98.93,APPROACH,ILS_TRACK,76.73,76,-0.73,149.59,-4.21,3.44,6.45,270.39,0.018,0.1289,14.093,270.38,-3.08,0.44,0.29,1.516,-0.016,-0.08,0,0,0,270.4,0,0,0,0,0,0,0,0,0,0,0,0,0,1,1,98.97,FLYING
99.17,APPROACH,ILS_TRACK,76.69,76,-0.69,148.58,-4.21,3.45,6.46,270.39,0.017,0.1292,13.928,270.38,-3.079,0.44,0.29,1.497,-0.016,-0.079,0,0,0,270.4,0,0,0,0,0,0,0,0,0,0,0,0,0,1,1,99.21,FLYING
99.37,APPROACH,ILS_TRACK,76.65,76,-0.65,147.74,-4.21,3.46,6.46,270.39,0.018,0.1297,13.797,270.38,-3.077,0.44,0.29,1.481,-0.016,-0.077,0,0,0,270.4,0,0,0,0,0,0,0,0,0,0,0,0,0,1,1,99.41,FLYING
99.57,APPROACH,ILS_TRACK,76.61,76,-0.61,146.9,-4.21,3.46,6.47,270.39,0.018,0.1303,13.674,270.38,-3.076,0.44,0.28,1.465,-0.016,-0.076,0,0,0,270.4,0,0,0,0,0,0,0,0,0,0,0,0,0,1,1,99.61,FLYING
99.77,APPROACH,ILS_TRACK,76.57,76,-0.57,146.06,-4.21,3.47,6.48,270.39,0.017,0.131,13.559,270.38,-3.074,0.44,0.28,1.449,-0.016,-0.074,0,0,0,270.4,0,0,0,0,0,0,0,0,0,0,0,0,0,1,1,99.81,FLYING
99.97,APPROACH,ILS_TRACK,76.53,76,-0.53,145.22,-4.21,3.47,6.48,270.39,0.017,0.1319,13.451,270.38,-3.073,0.44,0.28,1.433,-0.016,-0.073,0,0,0,270.4,0,0,0,0,0,0,0,0,0,0,0,0,0,1,1,100.01,FLYING
100.21,APPROACH,ILS_TRACK,76.48,76,-0.48,144.21,-4.2,3.48,6.49,270.39,0.016,0.1332,13.334,270.38,-3.071,0.43,0.27,1.414,-0.015,-0.071,0,0,0,270.4,0,0,0,0,0,0,0,0,0,0,0,0,0,1,1,100.25,FLYING
100.41,APPROACH,ILS_TRACK,76.44,76,-0.44,143.37,-4.2,3.49,6.5,270.39,0.016,0.1344,13.245,270.38,-3.07,0.43,0.27,1.398,-0.016,-0.07,0,0,0,270.4,0,0,0,0,0,0,0,0,0,0,0,0,0,1,1,100.45,FLYING
100.61,APPROACH,ILS_TRACK,76.4,76,-0.4,142.53,-4.2,3.49,6.5,270.39,0.016,0.1357,13.164,270.38,-3.068,0.43,0.27,1.382,-0.015,-0.068,0,0,0,270.4,0,0,0,0,0,0,0,0,0,0,0,0,0,1,1,100.65,FLYING
100.81,APPROACH,ILS_TRACK,76.36,76,-0.36,141.69,-4.2,3.5,6.51,270.39,0.016,0.1371,13.091,270.38,-3.067,0.43,0.27,1.366,-0.015,-0.067,0,0,0,270.4,0,0,0,0,0,0,0,0,0,0,0,0,0,1,1,100.85,FLYING
101.01,APPROACH,ILS_TRACK,76.32,76,-0.32,140.85,-4.2,3.5,6.52,270.39,0.015,0.1387,13.027,270.38,-3.065,0.43,0.26,1.35,-0.015,-0.065,0,0,0,270.4,0,0,0,0,0,0,0,0,0,0,0,0,0,1,1,101.05,FLYING
101.25,APPROACH,ILS_TRACK,76.27,76,-0.27,139.84,-4.19,3.51,6.52,270.39,0.015,0.1407,12.963,270.39,-3.064,0.43,0.26,1.331,-0.015,-0.064,0,0,0,270.4,0,0,0,0,0,0,0,0,0,0,0,0,0,1,1,101.29,FLYING
101.45,APPROACH,ILS_TRACK,76.22,76,-0.22,139.01,-4.19,3.52,6.53,270.39,0.015,0.1425,12.917,270.38,-3.062,0.42,0.25,1.315,-0.015,-0.062,0,0,0,270.4,0,0,0,0,0,0,0,0,0,0,0,0,0,1,1,101.49,FLYING
101.65,APPROACH,ILS_TRACK,76.18,76,-0.18,138.17,-4.19,3.52,6.54,270.39,0.015,0.1443,12.88,270.38,-3.061,0.42,0.25,1.299,-0.015,-0.061,0,0,0,270.4,0,0,0,0,0,0,0,0,0,0,0,0,0,1,1,101.69,FLYING
101.85,APPROACH,ILS_TRACK,76.14,76,-0.14,137.33,-4.19,3.53,6.54,270.39,0.015,0.1463,12.851,270.39,-3.06,0.42,0.25,1.283,-0.015,-0.06,0,0,0,270.4,0,0,0,0,0,0,0,0,0,0,0,0,0,1,1,101.89,FLYING
