t_s,phase,subphase,ias_ms,vapp_ms,spd_err_ms,agl_m,vs_ms,pitch_deg,aoa_deg,hdg_deg,bank_deg,thr_cmd,thr_intg,aa_hdg_cmd_deg,aa_fpa_cmd_deg,ils_loc_m,ils_gs_m,ils_dist_km,loc_corr_deg,gs_corr_deg,flare_fpa_cmd,flare_tgt_vs,flare_frac,steer_hdg_deg,steer_blend,ro_loc_corr_deg,ro_hdg_err_deg,ro_yaw_tgt,ro_yaw_scale,ro_yaw_gate,yaw_cmd,roll_cmd,pitch_cmd,ro_pitch_tgt_deg,ro_pitch_err_deg,ro_pitch_ff,ro_roll_assist,flaps_cur,flaps_tgt,phase_el_s,status
0.26,APPROACH,FLY_TO_FIX,206.48,160.16,-46.32,2353.47,-64.17,-26.74,-10.88,269.02,-1.567,0.04,-4.627,33.69,-4.293,0,0,0,0,0,0,0,0,269.07,0,0,0,0,0,0,0,0,0,0,0,0,0,0,3,0.3,FLYING
0.54,APPROACH,ILS_TRACK,207.07,160.58,-46.49,2334.64,-69.86,-26.75,-9.63,269.11,-1.148,0,-16.704,116.9,-6,0,0,0,0,0,0,0,0,269.07,0,0,0,0,0,0,0,0,0,0,0,0,0,1,3,0.56,FLYING
0.8,APPROACH,ILS_TRACK,207.7,161.02,-46.67,2316.31,-74.52,-24.81,-6.67,269.25,-0.758,0,-20,249.57,0,22.33,-130.95,45.497,-20.834,413.441,0,0,0,269.07,0,0,0,0,0,0,0,0,0,0,0,0,0,1,3,0.84,FLYING
1.06,APPROACH,ILS_TRACK,208.47,161.44,-47.03,2295.98,-78.19,-20.63,-1.71,269.34,-0.409,0,-20,270.64,0,21.21,-147.85,45.435,0.235,96.346,0,0,0,269.07,0,0,0,0,0,0,0,0,0,0,0,0,0,2,3,1.1,FLYING
1.36,APPROACH,ILS_TRACK,209.53,161.92,-47.61,2275.39,-79.86,-14.85,4.39,269.39,-0.363,0,-20,270.53,0,20.08,-165.15,45.373,0.132,95.661,0,0,0,269.07,0,0,0,0,0,0,0,0,0,0,0,0,0,2,3,1.4,FLYING
1.62,APPROACH,ILS_TRACK,210.24,162.34,-47.9,2254.87,-78.92,-8.63,10.47,269.5,-0.723,0,-20,270.74,0,18.94,-182.44,45.311,0.338,107.953,0,0,0,269.07,0,0,0,0,0,0,0,0,0,0,0,0,0,3,3,1.66,FLYING
1.88,APPROACH,ILS_TRACK,210.21,162.75,-47.46,2237.22,-76.13,-5.37,13.31,269.64,-1.137,0,-20,270.61,0,17.98,-197.26,45.258,0.206,104.78,0,0,0,269.07,0,0,0,0,0,0,0,0,0,0,0,0,0,3,2,1.92,FLYING
2.14,APPROACH,ILS_TRACK,209.45,163.17,-46.28,2218.02,-72.88,-4.94,13.19,269.72,-1.386,0,-20,270.71,0,16.96,-213.42,45.2,0.308,113.752,0,0,0,269.07,0,0,0,0,0,0,0,0,0,0,0,0,0,3,3,2.18,FLYING
2.44,APPROACH,ILS_TRACK,208.9,163.65,-45.26,2196.26,-70.36,-6.08,11.47,269.77,-1.553,0,-20,270.73,0,15.8,-231.88,45.133,0.33,118.778,0,0,0,269.07,0,0,0,0,0,0,0,0,0,0,0,0,0,3,3,2.48,FLYING
2.7,APPROACH,ILS_TRACK,208.63,164.06,-44.56,2177.95,-68.87,-6.87,10.29,269.78,-1.603,0,-20,270.72,0,14.86,-247.36,45.075,0.316,121.84,0,0,0,269.07,0,0,0,0,0,0,0,0,0,0,0,0,0,3,3,2.74,FLYING
2.96,APPROACH,ILS_TRACK,208.39,164.48,-43.91,2160.18,-67.63,-7.02,9.81,269.8,-1.631,0,-20,270.74,0,13.92,-262.3,45.017,0.339,124.67,0,0,0,269.07,0,0,0,0,0,0,0,0,0,0,0,0,0,3,3,3,FLYING
3.22,APPROACH,ILS_TRACK,208.12,164.9,-43.22,2142.92,-66.35,-6.49,10,269.84,-1.666,0,-20,270.74,0,13.02,-276.73,44.959,0.344,127.398,0,0,0,269.07,0,0,0,0,0,0,0,0,0,0,0,0,0,3,3,3.26,FLYING
3.52,APPROACH,ILS_TRACK,207.69,165.38,-42.31,2123.64,-64.56,-5.31,10.75,269.9,-1.703,0,-20,270.76,0,12.02,-292.74,44.893,0.355,130.528,0,0,0,269.07,0,0,0,0,0,0,0,0,0,0,0,0,0,3,3,3.56,FLYING
3.78,APPROACH,ILS_TRACK,207.16,165.79,-41.36,2107.44,-62.56,-4.19,11.44,269.96,-1.729,0,-20,270.76,0,11.18,-306.08,44.835,0.363,132.864,0,0,0,269.07,0,0,0,0,0,0,0,0,0,0,0,0,0,3,3,3.82,FLYING
4.05,APPROACH,ILS_TRACK,206.49,166,-40.49,2091.13,-60.42,-3.5,11.66,270.01,-1.748,0,-20,270.75,0,10.38,-319.18,44.777,0.353,135.841,0,0,0,269.07,0,0,0,0,0,0,0,0,0,0,0,0,0,3,3,4.09,FLYING
4.34,APPROACH,ILS_TRACK,205.67,166,-39.67,2074.3,-58.05,-2.96,11.69,270.05,-1.741,0,-20,270.76,0,9.56,-332.56,44.715,0.361,138.572,0,0,0,269.07,0,0,0,0,0,0,0,0,0,0,0,0,0,3,3,4.38,FLYING
4.69,APPROACH,ILS_TRACK,204.55,166,-38.55,2054.35,-55.36,-2.45,11.58,270.09,-1.735,0,-20,270.76,0,8.6,-348.34,44.638,0.358,141.495,0,0,0,269.07,0,0,0,0,0,0,0,0,0,0,0,0,0,3,3,4.74,FLYING
5.02,APPROACH,ILS_TRACK,203.41,166,-37.41,2037.03,-52.75,-1.8,11.67,270.13,-1.726,0,-20,270.74,0,7.77,-362.07,44.568,0.342,143.257,0,0,0,269.07,0,0,0,0,0,0,0,0,0,0,0,0,0,3,3,5.07,FLYING
5.34,APPROACH,ILS_TRACK,202.18,166,-36.18,2020.43,-50.28,-1.44,11.46,270.16,-1.723,0.0199,-20,270.72,0,6.98,-375.24,44.496,0.324,144.999,0,0,0,269.07,0,0,0,0,0,0,0,0,0,0,0,0,0,3,3,5.39,FLYING
5.72,APPROACH,ILS_TRACK,200.67,166,-34.67,2002.36,-47.56,-0.6,11.66,270.21,-1.688,0.0928,-20,270.71,0,6.15,-389.42,44.415,0.307,147.067,0,0,0,269.07,0,0,0,0,0,0,0,0,0,0,0,0,0,3,3,5.77,FLYING
6.04,APPROACH,ILS_TRACK,199.34,166,-33.34,1987.49,-45.03,-0.13,11.59,270.24,-1.65,0.1564,-20,270.69,0,5.5,-400.84,44.344,0.286,148.377,0,0,0,269.07,0,0,0,0,0,0,0,0,0,0,0,0,0,3,3,6.09,FLYING
6.37,APPROACH,ILS_TRACK,198.02,166,-32.02,1973.38,-42.83,0.34,11.52,270.27,-1.607,0.2051,-20,270.68,0,4.88,-411.58,44.274,0.276,149.913,0,0,0,269.07,0,0,0,0,0,0,0,0,0,0,0,0,0,3,3,6.42,FLYING
6.74,APPROACH,ILS_TRACK,196.52,166,-30.52,1958.07,-40.16,1.11,11.7,270.3,-1.536,0.2427,-20,270.66,0,4.25,-422.99,44.193,0.256,151.234,0,0,0,269.07,0,0,0,0,0,0,0,0,0,0,0,0,0,3,3,6.79,FLYING
7.07,APPROACH,ILS_TRACK,195.27,166,-29.27,1945.49,-38.04,1.44,11.51,270.32,-1.486,0.2638,-20,270.64,0,3.74,-432.19,44.124,0.242,152.304,0,0,0,269.07,0,0,0,0,0,0,0,0,0,0,0,0,0,3,3,7.12,FLYING
7.39,APPROACH,ILS_TRACK,194.06,166,-28.06,1933.67,-36.02,2.13,11.71,270.35,-1.416,0.2753,-20,270.62,0,3.28,-440.68,44.055,0.22,153.091,0,0,0,269.07,0,0,0,0,0,0,0,0,0,0,0,0,0,3,3,7.44,FLYING
7.77,APPROACH,ILS_TRACK,192.73,166,-26.73,1920.79,-33.58,2.52,11.54,270.37,-1.346,0.2763,-20,270.61,0,2.8,-449.65,43.975,0.205,154.046,0,0,0,269.07,0,0,0,0,0,0,0,0,0,0,0,0,0,3,3,7.82,FLYING
8.09,APPROACH,ILS_TRACK,191.63,166,-25.63,1910.35,-31.75,3.03,11.56,270.39,-1.285,0.2676,-20,270.58,0,2.44,-456.78,43.907,0.184,154.578,0,0,0,269.07,0,0,0,0,0,0,0,0,0,0,0,0,0,3,3,8.14,FLYING
8.42,APPROACH,ILS_TRACK,190.56,166,-24.56,1900.58,-29.8,3.77,11.83,270.41,-1.224,0.2567,-20,270.57,0,2.11,-463.22,43.839,0.17,154.812,0,0,0,269.07,0,0,0,0,0,0,0,0,0,0,0,0,0,3,3,8.47,FLYING
8.79,APPROACH,ILS_TRACK,189.35,166,-23.35,1890.04,-27.51,4.34,11.84,270.43,-1.152,0.2441,-20,270.56,0,1.77,-469.91,43.76,0.156,155.259,0,0,0,269.07,0,0,0,0,0,0,0,0,0,0,0,0,0,3,3,8.84,FLYING
9.12,APPROACH,ILS_TRACK,188.33,166,-22.33,1881.54,-25.68,4.76,11.8,270.44,-1.079,0.2304,-20,270.53,0,1.53,-475.11,43.693,0.126,155.321,0,0,0,269.07,0,0,0,0,0,0,0,0,0,0,0,0,0,3,3,9.17,FLYING
9.44,APPROACH,ILS_TRACK,187.33,166,-21.33,1873.63,-23.9,5.22,11.81,270.45,-0.996,0.2152,-20,270.51,0,1.31,-479.72,43.626,0.113,155.261,0,0,0,269.07,0,0,0,0,0,0,0,0,0,0,0,0,0,3,3,9.49,FLYING
9.82,APPROACH,ILS_TRACK,186.21,166,-20.21,1865.16,-21.86,5.45,11.51,270.45,-0.916,0.1997,-20,270.5,0,1.09,-484.36,43.548,0.103,155.222,0,0,0,269.07,0,0,0,0,0,0,0,0,0,0,0,0,0,3,3,9.87,FLYING
10.14,APPROACH,ILS_TRACK,185.26,166,-19.26,1858.46,-20.39,5.95,11.59,270.46,-0.848,0.1823,-20,270.5,0,0.92,-487.82,43.482,0.097,154.852,0,0,0,269.07,0,0,0,0,0,0,0,0,0,0,0,0,0,3,3,10.19,FLYING
10.47,APPROACH,ILS_TRACK,184.32,166,-18.32,1852.23,-18.68,6.25,11.48,270.46,-0.779,0.1685,-20,270.47,0,0.79,-490.73,43.415,0.068,154.374,0,0,0,269.07,0,0,0,0,0,0,0,0,0,0,0,0,0,3,3,10.52,FLYING
10.84,APPROACH,ILS_TRACK,183.25,166,-17.25,1845.67,-17.04,6.65,11.42,270.46,-0.692,0.154,-20,270.46,0,0.66,-493.53,43.339,0.06,154.043,0,0,0,269.07,0,0,0,0,0,0,0,0,0,0,0,0,0,3,3,10.89,FLYING
11.17,APPROACH,ILS_TRACK,182.31,166,-16.31,1840.57,-15.53,7.28,11.66,270.47,-0.624,0.1446,-20,270.45,0,0.56,-495.38,43.273,0.053,153.174,0,0,0,269.07,0,0,0,0,0,0,0,0,0,0,0,0,0,3,3,11.22,FLYING
11.49,APPROACH,ILS_TRACK,181.34,166,-15.34,1835.93,-14.08,7.79,11.77,270.47,-0.562,0.1408,-20,270.44,0,0.48,-496.78,43.208,0.04,152.472,0,0,0,269.07,0,0,0,0,0,0,0,0,0,0,0,0,0,3,3,11.54,FLYING
11.87,APPROACH,ILS_TRACK,180.2,166,-14.2,1831.08,-12.33,8.03,11.56,270.47,-0.485,0.1417,-20,270.43,0,0.42,-497.86,43.133,0.026,151.655,0,0,0,269.07,0,0,0,0,0,0,0,0,0,0,0,0,0,3,3,11.92,FLYING
12.19,APPROACH,ILS_TRACK,179.21,166,-13.21,1827.38,-11.09,8.33,11.5,270.46,-0.413,0.1418,-20,270.42,0,0.37,-498.35,43.068,0.023,150.731,0,0,0,269.07,0,0,0,0,0,0,0,0,0,0,0,0,0,3,3,12.24,FLYING
12.52,APPROACH,ILS_TRACK,178.21,166,-12.21,1824.14,-9.68,8.78,11.6,270.46,-0.345,0.1438,-20,270.41,0,0.34,-498.37,43.004,0.012,149.558,0,0,0,269.07,0,0,0,0,0,0,0,0,0,0,0,0,0,3,3,12.57,FLYING
12.89,APPROACH,ILS_TRACK,177.08,166,-11.08,1820.74,-8.29,8.57,11.01,270.44,-0.262,0.1449,-20,270.4,0,0.31,-498.03,42.93,0.004,148.667,0,0,0,269.07,0,0,0,0,0,0,0,0,0,0,0,0,0,3,3,12.94,FLYING
13.22,APPROACH,ILS_TRACK,176.14,166,-10.14,1818.21,-7.4,8.58,10.73,270.43,-0.193,0.1379,-20,270.4,0,0.3,-497.37,42.866,-0.003,147.597,0,0,0,269.07,0,0,0,0,0,0,0,0,0,0,0,0,0,3,3,13.27,FLYING
13.54,APPROACH,ILS_TRACK,175.21,166,-9.21,1816.03,-6.35,8.77,10.68,270.42,-0.125,0.1304,-20,270.4,0,0.28,-496.33,42.802,0.001,146.325,0,0,0,269.07,0,0,0,0,0,0,0,0,0,0,0,0,0,3,3,13.59,FLYING
13.92,APPROACH,ILS_TRACK,174.18,166,-8.18,1813.75,-5.54,8.51,10.16,270.42,-0.079,0.1192,-20,270.39,0,0.28,-494.9,42.73,-0.011,145.424,0,0,0,269.07,0,0,0,0,0,0,0,0,0,0,0,0,0,3,3,13.97,FLYING
14.24,APPROACH,ILS_TRACK,173.31,166,-7.31,1812.09,-4.84,8.61,10.06,270.41,-0.028,0.1092,-20,270.4,0,0.27,-493.36,42.667,-0.004,144.216,0,0,0,269.07,0,0,0,0,0,0,0,0,0,0,0,0,0,3,3,14.29,FLYING
14.57,APPROACH,ILS_TRACK,172.47,166,-6.47,1810.61,-4.3,8.58,9.87,270.4,-0.003,0.1374,-20,270.38,0,0.28,-491.64,42.604,-0.016,143.275,0,0,0,269.07,0,0,0,0,0,0,0,0,0,0,0,0,0,3,3,14.62,FLYING
14.94,APPROACH,ILS_TRACK,171.5,166,-5.5,1809.13,-3.69,8.64,9.76,270.4,0.034,0.1735,-20,270.4,0,0.27,-489.43,42.532,-0.004,142.1,0,0,0,269.07,0,0,0,0,0,0,0,0,0,0,0,0,0,3,3,14.99,FLYING
15.27,APPROACH,ILS_TRACK,170.69,166,-4.69,1808.02,-3.24,8.66,9.65,270.39,0.033,0.2018,-20,270.39,0,0.26,-487.36,42.471,-0.007,141.112,0,0,0,269.07,0,0,0,0,0,0,0,0,0,0,0,0,0,3,3,15.32,FLYING
15.59,APPROACH,ILS_TRACK,169.89,166,-3.89,1807.03,-2.85,8.67,9.54,270.39,0.035,0.2279,-20,270.39,0,0.27,-485.16,42.409,-0.012,140.142,0,0,0,269.07,0,0,0,0,0,0,0,0,0,0,0,0,0,3,3,15.64,FLYING
15.97,APPROACH,ILS_TRACK,169.01,166,-3.01,1806.05,-2.48,8.71,9.46,270.39,0.042,0.2563,-20,270.4,0,0.25,-482.49,42.338,-0.003,139.038,0,0,0,269.07,0,0,0,0,0,0,0,0,0,0,0,0,0,3,3,16.02,FLYING
16.29,APPROACH,ILS_TRACK,168.29,166,-2.29,1805.31,-2.17,8.72,9.39,270.39,0.029,0.2748,-20,270.4,0,0.24,-480.06,42.277,0.002,138.047,0,0,0,269.07,0,0,0,0,0,0,0,0,0,0,0,0,0,3,3,16.34,FLYING
16.62,APPROACH,ILS_TRACK,167.6,166,-1.6,1804.66,-1.9,8.76,9.35,270.39,0.015,0.2895,-20,270.39,0,0.24,-477.55,42.216,-0.008,137.098,0,0,0,269.07,0,0,0,0,0,0,0,0,0,0,0,0,0,3,3,16.67,FLYING
16.99,APPROACH,ILS_TRACK,166.85,166,-0.85,1804,-1.6,8.81,9.31,270.39,0.013,0.3052,-20,270.4,0,0.23,-474.57,42.146,-0.001,136.008,0,0,0,269.07,0,0,0,0,0,0,0,0,0,0,0,0,0,3,3,17.04,FLYING
17.32,APPROACH,ILS_TRACK,166.25,166,-0.25,1803.49,-1.5,8.73,9.18,270.39,0.008,0.3111,-20,270.4,0,0.22,-471.95,42.086,-0.005,135.138,0,0,0,269.07,0,0,0,0,0,0,0,0,0,0,0,0,0,3,3,17.37,FLYING
17.64,APPROACH,ILS_TRACK,165.68,166,0.32,1803.03,-1.31,8.7,9.1,270.4,0.005,0.3145,-19.924,270.4,0,0.2,-469.26,42.026,0.004,134.161,0,0,0,269.07,0,0,0,0,0,0,0,0,0,0,0,0,0,3,3,17.69,FLYING
18.02,APPROACH,ILS_TRACK,165.09,166,0.91,1802.57,-1.15,8.72,9.09,270.4,-0.006,0.3197,-19.612,270.4,0,0.2,-466.12,41.956,-0.003,133.119,0,0,0,269.07,0,0,0,0,0,0,0,0,0,0,0,0,0,3,3,18.07,FLYING
18.34,APPROACH,ILS_TRACK,164.62,166,1.38,1802.22,-1.08,8.78,9.12,270.4,-0.008,0.3192,-19.186,270.4,0,0.19,-463.36,41.897,0.002,132.216,0,0,0,269.07,0,0,0,0,0,0,0,0,0,0,0,0,0,3,3,18.39,FLYING
18.67,APPROACH,ILS_TRACK,164.18,166,1.82,1801.89,-0.99,8.8,9.11,270.4,-0.01,0.3198,-18.617,270.4,0,0.18,-460.57,41.837,-0.004,131.302,0,0,0,269.07,0,0,0,0,0,0,0,0,0,0,0,0,0,3,3,18.72,FLYING
19.04,APPROACH,ILS_TRACK,163.72,166,2.28,1801.55,-0.9,8.83,9.11,270.4,-0.01,0.3252,-17.782,270.4,0,0.17,-457.32,41.768,0.001,130.271,0,0,0,269.07,0,0,0,0,0,0,0,0,0,0,0,0,0,3,3,19.09,FLYING
19.37,APPROACH,ILS_TRACK,163.34,166,2.66,1801.28,-0.82,8.86,9.12,270.4,-0.012,0.3266,-16.937,270.4,0,0.16,-454.49,41.709,0,129.369,0,0,0,269.07,0,0,0,0,0,0,0,0,0,0,0,0,0,3,3,19.42,FLYING
19.69,APPROACH,ILS_TRACK,163,166,3,1801.03,-0.76,8.9,9.14,270.4,-0.013,0.3292,-15.978,270.4,0,0.15,-451.64,41.65,0.004,128.48,0,0,0,269.07,0,0,0,0,0,0,0,0,0,0,0,0,0,3,3,19.74,FLYING
20.07,APPROACH,ILS_TRACK,162.63,166,3.37,1800.77,-0.67,8.93,9.15,270.4,-0.014,0.3373,-14.733,270.4,0,0.14,-448.33,41.581,0.003,127.45,0,0,0,269.07,0,0,0,0,0,0,0,0,0,0,0,0,0,3,3,20.12,FLYING
20.39,APPROACH,ILS_TRACK,162.34,166,3.66,1800.56,-0.65,8.95,9.15,270.4,-0.015,0.3419,-13.558,270.4,0,0.12,-445.46,41.522,0.004,126.564,0,0,0,269.07,0,0,0,0,0,0,0,0,0,0,0,0,0,3,3,20.44,FLYING
20.72,APPROACH,ILS_TRACK,162.08,166,3.92,1800.36,-0.6,8.97,9.16,270.4,-0.017,0.3474,-12.296,270.4,0,0.12,-442.57,41.463,-0.003,125.657,0,0,0,269.07,0,0,0,0,0,0,0,0,0,0,0,0,0,3,3,20.77,FLYING
21.09,APPROACH,ILS_TRACK,161.8,166,4.2,1800.16,-0.54,9.01,9.18,270.4,-0.017,0.3574,-10.734,270.4,0,0.11,-439.22,41.396,0.001,124.625,0,0,0,269.07,0,0,0,0,0,0,0,0,0,0,0,0,0,3,3,21.14,FLYING
21.42,APPROACH,ILS_TRACK,161.59,166,4.41,1799.99,-0.5,9.03,9.2,270.4,-0.017,0.3632,-9.309,270.4,0,0.11,-436.32,41.337,0.001,123.74,0,0,0,269.07,0,0,0,0,0,0,0,0,0,0,0,0,0,3,3,21.47,FLYING
21.74,APPROACH,ILS_TRACK,161.4,166,4.6,1799.84,-0.47,9.05,9.19,270.4,-0.017,0.3695,-7.822,270.41,0,0.09,-433.4,41.278,0.007,122.835,0,0,0,269.07,0,0,0,0,0,0,0,0,0,0,0,0,0,3,3,21.79,FLYING
22.12,APPROACH,ILS_TRACK,161.21,166,4.79,1799.67,-0.42,9.06,9.2,270.4,-0.018,0.3793,-6.033,270.4,0,0.08,-430.02,41.21,0.002,121.802,0,0,0,269.07,0,0,0,0,0,0,0,0,0,0,0,0,0,3,3,22.17,FLYING
22.44,APPROACH,ILS_TRACK,161.07,166,4.93,1799.54,-0.4,9.07,9.2,270.4,-0.017,0.3844,-4.438,270.4,0,0.08,-427.09,41.152,0.003,120.902,0,0,0,269.07,0,0,0,0,0,0,0,0,0,0,0,0,0,3,3,22.49,FLYING
22.77,APPROACH,ILS_TRACK,160.96,166,5.04,1799.42,-0.36,9.08,9.19,270.4,-0.018,0.389,-2.805,270.4,0,0.07,-424.14,41.093,0.003,119.999,0,0,0,269.07,0,0,0,0,0,0,0,0,0,0,0,0,0,3,3,22.82,FLYING
23.14,APPROACH,ILS_TRACK,160.86,166,5.14,1799.3,-0.32,9.08,9.19,270.4,-0.017,0.3964,-0.882,270.4,0,0.07,-420.74,41.026,-0.001,118.956,0,0,0,269.07,0,0,0,0,0,0,0,0,0,0,0,0,0,3,3,23.19,FLYING
23.47,APPROACH,ILS_TRACK,160.8,166,5.2,1799.2,-0.3,9.08,9.18,270.4,-0.018,0.3991,0.804,270.4,0,0.06,-417.78,40.967,0.004,118.05,0,0,0,269.07,0,0,0,0,0,0,0,0,0,0,0,0,0,3,3,23.52,FLYING
23.79,APPROACH,ILS_TRACK,160.77,166,5.23,1799.1,-0.27,9.08,9.17,270.4,-0.018,0.4009,2.502,270.4,0,0.05,-414.81,40.909,0.002,117.139,0,0,0,269.07,0,0,0,0,0,0,0,0,0,0,0,0,0,3,3,23.84,FLYING
24.17,APPROACH,ILS_TRACK,160.76,166,5.24,1799.01,-0.24,9.07,9.15,270.4,-0.017,0.4048,4.466,270.4,0,0.04,-411.38,40.842,0.004,116.089,0,0,0,269.07,0,0,0,0,0,0,0,0,0,0,0,0,0,3,3,24.22,FLYING
24.49,APPROACH,ILS_TRACK,160.78,166,5.22,1798.93,-0.21,9.06,9.13,270.4,-0.017,0.4044,6.163,270.41,0,0.04,-408.39,40.783,0.006,115.173,0,0,0,269.07,0,0,0,0,0,0,0,0,0,0,0,0,0,3,3,24.54,FLYING
24.82,APPROACH,ILS_TRACK,160.82,166,5.18,1798.86,-0.19,9.05,9.11,270.4,-0.015,0.4033,7.849,270.4,0,0.03,-405.4,40.725,0.001,114.255,0,0,0,269.07,0,0,0,0,0,0,0,0,0,0,0,0,0,3,3,24.87,FLYING
25.19,APPROACH,ILS_TRACK,160.89,166,5.11,1798.79,-0.16,9.04,9.09,270.4,-0.015,0.4038,9.768,270.41,0,0.02,-401.94,40.657,0.007,113.193,0,0,0,269.07,0,0,0,0,0,0,0,0,0,0,0,0,0,3,3,25.24,FLYING
25.52,APPROACH,ILS_TRACK,160.98,166,5.02,1798.74,-0.14,9.02,9.06,270.4,-0.015,0.4008,11.405,270.4,0,0.02,-398.93,40.599,-0.002,112.268,0,0,0,269.07,0,0,0,0,0,0,0,0,0,0,0,0,0,3,3,25.57,FLYING
25.84,APPROACH,ILS_TRACK,161.08,166,4.92,1798.69,-0.11,9,9.04,270.4,-0.016,0.3973,13.009,270.41,0,0.01,-395.91,40.54,0.008,111.34,0,0,0,269.07,0,0,0,0,0,0,0,0,0,0,0,0,0,3,3,25.89,FLYING
26.22,APPROACH,ILS_TRACK,161.22,166,4.78,1798.65,-0.09,8.98,9.01,270.4,-0.015,0.3951,14.809,270.4,0,0.01,-392.41,40.473,-0.003,110.268,0,0,0,269.07,0,0,0,0,0,0,0,0,0,0,0,0,0,3,3,26.27,FLYING
26.54,APPROACH,ILS_TRACK,161.36,166,4.64,1798.62,-0.07,8.96,8.98,270.4,-0.016,0.3905,16.326,270.41,0,0,-389.37,40.414,0.009,109.332,0,0,0,269.07,0,0,0,0,0,0,0,0,0,0,0,0,0,3,3,26.59,FLYING
26.87,APPROACH,ILS_TRACK,161.5,166,4.5,1798.59,-0.04,8.93,8.95,270.4,-0.016,0.3857,17.795,270.4,0,0,-386.33,40.355,0.003,108.394,0,0,0,269.07,0,0,0,0,0,0,0,0,0,0,0,0,0,3,3,26.92,FLYING
27.24,APPROACH,ILS_TRACK,161.69,166,4.31,1798.57,-0.02,8.91,8.91,270.4,-0.015,0.3821,19.42,270.4,0,-0.01,-382.8,40.287,0.003,107.31,0,0,0,269.07,0,0,0,0,0,0,0,0,0,0,0,0,0,3,3,27.29,FLYING
27.57,APPROACH,ILS_TRACK,161.86,166,4.14,1798.57,0,8.88,8.88,270.4,-0.014,0.3677,20,270.4,0,-0.01,-379.73,40.229,0.001,106.364,0,0,0,269.07,0,0,0,0,0,0,0,0,0,0,0,0,0,3,3,27.62,FLYING
27.89,APPROACH,ILS_TRACK,162.04,166,3.96,1798.56,0.02,8.86,8.86,270.4,-0.013,0.3473,20,270.4,0,-0.01,-376.65,40.17,0.004,105.415,0,0,0,269.07,0,0,0,0,0,0,0,0,0,0,0,0,0,3,3,27.94,FLYING
28.27,APPROACH,ILS_TRACK,162.26,166,3.74,1798.57,0.04,8.84,8.82,270.4,-0.013,0.3269,20,270.4,0,-0.02,-373.08,40.102,0.005,104.319,0,0,0,269.07,0,0,0,0,0,0,0,0,0,0,0,0,0,3,3,28.32,FLYING
28.59,APPROACH,ILS_TRACK,162.44,166,3.56,1798.58,0.06,8.82,8.8,270.4,-0.013,0.3104,20,270.4,0,-0.02,-369.98,40.043,0.003,103.362,0,0,0,269.07,0,0,0,0,0,0,0,0,0,0,0,0,0,3,3,28.64,FLYING
28.92,APPROACH,ILS_TRACK,162.6,166,3.4,1798.6,0.08,8.81,8.78,270.4,-0.012,0.2975,20,270.4,0,-0.02,-366.87,39.984,-0.002,102.403,0,0,0,269.07,0,0,0,0,0,0,0,0,0,0,0,0,0,3,3,28.97,FLYING
29.29,APPROACH,ILS_TRACK,162.78,166,3.22,1798.63,0.1,8.8,8.77,270.4,-0.012,0.2881,20,270.41,0,-0.03,-363.27,39.916,0.007,101.297,0,0,0,269.07,0,0,0,0,0,0,0,0,0,0,0,0,0,3,3,29.34,FLYING
29.62,APPROACH,ILS_TRACK,162.9,166,3.1,1798.66,0.12,8.79,8.76,270.4,-0.013,0.2846,20,270.4,0,-0.03,-360.14,39.856,0.001,100.335,0,0,0,269.07,0,0,0,0,0,0,0,0,0,0,0,0,0,3,3,29.67,FLYING
29.94,APPROACH,ILS_TRACK,163,166,3,1798.7,0.13,8.79,8.75,270.4,-0.013,0.2851,20,270.4,0,-0.02,-357,39.797,-0.001,99.372,0,0,0,269.07,0,0,0,0,0,0,0,0,0,0,0,0,0,3,3,29.99,FLYING
30.32,APPROACH,ILS_TRACK,163.1,166,2.9,1798.75,0.15,8.79,8.74,270.4,-0.012,0.2886,20,270.41,0,-0.03,-353.37,39.729,0.007,98.263,0,0,0,269.07,0,0,0,0,0,0,0,0,0,0,0,0,0,3,3,30.37,FLYING
30.64,APPROACH,ILS_TRACK,163.16,166,2.84,1798.81,0.16,8.79,8.74,270.4,-0.012,0.2955,20,270.41,0,-0.04,-350.21,39.67,0.006,97.299,0,0,0,269.07,0,0,0,0,0,0,0,0,0,0,0,0,0,3,3,30.69,FLYING
30.97,APPROACH,ILS_TRACK,163.2,166,2.8,1798.86,0.18,8.79,8.74,270.4,-0.013,0.3037,20,270.4,0,-0.03,-347.05,39.61,-0.001,96.336,0,0,0,269.07,0,0,0,0,0,0,0,0,0,0,0,0,0,3,3,31.02,FLYING
31.34,APPROACH,ILS_TRACK,163.24,166,2.76,1798.93,0.2,8.79,8.73,270.4,-0.011,0.312,20,270.4,0,-0.04,-343.4,39.542,0.003,95.225,0,0,0,269.07,0,0,0,0,0,0,0,0,0,0,0,0,0,3,3,31.39,FLYING
31.67,APPROACH,ILS_TRACK,163.26,166,2.74,1799,0.21,8.79,8.73,270.4,-0.011,0.3201,20,270.4,0,-0.04,-340.23,39.483,0,94.262,0,0,0,269.07,0,0,0,0,0,0,0,0,0,0,0,0,0,3,3,31.72,FLYING
31.99,APPROACH,ILS_TRACK,163.28,166,2.72,1799.07,0.22,8.79,8.72,270.4,-0.009,0.3267,20,270.41,0,-0.04,-337.05,39.423,0.007,93.296,0,0,0,269.07,0,0,0,0,0,0,0,0,0,0,0,0,0,3,3,32.04,FLYING
32.37,APPROACH,ILS_TRACK,163.31,166,2.69,1799.15,0.24,8.79,8.71,270.4,-0.01,0.3315,20,270.4,0,-0.04,-333.38,39.355,0.001,92.183,0,0,0,269.07,0,0,0,0,0,0,0,0,0,0,0,0,0,3,3,32.42,FLYING
32.69,APPROACH,ILS_TRACK,163.34,166,2.66,1799.23,0.25,8.79,8.71,270.4,-0.009,0.3346,20,270.4,0,-0.04,-330.19,39.296,0.003,91.216,0,0,0,269.07,0,0,0,0,0,0,0,0,0,0,0,0,0,3,3,32.74,FLYING
33.02,APPROACH,ILS_TRACK,163.37,166,2.63,1799.32,0.27,8.78,8.7,270.4,-0.01,0.3361,20,270.4,0,-0.05,-327,39.236,0.005,90.247,0,0,0,269.07,0,0,0,0,0,0,0,0,0,0,0,0,0,3,3,33.07,FLYING
33.39,APPROACH,ILS_TRACK,163.41,166,2.59,1799.42,0.28,8.77,8.69,270.41,-0.009,0.3357,20,270.4,0,-0.05,-323.32,39.168,0.005,89.129,0,0,0,269.07,0,0,0,0,0,0,0,0,0,0,0,0,0,3,3,33.44,FLYING
33.72,APPROACH,ILS_TRACK,163.45,166,2.55,1799.51,0.29,8.77,8.68,270.41,-0.011,0.3343,20,270.4,0,-0.05,-320.12,39.108,0.003,88.158,0,0,0,269.07,0,0,0,0,0,0,0,0,0,0,0,0,0,3,3,33.77,FLYING
34.04,APPROACH,ILS_TRACK,163.5,166,2.5,1799.6,0.3,8.76,8.67,270.41,-0.01,0.3318,20,270.4,0,-0.05,-316.91,39.049,0.002,87.185,0,0,0,269.07,0,0,0,0,0,0,0,0,0,0,0,0,0,3,3,34.09,FLYING
34.42,APPROACH,ILS_TRACK,163.56,166,2.44,1799.71,0.32,8.75,8.65,270.41,-0.011,0.3282,20,270.4,0,-0.05,-313.21,38.981,0.002,86.063,0,0,0,269.07,0,0,0,0,0,0,0,0,0,0,0,0,0,3,3,34.47,FLYING
34.74,APPROACH,ILS_TRACK,163.61,166,2.39,1799.81,0.32,8.74,8.64,270.41,-0.01,0.3245,20,270.4,0,-0.05,-309.99,38.921,0.003,85.088,0,0,0,269.07,0,0,0,0,0,0,0,0,0,0,0,0,0,3,3,34.79,FLYING
35.07,APPROACH,ILS_TRACK,163.66,166,2.34,1799.92,0.33,8.74,8.63,270.41,-0.01,0.3206,20,270.4,0,-0.05,-306.78,38.862,0.003,84.111,0,0,0,269.07,0,0,0,0,0,0,0,0,0,0,0,0,0,3,3,35.12,FLYING
35.44,APPROACH,ILS_TRACK,163.73,166,2.27,1800.04,0.34,8.73,8.62,270.41,-0.011,0.3163,20,270.4,0,-0.05,-303.06,38.793,0.003,82.985,0,0,0,269.07,0,0,0,0,0,0,0,0,0,0,0,0,0,3,3,35.49,FLYING
35.77,APPROACH,ILS_TRACK,163.78,166,2.22,1800.15,0.35,8.72,8.61,270.41,-0.011,0.3129,20,270.4,0,-0.05,-299.83,38.734,0.002,82.008,0,0,0,269.07,0,0,0,0,0,0,0,0,0,0,0,0,0,3,3,35.82,FLYING
36.09,APPROACH,ILS_TRACK,163.83,166,2.17,1800.27,0.36,8.72,8.6,270.41,-0.012,0.31,20,270.4,0,-0.06,-296.6,38.674,0.004,81.028,0,0,0,269.07,0,0,0,0,0,0,0,0,0,0,0,0,0,3,3,36.14,FLYING
36.47,APPROACH,ILS_TRACK,163.89,166,2.11,1800.4,0.37,8.71,8.6,270.41,-0.012,0.3077,20,270.4,0,-0.05,-292.87,38.605,0,79.899,0,0,0,269.07,0,0,0,0,0,0,0,0,0,0,0,0,0,3,3,36.52,FLYING
36.79,APPROACH,ILS_TRACK,163.93,166,2.07,1800.52,0.37,8.71,8.59,270.41,-0.01,0.3066,20,270.4,0,-0.05,-289.63,38.546,0,78.92,0,0,0,269.07,0,0,0,0,0,0,0,0,0,0,0,0,0,3,3,36.84,FLYING
37.12,APPROACH,ILS_TRACK,163.96,166,2.04,1800.64,0.38,8.7,8.59,270.41,-0.01,0.3063,20,270.41,0,-0.06,-286.39,38.486,0.007,77.939,0,0,0,269.07,0,0,0,0,0,0,0,0,0,0,0,0,0,3,3,37.17,FLYING
37.49,APPROACH,ILS_TRACK,164,166,2,1800.78,0.39,8.7,8.58,270.41,-0.011,0.3065,20,270.4,0,-0.05,-282.65,38.418,-0.003,76.809,0,0,0,269.07,0,0,0,0,0,0,0,0,0,0,0,0,0,3,3,37.54,FLYING
37.82,APPROACH,ILS_TRACK,164.03,166,1.97,1800.91,0.39,8.7,8.58,270.41,-0.008,0.3076,20,270.41,0,-0.06,-279.4,38.358,0.009,75.83,0,0,0,269.07,0,0,0,0,0,0,0,0,0,0,0,0,0,3,3,37.87,FLYING
38.14,APPROACH,ILS_TRACK,164.05,166,1.95,1801.04,0.4,8.7,8.57,270.41,-0.006,0.309,20,270.4,0,-0.05,-276.15,38.299,-0.004,74.847,0,0,0,269.07,0,0,0,0,0,0,0,0,0,0,0,0,0,3,3,38.19,FLYING
38.52,APPROACH,ILS_TRACK,164.07,166,1.93,1801.19,0.41,8.7,8.57,270.41,-0.002,0.3105,20,270.4,0,-0.05,-272.4,38.23,0.001,73.716,0,0,0,269.07,0,0,0,0,0,0,0,0,0,0,0,0,0,3,3,38.57,FLYING
38.84,APPROACH,ILS_TRACK,164.09,166,1.91,1801.32,0.4,8.7,8.57,270.41,-0.001,0.312,20,270.4,0,-0.05,-269.15,38.17,0.003,72.736,0,0,0,269.07,0,0,0,0,0,0,0,0,0,0,0,0,0,3,3,38.89,FLYING
39.17,APPROACH,ILS_TRACK,164.11,166,1.89,1801.45,0.41,8.69,8.56,270.41,-0.001,0.3133,20,270.4,0,-0.05,-265.89,38.111,0.002,71.754,0,0,0,269.07,0,0,0,0,0,0,0,0,0,0,0,0,0,3,3,39.22,FLYING
39.54,APPROACH,ILS_TRACK,164.13,166,1.87,1801.6,0.42,8.69,8.56,270.41,-0.002,0.3141,20,270.41,0,-0.06,-262.13,38.042,0.007,70.622,0,0,0,269.07,0,0,0,0,0,0,0,0,0,0,0,0,0,3,3,39.59,FLYING
39.87,APPROACH,ILS_TRACK,164.14,166,1.86,1801.74,0.42,8.69,8.56,270.41,-0.003,0.3147,20,270.4,0,-0.05,-258.87,37.982,-0.002,69.642,0,0,0,269.07,0,0,0,0,0,0,0,0,0,0,0,0,0,3,3,39.92,FLYING
40.19,APPROACH,ILS_TRACK,164.16,166,1.84,1801.87,0.42,8.69,8.55,270.41,-0.004,0.3149,20,270.4,0,-0.05,-255.61,37.923,-0.001,68.658,0,0,0,269.07,0,0,0,0,0,0,0,0,0,0,0,0,0,3,3,40.24,FLYING
40.57,APPROACH,ILS_TRACK,164.18,166,1.82,1802.03,0.43,8.68,8.55,270.41,-0.002,0.3147,20,270.4,0,-0.05,-251.85,37.854,0.002,67.525,0,0,0,269.07,0,0,0,0,0,0,0,0,0,0,0,0,0,3,3,40.62,FLYING
40.89,APPROACH,ILS_TRACK,164.2,166,1.8,1802.17,0.43,8.68,8.55,270.41,-0.002,0.3143,20,270.4,0,-0.05,-248.59,37.794,0.004,66.543,0,0,0,269.07,0,0,0,0,0,0,0,0,0,0,0,0,0,3,3,40.94,FLYING
41.22,APPROACH,ILS_TRACK,164.22,166,1.78,1802.31,0.44,8.68,8.54,270.41,-0.002,0.3137,20,270.4,0,-0.04,-245.32,37.734,-0.003,65.559,0,0,0,269.07,0,0,0,0,0,0,0,0,0,0,0,0,0,3,3,41.27,FLYING
41.59,APPROACH,ILS_TRACK,164.24,166,1.76,1802.47,0.44,8.67,8.54,270.41,-0.002,0.3128,20,270.41,0,-0.05,-241.55,37.666,0.005,64.425,0,0,0,269.07,0,0,0,0,0,0,0,0,0,0,0,0,0,3,3,41.64,FLYING
41.92,APPROACH,ILS_TRACK,164.26,166,1.74,1802.61,0.44,8.67,8.54,270.41,-0.003,0.312,20,270.4,0,-0.05,-238.29,37.606,0.003,63.443,0,0,0,269.07,0,0,0,0,0,0,0,0,0,0,0,0,0,3,3,41.97,FLYING
42.24,APPROACH,ILS_TRACK,164.28,166,1.72,1802.76,0.44,8.67,8.53,270.41,-0.004,0.3111,20,270.4,0,-0.05,-235.02,37.546,0,62.457,0,0,0,269.07,0,0,0,0,0,0,0,0,0,0,0,0,0,3,3,42.29,FLYING
42.62,APPROACH,ILS_TRACK,164.3,166,1.7,1802.92,0.45,8.67,8.53,270.41,-0.003,0.3102,20,270.4,0,-0.05,-231.24,37.477,0.001,61.322,0,0,0,269.07,0,0,0,0,0,0,0,0,0,0,0,0,0,3,3,42.67,FLYING
42.94,APPROACH,ILS_TRACK,164.32,166,1.68,1803.07,0.45,8.66,8.53,270.4,-0.003,0.3096,20,270.4,0,-0.04,-227.97,37.418,-0.001,60.339,0,0,0,269.07,0,0,0,0,0,0,0,0,0,0,0,0,0,3,3,42.99,FLYING
43.27,APPROACH,ILS_TRACK,164.33,166,1.67,1803.21,0.45,8.66,8.52,270.4,-0.003,0.3092,20,270.41,0,-0.05,-224.7,37.358,0.008,59.353,0,0,0,269.07,0,0,0,0,0,0,0,0,0,0,0,0,0,3,3,43.32,FLYING
43.64,APPROACH,ILS_TRACK,164.35,166,1.65,1803.38,0.46,8.66,8.52,270.4,-0.002,0.3088,20,270.4,0,-0.04,-220.92,37.289,-0.002,58.217,0,0,0,269.07,0,0,0,0,0,0,0,0,0,0,0,0,0,3,3,43.69,FLYING
43.97,APPROACH,ILS_TRACK,164.36,166,1.64,1803.53,0.45,8.66,8.52,270.4,-0.002,0.3087,20,270.41,0,-0.05,-217.65,37.23,0.007,57.234,0,0,0,269.07,0,0,0,0,0,0,0,0,0,0,0,0,0,3,3,44.02,FLYING
44.29,APPROACH,ILS_TRACK,164.38,166,1.62,1803.67,0.46,8.66,8.51,270.4,-0.003,0.3088,20,270.4,0,-0.04,-214.37,37.17,-0.003,56.247,0,0,0,269.07,0,0,0,0,0,0,0,0,0,0,0,0,0,3,3,44.34,FLYING
44.67,APPROACH,ILS_TRACK,164.39,166,1.61,1803.84,0.46,8.66,8.51,270.4,-0.003,0.3089,20,270.4,0,-0.05,-210.59,37.101,0.005,55.111,0,0,0,269.07,0,0,0,0,0,0,0,0,0,0,0,0,0,3,3,44.72,FLYING
44.99,APPROACH,ILS_TRACK,164.4,166,1.6,1803.99,0.46,8.66,8.51,270.4,-0.002,0.3091,20,270.4,0,-0.05,-207.31,37.041,0,54.127,0,0,0,269.07,0,0,0,0,0,0,0,0,0,0,0,0,0,3,3,45.04,FLYING
45.32,APPROACH,ILS_TRACK,164.41,166,1.59,1804.14,0.46,8.65,8.51,270.4,-0.003,0.3094,20,270.4,0,-0.05,-204.03,36.981,0.003,53.141,0,0,0,269.07,0,0,0,0,0,0,0,0,0,0,0,0,0,3,3,45.37,FLYING
45.69,APPROACH,ILS_TRACK,164.42,166,1.58,1804.31,0.46,8.65,8.51,270.4,-0.003,0.3097,20,270.4,0,-0.05,-200.25,36.913,0.003,52.004,0,0,0,269.07,0,0,0,0,0,0,0,0,0,0,0,0,0,3,3,45.74,FLYING
46.02,APPROACH,ILS_TRACK,164.43,166,1.57,1804.46,0.46,8.65,8.51,270.4,-0.002,0.3099,20,270.41,0,-0.05,-196.97,36.853,0.006,51.021,0,0,0,269.07,0,0,0,0,0,0,0,0,0,0,0,0,0,3,3,46.07,FLYING
46.34,APPROACH,ILS_TRACK,164.43,166,1.57,1804.61,0.46,8.65,8.5,270.4,-0.004,0.3101,20,270.4,0,-0.05,-193.69,36.793,0.001,50.034,0,0,0,269.07,0,0,0,0,0,0,0,0,0,0,0,0,0,3,3,46.39,FLYING
46.72,APPROACH,ILS_TRACK,164.44,166,1.56,1804.78,0.47,8.65,8.5,270.4,-0.005,0.3101,20,270.4,0,-0.05,-189.91,36.724,0.003,48.897,0,0,0,269.07,0,0,0,0,0,0,0,0,0,0,0,0,0,3,3,46.77,FLYING
47.04,APPROACH,ILS_TRACK,164.45,166,1.55,1804.93,0.46,8.65,8.5,270.4,-0.005,0.3101,20,270.4,0,-0.06,-186.63,36.664,0.004,47.912,0,0,0,269.07,0,0,0,0,0,0,0,0,0,0,0,0,0,3,3,47.09,FLYING
47.37,APPROACH,ILS_TRACK,164.46,166,1.54,1805.08,0.47,8.64,8.5,270.4,-0.006,0.3101,20,270.4,0,-0.05,-183.34,36.605,0,46.926,0,0,0,269.07,0,0,0,0,0,0,0,0,0,0,0,0,0,3,3,47.42,FLYING
47.74,APPROACH,ILS_TRACK,164.47,166,1.53,1805.26,0.47,8.64,8.5,270.41,-0.007,0.3099,20,270.4,0,-0.05,-179.56,36.536,0.002,45.789,0,0,0,269.07,0,0,0,0,0,0,0,0,0,0,0,0,0,3,3,47.79,FLYING
48.07,APPROACH,ILS_TRACK,164.47,166,1.53,1805.41,0.47,8.64,8.5,270.41,-0.006,0.3097,20,270.41,0,-0.06,-176.28,36.476,0.006,44.804,0,0,0,269.07,0,0,0,0,0,0,0,0,0,0,0,0,0,3,3,48.12,FLYING
48.39,APPROACH,ILS_TRACK,164.48,166,1.52,1805.56,0.47,8.64,8.49,270.41,-0.006,0.3095,20,270.39,0,-0.05,-172.99,36.416,-0.006,43.816,0,0,0,269.07,0,0,0,0,0,0,0,0,0,0,0,0,0,3,3,48.44,FLYING
48.77,APPROACH,ILS_TRACK,164.49,166,1.51,1805.73,0.47,8.64,8.49,270.4,-0.002,0.3093,20,270.41,0,-0.06,-169.2,36.347,0.009,42.679,0,0,0,269.07,0,0,0,0,0,0,0,0,0,0,0,0,0,3,3,48.82,FLYING
49.09,APPROACH,ILS_TRACK,164.5,166,1.5,1805.89,0.47,8.64,8.49,270.4,-0.004,0.3091,20,270.4,0,-0.05,-165.92,36.288,-0.003,41.694,0,0,0,269.07,0,0,0,0,0,0,0,0,0,0,0,0,0,3,3,49.14,FLYING
49.42,APPROACH,ILS_TRACK,164.5,166,1.5,1806.04,0.47,8.64,8.49,270.4,-0.004,0.3089,20,270.41,0,-0.06,-162.64,36.228,0.009,40.707,0,0,0,269.07,0,0,0,0,0,0,0,0,0,0,0,0,0,3,3,49.47,FLYING
49.79,APPROACH,ILS_TRACK,164.51,166,1.49,1806.21,0.47,8.64,8.49,270.4,-0.004,0.3087,20,270.4,0,-0.05,-158.85,36.159,-0.005,39.569,0,0,0,269.07,0,0,0,0,0,0,0,0,0,0,0,0,0,3,3,49.84,FLYING
50.08,APPROACH,ILS_TRACK,164.52,166,1.48,1806.35,0.49,8.63,8.48,270.4,-0.02,0.3087,20,270.41,0,-0.05,-155.66,36.101,0.007,38.783,0,0,0,269.07,0,0,0,0,0,0,0,0,0,0,0,0,0,3,3,50.12,FLYING
50.34,APPROACH,ILS_TRACK,164.52,166,1.48,1806.47,0.46,8.64,8.5,270.41,-0.02,0.3088,20,270.41,0,-0.06,-153.03,36.053,0.006,38.07,0,0,0,269.07,0,0,0,0,0,0,0,0,0,0,0,0,0,3,3,50.38,FLYING
50.6,APPROACH,ILS_TRACK,164.52,166,1.48,1806.59,0.48,8.63,8.49,270.41,-0.019,0.309,20,270.4,0,-0.05,-150.4,36.005,-0.004,37.032,0,0,0,269.07,0,0,0,0,0,0,0,0,0,0,0,0,0,3,3,50.64,FLYING
50.9,APPROACH,ILS_TRACK,164.53,166,1.47,1806.73,0.47,8.62,8.47,270.41,-0.013,0.3094,20,270.41,0,-0.06,-147.37,35.95,0.005,36.127,0,0,0,269.07,0,0,0,0,0,0,0,0,0,0,0,0,0,3,3,50.94,FLYING
51.16,APPROACH,ILS_TRACK,164.53,166,1.47,1806.86,0.48,8.64,8.5,270.41,-0.013,0.3097,20,270.41,0,-0.06,-144.74,35.902,0.006,35.333,0,0,0,269.07,0,0,0,0,0,0,0,0,0,0,0,0,0,3,3,51.2,FLYING
51.42,APPROACH,ILS_TRACK,164.53,166,1.47,1806.98,0.46,8.62,8.48,270.41,-0.012,0.31,20,270.4,0,-0.05,-142.11,35.854,-0.004,34.55,0,0,0,269.07,0,0,0,0,0,0,0,0,0,0,0,0,0,3,3,51.46,FLYING
51.68,APPROACH,ILS_TRACK,164.53,166,1.47,1807.1,0.46,8.65,8.5,270.41,-0.008,0.3103,20,270.41,0,-0.06,-139.48,35.806,0.006,33.756,0,0,0,269.07,0,0,0,0,0,0,0,0,0,0,0,0,0,3,3,51.72,FLYING
51.98,APPROACH,ILS_TRACK,164.53,166,1.47,1807.24,0.41,8.65,8.51,270.41,-0.007,0.3105,20,270.4,0,-0.05,-136.45,35.751,-0.003,32.858,0,0,0,269.07,0,0,0,0,0,0,0,0,0,0,0,0,0,3,3,52.02,FLYING
52.24,APPROACH,ILS_TRACK,164.53,166,1.47,1807.36,0.5,8.62,8.47,270.4,-0.006,0.3125,20,270.41,0,-0.06,-133.82,35.703,0.006,32.032,0,0,0,269.07,0,0,0,0,0,0,0,0,0,0,0,0,0,3,3,52.28,FLYING
52.5,APPROACH,ILS_TRACK,164.53,166,1.47,1807.49,0.48,8.64,8.49,270.4,-0.006,0.3127,20,270.4,0,-0.06,-131.19,35.656,0.003,31.279,0,0,0,269.07,0,0,0,0,0,0,0,0,0,0,0,0,0,3,3,52.54,FLYING
52.76,APPROACH,ILS_TRACK,164.53,166,1.47,1807.61,0.48,8.64,8.49,270.4,-0.007,0.3123,20,270.4,0,-0.05,-128.56,35.608,0,30.478,0,0,0,269.07,0,0,0,0,0,0,0,0,0,0,0,0,0,3,3,52.8,FLYING
53.06,APPROACH,ILS_TRACK,164.54,166,1.46,1807.75,0.48,8.63,8.48,270.4,-0.007,0.3115,20,270.4,0,-0.05,-125.53,35.553,-0.001,29.568,0,0,0,269.07,0,0,0,0,0,0,0,0,0,0,0,0,0,3,3,53.1,FLYING
53.32,APPROACH,ILS_TRACK,164.54,166,1.46,1807.88,0.48,8.63,8.49,270.4,-0.005,0.3106,20,270.41,0,-0.06,-122.9,35.505,0.009,28.779,0,0,0,269.07,0,0,0,0,0,0,0,0,0,0,0,0,0,3,3,53.36,FLYING
53.58,APPROACH,ILS_TRACK,164.55,166,1.45,1808,0.49,8.63,8.49,270.4,-0.006,0.3098,20,270.4,0,-0.06,-120.27,35.457,0.001,27.985,0,0,0,269.07,0,0,0,0,0,0,0,0,0,0,0,0,0,3,3,53.62,FLYING
53.84,APPROACH,ILS_TRACK,164.55,166,1.45,1808.12,0.47,8.63,8.48,270.4,-0.005,0.309,20,270.4,0,-0.06,-117.64,35.409,0.001,27.201,0,0,0,269.07,0,0,0,0,0,0,0,0,0,0,0,0,0,3,3,53.88,FLYING
54.14,APPROACH,ILS_TRACK,164.56,166,1.44,1808.27,0.48,8.63,8.48,270.4,-0.005,0.3082,20,270.4,0,-0.05,-114.6,35.354,0.002,26.286,0,0,0,269.07,0,0,0,0,0,0,0,0,0,0,0,0,0,3,3,54.18,FLYING
54.4,APPROACH,ILS_TRACK,164.56,166,1.44,1808.39,0.48,8.63,8.48,270.4,-0.005,0.3077,20,270.41,0,-0.06,-111.97,35.306,0.005,25.498,0,0,0,269.07,0,0,0,0,0,0,0,0,0,0,0,0,0,3,3,54.44,FLYING
54.66,APPROACH,ILS_TRACK,164.57,166,1.43,1808.51,0.48,8.63,8.48,270.4,-0.005,0.3073,20,270.41,0,-0.06,-109.34,35.258,0.008,24.708,0,0,0,269.07,0,0,0,0,0,0,0,0,0,0,0,0,0,3,3,54.7,FLYING
54.92,APPROACH,ILS_TRACK,164.57,166,1.43,1808.64,0.48,8.63,8.48,270.4,-0.006,0.307,20,270.4,0,-0.06,-106.71,35.21,0.001,23.918,0,0,0,269.07,0,0,0,0,0,0,0,0,0,0,0,0,0,3,3,54.96,FLYING
55.22,APPROACH,ILS_TRACK,164.58,166,1.42,1808.78,0.49,8.63,8.48,270.4,-0.005,0.3069,20,270.4,0,-0.06,-103.67,35.155,0.001,23.007,0,0,0,269.07,0,0,0,0,0,0,0,0,0,0,0,0,0,3,3,55.26,FLYING
55.48,APPROACH,ILS_TRACK,164.58,166,1.42,1808.9,0.47,8.63,8.48,270.4,-0.006,0.307,20,270.4,0,-0.06,-101.04,35.107,0,22.219,0,0,0,269.07,0,0,0,0,0,0,0,0,0,0,0,0,0,3,3,55.52,FLYING
55.74,APPROACH,ILS_TRACK,164.58,166,1.42,1809.03,0.48,8.62,8.47,270.4,-0.006,0.3072,20,270.41,0,-0.07,-98.41,35.06,0.012,21.426,0,0,0,269.07,0,0,0,0,0,0,0,0,0,0,0,0,0,3,3,55.78,FLYING
56,APPROACH,ILS_TRACK,164.59,166,1.41,1809.15,0.45,8.64,8.49,270.4,-0.01,0.3075,20,270.41,0,-0.07,-95.78,35.012,0.005,20.642,0,0,0,269.07,0,0,0,0,0,0,0,0,0,0,0,0,0,3,3,56.04,FLYING
56.3,APPROACH,ILS_TRACK,164.58,166,1.42,1809.29,0.46,8.62,8.48,270.4,-0.01,0.3086,20,270.4,0,-0.07,-92.75,34.956,0.004,19.731,0,0,0,269.07,0,0,0,0,0,0,0,0,0,0,0,0,0,3,3,56.34,FLYING
56.56,APPROACH,ILS_TRACK,164.58,166,1.42,1809.42,0.48,8.62,8.47,270.4,-0.01,0.3093,20,270.4,0,-0.07,-90.11,34.909,0.002,18.928,0,0,0,269.07,0,0,0,0,0,0,0,0,0,0,0,0,0,3,3,56.6,FLYING
56.82,APPROACH,ILS_TRACK,164.58,166,1.42,1809.54,0.48,8.62,8.47,270.4,-0.009,0.3094,20,270.41,0,-0.08,-87.48,34.861,0.009,18.15,0,0,0,269.07,0,0,0,0,0,0,0,0,0,0,0,0,0,3,3,56.86,FLYING
57.08,APPROACH,ILS_TRACK,164.58,166,1.42,1809.67,0.48,8.63,8.48,270.4,-0.01,0.3094,20,270.4,0,-0.07,-84.85,34.813,-0.002,17.357,0,0,0,269.07,0,0,0,0,0,0,0,0,0,0,0,0,0,3,3,57.12,FLYING
57.38,APPROACH,ILS_TRACK,164.59,166,1.41,1809.81,0.48,8.62,8.48,270.4,-0.01,0.3093,20,270.41,0,-0.08,-81.81,34.758,0.006,16.446,0,0,0,269.07,0,0,0,0,0,0,0,0,0,0,0,0,0,3,3,57.42,FLYING
57.64,APPROACH,ILS_TRACK,164.59,166,1.41,1809.93,0.48,8.62,8.48,270.4,-0.01,0.3092,20,270.4,0,-0.08,-79.18,34.71,0.005,15.658,0,0,0,269.07,0,0,0,0,0,0,0,0,0,0,0,0,0,3,3,57.68,FLYING
57.9,APPROACH,ILS_TRACK,164.59,166,1.41,1810.06,0.48,8.62,8.48,270.4,-0.01,0.3091,20,270.41,0,-0.08,-76.55,34.662,0.007,14.868,0,0,0,269.07,0,0,0,0,0,0,0,0,0,0,0,0,0,3,3,57.94,FLYING
58.16,APPROACH,ILS_TRACK,164.59,166,1.41,1810.18,0.48,8.62,8.47,270.4,-0.01,0.3089,20,270.41,0,-0.08,-73.92,34.614,0.005,14.077,0,0,0,269.07,0,0,0,0,0,0,0,0,0,0,0,0,0,3,3,58.2,FLYING
58.46,APPROACH,ILS_TRACK,164.59,166,1.41,1810.32,0.48,8.62,8.48,270.4,-0.009,0.3088,20,270.4,0,-0.08,-70.88,34.559,0.001,13.168,0,0,0,269.07,0,0,0,0,0,0,0,0,0,0,0,0,0,3,3,58.5,FLYING
58.72,APPROACH,ILS_TRACK,164.59,165.58,0.99,1810.45,0.45,8.62,8.48,270.4,-0.011,0.2879,20,270.41,0,-0.09,-68.26,34.511,0.013,12.394,0,0,0,269.07,0,0,0,0,0,0,0,0,0,0,0,0,0,3,3,58.76,FLYING
58.98,APPROACH,ILS_TRACK,164.59,165.17,0.57,1810.57,0.49,8.6,8.45,270.4,-0.011,0.2677,20,270.41,0,-0.09,-65.62,34.463,0.005,11.573,0,0,0,269.07,0,0,0,0,0,0,0,0,0,0,0,0,0,3,3,59.02,FLYING
59.24,APPROACH,ILS_TRACK,164.59,164.75,0.17,1810.69,0.48,8.64,8.49,270.4,-0.012,0.2483,20,270.4,0,-0.09,-62.99,34.415,0.002,10.799,0,0,0,269.07,0,0,0,0,0,0,0,0,0,0,0,0,0,3,3,59.28,FLYING
59.54,APPROACH,ILS_TRACK,164.57,164.27,-0.29,1810.83,0.47,8.61,8.46,270.4,-0.011,0.2273,19.911,270.41,0,-0.1,-59.95,34.36,0.008,9.892,0,0,0,269.07,0,0,0,0,0,0,0,0,0,0,0,0,0,3,3,59.58,FLYING
59.8,APPROACH,ILS_TRACK,164.53,163.86,-0.67,1810.96,0.48,8.66,8.51,270.4,-0.011,0.212,19.734,270.4,0,-0.1,-57.32,34.312,0.004,9.086,0,0,0,269.07,0,0,0,0,0,0,0,0,0,0,0,0,0,3,3,59.84,FLYING
60.06,APPROACH,ILS_TRACK,164.47,163.44,-1.03,1811.09,0.46,8.68,8.53,270.4,-0.011,0.199,19.463,270.4,0,-0.1,-54.68,34.264,0.004,8.305,0,0,0,269.07,0,0,0,0,0,0,0,0,0,0,0,0,0,3,3,60.1,FLYING
60.32,APPROACH,ILS_TRACK,164.39,163.02,-1.37,1811.22,0.48,8.69,8.54,270.4,-0.011,0.1889,19.104,270.41,0,-0.1,-52.05,34.217,0.012,7.511,0,0,0,269.07,0,0,0,0,0,0,0,0,0,0,0,0,0,3,3,60.36,FLYING
60.62,APPROACH,ILS_TRACK,164.27,162.54,-1.72,1811.37,0.47,8.74,8.59,270.4,-0.012,0.1788,18.581,270.4,0,-0.1,-49.01,34.162,0.001,6.607,0,0,0,269.07,0,0,0,0,0,0,0,0,0,0,0,0,0,3,3,60.66,FLYING
60.88,APPROACH,ILS_TRACK,164.13,162.13,-2,1811.49,0.46,8.76,8.61,270.4,-0.012,0.1749,18.054,270.42,0,-0.11,-46.38,34.114,0.016,5.821,0,0,0,269.07,0,0,0,0,0,0,0,0,0,0,0,0,0,3,3,60.92,FLYING
61.14,APPROACH,ILS_TRACK,163.97,161.71,-2.26,1811.62,0.44,8.8,8.65,270.4,-0.014,0.1732,17.46,270.4,0,-0.11,-43.76,34.066,0.002,5.041,0,0,0,269.07,0,0,0,0,0,0,0,0,0,0,0,0,0,3,3,61.18,FLYING
61.4,APPROACH,ILS_TRACK,163.78,161.3,-2.49,1811.75,0.46,8.84,8.69,270.4,-0.014,0.1734,16.805,270.41,0,-0.11,-41.13,34.018,0.009,4.255,0,0,0,269.07,0,0,0,0,0,0,0,0,0,0,0,0,0,3,3,61.44,FLYING
61.7,APPROACH,ILS_TRACK,163.54,160.82,-2.72,1811.9,0.46,8.88,8.73,270.4,-0.015,0.1723,15.978,270.4,0,-0.11,-38.1,33.963,0.004,3.353,0,0,0,269.07,0,0,0,0,0,0,0,0,0,0,0,0,0,3,3,61.74,FLYING
61.96,APPROACH,ILS_TRACK,163.3,160.4,-2.9,1812.03,0.49,8.92,8.78,270.4,-0.017,0.1751,15.214,270.41,-0.42,-0.12,-35.48,33.916,0.007,2.58,0,0,0,269.07,0,0,0,0,0,0,0,0,0,0,0,0,0,3,3,62,FLYING
62.22,APPROACH,ILS_TRACK,163.04,160,-3.04,1812.03,0.72,8.36,8.21,270.4,-0.023,0.1808,14.414,270.41,-0.995,-0.12,-32.92,33.868,0.008,2.005,0,0,0,269.07,0,0,0,0,0,0,0,0,0,0,0,0,0,3,3,62.26,FLYING
62.48,APPROACH,ILS_TRACK,162.82,160,-2.82,1811.9,0.51,7.3,7.2,270.4,-0.035,0.1945,13.672,270.41,-1.195,-0.13,-30.53,33.821,0.014,1.805,0,0,0,269.07,0,0,0,0,0,0,0,0,0,0,0,0,0,3,3,62.52,FLYING
62.78,APPROACH,ILS_TRACK,162.62,160,-2.62,1811.71,-0.13,6.48,6.54,270.41,-0.052,0.1952,12.879,270.4,-1.794,-0.13,-27.85,33.766,0.003,1.206,0,0,0,269.07,0,0,0,0,0,0,0,0,0,0,0,0,0,3,3,62.82,FLYING
63.04,APPROACH,ILS_TRACK,162.46,160,-2.46,1811.55,-0.71,6.33,6.54,270.41,-0.047,0.1928,12.234,270.41,-2.477,-0.13,-25.53,33.719,0.007,0.523,0,0,0,269.07,0,0,0,0,0,0,0,0,0,0,0,0,0,3,3,63.08,FLYING
63.3,APPROACH,ILS_TRACK,162.31,160,-2.31,1811.21,-0.86,5.85,6.19,270.41,-0.046,0.1871,11.627,270.41,-2.904,-0.13,-23.29,33.672,0.009,0.096,0,0,0,269.07,0,0,0,0,0,0,0,0,0,0,0,0,0,3,3,63.34,FLYING
63.56,APPROACH,ILS_TRACK,162.22,160,-2.22,1810.6,-1.46,4.79,5.31,270.41,-0.046,0.1724,11.047,270.4,-2.604,-0.13,-21.34,33.625,0.001,0.396,0,0,0,269.07,0,0,0,0,0,0,0,0,0,0,0,0,0,3,3,63.6,FLYING
63.86,APPROACH,ILS_TRACK,162.13,160,-2.13,1809.77,-2.54,4.03,4.82,270.41,-0.034,0.1525,10.403,270.41,-2.712,-0.13,-19.28,33.57,0.01,0.288,0,0,0,269.07,0,0,0,0,0,0,0,0,0,0,0,0,0,3,3,63.9,FLYING
64.12,APPROACH,ILS_TRACK,162.04,160,-2.04,1809,-3.52,4.1,5.16,270.41,-0.035,0.1416,9.869,270.41,-3,-0.14,-17.57,33.523,0.009,0,0,0,0,269.07,0,0,0,0,0,0,0,0,0,0,0,0,0,3,3,64.16,FLYING
64.38,APPROACH,ILS_TRACK,161.92,160,-1.92,1808.15,-4.11,4.7,5.96,270.41,-0.034,0.1384,9.366,270.41,-3.369,-0.14,-15.9,33.476,0.005,-0.369,0,0,0,269.07,0,0,0,0,0,0,0,0,0,0,0,0,0,3,3,64.42,FLYING
64.64,APPROACH,ILS_TRACK,161.82,160,-1.82,1807.03,-4.46,4.63,6.04,270.41,-0.032,0.1332,8.889,270.4,-3.15,-0.14,-14.44,33.429,0.003,-0.15,0,0,0,269.07,0,0,0,0,0,0,0,0,0,0,0,0,0,3,3,64.68,FLYING
64.94,APPROACH,ILS_TRACK,161.68,160,-1.68,1805.54,-5.22,4.53,6.15,270.41,-0.032,0.1312,8.377,270.41,-2.829,-0.15,-13.04,33.374,0.014,0.171,0,0,0,269.07,0,0,0,0,0,0,0,0,0,0,0,0,0,3,3,64.98,FLYING
65.2,APPROACH,ILS_TRACK,161.51,160,-1.51,1804.22,-5.86,5,6.78,270.41,-0.036,0.143,7.976,270.4,-2.97,-0.14,-11.89,33.327,0.002,0.03,0,0,0,269.07,0,0,0,0,0,0,0,0,0,0,0,0,0,3,3,65.24,FLYING
65.46,APPROACH,ILS_TRACK,161.32,160,-1.32,1802.8,-6.04,5.46,7.35,270.41,-0.025,0.1601,7.625,270.41,-3.15,-0.14,-10.79,33.281,0.008,-0.15,0,0,0,269.07,0,0,0,0,0,0,0,0,0,0,0,0,0,3,3,65.5,FLYING
65.72,APPROACH,ILS_TRACK,161.12,160,-1.12,1801.19,-6.28,5.38,7.36,270.41,-0.023,0.1777,7.325,270.4,-2.828,-0.14,-9.88,33.234,0,0.172,0,0,0,269.07,0,0,0,0,0,0,0,0,0,0,0,0,0,3,3,65.76,FLYING
66.02,APPROACH,ILS_TRACK,160.86,160,-0.86,1799.26,-6.78,5.5,7.61,270.41,-0.015,0.1991,7.055,270.41,-2.729,-0.14,-8.97,33.18,0.007,0.271,0,0,0,269.07,0,0,0,0,0,0,0,0,0,0,0,0,0,3,3,66.06,FLYING
66.28,APPROACH,ILS_TRACK,160.6,160,-0.6,1797.61,-7.08,6.09,8.29,270.41,-0.014,0.2273,6.887,270.41,-2.996,-0.14,-8.18,33.133,0.005,0.004,0,0,0,269.07,0,0,0,0,0,0,0,0,0,0,0,0,0,3,3,66.32,FLYING
66.54,APPROACH,ILS_TRACK,160.33,160,-0.33,1795.82,-6.91,6.15,8.37,270.41,-0.012,0.2575,6.791,270.4,-3.039,-0.14,-7.44,33.086,0.005,-0.039,0,0,0,269.07,0,0,0,0,0,0,0,0,0,0,0,0,0,3,3,66.58,FLYING
66.8,APPROACH,ILS_TRACK,160.08,160,-0.08,1793.88,-7.12,5.76,8.04,270.41,-0.014,0.2797,6.761,270.41,-2.581,-0.14,-6.9,33.04,0.01,0.419,0,0,0,269.07,0,0,0,0,0,0,0,0,0,0,0,0,0,3,3,66.84,FLYING
67.1,APPROACH,ILS_TRACK,159.82,160,0.18,1791.67,-7.57,5.73,8.11,270.41,-0.014,0.2957,6.804,270.4,-2.651,-0.14,-6.32,32.986,0.003,0.349,0,0,0,269.07,0,0,0,0,0,0,0,0,0,0,0,0,0,3,3,67.14,FLYING
67.36,APPROACH,ILS_TRACK,159.58,160,0.42,1789.81,-7.87,6.29,8.75,270.41,-0.013,0.3126,6.903,270.4,-2.967,-0.14,-5.77,32.94,0.004,0.033,0,0,0,269.07,0,0,0,0,0,0,0,0,0,0,0,0,0,3,3,67.4,FLYING
67.62,APPROACH,ILS_TRACK,159.34,160,0.66,1787.86,-7.59,6.49,8.95,270.41,-0.011,0.3307,7.064,270.41,-3.128,-0.14,-5.22,32.893,0.01,-0.128,0,0,0,269.07,0,0,0,0,0,0,0,0,0,0,0,0,0,3,3,67.66,FLYING
67.88,APPROACH,ILS_TRACK,159.13,160,0.87,1785.73,-7.66,5.95,8.44,270.41,-0.017,0.3448,7.284,270.4,-2.594,-0.14,-4.88,32.847,0.003,0.406,0,0,0,269.07,0,0,0,0,0,0,0,0,0,0,0,0,0,3,3,67.92,FLYING
68.2,APPROACH,ILS_TRACK,158.96,160,1.04,1783.11,-8.1,5.58,8.17,270.41,0,0.3436,7.592,270.41,-2.496,-0.15,-4.55,32.793,0.01,0.504,0,0,0,269.07,0,0,0,0,0,0,0,0,0,0,0,0,0,3,3,68.25,FLYING
68.51,APPROACH,ILS_TRACK,158.8,160,1.2,1780.64,-8.56,6.05,8.72,270.4,0.007,0.341,7.918,270.4,-2.802,-0.14,-4.18,32.74,-0.003,0.198,0,0,0,269.07,0,0,0,0,0,0,0,0,0,0,0,0,0,3,3,68.57,FLYING
68.84,APPROACH,ILS_TRACK,158.64,160,1.36,1777.99,-8.38,6.65,9.35,270.4,0.02,0.3431,8.344,270.41,-3.07,-0.14,-3.71,32.683,0.012,-0.07,0,0,0,269.07,0,0,0,0,0,0,0,0,0,0,0,0,0,3,3,68.9,FLYING
69.2,APPROACH,ILS_TRACK,158.48,160,1.52,1774.97,-8.38,6.33,9.04,270.4,0.012,0.3465,8.852,270.4,-2.717,-0.14,-3.4,32.622,0.003,0.283,0,0,0,269.07,0,0,0,0,0,0,0,0,0,0,0,0,0,3,3,69.26,FLYING
69.63,APPROACH,ILS_TRACK,158.33,160,1.67,1771.31,-8.67,6.65,9.4,270.4,0.025,0.3473,9.547,270.41,-2.702,-0.14,-3.07,32.547,0.007,0.298,0,0,0,269.07,0,0,0,0,0,0,0,0,0,0,0,0,0,3,3,69.7,FLYING
70.03,APPROACH,ILS_TRACK,158.21,160,1.79,1767.93,-8.48,6.85,9.62,270.4,0.038,0.3479,10.229,270.41,-2.964,-0.15,-2.7,32.478,0.007,0.036,0,0,0,269.07,0,0,0,0,0,0,0,0,0,0,0,0,0,3,3,70.1,FLYING
70.45,APPROACH,ILS_TRACK,158.11,160,1.89,1764.32,-8.64,6.71,9.46,270.4,0.029,0.3468,10.995,270.4,-2.781,-0.14,-2.44,32.405,0.004,0.219,0,0,0,269.07,0,0,0,0,0,0,0,0,0,0,0,0,0,3,3,70.52,FLYING
70.94,APPROACH,ILS_TRACK,158.03,160,1.97,1760.15,-8.49,6.85,9.63,270.4,0.028,0.347,11.955,270.41,-2.994,-0.15,-2.06,32.318,0.007,0.006,0,0,0,269.07,0,0,0,0,0,0,0,0,0,0,0,0,0,3,3,71.01,FLYING
71.36,APPROACH,ILS_TRACK,158.01,160,1.99,1756.52,-8.67,6.74,9.51,270.4,0.013,0.3408,12.79,270.4,-2.919,-0.14,-1.82,32.244,0.002,0.081,0,0,0,269.07,0,0,0,0,0,0,0,0,0,0,0,0,0,3,3,71.43,FLYING
71.78,APPROACH,ILS_TRACK,158.01,160,1.99,1752.91,-8.48,6.74,9.53,270.4,0.012,0.3337,13.626,270.41,-3.118,-0.15,-1.52,32.17,0.012,-0.118,0,0,0,269.07,0,0,0,0,0,0,0,0,0,0,0,0,0,3,3,71.85,FLYING
72.27,APPROACH,ILS_TRACK,158.07,160,1.93,1748.61,-8.76,6.41,9.2,270.41,-0.009,0.323,14.576,270.4,-2.983,-0.15,-1.29,32.083,0.004,0.017,0,0,0,269.07,0,0,0,0,0,0,0,0,0,0,0,0,0,3,3,72.34,FLYING
72.69,APPROACH,ILS_TRACK,158.14,160,1.86,1744.99,-8.62,6.63,9.47,270.41,-0.003,0.311,15.363,270.4,-3.237,-0.14,-1.01,32.009,0.004,-0.237,0,0,0,269.07,0,0,0,0,0,0,0,0,0,0,0,0,0,3,3,72.76,FLYING
73.11,APPROACH,ILS_TRACK,158.24,160,1.76,1741.19,-8.81,6.06,8.91,270.41,-0.012,0.2985,16.112,270.41,-2.982,-0.14,-0.88,31.935,0.006,0.018,0,0,0,269.07,0,0,0,0,0,0,0,0,0,0,0,0,0,3,3,73.18,FLYING
73.6,APPROACH,ILS_TRACK,158.37,160,1.63,1736.89,-9.01,6.49,9.39,270.41,-0.004,0.2835,16.917,270.4,-3.114,-0.14,-0.68,31.849,0.004,-0.114,0,0,0,269.07,0,0,0,0,0,0,0,0,0,0,0,0,0,3,3,73.67,FLYING
74.02,APPROACH,ILS_TRACK,158.49,160,1.51,1733.11,-9,6.49,9.39,270.41,-0.003,0.2722,17.559,270.4,-3.13,-0.14,-0.53,31.774,0.004,-0.13,0,0,0,269.07,0,0,0,0,0,0,0,0,0,0,0,0,0,3,3,74.09,FLYING
74.44,APPROACH,ILS_TRACK,158.6,160,1.4,1729.33,-9.07,6.51,9.41,270.41,-0.004,0.2636,18.154,270.4,-3.064,-0.12,-0.43,31.7,-0.005,-0.064,0,0,0,269.07,0,0,0,0,0,0,0,0,0,0,0,0,0,3,3,74.51,FLYING
74.93,APPROACH,ILS_TRACK,158.7,160,1.3,1724.9,-8.99,6.51,9.43,270.41,0.001,0.2604,18.798,270.4,-3.113,-0.12,-0.3,31.613,0.005,-0.113,0,0,0,269.07,0,0,0,0,0,0,0,0,0,0,0,0,0,3,3,75,FLYING
75.35,APPROACH,ILS_TRACK,158.77,160,1.23,1721.09,-9.07,6.5,9.42,270.41,0.002,0.2609,19.319,270.39,-3.086,-0.1,-0.22,31.539,-0.007,-0.086,0,0,0,269.07,0,0,0,0,0,0,0,0,0,0,0,0,0,3,3,75.42,FLYING
75.77,APPROACH,ILS_TRACK,158.82,160,1.18,1717.28,-9.02,6.48,9.4,270.41,0.008,0.2643,19.818,270.4,-3.143,-0.1,-0.13,31.465,0.005,-0.143,0,0,0,269.07,0,0,0,0,0,0,0,0,0,0,0,0,0,3,3,75.84,FLYING
76.26,APPROACH,ILS_TRACK,158.86,160,1.14,1712.83,-9.1,6.46,9.39,270.41,0.009,0.2659,20,270.39,-3.126,-0.09,-0.04,31.378,-0.006,-0.126,0,0,0,269.07,0,0,0,0,0,0,0,0,0,0,0,0,0,3,3,76.33,FLYING
76.68,APPROACH,ILS_TRACK,158.89,160,1.11,1709,-9.07,6.44,9.38,270.41,0.02,0.2669,20,270.4,-3.154,-0.08,0.03,31.304,-0.003,-0.154,0,0,0,269.07,0,0,0,0,0,0,0,0,0,0,0,0,0,3,3,76.75,FLYING
77.1,APPROACH,ILS_TRACK,158.92,160,1.08,1705.17,-9.13,6.44,9.38,270.41,0.019,0.2684,20,270.4,-3.144,-0.07,0.09,31.23,-0.003,-0.144,0,0,0,269.07,0,0,0,0,0,0,0,0,0,0,0,0,0,3,3,77.17,FLYING
77.59,APPROACH,ILS_TRACK,158.94,160,1.06,1700.69,-9.12,6.43,9.38,270.41,0.024,0.2701,20,270.39,-3.161,-0.05,0.16,31.143,-0.008,-0.161,0,0,0,269.07,0,0,0,0,0,0,0,0,0,0,0,0,0,3,3,77.66,FLYING
78.01,APPROACH,ILS_TRACK,158.96,160,1.04,1696.84,-9.16,6.43,9.39,270.41,0.028,0.2719,20,270.4,-3.151,-0.04,0.21,31.069,-0.002,-0.151,0,0,0,269.07,0,0,0,0,0,0,0,0,0,0,0,0,0,3,3,78.08,FLYING
78.43,APPROACH,ILS_TRACK,158.97,160,1.03,1692.99,-9.17,6.43,9.39,270.41,0.031,0.2735,20,270.39,-3.159,-0.02,0.25,30.994,-0.012,-0.159,0,0,0,269.07,0,0,0,0,0,0,0,0,0,0,0,0,0,3,3,78.5,FLYING
78.92,APPROACH,ILS_TRACK,158.99,160,1.01,1688.49,-9.19,6.43,9.39,270.41,0.04,0.2743,20,270.39,-3.154,-0.01,0.29,30.908,-0.006,-0.154,0,0,0,269.07,0,0,0,0,0,0,0,0,0,0,0,0,0,3,3,78.99,FLYING
79.34,APPROACH,ILS_TRACK,159.01,160,0.99,1684.63,-9.2,6.42,9.39,270.41,0.038,0.2747,20,270.39,-3.155,0,0.32,30.833,-0.006,-0.155,0,0,0,269.07,0,0,0,0,0,0,0,0,0,0,0,0,0,3,3,79.41,FLYING
79.76,APPROACH,ILS_TRACK,159.02,160,0.98,1680.76,-9.21,6.42,9.39,270.41,0.037,0.2748,20,270.39,-3.153,0.02,0.35,30.759,-0.009,-0.153,0,0,0,269.07,0,0,0,0,0,0,0,0,0,0,0,0,0,3,3,79.83,FLYING
80.25,APPROACH,ILS_TRACK,159.05,160,0.95,1676.24,-9.22,6.42,9.39,270.41,0.036,0.2744,20,270.39,-3.152,0.03,0.37,30.673,-0.008,-0.152,0,0,0,269.07,0,0,0,0,0,0,0,0,0,0,0,0,0,3,3,80.32,FLYING
80.67,APPROACH,ILS_TRACK,159.07,160,0.93,1672.37,-9.22,6.42,9.39,270.41,0.033,0.2739,20,270.39,-3.149,0.04,0.39,30.598,-0.007,-0.149,0,0,0,269.07,0,0,0,0,0,0,0,0,0,0,0,0,0,3,3,80.74,FLYING
81.09,APPROACH,ILS_TRACK,159.09,160,0.91,1668.49,-9.23,6.42,9.39,270.41,0.034,0.2731,20,270.39,-3.149,0.05,0.4,30.524,-0.011,-0.149,0,0,0,269.07,0,0,0,0,0,0,0,0,0,0,0,0,0,3,3,81.16,FLYING
81.58,APPROACH,ILS_TRACK,159.11,160,0.89,1663.97,-9.23,6.41,9.39,270.41,0.032,0.2721,20,270.39,-3.147,0.07,0.42,30.438,-0.009,-0.147,0,0,0,269.07,0,0,0,0,0,0,0,0,0,0,0,0,0,3,3,81.65,FLYING
82,APPROACH,ILS_TRACK,159.13,160,0.87,1660.08,-9.24,6.41,9.39,270.41,0.034,0.2712,20,270.39,-3.146,0.08,0.43,30.363,-0.01,-0.146,0,0,0,269.07,0,0,0,0,0,0,0,0,0,0,0,0,0,3,3,82.07,FLYING
82.42,APPROACH,ILS_TRACK,159.15,160,0.85,1656.2,-9.24,6.41,9.39,270.41,0.037,0.2704,20,270.39,-3.145,0.09,0.43,30.289,-0.01,-0.145,0,0,0,269.07,0,0,0,0,0,0,0,0,0,0,0,0,0,3,3,82.49,FLYING
82.91,APPROACH,ILS_TRACK,159.17,160,0.83,1651.67,-9.24,6.41,9.39,270.41,0.035,0.2696,20,270.39,-3.144,0.11,0.44,30.203,-0.012,-0.144,0,0,0,269.07,0,0,0,0,0,0,0,0,0,0,0,0,0,3,3,82.98,FLYING
83.33,APPROACH,ILS_TRACK,159.19,160,0.81,1647.79,-9.24,6.4,9.39,270.41,0.035,0.2691,20,270.39,-3.143,0.12,0.45,30.128,-0.011,-0.143,0,0,0,269.07,0,0,0,0,0,0,0,0,0,0,0,0,0,3,3,83.4,FLYING
83.75,APPROACH,ILS_TRACK,159.2,160,0.8,1643.91,-9.24,6.4,9.39,270.41,0.037,0.2689,20,270.38,-3.142,0.13,0.45,30.054,-0.015,-0.142,0,0,0,269.07,0,0,0,0,0,0,0,0,0,0,0,0,0,3,3,83.82,FLYING
84.24,APPROACH,ILS_TRACK,159.22,160,0.78,1639.37,-9.25,6.4,9.39,270.41,0.042,0.2687,20,270.39,-3.142,0.15,0.45,29.968,-0.014,-0.142,0,0,0,269.07,0,0,0,0,0,0,0,0,0,0,0,0,0,3,3,84.31,FLYING
84.66,APPROACH,ILS_TRACK,159.23,160,0.77,1635.49,-9.24,6.4,9.38,270.4,0.043,0.2689,20,270.39,-3.141,0.16,0.46,29.894,-0.015,-0.141,0,0,0,269.07,0,0,0,0,0,0,0,0,0,0,0,0,0,3,3,84.73,FLYING
85.08,APPROACH,ILS_TRACK,159.24,160,0.76,1631.61,-9.24,6.4,9.38,270.4,0.042,0.2692,20,270.39,-3.141,0.17,0.46,29.819,-0.012,-0.141,0,0,0,269.07,0,0,0,0,0,0,0,0,0,0,0,0,0,3,3,85.15,FLYING
85.57,APPROACH,ILS_TRACK,159.25,160,0.75,1627.08,-9.24,6.4,9.38,270.4,0.044,0.2694,20,270.39,-3.14,0.18,0.46,29.733,-0.012,-0.14,0,0,0,269.07,0,0,0,0,0,0,0,0,0,0,0,0,0,3,3,85.64,FLYING
85.99,APPROACH,ILS_TRACK,159.26,160,0.74,1623.19,-9.24,6.4,9.38,270.4,0.044,0.2698,20,270.38,-3.139,0.19,0.46,29.659,-0.015,-0.139,0,0,0,269.07,0,0,0,0,0,0,0,0,0,0,0,0,0,3,3,86.06,FLYING
86.41,APPROACH,ILS_TRACK,159.26,160,0.74,1619.31,-9.24,6.39,9.38,270.4,0.041,0.27,20,270.38,-3.138,0.21,0.46,29.585,-0.016,-0.138,0,0,0,269.07,0,0,0,0,0,0,0,0,0,0,0,0,0,3,3,86.48,FLYING
86.9,APPROACH,ILS_TRACK,159.27,160,0.73,1614.78,-9.24,6.39,9.38,270.4,0.04,0.2701,20,270.39,-3.14,0.21,0.46,29.498,-0.012,-0.14,0,0,0,269.07,0,0,0,0,0,0,0,0,0,0,0,0,0,3,3,86.97,FLYING
87.32,APPROACH,ILS_TRACK,159.28,160,0.72,1610.9,-9.24,6.39,9.38,270.4,0.039,0.2702,20,270.38,-3.138,0.23,0.46,29.424,-0.017,-0.138,0,0,0,269.07,0,0,0,0,0,0,0,0,0,0,0,0,0,3,3,87.39,FLYING
87.74,APPROACH,ILS_TRACK,159.29,160,0.71,1607.02,-9.24,6.39,9.38,270.4,0.04,0.2701,20,270.39,-3.139,0.23,0.46,29.35,-0.011,-0.139,0,0,0,269.07,0,0,0,0,0,0,0,0,0,0,0,0,0,3,3,87.81,FLYING
88.23,APPROACH,ILS_TRACK,159.3,160,0.7,1602.49,-9.24,6.39,9.37,270.4,0.039,0.2698,20,270.38,-3.138,0.25,0.46,29.264,-0.017,-0.138,0,0,0,269.07,0,0,0,0,0,0,0,0,0,0,0,0,0,3,3,88.3,FLYING
88.65,APPROACH,ILS_TRACK,159.3,160,0.7,1598.61,-9.23,6.38,9.37,270.4,0.039,0.2695,20,270.38,-3.138,0.25,0.46,29.19,-0.016,-0.138,0,0,0,269.07,0,0,0,0,0,0,0,0,0,0,0,0,0,3,3,88.72,FLYING
89.07,APPROACH,ILS_TRACK,159.31,160,0.69,1594.73,-9.23,6.38,9.37,270.4,0.039,0.2692,20,270.38,-3.138,0.26,0.46,29.116,-0.016,-0.138,0,0,0,269.07,0,0,0,0,0,0,0,0,0,0,0,0,0,3,3,89.14,FLYING
89.56,APPROACH,ILS_TRACK,159.32,160,0.68,1590.2,-9.23,6.38,9.37,270.4,0.038,0.2689,20,270.38,-3.138,0.27,0.46,29.029,-0.016,-0.138,0,0,0,269.07,0,0,0,0,0,0,0,0,0,0,0,0,0,3,3,89.63,FLYING
89.98,APPROACH,ILS_TRACK,159.33,160,0.67,1586.32,-9.23,6.38,9.37,270.4,0.039,0.2686,20,270.38,-3.138,0.29,0.46,28.955,-0.018,-0.138,0,0,0,269.07,0,0,0,0,0,0,0,0,0,0,0,0,0,3,3,90.05,FLYING
90.4,APPROACH,ILS_TRACK,159.34,160,0.66,1582.45,-9.23,6.38,9.36,270.4,0.039,0.2683,20,270.38,-3.138,0.29,0.46,28.881,-0.016,-0.138,0,0,0,269.07,0,0,0,0,0,0,0,0,0,0,0,0,0,3,3,90.47,FLYING
90.89,APPROACH,ILS_TRACK,159.34,160,0.66,1577.98,-9.22,6.37,9.36,270.4,0.028,0.2681,20,270.39,-3.139,0.3,0.46,28.795,-0.014,-0.139,0,0,0,269.07,0,0,0,0,0,0,0,0,0,0,0,0,0,3,3,90.95,FLYING
91.28,APPROACH,ILS_TRACK,159.35,160,0.65,1574.38,-9.2,6.33,9.32,270.4,0.011,0.2679,20,270.38,-3.132,0.31,0.46,28.724,-0.021,-0.132,0,0,0,269.07,0,0,0,0,0,0,0,0,0,0,0,0,0,3,3,91.34,FLYING
91.62,APPROACH,ILS_TRACK,159.36,160,0.64,1571.18,-9.17,6.27,9.25,270.4,0.008,0.2671,20,270.38,-3.131,0.32,0.46,28.661,-0.02,-0.131,0,0,0,269.07,0,0,0,0,0,0,0,0,0,0,0,0,0,3,3,91.67,FLYING
91.98,APPROACH,ILS_TRACK,159.38,160,0.62,1567.85,-9.19,6.22,9.21,270.41,-0.004,0.2654,20,270.39,-3.13,0.32,0.45,28.593,-0.013,-0.13,0,0,0,269.07,0,0,0,0,0,0,0,0,0,0,0,0,0,3,3,92.03,FLYING
92.28,APPROACH,ILS_TRACK,159.39,160,0.61,1565.17,-9.16,6.2,9.18,270.41,-0.001,0.2631,20,270.38,-3.162,0.33,0.46,28.54,-0.017,-0.162,0,0,0,269.07,0,0,0,0,0,0,0,0,0,0,0,0,0,3,3,92.32,FLYING
92.55,APPROACH,ILS_TRACK,159.41,160,0.59,1562.65,-9.24,6.2,9.19,270.41,0.005,0.2608,20,270.38,-3.132,0.33,0.46,28.491,-0.018,-0.132,0,0,0,269.07,0,0,0,0,0,0,0,0,0,0,0,0,0,3,3,92.59,FLYING
92.81,APPROACH,ILS_TRACK,159.42,160,0.58,1560.26,-9.18,6.22,9.2,270.41,0.015,0.2599,20,270.38,-3.189,0.34,0.48,28.444,-0.022,-0.189,0,0,0,269.07,0,0,0,0,0,0,0,0,0,0,0,0,0,3,3,92.85,FLYING
93.11,APPROACH,ILS_TRACK,159.44,160,0.56,1557.48,-9.25,6.14,9.13,270.4,0.031,0.2585,20,270.38,-3.112,0.35,0.46,28.391,-0.019,-0.112,0,0,0,269.07,0,0,0,0,0,0,0,0,0,0,0,0,0,3,3,93.15,FLYING
93.37,APPROACH,ILS_TRACK,159.44,160,0.56,1555.1,-9.18,6.21,9.2,270.4,0.033,0.2592,20,270.38,-3.197,0.35,0.48,28.346,-0.016,-0.197,0,0,0,269.07,0,0,0,0,0,0,0,0,0,0,0,0,0,3,3,93.41,FLYING
93.63,APPROACH,ILS_TRACK,159.45,160,0.55,1552.68,-9.23,6.1,9.09,270.4,0.036,0.259,20,270.38,-3.093,0.35,0.47,28.3,-0.016,-0.093,0,0,0,269.07,0,0,0,0,0,0,0,0,0,0,0,0,0,3,3,93.67,FLYING
93.89,APPROACH,ILS_TRACK,159.45,160,0.55,1550.3,-9.23,6.2,9.2,270.4,0.036,0.2599,20,270.38,-3.159,0.36,0.47,28.254,-0.02,-0.159,0,0,0,269.07,0,0,0,0,0,0,0,0,0,0,0,0,0,3,3,93.93,FLYING
94.19,APPROACH,ILS_TRACK,159.45,160,0.55,1547.53,-9.3,6.21,9.21,270.4,0.036,0.2611,20,270.38,-3.13,0.36,0.47,28.201,-0.016,-0.13,0,0,0,269.07,0,0,0,0,0,0,0,0,0,0,0,0,0,3,3,94.23,FLYING
94.45,APPROACH,ILS_TRACK,159.45,160,0.55,1545.12,-9.22,6.2,9.19,270.4,0.037,0.2634,20,270.39,-3.155,0.36,0.47,28.156,-0.013,-0.155,0,0,0,269.07,0,0,0,0,0,0,0,0,0,0,0,0,0,3,3,94.49,FLYING
94.71,APPROACH,ILS_TRACK,159.45,160,0.55,1542.72,-9.24,6.2,9.2,270.4,0.036,0.2643,20,270.39,-3.114,0.36,0.46,28.11,-0.012,-0.114,0,0,0,269.07,0,0,0,0,0,0,0,0,0,0,0,0,0,3,3,94.75,FLYING
94.97,APPROACH,ILS_TRACK,159.44,160,0.56,1540.33,-9.17,6.25,9.24,270.4,0.035,0.2657,20,270.38,-3.164,0.36,0.47,28.064,-0.018,-0.164,0,0,0,269.07,0,0,0,0,0,0,0,0,0,0,0,0,0,3,3,95.01,FLYING
95.27,APPROACH,ILS_TRACK,159.44,160,0.56,1537.54,-9.27,6.14,9.14,270.4,0.034,0.2669,20,270.39,-3.055,0.36,0.44,28.011,-0.013,-0.055,0,0,0,269.07,0,0,0,0,0,0,0,0,0,0,0,0,0,3,3,95.31,FLYING
95.53,APPROACH,ILS_TRACK,159.44,160,0.56,1535.15,-9.21,6.23,9.23,270.4,0.033,0.2683,20,270.39,-3.166,0.36,0.45,27.966,-0.012,-0.166,0,0,0,269.07,0,0,0,0,0,0,0,0,0,0,0,0,0,3,3,95.57,FLYING
95.79,APPROACH,ILS_TRACK,159.44,160,0.56,1532.74,-9.25,6.15,9.14,270.4,0.032,0.268,20,270.38,-3.081,0.36,0.44,27.92,-0.016,-0.081,0,0,0,269.07,0,0,0,0,0,0,0,0,0,0,0,0,0,3,3,95.83,FLYING
96.05,APPROACH,ILS_TRACK,159.44,160,0.56,1530.35,-9.22,6.22,9.22,270.4,0.033,0.2683,20,270.39,-3.139,0.36,0.44,27.874,-0.011,-0.139,0,0,0,269.07,0,0,0,0,0,0,0,0,0,0,0,0,0,3,3,96.09,FLYING
96.35,APPROACH,ILS_TRACK,159.44,160,0.56,1527.58,-9.27,6.22,9.22,270.39,0.032,0.2678,20,270.39,-3.093,0.36,0.43,27.822,-0.014,-0.093,0,0,0,269.07,0,0,0,0,0,0,0,0,0,0,0,0,0,3,3,96.39,FLYING
96.61,APPROACH,ILS_TRACK,159.44,160,0.56,1525.18,-9.2,6.23,9.22,270.39,0.031,0.2675,20,270.39,-3.136,0.35,0.43,27.776,-0.01,-0.136,0,0,0,269.07,0,0,0,0,0,0,0,0,0,0,0,0,0,3,3,96.65,FLYING
96.87,APPROACH,ILS_TRACK,159.44,160,0.56,1522.78,-9.29,6.22,9.22,270.39,0.029,0.2666,20,270.39,-3.077,0.34,0.41,27.73,-0.007,-0.077,0,0,0,269.07,0,0,0,0,0,0,0,0,0,0,0,0,0,3,3,96.91,FLYING
97.13,APPROACH,ILS_TRACK,159.44,160,0.56,1520.38,-9.19,6.22,9.21,270.39,0.026,0.2677,20,270.38,-3.143,0.35,0.42,27.685,-0.016,-0.143,0,0,0,269.07,0,0,0,0,0,0,0,0,0,0,0,0,0,3,3,97.17,FLYING
97.43,APPROACH,ILS_TRACK,159.45,160,0.55,1517.61,-9.22,6.2,9.19,270.39,0.025,0.2666,20,270.39,-3.087,0.34,0.41,27.632,-0.01,-0.087,0,0,0,269.07,0,0,0,0,0,0,0,0,0,0,0,0,0,3,3,97.47,FLYING
97.69,APPROACH,ILS_TRACK,159.45,160,0.55,1515.22,-9.19,6.22,9.21,270.39,0.023,0.2657,20,270.39,-3.126,0.34,0.41,27.586,-0.008,-0.126,0,0,0,269.07,0,0,0,0,0,0,0,0,0,0,0,0,0,3,3,97.73,FLYING
97.95,APPROACH,ILS_TRACK,159.46,160,0.54,1512.81,-9.24,6.19,9.19,270.39,0.02,0.2646,20,270.4,-3.085,0.33,0.4,27.541,-0.005,-0.085,0,0,0,269.07,0,0,0,0,0,0,0,0,0,0,0,0,0,3,3,97.99,FLYING
98.21,APPROACH,ILS_TRACK,159.46,160,0.54,1510.43,-9.19,6.23,9.22,270.39,0.018,0.264,20,270.39,-3.135,0.32,0.4,27.495,-0.011,-0.135,0,0,0,269.07,0,0,0,0,0,0,0,0,0,0,0,0,0,3,3,98.25,FLYING
98.51,APPROACH,ILS_TRACK,159.47,160,0.53,1507.66,-9.25,6.2,9.2,270.39,0.017,0.2631,20,270.4,-3.089,0.31,0.39,27.442,-0.004,-0.089,0,0,0,269.07,0,0,0,0,0,0,0,0,0,0,0,0,0,3,3,98.55,FLYING
98.77,APPROACH,ILS_TRACK,159.47,160,0.53,1505.27,-9.17,6.22,9.21,270.39,0.016,0.2634,20,270.39,-3.149,0.31,0.4,27.397,-0.01,-0.149,0,0,0,269.07,0,0,0,0,0,0,0,0,0,0,0,0,0,3,3,98.81,FLYING
99.03,APPROACH,ILS_TRACK,159.48,160,0.52,1502.87,-9.24,6.17,9.17,270.39,0.015,0.2624,20,270.4,-3.071,0.3,0.39,27.351,-0.003,-0.071,0,0,0,269.07,0,0,0,0,0,0,0,0,0,0,0,0,0,3,3,99.07,FLYING
99.29,APPROACH,ILS_TRACK,159.48,160,0.52,1500.48,-9.16,6.22,9.21,270.39,0.014,0.2633,20,270.4,-3.155,0.29,0.4,27.305,-0.004,-0.155,0,0,0,269.07,0,0,0,0,0,0,0,0,0,0,0,0,0,3,3,99.33,FLYING
99.59,APPROACH,ILS_TRACK,159.48,160,0.52,1497.71,-9.25,6.17,9.17,270.39,0.013,0.2626,20,270.39,-3.07,0.29,0.38,27.253,-0.009,-0.07,0,0,0,269.07,0,0,0,0,0,0,0,0,0,0,0,0,0,3,3,99.63,FLYING
99.85,APPROACH,ILS_TRACK,159.48,160,0.52,1495.33,-9.16,6.22,9.21,270.39,0.012,0.2636,20,270.4,-3.159,0.28,0.39,27.207,0.002,-0.159,0,0,0,269.07,0,0,0,0,0,0,0,0,0,0,0,0,0,3,3,99.89,FLYING
100.11,APPROACH,ILS_TRACK,159.49,160,0.51,1492.92,-9.22,6.13,9.12,270.39,0.008,0.263,20,270.4,-3.061,0.27,0.38,27.161,-0.002,-0.061,0,0,0,269.07,0,0,0,0,0,0,0,0,0,0,0,0,0,3,3,100.15,FLYING
100.37,APPROACH,ILS_TRACK,159.48,160,0.52,1490.54,-9.18,6.21,9.2,270.39,0.008,0.2636,20,270.4,-3.139,0.26,0.38,27.116,-0.003,-0.139,0,0,0,269.07,0,0,0,0,0,0,0,0,0,0,0,0,0,3,3,100.41,FLYING
100.67,APPROACH,ILS_TRACK,159.49,160,0.51,1487.77,-9.19,6.18,9.18,270.39,0.005,0.2633,20,270.4,-3.089,0.25,0.38,27.063,-0.001,-0.089,0,0,0,269.07,0,0,0,0,0,0,0,0,0,0,0,0,0,3,3,100.71,FLYING
100.93,APPROACH,ILS_TRACK,159.49,160,0.51,1485.37,-9.24,6.14,9.14,270.39,0.003,0.2629,20,270.4,-3.079,0.24,0.37,27.017,0,-0.079,0,0,0,269.07,0,0,0,0,0,0,0,0,0,0,0,0,0,3,3,100.97,FLYING
101.19,APPROACH,ILS_TRACK,159.49,160,0.51,1483,-9.15,6.23,9.22,270.39,0.002,0.2643,20,270.4,-3.169,0.23,0.38,26.972,0,-0.169,0,0,0,269.07,0,0,0,0,0,0,0,0,0,0,0,0,0,3,3,101.23,FLYING
101.45,APPROACH,ILS_TRACK,159.49,160,0.51,1480.58,-9.21,6.11,9.1,270.39,-0.002,0.2649,20,270.41,-3.029,0.22,0.36,26.926,0.006,-0.029,0,0,0,269.07,0,0,0,0,0,0,0,0,0,0,0,0,0,3,3,101.49,FLYING
101.75,APPROACH,ILS_TRACK,159.48,160,0.52,1477.84,-9.17,6.22,9.22,270.39,-0.003,0.2659,20,270.4,-3.138,0.21,0.37,26.874,-0.005,-0.138,0,0,0,269.07,0,0,0,0,0,0,0,0,0,0,0,0,0,3,3,101.79,FLYING
102.01,APPROACH,ILS_TRACK,159.48,160,0.52,1475.43,-9.23,6.16,9.16,270.39,-0.004,0.2657,20,270.4,-3.059,0.2,0.35,26.828,0,-0.059,0,0,0,269.07,0,0,0,0,0,0,0,0,0,0,0,0,0,3,3,102.05,FLYING
102.27,APPROACH,ILS_TRACK,159.48,160,0.52,1473.05,-9.17,6.22,9.21,270.39,-0.004,0.2661,20,270.4,-3.131,0.19,0.36,26.783,0.001,-0.131,0,0,0,269.07,0,0,0,0,0,0,0,0,0,0,0,0,0,3,3,102.31,FLYING
102.53,APPROACH,ILS_TRACK,159.49,160,0.51,1470.65,-9.24,6.18,9.18,270.39,-0.006,0.2652,20,270.4,-3.06,0.18,0.35,26.737,0.004,-0.06,0,0,0,269.07,0,0,0,0,0,0,0,0,0,0,0,0,0,3,3,102.57,FLYING
102.83,APPROACH,ILS_TRACK,159.49,160,0.51,1467.9,-9.17,6.23,9.22,270.39,-0.007,0.2652,20,270.4,-3.125,0.17,0.35,26.684,0.002,-0.125,0,0,0,269.07,0,0,0,0,0,0,0,0,0,0,0,0,0,3,3,102.87,FLYING
103.09,APPROACH,ILS_TRACK,159.49,160,0.51,1465.51,-9.22,6.19,9.18,270.39,-0.008,0.2644,20,270.41,-3.073,0.16,0.34,26.639,0.009,-0.073,0,0,0,269.07,0,0,0,0,0,0,0,0,0,0,0,0,0,3,3,103.13,FLYING
103.35,APPROACH,ILS_TRACK,159.49,160,0.51,1463.12,-9.13,6.2,9.19,270.39,-0.007,0.2652,20,270.4,-3.138,0.15,0.35,26.593,0.002,-0.138,0,0,0,269.07,0,0,0,0,0,0,0,0,0,0,0,0,0,3,3,103.39,FLYING
103.61,APPROACH,ILS_TRACK,159.49,160,0.51,1460.74,-9.22,6.2,9.2,270.39,-0.008,0.2643,20,270.41,-3.063,0.14,0.34,26.548,0.007,-0.063,0,0,0,269.07,0,0,0,0,0,0,0,0,0,0,0,0,0,3,3,103.65,FLYING
103.91,APPROACH,ILS_TRACK,159.49,160,0.51,1457.99,-9.13,6.22,9.2,270.39,-0.009,0.2643,20,270.4,-3.145,0.13,0.36,26.495,-0.002,-0.145,0,0,0,269.07,0,0,0,0,0,0,0,0,0,0,0,0,0,3,3,103.95,FLYING
104.17,APPROACH,ILS_TRACK,159.5,160,0.5,1455.59,-9.2,6.16,9.15,270.39,-0.009,0.2632,20,270.41,-3.066,0.11,0.34,26.45,0.013,-0.066,0,0,0,269.07,0,0,0,0,0,0,0,0,0,0,0,0,0,3,3,104.21,FLYING
104.43,APPROACH,ILS_TRACK,159.5,160,0.5,1453.22,-9.13,6.21,9.2,270.39,-0.011,0.2635,20,270.4,-3.15,0.11,0.36,26.404,0.004,-0.15,0,0,0,269.07,0,0,0,0,0,0,0,0,0,0,0,0,0,3,3,104.47,FLYING
