t_s,phase,subphase,ias_ms,vapp_ms,spd_err_ms,agl_m,vs_ms,pitch_deg,aoa_deg,hdg_deg,bank_deg,thr_cmd,thr_intg,aa_hdg_cmd_deg,aa_fpa_cmd_deg,ils_loc_m,ils_gs_m,ils_dist_km,loc_corr_deg,gs_corr_deg,flare_fpa_cmd,flare_tgt_vs,flare_frac,steer_hdg_deg,steer_blend,ro_loc_corr_deg,ro_hdg_err_deg,ro_yaw_tgt,ro_yaw_scale,ro_yaw_gate,yaw_cmd,roll_cmd,pitch_cmd,ro_pitch_tgt_deg,ro_pitch_err_deg,ro_pitch_ff,ro_roll_assist,flaps_cur,flaps_tgt,phase_el_s,status
1.02,APPROACH,FLY_TO_FIX,82.55,80.4,-2.15,541.97,-1.38,5.3,6.2,98.76,1.469,0,-1.075,271.16,4.789,0,0,0,0,0,0,0,0,98.94,0,0,0,0,0,0,0,0,0,0,0,0,0,1,3,1.06,FLYING
1.8,APPROACH,FLY_TO_FIX,82.34,80.8,-1.54,540.82,-1.64,5.49,6.58,98.97,-1.554,0,-1.849,271.18,4.795,0,0,0,0,0,0,0,0,98.94,0,0,0,0,0,0,0,0,0,0,0,0,0,2,3,1.84,FLYING
2.58,APPROACH,FLY_TO_FIX,82.02,81.2,-0.82,539.1,-2.42,3.86,5.43,99.49,-4.44,0,-2.26,271.21,4.804,0,0,0,0,0,0,0,0,98.94,0,0,0,0,0,0,0,0,0,0,0,0,0,3,3,2.62,FLYING
3.36,APPROACH,FLY_TO_FIX,81.66,81.6,-0.06,536.45,-3.27,0.6,2.91,99.63,-5.445,0.0435,-2.296,271.23,4.815,0,0,0,0,0,0,0,0,98.94,0,0,0,0,0,0,0,0,0,0,0,0,0,3,3,3.4,FLYING
3.86,APPROACH,FLY_TO_FIX,81.66,82,0.34,533.94,-5.71,-0.98,2.79,100,-8.251,0.0519,-2.128,271.25,4.83,0,0,0,0,0,0,0,0,98.94,0,0,0,0,0,0,0,0,0,0,0,0,0,3,3,3.87,FLYING
3.96,APPROACH,FLY_TO_FIX,81.68,82.1,0.43,533.42,-6.1,-0.47,3.56,100.16,-8.541,0.0404,-2.071,271.25,4.832,0,0,0,0,0,0,0,0,98.94,0,0,0,0,0,0,0,0,0,0,0,0,0,3,3,3.97,FLYING
4.31,APPROACH,FLY_TO_FIX,81.67,82.31,0.63,531.49,-6.78,1.72,6.19,100.87,-9.265,0.0429,-1.912,271.26,4.841,0,0,0,0,0,0,0,0,98.94,0,0,0,0,0,0,0,0,0,0,0,0,0,3,3,4.34,FLYING
4.84,APPROACH,FLY_TO_FIX,81.43,82.68,1.25,528.37,-6.57,4,8.46,102.02,-11.187,0.0969,-1.339,271.27,4.855,0,0,0,0,0,0,0,0,98.94,0,0,0,0,0,0,0,0,0,0,0,0,0,3,3,4.87,FLYING
6.21,APPROACH,FLY_TO_FIX,80.38,83.08,2.7,520.88,-5.1,7.49,11.5,107.51,-23.733,0.2604,-0.064,271.31,4.887,0,0,0,0,0,0,0,0,98.94,0,0,0,0,0,0,0,0,0,0,0,0,0,3,3,6.36,FLYING
8.92,APPROACH,FLY_TO_FIX,75.81,83.48,7.67,512.91,-2,9.7,13.49,123.55,-33.969,0.4604,3.626,271.46,4.931,0,0,0,0,0,0,0,0,98.94,0,0,0,0,0,0,0,0,0,0,0,0,0,3,3,9.08,FLYING
11.8,APPROACH,FLY_TO_FIX,71.2,83.88,12.68,509.25,-0.92,11.65,13.77,134.72,-26.34,0.6604,9.857,271.72,4.952,0,0,0,0,0,0,0,0,98.94,0,0,0,0,0,0,0,0,0,0,0,0,0,3,3,11.96,FLYING
14.6,APPROACH,FLY_TO_FIX,68.16,84,15.84,507.73,-0.36,12.81,13.93,142.82,-20.678,0.8604,17.712,272.04,4.961,0,0,0,0,0,0,0,0,98.94,0,0,0,0,0,0,0,0,0,0,0,0,0,3,3,14.76,FLYING
17.4,APPROACH,FLY_TO_FIX,66.78,84,17.22,507.39,0.04,13.33,13.99,150.13,-18.595,1,20,272.4,4.963,0,0,0,0,0,0,0,0,98.94,0,0,0,0,0,0,0,0,0,0,0,0,0,3,3,17.56,FLYING
20.28,APPROACH,FLY_TO_FIX,67.11,84,16.89,508.43,0.73,13.59,13.74,157.98,-19.237,1,20,272.8,4.959,0,0,0,0,0,0,0,0,98.94,0,0,0,0,0,0,0,0,0,0,0,0,0,3,3,20.44,FLYING
23.16,APPROACH,FLY_TO_FIX,68.85,84,15.15,512.37,2.03,13.83,13.29,167.44,-23.01,1,20,273.24,4.942,0,0,0,0,0,0,0,0,98.94,0,0,0,0,0,0,0,0,0,0,0,0,0,3,3,23.32,FLYING
26.04,APPROACH,FLY_TO_FIX,71.36,84,12.64,520.8,3.79,14.14,12.82,179.17,-28.384,0.8,20,273.72,4.903,0,0,0,0,0,0,0,0,98.94,0,0,0,0,0,0,0,0,0,0,0,0,0,3,3,26.2,FLYING
28.92,APPROACH,FLY_TO_FIX,73.99,84,10.01,534.56,5.63,14.45,12.53,193.37,-34.059,0.6,20,274.24,4.838,0,0,0,0,0,0,0,0,98.94,0,0,0,0,0,0,0,0,0,0,0,0,0,3,3,29.08,FLYING
31.8,APPROACH,FLY_TO_FIX,75.94,84,8.06,552.9,6.9,14.54,12.41,209.61,-38.791,0.4,20,274.78,4.749,0,0,0,0,0,0,0,0,98.94,0,0,0,0,0,0,0,0,0,0,0,0,0,3,3,31.96,FLYING
34.68,APPROACH,FLY_TO_FIX,76.39,84,7.61,573.11,6.91,14.24,12.52,227.01,-41.436,0.2828,20,275.29,4.648,0,0,0,0,0,0,0,0,98.94,0,0,0,0,0,0,0,0,0,0,0,0,0,3,3,34.84,FLYING
37.48,APPROACH,FLY_TO_FIX,75.11,84,8.89,591.21,6.13,14.12,11.71,240.53,-33.632,0.4694,20,275.71,4.556,0,0,0,0,0,0,0,0,98.94,0,0,0,0,0,0,0,0,0,0,0,0,0,3,3,37.64,FLYING
40.36,APPROACH,FLY_TO_FIX,73.64,84,10.36,608.02,5.6,14.03,11.22,251.08,-27.897,0.6501,20,276.04,4.471,0,0,0,0,0,0,0,0,98.94,0,0,0,0,0,0,0,0,0,0,0,0,0,3,3,40.52,FLYING
43.16,APPROACH,FLY_TO_FIX,73.1,84,10.9,623.17,5.35,13.76,10.41,258.06,-19.377,0.7029,20,276.28,4.395,0,0,0,0,0,0,0,0,98.94,0,0,0,0,0,0,0,0,0,0,0,0,0,3,3,43.32,FLYING
46.04,APPROACH,FLY_TO_FIX,73.71,84,10.29,638.51,5.38,13.24,9.69,263.81,-15.782,0.6302,20,276.46,4.318,0,0,0,0,0,0,0,0,98.94,0,0,0,0,0,0,0,0,0,0,0,0,0,3,3,46.2,FLYING
48.92,APPROACH,FLY_TO_FIX,75.19,84,8.81,654.12,5.54,12.6,8.85,267.94,-11.735,0.483,20,276.59,4.24,0,0,0,0,0,0,0,0,98.94,0,0,0,0,0,0,0,0,0,0,0,0,0,3,3,49.08,FLYING
51.72,APPROACH,FLY_TO_FIX,76.95,84,7.05,669.84,5.75,12.06,8.17,270.84,-8.53,0.3158,20,276.68,4.162,0,0,0,0,0,0,0,0,98.94,0,0,0,0,0,0,0,0,0,0,0,0,0,3,3,51.88,FLYING
54.52,APPROACH,FLY_TO_FIX,78,84,6,686.08,5.84,11.88,7.92,272.86,-5.894,0.2032,20,276.74,4.081,0,0,0,0,0,0,0,0,98.94,0,0,0,0,0,0,0,0,0,0,0,0,0,3,3,54.68,FLYING
57.4,APPROACH,FLY_TO_FIX,77.32,84,6.68,703.25,5.67,12.24,8.32,274.33,-3.886,0.3624,20,276.79,3.995,0,0,0,0,0,0,0,0,98.94,0,0,0,0,0,0,0,0,0,0,0,0,0,2,2,57.56,FLYING
60.44,APPROACH,FLY_TO_FIX,75.82,84,8.18,719.56,5.35,13.15,9.38,275.29,-2.414,0.5624,20,276.82,3.913,0,0,0,0,0,0,0,0,98.94,0,0,0,0,0,0,0,0,0,0,0,0,0,2,2,60.6,FLYING
63.24,APPROACH,FLY_TO_FIX,74.95,84,9.05,734.58,5.36,13.39,9.59,275.85,-1.559,0.6902,20,276.83,3.838,0,0,0,0,0,0,0,0,98.94,0,0,0,0,0,0,0,0,0,0,0,0,0,2,2,63.4,FLYING
66.12,APPROACH,FLY_TO_FIX,74.83,84,9.17,750.05,5.41,13.29,9.46,276.22,-1.005,0.6921,20,276.85,3.761,0,0,0,0,0,0,0,0,98.94,0,0,0,0,0,0,0,0,0,0,0,0,0,2,2,66.28,FLYING
69,APPROACH,FLY_TO_FIX,75.68,84,8.32,765.71,5.52,12.89,9.05,276.45,-0.633,0.5968,20,276.85,3.682,0,0,0,0,0,0,0,0,98.94,0,0,0,0,0,0,0,0,0,0,0,0,0,2,2,69.16,FLYING
71.88,APPROACH,FLY_TO_FIX,77.27,84,6.73,781.82,5.74,12.38,8.48,276.58,-0.36,0.4109,20,276.86,3.602,0,0,0,0,0,0,0,0,98.94,0,0,0,0,0,0,0,0,0,0,0,0,0,2,2,72.04,FLYING
74.68,APPROACH,FLY_TO_FIX,78.92,84,5.08,798.07,5.9,11.92,7.99,276.67,-0.239,0.2109,20,276.86,3.521,0,0,0,0,0,0,0,0,98.94,0,0,0,0,0,0,0,0,0,0,0,0,0,2,2,74.84,FLYING
77.48,APPROACH,FLY_TO_FIX,79.5,84,4.5,814.49,5.8,11.87,7.99,276.73,-0.17,0.1538,20,276.87,3.439,0,0,0,0,0,0,0,0,98.94,0,0,0,0,0,0,0,0,0,0,0,0,0,2,2,77.64,FLYING
80.28,APPROACH,FLY_TO_FIX,78.25,84,5.75,830.36,5.47,12.3,8.56,276.78,-0.111,0.3538,20,276.87,3.359,0,0,0,0,0,0,0,0,98.94,0,0,0,0,0,0,0,0,0,0,0,0,0,2,2,80.44,FLYING
83.08,APPROACH,FLY_TO_FIX,76.15,84,7.85,845.24,5.12,12.87,9.28,276.81,-0.072,0.5538,20,276.87,3.284,0,0,0,0,0,0,0,0,98.94,0,0,0,0,0,0,0,0,0,0,0,0,0,2,2,83.24,FLYING
85.96,APPROACH,FLY_TO_FIX,74.42,84,9.58,859.65,4.87,13.31,9.84,276.84,-0.05,0.7538,20,276.87,3.212,0,0,0,0,0,0,0,0,98.94,0,0,0,0,0,0,0,0,0,0,0,0,0,2,2,86.12,FLYING
88.76,APPROACH,FLY_TO_FIX,73.64,84,10.36,873.14,4.79,13.41,9.98,276.86,-0.04,0.9075,20,276.87,3.144,0,0,0,0,0,0,0,0,98.94,0,0,0,0,0,0,0,0,0,0,0,0,0,2,2,88.92,FLYING
91.56,APPROACH,FLY_TO_FIX,74.14,84,9.86,886.59,4.89,13.03,9.58,276.88,-0.037,0.8066,20,276.87,3.077,0,0,0,0,0,0,0,0,98.94,0,0,0,0,0,0,0,0,0,0,0,0,0,2,2,91.72,FLYING
94.36,APPROACH,FLY_TO_FIX,75.97,84,8.03,900.46,5.11,12.27,8.77,276.89,-0.021,0.6066,20,276.87,3.008,0,0,0,0,0,0,0,0,98.94,0,0,0,0,0,0,0,0,0,0,0,0,0,2,2,94.52,FLYING
97.16,APPROACH,FLY_TO_FIX,78.6,84,5.4,914.94,5.33,11.42,7.89,276.9,-0.007,0.4066,20,276.87,2.936,0,0,0,0,0,0,0,0,98.94,0,0,0,0,0,0,0,0,0,0,0,0,0,2,2,97.32,FLYING
99.96,APPROACH,FLY_TO_FIX,81.12,84,2.88,929.9,5.42,10.75,7.26,276.91,0.004,0.2066,20,276.87,2.861,0,0,0,0,0,0,0,0,98.94,0,0,0,0,0,0,0,0,0,0,0,0,0,2,2,100.12,FLYING
102.76,APPROACH,FLY_TO_FIX,82.24,84,1.76,944.84,5.26,10.51,7.15,276.91,0.012,0.0066,20,276.87,2.786,0,0,0,0,0,0,0,0,98.94,0,0,0,0,0,0,0,0,0,0,0,0,0,2,2,102.92,FLYING
105.56,APPROACH,FLY_TO_FIX,80.93,84,3.07,959.03,4.81,10.98,7.82,276.91,0.006,0.0961,20,276.87,2.715,0,0,0,0,0,0,0,0,98.94,0,0,0,0,0,0,0,0,0,0,0,0,0,2,2,105.72,FLYING
108.36,APPROACH,FLY_TO_FIX,77.6,84,6.4,971.91,4.29,11.99,9.02,276.92,0.002,0.2961,20,276.87,2.649,0,0,0,0,0,0,0,0,98.94,0,0,0,0,0,0,0,0,0,0,0,0,0,2,2,108.52,FLYING
111.16,APPROACH,FLY_TO_FIX,73.9,84,10.1,983.43,3.82,13.18,10.41,276.93,-0.01,0.4961,20,276.87,2.591,0,0,0,0,0,0,0,0,98.94,0,0,0,0,0,0,0,0,0,0,0,0,0,2,2,111.32,FLYING
114.04,APPROACH,FLY_TO_FIX,70.54,84,13.46,994.05,3.44,14.38,11.76,276.94,-0.012,0.6961,20,276.87,2.537,0,0,0,0,0,0,0,0,98.94,0,0,0,0,0,0,0,0,0,0,0,0,0,2,2,114.2,FLYING
116.84,APPROACH,FLY_TO_FIX,68.13,84,15.87,1003.45,3.2,15.19,12.72,276.96,-0.016,0.8961,20,276.87,2.489,0,0,0,0,0,0,0,0,98.94,0,0,0,0,0,0,0,0,0,0,0,0,0,2,2,117,FLYING
119.72,APPROACH,FLY_TO_FIX,67,84,17,1012.54,3.13,15.42,12.99,276.97,-0.015,1,20,276.87,2.444,0,0,0,0,0,0,0,0,98.94,0,0,0,0,0,0,0,0,0,0,0,0,0,2,2,119.88,FLYING
122.6,APPROACH,FLY_TO_FIX,67.54,84,16.46,1021.68,3.3,14.88,12.35,276.98,-0.012,1,20,276.87,2.398,0,0,0,0,0,0,0,0,98.94,0,0,0,0,0,0,0,0,0,0,0,0,0,2,2,122.76,FLYING
125.48,APPROACH,FLY_TO_FIX,69.81,84,14.19,1031.41,3.6,13.64,11.02,276.98,0.01,0.8512,20,276.87,2.35,0,0,0,0,0,0,0,0,98.94,0,0,0,0,0,0,0,0,0,0,0,0,0,2,2,125.64,FLYING
128.36,APPROACH,FLY_TO_FIX,73.45,84,10.55,1042.05,3.95,12.17,9.43,276.97,0.04,0.6512,20,276.87,2.297,0,0,0,0,0,0,0,0,98.94,0,0,0,0,0,0,0,0,0,0,0,0,0,2,2,128.52,FLYING
131.24,APPROACH,FLY_TO_FIX,77.82,84,6.18,1053.67,4.27,10.79,7.98,276.96,0.062,0.4512,20,276.87,2.24,0,0,0,0,0,0,0,0,98.94,0,0,0,0,0,0,0,0,0,0,0,0,0,2,2,131.4,FLYING
134.04,APPROACH,FLY_TO_FIX,81.78,84,2.22,1065.8,4.48,9.81,6.99,276.95,0.069,0.2512,20,276.87,2.18,0,0,0,0,0,0,0,0,98.94,0,0,0,0,0,0,0,0,0,0,0,0,0,2,2,134.2,FLYING
136.84,APPROACH,FLY_TO_FIX,84.17,84,-0.17,1078.23,4.43,9.29,6.56,276.93,0.072,0.0512,19.953,276.87,2.118,0,0,0,0,0,0,0,0,98.94,0,0,0,0,0,0,0,0,0,0,0,0,0,2,2,137,FLYING
139.64,APPROACH,FLY_TO_FIX,84.07,84,-0.07,1090.21,4.1,9.4,6.84,276.92,0.061,0,19.877,276.87,2.057,0,0,0,0,0,0,0,0,98.94,0,0,0,0,0,0,0,0,0,0,0,0,0,2,2,139.8,FLYING
142.44,APPROACH,FLY_TO_FIX,81.51,84,2.49,1101.14,3.63,10.15,7.78,276.91,0.042,0,20,276.87,2.002,0,0,0,0,0,0,0,0,98.94,0,0,0,0,0,0,0,0,0,0,0,0,0,2,2,142.6,FLYING
145.32,APPROACH,FLY_TO_FIX,77.23,84,6.77,1111.06,3.11,11.52,9.34,276.91,0.024,0.2,20,276.87,1.951,0,0,0,0,0,0,0,0,98.94,0,0,0,0,0,0,0,0,0,0,0,0,0,2,2,145.48,FLYING
148.2,APPROACH,FLY_TO_FIX,72.31,84,11.69,1119.56,2.61,13.3,11.35,276.91,0.006,0.4,20,276.87,1.908,0,0,0,0,0,0,0,0,98.94,0,0,0,0,0,0,0,0,0,0,0,0,0,2,2,148.36,FLYING
151,APPROACH,FLY_TO_FIX,67.79,84,16.21,1126.54,2.16,15.24,13.5,276.93,-0.007,0.6,20,276.87,1.872,0,0,0,0,0,0,0,0,98.94,0,0,0,0,0,0,0,0,0,0,0,0,0,2,2,151.16,FLYING
153.8,APPROACH,FLY_TO_FIX,63.92,84,20.08,1132.2,1.69,16.32,14.94,276.94,-0.013,0.8,20,276.87,1.842,0,0,0,0,0,0,0,0,98.94,0,0,0,0,0,0,0,0,0,0,0,0,0,2,2,153.96,FLYING
156.6,APPROACH,FLY_TO_FIX,61.8,84,22.2,1134.55,0.05,14.98,14.94,276.96,-0.047,1,20,276.87,1.827,0,0,0,0,0,0,0,0,98.94,0,0,0,0,0,0,0,0,0,0,0,0,0,2,2,156.76,FLYING
159.48,APPROACH,FLY_TO_FIX,62.07,84,21.93,1131.84,-1.56,13.66,14.95,277,-0.07,1,20,276.87,1.838,0,0,0,0,0,0,0,0,98.94,0,0,0,0,0,0,0,0,0,0,0,0,0,2,2,159.64,FLYING
162.36,APPROACH,FLY_TO_FIX,64.31,84,19.69,1126.77,-1.56,13.4,14.69,277.02,-0.013,1,20,276.86,1.863,0,0,0,0,0,0,0,0,98.94,0,0,0,0,0,0,0,0,0,0,0,0,0,2,2,162.52,FLYING
165.24,APPROACH,FLY_TO_FIX,67.77,84,16.23,1123.78,-0.41,12.04,12.42,276.99,0.064,0.8,20,276.86,1.88,0,0,0,0,0,0,0,0,98.94,0,0,0,0,0,0,0,0,0,0,0,0,0,2,2,165.4,FLYING
168.04,APPROACH,FLY_TO_FIX,72.23,84,11.77,1123.84,0.57,10.62,10.27,276.97,0.077,0.6,20,276.86,1.882,0,0,0,0,0,0,0,0,98.94,0,0,0,0,0,0,0,0,0,0,0,0,0,2,2,168.2,FLYING
170.92,APPROACH,FLY_TO_FIX,77.26,84,6.74,1126.59,1.43,9.37,8.45,276.95,0.078,0.4,20,276.86,1.87,0,0,0,0,0,0,0,0,98.94,0,0,0,0,0,0,0,0,0,0,0,0,0,2,2,171.08,FLYING
173.72,APPROACH,FLY_TO_FIX,81.49,84,2.51,1131.5,2.12,8.66,7.35,276.94,0.08,0.2,20,276.86,1.847,0,0,0,0,0,0,0,0,98.94,0,0,0,0,0,0,0,0,0,0,0,0,0,2,2,173.88,FLYING
176.52,APPROACH,FLY_TO_FIX,83.76,84,0.24,1137.97,2.46,8.39,6.88,276.92,0.066,0,20,276.86,1.815,0,0,0,0,0,0,0,0,98.94,0,0,0,0,0,0,0,0,0,0,0,0,0,2,2,176.68,FLYING
179.4,APPROACH,FLY_TO_FIX,83.28,84,0.72,1145.15,2.43,8.78,7.23,276.91,0.048,0,20,276.86,1.779,0,0,0,0,0,0,0,0,98.94,0,0,0,0,0,0,0,0,0,0,0,0,0,2,2,179.56,FLYING
182.28,APPROACH,FLY_TO_FIX,80.29,84,3.71,1152,2.2,9.77,8.28,276.91,0.034,0.0201,20,276.86,1.745,0,0,0,0,0,0,0,0,98.94,0,0,0,0,0,0,0,0,0,0,0,0,0,2,2,182.44,FLYING
185.08,APPROACH,FLY_TO_FIX,76.14,84,7.86,1158.04,1.93,11.22,9.83,276.91,0.026,0.2201,20,276.85,1.714,0,0,0,0,0,0,0,0,98.94,0,0,0,0,0,0,0,0,0,0,0,0,0,2,2,185.24,FLYING
187.96,APPROACH,FLY_TO_FIX,71.45,84,12.55,1163.54,1.67,13.11,11.83,276.91,0.02,0.4201,20,276.85,1.686,0,0,0,0,0,0,0,0,98.94,0,0,0,0,0,0,0,0,0,0,0,0,0,2,2,188.12,FLYING
190.76,APPROACH,FLY_TO_FIX,67.13,84,16.87,1168.21,1.44,15.15,13.97,276.91,0.02,0.6201,20,276.85,1.662,0,0,0,0,0,0,0,0,98.94,0,0,0,0,0,0,0,0,0,0,0,0,0,2,2,190.92,FLYING
193.56,APPROACH,FLY_TO_FIX,63.52,84,20.48,1171.92,0.97,15.73,14.94,276.92,-0.011,0.8201,20,276.85,1.642,0,0,0,0,0,0,0,0,98.94,0,0,0,0,0,0,0,0,0,0,0,0,0,2,2,193.72,FLYING
196.36,APPROACH,FLY_TO_FIX,61.82,84,22.18,1172.11,-0.71,14.35,14.94,276.94,-0.041,1,20,276.85,1.638,0,0,0,0,0,0,0,0,98.94,0,0,0,0,0,0,0,0,0,0,0,0,0,2,2,196.52,FLYING
199.06,APPROACH,FLY_TO_FIX,62.38,84,21.62,1167.93,-2.01,13.21,14.89,276.97,-0.081,1,20,276.85,1.657,0,0,0,0,0,0,0,0,98.94,0,0,0,0,0,0,0,0,0,0,0,0,0,2,2,199.17,FLYING
200.09,APPROACH,FLY_TO_FIX,63.23,84,20.77,1165.75,-2.16,13.17,14.93,276.99,-0.078,1,20,276.85,1.67,0,0,0,0,0,0,0,0,98.94,0,0,0,0,0,0,0,0,0,0,0,0,0,2,2,200.13,FLYING
200.83,APPROACH,FLY_TO_FIX,63.84,84,20.16,1164.2,-2.06,13.25,14.91,276.99,-0.042,0.9838,20,276.85,1.678,0,0,0,0,0,0,0,0,98.94,0,0,0,0,0,0,0,0,0,0,0,0,0,2,2,200.87,FLYING
201.57,APPROACH,FLY_TO_FIX,64.51,84,19.49,1162.77,-1.79,13.23,14.67,276.98,-0.003,0.8435,20,276.85,1.685,0,0,0,0,0,0,0,0,98.94,0,0,0,0,0,0,0,0,0,0,0,0,0,2,2,201.61,FLYING
202.29,APPROACH,FLY_TO_FIX,65.23,84,18.77,1161.53,-1.52,12.95,14.16,276.97,0.026,0.7259,20,276.85,1.692,0,0,0,0,0,0,0,0,98.94,0,0,0,0,0,0,0,0,0,0,0,0,0,2,2,202.33,FLYING
203.01,APPROACH,FLY_TO_FIX,66.01,84,17.99,1160.49,-1.26,12.65,13.65,276.96,0.044,0.6257,20,276.85,1.697,0,0,0,0,0,0,0,0,98.94,0,0,0,0,0,0,0,0,0,0,0,0,0,2,2,203.05,FLYING
203.73,APPROACH,FLY_TO_FIX,66.83,84,17.17,1159.62,-1.02,12.37,13.16,276.95,0.055,0.5416,20,276.85,1.701,0,0,0,0,0,0,0,0,98.94,0,0,0,0,0,0,0,0,0,0,0,0,0,2,2,203.77,FLYING
204.47,APPROACH,FLY_TO_FIX,67.7,84,16.3,1158.92,-0.77,12.09,12.69,276.94,0.06,0.4698,20,276.85,1.705,0,0,0,0,0,0,0,0,98.94,0,0,0,0,0,0,0,0,0,0,0,0,0,2,2,204.51,FLYING
205.19,APPROACH,FLY_TO_FIX,68.54,84,15.46,1158.4,-0.55,11.84,12.26,276.93,0.065,0.4149,20,276.85,1.708,0,0,0,0,0,0,0,0,98.94,0,0,0,0,0,0,0,0,0,0,0,0,0,2,2,205.23,FLYING
205.91,APPROACH,FLY_TO_FIX,69.34,84,14.66,1158.05,-0.34,11.64,11.9,276.92,0.07,0.3747,20,276.85,1.71,0,0,0,0,0,0,0,0,98.94,0,0,0,0,0,0,0,0,0,0,0,0,0,2,2,205.95,FLYING
206.63,APPROACH,FLY_TO_FIX,70.07,84,13.93,1157.85,-0.14,11.45,11.57,276.91,0.074,0.3492,20,276.85,1.711,0,0,0,0,0,0,0,0,98.94,0,0,0,0,0,0,0,0,0,0,0,0,0,2,2,206.67,FLYING
207.35,APPROACH,FLY_TO_FIX,70.72,84,13.28,1157.8,0.03,11.33,11.31,276.91,0.077,0.337,20,276.85,1.711,0,0,0,0,0,0,0,0,98.94,0,0,0,0,0,0,0,0,0,0,0,0,0,2,2,207.39,FLYING
208.07,APPROACH,FLY_TO_FIX,71.28,84,12.72,1157.87,0.2,11.23,11.09,276.9,0.078,0.336,20,276.85,1.711,0,0,0,0,0,0,0,0,98.94,0,0,0,0,0,0,0,0,0,0,0,0,0,2,2,208.11,FLYING
208.79,APPROACH,FLY_TO_FIX,71.76,84,12.24,1158.06,0.36,11.16,10.91,276.89,0.078,0.3432,20,276.85,1.71,0,0,0,0,0,0,0,0,98.94,0,0,0,0,0,0,0,0,0,0,0,0,0,2,2,208.83,FLYING
209.51,APPROACH,FLY_TO_FIX,72.17,84,11.83,1158.37,0.51,11.1,10.74,276.88,0.072,0.3556,20,276.85,1.708,0,0,0,0,0,0,0,0,98.94,0,0,0,0,0,0,0,0,0,0,0,0,0,2,2,209.55,FLYING
210.23,APPROACH,FLY_TO_FIX,72.54,84,11.46,1158.78,0.65,11.05,10.59,276.87,0.067,0.3707,20,276.85,1.706,0,0,0,0,0,0,0,0,98.94,0,0,0,0,0,0,0,0,0,0,0,0,0,2,2,210.27,FLYING
210.95,APPROACH,FLY_TO_FIX,72.87,84,11.13,1159.29,0.79,11.01,10.45,276.87,0.062,0.3861,20,276.85,1.704,0,0,0,0,0,0,0,0,98.94,0,0,0,0,0,0,0,0,0,0,0,0,0,2,2,210.99,FLYING
211.67,APPROACH,FLY_TO_FIX,73.19,84,10.81,1159.9,0.91,10.95,10.31,276.86,0.057,0.4001,20,276.85,1.701,0,0,0,0,0,0,0,0,98.94,0,0,0,0,0,0,0,0,0,0,0,0,0,2,2,211.71,FLYING
212.39,APPROACH,FLY_TO_FIX,73.5,84,10.5,1160.59,1.03,10.89,10.17,276.86,0.051,0.4118,20,276.85,1.698,0,0,0,0,0,0,0,0,98.94,0,0,0,0,0,0,0,0,0,0,0,0,0,2,2,212.43,FLYING
213.11,APPROACH,FLY_TO_FIX,73.82,84,10.18,1161.36,1.15,10.83,10.03,276.85,0.046,0.4212,20,276.85,1.694,0,0,0,0,0,0,0,0,98.94,0,0,0,0,0,0,0,0,0,0,0,0,0,2,2,213.15,FLYING
213.83,APPROACH,FLY_TO_FIX,74.13,84,9.87,1162.22,1.25,10.76,9.89,276.85,0.042,0.4284,20,276.85,1.69,0,0,0,0,0,0,0,0,98.94,0,0,0,0,0,0,0,0,0,0,0,0,0,2,2,213.87,FLYING
214.55,APPROACH,FLY_TO_FIX,74.45,84,9.55,1163.14,1.35,10.69,9.76,276.84,0.036,0.4337,20,276.85,1.685,0,0,0,0,0,0,0,0,98.94,0,0,0,0,0,0,0,0,0,0,0,0,0,2,2,214.59,FLYING
215.27,APPROACH,FLY_TO_FIX,74.78,84,9.22,1164.14,1.45,10.62,9.62,276.84,0.032,0.4373,20,276.85,1.68,0,0,0,0,0,0,0,0,98.94,0,0,0,0,0,0,0,0,0,0,0,0,0,2,2,215.31,FLYING
215.99,APPROACH,FLY_TO_FIX,75.11,84,8.89,1165.2,1.54,10.54,9.48,276.84,0.027,0.4395,20,276.85,1.675,0,0,0,0,0,0,0,0,98.94,0,0,0,0,0,0,0,0,0,0,0,0,0,2,2,216.03,FLYING
216.71,APPROACH,FLY_TO_FIX,75.45,84,8.55,1166.33,1.63,10.45,9.34,276.83,0.023,0.4405,20,276.85,1.669,0,0,0,0,0,0,0,0,98.94,0,0,0,0,0,0,0,0,0,0,0,0,0,2,2,216.75,FLYING
217.43,APPROACH,FLY_TO_FIX,75.8,84,8.2,1167.51,1.7,10.35,9.2,276.83,0.019,0.4404,20,276.85,1.663,0,0,0,0,0,0,0,0,98.94,0,0,0,0,0,0,0,0,0,0,0,0,0,2,2,217.47,FLYING
218.15,APPROACH,FLY_TO_FIX,76.16,84,7.84,1168.75,1.77,10.25,9.05,276.83,0.017,0.4394,20,276.85,1.657,0,0,0,0,0,0,0,0,98.94,0,0,0,0,0,0,0,0,0,0,0,0,0,2,2,218.19,FLYING
218.87,APPROACH,FLY_TO_FIX,76.53,84,7.47,1170.03,1.84,10.15,8.91,276.83,0.015,0.437,20,276.85,1.651,0,0,0,0,0,0,0,0,98.94,0,0,0,0,0,0,0,0,0,0,0,0,0,2,2,218.91,FLYING
219.59,APPROACH,FLY_TO_FIX,76.91,84,7.09,1171.36,1.89,10.04,8.77,276.82,0.011,0.4158,20,276.85,1.644,0,0,0,0,0,0,0,0,98.94,0,0,0,0,0,0,0,0,0,0,0,0,0,2,2,219.63,FLYING
220.31,APPROACH,FLY_TO_FIX,77.3,84,6.7,1172.72,1.95,9.93,8.63,276.82,0.009,0.3939,20,276.85,1.637,0,0,0,0,0,0,0,0,98.94,0,0,0,0,0,0,0,0,0,0,0,0,0,2,2,220.35,FLYING
221.03,APPROACH,FLY_TO_FIX,77.68,84,6.32,1174.12,1.99,9.83,8.5,276.82,0.006,0.3724,20,276.85,1.63,0,0,0,0,0,0,0,0,98.94,0,0,0,0,0,0,0,0,0,0,0,0,0,2,2,221.07,FLYING
221.75,APPROACH,FLY_TO_FIX,78.06,84,5.94,1175.56,2.04,9.73,8.38,276.82,0.006,0.3529,20,276.85,1.623,0,0,0,0,0,0,0,0,98.94,0,0,0,0,0,0,0,0,0,0,0,0,0,2,2,221.79,FLYING
222.47,APPROACH,FLY_TO_FIX,78.41,84,5.59,1177.03,2.08,9.65,8.28,276.82,0.006,0.3371,20,276.85,1.616,0,0,0,0,0,0,0,0,98.94,0,0,0,0,0,0,0,0,0,0,0,0,0,2,2,222.51,FLYING
223.19,APPROACH,FLY_TO_FIX,78.73,84,5.27,1178.52,2.11,9.58,8.19,276.81,0.005,0.3257,20,276.85,1.608,0,0,0,0,0,0,0,0,98.94,0,0,0,0,0,0,0,0,0,0,0,0,0,2,2,223.23,FLYING
223.91,APPROACH,FLY_TO_FIX,79.01,84,4.99,1180.05,2.15,9.52,8.12,276.81,0.004,0.3191,20,276.85,1.601,0,0,0,0,0,0,0,0,98.94,0,0,0,0,0,0,0,0,0,0,0,0,0,2,2,223.95,FLYING
224.63,APPROACH,FLY_TO_FIX,79.25,84,4.75,1181.59,2.17,9.47,8.05,276.81,0.003,0.3168,20,276.85,1.593,0,0,0,0,0,0,0,0,98.94,0,0,0,0,0,0,0,0,0,0,0,0,0,2,2,224.67,FLYING
225.35,APPROACH,FLY_TO_FIX,79.46,84,4.54,1183.16,2.2,9.43,8,276.81,0.003,0.3179,20,276.85,1.585,0,0,0,0,0,0,0,0,98.94,0,0,0,0,0,0,0,0,0,0,0,0,0,2,2,225.39,FLYING
226.07,APPROACH,FLY_TO_FIX,79.63,84,4.37,1184.75,2.22,9.4,7.95,276.81,0.004,0.3214,20,276.85,1.577,0,0,0,0,0,0,0,0,98.94,0,0,0,0,0,0,0,0,0,0,0,0,0,2,2,226.11,FLYING
226.79,APPROACH,FLY_TO_FIX,79.78,84,4.22,1186.35,2.24,9.37,7.92,276.81,0.004,0.3262,20,276.85,1.569,0,0,0,0,0,0,0,0,98.94,0,0,0,0,0,0,0,0,0,0,0,0,0,2,2,226.83,FLYING
227.51,APPROACH,FLY_TO_FIX,79.91,84,4.09,1187.97,2.26,9.34,7.88,276.8,0.004,0.3312,20,276.85,1.561,0,0,0,0,0,0,0,0,98.94,0,0,0,0,0,0,0,0,0,0,0,0,0,2,2,227.55,FLYING
228.23,APPROACH,FLY_TO_FIX,80.03,84,3.97,1189.6,2.28,9.32,7.84,276.8,0.005,0.3357,20,276.85,1.553,0,0,0,0,0,0,0,0,98.94,0,0,0,0,0,0,0,0,0,0,0,0,0,2,2,228.27,FLYING
228.95,APPROACH,FLY_TO_FIX,80.15,84,3.85,1191.25,2.3,9.29,7.81,276.8,0.004,0.339,20,276.85,1.545,0,0,0,0,0,0,0,0,98.94,0,0,0,0,0,0,0,0,0,0,0,0,0,2,2,228.99,FLYING
229.67,APPROACH,FLY_TO_FIX,80.26,84,3.74,1192.9,2.32,9.27,7.78,276.8,0.005,0.3409,20,276.85,1.537,0,0,0,0,0,0,0,0,98.94,0,0,0,0,0,0,0,0,0,0,0,0,0,2,2,229.71,FLYING
230.39,APPROACH,FLY_TO_FIX,80.37,84,3.63,1194.57,2.33,9.24,7.74,276.8,0.004,0.3413,20,276.85,1.528,0,0,0,0,0,0,0,0,98.94,0,0,0,0,0,0,0,0,0,0,0,0,0,2,2,230.43,FLYING
231.11,APPROACH,FLY_TO_FIX,80.49,84,3.51,1196.25,2.35,9.22,7.71,276.8,0.003,0.3405,20,276.85,1.52,0,0,0,0,0,0,0,0,98.94,0,0,0,0,0,0,0,0,0,0,0,0,0,2,2,231.15,FLYING
231.83,APPROACH,FLY_TO_FIX,80.6,84,3.4,1197.95,2.37,9.19,7.67,276.79,0.004,0.3386,20,276.86,1.511,0,0,0,0,0,0,0,0,98.94,0,0,0,0,0,0,0,0,0,0,0,0,0,2,2,231.87,FLYING
232.55,APPROACH,FLY_TO_FIX,80.71,84,3.29,1199.65,2.38,9.16,7.64,276.79,0.004,0.336,20,276.86,1.503,0,0,0,0,0,0,0,0,98.94,0,0,0,0,0,0,0,0,0,0,0,0,0,2,2,232.59,FLYING
233.27,APPROACH,FLY_TO_FIX,80.82,84,3.18,1201.37,2.4,9.14,7.61,276.79,0.004,0.333,20,276.86,1.494,0,0,0,0,0,0,0,0,98.94,0,0,0,0,0,0,0,0,0,0,0,0,0,2,2,233.31,FLYING
233.99,APPROACH,FLY_TO_FIX,80.93,84,3.07,1203.09,2.41,9.11,7.58,276.79,0.004,0.3299,20,276.86,1.486,0,0,0,0,0,0,0,0,98.94,0,0,0,0,0,0,0,0,0,0,0,0,0,2,2,234.03,FLYING
234.71,APPROACH,FLY_TO_FIX,81.04,84,2.96,1204.83,2.42,9.09,7.55,276.79,0.003,0.327,20,276.86,1.477,0,0,0,0,0,0,0,0,98.94,0,0,0,0,0,0,0,0,0,0,0,0,0,2,2,234.75,FLYING
235.43,APPROACH,FLY_TO_FIX,81.13,84,2.87,1206.58,2.44,9.07,7.52,276.79,0.002,0.3246,20,276.86,1.468,0,0,0,0,0,0,0,0,98.94,0,0,0,0,0,0,0,0,0,0,0,0,0,2,2,235.47,FLYING
236.15,APPROACH,FLY_TO_FIX,81.23,84,2.77,1208.33,2.45,9.05,7.5,276.78,0.002,0.3226,20,276.86,1.46,0,0,0,0,0,0,0,0,98.94,0,0,0,0,0,0,0,0,0,0,0,0,0,2,2,236.19,FLYING
236.87,APPROACH,FLY_TO_FIX,81.31,84,2.69,1210.1,2.46,9.03,7.47,276.78,0,0.3213,20,276.86,1.451,0,0,0,0,0,0,0,0,98.94,0,0,0,0,0,0,0,0,0,0,0,0,0,2,2,236.91,FLYING
237.59,APPROACH,FLY_TO_FIX,81.39,84,2.61,1211.87,2.47,9.02,7.45,276.78,-0.003,0.3205,20,276.86,1.442,0,0,0,0,0,0,0,0,98.94,0,0,0,0,0,0,0,0,0,0,0,0,0,2,2,237.63,FLYING
238.31,APPROACH,FLY_TO_FIX,81.46,84,2.54,1213.65,2.48,9,7.43,276.78,-0.005,0.3201,20,276.86,1.433,0,0,0,0,0,0,0,0,98.94,0,0,0,0,0,0,0,0,0,0,0,0,0,2,2,238.35,FLYING
239.03,APPROACH,FLY_TO_FIX,81.52,84,2.48,1215.43,2.49,8.99,7.42,276.78,-0.007,0.3201,20,276.86,1.424,0,0,0,0,0,0,0,0,98.94,0,0,0,0,0,0,0,0,0,0,0,0,0,2,2,239.07,FLYING
239.75,APPROACH,FLY_TO_FIX,81.58,84,2.42,1217.22,2.49,8.98,7.4,276.78,-0.01,0.3202,20,276.86,1.415,0,0,0,0,0,0,0,0,98.94,0,0,0,0,0,0,0,0,0,0,0,0,0,2,2,239.79,FLYING
240.47,APPROACH,FLY_TO_FIX,81.63,84,2.37,1219.01,2.5,8.96,7.38,276.78,-0.012,0.3204,20,276.86,1.406,0,0,0,0,0,0,0,0,98.94,0,0,0,0,0,0,0,0,0,0,0,0,0,2,2,240.51,FLYING
241.19,APPROACH,FLY_TO_FIX,81.68,84,2.32,1220.81,2.5,8.95,7.37,276.78,-0.014,0.3206,20,276.87,1.397,0,0,0,0,0,0,0,0,98.94,0,0,0,0,0,0,0,0,0,0,0,0,0,2,2,241.23,FLYING
241.91,APPROACH,FLY_TO_FIX,81.73,84,2.27,1222.61,2.51,8.94,7.35,276.78,-0.017,0.3206,20,276.87,1.388,0,0,0,0,0,0,0,0,98.94,0,0,0,0,0,0,0,0,0,0,0,0,0,2,2,241.95,FLYING
242.63,APPROACH,FLY_TO_FIX,81.77,84,2.23,1224.41,2.51,8.92,7.34,276.78,-0.018,0.3205,20,276.87,1.379,0,0,0,0,0,0,0,0,98.94,0,0,0,0,0,0,0,0,0,0,0,0,0,2,2,242.67,FLYING
243.35,APPROACH,FLY_TO_FIX,81.81,84,2.19,1226.22,2.51,8.91,7.33,276.78,-0.021,0.3203,20,276.87,1.37,0,0,0,0,0,0,0,0,98.94,0,0,0,0,0,0,0,0,0,0,0,0,0,2,2,243.39,FLYING
244.07,APPROACH,FLY_TO_FIX,81.86,84,2.14,1228.02,2.51,8.9,7.32,276.78,-0.023,0.3198,20,276.87,1.361,0,0,0,0,0,0,0,0,98.94,0,0,0,0,0,0,0,0,0,0,0,0,0,2,2,244.11,FLYING
244.79,APPROACH,FLY_TO_FIX,81.9,84,2.1,1229.83,2.51,8.88,7.3,276.78,-0.024,0.3192,20,276.87,1.352,0,0,0,0,0,0,0,0,98.94,0,0,0,0,0,0,0,0,0,0,0,0,0,2,2,244.83,FLYING
245.51,APPROACH,FLY_TO_FIX,81.94,84,2.06,1231.63,2.51,8.87,7.29,276.78,-0.025,0.3186,20,276.87,1.343,0,0,0,0,0,0,0,0,98.94,0,0,0,0,0,0,0,0,0,0,0,0,0,2,2,245.55,FLYING
246.23,APPROACH,FLY_TO_FIX,81.97,84,2.03,1233.43,2.51,8.86,7.28,276.78,-0.027,0.3179,20,276.87,1.334,0,0,0,0,0,0,0,0,98.94,0,0,0,0,0,0,0,0,0,0,0,0,0,2,2,246.27,FLYING
246.97,APPROACH,FLY_TO_FIX,82.01,84,1.99,1235.28,2.5,8.85,7.27,276.78,-0.03,0.317,20,276.87,1.325,0,0,0,0,0,0,0,0,98.94,0,0,0,0,0,0,0,0,0,0,0,0,0,2,2,247.01,FLYING
247.69,APPROACH,FLY_TO_FIX,82.04,84,1.96,1237.08,2.5,8.83,7.26,276.78,-0.03,0.3164,20,276.87,1.316,0,0,0,0,0,0,0,0,98.94,0,0,0,0,0,0,0,0,0,0,0,0,0,2,2,247.73,FLYING
248.41,APPROACH,FLY_TO_FIX,82.08,84,1.92,1238.88,2.5,8.82,7.25,276.79,-0.032,0.3158,20,276.88,1.307,0,0,0,0,0,0,0,0,98.94,0,0,0,0,0,0,0,0,0,0,0,0,0,2,2,248.45,FLYING
249.13,APPROACH,FLY_TO_FIX,82.11,84,1.89,1240.67,2.49,8.81,7.24,276.79,-0.032,0.3153,20,276.88,1.298,0,0,0,0,0,0,0,0,98.94,0,0,0,0,0,0,0,0,0,0,0,0,0,2,2,249.17,FLYING
249.85,APPROACH,FLY_TO_FIX,82.14,84,1.86,1242.46,2.48,8.79,7.23,276.79,-0.035,0.3149,20,276.88,1.289,0,0,0,0,0,0,0,0,98.94,0,0,0,0,0,0,0,0,0,0,0,0,0,2,2,249.89,FLYING
250.57,APPROACH,FLY_TO_FIX,82.16,84,1.84,1244.24,2.48,8.78,7.23,276.79,-0.036,0.3145,20,276.88,1.28,0,0,0,0,0,0,0,0,98.94,0,0,0,0,0,0,0,0,0,0,0,0,0,2,2,250.61,FLYING
251.29,APPROACH,FLY_TO_FIX,82.19,84,1.81,1246.02,2.47,8.77,7.22,276.79,-0.037,0.3142,20,276.88,1.271,0,0,0,0,0,0,0,0,98.94,0,0,0,0,0,0,0,0,0,0,0,0,0,2,2,251.33,FLYING
252.01,APPROACH,FLY_TO_FIX,82.21,84,1.79,1247.8,2.46,8.76,7.21,276.79,-0.038,0.3139,20,276.88,1.262,0,0,0,0,0,0,0,0,98.94,0,0,0,0,0,0,0,0,0,0,0,0,0,2,2,252.05,FLYING
252.73,APPROACH,FLY_TO_FIX,82.23,84,1.77,1249.56,2.46,8.75,7.21,276.79,-0.04,0.3136,20,276.88,1.253,0,0,0,0,0,0,0,0,98.94,0,0,0,0,0,0,0,0,0,0,0,0,0,2,2,252.77,FLYING
253.45,APPROACH,FLY_TO_FIX,82.26,84,1.74,1251.33,2.45,8.73,7.2,276.8,-0.04,0.3134,20,276.88,1.245,0,0,0,0,0,0,0,0,98.94,0,0,0,0,0,0,0,0,0,0,0,0,0,2,2,253.49,FLYING
254.17,APPROACH,FLY_TO_FIX,82.28,84,1.72,1253.08,2.44,8.72,7.19,276.8,-0.04,0.3131,20,276.88,1.236,0,0,0,0,0,0,0,0,98.94,0,0,0,0,0,0,0,0,0,0,0,0,0,2,2,254.21,FLYING
254.89,APPROACH,FLY_TO_FIX,82.29,84,1.71,1254.83,2.43,8.71,7.19,276.8,-0.04,0.3128,20,276.89,1.227,0,0,0,0,0,0,0,0,98.94,0,0,0,0,0,0,0,0,0,0,0,0,0,2,2,254.93,FLYING
255.61,APPROACH,FLY_TO_FIX,82.31,84,1.69,1256.58,2.42,8.7,7.18,276.8,-0.04,0.3126,20,276.89,1.218,0,0,0,0,0,0,0,0,98.94,0,0,0,0,0,0,0,0,0,0,0,0,0,2,2,255.65,FLYING
256.33,APPROACH,FLY_TO_FIX,82.33,84,1.67,1258.31,2.41,8.69,7.18,276.8,-0.04,0.3123,20,276.89,1.21,0,0,0,0,0,0,0,0,98.94,0,0,0,0,0,0,0,0,0,0,0,0,0,2,2,256.37,FLYING
257.05,APPROACH,FLY_TO_FIX,82.35,84,1.65,1260.04,2.4,8.68,7.17,276.8,-0.041,0.312,20,276.89,1.201,0,0,0,0,0,0,0,0,98.94,0,0,0,0,0,0,0,0,0,0,0,0,0,2,2,257.09,FLYING
257.77,APPROACH,FLY_TO_FIX,82.36,84,1.64,1261.77,2.39,8.66,7.17,276.81,-0.041,0.3116,20,276.89,1.192,0,0,0,0,0,0,0,0,98.94,0,0,0,0,0,0,0,0,0,0,0,0,0,2,2,257.81,FLYING
258.49,APPROACH,FLY_TO_FIX,82.38,84,1.62,1263.48,2.38,8.65,7.16,276.81,-0.041,0.3113,20,276.89,1.184,0,0,0,0,0,0,0,0,98.94,0,0,0,0,0,0,0,0,0,0,0,0,0,2,2,258.53,FLYING
259.21,APPROACH,FLY_TO_FIX,82.4,84,1.6,1265.19,2.37,8.64,7.16,276.81,-0.042,0.311,20,276.89,1.175,0,0,0,0,0,0,0,0,98.94,0,0,0,0,0,0,0,0,0,0,0,0,0,2,2,259.25,FLYING
259.93,APPROACH,FLY_TO_FIX,82.41,84,1.59,1266.89,2.36,8.63,7.16,276.81,-0.043,0.3107,20,276.89,1.167,0,0,0,0,0,0,0,0,98.94,0,0,0,0,0,0,0,0,0,0,0,0,0,2,2,259.97,FLYING
260.65,APPROACH,FLY_TO_FIX,82.42,84,1.58,1268.58,2.35,8.62,7.15,276.81,-0.043,0.3104,20,276.89,1.158,0,0,0,0,0,0,0,0,98.94,0,0,0,0,0,0,0,0,0,0,0,0,0,2,2,260.69,FLYING
261.37,APPROACH,FLY_TO_FIX,82.44,84,1.56,1270.26,2.33,8.61,7.15,276.81,-0.042,0.3101,20,276.9,1.15,0,0,0,0,0,0,0,0,98.94,0,0,0,0,0,0,0,0,0,0,0,0,0,2,2,261.41,FLYING
262.09,APPROACH,FLY_TO_FIX,82.45,84,1.55,1271.93,2.32,8.6,7.15,276.82,-0.044,0.3098,20,276.9,1.141,0,0,0,0,0,0,0,0,98.94,0,0,0,0,0,0,0,0,0,0,0,0,0,2,2,262.13,FLYING
262.81,APPROACH,FLY_TO_FIX,82.46,84,1.54,1273.6,2.31,8.59,7.14,276.82,-0.044,0.3096,20,276.9,1.133,0,0,0,0,0,0,0,0,98.94,0,0,0,0,0,0,0,0,0,0,0,0,0,2,2,262.85,FLYING
263.43,APPROACH,ILS_TRACK,82.47,84,1.53,1275.03,2.3,8.58,7.14,276.82,-0.044,0.3096,20,276.9,1.133,0,0,0,0,0,0,0,0,98.94,0,0,0,0,0,0,0,0,0,0,0,0,0,2,2,263.47,FLYING
264.29,APPROACH,ILS_TRACK,82.48,83.6,1.12,1277,2.28,8.58,7.15,276.82,-0.056,0.2876,20,64,0,185.26,-149.05,24.648,-100.043,283.188,0,0,0,98.94,0,0,0,0,0,0,0,0,0,0,0,0,0,2,2,264.33,FLYING
265.09,APPROACH,ILS_TRACK,82.44,83.2,0.76,1278.84,2.3,8.6,7.17,277.24,-3.403,0.2755,20,87.01,0,175.23,-151.01,24.72,-1.99,48.444,0,0,0,98.94,0,0,0,0,0,0,0,0,0,0,0,0,0,2,2,265.13,FLYING
265.89,APPROACH,ILS_TRACK,82.34,82.8,0.46,1280.61,2.2,8.29,7.03,278.64,-11.126,0.2702,20,87.52,0,164.99,-153.01,24.793,-1.479,49.11,0,0,0,98.94,0,0,0,0,0,0,0,0,0,0,0,0,0,2,2,265.93,FLYING
266.69,APPROACH,ILS_TRACK,82.09,82.4,0.31,1282.81,2.44,11.49,10.42,282,-20.308,0.2829,20,88.43,0,153.83,-154.73,24.865,-0.573,49.169,0,0,0,98.94,0,0,0,0,0,0,0,0,0,0,0,0,0,2,2,266.73,FLYING
267.49,APPROACH,ILS_TRACK,81.29,82,0.71,1285.68,3.81,13.26,12.04,286.74,-29.658,0.3748,20,89.66,0,140.53,-155.77,24.936,0.657,48.383,0,0,0,98.94,0,0,0,0,0,0,0,0,0,0,0,0,0,2,2,267.53,FLYING
268.29,APPROACH,ILS_TRACK,80.16,81.6,1.44,1289.49,5.16,14.26,13.08,292.3,-34.346,0.5009,20,89.29,0,123.74,-155.74,25.006,0.291,46.673,0,0,0,98.94,0,0,0,0,0,0,0,0,0,0,0,0,0,2,2,268.33,FLYING
269.09,APPROACH,ILS_TRACK,78.94,81.2,2.26,1294.09,6.09,14.69,13.18,296.82,-35.14,0.6266,20,89.04,0,102.59,-154.81,25.073,0.039,44.953,0,0,0,98.94,0,0,0,0,0,0,0,0,0,0,0,0,0,2,2,269.13,FLYING
269.91,APPROACH,ILS_TRACK,77.7,80.8,3.1,1299.47,6.77,15.22,13.23,301.02,-35.254,0.7365,20,89.13,0,76.47,-153,25.14,0.132,43.012,0,0,0,98.94,0,0,0,0,0,0,0,0,0,0,0,0,0,2,2,269.95,FLYING
270.73,APPROACH,ILS_TRACK,76.53,80.4,3.87,1305.32,7.27,15.75,13.25,304.95,-34.213,0.8243,20,89.84,0,46.17,-150.54,25.203,0.836,41.221,0,0,0,98.94,0,0,0,0,0,0,0,0,0,0,0,0,0,2,2,270.77,FLYING
271.53,APPROACH,ILS_TRACK,75.5,80,4.5,1311.39,7.69,16.25,13.28,308.59,-33.11,0.8839,20,91.6,0,12.9,-147.6,25.262,2.6,39.58,0,0,0,98.94,0,0,0,0,0,0,0,0,0,0,0,0,0,2,2,271.57,FLYING
272.33,APPROACH,ILS_TRACK,74.56,80,5.44,1317.78,8.07,16.73,13.33,312.1,-32.339,0.9413,20,93.69,0,-23.65,-144.18,25.317,4.686,37.789,0,0,0,98.94,0,0,0,0,0,0,0,0,0,0,0,0,0,2,2,272.37,FLYING
273.13,APPROACH,ILS_TRACK,73.71,80,6.29,1324.45,8.42,17.26,13.37,315.37,-30.591,0.9835,20,98.22,0,-63.17,-140.32,25.37,9.217,35.914,0,0,0,98.94,0,0,0,0,0,0,0,0,0,0,0,0,0,2,2,273.17,FLYING
273.93,APPROACH,ILS_TRACK,72.96,80,7.04,1331.43,8.81,17.84,13.48,318.58,-29.23,1,20,102.4,0,-105.35,-135.99,25.419,13.396,33.867,0,0,0,98.94,0,0,0,0,0,0,0,0,0,0,0,0,0,2,2,273.97,FLYING
274.75,APPROACH,ILS_TRACK,72.3,80,7.7,1338.95,9.28,18.45,13.55,321.66,-28.128,1,20,107.88,0,-151.06,-131.04,25.467,18.877,31.395,0,0,0,98.94,0,0,0,0,0,0,0,0,0,0,0,0,0,2,2,274.79,FLYING
275.57,APPROACH,ILS_TRACK,71.7,80,8.3,1346.86,9.78,19.12,13.69,324.68,-26.229,0.9965,20,114,0,-199,-125.54,25.512,25.47,28.854,0,0,0,98.94,0,0,0,0,0,0,0,0,0,0,0,0,0,2,2,275.61,FLYING
276.39,APPROACH,ILS_TRACK,71.17,80.4,9.23,1355.28,10.45,20,13.81,327.22,-24.182,0.9731,20,114,0,-248.91,-119.4,25.553,34.911,25.994,0,0,0,98.94,0,0,0,0,0,0,0,0,0,0,0,0,0,2,2,276.41,FLYING
277.19,APPROACH,ILS_TRACK,70.71,80.8,10.09,1364,11.11,20.57,13.81,329.93,-24.255,0.9478,20,114,0,-299.18,-112.74,25.591,37.103,23.175,0,0,0,98.94,0,0,0,0,0,0,0,0,0,0,0,0,0,2,2,277.21,FLYING
277.99,APPROACH,ILS_TRACK,70.29,81.2,10.91,1373.21,11.7,21.03,13.81,332.77,-24.341,0.9234,20,114,0,-350.87,-105.45,25.626,39.878,19.971,0,0,0,98.94,0,0,0,0,0,0,0,0,0,0,0,0,0,2,2,278.01,FLYING
278.79,APPROACH,ILS_TRACK,69.9,81.6,11.7,1382.86,12.24,21.45,13.81,335.62,-24.398,0.9004,20,114,0,-403.87,-97.57,25.659,42.657,16.655,0,0,0,98.94,0,0,0,0,0,0,0,0,0,0,0,0,0,2,2,278.81,FLYING
279.59,APPROACH,ILS_TRACK,69.55,82,12.45,1392.91,12.72,21.84,13.8,338.46,-24.441,0.8789,20,114,0,-458.08,-89.13,25.688,45.427,13.238,0,0,0,98.94,0,0,0,0,0,0,0,0,0,0,0,0,0,2,2,279.61,FLYING
280.39,APPROACH,ILS_TRACK,69.22,82.4,13.18,1403.32,13.15,22.18,13.8,341.3,-24.48,0.8591,20,114,0,-513.37,-80.18,25.715,48.178,9.729,0,0,0,98.94,0,0,0,0,0,0,0,0,0,0,0,0,0,2,2,280.41,FLYING
281.17,APPROACH,ILS_TRACK,68.91,82.8,13.89,1414.05,13.54,22.49,13.79,344.15,-24.521,0.8409,20,114,0,-569.62,-70.75,25.739,50.834,6.136,0,0,0,98.94,0,0,0,0,0,0,0,0,0,0,0,0,0,2,2,281.21,FLYING
281.97,APPROACH,ILS_TRACK,68.63,83.2,14.57,1425.07,13.89,22.76,13.77,346.99,-24.571,0.8244,20,114,-0.534,-626.7,-60.87,25.759,53.303,2.466,0,0,0,98.94,0,0,0,0,0,0,0,0,0,0,0,0,0,2,2,282.01,FLYING
282.77,APPROACH,ILS_TRACK,68.37,83.6,15.23,1436.32,14.17,22.94,13.72,349.83,-24.74,0.8089,20,114,-4.254,-684.5,-50.6,25.777,55.122,-1.254,0,0,0,98.94,0,0,0,0,0,0,0,0,0,0,0,0,0,2,2,282.81,FLYING
283.57,APPROACH,ILS_TRACK,68.15,84,15.85,1447.7,14.31,22.71,13.43,352.71,-25.66,0.7919,20,114,-7,-742.9,-40.03,25.793,53.068,-4.899,0,0,0,98.94,0,0,0,0,0,0,0,0,0,0,0,0,0,2,2,283.61,FLYING
284.37,APPROACH,ILS_TRACK,68,84,16,1459.08,14.24,22.33,13.2,355.8,-27.047,0.7718,20,114,-7,-801.84,-29.28,25.805,47.551,-8.422,0,0,0,98.94,0,0,0,0,0,0,0,0,0,0,0,0,0,2,2,284.41,FLYING
285.17,APPROACH,ILS_TRACK,67.9,84,16.1,1470.37,14.08,22.07,13.18,359.06,-28.126,0.7505,20,114,-7,-861.27,-18.44,25.814,42.734,-11.817,0,0,0,98.94,0,0,0,0,0,0,0,0,0,0,0,0,0,2,2,285.21,FLYING
285.97,APPROACH,ILS_TRACK,67.84,84,16.16,1481.49,13.83,21.76,13.15,2.32,-28.958,0.7292,20,114,-7,-921.1,-7.59,25.82,39.018,-15.075,0,0,0,98.94,0,0,0,0,0,0,0,0,0,0,0,0,0,2,2,286.01,FLYING
286.77,APPROACH,ILS_TRACK,67.83,84,16.17,1492.38,13.52,21.41,13.11,5.61,-29.648,0.7078,20,114,-7,-981.21,3.2,25.822,35.857,-18.234,0,0,0,98.94,0,0,0,0,0,0,0,0,0,0,0,0,0,2,2,286.81,FLYING
287.57,APPROACH,ILS_TRACK,67.86,84,16.14,1502.99,13.16,21.01,13.06,8.91,-30.262,0.6861,20,114,-7,-1041.46,13.91,25.822,32.895,-21.295,0,0,0,98.94,0,0,0,0,0,0,0,0,0,0,0,0,0,2,2,287.61,FLYING
288.37,APPROACH,ILS_TRACK,67.94,84,16.06,1513.29,12.75,20.57,13.01,12.25,-30.843,0.6642,20,114,-7,-1101.71,24.48,25.817,29.88,-24.256,0,0,0,98.94,0,0,0,0,0,0,0,0,0,0,0,0,0,2,2,288.41,FLYING
289.17,APPROACH,ILS_TRACK,68.06,84,15.94,1523.23,12.3,20.1,12.95,15.63,-31.424,0.6423,20,114,-7,-1161.81,34.88,25.81,26.594,-27.114,0,0,0,98.94,0,0,0,0,0,0,0,0,0,0,0,0,0,2,2,289.21,FLYING
289.97,APPROACH,ILS_TRACK,68.22,84,15.78,1532.78,11.81,19.57,12.87,19.02,-32.008,0.621,20,112,-7,-1221.57,45.09,25.799,23.001,-29.864,0,0,0,98.94,0,0,0,0,0,0,0,0,0,0,0,0,0,2,2,290.01,FLYING
290.77,APPROACH,ILS_TRACK,68.41,84,15.59,1541.91,11.26,18.98,12.79,22.46,-32.651,0.6008,20,107.74,-7,-1280.83,55.07,25.784,18.742,-32.478,0,0,0,98.94,0,0,0,0,0,0,0,0,0,0,0,0,0,2,2,290.81,FLYING
291.57,APPROACH,ILS_TRACK,68.63,84,15.37,1550.55,10.63,18.31,12.68,25.93,-33.412,0.582,20,102.29,-7,-1339.37,64.76,25.766,13.292,-34.93,0,0,0,98.94,0,0,0,0,0,0,0,0,0,0,0,0,0,2,2,291.61,FLYING
292.37,APPROACH,ILS_TRACK,68.87,84,15.13,1558.65,9.92,17.54,12.54,29.46,-34.302,0.5641,20,95.53,-7,-1397,74.1,25.744,6.532,-37.178,0,0,0,98.94,0,0,0,0,0,0,0,0,0,0,0,0,0,2,2,292.41,FLYING
293.19,APPROACH,ILS_TRACK,69.15,84,14.85,1566.12,9.11,16.64,12.37,33.02,-35.389,0.5464,20,89.11,-7,-1453.51,83.02,25.718,0.115,-39.171,0,0,0,98.94,0,0,0,0,0,0,0,0,0,0,0,0,0,2,2,293.23,FLYING
294.01,APPROACH,ILS_TRACK,69.48,84,14.52,1573.02,8.12,15.61,12.19,36.75,-36.63,0.5271,20,89.73,-7,-1510.02,91.61,25.689,0.731,-41.244,0,0,0,98.94,0,0,0,0,0,0,0,0,0,0,0,0,0,2,2,294.03,FLYING
294.83,APPROACH,ILS_TRACK,69.86,84,14.14,1579.08,7.05,14.64,12.14,40.61,-37.682,0.5076,20,90.27,-7,-1564.87,99.59,25.655,1.269,-42.635,0,0,0,98.94,0,0,0,0,0,0,0,0,0,0,0,0,0,2,2,294.85,FLYING
295.65,APPROACH,ILS_TRACK,70.26,84,13.74,1584.23,5.92,13.64,12.08,44.51,-38.598,0.4887,20,90.74,-7,-1617.75,106.86,25.617,1.735,-43.696,0,0,0,98.94,0,0,0,0,0,0,0,0,0,0,0,0,0,2,2,295.67,FLYING
296.45,APPROACH,ILS_TRACK,70.69,84,13.31,1588.33,4.76,12.65,12.03,48.36,-39.41,0.4711,20,91.15,-7,-1667.16,113.23,25.577,2.146,-44.165,0,0,0,98.94,0,0,0,0,0,0,0,0,0,0,0,0,0,2,2,296.47,FLYING
297.25,APPROACH,ILS_TRACK,71.15,84,12.85,1591.47,3.56,11.55,11.83,52.14,-40.049,0.4537,20,91.5,-7,-1714.15,118.84,25.534,2.499,-44.624,0,0,0,98.94,0,0,0,0,0,0,0,0,0,0,0,0,0,2,2,297.27,FLYING
298.05,APPROACH,ILS_TRACK,71.67,84,12.33,1593.6,2.26,10.42,11.41,55.51,-38.695,0.4343,20,91.08,-7,-1758.43,123.61,25.486,2.082,-44.716,0,0,0,98.94,0,0,0,0,0,0,0,0,0,0,0,0,0,2,2,298.07,FLYING
298.87,APPROACH,ILS_TRACK,72.3,84,11.7,1594.76,1.05,9.41,10.87,58.39,-36.555,0.4075,20,89.9,-7,-1800.9,127.65,25.435,0.895,-44.75,0,0,0,98.94,0,0,0,0,0,0,0,0,0,0,0,0,0,2,2,298.89,FLYING
299.67,APPROACH,ILS_TRACK,73.02,84,10.98,1594.94,-0.14,8.5,10.36,60.96,-33.404,0.3777,20,100.47,-7,-1840.5,130.85,25.38,11.467,-44.384,0,0,0,98.94,0,0,0,0,0,0,0,0,0,0,0,0,0,2,2,299.71,FLYING
300.47,APPROACH,ILS_TRACK,73.67,84,10.33,1594.48,-0.89,8.63,11.23,64.65,-35.336,0.3592,20,90.68,-7,-1876.49,133.43,25.324,1.685,-44.153,0,0,0,98.94,0,0,0,0,0,0,0,0,0,0,0,0,0,2,2,300.51,FLYING
301.29,APPROACH,ILS_TRACK,74.33,84,9.67,1592.96,-2.13,6.24,9.49,67.11,-35.658,0.3455,20,89.53,-7,-1909.51,135.14,25.266,0.534,-43.279,0,0,0,98.94,0,0,0,0,0,0,0,0,0,0,0,0,0,2,2,301.31,FLYING
302.09,APPROACH,ILS_TRACK,75.13,84,8.87,1590.55,-3.47,5.58,9.26,69.34,-30.726,0.3194,20,114,-7,-1939.54,136.08,25.205,30.798,-42.326,0,0,0,98.94,0,0,0,0,0,0,0,0,0,0,0,0,0,2,2,302.11,FLYING
302.89,APPROACH,ILS_TRACK,75.87,84,8.13,1587.67,-3.93,7.06,11.03,72.44,-28.922,0.304,20,114,-7,-1966.87,136.53,25.143,54.931,-41.687,0,0,0,98.94,0,0,0,0,0,0,0,0,0,0,0,0,0,2,2,302.91,FLYING
303.71,APPROACH,ILS_TRACK,76.4,84,7.6,1584.35,-4.14,6.72,10.92,75.6,-31.006,0.3124,20,114,-7,-1991.92,136.67,25.077,39.599,-41.217,0,0,0,98.94,0,0,0,0,0,0,0,0,0,0,0,0,0,2,2,303.73,FLYING
304.49,APPROACH,ILS_TRACK,76.83,84,7.17,1580.86,-4.33,5.52,10.03,78.73,-33.618,0.3148,20,100.88,-7,-2013.12,136.73,25.011,11.88,-41.122,0,0,0,98.94,0,0,0,0,0,0,0,0,0,0,0,0,0,2,2,304.53,FLYING
305.29,APPROACH,ILS_TRACK,77.4,84,6.6,1576.83,-5.28,4.25,8.92,80.67,-30.079,0.287,20,114,-7,-2030.77,136.32,24.944,36.475,-40.242,0,0,0,98.94,0,0,0,0,0,0,0,0,0,0,0,0,0,2,2,305.33,FLYING
306.09,APPROACH,ILS_TRACK,77.98,84,6.02,1572.52,-5.59,5.2,10.08,83.62,-29.512,0.2555,20,114,-7,-2045.3,135.67,24.875,50.084,-39.657,0,0,0,98.94,0,0,0,0,0,0,0,0,0,0,0,0,0,2,2,306.13,FLYING
306.89,APPROACH,ILS_TRACK,78.41,84,5.59,1567.81,-5.92,4.24,9.65,86.97,-34.231,0.2476,20,98.09,-7,-2056.62,134.67,24.805,9.087,-38.798,0,0,0,98.94,0,0,0,0,0,0,0,0,0,0,0,0,0,2,2,306.93,FLYING
307.69,APPROACH,ILS_TRACK,78.97,84,5.03,1562.23,-7.23,1.58,7.32,88.46,-31.974,0.22,20,108.66,-7,-2064.28,132.95,24.735,19.655,-37.143,0,0,0,98.94,0,0,0,0,0,0,0,0,0,0,0,0,0,2,2,307.73,FLYING
308.49,APPROACH,ILS_TRACK,79.68,84,4.32,1556.05,-8.19,2.34,8.44,90.82,-26.566,0.1668,20,114,-7,-2068.71,130.63,24.664,63.697,-35.474,0,0,0,98.94,0,0,0,0,0,0,0,0,0,0,0,0,0,2,2,308.53,FLYING
309.29,APPROACH,ILS_TRACK,80.25,84,3.75,1549.38,-8.44,2.48,8.7,93.1,-26.551,0.1398,20,114,-7,-2070.17,127.78,24.592,69.057,-33.77,0,0,0,98.94,0,0,0,0,0,0,0,0,0,0,0,0,0,2,2,309.33,FLYING
310.09,APPROACH,ILS_TRACK,80.75,84,3.25,1542.37,-8.84,1.83,8.25,95.33,-26.584,0.1215,20,114,-7,-2068.71,124.62,24.519,64.966,-32.321,0,0,0,98.94,0,0,0,0,0,0,0,0,0,0,0,0,0,2,2,310.13,FLYING
310.89,APPROACH,ILS_TRACK,81.23,84,2.77,1535.04,-9.31,1.44,8.01,97.32,-25.371,0.1066,20,114,-7,-2064.3,121.15,24.447,71.81,-30.796,0,0,0,98.94,0,0,0,0,0,0,0,0,0,0,0,0,0,2,2,310.93,FLYING
311.71,APPROACH,ILS_TRACK,81.64,84,2.36,1527.37,-9.71,1.15,7.82,99.06,-23.392,0.0985,20,114,-7,-2057.07,117.34,24.374,78.668,-29.112,0,0,0,98.94,0,0,0,0,0,0,0,0,0,0,0,0,0,2,2,311.73,FLYING
312.51,APPROACH,ILS_TRACK,82.01,84,1.99,1519.4,-10.08,0.9,7.65,100.64,-21.091,0.0953,20,114,-7,-2047.25,113.23,24.301,76.978,-27.384,0,0,0,98.94,0,0,0,0,0,0,0,0,0,0,0,0,0,2,2,312.53,FLYING
313.31,APPROACH,ILS_TRACK,82.34,84,1.66,1511.18,-10.36,0.67,7.49,102.1,-19.641,0.0938,20,114,-7,-2035.05,108.85,24.229,75.301,-25.655,0,0,0,98.94,0,0,0,0,0,0,0,0,0,0,0,0,0,2,2,313.33,FLYING
314.11,APPROACH,ILS_TRACK,82.64,84,1.36,1502.75,-10.61,0.5,7.37,103.36,-17.562,0.0958,20,114,-7,-2020.7,104.25,24.157,73.652,-23.909,0,0,0,98.94,0,0,0,0,0,0,0,0,0,0,0,0,0,2,2,314.13,FLYING
314.91,APPROACH,ILS_TRACK,82.91,84,1.09,1494.14,-10.83,0.32,7.24,104.57,-15.952,0.0978,20,114,-7,-2004.41,99.45,24.084,72.032,-22.159,0,0,0,98.94,0,0,0,0,0,0,0,0,0,0,0,0,0,2,2,314.93,FLYING
315.71,APPROACH,ILS_TRACK,83.16,84,0.84,1485.38,-11,0.19,7.15,105.64,-14.577,0.0995,20,114,-7,-1986.36,94.49,24.012,70.43,-20.408,0,0,0,98.94,0,0,0,0,0,0,0,0,0,0,0,0,0,2,2,315.73,FLYING
316.51,APPROACH,ILS_TRACK,83.39,84,0.61,1476.5,-11.15,0.06,7.06,106.62,-13.234,0.1005,20,114,-7,-1966.72,89.38,23.941,68.85,-18.643,0,0,0,98.94,0,0,0,0,0,0,0,0,0,0,0,0,0,2,2,316.53,FLYING
317.31,APPROACH,ILS_TRACK,83.62,84,0.38,1467.51,-11.27,-0.04,6.98,107.49,-11.908,0.1006,20,114,-7,-1945.64,84.15,23.869,67.287,-16.877,0,0,0,98.94,0,0,0,0,0,0,0,0,0,0,0,0,0,2,2,317.33,FLYING
318.09,APPROACH,ILS_TRACK,83.84,84,0.16,1458.43,-11.37,-0.13,6.91,108.26,-10.644,0.1006,20,114,-7,-1923.27,78.82,23.798,65.741,-15.113,0,0,0,98.94,0,0,0,0,0,0,0,0,0,0,0,0,0,2,2,318.13,FLYING
318.89,APPROACH,ILS_TRACK,84.05,84,-0.05,1449.28,-11.45,-0.21,6.84,108.94,-9.469,0.0978,19.98,114,-7,-1899.73,73.4,23.727,64.22,-13.356,0,0,0,98.94,0,0,0,0,0,0,0,0,0,0,0,0,0,2,2,318.93,FLYING
319.69,APPROACH,ILS_TRACK,84.25,84,-0.25,1440.08,-11.51,-0.27,6.78,109.54,-8.386,0.0939,19.858,114,-7,-1875.16,67.92,23.656,62.724,-11.604,0,0,0,98.94,0,0,0,0,0,0,0,0,0,0,0,0,0,2,2,319.73,FLYING
320.49,APPROACH,ILS_TRACK,84.44,84,-0.44,1430.84,-11.56,-0.33,6.72,110.07,-7.408,0.0887,19.64,114,-7,-1849.68,62.39,23.586,61.244,-9.861,0,0,0,98.94,0,0,0,0,0,0,0,0,0,0,0,0,0,2,2,320.53,FLYING
321.29,APPROACH,ILS_TRACK,84.62,84,-0.62,1421.57,-11.59,-0.37,6.67,110.54,-6.537,0.0826,19.33,114,-7,-1823.39,56.81,23.515,59.79,-8.125,0,0,0,98.94,0,0,0,0,0,0,0,0,0,0,0,0,0,2,2,321.33,FLYING
322.09,APPROACH,ILS_TRACK,84.79,84,-0.79,1412.28,-11.61,-0.41,6.63,110.95,-5.764,0.0761,18.935,114,-7,-1796.38,51.21,23.445,58.352,-6.396,0,0,0,98.94,0,0,0,0,0,0,0,0,0,0,0,0,0,2,2,322.13,FLYING
322.89,APPROACH,ILS_TRACK,84.95,84,-0.95,1402.98,-11.63,-0.45,6.59,111.32,-5.082,0.0699,18.464,114,-7,-1768.75,45.58,23.375,56.936,-4.671,0,0,0,98.94,0,0,0,0,0,0,0,0,0,0,0,0,0,2,2,322.93,FLYING
323.69,APPROACH,ILS_TRACK,85.08,84,-1.08,1393.67,-11.65,-0.46,6.57,111.64,-4.479,0.0644,17.927,114,-5.955,-1740.56,39.94,23.305,55.527,-2.955,0,0,0,98.94,0,0,0,0,0,0,0,0,0,0,0,0,0,2,2,323.73,FLYING
324.49,APPROACH,ILS_TRACK,85.16,84,-1.16,1384.44,-11.52,-0.17,6.77,111.94,-3.923,0.0638,17.346,114,-4.372,-1711.9,34.35,23.235,54.146,-1.372,0,0,0,98.94,0,0,0,0,0,0,0,0,0,0,0,0,0,2,2,324.53,FLYING
325.29,APPROACH,ILS_TRACK,85.17,84,-1.17,1375.44,-11.18,0.35,7.09,112.21,-3.412,0.0726,16.761,114,-3.042,-1682.82,28.95,23.165,52.773,-0.042,0,0,0,98.94,0,0,0,0,0,0,0,0,0,0,0,0,0,2,2,325.33,FLYING
326.09,APPROACH,ILS_TRACK,85.09,84,-1.09,1366.79,-10.65,0.92,7.35,112.44,-2.956,0.0917,16.214,114,-2.045,-1653.4,23.88,23.096,51.423,0.955,0,0,0,98.94,0,0,0,0,0,0,0,0,0,0,0,0,0,2,2,326.13,FLYING
326.89,APPROACH,ILS_TRACK,84.93,84,-0.93,1358.63,-10,1.48,7.53,112.64,-2.56,0.119,15.745,114,-1.381,-1623.68,19.26,23.026,50.09,1.619,0,0,0,98.94,0,0,0,0,0,0,0,0,0,0,0,0,0,2,2,326.93,FLYING
327.69,APPROACH,ILS_TRACK,84.71,84,-0.71,1351.01,-9.3,2.01,7.65,112.81,-2.221,0.1519,15.385,114,-0.985,-1593.75,15.16,22.957,48.784,2.015,0,0,0,98.94,0,0,0,0,0,0,0,0,0,0,0,0,0,2,2,327.73,FLYING
328.49,APPROACH,ILS_TRACK,84.45,84,-0.45,1343.95,-8.59,2.49,7.72,112.96,-1.932,0.1883,15.157,114,-0.791,-1563.64,11.6,22.889,47.494,2.209,0,0,0,98.94,0,0,0,0,0,0,0,0,0,0,0,0,0,2,2,328.53,FLYING
329.29,APPROACH,ILS_TRACK,84.15,84,-0.15,1337.43,-7.91,2.92,7.75,113.09,-1.688,0.2263,15.078,114,-0.743,-1533.42,8.58,22.82,46.227,2.257,0,0,0,98.94,0,0,0,0,0,0,0,0,0,0,0,0,0,2,2,329.33,FLYING
330.09,APPROACH,ILS_TRACK,83.83,84,0.17,1331.42,-7.28,3.28,7.75,113.2,-1.479,0.2641,15.158,114,-0.791,-1503.13,6.06,22.752,44.976,2.209,0,0,0,98.94,0,0,0,0,0,0,0,0,0,0,0,0,0,2,2,330.13,FLYING
330.89,APPROACH,ILS_TRACK,83.51,84,0.49,1325.88,-6.72,3.6,7.74,113.29,-1.3,0.3004,15.399,114,-0.901,-1472.79,4,22.684,43.741,2.099,0,0,0,98.94,0,0,0,0,0,0,0,0,0,0,0,0,0,2,2,330.93,FLYING
331.69,APPROACH,ILS_TRACK,83.2,84,0.8,1320.75,-6.23,3.87,7.73,113.38,-1.146,0.3337,15.796,114,-1.05,-1442.42,2.34,22.617,42.512,1.95,0,0,0,98.94,0,0,0,0,0,0,0,0,0,0,0,0,0,2,2,331.73,FLYING
332.49,APPROACH,ILS_TRACK,82.91,84,1.09,1315.98,-5.8,4.1,7.71,113.45,-1.012,0.3633,16.339,114,-1.22,-1412.04,1.04,22.549,41.293,1.78,0,0,0,98.94,0,0,0,0,0,0,0,0,0,0,0,0,0,2,2,332.53,FLYING
333.29,APPROACH,ILS_TRACK,82.64,84,1.36,1311.51,-5.44,4.29,7.69,113.52,-0.896,0.3885,17.015,114,-1.398,-1381.66,0.03,22.482,40.076,1.602,0,0,0,98.94,0,0,0,0,0,0,0,0,0,0,0,0,0,2,2,333.33,FLYING
334.09,APPROACH,ILS_TRACK,82.42,84,1.58,1307.3,-5.14,4.44,7.66,113.57,-0.795,0.4087,17.804,114,-1.577,-1351.28,-0.72,22.415,38.861,1.423,0,0,0,98.94,0,0,0,0,0,0,0,0,0,0,0,0,0,2,2,334.13,FLYING
334.89,APPROACH,ILS_TRACK,82.23,84,1.77,1303.3,-4.89,4.56,7.62,113.62,-0.707,0.4236,18.685,114,-1.75,-1320.89,-1.27,22.349,37.645,1.25,0,0,0,98.94,0,0,0,0,0,0,0,0,0,0,0,0,0,2,2,334.93,FLYING
335.69,APPROACH,ILS_TRACK,82.1,84,1.9,1299.48,-4.69,4.64,7.58,113.67,-0.633,0.4331,19.634,114,-1.917,-1290.5,-1.64,22.283,36.423,1.083,0,0,0,98.94,0,0,0,0,0,0,0,0,0,0,0,0,0,2,2,335.73,FLYING
336.49,APPROACH,ILS_TRACK,82.02,84,1.98,1295.8,-4.52,4.68,7.53,113.71,-0.567,0.4298,20,114,-2.071,-1260.09,-1.87,22.216,35.201,0.929,0,0,0,98.94,0,0,0,0,0,0,0,0,0,0,0,0,0,2,2,336.53,FLYING
337.29,APPROACH,ILS_TRACK,81.98,84,2.02,1292.23,-4.4,4.7,7.47,113.74,-0.507,0.4166,20,114,-2.212,-1229.65,-1.99,22.15,33.966,0.788,0,0,0,98.94,0,0,0,0,0,0,0,0,0,0,0,0,0,2,2,337.33,FLYING
338.09,APPROACH,ILS_TRACK,82,84,2,1288.74,-4.31,4.69,7.41,113.77,-0.453,0.3988,20,114,-2.337,-1199.18,-2.02,22.084,32.728,0.663,0,0,0,98.94,0,0,0,0,0,0,0,0,0,0,0,0,0,2,2,338.13,FLYING
338.89,APPROACH,ILS_TRACK,82.07,84,1.93,1285.3,-4.25,4.65,7.32,113.8,-0.382,0.3772,20,114,-2.435,-1168.65,-2,22.018,31.482,0.565,0,0,0,98.94,0,0,0,0,0,0,0,0,0,0,0,0,0,2,2,338.93,FLYING
339.69,APPROACH,ILS_TRACK,82.18,84,1.82,1281.9,-4.22,4.6,7.25,113.81,-0.31,0.3528,20,114,-2.518,-1138.05,-1.94,21.952,30.224,0.482,0,0,0,98.94,0,0,0,0,0,0,0,0,0,0,0,0,0,2,2,339.73,FLYING
340.49,APPROACH,ILS_TRACK,82.32,84,1.68,1278.52,-4.21,4.56,7.19,113.82,-0.249,0.3268,20,114,-2.584,-1107.39,-1.85,21.885,28.965,0.416,0,0,0,98.94,0,0,0,0,0,0,0,0,0,0,0,0,0,2,2,340.53,FLYING
341.29,APPROACH,ILS_TRACK,82.5,84,1.5,1275.15,-4.2,4.51,7.13,113.83,-0.203,0.3003,20,114,-2.645,-1076.65,-1.75,21.819,27.698,0.355,0,0,0,98.94,0,0,0,0,0,0,0,0,0,0,0,0,0,2,2,341.33,FLYING
342.09,APPROACH,ILS_TRACK,82.69,84,1.31,1271.78,-4.19,4.45,7.06,113.84,-0.17,0.2742,20,114,-2.704,-1045.83,-1.63,21.752,26.423,0.296,0,0,0,98.94,0,0,0,0,0,0,0,0,0,0,0,0,0,2,2,342.13,FLYING
342.89,APPROACH,ILS_TRACK,82.9,84,1.1,1268.42,-4.19,4.39,7,113.85,-0.151,0.2491,20,114,-2.761,-1014.93,-1.5,21.686,25.147,0.239,0,0,0,98.94,0,0,0,0,0,0,0,0,0,0,0,0,0,2,2,342.93,FLYING
343.69,APPROACH,ILS_TRACK,83.12,84,0.88,1265.05,-4.18,4.32,6.92,113.86,-0.134,0.2255,20,112.87,-2.815,-983.95,-1.36,21.619,23.869,0.185,0,0,0,98.94,0,0,0,0,0,0,0,0,0,0,0,0,0,2,2,343.73,FLYING
344.49,APPROACH,ILS_TRACK,83.34,84,0.66,1261.68,-4.21,4.24,6.85,113.79,0.338,0.2041,20,111.58,-2.85,-952.89,-1.22,21.552,22.581,0.15,0,0,0,98.94,0,0,0,0,0,0,0,0,0,0,0,0,0,2,2,344.53,FLYING
345.29,APPROACH,ILS_TRACK,83.55,84,0.45,1258.29,-4.24,4.18,6.8,113.62,1.191,0.1866,20,110.32,-2.878,-921.77,-1.09,21.485,21.315,0.122,0,0,0,98.94,0,0,0,0,0,0,0,0,0,0,0,0,0,2,2,345.33,FLYING
346.09,APPROACH,ILS_TRACK,83.73,84,0.27,1254.88,-4.26,4.14,6.78,113.35,2.253,0.1748,20,109.09,-2.903,-890.7,-0.97,21.418,20.091,0.097,0,0,0,98.94,0,0,0,0,0,0,0,0,0,0,0,0,0,2,2,346.13,FLYING
346.89,APPROACH,ILS_TRACK,83.87,84,0.13,1251.45,-4.28,4.12,6.76,112.98,3.377,0.1691,20,107.93,-2.932,-859.77,-0.85,21.35,18.927,0.068,0,0,0,98.94,0,0,0,0,0,0,0,0,0,0,0,0,0,2,2,346.93,FLYING
347.69,APPROACH,ILS_TRACK,83.97,84,0.03,1248.02,-4.3,4.1,6.76,112.53,4.458,0.169,20,106.84,-2.964,-829.13,-0.74,21.282,17.841,0.036,0,0,0,98.94,0,0,0,0,0,0,0,0,0,0,0,0,0,2,2,347.73,FLYING
348.49,APPROACH,ILS_TRACK,84.04,84,-0.04,1244.57,-4.32,4.08,6.76,112.01,5.426,0.173,19.98,105.83,-2.998,-798.87,-0.62,21.214,16.827,0.002,0,0,0,98.94,0,0,0,0,0,0,0,0,0,0,0,0,0,2,2,348.53,FLYING
349.29,APPROACH,ILS_TRACK,84.08,84,-0.08,1241.1,-4.34,4.06,6.77,111.43,6.249,0.1794,19.939,104.89,-3.029,-769.13,-0.51,21.146,15.893,-0.029,0,0,0,98.94,0,0,0,0,0,0,0,0,0,0,0,0,0,2,2,349.33,FLYING
350.09,APPROACH,ILS_TRACK,84.1,84,-0.1,1237.62,-4.37,4.04,6.77,110.8,6.917,0.1865,19.887,104.03,-3.055,-739.98,-0.4,21.078,15.028,-0.055,0,0,0,98.94,0,0,0,0,0,0,0,0,0,0,0,0,0,2,2,350.13,FLYING
350.89,APPROACH,ILS_TRACK,84.12,84,-0.12,1234.11,-4.4,4.02,6.78,110.14,7.442,0.193,19.828,103.23,-3.074,-711.52,-0.3,21.009,14.23,-0.074,0,0,0,98.94,0,0,0,0,0,0,0,0,0,0,0,0,0,2,2,350.93,FLYING
351.69,APPROACH,ILS_TRACK,84.13,84,-0.13,1230.57,-4.44,3.99,6.78,109.46,7.833,0.198,19.762,102.49,-3.085,-683.8,-0.21,20.94,13.489,-0.085,0,0,0,98.94,0,0,0,0,0,0,0,0,0,0,0,0,0,2,2,351.73,FLYING
352.49,APPROACH,ILS_TRACK,84.15,84,-0.15,1227.01,-4.48,3.96,6.77,108.77,8.074,0.201,19.688,101.81,-3.088,-656.86,-0.13,20.87,12.805,-0.088,0,0,0,98.94,0,0,0,0,0,0,0,0,0,0,0,0,0,2,2,352.53,FLYING
353.29,APPROACH,ILS_TRACK,84.17,84,-0.17,1223.41,-4.51,3.93,6.77,108.08,8.186,0.2024,19.603,101.17,-3.086,-630.73,-0.06,20.8,12.166,-0.086,0,0,0,98.94,0,0,0,0,0,0,0,0,0,0,0,0,0,2,2,353.33,FLYING
354.09,APPROACH,ILS_TRACK,84.2,84,-0.2,1219.79,-4.55,3.91,6.76,107.41,8.153,0.2017,19.503,100.57,-3.075,-605.44,-0.01,20.73,11.575,-0.075,0,0,0,98.94,0,0,0,0,0,0,0,0,0,0,0,0,0,2,2,354.13,FLYING
354.89,APPROACH,ILS_TRACK,84.23,84,-0.23,1216.13,-4.59,3.88,6.76,106.73,8.105,0.1997,19.387,100.01,-3.063,-580.98,0.02,20.66,11.008,-0.063,0,0,0,98.94,0,0,0,0,0,0,0,0,0,0,0,0,0,2,2,354.93,FLYING
355.71,APPROACH,ILS_TRACK,84.27,84,-0.27,1212.36,-4.62,3.86,6.75,106.05,8.023,0.1964,19.25,99.17,-3.053,-556.77,0.05,20.588,10.166,-0.053,0,0,0,98.94,0,0,0,0,0,0,0,0,0,0,0,0,0,2,2,355.75,FLYING
356.51,APPROACH,ILS_TRACK,84.31,84,-0.31,1208.65,-4.64,3.83,6.74,105.36,8.1,0.1926,19.093,98.97,-3.046,-533.99,0.06,20.517,9.97,-0.046,0,0,0,98.94,0,0,0,0,0,0,0,0,0,0,0,0,0,2,2,356.55,FLYING
357.31,APPROACH,ILS_TRACK,84.36,84,-0.36,1204.93,-4.67,3.8,6.73,104.73,7.873,0.1876,18.914,98.51,-3.034,-512.04,0.07,20.446,9.508,-0.034,0,0,0,98.94,0,0,0,0,0,0,0,0,0,0,0,0,0,2,2,357.35,FLYING
358.11,APPROACH,ILS_TRACK,84.41,84,-0.41,1201.18,-4.7,3.78,6.72,104.1,7.667,0.1823,18.71,98.07,-3.024,-490.91,0.07,20.374,9.07,-0.024,0,0,0,98.94,0,0,0,0,0,0,0,0,0,0,0,0,0,2,2,358.15,FLYING
358.91,APPROACH,ILS_TRACK,84.45,84,-0.45,1197.41,-4.72,3.76,6.71,103.49,7.465,0.1773,18.484,97.66,-3.014,-470.58,0.07,20.302,8.66,-0.014,0,0,0,98.94,0,0,0,0,0,0,0,0,0,0,0,0,0,2,2,358.95,FLYING
359.71,APPROACH,ILS_TRACK,84.49,84,-0.49,1193.63,-4.73,3.75,6.7,102.9,7.255,0.1732,18.239,97.27,-3.008,-451.04,0.06,20.23,8.268,-0.008,0,0,0,98.94,0,0,0,0,0,0,0,0,0,0,0,0,0,2,2,359.75,FLYING
360.51,APPROACH,ILS_TRACK,84.52,84,-0.52,1189.84,-4.75,3.73,6.69,102.33,7.037,0.1702,17.981,96.9,-3.003,-432.25,0.05,20.158,7.899,-0.003,0,0,0,98.94,0,0,0,0,0,0,0,0,0,0,0,0,0,2,2,360.55,FLYING
361.31,APPROACH,ILS_TRACK,84.53,84,-0.53,1186.03,-4.76,3.73,6.69,101.78,6.805,0.1684,17.714,96.55,-3,-414.22,0.05,20.086,7.551,0,0,0,0,98.94,0,0,0,0,0,0,0,0,0,0,0,0,0,2,2,361.35,FLYING
362.11,APPROACH,ILS_TRACK,84.54,84,-0.54,1182.22,-4.77,3.72,6.69,101.24,6.573,0.1677,17.444,96.22,-2.998,-396.91,0.04,20.013,7.224,0.002,0,0,0,98.94,0,0,0,0,0,0,0,0,0,0,0,0,0,2,2,362.15,FLYING
362.91,APPROACH,ILS_TRACK,84.54,84,-0.54,1178.4,-4.78,3.72,6.69,100.73,6.335,0.168,17.176,95.91,-2.998,-380.31,0.03,19.941,6.909,0.002,0,0,0,98.94,0,0,0,0,0,0,0,0,0,0,0,0,0,2,2,362.95,FLYING
363.71,APPROACH,ILS_TRACK,84.52,84,-0.52,1174.58,-4.78,3.72,6.69,100.24,6.097,0.169,16.915,95.62,-2.999,-364.39,0.03,19.868,6.618,0.001,0,0,0,98.94,0,0,0,0,0,0,0,0,0,0,0,0,0,2,2,363.75,FLYING
364.51,APPROACH,ILS_TRACK,84.5,84,-0.5,1170.75,-4.79,3.72,6.69,99.76,5.86,0.1704,16.662,95.34,-3,-349.13,0.02,19.795,6.336,0,0,0,0,98.94,0,0,0,0,0,0,0,0,0,0,0,0,0,2,2,364.55,FLYING
365.31,APPROACH,ILS_TRACK,84.48,84,-0.48,1166.92,-4.79,3.72,6.7,99.31,5.627,0.1718,16.422,95.07,-3.003,-334.52,0.02,19.722,6.073,-0.003,0,0,0,98.94,0,0,0,0,0,0,0,0,0,0,0,0,0,2,2,365.35,FLYING
366.11,APPROACH,ILS_TRACK,84.46,84,-0.46,1163.09,-4.79,3.73,6.7,98.87,5.395,0.173,16.193,94.82,-3.007,-320.51,0.02,19.649,5.816,-0.007,0,0,0,98.94,0,0,0,0,0,0,0,0,0,0,0,0,0,2,2,366.15,FLYING
366.91,APPROACH,ILS_TRACK,84.43,84,-0.43,1159.26,-4.79,3.73,6.7,98.45,5.17,0.1739,15.978,94.58,-3.01,-307.09,0.02,19.575,5.576,-0.01,0,0,0,98.94,0,0,0,0,0,0,0,0,0,0,0,0,0,2,2,366.95,FLYING
367.71,APPROACH,ILS_TRACK,84.41,84,-0.41,1155.42,-4.79,3.73,6.7,98.05,4.949,0.1744,15.774,94.35,-3.014,-294.24,0.03,19.502,5.345,-0.014,0,0,0,98.94,0,0,0,0,0,0,0,0,0,0,0,0,0,2,2,367.75,FLYING
368.53,APPROACH,ILS_TRACK,84.38,84,-0.38,1151.49,-4.8,3.74,6.71,97.66,4.728,0.1747,15.583,93.96,-3.019,-281.64,0.03,19.427,4.965,-0.019,0,0,0,98.94,0,0,0,0,0,0,0,0,0,0,0,0,0,2,2,368.57,FLYING
369.33,APPROACH,ILS_TRACK,84.36,84,-0.36,1147.65,-4.8,3.74,6.71,97.28,4.589,0.1746,15.403,93.91,-3.026,-269.87,0.04,19.354,4.909,-0.026,0,0,0,98.94,0,0,0,0,0,0,0,0,0,0,0,0,0,2,2,369.37,FLYING
370.13,APPROACH,ILS_TRACK,84.34,84,-0.34,1143.82,-4.8,3.74,6.71,96.93,4.368,0.1742,15.234,93.71,-3.03,-258.6,0.05,19.28,4.709,-0.03,0,0,0,98.94,0,0,0,0,0,0,0,0,0,0,0,0,0,2,2,370.17,FLYING
370.93,APPROACH,ILS_TRACK,84.32,84,-0.32,1139.98,-4.8,3.74,6.71,96.59,4.159,0.1737,15.075,93.52,-3.035,-247.81,0.06,19.207,4.519,-0.035,0,0,0,98.94,0,0,0,0,0,0,0,0,0,0,0,0,0,2,2,370.97,FLYING
371.73,APPROACH,ILS_TRACK,84.3,84,-0.3,1136.14,-4.8,3.74,6.72,96.27,3.962,0.173,14.925,93.34,-3.039,-237.48,0.07,19.133,4.336,-0.039,0,0,0,98.94,0,0,0,0,0,0,0,0,0,0,0,0,0,2,2,371.77,FLYING
372.53,APPROACH,ILS_TRACK,84.28,84,-0.28,1132.3,-4.8,3.75,6.72,95.97,3.78,0.1723,14.785,93.16,-3.044,-227.59,0.08,19.06,4.158,-0.044,0,0,0,98.94,0,0,0,0,0,0,0,0,0,0,0,0,0,2,2,372.57,FLYING
373.33,APPROACH,ILS_TRACK,84.26,84,-0.26,1128.46,-4.8,3.75,6.72,95.67,3.609,0.1718,14.654,92.99,-3.048,-218.12,0.1,18.986,3.987,-0.048,0,0,0,98.94,0,0,0,0,0,0,0,0,0,0,0,0,0,2,2,373.37,FLYING
374.13,APPROACH,ILS_TRACK,84.24,84,-0.24,1124.62,-4.8,3.75,6.73,95.39,3.446,0.1714,14.533,92.82,-3.053,-209.04,0.11,18.913,3.825,-0.053,0,0,0,98.94,0,0,0,0,0,0,0,0,0,0,0,0,0,2,2,374.17,FLYING
374.93,APPROACH,ILS_TRACK,84.22,84,-0.22,1120.78,-4.8,3.75,6.73,95.12,3.292,0.1712,14.421,92.67,-3.056,-200.35,0.12,18.839,3.669,-0.056,0,0,0,98.94,0,0,0,0,0,0,0,0,0,0,0,0,0,2,2,374.97,FLYING
375.75,APPROACH,ILS_TRACK,84.2,83.6,-0.6,1116.94,-4.8,3.76,6.73,94.87,3.145,0.1488,14.12,92.52,-3.06,-192.03,0.13,18.766,3.518,-0.06,0,0,0,98.94,0,0,0,0,0,0,0,0,0,0,0,0,0,2,2,375.77,FLYING
376.53,APPROACH,ILS_TRACK,84.17,83.2,-0.97,1113.09,-4.8,3.77,6.74,94.62,3.007,0.1252,13.632,92.37,-3.064,-184.05,0.15,18.692,3.373,-0.064,0,0,0,98.94,0,0,0,0,0,0,0,0,0,0,0,0,0,2,2,376.57,FLYING
377.35,APPROACH,ILS_TRACK,84.12,82.8,-1.32,1109.25,-4.8,3.79,6.77,94.39,2.873,0.1033,12.972,92.24,-3.068,-176.41,0.16,18.619,3.236,-0.068,0,0,0,98.94,0,0,0,0,0,0,0,0,0,0,0,0,0,2,2,377.37,FLYING
378.17,APPROACH,ILS_TRACK,84.02,82.4,-1.62,1105.22,-4.8,3.83,6.81,94.15,2.744,0.086,12.162,91.91,-3.073,-168.74,0.17,18.542,2.913,-0.073,0,0,0,98.94,0,0,0,0,0,0,0,0,0,0,0,0,0,2,2,378.21,FLYING
378.97,APPROACH,ILS_TRACK,83.86,82,-1.86,1101.39,-4.8,3.88,6.86,93.92,2.693,0.0732,11.227,91.97,-3.075,-161.75,0.18,18.468,2.975,-0.075,0,0,0,98.94,0,0,0,0,0,0,0,0,0,0,0,0,0,2,2,379.01,FLYING
379.77,APPROACH,ILS_TRACK,83.66,81.6,-2.06,1097.56,-4.8,3.94,6.93,93.71,2.543,0.0656,10.197,91.86,-3.075,-155.07,0.19,18.395,2.864,-0.075,0,0,0,98.94,0,0,0,0,0,0,0,0,0,0,0,0,0,2,2,379.81,FLYING
380.57,APPROACH,ILS_TRACK,83.39,81.2,-2.19,1093.74,-4.79,4.03,7.02,93.51,2.401,0.063,9.099,91.76,-3.072,-148.7,0.2,18.322,2.761,-0.072,0,0,0,98.94,0,0,0,0,0,0,0,0,0,0,0,0,0,2,2,380.61,FLYING
381.37,APPROACH,ILS_TRACK,83.07,80.8,-2.27,1089.94,-4.78,4.13,7.12,93.32,2.265,0.0645,7.961,91.66,-3.069,-142.61,0.21,18.249,2.662,-0.069,0,0,0,98.94,0,0,0,0,0,0,0,0,0,0,0,0,0,2,2,381.41,FLYING
382.17,APPROACH,ILS_TRACK,82.7,80.4,-2.3,1086.14,-4.76,4.24,7.24,93.14,2.135,0.0689,6.805,91.57,-3.066,-136.8,0.21,18.177,2.567,-0.066,0,0,0,98.94,0,0,0,0,0,0,0,0,0,0,0,0,0,2,2,382.21,FLYING
382.99,APPROACH,ILS_TRACK,82.29,80,-2.29,1082.26,-4.74,4.36,7.37,92.97,2.01,0.0765,5.656,91.4,-3.062,-131.12,0.21,18.103,2.403,-0.062,0,0,0,98.94,0,0,0,0,0,0,0,0,0,0,0,0,0,2,2,383.03,FLYING
383.81,APPROACH,ILS_TRACK,81.85,80,-1.85,1078.41,-4.72,4.49,7.5,92.8,1.922,0.1068,4.727,91.32,-3.057,-125.7,0.2,18.029,2.321,-0.057,0,0,0,98.94,0,0,0,0,0,0,0,0,0,0,0,0,0,2,2,383.85,FLYING
384.63,APPROACH,ILS_TRACK,81.39,80,-1.39,1074.57,-4.7,4.63,7.64,92.64,1.824,0.138,4.026,91.24,-3.052,-120.54,0.2,17.956,2.241,-0.052,0,0,0,98.94,0,0,0,0,0,0,0,0,0,0,0,0,0,2,2,384.67,FLYING
385.45,APPROACH,ILS_TRACK,80.94,80,-0.94,1070.75,-4.67,4.76,7.77,92.48,1.721,0.1684,3.551,91.16,-3.047,-115.62,0.19,17.883,2.165,-0.047,0,0,0,98.94,0,0,0,0,0,0,0,0,0,0,0,0,0,2,2,385.49,FLYING
386.27,APPROACH,ILS_TRACK,80.49,80,-0.49,1066.95,-4.65,4.89,7.9,92.34,1.619,0.1976,3.3,91.09,-3.043,-110.93,0.19,17.811,2.093,-0.043,0,0,0,98.94,0,0,0,0,0,0,0,0,0,0,0,0,0,2,2,386.31,FLYING
387.09,APPROACH,ILS_TRACK,80.06,80,-0.06,1063.17,-4.62,5.02,8.03,92.2,1.521,0.2254,3.265,91.02,-3.038,-106.46,0.18,17.739,2.022,-0.038,0,0,0,98.94,0,0,0,0,0,0,0,0,0,0,0,0,0,2,2,387.13,FLYING
387.91,APPROACH,ILS_TRACK,79.65,80,0.35,1059.41,-4.6,5.14,8.15,92.08,1.429,0.2513,3.435,90.95,-3.037,-102.18,0.17,17.667,1.949,-0.037,0,0,0,98.94,0,0,0,0,0,0,0,0,0,0,0,0,0,2,2,387.95,FLYING
388.73,APPROACH,ILS_TRACK,79.26,80,0.74,1055.67,-4.57,5.25,8.26,91.96,1.345,0.275,3.799,90.89,-3.033,-98.1,0.16,17.596,1.886,-0.033,0,0,0,98.94,0,0,0,0,0,0,0,0,0,0,0,0,0,2,2,388.77,FLYING
389.55,APPROACH,ILS_TRACK,78.91,80,1.09,1051.95,-4.55,5.36,8.37,91.84,1.266,0.2963,4.341,90.82,-3.032,-94.2,0.15,17.525,1.815,-0.032,0,0,0,98.94,0,0,0,0,0,0,0,0,0,0,0,0,0,2,2,389.59,FLYING
390.37,APPROACH,ILS_TRACK,78.59,80,1.41,1048.24,-4.53,5.45,8.46,91.73,1.196,0.3149,5.044,90.75,-3.032,-90.46,0.14,17.454,1.749,-0.032,0,0,0,98.94,0,0,0,0,0,0,0,0,0,0,0,0,0,2,2,390.41,FLYING
391.19,APPROACH,ILS_TRACK,78.31,80,1.69,1044.55,-4.51,5.53,8.54,91.63,1.133,0.3307,5.888,90.69,-3.031,-86.88,0.14,17.384,1.685,-0.031,0,0,0,98.94,0,0,0,0,0,0,0,0,0,0,0,0,0,2,2,391.23,FLYING
392.01,APPROACH,ILS_TRACK,78.06,80,1.94,1040.87,-4.49,5.6,8.6,91.53,1.077,0.3434,6.853,90.62,-3.032,-83.45,0.13,17.314,1.622,-0.032,0,0,0,98.94,0,0,0,0,0,0,0,0,0,0,0,0,0,2,2,392.05,FLYING
392.83,APPROACH,ILS_TRACK,77.87,80,2.13,1037.21,-4.47,5.65,8.65,91.43,1.027,0.3531,7.917,90.56,-3.034,-80.15,0.13,17.244,1.558,-0.034,0,0,0,98.94,0,0,0,0,0,0,0,0,0,0,0,0,0,2,2,392.87,FLYING
393.65,APPROACH,ILS_TRACK,77.71,80,2.29,1033.55,-4.46,5.69,8.68,91.34,0.982,0.3596,9.059,90.5,-3.037,-76.99,0.13,17.174,1.496,-0.037,0,0,0,98.94,0,0,0,0,0,0,0,0,0,0,0,0,0,2,2,393.69,FLYING
394.47,APPROACH,ILS_TRACK,77.61,80,2.39,1029.9,-4.45,5.71,8.7,91.26,0.941,0.363,10.255,90.44,-3.041,-73.94,0.13,17.104,1.436,-0.041,0,0,0,98.94,0,0,0,0,0,0,0,0,0,0,0,0,0,2,2,394.51,FLYING
395.29,APPROACH,ILS_TRACK,77.54,80,2.46,1026.26,-4.44,5.71,8.7,91.17,0.904,0.3632,11.483,90.38,-3.045,-71.02,0.13,17.035,1.377,-0.045,0,0,0,98.94,0,0,0,0,0,0,0,0,0,0,0,0,0,2,2,395.33,FLYING
396.11,APPROACH,ILS_TRACK,77.52,80,2.48,1022.63,-4.43,5.71,8.69,91.09,0.87,0.3605,12.721,90.32,-3.051,-68.2,0.14,16.965,1.321,-0.051,0,0,0,98.94,0,0,0,0,0,0,0,0,0,0,0,0,0,2,2,396.15,FLYING
396.93,APPROACH,ILS_TRACK,77.55,80,2.45,1018.99,-4.42,5.69,8.67,91.01,0.838,0.355,13.947,90.26,-3.058,-65.49,0.15,16.896,1.262,-0.058,0,0,0,98.94,0,0,0,0,0,0,0,0,0,0,0,0,0,2,2,396.97,FLYING
397.75,APPROACH,ILS_TRACK,77.61,80,2.39,1015.36,-4.42,5.65,8.63,90.93,0.811,0.3468,15.142,90.21,-3.065,-62.87,0.16,16.826,1.207,-0.065,0,0,0,98.94,0,0,0,0,0,0,0,0,0,0,0,0,0,2,2,397.79,FLYING
398.57,APPROACH,ILS_TRACK,77.72,80,2.28,1011.73,-4.42,5.6,8.58,90.86,0.786,0.3361,16.286,90.16,-3.072,-60.36,0.17,16.757,1.158,-0.072,0,0,0,98.94,0,0,0,0,0,0,0,0,0,0,0,0,0,2,2,398.61,FLYING
