t_s,phase,subphase,ias_ms,vapp_ms,spd_err_ms,agl_m,vs_ms,pitch_deg,aoa_deg,hdg_deg,bank_deg,thr_cmd,thr_intg,aa_hdg_cmd_deg,aa_fpa_cmd_deg,ils_loc_m,ils_gs_m,ils_dist_km,loc_corr_deg,gs_corr_deg,flare_fpa_cmd,flare_tgt_vs,flare_frac,steer_hdg_deg,steer_blend,ro_loc_corr_deg,ro_hdg_err_deg,ro_yaw_tgt,ro_yaw_scale,ro_yaw_gate,yaw_cmd,roll_cmd,pitch_cmd,ro_pitch_tgt_deg,ro_pitch_err_deg,ro_pitch_ff,ro_roll_assist,flaps_cur,flaps_tgt,phase_el_s,status
0.2,APPROACH,FLY_TO_FIX,215.05,200,-15.05,2972,-13.78,-3.45,-0.13,269.88,-0.773,0,-1.201,235.81,0.137,0,0,0,0,0,0,0,0,269.9,0,0,0,0,0,0,0,0,0,0,0,0,0,0,1,0.24,FLYING
0.4,APPROACH,FLY_TO_FIX,215.44,200,-15.44,2968.13,-16.27,-5.34,-1.57,269.92,-0.254,0,-4.598,236.96,0.156,0,0,0,0,0,0,0,0,269.9,0,0,0,0,0,0,0,0,0,0,0,0,0,0,1,0.44,FLYING
0.62,APPROACH,FLY_TO_FIX,215.78,200,-15.78,2964.41,-18.79,-5.98,-1.76,269.93,-0.092,0,-7.749,238.12,0.176,0,0,0,0,0,0,0,0,269.9,0,0,0,0,0,0,0,0,0,0,0,0,0,1,1,0.66,FLYING
0.82,APPROACH,FLY_TO_FIX,216.05,200,-16.05,2960.49,-21.08,-5.67,-0.96,269.94,-0.058,0,-11.279,239.17,0.196,0,0,0,0,0,0,0,0,269.9,0,0,0,0,0,0,0,0,0,0,0,0,0,1,1,0.86,FLYING
1.02,APPROACH,FLY_TO_FIX,216.4,200,-16.4,2956.12,-22.52,-5.84,-0.7,269.94,-0.032,0,-14.559,240.23,0.217,0,0,0,0,0,0,0,0,269.9,0,0,0,0,0,0,0,0,0,0,0,0,0,1,1,1.06,FLYING
1.28,APPROACH,FLY_TO_FIX,216.77,200,-16.77,2949.57,-24.6,-7.55,-1.85,269.94,-0.012,0,-18.92,241.6,0.249,0,0,0,0,0,0,0,0,269.9,0,0,0,0,0,0,0,0,0,0,0,0,0,1,1,1.32,FLYING
1.48,APPROACH,FLY_TO_FIX,217.1,200,-17.1,2943.97,-26.84,-9.21,-3.03,269.94,-0.001,0,-20,242.66,0.277,0,0,0,0,0,0,0,0,269.9,0,0,0,0,0,0,0,0,0,0,0,0,0,1,1,1.52,FLYING
1.68,APPROACH,FLY_TO_FIX,217.4,200,-17.4,2937.99,-29.52,-10.45,-3.75,269.94,0.132,0,-20,243.71,0.307,0,0,0,0,0,0,0,0,269.9,0,0,0,0,0,0,0,0,0,0,0,0,0,1,1,1.72,FLYING
1.88,APPROACH,FLY_TO_FIX,217.6,200,-17.6,2931.7,-32.28,-10.81,-3.57,269.96,1.7,0,-20,244.77,0.338,0,0,0,0,0,0,0,0,269.9,0,0,0,0,0,0,0,0,0,0,0,0,0,1,1,1.92,FLYING
2.08,APPROACH,FLY_TO_FIX,217.75,200,-17.75,2925.17,-34.78,-10.2,-2.46,269.98,4.218,0,-20,245.83,0.371,0,0,0,0,0,0,0,0,269.9,0,0,0,0,0,0,0,0,0,0,0,0,0,1,1,2.12,FLYING
2.34,APPROACH,FLY_TO_FIX,218.05,200,-18.05,2916.18,-37.12,-8.99,-0.7,269.92,6.051,0,-20,247.2,0.416,0,0,0,0,0,0,0,0,269.9,0,0,0,0,0,0,0,0,0,0,0,0,0,1,1,2.38,FLYING
2.54,APPROACH,FLY_TO_FIX,218.32,200,-18.32,2908.85,-38.59,-8.19,0.43,269.81,7.478,0,-20,248.26,0.452,0,0,0,0,0,0,0,0,269.9,0,0,0,0,0,0,0,0,0,0,0,0,0,1,1,2.58,FLYING
2.74,APPROACH,FLY_TO_FIX,218.51,200,-18.51,2901.3,-39.8,-7.16,1.74,269.53,10.826,0,-20,249.32,0.49,0,0,0,0,0,0,0,0,269.9,0,0,0,0,0,0,0,0,0,0,0,0,0,1,1,2.78,FLYING
2.94,APPROACH,FLY_TO_FIX,218.64,200,-18.64,2893.65,-40.65,-5.79,3.35,269.02,14.001,0,-20,250.37,0.528,0,0,0,0,0,0,0,0,269.9,0,0,0,0,0,0,0,0,0,0,0,0,0,1,1,2.98,FLYING
3.14,APPROACH,FLY_TO_FIX,218.72,200,-18.72,2885.91,-40.93,-4.35,4.98,268.38,16.241,0,-20,251.43,0.567,0,0,0,0,0,0,0,0,269.9,0,0,0,0,0,0,0,0,0,0,0,0,0,1,1,3.18,FLYING
3.4,APPROACH,FLY_TO_FIX,218.71,200,-18.71,2875.72,-40.79,-2.88,6.58,267.6,17.593,0,-20,252.81,0.617,0,0,0,0,0,0,0,0,269.9,0,0,0,0,0,0,0,0,0,0,0,0,0,1,1,3.44,FLYING
3.6,APPROACH,FLY_TO_FIX,218.57,200,-18.57,2867.86,-40.42,-1.97,7.51,267.06,18.722,0,-20,253.88,0.657,0,0,0,0,0,0,0,0,269.9,0,0,0,0,0,0,0,0,0,0,0,0,0,1,1,3.64,FLYING
3.8,APPROACH,FLY_TO_FIX,218.31,200,-18.31,2860.04,-39.82,-1.25,8.22,266.5,20.306,0,-20,254.94,0.696,0,0,0,0,0,0,0,0,269.9,0,0,0,0,0,0,0,0,0,0,0,0,0,1,1,3.84,FLYING
4,APPROACH,FLY_TO_FIX,217.96,200,-17.96,2852.3,-39.18,-0.69,8.73,265.99,20.658,0,-20,256.01,0.735,0,0,0,0,0,0,0,0,269.9,0,0,0,0,0,0,0,0,0,0,0,0,0,1,1,4.04,FLYING
4.2,APPROACH,FLY_TO_FIX,217.53,200,-17.53,2844.69,-38.47,-0.11,9.23,265.5,21.198,0,-20,257.09,0.773,0,0,0,0,0,0,0,0,269.9,0,0,0,0,0,0,0,0,0,0,0,0,0,1,1,4.24,FLYING
4.46,APPROACH,FLY_TO_FIX,216.83,200,-16.83,2835.07,-37.38,0.76,9.96,264.8,21.888,0,-20,258.49,0.821,0,0,0,0,0,0,0,0,269.9,0,0,0,0,0,0,0,0,0,0,0,0,0,1,1,4.5,FLYING
4.66,APPROACH,FLY_TO_FIX,216.21,200,-16.21,2827.88,-36.35,1.44,10.51,264.29,21.776,0,-20,259.57,0.857,0,0,0,0,0,0,0,0,269.9,0,0,0,0,0,0,0,0,0,0,0,0,0,1,1,4.7,FLYING
4.86,APPROACH,FLY_TO_FIX,215.53,200,-15.53,2820.85,-35.17,1.87,10.73,263.99,20.727,0,-20,260.65,0.892,0,0,0,0,0,0,0,0,269.9,0,0,0,0,0,0,0,0,0,0,0,0,0,1,1,4.9,FLYING
5.06,APPROACH,FLY_TO_FIX,214.8,200,-14.8,2813.96,-34.03,1.99,10.54,263.98,18.289,0,-20,261.73,0.927,0,0,0,0,0,0,0,0,269.9,0,0,0,0,0,0,0,0,0,0,0,0,0,1,1,5.1,FLYING
5.26,APPROACH,FLY_TO_FIX,214.09,200,-14.09,2807.25,-32.97,1.98,10.2,264.13,16.051,0,-20,262.82,0.96,0,0,0,0,0,0,0,0,269.9,0,0,0,0,0,0,0,0,0,0,0,0,0,1,1,5.3,FLYING
5.52,APPROACH,FLY_TO_FIX,213.2,200,-13.2,2798.81,-31.72,1.91,9.72,264.42,13.524,0,-20,264.24,1.003,0,0,0,0,0,0,0,0,269.9,0,0,0,0,0,0,0,0,0,0,0,0,0,1,1,5.56,FLYING
5.72,APPROACH,FLY_TO_FIX,212.54,200,-12.54,2792.54,-30.85,1.9,9.4,264.68,10.841,0,-20,265.33,1.034,0,0,0,0,0,0,0,0,269.9,0,0,0,0,0,0,0,0,0,0,0,0,0,1,1,5.76,FLYING
5.92,APPROACH,FLY_TO_FIX,211.9,200,-11.9,2786.46,-30.04,1.95,9.18,264.98,7.976,0,-20,266.42,1.065,0,0,0,0,0,0,0,0,269.9,0,0,0,0,0,0,0,0,0,0,0,0,0,1,1,5.96,FLYING
6.12,APPROACH,FLY_TO_FIX,211.28,200,-11.28,2780.56,-29.26,2.08,9.05,265.32,5.169,0,-20,267.51,1.094,0,0,0,0,0,0,0,0,269.9,0,0,0,0,0,0,0,0,0,0,0,0,0,1,1,6.16,FLYING
6.32,APPROACH,FLY_TO_FIX,210.66,200,-10.66,2774.83,-28.5,2.29,9.02,265.69,2.24,0,-20,268.6,1.123,0,0,0,0,0,0,0,0,269.9,0,0,0,0,0,0,0,0,0,0,0,0,0,1,1,6.36,FLYING
6.58,APPROACH,FLY_TO_FIX,209.86,200,-9.86,2767.65,-27.5,2.67,9.13,266.23,-1.389,0,-20,270.02,1.159,0,0,0,0,0,0,0,0,269.9,0,0,0,0,0,0,0,0,0,0,0,0,0,1,1,6.62,FLYING
6.78,APPROACH,FLY_TO_FIX,209.22,200,-9.22,2762.33,-26.71,3.05,9.32,266.69,-3.94,0,-20,271.1,1.186,0,0,0,0,0,0,0,0,269.9,0,0,0,0,0,0,0,0,0,0,0,0,0,1,1,6.82,FLYING
6.98,APPROACH,FLY_TO_FIX,208.55,200,-8.55,2757.19,-25.89,3.48,9.57,267.17,-6.866,0,-20,272.19,1.212,0,0,0,0,0,0,0,0,269.9,0,0,0,0,0,0,0,0,0,0,0,0,0,1,1,7.02,FLYING
7.18,APPROACH,FLY_TO_FIX,207.87,200,-7.87,2752.22,-25.01,3.93,9.86,267.68,-9.416,0,-20,273.27,1.236,0,0,0,0,0,0,0,0,269.9,0,0,0,0,0,0,0,0,0,0,0,0,0,1,1,7.22,FLYING
7.38,APPROACH,FLY_TO_FIX,207.16,200,-7.16,2747.38,-24.04,4.15,9.94,268.21,-11.66,0,-20,274.34,1.261,0,0,0,0,0,0,0,0,269.9,0,0,0,0,0,0,0,0,0,0,0,0,0,1,1,7.42,FLYING
7.64,APPROACH,FLY_TO_FIX,206.23,200,-6.23,2741.27,-22.94,4.15,9.77,268.86,-14.45,0,-20,275.74,1.291,0,0,0,0,0,0,0,0,269.9,0,0,0,0,0,0,0,0,0,0,0,0,0,1,1,7.68,FLYING
7.84,APPROACH,FLY_TO_FIX,205.51,200,-5.51,2736.73,-22.21,4.1,9.63,269.36,-16.651,0,-20,276.8,1.314,0,0,0,0,0,0,0,0,269.9,0,0,0,0,0,0,0,0,0,0,0,0,0,1,1,7.88,FLYING
8.04,APPROACH,FLY_TO_FIX,204.8,200,-4.8,2732.34,-21.57,4.08,9.55,269.89,-18.784,0,-20,277.86,1.336,0,0,0,0,0,0,0,0,269.9,0,0,0,0,0,0,0,0,0,0,0,0,0,1,1,8.08,FLYING
8.24,APPROACH,FLY_TO_FIX,204.1,200,-4.1,2728.09,-21,4.12,9.55,270.41,-19.936,0,-20,278.91,1.357,0,0,0,0,0,0,0,0,269.9,0,0,0,0,0,0,0,0,0,0,0,0,0,1,1,8.28,FLYING
8.44,APPROACH,FLY_TO_FIX,203.38,200,-3.38,2723.98,-20.47,4.27,9.68,270.95,-20.732,0,-20,279.96,1.378,0,0,0,0,0,0,0,0,269.9,0,0,0,0,0,0,0,0,0,0,0,0,0,1,1,8.48,FLYING
8.7,APPROACH,FLY_TO_FIX,202.43,200,-2.43,2718.84,-19.74,4.62,10.02,271.76,-23.02,0,-20,281.31,1.404,0,0,0,0,0,0,0,0,269.9,0,0,0,0,0,0,0,0,0,0,0,0,0,1,1,8.74,FLYING
8.9,APPROACH,FLY_TO_FIX,201.68,200,-1.68,2715.04,-19.15,4.95,10.36,272.46,-24.907,0,-20,282.34,1.423,0,0,0,0,0,0,0,0,269.9,0,0,0,0,0,0,0,0,0,0,0,0,0,1,1,8.94,FLYING
9.1,APPROACH,FLY_TO_FIX,200.9,200,-0.9,2711.33,-18.45,5.11,10.54,273.07,-25.514,0,-20,283.37,1.442,0,0,0,0,0,0,0,0,269.9,0,0,0,0,0,0,0,0,0,0,0,0,0,1,1,9.14,FLYING
9.3,APPROACH,FLY_TO_FIX,200.12,200,-0.12,2707.66,-17.83,4.97,10.34,273.44,-25.482,0,-20,284.38,1.46,0,0,0,0,0,0,0,0,269.9,0,0,0,0,0,0,0,0,0,0,0,0,0,1,1,9.34,FLYING
9.5,APPROACH,FLY_TO_FIX,199.36,200,0.64,2704.08,-17.35,4.75,10.03,273.7,-25.689,0,-19.871,285.39,1.478,0,0,0,0,0,0,0,0,269.9,0,0,0,0,0,0,0,0,0,0,0,0,0,1,1,9.54,FLYING
9.76,APPROACH,FLY_TO_FIX,198.39,200,1.61,2699.57,-16.91,4.57,9.77,274.04,-26.141,0,-19.452,286.69,1.5,0,0,0,0,0,0,0,0,269.9,0,0,0,0,0,0,0,0,0,0,0,0,0,1,1,9.8,FLYING
9.96,APPROACH,FLY_TO_FIX,197.65,200,2.35,2696.23,-16.63,4.64,9.8,274.4,-26.586,0,-18.983,287.68,1.517,0,0,0,0,0,0,0,0,269.9,0,0,0,0,0,0,0,0,0,0,0,0,0,1,1,10,FLYING
10.16,APPROACH,FLY_TO_FIX,196.91,200,3.09,2692.99,-16.34,4.89,10.03,274.87,-27.142,0,-18.365,288.66,1.533,0,0,0,0,0,0,0,0,269.9,0,0,0,0,0,0,0,0,0,0,0,0,0,1,1,10.2,FLYING
10.36,APPROACH,FLY_TO_FIX,196.16,200,3.84,2689.56,-15.99,5.29,10.44,275.42,-27.564,0,-17.598,289.64,1.549,0,0,0,0,0,0,0,0,269.9,0,0,0,0,0,0,0,0,0,0,0,0,0,1,1,10.4,FLYING
10.56,APPROACH,FLY_TO_FIX,195.4,200,4.6,2686.5,-15.48,5.56,10.68,275.89,-27.756,0.0531,-16.677,290.61,1.564,0,0,0,0,0,0,0,0,269.9,0,0,0,0,0,0,0,0,0,0,0,0,0,1,1,10.6,FLYING
10.82,APPROACH,FLY_TO_FIX,194.4,200,5.6,2682.56,-14.91,5.58,10.61,276.32,-28.082,0.1256,-15.22,291.85,1.584,0,0,0,0,0,0,0,0,269.9,0,0,0,0,0,0,0,0,0,0,0,0,0,1,1,10.86,FLYING
11.02,APPROACH,FLY_TO_FIX,193.63,200,6.37,2679.62,-14.58,5.59,10.56,276.63,-28.113,0.183,-13.946,292.8,1.599,0,0,0,0,0,0,0,0,269.9,0,0,0,0,0,0,0,0,0,0,0,0,0,1,1,11.06,FLYING
11.22,APPROACH,FLY_TO_FIX,192.88,200,7.12,2676.74,-14.2,5.55,10.42,276.86,-27.964,0.2411,-12.522,293.74,1.613,0,0,0,0,0,0,0,0,269.9,0,0,0,0,0,0,0,0,0,0,0,0,0,1,1,11.26,FLYING
11.42,APPROACH,FLY_TO_FIX,192.17,200,7.83,2673.91,-13.94,5.48,10.27,277.06,-27.888,0.299,-10.957,294.67,1.628,0,0,0,0,0,0,0,0,269.9,0,0,0,0,0,0,0,0,0,0,0,0,0,1,1,11.46,FLYING
11.62,APPROACH,FLY_TO_FIX,191.49,200,8.51,2671.16,-13.73,5.55,10.26,277.34,-27.792,0.3572,-9.254,295.59,1.641,0,0,0,0,0,0,0,0,269.9,0,0,0,0,0,0,0,0,0,0,0,0,0,1,1,11.66,FLYING
11.88,APPROACH,FLY_TO_FIX,190.64,200,9.36,2667.71,-13.36,5.78,10.43,277.77,-27.51,0.4332,-6.819,296.78,1.659,0,0,0,0,0,0,0,0,269.9,0,0,0,0,0,0,0,0,0,0,0,0,0,1,1,11.92,FLYING
12.08,APPROACH,FLY_TO_FIX,190.03,200,9.97,2665.07,-13.05,5.77,10.33,277.99,-27.378,0.4903,-4.826,297.69,1.672,0,0,0,0,0,0,0,0,269.9,0,0,0,0,0,0,0,0,0,0,0,0,0,1,1,12.12,FLYING
12.28,APPROACH,FLY_TO_FIX,189.47,200,10.53,2662.48,-12.85,5.78,10.27,278.24,-27.401,0.5464,-2.72,298.59,1.685,0,0,0,0,0,0,0,0,269.9,0,0,0,0,0,0,0,0,0,0,0,0,0,1,1,12.32,FLYING
12.48,APPROACH,FLY_TO_FIX,188.95,200,11.05,2659.97,-12.68,5.93,10.39,278.6,-27.601,0.6018,-0.51,299.48,1.698,0,0,0,0,0,0,0,0,269.9,0,0,0,0,0,0,0,0,0,0,0,0,0,1,1,12.52,FLYING
12.68,APPROACH,FLY_TO_FIX,188.46,200,11.54,2657.53,-12.36,6.12,10.57,279.01,-27.731,0.6564,1.799,300.37,1.71,0,0,0,0,0,0,0,0,269.9,0,0,0,0,0,0,0,0,0,0,0,0,0,1,1,12.72,FLYING
12.94,APPROACH,FLY_TO_FIX,187.91,200,12.09,2654.37,-12.02,6.15,10.53,279.42,-28.031,0.7243,4.942,301.51,1.726,0,0,0,0,0,0,0,0,269.9,0,0,0,0,0,0,0,0,0,0,0,0,0,1,1,12.98,FLYING
13.14,APPROACH,FLY_TO_FIX,187.54,200,12.46,2652.01,-11.76,6.2,10.54,279.75,-28.111,0.7743,7.433,302.38,1.738,0,0,0,0,0,0,0,0,269.9,0,0,0,0,0,0,0,0,0,0,0,0,0,1,1,13.18,FLYING
13.34,APPROACH,FLY_TO_FIX,187.24,200,12.76,2649.65,-11.5,6.07,10.33,279.96,-28.109,0.8217,9.985,303.25,1.749,0,0,0,0,0,0,0,0,269.9,0,0,0,0,0,0,0,0,0,0,0,0,0,1,1,13.38,FLYING
13.54,APPROACH,FLY_TO_FIX,187.01,200,12.99,2647.35,-11.39,6,10.2,280.2,-28.162,0.8655,12.584,304.11,1.761,0,0,0,0,0,0,0,0,269.9,0,0,0,0,0,0,0,0,0,0,0,0,0,1,1,13.58,FLYING
13.74,APPROACH,FLY_TO_FIX,186.84,200,13.16,2645.12,-11.31,6.15,10.34,280.59,-28.377,0.9065,15.216,304.96,1.772,0,0,0,0,0,0,0,0,269.9,0,0,0,0,0,0,0,0,0,0,0,0,0,1,1,13.78,FLYING
14,APPROACH,FLY_TO_FIX,186.7,200,13.3,2642.28,-10.9,6.29,10.45,281.08,-28.603,0.9556,18.674,306.06,1.786,0,0,0,0,0,0,0,0,269.9,0,0,0,0,0,0,0,0,0,0,0,0,0,1,1,14.04,FLYING
14.2,APPROACH,FLY_TO_FIX,186.68,200,13.32,2640.09,-10.67,6.17,10.27,281.33,-28.839,0.9728,20,306.91,1.797,0,0,0,0,0,0,0,0,269.9,0,0,0,0,0,0,0,0,0,0,0,0,0,1,1,14.24,FLYING
14.4,APPROACH,FLY_TO_FIX,186.73,200,13.27,2637.96,-10.59,6.14,10.21,281.66,-29.245,0.9701,20,307.74,1.808,0,0,0,0,0,0,0,0,269.9,0,0,0,0,0,0,0,0,0,0,0,0,0,1,1,14.44,FLYING
14.6,APPROACH,FLY_TO_FIX,186.83,200,13.17,2635.91,-10.49,6.34,10.44,282.15,-29.654,0.9641,20,308.57,1.818,0,0,0,0,0,0,0,0,269.9,0,0,0,0,0,0,0,0,0,0,0,0,0,1,1,14.64,FLYING
14.8,APPROACH,FLY_TO_FIX,186.99,200,13.01,2633.88,-10.14,6.42,10.49,282.56,-30.035,0.9555,20,309.4,1.829,0,0,0,0,0,0,0,0,269.9,0,0,0,0,0,0,0,0,0,0,0,0,0,1,1,14.84,FLYING
15.06,APPROACH,FLY_TO_FIX,187.29,200,12.71,2631.27,-9.92,6.38,10.42,283.04,-30.586,0.9389,20,310.47,1.842,0,0,0,0,0,0,0,0,269.9,0,0,0,0,0,0,0,0,0,0,0,0,0,1,1,15.1,FLYING
15.26,APPROACH,FLY_TO_FIX,187.59,200,12.41,2629.3,-9.66,6.32,10.32,283.38,-30.864,0.9225,20,311.29,1.852,0,0,0,0,0,0,0,0,269.9,0,0,0,0,0,0,0,0,0,0,0,0,0,1,1,15.3,FLYING
15.46,APPROACH,FLY_TO_FIX,187.95,200,12.05,2627.37,-9.57,6.3,10.28,283.74,-31.137,0.9028,20,312.1,1.861,0,0,0,0,0,0,0,0,269.9,0,0,0,0,0,0,0,0,0,0,0,0,0,1,1,15.5,FLYING
15.66,APPROACH,FLY_TO_FIX,188.35,200,11.65,2625.51,-9.35,6.44,10.4,284.18,-31.33,0.8807,20,312.91,1.871,0,0,0,0,0,0,0,0,269.9,0,0,0,0,0,0,0,0,0,0,0,0,0,1,1,15.7,FLYING
15.86,APPROACH,FLY_TO_FIX,188.79,200,11.21,2623.67,-9.11,6.45,10.39,284.6,-32.152,0.8566,20,313.71,1.88,0,0,0,0,0,0,0,0,269.9,0,0,0,0,0,0,0,0,0,0,0,0,0,1,1,15.9,FLYING
16.12,APPROACH,FLY_TO_FIX,189.42,200,10.58,2621.38,-8.88,6.6,10.59,285.34,-33.58,0.8221,20,314.75,1.891,0,0,0,0,0,0,0,0,269.9,0,0,0,0,0,0,0,0,0,0,0,0,0,1,1,16.16,FLYING
16.32,APPROACH,FLY_TO_FIX,189.91,200,10.09,2619.68,-8.54,6.74,10.86,286.12,-36.064,0.7951,20,315.54,1.9,0,0,0,0,0,0,0,0,269.9,0,0,0,0,0,0,0,0,0,0,0,0,0,1,1,16.36,FLYING
16.52,APPROACH,FLY_TO_FIX,190.41,200,9.59,2617.97,-8.24,6.6,10.84,286.79,-37.519,0.7676,20,316.33,1.908,0,0,0,0,0,0,0,0,269.9,0,0,0,0,0,0,0,0,0,0,0,0,0,1,1,16.56,FLYING
16.72,APPROACH,FLY_TO_FIX,190.94,200,9.06,2616.3,-8.11,6.49,10.82,287.38,-37.773,0.7384,20,317.11,1.917,0,0,0,0,0,0,0,0,269.9,0,0,0,0,0,0,0,0,0,0,0,0,0,1,1,16.76,FLYING
16.92,APPROACH,FLY_TO_FIX,191.5,200,8.5,2614.66,-7.99,6.35,10.65,287.77,-37.736,0.7077,20,317.89,1.925,0,0,0,0,0,0,0,0,269.9,0,0,0,0,0,0,0,0,0,0,0,0,0,1,1,16.96,FLYING
17.18,APPROACH,FLY_TO_FIX,192.27,200,7.73,2612.61,-7.88,6.42,10.68,288.35,-37.792,0.6652,20,318.89,1.935,0,0,0,0,0,0,0,0,269.9,0,0,0,0,0,0,0,0,0,0,0,0,0,1,1,17.22,FLYING
17.38,APPROACH,FLY_TO_FIX,192.87,200,7.13,2611.08,-7.62,6.44,10.65,288.78,-37.994,0.6321,20,319.65,1.943,0,0,0,0,0,0,0,0,269.9,0,0,0,0,0,0,0,0,0,0,0,0,0,1,1,17.42,FLYING
17.58,APPROACH,FLY_TO_FIX,193.49,200,6.51,2609.57,-7.4,6.44,10.62,289.23,-38.25,0.5981,20,320.41,1.951,0,0,0,0,0,0,0,0,269.9,0,0,0,0,0,0,0,0,0,0,0,0,0,1,1,17.62,FLYING
17.78,APPROACH,FLY_TO_FIX,194.12,200,5.88,2608.11,-7.25,6.42,10.57,289.66,-38.485,0.5636,20,321.16,1.958,0,0,0,0,0,0,0,0,269.9,0,0,0,0,0,0,0,0,0,0,0,0,0,1,1,17.82,FLYING
17.98,APPROACH,FLY_TO_FIX,194.75,200,5.25,2606.69,-7.08,6.48,10.62,290.17,-38.833,0.5289,20,321.9,1.965,0,0,0,0,0,0,0,0,269.9,0,0,0,0,0,0,0,0,0,0,0,0,0,1,1,18.02,FLYING
18.24,APPROACH,FLY_TO_FIX,195.56,200,4.44,2604.9,-6.82,6.53,10.67,290.85,-39.39,0.4843,20,322.86,1.974,0,0,0,0,0,0,0,0,269.9,0,0,0,0,0,0,0,0,0,0,0,0,0,1,1,18.28,FLYING
18.44,APPROACH,FLY_TO_FIX,196.17,200,3.83,2603.56,-6.59,6.53,10.66,291.35,-39.79,0.4506,20,323.59,1.981,0,0,0,0,0,0,0,0,269.9,0,0,0,0,0,0,0,0,0,0,0,0,0,1,1,18.48,FLYING
18.64,APPROACH,FLY_TO_FIX,196.77,200,3.23,2602.26,-6.41,6.52,10.63,291.85,-40.143,0.4175,20,324.31,1.987,0,0,0,0,0,0,0,0,269.9,0,0,0,0,0,0,0,0,0,0,0,0,0,1,1,18.68,FLYING
18.84,APPROACH,FLY_TO_FIX,197.36,200,2.64,2601,-6.21,6.53,10.64,292.35,-40.463,0.3854,20,325.03,1.994,0,0,0,0,0,0,0,0,269.9,0,0,0,0,0,0,0,0,0,0,0,0,0,1,1,18.88,FLYING
19.04,APPROACH,FLY_TO_FIX,197.92,200,2.08,2599.78,-6.06,6.52,10.6,292.83,-40.747,0.3546,20,325.73,2,0,0,0,0,0,0,0,0,269.9,0,0,0,0,0,0,0,0,0,0,0,0,0,1,1,19.08,FLYING
19.3,APPROACH,FLY_TO_FIX,198.61,200,1.39,2598.25,-5.8,6.54,10.6,293.48,-41.089,0.3166,20,326.64,2.008,0,0,0,0,0,0,0,0,269.9,0,0,0,0,0,0,0,0,0,0,0,0,0,1,1,19.34,FLYING
19.5,APPROACH,FLY_TO_FIX,199.11,200,0.89,2597.11,-5.64,6.55,10.6,293.98,-41.372,0.2892,20,327.33,2.013,0,0,0,0,0,0,0,0,269.9,0,0,0,0,0,0,0,0,0,0,0,0,0,1,1,19.54,FLYING
19.7,APPROACH,FLY_TO_FIX,199.57,200,0.43,2596.02,-5.43,6.6,10.64,294.51,-41.649,0.2639,20,328.01,2.019,0,0,0,0,0,0,0,0,269.9,0,0,0,0,0,0,0,0,0,0,0,0,0,1,1,19.74,FLYING
19.9,APPROACH,FLY_TO_FIX,199.98,200,0.02,2594.96,-5.28,6.62,10.66,295.04,-41.967,0.2408,20,328.69,2.024,0,0,0,0,0,0,0,0,269.9,0,0,0,0,0,0,0,0,0,0,0,0,0,1,1,19.94,FLYING
20.1,APPROACH,FLY_TO_FIX,200.35,200,-0.35,2593.93,-5.04,6.65,10.69,295.58,-42.264,0.2197,19.929,329.35,2.029,0,0,0,0,0,0,0,0,269.9,0,0,0,0,0,0,0,0,0,0,0,0,0,1,1,20.14,FLYING
20.36,APPROACH,FLY_TO_FIX,200.77,200,-0.77,2592.65,-4.83,6.64,10.65,296.21,-42.49,0.1946,19.73,330.2,2.036,0,0,0,0,0,0,0,0,269.9,0,0,0,0,0,0,0,0,0,0,0,0,0,1,1,20.4,FLYING
20.56,APPROACH,FLY_TO_FIX,201.03,200,-1.03,2591.7,-4.73,6.68,10.66,296.71,-42.574,0.1775,19.524,330.84,2.041,0,0,0,0,0,0,0,0,269.9,0,0,0,0,0,0,0,0,0,0,0,0,0,1,1,20.6,FLYING
20.76,APPROACH,FLY_TO_FIX,201.24,200,-1.24,2590.8,-4.47,6.77,10.71,297.22,-42.488,0.163,19.275,331.48,2.045,0,0,0,0,0,0,0,0,269.9,0,0,0,0,0,0,0,0,0,0,0,0,0,1,1,20.8,FLYING
20.96,APPROACH,FLY_TO_FIX,201.4,200,-1.4,2589.9,-4.28,6.64,10.48,297.55,-42.623,0.1509,18.995,332.1,2.05,0,0,0,0,0,0,0,0,269.9,0,0,0,0,0,0,0,0,0,0,0,0,0,1,1,21,FLYING
21.16,APPROACH,FLY_TO_FIX,201.53,200,-1.53,2589.04,-4.24,6.6,10.44,298.02,-42.927,0.1399,18.689,332.71,2.054,0,0,0,0,0,0,0,0,269.9,0,0,0,0,0,0,0,0,0,0,0,0,0,1,1,21.2,FLYING
21.42,APPROACH,FLY_TO_FIX,201.62,200,-1.62,2588.01,-4.07,6.82,10.76,298.92,-43.357,0.1301,18.268,333.49,2.059,0,0,0,0,0,0,0,0,269.9,0,0,0,0,0,0,0,0,0,0,0,0,0,1,1,21.46,FLYING
21.62,APPROACH,FLY_TO_FIX,201.62,200,-1.62,2587.23,-3.86,6.86,10.8,299.47,-43.5,0.1261,17.943,334.08,2.063,0,0,0,0,0,0,0,0,269.9,0,0,0,0,0,0,0,0,0,0,0,0,0,1,1,21.66,FLYING
21.82,APPROACH,FLY_TO_FIX,201.58,200,-1.58,2586.46,-3.73,6.82,10.69,299.88,-43.386,0.1244,17.626,334.66,2.067,0,0,0,0,0,0,0,0,269.9,0,0,0,0,0,0,0,0,0,0,0,0,0,1,1,21.86,FLYING
22.02,APPROACH,FLY_TO_FIX,201.51,200,-1.51,2585.72,-3.62,6.8,10.57,300.24,-43.088,0.1247,17.324,335.23,2.071,0,0,0,0,0,0,0,0,269.9,0,0,0,0,0,0,0,0,0,0,0,0,0,1,1,22.06,FLYING
22.22,APPROACH,FLY_TO_FIX,201.41,200,-1.41,2585.02,-3.57,6.85,10.56,300.67,-42.867,0.1271,17.042,335.78,2.074,0,0,0,0,0,0,0,0,269.9,0,0,0,0,0,0,0,0,0,0,0,0,0,1,1,22.26,FLYING
22.48,APPROACH,FLY_TO_FIX,201.21,200,-1.21,2584.14,-3.32,6.87,10.49,301.2,-42.611,0.134,16.727,336.49,2.079,0,0,0,0,0,0,0,0,269.9,0,0,0,0,0,0,0,0,0,0,0,0,0,1,1,22.52,FLYING
22.68,APPROACH,FLY_TO_FIX,201.04,200,-1.04,2583.47,-3.27,6.85,10.4,301.58,-42.429,0.141,16.519,337.02,2.082,0,0,0,0,0,0,0,0,269.9,0,0,0,0,0,0,0,0,0,0,0,0,0,1,1,22.72,FLYING
22.88,APPROACH,FLY_TO_FIX,200.83,200,-0.83,2582.86,-3.2,6.99,10.54,302.11,-42.33,0.1504,16.352,337.54,2.085,0,0,0,0,0,0,0,0,269.9,0,0,0,0,0,0,0,0,0,0,0,0,0,1,1,22.92,FLYING
23.08,APPROACH,FLY_TO_FIX,200.6,200,-0.6,2582.27,-3.03,7.08,10.59,302.6,-42.25,0.1619,16.232,338.05,2.088,0,0,0,0,0,0,0,0,269.9,0,0,0,0,0,0,0,0,0,0,0,0,0,1,1,23.12,FLYING
23.28,APPROACH,FLY_TO_FIX,200.34,200,-0.34,2581.69,-2.91,7.15,10.65,303.09,-42.204,0.1752,16.164,338.54,2.091,0,0,0,0,0,0,0,0,269.9,0,0,0,0,0,0,0,0,0,0,0,0,0,1,1,23.32,FLYING
23.54,APPROACH,FLY_TO_FIX,199.97,200,0.03,2580.98,-2.73,7.21,10.65,303.68,-42.091,0.1954,16.171,339.17,2.095,0,0,0,0,0,0,0,0,269.9,0,0,0,0,0,0,0,0,0,0,0,0,0,1,1,23.58,FLYING
23.74,APPROACH,FLY_TO_FIX,199.68,200,0.32,2580.45,-2.62,7.23,10.62,304.11,-41.945,0.2125,16.235,339.65,2.097,0,0,0,0,0,0,0,0,269.9,0,0,0,0,0,0,0,0,0,0,0,0,0,1,1,23.78,FLYING
23.94,APPROACH,FLY_TO_FIX,199.37,200,0.63,2579.95,-2.5,7.27,10.61,304.54,-41.781,0.2308,16.36,340.11,2.1,0,0,0,0,0,0,0,0,269.9,0,0,0,0,0,0,0,0,0,0,0,0,0,1,1,23.98,FLYING
24.14,APPROACH,FLY_TO_FIX,199.06,200,0.94,2579.47,-2.39,7.29,10.57,304.94,-41.587,0.25,16.547,340.56,2.102,0,0,0,0,0,0,0,0,269.9,0,0,0,0,0,0,0,0,0,0,0,0,0,1,1,24.18,FLYING
24.34,APPROACH,FLY_TO_FIX,198.76,200,1.24,2579.01,-2.28,7.33,10.56,305.36,-41.393,0.2699,16.796,340.99,2.104,0,0,0,0,0,0,0,0,269.9,0,0,0,0,0,0,0,0,0,0,0,0,0,1,1,24.38,FLYING
24.6,APPROACH,FLY_TO_FIX,198.36,200,1.64,2578.46,-2.15,7.4,10.57,305.91,-41.152,0.2966,17.221,341.55,2.107,0,0,0,0,0,0,0,0,269.9,0,0,0,0,0,0,0,0,0,0,0,0,0,1,1,24.64,FLYING
24.8,APPROACH,FLY_TO_FIX,198.07,200,1.93,2578.06,-2.04,7.46,10.59,306.35,-41.03,0.3177,17.608,341.96,2.109,0,0,0,0,0,0,0,0,269.9,0,0,0,0,0,0,0,0,0,0,0,0,0,1,1,24.84,FLYING
25,APPROACH,FLY_TO_FIX,197.77,200,2.23,2577.68,-1.93,7.5,10.58,306.78,-40.977,0.3391,18.053,342.36,2.111,0,0,0,0,0,0,0,0,269.9,0,0,0,0,0,0,0,0,0,0,0,0,0,1,1,25.04,FLYING
25.2,APPROACH,FLY_TO_FIX,197.48,200,2.52,2577.33,-1.82,7.58,10.65,307.28,-40.981,0.361,18.556,342.75,2.113,0,0,0,0,0,0,0,0,269.9,0,0,0,0,0,0,0,0,0,0,0,0,0,1,1,25.24,FLYING
25.4,APPROACH,FLY_TO_FIX,197.2,200,2.8,2576.99,-1.69,7.63,10.69,307.75,-40.994,0.3832,19.116,343.13,2.115,0,0,0,0,0,0,0,0,269.9,0,0,0,0,0,0,0,0,0,0,0,0,0,1,1,25.44,FLYING
25.66,APPROACH,FLY_TO_FIX,196.86,200,3.14,2576.58,-1.52,7.62,10.61,308.27,-40.865,0.4121,19.933,343.61,2.117,0,0,0,0,0,0,0,0,269.9,0,0,0,0,0,0,0,0,0,0,0,0,0,1,1,25.7,FLYING
25.86,APPROACH,FLY_TO_FIX,196.61,200,3.39,2576.29,-1.43,7.65,10.6,308.69,-40.74,0.4265,20,343.96,2.118,0,0,0,0,0,0,0,0,269.9,0,0,0,0,0,0,0,0,0,0,0,0,0,1,1,25.9,FLYING
26.06,APPROACH,FLY_TO_FIX,196.38,200,3.62,2576.03,-1.32,7.69,10.6,309.12,-40.623,0.4391,20,344.31,2.12,0,0,0,0,0,0,0,0,269.9,0,0,0,0,0,0,0,0,0,0,0,0,0,1,1,26.1,FLYING
26.26,APPROACH,FLY_TO_FIX,196.17,200,3.83,2575.79,-1.22,7.74,10.61,309.55,-40.528,0.4507,20,344.64,2.121,0,0,0,0,0,0,0,0,269.9,0,0,0,0,0,0,0,0,0,0,0,0,0,1,1,26.3,FLYING
26.46,APPROACH,FLY_TO_FIX,195.98,200,4.02,2575.57,-1.12,7.78,10.62,309.99,-40.468,0.4613,20,344.96,2.122,0,0,0,0,0,0,0,0,269.9,0,0,0,0,0,0,0,0,0,0,0,0,0,1,1,26.5,FLYING
26.72,APPROACH,FLY_TO_FIX,195.75,200,4.25,2575.32,-0.97,7.83,10.63,310.56,-40.418,0.4737,20,345.37,2.123,0,0,0,0,0,0,0,0,269.9,0,0,0,0,0,0,0,0,0,0,0,0,0,1,1,26.76,FLYING
26.92,APPROACH,FLY_TO_FIX,195.6,200,4.4,2575.14,-0.86,7.85,10.61,310.98,-40.368,0.482,20,345.66,2.124,0,0,0,0,0,0,0,0,269.9,0,0,0,0,0,0,0,0,0,0,0,0,0,1,1,26.96,FLYING
27.12,APPROACH,FLY_TO_FIX,195.47,200,4.53,2575,-0.75,7.89,10.63,311.43,-40.358,0.4893,20,345.95,2.125,0,0,0,0,0,0,0,0,269.9,0,0,0,0,0,0,0,0,0,0,0,0,0,1,1,27.16,FLYING
27.32,APPROACH,FLY_TO_FIX,195.35,200,4.65,2574.88,-0.61,7.96,10.68,311.9,-40.353,0.4957,20,346.23,2.125,0,0,0,0,0,0,0,0,269.9,0,0,0,0,0,0,0,0,0,0,0,0,0,1,1,27.36,FLYING
27.52,APPROACH,FLY_TO_FIX,195.25,200,4.75,2574.76,-0.48,7.92,10.61,312.32,-40.571,0.5012,20,346.49,2.126,0,0,0,0,0,0,0,0,269.9,0,0,0,0,0,0,0,0,0,0,0,0,0,1,1,27.56,FLYING
27.78,APPROACH,FLY_TO_FIX,195.15,200,4.85,2574.67,-0.39,8.02,10.75,313.03,-40.893,0.5068,20,346.82,2.127,0,0,0,0,0,0,0,0,269.9,0,0,0,0,0,0,0,0,0,0,0,0,0,1,1,27.82,FLYING
27.98,APPROACH,FLY_TO_FIX,195.08,200,4.92,2574.62,-0.21,8.05,10.77,313.53,-41.025,0.5104,20,347.06,2.127,0,0,0,0,0,0,0,0,269.9,0,0,0,0,0,0,0,0,0,0,0,0,0,1,1,28.02,FLYING
28.18,APPROACH,FLY_TO_FIX,195.04,200,4.96,2574.58,-0.1,7.99,10.65,313.9,-40.915,0.5128,20,347.29,2.127,0,0,0,0,0,0,0,0,269.9,0,0,0,0,0,0,0,0,0,0,0,0,0,1,1,28.22,FLYING
28.38,APPROACH,FLY_TO_FIX,195.02,200,4.98,2574.56,-0.05,7.97,10.56,314.26,-40.718,0.5138,20,347.51,2.127,0,0,0,0,0,0,0,0,269.9,0,0,0,0,0,0,0,0,0,0,0,0,0,1,1,28.42,FLYING
28.58,APPROACH,FLY_TO_FIX,195.02,200,4.98,2574.58,0.04,8.05,10.62,314.73,-40.687,0.5138,20,347.72,2.127,0,0,0,0,0,0,0,0,269.9,0,0,0,0,0,0,0,0,0,0,0,0,0,1,1,28.62,FLYING
28.84,APPROACH,FLY_TO_FIX,195.05,200,4.95,2574.62,0.22,8.05,10.56,315.27,-40.647,0.5125,20,347.98,2.127,0,0,0,0,0,0,0,0,269.9,0,0,0,0,0,0,0,0,0,0,0,0,0,1,1,28.88,FLYING
29.04,APPROACH,FLY_TO_FIX,195.09,200,4.91,2574.67,0.31,8.05,10.52,315.67,-40.559,0.5101,20,348.16,2.127,0,0,0,0,0,0,0,0,269.9,0,0,0,0,0,0,0,0,0,0,0,0,0,1,1,29.08,FLYING
29.24,APPROACH,FLY_TO_FIX,195.15,200,4.85,2574.75,0.43,8.06,10.49,316.09,-40.499,0.5068,20,348.33,2.126,0,0,0,0,0,0,0,0,269.9,0,0,0,0,0,0,0,0,0,0,0,0,0,1,1,29.28,FLYING
29.44,APPROACH,FLY_TO_FIX,195.23,200,4.77,2574.84,0.51,8.05,10.43,316.48,-40.409,0.5025,20,348.49,2.126,0,0,0,0,0,0,0,0,269.9,0,0,0,0,0,0,0,0,0,0,0,0,0,1,1,29.48,FLYING
29.64,APPROACH,FLY_TO_FIX,195.32,200,4.68,2574.97,0.61,8.14,10.5,316.95,-40.356,0.4974,20,348.64,2.125,0,0,0,0,0,0,0,0,269.9,0,0,0,0,0,0,0,0,0,0,0,0,0,1,1,29.68,FLYING
29.9,APPROACH,FLY_TO_FIX,195.45,200,4.55,2575.15,0.77,8.08,10.39,317.46,-40.455,0.4902,20,348.82,2.124,0,0,0,0,0,0,0,0,269.9,0,0,0,0,0,0,0,0,0,0,0,0,0,1,1,29.94,FLYING
30.1,APPROACH,FLY_TO_FIX,195.57,200,4.43,2575.31,0.91,8.09,10.38,317.9,-40.502,0.4836,20,348.95,2.124,0,0,0,0,0,0,0,0,269.9,0,0,0,0,0,0,0,0,0,0,0,0,0,1,1,30.14,FLYING
30.3,APPROACH,FLY_TO_FIX,195.7,200,4.3,2575.49,0.98,8.03,10.24,318.24,-40.334,0.4763,20,349.07,2.123,0,0,0,0,0,0,0,0,269.9,0,0,0,0,0,0,0,0,0,0,0,0,0,1,1,30.34,FLYING
30.5,APPROACH,FLY_TO_FIX,195.86,200,4.14,2575.69,1,8.06,10.24,318.65,-40.186,0.4679,20,349.17,2.122,0,0,0,0,0,0,0,0,269.9,0,0,0,0,0,0,0,0,0,0,0,0,0,1,1,30.54,FLYING
30.7,APPROACH,FLY_TO_FIX,196.01,200,3.99,2575.93,1.15,8.14,10.3,319.12,-40.203,0.4592,20,349.27,2.121,0,0,0,0,0,0,0,0,269.9,0,0,0,0,0,0,0,0,0,0,0,0,0,1,1,30.74,FLYING
30.96,APPROACH,FLY_TO_FIX,196.23,200,3.77,2576.26,1.29,8.17,10.31,319.7,-40.289,0.4475,20,349.37,2.119,0,0,0,0,0,0,0,0,269.9,0,0,0,0,0,0,0,0,0,0,0,0,0,1,1,31,FLYING
31.16,APPROACH,FLY_TO_FIX,196.39,200,3.61,2576.54,1.45,8.21,10.34,320.17,-40.394,0.4384,20,349.44,2.118,0,0,0,0,0,0,0,0,269.9,0,0,0,0,0,0,0,0,0,0,0,0,0,1,1,31.2,FLYING
31.36,APPROACH,FLY_TO_FIX,196.56,200,3.44,2576.83,1.53,8.17,10.26,320.58,-40.522,0.4292,20,349.5,2.116,0,0,0,0,0,0,0,0,269.9,0,0,0,0,0,0,0,0,0,0,0,0,0,1,1,31.4,FLYING
31.56,APPROACH,FLY_TO_FIX,196.73,200,3.27,2577.16,1.67,8.2,10.28,321.04,-40.597,0.4198,20,349.55,2.115,0,0,0,0,0,0,0,0,269.9,0,0,0,0,0,0,0,0,0,0,0,0,0,1,1,31.6,FLYING
31.76,APPROACH,FLY_TO_FIX,196.9,200,3.1,2577.5,1.73,8.18,10.23,321.46,-40.703,0.4103,20,349.58,2.113,0,0,0,0,0,0,0,0,269.9,0,0,0,0,0,0,0,0,0,0,0,0,0,1,1,31.8,FLYING
32.02,APPROACH,FLY_TO_FIX,197.13,200,2.87,2577.98,1.93,8.19,10.22,322.05,-40.825,0.398,20,349.61,2.11,0,0,0,0,0,0,0,0,269.9,0,0,0,0,0,0,0,0,0,0,0,0,0,1,1,32.06,FLYING
32.22,APPROACH,FLY_TO_FIX,197.3,200,2.7,2578.36,1.99,8.17,10.18,322.47,-40.909,0.3883,20,349.62,2.109,0,0,0,0,0,0,0,0,269.9,0,0,0,0,0,0,0,0,0,0,0,0,0,1,1,32.26,FLYING
32.42,APPROACH,FLY_TO_FIX,197.48,200,2.52,2578.77,2.09,8.16,10.12,322.88,-40.876,0.3787,20,349.62,2.107,0,0,0,0,0,0,0,0,269.9,0,0,0,0,0,0,0,0,0,0,0,0,0,1,1,32.46,FLYING
32.62,APPROACH,FLY_TO_FIX,197.65,200,2.35,2579.19,2.21,8.12,10.03,323.24,-40.789,0.3691,20,349.61,2.104,0,0,0,0,0,0,0,0,269.9,0,0,0,0,0,0,0,0,0,0,0,0,0,1,1,32.66,FLYING
32.82,APPROACH,FLY_TO_FIX,197.83,200,2.17,2579.64,2.19,8.16,10.05,323.69,-40.772,0.3595,20,349.59,2.102,0,0,0,0,0,0,0,0,269.9,0,0,0,0,0,0,0,0,0,0,0,0,0,1,1,32.86,FLYING
33.08,APPROACH,FLY_TO_FIX,198.03,200,1.97,2580.28,2.37,8.3,10.21,324.37,-40.868,0.3484,20,349.54,2.099,0,0,0,0,0,0,0,0,269.9,0,0,0,0,0,0,0,0,0,0,0,0,0,1,1,33.12,FLYING
33.28,APPROACH,FLY_TO_FIX,198.17,200,1.83,2580.77,2.55,8.29,10.17,324.8,-40.956,0.3405,20,349.49,2.097,0,0,0,0,0,0,0,0,269.9,0,0,0,0,0,0,0,0,0,0,0,0,0,1,1,33.32,FLYING
33.48,APPROACH,FLY_TO_FIX,198.31,200,1.69,2581.28,2.62,8.24,10.08,325.19,-41.044,0.3332,20,349.43,2.094,0,0,0,0,0,0,0,0,269.9,0,0,0,0,0,0,0,0,0,0,0,0,0,1,1,33.52,FLYING
33.68,APPROACH,FLY_TO_FIX,198.43,200,1.57,2581.82,2.72,8.28,10.12,325.67,-41.108,0.3265,20,349.36,2.091,0,0,0,0,0,0,0,0,269.9,0,0,0,0,0,0,0,0,0,0,0,0,0,1,1,33.72,FLYING
33.88,APPROACH,FLY_TO_FIX,198.54,200,1.46,2582.38,2.83,8.31,10.13,326.13,-41.127,0.3205,20,349.28,2.089,0,0,0,0,0,0,0,0,269.9,0,0,0,0,0,0,0,0,0,0,0,0,0,1,1,33.92,FLYING
34.14,APPROACH,FLY_TO_FIX,198.66,200,1.34,2583.13,2.99,8.28,10.03,326.63,-41.009,0.3135,20,349.15,2.085,0,0,0,0,0,0,0,0,269.9,0,0,0,0,0,0,0,0,0,0,0,0,0,1,1,34.18,FLYING
34.34,APPROACH,FLY_TO_FIX,198.75,200,1.25,2583.71,3.02,8.23,9.92,326.97,-40.873,0.3086,20,349.04,2.082,0,0,0,0,0,0,0,0,269.9,0,0,0,0,0,0,0,0,0,0,0,0,0,1,1,34.38,FLYING
34.54,APPROACH,FLY_TO_FIX,198.83,200,1.17,2584.35,3.02,8.34,10.06,327.51,-41.171,0.3044,20,348.92,2.079,0,0,0,0,0,0,0,0,269.9,0,0,0,0,0,0,0,0,0,0,0,0,0,1,1,34.58,FLYING
34.74,APPROACH,FLY_TO_FIX,198.87,200,1.13,2585.03,3.18,8.55,10.39,328.24,-41.703,0.3023,20,348.79,2.076,0,0,0,0,0,0,0,0,269.9,0,0,0,0,0,0,0,0,0,0,0,0,0,1,1,34.78,FLYING
34.94,APPROACH,FLY_TO_FIX,198.88,200,1.12,2585.7,3.37,8.58,10.44,328.79,-41.992,0.3014,20,348.65,2.072,0,0,0,0,0,0,0,0,269.9,0,0,0,0,0,0,0,0,0,0,0,0,0,1,1,34.98,FLYING
35.2,APPROACH,FLY_TO_FIX,198.89,200,1.11,2586.57,3.51,8.51,10.33,329.34,-42.043,0.3013,20,348.44,2.068,0,0,0,0,0,0,0,0,269.9,0,0,0,0,0,0,0,0,0,0,0,0,0,1,1,35.24,FLYING
35.4,APPROACH,FLY_TO_FIX,198.88,200,1.12,2587.28,3.57,8.51,10.29,329.75,-41.896,0.3018,20,348.27,2.064,0,0,0,0,0,0,0,0,269.9,0,0,0,0,0,0,0,0,0,0,0,0,0,1,1,35.44,FLYING
35.6,APPROACH,FLY_TO_FIX,198.86,200,1.14,2587.99,3.68,8.45,10.14,330.07,-41.671,0.3027,20,348.09,2.061,0,0,0,0,0,0,0,0,269.9,0,0,0,0,0,0,0,0,0,0,0,0,0,1,1,35.64,FLYING
35.8,APPROACH,FLY_TO_FIX,198.85,200,1.15,2588.72,3.69,8.43,10.06,330.43,-41.489,0.3034,20,347.89,2.057,0,0,0,0,0,0,0,0,269.9,0,0,0,0,0,0,0,0,0,0,0,0,0,1,1,35.84,FLYING
36,APPROACH,FLY_TO_FIX,198.82,200,1.18,2589.5,3.76,8.57,10.21,330.96,-41.457,0.305,20,347.69,2.053,0,0,0,0,0,0,0,0,269.9,0,0,0,0,0,0,0,0,0,0,0,0,0,1,1,36.04,FLYING
36.26,APPROACH,FLY_TO_FIX,198.77,200,1.23,2590.52,3.92,8.64,10.25,331.56,-41.391,0.3079,20,347.4,2.048,0,0,0,0,0,0,0,0,269.9,0,0,0,0,0,0,0,0,0,0,0,0,0,1,1,36.3,FLYING
36.46,APPROACH,FLY_TO_FIX,198.72,200,1.28,2591.32,3.99,8.65,10.22,331.98,-41.33,0.3105,20,347.17,2.044,0,0,0,0,0,0,0,0,269.9,0,0,0,0,0,0,0,0,0,0,0,0,0,1,1,36.5,FLYING
36.66,APPROACH,FLY_TO_FIX,198.66,200,1.34,2592.14,4.1,8.69,10.23,332.42,-41.279,0.3137,20,346.93,2.04,0,0,0,0,0,0,0,0,269.9,0,0,0,0,0,0,0,0,0,0,0,0,0,1,1,36.7,FLYING
36.86,APPROACH,FLY_TO_FIX,198.6,200,1.4,2592.97,4.21,8.67,10.17,332.81,-41.203,0.3171,20,346.67,2.036,0,0,0,0,0,0,0,0,269.9,0,0,0,0,0,0,0,0,0,0,0,0,0,1,1,36.9,FLYING
37.06,APPROACH,FLY_TO_FIX,198.53,200,1.47,2593.83,4.28,8.72,10.19,333.26,-41.129,0.3206,20,346.4,2.032,0,0,0,0,0,0,0,0,269.9,0,0,0,0,0,0,0,0,0,0,0,0,0,1,1,37.1,FLYING
37.32,APPROACH,FLY_TO_FIX,198.44,200,1.56,2594.97,4.38,8.79,10.23,333.85,-41.094,0.3257,20,346.04,2.026,0,0,0,0,0,0,0,0,269.9,0,0,0,0,0,0,0,0,0,0,0,0,0,1,1,37.36,FLYING
37.52,APPROACH,FLY_TO_FIX,198.37,200,1.63,2595.88,4.5,8.82,10.25,334.31,-41.118,0.3299,20,345.75,2.022,0,0,0,0,0,0,0,0,269.9,0,0,0,0,0,0,0,0,0,0,0,0,0,1,1,37.56,FLYING
37.72,APPROACH,FLY_TO_FIX,198.28,200,1.72,2596.81,4.59,8.9,10.33,334.82,-41.208,0.3343,20,345.44,2.017,0,0,0,0,0,0,0,0,269.9,0,0,0,0,0,0,0,0,0,0,0,0,0,1,1,37.76,FLYING
37.92,APPROACH,FLY_TO_FIX,198.2,200,1.8,2597.75,4.7,8.93,10.34,335.29,-41.317,0.3392,20,345.13,2.012,0,0,0,0,0,0,0,0,269.9,0,0,0,0,0,0,0,0,0,0,0,0,0,1,1,37.96,FLYING
38.12,APPROACH,FLY_TO_FIX,198.1,200,1.9,2598.71,4.87,8.93,10.32,335.73,-41.364,0.3443,20,344.8,2.007,0,0,0,0,0,0,0,0,269.9,0,0,0,0,0,0,0,0,0,0,0,0,0,1,1,38.16,FLYING
38.38,APPROACH,FLY_TO_FIX,197.99,200,2.01,2599.97,4.9,8.89,10.24,336.25,-41.364,0.3505,20,344.36,2.001,0,0,0,0,0,0,0,0,269.9,0,0,0,0,0,0,0,0,0,0,0,0,0,1,1,38.42,FLYING
38.58,APPROACH,FLY_TO_FIX,197.9,200,2.1,2600.98,5,8.98,10.31,336.74,-41.276,0.3554,20,344.01,1.996,0,0,0,0,0,0,0,0,269.9,0,0,0,0,0,0,0,0,0,0,0,0,0,1,1,38.62,FLYING
38.78,APPROACH,FLY_TO_FIX,197.82,200,2.18,2602.01,5.12,9.02,10.32,337.17,-41.19,0.36,20,343.64,1.991,0,0,0,0,0,0,0,0,269.9,0,0,0,0,0,0,0,0,0,0,0,0,0,1,1,38.82,FLYING
38.98,APPROACH,FLY_TO_FIX,197.74,200,2.26,2603.05,5.21,9.04,10.3,337.58,-41.07,0.3645,20,343.26,1.986,0,0,0,0,0,0,0,0,269.9,0,0,0,0,0,0,0,0,0,0,0,0,0,1,1,39.02,FLYING
39.18,APPROACH,FLY_TO_FIX,197.66,200,2.34,2604.11,5.3,9.07,10.28,338,-40.941,0.3688,20,342.88,1.981,0,0,0,0,0,0,0,0,269.9,0,0,0,0,0,0,0,0,0,0,0,0,0,1,1,39.22,FLYING
39.44,APPROACH,FLY_TO_FIX,197.56,200,2.44,2605.51,5.43,9.1,10.26,338.54,-40.799,0.3742,20,342.36,1.974,0,0,0,0,0,0,0,0,269.9,0,0,0,0,0,0,0,0,0,0,0,0,0,1,1,39.48,FLYING
39.64,APPROACH,FLY_TO_FIX,197.49,200,2.51,2606.61,5.55,9.08,10.18,338.9,-40.626,0.378,20,341.94,1.968,0,0,0,0,0,0,0,0,269.9,0,0,0,0,0,0,0,0,0,0,0,0,0,1,1,39.68,FLYING
39.84,APPROACH,FLY_TO_FIX,197.43,200,2.57,2607.72,5.6,9.08,10.12,339.27,-40.414,0.3813,20,341.52,1.963,0,0,0,0,0,0,0,0,269.9,0,0,0,0,0,0,0,0,0,0,0,0,0,1,1,39.88,FLYING
40.04,APPROACH,FLY_TO_FIX,197.37,200,2.63,2608.88,5.71,9.18,10.19,339.72,-40.23,0.3845,20,341.09,1.957,0,0,0,0,0,0,0,0,269.9,0,0,0,0,0,0,0,0,0,0,0,0,0,1,1,40.08,FLYING
40.24,APPROACH,FLY_TO_FIX,197.32,200,2.68,2610.05,5.79,9.24,10.21,340.14,-40.077,0.3876,20,340.64,1.951,0,0,0,0,0,0,0,0,269.9,0,0,0,0,0,0,0,0,0,0,0,0,0,1,1,40.28,FLYING
40.5,APPROACH,FLY_TO_FIX,197.25,200,2.75,2611.62,5.94,9.4,10.36,340.78,-40.07,0.3915,20,340.04,1.943,0,0,0,0,0,0,0,0,269.9,0,0,0,0,0,0,0,0,0,0,0,0,0,1,1,40.54,FLYING
40.7,APPROACH,FLY_TO_FIX,197.19,200,2.81,2612.85,6.08,9.51,10.48,341.32,-40.257,0.3948,20,339.57,1.937,0,0,0,0,0,0,0,0,269.9,0,0,0,0,0,0,0,0,0,0,0,0,0,1,1,40.74,FLYING
40.9,APPROACH,FLY_TO_FIX,197.12,200,2.88,2614.11,6.31,9.58,10.54,341.84,-40.423,0.3986,20,339.09,1.931,0,0,0,0,0,0,0,0,269.9,0,0,0,0,0,0,0,0,0,0,0,0,0,1,1,40.94,FLYING
41.1,APPROACH,FLY_TO_FIX,197.05,200,2.95,2615.35,6.53,9.41,10.26,342.08,-40.084,0.4025,20,338.6,1.924,0,0,0,0,0,0,0,0,269.9,0,0,0,0,0,0,0,0,0,0,0,0,0,1,1,41.14,FLYING
41.3,APPROACH,FLY_TO_FIX,196.99,200,3.01,2616.54,6.75,8.92,9.48,341.9,-38.49,0.4053,20,338.09,1.918,0,0,0,0,0,0,0,0,269.9,0,0,0,0,0,0,0,0,0,0,0,0,0,1,1,41.34,FLYING
41.56,APPROACH,FLY_TO_FIX,197,200,3,2618.02,6.71,7.95,7.94,341.12,-33.044,0.4048,20,337.42,1.911,0,0,0,0,0,0,0,0,269.9,0,0,0,0,0,0,0,0,0,0,0,0,0,1,1,41.6,FLYING
41.76,APPROACH,FLY_TO_FIX,197.13,200,2.87,2619.15,6.46,7.36,6.9,340.45,-26.774,0.3981,20,336.89,1.905,0,0,0,0,0,0,0,0,269.9,0,0,0,0,0,0,0,0,0,0,0,0,0,1,1,41.8,FLYING
41.96,APPROACH,FLY_TO_FIX,197.32,200,2.68,2620.33,6.16,7.07,6.23,339.83,-19.615,0.3874,20,336.35,1.9,0,0,0,0,0,0,0,0,269.9,0,0,0,0,0,0,0,0,0,0,0,0,0,1,1,42,FLYING
42.16,APPROACH,FLY_TO_FIX,197.56,200,2.44,2621.54,5.88,7.13,5.99,339.24,-12.186,0.374,20,335.81,1.894,0,0,0,0,0,0,0,0,269.9,0,0,0,0,0,0,0,0,0,0,0,0,0,1,1,42.2,FLYING
42.36,APPROACH,FLY_TO_FIX,197.83,200,2.17,2622.81,5.67,7.55,6.19,338.62,-4.817,0.3595,20,335.26,1.887,0,0,0,0,0,0,0,0,269.9,0,0,0,0,0,0,0,0,0,0,0,0,0,1,1,42.4,FLYING
42.62,APPROACH,FLY_TO_FIX,198.17,200,1.83,2624.52,5.71,8.35,6.8,337.64,4.569,0.3409,20,334.55,1.879,0,0,0,0,0,0,0,0,269.9,0,0,0,0,0,0,0,0,0,0,0,0,0,1,1,42.66,FLYING
42.82,APPROACH,FLY_TO_FIX,198.41,200,1.59,2625.86,5.93,8.95,7.31,336.87,11.19,0.3273,20,334,1.872,0,0,0,0,0,0,0,0,269.9,0,0,0,0,0,0,0,0,0,0,0,0,0,1,1,42.86,FLYING
43.02,APPROACH,FLY_TO_FIX,198.62,200,1.38,2627.2,6.19,9.39,7.73,335.96,17.744,0.316,20,333.45,1.865,0,0,0,0,0,0,0,0,269.9,0,0,0,0,0,0,0,0,0,0,0,0,0,1,1,43.06,FLYING
43.22,APPROACH,FLY_TO_FIX,198.79,200,1.21,2628.57,6.55,9.7,8.09,334.97,23.32,0.3064,20,332.9,1.859,0,0,0,0,0,0,0,0,269.9,0,0,0,0,0,0,0,0,0,0,0,0,0,1,1,43.26,FLYING
43.42,APPROACH,FLY_TO_FIX,198.93,200,1.07,2629.93,6.81,9.78,8.35,333.89,28.256,0.2991,20,332.35,1.852,0,0,0,0,0,0,0,0,269.9,0,0,0,0,0,0,0,0,0,0,0,0,0,1,1,43.46,FLYING
43.68,APPROACH,FLY_TO_FIX,199.05,200,0.95,2631.76,7.1,9.85,8.79,332.38,33.978,0.2923,20,331.65,1.843,0,0,0,0,0,0,0,0,269.9,0,0,0,0,0,0,0,0,0,0,0,0,0,1,1,43.72,FLYING
43.88,APPROACH,FLY_TO_FIX,199.1,200,0.9,2633.17,7.26,9.73,8.99,331.32,37.468,0.2893,20,331.12,1.836,0,0,0,0,0,0,0,0,269.9,0,0,0,0,0,0,0,0,0,0,0,0,0,1,1,43.92,FLYING
44.08,APPROACH,FLY_TO_FIX,199.13,200,0.87,2634.6,7.29,9.62,9.26,330.25,40.352,0.2878,20,330.6,1.828,0,0,0,0,0,0,0,0,269.9,0,0,0,0,0,0,0,0,0,0,0,0,0,1,1,44.12,FLYING
44.28,APPROACH,FLY_TO_FIX,199.11,200,0.89,2636.04,7.39,9.54,9.65,329.11,41.764,0.2887,20,330.08,1.821,0,0,0,0,0,0,0,0,269.9,0,0,0,0,0,0,0,0,0,0,0,0,0,1,1,44.32,FLYING
44.48,APPROACH,FLY_TO_FIX,199.06,200,0.94,2637.46,7.41,9.33,9.81,328.18,42.46,0.2915,20,329.58,1.814,0,0,0,0,0,0,0,0,269.9,0,0,0,0,0,0,0,0,0,0,0,0,0,1,1,44.52,FLYING
44.74,APPROACH,FLY_TO_FIX,198.97,200,1.03,2639.34,7.33,9.21,10,327.18,43.062,0.2968,20,328.95,1.805,0,0,0,0,0,0,0,0,269.9,0,0,0,0,0,0,0,0,0,0,0,0,0,1,1,44.78,FLYING
44.94,APPROACH,FLY_TO_FIX,198.87,200,1.13,2640.78,7.37,9.09,9.97,326.63,43.266,0.3022,20,328.47,1.798,0,0,0,0,0,0,0,0,269.9,0,0,0,0,0,0,0,0,0,0,0,0,0,1,1,44.98,FLYING
45.14,APPROACH,FLY_TO_FIX,198.77,200,1.23,2642.22,7.27,9.02,9.96,326.14,43.42,0.3076,20,328,1.79,0,0,0,0,0,0,0,0,269.9,0,0,0,0,0,0,0,0,0,0,0,0,0,1,1,45.18,FLYING
45.34,APPROACH,FLY_TO_FIX,198.66,200,1.34,2643.69,7.29,9.07,10.05,325.61,43.417,0.3138,20,327.55,1.783,0,0,0,0,0,0,0,0,269.9,0,0,0,0,0,0,0,0,0,0,0,0,0,1,1,45.38,FLYING
45.54,APPROACH,FLY_TO_FIX,198.55,200,1.45,2645.12,7.28,8.99,9.92,325.25,43.371,0.32,20,327.11,1.776,0,0,0,0,0,0,0,0,269.9,0,0,0,0,0,0,0,0,0,0,0,0,0,1,1,45.58,FLYING
45.8,APPROACH,FLY_TO_FIX,198.4,200,1.6,2647.02,7.23,9.04,9.99,324.64,43.2,0.3278,20,326.55,1.766,0,0,0,0,0,0,0,0,269.9,0,0,0,0,0,0,0,0,0,0,0,0,0,1,1,45.84,FLYING
46,APPROACH,FLY_TO_FIX,198.29,200,1.71,2648.45,7.22,9,9.91,324.26,43.111,0.334,20,326.13,1.759,0,0,0,0,0,0,0,0,269.9,0,0,0,0,0,0,0,0,0,0,0,0,0,1,1,46.04,FLYING
46.2,APPROACH,FLY_TO_FIX,198.19,200,1.81,2649.9,7.18,9.04,9.96,323.79,43.028,0.3397,20,325.73,1.752,0,0,0,0,0,0,0,0,269.9,0,0,0,0,0,0,0,0,0,0,0,0,0,1,1,46.24,FLYING
46.4,APPROACH,FLY_TO_FIX,198.08,200,1.92,2651.33,7.18,9.02,9.93,323.37,42.953,0.3455,20,325.33,1.745,0,0,0,0,0,0,0,0,269.9,0,0,0,0,0,0,0,0,0,0,0,0,0,1,1,46.44,FLYING
46.6,APPROACH,FLY_TO_FIX,197.98,200,2.02,2652.77,7.2,9.05,9.95,322.93,42.855,0.3511,20,324.95,1.738,0,0,0,0,0,0,0,0,269.9,0,0,0,0,0,0,0,0,0,0,0,0,0,1,1,46.64,FLYING
46.86,APPROACH,FLY_TO_FIX,197.86,200,2.14,2654.61,7.12,8.97,9.84,322.43,42.826,0.3579,20,324.47,1.728,0,0,0,0,0,0,0,0,269.9,0,0,0,0,0,0,0,0,0,0,0,0,0,1,1,46.9,FLYING
47.06,APPROACH,FLY_TO_FIX,197.76,200,2.24,2656.05,7.12,9.04,9.94,321.93,42.763,0.3632,20,324.11,1.721,0,0,0,0,0,0,0,0,269.9,0,0,0,0,0,0,0,0,0,0,0,0,0,1,1,47.1,FLYING
47.26,APPROACH,FLY_TO_FIX,197.67,200,2.33,2657.47,7.1,9,9.88,321.53,42.726,0.3682,20,323.76,1.714,0,0,0,0,0,0,0,0,269.9,0,0,0,0,0,0,0,0,0,0,0,0,0,1,1,47.3,FLYING
47.46,APPROACH,FLY_TO_FIX,197.59,200,2.41,2658.89,7.08,9.02,9.91,321.08,42.689,0.3727,20,323.43,1.707,0,0,0,0,0,0,0,0,269.9,0,0,0,0,0,0,0,0,0,0,0,0,0,1,1,47.5,FLYING
47.66,APPROACH,FLY_TO_FIX,197.51,200,2.49,2660.29,7.1,8.98,9.85,320.68,42.642,0.3769,20,323.1,1.7,0,0,0,0,0,0,0,0,269.9,0,0,0,0,0,0,0,0,0,0,0,0,0,1,1,47.7,FLYING
47.92,APPROACH,FLY_TO_FIX,197.43,200,2.57,2662.06,7.12,8.69,9.44,320.42,42.247,0.3814,20,322.7,1.691,0,0,0,0,0,0,0,0,269.9,0,0,0,0,0,0,0,0,0,0,0,0,0,1,1,47.96,FLYING
48.12,APPROACH,FLY_TO_FIX,197.4,200,2.6,2663.39,7.03,8.4,8.99,320.37,41.66,0.383,20,322.4,1.684,0,0,0,0,0,0,0,0,269.9,0,0,0,0,0,0,0,0,0,0,0,0,0,1,1,48.16,FLYING
48.32,APPROACH,FLY_TO_FIX,197.41,200,2.59,2664.71,6.86,8.17,8.66,320.25,41.159,0.3825,20,322.11,1.678,0,0,0,0,0,0,0,0,269.9,0,0,0,0,0,0,0,0,0,0,0,0,0,1,1,48.36,FLYING
48.52,APPROACH,FLY_TO_FIX,197.44,200,2.56,2666.04,6.65,8.11,8.53,320.03,40.288,0.3808,20,321.84,1.671,0,0,0,0,0,0,0,0,269.9,0,0,0,0,0,0,0,0,0,0,0,0,0,1,1,48.56,FLYING
48.72,APPROACH,FLY_TO_FIX,197.49,200,2.51,2667.38,6.48,8.23,8.61,319.68,39.416,0.3783,20,321.57,1.664,0,0,0,0,0,0,0,0,269.9,0,0,0,0,0,0,0,0,0,0,0,0,0,1,1,48.76,FLYING
48.98,APPROACH,FLY_TO_FIX,197.55,200,2.45,2669.11,6.51,8.39,8.71,319.26,38.162,0.375,20,321.23,1.656,0,0,0,0,0,0,0,0,269.9,0,0,0,0,0,0,0,0,0,0,0,0,0,1,1,49.02,FLYING
49.18,APPROACH,FLY_TO_FIX,197.6,200,2.4,2670.38,6.48,8.3,8.47,319.17,36.873,0.3719,20,320.99,1.649,0,0,0,0,0,0,0,0,269.9,0,0,0,0,0,0,0,0,0,0,0,0,0,1,1,49.22,FLYING
49.38,APPROACH,FLY_TO_FIX,197.68,200,2.32,2671.65,6.39,8.23,8.3,319.04,36.284,0.3676,20,320.75,1.643,0,0,0,0,0,0,0,0,269.9,0,0,0,0,0,0,0,0,0,0,0,0,0,1,1,49.42,FLYING
49.58,APPROACH,FLY_TO_FIX,197.76,200,2.24,2672.93,6.3,8.29,8.3,318.8,35.362,0.3629,20,320.52,1.637,0,0,0,0,0,0,0,0,269.9,0,0,0,0,0,0,0,0,0,0,0,0,0,1,1,49.62,FLYING
49.78,APPROACH,FLY_TO_FIX,197.86,200,2.14,2674.21,6.37,8.33,8.26,318.59,34.494,0.3578,20,320.3,1.63,0,0,0,0,0,0,0,0,269.9,0,0,0,0,0,0,0,0,0,0,0,0,0,1,1,49.82,FLYING
50.04,APPROACH,FLY_TO_FIX,198,200,2,2675.8,6.34,8.1,7.88,318.53,33.276,0.35,20,320.03,1.622,0,0,0,0,0,0,0,0,269.9,0,0,0,0,0,0,0,0,0,0,0,0,0,1,1,50.08,FLYING
50.24,APPROACH,FLY_TO_FIX,198.13,200,1.87,2677.03,6.23,8.01,7.7,318.45,32.187,0.3429,20,319.83,1.616,0,0,0,0,0,0,0,0,269.9,0,0,0,0,0,0,0,0,0,0,0,0,0,1,1,50.28,FLYING
50.44,APPROACH,FLY_TO_FIX,198.27,200,1.73,2678.28,6.1,8.11,7.74,318.24,31.431,0.3354,20,319.64,1.61,0,0,0,0,0,0,0,0,269.9,0,0,0,0,0,0,0,0,0,0,0,0,0,1,1,50.48,FLYING
50.64,APPROACH,FLY_TO_FIX,198.39,200,1.61,2679.57,6.12,8.36,7.98,317.93,30.59,0.3284,20,319.45,1.603,0,0,0,0,0,0,0,0,269.9,0,0,0,0,0,0,0,0,0,0,0,0,0,1,1,50.68,FLYING
50.84,APPROACH,FLY_TO_FIX,198.52,200,1.48,2680.8,6.28,8.29,7.83,317.81,29.861,0.3216,20,319.27,1.597,0,0,0,0,0,0,0,0,269.9,0,0,0,0,0,0,0,0,0,0,0,0,0,1,1,50.88,FLYING
51.1,APPROACH,FLY_TO_FIX,198.7,200,1.3,2682.35,6.24,8.04,7.46,317.77,28.68,0.3115,20,319.05,1.589,0,0,0,0,0,0,0,0,269.9,0,0,0,0,0,0,0,0,0,0,0,0,0,1,1,51.14,FLYING
51.3,APPROACH,FLY_TO_FIX,198.84,200,1.16,2683.58,6.14,7.99,7.33,317.7,27.346,0.3037,20,318.89,1.583,0,0,0,0,0,0,0,0,269.9,0,0,0,0,0,0,0,0,0,0,0,0,0,1,1,51.34,FLYING
51.5,APPROACH,FLY_TO_FIX,198.98,200,1.02,2684.84,6.06,8.14,7.45,317.52,26.661,0.296,20,318.74,1.577,0,0,0,0,0,0,0,0,269.9,0,0,0,0,0,0,0,0,0,0,0,0,0,1,1,51.54,FLYING
51.7,APPROACH,FLY_TO_FIX,199.12,200,0.88,2686.08,6.2,8.19,7.44,317.38,25.918,0.2885,20,318.59,1.571,0,0,0,0,0,0,0,0,269.9,0,0,0,0,0,0,0,0,0,0,0,0,0,1,1,51.74,FLYING
51.9,APPROACH,FLY_TO_FIX,199.26,200,0.74,2687.29,6.18,8.1,7.29,317.3,25.25,0.2807,20,318.44,1.565,0,0,0,0,0,0,0,0,269.9,0,0,0,0,0,0,0,0,0,0,0,0,0,1,1,51.94,FLYING
52.16,APPROACH,FLY_TO_FIX,199.43,200,0.57,2688.91,6.11,8.19,7.33,317.11,24.084,0.2716,20,318.27,1.557,0,0,0,0,0,0,0,0,269.9,0,0,0,0,0,0,0,0,0,0,0,0,0,1,1,52.2,FLYING
52.36,APPROACH,FLY_TO_FIX,199.54,200,0.46,2690.14,6.31,8.14,7.2,317.07,22.762,0.2655,20,318.14,1.55,0,0,0,0,0,0,0,0,269.9,0,0,0,0,0,0,0,0,0,0,0,0,0,1,1,52.4,FLYING
52.56,APPROACH,FLY_TO_FIX,199.66,200,0.34,2691.32,6.31,7.83,6.83,317.13,22.167,0.2587,20,318.01,1.545,0,0,0,0,0,0,0,0,269.9,0,0,0,0,0,0,0,0,0,0,0,0,0,1,1,52.6,FLYING
52.76,APPROACH,FLY_TO_FIX,199.79,200,0.21,2692.51,6.15,7.65,6.61,317.1,21.6,0.2516,20,317.89,1.539,0,0,0,0,0,0,0,0,269.9,0,0,0,0,0,0,0,0,0,0,0,0,0,1,1,52.8,FLYING
52.96,APPROACH,FLY_TO_FIX,199.9,200,0.1,2693.75,5.95,7.76,6.72,316.95,20.992,0.2453,20,317.78,1.532,0,0,0,0,0,0,0,0,269.9,0,0,0,0,0,0,0,0,0,0,0,0,0,1,1,53,FLYING
53.22,APPROACH,FLY_TO_FIX,200.03,200,-0.03,2695.38,6.1,8.02,6.97,316.72,20.054,0.2384,19.993,317.63,1.524,0,0,0,0,0,0,0,0,269.9,0,0,0,0,0,0,0,0,0,0,0,0,0,1,1,53.26,FLYING
53.42,APPROACH,FLY_TO_FIX,200.12,200,-0.12,2696.54,6.17,7.78,6.68,316.74,19.142,0.2332,19.97,317.53,1.518,0,0,0,0,0,0,0,0,269.9,0,0,0,0,0,0,0,0,0,0,0,0,0,1,1,53.46,FLYING
53.62,APPROACH,FLY_TO_FIX,200.21,200,-0.21,2697.7,6.04,7.54,6.41,316.76,18.486,0.2275,19.927,317.43,1.513,0,0,0,0,0,0,0,0,269.9,0,0,0,0,0,0,0,0,0,0,0,0,0,1,1,53.66,FLYING
53.82,APPROACH,FLY_TO_FIX,200.29,200,-0.29,2698.89,5.83,7.57,6.43,316.67,17.839,0.2224,19.869,317.34,1.507,0,0,0,0,0,0,0,0,269.9,0,0,0,0,0,0,0,0,0,0,0,0,0,1,1,53.86,FLYING
54.02,APPROACH,FLY_TO_FIX,200.34,200,-0.34,2700.13,5.77,7.87,6.73,316.51,17.193,0.2187,19.8,317.24,1.501,0,0,0,0,0,0,0,0,269.9,0,0,0,0,0,0,0,0,0,0,0,0,0,1,1,54.06,FLYING
54.28,APPROACH,FLY_TO_FIX,200.41,200,-0.41,2701.68,5.92,7.95,6.79,316.39,16.4,0.2139,19.694,317.13,1.493,0,0,0,0,0,0,0,0,269.9,0,0,0,0,0,0,0,0,0,0,0,0,0,1,1,54.32,FLYING
54.48,APPROACH,FLY_TO_FIX,200.45,200,-0.45,2702.85,5.89,7.91,6.72,316.34,15.764,0.2108,19.605,317.05,1.487,0,0,0,0,0,0,0,0,269.9,0,0,0,0,0,0,0,0,0,0,0,0,0,1,1,54.52,FLYING
54.68,APPROACH,FLY_TO_FIX,200.45,200,-0.45,2704.07,5.79,8.09,6.88,316.24,15.118,0.2092,19.514,316.97,1.481,0,0,0,0,0,0,0,0,269.9,0,0,0,0,0,0,0,0,0,0,0,0,0,1,1,54.72,FLYING
54.88,APPROACH,FLY_TO_FIX,200.44,200,-0.44,2705.28,6.05,8.2,6.96,316.16,14.482,0.2091,19.427,316.89,1.475,0,0,0,0,0,0,0,0,269.9,0,0,0,0,0,0,0,0,0,0,0,0,0,1,1,54.92,FLYING
55.08,APPROACH,FLY_TO_FIX,200.42,200,-0.42,2706.42,6.12,7.91,6.63,316.19,13.868,0.2088,19.342,316.82,1.469,0,0,0,0,0,0,0,0,269.9,0,0,0,0,0,0,0,0,0,0,0,0,0,1,1,55.12,FLYING
55.34,APPROACH,FLY_TO_FIX,200.41,200,-0.41,2707.93,5.91,7.71,6.41,316.19,13.046,0.2084,19.236,316.73,1.462,0,0,0,0,0,0,0,0,269.9,0,0,0,0,0,0,0,0,0,0,0,0,0,1,1,55.38,FLYING
55.54,APPROACH,FLY_TO_FIX,200.37,200,-0.37,2709.15,5.86,7.89,6.6,316.11,12.463,0.2098,19.163,316.67,1.455,0,0,0,0,0,0,0,0,269.9,0,0,0,0,0,0,0,0,0,0,0,0,0,1,1,55.58,FLYING
55.74,APPROACH,FLY_TO_FIX,200.33,200,-0.33,2710.33,5.94,7.89,6.58,316.07,11.94,0.2108,19.096,316.61,1.45,0,0,0,0,0,0,0,0,269.9,0,0,0,0,0,0,0,0,0,0,0,0,0,1,1,55.78,FLYING
55.94,APPROACH,FLY_TO_FIX,200.3,200,-0.3,2711.53,5.83,7.94,6.62,316.02,11.412,0.212,19.036,316.55,1.444,0,0,0,0,0,0,0,0,269.9,0,0,0,0,0,0,0,0,0,0,0,0,0,1,1,55.98,FLYING
56.14,APPROACH,FLY_TO_FIX,200.23,200,-0.23,2712.78,5.84,8.25,6.93,315.92,10.906,0.2153,18.991,316.49,1.437,0,0,0,0,0,0,0,0,269.9,0,0,0,0,0,0,0,0,0,0,0,0,0,1,1,56.18,FLYING
56.4,APPROACH,FLY_TO_FIX,200.12,200,-0.12,2714.29,6.17,8.05,6.68,315.92,10.248,0.2206,18.958,316.42,1.43,0,0,0,0,0,0,0,0,269.9,0,0,0,0,0,0,0,0,0,0,0,0,0,1,1,56.44,FLYING
56.6,APPROACH,FLY_TO_FIX,200.06,200,-0.06,2715.42,6.09,7.7,6.32,315.96,9.792,0.2239,18.946,316.37,1.424,0,0,0,0,0,0,0,0,269.9,0,0,0,0,0,0,0,0,0,0,0,0,0,1,1,56.64,FLYING
56.8,APPROACH,FLY_TO_FIX,200,200,0,2716.59,5.87,7.61,6.23,315.95,9.34,0.2275,18.946,316.32,1.418,0,0,0,0,0,0,0,0,269.9,0,0,0,0,0,0,0,0,0,0,0,0,0,1,1,56.84,FLYING
57,APPROACH,FLY_TO_FIX,199.92,200,0.08,2717.82,5.77,7.85,6.49,315.88,8.913,0.2321,18.963,316.28,1.412,0,0,0,0,0,0,0,0,269.9,0,0,0,0,0,0,0,0,0,0,0,0,0,1,1,57.04,FLYING
57.2,APPROACH,FLY_TO_FIX,199.85,200,0.15,2719,5.87,7.9,6.53,315.84,8.526,0.2363,18.993,316.23,1.406,0,0,0,0,0,0,0,0,269.9,0,0,0,0,0,0,0,0,0,0,0,0,0,1,1,57.24,FLYING
57.46,APPROACH,FLY_TO_FIX,199.77,200,0.23,2720.52,5.82,7.9,6.53,315.81,7.929,0.2415,19.054,316.18,1.399,0,0,0,0,0,0,0,0,269.9,0,0,0,0,0,0,0,0,0,0,0,0,0,1,1,57.5,FLYING
57.66,APPROACH,FLY_TO_FIX,199.69,200,0.31,2721.69,5.9,7.91,6.53,315.8,7.434,0.2462,19.115,316.14,1.393,0,0,0,0,0,0,0,0,269.9,0,0,0,0,0,0,0,0,0,0,0,0,0,1,1,57.7,FLYING
57.86,APPROACH,FLY_TO_FIX,199.63,200,0.37,2722.83,5.86,7.76,6.37,315.82,6.962,0.2506,19.189,316.1,1.387,0,0,0,0,0,0,0,0,269.9,0,0,0,0,0,0,0,0,0,0,0,0,0,1,1,57.9,FLYING
58.06,APPROACH,FLY_TO_FIX,199.57,200,0.43,2723.99,5.72,7.76,6.38,315.81,6.509,0.2552,19.276,316.06,1.381,0,0,0,0,0,0,0,0,269.9,0,0,0,0,0,0,0,0,0,0,0,0,0,1,1,58.1,FLYING
58.26,APPROACH,FLY_TO_FIX,199.49,200,0.51,2725.18,5.74,7.92,6.54,315.79,6.071,0.2606,19.378,316.03,1.375,0,0,0,0,0,0,0,0,269.9,0,0,0,0,0,0,0,0,0,0,0,0,0,1,1,58.3,FLYING
58.52,APPROACH,FLY_TO_FIX,199.41,200,0.59,2726.68,5.73,7.92,6.54,315.79,5.542,0.2667,19.531,315.98,1.368,0,0,0,0,0,0,0,0,269.9,0,0,0,0,0,0,0,0,0,0,0,0,0,1,1,58.56,FLYING
58.72,APPROACH,FLY_TO_FIX,199.35,200,0.65,2727.83,5.76,7.95,6.56,315.78,5.187,0.2717,19.661,315.95,1.362,0,0,0,0,0,0,0,0,269.9,0,0,0,0,0,0,0,0,0,0,0,0,0,1,1,58.76,FLYING
58.92,APPROACH,FLY_TO_FIX,199.29,200,0.71,2728.98,5.76,7.92,6.52,315.78,4.872,0.2765,19.802,315.92,1.356,0,0,0,0,0,0,0,0,269.9,0,0,0,0,0,0,0,0,0,0,0,0,0,1,1,58.96,FLYING
59.12,APPROACH,FLY_TO_FIX,199.24,200,0.76,2730.13,5.7,7.93,6.54,315.78,4.592,0.2813,19.954,315.89,1.351,0,0,0,0,0,0,0,0,269.9,0,0,0,0,0,0,0,0,0,0,0,0,0,1,1,59.16,FLYING
59.32,APPROACH,FLY_TO_FIX,199.18,200,0.82,2731.28,5.71,7.96,6.57,315.77,4.35,0.2848,20,315.86,1.345,0,0,0,0,0,0,0,0,269.9,0,0,0,0,0,0,0,0,0,0,0,0,0,1,1,59.36,FLYING
59.58,APPROACH,FLY_TO_FIX,199.12,200,0.88,2732.76,5.74,7.92,6.52,315.75,4.077,0.2881,20,315.83,1.337,0,0,0,0,0,0,0,0,269.9,0,0,0,0,0,0,0,0,0,0,0,0,0,1,1,59.62,FLYING
59.78,APPROACH,FLY_TO_FIX,199.08,200,0.92,2733.91,5.62,7.98,6.58,315.74,3.907,0.2906,20,315.8,1.332,0,0,0,0,0,0,0,0,269.9,0,0,0,0,0,0,0,0,0,0,0,0,0,1,1,59.82,FLYING
59.98,APPROACH,FLY_TO_FIX,199.01,200,0.99,2735.13,5.67,8.3,6.9,315.7,3.748,0.2943,20,315.77,1.326,0,0,0,0,0,0,0,0,269.9,0,0,0,0,0,0,0,0,0,0,0,0,0,1,1,60.02,FLYING
60.18,APPROACH,FLY_TO_FIX,198.95,200,1.05,2736.26,5.95,8.16,6.73,315.7,3.62,0.2977,20,315.75,1.32,0,0,0,0,0,0,0,0,269.9,0,0,0,0,0,0,0,0,0,0,0,0,0,1,1,60.22,FLYING
60.38,APPROACH,FLY_TO_FIX,198.91,200,1.09,2737.36,5.89,7.86,6.43,315.7,3.53,0.2997,20,315.73,1.314,0,0,0,0,0,0,0,0,269.9,0,0,0,0,0,0,0,0,0,0,0,0,0,1,1,60.42,FLYING
60.64,APPROACH,FLY_TO_FIX,198.87,200,1.13,2738.86,5.7,7.89,6.48,315.67,3.363,0.3023,20,315.7,1.307,0,0,0,0,0,0,0,0,269.9,0,0,0,0,0,0,0,0,0,0,0,0,0,1,1,60.68,FLYING
60.84,APPROACH,FLY_TO_FIX,198.84,200,1.16,2740.01,5.77,7.88,6.47,315.66,3.252,0.3036,20,315.67,1.301,0,0,0,0,0,0,0,0,269.9,0,0,0,0,0,0,0,0,0,0,0,0,0,1,1,60.88,FLYING
61.04,APPROACH,FLY_TO_FIX,198.84,200,1.16,2741.15,5.68,7.85,6.45,315.64,3.164,0.3038,20,315.65,1.295,0,0,0,0,0,0,0,0,269.9,0,0,0,0,0,0,0,0,0,0,0,0,0,1,1,61.08,FLYING
61.24,APPROACH,FLY_TO_FIX,198.83,200,1.17,2742.3,5.71,7.89,6.49,315.63,3.073,0.3042,20,315.63,1.29,0,0,0,0,0,0,0,0,269.9,0,0,0,0,0,0,0,0,0,0,0,0,0,1,1,61.28,FLYING
61.44,APPROACH,FLY_TO_FIX,198.84,200,1.16,2743.43,5.65,7.87,6.47,315.61,2.988,0.3039,20,315.61,1.284,0,0,0,0,0,0,0,0,269.9,0,0,0,0,0,0,0,0,0,0,0,0,0,1,1,61.48,FLYING
61.7,APPROACH,FLY_TO_FIX,198.85,200,1.15,2744.91,5.65,7.9,6.51,315.59,2.863,0.3035,20,315.59,1.277,0,0,0,0,0,0,0,0,269.9,0,0,0,0,0,0,0,0,0,0,0,0,0,1,1,61.74,FLYING
61.9,APPROACH,FLY_TO_FIX,198.86,200,1.14,2746.04,5.64,7.9,6.52,315.58,2.789,0.3027,20,315.57,1.271,0,0,0,0,0,0,0,0,269.9,0,0,0,0,0,0,0,0,0,0,0,0,0,1,1,61.94,FLYING
62.1,APPROACH,FLY_TO_FIX,198.88,200,1.12,2747.17,5.63,7.91,6.53,315.56,2.714,0.3018,20,315.55,1.265,0,0,0,0,0,0,0,0,269.9,0,0,0,0,0,0,0,0,0,0,0,0,0,1,1,62.14,FLYING
62.3,APPROACH,FLY_TO_FIX,198.9,200,1.1,2748.27,5.64,7.83,6.45,315.55,2.644,0.3007,20,315.53,1.26,0,0,0,0,0,0,0,0,269.9,0,0,0,0,0,0,0,0,0,0,0,0,0,1,1,62.34,FLYING
62.5,APPROACH,FLY_TO_FIX,198.92,200,1.08,2749.41,5.51,7.91,6.53,315.53,2.565,0.2995,20,315.52,1.254,0,0,0,0,0,0,0,0,269.9,0,0,0,0,0,0,0,0,0,0,0,0,0,1,1,62.54,FLYING
62.76,APPROACH,FLY_TO_FIX,198.92,200,1.08,2750.93,5.73,8.17,6.78,315.51,2.451,0.2996,20,315.5,1.246,0,0,0,0,0,0,0,0,269.9,0,0,0,0,0,0,0,0,0,0,0,0,0,1,1,62.8,FLYING
62.96,APPROACH,FLY_TO_FIX,198.93,200,1.07,2752.01,5.81,7.9,6.5,315.5,2.425,0.2989,20,315.48,1.241,0,0,0,0,0,0,0,0,269.9,0,0,0,0,0,0,0,0,0,0,0,0,0,1,1,63,FLYING
63.16,APPROACH,FLY_TO_FIX,198.96,200,1.04,2753.11,5.64,7.75,6.35,315.49,2.392,0.2972,20,315.47,1.236,0,0,0,0,0,0,0,0,269.9,0,0,0,0,0,0,0,0,0,0,0,0,0,1,1,63.2,FLYING
63.36,APPROACH,FLY_TO_FIX,198.98,200,1.02,2754.26,5.65,7.83,6.45,315.47,2.323,0.2963,20,315.45,1.23,0,0,0,0,0,0,0,0,269.9,0,0,0,0,0,0,0,0,0,0,0,0,0,1,1,63.4,FLYING
63.56,APPROACH,FLY_TO_FIX,199.02,200,0.98,2755.36,5.65,7.7,6.32,315.46,2.275,0.294,20,315.44,1.224,0,0,0,0,0,0,0,0,269.9,0,0,0,0,0,0,0,0,0,0,0,0,0,1,1,63.6,FLYING
63.82,APPROACH,FLY_TO_FIX,199.07,200,0.93,2756.82,5.51,7.77,6.41,315.45,2.172,0.2909,20,315.42,1.217,0,0,0,0,0,0,0,0,269.9,0,0,0,0,0,0,0,0,0,0,0,0,0,1,1,63.86,FLYING
64.02,APPROACH,FLY_TO_FIX,199.12,200,0.88,2757.93,5.57,7.78,6.42,315.44,2.107,0.2884,20,315.41,1.211,0,0,0,0,0,0,0,0,269.9,0,0,0,0,0,0,0,0,0,0,0,0,0,1,1,64.06,FLYING
64.22,APPROACH,FLY_TO_FIX,199.18,200,0.82,2759.02,5.53,7.7,6.34,315.43,2.048,0.2853,20,315.4,1.206,0,0,0,0,0,0,0,0,269.9,0,0,0,0,0,0,0,0,0,0,0,0,0,1,1,64.26,FLYING
64.42,APPROACH,FLY_TO_FIX,199.23,200,0.77,2760.13,5.4,7.78,6.42,315.42,1.97,0.2825,20,315.39,1.2,0,0,0,0,0,0,0,0,269.9,0,0,0,0,0,0,0,0,0,0,0,0,0,1,1,64.46,FLYING
64.62,APPROACH,FLY_TO_FIX,199.25,200,0.75,2761.31,5.4,8.13,6.78,315.4,1.88,0.2811,20,315.37,1.195,0,0,0,0,0,0,0,0,269.9,0,0,0,0,0,0,0,0,0,0,0,0,0,1,1,64.66,FLYING
64.88,APPROACH,FLY_TO_FIX,199.28,200,0.72,2762.71,5.75,7.89,6.52,315.39,1.819,0.2795,20,315.36,1.188,0,0,0,0,0,0,0,0,269.9,0,0,0,0,0,0,0,0,0,0,0,0,0,1,1,64.92,FLYING
65.08,APPROACH,FLY_TO_FIX,199.33,200,0.67,2763.76,5.61,7.59,6.22,315.39,1.803,0.2769,20,315.35,1.182,0,0,0,0,0,0,0,0,269.9,0,0,0,0,0,0,0,0,0,0,0,0,0,1,1,65.12,FLYING
65.28,APPROACH,FLY_TO_FIX,199.37,200,0.63,2764.87,5.38,7.65,6.31,315.38,1.748,0.2749,20,315.34,1.177,0,0,0,0,0,0,0,0,269.9,0,0,0,0,0,0,0,0,0,0,0,0,0,1,1,65.32,FLYING
65.48,APPROACH,FLY_TO_FIX,199.4,200,0.6,2765.98,5.5,7.71,6.37,315.37,1.682,0.2727,20,315.33,1.171,0,0,0,0,0,0,0,0,269.9,0,0,0,0,0,0,0,0,0,0,0,0,0,1,1,65.52,FLYING
65.68,APPROACH,FLY_TO_FIX,199.47,200,0.53,2767.04,5.47,7.6,6.27,315.36,1.634,0.2693,20,315.32,1.166,0,0,0,0,0,0,0,0,269.9,0,0,0,0,0,0,0,0,0,0,0,0,0,1,1,65.72,FLYING
65.94,APPROACH,FLY_TO_FIX,199.53,200,0.47,2768.46,5.33,7.69,6.38,315.35,1.542,0.2656,20,315.31,1.159,0,0,0,0,0,0,0,0,269.9,0,0,0,0,0,0,0,0,0,0,0,0,0,1,1,65.98,FLYING
66.14,APPROACH,FLY_TO_FIX,199.58,200,0.42,2769.54,5.38,7.7,6.39,315.35,1.482,0.2629,20,315.3,1.153,0,0,0,0,0,0,0,0,269.9,0,0,0,0,0,0,0,0,0,0,0,0,0,1,1,66.18,FLYING
66.34,APPROACH,FLY_TO_FIX,199.64,200,0.36,2770.61,5.3,7.7,6.39,315.34,1.428,0.26,20,315.3,1.148,0,0,0,0,0,0,0,0,269.9,0,0,0,0,0,0,0,0,0,0,0,0,0,1,1,66.38,FLYING
66.54,APPROACH,FLY_TO_FIX,199.68,200,0.32,2771.68,5.37,7.72,6.41,315.33,1.372,0.2577,20,315.29,1.143,0,0,0,0,0,0,0,0,269.9,0,0,0,0,0,0,0,0,0,0,0,0,0,1,1,66.58,FLYING
66.74,APPROACH,FLY_TO_FIX,199.72,200,0.28,2772.73,5.28,7.67,6.36,315.33,1.329,0.2552,20,315.28,1.137,0,0,0,0,0,0,0,0,269.9,0,0,0,0,0,0,0,0,0,0,0,0,0,1,1,66.78,FLYING
67,APPROACH,FLY_TO_FIX,199.77,200,0.23,2774.12,5.29,7.73,6.43,315.32,1.262,0.2526,20,315.27,1.13,0,0,0,0,0,0,0,0,269.9,0,0,0,0,0,0,0,0,0,0,0,0,0,1,1,67.04,FLYING
67.2,APPROACH,FLY_TO_FIX,199.81,200,0.19,2775.16,5.28,7.67,6.38,315.31,1.226,0.2503,20,315.27,1.125,0,0,0,0,0,0,0,0,269.9,0,0,0,0,0,0,0,0,0,0,0,0,0,1,1,67.24,FLYING
67.4,APPROACH,FLY_TO_FIX,199.84,200,0.16,2776.22,5.22,7.7,6.42,315.31,1.186,0.2485,20,315.26,1.12,0,0,0,0,0,0,0,0,269.9,0,0,0,0,0,0,0,0,0,0,0,0,0,1,1,67.44,FLYING
67.6,APPROACH,FLY_TO_FIX,199.87,200,0.13,2777.26,5.22,7.71,6.43,315.3,1.148,0.247,20,315.26,1.115,0,0,0,0,0,0,0,0,269.9,0,0,0,0,0,0,0,0,0,0,0,0,0,1,1,67.64,FLYING
67.8,APPROACH,FLY_TO_FIX,199.9,200,0.1,2778.31,5.21,7.72,6.44,315.29,1.114,0.2455,20,315.25,1.11,0,0,0,0,0,0,0,0,269.9,0,0,0,0,0,0,0,0,0,0,0,0,0,1,1,67.84,FLYING
68.06,APPROACH,FLY_TO_FIX,199.93,200,0.07,2779.66,5.19,7.72,6.45,315.29,1.068,0.244,20,315.25,1.103,0,0,0,0,0,0,0,0,269.9,0,0,0,0,0,0,0,0,0,0,0,0,0,1,1,68.1,FLYING
68.26,APPROACH,FLY_TO_FIX,199.94,200,0.06,2780.69,5.15,7.71,6.44,315.28,1.036,0.2431,20,315.24,1.098,0,0,0,0,0,0,0,0,269.9,0,0,0,0,0,0,0,0,0,0,0,0,0,1,1,68.3,FLYING
68.46,APPROACH,FLY_TO_FIX,199.95,200,0.05,2781.73,5.17,7.72,6.46,315.28,1.001,0.2426,20,315.24,1.092,0,0,0,0,0,0,0,0,269.9,0,0,0,0,0,0,0,0,0,0,0,0,0,1,1,68.5,FLYING
68.66,APPROACH,FLY_TO_FIX,199.96,200,0.04,2782.75,5.12,7.71,6.45,315.27,0.972,0.2421,20,315.23,1.087,0,0,0,0,0,0,0,0,269.9,0,0,0,0,0,0,0,0,0,0,0,0,0,1,1,68.7,FLYING
68.86,APPROACH,FLY_TO_FIX,199.96,200,0.04,2783.78,5.13,7.71,6.46,315.27,0.939,0.242,20,315.23,1.082,0,0,0,0,0,0,0,0,269.9,0,0,0,0,0,0,0,0,0,0,0,0,0,1,1,68.9,FLYING
69.12,APPROACH,FLY_TO_FIX,199.96,200,0.04,2785.11,5.11,7.71,6.46,315.26,0.898,0.242,20,315.22,1.075,0,0,0,0,0,0,0,0,269.9,0,0,0,0,0,0,0,0,0,0,0,0,0,1,1,69.16,FLYING
69.32,APPROACH,FLY_TO_FIX,199.96,200,0.04,2786.13,5.09,7.7,6.46,315.26,0.868,0.2421,20,315.22,1.07,0,0,0,0,0,0,0,0,269.9,0,0,0,0,0,0,0,0,0,0,0,0,0,1,1,69.36,FLYING
69.52,APPROACH,FLY_TO_FIX,199.96,200,0.04,2787.14,5.08,7.7,6.46,315.25,0.839,0.2425,20,315.22,1.065,0,0,0,0,0,0,0,0,269.9,0,0,0,0,0,0,0,0,0,0,0,0,0,1,1,69.56,FLYING
69.72,APPROACH,FLY_TO_FIX,199.95,200,0.05,2788.15,5.06,7.7,6.46,315.25,0.811,0.243,20,315.21,1.06,0,0,0,0,0,0,0,0,269.9,0,0,0,0,0,0,0,0,0,0,0,0,0,1,1,69.76,FLYING
69.92,APPROACH,FLY_TO_FIX,199.93,200,0.07,2789.16,5.03,7.69,6.46,315.25,0.784,0.2436,20,315.21,1.055,0,0,0,0,0,0,0,0,269.9,0,0,0,0,0,0,0,0,0,0,0,0,0,1,1,69.96,FLYING
70.18,APPROACH,FLY_TO_FIX,199.91,200,0.09,2790.47,5.03,7.7,6.47,315.24,0.744,0.2447,20,315.21,1.049,0,0,0,0,0,0,0,0,269.9,0,0,0,0,0,0,0,0,0,0,0,0,0,1,1,70.22,FLYING
70.38,APPROACH,FLY_TO_FIX,199.9,200,0.1,2791.47,5.01,7.69,6.47,315.24,0.717,0.2456,20,315.2,1.044,0,0,0,0,0,0,0,0,269.9,0,0,0,0,0,0,0,0,0,0,0,0,0,1,1,70.42,FLYING
70.58,APPROACH,FLY_TO_FIX,199.88,200,0.12,2792.47,5,7.69,6.47,315.23,0.693,0.2465,20,315.2,1.039,0,0,0,0,0,0,0,0,269.9,0,0,0,0,0,0,0,0,0,0,0,0,0,1,1,70.62,FLYING
70.78,APPROACH,FLY_TO_FIX,199.86,200,0.14,2793.47,4.96,7.68,6.47,315.23,0.671,0.2476,20,315.2,1.034,0,0,0,0,0,0,0,0,269.9,0,0,0,0,0,0,0,0,0,0,0,0,0,1,1,70.82,FLYING
70.98,APPROACH,FLY_TO_FIX,199.84,200,0.16,2794.46,4.97,7.69,6.47,315.23,0.645,0.2488,20,315.2,1.029,0,0,0,0,0,0,0,0,269.9,0,0,0,0,0,0,0,0,0,0,0,0,0,1,1,71.02,FLYING
71.24,APPROACH,FLY_TO_FIX,199.81,200,0.19,2795.75,4.94,7.68,6.47,315.22,0.613,0.2503,20,315.2,1.022,0,0,0,0,0,0,0,0,269.9,0,0,0,0,0,0,0,0,0,0,0,0,0,1,1,71.28,FLYING
71.44,APPROACH,FLY_TO_FIX,199.79,200,0.21,2796.73,4.9,7.68,6.48,315.22,0.59,0.2514,20,315.19,1.017,0,0,0,0,0,0,0,0,269.9,0,0,0,0,0,0,0,0,0,0,0,0,0,1,1,71.48,FLYING
71.64,APPROACH,FLY_TO_FIX,199.77,200,0.23,2797.71,4.91,7.68,6.48,315.22,0.566,0.2527,20,315.19,1.012,0,0,0,0,0,0,0,0,269.9,0,0,0,0,0,0,0,0,0,0,0,0,0,1,1,71.68,FLYING
71.84,APPROACH,FLY_TO_FIX,199.75,200,0.25,2798.69,4.88,7.68,6.48,315.22,0.542,0.2539,20,315.19,1.008,0,0,0,0,0,0,0,0,269.9,0,0,0,0,0,0,0,0,0,0,0,0,0,1,1,71.88,FLYING
72.04,APPROACH,FLY_TO_FIX,199.73,200,0.27,2799.67,4.87,7.68,6.49,315.21,0.519,0.2551,20,315.19,1.003,0,0,0,0,0,0,0,0,269.9,0,0,0,0,0,0,0,0,0,0,0,0,0,1,1,72.08,FLYING
72.3,APPROACH,FLY_TO_FIX,199.7,200,0.3,2800.93,4.82,7.67,6.48,315.21,0.49,0.2566,20,315.19,0.996,0,0,0,0,0,0,0,0,269.9,0,0,0,0,0,0,0,0,0,0,0,0,0,1,1,72.34,FLYING
72.5,APPROACH,FLY_TO_FIX,199.67,200,0.33,2801.89,4.83,7.66,6.47,315.21,0.469,0.258,20,315.19,0.991,0,0,0,0,0,0,0,0,269.9,0,0,0,0,0,0,0,0,0,0,0,0,0,1,1,72.54,FLYING
72.7,APPROACH,FLY_TO_FIX,199.65,200,0.35,2802.86,4.82,7.67,6.49,315.21,0.448,0.2591,20,315.19,0.987,0,0,0,0,0,0,0,0,269.9,0,0,0,0,0,0,0,0,0,0,0,0,0,1,1,72.74,FLYING
72.9,APPROACH,FLY_TO_FIX,199.64,200,0.36,2803.82,4.81,7.66,6.48,315.21,0.428,0.26,20,315.19,0.982,0,0,0,0,0,0,0,0,269.9,0,0,0,0,0,0,0,0,0,0,0,0,0,1,1,72.94,FLYING
73.1,APPROACH,FLY_TO_FIX,199.62,200,0.38,2804.78,4.76,7.66,6.48,315.2,0.411,0.261,20,315.19,0.977,0,0,0,0,0,0,0,0,269.9,0,0,0,0,0,0,0,0,0,0,0,0,0,1,1,73.14,FLYING
73.36,APPROACH,FLY_TO_FIX,199.59,200,0.41,2806.02,4.77,7.66,6.49,315.2,0.385,0.2623,20,315.19,0.971,0,0,0,0,0,0,0,0,269.9,0,0,0,0,0,0,0,0,0,0,0,0,0,1,1,73.4,FLYING
73.56,APPROACH,FLY_TO_FIX,199.58,200,0.42,2806.97,4.73,7.65,6.49,315.2,0.367,0.2631,20,315.19,0.966,0,0,0,0,0,0,0,0,269.9,0,0,0,0,0,0,0,0,0,0,0,0,0,1,1,73.6,FLYING
73.76,APPROACH,FLY_TO_FIX,199.56,200,0.44,2807.91,4.73,7.65,6.49,315.2,0.348,0.264,20,315.19,0.961,0,0,0,0,0,0,0,0,269.9,0,0,0,0,0,0,0,0,0,0,0,0,0,1,1,73.8,FLYING
73.96,APPROACH,FLY_TO_FIX,199.55,200,0.45,2808.86,4.69,7.65,6.49,315.2,0.331,0.2647,20,315.19,0.957,0,0,0,0,0,0,0,0,269.9,0,0,0,0,0,0,0,0,0,0,0,0,0,1,1,74,FLYING
74.16,APPROACH,FLY_TO_FIX,199.54,200,0.46,2809.79,4.68,7.63,6.47,315.2,0.313,0.2655,20,315.19,0.952,0,0,0,0,0,0,0,0,269.9,0,0,0,0,0,0,0,0,0,0,0,0,0,1,1,74.2,FLYING
74.42,APPROACH,FLY_TO_FIX,199.52,200,0.48,2811.01,4.68,7.64,6.49,315.2,0.29,0.2664,20,315.19,0.946,0,0,0,0,0,0,0,0,269.9,0,0,0,0,0,0,0,0,0,0,0,0,0,1,1,74.46,FLYING
74.62,APPROACH,FLY_TO_FIX,199.51,200,0.49,2811.94,4.63,7.62,6.48,315.2,0.274,0.2668,20,315.19,0.941,0,0,0,0,0,0,0,0,269.9,0,0,0,0,0,0,0,0,0,0,0,0,0,1,1,74.66,FLYING
74.82,APPROACH,FLY_TO_FIX,199.5,200,0.5,2812.87,4.65,7.63,6.49,315.19,0.258,0.2674,20,315.19,0.937,0,0,0,0,0,0,0,0,269.9,0,0,0,0,0,0,0,0,0,0,0,0,0,1,1,74.86,FLYING
75.02,APPROACH,FLY_TO_FIX,199.5,200,0.5,2813.8,4.6,7.62,6.49,315.19,0.242,0.2677,20,315.19,0.932,0,0,0,0,0,0,0,0,269.9,0,0,0,0,0,0,0,0,0,0,0,0,0,1,1,75.06,FLYING
75.22,APPROACH,FLY_TO_FIX,199.49,200,0.51,2814.71,4.6,7.59,6.46,315.19,0.227,0.268,20,315.19,0.927,0,0,0,0,0,0,0,0,269.9,0,0,0,0,0,0,0,0,0,0,0,0,0,1,1,75.26,FLYING
75.48,APPROACH,FLY_TO_FIX,199.48,200,0.52,2815.91,4.59,7.62,6.49,315.19,0.207,0.2683,20,315.19,0.921,0,0,0,0,0,0,0,0,269.9,0,0,0,0,0,0,0,0,0,0,0,0,0,1,1,75.52,FLYING
