t_s,phase,subphase,ias_ms,vapp_ms,spd_err_ms,agl_m,vs_ms,pitch_deg,aoa_deg,hdg_deg,bank_deg,thr_cmd,thr_cur,thr_intg,at_gain,at_tau_s,at_a_up,at_a_dn,at_kp_thr,at_ki_spd,at_thr_slew,as_cmd_deg,as_cap_deg,as_raw_deg,as_spd_err_ms,as_active,aa_hdg_cmd_deg,aa_fpa_cmd_deg,aa_fbw,aa_dir,actual_fpa_deg,ftf_hdg_err_deg,ftf_fix_idx,kos_steer_pit_deg,kos_steer_hdg_deg,aa_dir_vx,aa_dir_vy,aa_dir_vz,aa_dir_pitch_deg,aa_dir_hdg_deg,ils_loc_m,ils_gs_m,ils_dist_km,loc_corr_deg,gs_corr_deg,gs_latched,active_gs_ang_deg,ils_intercept_alt_m,d_gs_ms,fpa_preclamped_deg,gs_nom_alt_m,flare_fpa_cmd,flare_tgt_vs,flare_frac,steer_hdg_deg,steer_blend,ro_loc_corr_deg,ro_hdg_err_deg,ro_yaw_tgt,ro_yaw_scale,ro_yaw_gate,yaw_cmd,roll_cmd,pitch_cmd,ro_pitch_tgt_deg,ro_pitch_err_deg,ro_pitch_ff,ro_roll_assist,flaps_cur,flaps_tgt,asc_j_ab,asc_j_rk,asc_validity,asc_q_pa,asc_q_raw_pa,asc_mach,asc_apo_m,asc_drag_n,asc_w_prop,asc_edot_aero,asc_edot_orb,asc_pitch_bias,asc_blend,asc_spooling,asc_ab_thr_ratio,asc_ab_t_now,asc_ab_t_avail,asc_ab_ign_on,asc_ab_flameouts,asc_rk_t_now,asc_rk_t_avail,asc_rk_ign_on,asc_rk_flameouts,ship_thrust,ship_avail_thrust,ship_ign_on,ship_flameouts,ifc_raw_dt_s,ifc_dt_s,ifc_loop_n,ifc_hz_est,ifc_raw_dt_max_s,ifc_raw_dt_min_s,phase_el_s,status,craft_name,cfg_file
0.22,TAKEOFF,TO_PREFLIGHT,0.45,80,79.55,3.61,0,-0.18,0.05,89.34,0.1,0.072,0,0,0,0,0,0,0,0,0,0,0,0,0,0,90.4,0,1,0,-0.14,0,0,0,90,0,0,0,0,0,0,0,0,0,0,0,3,0,0,0,69,0,0,0,90.4,1,0,-1.059,0,0,1,0,0,0,0,0,0,0,0,1,0,0,VALID,0,0,0,0,0,1,0,0,0,0,0,0,0,0,0,0,0,0,0,0,0,518.01,2,0,0.18,0.18,1,3.45,0.18,0.02,0.04,LANDED,CF1-J,0:/Integrated Flight Computer/aircraft/cf1_j_cfg.ks (inferred preloaded)
0.48,TAKEOFF,TO_PREFLIGHT,0.45,80,79.55,3.61,0,-0.2,-0.07,89.33,0.102,0.12,0,0,0,0,0,0,0,0,0,0,0,0,0,0,90.4,0,1,0,0.03,0,0,0,90,0,0,0,0,0,0,0,0,0,0,0,3,0,0,0,69,0,0,0,90.4,1,0,-1.061,0,0,1,0,0,0,0,0,0,0,1,1,0,0,VALID,0,0,0,0,0,1,0,0,0,0,0,0,0,0,0,0,0,0,0,0,0.46,518.01,2,0,0.04,0.04,6,19.23,0.18,0.04,0.3,LANDED,CF1-J,0:/Integrated Flight Computer/aircraft/cf1_j_cfg.ks (inferred preloaded)
0.74,TAKEOFF,TO_PREFLIGHT,0.32,80,79.68,3.6,0.01,-0.28,-1.23,89.33,0.111,0.224,0,0,0,0,0,0,0,0,0,0,0,0,0,0,90.4,0,1,0,0.3,0,0,0,90,0,0,0,0,0,0,0,0,0,0,0,3,0,0,0,69,0,0,0,90.4,1,0,-1.061,0,0,1,0,0,0,0,0,0,0,1,1,0,0,VALID,0,0,0,0,0,1,0,0,0,0,0,0,0,0,0,0,0,0,0,0,1.62,518.04,2,0,0.04,0.04,11,19.23,0.08,0.04,0.56,LANDED,CF1-J,0:/Integrated Flight Computer/aircraft/cf1_j_cfg.ks (inferred preloaded)
1,TAKEOFF,TO_PREFLIGHT,0.03,80,79.97,3.6,0,-0.29,-0.3,89.33,0.118,0.328,0,0,0,0,0,0,0,0,0,0,0,0,0,0,90.4,0,1,0,-0.11,0,0,0,90,0,0,0,0,0,0,0,0,0,0,0,3,0,0,0,69,0,0,0,90.4,1,0,-1.061,0,0,1,0,0,0,0,0,0,0,1,1,0,0,VALID,0,0,0,0,0,1,0,0,0,0,0,0,0,0,0,0,0,0,0,0,3.59,518.11,2,0,0.04,0.04,16,19.23,0.08,0.04,0.82,LANDED,CF1-J,0:/Integrated Flight Computer/aircraft/cf1_j_cfg.ks (inferred preloaded)
1.26,TAKEOFF,TO_PREFLIGHT,0.05,80,79.95,3.62,-0.01,-0.12,21.17,89.33,0.119,0.432,0,0,0,0,0,0,0,0,0,0,0,0,0,0,90.4,0,1,0,-0.65,0,0,0,90,0,0,0,0,0,0,0,0,0,0,0,3,0,0,0,69,0,0,0,90.4,1,0,-1.061,0,0,1,0,0,0,0,0,0,0,1,1,0,0,VALID,0,0,0,0,0,1,0,0,0,0,0,0,0,0,0,0,0,0,0,0,6.37,518.1,2,0,0.04,0.04,21,19.23,0.08,0.04,1.08,LANDED,CF1-J,0:/Integrated Flight Computer/aircraft/cf1_j_cfg.ks (inferred preloaded)
1.52,TAKEOFF,TO_PREFLIGHT,0.02,80,79.98,3.61,0.01,-0.17,-13.62,89.34,0.112,0.536,0,0,0,0,0,0,0,0,0,0,0,0,0,0,90.4,0,1,0,0.59,0,0,0,90,0,0,0,0,0,0,0,0,0,0,0,3,0,0,0,69,0,0,0,90.4,1,0,-1.061,0,0,1,0,0,0,0,0,0,0,1,1,0,0,VALID,0,0,0,0,0,1,0,0,0,0,0,0,0,0,0,0,0,0,0,0,9.93,518.11,2,0,0.04,0.04,26,19.23,0.08,0.04,1.34,LANDED,CF1-J,0:/Integrated Flight Computer/aircraft/cf1_j_cfg.ks (inferred preloaded)
1.78,TAKEOFF,TO_PREFLIGHT,0.04,80,79.96,3.6,0,-0.25,-3.51,89.35,0.105,0.64,0,0,0,0,0,0,0,0,0,0,0,0,0,0,90.4,0,1,0,0.03,0,0,0,90,0,0,0,0,0,0,0,0,0,0,0,3,0,0,0,69,0,0,0,90.4,1,0,-1.061,0,0,1,0,0,0,0,0,0,0,1,1,0,0,VALID,0,0,0,0,0,1,0,0,0,0,0,0,0,0,0,0,0,0,0,0,14.28,518.1,2,0,0.04,0.04,31,19.23,0.08,0.04,1.6,LANDED,CF1-J,0:/Integrated Flight Computer/aircraft/cf1_j_cfg.ks (inferred preloaded)
2.04,TAKEOFF,TO_PREFLIGHT,0,80,80,3.61,-0.01,-0.2,68.25,89.36,0.104,0.744,0,0,0,0,0,0,0,0,0,0,0,0,0,0,90.4,0,1,0,-0.33,0,0,0,90,0,0,0,0,0,0,0,0,0,0,0,3,0,0,0,69,0,0,0,90.4,1,0,-1.061,0,0,1,0,0,0,0,0,0,0,1,1,0,0,VALID,0,0,0,0,0,1,0,0,0,0,0,0,0,0,0,0,0,0,0,0,19.39,518.11,2,0,0.04,0.04,36,19.23,0.08,0.04,1.86,LANDED,CF1-J,0:/Integrated Flight Computer/aircraft/cf1_j_cfg.ks (inferred preloaded)
2.36,TAKEOFF,TO_PREFLIGHT,0.02,80,79.98,3.61,0,-0.2,-6.13,89.37,0.111,0.872,0,0,0,0,0,0,0,0,0,0,0,0,0,0,90.4,0,1,0,0.23,0,0,0,90,0,0,0,0,0,0,0,0,0,0,0,3,0,0,0,69,0,0,0,90.4,1,0,-1.061,0,0,1,0,0,0,0,0,0,0,1,1,0,0,VALID,0,0,0,0,0,1,0,0,0,0,0,0,0,0,0,0,0,0,0,0,26.72,518.1,2,0,0.08,0.08,41,15.63,0.08,0.04,2.18,LANDED,CF1-J,0:/Integrated Flight Computer/aircraft/cf1_j_cfg.ks (inferred preloaded)
2.64,TAKEOFF,TO_PREFLIGHT,0.04,80,79.96,3.6,0,-0.24,-1.64,89.37,0.116,0.984,0,0,0,0,0,0,0,0,0,0,0,0,0,0,90.4,0,1,0,0.03,0,0,0,90,0,0,0,0,0,0,0,0,0,0,0,3,0,0,0,69,0,0,0,90.4,1,0,-1.061,0,0,1,0,0,0,0,0,0,0,1,1,0,0,VALID,0,0,0,0,0,1,0,0,0,0,0,0,0,0,0,0,0,0,0,0,34.03,518.1,2,0,0.08,0.08,45,14.29,0.08,0.06,2.46,LANDED,CF1-J,0:/Integrated Flight Computer/aircraft/cf1_j_cfg.ks (inferred preloaded)
2.92,TAKEOFF,TO_PREFLIGHT,0.03,80,79.97,3.61,0,-0.23,3.66,89.38,0.115,1,0,0,0,0,0,0,0,0,0,0,0,0,0,0,90.4,0,1,0,-0.14,0,0,0,90,0,0,0,0,0,0,0,0,0,0,0,3,0,0,0,69,0,0,0,90.4,1,0,-1.061,0,0,1,0,0,0,0,0,0,0,1,1,0,0,VALID,0,0,0,0,0,1,0,0,0,0,0,0,0,0,0,0,0,0,0,0,42.01,518.1,2,0,0.08,0.08,49,14.29,0.08,0.06,2.74,LANDED,CF1-J,0:/Integrated Flight Computer/aircraft/cf1_j_cfg.ks (inferred preloaded)
3.2,TAKEOFF,TO_PREFLIGHT,0.04,80,79.96,3.61,0,-0.23,-2.88,89.39,0.11,1,0,0,0,0,0,0,0,0,0,0,0,0,0,0,90.4,0,1,0,0.16,0,0,0,90,0,0,0,0,0,0,0,0,0,0,0,3,0,0,0,69,0,0,0,90.4,1,0,-1.061,0,0,1,0,0,0,0,0,0,0,1,1,0,0,VALID,0,0,0,0,0,1,0,0,0,0,0,0,0,0,0,0,0,0,0,0,49.94,518.1,2,0,0.08,0.08,53,14.29,0.08,0.06,3.02,LANDED,CF1-J,0:/Integrated Flight Computer/aircraft/cf1_j_cfg.ks (inferred preloaded)
3.48,TAKEOFF,TO_GROUND_ROLL,0.06,80,79.94,3.61,0,-0.23,-0.03,89.39,0.107,1,0,0,0,0,0,0,0,0,0,0,0,0,0,0,90.4,0,1,0,-0.05,0,0,0,90,0,0,0,0,0,0,0,0,0,0,0,3,0,0,0,69,0,0,0,90.4,1,0,-1.002,0.0113,0.25,1,0.0113,0,0,0,0,0,0,1,1,0,0,VALID,0,0,0,0,0,1,0,0,0,0,0,0,0,0,0,0,0,0,0,0,57.75,518.09,2,0,0.08,0.08,57,14.29,0.08,0.06,3.32,LANDED,CF1-J,0:/Integrated Flight Computer/aircraft/cf1_j_cfg.ks (inferred preloaded)
3.76,TAKEOFF,TO_GROUND_ROLL,0.29,80,79.71,3.62,-0.01,-0.12,1.35,89.4,0.107,1,0,0,0,0,0,0,0,0,0,0,0,0,0,0,90.4,0,1,0,-0.47,0,0,0,90,0,0,0,0,0,0,0,0,0,0,0,3,0,0,0,69,0,0,0,90.4,1,0,-1.006,0.0113,0.25,1,0.0113,0,0,0,0,0,0,1,1,0,0,VALID,0,0,0,0,0,1,0,0,0,0,0,0,0,0,0,0,0,0,0,0,65.42,518.04,2,0,0.08,0.08,61,14.29,0.08,0.06,3.6,LANDED,CF1-J,0:/Integrated Flight Computer/aircraft/cf1_j_cfg.ks (inferred preloaded)
4.04,TAKEOFF,TO_GROUND_ROLL,0.64,80,79.36,3.61,0,-0.17,-0.45,89.4,0.109,1,0,0,0,0,0,0,0,0,0,0,0,0,0,0,90.4,0,1,0,0.14,0,0,0,90,0,0,0,0,0,0,0,0,0,0,0,3,0,0,0,69,0,0,0,90.4,1,0,-1.003,0.0113,0.25,1,0.0113,0,0,0,0,0,0,1,1,0,0,VALID,0,0,0,0,0,1,0,0,0,0,0,0,0,0,0,0,0,0,0,0,72.95,517.95,2,0,0.08,0.08,65,14.29,0.08,0.06,3.88,LANDED,CF1-J,0:/Integrated Flight Computer/aircraft/cf1_j_cfg.ks (inferred preloaded)
4.32,TAKEOFF,TO_GROUND_ROLL,1.02,80,78.98,3.62,-0.01,-0.16,0.36,89.4,0.111,1,0,0,0,0,0,0,0,0,0,0,0,0,0,0,90.39,0,1,0,-0.65,0,0,0,90,0,0,0,0,0,0,0,0,0,0,0,3,0,0,0,69,0,0,0,90.39,1,0,-0.988,0.0111,0.25,1,0.0111,0,0,0,0,0,0,1,1,0,0,VALID,0,0,0,0,0,1,0,0,0,0,0,0,0,0,0,0,0,0,0,0,80.35,517.86,2,0,0.08,0.08,69,14.29,0.08,0.06,4.16,LANDED,CF1-J,0:/Integrated Flight Computer/aircraft/cf1_j_cfg.ks (inferred preloaded)
4.6,TAKEOFF,TO_GROUND_ROLL,1.45,80,78.55,3.62,-0.01,-0.14,0.09,89.42,0.111,1,0,0,0,0,0,0,0,0,0,0,0,0,0,0,90.39,0,1,0,-0.27,0,0,0,90,0,0,0,0,0,0,0,0,0,0,0,3,0,0,0,69,0,0,0,90.39,1,0,-0.965,0.0109,0.25,1,0.0109,0,0,0,0,0,0,1,1,0,0,VALID,0,0,0,0,0,1,0,0,0,0,0,0,0,0,0,0,0,0,0,0,87.63,517.75,2,0,0.08,0.08,73,14.29,0.08,0.06,4.44,LANDED,CF1-J,0:/Integrated Flight Computer/aircraft/cf1_j_cfg.ks (inferred preloaded)
4.88,TAKEOFF,TO_GROUND_ROLL,1.9,80,78.1,3.62,-0.01,-0.16,0.14,89.45,0.109,1,0,0,0,0,0,0,0,0,0,0,0,0,0,0,90.38,0,1,0,-0.36,0,0,0,90,0,0,0,0,0,0,0,0,0,0,0,3,0,0,0,69,0,0,0,90.38,1,0,-0.933,0.0105,0.25,1,0.0105,0,0,0,0,0,0,1,1,0,0,VALID,0,0,0,0,0,1,0,0,0,0,0,0,0,0,0,0,0,0,0,0,94.78,517.63,2,0,0.08,0.08,77,14.29,0.08,0.06,4.72,LANDED,CF1-J,0:/Integrated Flight Computer/aircraft/cf1_j_cfg.ks (inferred preloaded)
5.16,TAKEOFF,TO_GROUND_ROLL,2.4,80,77.6,3.62,-0.02,-0.14,0.18,89.48,0.108,1,0,0,0,0,0,0,0,0,0,0,0,0,0,0,90.37,0,1,0,-0.36,0,0,0,90,0,0,0,0,0,0,0,0,0,0,0,3,0,0,0,69,0,0,0,90.37,1,0,-0.89,0.01,0.25,1,0.01,0,0,0,0,0,0,1,1,0,0,VALID,0,0,0,0,0,1,0,0,0,0,0,0,0,0,0,0,0,0,0,0,101.8,517.51,2,0,0.08,0.08,81,14.29,0.08,0.06,5,LANDED,CF1-J,0:/Integrated Flight Computer/aircraft/cf1_j_cfg.ks (inferred preloaded)
5.44,TAKEOFF,TO_GROUND_ROLL,2.93,80,77.07,3.62,-0.02,-0.15,0.14,89.53,0.107,1,0,0,0,0,0,0,0,0,0,0,0,0,0,0,90.37,0,1,0,-0.32,0,0,0,90,0,0,0,0,0,0,0,0,0.001,0,0,3,0,0,0,69,0,0,0,90.37,1,0.001,-0.84,0.0094,0.25,1,0.0094,0,0,0,0,0,0,1,1,0,0,VALID,0,0,0,0,0,1,0,0,0,0,0,0,0,0,0,0,0,0,0,0,108.7,517.37,2,0,0.08,0.08,85,14.29,0.08,0.06,5.28,LANDED,CF1-J,0:/Integrated Flight Computer/aircraft/cf1_j_cfg.ks (inferred preloaded)
5.72,TAKEOFF,TO_GROUND_ROLL,3.49,80,76.51,3.62,-0.02,-0.15,0.18,89.58,0.105,1,0,0,0,0,0,0,0,0,0,0,0,0,0,0,90.36,0,1,0,-0.36,0,0,0,90,0,0,0,0,0,0,0,0,0.001,0,0,3,0,0,0,69,0,0,0,90.36,1,0.001,-0.781,0.0088,0.25,1,0.0088,0,0,0,0,0,0,1,1,0,0,VALID,0,0,0,0,0,1,0,0,0,0,0,0,0,0,0,0,0,0,0,0,115.48,517.21,2,0,0.08,0.08,89,14.29,0.08,0.06,5.56,LANDED,CF1-J,0:/Integrated Flight Computer/aircraft/cf1_j_cfg.ks (inferred preloaded)
6,TAKEOFF,TO_GROUND_ROLL,4.09,80,75.91,3.62,-0.02,-0.14,0.16,89.64,0.103,1,0,0,0,0,0,0,0,0,0,0,0,0,0,0,90.36,0,1,0,-0.34,0,0,0,90,0,0,0,0,0,0,0,0,0.001,0,0,3,0,0,0,69,0,0,0,90.36,1,0.001,-0.717,0.0081,0.25,1,0.0081,0,0,0,0,0,0,1,1,0,0,VALID,0,0,0,0,0,1,0,0,0,0,0,0,0,0,0,0,0,0,0,0,122.14,517.05,2,0,0.08,0.08,93,14.29,0.08,0.06,5.84,LANDED,CF1-J,0:/Integrated Flight Computer/aircraft/cf1_j_cfg.ks (inferred preloaded)
6.28,TAKEOFF,TO_GROUND_ROLL,4.72,80,75.28,3.62,-0.03,-0.14,0.16,89.71,0.102,1,0,0,0,0,0,0,0,0,0,0,0,0,0,0,90.35,0,1,0,-0.33,0,0,0,90,0,0,0,0,0,0,0,0,0.001,0,0,3,0,0,0,69,0,0,0,90.35,1,0.001,-0.648,0.0073,0.25,1,0.0073,0,0,0,0,0,0,1,1,0,0,VALID,0,0,0,0,0,1,0,0,0,0,0,0,0,0,0,0,0,0,0,0,128.68,516.87,2,0,0.08,0.08,97,14.29,0.08,0.06,6.12,LANDED,CF1-J,0:/Integrated Flight Computer/aircraft/cf1_j_cfg.ks (inferred preloaded)
6.56,TAKEOFF,TO_GROUND_ROLL,5.39,80,74.61,3.62,-0.03,-0.14,0.17,89.77,0.1,1,0,0,0,0,0,0,0,0,0,0,0,0,0,0,90.35,0,1,0,-0.34,0,0,0,90,0,0,0,0,0,0,0,0,0.001,0,0,3,0,0,0,69,0,0,0,90.35,1,0.001,-0.576,0.0065,0.25,1,0.0065,0,0,0,0,0,0,1,1,0,0,VALID,0,0,0,0,0,1,0,0,0,0,0,0,0,0,0,0,0,0,0,0,135.1,516.68,2,0,0.08,0.08,101,14.29,0.08,0.06,6.4,LANDED,CF1-J,0:/Integrated Flight Computer/aircraft/cf1_j_cfg.ks (inferred preloaded)
6.84,TAKEOFF,TO_GROUND_ROLL,6.08,80,73.92,3.62,-0.04,-0.14,0.16,89.85,0.099,1,0,0,0,0,0,0,0,0,0,0,0,0,0,0,90.35,0,1,0,-0.33,0,0,0,90,0,0,0,0,0,0,0,0,0.001,0,0,3,0,0,0,69,0,0,0,90.35,1,0.001,-0.505,0.0057,0.25,1,0.0057,0,0,0,0,0,0,1,1,0,0,VALID,0,0,0,0,0,1,0,0,0,0,0,0,0,0,0,0,0,0,0,0,141.4,516.47,2,0,0.08,0.08,105,14.29,0.08,0.06,6.68,LANDED,CF1-J,0:/Integrated Flight Computer/aircraft/cf1_j_cfg.ks (inferred preloaded)
7.12,TAKEOFF,TO_GROUND_ROLL,6.81,80,73.19,3.62,-0.04,-0.14,0.17,89.92,0.097,1,0,0,0,0,0,0,0,0,0,0,0,0,0,0,90.35,0,1,0,-0.34,0,0,0,90,0,0,0,0,0,0,0,0,0.001,0,0,3,0,0,0,69,0,0,0,90.35,1,0.001,-0.434,0.0049,0.25,1,0.0049,0,0,0,0,0,0,1,1,0,0,VALID,0,0,0,0,0,1,0,0,0,0,0,0,0,0,0,0,0,0,0,0,147.59,516.25,2,0,0.08,0.08,109,14.29,0.08,0.06,6.96,LANDED,CF1-J,0:/Integrated Flight Computer/aircraft/cf1_j_cfg.ks (inferred preloaded)
7.4,TAKEOFF,TO_GROUND_ROLL,7.57,80,72.43,3.62,-0.04,-0.13,0.17,89.99,0.096,1,0,0,0,0,0,0,0,0,0,0,0,0,0,0,90.35,0,1,0,-0.32,0,0,0,90,0,0,0,0,0,0,0,0,0.001,0,0,3,0,0,0,69,0,0,0,90.35,1,0.001,-0.366,0.004,0.25,1,0.004,0,0,0,0,0,0,1,1,0,0,VALID,0,0,0,0,0,1,0,0,0,0,0,0,0,0,0,0,0,0,0,0,153.67,516.01,2,0,0.08,0.08,113,14.29,0.08,0.06,7.24,LANDED,CF1-J,0:/Integrated Flight Computer/aircraft/cf1_j_cfg.ks (inferred preloaded)
7.68,TAKEOFF,TO_GROUND_ROLL,8.36,80,71.64,3.62,-0.05,-0.13,0.17,90.05,0.094,1,0,0,0,0,0,0,0,0,0,0,0,0,0,0,90.35,0,1,0,-0.33,0,0,0,90,0,0,0,0,0,0,0,0,0.001,0,0,3,0,0,0,69,0,0,0,90.35,1,0.001,-0.303,0.003,0.25,1,0.003,0,0,0,0,0,0,1,1,0,0,VALID,0,0,0,0,0,1,0,0,0,0,0,0,0,0,0,0,0,0,0,0,159.63,515.76,2,0,0.08,0.08,117,14.29,0.08,0.06,7.52,LANDED,CF1-J,0:/Integrated Flight Computer/aircraft/cf1_j_cfg.ks (inferred preloaded)
7.96,TAKEOFF,TO_GROUND_ROLL,9.17,80,70.83,3.62,-0.05,-0.13,0.17,90.11,0.094,1,0,0,0,0,0,0,0,0,0,0,0,0,0,0,90.36,0,1,0,-0.33,0,0,0,90,0,0,0,0,0,0,0,0,0.001,0,0,3,0,0,0,69,0,0,0,90.36,1,0.001,-0.245,0.0023,0.25,1,0.0023,0,0,0,0,0,0,1,1,0,0,VALID,0,0,0,0,0,1,0,0,0,0,0,0,0,0,0,0,0,0,0,0,165.48,515.5,2,0,0.08,0.08,121,14.29,0.08,0.06,7.8,LANDED,CF1-J,0:/Integrated Flight Computer/aircraft/cf1_j_cfg.ks (inferred preloaded)
8.24,TAKEOFF,TO_GROUND_ROLL,10.02,80,69.98,3.62,-0.06,-0.13,0.18,90.17,0.094,1,0,0,0,0,0,0,0,0,0,0,0,0,0,0,90.36,0,1,0,-0.33,0,0,0,90,0,0,0,0,0,0,0,0,0.001,0,0,3,0,0,0,69,0,0,0,90.36,1,0.001,-0.195,0.0017,0.25,1,0.0017,0,0,0,0,0,0,1,1,0,0,VALID,0,0,0,0,0,1,0,0,0,0,0,0,0,0,0,0,0,0,0,0,171.22,515.21,2,0,0.08,0.08,125,14.29,0.08,0.06,8.08,LANDED,CF1-J,0:/Integrated Flight Computer/aircraft/cf1_j_cfg.ks (inferred preloaded)
8.52,TAKEOFF,TO_GROUND_ROLL,10.9,80,69.1,3.62,-0.06,-0.12,0.18,90.22,0.095,1,0,0,0,0,0,0,0,0,0,0,0,0,0,0,90.37,0,1,0,-0.33,0,0,0,90,0,0,0,0,0,0,0,0,0.001,0,0,3,0,0,0,69,0,0,0,90.37,1,0.001,-0.151,0.0012,0.25,1,0.0012,0,0,0,0,0,0,1,1,0,0,VALID,0,0,0,0,0,1,0,0,0,0,0,0,0,0,0,0,0,0,0,0,176.86,514.92,2,0,0.08,0.08,129,14.29,0.08,0.06,8.36,LANDED,CF1-J,0:/Integrated Flight Computer/aircraft/cf1_j_cfg.ks (inferred preloaded)
8.8,TAKEOFF,TO_GROUND_ROLL,11.8,80,68.2,3.62,-0.07,-0.12,0.18,90.26,0.095,1,0,0,0,0,0,0,0,0,0,0,0,0,0,0,90.37,0,1,0,-0.32,0,0,0,90,0,0,0,0,0,0,0,0,0,0,0,3,0,0,0,69,0,0,0,90.37,1,0,-0.116,0.0009,0.25,1,0.0009,0,0,0,0,0,0,1,1,0,0,VALID,0,0,0,0,0,1,0,0,0,0,0,0,0,0,0,0,0,0,0,0,182.38,514.6,2,0,0.08,0.08,133,14.29,0.08,0.06,8.64,LANDED,CF1-J,0:/Integrated Flight Computer/aircraft/cf1_j_cfg.ks (inferred preloaded)
9.08,TAKEOFF,TO_GROUND_ROLL,12.73,80,67.27,3.62,-0.07,-0.12,0.18,90.29,0.096,1,0,0,0,0,0,0,0,0,0,0,0,0,0,0,90.38,0,1,0,-0.32,0,0,0,90,0,0,0,0,0,0,0,0,0,0,0,3,0,0,0,69,0,0,0,90.38,1,0,-0.087,0.0006,0.25,1,0.0006,0,0,0,0,0,0,1,1,0,0,VALID,0,0,0,0,0,1,0,0,0,0,0,0,0,0,0,0,0,0,0,0,187.8,514.27,2,0,0.08,0.08,137,14.29,0.08,0.06,8.92,LANDED,CF1-J,0:/Integrated Flight Computer/aircraft/cf1_j_cfg.ks (inferred preloaded)
9.36,TAKEOFF,TO_GROUND_ROLL,13.69,80,66.31,3.62,-0.08,-0.12,0.19,90.32,0.098,1,0,0,0,0,0,0,0,0,0,0,0,0,0,0,90.38,0,1,0,-0.33,0,0,0,90,0,0,0,0,0,0,0,0,0,0,0,3,0,0,0,69,0,0,0,90.38,1,0,-0.064,0.0005,0.25,1,0.0005,0,0,0,0,0,0,1,1,0,0,VALID,0,0,0,0,0,1,0,0,0,0,0,0,0,0,0,0,0,0,0,0,193.11,513.91,2,0,0.08,0.08,141,14.29,0.08,0.06,9.2,LANDED,CF1-J,0:/Integrated Flight Computer/aircraft/cf1_j_cfg.ks (inferred preloaded)
9.64,TAKEOFF,TO_GROUND_ROLL,14.67,80,65.33,3.62,-0.08,-0.12,0.18,90.34,0.099,1,0,0,0,0,0,0,0,0,0,0,0,0,0,0,90.39,0,1,0,-0.32,0,0,0,90,0,0,0,0,0,0,0,0,-0.001,0,0,3,0,0,0,69,0,0,0,90.39,1,-0.001,-0.047,0.0003,0.25,1,0.0003,0,0,0,0,0,0,1,1,0,0,VALID,0,0,0,0,0,1,0,0,0,0,0,0,0,0,0,0,0,0,0,0,198.31,513.54,2,0,0.08,0.08,145,14.29,0.08,0.06,9.48,LANDED,CF1-J,0:/Integrated Flight Computer/aircraft/cf1_j_cfg.ks (inferred preloaded)
9.92,TAKEOFF,TO_GROUND_ROLL,15.68,80,64.32,3.62,-0.09,-0.11,0.19,90.35,0.099,1,0,0,0,0,0,0,0,0,0,0,0,0,0,0,90.39,0,1,0,-0.32,0,0,0,90,0,0,0,0,0,0,0,0,-0.002,0,0,3,0,0,0,69,0,0,0,90.39,1,-0.002,-0.034,0.0002,0.25,1,0.0002,0,0,0,0,0,0,1,1,0,0,VALID,0,0,0,0,0,1,0,0,0,0,0,0,0,0,0,0,0,0,0,0,203.42,513.16,2,0,0.08,0.08,149,14.29,0.08,0.06,9.76,LANDED,CF1-J,0:/Integrated Flight Computer/aircraft/cf1_j_cfg.ks (inferred preloaded)
10.2,TAKEOFF,TO_GROUND_ROLL,16.71,80,63.29,3.62,-0.09,-0.11,0.19,90.37,0.1,1,0,0,0,0,0,0,0,0,0,0,0,0,0,0,90.39,0,1,0,-0.32,0,0,0,90,0,0,0,0,0,0,0,0,-0.002,0,0,3,0,0,0,69,0,0,0,90.39,1,-0.002,-0.026,0.0002,0.25,1,0.0002,0,0,0,0,0,0,1,1,0,0,VALID,0,0,0,0,0,1,0,0,0,0,0,0,0,0,0,0,0,0,0,0,208.41,512.75,2,0,0.08,0.08,153,14.29,0.08,0.06,10.04,LANDED,CF1-J,0:/Integrated Flight Computer/aircraft/cf1_j_cfg.ks (inferred preloaded)
10.48,TAKEOFF,TO_GROUND_ROLL,17.77,80,62.23,3.62,-0.1,-0.11,0.19,90.37,0.102,1,0,0,0,0,0,0,0,0,0,0,0,0,0,0,90.39,0,1,0,-0.32,0,0,0.01,90,0,0,0,0,0,0,0,0,-0.003,0,0,3,0,0,0,69,0,0,0,90.39,1,-0.003,-0.02,0.0001,0.25,1,0.0001,0,0,0,0,0,0,1,1,0,0,VALID,0,0,0,0,0,1,0,0,0,0,0,0,0,0,0,0,0,0,0,0,213.31,512.32,2,0,0.08,0.08,157,14.29,0.08,0.06,10.32,LANDED,CF1-J,0:/Integrated Flight Computer/aircraft/cf1_j_cfg.ks (inferred preloaded)
10.76,TAKEOFF,TO_GROUND_ROLL,18.85,80,61.15,3.62,-0.1,-0.11,0.19,90.38,0.104,1,0,0,0,0,0,0,0,0,0,0,0,0,0,0,90.4,0,1,0,-0.32,0,0,0.01,90,0,0,0,0,0,0,0,0,-0.004,0,0,3,0,0,0,69,0,0,0,90.4,1,-0.004,-0.019,0.0001,0.25,1,0.0001,0,0,0,0,0,0,1,1,0,0,VALID,0,0,0,0,0,1,0,0,0,0,0,0,0,0,0,0,0,0,0,0,218.11,511.88,2,0,0.08,0.08,161,14.29,0.08,0.06,10.6,LANDED,CF1-J,0:/Integrated Flight Computer/aircraft/cf1_j_cfg.ks (inferred preloaded)
11.04,TAKEOFF,TO_GROUND_ROLL,19.96,80,60.04,3.62,-0.11,-0.11,0.19,90.38,0.105,1,0,0,0,0,0,0,0,0,0,0,0,0,0,0,90.4,0,1,0,-0.32,0,0,0.01,90,0,0,0,0,0,0,0,0,-0.004,0,0,3,0,0,0,69,0,0,0,90.4,1,-0.004,-0.019,0.0001,0.25,1,0.0001,0,0,0,0,0,0,1,1,0,0,VALID,0,0,0,0,0,1,0,0,0,0,0,0,0,0,0,0,0,0,0,0,222.8,511.41,2,0,0.08,0.08,165,14.29,0.08,0.06,10.88,LANDED,CF1-J,0:/Integrated Flight Computer/aircraft/cf1_j_cfg.ks (inferred preloaded)
11.32,TAKEOFF,TO_GROUND_ROLL,21.08,80,58.92,3.62,-0.12,-0.1,0.2,90.38,0.104,1,0,0,0,0,0,0,0,0,0,0,0,0,0,0,90.39,0,1,0,-0.32,0,0,0.01,90,0,0,0,0,0,0,0,0,-0.005,0,0,3,0,0,0,69,0,0,0,90.39,1,-0.005,-0.017,0.0001,0.262,0,0.0001,0,0,0,0,0,0,1,1,0,0,VALID,0,0,0,0,0,1,0,0,0,0,0,0,0,0,0,0,0,0,0,0,227.4,510.93,2,0,0.08,0.08,169,14.29,0.08,0.06,11.16,LANDED,CF1-J,0:/Integrated Flight Computer/aircraft/cf1_j_cfg.ks (inferred preloaded)
11.6,TAKEOFF,TO_GROUND_ROLL,22.23,80,57.77,3.63,-0.12,-0.1,0.2,90.38,0.103,1,0,0,0,0,0,0,0,0,0,0,0,0,0,0,90.39,0,1,0,-0.32,0,0,0.01,90,0,0,0,0,0,0,0,0,-0.006,0,0,3,0,0,0,69,0,0,0,90.39,1,-0.006,-0.017,0.0001,0.274,0,0.0001,0,0,0,0,0,0,1,1,0,0,VALID,0,0,0,0,0,1,0,0,0,0,0,0,0,0,0,0,0,0,0,0,231.9,510.42,2,0,0.08,0.08,173,14.29,0.08,0.06,11.44,LANDED,CF1-J,0:/Integrated Flight Computer/aircraft/cf1_j_cfg.ks (inferred preloaded)
11.88,TAKEOFF,TO_GROUND_ROLL,23.4,80,56.6,3.63,-0.13,-0.1,0.2,90.38,0.102,1,0,0,0,0,0,0,0,0,0,0,0,0,0,0,90.39,0,1,0,-0.32,0,0,0.01,90,0,0,0,0,0,0,0,0,-0.007,0,0,3,0,0,0,69,0,0,0,90.39,1,-0.007,-0.015,0.0001,0.286,0,0.0001,0,0,0,0,0,0,1,1,0,0,VALID,0,0,0,0,0,1,0,0,0,0,0,0,0,0,0,0,0,0,0,0,236.3,509.89,2,0,0.08,0.08,177,14.29,0.08,0.06,11.72,LANDED,CF1-J,0:/Integrated Flight Computer/aircraft/cf1_j_cfg.ks (inferred preloaded)
12.16,TAKEOFF,TO_GROUND_ROLL,24.6,80,55.4,3.63,-0.14,-0.1,0.2,90.38,0.104,1,0,0,0,0,0,0,0,0,0,0,0,0,0,0,90.4,0,1,0,-0.32,0,0,0.01,90,0,0,0,0,0,0,0,0,-0.008,0,0,3,0,0,0,69,0,0,0,90.4,1,-0.008,-0.02,0.0002,0.299,0,0.0002,0,0,0,0,0,0,1,1,0,0,VALID,0,0,0,0,0,1,0,0,0,0,0,0,0,0,0,0,0,0,0,0,240.6,509.35,2,0,0.08,0.08,181,14.29,0.08,0.06,12,LANDED,CF1-J,0:/Integrated Flight Computer/aircraft/cf1_j_cfg.ks (inferred preloaded)
12.44,TAKEOFF,TO_GROUND_ROLL,25.81,80,54.19,3.63,-0.14,-0.09,0.2,90.37,0.106,1,0,0,0,0,0,0,0,0,0,0,0,0,0,0,90.39,0,1,0,-0.31,0,0,0.01,90,0,0,0,0,0,0,0,0,-0.009,0,0,3,0,0,0,69,0,0,0,90.39,1,-0.009,-0.022,0.0002,0.312,0,0.0002,0,0,0,0,0,0,1,1,0,0,VALID,0,0,0,0,0,1,0,0,0,0,0,0,0,0,0,0,0,0,0,0,244.81,508.78,2,0,0.08,0.08,185,14.29,0.08,0.06,12.28,LANDED,CF1-J,0:/Integrated Flight Computer/aircraft/cf1_j_cfg.ks (inferred preloaded)
12.72,TAKEOFF,TO_GROUND_ROLL,27.04,80,52.96,3.63,-0.15,-0.09,0.2,90.37,0.107,1,0,0,0,0,0,0,0,0,0,0,0,0,0,0,90.39,0,1,0,-0.31,0,0,0.01,90,0,0,0,0,0,0,0,0,-0.01,0,0,3,0,0,0,69,0,0,0,90.39,1,-0.01,-0.018,0.0002,0.325,0,0.0002,0,0,0,0,0,0,1,1,0,0,VALID,0,0,0,0,0,1,0,0,0,0,0,0,0,0,0,0,0,0,0,0,248.92,508.19,2,0,0.08,0.08,189,14.29,0.08,0.06,12.56,LANDED,CF1-J,0:/Integrated Flight Computer/aircraft/cf1_j_cfg.ks (inferred preloaded)
13,TAKEOFF,TO_GROUND_ROLL,28.29,80,51.71,3.63,-0.15,-0.09,0.21,90.37,0.104,1,0,0,0,0,0,0,0,0,0,0,0,0,0,0,90.39,0,1,0,-0.31,0,0,0.01,90,0,0,0,0,0,0,0,0,-0.011,0,0,3,0,0,0,69,0,0,0,90.39,1,-0.011,-0.015,0.0001,0.339,0,0.0001,0,0,0,0,0,0,1,1,0,0,VALID,0,0,0,0,0,1,0,0,0,0,0,0,0,0,0,0,0,0,0,0,252.94,507.58,2,0,0.08,0.08,193,14.29,0.08,0.06,12.84,LANDED,CF1-J,0:/Integrated Flight Computer/aircraft/cf1_j_cfg.ks (inferred preloaded)
13.28,TAKEOFF,TO_GROUND_ROLL,29.56,80,50.44,3.63,-0.16,-0.09,0.21,90.37,0.101,1,0,0,0,0,0,0,0,0,0,0,0,0,0,0,90.39,0,1,0,-0.31,0,0,0.01,90,0,0,0,0,0,0,0,0,-0.012,0,0,3,0,0,0,69,0,0,0,90.39,1,-0.012,-0.019,0.0002,0.352,0,0.0002,0,0,0,0,0,0,1,1,0,0,VALID,0,0,0,0,0,1,0,0,0,0,0,0,0,0,0,0,0,0,0,0,256.87,506.95,2,0,0.08,0.08,197,14.29,0.08,0.06,13.12,LANDED,CF1-J,0:/Integrated Flight Computer/aircraft/cf1_j_cfg.ks (inferred preloaded)
13.56,TAKEOFF,TO_GROUND_ROLL,30.85,80,49.15,3.63,-0.17,-0.08,0.21,90.37,0.102,1,0,0,0,0,0,0,0,0,0,0,0,0,0,0,90.39,0,1,0,-0.31,0,0,0.01,90,0,0,0,0,0,0,0,0,-0.013,0,0,3,0,0,0,69,0,0,0,90.39,1,-0.013,-0.017,0.0002,0.366,0,0.0002,0,0,0,0,0,0,1,1,0,0,VALID,0,0,0,0,0,1,0,0,0,0,0,0,0,0,0,0,0,0,0,0,260.7,506.3,2,0,0.08,0.08,201,14.29,0.08,0.06,13.4,LANDED,CF1-J,0:/Integrated Flight Computer/aircraft/cf1_j_cfg.ks (inferred preloaded)
13.84,TAKEOFF,TO_GROUND_ROLL,32.16,80,47.84,3.63,-0.17,-0.08,0.21,90.37,0.104,1,0,0,0,0,0,0,0,0,0,0,0,0,0,0,90.39,0,1,0,-0.31,0,0,0.01,90,0,0,0,0,0,0,0,0,-0.015,0,0,3,0,0,0,69,0,0,0,90.39,1,-0.015,-0.015,0.0002,0.38,0,0.0002,0,0,0,0,0,0,1,1,0,0,VALID,0,0,0,0,0,1,0,0,0,0,0,0,0,0,0,0,0,0,0,0,264.45,505.63,2,0,0.08,0.08,205,14.29,0.08,0.06,13.68,LANDED,CF1-J,0:/Integrated Flight Computer/aircraft/cf1_j_cfg.ks (inferred preloaded)
14.12,TAKEOFF,TO_GROUND_ROLL,33.48,80,46.52,3.63,-0.18,-0.08,0.21,90.37,0.104,1,0,0,0,0,0,0,0,0,0,0,0,0,0,0,90.39,0,1,0,-0.31,0,0,0.01,90,0,0,0,0,0,0,0,0,-0.016,0,0,3,0,0,0,69,0,0,0,90.39,1,-0.016,-0.019,0.0002,0.394,0,0.0002,0,0,0,0,0,0,1,1,0,0,VALID,0,0,0,0,0,1,0,0,0,0,0,0,0,0,0,0,0,0,0,0,268.1,504.94,2,0,0.08,0.08,209,14.29,0.08,0.06,13.96,LANDED,CF1-J,0:/Integrated Flight Computer/aircraft/cf1_j_cfg.ks (inferred preloaded)
14.4,TAKEOFF,TO_GROUND_ROLL,34.82,80,45.18,3.63,-0.19,-0.08,0.21,90.36,0.105,1,0,0,0,0,0,0,0,0,0,0,0,0,0,0,90.39,0,1,0,-0.31,0,0,0.02,90,0,0,0,0,0,0,0,0,-0.017,0,0,3,0,0,0,69,0,0,0,90.39,1,-0.017,-0.021,0.0002,0.409,0,0.0002,0,0,0,0,0,0,1,1,0,0,VALID,0,0,0,0,0,1,0,0,0,0,0,0,0,0,0,0,0,0,0,0,271.67,504.22,2,0,0.08,0.08,213,14.29,0.08,0.06,14.24,LANDED,CF1-J,0:/Integrated Flight Computer/aircraft/cf1_j_cfg.ks (inferred preloaded)
14.68,TAKEOFF,TO_GROUND_ROLL,36.18,80,43.82,3.63,-0.19,-0.08,0.21,90.36,0.105,1,0,0,0,0,0,0,0,0,0,0,0,0,0,0,90.38,0,1,0,-0.3,0,0,0.02,90,0,0,0,0,0,0,0,0,-0.019,0,0,3,0,0,0,69,0,0,0,90.38,1,-0.019,-0.022,0.0002,0.423,0,0.0002,0,0,0,0,0,0,1,1,0,0,VALID,0,0,0,0,0,1,0,0,0,0,0,0,0,0,0,0,0,0,0,0,275.15,503.49,2,0,0.08,0.08,217,14.29,0.08,0.06,14.52,LANDED,CF1-J,0:/Integrated Flight Computer/aircraft/cf1_j_cfg.ks (inferred preloaded)
14.96,TAKEOFF,TO_GROUND_ROLL,37.55,80,42.45,3.63,-0.2,-0.07,0.21,90.36,0.104,1,0,0,0,0,0,0,0,0,0,0,0,0,0,0,90.38,0,1,0,-0.3,0,0,0.02,90,0,0,0,0,0,0,0,0,-0.02,0,0,3,0,0,0,69,0,0,0,90.38,1,-0.02,-0.019,0.0002,0.438,0,0.0002,0,0,0,0,0,0,1,1,0,0,VALID,0,0,0,0,0,1,0,0,0,0,0,0,0,0,0,0,0,0,0,0,278.54,502.74,2,0,0.08,0.08,221,14.29,0.08,0.06,14.8,LANDED,CF1-J,0:/Integrated Flight Computer/aircraft/cf1_j_cfg.ks (inferred preloaded)
15.24,TAKEOFF,TO_GROUND_ROLL,38.94,80,41.06,3.63,-0.21,-0.07,0.22,90.36,0.102,1,0,0,0,0,0,0,0,0,0,0,0,0,0,0,90.38,0,1,0,-0.3,0,0,0.02,90,0,0,0,0,0,0,0,0,-0.021,0,0,3,0,0,0,69,0,0,0,90.38,1,-0.021,-0.017,0.0002,0.453,0,0.0002,0,0,0,0,0,0,1,1,0,0,VALID,0,0,0,0,0,1,0,0,0,0,0,0,0,0,0,0,0,0,0,0,281.84,501.96,2,0,0.08,0.08,225,14.29,0.08,0.06,15.08,LANDED,CF1-J,0:/Integrated Flight Computer/aircraft/cf1_j_cfg.ks (inferred preloaded)
15.52,TAKEOFF,TO_GROUND_ROLL,40.34,80,39.66,3.63,-0.21,-0.07,0.22,90.36,0.099,1,0,0,0,0,0,0,0,0,0,0,0,0,0,0,90.38,0,1,0,-0.3,0,0,0.02,90,0,0,0,0,0,0,0,0,-0.023,0,0,3,0,0,0,69,0,0,0,90.38,1,-0.023,-0.013,0.0002,0.468,0,0.0002,0,0,0,0,0,0,1,1,0,0,VALID,0,0,0,0,0,1,0,0,0,0,0,0,0,0,0,0,0,0,0,0,285.06,501.17,2,0,0.08,0.08,229,14.29,0.08,0.06,15.36,LANDED,CF1-J,0:/Integrated Flight Computer/aircraft/cf1_j_cfg.ks (inferred preloaded)
15.8,TAKEOFF,TO_GROUND_ROLL,41.76,80,38.24,3.63,-0.22,-0.07,0.22,90.37,0.098,1,0,0,0,0,0,0,0,0,0,0,0,0,0,0,90.37,0,1,0,-0.3,0,0,0.02,90,0,0,0,0,0,0,0,0,-0.024,0,0,3,0,0,0,69,0,0,0,90.37,1,-0.024,-0.008,0.0001,0.483,0,0.0001,0,0,0,0,0,0,1,1,0,0,VALID,0,0,0,0,0,1,0,0,0,0,0,0,0,0,0,0,0,0,0,0,288.19,500.35,2,0,0.08,0.08,233,14.29,0.08,0.06,15.64,LANDED,CF1-J,0:/Integrated Flight Computer/aircraft/cf1_j_cfg.ks (inferred preloaded)
16.08,TAKEOFF,TO_GROUND_ROLL,43.19,80,36.81,3.63,-0.22,-0.06,0.22,90.37,0.099,1,0,0,0,0,0,0,0,0,0,0,0,0,0,0,90.37,0,1,0,-0.3,0,0,0.02,90,0,0,0,0,0,0,0,0,-0.026,0,0,3,0,0,0,69,0,0,0,90.37,1,-0.026,-0.007,0.0001,0.498,0,0.0001,0,0,0,0,0,0,1,1,0,0,VALID,0,0,0,0,0,1,0,0,0,0,0,0,0,0,0,0,0,0,0,0,291.25,499.52,2,0,0.08,0.08,237,14.29,0.08,0.06,15.92,LANDED,CF1-J,0:/Integrated Flight Computer/aircraft/cf1_j_cfg.ks (inferred preloaded)
16.36,TAKEOFF,TO_GROUND_ROLL,44.63,80,35.37,3.63,-0.23,-0.06,0.22,90.37,0.102,1,0,0,0,0,0,0,0,0,0,0,0,0,0,0,90.37,0,1,0,-0.3,0,0,0.02,90,0,0,0,0,0,0,0,0,-0.028,0,0,3,0,0,0,69,0,0,0,90.37,1,-0.028,-0.009,0.0001,0.514,0,0.0001,0,0,0,0,0,0,1,1,0,0,VALID,0,0,0,0,0,1,0,0,0,0,0,0,0,0,0,0,0,0,0,0,294.22,498.67,2,0,0.08,0.08,241,14.29,0.08,0.06,16.2,LANDED,CF1-J,0:/Integrated Flight Computer/aircraft/cf1_j_cfg.ks (inferred preloaded)
16.64,TAKEOFF,TO_GROUND_ROLL,46.09,80,33.91,3.63,-0.24,-0.06,0.22,90.36,0.104,1,0,0,0,0,0,0,0,0,0,0,0,0,0,0,90.37,0,1,0,-0.3,0,0,0.02,90,0,0,0,0,0,0,0,0,-0.029,0,0,3,0,0,0,69,0,0,0,90.37,1,-0.029,-0.009,0.0001,0.53,0,0.0001,0,0,0,0,0,0,1,1,0,0,VALID,0,0,0,0,0,1,0,0,0,0,0,0,0,0,0,0,0,0,0,0,297.11,497.8,2,0,0.08,0.08,245,14.29,0.08,0.06,16.48,LANDED,CF1-J,0:/Integrated Flight Computer/aircraft/cf1_j_cfg.ks (inferred preloaded)
16.92,TAKEOFF,TO_GROUND_ROLL,47.56,80,32.44,3.63,-0.24,-0.06,0.22,90.36,0.104,1,0,0,0,0,0,0,0,0,0,0,0,0,0,0,90.37,0,1,0,-0.29,0,0,0.03,90,0,0,0,0,0,0,0,0,-0.031,0,0,3,0,0,0,69,0,0,0,90.37,1,-0.031,-0.007,0.0001,0.545,0,0.0001,0,0,0,0,0,0,1,1,0,0,VALID,0,0,0,0,0,1,0,0,0,0,0,0,0,0,0,0,0,0,0,0,299.92,496.91,2,0,0.08,0.08,249,14.29,0.08,0.06,16.76,LANDED,CF1-J,0:/Integrated Flight Computer/aircraft/cf1_j_cfg.ks (inferred preloaded)
17.2,TAKEOFF,TO_GROUND_ROLL,49.04,80,30.96,3.64,-0.25,-0.05,0.23,90.36,0.102,1,0,0,0,0,0,0,0,0,0,0,0,0,0,0,90.37,0,1,0,-0.29,0,0,0.03,90,0,0,0,0,0,0,0,0,-0.033,0,0,3,0,0,0,69,0,0,0,90.37,1,-0.033,-0.005,0.0001,0.561,0,0.0001,0,0,0,0,0,0,1,1,0,0,VALID,0,0,0,0,0,1,0,0,0,0,0,0,0,0,0,0,0,0,0,0,302.65,496,2,0,0.08,0.08,253,14.29,0.08,0.06,17.04,LANDED,CF1-J,0:/Integrated Flight Computer/aircraft/cf1_j_cfg.ks (inferred preloaded)
17.48,TAKEOFF,TO_GROUND_ROLL,50.53,80,29.47,3.64,-0.26,-0.05,0.23,90.36,0.099,1,0,0,0,0,0,0,0,0,0,0,0,0,0,0,90.36,0,1,0,-0.29,0,0,0.03,90,0,0,0,0,0,0,0,0,-0.035,0,0,3,0,0,0,69,0,0,0,90.36,1,-0.035,-0.003,0,0.577,0,0,0,0,0,0,0,0,1,1,0,0,VALID,0,0,0,0,0,1,0,0,0,0,0,0,0,0,0,0,0,0,0,0,305.31,495.08,2,0,0.08,0.08,257,14.29,0.08,0.06,17.32,LANDED,CF1-J,0:/Integrated Flight Computer/aircraft/cf1_j_cfg.ks (inferred preloaded)
17.76,TAKEOFF,TO_GROUND_ROLL,52.03,80,27.97,3.64,-0.26,-0.04,0.24,90.36,0.098,1,0,0,0,0,0,0,0,0,0,0,0,0,0,0,90.36,0,1,0,-0.29,0,0,0.03,90,0,0,0,0,0,0,0,0,-0.037,0,0,3,0,0,0,69,0,0,0,90.36,1,-0.037,-0.001,0,0.593,0,0,0,0,0,0,0,0,1,1,0,0,VALID,0,0,0,0,0,1,0,0,0,0,0,0,0,0,0,0,0,0,0,0,307.88,494.13,2,0,0.08,0.08,261,14.29,0.08,0.06,17.6,LANDED,CF1-J,0:/Integrated Flight Computer/aircraft/cf1_j_cfg.ks (inferred preloaded)
18.04,TAKEOFF,TO_GROUND_ROLL,53.54,80,26.46,3.64,-0.27,0,0.26,90.36,0.099,1,0,0,0,0,0,0,0,0,0,0,0,0,0,0,90.36,0,1,0,-0.28,0,0,0.03,90,0,0,0,0,0,0,0,0,-0.039,0,0,3,0,0,0,69,0,0,0,90.36,1,-0.039,0.001,0,0.609,0,0,0,0,0,0,0,0,1,1,0,0,VALID,0,0,0,0,0,1,0,0,0,0,0,0,0,0,0,0,0,0,0,0,310.39,493.18,2,0,0.08,0.08,265,14.29,0.08,0.06,17.88,LANDED,CF1-J,0:/Integrated Flight Computer/aircraft/cf1_j_cfg.ks (inferred preloaded)
18.32,TAKEOFF,TO_GROUND_ROLL,55.06,80,24.94,3.65,-0.27,0.05,0.31,90.36,0.1,1,0,0,0,0,0,0,0,0,0,0,0,0,0,0,90.36,0,1,0,-0.28,0,0,0.03,90,0,0,0,0,0,0,0,0,-0.041,0,0,3,0,0,0,69,0,0,0,90.36,1,-0.041,0.003,-0.0001,0.626,0,-0.0001,0,0,0,0,0,0,1,1,0,0,VALID,0,0,0,0,0,1,0,0,0,0,0,0,0,0,0,0,0,0,0,0,312.82,492.2,2,0,0.08,0.08,269,14.29,0.08,0.06,18.16,LANDED,CF1-J,0:/Integrated Flight Computer/aircraft/cf1_j_cfg.ks (inferred preloaded)
18.6,TAKEOFF,TO_GROUND_ROLL,56.59,80,23.41,3.68,-0.18,0.11,0.27,90.36,0.1,1,0,0,0,0,0,0,0,0,0,0,0,0,0,0,90.36,0,1,0,-0.18,0,0,0.03,90,0,0,0,0,0,0,0,0,-0.043,0,0,3,0,0,0,69,0,0,0,90.36,1,-0.043,0.005,-0.0001,0.642,0,-0.0001,0,0,0,0,0,0,1,1,0,0,VALID,0,0,0,0,0,1,0,0,0,0,0,0,0,0,0,0,0,0,0,0,315.18,491.21,2,0,0.08,0.08,273,14.29,0.08,0.06,18.44,LANDED,CF1-J,0:/Integrated Flight Computer/aircraft/cf1_j_cfg.ks (inferred preloaded)
18.88,TAKEOFF,TO_GROUND_ROLL,58.13,80,21.87,3.69,-0.29,0.22,0.5,90.36,0.099,1,0,0,0,0,0,0,0,0,0,0,0,0,0,0,90.35,0,1,0,-0.29,0,0,0.04,90,0,0,0,0,0,0,0,0,-0.045,0,0,3,0,0,0,69,0,0,0,90.35,1,-0.045,0.007,-0.0001,0.659,0,-0.0001,0,0,0,0,0,0,1,1,0,0,VALID,0,0,0,0,0,1,0,0,0,0,0,0,0,0,0,0,0,0,0,0,317.46,490.21,2,0,0.08,0.08,277,14.29,0.08,0.06,18.72,LANDED,CF1-J,0:/Integrated Flight Computer/aircraft/cf1_j_cfg.ks (inferred preloaded)
19.16,TAKEOFF,TO_GROUND_ROLL,59.67,80,20.33,3.72,-0.29,0.34,0.6,90.36,0.098,1,0,0,0,0,0,0,0,0,0,0,0,0,0,0,90.35,0,1,0,-0.28,0,0,0.04,90,0,0,0,0,0,0,0,0,-0.047,0,0,3,0,0,0,69,0,0,0,90.35,1,-0.047,0.008,-0.0001,0.675,0,-0.0001,0,0,0,0,0,0,1,1,0,0,VALID,0,0,0,0,0,1,0,0,0,0,0,0,0,0,0,0,0,0,0,0,319.68,489.19,2,0,0.08,0.08,281,14.29,0.08,0.06,19,LANDED,CF1-J,0:/Integrated Flight Computer/aircraft/cf1_j_cfg.ks (inferred preloaded)
19.44,TAKEOFF,TO_GROUND_ROLL,61.22,80,18.78,3.73,-0.29,0.44,0.69,90.36,0.098,1,0,0,0,0,0,0,0,0,0,0,0,0,0,0,90.35,0,1,0,-0.27,0,0,0.04,90,0,0,0,0,0,0,0,0,-0.05,0,0,3,0,0,0,69,0,0,0,90.35,1,-0.05,0.008,-0.0001,0.692,0,-0.0001,0,0,0,0,0,0,1,1,0,0,VALID,0,0,0,0,0,1,0,0,0,0,0,0,0,0,0,0,0,0,0,0,321.83,488.16,2,0,0.08,0.08,285,14.29,0.08,0.06,19.28,LANDED,CF1-J,0:/Integrated Flight Computer/aircraft/cf1_j_cfg.ks (inferred preloaded)
19.72,TAKEOFF,TO_GROUND_ROLL,62.78,80,17.22,3.75,-0.3,0.51,0.76,90.36,0.099,1,0,0,0,0,0,0,0,0,0,0,0,0,0,0,90.35,0,1,0,-0.27,0,0,0.04,90,0,0,0,0,0,0,0,0,-0.052,0,0,3,0,0,0,69,0,0,0,90.35,1,-0.052,0.007,-0.0001,0.708,0,-0.0001,0,0,0,0,0,0,1,1,0,0,VALID,0,0,0,0,0,1,0,0,0,0,0,0,0,0,0,0,0,0,0,0,323.91,487.12,2,0,0.08,0.08,289,14.29,0.08,0.06,19.56,LANDED,CF1-J,0:/Integrated Flight Computer/aircraft/cf1_j_cfg.ks (inferred preloaded)
20,TAKEOFF,TO_GROUND_ROLL,64.34,80,15.66,3.75,-0.31,0.55,0.8,90.35,0.1,1,0,0,0,0,0,0,0,0,0,0,0,0,0,0,90.35,0,1,0,-0.27,0,0,0.04,90,0,0,0,0,0,0,0,0,-0.054,0,0,3,0,0,0,69,0,0,0,90.35,1,-0.054,0.006,-0.0001,0.725,0,-0.0001,0,0,0,0,0,0,1,1,0,0,VALID,0,0,0,0,0,1,0,0,0,0,0,0,0,0,0,0,0,0,0,0,325.93,486.07,2,0,0.08,0.08,293,14.29,0.08,0.06,19.84,LANDED,CF1-J,0:/Integrated Flight Computer/aircraft/cf1_j_cfg.ks (inferred preloaded)
20.28,TAKEOFF,TO_GROUND_ROLL,65.91,80,14.09,3.76,-0.31,0.58,0.83,90.35,0.099,1,0,0,0,0,0,0,0,0,0,0,0,0,0,0,90.35,0,1,0,-0.27,0,0,0.05,90,0,0,0,0,0,0,0,0,-0.057,0,0,3,0,0,0,69,0,0,0,90.35,1,-0.057,0.005,-0.0001,0.742,0,-0.0001,0,0,0,0,0,0,1,1,0,0,VALID,0,0,0,0,0,1,0,0,0,0,0,0,0,0,0,0,0,0,0,0,327.88,485,2,0,0.08,0.08,297,14.29,0.08,0.06,20.12,LANDED,CF1-J,0:/Integrated Flight Computer/aircraft/cf1_j_cfg.ks (inferred preloaded)
20.56,TAKEOFF,TO_GROUND_ROLL,67.48,80,12.52,3.77,-0.31,0.61,0.87,90.35,0.099,1,0,0,0,0,0,0,0,0,0,0,0,0,0,0,90.34,0,1,0,-0.27,0,0,0.05,90,0,0,0,0,0,0,0,0,-0.059,0,0,3,0,0,0,69,0,0,0,90.34,1,-0.059,0.005,-0.0001,0.759,0,-0.0001,0,0,0,0,0,0,1,1,0,0,VALID,0,0,0,0,0,1,0,0,0,0,0,0,0,0,0,0,0,0,0,0,329.77,483.93,2,0,0.08,0.08,301,14.29,0.08,0.06,20.4,LANDED,CF1-J,0:/Integrated Flight Computer/aircraft/cf1_j_cfg.ks (inferred preloaded)
20.86,TAKEOFF,TO_ROTATE,69.17,80,10.83,3.78,-0.34,0.77,1.11,90.34,0.096,1,0,0,0,0,0,0,0,0,0,0,0,0,0,0,90.34,1.102,1,0,-0.35,0,0,0.05,90,0,0,0,0,0,0,0,0,-0.061,0,0,3,0,0,0,69,0,0,0,90.34,1,-0.061,0.004,-0.0001,0.776,0,-0.0001,0,0.12,1.102,0.329,0.08,0,1,1,0,0,VALID,0,0,0,0,0,1,0,0,0,0,0,0,0,0,0,0,0,0,0,0,331.73,482.77,2,0,0.08,0.08,305,13.33,0.08,0.06,20.68,LANDED,CF1-J,0:/Integrated Flight Computer/aircraft/cf1_j_cfg.ks (inferred preloaded)
21.14,TAKEOFF,TO_ROTATE,70.75,80,9.25,3.81,-0.4,0.84,1.14,90.34,0.096,1,0,0,0,0,0,0,0,0,0,0,0,0,0,0,90.34,1.942,1,0,-0.31,0,0,0.05,90,0,0,0,0,0,0,0,0,-0.064,0,0,3,0,0,0,69,0,0,0,90.34,1,-0.064,0.004,-0.0001,0.793,0,-0.0001,0,0.1682,1.942,1.103,0.08,0,1,1,0,0,VALID,0,0,0,0,0,1,0,0,0,0,0,0,0,0,0,0,0,0,0,0,333.49,481.68,2,0,0.08,0.08,309,14.29,0.08,0.06,20.96,LANDED,CF1-J,0:/Integrated Flight Computer/aircraft/cf1_j_cfg.ks (inferred preloaded)
21.42,TAKEOFF,TO_ROTATE,72.33,80,7.67,3.84,-0.28,1,1.21,90.34,0.096,1,0,0,0,0,0,0,0,0,0,0,0,0,0,0,90.33,2.782,1,0,-0.22,0,0,0.05,90,0,0,0,0,0,0,0,0,-0.067,0,0,3,0,0,0,69,0,0,0,90.33,1,-0.067,0.006,-0.0001,0.809,0,-0.0001,0,0.2226,2.782,1.782,0.08,0,1,1,0,0,VALID,0,0,0,0,0,1,0,0,0,0,0,0,0,0,0,0,0,0,0,0,335.2,480.59,2,0,0.08,0.08,313,14.29,0.08,0.06,21.24,LANDED,CF1-J,0:/Integrated Flight Computer/aircraft/cf1_j_cfg.ks (inferred preloaded)
21.72,TAKEOFF,TO_ROTATE,74.02,80,5.98,3.89,-0.32,1.26,1.5,90.34,0.092,1,0,0,0,0,0,0,0,0,0,0,0,0,0,0,90.33,3.682,1,0,-0.25,0,0,0.06,90,0,0,0,0,0,0,0,0,-0.069,0,0,3,0,0,0,69,0,0,0,90.33,1,-0.069,0.008,-0.0002,0.828,0,-0.0002,0,0.2741,3.682,2.426,0.08,0,1,1,0,0,VALID,0,0,0,0,0,1,0,0,0,0,0,0,0,0,0,0,0,0,0,0,336.96,479.4,2,0,0.08,0.08,317,13.33,0.08,0.06,21.54,LANDED,CF1-J,0:/Integrated Flight Computer/aircraft/cf1_j_cfg.ks (inferred preloaded)
22,TAKEOFF,TO_ROTATE,75.59,80,4.41,3.95,-0.28,1.57,1.77,90.34,0.086,1,0,0,0,0,0,0,0,0,0,0,0,0,0,0,90.33,4.522,1,0,-0.21,0,0,0.06,90,0,0,0,0,0,0,0,0,-0.072,0,0,3,0,0,0,69,0,0,0,90.33,1,-0.072,0.013,-0.0003,0.844,0,-0.0003,0,0.3165,4.522,2.957,0.08,0,1,1,0,0,VALID,0,0,0,0,0,1,0,0,0,0,0,0,0,0,0,0,0,0,0,0,338.56,478.3,2,0,0.08,0.08,321,14.29,0.08,0.06,21.82,LANDED,CF1-J,0:/Integrated Flight Computer/aircraft/cf1_j_cfg.ks (inferred preloaded)
22.28,TAKEOFF,TO_ROTATE,77.16,80,2.84,4.07,-0.23,1.99,2.12,90.34,0.079,1,0,0,0,0,0,0,0,0,0,0,0,0,0,0,90.32,5.362,1,0,-0.13,0,0,0.06,90,0,0,0,0,0,0,0,0,-0.075,0,0,3,0,0,0,69,0,0,0,90.32,1,-0.075,0.02,-0.0005,0.861,0,-0.0005,0,0.3497,5.362,3.371,0.08,0,1,1,0,0,VALID,0,0,0,0,0,1,0,0,0,0,0,0,0,0,0,0,0,0,0,0,340.1,477.2,2,0,0.08,0.08,325,14.29,0.08,0.06,22.1,LANDED,CF1-J,0:/Integrated Flight Computer/aircraft/cf1_j_cfg.ks (inferred preloaded)
22.56,TAKEOFF,TO_ROTATE,78.71,80,1.29,4.22,-0.16,2.81,2.94,90.35,0.081,1,0,0,0,0,0,0,0,0,0,0,0,0,0,0,90.32,6.202,1,0,-0.14,0,0,0.06,90,0,0,0,0,0,0,0,0,-0.077,0,0,3,0,0,0,69,0,0,0,90.32,1,-0.077,0.027,-0.0006,0.878,0,-0.0006,0,0.3512,6.202,3.39,0.08,0,1,1,0,0,VALID,0,0,0,0,0,1,0,0,0,0,0,0,0,0,0,0,0,0,0,0,341.6,476.1,2,0,0.08,0.08,329,14.29,0.08,0.06,22.38,LANDED,CF1-J,0:/Integrated Flight Computer/aircraft/cf1_j_cfg.ks (inferred preloaded)
22.84,TAKEOFF,TO_ROTATE,80.22,80,-0.22,4.43,-0.27,3.83,4.02,90.35,0.08,1,0,0,0,0,0,0,0,0,0,0,0,0,0,0,90.32,7.042,1,0,-0.19,0,0,0.06,90,0,0,0,0,0,0,0,0,-0.08,0,0,3,0,0,0,69,0,0,0,90.32,1,-0.08,0.034,-0.0008,0.894,0,-0.0008,0,0.3366,7.042,3.208,0.08,0,1,1,0,0,VALID,0,0,0,0,0,1,0,0,0,0,0,0,0,0,0,0,0,0,0,0,343.07,475.03,2,0,0.08,0.08,333,14.29,0.08,0.06,22.66,LANDED,CF1-J,0:/Integrated Flight Computer/aircraft/cf1_j_cfg.ks (inferred preloaded)
23.12,TAKEOFF,TO_ROTATE,81.68,80,-1.68,4.67,-0.13,5.06,5.15,90.36,0.074,1,0,0,0,0,0,0,0,0,0,0,0,0,0,0,90.31,7.882,1,0,-0.1,0,0,0.07,90,0,0,0,0,0,0,0,0,-0.083,0,0,3,0,0,0,69,0,0,0,90.31,1,-0.083,0.041,-0.001,0.91,0,-0.001,0,0.3059,7.882,2.824,0.08,0,1,1,0,0,VALID,0,0,0,0,0,1,0,0,0,0,0,0,0,0,0,0,0,0,0,0,344.51,473.99,2,0,0.08,0.08,337,14.29,0.08,0.06,22.94,LANDED,CF1-J,0:/Integrated Flight Computer/aircraft/cf1_j_cfg.ks (inferred preloaded)
23.38,TAKEOFF,TO_ROTATE,82.97,80,-2.97,4.94,0.27,6.19,5.98,90.35,0.034,1,0,0,0,0,0,0,0,0,0,0,0,0,0,0,90.4,8.722,0,1,0.18,0,0,8.48,90.4,0.1862,-0.0068,0.9825,8.72,90.4,0,0,0,0,0,0,3,0,0,0,69,0,0,0,90.4,1,0,-0.045,0,0,3,0,0,0,8.722,2.533,0,0,1,1,0,0,VALID,0,0,0,0,0,1,0,0,0,0,0,0,0,0,0,0,0,0,0,0,345.84,473.07,2,0,0.08,0.08,341,15.38,0.08,0.06,23.2,FLYING,CF1-J,0:/Integrated Flight Computer/aircraft/cf1_j_cfg.ks (inferred preloaded)
23.66,TAKEOFF,TO_ROTATE,84.29,80,-4.29,5.29,0.97,6.62,6,90.36,0.035,1,0,0,0,0,0,0,0,0,0,0,0,0,0,0,90.4,9.562,0,1,0.66,0,0,9.32,90.4,0.2005,-0.0068,0.9797,9.56,90.4,0,0,0,0,0,0,3,0,0,0,69,0,0,0,90.4,1,0,-0.044,0,0,3,0,0,0,9.562,2.939,0,0,1,1,0,0,VALID,0,0,0,0,0,1,0,0,0,0,0,0,0,0,0,0,0,0,0,0,347.26,472.11,2,0,0.08,0.08,345,14.29,0.08,0.06,23.48,FLYING,CF1-J,0:/Integrated Flight Computer/aircraft/cf1_j_cfg.ks (inferred preloaded)
23.94,TAKEOFF,TO_ROTATE,85.59,80,-5.59,5.82,1.69,6.9,5.83,90.36,0.036,1,0,0,0,0,0,0,0,0,0,0,0,0,0,0,90.4,10,0,1,1.13,0,0,10,90.4,0.208,-0.0067,0.9781,10,90.4,0,0,0,0,0,0,3,0,0,0,69,0,0,0,90.4,1,0,-0.044,0,0,3,0,0,0,10,3.103,0,0,1,1,0,0,VALID,0,0,0,0,0,1,0,0,0,0,0,0,0,0,0,0,0,0,0,0,348.63,471.15,2,0,0.08,0.08,349,14.29,0.08,0.06,23.76,FLYING,CF1-J,0:/Integrated Flight Computer/aircraft/cf1_j_cfg.ks (inferred preloaded)
24.22,TAKEOFF,TO_CLIMB,86.88,80,-6.88,6.53,2.43,7.06,5.54,90.36,0.037,0.944,0,0,0,0,0,0,0,0,0,0,0,0,0,0,90.4,7.212,0,1,1.6,0,0,7.09,90.4,0.1601,-0.0068,0.9871,7.21,90.4,0,0,0,0,0,0,3,0,0,0,69,0,0,0,90.4,1,0,-0.043,0,0,3,0,0,0,10,3.012,0,0,1,1,0,0,VALID,0,0,0,0,0,1,0,0,0,0,0,0,0,0,0,0,0,0,0,0,349.93,470.19,2,0,0.08,0.08,353,14.29,0.08,0.06,24.04,FLYING,CF1-J,0:/Integrated Flight Computer/aircraft/cf1_j_cfg.ks (inferred preloaded)
24.5,TAKEOFF,TO_CLIMB,88.16,80,-8.16,7.45,3.19,7.24,5.28,90.36,0.037,0.8684,0,0,0,0,0,0,0,0,0,0,0,0,0,0,90.4,7.66,0,1,2.08,0,0,7.53,90.4,0.1678,-0.0068,0.9858,7.66,90.4,0,0,0,0,0,0,3,0,0,0,69,0,0,0,90.4,1,0,-0.043,0,0,3,0,0,0,10,3.012,0,0,1,1,0,0,VALID,0,0,0,0,0,1,0,0,0,0,0,0,0,0,0,0,0,0,0,0,350.58,469.22,2,0,0.08,0.08,357,14.29,0.08,0.06,24.32,FLYING,CF1-J,0:/Integrated Flight Computer/aircraft/cf1_j_cfg.ks (inferred preloaded)
24.78,TAKEOFF,TO_CLIMB,89.42,80,-9.42,8.49,3.93,6.78,4.42,90.36,0.038,0.8558,0,0,0,0,0,0,0,0,0,0,0,0,0,0,90.4,8,0,1,2.51,0,0,7.98,90.4,0.1736,-0.0068,0.9848,8,90.4,0,0,0,0,0,0,3,0,0,0,69,0,0,0,90.4,1,0,-0.043,0,0,3,0,0,0,10,3.012,0,0,1,1,0,0,VALID,0,0,0,0,0,1,0,0,0,0,0,0,0,0,0,0,0,0,0,0,350.78,468.24,2,0,0.08,0.08,361,14.29,0.08,0.06,24.6,FLYING,CF1-J,0:/Integrated Flight Computer/aircraft/cf1_j_cfg.ks (inferred preloaded)
25.06,TAKEOFF,TO_CLIMB,90.72,80,-10.72,9.71,4.33,6.48,3.87,90.36,0.039,0.8428,0,0,0,0,0,0,0,0,0,0,0,0,0,0,90.4,8,0,1,2.73,0,0,8,90.4,0.1735,-0.0068,0.9848,8,90.4,0,0,0,0,0,0,3,0,0,0,69,0,0,0,90.4,1,0,-0.043,0,0,3,0,0,0,10,3.012,0,0,1,1,0,0,VALID,0,0,0,0,0,1,0,0,0,0,0,0,0,0,0,0,0,0,0,0,350.84,467.24,2,0,0.08,0.08,365,14.29,0.08,0.06,24.88,FLYING,CF1-J,0:/Integrated Flight Computer/aircraft/cf1_j_cfg.ks (inferred preloaded)
25.34,TAKEOFF,TO_CLIMB,92.03,80,-12.03,11.08,4.77,6.44,3.6,90.36,0.04,0.8297,0,0,0,0,0,0,0,0,0,0,0,0,0,0,90.4,8,0,1,2.97,0,0,8,90.4,0.1735,-0.0068,0.9848,8,90.4,0,0,0,0,0,0,3,0,0,0,69,0,0,0,90.4,1,0,-0.042,0,0,3,0,0,0,10,3.012,0,0,1,1,0,0,VALID,0,0,0,0,0,1,0,0,0,0,0,0,0,0,0,0,0,0,0,0,350.76,466.21,2,0,0.08,0.08,369,14.29,0.08,0.06,25.16,FLYING,CF1-J,0:/Integrated Flight Computer/aircraft/cf1_j_cfg.ks (inferred preloaded)
25.62,TAKEOFF,TO_CLIMB,93.33,80,-13.33,12.57,5.17,6.38,3.34,90.36,0.041,0.8167,0,0,0,0,0,0,0,0,0,0,0,0,0,0,90.4,8,0,1,3.17,0,0,8,90.4,0.1734,-0.0068,0.9848,8,90.4,0,0,0,0,0,0,3,0,0,0,69,0,0,0,90.4,1,0,-0.041,0,0,3,0,0,0,10,3.012,0,0,1,1,0,0,VALID,0,0,0,0,0,1,0,0,0,0,0,0,0,0,0,0,0,0,0,0,350.56,465.18,2,0,0.08,0.08,373,14.29,0.08,0.06,25.44,FLYING,CF1-J,0:/Integrated Flight Computer/aircraft/cf1_j_cfg.ks (inferred preloaded)
25.9,TAKEOFF,TO_CLIMB,94.63,80,-14.63,14.18,5.57,6.35,3.12,90.36,0.043,0.8037,0,0,0,0,0,0,0,0,0,0,0,0,0,0,90.4,8,0,1,3.37,0,0,8,90.4,0.1734,-0.0068,0.9848,8,90.4,0,0,0,0,0,0,3,0,0,0,69,0,0,0,90.4,1,0,-0.04,0,0,3,0,0,0,10,3.012,0,0,1,1,0,0,VALID,0,0,0,0,0,1,0,0,0,0,0,0,0,0,0,0,0,0,0,0,350.25,464.15,2,0,0.08,0.08,377,14.29,0.08,0.06,25.72,FLYING,CF1-J,0:/Integrated Flight Computer/aircraft/cf1_j_cfg.ks (inferred preloaded)
26.18,TAKEOFF,TO_CLIMB,95.92,80,-15.92,15.9,5.97,6.34,2.92,90.36,0.043,0.7908,0,0,0,0,0,0,0,0,0,0,0,0,0,0,90.4,8,0,1,3.56,0,0,8,90.4,0.1733,-0.0068,0.9848,8,90.4,0,0,0,0,0,0,3,0,0,0,69,0,0,0,90.4,1,0,-0.039,0,0,3,0,0,0,10,3.012,0,0,1,1,0,0,VALID,0,0,0,0,0,1,0,0,0,0,0,0,0,0,0,0,0,0,0,0,349.83,463.12,2,0,0.08,0.08,381,14.29,0.08,0.06,26,FLYING,CF1-J,0:/Integrated Flight Computer/aircraft/cf1_j_cfg.ks (inferred preloaded)
26.46,TAKEOFF,TO_CLIMB,97.21,80,-17.21,17.71,6.37,6.33,2.72,90.36,0.045,0.78,0,0,0,0,0,0,0,0,0,0,0,0,0,0,90.4,8,0,1,3.75,0,0,8,90.4,0.1733,-0.0068,0.9848,8,90.4,0,0,0,0,0,0,3,0,0,0,69,0,0,0,90.4,1,0,-0.039,0,0,3,0,0,0,10,3.012,0,0,1,1,0,0,VALID,0,0,0,0,0,1,0,0,0,0,0,0,0,0,0,0,0,0,0,0,349.3,462.08,2,0,0.08,0.08,385,14.29,0.08,0.06,26.28,FLYING,CF1-J,0:/Integrated Flight Computer/aircraft/cf1_j_cfg.ks (inferred preloaded)
26.74,TAKEOFF,TO_CLIMB,98.48,80,-18.48,19.66,6.77,6.31,2.53,90.36,0.046,0.78,0,0,0,0,0,0,0,0,0,0,0,0,0,0,90.4,8,0,1,3.93,0,0,8,90.4,0.1733,-0.0068,0.9849,8,90.4,0,0,0,0,0,0,3,0,0,0,69,0,0,0,90.4,1,0,-0.038,0,0,3,0,0,0,10,3.012,0,0,1,1,0,0,VALID,0,0,0,0,0,1,0,0,0,0,0,0,0,0,0,0,0,0,0,0,348.71,461.05,2,0,0.08,0.08,389,14.29,0.08,0.06,26.56,FLYING,CF1-J,0:/Integrated Flight Computer/aircraft/cf1_j_cfg.ks (inferred preloaded)
27.02,TAKEOFF,TO_CLIMB,99.75,80,-19.75,21.71,7.16,6.3,2.34,90.36,0.047,0.78,0,0,0,0,0,0,0,0,0,0,0,0,0,0,90.4,8,0,1,4.11,0,0,8,90.4,0.1732,-0.0068,0.9849,8,90.4,0,0,0,0,0,0,3,0,0,0,69,0,0,0,90.4,1,0,-0.038,0,0,3,0,0,0,10,3.012,0,0,1,1,0,0,VALID,0,0,0,0,0,1,0,0,0,0,0,0,0,0,0,0,0,0,0,0,348.11,460.02,2,0,0.08,0.08,393,14.29,0.08,0.06,26.84,FLYING,CF1-J,0:/Integrated Flight Computer/aircraft/cf1_j_cfg.ks (inferred preloaded)
27.3,TAKEOFF,TO_CLIMB,101.01,80,-21.01,23.88,7.55,6.29,2.17,90.36,0.048,0.78,0,0,0,0,0,0,0,0,0,0,0,0,0,0,90.4,8,0,1,4.27,0,0,8,90.4,0.1732,-0.0068,0.9849,8,90.4,0,0,0,0,0,0,3,0,0,0,69,0,0,0,90.4,1,0,-0.038,0,0,3,0,0,0,10,3.012,0,0,1,1,0,0,VALID,0,0,0,0,0,1,0,0,0,0,0,0,0,0,0,0,0,0,0,0,347.5,458.98,2,0,0.08,0.08,397,14.29,0.08,0.06,27.12,FLYING,CF1-J,0:/Integrated Flight Computer/aircraft/cf1_j_cfg.ks (inferred preloaded)
27.58,TAKEOFF,TO_CLIMB,102.26,80,-22.26,26.15,7.94,6.29,2.01,90.36,0.048,0.78,0,0,0,0,0,0,0,0,0,0,0,0,0,0,90.4,8,0,1,4.44,0,0,8,90.4,0.1731,-0.0068,0.9849,8,90.4,0,0,0,0,0,0,3,0,0,0,69,0,0,0,90.4,1,0,-0.038,0,0,3,0,0,0,10,3.012,0,0,1,1,0,0,VALID,0,0,0,0,0,1,0,0,0,0,0,0,0,0,0,0,0,0,0,0,346.9,457.95,2,0,0.08,0.08,401,14.29,0.08,0.06,27.4,FLYING,CF1-J,0:/Integrated Flight Computer/aircraft/cf1_j_cfg.ks (inferred preloaded)
27.86,TAKEOFF,TO_CLIMB,103.5,80,-23.5,28.53,8.32,6.29,1.85,90.36,0.05,0.78,0,0,0,0,0,0,0,0,0,0,0,0,0,0,90.4,8,0,1,4.6,0,0,8,90.4,0.1731,-0.0068,0.9849,8,90.4,0,0,0,0,0,0,3,0,0,0,69,0,0,0,90.4,1,0,-0.038,0,0,3,0,0,0,10,3.012,0,0,1,1,0,0,VALID,0,0,0,0,0,1,0,0,0,0,0,0,0,0,0,0,0,0,0,0,346.29,456.93,2,0,0.08,0.08,405,14.29,0.08,0.06,27.68,FLYING,CF1-J,0:/Integrated Flight Computer/aircraft/cf1_j_cfg.ks (inferred preloaded)
28.14,TAKEOFF,TO_CLIMB,104.73,80,-24.73,31.02,8.71,6.29,1.7,90.36,0.051,0.78,0,0,0,0,0,0,0,0,0,0,0,0,0,0,90.4,8,0,1,4.75,0,0,8,90.4,0.173,-0.0068,0.9849,8,90.4,0,0,0,0,0,0,3,0,0,0,69,0,0,0,90.4,1,0,-0.037,0,0,3,0,0,0,10,3.012,0,0,1,1,0,0,VALID,0,0,0,0,0,1,0,0,0,0,0,0,0,0,0,0,0,0,0,0,345.68,455.9,2,0,0.08,0.08,409,14.29,0.08,0.06,27.96,FLYING,CF1-J,0:/Integrated Flight Computer/aircraft/cf1_j_cfg.ks (inferred preloaded)
28.42,TAKEOFF,TO_CLIMB,105.95,80,-25.95,33.62,9.08,6.28,1.55,90.36,0.052,0.78,0,0,0,0,0,0,0,0,0,0,0,0,0,0,90.4,8,0,1,4.9,0,0,8,90.4,0.173,-0.0068,0.9849,8,90.4,0,0,0,0,0,0,3,0,0,0,69,0,0,0,90.4,1,0,-0.036,0,0,3,0,0,0,10,3.012,0,0,1,1,0,0,VALID,0,0,0,0,0,1,0,0,0,0,0,0,0,0,0,0,0,0,0,0,345.07,454.87,2,0,0.08,0.08,413,14.29,0.08,0.06,28.24,FLYING,CF1-J,0:/Integrated Flight Computer/aircraft/cf1_j_cfg.ks (inferred preloaded)
28.7,TAKEOFF,TO_CLIMB,107.17,80,-27.17,36.32,9.46,6.29,1.41,90.36,0.053,0.78,0,0,0,0,0,0,0,0,0,0,0,0,0,0,90.4,8,0,1,5.04,0,0,8,90.4,0.1729,-0.0068,0.9849,8,90.4,0,0,0,0,0,0,3,0,0,0,69,0,0,0,90.4,1,0,-0.035,0,0,3,0,0,0,10,3.012,0,0,1,1,0,0,VALID,0,0,0,0,0,1,0,0,0,0,0,0,0,0,0,0,0,0,0,0,344.46,453.85,2,0,0.08,0.08,417,14.29,0.08,0.06,28.52,FLYING,CF1-J,0:/Integrated Flight Computer/aircraft/cf1_j_cfg.ks (inferred preloaded)
28.98,TAKEOFF,TO_CLIMB,108.37,80,-28.37,39.13,9.83,6.3,1.28,90.37,0.055,0.78,0,0,0,0,0,0,0,0,0,0,0,0,0,0,90.4,8,0,1,5.18,0,0,8,90.4,0.1729,-0.0068,0.9849,8,90.4,0,0,0,0,0,0,3,0,0,0,69,0,0,0,90.4,1,0,-0.034,0,0,3,0,0,0,10,3.012,0,0,1,1,0,0,VALID,0,0,0,0,0,1,0,0,0,0,0,0,0,0,0,0,0,0,0,0,343.84,452.83,2,0,0.08,0.08,421,14.29,0.08,0.06,28.8,FLYING,CF1-J,0:/Integrated Flight Computer/aircraft/cf1_j_cfg.ks (inferred preloaded)
29.26,TAKEOFF,TO_CLIMB,109.57,80,-29.57,42.04,10.17,6.34,1.19,90.37,0.056,0.78,0,0,0,0,0,0,0,0,0,0,0,0,0,0,90.4,8,0,1,5.3,0,0,8,90.4,0.1728,-0.0068,0.9849,8,90.4,0,0,0,0,0,0,3,0,0,0,69,0,0,0,90.4,1,0,-0.033,0,0,3,0,0,0,10,3.012,0,0,1,1,0,0,VALID,0,0,0,0,0,1,0,0,0,0,0,0,0,0,0,0,0,0,0,0,343.23,451.81,2,0,0.08,0.08,425,14.29,0.08,0.06,29.08,FLYING,CF1-J,0:/Integrated Flight Computer/aircraft/cf1_j_cfg.ks (inferred preloaded)
29.54,TAKEOFF,TO_CLIMB,110.75,80,-30.75,45.06,10.57,6.34,1.04,90.37,0.057,0.78,0,0,0,0,0,0,0,0,0,0,0,0,0,0,90.4,8,0,1,5.45,0,0,8,90.4,0.1728,-0.0068,0.9849,8,90.4,0,0,0,0,0,0,3,0,0,0,69,0,0,0,90.4,1,0,-0.032,0,0,3,0,0,0,10,3.012,0,0,1,1,0,0,VALID,0,0,0,0,0,1,0,0,0,0,0,0,0,0,0,0,0,0,0,0,342.61,450.8,2,0,0.08,0.08,429,14.29,0.08,0.06,29.36,FLYING,CF1-J,0:/Integrated Flight Computer/aircraft/cf1_j_cfg.ks (inferred preloaded)
29.82,TAKEOFF,TO_CLIMB,111.92,80,-31.92,48.22,11.08,6.64,1.18,90.37,0.058,0.78,0,0,0,0,0,0,0,0,0,0,0,0,0,0,90.4,8,0,1,5.65,0,0,8,90.4,0.1727,-0.0068,0.985,8,90.4,0,0,0,0,0,0,3,0,0,0,69,0,0,0,90.4,1,0,-0.03,0,0,3,0,0,0,10,3.012,0,0,1,1,0,0,VALID,0,0,0,0,0,1,0,0,0,0,0,0,0,0,0,0,0,0,0,0,342,449.79,2,0,0.08,0.08,433,14.29,0.08,0.06,29.64,FLYING,CF1-J,0:/Integrated Flight Computer/aircraft/cf1_j_cfg.ks (inferred preloaded)
30.1,TAKEOFF,TO_CLIMB,113.07,80,-33.07,51.47,11.45,6.52,0.9,90.37,0.059,0.78,0,0,0,0,0,0,0,0,0,0,0,0,0,0,90.4,8,0,1,5.78,0,0,8,90.4,0.1727,-0.0068,0.985,8,90.4,0,0,0,0,0,0,3,0,0,0,69,0,0,0,90.4,1,0,-0.029,0,0,3,0,0,0,10,3.012,0,0,1,1,0,0,VALID,0,0,0,0,0,1,0,0,0,0,0,0,0,0,0,0,0,0,0,0,341.39,448.8,2,0,0.08,0.08,437,14.29,0.08,0.06,29.92,FLYING,CF1-J,0:/Integrated Flight Computer/aircraft/cf1_j_cfg.ks (inferred preloaded)
30.38,TAKEOFF,TO_CLIMB,114.21,80,-34.21,54.84,11.89,6.44,0.67,90.37,0.06,0.78,0,0,0,0,0,0,0,0,0,0,0,0,0,0,90.4,8,0,1,5.94,0,0,8,90.4,0.1726,-0.0068,0.985,8,90.4,0,0,0,0,0,0,3,0,0,0,69,0,0,0,90.4,1,0,-0.028,0,0,3,0,0,0,10,3.012,0,0,1,1,0,0,VALID,0,0,0,0,0,1,0,0,0,0,0,0,0,0,0,0,0,0,0,0,340.77,447.8,2,0,0.08,0.08,441,14.29,0.08,0.06,30.2,FLYING,CF1-J,0:/Integrated Flight Computer/aircraft/cf1_j_cfg.ks (inferred preloaded)
30.66,TAKEOFF,TO_CLIMB,115.36,80,-35.36,58.31,12.22,6.41,0.55,90.37,0.061,0.78,0,0,0,0,0,0,0,0,0,0,0,0,0,0,90.4,8,0,1,6.04,0,0,8,90.4,0.1725,-0.0068,0.985,8,90.4,0,0,0,0,0,0,3,0,0,0,69,0,0,0,90.4,1,0,-0.027,0,0,3,0,0,0,10,3.012,0,0,1,1,0,0,VALID,0,0,0,0,0,1,0,0,0,0,0,0,0,0,0,0,0,0,0,0,340.15,446.8,2,0,0.08,0.08,445,14.29,0.08,0.06,30.48,FLYING,CF1-J,0:/Integrated Flight Computer/aircraft/cf1_j_cfg.ks (inferred preloaded)
30.94,TAKEOFF,TO_CLIMB,116.5,80,-36.5,61.89,12.52,6.56,0.59,90.37,0.061,0.78,0,0,0,0,0,0,0,0,0,0,0,0,0,0,90.4,8,0,1,6.13,0,0,8,90.4,0.1725,-0.0068,0.985,8,90.4,0,0,0,0,0,0,3,0,0,0,69,0,0,0,90.4,1,0,-0.025,0,0,3,0,0,0,10,3.012,0,0,1,1,0,0,VALID,0,0,0,0,0,1,0,0,0,0,0,0,0,0,0,0,0,0,0,0,339.53,445.8,2,0,0.08,0.08,449,14.29,0.08,0.06,30.76,FLYING,CF1-J,0:/Integrated Flight Computer/aircraft/cf1_j_cfg.ks (inferred preloaded)
31.22,TAKEOFF,TO_CLIMB,117.61,80,-37.61,65.55,12.93,6.56,0.44,90.38,0.062,0.78,0,0,0,0,0,0,0,0,0,0,0,0,0,0,90.4,8,0,1,6.27,0,0,8,90.4,0.1724,-0.0068,0.985,8,90.4,0,0,0,0,0,0,3,0,0,0,69,0,0,0,90.4,1,0,-0.024,0,0,3,0,0,0,10,3.012,0,0,1,1,0,0,VALID,0,0,0,0,0,1,0,0,0,0,0,0,0,0,0,0,0,0,0,0,338.92,444.81,2,0,0.08,0.08,453,14.29,0.08,0.06,31.04,FLYING,CF1-J,0:/Integrated Flight Computer/aircraft/cf1_j_cfg.ks (inferred preloaded)
31.5,TAKEOFF,TO_CLIMB,118.72,80,-38.72,69.34,13.41,6.57,0.32,90.38,0.063,0.78,0,0,0,0,0,0,0,0,0,0,0,0,0,0,90.4,8,0,1,6.45,0,0,8,90.4,0.1724,-0.0068,0.985,8,90.4,0,0,0,0,0,0,3,0,0,0,69,0,0,0,90.4,1,0,-0.022,0,0,3,0,0,0,10,3.012,0,0,1,1,0,0,VALID,0,0,0,0,0,1,0,0,0,0,0,0,0,0,0,0,0,0,0,0,338.31,443.83,2,0,0.08,0.08,457,14.29,0.08,0.06,31.32,FLYING,CF1-J,0:/Integrated Flight Computer/aircraft/cf1_j_cfg.ks (inferred preloaded)
31.78,TAKEOFF,TO_CLIMB,119.81,80,-39.81,73.23,13.71,6.52,0.17,90.38,0.064,0.78,0,0,0,0,0,0,0,0,0,0,0,0,0,0,90.4,8,0,1,6.53,0,0,8,90.4,0.1723,-0.0068,0.985,8,90.4,0,0,0,0,0,0,3,0,0,0,69,0,0,0,90.4,1,0,-0.021,0,0,3,0,0,0,10,3.012,0,0,1,1,0,0,VALID,0,0,0,0,0,1,0,0,0,0,0,0,0,0,0,0,0,0,0,0,337.69,442.85,2,0,0.08,0.08,461,14.29,0.08,0.06,31.6,FLYING,CF1-J,0:/Integrated Flight Computer/aircraft/cf1_j_cfg.ks (inferred preloaded)
32.06,TAKEOFF,TO_CLIMB,120.91,80,-40.91,77.2,14.02,6.51,0.07,90.38,0.064,0.78,0,0,0,0,0,0,0,0,0,0,0,0,0,0,90.4,8,0,1,6.62,0,0,8,90.4,0.1723,-0.0068,0.985,8,90.4,0,0,0,0,0,0,3,0,0,0,69,0,0,0,90.4,1,0,-0.019,0,0,3,0,0,0,10,3.012,0,0,1,1,0,0,VALID,0,0,0,0,0,1,0,0,0,0,0,0,0,0,0,0,0,0,0,0,337.08,441.88,2,0,0.08,0.08,465,14.29,0.08,0.06,31.88,FLYING,CF1-J,0:/Integrated Flight Computer/aircraft/cf1_j_cfg.ks (inferred preloaded)
32.34,TAKEOFF,TO_CLIMB,121.99,80,-41.99,81.29,14.35,6.68,0.15,90.38,0.064,0.78,0,0,0,0,0,0,0,0,0,0,0,0,0,0,90.4,8,0,1,6.71,0,0,8,90.4,0.1722,-0.0068,0.985,8,90.4,0,0,0,0,0,0,3,0,0,0,69,0,0,0,90.4,1,0,-0.018,0,0,3,0,0,0,10,3.012,0,0,1,1,0,0,VALID,0,0,0,0,0,1,0,0,0,0,0,0,0,0,0,0,0,0,0,0,336.46,440.9,2,0,0.08,0.08,469,14.29,0.08,0.06,32.16,FLYING,CF1-J,0:/Integrated Flight Computer/aircraft/cf1_j_cfg.ks (inferred preloaded)
32.62,TAKEOFF,TO_CLIMB,123.05,80,-43.05,85.45,14.68,6.63,-0.02,90.38,0.064,0.78,0,0,0,0,0,0,0,0,0,0,0,0,0,0,90.4,8,0,1,6.8,0,0,8,90.4,0.1721,-0.0068,0.985,8,90.4,0,0,0,0,0,0,3,0,0,0,69,0,0,0,90.4,1,0,-0.016,0,0,3,0,0,0,10,3.012,0,0,1,1,0,0,VALID,0,0,0,0,0,1,0,0,0,0,0,0,0,0,0,0,0,0,0,0,335.86,439.94,2,0,0.08,0.08,473,14.29,0.08,0.06,32.44,FLYING,CF1-J,0:/Integrated Flight Computer/aircraft/cf1_j_cfg.ks (inferred preloaded)
32.9,TAKEOFF,TO_CLIMB,124.11,80,-44.11,89.71,15.09,6.59,-0.16,90.38,0.064,0.78,0,0,0,0,0,0,0,0,0,0,0,0,0,0,90.4,8,0,1,6.93,0,0,8,90.4,0.1721,-0.0068,0.9851,8,90.4,0,0,0,0,0,0,3,0,0,0,69,0,0,0,90.4,1,0,-0.015,0,0,3,0,0,0,10,3.012,0,0,1,1,0,0,VALID,0,0,0,0,0,1,0,0,0,0,0,0,0,0,0,0,0,0,0,0,335.25,438.99,2,0,0.08,0.08,477,14.29,0.08,0.06,32.72,FLYING,CF1-J,0:/Integrated Flight Computer/aircraft/cf1_j_cfg.ks (inferred preloaded)
33.18,TAKEOFF,TO_CLIMB,125.16,80,-45.16,94.08,15.44,6.66,-0.17,90.39,0.064,0.78,0,0,0,0,0,0,0,0,0,0,0,0,0,0,90.4,8,0,1,7.03,0,0,8,90.4,0.172,-0.0068,0.9851,8,90.4,0,0,0,0,0,0,3,0,0,0,69,0,0,0,90.4,1,0,-0.013,0,0,3,0,0,0,10,3.012,0,0,1,1,0,0,VALID,0,0,0,0,0,1,0,0,0,0,0,0,0,0,0,0,0,0,0,0,334.64,438.03,2,0,0.08,0.08,481,14.29,0.08,0.06,33,FLYING,CF1-J,0:/Integrated Flight Computer/aircraft/cf1_j_cfg.ks (inferred preloaded)
33.46,TAKEOFF,TO_CLIMB,126.19,80,-46.19,98.53,15.73,6.65,-0.28,90.39,0.062,0.78,0,0,0,0,0,0,0,0,0,0,0,0,0,0,90.4,8,0,1,7.1,0,0,8,90.4,0.172,-0.0068,0.9851,8,90.4,0,0,0,0,0,0,3,0,0,0,69,0,0,0,90.4,1,0,-0.012,0,0,3,0,0,0,10,3.012,0,0,1,1,0,0,VALID,0,0,0,0,0,1,0,0,0,0,0,0,0,0,0,0,0,0,0,0,334.03,437.09,2,0,0.08,0.08,485,14.29,0.08,0.06,33.28,FLYING,CF1-J,0:/Integrated Flight Computer/aircraft/cf1_j_cfg.ks (inferred preloaded)
33.74,TAKEOFF,TO_CLIMB,127.22,80,-47.22,103.06,16.09,6.58,-0.43,90.39,0.058,0.78,0,0,0,0,0,0,0,0,0,0,0,0,0,0,90.4,8,0,1,7.21,0,0,8,90.4,0.1719,-0.0068,0.9851,8,90.4,0,0,0,0,0,0,3,0,0,0,69,0,0,0,90.4,1,0,-0.011,0,0,3,0,0,0,10,3.012,0,0,1,1,0,0,VALID,0,0,0,0,0,1,0,0,0,0,0,0,0,0,0,0,0,0,0,0,333.43,436.15,2,0,0.08,0.08,489,14.29,0.08,0.06,33.56,FLYING,CF1-J,0:/Integrated Flight Computer/aircraft/cf1_j_cfg.ks (inferred preloaded)
34.02,TAKEOFF,TO_CLIMB,128.24,80,-48.24,107.65,16.27,6.46,-0.58,90.39,0.054,0.78,0,0,0,0,0,0,0,0,0,0,0,0,0,0,90.4,8,0,1,7.23,0,0,8,90.4,0.1719,-0.0068,0.9851,8,90.4,0,0,0,0,0,0,3,0,0,0,69,0,0,0,90.4,1,0,-0.01,0,0,3,0,0,0,10,3.012,0,0,1,1,0,0,VALID,0,0,0,0,0,1,0,0,0,0,0,0,0,0,0,0,0,0,0,0,332.83,435.21,2,0,0.08,0.08,493,14.29,0.08,0.06,33.84,FLYING,CF1-J,0:/Integrated Flight Computer/aircraft/cf1_j_cfg.ks (inferred preloaded)
34.3,TAKEOFF,TO_CLIMB,129.26,80,-49.26,112.31,16.44,6.42,-0.64,90.39,0.051,0.78,0,0,0,0,0,0,0,0,0,0,0,0,0,0,90.4,8,0,1,7.25,0,0,8,90.4,0.1718,-0.0068,0.9851,8,90.4,0,0,0,0,0,0,3,0,0,0,69,0,0,0,90.4,1,0,-0.008,0,0,3,0,0,0,10,3.012,0,0,1,1,0,0,VALID,0,0,0,0,0,1,0,0,0,0,0,0,0,0,0,0,0,0,0,0,332.22,434.28,2,0,0.08,0.08,497,14.29,0.08,0.06,34.12,FLYING,CF1-J,0:/Integrated Flight Computer/aircraft/cf1_j_cfg.ks (inferred preloaded)
34.58,TAKEOFF,TO_CLIMB,130.28,80,-50.28,117.01,16.62,6.39,-0.7,90.39,0.048,0.78,0,0,0,0,0,0,0,0,0,0,0,0,0,0,90.4,8,0,1,7.27,0,0,8,90.4,0.1717,-0.0068,0.9851,8,90.4,0,0,0,0,0,0,3,0,0,0,69,0,0,0,90.4,1,0,-0.007,0,0,3,0,0,0,10,3.012,0,0,1,1,0,0,VALID,0,0,0,0,0,1,0,0,0,0,0,0,0,0,0,0,0,0,0,0,331.62,433.35,2,0,0.08,0.08,501,14.29,0.08,0.06,34.4,FLYING,CF1-J,0:/Integrated Flight Computer/aircraft/cf1_j_cfg.ks (inferred preloaded)
34.86,TAKEOFF,TO_CLIMB,131.28,80,-51.28,121.74,16.8,6.36,-0.75,90.39,0.046,0.78,0,0,0,0,0,0,0,0,0,0,0,0,0,0,90.4,8,0,1,7.29,0,0,8,90.4,0.1717,-0.0068,0.9851,8,90.4,0,0,0,0,0,0,3,0,0,0,69,0,0,0,90.4,1,0,-0.006,0,0,3,0,0,0,10,3.012,0,0,1,1,0,0,VALID,0,0,0,0,0,1,0,0,0,0,0,0,0,0,0,0,0,0,0,0,331.03,432.43,2,0,0.08,0.08,505,14.29,0.08,0.06,34.68,FLYING,CF1-J,0:/Integrated Flight Computer/aircraft/cf1_j_cfg.ks (inferred preloaded)
35.14,TAKEOFF,TO_CLIMB,132.28,80,-52.28,126.54,16.98,6.33,-0.81,90.39,0.043,0.78,0,0,0,0,0,0,0,0,0,0,0,0,0,0,90.4,8,0,1,7.31,0,0,8,90.4,0.1716,-0.0068,0.9851,8,90.4,0,0,0,0,0,0,3,0,0,0,69,0,0,0,90.4,1,0,-0.005,0,0,3,0,0,0,10,3.012,0,0,1,1,0,0,VALID,0,0,0,0,0,1,0,0,0,0,0,0,0,0,0,0,0,0,0,0,330.43,431.51,2,0,0.08,0.08,509,14.29,0.08,0.06,34.96,FLYING,CF1-J,0:/Integrated Flight Computer/aircraft/cf1_j_cfg.ks (inferred preloaded)
35.42,TAKEOFF,TO_CLIMB,133.27,80,-53.27,131.39,17.15,6.3,-0.85,90.4,0.041,0.78,0,0,0,0,0,0,0,0,0,0,0,0,0,0,90.4,8,0,1,7.33,0,0,8,90.4,0.1715,-0.0068,0.9852,8,90.4,0,0,0,0,0,0,3,0,0,0,69,0,0,0,90.4,1,0,-0.004,0,0,3,0,0,0,10,3.012,0,0,1,1,0,0,VALID,0,0,0,0,0,1,0,0,0,0,0,0,0,0,0,0,0,0,0,0,329.84,430.61,2,0,0.08,0.08,513,14.29,0.08,0.06,35.24,FLYING,CF1-J,0:/Integrated Flight Computer/aircraft/cf1_j_cfg.ks (inferred preloaded)
35.7,TAKEOFF,TO_CLIMB,134.25,80,-54.25,136.29,17.33,6.27,-0.9,90.4,0.039,0.78,0,0,0,0,0,0,0,0,0,0,0,0,0,0,90.4,8,0,1,7.36,0,0,8,90.4,0.1715,-0.0068,0.9852,8,90.4,0,0,0,0,0,0,3,0,0,0,69,0,0,0,90.4,1,0,-0.003,0,0,3,0,0,0,10,3.012,0,0,1,1,0,0,VALID,0,0,0,0,0,1,0,0,0,0,0,0,0,0,0,0,0,0,0,0,329.25,429.71,2,0,0.08,0.08,517,14.29,0.08,0.06,35.52,FLYING,CF1-J,0:/Integrated Flight Computer/aircraft/cf1_j_cfg.ks (inferred preloaded)
35.98,TAKEOFF,TO_CLIMB,135.23,80,-55.23,141.23,17.5,6.24,-0.95,90.4,0.038,0.78,0,0,0,0,0,0,0,0,0,0,0,0,0,0,90.4,8,0,1,7.38,0,0,8,90.4,0.1714,-0.0068,0.9852,8,90.4,0,0,0,0,0,0,3,0,0,0,69,0,0,0,90.4,1,0,-0.002,0,0,3,0,0,0,10,3.012,0,0,1,1,0,0,VALID,0,0,0,0,0,1,0,0,0,0,0,0,0,0,0,0,0,0,0,0,328.67,428.81,2,0,0.08,0.08,521,14.29,0.08,0.06,35.8,FLYING,CF1-J,0:/Integrated Flight Computer/aircraft/cf1_j_cfg.ks (inferred preloaded)
36.26,TAKEOFF,TO_CLIMB,136.2,80,-56.2,146.22,17.69,6.22,-0.99,90.4,0.035,0.78,0,0,0,0,0,0,0,0,0,0,0,0,0,0,90.4,8,0,1,7.4,0,0,8,90.4,0.1714,-0.0068,0.9852,8,90.4,0,0,0,0,0,0,3,0,0,0,69,0,0,0,90.4,1,0,-0.001,0,0,3,0,0,0,10,3.012,0,0,1,1,0,0,VALID,0,0,0,0,0,1,0,0,0,0,0,0,0,0,0,0,0,0,0,0,328.08,427.93,2,0,0.08,0.08,525,14.29,0.08,0.06,36.08,FLYING,CF1-J,0:/Integrated Flight Computer/aircraft/cf1_j_cfg.ks (inferred preloaded)
36.54,TAKEOFF,TO_CLIMB,137.16,80,-57.16,151.32,17.86,6.19,-1.05,90.4,0.034,0.78,0,0,0,0,0,0,0,0,0,0,0,0,0,0,90.4,8,0,1,7.42,0,0,8,90.4,0.1713,-0.0068,0.9852,8,90.4,0,0,0,0,0,0,3,0,0,0,69,0,0,0,90.4,1,0,-0.001,0,0,3,0,0,0,10,3.012,0,0,1,1,0,0,VALID,0,0,0,0,0,1,0,0,0,0,0,0,0,0,0,0,0,0,0,0,327.5,427.05,2,0,0.08,0.08,529,14.29,0.08,0.06,36.36,FLYING,CF1-J,0:/Integrated Flight Computer/aircraft/cf1_j_cfg.ks (inferred preloaded)
36.82,TAKEOFF,TO_CLIMB,138.11,80,-58.11,156.36,18.04,6.17,-1.08,90.4,0.032,0.78,0,0,0,0,0,0,0,0,0,0,0,0,0,0,90.4,8,0,1,7.44,0,0,8,90.4,0.1712,-0.0068,0.9852,8,90.4,0,0,0,0,0,0,3,0,0,0,69,0,0,0,90.4,1,0,0,0,0,3,0,0,0,10,3.012,0,0,1,1,0,0,VALID,0,0,0,0,0,1,0,0,0,0,0,0,0,0,0,0,0,0,0,0,326.93,426.18,2,0,0.08,0.08,533,14.29,0.08,0.06,36.64,FLYING,CF1-J,0:/Integrated Flight Computer/aircraft/cf1_j_cfg.ks (inferred preloaded)
37.1,TAKEOFF,TO_CLIMB,139.06,80,-59.06,161.51,18.21,6.14,-1.13,90.4,0.031,0.78,0,0,0,0,0,0,0,0,0,0,0,0,0,0,90.4,8,0,1,7.46,0,0,8,90.4,0.1712,-0.0068,0.9852,8,90.4,0,0,0,0,0,0,3,0,0,0,69,0,0,0,90.4,1,0,0.001,0,0,3,0,0,0,10,3.012,0,0,1,1,0,0,VALID,0,0,0,0,0,1,0,0,0,0,0,0,0,0,0,0,0,0,0,0,326.36,425.31,2,0,0.08,0.08,537,14.29,0.08,0.06,36.92,FLYING,CF1-J,0:/Integrated Flight Computer/aircraft/cf1_j_cfg.ks (inferred preloaded)
37.38,TAKEOFF,TO_CLIMB,139.99,80,-59.99,166.71,18.4,6.14,-1.16,90.4,0.028,0.78,0,0,0,0,0,0,0,0,0,0,0,0,0,0,90.4,8,0,1,7.49,0,0,8,90.4,0.1711,-0.0068,0.9852,8,90.4,0,0,0,0,0,0,3,0,0,0,69,0,0,0,90.4,1,0,0.002,0,0,3,0,0,0,10,3.012,0,0,1,1,0,0,VALID,0,0,0,0,0,1,0,0,0,0,0,0,0,0,0,0,0,0,0,0,325.79,424.45,2,0,0.08,0.08,541,14.29,0.08,0.06,37.2,FLYING,CF1-J,0:/Integrated Flight Computer/aircraft/cf1_j_cfg.ks (inferred preloaded)
37.66,TAKEOFF,TO_CLIMB,140.92,80,-60.92,171.91,18.57,6.11,-1.22,90.4,0.027,0.78,0,0,0,0,0,0,0,0,0,0,0,0,0,0,90.4,8,0,1,7.51,0,0,8,90.4,0.171,-0.0068,0.9852,8,90.4,0,0,0,0,0,0,3,0,0,0,69,0,0,0,90.4,1,0,0.003,0,0,3,0,0,0,10,3.012,0,0,1,1,0,0,VALID,0,0,0,0,0,1,0,0,0,0,0,0,0,0,0,0,0,0,0,0,325.23,423.6,2,0,0.08,0.08,545,14.29,0.08,0.06,37.48,FLYING,CF1-J,0:/Integrated Flight Computer/aircraft/cf1_j_cfg.ks (inferred preloaded)
37.94,TAKEOFF,TO_CLIMB,141.84,80,-61.84,177.22,18.73,6.1,-1.25,90.4,0.026,0.78,0,0,0,0,0,0,0,0,0,0,0,0,0,0,90.4,8,0,1,7.52,0,0,8,90.4,0.171,-0.0068,0.9853,8,90.4,0,0,0,0,0,0,3,0,0,0,69,0,0,0,90.4,1,0,0.003,0,0,3,0,0,0,10,3.012,0,0,1,1,0,0,VALID,0,0,0,0,0,1,0,0,0,0,0,0,0,0,0,0,0,0,0,0,324.66,422.76,2,0,0.08,0.08,549,14.29,0.08,0.06,37.76,FLYING,CF1-J,0:/Integrated Flight Computer/aircraft/cf1_j_cfg.ks (inferred preloaded)
38.22,TAKEOFF,TO_CLIMB,142.76,80,-62.76,182.53,18.94,6.09,-1.28,90.4,0.022,0.78,0,0,0,0,0,0,0,0,0,0,0,0,0,0,90.4,8,0,1,7.56,0,0,8,90.4,0.1709,-0.0068,0.9853,8,90.4,0,0,0,0,0,0,3,0,0,0,69,0,0,0,90.4,1,0,0.004,0,0,3,0,0,0,10,3.012,0,0,1,1,0,0,VALID,0,0,0,0,0,1,0,0,0,0,0,0,0,0,0,0,0,0,0,0,324.11,421.92,2,0,0.08,0.08,553,14.29,0.08,0.06,38.04,FLYING,CF1-J,0:/Integrated Flight Computer/aircraft/cf1_j_cfg.ks (inferred preloaded)
38.5,TAKEOFF,TO_CLIMB,143.67,80,-63.67,187.89,19.1,6.07,-1.32,90.4,0.021,0.78,0,0,0,0,0,0,0,0,0,0,0,0,0,0,90.4,8,0,1,7.57,0,0,8,90.4,0.1708,-0.0068,0.9853,8,90.4,0,0,0,0,0,0,3,0,0,0,69,0,0,0,90.4,1,0,0.005,0,0,3,0,0,0,10,3.012,0,0,1,1,0,0,VALID,0,0,0,0,0,1,0,0,0,0,0,0,0,0,0,0,0,0,0,0,323.55,421.09,2,0,0.08,0.08,557,14.29,0.08,0.06,38.32,FLYING,CF1-J,0:/Integrated Flight Computer/aircraft/cf1_j_cfg.ks (inferred preloaded)
