t_s,phase,subphase,ias_ms,vapp_ms,spd_err_ms,agl_m,vs_ms,pitch_deg,aoa_deg,hdg_deg,bank_deg,thr_cmd,thr_cur,thr_intg,at_gain,at_tau_s,at_a_up,at_a_dn,at_kp_thr,at_ki_spd,at_thr_slew,as_cmd_deg,as_cap_deg,as_raw_deg,as_spd_err_ms,as_active,aa_hdg_cmd_deg,aa_fpa_cmd_deg,aa_fbw,aa_dir,actual_fpa_deg,ftf_hdg_err_deg,ftf_fix_idx,kos_steer_pit_deg,kos_steer_hdg_deg,aa_dir_vx,aa_dir_vy,aa_dir_vz,aa_dir_pitch_deg,aa_dir_hdg_deg,ils_loc_m,ils_gs_m,ils_dist_km,loc_corr_deg,gs_corr_deg,gs_latched,active_gs_ang_deg,ils_intercept_alt_m,d_gs_ms,fpa_preclamped_deg,gs_nom_alt_m,flare_fpa_cmd,flare_tgt_vs,flare_frac,steer_hdg_deg,steer_blend,ro_loc_corr_deg,ro_hdg_err_deg,ro_yaw_tgt,ro_yaw_scale,ro_yaw_gate,yaw_cmd,roll_cmd,pitch_cmd,ro_pitch_tgt_deg,ro_pitch_err_deg,ro_pitch_ff,ro_roll_assist,flaps_cur,flaps_tgt,asc_j_ab,asc_j_rk,asc_validity,asc_q_pa,asc_q_raw_pa,asc_mach,asc_apo_m,asc_drag_n,asc_w_prop,asc_edot_aero,asc_edot_orb,asc_pitch_bias,asc_blend,asc_spooling,asc_ab_thr_ratio,asc_ab_t_now,asc_ab_t_avail,asc_ab_ign_on,asc_ab_flameouts,asc_rk_t_now,asc_rk_t_avail,asc_rk_ign_on,asc_rk_flameouts,ship_thrust,ship_avail_thrust,ship_ign_on,ship_flameouts,ifc_raw_dt_s,ifc_dt_s,ifc_loop_n,ifc_hz_est,ifc_raw_dt_max_s,ifc_raw_dt_min_s,phase_el_s,status,craft_name,cfg_file
0.18,TAKEOFF,TO_PREFLIGHT,0,80,80,3.61,0,-0.18,67.09,89.66,0.109,0.064,0,0,0,0,0,0,0,0,0,0,0,0,0,0,90.4,0,1,0,-0.04,0,0,0,90,0,0,0,0,0,0,0,0,0,0,0,3,0,0,0,69,0,0,0,90.4,1,0,-0.744,0,0,1,0,0,0,0,0,0,0,0,1,0,0,VALID,0,0,0,0,0,1,0,0,0,0,0,0,0,0,0,0,0,0,0,0,0,518,2,0,0.16,0.16,1,3.45,0.16,0.02,0.02,PRELAUNCH,CF1-J,0:/Integrated Flight Computer/aircraft/cf1_j_cfg.ks (inferred preloaded)
0.44,TAKEOFF,TO_PREFLIGHT,0,80,80,3.61,0,-0.18,71.42,89.66,0.11,0.112,0,0,0,0,0,0,0,0,0,0,0,0,0,0,90.4,0,1,0,-0.01,0,0,0,90,0,0,0,0,0,0,0,0,0,0,0,3,0,0,0,69,0,0,0,90.4,1,0,-0.743,0,0,1,0,0,0,0,0,0,0,1,1,0,0,VALID,0,0,0,0,0,1,0,0,0,0,0,0,0,0,0,0,0,0,0,0,0.41,518,2,0,0.04,0.04,6,19.23,0.16,0.04,0.28,PRELAUNCH,CF1-J,0:/Integrated Flight Computer/aircraft/cf1_j_cfg.ks (inferred preloaded)
0.7,TAKEOFF,TO_PREFLIGHT,0,80,80,3.61,0,-0.18,-8.57,89.66,0.109,0.216,0,0,0,0,0,0,0,0,0,0,0,0,0,0,90.4,0,1,0,0.02,0,0,0,90,0,0,0,0,0,0,0,0,0,0,0,3,0,0,0,69,0,0,0,90.4,1,0,-0.743,0,0,1,0,0,0,0,0,0,0,1,1,0,0,VALID,0,0,0,0,0,1,0,0,0,0,0,0,0,0,0,0,0,0,0,0,1.5,518,2,0,0.04,0.04,11,19.23,0.08,0.04,0.54,PRELAUNCH,CF1-J,0:/Integrated Flight Computer/aircraft/cf1_j_cfg.ks (inferred preloaded)
0.96,TAKEOFF,TO_PREFLIGHT,0,80,80,3.61,0,-0.18,-7.86,89.66,0.109,0.32,0,0,0,0,0,0,0,0,0,0,0,0,0,0,90.4,0,1,0,0.01,0,0,0,90,0,0,0,0,0,0,0,0,0,0,0,3,0,0,0,69,0,0,0,90.4,1,0,-0.743,0,0,1,0,0,0,0,0,0,0,1,1,0,0,VALID,0,0,0,0,0,1,0,0,0,0,0,0,0,0,0,0,0,0,0,0,3.41,518,2,0,0.04,0.04,16,19.23,0.08,0.04,0.8,PRELAUNCH,CF1-J,0:/Integrated Flight Computer/aircraft/cf1_j_cfg.ks (inferred preloaded)
1.22,TAKEOFF,TO_PREFLIGHT,0.01,80,79.99,3.61,0,-0.19,1.81,89.66,0.108,0.424,0,0,0,0,0,0,0,0,0,0,0,0,0,0,90.4,0,1,0,0.01,0,0,0,90,0,0,0,0,0,0,0,0,0,0,0,3,0,0,0,69,0,0,0,90.4,1,0,-0.743,0,0,1,0,0,0,0,0,0,0,1,1,0,0,VALID,0,0,0,0,0,1,0,0,0,0,0,0,0,0,0,0,0,0,0,0,6.12,517.99,2,0,0.04,0.04,21,19.23,0.08,0.04,1.06,PRELAUNCH,CF1-J,0:/Integrated Flight Computer/aircraft/cf1_j_cfg.ks (inferred preloaded)
1.48,TAKEOFF,TO_PREFLIGHT,0.01,80,79.99,3.61,0,-0.19,-0.24,89.66,0.108,0.528,0,0,0,0,0,0,0,0,0,0,0,0,0,0,90.4,0,1,0,-0.02,0,0,0,90,0,0,0,0,0,0,0,0,0,0,0,3,0,0,0,69,0,0,0,90.4,1,0,-0.743,0,0,1,0,0,0,0,0,0,0,1,1,0,0,VALID,0,0,0,0,0,1,0,0,0,0,0,0,0,0,0,0,0,0,0,0,9.63,517.99,2,0,0.04,0.04,26,19.23,0.08,0.04,1.32,PRELAUNCH,CF1-J,0:/Integrated Flight Computer/aircraft/cf1_j_cfg.ks (inferred preloaded)
1.74,TAKEOFF,TO_PREFLIGHT,0.01,80,79.99,3.61,0,-0.19,-2.15,89.66,0.109,0.632,0,0,0,0,0,0,0,0,0,0,0,0,0,0,90.4,0,1,0,0.03,0,0,0,90,0,0,0,0,0,0,0,0,0,0,0,3,0,0,0,69,0,0,0,90.4,1,0,-0.743,0,0,1,0,0,0,0,0,0,0,1,1,0,0,VALID,0,0,0,0,0,1,0,0,0,0,0,0,0,0,0,0,0,0,0,0,13.91,517.99,2,0,0.04,0.04,31,19.23,0.08,0.04,1.58,PRELAUNCH,CF1-J,0:/Integrated Flight Computer/aircraft/cf1_j_cfg.ks (inferred preloaded)
2,TAKEOFF,TO_PREFLIGHT,0.01,80,79.99,3.61,0,-0.2,-1.56,89.66,0.11,0.736,0,0,0,0,0,0,0,0,0,0,0,0,0,0,90.4,0,1,0,0,0,0,0,90,0,0,0,0,0,0,0,0,0,0,0,3,0,0,0,69,0,0,0,90.4,1,0,-0.743,0,0,1,0,0,0,0,0,0,0,1,1,0,0,VALID,0,0,0,0,0,1,0,0,0,0,0,0,0,0,0,0,0,0,0,0,18.97,517.99,2,0,0.04,0.04,36,19.23,0.08,0.04,1.84,PRELAUNCH,CF1-J,0:/Integrated Flight Computer/aircraft/cf1_j_cfg.ks (inferred preloaded)
2.32,TAKEOFF,TO_PREFLIGHT,0.02,80,79.98,3.61,0,-0.21,-1.72,89.66,0.109,0.864,0,0,0,0,0,0,0,0,0,0,0,0,0,0,90.4,0,1,0,0.08,0,0,0,90,0,0,0,0,0,0,0,0,0,0,0,3,0,0,0,69,0,0,0,90.4,1,0,-0.743,0,0,1,0,0,0,0,0,0,0,1,1,0,0,VALID,0,0,0,0,0,1,0,0,0,0,0,0,0,0,0,0,0,0,0,0,26.22,517.99,2,0,0.08,0.08,41,15.63,0.08,0.04,2.16,PRELAUNCH,CF1-J,0:/Integrated Flight Computer/aircraft/cf1_j_cfg.ks (inferred preloaded)
2.6,TAKEOFF,TO_PREFLIGHT,0.02,80,79.98,3.61,0,-0.21,-2.36,89.66,0.109,0.976,0,0,0,0,0,0,0,0,0,0,0,0,0,0,90.4,0,1,0,0.04,0,0,0,90,0,0,0,0,0,0,0,0,0,0,0,3,0,0,0,69,0,0,0,90.4,1,0,-0.743,0,0,1,0,0,0,0,0,0,0,1,1,0,0,VALID,0,0,0,0,0,1,0,0,0,0,0,0,0,0,0,0,0,0,0,0,33.47,517.99,2,0,0.08,0.08,45,14.29,0.08,0.06,2.44,PRELAUNCH,CF1-J,0:/Integrated Flight Computer/aircraft/cf1_j_cfg.ks (inferred preloaded)
2.88,TAKEOFF,TO_PREFLIGHT,0.03,80,79.97,3.61,0,-0.22,-2.09,89.67,0.108,1,0,0,0,0,0,0,0,0,0,0,0,0,0,0,90.4,0,1,0,-0.01,0,0,0,90,0,0,0,0,0,0,0,0,0,0,0,3,0,0,0,69,0,0,0,90.4,1,0,-0.743,0,0,1,0,0,0,0,0,0,0,1,1,0,0,VALID,0,0,0,0,0,1,0,0,0,0,0,0,0,0,0,0,0,0,0,0,41.43,517.98,2,0,0.08,0.08,49,14.29,0.08,0.06,2.72,PRELAUNCH,CF1-J,0:/Integrated Flight Computer/aircraft/cf1_j_cfg.ks (inferred preloaded)
3.16,TAKEOFF,TO_PREFLIGHT,0.04,80,79.96,3.6,0,-0.23,-0.49,89.66,0.109,1,0,0,0,0,0,0,0,0,0,0,0,0,0,0,90.4,0,1,0,0.03,0,0,0,90,0,0,0,0,0,0,0,0,0,0,0,3,0,0,0,69,0,0,0,90.4,1,0,-0.743,0,0,1,0,0,0,0,0,0,0,1,1,0,0,VALID,0,0,0,0,0,1,0,0,0,0,0,0,0,0,0,0,0,0,0,0,49.38,517.98,2,0,0.08,0.08,53,14.29,0.08,0.06,3,PRELAUNCH,CF1-J,0:/Integrated Flight Computer/aircraft/cf1_j_cfg.ks (inferred preloaded)
3.44,TAKEOFF,TO_GROUND_ROLL,0.05,80,79.95,3.61,0,-0.22,0.56,89.66,0.109,1,0,0,0,0,0,0,0,0,0,0,0,0,0,0,90.4,0,1,0,-0.14,0,0,0,90,0,0,0,0,0,0,0,0,0,0,0,3,0,0,0,69,0,0,0,90.4,1,0,-0.736,0,0,3,0,0,0,0,0,0,0,1,1,0,0,VALID,0,0,0,0,0,1,0,0,0,0,0,0,0,0,0,0,0,0,0,0,57.19,517.98,2,0,0.08,0.08,57,14.29,0.08,0.06,3.3,PRELAUNCH,CF1-J,0:/Integrated Flight Computer/aircraft/cf1_j_cfg.ks (inferred preloaded)
3.72,TAKEOFF,TO_GROUND_ROLL,0.28,80,79.72,3.62,-0.01,-0.12,1.33,89.66,0.109,1,0,0,0,0,0,0,0,0,0,0,0,0,0,0,90.4,0,1,0,-0.48,0,0,0,90,0,0,0,0,0,0,0,0,0,0,0,3,0,0,0,69,0,0,0,90.4,1,0,-0.735,0,0,3,0,0,0,0,0,0,0,1,1,0,0,VALID,0,0,0,0,0,1,0,0,0,0,0,0,0,0,0,0,0,0,0,0,64.86,517.92,2,0,0.08,0.08,61,14.29,0.08,0.06,3.58,PRELAUNCH,CF1-J,0:/Integrated Flight Computer/aircraft/cf1_j_cfg.ks (inferred preloaded)
4,TAKEOFF,TO_GROUND_ROLL,0.62,80,79.38,3.61,0,-0.17,-0.35,89.67,0.109,1,0,0,0,0,0,0,0,0,0,0,0,0,0,0,90.39,0,1,0,0.1,0,0,0,90,0,0,0,0,0,0,0,0,0,0,0,3,0,0,0,69,0,0,0,90.39,1,0,-0.724,0,0,3,0,0,0,0,0,0,0,1,1,0,0,VALID,0,0,0,0,0,1,0,0,0,0,0,0,0,0,0,0,0,0,0,0,72.4,517.84,2,0,0.08,0.08,65,14.29,0.08,0.06,3.86,PRELAUNCH,CF1-J,0:/Integrated Flight Computer/aircraft/cf1_j_cfg.ks (inferred preloaded)
4.28,TAKEOFF,TO_GROUND_ROLL,1.01,80,78.99,3.62,-0.01,-0.16,0.35,89.68,0.108,1,0,0,0,0,0,0,0,0,0,0,0,0,0,0,90.39,0,1,0,-0.61,0,0,0,90,0,0,0,0,0,0,0,0,0,0,0,3,0,0,0,69,0,0,0,90.39,1,0,-0.707,0,0,3,0,0,0,0,0,0,0,1,1,0,0,VALID,0,0,0,0,0,1,0,0,0,0,0,0,0,0,0,0,0,0,0,0,79.81,517.75,2,0,0.08,0.08,69,14.29,0.08,0.06,4.14,PRELAUNCH,CF1-J,0:/Integrated Flight Computer/aircraft/cf1_j_cfg.ks (inferred preloaded)
4.56,TAKEOFF,TO_GROUND_ROLL,1.43,80,78.57,3.62,-0.01,-0.14,0.11,89.7,0.108,1,0,0,0,0,0,0,0,0,0,0,0,0,0,0,90.38,0,1,0,-0.27,0,0,0,90,0,0,0,0,0,0,0,0,0,0,0,3,0,0,0,69,0,0,0,90.38,1,0,-0.683,0,0,3,0,0,0,0,0,0,0,1,1,0,0,VALID,0,0,0,0,0,1,0,0,0,0,0,0,0,0,0,0,0,0,0,0,87.1,517.64,2,0,0.08,0.08,73,14.29,0.08,0.06,4.42,PRELAUNCH,CF1-J,0:/Integrated Flight Computer/aircraft/cf1_j_cfg.ks (inferred preloaded)
4.84,TAKEOFF,TO_GROUND_ROLL,1.88,80,78.12,3.62,-0.01,-0.16,0.13,89.73,0.108,1,0,0,0,0,0,0,0,0,0,0,0,0,0,0,90.38,0,1,0,-0.35,0,0,0,90,0,0,0,0,0,0,0,0,0,0,0,3,0,0,0,69,0,0,0,90.38,1,0,-0.653,0,0,3,0,0,0,0,0,0,0,1,1,0,0,VALID,0,0,0,0,0,1,0,0,0,0,0,0,0,0,0,0,0,0,0,0,94.25,517.52,2,0,0.08,0.08,77,14.29,0.08,0.06,4.7,PRELAUNCH,CF1-J,0:/Integrated Flight Computer/aircraft/cf1_j_cfg.ks (inferred preloaded)
5.12,TAKEOFF,TO_GROUND_ROLL,2.37,80,77.63,3.62,-0.01,-0.14,0.19,89.76,0.107,1,0,0,0,0,0,0,0,0,0,0,0,0,0,0,90.38,0,1,0,-0.36,0,0,0,90,0,0,0,0,0,0,0,0,0,0,0,3,0,0,0,69,0,0,0,90.38,1,0,-0.616,0.0069,0.25,1,0.0069,0,0,0,0,0,0,1,1,0,0,VALID,0,0,0,0,0,1,0,0,0,0,0,0,0,0,0,0,0,0,0,0,101.28,517.4,2,0,0.08,0.08,81,14.29,0.08,0.06,4.98,LANDED,CF1-J,0:/Integrated Flight Computer/aircraft/cf1_j_cfg.ks (inferred preloaded)
5.4,TAKEOFF,TO_GROUND_ROLL,2.9,80,77.1,3.62,-0.02,-0.14,0.14,89.8,0.106,1,0,0,0,0,0,0,0,0,0,0,0,0,0,0,90.37,0,1,0,-0.32,0,0,0,90,0,0,0,0,0,0,0,0,0,0,0,3,0,0,0,69,0,0,0,90.37,1,0,-0.573,0.0064,0.25,1,0.0064,0,0,0,0,0,0,1,1,0,0,VALID,0,0,0,0,0,1,0,0,0,0,0,0,0,0,0,0,0,0,0,0,108.19,517.26,2,0,0.08,0.08,85,14.29,0.08,0.06,5.26,LANDED,CF1-J,0:/Integrated Flight Computer/aircraft/cf1_j_cfg.ks (inferred preloaded)
5.68,TAKEOFF,TO_GROUND_ROLL,3.46,80,76.54,3.62,-0.02,-0.14,0.17,89.84,0.104,1,0,0,0,0,0,0,0,0,0,0,0,0,0,0,90.37,0,1,0,-0.34,0,0,0,90,0,0,0,0,0,0,0,0,0,0,0,3,0,0,0,69,0,0,0,90.37,1,0,-0.525,0.0059,0.25,1,0.0059,0,0,0,0,0,0,1,1,0,0,VALID,0,0,0,0,0,1,0,0,0,0,0,0,0,0,0,0,0,0,0,0,114.98,517.11,2,0,0.08,0.08,89,14.29,0.08,0.06,5.54,LANDED,CF1-J,0:/Integrated Flight Computer/aircraft/cf1_j_cfg.ks (inferred preloaded)
5.96,TAKEOFF,TO_GROUND_ROLL,4.06,80,75.94,3.62,-0.02,-0.14,0.17,89.89,0.103,1,0,0,0,0,0,0,0,0,0,0,0,0,0,0,90.36,0,1,0,-0.34,0,0,0,90,0,0,0,0,0,0,0,0,0,0,0,3,0,0,0,69,0,0,0,90.36,1,0,-0.473,0.0053,0.25,1,0.0053,0,0,0,0,0,0,1,1,0,0,VALID,0,0,0,0,0,1,0,0,0,0,0,0,0,0,0,0,0,0,0,0,121.64,516.94,2,0,0.08,0.08,93,14.29,0.08,0.06,5.82,LANDED,CF1-J,0:/Integrated Flight Computer/aircraft/cf1_j_cfg.ks (inferred preloaded)
6.24,TAKEOFF,TO_GROUND_ROLL,4.68,80,75.32,3.62,-0.03,-0.14,0.16,89.94,0.102,1,0,0,0,0,0,0,0,0,0,0,0,0,0,0,90.36,0,1,0,-0.33,0,0,0,90,0,0,0,0,0,0,0,0,0,0,0,3,0,0,0,69,0,0,0,90.36,1,0,-0.418,0.0047,0.25,1,0.0047,0,0,0,0,0,0,1,1,0,0,VALID,0,0,0,0,0,1,0,0,0,0,0,0,0,0,0,0,0,0,0,0,128.19,516.76,2,0,0.08,0.08,97,14.29,0.08,0.06,6.1,LANDED,CF1-J,0:/Integrated Flight Computer/aircraft/cf1_j_cfg.ks (inferred preloaded)
6.52,TAKEOFF,TO_GROUND_ROLL,5.35,80,74.65,3.62,-0.03,-0.13,0.17,90,0.101,1,0,0,0,0,0,0,0,0,0,0,0,0,0,0,90.36,0,1,0,-0.33,0,0,0,90,0,0,0,0,0,0,0,0,0,0,0,3,0,0,0,69,0,0,0,90.36,1,0,-0.363,0.0039,0.25,1,0.0039,0,0,0,0,0,0,1,1,0,0,VALID,0,0,0,0,0,1,0,0,0,0,0,0,0,0,0,0,0,0,0,0,134.62,516.57,2,0,0.08,0.08,101,14.29,0.08,0.06,6.38,LANDED,CF1-J,0:/Integrated Flight Computer/aircraft/cf1_j_cfg.ks (inferred preloaded)
6.8,TAKEOFF,TO_GROUND_ROLL,6.04,80,73.96,3.62,-0.03,-0.13,0.17,90.05,0.099,1,0,0,0,0,0,0,0,0,0,0,0,0,0,0,90.36,0,1,0,-0.32,0,0,0,90,0,0,0,0,0,0,0,0,0,0,0,3,0,0,0,69,0,0,0,90.36,1,0,-0.309,0.0031,0.25,1,0.0031,0,0,0,0,0,0,1,1,0,0,VALID,0,0,0,0,0,1,0,0,0,0,0,0,0,0,0,0,0,0,0,0,140.93,516.37,2,0,0.08,0.08,105,14.29,0.08,0.06,6.66,LANDED,CF1-J,0:/Integrated Flight Computer/aircraft/cf1_j_cfg.ks (inferred preloaded)
7.08,TAKEOFF,TO_GROUND_ROLL,6.76,80,73.24,3.62,-0.04,-0.13,0.17,90.11,0.098,1,0,0,0,0,0,0,0,0,0,0,0,0,0,0,90.36,0,1,0,-0.33,0,0,0,90,0,0,0,0,0,0,0,0,0,0,0,3,0,0,0,69,0,0,0,90.36,1,0,-0.255,0.0024,0.25,1,0.0024,0,0,0,0,0,0,1,1,0,0,VALID,0,0,0,0,0,1,0,0,0,0,0,0,0,0,0,0,0,0,0,0,147.12,516.15,2,0,0.08,0.08,109,14.29,0.08,0.06,6.94,LANDED,CF1-J,0:/Integrated Flight Computer/aircraft/cf1_j_cfg.ks (inferred preloaded)
7.36,TAKEOFF,TO_GROUND_ROLL,7.52,80,72.48,3.62,-0.04,-0.13,0.16,90.16,0.098,1,0,0,0,0,0,0,0,0,0,0,0,0,0,0,90.36,0,1,0,-0.33,0,0,0,90,0,0,0,0,0,0,0,0,0,0,0,3,0,0,0,69,0,0,0,90.36,1,0,-0.205,0.0018,0.25,1,0.0018,0,0,0,0,0,0,1,1,0,0,VALID,0,0,0,0,0,1,0,0,0,0,0,0,0,0,0,0,0,0,0,0,153.21,515.91,2,0,0.08,0.08,113,14.29,0.08,0.06,7.22,LANDED,CF1-J,0:/Integrated Flight Computer/aircraft/cf1_j_cfg.ks (inferred preloaded)
7.64,TAKEOFF,TO_GROUND_ROLL,8.3,80,71.7,3.62,-0.05,-0.13,0.17,90.21,0.098,1,0,0,0,0,0,0,0,0,0,0,0,0,0,0,90.37,0,1,0,-0.33,0,0,0,90,0,0,0,0,0,0,0,0,-0.001,0,0,3,0,0,0,69,0,0,0,90.37,1,-0.001,-0.159,0.0013,0.25,1,0.0013,0,0,0,0,0,0,1,1,0,0,VALID,0,0,0,0,0,1,0,0,0,0,0,0,0,0,0,0,0,0,0,0,159.18,515.66,2,0,0.08,0.08,117,14.29,0.08,0.06,7.5,LANDED,CF1-J,0:/Integrated Flight Computer/aircraft/cf1_j_cfg.ks (inferred preloaded)
7.92,TAKEOFF,TO_GROUND_ROLL,9.12,80,70.88,3.62,-0.05,-0.12,0.17,90.25,0.097,1,0,0,0,0,0,0,0,0,0,0,0,0,0,0,90.37,0,1,0,-0.32,0,0,0,90,0,0,0,0,0,0,0,0,-0.001,0,0,3,0,0,0,69,0,0,0,90.37,1,-0.001,-0.118,0.0009,0.25,1,0.0009,0,0,0,0,0,0,1,1,0,0,VALID,0,0,0,0,0,1,0,0,0,0,0,0,0,0,0,0,0,0,0,0,165.03,515.4,2,0,0.08,0.08,121,14.29,0.08,0.06,7.78,LANDED,CF1-J,0:/Integrated Flight Computer/aircraft/cf1_j_cfg.ks (inferred preloaded)
8.2,TAKEOFF,TO_GROUND_ROLL,9.96,80,70.04,3.62,-0.06,-0.12,0.18,90.29,0.097,1,0,0,0,0,0,0,0,0,0,0,0,0,0,0,90.37,0,1,0,-0.32,0,0,0,90,0,0,0,0,0,0,0,0,-0.001,0,0,3,0,0,0,69,0,0,0,90.37,1,-0.001,-0.083,0.0006,0.25,1,0.0006,0,0,0,0,0,0,1,1,0,0,VALID,0,0,0,0,0,1,0,0,0,0,0,0,0,0,0,0,0,0,0,0,170.78,515.12,2,0,0.08,0.08,125,14.29,0.08,0.06,8.06,LANDED,CF1-J,0:/Integrated Flight Computer/aircraft/cf1_j_cfg.ks (inferred preloaded)
8.48,TAKEOFF,TO_GROUND_ROLL,10.84,80,69.16,3.62,-0.06,-0.12,0.18,90.32,0.097,1,0,0,0,0,0,0,0,0,0,0,0,0,0,0,90.38,0,1,0,-0.32,0,0,0,90,0,0,0,0,0,0,0,0,-0.001,0,0,3,0,0,0,69,0,0,0,90.38,1,-0.001,-0.053,0.0004,0.25,1,0.0004,0,0,0,0,0,0,1,1,0,0,VALID,0,0,0,0,0,1,0,0,0,0,0,0,0,0,0,0,0,0,0,0,176.42,514.82,2,0,0.08,0.08,129,14.29,0.08,0.06,8.34,LANDED,CF1-J,0:/Integrated Flight Computer/aircraft/cf1_j_cfg.ks (inferred preloaded)
8.76,TAKEOFF,TO_GROUND_ROLL,11.74,80,68.26,3.62,-0.07,-0.12,0.18,90.35,0.098,1,0,0,0,0,0,0,0,0,0,0,0,0,0,0,90.38,0,1,0,-0.32,0,0,0,90,0,0,0,0,0,0,0,0,-0.002,0,0,3,0,0,0,69,0,0,0,90.38,1,-0.002,-0.029,0.0002,0.25,1,0.0002,0,0,0,0,0,0,1,1,0,0,VALID,0,0,0,0,0,1,0,0,0,0,0,0,0,0,0,0,0,0,0,0,181.95,514.51,2,0,0.08,0.08,133,14.29,0.08,0.06,8.62,LANDED,CF1-J,0:/Integrated Flight Computer/aircraft/cf1_j_cfg.ks (inferred preloaded)
9.04,TAKEOFF,TO_GROUND_ROLL,12.67,80,67.33,3.62,-0.07,-0.12,0.18,90.37,0.099,1,0,0,0,0,0,0,0,0,0,0,0,0,0,0,90.38,0,1,0,-0.32,0,0,0,90,0,0,0,0,0,0,0,0,-0.002,0,0,3,0,0,0,69,0,0,0,90.38,1,-0.002,-0.01,0.0001,0.25,1,0.0001,0,0,0,0,0,0,1,1,0,0,VALID,0,0,0,0,0,1,0,0,0,0,0,0,0,0,0,0,0,0,0,0,187.37,514.17,2,0,0.08,0.08,137,14.29,0.08,0.06,8.9,LANDED,CF1-J,0:/Integrated Flight Computer/aircraft/cf1_j_cfg.ks (inferred preloaded)
9.32,TAKEOFF,TO_GROUND_ROLL,13.62,80,66.38,3.62,-0.08,-0.11,0.18,90.39,0.1,1,0,0,0,0,0,0,0,0,0,0,0,0,0,0,90.39,0,1,0,-0.32,0,0,0,90,0,0,0,0,0,0,0,0,-0.003,0,0,3,0,0,0,69,0,0,0,90.39,1,-0.003,0.003,0,0.25,1,0,0,0,0,0,0,0,1,1,0,0,VALID,0,0,0,0,0,1,0,0,0,0,0,0,0,0,0,0,0,0,0,0,192.69,513.82,2,0,0.08,0.08,141,14.29,0.08,0.06,9.18,LANDED,CF1-J,0:/Integrated Flight Computer/aircraft/cf1_j_cfg.ks (inferred preloaded)
9.6,TAKEOFF,TO_GROUND_ROLL,14.6,80,65.4,3.62,-0.08,-0.11,0.19,90.4,0.102,1,0,0,0,0,0,0,0,0,0,0,0,0,0,0,90.39,0,1,0,-0.32,0,0,0,90,0,0,0,0,0,0,0,0,-0.004,0,0,3,0,0,0,69,0,0,0,90.39,1,-0.004,0.008,-0.0001,0.25,1,-0.0001,0,0,0,0,0,0,1,1,0,0,VALID,0,0,0,0,0,1,0,0,0,0,0,0,0,0,0,0,0,0,0,0,197.9,513.45,2,0,0.08,0.08,145,14.29,0.08,0.06,9.46,LANDED,CF1-J,0:/Integrated Flight Computer/aircraft/cf1_j_cfg.ks (inferred preloaded)
9.88,TAKEOFF,TO_GROUND_ROLL,15.61,80,64.39,3.62,-0.09,-0.11,0.19,90.4,0.103,1,0,0,0,0,0,0,0,0,0,0,0,0,0,0,90.39,0,1,0,-0.32,0,0,0,90,0,0,0,0,0,0,0,0,-0.004,0,0,3,0,0,0,69,0,0,0,90.39,1,-0.004,0.013,-0.0001,0.25,1,-0.0001,0,0,0,0,0,0,1,1,0,0,VALID,0,0,0,0,0,1,0,0,0,0,0,0,0,0,0,0,0,0,0,0,203.01,513.07,2,0,0.08,0.08,149,14.29,0.08,0.06,9.74,LANDED,CF1-J,0:/Integrated Flight Computer/aircraft/cf1_j_cfg.ks (inferred preloaded)
10.16,TAKEOFF,TO_GROUND_ROLL,16.64,80,63.36,3.62,-0.09,-0.11,0.19,90.41,0.104,1,0,0,0,0,0,0,0,0,0,0,0,0,0,0,90.39,0,1,0,-0.31,0,0,0,90,0,0,0,0,0,0,0,0,-0.005,0,0,3,0,0,0,69,0,0,0,90.39,1,-0.005,0.019,-0.0001,0.25,1,-0.0001,0,0,0,0,0,0,1,1,0,0,VALID,0,0,0,0,0,1,0,0,0,0,0,0,0,0,0,0,0,0,0,0,208.02,512.66,2,0,0.08,0.08,153,14.29,0.08,0.06,10.02,LANDED,CF1-J,0:/Integrated Flight Computer/aircraft/cf1_j_cfg.ks (inferred preloaded)
10.44,TAKEOFF,TO_GROUND_ROLL,17.69,80,62.31,3.62,-0.1,-0.1,0.19,90.42,0.103,1,0,0,0,0,0,0,0,0,0,0,0,0,0,0,90.39,0,1,0,-0.32,0,0,0.01,90,0,0,0,0,0,0,0,0,-0.006,0,0,3,0,0,0,69,0,0,0,90.39,1,-0.006,0.024,-0.0002,0.25,1,-0.0002,0,0,0,0,0,0,1,1,0,0,VALID,0,0,0,0,0,1,0,0,0,0,0,0,0,0,0,0,0,0,0,0,212.92,512.24,2,0,0.08,0.08,157,14.29,0.08,0.06,10.3,LANDED,CF1-J,0:/Integrated Flight Computer/aircraft/cf1_j_cfg.ks (inferred preloaded)
10.72,TAKEOFF,TO_GROUND_ROLL,18.77,80,61.23,3.62,-0.1,-0.1,0.19,90.42,0.102,1,0,0,0,0,0,0,0,0,0,0,0,0,0,0,90.39,0,1,0,-0.31,0,0,0.01,90,0,0,0,0,0,0,0,0,-0.006,0,0,3,0,0,0,69,0,0,0,90.39,1,-0.006,0.027,-0.0002,0.25,1,-0.0002,0,0,0,0,0,0,1,1,0,0,VALID,0,0,0,0,0,1,0,0,0,0,0,0,0,0,0,0,0,0,0,0,217.72,511.79,2,0,0.08,0.08,161,14.29,0.08,0.06,10.58,LANDED,CF1-J,0:/Integrated Flight Computer/aircraft/cf1_j_cfg.ks (inferred preloaded)
11,TAKEOFF,TO_GROUND_ROLL,19.88,80,60.12,3.62,-0.11,-0.1,0.19,90.42,0.102,1,0,0,0,0,0,0,0,0,0,0,0,0,0,0,90.39,0,1,0,-0.31,0,0,0.01,90,0,0,0,0,0,0,0,0,-0.007,0,0,3,0,0,0,69,0,0,0,90.39,1,-0.007,0.029,-0.0002,0.25,1,-0.0002,0,0,0,0,0,0,1,1,0,0,VALID,0,0,0,0,0,1,0,0,0,0,0,0,0,0,0,0,0,0,0,0,222.42,511.33,2,0,0.08,0.08,165,14.29,0.08,0.06,10.86,LANDED,CF1-J,0:/Integrated Flight Computer/aircraft/cf1_j_cfg.ks (inferred preloaded)
11.28,TAKEOFF,TO_GROUND_ROLL,21,80,59,3.62,-0.11,-0.1,0.19,90.42,0.104,1,0,0,0,0,0,0,0,0,0,0,0,0,0,0,90.39,0,1,0,-0.31,0,0,0.01,90,0,0,0,0,0,0,0,0,-0.008,0,0,3,0,0,0,69,0,0,0,90.39,1,-0.008,0.03,-0.0002,0.261,0,-0.0002,0,0,0,0,0,0,1,1,0,0,VALID,0,0,0,0,0,1,0,0,0,0,0,0,0,0,0,0,0,0,0,0,227.03,510.85,2,0,0.08,0.08,169,14.29,0.08,0.06,11.14,LANDED,CF1-J,0:/Integrated Flight Computer/aircraft/cf1_j_cfg.ks (inferred preloaded)
11.56,TAKEOFF,TO_GROUND_ROLL,22.15,80,57.85,3.63,-0.12,-0.1,0.2,90.42,0.105,1,0,0,0,0,0,0,0,0,0,0,0,0,0,0,90.39,0,1,0,-0.31,0,0,0.01,90,0,0,0,0,0,0,0,0,-0.009,0,0,3,0,0,0,69,0,0,0,90.39,1,-0.009,0.032,-0.0002,0.273,0,-0.0002,0,0,0,0,0,0,1,1,0,0,VALID,0,0,0,0,0,1,0,0,0,0,0,0,0,0,0,0,0,0,0,0,231.53,510.34,2,0,0.08,0.08,173,14.29,0.08,0.06,11.42,LANDED,CF1-J,0:/Integrated Flight Computer/aircraft/cf1_j_cfg.ks (inferred preloaded)
11.84,TAKEOFF,TO_GROUND_ROLL,23.32,80,56.68,3.63,-0.13,-0.09,0.2,90.42,0.104,1,0,0,0,0,0,0,0,0,0,0,0,0,0,0,90.39,0,1,0,-0.31,0,0,0.01,90,0,0,0,0,0,0,0,0,-0.01,0,0,3,0,0,0,69,0,0,0,90.39,1,-0.01,0.034,-0.0003,0.286,0,-0.0003,0,0,0,0,0,0,1,1,0,0,VALID,0,0,0,0,0,1,0,0,0,0,0,0,0,0,0,0,0,0,0,0,235.94,509.82,2,0,0.08,0.08,177,14.29,0.08,0.06,11.7,LANDED,CF1-J,0:/Integrated Flight Computer/aircraft/cf1_j_cfg.ks (inferred preloaded)
12.12,TAKEOFF,TO_GROUND_ROLL,24.51,80,55.49,3.63,-0.13,-0.09,0.2,90.42,0.104,1,0,0,0,0,0,0,0,0,0,0,0,0,0,0,90.39,0,1,0,-0.31,0,0,0.01,90,0,0,0,0,0,0,0,0,-0.011,0,0,3,0,0,0,69,0,0,0,90.39,1,-0.011,0.033,-0.0003,0.298,0,-0.0003,0,0,0,0,0,0,1,1,0,0,VALID,0,0,0,0,0,1,0,0,0,0,0,0,0,0,0,0,0,0,0,0,240.24,509.27,2,0,0.08,0.08,181,14.29,0.08,0.06,11.98,LANDED,CF1-J,0:/Integrated Flight Computer/aircraft/cf1_j_cfg.ks (inferred preloaded)
12.4,TAKEOFF,TO_GROUND_ROLL,25.72,80,54.28,3.63,-0.14,-0.09,0.2,90.42,0.103,1,0,0,0,0,0,0,0,0,0,0,0,0,0,0,90.39,0,1,0,-0.31,0,0,0.01,90,0,0,0,0,0,0,0,0,-0.012,0,0,3,0,0,0,69,0,0,0,90.39,1,-0.012,0.034,-0.0003,0.311,0,-0.0003,0,0,0,0,0,0,1,1,0,0,VALID,0,0,0,0,0,1,0,0,0,0,0,0,0,0,0,0,0,0,0,0,244.46,508.71,2,0,0.08,0.08,185,14.29,0.08,0.06,12.26,LANDED,CF1-J,0:/Integrated Flight Computer/aircraft/cf1_j_cfg.ks (inferred preloaded)
12.68,TAKEOFF,TO_GROUND_ROLL,26.95,80,53.05,3.63,-0.14,-0.09,0.2,90.42,0.103,1,0,0,0,0,0,0,0,0,0,0,0,0,0,0,90.39,0,1,0,-0.31,0,0,0.01,90,0,0,0,0,0,0,0,0,-0.014,0,0,3,0,0,0,69,0,0,0,90.39,1,-0.014,0.035,-0.0003,0.324,0,-0.0003,0,0,0,0,0,0,1,1,0,0,VALID,0,0,0,0,0,1,0,0,0,0,0,0,0,0,0,0,0,0,0,0,248.58,508.12,2,0,0.08,0.08,189,14.29,0.08,0.06,12.54,LANDED,CF1-J,0:/Integrated Flight Computer/aircraft/cf1_j_cfg.ks (inferred preloaded)
12.96,TAKEOFF,TO_GROUND_ROLL,28.2,80,51.8,3.63,-0.15,-0.08,0.2,90.42,0.103,1,0,0,0,0,0,0,0,0,0,0,0,0,0,0,90.38,0,1,0,-0.31,0,0,0.01,90,0,0,0,0,0,0,0,0,-0.015,0,0,3,0,0,0,69,0,0,0,90.38,1,-0.015,0.036,-0.0003,0.338,0,-0.0003,0,0,0,0,0,0,1,1,0,0,VALID,0,0,0,0,0,1,0,0,0,0,0,0,0,0,0,0,0,0,0,0,252.6,507.51,2,0,0.08,0.08,193,14.29,0.08,0.06,12.82,LANDED,CF1-J,0:/Integrated Flight Computer/aircraft/cf1_j_cfg.ks (inferred preloaded)
13.24,TAKEOFF,TO_GROUND_ROLL,29.47,80,50.53,3.63,-0.16,-0.08,0.21,90.42,0.102,1,0,0,0,0,0,0,0,0,0,0,0,0,0,0,90.38,0,1,0,-0.31,0,0,0.01,90,0,0,0,0,0,0,0,0,-0.016,0,0,3,0,0,0,69,0,0,0,90.38,1,-0.016,0.038,-0.0004,0.351,0,-0.0004,0,0,0,0,0,0,1,1,0,0,VALID,0,0,0,0,0,1,0,0,0,0,0,0,0,0,0,0,0,0,0,0,256.54,506.89,2,0,0.08,0.08,197,14.29,0.08,0.06,13.1,LANDED,CF1-J,0:/Integrated Flight Computer/aircraft/cf1_j_cfg.ks (inferred preloaded)
13.52,TAKEOFF,TO_GROUND_ROLL,30.75,80,49.25,3.63,-0.16,-0.08,0.21,90.42,0.102,1,0,0,0,0,0,0,0,0,0,0,0,0,0,0,90.38,0,1,0,-0.3,0,0,0.01,90,0,0,0,0,0,0,0,0,-0.017,0,0,3,0,0,0,69,0,0,0,90.38,1,-0.017,0.038,-0.0004,0.365,0,-0.0004,0,0,0,0,0,0,1,1,0,0,VALID,0,0,0,0,0,1,0,0,0,0,0,0,0,0,0,0,0,0,0,0,260.38,506.24,2,0,0.08,0.08,201,14.29,0.08,0.06,13.38,LANDED,CF1-J,0:/Integrated Flight Computer/aircraft/cf1_j_cfg.ks (inferred preloaded)
13.8,TAKEOFF,TO_GROUND_ROLL,32.06,80,47.94,3.63,-0.17,-0.08,0.21,90.42,0.103,1,0,0,0,0,0,0,0,0,0,0,0,0,0,0,90.38,0,1,0,-0.3,0,0,0.01,90,0,0,0,0,0,0,0,0,-0.019,0,0,3,0,0,0,69,0,0,0,90.38,1,-0.019,0.04,-0.0004,0.379,0,-0.0004,0,0,0,0,0,0,1,1,0,0,VALID,0,0,0,0,0,1,0,0,0,0,0,0,0,0,0,0,0,0,0,0,264.13,505.57,2,0,0.08,0.08,205,14.29,0.08,0.06,13.66,LANDED,CF1-J,0:/Integrated Flight Computer/aircraft/cf1_j_cfg.ks (inferred preloaded)
14.08,TAKEOFF,TO_GROUND_ROLL,33.38,80,46.62,3.63,-0.18,-0.08,0.21,90.42,0.103,1,0,0,0,0,0,0,0,0,0,0,0,0,0,0,90.38,0,1,0,-0.3,0,0,0.01,90,0,0,0,0,0,0,0,0,-0.02,0,0,3,0,0,0,69,0,0,0,90.38,1,-0.02,0.041,-0.0004,0.393,0,-0.0004,0,0,0,0,0,0,1,1,0,0,VALID,0,0,0,0,0,1,0,0,0,0,0,0,0,0,0,0,0,0,0,0,267.79,504.88,2,0,0.08,0.08,209,14.29,0.08,0.06,13.94,LANDED,CF1-J,0:/Integrated Flight Computer/aircraft/cf1_j_cfg.ks (inferred preloaded)
14.36,TAKEOFF,TO_GROUND_ROLL,34.72,80,45.28,3.63,-0.18,-0.07,0.21,90.42,0.103,1,0,0,0,0,0,0,0,0,0,0,0,0,0,0,90.38,0,1,0,-0.3,0,0,0.02,90,0,0,0,0,0,0,0,0,-0.022,0,0,3,0,0,0,69,0,0,0,90.38,1,-0.022,0.043,-0.0005,0.408,0,-0.0005,0,0,0,0,0,0,1,1,0,0,VALID,0,0,0,0,0,1,0,0,0,0,0,0,0,0,0,0,0,0,0,0,271.36,504.17,2,0,0.08,0.08,213,14.29,0.08,0.06,14.22,LANDED,CF1-J,0:/Integrated Flight Computer/aircraft/cf1_j_cfg.ks (inferred preloaded)
14.64,TAKEOFF,TO_GROUND_ROLL,36.07,80,43.93,3.63,-0.19,-0.07,0.21,90.42,0.102,1,0,0,0,0,0,0,0,0,0,0,0,0,0,0,90.38,0,1,0,-0.3,0,0,0.02,90,0,0,0,0,0,0,0,0,-0.023,0,0,3,0,0,0,69,0,0,0,90.38,1,-0.023,0.044,-0.0005,0.422,0,-0.0005,0,0,0,0,0,0,1,1,0,0,VALID,0,0,0,0,0,1,0,0,0,0,0,0,0,0,0,0,0,0,0,0,274.84,503.43,2,0,0.08,0.08,217,14.29,0.08,0.06,14.5,LANDED,CF1-J,0:/Integrated Flight Computer/aircraft/cf1_j_cfg.ks (inferred preloaded)
14.92,TAKEOFF,TO_GROUND_ROLL,37.45,80,42.55,3.63,-0.2,-0.07,0.21,90.42,0.102,1,0,0,0,0,0,0,0,0,0,0,0,0,0,0,90.38,0,1,0,-0.3,0,0,0.02,90,0,0,0,0,0,0,0,0,-0.025,0,0,3,0,0,0,69,0,0,0,90.38,1,-0.025,0.046,-0.0005,0.437,0,-0.0005,0,0,0,0,0,0,1,1,0,0,VALID,0,0,0,0,0,1,0,0,0,0,0,0,0,0,0,0,0,0,0,0,278.24,502.68,2,0,0.08,0.08,221,14.29,0.08,0.06,14.78,LANDED,CF1-J,0:/Integrated Flight Computer/aircraft/cf1_j_cfg.ks (inferred preloaded)
15.2,TAKEOFF,TO_GROUND_ROLL,38.83,80,41.17,3.63,-0.2,-0.07,0.21,90.42,0.101,1,0,0,0,0,0,0,0,0,0,0,0,0,0,0,90.37,0,1,0,-0.3,0,0,0.02,90,0,0,0,0,0,0,0,0,-0.027,0,0,3,0,0,0,69,0,0,0,90.37,1,-0.027,0.049,-0.0006,0.452,0,-0.0006,0,0,0,0,0,0,1,1,0,0,VALID,0,0,0,0,0,1,0,0,0,0,0,0,0,0,0,0,0,0,0,0,281.55,501.91,2,0,0.08,0.08,225,14.29,0.08,0.06,15.06,LANDED,CF1-J,0:/Integrated Flight Computer/aircraft/cf1_j_cfg.ks (inferred preloaded)
15.48,TAKEOFF,TO_GROUND_ROLL,40.23,80,39.77,3.63,-0.21,-0.06,0.22,90.42,0.1,1,0,0,0,0,0,0,0,0,0,0,0,0,0,0,90.37,0,1,0,-0.3,0,0,0.02,90,0,0,0,0,0,0,0,0,-0.028,0,0,3,0,0,0,69,0,0,0,90.37,1,-0.028,0.054,-0.0007,0.467,0,-0.0007,0,0,0,0,0,0,1,1,0,0,VALID,0,0,0,0,0,1,0,0,0,0,0,0,0,0,0,0,0,0,0,0,284.77,501.12,2,0,0.08,0.08,229,14.29,0.08,0.06,15.34,LANDED,CF1-J,0:/Integrated Flight Computer/aircraft/cf1_j_cfg.ks (inferred preloaded)
15.76,TAKEOFF,TO_GROUND_ROLL,41.65,80,38.35,3.63,-0.21,-0.06,0.22,90.43,0.099,1,0,0,0,0,0,0,0,0,0,0,0,0,0,0,90.37,0,1,0,-0.29,0,0,0.02,90,0,0,0,0,0,0,0,0,-0.03,0,0,3,0,0,0,69,0,0,0,90.37,1,-0.03,0.059,-0.0008,0.482,0,-0.0008,0,0,0,0,0,0,1,1,0,0,VALID,0,0,0,0,0,1,0,0,0,0,0,0,0,0,0,0,0,0,0,0,287.91,500.31,2,0,0.08,0.08,233,14.29,0.08,0.06,15.62,LANDED,CF1-J,0:/Integrated Flight Computer/aircraft/cf1_j_cfg.ks (inferred preloaded)
16.04,TAKEOFF,TO_GROUND_ROLL,43.07,80,36.93,3.63,-0.22,-0.06,0.22,90.43,0.097,1,0,0,0,0,0,0,0,0,0,0,0,0,0,0,90.37,0,1,0,-0.29,0,0,0.02,90,0,0,0,0,0,0,0,0,-0.032,0,0,3,0,0,0,69,0,0,0,90.37,1,-0.032,0.065,-0.0009,0.497,0,-0.0009,0,0,0,0,0,0,1,1,0,0,VALID,0,0,0,0,0,1,0,0,0,0,0,0,0,0,0,0,0,0,0,0,290.97,499.47,2,0,0.08,0.08,237,14.29,0.08,0.06,15.9,LANDED,CF1-J,0:/Integrated Flight Computer/aircraft/cf1_j_cfg.ks (inferred preloaded)
16.32,TAKEOFF,TO_GROUND_ROLL,44.52,80,35.48,3.63,-0.23,-0.06,0.22,90.43,0.096,1,0,0,0,0,0,0,0,0,0,0,0,0,0,0,90.36,0,1,0,-0.29,0,0,0.02,90,0,0,0,0,0,0,0,0,-0.034,0,0,3,0,0,0,69,0,0,0,90.36,1,-0.034,0.073,-0.0011,0.513,0,-0.0011,0,0,0,0,0,0,1,1,0,0,VALID,0,0,0,0,0,1,0,0,0,0,0,0,0,0,0,0,0,0,0,0,293.95,498.62,2,0,0.08,0.08,241,14.29,0.08,0.06,16.18,LANDED,CF1-J,0:/Integrated Flight Computer/aircraft/cf1_j_cfg.ks (inferred preloaded)
16.6,TAKEOFF,TO_GROUND_ROLL,45.97,80,34.03,3.63,-0.23,-0.05,0.22,90.44,0.094,1,0,0,0,0,0,0,0,0,0,0,0,0,0,0,90.36,0,1,0,-0.29,0,0,0.02,90,0,0,0,0,0,0,0,0,-0.036,0,0,3,0,0,0,69,0,0,0,90.36,1,-0.036,0.083,-0.0013,0.528,0,-0.0013,0,0,0,0,0,0,1,1,0,0,VALID,0,0,0,0,0,1,0,0,0,0,0,0,0,0,0,0,0,0,0,0,296.84,497.76,2,0,0.08,0.08,245,14.29,0.08,0.06,16.46,LANDED,CF1-J,0:/Integrated Flight Computer/aircraft/cf1_j_cfg.ks (inferred preloaded)
16.88,TAKEOFF,TO_GROUND_ROLL,47.44,80,32.56,3.63,-0.24,-0.05,0.22,90.45,0.092,1,0,0,0,0,0,0,0,0,0,0,0,0,0,0,90.35,0,1,0,-0.29,0,0,0.03,90,0,0,0,0,0,0,0,0,-0.038,0,0,3,0,0,0,69,0,0,0,90.35,1,-0.038,0.097,-0.0016,0.544,0,-0.0016,0,0,0,0,0,0,1,1,0,0,VALID,0,0,0,0,0,1,0,0,0,0,0,0,0,0,0,0,0,0,0,0,299.66,496.87,2,0,0.08,0.08,249,14.29,0.08,0.06,16.74,LANDED,CF1-J,0:/Integrated Flight Computer/aircraft/cf1_j_cfg.ks (inferred preloaded)
17.16,TAKEOFF,TO_GROUND_ROLL,48.91,80,31.09,3.64,-0.25,-0.05,0.22,90.46,0.088,1,0,0,0,0,0,0,0,0,0,0,0,0,0,0,90.35,0,1,0,-0.29,0,0,0.03,90,0,0,0,0,0,0,0,0,-0.041,0,0,3,0,0,0,69,0,0,0,90.35,1,-0.041,0.115,-0.002,0.56,0,-0.002,0,0,0,0,0,0,1,1,0,0,VALID,0,0,0,0,0,1,0,0,0,0,0,0,0,0,0,0,0,0,0,0,302.4,495.96,2,0,0.08,0.08,253,14.29,0.08,0.06,17.02,LANDED,CF1-J,0:/Integrated Flight Computer/aircraft/cf1_j_cfg.ks (inferred preloaded)
17.44,TAKEOFF,TO_GROUND_ROLL,50.4,80,29.6,3.64,-0.25,-0.05,0.23,90.48,0.082,1,0,0,0,0,0,0,0,0,0,0,0,0,0,0,90.34,0,1,0,-0.28,0,0,0.03,90,0,0,0,0,0,0,0,0,-0.043,0,0,3,0,0,0,69,0,0,0,90.34,1,-0.043,0.139,-0.0025,0.576,0,-0.0025,0,0,0,0,0,0,1,1,0,0,VALID,0,0,0,0,0,1,0,0,0,0,0,0,0,0,0,0,0,0,0,0,305.06,495.04,2,0,0.08,0.08,257,14.29,0.08,0.06,17.3,LANDED,CF1-J,0:/Integrated Flight Computer/aircraft/cf1_j_cfg.ks (inferred preloaded)
17.72,TAKEOFF,TO_GROUND_ROLL,51.9,80,28.1,3.64,-0.26,-0.04,0.23,90.5,0.075,1,0,0,0,0,0,0,0,0,0,0,0,0,0,0,90.34,0,1,0,-0.28,0,0,0.03,90,0,0,0,0,0,0,0,0,-0.046,0,0,3,0,0,0,69,0,0,0,90.34,1,-0.046,0.168,-0.0033,0.592,0,-0.0033,0,0,0,0,0,0,1,1,0,0,VALID,0,0,0,0,0,1,0,0,0,0,0,0,0,0,0,0,0,0,0,0,307.64,494.1,2,0,0.08,0.08,261,14.29,0.08,0.06,17.58,LANDED,CF1-J,0:/Integrated Flight Computer/aircraft/cf1_j_cfg.ks (inferred preloaded)
18,TAKEOFF,TO_GROUND_ROLL,53.41,80,26.59,3.64,-0.26,-0.01,0.26,90.53,0.068,1,0,0,0,0,0,0,0,0,0,0,0,0,0,0,90.33,0,1,0,-0.28,0,0,0.03,90,0,0,0,0,0,0,0,0,-0.049,0,0,3,0,0,0,69,0,0,0,90.33,1,-0.049,0.2,-0.0043,0.608,0,-0.0043,0,0,0,0,0,0,1,1,0,0,VALID,0,0,0,0,0,1,0,0,0,0,0,0,0,0,0,0,0,0,0,0,310.15,493.15,2,0,0.08,0.08,265,14.29,0.08,0.06,17.86,LANDED,CF1-J,0:/Integrated Flight Computer/aircraft/cf1_j_cfg.ks (inferred preloaded)
18.28,TAKEOFF,TO_GROUND_ROLL,54.93,80,25.07,3.65,-0.27,0.04,0.3,90.56,0.064,1,0,0,0,0,0,0,0,0,0,0,0,0,0,0,90.33,0,1,0,-0.28,0,0,0.03,90,0,0,0,0,0,0,0,0,-0.052,0,0,3,0,0,0,69,0,0,0,90.33,1,-0.052,0.233,-0.0053,0.624,0,-0.0053,0,0,0,0,0,0,1,1,0,0,VALID,0,0,0,0,0,1,0,0,0,0,0,0,0,0,0,0,0,0,0,0,312.59,492.17,2,0,0.08,0.08,269,14.29,0.08,0.06,18.14,LANDED,CF1-J,0:/Integrated Flight Computer/aircraft/cf1_j_cfg.ks (inferred preloaded)
18.56,TAKEOFF,TO_GROUND_ROLL,56.46,80,23.54,3.67,-0.18,0.1,0.29,90.59,0.063,1,0,0,0,0,0,0,0,0,0,0,0,0,0,0,90.32,0,1,0,-0.18,0,0,0.03,90,0,0,0,0,0,0,0,0,-0.055,0,0,3,0,0,0,69,0,0,0,90.32,1,-0.055,0.267,-0.0066,0.641,0,-0.0066,0,0,0,0,0,0,1,1,0,0,VALID,0,0,0,0,0,1,0,0,0,0,0,0,0,0,0,0,0,0,0,0,314.95,491.19,2,0,0.08,0.08,273,14.29,0.08,0.06,18.42,LANDED,CF1-J,0:/Integrated Flight Computer/aircraft/cf1_j_cfg.ks (inferred preloaded)
18.84,TAKEOFF,TO_GROUND_ROLL,58,80,22,3.69,-0.32,0.2,0.5,90.62,0.07,1,0,0,0,0,0,0,0,0,0,0,0,0,0,0,90.32,0,1,0,-0.31,0,0,0.04,90,0,0,0,0,0,0,0,0,-0.058,0,0,3,0,0,0,69,0,0,0,90.32,1,-0.058,0.302,-0.008,0.657,0,-0.008,0,0,0,0,0,0,1,1,0,0,VALID,0,0,0,0,0,1,0,0,0,0,0,0,0,0,0,0,0,0,0,0,317.24,490.18,2,0,0.08,0.08,277,14.29,0.08,0.06,18.7,LANDED,CF1-J,0:/Integrated Flight Computer/aircraft/cf1_j_cfg.ks (inferred preloaded)
19.12,TAKEOFF,TO_GROUND_ROLL,59.54,80,20.46,3.71,-0.27,0.32,0.55,90.65,0.074,1,0,0,0,0,0,0,0,0,0,0,0,0,0,0,90.32,0,1,0,-0.26,0,0,0.04,90,0,0,0,0,0,0,0,0,-0.062,0,0,3,0,0,0,69,0,0,0,90.32,1,-0.062,0.334,-0.0094,0.674,0,-0.0094,0,0,0,0,0,0,1,1,0,0,VALID,0,0,0,0,0,1,0,0,0,0,0,0,0,0,0,0,0,0,0,0,319.46,489.17,2,0,0.08,0.08,281,14.29,0.08,0.06,18.98,LANDED,CF1-J,0:/Integrated Flight Computer/aircraft/cf1_j_cfg.ks (inferred preloaded)
19.4,TAKEOFF,TO_GROUND_ROLL,61.09,80,18.91,3.73,-0.28,0.42,0.67,90.68,0.074,1,0,0,0,0,0,0,0,0,0,0,0,0,0,0,90.32,0,1,0,-0.26,0,0,0.04,90,0,0,0,0,0,0,0,0,-0.066,0,0,3,0,0,0,69,0,0,0,90.32,1,-0.066,0.363,-0.0108,0.69,0,-0.0108,0,0,0,0,0,0,1,1,0,0,VALID,0,0,0,0,0,1,0,0,0,0,0,0,0,0,0,0,0,0,0,0,321.61,488.14,2,0,0.08,0.08,285,14.29,0.08,0.06,19.26,LANDED,CF1-J,0:/Integrated Flight Computer/aircraft/cf1_j_cfg.ks (inferred preloaded)
19.68,TAKEOFF,TO_GROUND_ROLL,62.64,80,17.36,3.74,-0.3,0.5,0.75,90.7,0.072,1,0,0,0,0,0,0,0,0,0,0,0,0,0,0,90.31,0,1,0,-0.27,0,0,0.04,90,0,0,0,0,0,0,0,0,-0.071,0,0,3,0,0,0,69,0,0,0,90.31,1,-0.071,0.39,-0.0123,0.707,0,-0.0123,0,0,0,0,0,0,1,1,0,0,VALID,0,0,0,0,0,1,0,0,0,0,0,0,0,0,0,0,0,0,0,0,323.7,487.1,2,0,0.08,0.08,289,14.29,0.08,0.06,19.54,LANDED,CF1-J,0:/Integrated Flight Computer/aircraft/cf1_j_cfg.ks (inferred preloaded)
19.96,TAKEOFF,TO_GROUND_ROLL,64.21,80,15.79,3.75,-0.3,0.54,0.8,90.72,0.074,1,0,0,0,0,0,0,0,0,0,0,0,0,0,0,90.31,0,1,0,-0.27,0,0,0.04,90,0,0,0,0,0,0,0,0,-0.075,0,0,3,0,0,0,69,0,0,0,90.31,1,-0.075,0.412,-0.0134,0.724,0,-0.0134,0,0,0,0,0,0,1,1,0,0,VALID,0,0,0,0,0,1,0,0,0,0,0,0,0,0,0,0,0,0,0,0,325.72,486.05,2,0,0.08,0.08,293,14.29,0.08,0.06,19.82,LANDED,CF1-J,0:/Integrated Flight Computer/aircraft/cf1_j_cfg.ks (inferred preloaded)
20.24,TAKEOFF,TO_GROUND_ROLL,65.77,80,14.23,3.76,-0.31,0.57,0.83,90.74,0.078,1,0,0,0,0,0,0,0,0,0,0,0,0,0,0,90.31,0,1,0,-0.27,0,0,0.04,90,0,0,0,0,0,0,0,0,-0.08,0,0,3,0,0,0,69,0,0,0,90.31,1,-0.08,0.433,-0.0144,0.74,0,-0.0144,0,0,0,0,0,0,1,1,0,0,VALID,0,0,0,0,0,1,0,0,0,0,0,0,0,0,0,0,0,0,0,0,327.68,484.99,2,0,0.08,0.08,297,14.29,0.08,0.06,20.1,LANDED,CF1-J,0:/Integrated Flight Computer/aircraft/cf1_j_cfg.ks (inferred preloaded)
20.52,TAKEOFF,TO_GROUND_ROLL,67.34,80,12.66,3.76,-0.31,0.6,0.85,90.76,0.081,1,0,0,0,0,0,0,0,0,0,0,0,0,0,0,90.3,0,1,0,-0.26,0,0,0.05,90,0,0,0,0,0,0,0,0,-0.085,0,0,3,0,0,0,69,0,0,0,90.3,1,-0.085,0.451,-0.0154,0.757,0,-0.0154,0,0,0,0,0,0,1,1,0,0,VALID,0,0,0,0,0,1,0,0,0,0,0,0,0,0,0,0,0,0,0,0,329.57,483.92,2,0,0.08,0.08,301,14.29,0.08,0.06,20.38,LANDED,CF1-J,0:/Integrated Flight Computer/aircraft/cf1_j_cfg.ks (inferred preloaded)
20.8,TAKEOFF,TO_GROUND_ROLL,68.92,80,11.08,3.77,-0.31,0.65,0.9,90.77,0.084,1,0,0,0,0,0,0,0,0,0,0,0,0,0,0,90.3,0,1,0,-0.26,0,0,0.05,90,0,0,0,0,0,0,0,0,-0.091,0,0,3,0,0,0,69,0,0,0,90.3,1,-0.091,0.467,-0.0163,0.774,0,-0.0163,0,0,0,0,0,0,1,1,0,0,VALID,0,0,0,0,0,1,0,0,0,0,0,0,0,0,0,0,0,0,0,0,331.41,482.83,2,0,0.08,0.08,305,14.29,0.08,0.06,20.66,LANDED,CF1-J,0:/Integrated Flight Computer/aircraft/cf1_j_cfg.ks (inferred preloaded)
21.1,TAKEOFF,TO_ROTATE,70.61,80,9.39,3.79,-0.32,0.72,0.96,90.78,0.085,1,0,0,0,0,0,0,0,0,0,0,0,0,0,0,90.3,0.937,1,0,-0.26,0,0,0.05,90,0,0,0,0,0,0,0,0,-0.096,0,0,3,0,0,0,69,0,0,0,90.3,1,-0.096,0.481,-0.0171,0.791,0,-0.0171,0,0.12,0.937,0.22,0.08,0,1,1,0,0,VALID,0,0,0,0,0,1,0,0,0,0,0,0,0,0,0,0,0,0,0,0,333.3,481.67,2,0,0.08,0.08,309,13.33,0.08,0.06,20.94,LANDED,CF1-J,0:/Integrated Flight Computer/aircraft/cf1_j_cfg.ks (inferred preloaded)
21.38,TAKEOFF,TO_ROTATE,72.19,80,7.81,3.81,-0.32,0.81,1.06,90.79,0.086,1,0,0,0,0,0,0,0,0,0,0,0,0,0,0,90.29,1.777,1,0,-0.25,0,0,0.05,90,0,0,0,0,0,0,0,0,-0.102,0,0,3,0,0,0,69,0,0,0,90.29,1,-0.102,0.493,-0.0179,0.808,0,-0.0179,0,0.1571,1.777,0.964,0.08,0,1,1,0,0,VALID,0,0,0,0,0,1,0,0,0,0,0,0,0,0,0,0,0,0,0,0,335.01,480.57,2,0,0.08,0.08,313,14.29,0.08,0.06,21.22,LANDED,CF1-J,0:/Integrated Flight Computer/aircraft/cf1_j_cfg.ks (inferred preloaded)
21.68,TAKEOFF,TO_ROTATE,73.89,80,6.11,3.84,-0.32,1.01,1.25,90.79,0.088,1,0,0,0,0,0,0,0,0,0,0,0,0,0,0,90.29,2.677,1,0,-0.24,0,0,0.05,90,0,0,0,0,0,0,0,0,-0.108,0,0,3,0,0,0,69,0,0,0,90.29,1,-0.108,0.504,-0.0187,0.826,0,-0.0187,0,0.2131,2.677,1.663,0.08,0,1,1,0,0,VALID,0,0,0,0,0,1,0,0,0,0,0,0,0,0,0,0,0,0,0,0,336.78,479.38,2,0,0.08,0.08,317,13.33,0.08,0.06,21.52,LANDED,CF1-J,0:/Integrated Flight Computer/aircraft/cf1_j_cfg.ks (inferred preloaded)
21.96,TAKEOFF,TO_ROTATE,75.47,80,4.53,3.89,-0.3,1.29,1.51,90.79,0.092,1,0,0,0,0,0,0,0,0,0,0,0,0,0,0,90.29,3.517,1,0,-0.23,0,0,0.06,90,0,0,0,0,0,0,0,0,-0.114,0,0,3,0,0,0,69,0,0,0,90.29,1,-0.114,0.509,-0.0193,0.843,0,-0.0193,0,0.2582,3.517,2.228,0.08,0,1,1,0,0,VALID,0,0,0,0,0,1,0,0,0,0,0,0,0,0,0,0,0,0,0,0,338.38,478.28,2,0,0.08,0.08,321,14.29,0.08,0.06,21.8,LANDED,CF1-J,0:/Integrated Flight Computer/aircraft/cf1_j_cfg.ks (inferred preloaded)
22.24,TAKEOFF,TO_ROTATE,77.04,80,2.96,3.97,-0.26,1.65,1.84,90.79,0.092,1,0,0,0,0,0,0,0,0,0,0,0,0,0,0,90.28,4.357,1,0,-0.2,0,0,0.06,90,0,0,0,0,0,0,0,0,-0.12,0,0,3,0,0,0,69,0,0,0,90.28,1,-0.12,0.511,-0.0198,0.86,0,-0.0198,0,0.2968,4.357,2.71,0.08,0,1,1,0,0,VALID,0,0,0,0,0,1,0,0,0,0,0,0,0,0,0,0,0,0,0,0,339.92,477.17,2,0,0.08,0.08,325,14.29,0.08,0.06,22.08,LANDED,CF1-J,0:/Integrated Flight Computer/aircraft/cf1_j_cfg.ks (inferred preloaded)
22.52,TAKEOFF,TO_ROTATE,78.6,80,1.4,4.1,-0.35,2.15,2.37,90.79,0.095,1,0,0,0,0,0,0,0,0,0,0,0,0,0,0,90.28,5.197,1,0,-0.23,0,0,0.06,90,0,0,0,0,0,0,0,0,-0.126,0,0,3,0,0,0,69,0,0,0,90.28,1,-0.126,0.513,-0.0202,0.877,0,-0.0202,0,0.3236,5.197,3.045,0.08,0,1,1,0,0,VALID,0,0,0,0,0,1,0,0,0,0,0,0,0,0,0,0,0,0,0,0,341.42,476.06,2,0,0.08,0.08,329,14.29,0.08,0.06,22.36,LANDED,CF1-J,0:/Integrated Flight Computer/aircraft/cf1_j_cfg.ks (inferred preloaded)
22.8,TAKEOFF,TO_ROTATE,80.14,80,-0.14,4.27,-0.13,3.02,3.11,90.78,0.093,1,0,0,0,0,0,0,0,0,0,0,0,0,0,0,90.27,6.037,1,0,-0.09,0,0,0.06,90,0,0,0,0,0,0,0,0,-0.133,0,0,3,0,0,0,69,0,0,0,90.27,1,-0.133,0.51,-0.0205,0.893,0,-0.0205,0,0.3217,6.037,3.021,0.08,0,1,1,0,0,VALID,0,0,0,0,0,1,0,0,0,0,0,0,0,0,0,0,0,0,0,0,342.87,474.97,2,0,0.08,0.08,333,14.29,0.08,0.06,22.64,LANDED,CF1-J,0:/Integrated Flight Computer/aircraft/cf1_j_cfg.ks (inferred preloaded)
23.08,TAKEOFF,TO_ROTATE,81.65,80,-1.65,4.48,-0.23,4.1,4.26,90.77,0.089,1,0,0,0,0,0,0,0,0,0,0,0,0,0,0,90.27,6.877,1,0,-0.17,0,0,0.07,90,0,0,0,0,0,0,0,0,-0.139,0,0,3,0,0,0,69,0,0,0,90.27,1,-0.139,0.505,-0.0207,0.909,0,-0.0207,0,0.3022,6.877,2.778,0.08,0,1,1,0,0,VALID,0,0,0,0,0,1,0,0,0,0,0,0,0,0,0,0,0,0,0,0,344.3,473.9,2,0,0.08,0.08,337,14.29,0.08,0.06,22.92,LANDED,CF1-J,0:/Integrated Flight Computer/aircraft/cf1_j_cfg.ks (inferred preloaded)
23.36,TAKEOFF,TO_ROTATE,83.09,80,-3.09,4.73,-0.06,5.3,5.35,90.76,0.066,1,0,0,0,0,0,0,0,0,0,0,0,0,0,0,90.27,7.717,1,0,-0.05,0,0,0.07,90,0,0,0,0,0,0,0,0,-0.146,0,0,3,0,0,0,69,0,0,0,90.27,1,-0.146,0.492,-0.0205,0.925,0,-0.0205,0,0.2734,7.717,2.417,0.08,0,1,1,0,0,VALID,0,0,0,0,0,1,0,0,0,0,0,0,0,0,0,0,0,0,0,0,345.71,472.88,2,0,0.08,0.08,341,14.29,0.08,0.06,23.2,LANDED,CF1-J,0:/Integrated Flight Computer/aircraft/cf1_j_cfg.ks (inferred preloaded)
23.62,TAKEOFF,TO_ROTATE,84.36,80,-4.36,5.01,0.54,6.2,5.86,90.75,0.028,1,0,0,0,0,0,0,0,0,0,0,0,0,0,0,90.4,8.557,0,1,0.37,0,0,8.32,90.4,-0.173,-0.0068,0.9849,8.56,90.4,0,0,0,0,0,0,3,0,0,0,69,0,0,0,90.4,1,0,0.354,0,0,3,0,0,0,8.557,2.354,0,0,1,1,0,0,VALID,0,0,0,0,0,1,0,0,0,0,0,0,0,0,0,0,0,0,0,0,347,471.96,2,0,0.08,0.08,345,15.38,0.08,0.06,23.46,FLYING,CF1-J,0:/Integrated Flight Computer/aircraft/cf1_j_cfg.ks (inferred preloaded)
23.9,TAKEOFF,TO_ROTATE,85.68,80,-5.68,5.36,1.23,6.17,5.41,90.76,-0.048,1,0,0,0,0,0,0,0,0,0,0,0,0,0,0,90.4,9.397,0,1,0.82,0,0,9.16,90.4,-0.1586,-0.0068,0.9873,9.4,90.4,0,0,0,0,0,0,3,0,0,0,69,0,0,0,90.4,1,0,0.362,0,0,3,0,0,0,9.397,3.232,0,0,1,1,0,0,VALID,0,0,0,0,0,1,0,0,0,0,0,0,0,0,0,0,0,0,0,0,348.38,471,2,0,0.08,0.08,349,14.29,0.08,0.06,23.74,FLYING,CF1-J,0:/Integrated Flight Computer/aircraft/cf1_j_cfg.ks (inferred preloaded)
24.18,TAKEOFF,TO_CLIMB,87,80,-7,5.91,1.78,6.32,5.21,90.75,-0.082,1,0,0,0,0,0,0,0,0,0,0,0,0,0,0,90.4,10,0,1,1.17,0,0,10,90.4,-0.1482,-0.0067,0.9889,10,90.4,0,0,0,0,0,0,3,0,0,0,69,0,0,0,90.4,1,0,0.354,0,0,3,0,0,0,10,3.678,0,0,1,1,0,0,VALID,0,0,0,0,0,1,0,0,0,0,0,0,0,0,0,0,0,0,0,0,349.69,470.02,2,0,0.08,0.08,353,14.29,0.08,0.06,24.02,FLYING,CF1-J,0:/Integrated Flight Computer/aircraft/cf1_j_cfg.ks (inferred preloaded)
24.46,TAKEOFF,TO_CLIMB,88.32,80,-8.32,6.63,2.49,6.49,4.99,90.74,-0.148,0.9168,0,0,0,0,0,0,0,0,0,0,0,0,0,0,90.4,6.77,0,1,1.62,0,0,6.64,90.4,-0.2037,-0.0068,0.979,6.77,90.4,0,0,0,0,0,0,3,0,0,0,69,0,0,0,90.4,1,0,0.345,0,0,3,0,0,0,10,3.678,0,0,1,1,0,0,VALID,0,0,0,0,0,1,0,0,0,0,0,0,0,0,0,0,0,0,0,0,350.73,469.04,2,0,0.08,0.08,357,14.29,0.08,0.06,24.3,FLYING,CF1-J,0:/Integrated Flight Computer/aircraft/cf1_j_cfg.ks (inferred preloaded)
24.74,TAKEOFF,TO_CLIMB,89.63,80,-9.63,7.45,3.01,6.05,4.21,90.74,-0.194,0.9037,0,0,0,0,0,0,0,0,0,0,0,0,0,0,90.4,7.218,0,1,1.92,0,0,7.09,90.4,-0.1961,-0.0068,0.9806,7.22,90.4,0,0,0,0,0,0,3,0,0,0,69,0,0,0,90.4,1,0,0.336,0,0,3,0,0,0,10,3.678,0,0,1,1,0,0,VALID,0,0,0,0,0,1,0,0,0,0,0,0,0,0,0,0,0,0,0,0,351.29,468.05,2,0,0.08,0.08,361,14.29,0.08,0.06,24.58,FLYING,CF1-J,0:/Integrated Flight Computer/aircraft/cf1_j_cfg.ks (inferred preloaded)
25.02,TAKEOFF,TO_CLIMB,90.96,80,-10.96,8.49,3.45,6.27,4.17,90.73,-0.218,0.8904,0,0,0,0,0,0,0,0,0,0,0,0,0,0,90.4,7.666,0,1,2.17,0,0,7.54,90.4,-0.1885,-0.0068,0.982,7.67,90.4,0,0,0,0,0,0,3,0,0,0,69,0,0,0,90.4,1,0,0.328,0,0,3,0,0,0,10,3.678,0,0,1,1,0,0,VALID,0,0,0,0,0,1,0,0,0,0,0,0,0,0,0,0,0,0,0,0,351.69,467.03,2,0,0.08,0.08,365,14.29,0.08,0.06,24.86,FLYING,CF1-J,0:/Integrated Flight Computer/aircraft/cf1_j_cfg.ks (inferred preloaded)
25.3,TAKEOFF,TO_CLIMB,92.27,80,-12.27,9.66,4.07,6.29,3.88,90.72,-0.272,0.8773,0,0,0,0,0,0,0,0,0,0,0,0,0,0,90.4,8,0,1,2.52,0,0,7.99,90.4,-0.1828,-0.0068,0.9831,8,90.4,0,0,0,0,0,0,3,0,0,0,69,0,0,0,90.4,1,0,0.317,0,0,3,0,0,0,10,3.678,0,0,1,1,0,0,VALID,0,0,0,0,0,1,0,0,0,0,0,0,0,0,0,0,0,0,0,0,351.97,466.02,2,0,0.08,0.08,369,14.29,0.08,0.06,25.14,FLYING,CF1-J,0:/Integrated Flight Computer/aircraft/cf1_j_cfg.ks (inferred preloaded)
25.58,TAKEOFF,TO_CLIMB,93.58,80,-13.58,11,4.56,6.5,3.81,90.7,-0.32,0.8642,0,0,0,0,0,0,0,0,0,0,0,0,0,0,90.4,8,0,1,2.79,0,0,8,90.4,-0.1829,-0.0068,0.9831,8,90.4,0,0,0,0,0,0,3,0,0,0,69,0,0,0,90.4,1,0,0.303,0,0,3,0,0,0,10,3.678,0,0,1,1,0,0,VALID,0,0,0,0,0,1,0,0,0,0,0,0,0,0,0,0,0,0,0,0,352.13,465,2,0,0.08,0.08,373,14.29,0.08,0.06,25.42,FLYING,CF1-J,0:/Integrated Flight Computer/aircraft/cf1_j_cfg.ks (inferred preloaded)
25.86,TAKEOFF,TO_CLIMB,94.87,80,-14.87,12.47,5.18,6.55,3.55,90.69,-0.363,0.8513,0,0,0,0,0,0,0,0,0,0,0,0,0,0,90.4,8,0,1,3.12,0,0,8,90.4,-0.1829,-0.0068,0.9831,8,90.4,0,0,0,0,0,0,3,0,0,0,69,0,0,0,90.4,1,0,0.29,0,0,3,0,0,0,10,3.678,0,0,1,1,0,0,VALID,0,0,0,0,0,1,0,0,0,0,0,0,0,0,0,0,0,0,0,0,352.16,463.98,2,0,0.08,0.08,377,14.29,0.08,0.06,25.7,FLYING,CF1-J,0:/Integrated Flight Computer/aircraft/cf1_j_cfg.ks (inferred preloaded)
26.14,TAKEOFF,TO_CLIMB,96.15,80,-16.15,14.14,5.8,6.79,3.48,90.67,-0.411,0.8385,0,0,0,0,0,0,0,0,0,0,0,0,0,0,90.4,8,0,1,3.45,0,0,8,90.4,-0.1829,-0.0068,0.9831,8,90.4,0,0,0,0,0,0,3,0,0,0,69,0,0,0,90.4,1,0,0.275,0,0,3,0,0,0,10,3.678,0,0,1,1,0,0,VALID,0,0,0,0,0,1,0,0,0,0,0,0,0,0,0,0,0,0,0,0,352.08,462.96,2,0,0.08,0.08,381,14.29,0.08,0.06,25.98,FLYING,CF1-J,0:/Integrated Flight Computer/aircraft/cf1_j_cfg.ks (inferred preloaded)
26.42,TAKEOFF,TO_CLIMB,97.42,80,-17.42,15.98,6.4,6.92,3.29,90.66,-0.451,0.8258,0,0,0,0,0,0,0,0,0,0,0,0,0,0,90.4,8,0,1,3.76,0,0,8,90.4,-0.183,-0.0068,0.9831,8,90.4,0,0,0,0,0,0,3,0,0,0,69,0,0,0,90.4,1,0,0.26,0,0,3,0,0,0,10,3.678,0,0,1,1,0,0,VALID,0,0,0,0,0,1,0,0,0,0,0,0,0,0,0,0,0,0,0,0,351.88,461.94,2,0,0.08,0.08,385,14.29,0.08,0.06,26.26,FLYING,CF1-J,0:/Integrated Flight Computer/aircraft/cf1_j_cfg.ks (inferred preloaded)
26.7,TAKEOFF,TO_CLIMB,98.67,80,-18.67,18,7.09,7.07,3.11,90.64,-0.491,0.8133,0,0,0,0,0,0,0,0,0,0,0,0,0,0,90.4,8,0,1,4.11,0,0,8,90.4,-0.183,-0.0068,0.9831,8,90.4,0,0,0,0,0,0,3,0,0,0,69,0,0,0,90.4,1,0,0.243,0,0,3,0,0,0,10,3.678,0,0,1,1,0,0,VALID,0,0,0,0,0,1,0,0,0,0,0,0,0,0,0,0,0,0,0,0,351.58,460.93,2,0,0.08,0.08,389,14.29,0.08,0.06,26.54,FLYING,CF1-J,0:/Integrated Flight Computer/aircraft/cf1_j_cfg.ks (inferred preloaded)
26.98,TAKEOFF,TO_CLIMB,99.9,80,-19.9,20.21,7.75,7.24,2.96,90.63,-0.528,0.801,0,0,0,0,0,0,0,0,0,0,0,0,0,0,90.4,8,0,1,4.44,0,0,8,90.4,-0.1831,-0.0068,0.9831,8,90.4,0,0,0,0,0,0,3,0,0,0,69,0,0,0,90.4,1,0,0.226,0,0,3,0,0,0,10,3.678,0,0,1,1,0,0,VALID,0,0,0,0,0,1,0,0,0,0,0,0,0,0,0,0,0,0,0,0,351.17,459.91,2,0,0.08,0.08,393,14.29,0.08,0.06,26.82,FLYING,CF1-J,0:/Integrated Flight Computer/aircraft/cf1_j_cfg.ks (inferred preloaded)
27.26,TAKEOFF,TO_CLIMB,101.12,80,-21.12,22.6,8.43,7.34,2.74,90.61,-0.557,0.7888,0,0,0,0,0,0,0,0,0,0,0,0,0,0,90.4,8,0,1,4.77,0,0,8,90.4,-0.1831,-0.0068,0.9831,8,90.4,0,0,0,0,0,0,3,0,0,0,69,0,0,0,90.4,1,0,0.209,0,0,3,0,0,0,10,3.678,0,0,1,1,0,0,VALID,0,0,0,0,0,1,0,0,0,0,0,0,0,0,0,0,0,0,0,0,350.66,458.89,2,0,0.08,0.08,397,14.29,0.08,0.06,27.1,FLYING,CF1-J,0:/Integrated Flight Computer/aircraft/cf1_j_cfg.ks (inferred preloaded)
27.54,TAKEOFF,TO_CLIMB,102.32,80,-22.32,25.16,9.06,7.33,2.44,90.59,-0.567,0.78,0,0,0,0,0,0,0,0,0,0,0,0,0,0,90.4,8,0,1,5.06,0,0,8,90.4,-0.1832,-0.0068,0.9831,8,90.4,0,0,0,0,0,0,3,0,0,0,69,0,0,0,90.4,1,0,0.195,0,0,3,0,0,0,10,3.678,0,0,1,1,0,0,VALID,0,0,0,0,0,1,0,0,0,0,0,0,0,0,0,0,0,0,0,0,350.05,457.87,2,0,0.08,0.08,401,14.29,0.08,0.06,27.38,FLYING,CF1-J,0:/Integrated Flight Computer/aircraft/cf1_j_cfg.ks (inferred preloaded)
27.82,TAKEOFF,TO_CLIMB,103.52,80,-23.52,27.9,9.66,7.37,2.23,90.58,-0.571,0.78,0,0,0,0,0,0,0,0,0,0,0,0,0,0,90.4,8,0,1,5.33,0,0,8,90.4,-0.1832,-0.0068,0.983,8,90.4,0,0,0,0,0,0,3,0,0,0,69,0,0,0,90.4,1,0,0.18,0,0,3,0,0,0,10,3.678,0,0,1,1,0,0,VALID,0,0,0,0,0,1,0,0,0,0,0,0,0,0,0,0,0,0,0,0,349.39,456.85,2,0,0.08,0.08,405,14.29,0.08,0.06,27.66,FLYING,CF1-J,0:/Integrated Flight Computer/aircraft/cf1_j_cfg.ks (inferred preloaded)
28.1,TAKEOFF,TO_CLIMB,104.71,80,-24.71,30.78,10.2,7.37,1.98,90.57,-0.563,0.78,0,0,0,0,0,0,0,0,0,0,0,0,0,0,90.4,8,0,1,5.56,0,0,8,90.4,-0.1833,-0.0068,0.983,8,90.4,0,0,0,0,0,0,3,0,0,0,69,0,0,0,90.4,1,0,0.167,0,0,3,0,0,0,10,3.678,0,0,1,1,0,0,VALID,0,0,0,0,0,1,0,0,0,0,0,0,0,0,0,0,0,0,0,0,348.73,455.83,2,0,0.08,0.08,409,14.29,0.08,0.06,27.94,FLYING,CF1-J,0:/Integrated Flight Computer/aircraft/cf1_j_cfg.ks (inferred preloaded)
28.38,TAKEOFF,TO_CLIMB,105.89,80,-25.89,33.82,10.74,7.38,1.78,90.55,-0.552,0.78,0,0,0,0,0,0,0,0,0,0,0,0,0,0,90.4,8,0,1,5.79,0,0,8,90.4,-0.1833,-0.0068,0.983,8,90.4,0,0,0,0,0,0,3,0,0,0,69,0,0,0,90.4,1,0,0.153,0,0,3,0,0,0,10,3.678,0,0,1,1,0,0,VALID,0,0,0,0,0,1,0,0,0,0,0,0,0,0,0,0,0,0,0,0,348.06,454.81,2,0,0.08,0.08,413,14.29,0.08,0.06,28.22,FLYING,CF1-J,0:/Integrated Flight Computer/aircraft/cf1_j_cfg.ks (inferred preloaded)
28.66,TAKEOFF,TO_CLIMB,107.06,80,-27.06,37.01,11.24,7.43,1.63,90.54,-0.537,0.78,0,0,0,0,0,0,0,0,0,0,0,0,0,0,90.4,8,0,1,5.99,0,0,8,90.4,-0.1834,-0.0068,0.983,8,90.4,0,0,0,0,0,0,3,0,0,0,69,0,0,0,90.4,1,0,0.14,0,0,3,0,0,0,10,3.678,0,0,1,1,0,0,VALID,0,0,0,0,0,1,0,0,0,0,0,0,0,0,0,0,0,0,0,0,347.38,453.78,2,0,0.08,0.08,417,14.29,0.08,0.06,28.5,FLYING,CF1-J,0:/Integrated Flight Computer/aircraft/cf1_j_cfg.ks (inferred preloaded)
28.94,TAKEOFF,TO_CLIMB,108.22,80,-28.22,40.32,11.7,7.42,1.43,90.53,-0.515,0.78,0,0,0,0,0,0,0,0,0,0,0,0,0,0,90.4,8,0,1,6.17,0,0,8,90.4,-0.1834,-0.0068,0.983,8,90.4,0,0,0,0,0,0,3,0,0,0,69,0,0,0,90.4,1,0,0.128,0,0,3,0,0,0,10,3.678,0,0,1,1,0,0,VALID,0,0,0,0,0,1,0,0,0,0,0,0,0,0,0,0,0,0,0,0,346.71,452.76,2,0,0.08,0.08,421,14.29,0.08,0.06,28.78,FLYING,CF1-J,0:/Integrated Flight Computer/aircraft/cf1_j_cfg.ks (inferred preloaded)
29.22,TAKEOFF,TO_CLIMB,109.37,80,-29.37,43.77,12.18,7.42,1.26,90.52,-0.492,0.78,0,0,0,0,0,0,0,0,0,0,0,0,0,0,90.4,8,0,1,6.35,0,0,8,90.4,-0.1835,-0.0068,0.983,8,90.4,0,0,0,0,0,0,3,0,0,0,69,0,0,0,90.4,1,0,0.116,0,0,3,0,0,0,10,3.678,0,0,1,1,0,0,VALID,0,0,0,0,0,1,0,0,0,0,0,0,0,0,0,0,0,0,0,0,346.04,451.74,2,0,0.08,0.08,425,14.29,0.08,0.06,29.06,FLYING,CF1-J,0:/Integrated Flight Computer/aircraft/cf1_j_cfg.ks (inferred preloaded)
29.5,TAKEOFF,TO_CLIMB,110.52,80,-30.52,47.34,12.6,7.42,1.11,90.51,-0.462,0.78,0,0,0,0,0,0,0,0,0,0,0,0,0,0,90.4,8,0,1,6.5,0,0,8,90.4,-0.1835,-0.0068,0.983,8,90.4,0,0,0,0,0,0,3,0,0,0,69,0,0,0,90.4,1,0,0.106,0,0,3,0,0,0,10,3.678,0,0,1,1,0,0,VALID,0,0,0,0,0,1,0,0,0,0,0,0,0,0,0,0,0,0,0,0,345.36,450.72,2,0,0.08,0.08,429,14.29,0.08,0.06,29.34,FLYING,CF1-J,0:/Integrated Flight Computer/aircraft/cf1_j_cfg.ks (inferred preloaded)
29.78,TAKEOFF,TO_CLIMB,111.65,80,-31.65,51.01,13,7.35,0.9,90.5,-0.426,0.78,0,0,0,0,0,0,0,0,0,0,0,0,0,0,90.4,8,0,1,6.64,0,0,8,90.4,-0.1836,-0.0068,0.983,8,90.4,0,0,0,0,0,0,3,0,0,0,69,0,0,0,90.4,1,0,0.097,0,0,3,0,0,0,10,3.678,0,0,1,1,0,0,VALID,0,0,0,0,0,1,0,0,0,0,0,0,0,0,0,0,0,0,0,0,344.68,449.7,2,0,0.08,0.08,433,14.29,0.08,0.06,29.62,FLYING,CF1-J,0:/Integrated Flight Computer/aircraft/cf1_j_cfg.ks (inferred preloaded)
30.06,TAKEOFF,TO_CLIMB,112.78,80,-32.78,54.8,13.37,7.32,0.76,90.49,-0.389,0.78,0,0,0,0,0,0,0,0,0,0,0,0,0,0,90.4,8,0,1,6.76,0,0,8,90.4,-0.1836,-0.0068,0.983,8,90.4,0,0,0,0,0,0,3,0,0,0,69,0,0,0,90.4,1,0,0.088,0,0,3,0,0,0,10,3.678,0,0,1,1,0,0,VALID,0,0,0,0,0,1,0,0,0,0,0,0,0,0,0,0,0,0,0,0,344,448.68,2,0,0.08,0.08,437,14.29,0.08,0.06,29.9,FLYING,CF1-J,0:/Integrated Flight Computer/aircraft/cf1_j_cfg.ks (inferred preloaded)
30.34,TAKEOFF,TO_CLIMB,113.91,80,-33.91,58.68,13.69,7.28,0.62,90.48,-0.35,0.78,0,0,0,0,0,0,0,0,0,0,0,0,0,0,90.4,8,0,1,6.85,0,0,8,90.4,-0.1837,-0.0068,0.983,8,90.4,0,0,0,0,0,0,3,0,0,0,69,0,0,0,90.4,1,0,0.08,0,0,3,0,0,0,10,3.678,0,0,1,1,0,0,VALID,0,0,0,0,0,1,0,0,0,0,0,0,0,0,0,0,0,0,0,0,343.32,447.66,2,0,0.08,0.08,441,14.29,0.08,0.06,30.18,FLYING,CF1-J,0:/Integrated Flight Computer/aircraft/cf1_j_cfg.ks (inferred preloaded)
30.62,TAKEOFF,TO_CLIMB,115.02,80,-35.02,62.68,14.01,7.26,0.51,90.47,-0.316,0.78,0,0,0,0,0,0,0,0,0,0,0,0,0,0,90.4,8,0,1,6.94,0,0,8,90.4,-0.1837,-0.0068,0.9829,8,90.4,0,0,0,0,0,0,3,0,0,0,69,0,0,0,90.4,1,0,0.073,0,0,3,0,0,0,10,3.678,0,0,1,1,0,0,VALID,0,0,0,0,0,1,0,0,0,0,0,0,0,0,0,0,0,0,0,0,342.65,446.65,2,0,0.08,0.08,445,14.29,0.08,0.06,30.46,FLYING,CF1-J,0:/Integrated Flight Computer/aircraft/cf1_j_cfg.ks (inferred preloaded)
30.9,TAKEOFF,TO_CLIMB,116.13,80,-36.13,66.74,14.32,7.25,0.41,90.47,-0.286,0.78,0,0,0,0,0,0,0,0,0,0,0,0,0,0,90.4,8,0,1,7.03,0,0,8,90.4,-0.1838,-0.0068,0.9829,8,90.4,0,0,0,0,0,0,3,0,0,0,69,0,0,0,90.4,1,0,0.066,0,0,3,0,0,0,10,3.678,0,0,1,1,0,0,VALID,0,0,0,0,0,1,0,0,0,0,0,0,0,0,0,0,0,0,0,0,341.97,445.64,2,0,0.08,0.08,449,14.29,0.08,0.06,30.74,FLYING,CF1-J,0:/Integrated Flight Computer/aircraft/cf1_j_cfg.ks (inferred preloaded)
31.18,TAKEOFF,TO_CLIMB,117.23,80,-37.23,70.88,14.63,7.23,0.31,90.46,-0.259,0.78,0,0,0,0,0,0,0,0,0,0,0,0,0,0,90.4,8,0,1,7.11,0,0,8,90.4,-0.1839,-0.0068,0.9829,8,90.4,0,0,0,0,0,0,3,0,0,0,69,0,0,0,90.4,1,0,0.06,0,0,3,0,0,0,10,3.678,0,0,1,1,0,0,VALID,0,0,0,0,0,1,0,0,0,0,0,0,0,0,0,0,0,0,0,0,341.29,444.63,2,0,0.08,0.08,453,14.29,0.08,0.06,31.02,FLYING,CF1-J,0:/Integrated Flight Computer/aircraft/cf1_j_cfg.ks (inferred preloaded)
31.46,TAKEOFF,TO_CLIMB,118.32,80,-38.32,75.11,14.93,7.22,0.22,90.45,-0.236,0.78,0,0,0,0,0,0,0,0,0,0,0,0,0,0,90.4,8,0,1,7.19,0,0,8,90.4,-0.1839,-0.0068,0.9829,8,90.4,0,0,0,0,0,0,3,0,0,0,69,0,0,0,90.4,1,0,0.054,0,0,3,0,0,0,10,3.678,0,0,1,1,0,0,VALID,0,0,0,0,0,1,0,0,0,0,0,0,0,0,0,0,0,0,0,0,340.61,443.63,2,0,0.08,0.08,457,14.29,0.08,0.06,31.3,FLYING,CF1-J,0:/Integrated Flight Computer/aircraft/cf1_j_cfg.ks (inferred preloaded)
31.74,TAKEOFF,TO_CLIMB,119.4,80,-39.4,79.42,15.22,7.2,0.13,90.45,-0.215,0.78,0,0,0,0,0,0,0,0,0,0,0,0,0,0,90.4,8,0,1,7.27,0,0,8,90.4,-0.184,-0.0068,0.9829,8,90.4,0,0,0,0,0,0,3,0,0,0,69,0,0,0,90.4,1,0,0.049,0,0,3,0,0,0,10,3.678,0,0,1,1,0,0,VALID,0,0,0,0,0,1,0,0,0,0,0,0,0,0,0,0,0,0,0,0,339.94,442.64,2,0,0.08,0.08,461,14.29,0.08,0.06,31.58,FLYING,CF1-J,0:/Integrated Flight Computer/aircraft/cf1_j_cfg.ks (inferred preloaded)
32.02,TAKEOFF,TO_CLIMB,120.47,80,-40.47,83.82,15.51,7.18,0.04,90.44,-0.196,0.78,0,0,0,0,0,0,0,0,0,0,0,0,0,0,90.4,8,0,1,7.34,0,0,8,90.4,-0.184,-0.0068,0.9829,8,90.4,0,0,0,0,0,0,3,0,0,0,69,0,0,0,90.4,1,0,0.044,0,0,3,0,0,0,10,3.678,0,0,1,1,0,0,VALID,0,0,0,0,0,1,0,0,0,0,0,0,0,0,0,0,0,0,0,0,339.27,441.65,2,0,0.08,0.08,465,14.29,0.08,0.06,31.86,FLYING,CF1-J,0:/Integrated Flight Computer/aircraft/cf1_j_cfg.ks (inferred preloaded)
32.3,TAKEOFF,TO_CLIMB,121.53,80,-41.53,88.28,15.79,7.17,-0.04,90.44,-0.179,0.78,0,0,0,0,0,0,0,0,0,0,0,0,0,0,90.4,8,0,1,7.4,0,0,8,90.4,-0.1841,-0.0068,0.9829,8,90.4,0,0,0,0,0,0,3,0,0,0,69,0,0,0,90.4,1,0,0.04,0,0,3,0,0,0,10,3.678,0,0,1,1,0,0,VALID,0,0,0,0,0,1,0,0,0,0,0,0,0,0,0,0,0,0,0,0,338.6,440.66,2,0,0.08,0.08,469,14.29,0.08,0.06,32.14,FLYING,CF1-J,0:/Integrated Flight Computer/aircraft/cf1_j_cfg.ks (inferred preloaded)
32.58,TAKEOFF,TO_CLIMB,122.58,80,-42.58,92.83,16.06,7.15,-0.13,90.44,-0.164,0.78,0,0,0,0,0,0,0,0,0,0,0,0,0,0,90.4,8,0,1,7.47,0,0,8,90.4,-0.1841,-0.0068,0.9829,8,90.4,0,0,0,0,0,0,3,0,0,0,69,0,0,0,90.4,1,0,0.036,0,0,3,0,0,0,10,3.678,0,0,1,1,0,0,VALID,0,0,0,0,0,1,0,0,0,0,0,0,0,0,0,0,0,0,0,0,337.94,439.68,2,0,0.08,0.08,473,14.29,0.08,0.06,32.42,FLYING,CF1-J,0:/Integrated Flight Computer/aircraft/cf1_j_cfg.ks (inferred preloaded)
32.86,TAKEOFF,TO_CLIMB,123.63,80,-43.63,97.45,16.33,7.13,-0.21,90.43,-0.151,0.78,0,0,0,0,0,0,0,0,0,0,0,0,0,0,90.4,8,0,1,7.52,0,0,8,90.4,-0.1842,-0.0068,0.9829,8,90.4,0,0,0,0,0,0,3,0,0,0,69,0,0,0,90.4,1,0,0.033,0,0,3,0,0,0,10,3.678,0,0,1,1,0,0,VALID,0,0,0,0,0,1,0,0,0,0,0,0,0,0,0,0,0,0,0,0,337.27,438.71,2,0,0.08,0.08,477,14.29,0.08,0.06,32.7,FLYING,CF1-J,0:/Integrated Flight Computer/aircraft/cf1_j_cfg.ks (inferred preloaded)
33.14,TAKEOFF,TO_CLIMB,124.66,80,-44.66,102.14,16.59,7.1,-0.28,90.43,-0.137,0.78,0,0,0,0,0,0,0,0,0,0,0,0,0,0,90.4,8,0,1,7.58,0,0,8,90.4,-0.1843,-0.0068,0.9829,8,90.4,0,0,0,0,0,0,3,0,0,0,69,0,0,0,90.4,1,0,0.029,0,0,3,0,0,0,10,3.678,0,0,1,1,0,0,VALID,0,0,0,0,0,1,0,0,0,0,0,0,0,0,0,0,0,0,0,0,336.61,437.74,2,0,0.08,0.08,481,14.29,0.08,0.06,32.98,FLYING,CF1-J,0:/Integrated Flight Computer/aircraft/cf1_j_cfg.ks (inferred preloaded)
33.42,TAKEOFF,TO_CLIMB,125.69,80,-45.69,106.9,16.84,7.08,-0.36,90.43,-0.126,0.78,0,0,0,0,0,0,0,0,0,0,0,0,0,0,90.4,8,0,1,7.63,0,0,8,90.4,-0.1843,-0.0068,0.9828,8,90.4,0,0,0,0,0,0,3,0,0,0,69,0,0,0,90.4,1,0,0.027,0,0,3,0,0,0,10,3.678,0,0,1,1,0,0,VALID,0,0,0,0,0,1,0,0,0,0,0,0,0,0,0,0,0,0,0,0,335.96,436.78,2,0,0.08,0.08,485,14.29,0.08,0.06,33.26,FLYING,CF1-J,0:/Integrated Flight Computer/aircraft/cf1_j_cfg.ks (inferred preloaded)
33.7,TAKEOFF,TO_CLIMB,126.71,80,-46.71,111.72,17.08,7.05,-0.44,90.42,-0.115,0.78,0,0,0,0,0,0,0,0,0,0,0,0,0,0,90.4,8,0,1,7.68,0,0,8,90.4,-0.1844,-0.0068,0.9828,8,90.4,0,0,0,0,0,0,3,0,0,0,69,0,0,0,90.4,1,0,0.024,0,0,3,0,0,0,10,3.678,0,0,1,1,0,0,VALID,0,0,0,0,0,1,0,0,0,0,0,0,0,0,0,0,0,0,0,0,335.3,435.83,2,0,0.08,0.08,489,14.29,0.08,0.06,33.54,FLYING,CF1-J,0:/Integrated Flight Computer/aircraft/cf1_j_cfg.ks (inferred preloaded)
33.98,TAKEOFF,TO_CLIMB,127.72,80,-47.72,116.62,17.31,7.02,-0.51,90.42,-0.104,0.78,0,0,0,0,0,0,0,0,0,0,0,0,0,0,90.4,8,0,1,7.72,0,0,8,90.4,-0.1844,-0.0068,0.9828,8,90.4,0,0,0,0,0,0,3,0,0,0,69,0,0,0,90.4,1,0,0.022,0,0,3,0,0,0,10,3.678,0,0,1,1,0,0,VALID,0,0,0,0,0,1,0,0,0,0,0,0,0,0,0,0,0,0,0,0,334.65,434.88,2,0,0.08,0.08,493,14.29,0.08,0.06,33.82,FLYING,CF1-J,0:/Integrated Flight Computer/aircraft/cf1_j_cfg.ks (inferred preloaded)
34.26,TAKEOFF,TO_CLIMB,128.72,80,-48.72,121.57,17.53,6.98,-0.58,90.42,-0.093,0.78,0,0,0,0,0,0,0,0,0,0,0,0,0,0,90.4,8,0,1,7.76,0,0,8,90.4,-0.1845,-0.0068,0.9828,8,90.4,0,0,0,0,0,0,3,0,0,0,69,0,0,0,90.4,1,0,0.02,0,0,3,0,0,0,10,3.678,0,0,1,1,0,0,VALID,0,0,0,0,0,1,0,0,0,0,0,0,0,0,0,0,0,0,0,0,334,433.94,2,0,0.08,0.08,497,14.29,0.08,0.06,34.1,FLYING,CF1-J,0:/Integrated Flight Computer/aircraft/cf1_j_cfg.ks (inferred preloaded)
34.54,TAKEOFF,TO_CLIMB,129.72,80,-49.72,126.54,17.74,6.95,-0.64,90.42,-0.082,0.78,0,0,0,0,0,0,0,0,0,0,0,0,0,0,90.4,8,0,1,7.79,0,0,8,90.4,-0.1846,-0.0068,0.9828,8,90.4,0,0,0,0,0,0,3,0,0,0,69,0,0,0,90.4,1,0,0.018,0,0,3,0,0,0,10,3.678,0,0,1,1,0,0,VALID,0,0,0,0,0,1,0,0,0,0,0,0,0,0,0,0,0,0,0,0,333.35,433,2,0,0.08,0.08,501,14.29,0.08,0.06,34.38,FLYING,CF1-J,0:/Integrated Flight Computer/aircraft/cf1_j_cfg.ks (inferred preloaded)
34.82,TAKEOFF,TO_CLIMB,130.7,80,-50.7,131.6,17.95,6.92,-0.71,90.42,-0.074,0.78,0,0,0,0,0,0,0,0,0,0,0,0,0,0,90.4,8,0,1,7.82,0,0,8,90.4,-0.1846,-0.0068,0.9828,8,90.4,0,0,0,0,0,0,3,0,0,0,69,0,0,0,90.4,1,0,0.016,0,0,3,0,0,0,10,3.678,0,0,1,1,0,0,VALID,0,0,0,0,0,1,0,0,0,0,0,0,0,0,0,0,0,0,0,0,332.71,432.07,2,0,0.08,0.08,505,14.29,0.08,0.06,34.66,FLYING,CF1-J,0:/Integrated Flight Computer/aircraft/cf1_j_cfg.ks (inferred preloaded)
35.1,TAKEOFF,TO_CLIMB,131.68,80,-51.68,136.73,18.14,6.89,-0.77,90.41,-0.065,0.78,0,0,0,0,0,0,0,0,0,0,0,0,0,0,90.4,8,0,1,7.85,0,0,8,90.4,-0.1847,-0.0068,0.9828,8,90.4,0,0,0,0,0,0,3,0,0,0,69,0,0,0,90.4,1,0,0.015,0,0,3,0,0,0,10,3.678,0,0,1,1,0,0,VALID,0,0,0,0,0,1,0,0,0,0,0,0,0,0,0,0,0,0,0,0,332.07,431.15,2,0,0.08,0.08,509,14.29,0.08,0.06,34.94,FLYING,CF1-J,0:/Integrated Flight Computer/aircraft/cf1_j_cfg.ks (inferred preloaded)
35.38,TAKEOFF,TO_CLIMB,132.66,80,-52.66,141.9,18.34,6.86,-0.82,90.41,-0.058,0.78,0,0,0,0,0,0,0,0,0,0,0,0,0,0,90.4,8,0,1,7.87,0,0,8,90.4,-0.1847,-0.0068,0.9828,8,90.4,0,0,0,0,0,0,3,0,0,0,69,0,0,0,90.4,1,0,0.014,0,0,3,0,0,0,10,3.678,0,0,1,1,0,0,VALID,0,0,0,0,0,1,0,0,0,0,0,0,0,0,0,0,0,0,0,0,331.43,430.23,2,0,0.08,0.08,513,14.29,0.08,0.06,35.22,FLYING,CF1-J,0:/Integrated Flight Computer/aircraft/cf1_j_cfg.ks (inferred preloaded)
35.66,TAKEOFF,TO_CLIMB,133.62,80,-53.62,147.13,18.52,6.82,-0.88,90.41,-0.054,0.78,0,0,0,0,0,0,0,0,0,0,0,0,0,0,90.4,8,0,1,7.89,0,0,8,90.4,-0.1848,-0.0068,0.9828,8,90.4,0,0,0,0,0,0,3,0,0,0,69,0,0,0,90.4,1,0,0.013,0,0,3,0,0,0,10,3.678,0,0,1,1,0,0,VALID,0,0,0,0,0,1,0,0,0,0,0,0,0,0,0,0,0,0,0,0,330.8,429.32,2,0,0.08,0.08,517,14.29,0.08,0.06,35.5,FLYING,CF1-J,0:/Integrated Flight Computer/aircraft/cf1_j_cfg.ks (inferred preloaded)
35.94,TAKEOFF,TO_CLIMB,134.58,80,-54.58,152.39,18.71,6.79,-0.93,90.41,-0.05,0.78,0,0,0,0,0,0,0,0,0,0,0,0,0,0,90.4,8,0,1,7.91,0,0,8,90.4,-0.1849,-0.0068,0.9827,8,90.4,0,0,0,0,0,0,3,0,0,0,69,0,0,0,90.4,1,0,0.011,0,0,3,0,0,0,10,3.678,0,0,1,1,0,0,VALID,0,0,0,0,0,1,0,0,0,0,0,0,0,0,0,0,0,0,0,0,330.17,428.41,2,0,0.08,0.08,521,14.29,0.08,0.06,35.78,FLYING,CF1-J,0:/Integrated Flight Computer/aircraft/cf1_j_cfg.ks (inferred preloaded)
36.22,TAKEOFF,TO_CLIMB,135.53,80,-55.53,157.75,18.89,6.76,-0.98,90.41,-0.044,0.78,0,0,0,0,0,0,0,0,0,0,0,0,0,0,90.4,8,0,1,7.93,0,0,8,90.4,-0.1849,-0.0068,0.9827,8,90.4,0,0,0,0,0,0,3,0,0,0,69,0,0,0,90.4,1,0,0.011,0,0,3,0,0,0,10,3.678,0,0,1,1,0,0,VALID,0,0,0,0,0,1,0,0,0,0,0,0,0,0,0,0,0,0,0,0,329.55,427.52,2,0,0.08,0.08,525,14.29,0.08,0.06,36.06,FLYING,CF1-J,0:/Integrated Flight Computer/aircraft/cf1_j_cfg.ks (inferred preloaded)
36.5,TAKEOFF,TO_CLIMB,136.47,80,-56.47,163.14,19.06,6.73,-1.03,90.41,-0.04,0.78,0,0,0,0,0,0,0,0,0,0,0,0,0,0,90.4,8,0,1,7.95,0,0,8,90.4,-0.185,-0.0068,0.9827,8,90.4,0,0,0,0,0,0,3,0,0,0,69,0,0,0,90.4,1,0,0.01,0,0,3,0,0,0,10,3.678,0,0,1,1,0,0,VALID,0,0,0,0,0,1,0,0,0,0,0,0,0,0,0,0,0,0,0,0,328.93,426.63,2,0,0.08,0.08,529,14.29,0.08,0.06,36.34,FLYING,CF1-J,0:/Integrated Flight Computer/aircraft/cf1_j_cfg.ks (inferred preloaded)
36.78,TAKEOFF,TO_CLIMB,137.41,80,-57.41,168.56,19.24,6.7,-1.07,90.41,-0.037,0.78,0,0,0,0,0,0,0,0,0,0,0,0,0,0,90.4,8,0,1,7.97,0,0,8,90.4,-0.1851,-0.0068,0.9827,8,90.4,0,0,0,0,0,0,3,0,0,0,69,0,0,0,90.4,1,0,0.009,0,0,3,0,0,0,10,3.678,0,0,1,1,0,0,VALID,0,0,0,0,0,1,0,0,0,0,0,0,0,0,0,0,0,0,0,0,328.31,425.74,2,0,0.08,0.08,533,14.29,0.08,0.06,36.62,FLYING,CF1-J,0:/Integrated Flight Computer/aircraft/cf1_j_cfg.ks (inferred preloaded)
37.06,TAKEOFF,TO_CLIMB,138.33,80,-58.33,174,19.41,6.67,-1.12,90.41,-0.035,0.78,0,0,0,0,0,0,0,0,0,0,0,0,0,0,90.4,8,0,1,7.99,0,0,8,90.4,-0.1851,-0.0068,0.9827,8,90.4,0,0,0,0,0,0,3,0,0,0,69,0,0,0,90.4,1,0,0.008,0,0,3,0,0,0,10,3.678,0,0,1,1,0,0,VALID,0,0,0,0,0,1,0,0,0,0,0,0,0,0,0,0,0,0,0,0,327.7,424.87,2,0,0.08,0.08,537,14.29,0.08,0.06,36.9,FLYING,CF1-J,0:/Integrated Flight Computer/aircraft/cf1_j_cfg.ks (inferred preloaded)
37.34,TAKEOFF,TO_CLIMB,139.25,80,-59.25,179.53,19.57,6.65,-1.16,90.41,-0.033,0.78,0,0,0,0,0,0,0,0,0,0,0,0,0,0,90.4,8,0,1,8,0,0,8,90.4,-0.1852,-0.0068,0.9827,8,90.4,0,0,0,0,0,0,3,0,0,0,69,0,0,0,90.4,1,0,0.008,0,0,3,0,0,0,10,3.678,0,0,1,1,0,0,VALID,0,0,0,0,0,1,0,0,0,0,0,0,0,0,0,0,0,0,0,0,327.09,424,2,0,0.08,0.08,541,14.29,0.08,0.06,37.18,FLYING,CF1-J,0:/Integrated Flight Computer/aircraft/cf1_j_cfg.ks (inferred preloaded)
37.62,TAKEOFF,TO_CLIMB,140.17,80,-60.17,185.08,19.74,6.62,-1.2,90.41,-0.031,0.78,0,0,0,0,0,0,0,0,0,0,0,0,0,0,90.4,8,0,1,8.02,0,0,8,90.4,-0.1853,-0.0068,0.9827,8,90.4,0,0,0,0,0,0,3,0,0,0,69,0,0,0,90.4,1,0,0.007,0,0,3,0,0,0,10,3.678,0,0,1,1,0,0,VALID,0,0,0,0,0,1,0,0,0,0,0,0,0,0,0,0,0,0,0,0,326.49,423.13,2,0,0.08,0.08,545,14.29,0.08,0.06,37.46,FLYING,CF1-J,0:/Integrated Flight Computer/aircraft/cf1_j_cfg.ks (inferred preloaded)
37.9,TAKEOFF,TO_CLIMB,141.07,80,-61.07,190.66,19.9,6.59,-1.24,90.41,-0.031,0.78,0,0,0,0,0,0,0,0,0,0,0,0,0,0,90.4,8,0,1,8.03,0,0,8,90.4,-0.1853,-0.0068,0.9827,8,90.4,0,0,0,0,0,0,3,0,0,0,69,0,0,0,90.4,1,0,0.007,0,0,3,0,0,0,10,3.678,0,0,1,1,0,0,VALID,0,0,0,0,0,1,0,0,0,0,0,0,0,0,0,0,0,0,0,0,325.89,422.28,2,0,0.08,0.08,549,14.29,0.08,0.06,37.74,FLYING,CF1-J,0:/Integrated Flight Computer/aircraft/cf1_j_cfg.ks (inferred preloaded)
38.18,TAKEOFF,TO_CLIMB,141.97,80,-61.97,196.32,20.06,6.56,-1.28,90.41,-0.031,0.78,0,0,0,0,0,0,0,0,0,0,0,0,0,0,90.4,8,0,1,8.04,0,0,8,90.4,-0.1854,-0.0068,0.9826,8,90.4,0,0,0,0,0,0,3,0,0,0,69,0,0,0,90.4,1,0,0.006,0,0,3,0,0,0,10,3.678,0,0,1,1,0,0,VALID,0,0,0,0,0,1,0,0,0,0,0,0,0,0,0,0,0,0,0,0,325.29,421.43,2,0,0.08,0.08,553,14.29,0.08,0.06,38.02,FLYING,CF1-J,0:/Integrated Flight Computer/aircraft/cf1_j_cfg.ks (inferred preloaded)
38.46,TAKEOFF,TO_CLIMB,142.86,80,-62.86,201.95,20.22,6.54,-1.32,90.41,-0.03,0.78,0,0,0,0,0,0,0,0,0,0,0,0,0,0,90.4,8,0,1,8.05,0,0,8,90.4,-0.1855,-0.0068,0.9826,8,90.4,0,0,0,0,0,0,3,0,0,0,69,0,0,0,90.4,1,0,0.006,0,0,3,0,0,0,10,3.678,0,0,1,1,0,0,VALID,0,0,0,0,0,1,0,0,0,0,0,0,0,0,0,0,0,0,0,0,324.7,420.59,2,0,0.08,0.08,557,14.29,0.08,0.06,38.3,FLYING,CF1-J,0:/Integrated Flight Computer/aircraft/cf1_j_cfg.ks (inferred preloaded)
