t_s,phase,subphase,ias_ms,vapp_ms,spd_err_ms,agl_m,vs_ms,pitch_deg,aoa_deg,hdg_deg,bank_deg,thr_cmd,thr_intg,aa_hdg_cmd_deg,aa_fpa_cmd_deg,ils_loc_m,ils_gs_m,ils_dist_km,loc_corr_deg,gs_corr_deg,flare_fpa_cmd,flare_tgt_vs,flare_frac,steer_hdg_deg,steer_blend,ro_loc_corr_deg,ro_hdg_err_deg,ro_yaw_tgt,ro_yaw_scale,ro_yaw_gate,yaw_cmd,roll_cmd,pitch_cmd,ro_pitch_tgt_deg,ro_pitch_err_deg,ro_pitch_ff,ro_roll_assist,flaps_cur,flaps_tgt,phase_el_s,status
0.26,TAKEOFF,TO_PREFLIGHT,0.38,80,79.62,4.47,0.59,2.7,-81.6,90.78,-0.259,0.048,0,90.4,0,0,0,0,0,0,0,0,0,90.4,1,0,0.381,0,0,1,0,0,0,0,0,0,0,0,2,0.3,LANDED
0.46,TAKEOFF,TO_PREFLIGHT,0.32,80,79.68,4.02,-0.44,0.95,74.87,90.78,-0.136,0.096,0,90.4,0,0,0,0,0,0,0,0,0,90.4,1,0,0.374,0,0,1,0,0,0,0,0,0,0,1,2,0.5,LANDED
0.64,TAKEOFF,TO_PREFLIGHT,0.36,80,79.64,3.57,0.12,-0.28,-24.94,90.81,-0.027,0.176,0,90.4,0,0,0,0,0,0,0,0,0,90.4,1,0,0.374,0,0,1,0,0,0,0,0,0,0,1,2,0.68,LANDED
0.84,TAKEOFF,TO_PREFLIGHT,0.43,80,79.57,3.58,0.13,-0.47,-40.71,90.84,0.006,0.248,0,90.4,0,0,0,0,0,0,0,0,0,90.4,1,0,0.374,0,0,1,0,0,0,0,0,0,0,2,2,0.88,LANDED
1.02,TAKEOFF,TO_PREFLIGHT,0.32,80,79.68,3.63,-0.52,-0.06,74.97,90.87,-0.059,0.328,0,90.4,0,0,0,0,0,0,0,0,0,90.4,1,0,0.374,0,0,1,0,0,0,0,0,0,0,2,2,1.06,LANDED
1.24,TAKEOFF,TO_PREFLIGHT,0.05,80,79.95,3.75,0.39,0.32,-69.54,90.9,-0.045,0.416,0,90.4,0,0,0,0,0,0,0,0,0,90.4,1,0,0.374,0,0,1,0,0,0,0,0,0,0,2,2,1.28,LANDED
1.42,TAKEOFF,TO_PREFLIGHT,0.34,80,79.66,3.87,-0.02,0.59,-47.59,90.91,-0.039,0.488,0,90.4,0,0,0,0,0,0,0,0,0,90.4,1,0,0.374,0,0,1,0,0,0,0,0,0,0,2,2,1.46,LANDED
1.6,TAKEOFF,TO_PREFLIGHT,0.2,80,79.8,3.9,-0.25,0.84,78.76,90.91,-0.048,0.56,0,90.4,0,0,0,0,0,0,0,0,0,90.4,1,0,0.374,0,0,1,0,0,0,0,0,0,0,2,2,1.64,LANDED
1.78,TAKEOFF,TO_PREFLIGHT,0.06,80,79.94,3.98,0.27,1.05,-77.88,90.9,-0.046,0.632,0,90.4,0,0,0,0,0,0,0,0,0,90.4,1,0,0.374,0,0,1,0,0,0,0,0,0,0,2,2,1.82,LANDED
1.96,TAKEOFF,TO_PREFLIGHT,0.13,80,79.87,4.03,-0.12,1.2,84.95,90.9,-0.047,0.704,0,90.4,0,0,0,0,0,0,0,0,0,90.4,1,0,0.374,0,0,1,0,0,0,0,0,0,0,2,2,2,LANDED
2.18,TAKEOFF,TO_PREFLIGHT,0.13,80,79.87,4.01,0.01,1.22,29.45,90.89,-0.05,0.776,0,90.4,0,0,0,0,0,0,0,0,0,90.4,1,0,0.374,0,0,1,0,0,0,0,0,0,0,2,2,2.22,LANDED
2.44,TAKEOFF,TO_PREFLIGHT,0.12,80,79.88,3.98,-0.03,1.02,-1.08,90.88,-0.04,0.88,0,90.4,0,0,0,0,0,0,0,0,0,90.4,1,0,0.374,0,0,1,0,0,0,0,0,0,0,2,2,2.48,LANDED
2.66,TAKEOFF,TO_PREFLIGHT,0.19,80,79.81,3.84,-0.04,0.64,18.54,90.87,-0.052,0.968,0,90.4,0,0,0,0,0,0,0,0,0,90.4,1,0,0.374,0,0,1,0,0,0,0,0,0,0,2,2,2.7,LANDED
2.88,TAKEOFF,TO_PREFLIGHT,0.23,80,79.77,3.69,0.07,0.06,-14.22,90.87,-0.05,1,0,90.4,0,0,0,0,0,0,0,0,0,90.4,1,0,0.374,0,0,1,0,0,0,0,0,0,0,2,2,2.92,LANDED
3.1,TAKEOFF,TO_PREFLIGHT,0.28,80,79.72,3.54,-0.03,-0.41,9.62,90.86,-0.057,1,0,90.4,0,0,0,0,0,0,0,0,0,90.4,1,0,0.374,0,0,1,0,0,0,0,0,0,0,2,2,3.14,LANDED
3.32,TAKEOFF,TO_PREFLIGHT,0.09,80,79.91,3.62,-0.09,-0.14,62.82,90.86,-0.044,1,0,90.4,0,0,0,0,0,0,0,0,0,90.4,1,0,0.374,0,0,1,0,0,0,0,0,0,0,2,2,3.36,LANDED
3.58,TAKEOFF,TO_PREFLIGHT,0.12,80,79.88,3.65,-0.02,0.06,23.91,90.86,-0.042,1,0,90.4,0,0,0,0,0,0,0,0,0,90.4,1,0,0.374,0,0,1,0,0,0,0,0,0,0,2,2,3.62,LANDED
3.8,TAKEOFF,TO_PREFLIGHT,0.16,80,79.84,3.63,0.05,-0.06,-17.25,90.86,-0.042,1,0,90.4,0,0,0,0,0,0,0,0,0,90.4,1,0,0.374,0,0,1,0,0,0,0,0,0,0,2,2,3.84,LANDED
4.02,TAKEOFF,TO_PREFLIGHT,0.22,80,79.78,3.59,0.03,-0.22,-8.7,90.86,-0.052,1,0,90.4,0,0,0,0,0,0,0,0,0,90.4,1,0,0.374,0,0,1,0,0,0,0,0,0,0,2,2,4.06,LANDED
4.24,TAKEOFF,TO_PREFLIGHT,0.16,80,79.84,3.6,-0.04,-0.17,15.51,90.85,-0.051,1,0,90.4,0,0,0,0,0,0,0,0,0,90.4,1,0,0.374,0,0,1,0,0,0,0,0,0,0,2,2,4.28,LANDED
4.46,TAKEOFF,TO_PREFLIGHT,0.14,80,79.86,3.61,-0.02,-0.1,10.56,90.85,-0.047,1,0,90.4,0,0,0,0,0,0,0,0,0,90.4,1,0,0.374,0,0,1,0,0,0,0,0,0,0,2,2,4.5,LANDED
4.72,TAKEOFF,TO_PREFLIGHT,0.19,80,79.81,3.6,0.03,-0.14,-8.48,90.85,-0.048,1,0,90.4,0,0,0,0,0,0,0,0,0,90.4,1,0,0.374,0,0,1,0,0,0,0,0,0,0,2,2,4.76,LANDED
4.94,TAKEOFF,TO_PREFLIGHT,0.23,80,79.77,3.59,0.01,-0.21,-3.65,90.85,-0.052,1,0,90.4,0,0,0,0,0,0,0,0,0,90.4,1,0,0.374,0,0,1,0,0,0,0,0,0,0,2,2,4.98,LANDED
5.16,TAKEOFF,TO_PREFLIGHT,0.27,80,79.73,3.59,-0.02,-0.19,3.19,90.85,-0.051,1,0,90.4,0,0,0,0,0,0,0,0,0,90.4,1,0,0.374,0,0,1,0,0,0,0,0,0,0,2,2,5.2,LANDED
5.38,TAKEOFF,TO_PREFLIGHT,0.34,80,79.66,3.6,-0.01,-0.15,1.92,90.85,-0.048,1,0,90.4,0,0,0,0,0,0,0,0,0,90.4,1,0,0.374,0,0,1,0,0,0,0,0,0,0,2,2,5.42,LANDED
5.6,TAKEOFF,TO_PREFLIGHT,0.46,80,79.54,3.6,0.01,-0.16,-1.45,90.86,-0.049,1,0,90.4,0,0,0,0,0,0,0,0,0,90.4,1,0,0.374,0,0,1,0,0,0,0,0,0,0,2,2,5.64,LANDED
5.86,TAKEOFF,TO_PREFLIGHT,0.64,80,79.36,3.59,0,-0.2,-0.49,90.86,-0.05,1,0,90.4,0,0,0,0,0,0,0,0,0,90.4,1,0,0.374,0,0,1,0,0,0,0,0,0,0,2,2,5.9,LANDED
6.08,TAKEOFF,TO_PREFLIGHT,0.8,80,79.2,3.59,-0.01,-0.21,0.38,90.87,-0.051,1,0,90.4,0,0,0,0,0,0,0,0,0,90.4,1,0,0.374,0,0,1,0,0,0,0,0,0,0,2,2,6.12,LANDED
6.3,TAKEOFF,TO_PREFLIGHT,0.92,80,79.08,3.59,0,-0.21,-0.47,90.87,-0.049,1,0,90.4,0,0,0,0,0,0,0,0,0,90.4,1,0,0.374,0,0,1,0,0,0,0,0,0,0,2,2,6.34,LANDED
6.52,TAKEOFF,TO_PREFLIGHT,1.01,80,78.99,3.58,0,-0.23,-0.19,90.88,-0.05,1,0,90.4,0,0,0,0,0,0,0,0,0,90.4,1,0,0.374,0,0,1,0,0,0,0,0,0,0,2,2,6.56,LANDED
6.74,TAKEOFF,TO_PREFLIGHT,1.06,80,78.94,3.58,0,-0.24,-0.26,90.88,-0.049,1,0,90.4,0,0,0,0,0,0,0,0,0,90.4,1,0,0.374,0,0,1,0,0,0,0,0,0,0,2,2,6.78,LANDED
7,TAKEOFF,TO_PREFLIGHT,1.1,80,78.9,3.58,0,-0.24,-0.1,90.89,-0.05,1,0,90.4,0,0,0,0,0,0,0,0,0,90.4,1,0,0.374,0,0,1,0,0,0,0,0,0,0,2,2,7.04,LANDED
7.22,TAKEOFF,TO_PREFLIGHT,1.12,80,78.88,3.58,0,-0.24,-0.14,90.89,-0.05,1,0,90.4,0,0,0,0,0,0,0,0,0,90.4,1,0,0.374,0,0,1,0,0,0,0,0,0,0,2,2,7.26,LANDED
7.44,TAKEOFF,TO_PREFLIGHT,1.15,80,78.85,3.58,0,-0.25,-0.21,90.9,-0.05,1,0,90.4,0,0,0,0,0,0,0,0,0,90.4,1,0,0.374,0,0,1,0,0,0,0,0,0,0,2,2,7.48,LANDED
7.66,TAKEOFF,TO_PREFLIGHT,1.18,80,78.82,3.58,0,-0.26,-0.17,90.9,-0.05,1,0,90.4,0,0,0,0,0,0,0,0,0,90.4,1,0,0.374,0,0,1,0,0,0,0,0,0,0,2,2,7.7,LANDED
7.88,TAKEOFF,TO_PREFLIGHT,1.2,80,78.8,3.57,0,-0.26,-0.17,90.91,-0.049,1,0,90.4,0,0,0,0,0,0,0,0,0,90.4,1,0,0.374,0,0,1,0,0,0,0,0,0,0,2,2,7.92,LANDED
8.14,TAKEOFF,TO_PREFLIGHT,1.22,80,78.78,3.57,0,-0.26,-0.16,90.91,-0.05,1,0,90.4,0,0,0,0,0,0,0,0,0,90.4,1,0,0.374,0,0,1,0,0,0,0,0,0,0,2,2,8.18,LANDED
8.36,TAKEOFF,TO_PREFLIGHT,1.24,80,78.76,3.57,0,-0.27,-0.18,90.92,-0.05,1,0,90.4,0,0,0,0,0,0,0,0,0,90.4,1,0,0.374,0,0,1,0,0,0,0,0,0,0,2,2,8.4,LANDED
8.58,TAKEOFF,TO_PREFLIGHT,1.26,80,78.74,3.57,0,-0.27,-0.19,90.92,-0.05,1,0,90.4,0,0,0,0,0,0,0,0,0,90.4,1,0,0.374,0,0,1,0,0,0,0,0,0,0,2,2,8.62,LANDED
8.8,TAKEOFF,TO_PREFLIGHT,1.28,80,78.72,3.57,0,-0.27,-0.17,90.93,-0.05,1,0,90.4,0,0,0,0,0,0,0,0,0,90.4,1,0,0.374,0,0,1,0,0,0,0,0,0,0,2,2,8.84,LANDED
9.02,TAKEOFF,TO_GROUND_ROLL,1.29,80,78.71,3.57,0,-0.28,-0.19,90.93,-0.05,1,0,90.4,0,0,0,0,0,0,0,0,0,90.4,1,0,0.374,0,0,1,0,0,0,0,0,0,0,2,2,9.06,LANDED
9.34,TAKEOFF,TO_GROUND_ROLL,2.22,80,77.78,3.66,-0.12,0.07,2.24,90.93,-0.05,1,0,90.39,0,0,0,0,-0.009,0,0,0,0,90.39,1,-0.009,0.543,-0.0185,0.568,0,-0.0185,0,0,0,0,0,0,2,2,9.38,LANDED
9.6,TAKEOFF,TO_GROUND_ROLL,3.89,80,76.11,3.77,0.15,0.46,-0.73,90.94,-0.054,1,0,90.39,0,0,0,0,-0.01,0,0,0,0,90.39,1,-0.01,0.544,-0.0191,0.584,0,-0.0191,0,0,0,0,0,0,2,2,9.64,LANDED
9.86,TAKEOFF,TO_GROUND_ROLL,5.63,80,74.37,3.95,-0.07,0.93,1.08,90.94,-0.049,1,0,90.39,0,0,0,0,-0.011,0,0,0,0,90.39,1,-0.011,0.547,-0.0197,0.601,0,-0.0197,0,0,0,0,0,0,2,2,9.9,LANDED
10.12,TAKEOFF,TO_GROUND_ROLL,7.4,80,72.6,4.06,-0.03,1.4,1.76,90.92,-0.052,1,0,90.39,0,0,0,0,-0.012,0,0,0,0,90.39,1,-0.012,0.542,-0.0201,0.619,0,-0.0201,0,0,0,0,0,0,2,2,10.16,LANDED
10.42,TAKEOFF,TO_GROUND_ROLL,9.47,80,70.53,4.22,-0.03,1.91,1.96,90.9,-0.052,1,0,90.39,0,0,0,0,-0.013,0,0,0,0,90.39,1,-0.013,0.521,-0.02,0.639,0,-0.02,0,0,0,0,0,0,2,2,10.46,LANDED
10.68,TAKEOFF,TO_GROUND_ROLL,11.28,80,68.72,4.3,-0.04,2.22,2.44,90.86,-0.054,1,0,90.39,0,0,0,0,-0.015,0,0,0,0,90.39,1,-0.015,0.488,-0.0193,0.657,0,-0.0193,0,0,0,0,0,0,2,2,10.72,LANDED
10.94,TAKEOFF,TO_GROUND_ROLL,13.11,80,66.89,4.35,-0.01,2.37,2.4,90.8,-0.055,1,0,90.38,0,0,0,0,-0.017,0,0,0,0,90.38,1,-0.017,0.441,-0.0179,0.675,0,-0.0179,0,0,0,0,0,0,2,2,10.98,LANDED
11.2,TAKEOFF,TO_GROUND_ROLL,14.96,80,65.04,4.34,-0.05,2.34,2.54,90.73,-0.058,1,0,90.38,0,0,0,0,-0.018,0,0,0,0,90.38,1,-0.018,0.379,-0.0158,0.694,0,-0.0158,0,0,0,0,0,0,2,2,11.24,LANDED
11.5,TAKEOFF,TO_GROUND_ROLL,17.11,80,62.89,4.27,-0.03,2.09,2.2,90.63,-0.062,1,0,90.38,0,0,0,0,-0.02,0,0,0,0,90.38,1,-0.02,0.287,-0.0123,0.715,0,-0.0123,0,0,0,0,0,0,2,2,11.54,LANDED
11.76,TAKEOFF,TO_GROUND_ROLL,18.99,80,61.01,4.16,-0.05,1.73,1.9,90.52,-0.067,1,0,90.38,0,0,0,0,-0.022,0,0,0,0,90.38,1,-0.022,0.189,-0.0083,0.734,0,-0.0083,0,0,0,0,0,0,2,2,11.8,LANDED
12.02,TAKEOFF,TO_GROUND_ROLL,20.89,80,59.11,4.04,-0.04,1.3,1.43,90.4,-0.072,1,0,90.38,0,0,0,0,-0.023,0,0,0,0,90.38,1,-0.023,0.072,-0.0033,0.753,0,-0.0033,0,0,0,0,0,0,2,2,12.06,LANDED
12.28,TAKEOFF,TO_GROUND_ROLL,22.8,80,57.2,3.91,-0.05,0.85,1.01,90.26,-0.077,1,0,90.38,0,0,0,0,-0.024,0,0,0,0,90.38,1,-0.024,-0.062,0.0029,0.772,0,0.0029,0,0,0,0,0,0,2,2,12.32,LANDED
12.58,TAKEOFF,TO_GROUND_ROLL,25.02,80,54.98,3.78,-0.05,0.41,0.54,90.08,-0.083,1,0,90.38,0,0,0,0,-0.023,0,0,0,0,90.38,1,-0.023,-0.239,0.0114,0.794,0,0.0114,0,0,0,0,0,0,2,2,12.62,LANDED
12.84,TAKEOFF,TO_GROUND_ROLL,26.96,80,53.04,3.7,-0.06,0.15,0.28,89.9,-0.094,1,0,90.38,0,0,0,0,-0.021,0,0,0,0,90.38,1,-0.021,-0.408,0.0199,0.814,0,0.0199,0,0,0,0,0,0,2,2,12.88,LANDED
13.1,TAKEOFF,TO_GROUND_ROLL,28.9,80,51.1,3.65,-0.19,0.07,0.44,89.74,-0.105,1,0,90.38,0,0,0,0,-0.018,0,0,0,0,90.38,1,-0.018,-0.581,0.029,0.833,0,0.029,0,0,0,0,0,0,2,2,13.14,LANDED
13.36,TAKEOFF,TO_GROUND_ROLL,30.85,80,49.15,3.68,0,0.17,0.16,89.61,-0.08,1,0,90.39,0,0,0,0,-0.013,0,0,0,0,90.39,1,-0.013,-0.729,0.0373,0.852,0,0.0373,0,0,0,0,0,0,2,2,13.4,LANDED
13.66,TAKEOFF,TO_GROUND_ROLL,33.12,80,46.88,3.75,0.06,0.33,0.23,89.48,-0.079,1,0,90.39,0,0,0,0,-0.005,0,0,0,0,90.39,1,-0.005,-0.874,0.0459,0.875,0,0.0459,0,0,0,0,0,0,2,2,13.7,LANDED
13.92,TAKEOFF,TO_GROUND_ROLL,35.1,80,44.9,3.83,-0.14,0.57,0.75,89.38,-0.075,1,0,90.4,0,0,0,0,0.002,0,0,0,0,90.4,1,0.002,-0.984,0.0528,0.895,0,0.0528,0,0,0,0,0,0,2,2,13.96,LANDED
14.18,TAKEOFF,TO_GROUND_ROLL,37.09,80,42.91,3.91,-0.05,0.87,0.94,89.31,-0.064,1,0,90.41,0,0,0,0,0.012,0,0,0,0,90.41,1,0.012,-1.076,0.059,0.915,0,0.059,0,0,0,0,0,0,2,2,14.22,LANDED
14.44,TAKEOFF,TO_GROUND_ROLL,39.08,80,40.92,4.01,-0.09,1.2,1.29,89.26,-0.06,1,0,90.42,0,0,0,0,0.023,0,0,0,0,90.42,1,0.023,-1.144,0.0642,0.935,0,0.0642,0,0,0,0,0,0,2,2,14.48,LANDED
14.74,TAKEOFF,TO_GROUND_ROLL,41.4,80,38.6,4.1,-0.08,1.51,1.6,89.25,-0.047,1,0,90.44,0,0,0,0,0.037,0,0,0,0,90.44,1,0.037,-1.186,0.0681,0.958,0,0.0681,0,0,0,0,0,0,2,2,14.78,LANDED
15,TAKEOFF,TO_GROUND_ROLL,43.41,80,36.59,4.15,-0.09,1.7,1.79,89.29,-0.034,1,0,90.45,0,0,0,0,0.05,0,0,0,0,90.45,1,0.05,-1.18,0.0692,0.978,0,0.0692,0,0,0,0,0,0,2,2,15.04,LANDED
15.26,TAKEOFF,TO_GROUND_ROLL,45.43,80,34.57,4.17,-0.09,1.77,1.88,89.38,-0.015,1,0,90.46,0,0,0,0,0.063,0,0,0,0,90.46,1,0.063,-1.125,0.0674,0.998,0,0.0674,0,0,0,0,0,0,2,2,15.3,LANDED
15.52,TAKEOFF,TO_GROUND_ROLL,47.45,80,32.55,4.16,-0.09,1.71,1.82,89.54,0.009,1,0,90.48,0,0,0,0,0.076,0,0,0,0,90.48,1,0.076,-1.008,0.0605,1,0,0.0605,0,0,0,0,0,0,2,2,15.56,LANDED
15.82,TAKEOFF,TO_GROUND_ROLL,49.79,80,30.21,4.09,-0.1,1.5,1.63,89.82,0.065,1,0,90.49,0,0,0,0,0.09,0,0,0,0,90.49,1,0.09,-0.778,0.0467,1,0,0.0467,0,0,0,0,0,0,2,2,15.86,LANDED
16.08,TAKEOFF,TO_GROUND_ROLL,51.83,80,28.17,4.02,-0.1,1.23,1.35,90.13,0.102,1,0,90.5,0,0,0,0,0.099,0,0,0,0,90.5,1,0.099,-0.497,0.0298,1,0,0.0298,0,0,0,0,0,0,2,2,16.12,LANDED
16.34,TAKEOFF,TO_GROUND_ROLL,53.88,80,26.12,3.93,-0.1,0.93,1.06,90.46,0.062,1,0,90.5,0,0,0,0,0.104,0,0,0,0,90.5,1,0.104,-0.17,0.0102,1,0,0.0102,0,0,0,0,0,0,2,2,16.38,LANDED
16.6,TAKEOFF,TO_GROUND_ROLL,55.93,80,24.07,3.84,-0.1,0.64,0.76,90.8,0.07,1,0,90.5,0,0,0,0,0.103,0,0,0,0,90.5,1,0.103,0.166,-0.01,1,0,-0.01,0,0,0,0,0,0,2,2,16.64,LANDED
16.9,TAKEOFF,TO_GROUND_ROLL,58.3,80,21.7,3.76,-0.11,0.36,0.48,91.16,0.089,1,0,90.5,0,0,0,0,0.096,0,0,0,0,90.5,1,0.096,0.543,-0.0326,1,0,-0.0326,0,0,0,0,0,0,2,2,16.94,LANDED
17.16,TAKEOFF,TO_GROUND_ROLL,60.36,80,19.64,3.72,-0.11,0.21,0.32,91.44,0.072,1,0,90.49,0,0,0,0,0.085,0,0,0,0,90.49,1,0.085,0.847,-0.0508,1,0,-0.0508,0,0,0,0,0,0,2,2,17.2,LANDED
17.42,TAKEOFF,TO_GROUND_ROLL,62.43,80,17.57,3.7,-0.15,0.15,0.25,91.67,0.051,1,0,90.47,0,0,0,0,0.069,0,0,0,0,90.47,1,0.069,1.117,-0.067,1,0,-0.067,0,0,0,0,0,0,2,2,17.46,LANDED
17.68,TAKEOFF,TO_GROUND_ROLL,64.48,80,15.52,3.68,-0.16,0.19,0.34,91.85,0.044,1,0,90.45,0,0,0,0,0.048,0,0,0,0,90.45,1,0.048,1.337,-0.0802,1,0,-0.0802,0,0,0,0,0,0,2,2,17.72,LANDED
17.98,TAKEOFF,TO_GROUND_ROLL,66.86,80,13.14,3.73,0.01,0.28,0.29,91.98,-0.011,1,0,90.42,0,0,0,0,0.019,0,0,0,0,90.42,1,0.019,1.523,-0.0914,1,0,-0.0914,0,0,0,0,0,0,2,2,18.02,LANDED
18.24,TAKEOFF,TO_GROUND_ROLL,68.94,80,11.06,3.78,-0.17,0.41,0.52,92.04,-0.039,1,0,90.39,0,0,0,0,-0.009,0,0,0,0,90.39,1,-0.009,1.632,-0.0979,1,0,-0.0979,0,0,0,0,0,0,2,2,18.28,LANDED
18.5,TAKEOFF,TO_GROUND_ROLL,71.02,80,8.98,3.81,-0.11,0.56,0.64,92.04,-0.064,1,0,90.36,0,0,0,0,-0.039,0,0,0,0,90.36,1,-0.039,1.686,-0.1012,1,0,-0.1012,0,0,0,0,0,0,2,2,18.54,LANDED
18.76,TAKEOFF,TO_GROUND_ROLL,73.11,80,6.89,3.87,-0.11,0.72,0.78,91.96,-0.11,1,0,90.33,0,0,0,0,-0.07,0,0,0,0,90.33,1,-0.07,1.668,-0.1001,1,0,-0.1001,0,0,0,0,0,0,2,2,18.8,LANDED
19.06,TAKEOFF,TO_GROUND_ROLL,75.53,80,4.47,3.9,-0.12,0.85,0.94,91.75,-0.189,1,0,90.29,0,0,0,0,-0.105,0,0,0,0,90.29,1,-0.105,1.537,-0.0922,1,0,-0.0922,0,0,0,0,0,0,2,2,19.1,LANDED
19.32,TAKEOFF,TO_GROUND_ROLL,77.63,80,2.37,3.92,-0.11,0.92,0.99,91.49,-0.237,1,0,90.27,0,0,0,0,-0.133,0,0,0,0,90.27,1,-0.133,1.329,-0.0797,1,0,-0.0797,0,0,0,0,0,0,2,2,19.36,LANDED
19.58,TAKEOFF,TO_GROUND_ROLL,79.74,80,0.26,3.92,-0.13,0.93,1.02,91.18,-0.216,1,0,90.24,0,0,0,0,-0.156,0,0,0,0,90.24,1,-0.156,1.053,-0.0632,1,0,-0.0632,0,0,0,0,0,0,2,2,19.62,LANDED
19.84,TAKEOFF,TO_GROUND_ROLL,81.86,80,-1.86,3.91,-0.11,0.89,0.97,90.86,-0.209,1,0,90.23,0,0,0,0,-0.172,0,0,0,0,90.23,1,-0.172,0.753,-0.0452,1,0,-0.0452,0,0,0,0,0,0,2,2,19.88,LANDED
20.14,TAKEOFF,TO_GROUND_ROLL,84.33,80,-4.33,3.88,-0.12,0.79,0.88,90.5,-0.222,1,0,90.22,0,0,0,0,-0.183,0,0,0,0,90.22,1,-0.183,0.399,-0.0239,1,0,-0.0239,0,0,0,0,0,0,2,2,20.18,LANDED
20.4,TAKEOFF,TO_GROUND_ROLL,86.48,80,-6.48,3.85,0.07,0.67,0.63,90.2,-0.215,1,0,90.21,0,0,0,0,-0.186,0,0,0,0,90.21,1,-0.186,0.094,-0.0057,1,0,-0.0057,0,0,0,0,0,0,2,2,20.44,LANDED
20.66,TAKEOFF,TO_GROUND_ROLL,88.64,80,-8.64,3.81,-0.24,0.52,0.68,89.92,-0.2,1,0,90.22,0,0,0,0,-0.181,0,0,0,0,90.22,1,-0.181,-0.197,0.0118,1,0,0.0118,0,0,0,0,0,0,2,2,20.7,LANDED
20.92,TAKEOFF,TO_GROUND_ROLL,90.82,80,-10.82,3.75,-0.05,0.36,0.41,89.67,-0.211,1,0,90.23,0,0,0,0,-0.17,0,0,0,0,90.23,1,-0.17,-0.469,0.0282,1,0,0.0282,0,0,0,0,0,0,2,2,20.96,LANDED
21.22,TAKEOFF,TO_GROUND_ROLL,93.36,80,-13.36,3.71,-0.16,0.19,0.3,89.43,-0.163,1,0,90.25,0,0,0,0,-0.15,0,0,0,0,90.25,1,-0.15,-0.749,0.045,1,0,0.045,0,0,0,0,0,0,2,2,21.26,LANDED
21.48,TAKEOFF,TO_GROUND_ROLL,95.58,80,-15.58,3.66,-0.22,0.09,0.22,89.26,-0.167,1,0,90.27,0,0,0,0,-0.126,0,0,0,0,90.27,1,-0.126,-0.953,0.0572,1,0,0.0572,0,0,0,0,0,0,2,2,21.52,LANDED
21.74,TAKEOFF,TO_GROUND_ROLL,97.8,80,-17.8,3.64,-0.06,0.05,0.1,89.16,-0.132,1,0,90.3,0,0,0,0,-0.098,0,0,0,0,90.3,1,-0.098,-1.108,0.0665,1,0,0.0665,0,0,0,0,0,0,2,2,21.78,LANDED
22,TAKEOFF,TO_GROUND_ROLL,100.06,80,-20.06,3.64,-0.12,0.03,0.09,89.12,-0.05,1,0,90.33,0,0,0,0,-0.065,0,0,0,0,90.33,1,-0.065,-1.206,0.0723,1,0,0.0723,0,0,0,0,0,0,2,2,22.04,LANDED
22.3,TAKEOFF,TO_GROUND_ROLL,102.7,80,-22.7,3.62,-0.1,0.02,0.08,89.14,0.008,1,0,90.37,0,0,0,0,-0.026,0,0,0,0,90.37,1,-0.026,-1.249,0.0749,1,0,0.0749,0,0,0,0,0,0,2,2,22.34,LANDED
22.56,TAKEOFF,TO_GROUND_ROLL,105,80,-25,3.66,-0.12,0.08,0.14,89.22,0.038,1,0,90.41,0,0,0,0,0.008,0,0,0,0,90.41,1,0.008,-1.225,0.0735,1,0,0.0735,0,0,0,0,0,0,2,2,22.6,LANDED
22.82,TAKEOFF,TO_GROUND_ROLL,107.33,80,-27.33,3.65,-0.11,0.09,0.15,89.34,0.099,1,0,90.44,0,0,0,0,0.042,0,0,0,0,90.44,1,0.042,-1.152,0.0691,1,0,0.0691,0,0,0,0,0,0,2,2,22.86,LANDED
23.08,TAKEOFF,TO_GROUND_ROLL,109.68,80,-29.68,3.65,-0.07,0.07,0.11,89.51,0.139,1,0,90.47,0,0,0,0,0.072,0,0,0,0,90.47,1,0.072,-1.032,0.0619,1,0,0.0619,0,0,0,0,0,0,2,2,23.12,LANDED
23.38,TAKEOFF,TO_GROUND_ROLL,112.43,80,-32.43,3.63,-0.1,0.02,0.07,89.74,0.154,1,0,90.5,0,0,0,0,0.102,0,0,0,0,90.5,1,0.102,-0.845,0.0507,1,0,0.0507,0,0,0,0,0,0,2,2,23.42,LANDED
23.64,TAKEOFF,TO_GROUND_ROLL,114.83,80,-34.83,3.64,-0.08,0.02,0.06,89.96,0.176,1,0,90.52,0,0,0,0,0.122,0,0,0,0,90.52,1,0.122,-0.65,0.039,1,0,0.039,0,0,0,0,0,0,2,2,23.68,LANDED
23.9,TAKEOFF,TO_GROUND_ROLL,117.27,80,-37.27,3.64,-0.09,0.03,0.07,90.19,0.178,1,0,90.54,0,0,0,0,0.136,0,0,0,0,90.54,1,0.136,-0.439,0.0264,1,0,0.0264,0,0,0,0,0,0,2,2,23.94,LANDED
24.16,TAKEOFF,TO_GROUND_ROLL,119.72,80,-39.72,3.64,-0.07,0.02,0.06,90.41,0.176,1,0,90.54,0,0,0,0,0.144,0,0,0,0,90.54,1,0.144,-0.217,0.013,1,0,0.013,0,0,0,0,0,0,2,2,24.2,LANDED
24.46,TAKEOFF,TO_GROUND_ROLL,122.59,80,-42.59,3.63,-0.07,0.01,0.05,90.66,0.168,1,0,90.54,0,0,0,0,0.144,0,0,0,0,90.54,1,0.144,0.038,-0.0023,1,0,-0.0023,0,0,0,0,0,0,2,2,24.5,LANDED
24.72,TAKEOFF,TO_GROUND_ROLL,125.11,80,-45.11,3.63,-0.07,0.02,0.05,90.85,0.147,1,0,90.54,0,0,0,0,0.136,0,0,0,0,90.54,1,0.136,0.245,-0.0147,1,0,-0.0147,0,0,0,0,0,0,2,2,24.76,LANDED
24.98,TAKEOFF,TO_GROUND_ROLL,127.65,80,-47.65,3.62,-0.26,-0.02,0.11,91,0.104,1,0,90.52,0,0,0,0,0.122,0,0,0,0,90.52,1,0.122,0.426,-0.0256,1,0,-0.0256,0,0,0,0,0,0,2,2,25.02,LANDED
25.24,TAKEOFF,TO_GROUND_ROLL,130.21,80,-50.21,3.65,0.03,0.09,0.07,91.1,0.078,1,0,90.5,0,0,0,0,0.103,0,0,0,0,90.5,1,0.103,0.57,-0.0342,1,0,-0.0342,0,0,0,0,0,0,2,2,25.28,LANDED
25.54,TAKEOFF,TO_GROUND_ROLL,133.21,80,-53.21,3.65,-0.09,0.06,0.11,91.15,-0.033,1,0,90.47,0,0,0,0,0.075,0,0,0,0,90.47,1,0.075,0.67,-0.0402,1,0,-0.0402,0,0,0,0,0,0,2,2,25.58,LANDED
25.8,TAKEOFF,TO_GROUND_ROLL,135.83,80,-55.83,3.62,-0.01,-0.01,-0.01,91.13,-0.106,1,0,90.45,0,0,0,0,0.049,0,0,0,0,90.45,1,0.049,0.697,-0.0418,1,0,-0.0418,0,0,0,0,0,0,2,2,25.84,LANDED
26.06,TAKEOFF,TO_GROUND_ROLL,138.49,80,-58.49,3.63,-0.05,-0.01,0.01,91.06,-0.166,1,0,90.42,0,0,0,0,0.023,0,0,0,0,90.42,1,0.023,0.67,-0.0402,1,0,-0.0402,0,0,0,0,0,0,2,2,26.1,LANDED
26.32,TAKEOFF,TO_GROUND_ROLL,141.17,80,-61.17,3.63,-0.02,0.01,0.02,90.95,-0.228,1,0,90.4,0,0,0,0,-0.002,0,0,0,0,90.4,1,-0.002,0.596,-0.0357,1,0,-0.0357,0,0,0,0,0,0,2,2,26.36,LANDED
26.62,TAKEOFF,TO_GROUND_ROLL,144.3,80,-64.3,3.63,-0.01,0,0,90.77,-0.277,1,0,90.38,0,0,0,0,-0.025,0,0,0,0,90.38,1,-0.025,0.457,-0.0274,1,0,-0.0274,0,0,0,0,0,0,2,2,26.66,LANDED
26.88,TAKEOFF,TO_GROUND_ROLL,147.04,80,-67.04,3.62,0,-0.01,-0.01,90.59,-0.293,1,0,90.36,0,0,0,0,-0.039,0,0,0,0,90.36,1,-0.039,0.298,-0.0179,1,0,-0.0179,0,0,0,0,0,0,2,2,26.92,LANDED
27.14,TAKEOFF,TO_GROUND_ROLL,149.82,80,-69.82,3.63,0.01,0,0,90.39,-0.304,1,0,90.35,0,0,0,0,-0.047,0,0,0,0,90.35,1,-0.047,0.117,-0.007,1,0,-0.007,0,0,0,0,0,0,2,2,27.18,LANDED
27.4,TAKEOFF,TO_GROUND_ROLL,152.63,80,-72.63,3.63,0.02,0,-0.01,90.2,-0.305,1,0,90.35,0,0,0,0,-0.048,0,0,0,0,90.35,1,-0.048,-0.079,0.0047,1,0,0.0047,0,0,0,0,0,0,2,2,27.44,LANDED
27.7,TAKEOFF,TO_GROUND_ROLL,155.91,80,-75.91,3.62,0.03,-0.01,-0.02,89.98,-0.296,1,0,90.36,0,0,0,0,-0.039,0,0,0,0,90.36,1,-0.039,-0.31,0.0186,1,0,0.0186,0,0,0,0,0,0,2,2,27.74,LANDED
27.96,TAKEOFF,TO_GROUND_ROLL,158.79,80,-78.79,3.62,0.05,-0.01,-0.03,89.82,-0.278,1,0,90.38,0,0,0,0,-0.023,0,0,0,0,90.38,1,-0.023,-0.5,0.03,1,0,0.03,0,0,0,0,0,0,2,2,28,LANDED
28.22,TAKEOFF,TO_ROTATE,161.71,80,-81.71,3.62,0.08,-0.01,-0.04,89.68,-0.237,1,0,90.4,0,0,0,0,0.001,0,0,0,0,90.4,1,0.001,-0.666,0.04,1,0,0,0,0,0,0,0,0,2,2,28.26,LANDED
28.54,TAKEOFF,TO_ROTATE,165.35,80,-85.35,3.62,0.07,-0.03,-0.05,89.57,-0.178,1,0,90.43,0.828,0,0,0,0.032,0,0,0,0,90.43,1,0.032,-0.818,0.0491,1,0,0.0491,0,0.0765,0,0,0,0,2,2,28.58,LANDED
28.88,TAKEOFF,TO_ROTATE,169.28,80,-89.28,3.63,0.08,0.04,0.01,89.52,-0.106,1,0,90.48,1.848,0,0,0,0.078,0,0,0,0,90.48,1,0.078,-0.954,0.0572,1,0,0.0572,0,0.1636,0,0,0,0,2,2,28.92,LANDED
29.18,TAKEOFF,TO_ROTATE,172.8,80,-92.8,3.65,0.11,0.12,0.08,89.55,0.039,1,0,90.52,2.748,0,0,0,0.123,0,0,0,0,90.52,1,0.123,-0.997,0.0598,1,0,0.0598,0,0.2378,0,0,0,0,2,2,29.22,LANDED
29.48,TAKEOFF,TO_ROTATE,176.37,80,-96.37,3.69,0.13,0.27,0.22,89.66,0.151,1,0,90.57,3.648,0,0,0,0.168,0,0,0,0,90.57,1,0.168,-0.96,0.0576,1,0,0.0576,0,0.3064,0,0,0,0,2,2,29.52,LANDED
29.78,TAKEOFF,TO_ROTATE,179.98,80,-99.98,3.84,0.27,0.71,0.58,89.84,0.138,1,0,90.61,4.548,0,0,0,0.209,0,0,0,0,90.61,1,0.209,-0.848,0.0509,1,0,0.0509,0,0.353,0,0,0,0,2,2,29.82,LANDED
30.12,TAKEOFF,TO_ROTATE,184.12,80,-104.12,4.13,0.18,1.73,1.61,90.09,0.15,1,0,90.64,5.568,0,0,0,0.244,0,0,0,0,90.64,1,0.244,-0.648,0.0389,1,0,0.0389,0,0.3589,0,0,0,0,2,2,30.16,LANDED
30.42,TAKEOFF,TO_ROTATE,187.81,80,-107.81,4.5,0.26,2.9,2.74,90.31,0.134,1,0,90.66,6.468,0,0,0,0.264,0,0,0,0,90.66,1,0.264,-0.439,0.0263,1,0,0.0263,0,0.3356,0,0,0,0,2,2,30.46,LANDED
30.72,TAKEOFF,TO_ROTATE,191.51,80,-111.51,4.86,0.51,4.01,3.8,90.45,0.486,1,0,90.67,7.368,0,0,0,0.273,0,0,0,0,90.67,1,0.273,-0.271,0.0163,1,0,0.0163,0,0.3149,0,0,0,0,2,2,30.76,LANDED
31.02,TAKEOFF,TO_ROTATE,195.22,80,-115.22,5.23,0.46,4.98,4.78,90.53,0.314,1,0,90.67,8.268,0,0,0,0.273,0,0,0,0,90.67,1,0.273,-0.175,0.0105,1,0,0.0105,0,0.3068,0,0,0,0,2,2,31.06,LANDED
31.36,TAKEOFF,TO_ROTATE,199.39,80,-119.39,5.57,0.42,5.99,5.82,90.6,0.225,1,0,90.67,9.288,0,0,0,0.268,0,0,0,0,90.67,1,0.268,-0.096,0.0058,1,0,0.0058,0,0.3065,0,0,0,0,2,2,31.4,LANDED
31.56,TAKEOFF,TO_ROTATE,201.82,80,-121.82,5.79,0.7,6.53,6.3,90.63,0.232,1,0,90.4,10,0,0,0,0,0,0,0,0,90.4,1,0,0.232,0,0,3,0,0,0,0,0,0,0,2,2,31.6,FLYING
31.78,TAKEOFF,TO_ROTATE,204.48,80,-124.48,6.12,0.76,7.32,7,90.51,0.303,1,0,90.4,10,0,0,0,0,0,0,0,0,90.4,1,0,0.14,0,0,3,0,0,0,0,0,0,0,2,2,31.82,FLYING
32.02,TAKEOFF,TO_ROTATE,207.29,80,-127.29,6.77,1.04,9.15,8.66,90.45,0.367,1,0,90.4,10,0,0,0,0,0,0,0,0,90.4,1,0,0.065,0,0,3,0,0,0,0,0,0,0,2,2,32.06,FLYING
32.26,TAKEOFF,TO_ROTATE,209.89,80,-129.89,8.14,2.35,12.71,11.79,90.42,0.389,1,0,90.4,10,0,0,0,0,0,0,0,0,90.4,1,0,0.029,0,0,3,0,0,0,0,0,0,0,2,2,32.3,FLYING
32.5,TAKEOFF,TO_CLIMB,211.93,80,-131.93,9.96,4.64,16.75,15.2,90.39,0.402,1,0,90.4,10,0,0,0,0,0,0,0,0,90.4,1,0,-0.002,0,0,3,0,0,0,0,0,0,0,2,2,32.52,FLYING
32.72,TAKEOFF,TO_CLIMB,213.45,80,-133.45,12.35,8.82,20.17,17.66,90.35,0.416,0.912,0,90.4,8,0,0,0,0,0,0,0,0,90.4,1,0,-0.039,0,0,3,0,0,0,0,0,0,0,1,1,32.76,FLYING
32.92,TAKEOFF,TO_CLIMB,214.05,80,-134.05,15.21,13.9,21.66,18.05,90.33,0.445,0.824,0,90.4,8,0,0,0,0,0,0,0,0,90.4,1,0,-0.063,0,0,3,0,0,0,0,0,0,0,1,1,32.96,FLYING
33.14,TAKEOFF,TO_CLIMB,214.19,80,-134.19,18.37,18.59,20.2,15.56,90.33,0.458,0.82,0,90.4,8,0,0,0,0,0,0,0,0,90.4,1,0,-0.069,0,0,3,0,0,0,0,0,0,0,1,1,33.18,FLYING
33.4,TAKEOFF,TO_CLIMB,215.31,80,-135.31,27.04,21.57,17.16,11.7,90.35,0.451,0.82,0,90.4,8,0,0,0,0,0,0,0,0,90.4,1,0,-0.051,0,0,3,0,0,0,0,0,0,0,1,1,33.44,FLYING
33.62,TAKEOFF,TO_CLIMB,217.12,80,-137.12,37.54,22.88,15.53,9.63,90.37,0.425,0.82,0,90.4,8,0,0,0,0,0,0,0,0,90.4,1,0,-0.037,0,0,3,0,0,0,0,0,0,0,1,1,33.66,FLYING
33.84,TAKEOFF,TO_CLIMB,219.15,80,-139.15,43.6,24.36,14.92,8.68,90.37,0.391,0.82,0,90.4,8,0,0,0,0,0,0,0,0,90.4,1,0,-0.028,0,0,3,0,0,0,0,0,0,0,1,1,33.88,FLYING
34.06,TAKEOFF,TO_CLIMB,221.3,80,-141.3,50.22,25.62,14.33,7.79,90.38,0.39,0.82,0,90.4,8,0,0,0,0,0,0,0,0,90.4,1,0,-0.023,0,0,3,0,0,0,0,0,0,0,1,1,34.1,FLYING
34.28,TAKEOFF,TO_CLIMB,223.56,80,-143.56,56.75,26.69,13.93,7.16,90.38,0.378,0.82,0,90.4,8,0,0,0,0,0,0,0,0,90.4,1,0,-0.021,0,0,3,0,0,0,0,0,0,0,1,1,34.32,FLYING
34.54,TAKEOFF,TO_CLIMB,226.32,80,-146.32,64.76,27.75,13.69,6.71,90.38,0.362,0.82,0,90.4,8,0,0,0,0,0,0,0,0,90.4,1,0,-0.018,0,0,3,0,0,0,0,0,0,0,1,1,34.58,FLYING
34.76,TAKEOFF,TO_CLIMB,228.7,80,-148.7,73.81,28.67,13.56,6.42,90.38,0.357,0.82,0,90.4,8,0,0,0,0,0,0,0,0,90.4,1,0,-0.016,0,0,3,0,0,0,0,0,0,0,1,1,34.8,FLYING
34.98,TAKEOFF,TO_CLIMB,231.11,80,-151.11,82.02,29.5,13.38,6.1,90.39,0.356,0.82,0,90.4,8,0,0,0,0,0,0,0,0,90.4,1,0,-0.015,0,0,3,0,0,0,0,0,0,0,1,1,35.02,FLYING
35.2,TAKEOFF,TO_CLIMB,233.57,80,-153.57,92.74,30.24,13.23,5.84,90.39,0.354,0.82,0,90.4,8,0,0,0,0,0,0,0,0,90.4,1,0,-0.014,0,0,3,0,0,0,0,0,0,0,1,1,35.24,FLYING
35.42,TAKEOFF,TO_CLIMB,236.06,80,-156.06,103.61,31.01,13.03,5.54,90.39,0.35,0.82,0,90.4,8,0,0,0,0,0,0,0,0,90.4,1,0,-0.013,0,0,3,0,0,0,0,0,0,0,1,1,35.46,FLYING
35.68,TAKEOFF,TO_CLIMB,239.06,80,-159.06,118.74,31.62,12.83,5.26,90.39,0.319,0.82,0,90.4,8,0,0,0,0,0,0,0,0,90.4,1,0,-0.01,0,0,3,0,0,0,0,0,0,0,1,1,35.72,FLYING
35.9,TAKEOFF,TO_CLIMB,241.65,80,-161.65,131.29,32.22,12.69,5.05,90.39,0.296,0.82,0,90.4,8,0,0,0,0,0,0,0,0,90.4,1,0,-0.007,0,0,3,0,0,0,0,0,0,0,1,1,35.94,FLYING
36.12,TAKEOFF,TO_CLIMB,244.27,80,-164.27,144.56,32.52,12.74,5.08,90.39,0.268,0.82,0,90.4,8,0,0,0,0,0,0,0,0,90.4,1,0,-0.006,0,0,3,0,0,0,0,0,0,0,1,1,36.16,FLYING
36.34,TAKEOFF,TO_CLIMB,246.9,80,-166.9,158.87,33.33,12.56,4.84,90.39,0.24,0.82,0,90.4,8,0,0,0,0,0,0,0,0,90.4,1,0,-0.006,0,0,3,0,0,0,0,0,0,0,1,1,36.38,FLYING
36.56,TAKEOFF,TO_CLIMB,249.56,80,-169.56,176.35,33.49,12.46,4.72,90.4,0.199,0.82,0,90.4,8,0,0,0,0,0,0,0,0,90.4,1,0,-0.004,0,0,3,0,0,0,0,0,0,0,1,1,36.6,FLYING
36.84,TAKEOFF,TO_CLIMB,252.98,80,-172.98,190.45,34.33,12.32,4.53,90.4,0.16,0.82,0,90.4,8,0,0,0,0,0,0,0,0,90.4,1,0,-0.002,0,0,3,0,0,0,0,0,0,0,0,0,36.88,FLYING
37.04,TAKEOFF,TO_CLIMB,255.46,80,-175.46,198.01,34.49,12.28,4.48,90.4,0.13,0.82,0,90.4,8,0,0,0,0,0,0,0,0,90.4,1,0,-0.001,0,0,3,0,0,0,0,0,0,0,0,0,37.08,FLYING
37.26,TAKEOFF,TO_CLIMB,258.22,80,-178.22,205.66,35.16,12.23,4.4,90.4,0.113,0.82,0,90.4,8,0,0,0,0,0,0,0,0,90.4,1,0,0,0,0,3,0,0,0,0,0,0,0,0,0,37.3,FLYING
37.48,TAKEOFF,TO_CLIMB,261.03,80,-181.03,213.41,35.36,12.2,4.37,90.4,0.09,0.82,0,90.4,8,0,0,0,0,0,0,0,0,90.4,1,0,0,0,0,3,0,0,0,0,0,0,0,0,0,37.52,FLYING
37.7,TAKEOFF,TO_CLIMB,263.87,80,-183.87,221.26,36.06,12.13,4.26,90.4,0.077,0.82,0,90.4,8,0,0,0,0,0,0,0,0,90.4,1,0,0,0,0,3,0,0,0,0,0,0,0,0,0,37.74,FLYING
37.96,TAKEOFF,TO_CLIMB,267.3,80,-187.3,230.66,36.33,12.09,4.22,90.4,0.053,0.82,0,90.4,8,0,0,0,0,0,0,0,0,90.4,1,0,0.001,0,0,3,0,0,0,0,0,0,0,0,0,38,FLYING
38.18,TAKEOFF,TO_CLIMB,270.24,80,-190.24,238.71,36.93,12.02,4.12,90.4,0.057,0.82,0,90.4,8,0,0,0,0,0,0,0,0,90.4,1,0,0.001,0,0,3,0,0,0,0,0,0,0,0,0,38.22,FLYING
38.4,TAKEOFF,TO_CLIMB,273.23,80,-193.23,246.86,37.25,12.02,4.13,90.4,0.04,0.82,0,90.4,8,0,0,0,0,0,0,0,0,90.4,1,0,0.001,0,0,3,0,0,0,0,0,0,0,0,0,38.44,FLYING
38.62,TAKEOFF,TO_CLIMB,276.27,80,-196.27,255.1,37.67,12,4.09,90.4,0.038,0.82,0,90.4,8,0,0,0,0,0,0,0,0,90.4,1,0,0,0,0,3,0,0,0,0,0,0,0,0,0,38.66,FLYING
38.84,TAKEOFF,TO_CLIMB,279.36,80,-199.36,263.44,38.11,11.99,4.07,90.4,0.034,0.82,0,90.4,8,0,0,0,0,0,0,0,0,90.4,1,0,0,0,0,3,0,0,0,0,0,0,0,0,0,38.88,FLYING
39.1,TAKEOFF,TO_CLIMB,283.06,80,-203.06,273.41,38.61,11.97,4.05,90.4,0.031,0.82,0,90.4,8,0,0,0,0,0,0,0,0,90.4,1,0,0,0,0,3,0,0,0,0,0,0,0,0,0,39.14,FLYING
39.32,TAKEOFF,TO_CLIMB,286.26,80,-206.26,281.96,39.03,11.97,4.04,90.4,0.027,0.82,0,90.4,8,0,0,0,0,0,0,0,0,90.4,1,0,-0.001,0,0,3,0,0,0,0,0,0,0,0,0,39.36,FLYING
39.54,TAKEOFF,TO_CLIMB,289.5,80,-209.5,290.59,39.46,11.96,4.02,90.4,0.025,0.82,0,90.4,8,0,0,0,0,0,0,0,0,90.4,1,0,0,0,0,3,0,0,0,0,0,0,0,0,0,39.58,FLYING
39.76,TAKEOFF,TO_CLIMB,292.79,80,-212.79,299.33,39.91,11.95,4.01,90.4,0.023,0.82,0,90.4,8,0,0,0,0,0,0,0,0,90.4,1,0,0,0,0,3,0,0,0,0,0,0,0,0,0,39.8,FLYING
40,DONE,,296.43,80,-216.43,308.16,40.36,11.94,3.99,90.4,0.021,0.82,0,90.4,8,0,0,0,0,0,0,0,0,90.4,1,0,0,0,0,3,0,0,0,0,0,0,0,0,0,0.08,FLYING
# end T+40.1  IAS 298.3 m/s
