t_s,phase,subphase,ias_ms,vapp_ms,spd_err_ms,agl_m,vs_ms,pitch_deg,aoa_deg,hdg_deg,bank_deg,thr_cmd,thr_intg,aa_hdg_cmd_deg,aa_fpa_cmd_deg,ils_loc_m,ils_gs_m,ils_dist_km,loc_corr_deg,gs_corr_deg,flare_fpa_cmd,flare_tgt_vs,flare_frac,steer_hdg_deg,steer_blend,ro_loc_corr_deg,ro_hdg_err_deg,ro_yaw_tgt,ro_yaw_scale,ro_yaw_gate,yaw_cmd,roll_cmd,pitch_cmd,ro_pitch_tgt_deg,ro_pitch_err_deg,ro_pitch_ff,ro_roll_assist,flaps_cur,flaps_tgt,phase_el_s,status
1.02,APPROACH,FLY_TO_FIX,148.42,80.4,-68.02,999.19,-42.48,-13.15,4.89,188.23,-58.605,0,-20,201.19,2.487,0,0,0,0,0,0,0,0,181.53,0,0,0,0,0,0,0,0,0,0,0,0,0,1,1,1.06,FLYING
1.76,APPROACH,FLY_TO_FIX,152.88,80.8,-72.08,966.53,-45.48,-16.74,-1.47,185.69,-51.26,0,-20,201.31,2.649,0,0,0,0,0,0,0,0,181.53,0,0,0,0,0,0,0,0,0,0,0,0,0,1,1,1.8,FLYING
2.46,APPROACH,FLY_TO_FIX,157,81.2,-75.8,933.84,-47.17,-13.13,3.8,191.46,-37.257,0,-20,201.4,2.812,0,0,0,0,0,0,0,0,181.53,0,0,0,0,0,0,0,0,0,0,0,0,0,1,1,2.5,FLYING
3.16,APPROACH,FLY_TO_FIX,159.74,81.6,-78.14,903.34,-40.91,-10.55,3.57,193.31,-22.878,0,-20,201.49,2.967,0,0,0,0,0,0,0,0,181.53,0,0,0,0,0,0,0,0,0,0,0,0,0,1,1,3.2,FLYING
3.88,APPROACH,FLY_TO_FIX,162.05,82,-80.05,876.9,-33.66,-8.58,2.8,194.64,-17.102,0,-20,201.55,3.099,0,0,0,0,0,0,0,0,181.53,0,0,0,0,0,0,0,0,0,0,0,0,0,0,0,3.9,FLYING
4.62,APPROACH,FLY_TO_FIX,163.99,82.4,-81.59,854.88,-27.01,-6.73,2.3,195.97,-15.4,0,-20,201.61,3.212,0,0,0,0,0,0,0,0,181.53,0,0,0,0,0,0,0,0,0,0,0,0,0,0,0,4.66,FLYING
5.32,APPROACH,FLY_TO_FIX,165.31,82.8,-82.51,838.27,-21.48,-5.17,1.95,196.94,-13.955,0,-20,201.66,3.298,0,0,0,0,0,0,0,0,181.53,0,0,0,0,0,0,0,0,0,0,0,0,0,0,0,5.36,FLYING
6.02,APPROACH,FLY_TO_FIX,166.24,83.2,-83.04,825.23,-16.68,-3.86,1.64,197.75,-12.544,0,-20,201.7,3.366,0,0,0,0,0,0,0,0,181.53,0,0,0,0,0,0,0,0,0,0,0,0,0,0,0,6.06,FLYING
6.72,APPROACH,FLY_TO_FIX,166.84,83.6,-83.24,815.27,-12.56,-2.69,1.43,198.43,-11.194,0,-20,201.74,3.417,0,0,0,0,0,0,0,0,181.53,0,0,0,0,0,0,0,0,0,0,0,0,0,0,0,6.76,FLYING
7.42,APPROACH,FLY_TO_FIX,167.11,84,-83.11,807.97,-8.93,-1.75,1.18,199,-9.927,0,-20,201.76,3.456,0,0,0,0,0,0,0,0,181.53,0,0,0,0,0,0,0,0,0,0,0,0,0,0,0,7.46,FLYING
8.12,APPROACH,FLY_TO_FIX,167.1,84,-83.1,802.99,-5.85,-0.95,0.96,199.47,-8.735,0,-20,201.79,3.482,0,0,0,0,0,0,0,0,181.53,0,0,0,0,0,0,0,0,0,0,0,0,0,0,0,8.16,FLYING
8.82,APPROACH,FLY_TO_FIX,166.85,84,-82.85,799.98,-3.23,-0.27,0.79,199.88,-7.618,0,-20,201.81,3.498,0,0,0,0,0,0,0,0,181.53,0,0,0,0,0,0,0,0,0,0,0,0,0,0,0,8.86,FLYING
9.56,APPROACH,FLY_TO_FIX,166.37,84,-82.37,797.09,-0.91,0.34,0.64,200.24,-6.528,0,-20,201.83,3.507,0,0,0,0,0,0,0,0,181.53,0,0,0,0,0,0,0,0,0,0,0,0,0,0,0,9.6,FLYING
10.28,APPROACH,FLY_TO_FIX,165.72,84,-81.72,794.59,0.97,0.85,0.54,200.53,-5.566,0,-20,201.84,3.507,0,0,0,0,0,0,0,0,181.53,0,0,0,0,0,0,0,0,0,0,0,0,0,0,0,10.32,FLYING
11,APPROACH,FLY_TO_FIX,164.92,84,-80.92,795.37,2.52,1.28,0.45,200.78,-4.705,0,-20,201.85,3.501,0,0,0,0,0,0,0,0,181.53,0,0,0,0,0,0,0,0,0,0,0,0,0,0,0,11.04,FLYING
11.72,APPROACH,FLY_TO_FIX,164,84,-80,799,3.81,1.65,0.39,200.98,-3.945,0,-20,201.86,3.49,0,0,0,0,0,0,0,0,181.53,0,0,0,0,0,0,0,0,0,0,0,0,0,0,0,11.76,FLYING
12.44,APPROACH,FLY_TO_FIX,162.98,84,-78.98,805.67,4.85,1.97,0.35,201.15,-3.281,0,-20,201.87,3.474,0,0,0,0,0,0,0,0,181.53,0,0,0,0,0,0,0,0,0,0,0,0,0,0,0,12.48,FLYING
13.16,APPROACH,FLY_TO_FIX,161.88,84,-77.88,809.54,5.71,2.24,0.32,201.29,-2.713,0,-20,201.87,3.455,0,0,0,0,0,0,0,0,181.53,0,0,0,0,0,0,0,0,0,0,0,0,0,0,0,13.2,FLYING
13.88,APPROACH,FLY_TO_FIX,160.72,84,-76.72,813.95,6.4,2.47,0.31,201.41,-2.227,0,-20,201.88,3.433,0,0,0,0,0,0,0,0,181.53,0,0,0,0,0,0,0,0,0,0,0,0,0,0,0,13.92,FLYING
14.6,APPROACH,FLY_TO_FIX,159.5,84,-75.5,818.94,6.97,2.68,0.31,201.51,-1.817,0,-20,201.88,3.409,0,0,0,0,0,0,0,0,181.53,0,0,0,0,0,0,0,0,0,0,0,0,0,1,1,14.64,FLYING
15.36,APPROACH,FLY_TO_FIX,158.15,84,-74.15,824.32,7.48,2.78,0.21,201.58,-1.457,0,-20,201.89,3.381,0,0,0,0,0,0,0,0,181.53,0,0,0,0,0,0,0,0,0,0,0,0,0,1,1,15.4,FLYING
16.06,APPROACH,FLY_TO_FIX,156.84,84,-72.84,829.7,7.85,2.83,0.11,201.64,-1.183,0,-20,201.89,3.355,0,0,0,0,0,0,0,0,181.53,0,0,0,0,0,0,0,0,0,0,0,0,0,1,1,16.1,FLYING
16.76,APPROACH,FLY_TO_FIX,155.47,84,-71.47,835.29,8.12,2.85,0.03,201.69,-0.954,0,-20,201.89,3.327,0,0,0,0,0,0,0,0,181.53,0,0,0,0,0,0,0,0,0,0,0,0,0,1,1,16.8,FLYING
17.46,APPROACH,FLY_TO_FIX,154.04,84,-70.04,841.02,8.28,2.84,-0.07,201.73,-0.722,0,-20,201.89,3.298,0,0,0,0,0,0,0,0,181.53,0,0,0,0,0,0,0,0,0,0,0,0,0,1,1,17.5,FLYING
18.16,APPROACH,FLY_TO_FIX,152.53,84,-68.53,847.07,8.83,4.14,1,201.76,-0.399,0,-20,201.89,3.268,0,0,0,0,0,0,0,0,181.53,0,0,0,0,0,0,0,0,0,0,0,0,0,1,1,18.2,FLYING
18.86,APPROACH,FLY_TO_FIX,150.9,84,-66.9,853.56,9.51,3.34,-0.07,201.78,-0.264,0.0222,-20,201.89,3.236,0,0,0,0,0,0,0,0,181.53,0,0,0,0,0,0,0,0,0,0,0,0,0,1,1,18.9,FLYING
19.56,APPROACH,FLY_TO_FIX,149.37,84,-65.37,860.19,9.4,3.39,-0.01,201.79,-0.202,0.0483,-20,201.9,3.203,0,0,0,0,0,0,0,0,181.53,0,0,0,0,0,0,0,0,0,0,0,0,0,1,1,19.6,FLYING
20.28,APPROACH,FLY_TO_FIX,147.82,84,-63.82,866.92,9.28,3.45,0.06,201.81,-0.168,0.0711,-20,201.9,3.169,0,0,0,0,0,0,0,0,181.53,0,0,0,0,0,0,0,0,0,0,0,0,0,1,1,20.32,FLYING
20.98,APPROACH,FLY_TO_FIX,146.33,84,-62.33,873.38,9.16,3.51,0.13,201.82,-0.15,0.0825,-20,201.9,3.137,0,0,0,0,0,0,0,0,181.53,0,0,0,0,0,0,0,0,0,0,0,0,0,1,1,21.02,FLYING
21.7,APPROACH,FLY_TO_FIX,144.84,84,-60.84,879.94,9.04,3.57,0.2,201.83,-0.138,0.0927,-20,201.9,3.104,0,0,0,0,0,0,0,0,181.53,0,0,0,0,0,0,0,0,0,0,0,0,0,1,1,21.74,FLYING
22.42,APPROACH,FLY_TO_FIX,143.37,84,-59.37,886.41,8.91,3.63,0.27,201.83,-0.126,0.0976,-20,201.9,3.072,0,0,0,0,0,0,0,0,181.53,0,0,0,0,0,0,0,0,0,0,0,0,0,1,1,22.46,FLYING
23.14,APPROACH,FLY_TO_FIX,141.94,84,-57.94,892.79,8.79,3.68,0.35,201.84,-0.116,0.0983,-20,201.9,3.04,0,0,0,0,0,0,0,0,181.53,0,0,0,0,0,0,0,0,0,0,0,0,0,1,1,23.18,FLYING
23.84,APPROACH,FLY_TO_FIX,140.58,84,-56.58,898.9,8.66,3.73,0.42,201.85,-0.106,0.0917,-20,201.9,3.009,0,0,0,0,0,0,0,0,181.53,0,0,0,0,0,0,0,0,0,0,0,0,0,1,1,23.88,FLYING
24.54,APPROACH,FLY_TO_FIX,139.25,84,-55.25,904.92,8.53,3.78,0.49,201.86,-0.096,0.0834,-20,201.9,2.979,0,0,0,0,0,0,0,0,181.53,0,0,0,0,0,0,0,0,0,0,0,0,0,1,1,24.58,FLYING
25.24,APPROACH,FLY_TO_FIX,137.95,84,-53.95,910.85,8.4,3.84,0.56,201.86,-0.086,0.0742,-20,201.9,2.949,0,0,0,0,0,0,0,0,181.53,0,0,0,0,0,0,0,0,0,0,0,0,0,1,1,25.28,FLYING
25.94,APPROACH,FLY_TO_FIX,136.67,84,-52.67,916.69,8.27,3.89,0.64,201.87,-0.077,0.0645,-20,201.9,2.92,0,0,0,0,0,0,0,0,181.53,0,0,0,0,0,0,0,0,0,0,0,0,0,1,1,25.98,FLYING
26.64,APPROACH,FLY_TO_FIX,135.41,84,-51.41,922.44,8.14,3.94,0.71,201.88,-0.067,0.0548,-20,201.9,2.891,0,0,0,0,0,0,0,0,181.53,0,0,0,0,0,0,0,0,0,0,0,0,0,1,1,26.68,FLYING
27.34,APPROACH,FLY_TO_FIX,134.17,84,-50.17,928.1,8.01,4,0.79,201.88,-0.058,0.0452,-20,201.9,2.863,0,0,0,0,0,0,0,0,181.53,0,0,0,0,0,0,0,0,0,0,0,0,0,1,1,27.38,FLYING
28.06,APPROACH,FLY_TO_FIX,132.9,84,-48.9,933.83,7.88,4.05,0.87,201.89,-0.049,0.0396,-20,201.9,2.834,0,0,0,0,0,0,0,0,181.53,0,0,0,0,0,0,0,0,0,0,0,0,0,1,1,28.1,FLYING
28.76,APPROACH,FLY_TO_FIX,131.69,84,-47.69,939.31,7.76,4.11,0.95,201.89,-0.041,0.0302,-20,201.9,2.807,0,0,0,0,0,0,0,0,181.53,0,0,0,0,0,0,0,0,0,0,0,0,0,1,1,28.8,FLYING
29.46,APPROACH,FLY_TO_FIX,130.48,84,-46.48,944.7,7.63,4.17,1.04,201.89,-0.034,0.0217,-20,201.9,2.78,0,0,0,0,0,0,0,0,181.53,0,0,0,0,0,0,0,0,0,0,0,0,0,1,1,29.5,FLYING
30.16,APPROACH,FLY_TO_FIX,129.28,84,-45.28,950,7.5,4.23,1.12,201.9,-0.027,0.0145,-20,201.9,2.753,0,0,0,0,0,0,0,0,181.53,0,0,0,0,0,0,0,0,0,0,0,0,0,1,1,30.2,FLYING
30.88,APPROACH,FLY_TO_FIX,128.05,84,-44.05,955.36,7.37,4.29,1.21,201.9,-0.021,0.0123,-20,201.9,2.726,0,0,0,0,0,0,0,0,181.53,0,0,0,0,0,0,0,0,0,0,0,0,0,1,1,30.92,FLYING
31.58,APPROACH,FLY_TO_FIX,126.84,84,-42.84,960.49,7.25,4.36,1.3,201.9,-0.016,0.0075,-20,201.9,2.7,0,0,0,0,0,0,0,0,181.53,0,0,0,0,0,0,0,0,0,0,0,0,0,1,1,31.62,FLYING
32.28,APPROACH,FLY_TO_FIX,125.63,84,-41.63,965.53,7.12,4.43,1.4,201.91,-0.011,0.004,-20,201.9,2.675,0,0,0,0,0,0,0,0,181.53,0,0,0,0,0,0,0,0,0,0,0,0,0,1,1,32.32,FLYING
33,APPROACH,FLY_TO_FIX,124.38,84,-40.38,970.62,7,4.5,1.5,201.91,-0.007,0.0052,-20,201.9,2.65,0,0,0,0,0,0,0,0,181.53,0,0,0,0,0,0,0,0,0,0,0,0,0,1,1,33.04,FLYING
33.72,APPROACH,FLY_TO_FIX,123.12,84,-39.12,975.62,6.87,4.58,1.6,201.91,-0.003,0.0067,-20,201.9,2.625,0,0,0,0,0,0,0,0,181.53,0,0,0,0,0,0,0,0,0,0,0,0,0,1,1,33.76,FLYING
34.42,APPROACH,FLY_TO_FIX,121.9,84,-37.9,980.39,6.75,4.66,1.71,201.91,0,0.0045,-20,201.9,2.601,0,0,0,0,0,0,0,0,181.53,0,0,0,0,0,0,0,0,0,0,0,0,0,1,1,34.46,FLYING
35.14,APPROACH,FLY_TO_FIX,120.64,84,-36.64,985.22,6.62,4.74,1.82,201.92,0.003,0.0063,-20,201.9,2.577,0,0,0,0,0,0,0,0,181.53,0,0,0,0,0,0,0,0,0,0,0,0,0,1,1,35.18,FLYING
35.86,APPROACH,FLY_TO_FIX,119.42,84,-35.42,989.95,6.5,4.83,1.93,201.92,0.006,0.0078,-20,201.9,2.553,0,0,0,0,0,0,0,0,181.53,0,0,0,0,0,0,0,0,0,0,0,0,0,2,2,35.88,FLYING
36.6,APPROACH,FLY_TO_FIX,118.07,84,-34.07,994.74,6.42,4.83,1.94,201.92,0.008,0.0148,-20,201.9,2.529,0,0,0,0,0,0,0,0,181.53,0,0,0,0,0,0,0,0,0,0,0,0,0,2,2,36.64,FLYING
37.3,APPROACH,FLY_TO_FIX,116.79,84,-32.79,999.2,6.33,4.83,1.95,201.92,0.011,0.017,-20,201.9,2.507,0,0,0,0,0,0,0,0,181.53,0,0,0,0,0,0,0,0,0,0,0,0,0,2,2,37.34,FLYING
38,APPROACH,FLY_TO_FIX,115.46,84,-31.46,1003.59,6.24,4.83,1.96,201.92,0.013,0.0225,-20,201.9,2.485,0,0,0,0,0,0,0,0,181.53,0,0,0,0,0,0,0,0,0,0,0,0,0,2,2,38.04,FLYING
38.7,APPROACH,FLY_TO_FIX,114.11,84,-30.11,1007.92,6.13,4.83,1.98,201.92,0.015,0.0306,-20,201.9,2.463,0,0,0,0,0,0,0,0,181.53,0,0,0,0,0,0,0,0,0,0,0,0,0,2,2,38.74,FLYING
39.48,APPROACH,FLY_TO_FIX,112.66,84,-28.66,1012.67,5.99,4.86,2.03,201.93,0.018,0.0432,-20,201.9,2.44,0,0,0,0,0,0,0,0,181.53,0,0,0,0,0,0,0,0,0,0,0,0,0,2,2,39.54,FLYING
40.62,APPROACH,FLY_TO_FIX,110.47,84,-26.47,1019.36,5.7,5.02,2.28,201.93,0.01,0.1279,-20,201.9,2.407,0,0,0,0,0,0,0,0,181.53,0,0,0,0,0,0,0,0,0,0,0,0,0,2,2,40.69,FLYING
41.85,APPROACH,FLY_TO_FIX,108.12,84,-24.12,1026.22,5.46,5.29,2.6,201.93,0.002,0.2144,-20,201.9,2.373,0,0,0,0,0,0,0,0,181.53,0,0,0,0,0,0,0,0,0,0,0,0,0,2,2,41.92,FLYING
43.04,APPROACH,FLY_TO_FIX,105.93,84,-21.93,1032.63,5.27,5.52,2.88,201.94,0.001,0.268,-20,201.9,2.341,0,0,0,0,0,0,0,0,181.53,0,0,0,0,0,0,0,0,0,0,0,0,0,2,2,43.11,FLYING
44.23,APPROACH,FLY_TO_FIX,103.87,84,-19.87,1038.83,5.09,5.75,3.15,201.94,0.001,0.2986,-20,201.9,2.309,0,0,0,0,0,0,0,0,181.53,0,0,0,0,0,0,0,0,0,0,0,0,0,2,2,44.3,FLYING
45.45,APPROACH,FLY_TO_FIX,101.88,84,-17.88,1045,4.92,5.99,3.43,201.95,0.002,0.3152,-20,201.9,2.278,0,0,0,0,0,0,0,0,181.53,0,0,0,0,0,0,0,0,0,0,0,0,0,2,2,45.52,FLYING
46.64,APPROACH,FLY_TO_FIX,100.1,84,-16.1,1050.8,4.77,6.22,3.7,201.95,0.004,0.3088,-20,201.9,2.249,0,0,0,0,0,0,0,0,181.53,0,0,0,0,0,0,0,0,0,0,0,0,0,2,2,46.71,FLYING
47.87,APPROACH,FLY_TO_FIX,98.39,84,-14.39,1056.59,4.63,6.45,3.96,201.95,0.006,0.2955,-20,201.9,2.22,0,0,0,0,0,0,0,0,181.53,0,0,0,0,0,0,0,0,0,0,0,0,0,2,2,47.94,FLYING
49.09,APPROACH,FLY_TO_FIX,96.8,84,-12.8,1062.21,4.5,6.68,4.22,201.96,0.006,0.2727,-20,201.9,2.192,0,0,0,0,0,0,0,0,181.53,0,0,0,0,0,0,0,0,0,0,0,0,0,2,2,49.16,FLYING
50.32,APPROACH,FLY_TO_FIX,95.31,84,-11.31,1067.68,4.37,6.9,4.47,201.96,0.006,0.2485,-20,201.9,2.165,0,0,0,0,0,0,0,0,181.53,0,0,0,0,0,0,0,0,0,0,0,0,0,2,2,50.39,FLYING
51.54,APPROACH,FLY_TO_FIX,93.91,84,-9.91,1073,4.26,7.12,4.73,201.96,0.006,0.2167,-20,201.89,2.138,0,0,0,0,0,0,0,0,181.53,0,0,0,0,0,0,0,0,0,0,0,0,0,2,2,51.61,FLYING
52.77,APPROACH,FLY_TO_FIX,92.56,84,-8.56,1078.17,4.15,7.35,4.99,201.96,0.005,0.1855,-20,201.89,2.112,0,0,0,0,0,0,0,0,181.53,0,0,0,0,0,0,0,0,0,0,0,0,0,2,2,52.84,FLYING
53.99,APPROACH,FLY_TO_FIX,91.24,84,-7.24,1083.22,4.04,7.58,5.25,201.96,0.004,0.168,-20,201.89,2.087,0,0,0,0,0,0,0,0,181.53,0,0,0,0,0,0,0,0,0,0,0,0,0,2,2,54.06,FLYING
55.22,APPROACH,FLY_TO_FIX,89.94,84,-5.94,1088.14,3.93,7.83,5.52,201.96,0.004,0.2086,-20,201.89,2.062,0,0,0,0,0,0,0,0,181.53,0,0,0,0,0,0,0,0,0,0,0,0,0,2,2,55.29,FLYING
56.44,APPROACH,FLY_TO_FIX,88.66,84,-4.66,1092.93,3.83,8.08,5.8,201.96,0.003,0.252,-20,201.89,2.038,0,0,0,0,0,0,0,0,181.53,0,0,0,0,0,0,0,0,0,0,0,0,0,2,2,56.51,FLYING
57.67,APPROACH,FLY_TO_FIX,87.4,84,-3.4,1097.6,3.73,8.34,6.08,201.96,0.001,0.2948,-20,201.89,2.015,0,0,0,0,0,0,0,0,181.53,0,0,0,0,0,0,0,0,0,0,0,0,0,2,2,57.74,FLYING
58.89,APPROACH,FLY_TO_FIX,86.2,84,-2.2,1102.16,3.64,8.59,6.36,201.96,0,0.334,-20,201.89,1.992,0,0,0,0,0,0,0,0,181.53,0,0,0,0,0,0,0,0,0,0,0,0,0,2,2,58.96,FLYING
60.12,APPROACH,FLY_TO_FIX,85.07,84,-1.07,1106.6,3.55,8.83,6.63,201.96,-0.002,0.3672,-20,201.89,1.97,0,0,0,0,0,0,0,0,181.53,0,0,0,0,0,0,0,0,0,0,0,0,0,2,2,60.19,FLYING
61.34,APPROACH,FLY_TO_FIX,84.02,84,-0.02,1110.94,3.48,9.06,6.89,201.96,-0.004,0.393,-20,201.89,1.948,0,0,0,0,0,0,0,0,181.53,0,0,0,0,0,0,0,0,0,0,0,0,0,2,2,61.41,FLYING
62.57,APPROACH,FLY_TO_FIX,83.05,84,0.95,1115.19,3.4,9.28,7.13,201.96,-0.005,0.4161,-19.54,201.89,1.926,0,0,0,0,0,0,0,0,181.53,0,0,0,0,0,0,0,0,0,0,0,0,0,2,2,62.64,FLYING
63.79,APPROACH,FLY_TO_FIX,82.19,84,1.81,1119.35,3.34,9.48,7.35,201.96,-0.006,0.436,-18.647,201.88,1.906,0,0,0,0,0,0,0,0,181.53,0,0,0,0,0,0,0,0,0,0,0,0,0,2,2,63.86,FLYING
65.02,APPROACH,FLY_TO_FIX,81.43,84,2.57,1123.43,3.28,9.66,7.55,201.96,-0.007,0.4521,-17.371,201.88,1.885,0,0,0,0,0,0,0,0,181.53,0,0,0,0,0,0,0,0,0,0,0,0,0,2,2,65.09,FLYING
66.21,APPROACH,FLY_TO_FIX,80.79,84,3.21,1127.32,3.23,9.8,7.71,201.96,-0.007,0.4613,-15.773,201.88,1.866,0,0,0,0,0,0,0,0,181.53,0,0,0,0,0,0,0,0,0,0,0,0,0,2,2,66.28,FLYING
67.4,APPROACH,FLY_TO_FIX,80.24,84,3.76,1131.15,3.18,9.92,7.85,201.96,-0.006,0.4673,-13.902,201.88,1.846,0,0,0,0,0,0,0,0,181.53,0,0,0,0,0,0,0,0,0,0,0,0,0,2,2,67.47,FLYING
68.59,APPROACH,FLY_TO_FIX,79.8,84,4.2,1134.93,3.14,10.02,7.96,201.96,-0.005,0.4703,-11.808,201.88,1.828,0,0,0,0,0,0,0,0,181.53,0,0,0,0,0,0,0,0,0,0,0,0,0,2,2,68.66,FLYING
69.78,APPROACH,FLY_TO_FIX,79.45,84,4.55,1138.66,3.11,10.1,8.05,201.96,-0.005,0.4705,-9.535,201.88,1.809,0,0,0,0,0,0,0,0,181.53,0,0,0,0,0,0,0,0,0,0,0,0,0,2,2,69.85,FLYING
70.97,APPROACH,FLY_TO_FIX,79.18,84,4.82,1142.35,3.09,10.15,8.11,201.96,-0.003,0.468,-7.128,201.88,1.79,0,0,0,0,0,0,0,0,181.53,0,0,0,0,0,0,0,0,0,0,0,0,0,2,2,71.04,FLYING
72.16,APPROACH,FLY_TO_FIX,79,84,5,1146.01,3.06,10.17,8.15,201.96,-0.001,0.4631,-4.629,201.88,1.772,0,0,0,0,0,0,0,0,181.53,0,0,0,0,0,0,0,0,0,0,0,0,0,2,2,72.23,FLYING
73.38,APPROACH,FLY_TO_FIX,78.89,84,5.11,1149.75,3.05,10.18,8.17,201.96,0,0.4565,-2.075,201.87,1.753,0,0,0,0,0,0,0,0,181.53,0,0,0,0,0,0,0,0,0,0,0,0,0,2,2,73.45,FLYING
74.61,APPROACH,FLY_TO_FIX,78.86,84,5.14,1153.47,3.03,10.16,8.16,201.96,0.002,0.4475,0.497,201.87,1.735,0,0,0,0,0,0,0,0,181.53,0,0,0,0,0,0,0,0,0,0,0,0,0,2,2,74.68,FLYING
75.83,APPROACH,FLY_TO_FIX,78.89,84,5.11,1157.18,3.02,10.13,8.13,201.96,0.004,0.4367,3.053,201.87,1.716,0,0,0,0,0,0,0,0,181.53,0,0,0,0,0,0,0,0,0,0,0,0,0,2,2,75.9,FLYING
77.06,APPROACH,FLY_TO_FIX,78.98,84,5.02,1160.86,3.01,10.08,8.09,201.96,0.006,0.4246,5.565,201.87,1.698,0,0,0,0,0,0,0,0,181.53,0,0,0,0,0,0,0,0,0,0,0,0,0,2,2,77.13,FLYING
78.28,APPROACH,FLY_TO_FIX,79.12,84,4.88,1164.54,3.01,10.02,8.04,201.96,0.008,0.4118,8.008,201.87,1.679,0,0,0,0,0,0,0,0,181.53,0,0,0,0,0,0,0,0,0,0,0,0,0,2,2,78.35,FLYING
79.51,APPROACH,FLY_TO_FIX,79.3,84,4.7,1168.21,3,9.94,7.98,201.96,0.01,0.3988,10.36,201.87,1.661,0,0,0,0,0,0,0,0,181.53,0,0,0,0,0,0,0,0,0,0,0,0,0,2,2,79.58,FLYING
80.73,APPROACH,FLY_TO_FIX,79.51,84,4.49,1171.86,2.99,9.86,7.91,201.96,0.011,0.3862,12.608,201.86,1.643,0,0,0,0,0,0,0,0,181.53,0,0,0,0,0,0,0,0,0,0,0,0,0,2,2,80.8,FLYING
81.96,APPROACH,FLY_TO_FIX,79.75,84,4.25,1175.51,2.99,9.77,7.83,201.95,0.013,0.3744,14.737,201.86,1.625,0,0,0,0,0,0,0,0,181.53,0,0,0,0,0,0,0,0,0,0,0,0,0,2,2,82.03,FLYING
83.18,APPROACH,FLY_TO_FIX,80,84,4,1179.14,2.98,9.68,7.75,201.95,0.015,0.3636,16.74,201.86,1.606,0,0,0,0,0,0,0,0,181.53,0,0,0,0,0,0,0,0,0,0,0,0,0,2,2,83.25,FLYING
84.41,APPROACH,FLY_TO_FIX,80.26,84,3.74,1182.77,2.97,9.59,7.67,201.95,0.016,0.3542,18.611,201.86,1.588,0,0,0,0,0,0,0,0,181.53,0,0,0,0,0,0,0,0,0,0,0,0,0,2,2,84.48,FLYING
85.63,APPROACH,FLY_TO_FIX,80.52,84,3.48,1186.38,2.96,9.51,7.6,201.95,0.017,0.3431,20,201.86,1.57,0,0,0,0,0,0,0,0,181.53,0,0,0,0,0,0,0,0,0,0,0,0,0,2,2,85.7,FLYING
86.86,APPROACH,FLY_TO_FIX,80.76,84,3.24,1189.98,2.94,9.43,7.54,201.94,0.018,0.3211,20,201.85,1.552,0,0,0,0,0,0,0,0,181.53,0,0,0,0,0,0,0,0,0,0,0,0,0,2,2,86.93,FLYING
88.08,APPROACH,FLY_TO_FIX,80.96,84,3.04,1193.56,2.92,9.36,7.49,201.94,0.018,0.3073,20,201.85,1.534,0,0,0,0,0,0,0,0,181.53,0,0,0,0,0,0,0,0,0,0,0,0,0,2,2,88.15,FLYING
89.31,APPROACH,FLY_TO_FIX,81.09,84,2.91,1197.12,2.9,9.32,7.47,201.94,0.017,0.3042,20,201.85,1.516,0,0,0,0,0,0,0,0,181.53,0,0,0,0,0,0,0,0,0,0,0,0,0,2,2,89.38,FLYING
90.53,APPROACH,FLY_TO_FIX,81.16,84,2.84,1200.64,2.87,9.3,7.46,201.93,0.017,0.3107,20,201.85,1.499,0,0,0,0,0,0,0,0,181.53,0,0,0,0,0,0,0,0,0,0,0,0,0,2,2,90.6,FLYING
91.76,APPROACH,FLY_TO_FIX,81.17,84,2.83,1204.13,2.84,9.28,7.47,201.93,0.016,0.3228,20,201.85,1.481,0,0,0,0,0,0,0,0,181.53,0,0,0,0,0,0,0,0,0,0,0,0,0,2,2,91.83,FLYING
92.98,APPROACH,FLY_TO_FIX,81.17,84,2.83,1207.58,2.8,9.26,7.47,201.93,0.015,0.3354,20,201.84,1.464,0,0,0,0,0,0,0,0,181.53,0,0,0,0,0,0,0,0,0,0,0,0,0,2,2,93.05,FLYING
94.21,APPROACH,FLY_TO_FIX,81.16,84,2.84,1210.99,2.77,9.25,7.47,201.93,0.014,0.3451,20,201.84,1.447,0,0,0,0,0,0,0,0,181.53,0,0,0,0,0,0,0,0,0,0,0,0,0,2,2,94.28,FLYING
95.43,APPROACH,FLY_TO_FIX,81.17,84,2.83,1214.36,2.75,9.22,7.47,201.92,0.013,0.3513,20,201.84,1.43,0,0,0,0,0,0,0,0,181.53,0,0,0,0,0,0,0,0,0,0,0,0,0,2,2,95.5,FLYING
96.66,APPROACH,FLY_TO_FIX,81.19,84,2.81,1217.7,2.72,9.2,7.46,201.92,0.012,0.354,20,201.84,1.413,0,0,0,0,0,0,0,0,181.53,0,0,0,0,0,0,0,0,0,0,0,0,0,2,2,96.73,FLYING
97.88,APPROACH,FLY_TO_FIX,81.23,84,2.77,1221.01,2.69,9.16,7.44,201.92,0.012,0.3535,20,201.84,1.397,0,0,0,0,0,0,0,0,181.53,0,0,0,0,0,0,0,0,0,0,0,0,0,2,2,97.95,FLYING
99.11,APPROACH,FLY_TO_FIX,81.29,84,2.71,1224.29,2.67,9.13,7.43,201.92,0.012,0.3501,20,201.83,1.38,0,0,0,0,0,0,0,0,181.53,0,0,0,0,0,0,0,0,0,0,0,0,0,2,2,99.18,FLYING
100.33,APPROACH,FLY_TO_FIX,81.36,84,2.64,1227.54,2.65,9.09,7.4,201.92,0.012,0.3446,20,201.83,1.364,0,0,0,0,0,0,0,0,181.53,0,0,0,0,0,0,0,0,0,0,0,0,0,2,2,100.4,FLYING
101.56,APPROACH,FLY_TO_FIX,81.44,84,2.56,1230.76,2.62,9.05,7.38,201.91,0.012,0.3376,20,201.83,1.348,0,0,0,0,0,0,0,0,181.53,0,0,0,0,0,0,0,0,0,0,0,0,0,2,2,101.63,FLYING
102.78,APPROACH,FLY_TO_FIX,81.54,84,2.46,1233.95,2.6,9.01,7.35,201.91,0.012,0.3299,20,201.83,1.332,0,0,0,0,0,0,0,0,181.53,0,0,0,0,0,0,0,0,0,0,0,0,0,2,2,102.85,FLYING
104.01,APPROACH,FLY_TO_FIX,81.63,84,2.37,1237.12,2.58,8.96,7.33,201.91,0.012,0.3222,20,201.82,1.316,0,0,0,0,0,0,0,0,181.53,0,0,0,0,0,0,0,0,0,0,0,0,0,2,2,104.08,FLYING
105.23,APPROACH,FLY_TO_FIX,81.72,84,2.28,1240.26,2.56,8.93,7.31,201.91,0.012,0.3163,20,201.82,1.3,0,0,0,0,0,0,0,0,181.53,0,0,0,0,0,0,0,0,0,0,0,0,0,2,2,105.3,FLYING
106.46,APPROACH,FLY_TO_FIX,81.79,84,2.21,1243.37,2.53,8.9,7.29,201.9,0.013,0.3134,20,201.82,1.285,0,0,0,0,0,0,0,0,181.53,0,0,0,0,0,0,0,0,0,0,0,0,0,2,2,106.53,FLYING
107.68,APPROACH,FLY_TO_FIX,81.84,84,2.16,1246.45,2.51,8.87,7.28,201.9,0.013,0.3137,20,201.81,1.27,0,0,0,0,0,0,0,0,181.53,0,0,0,0,0,0,0,0,0,0,0,0,0,2,2,107.75,FLYING
108.91,APPROACH,FLY_TO_FIX,81.86,84,2.14,1249.5,2.48,8.85,7.28,201.9,0.013,0.3163,20,201.81,1.254,0,0,0,0,0,0,0,0,181.53,0,0,0,0,0,0,0,0,0,0,0,0,0,2,2,108.98,FLYING
110.13,APPROACH,FLY_TO_FIX,81.88,84,2.12,1252.52,2.45,8.83,7.28,201.9,0.013,0.3199,20,201.81,1.239,0,0,0,0,0,0,0,0,181.53,0,0,0,0,0,0,0,0,0,0,0,0,0,2,2,110.2,FLYING
111.36,APPROACH,FLY_TO_FIX,81.89,84,2.11,1255.5,2.43,8.81,7.27,201.89,0.014,0.323,20,201.8,1.224,0,0,0,0,0,0,0,0,181.53,0,0,0,0,0,0,0,0,0,0,0,0,0,2,2,111.43,FLYING
112.58,APPROACH,FLY_TO_FIX,81.91,84,2.09,1258.46,2.4,8.79,7.27,201.89,0.014,0.3248,20,201.8,1.209,0,0,0,0,0,0,0,0,181.53,0,0,0,0,0,0,0,0,0,0,0,0,0,2,2,112.65,FLYING
113.81,APPROACH,FLY_TO_FIX,81.93,84,2.07,1261.38,2.38,8.76,7.26,201.89,0.014,0.3254,20,201.8,1.195,0,0,0,0,0,0,0,0,181.53,0,0,0,0,0,0,0,0,0,0,0,0,0,2,2,113.88,FLYING
115.03,APPROACH,FLY_TO_FIX,81.96,84,2.04,1264.28,2.36,8.74,7.25,201.89,0.015,0.3248,20,201.79,1.18,0,0,0,0,0,0,0,0,181.53,0,0,0,0,0,0,0,0,0,0,0,0,0,2,2,115.1,FLYING
116.26,APPROACH,FLY_TO_FIX,82,84,2,1267.14,2.33,8.72,7.24,201.88,0.016,0.3232,20,201.79,1.166,0,0,0,0,0,0,0,0,181.53,0,0,0,0,0,0,0,0,0,0,0,0,0,2,2,116.33,FLYING
117.48,APPROACH,FLY_TO_FIX,82.03,84,1.97,1269.98,2.31,8.69,7.23,201.88,0.016,0.3209,20,201.78,1.152,0,0,0,0,0,0,0,0,181.53,0,0,0,0,0,0,0,0,0,0,0,0,0,2,2,117.55,FLYING
118.71,APPROACH,FLY_TO_FIX,82.08,84,1.92,1272.79,2.29,8.66,7.22,201.88,0.018,0.318,20,201.78,1.138,0,0,0,0,0,0,0,0,181.53,0,0,0,0,0,0,0,0,0,0,0,0,0,2,2,118.78,FLYING
119.93,APPROACH,FLY_TO_FIX,82.12,84,1.88,1275.57,2.27,8.64,7.21,201.87,0.018,0.3152,20,201.77,1.124,0,0,0,0,0,0,0,0,181.53,0,0,0,0,0,0,0,0,0,0,0,0,0,2,2,120,FLYING
121.16,APPROACH,FLY_TO_FIX,82.16,84,1.84,1278.33,2.24,8.61,7.2,201.87,0.02,0.313,20,201.76,1.11,0,0,0,0,0,0,0,0,181.53,0,0,0,0,0,0,0,0,0,0,0,0,0,2,2,121.23,FLYING
122.38,APPROACH,FLY_TO_FIX,82.19,84,1.81,1281.05,2.22,8.59,7.19,201.86,0.021,0.312,20,201.76,1.096,0,0,0,0,0,0,0,0,181.53,0,0,0,0,0,0,0,0,0,0,0,0,0,2,2,122.45,FLYING
123.61,APPROACH,FLY_TO_FIX,82.22,84,1.78,1283.75,2.2,8.57,7.19,201.86,0.024,0.312,20,201.75,1.083,0,0,0,0,0,0,0,0,181.53,0,0,0,0,0,0,0,0,0,0,0,0,0,2,2,123.68,FLYING
124.83,APPROACH,FLY_TO_FIX,82.23,84,1.77,1286.42,2.17,8.55,7.19,201.86,0.026,0.3128,20,201.74,1.069,0,0,0,0,0,0,0,0,181.53,0,0,0,0,0,0,0,0,0,0,0,0,0,2,2,124.9,FLYING
126.09,APPROACH,FLY_TO_FIX,82.25,84,1.75,1289.15,2.14,8.56,7.2,201.85,0.06,0.3137,20,93.46,-3.679,0,0,0,0,0,0,0,0,181.53,0,0,0,0,0,0,0,0,0,0,0,0,0,2,2,126.16,FLYING
127.15,APPROACH,FLY_TO_FIX,82.18,84,1.82,1291.41,2.15,8.49,7.18,201,6.228,0.3261,20,93.2,-3.691,0,0,0,0,0,0,0,0,181.53,0,0,0,0,0,0,0,0,0,0,0,0,0,2,2,127.19,FLYING
127.85,APPROACH,FLY_TO_FIX,82.13,84,1.87,1292.8,1.99,8.02,6.94,199.5,13.85,0.3353,20,93.04,-3.698,0,0,0,0,0,0,0,0,181.53,0,0,0,0,0,0,0,0,0,0,0,0,0,2,2,127.89,FLYING
128.55,APPROACH,FLY_TO_FIX,82.14,84,1.86,1293.88,1.37,7.09,6.65,197.43,22.392,0.3335,20,92.88,-3.704,0,0,0,0,0,0,0,0,181.53,0,0,0,0,0,0,0,0,0,0,0,0,0,2,2,128.59,FLYING
129.25,APPROACH,FLY_TO_FIX,82.05,84,1.95,1295,1.07,9.45,10.02,192.9,31.31,0.3452,20,92.71,-3.709,0,0,0,0,0,0,0,0,181.53,0,0,0,0,0,0,0,0,0,0,0,0,0,2,2,129.29,FLYING
129.95,APPROACH,FLY_TO_FIX,81.64,84,2.36,1295.84,1.12,9.21,10.54,188.47,39.978,0.4039,20,92.55,-3.714,0,0,0,0,0,0,0,0,181.53,0,0,0,0,0,0,0,0,0,0,0,0,0,2,2,129.99,FLYING
130.67,APPROACH,FLY_TO_FIX,81.11,84,2.89,1296.6,0.88,9.18,11.89,182.58,45.893,0.4736,20,92.38,-3.718,0,0,0,0,0,0,0,0,181.53,0,0,0,0,0,0,0,0,0,0,0,0,0,2,2,130.71,FLYING
131.39,APPROACH,FLY_TO_FIX,80.53,84,3.47,1296.96,0.37,8.58,12.18,177.54,47.172,0.5427,20,92.21,-3.72,0,0,0,0,0,0,0,0,181.53,0,0,0,0,0,0,0,0,0,0,0,0,0,2,2,131.43,FLYING
132.11,APPROACH,FLY_TO_FIX,80.03,84,3.97,1296.9,-0.29,8.06,12.24,172.89,47.712,0.5934,20,92.05,-3.72,0,0,0,0,0,0,0,0,181.53,0,0,0,0,0,0,0,0,0,0,0,0,0,2,2,132.15,FLYING
132.83,APPROACH,FLY_TO_FIX,79.62,84,4.38,1296.36,-1.01,7.59,12.28,168.36,47.869,0.6239,20,91.88,-3.717,0,0,0,0,0,0,0,0,181.53,0,0,0,0,0,0,0,0,0,0,0,0,0,2,2,132.87,FLYING
133.55,APPROACH,FLY_TO_FIX,79.32,84,4.68,1295.27,-1.76,7.13,12.3,163.88,47.819,0.6357,20,91.71,-3.712,0,0,0,0,0,0,0,0,181.53,0,0,0,0,0,0,0,0,0,0,0,0,0,2,2,133.59,FLYING
134.27,APPROACH,FLY_TO_FIX,79.14,84,4.86,1293.65,-2.52,6.68,12.32,159.42,47.65,0.6313,20,91.55,-3.704,0,0,0,0,0,0,0,0,181.53,0,0,0,0,0,0,0,0,0,0,0,0,0,2,2,134.31,FLYING
134.99,APPROACH,FLY_TO_FIX,79.06,84,4.94,1291.49,-3.25,6.25,12.33,154.98,47.427,0.6134,20,91.38,-3.694,0,0,0,0,0,0,0,0,181.53,0,0,0,0,0,0,0,0,0,0,0,0,0,2,2,135.03,FLYING
135.71,APPROACH,FLY_TO_FIX,79.09,84,4.91,1288.82,-3.95,5.84,12.34,150.55,47.198,0.585,20,91.23,-3.681,0,0,0,0,0,0,0,0,181.53,0,0,0,0,0,0,0,0,0,0,0,0,0,2,2,135.75,FLYING
136.43,APPROACH,FLY_TO_FIX,79.19,84,4.81,1285.67,-4.6,5.46,12.35,146.12,46.99,0.5492,20,91.07,-3.665,0,0,0,0,0,0,0,0,181.53,0,0,0,0,0,0,0,0,0,0,0,0,0,2,2,136.47,FLYING
137.15,APPROACH,FLY_TO_FIX,79.37,84,4.63,1282.08,-5.2,5.11,12.36,141.67,46.817,0.5088,20,90.93,-3.647,0,0,0,0,0,0,0,0,181.53,0,0,0,0,0,0,0,0,0,0,0,0,0,2,2,137.19,FLYING
137.87,APPROACH,FLY_TO_FIX,79.61,84,4.39,1278.06,-5.73,4.68,12.19,137.36,46.6,0.4659,20,90.78,-3.628,0,0,0,0,0,0,0,0,181.53,0,0,0,0,0,0,0,0,0,0,0,0,0,2,2,137.91,FLYING
138.59,APPROACH,FLY_TO_FIX,79.93,84,4.07,1273.63,-6.31,4.19,11.7,133.56,44.535,0.4177,20,90.65,-3.606,0,0,0,0,0,0,0,0,181.53,0,0,0,0,0,0,0,0,0,0,0,0,0,2,2,138.63,FLYING
139.31,APPROACH,FLY_TO_FIX,80.38,84,3.62,1268.86,-6.76,3.81,11.14,130.17,42.87,0.3551,20,90.52,-3.582,0,0,0,0,0,0,0,0,181.53,0,0,0,0,0,0,0,0,0,0,0,0,0,2,2,139.35,FLYING
140.03,APPROACH,FLY_TO_FIX,80.92,84,3.08,1263.78,-7.15,3.41,10.64,126.87,41.393,0.2875,20,90.39,-3.557,0,0,0,0,0,0,0,0,181.53,0,0,0,0,0,0,0,0,0,0,0,0,0,2,2,140.07,FLYING
140.75,APPROACH,FLY_TO_FIX,81.49,84,2.51,1258.44,-7.49,3.17,10.19,123.89,38.575,0.2248,20,90.28,-3.53,0,0,0,0,0,0,0,0,181.53,0,0,0,0,0,0,0,0,0,0,0,0,0,2,2,140.79,FLYING
141.47,APPROACH,FLY_TO_FIX,82.05,84,1.95,1252.9,-7.74,2.86,9.77,120.95,37.527,0.1678,20,90.17,-3.503,0,0,0,0,0,0,0,0,181.53,0,0,0,0,0,0,0,0,0,0,0,0,0,2,2,141.51,FLYING
142.19,APPROACH,FLY_TO_FIX,82.55,84,1.45,1247.21,-7.94,2.7,9.4,118.3,35.198,0.1272,20,90.07,-3.474,0,0,0,0,0,0,0,0,181.53,0,0,0,0,0,0,0,0,0,0,0,0,0,2,2,142.23,FLYING
142.91,APPROACH,FLY_TO_FIX,82.97,84,1.03,1241.39,-8.1,2.49,9.09,115.68,33.636,0.1002,20,89.97,-3.445,0,0,0,0,0,0,0,0,181.53,0,0,0,0,0,0,0,0,0,0,0,0,0,2,2,142.95,FLYING
143.63,APPROACH,FLY_TO_FIX,83.31,84,0.69,1235.51,-8.18,2.42,8.81,113.37,31.603,0.0884,20,89.88,-3.416,0,0,0,0,0,0,0,0,181.53,0,0,0,0,0,0,0,0,0,0,0,0,0,2,2,143.67,FLYING
144.56,APPROACH,FLY_TO_FIX,83.58,84,0.42,1227.86,-8.25,2.38,8.56,110.53,28.746,0.0846,20,89.79,-3.38,0,0,0,0,0,0,0,0,181.53,0,0,0,0,0,0,0,0,0,0,0,0,0,2,2,144.62,FLYING
145.77,APPROACH,FLY_TO_FIX,83.79,84,0.21,1217.9,-8.2,2.34,8.24,107.26,25.963,0.0883,20,89.67,-3.33,0,0,0,0,0,0,0,0,181.53,0,0,0,0,0,0,0,0,0,0,0,0,0,2,2,145.84,FLYING
146.99,APPROACH,FLY_TO_FIX,83.82,84,0.18,1207.91,-8.08,2.37,7.99,104.39,22.863,0.1151,20,89.56,-3.28,0,0,0,0,0,0,0,0,181.53,0,0,0,0,0,0,0,0,0,0,0,0,0,2,2,147.06,FLYING
148.22,APPROACH,FLY_TO_FIX,83.74,84,0.26,1198.12,-7.9,2.47,7.81,101.98,19.554,0.1535,20,89.47,-3.231,0,0,0,0,0,0,0,0,181.53,0,0,0,0,0,0,0,0,0,0,0,0,0,2,2,148.29,FLYING
149.44,APPROACH,FLY_TO_FIX,83.64,84,0.36,1188.58,-7.69,2.56,7.66,99.85,16.917,0.1883,20,89.4,-3.183,0,0,0,0,0,0,0,0,181.53,0,0,0,0,0,0,0,0,0,0,0,0,0,2,2,149.51,FLYING
150.67,APPROACH,FLY_TO_FIX,83.57,84,0.43,1179.31,-7.48,2.65,7.55,97.99,14.729,0.2131,20,89.33,-3.137,0,0,0,0,0,0,0,0,181.53,0,0,0,0,0,0,0,0,0,0,0,0,0,2,2,150.74,FLYING
151.89,APPROACH,FLY_TO_FIX,83.53,84,0.47,1170.3,-7.26,2.76,7.46,96.41,12.691,0.2292,20,89.28,-3.092,0,0,0,0,0,0,0,0,181.53,0,0,0,0,0,0,0,0,0,0,0,0,0,2,2,151.96,FLYING
153.12,APPROACH,FLY_TO_FIX,83.51,84,0.49,1161.58,-7.03,2.87,7.38,95.08,10.731,0.2382,20,89.23,-3.048,0,0,0,0,0,0,0,0,181.53,0,0,0,0,0,0,0,0,0,0,0,0,0,2,2,153.19,FLYING
154.34,APPROACH,FLY_TO_FIX,83.53,84,0.47,1153.14,-6.79,2.98,7.31,93.99,8.955,0.2413,20,89.2,-3.005,0,0,0,0,0,0,0,0,181.53,0,0,0,0,0,0,0,0,0,0,0,0,0,2,2,154.41,FLYING
155.57,APPROACH,FLY_TO_FIX,83.57,84,0.43,1144.98,-6.56,3.09,7.24,93.09,7.404,0.2397,20,89.16,-2.965,0,0,0,0,0,0,0,0,181.53,0,0,0,0,0,0,0,0,0,0,0,0,0,2,2,155.64,FLYING
156.79,APPROACH,FLY_TO_FIX,83.63,84,0.37,1137.12,-6.33,3.19,7.18,92.35,6.085,0.2348,20,89.14,-2.925,0,0,0,0,0,0,0,0,181.53,0,0,0,0,0,0,0,0,0,0,0,0,0,2,2,156.86,FLYING
158.02,APPROACH,FLY_TO_FIX,83.71,84,0.29,1129.52,-6.11,3.28,7.12,91.75,4.984,0.2276,20,89.12,-2.887,0,0,0,0,0,0,0,0,181.53,0,0,0,0,0,0,0,0,0,0,0,0,0,2,2,158.09,FLYING
159.24,APPROACH,FLY_TO_FIX,83.8,84,0.2,1122.19,-5.9,3.37,7.07,91.25,4.074,0.2194,20,89.1,-2.85,0,0,0,0,0,0,0,0,181.53,0,0,0,0,0,0,0,0,0,0,0,0,0,2,2,159.31,FLYING
160.47,APPROACH,FLY_TO_FIX,83.9,84,0.1,1115.09,-5.71,3.44,7.01,90.85,3.33,0.211,20,89.09,-2.814,0,0,0,0,0,0,0,0,181.53,0,0,0,0,0,0,0,0,0,0,0,0,0,2,2,160.54,FLYING
161.69,APPROACH,FLY_TO_FIX,84,84,0,1108.22,-5.54,3.51,6.97,90.52,2.722,0.2032,20,89.08,-2.78,0,0,0,0,0,0,0,0,181.53,0,0,0,0,0,0,0,0,0,0,0,0,0,2,2,161.76,FLYING
162.92,APPROACH,FLY_TO_FIX,84.09,84,-0.09,1101.56,-5.37,3.57,6.92,90.25,2.226,0.196,19.955,89.07,-2.747,0,0,0,0,0,0,0,0,181.53,0,0,0,0,0,0,0,0,0,0,0,0,0,2,2,162.98,FLYING
164.02,APPROACH,FLY_TO_FIX,84.17,84,-0.17,1095.72,-5.24,3.62,6.89,90.04,1.863,0.1909,19.871,89.06,-2.717,0,0,0,0,0,0,0,0,181.53,0,0,0,0,0,0,0,0,0,0,0,0,0,2,2,164.08,FLYING
165.07,APPROACH,FLY_TO_FIX,84.24,84,-0.24,1090.29,-5.12,3.67,6.86,89.88,1.572,0.1873,19.754,89.05,-2.69,0,0,0,0,0,0,0,0,181.53,0,0,0,0,0,0,0,0,0,0,0,0,0,2,2,165.13,FLYING
166.12,APPROACH,FLY_TO_FIX,84.29,84,-0.29,1084.98,-5.01,3.72,6.83,89.74,1.322,0.1847,19.608,89.05,-2.663,0,0,0,0,0,0,0,0,181.53,0,0,0,0,0,0,0,0,0,0,0,0,0,2,2,166.18,FLYING
167.17,APPROACH,FLY_TO_FIX,84.33,84,-0.33,1079.79,-4.91,3.77,6.82,89.63,1.109,0.1835,19.441,89.04,-2.637,0,0,0,0,0,0,0,0,181.53,0,0,0,0,0,0,0,0,0,0,0,0,0,2,2,167.23,FLYING
168.35,APPROACH,FLY_TO_FIX,84.36,84,-0.36,1074.06,-4.8,3.82,6.8,89.52,0.909,0.1835,19.259,89.04,-2.609,0,0,0,0,0,0,0,0,181.53,0,0,0,0,0,0,0,0,0,0,0,0,0,2,2,168.42,FLYING
169.58,APPROACH,FLY_TO_FIX,84.38,84,-0.38,1068.26,-4.69,3.88,6.8,89.43,0.736,0.1853,19.071,89.04,-2.58,0,0,0,0,0,0,0,0,181.53,0,0,0,0,0,0,0,0,0,0,0,0,0,2,2,169.65,FLYING
170.8,APPROACH,FLY_TO_FIX,84.37,84,-0.37,1062.58,-4.6,3.92,6.78,89.35,0.577,0.1885,18.885,89.03,-2.551,0,0,0,0,0,0,0,0,181.53,0,0,0,0,0,0,0,0,0,0,0,0,0,2,2,170.87,FLYING
172.03,APPROACH,FLY_TO_FIX,84.36,84,-0.36,1057,-4.52,3.96,6.77,89.3,0.432,0.1918,18.704,89.03,-2.523,0,0,0,0,0,0,0,0,181.53,0,0,0,0,0,0,0,0,0,0,0,0,0,2,2,172.1,FLYING
173.25,APPROACH,FLY_TO_FIX,84.35,84,-0.35,1051.51,-4.45,4,6.77,89.26,0.32,0.1949,18.53,89.03,-2.496,0,0,0,0,0,0,0,0,181.53,0,0,0,0,0,0,0,0,0,0,0,0,0,2,2,173.32,FLYING
174.48,APPROACH,FLY_TO_FIX,84.33,84,-0.33,1046.11,-4.39,4.04,6.77,89.23,0.239,0.1976,18.366,89.03,-2.469,0,0,0,0,0,0,0,0,181.53,0,0,0,0,0,0,0,0,0,0,0,0,0,2,2,174.55,FLYING
175.7,APPROACH,FLY_TO_FIX,84.31,84,-0.31,1040.78,-4.33,4.07,6.77,89.2,0.182,0.1999,18.211,89.02,-2.442,0,0,0,0,0,0,0,0,181.53,0,0,0,0,0,0,0,0,0,0,0,0,0,2,2,175.77,FLYING
176.93,APPROACH,FLY_TO_FIX,84.29,84,-0.29,1035.51,-4.27,4.11,6.77,89.18,0.144,0.2016,18.065,89.02,-2.416,0,0,0,0,0,0,0,0,181.53,0,0,0,0,0,0,0,0,0,0,0,0,0,2,2,177,FLYING
178.15,APPROACH,FLY_TO_FIX,84.27,84,-0.27,1030.32,-4.22,4.14,6.77,89.16,0.115,0.2028,17.929,89.02,-2.39,0,0,0,0,0,0,0,0,181.53,0,0,0,0,0,0,0,0,0,0,0,0,0,2,2,178.22,FLYING
179.38,APPROACH,FLY_TO_FIX,84.26,84,-0.26,1025.19,-4.17,4.17,6.77,89.15,0.097,0.2034,17.8,89.02,-2.364,0,0,0,0,0,0,0,0,181.53,0,0,0,0,0,0,0,0,0,0,0,0,0,2,2,179.45,FLYING
180.6,APPROACH,FLY_TO_FIX,84.24,84,-0.24,1020.12,-4.12,4.21,6.78,89.13,0.084,0.2036,17.679,89.02,-2.338,0,0,0,0,0,0,0,0,181.53,0,0,0,0,0,0,0,0,0,0,0,0,0,2,2,180.67,FLYING
181.83,APPROACH,FLY_TO_FIX,84.23,84,-0.23,1015.1,-4.07,4.24,6.78,89.12,0.072,0.2034,17.564,89.02,-2.313,0,0,0,0,0,0,0,0,181.53,0,0,0,0,0,0,0,0,0,0,0,0,0,2,2,181.9,FLYING
183.05,APPROACH,FLY_TO_FIX,84.22,84,-0.22,1010.15,-4.03,4.26,6.78,89.11,0.061,0.2029,17.455,89.02,-2.289,0,0,0,0,0,0,0,0,181.53,0,0,0,0,0,0,0,0,0,0,0,0,0,2,2,183.12,FLYING
184.28,APPROACH,FLY_TO_FIX,84.21,84,-0.21,1005.25,-3.98,4.29,6.78,89.1,0.051,0.2024,17.351,89.02,-2.264,0,0,0,0,0,0,0,0,181.53,0,0,0,0,0,0,0,0,0,0,0,0,0,2,2,184.35,FLYING
185.5,APPROACH,FLY_TO_FIX,84.2,84,-0.2,1000.41,-3.94,4.32,6.78,89.09,0.043,0.2017,17.252,89.02,-2.24,0,0,0,0,0,0,0,0,181.53,0,0,0,0,0,0,0,0,0,0,0,0,0,2,2,185.57,FLYING
186.73,APPROACH,FLY_TO_FIX,84.19,84,-0.19,995.62,-3.89,4.35,6.78,89.08,0.037,0.2012,17.157,89.01,-2.216,0,0,0,0,0,0,0,0,181.53,0,0,0,0,0,0,0,0,0,0,0,0,0,2,2,186.8,FLYING
187.95,APPROACH,FLY_TO_FIX,84.18,84,-0.18,990.89,-3.85,4.38,6.78,89.07,0.031,0.2008,17.069,89.01,-2.192,0,0,0,0,0,0,0,0,181.53,0,0,0,0,0,0,0,0,0,0,0,0,0,2,2,188.02,FLYING
189.18,APPROACH,FLY_TO_FIX,84.16,84,-0.16,986.21,-3.81,4.4,6.79,89.06,0.027,0.2007,16.986,89.01,-2.169,0,0,0,0,0,0,0,0,181.53,0,0,0,0,0,0,0,0,0,0,0,0,0,2,2,189.25,FLYING
190.4,APPROACH,FLY_TO_FIX,84.15,84,-0.15,981.58,-3.76,4.43,6.79,89.06,0.021,0.2008,16.91,89.01,-2.146,0,0,0,0,0,0,0,0,181.53,0,0,0,0,0,0,0,0,0,0,0,0,0,2,2,190.47,FLYING
191.63,APPROACH,FLY_TO_FIX,84.14,84,-0.14,977,-3.72,4.46,6.79,89.05,0.016,0.2013,16.842,89.01,-2.123,0,0,0,0,0,0,0,0,181.53,0,0,0,0,0,0,0,0,0,0,0,0,0,2,2,191.7,FLYING
192.85,APPROACH,FLY_TO_FIX,84.12,84,-0.12,972.47,-3.68,4.49,6.8,89.05,0.013,0.202,16.783,89.01,-2.1,0,0,0,0,0,0,0,0,181.53,0,0,0,0,0,0,0,0,0,0,0,0,0,2,2,192.92,FLYING
194.08,APPROACH,FLY_TO_FIX,84.1,84,-0.1,967.99,-3.64,4.52,6.8,89.04,0.009,0.203,16.734,89.01,-2.077,0,0,0,0,0,0,0,0,181.53,0,0,0,0,0,0,0,0,0,0,0,0,0,2,2,194.15,FLYING
195.3,APPROACH,FLY_TO_FIX,84.08,84,-0.08,963.56,-3.6,4.55,6.81,89.04,0.006,0.2042,16.695,89.01,-2.055,0,0,0,0,0,0,0,0,181.53,0,0,0,0,0,0,0,0,0,0,0,0,0,2,2,195.37,FLYING
196.53,APPROACH,FLY_TO_FIX,84.06,84,-0.06,959.18,-3.56,4.58,6.81,89.03,0.001,0.2056,16.667,89.01,-2.033,0,0,0,0,0,0,0,0,181.53,0,0,0,0,0,0,0,0,0,0,0,0,0,2,2,196.6,FLYING
197.75,APPROACH,FLY_TO_FIX,84.03,84,-0.03,954.85,-3.52,4.6,6.82,89.03,-0.002,0.2071,16.65,89.01,-2.012,0,0,0,0,0,0,0,0,181.53,0,0,0,0,0,0,0,0,0,0,0,0,0,2,2,197.82,FLYING
198.98,APPROACH,FLY_TO_FIX,84.01,84,-0.01,950.56,-3.48,4.63,6.82,89.03,-0.006,0.2086,16.644,89.01,-1.99,0,0,0,0,0,0,0,0,181.53,0,0,0,0,0,0,0,0,0,0,0,0,0,2,2,199.05,FLYING
200.2,APPROACH,FLY_TO_FIX,83.99,84,0.01,946.33,-3.44,4.66,6.83,89.02,-0.01,0.2101,16.65,89.01,-1.969,0,0,0,0,0,0,0,0,181.53,0,0,0,0,0,0,0,0,0,0,0,0,0,2,2,200.27,FLYING
201.43,APPROACH,FLY_TO_FIX,83.97,84,0.03,942.14,-3.41,4.69,6.83,89.02,-0.013,0.2115,16.666,89.01,-1.948,0,0,0,0,0,0,0,0,181.53,0,0,0,0,0,0,0,0,0,0,0,0,0,2,2,201.5,FLYING
202.65,APPROACH,FLY_TO_FIX,83.95,84,0.05,937.99,-3.37,4.72,6.83,89.02,-0.015,0.2128,16.692,89.01,-1.927,0,0,0,0,0,0,0,0,181.53,0,0,0,0,0,0,0,0,0,0,0,0,0,2,2,202.72,FLYING
203.88,APPROACH,FLY_TO_FIX,83.93,84,0.07,933.9,-3.33,4.74,6.84,89.02,-0.018,0.2139,16.726,89.01,-1.907,0,0,0,0,0,0,0,0,181.53,0,0,0,0,0,0,0,0,0,0,0,0,0,2,2,203.95,FLYING
205.1,APPROACH,FLY_TO_FIX,83.91,84,0.09,929.85,-3.29,4.77,6.84,89.02,-0.02,0.2148,16.769,89.01,-1.887,0,0,0,0,0,0,0,0,181.53,0,0,0,0,0,0,0,0,0,0,0,0,0,2,2,205.17,FLYING
206.33,APPROACH,FLY_TO_FIX,83.9,84,0.1,925.84,-3.25,4.79,6.84,89.01,-0.021,0.2155,16.818,89.01,-1.866,0,0,0,0,0,0,0,0,181.53,0,0,0,0,0,0,0,0,0,0,0,0,0,2,2,206.4,FLYING
207.55,APPROACH,FLY_TO_FIX,83.89,84,0.11,921.88,-3.22,4.82,6.84,89.01,-0.022,0.216,16.872,89.01,-1.847,0,0,0,0,0,0,0,0,181.53,0,0,0,0,0,0,0,0,0,0,0,0,0,2,2,207.62,FLYING
208.78,APPROACH,FLY_TO_FIX,83.88,84,0.12,917.97,-3.18,4.84,6.84,89.01,-0.023,0.2163,16.931,89.01,-1.827,0,0,0,0,0,0,0,0,181.53,0,0,0,0,0,0,0,0,0,0,0,0,0,2,2,208.85,FLYING
210,APPROACH,FLY_TO_FIX,83.88,84,0.12,914.1,-3.15,4.86,6.84,89.01,-0.025,0.2165,16.993,89.01,-1.808,0,0,0,0,0,0,0,0,181.53,0,0,0,0,0,0,0,0,0,0,0,0,0,2,2,210.07,FLYING
211.23,APPROACH,FLY_TO_FIX,83.87,84,0.13,910.27,-3.11,4.88,6.84,89.01,-0.026,0.2166,17.056,89.01,-1.789,0,0,0,0,0,0,0,0,181.53,0,0,0,0,0,0,0,0,0,0,0,0,0,2,2,211.3,FLYING
212.45,APPROACH,FLY_TO_FIX,83.87,84,0.13,906.49,-3.08,4.9,6.84,89.01,-0.028,0.2165,17.121,89.01,-1.77,0,0,0,0,0,0,0,0,181.53,0,0,0,0,0,0,0,0,0,0,0,0,0,2,2,212.52,FLYING
213.68,APPROACH,FLY_TO_FIX,83.87,84,0.13,902.74,-3.04,4.92,6.84,89.01,-0.03,0.2164,17.186,89.01,-1.751,0,0,0,0,0,0,0,0,181.53,0,0,0,0,0,0,0,0,0,0,0,0,0,2,2,213.75,FLYING
214.9,APPROACH,FLY_TO_FIX,83.87,84,0.13,899.04,-3.01,4.94,6.84,89.01,-0.031,0.2163,17.25,89.01,-1.732,0,0,0,0,0,0,0,0,181.53,0,0,0,0,0,0,0,0,0,0,0,0,0,2,2,214.97,FLYING
216.13,APPROACH,FLY_TO_FIX,83.87,84,0.13,895.38,-2.97,4.96,6.84,89.01,-0.031,0.2163,17.313,89,-1.714,0,0,0,0,0,0,0,0,181.53,0,0,0,0,0,0,0,0,0,0,0,0,0,2,2,216.2,FLYING
217.35,APPROACH,FLY_TO_FIX,83.88,84,0.12,891.77,-2.94,4.98,6.84,89.01,-0.031,0.2162,17.376,89,-1.696,0,0,0,0,0,0,0,0,181.53,0,0,0,0,0,0,0,0,0,0,0,0,0,2,2,217.42,FLYING
218.58,APPROACH,FLY_TO_FIX,83.88,84,0.12,888.19,-2.91,5,6.84,89.01,-0.032,0.2163,17.437,89,-1.678,0,0,0,0,0,0,0,0,181.53,0,0,0,0,0,0,0,0,0,0,0,0,0,2,2,218.65,FLYING
219.8,APPROACH,FLY_TO_FIX,83.88,84,0.12,884.65,-2.87,5.02,6.84,89.01,-0.031,0.2164,17.496,89,-1.66,0,0,0,0,0,0,0,0,181.53,0,0,0,0,0,0,0,0,0,0,0,0,0,2,2,219.87,FLYING
221.03,APPROACH,FLY_TO_FIX,83.88,84,0.12,881.15,-2.84,5.04,6.83,89.01,-0.031,0.2166,17.554,89,-1.643,0,0,0,0,0,0,0,0,181.53,0,0,0,0,0,0,0,0,0,0,0,0,0,2,2,221.1,FLYING
222.25,APPROACH,FLY_TO_FIX,83.89,84,0.11,877.69,-2.81,5.06,6.83,89.01,-0.032,0.2169,17.612,89,-1.625,0,0,0,0,0,0,0,0,181.53,0,0,0,0,0,0,0,0,0,0,0,0,0,2,2,222.32,FLYING
223.48,APPROACH,FLY_TO_FIX,83.89,84,0.11,874.27,-2.78,5.07,6.83,89.01,-0.033,0.2173,17.668,89,-1.608,0,0,0,0,0,0,0,0,181.53,0,0,0,0,0,0,0,0,0,0,0,0,0,2,2,223.55,FLYING
224.7,APPROACH,FLY_TO_FIX,83.89,84,0.11,870.89,-2.75,5.09,6.83,89.01,-0.033,0.2177,17.723,89,-1.591,0,0,0,0,0,0,0,0,181.53,0,0,0,0,0,0,0,0,0,0,0,0,0,2,2,224.77,FLYING
225.93,APPROACH,FLY_TO_FIX,83.89,84,0.11,867.55,-2.72,5.11,6.83,89.01,-0.033,0.2182,17.777,89,-1.575,0,0,0,0,0,0,0,0,181.53,0,0,0,0,0,0,0,0,0,0,0,0,0,2,2,226,FLYING
227.15,APPROACH,FLY_TO_FIX,83.89,84,0.11,864.24,-2.69,5.13,6.83,89.01,-0.033,0.2187,17.83,89,-1.558,0,0,0,0,0,0,0,0,181.53,0,0,0,0,0,0,0,0,0,0,0,0,0,2,2,227.22,FLYING
228.38,APPROACH,FLY_TO_FIX,83.89,84,0.11,860.97,-2.66,5.15,6.83,89.01,-0.029,0.2192,17.883,89,-1.542,0,0,0,0,0,0,0,0,181.53,0,0,0,0,0,0,0,0,0,0,0,0,0,2,2,228.45,FLYING
229.6,APPROACH,FLY_TO_FIX,83.9,84,0.1,857.74,-2.63,5.16,6.82,89.01,-0.03,0.2197,17.934,89,-1.526,0,0,0,0,0,0,0,0,181.53,0,0,0,0,0,0,0,0,0,0,0,0,0,2,2,229.67,FLYING
230.83,APPROACH,FLY_TO_FIX,83.9,84,0.1,854.54,-2.6,5.18,6.82,89.01,-0.03,0.2202,17.985,89,-1.51,0,0,0,0,0,0,0,0,181.53,0,0,0,0,0,0,0,0,0,0,0,0,0,2,2,230.9,FLYING
232.05,APPROACH,FLY_TO_FIX,83.9,84,0.1,851.38,-2.57,5.2,6.82,89.01,-0.03,0.2206,18.035,89,-1.494,0,0,0,0,0,0,0,0,181.53,0,0,0,0,0,0,0,0,0,0,0,0,0,2,2,232.12,FLYING
233.28,APPROACH,FLY_TO_FIX,83.9,84,0.1,848.25,-2.54,5.21,6.82,89.01,-0.029,0.221,18.084,89,-1.478,0,0,0,0,0,0,0,0,181.53,0,0,0,0,0,0,0,0,0,0,0,0,0,2,2,233.35,FLYING
234.5,APPROACH,FLY_TO_FIX,83.91,84,0.09,845.16,-2.51,5.23,6.82,89.01,-0.03,0.2214,18.131,89,-1.463,0,0,0,0,0,0,0,0,181.53,0,0,0,0,0,0,0,0,0,0,0,0,0,2,2,234.57,FLYING
235.73,APPROACH,FLY_TO_FIX,83.91,84,0.09,842.11,-2.48,5.25,6.82,89.01,-0.03,0.2217,18.177,89,-1.447,0,0,0,0,0,0,0,0,181.53,0,0,0,0,0,0,0,0,0,0,0,0,0,2,2,235.8,FLYING
236.95,APPROACH,FLY_TO_FIX,83.91,84,0.09,839.09,-2.45,5.26,6.82,89.01,-0.031,0.2219,18.222,89,-1.432,0,0,0,0,0,0,0,0,181.53,0,0,0,0,0,0,0,0,0,0,0,0,0,2,2,237.02,FLYING
238.18,APPROACH,FLY_TO_FIX,83.92,84,0.08,836.1,-2.43,5.28,6.81,89.01,-0.033,0.2221,18.264,89,-1.417,0,0,0,0,0,0,0,0,181.53,0,0,0,0,0,0,0,0,0,0,0,0,0,2,2,238.25,FLYING
239.4,APPROACH,FLY_TO_FIX,83.92,84,0.08,833.15,-2.4,5.29,6.81,89.01,-0.033,0.2223,18.305,89,-1.402,0,0,0,0,0,0,0,0,181.53,0,0,0,0,0,0,0,0,0,0,0,0,0,2,2,239.47,FLYING
240.63,APPROACH,FLY_TO_FIX,83.92,84,0.08,830.23,-2.37,5.31,6.81,89.01,-0.03,0.2224,18.343,89,-1.388,0,0,0,0,0,0,0,0,181.53,0,0,0,0,0,0,0,0,0,0,0,0,0,2,2,240.7,FLYING
241.85,APPROACH,FLY_TO_FIX,83.93,84,0.07,827.34,-2.34,5.32,6.81,89.01,-0.03,0.2226,18.379,89,-1.373,0,0,0,0,0,0,0,0,181.53,0,0,0,0,0,0,0,0,0,0,0,0,0,2,2,241.92,FLYING
243.08,APPROACH,FLY_TO_FIX,83.93,84,0.07,824.49,-2.32,5.34,6.81,89.01,-0.029,0.2227,18.414,89,-1.359,0,0,0,0,0,0,0,0,181.53,0,0,0,0,0,0,0,0,0,0,0,0,0,2,2,243.15,FLYING
244.3,APPROACH,FLY_TO_FIX,83.94,84,0.06,821.67,-2.29,5.35,6.8,89.01,-0.03,0.2228,18.446,89,-1.345,0,0,0,0,0,0,0,0,181.53,0,0,0,0,0,0,0,0,0,0,0,0,0,2,2,244.37,FLYING
245.53,APPROACH,FLY_TO_FIX,83.94,84,0.06,818.88,-2.27,5.37,6.8,89.01,-0.03,0.223,18.477,89,-1.331,0,0,0,0,0,0,0,0,181.53,0,0,0,0,0,0,0,0,0,0,0,0,0,2,2,245.6,FLYING
246.75,APPROACH,FLY_TO_FIX,83.94,84,0.06,816.12,-2.24,5.38,6.8,89.01,-0.03,0.2232,18.506,89,-1.317,0,0,0,0,0,0,0,0,181.53,0,0,0,0,0,0,0,0,0,0,0,0,0,2,2,246.82,FLYING
247.98,APPROACH,FLY_TO_FIX,83.95,84,0.05,813.4,-2.21,5.4,6.8,89.01,-0.03,0.2234,18.533,89,-1.304,0,0,0,0,0,0,0,0,181.53,0,0,0,0,0,0,0,0,0,0,0,0,0,2,2,248.05,FLYING
249.2,APPROACH,FLY_TO_FIX,83.95,84,0.05,810.7,-2.19,5.41,6.8,89.01,-0.03,0.2236,18.559,89,-1.29,0,0,0,0,0,0,0,0,181.53,0,0,0,0,0,0,0,0,0,0,0,0,0,2,2,249.27,FLYING
250.43,APPROACH,FLY_TO_FIX,83.95,84,0.05,808.04,-2.16,5.43,6.8,89.01,-0.03,0.2239,18.583,89,-1.277,0,0,0,0,0,0,0,0,181.53,0,0,0,0,0,0,0,0,0,0,0,0,0,2,2,250.5,FLYING
251.65,APPROACH,FLY_TO_FIX,83.95,84,0.05,805.41,-2.14,5.44,6.8,89.01,-0.031,0.2242,18.607,89,-1.264,0,0,0,0,0,0,0,0,181.53,0,0,0,0,0,0,0,0,0,0,0,0,0,2,2,251.72,FLYING
252.88,APPROACH,FLY_TO_FIX,83.95,84,0.05,802.81,-2.11,5.45,6.8,89.01,-0.03,0.2245,18.629,88.99,-1.251,0,0,0,0,0,0,0,0,181.53,0,0,0,0,0,0,0,0,0,0,0,0,0,2,2,252.95,FLYING
254.1,APPROACH,FLY_TO_FIX,83.96,84,0.04,800.23,-2.09,5.47,6.79,89,-0.028,0.2248,18.652,88.99,-1.238,0,0,0,0,0,0,0,0,181.53,0,0,0,0,0,0,0,0,0,0,0,0,0,2,2,254.17,FLYING
255.33,APPROACH,FLY_TO_FIX,83.96,84,0.04,797.69,-2.07,5.48,6.79,89,-0.028,0.2252,18.673,88.99,-1.225,0,0,0,0,0,0,0,0,181.53,0,0,0,0,0,0,0,0,0,0,0,0,0,2,2,255.4,FLYING
256.55,APPROACH,FLY_TO_FIX,83.96,84,0.04,795.18,-2.04,5.5,6.79,89,-0.029,0.2255,18.694,88.99,-1.212,0,0,0,0,0,0,0,0,181.53,0,0,0,0,0,0,0,0,0,0,0,0,0,2,2,256.62,FLYING
257.78,APPROACH,FLY_TO_FIX,83.96,84,0.04,792.69,-2.02,5.51,6.79,89,-0.029,0.2258,18.715,88.99,-1.2,0,0,0,0,0,0,0,0,181.53,0,0,0,0,0,0,0,0,0,0,0,0,0,2,2,257.85,FLYING
259,APPROACH,FLY_TO_FIX,83.96,84,0.04,790.24,-1.99,5.53,6.79,89,-0.029,0.2262,18.736,88.99,-1.188,0,0,0,0,0,0,0,0,181.53,0,0,0,0,0,0,0,0,0,0,0,0,0,2,2,259.07,FLYING
260.23,APPROACH,FLY_TO_FIX,83.96,84,0.04,787.81,-1.97,5.54,6.79,89,-0.03,0.2265,18.756,88.99,-1.175,0,0,0,0,0,0,0,0,181.53,0,0,0,0,0,0,0,0,0,0,0,0,0,2,2,260.3,FLYING
261.45,APPROACH,FLY_TO_FIX,83.96,84,0.04,785.42,-1.95,5.55,6.79,89,-0.029,0.2268,18.776,88.99,-1.163,0,0,0,0,0,0,0,0,181.53,0,0,0,0,0,0,0,0,0,0,0,0,0,2,2,261.52,FLYING
262.68,APPROACH,FLY_TO_FIX,83.96,84,0.04,783.05,-1.92,5.57,6.79,89,-0.03,0.2271,18.796,88.99,-1.152,0,0,0,0,0,0,0,0,181.53,0,0,0,0,0,0,0,0,0,0,0,0,0,2,2,262.75,FLYING
263.9,APPROACH,FLY_TO_FIX,83.96,84,0.04,780.71,-1.9,5.58,6.79,89,-0.029,0.2274,18.816,88.99,-1.14,0,0,0,0,0,0,0,0,181.53,0,0,0,0,0,0,0,0,0,0,0,0,0,2,2,263.97,FLYING
265.13,APPROACH,FLY_TO_FIX,83.96,84,0.04,778.39,-1.88,5.59,6.79,89,-0.03,0.2276,18.836,88.99,-1.128,0,0,0,0,0,0,0,0,181.53,0,0,0,0,0,0,0,0,0,0,0,0,0,2,2,265.2,FLYING
266.35,APPROACH,FLY_TO_FIX,83.96,84,0.04,776.11,-1.86,5.61,6.79,89,-0.028,0.2279,18.855,88.99,-1.117,0,0,0,0,0,0,0,0,181.53,0,0,0,0,0,0,0,0,0,0,0,0,0,2,2,266.42,FLYING
267.58,APPROACH,FLY_TO_FIX,83.96,84,0.04,773.85,-1.83,5.62,6.79,89,-0.029,0.2281,18.874,88.99,-1.106,0,0,0,0,0,0,0,0,181.53,0,0,0,0,0,0,0,0,0,0,0,0,0,2,2,267.65,FLYING
268.8,APPROACH,FLY_TO_FIX,83.96,84,0.04,771.62,-1.81,5.63,6.79,89,-0.03,0.2284,18.894,88.99,-1.094,0,0,0,0,0,0,0,0,181.53,0,0,0,0,0,0,0,0,0,0,0,0,0,2,2,268.87,FLYING
270.03,APPROACH,FLY_TO_FIX,83.96,84,0.04,769.41,-1.79,5.65,6.78,89,-0.03,0.2286,18.912,88.99,-1.083,0,0,0,0,0,0,0,0,181.53,0,0,0,0,0,0,0,0,0,0,0,0,0,2,2,270.1,FLYING
271.25,APPROACH,FLY_TO_FIX,83.96,84,0.04,767.23,-1.77,5.66,6.78,89,-0.031,0.2288,18.931,88.99,-1.072,0,0,0,0,0,0,0,0,181.53,0,0,0,0,0,0,0,0,0,0,0,0,0,2,2,271.32,FLYING
272.48,APPROACH,FLY_TO_FIX,83.96,84,0.04,765.08,-1.75,5.67,6.78,89,-0.03,0.229,18.95,88.99,-1.062,0,0,0,0,0,0,0,0,181.53,0,0,0,0,0,0,0,0,0,0,0,0,0,2,2,272.55,FLYING
273.7,APPROACH,FLY_TO_FIX,83.96,84,0.04,762.95,-1.73,5.68,6.78,89,-0.03,0.2292,18.968,88.99,-1.051,0,0,0,0,0,0,0,0,181.53,0,0,0,0,0,0,0,0,0,0,0,0,0,2,2,273.77,FLYING
274.93,APPROACH,FLY_TO_FIX,83.96,84,0.04,760.85,-1.71,5.7,6.78,89,-0.03,0.2295,18.986,88.99,-1.04,0,0,0,0,0,0,0,0,181.53,0,0,0,0,0,0,0,0,0,0,0,0,0,2,2,275,FLYING
276.15,APPROACH,FLY_TO_FIX,83.96,84,0.04,758.78,-1.68,5.71,6.78,89,-0.031,0.2297,19.005,88.99,-1.03,0,0,0,0,0,0,0,0,181.53,0,0,0,0,0,0,0,0,0,0,0,0,0,2,2,276.22,FLYING
277.38,APPROACH,FLY_TO_FIX,83.96,84,0.04,756.73,-1.66,5.72,6.78,89,-0.032,0.23,19.023,88.99,-1.02,0,0,0,0,0,0,0,0,181.53,0,0,0,0,0,0,0,0,0,0,0,0,0,2,2,277.45,FLYING
278.6,APPROACH,FLY_TO_FIX,83.96,84,0.04,754.71,-1.64,5.74,6.78,89,-0.032,0.2302,19.041,88.99,-1.01,0,0,0,0,0,0,0,0,181.53,0,0,0,0,0,0,0,0,0,0,0,0,0,2,2,278.67,FLYING
279.86,APPROACH,FLY_TO_FIX,83.96,84,0.04,752.65,-1.62,5.75,6.78,89,-0.032,0.2305,19.06,88.99,-0.999,0,0,0,0,0,0,0,0,181.53,0,0,0,0,0,0,0,0,0,0,0,0,0,2,2,279.93,FLYING
281.23,APPROACH,FLY_TO_FIX,83.96,84,0.04,750.45,-1.6,5.76,6.78,89,-0.032,0.2308,19.078,88.99,-0.988,0,0,0,0,0,0,0,0,181.53,0,0,0,0,0,0,0,0,0,0,0,0,0,2,2,281.3,FLYING
282.49,APPROACH,FLY_TO_FIX,83.96,84,0.04,748.45,-1.58,5.77,6.78,89,-0.03,0.231,19.097,88.99,-0.978,0,0,0,0,0,0,0,0,181.53,0,0,0,0,0,0,0,0,0,0,0,0,0,2,2,282.56,FLYING
283.75,APPROACH,FLY_TO_FIX,83.96,84,0.04,746.48,-1.56,5.79,6.78,89,-0.031,0.2313,19.115,88.99,-0.968,0,0,0,0,0,0,0,0,181.53,0,0,0,0,0,0,0,0,0,0,0,0,0,2,2,283.82,FLYING
285.01,APPROACH,FLY_TO_FIX,83.96,84,0.04,744.53,-1.54,5.8,6.78,89,-0.031,0.2316,19.135,88.99,-0.959,0,0,0,0,0,0,0,0,181.53,0,0,0,0,0,0,0,0,0,0,0,0,0,2,2,285.08,FLYING
286.34,APPROACH,FLY_TO_FIX,83.96,84,0.04,742.5,-1.52,5.81,6.78,89,-0.031,0.2319,19.154,88.98,-0.949,0,0,0,0,0,0,0,0,181.53,0,0,0,0,0,0,0,0,0,0,0,0,0,2,2,286.41,FLYING
287.63,APPROACH,FLY_TO_FIX,83.96,84,0.04,740.55,-1.5,5.82,6.78,89,-0.032,0.2322,19.173,88.98,-0.939,0,0,0,0,0,0,0,0,181.53,0,0,0,0,0,0,0,0,0,0,0,0,0,2,2,287.7,FLYING
288.93,APPROACH,FLY_TO_FIX,83.96,84,0.04,738.63,-1.48,5.84,6.78,89,-0.029,0.2325,19.193,88.98,-0.929,0,0,0,0,0,0,0,0,181.53,0,0,0,0,0,0,0,0,0,0,0,0,0,2,2,289,FLYING
290.22,APPROACH,FLY_TO_FIX,83.96,84,0.04,736.73,-1.45,5.85,6.78,89,-0.029,0.2327,19.213,88.98,-0.92,0,0,0,0,0,0,0,0,181.53,0,0,0,0,0,0,0,0,0,0,0,0,0,2,2,290.29,FLYING
291.52,APPROACH,FLY_TO_FIX,83.96,84,0.04,734.87,-1.43,5.86,6.77,89,-0.03,0.233,19.233,88.98,-0.91,0,0,0,0,0,0,0,0,181.53,0,0,0,0,0,0,0,0,0,0,0,0,0,2,2,291.59,FLYING
292.81,APPROACH,FLY_TO_FIX,83.96,84,0.04,733.02,-1.41,5.87,6.77,89,-0.032,0.2333,19.254,88.98,-0.901,0,0,0,0,0,0,0,0,181.53,0,0,0,0,0,0,0,0,0,0,0,0,0,2,2,292.88,FLYING
294.11,APPROACH,FLY_TO_FIX,83.96,84,0.04,731.21,-1.39,5.89,6.77,89,-0.033,0.2335,19.274,88.98,-0.892,0,0,0,0,0,0,0,0,181.53,0,0,0,0,0,0,0,0,0,0,0,0,0,2,2,294.18,FLYING
295.4,APPROACH,FLY_TO_FIX,83.96,84,0.04,729.42,-1.37,5.9,6.77,89,-0.033,0.2338,19.295,88.98,-0.883,0,0,0,0,0,0,0,0,181.53,0,0,0,0,0,0,0,0,0,0,0,0,0,2,2,295.47,FLYING
296.7,APPROACH,FLY_TO_FIX,83.96,84,0.04,727.65,-1.35,5.91,6.77,89,-0.033,0.2341,19.316,88.98,-0.874,0,0,0,0,0,0,0,0,181.53,0,0,0,0,0,0,0,0,0,0,0,0,0,2,2,296.77,FLYING
297.99,APPROACH,FLY_TO_FIX,83.96,84,0.04,725.91,-1.33,5.92,6.77,89,-0.032,0.2343,19.337,88.98,-0.865,0,0,0,0,0,0,0,0,181.53,0,0,0,0,0,0,0,0,0,0,0,0,0,2,2,298.06,FLYING
299.29,APPROACH,FLY_TO_FIX,83.96,84,0.04,724.2,-1.31,5.93,6.77,89,-0.031,0.2345,19.358,88.98,-0.857,0,0,0,0,0,0,0,0,181.53,0,0,0,0,0,0,0,0,0,0,0,0,0,2,2,299.36,FLYING
300.58,APPROACH,FLY_TO_FIX,83.96,84,0.04,722.51,-1.3,5.95,6.77,89,-0.031,0.2348,19.379,88.98,-0.848,0,0,0,0,0,0,0,0,181.53,0,0,0,0,0,0,0,0,0,0,0,0,0,2,2,300.65,FLYING
301.88,APPROACH,FLY_TO_FIX,83.96,84,0.04,720.85,-1.28,5.96,6.77,89,-0.032,0.235,19.401,88.98,-0.84,0,0,0,0,0,0,0,0,181.53,0,0,0,0,0,0,0,0,0,0,0,0,0,2,2,301.95,FLYING
303.17,APPROACH,FLY_TO_FIX,83.96,84,0.04,719.21,-1.26,5.97,6.77,89,-0.029,0.2353,19.422,88.98,-0.832,0,0,0,0,0,0,0,0,181.53,0,0,0,0,0,0,0,0,0,0,0,0,0,2,2,303.24,FLYING
303.96,APPROACH,FLY_TO_FIX,83.96,84,0.04,718.22,-1.25,5.97,6.76,89,-0.029,0.2356,19.443,88.98,-0.827,0,0,0,0,0,0,0,0,181.53,0,0,0,0,0,0,0,0,0,0,0,0,0,2,2,304,FLYING
304.72,APPROACH,FLY_TO_FIX,83.96,84,0.04,717.28,-1.24,5.97,6.76,89,-0.027,0.2358,19.464,88.98,-0.822,0,0,0,0,0,0,0,0,181.53,0,0,0,0,0,0,0,0,0,0,0,0,0,2,2,304.76,FLYING
305.48,APPROACH,FLY_TO_FIX,83.96,84,0.04,716.35,-1.23,5.98,6.76,89,-0.025,0.2359,19.485,88.98,-0.817,0,0,0,0,0,0,0,0,181.53,0,0,0,0,0,0,0,0,0,0,0,0,0,2,2,305.52,FLYING
306.24,APPROACH,FLY_TO_FIX,83.96,84,0.04,715.42,-1.21,5.99,6.76,88.99,-0.023,0.2361,19.506,88.98,-0.813,0,0,0,0,0,0,0,0,181.53,0,0,0,0,0,0,0,0,0,0,0,0,0,2,2,306.28,FLYING
307,APPROACH,FLY_TO_FIX,83.96,84,0.04,714.5,-1.2,5.99,6.76,88.99,-0.022,0.2362,19.526,88.98,-0.808,0,0,0,0,0,0,0,0,181.53,0,0,0,0,0,0,0,0,0,0,0,0,0,2,2,307.04,FLYING
307.76,APPROACH,FLY_TO_FIX,83.96,84,0.04,713.59,-1.19,6,6.76,88.99,-0.022,0.2364,19.546,88.98,-0.803,0,0,0,0,0,0,0,0,181.53,0,0,0,0,0,0,0,0,0,0,0,0,0,2,2,307.8,FLYING
308.52,APPROACH,FLY_TO_FIX,83.96,84,0.04,712.69,-1.18,6,6.76,88.99,-0.021,0.2365,19.566,88.98,-0.799,0,0,0,0,0,0,0,0,181.53,0,0,0,0,0,0,0,0,0,0,0,0,0,2,2,308.56,FLYING
309.28,APPROACH,FLY_TO_FIX,83.96,84,0.04,711.79,-1.17,6.01,6.76,88.99,-0.02,0.2366,19.585,88.98,-0.794,0,0,0,0,0,0,0,0,181.53,0,0,0,0,0,0,0,0,0,0,0,0,0,2,2,309.32,FLYING
310.04,APPROACH,FLY_TO_FIX,83.96,84,0.04,710.9,-1.16,6.01,6.76,88.99,-0.018,0.2366,19.603,88.97,-0.79,0,0,0,0,0,0,0,0,181.53,0,0,0,0,0,0,0,0,0,0,0,0,0,2,2,310.08,FLYING
310.8,APPROACH,FLY_TO_FIX,83.97,84,0.03,710.02,-1.16,6.02,6.76,88.99,-0.017,0.2367,19.62,88.97,-0.786,0,0,0,0,0,0,0,0,181.53,0,0,0,0,0,0,0,0,0,0,0,0,0,2,2,310.84,FLYING
311.56,APPROACH,FLY_TO_FIX,83.97,84,0.03,709.15,-1.15,6.03,6.76,88.98,-0.016,0.2368,19.637,88.97,-0.781,0,0,0,0,0,0,0,0,181.53,0,0,0,0,0,0,0,0,0,0,0,0,0,2,2,311.6,FLYING
312.32,APPROACH,FLY_TO_FIX,83.97,84,0.03,708.28,-1.14,6.03,6.75,88.98,-0.014,0.2368,19.652,88.97,-0.777,0,0,0,0,0,0,0,0,181.53,0,0,0,0,0,0,0,0,0,0,0,0,0,2,2,312.36,FLYING
313.08,APPROACH,FLY_TO_FIX,83.97,84,0.03,707.42,-1.13,6.04,6.75,88.98,-0.015,0.2368,19.667,88.97,-0.773,0,0,0,0,0,0,0,0,181.53,0,0,0,0,0,0,0,0,0,0,0,0,0,2,2,313.12,FLYING
313.84,APPROACH,FLY_TO_FIX,83.97,84,0.03,706.57,-1.12,6.04,6.75,88.98,-0.015,0.2368,19.681,88.97,-0.768,0,0,0,0,0,0,0,0,181.53,0,0,0,0,0,0,0,0,0,0,0,0,0,2,2,313.88,FLYING
314.6,APPROACH,FLY_TO_FIX,83.97,84,0.03,705.73,-1.11,6.05,6.75,88.98,-0.015,0.2369,19.694,88.97,-0.764,0,0,0,0,0,0,0,0,181.53,0,0,0,0,0,0,0,0,0,0,0,0,0,2,2,314.64,FLYING
315.36,APPROACH,FLY_TO_FIX,83.98,84,0.02,704.89,-1.1,6.05,6.75,88.98,-0.016,0.2369,19.706,88.97,-0.76,0,0,0,0,0,0,0,0,181.53,0,0,0,0,0,0,0,0,0,0,0,0,0,2,2,315.4,FLYING
316.12,APPROACH,FLY_TO_FIX,83.98,84,0.02,704.06,-1.09,6.06,6.75,88.97,-0.016,0.2369,19.717,88.97,-0.756,0,0,0,0,0,0,0,0,181.53,0,0,0,0,0,0,0,0,0,0,0,0,0,2,2,316.16,FLYING
316.88,APPROACH,FLY_TO_FIX,83.98,84,0.02,703.24,-1.08,6.06,6.75,88.97,-0.016,0.2368,19.727,88.97,-0.752,0,0,0,0,0,0,0,0,181.53,0,0,0,0,0,0,0,0,0,0,0,0,0,2,2,316.92,FLYING
317.64,APPROACH,FLY_TO_FIX,83.98,84,0.02,702.43,-1.07,6.07,6.75,88.97,-0.016,0.2368,19.736,88.97,-0.748,0,0,0,0,0,0,0,0,181.53,0,0,0,0,0,0,0,0,0,0,0,0,0,2,2,317.68,FLYING
318.4,APPROACH,FLY_TO_FIX,83.98,84,0.02,701.62,-1.06,6.07,6.75,88.97,-0.017,0.2368,19.744,88.97,-0.744,0,0,0,0,0,0,0,0,181.53,0,0,0,0,0,0,0,0,0,0,0,0,0,2,2,318.44,FLYING
319.16,APPROACH,FLY_TO_FIX,83.99,84,0.01,700.82,-1.05,6.08,6.75,88.97,-0.017,0.2368,19.751,88.97,-0.74,0,0,0,0,0,0,0,0,181.53,0,0,0,0,0,0,0,0,0,0,0,0,0,2,2,319.2,FLYING
319.92,APPROACH,FLY_TO_FIX,83.99,84,0.01,700.02,-1.04,6.08,6.75,88.97,-0.018,0.2368,19.757,88.97,-0.736,0,0,0,0,0,0,0,0,181.53,0,0,0,0,0,0,0,0,0,0,0,0,0,2,2,319.96,FLYING
320.68,APPROACH,FLY_TO_FIX,83.99,84,0.01,699.23,-1.03,6.09,6.75,88.97,-0.018,0.2369,19.763,88.97,-0.732,0,0,0,0,0,0,0,0,181.53,0,0,0,0,0,0,0,0,0,0,0,0,0,2,2,320.72,FLYING
321.44,APPROACH,FLY_TO_FIX,83.99,84,0.01,698.45,-1.02,6.09,6.74,88.96,-0.018,0.2369,19.768,88.97,-0.728,0,0,0,0,0,0,0,0,181.53,0,0,0,0,0,0,0,0,0,0,0,0,0,2,2,321.48,FLYING
322.2,APPROACH,FLY_TO_FIX,83.99,84,0.01,697.68,-1.02,6.1,6.74,88.96,-0.018,0.2369,19.772,88.97,-0.724,0,0,0,0,0,0,0,0,181.53,0,0,0,0,0,0,0,0,0,0,0,0,0,2,2,322.24,FLYING
322.96,APPROACH,FLY_TO_FIX,83.99,84,0.01,696.91,-1.01,6.1,6.74,88.96,-0.018,0.2369,19.776,88.97,-0.72,0,0,0,0,0,0,0,0,181.53,0,0,0,0,0,0,0,0,0,0,0,0,0,2,2,323,FLYING
323.72,APPROACH,FLY_TO_FIX,83.99,84,0.01,696.15,-1,6.11,6.74,88.96,-0.019,0.237,19.779,88.97,-0.716,0,0,0,0,0,0,0,0,181.53,0,0,0,0,0,0,0,0,0,0,0,0,0,2,2,323.76,FLYING
324.48,APPROACH,FLY_TO_FIX,83.99,84,0.01,695.4,-0.99,6.11,6.74,88.96,-0.019,0.237,19.781,88.97,-0.712,0,0,0,0,0,0,0,0,181.53,0,0,0,0,0,0,0,0,0,0,0,0,0,2,2,324.52,FLYING
325.24,APPROACH,FLY_TO_FIX,84,84,0,694.65,-0.98,6.12,6.74,88.96,-0.019,0.2371,19.784,88.97,-0.709,0,0,0,0,0,0,0,0,181.53,0,0,0,0,0,0,0,0,0,0,0,0,0,2,2,325.28,FLYING
326,APPROACH,FLY_TO_FIX,84,84,0,693.9,-0.97,6.12,6.74,88.96,-0.02,0.2371,19.786,88.97,-0.705,0,0,0,0,0,0,0,0,181.53,0,0,0,0,0,0,0,0,0,0,0,0,0,2,2,326.04,FLYING
326.76,APPROACH,FLY_TO_FIX,84,84,0,693.17,-0.96,6.13,6.74,88.95,-0.02,0.2372,19.788,88.97,-0.701,0,0,0,0,0,0,0,0,181.53,0,0,0,0,0,0,0,0,0,0,0,0,0,2,2,326.8,FLYING
327.52,APPROACH,FLY_TO_FIX,84,84,0,692.44,-0.96,6.13,6.74,88.95,-0.02,0.2373,19.79,88.97,-0.698,0,0,0,0,0,0,0,0,181.53,0,0,0,0,0,0,0,0,0,0,0,0,0,2,2,327.56,FLYING
328.28,APPROACH,FLY_TO_FIX,84,84,0,691.72,-0.95,6.14,6.74,88.95,-0.021,0.2374,19.792,88.97,-0.694,0,0,0,0,0,0,0,0,181.53,0,0,0,0,0,0,0,0,0,0,0,0,0,2,2,328.32,FLYING
329.04,APPROACH,FLY_TO_FIX,84,84,0,691,-0.94,6.14,6.74,88.95,-0.021,0.2375,19.794,88.97,-0.69,0,0,0,0,0,0,0,0,181.53,0,0,0,0,0,0,0,0,0,0,0,0,0,2,2,329.08,FLYING
329.8,APPROACH,FLY_TO_FIX,84,84,0,690.29,-0.93,6.14,6.74,88.95,-0.021,0.2376,19.796,88.97,-0.687,0,0,0,0,0,0,0,0,181.53,0,0,0,0,0,0,0,0,0,0,0,0,0,2,2,329.84,FLYING
330.56,APPROACH,FLY_TO_FIX,84,84,0,689.58,-0.92,6.15,6.74,88.95,-0.022,0.2377,19.798,88.97,-0.683,0,0,0,0,0,0,0,0,181.53,0,0,0,0,0,0,0,0,0,0,0,0,0,2,2,330.6,FLYING
331.32,APPROACH,FLY_TO_FIX,83.99,84,0.01,688.88,-0.92,6.15,6.74,88.95,-0.022,0.2379,19.801,88.97,-0.68,0,0,0,0,0,0,0,0,181.53,0,0,0,0,0,0,0,0,0,0,0,0,0,2,2,331.36,FLYING
332.08,APPROACH,FLY_TO_FIX,83.99,84,0.01,688.19,-0.91,6.16,6.74,88.95,-0.022,0.238,19.804,88.97,-0.676,0,0,0,0,0,0,0,0,181.53,0,0,0,0,0,0,0,0,0,0,0,0,0,2,2,332.12,FLYING
332.84,APPROACH,FLY_TO_FIX,83.99,84,0.01,687.5,-0.9,6.16,6.74,88.95,-0.023,0.2381,19.807,88.97,-0.673,0,0,0,0,0,0,0,0,181.53,0,0,0,0,0,0,0,0,0,0,0,0,0,2,2,332.88,FLYING
333.6,APPROACH,FLY_TO_FIX,83.99,84,0.01,686.82,-0.89,6.17,6.74,88.94,-0.023,0.2383,19.811,88.97,-0.669,0,0,0,0,0,0,0,0,181.53,0,0,0,0,0,0,0,0,0,0,0,0,0,2,2,333.64,FLYING
334.36,APPROACH,FLY_TO_FIX,83.99,84,0.01,686.15,-0.89,6.17,6.74,88.94,-0.023,0.2384,19.815,88.97,-0.666,0,0,0,0,0,0,0,0,181.53,0,0,0,0,0,0,0,0,0,0,0,0,0,2,2,334.4,FLYING
335.12,APPROACH,FLY_TO_FIX,83.99,84,0.01,685.48,-0.88,6.18,6.74,88.94,-0.024,0.2385,19.819,88.98,-0.663,0,0,0,0,0,0,0,0,181.53,0,0,0,0,0,0,0,0,0,0,0,0,0,2,2,335.16,FLYING
335.88,APPROACH,FLY_TO_FIX,83.99,84,0.01,684.81,-0.87,6.18,6.74,88.94,-0.025,0.2387,19.824,88.98,-0.659,0,0,0,0,0,0,0,0,181.53,0,0,0,0,0,0,0,0,0,0,0,0,0,2,2,335.92,FLYING
336.64,APPROACH,FLY_TO_FIX,83.99,84,0.01,684.15,-0.87,6.19,6.74,88.94,-0.026,0.2388,19.829,88.98,-0.656,0,0,0,0,0,0,0,0,181.53,0,0,0,0,0,0,0,0,0,0,0,0,0,2,2,336.68,FLYING
337.4,APPROACH,FLY_TO_FIX,83.99,84,0.01,683.5,-0.86,6.19,6.74,88.94,-0.026,0.2389,19.835,88.98,-0.653,0,0,0,0,0,0,0,0,181.53,0,0,0,0,0,0,0,0,0,0,0,0,0,2,2,337.44,FLYING
338.16,APPROACH,FLY_TO_FIX,83.99,84,0.01,682.85,-0.85,6.19,6.74,88.94,-0.027,0.2391,19.841,88.98,-0.65,0,0,0,0,0,0,0,0,181.53,0,0,0,0,0,0,0,0,0,0,0,0,0,2,2,338.2,FLYING
338.92,APPROACH,FLY_TO_FIX,83.99,84,0.01,682.2,-0.84,6.2,6.74,88.94,-0.028,0.2392,19.848,88.98,-0.646,0,0,0,0,0,0,0,0,181.53,0,0,0,0,0,0,0,0,0,0,0,0,0,2,2,338.96,FLYING
339.68,APPROACH,FLY_TO_FIX,83.99,84,0.01,681.56,-0.84,6.2,6.74,88.94,-0.028,0.2393,19.855,88.98,-0.643,0,0,0,0,0,0,0,0,181.53,0,0,0,0,0,0,0,0,0,0,0,0,0,2,2,339.72,FLYING
340.44,APPROACH,FLY_TO_FIX,83.99,84,0.01,680.93,-0.83,6.21,6.74,88.94,-0.029,0.2394,19.862,88.98,-0.64,0,0,0,0,0,0,0,0,181.53,0,0,0,0,0,0,0,0,0,0,0,0,0,2,2,340.48,FLYING
341.2,APPROACH,FLY_TO_FIX,83.98,84,0.02,680.3,-0.82,6.21,6.74,88.94,-0.029,0.2395,19.869,88.98,-0.637,0,0,0,0,0,0,0,0,181.53,0,0,0,0,0,0,0,0,0,0,0,0,0,2,2,341.24,FLYING
341.96,APPROACH,FLY_TO_FIX,83.98,84,0.02,679.68,-0.82,6.22,6.74,88.94,-0.029,0.2396,19.877,88.98,-0.634,0,0,0,0,0,0,0,0,181.53,0,0,0,0,0,0,0,0,0,0,0,0,0,2,2,342,FLYING
342.72,APPROACH,FLY_TO_FIX,83.98,84,0.02,679.06,-0.81,6.22,6.74,88.94,-0.029,0.2397,19.885,88.98,-0.631,0,0,0,0,0,0,0,0,181.53,0,0,0,0,0,0,0,0,0,0,0,0,0,2,2,342.76,FLYING
343.48,APPROACH,FLY_TO_FIX,83.98,84,0.02,678.45,-0.8,6.22,6.74,88.94,-0.03,0.2398,19.893,88.98,-0.628,0,0,0,0,0,0,0,0,181.53,0,0,0,0,0,0,0,0,0,0,0,0,0,2,2,343.52,FLYING
344.24,APPROACH,FLY_TO_FIX,83.98,84,0.02,677.84,-0.8,6.23,6.74,88.94,-0.03,0.2399,19.901,88.98,-0.625,0,0,0,0,0,0,0,0,181.53,0,0,0,0,0,0,0,0,0,0,0,0,0,2,2,344.28,FLYING
345,APPROACH,FLY_TO_FIX,83.98,84,0.02,677.23,-0.79,6.23,6.74,88.94,-0.03,0.2399,19.909,88.98,-0.621,0,0,0,0,0,0,0,0,181.53,0,0,0,0,0,0,0,0,0,0,0,0,0,2,2,345.04,FLYING
345.76,APPROACH,FLY_TO_FIX,83.98,84,0.02,676.64,-0.79,6.23,6.74,88.94,-0.03,0.24,19.918,88.99,-0.618,0,0,0,0,0,0,0,0,181.53,0,0,0,0,0,0,0,0,0,0,0,0,0,2,2,345.8,FLYING
346.52,APPROACH,FLY_TO_FIX,83.98,84,0.02,676.04,-0.78,6.24,6.74,88.93,-0.031,0.24,19.926,88.99,-0.616,0,0,0,0,0,0,0,0,181.53,0,0,0,0,0,0,0,0,0,0,0,0,0,2,2,346.56,FLYING
347.28,APPROACH,FLY_TO_FIX,83.98,84,0.02,675.45,-0.77,6.24,6.74,88.93,-0.032,0.2401,19.934,88.99,-0.613,0,0,0,0,0,0,0,0,181.53,0,0,0,0,0,0,0,0,0,0,0,0,0,2,2,347.32,FLYING
348.04,APPROACH,FLY_TO_FIX,83.98,84,0.02,674.87,-0.77,6.24,6.73,88.93,-0.032,0.2401,19.942,88.99,-0.61,0,0,0,0,0,0,0,0,181.53,0,0,0,0,0,0,0,0,0,0,0,0,0,2,2,348.08,FLYING
348.8,APPROACH,FLY_TO_FIX,83.98,84,0.02,674.29,-0.76,6.25,6.73,88.93,-0.032,0.2402,19.95,88.99,-0.607,0,0,0,0,0,0,0,0,181.53,0,0,0,0,0,0,0,0,0,0,0,0,0,2,2,348.84,FLYING
349.56,APPROACH,FLY_TO_FIX,83.98,84,0.02,673.71,-0.76,6.25,6.73,88.93,-0.033,0.2402,19.957,88.99,-0.604,0,0,0,0,0,0,0,0,181.53,0,0,0,0,0,0,0,0,0,0,0,0,0,2,2,349.6,FLYING
350.32,APPROACH,FLY_TO_FIX,83.99,84,0.01,673.14,-0.75,6.25,6.73,88.93,-0.033,0.2402,19.964,88.99,-0.601,0,0,0,0,0,0,0,0,181.53,0,0,0,0,0,0,0,0,0,0,0,0,0,2,2,350.36,FLYING
351.08,APPROACH,FLY_TO_FIX,83.99,84,0.01,672.57,-0.74,6.26,6.73,88.93,-0.033,0.2402,19.971,88.99,-0.598,0,0,0,0,0,0,0,0,181.53,0,0,0,0,0,0,0,0,0,0,0,0,0,2,2,351.12,FLYING
351.84,APPROACH,FLY_TO_FIX,83.99,84,0.01,672.01,-0.74,6.26,6.73,88.93,-0.034,0.2402,19.978,89,-0.595,0,0,0,0,0,0,0,0,181.53,0,0,0,0,0,0,0,0,0,0,0,0,0,2,2,351.88,FLYING
352.6,APPROACH,FLY_TO_FIX,83.99,84,0.01,671.45,-0.73,6.26,6.73,88.93,-0.034,0.2402,19.984,89,-0.593,0,0,0,0,0,0,0,0,181.53,0,0,0,0,0,0,0,0,0,0,0,0,0,2,2,352.64,FLYING
353.36,APPROACH,FLY_TO_FIX,83.99,84,0.01,670.89,-0.73,6.27,6.73,88.93,-0.034,0.2402,19.99,89,-0.59,0,0,0,0,0,0,0,0,181.53,0,0,0,0,0,0,0,0,0,0,0,0,0,2,2,353.4,FLYING
354.12,APPROACH,FLY_TO_FIX,83.99,84,0.01,670.34,-0.72,6.27,6.73,88.93,-0.035,0.2402,19.996,89,-0.587,0,0,0,0,0,0,0,0,181.53,0,0,0,0,0,0,0,0,0,0,0,0,0,2,2,354.16,FLYING
354.88,APPROACH,FLY_TO_FIX,83.99,84,0.01,669.79,-0.72,6.27,6.73,88.93,-0.036,0.2402,20,89,-0.584,0,0,0,0,0,0,0,0,181.53,0,0,0,0,0,0,0,0,0,0,0,0,0,2,2,354.92,FLYING
355.64,APPROACH,FLY_TO_FIX,83.99,84,0.01,669.25,-0.71,6.28,6.73,88.93,-0.037,0.2402,20,89.01,-0.582,0,0,0,0,0,0,0,0,181.53,0,0,0,0,0,0,0,0,0,0,0,0,0,2,2,355.68,FLYING
356.4,APPROACH,FLY_TO_FIX,83.99,84,0.01,668.71,-0.71,6.28,6.73,88.93,-0.039,0.2401,20,89.01,-0.579,0,0,0,0,0,0,0,0,181.53,0,0,0,0,0,0,0,0,0,0,0,0,0,2,2,356.44,FLYING
357.16,APPROACH,FLY_TO_FIX,83.99,84,0.01,668.18,-0.7,6.28,6.73,88.93,-0.04,0.2401,20,89.01,-0.576,0,0,0,0,0,0,0,0,181.53,0,0,0,0,0,0,0,0,0,0,0,0,0,2,2,357.2,FLYING
357.92,APPROACH,FLY_TO_FIX,83.99,84,0.01,667.65,-0.7,6.28,6.73,88.93,-0.042,0.24,20,89.02,-0.574,0,0,0,0,0,0,0,0,181.53,0,0,0,0,0,0,0,0,0,0,0,0,0,2,2,357.96,FLYING
358.68,APPROACH,FLY_TO_FIX,83.99,84,0.01,667.12,-0.69,6.29,6.73,88.94,-0.044,0.24,20,89.02,-0.571,0,0,0,0,0,0,0,0,181.53,0,0,0,0,0,0,0,0,0,0,0,0,0,2,2,358.72,FLYING
359.44,APPROACH,FLY_TO_FIX,83.99,84,0.01,666.6,-0.69,6.29,6.73,88.94,-0.045,0.24,20,89.02,-0.568,0,0,0,0,0,0,0,0,181.53,0,0,0,0,0,0,0,0,0,0,0,0,0,2,2,359.48,FLYING
360.2,APPROACH,FLY_TO_FIX,83.99,84,0.01,666.08,-0.68,6.29,6.73,88.94,-0.046,0.24,20,89.03,-0.566,0,0,0,0,0,0,0,0,181.53,0,0,0,0,0,0,0,0,0,0,0,0,0,2,2,360.24,FLYING
360.96,APPROACH,FLY_TO_FIX,83.99,84,0.01,665.56,-0.68,6.29,6.73,88.94,-0.046,0.24,20,89.03,-0.563,0,0,0,0,0,0,0,0,181.53,0,0,0,0,0,0,0,0,0,0,0,0,0,2,2,361,FLYING
