t_s,phase,subphase,ias_ms,vapp_ms,spd_err_ms,agl_m,vs_ms,pitch_deg,aoa_deg,hdg_deg,bank_deg,thr_cmd,thr_cur,thr_intg,at_gain,at_tau_s,at_a_up,at_a_dn,at_kp_thr,at_ki_spd,at_thr_slew,as_cmd_deg,as_cap_deg,as_raw_deg,as_spd_err_ms,as_active,aa_hdg_cmd_deg,aa_fpa_cmd_deg,aa_fbw,aa_dir,actual_fpa_deg,ftf_hdg_err_deg,ftf_fix_idx,kos_steer_pit_deg,kos_steer_hdg_deg,aa_dir_vx,aa_dir_vy,aa_dir_vz,aa_dir_pitch_deg,aa_dir_hdg_deg,ils_loc_m,ils_gs_m,ils_dist_km,loc_corr_deg,gs_corr_deg,gs_latched,active_gs_ang_deg,ils_intercept_alt_m,d_gs_ms,fpa_preclamped_deg,gs_nom_alt_m,flare_fpa_cmd,flare_tgt_vs,flare_frac,steer_hdg_deg,steer_blend,ro_loc_corr_deg,ro_hdg_err_deg,ro_yaw_tgt,ro_yaw_scale,ro_yaw_gate,yaw_cmd,roll_cmd,pitch_cmd,ro_pitch_tgt_deg,ro_pitch_err_deg,ro_pitch_ff,ro_roll_assist,flaps_cur,flaps_tgt,asc_j_ab,asc_j_rk,asc_validity,asc_q_pa,asc_q_raw_pa,asc_mach,asc_apo_m,asc_drag_n,asc_w_prop,asc_edot_aero,asc_edot_orb,asc_pitch_bias,asc_blend,asc_spooling,asc_ab_thr_ratio,asc_ab_t_now,asc_ab_t_avail,asc_ab_ign_on,asc_ab_flameouts,asc_rk_t_now,asc_rk_t_avail,asc_rk_ign_on,asc_rk_flameouts,ship_thrust,ship_avail_thrust,ship_ign_on,ship_flameouts,ifc_raw_dt_s,ifc_dt_s,ifc_loop_n,ifc_hz_est,ifc_raw_dt_max_s,ifc_raw_dt_min_s,phase_el_s,status,craft_name,cfg_file
1.9,TAKEOFF,TO_PREFLIGHT,0.37,80,79.63,4.57,0.06,1.55,-7.14,90.25,0.076,0.056,0,0,0,0,0,0,0,0,0,0,0,0,0,0,90.4,0,1,0,-0.77,0,0,0,90,0,0,0,0,0,0,0,0,0,0,0,3,0,0,0,69,0,0,0,90.4,1,0,-0.154,0,0,1,0,0,0,0,0,0,0,0,2,0,0,VALID,0,0,0,0,0,1,0,0,0,0,0,0,0,0,0,0,0,0,0,0,0,877.71,2,0,0.14,0.14,1,0.5,0.14,0.02,1.76,LANDED,X10-F,0:/Integrated Flight Computer/aircraft/x10_f_cfg.ks (inferred preloaded)
2.16,TAKEOFF,TO_PREFLIGHT,0.37,80,79.63,4.79,-0.09,3.84,18.34,90.3,0.06,0.328,0,0,0,0,0,0,0,0,0,0,0,0,0,0,90.4,0,1,0,-5.42,0,0,0,90,0,0,0,0,0,0,0,0,0,0,0,3,0,0,0,69,0,0,0,90.4,1,0,-0.154,0,0,1,0,0,0,0,0,0,0,1,2,0,0,VALID,0,0,0,0,0,1,0,0,0,0,0,0,0,0,0,0,0,0,0,0,7.42,877.71,2,0,0.04,0.04,6,19.23,1.84,0.04,2.02,LANDED,X10-F,0:/Integrated Flight Computer/aircraft/x10_f_cfg.ks (inferred preloaded)
2.42,TAKEOFF,TO_PREFLIGHT,0.27,80,79.73,4.93,0.02,4.34,0.46,90.3,0.051,0.432,0,0,0,0,0,0,0,0,0,0,0,0,0,0,90.4,0,1,0,1.17,0,0,0,90,0,0,0,0,0,0,0,0,0,0,0,3,0,0,0,69,0,0,0,90.4,1,0,-0.154,0,0,1,0,0,0,0,0,0,0,2,2,0,0,VALID,0,0,0,0,0,1,0,0,0,0,0,0,0,0,0,0,0,0,0,0,22.72,877.72,2,0,0.06,0.06,10,15.38,0.08,0.04,2.28,LANDED,X10-F,0:/Integrated Flight Computer/aircraft/x10_f_cfg.ks (inferred preloaded)
2.68,TAKEOFF,TO_PREFLIGHT,0.06,80,79.94,4.94,0,4.36,60.79,90.31,0.055,0.536,0,0,0,0,0,0,0,0,0,0,0,0,0,0,90.4,0,1,0,-0.27,0,0,0,90,0,0,0,0,0,0,0,0,0,0,0,3,0,0,0,69,0,0,0,90.4,1,0,-0.154,0,0,1,0,0,0,0,0,0,0,2,2,0,0,VALID,0,0,0,0,0,1,0,0,0,0,0,0,0,0,0,0,0,0,0,0,41.83,877.71,2,0,0.06,0.06,14,15.38,0.08,0.04,2.54,LANDED,X10-F,0:/Integrated Flight Computer/aircraft/x10_f_cfg.ks (inferred preloaded)
2.94,TAKEOFF,TO_PREFLIGHT,0.08,80,79.92,4.85,0.02,4.05,-1.08,90.3,0.054,0.64,0,0,0,0,0,0,0,0,0,0,0,0,0,0,90.4,0,1,0,0.9,0,0,0,90,0,0,0,0,0,0,0,0,0,0,0,3,0,0,0,69,0,0,0,90.4,1,0,-0.154,0,0,1,0,0,0,0,0,0,0,2,2,0,0,VALID,0,0,0,0,0,1,0,0,0,0,0,0,0,0,0,0,0,0,0,0,64.6,877.71,2,0,0.06,0.06,18,15.38,0.08,0.04,2.8,LANDED,X10-F,0:/Integrated Flight Computer/aircraft/x10_f_cfg.ks (inferred preloaded)
3.2,TAKEOFF,TO_PREFLIGHT,0.17,80,79.83,4.7,0.03,3.5,-4.42,90.29,0.058,0.744,0,0,0,0,0,0,0,0,0,0,0,0,0,0,90.4,0,1,0,1.52,0,0,0,90,0,0,0,0,0,0,0,0,0,0,0,3,0,0,0,69,0,0,0,90.4,1,0,-0.154,0,0,1,0,0,0,0,0,0,0,2,2,0,0,VALID,0,0,0,0,0,1,0,0,0,0,0,0,0,0,0,0,0,0,0,0,90.84,877.71,2,0,0.06,0.06,22,15.38,0.08,0.04,3.06,LANDED,X10-F,0:/Integrated Flight Computer/aircraft/x10_f_cfg.ks (inferred preloaded)
3.46,TAKEOFF,TO_PREFLIGHT,0.24,80,79.76,4.46,0.02,2.68,-1.89,90.27,0.062,0.848,0,0,0,0,0,0,0,0,0,0,0,0,0,0,90.4,0,1,0,1.36,0,0,0,90,0,0,0,0,0,0,0,0,0,0,0,3,0,0,0,69,0,0,0,90.4,1,0,-0.154,0,0,1,0,0,0,0,0,0,0,2,2,0,0,VALID,0,0,0,0,0,1,0,0,0,0,0,0,0,0,0,0,0,0,0,0,120.39,877.71,2,0,0.06,0.06,26,15.38,0.08,0.04,3.32,LANDED,X10-F,0:/Integrated Flight Computer/aircraft/x10_f_cfg.ks (inferred preloaded)
3.72,TAKEOFF,TO_PREFLIGHT,0.31,80,79.69,4.16,0.03,1.6,-3.74,90.26,0.07,0.952,0,0,0,0,0,0,0,0,0,0,0,0,0,0,90.4,0,1,0,1.9,0,0,0,90,0,0,0,0,0,0,0,0,0,0,0,3,0,0,0,69,0,0,0,90.4,1,0,-0.154,0,0,1,0,0,0,0,0,0,0,2,2,0,0,VALID,0,0,0,0,0,1,0,0,0,0,0,0,0,0,0,0,0,0,0,0,153.07,877.71,2,0,0.06,0.06,30,15.38,0.08,0.04,3.58,LANDED,X10-F,0:/Integrated Flight Computer/aircraft/x10_f_cfg.ks (inferred preloaded)
3.98,TAKEOFF,TO_PREFLIGHT,0.38,80,79.62,3.79,0.02,0.31,-2.87,90.24,0.076,1,0,0,0,0,0,0,0,0,0,0,0,0,0,0,90.4,0,1,0,1.35,0,0,0,90,0,0,0,0,0,0,0,0,0,0,0,3,0,0,0,69,0,0,0,90.4,1,0,-0.154,0,0,1,0,0,0,0,0,0,0,2,2,0,0,VALID,0,0,0,0,0,1,0,0,0,0,0,0,0,0,0,0,0,0,0,0,188.62,877.71,2,0,0.06,0.06,34,15.38,0.08,0.04,3.84,LANDED,X10-F,0:/Integrated Flight Computer/aircraft/x10_f_cfg.ks (inferred preloaded)
4.24,TAKEOFF,TO_PREFLIGHT,0.41,80,79.59,3.51,0.13,-0.71,-19.36,90.23,0.086,1,0,0,0,0,0,0,0,0,0,0,0,0,0,0,90.4,0,1,0,7.68,0,0,0,90,0,0,0,0,0,0,0,0,0,0,0,3,0,0,0,69,0,0,0,90.4,1,0,-0.154,0,0,1,0,0,0,0,0,0,0,2,2,0,0,VALID,0,0,0,0,0,1,0,0,0,0,0,0,0,0,0,0,0,0,0,0,223.6,877.7,2,0,0.06,0.06,38,15.38,0.08,0.04,4.1,LANDED,X10-F,0:/Integrated Flight Computer/aircraft/x10_f_cfg.ks (inferred preloaded)
4.5,TAKEOFF,TO_PREFLIGHT,0.11,80,79.89,3.63,-0.31,-0.24,82.64,90.24,0.095,1,0,0,0,0,0,0,0,0,0,0,0,0,0,0,90.4,0,1,0,-17.33,0,0,0,90,0,0,0,0,0,0,0,0,0,0,0,3,0,0,0,69,0,0,0,90.4,1,0,-0.154,0,0,1,0,0,0,0,0,0,0,2,2,0,0,VALID,0,0,0,0,0,1,0,0,0,0,0,0,0,0,0,0,0,0,0,0,256.81,877.7,2,0,0.06,0.06,42,15.38,0.08,0.04,4.36,LANDED,X10-F,0:/Integrated Flight Computer/aircraft/x10_f_cfg.ks (inferred preloaded)
4.76,TAKEOFF,TO_PREFLIGHT,0.18,80,79.82,3.68,0.03,0.1,8.52,90.24,0.072,1,0,0,0,0,0,0,0,0,0,0,0,0,0,0,90.4,0,1,0,1.89,0,0,0,90,0,0,0,0,0,0,0,0,0,0,0,3,0,0,0,69,0,0,0,90.4,1,0,-0.154,0,0,1,0,0,0,0,0,0,0,2,2,0,0,VALID,0,0,0,0,0,1,0,0,0,0,0,0,0,0,0,0,0,0,0,0,288.34,877.71,2,0,0.06,0.06,46,15.38,0.08,0.04,4.62,LANDED,X10-F,0:/Integrated Flight Computer/aircraft/x10_f_cfg.ks (inferred preloaded)
5.02,TAKEOFF,TO_PREFLIGHT,0.19,80,79.81,3.69,0.1,0.03,-33.15,90.23,0.066,1,0,0,0,0,0,0,0,0,0,0,0,0,0,0,90.4,0,1,0,5.49,0,0,0,90,0,0,0,0,0,0,0,0,0,0,0,3,0,0,0,69,0,0,0,90.4,1,0,-0.154,0,0,1,0,0,0,0,0,0,0,2,2,0,0,VALID,0,0,0,0,0,1,0,0,0,0,0,0,0,0,0,0,0,0,0,0,318.26,877.7,2,0,0.06,0.06,50,15.38,0.08,0.04,4.88,LANDED,X10-F,0:/Integrated Flight Computer/aircraft/x10_f_cfg.ks (inferred preloaded)
5.28,TAKEOFF,TO_PREFLIGHT,0.25,80,79.75,3.59,0,-0.33,3.09,90.21,0.084,1,0,0,0,0,0,0,0,0,0,0,0,0,0,0,90.4,0,1,0,-0.02,0,0,0,90,0,0,0,0,0,0,0,0,0,0,0,3,0,0,0,69,0,0,0,90.4,1,0,-0.154,0,0,1,0,0,0,0,0,0,0,2,2,0,0,VALID,0,0,0,0,0,1,0,0,0,0,0,0,0,0,0,0,0,0,0,0,346.66,877.7,2,0,0.06,0.06,54,15.38,0.08,0.04,5.14,LANDED,X10-F,0:/Integrated Flight Computer/aircraft/x10_f_cfg.ks (inferred preloaded)
5.54,TAKEOFF,TO_PREFLIGHT,0.18,80,79.82,3.6,0,-0.33,-10.05,90.21,0.088,1,0,0,0,0,0,0,0,0,0,0,0,0,0,0,90.4,0,1,0,0.01,0,0,0,90,0,0,0,0,0,0,0,0,0,0,0,3,0,0,0,69,0,0,0,90.4,1,0,-0.154,0,0,1,0,0,0,0,0,0,0,2,2,0,0,VALID,0,0,0,0,0,1,0,0,0,0,0,0,0,0,0,0,0,0,0,0,373.62,877.7,2,0,0.06,0.06,58,15.38,0.08,0.04,5.4,LANDED,X10-F,0:/Integrated Flight Computer/aircraft/x10_f_cfg.ks (inferred preloaded)
5.8,TAKEOFF,TO_PREFLIGHT,0.15,80,79.85,3.61,-0.06,-0.22,22.64,90.21,0.082,1,0,0,0,0,0,0,0,0,0,0,0,0,0,0,90.4,0,1,0,-3.36,0,0,0,90,0,0,0,0,0,0,0,0,0,0,0,3,0,0,0,69,0,0,0,90.4,1,0,-0.154,0,0,1,0,0,0,0,0,0,0,2,2,0,0,VALID,0,0,0,0,0,1,0,0,0,0,0,0,0,0,0,0,0,0,0,0,399.21,877.7,2,0,0.06,0.06,62,15.38,0.08,0.04,5.66,LANDED,X10-F,0:/Integrated Flight Computer/aircraft/x10_f_cfg.ks (inferred preloaded)
6.06,TAKEOFF,TO_PREFLIGHT,0.17,80,79.83,3.62,0.04,-0.22,-11.67,90.2,0.075,1,0,0,0,0,0,0,0,0,0,0,0,0,0,0,90.4,0,1,0,2.24,0,0,0,90,0,0,0,0,0,0,0,0,0,0,0,3,0,0,0,69,0,0,0,90.4,1,0,-0.154,0,0,1,0,0,0,0,0,0,0,2,2,0,0,VALID,0,0,0,0,0,1,0,0,0,0,0,0,0,0,0,0,0,0,0,0,423.51,877.7,2,0,0.06,0.06,66,15.38,0.08,0.04,5.92,LANDED,X10-F,0:/Integrated Flight Computer/aircraft/x10_f_cfg.ks (inferred preloaded)
6.32,TAKEOFF,TO_PREFLIGHT,0.22,80,79.78,3.6,0.02,-0.32,-4.9,90.2,0.085,1,0,0,0,0,0,0,0,0,0,0,0,0,0,0,90.4,0,1,0,0.99,0,0,0,90,0,0,0,0,0,0,0,0,0,0,0,3,0,0,0,69,0,0,0,90.4,1,0,-0.154,0,0,1,0,0,0,0,0,0,0,2,2,0,0,VALID,0,0,0,0,0,1,0,0,0,0,0,0,0,0,0,0,0,0,0,0,446.56,877.7,2,0,0.06,0.06,70,15.38,0.08,0.04,6.18,LANDED,X10-F,0:/Integrated Flight Computer/aircraft/x10_f_cfg.ks (inferred preloaded)
6.58,TAKEOFF,TO_PREFLIGHT,0.27,80,79.73,3.6,-0.02,-0.31,2.92,90.19,0.087,1,0,0,0,0,0,0,0,0,0,0,0,0,0,0,90.4,0,1,0,-1.13,0,0,0,90,0,0,0,0,0,0,0,0,0,0,0,3,0,0,0,69,0,0,0,90.4,1,0,-0.154,0,0,1,0,0,0,0,0,0,0,2,2,0,0,VALID,0,0,0,0,0,1,0,0,0,0,0,0,0,0,0,0,0,0,0,0,468.45,877.7,2,0,0.06,0.06,74,15.38,0.08,0.04,6.44,LANDED,X10-F,0:/Integrated Flight Computer/aircraft/x10_f_cfg.ks (inferred preloaded)
6.84,TAKEOFF,TO_PREFLIGHT,0.36,80,79.64,3.61,-0.02,-0.27,2.61,90.19,0.082,1,0,0,0,0,0,0,0,0,0,0,0,0,0,0,90.4,0,1,0,-1.01,0,0,0,90,0,0,0,0,0,0,0,0,0,0,0,3,0,0,0,69,0,0,0,90.4,1,0,-0.154,0,0,1,0,0,0,0,0,0,0,2,2,0,0,VALID,0,0,0,0,0,1,0,0,0,0,0,0,0,0,0,0,0,0,0,0,489.23,877.7,2,0,0.06,0.06,78,15.38,0.08,0.04,6.7,LANDED,X10-F,0:/Integrated Flight Computer/aircraft/x10_f_cfg.ks (inferred preloaded)
7.1,TAKEOFF,TO_PREFLIGHT,0.49,80,79.51,3.6,0.02,-0.29,-1.92,90.19,0.081,1,0,0,0,0,0,0,0,0,0,0,0,0,0,0,90.4,0,1,0,0.94,0,0,0,90,0,0,0,0,0,0,0,0,0,0,0,3,0,0,0,69,0,0,0,90.4,1,0,-0.154,0,0,1,0,0,0,0,0,0,0,2,2,0,0,VALID,0,0,0,0,0,1,0,0,0,0,0,0,0,0,0,0,0,0,0,0,508.95,877.7,2,0,0.06,0.06,82,15.38,0.08,0.04,6.96,LANDED,X10-F,0:/Integrated Flight Computer/aircraft/x10_f_cfg.ks (inferred preloaded)
7.36,TAKEOFF,TO_PREFLIGHT,0.67,80,79.33,3.6,0,-0.32,-0.2,90.19,0.084,1,0,0,0,0,0,0,0,0,0,0,0,0,0,0,90.4,0,1,0,-0.16,0,0,0,90,0,0,0,0,0,0,0,0,0,0,0,3,0,0,0,69,0,0,0,90.4,1,0,-0.154,0,0,1,0,0,0,0,0,0,0,2,2,0,0,VALID,0,0,0,0,0,1,0,0,0,0,0,0,0,0,0,0,0,0,0,0,527.67,877.69,2,0,0.06,0.06,86,15.38,0.08,0.04,7.22,LANDED,X10-F,0:/Integrated Flight Computer/aircraft/x10_f_cfg.ks (inferred preloaded)
7.62,TAKEOFF,TO_PREFLIGHT,0.84,80,79.16,3.6,-0.01,-0.31,0.3,90.18,0.084,1,0,0,0,0,0,0,0,0,0,0,0,0,0,0,90.4,0,1,0,-0.57,0,0,0,90,0,0,0,0,0,0,0,0,0,0,0,3,0,0,0,69,0,0,0,90.4,1,0,-0.154,0,0,1,0,0,0,0,0,0,0,2,2,0,0,VALID,0,0,0,0,0,1,0,0,0,0,0,0,0,0,0,0,0,0,0,0,545.44,877.69,2,0,0.06,0.06,90,15.38,0.08,0.04,7.48,LANDED,X10-F,0:/Integrated Flight Computer/aircraft/x10_f_cfg.ks (inferred preloaded)
7.88,TAKEOFF,TO_PREFLIGHT,0.96,80,79.04,3.6,0,-0.32,-0.17,90.18,0.084,1,0,0,0,0,0,0,0,0,0,0,0,0,0,0,90.4,0,1,0,-0.09,0,0,0,90,0,0,0,0,0,0,0,0,0,0,0,3,0,0,0,69,0,0,0,90.4,1,0,-0.154,0,0,1,0,0,0,0,0,0,0,2,2,0,0,VALID,0,0,0,0,0,1,0,0,0,0,0,0,0,0,0,0,0,0,0,0,562.31,877.69,2,0,0.06,0.06,94,15.38,0.08,0.04,7.74,LANDED,X10-F,0:/Integrated Flight Computer/aircraft/x10_f_cfg.ks (inferred preloaded)
8.14,TAKEOFF,TO_PREFLIGHT,1.02,80,78.98,3.59,0,-0.34,-0.41,90.17,0.084,1,0,0,0,0,0,0,0,0,0,0,0,0,0,0,90.4,0,1,0,0.06,0,0,0,90,0,0,0,0,0,0,0,0,0,0,0,3,0,0,0,69,0,0,0,90.4,1,0,-0.154,0,0,1,0,0,0,0,0,0,0,2,2,0,0,VALID,0,0,0,0,0,1,0,0,0,0,0,0,0,0,0,0,0,0,0,0,578.32,877.69,2,0,0.06,0.06,98,15.38,0.08,0.04,8,LANDED,X10-F,0:/Integrated Flight Computer/aircraft/x10_f_cfg.ks (inferred preloaded)
8.4,TAKEOFF,TO_PREFLIGHT,1.06,80,78.94,3.59,-0.01,-0.35,-0.05,90.16,0.085,1,0,0,0,0,0,0,0,0,0,0,0,0,0,0,90.4,0,1,0,-0.35,0,0,0,90,0,0,0,0,0,0,0,0,0,0,0,3,0,0,0,69,0,0,0,90.4,1,0,-0.154,0,0,1,0,0,0,0,0,0,0,2,2,0,0,VALID,0,0,0,0,0,1,0,0,0,0,0,0,0,0,0,0,0,0,0,0,593.52,877.69,2,0,0.06,0.06,102,15.38,0.08,0.04,8.26,LANDED,X10-F,0:/Integrated Flight Computer/aircraft/x10_f_cfg.ks (inferred preloaded)
8.66,TAKEOFF,TO_PREFLIGHT,1.09,80,78.91,3.59,-0.01,-0.35,0.05,90.14,0.085,1,0,0,0,0,0,0,0,0,0,0,0,0,0,0,90.4,0,1,0,-0.4,0,0,0,90,0,0,0,0,0,0,0,0,0,0,0,3,0,0,0,69,0,0,0,90.4,1,0,-0.154,0,0,1,0,0,0,0,0,0,0,2,2,0,0,VALID,0,0,0,0,0,1,0,0,0,0,0,0,0,0,0,0,0,0,0,0,607.94,877.69,2,0,0.06,0.06,106,15.38,0.08,0.04,8.52,LANDED,X10-F,0:/Integrated Flight Computer/aircraft/x10_f_cfg.ks (inferred preloaded)
8.92,TAKEOFF,TO_PREFLIGHT,1.12,80,78.88,3.59,0,-0.35,-0.15,90.13,0.085,1,0,0,0,0,0,0,0,0,0,0,0,0,0,0,90.4,0,1,0,-0.22,0,0,0,90,0,0,0,0,0,0,0,0,0,0,0,3,0,0,0,69,0,0,0,90.4,1,0,-0.154,0,0,1,0,0,0,0,0,0,0,2,2,0,0,VALID,0,0,0,0,0,1,0,0,0,0,0,0,0,0,0,0,0,0,0,0,621.64,877.68,2,0,0.06,0.06,110,15.38,0.08,0.04,8.78,LANDED,X10-F,0:/Integrated Flight Computer/aircraft/x10_f_cfg.ks (inferred preloaded)
9.18,TAKEOFF,TO_PREFLIGHT,1.15,80,78.85,3.59,0,-0.36,-0.17,90.12,0.085,1,0,0,0,0,0,0,0,0,0,0,0,0,0,0,90.4,0,1,0,-0.21,0,0,0,90,0,0,0,0,0,0,0,0,0,0,0,3,0,0,0,69,0,0,0,90.4,1,0,-0.154,0,0,1,0,0,0,0,0,0,0,2,2,0,0,VALID,0,0,0,0,0,1,0,0,0,0,0,0,0,0,0,0,0,0,0,0,634.64,877.68,2,0,0.06,0.06,114,15.38,0.08,0.04,9.04,LANDED,X10-F,0:/Integrated Flight Computer/aircraft/x10_f_cfg.ks (inferred preloaded)
9.44,TAKEOFF,TO_PREFLIGHT,1.17,80,78.83,3.58,-0.01,-0.36,-0.08,90.11,0.086,1,0,0,0,0,0,0,0,0,0,0,0,0,0,0,90.4,0,1,0,-0.32,0,0,0,90,0,0,0,0,0,0,0,0,0,0,0,3,0,0,0,69,0,0,0,90.4,1,0,-0.154,0,0,1,0,0,0,0,0,0,0,2,2,0,0,VALID,0,0,0,0,0,1,0,0,0,0,0,0,0,0,0,0,0,0,0,0,646.97,877.68,2,0,0.06,0.06,118,15.38,0.08,0.04,9.3,LANDED,X10-F,0:/Integrated Flight Computer/aircraft/x10_f_cfg.ks (inferred preloaded)
9.7,TAKEOFF,TO_PREFLIGHT,1.19,80,78.81,3.58,-0.01,-0.37,-0.09,90.1,0.086,1,0,0,0,0,0,0,0,0,0,0,0,0,0,0,90.4,0,1,0,-0.32,0,0,0,90,0,0,0,0,0,0,0,0,0,0,0,3,0,0,0,69,0,0,0,90.4,1,0,-0.154,0,0,1,0,0,0,0,0,0,0,2,2,0,0,VALID,0,0,0,0,0,1,0,0,0,0,0,0,0,0,0,0,0,0,0,0,658.69,877.68,2,0,0.06,0.06,122,15.38,0.08,0.04,9.56,LANDED,X10-F,0:/Integrated Flight Computer/aircraft/x10_f_cfg.ks (inferred preloaded)
9.96,TAKEOFF,TO_PREFLIGHT,1.21,80,78.79,3.58,-0.01,-0.37,-0.09,90.09,0.086,1,0,0,0,0,0,0,0,0,0,0,0,0,0,0,90.4,0,1,0,-0.29,0,0,0,90,0,0,0,0,0,0,0,0,0,0,0,3,0,0,0,69,0,0,0,90.4,1,0,-0.154,0,0,1,0,0,0,0,0,0,0,2,2,0,0,VALID,0,0,0,0,0,1,0,0,0,0,0,0,0,0,0,0,0,0,0,0,669.8,877.68,2,0,0.06,0.06,126,15.38,0.08,0.04,9.82,LANDED,X10-F,0:/Integrated Flight Computer/aircraft/x10_f_cfg.ks (inferred preloaded)
10.22,TAKEOFF,TO_PREFLIGHT,1.23,80,78.77,3.58,-0.01,-0.37,-0.12,90.07,0.086,1,0,0,0,0,0,0,0,0,0,0,0,0,0,0,90.4,0,1,0,-0.28,0,0,0,90,0,0,0,0,0,0,0,0,0,0,0,3,0,0,0,69,0,0,0,90.4,1,0,-0.154,0,0,1,0,0,0,0,0,0,0,2,2,0,0,VALID,0,0,0,0,0,1,0,0,0,0,0,0,0,0,0,0,0,0,0,0,680.36,877.68,2,0,0.06,0.06,130,15.38,0.08,0.04,10.08,LANDED,X10-F,0:/Integrated Flight Computer/aircraft/x10_f_cfg.ks (inferred preloaded)
10.48,TAKEOFF,TO_GROUND_ROLL,1.25,80,78.75,3.58,-0.01,-0.37,-0.09,90.06,0.086,1,0,0,0,0,0,0,0,0,0,0,0,0,0,0,90.95,0,1,0,-0.3,0,0,0,90,0,0,0,0,0,0,0,0,-0.001,0,0,3,0,0,0,69,0,0,0,90.95,1,-0.001,-0.886,0.0624,0.563,0,0.0624,0,0,0,0,0,0,2,2,0,0,VALID,0,0,0,0,0,1,0,0,0,0,0,0,0,0,0,0,0,0,0,0,690.38,877.68,2,0,0.06,0.06,134,15.38,0.08,0.04,10.36,LANDED,X10-F,0:/Integrated Flight Computer/aircraft/x10_f_cfg.ks (inferred preloaded)
10.76,TAKEOFF,TO_GROUND_ROLL,2.2,80,77.8,3.67,-0.13,-0.03,2.42,90.07,0.078,1,0,0,0,0,0,0,0,0,0,0,0,0,0,0,90.39,0,1,0,-3.4,0,0,0,90,0,0,0,0,0,0,0,0,-0.001,0,0,3,0,0,0,69,0,0,0,90.39,1,-0.001,-0.32,0.008,0.572,0,0.008,0,0,0,0,0,0,2,2,0,0,VALID,0,0,0,0,0,1,0,0,0,0,0,0,0,0,0,0,0,0,0,0,700.58,877.66,2,0,0.06,0.06,138,14.29,0.08,0.06,10.64,LANDED,X10-F,0:/Integrated Flight Computer/aircraft/x10_f_cfg.ks (inferred preloaded)
11.04,TAKEOFF,TO_GROUND_ROLL,4.05,80,75.95,3.82,0.19,0.5,-1.35,90.09,0.066,1,0,0,0,0,0,0,0,0,0,0,0,0,0,0,90.39,0,1,0,2.72,0,0,0,90,0,0,0,0,0,0,0,0,-0.001,0,0,3,0,0,0,69,0,0,0,90.39,1,-0.001,-0.297,0.0074,0.59,0,0.0074,0,0,0,0,0,0,2,2,0,0,VALID,0,0,0,0,0,1,0,0,0,0,0,0,0,0,0,0,0,0,0,0,710.2,877.6,2,0,0.06,0.06,142,14.29,0.08,0.06,10.92,LANDED,X10-F,0:/Integrated Flight Computer/aircraft/x10_f_cfg.ks (inferred preloaded)
11.32,TAKEOFF,TO_GROUND_ROLL,5.98,80,74.02,4.08,-0.15,1.28,2.19,90.11,0.079,1,0,0,0,0,0,0,0,0,0,0,0,0,0,0,90.38,0,1,0,-1.45,0,0,0,90,0,0,0,0,0,0,0,0,-0.001,0,0,3,0,0,0,69,0,0,0,90.38,1,-0.001,-0.273,0.0067,0.61,0,0.0067,0,0,0,0,0,0,2,2,0,0,VALID,0,0,0,0,0,1,0,0,0,0,0,0,0,0,0,0,0,0,0,0,719.25,877.49,2,0,0.06,0.06,146,14.29,0.08,0.06,11.2,LANDED,X10-F,0:/Integrated Flight Computer/aircraft/x10_f_cfg.ks (inferred preloaded)
11.6,TAKEOFF,TO_GROUND_ROLL,7.94,80,72.06,4.31,-0.04,2.16,2.51,90.13,0.068,1,0,0,0,0,0,0,0,0,0,0,0,0,0,0,90.38,0,1,0,-0.3,0,0,0,90,0,0,0,0,0,0,0,0,-0.002,0,0,3,0,0,0,69,0,0,0,90.38,1,-0.002,-0.251,0.0064,0.629,0,0.0064,0,0,0,0,0,0,2,2,0,0,VALID,0,0,0,0,0,1,0,0,0,0,0,0,0,0,0,0,0,0,0,0,727.77,877.35,2,0,0.06,0.06,150,14.29,0.08,0.06,11.48,LANDED,X10-F,0:/Integrated Flight Computer/aircraft/x10_f_cfg.ks (inferred preloaded)
11.88,TAKEOFF,TO_GROUND_ROLL,9.92,80,70.08,4.59,-0.08,3.09,3.34,90.16,0.062,1,0,0,0,0,0,0,0,0,0,0,0,0,0,0,90.38,0,1,0,-0.45,0,0,0,90,0,0,0,0,0,0,0,0,-0.002,0,0,3,0,0,0,69,0,0,0,90.38,1,-0.002,-0.224,0.0056,0.649,0,0.0056,0,0,0,0,0,0,2,2,0,0,VALID,0,0,0,0,0,1,0,0,0,0,0,0,0,0,0,0,0,0,0,0,735.79,877.18,2,0,0.06,0.06,154,14.29,0.08,0.06,11.76,LANDED,X10-F,0:/Integrated Flight Computer/aircraft/x10_f_cfg.ks (inferred preloaded)
12.16,TAKEOFF,TO_GROUND_ROLL,11.92,80,68.08,4.81,-0.11,3.89,4.36,90.19,0.057,1,0,0,0,0,0,0,0,0,0,0,0,0,0,0,90.38,0,1,0,-0.53,0,0,0,90,0,0,0,0,0,0,0,0,-0.002,0,0,3,0,0,0,69,0,0,0,90.38,1,-0.002,-0.193,0.0045,0.669,0,0.0045,0,0,0,0,0,0,2,2,0,0,VALID,0,0,0,0,0,1,0,0,0,0,0,0,0,0,0,0,0,0,0,0,743.33,876.97,2,0,0.06,0.06,158,14.29,0.08,0.06,12.04,LANDED,X10-F,0:/Integrated Flight Computer/aircraft/x10_f_cfg.ks (inferred preloaded)
12.44,TAKEOFF,TO_GROUND_ROLL,13.93,80,66.07,4.98,-0.08,4.49,4.74,90.22,0.052,1,0,0,0,0,0,0,0,0,0,0,0,0,0,0,90.38,0,1,0,-0.32,0,0,0,90,0,0,0,0,0,0,0,0,-0.003,0,0,3,0,0,0,69,0,0,0,90.38,1,-0.003,-0.159,0.0034,0.689,0,0.0034,0,0,0,0,0,0,2,2,0,0,VALID,0,0,0,0,0,1,0,0,0,0,0,0,0,0,0,0,0,0,0,0,750.42,876.73,2,0,0.06,0.06,162,14.29,0.08,0.06,12.32,LANDED,X10-F,0:/Integrated Flight Computer/aircraft/x10_f_cfg.ks (inferred preloaded)
12.72,TAKEOFF,TO_GROUND_ROLL,15.96,80,64.04,5.07,-0.11,4.81,5.18,90.25,0.051,1,0,0,0,0,0,0,0,0,0,0,0,0,0,0,90.37,0,1,0,-0.41,0,0,0,90,0,0,0,0,0,0,0,0,-0.003,0,0,3,0,0,0,69,0,0,0,90.37,1,-0.003,-0.121,0.0021,0.71,0,0.0021,0,0,0,0,0,0,2,2,0,0,VALID,0,0,0,0,0,1,0,0,0,0,0,0,0,0,0,0,0,0,0,0,757.08,876.46,2,0,0.06,0.06,166,14.29,0.08,0.06,12.6,LANDED,X10-F,0:/Integrated Flight Computer/aircraft/x10_f_cfg.ks (inferred preloaded)
13,TAKEOFF,TO_GROUND_ROLL,18.01,80,61.99,5.07,-0.09,4.8,5.07,90.29,0.048,1,0,0,0,0,0,0,0,0,0,0,0,0,0,0,90.37,0,1,0,-0.28,0,0,0,90,0,0,0,0,0,0,0,0,-0.004,0,0,3,0,0,0,69,0,0,0,90.37,1,-0.004,-0.082,0.0006,0.73,0,0.0006,0,0,0,0,0,0,2,2,0,0,VALID,0,0,0,0,0,1,0,0,0,0,0,0,0,0,0,0,0,0,0,0,763.34,876.16,2,0,0.06,0.06,170,14.29,0.08,0.06,12.88,LANDED,X10-F,0:/Integrated Flight Computer/aircraft/x10_f_cfg.ks (inferred preloaded)
13.28,TAKEOFF,TO_GROUND_ROLL,20.08,80,59.92,4.98,-0.11,4.48,4.8,90.33,0.05,1,0,0,0,0,0,0,0,0,0,0,0,0,0,0,90.37,0,1,0,-0.31,0,0,0,90,0,0,0,0,0,0,0,0,-0.006,0,0,3,0,0,0,69,0,0,0,90.37,1,-0.006,-0.04,-0.0009,0.751,0,-0.0009,0,0,0,0,0,0,2,2,0,0,VALID,0,0,0,0,0,1,0,0,0,0,0,0,0,0,0,0,0,0,0,0,769.21,875.84,2,0,0.06,0.06,174,14.29,0.08,0.06,13.16,LANDED,X10-F,0:/Integrated Flight Computer/aircraft/x10_f_cfg.ks (inferred preloaded)
13.56,TAKEOFF,TO_GROUND_ROLL,22.16,80,57.84,4.81,-0.1,3.9,4.2,90.37,0.05,1,0,0,0,0,0,0,0,0,0,0,0,0,0,0,90.37,0,1,0,-0.26,0,0,0,90,0,0,0,0,0,0,0,0,-0.007,0,0,3,0,0,0,69,0,0,0,90.37,1,-0.007,0.005,-0.0023,0.772,0,-0.0023,0,0,0,0,0,0,2,2,0,0,VALID,0,0,0,0,0,1,0,0,0,0,0,0,0,0,0,0,0,0,0,0,774.73,875.49,2,0,0.06,0.06,178,14.29,0.08,0.06,13.44,LANDED,X10-F,0:/Integrated Flight Computer/aircraft/x10_f_cfg.ks (inferred preloaded)
13.84,TAKEOFF,TO_GROUND_ROLL,24.26,80,55.74,4.6,-0.12,3.14,3.46,90.41,0.053,1,0,0,0,0,0,0,0,0,0,0,0,0,0,0,90.36,0,1,0,-0.28,0,0,0,90,0,0,0,0,0,0,0,0,-0.009,0,0,3,0,0,0,69,0,0,0,90.36,1,-0.009,0.052,-0.0044,0.793,0,-0.0044,0,0,0,0,0,0,2,2,0,0,VALID,0,0,0,0,0,1,0,0,0,0,0,0,0,0,0,0,0,0,0,0,779.9,875.13,2,0,0.06,0.06,182,14.29,0.08,0.06,13.72,LANDED,X10-F,0:/Integrated Flight Computer/aircraft/x10_f_cfg.ks (inferred preloaded)
14.12,TAKEOFF,TO_GROUND_ROLL,26.38,80,53.62,4.36,-0.13,2.31,2.63,90.46,0.057,1,0,0,0,0,0,0,0,0,0,0,0,0,0,0,90.36,0,1,0,-0.28,0,0,0.01,90,0,0,0,0,0,0,0,0,-0.012,0,0,3,0,0,0,69,0,0,0,90.36,1,-0.012,0.102,-0.007,0.814,0,-0.007,0,0,0,0,0,0,2,2,0,0,VALID,0,0,0,0,0,1,0,0,0,0,0,0,0,0,0,0,0,0,0,0,784.76,874.74,2,0,0.06,0.06,186,14.29,0.08,0.06,14,LANDED,X10-F,0:/Integrated Flight Computer/aircraft/x10_f_cfg.ks (inferred preloaded)
14.4,TAKEOFF,TO_GROUND_ROLL,28.51,80,51.49,4.13,-0.15,1.51,1.84,90.51,0.06,1,0,0,0,0,0,0,0,0,0,0,0,0,0,0,90.35,0,1,0,-0.29,0,0,0.01,90,0,0,0,0,0,0,0,0,-0.015,0,0,3,0,0,0,69,0,0,0,90.35,1,-0.015,0.152,-0.0092,0.835,0,-0.0092,0,0,0,0,0,0,2,2,0,0,VALID,0,0,0,0,0,1,0,0,0,0,0,0,0,0,0,0,0,0,0,0,789.32,874.35,2,0,0.06,0.06,190,14.29,0.08,0.06,14.28,LANDED,X10-F,0:/Integrated Flight Computer/aircraft/x10_f_cfg.ks (inferred preloaded)
14.68,TAKEOFF,TO_GROUND_ROLL,30.65,80,49.35,3.94,-0.16,0.85,1.18,90.55,0.064,1,0,0,0,0,0,0,0,0,0,0,0,0,0,0,90.35,0,1,0,-0.3,0,0,0.01,90,0,0,0,0,0,0,0,0,-0.019,0,0,3,0,0,0,69,0,0,0,90.35,1,-0.019,0.201,-0.0113,0.857,0,-0.0113,0,0,0,0,0,0,2,2,0,0,VALID,0,0,0,0,0,1,0,0,0,0,0,0,0,0,0,0,0,0,0,0,793.59,873.94,2,0,0.06,0.06,194,14.29,0.08,0.06,14.56,LANDED,X10-F,0:/Integrated Flight Computer/aircraft/x10_f_cfg.ks (inferred preloaded)
14.96,TAKEOFF,TO_GROUND_ROLL,32.81,80,47.19,3.82,-0.18,0.41,0.73,90.6,0.064,1,0,0,0,0,0,0,0,0,0,0,0,0,0,0,90.35,0,1,0,-0.31,0,0,0.01,90,0,0,0,0,0,0,0,0,-0.024,0,0,3,0,0,0,69,0,0,0,90.35,1,-0.024,0.247,-0.0132,0.878,0,-0.0132,0,0,0,0,0,0,2,2,0,0,VALID,0,0,0,0,0,1,0,0,0,0,0,0,0,0,0,0,0,0,0,0,797.6,873.53,2,0,0.06,0.06,198,14.29,0.08,0.06,14.84,LANDED,X10-F,0:/Integrated Flight Computer/aircraft/x10_f_cfg.ks (inferred preloaded)
15.24,TAKEOFF,TO_GROUND_ROLL,34.98,80,45.02,3.77,-0.19,0.24,0.54,90.63,0.068,1,0,0,0,0,0,0,0,0,0,0,0,0,0,0,90.35,0,1,0,-0.32,0,0,0.01,90,0,0,0,0,0,0,0,0,-0.029,0,0,3,0,0,0,69,0,0,0,90.35,1,-0.029,0.28,-0.0141,0.9,0,-0.0141,0,0,0,0,0,0,2,2,0,0,VALID,0,0,0,0,0,1,0,0,0,0,0,0,0,0,0,0,0,0,0,0,801.36,873.12,2,0,0.06,0.06,202,14.29,0.08,0.06,15.12,LANDED,X10-F,0:/Integrated Flight Computer/aircraft/x10_f_cfg.ks (inferred preloaded)
15.52,TAKEOFF,TO_GROUND_ROLL,37.15,80,42.85,3.8,-0.21,0.35,0.63,90.65,0.075,1,0,0,0,0,0,0,0,0,0,0,0,0,0,0,90.36,0,1,0,-0.32,0,0,0.01,90,0,0,0,0,0,0,0,0,-0.035,0,0,3,0,0,0,69,0,0,0,90.36,1,-0.035,0.295,-0.0139,0.922,0,-0.0139,0,0,0,0,0,0,2,2,0,0,VALID,0,0,0,0,0,1,0,0,0,0,0,0,0,0,0,0,0,0,0,0,804.9,872.7,2,0,0.06,0.06,206,14.29,0.08,0.06,15.4,LANDED,X10-F,0:/Integrated Flight Computer/aircraft/x10_f_cfg.ks (inferred preloaded)
15.8,TAKEOFF,TO_GROUND_ROLL,39.34,80,40.66,3.9,-0.22,0.71,0.98,90.66,0.077,1,0,0,0,0,0,0,0,0,0,0,0,0,0,0,90.36,0,1,0,-0.32,0,0,0.01,90,0,0,0,0,0,0,0,0,-0.041,0,0,3,0,0,0,69,0,0,0,90.36,1,-0.041,0.296,-0.0131,0.943,0,-0.0131,0,0,0,0,0,0,2,2,0,0,VALID,0,0,0,0,0,1,0,0,0,0,0,0,0,0,0,0,0,0,0,0,808.22,872.29,2,0,0.06,0.06,210,14.29,0.08,0.06,15.68,LANDED,X10-F,0:/Integrated Flight Computer/aircraft/x10_f_cfg.ks (inferred preloaded)
16.08,TAKEOFF,TO_GROUND_ROLL,41.53,80,38.47,4.06,-0.24,1.26,1.52,90.65,0.078,1,0,0,0,0,0,0,0,0,0,0,0,0,0,0,90.36,0,1,0,-0.33,0,0,0.01,90,0,0,0,0,0,0,0,0,-0.048,0,0,3,0,0,0,69,0,0,0,90.36,1,-0.048,0.284,-0.0118,0.965,0,-0.0118,0,0,0,0,0,0,2,2,0,0,VALID,0,0,0,0,0,1,0,0,0,0,0,0,0,0,0,0,0,0,0,0,811.34,871.89,2,0,0.06,0.06,214,14.29,0.08,0.06,15.96,LANDED,X10-F,0:/Integrated Flight Computer/aircraft/x10_f_cfg.ks (inferred preloaded)
16.36,TAKEOFF,TO_GROUND_ROLL,43.73,80,36.27,4.25,-0.25,1.92,2.18,90.62,0.078,1,0,0,0,0,0,0,0,0,0,0,0,0,0,0,90.36,0,1,0,-0.33,0,0,0.01,90,0,0,0,0,0,0,0,0,-0.055,0,0,3,0,0,0,69,0,0,0,90.36,1,-0.055,0.257,-0.0096,0.987,0,-0.0096,0,0,0,0,0,0,2,2,0,0,VALID,0,0,0,0,0,1,0,0,0,0,0,0,0,0,0,0,0,0,0,0,814.28,871.5,2,0,0.06,0.06,218,14.29,0.08,0.06,16.24,LANDED,X10-F,0:/Integrated Flight Computer/aircraft/x10_f_cfg.ks (inferred preloaded)
16.64,TAKEOFF,TO_GROUND_ROLL,45.94,80,34.06,4.44,-0.26,2.59,2.85,90.58,0.079,1,0,0,0,0,0,0,0,0,0,0,0,0,0,0,90.37,0,1,0,-0.33,0,0,0.01,90,0,0,0,0,0,0,0,0,-0.062,0,0,3,0,0,0,69,0,0,0,90.37,1,-0.062,0.214,-0.0064,1,0,-0.0064,0,0,0,0,0,0,2,2,0,0,VALID,0,0,0,0,0,1,0,0,0,0,0,0,0,0,0,0,0,0,0,0,817.05,871.12,2,0,0.06,0.06,222,14.29,0.08,0.06,16.52,LANDED,X10-F,0:/Integrated Flight Computer/aircraft/x10_f_cfg.ks (inferred preloaded)
16.92,TAKEOFF,TO_GROUND_ROLL,48.14,80,31.86,4.61,-0.27,3.18,3.45,90.52,0.082,1,0,0,0,0,0,0,0,0,0,0,0,0,0,0,90.37,0,1,0,-0.32,0,0,0.02,90,0,0,0,0,0,0,0,0,-0.069,0,0,3,0,0,0,69,0,0,0,90.37,1,-0.069,0.151,-0.0019,1,0,-0.0019,0,0,0,0,0,0,2,2,0,0,VALID,0,0,0,0,0,1,0,0,0,0,0,0,0,0,0,0,0,0,0,0,819.66,870.76,2,0,0.06,0.06,226,14.29,0.08,0.06,16.8,LANDED,X10-F,0:/Integrated Flight Computer/aircraft/x10_f_cfg.ks (inferred preloaded)
17.2,TAKEOFF,TO_GROUND_ROLL,50.36,80,29.64,4.73,-0.28,3.6,3.88,90.45,0.086,1,0,0,0,0,0,0,0,0,0,0,0,0,0,0,90.38,0,1,0,-0.32,0,0,0.02,90,0,0,0,0,0,0,0,0,-0.075,0,0,3,0,0,0,69,0,0,0,90.38,1,-0.075,0.068,0.0034,1,0,0.0034,0,0,0,0,0,0,2,2,0,0,VALID,0,0,0,0,0,1,0,0,0,0,0,0,0,0,0,0,0,0,0,0,822.14,870.43,2,0,0.06,0.06,230,14.29,0.08,0.06,17.08,LANDED,X10-F,0:/Integrated Flight Computer/aircraft/x10_f_cfg.ks (inferred preloaded)
17.48,TAKEOFF,TO_GROUND_ROLL,52.57,80,27.43,4.79,-0.28,3.8,4.08,90.35,0.094,1,0,0,0,0,0,0,0,0,0,0,0,0,0,0,90.39,0,1,0,-0.31,0,0,0.02,90,0,0,0,0,0,0,0,0,-0.081,0,0,3,0,0,0,69,0,0,0,90.39,1,-0.081,-0.038,0.0091,1,0,0.0091,0,0,0,0,0,0,2,2,0,0,VALID,0,0,0,0,0,1,0,0,0,0,0,0,0,0,0,0,0,0,0,0,824.48,870.13,2,0,0.06,0.06,234,14.29,0.08,0.06,17.36,LANDED,X10-F,0:/Integrated Flight Computer/aircraft/x10_f_cfg.ks (inferred preloaded)
17.76,TAKEOFF,TO_GROUND_ROLL,54.79,80,25.21,4.77,-0.28,3.75,4.04,90.23,0.104,1,0,0,0,0,0,0,0,0,0,0,0,0,0,0,90.4,0,1,0,-0.3,0,0,0.02,90,0,0,0,0,0,0,0,0,-0.086,0,0,3,0,0,0,69,0,0,0,90.4,1,-0.086,-0.169,0.0185,1,0,0.0185,0,0,0,0,0,0,2,2,0,0,VALID,0,0,0,0,0,1,0,0,0,0,0,0,0,0,0,0,0,0,0,0,826.71,869.85,2,0,0.06,0.06,238,14.29,0.08,0.06,17.64,LANDED,X10-F,0:/Integrated Flight Computer/aircraft/x10_f_cfg.ks (inferred preloaded)
18.04,TAKEOFF,TO_GROUND_ROLL,57.02,80,22.98,4.69,-0.29,3.46,3.76,90.08,0.123,1,0,0,0,0,0,0,0,0,0,0,0,0,0,0,90.41,0,1,0,-0.29,0,0,0.02,90,0,0,0,0,0,0,0,0,-0.089,0,0,3,0,0,0,69,0,0,0,90.41,1,-0.089,-0.326,0.0278,1,0,0.0278,0,0,0,0,0,0,2,2,0,0,VALID,0,0,0,0,0,1,0,0,0,0,0,0,0,0,0,0,0,0,0,0,828.83,869.61,2,0,0.06,0.06,242,14.29,0.08,0.06,17.92,LANDED,X10-F,0:/Integrated Flight Computer/aircraft/x10_f_cfg.ks (inferred preloaded)
18.32,TAKEOFF,TO_GROUND_ROLL,59.25,80,20.75,4.55,-0.3,2.99,3.3,89.92,0.149,1,0,0,0,0,0,0,0,0,0,0,0,0,0,0,90.42,0,1,0,-0.29,0,0,0.02,90,0,0,0,0,0,0,0,0,-0.09,0,0,3,0,0,0,69,0,0,0,90.42,1,-0.09,-0.5,0.0374,1,0,0.0374,0,0,0,0,0,0,2,2,0,0,VALID,0,0,0,0,0,1,0,0,0,0,0,0,0,0,0,0,0,0,0,0,830.86,869.4,2,0,0.06,0.06,246,14.29,0.08,0.06,18.2,LANDED,X10-F,0:/Integrated Flight Computer/aircraft/x10_f_cfg.ks (inferred preloaded)
18.6,TAKEOFF,TO_GROUND_ROLL,61.49,80,18.51,4.38,-0.3,2.39,2.7,89.75,0.152,1,0,0,0,0,0,0,0,0,0,0,0,0,0,0,90.42,0,1,0,-0.28,0,0,0.03,90,0,0,0,0,0,0,0,0,-0.088,0,0,3,0,0,0,69,0,0,0,90.42,1,-0.088,-0.671,0.0454,1,0,0.0454,0,0,0,0,0,0,2,2,0,0,VALID,0,0,0,0,0,1,0,0,0,0,0,0,0,0,0,0,0,0,0,0,832.81,869.24,2,0,0.06,0.06,250,14.29,0.08,0.06,18.48,LANDED,X10-F,0:/Integrated Flight Computer/aircraft/x10_f_cfg.ks (inferred preloaded)
18.88,TAKEOFF,TO_GROUND_ROLL,63.74,80,16.26,4.2,-0.32,1.76,2.08,89.59,0.141,1,0,0,0,0,0,0,0,0,0,0,0,0,0,0,90.41,0,1,0,-0.28,0,0,0.03,90,0,0,0,0,0,0,0,0,-0.083,0,0,3,0,0,0,69,0,0,0,90.41,1,-0.083,-0.823,0.0512,1,0,0.0512,0,0,0,0,0,0,2,2,0,0,VALID,0,0,0,0,0,1,0,0,0,0,0,0,0,0,0,0,0,0,0,0,834.68,869.12,2,0,0.06,0.06,254,14.29,0.08,0.06,18.76,LANDED,X10-F,0:/Integrated Flight Computer/aircraft/x10_f_cfg.ks (inferred preloaded)
19.16,TAKEOFF,TO_GROUND_ROLL,66,80,14,4.04,-0.33,1.19,1.49,89.46,0.135,1,0,0,0,0,0,0,0,0,0,0,0,0,0,0,90.4,0,1,0,-0.28,0,0,0.03,90,0,0,0,0,0,0,0,0,-0.075,0,0,3,0,0,0,69,0,0,0,90.4,1,-0.075,-0.949,0.055,1,0,0.055,0,0,0,0,0,0,2,2,0,0,VALID,0,0,0,0,0,1,0,0,0,0,0,0,0,0,0,0,0,0,0,0,836.49,869.06,2,0,0.06,0.06,258,14.29,0.08,0.06,19.04,LANDED,X10-F,0:/Integrated Flight Computer/aircraft/x10_f_cfg.ks (inferred preloaded)
19.44,TAKEOFF,TO_GROUND_ROLL,68.26,80,11.74,3.91,-0.34,0.74,1.03,89.35,0.123,1,0,0,0,0,0,0,0,0,0,0,0,0,0,0,90.39,0,1,0,-0.28,0,0,0.03,90,0,0,0,0,0,0,0,0,-0.065,0,0,3,0,0,0,69,0,0,0,90.39,1,-0.065,-1.043,0.0569,1,0,0.0569,0,0,0,0,0,0,2,2,0,0,VALID,0,0,0,0,0,1,0,0,0,0,0,0,0,0,0,0,0,0,0,0,838.25,869.05,2,0,0.06,0.06,262,14.29,0.08,0.06,19.32,LANDED,X10-F,0:/Integrated Flight Computer/aircraft/x10_f_cfg.ks (inferred preloaded)
19.72,TAKEOFF,TO_GROUND_ROLL,70.53,80,9.47,3.83,-0.35,0.47,0.75,89.28,0.105,1,0,0,0,0,0,0,0,0,0,0,0,0,0,0,90.38,0,1,0,-0.28,0,0,0.03,90,0,0,0,0,0,0,0,0,-0.052,0,0,3,0,0,0,69,0,0,0,90.38,1,-0.052,-1.101,0.0567,1,0,0.0567,0,0,0,0,0,0,2,2,0,0,VALID,0,0,0,0,0,1,0,0,0,0,0,0,0,0,0,0,0,0,0,0,840.37,869.56,2,0,0.06,0.06,266,14.29,0.08,0.06,19.6,LANDED,X10-F,0:/Integrated Flight Computer/aircraft/x10_f_cfg.ks (inferred preloaded)
20,TAKEOFF,TO_GROUND_ROLL,72.81,80,7.19,3.81,-0.36,0.4,0.67,89.25,0.084,1,0,0,0,0,0,0,0,0,0,0,0,0,0,0,90.37,0,1,0,-0.28,0,0,0.03,90,0,0,0,0,0,0,0,0,-0.038,0,0,3,0,0,0,69,0,0,0,90.37,1,-0.038,-1.123,0.0547,1,0,0.0547,0,0,0,0,0,0,2,2,0,0,VALID,0,0,0,0,0,1,0,0,0,0,0,0,0,0,0,0,0,0,0,0,843.16,870.86,2,0,0.06,0.06,270,14.29,0.08,0.06,19.88,LANDED,X10-F,0:/Integrated Flight Computer/aircraft/x10_f_cfg.ks (inferred preloaded)
20.28,TAKEOFF,TO_GROUND_ROLL,75.09,80,4.91,3.85,-0.37,0.54,0.79,89.25,0.064,1,0,0,0,0,0,0,0,0,0,0,0,0,0,0,90.36,0,1,0,-0.28,0,0,0.04,90,0,0,0,0,0,0,0,0,-0.024,0,0,3,0,0,0,69,0,0,0,90.36,1,-0.024,-1.111,0.0513,1,0,0.0513,0,0,0,0,0,0,2,2,0,0,VALID,0,0,0,0,0,1,0,0,0,0,0,0,0,0,0,0,0,0,0,0,846.61,872.91,2,0,0.06,0.06,274,14.29,0.08,0.06,20.16,LANDED,X10-F,0:/Integrated Flight Computer/aircraft/x10_f_cfg.ks (inferred preloaded)
20.56,TAKEOFF,TO_GROUND_ROLL,77.39,80,2.61,3.94,-0.38,0.85,1.09,89.29,0.047,1,0,0,0,0,0,0,0,0,0,0,0,0,0,0,90.36,0,1,0,-0.28,0,0,0.04,90,0,0,0,0,0,0,0,0,-0.009,0,0,3,0,0,0,69,0,0,0,90.36,1,-0.009,-1.073,0.0473,1,0,0.0473,0,0,0,0,0,0,2,2,0,0,VALID,0,0,0,0,0,1,0,0,0,0,0,0,0,0,0,0,0,0,0,0,850.68,875.68,2,0,0.06,0.06,278,14.29,0.08,0.06,20.44,LANDED,X10-F,0:/Integrated Flight Computer/aircraft/x10_f_cfg.ks (inferred preloaded)
20.84,TAKEOFF,TO_GROUND_ROLL,79.69,80,0.31,4.06,-0.39,1.26,1.49,89.35,0.03,1,0,0,0,0,0,0,0,0,0,0,0,0,0,0,90.36,0,1,0,-0.28,0,0,0.04,90,0,0,0,0,0,0,0,0,0.006,0,0,3,0,0,0,69,0,0,0,90.36,1,0.006,-1.011,0.0424,1,0,0.0424,0,0,0,0,0,0,2,2,0,0,VALID,0,0,0,0,0,1,0,0,0,0,0,0,0,0,0,0,0,0,0,0,855.36,879.15,2,0,0.06,0.06,282,14.29,0.08,0.06,20.72,LANDED,X10-F,0:/Integrated Flight Computer/aircraft/x10_f_cfg.ks (inferred preloaded)
21.12,TAKEOFF,TO_GROUND_ROLL,82,80,-2,4.19,-0.4,1.71,1.94,89.43,0.019,1,0,0,0,0,0,0,0,0,0,0,0,0,0,0,90.36,0,1,0,-0.28,0,0,0.04,90,0,0,0,0,0,0,0,0,0.019,0,0,3,0,0,0,69,0,0,0,90.36,1,0.019,-0.926,0.0366,1,0,0.0366,0,0,0,0,0,0,2,2,0,0,VALID,0,0,0,0,0,1,0,0,0,0,0,0,0,0,0,0,0,0,0,0,860.61,883.27,2,0,0.06,0.06,286,14.29,0.08,0.06,21,LANDED,X10-F,0:/Integrated Flight Computer/aircraft/x10_f_cfg.ks (inferred preloaded)
21.4,TAKEOFF,TO_GROUND_ROLL,84.32,80,-4.32,4.31,-0.4,2.12,2.36,89.54,-0.001,1,0,0,0,0,0,0,0,0,0,0,0,0,0,0,90.36,0,1,0,-0.27,0,0,0.05,90,0,0,0,0,0,0,0,0,0.031,0,0,3,0,0,0,69,0,0,0,90.36,1,0.031,-0.814,0.0292,1,0,0.0292,0,0,0,0,0,0,2,2,0,0,VALID,0,0,0,0,0,1,0,0,0,0,0,0,0,0,0,0,0,0,0,0,866.42,888.02,2,0,0.06,0.06,290,14.29,0.08,0.06,21.28,LANDED,X10-F,0:/Integrated Flight Computer/aircraft/x10_f_cfg.ks (inferred preloaded)
21.68,TAKEOFF,TO_GROUND_ROLL,86.65,80,-6.65,4.41,-0.33,2.45,2.62,89.67,-0.024,1,0,0,0,0,0,0,0,0,0,0,0,0,0,0,90.36,0,1,0,-0.22,0,0,0.05,90,0,0,0,0,0,0,0,0,0.041,0,0,3,0,0,0,69,0,0,0,90.36,1,0.041,-0.689,0.0224,1,0,0.0224,0,0,0,0,0,0,2,2,0,0,VALID,0,0,0,0,0,1,0,0,0,0,0,0,0,0,0,0,0,0,0,0,872.76,893.36,2,0,0.06,0.06,294,14.29,0.08,0.06,21.56,LANDED,X10-F,0:/Integrated Flight Computer/aircraft/x10_f_cfg.ks (inferred preloaded)
21.96,TAKEOFF,TO_GROUND_ROLL,89,80,-9,4.44,-0.49,2.61,2.91,89.79,0.018,1,0,0,0,0,0,0,0,0,0,0,0,0,0,0,90.38,0,1,0,-0.31,0,0,0.05,90,0,0,0,0,0,0,0,0,0.047,0,0,3,0,0,0,69,0,0,0,90.38,1,0.047,-0.589,0.0192,1,0,0.0192,0,0,0,0,0,0,2,2,0,0,VALID,0,0,0,0,0,1,0,0,0,0,0,0,0,0,0,0,0,0,0,0,879.61,899.27,2,0,0.06,0.06,298,14.29,0.08,0.06,21.84,LANDED,X10-F,0:/Integrated Flight Computer/aircraft/x10_f_cfg.ks (inferred preloaded)
22.24,TAKEOFF,TO_GROUND_ROLL,91.36,80,-11.36,4.45,-0.37,2.6,2.82,89.88,0.027,1,0,0,0,0,0,0,0,0,0,0,0,0,0,0,90.4,0,1,0,-0.23,0,0,0.05,90,0,0,0,0,0,0,0,0,0.051,0,0,3,0,0,0,69,0,0,0,90.4,1,0.051,-0.522,0.0184,1,0,0.0184,0,0,0,0,0,0,2,2,0,0,VALID,0,0,0,0,0,1,0,0,0,0,0,0,0,0,0,0,0,0,0,0,886.95,905.72,2,0,0.06,0.06,302,14.29,0.08,0.06,22.12,LANDED,X10-F,0:/Integrated Flight Computer/aircraft/x10_f_cfg.ks (inferred preloaded)
22.52,TAKEOFF,TO_GROUND_ROLL,93.74,80,-13.74,4.4,-0.46,2.43,2.71,89.94,0.035,1,0,0,0,0,0,0,0,0,0,0,0,0,0,0,90.42,0,1,0,-0.28,0,0,0.06,90,0,0,0,0,0,0,0,0,0.054,0,0,3,0,0,0,69,0,0,0,90.42,1,0.054,-0.48,0.0187,1,0,0.0187,0,0,0,0,0,0,2,2,0,0,VALID,0,0,0,0,0,1,0,0,0,0,0,0,0,0,0,0,0,0,0,0,894.74,912.69,2,0,0.06,0.06,306,14.29,0.08,0.06,22.4,LANDED,X10-F,0:/Integrated Flight Computer/aircraft/x10_f_cfg.ks (inferred preloaded)
22.8,TAKEOFF,TO_GROUND_ROLL,96.15,80,-16.15,4.3,-0.41,2.1,2.36,89.98,0.044,1,0,0,0,0,0,0,0,0,0,0,0,0,0,0,90.44,0,1,0,-0.24,0,0,0.06,90,0,0,0,0,0,0,0,0,0.055,0,0,3,0,0,0,69,0,0,0,90.44,1,0.055,-0.463,0.0199,1,0,0.0199,0,0,0,0,0,0,2,2,0,0,VALID,0,0,0,0,0,1,0,0,0,0,0,0,0,0,0,0,0,0,0,0,902.99,920.16,2,0,0.06,0.06,310,14.29,0.08,0.06,22.68,LANDED,X10-F,0:/Integrated Flight Computer/aircraft/x10_f_cfg.ks (inferred preloaded)
23.08,TAKEOFF,TO_GROUND_ROLL,98.58,80,-18.58,4.18,-0.45,1.69,1.97,89.99,0.065,1,0,0,0,0,0,0,0,0,0,0,0,0,0,0,90.45,0,1,0,-0.26,0,0,0.06,90,0,0,0,0,0,0,0,0,0.056,0,0,3,0,0,0,69,0,0,0,90.45,1,0.056,-0.465,0.0218,1,0,0.0218,0,0,0,0,0,0,2,2,0,0,VALID,0,0,0,0,0,1,0,0,0,0,0,0,0,0,0,0,0,0,0,0,911.66,928.09,2,0,0.06,0.06,314,14.29,0.08,0.06,22.96,LANDED,X10-F,0:/Integrated Flight Computer/aircraft/x10_f_cfg.ks (inferred preloaded)
23.36,TAKEOFF,TO_GROUND_ROLL,101.04,80,-21.04,4.05,-0.44,1.25,1.51,89.99,0.086,1,0,0,0,0,0,0,0,0,0,0,0,0,0,0,90.46,0,1,0,-0.25,0,0,0.06,90,0,0,0,0,0,0,0,0,0.056,0,0,3,0,0,0,69,0,0,0,90.46,1,0.056,-0.47,0.0225,1,0,0.0225,0,0,0,0,0,0,2,2,0,0,VALID,0,0,0,0,0,1,0,0,0,0,0,0,0,0,0,0,0,0,0,0,920.74,936.47,2,0,0.06,0.06,318,14.29,0.08,0.06,23.24,LANDED,X10-F,0:/Integrated Flight Computer/aircraft/x10_f_cfg.ks (inferred preloaded)
23.64,TAKEOFF,TO_GROUND_ROLL,103.53,80,-23.53,3.94,-0.45,0.84,1.1,89.99,0.067,1,0,0,0,0,0,0,0,0,0,0,0,0,0,0,90.46,0,1,0,-0.25,0,0,0.07,90,0,0,0,0,0,0,0,0,0.057,0,0,3,0,0,0,69,0,0,0,90.46,1,0.057,-0.467,0.022,1,0,0.022,0,0,0,0,0,0,2,2,0,0,VALID,0,0,0,0,0,1,0,0,0,0,0,0,0,0,0,0,0,0,0,0,930.2,945.26,2,0,0.06,0.06,322,14.29,0.08,0.06,23.52,LANDED,X10-F,0:/Integrated Flight Computer/aircraft/x10_f_cfg.ks (inferred preloaded)
23.92,TAKEOFF,TO_GROUND_ROLL,106.05,80,-26.05,3.84,-0.45,0.52,0.77,89.99,0.066,1,0,0,0,0,0,0,0,0,0,0,0,0,0,0,90.46,0,1,0,-0.24,0,0,0.07,90,0,0,0,0,0,0,0,0,0.058,0,0,3,0,0,0,69,0,0,0,90.46,1,0.058,-0.465,0.0219,1,0,0.0219,0,0,0,0,0,0,2,2,0,0,VALID,0,0,0,0,0,1,0,0,0,0,0,0,0,0,0,0,0,0,0,0,940,954.43,2,0,0.06,0.06,326,14.29,0.08,0.06,23.8,LANDED,X10-F,0:/Integrated Flight Computer/aircraft/x10_f_cfg.ks (inferred preloaded)
24.2,TAKEOFF,TO_GROUND_ROLL,108.6,80,-28.6,3.79,-0.46,0.33,0.57,89.99,0.079,1,0,0,0,0,0,0,0,0,0,0,0,0,0,0,90.46,0,1,0,-0.24,0,0,0.07,90,0,0,0,0,0,0,0,0,0.058,0,0,3,0,0,0,69,0,0,0,90.46,1,0.058,-0.468,0.0224,1,0,0.0224,0,0,0,0,0,0,2,2,0,0,VALID,0,0,0,0,0,1,0,0,0,0,0,0,0,0,0,0,0,0,0,0,950.11,963.94,2,0,0.06,0.06,330,14.29,0.08,0.06,24.08,LANDED,X10-F,0:/Integrated Flight Computer/aircraft/x10_f_cfg.ks (inferred preloaded)
24.48,TAKEOFF,TO_GROUND_ROLL,111.18,80,-31.18,3.77,-0.46,0.28,0.51,89.99,0.08,1,0,0,0,0,0,0,0,0,0,0,0,0,0,0,90.46,0,1,0,-0.24,0,0,0.08,90,0,0,0,0,0,0,0,0,0.059,0,0,3,0,0,0,69,0,0,0,90.46,1,0.059,-0.474,0.0229,1,0,0.0229,0,0,0,0,0,0,2,2,0,0,VALID,0,0,0,0,0,1,0,0,0,0,0,0,0,0,0,0,0,0,0,0,960.48,973.74,2,0,0.06,0.06,334,14.29,0.08,0.06,24.36,LANDED,X10-F,0:/Integrated Flight Computer/aircraft/x10_f_cfg.ks (inferred preloaded)
24.76,TAKEOFF,TO_GROUND_ROLL,113.78,80,-33.78,3.8,-0.47,0.37,0.59,89.98,0.08,1,0,0,0,0,0,0,0,0,0,0,0,0,0,0,90.46,0,1,0,-0.24,0,0,0.08,90,0,0,0,0,0,0,0,0,0.059,0,0,3,0,0,0,69,0,0,0,90.46,1,0.059,-0.482,0.0234,1,0,0.0234,0,0,0,0,0,0,2,2,0,0,VALID,0,0,0,0,0,1,0,0,0,0,0,0,0,0,0,0,0,0,0,0,971.07,983.79,2,0,0.06,0.06,338,14.29,0.08,0.06,24.64,LANDED,X10-F,0:/Integrated Flight Computer/aircraft/x10_f_cfg.ks (inferred preloaded)
25.04,TAKEOFF,TO_GROUND_ROLL,116.42,80,-36.42,3.86,-0.47,0.57,0.77,89.97,0.082,1,0,0,0,0,0,0,0,0,0,0,0,0,0,0,90.47,0,1,0,-0.23,0,0,0.08,90,0,0,0,0,0,0,0,0,0.06,0,0,3,0,0,0,69,0,0,0,90.47,1,0.06,-0.493,0.0241,1,0,0.0241,0,0,0,0,0,0,2,2,0,0,VALID,0,0,0,0,0,1,0,0,0,0,0,0,0,0,0,0,0,0,0,0,981.83,994.02,2,0,0.06,0.06,342,14.29,0.08,0.06,24.92,LANDED,X10-F,0:/Integrated Flight Computer/aircraft/x10_f_cfg.ks (inferred preloaded)
25.32,TAKEOFF,TO_GROUND_ROLL,119.08,80,-39.08,3.93,-0.47,0.82,1.02,89.96,0.082,1,0,0,0,0,0,0,0,0,0,0,0,0,0,0,90.47,0,1,0,-0.23,0,0,0.09,90,0,0,0,0,0,0,0,0,0.062,0,0,3,0,0,0,69,0,0,0,90.47,1,0.062,-0.505,0.0248,1,0,0.0248,0,0,0,0,0,0,2,2,0,0,VALID,0,0,0,0,0,1,0,0,0,0,0,0,0,0,0,0,0,0,0,0,992.7,1004.39,2,0,0.06,0.06,346,14.29,0.08,0.06,25.2,LANDED,X10-F,0:/Integrated Flight Computer/aircraft/x10_f_cfg.ks (inferred preloaded)
25.6,TAKEOFF,TO_GROUND_ROLL,121.77,80,-41.77,4.01,-0.48,1.08,1.28,89.95,0.083,1,0,0,0,0,0,0,0,0,0,0,0,0,0,0,90.47,0,1,0,-0.22,0,0,0.09,90,0,0,0,0,0,0,0,0,0.063,0,0,3,0,0,0,69,0,0,0,90.47,1,0.063,-0.52,0.0257,1,0,0.0257,0,0,0,0,0,0,2,2,0,0,VALID,0,0,0,0,0,1,0,0,0,0,0,0,0,0,0,0,0,0,0,0,1003.63,1014.83,2,0,0.06,0.06,350,14.29,0.08,0.06,25.48,LANDED,X10-F,0:/Integrated Flight Computer/aircraft/x10_f_cfg.ks (inferred preloaded)
25.88,TAKEOFF,TO_GROUND_ROLL,124.49,80,-44.49,4.07,-0.48,1.29,1.49,89.94,0.083,1,0,0,0,0,0,0,0,0,0,0,0,0,0,0,90.47,0,1,0,-0.22,0,0,0.09,90,0,0,0,0,0,0,0,0,0.065,0,0,3,0,0,0,69,0,0,0,90.47,1,0.065,-0.536,0.0266,1,0,0.0266,0,0,0,0,0,0,2,2,0,0,VALID,0,0,0,0,0,1,0,0,0,0,0,0,0,0,0,0,0,0,0,0,1014.55,1025.28,2,0,0.06,0.06,354,14.29,0.08,0.06,25.76,LANDED,X10-F,0:/Integrated Flight Computer/aircraft/x10_f_cfg.ks (inferred preloaded)
26.16,TAKEOFF,TO_GROUND_ROLL,127.23,80,-47.23,4.1,-0.52,1.41,1.63,89.92,0.084,1,0,0,0,0,0,0,0,0,0,0,0,0,0,0,90.48,0,1,0,-0.23,0,0,0.1,90,0,0,0,0,0,0,0,0,0.068,0,0,3,0,0,0,69,0,0,0,90.48,1,0.068,-0.554,0.0275,1,0,0.0275,0,0,0,0,0,0,2,2,0,0,VALID,0,0,0,0,0,1,0,0,0,0,0,0,0,0,0,0,0,0,0,0,1025.42,1035.69,2,0,0.06,0.06,358,14.29,0.08,0.06,26.04,LANDED,X10-F,0:/Integrated Flight Computer/aircraft/x10_f_cfg.ks (inferred preloaded)
26.44,TAKEOFF,TO_GROUND_ROLL,130.01,80,-50.01,4.1,-0.46,1.42,1.62,89.91,0.083,1,0,0,0,0,0,0,0,0,0,0,0,0,0,0,90.48,0,1,0,-0.2,0,0,0.1,90,0,0,0,0,0,0,0,0,0.071,0,0,3,0,0,0,69,0,0,0,90.48,1,0.071,-0.571,0.0282,1,0,0.0282,0,0,0,0,0,0,2,2,0,0,VALID,0,0,0,0,0,1,0,0,0,0,0,0,0,0,0,0,0,0,0,0,1036.17,1046.02,2,0,0.06,0.06,362,14.29,0.08,0.06,26.32,LANDED,X10-F,0:/Integrated Flight Computer/aircraft/x10_f_cfg.ks (inferred preloaded)
26.72,TAKEOFF,TO_GROUND_ROLL,132.81,80,-52.81,4.07,-0.5,1.31,1.52,89.9,0.081,1,0,0,0,0,0,0,0,0,0,0,0,0,0,0,90.48,0,1,0,-0.21,0,0,0.1,90,0,0,0,0,0,0,0,0,0.074,0,0,3,0,0,0,69,0,0,0,90.48,1,0.074,-0.584,0.0286,1,0,0.0286,0,0,0,0,0,0,2,2,0,0,VALID,0,0,0,0,0,1,0,0,0,0,0,0,0,0,0,0,0,0,0,0,1047.09,1056.55,2,0,0.06,0.06,366,14.29,0.08,0.06,26.6,LANDED,X10-F,0:/Integrated Flight Computer/aircraft/x10_f_cfg.ks (inferred preloaded)
27,TAKEOFF,TO_GROUND_ROLL,135.65,80,-55.65,4.01,-0.48,1.1,1.31,89.89,0.077,1,0,0,0,0,0,0,0,0,0,0,0,0,0,0,90.48,0,1,0,-0.2,0,0,0.11,90,0,0,0,0,0,0,0,0,0.078,0,0,3,0,0,0,69,0,0,0,90.48,1,0.078,-0.594,0.0288,1,0,0.0288,0,0,0,0,0,0,2,2,0,0,VALID,0,0,0,0,0,1,0,0,0,0,0,0,0,0,0,0,0,0,0,0,1058.3,1067.39,2,0,0.06,0.06,370,14.29,0.08,0.06,26.88,LANDED,X10-F,0:/Integrated Flight Computer/aircraft/x10_f_cfg.ks (inferred preloaded)
27.28,TAKEOFF,TO_GROUND_ROLL,138.52,80,-58.52,3.93,-0.49,0.83,1.04,89.88,0.077,1,0,0,0,0,0,0,0,0,0,0,0,0,0,0,90.49,0,1,0,-0.2,0,0,0.11,90,0,0,0,0,0,0,0,0,0.083,0,0,3,0,0,0,69,0,0,0,90.49,1,0.083,-0.603,0.0291,1,0,0.0291,0,0,0,0,0,0,2,2,0,0,VALID,0,0,0,0,0,1,0,0,0,0,0,0,0,0,0,0,0,0,0,0,1069.83,1078.57,2,0,0.06,0.06,374,14.29,0.08,0.06,27.16,LANDED,X10-F,0:/Integrated Flight Computer/aircraft/x10_f_cfg.ks (inferred preloaded)
27.56,TAKEOFF,TO_GROUND_ROLL,141.43,80,-61.43,3.85,-0.49,0.54,0.76,89.88,0.077,1,0,0,0,0,0,0,0,0,0,0,0,0,0,0,90.49,0,1,0,-0.2,0,0,0.11,90,0,0,0,0,0,0,0,0,0.087,0,0,3,0,0,0,69,0,0,0,90.49,1,0.087,-0.609,0.0292,1,0,0.0292,0,0,0,0,0,0,2,2,0,0,VALID,0,0,0,0,0,1,0,0,0,0,0,0,0,0,0,0,0,0,0,0,1081.68,1090.09,2,0,0.06,0.06,378,14.29,0.08,0.06,27.44,LANDED,X10-F,0:/Integrated Flight Computer/aircraft/x10_f_cfg.ks (inferred preloaded)
27.84,TAKEOFF,TO_GROUND_ROLL,144.38,80,-64.38,3.77,-0.49,0.29,0.49,89.88,0.074,1,0,0,0,0,0,0,0,0,0,0,0,0,0,0,90.49,0,1,0,-0.19,0,0,0.12,90,0,0,0,0,0,0,0,0,0.092,0,0,3,0,0,0,69,0,0,0,90.49,1,0.092,-0.613,0.0291,1,0,0.0291,0,0,0,0,0,0,2,2,0,0,VALID,0,0,0,0,0,1,0,0,0,0,0,0,0,0,0,0,0,0,0,0,1093.86,1101.97,2,0,0.06,0.06,382,14.29,0.08,0.06,27.72,LANDED,X10-F,0:/Integrated Flight Computer/aircraft/x10_f_cfg.ks (inferred preloaded)
28.12,TAKEOFF,TO_GROUND_ROLL,147.37,80,-67.37,3.72,-0.49,0.09,0.29,89.88,0.07,1,0,0,0,0,0,0,0,0,0,0,0,0,0,0,90.49,0,1,0,-0.19,0,0,0.12,90,0,0,0,0,0,0,0,0,0.097,0,0,3,0,0,0,69,0,0,0,90.49,1,0.097,-0.612,0.0286,1,0,0.0286,0,0,0,0,0,0,2,2,0,0,VALID,0,0,0,0,0,1,0,0,0,0,0,0,0,0,0,0,0,0,0,0,1106.39,1114.2,2,0,0.06,0.06,386,14.29,0.08,0.06,28,LANDED,X10-F,0:/Integrated Flight Computer/aircraft/x10_f_cfg.ks (inferred preloaded)
28.4,TAKEOFF,TO_GROUND_ROLL,150.39,80,-70.39,3.68,-0.57,-0.01,0.2,89.89,0.063,1,0,0,0,0,0,0,0,0,0,0,0,0,0,0,90.49,0,1,0,-0.22,0,0,0.13,90,0,0,0,0,0,0,0,0,0.102,0,0,3,0,0,0,69,0,0,0,90.49,1,0.102,-0.603,0.0277,1,0,0.0277,0,0,0,0,0,0,2,2,0,0,VALID,0,0,0,0,0,1,0,0,0,0,0,0,0,0,0,0,0,0,0,0,1119.26,1126.79,2,0,0.06,0.06,390,14.29,0.08,0.06,28.28,LANDED,X10-F,0:/Integrated Flight Computer/aircraft/x10_f_cfg.ks (inferred preloaded)
28.68,TAKEOFF,TO_GROUND_ROLL,153.42,80,-73.42,3.66,-0.48,-0.01,0.16,89.91,0.041,1,0,0,0,0,0,0,0,0,0,0,0,0,0,0,90.5,0,1,0,-0.18,0,0,0.13,90,0,0,0,0,0,0,0,0,0.106,0,0,3,0,0,0,69,0,0,0,90.5,1,0.106,-0.588,0.0266,1,0,0.0266,0,0,0,0,0,0,2,2,0,0,VALID,0,0,0,0,0,1,0,0,0,0,0,0,0,0,0,0,0,0,0,0,1132.34,1139.6,2,0,0.06,0.06,394,14.29,0.08,0.06,28.56,LANDED,X10-F,0:/Integrated Flight Computer/aircraft/x10_f_cfg.ks (inferred preloaded)
28.96,TAKEOFF,TO_GROUND_ROLL,156.5,80,-76.5,3.68,-0.46,0.02,0.17,89.93,0.036,1,0,0,0,0,0,0,0,0,0,0,0,0,0,0,90.5,0,1,0,-0.17,0,0,0.13,90,0,0,0,0,0,0,0,0,0.11,0,0,3,0,0,0,69,0,0,0,90.5,1,0.11,-0.568,0.0253,1,0,0.0253,0,0,0,0,0,0,2,2,0,0,VALID,0,0,0,0,0,1,0,0,0,0,0,0,0,0,0,0,0,0,0,0,1145.79,1152.81,2,0,0.06,0.06,398,14.29,0.08,0.06,28.84,LANDED,X10-F,0:/Integrated Flight Computer/aircraft/x10_f_cfg.ks (inferred preloaded)
29.24,TAKEOFF,TO_GROUND_ROLL,159.65,80,-79.65,3.68,-0.49,0.04,0.21,89.95,0.035,1,0,0,0,0,0,0,0,0,0,0,0,0,0,0,90.5,0,1,0,-0.18,0,0,0.14,90,0,0,0,0,0,0,0,0,0.113,0,0,3,0,0,0,69,0,0,0,90.5,1,0.113,-0.543,0.0236,1,0,0.0236,0,0,0,0,0,0,2,2,0,0,VALID,0,0,0,0,0,1,0,0,0,0,0,0,0,0,0,0,0,0,0,0,1159.71,1166.49,2,0,0.06,0.06,402,14.29,0.08,0.06,29.12,LANDED,X10-F,0:/Integrated Flight Computer/aircraft/x10_f_cfg.ks (inferred preloaded)
29.54,TAKEOFF,TO_ROTATE,163.06,80,-83.06,3.71,-0.63,0.09,0.31,89.98,0.035,1,0,0,0,0,0,0,0,0,0,0,0,0,0,0,90.5,0.774,1,0,-0.23,0,0,0.14,90,0,0,0,0,0,0,0,0,0.115,0,0,3,0,0,0,69,0,0,0,90.5,1,0.115,-0.521,0.0228,1,0,0.0228,0,0.1692,0.774,0.686,0.08,0,2,2,0,0,VALID,0,0,0,0,0,1,0,0,0,0,0,0,0,0,0,0,0,0,0,0,1175.04,1181.58,2,0,0.06,0.06,406,13.33,0.08,0.06,29.4,LANDED,X10-F,0:/Integrated Flight Computer/aircraft/x10_f_cfg.ks (inferred preloaded)
29.82,TAKEOFF,TO_ROTATE,166.29,80,-86.29,3.78,-0.37,0.31,0.44,90,0.044,1,0,0,0,0,0,0,0,0,0,0,0,0,0,0,90.5,1.782,1,0,-0.13,0,0,0.15,90,0,0,0,0,0,0,0,0,0.116,0,0,3,0,0,0,69,0,0,0,90.5,1,0.116,-0.502,0.0222,1,0,0.0222,0,0.2709,1.782,1.468,0.08,0,2,2,0,0,VALID,0,0,0,0,0,1,0,0,0,0,0,0,0,0,0,0,0,0,0,0,1189.74,1196.08,2,0,0.06,0.06,410,14.29,0.08,0.06,29.68,LANDED,X10-F,0:/Integrated Flight Computer/aircraft/x10_f_cfg.ks (inferred preloaded)
30.12,TAKEOFF,TO_ROTATE,169.79,80,-89.79,3.98,-0.51,0.96,1.13,90.02,0.052,1,0,0,0,0,0,0,0,0,0,0,0,0,0,0,90.51,2.862,1,0,-0.17,0,0,0.15,90,0,0,0,0,0,0,0,0,0.117,0,0,3,0,0,0,69,0,0,0,90.51,1,0.117,-0.486,0.0218,1,0,0.0218,0,0.3269,2.862,1.899,0.08,0,2,2,0,0,VALID,0,0,0,0,0,1,0,0,0,0,0,0,0,0,0,0,0,0,0,0,1205.88,1212,2,0,0.06,0.06,414,13.33,0.1,0.06,29.98,LANDED,X10-F,0:/Integrated Flight Computer/aircraft/x10_f_cfg.ks (inferred preloaded)
30.4,TAKEOFF,TO_ROTATE,173.08,80,-93.08,4.28,-0.41,1.95,2.08,90.03,0.048,1,0,0,0,0,0,0,0,0,0,0,0,0,0,0,90.51,3.87,1,0,-0.14,0,0,0.16,90,0,0,0,0,0,0,0,0,0.116,0,0,3,0,0,0,69,0,0,0,90.51,1,0.116,-0.483,0.0226,1,0,0.0226,0,0.33,3.87,1.923,0.08,0,2,2,0,0,VALID,0,0,0,0,0,1,0,0,0,0,0,0,0,0,0,0,0,0,0,0,1221.27,1227.2,2,0,0.06,0.06,418,14.29,0.08,0.06,30.26,LANDED,X10-F,0:/Integrated Flight Computer/aircraft/x10_f_cfg.ks (inferred preloaded)
30.68,TAKEOFF,TO_ROTATE,176.38,80,-96.38,4.62,-0.45,3.11,3.26,90.03,0.053,1,0,0,0,0,0,0,0,0,0,0,0,0,0,0,90.52,4.878,1,0,-0.15,0,0,0.16,90,0,0,0,0,0,0,0,0,0.115,0,0,3,0,0,0,69,0,0,0,90.52,1,0.115,-0.488,0.0234,1,0,0.0234,0,0.3093,4.878,1.764,0.08,0,2,2,0,0,VALID,0,0,0,0,0,1,0,0,0,0,0,0,0,0,0,0,0,0,0,0,1236.93,1242.67,2,0,0.06,0.06,422,14.29,0.08,0.06,30.54,LANDED,X10-F,0:/Integrated Flight Computer/aircraft/x10_f_cfg.ks (inferred preloaded)
30.96,TAKEOFF,TO_ROTATE,179.69,80,-99.69,4.96,-0.25,4.19,4.28,90.03,-0.044,1,0,0,0,0,0,0,0,0,0,0,0,0,0,0,90.5,5.886,1,0,-0.09,0,0,0.17,90,0,0,0,0,0,0,0,0,0.113,0,0,3,0,0,0,69,0,0,0,90.5,1,0.113,-0.471,0.0212,1,0,0.0212,0,0.3,5.886,1.692,0.08,0,2,2,0,0,VALID,0,0,0,0,0,1,0,0,0,0,0,0,0,0,0,0,0,0,0,0,1252.79,1258.34,2,0,0.06,0.06,426,14.29,0.08,0.06,30.82,LANDED,X10-F,0:/Integrated Flight Computer/aircraft/x10_f_cfg.ks (inferred preloaded)
31.24,TAKEOFF,TO_ROTATE,182.98,80,-102.98,5.33,0.04,5.11,5.09,90.06,-0.085,1,0,0,0,0,0,0,0,0,0,0,0,0,0,0,90.49,6.894,1,0,0.02,0,0,0.17,90,0,0,0,0,0,0,0,0,0.112,0,0,3,0,0,0,69,0,0,0,90.49,1,0.112,-0.433,0.018,1,0,0.018,0,0.3125,6.894,1.788,0.08,0,2,2,0,0,VALID,0,0,0,0,0,1,0,0,0,0,0,0,0,0,0,0,0,0,0,0,1268.76,1274.13,2,0,0.06,0.06,430,14.29,0.08,0.06,31.1,LANDED,X10-F,0:/Integrated Flight Computer/aircraft/x10_f_cfg.ks (inferred preloaded)
31.5,TAKEOFF,TO_ROTATE,186.02,80,-106.02,5.66,-0.11,5.99,5.97,90.1,0.026,1,0,0,0,0,0,0,0,0,0,0,0,0,0,0,90.4,7.902,1,0,-0.03,0,0,0.18,90,0.6249,-0.0068,-0.7807,7.9,90.4,0,0,0,0,0,0,3,0,0,0,69,0,0,0,90.4,1,0,-0.297,0,0,3,0,0,0,7.902,1.91,0,0,2,2,0,0,VALID,0,0,0,0,0,1,0,0,0,0,0,0,0,0,0,0,0,0,0,0,1283.65,1288.86,2,0,0.06,0.06,434,15.38,0.08,0.06,31.36,FLYING,X10-F,0:/Integrated Flight Computer/aircraft/x10_f_cfg.ks (inferred preloaded)
31.76,TAKEOFF,TO_ROTATE,189.02,80,-109.02,5.96,0.28,6.59,6.48,90.07,0.102,1,0,0,0,0,0,0,0,0,0,0,0,0,0,0,90.4,8.838,0,1,0.09,0,0,8.69,90.4,0.6121,-0.0068,-0.7908,8.84,90.4,0,0,0,0,0,0,3,0,0,0,69,0,0,0,90.4,1,0,-0.33,0,0,3,0,0,0,8.838,2.249,0,0,2,2,0,0,VALID,0,0,0,0,0,1,0,0,0,0,0,0,0,0,0,0,0,0,0,0,1298.51,1303.54,2,0,0.04,0.04,438,15.38,0.08,0.04,31.62,FLYING,X10-F,0:/Integrated Flight Computer/aircraft/x10_f_cfg.ks (inferred preloaded)
32.04,TAKEOFF,TO_ROTATE,192.25,80,-112.25,6.33,0.63,7.05,6.84,90.07,0.103,1,0,0,0,0,0,0,0,0,0,0,0,0,0,0,90.4,9.846,0,1,0.19,0,0,9.63,90.4,0.5982,-0.0068,-0.8013,9.85,90.4,0,0,0,0,0,0,3,0,0,0,69,0,0,0,90.4,1,0,-0.334,0,0,3,0,0,0,9.846,2.792,0,0,2,2,0,0,VALID,0,0,0,0,0,1,0,0,0,0,0,0,0,0,0,0,0,0,0,0,1314.6,1319.48,2,0,0.06,0.06,442,14.29,0.08,0.04,31.9,FLYING,X10-F,0:/Integrated Flight Computer/aircraft/x10_f_cfg.ks (inferred preloaded)
32.3,TAKEOFF,TO_ROTATE,195.24,80,-115.24,6.79,1.19,7.55,7.17,90.07,0.106,1,0,0,0,0,0,0,0,0,0,0,0,0,0,0,90.4,10.782,0,1,0.35,0,0,10.64,90.4,0.5851,-0.0067,-0.811,10.78,90.4,0,0,0,0,0,0,3,0,0,0,69,0,0,0,90.4,1,0,-0.333,0,0,3,0,0,0,10.782,3.237,0,0,2,2,0,0,VALID,0,0,0,0,0,1,0,0,0,0,0,0,0,0,0,0,0,0,0,0,1329.67,1334.42,2,0,0.04,0.04,446,15.38,0.08,0.04,32.16,FLYING,X10-F,0:/Integrated Flight Computer/aircraft/x10_f_cfg.ks (inferred preloaded)
32.58,TAKEOFF,TO_ROTATE,198.45,80,-118.45,7.51,2.05,8.1,7.51,90.07,0.096,1,0,0,0,0,0,0,0,0,0,0,0,0,0,0,90.4,11.5,0,1,0.59,0,0,11.5,90.4,0.5749,-0.0067,-0.8182,11.5,90.4,0,0,0,0,0,0,3,0,0,0,69,0,0,0,90.4,1,0,-0.333,0,0,3,0,0,0,11.5,3.402,0,0,2,2,0,0,VALID,0,0,0,0,0,1,0,0,0,0,0,0,0,0,0,0,0,0,0,0,1345.97,1350.56,2,0,0.06,0.06,450,14.29,0.08,0.04,32.44,FLYING,X10-F,0:/Integrated Flight Computer/aircraft/x10_f_cfg.ks (inferred preloaded)
32.84,TAKEOFF,TO_CLIMB,201.41,80,-121.41,8.38,3.05,8.46,7.6,90.08,0.184,0.928,0,0,0,0,0,0,0,0,0,0,0,0,0,0,90.4,7.724,0,1,0.87,0,0,7.84,90.4,0.6276,-0.0068,-0.7785,7.72,90.4,0,0,0,0,0,0,3,0,0,0,69,0,0,0,90.4,1,0,-0.322,0,0,3,0,0,0,11.5,3.272,0,0,1,1,0,0,VALID,0,0,0,0,0,1,0,0,0,0,0,0,0,0,0,0,0,0,0,0,1360.23,1365.55,2,0,0.04,0.04,454,15.38,0.08,0.04,32.7,FLYING,X10-F,0:/Integrated Flight Computer/aircraft/x10_f_cfg.ks (inferred preloaded)
33.12,TAKEOFF,TO_CLIMB,204.61,80,-124.61,9.58,4.14,8.72,7.57,90.09,0.263,0.82,0,0,0,0,0,0,0,0,0,0,0,0,0,0,90.4,7,0,1,1.16,0,0,7.11,90.4,0.6375,-0.0068,-0.7704,7,90.4,0,0,0,0,0,0,3,0,0,0,69,0,0,0,90.4,1,0,-0.309,0,0,3,0,0,0,11.5,3.272,0,0,1,1,0,0,VALID,0,0,0,0,0,1,0,0,0,0,0,0,0,0,0,0,0,0,0,0,1363.99,1381.88,2,0,0.06,0.06,458,14.29,0.08,0.04,32.98,FLYING,X10-F,0:/Integrated Flight Computer/aircraft/x10_f_cfg.ks (inferred preloaded)
33.42,TAKEOFF,TO_CLIMB,208.05,80,-128.05,11.21,5.37,9.04,7.57,90.1,0.306,0.82,0,0,0,0,0,0,0,0,0,0,0,0,0,0,90.4,7,0,1,1.48,0,0,7,90.4,0.6376,-0.0068,-0.7704,7,90.4,0,0,0,0,0,0,3,0,0,0,69,0,0,0,90.4,1,0,-0.299,0,0,3,0,0,0,11.5,3.272,0,0,1,1,0,0,VALID,0,0,0,0,0,1,0,0,0,0,0,0,0,0,0,0,0,0,0,0,1358.31,1399.54,2,0,0.06,0.06,463,16.67,0.08,0.04,33.28,FLYING,X10-F,0:/Integrated Flight Computer/aircraft/x10_f_cfg.ks (inferred preloaded)
33.7,TAKEOFF,TO_CLIMB,211.24,80,-131.24,13.05,6.6,9.25,7.47,90.11,0.3,0.82,0,0,0,0,0,0,0,0,0,0,0,0,0,0,90.4,7,0,1,1.79,0,0,7,90.4,0.6377,-0.0068,-0.7703,7,90.4,0,0,0,0,0,0,3,0,0,0,69,0,0,0,90.4,1,0,-0.294,0,0,3,0,0,0,11.5,3.272,0,0,1,1,0,0,VALID,0,0,0,0,0,1,0,0,0,0,0,0,0,0,0,0,0,0,0,0,1354.28,1416.04,2,0,0.04,0.04,468,17.86,0.08,0.04,33.56,FLYING,X10-F,0:/Integrated Flight Computer/aircraft/x10_f_cfg.ks (inferred preloaded)
33.96,TAKEOFF,TO_CLIMB,214.21,80,-134.21,15.05,7.74,9.41,7.36,90.11,0.316,0.82,0,0,0,0,0,0,0,0,0,0,0,0,0,0,90.4,7,0,1,2.07,0,0,7,90.4,0.6377,-0.0068,-0.7702,7,90.4,0,0,0,0,0,0,3,0,0,0,69,0,0,0,90.4,1,0,-0.289,0,0,3,0,0,0,11.5,3.272,0,0,1,1,0,0,VALID,0,0,0,0,0,1,0,0,0,0,0,0,0,0,0,0,0,0,0,0,1351.91,1431.47,2,0,0.08,0.08,472,15.38,0.08,0.04,33.82,FLYING,X10-F,0:/Integrated Flight Computer/aircraft/x10_f_cfg.ks (inferred preloaded)
34.24,TAKEOFF,TO_CLIMB,217.41,80,-137.41,17.52,8.96,9.52,7.18,90.12,0.321,0.82,0,0,0,0,0,0,0,0,0,0,0,0,0,0,90.4,7,0,1,2.36,0,0,7,90.4,0.6378,-0.0068,-0.7702,7,90.4,0,0,0,0,0,0,3,0,0,0,69,0,0,0,90.4,1,0,-0.283,0,0,3,0,0,0,11.5,3.272,0,0,1,1,0,0,VALID,0,0,0,0,0,1,0,0,0,0,0,0,0,0,0,0,0,0,0,0,1350.77,1448.23,2,0,0.08,0.08,476,14.29,0.08,0.06,34.1,FLYING,X10-F,0:/Integrated Flight Computer/aircraft/x10_f_cfg.ks (inferred preloaded)
34.52,TAKEOFF,TO_CLIMB,220.63,80,-140.63,20.3,10.13,9.6,6.98,90.11,0.302,0.82,0,0,0,0,0,0,0,0,0,0,0,0,0,0,90.4,7,0,1,2.63,0,0,7,90.4,0.6379,-0.0068,-0.7701,7,90.4,0,0,0,0,0,0,3,0,0,0,69,0,0,0,90.4,1,0,-0.285,0,0,3,0,0,0,11.5,3.272,0,0,1,1,0,0,VALID,0,0,0,0,0,1,0,0,0,0,0,0,0,0,0,0,0,0,0,0,1351.03,1465.19,2,0,0.08,0.08,480,14.29,0.08,0.06,34.38,FLYING,X10-F,0:/Integrated Flight Computer/aircraft/x10_f_cfg.ks (inferred preloaded)
34.8,TAKEOFF,TO_CLIMB,223.88,80,-143.88,23.47,11.32,9.82,6.93,90.13,0.426,0.82,0,0,0,0,0,0,0,0,0,0,0,0,0,0,90.4,7,0,1,2.9,0,0,7,90.4,0.638,-0.0068,-0.77,7,90.4,0,0,0,0,0,0,3,0,0,0,69,0,0,0,90.4,1,0,-0.269,0,0,3,0,0,0,11.5,3.272,0,0,1,1,0,0,VALID,0,0,0,0,0,1,0,0,0,0,0,0,0,0,0,0,0,0,0,0,1352.59,1482.35,2,0,0.08,0.08,484,14.29,0.08,0.06,34.66,FLYING,X10-F,0:/Integrated Flight Computer/aircraft/x10_f_cfg.ks (inferred preloaded)
35.08,TAKEOFF,TO_CLIMB,227.13,80,-147.13,27.01,12.51,10.35,7.19,90.2,0.878,0.82,0,0,0,0,0,0,0,0,0,0,0,0,0,0,90.4,7,0,1,3.15,0,0,7,90.4,0.638,-0.0068,-0.77,7,90.4,0,0,0,0,0,0,3,0,0,0,69,0,0,0,90.4,1,0,-0.198,0,0,3,0,0,0,11.5,3.272,0,0,1,1,0,0,VALID,0,0,0,0,0,1,0,0,0,0,0,0,0,0,0,0,0,0,0,0,1355.31,1499.66,2,0,0.08,0.08,488,14.29,0.08,0.06,34.94,FLYING,X10-F,0:/Integrated Flight Computer/aircraft/x10_f_cfg.ks (inferred preloaded)
35.36,TAKEOFF,TO_CLIMB,230.34,80,-150.34,30.84,14.01,10.46,6.98,90.21,0.843,0.82,0,0,0,0,0,0,0,0,0,0,0,0,0,0,90.4,7,0,1,3.48,0,0,7,90.4,0.6381,-0.0068,-0.7699,7,90.4,0,0,0,0,0,0,3,0,0,0,69,0,0,0,90.4,1,0,-0.188,0,0,3,0,0,0,11.5,3.272,0,0,1,1,0,0,VALID,0,0,0,0,0,1,0,0,0,0,0,0,0,0,0,0,0,0,0,0,1358.82,1516.8,2,0,0.08,0.08,492,14.29,0.08,0.06,35.22,FLYING,X10-F,0:/Integrated Flight Computer/aircraft/x10_f_cfg.ks (inferred preloaded)
35.64,TAKEOFF,TO_CLIMB,233.6,80,-153.6,35.11,15.1,11,7.26,90.25,1.006,0.82,0,0,0,0,0,0,0,0,0,0,0,0,0,0,90.4,7,0,1,3.7,0,0,7,90.4,0.6382,-0.0068,-0.7698,7,90.4,0,0,0,0,0,0,3,0,0,0,69,0,0,0,90.4,1,0,-0.152,0,0,3,0,0,0,11.5,3.272,0,0,1,1,0,0,VALID,0,0,0,0,0,1,0,0,0,0,0,0,0,0,0,0,0,0,0,0,1363.53,1534.34,2,0,0.08,0.08,496,14.29,0.08,0.06,35.5,FLYING,X10-F,0:/Integrated Flight Computer/aircraft/x10_f_cfg.ks (inferred preloaded)
35.92,TAKEOFF,TO_CLIMB,236.85,80,-156.85,39.82,16.9,11.63,7.55,90.29,1.137,0.82,0,0,0,0,0,0,0,0,0,0,0,0,0,0,90.4,7,0,1,4.08,0,0,7,90.4,0.6383,-0.0068,-0.7698,7,90.4,0,0,0,0,0,0,3,0,0,0,69,0,0,0,90.4,1,0,-0.111,0,0,3,0,0,0,11.5,3.272,0,0,1,1,0,0,VALID,0,0,0,0,0,1,0,0,0,0,0,0,0,0,0,0,0,0,0,0,1369.05,1551.86,2,0,0.08,0.08,500,14.29,0.08,0.06,35.78,FLYING,X10-F,0:/Integrated Flight Computer/aircraft/x10_f_cfg.ks (inferred preloaded)
36.2,TAKEOFF,TO_CLIMB,240.03,80,-160.03,44.8,18.35,11.41,7,90.32,1.281,0.82,0,0,0,0,0,0,0,0,0,0,0,0,0,0,90.4,7,0,1,4.37,0,0,7,90.4,0.6384,-0.0068,-0.7697,7,90.4,0,0,0,0,0,0,3,0,0,0,69,0,0,0,90.4,1,0,-0.084,0,0,3,0,0,0,11.5,3.272,0,0,1,1,0,0,VALID,0,0,0,0,0,1,0,0,0,0,0,0,0,0,0,0,0,0,0,0,1374.96,1569.06,2,0,0.08,0.08,504,14.29,0.08,0.06,36.06,FLYING,X10-F,0:/Integrated Flight Computer/aircraft/x10_f_cfg.ks (inferred preloaded)
36.48,TAKEOFF,TO_CLIMB,243.33,80,-163.33,50.35,19.82,12.05,7.32,90.36,1.413,0.82,0,0,0,0,0,0,0,0,0,0,0,0,0,0,90.4,7,0,1,4.66,0,0,7,90.4,0.6385,-0.0068,-0.7696,7,90.4,0,0,0,0,0,0,3,0,0,0,69,0,0,0,90.4,1,0,-0.038,0,0,3,0,0,0,11.5,3.272,0,0,1,1,0,0,VALID,0,0,0,0,0,1,0,0,0,0,0,0,0,0,0,0,0,0,0,0,1382.21,1586.97,2,0,0.08,0.08,508,14.29,0.08,0.06,36.34,FLYING,X10-F,0:/Integrated Flight Computer/aircraft/x10_f_cfg.ks (inferred preloaded)
36.76,TAKEOFF,TO_CLIMB,246.58,80,-166.58,56.4,21.66,12.76,7.66,90.42,1.585,0.82,0,0,0,0,0,0,0,0,0,0,0,0,0,0,90.4,7,0,1,5.02,0,0,7,90.4,0.6385,-0.0068,-0.7696,7,90.4,0,0,0,0,0,0,3,0,0,0,69,0,0,0,90.4,1,0,0.021,0,0,3,0,0,0,11.5,3.272,0,0,1,1,0,0,VALID,0,0,0,0,0,1,0,0,0,0,0,0,0,0,0,0,0,0,0,0,1389.89,1604.66,2,0,0.08,0.08,512,14.29,0.08,0.06,36.62,FLYING,X10-F,0:/Integrated Flight Computer/aircraft/x10_f_cfg.ks (inferred preloaded)
37.04,TAKEOFF,TO_CLIMB,249.76,80,-169.76,62.99,23.64,13.47,7.95,90.48,1.771,0.82,0,0,0,0,0,0,0,0,0,0,0,0,0,0,90.4,7,0,1,5.41,0,0,7,90.4,0.6386,-0.0068,-0.7695,7,90.4,0,0,0,0,0,0,3,0,0,0,69,0,0,0,90.4,1,0,0.084,0,0,3,0,0,0,11.5,3.272,0,0,1,1,0,0,VALID,0,0,0,0,0,1,0,0,0,0,0,0,0,0,0,0,0,0,0,0,1397.83,1622.01,2,0,0.08,0.08,516,14.29,0.08,0.06,36.9,FLYING,X10-F,0:/Integrated Flight Computer/aircraft/x10_f_cfg.ks (inferred preloaded)
37.32,TAKEOFF,TO_CLIMB,252.77,80,-172.77,70.06,26.94,13.41,7.41,90.52,1.829,0.82,0,0,0,0,0,0,0,0,0,0,0,0,0,0,90.4,7,0,1,6.08,0,0,7,90.4,0.6387,-0.0068,-0.7694,7,90.4,0,0,0,0,0,0,3,0,0,0,69,0,0,0,90.4,1,0,0.116,0,0,3,0,0,0,11.5,3.272,0,0,0,0,0,0,VALID,0,0,0,0,0,1,0,0,0,0,0,0,0,0,0,0,0,0,0,0,1405.61,1638.44,2,0,0.08,0.08,520,14.29,0.08,0.06,37.2,FLYING,X10-F,0:/Integrated Flight Computer/aircraft/x10_f_cfg.ks (inferred preloaded)
37.6,TAKEOFF,TO_CLIMB,255.79,80,-175.79,77.17,28.35,10.79,4.51,90.44,1.719,0.82,0,0,0,0,0,0,0,0,0,0,0,0,0,0,90.4,7,0,1,6.32,0,0,7,90.4,0.6388,-0.0068,-0.7693,7,90.4,0,0,0,0,0,0,3,0,0,0,69,0,0,0,90.4,1,0,0.043,0,0,3,0,0,0,11.5,3.272,0,0,0,0,0,0,VALID,0,0,0,0,0,1,0,0,0,0,0,0,0,0,0,0,0,0,0,0,1413.45,1654.77,2,0,0.08,0.08,524,14.29,0.08,0.06,37.46,FLYING,X10-F,0:/Integrated Flight Computer/aircraft/x10_f_cfg.ks (inferred preloaded)
37.88,TAKEOFF,TO_CLIMB,259.37,80,-179.37,84.83,27.57,10.21,3.95,90.43,1.54,0.82,0,0,0,0,0,0,0,0,0,0,0,0,0,0,90.4,7,0,1,6.07,0,0,7,90.4,0.6389,-0.0068,-0.7693,7,90.4,0,0,0,0,0,0,3,0,0,0,69,0,0,0,90.4,1,0,0.028,0,0,3,0,0,0,11.5,3.272,0,0,0,0,0,0,VALID,0,0,0,0,0,1,0,0,0,0,0,0,0,0,0,0,0,0,0,0,1424.76,1674.45,2,0,0.08,0.08,528,14.29,0.08,0.06,37.74,FLYING,X10-F,0:/Integrated Flight Computer/aircraft/x10_f_cfg.ks (inferred preloaded)
38.16,TAKEOFF,TO_CLIMB,263.01,80,-183.01,92.95,28.68,11.2,4.86,90.45,1.338,0.82,0,0,0,0,0,0,0,0,0,0,0,0,0,0,90.4,7,0,1,6.22,0,0,7,90.4,0.639,-0.0068,-0.7692,7,90.4,0,0,0,0,0,0,3,0,0,0,69,0,0,0,90.4,1,0,0.054,0,0,3,0,0,0,11.5,3.272,0,0,0,0,0,0,VALID,0,0,0,0,0,1,0,0,0,0,0,0,0,0,0,0,0,0,0,0,1436.87,1694.6,2,0,0.08,0.08,532,14.29,0.08,0.06,38.02,FLYING,X10-F,0:/Integrated Flight Computer/aircraft/x10_f_cfg.ks (inferred preloaded)
38.44,TAKEOFF,TO_CLIMB,266.73,80,-186.73,101.14,29.54,11.34,4.89,90.45,1.146,0.82,0,0,0,0,0,0,0,0,0,0,0,0,0,0,90.4,7,0,1,6.32,0,0,7,90.4,0.6391,-0.0068,-0.7691,7,90.4,0,0,0,0,0,0,3,0,0,0,69,0,0,0,90.4,1,0,0.053,0,0,3,0,0,0,11.5,3.272,0,0,0,0,0,0,VALID,0,0,0,0,0,1,0,0,0,0,0,0,0,0,0,0,0,0,0,0,1449.77,1715.27,2,0,0.08,0.08,536,14.29,0.08,0.06,38.3,FLYING,X10-F,0:/Integrated Flight Computer/aircraft/x10_f_cfg.ks (inferred preloaded)
38.72,TAKEOFF,TO_CLIMB,270.53,80,-190.53,109.5,30.57,11.1,4.53,90.44,0.894,0.82,0,0,0,0,0,0,0,0,0,0,0,0,0,0,90.4,7,0,1,6.45,0,0,7,90.4,0.6392,-0.0068,-0.769,7,90.4,0,0,0,0,0,0,3,0,0,0,69,0,0,0,90.4,1,0,0.04,0,0,3,0,0,0,11.5,3.272,0,0,0,0,0,0,VALID,0,0,0,0,0,1,0,0,0,0,0,0,0,0,0,0,0,0,0,0,1463.42,1736.42,2,0,0.08,0.08,540,14.29,0.08,0.06,38.58,FLYING,X10-F,0:/Integrated Flight Computer/aircraft/x10_f_cfg.ks (inferred preloaded)
39,TAKEOFF,TO_CLIMB,274.45,80,-194.45,118.08,31.28,11.02,4.38,90.43,0.664,0.82,0,0,0,0,0,0,0,0,0,0,0,0,0,0,90.4,7,0,1,6.5,0,0,7,90.4,0.6393,-0.0068,-0.7689,7,90.4,0,0,0,0,0,0,3,0,0,0,69,0,0,0,90.4,1,0,0.027,0,0,3,0,0,0,11.5,3.272,0,0,0,0,0,0,VALID,0,0,0,0,0,1,0,0,0,0,0,0,0,0,0,0,0,0,0,0,1478.02,1758.36,2,0,0.08,0.08,544,14.29,0.08,0.06,38.86,FLYING,X10-F,0:/Integrated Flight Computer/aircraft/x10_f_cfg.ks (inferred preloaded)
39.28,TAKEOFF,TO_CLIMB,278.46,80,-198.46,126.86,31.92,10.94,4.25,90.42,0.478,0.82,0,0,0,0,0,0,0,0,0,0,0,0,0,0,90.4,7,0,1,6.54,0,0,7,90.4,0.6394,-0.0068,-0.7689,7,90.4,0,0,0,0,0,0,3,0,0,0,69,0,0,0,90.4,1,0,0.017,0,0,3,0,0,0,11.5,3.272,0,0,0,0,0,0,VALID,0,0,0,0,0,1,0,0,0,0,0,0,0,0,0,0,0,0,0,0,1493.4,1780.92,2,0,0.08,0.08,548,14.29,0.08,0.06,39.14,FLYING,X10-F,0:/Integrated Flight Computer/aircraft/x10_f_cfg.ks (inferred preloaded)
39.56,TAKEOFF,TO_CLIMB,282.57,80,-202.57,135.82,32.53,10.9,4.17,90.41,0.343,0.82,0,0,0,0,0,0,0,0,0,0,0,0,0,0,90.4,7,0,1,6.57,0,0,7,90.4,0.6395,-0.0068,-0.7688,7,90.4,0,0,0,0,0,0,3,0,0,0,69,0,0,0,90.4,1,0,0.01,0,0,3,0,0,0,11.5,3.272,0,0,0,0,0,0,VALID,0,0,0,0,0,1,0,0,0,0,0,0,0,0,0,0,0,0,0,0,1509.54,1804.07,2,0,0.08,0.08,552,14.29,0.08,0.06,39.42,FLYING,X10-F,0:/Integrated Flight Computer/aircraft/x10_f_cfg.ks (inferred preloaded)
39.84,TAKEOFF,TO_CLIMB,286.77,80,-206.77,144.94,33.12,10.89,4.13,90.41,0.248,0.82,0,0,0,0,0,0,0,0,0,0,0,0,0,0,90.4,7,0,1,6.59,0,0,7,90.4,0.6396,-0.0068,-0.7687,7,90.4,0,0,0,0,0,0,3,0,0,0,69,0,0,0,90.4,1,0,0.006,0,0,3,0,0,0,11.5,3.272,0,0,0,0,0,0,VALID,0,0,0,0,0,1,0,0,0,0,0,0,0,0,0,0,0,0,0,0,1526.38,1827.81,2,0,0.08,0.08,556,14.29,0.08,0.06,39.7,FLYING,X10-F,0:/Integrated Flight Computer/aircraft/x10_f_cfg.ks (inferred preloaded)
