t_s,phase,subphase,ias_ms,vapp_ms,spd_err_ms,agl_m,vs_ms,pitch_deg,aoa_deg,hdg_deg,bank_deg,thr_cmd,thr_cur,thr_intg,at_gain,at_tau_s,at_a_up,at_a_dn,at_kp_thr,at_ki_spd,at_thr_slew,aa_hdg_cmd_deg,aa_fpa_cmd_deg,aa_fbw,aa_dir,actual_fpa_deg,ftf_hdg_err_deg,ftf_fix_idx,kos_steer_pit_deg,kos_steer_hdg_deg,aa_dir_vx,aa_dir_vy,aa_dir_vz,aa_dir_pitch_deg,aa_dir_hdg_deg,ils_loc_m,ils_gs_m,ils_dist_km,loc_corr_deg,gs_corr_deg,flare_fpa_cmd,flare_tgt_vs,flare_frac,steer_hdg_deg,steer_blend,ro_loc_corr_deg,ro_hdg_err_deg,ro_yaw_tgt,ro_yaw_scale,ro_yaw_gate,yaw_cmd,roll_cmd,pitch_cmd,ro_pitch_tgt_deg,ro_pitch_err_deg,ro_pitch_ff,ro_roll_assist,flaps_cur,flaps_tgt,asc_j_ab,asc_j_rk,asc_validity,asc_q_pa,asc_q_raw_pa,asc_mach,asc_apo_m,asc_drag_n,asc_w_prop,asc_edot_aero,asc_edot_orb,asc_pitch_bias,asc_blend,asc_spooling,asc_ab_thr_ratio,asc_ab_t_now,asc_ab_t_avail,asc_ab_ign_on,asc_ab_flameouts,asc_rk_t_now,asc_rk_t_avail,asc_rk_ign_on,asc_rk_flameouts,ship_thrust,ship_avail_thrust,ship_ign_on,ship_flameouts,ifc_raw_dt_s,ifc_dt_s,ifc_loop_n,ifc_hz_est,ifc_raw_dt_max_s,ifc_raw_dt_min_s,phase_el_s,status,craft_name,cfg_file
0.12,APPROACH,FLY_TO_FIX,233.11,73.08,-160.03,1476.56,-11.58,-4.25,-1.58,89.93,-0.033,0,0,0,1,0.6,0.9,0.75,0.35,0.0168,0.4,179.93,0,1,0,-2.85,177.87,0,0,90,0,0,0,0,0,0,0,54.649,0,0,0,0,0,89.91,0,0,0,0,0,0,0,0,0,0,0,0,0,0,0,0,0,VALID,0,0,0,0,0,1,0,0,0,0,0,0,0,0,0,0,0,0,0,0,46.16,347.66,2,0,0.1,0.1,1,3.45,0.1,0.02,0.12,FLYING,CF1-F,0:/Integrated Flight Computer/aircraft/cf1_f_cfg.ks (inferred preloaded)
0.42,APPROACH,FLY_TO_FIX,233.21,73.32,-159.89,1473.1,-11.59,-4.23,-1.56,89.96,0.036,0,0,0,1,0.6,1.502,0.75,0.35,0.0168,0.4,179.96,0,0,0,-2.84,177.85,0,0,179.95,0,0,0,0,0,0,0,54.722,0,0,0,0,0,89.91,0,0,0,0,0,0,0,0,0,0,0,0,0,0,0,0,0,VALID,0,0,0,0,0,1,0,0,0,0,0,0,0,0,0,0,0,0,0,0,42.83,347.8,2,0,0.06,0.06,5,13.33,0.1,0.06,0.42,FLYING,CF1-F,0:/Integrated Flight Computer/aircraft/cf1_f_cfg.ks (inferred preloaded)
0.72,APPROACH,FLY_TO_FIX,233.27,73.56,-159.71,1469.92,-10.13,-3.25,-0.87,90.01,1.22,0,0,0,1,0.6,2.326,0.75,0.35,0.0168,0.4,180.01,0,0,0,-2.53,177.81,0,0,179.97,0,0,0,0,0,0,0,54.796,0,0,0,0,0,89.91,0,0,0,0,0,0,0,0,0,0,0,0,0,0,0,0,0,VALID,0,0,0,0,0,1,0,0,0,0,0,0,0,0,0,0,0,0,0,0,39.75,347.94,2,0,0.08,0.08,9,13.33,0.08,0.06,0.72,FLYING,CF1-F,0:/Integrated Flight Computer/aircraft/cf1_f_cfg.ks (inferred preloaded)
1,APPROACH,FLY_TO_FIX,233.1,73.78,-159.32,1467.12,-9.65,-3.83,-1.58,90.14,6.275,0,0,0,1,0.6,2.917,0.75,0.35,0.0168,0.4,180.14,0,0,0,-2.37,177.68,0,0,180.1,0,0,0,0,0,0,0,54.865,0,0,0,0,0,89.91,0,0,0,0,0,0,0,0,0,0,0,0,0,0,0,0,0,VALID,0,0,0,0,0,1,0,0,0,0,0,0,0,0,0,0,0,0,0,0,37.06,348.02,2,0,0.06,0.06,13,14.29,0.08,0.06,1,FLYING,CF1-F,0:/Integrated Flight Computer/aircraft/cf1_f_cfg.ks (inferred preloaded)
1.28,APPROACH,FLY_TO_FIX,232.85,74.01,-158.85,1464.43,-9.56,-3.92,-1.62,90.3,13.743,0,0,0,1,0.6,3.34,0.75,0.35,0.0168,0.4,180.3,0,0,0,-2.35,177.52,0,0,180.27,0,0,0,0,0,0,0,54.934,0,0,0,0,0,89.91,0,0,0,0,0,0,0,0,0,0,0,0,0,0,0,0,0,VALID,0,0,0,0,0,1,0,0,0,0,0,0,0,0,0,0,0,0,0,0,34.56,348.08,2,0,0.06,0.06,17,14.29,0.08,0.06,1.28,FLYING,CF1-F,0:/Integrated Flight Computer/aircraft/cf1_f_cfg.ks (inferred preloaded)
1.56,APPROACH,FLY_TO_FIX,232.56,74.23,-158.33,1461.72,-9.73,-4.09,-1.66,90.42,22.178,0,0,-9.42,1,0.6,3.644,0.75,0.35,0.0168,0.4,180.42,0,0,0,-2.39,177.41,0,0,180.4,0,0,0,0,0,0,0,55.003,0,0,0,0,0,89.91,0,0,0,0,0,0,0,0,0,0,0,0,0,0,0,0,0,VALID,0,0,0,0,0,1,0,0,0,0,0,0,0,0,0,0,0,0,0,0,32.22,348.14,2,0,0.06,0.06,21,14.29,0.08,0.06,1.56,FLYING,CF1-F,0:/Integrated Flight Computer/aircraft/cf1_f_cfg.ks (inferred preloaded)
1.84,APPROACH,FLY_TO_FIX,232.25,74.46,-157.8,1458.92,-10.19,-4.33,-1.73,90.49,30.946,0,0,-9.233,1,0.6,3.862,0.75,0.35,0.0168,0.4,180.49,0,0,0,-2.5,177.35,0,0,180.48,0,0,0,0,0,0,0,55.072,0,0,0,0,0,89.91,0,0,0,0,0,0,0,0,0,0,0,0,0,0,0,0,0,VALID,0,0,0,0,0,1,0,0,0,0,0,0,0,0,0,0,0,0,0,0,30.04,348.2,2,0,0.06,0.06,25,14.29,0.08,0.06,1.84,FLYING,CF1-F,0:/Integrated Flight Computer/aircraft/cf1_f_cfg.ks (inferred preloaded)
2.12,APPROACH,FLY_TO_FIX,231.95,74.68,-157.27,1455.94,-11.09,-4.59,-1.78,90.54,39.779,0,0,-9.05,1,0.6,4.018,0.75,0.35,0.0168,0.4,180.54,0,0,0,-2.71,177.31,0,0,180.51,0,0,0,0,0,0,0,55.14,0,0,0,0,0,89.91,0,0,0,0,0,0,0,0,0,0,0,0,0,0,0,0,0,VALID,0,0,0,0,0,1,0,0,0,0,0,0,0,0,0,0,0,0,0,0,28.01,348.27,2,0,0.06,0.06,29,14.29,0.08,0.06,2.12,FLYING,CF1-F,0:/Integrated Flight Computer/aircraft/cf1_f_cfg.ks (inferred preloaded)
2.4,APPROACH,FLY_TO_FIX,231.63,74.9,-156.73,1453.16,-10.61,-2.75,0.75,92.74,48.58,0,0,-8.871,1,0.6,4.13,0.783,0.35,0.0168,0.4,182.74,0,0,0,-2.67,175.12,0,0,182.15,0,0,0,0,0,0,0,55.209,0,0,0,0,0,89.91,0,0,0,0,0,0,0,0,0,0,0,0,0,0,0,0,0,VALID,0,0,0,0,0,1,0,0,0,0,0,0,0,0,0,0,0,0,0,0,26.12,348.34,2,0,0.06,0.06,33,14.29,0.08,0.06,2.4,FLYING,CF1-F,0:/Integrated Flight Computer/aircraft/cf1_f_cfg.ks (inferred preloaded)
2.68,APPROACH,FLY_TO_FIX,231.09,75.13,-155.96,1450.76,-8.06,-1.94,1.23,94.58,57.129,0,0,-18.027,1,0.6,4.21,0.904,0.35,0.0168,0.4,184.58,0,0,0,-2.03,173.29,0,0,184.23,0,0,0,0,0,0,0,55.277,0,0,0,0,0,89.91,0,0,0,0,0,0,0,0,0,0,0,0,0,0,0,0,0,VALID,0,0,0,0,0,1,0,0,0,0,0,0,0,0,0,0,0,0,0,0,24.35,348.36,2,0,0.06,0.06,37,14.29,0.08,0.06,2.68,FLYING,CF1-F,0:/Integrated Flight Computer/aircraft/cf1_f_cfg.ks (inferred preloaded)
2.96,APPROACH,FLY_TO_FIX,230.61,75.35,-155.26,1448.86,-6.43,-1.54,1.38,96.41,63.475,0,0,-17.669,1,0.6,4.268,1.044,0.35,0.0168,0.4,186.41,0,0,0,-1.62,171.47,0,0,186.02,0,0,0,0,0,0,0,55.345,0,0,0,0,0,89.91,0,0,0,0,0,0,0,0,0,0,0,0,0,0,0,0,0,VALID,0,0,0,0,0,1,0,0,0,0,0,0,0,0,0,0,0,0,0,0,22.7,348.37,2,0,0.06,0.06,41,14.29,0.08,0.06,2.96,FLYING,CF1-F,0:/Integrated Flight Computer/aircraft/cf1_f_cfg.ks (inferred preloaded)
3.24,APPROACH,FLY_TO_FIX,230.18,75.58,-154.61,1447.29,-5.46,-1.27,1.39,98.24,67.413,0,0,-17.318,1,0.6,4.31,1.154,0.35,0.0168,0.4,188.24,0,0,0,-1.37,169.66,0,0,187.85,0,0,0,0,0,0,0,55.413,0,0,0,0,0,89.91,0,0,0,0,0,0,0,0,0,0,0,0,0,0,0,0,0,VALID,0,0,0,0,0,1,0,0,0,0,0,0,0,0,0,0,0,0,0,0,21.16,348.37,2,0,0.06,0.06,45,14.29,0.08,0.06,3.24,FLYING,CF1-F,0:/Integrated Flight Computer/aircraft/cf1_f_cfg.ks (inferred preloaded)
3.52,APPROACH,FLY_TO_FIX,229.77,75.8,-153.97,1445.9,-4.88,-0.98,1.38,100.07,68.684,0,0,-16.974,1,0.6,4.339,1.234,0.35,0.0168,0.4,190.07,0,0,0,-1.23,167.86,0,0,189.68,0,0,0,0,0,0,0,55.481,0,0,0,0,0,89.91,0,0,0,0,0,0,0,0,0,0,0,0,0,0,0,0,0,VALID,0,0,0,0,0,1,0,0,0,0,0,0,0,0,0,0,0,0,0,0,19.73,348.37,2,0,0.06,0.06,49,14.29,0.08,0.06,3.52,FLYING,CF1-F,0:/Integrated Flight Computer/aircraft/cf1_f_cfg.ks (inferred preloaded)
3.8,APPROACH,FLY_TO_FIX,229.36,76.02,-153.33,1444.66,-4.4,-0.74,1.36,101.9,69.288,0,0,-16.637,1,0.6,4.36,1.297,0.35,0.0168,0.4,191.9,0,0,0,-1.11,166.06,0,0,191.51,0,0,0,0,0,0,0,55.548,0,0,0,0,0,89.91,0,0,0,0,0,0,0,0,0,0,0,0,0,0,0,0,0,VALID,0,0,0,0,0,1,0,0,0,0,0,0,0,0,0,0,0,0,0,0,18.39,348.36,2,0,0.06,0.06,53,14.29,0.08,0.06,3.8,FLYING,CF1-F,0:/Integrated Flight Computer/aircraft/cf1_f_cfg.ks (inferred preloaded)
4.08,APPROACH,FLY_TO_FIX,228.94,76.25,-152.69,1443.52,-4.01,-0.57,1.36,103.78,69.73,0,0,-16.307,1,0.6,4.376,1.349,0.35,0.0168,0.4,193.78,0,0,0,-1.01,164.21,0,0,193.38,0,0,0,0,0,0,0,55.614,0,0,0,0,0,89.91,0,0,0,0,0,0,0,0,0,0,0,0,0,0,0,0,0,VALID,0,0,0,0,0,1,0,0,0,0,0,0,0,0,0,0,0,0,0,0,17.14,348.35,2,0,0.06,0.06,57,14.29,0.08,0.06,4.08,FLYING,CF1-F,0:/Integrated Flight Computer/aircraft/cf1_f_cfg.ks (inferred preloaded)
4.36,APPROACH,FLY_TO_FIX,228.51,76.47,-152.03,1442.46,-3.69,-0.46,1.35,105.66,70.035,0,0,-15.983,1,0.6,4.386,1.397,0.35,0.0168,0.4,195.66,0,0,0,-0.93,162.38,0,0,195.26,0,0,0,0,0,0,0,55.68,0,0,0,0,0,89.91,0,0,0,0,0,0,0,0,0,0,0,0,0,0,0,0,0,VALID,0,0,0,0,0,1,0,0,0,0,0,0,0,0,0,0,0,0,0,0,15.98,348.33,2,0,0.06,0.06,61,14.29,0.08,0.06,4.36,FLYING,CF1-F,0:/Integrated Flight Computer/aircraft/cf1_f_cfg.ks (inferred preloaded)
4.64,APPROACH,FLY_TO_FIX,228.07,76.7,-151.38,1441.48,-3.43,-0.39,1.34,107.54,70.235,0,0,-15.666,1,0.6,4.394,1.44,0.35,0.0168,0.4,197.54,0,0,0,-0.87,160.54,0,0,197.14,0,0,0,0,0,0,0,55.746,0,0,0,0,0,89.91,0,0,0,0,0,0,0,0,0,0,0,0,0,0,0,0,0,VALID,0,0,0,0,0,1,0,0,0,0,0,0,0,0,0,0,0,0,0,0,14.9,348.31,2,0,0.06,0.06,65,14.29,0.08,0.06,4.64,FLYING,CF1-F,0:/Integrated Flight Computer/aircraft/cf1_f_cfg.ks (inferred preloaded)
4.92,APPROACH,FLY_TO_FIX,227.64,76.92,-150.72,1440.57,-3.21,-0.32,1.35,109.44,70.38,0,0,-15.355,1,0.6,4.399,1.479,0.35,0.0168,0.4,199.44,0,0,0,-0.81,158.69,0,0,199.03,0,0,0,0,0,0,0,55.81,0,0,0,0,0,89.91,0,0,0,0,0,0,0,0,0,0,0,0,0,0,0,0,0,VALID,0,0,0,0,0,1,0,0,0,0,0,0,0,0,0,0,0,0,0,0,13.89,348.29,2,0,0.06,0.06,69,14.29,0.08,0.06,4.92,FLYING,CF1-F,0:/Integrated Flight Computer/aircraft/cf1_f_cfg.ks (inferred preloaded)
5.2,APPROACH,FLY_TO_FIX,227.19,77,-150.19,1439.71,-3.01,-0.27,1.36,111.34,70.495,0,0,-15.05,1,0.6,4.403,1.515,0.35,0.0168,0.4,201.34,0,0,0,-0.76,156.85,0,0,200.93,0,0,0,0,0,0,0,55.874,0,0,0,0,0,89.91,0,0,0,0,0,0,0,0,0,0,0,0,0,0,0,0,0,VALID,0,0,0,0,0,1,0,0,0,0,0,0,0,0,0,0,0,0,0,0,12.94,348.26,2,0,0.06,0.06,73,14.29,0.08,0.06,5.2,FLYING,CF1-F,0:/Integrated Flight Computer/aircraft/cf1_f_cfg.ks (inferred preloaded)
5.5,APPROACH,FLY_TO_FIX,226.71,77,-149.71,1438.84,-2.83,-0.22,1.36,113.37,70.58,0,0,-14.751,1,0.6,4.406,1.55,0.35,0.0168,0.4,203.37,0,0,0,-0.72,154.88,0,0,202.97,0,0,0,0,0,0,0,55.941,0,0,0,0,0,89.91,0,0,0,0,0,0,0,0,0,0,0,0,0,0,0,0,0,VALID,0,0,0,0,0,1,0,0,0,0,0,0,0,0,0,0,0,0,0,0,12.01,348.23,2,0,0.06,0.06,77,13.33,0.08,0.06,5.5,FLYING,CF1-F,0:/Integrated Flight Computer/aircraft/cf1_f_cfg.ks (inferred preloaded)
5.82,APPROACH,FLY_TO_FIX,226.19,77,-149.19,1437.98,-2.65,-0.17,1.39,115.56,70.678,0,0,-14.459,1,0.6,4.408,1.582,0.35,0.0168,0.4,205.56,0,0,0,-0.67,152.76,0,0,205.01,0,0,0,0,0,0,0,56.012,0,0,0,0,0,89.91,0,0,0,0,0,0,0,0,0,0,0,0,0,0,0,0,0,VALID,0,0,0,0,0,1,0,0,0,0,0,0,0,0,0,0,0,0,0,0,11.08,348.2,2,0,0.08,0.08,81,12.5,0.1,0.06,5.82,FLYING,CF1-F,0:/Integrated Flight Computer/aircraft/cf1_f_cfg.ks (inferred preloaded)
6.1,APPROACH,FLY_TO_FIX,225.73,77,-148.73,1437.26,-2.51,-0.13,1.42,117.49,70.767,0,0,-14.172,1,0.6,4.409,1.614,0.35,0.0168,0.4,207.49,0,0,0,-0.64,150.9,0,0,207.08,0,0,0,0,0,0,0,56.073,0,0,0,0,0,89.91,0,0,0,0,0,0,0,0,0,0,0,0,0,0,0,0,0,VALID,0,0,0,0,0,1,0,0,0,0,0,0,0,0,0,0,0,0,0,0,10.33,348.17,2,0,0.06,0.06,85,14.29,0.08,0.06,6.1,FLYING,CF1-F,0:/Integrated Flight Computer/aircraft/cf1_f_cfg.ks (inferred preloaded)
6.4,APPROACH,FLY_TO_FIX,225.22,77,-148.22,1436.54,-2.37,-0.09,1.43,119.55,70.852,0,0,-13.89,1,0.6,4.409,1.646,0.35,0.0168,0.4,209.55,0,0,0,-0.6,148.92,0,0,209.14,0,0,0,0,0,0,0,56.137,0,0,0,0,0,89.91,0,0,0,0,0,0,0,0,0,0,0,0,0,0,0,0,0,VALID,0,0,0,0,0,1,0,0,0,0,0,0,0,0,0,0,0,0,0,0,9.58,348.13,2,0,0.06,0.06,89,13.33,0.08,0.06,6.4,FLYING,CF1-F,0:/Integrated Flight Computer/aircraft/cf1_f_cfg.ks (inferred preloaded)
6.72,APPROACH,FLY_TO_FIX,224.68,77,-147.68,1435.82,-2.22,-0.02,1.56,121.85,70.954,0,0,-13.615,1,0.6,4.41,1.676,0.35,0.0168,0.4,211.85,0,0,0,-0.57,146.7,0,0,211.23,0,0,0,0,0,0,0,56.203,0,0,0,0,0,89.91,0,0,0,0,0,0,0,0,0,0,0,0,0,0,0,0,0,VALID,0,0,0,0,0,1,0,0,0,0,0,0,0,0,0,0,0,0,0,0,8.84,348.09,2,0,0.08,0.08,93,12.5,0.1,0.06,6.72,FLYING,CF1-F,0:/Integrated Flight Computer/aircraft/cf1_f_cfg.ks (inferred preloaded)
7.02,APPROACH,FLY_TO_FIX,224.15,77,-147.15,1435.18,-2.08,0.01,1.56,123.93,71.045,0,0,-13.344,1,0.6,4.41,1.709,0.35,0.0168,0.4,213.93,0,0,0,-0.54,144.7,0,0,213.46,0,0,0,0,0,0,0,56.264,0,0,0,0,0,89.91,0,0,0,0,0,0,0,0,0,0,0,0,0,0,0,0,0,VALID,0,0,0,0,0,1,0,0,0,0,0,0,0,0,0,0,0,0,0,0,8.2,348.05,2,0,0.06,0.06,97,13.33,0.1,0.06,7.02,FLYING,CF1-F,0:/Integrated Flight Computer/aircraft/cf1_f_cfg.ks (inferred preloaded)
7.32,APPROACH,FLY_TO_FIX,223.62,77,-146.62,1434.58,-1.97,0.04,1.56,126.01,71.05,0,0,-13.079,1,0.6,4.41,1.742,0.35,0.0168,0.4,216.01,0,0,0,-0.51,142.72,0,0,215.55,0,0,0,0,0,0,0,56.324,0,0,0,0,0,89.91,0,0,0,0,0,0,0,0,0,0,0,0,0,0,0,0,0,VALID,0,0,0,0,0,1,0,0,0,0,0,0,0,0,0,0,0,0,0,0,7.6,348.01,2,0,0.06,0.06,101,13.33,0.08,0.06,7.32,FLYING,CF1-F,0:/Integrated Flight Computer/aircraft/cf1_f_cfg.ks (inferred preloaded)
7.64,APPROACH,FLY_TO_FIX,223.05,77,-146.05,1433.97,-1.87,0.07,1.57,128.21,71.039,0,0,-12.82,1,0.6,4.41,1.771,0.35,0.0168,0.4,218.21,0,0,0,-0.48,140.61,0,0,217.58,0,0,0,0,0,0,0,56.386,0,0,0,0,0,89.91,0,0,0,0,0,0,0,0,0,0,0,0,0,0,0,0,0,VALID,0,0,0,0,0,1,0,0,0,0,0,0,0,0,0,0,0,0,0,0,7.02,347.97,2,0,0.08,0.08,105,12.5,0.1,0.06,7.64,FLYING,CF1-F,0:/Integrated Flight Computer/aircraft/cf1_f_cfg.ks (inferred preloaded)
7.92,APPROACH,FLY_TO_FIX,222.55,77,-145.55,1433.47,-1.8,0.06,1.49,130.05,71.021,0,0,-12.565,1,0.6,4.409,1.798,0.35,0.0168,0.4,220.05,0,0,0,-0.46,138.86,0,0,219.62,0,0,0,0,0,0,0,56.438,0,0,0,0,0,89.91,0,0,0,0,0,0,0,0,0,0,0,0,0,0,0,0,0,VALID,0,0,0,0,0,1,0,0,0,0,0,0,0,0,0,0,0,0,0,0,6.54,347.93,2,0,0.06,0.06,109,14.29,0.08,0.06,7.92,FLYING,CF1-F,0:/Integrated Flight Computer/aircraft/cf1_f_cfg.ks (inferred preloaded)
8.22,APPROACH,FLY_TO_FIX,222.01,77,-145.01,1432.96,-1.68,0.12,1.59,132.23,71.096,0,0,-12.316,1,0.6,4.409,1.822,0.35,0.0168,0.4,222.23,0,0,0,-0.44,136.78,0,0,221.81,0,0,0,0,0,0,0,56.493,0,0,0,0,0,89.91,0,0,0,0,0,0,0,0,0,0,0,0,0,0,0,0,0,VALID,0,0,0,0,0,1,0,0,0,0,0,0,0,0,0,0,0,0,0,0,6.07,347.89,2,0,0.06,0.06,113,13.33,0.08,0.06,8.22,FLYING,CF1-F,0:/Integrated Flight Computer/aircraft/cf1_f_cfg.ks (inferred preloaded)
8.54,APPROACH,FLY_TO_FIX,221.43,77,-144.43,1432.44,-1.58,0.14,1.61,134.47,71.167,0,0,-12.071,1,0.6,4.409,1.847,0.35,0.0168,0.4,224.47,0,0,0,-0.41,134.65,0,0,223.91,0,0,0,0,0,0,0,56.549,0,0,0,0,0,89.91,0,0,0,0,0,0,0,0,0,0,0,0,0,0,0,0,0,VALID,0,0,0,0,0,1,0,0,0,0,0,0,0,0,0,0,0,0,0,0,5.6,347.85,2,0,0.08,0.08,117,12.5,0.1,0.06,8.54,FLYING,CF1-F,0:/Integrated Flight Computer/aircraft/cf1_f_cfg.ks (inferred preloaded)
8.82,APPROACH,FLY_TO_FIX,220.92,77,-143.92,1432.01,-1.51,0.16,1.62,136.42,71.208,0,0,-11.832,1,0.6,4.408,1.87,0.35,0.0168,0.4,226.42,0,0,0,-0.39,132.8,0,0,226,0,0,0,0,0,0,0,56.597,0,0,0,0,0,89.91,0,0,0,0,0,0,0,0,0,0,0,0,0,0,0,0,0,VALID,0,0,0,0,0,1,0,0,0,0,0,0,0,0,0,0,0,0,0,0,5.22,347.81,2,0,0.06,0.06,121,14.29,0.08,0.06,8.82,FLYING,CF1-F,0:/Integrated Flight Computer/aircraft/cf1_f_cfg.ks (inferred preloaded)
9.12,APPROACH,FLY_TO_FIX,220.37,77,-143.37,1431.57,-1.46,0.18,1.62,138.5,71.208,0,0,-11.597,1,0.6,4.408,1.891,0.35,0.0168,0.4,228.5,0,0,0,-0.38,130.83,0,0,228.09,0,0,0,0,0,0,0,56.646,0,0,0,0,0,89.91,0,0,0,0,0,0,0,0,0,0,0,0,0,0,0,0,0,VALID,0,0,0,0,0,1,0,0,0,0,0,0,0,0,0,0,0,0,0,0,4.84,347.77,2,0,0.06,0.06,125,13.33,0.08,0.06,9.12,FLYING,CF1-F,0:/Integrated Flight Computer/aircraft/cf1_f_cfg.ks (inferred preloaded)
9.44,APPROACH,FLY_TO_FIX,219.78,77,-142.78,1431.11,-1.42,0.19,1.63,140.72,71.177,0,0,-11.367,1,0.6,4.407,1.909,0.35,0.0168,0.4,230.72,0,0,0,-0.37,128.73,0,0,230.16,0,0,0,0,0,0,0,56.696,0,0,0,0,0,89.91,0,0,0,0,0,0,0,0,0,0,0,0,0,0,0,0,0,VALID,0,0,0,0,0,1,0,0,0,0,0,0,0,0,0,0,0,0,0,0,4.47,347.73,2,0,0.08,0.08,129,12.5,0.1,0.06,9.44,FLYING,CF1-F,0:/Integrated Flight Computer/aircraft/cf1_f_cfg.ks (inferred preloaded)
9.74,APPROACH,FLY_TO_FIX,219.23,77,-142.23,1430.69,-1.38,0.2,1.63,142.79,71.136,0,0,-11.141,1,0.6,4.407,1.925,0.35,0.0168,0.4,232.79,0,0,0,-0.36,126.78,0,0,232.38,0,0,0,0,0,0,0,56.741,0,0,0,0,0,89.91,0,0,0,0,0,0,0,0,0,0,0,0,0,0,0,0,0,VALID,0,0,0,0,0,1,0,0,0,0,0,0,0,0,0,0,0,0,0,0,4.14,347.69,2,0,0.06,0.06,133,13.33,0.1,0.06,9.74,FLYING,CF1-F,0:/Integrated Flight Computer/aircraft/cf1_f_cfg.ks (inferred preloaded)
10.04,APPROACH,FLY_TO_FIX,218.68,77,-141.68,1430.28,-1.36,0.21,1.63,144.85,71.076,0,0,-10.92,1,0.6,4.406,1.938,0.35,0.0168,0.4,234.85,0,0,0,-0.36,124.83,0,0,234.44,0,0,0,0,0,0,0,56.784,0,0,0,0,0,89.91,0,0,0,0,0,0,0,0,0,0,0,0,0,0,0,0,0,VALID,0,0,0,0,0,1,0,0,0,0,0,0,0,0,0,0,0,0,0,0,3.84,347.65,2,0,0.06,0.06,137,13.33,0.08,0.06,10.04,FLYING,CF1-F,0:/Integrated Flight Computer/aircraft/cf1_f_cfg.ks (inferred preloaded)
10.34,APPROACH,FLY_TO_FIX,218.14,77,-141.14,1429.88,-1.34,0.22,1.63,146.91,70.999,0,0,-10.703,1,0.6,4.406,1.948,0.35,0.0168,0.4,236.91,0,0,0,-0.35,122.9,0,0,236.5,0,0,0,0,0,0,0,56.825,0,0,0,0,0,89.91,0,0,0,0,0,0,0,0,0,0,0,0,0,0,0,0,0,VALID,0,0,0,0,0,1,0,0,0,0,0,0,0,0,0,0,0,0,0,0,3.56,347.61,2,0,0.06,0.06,141,13.33,0.1,0.06,10.34,FLYING,CF1-F,0:/Integrated Flight Computer/aircraft/cf1_f_cfg.ks (inferred preloaded)
10.64,APPROACH,FLY_TO_FIX,217.59,77,-140.59,1429.49,-1.32,0.23,1.66,148.98,70.928,0,0,-10.491,1,0.6,4.405,1.956,0.35,0.0168,0.4,238.98,0,0,0,-0.35,120.95,0,0,238.43,0,0,0,0,0,0,0,56.864,0,0,0,0,0,89.91,0,0,0,0,0,0,0,0,0,0,0,0,0,0,0,0,0,VALID,0,0,0,0,0,1,0,0,0,0,0,0,0,0,0,0,0,0,0,0,3.3,347.58,2,0,0.08,0.08,145,13.33,0.08,0.06,10.64,FLYING,CF1-F,0:/Integrated Flight Computer/aircraft/cf1_f_cfg.ks (inferred preloaded)
10.92,APPROACH,FLY_TO_FIX,217.08,77,-140.08,1429.12,-1.29,0.24,1.68,150.92,70.888,0,0,-10.282,1,0.6,4.405,1.963,0.35,0.0168,0.4,240.92,0,0,0,-0.34,119.13,0,0,240.51,0,0,0,0,0,0,0,56.898,0,0,0,0,0,89.91,0,0,0,0,0,0,0,0,0,0,0,0,0,0,0,0,0,VALID,0,0,0,0,0,1,0,0,0,0,0,0,0,0,0,0,0,0,0,0,3.08,347.54,2,0,0.06,0.06,149,14.29,0.08,0.06,10.92,FLYING,CF1-F,0:/Integrated Flight Computer/aircraft/cf1_f_cfg.ks (inferred preloaded)
11.22,APPROACH,FLY_TO_FIX,216.53,77,-139.53,1428.74,-1.27,0.25,1.67,152.97,70.829,0,0,-10.078,1,0.6,4.404,1.97,0.35,0.0168,0.4,242.97,0,0,0,-0.34,117.21,0,0,242.56,0,0,0,0,0,0,0,56.932,0,0,0,0,0,89.91,0,0,0,0,0,0,0,0,0,0,0,0,0,0,0,0,0,VALID,0,0,0,0,0,1,0,0,0,0,0,0,0,0,0,0,0,0,0,0,2.86,347.51,2,0,0.06,0.06,153,13.33,0.08,0.06,11.22,FLYING,CF1-F,0:/Integrated Flight Computer/aircraft/cf1_f_cfg.ks (inferred preloaded)
11.52,APPROACH,FLY_TO_FIX,215.99,77,-138.99,1428.36,-1.27,0.25,1.68,155.01,70.741,0,0,-9.878,1,0.6,4.404,1.975,0.35,0.0168,0.4,245.01,0,0,0,-0.34,115.3,0,0,244.6,0,0,0,0,0,0,0,56.965,0,0,0,0,0,89.91,0,0,0,0,0,0,0,0,0,0,0,0,0,0,0,0,0,VALID,0,0,0,0,0,1,0,0,0,0,0,0,0,0,0,0,0,0,0,0,2.65,347.47,2,0,0.06,0.06,157,13.33,0.1,0.06,11.52,FLYING,CF1-F,0:/Integrated Flight Computer/aircraft/cf1_f_cfg.ks (inferred preloaded)
11.8,APPROACH,FLY_TO_FIX,215.48,77,-138.48,1428.01,-1.25,0.26,1.68,156.92,70.668,0,0,-9.682,1,0.6,4.403,1.978,0.35,0.0168,0.4,246.92,0,0,0,-0.33,113.51,0,0,246.52,0,0,0,0,0,0,0,56.993,0,0,0,0,0,89.91,0,0,0,0,0,0,0,0,0,0,0,0,0,0,0,0,0,VALID,0,0,0,0,0,1,0,0,0,0,0,0,0,0,0,0,0,0,0,0,2.47,347.45,2,0,0.06,0.06,161,14.29,0.08,0.06,11.8,FLYING,CF1-F,0:/Integrated Flight Computer/aircraft/cf1_f_cfg.ks (inferred preloaded)
12.08,APPROACH,FLY_TO_FIX,214.98,77,-137.98,1427.66,-1.24,0.27,1.69,158.83,70.589,0,0,-9.49,1,0.6,4.403,1.98,0.35,0.0168,0.4,248.83,0,0,0,-0.33,111.73,0,0,248.42,0,0,0,0,0,0,0,57.019,0,0,0,0,0,89.91,0,0,0,0,0,0,0,0,0,0,0,0,0,0,0,0,0,VALID,0,0,0,0,0,1,0,0,0,0,0,0,0,0,0,0,0,0,0,0,2.3,347.42,2,0,0.06,0.06,165,14.29,0.08,0.06,12.08,FLYING,CF1-F,0:/Integrated Flight Computer/aircraft/cf1_f_cfg.ks (inferred preloaded)
12.36,APPROACH,FLY_TO_FIX,214.47,77,-137.47,1427.31,-1.23,0.28,1.72,160.75,70.523,0,0,-9.302,1,0.6,4.403,1.981,0.35,0.0168,0.4,250.75,0,0,0,-0.33,109.93,0,0,250.33,0,0,0,0,0,0,0,57.043,0,0,0,0,0,89.91,0,0,0,0,0,0,0,0,0,0,0,0,0,0,0,0,0,VALID,0,0,0,0,0,1,0,0,0,0,0,0,0,0,0,0,0,0,0,0,2.15,347.39,2,0,0.06,0.06,169,14.29,0.08,0.06,12.36,FLYING,CF1-F,0:/Integrated Flight Computer/aircraft/cf1_f_cfg.ks (inferred preloaded)
12.64,APPROACH,FLY_TO_FIX,213.97,77,-136.97,1426.97,-1.22,0.28,1.71,162.64,70.457,0,0,-9.117,1,0.6,4.402,1.982,0.35,0.0168,0.4,252.64,0,0,0,-0.33,108.17,0,0,252.23,0,0,0,0,0,0,0,57.065,0,0,0,0,0,89.91,0,0,0,0,0,0,0,0,0,0,0,0,0,0,0,0,0,VALID,0,0,0,0,0,1,0,0,0,0,0,0,0,0,0,0,0,0,0,0,2,347.36,2,0,0.06,0.06,173,14.29,0.08,0.06,12.64,FLYING,CF1-F,0:/Integrated Flight Computer/aircraft/cf1_f_cfg.ks (inferred preloaded)
12.92,APPROACH,FLY_TO_FIX,213.46,77,-136.46,1426.62,-1.22,0.28,1.71,164.53,70.369,0,0,-8.936,1,0.6,4.402,1.982,0.35,0.0168,0.4,254.53,0,0,0,-0.33,106.41,0,0,254.12,0,0,0,0,0,0,0,57.085,0,0,0,0,0,89.91,0,0,0,0,0,0,0,0,0,0,0,0,0,0,0,0,0,VALID,0,0,0,0,0,1,0,0,0,0,0,0,0,0,0,0,0,0,0,0,1.86,347.34,2,0,0.06,0.06,177,14.29,0.08,0.06,12.92,FLYING,CF1-F,0:/Integrated Flight Computer/aircraft/cf1_f_cfg.ks (inferred preloaded)
13.2,APPROACH,FLY_TO_FIX,212.96,77,-135.96,1426.28,-1.22,0.29,1.72,166.41,70.281,0,0,-8.759,1,0.6,4.402,1.981,0.35,0.0168,0.4,256.41,0,0,0,-0.33,104.65,0,0,256.01,0,0,0,0,0,0,0,57.103,0,0,0,0,0,89.91,0,0,0,0,0,0,0,0,0,0,0,0,0,0,0,0,0,VALID,0,0,0,0,0,1,0,0,0,0,0,0,0,0,0,0,0,0,0,0,1.74,347.31,2,0,0.06,0.06,181,14.29,0.08,0.06,13.2,FLYING,CF1-F,0:/Integrated Flight Computer/aircraft/cf1_f_cfg.ks (inferred preloaded)
13.48,APPROACH,FLY_TO_FIX,212.46,77,-135.46,1425.94,-1.22,0.29,1.72,168.3,70.192,0,0,-8.585,1,0.6,4.401,1.979,0.35,0.0168,0.4,258.3,0,0,0,-0.33,102.89,0,0,257.9,0,0,0,0,0,0,0,57.119,0,0,0,0,0,89.91,0,0,0,0,0,0,0,0,0,0,0,0,0,0,0,0,0,VALID,0,0,0,0,0,1,0,0,0,0,0,0,0,0,0,0,0,0,0,0,1.62,347.29,2,0,0.06,0.06,185,14.29,0.08,0.06,13.48,FLYING,CF1-F,0:/Integrated Flight Computer/aircraft/cf1_f_cfg.ks (inferred preloaded)
13.76,APPROACH,FLY_TO_FIX,211.97,77,-134.97,1425.6,-1.22,0.29,1.72,170.16,70.085,0,0,-8.414,1,0.6,4.401,1.976,0.35,0.0168,0.4,260.16,0,0,0,-0.33,101.16,0,0,259.76,0,0,0,0,0,0,0,57.133,0,0,0,0,0,89.91,0,0,0,0,0,0,0,0,0,0,0,0,0,0,0,0,0,VALID,0,0,0,0,0,1,0,0,0,0,0,0,0,0,0,0,0,0,0,0,1.51,347.27,2,0,0.06,0.06,189,14.29,0.08,0.06,13.76,FLYING,CF1-F,0:/Integrated Flight Computer/aircraft/cf1_f_cfg.ks (inferred preloaded)
14.04,APPROACH,FLY_TO_FIX,211.47,77,-134.47,1425.26,-1.22,0.3,1.74,172.04,69.993,0,0,-8.247,1,0.6,4.401,1.972,0.35,0.0168,0.4,262.04,0,0,0,-0.33,99.41,0,0,261.64,0,0,0,0,0,0,0,57.145,0,0,0,0,0,89.91,0,0,0,0,0,0,0,0,0,0,0,0,0,0,0,0,0,VALID,0,0,0,0,0,1,0,0,0,0,0,0,0,0,0,0,0,0,0,0,1.41,347.24,2,0,0.06,0.06,193,14.29,0.08,0.06,14.04,FLYING,CF1-F,0:/Integrated Flight Computer/aircraft/cf1_f_cfg.ks (inferred preloaded)
14.32,APPROACH,FLY_TO_FIX,210.98,77,-133.98,1424.92,-1.21,0.3,1.74,173.92,69.915,0,0,-8.084,1,0.6,4.4,1.968,0.35,0.0168,0.4,263.92,0,0,0,-0.33,97.66,0,0,263.52,0,0,0,0,0,0,0,57.155,0,0,0,0,0,89.91,0,0,0,0,0,0,0,0,0,0,0,0,0,0,0,0,0,VALID,0,0,0,0,0,1,0,0,0,0,0,0,0,0,0,0,0,0,0,0,1.31,347.22,2,0,0.06,0.06,197,14.29,0.08,0.06,14.32,FLYING,CF1-F,0:/Integrated Flight Computer/aircraft/cf1_f_cfg.ks (inferred preloaded)
14.6,APPROACH,FLY_TO_FIX,210.49,77,-133.49,1424.58,-1.21,0.31,1.75,175.79,69.83,0,0,-7.923,1,0.6,4.4,1.964,0.35,0.0168,0.4,265.79,0,0,0,-0.33,95.93,0,0,265.38,0,0,0,0,0,0,0,57.162,0,0,0,0,0,89.91,0,0,0,0,0,0,0,0,0,0,0,0,0,0,0,0,0,VALID,0,0,0,0,0,1,0,0,0,0,0,0,0,0,0,0,0,0,0,0,1.22,347.21,2,0,0.06,0.06,201,14.29,0.08,0.06,14.6,FLYING,CF1-F,0:/Integrated Flight Computer/aircraft/cf1_f_cfg.ks (inferred preloaded)
14.88,APPROACH,FLY_TO_FIX,209.99,77,-132.99,1424.24,-1.21,0.31,1.75,177.64,69.747,0,0,-7.766,1,0.6,4.4,1.96,0.35,0.0168,0.4,267.64,0,0,0,-0.33,94.2,0,0,267.25,0,0,0,0,0,0,0,57.168,0,0,0,0,0,89.91,0,0,0,0,0,0,0,0,0,0,0,0,0,0,0,0,0,VALID,0,0,0,0,0,1,0,0,0,0,0,0,0,0,0,0,0,0,0,0,1.14,347.19,2,0,0.06,0.06,205,14.29,0.08,0.06,14.88,FLYING,CF1-F,0:/Integrated Flight Computer/aircraft/cf1_f_cfg.ks (inferred preloaded)
15.16,APPROACH,FLY_TO_FIX,209.51,77,-132.51,1423.9,-1.21,0.31,1.76,179.5,69.653,0,0,-7.612,1,0.6,4.399,1.955,0.35,0.0168,0.4,269.5,0,0,0,-0.33,92.47,0,0,269.11,0,0,0,0,0,0,0,57.172,0,0,0,0,0,89.91,0,0,0,0,0,0,0,0,0,0,0,0,0,0,0,0,0,VALID,0,0,0,0,0,1,0,0,0,0,0,0,0,0,0,0,0,0,0,0,1.06,347.17,2,0,0.06,0.06,209,14.29,0.08,0.06,15.16,FLYING,CF1-F,0:/Integrated Flight Computer/aircraft/cf1_f_cfg.ks (inferred preloaded)
15.44,APPROACH,FLY_TO_FIX,209.02,77,-132.02,1423.56,-1.2,0.32,1.78,181.37,69.573,0,0,-7.461,1,0.6,4.399,1.95,0.35,0.0168,0.4,271.37,0,0,0,-0.33,90.74,0,0,270.97,0,0,0,0,0,0,0,57.173,0,0,0,0,0,89.91,0,0,0,0,0,0,0,0,0,0,0,0,0,0,0,0,0,VALID,0,0,0,0,0,1,0,0,0,0,0,0,0,0,0,0,0,0,0,0,0.99,347.16,2,0,0.06,0.06,213,14.29,0.08,0.06,15.44,FLYING,CF1-F,0:/Integrated Flight Computer/aircraft/cf1_f_cfg.ks (inferred preloaded)
15.74,APPROACH,FLY_TO_FIX,208.5,77,-131.5,1423.2,-1.2,0.32,1.78,183.35,69.483,0,0,-7.313,1,0.6,4.399,1.945,0.35,0.0168,0.4,272.25,0,0,0,-0.33,88.9,0,0,272.21,0,0,0,0,0,0,0,57.173,0,0,0,0,0,89.91,0,0,0,0,0,0,0,0,0,0,0,0,0,0,0,0,0,VALID,0,0,0,0,0,1,0,0,0,0,0,0,0,0,0,0,0,0,0,0,0.92,347.14,2,0,0.08,0.08,217,13.33,0.08,0.06,15.74,FLYING,CF1-F,0:/Integrated Flight Computer/aircraft/cf1_f_cfg.ks (inferred preloaded)
16.02,APPROACH,FLY_TO_FIX,208.01,77,-131.01,1422.87,-1.2,0.33,1.8,185.21,69.408,0,0,-7.167,1,0.6,4.399,1.941,0.35,0.0168,0.4,272.38,0,0,0,-0.33,87.17,0,0,272.35,0,0,0,0,0,0,0,57.171,0,0,0,0,0,89.91,0,0,0,0,0,0,0,0,0,0,0,0,0,0,0,0,0,VALID,0,0,0,0,0,1,0,0,0,0,0,0,0,0,0,0,0,0,0,0,0.86,347.13,2,0,0.06,0.06,221,14.29,0.08,0.06,16.02,FLYING,CF1-F,0:/Integrated Flight Computer/aircraft/cf1_f_cfg.ks (inferred preloaded)
16.32,APPROACH,FLY_TO_FIX,207.49,77,-130.49,1422.51,-1.2,0.33,1.79,187.17,69.319,0,0,-7.025,1,0.6,4.399,1.936,0.35,0.0168,0.4,272.52,0,0,0,-0.33,85.35,0,0,272.49,0,0,0,0,0,0,0,57.166,0,0,0,0,0,89.91,0,0,0,0,0,0,0,0,0,0,0,0,0,0,0,0,0,VALID,0,0,0,0,0,1,0,0,0,0,0,0,0,0,0,0,0,0,0,0,0.79,347.11,2,0,0.06,0.06,225,13.33,0.08,0.06,16.32,FLYING,CF1-F,0:/Integrated Flight Computer/aircraft/cf1_f_cfg.ks (inferred preloaded)
16.64,APPROACH,FLY_TO_FIX,206.94,77,-129.94,1422.12,-1.2,0.34,1.81,189.29,69.215,0,0,-6.886,1,0.6,4.398,1.931,0.35,0.0168,0.4,272.67,0,0,0,-0.33,83.38,0,0,272.63,0,0,0,0,0,0,0,57.158,0,0,0,0,0,89.91,0,0,0,0,0,0,0,0,0,0,0,0,0,0,0,0,0,VALID,0,0,0,0,0,1,0,0,0,0,0,0,0,0,0,0,0,0,0,0,0.73,347.1,2,0,0.08,0.08,229,12.5,0.1,0.06,16.64,FLYING,CF1-F,0:/Integrated Flight Computer/aircraft/cf1_f_cfg.ks (inferred preloaded)
16.94,APPROACH,FLY_TO_FIX,206.42,77,-129.42,1421.76,-1.2,0.34,1.8,191.25,69.13,0,0,-6.749,1,0.6,4.398,1.925,0.35,0.0168,0.4,272.81,0,0,0,-0.33,81.56,0,0,272.78,0,0,0,0,0,0,0,57.149,0,0,0,0,0,89.91,0,0,0,0,0,0,0,0,0,0,0,0,0,0,0,0,0,VALID,0,0,0,0,0,1,0,0,0,0,0,0,0,0,0,0,0,0,0,0,0.68,347.09,2,0,0.06,0.06,233,13.33,0.1,0.06,16.94,FLYING,CF1-F,0:/Integrated Flight Computer/aircraft/cf1_f_cfg.ks (inferred preloaded)
17.24,APPROACH,FLY_TO_FIX,205.91,77,-128.91,1421.41,-1.2,0.34,1.81,193.2,69.018,0,0,-6.615,1,0.6,4.398,1.92,0.35,0.0168,0.4,272.95,0,0,0,-0.33,79.74,0,0,272.92,0,0,0,0,0,0,0,57.137,0,0,0,0,0,89.91,0,0,0,0,0,0,0,0,0,0,0,0,0,0,0,0,0,VALID,0,0,0,0,0,1,0,0,0,0,0,0,0,0,0,0,0,0,0,0,0.63,347.08,2,0,0.06,0.06,237,13.33,0.08,0.06,17.24,FLYING,CF1-F,0:/Integrated Flight Computer/aircraft/cf1_f_cfg.ks (inferred preloaded)
17.56,APPROACH,FLY_TO_FIX,205.37,77,-128.37,1421.02,-1.2,0.35,1.82,195.3,68.913,0,0,-6.484,1,0.6,4.398,1.914,0.35,0.0168,0.4,273.09,0,0,0,-0.33,77.8,0,0,273.06,0,0,0,0,0,0,0,57.122,0,0,0,0,0,89.91,0,0,0,0,0,0,0,0,0,0,0,0,0,0,0,0,0,VALID,0,0,0,0,0,1,0,0,0,0,0,0,0,0,0,0,0,0,0,0,0.58,347.07,2,0,0.08,0.08,241,12.5,0.1,0.06,17.56,FLYING,CF1-F,0:/Integrated Flight Computer/aircraft/cf1_f_cfg.ks (inferred preloaded)
17.84,APPROACH,FLY_TO_FIX,204.89,77,-127.89,1420.68,-1.2,0.36,1.83,197.12,68.818,0,0,-6.355,1,0.6,4.398,1.907,0.35,0.0168,0.4,273.22,0,0,0,-0.34,76.1,0,0,273.19,0,0,0,0,0,0,0,57.107,0,0,0,0,0,89.91,0,0,0,0,0,0,0,0,0,0,0,0,0,0,0,0,0,VALID,0,0,0,0,0,1,0,0,0,0,0,0,0,0,0,0,0,0,0,0,0.54,347.07,2,0,0.06,0.06,245,14.29,0.08,0.06,17.84,FLYING,CF1-F,0:/Integrated Flight Computer/aircraft/cf1_f_cfg.ks (inferred preloaded)
18.14,APPROACH,FLY_TO_FIX,204.39,77,-127.39,1420.32,-1.2,0.36,1.83,199.06,68.722,0,0,-6.229,1,0.6,4.398,1.901,0.35,0.0168,0.4,273.35,0,0,0,-0.34,74.29,0,0,273.33,0,0,0,0,0,0,0,57.089,0,0,0,0,0,89.91,0,0,0,0,0,0,0,0,0,0,0,0,0,0,0,0,0,VALID,0,0,0,0,0,1,0,0,0,0,0,0,0,0,0,0,0,0,0,0,0.5,347.06,2,0,0.06,0.06,249,13.33,0.08,0.06,18.14,FLYING,CF1-F,0:/Integrated Flight Computer/aircraft/cf1_f_cfg.ks (inferred preloaded)
18.46,APPROACH,FLY_TO_FIX,203.85,77,-126.85,1419.94,-1.21,0.36,1.84,201.13,68.612,0,0,-6.105,1,0.6,4.398,1.894,0.35,0.0168,0.4,273.5,0,0,0,-0.34,72.36,0,0,273.46,0,0,0,0,0,0,0,57.067,0,0,0,0,0,89.91,0,0,0,0,0,0,0,0,0,0,0,0,0,0,0,0,0,VALID,0,0,0,0,0,1,0,0,0,0,0,0,0,0,0,0,0,0,0,0,0.46,347.06,2,0,0.08,0.08,253,12.5,0.1,0.06,18.46,FLYING,CF1-F,0:/Integrated Flight Computer/aircraft/cf1_f_cfg.ks (inferred preloaded)
18.74,APPROACH,FLY_TO_FIX,203.38,77,-126.38,1419.6,-1.21,0.37,1.85,202.95,68.521,0,0,-5.984,1,0.6,4.398,1.887,0.35,0.0168,0.4,273.62,0,0,0,-0.34,70.67,0,0,273.59,0,0,0,0,0,0,0,57.046,0,0,0,0,0,89.91,0,0,0,0,0,0,0,0,0,0,0,0,0,0,0,0,0,VALID,0,0,0,0,0,1,0,0,0,0,0,0,0,0,0,0,0,0,0,0,0.43,347.05,2,0,0.06,0.06,257,14.29,0.08,0.06,18.74,FLYING,CF1-F,0:/Integrated Flight Computer/aircraft/cf1_f_cfg.ks (inferred preloaded)
19.04,APPROACH,FLY_TO_FIX,202.88,77,-125.88,1419.23,-1.22,0.37,1.84,204.86,68.406,0,0,-5.865,1,0.6,4.397,1.881,0.35,0.0168,0.4,273.75,0,0,0,-0.34,68.89,0,0,273.72,0,0,0,0,0,0,0,57.022,0,0,0,0,0,89.91,0,0,0,0,0,0,0,0,0,0,0,0,0,0,0,0,0,VALID,0,0,0,0,0,1,0,0,0,0,0,0,0,0,0,0,0,0,0,0,0.4,347.05,2,0,0.06,0.06,261,13.33,0.08,0.06,19.04,FLYING,CF1-F,0:/Integrated Flight Computer/aircraft/cf1_f_cfg.ks (inferred preloaded)
19.36,APPROACH,FLY_TO_FIX,202.35,77,-125.35,1418.85,-1.21,0.37,1.86,206.93,68.298,0,0,-5.749,1,0.6,4.397,1.873,0.35,0.0168,0.4,273.89,0,0,0,-0.34,66.96,0,0,273.85,0,0,0,0,0,0,0,56.994,0,0,0,0,0,89.91,0,0,0,0,0,0,0,0,0,0,0,0,0,0,0,0,0,VALID,0,0,0,0,0,1,0,0,0,0,0,0,0,0,0,0,0,0,0,0,0.37,347.05,2,0,0.08,0.08,265,12.5,0.1,0.06,19.36,FLYING,CF1-F,0:/Integrated Flight Computer/aircraft/cf1_f_cfg.ks (inferred preloaded)
19.66,APPROACH,FLY_TO_FIX,201.85,77,-124.85,1418.48,-1.22,0.37,1.85,208.83,68.188,0,0,-5.635,1,0.6,4.397,1.866,0.35,0.0168,0.4,274.01,0,0,0,-0.35,65.18,0,0,273.99,0,0,0,0,0,0,0,56.966,0,0,0,0,0,89.91,0,0,0,0,0,0,0,0,0,0,0,0,0,0,0,0,0,VALID,0,0,0,0,0,1,0,0,0,0,0,0,0,0,0,0,0,0,0,0,0.34,347.05,2,0,0.06,0.06,269,13.33,0.1,0.06,19.66,FLYING,CF1-F,0:/Integrated Flight Computer/aircraft/cf1_f_cfg.ks (inferred preloaded)
19.96,APPROACH,FLY_TO_FIX,201.36,77,-124.36,1418.12,-1.21,0.39,1.88,210.77,68.094,0,0,-5.523,1,0.6,4.397,1.859,0.35,0.0168,0.4,274.14,0,0,0,-0.35,63.37,0,0,274.12,0,0,0,0,0,0,0,56.936,0,0,0,0,0,89.91,0,0,0,0,0,0,0,0,0,0,0,0,0,0,0,0,0,VALID,0,0,0,0,0,1,0,0,0,0,0,0,0,0,0,0,0,0,0,0,0.32,347.05,2,0,0.06,0.06,273,13.33,0.08,0.06,19.96,FLYING,CF1-F,0:/Integrated Flight Computer/aircraft/cf1_f_cfg.ks (inferred preloaded)
20.28,APPROACH,FLY_TO_FIX,200.83,77,-123.83,1417.73,-1.22,0.39,1.88,212.81,67.99,0,0,-5.413,1,0.6,4.397,1.852,0.35,0.0168,0.4,274.27,0,0,0,-0.35,61.46,0,0,274.24,0,0,0,0,0,0,0,56.902,0,0,0,0,0,89.91,0,0,0,0,0,0,0,0,0,0,0,0,0,0,0,0,0,VALID,0,0,0,0,0,1,0,0,0,0,0,0,0,0,0,0,0,0,0,0,0.29,347.05,2,0,0.08,0.08,277,12.5,0.1,0.06,20.28,FLYING,CF1-F,0:/Integrated Flight Computer/aircraft/cf1_f_cfg.ks (inferred preloaded)
20.56,APPROACH,FLY_TO_FIX,200.38,77,-123.38,1417.39,-1.22,0.39,1.89,214.59,67.903,0,0,-5.306,1,0.6,4.397,1.845,0.35,0.0168,0.4,274.38,0,0,0,-0.35,59.79,0,0,274.36,0,0,0,0,0,0,0,56.87,0,0,0,0,0,89.91,0,0,0,0,0,0,0,0,0,0,0,0,0,0,0,0,0,VALID,0,0,0,0,0,1,0,0,0,0,0,0,0,0,0,0,0,0,0,0,0.27,347.06,2,0,0.06,0.06,281,14.29,0.08,0.06,20.56,FLYING,CF1-F,0:/Integrated Flight Computer/aircraft/cf1_f_cfg.ks (inferred preloaded)
20.86,APPROACH,FLY_TO_FIX,199.88,77,-122.88,1417.02,-1.21,0.4,1.9,216.51,67.826,0,0,-5.2,1,0.6,4.397,1.838,0.35,0.0168,0.4,274.5,0,0,0,-0.35,57.99,0,0,274.48,0,0,0,0,0,0,0,56.835,0,0,0,0,0,89.91,0,0,0,0,0,0,0,0,0,0,0,0,0,0,0,0,0,VALID,0,0,0,0,0,1,0,0,0,0,0,0,0,0,0,0,0,0,0,0,0.25,347.06,2,0,0.06,0.06,285,13.33,0.08,0.06,20.86,FLYING,CF1-F,0:/Integrated Flight Computer/aircraft/cf1_f_cfg.ks (inferred preloaded)
21.18,APPROACH,FLY_TO_FIX,199.36,77,-122.36,1416.63,-1.21,0.4,1.9,218.52,67.715,0,0,-5.097,1,0.6,4.397,1.832,0.35,0.0168,0.4,274.63,0,0,0,-0.35,56.11,0,0,274.6,0,0,0,0,0,0,0,56.795,0,0,0,0,0,89.91,0,0,0,0,0,0,0,0,0,0,0,0,0,0,0,0,0,VALID,0,0,0,0,0,1,0,0,0,0,0,0,0,0,0,0,0,0,0,0,0.24,347.07,2,0,0.08,0.08,289,12.5,0.1,0.06,21.18,FLYING,CF1-F,0:/Integrated Flight Computer/aircraft/cf1_f_cfg.ks (inferred preloaded)
21.46,APPROACH,FLY_TO_FIX,198.91,77,-121.91,1416.29,-1.22,0.41,1.91,220.3,67.61,0,0,-4.996,1,0.6,4.397,1.825,0.35,0.0168,0.4,274.74,0,0,0,-0.35,54.44,0,0,274.71,0,0,0,0,0,0,0,56.759,0,0,0,0,0,89.91,0,0,0,0,0,0,0,0,0,0,0,0,0,0,0,0,0,VALID,0,0,0,0,0,1,0,0,0,0,0,0,0,0,0,0,0,0,0,0,0.22,347.08,2,0,0.06,0.06,293,14.29,0.08,0.06,21.46,FLYING,CF1-F,0:/Integrated Flight Computer/aircraft/cf1_f_cfg.ks (inferred preloaded)
21.76,APPROACH,FLY_TO_FIX,198.43,77,-121.43,1415.93,-1.21,0.41,1.92,222.2,67.523,0,0,-4.897,1,0.6,4.398,1.818,0.35,0.0168,0.4,274.85,0,0,0,-0.35,52.65,0,0,274.82,0,0,0,0,0,0,0,56.719,0,0,0,0,0,89.91,0,0,0,0,0,0,0,0,0,0,0,0,0,0,0,0,0,VALID,0,0,0,0,0,1,0,0,0,0,0,0,0,0,0,0,0,0,0,0,0.2,347.09,2,0,0.06,0.06,297,13.33,0.08,0.06,21.76,FLYING,CF1-F,0:/Integrated Flight Computer/aircraft/cf1_f_cfg.ks (inferred preloaded)
22.08,APPROACH,FLY_TO_FIX,197.92,77,-120.92,1415.54,-1.22,0.41,1.92,224.2,67.404,0,0,-4.8,1,0.6,4.398,1.811,0.35,0.0168,0.4,274.96,0,0,0,-0.35,50.76,0,0,274.94,0,0,0,0,0,0,0,56.674,0,0,0,0,0,89.91,0,0,0,0,0,0,0,0,0,0,0,0,0,0,0,0,0,VALID,0,0,0,0,0,1,0,0,0,0,0,0,0,0,0,0,0,0,0,0,0.19,347.1,2,0,0.08,0.08,301,12.5,0.1,0.06,22.08,FLYING,CF1-F,0:/Integrated Flight Computer/aircraft/cf1_f_cfg.ks (inferred preloaded)
22.38,APPROACH,FLY_TO_FIX,197.44,77,-120.44,1415.18,-1.22,0.42,1.94,226.1,67.316,0,0,-4.704,1,0.6,4.398,1.804,0.35,0.0168,0.4,275.07,0,0,0,-0.35,48.97,0,0,275.05,0,0,0,0,0,0,0,56.631,0,0,0,0,0,89.91,0,0,0,0,0,0,0,0,0,0,0,0,0,0,0,0,0,VALID,0,0,0,0,0,1,0,0,0,0,0,0,0,0,0,0,0,0,0,0,0.17,347.11,2,0,0.06,0.06,305,13.33,0.1,0.06,22.38,FLYING,CF1-F,0:/Integrated Flight Computer/aircraft/cf1_f_cfg.ks (inferred preloaded)
22.68,APPROACH,FLY_TO_FIX,196.95,77,-119.95,1414.81,-1.21,0.43,1.94,227.98,67.236,0,0,-4.611,1,0.6,4.398,1.798,0.35,0.0168,0.4,275.17,0,0,0,-0.35,47.2,0,0,275.15,0,0,0,0,0,0,0,56.586,0,0,0,0,0,89.91,0,0,0,0,0,0,0,0,0,0,0,0,0,0,0,0,0,VALID,0,0,0,0,0,1,0,0,0,0,0,0,0,0,0,0,0,0,0,0,0.16,347.12,2,0,0.06,0.06,309,13.33,0.08,0.06,22.68,FLYING,CF1-F,0:/Integrated Flight Computer/aircraft/cf1_f_cfg.ks (inferred preloaded)
23,APPROACH,FLY_TO_FIX,196.45,77,-119.45,1414.42,-1.21,0.43,1.96,229.99,67.127,0,0,-4.519,1,0.6,4.398,1.792,0.35,0.0168,0.4,275.28,0,0,0,-0.35,45.3,0,0,275.26,0,0,0,0,0,0,0,56.537,0,0,0,0,0,89.91,0,0,0,0,0,0,0,0,0,0,0,0,0,0,0,0,0,VALID,0,0,0,0,0,1,0,0,0,0,0,0,0,0,0,0,0,0,0,0,0.15,347.13,2,0,0.08,0.08,313,12.5,0.1,0.06,23,FLYING,CF1-F,0:/Integrated Flight Computer/aircraft/cf1_f_cfg.ks (inferred preloaded)
23.28,APPROACH,FLY_TO_FIX,196,77,-119,1414.08,-1.21,0.43,1.95,231.72,67.037,0,0,-4.43,1,0.6,4.398,1.785,0.35,0.0168,0.4,275.37,0.004,0,0,-0.35,43.65,0,0,275.35,0,0,0,0,0,0,0,56.493,0,0,0,0,0,89.91,0,0,0,0,0,0,0,0,0,0,0,0,0,0,0,0,0,VALID,0,0,0,0,0,1,0,0,0,0,0,0,0,0,0,0,0,0,0,0,0.14,347.14,2,0,0.06,0.06,317,14.29,0.08,0.06,23.28,FLYING,CF1-F,0:/Integrated Flight Computer/aircraft/cf1_f_cfg.ks (inferred preloaded)
23.58,APPROACH,FLY_TO_FIX,195.53,77,-118.53,1413.72,-1.22,0.44,1.96,233.59,66.929,0,0,-4.342,1,0.6,4.398,1.779,0.35,0.0168,0.4,275.47,0.006,0,0,-0.36,41.88,0,0.01,275.45,0,0,0,0,0,0,0,56.444,0,0,0,0,0,89.91,0,0,0,0,0,0,0,0,0,0,0,0,0,0,0,0,0,VALID,0,0,0,0,0,1,0,0,0,0,0,0,0,0,0,0,0,0,0,0,0.13,347.16,2,0,0.06,0.06,321,13.33,0.08,0.06,23.58,FLYING,CF1-F,0:/Integrated Flight Computer/aircraft/cf1_f_cfg.ks (inferred preloaded)
23.88,APPROACH,FLY_TO_FIX,195.06,77,-118.06,1413.35,-1.22,0.44,1.95,235.44,66.812,0,0,-4.256,1,0.6,4.398,1.772,0.35,0.0168,0.4,275.56,0.009,0,0,-0.36,40.12,0,0.01,275.54,0,0,0,0,0,0,0,56.395,0,0,0,0,0,89.91,0,0,0,0,0,0,0,0,0,0,0,0,0,0,0,0,0,VALID,0,0,0,0,0,1,0,0,0,0,0,0,0,0,0,0,0,0,0,0,0.12,347.18,2,0,0.06,0.06,325,13.33,0.1,0.06,23.88,FLYING,CF1-F,0:/Integrated Flight Computer/aircraft/cf1_f_cfg.ks (inferred preloaded)
24.16,APPROACH,FLY_TO_FIX,194.62,77,-117.62,1413.01,-1.22,0.45,1.98,237.19,66.705,0,0,-4.171,1,0.6,4.399,1.765,0.35,0.0168,0.4,275.64,0.012,0,0,-0.36,38.46,0,0.01,275.63,0,0,0,0,0,0,0,56.347,0,0,0,0,0,89.91,0,0,0,0,0,0,0,0,0,0,0,0,0,0,0,0,0,VALID,0,0,0,0,0,1,0,0,0,0,0,0,0,0,0,0,0,0,0,0,0.11,347.19,2,0,0.06,0.06,329,14.29,0.08,0.06,24.16,FLYING,CF1-F,0:/Integrated Flight Computer/aircraft/cf1_f_cfg.ks (inferred preloaded)
24.44,APPROACH,FLY_TO_FIX,194.19,77,-117.19,1412.67,-1.22,0.45,1.97,238.91,66.61,0,0,-4.088,1,0.6,4.399,1.758,0.35,0.0168,0.4,275.72,0.012,0,0,-0.36,36.81,0,0.01,275.71,0,0,0,0,0,0,0,56.299,0,0,0,0,0,89.91,0,0,0,0,0,0,0,0,0,0,0,0,0,0,0,0,0,VALID,0,0,0,0,0,1,0,0,0,0,0,0,0,0,0,0,0,0,0,0,0.1,347.21,2,0,0.06,0.06,333,14.29,0.08,0.06,24.44,FLYING,CF1-F,0:/Integrated Flight Computer/aircraft/cf1_f_cfg.ks (inferred preloaded)
24.72,APPROACH,FLY_TO_FIX,193.75,77,-116.75,1412.33,-1.22,0.46,1.98,240.64,66.506,0,0,-4.007,1,0.6,4.399,1.751,0.35,0.0168,0.4,275.8,0.015,0,0,-0.36,35.17,0,0.02,275.79,0,0,0,0,0,0,0,56.25,0,0,0,0,0,89.91,0,0,0,0,0,0,0,0,0,0,0,0,0,0,0,0,0,VALID,0,0,0,0,0,1,0,0,0,0,0,0,0,0,0,0,0,0,0,0,0.1,347.23,2,0,0.06,0.06,337,14.29,0.08,0.06,24.72,FLYING,CF1-F,0:/Integrated Flight Computer/aircraft/cf1_f_cfg.ks (inferred preloaded)
25,APPROACH,FLY_TO_FIX,193.32,77,-116.32,1411.99,-1.21,0.46,1.99,242.36,66.417,0,0,-3.928,1,0.6,4.399,1.744,0.35,0.0168,0.4,275.88,0.014,0,0,-0.36,33.51,0,0.02,275.86,0,0,0,0,0,0,0,56.2,0,0,0,0,0,89.91,0,0,0,0,0,0,0,0,0,0,0,0,0,0,0,0,0,VALID,0,0,0,0,0,1,0,0,0,0,0,0,0,0,0,0,0,0,0,0,0.09,347.26,2,0,0.06,0.06,341,14.29,0.08,0.06,25,FLYING,CF1-F,0:/Integrated Flight Computer/aircraft/cf1_f_cfg.ks (inferred preloaded)
25.28,APPROACH,FLY_TO_FIX,192.89,77,-115.89,1411.65,-1.21,0.47,1.99,244.08,66.324,0,0,-3.85,1,0.6,4.399,1.738,0.35,0.0168,0.4,275.95,0.015,0,0,-0.36,31.87,0,0.02,275.93,0,0,0,0,0,0,0,56.149,0,0,0,0,0,89.91,0,0,0,0,0,0,0,0,0,0,0,0,0,0,0,0,0,VALID,0,0,0,0,0,1,0,0,0,0,0,0,0,0,0,0,0,0,0,0,0.08,347.28,2,0,0.06,0.06,345,14.29,0.08,0.06,25.28,FLYING,CF1-F,0:/Integrated Flight Computer/aircraft/cf1_f_cfg.ks (inferred preloaded)
25.56,APPROACH,FLY_TO_FIX,192.46,77,-115.46,1411.31,-1.21,0.48,2.01,245.8,66.232,0,0,-3.773,1,0.6,4.4,1.732,0.35,0.0168,0.4,276.02,0.017,0,0,-0.36,30.21,0,0.02,276,0,0,0,0,0,0,0,56.098,0,0,0,0,0,89.91,0,0,0,0,0,0,0,0,0,0,0,0,0,0,0,0,0,VALID,0,0,0,0,0,1,0,0,0,0,0,0,0,0,0,0,0,0,0,0,0.08,347.31,2,0,0.06,0.06,349,14.29,0.08,0.06,25.56,FLYING,CF1-F,0:/Integrated Flight Computer/aircraft/cf1_f_cfg.ks (inferred preloaded)
25.84,APPROACH,FLY_TO_FIX,192.03,77,-115.03,1410.97,-1.2,0.48,2.01,247.51,66.147,0,0,-3.698,1,0.6,4.4,1.726,0.35,0.0168,0.4,276.08,0.016,0,0,-0.36,28.57,0,0.02,276.07,0,0,0,0,0,0,0,56.045,0,0,0,0,0,89.91,0,0,0,0,0,0,0,0,0,0,0,0,0,0,0,0,0,VALID,0,0,0,0,0,1,0,0,0,0,0,0,0,0,0,0,0,0,0,0,0.07,347.34,2,0,0.06,0.06,353,14.29,0.08,0.06,25.84,FLYING,CF1-F,0:/Integrated Flight Computer/aircraft/cf1_f_cfg.ks (inferred preloaded)
26.12,APPROACH,FLY_TO_FIX,191.6,77,-114.6,1410.63,-1.2,0.48,2.01,249.21,66.048,0,0,-3.625,1,0.6,4.4,1.72,0.35,0.0168,0.4,276.14,0.018,0,0,-0.36,26.93,0,0.02,276.13,0,0,0,0,0,0,0,55.993,0,0,0,0,0,89.91,0,0,0,0,0,0,0,0,0,0,0,0,0,0,0,0,0,VALID,0,0,0,0,0,1,0,0,0,0,0,0,0,0,0,0,0,0,0,0,0.07,347.37,2,0,0.06,0.06,357,14.29,0.08,0.06,26.12,FLYING,CF1-F,0:/Integrated Flight Computer/aircraft/cf1_f_cfg.ks (inferred preloaded)
26.4,APPROACH,FLY_TO_FIX,191.18,77,-114.18,1410.27,-1.24,0.37,1.72,250.62,65.783,0,0,-3.553,1,0.6,4.401,1.713,0.35,0.0168,0.4,276.2,0.029,0,0,-0.37,25.59,0,0.02,276.19,0,0,0,0,0,0,0,55.939,0,0,0,0,0,89.91,0,0,0,0,0,0,0,0,0,0,0,0,0,0,0,0,0,VALID,0,0,0,0,0,1,0,0,0,0,0,0,0,0,0,0,0,0,0,0,0.06,347.4,2,0,0.06,0.06,361,14.29,0.08,0.06,26.4,FLYING,CF1-F,0:/Integrated Flight Computer/aircraft/cf1_f_cfg.ks (inferred preloaded)
26.68,APPROACH,FLY_TO_FIX,190.8,77,-113.8,1409.88,-1.43,0.29,1.56,252.01,65.059,0,0,-3.482,1,0.6,4.401,1.696,0.35,0.0168,0.4,276.26,0.086,0,0,-0.43,24.25,0,0.07,276.25,0,0,0,0,0,0,0,55.886,0,0,0,0,0,89.91,0,0,0,0,0,0,0,0,0,0,0,0,0,0,0,0,0,VALID,0,0,0,0,0,1,0,0,0,0,0,0,0,0,0,0,0,0,0,0,0.06,347.43,2,0,0.06,0.06,365,14.29,0.08,0.06,26.68,FLYING,CF1-F,0:/Integrated Flight Computer/aircraft/cf1_f_cfg.ks (inferred preloaded)
26.96,APPROACH,FLY_TO_FIX,190.43,77,-113.43,1409.43,-1.63,0.23,1.38,253.31,63.422,0,0,-3.413,1,0.6,4.401,1.668,0.35,0.0168,0.4,276.31,0.149,0,0,-0.49,23.01,0,0.14,276.3,0,0,0,0,0,0,0,55.832,0,0,0,0,0,89.91,0,0,0,0,0,0,0,0,0,0,0,0,0,0,0,0,0,VALID,0,0,0,0,0,1,0,0,0,0,0,0,0,0,0,0,0,0,0,0,0.06,347.47,2,0,0.06,0.06,369,14.29,0.08,0.06,26.96,FLYING,CF1-F,0:/Integrated Flight Computer/aircraft/cf1_f_cfg.ks (inferred preloaded)
27.24,APPROACH,FLY_TO_FIX,190.08,77,-113.08,1408.94,-1.72,0.19,1.24,254.56,61.856,0,0,-3.346,1,0.6,4.402,1.636,0.35,0.0168,0.4,276.36,0.178,0,0,-0.52,21.81,0,0.17,276.35,0,0,0,0,0,0,0,55.777,0,0,0,0,0,89.91,0,0,0,0,0,0,0,0,0,0,0,0,0,0,0,0,0,VALID,0,0,0,0,0,1,0,0,0,0,0,0,0,0,0,0,0,0,0,0,0.05,347.51,2,0,0.06,0.06,373,14.29,0.08,0.06,27.24,FLYING,CF1-F,0:/Integrated Flight Computer/aircraft/cf1_f_cfg.ks (inferred preloaded)
27.52,APPROACH,FLY_TO_FIX,189.76,77,-112.76,1408.43,-1.84,0.12,1.09,255.74,60.243,0,0,-3.279,1,0.6,4.402,1.592,0.35,0.0168,0.4,276.41,0.217,0,0,-0.55,20.67,0,0.21,276.4,0,0,0,0,0,0,0,55.722,0,0,0,0,0,89.91,0,0,0,0,0,0,0,0,0,0,0,0,0,0,0,0,0,VALID,0,0,0,0,0,1,0,0,0,0,0,0,0,0,0,0,0,0,0,0,0.05,347.55,2,0,0.06,0.06,377,14.29,0.08,0.06,27.52,FLYING,CF1-F,0:/Integrated Flight Computer/aircraft/cf1_f_cfg.ks (inferred preloaded)
27.8,APPROACH,FLY_TO_FIX,189.45,77,-112.45,1407.89,-1.87,0.06,0.94,256.86,58.685,0,0,-3.214,1,0.6,4.403,1.546,0.35,0.0168,0.4,276.46,0.23,0,0,-0.56,19.6,0,0.23,276.45,0,0,0,0,0,0,0,55.667,0,0,0,0,0,89.91,0,0,0,0,0,0,0,0,0,0,0,0,0,0,0,0,0,VALID,0,0,0,0,0,1,0,0,0,0,0,0,0,0,0,0,0,0,0,0,0.04,347.59,2,0,0.06,0.06,381,14.29,0.08,0.06,27.8,FLYING,CF1-F,0:/Integrated Flight Computer/aircraft/cf1_f_cfg.ks (inferred preloaded)
28.08,APPROACH,FLY_TO_FIX,189.15,77,-112.15,1407.33,-1.94,0.01,0.81,257.92,56.735,0,0,-3.15,1,0.6,4.403,1.495,0.35,0.0168,0.4,276.5,0.256,0,0,-0.59,18.58,0,0.25,276.49,0,0,0,0,0,0,0,55.612,0,0,0,0,0,89.91,0,0,0,0,0,0,0,0,0,0,0,0,0,0,0,0,0,VALID,0,0,0,0,0,1,0,0,0,0,0,0,0,0,0,0,0,0,0,0,0.04,347.63,2,0,0.06,0.06,385,14.29,0.08,0.06,28.08,FLYING,CF1-F,0:/Integrated Flight Computer/aircraft/cf1_f_cfg.ks (inferred preloaded)
28.36,APPROACH,FLY_TO_FIX,188.89,77,-111.89,1406.77,-1.96,-0.07,0.67,258.93,55.404,0,0,-3.088,1,0.6,4.404,1.441,0.35,0.0168,0.4,276.54,0.261,0,0,-0.59,17.61,0,0.26,276.53,0,0,0,0,0,0,0,55.556,0,0,0,0,0,89.91,0,0,0,0,0,0,0,0,0,0,0,0,0,0,0,0,0,VALID,0,0,0,0,0,1,0,0,0,0,0,0,0,0,0,0,0,0,0,0,0.04,347.67,2,0,0.06,0.06,389,14.29,0.08,0.06,28.36,FLYING,CF1-F,0:/Integrated Flight Computer/aircraft/cf1_f_cfg.ks (inferred preloaded)
28.64,APPROACH,FLY_TO_FIX,188.61,77,-111.61,1406.2,-1.98,-0.1,0.56,259.87,53.231,0,0,-3.026,1,0.6,4.404,1.389,0.35,0.0168,0.4,276.58,0.273,0,0,-0.6,16.7,0,0.28,276.57,0,0,0,0,0,0,0,55.501,0,0,0,0,0,89.91,0,0,0,0,0,0,0,0,0,0,0,0,0,0,0,0,0,VALID,0,0,0,0,0,1,0,0,0,0,0,0,0,0,0,0,0,0,0,0,0.04,347.71,2,0,0.06,0.06,393,14.29,0.08,0.06,28.64,FLYING,CF1-F,0:/Integrated Flight Computer/aircraft/cf1_f_cfg.ks (inferred preloaded)
28.92,APPROACH,FLY_TO_FIX,188.37,77,-111.37,1405.62,-1.99,-0.18,0.44,260.79,51.888,0,0,-2.966,1,0.6,4.405,1.335,0.35,0.0168,0.4,276.61,0.277,0,0,-0.6,15.83,0,0.27,276.61,0,0,0,0,0,0,0,55.445,0,0,0,0,0,89.91,0,0,0,0,0,0,0,0,0,0,0,0,0,0,0,0,0,VALID,0,0,0,0,0,1,0,0,0,0,0,0,0,0,0,0,0,0,0,0,0,347.75,2,0,0.06,0.06,397,14.29,0.08,0.06,28.92,FLYING,CF1-F,0:/Integrated Flight Computer/aircraft/cf1_f_cfg.ks (inferred preloaded)
29.2,APPROACH,FLY_TO_FIX,188.12,77,-111.12,1405.05,-1.97,-0.21,0.35,261.64,49.814,0,0,-2.907,1,0.6,4.405,1.285,0.35,0.0168,0.4,276.65,0.275,0,0,-0.6,15.01,0,0.28,276.64,0,0,0,0,0,0,0,55.389,0,0,0,0,0,89.91,0,0,0,0,0,0,0,0,0,0,0,0,0,0,0,0,0,VALID,0,0,0,0,0,1,0,0,0,0,0,0,0,0,0,0,0,0,0,0,0,347.79,2,0,0.06,0.06,401,14.29,0.08,0.06,29.2,FLYING,CF1-F,0:/Integrated Flight Computer/aircraft/cf1_f_cfg.ks (inferred preloaded)
29.48,APPROACH,FLY_TO_FIX,187.89,77,-110.89,1404.48,-1.97,-0.28,0.25,262.46,48.246,0,0,-2.85,1,0.6,4.406,1.234,0.35,0.0168,0.4,276.68,0.278,0,0,-0.6,14.22,0,0.28,276.67,0,0,0,0,0,0,0,55.333,0,0,0,0,0,89.91,0,0,0,0,0,0,0,0,0,0,0,0,0,0,0,0,0,VALID,0,0,0,0,0,1,0,0,0,0,0,0,0,0,0,0,0,0,0,0,0,347.83,2,0,0.06,0.06,405,14.29,0.08,0.06,29.48,FLYING,CF1-F,0:/Integrated Flight Computer/aircraft/cf1_f_cfg.ks (inferred preloaded)
29.76,APPROACH,FLY_TO_FIX,187.66,77,-110.66,1403.92,-1.92,-0.32,0.17,263.24,46.542,0,0,-2.793,1,0.6,4.406,1.189,0.35,0.0168,0.4,276.71,0.268,0,0,-0.59,13.47,0,0.27,276.7,0,0,0,0,0,0,0,55.277,0,0,0,0,0,89.91,0,0,0,0,0,0,0,0,0,0,0,0,0,0,0,0,0,VALID,0,0,0,0,0,1,0,0,0,0,0,0,0,0,0,0,0,0,0,0,0,347.88,2,0,0.06,0.06,409,14.29,0.08,0.06,29.76,FLYING,CF1-F,0:/Integrated Flight Computer/aircraft/cf1_f_cfg.ks (inferred preloaded)
30.04,APPROACH,FLY_TO_FIX,187.43,77,-110.43,1403.37,-1.92,-0.37,0.09,263.97,44.552,0,0,-2.738,1,0.6,4.407,1.145,0.35,0.0168,0.4,276.74,0.268,0,0,-0.59,12.77,0,0.27,276.73,0,0,0,0,0,0,0,55.221,0,0,0,0,0,89.91,0,0,0,0,0,0,0,0,0,0,0,0,0,0,0,0,0,VALID,0,0,0,0,0,1,0,0,0,0,0,0,0,0,0,0,0,0,0,0,0,347.92,2,0,0.06,0.06,413,14.29,0.08,0.06,30.04,FLYING,CF1-F,0:/Integrated Flight Computer/aircraft/cf1_f_cfg.ks (inferred preloaded)
30.32,APPROACH,FLY_TO_FIX,187.22,77,-110.22,1402.83,-1.86,-0.42,0.01,264.68,43.161,0,0,-2.683,1,0.6,4.407,1.105,0.35,0.0168,0.4,276.77,0.255,0,0,-0.57,12.08,0,0.26,276.76,0,0,0,0,0,0,0,55.165,0,0,0,0,0,89.91,0,0,0,0,0,0,0,0,0,0,0,0,0,0,0,0,0,VALID,0,0,0,0,0,1,0,0,0,0,0,0,0,0,0,0,0,0,0,0,0,347.96,2,0,0.06,0.06,417,14.29,0.08,0.06,30.32,FLYING,CF1-F,0:/Integrated Flight Computer/aircraft/cf1_f_cfg.ks (inferred preloaded)
30.6,APPROACH,FLY_TO_FIX,186.99,77,-109.99,1402.29,-1.83,-0.45,-0.05,265.34,41.018,0,0,-2.63,1,0.6,4.408,1.07,0.35,0.0168,0.4,276.79,0.25,0,0,-0.56,11.46,0,0.25,276.79,0,0,0,0,0,0,0,55.109,0,0,0,0,0,89.91,0,0,0,0,0,0,0,0,0,0,0,0,0,0,0,0,0,VALID,0,0,0,0,0,1,0,0,0,0,0,0,0,0,0,0,0,0,0,0,0,348,2,0,0.06,0.06,421,14.29,0.08,0.06,30.6,FLYING,CF1-F,0:/Integrated Flight Computer/aircraft/cf1_f_cfg.ks (inferred preloaded)
30.88,APPROACH,FLY_TO_FIX,186.8,77,-109.8,1401.77,-1.79,-0.51,-0.11,265.98,39.789,0,0,-2.578,1,0.6,4.408,1.034,0.35,0.0168,0.4,276.82,0.238,0,0,-0.55,10.83,0,0.24,276.81,0,0,0,0,0,0,0,55.053,0,0,0,0,0,89.91,0,0,0,0,0,0,0,0,0,0,0,0,0,0,0,0,0,VALID,0,0,0,0,0,1,0,0,0,0,0,0,0,0,0,0,0,0,0,0,0,348.04,2,0,0.06,0.06,425,14.29,0.08,0.06,30.88,FLYING,CF1-F,0:/Integrated Flight Computer/aircraft/cf1_f_cfg.ks (inferred preloaded)
31.16,APPROACH,FLY_TO_FIX,186.58,77,-109.58,1401.27,-1.74,-0.53,-0.16,266.57,37.72,0,0,-2.527,1,0.6,4.409,1.005,0.35,0.0168,0.4,276.84,0.227,0,0,-0.54,10.27,0,0.23,276.83,0,0,0,0,0,0,0,54.996,0,0,0,0,0,89.91,0,0,0,0,0,0,0,0,0,0,0,0,0,0,0,0,0,VALID,0,0,0,0,0,1,0,0,0,0,0,0,0,0,0,0,0,0,0,0,0,348.08,2,0,0.06,0.06,429,14.29,0.08,0.06,31.16,FLYING,CF1-F,0:/Integrated Flight Computer/aircraft/cf1_f_cfg.ks (inferred preloaded)
31.44,APPROACH,FLY_TO_FIX,186.38,77,-109.38,1400.77,-1.7,-0.57,-0.22,267.16,36.425,0,0,-2.477,1,0.6,4.409,0.975,0.35,0.0168,0.4,276.86,0.216,0,0,-0.52,9.7,0,0.22,276.86,0,0,0,0,0,0,0,54.94,0,0,0,0,0,89.91,0,0,0,0,0,0,0,0,0,0,0,0,0,0,0,0,0,VALID,0,0,0,0,0,1,0,0,0,0,0,0,0,0,0,0,0,0,0,0,0,348.12,2,0,0.06,0.06,433,14.29,0.08,0.06,31.44,FLYING,CF1-F,0:/Integrated Flight Computer/aircraft/cf1_f_cfg.ks (inferred preloaded)
31.72,APPROACH,FLY_TO_FIX,186.17,77,-109.17,1400.3,-1.64,-0.6,-0.26,267.7,34.654,0,0,-2.427,1,0.6,4.41,0.951,0.35,0.0168,0.4,276.88,0.202,0,0,-0.51,9.18,0,0.21,276.88,0,0,0,0,0,0,0,54.884,0,0,0,0,0,89.91,0,0,0,0,0,0,0,0,0,0,0,0,0,0,0,0,0,VALID,0,0,0,0,0,1,0,0,0,0,0,0,0,0,0,0,0,0,0,0,0,348.16,2,0,0.06,0.06,437,14.29,0.08,0.06,31.72,FLYING,CF1-F,0:/Integrated Flight Computer/aircraft/cf1_f_cfg.ks (inferred preloaded)
32,APPROACH,FLY_TO_FIX,185.98,77,-108.98,1399.83,-1.6,-0.63,-0.3,268.22,33.278,0,0,-2.379,1,0.6,4.41,0.926,0.35,0.0168,0.4,276.9,0.193,0,0,-0.5,8.68,0,0.2,276.9,0,0,0,0,0,0,0,54.828,0,0,0,0,0,89.91,0,0,0,0,0,0,0,0,0,0,0,0,0,0,0,0,0,VALID,0,0,0,0,0,1,0,0,0,0,0,0,0,0,0,0,0,0,0,0,0,348.19,2,0,0.06,0.06,441,14.29,0.08,0.06,32,FLYING,CF1-F,0:/Integrated Flight Computer/aircraft/cf1_f_cfg.ks (inferred preloaded)
32.28,APPROACH,FLY_TO_FIX,185.78,77,-108.78,1399.38,-1.55,-0.66,-0.34,268.72,31.837,0,0,-2.332,1,0.6,4.411,0.905,0.35,0.0168,0.4,276.92,0.178,0,0,-0.48,8.2,0,0.18,276.92,0,0,0,0,0,0,0,54.772,0,0,0,0,0,89.91,0,0,0,0,0,0,0,0,0,0,0,0,0,0,0,0,0,VALID,0,0,0,0,0,1,0,0,0,0,0,0,0,0,0,0,0,0,0,0,0,348.23,2,0,0.06,0.06,445,14.29,0.08,0.06,32.28,FLYING,CF1-F,0:/Integrated Flight Computer/aircraft/cf1_f_cfg.ks (inferred preloaded)
32.56,APPROACH,FLY_TO_FIX,185.58,77,-108.58,1398.95,-1.51,-0.68,-0.37,269.18,30.202,0,0,-2.286,1,0.6,4.411,0.884,0.35,0.0168,0.4,276.94,0.17,0,0,-0.47,7.75,0,0.17,276.93,0,0,0,0,0,0,0,54.717,0,0,0,0,0,89.91,0,0,0,0,0,0,0,0,0,0,0,0,0,0,0,0,0,VALID,0,0,0,0,0,1,0,0,0,0,0,0,0,0,0,0,0,0,0,0,0,348.27,2,0,0.06,0.06,449,14.29,0.08,0.06,32.56,FLYING,CF1-F,0:/Integrated Flight Computer/aircraft/cf1_f_cfg.ks (inferred preloaded)
32.84,APPROACH,FLY_TO_FIX,185.39,77,-108.39,1398.52,-1.46,-0.71,-0.4,269.64,29.027,0,0,-2.24,1,0.6,4.412,0.867,0.35,0.0168,0.4,276.95,0.155,0,0,-0.45,7.31,0,0.16,276.95,0,0,0,0,0,0,0,54.661,0,0,0,0,0,89.91,0,0,0,0,0,0,0,0,0,0,0,0,0,0,0,0,0,VALID,0,0,0,0,0,1,0,0,0,0,0,0,0,0,0,0,0,0,0,0,0,348.31,2,0,0.06,0.06,453,14.29,0.08,0.06,32.84,FLYING,CF1-F,0:/Integrated Flight Computer/aircraft/cf1_f_cfg.ks (inferred preloaded)
33.12,APPROACH,FLY_TO_FIX,185.2,77,-108.2,1398.11,-1.42,-0.72,-0.43,270.06,27.579,0,0,-2.196,1,0.6,4.412,0.849,0.35,0.0168,0.4,276.97,0.145,0,0,-0.44,6.9,0,0.15,276.96,0,0,0,0,0,0,0,54.605,0,0,0,0,0,89.91,0,0,0,0,0,0,0,0,0,0,0,0,0,0,0,0,0,VALID,0,0,0,0,0,1,0,0,0,0,0,0,0,0,0,0,0,0,0,0,0,348.34,2,0,0.06,0.06,457,14.29,0.08,0.06,33.12,FLYING,CF1-F,0:/Integrated Flight Computer/aircraft/cf1_f_cfg.ks (inferred preloaded)
33.4,APPROACH,FLY_TO_FIX,185.02,77,-108.02,1397.71,-1.38,-0.74,-0.45,270.47,26.292,0,0,-2.152,1,0.6,4.413,0.833,0.35,0.0168,0.4,276.98,0.136,0,0,-0.43,6.51,0,0.14,276.98,0,0,0,0,0,0,0,54.549,0,0,0,0,0,89.91,0,0,0,0,0,0,0,0,0,0,0,0,0,0,0,0,0,VALID,0,0,0,0,0,1,0,0,0,0,0,0,0,0,0,0,0,0,0,0,0,348.38,2,0,0.06,0.06,461,14.29,0.08,0.06,33.4,FLYING,CF1-F,0:/Integrated Flight Computer/aircraft/cf1_f_cfg.ks (inferred preloaded)
33.68,APPROACH,FLY_TO_FIX,184.83,77,-107.83,1397.33,-1.33,-0.76,-0.47,270.86,25.113,0,0,-2.11,1,0.6,4.413,0.82,0.35,0.0168,0.4,277,0.124,0,0,-0.41,6.14,0,0.13,276.99,0,0,0,0,0,0,0,54.493,0,0,0,0,0,89.91,0,0,0,0,0,0,0,0,0,0,0,0,0,0,0,0,0,VALID,0,0,0,0,0,1,0,0,0,0,0,0,0,0,0,0,0,0,0,0,0,348.42,2,0,0.06,0.06,465,14.29,0.08,0.06,33.68,FLYING,CF1-F,0:/Integrated Flight Computer/aircraft/cf1_f_cfg.ks (inferred preloaded)
33.96,APPROACH,FLY_TO_FIX,184.65,77,-107.65,1396.96,-1.3,-0.77,-0.49,271.23,23.925,0,0,-2.068,1,0.6,4.414,0.806,0.35,0.0168,0.4,277.01,0.115,0,0,-0.4,5.78,0,0.12,277.01,0,0,0,0,0,0,0,54.438,0,0,0,0,0,89.91,0,0,0,0,0,0,0,0,0,0,0,0,0,0,0,0,0,VALID,0,0,0,0,0,1,0,0,0,0,0,0,0,0,0,0,0,0,0,0,0,348.45,2,0,0.06,0.06,469,14.29,0.08,0.06,33.96,FLYING,CF1-F,0:/Integrated Flight Computer/aircraft/cf1_f_cfg.ks (inferred preloaded)
34.24,APPROACH,FLY_TO_FIX,184.46,77,-107.46,1396.59,-1.26,-0.79,-0.51,271.58,22.737,0,0,-2.027,1,0.6,4.414,0.793,0.35,0.0168,0.4,277.02,0.106,0,0,-0.39,5.44,0,0.11,277.02,0,0,0,0,0,0,0,54.382,0,0,0,0,0,89.91,0,0,0,0,0,0,0,0,0,0,0,0,0,0,0,0,0,VALID,0,0,0,0,0,1,0,0,0,0,0,0,0,0,0,0,0,0,0,0,0,348.49,2,0,0.06,0.06,473,14.29,0.08,0.06,34.24,FLYING,CF1-F,0:/Integrated Flight Computer/aircraft/cf1_f_cfg.ks (inferred preloaded)
34.52,APPROACH,FLY_TO_FIX,184.28,77,-107.28,1396.24,-1.22,-0.8,-0.52,271.91,21.637,0,0,-1.986,1,0.6,4.415,0.782,0.35,0.0168,0.4,277.03,0.096,0,0,-0.38,5.12,0,0.1,277.03,0,0,0,0,0,0,0,54.327,0,0,0,0,0,89.91,0,0,0,0,0,0,0,0,0,0,0,0,0,0,0,0,0,VALID,0,0,0,0,0,1,0,0,0,0,0,0,0,0,0,0,0,0,0,0,0,348.52,2,0,0.06,0.06,477,14.29,0.08,0.06,34.52,FLYING,CF1-F,0:/Integrated Flight Computer/aircraft/cf1_f_cfg.ks (inferred preloaded)
34.8,APPROACH,FLY_TO_FIX,184.1,77,-107.1,1395.9,-1.19,-0.81,-0.54,272.24,20.628,0,0,-1.947,1,0.6,4.415,0.771,0.35,0.0168,0.4,277.04,0.087,0,0,-0.37,4.81,0,0.09,277.04,0,0,0,0,0,0,0,54.271,0,0,0,0,0,89.91,0,0,0,0,0,0,0,0,0,0,0,0,0,0,0,0,0,VALID,0,0,0,0,0,1,0,0,0,0,0,0,0,0,0,0,0,0,0,0,0,348.56,2,0,0.06,0.06,481,14.29,0.08,0.06,34.8,FLYING,CF1-F,0:/Integrated Flight Computer/aircraft/cf1_f_cfg.ks (inferred preloaded)
35.08,APPROACH,FLY_TO_FIX,183.93,77,-106.93,1395.57,-1.15,-0.82,-0.55,272.53,19.535,0,0,-1.908,1,0.6,4.416,0.761,0.35,0.0168,0.4,277.05,0.079,0,0,-0.36,4.52,0,0.08,277.05,0,0,0,0,0,0,0,54.216,0,0,0,0,0,89.91,0,0,0,0,0,0,0,0,0,0,0,0,0,0,0,0,0,VALID,0,0,0,0,0,1,0,0,0,0,0,0,0,0,0,0,0,0,0,0,0,348.59,2,0,0.06,0.06,485,14.29,0.08,0.06,35.08,FLYING,CF1-F,0:/Integrated Flight Computer/aircraft/cf1_f_cfg.ks (inferred preloaded)
35.36,APPROACH,FLY_TO_FIX,183.75,77,-106.75,1395.25,-1.12,-0.82,-0.56,272.82,18.519,0,0,-1.87,1,0.6,4.416,0.753,0.35,0.0168,0.4,277.06,0.071,0,0,-0.35,4.24,0,0.07,277.06,0,0,0,0,0,0,0,54.16,0,0,0,0,0,89.91,0,0,0,0,0,0,0,0,0,0,0,0,0,0,0,0,0,VALID,0,0,0,0,0,1,0,0,0,0,0,0,0,0,0,0,0,0,0,0,0,348.63,2,0,0.06,0.06,489,14.29,0.08,0.06,35.36,FLYING,CF1-F,0:/Integrated Flight Computer/aircraft/cf1_f_cfg.ks (inferred preloaded)
35.64,APPROACH,FLY_TO_FIX,183.57,77,-106.57,1394.94,-1.09,-0.83,-0.57,273.09,17.519,0,0,-1.833,1,0.6,4.416,0.75,0.35,0.0168,0.4,277.07,0.063,0,0,-0.34,3.98,0,0.07,277.07,0,0,0,0,0,0,0,54.105,0,0,0,0,0,89.91,0,0,0,0,0,0,0,0,0,0,0,0,0,0,0,0,0,VALID,0,0,0,0,0,1,0,0,0,0,0,0,0,0,0,0,0,0,0,0,0,348.66,2,0,0.06,0.06,493,14.29,0.08,0.06,35.64,FLYING,CF1-F,0:/Integrated Flight Computer/aircraft/cf1_f_cfg.ks (inferred preloaded)
35.92,APPROACH,FLY_TO_FIX,183.39,77,-106.39,1394.63,-1.06,-0.83,-0.57,273.34,16.54,0,0,-1.797,1,0.6,4.417,0.75,0.35,0.0168,0.4,277.08,0.055,0,0,-0.33,3.74,0,0.06,277.08,0,0,0,0,0,0,0,54.05,0,0,0,0,0,89.91,0,0,0,0,0,0,0,0,0,0,0,0,0,0,0,0,0,VALID,0,0,0,0,0,1,0,0,0,0,0,0,0,0,0,0,0,0,0,0,0,348.7,2,0,0.06,0.06,497,14.29,0.08,0.06,35.92,FLYING,CF1-F,0:/Integrated Flight Computer/aircraft/cf1_f_cfg.ks (inferred preloaded)
36.2,APPROACH,FLY_TO_FIX,183.22,77,-106.22,1394.34,-1.03,-0.83,-0.58,273.58,15.589,0,0,-1.761,1,0.6,4.417,0.75,0.35,0.0168,0.4,277.09,0.047,0,0,-0.32,3.5,0,0.05,277.09,0,0,0,0,0,0,0,53.995,0,0,0,0,0,89.91,0,0,0,0,0,0,0,0,0,0,0,0,0,0,0,0,0,VALID,0,0,0,0,0,1,0,0,0,0,0,0,0,0,0,0,0,0,0,0,0,348.73,2,0,0.06,0.06,501,14.29,0.08,0.06,36.2,FLYING,CF1-F,0:/Integrated Flight Computer/aircraft/cf1_f_cfg.ks (inferred preloaded)
36.48,APPROACH,FLY_TO_FIX,183.04,77,-106.04,1394.05,-1,-0.83,-0.59,273.81,14.671,0,0,-1.726,1,0.6,4.418,0.75,0.35,0.0168,0.4,277.09,0.039,0,0,-0.31,3.28,0,0.04,277.09,0,0,0,0,0,0,0,53.94,0,0,0,0,0,89.91,0,0,0,0,0,0,0,0,0,0,0,0,0,0,0,0,0,VALID,0,0,0,0,0,1,0,0,0,0,0,0,0,0,0,0,0,0,0,0,0,348.77,2,0,0.06,0.06,505,14.29,0.08,0.06,36.48,FLYING,CF1-F,0:/Integrated Flight Computer/aircraft/cf1_f_cfg.ks (inferred preloaded)
36.76,APPROACH,FLY_TO_FIX,182.86,77,-105.86,1393.78,-0.96,-0.83,-0.59,274.03,13.792,0,0,-1.692,1,0.6,4.418,0.75,0.35,0.0168,0.4,277.1,0.031,0,0,-0.3,3.07,0,0.03,277.1,0,0,0,0,0,0,0,53.885,0,0,0,0,0,89.91,0,0,0,0,0,0,0,0,0,0,0,0,0,0,0,0,0,VALID,0,0,0,0,0,1,0,0,0,0,0,0,0,0,0,0,0,0,0,0,0,348.8,2,0,0.06,0.06,509,14.29,0.08,0.06,36.76,FLYING,CF1-F,0:/Integrated Flight Computer/aircraft/cf1_f_cfg.ks (inferred preloaded)
37.04,APPROACH,FLY_TO_FIX,182.69,77,-105.69,1393.51,-0.93,-0.83,-0.59,274.23,12.953,0,0,-1.658,1,0.6,4.419,0.75,0.35,0.0168,0.4,277.11,0.023,0,0,-0.29,2.88,0,0.03,277.11,0,0,0,0,0,0,0,53.83,0,0,0,0,0,89.91,0,0,0,0,0,0,0,0,0,0,0,0,0,0,0,0,0,VALID,0,0,0,0,0,1,0,0,0,0,0,0,0,0,0,0,0,0,0,0,0,348.83,2,0,0.06,0.06,513,14.29,0.08,0.06,37.04,FLYING,CF1-F,0:/Integrated Flight Computer/aircraft/cf1_f_cfg.ks (inferred preloaded)
37.32,APPROACH,FLY_TO_FIX,182.51,77,-105.51,1393.25,-0.9,-0.83,-0.6,274.42,12.154,0,0,-1.626,1,0.6,4.419,0.75,0.35,0.0168,0.4,277.11,0.015,0,0,-0.28,2.69,0,0.02,277.11,0,0,0,0,0,0,0,53.775,0,0,0,0,0,89.91,0,0,0,0,0,0,0,0,0,0,0,0,0,0,0,0,0,VALID,0,0,0,0,0,1,0,0,0,0,0,0,0,0,0,0,0,0,0,0,0,348.87,2,0,0.06,0.06,517,14.29,0.08,0.06,37.32,FLYING,CF1-F,0:/Integrated Flight Computer/aircraft/cf1_f_cfg.ks (inferred preloaded)
37.6,APPROACH,FLY_TO_FIX,182.34,77,-105.34,1393.01,-0.87,-0.83,-0.6,274.6,11.394,0,0,-1.593,1,0.6,4.419,0.75,0.35,0.0168,0.4,277.12,0.008,0,0,-0.28,2.52,0,0.01,277.12,0,0,0,0,0,0,0,53.72,0,0,0,0,0,89.91,0,0,0,0,0,0,0,0,0,0,0,0,0,0,0,0,0,VALID,0,0,0,0,0,1,0,0,0,0,0,0,0,0,0,0,0,0,0,0,0,348.9,2,0,0.06,0.06,521,14.29,0.08,0.06,37.6,FLYING,CF1-F,0:/Integrated Flight Computer/aircraft/cf1_f_cfg.ks (inferred preloaded)
37.88,APPROACH,FLY_TO_FIX,182.16,77,-105.16,1392.76,-0.85,-0.82,-0.6,274.77,10.675,0,0,-1.562,1,0.6,4.42,0.75,0.35,0.0168,0.4,277.12,0,0,0,-0.27,2.36,0,0,277.12,0,0,0,0,0,0,0,53.665,0,0,0,0,0,89.91,0,0,0,0,0,0,0,0,0,0,0,0,0,0,0,0,0,VALID,0,0,0,0,0,1,0,0,0,0,0,0,0,0,0,0,0,0,0,0,0,348.93,2,0,0.06,0.06,525,14.29,0.08,0.06,37.88,FLYING,CF1-F,0:/Integrated Flight Computer/aircraft/cf1_f_cfg.ks (inferred preloaded)
38.16,APPROACH,FLY_TO_FIX,181.99,77,-104.99,1392.53,-0.82,-0.82,-0.6,274.92,9.996,0,0,-1.531,1,0.6,4.42,0.75,0.35,0.0168,0.4,277.13,-0.007,0,0,-0.26,2.2,0,0,277.13,0,0,0,0,0,0,0,53.61,0,0,0,0,0,89.91,0,0,0,0,0,0,0,0,0,0,0,0,0,0,0,0,0,VALID,0,0,0,0,0,1,0,0,0,0,0,0,0,0,0,0,0,0,0,0,0,348.97,2,0,0.06,0.06,529,14.29,0.08,0.06,38.16,FLYING,CF1-F,0:/Integrated Flight Computer/aircraft/cf1_f_cfg.ks (inferred preloaded)
38.44,APPROACH,FLY_TO_FIX,181.81,77,-104.81,1392.31,-0.79,-0.82,-0.6,275.07,9.356,0,0,-1.5,1,0.6,4.421,0.75,0.35,0.0168,0.4,277.13,-0.014,0,0,-0.25,2.06,0,-0.01,277.13,0,0,0,0,0,0,0,53.556,0,0,0,0,0,89.91,0,0,0,0,0,0,0,0,0,0,0,0,0,0,0,0,0,VALID,0,0,0,0,0,1,0,0,0,0,0,0,0,0,0,0,0,0,0,0,0,349,2,0,0.06,0.06,533,14.29,0.08,0.06,38.44,FLYING,CF1-F,0:/Integrated Flight Computer/aircraft/cf1_f_cfg.ks (inferred preloaded)
38.72,APPROACH,FLY_TO_FIX,181.64,77,-104.64,1392.09,-0.77,-0.81,-0.6,275.21,8.753,0,0,-1.47,1,0.6,4.421,0.75,0.35,0.0168,0.4,277.14,-0.02,0,0,-0.24,1.93,0,-0.02,277.14,0,0,0,0,0,0,0,53.501,0,0,0,0,0,89.91,0,0,0,0,0,0,0,0,0,0,0,0,0,0,0,0,0,VALID,0,0,0,0,0,1,0,0,0,0,0,0,0,0,0,0,0,0,0,0,0,349.04,2,0,0.06,0.06,537,14.29,0.08,0.06,38.72,FLYING,CF1-F,0:/Integrated Flight Computer/aircraft/cf1_f_cfg.ks (inferred preloaded)
39,APPROACH,FLY_TO_FIX,181.46,77,-104.46,1391.88,-0.74,-0.81,-0.6,275.34,8.186,0,0,-1.441,1,0.6,4.422,0.75,0.35,0.0168,0.4,277.14,-0.026,0,0,-0.23,1.8,0,-0.02,277.14,0,0,0,0,0,0,0,53.446,0,0,0,0,0,89.91,0,0,0,0,0,0,0,0,0,0,0,0,0,0,0,0,0,VALID,0,0,0,0,0,1,0,0,0,0,0,0,0,0,0,0,0,0,0,0,0,349.07,2,0,0.06,0.06,541,14.29,0.08,0.06,39,FLYING,CF1-F,0:/Integrated Flight Computer/aircraft/cf1_f_cfg.ks (inferred preloaded)
39.28,APPROACH,FLY_TO_FIX,181.29,77,-104.29,1391.67,-0.72,-0.8,-0.6,275.46,7.655,0,0,-1.413,1,0.6,4.422,0.75,0.35,0.0168,0.4,277.15,-0.032,0,0,-0.23,1.68,0,-0.03,277.14,0,0,0,0,0,0,0,53.392,0,0,0,0,0,89.91,0,0,0,0,0,0,0,0,0,0,0,0,0,0,0,0,0,VALID,0,0,0,0,0,1,0,0,0,0,0,0,0,0,0,0,0,0,0,0,0,349.1,2,0,0.06,0.06,545,14.29,0.08,0.06,39.28,FLYING,CF1-F,0:/Integrated Flight Computer/aircraft/cf1_f_cfg.ks (inferred preloaded)
39.56,APPROACH,FLY_TO_FIX,181.11,77,-104.11,1391.48,-0.7,-0.79,-0.6,275.58,7.154,0,0,-1.385,1,0.6,4.422,0.75,0.35,0.0168,0.4,277.15,-0.038,0,0,-0.22,1.57,0,-0.04,277.15,0,0,0,0,0,0,0,53.337,0,0,0,0,0,89.91,0,0,0,0,0,0,0,0,0,0,0,0,0,0,0,0,0,VALID,0,0,0,0,0,1,0,0,0,0,0,0,0,0,0,0,0,0,0,0,0,349.14,2,0,0.06,0.06,549,14.29,0.08,0.06,39.56,FLYING,CF1-F,0:/Integrated Flight Computer/aircraft/cf1_f_cfg.ks (inferred preloaded)
39.84,APPROACH,FLY_TO_FIX,180.94,77,-103.94,1391.28,-0.68,-0.79,-0.6,275.68,6.685,0,0,-1.357,1,0.6,4.423,0.75,0.35,0.0168,0.4,277.15,-0.043,0,0,-0.21,1.47,0,-0.04,277.15,0,0,0,0,0,0,0,53.283,0,0,0,0,0,89.91,0,0,0,0,0,0,0,0,0,0,0,0,0,0,0,0,0,VALID,0,0,0,0,0,1,0,0,0,0,0,0,0,0,0,0,0,0,0,0,0,349.17,2,0,0.06,0.06,553,14.29,0.08,0.06,39.84,FLYING,CF1-F,0:/Integrated Flight Computer/aircraft/cf1_f_cfg.ks (inferred preloaded)
40.12,APPROACH,FLY_TO_FIX,180.76,77,-103.76,1391.1,-0.66,-0.78,-0.6,275.78,6.247,0,0,-1.33,1,0.6,4.423,0.75,0.35,0.0168,0.4,277.16,-0.048,0,0,-0.21,1.37,0,-0.05,277.15,0,0,0,0,0,0,0,53.229,0,0,0,0,0,89.91,0,0,0,0,0,0,0,0,0,0,0,0,0,0,0,0,0,VALID,0,0,0,0,0,1,0,0,0,0,0,0,0,0,0,0,0,0,0,0,0,349.2,2,0,0.06,0.06,557,14.29,0.08,0.06,40.12,FLYING,CF1-F,0:/Integrated Flight Computer/aircraft/cf1_f_cfg.ks (inferred preloaded)
