t_s,phase,subphase,ias_ms,vapp_ms,spd_err_ms,agl_m,gear_h_m,vs_ms,pitch_deg,aoa_deg,hdg_deg,bank_deg,thr_cmd,thr_cur,thr_intg,at_gain,at_tau_s,at_a_up,at_a_dn,at_kp_thr,at_ki_spd,at_thr_slew,as_cmd_deg,as_cap_deg,as_raw_deg,as_spd_err_ms,as_active,aa_hdg_cmd_deg,aa_fpa_cmd_deg,aa_fbw,aa_dir,actual_fpa_deg,ftf_hdg_err_deg,ftf_fix_idx,kos_steer_pit_deg,kos_steer_hdg_deg,aa_dir_vx,aa_dir_vy,aa_dir_vz,aa_dir_pitch_deg,aa_dir_hdg_deg,ils_loc_m,ils_gs_m,ils_dist_km,loc_corr_deg,gs_corr_deg,gs_latched,active_gs_ang_deg,ils_intercept_alt_m,d_gs_ms,fpa_preclamped_deg,gs_nom_alt_m,flare_fpa_cmd,flare_tgt_vs,flare_frac,flare_round_blend_h,flare_round_blend_ttg,flare_round_blend,flare_mode,flare_auth_limited,flare_auth_reason,flare_vs_err,flare_fpa_err,flare_pitch_err,flare_theta_cmd_raw,flare_theta_cmd_clamped,flare_theta_clamp_active,flare_aoa_clamp_active,flare_pitch_in_cmd,elev_defl_avg_deg,elev_defl_max_deg,elev_defl_n,flare_ctrl_h_m,flare_req_up_a,flare_thr_floor,flare_tecs_et_err,flare_tecs_eb_err,flare_tecs_h_ref,flare_tecs_v_ref,flare_gamma_ref,flare_gamma_eb_term,flare_gamma_unsat,steer_hdg_deg,steer_blend,ro_loc_corr_deg,ro_hdg_err_deg,ro_yaw_tgt,ro_yaw_scale,ro_yaw_gate,yaw_cmd,roll_cmd,pitch_cmd,ro_pitch_tgt_deg,ro_pitch_err_deg,ro_pitch_ff,ro_roll_assist,flaps_cur,flaps_tgt,asc_j_ab,asc_j_rk,asc_validity,asc_q_pa,asc_q_raw_pa,asc_mach,asc_apo_m,asc_drag_n,asc_w_prop,asc_edot_aero,asc_edot_orb,asc_pitch_bias,asc_blend,asc_spooling,asc_ab_thr_ratio,asc_ab_t_now,asc_ab_t_avail,asc_ab_ign_on,asc_ab_flameouts,asc_rk_t_now,asc_rk_t_avail,asc_rk_ign_on,asc_rk_flameouts,ship_thrust,ship_avail_thrust,ship_ign_on,ship_flameouts,ifc_raw_dt_s,ifc_dt_s,ifc_loop_n,ifc_hz_est,ifc_raw_dt_max_s,ifc_raw_dt_min_s,phase_el_s,status,craft_name,cfg_file
3.28,TAKEOFF,TO_PREFLIGHT,0.72,80,79.28,3.61,11.23,0,-0.18,0.05,89.63,0.11,0.072,0,0,0,0,0,0,0,0,0,0,0,0,0,0,90.4,0,1,0,-0.18,0,0,0,90,0,0,0,0,0,0,0,0,0,0,0,3,0,0,0,69,0,0,0,0,0,0,,0,NONE,0,0,0,0,0,0,0,0,0,0,0,11.23,0,0,0,0,0,0,0,0,0,90.4,1,0,-0.771,0,0,1,0,0,0,0,0,0,0,0,1,0,0,VALID,0,0,0,0,0,1,0,0,0,0,0,0,0,0,0,0,0,0,0,0,0,482.85,2,0,0.18,0.18,1,0.3,0.18,0.02,3.1,PRELAUNCH,CF1-J,0:/Integrated Flight Computer/aircraft/cf1_j_cfg.ks (inferred preloaded)
3.56,TAKEOFF,TO_PREFLIGHT,0.71,80,79.29,3.61,11.22,0,-0.2,-0.06,89.69,0.109,0.352,0,0,0,0,0,0,0,0,0,0,0,0,0,0,90.4,0,1,0,-0.06,0,0,0,90,0,0,0,0,0,0,0,0,0,0,0,3,0,0,0,69,0,0,0,0,0,0,,0,NONE,0,0,0,0,0,0,0,0,0,0,0,11.22,0,0,0,0,0,0,0,0,0,90.4,1,0,-0.771,0,0,1,0,0,0,0,0,0,0,1,1,0,0,VALID,0,0,0,0,0,1,0,0,0,0,0,0,0,0,0,0,0,0,0,0,1.51,482.85,2,0,0.06,0.06,5,14.29,3.18,0.06,3.4,PRELAUNCH,CF1-J,0:/Integrated Flight Computer/aircraft/cf1_j_cfg.ks (inferred preloaded)
3.86,TAKEOFF,TO_PREFLIGHT,0.54,80,79.46,3.6,11.21,0,-0.29,-0.69,89.7,0.11,0.472,0,0,0,0,0,0,0,0,0,0,0,0,0,0,90.4,0,1,0,0.16,0,0,0,90,0,0,0,0,0,0,0,0,0,0,0,3,0,0,0,69,0,0,0,0,0,0,,0,NONE,0,0,0,0,0,0,0,0,0,0,0,11.21,0,0,0,0,0,0,0,0,0,90.4,1,0,-0.771,0,0,1,0,0,0,0,0,0,0,1,1,0,0,VALID,0,0,0,0,0,1,0,0,0,0,0,0,0,0,0,0,0,0,0,0,4.78,482.89,2,0,0.06,0.06,10,16.67,0.08,0.04,3.7,PRELAUNCH,CF1-J,0:/Integrated Flight Computer/aircraft/cf1_j_cfg.ks (inferred preloaded)
4.12,TAKEOFF,TO_PREFLIGHT,0.19,80,79.81,3.59,11.2,0,-0.34,-1.92,89.7,0.11,0.576,0,0,0,0,0,0,0,0,0,0,0,0,0,0,90.4,0,1,0,0.08,0,0,0,90,0,0,0,0,0,0,0,0,0,0,0,3,0,0,0,69,0,0,0,0,0,0,,0,NONE,0,0,0,0,0,0,0,0,0,0,0,11.2,0,0,0,0,0,0,0,0,0,90.4,1,0,-0.771,0,0,1,0,0,0,0,0,0,0,1,1,0,0,VALID,0,0,0,0,0,1,0,0,0,0,0,0,0,0,0,0,0,0,0,0,8.4,482.97,2,0,0.04,0.04,14,15.38,0.08,0.04,3.96,PRELAUNCH,CF1-J,0:/Integrated Flight Computer/aircraft/cf1_j_cfg.ks (inferred preloaded)
4.4,TAKEOFF,TO_PREFLIGHT,0.05,80,79.95,3.62,11.23,-0.03,-0.15,25.95,89.69,0.111,0.688,0,0,0,0,0,0,0,0,0,0,0,0,0,0,90.4,0,1,0,-1.49,0,0,0,90,0,0,0,0,0,0,0,0,0,0,0,3,0,0,0,69,0,0,0,0,0,0,,0,NONE,0,0,0,0,0,0,0,0,0,0,0,11.23,0,0,0,0,0,0,0,0,0,90.4,1,0,-0.771,0,0,1,0,0,0,0,0,0,0,1,1,0,0,VALID,0,0,0,0,0,1,0,0,0,0,0,0,0,0,0,0,0,0,0,0,13.11,483,2,0,0.06,0.06,18,14.29,0.08,0.04,4.24,PRELAUNCH,CF1-J,0:/Integrated Flight Computer/aircraft/cf1_j_cfg.ks (inferred preloaded)
4.7,TAKEOFF,TO_PREFLIGHT,0.01,80,79.99,3.62,11.23,0.02,-0.15,-18.71,89.68,0.111,0.808,0,0,0,0,0,0,0,0,0,0,0,0,0,0,90.4,0,1,0,0.88,0,0,0,90,0,0,0,0,0,0,0,0,0,0,0,3,0,0,0,69,0,0,0,0,0,0,,0,NONE,0,0,0,0,0,0,0,0,0,0,0,11.23,0,0,0,0,0,0,0,0,0,90.4,1,0,-0.771,0,0,1,0,0,0,0,0,0,0,1,1,0,0,VALID,0,0,0,0,0,1,0,0,0,0,0,0,0,0,0,0,0,0,0,0,19.08,483.01,2,0,0.06,0.06,23,16.67,0.08,0.04,4.54,PRELAUNCH,CF1-J,0:/Integrated Flight Computer/aircraft/cf1_j_cfg.ks (inferred preloaded)
4.98,TAKEOFF,TO_PREFLIGHT,0.05,80,79.95,3.6,11.21,0,-0.27,-3.69,89.67,0.11,0.92,0,0,0,0,0,0,0,0,0,0,0,0,0,0,90.4,0,1,0,0.04,0,0,0,90,0,0,0,0,0,0,0,0,0,0,0,3,0,0,0,69,0,0,0,0,0,0,,0,NONE,0,0,0,0,0,0,0,0,0,0,0,11.21,0,0,0,0,0,0,0,0,0,90.4,1,0,-0.771,0,0,1,0,0,0,0,0,0,0,1,1,0,0,VALID,0,0,0,0,0,1,0,0,0,0,0,0,0,0,0,0,0,0,0,0,25.48,483,2,0,0.04,0.04,28,17.86,0.08,0.04,4.82,PRELAUNCH,CF1-J,0:/Integrated Flight Computer/aircraft/cf1_j_cfg.ks (inferred preloaded)
5.24,TAKEOFF,TO_PREFLIGHT,0.01,80,79.99,3.61,11.22,-0.01,-0.21,77.03,89.67,0.11,1,0,0,0,0,0,0,0,0,0,0,0,0,0,0,90.4,0,1,0,-0.39,0,0,0,90,0,0,0,0,0,0,0,0,0,0,0,3,0,0,0,69,0,0,0,0,0,0,,0,NONE,0,0,0,0,0,0,0,0,0,0,0,11.22,0,0,0,0,0,0,0,0,0,90.4,1,0,-0.771,0,0,1,0,0,0,0,0,0,0,1,1,0,0,VALID,0,0,0,0,0,1,0,0,0,0,0,0,0,0,0,0,0,0,0,0,32.15,483.01,2,0,0.08,0.08,32,15.38,0.08,0.04,5.08,PRELAUNCH,CF1-J,0:/Integrated Flight Computer/aircraft/cf1_j_cfg.ks (inferred preloaded)
5.52,TAKEOFF,TO_PREFLIGHT,0.02,80,79.98,3.61,11.22,0,-0.2,-4.94,89.66,0.11,1,0,0,0,0,0,0,0,0,0,0,0,0,0,0,90.4,0,1,0,0.22,0,0,0,90,0,0,0,0,0,0,0,0,0,0,0,3,0,0,0,69,0,0,0,0,0,0,,0,NONE,0,0,0,0,0,0,0,0,0,0,0,11.22,0,0,0,0,0,0,0,0,0,90.4,1,0,-0.771,0,0,1,0,0,0,0,0,0,0,1,1,0,0,VALID,0,0,0,0,0,1,0,0,0,0,0,0,0,0,0,0,0,0,0,0,39.66,483.01,2,0,0.08,0.08,36,14.29,0.08,0.06,5.36,PRELAUNCH,CF1-J,0:/Integrated Flight Computer/aircraft/cf1_j_cfg.ks (inferred preloaded)
5.8,TAKEOFF,TO_GROUND_ROLL,0.05,80,79.95,3.6,11.22,0,-0.25,-2.68,89.66,0.11,1,0,0,0,0,0,0,0,0,0,0,0,0,0,0,90.4,0,1,0,0.07,0,0,0,90,0,0,0,0,0,0,0,0,0,0,0,3,0,0,0,69,0,0,0,0,0,0,,0,NONE,0,0,0,0,0,0,0,0,0,0,0,11.22,0,0,0,0,0,0,0,0,0,90.4,1,0,-0.771,0,0,1,0,0,0,0,0,0,0,1,1,0,0,VALID,0,0,0,0,0,1,0,0,0,0,0,0,0,0,0,0,0,0,0,0,47.05,483,2,0,0.08,0.08,40,14.29,0.08,0.06,5.64,PRELAUNCH,CF1-J,0:/Integrated Flight Computer/aircraft/cf1_j_cfg.ks (inferred preloaded)
6.08,TAKEOFF,TO_GROUND_ROLL,0.13,80,79.87,3.62,11.23,-0.02,-0.16,3.47,89.65,0.111,1,0,0,0,0,0,0,0,0,0,0,0,0,0,0,90.4,0,1,0,-0.86,0,0,0,90,0,0,0,0,0,0,0,0,0,0,0,3,0,0,0,69,0,0,0,0,0,0,,0,NONE,0,0,0,0,0,0,0,0,0,0,0,11.23,0,0,0,0,0,0,0,0,0,90.4,1,0,-0.756,0,0,3,0,0,0,0,0,0,0,1,1,0,0,VALID,0,0,0,0,0,1,0,0,0,0,0,0,0,0,0,0,0,0,0,0,54.32,482.99,2,0,0.08,0.08,44,14.29,0.08,0.06,5.92,PRELAUNCH,CF1-J,0:/Integrated Flight Computer/aircraft/cf1_j_cfg.ks (inferred preloaded)
6.36,TAKEOFF,TO_GROUND_ROLL,0.4,80,79.6,3.62,11.23,0.01,-0.14,-0.7,89.64,0.111,1,0,0,0,0,0,0,0,0,0,0,0,0,0,0,90.4,0,1,0,0.3,0,0,0,90,0,0,0,0,0,0,0,0,0,0,0,3,0,0,0,69,0,0,0,0,0,0,,0,NONE,0,0,0,0,0,0,0,0,0,0,0,11.23,0,0,0,0,0,0,0,0,0,90.4,1,0,-0.758,0,0,3,0,0,0,0,0,0,0,1,1,0,0,VALID,0,0,0,0,0,1,0,0,0,0,0,0,0,0,0,0,0,0,0,0,61.45,482.92,2,0,0.08,0.08,48,14.29,0.08,0.06,6.2,PRELAUNCH,CF1-J,0:/Integrated Flight Computer/aircraft/cf1_j_cfg.ks (inferred preloaded)
6.64,TAKEOFF,TO_GROUND_ROLL,0.73,80,79.27,3.61,11.22,-0.01,-0.18,0.19,89.64,0.11,1,0,0,0,0,0,0,0,0,0,0,0,0,0,0,90.4,0,1,0,-0.41,0,0,0,90,0,0,0,0,0,0,0,0,0,0,0,3,0,0,0,69,0,0,0,0,0,0,,0,NONE,0,0,0,0,0,0,0,0,0,0,0,11.22,0,0,0,0,0,0,0,0,0,90.4,1,0,-0.754,0,0,3,0,0,0,0,0,0,0,1,1,0,0,VALID,0,0,0,0,0,1,0,0,0,0,0,0,0,0,0,0,0,0,0,0,68.47,482.85,2,0,0.08,0.08,52,14.29,0.08,0.06,6.48,PRELAUNCH,CF1-J,0:/Integrated Flight Computer/aircraft/cf1_j_cfg.ks (inferred preloaded)
6.92,TAKEOFF,TO_GROUND_ROLL,1.09,80,78.91,3.62,11.23,-0.01,-0.14,0.33,89.65,0.109,1,0,0,0,0,0,0,0,0,0,0,0,0,0,0,90.39,0,1,0,-0.45,0,0,0,90,0,0,0,0,0,0,0,0,0,0,0,3,0,0,0,69,0,0,0,0,0,0,,0,NONE,0,0,0,0,0,0,0,0,0,0,0,11.23,0,0,0,0,0,0,0,0,0,90.39,1,0,-0.742,0,0,3,0,0,0,0,0,0,0,1,1,0,0,VALID,0,0,0,0,0,1,0,0,0,0,0,0,0,0,0,0,0,0,0,0,75.36,482.77,2,0,0.08,0.08,56,14.29,0.08,0.06,6.76,PRELAUNCH,CF1-J,0:/Integrated Flight Computer/aircraft/cf1_j_cfg.ks (inferred preloaded)
7.2,TAKEOFF,TO_GROUND_ROLL,1.49,80,78.51,3.62,11.22,-0.01,-0.16,0.02,89.67,0.109,1,0,0,0,0,0,0,0,0,0,0,0,0,0,0,90.39,0,1,0,-0.25,0,0,0,90,0,0,0,0,0,0,0,0,0,0,0,3,0,0,0,69,0,0,0,0,0,0,,0,NONE,0,0,0,0,0,0,0,0,0,0,0,11.22,0,0,0,0,0,0,0,0,0,90.39,1,0,-0.724,0,0,3,0,0,0,0,0,0,0,1,1,0,0,VALID,0,0,0,0,0,1,0,0,0,0,0,0,0,0,0,0,0,0,0,0,82.14,482.67,2,0,0.08,0.08,60,14.29,0.08,0.06,7.04,PRELAUNCH,CF1-J,0:/Integrated Flight Computer/aircraft/cf1_j_cfg.ks (inferred preloaded)
7.48,TAKEOFF,TO_GROUND_ROLL,1.92,80,78.08,3.62,11.22,-0.01,-0.15,0.22,89.69,0.11,1,0,0,0,0,0,0,0,0,0,0,0,0,0,0,90.38,0,1,0,-0.42,0,0,0,90,0,0,0,0,0,0,0,0,0,0,0,3,0,0,0,69,0,0,0,0,0,0,,0,NONE,0,0,0,0,0,0,0,0,0,0,0,11.22,0,0,0,0,0,0,0,0,0,90.38,1,0,-0.699,0,0,3,0,0,0,0,0,0,0,1,1,0,0,VALID,0,0,0,0,0,1,0,0,0,0,0,0,0,0,0,0,0,0,0,0,88.8,482.57,2,0,0.08,0.08,64,14.29,0.08,0.06,7.32,PRELAUNCH,CF1-J,0:/Integrated Flight Computer/aircraft/cf1_j_cfg.ks (inferred preloaded)
7.78,TAKEOFF,TO_GROUND_ROLL,2.38,80,77.62,3.62,11.22,-0.01,-0.14,0.14,89.71,0.11,1,0,0,0,0,0,0,0,0,0,0,0,0,0,0,90.38,0,1,0,-0.33,0,0,0,90,0,0,0,0,0,0,0,0,0,0,0,3,0,0,0,69,0,0,0,0,0,0,,0,NONE,0,0,0,0,0,0,0,0,0,0,0,11.22,0,0,0,0,0,0,0,0,0,90.38,1,0,-0.668,0.0075,0.25,1,0.0075,0,0,0,0,0,0,1,1,0,0,VALID,0,0,0,0,0,1,0,0,0,0,0,0,0,0,0,0,0,0,0,0,95.34,482.46,2,0,0.08,0.08,68,14.29,0.08,0.06,7.6,LANDED,CF1-J,0:/Integrated Flight Computer/aircraft/cf1_j_cfg.ks (inferred preloaded)
8.06,TAKEOFF,TO_GROUND_ROLL,2.88,80,77.12,3.62,11.21,-0.02,-0.15,0.16,89.75,0.109,1,0,0,0,0,0,0,0,0,0,0,0,0,0,0,90.38,0,1,0,-0.35,0,0,0,90,0,0,0,0,0,0,0,0,0,0,0,3,0,0,0,69,0,0,0,0,0,0,,0,NONE,0,0,0,0,0,0,0,0,0,0,0,11.21,0,0,0,0,0,0,0,0,0,90.38,1,0,-0.63,0.0071,0.25,1,0.0071,0,0,0,0,0,0,1,1,0,0,VALID,0,0,0,0,0,1,0,0,0,0,0,0,0,0,0,0,0,0,0,0,101.77,482.34,2,0,0.08,0.08,72,14.29,0.08,0.06,7.88,LANDED,CF1-J,0:/Integrated Flight Computer/aircraft/cf1_j_cfg.ks (inferred preloaded)
8.34,TAKEOFF,TO_GROUND_ROLL,3.41,80,76.59,3.62,11.21,-0.02,-0.14,0.15,89.78,0.106,1,0,0,0,0,0,0,0,0,0,0,0,0,0,0,90.37,0,1,0,-0.33,0,0,0,90,0,0,0,0,0,0,0,0,0,0,0,3,0,0,0,69,0,0,0,0,0,0,,0,NONE,0,0,0,0,0,0,0,0,0,0,0,11.21,0,0,0,0,0,0,0,0,0,90.37,1,0,-0.587,0.0066,0.25,1,0.0066,0,0,0,0,0,0,1,1,0,0,VALID,0,0,0,0,0,1,0,0,0,0,0,0,0,0,0,0,0,0,0,0,108.08,482.21,2,0,0.08,0.08,76,14.29,0.08,0.06,8.16,LANDED,CF1-J,0:/Integrated Flight Computer/aircraft/cf1_j_cfg.ks (inferred preloaded)
8.62,TAKEOFF,TO_GROUND_ROLL,3.97,80,76.03,3.62,11.2,-0.02,-0.14,0.15,89.83,0.104,1,0,0,0,0,0,0,0,0,0,0,0,0,0,0,90.37,0,1,0,-0.32,0,0,0,90,0,0,0,0,0,0,0,0,0.001,0,0,3,0,0,0,69,0,0,0,0,0,0,,0,NONE,0,0,0,0,0,0,0,0,0,0,0,11.2,0,0,0,0,0,0,0,0,0,90.37,1,0.001,-0.54,0.0061,0.25,1,0.0061,0,0,0,0,0,0,1,1,0,0,VALID,0,0,0,0,0,1,0,0,0,0,0,0,0,0,0,0,0,0,0,0,114.28,482.06,2,0,0.08,0.08,80,14.29,0.08,0.06,8.44,LANDED,CF1-J,0:/Integrated Flight Computer/aircraft/cf1_j_cfg.ks (inferred preloaded)
8.9,TAKEOFF,TO_GROUND_ROLL,4.56,80,75.44,3.62,11.2,-0.03,-0.14,0.17,89.88,0.103,1,0,0,0,0,0,0,0,0,0,0,0,0,0,0,90.37,0,1,0,-0.34,0,0,0,90,0,0,0,0,0,0,0,0,0.001,0,0,3,0,0,0,69,0,0,0,0,0,0,,0,NONE,0,0,0,0,0,0,0,0,0,0,0,11.2,0,0,0,0,0,0,0,0,0,90.37,1,0.001,-0.489,0.0055,0.25,1,0.0055,0,0,0,0,0,0,1,1,0,0,VALID,0,0,0,0,0,1,0,0,0,0,0,0,0,0,0,0,0,0,0,0,120.38,481.91,2,0,0.08,0.08,84,14.29,0.08,0.06,8.72,LANDED,CF1-J,0:/Integrated Flight Computer/aircraft/cf1_j_cfg.ks (inferred preloaded)
9.16,TAKEOFF,TO_GROUND_ROLL,5.18,80,74.82,3.62,11.19,-0.03,-0.14,0.17,89.93,0.104,1,0,0,0,0,0,0,0,0,0,0,0,0,0,0,90.36,0,1,0,-0.34,0,0,0,90,0,0,0,0,0,0,0,0,0.001,0,0,3,0,0,0,69,0,0,0,0,0,0,,0,NONE,0,0,0,0,0,0,0,0,0,0,0,11.19,0,0,0,0,0,0,0,0,0,90.36,1,0.001,-0.437,0.0049,0.25,1,0.0049,0,0,0,0,0,0,1,1,0,0,VALID,0,0,0,0,0,1,0,0,0,0,0,0,0,0,0,0,0,0,0,0,126.36,481.74,2,0,0.08,0.08,88,14.29,0.08,0.06,9,LANDED,CF1-J,0:/Integrated Flight Computer/aircraft/cf1_j_cfg.ks (inferred preloaded)
9.44,TAKEOFF,TO_GROUND_ROLL,5.83,80,74.17,3.62,11.18,-0.03,-0.14,0.17,89.98,0.103,1,0,0,0,0,0,0,0,0,0,0,0,0,0,0,90.36,0,1,0,-0.34,0,0,0,90,0,0,0,0,0,0,0,0,0.001,0,0,3,0,0,0,69,0,0,0,0,0,0,,0,NONE,0,0,0,0,0,0,0,0,0,0,0,11.18,0,0,0,0,0,0,0,0,0,90.36,1,0.001,-0.384,0.0042,0.25,1,0.0042,0,0,0,0,0,0,1,1,0,0,VALID,0,0,0,0,0,1,0,0,0,0,0,0,0,0,0,0,0,0,0,0,132.24,481.56,2,0,0.08,0.08,92,14.29,0.08,0.06,9.28,LANDED,CF1-J,0:/Integrated Flight Computer/aircraft/cf1_j_cfg.ks (inferred preloaded)
9.72,TAKEOFF,TO_GROUND_ROLL,6.52,80,73.48,3.62,11.17,-0.04,-0.13,0.17,90.03,0.102,1,0,0,0,0,0,0,0,0,0,0,0,0,0,0,90.36,0,1,0,-0.33,0,0,0,90,0,0,0,0,0,0,0,0,0.001,0,0,3,0,0,0,69,0,0,0,0,0,0,,0,NONE,0,0,0,0,0,0,0,0,0,0,0,11.17,0,0,0,0,0,0,0,0,0,90.36,1,0.001,-0.332,0.0034,0.25,1,0.0034,0,0,0,0,0,0,1,1,0,0,VALID,0,0,0,0,0,1,0,0,0,0,0,0,0,0,0,0,0,0,0,0,138.01,481.37,2,0,0.08,0.08,96,14.29,0.08,0.06,9.56,LANDED,CF1-J,0:/Integrated Flight Computer/aircraft/cf1_j_cfg.ks (inferred preloaded)
10,TAKEOFF,TO_GROUND_ROLL,7.23,80,72.77,3.62,11.16,-0.04,-0.13,0.17,90.08,0.1,1,0,0,0,0,0,0,0,0,0,0,0,0,0,0,90.36,0,1,0,-0.34,0,0,0,90,0,0,0,0,0,0,0,0,0.001,0,0,3,0,0,0,69,0,0,0,0,0,0,,0,NONE,0,0,0,0,0,0,0,0,0,0,0,11.16,0,0,0,0,0,0,0,0,0,90.36,1,0.001,-0.282,0.0028,0.25,1,0.0028,0,0,0,0,0,0,1,1,0,0,VALID,0,0,0,0,0,1,0,0,0,0,0,0,0,0,0,0,0,0,0,0,143.67,481.17,2,0,0.08,0.08,100,14.29,0.08,0.06,9.84,LANDED,CF1-J,0:/Integrated Flight Computer/aircraft/cf1_j_cfg.ks (inferred preloaded)
10.28,TAKEOFF,TO_GROUND_ROLL,7.96,80,72.04,3.62,11.15,-0.05,-0.13,0.17,90.13,0.098,1,0,0,0,0,0,0,0,0,0,0,0,0,0,0,90.37,0,1,0,-0.33,0,0,0,90,0,0,0,0,0,0,0,0,0,0,0,3,0,0,0,69,0,0,0,0,0,0,,0,NONE,0,0,0,0,0,0,0,0,0,0,0,11.15,0,0,0,0,0,0,0,0,0,90.37,1,0,-0.234,0.0022,0.25,1,0.0022,0,0,0,0,0,0,1,1,0,0,VALID,0,0,0,0,0,1,0,0,0,0,0,0,0,0,0,0,0,0,0,0,149.23,480.95,2,0,0.08,0.08,104,14.29,0.08,0.06,10.12,LANDED,CF1-J,0:/Integrated Flight Computer/aircraft/cf1_j_cfg.ks (inferred preloaded)
10.56,TAKEOFF,TO_GROUND_ROLL,8.73,80,71.27,3.62,11.13,-0.05,-0.13,0.17,90.18,0.098,1,0,0,0,0,0,0,0,0,0,0,0,0,0,0,90.37,0,1,0,-0.33,0,0,0,90,0,0,0,0,0,0,0,0,0,0,0,3,0,0,0,69,0,0,0,0,0,0,,0,NONE,0,0,0,0,0,0,0,0,0,0,0,11.13,0,0,0,0,0,0,0,0,0,90.37,1,0,-0.191,0.0017,0.25,1,0.0017,0,0,0,0,0,0,1,1,0,0,VALID,0,0,0,0,0,1,0,0,0,0,0,0,0,0,0,0,0,0,0,0,154.69,480.72,2,0,0.08,0.08,108,14.29,0.08,0.06,10.4,LANDED,CF1-J,0:/Integrated Flight Computer/aircraft/cf1_j_cfg.ks (inferred preloaded)
10.84,TAKEOFF,TO_GROUND_ROLL,9.52,80,70.48,3.62,11.12,-0.05,-0.13,0.17,90.22,0.099,1,0,0,0,0,0,0,0,0,0,0,0,0,0,0,90.37,0,1,0,-0.32,0,0,0,90,0,0,0,0,0,0,0,0,0,0,0,3,0,0,0,69,0,0,0,0,0,0,,0,NONE,0,0,0,0,0,0,0,0,0,0,0,11.12,0,0,0,0,0,0,0,0,0,90.37,1,0,-0.153,0.0012,0.25,1,0.0012,0,0,0,0,0,0,1,1,0,0,VALID,0,0,0,0,0,1,0,0,0,0,0,0,0,0,0,0,0,0,0,0,160.04,480.48,2,0,0.08,0.08,112,14.29,0.08,0.06,10.68,LANDED,CF1-J,0:/Integrated Flight Computer/aircraft/cf1_j_cfg.ks (inferred preloaded)
11.12,TAKEOFF,TO_GROUND_ROLL,10.34,80,69.66,3.62,11.1,-0.06,-0.13,0.18,90.26,0.1,1,0,0,0,0,0,0,0,0,0,0,0,0,0,0,90.38,0,1,0,-0.33,0,0,0,90,0,0,0,0,0,0,0,0,0,0,0,3,0,0,0,69,0,0,0,0,0,0,,0,NONE,0,0,0,0,0,0,0,0,0,0,0,11.1,0,0,0,0,0,0,0,0,0,90.38,1,0,-0.12,0.0009,0.25,1,0.0009,0,0,0,0,0,0,1,1,0,0,VALID,0,0,0,0,0,1,0,0,0,0,0,0,0,0,0,0,0,0,0,0,165.29,480.23,2,0,0.08,0.08,116,14.29,0.08,0.06,10.96,LANDED,CF1-J,0:/Integrated Flight Computer/aircraft/cf1_j_cfg.ks (inferred preloaded)
11.4,TAKEOFF,TO_GROUND_ROLL,11.19,80,68.81,3.62,11.09,-0.06,-0.12,0.18,90.29,0.1,1,0,0,0,0,0,0,0,0,0,0,0,0,0,0,90.38,0,1,0,-0.33,0,0,0,90,0,0,0,0,0,0,0,0,-0.001,0,0,3,0,0,0,69,0,0,0,0,0,0,,0,NONE,0,0,0,0,0,0,0,0,0,0,0,11.09,0,0,0,0,0,0,0,0,0,90.38,1,-0.001,-0.092,0.0007,0.25,1,0.0007,0,0,0,0,0,0,1,1,0,0,VALID,0,0,0,0,0,1,0,0,0,0,0,0,0,0,0,0,0,0,0,0,170.45,479.95,2,0,0.08,0.08,120,14.29,0.08,0.06,11.24,LANDED,CF1-J,0:/Integrated Flight Computer/aircraft/cf1_j_cfg.ks (inferred preloaded)
11.68,TAKEOFF,TO_GROUND_ROLL,12.06,80,67.94,3.62,11.07,-0.07,-0.12,0.18,90.31,0.099,1,0,0,0,0,0,0,0,0,0,0,0,0,0,0,90.38,0,1,0,-0.33,0,0,0,90,0,0,0,0,0,0,0,0,-0.001,0,0,3,0,0,0,69,0,0,0,0,0,0,,0,NONE,0,0,0,0,0,0,0,0,0,0,0,11.07,0,0,0,0,0,0,0,0,0,90.38,1,-0.001,-0.069,0.0005,0.25,1,0.0005,0,0,0,0,0,0,1,1,0,0,VALID,0,0,0,0,0,1,0,0,0,0,0,0,0,0,0,0,0,0,0,0,175.5,479.67,2,0,0.08,0.08,124,14.29,0.08,0.06,11.52,LANDED,CF1-J,0:/Integrated Flight Computer/aircraft/cf1_j_cfg.ks (inferred preloaded)
11.96,TAKEOFF,TO_GROUND_ROLL,12.95,80,67.05,3.62,11.05,-0.07,-0.12,0.18,90.33,0.1,1,0,0,0,0,0,0,0,0,0,0,0,0,0,0,90.39,0,1,0,-0.32,0,0,0,90,0,0,0,0,0,0,0,0,-0.001,0,0,3,0,0,0,69,0,0,0,0,0,0,,0,NONE,0,0,0,0,0,0,0,0,0,0,0,11.05,0,0,0,0,0,0,0,0,0,90.39,1,-0.001,-0.052,0.0004,0.25,1,0.0004,0,0,0,0,0,0,1,1,0,0,VALID,0,0,0,0,0,1,0,0,0,0,0,0,0,0,0,0,0,0,0,0,180.46,479.37,2,0,0.08,0.08,128,14.29,0.08,0.06,11.8,LANDED,CF1-J,0:/Integrated Flight Computer/aircraft/cf1_j_cfg.ks (inferred preloaded)
12.24,TAKEOFF,TO_GROUND_ROLL,13.87,80,66.13,3.62,11.03,-0.08,-0.12,0.19,90.35,0.101,1,0,0,0,0,0,0,0,0,0,0,0,0,0,0,90.39,0,1,0,-0.33,0,0,0,90,0,0,0,0,0,0,0,0,-0.002,0,0,3,0,0,0,69,0,0,0,0,0,0,,0,NONE,0,0,0,0,0,0,0,0,0,0,0,11.03,0,0,0,0,0,0,0,0,0,90.39,1,-0.002,-0.038,0.0003,0.25,1,0.0003,0,0,0,0,0,0,1,1,0,0,VALID,0,0,0,0,0,1,0,0,0,0,0,0,0,0,0,0,0,0,0,0,185.32,479.05,2,0,0.08,0.08,132,14.29,0.08,0.06,12.08,LANDED,CF1-J,0:/Integrated Flight Computer/aircraft/cf1_j_cfg.ks (inferred preloaded)
12.52,TAKEOFF,TO_GROUND_ROLL,14.82,80,65.18,3.62,11,-0.08,-0.12,0.18,90.36,0.103,1,0,0,0,0,0,0,0,0,0,0,0,0,0,0,90.39,0,1,0,-0.32,0,0,0,90,0,0,0,0,0,0,0,0,-0.002,0,0,3,0,0,0,69,0,0,0,0,0,0,,0,NONE,0,0,0,0,0,0,0,0,0,0,0,11,0,0,0,0,0,0,0,0,0,90.39,1,-0.002,-0.028,0.0002,0.25,1,0.0002,0,0,0,0,0,0,1,1,0,0,VALID,0,0,0,0,0,1,0,0,0,0,0,0,0,0,0,0,0,0,0,0,190.09,478.72,2,0,0.08,0.08,136,14.29,0.08,0.06,12.36,LANDED,CF1-J,0:/Integrated Flight Computer/aircraft/cf1_j_cfg.ks (inferred preloaded)
12.8,TAKEOFF,TO_GROUND_ROLL,15.78,80,64.22,3.62,10.98,-0.09,-0.11,0.19,90.37,0.104,1,0,0,0,0,0,0,0,0,0,0,0,0,0,0,90.39,0,1,0,-0.33,0,0,0,90,0,0,0,0,0,0,0,0,-0.003,0,0,3,0,0,0,69,0,0,0,0,0,0,,0,NONE,0,0,0,0,0,0,0,0,0,0,0,10.98,0,0,0,0,0,0,0,0,0,90.39,1,-0.003,-0.022,0.0001,0.25,1,0.0001,0,0,0,0,0,0,1,1,0,0,VALID,0,0,0,0,0,1,0,0,0,0,0,0,0,0,0,0,0,0,0,0,194.76,478.37,2,0,0.08,0.08,140,14.29,0.08,0.06,12.64,LANDED,CF1-J,0:/Integrated Flight Computer/aircraft/cf1_j_cfg.ks (inferred preloaded)
13.08,TAKEOFF,TO_GROUND_ROLL,16.77,80,63.23,3.62,10.95,-0.1,-0.11,0.19,90.38,0.104,1,0,0,0,0,0,0,0,0,0,0,0,0,0,0,90.39,0,1,0,-0.32,0,0,0.01,90,0,0,0,0,0,0,0,0,-0.004,0,0,3,0,0,0,69,0,0,0,0,0,0,,0,NONE,0,0,0,0,0,0,0,0,0,0,0,10.95,0,0,0,0,0,0,0,0,0,90.39,1,-0.004,-0.017,0.0001,0.25,1,0.0001,0,0,0,0,0,0,1,1,0,0,VALID,0,0,0,0,0,1,0,0,0,0,0,0,0,0,0,0,0,0,0,0,199.34,478.01,2,0,0.08,0.08,144,14.29,0.08,0.06,12.92,LANDED,CF1-J,0:/Integrated Flight Computer/aircraft/cf1_j_cfg.ks (inferred preloaded)
13.36,TAKEOFF,TO_GROUND_ROLL,17.79,80,62.21,3.62,10.93,-0.1,-0.11,0.19,90.38,0.104,1,0,0,0,0,0,0,0,0,0,0,0,0,0,0,90.39,0,1,0,-0.32,0,0,0.01,90,0,0,0,0,0,0,0,0,-0.004,0,0,3,0,0,0,69,0,0,0,0,0,0,,0,NONE,0,0,0,0,0,0,0,0,0,0,0,10.93,0,0,0,0,0,0,0,0,0,90.39,1,-0.004,-0.014,0.0001,0.25,1,0.0001,0,0,0,0,0,0,1,1,0,0,VALID,0,0,0,0,0,1,0,0,0,0,0,0,0,0,0,0,0,0,0,0,203.82,477.63,2,0,0.08,0.08,148,14.29,0.08,0.06,13.2,LANDED,CF1-J,0:/Integrated Flight Computer/aircraft/cf1_j_cfg.ks (inferred preloaded)
13.64,TAKEOFF,TO_GROUND_ROLL,18.82,80,61.18,3.62,10.9,-0.11,-0.11,0.19,90.38,0.106,1,0,0,0,0,0,0,0,0,0,0,0,0,0,0,90.4,0,1,0,-0.32,0,0,0.01,90,0,0,0,0,0,0,0,0,-0.005,0,0,3,0,0,0,69,0,0,0,0,0,0,,0,NONE,0,0,0,0,0,0,0,0,0,0,0,10.9,0,0,0,0,0,0,0,0,0,90.4,1,-0.005,-0.022,0.0001,0.25,1,0.0001,0,0,0,0,0,0,1,1,0,0,VALID,0,0,0,0,0,1,0,0,0,0,0,0,0,0,0,0,0,0,0,0,208.21,477.23,2,0,0.08,0.08,152,14.29,0.08,0.06,13.48,LANDED,CF1-J,0:/Integrated Flight Computer/aircraft/cf1_j_cfg.ks (inferred preloaded)
13.92,TAKEOFF,TO_GROUND_ROLL,19.87,80,60.13,3.62,10.87,-0.11,-0.11,0.19,90.37,0.108,1,0,0,0,0,0,0,0,0,0,0,0,0,0,0,90.4,0,1,0,-0.32,0,0,0.01,90,0,0,0,0,0,0,0,0,-0.006,0,0,3,0,0,0,69,0,0,0,0,0,0,,0,NONE,0,0,0,0,0,0,0,0,0,0,0,10.87,0,0,0,0,0,0,0,0,0,90.4,1,-0.006,-0.029,0.0002,0.25,1,0.0002,0,0,0,0,0,0,1,1,0,0,VALID,0,0,0,0,0,1,0,0,0,0,0,0,0,0,0,0,0,0,0,0,212.51,476.82,2,0,0.08,0.08,156,14.29,0.08,0.06,13.76,LANDED,CF1-J,0:/Integrated Flight Computer/aircraft/cf1_j_cfg.ks (inferred preloaded)
14.22,TAKEOFF,TO_GROUND_ROLL,20.95,80,59.05,3.62,10.84,-0.12,-0.1,0.19,90.37,0.109,1,0,0,0,0,0,0,0,0,0,0,0,0,0,0,90.39,0,1,0,-0.32,0,0,0.01,90,0,0,0,0,0,0,0,0,-0.007,0,0,3,0,0,0,69,0,0,0,0,0,0,,0,NONE,0,0,0,0,0,0,0,0,0,0,0,10.84,0,0,0,0,0,0,0,0,0,90.39,1,-0.007,-0.023,0.0002,0.26,0,0.0002,0,0,0,0,0,0,1,1,0,0,VALID,0,0,0,0,0,1,0,0,0,0,0,0,0,0,0,0,0,0,0,0,216.72,476.39,2,0,0.08,0.08,160,14.29,0.08,0.06,14.04,LANDED,CF1-J,0:/Integrated Flight Computer/aircraft/cf1_j_cfg.ks (inferred preloaded)
14.5,TAKEOFF,TO_GROUND_ROLL,22.05,80,57.95,3.63,10.8,-0.12,-0.1,0.2,90.37,0.107,1,0,0,0,0,0,0,0,0,0,0,0,0,0,0,90.39,0,1,0,-0.32,0,0,0.01,90,0,0,0,0,0,0,0,0,-0.008,0,0,3,0,0,0,69,0,0,0,0,0,0,,0,NONE,0,0,0,0,0,0,0,0,0,0,0,10.8,0,0,0,0,0,0,0,0,0,90.39,1,-0.008,-0.017,0.0001,0.272,0,0.0001,0,0,0,0,0,0,1,1,0,0,VALID,0,0,0,0,0,1,0,0,0,0,0,0,0,0,0,0,0,0,0,0,220.85,475.94,2,0,0.08,0.08,164,14.29,0.08,0.06,14.32,LANDED,CF1-J,0:/Integrated Flight Computer/aircraft/cf1_j_cfg.ks (inferred preloaded)
14.78,TAKEOFF,TO_GROUND_ROLL,23.16,80,56.84,3.63,10.77,-0.13,-0.1,0.2,90.38,0.102,1,0,0,0,0,0,0,0,0,0,0,0,0,0,0,90.39,0,1,0,-0.32,0,0,0.01,90,0,0,0,0,0,0,0,0,-0.008,0,0,3,0,0,0,69,0,0,0,0,0,0,,0,NONE,0,0,0,0,0,0,0,0,0,0,0,10.77,0,0,0,0,0,0,0,0,0,90.39,1,-0.008,-0.011,0.0001,0.284,0,0.0001,0,0,0,0,0,0,1,1,0,0,VALID,0,0,0,0,0,1,0,0,0,0,0,0,0,0,0,0,0,0,0,0,224.88,475.48,2,0,0.08,0.08,168,14.29,0.08,0.06,14.6,LANDED,CF1-J,0:/Integrated Flight Computer/aircraft/cf1_j_cfg.ks (inferred preloaded)
15.06,TAKEOFF,TO_GROUND_ROLL,24.3,80,55.7,3.63,10.73,-0.13,-0.1,0.2,90.38,0.101,1,0,0,0,0,0,0,0,0,0,0,0,0,0,0,90.39,0,1,0,-0.32,0,0,0.01,90,0,0,0,0,0,0,0,0,-0.009,0,0,3,0,0,0,69,0,0,0,0,0,0,,0,NONE,0,0,0,0,0,0,0,0,0,0,0,10.73,0,0,0,0,0,0,0,0,0,90.39,1,-0.009,-0.014,0.0001,0.296,0,0.0001,0,0,0,0,0,0,1,1,0,0,VALID,0,0,0,0,0,1,0,0,0,0,0,0,0,0,0,0,0,0,0,0,228.83,474.99,2,0,0.08,0.08,172,14.29,0.08,0.06,14.88,LANDED,CF1-J,0:/Integrated Flight Computer/aircraft/cf1_j_cfg.ks (inferred preloaded)
15.34,TAKEOFF,TO_GROUND_ROLL,25.45,80,54.55,3.63,10.7,-0.14,-0.1,0.2,90.38,0.104,1,0,0,0,0,0,0,0,0,0,0,0,0,0,0,90.39,0,1,0,-0.32,0,0,0.01,90,0,0,0,0,0,0,0,0,-0.01,0,0,3,0,0,0,69,0,0,0,0,0,0,,0,NONE,0,0,0,0,0,0,0,0,0,0,0,10.7,0,0,0,0,0,0,0,0,0,90.39,1,-0.01,-0.01,0.0001,0.308,0,0.0001,0,0,0,0,0,0,1,1,0,0,VALID,0,0,0,0,0,1,0,0,0,0,0,0,0,0,0,0,0,0,0,0,232.69,474.49,2,0,0.08,0.08,176,14.29,0.08,0.06,15.16,LANDED,CF1-J,0:/Integrated Flight Computer/aircraft/cf1_j_cfg.ks (inferred preloaded)
15.62,TAKEOFF,TO_GROUND_ROLL,26.62,80,53.38,3.63,10.66,-0.15,-0.09,0.2,90.38,0.106,1,0,0,0,0,0,0,0,0,0,0,0,0,0,0,90.39,0,1,0,-0.31,0,0,0.01,90,0,0,0,0,0,0,0,0,-0.011,0,0,3,0,0,0,69,0,0,0,0,0,0,,0,NONE,0,0,0,0,0,0,0,0,0,0,0,10.66,0,0,0,0,0,0,0,0,0,90.39,1,-0.011,-0.007,0.0001,0.321,0,0.0001,0,0,0,0,0,0,1,1,0,0,VALID,0,0,0,0,0,1,0,0,0,0,0,0,0,0,0,0,0,0,0,0,236.46,473.97,2,0,0.08,0.08,180,14.29,0.08,0.06,15.44,LANDED,CF1-J,0:/Integrated Flight Computer/aircraft/cf1_j_cfg.ks (inferred preloaded)
15.9,TAKEOFF,TO_GROUND_ROLL,27.81,80,52.19,3.63,10.61,-0.15,-0.09,0.2,90.38,0.108,1,0,0,0,0,0,0,0,0,0,0,0,0,0,0,90.4,0,1,0,-0.31,0,0,0.01,90,0,0,0,0,0,0,0,0,-0.012,0,0,3,0,0,0,69,0,0,0,0,0,0,,0,NONE,0,0,0,0,0,0,0,0,0,0,0,10.61,0,0,0,0,0,0,0,0,0,90.4,1,-0.012,-0.021,0.0002,0.334,0,0.0002,0,0,0,0,0,0,1,1,0,0,VALID,0,0,0,0,0,1,0,0,0,0,0,0,0,0,0,0,0,0,0,0,240.15,473.44,2,0,0.08,0.08,184,14.29,0.08,0.06,15.72,LANDED,CF1-J,0:/Integrated Flight Computer/aircraft/cf1_j_cfg.ks (inferred preloaded)
16.18,TAKEOFF,TO_GROUND_ROLL,29.02,80,50.98,3.63,10.57,-0.16,-0.09,0.2,90.35,0.113,1,0,0,0,0,0,0,0,0,0,0,0,0,0,0,90.41,0,1,0,-0.31,0,0,0.01,90,0,0,0,0,0,0,0,0,-0.014,0,0,3,0,0,0,69,0,0,0,0,0,0,,0,NONE,0,0,0,0,0,0,0,0,0,0,0,10.57,0,0,0,0,0,0,0,0,0,90.41,1,-0.014,-0.059,0.0006,0.347,0,0.0006,0,0,0,0,0,0,1,1,0,0,VALID,0,0,0,0,0,1,0,0,0,0,0,0,0,0,0,0,0,0,0,0,243.75,472.89,2,0,0.08,0.08,188,14.29,0.08,0.06,16,LANDED,CF1-J,0:/Integrated Flight Computer/aircraft/cf1_j_cfg.ks (inferred preloaded)
16.46,TAKEOFF,TO_GROUND_ROLL,30.24,80,49.76,3.63,10.53,-0.16,-0.09,0.21,90.33,0.122,1,0,0,0,0,0,0,0,0,0,0,0,0,0,0,90.39,0,1,0,-0.31,0,0,0.01,90,0,0,0,0,0,0,0,0,-0.015,0,0,3,0,0,0,69,0,0,0,0,0,0,,0,NONE,0,0,0,0,0,0,0,0,0,0,0,10.53,0,0,0,0,0,0,0,0,0,90.39,1,-0.015,-0.053,0.0005,0.36,0,0.0005,0,0,0,0,0,0,1,1,0,0,VALID,0,0,0,0,0,1,0,0,0,0,0,0,0,0,0,0,0,0,0,0,247.28,472.32,2,0,0.08,0.08,192,14.29,0.08,0.06,16.28,LANDED,CF1-J,0:/Integrated Flight Computer/aircraft/cf1_j_cfg.ks (inferred preloaded)
16.74,TAKEOFF,TO_GROUND_ROLL,31.48,80,48.52,3.63,10.48,-0.17,-0.08,0.21,90.34,0.114,1,0,0,0,0,0,0,0,0,0,0,0,0,0,0,90.38,0,1,0,-0.31,0,0,0.01,90,0,0,0,0,0,0,0,0,-0.016,0,0,3,0,0,0,69,0,0,0,0,0,0,,0,NONE,0,0,0,0,0,0,0,0,0,0,0,10.48,0,0,0,0,0,0,0,0,0,90.38,1,-0.016,-0.035,0.0003,0.373,0,0.0003,0,0,0,0,0,0,1,1,0,0,VALID,0,0,0,0,0,1,0,0,0,0,0,0,0,0,0,0,0,0,0,0,250.72,471.73,2,0,0.08,0.08,196,14.29,0.08,0.06,16.56,LANDED,CF1-J,0:/Integrated Flight Computer/aircraft/cf1_j_cfg.ks (inferred preloaded)
17.02,TAKEOFF,TO_GROUND_ROLL,32.74,80,47.26,3.63,10.43,-0.18,-0.08,0.21,90.36,0.093,1,0,0,0,0,0,0,0,0,0,0,0,0,0,0,90.37,0,1,0,-0.31,0,0,0.02,90,0,0,0,0,0,0,0,0,-0.017,0,0,3,0,0,0,69,0,0,0,0,0,0,,0,NONE,0,0,0,0,0,0,0,0,0,0,0,10.43,0,0,0,0,0,0,0,0,0,90.37,1,-0.017,-0.018,0.0002,0.386,0,0.0002,0,0,0,0,0,0,1,1,0,0,VALID,0,0,0,0,0,1,0,0,0,0,0,0,0,0,0,0,0,0,0,0,254.07,471.12,2,0,0.08,0.08,200,14.29,0.08,0.06,16.84,LANDED,CF1-J,0:/Integrated Flight Computer/aircraft/cf1_j_cfg.ks (inferred preloaded)
17.3,TAKEOFF,TO_GROUND_ROLL,34.01,80,45.99,3.63,10.38,-0.18,-0.08,0.21,90.37,0.081,1,0,0,0,0,0,0,0,0,0,0,0,0,0,0,90.37,0,1,0,-0.31,0,0,0.02,90,0,0,0,0,0,0,0,0,-0.018,0,0,3,0,0,0,69,0,0,0,0,0,0,,0,NONE,0,0,0,0,0,0,0,0,0,0,0,10.38,0,0,0,0,0,0,0,0,0,90.37,1,-0.018,-0.006,0.0001,0.4,0,0.0001,0,0,0,0,0,0,1,1,0,0,VALID,0,0,0,0,0,1,0,0,0,0,0,0,0,0,0,0,0,0,0,0,257.35,470.5,2,0,0.08,0.08,204,14.29,0.08,0.06,17.12,LANDED,CF1-J,0:/Integrated Flight Computer/aircraft/cf1_j_cfg.ks (inferred preloaded)
17.58,TAKEOFF,TO_GROUND_ROLL,35.3,80,44.7,3.63,10.33,-0.19,-0.08,0.21,90.38,0.087,1,0,0,0,0,0,0,0,0,0,0,0,0,0,0,90.37,0,1,0,-0.31,0,0,0.02,90,0,0,0,0,0,0,0,0,-0.02,0,0,3,0,0,0,69,0,0,0,0,0,0,,0,NONE,0,0,0,0,0,0,0,0,0,0,0,10.33,0,0,0,0,0,0,0,0,0,90.37,1,-0.02,0.002,0,0.414,0,0,0,0,0,0,0,0,1,1,0,0,VALID,0,0,0,0,0,1,0,0,0,0,0,0,0,0,0,0,0,0,0,0,260.55,469.86,2,0,0.08,0.08,208,14.29,0.08,0.06,17.4,LANDED,CF1-J,0:/Integrated Flight Computer/aircraft/cf1_j_cfg.ks (inferred preloaded)
17.86,TAKEOFF,TO_GROUND_ROLL,36.6,80,43.4,3.63,10.28,-0.2,-0.08,0.21,90.38,0.102,1,0,0,0,0,0,0,0,0,0,0,0,0,0,0,90.38,0,1,0,-0.31,0,0,0.02,90,0,0,0,0,0,0,0,0,-0.021,0,0,3,0,0,0,69,0,0,0,0,0,0,,0,NONE,0,0,0,0,0,0,0,0,0,0,0,10.28,0,0,0,0,0,0,0,0,0,90.38,1,-0.021,0.007,-0.0001,0.428,0,-0.0001,0,0,0,0,0,0,1,1,0,0,VALID,0,0,0,0,0,1,0,0,0,0,0,0,0,0,0,0,0,0,0,0,263.67,469.2,2,0,0.08,0.08,212,14.29,0.08,0.06,17.68,LANDED,CF1-J,0:/Integrated Flight Computer/aircraft/cf1_j_cfg.ks (inferred preloaded)
18.14,TAKEOFF,TO_GROUND_ROLL,37.91,80,42.09,3.63,10.22,-0.2,-0.07,0.21,90.38,0.111,1,0,0,0,0,0,0,0,0,0,0,0,0,0,0,90.38,0,1,0,-0.3,0,0,0.02,90,0,0,0,0,0,0,0,0,-0.022,0,0,3,0,0,0,69,0,0,0,0,0,0,,0,NONE,0,0,0,0,0,0,0,0,0,0,0,10.22,0,0,0,0,0,0,0,0,0,90.38,1,-0.022,0.007,-0.0001,0.442,0,-0.0001,0,0,0,0,0,0,1,1,0,0,VALID,0,0,0,0,0,1,0,0,0,0,0,0,0,0,0,0,0,0,0,0,266.72,468.52,2,0,0.08,0.08,216,14.29,0.08,0.06,17.96,LANDED,CF1-J,0:/Integrated Flight Computer/aircraft/cf1_j_cfg.ks (inferred preloaded)
18.42,TAKEOFF,TO_GROUND_ROLL,39.24,80,40.76,3.63,10.16,-0.21,-0.07,0.21,90.38,0.112,1,0,0,0,0,0,0,0,0,0,0,0,0,0,0,90.38,0,1,0,-0.3,0,0,0.02,90,0,0,0,0,0,0,0,0,-0.024,0,0,3,0,0,0,69,0,0,0,0,0,0,,0,NONE,0,0,0,0,0,0,0,0,0,0,0,10.16,0,0,0,0,0,0,0,0,0,90.38,1,-0.024,-0.001,0,0.456,0,0,0,0,0,0,0,0,1,1,0,0,VALID,0,0,0,0,0,1,0,0,0,0,0,0,0,0,0,0,0,0,0,0,269.68,467.83,2,0,0.08,0.08,220,14.29,0.08,0.06,18.24,LANDED,CF1-J,0:/Integrated Flight Computer/aircraft/cf1_j_cfg.ks (inferred preloaded)
18.7,TAKEOFF,TO_GROUND_ROLL,40.58,80,39.42,3.63,10.1,-0.21,-0.07,0.22,90.37,0.108,1,0,0,0,0,0,0,0,0,0,0,0,0,0,0,90.38,0,1,0,-0.3,0,0,0.02,90,0,0,0,0,0,0,0,0,-0.026,0,0,3,0,0,0,69,0,0,0,0,0,0,,0,NONE,0,0,0,0,0,0,0,0,0,0,0,10.1,0,0,0,0,0,0,0,0,0,90.38,1,-0.026,-0.003,0,0.47,0,0,0,0,0,0,0,0,1,1,0,0,VALID,0,0,0,0,0,1,0,0,0,0,0,0,0,0,0,0,0,0,0,0,272.57,467.12,2,0,0.08,0.08,224,14.29,0.08,0.06,18.52,LANDED,CF1-J,0:/Integrated Flight Computer/aircraft/cf1_j_cfg.ks (inferred preloaded)
18.98,TAKEOFF,TO_GROUND_ROLL,41.93,80,38.07,3.63,10.04,-0.22,-0.07,0.22,90.37,0.104,1,0,0,0,0,0,0,0,0,0,0,0,0,0,0,90.37,0,1,0,-0.3,0,0,0.02,90,0,0,0,0,0,0,0,0,-0.027,0,0,3,0,0,0,69,0,0,0,0,0,0,,0,NONE,0,0,0,0,0,0,0,0,0,0,0,10.04,0,0,0,0,0,0,0,0,0,90.37,1,-0.027,0,0,0.485,0,0,0,0,0,0,0,0,1,1,0,0,VALID,0,0,0,0,0,1,0,0,0,0,0,0,0,0,0,0,0,0,0,0,275.39,466.4,2,0,0.08,0.08,228,14.29,0.08,0.06,18.8,LANDED,CF1-J,0:/Integrated Flight Computer/aircraft/cf1_j_cfg.ks (inferred preloaded)
19.26,TAKEOFF,TO_GROUND_ROLL,43.3,80,36.7,3.63,9.98,-0.23,-0.06,0.22,90.37,0.1,1,0,0,0,0,0,0,0,0,0,0,0,0,0,0,90.37,0,1,0,-0.3,0,0,0.02,90,0,0,0,0,0,0,0,0,-0.029,0,0,3,0,0,0,69,0,0,0,0,0,0,,0,NONE,0,0,0,0,0,0,0,0,0,0,0,9.98,0,0,0,0,0,0,0,0,0,90.37,1,-0.029,0.004,0,0.5,0,0,0,0,0,0,0,0,1,1,0,0,VALID,0,0,0,0,0,1,0,0,0,0,0,0,0,0,0,0,0,0,0,0,278.13,465.65,2,0,0.08,0.08,232,14.29,0.08,0.06,19.08,LANDED,CF1-J,0:/Integrated Flight Computer/aircraft/cf1_j_cfg.ks (inferred preloaded)
19.54,TAKEOFF,TO_GROUND_ROLL,44.67,80,35.33,3.63,9.92,-0.23,-0.06,0.22,90.37,0.1,1,0,0,0,0,0,0,0,0,0,0,0,0,0,0,90.37,0,1,0,-0.3,0,0,0.02,90,0,0,0,0,0,0,0,0,-0.031,0,0,3,0,0,0,69,0,0,0,0,0,0,,0,NONE,0,0,0,0,0,0,0,0,0,0,0,9.92,0,0,0,0,0,0,0,0,0,90.37,1,-0.031,0.001,0,0.514,0,0,0,0,0,0,0,0,1,1,0,0,VALID,0,0,0,0,0,1,0,0,0,0,0,0,0,0,0,0,0,0,0,0,280.8,464.9,2,0,0.08,0.08,236,14.29,0.08,0.06,19.36,LANDED,CF1-J,0:/Integrated Flight Computer/aircraft/cf1_j_cfg.ks (inferred preloaded)
19.82,TAKEOFF,TO_GROUND_ROLL,46.06,80,33.94,3.63,9.85,-0.24,-0.06,0.22,90.37,0.104,1,0,0,0,0,0,0,0,0,0,0,0,0,0,0,90.37,0,1,0,-0.3,0,0,0.03,90,0,0,0,0,0,0,0,0,-0.032,0,0,3,0,0,0,69,0,0,0,0,0,0,,0,NONE,0,0,0,0,0,0,0,0,0,0,0,9.85,0,0,0,0,0,0,0,0,0,90.37,1,-0.032,-0.001,0,0.529,0,0,0,0,0,0,0,0,1,1,0,0,VALID,0,0,0,0,0,1,0,0,0,0,0,0,0,0,0,0,0,0,0,0,283.4,464.12,2,0,0.08,0.08,240,14.29,0.08,0.06,19.64,LANDED,CF1-J,0:/Integrated Flight Computer/aircraft/cf1_j_cfg.ks (inferred preloaded)
20.1,TAKEOFF,TO_GROUND_ROLL,47.46,80,32.54,3.63,9.79,-0.24,-0.06,0.22,90.37,0.108,1,0,0,0,0,0,0,0,0,0,0,0,0,0,0,90.37,0,1,0,-0.29,0,0,0.03,90,0,0,0,0,0,0,0,0,-0.034,0,0,3,0,0,0,69,0,0,0,0,0,0,,0,NONE,0,0,0,0,0,0,0,0,0,0,0,9.79,0,0,0,0,0,0,0,0,0,90.37,1,-0.034,-0.001,0,0.544,0,0,0,0,0,0,0,0,1,1,0,0,VALID,0,0,0,0,0,1,0,0,0,0,0,0,0,0,0,0,0,0,0,0,285.93,463.33,2,0,0.08,0.08,244,14.29,0.08,0.06,19.92,LANDED,CF1-J,0:/Integrated Flight Computer/aircraft/cf1_j_cfg.ks (inferred preloaded)
20.38,TAKEOFF,TO_GROUND_ROLL,48.87,80,31.13,3.64,9.72,-0.25,-0.05,0.22,90.36,0.107,1,0,0,0,0,0,0,0,0,0,0,0,0,0,0,90.36,0,1,0,-0.29,0,0,0.03,90,0,0,0,0,0,0,0,0,-0.036,0,0,3,0,0,0,69,0,0,0,0,0,0,,0,NONE,0,0,0,0,0,0,0,0,0,0,0,9.72,0,0,0,0,0,0,0,0,0,90.36,1,-0.036,0,0,0.559,0,0,0,0,0,0,0,0,1,1,0,0,VALID,0,0,0,0,0,1,0,0,0,0,0,0,0,0,0,0,0,0,0,0,288.38,462.53,2,0,0.08,0.08,248,14.29,0.08,0.06,20.2,LANDED,CF1-J,0:/Integrated Flight Computer/aircraft/cf1_j_cfg.ks (inferred preloaded)
20.66,TAKEOFF,TO_GROUND_ROLL,50.29,80,29.71,3.64,9.65,-0.25,-0.05,0.22,90.36,0.103,1,0,0,0,0,0,0,0,0,0,0,0,0,0,0,90.36,0,1,0,-0.29,0,0,0.03,90,0,0,0,0,0,0,0,0,-0.038,0,0,3,0,0,0,69,0,0,0,0,0,0,,0,NONE,0,0,0,0,0,0,0,0,0,0,0,9.65,0,0,0,0,0,0,0,0,0,90.36,1,-0.038,0.002,0,0.575,0,0,0,0,0,0,0,0,1,1,0,0,VALID,0,0,0,0,0,1,0,0,0,0,0,0,0,0,0,0,0,0,0,0,290.77,461.71,2,0,0.08,0.08,252,14.29,0.08,0.06,20.48,LANDED,CF1-J,0:/Integrated Flight Computer/aircraft/cf1_j_cfg.ks (inferred preloaded)
20.94,TAKEOFF,TO_GROUND_ROLL,51.72,80,28.28,3.64,9.58,-0.26,-0.05,0.23,90.36,0.1,1,0,0,0,0,0,0,0,0,0,0,0,0,0,0,90.36,0,1,0,-0.29,0,0,0.03,90,0,0,0,0,0,0,0,0,-0.04,0,0,3,0,0,0,69,0,0,0,0,0,0,,0,NONE,0,0,0,0,0,0,0,0,0,0,0,9.58,0,0,0,0,0,0,0,0,0,90.36,1,-0.04,0.005,-0.0001,0.59,0,-0.0001,0,0,0,0,0,0,1,1,0,0,VALID,0,0,0,0,0,1,0,0,0,0,0,0,0,0,0,0,0,0,0,0,293.09,460.88,2,0,0.08,0.08,256,14.29,0.08,0.06,20.76,LANDED,CF1-J,0:/Integrated Flight Computer/aircraft/cf1_j_cfg.ks (inferred preloaded)
21.22,TAKEOFF,TO_GROUND_ROLL,53.15,80,26.85,3.64,9.51,-0.27,-0.03,0.24,90.37,0.098,1,0,0,0,0,0,0,0,0,0,0,0,0,0,0,90.36,0,1,0,-0.29,0,0,0.03,90,0,0,0,0,0,0,0,0,-0.042,0,0,3,0,0,0,69,0,0,0,0,0,0,,0,NONE,0,0,0,0,0,0,0,0,0,0,0,9.51,0,0,0,0,0,0,0,0,0,90.36,1,-0.042,0.009,-0.0001,0.605,0,-0.0001,0,0,0,0,0,0,1,1,0,0,VALID,0,0,0,0,0,1,0,0,0,0,0,0,0,0,0,0,0,0,0,0,295.35,460.03,2,0,0.08,0.08,260,14.29,0.08,0.06,21.04,LANDED,CF1-J,0:/Integrated Flight Computer/aircraft/cf1_j_cfg.ks (inferred preloaded)
21.5,TAKEOFF,TO_GROUND_ROLL,54.6,80,25.4,3.65,9.44,-0.27,0.01,0.28,90.37,0.098,1,0,0,0,0,0,0,0,0,0,0,0,0,0,0,90.35,0,1,0,-0.28,0,0,0.03,90,0,0,0,0,0,0,0,0,-0.044,0,0,3,0,0,0,69,0,0,0,0,0,0,,0,NONE,0,0,0,0,0,0,0,0,0,0,0,9.44,0,0,0,0,0,0,0,0,0,90.35,1,-0.044,0.015,-0.0002,0.621,0,-0.0002,0,0,0,0,0,0,1,1,0,0,VALID,0,0,0,0,0,1,0,0,0,0,0,0,0,0,0,0,0,0,0,0,297.54,459.17,2,0,0.08,0.08,264,14.29,0.08,0.06,21.32,LANDED,CF1-J,0:/Integrated Flight Computer/aircraft/cf1_j_cfg.ks (inferred preloaded)
21.78,TAKEOFF,TO_GROUND_ROLL,56.05,80,23.95,3.66,9.37,-0.27,0.06,0.33,90.37,0.098,1,0,0,0,0,0,0,0,0,0,0,0,0,0,0,90.35,0,1,0,-0.28,0,0,0.04,90,0,0,0,0,0,0,0,0,-0.046,0,0,3,0,0,0,69,0,0,0,0,0,0,,0,NONE,0,0,0,0,0,0,0,0,0,0,0,9.37,0,0,0,0,0,0,0,0,0,90.35,1,-0.046,0.019,-0.0003,0.636,0,-0.0003,0,0,0,0,0,0,1,1,0,0,VALID,0,0,0,0,0,1,0,0,0,0,0,0,0,0,0,0,0,0,0,0,299.66,458.3,2,0,0.08,0.08,268,14.29,0.08,0.06,21.6,LANDED,CF1-J,0:/Integrated Flight Computer/aircraft/cf1_j_cfg.ks (inferred preloaded)
22.06,TAKEOFF,TO_GROUND_ROLL,57.51,80,22.49,3.68,9.32,-0.24,0.13,0.36,90.37,0.098,1,0,0,0,0,0,0,0,0,0,0,0,0,0,0,90.35,0,1,0,-0.24,0,0,0.04,90,0,0,0,0,0,0,0,0,-0.048,0,0,3,0,0,0,69,0,0,0,0,0,0,,0,NONE,0,0,0,0,0,0,0,0,0,0,0,9.32,0,0,0,0,0,0,0,0,0,90.35,1,-0.048,0.025,-0.0004,0.652,0,-0.0004,0,0,0,0,0,0,1,1,0,0,VALID,0,0,0,0,0,1,0,0,0,0,0,0,0,0,0,0,0,0,0,0,301.73,457.41,2,0,0.08,0.08,272,14.29,0.08,0.06,21.88,LANDED,CF1-J,0:/Integrated Flight Computer/aircraft/cf1_j_cfg.ks (inferred preloaded)
22.34,TAKEOFF,TO_GROUND_ROLL,58.98,80,21.02,3.7,9.25,-0.27,0.25,0.5,90.38,0.097,1,0,0,0,0,0,0,0,0,0,0,0,0,0,0,90.35,0,1,0,-0.26,0,0,0.04,90,0,0,0,0,0,0,0,0,-0.05,0,0,3,0,0,0,69,0,0,0,0,0,0,,0,NONE,0,0,0,0,0,0,0,0,0,0,0,9.25,0,0,0,0,0,0,0,0,0,90.35,1,-0.05,0.033,-0.0006,0.668,0,-0.0006,0,0,0,0,0,0,1,1,0,0,VALID,0,0,0,0,0,1,0,0,0,0,0,0,0,0,0,0,0,0,0,0,303.73,456.52,2,0,0.08,0.08,276,14.29,0.08,0.06,22.16,LANDED,CF1-J,0:/Integrated Flight Computer/aircraft/cf1_j_cfg.ks (inferred preloaded)
22.62,TAKEOFF,TO_GROUND_ROLL,60.46,80,19.54,3.72,9.19,-0.3,0.36,0.63,90.38,0.096,1,0,0,0,0,0,0,0,0,0,0,0,0,0,0,90.34,0,1,0,-0.29,0,0,0.04,90,0,0,0,0,0,0,0,0,-0.053,0,0,3,0,0,0,69,0,0,0,0,0,0,,0,NONE,0,0,0,0,0,0,0,0,0,0,0,9.19,0,0,0,0,0,0,0,0,0,90.34,1,-0.053,0.038,-0.0007,0.683,0,-0.0007,0,0,0,0,0,0,1,1,0,0,VALID,0,0,0,0,0,1,0,0,0,0,0,0,0,0,0,0,0,0,0,0,305.67,455.61,2,0,0.08,0.08,280,14.29,0.08,0.06,22.44,LANDED,CF1-J,0:/Integrated Flight Computer/aircraft/cf1_j_cfg.ks (inferred preloaded)
22.9,TAKEOFF,TO_GROUND_ROLL,61.93,80,18.07,3.74,9.12,-0.29,0.45,0.71,90.39,0.095,1,0,0,0,0,0,0,0,0,0,0,0,0,0,0,90.34,0,1,0,-0.27,0,0,0.04,90,0,0,0,0,0,0,0,0,-0.055,0,0,3,0,0,0,69,0,0,0,0,0,0,,0,NONE,0,0,0,0,0,0,0,0,0,0,0,9.12,0,0,0,0,0,0,0,0,0,90.34,1,-0.055,0.044,-0.0008,0.699,0,-0.0008,0,0,0,0,0,0,1,1,0,0,VALID,0,0,0,0,0,1,0,0,0,0,0,0,0,0,0,0,0,0,0,0,307.55,454.69,2,0,0.08,0.08,284,14.29,0.08,0.06,22.72,LANDED,CF1-J,0:/Integrated Flight Computer/aircraft/cf1_j_cfg.ks (inferred preloaded)
23.18,TAKEOFF,TO_GROUND_ROLL,63.42,80,16.58,3.75,9.05,-0.3,0.51,0.77,90.39,0.095,1,0,0,0,0,0,0,0,0,0,0,0,0,0,0,90.34,0,1,0,-0.27,0,0,0.04,90,0,0,0,0,0,0,0,0,-0.058,0,0,3,0,0,0,69,0,0,0,0,0,0,,0,NONE,0,0,0,0,0,0,0,0,0,0,0,9.05,0,0,0,0,0,0,0,0,0,90.34,1,-0.058,0.05,-0.001,0.715,0,-0.001,0,0,0,0,0,0,1,1,0,0,VALID,0,0,0,0,0,1,0,0,0,0,0,0,0,0,0,0,0,0,0,0,309.37,453.76,2,0,0.08,0.08,288,14.29,0.08,0.06,23,LANDED,CF1-J,0:/Integrated Flight Computer/aircraft/cf1_j_cfg.ks (inferred preloaded)
23.46,TAKEOFF,TO_GROUND_ROLL,64.9,80,15.1,3.75,8.97,-0.3,0.55,0.8,90.39,0.094,1,0,0,0,0,0,0,0,0,0,0,0,0,0,0,90.34,0,1,0,-0.27,0,0,0.05,90,0,0,0,0,0,0,0,0,-0.06,0,0,3,0,0,0,69,0,0,0,0,0,0,,0,NONE,0,0,0,0,0,0,0,0,0,0,0,8.97,0,0,0,0,0,0,0,0,0,90.34,1,-0.06,0.056,-0.0011,0.731,0,-0.0011,0,0,0,0,0,0,1,1,0,0,VALID,0,0,0,0,0,1,0,0,0,0,0,0,0,0,0,0,0,0,0,0,311.14,452.83,2,0,0.08,0.08,292,14.29,0.08,0.06,23.28,LANDED,CF1-J,0:/Integrated Flight Computer/aircraft/cf1_j_cfg.ks (inferred preloaded)
23.74,TAKEOFF,TO_GROUND_ROLL,66.39,80,13.61,3.76,8.89,-0.31,0.58,0.84,90.4,0.094,1,0,0,0,0,0,0,0,0,0,0,0,0,0,0,90.33,0,1,0,-0.27,0,0,0.05,90,0,0,0,0,0,0,0,0,-0.063,0,0,3,0,0,0,69,0,0,0,0,0,0,,0,NONE,0,0,0,0,0,0,0,0,0,0,0,8.89,0,0,0,0,0,0,0,0,0,90.33,1,-0.063,0.062,-0.0013,0.747,0,-0.0013,0,0,0,0,0,0,1,1,0,0,VALID,0,0,0,0,0,1,0,0,0,0,0,0,0,0,0,0,0,0,0,0,312.85,451.88,2,0,0.08,0.08,296,14.29,0.08,0.06,23.56,LANDED,CF1-J,0:/Integrated Flight Computer/aircraft/cf1_j_cfg.ks (inferred preloaded)
24.02,TAKEOFF,TO_GROUND_ROLL,67.89,80,12.11,3.77,8.81,-0.31,0.62,0.87,90.4,0.093,1,0,0,0,0,0,0,0,0,0,0,0,0,0,0,90.33,0,1,0,-0.27,0,0,0.05,90,0,0,0,0,0,0,0,0,-0.066,0,0,3,0,0,0,69,0,0,0,0,0,0,,0,NONE,0,0,0,0,0,0,0,0,0,0,0,8.81,0,0,0,0,0,0,0,0,0,90.33,1,-0.066,0.067,-0.0015,0.763,0,-0.0015,0,0,0,0,0,0,1,1,0,0,VALID,0,0,0,0,0,1,0,0,0,0,0,0,0,0,0,0,0,0,0,0,314.5,450.93,2,0,0.08,0.08,300,14.29,0.08,0.06,23.84,LANDED,CF1-J,0:/Integrated Flight Computer/aircraft/cf1_j_cfg.ks (inferred preloaded)
24.3,TAKEOFF,TO_ROTATE,69.49,80,10.51,3.78,8.72,-0.32,0.68,0.93,90.4,0.093,1,0,0,0,0,0,0,0,0,0,0,0,0,0,0,90.33,1.289,1,0,-0.26,0,0,0.05,90,0,0,0,0,0,0,0,0,-0.069,0,0,3,0,0,0,69,0,0,0,0,0,0,,0,NONE,0,0,0,0,0,0,0,0.129,0,0,0,8.72,0,0,0,0,0,0,0,0,0,90.33,1,-0.069,0.073,-0.0016,0.779,0,-0.0016,0,0.129,1.289,0.613,0.08,0,1,1,0,0,VALID,0,0,0,0,0,1,0,0,0,0,0,0,0,0,0,0,0,0,0,0,316.21,449.9,2,0,0.08,0.08,304,13.33,0.08,0.06,24.12,LANDED,CF1-J,0:/Integrated Flight Computer/aircraft/cf1_j_cfg.ks (inferred preloaded)
24.58,TAKEOFF,TO_ROTATE,70.99,80,9.01,3.8,8.66,-0.32,0.8,1.04,90.41,0.093,1,0,0,0,0,0,0,0,0,0,0,0,0,0,0,90.33,2.129,1,0,-0.25,0,0,0.05,90,0,0,0,0,0,0,0,0,-0.072,0,0,3,0,0,0,69,0,0,0,0,0,0,,0,NONE,0,0,0,0,0,0,0,0.1861,0,0,0,8.66,0,0,0,0,0,0,0,0,0,90.33,1,-0.072,0.079,-0.0018,0.795,0,-0.0018,0,0.1861,2.129,1.327,0.08,0,1,1,0,0,VALID,0,0,0,0,0,1,0,0,0,0,0,0,0,0,0,0,0,0,0,0,317.76,448.94,2,0,0.08,0.08,308,14.29,0.08,0.06,24.4,LANDED,CF1-J,0:/Integrated Flight Computer/aircraft/cf1_j_cfg.ks (inferred preloaded)
24.86,TAKEOFF,TO_ROTATE,72.49,80,7.51,3.85,8.61,-0.31,1.03,1.27,90.41,0.093,1,0,0,0,0,0,0,0,0,0,0,0,0,0,0,90.32,2.969,1,0,-0.25,0,0,0.06,90,0,0,0,0,0,0,0,0,-0.075,0,0,3,0,0,0,69,0,0,0,0,0,0,,0,NONE,0,0,0,0,0,0,0,0.2348,0,0,0,8.61,0,0,0,0,0,0,0,0,0,90.32,1,-0.075,0.085,-0.002,0.811,0,-0.002,0,0.2348,2.969,1.935,0.08,0,1,1,0,0,VALID,0,0,0,0,0,1,0,0,0,0,0,0,0,0,0,0,0,0,0,0,319.26,447.96,2,0,0.08,0.08,312,14.29,0.08,0.06,24.68,LANDED,CF1-J,0:/Integrated Flight Computer/aircraft/cf1_j_cfg.ks (inferred preloaded)
25.14,TAKEOFF,TO_ROTATE,73.99,80,6.01,3.9,8.57,-0.29,1.34,1.56,90.41,0.091,1,0,0,0,0,0,0,0,0,0,0,0,0,0,0,90.32,3.809,1,0,-0.23,0,0,0.06,90,0,0,0,0,0,0,0,0,-0.078,0,0,3,0,0,0,69,0,0,0,0,0,0,,0,NONE,0,0,0,0,0,0,0,0.2776,0,0,0,8.57,0,0,0,0,0,0,0,0,0,90.32,1,-0.078,0.091,-0.0022,0.827,0,-0.0022,0,0.2776,3.809,2.47,0.08,0,1,1,0,0,VALID,0,0,0,0,0,1,0,0,0,0,0,0,0,0,0,0,0,0,0,0,320.7,446.99,2,0,0.08,0.08,316,14.29,0.08,0.06,24.96,LANDED,CF1-J,0:/Integrated Flight Computer/aircraft/cf1_j_cfg.ks (inferred preloaded)
25.42,TAKEOFF,TO_ROTATE,75.48,80,4.52,3.98,8.55,-0.26,1.71,1.9,90.41,0.086,1,0,0,0,0,0,0,0,0,0,0,0,0,0,0,90.32,4.649,1,0,-0.2,0,0,0.06,90,0,0,0,0,0,0,0,0,-0.081,0,0,3,0,0,0,69,0,0,0,0,0,0,,0,NONE,0,0,0,0,0,0,0,0.315,0,0,0,8.55,0,0,0,0,0,0,0,0,0,90.32,1,-0.081,0.095,-0.0024,0.843,0,-0.0024,0,0.315,4.649,2.938,0.08,0,1,1,0,0,VALID,0,0,0,0,0,1,0,0,0,0,0,0,0,0,0,0,0,0,0,0,322.11,446.02,2,0,0.08,0.08,320,14.29,0.08,0.06,25.24,LANDED,CF1-J,0:/Integrated Flight Computer/aircraft/cf1_j_cfg.ks (inferred preloaded)
25.7,TAKEOFF,TO_ROTATE,76.95,80,3.05,4.12,8.59,-0.35,2.22,2.45,90.42,0.085,1,0,0,0,0,0,0,0,0,0,0,0,0,0,0,90.31,5.489,1,0,-0.24,0,0,0.06,90,0,0,0,0,0,0,0,0,-0.084,0,0,3,0,0,0,69,0,0,0,0,0,0,,0,NONE,0,0,0,0,0,0,0,0.3416,0,0,0,8.59,0,0,0,0,0,0,0,0,0,90.31,1,-0.084,0.101,-0.0026,0.859,0,-0.0026,0,0.3416,5.489,3.27,0.08,0,1,1,0,0,VALID,0,0,0,0,0,1,0,0,0,0,0,0,0,0,0,0,0,0,0,0,323.47,445.05,2,0,0.08,0.08,324,14.29,0.08,0.06,25.52,LANDED,CF1-J,0:/Integrated Flight Computer/aircraft/cf1_j_cfg.ks (inferred preloaded)
25.98,TAKEOFF,TO_ROTATE,78.41,80,1.59,4.28,8.66,-0.13,3.09,3.18,90.42,0.087,1,0,0,0,0,0,0,0,0,0,0,0,0,0,0,90.31,6.329,1,0,-0.1,0,0,0.06,90,0,0,0,0,0,0,0,0,-0.087,0,0,3,0,0,0,69,0,0,0,0,0,0,,0,NONE,0,0,0,0,0,0,0,0.3394,0,0,0,8.66,0,0,0,0,0,0,0,0,0,90.31,1,-0.087,0.108,-0.0029,0.875,0,-0.0029,0,0.3394,6.329,3.243,0.08,0,1,1,0,0,VALID,0,0,0,0,0,1,0,0,0,0,0,0,0,0,0,0,0,0,0,0,324.8,444.09,2,0,0.08,0.08,328,14.29,0.08,0.06,25.8,LANDED,CF1-J,0:/Integrated Flight Computer/aircraft/cf1_j_cfg.ks (inferred preloaded)
26.26,TAKEOFF,TO_ROTATE,79.83,80,0.17,4.49,8.77,-0.23,4.18,4.34,90.42,0.084,1,0,0,0,0,0,0,0,0,0,0,0,0,0,0,90.31,7.169,1,0,-0.18,0,0,0.07,90,0,0,0,0,0,0,0,0,-0.091,0,0,3,0,0,0,69,0,0,0,0,0,0,,0,NONE,0,0,0,0,0,0,0,0.3193,0,0,0,8.77,0,0,0,0,0,0,0,0,0,90.31,1,-0.091,0.113,-0.0031,0.89,0,-0.0031,0,0.3193,7.169,2.992,0.08,0,1,1,0,0,VALID,0,0,0,0,0,1,0,0,0,0,0,0,0,0,0,0,0,0,0,0,326.1,443.16,2,0,0.08,0.08,332,14.29,0.08,0.06,26.08,LANDED,CF1-J,0:/Integrated Flight Computer/aircraft/cf1_j_cfg.ks (inferred preloaded)
26.54,TAKEOFF,TO_ROTATE,81.18,80,-1.18,4.75,8.93,-0.09,5.41,5.48,90.42,0.07,1,0,0,0,0,0,0,0,0,0,0,0,0,0,0,90.31,8.009,1,0,-0.07,0,0,0.07,90,0,0,0,0,0,0,0,0,-0.094,0,0,3,0,0,0,69,0,0,0,0,0,0,,0,NONE,0,0,0,0,0,0,0,0.2879,0,0,0,8.93,0,0,0,0,0,0,0,0,0,90.31,1,-0.094,0.115,-0.0032,0.905,0,-0.0032,0,0.2879,8.009,2.598,0.08,0,1,1,0,0,VALID,0,0,0,0,0,1,0,0,0,0,0,0,0,0,0,0,0,0,0,0,327.38,442.26,2,0,0.08,0.08,336,14.29,0.08,0.06,26.36,LANDED,CF1-J,0:/Integrated Flight Computer/aircraft/cf1_j_cfg.ks (inferred preloaded)
26.8,TAKEOFF,TO_ROTATE,82.37,80,-2.37,5.03,9.12,0.41,6.47,6.18,90.42,0.033,1,0,0,0,0,0,0,0,0,0,0,0,0,0,0,90.4,8.849,0,1,0.29,0,0,8.61,90.4,0.2812,-0.0068,0.9596,8.85,90.4,0,0,0,0,0,0,3,0,0,0,69,0,0,0,0,0,0,,0,NONE,0,0,0,0,0,0,0,0,0,0,0,9.12,0,0,0,0,0,0,0,0,0,90.4,1,0,0.019,0,0,3,0,0,0,8.849,2.383,0,0,1,1,0,0,VALID,0,0,0,0,0,1,0,0,0,0,0,0,0,0,0,0,0,0,0,0,328.57,441.46,2,0,0.08,0.08,340,15.38,0.08,0.06,26.64,FLYING,CF1-J,0:/Integrated Flight Computer/aircraft/cf1_j_cfg.ks (inferred preloaded)
27.08,TAKEOFF,TO_ROTATE,83.59,80,-3.59,5.42,9.41,1.13,6.94,6.22,90.42,0.025,1,0,0,0,0,0,0,0,0,0,0,0,0,0,0,90.4,9.689,0,1,0.78,0,0,9.45,90.4,0.2952,-0.0068,0.9554,9.69,90.4,0,0,0,0,0,0,3,0,0,0,69,0,0,0,0,0,0,,0,NONE,0,0,0,0,0,0,0,0,0,0,0,9.41,0,0,0,0,0,0,0,0,0,90.4,1,0,0.019,0,0,3,0,0,0,9.689,2.748,0,0,1,1,0,0,VALID,0,0,0,0,0,1,0,0,0,0,0,0,0,0,0,0,0,0,0,0,329.83,440.63,2,0,0.08,0.08,344,14.29,0.08,0.06,26.92,FLYING,CF1-J,0:/Integrated Flight Computer/aircraft/cf1_j_cfg.ks (inferred preloaded)
27.36,TAKEOFF,TO_ROTATE,84.79,80,-4.79,5.89,9.78,1.94,6.43,5.27,90.42,0.02,1,0,0,0,0,0,0,0,0,0,0,0,0,0,0,90.4,10,0,1,1.31,0,0,10,90.4,0.3004,-0.0067,0.9538,10,90.4,0,0,0,0,0,0,3,0,0,0,69,0,0,0,0,0,0,,0,NONE,0,0,0,0,0,0,0,0,0,0,0,9.78,0,0,0,0,0,0,0,0,0,90.4,1,0,0.019,0,0,3,0,0,0,10,3.568,0,0,1,1,0,0,VALID,0,0,0,0,0,1,0,0,0,0,0,0,0,0,0,0,0,0,0,0,331.06,439.81,2,0,0.08,0.08,348,14.29,0.08,0.06,27.2,FLYING,CF1-J,0:/Integrated Flight Computer/aircraft/cf1_j_cfg.ks (inferred preloaded)
27.64,TAKEOFF,TO_CLIMB,86.02,80,-6.02,6.5,10.3,2.21,5.98,4.58,90.42,0.018,0.912,0,0,0,0,0,0,0,0,0,0,0,0,0,0,90.4,6.592,0,1,1.47,0,0,6.46,90.4,0.2431,-0.0069,0.97,6.59,90.4,0,0,0,0,0,0,3,0,0,0,69,0,0,0,0,0,0,,0,NONE,0,0,0,0,0,0,0,0,0,0,0,10.3,0,0,0,0,0,0,0,0,0,90.4,1,0,0.018,0,0,3,0,0,0,10,3.76,0,0,1,1,0,0,VALID,0,0,0,0,0,1,0,0,0,0,0,0,0,0,0,0,0,0,0,0,332.11,438.95,2,0,0.08,0.08,352,14.29,0.08,0.06,27.48,FLYING,CF1-J,0:/Integrated Flight Computer/aircraft/cf1_j_cfg.ks (inferred preloaded)
27.92,TAKEOFF,TO_CLIMB,87.28,80,-7.28,7.28,10.97,2.68,5.91,4.29,90.42,0.017,0.8772,0,0,0,0,0,0,0,0,0,0,0,0,0,0,90.4,7.04,0,1,1.76,0,0,6.91,90.4,0.2507,-0.0068,0.9681,7.04,90.4,0,0,0,0,0,0,3,0,0,0,69,0,0,0,0,0,0,,0,NONE,0,0,0,0,0,0,0,0,0,0,0,10.97,0,0,0,0,0,0,0,0,0,90.4,1,0,0.018,0,0,3,0,0,0,10,3.76,0,0,1,1,0,0,VALID,0,0,0,0,0,1,0,0,0,0,0,0,0,0,0,0,0,0,0,0,332.49,438.07,2,0,0.08,0.08,356,14.29,0.08,0.06,27.76,FLYING,CF1-J,0:/Integrated Flight Computer/aircraft/cf1_j_cfg.ks (inferred preloaded)
28.2,TAKEOFF,TO_CLIMB,88.54,80,-8.54,8.08,11.67,2.92,5.35,3.57,90.42,0.017,0.8646,0,0,0,0,0,0,0,0,0,0,0,0,0,0,90.4,7.488,0,1,1.89,0,0,7.36,90.4,0.2582,-0.0068,0.9661,7.49,90.4,0,0,0,0,0,0,3,0,0,0,69,0,0,0,0,0,0,,0,NONE,0,0,0,0,0,0,0,0,0,0,0,11.67,0,0,0,0,0,0,0,0,0,90.4,1,0,0.018,0,0,3,0,0,0,10,3.76,0,0,1,1,0,0,VALID,0,0,0,0,0,1,0,0,0,0,0,0,0,0,0,0,0,0,0,0,332.65,437.17,2,0,0.08,0.08,360,14.29,0.08,0.06,28.04,FLYING,CF1-J,0:/Integrated Flight Computer/aircraft/cf1_j_cfg.ks (inferred preloaded)
28.48,TAKEOFF,TO_CLIMB,89.84,80,-9.84,8.99,12.48,3.06,5.14,3.29,90.42,0.016,0.8516,0,0,0,0,0,0,0,0,0,0,0,0,0,0,90.4,7.936,0,1,1.95,0,0,7.81,90.4,0.2657,-0.0068,0.964,7.94,90.4,0,0,0,0,0,0,3,0,0,0,69,0,0,0,0,0,0,,0,NONE,0,0,0,0,0,0,0,0,0,0,0,12.48,0,0,0,0,0,0,0,0,0,90.4,1,0,0.018,0,0,3,0,0,0,10,3.76,0,0,1,1,0,0,VALID,0,0,0,0,0,1,0,0,0,0,0,0,0,0,0,0,0,0,0,0,332.69,436.26,2,0,0.08,0.08,364,14.29,0.08,0.06,28.32,FLYING,CF1-J,0:/Integrated Flight Computer/aircraft/cf1_j_cfg.ks (inferred preloaded)
28.76,TAKEOFF,TO_CLIMB,91.13,80,-11.13,9.95,13.34,3.23,5.01,3.08,90.42,0.015,0.8387,0,0,0,0,0,0,0,0,0,0,0,0,0,0,90.4,8,0,1,2.03,0,0,8,90.4,0.2667,-0.0068,0.9638,8,90.4,0,0,0,0,0,0,3,0,0,0,69,0,0,0,0,0,0,,0,NONE,0,0,0,0,0,0,0,0,0,0,0,13.34,0,0,0,0,0,0,0,0,0,90.4,1,0,0.018,0,0,3,0,0,0,10,3.76,0,0,1,1,0,0,VALID,0,0,0,0,0,1,0,0,0,0,0,0,0,0,0,0,0,0,0,0,332.61,435.34,2,0,0.08,0.08,368,14.29,0.08,0.06,28.6,FLYING,CF1-J,0:/Integrated Flight Computer/aircraft/cf1_j_cfg.ks (inferred preloaded)
29.04,TAKEOFF,TO_CLIMB,92.42,80,-12.42,10.96,14.25,3.39,4.88,2.88,90.42,0.015,0.8258,0,0,0,0,0,0,0,0,0,0,0,0,0,0,90.4,8,0,1,2.1,0,0,8,90.4,0.2667,-0.0068,0.9638,8,90.4,0,0,0,0,0,0,3,0,0,0,69,0,0,0,0,0,0,,0,NONE,0,0,0,0,0,0,0,0,0,0,0,14.25,0,0,0,0,0,0,0,0,0,90.4,1,0,0.017,0,0,3,0,0,0,10,3.76,0,0,1,1,0,0,VALID,0,0,0,0,0,1,0,0,0,0,0,0,0,0,0,0,0,0,0,0,332.43,434.42,2,0,0.08,0.08,372,14.29,0.08,0.06,28.88,FLYING,CF1-J,0:/Integrated Flight Computer/aircraft/cf1_j_cfg.ks (inferred preloaded)
29.32,TAKEOFF,TO_CLIMB,93.72,80,-13.72,12.02,15.2,3.56,4.76,2.69,90.42,0.014,0.8128,0,0,0,0,0,0,0,0,0,0,0,0,0,0,90.4,8,0,1,2.18,0,0,8,90.4,0.2666,-0.0068,0.9638,8,90.4,0,0,0,0,0,0,3,0,0,0,69,0,0,0,0,0,0,,0,NONE,0,0,0,0,0,0,0,0,0,0,0,15.2,0,0,0,0,0,0,0,0,0,90.4,1,0,0.017,0,0,3,0,0,0,10,3.76,0,0,1,1,0,0,VALID,0,0,0,0,0,1,0,0,0,0,0,0,0,0,0,0,0,0,0,0,332.14,433.49,2,0,0.08,0.08,376,14.29,0.08,0.06,29.16,FLYING,CF1-J,0:/Integrated Flight Computer/aircraft/cf1_j_cfg.ks (inferred preloaded)
29.6,TAKEOFF,TO_CLIMB,95.01,80,-15.01,13.1,16.21,3.73,4.65,2.51,90.42,0.014,0.7999,0,0,0,0,0,0,0,0,0,0,0,0,0,0,90.4,8,0,1,2.25,0,0,8,90.4,0.2666,-0.0068,0.9638,8,90.4,0,0,0,0,0,0,3,0,0,0,69,0,0,0,0,0,0,,0,NONE,0,0,0,0,0,0,0,0,0,0,0,16.21,0,0,0,0,0,0,0,0,0,90.4,1,0,0.017,0,0,3,0,0,0,10,3.76,0,0,1,1,0,0,VALID,0,0,0,0,0,1,0,0,0,0,0,0,0,0,0,0,0,0,0,0,331.75,432.57,2,0,0.08,0.08,380,14.29,0.08,0.06,29.44,FLYING,CF1-J,0:/Integrated Flight Computer/aircraft/cf1_j_cfg.ks (inferred preloaded)
29.88,TAKEOFF,TO_CLIMB,96.29,80,-16.29,14.26,17.26,3.9,4.54,2.33,90.42,0.013,0.7871,0,0,0,0,0,0,0,0,0,0,0,0,0,0,90.4,8,0,1,2.32,0,0,8,90.4,0.2665,-0.0068,0.9638,8,90.4,0,0,0,0,0,0,3,0,0,0,69,0,0,0,0,0,0,,0,NONE,0,0,0,0,0,0,0,0,0,0,0,17.26,0,0,0,0,0,0,0,0,0,90.4,1,0,0.017,0,0,3,0,0,0,10,3.76,0,0,1,1,0,0,VALID,0,0,0,0,0,1,0,0,0,0,0,0,0,0,0,0,0,0,0,0,331.25,431.64,2,0,0.08,0.08,384,14.29,0.08,0.06,29.72,FLYING,CF1-J,0:/Integrated Flight Computer/aircraft/cf1_j_cfg.ks (inferred preloaded)
30.16,TAKEOFF,TO_CLIMB,97.58,80,-17.58,15.46,18.36,4.07,4.44,2.16,90.42,0.012,0.78,0,0,0,0,0,0,0,0,0,0,0,0,0,0,90.4,8,0,1,2.39,0,0,8,90.4,0.2665,-0.0068,0.9638,8,90.4,0,0,0,0,0,0,3,0,0,0,69,0,0,0,0,0,0,,0,NONE,0,0,0,0,0,0,0,0,0,0,0,18.36,0,0,0,0,0,0,0,0,0,90.4,1,0,0.017,0,0,3,0,0,0,10,3.76,0,0,1,1,0,0,VALID,0,0,0,0,0,1,0,0,0,0,0,0,0,0,0,0,0,0,0,0,330.67,430.72,2,0,0.08,0.08,388,14.29,0.08,0.06,30,FLYING,CF1-J,0:/Integrated Flight Computer/aircraft/cf1_j_cfg.ks (inferred preloaded)
30.44,TAKEOFF,TO_CLIMB,98.85,80,-18.85,16.71,19.51,4.24,4.34,2,90.42,0.012,0.78,0,0,0,0,0,0,0,0,0,0,0,0,0,0,90.4,8,0,1,2.45,0,0,8,90.4,0.2664,-0.0068,0.9638,8,90.4,0,0,0,0,0,0,3,0,0,0,69,0,0,0,0,0,0,,0,NONE,0,0,0,0,0,0,0,0,0,0,0,19.51,0,0,0,0,0,0,0,0,0,90.4,1,0,0.017,0,0,3,0,0,0,10,3.76,0,0,1,1,0,0,VALID,0,0,0,0,0,1,0,0,0,0,0,0,0,0,0,0,0,0,0,0,330.05,429.8,2,0,0.08,0.08,392,14.29,0.08,0.06,30.28,FLYING,CF1-J,0:/Integrated Flight Computer/aircraft/cf1_j_cfg.ks (inferred preloaded)
30.72,TAKEOFF,TO_CLIMB,100.13,80,-20.13,18.01,20.71,4.4,4.25,1.85,90.42,0.011,0.78,0,0,0,0,0,0,0,0,0,0,0,0,0,0,90.4,8,0,1,2.52,0,0,8,90.4,0.2664,-0.0068,0.9638,8,90.4,0,0,0,0,0,0,3,0,0,0,69,0,0,0,0,0,0,,0,NONE,0,0,0,0,0,0,0,0,0,0,0,20.71,0,0,0,0,0,0,0,0,0,90.4,1,0,0.017,0,0,3,0,0,0,10,3.76,0,0,1,1,0,0,VALID,0,0,0,0,0,1,0,0,0,0,0,0,0,0,0,0,0,0,0,0,329.43,428.88,2,0,0.08,0.08,396,14.29,0.08,0.06,30.56,FLYING,CF1-J,0:/Integrated Flight Computer/aircraft/cf1_j_cfg.ks (inferred preloaded)
31,TAKEOFF,TO_CLIMB,101.4,80,-21.4,19.35,21.95,4.57,4.17,1.7,90.42,0.01,0.78,0,0,0,0,0,0,0,0,0,0,0,0,0,0,90.4,8,0,1,2.58,0,0,8,90.4,0.2663,-0.0068,0.9639,8,90.4,0,0,0,0,0,0,3,0,0,0,69,0,0,0,0,0,0,,0,NONE,0,0,0,0,0,0,0,0,0,0,0,21.95,0,0,0,0,0,0,0,0,0,90.4,1,0,0.016,0,0,3,0,0,0,10,3.76,0,0,1,1,0,0,VALID,0,0,0,0,0,1,0,0,0,0,0,0,0,0,0,0,0,0,0,0,328.81,427.96,2,0,0.08,0.08,400,14.29,0.08,0.06,30.84,FLYING,CF1-J,0:/Integrated Flight Computer/aircraft/cf1_j_cfg.ks (inferred preloaded)
31.28,TAKEOFF,TO_CLIMB,102.66,80,-22.66,20.75,23.24,4.74,4.09,1.56,90.42,0.009,0.78,0,0,0,0,0,0,0,0,0,0,0,0,0,0,90.4,8,0,1,2.65,0,0,8,90.4,0.2663,-0.0068,0.9639,8,90.4,0,0,0,0,0,0,3,0,0,0,69,0,0,0,0,0,0,,0,NONE,0,0,0,0,0,0,0,0,0,0,0,23.24,0,0,0,0,0,0,0,0,0,90.4,1,0,0.016,0,0,3,0,0,0,10,3.76,0,0,1,1,0,0,VALID,0,0,0,0,0,1,0,0,0,0,0,0,0,0,0,0,0,0,0,0,328.19,427.04,2,0,0.08,0.08,404,14.29,0.08,0.06,31.12,FLYING,CF1-J,0:/Integrated Flight Computer/aircraft/cf1_j_cfg.ks (inferred preloaded)
31.56,TAKEOFF,TO_CLIMB,103.92,80,-23.92,22.19,24.59,4.91,4.01,1.42,90.42,0.008,0.78,0,0,0,0,0,0,0,0,0,0,0,0,0,0,90.4,8,0,1,2.71,0,0,8,90.4,0.2662,-0.0068,0.9639,8,90.4,0,0,0,0,0,0,3,0,0,0,69,0,0,0,0,0,0,,0,NONE,0,0,0,0,0,0,0,0,0,0,0,24.59,0,0,0,0,0,0,0,0,0,90.4,1,0,0.016,0,0,3,0,0,0,10,3.76,0,0,1,1,0,0,VALID,0,0,0,0,0,1,0,0,0,0,0,0,0,0,0,0,0,0,0,0,327.57,426.13,2,0,0.08,0.08,408,14.29,0.08,0.06,31.4,FLYING,CF1-J,0:/Integrated Flight Computer/aircraft/cf1_j_cfg.ks (inferred preloaded)
31.84,TAKEOFF,TO_CLIMB,105.17,80,-25.17,23.68,25.98,5.08,3.94,1.3,90.42,0.008,0.78,0,0,0,0,0,0,0,0,0,0,0,0,0,0,90.4,8,0,1,2.77,0,0,8,90.4,0.2662,-0.0068,0.9639,8,90.4,0,0,0,0,0,0,3,0,0,0,69,0,0,0,0,0,0,,0,NONE,0,0,0,0,0,0,0,0,0,0,0,25.98,0,0,0,0,0,0,0,0,0,90.4,1,0,0.016,0,0,3,0,0,0,10,3.76,0,0,1,1,0,0,VALID,0,0,0,0,0,1,0,0,0,0,0,0,0,0,0,0,0,0,0,0,326.95,425.22,2,0,0.08,0.08,412,14.29,0.08,0.06,31.68,FLYING,CF1-J,0:/Integrated Flight Computer/aircraft/cf1_j_cfg.ks (inferred preloaded)
32.12,TAKEOFF,TO_CLIMB,106.42,80,-26.42,25.22,27.42,5.26,3.88,1.17,90.42,0.007,0.78,0,0,0,0,0,0,0,0,0,0,0,0,0,0,90.4,8,0,1,2.83,0,0,8,90.4,0.2662,-0.0068,0.9639,8,90.4,0,0,0,0,0,0,3,0,0,0,69,0,0,0,0,0,0,,0,NONE,0,0,0,0,0,0,0,0,0,0,0,27.42,0,0,0,0,0,0,0,0,0,90.4,1,0,0.016,0,0,3,0,0,0,10,3.76,0,0,1,1,0,0,VALID,0,0,0,0,0,1,0,0,0,0,0,0,0,0,0,0,0,0,0,0,326.33,424.31,2,0,0.08,0.08,416,14.29,0.08,0.06,31.96,FLYING,CF1-J,0:/Integrated Flight Computer/aircraft/cf1_j_cfg.ks (inferred preloaded)
32.4,TAKEOFF,TO_CLIMB,107.66,80,-27.66,26.81,28.9,5.43,3.81,1.05,90.42,0.007,0.78,0,0,0,0,0,0,0,0,0,0,0,0,0,0,90.4,8,0,1,2.89,0,0,8,90.4,0.2661,-0.0068,0.9639,8,90.4,0,0,0,0,0,0,3,0,0,0,69,0,0,0,0,0,0,,0,NONE,0,0,0,0,0,0,0,0,0,0,0,28.9,0,0,0,0,0,0,0,0,0,90.4,1,0,0.016,0,0,3,0,0,0,10,3.76,0,0,1,1,0,0,VALID,0,0,0,0,0,1,0,0,0,0,0,0,0,0,0,0,0,0,0,0,325.72,423.41,2,0,0.08,0.08,420,14.29,0.08,0.06,32.24,FLYING,CF1-J,0:/Integrated Flight Computer/aircraft/cf1_j_cfg.ks (inferred preloaded)
32.68,TAKEOFF,TO_CLIMB,108.9,80,-28.9,28.44,30.44,5.6,3.75,0.93,90.42,0.006,0.78,0,0,0,0,0,0,0,0,0,0,0,0,0,0,90.4,8,0,1,2.94,0,0,8,90.4,0.266,-0.0068,0.9639,8,90.4,0,0,0,0,0,0,3,0,0,0,69,0,0,0,0,0,0,,0,NONE,0,0,0,0,0,0,0,0,0,0,0,30.44,0,0,0,0,0,0,0,0,0,90.4,1,0,0.016,0,0,3,0,0,0,10,3.76,0,0,1,1,0,0,VALID,0,0,0,0,0,1,0,0,0,0,0,0,0,0,0,0,0,0,0,0,325.1,422.51,2,0,0.08,0.08,424,14.29,0.08,0.06,32.52,FLYING,CF1-J,0:/Integrated Flight Computer/aircraft/cf1_j_cfg.ks (inferred preloaded)
32.96,TAKEOFF,TO_CLIMB,110.13,80,-30.13,30.13,32.02,5.77,3.69,0.82,90.42,0.006,0.78,0,0,0,0,0,0,0,0,0,0,0,0,0,0,90.4,8,0,1,3,0,0,8,90.4,0.266,-0.0068,0.9639,8,90.4,0,0,0,0,0,0,3,0,0,0,69,0,0,0,0,0,0,,0,NONE,0,0,0,0,0,0,0,0,0,0,0,32.02,0,0,0,0,0,0,0,0,0,90.4,1,0,0.016,0,0,3,0,0,0,10,3.76,0,0,1,1,0,0,VALID,0,0,0,0,0,1,0,0,0,0,0,0,0,0,0,0,0,0,0,0,324.49,421.61,2,0,0.08,0.08,428,14.29,0.08,0.06,32.8,FLYING,CF1-J,0:/Integrated Flight Computer/aircraft/cf1_j_cfg.ks (inferred preloaded)
33.24,TAKEOFF,TO_CLIMB,111.35,80,-31.35,31.86,33.66,5.95,3.63,0.69,90.42,0.006,0.78,0,0,0,0,0,0,0,0,0,0,0,0,0,0,90.4,8,0,1,3.06,0,0,8,90.4,0.2659,-0.0068,0.964,8,90.4,0,0,0,0,0,0,3,0,0,0,69,0,0,0,0,0,0,,0,NONE,0,0,0,0,0,0,0,0,0,0,0,33.66,0,0,0,0,0,0,0,0,0,90.4,1,0,0.016,0,0,3,0,0,0,10,3.76,0,0,1,1,0,0,VALID,0,0,0,0,0,1,0,0,0,0,0,0,0,0,0,0,0,0,0,0,323.87,420.72,2,0,0.08,0.08,432,14.29,0.08,0.06,33.08,FLYING,CF1-J,0:/Integrated Flight Computer/aircraft/cf1_j_cfg.ks (inferred preloaded)
33.52,TAKEOFF,TO_CLIMB,112.57,80,-32.57,33.64,35.34,6.13,3.58,0.59,90.42,0.005,0.78,0,0,0,0,0,0,0,0,0,0,0,0,0,0,90.4,8,0,1,3.12,0,0,8,90.4,0.2659,-0.0068,0.964,8,90.4,0,0,0,0,0,0,3,0,0,0,69,0,0,0,0,0,0,,0,NONE,0,0,0,0,0,0,0,0,0,0,0,35.34,0,0,0,0,0,0,0,0,0,90.4,1,0,0.016,0,0,3,0,0,0,10,3.76,0,0,1,1,0,0,VALID,0,0,0,0,0,1,0,0,0,0,0,0,0,0,0,0,0,0,0,0,323.26,419.83,2,0,0.08,0.08,436,14.29,0.08,0.06,33.36,FLYING,CF1-J,0:/Integrated Flight Computer/aircraft/cf1_j_cfg.ks (inferred preloaded)
33.8,TAKEOFF,TO_CLIMB,113.78,80,-33.78,35.47,37.08,6.3,3.53,0.49,90.42,0.005,0.78,0,0,0,0,0,0,0,0,0,0,0,0,0,0,90.4,8,0,1,3.17,0,0,8,90.4,0.2658,-0.0068,0.964,8,90.4,0,0,0,0,0,0,3,0,0,0,69,0,0,0,0,0,0,,0,NONE,0,0,0,0,0,0,0,0,0,0,0,37.08,0,0,0,0,0,0,0,0,0,90.4,1,0,0.016,0,0,3,0,0,0,10,3.76,0,0,1,1,0,0,VALID,0,0,0,0,0,1,0,0,0,0,0,0,0,0,0,0,0,0,0,0,322.65,418.95,2,0,0.08,0.08,440,14.29,0.08,0.06,33.64,FLYING,CF1-J,0:/Integrated Flight Computer/aircraft/cf1_j_cfg.ks (inferred preloaded)
34.08,TAKEOFF,TO_CLIMB,114.99,80,-34.99,37.4,38.86,6.48,3.48,0.39,90.42,0.004,0.78,0,0,0,0,0,0,0,0,0,0,0,0,0,0,90.4,8,0,1,3.22,0,0,8,90.4,0.2658,-0.0068,0.964,8,90.4,0,0,0,0,0,0,3,0,0,0,69,0,0,0,0,0,0,,0,NONE,0,0,0,0,0,0,0,0,0,0,0,38.86,0,0,0,0,0,0,0,0,0,90.4,1,0,0.016,0,0,3,0,0,0,10,3.76,0,0,1,1,0,0,VALID,0,0,0,0,0,1,0,0,0,0,0,0,0,0,0,0,0,0,0,0,322.05,418.07,2,0,0.08,0.08,444,14.29,0.08,0.06,33.92,FLYING,CF1-J,0:/Integrated Flight Computer/aircraft/cf1_j_cfg.ks (inferred preloaded)
34.36,TAKEOFF,TO_CLIMB,116.19,80,-36.19,39.32,40.69,6.65,3.44,0.29,90.42,0.003,0.78,0,0,0,0,0,0,0,0,0,0,0,0,0,0,90.4,8,0,1,3.28,0,0,8,90.4,0.2657,-0.0068,0.964,8,90.4,0,0,0,0,0,0,3,0,0,0,69,0,0,0,0,0,0,,0,NONE,0,0,0,0,0,0,0,0,0,0,0,40.69,0,0,0,0,0,0,0,0,0,90.4,1,0,0.016,0,0,3,0,0,0,10,3.76,0,0,1,1,0,0,VALID,0,0,0,0,0,1,0,0,0,0,0,0,0,0,0,0,0,0,0,0,321.44,417.2,2,0,0.08,0.08,448,14.29,0.08,0.06,34.2,FLYING,CF1-J,0:/Integrated Flight Computer/aircraft/cf1_j_cfg.ks (inferred preloaded)
34.64,TAKEOFF,TO_CLIMB,117.38,80,-37.38,41.3,42.57,6.83,3.4,0.2,90.42,0.003,0.78,0,0,0,0,0,0,0,0,0,0,0,0,0,0,90.4,8,0,1,3.33,0,0,8,90.4,0.2657,-0.0068,0.964,8,90.4,0,0,0,0,0,0,3,0,0,0,69,0,0,0,0,0,0,,0,NONE,0,0,0,0,0,0,0,0,0,0,0,42.57,0,0,0,0,0,0,0,0,0,90.4,1,0,0.017,0,0,3,0,0,0,10,3.76,0,0,1,1,0,0,VALID,0,0,0,0,0,1,0,0,0,0,0,0,0,0,0,0,0,0,0,0,320.84,416.34,2,0,0.08,0.08,452,14.29,0.08,0.06,34.48,FLYING,CF1-J,0:/Integrated Flight Computer/aircraft/cf1_j_cfg.ks (inferred preloaded)
34.92,TAKEOFF,TO_CLIMB,118.56,80,-38.56,43.33,44.51,7.01,3.37,0.12,90.42,0.003,0.78,0,0,0,0,0,0,0,0,0,0,0,0,0,0,90.4,8,0,1,3.38,0,0,8,90.4,0.2656,-0.0068,0.9641,8,90.4,0,0,0,0,0,0,3,0,0,0,69,0,0,0,0,0,0,,0,NONE,0,0,0,0,0,0,0,0,0,0,0,44.51,0,0,0,0,0,0,0,0,0,90.4,1,0,0.017,0,0,3,0,0,0,10,3.76,0,0,1,1,0,0,VALID,0,0,0,0,0,1,0,0,0,0,0,0,0,0,0,0,0,0,0,0,320.25,415.48,2,0,0.08,0.08,456,14.29,0.08,0.06,34.76,FLYING,CF1-J,0:/Integrated Flight Computer/aircraft/cf1_j_cfg.ks (inferred preloaded)
35.2,TAKEOFF,TO_CLIMB,119.73,80,-39.73,45.4,46.49,7.18,3.34,0.03,90.42,0.002,0.78,0,0,0,0,0,0,0,0,0,0,0,0,0,0,90.4,8,0,1,3.43,0,0,8,90.4,0.2656,-0.0068,0.9641,8,90.4,0,0,0,0,0,0,3,0,0,0,69,0,0,0,0,0,0,,0,NONE,0,0,0,0,0,0,0,0,0,0,0,46.49,0,0,0,0,0,0,0,0,0,90.4,1,0,0.017,0,0,3,0,0,0,10,3.76,0,0,1,1,0,0,VALID,0,0,0,0,0,1,0,0,0,0,0,0,0,0,0,0,0,0,0,0,319.65,414.62,2,0,0.08,0.08,460,14.29,0.08,0.06,35.04,FLYING,CF1-J,0:/Integrated Flight Computer/aircraft/cf1_j_cfg.ks (inferred preloaded)
35.48,TAKEOFF,TO_CLIMB,120.9,80,-40.9,47.52,48.52,7.36,3.3,-0.05,90.42,0.001,0.78,0,0,0,0,0,0,0,0,0,0,0,0,0,0,90.4,8,0,1,3.48,0,0,8,90.4,0.2655,-0.0068,0.9641,8,90.4,0,0,0,0,0,0,3,0,0,0,69,0,0,0,0,0,0,,0,NONE,0,0,0,0,0,0,0,0,0,0,0,48.52,0,0,0,0,0,0,0,0,0,90.4,1,0,0.017,0,0,3,0,0,0,10,3.76,0,0,1,1,0,0,VALID,0,0,0,0,0,1,0,0,0,0,0,0,0,0,0,0,0,0,0,0,319.06,413.78,2,0,0.08,0.08,464,14.29,0.08,0.06,35.32,FLYING,CF1-J,0:/Integrated Flight Computer/aircraft/cf1_j_cfg.ks (inferred preloaded)
35.76,TAKEOFF,TO_CLIMB,122.06,80,-42.06,49.7,50.61,7.54,3.28,-0.13,90.42,0.001,0.78,0,0,0,0,0,0,0,0,0,0,0,0,0,0,90.4,8,0,1,3.54,0,0,8,90.4,0.2655,-0.0068,0.9641,8,90.4,0,0,0,0,0,0,3,0,0,0,69,0,0,0,0,0,0,,0,NONE,0,0,0,0,0,0,0,0,0,0,0,50.61,0,0,0,0,0,0,0,0,0,90.4,1,0,0.017,0,0,3,0,0,0,10,3.76,0,0,1,1,0,0,VALID,0,0,0,0,0,1,0,0,0,0,0,0,0,0,0,0,0,0,0,0,318.48,412.94,2,0,0.08,0.08,468,14.29,0.08,0.06,35.6,FLYING,CF1-J,0:/Integrated Flight Computer/aircraft/cf1_j_cfg.ks (inferred preloaded)
36.04,TAKEOFF,TO_CLIMB,123.21,80,-43.21,51.92,52.74,7.72,3.25,-0.2,90.42,0,0.78,0,0,0,0,0,0,0,0,0,0,0,0,0,0,90.4,8,0,1,3.59,0,0,8,90.4,0.2654,-0.0068,0.9641,8,90.4,0,0,0,0,0,0,3,0,0,0,69,0,0,0,0,0,0,,0,NONE,0,0,0,0,0,0,0,0,0,0,0,52.74,0,0,0,0,0,0,0,0,0,90.4,1,0,0.017,0,0,3,0,0,0,10,3.76,0,0,1,1,0,0,VALID,0,0,0,0,0,1,0,0,0,0,0,0,0,0,0,0,0,0,0,0,317.89,412.1,2,0,0.08,0.08,472,14.29,0.08,0.06,35.88,FLYING,CF1-J,0:/Integrated Flight Computer/aircraft/cf1_j_cfg.ks (inferred preloaded)
36.32,TAKEOFF,TO_CLIMB,124.36,80,-44.36,54.19,54.92,7.9,3.22,-0.28,90.42,0,0.78,0,0,0,0,0,0,0,0,0,0,0,0,0,0,90.4,8,0,1,3.64,0,0,8,90.4,0.2653,-0.0068,0.9641,8,90.4,0,0,0,0,0,0,3,0,0,0,69,0,0,0,0,0,0,,0,NONE,0,0,0,0,0,0,0,0,0,0,0,54.92,0,0,0,0,0,0,0,0,0,90.4,1,0,0.017,0,0,3,0,0,0,10,3.76,0,0,1,1,0,0,VALID,0,0,0,0,0,1,0,0,0,0,0,0,0,0,0,0,0,0,0,0,317.31,411.27,2,0,0.08,0.08,476,14.29,0.08,0.06,36.16,FLYING,CF1-J,0:/Integrated Flight Computer/aircraft/cf1_j_cfg.ks (inferred preloaded)
