t_s,phase,subphase,ias_ms,vapp_ms,spd_err_ms,agl_m,gear_h_m,vs_ms,pitch_deg,aoa_deg,hdg_deg,bank_deg,thr_cmd,thr_cur,thr_intg,at_gain,at_tau_s,at_a_up,at_a_dn,at_kp_thr,at_ki_spd,at_thr_slew,as_cmd_deg,as_cap_deg,as_raw_deg,as_spd_err_ms,as_active,aa_hdg_cmd_deg,aa_fpa_cmd_deg,aa_fbw,aa_dir,actual_fpa_deg,ftf_hdg_err_deg,ftf_fix_idx,kos_steer_pit_deg,kos_steer_hdg_deg,aa_dir_vx,aa_dir_vy,aa_dir_vz,aa_dir_pitch_deg,aa_dir_hdg_deg,ils_loc_m,ils_gs_m,ils_dist_km,loc_corr_deg,gs_corr_deg,gs_latched,active_gs_ang_deg,ils_intercept_alt_m,d_gs_ms,fpa_preclamped_deg,gs_nom_alt_m,flare_fpa_cmd,flare_tgt_vs,flare_frac,flare_round_blend_h,flare_round_blend_ttg,flare_round_blend,flare_mode,flare_auth_limited,flare_auth_reason,flare_vs_err,flare_fpa_err,flare_pitch_err,flare_theta_cmd_raw,flare_theta_cmd_clamped,flare_theta_clamp_active,flare_aoa_clamp_active,flare_pitch_in_cmd,elev_defl_avg_deg,elev_defl_max_deg,elev_defl_n,flare_ctrl_h_m,flare_req_up_a,flare_thr_floor,flare_tecs_et_err,flare_tecs_eb_err,flare_tecs_h_ref,flare_tecs_v_ref,flare_gamma_ref,flare_gamma_eb_term,flare_gamma_unsat,steer_hdg_deg,steer_blend,ro_loc_corr_deg,ro_hdg_err_deg,ro_yaw_tgt,ro_yaw_scale,ro_yaw_gate,yaw_cmd,roll_cmd,pitch_cmd,ro_pitch_tgt_deg,ro_pitch_err_deg,ro_pitch_ff,ro_roll_assist,flaps_cur,flaps_tgt,asc_j_ab,asc_j_rk,asc_validity,asc_q_pa,asc_q_raw_pa,asc_mach,asc_apo_m,asc_drag_n,asc_w_prop,asc_edot_aero,asc_edot_orb,asc_pitch_bias,asc_blend,asc_spooling,asc_ab_thr_ratio,asc_ab_t_now,asc_ab_t_avail,asc_ab_ign_on,asc_ab_flameouts,asc_rk_t_now,asc_rk_t_avail,asc_rk_ign_on,asc_rk_flameouts,ship_thrust,ship_avail_thrust,ship_ign_on,ship_flameouts,ifc_raw_dt_s,ifc_dt_s,ifc_loop_n,ifc_hz_est,ifc_raw_dt_max_s,ifc_raw_dt_min_s,phase_el_s,status,craft_name,cfg_file
3.96,TAKEOFF,TO_PREFLIGHT,0.03,80,79.97,3.6,62.43,0,-0.06,-0.24,270.9,-0.03,0.08,0,0,0,0,0,0,0,0,0,0,0,0,0,0,270,0,1,0,-0.04,0,0,0,90,0,0,0,0,0,0,0,0,0,0,0,3,0,0,0,69,0,0,0,0,0,0,,0,NONE,0,0,0,0,0,0,0,0,0,0,0,62.43,0,0,0,0,0,0,0,0,0,270,1,0,0.904,0,0,1,0,0,0,0,0,0,0,0,1,0,0,VALID,0,0,0,0,0,1,0,0,0,0,0,0,0,0,0,0,0,0,0,0,21.29,489.12,2,0,0.2,0.2,1,0.25,0.2,0.02,3.76,LANDED,CF1-J,0:/Integrated Flight Computer/aircraft/cf1_j_cfg.ks (inferred preloaded)
4.24,TAKEOFF,TO_PREFLIGHT,0.03,80,79.97,3.6,62.43,0,-0.01,-0.69,271.09,-0.032,0.36,0,0,0,0,0,0,0,0,0,0,0,0,0,0,270,0,1,0,0.04,0,0,0,90,0,0,0,0,0,0,0,0,0,0,0,3,0,0,0,69,0,0,0,0,0,0,,0,NONE,0,0,0,0,0,0,0,0,0,0,0,62.43,0,0,0,0,0,0,0,0,0,270,1,0,0.904,0,0,1,0,0,0,0,0,0,0,1,1,0,0,VALID,0,0,0,0,0,1,0,0,0,0,0,0,0,0,0,0,0,0,0,0,22.49,489.12,2,0,0.06,0.06,5,13.33,3.84,0.06,4.06,LANDED,CF1-J,0:/Integrated Flight Computer/aircraft/cf1_j_cfg.ks (inferred preloaded)
4.54,TAKEOFF,TO_PREFLIGHT,0.03,80,79.97,3.6,62.43,0,-0.01,2.01,271.11,-0.031,0.48,0,0,0,0,0,0,0,0,0,0,0,0,0,0,270,0,1,0,-0.06,0,0,0,90,0,0,0,0,0,0,0,0,0,0,0,3,0,0,0,69,0,0,0,0,0,0,,0,NONE,0,0,0,0,0,0,0,0,0,0,0,62.43,0,0,0,0,0,0,0,0,0,270,1,0,0.904,0,0,1,0,0,0,0,0,0,0,1,1,0,0,VALID,0,0,0,0,0,1,0,0,0,0,0,0,0,0,0,0,0,0,0,0,25.5,489.12,2,0,0.06,0.06,10,16.67,0.08,0.04,4.36,LANDED,CF1-J,0:/Integrated Flight Computer/aircraft/cf1_j_cfg.ks (inferred preloaded)
4.8,TAKEOFF,TO_PREFLIGHT,0.03,80,79.97,3.6,62.43,0,-0.02,0.56,271.12,-0.03,0.584,0,0,0,0,0,0,0,0,0,0,0,0,0,0,270,0,1,0,-0.02,0,0,0,90,0,0,0,0,0,0,0,0,0,0,0,3,0,0,0,69,0,0,0,0,0,0,,0,NONE,0,0,0,0,0,0,0,0,0,0,0,62.43,0,0,0,0,0,0,0,0,0,270,1,0,0.904,0,0,1,0,0,0,0,0,0,0,1,1,0,0,VALID,0,0,0,0,0,1,0,0,0,0,0,0,0,0,0,0,0,0,0,0,28.9,489.11,2,0,0.04,0.04,14,15.38,0.08,0.04,4.62,LANDED,CF1-J,0:/Integrated Flight Computer/aircraft/cf1_j_cfg.ks (inferred preloaded)
5.08,TAKEOFF,TO_PREFLIGHT,0.04,80,79.96,3.59,62.42,0,-0.02,0.52,271.14,-0.029,0.696,0,0,0,0,0,0,0,0,0,0,0,0,0,0,270,0,1,0,-0.04,0,0,0,90,0,0,0,0,0,0,0,0,0,0,0,3,0,0,0,69,0,0,0,0,0,0,,0,NONE,0,0,0,0,0,0,0,0,0,0,0,62.42,0,0,0,0,0,0,0,0,0,270,1,0,0.904,0,0,1,0,0,0,0,0,0,0,1,1,0,0,VALID,0,0,0,0,0,1,0,0,0,0,0,0,0,0,0,0,0,0,0,0,33.4,489.11,2,0,0.06,0.06,18,14.29,0.08,0.04,4.9,LANDED,CF1-J,0:/Integrated Flight Computer/aircraft/cf1_j_cfg.ks (inferred preloaded)
5.38,TAKEOFF,TO_PREFLIGHT,0.04,80,79.96,3.59,62.42,0,-0.03,-0.18,271.15,-0.03,0.816,0,0,0,0,0,0,0,0,0,0,0,0,0,0,270,0,1,0,0,0,0,0,90,0,0,0,0,0,0,0,0,0,0,0,3,0,0,0,69,0,0,0,0,0,0,,0,NONE,0,0,0,0,0,0,0,0,0,0,0,62.42,0,0,0,0,0,0,0,0,0,270,1,0,0.904,0,0,1,0,0,0,0,0,0,0,1,1,0,0,VALID,0,0,0,0,0,1,0,0,0,0,0,0,0,0,0,0,0,0,0,0,39.15,489.11,2,0,0.06,0.06,23,16.67,0.08,0.04,5.2,LANDED,CF1-J,0:/Integrated Flight Computer/aircraft/cf1_j_cfg.ks (inferred preloaded)
5.66,TAKEOFF,TO_PREFLIGHT,0.05,80,79.95,3.59,62.42,0,-0.04,0.55,271.16,-0.031,0.928,0,0,0,0,0,0,0,0,0,0,0,0,0,0,270,0,1,0,-0.02,0,0,0,90,0,0,0,0,0,0,0,0,0,0,0,3,0,0,0,69,0,0,0,0,0,0,,0,NONE,0,0,0,0,0,0,0,0,0,0,0,62.42,0,0,0,0,0,0,0,0,0,270,1,0,0.904,0,0,1,0,0,0,0,0,0,0,1,1,0,0,VALID,0,0,0,0,0,1,0,0,0,0,0,0,0,0,0,0,0,0,0,0,45.37,489.11,2,0,0.04,0.04,28,17.86,0.08,0.04,5.48,LANDED,CF1-J,0:/Integrated Flight Computer/aircraft/cf1_j_cfg.ks (inferred preloaded)
5.92,TAKEOFF,TO_PREFLIGHT,0.05,80,79.95,3.59,62.42,0,-0.05,-1.14,271.18,-0.031,1,0,0,0,0,0,0,0,0,0,0,0,0,0,0,270,0,1,0,0.04,0,0,0,90,0,0,0,0,0,0,0,0,0,0,0,3,0,0,0,69,0,0,0,0,0,0,,0,NONE,0,0,0,0,0,0,0,0,0,0,0,62.42,0,0,0,0,0,0,0,0,0,270,1,0,0.904,0,0,1,0,0,0,0,0,0,0,1,1,0,0,VALID,0,0,0,0,0,1,0,0,0,0,0,0,0,0,0,0,0,0,0,0,51.88,489.11,2,0,0.08,0.08,32,15.38,0.08,0.04,5.74,LANDED,CF1-J,0:/Integrated Flight Computer/aircraft/cf1_j_cfg.ks (inferred preloaded)
6.2,TAKEOFF,TO_PREFLIGHT,0.06,80,79.94,3.59,62.42,0,-0.06,0.12,271.19,-0.03,1,0,0,0,0,0,0,0,0,0,0,0,0,0,0,270,0,1,0,0,0,0,0,90,0,0,0,0,0,0,0,0,0,0,0,3,0,0,0,69,0,0,0,0,0,0,,0,NONE,0,0,0,0,0,0,0,0,0,0,0,62.42,0,0,0,0,0,0,0,0,0,270,1,0,0.904,0,0,1,0,0,0,0,0,0,0,1,1,0,0,VALID,0,0,0,0,0,1,0,0,0,0,0,0,0,0,0,0,0,0,0,0,59.17,489.11,2,0,0.08,0.08,36,14.29,0.08,0.06,6.02,LANDED,CF1-J,0:/Integrated Flight Computer/aircraft/cf1_j_cfg.ks (inferred preloaded)
6.48,TAKEOFF,TO_GROUND_ROLL,0.06,80,79.94,3.59,62.42,0,-0.07,-1.44,271.2,-0.03,1,0,0,0,0,0,0,0,0,0,0,0,0,0,0,270,0,1,0,0.03,0,0,0,90,0,0,0,0,0,0,0,0,0,0,0,3,0,0,0,69,0,0,0,0,0,0,,0,NONE,0,0,0,0,0,0,0,0,0,0,0,62.42,0,0,0,0,0,0,0,0,0,270,1,0,0.904,0,0,1,0,0,0,0,0,0,0,1,1,0,0,VALID,0,0,0,0,0,1,0,0,0,0,0,0,0,0,0,0,0,0,0,0,66.34,489.1,2,0,0.08,0.08,40,14.29,0.08,0.06,6.3,LANDED,CF1-J,0:/Integrated Flight Computer/aircraft/cf1_j_cfg.ks (inferred preloaded)
6.78,TAKEOFF,TO_GROUND_ROLL,0.18,80,79.82,3.6,62.43,-0.01,0.03,1.38,271.21,-0.03,1,0,0,0,0,0,0,0,0,0,0,0,0,0,0,269.99,0,1,0,-0.42,0,0,0,90,0,0,0,0,0,0,0,0,-0.001,0,0,3,0,0,0,69,0,0,0,0,0,0,,0,NONE,0,0,0,0,0,0,0,0,0,0,0,62.43,0,0,0,0,0,0,0,0,0,269.99,1,-0.001,1.218,-0.0137,0.25,1,-0.0137,0,0,0,0,0,0,1,1,0,0,VALID,0,0,0,0,0,1,0,0,0,0,0,0,0,0,0,0,0,0,0,0,73.38,489.08,2,0,0.08,0.08,44,14.29,0.08,0.06,6.58,LANDED,CF1-J,0:/Integrated Flight Computer/aircraft/cf1_j_cfg.ks (inferred preloaded)
7.06,TAKEOFF,TO_GROUND_ROLL,0.53,80,79.47,3.61,62.44,0,0.11,-0.16,271.22,-0.031,1,0,0,0,0,0,0,0,0,0,0,0,0,0,0,269.99,0,1,0,0.19,0,0,0,90,0,0,0,0,0,0,0,0,-0.001,0,0,3,0,0,0,69,0,0,0,0,0,0,,0,NONE,0,0,0,0,0,0,0,0,0,0,0,62.44,0,0,0,0,0,0,0,0,0,269.99,1,-0.001,1.228,-0.0138,0.25,1,-0.0138,0,0,0,0,0,0,1,1,0,0,VALID,0,0,0,0,0,1,0,0,0,0,0,0,0,0,0,0,0,0,0,0,80.3,489,2,0,0.08,0.08,48,14.29,0.08,0.06,6.86,LANDED,CF1-J,0:/Integrated Flight Computer/aircraft/cf1_j_cfg.ks (inferred preloaded)
7.34,TAKEOFF,TO_GROUND_ROLL,0.93,80,79.07,3.6,62.43,0,0.03,0.02,271.22,-0.032,1,0,0,0,0,0,0,0,0,0,0,0,0,0,0,270,0,1,0,0.01,0,0,0,90,0,0,0,0,0,0,0,0,-0.001,0,0,3,0,0,0,69,0,0,0,0,0,0,,0,NONE,0,0,0,0,0,0,0,0,0,0,0,62.43,0,0,0,0,0,0,0,0,0,270,1,-0.001,1.222,-0.0138,0.25,1,-0.0138,0,0,0,0,0,0,1,1,0,0,VALID,0,0,0,0,0,1,0,0,0,0,0,0,0,0,0,0,0,0,0,0,87.09,488.9,2,0,0.08,0.08,52,14.29,0.08,0.06,7.14,LANDED,CF1-J,0:/Integrated Flight Computer/aircraft/cf1_j_cfg.ks (inferred preloaded)
7.62,TAKEOFF,TO_GROUND_ROLL,1.37,80,78.63,3.61,62.44,0,0.06,0.17,271.21,-0.033,1,0,0,0,0,0,0,0,0,0,0,0,0,0,0,270.01,0,1,0,-0.13,0,0,0,90,0,0,0,0,0,0,0,0,-0.001,0,0,3,0,0,0,69,0,0,0,0,0,0,,0,NONE,0,0,0,0,0,0,0,0,0,0,0,62.44,0,0,0,0,0,0,0,0,0,270.01,1,-0.001,1.201,-0.0135,0.25,1,-0.0135,0,0,0,0,0,0,1,1,0,0,VALID,0,0,0,0,0,1,0,0,0,0,0,0,0,0,0,0,0,0,0,0,93.77,488.8,2,0,0.08,0.08,56,14.29,0.08,0.06,7.42,LANDED,CF1-J,0:/Integrated Flight Computer/aircraft/cf1_j_cfg.ks (inferred preloaded)
7.9,TAKEOFF,TO_GROUND_ROLL,1.84,80,78.16,3.61,62.44,0,0.08,0.12,271.19,-0.033,1,0,0,0,0,0,0,0,0,0,0,0,0,0,0,270.02,0,1,0,-0.05,0,0,0,90,0,0,0,0,0,0,0,0,-0.001,0,0,3,0,0,0,69,0,0,0,0,0,0,,0,NONE,0,0,0,0,0,0,0,0,0,0,0,62.44,0,0,0,0,0,0,0,0,0,270.02,1,-0.001,1.17,-0.0132,0.25,1,-0.0132,0,0,0,0,0,0,1,1,0,0,VALID,0,0,0,0,0,1,0,0,0,0,0,0,0,0,0,0,0,0,0,0,100.33,488.69,2,0,0.08,0.08,60,14.29,0.08,0.06,7.7,LANDED,CF1-J,0:/Integrated Flight Computer/aircraft/cf1_j_cfg.ks (inferred preloaded)
8.18,TAKEOFF,TO_GROUND_ROLL,2.34,80,77.66,3.61,62.44,0,0.06,0.11,271.15,-0.032,1,0,0,0,0,0,0,0,0,0,0,0,0,0,0,270.03,0,1,0,-0.06,0,0,0,90,0,0,0,0,0,0,0,0,0,0,0,3,0,0,0,69,0,0,0,0,0,0,,0,NONE,0,0,0,0,0,0,0,0,0,0,0,62.44,0,0,0,0,0,0,0,0,0,270.03,1,0,1.124,-0.0126,0.25,1,-0.0126,0,0,0,0,0,0,1,1,0,0,VALID,0,0,0,0,0,1,0,0,0,0,0,0,0,0,0,0,0,0,0,0,106.78,488.56,2,0,0.08,0.08,64,14.29,0.08,0.06,7.98,LANDED,CF1-J,0:/Integrated Flight Computer/aircraft/cf1_j_cfg.ks (inferred preloaded)
8.46,TAKEOFF,TO_GROUND_ROLL,2.88,80,77.12,3.61,62.44,0,0.07,0.12,271.1,-0.032,1,0,0,0,0,0,0,0,0,0,0,0,0,0,0,270.04,0,1,0,-0.05,0,0,0,90,0,0,0,0,0,0,0,0,0,0,0,3,0,0,0,69,0,0,0,0,0,0,,0,NONE,0,0,0,0,0,0,0,0,0,0,0,62.44,0,0,0,0,0,0,0,0,0,270.04,1,0,1.062,-0.0119,0.25,1,-0.0119,0,0,0,0,0,0,1,1,0,0,VALID,0,0,0,0,0,1,0,0,0,0,0,0,0,0,0,0,0,0,0,0,113.11,488.43,2,0,0.08,0.08,68,14.29,0.08,0.06,8.26,LANDED,CF1-J,0:/Integrated Flight Computer/aircraft/cf1_j_cfg.ks (inferred preloaded)
8.74,TAKEOFF,TO_GROUND_ROLL,3.44,80,76.56,3.61,62.44,0,0.08,0.11,271.04,-0.032,1,0,0,0,0,0,0,0,0,0,0,0,0,0,0,270.04,0,1,0,-0.04,0,0,0,90,0,0,0,0,0,0,0,0,0,0,0,3,0,0,0,69,0,0,0,0,0,0,,0,NONE,0,0,0,0,0,0,0,0,0,0,0,62.44,0,0,0,0,0,0,0,0,0,270.04,1,0,1,-0.0113,0.25,1,-0.0113,0,0,0,0,0,0,1,1,0,0,VALID,0,0,0,0,0,1,0,0,0,0,0,0,0,0,0,0,0,0,0,0,119.34,488.28,2,0,0.08,0.08,72,14.29,0.08,0.06,8.54,LANDED,CF1-J,0:/Integrated Flight Computer/aircraft/cf1_j_cfg.ks (inferred preloaded)
9.02,TAKEOFF,TO_GROUND_ROLL,4.04,80,75.96,3.61,62.44,0,0.07,0.12,270.97,-0.032,1,0,0,0,0,0,0,0,0,0,0,0,0,0,0,270.05,0,1,0,-0.05,0,0,0,90,0,0,0,0,0,0,0,0,0,0,0,3,0,0,0,69,0,0,0,0,0,0,,0,NONE,0,0,0,0,0,0,0,0,0,0,0,62.44,0,0,0,0,0,0,0,0,0,270.05,1,0,0.922,-0.0104,0.25,1,-0.0104,0,0,0,0,0,0,1,1,0,0,VALID,0,0,0,0,0,1,0,0,0,0,0,0,0,0,0,0,0,0,0,0,125.45,488.13,2,0,0.08,0.08,76,14.29,0.08,0.06,8.82,LANDED,CF1-J,0:/Integrated Flight Computer/aircraft/cf1_j_cfg.ks (inferred preloaded)
9.3,TAKEOFF,TO_GROUND_ROLL,4.67,80,75.33,3.61,62.44,0,0.08,0.13,270.9,-0.031,1,0,0,0,0,0,0,0,0,0,0,0,0,0,0,270.06,0,1,0,-0.05,0,0,0,90,0,0,0,0,0,0,0,0,0.001,0,0,3,0,0,0,69,0,0,0,0,0,0,,0,NONE,0,0,0,0,0,0,0,0,0,0,0,62.44,0,0,0,0,0,0,0,0,0,270.06,1,0.001,0.838,-0.0094,0.25,1,-0.0094,0,0,0,0,0,0,1,1,0,0,VALID,0,0,0,0,0,1,0,0,0,0,0,0,0,0,0,0,0,0,0,0,131.45,487.96,2,0,0.08,0.08,80,14.29,0.08,0.06,9.1,LANDED,CF1-J,0:/Integrated Flight Computer/aircraft/cf1_j_cfg.ks (inferred preloaded)
9.56,TAKEOFF,TO_GROUND_ROLL,5.33,80,74.67,3.61,62.44,0,0.08,0.12,270.81,-0.03,1,0,0,0,0,0,0,0,0,0,0,0,0,0,0,270.06,0,1,0,-0.04,0,0,0,90,0,0,0,0,0,0,0,0,0.001,0,0,3,0,0,0,69,0,0,0,0,0,0,,0,NONE,0,0,0,0,0,0,0,0,0,0,0,62.44,0,0,0,0,0,0,0,0,0,270.06,1,0.001,0.748,-0.0084,0.25,1,-0.0084,0,0,0,0,0,0,1,1,0,0,VALID,0,0,0,0,0,1,0,0,0,0,0,0,0,0,0,0,0,0,0,0,137.34,487.78,2,0,0.08,0.08,84,14.29,0.08,0.06,9.38,LANDED,CF1-J,0:/Integrated Flight Computer/aircraft/cf1_j_cfg.ks (inferred preloaded)
9.84,TAKEOFF,TO_GROUND_ROLL,6.01,80,73.99,3.61,62.43,-0.01,0.08,0.13,270.72,-0.028,1,0,0,0,0,0,0,0,0,0,0,0,0,0,0,270.06,0,1,0,-0.05,0,0,0,90,0,0,0,0,0,0,0,0,0.002,0,0,3,0,0,0,69,0,0,0,0,0,0,,0,NONE,0,0,0,0,0,0,0,0,0,0,0,62.43,0,0,0,0,0,0,0,0,0,270.06,1,0.002,0.662,-0.0074,0.25,1,-0.0074,0,0,0,0,0,0,1,1,0,0,VALID,0,0,0,0,0,1,0,0,0,0,0,0,0,0,0,0,0,0,0,0,143.13,487.58,2,0,0.08,0.08,88,14.29,0.08,0.06,9.66,LANDED,CF1-J,0:/Integrated Flight Computer/aircraft/cf1_j_cfg.ks (inferred preloaded)
10.12,TAKEOFF,TO_GROUND_ROLL,6.73,80,73.27,3.61,62.43,-0.01,0.09,0.13,270.64,-0.027,1,0,0,0,0,0,0,0,0,0,0,0,0,0,0,270.06,0,1,0,-0.04,0,0,0,90,0,0,0,0,0,0,0,0,0.002,0,0,3,0,0,0,69,0,0,0,0,0,0,,0,NONE,0,0,0,0,0,0,0,0,0,0,0,62.43,0,0,0,0,0,0,0,0,0,270.06,1,0.002,0.574,-0.0065,0.25,1,-0.0065,0,0,0,0,0,0,1,1,0,0,VALID,0,0,0,0,0,1,0,0,0,0,0,0,0,0,0,0,0,0,0,0,148.8,487.38,2,0,0.08,0.08,92,14.29,0.08,0.06,9.94,LANDED,CF1-J,0:/Integrated Flight Computer/aircraft/cf1_j_cfg.ks (inferred preloaded)
10.4,TAKEOFF,TO_GROUND_ROLL,7.47,80,72.53,3.61,62.43,-0.01,0.09,0.13,270.55,-0.027,1,0,0,0,0,0,0,0,0,0,0,0,0,0,0,270.06,0,1,0,-0.04,0,0,0,90,0,0,0,0,0,0,0,0,0.002,0,0,3,0,0,0,69,0,0,0,0,0,0,,0,NONE,0,0,0,0,0,0,0,0,0,0,0,62.43,0,0,0,0,0,0,0,0,0,270.06,1,0.002,0.487,-0.0055,0.25,1,-0.0055,0,0,0,0,0,0,1,1,0,0,VALID,0,0,0,0,0,1,0,0,0,0,0,0,0,0,0,0,0,0,0,0,154.38,487.16,2,0,0.08,0.08,96,14.29,0.08,0.06,10.22,LANDED,CF1-J,0:/Integrated Flight Computer/aircraft/cf1_j_cfg.ks (inferred preloaded)
10.68,TAKEOFF,TO_GROUND_ROLL,8.24,80,71.76,3.61,62.43,-0.01,0.09,0.13,270.47,-0.027,1,0,0,0,0,0,0,0,0,0,0,0,0,0,0,270.06,0,1,0,-0.04,0,0,0,90,0,0,0,0,0,0,0,0,0.003,0,0,3,0,0,0,69,0,0,0,0,0,0,,0,NONE,0,0,0,0,0,0,0,0,0,0,0,62.43,0,0,0,0,0,0,0,0,0,270.06,1,0.003,0.405,-0.0046,0.25,1,-0.0046,0,0,0,0,0,0,1,1,0,0,VALID,0,0,0,0,0,1,0,0,0,0,0,0,0,0,0,0,0,0,0,0,159.85,486.93,2,0,0.08,0.08,100,14.29,0.08,0.06,10.5,LANDED,CF1-J,0:/Integrated Flight Computer/aircraft/cf1_j_cfg.ks (inferred preloaded)
10.96,TAKEOFF,TO_GROUND_ROLL,9.04,80,70.96,3.61,62.43,-0.01,0.1,0.14,270.39,-0.026,1,0,0,0,0,0,0,0,0,0,0,0,0,0,0,270.06,0,1,0,-0.05,0,0,0,90,0,0,0,0,0,0,0,0,0.003,0,0,3,0,0,0,69,0,0,0,0,0,0,,0,NONE,0,0,0,0,0,0,0,0,0,0,0,62.43,0,0,0,0,0,0,0,0,0,270.06,1,0.003,0.332,-0.0034,0.25,1,-0.0034,0,0,0,0,0,0,1,1,0,0,VALID,0,0,0,0,0,1,0,0,0,0,0,0,0,0,0,0,0,0,0,0,165.22,486.68,2,0,0.08,0.08,104,14.29,0.08,0.06,10.78,LANDED,CF1-J,0:/Integrated Flight Computer/aircraft/cf1_j_cfg.ks (inferred preloaded)
11.24,TAKEOFF,TO_GROUND_ROLL,9.86,80,70.14,3.61,62.43,-0.01,0.1,0.14,270.32,-0.025,1,0,0,0,0,0,0,0,0,0,0,0,0,0,0,270.05,0,1,0,-0.04,0,0,0,90,0,0,0,0,0,0,0,0,0.003,0,0,3,0,0,0,69,0,0,0,0,0,0,,0,NONE,0,0,0,0,0,0,0,0,0,0,0,62.43,0,0,0,0,0,0,0,0,0,270.05,1,0.003,0.268,-0.0026,0.25,1,-0.0026,0,0,0,0,0,0,1,1,0,0,VALID,0,0,0,0,0,1,0,0,0,0,0,0,0,0,0,0,0,0,0,0,170.49,486.42,2,0,0.08,0.08,108,14.29,0.08,0.06,11.06,LANDED,CF1-J,0:/Integrated Flight Computer/aircraft/cf1_j_cfg.ks (inferred preloaded)
11.52,TAKEOFF,TO_GROUND_ROLL,10.71,80,69.29,3.61,62.43,-0.01,0.1,0.14,270.26,-0.026,1,0,0,0,0,0,0,0,0,0,0,0,0,0,0,270.05,0,1,0,-0.04,0,0,0,90,0,0,0,0,0,0,0,0,0.004,0,0,3,0,0,0,69,0,0,0,0,0,0,,0,NONE,0,0,0,0,0,0,0,0,0,0,0,62.43,0,0,0,0,0,0,0,0,0,270.05,1,0.004,0.212,-0.0019,0.25,1,-0.0019,0,0,0,0,0,0,1,1,0,0,VALID,0,0,0,0,0,1,0,0,0,0,0,0,0,0,0,0,0,0,0,0,175.66,486.15,2,0,0.08,0.08,112,14.29,0.08,0.06,11.34,LANDED,CF1-J,0:/Integrated Flight Computer/aircraft/cf1_j_cfg.ks (inferred preloaded)
11.8,TAKEOFF,TO_GROUND_ROLL,11.58,80,68.42,3.61,62.42,-0.01,0.1,0.14,270.2,-0.028,1,0,0,0,0,0,0,0,0,0,0,0,0,0,0,270.04,0,1,0,-0.04,0,0,0,90,0,0,0,0,0,0,0,0,0.004,0,0,3,0,0,0,69,0,0,0,0,0,0,,0,NONE,0,0,0,0,0,0,0,0,0,0,0,62.42,0,0,0,0,0,0,0,0,0,270.04,1,0.004,0.165,-0.0014,0.25,1,-0.0014,0,0,0,0,0,0,1,1,0,0,VALID,0,0,0,0,0,1,0,0,0,0,0,0,0,0,0,0,0,0,0,0,180.73,485.86,2,0,0.08,0.08,116,14.29,0.08,0.06,11.62,LANDED,CF1-J,0:/Integrated Flight Computer/aircraft/cf1_j_cfg.ks (inferred preloaded)
12.08,TAKEOFF,TO_GROUND_ROLL,12.48,80,67.52,3.61,62.42,-0.01,0.11,0.15,270.16,-0.029,1,0,0,0,0,0,0,0,0,0,0,0,0,0,0,270.03,0,1,0,-0.04,0,0,0,90,0,0,0,0,0,0,0,0,0.004,0,0,3,0,0,0,69,0,0,0,0,0,0,,0,NONE,0,0,0,0,0,0,0,0,0,0,0,62.42,0,0,0,0,0,0,0,0,0,270.03,1,0.004,0.128,-0.001,0.25,1,-0.001,0,0,0,0,0,0,1,1,0,0,VALID,0,0,0,0,0,1,0,0,0,0,0,0,0,0,0,0,0,0,0,0,185.7,485.55,2,0,0.08,0.08,120,14.29,0.08,0.06,11.9,LANDED,CF1-J,0:/Integrated Flight Computer/aircraft/cf1_j_cfg.ks (inferred preloaded)
12.36,TAKEOFF,TO_GROUND_ROLL,13.4,80,66.6,3.62,62.42,-0.01,0.11,0.15,270.13,-0.031,1,0,0,0,0,0,0,0,0,0,0,0,0,0,0,270.03,0,1,0,-0.04,0,0,0,90,0,0,0,0,0,0,0,0,0.004,0,0,3,0,0,0,69,0,0,0,0,0,0,,0,NONE,0,0,0,0,0,0,0,0,0,0,0,62.42,0,0,0,0,0,0,0,0,0,270.03,1,0.004,0.101,-0.0008,0.25,1,-0.0008,0,0,0,0,0,0,1,1,0,0,VALID,0,0,0,0,0,1,0,0,0,0,0,0,0,0,0,0,0,0,0,0,190.57,485.23,2,0,0.08,0.08,124,14.29,0.08,0.06,12.18,LANDED,CF1-J,0:/Integrated Flight Computer/aircraft/cf1_j_cfg.ks (inferred preloaded)
12.64,TAKEOFF,TO_GROUND_ROLL,14.35,80,65.65,3.62,62.42,-0.01,0.11,0.15,270.1,-0.031,1,0,0,0,0,0,0,0,0,0,0,0,0,0,0,270.02,0,1,0,-0.04,0,0,0,90,0,0,0,0,0,0,0,0,0.004,0,0,3,0,0,0,69,0,0,0,0,0,0,,0,NONE,0,0,0,0,0,0,0,0,0,0,0,62.42,0,0,0,0,0,0,0,0,0,270.02,1,0.004,0.078,-0.0006,0.25,1,-0.0006,0,0,0,0,0,0,1,1,0,0,VALID,0,0,0,0,0,1,0,0,0,0,0,0,0,0,0,0,0,0,0,0,195.35,484.89,2,0,0.08,0.08,128,14.29,0.08,0.06,12.46,LANDED,CF1-J,0:/Integrated Flight Computer/aircraft/cf1_j_cfg.ks (inferred preloaded)
12.92,TAKEOFF,TO_GROUND_ROLL,15.32,80,64.68,3.62,62.42,-0.01,0.12,0.15,270.08,-0.032,1,0,0,0,0,0,0,0,0,0,0,0,0,0,0,270.02,0,1,0,-0.04,0,0,0,90,0,0,0,0,0,0,0,0,0.004,0,0,3,0,0,0,69,0,0,0,0,0,0,,0,NONE,0,0,0,0,0,0,0,0,0,0,0,62.42,0,0,0,0,0,0,0,0,0,270.02,1,0.004,0.063,-0.0004,0.25,1,-0.0004,0,0,0,0,0,0,1,1,0,0,VALID,0,0,0,0,0,1,0,0,0,0,0,0,0,0,0,0,0,0,0,0,200.03,484.54,2,0,0.08,0.08,132,14.29,0.08,0.06,12.74,LANDED,CF1-J,0:/Integrated Flight Computer/aircraft/cf1_j_cfg.ks (inferred preloaded)
13.2,TAKEOFF,TO_GROUND_ROLL,16.31,80,63.69,3.62,62.41,-0.01,0.12,0.16,270.07,-0.032,1,0,0,0,0,0,0,0,0,0,0,0,0,0,0,270.01,0,1,0,-0.04,0,0,0,90,0,0,0,0,0,0,0,0,0.004,0,0,3,0,0,0,69,0,0,0,0,0,0,,0,NONE,0,0,0,0,0,0,0,0,0,0,0,62.41,0,0,0,0,0,0,0,0,0,270.01,1,0.004,0.056,-0.0004,0.25,1,-0.0004,0,0,0,0,0,0,1,1,0,0,VALID,0,0,0,0,0,1,0,0,0,0,0,0,0,0,0,0,0,0,0,0,204.62,484.17,2,0,0.08,0.08,136,14.29,0.08,0.06,13.02,LANDED,CF1-J,0:/Integrated Flight Computer/aircraft/cf1_j_cfg.ks (inferred preloaded)
13.48,TAKEOFF,TO_GROUND_ROLL,17.32,80,62.68,3.62,62.41,-0.01,0.12,0.16,270.06,-0.032,1,0,0,0,0,0,0,0,0,0,0,0,0,0,0,270.01,0,1,0,-0.04,0,0,-0.01,90,0,0,0,0,0,0,0,0,0.004,0,0,3,0,0,0,69,0,0,0,0,0,0,,0,NONE,0,0,0,0,0,0,0,0,0,0,0,62.41,0,0,0,0,0,0,0,0,0,270.01,1,0.004,0.044,-0.0003,0.25,1,-0.0003,0,0,0,0,0,0,1,1,0,0,VALID,0,0,0,0,0,1,0,0,0,0,0,0,0,0,0,0,0,0,0,0,209.11,483.79,2,0,0.08,0.08,140,14.29,0.08,0.06,13.3,LANDED,CF1-J,0:/Integrated Flight Computer/aircraft/cf1_j_cfg.ks (inferred preloaded)
13.76,TAKEOFF,TO_GROUND_ROLL,18.36,80,61.64,3.62,62.41,-0.01,0.13,0.16,270.05,-0.033,1,0,0,0,0,0,0,0,0,0,0,0,0,0,0,270.01,0,1,0,-0.04,0,0,-0.01,90,0,0,0,0,0,0,0,0,0.005,0,0,3,0,0,0,69,0,0,0,0,0,0,,0,NONE,0,0,0,0,0,0,0,0,0,0,0,62.41,0,0,0,0,0,0,0,0,0,270.01,1,0.005,0.044,-0.0003,0.25,1,-0.0003,0,0,0,0,0,0,1,1,0,0,VALID,0,0,0,0,0,1,0,0,0,0,0,0,0,0,0,0,0,0,0,0,213.51,483.38,2,0,0.08,0.08,144,14.29,0.08,0.06,13.58,LANDED,CF1-J,0:/Integrated Flight Computer/aircraft/cf1_j_cfg.ks (inferred preloaded)
14.04,TAKEOFF,TO_GROUND_ROLL,19.41,80,60.59,3.62,62.4,-0.01,0.13,0.17,270.04,-0.034,1,0,0,0,0,0,0,0,0,0,0,0,0,0,0,270.01,0,1,0,-0.04,0,0,-0.01,90,0,0,0,0,0,0,0,0,0.005,0,0,3,0,0,0,69,0,0,0,0,0,0,,0,NONE,0,0,0,0,0,0,0,0,0,0,0,62.4,0,0,0,0,0,0,0,0,0,270.01,1,0.005,0.038,-0.0003,0.25,1,-0.0003,0,0,0,0,0,0,1,1,0,0,VALID,0,0,0,0,0,1,0,0,0,0,0,0,0,0,0,0,0,0,0,0,217.82,482.96,2,0,0.08,0.08,148,14.29,0.08,0.06,13.86,LANDED,CF1-J,0:/Integrated Flight Computer/aircraft/cf1_j_cfg.ks (inferred preloaded)
14.34,TAKEOFF,TO_GROUND_ROLL,20.49,80,59.51,3.62,62.4,-0.01,0.13,0.17,270.04,-0.035,1,0,0,0,0,0,0,0,0,0,0,0,0,0,0,270.01,0,1,0,-0.04,0,0,-0.01,90,0,0,0,0,0,0,0,0,0.005,0,0,3,0,0,0,69,0,0,0,0,0,0,,0,NONE,0,0,0,0,0,0,0,0,0,0,0,62.4,0,0,0,0,0,0,0,0,0,270.01,1,0.005,0.036,-0.0002,0.255,0,-0.0002,0,0,0,0,0,0,1,1,0,0,VALID,0,0,0,0,0,1,0,0,0,0,0,0,0,0,0,0,0,0,0,0,222.04,482.53,2,0,0.08,0.08,152,14.29,0.08,0.06,14.14,LANDED,CF1-J,0:/Integrated Flight Computer/aircraft/cf1_j_cfg.ks (inferred preloaded)
14.62,TAKEOFF,TO_GROUND_ROLL,21.59,80,58.41,3.62,62.4,-0.01,0.14,0.17,270.04,-0.035,1,0,0,0,0,0,0,0,0,0,0,0,0,0,0,270.01,0,1,0,-0.04,0,0,-0.01,90,0,0,0,0,0,0,0,0,0.005,0,0,3,0,0,0,69,0,0,0,0,0,0,,0,NONE,0,0,0,0,0,0,0,0,0,0,0,62.4,0,0,0,0,0,0,0,0,0,270.01,1,0.005,0.036,-0.0003,0.267,0,-0.0003,0,0,0,0,0,0,1,1,0,0,VALID,0,0,0,0,0,1,0,0,0,0,0,0,0,0,0,0,0,0,0,0,226.17,482.07,2,0,0.08,0.08,156,14.29,0.08,0.06,14.42,LANDED,CF1-J,0:/Integrated Flight Computer/aircraft/cf1_j_cfg.ks (inferred preloaded)
14.9,TAKEOFF,TO_GROUND_ROLL,22.7,80,57.3,3.62,62.4,-0.01,0.14,0.17,270.04,-0.034,1,0,0,0,0,0,0,0,0,0,0,0,0,0,0,270.01,0,1,0,-0.03,0,0,-0.01,90,0,0,0,0,0,0,0,0,0.005,0,0,3,0,0,0,69,0,0,0,0,0,0,,0,NONE,0,0,0,0,0,0,0,0,0,0,0,62.4,0,0,0,0,0,0,0,0,0,270.01,1,0.005,0.034,-0.0003,0.279,0,-0.0003,0,0,0,0,0,0,1,1,0,0,VALID,0,0,0,0,0,1,0,0,0,0,0,0,0,0,0,0,0,0,0,0,230.21,481.6,2,0,0.08,0.08,160,14.29,0.08,0.06,14.7,LANDED,CF1-J,0:/Integrated Flight Computer/aircraft/cf1_j_cfg.ks (inferred preloaded)
15.18,TAKEOFF,TO_GROUND_ROLL,23.84,80,56.16,3.62,62.39,-0.01,0.15,0.18,270.04,-0.034,1,0,0,0,0,0,0,0,0,0,0,0,0,0,0,270,0,1,0,-0.04,0,0,-0.01,90,0,0,0,0,0,0,0,0,0.005,0,0,3,0,0,0,69,0,0,0,0,0,0,,0,NONE,0,0,0,0,0,0,0,0,0,0,0,62.39,0,0,0,0,0,0,0,0,0,270,1,0.005,0.035,-0.0003,0.291,0,-0.0003,0,0,0,0,0,0,1,1,0,0,VALID,0,0,0,0,0,1,0,0,0,0,0,0,0,0,0,0,0,0,0,0,234.17,481.11,2,0,0.08,0.08,164,14.29,0.08,0.06,14.98,LANDED,CF1-J,0:/Integrated Flight Computer/aircraft/cf1_j_cfg.ks (inferred preloaded)
15.46,TAKEOFF,TO_GROUND_ROLL,24.99,80,55.01,3.62,62.39,-0.01,0.15,0.18,270.04,-0.036,1,0,0,0,0,0,0,0,0,0,0,0,0,0,0,270.01,0,1,0,-0.03,0,0,-0.01,90,0,0,0,0,0,0,0,0,0.005,0,0,3,0,0,0,69,0,0,0,0,0,0,,0,NONE,0,0,0,0,0,0,0,0,0,0,0,62.39,0,0,0,0,0,0,0,0,0,270.01,1,0.005,0.033,-0.0003,0.303,0,-0.0003,0,0,0,0,0,0,1,1,0,0,VALID,0,0,0,0,0,1,0,0,0,0,0,0,0,0,0,0,0,0,0,0,238.03,480.6,2,0,0.08,0.08,168,14.29,0.08,0.06,15.26,LANDED,CF1-J,0:/Integrated Flight Computer/aircraft/cf1_j_cfg.ks (inferred preloaded)
15.74,TAKEOFF,TO_GROUND_ROLL,26.16,80,53.84,3.62,62.38,-0.02,0.15,0.18,270.04,-0.035,1,0,0,0,0,0,0,0,0,0,0,0,0,0,0,270.01,0,1,0,-0.03,0,0,-0.01,90,0,0,0,0,0,0,0,0,0.005,0,0,3,0,0,0,69,0,0,0,0,0,0,,0,NONE,0,0,0,0,0,0,0,0,0,0,0,62.38,0,0,0,0,0,0,0,0,0,270.01,1,0.005,0.031,-0.0003,0.316,0,-0.0003,0,0,0,0,0,0,1,1,0,0,VALID,0,0,0,0,0,1,0,0,0,0,0,0,0,0,0,0,0,0,0,0,241.81,480.08,2,0,0.08,0.08,172,14.29,0.08,0.06,15.54,LANDED,CF1-J,0:/Integrated Flight Computer/aircraft/cf1_j_cfg.ks (inferred preloaded)
16.02,TAKEOFF,TO_GROUND_ROLL,27.35,80,52.65,3.62,62.38,-0.02,0.16,0.19,270.04,-0.036,1,0,0,0,0,0,0,0,0,0,0,0,0,0,0,270,0,1,0,-0.03,0,0,-0.01,90,0,0,0,0,0,0,0,0,0.005,0,0,3,0,0,0,69,0,0,0,0,0,0,,0,NONE,0,0,0,0,0,0,0,0,0,0,0,62.38,0,0,0,0,0,0,0,0,0,270,1,0.005,0.035,-0.0003,0.329,0,-0.0003,0,0,0,0,0,0,1,1,0,0,VALID,0,0,0,0,0,1,0,0,0,0,0,0,0,0,0,0,0,0,0,0,245.51,479.53,2,0,0.08,0.08,176,14.29,0.08,0.06,15.82,LANDED,CF1-J,0:/Integrated Flight Computer/aircraft/cf1_j_cfg.ks (inferred preloaded)
16.3,TAKEOFF,TO_GROUND_ROLL,28.56,80,51.44,3.62,62.38,-0.02,0.16,0.19,270.04,-0.036,1,0,0,0,0,0,0,0,0,0,0,0,0,0,0,270,0,1,0,-0.03,0,0,-0.01,90,0,0,0,0,0,0,0,0,0.005,0,0,3,0,0,0,69,0,0,0,0,0,0,,0,NONE,0,0,0,0,0,0,0,0,0,0,0,62.38,0,0,0,0,0,0,0,0,0,270,1,0.005,0.033,-0.0003,0.342,0,-0.0003,0,0,0,0,0,0,1,1,0,0,VALID,0,0,0,0,0,1,0,0,0,0,0,0,0,0,0,0,0,0,0,0,249.12,478.97,2,0,0.08,0.08,180,14.29,0.08,0.06,16.1,LANDED,CF1-J,0:/Integrated Flight Computer/aircraft/cf1_j_cfg.ks (inferred preloaded)
16.58,TAKEOFF,TO_GROUND_ROLL,29.78,80,50.22,3.62,62.37,-0.02,0.17,0.2,270.04,-0.036,1,0,0,0,0,0,0,0,0,0,0,0,0,0,0,270,0,1,0,-0.03,0,0,-0.01,90,0,0,0,0,0,0,0,0,0.005,0,0,3,0,0,0,69,0,0,0,0,0,0,,0,NONE,0,0,0,0,0,0,0,0,0,0,0,62.37,0,0,0,0,0,0,0,0,0,270,1,0.005,0.035,-0.0003,0.355,0,-0.0003,0,0,0,0,0,0,1,1,0,0,VALID,0,0,0,0,0,1,0,0,0,0,0,0,0,0,0,0,0,0,0,0,252.64,478.39,2,0,0.08,0.08,184,14.29,0.08,0.06,16.38,LANDED,CF1-J,0:/Integrated Flight Computer/aircraft/cf1_j_cfg.ks (inferred preloaded)
16.86,TAKEOFF,TO_GROUND_ROLL,31.02,80,48.98,3.63,62.37,-0.02,0.17,0.2,270.04,-0.035,1,0,0,0,0,0,0,0,0,0,0,0,0,0,0,270,0,1,0,-0.03,0,0,-0.01,90,0,0,0,0,0,0,0,0,0.005,0,0,3,0,0,0,69,0,0,0,0,0,0,,0,NONE,0,0,0,0,0,0,0,0,0,0,0,62.37,0,0,0,0,0,0,0,0,0,270,1,0.005,0.035,-0.0003,0.368,0,-0.0003,0,0,0,0,0,0,1,1,0,0,VALID,0,0,0,0,0,1,0,0,0,0,0,0,0,0,0,0,0,0,0,0,256.09,477.79,2,0,0.08,0.08,188,14.29,0.08,0.06,16.66,LANDED,CF1-J,0:/Integrated Flight Computer/aircraft/cf1_j_cfg.ks (inferred preloaded)
17.14,TAKEOFF,TO_GROUND_ROLL,32.27,80,47.73,3.63,62.37,-0.02,0.18,0.2,270.04,-0.036,1,0,0,0,0,0,0,0,0,0,0,0,0,0,0,270,0,1,0,-0.03,0,0,-0.01,90,0,0,0,0,0,0,0,0,0.005,0,0,3,0,0,0,69,0,0,0,0,0,0,,0,NONE,0,0,0,0,0,0,0,0,0,0,0,62.37,0,0,0,0,0,0,0,0,0,270,1,0.005,0.034,-0.0003,0.382,0,-0.0003,0,0,0,0,0,0,1,1,0,0,VALID,0,0,0,0,0,1,0,0,0,0,0,0,0,0,0,0,0,0,0,0,259.45,477.18,2,0,0.08,0.08,192,14.29,0.08,0.06,16.94,LANDED,CF1-J,0:/Integrated Flight Computer/aircraft/cf1_j_cfg.ks (inferred preloaded)
17.42,TAKEOFF,TO_GROUND_ROLL,33.54,80,46.46,3.63,62.36,-0.02,0.18,0.21,270.04,-0.037,1,0,0,0,0,0,0,0,0,0,0,0,0,0,0,270.01,0,1,0,-0.03,0,0,-0.02,90,0,0,0,0,0,0,0,0,0.005,0,0,3,0,0,0,69,0,0,0,0,0,0,,0,NONE,0,0,0,0,0,0,0,0,0,0,0,62.36,0,0,0,0,0,0,0,0,0,270.01,1,0.005,0.032,-0.0003,0.395,0,-0.0003,0,0,0,0,0,0,1,1,0,0,VALID,0,0,0,0,0,1,0,0,0,0,0,0,0,0,0,0,0,0,0,0,262.73,476.54,2,0,0.08,0.08,196,14.29,0.08,0.06,17.22,LANDED,CF1-J,0:/Integrated Flight Computer/aircraft/cf1_j_cfg.ks (inferred preloaded)
17.7,TAKEOFF,TO_GROUND_ROLL,34.83,80,45.17,3.63,62.36,-0.01,0.18,0.21,270.04,-0.038,1,0,0,0,0,0,0,0,0,0,0,0,0,0,0,270.01,0,1,0,-0.02,0,0,-0.02,90,0,0,0,0,0,0,0,0,0.005,0,0,3,0,0,0,69,0,0,0,0,0,0,,0,NONE,0,0,0,0,0,0,0,0,0,0,0,62.36,0,0,0,0,0,0,0,0,0,270.01,1,0.005,0.033,-0.0004,0.409,0,-0.0004,0,0,0,0,0,0,1,1,0,0,VALID,0,0,0,0,0,1,0,0,0,0,0,0,0,0,0,0,0,0,0,0,265.93,475.89,2,0,0.08,0.08,200,14.29,0.08,0.06,17.5,LANDED,CF1-J,0:/Integrated Flight Computer/aircraft/cf1_j_cfg.ks (inferred preloaded)
17.98,TAKEOFF,TO_GROUND_ROLL,36.12,80,43.88,3.63,62.36,-0.02,0.19,0.22,270.04,-0.037,1,0,0,0,0,0,0,0,0,0,0,0,0,0,0,270.01,0,1,0,-0.03,0,0,-0.02,90,0,0,0,0,0,0,0,0,0.006,0,0,3,0,0,0,69,0,0,0,0,0,0,,0,NONE,0,0,0,0,0,0,0,0,0,0,0,62.36,0,0,0,0,0,0,0,0,0,270.01,1,0.006,0.034,-0.0004,0.423,0,-0.0004,0,0,0,0,0,0,1,1,0,0,VALID,0,0,0,0,0,1,0,0,0,0,0,0,0,0,0,0,0,0,0,0,269.06,475.22,2,0,0.08,0.08,204,14.29,0.08,0.06,17.78,LANDED,CF1-J,0:/Integrated Flight Computer/aircraft/cf1_j_cfg.ks (inferred preloaded)
18.26,TAKEOFF,TO_GROUND_ROLL,37.44,80,42.56,3.63,62.35,-0.02,0.2,0.22,270.04,-0.037,1,0,0,0,0,0,0,0,0,0,0,0,0,0,0,270,0,1,0,-0.02,0,0,-0.02,90,0,0,0,0,0,0,0,0,0.006,0,0,3,0,0,0,69,0,0,0,0,0,0,,0,NONE,0,0,0,0,0,0,0,0,0,0,0,62.35,0,0,0,0,0,0,0,0,0,270,1,0.006,0.034,-0.0004,0.437,0,-0.0004,0,0,0,0,0,0,1,1,0,0,VALID,0,0,0,0,0,1,0,0,0,0,0,0,0,0,0,0,0,0,0,0,272.1,474.54,2,0,0.08,0.08,208,14.29,0.08,0.06,18.06,LANDED,CF1-J,0:/Integrated Flight Computer/aircraft/cf1_j_cfg.ks (inferred preloaded)
18.54,TAKEOFF,TO_GROUND_ROLL,38.76,80,41.24,3.63,62.35,-0.02,0.2,0.22,270.04,-0.038,1,0,0,0,0,0,0,0,0,0,0,0,0,0,0,270,0,1,0,-0.02,0,0,-0.02,90,0,0,0,0,0,0,0,0,0.006,0,0,3,0,0,0,69,0,0,0,0,0,0,,0,NONE,0,0,0,0,0,0,0,0,0,0,0,62.35,0,0,0,0,0,0,0,0,0,270,1,0.006,0.038,-0.0005,0.451,0,-0.0005,0,0,0,0,0,0,1,1,0,0,VALID,0,0,0,0,0,1,0,0,0,0,0,0,0,0,0,0,0,0,0,0,275.07,473.83,2,0,0.08,0.08,212,14.29,0.08,0.06,18.34,LANDED,CF1-J,0:/Integrated Flight Computer/aircraft/cf1_j_cfg.ks (inferred preloaded)
18.82,TAKEOFF,TO_GROUND_ROLL,40.1,80,39.9,3.63,62.34,-0.02,0.21,0.23,270.04,-0.039,1,0,0,0,0,0,0,0,0,0,0,0,0,0,0,270,0,1,0,-0.02,0,0,-0.02,90,0,0,0,0,0,0,0,0,0.006,0,0,3,0,0,0,69,0,0,0,0,0,0,,0,NONE,0,0,0,0,0,0,0,0,0,0,0,62.34,0,0,0,0,0,0,0,0,0,270,1,0.006,0.04,-0.0005,0.465,0,-0.0005,0,0,0,0,0,0,1,1,0,0,VALID,0,0,0,0,0,1,0,0,0,0,0,0,0,0,0,0,0,0,0,0,277.96,473.11,2,0,0.08,0.08,216,14.29,0.08,0.06,18.62,LANDED,CF1-J,0:/Integrated Flight Computer/aircraft/cf1_j_cfg.ks (inferred preloaded)
19.1,TAKEOFF,TO_GROUND_ROLL,41.45,80,38.55,3.63,62.34,-0.01,0.21,0.23,270.05,-0.041,1,0,0,0,0,0,0,0,0,0,0,0,0,0,0,270,0,1,0,-0.02,0,0,-0.02,90,0,0,0,0,0,0,0,0,0.006,0,0,3,0,0,0,69,0,0,0,0,0,0,,0,NONE,0,0,0,0,0,0,0,0,0,0,0,62.34,0,0,0,0,0,0,0,0,0,270,1,0.006,0.043,-0.0006,0.48,0,-0.0006,0,0,0,0,0,0,1,1,0,0,VALID,0,0,0,0,0,1,0,0,0,0,0,0,0,0,0,0,0,0,0,0,280.78,472.37,2,0,0.08,0.08,220,14.29,0.08,0.06,18.9,LANDED,CF1-J,0:/Integrated Flight Computer/aircraft/cf1_j_cfg.ks (inferred preloaded)
19.38,TAKEOFF,TO_GROUND_ROLL,42.81,80,37.19,3.63,62.34,-0.01,0.22,0.24,270.05,-0.042,1,0,0,0,0,0,0,0,0,0,0,0,0,0,0,270,0,1,0,-0.02,0,0,-0.02,90,0,0,0,0,0,0,0,0,0.006,0,0,3,0,0,0,69,0,0,0,0,0,0,,0,NONE,0,0,0,0,0,0,0,0,0,0,0,62.34,0,0,0,0,0,0,0,0,0,270,1,0.006,0.05,-0.0007,0.494,0,-0.0007,0,0,0,0,0,0,1,1,0,0,VALID,0,0,0,0,0,1,0,0,0,0,0,0,0,0,0,0,0,0,0,0,283.52,471.62,2,0,0.08,0.08,224,14.29,0.08,0.06,19.18,LANDED,CF1-J,0:/Integrated Flight Computer/aircraft/cf1_j_cfg.ks (inferred preloaded)
19.66,TAKEOFF,TO_GROUND_ROLL,44.18,80,35.82,3.63,62.33,-0.01,0.22,0.24,270.06,-0.044,1,0,0,0,0,0,0,0,0,0,0,0,0,0,0,270,0,1,0,-0.02,0,0,-0.02,90,0,0,0,0,0,0,0,0,0.006,0,0,3,0,0,0,69,0,0,0,0,0,0,,0,NONE,0,0,0,0,0,0,0,0,0,0,0,62.33,0,0,0,0,0,0,0,0,0,270,1,0.006,0.06,-0.0009,0.509,0,-0.0009,0,0,0,0,0,0,1,1,0,0,VALID,0,0,0,0,0,1,0,0,0,0,0,0,0,0,0,0,0,0,0,0,286.19,470.85,2,0,0.08,0.08,228,14.29,0.08,0.06,19.46,LANDED,CF1-J,0:/Integrated Flight Computer/aircraft/cf1_j_cfg.ks (inferred preloaded)
19.94,TAKEOFF,TO_GROUND_ROLL,45.57,80,34.43,3.64,62.33,-0.01,0.23,0.25,270.07,-0.046,1,0,0,0,0,0,0,0,0,0,0,0,0,0,0,270,0,1,0,-0.02,0,0,-0.03,90,0,0,0,0,0,0,0,0,0.007,0,0,3,0,0,0,69,0,0,0,0,0,0,,0,NONE,0,0,0,0,0,0,0,0,0,0,0,62.33,0,0,0,0,0,0,0,0,0,270,1,0.007,0.066,-0.001,0.524,0,-0.001,0,0,0,0,0,0,1,1,0,0,VALID,0,0,0,0,0,1,0,0,0,0,0,0,0,0,0,0,0,0,0,0,288.78,470.06,2,0,0.08,0.08,232,14.29,0.08,0.06,19.74,LANDED,CF1-J,0:/Integrated Flight Computer/aircraft/cf1_j_cfg.ks (inferred preloaded)
20.22,TAKEOFF,TO_GROUND_ROLL,46.96,80,33.04,3.64,62.33,-0.01,0.24,0.25,270.08,-0.048,1,0,0,0,0,0,0,0,0,0,0,0,0,0,0,270,0,1,0,-0.01,0,0,-0.03,90,0,0,0,0,0,0,0,0,0.007,0,0,3,0,0,0,69,0,0,0,0,0,0,,0,NONE,0,0,0,0,0,0,0,0,0,0,0,62.33,0,0,0,0,0,0,0,0,0,270,1,0.007,0.085,-0.0013,0.539,0,-0.0013,0,0,0,0,0,0,1,1,0,0,VALID,0,0,0,0,0,1,0,0,0,0,0,0,0,0,0,0,0,0,0,0,291.31,469.26,2,0,0.08,0.08,236,14.29,0.08,0.06,20.02,LANDED,CF1-J,0:/Integrated Flight Computer/aircraft/cf1_j_cfg.ks (inferred preloaded)
20.5,TAKEOFF,TO_GROUND_ROLL,48.37,80,31.63,3.64,62.33,-0.01,0.26,0.27,270.1,-0.051,1,0,0,0,0,0,0,0,0,0,0,0,0,0,0,269.99,0,1,0,-0.01,0,0,-0.03,90,0,0,0,0,0,0,0,0,0.007,0,0,3,0,0,0,69,0,0,0,0,0,0,,0,NONE,0,0,0,0,0,0,0,0,0,0,0,62.33,0,0,0,0,0,0,0,0,0,269.99,1,0.007,0.102,-0.0017,0.554,0,-0.0017,0,0,0,0,0,0,1,1,0,0,VALID,0,0,0,0,0,1,0,0,0,0,0,0,0,0,0,0,0,0,0,0,293.77,468.44,2,0,0.08,0.08,240,14.29,0.08,0.06,20.3,LANDED,CF1-J,0:/Integrated Flight Computer/aircraft/cf1_j_cfg.ks (inferred preloaded)
20.78,TAKEOFF,TO_GROUND_ROLL,49.78,80,30.22,3.65,62.33,-0.01,0.3,0.31,270.12,-0.055,1,0,0,0,0,0,0,0,0,0,0,0,0,0,0,269.99,0,1,0,-0.01,0,0,-0.03,90,0,0,0,0,0,0,0,0,0.008,0,0,3,0,0,0,69,0,0,0,0,0,0,,0,NONE,0,0,0,0,0,0,0,0,0,0,0,62.33,0,0,0,0,0,0,0,0,0,269.99,1,0.008,0.122,-0.0021,0.569,0,-0.0021,0,0,0,0,0,0,1,1,0,0,VALID,0,0,0,0,0,1,0,0,0,0,0,0,0,0,0,0,0,0,0,0,296.15,467.61,2,0,0.08,0.08,244,14.29,0.08,0.06,20.58,LANDED,CF1-J,0:/Integrated Flight Computer/aircraft/cf1_j_cfg.ks (inferred preloaded)
21.06,TAKEOFF,TO_GROUND_ROLL,51.21,80,28.79,3.66,62.34,0,0.36,0.37,270.14,-0.058,1,0,0,0,0,0,0,0,0,0,0,0,0,0,0,269.99,0,1,0,0,0,0,-0.03,90,0,0,0,0,0,0,0,0,0.009,0,0,3,0,0,0,69,0,0,0,0,0,0,,0,NONE,0,0,0,0,0,0,0,0,0,0,0,62.34,0,0,0,0,0,0,0,0,0,269.99,1,0.009,0.142,-0.0027,0.584,0,-0.0027,0,0,0,0,0,0,1,1,0,0,VALID,0,0,0,0,0,1,0,0,0,0,0,0,0,0,0,0,0,0,0,0,298.47,466.76,2,0,0.08,0.08,248,14.29,0.08,0.06,20.86,LANDED,CF1-J,0:/Integrated Flight Computer/aircraft/cf1_j_cfg.ks (inferred preloaded)
21.34,TAKEOFF,TO_GROUND_ROLL,52.64,80,27.36,3.69,62.37,-0.04,0.47,0.51,270.16,-0.055,1,0,0,0,0,0,0,0,0,0,0,0,0,0,0,269.99,0,1,0,-0.05,0,0,-0.03,90,0,0,0,0,0,0,0,0,0.009,0,0,3,0,0,0,69,0,0,0,0,0,0,,0,NONE,0,0,0,0,0,0,0,0,0,0,0,62.37,0,0,0,0,0,0,0,0,0,269.99,1,0.009,0.164,-0.0033,0.6,0,-0.0033,0,0,0,0,0,0,1,1,0,0,VALID,0,0,0,0,0,1,0,0,0,0,0,0,0,0,0,0,0,0,0,0,300.72,465.9,2,0,0.08,0.08,252,14.29,0.08,0.06,21.14,LANDED,CF1-J,0:/Integrated Flight Computer/aircraft/cf1_j_cfg.ks (inferred preloaded)
21.62,TAKEOFF,TO_GROUND_ROLL,54.08,80,25.92,3.72,62.39,0.03,0.63,0.6,270.18,-0.05,1,0,0,0,0,0,0,0,0,0,0,0,0,0,0,269.99,0,1,0,0.03,0,0,-0.03,90,0,0,0,0,0,0,0,0,0.01,0,0,3,0,0,0,69,0,0,0,0,0,0,,0,NONE,0,0,0,0,0,0,0,0,0,0,0,62.39,0,0,0,0,0,0,0,0,0,269.99,1,0.01,0.189,-0.004,0.615,0,-0.004,0,0,0,0,0,0,1,1,0,0,VALID,0,0,0,0,0,1,0,0,0,0,0,0,0,0,0,0,0,0,0,0,302.91,465.03,2,0,0.08,0.08,256,14.29,0.08,0.06,21.42,LANDED,CF1-J,0:/Integrated Flight Computer/aircraft/cf1_j_cfg.ks (inferred preloaded)
21.9,TAKEOFF,TO_GROUND_ROLL,55.52,80,24.48,3.75,62.42,0,0.79,0.79,270.21,-0.05,1,0,0,0,0,0,0,0,0,0,0,0,0,0,0,270,0,1,0,0,0,0,-0.04,90,0,0,0,0,0,0,0,0,0.011,0,0,3,0,0,0,69,0,0,0,0,0,0,,0,NONE,0,0,0,0,0,0,0,0,0,0,0,62.42,0,0,0,0,0,0,0,0,0,270,1,0.011,0.21,-0.0047,0.631,0,-0.0047,0,0,0,0,0,0,1,1,0,0,VALID,0,0,0,0,0,1,0,0,0,0,0,0,0,0,0,0,0,0,0,0,305.03,464.14,2,0,0.08,0.08,260,14.29,0.08,0.06,21.7,LANDED,CF1-J,0:/Integrated Flight Computer/aircraft/cf1_j_cfg.ks (inferred preloaded)
22.18,TAKEOFF,TO_GROUND_ROLL,56.97,80,23.03,3.77,62.45,0,0.94,0.94,270.23,-0.053,1,0,0,0,0,0,0,0,0,0,0,0,0,0,0,270,0,1,0,0,0,0,-0.04,90,0,0,0,0,0,0,0,0,0.012,0,0,3,0,0,0,69,0,0,0,0,0,0,,0,NONE,0,0,0,0,0,0,0,0,0,0,0,62.45,0,0,0,0,0,0,0,0,0,270,1,0.012,0.232,-0.0055,0.646,0,-0.0055,0,0,0,0,0,0,1,1,0,0,VALID,0,0,0,0,0,1,0,0,0,0,0,0,0,0,0,0,0,0,0,0,307.09,463.25,2,0,0.08,0.08,264,14.29,0.08,0.06,21.98,LANDED,CF1-J,0:/Integrated Flight Computer/aircraft/cf1_j_cfg.ks (inferred preloaded)
22.46,TAKEOFF,TO_GROUND_ROLL,58.43,80,21.57,3.79,62.47,0.01,1.05,1.04,270.25,-0.052,1,0,0,0,0,0,0,0,0,0,0,0,0,0,0,270,0,1,0,0,0,0,-0.04,90,0,0,0,0,0,0,0,0,0.014,0,0,3,0,0,0,69,0,0,0,0,0,0,,0,NONE,0,0,0,0,0,0,0,0,0,0,0,62.47,0,0,0,0,0,0,0,0,0,270,1,0.014,0.247,-0.0061,0.662,0,-0.0061,0,0,0,0,0,0,1,1,0,0,VALID,0,0,0,0,0,1,0,0,0,0,0,0,0,0,0,0,0,0,0,0,309.09,462.34,2,0,0.08,0.08,268,14.29,0.08,0.06,22.26,LANDED,CF1-J,0:/Integrated Flight Computer/aircraft/cf1_j_cfg.ks (inferred preloaded)
22.74,TAKEOFF,TO_GROUND_ROLL,59.89,80,20.11,3.81,62.48,0,1.12,1.12,270.27,-0.05,1,0,0,0,0,0,0,0,0,0,0,0,0,0,0,270,0,1,0,0,0,0,-0.04,90,0,0,0,0,0,0,0,0,0.015,0,0,3,0,0,0,69,0,0,0,0,0,0,,0,NONE,0,0,0,0,0,0,0,0,0,0,0,62.48,0,0,0,0,0,0,0,0,0,270,1,0.015,0.263,-0.0068,0.677,0,-0.0068,0,0,0,0,0,0,1,1,0,0,VALID,0,0,0,0,0,1,0,0,0,0,0,0,0,0,0,0,0,0,0,0,311.02,461.42,2,0,0.08,0.08,272,14.29,0.08,0.06,22.54,LANDED,CF1-J,0:/Integrated Flight Computer/aircraft/cf1_j_cfg.ks (inferred preloaded)
23.02,TAKEOFF,TO_GROUND_ROLL,61.35,80,18.65,3.82,62.49,0,1.17,1.17,270.28,-0.048,1,0,0,0,0,0,0,0,0,0,0,0,0,0,0,270.01,0,1,0,0,0,0,-0.04,90,0,0,0,0,0,0,0,0,0.017,0,0,3,0,0,0,69,0,0,0,0,0,0,,0,NONE,0,0,0,0,0,0,0,0,0,0,0,62.49,0,0,0,0,0,0,0,0,0,270.01,1,0.017,0.275,-0.0074,0.693,0,-0.0074,0,0,0,0,0,0,1,1,0,0,VALID,0,0,0,0,0,1,0,0,0,0,0,0,0,0,0,0,0,0,0,0,312.9,460.49,2,0,0.08,0.08,276,14.29,0.08,0.06,22.82,LANDED,CF1-J,0:/Integrated Flight Computer/aircraft/cf1_j_cfg.ks (inferred preloaded)
23.3,TAKEOFF,TO_GROUND_ROLL,62.82,80,17.18,3.82,62.5,0.01,1.22,1.21,270.3,-0.048,1,0,0,0,0,0,0,0,0,0,0,0,0,0,0,270.01,0,1,0,0.01,0,0,-0.04,90,0,0,0,0,0,0,0,0,0.019,0,0,3,0,0,0,69,0,0,0,0,0,0,,0,NONE,0,0,0,0,0,0,0,0,0,0,0,62.5,0,0,0,0,0,0,0,0,0,270.01,1,0.019,0.289,-0.0081,0.709,0,-0.0081,0,0,0,0,0,0,1,1,0,0,VALID,0,0,0,0,0,1,0,0,0,0,0,0,0,0,0,0,0,0,0,0,314.72,459.56,2,0,0.08,0.08,280,14.29,0.08,0.06,23.1,LANDED,CF1-J,0:/Integrated Flight Computer/aircraft/cf1_j_cfg.ks (inferred preloaded)
23.58,TAKEOFF,TO_GROUND_ROLL,64.29,80,15.71,3.84,62.51,0.01,1.28,1.27,270.31,-0.047,1,0,0,0,0,0,0,0,0,0,0,0,0,0,0,270.01,0,1,0,0.01,0,0,-0.05,90,0,0,0,0,0,0,0,0,0.021,0,0,3,0,0,0,69,0,0,0,0,0,0,,0,NONE,0,0,0,0,0,0,0,0,0,0,0,62.51,0,0,0,0,0,0,0,0,0,270.01,1,0.021,0.296,-0.0085,0.725,0,-0.0085,0,0,0,0,0,0,1,1,0,0,VALID,0,0,0,0,0,1,0,0,0,0,0,0,0,0,0,0,0,0,0,0,316.49,458.61,2,0,0.08,0.08,284,14.29,0.08,0.06,23.38,LANDED,CF1-J,0:/Integrated Flight Computer/aircraft/cf1_j_cfg.ks (inferred preloaded)
23.86,TAKEOFF,TO_GROUND_ROLL,65.77,80,14.23,3.85,62.52,0.01,1.35,1.34,270.32,-0.046,1,0,0,0,0,0,0,0,0,0,0,0,0,0,0,270.02,0,1,0,0.01,0,0,-0.05,90,0,0,0,0,0,0,0,0,0.023,0,0,3,0,0,0,69,0,0,0,0,0,0,,0,NONE,0,0,0,0,0,0,0,0,0,0,0,62.52,0,0,0,0,0,0,0,0,0,270.02,1,0.023,0.303,-0.009,0.74,0,-0.009,0,0,0,0,0,0,1,1,0,0,VALID,0,0,0,0,0,1,0,0,0,0,0,0,0,0,0,0,0,0,0,0,318.19,457.66,2,0,0.08,0.08,288,14.29,0.08,0.06,23.66,LANDED,CF1-J,0:/Integrated Flight Computer/aircraft/cf1_j_cfg.ks (inferred preloaded)
24.14,TAKEOFF,TO_GROUND_ROLL,67.24,80,12.76,3.87,62.54,0.02,1.45,1.43,270.33,-0.044,1,0,0,0,0,0,0,0,0,0,0,0,0,0,0,270.02,0,1,0,0.01,0,0,-0.05,90,0,0,0,0,0,0,0,0,0.025,0,0,3,0,0,0,69,0,0,0,0,0,0,,0,NONE,0,0,0,0,0,0,0,0,0,0,0,62.54,0,0,0,0,0,0,0,0,0,270.02,1,0.025,0.308,-0.0094,0.756,0,-0.0094,0,0,0,0,0,0,1,1,0,0,VALID,0,0,0,0,0,1,0,0,0,0,0,0,0,0,0,0,0,0,0,0,319.85,456.69,2,0,0.08,0.08,292,14.29,0.08,0.06,23.94,LANDED,CF1-J,0:/Integrated Flight Computer/aircraft/cf1_j_cfg.ks (inferred preloaded)
24.42,TAKEOFF,TO_ROTATE,68.83,80,11.17,3.89,62.56,0.02,1.55,1.53,270.34,-0.043,1,0,0,0,0,0,0,0,0,0,0,0,0,0,0,270.02,1.759,1,0,0.02,0,0,-0.05,90,0,0,0,0,0,0,0,0,0.027,0,0,3,0,0,0,69,0,0,0,0,0,0,,0,NONE,0,0,0,0,0,0,0,0.12,0,0,0,62.56,0,0,0,0,0,0,0,0,0,270.02,1,0.027,0.312,-0.0098,0.772,0,-0.0098,0,0.12,1.759,0.211,0.08,0,1,1,0,0,VALID,0,0,0,0,0,1,0,0,0,0,0,0,0,0,0,0,0,0,0,0,321.56,455.66,2,0,0.08,0.08,296,13.33,0.08,0.06,24.22,LANDED,CF1-J,0:/Integrated Flight Computer/aircraft/cf1_j_cfg.ks (inferred preloaded)
24.7,TAKEOFF,TO_ROTATE,70.31,80,9.69,3.9,62.58,0.03,1.63,1.61,270.34,-0.043,1,0,0,0,0,0,0,0,0,0,0,0,0,0,0,270.03,2.599,1,0,0.02,0,0,-0.05,90,0,0,0,0,0,0,0,0,0.03,0,0,3,0,0,0,69,0,0,0,0,0,0,,0,NONE,0,0,0,0,0,0,0,0.1574,0,0,0,62.58,0,0,0,0,0,0,0,0,0,270.03,1,0.03,0.316,-0.0101,0.788,0,-0.0101,0,0.1574,2.599,0.968,0.08,0,1,1,0,0,VALID,0,0,0,0,0,1,0,0,0,0,0,0,0,0,0,0,0,0,0,0,323.1,454.68,2,0,0.08,0.08,300,14.29,0.08,0.06,24.5,LANDED,CF1-J,0:/Integrated Flight Computer/aircraft/cf1_j_cfg.ks (inferred preloaded)
25,TAKEOFF,TO_ROTATE,71.89,80,8.11,3.92,62.6,0.03,1.7,1.67,270.34,-0.048,1,0,0,0,0,0,0,0,0,0,0,0,0,0,0,270.03,3.499,1,0,0.02,0,0,-0.05,90,0,0,0,0,0,0,0,0,0.032,0,0,3,0,0,0,69,0,0,0,0,0,0,,0,NONE,0,0,0,0,0,0,0,0.224,0,0,0,62.6,0,0,0,0,0,0,0,0,0,270.03,1,0.032,0.311,-0.0102,0.805,0,-0.0102,0,0.224,3.499,1.8,0.08,0,1,1,0,0,VALID,0,0,0,0,0,1,0,0,0,0,0,0,0,0,0,0,0,0,0,0,324.7,453.63,2,0,0.08,0.08,304,13.33,0.08,0.06,24.8,LANDED,CF1-J,0:/Integrated Flight Computer/aircraft/cf1_j_cfg.ks (inferred preloaded)
25.28,TAKEOFF,TO_ROTATE,73.37,80,6.63,3.94,62.64,0.05,1.83,1.79,270.34,-0.051,1,0,0,0,0,0,0,0,0,0,0,0,0,0,0,270.03,4.339,1,0,0.04,0,0,-0.06,90,0,0,0,0,0,0,0,0,0.035,0,0,3,0,0,0,69,0,0,0,0,0,0,,0,NONE,0,0,0,0,0,0,0,0.2808,0,0,0,62.64,0,0,0,0,0,0,0,0,0,270.03,1,0.035,0.31,-0.0103,0.821,0,-0.0103,0,0.2808,4.339,2.51,0.08,0,1,1,0,0,VALID,0,0,0,0,0,1,0,0,0,0,0,0,0,0,0,0,0,0,0,0,326.14,452.65,2,0,0.08,0.08,308,14.29,0.08,0.06,25.08,LANDED,CF1-J,0:/Integrated Flight Computer/aircraft/cf1_j_cfg.ks (inferred preloaded)
25.56,TAKEOFF,TO_ROTATE,74.85,80,5.15,4.01,62.71,0.3,2.1,1.91,270.34,-0.05,1,0,0,0,0,0,0,0,0,0,0,0,0,0,0,270.04,5.179,1,0,0.2,0,0,-0.06,90,0,0,0,0,0,0,0,0,0.037,0,0,3,0,0,0,69,0,0,0,0,0,0,,0,NONE,0,0,0,0,0,0,0,0.3266,0,0,0,62.71,0,0,0,0,0,0,0,0,0,270.04,1,0.037,0.304,-0.0102,0.837,0,-0.0102,0,0.3266,5.179,3.083,0.08,0,1,1,0,0,VALID,0,0,0,0,0,1,0,0,0,0,0,0,0,0,0,0,0,0,0,0,327.54,451.66,2,0,0.08,0.08,312,14.29,0.08,0.06,25.36,LANDED,CF1-J,0:/Integrated Flight Computer/aircraft/cf1_j_cfg.ks (inferred preloaded)
25.84,TAKEOFF,TO_ROTATE,76.32,80,3.68,4.13,62.84,-0.02,2.63,2.66,270.34,-0.036,1,0,0,0,0,0,0,0,0,0,0,0,0,0,0,270.04,6.019,1,0,-0.03,0,0,-0.06,90,0,0,0,0,0,0,0,0,0.04,0,0,3,0,0,0,69,0,0,0,0,0,0,,0,NONE,0,0,0,0,0,0,0,0.351,0,0,0,62.84,0,0,0,0,0,0,0,0,0,270.04,1,0.04,0.303,-0.0104,0.852,0,-0.0104,0,0.351,6.019,3.387,0.08,0,1,1,0,0,VALID,0,0,0,0,0,1,0,0,0,0,0,0,0,0,0,0,0,0,0,0,328.89,450.68,2,0,0.08,0.08,316,14.29,0.08,0.06,25.64,LANDED,CF1-J,0:/Integrated Flight Computer/aircraft/cf1_j_cfg.ks (inferred preloaded)
26.12,TAKEOFF,TO_ROTATE,77.77,80,2.23,4.3,63.02,0.18,3.45,3.31,270.34,-0.033,1,0,0,0,0,0,0,0,0,0,0,0,0,0,0,270.04,6.859,1,0,0.15,0,0,-0.06,90,0,0,0,0,0,0,0,0,0.043,0,0,3,0,0,0,69,0,0,0,0,0,0,,0,NONE,0,0,0,0,0,0,0,0.3524,0,0,0,63.02,0,0,0,0,0,0,0,0,0,270.04,1,0.043,0.297,-0.0102,0.868,0,-0.0102,0,0.3524,6.859,3.406,0.08,0,1,1,0,0,VALID,0,0,0,0,0,1,0,0,0,0,0,0,0,0,0,0,0,0,0,0,330.2,449.7,2,0,0.08,0.08,320,14.29,0.08,0.06,25.92,LANDED,CF1-J,0:/Integrated Flight Computer/aircraft/cf1_j_cfg.ks (inferred preloaded)
26.4,TAKEOFF,TO_ROTATE,79.17,80,0.83,4.52,63.24,0.22,4.58,4.44,270.34,-0.04,1,0,0,0,0,0,0,0,0,0,0,0,0,0,0,270.04,7.699,1,0,0.15,0,0,-0.07,90,0,0,0,0,0,0,0,0,0.045,0,0,3,0,0,0,69,0,0,0,0,0,0,,0,NONE,0,0,0,0,0,0,0,0.3295,0,0,0,63.24,0,0,0,0,0,0,0,0,0,270.04,1,0.045,0.294,-0.0103,0.883,0,-0.0103,0,0.3295,7.699,3.118,0.08,0,1,1,0,0,VALID,0,0,0,0,0,1,0,0,0,0,0,0,0,0,0,0,0,0,0,0,331.49,448.75,2,0,0.08,0.08,324,14.29,0.08,0.06,26.2,LANDED,CF1-J,0:/Integrated Flight Computer/aircraft/cf1_j_cfg.ks (inferred preloaded)
26.68,TAKEOFF,TO_ROTATE,80.52,80,-0.52,4.77,63.51,0.26,5.84,5.67,270.34,-0.054,1,0,0,0,0,0,0,0,0,0,0,0,0,0,0,270.05,8.539,1,0,0.18,0,0,-0.07,90,0,0,0,0,0,0,0,0,0.048,0,0,3,0,0,0,69,0,0,0,0,0,0,,0,NONE,0,0,0,0,0,0,0,0.2958,0,0,0,63.51,0,0,0,0,0,0,0,0,0,270.05,1,0.048,0.288,-0.0102,0.897,0,-0.0102,0,0.2958,8.539,2.697,0.08,0,1,1,0,0,VALID,0,0,0,0,0,1,0,0,0,0,0,0,0,0,0,0,0,0,0,0,332.77,447.84,2,0,0.08,0.08,328,14.29,0.08,0.06,26.48,LANDED,CF1-J,0:/Integrated Flight Computer/aircraft/cf1_j_cfg.ks (inferred preloaded)
26.94,TAKEOFF,TO_ROTATE,81.7,80,-1.7,5.05,63.8,0.66,7.06,6.57,270.33,-0.103,1,0,0,0,0,0,0,0,0,0,0,0,0,0,0,270,9.379,0,1,0.46,0,0,9.14,270,0.393,-0.0043,0.9195,9.38,270,0,0,0,0,0,0,3,0,0,0,69,0,0,0,0,0,0,,0,NONE,0,0,0,0,0,0,0,0,0,0,0,63.8,0,0,0,0,0,0,0,0,0,270,1,0,0.325,0,0,3,0,0,0,9.379,2.323,0,0,1,1,0,0,VALID,0,0,0,0,0,1,0,0,0,0,0,0,0,0,0,0,0,0,0,0,333.94,447.03,2,0,0.08,0.08,332,15.38,0.08,0.06,26.76,FLYING,CF1-J,0:/Integrated Flight Computer/aircraft/cf1_j_cfg.ks (inferred preloaded)
27.22,TAKEOFF,TO_ROTATE,82.9,80,-2.9,5.4,64.16,1.52,7.37,6.44,270.31,-0.105,1,0,0,0,0,0,0,0,0,0,0,0,0,0,0,270,10,0,1,1.05,0,0,9.98,270,0.383,-0.0046,0.9237,10,270,0,0,0,0,0,0,3,0,0,0,69,0,0,0,0,0,0,,0,NONE,0,0,0,0,0,0,0,0,0,0,0,64.16,0,0,0,0,0,0,0,0,0,270,1,0,0.306,0,0,3,0,0,0,10,2.629,0,0,1,1,0,0,VALID,0,0,0,0,0,1,0,0,0,0,0,0,0,0,0,0,0,0,0,0,335.21,446.2,2,0,0.08,0.08,336,14.29,0.08,0.06,27.04,FLYING,CF1-J,0:/Integrated Flight Computer/aircraft/cf1_j_cfg.ks (inferred preloaded)
27.5,TAKEOFF,TO_CLIMB,84.08,80,-4.08,5.78,64.55,2.02,6.63,5.36,270.31,-0.113,1,0,0,0,0,0,0,0,0,0,0,0,0,0,0,270,10,0,1,1.38,0,0,10,270,0.3831,-0.0046,0.9237,10,270,0,0,0,0,0,0,3,0,0,0,69,0,0,0,0,0,0,,0,NONE,0,0,0,0,0,0,0,0,0,0,0,64.55,0,0,0,0,0,0,0,0,0,270,1,0,0.306,0,0,3,0,0,0,10,3.371,0,0,1,1,0,0,VALID,0,0,0,0,0,1,0,0,0,0,0,0,0,0,0,0,0,0,0,0,336.43,445.36,2,0,0.08,0.08,340,14.29,0.08,0.06,27.32,FLYING,CF1-J,0:/Integrated Flight Computer/aircraft/cf1_j_cfg.ks (inferred preloaded)
27.78,TAKEOFF,TO_CLIMB,85.32,80,-5.32,6.34,65.13,2.28,6.42,4.94,270.31,-0.125,0.8968,0,0,0,0,0,0,0,0,0,0,0,0,0,0,270,7.077,0,1,1.53,0,0,6.95,270,0.4297,-0.0033,0.903,7.08,270,0,0,0,0,0,0,3,0,0,0,69,0,0,0,0,0,0,,0,NONE,0,0,0,0,0,0,0,0,0,0,0,65.13,0,0,0,0,0,0,0,0,0,270,1,0,0.305,0,0,3,0,0,0,10,3.371,0,0,1,1,0,0,VALID,0,0,0,0,0,1,0,0,0,0,0,0,0,0,0,0,0,0,0,0,337.35,444.48,2,0,0.08,0.08,344,14.29,0.08,0.06,27.6,FLYING,CF1-J,0:/Integrated Flight Computer/aircraft/cf1_j_cfg.ks (inferred preloaded)
28.06,TAKEOFF,TO_CLIMB,86.56,80,-6.56,7.02,65.83,2.74,6.34,4.65,270.3,-0.15,0.8844,0,0,0,0,0,0,0,0,0,0,0,0,0,0,270,7.525,0,1,1.81,0,0,7.4,270,0.4227,-0.0035,0.9063,7.53,270,0,0,0,0,0,0,3,0,0,0,69,0,0,0,0,0,0,,0,NONE,0,0,0,0,0,0,0,0,0,0,0,65.83,0,0,0,0,0,0,0,0,0,270,1,0,0.301,0,0,3,0,0,0,10,3.371,0,0,1,1,0,0,VALID,0,0,0,0,0,1,0,0,0,0,0,0,0,0,0,0,0,0,0,0,337.7,443.6,2,0,0.08,0.08,348,14.29,0.08,0.06,27.88,FLYING,CF1-J,0:/Integrated Flight Computer/aircraft/cf1_j_cfg.ks (inferred preloaded)
28.34,TAKEOFF,TO_CLIMB,87.81,80,-7.81,7.81,66.63,2.97,6.35,4.47,270.3,-0.172,0.8719,0,0,0,0,0,0,0,0,0,0,0,0,0,0,270,7.973,0,1,1.94,0,0,7.85,270,0.4156,-0.0037,0.9095,7.97,270,0,0,0,0,0,0,3,0,0,0,69,0,0,0,0,0,0,,0,NONE,0,0,0,0,0,0,0,0,0,0,0,66.63,0,0,0,0,0,0,0,0,0,270,1,0,0.295,0,0,3,0,0,0,10,3.371,0,0,1,1,0,0,VALID,0,0,0,0,0,1,0,0,0,0,0,0,0,0,0,0,0,0,0,0,337.9,442.7,2,0,0.08,0.08,352,14.29,0.08,0.06,28.16,FLYING,CF1-J,0:/Integrated Flight Computer/aircraft/cf1_j_cfg.ks (inferred preloaded)
28.62,TAKEOFF,TO_CLIMB,89.05,80,-9.05,8.7,67.54,3.46,6.39,4.28,270.29,-0.191,0.8595,0,0,0,0,0,0,0,0,0,0,0,0,0,0,270,8,0,1,2.23,0,0,8,270,0.4152,-0.0037,0.9097,8,270,0,0,0,0,0,0,3,0,0,0,69,0,0,0,0,0,0,,0,NONE,0,0,0,0,0,0,0,0,0,0,0,67.54,0,0,0,0,0,0,0,0,0,270,1,0,0.291,0,0,3,0,0,0,10,3.371,0,0,1,1,0,0,VALID,0,0,0,0,0,1,0,0,0,0,0,0,0,0,0,0,0,0,0,0,338,441.8,2,0,0.08,0.08,356,14.29,0.08,0.06,28.44,FLYING,CF1-J,0:/Integrated Flight Computer/aircraft/cf1_j_cfg.ks (inferred preloaded)
28.9,TAKEOFF,TO_CLIMB,90.28,80,-10.28,9.7,68.56,3.79,6.4,4.09,270.29,-0.207,0.8472,0,0,0,0,0,0,0,0,0,0,0,0,0,0,270,8,0,1,2.41,0,0,8,270,0.4153,-0.0037,0.9097,8,270,0,0,0,0,0,0,3,0,0,0,69,0,0,0,0,0,0,,0,NONE,0,0,0,0,0,0,0,0,0,0,0,68.56,0,0,0,0,0,0,0,0,0,270,1,0,0.286,0,0,3,0,0,0,10,3.371,0,0,1,1,0,0,VALID,0,0,0,0,0,1,0,0,0,0,0,0,0,0,0,0,0,0,0,0,337.98,440.9,2,0,0.08,0.08,360,14.29,0.08,0.06,28.72,FLYING,CF1-J,0:/Integrated Flight Computer/aircraft/cf1_j_cfg.ks (inferred preloaded)
29.18,TAKEOFF,TO_CLIMB,91.51,80,-11.51,10.81,69.69,4.23,6.37,3.84,270.28,-0.222,0.8349,0,0,0,0,0,0,0,0,0,0,0,0,0,0,270,8,0,1,2.65,0,0,8,270,0.4153,-0.0037,0.9097,8,270,0,0,0,0,0,0,3,0,0,0,69,0,0,0,0,0,0,,0,NONE,0,0,0,0,0,0,0,0,0,0,0,69.69,0,0,0,0,0,0,0,0,0,270,1,0,0.281,0,0,3,0,0,0,10,3.371,0,0,1,1,0,0,VALID,0,0,0,0,0,1,0,0,0,0,0,0,0,0,0,0,0,0,0,0,337.86,439.99,2,0,0.08,0.08,364,14.29,0.08,0.06,29,FLYING,CF1-J,0:/Integrated Flight Computer/aircraft/cf1_j_cfg.ks (inferred preloaded)
29.46,TAKEOFF,TO_CLIMB,92.72,80,-12.72,12.03,70.93,4.63,6.41,3.67,270.28,-0.235,0.8228,0,0,0,0,0,0,0,0,0,0,0,0,0,0,270,8,0,1,2.86,0,0,8,270,0.4153,-0.0037,0.9097,8,270,0,0,0,0,0,0,3,0,0,0,69,0,0,0,0,0,0,,0,NONE,0,0,0,0,0,0,0,0,0,0,0,70.93,0,0,0,0,0,0,0,0,0,270,1,0,0.276,0,0,3,0,0,0,10,3.371,0,0,1,1,0,0,VALID,0,0,0,0,0,1,0,0,0,0,0,0,0,0,0,0,0,0,0,0,337.64,439.09,2,0,0.08,0.08,368,14.29,0.08,0.06,29.28,FLYING,CF1-J,0:/Integrated Flight Computer/aircraft/cf1_j_cfg.ks (inferred preloaded)
29.74,TAKEOFF,TO_CLIMB,93.93,80,-13.93,13.37,72.29,5.04,6.4,3.45,270.27,-0.246,0.8107,0,0,0,0,0,0,0,0,0,0,0,0,0,0,270,8,0,1,3.07,0,0,8,270,0.4154,-0.0037,0.9096,8,270,0,0,0,0,0,0,3,0,0,0,69,0,0,0,0,0,0,,0,NONE,0,0,0,0,0,0,0,0,0,0,0,72.29,0,0,0,0,0,0,0,0,0,270,1,0,0.271,0,0,3,0,0,0,10,3.371,0,0,1,1,0,0,VALID,0,0,0,0,0,1,0,0,0,0,0,0,0,0,0,0,0,0,0,0,337.31,438.18,2,0,0.08,0.08,372,14.29,0.08,0.06,29.56,FLYING,CF1-J,0:/Integrated Flight Computer/aircraft/cf1_j_cfg.ks (inferred preloaded)
30.02,TAKEOFF,TO_CLIMB,95.13,80,-15.13,14.82,73.77,5.53,6.41,3.23,270.26,-0.256,0.7987,0,0,0,0,0,0,0,0,0,0,0,0,0,0,270,8,0,1,3.33,0,0,8,270,0.4154,-0.0037,0.9096,8,270,0,0,0,0,0,0,3,0,0,0,69,0,0,0,0,0,0,,0,NONE,0,0,0,0,0,0,0,0,0,0,0,73.77,0,0,0,0,0,0,0,0,0,270,1,0,0.264,0,0,3,0,0,0,10,3.371,0,0,1,1,0,0,VALID,0,0,0,0,0,1,0,0,0,0,0,0,0,0,0,0,0,0,0,0,336.89,437.27,2,0,0.08,0.08,376,14.29,0.08,0.06,29.84,FLYING,CF1-J,0:/Integrated Flight Computer/aircraft/cf1_j_cfg.ks (inferred preloaded)
30.3,TAKEOFF,TO_CLIMB,96.32,80,-16.32,16.39,75.37,5.94,6.27,2.87,270.26,-0.264,0.7868,0,0,0,0,0,0,0,0,0,0,0,0,0,0,270,8,0,1,3.53,0,0,8,270,0.4155,-0.0037,0.9096,8,270,0,0,0,0,0,0,3,0,0,0,69,0,0,0,0,0,0,,0,NONE,0,0,0,0,0,0,0,0,0,0,0,75.37,0,0,0,0,0,0,0,0,0,270,1,0,0.258,0,0,3,0,0,0,10,3.371,0,0,1,1,0,0,VALID,0,0,0,0,0,1,0,0,0,0,0,0,0,0,0,0,0,0,0,0,336.38,436.37,2,0,0.08,0.08,380,14.29,0.08,0.06,30.12,FLYING,CF1-J,0:/Integrated Flight Computer/aircraft/cf1_j_cfg.ks (inferred preloaded)
30.58,TAKEOFF,TO_CLIMB,97.5,80,-17.5,20.29,77.11,6.4,6.36,2.76,270.25,-0.271,0.78,0,0,0,0,0,0,0,0,0,0,0,0,0,0,270,8,0,1,3.76,0,0,8,270,0.4155,-0.0037,0.9096,8,270,0,0,0,0,0,0,3,0,0,0,69,0,0,0,0,0,0,,0,NONE,0,0,0,0,0,0,0,0,0,0,0,77.11,0,0,0,0,0,0,0,0,0,270,1,0,0.249,0,0,3,0,0,0,10,3.371,0,0,1,1,0,0,VALID,0,0,0,0,0,1,0,0,0,0,0,0,0,0,0,0,0,0,0,0,335.78,435.46,2,0,0.08,0.08,384,14.29,0.08,0.06,30.4,FLYING,CF1-J,0:/Integrated Flight Computer/aircraft/cf1_j_cfg.ks (inferred preloaded)
30.86,TAKEOFF,TO_CLIMB,98.67,80,-18.67,30.74,78.95,6.77,6.27,2.48,270.24,-0.275,0.78,0,0,0,0,0,0,0,0,0,0,0,0,0,0,270,8,0,1,3.92,0,0,8,270,0.4155,-0.0037,0.9096,8,270,0,0,0,0,0,0,3,0,0,0,69,0,0,0,0,0,0,,0,NONE,0,0,0,0,0,0,0,0,0,0,0,78.95,0,0,0,0,0,0,0,0,0,270,1,0,0.242,0,0,3,0,0,0,10,3.371,0,0,1,1,0,0,VALID,0,0,0,0,0,1,0,0,0,0,0,0,0,0,0,0,0,0,0,0,335.15,434.55,2,0,0.08,0.08,388,14.29,0.08,0.06,30.68,FLYING,CF1-J,0:/Integrated Flight Computer/aircraft/cf1_j_cfg.ks (inferred preloaded)
31.14,TAKEOFF,TO_CLIMB,99.84,80,-19.84,46.29,80.92,7.25,6.33,2.35,270.23,-0.277,0.78,0,0,0,0,0,0,0,0,0,0,0,0,0,0,270,8,0,1,4.15,0,0,8,270,0.4156,-0.0037,0.9095,8,270,0,0,0,0,0,0,3,0,0,0,69,0,0,0,0,0,0,,0,NONE,0,0,0,0,0,0,0,0,0,0,0,80.92,0,0,0,0,0,0,0,0,0,270,1,0,0.234,0,0,3,0,0,0,10,3.371,0,0,1,1,0,0,VALID,0,0,0,0,0,1,0,0,0,0,0,0,0,0,0,0,0,0,0,0,334.51,433.65,2,0,0.08,0.08,392,14.29,0.08,0.06,30.96,FLYING,CF1-J,0:/Integrated Flight Computer/aircraft/cf1_j_cfg.ks (inferred preloaded)
31.42,TAKEOFF,TO_CLIMB,100.99,80,-20.99,62.09,82.98,7.51,6.2,2.07,270.23,-0.279,0.78,0,0,0,0,0,0,0,0,0,0,0,0,0,0,270,8,0,1,4.25,0,0,8,270,0.4156,-0.0037,0.9095,8,270,0,0,0,0,0,0,3,0,0,0,69,0,0,0,0,0,0,,0,NONE,0,0,0,0,0,0,0,0,0,0,0,82.98,0,0,0,0,0,0,0,0,0,270,1,0,0.226,0,0,3,0,0,0,10,3.371,0,0,1,1,0,0,VALID,0,0,0,0,0,1,0,0,0,0,0,0,0,0,0,0,0,0,0,0,333.87,432.74,2,0,0.08,0.08,396,14.29,0.08,0.06,31.24,FLYING,CF1-J,0:/Integrated Flight Computer/aircraft/cf1_j_cfg.ks (inferred preloaded)
31.7,TAKEOFF,TO_CLIMB,102.15,80,-22.15,78.02,85.17,7.93,6.38,2.12,270.22,-0.281,0.78,0,0,0,0,0,0,0,0,0,0,0,0,0,0,270,8,0,1,4.44,0,0,8,270,0.4157,-0.0037,0.9095,8,270,0,0,0,0,0,0,3,0,0,0,69,0,0,0,0,0,0,,0,NONE,0,0,0,0,0,0,0,0,0,0,0,85.17,0,0,0,0,0,0,0,0,0,270,1,0,0.218,0,0,3,0,0,0,10,3.371,0,0,1,1,0,0,VALID,0,0,0,0,0,1,0,0,0,0,0,0,0,0,0,0,0,0,0,0,333.23,431.83,2,0,0.08,0.08,400,14.29,0.08,0.06,31.52,FLYING,CF1-J,0:/Integrated Flight Computer/aircraft/cf1_j_cfg.ks (inferred preloaded)
31.98,TAKEOFF,TO_CLIMB,103.29,80,-23.29,83.95,87.43,8.21,6.42,2.03,270.21,-0.282,0.78,0,0,0,0,0,0,0,0,0,0,0,0,0,0,270,8,0,1,4.54,0,0,8,270,0.4157,-0.0037,0.9095,8,270,0,0,0,0,0,0,3,0,0,0,69,0,0,0,0,0,0,,0,NONE,0,0,0,0,0,0,0,0,0,0,0,87.43,0,0,0,0,0,0,0,0,0,270,1,0,0.212,0,0,3,0,0,0,10,3.371,0,0,1,1,0,0,VALID,0,0,0,0,0,1,0,0,0,0,0,0,0,0,0,0,0,0,0,0,332.59,430.92,2,0,0.08,0.08,404,14.29,0.08,0.06,31.8,FLYING,CF1-J,0:/Integrated Flight Computer/aircraft/cf1_j_cfg.ks (inferred preloaded)
32.26,TAKEOFF,TO_CLIMB,104.43,80,-24.43,89.68,89.79,8.6,6.42,1.88,270.21,-0.282,0.78,0,0,0,0,0,0,0,0,0,0,0,0,0,0,270,8,0,1,4.71,0,0,8,270,0.4158,-0.0037,0.9095,8,270,0,0,0,0,0,0,3,0,0,0,69,0,0,0,0,0,0,,0,NONE,0,0,0,0,0,0,0,0,0,0,0,89.79,0,0,0,0,0,0,0,0,0,270,1,0,0.205,0,0,3,0,0,0,10,3.371,0,0,1,1,0,0,VALID,0,0,0,0,0,1,0,0,0,0,0,0,0,0,0,0,0,0,0,0,331.95,430.01,2,0,0.08,0.08,408,14.29,0.08,0.06,32.08,FLYING,CF1-J,0:/Integrated Flight Computer/aircraft/cf1_j_cfg.ks (inferred preloaded)
32.54,TAKEOFF,TO_CLIMB,105.56,80,-25.56,95.14,92.26,8.96,6.43,1.75,270.2,-0.283,0.78,0,0,0,0,0,0,0,0,0,0,0,0,0,0,270,8,0,1,4.85,0,0,8,270,0.4158,-0.0037,0.9094,8,270,0,0,0,0,0,0,3,0,0,0,69,0,0,0,0,0,0,,0,NONE,0,0,0,0,0,0,0,0,0,0,0,92.26,0,0,0,0,0,0,0,0,0,270,1,0,0.199,0,0,3,0,0,0,10,3.371,0,0,1,1,0,0,VALID,0,0,0,0,0,1,0,0,0,0,0,0,0,0,0,0,0,0,0,0,331.31,429.11,2,0,0.08,0.08,412,14.29,0.08,0.06,32.36,FLYING,CF1-J,0:/Integrated Flight Computer/aircraft/cf1_j_cfg.ks (inferred preloaded)
32.82,TAKEOFF,TO_CLIMB,106.68,80,-26.68,100.9,94.82,9.32,6.43,1.61,270.19,-0.283,0.78,0,0,0,0,0,0,0,0,0,0,0,0,0,0,270,8,0,1,4.99,0,0,8,270,0.4159,-0.0037,0.9094,8,270,0,0,0,0,0,0,3,0,0,0,69,0,0,0,0,0,0,,0,NONE,0,0,0,0,0,0,0,0,0,0,0,94.82,0,0,0,0,0,0,0,0,0,270,1,0,0.192,0,0,3,0,0,0,10,3.371,0,0,1,1,0,0,VALID,0,0,0,0,0,1,0,0,0,0,0,0,0,0,0,0,0,0,0,0,330.67,428.21,2,0,0.08,0.08,416,14.29,0.08,0.06,32.64,FLYING,CF1-J,0:/Integrated Flight Computer/aircraft/cf1_j_cfg.ks (inferred preloaded)
33.1,TAKEOFF,TO_CLIMB,107.79,80,-27.79,107.31,97.48,9.66,6.42,1.47,270.19,-0.283,0.78,0,0,0,0,0,0,0,0,0,0,0,0,0,0,270,8,0,1,5.12,0,0,8,270,0.4159,-0.0037,0.9094,8,270,0,0,0,0,0,0,3,0,0,0,69,0,0,0,0,0,0,,0,NONE,0,0,0,0,0,0,0,0,0,0,0,97.48,0,0,0,0,0,0,0,0,0,270,1,0,0.186,0,0,3,0,0,0,10,3.371,0,0,1,1,0,0,VALID,0,0,0,0,0,1,0,0,0,0,0,0,0,0,0,0,0,0,0,0,330.03,427.31,2,0,0.08,0.08,420,14.29,0.08,0.06,32.92,FLYING,CF1-J,0:/Integrated Flight Computer/aircraft/cf1_j_cfg.ks (inferred preloaded)
33.38,TAKEOFF,TO_CLIMB,108.89,80,-28.89,113.82,100.24,10.02,6.41,1.33,270.18,-0.283,0.78,0,0,0,0,0,0,0,0,0,0,0,0,0,0,270,8,0,1,5.26,0,0,8,270,0.416,-0.0037,0.9094,8,270,0,0,0,0,0,0,3,0,0,0,69,0,0,0,0,0,0,,0,NONE,0,0,0,0,0,0,0,0,0,0,0,100.24,0,0,0,0,0,0,0,0,0,270,1,0,0.18,0,0,3,0,0,0,10,3.371,0,0,1,1,0,0,VALID,0,0,0,0,0,1,0,0,0,0,0,0,0,0,0,0,0,0,0,0,329.4,426.41,2,0,0.08,0.08,424,14.29,0.08,0.06,33.2,FLYING,CF1-J,0:/Integrated Flight Computer/aircraft/cf1_j_cfg.ks (inferred preloaded)
33.66,TAKEOFF,TO_CLIMB,109.98,80,-29.98,120.33,103.09,10.35,6.41,1.2,270.17,-0.28,0.78,0,0,0,0,0,0,0,0,0,0,0,0,0,0,270,8,0,1,5.38,0,0,8,270,0.416,-0.0037,0.9094,8,270,0,0,0,0,0,0,3,0,0,0,69,0,0,0,0,0,0,,0,NONE,0,0,0,0,0,0,0,0,0,0,0,103.09,0,0,0,0,0,0,0,0,0,270,1,0,0.173,0,0,3,0,0,0,10,3.371,0,0,1,1,0,0,VALID,0,0,0,0,0,1,0,0,0,0,0,0,0,0,0,0,0,0,0,0,328.76,425.51,2,0,0.08,0.08,428,14.29,0.08,0.06,33.48,FLYING,CF1-J,0:/Integrated Flight Computer/aircraft/cf1_j_cfg.ks (inferred preloaded)
33.94,TAKEOFF,TO_CLIMB,111.06,80,-31.06,127.41,106.04,10.69,6.41,1.09,270.17,-0.277,0.78,0,0,0,0,0,0,0,0,0,0,0,0,0,0,270,8,0,1,5.5,0,0,8,270,0.4161,-0.0037,0.9093,8,270,0,0,0,0,0,0,3,0,0,0,69,0,0,0,0,0,0,,0,NONE,0,0,0,0,0,0,0,0,0,0,0,106.04,0,0,0,0,0,0,0,0,0,270,1,0,0.166,0,0,3,0,0,0,10,3.371,0,0,1,1,0,0,VALID,0,0,0,0,0,1,0,0,0,0,0,0,0,0,0,0,0,0,0,0,328.12,424.62,2,0,0.08,0.08,432,14.29,0.08,0.06,33.76,FLYING,CF1-J,0:/Integrated Flight Computer/aircraft/cf1_j_cfg.ks (inferred preloaded)
34.22,TAKEOFF,TO_CLIMB,112.14,80,-32.14,137.68,109.09,11.02,6.42,0.98,270.16,-0.275,0.78,0,0,0,0,0,0,0,0,0,0,0,0,0,0,270,8,0,1,5.61,0,0,8,270,0.4161,-0.0037,0.9093,8,270,0,0,0,0,0,0,3,0,0,0,69,0,0,0,0,0,0,,0,NONE,0,0,0,0,0,0,0,0,0,0,0,109.09,0,0,0,0,0,0,0,0,0,270,1,0,0.161,0,0,3,0,0,0,10,3.371,0,0,1,1,0,0,VALID,0,0,0,0,0,1,0,0,0,0,0,0,0,0,0,0,0,0,0,0,327.49,423.73,2,0,0.08,0.08,436,14.29,0.08,0.06,34.04,FLYING,CF1-J,0:/Integrated Flight Computer/aircraft/cf1_j_cfg.ks (inferred preloaded)
34.5,TAKEOFF,TO_CLIMB,113.2,80,-33.2,143.75,112.22,11.35,6.43,0.89,270.15,-0.275,0.78,0,0,0,0,0,0,0,0,0,0,0,0,0,0,270,8,0,1,5.72,0,0,8,270,0.4162,-0.0037,0.9093,8,270,0,0,0,0,0,0,3,0,0,0,69,0,0,0,0,0,0,,0,NONE,0,0,0,0,0,0,0,0,0,0,0,112.22,0,0,0,0,0,0,0,0,0,270,1,0,0.149,0,0,3,0,0,0,10,3.371,0,0,1,1,0,0,VALID,0,0,0,0,0,1,0,0,0,0,0,0,0,0,0,0,0,0,0,0,326.86,422.85,2,0,0.08,0.08,440,14.29,0.08,0.06,34.32,FLYING,CF1-J,0:/Integrated Flight Computer/aircraft/cf1_j_cfg.ks (inferred preloaded)
34.78,TAKEOFF,TO_CLIMB,114.26,80,-34.26,153.42,115.45,11.68,6.45,0.8,270.15,-0.272,0.78,0,0,0,0,0,0,0,0,0,0,0,0,0,0,270,8,0,1,5.84,0,0,8,270,0.4162,-0.0037,0.9093,8,270,0,0,0,0,0,0,3,0,0,0,69,0,0,0,0,0,0,,0,NONE,0,0,0,0,0,0,0,0,0,0,0,115.45,0,0,0,0,0,0,0,0,0,270,1,0,0.152,0,0,3,0,0,0,10,3.371,0,0,1,1,0,0,VALID,0,0,0,0,0,1,0,0,0,0,0,0,0,0,0,0,0,0,0,0,326.22,421.97,2,0,0.08,0.08,444,14.29,0.08,0.06,34.6,FLYING,CF1-J,0:/Integrated Flight Computer/aircraft/cf1_j_cfg.ks (inferred preloaded)
35.06,TAKEOFF,TO_CLIMB,115.31,80,-35.31,159.21,118.78,12.02,6.47,0.7,270.14,-0.272,0.78,0,0,0,0,0,0,0,0,0,0,0,0,0,0,270,8,0,1,5.95,0,0,8,270,0.4163,-0.0037,0.9092,8,270,0,0,0,0,0,0,3,0,0,0,69,0,0,0,0,0,0,,0,NONE,0,0,0,0,0,0,0,0,0,0,0,118.78,0,0,0,0,0,0,0,0,0,270,1,0,0.142,0,0,3,0,0,0,10,3.371,0,0,1,1,0,0,VALID,0,0,0,0,0,1,0,0,0,0,0,0,0,0,0,0,0,0,0,0,325.59,421.09,2,0,0.08,0.08,448,14.29,0.08,0.06,34.88,FLYING,CF1-J,0:/Integrated Flight Computer/aircraft/cf1_j_cfg.ks (inferred preloaded)
35.34,TAKEOFF,TO_CLIMB,116.35,80,-36.35,164.29,122.19,12.35,6.48,0.61,270.14,-0.27,0.78,0,0,0,0,0,0,0,0,0,0,0,0,0,0,270,8,0,1,6.06,0,0,8,270,0.4163,-0.0037,0.9092,8,270,0,0,0,0,0,0,3,0,0,0,69,0,0,0,0,0,0,,0,NONE,0,0,0,0,0,0,0,0,0,0,0,122.19,0,0,0,0,0,0,0,0,0,270,1,0,0.136,0,0,3,0,0,0,10,3.371,0,0,1,1,0,0,VALID,0,0,0,0,0,1,0,0,0,0,0,0,0,0,0,0,0,0,0,0,324.97,420.21,2,0,0.08,0.08,452,14.29,0.08,0.06,35.16,FLYING,CF1-J,0:/Integrated Flight Computer/aircraft/cf1_j_cfg.ks (inferred preloaded)
35.62,TAKEOFF,TO_CLIMB,117.38,80,-37.38,175.97,125.7,12.68,6.49,0.51,270.13,-0.268,0.78,0,0,0,0,0,0,0,0,0,0,0,0,0,0,270,8,0,1,6.16,0,0,8,270,0.4164,-0.0037,0.9092,8,270,0,0,0,0,0,0,3,0,0,0,69,0,0,0,0,0,0,,0,NONE,0,0,0,0,0,0,0,0,0,0,0,125.7,0,0,0,0,0,0,0,0,0,270,1,0,0.13,0,0,3,0,0,0,10,3.371,0,0,1,1,0,0,VALID,0,0,0,0,0,1,0,0,0,0,0,0,0,0,0,0,0,0,0,0,324.34,419.34,2,0,0.08,0.08,456,14.29,0.08,0.06,35.44,FLYING,CF1-J,0:/Integrated Flight Computer/aircraft/cf1_j_cfg.ks (inferred preloaded)
35.9,TAKEOFF,TO_CLIMB,118.4,80,-38.4,191.14,129.3,13,6.5,0.42,270.12,-0.267,0.78,0,0,0,0,0,0,0,0,0,0,0,0,0,0,270,8,0,1,6.26,0,0,8,270,0.4164,-0.0037,0.9092,8,270,0,0,0,0,0,0,3,0,0,0,69,0,0,0,0,0,0,,0,NONE,0,0,0,0,0,0,0,0,0,0,0,129.3,0,0,0,0,0,0,0,0,0,270,1,0,0.124,0,0,3,0,0,0,10,3.371,0,0,1,1,0,0,VALID,0,0,0,0,0,1,0,0,0,0,0,0,0,0,0,0,0,0,0,0,323.72,418.48,2,0,0.08,0.08,460,14.29,0.08,0.06,35.72,FLYING,CF1-J,0:/Integrated Flight Computer/aircraft/cf1_j_cfg.ks (inferred preloaded)
36.18,TAKEOFF,TO_CLIMB,119.41,80,-39.41,205.04,132.99,13.31,6.51,0.34,270.12,-0.263,0.78,0,0,0,0,0,0,0,0,0,0,0,0,0,0,270,8,0,1,6.36,0,0,8,270,0.4165,-0.0037,0.9091,8,270,0,0,0,0,0,0,3,0,0,0,69,0,0,0,0,0,0,,0,NONE,0,0,0,0,0,0,0,0,0,0,0,132.99,0,0,0,0,0,0,0,0,0,270,1,0,0.118,0,0,3,0,0,0,10,3.371,0,0,1,1,0,0,VALID,0,0,0,0,0,1,0,0,0,0,0,0,0,0,0,0,0,0,0,0,323.09,417.61,2,0,0.08,0.08,464,14.29,0.08,0.06,36,FLYING,CF1-J,0:/Integrated Flight Computer/aircraft/cf1_j_cfg.ks (inferred preloaded)
36.46,TAKEOFF,TO_CLIMB,120.41,80,-40.41,211.05,136.76,13.63,6.53,0.25,270.11,-0.259,0.78,0,0,0,0,0,0,0,0,0,0,0,0,0,0,270,8,0,1,6.46,0,0,8,270,0.4165,-0.0037,0.9091,8,270,0,0,0,0,0,0,3,0,0,0,69,0,0,0,0,0,0,,0,NONE,0,0,0,0,0,0,0,0,0,0,0,136.76,0,0,0,0,0,0,0,0,0,270,1,0,0.113,0,0,3,0,0,0,10,3.371,0,0,1,1,0,0,VALID,0,0,0,0,0,1,0,0,0,0,0,0,0,0,0,0,0,0,0,0,322.48,416.76,2,0,0.08,0.08,468,14.29,0.08,0.06,36.28,FLYING,CF1-J,0:/Integrated Flight Computer/aircraft/cf1_j_cfg.ks (inferred preloaded)
36.74,TAKEOFF,TO_CLIMB,121.4,80,-41.4,214.92,140.63,13.94,6.53,0.17,270.11,-0.253,0.78,0,0,0,0,0,0,0,0,0,0,0,0,0,0,270,8,0,1,6.55,0,0,8,270,0.4166,-0.0037,0.9091,8,270,0,0,0,0,0,0,3,0,0,0,69,0,0,0,0,0,0,,0,NONE,0,0,0,0,0,0,0,0,0,0,0,140.63,0,0,0,0,0,0,0,0,0,270,1,0,0.108,0,0,3,0,0,0,10,3.371,0,0,1,1,0,0,VALID,0,0,0,0,0,1,0,0,0,0,0,0,0,0,0,0,0,0,0,0,321.86,415.9,2,0,0.08,0.08,472,14.29,0.08,0.06,36.56,FLYING,CF1-J,0:/Integrated Flight Computer/aircraft/cf1_j_cfg.ks (inferred preloaded)
