t_s,phase,subphase,ias_ms,vapp_ms,spd_err_ms,agl_m,vs_ms,pitch_deg,aoa_deg,hdg_deg,bank_deg,thr_cmd,thr_cur,thr_intg,at_gain,at_tau_s,at_a_up,at_a_dn,at_kp_thr,at_ki_spd,at_thr_slew,as_cmd_deg,as_cap_deg,as_raw_deg,as_spd_err_ms,as_active,aa_hdg_cmd_deg,aa_fpa_cmd_deg,aa_fbw,aa_dir,actual_fpa_deg,ftf_hdg_err_deg,ftf_fix_idx,kos_steer_pit_deg,kos_steer_hdg_deg,aa_dir_vx,aa_dir_vy,aa_dir_vz,aa_dir_pitch_deg,aa_dir_hdg_deg,ils_loc_m,ils_gs_m,ils_dist_km,loc_corr_deg,gs_corr_deg,gs_latched,active_gs_ang_deg,ils_intercept_alt_m,d_gs_ms,fpa_preclamped_deg,gs_nom_alt_m,flare_fpa_cmd,flare_tgt_vs,flare_frac,steer_hdg_deg,steer_blend,ro_loc_corr_deg,ro_hdg_err_deg,ro_yaw_tgt,ro_yaw_scale,ro_yaw_gate,yaw_cmd,roll_cmd,pitch_cmd,ro_pitch_tgt_deg,ro_pitch_err_deg,ro_pitch_ff,ro_roll_assist,flaps_cur,flaps_tgt,asc_j_ab,asc_j_rk,asc_validity,asc_q_pa,asc_q_raw_pa,asc_mach,asc_apo_m,asc_drag_n,asc_w_prop,asc_edot_aero,asc_edot_orb,asc_pitch_bias,asc_blend,asc_spooling,asc_ab_thr_ratio,asc_ab_t_now,asc_ab_t_avail,asc_ab_ign_on,asc_ab_flameouts,asc_rk_t_now,asc_rk_t_avail,asc_rk_ign_on,asc_rk_flameouts,ship_thrust,ship_avail_thrust,ship_ign_on,ship_flameouts,ifc_raw_dt_s,ifc_dt_s,ifc_loop_n,ifc_hz_est,ifc_raw_dt_max_s,ifc_raw_dt_min_s,phase_el_s,status,craft_name,cfg_file
0.2,APPROACH,ILS_TRACK,69.89,70,0.11,1312.44,0.11,6.97,6.89,270.3,-0.103,0,0,0,0,0,0,0,0,0,0,0,0,0,0,0,0,0,1,0,0.09,0,0,0,90,0,0,0,0,0,-4.44,-124.82,26.007,0,0,0,3,1312.44,0,0,1437.26,0,0,0,270.3,0,0,0,0,0,0,0,0,0,0,0,0,0,0,0,0,0,VALID,0,0,0,0,0,1,0,0,0,0,0,0,0,0,0,0,0,0,0,0,105.9,386.13,2,0,0.18,0.18,1,3.7,0.18,0.02,0.2,FLYING,CF1-J,0:/Integrated Flight Computer/aircraft/cf1_j_cfg.ks (inferred preloaded)
0.56,APPROACH,ILS_TRACK,69.86,70,0.14,1312.48,0.11,7,6.92,270.3,-0.011,0.0271,0,0.043,1,0.6,1.383,0.75,0.35,0.0168,0.4,0,55,0,-0.139,0,270.07,0,0,1,0.09,0,0,0,270.07,-0.8546,0.0013,0.5193,0,270.07,-4.31,-123.48,25.982,0.073,0,0,3,1312.44,4.219,0,1435.96,0,0,0,270.3,0,0,0,0,0,0,0,0,0,0,0,0,0,1,2,0,0,VALID,0,0,0,0,0,1,0,0,0,0,0,0,0,0,0,0,0,0,0,0,97.57,386.14,2,0,0.12,0.12,4,8.33,0.18,0.1,0.56,FLYING,CF1-J,0:/Integrated Flight Computer/aircraft/cf1_j_cfg.ks (inferred preloaded)
0.92,APPROACH,ILS_TRACK,69.76,70,0.24,1312.52,0.14,6.96,6.86,270.31,-0.003,0.075,0,0.114,1,0.6,2.46,0.75,0.35,0.0168,0.4,0,55,0,-0.236,0,270.06,0,0,1,0.11,0,0,0,270.06,-0.8546,0.0011,0.5194,0,270.06,-4.16,-121.97,25.954,0.065,0,0,3,1312.44,4.183,0,1434.49,0,0,0,270.3,0,0,0,0,0,0,0,0,0,0,0,0,0,2,2,0,0,VALID,0,0,0,0,0,1,0,0,0,0,0,0,0,0,0,0,0,0,0,0,90.47,386.21,2,0,0.12,0.12,7,8.33,0.12,0.12,0.92,FLYING,CF1-J,0:/Integrated Flight Computer/aircraft/cf1_j_cfg.ks (inferred preloaded)
1.22,APPROACH,ILS_TRACK,69.62,70,0.38,1312.56,0.16,6.9,6.79,270.3,-0.021,0.1358,0,0.211,1,0.6,3.299,0.75,0.35,0.0168,0.4,0,55,0,-0.369,0,270.06,-0.001,0,1,0.13,0,0,0,270.05,-0.8545,0.0011,0.5194,0,270.06,-4.03,-120.71,25.931,0.061,0,0,3,1312.44,4.189,-0.001,1433.27,0,0,0,270.3,0,0,0,0,0,0,0,0,0,0,0,0,0,2,2,0,0,VALID,0,0,0,0,0,1,0,0,0,0,0,0,0,0,0,0,0,0,0,0,86.43,386.29,2,0,0.08,0.08,10,10,0.12,0.08,1.22,FLYING,CF1-J,0:/Integrated Flight Computer/aircraft/cf1_j_cfg.ks (inferred preloaded)
1.58,APPROACH,ILS_TRACK,69.41,70,0.59,1312.61,0.17,6.84,6.72,270.3,-0.039,0.1997,0,0.392,1,0.6,3.953,0.75,0.35,0.0168,0.4,0,55,0,-0.574,0,270.05,-0.001,0,1,0.14,0,0,0,270.05,-0.8545,0.0009,0.5194,0,270.05,-3.89,-119.2,25.903,0.053,0,0,3,1312.44,4.198,-0.001,1431.8,0,0,0,270.3,0,0,0,0,0,0,0,0,0,0,0,0,0,2,2,0,0,VALID,0,0,0,0,0,1,0,0,0,0,0,0,0,0,0,0,0,0,0,0,84.13,386.42,2,0,0.12,0.12,13,8.33,0.12,0.08,1.58,FLYING,CF1-J,0:/Integrated Flight Computer/aircraft/cf1_j_cfg.ks (inferred preloaded)
1.92,APPROACH,ILS_TRACK,69.19,70,0.81,1312.66,0.18,6.79,6.65,270.29,-0.054,0.2596,0,0.638,1,0.6,4.462,0.75,0.35,0.0168,0.4,0,55,0,-0.8,0,270.04,-0.001,0,1,0.15,0,0,0,270.06,-0.8545,0.0007,0.5195,0,270.04,-3.75,-117.77,25.877,0.042,0,0,3,1312.44,4.198,-0.001,1430.43,0,0,0,270.3,0,0,0,0,0,0,0,0,0,0,0,0,0,2,2,0,0,VALID,0,0,0,0,0,1,0,0,0,0,0,0,0,0,0,0,0,0,0,0,83.94,386.56,2,0,0.1,0.1,16,8.82,0.12,0.1,1.92,FLYING,CF1-J,0:/Integrated Flight Computer/aircraft/cf1_j_cfg.ks (inferred preloaded)
2.2,APPROACH,ILS_TRACK,68.98,70,1.02,1312.7,0.19,6.74,6.6,270.29,-0.064,0.3082,0,0.899,1,0.6,4.5,0.75,0.35,0.0168,0.4,0,55,0,-1.003,0,270.04,-0.001,0,1,0.16,0,0,0,270.05,-0.8545,0.0007,0.5195,0,270.04,-3.64,-116.6,25.855,0.043,0,0,3,1312.44,4.197,-0.001,1429.3,0,0,0,270.3,0,0,0,0,0,0,0,0,0,0,0,0,0,2,2,0,0,VALID,0,0,0,0,0,1,0,0,0,0,0,0,0,0,0,0,0,0,0,0,84.32,386.68,2,0,0.08,0.08,19,10.71,0.1,0.08,2.2,FLYING,CF1-J,0:/Integrated Flight Computer/aircraft/cf1_j_cfg.ks (inferred preloaded)
2.5,APPROACH,ILS_TRACK,68.75,70,1.25,1312.77,0.2,6.77,6.63,270.28,-0.073,0.3537,0,1.246,1,0.6,4.5,0.75,0.35,0.0168,0.4,0,55,0,-1.234,0,270.04,-0.002,0,1,0.15,0,0,0,270.04,-0.8544,0.0008,0.5195,0,270.04,-3.52,-115.33,25.832,0.044,0,0,3,1312.44,4.249,-0.002,1428.09,0,0,0,270.3,0,0,0,0,0,0,0,0,0,0,0,0,0,2,2,0,0,VALID,0,0,0,0,0,1,0,0,0,0,0,0,0,0,0,0,0,0,0,0,85.05,386.82,2,0,0.08,0.08,22,10,0.12,0.08,2.5,FLYING,CF1-J,0:/Integrated Flight Computer/aircraft/cf1_j_cfg.ks (inferred preloaded)
2.8,APPROACH,ILS_TRACK,68.5,70,1.5,1312.83,0.24,6.78,6.6,270.28,-0.081,0.3989,0,1.666,1,0.6,4.5,0.75,0.35,0.0168,0.4,0,55,0,-1.48,0,270.04,-0.002,0,1,0.19,0,0,0,270.05,-0.8544,0.0006,0.5196,0,270.04,-3.4,-114.07,25.809,0.036,0,0,3,1312.44,4.212,-0.002,1426.89,0,0,0,270.3,0,0,0,0,0,0,0,0,0,0,0,0,0,2,2,0,0,VALID,0,0,0,0,0,1,0,0,0,0,0,0,0,0,0,0,0,0,0,0,86.08,386.97,2,0,0.08,0.08,25,10,0.12,0.08,2.8,FLYING,CF1-J,0:/Integrated Flight Computer/aircraft/cf1_j_cfg.ks (inferred preloaded)
3.1,APPROACH,ILS_TRACK,68.24,70,1.76,1312.8,0.25,6.17,5.93,270.27,-0.089,0.4426,0,2.162,1,0.6,4.5,0.75,0.35,0.0168,0.4,0,55,0,-1.74,0,270.03,-0.002,0,1,0.23,0,0,0,270.04,-0.8544,0.0005,0.5196,0,270.03,-3.29,-112.88,25.786,0.028,0,0,3,1312.44,3.864,-0.002,1425.69,0,0,0,270.3,0,0,0,0,0,0,0,0,0,0,0,0,0,2,2,0,0,VALID,0,0,0,0,0,1,0,0,0,0,0,0,0,0,0,0,0,0,0,0,87.42,387.13,2,0,0.08,0.08,28,10,0.12,0.08,3.1,FLYING,CF1-J,0:/Integrated Flight Computer/aircraft/cf1_j_cfg.ks (inferred preloaded)
3.4,APPROACH,ILS_TRACK,68.01,70,1.99,1312.81,0.02,5.88,5.86,270.27,-0.093,0.4648,0,2.733,1,0.6,4.5,0.75,0.35,0.0168,0.4,0,55,0,-1.978,0,270.04,-0.002,0,1,0.05,0,0,0,270.03,-0.8544,0.0007,0.5196,0,270.04,-3.18,-111.69,25.763,0.038,0,0,3,1312.44,4.042,-0.002,1424.5,0,0,0,270.3,0,0,0,0,0,0,0,0,0,0,0,0,0,2,2,0,0,VALID,0,0,0,0,0,1,0,0,0,0,0,0,0,0,0,0,0,0,0,0,88.99,387.28,2,0,0.08,0.08,31,10,0.12,0.08,3.4,FLYING,CF1-J,0:/Integrated Flight Computer/aircraft/cf1_j_cfg.ks (inferred preloaded)
3.7,APPROACH,ILS_TRACK,67.76,70,2.24,1312.89,-0.06,6.45,6.53,270.26,-0.094,0.4978,0,3.375,1,0.6,4.5,0.75,0.35,0.0168,0.4,0,55,0,-2.224,0,270.04,-0.002,0,1,-0.06,0,0,0,270.03,-0.8544,0.0007,0.5197,0,270.04,-3.07,-110.42,25.741,0.041,0,0,3,1312.44,4.239,-0.002,1423.31,0,0,0,270.3,0,0,0,0,0,0,0,0,0,0,0,0,0,2,2,0,0,VALID,0,0,0,0,0,1,0,0,0,0,0,0,0,0,0,0,0,0,0,0,90.7,387.43,2,0,0.08,0.08,34,10,0.12,0.08,3.7,FLYING,CF1-J,0:/Integrated Flight Computer/aircraft/cf1_j_cfg.ks (inferred preloaded)
4,APPROACH,ILS_TRACK,67.48,70,2.52,1312.9,0.03,6.55,6.52,270.26,-0.096,0.5467,0,4.097,1,0.6,4.5,0.75,0.35,0.0168,0.4,0,55,0,-2.499,0,270.03,-0.002,0,1,0.03,0,0,0,270.03,-0.8543,0.0006,0.5197,0,270.03,-2.96,-109.22,25.718,0.033,0,0,3,1312.44,3.91,-0.002,1422.12,0,0,0,270.3,0,0,0,0,0,0,0,0,0,0,0,0,0,2,2,0,0,VALID,0,0,0,0,0,1,0,0,0,0,0,0,0,0,0,0,0,0,0,0,92.65,387.6,2,0,0.08,0.08,37,10,0.12,0.08,4,FLYING,CF1-J,0:/Integrated Flight Computer/aircraft/cf1_j_cfg.ks (inferred preloaded)
4.3,APPROACH,ILS_TRACK,67.22,70,2.78,1312.91,0,6.6,6.6,270.25,-0.097,0.5785,0,4.9,1,0.6,4.5,0.75,0.35,0.0168,0.4,0,55,0,-2.76,0,270.02,-0.002,0,1,0,0,0,0,270.02,-0.8543,0.0004,0.5197,0,270.02,-2.85,-108.03,25.696,0.023,0,0,3,1312.44,3.983,-0.002,1420.94,0,0,0,270.3,0,0,0,0,0,0,0,0,0,0,0,0,0,2,2,0,0,VALID,0,0,0,0,0,1,0,0,0,0,0,0,0,0,0,0,0,0,0,0,94.88,387.77,2,0,0.08,0.08,40,10,0.12,0.08,4.3,FLYING,CF1-J,0:/Integrated Flight Computer/aircraft/cf1_j_cfg.ks (inferred preloaded)
4.6,APPROACH,ILS_TRACK,66.98,70,3.02,1312.93,0,6.68,6.69,270.25,-0.098,0.6021,0,5.778,1,0.6,4.5,0.75,0.35,0.0168,0.4,0,55,0,-3.006,0,270.03,-0.002,0,1,0,0,0,0,270.02,-0.8543,0.0005,0.5198,0,270.03,-2.74,-106.84,25.673,0.026,0,0,3,1312.44,3.959,-0.002,1419.77,0,0,0,270.3,0,0,0,0,0,0,0,0,0,0,0,0,0,2,2,0,0,VALID,0,0,0,0,0,1,0,0,0,0,0,0,0,0,0,0,0,0,0,0,97.28,387.92,2,0,0.08,0.08,43,10,0.12,0.08,4.6,FLYING,CF1-J,0:/Integrated Flight Computer/aircraft/cf1_j_cfg.ks (inferred preloaded)
4.9,APPROACH,ILS_TRACK,66.75,70,3.25,1312.94,-0.01,6.77,6.78,270.24,-0.098,0.6224,0,6.727,1,0.6,4.5,0.75,0.35,0.0168,0.4,0,55,0,-3.239,0,270.02,-0.002,0,1,-0.01,0,0,0,270.02,-0.8543,0.0004,0.5198,0,270.02,-2.64,-105.66,25.651,0.025,0,0,3,1312.44,3.94,-0.002,1418.59,0,0,0,270.3,0,0,0,0,0,0,0,0,0,0,0,0,0,2,2,0,0,VALID,0,0,0,0,0,1,0,0,0,0,0,0,0,0,0,0,0,0,0,0,99.79,388.06,2,0,0.08,0.08,46,10,0.12,0.08,4.9,FLYING,CF1-J,0:/Integrated Flight Computer/aircraft/cf1_j_cfg.ks (inferred preloaded)
5.2,APPROACH,ILS_TRACK,66.53,70,3.47,1312.95,-0.01,6.85,6.87,270.24,-0.099,0.6407,0,7.743,1,0.6,4.5,0.75,0.35,0.0168,0.4,0,55,0,-3.458,0,270.02,-0.003,0,1,-0.01,0,0,0,270.02,-0.8543,0.0003,0.5198,0,270.02,-2.54,-104.48,25.629,0.02,0,0,3,1312.44,3.92,-0.003,1417.43,0,0,0,270.3,0,0,0,0,0,0,0,0,0,0,0,0,0,2,2,0,0,VALID,0,0,0,0,0,1,0,0,0,0,0,0,0,0,0,0,0,0,0,0,102.39,388.2,2,0,0.08,0.08,49,10,0.12,0.08,5.2,FLYING,CF1-J,0:/Integrated Flight Computer/aircraft/cf1_j_cfg.ks (inferred preloaded)
5.5,APPROACH,ILS_TRACK,66.32,70,3.68,1312.96,-0.02,6.93,6.95,270.23,-0.1,0.6579,0,8.822,1,0.6,4.5,0.75,0.35,0.0168,0.4,0,55,0,-3.663,0,270.02,-0.003,0,1,-0.02,0,0,0,270.02,-0.8542,0.0003,0.5199,0,270.02,-2.44,-103.31,25.606,0.018,0,0,3,1312.44,3.9,-0.003,1416.26,0,0,0,270.3,0,0,0,0,0,0,0,0,0,0,0,0,0,2,2,0,0,VALID,0,0,0,0,0,1,0,0,0,0,0,0,0,0,0,0,0,0,0,0,105.07,388.33,2,0,0.08,0.08,52,10,0.12,0.08,5.5,FLYING,CF1-J,0:/Integrated Flight Computer/aircraft/cf1_j_cfg.ks (inferred preloaded)
5.8,APPROACH,ILS_TRACK,66.13,70,3.87,1312.96,-0.02,7,7.02,270.23,-0.099,0.6742,0,9.96,1,0.6,4.5,0.75,0.35,0.0168,0.4,0,55,0,-3.853,0,270,-0.003,0,1,-0.02,0,0,0,270.02,-0.8542,0,0.5199,0,270,-2.35,-102.14,25.584,0.002,0,0,3,1312.44,3.884,-0.003,1415.1,0,0,0,270.3,0,0,0,0,0,0,0,0,0,0,0,0,0,2,2,0,0,VALID,0,0,0,0,0,1,0,0,0,0,0,0,0,0,0,0,0,0,0,0,107.83,388.44,2,0,0.08,0.08,55,10,0.12,0.08,5.8,FLYING,CF1-J,0:/Integrated Flight Computer/aircraft/cf1_j_cfg.ks (inferred preloaded)
6.1,APPROACH,ILS_TRACK,65.96,70,4.04,1312.97,-0.02,7.07,7.09,270.23,-0.099,0.6898,0,11.151,1,0.6,4.5,0.75,0.35,0.0168,0.4,0,55,0,-4.028,0,270.02,-0.003,0,1,-0.02,0,0,0,270.01,-0.8542,0.0003,0.5199,0,270.02,-2.26,-100.98,25.562,0.016,0,0,3,1312.44,3.867,-0.003,1413.94,0,0,0,270.3,0,0,0,0,0,0,0,0,0,0,0,0,0,2,2,0,0,VALID,0,0,0,0,0,1,0,0,0,0,0,0,0,0,0,0,0,0,0,0,110.64,388.55,2,0,0.08,0.08,58,10,0.12,0.08,6.1,FLYING,CF1-J,0:/Integrated Flight Computer/aircraft/cf1_j_cfg.ks (inferred preloaded)
6.4,APPROACH,ILS_TRACK,65.8,70,4.2,1312.97,-0.02,7.13,7.15,270.22,-0.099,0.7048,0,12.392,1,0.6,4.5,0.75,0.35,0.0168,0.4,0,55,0,-4.189,0,270,-0.003,0,1,-0.02,0,0,0,270.02,-0.8542,0,0.52,0,270,-2.16,-99.82,25.54,0.002,0,0,3,1312.44,3.854,-0.003,1412.79,0,0,0,270.3,0,0,0,0,0,0,0,0,0,0,0,0,0,2,2,0,0,VALID,0,0,0,0,0,1,0,0,0,0,0,0,0,0,0,0,0,0,0,0,113.51,388.65,2,0,0.08,0.08,61,10,0.12,0.08,6.4,FLYING,CF1-J,0:/Integrated Flight Computer/aircraft/cf1_j_cfg.ks (inferred preloaded)
6.7,APPROACH,ILS_TRACK,65.66,70,4.34,1312.97,-0.02,7.18,7.2,270.22,-0.099,0.719,0,13.678,1,0.6,4.5,0.75,0.35,0.0168,0.4,0,55,0,-4.334,0,270.01,-0.003,0,1,-0.02,0,0,0,270.01,-0.8542,0.0002,0.52,0,270.01,-2.08,-98.67,25.518,0.009,0,0,3,1312.44,3.841,-0.003,1411.63,0,0,0,270.3,0,0,0,0,0,0,0,0,0,0,0,0,0,2,2,0,0,VALID,0,0,0,0,0,1,0,0,0,0,0,0,0,0,0,0,0,0,0,0,116.43,388.74,2,0,0.08,0.08,64,10,0.12,0.08,6.7,FLYING,CF1-J,0:/Integrated Flight Computer/aircraft/cf1_j_cfg.ks (inferred preloaded)
7,APPROACH,ILS_TRACK,65.53,70,4.47,1312.97,-0.02,7.22,7.25,270.21,-0.099,0.7324,0,15.005,1,0.6,4.5,0.75,0.35,0.0168,0.4,0,55,0,-4.463,0,270,-0.003,0,1,-0.02,0,0,0,270.01,-0.8541,0.0001,0.52,0,270,-1.99,-97.52,25.496,0.004,0,0,3,1312.44,3.831,-0.003,1410.48,0,0,0,270.3,0,0,0,0,0,0,0,0,0,0,0,0,0,2,2,0,0,VALID,0,0,0,0,0,1,0,0,0,0,0,0,0,0,0,0,0,0,0,0,119.4,388.82,2,0,0.08,0.08,67,10,0.12,0.08,7,FLYING,CF1-J,0:/Integrated Flight Computer/aircraft/cf1_j_cfg.ks (inferred preloaded)
7.3,APPROACH,ILS_TRACK,65.42,70,4.58,1312.97,-0.02,7.26,7.28,270.21,-0.097,0.7451,0,16.367,1,0.6,4.5,0.75,0.35,0.0168,0.4,0,55,0,-4.576,0,270.01,-0.003,0,1,-0.02,0,0,0,270.01,-0.8541,0.0002,0.5201,0,270.01,-1.91,-96.37,25.474,0.01,0,0,3,1312.44,3.821,-0.003,1409.34,0,0,0,270.3,0,0,0,0,0,0,0,0,0,0,0,0,0,2,2,0,0,VALID,0,0,0,0,0,1,0,0,0,0,0,0,0,0,0,0,0,0,0,0,122.4,388.89,2,0,0.08,0.08,70,10,0.12,0.08,7.3,FLYING,CF1-J,0:/Integrated Flight Computer/aircraft/cf1_j_cfg.ks (inferred preloaded)
7.6,APPROACH,ILS_TRACK,65.32,70,4.68,1312.96,-0.02,7.29,7.31,270.2,-0.095,0.7569,0,17.76,1,0.6,4.5,0.75,0.35,0.0168,0.4,0,55,0,-4.674,0,270,-0.003,0,1,-0.02,0,0,0,270.01,-0.8541,0,0.5201,0,270,-1.82,-95.22,25.452,-0.002,0,0,3,1312.44,3.811,-0.003,1408.19,0,0,0,270.3,0,0,0,0,0,0,0,0,0,0,0,0,0,2,2,0,0,VALID,0,0,0,0,0,1,0,0,0,0,0,0,0,0,0,0,0,0,0,0,125.43,388.95,2,0,0.08,0.08,73,10,0.12,0.08,7.6,FLYING,CF1-J,0:/Integrated Flight Computer/aircraft/cf1_j_cfg.ks (inferred preloaded)
7.9,APPROACH,ILS_TRACK,65.24,70,4.76,1312.96,-0.02,7.31,7.33,270.2,-0.094,0.7678,0,19.179,1,0.6,4.5,0.75,0.35,0.0168,0.4,0,55,0,-4.755,0,269.99,-0.003,0,1,-0.02,0,0,0,270.01,-0.8541,-0.0001,0.5201,0,269.99,-1.74,-94.08,25.43,-0.006,0,0,3,1312.44,3.805,-0.003,1407.04,0,0,0,270.3,0,0,0,0,0,0,0,0,0,0,0,0,0,2,2,0,0,VALID,0,0,0,0,0,1,0,0,0,0,0,0,0,0,0,0,0,0,0,0,128.49,389,2,0,0.08,0.08,76,10,0.12,0.08,7.9,FLYING,CF1-J,0:/Integrated Flight Computer/aircraft/cf1_j_cfg.ks (inferred preloaded)
8.2,APPROACH,ILS_TRACK,65.18,70,4.82,1312.96,-0.02,7.33,7.34,270.19,-0.093,0.7672,0,20,1,0.6,4.5,0.75,0.35,0.0168,0.4,0,55,0,-4.82,0,270.02,-0.003,0,1,-0.02,0,0,0,269.99,-0.8541,0.0003,0.5202,0,270.02,-1.67,-92.94,25.409,0.018,0,0,3,1312.44,3.8,-0.003,1405.9,0,0,0,270.3,0,0,0,0,0,0,0,0,0,0,0,0,0,2,2,0,0,VALID,0,0,0,0,0,1,0,0,0,0,0,0,0,0,0,0,0,0,0,0,131.56,389.04,2,0,0.08,0.08,79,10,0.12,0.08,8.2,FLYING,CF1-J,0:/Integrated Flight Computer/aircraft/cf1_j_cfg.ks (inferred preloaded)
8.5,APPROACH,ILS_TRACK,65.13,70,4.87,1312.96,-0.01,7.34,7.35,270.19,-0.09,0.7517,0,20,1,0.6,4.5,0.75,0.35,0.0168,0.4,0,55,0,-4.869,0,269.99,-0.003,0,1,-0.01,0,0,0,270,-0.854,-0.0001,0.5202,0,269.99,-1.58,-91.8,25.387,-0.008,0,0,3,1312.44,3.798,-0.003,1404.76,0,0,0,270.3,0,0,0,0,0,0,0,0,0,0,0,0,0,2,2,0,0,VALID,0,0,0,0,0,1,0,0,0,0,0,0,0,0,0,0,0,0,0,0,134.53,389.07,2,0,0.08,0.08,82,10,0.12,0.08,8.5,FLYING,CF1-J,0:/Integrated Flight Computer/aircraft/cf1_j_cfg.ks (inferred preloaded)
8.8,APPROACH,ILS_TRACK,65.1,70,4.9,1312.95,-0.01,7.34,7.35,270.18,-0.088,0.7355,0,20,1,0.6,4.5,0.75,0.35,0.0168,0.4,0,55,0,-4.902,0,270.01,-0.003,0,1,-0.01,0,0,0,269.99,-0.854,0.0003,0.5202,0,270.01,-1.51,-90.66,25.365,0.015,0,0,3,1312.44,3.796,-0.003,1403.61,0,0,0,270.3,0,0,0,0,0,0,0,0,0,0,0,0,0,2,2,0,0,VALID,0,0,0,0,0,1,0,0,0,0,0,0,0,0,0,0,0,0,0,0,137.33,389.09,2,0,0.08,0.08,85,10,0.12,0.08,8.8,FLYING,CF1-J,0:/Integrated Flight Computer/aircraft/cf1_j_cfg.ks (inferred preloaded)
9.1,APPROACH,ILS_TRACK,65.08,70,4.92,1312.95,-0.01,7.34,7.34,270.18,-0.086,0.7189,0,20,1,0.6,4.5,0.75,0.35,0.0168,0.4,0,55,0,-4.92,0,269.99,-0.003,0,1,-0.01,0,0,0,270,-0.854,-0.0001,0.5203,0,269.99,-1.43,-89.52,25.343,-0.009,0,0,3,1312.44,3.795,-0.003,1402.47,0,0,0,270.3,0,0,0,0,0,0,0,0,0,0,0,0,0,2,2,0,0,VALID,0,0,0,0,0,1,0,0,0,0,0,0,0,0,0,0,0,0,0,0,139.96,389.1,2,0,0.08,0.08,88,10,0.12,0.08,9.1,FLYING,CF1-J,0:/Integrated Flight Computer/aircraft/cf1_j_cfg.ks (inferred preloaded)
9.4,APPROACH,ILS_TRACK,65.08,70,4.92,1312.94,0,7.33,7.33,270.18,-0.084,0.7022,0,20,1,0.6,4.5,0.75,0.35,0.0168,0.4,0,55,0,-4.925,0,270.01,-0.003,0,1,0,0,0,0,269.99,-0.854,0.0001,0.5203,0,270.01,-1.37,-88.38,25.321,0.007,0,0,3,1312.44,3.796,-0.003,1401.33,0,0,0,270.3,0,0,0,0,0,0,0,0,0,0,0,0,0,2,2,0,0,VALID,0,0,0,0,0,1,0,0,0,0,0,0,0,0,0,0,0,0,0,0,142.43,389.1,2,0,0.08,0.08,91,10,0.12,0.08,9.4,FLYING,CF1-J,0:/Integrated Flight Computer/aircraft/cf1_j_cfg.ks (inferred preloaded)
9.7,APPROACH,ILS_TRACK,65.09,70,4.91,1312.94,0,7.32,7.31,270.17,-0.082,0.6855,0,20,1,0.6,4.5,0.75,0.35,0.0168,0.4,0,55,0,-4.916,0,270,-0.003,0,1,0,0,0,0,270,-0.854,-0.0001,0.5203,0,270,-1.29,-87.25,25.3,-0.003,0,0,3,1312.44,3.799,-0.003,1400.19,0,0,0,270.3,0,0,0,0,0,0,0,0,0,0,0,0,0,2,2,0,0,VALID,0,0,0,0,0,1,0,0,0,0,0,0,0,0,0,0,0,0,0,0,144.74,389.09,2,0,0.08,0.08,94,10,0.12,0.08,9.7,FLYING,CF1-J,0:/Integrated Flight Computer/aircraft/cf1_j_cfg.ks (inferred preloaded)
10,APPROACH,ILS_TRACK,65.11,70,4.89,1312.94,0.01,7.3,7.29,270.17,-0.081,0.669,0,20,1,0.6,4.5,0.75,0.35,0.0168,0.4,0,55,0,-4.895,0,269.98,-0.003,0,1,0,0,0,0,270,-0.854,-0.0003,0.5203,0,269.98,-1.22,-86.11,25.278,-0.017,0,0,3,1312.44,3.803,-0.003,1399.05,0,0,0,270.3,0,0,0,0,0,0,0,0,0,0,0,0,0,2,2,0,0,VALID,0,0,0,0,0,1,0,0,0,0,0,0,0,0,0,0,0,0,0,0,146.89,389.08,2,0,0.08,0.08,97,10,0.12,0.08,10,FLYING,CF1-J,0:/Integrated Flight Computer/aircraft/cf1_j_cfg.ks (inferred preloaded)
10.3,APPROACH,ILS_TRACK,65.14,70,4.86,1312.94,0.01,7.27,7.27,270.16,-0.08,0.6528,0,20,1,0.6,4.5,0.75,0.35,0.0168,0.4,0,55,0,-4.863,0,270,-0.003,0,1,0.01,0,0,0,269.99,-0.8539,0,0.5204,0,270,-1.16,-84.96,25.256,-0.003,0,0,3,1312.44,3.807,-0.003,1397.9,0,0,0,270.3,0,0,0,0,0,0,0,0,0,0,0,0,0,2,2,0,0,VALID,0,0,0,0,0,1,0,0,0,0,0,0,0,0,0,0,0,0,0,0,148.88,389.06,2,0,0.08,0.08,100,10,0.12,0.08,10.3,FLYING,CF1-J,0:/Integrated Flight Computer/aircraft/cf1_j_cfg.ks (inferred preloaded)
10.6,APPROACH,ILS_TRACK,65.18,70,4.82,1312.94,0.02,7.25,7.24,270.16,-0.078,0.6367,0,20,1,0.6,4.5,0.75,0.35,0.0168,0.4,0,55,0,-4.821,0,270,-0.003,0,1,0.01,0,0,0,270,-0.8539,-0.0001,0.5204,0,270,-1.09,-83.82,25.234,-0.003,0,0,3,1312.44,3.813,-0.003,1396.76,0,0,0,270.3,0,0,0,0,0,0,0,0,0,0,0,0,0,2,2,0,0,VALID,0,0,0,0,0,1,0,0,0,0,0,0,0,0,0,0,0,0,0,0,150.72,389.03,2,0,0.08,0.08,103,10,0.12,0.08,10.6,FLYING,CF1-J,0:/Integrated Flight Computer/aircraft/cf1_j_cfg.ks (inferred preloaded)
10.9,APPROACH,ILS_TRACK,65.23,70,4.77,1312.94,0.02,7.22,7.2,270.16,-0.076,0.621,0,20,1,0.6,4.5,0.75,0.35,0.0168,0.4,0,55,0,-4.769,0,269.99,-0.003,0,1,0.02,0,0,0,269.99,-0.8539,-0.0001,0.5204,0,269.99,-1.03,-82.68,25.212,-0.006,0,0,3,1312.44,3.818,-0.003,1395.61,0,0,0,270.3,0,0,0,0,0,0,0,0,0,0,0,0,0,2,2,0,0,VALID,0,0,0,0,0,1,0,0,0,0,0,0,0,0,0,0,0,0,0,0,152.41,389,2,0,0.08,0.08,106,10,0.12,0.08,10.9,FLYING,CF1-J,0:/Integrated Flight Computer/aircraft/cf1_j_cfg.ks (inferred preloaded)
11.2,APPROACH,ILS_TRACK,65.3,70,4.7,1312.94,0.02,7.19,7.17,270.15,-0.076,0.6056,0,20,1,0.6,4.5,0.75,0.35,0.0168,0.4,0,55,0,-4.709,0,269.99,-0.003,0,1,0.02,0,0,0,269.99,-0.8539,-0.0002,0.5205,0,269.99,-0.96,-81.53,25.191,-0.01,0,0,3,1312.44,3.827,-0.003,1394.47,0,0,0,270.3,0,0,0,0,0,0,0,0,0,0,0,0,0,2,2,0,0,VALID,0,0,0,0,0,1,0,0,0,0,0,0,0,0,0,0,0,0,0,0,153.96,388.96,2,0,0.08,0.08,109,10,0.12,0.08,11.2,FLYING,CF1-J,0:/Integrated Flight Computer/aircraft/cf1_j_cfg.ks (inferred preloaded)
11.5,APPROACH,ILS_TRACK,65.36,70,4.64,1312.94,0.03,7.15,7.13,270.15,-0.074,0.5906,0,20,1,0.6,4.5,0.75,0.35,0.0168,0.4,0,55,0,-4.64,0,269.99,-0.003,0,1,0.03,0,0,0,269.98,-0.8539,-0.0001,0.5205,0,269.99,-0.9,-80.38,25.169,-0.009,0,0,3,1312.44,3.834,-0.003,1393.32,0,0,0,270.3,0,0,0,0,0,0,0,0,0,0,0,0,0,2,2,0,0,VALID,0,0,0,0,0,1,0,0,0,0,0,0,0,0,0,0,0,0,0,0,155.38,388.92,2,0,0.08,0.08,112,10,0.12,0.08,11.5,FLYING,CF1-J,0:/Integrated Flight Computer/aircraft/cf1_j_cfg.ks (inferred preloaded)
11.8,APPROACH,ILS_TRACK,65.44,70,4.56,1312.95,0.04,7.12,7.09,270.14,-0.073,0.576,0,20,1,0.6,4.5,0.75,0.35,0.0168,0.4,0,55,0,-4.564,0,269.98,0,0,1,0.03,0,0,0,269.99,-0.8539,-0.0004,0.5205,0,269.98,-0.84,-79.23,25.147,-0.021,20.692,1,3,1312.44,3.845,0,1392.17,0,0,0,270.3,0,0,0,0,0,0,0,0,0,0,0,0,0,2,2,0,0,VALID,0,0,0,0,0,1,0,0,0,0,0,0,0,0,0,0,0,0,0,0,156.66,388.87,2,0,0.08,0.08,115,10,0.12,0.08,11.8,FLYING,CF1-J,0:/Integrated Flight Computer/aircraft/cf1_j_cfg.ks (inferred preloaded)
12.1,APPROACH,ILS_TRACK,65.52,70,4.48,1312.95,0.05,7.08,7.05,270.14,-0.073,0.5618,0,20,1,0.6,4.5,0.75,0.35,0.0168,0.4,0,55,0,-4.482,0,269.99,0,0,1,0.04,0,0,0,269.98,-0.8538,-0.0002,0.5205,0,269.99,-0.78,-78.07,25.125,-0.011,20.341,1,3,1312.44,3.851,0,1391.02,0,0,0,270.3,0,0,0,0,0,0,0,0,0,0,0,0,0,2,2,0,0,VALID,0,0,0,0,0,1,0,0,0,0,0,0,0,0,0,0,0,0,0,0,157.82,388.82,2,0,0.08,0.08,118,10,0.12,0.08,12.1,FLYING,CF1-J,0:/Integrated Flight Computer/aircraft/cf1_j_cfg.ks (inferred preloaded)
12.4,APPROACH,ILS_TRACK,65.61,70,4.39,1312.96,0.05,7.03,6.99,270.14,-0.071,0.5483,0,20,1,0.6,4.5,0.75,0.35,0.0168,0.4,0,55,0,-4.394,0,270,0,0,1,0.04,0,0,0,269.98,-0.8538,0,0.5206,0,270,-0.73,-76.91,25.103,-0.002,19.984,1,3,1312.44,3.863,0,1389.87,0,0,0,270.3,0,0,0,0,0,0,0,0,0,0,0,0,0,2,2,0,0,VALID,0,0,0,0,0,1,0,0,0,0,0,0,0,0,0,0,0,0,0,0,158.85,388.76,2,0,0.08,0.08,121,10,0.12,0.08,12.4,FLYING,CF1-J,0:/Integrated Flight Computer/aircraft/cf1_j_cfg.ks (inferred preloaded)
12.7,APPROACH,ILS_TRACK,65.71,70,4.29,1312.97,0.06,6.99,6.94,270.13,-0.07,0.5348,0,20,1,0.6,4.5,0.75,0.35,0.0168,0.4,0,55,0,-4.3,0,269.98,0,0,1,0.05,0,0,0,269.98,-0.8538,-0.0004,0.5206,0,269.98,-0.67,-75.75,25.081,-0.023,19.623,1,3,1312.44,3.878,0,1388.72,0,0,0,270.3,0,0,0,0,0,0,0,0,0,0,0,0,0,2,2,0,0,VALID,0,0,0,0,0,1,0,0,0,0,0,0,0,0,0,0,0,0,0,0,159.78,388.7,2,0,0.08,0.08,124,10,0.12,0.08,12.7,FLYING,CF1-J,0:/Integrated Flight Computer/aircraft/cf1_j_cfg.ks (inferred preloaded)
13,APPROACH,ILS_TRACK,65.8,70,4.2,1312.98,0.06,6.94,6.89,270.13,-0.069,0.5217,0,20,1,0.6,4.5,0.75,0.35,0.0168,0.4,0,55,0,-4.202,0,269.98,0,0,1,0.05,0,0,0,269.98,-0.8538,-0.0003,0.5206,0,269.98,-0.61,-74.59,25.059,-0.016,19.265,1,3,1312.44,3.889,0,1387.57,0,0,0,270.3,0,0,0,0,0,0,0,0,0,0,0,0,0,2,2,0,0,VALID,0,0,0,0,0,1,0,0,0,0,0,0,0,0,0,0,0,0,0,0,160.59,388.64,2,0,0.08,0.08,127,10,0.12,0.08,13,FLYING,CF1-J,0:/Integrated Flight Computer/aircraft/cf1_j_cfg.ks (inferred preloaded)
13.3,APPROACH,ILS_TRACK,65.91,70,4.09,1312.99,0.07,6.9,6.84,270.13,-0.068,0.5092,0,20,1,0.6,4.5,0.75,0.35,0.0168,0.4,0,55,0,-4.1,0,269.97,0,0,1,0.06,0,0,0,269.98,-0.8538,-0.0005,0.5207,0,269.97,-0.56,-73.42,25.037,-0.03,18.904,1,3,1312.44,3.902,0,1386.41,0,0,0,270.3,0,0,0,0,0,0,0,0,0,0,0,0,0,2,2,0,0,VALID,0,0,0,0,0,1,0,0,0,0,0,0,0,0,0,0,0,0,0,0,161.29,388.58,2,0,0.08,0.08,130,10,0.12,0.08,13.3,FLYING,CF1-J,0:/Integrated Flight Computer/aircraft/cf1_j_cfg.ks (inferred preloaded)
13.6,APPROACH,ILS_TRACK,66.01,70,3.99,1313.01,0.12,6.86,6.77,270.12,-0.067,0.498,0,20,1,0.6,4.5,0.75,0.35,0.0168,0.4,0,55,0,-3.996,0,269.97,0,0,1,0.08,0,0,0,269.98,-0.8538,-0.0005,0.5207,0,269.97,-0.5,-72.24,25.015,-0.028,18.528,1,3,1312.44,3.932,0,1385.25,0,0,0,270.3,0,0,0,0,0,0,0,0,0,0,0,0,0,2,2,0,0,VALID,0,0,0,0,0,1,0,0,0,0,0,0,0,0,0,0,0,0,0,0,161.89,388.51,2,0,0.08,0.08,133,10,0.12,0.08,13.6,FLYING,CF1-J,0:/Integrated Flight Computer/aircraft/cf1_j_cfg.ks (inferred preloaded)
13.9,APPROACH,ILS_TRACK,66.1,70,3.9,1313.03,0.18,6.64,6.49,270.12,-0.067,0.4962,0,20,1,0.6,4.5,0.75,0.35,0.0168,0.4,0,55,0,-3.903,0,269.98,0,0,1,0.16,0,0,0,269.97,-0.8537,-0.0004,0.5207,0,269.98,-0.45,-71.07,24.993,-0.023,18.171,1,3,1312.44,3.938,0,1384.09,0,0,0,270.3,0,0,0,0,0,0,0,0,0,0,0,0,0,2,2,0,0,VALID,0,0,0,0,0,1,0,0,0,0,0,0,0,0,0,0,0,0,0,0,162.43,388.45,2,0,0.08,0.08,136,10,0.12,0.08,13.9,FLYING,CF1-J,0:/Integrated Flight Computer/aircraft/cf1_j_cfg.ks (inferred preloaded)
14.2,APPROACH,ILS_TRACK,66.2,70,3.8,1313.09,0.23,6.7,6.53,270.12,-0.068,0.4867,0,20,1,0.6,4.5,0.75,0.35,0.0168,0.4,0,55,0,-3.802,0,269.98,0,0,1,0.18,0,0,0,269.98,-0.8537,-0.0004,0.5207,0,269.98,-0.41,-69.84,24.97,-0.024,17.667,1,3,1312.44,4.108,0,1382.93,0,0,0,270.3,0,0,0,0,0,0,0,0,0,0,0,0,0,2,2,0,0,VALID,0,0,0,0,0,1,0,0,0,0,0,0,0,0,0,0,0,0,0,0,162.93,388.38,2,0,0.08,0.08,139,10,0.12,0.08,14.2,FLYING,CF1-J,0:/Integrated Flight Computer/aircraft/cf1_j_cfg.ks (inferred preloaded)
14.5,APPROACH,ILS_TRACK,66.3,70,3.7,1313.14,0.29,6.49,6.25,270.11,-0.068,0.48,0,20,1,0.6,4.5,0.75,0.35,0.0168,0.4,0,55,0,-3.704,0,269.97,0,0,1,0.25,0,0,0,269.98,-0.8537,-0.0005,0.5208,0,269.97,-0.36,-68.64,24.948,-0.029,17.356,1,3,1312.44,4.043,0,1381.77,0,0,0,270.3,0,0,0,0,0,0,0,0,0,0,0,0,0,2,2,0,0,VALID,0,0,0,0,0,1,0,0,0,0,0,0,0,0,0,0,0,0,0,0,163.36,388.32,2,0,0.08,0.08,142,10,0.12,0.08,14.5,FLYING,CF1-J,0:/Integrated Flight Computer/aircraft/cf1_j_cfg.ks (inferred preloaded)
14.8,APPROACH,ILS_TRACK,66.42,70,3.58,1313.2,0.28,6.35,6.13,270.11,-0.069,0.4643,0,20,1,0.6,4.5,0.75,0.35,0.0168,0.4,0,55,0,-3.593,0,269.99,0,0,1,0.24,0,0,0,269.97,-0.8537,-0.0002,0.5208,0,269.99,-0.31,-67.41,24.926,-0.014,16.935,1,3,1312.44,4.109,0,1380.6,0,0,0,270.3,0,0,0,0,0,0,0,0,0,0,0,0,0,2,2,0,0,VALID,0,0,0,0,0,1,0,0,0,0,0,0,0,0,0,0,0,0,0,0,163.71,388.24,2,0,0.08,0.08,145,10,0.12,0.08,14.8,FLYING,CF1-J,0:/Integrated Flight Computer/aircraft/cf1_j_cfg.ks (inferred preloaded)
15.1,APPROACH,ILS_TRACK,66.53,70,3.47,1313.28,0.27,6.28,6.07,270.11,-0.069,0.4495,0,20,1,0.6,4.5,0.75,0.35,0.0168,0.4,0,55,0,-3.475,0,269.97,0,0,1,0.24,0,0,0,269.97,-0.8537,-0.0005,0.5208,0,269.97,-0.26,-66.17,24.904,-0.03,16.54,1,3,1312.44,4.138,0,1379.44,0,0,0,270.3,0,0,0,0,0,0,0,0,0,0,0,0,0,2,2,0,0,VALID,0,0,0,0,0,1,0,0,0,0,0,0,0,0,0,0,0,0,0,0,163.95,388.17,2,0,0.08,0.08,148,10,0.12,0.08,15.1,FLYING,CF1-J,0:/Integrated Flight Computer/aircraft/cf1_j_cfg.ks (inferred preloaded)
15.4,APPROACH,ILS_TRACK,66.66,70,3.34,1313.35,0.16,6.26,6.15,270.1,-0.068,0.4313,0,20,1,0.6,4.5,0.75,0.35,0.0168,0.4,0,55,0,-3.35,0,269.96,0,0,1,0.15,0,0,0,269.98,-0.8536,-0.0007,0.5209,0,269.96,-0.22,-64.93,24.881,-0.041,16.164,1,3,1312.44,4.145,0,1378.27,0,0,0,270.3,0,0,0,0,0,0,0,0,0,0,0,0,0,2,2,0,0,VALID,0,0,0,0,0,1,0,0,0,0,0,0,0,0,0,0,0,0,0,0,164.07,388.08,2,0,0.08,0.08,151,10,0.12,0.08,15.4,FLYING,CF1-J,0:/Integrated Flight Computer/aircraft/cf1_j_cfg.ks (inferred preloaded)
15.7,APPROACH,ILS_TRACK,66.79,70,3.21,1313.43,0.15,6.48,6.39,270.1,-0.068,0.4173,0,20,1,0.6,4.5,0.75,0.35,0.0168,0.4,0,55,0,-3.221,0,269.96,0,0,1,0.12,0,0,0,269.97,-0.8536,-0.0006,0.5209,0,269.96,-0.17,-63.68,24.859,-0.035,15.775,1,3,1312.44,4.161,0,1377.1,0,0,0,270.3,0,0,0,0,0,0,0,0,0,0,0,0,0,2,2,0,0,VALID,0,0,0,0,0,1,0,0,0,0,0,0,0,0,0,0,0,0,0,0,164.06,388,2,0,0.08,0.08,154,10,0.12,0.08,15.7,FLYING,CF1-J,0:/Integrated Flight Computer/aircraft/cf1_j_cfg.ks (inferred preloaded)
16,APPROACH,ILS_TRACK,66.9,70,3.1,1313.48,0.17,6.52,6.39,270.1,-0.067,0.413,0,20,1,0.6,4.5,0.75,0.35,0.0168,0.4,0,55,0,-3.103,0,269.97,0,0,1,0.14,0,0,0,269.98,-0.8536,-0.0006,0.5209,0,269.97,-0.13,-62.45,24.837,-0.033,15.475,1,3,1312.44,4.076,0,1375.92,0,0,0,270.3,0,0,0,0,0,0,0,0,0,0,0,0,0,2,2,0,0,VALID,0,0,0,0,0,1,0,0,0,0,0,0,0,0,0,0,0,0,0,0,163.83,387.93,2,0,0.08,0.08,157,10,0.12,0.08,16,FLYING,CF1-J,0:/Integrated Flight Computer/aircraft/cf1_j_cfg.ks (inferred preloaded)
16.3,APPROACH,ILS_TRACK,67.02,70,2.98,1313.52,0.18,6.47,6.33,270.09,-0.066,0.4087,0,20,1,0.6,4.5,0.75,0.35,0.0168,0.4,0,55,0,-2.989,0,269.96,0,0,1,0.15,0,0,0,269.98,-0.8536,-0.0007,0.521,0,269.96,-0.09,-61.23,24.814,-0.042,15.116,1,3,1312.44,4.067,0,1374.75,0,0,0,270.3,0,0,0,0,0,0,0,0,0,0,0,0,0,2,2,0,0,VALID,0,0,0,0,0,1,0,0,0,0,0,0,0,0,0,0,0,0,0,0,163.5,387.85,2,0,0.08,0.08,160,10,0.12,0.08,16.3,FLYING,CF1-J,0:/Integrated Flight Computer/aircraft/cf1_j_cfg.ks (inferred preloaded)
16.6,APPROACH,ILS_TRACK,67.13,70,2.87,1313.57,0.18,6.42,6.28,270.09,-0.065,0.4037,0,20,1,0.6,4.5,0.75,0.35,0.0168,0.4,0,55,0,-2.877,0,269.96,0,0,1,0.15,0,0,0,269.97,-0.8536,-0.0006,0.521,0,269.96,-0.05,-60.01,24.792,-0.037,14.737,1,3,1312.44,4.083,0,1373.57,0,0,0,270.3,0,0,0,0,0,0,0,0,0,0,0,0,0,2,2,0,0,VALID,0,0,0,0,0,1,0,0,0,0,0,0,0,0,0,0,0,0,0,0,163.07,387.78,2,0,0.08,0.08,163,10,0.12,0.08,16.6,FLYING,CF1-J,0:/Integrated Flight Computer/aircraft/cf1_j_cfg.ks (inferred preloaded)
16.9,APPROACH,ILS_TRACK,67.24,70,2.76,1313.61,0.17,6.39,6.26,270.09,-0.064,0.3988,0,20,1,0.6,4.5,0.75,0.35,0.0168,0.4,0,55,0,-2.767,0,269.97,0,0,1,0.15,0,0,0,269.98,-0.8535,-0.0006,0.521,0,269.97,-0.01,-58.78,24.769,-0.033,14.356,1,3,1312.44,4.099,0,1372.39,0,0,0,270.3,0,0,0,0,0,0,0,0,0,0,0,0,0,2,2,0,0,VALID,0,0,0,0,0,1,0,0,0,0,0,0,0,0,0,0,0,0,0,0,162.53,387.71,2,0,0.08,0.08,166,10,0.12,0.08,16.9,FLYING,CF1-J,0:/Integrated Flight Computer/aircraft/cf1_j_cfg.ks (inferred preloaded)
17.2,APPROACH,ILS_TRACK,67.35,70,2.65,1313.67,0.17,6.38,6.24,270.08,-0.063,0.395,0,20,1,0.6,4.5,0.75,0.35,0.0168,0.4,0,55,0,-2.661,0,269.98,0,0,1,0.15,0,0,0,269.96,-0.8535,-0.0004,0.5211,0,269.98,0.02,-57.55,24.747,-0.021,13.988,1,3,1312.44,4.096,0,1371.21,0,0,0,270.3,0,0,0,0,0,0,0,0,0,0,0,0,0,2,2,0,0,VALID,0,0,0,0,0,1,0,0,0,0,0,0,0,0,0,0,0,0,0,0,161.89,387.64,2,0,0.08,0.08,169,10,0.12,0.08,17.2,FLYING,CF1-J,0:/Integrated Flight Computer/aircraft/cf1_j_cfg.ks (inferred preloaded)
17.5,APPROACH,ILS_TRACK,67.45,70,2.55,1313.72,0.18,6.36,6.22,270.08,-0.062,0.3925,0,20,1,0.6,4.5,0.75,0.35,0.0168,0.4,0,55,0,-2.559,0,269.96,0,0,1,0.15,0,0,0,269.97,-0.8535,-0.0006,0.5211,0,269.96,0.06,-56.32,24.724,-0.036,13.605,1,3,1312.44,4.113,0,1370.03,0,0,0,270.3,0,0,0,0,0,0,0,0,0,0,0,0,0,2,2,0,0,VALID,0,0,0,0,0,1,0,0,0,0,0,0,0,0,0,0,0,0,0,0,161.2,387.57,2,0,0.08,0.08,172,10,0.12,0.08,17.5,FLYING,CF1-J,0:/Integrated Flight Computer/aircraft/cf1_j_cfg.ks (inferred preloaded)
17.8,APPROACH,ILS_TRACK,67.54,70,2.46,1313.77,0.19,6.33,6.18,270.08,-0.061,0.3906,0,20,1,0.6,4.5,0.75,0.35,0.0168,0.4,0,55,0,-2.462,0,269.96,0,0,1,0.16,0,0,0,269.97,-0.8535,-0.0007,0.5211,0,269.96,0.09,-55.08,24.702,-0.037,13.227,1,3,1312.44,4.122,0,1368.84,0,0,0,270.3,0,0,0,0,0,0,0,0,0,0,0,0,0,2,2,0,0,VALID,0,0,0,0,0,1,0,0,0,0,0,0,0,0,0,0,0,0,0,0,160.5,387.51,2,0,0.08,0.08,175,10,0.12,0.08,17.8,FLYING,CF1-J,0:/Integrated Flight Computer/aircraft/cf1_j_cfg.ks (inferred preloaded)
18.1,APPROACH,ILS_TRACK,67.64,70,2.36,1313.82,0.19,6.3,6.15,270.07,-0.06,0.389,0,20,1,0.6,4.5,0.75,0.35,0.0168,0.4,0,55,0,-2.37,0,269.98,0,0,1,0.16,0,0,0,269.97,-0.8535,-0.0004,0.5212,0,269.98,0.12,-53.84,24.679,-0.022,12.849,1,3,1312.44,4.13,0,1367.66,0,0,0,270.3,0,0,0,0,0,0,0,0,0,0,0,0,0,2,2,0,0,VALID,0,0,0,0,0,1,0,0,0,0,0,0,0,0,0,0,0,0,0,0,159.79,387.45,2,0,0.08,0.08,178,10,0.12,0.08,18.1,FLYING,CF1-J,0:/Integrated Flight Computer/aircraft/cf1_j_cfg.ks (inferred preloaded)
18.4,APPROACH,ILS_TRACK,67.72,70,2.28,1313.87,0.2,6.27,6.11,270.07,-0.058,0.3876,0,20,1,0.6,4.5,0.75,0.35,0.0168,0.4,0,55,0,-2.281,0,269.97,0,0,1,0.17,0,0,0,269.97,-0.8534,-0.0004,0.5212,0,269.97,0.15,-52.6,24.656,-0.025,12.467,1,3,1312.44,4.142,0,1366.47,0,0,0,270.3,0,0,0,0,0,0,0,0,0,0,0,0,0,2,2,0,0,VALID,0,0,0,0,0,1,0,0,0,0,0,0,0,0,0,0,0,0,0,0,159.09,387.39,2,0,0.08,0.08,181,10,0.12,0.08,18.4,FLYING,CF1-J,0:/Integrated Flight Computer/aircraft/cf1_j_cfg.ks (inferred preloaded)
18.7,APPROACH,ILS_TRACK,67.81,70,2.19,1313.93,0.21,6.24,6.08,270.07,-0.057,0.3864,0,20,1,0.6,4.5,0.75,0.35,0.0168,0.4,0,55,0,-2.196,0,269.97,0,0,1,0.17,0,0,0,269.97,-0.8534,-0.0006,0.5212,0,269.97,0.19,-51.36,24.634,-0.035,12.083,1,3,1312.44,4.156,0,1365.28,0,0,0,270.3,0,0,0,0,0,0,0,0,0,0,0,0,0,2,2,0,0,VALID,0,0,0,0,0,1,0,0,0,0,0,0,0,0,0,0,0,0,0,0,158.41,387.34,2,0,0.08,0.08,184,10,0.12,0.08,18.7,FLYING,CF1-J,0:/Integrated Flight Computer/aircraft/cf1_j_cfg.ks (inferred preloaded)
19,APPROACH,ILS_TRACK,67.89,70,2.11,1313.99,0.21,6.21,6.05,270.07,-0.056,0.3854,0,20,1,0.6,4.5,0.75,0.35,0.0168,0.4,0,55,0,-2.115,0,269.97,0,0,1,0.18,0,0,0,269.96,-0.8534,-0.0006,0.5213,0,269.97,0.22,-50.11,24.611,-0.034,11.703,1,3,1312.44,4.162,0,1364.09,0,0,0,270.3,0,0,0,0,0,0,0,0,0,0,0,0,0,2,2,0,0,VALID,0,0,0,0,0,1,0,0,0,0,0,0,0,0,0,0,0,0,0,0,157.74,387.28,2,0,0.08,0.08,187,10,0.12,0.08,19,FLYING,CF1-J,0:/Integrated Flight Computer/aircraft/cf1_j_cfg.ks (inferred preloaded)
19.3,APPROACH,ILS_TRACK,67.97,70,2.03,1314.05,0.21,6.18,6.02,270.06,-0.055,0.3845,0,20,1,0.6,4.5,0.75,0.35,0.0168,0.4,0,55,0,-2.038,0,269.96,0,0,1,0.18,0,0,0,269.98,-0.8534,-0.0006,0.5213,0,269.96,0.24,-48.86,24.588,-0.036,11.318,1,3,1312.44,4.175,0,1362.9,0,0,0,270.3,0,0,0,0,0,0,0,0,0,0,0,0,0,2,2,0,0,VALID,0,0,0,0,0,1,0,0,0,0,0,0,0,0,0,0,0,0,0,0,157.09,387.23,2,0,0.08,0.08,190,10,0.12,0.08,19.3,FLYING,CF1-J,0:/Integrated Flight Computer/aircraft/cf1_j_cfg.ks (inferred preloaded)
19.6,APPROACH,ILS_TRACK,68.04,70,1.96,1314.11,0.22,6.16,5.99,270.06,-0.055,0.3838,0,20,1,0.6,4.5,0.75,0.35,0.0168,0.4,0,55,0,-1.965,0,269.96,0,0,1,0.18,0,0,0,269.98,-0.8534,-0.0007,0.5213,0,269.96,0.27,-47.6,24.565,-0.04,10.934,1,3,1312.44,4.184,0,1361.7,0,0,0,270.3,0,0,0,0,0,0,0,0,0,0,0,0,0,2,2,0,0,VALID,0,0,0,0,0,1,0,0,0,0,0,0,0,0,0,0,0,0,0,0,156.47,387.18,2,0,0.08,0.08,193,10,0.12,0.08,19.6,FLYING,CF1-J,0:/Integrated Flight Computer/aircraft/cf1_j_cfg.ks (inferred preloaded)
19.9,APPROACH,ILS_TRACK,68.11,70,1.89,1314.17,0.22,6.13,5.97,270.06,-0.055,0.3831,0,20,1,0.6,4.5,0.75,0.35,0.0168,0.4,0,55,0,-1.895,0,269.96,0,0,1,0.19,0,0,0,269.97,-0.8533,-0.0007,0.5214,0,269.96,0.3,-46.35,24.543,-0.037,10.551,1,3,1312.44,4.192,0,1360.51,0,0,0,270.3,0,0,0,0,0,0,0,0,0,0,0,0,0,2,2,0,0,VALID,0,0,0,0,0,1,0,0,0,0,0,0,0,0,0,0,0,0,0,0,155.87,387.13,2,0,0.08,0.08,196,10,0.12,0.08,19.9,FLYING,CF1-J,0:/Integrated Flight Computer/aircraft/cf1_j_cfg.ks (inferred preloaded)
20.2,APPROACH,ILS_TRACK,68.18,70,1.82,1314.23,0.22,6.11,5.94,270.05,-0.054,0.3826,0,20,1,0.6,4.5,0.75,0.35,0.0168,0.4,0,55,0,-1.829,0,269.97,0,0,1,0.19,0,0,0,269.96,-0.8533,-0.0005,0.5214,0,269.97,0.32,-45.09,24.52,-0.028,10.168,1,3,1312.44,4.198,0,1359.31,0,0,0,270.3,0,0,0,0,0,0,0,0,0,0,0,0,0,2,2,0,0,VALID,0,0,0,0,0,1,0,0,0,0,0,0,0,0,0,0,0,0,0,0,155.29,387.09,2,0,0.08,0.08,199,10,0.12,0.08,20.2,FLYING,CF1-J,0:/Integrated Flight Computer/aircraft/cf1_j_cfg.ks (inferred preloaded)
20.5,APPROACH,ILS_TRACK,68.24,70,1.76,1314.3,0.23,6.09,5.92,270.05,-0.053,0.3821,0,20,1,0.6,4.5,0.75,0.35,0.0168,0.4,0,55,0,-1.766,0,269.97,0,0,1,0.19,0,0,0,269.97,-0.8533,-0.0005,0.5214,0,269.97,0.35,-43.83,24.497,-0.027,9.784,1,3,1312.44,4.206,0,1358.12,0,0,0,270.3,0,0,0,0,0,0,0,0,0,0,0,0,0,2,2,0,0,VALID,0,0,0,0,0,1,0,0,0,0,0,0,0,0,0,0,0,0,0,0,154.75,387.05,2,0,0.08,0.08,202,10,0.12,0.08,20.5,FLYING,CF1-J,0:/Integrated Flight Computer/aircraft/cf1_j_cfg.ks (inferred preloaded)
20.8,APPROACH,ILS_TRACK,68.3,70,1.7,1314.36,0.23,6.07,5.89,270.05,-0.052,0.3816,0,20,1,0.6,4.5,0.75,0.35,0.0168,0.4,0,55,0,-1.706,0,269.97,0,0,1,0.19,0,0,0,269.97,-0.8533,-0.0006,0.5215,0,269.97,0.37,-42.57,24.474,-0.035,9.399,1,3,1312.44,4.213,0,1356.92,0,0,0,270.3,0,0,0,0,0,0,0,0,0,0,0,0,0,2,2,0,0,VALID,0,0,0,0,0,1,0,0,0,0,0,0,0,0,0,0,0,0,0,0,154.23,387.01,2,0,0.08,0.08,205,10,0.12,0.08,20.8,FLYING,CF1-J,0:/Integrated Flight Computer/aircraft/cf1_j_cfg.ks (inferred preloaded)
21.1,APPROACH,ILS_TRACK,68.36,70,1.64,1314.43,0.23,6.05,5.87,270.05,-0.052,0.3812,0,20,1,0.6,4.5,0.75,0.35,0.0168,0.4,0,55,0,-1.648,0,269.96,0,0,1,0.19,0,0,0,269.97,-0.8533,-0.0007,0.5215,0,269.96,0.39,-41.3,24.451,-0.038,9.015,1,3,1312.44,4.219,0,1355.72,0,0,0,270.3,0,0,0,0,0,0,0,0,0,0,0,0,0,2,2,0,0,VALID,0,0,0,0,0,1,0,0,0,0,0,0,0,0,0,0,0,0,0,0,153.73,386.97,2,0,0.08,0.08,208,10,0.12,0.08,21.1,FLYING,CF1-J,0:/Integrated Flight Computer/aircraft/cf1_j_cfg.ks (inferred preloaded)
21.4,APPROACH,ILS_TRACK,68.41,70,1.59,1314.5,0.23,6.03,5.85,270.04,-0.051,0.3808,0,20,1,0.6,4.5,0.75,0.35,0.0168,0.4,0,55,0,-1.594,0,269.98,0,0,1,0.2,0,0,0,269.96,-0.8532,-0.0004,0.5215,0,269.98,0.41,-40.03,24.428,-0.024,8.63,1,3,1312.44,4.225,0,1354.52,0,0,0,270.3,0,0,0,0,0,0,0,0,0,0,0,0,0,2,2,0,0,VALID,0,0,0,0,0,1,0,0,0,0,0,0,0,0,0,0,0,0,0,0,153.26,386.93,2,0,0.08,0.08,211,10,0.12,0.08,21.4,FLYING,CF1-J,0:/Integrated Flight Computer/aircraft/cf1_j_cfg.ks (inferred preloaded)
21.7,APPROACH,ILS_TRACK,68.46,70,1.54,1314.56,0.24,6.01,5.83,270.04,-0.05,0.3804,0,20,1,0.6,4.5,0.75,0.35,0.0168,0.4,0,55,0,-1.542,0,269.97,0,0,1,0.2,0,0,0,269.97,-0.8532,-0.0005,0.5215,0,269.97,0.43,-38.76,24.405,-0.028,8.246,1,3,1312.44,4.229,0,1353.32,0,0,0,270.3,0,0,0,0,0,0,0,0,0,0,0,0,0,2,2,0,0,VALID,0,0,0,0,0,1,0,0,0,0,0,0,0,0,0,0,0,0,0,0,152.81,386.89,2,0,0.08,0.08,214,10,0.12,0.08,21.7,FLYING,CF1-J,0:/Integrated Flight Computer/aircraft/cf1_j_cfg.ks (inferred preloaded)
22,APPROACH,ILS_TRACK,68.51,70,1.49,1314.63,0.24,5.99,5.81,270.04,-0.049,0.3801,0,20,1,0.6,4.5,0.75,0.35,0.0168,0.4,0,55,0,-1.493,0,269.96,0,0,1,0.2,0,0,0,269.97,-0.8532,-0.0008,0.5216,0,269.96,0.45,-37.49,24.382,-0.044,7.859,1,3,1312.44,4.237,0,1352.12,0,0,0,270.3,0,0,0,0,0,0,0,0,0,0,0,0,0,2,2,0,0,VALID,0,0,0,0,0,1,0,0,0,0,0,0,0,0,0,0,0,0,0,0,152.38,386.86,2,0,0.08,0.08,217,10,0.12,0.08,22,FLYING,CF1-J,0:/Integrated Flight Computer/aircraft/cf1_j_cfg.ks (inferred preloaded)
22.3,APPROACH,ILS_TRACK,68.56,70,1.44,1314.7,0.24,5.98,5.8,270.04,-0.048,0.3797,0,20,1,0.6,4.5,0.75,0.35,0.0168,0.4,0,55,0,-1.446,0,269.97,0,0,1,0.2,0,0,0,269.98,-0.8532,-0.0006,0.5216,0,269.97,0.46,-36.22,24.359,-0.034,7.475,1,3,1312.44,4.24,0,1350.91,0,0,0,270.3,0,0,0,0,0,0,0,0,0,0,0,0,0,2,2,0,0,VALID,0,0,0,0,0,1,0,0,0,0,0,0,0,0,0,0,0,0,0,0,151.98,386.83,2,0,0.08,0.08,220,10,0.12,0.08,22.3,FLYING,CF1-J,0:/Integrated Flight Computer/aircraft/cf1_j_cfg.ks (inferred preloaded)
22.6,APPROACH,ILS_TRACK,68.6,70,1.4,1314.77,0.24,5.96,5.78,270.03,-0.047,0.3795,0,20,1,0.6,4.5,0.75,0.35,0.0168,0.4,0,55,0,-1.402,0,269.97,0,0,1,0.2,0,0,0,269.96,-0.8532,-0.0006,0.5216,0,269.97,0.48,-34.95,24.336,-0.032,7.09,1,3,1312.44,4.244,0,1349.71,0,0,0,270.3,0,0,0,0,0,0,0,0,0,0,0,0,0,2,2,0,0,VALID,0,0,0,0,0,1,0,0,0,0,0,0,0,0,0,0,0,0,0,0,151.59,386.79,2,0,0.08,0.08,223,10,0.12,0.08,22.6,FLYING,CF1-J,0:/Integrated Flight Computer/aircraft/cf1_j_cfg.ks (inferred preloaded)
22.9,APPROACH,ILS_TRACK,68.64,70,1.36,1314.84,0.24,5.95,5.77,270.03,-0.045,0.3792,0,20,1,0.6,4.5,0.75,0.35,0.0168,0.4,0,55,0,-1.359,0,269.97,0,0,1,0.2,0,0,0,269.97,-0.8531,-0.0006,0.5217,0,269.97,0.5,-33.68,24.314,-0.034,6.704,1,3,1312.44,4.248,0,1348.51,0,0,0,270.3,0,0,0,0,0,0,0,0,0,0,0,0,0,2,2,0,0,VALID,0,0,0,0,0,1,0,0,0,0,0,0,0,0,0,0,0,0,0,0,151.22,386.76,2,0,0.08,0.08,226,10,0.12,0.08,22.9,FLYING,CF1-J,0:/Integrated Flight Computer/aircraft/cf1_j_cfg.ks (inferred preloaded)
23.2,APPROACH,ILS_TRACK,68.68,70,1.32,1314.91,0.24,5.94,5.75,270.03,-0.045,0.3789,0,20,1,0.6,4.5,0.75,0.35,0.0168,0.4,0,55,0,-1.319,0,269.96,0,0,1,0.2,0,0,0,269.97,-0.8531,-0.0007,0.5217,0,269.96,0.51,-32.4,24.291,-0.039,6.319,1,3,1312.44,4.251,0,1347.3,0,0,0,270.3,0,0,0,0,0,0,0,0,0,0,0,0,0,2,2,0,0,VALID,0,0,0,0,0,1,0,0,0,0,0,0,0,0,0,0,0,0,0,0,150.88,386.73,2,0,0.08,0.08,229,10,0.12,0.08,23.2,FLYING,CF1-J,0:/Integrated Flight Computer/aircraft/cf1_j_cfg.ks (inferred preloaded)
23.5,APPROACH,ILS_TRACK,68.72,70,1.28,1314.98,0.24,5.92,5.74,270.03,-0.044,0.3786,0,20,1,0.6,4.5,0.75,0.35,0.0168,0.4,0,55,0,-1.281,0,269.96,0,0,1,0.2,0,0,0,269.98,-0.8531,-0.0006,0.5217,0,269.96,0.52,-31.12,24.268,-0.036,5.932,1,3,1312.44,4.256,0,1346.1,0,0,0,270.3,0,0,0,0,0,0,0,0,0,0,0,0,0,2,2,0,0,VALID,0,0,0,0,0,1,0,0,0,0,0,0,0,0,0,0,0,0,0,0,150.55,386.71,2,0,0.08,0.08,232,10,0.12,0.08,23.5,FLYING,CF1-J,0:/Integrated Flight Computer/aircraft/cf1_j_cfg.ks (inferred preloaded)
23.8,APPROACH,ILS_TRACK,68.76,70,1.24,1315.05,0.25,5.91,5.73,270.02,-0.044,0.3783,0,20,1,0.6,4.5,0.75,0.35,0.0168,0.4,0,55,0,-1.244,0,269.96,0,0,1,0.2,0,0,0,269.97,-0.8531,-0.0007,0.5218,0,269.96,0.54,-29.85,24.245,-0.039,5.547,1,3,1312.44,4.259,0,1344.89,0,0,0,270.3,0,0,0,0,0,0,0,0,0,0,0,0,0,2,2,0,0,VALID,0,0,0,0,0,1,0,0,0,0,0,0,0,0,0,0,0,0,0,0,150.23,386.68,2,0,0.08,0.08,235,10,0.12,0.08,23.8,FLYING,CF1-J,0:/Integrated Flight Computer/aircraft/cf1_j_cfg.ks (inferred preloaded)
24.1,APPROACH,ILS_TRACK,68.79,70,1.21,1315.13,0.25,5.9,5.71,270.02,-0.043,0.3781,0,20,1,0.6,4.5,0.75,0.35,0.0168,0.4,0,55,0,-1.209,0,269.96,0,0,1,0.21,0,0,0,269.96,-0.8531,-0.0006,0.5218,0,269.96,0.55,-28.57,24.221,-0.036,5.159,1,3,1312.44,4.264,0,1343.68,0,0,0,270.3,0,0,0,0,0,0,0,0,0,0,0,0,0,2,2,0,0,VALID,0,0,0,0,0,1,0,0,0,0,0,0,0,0,0,0,0,0,0,0,149.93,386.66,2,0,0.08,0.08,238,10,0.12,0.08,24.1,FLYING,CF1-J,0:/Integrated Flight Computer/aircraft/cf1_j_cfg.ks (inferred preloaded)
24.4,APPROACH,ILS_TRACK,68.83,70,1.17,1315.2,0.25,5.89,5.7,270.02,-0.041,0.3778,0,20,1,0.6,4.5,0.75,0.35,0.0168,0.4,0,55,0,-1.176,0,269.97,0,0,1,0.21,0,0,0,269.96,-0.853,-0.0004,0.5218,0,269.97,0.56,-27.29,24.198,-0.025,4.774,1,3,1312.44,4.265,0,1342.48,0,0,0,270.3,0,0,0,0,0,0,0,0,0,0,0,0,0,2,2,0,0,VALID,0,0,0,0,0,1,0,0,0,0,0,0,0,0,0,0,0,0,0,0,149.65,386.63,2,0,0.08,0.08,241,10,0.12,0.08,24.4,FLYING,CF1-J,0:/Integrated Flight Computer/aircraft/cf1_j_cfg.ks (inferred preloaded)
24.7,APPROACH,ILS_TRACK,68.86,70,1.14,1315.27,0.25,5.88,5.69,270.02,-0.04,0.3776,0,20,1,0.6,4.5,0.75,0.35,0.0168,0.4,0,55,0,-1.145,0,269.98,0,0,1,0.21,0,0,0,269.97,-0.853,-0.0004,0.5219,0,269.98,0.57,-26.01,24.175,-0.025,4.387,1,3,1312.44,4.269,0,1341.27,0,0,0,270.3,0,0,0,0,0,0,0,0,0,0,0,0,0,2,2,0,0,VALID,0,0,0,0,0,1,0,0,0,0,0,0,0,0,0,0,0,0,0,0,149.38,386.61,2,0,0.08,0.08,244,10,0.12,0.08,24.7,FLYING,CF1-J,0:/Integrated Flight Computer/aircraft/cf1_j_cfg.ks (inferred preloaded)
25,APPROACH,ILS_TRACK,68.89,70,1.11,1315.34,0.25,5.87,5.68,270.01,-0.038,0.3774,0,20,1,0.6,4.5,0.75,0.35,0.0168,0.4,0,55,0,-1.115,0,269.97,0,0,1,0.21,0,0,0,269.97,-0.853,-0.0006,0.5219,0,269.97,0.58,-24.73,24.152,-0.033,4,1,3,1312.44,4.272,0,1340.06,0,0,0,270.3,0,0,0,0,0,0,0,0,0,0,0,0,0,2,2,0,0,VALID,0,0,0,0,0,1,0,0,0,0,0,0,0,0,0,0,0,0,0,0,149.12,386.58,2,0,0.08,0.08,247,10,0.12,0.08,25,FLYING,CF1-J,0:/Integrated Flight Computer/aircraft/cf1_j_cfg.ks (inferred preloaded)
25.3,APPROACH,ILS_TRACK,68.92,70,1.08,1315.42,0.25,5.86,5.67,270.01,-0.036,0.3772,0,20,1,0.6,4.5,0.75,0.35,0.0168,0.4,0,55,0,-1.087,0,269.97,0,0,1,0.21,0,0,0,269.97,-0.853,-0.0005,0.5219,0,269.97,0.58,-23.44,24.129,-0.029,3.614,1,3,1312.44,4.275,0,1338.85,0,0,0,270.3,0,0,0,0,0,0,0,0,0,0,0,0,0,2,2,0,0,VALID,0,0,0,0,0,1,0,0,0,0,0,0,0,0,0,0,0,0,0,0,148.87,386.56,2,0,0.08,0.08,250,10,0.12,0.08,25.3,FLYING,CF1-J,0:/Integrated Flight Computer/aircraft/cf1_j_cfg.ks (inferred preloaded)
25.6,APPROACH,ILS_TRACK,68.94,70,1.06,1315.49,0.25,5.85,5.66,270.01,-0.034,0.377,0,20,1,0.6,4.5,0.75,0.35,0.0168,0.4,0,55,0,-1.06,0,269.97,0,0,1,0.21,0,0,0,269.97,-0.853,-0.0005,0.522,0,269.97,0.59,-22.16,24.106,-0.027,3.227,1,3,1312.44,4.277,0,1337.64,0,0,0,270.3,0,0,0,0,0,0,0,0,0,0,0,0,0,2,2,0,0,VALID,0,0,0,0,0,1,0,0,0,0,0,0,0,0,0,0,0,0,0,0,148.64,386.54,2,0,0.08,0.08,253,10,0.12,0.08,25.6,FLYING,CF1-J,0:/Integrated Flight Computer/aircraft/cf1_j_cfg.ks (inferred preloaded)
25.9,APPROACH,ILS_TRACK,68.97,70,1.03,1315.56,0.25,5.83,5.65,270.01,-0.034,0.3768,0,20,1,0.6,4.5,0.75,0.35,0.0168,0.4,0,55,0,-1.034,0,269.98,-0.155,0,1,0.21,0,0,-0.06,269.96,-0.8515,-0.0004,0.5243,-0.15,269.98,0.6,-20.88,24.083,-0.023,2.845,1,3,1312.44,4.273,-0.155,1336.43,0,0,0,270.3,0,0,0,0,0,0,0,0,0,0,0,0,0,2,2,0,0,VALID,0,0,0,0,0,1,0,0,0,0,0,0,0,0,0,0,0,0,0,0,148.42,386.52,2,0,0.08,0.08,256,10,0.12,0.08,25.9,FLYING,CF1-J,0:/Integrated Flight Computer/aircraft/cf1_j_cfg.ks (inferred preloaded)
26.2,APPROACH,ILS_TRACK,68.99,70,1.01,1315.63,0.26,5.77,5.57,270.01,-0.034,0.3764,0,20,1,0.6,4.5,0.75,0.35,0.0168,0.4,0,55,0,-1.009,0,269.98,-0.506,0,1,0.22,0,0,-0.42,269.97,-0.8483,-0.0003,0.5295,-0.51,269.98,0.6,-19.6,24.06,-0.019,2.494,1,3,1312.44,4.233,-0.506,1335.22,0,0,0,270.3,0,0,0,0,0,0,0,0,0,0,0,0,0,2,2,0,0,VALID,0,0,0,0,0,1,0,0,0,0,0,0,0,0,0,0,0,0,0,0,148.2,386.5,2,0,0.08,0.08,259,10,0.12,0.08,26.2,FLYING,CF1-J,0:/Integrated Flight Computer/aircraft/cf1_j_cfg.ks (inferred preloaded)
26.5,APPROACH,ILS_TRACK,69.02,70,0.98,1315.69,0.23,5.66,5.48,270,-0.035,0.3739,0,20,1,0.6,4.5,0.75,0.35,0.0168,0.4,0,55,0,-0.982,0,269.99,-0.87,0,1,0.2,0,0,-0.78,269.96,-0.8449,-0.0001,0.535,-0.87,269.99,0.6,-18.33,24.037,-0.007,2.13,1,3,1312.44,4.214,-0.87,1334.01,0,0,0,270.3,0,0,0,0,0,0,0,0,0,0,0,0,0,2,2,0,0,VALID,0,0,0,0,0,1,0,0,0,0,0,0,0,0,0,0,0,0,0,0,147.98,386.48,2,0,0.08,0.08,262,10,0.12,0.08,26.5,FLYING,CF1-J,0:/Integrated Flight Computer/aircraft/cf1_j_cfg.ks (inferred preloaded)
26.8,APPROACH,ILS_TRACK,69.05,70,0.95,1315.73,0.19,5.55,5.4,270,-0.034,0.3695,0,20,1,0.6,4.5,0.75,0.35,0.0168,0.4,0,55,0,-0.952,0,269.97,-1.222,0,1,0.17,0,0,-1.13,269.97,-0.8416,-0.0006,0.5402,-1.22,269.97,0.61,-17.08,24.014,-0.032,1.778,1,3,1312.44,4.18,-1.222,1332.8,0,0,0,270.3,0,0,0,0,0,0,0,0,0,0,0,0,0,2,2,0,0,VALID,0,0,0,0,0,1,0,0,0,0,0,0,0,0,0,0,0,0,0,0,147.69,386.46,2,0,0.08,0.08,265,10,0.12,0.08,26.8,FLYING,CF1-J,0:/Integrated Flight Computer/aircraft/cf1_j_cfg.ks (inferred preloaded)
27.1,APPROACH,ILS_TRACK,69.08,70,0.92,1315.76,0.14,5.44,5.32,270,-0.035,0.3644,0,20,1,0.6,4.5,0.75,0.35,0.0168,0.4,0,55,0,-0.919,0,269.97,-1.557,0,1,0.12,0,0,-1.47,269.97,-0.8384,-0.0006,0.5451,-1.56,269.97,0.61,-15.83,23.991,-0.033,1.443,1,3,1312.44,4.133,-1.557,1331.59,0,0,0,270.3,0,0,0,0,0,0,0,0,0,0,0,0,0,2,2,0,0,VALID,0,0,0,0,0,1,0,0,0,0,0,0,0,0,0,0,0,0,0,0,147.3,386.44,2,0,0.08,0.08,268,10,0.12,0.08,27.1,FLYING,CF1-J,0:/Integrated Flight Computer/aircraft/cf1_j_cfg.ks (inferred preloaded)
27.4,APPROACH,ILS_TRACK,69.12,70,0.88,1315.78,0.08,5.32,5.26,270,-0.035,0.359,0,20,1,0.6,4.5,0.75,0.35,0.0168,0.4,0,55,0,-0.883,0,269.98,-1.875,0,1,0.07,0,0,-1.79,269.97,-0.8353,-0.0004,0.5498,-1.88,269.98,0.61,-14.6,23.968,-0.021,1.125,1,3,1312.44,4.069,-1.875,1330.38,0,0,0,270.3,0,0,0,0,0,0,0,0,0,0,0,0,0,2,2,0,0,VALID,0,0,0,0,0,1,0,0,0,0,0,0,0,0,0,0,0,0,0,0,146.78,386.41,2,0,0.08,0.08,271,10,0.12,0.08,27.4,FLYING,CF1-J,0:/Integrated Flight Computer/aircraft/cf1_j_cfg.ks (inferred preloaded)
27.7,APPROACH,ILS_TRACK,69.16,70,0.84,1315.77,0,5.2,5.19,270,-0.035,0.3537,0,20,1,0.6,4.5,0.75,0.35,0.0168,0.4,0,55,0,-0.846,0,269.96,-2.177,0,1,0.01,0,0,-2.1,269.98,-0.8324,-0.0006,0.5542,-2.18,269.96,0.61,-13.39,23.944,-0.035,0.823,1,3,1312.44,3.994,-2.177,1329.16,0,0,0,270.3,0,0,0,0,0,0,0,0,0,0,0,0,0,2,2,0,0,VALID,0,0,0,0,0,1,0,0,0,0,0,0,0,0,0,0,0,0,0,0,146.15,386.39,2,0,0.08,0.08,274,10,0.12,0.08,27.7,FLYING,CF1-J,0:/Integrated Flight Computer/aircraft/cf1_j_cfg.ks (inferred preloaded)
28,APPROACH,ILS_TRACK,69.2,70,0.8,1315.73,-0.09,5.08,5.13,269.99,-0.035,0.3487,0,20,1,0.6,4.5,0.75,0.35,0.0168,0.4,0,55,0,-0.806,0,269.97,-2.465,0,1,-0.06,0,0,-2.39,269.97,-0.8295,-0.0006,0.5584,-2.47,269.97,0.61,-12.21,23.921,-0.033,0.535,1,3,1312.44,3.911,-2.465,1327.95,0,0,0,270.3,0,0,0,0,0,0,0,0,0,0,0,0,0,2,2,0,0,VALID,0,0,0,0,0,1,0,0,0,0,0,0,0,0,0,0,0,0,0,0,145.42,386.36,2,0,0.08,0.08,277,10,0.12,0.08,28,FLYING,CF1-J,0:/Integrated Flight Computer/aircraft/cf1_j_cfg.ks (inferred preloaded)
28.3,APPROACH,ILS_TRACK,69.24,70,0.76,1315.67,-0.19,4.95,5.07,269.99,-0.034,0.3439,0,20,1,0.6,4.5,0.75,0.35,0.0168,0.4,0,55,0,-0.765,0,269.97,-2.735,0,1,-0.14,0,0,-2.67,269.97,-0.8269,-0.0005,0.5624,-2.73,269.97,0.61,-11.06,23.898,-0.027,0.265,1,3,1312.44,3.814,-2.735,1326.74,0,0,0,270.3,0,0,0,0,0,0,0,0,0,0,0,0,0,2,2,0,0,VALID,0,0,0,0,0,1,0,0,0,0,0,0,0,0,0,0,0,0,0,0,144.6,386.34,2,0,0.08,0.08,280,10,0.12,0.08,28.3,FLYING,CF1-J,0:/Integrated Flight Computer/aircraft/cf1_j_cfg.ks (inferred preloaded)
28.6,APPROACH,ILS_TRACK,69.28,70,0.72,1315.58,-0.3,4.82,5.03,269.99,-0.033,0.3395,0,20,1,0.6,4.5,0.75,0.35,0.0168,0.4,0,55,0,-0.724,0,269.97,-2.988,0,1,-0.23,0,0,-2.93,269.98,-0.8244,-0.0005,0.566,-2.99,269.97,0.61,-9.93,23.875,-0.026,0.012,1,3,1312.44,3.708,-2.988,1325.52,0,0,0,270.3,0,0,0,0,0,0,0,0,0,0,0,0,0,2,2,0,0,VALID,0,0,0,0,0,1,0,0,0,0,0,0,0,0,0,0,0,0,0,0,143.71,386.32,2,0,0.08,0.08,283,10,0.12,0.08,28.6,FLYING,CF1-J,0:/Integrated Flight Computer/aircraft/cf1_j_cfg.ks (inferred preloaded)
28.9,APPROACH,ILS_TRACK,69.32,70,0.68,1315.45,-0.41,4.69,4.98,269.99,-0.031,0.3355,0,20,1,0.6,4.5,0.75,0.35,0.0168,0.4,0,55,0,-0.682,0,269.98,-3.228,0,1,-0.32,0,0,-3.17,269.97,-0.822,-0.0004,0.5695,-3.23,269.98,0.6,-8.84,23.852,-0.02,-0.228,1,3,1312.44,3.599,-3.228,1324.31,0,0,0,270.3,0,0,0,0,0,0,0,0,0,0,0,0,0,2,2,0,0,VALID,0,0,0,0,0,1,0,0,0,0,0,0,0,0,0,0,0,0,0,0,142.76,386.29,2,0,0.08,0.08,286,10,0.12,0.08,28.9,FLYING,CF1-J,0:/Integrated Flight Computer/aircraft/cf1_j_cfg.ks (inferred preloaded)
29.2,APPROACH,ILS_TRACK,69.36,70,0.64,1315.29,-0.53,4.56,4.94,269.99,-0.03,0.3318,0,20,1,0.6,4.5,0.75,0.35,0.0168,0.4,0,55,0,-0.639,0,269.97,-3.452,0,1,-0.42,0,0,-3.4,269.99,-0.8197,-0.0006,0.5728,-3.45,269.97,0.6,-7.78,23.828,-0.034,-0.452,1,3,1312.44,3.482,-3.452,1323.09,0,0,0,270.3,0,0,0,0,0,0,0,0,0,0,0,0,0,2,2,0,0,VALID,0,0,0,0,0,1,0,0,0,0,0,0,0,0,0,0,0,0,0,0,141.77,386.27,2,0,0.08,0.08,289,10,0.12,0.08,29.2,FLYING,CF1-J,0:/Integrated Flight Computer/aircraft/cf1_j_cfg.ks (inferred preloaded)
29.5,APPROACH,ILS_TRACK,69.41,70,0.59,1315.09,-0.66,4.43,4.9,269.99,-0.029,0.3283,0,20,1,0.6,4.5,0.75,0.35,0.0168,0.4,0,55,0,-0.596,0,269.99,-3.66,0,1,-0.53,0,0,-3.61,269.98,-0.8176,-0.0003,0.5758,-3.66,269.99,0.6,-6.76,23.805,-0.013,-0.66,1,3,1312.44,3.359,-3.66,1321.87,0,0,0,270.3,0,0,0,0,0,0,0,0,0,0,0,0,0,2,2,0,0,VALID,0,0,0,0,0,1,0,0,0,0,0,0,0,0,0,0,0,0,0,0,140.75,386.26,2,0,0.08,0.08,292,10,0.12,0.08,29.5,FLYING,CF1-J,0:/Integrated Flight Computer/aircraft/cf1_j_cfg.ks (inferred preloaded)
29.8,APPROACH,ILS_TRACK,69.45,70,0.55,1314.85,-0.79,4.3,4.87,269.98,-0.027,0.325,0,20,1,0.6,4.5,0.75,0.35,0.0168,0.4,0,55,0,-0.553,0,269.97,-3.852,0,1,-0.64,0,0,-3.81,269.98,-0.8157,-0.0006,0.5785,-3.85,269.97,0.6,-5.77,23.782,-0.033,-0.852,1,3,1312.44,3.229,-3.852,1320.65,0,0,0,270.3,0,0,0,0,0,0,0,0,0,0,0,0,0,2,2,0,0,VALID,0,0,0,0,0,1,0,0,0,0,0,0,0,0,0,0,0,0,0,0,139.71,386.24,2,0,0.08,0.08,295,10,0.12,0.08,29.8,FLYING,CF1-J,0:/Integrated Flight Computer/aircraft/cf1_j_cfg.ks (inferred preloaded)
30.1,APPROACH,ILS_TRACK,69.49,70,0.51,1314.57,-0.93,4.17,4.84,269.98,-0.026,0.3219,0,20,1,0.6,4.5,0.75,0.35,0.0168,0.4,0,55,0,-0.51,0,269.99,-4.033,0,1,-0.75,0,0,-3.98,269.98,-0.8138,-0.0003,0.5811,-4.03,269.99,0.59,-4.83,23.759,-0.012,-1.033,1,3,1312.44,3.102,-4.033,1319.43,0,0,0,270.3,0,0,0,0,0,0,0,0,0,0,0,0,0,2,2,0,0,VALID,0,0,0,0,0,1,0,0,0,0,0,0,0,0,0,0,0,0,0,0,138.66,386.23,2,0,0.08,0.08,298,10,0.12,0.08,30.1,FLYING,CF1-J,0:/Integrated Flight Computer/aircraft/cf1_j_cfg.ks (inferred preloaded)
30.4,APPROACH,ILS_TRACK,69.54,70,0.46,1314.25,-1.07,4.04,4.81,269.98,-0.025,0.3188,0,20,1,0.6,4.5,0.75,0.35,0.0168,0.4,0,55,0,-0.467,0,269.98,-4.196,0,1,-0.86,0,0,-4.15,269.99,-0.8121,-0.0005,0.5835,-4.2,269.98,0.58,-3.92,23.736,-0.023,-1.196,1,3,1312.44,2.967,-4.196,1318.22,0,0,0,270.3,0,0,0,0,0,0,0,0,0,0,0,0,0,2,2,0,0,VALID,0,0,0,0,0,1,0,0,0,0,0,0,0,0,0,0,0,0,0,0,137.59,386.21,2,0,0.08,0.08,301,10,0.12,0.08,30.4,FLYING,CF1-J,0:/Integrated Flight Computer/aircraft/cf1_j_cfg.ks (inferred preloaded)
30.7,APPROACH,ILS_TRACK,69.58,70,0.42,1313.88,-1.21,3.92,4.79,269.98,-0.024,0.3159,0,20,1,0.6,4.5,0.75,0.35,0.0168,0.4,0,55,0,-0.425,0,269.98,-4.342,0,1,-0.98,0,0,-4.3,269.98,-0.8106,-0.0004,0.5856,-4.34,269.98,0.57,-3.06,23.712,-0.018,-1.342,1,3,1312.44,2.826,-4.342,1317,0,0,0,270.3,0,0,0,0,0,0,0,0,0,0,0,0,0,2,2,0,0,VALID,0,0,0,0,0,1,0,0,0,0,0,0,0,0,0,0,0,0,0,0,136.51,386.2,2,0,0.08,0.08,304,10,0.12,0.08,30.7,FLYING,CF1-J,0:/Integrated Flight Computer/aircraft/cf1_j_cfg.ks (inferred preloaded)
31,APPROACH,ILS_TRACK,69.62,70,0.38,1313.48,-1.36,3.79,4.77,269.98,-0.022,0.3132,0,20,1,0.6,4.5,0.75,0.35,0.0168,0.4,0,55,0,-0.383,0,269.98,-4.473,0,1,-1.1,0,0,-4.44,269.99,-0.8092,-0.0004,0.5875,-4.47,269.98,0.57,-2.24,23.689,-0.02,-1.473,1,3,1312.44,2.682,-4.473,1315.77,0,0,0,270.3,0,0,0,0,0,0,0,0,0,0,0,0,0,2,2,0,0,VALID,0,0,0,0,0,1,0,0,0,0,0,0,0,0,0,0,0,0,0,0,135.44,386.19,2,0,0.08,0.08,307,10,0.12,0.08,31,FLYING,CF1-J,0:/Integrated Flight Computer/aircraft/cf1_j_cfg.ks (inferred preloaded)
31.3,APPROACH,ILS_TRACK,69.66,70,0.34,1313.03,-1.5,3.67,4.75,269.98,-0.02,0.3107,0,20,1,0.6,4.5,0.75,0.35,0.0168,0.4,0,55,0,-0.341,0,269.98,-4.593,0,1,-1.22,0,0,-4.56,269.99,-0.808,-0.0005,0.5892,-4.59,269.98,0.56,-1.46,23.666,-0.024,-1.593,1,3,1312.44,2.54,-4.593,1314.55,0,0,0,270.3,0,0,0,0,0,0,0,0,0,0,0,0,0,2,2,0,0,VALID,0,0,0,0,0,1,0,0,0,0,0,0,0,0,0,0,0,0,0,0,134.37,386.19,2,0,0.08,0.08,310,10,0.12,0.08,31.3,FLYING,CF1-J,0:/Integrated Flight Computer/aircraft/cf1_j_cfg.ks (inferred preloaded)
31.6,APPROACH,ILS_TRACK,69.7,70,0.3,1312.53,-1.65,3.55,4.74,269.98,-0.019,0.3082,0,20,1,0.6,4.5,0.75,0.35,0.0168,0.4,0,55,0,-0.299,0,269.98,-4.696,0,1,-1.34,0,0,-4.67,269.99,-0.8069,-0.0004,0.5907,-4.7,269.98,0.55,-0.73,23.642,-0.021,-1.696,1,3,1312.44,2.393,-4.696,1313.33,0,0,0,270.3,0,0,0,0,0,0,0,0,0,0,0,0,0,2,2,0,0,VALID,0,0,0,0,0,1,0,0,0,0,0,0,0,0,0,0,0,0,0,0,133.31,386.19,2,0,0.08,0.08,313,10,0.12,0.08,31.6,FLYING,CF1-J,0:/Integrated Flight Computer/aircraft/cf1_j_cfg.ks (inferred preloaded)
31.9,APPROACH,ILS_TRACK,69.74,70,0.26,1312,-1.8,3.43,4.73,269.97,-0.017,0.306,0,20,1,0.6,4.5,0.75,0.35,0.0168,0.4,0,55,0,-0.259,0,269.98,-4.791,0,1,-1.46,0,0,-4.77,269.99,-0.8059,-0.0004,0.592,-4.79,269.98,0.54,-0.04,23.619,-0.021,-1.791,1,3,1312.44,2.253,-4.791,1312.11,0,0,0,270.3,0,0,0,0,0,0,0,0,0,0,0,0,0,2,2,0,0,VALID,0,0,0,0,0,1,0,0,0,0,0,0,0,0,0,0,0,0,0,0,132.26,386.19,2,0,0.08,0.08,316,10,0.12,0.08,31.9,FLYING,CF1-J,0:/Integrated Flight Computer/aircraft/cf1_j_cfg.ks (inferred preloaded)
32.2,APPROACH,ILS_TRACK,69.78,70,0.22,1311.42,-1.94,3.31,4.73,269.97,-0.016,0.3038,0,20,1,0.6,4.5,0.75,0.35,0.0168,0.4,0,55,0,-0.218,0,269.99,-4.868,0,1,-1.58,0,0,-4.85,269.99,-0.8051,-0.0002,0.5932,-4.87,269.99,0.53,0.61,23.596,-0.007,-1.868,1,3,1312.44,2.106,-4.868,1310.89,0,0,0,270.3,0,0,0,0,0,0,0,0,0,0,0,0,0,2,2,0,0,VALID,0,0,0,0,0,1,0,0,0,0,0,0,0,0,0,0,0,0,0,0,131.22,386.19,2,0,0.08,0.08,319,10,0.12,0.08,32.2,FLYING,CF1-J,0:/Integrated Flight Computer/aircraft/cf1_j_cfg.ks (inferred preloaded)
32.5,APPROACH,ILS_TRACK,69.82,70,0.18,1310.79,-2.09,3.2,4.72,269.97,-0.013,0.3018,0,20,1,0.6,4.5,0.75,0.35,0.0168,0.4,0,55,0,-0.179,0,270,-4.938,0,1,-1.7,0,0,-4.93,269.98,-0.8043,-0.0001,0.5942,-4.94,270,0.52,1.22,23.572,-0.002,-1.938,1,3,1312.44,1.966,-4.938,1309.66,0,0,0,270.3,0,0,0,0,0,0,0,0,0,0,0,0,0,2,2,0,0,VALID,0,0,0,0,0,1,0,0,0,0,0,0,0,0,0,0,0,0,0,0,130.2,386.19,2,0,0.08,0.08,322,10,0.12,0.08,32.5,FLYING,CF1-J,0:/Integrated Flight Computer/aircraft/cf1_j_cfg.ks (inferred preloaded)
32.8,APPROACH,ILS_TRACK,69.86,70,0.14,1310.12,-2.23,3.09,4.71,269.97,-0.011,0.2999,0,20,1,0.6,4.5,0.75,0.35,0.0168,0.4,0,55,0,-0.14,0,269.98,-4.994,0,1,-1.81,0,0,-4.98,269.99,-0.8037,-0.0004,0.595,-4.99,269.98,0.51,1.78,23.549,-0.017,-1.994,1,3,1312.44,1.825,-4.994,1308.44,0,0,0,270.3,0,0,0,0,0,0,0,0,0,0,0,0,0,2,2,0,0,VALID,0,0,0,0,0,1,0,0,0,0,0,0,0,0,0,0,0,0,0,0,129.2,386.2,2,0,0.08,0.08,325,10,0.12,0.08,32.8,FLYING,CF1-J,0:/Integrated Flight Computer/aircraft/cf1_j_cfg.ks (inferred preloaded)
33.1,APPROACH,ILS_TRACK,69.9,70,0.1,1309.42,-2.38,2.99,4.72,269.97,-0.01,0.298,0,20,1,0.6,4.5,0.75,0.35,0.0168,0.4,0,55,0,-0.102,0,269.99,-5.04,0,1,-1.93,0,0,-5.03,269.99,-0.8032,-0.0002,0.5957,-5.04,269.99,0.5,2.3,23.526,-0.008,-2.04,1,3,1312.44,1.687,-5.04,1307.21,0,0,0,270.3,0,0,0,0,0,0,0,0,0,0,0,0,0,2,2,0,0,VALID,0,0,0,0,0,1,0,0,0,0,0,0,0,0,0,0,0,0,0,0,128.22,386.21,2,0,0.08,0.08,328,10,0.12,0.08,33.1,FLYING,CF1-J,0:/Integrated Flight Computer/aircraft/cf1_j_cfg.ks (inferred preloaded)
33.4,APPROACH,ILS_TRACK,69.94,70,0.06,1308.66,-2.52,2.89,4.72,269.97,-0.007,0.2963,0,20,1,0.6,4.5,0.75,0.35,0.0168,0.4,0,55,0,-0.065,0,270,-5.072,0,1,-2.05,0,0,-5.07,269.99,-0.8029,0,0.5962,-5.07,270,0.49,2.78,23.502,0.002,-2.072,1,3,1312.44,1.548,-5.072,1305.99,0,0,0,270.3,0,0,0,0,0,0,0,0,0,0,0,0,0,2,2,0,0,VALID,0,0,0,0,0,1,0,0,0,0,0,0,0,0,0,0,0,0,0,0,127.25,386.22,2,0,0.08,0.08,331,10,0.12,0.08,33.4,FLYING,CF1-J,0:/Integrated Flight Computer/aircraft/cf1_j_cfg.ks (inferred preloaded)
33.7,APPROACH,ILS_TRACK,69.97,70,0.03,1307.87,-2.65,2.79,4.72,269.97,-0.004,0.2948,0,20,1,0.6,4.5,0.75,0.35,0.0168,0.4,0,55,0,-0.029,0,269.99,-5.098,0,1,-2.16,0,0,-5.09,270,-0.8026,-0.0003,0.5965,-5.1,269.99,0.48,3.22,23.479,-0.011,-2.098,1,3,1312.44,1.415,-5.098,1304.76,0,0,0,270.3,0,0,0,0,0,0,0,0,0,0,0,0,0,2,2,0,0,VALID,0,0,0,0,0,1,0,0,0,0,0,0,0,0,0,0,0,0,0,0,126.32,386.24,2,0,0.08,0.08,334,10,0.12,0.08,33.7,FLYING,CF1-J,0:/Integrated Flight Computer/aircraft/cf1_j_cfg.ks (inferred preloaded)
34,APPROACH,ILS_TRACK,70.01,70,-0.01,1307.04,-2.79,2.7,4.73,269.97,-0.002,0.2933,0,19.999,1,0.6,4.5,0.75,0.35,0.0168,0.4,0,54.998,0,0.007,0,269.99,-5.112,0,1,-2.27,0,0,-5.11,269.99,-0.8024,-0.0002,0.5968,-5.11,269.99,0.46,3.62,23.455,-0.007,-2.112,1,3,1312.44,1.283,-5.112,1303.53,0,0,0,270.3,0,0,0,0,0,0,0,0,0,0,0,0,0,2,2,0,0,VALID,0,0,0,0,0,1,0,0,0,0,0,0,0,0,0,0,0,0,0,0,125.41,386.25,2,0,0.08,0.08,337,10,0.12,0.08,34,FLYING,CF1-J,0:/Integrated Flight Computer/aircraft/cf1_j_cfg.ks (inferred preloaded)
34.3,APPROACH,ILS_TRACK,70.04,70,-0.04,1306.17,-2.92,2.61,4.74,269.97,-0.001,0.2918,0,19.99,1,0.6,4.5,0.75,0.35,0.0168,0.4,0,54.988,0,0.041,0,269.99,-5.117,0,1,-2.37,0,0,-5.12,269.99,-0.8023,-0.0002,0.5969,-5.12,269.99,0.45,3.98,23.432,-0.009,-2.117,1,3,1312.44,1.155,-5.117,1302.31,0,0,0,270.3,0,0,0,0,0,0,0,0,0,0,0,0,0,2,2,0,0,VALID,0,0,0,0,0,1,0,0,0,0,0,0,0,0,0,0,0,0,0,0,124.52,386.27,2,0,0.08,0.08,340,10,0.12,0.08,34.3,FLYING,CF1-J,0:/Integrated Flight Computer/aircraft/cf1_j_cfg.ks (inferred preloaded)
34.6,APPROACH,ILS_TRACK,70.08,70,-0.08,1305.26,-3.05,2.53,4.74,269.97,0.001,0.2903,0,19.971,1,0.6,4.5,0.75,0.35,0.0168,0.4,0,54.978,0,0.074,0,269.99,-5.117,0,1,-2.47,0,0,-5.12,269.99,-0.8023,-0.0003,0.5969,-5.12,269.99,0.44,4.3,23.409,-0.013,-2.117,1,3,1312.44,1.034,-5.117,1301.08,0,0,0,270.3,0,0,0,0,0,0,0,0,0,0,0,0,0,2,2,0,0,VALID,0,0,0,0,0,1,0,0,0,0,0,0,0,0,0,0,0,0,0,0,123.66,386.3,2,0,0.08,0.08,343,10,0.12,0.08,34.6,FLYING,CF1-J,0:/Integrated Flight Computer/aircraft/cf1_j_cfg.ks (inferred preloaded)
34.9,APPROACH,ILS_TRACK,70.11,70,-0.11,1304.31,-3.17,2.45,4.75,269.97,0.002,0.2888,0,19.943,1,0.6,4.5,0.75,0.35,0.0168,0.4,0,54.968,0,0.107,0,270,-5.105,0,1,-2.58,0,0,-5.11,269.99,-0.8024,0,0.5968,-5.1,270,0.42,4.59,23.385,0.005,-2.105,1,3,1312.44,0.911,-5.105,1299.85,0,0,0,270.3,0,0,0,0,0,0,0,0,0,0,0,0,0,2,2,0,0,VALID,0,0,0,0,0,1,0,0,0,0,0,0,0,0,0,0,0,0,0,0,122.83,386.32,2,0,0.08,0.08,346,10,0.12,0.08,34.9,FLYING,CF1-J,0:/Integrated Flight Computer/aircraft/cf1_j_cfg.ks (inferred preloaded)
35.2,APPROACH,ILS_TRACK,70.14,70,-0.14,1303.33,-3.29,2.37,4.77,269.97,0.004,0.2872,0,19.904,1,0.6,4.5,0.75,0.35,0.0168,0.4,0,54.959,0,0.138,0,269.99,-5.088,0,1,-2.67,0,0,-5.1,270,-0.8026,-0.0002,0.5966,-5.09,269.99,0.41,4.84,23.362,-0.006,-2.088,1,3,1312.44,0.795,-5.088,1298.62,0,0,0,270.3,0,0,0,0,0,0,0,0,0,0,0,0,0,2,2,0,0,VALID,0,0,0,0,0,1,0,0,0,0,0,0,0,0,0,0,0,0,0,0,122.01,386.35,2,0,0.08,0.08,349,10,0.12,0.08,35.2,FLYING,CF1-J,0:/Integrated Flight Computer/aircraft/cf1_j_cfg.ks (inferred preloaded)
35.5,APPROACH,ILS_TRACK,70.17,70,-0.17,1302.31,-3.4,2.3,4.78,269.97,0.005,0.2857,0,19.857,1,0.6,4.5,0.75,0.35,0.0168,0.4,0,54.95,0,0.168,0,270,-5.064,0,1,-2.76,0,0,-5.07,269.99,-0.8028,-0.0001,0.5963,-5.06,270,0.4,5.06,23.338,-0.003,-2.064,1,3,1312.44,0.683,-5.064,1297.4,0,0,0,270.3,0,0,0,0,0,0,0,0,0,0,0,0,0,2,2,0,0,VALID,0,0,0,0,0,1,0,0,0,0,0,0,0,0,0,0,0,0,0,0,121.2,386.38,2,0,0.08,0.08,352,10,0.12,0.08,35.5,FLYING,CF1-J,0:/Integrated Flight Computer/aircraft/cf1_j_cfg.ks (inferred preloaded)
35.8,APPROACH,ILS_TRACK,70.2,70,-0.2,1301.27,-3.51,2.24,4.79,269.97,0.006,0.2843,0,19.801,1,0.6,4.5,0.75,0.35,0.0168,0.4,0,54.941,0,0.196,0,269.99,-5.033,0,1,-2.85,0,0,-5.04,269.99,-0.8031,-0.0002,0.5959,-5.03,269.99,0.39,5.24,23.315,-0.006,-2.033,1,3,1312.44,0.576,-5.033,1296.17,0,0,0,270.3,0,0,0,0,0,0,0,0,0,0,0,0,0,2,2,0,0,VALID,0,0,0,0,0,1,0,0,0,0,0,0,0,0,0,0,0,0,0,0,120.42,386.41,2,0,0.08,0.08,355,10,0.12,0.08,35.8,FLYING,CF1-J,0:/Integrated Flight Computer/aircraft/cf1_j_cfg.ks (inferred preloaded)
36.1,APPROACH,ILS_TRACK,70.22,70,-0.22,1300.19,-3.62,2.17,4.8,269.96,0.007,0.2829,0,19.736,1,0.6,4.5,0.75,0.35,0.0168,0.4,0,54.933,0,0.223,0,270,-4.996,0,1,-2.94,0,0,-5.01,270,-0.8035,0,0.5954,-5,270,0.37,5.39,23.291,0.001,-1.996,1,3,1312.44,0.473,-4.996,1294.94,0,0,0,270.3,0,0,0,0,0,0,0,0,0,0,0,0,0,2,2,0,0,VALID,0,0,0,0,0,1,0,0,0,0,0,0,0,0,0,0,0,0,0,0,119.65,386.45,2,0,0.08,0.08,358,10,0.12,0.08,36.1,FLYING,CF1-J,0:/Integrated Flight Computer/aircraft/cf1_j_cfg.ks (inferred preloaded)
