t_s,phase,subphase,ias_ms,vapp_ms,spd_err_ms,agl_m,gear_h_m,vs_ms,pitch_deg,aoa_deg,hdg_deg,bank_deg,thr_cmd,thr_cur,thr_intg,at_gain,at_tau_s,at_a_up,at_a_dn,at_kp_thr,at_ki_spd,at_thr_slew,as_cmd_deg,as_cap_deg,as_raw_deg,as_spd_err_ms,as_active,aa_hdg_cmd_deg,aa_fpa_cmd_deg,aa_fbw,aa_dir,actual_fpa_deg,ftf_hdg_err_deg,ftf_fix_idx,kos_steer_pit_deg,kos_steer_hdg_deg,aa_dir_vx,aa_dir_vy,aa_dir_vz,aa_dir_pitch_deg,aa_dir_hdg_deg,ils_loc_m,ils_gs_m,ils_dist_km,loc_corr_deg,gs_corr_deg,gs_latched,active_gs_ang_deg,ils_intercept_alt_m,d_gs_ms,fpa_preclamped_deg,gs_nom_alt_m,flare_fpa_cmd,flare_tgt_vs,flare_frac,flare_round_blend_h,flare_round_blend_ttg,flare_round_blend,flare_mode,flare_auth_limited,flare_auth_reason,flare_vs_err,flare_fpa_err,flare_pitch_err,flare_theta_cmd_raw,flare_theta_cmd_clamped,flare_theta_clamp_active,flare_aoa_clamp_active,flare_pitch_in_cmd,elev_defl_avg_deg,elev_defl_max_deg,elev_defl_n,flare_ctrl_h_m,flare_req_up_a,flare_thr_floor,flare_tecs_et_err,flare_tecs_eb_err,flare_tecs_h_ref,flare_tecs_v_ref,flare_gamma_ref,flare_gamma_eb_term,flare_gamma_unsat,steer_hdg_deg,steer_blend,ro_loc_corr_deg,ro_hdg_err_deg,ro_yaw_tgt,ro_yaw_scale,ro_yaw_gate,yaw_cmd,roll_cmd,pitch_cmd,ro_pitch_tgt_deg,ro_pitch_err_deg,ro_pitch_ff,ro_roll_assist,flaps_cur,flaps_tgt,asc_j_ab,asc_j_rk,asc_validity,asc_q_pa,asc_q_raw_pa,asc_mach,asc_apo_m,asc_drag_n,asc_w_prop,asc_edot_aero,asc_edot_orb,asc_pitch_bias,asc_blend,asc_spooling,asc_ab_thr_ratio,asc_ab_t_now,asc_ab_t_avail,asc_ab_ign_on,asc_ab_flameouts,asc_rk_t_now,asc_rk_t_avail,asc_rk_ign_on,asc_rk_flameouts,ship_thrust,ship_avail_thrust,ship_ign_on,ship_flameouts,ifc_raw_dt_s,ifc_dt_s,ifc_loop_n,ifc_hz_est,ifc_raw_dt_max_s,ifc_raw_dt_min_s,phase_el_s,status,craft_name,cfg_file
0.16,APPROACH,ILS_TRACK,154.45,152,-2.45,732.95,653.26,-10.53,13.3,17.01,269.94,0.728,0,0,0,0,0,0,0,0,0,0,0,0,0,0,0,0,0,1,0,-3.93,0,0,0,90,0,0,0,0,0,6.43,-489.96,21.921,0,0,0,3,732.95,0,0,1223.11,0,0,0,0,0,0,,0,NONE,0,0,0,0,0,0,0,0,0,0,0,653.26,0,0,0,0,0,0,0,0,0,269.92,0,0,0,0,0,0,0,0,0,0,0,0,0,0,0,0,0,VALID,0,0,0,0,0,1,0,0,0,0,0,0,0,0,0,0,0,0,0,0,299.81,1082.76,2,0,0.14,0.14,1,3.7,0.14,0.02,0.16,FLYING,X10-H,0:/Integrated Flight Computer/aircraft/x10_h_cfg.ks (inferred preloaded)
0.46,APPROACH,ILS_TRACK,154.19,152,-2.19,730.1,650.31,-9.4,13.78,17.11,270.01,0.555,0.0007,0,-0.177,1,0.6,2.106,0.75,0.35,0.0168,0.4,0.819,21.267,0.819,2.213,1,269.92,0,0,1,-3.54,0,0,0,269.92,0.1342,-0.0014,-0.9909,0,269.92,6.24,-490.24,21.875,-0.081,0,0,3,732.95,-0.926,0,1220.71,0,0,0,0,0,0,,0,NONE,0,0,0,0,0,0,0,0,0,0,0,650.31,0,0,0,0,0,0,0,0,0,269.92,0,0,0,0,0,0,0,0,0,0,0,0,0,1,3,0,0,VALID,0,0,0,0,0,1,0,0,0,0,0,0,0,0,0,0,0,0,0,0,269.63,1081.88,2,0,0.08,0.08,4,10,0.14,0.08,0.46,FLYING,X10-H,0:/Integrated Flight Computer/aircraft/x10_h_cfg.ks (inferred preloaded)
0.76,APPROACH,ILS_TRACK,153.83,152,-1.83,727.38,647.65,-8.51,13.63,16.62,269.95,0.478,0.1207,0,-0.768,1,0.6,3.744,0.75,0.35,0.0168,0.4,0,21.369,0,1.852,0,269.91,0,0,1,-3.2,0,0,0,269.9,0.1342,-0.0016,-0.991,0,269.91,6.06,-490.43,21.826,-0.094,0,0,3,732.95,-0.397,0,1218.15,0,0,0,0,0,0,,0,NONE,0,0,0,0,0,0,0,0,0,0,0,647.65,0,0,0,0,0,0,0,0,0,269.92,0,0,0,0,0,0,0,0,0,0,0,0,0,1,3,0,0,VALID,0,0,0,0,0,1,0,0,0,0,0,0,0,0,0,0,0,0,0,0,246.16,1080.54,2,0,0.08,0.08,7,10,0.12,0.08,0.76,FLYING,X10-H,0:/Integrated Flight Computer/aircraft/x10_h_cfg.ks (inferred preloaded)
1.1,APPROACH,ILS_TRACK,153.42,152,-1.42,724.52,644.93,-7.59,13.18,15.83,269.92,0.44,0.2287,0,-1.307,1,0.6,4.5,0.75,0.35,0.0168,0.4,0,21.483,0,1.446,0,269.9,0,0,1,-2.87,0,0,0,269.91,0.1341,-0.0017,-0.991,0,269.9,5.87,-490.41,21.771,-0.096,0,0,3,732.95,0.241,0,1215.26,0,0,0,0,0,0,,0,NONE,0,0,0,0,0,0,0,0,0,0,0,644.93,0,0,0,0,0,0,0,0,0,269.92,0,0,0,0,0,0,0,0,0,0,0,0,0,2,3,0,0,VALID,0,0,0,0,0,1,0,0,0,0,0,0,0,0,0,0,0,0,0,0,237.17,1079.01,2,0,0.1,0.1,10,8.82,0.12,0.08,1.1,FLYING,X10-H,0:/Integrated Flight Computer/aircraft/x10_h_cfg.ks (inferred preloaded)
1.38,APPROACH,ILS_TRACK,153.16,152,-1.16,722.38,642.88,-7.14,12.8,15.32,269.92,0.422,0.2316,0,-1.66,1,0.6,4.5,0.75,0.35,0.0168,0.4,0,21.559,0,1.179,0,269.91,0,0,1,-2.69,0,0,0,269.91,0.134,-0.0016,-0.991,0,269.91,5.72,-490.21,21.726,-0.091,0,0,3,732.95,1.01,0,1212.88,0,0,0,0,0,0,,0,NONE,0,0,0,0,0,0,0,0,0,0,0,642.88,0,0,0,0,0,0,0,0,0,269.92,0,0,0,0,0,0,0,0,0,0,0,0,0,3,3,0,0,VALID,0,0,0,0,0,1,0,0,0,0,0,0,0,0,0,0,0,0,0,0,237.61,1078.05,2,0,0.1,0.1,13,10.71,0.1,0.08,1.38,FLYING,X10-H,0:/Integrated Flight Computer/aircraft/x10_h_cfg.ks (inferred preloaded)
1.72,APPROACH,ILS_TRACK,152.86,152,-0.86,720.06,640.57,-6.5,12.72,15.03,269.93,0.418,0.2341,0,-1.994,1,0.6,4.5,0.75,0.35,0.0168,0.4,0,21.644,0,0.877,0,269.9,0,0,1,-2.45,0,0,0,269.91,0.1339,-0.0017,-0.991,0,269.9,5.54,-489.68,21.671,-0.096,0,0,3,732.95,1.754,0,1209.99,0,0,0,0,0,0,,0,NONE,0,0,0,0,0,0,0,0,0,0,0,640.57,0,0,0,0,0,0,0,0,0,269.92,0,0,0,0,0,0,0,0,0,0,0,0,0,3,3,0,0,VALID,0,0,0,0,0,1,0,0,0,0,0,0,0,0,0,0,0,0,0,0,237.98,1076.93,2,0,0.1,0.1,16,8.82,0.12,0.1,1.72,FLYING,X10-H,0:/Integrated Flight Computer/aircraft/x10_h_cfg.ks (inferred preloaded)
2,APPROACH,ILS_TRACK,152.63,152,-0.63,718.4,638.8,-6.2,13.03,15.29,269.93,0.401,0.2264,0,-2.197,1,0.6,4.5,0.75,0.35,0.0168,0.4,0,21.708,0,0.648,0,269.9,0,0,1,-2.34,0,0,0,269.91,0.1338,-0.0017,-0.991,0,269.9,5.4,-489,21.625,-0.098,0,0,3,732.95,2.795,0,1207.62,0,0,0,0,0,0,,0,NONE,0,0,0,0,0,0,0,0,0,0,0,638.8,0,0,0,0,0,0,0,0,0,269.92,0,0,0,0,0,0,0,0,0,0,0,0,0,3,3,0,0,VALID,0,0,0,0,0,1,0,0,0,0,0,0,0,0,0,0,0,0,0,0,238.37,1076.1,2,0,0.08,0.08,19,10.71,0.1,0.08,2,FLYING,X10-H,0:/Integrated Flight Computer/aircraft/x10_h_cfg.ks (inferred preloaded)
2.3,APPROACH,ILS_TRACK,152.29,152,-0.29,716.93,637.06,-5.41,14.08,16.08,269.94,0.385,0.2907,0,-2.329,1,0.6,4.5,0.75,0.35,0.0168,0.4,0,21.802,0,0.317,0,269.91,0,0,1,-2.09,0,0,0,269.9,0.1337,-0.0016,-0.991,0,269.91,5.25,-487.96,21.577,-0.091,0,0,3,732.95,3.679,0,1205.09,0,0,0,0,0,0,,0,NONE,0,0,0,0,0,0,0,0,0,0,0,637.06,0,0,0,0,0,0,0,0,0,269.92,0,0,0,0,0,0,0,0,0,0,0,0,0,3,3,0,0,VALID,0,0,0,0,0,1,0,0,0,0,0,0,0,0,0,0,0,0,0,0,239.04,1074.79,2,0,0.08,0.08,22,10,0.12,0.08,2.3,FLYING,X10-H,0:/Integrated Flight Computer/aircraft/x10_h_cfg.ks (inferred preloaded)
2.6,APPROACH,ILS_TRACK,151.69,152,0.31,715.42,635.61,-4.4,14.03,15.57,269.95,0.382,0.4107,0,-2.309,1,0.6,4.5,0.75,0.35,0.0168,0.4,0,21.967,0,-0.27,0,269.91,0,0,1,-1.7,0,0,0,269.91,0.1337,-0.0016,-0.991,0,269.91,5.12,-486.93,21.529,-0.091,0,0,3,732.95,3.307,0,1202.56,0,0,0,0,0,0,,0,NONE,0,0,0,0,0,0,0,0,0,0,0,635.61,0,0,0,0,0,0,0,0,0,269.92,0,0,0,0,0,0,0,0,0,0,0,0,0,3,3,0,0,VALID,0,0,0,0,0,1,0,0,0,0,0,0,0,0,0,0,0,0,0,0,244.79,1072.39,2,0,0.08,0.08,25,10,0.12,0.08,2.6,FLYING,X10-H,0:/Integrated Flight Computer/aircraft/x10_h_cfg.ks (inferred preloaded)
2.9,APPROACH,ILS_TRACK,151.24,152,0.76,713.88,634.42,-3.54,12.92,14.08,269.94,0.363,0.5307,0,-2.134,1,0.6,4.5,0.75,0.35,0.0168,0.4,0,22.098,0,-0.734,0,269.91,0,0,1,-1.38,0,0,0,269.9,0.1336,-0.0016,-0.991,0,269.91,4.99,-485.94,21.481,-0.091,0,0,3,732.95,3.134,0,1200.04,0,0,0,0,0,0,,0,NONE,0,0,0,0,0,0,0,0,0,0,0,634.42,0,0,0,0,0,0,0,0,0,269.92,0,0,0,0,0,0,0,0,0,0,0,0,0,3,3,0,0,VALID,0,0,0,0,0,1,0,0,0,0,0,0,0,0,0,0,0,0,0,0,257.76,1070.54,2,0,0.08,0.08,28,10,0.12,0.08,2.9,FLYING,X10-H,0:/Integrated Flight Computer/aircraft/x10_h_cfg.ks (inferred preloaded)
3.2,APPROACH,ILS_TRACK,151,152,1,712.24,633.39,-3.3,10.73,11.75,269.93,0.323,0.4713,0,-1.85,1,0.6,4.5,0.75,0.35,0.0168,0.4,0,22.172,0,-0.997,0,269.91,0,0,1,-1.25,0,0,0,269.9,0.1335,-0.0016,-0.991,0,269.91,4.87,-485.07,21.433,-0.094,0,0,3,732.95,2.906,0,1197.52,0,0,0,0,0,0,,0,NONE,0,0,0,0,0,0,0,0,0,0,0,633.39,0,0,0,0,0,0,0,0,0,269.92,0,0,0,0,0,0,0,0,0,0,0,0,0,3,3,0,0,VALID,0,0,0,0,0,1,0,0,0,0,0,0,0,0,0,0,0,0,0,0,275.39,1069.59,2,0,0.08,0.08,31,10,0.12,0.08,3.2,FLYING,X10-H,0:/Integrated Flight Computer/aircraft/x10_h_cfg.ks (inferred preloaded)
3.5,APPROACH,ILS_TRACK,151.11,152,0.89,710.72,632.33,-3.75,8.96,10.21,269.92,0.3,0.3513,0,-1.565,1,0.6,4.5,0.75,0.35,0.0168,0.4,0,22.145,0,-0.902,0,269.91,0,0,1,-1.39,0,0,0,269.9,0.1334,-0.0016,-0.9911,0,269.91,4.76,-484.09,21.385,-0.093,0,0,3,732.95,3.49,0,1195.01,0,0,0,0,0,0,,0,NONE,0,0,0,0,0,0,0,0,0,0,0,632.33,0,0,0,0,0,0,0,0,0,269.92,0,0,0,0,0,0,0,0,0,0,0,0,0,3,3,0,0,VALID,0,0,0,0,0,1,0,0,0,0,0,0,0,0,0,0,0,0,0,0,286.85,1070.11,2,0,0.08,0.08,34,10,0.12,0.08,3.5,FLYING,X10-H,0:/Integrated Flight Computer/aircraft/x10_h_cfg.ks (inferred preloaded)
3.8,APPROACH,ILS_TRACK,151.32,152,0.68,709.43,631.1,-4.38,8.54,10.11,269.92,0.277,0.2313,0,-1.336,1,0.6,4.5,0.75,0.35,0.0168,0.4,0,22.086,0,-0.692,0,269.91,0,0,1,-1.63,0,0,0,269.91,0.1334,-0.0016,-0.9911,0,269.91,4.64,-482.9,21.336,-0.09,0,0,3,732.95,4.294,0,1192.49,0,0,0,0,0,0,,0,NONE,0,0,0,0,0,0,0,0,0,0,0,631.1,0,0,0,0,0,0,0,0,0,269.92,0,0,0,0,0,0,0,0,0,0,0,0,0,3,3,0,0,VALID,0,0,0,0,0,1,0,0,0,0,0,0,0,0,0,0,0,0,0,0,290.23,1071.09,2,0,0.08,0.08,37,10,0.12,0.08,3.8,FLYING,X10-H,0:/Integrated Flight Computer/aircraft/x10_h_cfg.ks (inferred preloaded)
4.1,APPROACH,ILS_TRACK,151.5,152,0.5,708.41,629.72,-4.83,9.63,11.47,269.92,0.258,0.1113,0,-1.167,1,0.6,4.5,0.75,0.35,0.0168,0.4,0,22.035,0,-0.512,0,269.92,0,0,1,-1.81,0,0,0,269.91,0.1333,-0.0014,-0.9911,0,269.92,4.53,-481.44,21.288,-0.081,0,0,3,732.95,5.211,0,1189.97,0,0,0,0,0,0,,0,NONE,0,0,0,0,0,0,0,0,0,0,0,629.72,0,0,0,0,0,0,0,0,0,269.92,0,0,0,0,0,0,0,0,0,0,0,0,0,3,3,0,0,VALID,0,0,0,0,0,1,0,0,0,0,0,0,0,0,0,0,0,0,0,0,282.72,1071.94,2,0,0.08,0.08,40,10,0.12,0.08,4.1,FLYING,X10-H,0:/Integrated Flight Computer/aircraft/x10_h_cfg.ks (inferred preloaded)
4.4,APPROACH,ILS_TRACK,151.49,152,0.51,707.57,628.33,-4.47,11.67,13.4,269.93,0.243,0,0,-1.022,1,0.6,4.5,0.75,0.35,0.0168,0.4,0,22.031,0,-0.498,0,269.91,0,0,1,-1.73,0,0,0,269.91,0.1332,-0.0016,-0.9911,0,269.91,4.43,-479.76,21.24,-0.092,0,0,3,732.95,5.666,0,1187.44,0,0,0,0,0,0,,0,NONE,0,0,0,0,0,0,0,0,0,0,0,628.33,0,0,0,0,0,0,0,0,0,269.92,0,0,0,0,0,0,0,0,0,0,0,0,0,3,3,0,0,VALID,0,0,0,0,0,1,0,0,0,0,0,0,0,0,0,0,0,0,0,0,262.93,1072.07,2,0,0.08,0.08,43,10,0.12,0.08,4.4,FLYING,X10-H,0:/Integrated Flight Computer/aircraft/x10_h_cfg.ks (inferred preloaded)
4.7,APPROACH,ILS_TRACK,151.19,152,0.81,706.72,627.13,-3.64,13.1,14.49,269.94,0.223,0.0937,0,-0.823,1,0.6,4.5,0.75,0.35,0.0168,0.4,0,22.11,0,-0.776,0,269.91,0,0,1,-1.43,0,0,0,269.91,0.1331,-0.0016,-0.9911,0,269.91,4.33,-478.08,21.192,-0.09,0,0,3,732.95,5.539,0,1184.92,0,0,0,0,0,0,,0,NONE,0,0,0,0,0,0,0,0,0,0,0,627.13,0,0,0,0,0,0,0,0,0,269.92,0,0,0,0,0,0,0,0,0,0,0,0,0,3,3,0,0,VALID,0,0,0,0,0,1,0,0,0,0,0,0,0,0,0,0,0,0,0,0,238.72,1070.92,2,0,0.08,0.08,46,10,0.12,0.08,4.7,FLYING,X10-H,0:/Integrated Flight Computer/aircraft/x10_h_cfg.ks (inferred preloaded)
5,APPROACH,ILS_TRACK,150.64,152,1.36,705.8,626.18,-2.76,13.32,14.32,269.94,0.199,0.2137,0,-0.481,1,0.6,4.5,0.75,0.35,0.0168,0.4,0,22.264,0,-1.324,0,269.91,0,0,1,-1.1,0,0,0,269.91,0.133,-0.0015,-0.9911,0,269.91,4.23,-476.49,21.144,-0.088,0,0,3,732.95,5.292,0,1182.41,0,0,0,0,0,0,,0,NONE,0,0,0,0,0,0,0,0,0,0,0,626.18,0,0,0,0,0,0,0,0,0,269.92,0,0,0,0,0,0,0,0,0,0,0,0,0,3,3,0,0,VALID,0,0,0,0,0,1,0,0,0,0,0,0,0,0,0,0,0,0,0,0,227.89,1068.66,2,0,0.08,0.08,49,10,0.12,0.08,5,FLYING,X10-H,0:/Integrated Flight Computer/aircraft/x10_h_cfg.ks (inferred preloaded)
5.3,APPROACH,ILS_TRACK,150.09,152,1.91,704.81,625.47,-2.11,12.44,13.13,269.93,0.178,0.3337,0,0.031,1,0.6,4.5,0.75,0.35,0.0168,0.4,0,22.422,0,-1.884,0,269.91,0,0,1,-0.82,0,0,0,269.91,0.133,-0.0016,-0.9911,0,269.91,4.14,-474.97,21.097,-0.091,0,0,3,732.95,5.047,0,1179.91,0,0,0,0,0,0,,0,NONE,0,0,0,0,0,0,0,0,0,0,0,625.47,0,0,0,0,0,0,0,0,0,269.92,0,0,0,0,0,0,0,0,0,0,0,0,0,3,3,0,0,VALID,0,0,0,0,0,1,0,0,0,0,0,0,0,0,0,0,0,0,0,0,229.33,1066.38,2,0,0.08,0.08,52,10,0.12,0.08,5.3,FLYING,X10-H,0:/Integrated Flight Computer/aircraft/x10_h_cfg.ks (inferred preloaded)
5.6,APPROACH,ILS_TRACK,149.74,152,2.26,704,624.85,-2.01,11.62,12.32,269.93,0.156,0.4537,0,0.671,1,0.6,4.5,0.75,0.35,0.0168,0.4,0,22.522,0,-2.24,0,269.91,0,0,1,-0.77,0,0,0,269.91,0.1329,-0.0016,-0.9911,0,269.91,4.05,-473.33,21.049,-0.09,0,0,3,732.95,5.813,0,1177.42,0,0,0,0,0,0,,0,NONE,0,0,0,0,0,0,0,0,0,0,0,624.85,0,0,0,0,0,0,0,0,0,269.92,0,0,0,0,0,0,0,0,0,0,0,0,0,3,3,0,0,VALID,0,0,0,0,0,1,0,0,0,0,0,0,0,0,0,0,0,0,0,0,238.39,1064.97,2,0,0.08,0.08,55,10,0.12,0.08,5.6,FLYING,X10-H,0:/Integrated Flight Computer/aircraft/x10_h_cfg.ks (inferred preloaded)
5.9,APPROACH,ILS_TRACK,149.45,152,2.55,703.44,624.27,-1.77,11.66,12.31,269.93,0.141,0.5737,0,1.401,1,0.6,4.5,0.75,0.35,0.0168,0.4,0,22.603,0,-2.527,0,269.91,0,0,1,-0.71,0,0,0,269.92,0.1328,-0.0016,-0.9911,0,269.91,3.97,-471.42,21.001,-0.092,0,0,3,732.95,6.561,0,1174.93,0,0,0,0,0,0,,0,NONE,0,0,0,0,0,0,0,0,0,0,0,624.27,0,0,0,0,0,0,0,0,0,269.92,0,0,0,0,0,0,0,0,0,0,0,0,0,3,3,0,0,VALID,0,0,0,0,0,1,0,0,0,0,0,0,0,0,0,0,0,0,0,0,254.39,1063.82,2,0,0.08,0.08,58,10,0.12,0.08,5.9,FLYING,X10-H,0:/Integrated Flight Computer/aircraft/x10_h_cfg.ks (inferred preloaded)
6.2,APPROACH,ILS_TRACK,149.17,152,2.83,702.85,623.82,-1.36,11.25,11.7,269.92,0.128,0.6002,0,2.219,1,0.6,4.5,0.75,0.35,0.0168,0.4,0,22.685,0,-2.817,0,269.91,0,0,1,-0.53,0,0,0,269.92,0.1327,-0.0015,-0.9912,0,269.91,3.88,-469.51,20.954,-0.087,0,0,3,732.95,6.25,0,1172.44,0,0,0,0,0,0,,0,NONE,0,0,0,0,0,0,0,0,0,0,0,623.82,0,0,0,0,0,0,0,0,0,269.92,0,0,0,0,0,0,0,0,0,0,0,0,0,3,3,0,0,VALID,0,0,0,0,0,1,0,0,0,0,0,0,0,0,0,0,0,0,0,0,275.67,1062.65,2,0,0.08,0.08,61,10,0.12,0.08,6.2,FLYING,X10-H,0:/Integrated Flight Computer/aircraft/x10_h_cfg.ks (inferred preloaded)
6.5,APPROACH,ILS_TRACK,149.03,152,2.97,702.3,623.43,-1.22,10.63,11.04,269.92,0.113,0.5211,0,3.096,1,0.6,4.5,0.75,0.35,0.0168,0.4,0,22.725,0,-2.96,0,269.92,0,0,1,-0.47,0,0,0,269.91,0.1326,-0.0013,-0.9912,0,269.92,3.8,-467.59,20.907,-0.077,0,0,3,732.95,6.487,0,1169.96,0,0,0,0,0,0,,0,NONE,0,0,0,0,0,0,0,0,0,0,0,623.43,0,0,0,0,0,0,0,0,0,269.92,0,0,0,0,0,0,0,0,0,0,0,0,0,3,3,0,0,VALID,0,0,0,0,0,1,0,0,0,0,0,0,0,0,0,0,0,0,0,0,295.65,1062.12,2,0,0.08,0.08,64,10,0.12,0.08,6.5,FLYING,X10-H,0:/Integrated Flight Computer/aircraft/x10_h_cfg.ks (inferred preloaded)
6.86,APPROACH,ILS_TRACK,149,152,3,701.75,623,-1.14,10.21,10.61,269.92,0.102,0.4326,0,4.174,1,0.6,4.5,0.75,0.35,0.0168,0.4,0,22.737,0,-3.003,0,269.92,0,0,1,-0.45,0,0,0,269.92,0.1325,-0.0014,-0.9912,0,269.92,3.7,-465.17,20.85,-0.079,0,0,3,732.95,6.868,0,1166.98,0,0,0,0,0,0,,0,NONE,0,0,0,0,0,0,0,0,0,0,0,623,0,0,0,0,0,0,0,0,0,269.92,0,0,0,0,0,0,0,0,0,0,0,0,0,3,3,0,0,VALID,0,0,0,0,0,1,0,0,0,0,0,0,0,0,0,0,0,0,0,0,311.67,1061.98,2,0,0.12,0.12,67,8.33,0.12,0.08,6.86,FLYING,X10-H,0:/Integrated Flight Computer/aircraft/x10_h_cfg.ks (inferred preloaded)
7.2,APPROACH,ILS_TRACK,149.02,152,2.98,701.34,622.61,-1.07,10.1,10.49,269.92,0.099,0.3641,0,5.193,1,0.6,4.5,0.75,0.35,0.0168,0.4,0,22.732,0,-2.986,0,269.92,0,0,1,-0.43,0,0,0,269.92,0.1325,-0.0013,-0.9912,0,269.92,3.61,-462.77,20.796,-0.076,0,0,3,732.95,7.172,0,1164.16,0,0,0,0,0,0,,0,NONE,0,0,0,0,0,0,0,0,0,0,0,622.61,0,0,0,0,0,0,0,0,0,269.92,0,0,0,0,0,0,0,0,0,0,0,0,0,3,3,0,0,VALID,0,0,0,0,0,1,0,0,0,0,0,0,0,0,0,0,0,0,0,0,320.14,1062.09,2,0,0.1,0.1,70,8.82,0.12,0.1,7.2,FLYING,X10-H,0:/Integrated Flight Computer/aircraft/x10_h_cfg.ks (inferred preloaded)
7.48,APPROACH,ILS_TRACK,149.05,152,2.95,701.02,622.32,-1.11,9.99,10.4,269.92,0.096,0.3213,0,6.024,1,0.6,4.5,0.75,0.35,0.0168,0.4,0,22.724,0,-2.955,0,269.92,0,0,1,-0.42,0,0,0,269.92,0.1324,-0.0014,-0.9912,0,269.92,3.54,-460.78,20.752,-0.08,0,0,3,732.95,7.206,0,1161.85,0,0,0,0,0,0,,0,NONE,0,0,0,0,0,0,0,0,0,0,0,622.32,0,0,0,0,0,0,0,0,0,269.92,0,0,0,0,0,0,0,0,0,0,0,0,0,3,3,0,0,VALID,0,0,0,0,0,1,0,0,0,0,0,0,0,0,0,0,0,0,0,0,323.3,1062.25,2,0,0.08,0.08,73,10.71,0.1,0.08,7.48,FLYING,X10-H,0:/Integrated Flight Computer/aircraft/x10_h_cfg.ks (inferred preloaded)
7.78,APPROACH,ILS_TRACK,149.09,152,2.91,700.72,622.02,-0.94,10.01,10.34,269.92,0.091,0.3054,0,6.901,1,0.6,4.5,0.75,0.35,0.0168,0.4,0,22.712,0,-2.914,0,269.93,0,0,1,-0.36,0,0,0,269.92,0.1323,-0.0012,-0.9912,0,269.93,3.46,-458.6,20.704,-0.068,0,0,3,732.95,7.183,0,1159.36,0,0,0,0,0,0,,0,NONE,0,0,0,0,0,0,0,0,0,0,0,622.02,0,0,0,0,0,0,0,0,0,269.92,0,0,0,0,0,0,0,0,0,0,0,0,0,3,3,0,0,VALID,0,0,0,0,0,1,0,0,0,0,0,0,0,0,0,0,0,0,0,0,324.04,1062.44,2,0,0.08,0.08,76,10,0.12,0.08,7.78,FLYING,X10-H,0:/Integrated Flight Computer/aircraft/x10_h_cfg.ks (inferred preloaded)
8.08,APPROACH,ILS_TRACK,149.15,152,2.85,700.44,621.73,-0.86,10.03,10.33,269.92,0.087,0.291,0,7.764,1,0.6,4.5,0.75,0.35,0.0168,0.4,0,22.696,0,-2.857,0,269.93,0,0,1,-0.34,0,0,0,269.93,0.1322,-0.0011,-0.9912,0,269.93,3.38,-456.4,20.657,-0.066,0,0,3,732.95,7.365,0,1156.88,0,0,0,0,0,0,,0,NONE,0,0,0,0,0,0,0,0,0,0,0,621.73,0,0,0,0,0,0,0,0,0,269.92,0,0,0,0,0,0,0,0,0,0,0,0,0,3,3,0,0,VALID,0,0,0,0,0,1,0,0,0,0,0,0,0,0,0,0,0,0,0,0,323.7,1062.7,2,0,0.08,0.08,79,10,0.12,0.08,8.08,FLYING,X10-H,0:/Integrated Flight Computer/aircraft/x10_h_cfg.ks (inferred preloaded)
8.38,APPROACH,ILS_TRACK,149.2,152,2.8,700.18,621.47,-0.93,10,10.36,269.92,0.085,0.2884,0,8.611,1,0.6,4.5,0.75,0.35,0.0168,0.4,0,22.681,0,-2.804,0,269.93,0,0,1,-0.36,0,0,0,269.93,0.1321,-0.0012,-0.9912,0,269.93,3.31,-454.19,20.61,-0.068,0,0,3,732.95,7.532,0,1154.39,0,0,0,0,0,0,,0,NONE,0,0,0,0,0,0,0,0,0,0,0,621.47,0,0,0,0,0,0,0,0,0,269.92,0,0,0,0,0,0,0,0,0,0,0,0,0,3,3,0,0,VALID,0,0,0,0,0,1,0,0,0,0,0,0,0,0,0,0,0,0,0,0,322.49,1062.95,2,0,0.08,0.08,82,10,0.12,0.08,8.38,FLYING,X10-H,0:/Integrated Flight Computer/aircraft/x10_h_cfg.ks (inferred preloaded)
8.68,APPROACH,ILS_TRACK,149.23,152,2.77,699.92,621.23,-0.77,9.99,10.25,269.92,0.082,0.3093,0,9.445,1,0.6,4.5,0.75,0.35,0.0168,0.4,0,22.672,0,-2.771,0,269.93,0,0,1,-0.29,0,0,0,269.93,0.1321,-0.0012,-0.9912,0,269.93,3.24,-451.95,20.562,-0.071,0,0,3,732.95,7.361,0,1151.91,0,0,0,0,0,0,,0,NONE,0,0,0,0,0,0,0,0,0,0,0,621.23,0,0,0,0,0,0,0,0,0,269.92,0,0,0,0,0,0,0,0,0,0,0,0,0,3,3,0,0,VALID,0,0,0,0,0,1,0,0,0,0,0,0,0,0,0,0,0,0,0,0,321.36,1063.1,2,0,0.08,0.08,85,10,0.12,0.08,8.68,FLYING,X10-H,0:/Integrated Flight Computer/aircraft/x10_h_cfg.ks (inferred preloaded)
8.98,APPROACH,ILS_TRACK,149.28,152,2.72,699.69,621,-0.7,9.98,10.23,269.93,0.081,0.3117,0,10.265,1,0.6,4.5,0.75,0.35,0.0168,0.4,0,22.657,0,-2.719,0,269.93,0,0,1,-0.27,0,0,0,269.93,0.132,-0.0012,-0.9912,0,269.93,3.16,-449.7,20.515,-0.067,0,0,3,732.95,7.489,0,1149.42,0,0,0,0,0,0,,0,NONE,0,0,0,0,0,0,0,0,0,0,0,621,0,0,0,0,0,0,0,0,0,269.92,0,0,0,0,0,0,0,0,0,0,0,0,0,3,3,0,0,VALID,0,0,0,0,0,1,0,0,0,0,0,0,0,0,0,0,0,0,0,0,321.83,1063.33,2,0,0.08,0.08,88,10,0.12,0.08,8.98,FLYING,X10-H,0:/Integrated Flight Computer/aircraft/x10_h_cfg.ks (inferred preloaded)
9.28,APPROACH,ILS_TRACK,149.34,152,2.66,699.49,620.78,-0.67,10.02,10.27,269.93,0.081,0.3147,0,11.07,1,0.6,4.5,0.75,0.35,0.0168,0.4,0,22.642,0,-2.665,0,269.93,0,0,1,-0.27,0,0,0,269.94,0.1319,-0.0012,-0.9913,0,269.93,3.09,-447.42,20.467,-0.071,0,0,3,732.95,7.669,0,1146.93,0,0,0,0,0,0,,0,NONE,0,0,0,0,0,0,0,0,0,0,0,620.78,0,0,0,0,0,0,0,0,0,269.92,0,0,0,0,0,0,0,0,0,0,0,0,0,3,3,0,0,VALID,0,0,0,0,0,1,0,0,0,0,0,0,0,0,0,0,0,0,0,0,322.56,1063.58,2,0,0.08,0.08,91,10,0.12,0.08,9.28,FLYING,X10-H,0:/Integrated Flight Computer/aircraft/x10_h_cfg.ks (inferred preloaded)
9.58,APPROACH,ILS_TRACK,149.39,152,2.61,699.27,620.59,-0.65,9.93,10.18,269.93,0.077,0.322,0,11.861,1,0.6,4.5,0.75,0.35,0.0168,0.4,0,22.628,0,-2.615,0,269.94,0,0,1,-0.25,0,0,0,269.94,0.1318,-0.0011,-0.9913,0,269.94,3.02,-445.15,20.42,-0.061,0,0,3,732.95,7.624,0,1144.45,0,0,0,0,0,0,,0,NONE,0,0,0,0,0,0,0,0,0,0,0,620.59,0,0,0,0,0,0,0,0,0,269.92,0,0,0,0,0,0,0,0,0,0,0,0,0,3,3,0,0,VALID,0,0,0,0,0,1,0,0,0,0,0,0,0,0,0,0,0,0,0,0,323.6,1063.81,2,0,0.08,0.08,94,10,0.12,0.08,9.58,FLYING,X10-H,0:/Integrated Flight Computer/aircraft/x10_h_cfg.ks (inferred preloaded)
9.88,APPROACH,ILS_TRACK,149.46,152,2.54,699.08,620.4,-0.58,9.94,10.15,269.93,0.074,0.3207,0,12.631,1,0.6,4.5,0.75,0.35,0.0168,0.4,0,22.609,0,-2.547,0,269.93,0,0,1,-0.23,0,0,0,269.94,0.1318,-0.0012,-0.9913,0,269.93,2.95,-442.85,20.372,-0.067,0,0,3,732.95,7.693,0,1141.96,0,0,0,0,0,0,,0,NONE,0,0,0,0,0,0,0,0,0,0,0,620.4,0,0,0,0,0,0,0,0,0,269.92,0,0,0,0,0,0,0,0,0,0,0,0,0,3,3,0,0,VALID,0,0,0,0,0,1,0,0,0,0,0,0,0,0,0,0,0,0,0,0,324.79,1064.11,2,0,0.08,0.08,97,10,0.12,0.08,9.88,FLYING,X10-H,0:/Integrated Flight Computer/aircraft/x10_h_cfg.ks (inferred preloaded)
10.18,APPROACH,ILS_TRACK,149.53,152,2.47,698.9,620.23,-0.53,9.91,10.1,269.93,0.071,0.3228,0,13.381,1,0.6,4.5,0.75,0.35,0.0168,0.4,0,22.589,0,-2.477,0,269.95,0,0,1,-0.21,0,0,0,269.93,0.1317,-0.0008,-0.9913,0,269.95,2.88,-440.54,20.325,-0.048,0,0,3,732.95,7.692,0,1139.47,0,0,0,0,0,0,,0,NONE,0,0,0,0,0,0,0,0,0,0,0,620.23,0,0,0,0,0,0,0,0,0,269.92,0,0,0,0,0,0,0,0,0,0,0,0,0,3,3,0,0,VALID,0,0,0,0,0,1,0,0,0,0,0,0,0,0,0,0,0,0,0,0,325.89,1064.41,2,0,0.08,0.08,100,10,0.12,0.08,10.18,FLYING,X10-H,0:/Integrated Flight Computer/aircraft/x10_h_cfg.ks (inferred preloaded)
10.48,APPROACH,ILS_TRACK,149.6,152,2.4,698.73,620.07,-0.52,9.88,10.06,269.93,0.071,0.323,0,14.11,1,0.6,4.5,0.75,0.35,0.0168,0.4,0,22.568,0,-2.402,0,269.95,0,0,1,-0.2,0,0,0,269.94,0.1316,-0.0008,-0.9913,0,269.95,2.81,-438.22,20.277,-0.048,0,0,3,732.95,7.74,0,1136.97,0,0,0,0,0,0,,0,NONE,0,0,0,0,0,0,0,0,0,0,0,620.07,0,0,0,0,0,0,0,0,0,269.92,0,0,0,0,0,0,0,0,0,0,0,0,0,3,3,0,0,VALID,0,0,0,0,0,1,0,0,0,0,0,0,0,0,0,0,0,0,0,0,327.07,1064.74,2,0,0.08,0.08,103,10,0.12,0.08,10.48,FLYING,X10-H,0:/Integrated Flight Computer/aircraft/x10_h_cfg.ks (inferred preloaded)
10.78,APPROACH,ILS_TRACK,149.68,152,2.32,698.58,619.91,-0.46,9.89,10.04,269.93,0.072,0.3274,0,14.814,1,0.6,4.5,0.75,0.35,0.0168,0.4,0,22.546,0,-2.326,0,269.94,0,0,1,-0.17,0,0,0,269.95,0.1315,-0.001,-0.9913,0,269.94,2.75,-435.88,20.23,-0.056,0,0,3,732.95,7.739,0,1134.48,0,0,0,0,0,0,,0,NONE,0,0,0,0,0,0,0,0,0,0,0,619.91,0,0,0,0,0,0,0,0,0,269.92,0,0,0,0,0,0,0,0,0,0,0,0,0,3,3,0,0,VALID,0,0,0,0,0,1,0,0,0,0,0,0,0,0,0,0,0,0,0,0,328.17,1065.06,2,0,0.08,0.08,106,10,0.12,0.08,10.78,FLYING,X10-H,0:/Integrated Flight Computer/aircraft/x10_h_cfg.ks (inferred preloaded)
11.08,APPROACH,ILS_TRACK,149.76,152,2.24,698.43,619.77,-0.44,9.88,10.03,269.93,0.072,0.3283,0,15.496,1,0.6,4.5,0.75,0.35,0.0168,0.4,0,22.524,0,-2.246,0,269.94,0,0,1,-0.17,0,0,0,269.95,0.1314,-0.001,-0.9913,0,269.94,2.68,-433.53,20.182,-0.055,0,0,3,732.95,7.823,0,1131.99,0,0,0,0,0,0,,0,NONE,0,0,0,0,0,0,0,0,0,0,0,619.77,0,0,0,0,0,0,0,0,0,269.92,0,0,0,0,0,0,0,0,0,0,0,0,0,3,3,0,0,VALID,0,0,0,0,0,1,0,0,0,0,0,0,0,0,0,0,0,0,0,0,329.52,1065.41,2,0,0.08,0.08,109,10,0.12,0.08,11.08,FLYING,X10-H,0:/Integrated Flight Computer/aircraft/x10_h_cfg.ks (inferred preloaded)
11.38,APPROACH,ILS_TRACK,149.85,152,2.15,698.3,619.64,-0.4,9.85,9.99,269.93,0.071,0.3251,0,16.153,1,0.6,4.5,0.75,0.35,0.0168,0.4,0,22.499,0,-2.157,0,269.95,0,0,1,-0.16,0,0,0,269.95,0.1314,-0.0009,-0.9913,0,269.95,2.61,-431.18,20.134,-0.05,0,0,3,732.95,7.891,0,1129.49,0,0,0,0,0,0,,0,NONE,0,0,0,0,0,0,0,0,0,0,0,619.64,0,0,0,0,0,0,0,0,0,269.92,0,0,0,0,0,0,0,0,0,0,0,0,0,3,3,0,0,VALID,0,0,0,0,0,1,0,0,0,0,0,0,0,0,0,0,0,0,0,0,330.84,1065.8,2,0,0.08,0.08,112,10,0.12,0.08,11.38,FLYING,X10-H,0:/Integrated Flight Computer/aircraft/x10_h_cfg.ks (inferred preloaded)
11.68,APPROACH,ILS_TRACK,149.94,152,2.06,698.17,619.51,-0.38,9.85,9.99,269.93,0.071,0.3228,0,16.782,1,0.6,4.5,0.75,0.35,0.0168,0.4,0,22.473,0,-2.064,0,269.95,0,0,1,-0.16,0,0,0,269.95,0.1313,-0.0009,-0.9913,0,269.95,2.55,-428.81,20.087,-0.049,0,0,3,732.95,7.966,0,1127,0,0,0,0,0,0,,0,NONE,0,0,0,0,0,0,0,0,0,0,0,619.51,0,0,0,0,0,0,0,0,0,269.92,0,0,0,0,0,0,0,0,0,0,0,0,0,3,3,0,0,VALID,0,0,0,0,0,1,0,0,0,0,0,0,0,0,0,0,0,0,0,0,331.9,1066.2,2,0,0.08,0.08,115,10,0.12,0.08,11.68,FLYING,X10-H,0:/Integrated Flight Computer/aircraft/x10_h_cfg.ks (inferred preloaded)
11.98,APPROACH,ILS_TRACK,150.04,152,1.96,698.04,619.4,-0.35,9.8,9.93,269.93,0.071,0.3221,0,17.383,1,0.6,4.5,0.75,0.35,0.0168,0.4,0,22.446,0,-1.971,0,269.95,0,0,1,-0.14,0,0,0,269.96,0.1312,-0.0008,-0.9914,0,269.95,2.48,-426.44,20.039,-0.046,0,0,3,732.95,7.928,0,1124.5,0,0,0,0,0,0,,0,NONE,0,0,0,0,0,0,0,0,0,0,0,619.4,0,0,0,0,0,0,0,0,0,269.92,0,0,0,0,0,0,0,0,0,0,0,0,0,3,3,0,0,VALID,0,0,0,0,0,1,0,0,0,0,0,0,0,0,0,0,0,0,0,0,332.82,1066.6,2,0,0.08,0.08,118,10,0.12,0.08,11.98,FLYING,X10-H,0:/Integrated Flight Computer/aircraft/x10_h_cfg.ks (inferred preloaded)
12.28,APPROACH,ILS_TRACK,150.14,152,1.86,697.93,619.29,-0.33,9.78,9.89,269.94,0.072,0.3178,0,17.953,1,0.6,4.5,0.75,0.35,0.0168,0.4,0,22.417,0,-1.867,0,269.96,0,0,1,-0.13,0,0,0,269.95,0.1311,-0.0007,-0.9914,0,269.96,2.42,-424.06,19.991,-0.039,0,0,3,732.95,7.952,0,1122,0,0,0,0,0,0,,0,NONE,0,0,0,0,0,0,0,0,0,0,0,619.29,0,0,0,0,0,0,0,0,0,269.92,0,0,0,0,0,0,0,0,0,0,0,0,0,3,3,0,0,VALID,0,0,0,0,0,1,0,0,0,0,0,0,0,0,0,0,0,0,0,0,333.53,1067.04,2,0,0.08,0.08,121,10,0.12,0.08,12.28,FLYING,X10-H,0:/Integrated Flight Computer/aircraft/x10_h_cfg.ks (inferred preloaded)
12.58,APPROACH,ILS_TRACK,150.25,152,1.75,697.82,619.19,-0.32,9.77,9.87,269.94,0.07,0.315,0,18.492,1,0.6,4.5,0.75,0.35,0.0168,0.4,0,22.387,0,-1.761,0,269.95,0,0,1,-0.12,0,0,0,269.96,0.131,-0.0008,-0.9914,0,269.95,2.36,-421.66,19.944,-0.048,0,0,3,732.95,7.978,0,1119.5,0,0,0,0,0,0,,0,NONE,0,0,0,0,0,0,0,0,0,0,0,619.19,0,0,0,0,0,0,0,0,0,269.92,0,0,0,0,0,0,0,0,0,0,0,0,0,3,3,0,0,VALID,0,0,0,0,0,1,0,0,0,0,0,0,0,0,0,0,0,0,0,0,333.96,1067.49,2,0,0.08,0.08,124,10,0.12,0.08,12.58,FLYING,X10-H,0:/Integrated Flight Computer/aircraft/x10_h_cfg.ks (inferred preloaded)
12.88,APPROACH,ILS_TRACK,150.35,152,1.65,697.72,619.09,-0.3,9.74,9.84,269.94,0.066,0.3127,0,18.999,1,0.6,4.5,0.75,0.35,0.0168,0.4,0,22.357,0,-1.654,0,269.96,0,0,1,-0.12,0,0,0,269.96,0.131,-0.0007,-0.9914,0,269.96,2.29,-419.26,19.896,-0.04,0,0,3,732.95,8.013,0,1116.99,0,0,0,0,0,0,,0,NONE,0,0,0,0,0,0,0,0,0,0,0,619.09,0,0,0,0,0,0,0,0,0,269.92,0,0,0,0,0,0,0,0,0,0,0,0,0,3,3,0,0,VALID,0,0,0,0,0,1,0,0,0,0,0,0,0,0,0,0,0,0,0,0,334.23,1067.95,2,0,0.08,0.08,127,10,0.12,0.08,12.88,FLYING,X10-H,0:/Integrated Flight Computer/aircraft/x10_h_cfg.ks (inferred preloaded)
13.18,APPROACH,ILS_TRACK,150.46,152,1.54,697.63,619,-0.3,9.72,9.83,269.94,0.067,0.3093,0,19.473,1,0.6,4.5,0.75,0.35,0.0168,0.4,0,22.326,0,-1.543,0,269.96,0,0,1,-0.11,0,0,0,269.96,0.1309,-0.0007,-0.9914,0,269.96,2.23,-416.85,19.848,-0.04,0,0,3,732.95,8.032,0,1114.49,0,0,0,0,0,0,,0,NONE,0,0,0,0,0,0,0,0,0,0,0,619,0,0,0,0,0,0,0,0,0,269.92,0,0,0,0,0,0,0,0,0,0,0,0,0,3,3,0,0,VALID,0,0,0,0,0,1,0,0,0,0,0,0,0,0,0,0,0,0,0,0,334.23,1068.43,2,0,0.08,0.08,130,10,0.12,0.08,13.18,FLYING,X10-H,0:/Integrated Flight Computer/aircraft/x10_h_cfg.ks (inferred preloaded)
13.48,APPROACH,ILS_TRACK,150.58,152,1.42,697.54,618.92,-0.28,9.7,9.81,269.94,0.066,0.3067,0,19.913,1,0.6,4.5,0.75,0.35,0.0168,0.4,0,22.294,0,-1.431,0,269.97,0,0,1,-0.1,0,0,0,269.96,0.1308,-0.0006,-0.9914,0,269.97,2.17,-414.43,19.8,-0.032,0,0,3,732.95,8.061,0,1111.98,0,0,0,0,0,0,,0,NONE,0,0,0,0,0,0,0,0,0,0,0,618.92,0,0,0,0,0,0,0,0,0,269.92,0,0,0,0,0,0,0,0,0,0,0,0,0,3,3,0,0,VALID,0,0,0,0,0,1,0,0,0,0,0,0,0,0,0,0,0,0,0,0,333.94,1068.9,2,0,0.08,0.08,133,10,0.12,0.08,13.48,FLYING,X10-H,0:/Integrated Flight Computer/aircraft/x10_h_cfg.ks (inferred preloaded)
13.78,APPROACH,ILS_TRACK,150.69,152,1.31,697.46,618.84,-0.25,9.7,9.79,269.94,0.065,0.3005,0,20,1,0.6,4.5,0.75,0.35,0.0168,0.4,0,22.263,0,-1.321,0,269.96,0,0,1,-0.1,0,0,0,269.97,0.1307,-0.0007,-0.9914,0,269.96,2.11,-412,19.752,-0.039,0,0,3,732.95,8.131,0,1109.47,0,0,0,0,0,0,,0,NONE,0,0,0,0,0,0,0,0,0,0,0,618.84,0,0,0,0,0,0,0,0,0,269.92,0,0,0,0,0,0,0,0,0,0,0,0,0,3,3,0,0,VALID,0,0,0,0,0,1,0,0,0,0,0,0,0,0,0,0,0,0,0,0,333.31,1069.37,2,0,0.08,0.08,136,10,0.12,0.08,13.78,FLYING,X10-H,0:/Integrated Flight Computer/aircraft/x10_h_cfg.ks (inferred preloaded)
14.08,APPROACH,ILS_TRACK,150.79,152,1.21,697.38,618.77,-0.22,9.68,9.75,269.94,0.066,0.2942,0,20,1,0.6,4.5,0.75,0.35,0.0168,0.4,0,22.233,0,-1.214,0,269.97,0,0,1,-0.08,0,0,0,269.97,0.1307,-0.0005,-0.9914,0,269.97,2.05,-409.57,19.705,-0.03,0,0,3,732.95,8.118,0,1106.96,0,0,0,0,0,0,,0,NONE,0,0,0,0,0,0,0,0,0,0,0,618.77,0,0,0,0,0,0,0,0,0,269.92,0,0,0,0,0,0,0,0,0,0,0,0,0,3,3,0,0,VALID,0,0,0,0,0,1,0,0,0,0,0,0,0,0,0,0,0,0,0,0,332.07,1069.82,2,0,0.08,0.08,139,10,0.12,0.08,14.08,FLYING,X10-H,0:/Integrated Flight Computer/aircraft/x10_h_cfg.ks (inferred preloaded)
14.38,APPROACH,ILS_TRACK,150.9,152,1.1,697.31,618.71,-0.2,9.67,9.74,269.94,0.066,0.2891,0,20,1,0.6,4.5,0.75,0.35,0.0168,0.4,0,22.203,0,-1.109,0,269.96,0,0,1,-0.08,0,0,0,269.97,0.1306,-0.0007,-0.9914,0,269.96,2,-407.13,19.657,-0.038,0,0,3,732.95,8.163,0,1104.45,0,0,0,0,0,0,,0,NONE,0,0,0,0,0,0,0,0,0,0,0,618.71,0,0,0,0,0,0,0,0,0,269.92,0,0,0,0,0,0,0,0,0,0,0,0,0,3,3,0,0,VALID,0,0,0,0,0,1,0,0,0,0,0,0,0,0,0,0,0,0,0,0,330.32,1070.27,2,0,0.08,0.08,142,10,0.12,0.08,14.38,FLYING,X10-H,0:/Integrated Flight Computer/aircraft/x10_h_cfg.ks (inferred preloaded)
14.68,APPROACH,ILS_TRACK,151,152,1,697.25,618.65,-0.19,9.65,9.72,269.94,0.063,0.2853,0,20,1,0.6,4.5,0.75,0.35,0.0168,0.4,0,22.175,0,-1.008,0,269.97,0,0,1,-0.07,0,0,0,269.96,0.1305,-0.0005,-0.9914,0,269.97,1.94,-404.68,19.609,-0.026,0,0,3,732.95,8.184,0,1101.94,0,0,0,0,0,0,,0,NONE,0,0,0,0,0,0,0,0,0,0,0,618.65,0,0,0,0,0,0,0,0,0,269.92,0,0,0,0,0,0,0,0,0,0,0,0,0,3,3,0,0,VALID,0,0,0,0,0,1,0,0,0,0,0,0,0,0,0,0,0,0,0,0,328.25,1070.7,2,0,0.08,0.08,145,10,0.12,0.08,14.68,FLYING,X10-H,0:/Integrated Flight Computer/aircraft/x10_h_cfg.ks (inferred preloaded)
14.98,APPROACH,ILS_TRACK,151.09,152,0.91,697.19,618.59,-0.18,9.64,9.7,269.94,0.062,0.2835,0,20,1,0.6,4.5,0.75,0.35,0.0168,0.4,0,22.148,0,-0.912,0,269.98,0,0,1,-0.07,0,0,0,269.97,0.1304,-0.0004,-0.9915,0,269.98,1.88,-402.22,19.561,-0.024,0,0,3,732.95,8.197,0,1099.42,0,0,0,0,0,0,,0,NONE,0,0,0,0,0,0,0,0,0,0,0,618.59,0,0,0,0,0,0,0,0,0,269.92,0,0,0,0,0,0,0,0,0,0,0,0,0,3,3,0,0,VALID,0,0,0,0,0,1,0,0,0,0,0,0,0,0,0,0,0,0,0,0,326.02,1071.1,2,0,0.08,0.08,148,10,0.12,0.08,14.98,FLYING,X10-H,0:/Integrated Flight Computer/aircraft/x10_h_cfg.ks (inferred preloaded)
15.28,APPROACH,ILS_TRACK,151.18,152,0.82,697.14,618.54,-0.17,9.64,9.69,269.94,0.063,0.2839,0,20,1,0.6,4.5,0.75,0.35,0.0168,0.4,0,22.123,0,-0.823,0,269.98,0,0,1,-0.06,0,0,0,269.97,0.1303,-0.0003,-0.9915,0,269.98,1.82,-399.76,19.513,-0.016,0,0,3,732.95,8.217,0,1096.91,0,0,0,0,0,0,,0,NONE,0,0,0,0,0,0,0,0,0,0,0,618.54,0,0,0,0,0,0,0,0,0,269.92,0,0,0,0,0,0,0,0,0,0,0,0,0,3,3,0,0,VALID,0,0,0,0,0,1,0,0,0,0,0,0,0,0,0,0,0,0,0,0,323.87,1071.48,2,0,0.08,0.08,151,10,0.12,0.08,15.28,FLYING,X10-H,0:/Integrated Flight Computer/aircraft/x10_h_cfg.ks (inferred preloaded)
15.58,APPROACH,ILS_TRACK,151.26,152,0.74,697.09,618.49,-0.14,9.63,9.68,269.94,0.062,0.285,0,20,1,0.6,4.5,0.75,0.35,0.0168,0.4,0,22.1,0,-0.74,0,269.98,0,0,1,-0.06,0,0,0,269.97,0.1303,-0.0004,-0.9915,0,269.98,1.77,-397.29,19.465,-0.023,0,0,3,732.95,8.248,0,1094.39,0,0,0,0,0,0,,0,NONE,0,0,0,0,0,0,0,0,0,0,0,618.49,0,0,0,0,0,0,0,0,0,269.92,0,0,0,0,0,0,0,0,0,0,0,0,0,3,3,0,0,VALID,0,0,0,0,0,1,0,0,0,0,0,0,0,0,0,0,0,0,0,0,322,1071.83,2,0,0.08,0.08,154,10,0.12,0.08,15.58,FLYING,X10-H,0:/Integrated Flight Computer/aircraft/x10_h_cfg.ks (inferred preloaded)
15.88,APPROACH,ILS_TRACK,151.34,152,0.66,697.05,618.45,-0.13,9.62,9.67,269.94,0.062,0.2863,0,20,1,0.6,4.5,0.75,0.35,0.0168,0.4,0,22.078,0,-0.663,0,269.97,0,0,1,-0.05,0,0,0,269.98,0.1302,-0.0005,-0.9915,0,269.97,1.71,-394.82,19.417,-0.029,0,0,3,732.95,8.263,0,1091.87,0,0,0,0,0,0,,0,NONE,0,0,0,0,0,0,0,0,0,0,0,618.45,0,0,0,0,0,0,0,0,0,269.92,0,0,0,0,0,0,0,0,0,0,0,0,0,3,3,0,0,VALID,0,0,0,0,0,1,0,0,0,0,0,0,0,0,0,0,0,0,0,0,320.45,1072.16,2,0,0.08,0.08,157,10,0.12,0.08,15.88,FLYING,X10-H,0:/Integrated Flight Computer/aircraft/x10_h_cfg.ks (inferred preloaded)
16.18,APPROACH,ILS_TRACK,151.41,152,0.59,697.01,618.42,-0.11,9.62,9.66,269.94,0.062,0.2871,0,20,1,0.6,4.5,0.75,0.35,0.0168,0.4,0,22.057,0,-0.591,0,269.98,0,0,1,-0.04,0,0,0,269.98,0.1301,-0.0004,-0.9915,0,269.98,1.66,-392.33,19.369,-0.02,0,0,3,732.95,8.279,0,1089.35,0,0,0,0,0,0,,0,NONE,0,0,0,0,0,0,0,0,0,0,0,618.42,0,0,0,0,0,0,0,0,0,269.92,0,0,0,0,0,0,0,0,0,0,0,0,0,3,3,0,0,VALID,0,0,0,0,0,1,0,0,0,0,0,0,0,0,0,0,0,0,0,0,319.19,1072.46,2,0,0.08,0.08,160,10,0.12,0.08,16.18,FLYING,X10-H,0:/Integrated Flight Computer/aircraft/x10_h_cfg.ks (inferred preloaded)
16.48,APPROACH,ILS_TRACK,151.48,152,0.52,696.98,618.39,-0.1,9.61,9.64,269.94,0.061,0.2874,0,20,1,0.6,4.5,0.75,0.35,0.0168,0.4,0,22.038,0,-0.522,0,269.98,0,0,1,-0.04,0,0,0,269.98,0.13,-0.0004,-0.9915,0,269.98,1.61,-389.85,19.32,-0.023,0,0,3,732.95,8.293,0,1086.83,0,0,0,0,0,0,,0,NONE,0,0,0,0,0,0,0,0,0,0,0,618.39,0,0,0,0,0,0,0,0,0,269.92,0,0,0,0,0,0,0,0,0,0,0,0,0,3,3,0,0,VALID,0,0,0,0,0,1,0,0,0,0,0,0,0,0,0,0,0,0,0,0,318.13,1072.75,2,0,0.08,0.08,163,10,0.12,0.08,16.48,FLYING,X10-H,0:/Integrated Flight Computer/aircraft/x10_h_cfg.ks (inferred preloaded)
16.78,APPROACH,ILS_TRACK,151.55,152,0.45,696.95,618.36,-0.08,9.6,9.63,269.95,0.062,0.2873,0,20,1,0.6,4.5,0.75,0.35,0.0168,0.4,0,22.02,0,-0.457,0,269.98,0,0,1,-0.03,0,0,0,269.98,0.1299,-0.0003,-0.9915,0,269.98,1.55,-387.35,19.272,-0.018,0,0,3,732.95,8.311,0,1084.31,0,0,0,0,0,0,,0,NONE,0,0,0,0,0,0,0,0,0,0,0,618.36,0,0,0,0,0,0,0,0,0,269.92,0,0,0,0,0,0,0,0,0,0,0,0,0,3,3,0,0,VALID,0,0,0,0,0,1,0,0,0,0,0,0,0,0,0,0,0,0,0,0,317.21,1073.03,2,0,0.08,0.08,166,10,0.12,0.08,16.78,FLYING,X10-H,0:/Integrated Flight Computer/aircraft/x10_h_cfg.ks (inferred preloaded)
17.08,APPROACH,ILS_TRACK,151.61,152,0.39,696.93,618.34,-0.07,9.6,9.62,269.95,0.061,0.287,0,20,1,0.6,4.5,0.75,0.35,0.0168,0.4,0,22.002,0,-0.394,0,269.98,0,0,1,-0.03,0,0,0,269.98,0.1299,-0.0003,-0.9915,0,269.98,1.5,-384.86,19.224,-0.019,0,0,3,732.95,8.332,0,1081.78,0,0,0,0,0,0,,0,NONE,0,0,0,0,0,0,0,0,0,0,0,618.34,0,0,0,0,0,0,0,0,0,269.92,0,0,0,0,0,0,0,0,0,0,0,0,0,3,3,0,0,VALID,0,0,0,0,0,1,0,0,0,0,0,0,0,0,0,0,0,0,0,0,316.37,1073.29,2,0,0.08,0.08,169,10,0.12,0.08,17.08,FLYING,X10-H,0:/Integrated Flight Computer/aircraft/x10_h_cfg.ks (inferred preloaded)
17.38,APPROACH,ILS_TRACK,151.67,152,0.33,696.91,618.32,-0.05,9.59,9.61,269.95,0.061,0.2862,0,20,1,0.6,4.5,0.75,0.35,0.0168,0.4,0,21.985,0,-0.335,0,269.98,0,0,1,-0.02,0,0,0,269.98,0.1298,-0.0003,-0.9915,0,269.98,1.45,-382.35,19.176,-0.017,0,0,3,732.95,8.353,0,1079.26,0,0,0,0,0,0,,0,NONE,0,0,0,0,0,0,0,0,0,0,0,618.32,0,0,0,0,0,0,0,0,0,269.92,0,0,0,0,0,0,0,0,0,0,0,0,0,3,3,0,0,VALID,0,0,0,0,0,1,0,0,0,0,0,0,0,0,0,0,0,0,0,0,315.57,1073.55,2,0,0.08,0.08,172,10,0.12,0.08,17.38,FLYING,X10-H,0:/Integrated Flight Computer/aircraft/x10_h_cfg.ks (inferred preloaded)
17.68,APPROACH,ILS_TRACK,151.73,152,0.27,696.89,618.31,-0.04,9.59,9.6,269.95,0.061,0.2855,0,20,1,0.6,4.5,0.75,0.35,0.0168,0.4,0,21.969,0,-0.277,0,269.98,0,0,1,-0.02,0,0,0,269.98,0.1297,-0.0003,-0.9916,0,269.98,1.39,-379.84,19.128,-0.017,0,0,3,732.95,8.364,0,1076.74,0,0,0,0,0,0,,0,NONE,0,0,0,0,0,0,0,0,0,0,0,618.31,0,0,0,0,0,0,0,0,0,269.92,0,0,0,0,0,0,0,0,0,0,0,0,0,3,3,0,0,VALID,0,0,0,0,0,1,0,0,0,0,0,0,0,0,0,0,0,0,0,0,314.78,1073.79,2,0,0.08,0.08,175,10,0.12,0.08,17.68,FLYING,X10-H,0:/Integrated Flight Computer/aircraft/x10_h_cfg.ks (inferred preloaded)
17.98,APPROACH,ILS_TRACK,151.78,152,0.22,696.88,618.29,-0.05,9.58,9.6,269.95,0.06,0.2848,0,20,1,0.6,4.5,0.75,0.35,0.0168,0.4,0,21.954,0,-0.223,0,269.99,0,0,1,-0.02,0,0,0,269.99,0.1296,-0.0002,-0.9916,0,269.99,1.34,-377.33,19.08,-0.011,0,0,3,732.95,8.383,0,1074.21,0,0,0,0,0,0,,0,NONE,0,0,0,0,0,0,0,0,0,0,0,618.29,0,0,0,0,0,0,0,0,0,269.92,0,0,0,0,0,0,0,0,0,0,0,0,0,3,3,0,0,VALID,0,0,0,0,0,1,0,0,0,0,0,0,0,0,0,0,0,0,0,0,313.98,1074.02,2,0,0.08,0.08,178,10,0.12,0.08,17.98,FLYING,X10-H,0:/Integrated Flight Computer/aircraft/x10_h_cfg.ks (inferred preloaded)
18.28,APPROACH,ILS_TRACK,151.83,152,0.17,696.87,618.29,-0.01,9.58,9.58,269.95,0.06,0.288,0,20,1,0.6,4.5,0.75,0.35,0.0168,0.4,0,21.941,0,-0.176,0,269.99,0,0,1,0,0,0,0,269.99,0.1295,-0.0002,-0.9916,0,269.99,1.29,-374.81,19.031,-0.01,0,0,3,732.95,8.411,0,1071.68,0,0,0,0,0,0,,0,NONE,0,0,0,0,0,0,0,0,0,0,0,618.29,0,0,0,0,0,0,0,0,0,269.92,0,0,0,0,0,0,0,0,0,0,0,0,0,3,3,0,0,VALID,0,0,0,0,0,1,0,0,0,0,0,0,0,0,0,0,0,0,0,0,313.29,1074.22,2,0,0.08,0.08,181,10,0.12,0.08,18.28,FLYING,X10-H,0:/Integrated Flight Computer/aircraft/x10_h_cfg.ks (inferred preloaded)
18.58,APPROACH,ILS_TRACK,151.88,152,0.12,696.87,618.29,0,9.57,9.57,269.95,0.06,0.2856,0,20,1,0.6,4.5,0.75,0.35,0.0168,0.4,0,21.927,0,-0.126,0,269.99,0,0,1,0,0,0,0,269.99,0.1295,-0.0002,-0.9916,0,269.99,1.24,-372.29,18.983,-0.01,0,0,3,732.95,8.418,0,1069.16,0,0,0,0,0,0,,0,NONE,0,0,0,0,0,0,0,0,0,0,0,618.29,0,0,0,0,0,0,0,0,0,269.92,0,0,0,0,0,0,0,0,0,0,0,0,0,3,3,0,0,VALID,0,0,0,0,0,1,0,0,0,0,0,0,0,0,0,0,0,0,0,0,312.88,1074.43,2,0,0.08,0.08,184,10,0.12,0.08,18.58,FLYING,X10-H,0:/Integrated Flight Computer/aircraft/x10_h_cfg.ks (inferred preloaded)
18.88,APPROACH,ILS_TRACK,151.93,152,0.07,696.87,618.29,0.01,9.57,9.56,269.95,0.06,0.2833,0,20,1,0.6,4.5,0.75,0.35,0.0168,0.4,0,21.913,0,-0.077,0,270,0,0,1,0.01,0,0,0,269.99,0.1294,0,-0.9916,0,270,1.19,-369.76,18.935,0,0,0,3,732.95,8.43,0,1066.63,0,0,0,0,0,0,,0,NONE,0,0,0,0,0,0,0,0,0,0,0,618.29,0,0,0,0,0,0,0,0,0,269.92,0,0,0,0,0,0,0,0,0,0,0,0,0,3,3,0,0,VALID,0,0,0,0,0,1,0,0,0,0,0,0,0,0,0,0,0,0,0,0,312.26,1074.63,2,0,0.08,0.08,187,10,0.12,0.08,18.88,FLYING,X10-H,0:/Integrated Flight Computer/aircraft/x10_h_cfg.ks (inferred preloaded)
19.18,APPROACH,ILS_TRACK,151.97,152,0.03,696.88,618.3,0.02,9.56,9.56,269.95,0.061,0.2816,0,20,1,0.6,4.5,0.75,0.35,0.0168,0.4,0,21.899,0,-0.03,0,269.99,0,0,1,0.01,0,0,0,269.99,0.1293,-0.0001,-0.9916,0,269.99,1.15,-367.22,18.887,-0.005,0,0,3,732.95,8.449,0,1064.1,0,0,0,0,0,0,,0,NONE,0,0,0,0,0,0,0,0,0,0,0,618.3,0,0,0,0,0,0,0,0,0,269.92,0,0,0,0,0,0,0,0,0,0,0,0,0,3,3,0,0,VALID,0,0,0,0,0,1,0,0,0,0,0,0,0,0,0,0,0,0,0,0,311.47,1074.83,2,0,0.08,0.08,190,10,0.12,0.08,19.18,FLYING,X10-H,0:/Integrated Flight Computer/aircraft/x10_h_cfg.ks (inferred preloaded)
19.48,APPROACH,ILS_TRACK,152.02,152,-0.02,696.88,618.3,0.03,9.56,9.55,269.95,0.061,0.2808,0,19.999,1,0.6,4.5,0.75,0.35,0.0168,0.4,0,21.887,0,0.014,0,269.99,0,0,1,0.01,0,0,0,270,0.1292,-0.0001,-0.9916,0,269.99,1.1,-364.69,18.838,-0.009,0,0,3,732.95,8.465,0,1061.57,0,0,0,0,0,0,,0,NONE,0,0,0,0,0,0,0,0,0,0,0,618.3,0,0,0,0,0,0,0,0,0,269.92,0,0,0,0,0,0,0,0,0,0,0,0,0,3,3,0,0,VALID,0,0,0,0,0,1,0,0,0,0,0,0,0,0,0,0,0,0,0,0,310.61,1075.02,2,0,0.08,0.08,193,10,0.12,0.08,19.48,FLYING,X10-H,0:/Integrated Flight Computer/aircraft/x10_h_cfg.ks (inferred preloaded)
19.78,APPROACH,ILS_TRACK,152.06,152,-0.06,696.9,618.32,0.05,9.56,9.54,269.95,0.061,0.2804,0,19.986,1,0.6,4.5,0.75,0.35,0.0168,0.4,0,21.875,0,0.056,0,270,0,0,1,0.02,0,0,0,270,0.1291,0,-0.9916,0,270,1.05,-362.14,18.79,0.001,0,0,3,732.95,8.48,0,1059.04,0,0,0,0,0,0,,0,NONE,0,0,0,0,0,0,0,0,0,0,0,618.32,0,0,0,0,0,0,0,0,0,269.92,0,0,0,0,0,0,0,0,0,0,0,0,0,3,3,0,0,VALID,0,0,0,0,0,1,0,0,0,0,0,0,0,0,0,0,0,0,0,0,309.76,1075.2,2,0,0.08,0.08,196,10,0.12,0.08,19.78,FLYING,X10-H,0:/Integrated Flight Computer/aircraft/x10_h_cfg.ks (inferred preloaded)
20.08,APPROACH,ILS_TRACK,152.1,152,-0.1,696.91,618.33,0.06,9.56,9.54,269.95,0.061,0.2803,0,19.961,1,0.6,4.5,0.75,0.35,0.0168,0.4,0,21.864,0,0.095,0,270,0,0,1,0.02,0,0,0,269.99,0.1291,0,-0.9916,0,270,1,-359.6,18.742,0.001,0,0,3,732.95,8.495,0,1056.51,0,0,0,0,0,0,,0,NONE,0,0,0,0,0,0,0,0,0,0,0,618.33,0,0,0,0,0,0,0,0,0,269.92,0,0,0,0,0,0,0,0,0,0,0,0,0,3,3,0,0,VALID,0,0,0,0,0,1,0,0,0,0,0,0,0,0,0,0,0,0,0,0,308.96,1075.36,2,0,0.08,0.08,199,10,0.12,0.08,20.08,FLYING,X10-H,0:/Integrated Flight Computer/aircraft/x10_h_cfg.ks (inferred preloaded)
20.38,APPROACH,ILS_TRACK,152.13,152,-0.13,696.93,618.35,0.07,9.55,9.53,269.95,0.062,0.2801,0,19.925,1,0.6,4.5,0.75,0.35,0.0168,0.4,0,21.854,0,0.132,0,270,0,0,1,0.03,0,0,0,270,0.129,0,-0.9916,0,270,0.96,-357.05,18.694,0.002,0,0,3,732.95,8.51,0,1053.97,0,0,0,0,0,0,,0,NONE,0,0,0,0,0,0,0,0,0,0,0,618.35,0,0,0,0,0,0,0,0,0,269.92,0,0,0,0,0,0,0,0,0,0,0,0,0,3,3,0,0,VALID,0,0,0,0,0,1,0,0,0,0,0,0,0,0,0,0,0,0,0,0,308.24,1075.51,2,0,0.08,0.08,202,10,0.12,0.08,20.38,FLYING,X10-H,0:/Integrated Flight Computer/aircraft/x10_h_cfg.ks (inferred preloaded)
20.68,APPROACH,ILS_TRACK,152.17,152,-0.17,696.95,618.38,0.08,9.55,9.52,269.96,0.063,0.2796,0,19.878,1,0.6,4.5,0.75,0.35,0.0168,0.4,0,21.844,0,0.166,0,270,0,0,1,0.03,0,0,0,270,0.1289,0,-0.9917,0,270,0.91,-354.49,18.645,0.002,0,0,3,732.95,8.517,0,1051.44,0,0,0,0,0,0,,0,NONE,0,0,0,0,0,0,0,0,0,0,0,618.38,0,0,0,0,0,0,0,0,0,269.92,0,0,0,0,0,0,0,0,0,0,0,0,0,3,3,0,0,VALID,0,0,0,0,0,1,0,0,0,0,0,0,0,0,0,0,0,0,0,0,307.55,1075.65,2,0,0.08,0.08,205,10,0.12,0.08,20.68,FLYING,X10-H,0:/Integrated Flight Computer/aircraft/x10_h_cfg.ks (inferred preloaded)
20.98,APPROACH,ILS_TRACK,152.2,152,-0.2,696.98,618.4,0.09,9.55,9.52,269.96,0.064,0.2791,0,19.822,1,0.6,4.5,0.75,0.35,0.0168,0.4,0,21.835,0,0.198,0,270.01,0,0,1,0.04,0,0,0,270,0.1288,0.0001,-0.9917,0,270.01,0.87,-351.93,18.597,0.006,0,0,3,732.95,8.53,0,1048.91,0,0,0,0,0,0,,0,NONE,0,0,0,0,0,0,0,0,0,0,0,618.4,0,0,0,0,0,0,0,0,0,269.92,0,0,0,0,0,0,0,0,0,0,0,0,0,3,3,0,0,VALID,0,0,0,0,0,1,0,0,0,0,0,0,0,0,0,0,0,0,0,0,306.88,1075.79,2,0,0.08,0.08,208,10,0.12,0.08,20.98,FLYING,X10-H,0:/Integrated Flight Computer/aircraft/x10_h_cfg.ks (inferred preloaded)
21.28,APPROACH,ILS_TRACK,152.23,152,-0.23,697.01,618.43,0.1,9.55,9.51,269.96,0.064,0.2784,0,19.756,1,0.6,4.5,0.75,0.35,0.0168,0.4,0,21.827,0,0.228,0,270,0,0,1,0.04,0,0,0,270,0.1287,0,-0.9917,0,270,0.82,-349.37,18.549,0.001,0,0,3,732.95,8.542,0,1046.38,0,0,0,0,0,0,,0,NONE,0,0,0,0,0,0,0,0,0,0,0,618.43,0,0,0,0,0,0,0,0,0,269.92,0,0,0,0,0,0,0,0,0,0,0,0,0,3,3,0,0,VALID,0,0,0,0,0,1,0,0,0,0,0,0,0,0,0,0,0,0,0,0,306.22,1075.91,2,0,0.08,0.08,211,10,0.12,0.08,21.28,FLYING,X10-H,0:/Integrated Flight Computer/aircraft/x10_h_cfg.ks (inferred preloaded)
21.58,APPROACH,ILS_TRACK,152.26,152,-0.26,697.04,618.47,0.11,9.55,9.51,269.96,0.064,0.2778,0,19.682,1,0.6,4.5,0.75,0.35,0.0168,0.4,0,21.819,0,0.256,0,270,0,0,1,0.04,0,0,0,270.01,0.1287,0,-0.9917,0,270,0.78,-346.81,18.5,0.003,0,0,3,732.95,8.555,0,1043.84,0,0,0,0,0,0,,0,NONE,0,0,0,0,0,0,0,0,0,0,0,618.47,0,0,0,0,0,0,0,0,0,269.92,0,0,0,0,0,0,0,0,0,0,0,0,0,3,3,0,0,VALID,0,0,0,0,0,1,0,0,0,0,0,0,0,0,0,0,0,0,0,0,305.55,1076.03,2,0,0.08,0.08,214,10,0.12,0.08,21.58,FLYING,X10-H,0:/Integrated Flight Computer/aircraft/x10_h_cfg.ks (inferred preloaded)
21.88,APPROACH,ILS_TRACK,152.28,152,-0.28,697.08,618.5,0.13,9.54,9.5,269.96,0.065,0.277,0,19.6,1,0.6,4.5,0.75,0.35,0.0168,0.4,0,21.811,0,0.282,0,270.01,0,0,1,0.05,0,0,0,270,0.1286,0.0001,-0.9917,0,270.01,0.74,-344.24,18.452,0.008,0,0,3,732.95,8.571,0,1041.31,0,0,0,0,0,0,,0,NONE,0,0,0,0,0,0,0,0,0,0,0,618.5,0,0,0,0,0,0,0,0,0,269.92,0,0,0,0,0,0,0,0,0,0,0,0,0,3,3,0,0,VALID,0,0,0,0,0,1,0,0,0,0,0,0,0,0,0,0,0,0,0,0,304.88,1076.13,2,0,0.08,0.08,217,10,0.12,0.08,21.88,FLYING,X10-H,0:/Integrated Flight Computer/aircraft/x10_h_cfg.ks (inferred preloaded)
22.18,APPROACH,ILS_TRACK,152.31,152,-0.31,697.12,618.54,0.14,9.54,9.5,269.96,0.066,0.2762,0,19.511,1,0.6,4.5,0.75,0.35,0.0168,0.4,0,21.805,0,0.306,0,270.01,0,0,1,0.05,0,0,0,270.01,0.1285,0.0002,-0.9917,0,270.01,0.7,-341.66,18.403,0.009,0,0,3,732.95,8.582,0,1038.77,0,0,0,0,0,0,,0,NONE,0,0,0,0,0,0,0,0,0,0,0,618.54,0,0,0,0,0,0,0,0,0,269.92,0,0,0,0,0,0,0,0,0,0,0,0,0,3,3,0,0,VALID,0,0,0,0,0,1,0,0,0,0,0,0,0,0,0,0,0,0,0,0,304.19,1076.23,2,0,0.08,0.08,220,10,0.12,0.08,22.18,FLYING,X10-H,0:/Integrated Flight Computer/aircraft/x10_h_cfg.ks (inferred preloaded)
22.48,APPROACH,ILS_TRACK,152.33,152,-0.33,697.16,618.58,0.15,9.54,9.49,269.96,0.067,0.2756,0,19.414,1,0.6,4.5,0.75,0.35,0.0168,0.4,0,21.799,0,0.328,0,270.02,0,0,1,0.05,0,0,0,270,0.1284,0.0003,-0.9917,0,270.01,0.65,-339.09,18.355,0.015,0,0,3,732.95,8.596,0,1036.24,0,0,0,0,0,0,,0,NONE,0,0,0,0,0,0,0,0,0,0,0,618.58,0,0,0,0,0,0,0,0,0,269.92,0,0,0,0,0,0,0,0,0,0,0,0,0,3,3,0,0,VALID,0,0,0,0,0,1,0,0,0,0,0,0,0,0,0,0,0,0,0,0,303.49,1076.32,2,0,0.08,0.08,223,10,0.12,0.08,22.48,FLYING,X10-H,0:/Integrated Flight Computer/aircraft/x10_h_cfg.ks (inferred preloaded)
22.78,APPROACH,ILS_TRACK,152.35,152,-0.35,697.2,618.63,0.15,9.54,9.49,269.96,0.068,0.2751,0,19.312,1,0.6,4.5,0.75,0.35,0.0168,0.4,0,21.793,0,0.347,0,270.01,0,0,1,0.06,0,0,0,270.01,0.1283,0.0001,-0.9917,0,270.01,0.61,-336.51,18.307,0.008,0,0,3,732.95,8.6,0,1033.7,0,0,0,0,0,0,,0,NONE,0,0,0,0,0,0,0,0,0,0,0,618.63,0,0,0,0,0,0,0,0,0,269.92,0,0,0,0,0,0,0,0,0,0,0,0,0,3,3,0,0,VALID,0,0,0,0,0,1,0,0,0,0,0,0,0,0,0,0,0,0,0,0,302.8,1076.4,2,0,0.08,0.08,226,10,0.12,0.08,22.78,FLYING,X10-H,0:/Integrated Flight Computer/aircraft/x10_h_cfg.ks (inferred preloaded)
23.08,APPROACH,ILS_TRACK,152.37,152,-0.37,697.25,618.68,0.16,9.54,9.49,269.96,0.068,0.2746,0,19.204,1,0.6,4.5,0.75,0.35,0.0168,0.4,0,21.788,0,0.364,0,270.01,0,0,1,0.06,0,0,0,270.01,0.1283,0.0002,-0.9917,0,270.01,0.58,-333.92,18.258,0.01,0,0,3,732.95,8.609,0,1031.17,0,0,0,0,0,0,,0,NONE,0,0,0,0,0,0,0,0,0,0,0,618.68,0,0,0,0,0,0,0,0,0,269.92,0,0,0,0,0,0,0,0,0,0,0,0,0,3,3,0,0,VALID,0,0,0,0,0,1,0,0,0,0,0,0,0,0,0,0,0,0,0,0,302.12,1076.47,2,0,0.08,0.08,229,10,0.12,0.08,23.08,FLYING,X10-H,0:/Integrated Flight Computer/aircraft/x10_h_cfg.ks (inferred preloaded)
23.38,APPROACH,ILS_TRACK,152.38,152,-0.38,697.3,618.73,0.17,9.54,9.48,269.96,0.069,0.2742,0,19.092,1,0.6,4.5,0.75,0.35,0.0168,0.4,0,21.784,0,0.379,0,270.02,0,0,1,0.06,0,0,0,270,0.1282,0.0003,-0.9918,0,270.02,0.54,-331.34,18.21,0.017,0,0,3,732.95,8.624,0,1028.63,0,0,0,0,0,0,,0,NONE,0,0,0,0,0,0,0,0,0,0,0,618.73,0,0,0,0,0,0,0,0,0,269.92,0,0,0,0,0,0,0,0,0,0,0,0,0,3,3,0,0,VALID,0,0,0,0,0,1,0,0,0,0,0,0,0,0,0,0,0,0,0,0,301.47,1076.52,2,0,0.08,0.08,232,10,0.12,0.08,23.38,FLYING,X10-H,0:/Integrated Flight Computer/aircraft/x10_h_cfg.ks (inferred preloaded)
23.68,APPROACH,ILS_TRACK,152.39,152,-0.39,697.35,618.78,0.18,9.55,9.48,269.97,0.071,0.2739,0,18.976,1,0.6,4.5,0.75,0.35,0.0168,0.4,0,21.78,0,0.392,0,270.01,0,0,1,0.07,0,0,0,270.01,0.1281,0.0002,-0.9918,0,270.01,0.5,-328.75,18.162,0.01,0,0,3,732.95,8.641,0,1026.1,0,0,0,0,0,0,,0,NONE,0,0,0,0,0,0,0,0,0,0,0,618.78,0,0,0,0,0,0,0,0,0,269.92,0,0,0,0,0,0,0,0,0,0,0,0,0,3,3,0,0,VALID,0,0,0,0,0,1,0,0,0,0,0,0,0,0,0,0,0,0,0,0,300.84,1076.57,2,0,0.08,0.08,235,10,0.12,0.08,23.68,FLYING,X10-H,0:/Integrated Flight Computer/aircraft/x10_h_cfg.ks (inferred preloaded)
23.98,APPROACH,ILS_TRACK,152.4,152,-0.4,697.41,618.83,0.19,9.55,9.48,269.97,0.071,0.2737,0,18.856,1,0.6,4.5,0.75,0.35,0.0168,0.4,0,21.777,0,0.403,0,270.02,0,0,1,0.07,0,0,0,270.01,0.128,0.0003,-0.9918,0,270.02,0.46,-326.16,18.113,0.017,0,0,3,732.95,8.641,0,1023.56,0,0,0,0,0,0,,0,NONE,0,0,0,0,0,0,0,0,0,0,0,618.83,0,0,0,0,0,0,0,0,0,269.92,0,0,0,0,0,0,0,0,0,0,0,0,0,3,3,0,0,VALID,0,0,0,0,0,1,0,0,0,0,0,0,0,0,0,0,0,0,0,0,300.24,1076.61,2,0,0.08,0.08,238,10,0.12,0.08,23.98,FLYING,X10-H,0:/Integrated Flight Computer/aircraft/x10_h_cfg.ks (inferred preloaded)
24.28,APPROACH,ILS_TRACK,152.41,152,-0.41,697.47,618.89,0.2,9.54,9.48,269.97,0.072,0.2732,0,18.733,1,0.6,4.5,0.75,0.35,0.0168,0.4,0,21.775,0,0.412,0,270.01,0,0,1,0.07,0,0,0,270.02,0.1279,0.0003,-0.9918,0,270.01,0.42,-323.57,18.065,0.014,0,0,3,732.95,8.647,0,1021.03,0,0,0,0,0,0,,0,NONE,0,0,0,0,0,0,0,0,0,0,0,618.89,0,0,0,0,0,0,0,0,0,269.92,0,0,0,0,0,0,0,0,0,0,0,0,0,3,3,0,0,VALID,0,0,0,0,0,1,0,0,0,0,0,0,0,0,0,0,0,0,0,0,299.66,1076.65,2,0,0.08,0.08,241,10,0.12,0.08,24.28,FLYING,X10-H,0:/Integrated Flight Computer/aircraft/x10_h_cfg.ks (inferred preloaded)
24.58,APPROACH,ILS_TRACK,152.42,152,-0.42,697.53,618.95,0.2,9.55,9.48,269.97,0.072,0.2728,0,18.608,1,0.6,4.5,0.75,0.35,0.0168,0.4,0,21.773,0,0.419,0,270.02,0,0,1,0.08,0,0,0,270.01,0.1279,0.0003,-0.9918,0,270.02,0.39,-320.97,18.016,0.018,0,0,3,732.95,8.661,0,1018.49,0,0,0,0,0,0,,0,NONE,0,0,0,0,0,0,0,0,0,0,0,618.95,0,0,0,0,0,0,0,0,0,269.92,0,0,0,0,0,0,0,0,0,0,0,0,0,3,3,0,0,VALID,0,0,0,0,0,1,0,0,0,0,0,0,0,0,0,0,0,0,0,0,299.1,1076.67,2,0,0.08,0.08,244,10,0.12,0.08,24.58,FLYING,X10-H,0:/Integrated Flight Computer/aircraft/x10_h_cfg.ks (inferred preloaded)
24.88,APPROACH,ILS_TRACK,152.42,152,-0.42,697.59,619.01,0.21,9.55,9.47,269.97,0.074,0.2725,0,18.481,1,0.6,4.5,0.75,0.35,0.0168,0.4,0,21.771,0,0.424,0,270.01,0,0,1,0.08,0,0,0,270.02,0.1278,0.0002,-0.9918,0,270.01,0.35,-318.37,17.968,0.013,0,0,3,732.95,8.663,0,1015.95,0,0,0,0,0,0,,0,NONE,0,0,0,0,0,0,0,0,0,0,0,619.01,0,0,0,0,0,0,0,0,0,269.92,0,0,0,0,0,0,0,0,0,0,0,0,0,3,3,0,0,VALID,0,0,0,0,0,1,0,0,0,0,0,0,0,0,0,0,0,0,0,0,298.55,1076.69,2,0,0.08,0.08,247,10,0.12,0.08,24.88,FLYING,X10-H,0:/Integrated Flight Computer/aircraft/x10_h_cfg.ks (inferred preloaded)
25.18,APPROACH,ILS_TRACK,152.43,152,-0.43,697.65,619.08,0.21,9.55,9.47,269.97,0.076,0.2723,0,18.353,1,0.6,4.5,0.75,0.35,0.0168,0.4,0,21.77,0,0.428,0,270.01,0,0,1,0.08,0,0,0,270.02,0.1277,0.0002,-0.9918,0,270.01,0.32,-315.77,17.92,0.013,0,0,3,732.95,8.671,0,1013.42,0,0,0,0,0,0,,0,NONE,0,0,0,0,0,0,0,0,0,0,0,619.08,0,0,0,0,0,0,0,0,0,269.92,0,0,0,0,0,0,0,0,0,0,0,0,0,3,3,0,0,VALID,0,0,0,0,0,1,0,0,0,0,0,0,0,0,0,0,0,0,0,0,298.02,1076.7,2,0,0.08,0.08,250,10,0.12,0.08,25.18,FLYING,X10-H,0:/Integrated Flight Computer/aircraft/x10_h_cfg.ks (inferred preloaded)
25.48,APPROACH,ILS_TRACK,152.43,152,-0.43,697.72,619.14,0.23,9.55,9.47,269.97,0.077,0.2721,0,18.224,1,0.6,4.5,0.75,0.35,0.0168,0.4,0,21.77,0,0.429,0,270.02,0,0,1,0.09,0,0,0,270.02,0.1276,0.0003,-0.9918,0,270.02,0.28,-313.17,17.871,0.02,0,0,3,732.95,8.675,0,1010.88,0,0,0,0,0,0,,0,NONE,0,0,0,0,0,0,0,0,0,0,0,619.14,0,0,0,0,0,0,0,0,0,269.92,0,0,0,0,0,0,0,0,0,0,0,0,0,3,3,0,0,VALID,0,0,0,0,0,1,0,0,0,0,0,0,0,0,0,0,0,0,0,0,297.52,1076.7,2,0,0.08,0.08,253,10,0.12,0.08,25.48,FLYING,X10-H,0:/Integrated Flight Computer/aircraft/x10_h_cfg.ks (inferred preloaded)
25.78,APPROACH,ILS_TRACK,152.43,152,-0.43,697.79,619.21,0.23,9.55,9.47,269.97,0.079,0.2719,0,18.096,1,0.6,4.5,0.75,0.35,0.0168,0.4,0,21.77,0,0.43,0,270.01,0,0,1,0.09,0,0,0,270.02,0.1275,0.0002,-0.9918,0,270.01,0.25,-310.56,17.823,0.014,0,0,3,732.95,8.684,0,1008.34,0,0,0,0,0,0,,0,NONE,0,0,0,0,0,0,0,0,0,0,0,619.21,0,0,0,0,0,0,0,0,0,269.92,0,0,0,0,0,0,0,0,0,0,0,0,0,3,3,0,0,VALID,0,0,0,0,0,1,0,0,0,0,0,0,0,0,0,0,0,0,0,0,297.05,1076.7,2,0,0.08,0.08,256,10,0.12,0.08,25.78,FLYING,X10-H,0:/Integrated Flight Computer/aircraft/x10_h_cfg.ks (inferred preloaded)
26.08,APPROACH,ILS_TRACK,152.43,152,-0.43,697.86,619.28,0.24,9.56,9.47,269.97,0.079,0.2718,0,17.967,1,0.6,4.5,0.75,0.35,0.0168,0.4,0,21.77,0,0.428,0,270.02,0,0,1,0.09,0,0,0,270.02,0.1275,0.0004,-0.9918,0,270.02,0.22,-307.95,17.774,0.022,0,0,3,732.95,8.693,0,1005.81,0,0,0,0,0,0,,0,NONE,0,0,0,0,0,0,0,0,0,0,0,619.28,0,0,0,0,0,0,0,0,0,269.92,0,0,0,0,0,0,0,0,0,0,0,0,0,3,3,0,0,VALID,0,0,0,0,0,1,0,0,0,0,0,0,0,0,0,0,0,0,0,0,296.6,1076.68,2,0,0.08,0.08,259,10,0.12,0.08,26.08,FLYING,X10-H,0:/Integrated Flight Computer/aircraft/x10_h_cfg.ks (inferred preloaded)
26.38,APPROACH,ILS_TRACK,152.42,152,-0.42,697.93,619.35,0.25,9.55,9.47,269.98,0.081,0.2716,0,17.839,1,0.6,4.5,0.75,0.35,0.0168,0.4,0,21.771,0,0.425,0,270.01,0,0,1,0.09,0,0,0,270.02,0.1274,0.0003,-0.9919,0,270.01,0.19,-305.35,17.726,0.015,0,0,3,732.95,8.695,0,1003.27,0,0,0,0,0,0,,0,NONE,0,0,0,0,0,0,0,0,0,0,0,619.35,0,0,0,0,0,0,0,0,0,269.92,0,0,0,0,0,0,0,0,0,0,0,0,0,3,3,0,0,VALID,0,0,0,0,0,1,0,0,0,0,0,0,0,0,0,0,0,0,0,0,296.19,1076.67,2,0,0.08,0.08,262,10,0.12,0.08,26.38,FLYING,X10-H,0:/Integrated Flight Computer/aircraft/x10_h_cfg.ks (inferred preloaded)
26.68,APPROACH,ILS_TRACK,152.42,152,-0.42,698.01,619.43,0.25,9.56,9.47,269.98,0.082,0.2713,0,17.712,1,0.6,4.5,0.75,0.35,0.0168,0.4,0,21.772,0,0.421,0,270.02,0,0,1,0.09,0,0,0,270.02,0.1273,0.0004,-0.9919,0,270.02,0.16,-302.73,17.678,0.022,0,0,3,732.95,8.709,0,1000.73,0,0,0,0,0,0,,0,NONE,0,0,0,0,0,0,0,0,0,0,0,619.43,0,0,0,0,0,0,0,0,0,269.92,0,0,0,0,0,0,0,0,0,0,0,0,0,3,3,0,0,VALID,0,0,0,0,0,1,0,0,0,0,0,0,0,0,0,0,0,0,0,0,295.79,1076.64,2,0,0.08,0.08,265,10,0.12,0.08,26.68,FLYING,X10-H,0:/Integrated Flight Computer/aircraft/x10_h_cfg.ks (inferred preloaded)
26.98,APPROACH,ILS_TRACK,152.42,152,-0.42,698.08,619.5,0.26,9.56,9.47,269.98,0.082,0.2713,0,17.587,1,0.6,4.5,0.75,0.35,0.0168,0.4,0,21.774,0,0.416,0,270.02,0,0,1,0.1,0,0,0,270.02,0.1272,0.0004,-0.9919,0,270.02,0.13,-300.12,17.629,0.023,0,0,3,732.95,8.713,0,998.2,0,0,0,0,0,0,,0,NONE,0,0,0,0,0,0,0,0,0,0,0,619.5,0,0,0,0,0,0,0,0,0,269.92,0,0,0,0,0,0,0,0,0,0,0,0,0,3,3,0,0,VALID,0,0,0,0,0,1,0,0,0,0,0,0,0,0,0,0,0,0,0,0,295.4,1076.61,2,0,0.08,0.08,268,10,0.12,0.08,26.98,FLYING,X10-H,0:/Integrated Flight Computer/aircraft/x10_h_cfg.ks (inferred preloaded)
27.28,APPROACH,ILS_TRACK,152.41,152,-0.41,698.16,619.58,0.26,9.57,9.48,269.98,0.083,0.2711,0,17.464,1,0.6,4.5,0.75,0.35,0.0168,0.4,0,21.776,0,0.409,0,270.02,0,0,1,0.09,0,0,0,270.01,0.1271,0.0004,-0.9919,0,270.02,0.1,-297.51,17.581,0.023,0,0,3,732.95,8.742,0,995.66,0,0,0,0,0,0,,0,NONE,0,0,0,0,0,0,0,0,0,0,0,619.58,0,0,0,0,0,0,0,0,0,269.92,0,0,0,0,0,0,0,0,0,0,0,0,0,3,3,0,0,VALID,0,0,0,0,0,1,0,0,0,0,0,0,0,0,0,0,0,0,0,0,295.05,1076.58,2,0,0.08,0.08,271,10,0.12,0.08,27.28,FLYING,X10-H,0:/Integrated Flight Computer/aircraft/x10_h_cfg.ks (inferred preloaded)
27.58,APPROACH,ILS_TRACK,152.4,152,-0.4,698.24,619.66,0.26,9.57,9.48,269.98,0.083,0.2721,0,17.343,1,0.6,4.5,0.75,0.35,0.0168,0.4,0,21.778,0,0.399,0,270.02,0,0,1,0.09,0,0,0,270.02,0.1271,0.0003,-0.9919,0,270.02,0.08,-294.89,17.532,0.018,0,0,3,732.95,8.721,0,993.12,0,0,0,0,0,0,,0,NONE,0,0,0,0,0,0,0,0,0,0,0,619.66,0,0,0,0,0,0,0,0,0,269.92,0,0,0,0,0,0,0,0,0,0,0,0,0,3,3,0,0,VALID,0,0,0,0,0,1,0,0,0,0,0,0,0,0,0,0,0,0,0,0,294.76,1076.53,2,0,0.08,0.08,274,10,0.12,0.08,27.58,FLYING,X10-H,0:/Integrated Flight Computer/aircraft/x10_h_cfg.ks (inferred preloaded)
27.88,APPROACH,ILS_TRACK,152.39,152,-0.39,698.32,619.74,0.28,9.57,9.47,269.98,0.083,0.2737,0,17.226,1,0.6,4.5,0.75,0.35,0.0168,0.4,0,21.782,0,0.387,0,270.02,0,0,1,0.11,0,0,0,270.02,0.127,0.0003,-0.9919,0,270.02,0.05,-292.27,17.484,0.017,0,0,3,732.95,8.712,0,990.59,0,0,0,0,0,0,,0,NONE,0,0,0,0,0,0,0,0,0,0,0,619.74,0,0,0,0,0,0,0,0,0,269.92,0,0,0,0,0,0,0,0,0,0,0,0,0,3,3,0,0,VALID,0,0,0,0,0,1,0,0,0,0,0,0,0,0,0,0,0,0,0,0,294.6,1076.47,2,0,0.08,0.08,277,10,0.12,0.08,27.88,FLYING,X10-H,0:/Integrated Flight Computer/aircraft/x10_h_cfg.ks (inferred preloaded)
28.18,APPROACH,ILS_TRACK,152.37,152,-0.37,698.41,619.82,0.28,9.58,9.48,269.98,0.083,0.2737,0,17.112,1,0.6,4.5,0.75,0.35,0.0168,0.4,0,21.785,0,0.375,0,270.02,0,0,1,0.1,0,0,0,270.02,0.1269,0.0004,-0.9919,0,270.02,0.02,-289.65,17.436,0.02,0,0,3,732.95,8.734,0,988.05,0,0,0,0,0,0,,0,NONE,0,0,0,0,0,0,0,0,0,0,0,619.82,0,0,0,0,0,0,0,0,0,269.92,0,0,0,0,0,0,0,0,0,0,0,0,0,3,3,0,0,VALID,0,0,0,0,0,1,0,0,0,0,0,0,0,0,0,0,0,0,0,0,294.56,1076.42,2,0,0.08,0.08,280,10,0.12,0.08,28.18,FLYING,X10-H,0:/Integrated Flight Computer/aircraft/x10_h_cfg.ks (inferred preloaded)
28.48,APPROACH,ILS_TRACK,152.36,152,-0.36,698.49,619.91,0.26,9.57,9.47,269.98,0.084,0.2735,0,17.002,1,0.6,4.5,0.75,0.35,0.0168,0.4,0,21.788,0,0.363,0,270.02,0,0,1,0.1,0,0,0,270.02,0.1268,0.0004,-0.9919,0,270.02,0,-287.04,17.387,0.021,0,0,3,732.95,8.714,0,985.52,0,0,0,0,0,0,,0,NONE,0,0,0,0,0,0,0,0,0,0,0,619.91,0,0,0,0,0,0,0,0,0,269.92,0,0,0,0,0,0,0,0,0,0,0,0,0,3,3,0,0,VALID,0,0,0,0,0,1,0,0,0,0,0,0,0,0,0,0,0,0,0,0,294.61,1076.36,2,0,0.08,0.08,283,10,0.12,0.08,28.48,FLYING,X10-H,0:/Integrated Flight Computer/aircraft/x10_h_cfg.ks (inferred preloaded)
28.78,APPROACH,ILS_TRACK,152.35,152,-0.35,698.58,619.99,0.29,9.58,9.48,269.99,0.083,0.2729,0,16.895,1,0.6,4.5,0.75,0.35,0.0168,0.4,0,21.792,0,0.351,0,270.02,0,0,1,0.11,0,0,0,270.02,0.1267,0.0003,-0.9919,0,270.02,-0.02,-284.41,17.339,0.017,0,0,3,732.95,8.727,0,982.98,0,0,0,0,0,0,,0,NONE,0,0,0,0,0,0,0,0,0,0,0,619.99,0,0,0,0,0,0,0,0,0,269.92,0,0,0,0,0,0,0,0,0,0,0,0,0,3,3,0,0,VALID,0,0,0,0,0,1,0,0,0,0,0,0,0,0,0,0,0,0,0,0,294.55,1076.3,2,0,0.08,0.08,286,10,0.12,0.08,28.78,FLYING,X10-H,0:/Integrated Flight Computer/aircraft/x10_h_cfg.ks (inferred preloaded)
29.08,APPROACH,ILS_TRACK,152.34,152,-0.34,698.66,620.08,0.29,9.58,9.48,269.99,0.082,0.2707,0,16.792,1,0.6,4.5,0.75,0.35,0.0168,0.4,0,21.795,0,0.342,0,270.02,0,0,1,0.11,0,0,0,270.02,0.1267,0.0004,-0.9919,0,270.02,-0.05,-281.79,17.29,0.022,0,0,3,732.95,8.741,0,980.44,0,0,0,0,0,0,,0,NONE,0,0,0,0,0,0,0,0,0,0,0,620.08,0,0,0,0,0,0,0,0,0,269.92,0,0,0,0,0,0,0,0,0,0,0,0,0,3,3,0,0,VALID,0,0,0,0,0,1,0,0,0,0,0,0,0,0,0,0,0,0,0,0,294.38,1076.25,2,0,0.08,0.08,289,10,0.12,0.08,29.08,FLYING,X10-H,0:/Integrated Flight Computer/aircraft/x10_h_cfg.ks (inferred preloaded)
29.38,APPROACH,ILS_TRACK,152.33,152,-0.33,698.75,620.17,0.29,9.58,9.48,269.99,0.082,0.2695,0,16.691,1,0.6,4.5,0.75,0.35,0.0168,0.4,0,21.797,0,0.331,0,270.02,0,0,1,0.11,0,0,0,270.02,0.1266,0.0003,-0.992,0,270.02,-0.07,-279.17,17.242,0.017,0,0,3,732.95,8.747,0,977.91,0,0,0,0,0,0,,0,NONE,0,0,0,0,0,0,0,0,0,0,0,620.17,0,0,0,0,0,0,0,0,0,269.92,0,0,0,0,0,0,0,0,0,0,0,0,0,3,3,0,0,VALID,0,0,0,0,0,1,0,0,0,0,0,0,0,0,0,0,0,0,0,0,294.03,1076.2,2,0,0.08,0.08,292,10,0.12,0.08,29.38,FLYING,X10-H,0:/Integrated Flight Computer/aircraft/x10_h_cfg.ks (inferred preloaded)
29.68,APPROACH,ILS_TRACK,152.32,152,-0.32,698.84,620.25,0.3,9.58,9.48,269.99,0.081,0.2692,0,16.594,1,0.6,4.5,0.75,0.35,0.0168,0.4,0,21.801,0,0.32,0,270.03,0,0,1,0.11,0,0,0,270.01,0.1265,0.0004,-0.992,0,270.03,-0.09,-276.54,17.194,0.025,0,0,3,732.95,8.752,0,975.37,0,0,0,0,0,0,,0,NONE,0,0,0,0,0,0,0,0,0,0,0,620.25,0,0,0,0,0,0,0,0,0,269.92,0,0,0,0,0,0,0,0,0,0,0,0,0,3,3,0,0,VALID,0,0,0,0,0,1,0,0,0,0,0,0,0,0,0,0,0,0,0,0,293.6,1076.15,2,0,0.08,0.08,295,10,0.12,0.08,29.68,FLYING,X10-H,0:/Integrated Flight Computer/aircraft/x10_h_cfg.ks (inferred preloaded)
29.98,APPROACH,ILS_TRACK,152.31,152,-0.31,698.93,620.34,0.3,9.59,9.48,269.99,0.082,0.2697,0,16.5,1,0.6,4.5,0.75,0.35,0.0168,0.4,0,21.804,0,0.307,0,270.02,0,0,1,0.11,0,0,0,270.02,0.1264,0.0004,-0.992,0,270.02,-0.11,-273.92,17.145,0.021,0,0,3,732.95,8.753,0,972.84,0,0,0,0,0,0,,0,NONE,0,0,0,0,0,0,0,0,0,0,0,620.34,0,0,0,0,0,0,0,0,0,269.92,0,0,0,0,0,0,0,0,0,0,0,0,0,3,3,0,0,VALID,0,0,0,0,0,1,0,0,0,0,0,0,0,0,0,0,0,0,0,0,293.2,1076.09,2,0,0.08,0.08,298,10,0.12,0.08,29.98,FLYING,X10-H,0:/Integrated Flight Computer/aircraft/x10_h_cfg.ks (inferred preloaded)
30.28,APPROACH,ILS_TRACK,152.29,152,-0.29,699.03,620.44,0.3,9.59,9.49,269.99,0.082,0.2706,0,16.411,1,0.6,4.5,0.75,0.35,0.0168,0.4,0,21.808,0,0.293,0,270.02,0,0,1,0.12,0,0,0,270.02,0.1263,0.0004,-0.992,0,270.02,-0.12,-271.29,17.097,0.021,0,0,3,732.95,8.762,0,970.3,0,0,0,0,0,0,,0,NONE,0,0,0,0,0,0,0,0,0,0,0,620.44,0,0,0,0,0,0,0,0,0,269.92,0,0,0,0,0,0,0,0,0,0,0,0,0,3,3,0,0,VALID,0,0,0,0,0,1,0,0,0,0,0,0,0,0,0,0,0,0,0,0,292.91,1076.02,2,0,0.08,0.08,301,10,0.12,0.08,30.28,FLYING,X10-H,0:/Integrated Flight Computer/aircraft/x10_h_cfg.ks (inferred preloaded)
30.58,APPROACH,ILS_TRACK,152.28,152,-0.28,699.12,620.53,0.31,9.6,9.49,269.99,0.082,0.2714,0,16.326,1,0.6,4.5,0.75,0.35,0.0168,0.4,0,21.813,0,0.278,0,270.02,0,0,1,0.12,0,0,0,270.02,0.1263,0.0004,-0.992,0,270.02,-0.14,-268.66,17.049,0.024,0,0,3,732.95,8.763,0,967.77,0,0,0,0,0,0,,0,NONE,0,0,0,0,0,0,0,0,0,0,0,620.53,0,0,0,0,0,0,0,0,0,269.92,0,0,0,0,0,0,0,0,0,0,0,0,0,3,3,0,0,VALID,0,0,0,0,0,1,0,0,0,0,0,0,0,0,0,0,0,0,0,0,292.73,1075.95,2,0,0.08,0.08,304,10,0.12,0.08,30.58,FLYING,X10-H,0:/Integrated Flight Computer/aircraft/x10_h_cfg.ks (inferred preloaded)
30.88,APPROACH,ILS_TRACK,152.26,152,-0.26,699.21,620.62,0.31,9.6,9.49,269.99,0.082,0.2721,0,16.246,1,0.6,4.5,0.75,0.35,0.0168,0.4,0,21.817,0,0.262,0,270.02,0,0,1,0.12,0,0,0,270.02,0.1262,0.0004,-0.992,0,270.02,-0.16,-266.03,17,0.024,0,0,3,732.95,8.766,0,965.23,0,0,0,0,0,0,,0,NONE,0,0,0,0,0,0,0,0,0,0,0,620.62,0,0,0,0,0,0,0,0,0,269.92,0,0,0,0,0,0,0,0,0,0,0,0,0,3,3,0,0,VALID,0,0,0,0,0,1,0,0,0,0,0,0,0,0,0,0,0,0,0,0,292.66,1075.87,2,0,0.08,0.08,307,10,0.12,0.08,30.88,FLYING,X10-H,0:/Integrated Flight Computer/aircraft/x10_h_cfg.ks (inferred preloaded)
31.18,APPROACH,ILS_TRACK,152.24,152,-0.24,699.31,620.71,0.32,9.6,9.49,269.99,0.081,0.2726,0,16.171,1,0.6,4.5,0.75,0.35,0.0168,0.4,0,21.822,0,0.246,0,270.02,0,0,1,0.12,0,0,0,270.01,0.1261,0.0004,-0.992,0,270.02,-0.17,-263.41,16.952,0.022,0,0,3,732.95,8.764,0,962.7,0,0,0,0,0,0,,0,NONE,0,0,0,0,0,0,0,0,0,0,0,620.71,0,0,0,0,0,0,0,0,0,269.92,0,0,0,0,0,0,0,0,0,0,0,0,0,3,3,0,0,VALID,0,0,0,0,0,1,0,0,0,0,0,0,0,0,0,0,0,0,0,0,292.65,1075.8,2,0,0.08,0.08,310,10,0.12,0.08,31.18,FLYING,X10-H,0:/Integrated Flight Computer/aircraft/x10_h_cfg.ks (inferred preloaded)
