t_s,phase,subphase,ias_ms,vapp_ms,spd_err_ms,agl_m,gear_h_m,vs_ms,pitch_deg,aoa_deg,hdg_deg,bank_deg,thr_cmd,thr_cur,thr_intg,at_gain,at_tau_s,at_a_up,at_a_dn,at_kp_thr,at_ki_spd,at_thr_slew,as_cmd_deg,as_cap_deg,as_raw_deg,as_spd_err_ms,as_active,aa_hdg_cmd_deg,aa_fpa_cmd_deg,aa_fbw,aa_dir,actual_fpa_deg,ftf_hdg_err_deg,ftf_fix_idx,kos_steer_pit_deg,kos_steer_hdg_deg,aa_dir_vx,aa_dir_vy,aa_dir_vz,aa_dir_pitch_deg,aa_dir_hdg_deg,ils_loc_m,ils_gs_m,ils_dist_km,loc_corr_deg,gs_corr_deg,gs_latched,active_gs_ang_deg,ils_intercept_alt_m,d_gs_ms,fpa_preclamped_deg,gs_nom_alt_m,flare_fpa_cmd,flare_tgt_vs,flare_frac,flare_round_blend_h,flare_round_blend_ttg,flare_round_blend,flare_mode,flare_auth_limited,flare_auth_reason,flare_vs_err,flare_fpa_err,flare_pitch_err,flare_theta_cmd_raw,flare_theta_cmd_clamped,flare_theta_clamp_active,flare_aoa_clamp_active,flare_pitch_in_cmd,elev_defl_avg_deg,elev_defl_max_deg,elev_defl_n,flare_ctrl_h_m,flare_req_up_a,flare_thr_floor,flare_tecs_et_err,flare_tecs_eb_err,flare_tecs_h_ref,flare_tecs_v_ref,flare_gamma_ref,flare_gamma_eb_term,flare_gamma_unsat,steer_hdg_deg,steer_blend,ro_loc_corr_deg,ro_hdg_err_deg,ro_yaw_tgt,ro_yaw_scale,ro_yaw_gate,yaw_cmd,roll_cmd,pitch_cmd,ro_pitch_tgt_deg,ro_pitch_err_deg,ro_pitch_ff,ro_roll_assist,flaps_cur,flaps_tgt,asc_j_ab,asc_j_rk,asc_validity,asc_q_pa,asc_q_raw_pa,asc_mach,asc_apo_m,asc_drag_n,asc_w_prop,asc_edot_aero,asc_edot_orb,asc_pitch_bias,asc_blend,asc_spooling,asc_ab_thr_ratio,asc_ab_t_now,asc_ab_t_avail,asc_ab_ign_on,asc_ab_flameouts,asc_rk_t_now,asc_rk_t_avail,asc_rk_ign_on,asc_rk_flameouts,ship_thrust,ship_avail_thrust,ship_ign_on,ship_flameouts,ifc_raw_dt_s,ifc_dt_s,ifc_loop_n,ifc_hz_est,ifc_raw_dt_max_s,ifc_raw_dt_min_s,phase_el_s,status,craft_name,cfg_file
2.9,TAKEOFF,TO_PREFLIGHT,0.03,80,79.97,4.81,1.2,0,-0.43,6.97,89.84,0.108,0.08,0,0,0,0,0,0,0,0,0,0,0,0,0,0,90,0,1,0,-0.27,0,0,0,90,0,0,0,0,0,0,0,0,0,0,0,3,0,0,0,69,0,0,0,0,0,0,,0,NONE,0,0,0,0,0,0,0,0,0,0,0,1.2,0,0,0,0,0,0,0,0,0,90,1,0,-0.165,0,0,1,0,0,0,0,0,0,0,0,1,0,0,VALID,0,0,0,0,0,1,0,0,0,0,0,0,0,0,0,0,0,0,0,0,0,1939.6,6,0,0.2,0.2,1,0.34,0.2,0.02,2.7,LANDED,C-1000G,0:/Integrated Flight Computer/aircraft/c_1000g_cfg.ks (inferred preloaded)
3.18,TAKEOFF,TO_PREFLIGHT,0.03,80,79.97,4.81,1.2,0,-0.43,-0.89,90.65,0.107,0.36,0,0,0,0,0,0,0,0,0,0,0,0,0,0,90,0,1,0,0,0,0,0,90,0,0,0,0,0,0,0,0,0,0,0,3,0,0,0,69,0,0,0,0,0,0,,0,NONE,0,0,0,0,0,0,0,0,0,0,0,1.2,0,0,0,0,0,0,0,0,0,90,1,0,-0.165,0,0,1,0,0,0,0,0,0,0,1,1,0,0,VALID,0,0,0,0,0,1,0,0,0,0,0,0,0,0,0,0,0,0,0,0,6.28,1939.6,6,0,0.06,0.06,5,14.29,2.78,0.06,3,LANDED,C-1000G,0:/Integrated Flight Computer/aircraft/c_1000g_cfg.ks (inferred preloaded)
3.44,TAKEOFF,TO_PREFLIGHT,0.04,80,79.96,4.81,1.2,0,-0.43,0.76,90.71,0.111,0.464,0,0,0,0,0,0,0,0,0,0,0,0,0,0,90,0,1,0,-0.04,0,0,0,90,0,0,0,0,0,0,0,0,0,0,0,3,0,0,0,69,0,0,0,0,0,0,,0,NONE,0,0,0,0,0,0,0,0,0,0,0,1.2,0,0,0,0,0,0,0,0,0,90,1,0,-0.165,0,0,1,0,0,0,0,0,0,0,1,1,0,0,VALID,0,0,0,0,0,1,0,0,0,0,0,0,0,0,0,0,0,0,0,0,17.67,1939.59,6,0,0.06,0.06,9,15.38,0.08,0.04,3.26,LANDED,C-1000G,0:/Integrated Flight Computer/aircraft/c_1000g_cfg.ks (inferred preloaded)
3.7,TAKEOFF,TO_PREFLIGHT,0.06,80,79.94,4.81,1.2,0,-0.43,-0.33,90.76,0.108,0.568,0,0,0,0,0,0,0,0,0,0,0,0,0,0,90,0,1,0,-0.02,0,0,0,90,0,0,0,0,0,0,0,0,0,0,0,3,0,0,0,69,0,0,0,0,0,0,,0,NONE,0,0,0,0,0,0,0,0,0,0,0,1.2,0,0,0,0,0,0,0,0,0,90,1,0,-0.165,0,0,1,0,0,0,0,0,0,0,1,1,0,0,VALID,0,0,0,0,0,1,0,0,0,0,0,0,0,0,0,0,0,0,0,0,32,1939.57,6,0,0.06,0.06,13,15.38,0.08,0.04,3.52,LANDED,C-1000G,0:/Integrated Flight Computer/aircraft/c_1000g_cfg.ks (inferred preloaded)
3.96,TAKEOFF,TO_PREFLIGHT,0.1,80,79.9,4.81,1.2,0,-0.44,0.22,90.81,0.101,0.672,0,0,0,0,0,0,0,0,0,0,0,0,0,0,90,0,1,0,-0.11,0,0,0,90,0,0,0,0,0,0,0,0,0,0,0,3,0,0,0,69,0,0,0,0,0,0,,0,NONE,0,0,0,0,0,0,0,0,0,0,0,1.2,0,0,0,0,0,0,0,0,0,90,1,0,-0.165,0,0,1,0,0,0,0,0,0,0,1,1,0,0,VALID,0,0,0,0,0,1,0,0,0,0,0,0,0,0,0,0,0,0,0,0,49.24,1939.54,6,0,0.06,0.06,17,15.38,0.08,0.04,3.78,LANDED,C-1000G,0:/Integrated Flight Computer/aircraft/c_1000g_cfg.ks (inferred preloaded)
4.22,TAKEOFF,TO_PREFLIGHT,0.12,80,79.88,4.81,1.19,0,-0.44,0.08,90.85,0.095,0.776,0,0,0,0,0,0,0,0,0,0,0,0,0,0,90,0,1,0,-0.06,0,0,0,90,0,0,0,0,0,0,0,0,0,0,0,3,0,0,0,69,0,0,0,0,0,0,,0,NONE,0,0,0,0,0,0,0,0,0,0,0,1.19,0,0,0,0,0,0,0,0,0,90,1,0,-0.165,0,0,1,0,0,0,0,0,0,0,1,1,0,0,VALID,0,0,0,0,0,1,0,0,0,0,0,0,0,0,0,0,0,0,0,0,69.33,1939.52,6,0,0.06,0.06,21,15.38,0.08,0.04,4.04,LANDED,C-1000G,0:/Integrated Flight Computer/aircraft/c_1000g_cfg.ks (inferred preloaded)
4.48,TAKEOFF,TO_PREFLIGHT,0.14,80,79.86,4.81,1.19,0,-0.44,-0.01,90.88,0.096,0.88,0,0,0,0,0,0,0,0,0,0,0,0,0,0,90,0,1,0,-0.08,0,0,0,90,0,0,0,0,0,0,0,0,0,0,0,3,0,0,0,69,0,0,0,0,0,0,,0,NONE,0,0,0,0,0,0,0,0,0,0,0,1.19,0,0,0,0,0,0,0,0,0,90,1,0,-0.165,0,0,1,0,0,0,0,0,0,0,1,1,0,0,VALID,0,0,0,0,0,1,0,0,0,0,0,0,0,0,0,0,0,0,0,0,92.24,1939.5,6,0,0.06,0.06,25,15.38,0.08,0.04,4.3,LANDED,C-1000G,0:/Integrated Flight Computer/aircraft/c_1000g_cfg.ks (inferred preloaded)
4.74,TAKEOFF,TO_PREFLIGHT,0.17,80,79.83,4.81,1.19,0,-0.44,-0.28,90.9,0.102,0.984,0,0,0,0,0,0,0,0,0,0,0,0,0,0,90,0,1,0,-0.02,0,0,0,90,0,0,0,0,0,0,0,0,0,0,0,3,0,0,0,69,0,0,0,0,0,0,,0,NONE,0,0,0,0,0,0,0,0,0,0,0,1.19,0,0,0,0,0,0,0,0,0,90,1,0,-0.165,0,0,1,0,0,0,0,0,0,0,1,1,0,0,VALID,0,0,0,0,0,1,0,0,0,0,0,0,0,0,0,0,0,0,0,0,117.91,1939.48,6,0,0.06,0.06,29,15.38,0.08,0.04,4.56,LANDED,C-1000G,0:/Integrated Flight Computer/aircraft/c_1000g_cfg.ks (inferred preloaded)
5,TAKEOFF,TO_PREFLIGHT,0.23,80,79.77,4.81,1.19,0,-0.43,-0.11,90.92,0.108,1,0,0,0,0,0,0,0,0,0,0,0,0,0,0,90,0,1,0,-0.09,0,0,0,90,0,0,0,0,0,0,0,0,0,0,0,3,0,0,0,69,0,0,0,0,0,0,,0,NONE,0,0,0,0,0,0,0,0,0,0,0,1.19,0,0,0,0,0,0,0,0,0,90,1,0,-0.165,0,0,1,0,0,0,0,0,0,0,1,1,0,0,VALID,0,0,0,0,0,1,0,0,0,0,0,0,0,0,0,0,0,0,0,0,145.79,1939.42,6,0,0.06,0.06,33,15.38,0.08,0.04,4.82,LANDED,C-1000G,0:/Integrated Flight Computer/aircraft/c_1000g_cfg.ks (inferred preloaded)
5.26,TAKEOFF,TO_PREFLIGHT,0.33,80,79.67,4.81,1.19,0,-0.44,-0.09,90.93,0.107,1,0,0,0,0,0,0,0,0,0,0,0,0,0,0,90,0,1,0,-0.13,0,0,0,90,0,0,0,0,0,0,0,0,0,0,0,3,0,0,0,69,0,0,0,0,0,0,,0,NONE,0,0,0,0,0,0,0,0,0,0,0,1.19,0,0,0,0,0,0,0,0,0,90,1,0,-0.165,0,0,1,0,0,0,0,0,0,0,1,1,0,0,VALID,0,0,0,0,0,1,0,0,0,0,0,0,0,0,0,0,0,0,0,0,173.56,1939.33,6,0,0.06,0.06,37,15.38,0.08,0.04,5.08,LANDED,C-1000G,0:/Integrated Flight Computer/aircraft/c_1000g_cfg.ks (inferred preloaded)
5.54,TAKEOFF,TO_GROUND_ROLL,0.45,80,79.55,4.81,1.19,0,-0.43,-0.1,90.95,0.096,1,0,0,0,0,0,0,0,0,0,0,0,0,0,0,86.28,0,1,0,-0.18,0,0,0,90,0,0,0,0,0,0,0,0,-0.004,0,0,3,0,0,0,69,0,0,0,0,0,0,,0,NONE,0,0,0,0,0,0,0,0,0,0,0,1.19,0,0,0,0,0,0,0,0,0,86.28,1,-0.004,4.667,-0.0525,0.25,1,-0.0525,0,0,0,0,0,0,1,1,0,0,VALID,0,0,0,0,0,1,0,0,0,0,0,0,0,0,0,0,0,0,0,0,200.9,1939.22,6,0,0.06,0.06,41,15.38,0.08,0.04,5.34,LANDED,C-1000G,0:/Integrated Flight Computer/aircraft/c_1000g_cfg.ks (inferred preloaded)
5.84,TAKEOFF,TO_GROUND_ROLL,0.68,80,79.32,4.82,1.2,0,-0.42,-0.16,90.98,0.085,1,0,0,0,0,0,0,0,0,0,0,0,0,0,0,89.98,0,1,0,-0.22,0,0,0,90,0,0,0,0,0,0,0,0,-0.004,0,0,3,0,0,0,69,0,0,0,0,0,0,,0,NONE,0,0,0,0,0,0,0,0,0,0,0,1.2,0,0,0,0,0,0,0,0,0,89.98,1,-0.004,1.003,-0.0113,0.25,1,-0.0113,0,0,0,0,0,0,1,1,0,0,VALID,0,0,0,0,0,1,0,0,0,0,0,0,0,0,0,0,0,0,0,0,231.9,1939.01,6,0,0.06,0.06,45,13.33,0.1,0.06,5.64,LANDED,C-1000G,0:/Integrated Flight Computer/aircraft/c_1000g_cfg.ks (inferred preloaded)
6.12,TAKEOFF,TO_GROUND_ROLL,1,80,79,4.82,1.19,-0.01,-0.43,-0.07,91.01,0.09,1,0,0,0,0,0,0,0,0,0,0,0,0,0,0,89.98,0,1,0,-0.42,0,0,0,90,0,0,0,0,0,0,0,0,-0.004,0,0,3,0,0,0,69,0,0,0,0,0,0,,0,NONE,0,0,0,0,0,0,0,0,0,0,0,1.19,0,0,0,0,0,0,0,0,0,89.98,1,-0.004,1.031,-0.0116,0.25,1,-0.0116,0,0,0,0,0,0,1,1,0,0,VALID,0,0,0,0,0,1,0,0,0,0,0,0,0,0,0,0,0,0,0,0,260.32,1938.72,6,0,0.06,0.06,49,14.29,0.08,0.06,5.92,LANDED,C-1000G,0:/Integrated Flight Computer/aircraft/c_1000g_cfg.ks (inferred preloaded)
6.42,TAKEOFF,TO_GROUND_ROLL,1.38,80,78.62,4.82,1.19,-0.01,-0.41,-0.13,91.04,0.104,1,0,0,0,0,0,0,0,0,0,0,0,0,0,0,89.98,0,1,0,-0.34,0,0,0,90,0,0,0,0,0,0,0,0,-0.005,0,0,3,0,0,0,69,0,0,0,0,0,0,,0,NONE,0,0,0,0,0,0,0,0,0,0,0,1.19,0,0,0,0,0,0,0,0,0,89.98,1,-0.005,1.06,-0.0119,0.25,1,-0.0119,0,0,0,0,0,0,1,1,0,0,VALID,0,0,0,0,0,1,0,0,0,0,0,0,0,0,0,0,0,0,0,0,290.23,1938.37,6,0,0.06,0.06,53,13.33,0.1,0.06,6.22,LANDED,C-1000G,0:/Integrated Flight Computer/aircraft/c_1000g_cfg.ks (inferred preloaded)
6.7,TAKEOFF,TO_GROUND_ROLL,1.77,80,78.23,4.82,1.19,-0.01,-0.42,-0.1,91.06,0.113,1,0,0,0,0,0,0,0,0,0,0,0,0,0,0,89.98,0,1,0,-0.37,0,0,0,90,0,0,0,0,0,0,0,0,-0.005,0,0,3,0,0,0,69,0,0,0,0,0,0,,0,NONE,0,0,0,0,0,0,0,0,0,0,0,1.19,0,0,0,0,0,0,0,0,0,89.98,1,-0.005,1.086,-0.0122,0.25,1,-0.0122,0,0,0,0,0,0,1,1,0,0,VALID,0,0,0,0,0,1,0,0,0,0,0,0,0,0,0,0,0,0,0,0,317.64,1938,6,0,0.06,0.06,57,14.29,0.08,0.06,6.5,LANDED,C-1000G,0:/Integrated Flight Computer/aircraft/c_1000g_cfg.ks (inferred preloaded)
6.98,TAKEOFF,TO_GROUND_ROLL,2.19,80,77.81,4.82,1.19,-0.01,-0.41,-0.12,91.09,0.108,1,0,0,0,0,0,0,0,0,0,0,0,0,0,0,89.98,0,1,0,-0.34,0,0,0,90,0,0,0,0,0,0,0,0,-0.005,0,0,3,0,0,0,69,0,0,0,0,0,0,,0,NONE,0,0,0,0,0,0,0,0,0,0,0,1.19,0,0,0,0,0,0,0,0,0,89.98,1,-0.005,1.112,-0.0125,0.25,1,-0.0125,0,0,0,0,0,0,1,1,0,0,VALID,0,0,0,0,0,1,0,0,0,0,0,0,0,0,0,0,0,0,0,0,344.58,1937.59,6,0,0.06,0.06,61,14.29,0.08,0.06,6.78,LANDED,C-1000G,0:/Integrated Flight Computer/aircraft/c_1000g_cfg.ks (inferred preloaded)
7.28,TAKEOFF,TO_GROUND_ROLL,2.69,80,77.31,4.82,1.18,-0.02,-0.42,-0.09,91.11,0.094,1,0,0,0,0,0,0,0,0,0,0,0,0,0,0,89.98,0,1,0,-0.37,0,0,0,90,0,0,0,0,0,0,0,0,-0.006,0,0,3,0,0,0,69,0,0,0,0,0,0,,0,NONE,0,0,0,0,0,0,0,0,0,0,0,1.18,0,0,0,0,0,0,0,0,0,89.98,1,-0.006,1.138,-0.0128,0.25,1,-0.0128,0,0,0,0,0,0,1,1,0,0,VALID,0,0,0,0,0,1,0,0,0,0,0,0,0,0,0,0,0,0,0,0,372.92,1937.1,6,0,0.06,0.06,65,13.33,0.1,0.06,7.08,LANDED,C-1000G,0:/Integrated Flight Computer/aircraft/c_1000g_cfg.ks (inferred preloaded)
7.56,TAKEOFF,TO_GROUND_ROLL,3.18,80,76.82,4.82,1.18,-0.02,-0.41,-0.11,91.14,0.086,1,0,0,0,0,0,0,0,0,0,0,0,0,0,0,89.98,0,1,0,-0.33,0,0,0,90,0,0,0,0,0,0,0,0,-0.006,0,0,3,0,0,0,69,0,0,0,0,0,0,,0,NONE,0,0,0,0,0,0,0,0,0,0,0,1.18,0,0,0,0,0,0,0,0,0,89.98,1,-0.006,1.162,-0.0131,0.25,1,-0.0131,0,0,0,0,0,0,1,1,0,0,VALID,0,0,0,0,0,1,0,0,0,0,0,0,0,0,0,0,0,0,0,0,398.9,1936.61,6,0,0.06,0.06,69,14.29,0.08,0.06,7.36,LANDED,C-1000G,0:/Integrated Flight Computer/aircraft/c_1000g_cfg.ks (inferred preloaded)
7.86,TAKEOFF,TO_GROUND_ROLL,3.75,80,76.25,4.82,1.17,-0.02,-0.41,-0.1,91.16,0.09,1,0,0,0,0,0,0,0,0,0,0,0,0,0,0,89.98,0,1,0,-0.35,0,0,0,90,0,0,0,0,0,0,0,0,-0.007,0,0,3,0,0,0,69,0,0,0,0,0,0,,0,NONE,0,0,0,0,0,0,0,0,0,0,0,1.17,0,0,0,0,0,0,0,0,0,89.98,1,-0.007,1.188,-0.0134,0.25,1,-0.0134,0,0,0,0,0,0,1,1,0,0,VALID,0,0,0,0,0,1,0,0,0,0,0,0,0,0,0,0,0,0,0,0,426.22,1936.03,6,0,0.06,0.06,73,13.33,0.1,0.06,7.66,LANDED,C-1000G,0:/Integrated Flight Computer/aircraft/c_1000g_cfg.ks (inferred preloaded)
8.16,TAKEOFF,TO_GROUND_ROLL,4.36,80,75.64,4.82,1.17,-0.03,-0.41,-0.1,91.19,0.102,1,0,0,0,0,0,0,0,0,0,0,0,0,0,0,89.98,0,1,0,-0.34,0,0,0,90,0,0,0,0,0,0,0,0,-0.008,0,0,3,0,0,0,69,0,0,0,0,0,0,,0,NONE,0,0,0,0,0,0,0,0,0,0,0,1.17,0,0,0,0,0,0,0,0,0,89.98,1,-0.008,1.214,-0.0137,0.25,1,-0.0137,0,0,0,0,0,0,1,1,0,0,VALID,0,0,0,0,0,1,0,0,0,0,0,0,0,0,0,0,0,0,0,0,453.02,1935.39,6,0,0.06,0.06,77,13.33,0.1,0.06,7.96,LANDED,C-1000G,0:/Integrated Flight Computer/aircraft/c_1000g_cfg.ks (inferred preloaded)
8.44,TAKEOFF,TO_GROUND_ROLL,4.95,80,75.05,4.82,1.16,-0.03,-0.41,-0.1,91.21,0.108,1,0,0,0,0,0,0,0,0,0,0,0,0,0,0,89.98,0,1,0,-0.34,0,0,0,90,0,0,0,0,0,0,0,0,-0.009,0,0,3,0,0,0,69,0,0,0,0,0,0,,0,NONE,0,0,0,0,0,0,0,0,0,0,0,1.16,0,0,0,0,0,0,0,0,0,89.98,1,-0.009,1.237,-0.0139,0.25,1,-0.0139,0,0,0,0,0,0,1,1,0,0,VALID,0,0,0,0,0,1,0,0,0,0,0,0,0,0,0,0,0,0,0,0,477.58,1934.76,6,0,0.06,0.06,81,14.29,0.08,0.06,8.24,LANDED,C-1000G,0:/Integrated Flight Computer/aircraft/c_1000g_cfg.ks (inferred preloaded)
8.72,TAKEOFF,TO_GROUND_ROLL,5.58,80,74.42,4.82,1.15,-0.03,-0.41,-0.1,91.24,0.103,1,0,0,0,0,0,0,0,0,0,0,0,0,0,0,89.97,0,1,0,-0.34,0,0,0,90,0,0,0,0,0,0,0,0,-0.009,0,0,3,0,0,0,69,0,0,0,0,0,0,,0,NONE,0,0,0,0,0,0,0,0,0,0,0,1.15,0,0,0,0,0,0,0,0,0,89.97,1,-0.009,1.261,-0.0142,0.25,1,-0.0142,0,0,0,0,0,0,1,1,0,0,VALID,0,0,0,0,0,1,0,0,0,0,0,0,0,0,0,0,0,0,0,0,501.69,1934.07,6,0,0.06,0.06,85,14.29,0.08,0.06,8.52,LANDED,C-1000G,0:/Integrated Flight Computer/aircraft/c_1000g_cfg.ks (inferred preloaded)
9.02,TAKEOFF,TO_GROUND_ROLL,6.29,80,73.71,4.82,1.14,-0.04,-0.41,-0.1,91.26,0.093,1,0,0,0,0,0,0,0,0,0,0,0,0,0,0,89.97,0,1,0,-0.34,0,0,0,90,0,0,0,0,0,0,0,0,-0.01,0,0,3,0,0,0,69,0,0,0,0,0,0,,0,NONE,0,0,0,0,0,0,0,0,0,0,0,1.14,0,0,0,0,0,0,0,0,0,89.97,1,-0.01,1.287,-0.0145,0.25,1,-0.0145,0,0,0,0,0,0,1,1,0,0,VALID,0,0,0,0,0,1,0,0,0,0,0,0,0,0,0,0,0,0,0,0,527.04,1933.28,6,0,0.06,0.06,89,13.33,0.1,0.06,8.82,LANDED,C-1000G,0:/Integrated Flight Computer/aircraft/c_1000g_cfg.ks (inferred preloaded)
9.3,TAKEOFF,TO_GROUND_ROLL,6.99,80,73.01,4.82,1.13,-0.04,-0.41,-0.1,91.28,0.088,1,0,0,0,0,0,0,0,0,0,0,0,0,0,0,89.97,0,1,0,-0.33,0,0,0,90,0,0,0,0,0,0,0,0,-0.012,0,0,3,0,0,0,69,0,0,0,0,0,0,,0,NONE,0,0,0,0,0,0,0,0,0,0,0,1.13,0,0,0,0,0,0,0,0,0,89.97,1,-0.012,1.311,-0.0148,0.25,1,-0.0148,0,0,0,0,0,0,1,1,0,0,VALID,0,0,0,0,0,1,0,0,0,0,0,0,0,0,0,0,0,0,0,0,550.26,1932.49,6,0,0.06,0.06,93,14.29,0.08,0.06,9.1,LANDED,C-1000G,0:/Integrated Flight Computer/aircraft/c_1000g_cfg.ks (inferred preloaded)
9.58,TAKEOFF,TO_GROUND_ROLL,7.71,80,72.29,4.82,1.12,-0.05,-0.4,-0.09,91.31,0.092,1,0,0,0,0,0,0,0,0,0,0,0,0,0,0,89.97,0,1,0,-0.34,0,0,0,90,0,0,0,0,0,0,0,0,-0.013,0,0,3,0,0,0,69,0,0,0,0,0,0,,0,NONE,0,0,0,0,0,0,0,0,0,0,0,1.12,0,0,0,0,0,0,0,0,0,89.97,1,-0.013,1.335,-0.015,0.25,1,-0.015,0,0,0,0,0,0,1,1,0,0,VALID,0,0,0,0,0,1,0,0,0,0,0,0,0,0,0,0,0,0,0,0,573.06,1931.65,6,0,0.06,0.06,97,14.29,0.08,0.06,9.38,LANDED,C-1000G,0:/Integrated Flight Computer/aircraft/c_1000g_cfg.ks (inferred preloaded)
9.88,TAKEOFF,TO_GROUND_ROLL,8.51,80,71.49,4.82,1.1,-0.05,-0.4,-0.1,91.33,0.1,1,0,0,0,0,0,0,0,0,0,0,0,0,0,0,89.97,0,1,0,-0.33,0,0,0,90,0,0,0,0,0,0,0,0,-0.014,0,0,3,0,0,0,69,0,0,0,0,0,0,,0,NONE,0,0,0,0,0,0,0,0,0,0,0,1.1,0,0,0,0,0,0,0,0,0,89.97,1,-0.014,1.361,-0.0153,0.25,1,-0.0153,0,0,0,0,0,0,1,1,0,0,VALID,0,0,0,0,0,1,0,0,0,0,0,0,0,0,0,0,0,0,0,0,597.01,1930.69,6,0,0.06,0.06,101,13.33,0.1,0.06,9.68,LANDED,C-1000G,0:/Integrated Flight Computer/aircraft/c_1000g_cfg.ks (inferred preloaded)
10.16,TAKEOFF,TO_GROUND_ROLL,9.3,80,70.7,4.82,1.09,-0.05,-0.4,-0.09,91.35,0.104,1,0,0,0,0,0,0,0,0,0,0,0,0,0,0,89.97,0,1,0,-0.33,0,0,0,90,0,0,0,0,0,0,0,0,-0.015,0,0,3,0,0,0,69,0,0,0,0,0,0,,0,NONE,0,0,0,0,0,0,0,0,0,0,0,1.09,0,0,0,0,0,0,0,0,0,89.97,1,-0.015,1.386,-0.0156,0.25,1,-0.0156,0,0,0,0,0,0,1,1,0,0,VALID,0,0,0,0,0,1,0,0,0,0,0,0,0,0,0,0,0,0,0,0,618.94,1929.73,6,0,0.06,0.06,105,14.29,0.08,0.06,9.96,LANDED,C-1000G,0:/Integrated Flight Computer/aircraft/c_1000g_cfg.ks (inferred preloaded)
10.46,TAKEOFF,TO_GROUND_ROLL,10.16,80,69.84,4.82,1.07,-0.06,-0.4,-0.1,91.38,0.1,1,0,0,0,0,0,0,0,0,0,0,0,0,0,0,89.97,0,1,0,-0.33,0,0,0,90,0,0,0,0,0,0,0,0,-0.017,0,0,3,0,0,0,69,0,0,0,0,0,0,,0,NONE,0,0,0,0,0,0,0,0,0,0,0,1.07,0,0,0,0,0,0,0,0,0,89.97,1,-0.017,1.413,-0.0159,0.25,1,-0.0159,0,0,0,0,0,0,1,1,0,0,VALID,0,0,0,0,0,1,0,0,0,0,0,0,0,0,0,0,0,0,0,0,641.98,1928.65,6,0,0.06,0.06,109,13.33,0.1,0.06,10.26,LANDED,C-1000G,0:/Integrated Flight Computer/aircraft/c_1000g_cfg.ks (inferred preloaded)
10.76,TAKEOFF,TO_GROUND_ROLL,11.06,80,68.94,4.82,1.05,-0.06,-0.4,-0.09,91.4,0.092,1,0,0,0,0,0,0,0,0,0,0,0,0,0,0,89.96,0,1,0,-0.33,0,0,0,90,0,0,0,0,0,0,0,0,-0.019,0,0,3,0,0,0,69,0,0,0,0,0,0,,0,NONE,0,0,0,0,0,0,0,0,0,0,0,1.05,0,0,0,0,0,0,0,0,0,89.96,1,-0.019,1.439,-0.0162,0.25,1,-0.0162,0,0,0,0,0,0,1,1,0,0,VALID,0,0,0,0,0,1,0,0,0,0,0,0,0,0,0,0,0,0,0,0,664.55,1927.49,6,0,0.06,0.06,113,13.33,0.1,0.06,10.56,LANDED,C-1000G,0:/Integrated Flight Computer/aircraft/c_1000g_cfg.ks (inferred preloaded)
11.04,TAKEOFF,TO_GROUND_ROLL,11.93,80,68.07,4.82,1.04,-0.07,-0.4,-0.09,91.43,0.089,1,0,0,0,0,0,0,0,0,0,0,0,0,0,0,89.96,0,1,0,-0.33,0,0,0,90,0,0,0,0,0,0,0,0,-0.021,0,0,3,0,0,0,69,0,0,0,0,0,0,,0,NONE,0,0,0,0,0,0,0,0,0,0,0,1.04,0,0,0,0,0,0,0,0,0,89.96,1,-0.021,1.465,-0.0165,0.25,1,-0.0165,0,0,0,0,0,0,1,1,0,0,VALID,0,0,0,0,0,1,0,0,0,0,0,0,0,0,0,0,0,0,0,0,685.2,1926.35,6,0,0.06,0.06,117,14.29,0.08,0.06,10.84,LANDED,C-1000G,0:/Integrated Flight Computer/aircraft/c_1000g_cfg.ks (inferred preloaded)
11.32,TAKEOFF,TO_GROUND_ROLL,12.83,80,67.17,4.82,1.02,-0.07,-0.4,-0.09,91.45,0.092,1,0,0,0,0,0,0,0,0,0,0,0,0,0,0,89.96,0,1,0,-0.33,0,0,0,90,0,0,0,0,0,0,0,0,-0.023,0,0,3,0,0,0,69,0,0,0,0,0,0,,0,NONE,0,0,0,0,0,0,0,0,0,0,0,1.02,0,0,0,0,0,0,0,0,0,89.96,1,-0.023,1.491,-0.0168,0.25,1,-0.0168,0,0,0,0,0,0,1,1,0,0,VALID,0,0,0,0,0,1,0,0,0,0,0,0,0,0,0,0,0,0,0,0,705.45,1925.15,6,0,0.06,0.06,121,14.29,0.08,0.06,11.12,LANDED,C-1000G,0:/Integrated Flight Computer/aircraft/c_1000g_cfg.ks (inferred preloaded)
11.62,TAKEOFF,TO_GROUND_ROLL,13.81,80,66.19,4.82,0.99,-0.08,-0.39,-0.09,91.48,0.098,1,0,0,0,0,0,0,0,0,0,0,0,0,0,0,89.96,0,1,0,-0.33,0,0,0,90,0,0,0,0,0,0,0,0,-0.025,0,0,3,0,0,0,69,0,0,0,0,0,0,,0,NONE,0,0,0,0,0,0,0,0,0,0,0,0.99,0,0,0,0,0,0,0,0,0,89.96,1,-0.025,1.519,-0.0171,0.25,1,-0.0171,0,0,0,0,0,0,1,1,0,0,VALID,0,0,0,0,0,1,0,0,0,0,0,0,0,0,0,0,0,0,0,0,726.71,1923.79,6,0,0.06,0.06,125,13.33,0.1,0.06,11.42,LANDED,C-1000G,0:/Integrated Flight Computer/aircraft/c_1000g_cfg.ks (inferred preloaded)
11.9,TAKEOFF,TO_GROUND_ROLL,14.76,80,65.24,4.82,0.97,-0.08,-0.39,-0.09,91.5,0.099,1,0,0,0,0,0,0,0,0,0,0,0,0,0,0,89.96,0,1,0,-0.33,0,0,0,90,0,0,0,0,0,0,0,0,-0.027,0,0,3,0,0,0,69,0,0,0,0,0,0,,0,NONE,0,0,0,0,0,0,0,0,0,0,0,0.97,0,0,0,0,0,0,0,0,0,89.96,1,-0.027,1.545,-0.0174,0.25,1,-0.0174,0,0,0,0,0,0,1,1,0,0,VALID,0,0,0,0,0,1,0,0,0,0,0,0,0,0,0,0,0,0,0,0,746.15,1922.46,6,0,0.06,0.06,129,14.29,0.08,0.06,11.7,LANDED,C-1000G,0:/Integrated Flight Computer/aircraft/c_1000g_cfg.ks (inferred preloaded)
12.18,TAKEOFF,TO_GROUND_ROLL,15.73,80,64.27,4.82,0.95,-0.09,-0.39,-0.09,91.52,0.096,1,0,0,0,0,0,0,0,0,0,0,0,0,0,0,89.95,0,1,0,-0.33,0,0,0,90,0,0,0,0,0,0,0,0,-0.03,0,0,3,0,0,0,69,0,0,0,0,0,0,,0,NONE,0,0,0,0,0,0,0,0,0,0,0,0.95,0,0,0,0,0,0,0,0,0,89.95,1,-0.03,1.571,-0.0177,0.25,1,-0.0177,0,0,0,0,0,0,1,1,0,0,VALID,0,0,0,0,0,1,0,0,0,0,0,0,0,0,0,0,0,0,0,0,765.21,1921.06,6,0,0.06,0.06,133,14.29,0.08,0.06,11.98,LANDED,C-1000G,0:/Integrated Flight Computer/aircraft/c_1000g_cfg.ks (inferred preloaded)
12.48,TAKEOFF,TO_GROUND_ROLL,16.8,80,63.2,4.82,0.92,-0.1,-0.39,-0.09,91.55,0.091,1,0,0,0,0,0,0,0,0,0,0,0,0,0,0,89.95,0,1,0,-0.33,0,0,0.01,90,0,0,0,0,0,0,0,0,-0.033,0,0,3,0,0,0,69,0,0,0,0,0,0,,0,NONE,0,0,0,0,0,0,0,0,0,0,0,0.92,0,0,0,0,0,0,0,0,0,89.95,1,-0.033,1.598,-0.018,0.25,1,-0.018,0,0,0,0,0,0,1,1,0,0,VALID,0,0,0,0,0,1,0,0,0,0,0,0,0,0,0,0,0,0,0,0,785.2,1919.48,6,0,0.06,0.06,137,13.33,0.1,0.06,12.28,LANDED,C-1000G,0:/Integrated Flight Computer/aircraft/c_1000g_cfg.ks (inferred preloaded)
12.76,TAKEOFF,TO_GROUND_ROLL,17.82,80,62.18,4.82,0.89,-0.1,-0.39,-0.09,91.57,0.09,1,0,0,0,0,0,0,0,0,0,0,0,0,0,0,89.95,0,1,0,-0.32,0,0,0.01,90,0,0,0,0,0,0,0,0,-0.036,0,0,3,0,0,0,69,0,0,0,0,0,0,,0,NONE,0,0,0,0,0,0,0,0,0,0,0,0.89,0,0,0,0,0,0,0,0,0,89.95,1,-0.036,1.623,-0.0183,0.25,1,-0.0183,0,0,0,0,0,0,1,1,0,0,VALID,0,0,0,0,0,1,0,0,0,0,0,0,0,0,0,0,0,0,0,0,803.47,1917.94,6,0,0.06,0.06,141,14.29,0.08,0.06,12.56,LANDED,C-1000G,0:/Integrated Flight Computer/aircraft/c_1000g_cfg.ks (inferred preloaded)
13.06,TAKEOFF,TO_GROUND_ROLL,18.94,80,61.06,4.82,0.86,-0.11,-0.39,-0.08,91.6,0.092,1,0,0,0,0,0,0,0,0,0,0,0,0,0,0,89.95,0,1,0,-0.33,0,0,0.01,90,0,0,0,0,0,0,0,0,-0.039,0,0,3,0,0,0,69,0,0,0,0,0,0,,0,NONE,0,0,0,0,0,0,0,0,0,0,0,0.86,0,0,0,0,0,0,0,0,0,89.95,1,-0.039,1.65,-0.0186,0.25,1,-0.0186,0,0,0,0,0,0,1,1,0,0,VALID,0,0,0,0,0,1,0,0,0,0,0,0,0,0,0,0,0,0,0,0,822.62,1916.22,6,0,0.06,0.06,145,13.33,0.1,0.06,12.86,LANDED,C-1000G,0:/Integrated Flight Computer/aircraft/c_1000g_cfg.ks (inferred preloaded)
13.36,TAKEOFF,TO_GROUND_ROLL,20.08,80,59.92,4.83,0.83,-0.11,-0.39,-0.08,91.62,0.094,1,0,0,0,0,0,0,0,0,0,0,0,0,0,0,89.94,0,1,0,-0.32,0,0,0.01,90,0,0,0,0,0,0,0,0,-0.042,0,0,3,0,0,0,69,0,0,0,0,0,0,,0,NONE,0,0,0,0,0,0,0,0,0,0,0,0.83,0,0,0,0,0,0,0,0,0,89.94,1,-0.042,1.675,-0.0189,0.251,0,-0.0189,0,0,0,0,0,0,1,1,0,0,VALID,0,0,0,0,0,1,0,0,0,0,0,0,0,0,0,0,0,0,0,0,841.35,1914.41,6,0,0.06,0.06,149,13.33,0.1,0.06,13.16,LANDED,C-1000G,0:/Integrated Flight Computer/aircraft/c_1000g_cfg.ks (inferred preloaded)
13.64,TAKEOFF,TO_GROUND_ROLL,21.17,80,58.83,4.83,0.8,-0.12,-0.38,-0.08,91.64,0.095,1,0,0,0,0,0,0,0,0,0,0,0,0,0,0,89.94,0,1,0,-0.32,0,0,0.01,90,0,0,0,0,0,0,0,0,-0.046,0,0,3,0,0,0,69,0,0,0,0,0,0,,0,NONE,0,0,0,0,0,0,0,0,0,0,0,0.8,0,0,0,0,0,0,0,0,0,89.94,1,-0.046,1.698,-0.0201,0.263,0,-0.0201,0,0,0,0,0,0,1,1,0,0,VALID,0,0,0,0,0,1,0,0,0,0,0,0,0,0,0,0,0,0,0,0,858.45,1912.65,6,0,0.06,0.06,153,14.29,0.08,0.06,13.44,LANDED,C-1000G,0:/Integrated Flight Computer/aircraft/c_1000g_cfg.ks (inferred preloaded)
13.92,TAKEOFF,TO_GROUND_ROLL,22.28,80,57.72,4.83,0.76,-0.12,-0.38,-0.08,91.66,0.094,1,0,0,0,0,0,0,0,0,0,0,0,0,0,0,89.94,0,1,0,-0.32,0,0,0.01,90,0,0,0,0,0,0,0,0,-0.05,0,0,3,0,0,0,69,0,0,0,0,0,0,,0,NONE,0,0,0,0,0,0,0,0,0,0,0,0.76,0,0,0,0,0,0,0,0,0,89.94,1,-0.05,1.718,-0.0212,0.274,0,-0.0212,0,0,0,0,0,0,1,1,0,0,VALID,0,0,0,0,0,1,0,0,0,0,0,0,0,0,0,0,0,0,0,0,875.19,1910.81,6,0,0.06,0.06,157,14.29,0.08,0.06,13.72,LANDED,C-1000G,0:/Integrated Flight Computer/aircraft/c_1000g_cfg.ks (inferred preloaded)
14.22,TAKEOFF,TO_GROUND_ROLL,23.5,80,56.5,4.83,0.72,-0.13,-0.38,-0.08,91.67,0.092,1,0,0,0,0,0,0,0,0,0,0,0,0,0,0,89.93,0,1,0,-0.32,0,0,0.01,90,0,0,0,0,0,0,0,0,-0.054,0,0,3,0,0,0,69,0,0,0,0,0,0,,0,NONE,0,0,0,0,0,0,0,0,0,0,0,0.72,0,0,0,0,0,0,0,0,0,89.93,1,-0.054,1.739,-0.0225,0.288,0,-0.0225,0,0,0,0,0,0,1,1,0,0,VALID,0,0,0,0,0,1,0,0,0,0,0,0,0,0,0,0,0,0,0,0,892.72,1908.77,6,0,0.06,0.06,161,13.33,0.1,0.06,14.02,LANDED,C-1000G,0:/Integrated Flight Computer/aircraft/c_1000g_cfg.ks (inferred preloaded)
14.5,TAKEOFF,TO_GROUND_ROLL,24.66,80,55.34,4.83,0.69,-0.14,-0.38,-0.08,91.69,0.091,1,0,0,0,0,0,0,0,0,0,0,0,0,0,0,89.93,0,1,0,-0.32,0,0,0.01,90,0,0,0,0,0,0,0,0,-0.058,0,0,3,0,0,0,69,0,0,0,0,0,0,,0,NONE,0,0,0,0,0,0,0,0,0,0,0,0.69,0,0,0,0,0,0,0,0,0,89.93,1,-0.058,1.756,-0.0237,0.3,0,-0.0237,0,0,0,0,0,0,1,1,0,0,VALID,0,0,0,0,0,1,0,0,0,0,0,0,0,0,0,0,0,0,0,0,908.72,1906.78,6,0,0.06,0.06,165,14.29,0.08,0.06,14.3,LANDED,C-1000G,0:/Integrated Flight Computer/aircraft/c_1000g_cfg.ks (inferred preloaded)
14.78,TAKEOFF,TO_GROUND_ROLL,25.83,80,54.17,4.83,0.65,-0.14,-0.38,-0.08,91.7,0.092,1,0,0,0,0,0,0,0,0,0,0,0,0,0,0,89.93,0,1,0,-0.32,0,0,0.01,90,0,0,0,0,0,0,0,0,-0.063,0,0,3,0,0,0,69,0,0,0,0,0,0,,0,NONE,0,0,0,0,0,0,0,0,0,0,0,0.65,0,0,0,0,0,0,0,0,0,89.93,1,-0.063,1.772,-0.0249,0.312,0,-0.0249,0,0,0,0,0,0,1,1,0,0,VALID,0,0,0,0,0,1,0,0,0,0,0,0,0,0,0,0,0,0,0,0,924.36,1904.72,6,0,0.06,0.06,169,14.29,0.08,0.06,14.58,LANDED,C-1000G,0:/Integrated Flight Computer/aircraft/c_1000g_cfg.ks (inferred preloaded)
15.08,TAKEOFF,TO_GROUND_ROLL,27.11,80,52.89,4.83,0.6,-0.15,-0.38,-0.07,91.71,0.093,1,0,0,0,0,0,0,0,0,0,0,0,0,0,0,89.93,0,1,0,-0.32,0,0,0.01,90,0,0,0,0,0,0,0,0,-0.068,0,0,3,0,0,0,69,0,0,0,0,0,0,,0,NONE,0,0,0,0,0,0,0,0,0,0,0,0.6,0,0,0,0,0,0,0,0,0,89.93,1,-0.068,1.785,-0.0262,0.326,0,-0.0262,0,0,0,0,0,0,1,1,0,0,VALID,0,0,0,0,0,1,0,0,0,0,0,0,0,0,0,0,0,0,0,0,940.74,1902.43,6,0,0.06,0.06,173,13.33,0.1,0.06,14.88,LANDED,C-1000G,0:/Integrated Flight Computer/aircraft/c_1000g_cfg.ks (inferred preloaded)
15.36,TAKEOFF,TO_GROUND_ROLL,28.33,80,51.67,4.83,0.56,-0.16,-0.37,-0.08,91.72,0.094,1,0,0,0,0,0,0,0,0,0,0,0,0,0,0,89.92,0,1,0,-0.31,0,0,0.01,90,0,0,0,0,0,0,0,0,-0.073,0,0,3,0,0,0,69,0,0,0,0,0,0,,0,NONE,0,0,0,0,0,0,0,0,0,0,0,0.56,0,0,0,0,0,0,0,0,0,89.92,1,-0.073,1.797,-0.0274,0.339,0,-0.0274,0,0,0,0,0,0,1,1,0,0,VALID,0,0,0,0,0,1,0,0,0,0,0,0,0,0,0,0,0,0,0,0,955.66,1900.22,6,0,0.06,0.06,177,14.29,0.08,0.06,15.16,LANDED,C-1000G,0:/Integrated Flight Computer/aircraft/c_1000g_cfg.ks (inferred preloaded)
15.66,TAKEOFF,TO_GROUND_ROLL,29.65,80,50.35,4.83,0.51,-0.16,-0.37,-0.07,91.73,0.094,1,0,0,0,0,0,0,0,0,0,0,0,0,0,0,89.92,0,1,0,-0.32,0,0,0.01,90,0,0,0,0,0,0,0,0,-0.078,0,0,3,0,0,0,69,0,0,0,0,0,0,,0,NONE,0,0,0,0,0,0,0,0,0,0,0,0.51,0,0,0,0,0,0,0,0,0,89.92,1,-0.078,1.807,-0.0287,0.353,0,-0.0287,0,0,0,0,0,0,1,1,0,0,VALID,0,0,0,0,0,1,0,0,0,0,0,0,0,0,0,0,0,0,0,0,971.27,1897.76,6,0,0.06,0.06,181,13.33,0.1,0.06,15.46,LANDED,C-1000G,0:/Integrated Flight Computer/aircraft/c_1000g_cfg.ks (inferred preloaded)
15.96,TAKEOFF,TO_GROUND_ROLL,31,80,49,4.83,0.46,-0.17,-0.37,-0.08,91.73,0.093,1,0,0,0,0,0,0,0,0,0,0,0,0,0,0,89.91,0,1,0,-0.31,0,0,0.01,90,0,0,0,0,0,0,0,0,-0.084,0,0,3,0,0,0,69,0,0,0,0,0,0,,0,NONE,0,0,0,0,0,0,0,0,0,0,0,0.46,0,0,0,0,0,0,0,0,0,89.91,1,-0.084,1.818,-0.0301,0.368,0,-0.0301,0,0,0,0,0,0,1,1,0,0,VALID,0,0,0,0,0,1,0,0,0,0,0,0,0,0,0,0,0,0,0,0,986.49,1895.22,6,0,0.06,0.06,185,13.33,0.1,0.06,15.76,LANDED,C-1000G,0:/Integrated Flight Computer/aircraft/c_1000g_cfg.ks (inferred preloaded)
16.24,TAKEOFF,TO_GROUND_ROLL,32.27,80,47.73,4.83,0.42,-0.18,-0.36,-0.06,91.74,0.099,1,0,0,0,0,0,0,0,0,0,0,0,0,0,0,89.9,0,1,0,-0.31,0,0,0.01,90,0,0,0,0,0,0,0,0,-0.09,0,0,3,0,0,0,69,0,0,0,0,0,0,,0,NONE,0,0,0,0,0,0,0,0,0,0,0,0.42,0,0,0,0,0,0,0,0,0,89.9,1,-0.09,1.847,-0.0317,0.381,0,-0.0317,0,0,0,0,0,0,1,1,0,0,VALID,0,0,0,0,0,1,0,0,0,0,0,0,0,0,0,0,0,0,0,0,1000.35,1892.77,6,0,0.06,0.06,189,14.29,0.08,0.06,16.04,LANDED,C-1000G,0:/Integrated Flight Computer/aircraft/c_1000g_cfg.ks (inferred preloaded)
16.52,TAKEOFF,TO_GROUND_ROLL,33.55,80,46.45,4.83,0.37,-0.18,-0.36,-0.07,91.76,0.1,1,0,0,0,0,0,0,0,0,0,0,0,0,0,0,89.9,0,1,0,-0.31,0,0,0.02,90,0,0,0,0,0,0,0,0,-0.095,0,0,3,0,0,0,69,0,0,0,0,0,0,,0,NONE,0,0,0,0,0,0,0,0,0,0,0,0.37,0,0,0,0,0,0,0,0,0,89.9,1,-0.095,1.862,-0.0331,0.395,0,-0.0331,0,0,0,0,0,0,1,1,0,0,VALID,0,0,0,0,0,1,0,0,0,0,0,0,0,0,0,0,0,0,0,0,1013.88,1890.26,6,0,0.06,0.06,193,14.29,0.08,0.06,16.32,LANDED,C-1000G,0:/Integrated Flight Computer/aircraft/c_1000g_cfg.ks (inferred preloaded)
16.82,TAKEOFF,TO_GROUND_ROLL,34.94,80,45.06,4.83,0.31,-0.19,-0.35,-0.06,91.77,0.092,1,0,0,0,0,0,0,0,0,0,0,0,0,0,0,89.89,0,1,0,-0.31,0,0,0.02,90,0,0,0,0,0,0,0,0,-0.102,0,0,3,0,0,0,69,0,0,0,0,0,0,,0,NONE,0,0,0,0,0,0,0,0,0,0,0,0.31,0,0,0,0,0,0,0,0,0,89.89,1,-0.102,1.871,-0.0345,0.41,0,-0.0345,0,0,0,0,0,0,1,1,0,0,VALID,0,0,0,0,0,1,0,0,0,0,0,0,0,0,0,0,0,0,0,0,1028.02,1887.48,6,0,0.06,0.06,197,13.33,0.1,0.06,16.62,LANDED,C-1000G,0:/Integrated Flight Computer/aircraft/c_1000g_cfg.ks (inferred preloaded)
17.1,TAKEOFF,TO_GROUND_ROLL,36.26,80,43.74,4.83,0.26,-0.2,-0.36,-0.07,91.77,0.086,1,0,0,0,0,0,0,0,0,0,0,0,0,0,0,89.89,0,1,0,-0.31,0,0,0.02,90,0,0,0,0,0,0,0,0,-0.108,0,0,3,0,0,0,69,0,0,0,0,0,0,,0,NONE,0,0,0,0,0,0,0,0,0,0,0,0.26,0,0,0,0,0,0,0,0,0,89.89,1,-0.108,1.878,-0.0359,0.424,0,-0.0359,0,0,0,0,0,0,1,1,0,0,VALID,0,0,0,0,0,1,0,0,0,0,0,0,0,0,0,0,0,0,0,0,1040.88,1884.82,6,0,0.06,0.06,201,14.29,0.08,0.06,16.9,LANDED,C-1000G,0:/Integrated Flight Computer/aircraft/c_1000g_cfg.ks (inferred preloaded)
17.38,TAKEOFF,TO_GROUND_ROLL,37.59,80,42.41,4.83,0.2,-0.2,-0.35,-0.06,91.77,0.088,1,0,0,0,0,0,0,0,0,0,0,0,0,0,0,89.88,0,1,0,-0.31,0,0,0.02,90,0,0,0,0,0,0,0,0,-0.115,0,0,3,0,0,0,69,0,0,0,0,0,0,,0,NONE,0,0,0,0,0,0,0,0,0,0,0,0.2,0,0,0,0,0,0,0,0,0,89.88,1,-0.115,1.885,-0.0372,0.438,0,-0.0372,0,0,0,0,0,0,1,1,0,0,VALID,0,0,0,0,0,1,0,0,0,0,0,0,0,0,0,0,0,0,0,0,1053.42,1882.08,6,0,0.06,0.06,205,14.29,0.08,0.06,17.18,LANDED,C-1000G,0:/Integrated Flight Computer/aircraft/c_1000g_cfg.ks (inferred preloaded)
17.68,TAKEOFF,TO_GROUND_ROLL,39.04,80,40.96,4.83,0.14,-0.21,-0.35,-0.06,91.77,0.094,1,0,0,0,0,0,0,0,0,0,0,0,0,0,0,89.88,0,1,0,-0.31,0,0,0.02,90,0,0,0,0,0,0,0,0,-0.123,0,0,3,0,0,0,69,0,0,0,0,0,0,,0,NONE,0,0,0,0,0,0,0,0,0,0,0,0.14,0,0,0,0,0,0,0,0,0,89.88,1,-0.123,1.89,-0.0386,0.454,0,-0.0386,0,0,0,0,0,0,1,1,0,0,VALID,0,0,0,0,0,1,0,0,0,0,0,0,0,0,0,0,0,0,0,0,1066.51,1879.06,6,0,0.06,0.06,209,13.33,0.1,0.06,17.48,LANDED,C-1000G,0:/Integrated Flight Computer/aircraft/c_1000g_cfg.ks (inferred preloaded)
17.96,TAKEOFF,TO_GROUND_ROLL,40.4,80,39.6,4.83,0.08,-0.22,-0.35,-0.06,91.76,0.098,1,0,0,0,0,0,0,0,0,0,0,0,0,0,0,89.88,0,1,0,-0.31,0,0,0.02,90,0,0,0,0,0,0,0,0,-0.13,0,0,3,0,0,0,69,0,0,0,0,0,0,,0,NONE,0,0,0,0,0,0,0,0,0,0,0,0.08,0,0,0,0,0,0,0,0,0,89.88,1,-0.13,1.889,-0.0398,0.469,0,-0.0398,0,0,0,0,0,0,1,1,0,0,VALID,0,0,0,0,0,1,0,0,0,0,0,0,0,0,0,0,0,0,0,0,1078.39,1876.16,6,0,0.06,0.06,213,14.29,0.08,0.06,17.76,LANDED,C-1000G,0:/Integrated Flight Computer/aircraft/c_1000g_cfg.ks (inferred preloaded)
18.26,TAKEOFF,TO_GROUND_ROLL,41.88,80,38.12,4.83,0.02,-0.22,-0.35,-0.06,91.75,0.094,1,0,0,0,0,0,0,0,0,0,0,0,0,0,0,89.87,0,1,0,-0.3,0,0,0.02,90,0,0,0,0,0,0,0,0,-0.138,0,0,3,0,0,0,69,0,0,0,0,0,0,,0,NONE,0,0,0,0,0,0,0,0,0,0,0,0.02,0,0,0,0,0,0,0,0,0,89.87,1,-0.138,1.879,-0.041,0.484,0,-0.041,0,0,0,0,0,0,1,1,0,0,VALID,0,0,0,0,0,1,0,0,0,0,0,0,0,0,0,0,0,0,0,0,1090.79,1872.98,6,0,0.06,0.06,217,13.33,0.1,0.06,18.06,LANDED,C-1000G,0:/Integrated Flight Computer/aircraft/c_1000g_cfg.ks (inferred preloaded)
18.56,TAKEOFF,TO_GROUND_ROLL,43.37,80,36.63,4.84,-0.05,-0.23,-0.34,-0.06,91.73,0.089,1,0,0,0,0,0,0,0,0,0,0,0,0,0,0,89.87,0,1,0,-0.3,0,0,0.02,90,0,0,0,0,0,0,0,0,-0.146,0,0,3,0,0,0,69,0,0,0,0,0,0,,0,NONE,0,0,0,0,0,0,0,0,0,0,0,0,0,0,0,0,0,0,0,0,0,89.87,1,-0.146,1.866,-0.042,0.5,0,-0.042,0,0,0,0,0,0,1,1,0,0,VALID,0,0,0,0,0,1,0,0,0,0,0,0,0,0,0,0,0,0,0,0,1102.83,1869.72,6,0,0.06,0.06,221,13.33,0.1,0.06,18.36,LANDED,C-1000G,0:/Integrated Flight Computer/aircraft/c_1000g_cfg.ks (inferred preloaded)
18.84,TAKEOFF,TO_GROUND_ROLL,44.78,80,35.22,4.84,-0.11,-0.24,-0.34,-0.06,91.71,0.089,1,0,0,0,0,0,0,0,0,0,0,0,0,0,0,89.86,0,1,0,-0.3,0,0,0.02,90,0,0,0,0,0,0,0,0,-0.154,0,0,3,0,0,0,69,0,0,0,0,0,0,,0,NONE,0,0,0,0,0,0,0,0,0,0,0,0,0,0,0,0,0,0,0,0,0,89.86,1,-0.154,1.852,-0.043,0.516,0,-0.043,0,0,0,0,0,0,1,1,0,0,VALID,0,0,0,0,0,1,0,0,0,0,0,0,0,0,0,0,0,0,0,0,1113.76,1866.6,6,0,0.06,0.06,225,14.29,0.08,0.06,18.64,LANDED,C-1000G,0:/Integrated Flight Computer/aircraft/c_1000g_cfg.ks (inferred preloaded)
19.12,TAKEOFF,TO_GROUND_ROLL,46.21,80,33.79,4.84,-0.18,-0.24,-0.34,-0.06,91.69,0.092,1,0,0,0,0,0,0,0,0,0,0,0,0,0,0,89.85,0,1,0,-0.3,0,0,0.03,90,0,0,0,0,0,0,0,0,-0.163,0,0,3,0,0,0,69,0,0,0,0,0,0,,0,NONE,0,0,0,0,0,0,0,0,0,0,0,0,0,0,0,0,0,0,0,0,0,89.85,1,-0.163,1.836,-0.0438,0.531,0,-0.0438,0,0,0,0,0,0,1,1,0,0,VALID,0,0,0,0,0,1,0,0,0,0,0,0,0,0,0,0,0,0,0,0,1124.4,1863.42,6,0,0.06,0.06,229,14.29,0.08,0.06,18.92,LANDED,C-1000G,0:/Integrated Flight Computer/aircraft/c_1000g_cfg.ks (inferred preloaded)
19.42,TAKEOFF,TO_GROUND_ROLL,47.74,80,32.26,4.84,-0.25,-0.25,-0.34,-0.06,91.66,0.095,1,0,0,0,0,0,0,0,0,0,0,0,0,0,0,89.85,0,1,0,-0.3,0,0,0.03,90,0,0,0,0,0,0,0,0,-0.172,0,0,3,0,0,0,69,0,0,0,0,0,0,,0,NONE,0,0,0,0,0,0,0,0,0,0,0,0,0,0,0,0,0,0,0,0,0,89.85,1,-0.172,1.814,-0.0447,0.547,0,-0.0447,0,0,0,0,0,0,1,1,0,0,VALID,0,0,0,0,0,1,0,0,0,0,0,0,0,0,0,0,0,0,0,0,1135.47,1859.93,6,0,0.06,0.06,233,13.33,0.1,0.06,19.22,LANDED,C-1000G,0:/Integrated Flight Computer/aircraft/c_1000g_cfg.ks (inferred preloaded)
19.7,TAKEOFF,TO_GROUND_ROLL,49.19,80,30.81,4.84,-0.32,-0.25,-0.34,-0.06,91.63,0.094,1,0,0,0,0,0,0,0,0,0,0,0,0,0,0,89.84,0,1,0,-0.3,0,0,0.03,90,0,0,0,0,0,0,0,0,-0.181,0,0,3,0,0,0,69,0,0,0,0,0,0,,0,NONE,0,0,0,0,0,0,0,0,0,0,0,0,0,0,0,0,0,0,0,0,0,89.84,1,-0.181,1.79,-0.0453,0.563,0,-0.0453,0,0,0,0,0,0,1,1,0,0,VALID,0,0,0,0,0,1,0,0,0,0,0,0,0,0,0,0,0,0,0,0,1145.5,1856.6,6,0,0.06,0.06,237,14.29,0.08,0.06,19.5,LANDED,C-1000G,0:/Integrated Flight Computer/aircraft/c_1000g_cfg.ks (inferred preloaded)
19.98,TAKEOFF,TO_GROUND_ROLL,50.65,80,29.35,4.84,-0.4,-0.26,-0.33,-0.06,91.6,0.091,1,0,0,0,0,0,0,0,0,0,0,0,0,0,0,89.83,0,1,0,-0.29,0,0,0.03,90,0,0,0,0,0,0,0,0,-0.19,0,0,3,0,0,0,69,0,0,0,0,0,0,,0,NONE,0,0,0,0,0,0,0,0,0,0,0,0,0,0,0,0,0,0,0,0,0,89.83,1,-0.19,1.768,-0.046,0.578,0,-0.046,0,0,0,0,0,0,1,1,0,0,VALID,0,0,0,0,0,1,0,0,0,0,0,0,0,0,0,0,0,0,0,0,1155.24,1853.21,6,0,0.06,0.06,241,14.29,0.08,0.06,19.78,LANDED,C-1000G,0:/Integrated Flight Computer/aircraft/c_1000g_cfg.ks (inferred preloaded)
20.28,TAKEOFF,TO_GROUND_ROLL,52.23,80,27.77,4.84,-0.47,-0.27,-0.33,-0.05,91.57,0.091,1,0,0,0,0,0,0,0,0,0,0,0,0,0,0,89.82,0,1,0,-0.29,0,0,0.03,90,0,0,0,0,0,0,0,0,-0.2,0,0,3,0,0,0,69,0,0,0,0,0,0,,0,NONE,0,0,0,0,0,0,0,0,0,0,0,0,0,0,0,0,0,0,0,0,0,89.82,1,-0.2,1.749,-0.0469,0.595,0,-0.0469,0,0,0,0,0,0,1,1,0,0,VALID,0,0,0,0,0,1,0,0,0,0,0,0,0,0,0,0,0,0,0,0,1165.37,1849.5,6,0,0.06,0.06,245,13.33,0.1,0.06,20.08,LANDED,C-1000G,0:/Integrated Flight Computer/aircraft/c_1000g_cfg.ks (inferred preloaded)
20.56,TAKEOFF,TO_GROUND_ROLL,53.71,80,26.29,4.84,-0.55,-0.27,-0.33,-0.05,91.54,0.095,1,0,0,0,0,0,0,0,0,0,0,0,0,0,0,89.81,0,1,0,-0.29,0,0,0.03,90,0,0,0,0,0,0,0,0,-0.21,0,0,3,0,0,0,69,0,0,0,0,0,0,,0,NONE,0,0,0,0,0,0,0,0,0,0,0,0,0,0,0,0,0,0,0,0,0,89.81,1,-0.21,1.737,-0.0478,0.611,0,-0.0478,0,0,0,0,0,0,1,1,0,0,VALID,0,0,0,0,0,1,0,0,0,0,0,0,0,0,0,0,0,0,0,0,1174.54,1845.98,6,0,0.06,0.06,249,14.29,0.08,0.06,20.36,LANDED,C-1000G,0:/Integrated Flight Computer/aircraft/c_1000g_cfg.ks (inferred preloaded)
20.86,TAKEOFF,TO_GROUND_ROLL,55.32,80,24.68,4.84,-0.63,-0.28,-0.33,-0.05,91.52,0.1,1,0,0,0,0,0,0,0,0,0,0,0,0,0,0,89.8,0,1,0,-0.29,0,0,0.03,90,0,0,0,0,0,0,0,0,-0.221,0,0,3,0,0,0,69,0,0,0,0,0,0,,0,NONE,0,0,0,0,0,0,0,0,0,0,0,0,0,0,0,0,0,0,0,0,0,89.8,1,-0.221,1.725,-0.0488,0.628,0,-0.0488,0,0,0,0,0,0,1,1,0,0,VALID,0,0,0,0,0,1,0,0,0,0,0,0,0,0,0,0,0,0,0,0,1184.06,1842.13,6,0,0.06,0.06,253,13.33,0.1,0.06,20.66,LANDED,C-1000G,0:/Integrated Flight Computer/aircraft/c_1000g_cfg.ks (inferred preloaded)
21.16,TAKEOFF,TO_GROUND_ROLL,56.93,80,23.07,4.84,-0.72,-0.29,-0.32,-0.05,91.48,0.112,1,0,0,0,0,0,0,0,0,0,0,0,0,0,0,89.81,0,1,0,-0.29,0,0,0.04,90,0,0,0,0,0,0,0,0,-0.231,0,0,3,0,0,0,69,0,0,0,0,0,0,,0,NONE,0,0,0,0,0,0,0,0,0,0,0,0,0,0,0,0,0,0,0,0,0,89.81,1,-0.231,1.678,-0.0488,0.646,0,-0.0488,0,0,0,0,0,0,1,1,0,0,VALID,0,0,0,0,0,1,0,0,0,0,0,0,0,0,0,0,0,0,0,0,1193.28,1838.22,6,0,0.06,0.06,257,13.33,0.1,0.06,20.96,LANDED,C-1000G,0:/Integrated Flight Computer/aircraft/c_1000g_cfg.ks (inferred preloaded)
21.44,TAKEOFF,TO_GROUND_ROLL,58.45,80,21.55,4.84,-0.8,-0.29,-0.32,-0.05,91.34,0.145,1,0,0,0,0,0,0,0,0,0,0,0,0,0,0,89.91,0,1,0,-0.28,0,0,0.04,90,0,0,0,0,0,0,0,0,-0.241,0,0,3,0,0,0,69,0,0,0,0,0,0,,0,NONE,0,0,0,0,0,0,0,0,0,0,0,0,0,0,0,0,0,0,0,0,0,89.91,1,-0.241,1.428,-0.0425,0.662,0,-0.0425,0,0,0,0,0,0,1,1,0,0,VALID,0,0,0,0,0,1,0,0,0,0,0,0,0,0,0,0,0,0,0,0,1201.61,1834.51,6,0,0.06,0.06,261,14.29,0.08,0.06,21.24,LANDED,C-1000G,0:/Integrated Flight Computer/aircraft/c_1000g_cfg.ks (inferred preloaded)
21.72,TAKEOFF,TO_GROUND_ROLL,59.97,80,20.03,4.84,-0.88,-0.3,-0.32,-0.05,91.06,0.172,1,0,0,0,0,0,0,0,0,0,0,0,0,0,0,89.97,0,1,0,-0.28,0,0,0.04,90,0,0,0,0,0,0,0,0,-0.25,0,0,3,0,0,0,69,0,0,0,0,0,0,,0,NONE,0,0,0,0,0,0,0,0,0,0,0,0,0,0,0,0,0,0,0,0,0,89.97,1,-0.25,1.091,-0.0333,0.678,0,-0.0333,0,0,0,0,0,0,1,1,0,0,VALID,0,0,0,0,0,1,0,0,0,0,0,0,0,0,0,0,0,0,0,0,1209.68,1830.74,6,0,0.06,0.06,265,14.29,0.08,0.06,21.52,LANDED,C-1000G,0:/Integrated Flight Computer/aircraft/c_1000g_cfg.ks (inferred preloaded)
22.02,TAKEOFF,TO_GROUND_ROLL,61.62,80,18.38,4.84,-0.97,-0.3,-0.31,-0.05,90.71,0.201,1,0,0,0,0,0,0,0,0,0,0,0,0,0,0,89.98,0,1,0,-0.28,0,0,0.04,90,0,0,0,0,0,0,0,0,-0.257,0,0,3,0,0,0,69,0,0,0,0,0,0,,0,NONE,0,0,0,0,0,0,0,0,0,0,0,0,0,0,0,0,0,0,0,0,0,89.98,1,-0.257,0.726,-0.0227,0.696,0,-0.0227,0,0,0,0,0,0,1,1,0,0,VALID,0,0,0,0,0,1,0,0,0,0,0,0,0,0,0,0,0,0,0,0,1218.04,1826.65,6,0,0.06,0.06,269,13.33,0.1,0.06,21.82,LANDED,C-1000G,0:/Integrated Flight Computer/aircraft/c_1000g_cfg.ks (inferred preloaded)
22.3,TAKEOFF,TO_GROUND_ROLL,63.16,80,16.84,4.84,-1.05,-0.31,-0.31,-0.05,90.37,0.216,1,0,0,0,0,0,0,0,0,0,0,0,0,0,0,89.98,0,1,0,-0.28,0,0,0.04,90,0,0,0,0,0,0,0,0,-0.263,0,0,3,0,0,0,69,0,0,0,0,0,0,,0,NONE,0,0,0,0,0,0,0,0,0,0,0,0,0,0,0,0,0,0,0,0,0,89.98,1,-0.263,0.385,-0.0121,0.712,0,-0.0121,0,0,0,0,0,0,1,1,0,0,VALID,0,0,0,0,0,1,0,0,0,0,0,0,0,0,0,0,0,0,0,0,1225.59,1822.77,6,0,0.06,0.06,273,14.29,0.08,0.06,22.1,LANDED,C-1000G,0:/Integrated Flight Computer/aircraft/c_1000g_cfg.ks (inferred preloaded)
22.58,TAKEOFF,TO_GROUND_ROLL,64.72,80,15.28,4.84,-1.14,-0.31,-0.31,-0.05,90.02,0.215,1,0,0,0,0,0,0,0,0,0,0,0,0,0,0,89.99,0,1,0,-0.27,0,0,0.05,90,0,0,0,0,0,0,0,0,-0.266,0,0,3,0,0,0,69,0,0,0,0,0,0,,0,NONE,0,0,0,0,0,0,0,0,0,0,0,0,0,0,0,0,0,0,0,0,0,89.99,1,-0.266,0.031,-0.0006,0.729,0,-0.0006,0,0,0,0,0,0,1,1,0,0,VALID,0,0,0,0,0,1,0,0,0,0,0,0,0,0,0,0,0,0,0,0,1232.89,1818.85,6,0,0.06,0.06,277,14.29,0.08,0.06,22.38,LANDED,C-1000G,0:/Integrated Flight Computer/aircraft/c_1000g_cfg.ks (inferred preloaded)
22.88,TAKEOFF,TO_GROUND_ROLL,66.39,80,13.61,4.84,-1.23,-0.24,-0.3,-0.11,89.64,0.206,1,0,0,0,0,0,0,0,0,0,0,0,0,0,0,89.99,0,1,0,-0.2,0,0,0.05,90,0,0,0,0,0,0,0,0,-0.266,0,0,3,0,0,0,69,0,0,0,0,0,0,,0,NONE,0,0,0,0,0,0,0,0,0,0,0,0,0,0,0,0,0,0,0,0,0,89.99,1,-0.266,-0.354,0.0113,0.747,0,0.0113,0,0,0,0,0,0,1,1,0,0,VALID,0,0,0,0,0,1,0,0,0,0,0,0,0,0,0,0,0,0,0,0,1240.45,1814.59,6,0,0.06,0.06,281,13.33,0.1,0.06,22.68,LANDED,C-1000G,0:/Integrated Flight Computer/aircraft/c_1000g_cfg.ks (inferred preloaded)
23.16,TAKEOFF,TO_GROUND_ROLL,67.96,80,12.04,4.85,-1.3,-0.39,-0.3,0.01,89.27,0.203,1,0,0,0,0,0,0,0,0,0,0,0,0,0,0,89.99,0,1,0,-0.33,0,0,0.05,90,0,0,0,0,0,0,0,0,-0.264,0,0,3,0,0,0,69,0,0,0,0,0,0,,0,NONE,0,0,0,0,0,0,0,0,0,0,0,0,0,0,0,0,0,0,0,0,0,89.99,1,-0.264,-0.72,0.0247,0.764,0,0.0247,0,0,0,0,0,0,1,1,0,0,VALID,0,0,0,0,0,1,0,0,0,0,0,0,0,0,0,0,0,0,0,0,1247.25,1810.57,6,0,0.06,0.06,285,14.29,0.08,0.06,22.96,LANDED,C-1000G,0:/Integrated Flight Computer/aircraft/c_1000g_cfg.ks (inferred preloaded)
23.46,TAKEOFF,TO_GROUND_ROLL,69.65,80,10.35,4.85,-1.4,-0.25,-0.3,-0.1,88.89,0.208,1,0,0,0,0,0,0,0,0,0,0,0,0,0,0,90,0,1,0,-0.21,0,0,0.05,90,0,0,0,0,0,0,0,0,-0.259,0,0,3,0,0,0,69,0,0,0,0,0,0,,0,NONE,0,0,0,0,0,0,0,0,0,0,0,0,0,0,0,0,0,0,0,0,0,90,1,-0.259,-1.116,0.0393,0.782,0,0.0393,0,0,0,0,0,0,1,1,0,0,VALID,0,0,0,0,0,1,0,0,0,0,0,0,0,0,0,0,0,0,0,0,1254.29,1806.22,6,0,0.06,0.06,289,13.33,0.1,0.06,23.26,LANDED,C-1000G,0:/Integrated Flight Computer/aircraft/c_1000g_cfg.ks (inferred preloaded)
23.76,TAKEOFF,TO_GROUND_ROLL,71.35,80,8.65,4.85,-1.5,-0.39,-0.29,0,88.49,0.216,1,0,0,0,0,0,0,0,0,0,0,0,0,0,0,90.01,0,1,0,-0.31,0,0,0.05,90,0,0,0,0,0,0,0,0,-0.251,0,0,3,0,0,0,69,0,0,0,0,0,0,,0,NONE,0,0,0,0,0,0,0,0,0,0,0,0,0,0,0,0,0,0,0,0,0,90.01,1,-0.251,-1.525,0.0549,0.8,0,0.0549,0,0,0,0,0,0,1,1,0,0,VALID,0,0,0,0,0,1,0,0,0,0,0,0,0,0,0,0,0,0,0,0,1261.07,1801.82,6,0,0.06,0.06,293,13.33,0.1,0.06,23.56,LANDED,C-1000G,0:/Integrated Flight Computer/aircraft/c_1000g_cfg.ks (inferred preloaded)
24.04,TAKEOFF,TO_GROUND_ROLL,72.94,80,7.06,4.85,-1.59,-0.28,-0.29,-0.08,88.11,0.224,1,0,0,0,0,0,0,0,0,0,0,0,0,0,0,90.03,0,1,0,-0.22,0,0,0.06,90,0,0,0,0,0,0,0,0,-0.241,0,0,3,0,0,0,69,0,0,0,0,0,0,,0,NONE,0,0,0,0,0,0,0,0,0,0,0,0,0,0,0,0,0,0,0,0,0,90.03,1,-0.241,-1.916,0.0705,0.817,0,0.0705,0,0,0,0,0,0,1,1,0,0,VALID,0,0,0,0,0,1,0,0,0,0,0,0,0,0,0,0,0,0,0,0,1267.17,1797.67,6,0,0.06,0.06,297,14.29,0.08,0.06,23.84,LANDED,C-1000G,0:/Integrated Flight Computer/aircraft/c_1000g_cfg.ks (inferred preloaded)
24.32,TAKEOFF,TO_GROUND_ROLL,74.54,80,5.46,4.85,-1.68,-0.37,-0.29,-0.02,87.73,0.225,1,0,0,0,0,0,0,0,0,0,0,0,0,0,0,90.04,0,1,0,-0.29,0,0,0.06,90,0,0,0,0,0,0,0,0,-0.227,0,0,3,0,0,0,69,0,0,0,0,0,0,,0,NONE,0,0,0,0,0,0,0,0,0,0,0,0,0,0,0,0,0,0,0,0,0,90.04,1,-0.227,-2.312,0.0868,0.834,0,0.0868,0,0,0,0,0,0,1,1,0,0,VALID,0,0,0,0,0,1,0,0,0,0,0,0,0,0,0,0,0,0,0,0,1273.05,1793.49,6,0,0.06,0.06,301,14.29,0.08,0.06,24.12,LANDED,C-1000G,0:/Integrated Flight Computer/aircraft/c_1000g_cfg.ks (inferred preloaded)
24.62,TAKEOFF,TO_GROUND_ROLL,76.26,80,3.74,4.85,-1.78,-0.31,-0.28,-0.06,87.32,0.226,1,0,0,0,0,0,0,0,0,0,0,0,0,0,0,90.07,0,1,0,-0.24,0,0,0.06,90,0,0,0,0,0,0,0,0,-0.209,0,0,3,0,0,0,69,0,0,0,0,0,0,,0,NONE,0,0,0,0,0,0,0,0,0,0,0,0,0,0,0,0,0,0,0,0,0,90.07,1,-0.209,-2.744,0.1053,0.853,0,0.1053,0,0,0,0,0,0,1,1,0,0,VALID,0,0,0,0,0,1,0,0,0,0,0,0,0,0,0,0,0,0,0,0,1279.12,1788.97,6,0,0.06,0.06,305,13.33,0.1,0.06,24.42,LANDED,C-1000G,0:/Integrated Flight Computer/aircraft/c_1000g_cfg.ks (inferred preloaded)
24.9,TAKEOFF,TO_GROUND_ROLL,77.87,80,2.13,4.85,-1.88,-0.36,-0.28,-0.03,86.94,0.224,1,0,0,0,0,0,0,0,0,0,0,0,0,0,0,90.08,0,1,0,-0.26,0,0,0.06,90,0,0,0,0,0,0,0,0,-0.189,0,0,3,0,0,0,69,0,0,0,0,0,0,,0,NONE,0,0,0,0,0,0,0,0,0,0,0,0,0,0,0,0,0,0,0,0,0,90.08,1,-0.189,-3.147,0.1232,0.87,0,0.1232,0,0,0,0,0,0,1,1,0,0,VALID,0,0,0,0,0,1,0,0,0,0,0,0,0,0,0,0,0,0,0,0,1284.57,1784.72,6,0,0.06,0.06,309,14.29,0.08,0.06,24.7,LANDED,C-1000G,0:/Integrated Flight Computer/aircraft/c_1000g_cfg.ks (inferred preloaded)
25.18,TAKEOFF,TO_GROUND_ROLL,79.49,80,0.51,4.85,-1.97,-0.33,-0.28,-0.05,86.55,0.226,1,0,0,0,0,0,0,0,0,0,0,0,0,0,0,90.11,0,1,0,-0.24,0,0,0.06,90,0,0,0,0,0,0,0,0,-0.165,0,0,3,0,0,0,69,0,0,0,0,0,0,,0,NONE,0,0,0,0,0,0,0,0,0,0,0,0,0,0,0,0,0,0,0,0,0,90.11,1,-0.165,-3.557,0.142,0.887,0,0.142,0,0,0,0,0,0,1,1,0,0,VALID,0,0,0,0,0,1,0,0,0,0,0,0,0,0,0,0,0,0,0,0,1289.82,1780.45,6,0,0.06,0.06,313,14.29,0.08,0.06,24.98,LANDED,C-1000G,0:/Integrated Flight Computer/aircraft/c_1000g_cfg.ks (inferred preloaded)
25.48,TAKEOFF,TO_GROUND_ROLL,81.23,80,-1.23,4.85,-2.07,-0.35,-0.27,-0.03,86.14,0.226,1,0,0,0,0,0,0,0,0,0,0,0,0,0,0,90.14,0,1,0,-0.25,0,0,0.07,90,0,0,0,0,0,0,0,0,-0.135,0,0,3,0,0,0,69,0,0,0,0,0,0,,0,NONE,0,0,0,0,0,0,0,0,0,0,0,0,0,0,0,0,0,0,0,0,0,90.14,1,-0.135,-3.995,0.1629,0.906,0,0.1629,0,0,0,0,0,0,1,1,0,0,VALID,0,0,0,0,0,1,0,0,0,0,0,0,0,0,0,0,0,0,0,0,1295.22,1775.84,6,0,0.06,0.06,317,13.33,0.1,0.06,25.28,LANDED,C-1000G,0:/Integrated Flight Computer/aircraft/c_1000g_cfg.ks (inferred preloaded)
25.76,TAKEOFF,TO_GROUND_ROLL,82.85,80,-2.85,4.85,-2.17,-0.34,-0.27,-0.04,85.76,0.227,1,0,0,0,0,0,0,0,0,0,0,0,0,0,0,90.17,0,1,0,-0.24,0,0,0.07,90,0,0,0,0,0,0,0,0,-0.103,0,0,3,0,0,0,69,0,0,0,0,0,0,,0,NONE,0,0,0,0,0,0,0,0,0,0,0,0,0,0,0,0,0,0,0,0,0,90.17,1,-0.103,-4.408,0.1831,0.923,0,0.1831,0,0,0,0,0,0,1,1,0,0,VALID,0,0,0,0,0,1,0,0,0,0,0,0,0,0,0,0,0,0,0,0,1300.07,1771.52,6,0,0.06,0.06,321,14.29,0.08,0.06,25.56,LANDED,C-1000G,0:/Integrated Flight Computer/aircraft/c_1000g_cfg.ks (inferred preloaded)
26.06,TAKEOFF,TO_GROUND_ROLL,84.6,80,-4.6,4.85,-2.27,-0.35,-0.26,-0.04,85.36,0.224,1,0,0,0,0,0,0,0,0,0,0,0,0,0,0,90.19,0,1,0,-0.24,0,0,0.07,90,0,0,0,0,0,0,0,0,-0.065,0,0,3,0,0,0,69,0,0,0,0,0,0,,0,NONE,0,0,0,0,0,0,0,0,0,0,0,0,0,0,0,0,0,0,0,0,0,90.19,1,-0.065,-4.827,0.2046,0.942,0,0.2046,0,0,0,0,0,0,1,1,0,0,VALID,0,0,0,0,0,1,0,0,0,0,0,0,0,0,0,0,0,0,0,0,1305.05,1766.86,6,0,0.06,0.06,325,13.33,0.1,0.06,25.86,LANDED,C-1000G,0:/Integrated Flight Computer/aircraft/c_1000g_cfg.ks (inferred preloaded)
26.3,TAKEOFF,TO_ROTATE,86.12,80,-6.12,4.86,-2.36,-0.35,-0.26,-0.04,85.07,0.219,1,0,0,0,0,0,0,0,0,0,0,0,0,0,0,90.22,-0.122,1,0,-0.23,0,0,0.07,90,0,0,0,0,0,0,0,0,-0.031,0,0,3,0,0,0,69,0,0,0,0,0,0,,0,NONE,0,0,0,0,0,0,0,0.12,0,0,0,0,0,0,0,0,0,0,0,0,0,90.22,1,-0.031,-5.15,0.2218,0.957,0,0.2218,0,0.12,-0.122,0.137,0.08,0,1,1,0,0,VALID,0,0,0,0,0,1,0,0,0,0,0,0,0,0,0,0,0,0,0,0,1309.2,1762.81,6,0,0.08,0.08,328,11.54,0.1,0.06,26.1,LANDED,C-1000G,0:/Integrated Flight Computer/aircraft/c_1000g_cfg.ks (inferred preloaded)
26.6,TAKEOFF,TO_ROTATE,87.87,80,-7.87,4.86,-2.47,-0.35,-0.24,-0.02,84.71,0.214,1,0,0,0,0,0,0,0,0,0,0,0,0,0,0,90.24,0.178,1,0,-0.23,0,0,0.08,90,0,0,0,0,0,0,0,0,0.015,0,0,3,0,0,0,69,0,0,0,0,0,0,,0,NONE,0,0,0,0,0,0,0,0.12,0,0,0,0,0,0,0,0,0,0,0,0,0,90.24,1,0.015,-5.533,0.243,0.976,0,0.243,0,0.12,0.178,0.418,0.08,0,1,1,0,0,VALID,0,0,0,0,0,1,0,0,0,0,0,0,0,0,0,0,0,0,0,0,1313.8,1758.12,6,0,0.08,0.08,332,13.33,0.08,0.06,26.4,LANDED,C-1000G,0:/Integrated Flight Computer/aircraft/c_1000g_cfg.ks (inferred preloaded)
26.88,TAKEOFF,TO_ROTATE,89.51,80,-9.51,4.86,-2.56,-0.36,-0.24,-0.02,84.42,0.205,1,0,0,0,0,0,0,0,0,0,0,0,0,0,0,90.25,0.458,1,0,-0.23,0,0,0.08,90,0,0,0,0,0,0,0,0,0.061,0,0,3,0,0,0,69,0,0,0,0,0,0,,0,NONE,0,0,0,0,0,0,0,0.1357,0,0,0,0,0,0,0,0,0,0,0,0,0,90.25,1,0.061,-5.829,0.2606,0.994,0,0.2606,0,0.1357,0.458,0.697,0.08,0,1,1,0,0,VALID,0,0,0,0,0,1,0,0,0,0,0,0,0,0,0,0,0,0,0,0,1317.91,1753.73,6,0,0.08,0.08,336,14.29,0.08,0.06,26.68,LANDED,C-1000G,0:/Integrated Flight Computer/aircraft/c_1000g_cfg.ks (inferred preloaded)
27.16,TAKEOFF,TO_ROTATE,91.16,80,-11.16,4.86,-2.66,-0.35,-0.23,-0.02,84.19,0.19,1,0,0,0,0,0,0,0,0,0,0,0,0,0,0,90.26,0.738,1,0,-0.22,0,0,0.08,90,0,0,0,0,0,0,0,0,0.111,0,0,3,0,0,0,69,0,0,0,0,0,0,,0,NONE,0,0,0,0,0,0,0,0.1573,0,0,0,0,0,0,0,0,0,0,0,0,0,90.26,1,0.111,-6.071,0.2732,1,0,0.2732,0,0.1573,0.738,0.966,0.08,0,1,1,0,0,VALID,0,0,0,0,0,1,0,0,0,0,0,0,0,0,0,0,0,0,0,0,1321.86,1749.33,6,0,0.08,0.08,340,14.29,0.08,0.06,26.96,LANDED,C-1000G,0:/Integrated Flight Computer/aircraft/c_1000g_cfg.ks (inferred preloaded)
27.46,TAKEOFF,TO_ROTATE,92.93,80,-12.93,4.86,-2.77,-0.36,-0.22,-0.01,84.01,0.178,1,0,0,0,0,0,0,0,0,0,0,0,0,0,0,90.27,1.038,1,0,-0.22,0,0,0.08,90,0,0,0,0,0,0,0,0,0.169,0,0,3,0,0,0,69,0,0,0,0,0,0,,0,NONE,0,0,0,0,0,0,0,0.1808,0,0,0,0,0,0,0,0,0,0,0,0,0,90.27,1,0.169,-6.26,0.2817,1,0,0.2817,0,0.1808,1.038,1.26,0.08,0,1,1,0,0,VALID,0,0,0,0,0,1,0,0,0,0,0,0,0,0,0,0,0,0,0,0,1325.91,1744.61,6,0,0.08,0.08,344,13.33,0.08,0.06,27.26,LANDED,C-1000G,0:/Integrated Flight Computer/aircraft/c_1000g_cfg.ks (inferred preloaded)
27.74,TAKEOFF,TO_ROTATE,94.58,80,-14.58,4.87,-2.86,-0.36,-0.21,-0.01,83.91,0.17,1,0,0,0,0,0,0,0,0,0,0,0,0,0,0,90.28,1.318,1,0,-0.22,0,0,0.09,90,0,0,0,0,0,0,0,0,0.226,0,0,3,0,0,0,69,0,0,0,0,0,0,,0,NONE,0,0,0,0,0,0,0,0.2026,0,0,0,0,0,0,0,0,0,0,0,0,0,90.28,1,0.226,-6.377,0.287,1,0,0.287,0,0.2026,1.318,1.532,0.08,0,1,1,0,0,VALID,0,0,0,0,0,1,0,0,0,0,0,0,0,0,0,0,0,0,0,0,1329.52,1740.2,6,0,0.08,0.08,348,14.29,0.08,0.06,27.54,LANDED,C-1000G,0:/Integrated Flight Computer/aircraft/c_1000g_cfg.ks (inferred preloaded)
28.02,TAKEOFF,TO_ROTATE,96.23,80,-16.23,4.87,-2.96,-0.36,-0.21,0,83.89,0.152,1,0,0,0,0,0,0,0,0,0,0,0,0,0,0,90.27,1.598,1,0,-0.21,0,0,0.09,90,0,0,0,0,0,0,0,0,0.285,0,0,3,0,0,0,69,0,0,0,0,0,0,,0,NONE,0,0,0,0,0,0,0,0.2244,0,0,0,0,0,0,0,0,0,0,0,0,0,90.27,1,0.285,-6.381,0.2872,1,0,0.2872,0,0.2244,1.598,1.805,0.08,0,1,1,0,0,VALID,0,0,0,0,0,1,0,0,0,0,0,0,0,0,0,0,0,0,0,0,1332.98,1735.78,6,0,0.08,0.08,352,14.29,0.08,0.06,27.82,LANDED,C-1000G,0:/Integrated Flight Computer/aircraft/c_1000g_cfg.ks (inferred preloaded)
28.32,TAKEOFF,TO_ROTATE,98.01,80,-18.01,4.87,-3.07,-0.36,-0.2,0,83.99,0.113,1,0,0,0,0,0,0,0,0,0,0,0,0,0,0,90.25,1.898,1,0,-0.21,0,0,0.09,90,0,0,0,0,0,0,0,0,0.35,0,0,3,0,0,0,69,0,0,0,0,0,0,,0,NONE,0,0,0,0,0,0,0,0.2476,0,0,0,0,0,0,0,0,0,0,0,0,0,90.25,1,0.35,-6.253,0.2814,1,0,0.2814,0,0.2476,1.898,2.095,0.08,0,1,1,0,0,VALID,0,0,0,0,0,1,0,0,0,0,0,0,0,0,0,0,0,0,0,0,1336.52,1731.05,6,0,0.08,0.08,356,13.33,0.08,0.06,28.12,LANDED,C-1000G,0:/Integrated Flight Computer/aircraft/c_1000g_cfg.ks (inferred preloaded)
28.6,TAKEOFF,TO_ROTATE,99.67,80,-19.67,4.87,-3.17,-0.36,-0.19,0.01,84.23,0.046,1,0,0,0,0,0,0,0,0,0,0,0,0,0,0,90.21,2.178,1,0,-0.21,0,0,0.09,90,0,0,0,0,0,0,0,0,0.411,0,0,3,0,0,0,69,0,0,0,0,0,0,,0,NONE,0,0,0,0,0,0,0,0.2695,0,0,0,0,0,0,0,0,0,0,0,0,0,90.21,1,0.411,-5.979,0.2691,1,0,0.2691,0,0.2695,2.178,2.369,0.08,0,1,1,0,0,VALID,0,0,0,0,0,1,0,0,0,0,0,0,0,0,0,0,0,0,0,0,1339.68,1726.63,6,0,0.08,0.08,360,14.29,0.08,0.06,28.4,LANDED,C-1000G,0:/Integrated Flight Computer/aircraft/c_1000g_cfg.ks (inferred preloaded)
28.88,TAKEOFF,TO_ROTATE,101.33,80,-21.33,4.88,-3.25,-0.39,-0.18,0.02,84.61,-0.027,1,0,0,0,0,0,0,0,0,0,0,0,0,0,0,90.18,2.458,1,0,-0.21,0,0,0.1,90,0,0,0,0,0,0,0,0,0.472,0,0,3,0,0,0,69,0,0,0,0,0,0,,0,NONE,0,0,0,0,0,0,0,0.2911,0,0,0,0,0,0,0,0,0,0,0,0,0,90.18,1,0.472,-5.57,0.2506,1,0,0.2506,0,0.2911,2.458,2.639,0.08,0,1,1,0,0,VALID,0,0,0,0,0,1,0,0,0,0,0,0,0,0,0,0,0,0,0,0,1342.7,1722.23,6,0,0.08,0.08,364,14.29,0.08,0.06,28.68,LANDED,C-1000G,0:/Integrated Flight Computer/aircraft/c_1000g_cfg.ks (inferred preloaded)
29.18,TAKEOFF,TO_ROTATE,103.11,80,-23.11,4.87,-3.37,-0.33,-0.18,0,84.97,-0.107,1,0,0,0,0,0,0,0,0,0,0,0,0,0,0,90.33,2.758,1,0,-0.19,0,0,0.1,90,0,0,0,0,0,0,0,0,0.534,0,0,3,0,0,0,69,0,0,0,0,0,0,,0,NONE,0,0,0,0,0,0,0,0.3151,0,0,0,0,0,0,0,0,0,0,0,0,0,90.33,1,0.534,-5.359,0.2412,1,0,0.2412,0,0.3151,2.758,2.939,0.08,0,1,1,0,0,VALID,0,0,0,0,0,1,0,0,0,0,0,0,0,0,0,0,0,0,0,0,1345.8,1717.52,6,0,0.08,0.08,368,13.33,0.08,0.06,28.98,LANDED,C-1000G,0:/Integrated Flight Computer/aircraft/c_1000g_cfg.ks (inferred preloaded)
29.46,TAKEOFF,TO_ROTATE,104.77,80,-24.77,4.88,-3.46,-0.4,-0.16,0.04,85.21,-0.168,1,0,0,0,0,0,0,0,0,0,0,0,0,0,0,90.43,3.038,1,0,-0.21,0,0,0.1,90,0,0,0,0,0,0,0,0,0.588,0,0,3,0,0,0,69,0,0,0,0,0,0,,0,NONE,0,0,0,0,0,0,0,0.3362,0,0,0,0,0,0,0,0,0,0,0,0,0,90.43,1,0.588,-5.22,0.2349,1,0,0.2349,0,0.3362,3.038,3.203,0.08,0,1,1,0,0,VALID,0,0,0,0,0,1,0,0,0,0,0,0,0,0,0,0,0,0,0,0,1348.55,1713.14,6,0,0.08,0.08,372,14.29,0.08,0.06,29.26,LANDED,C-1000G,0:/Integrated Flight Computer/aircraft/c_1000g_cfg.ks (inferred preloaded)
29.74,TAKEOFF,TO_ROTATE,106.44,80,-26.44,4.88,-3.57,-0.34,-0.16,0.02,85.5,-0.095,1,0,0,0,0,0,0,0,0,0,0,0,0,0,0,90.4,3.318,1,0,-0.19,0,0,0.11,90,0,0,0,0,0,0,0,0,0.642,0,0,3,0,0,0,69,0,0,0,0,0,0,,0,NONE,0,0,0,0,0,0,0,0.3579,0,0,0,0,0,0,0,0,0,0,0,0,0,90.4,1,0.642,-4.9,0.2205,1,0,0.2205,0,0.3579,3.318,3.474,0.08,0,1,1,0,0,VALID,0,0,0,0,0,1,0,0,0,0,0,0,0,0,0,0,0,0,0,0,1351.17,1708.77,6,0,0.08,0.08,376,14.29,0.08,0.06,29.54,LANDED,C-1000G,0:/Integrated Flight Computer/aircraft/c_1000g_cfg.ks (inferred preloaded)
30.04,TAKEOFF,TO_ROTATE,108.22,80,-28.22,4.89,-3.67,-0.39,-0.15,0.05,85.78,-0.021,1,0,0,0,0,0,0,0,0,0,0,0,0,0,0,90.54,3.618,1,0,-0.21,0,0,0.11,90,0,0,0,0,0,0,0,0,0.697,0,0,3,0,0,0,69,0,0,0,0,0,0,,0,NONE,0,0,0,0,0,0,0,0.3812,0,0,0,0,0,0,0,0,0,0,0,0,0,90.54,1,0.697,-4.757,0.2141,1,0,0.2141,0,0.3812,3.618,3.764,0.08,0,1,1,0,0,VALID,0,0,0,0,0,1,0,0,0,0,0,0,0,0,0,0,0,0,0,0,1353.86,1704.11,6,0,0.08,0.08,380,13.33,0.08,0.06,29.84,LANDED,C-1000G,0:/Integrated Flight Computer/aircraft/c_1000g_cfg.ks (inferred preloaded)
30.32,TAKEOFF,TO_ROTATE,109.88,80,-29.88,4.89,-3.77,-0.35,-0.13,0.04,86,0.002,1,0,0,0,0,0,0,0,0,0,0,0,0,0,0,90.59,3.898,1,0,-0.18,0,0,0.11,90,0,0,0,0,0,0,0,0,0.746,0,0,3,0,0,0,69,0,0,0,0,0,0,,0,NONE,0,0,0,0,0,0,0,0.4026,0,0,0,0,0,0,0,0,0,0,0,0,0,90.59,1,0.746,-4.587,0.2064,1,0,0.2064,0,0.4026,3.898,4.032,0.08,0,1,1,0,0,VALID,0,0,0,0,0,1,0,0,0,0,0,0,0,0,0,0,0,0,0,0,1356.25,1699.78,6,0,0.08,0.08,384,14.29,0.08,0.06,30.12,LANDED,C-1000G,0:/Integrated Flight Computer/aircraft/c_1000g_cfg.ks (inferred preloaded)
30.6,TAKEOFF,TO_ROTATE,111.55,80,-31.55,4.89,-3.88,-0.38,-0.13,0.06,86.2,-0.004,1,0,0,0,0,0,0,0,0,0,0,0,0,0,0,90.66,4.178,1,0,-0.2,0,0,0.12,90,0,0,0,0,0,0,0,0,0.794,0,0,3,0,0,0,69,0,0,0,0,0,0,,0,NONE,0,0,0,0,0,0,0,0.4244,0,0,0,0,0,0,0,0,0,0,0,0,0,90.66,1,0.794,-4.459,0.2007,1,0,0.2007,0,0.4244,4.178,4.305,0.08,0,1,1,0,0,VALID,0,0,0,0,0,1,0,0,0,0,0,0,0,0,0,0,0,0,0,0,1358.53,1695.48,6,0,0.08,0.08,388,14.29,0.08,0.06,30.4,LANDED,C-1000G,0:/Integrated Flight Computer/aircraft/c_1000g_cfg.ks (inferred preloaded)
30.9,TAKEOFF,TO_ROTATE,113.33,80,-33.33,4.89,-3.98,-0.36,-0.11,0.06,86.37,-0.014,1,0,0,0,0,0,0,0,0,0,0,0,0,0,0,90.74,4.478,1,0,-0.18,0,0,0.12,90,0,0,0,0,0,0,0,0,0.843,0,0,3,0,0,0,69,0,0,0,0,0,0,,0,NONE,0,0,0,0,0,0,0,0.447,0,0,0,0,0,0,0,0,0,0,0,0,0,90.74,1,0.843,-4.363,0.1964,1,0,0.1964,0,0.447,4.478,4.588,0.08,0,1,1,0,0,VALID,0,0,0,0,0,1,0,0,0,0,0,0,0,0,0,0,0,0,0,0,1360.86,1690.89,6,0,0.08,0.08,392,13.33,0.08,0.06,30.7,LANDED,C-1000G,0:/Integrated Flight Computer/aircraft/c_1000g_cfg.ks (inferred preloaded)
31.18,TAKEOFF,TO_ROTATE,114.99,80,-34.99,4.9,-4.09,-0.37,-0.1,0.07,86.5,-0.007,1,0,0,0,0,0,0,0,0,0,0,0,0,0,0,90.81,4.758,1,0,-0.19,0,0,0.12,90,0,0,0,0,0,0,0,0,0.888,0,0,3,0,0,0,69,0,0,0,0,0,0,,0,NONE,0,0,0,0,0,0,0,0.45,0,0,0,0,0,0,0,0,0,0,0,0,0,90.81,1,0.888,-4.314,0.1941,1,0,0.1941,0,0.45,4.758,4.863,0.08,0,1,1,0,0,VALID,0,0,0,0,0,1,0,0,0,0,0,0,0,0,0,0,0,0,0,0,1362.93,1686.64,6,0,0.08,0.08,396,14.29,0.08,0.06,30.98,LANDED,C-1000G,0:/Integrated Flight Computer/aircraft/c_1000g_cfg.ks (inferred preloaded)
31.46,TAKEOFF,TO_ROTATE,116.65,80,-36.65,4.9,-4.18,-0.36,-0.09,0.08,86.58,0.012,1,0,0,0,0,0,0,0,0,0,0,0,0,0,0,90.88,5.038,1,0,-0.18,0,0,0.13,90,0,0,0,0,0,0,0,0,0.932,0,0,3,0,0,0,69,0,0,0,0,0,0,,0,NONE,0,0,0,0,0,0,0,0.45,0,0,0,0,0,0,0,0,0,0,0,0,0,90.88,1,0.932,-4.292,0.1931,1,0,0.1931,0,0.45,5.038,5.131,0.08,0,1,1,0,0,VALID,0,0,0,0,0,1,0,0,0,0,0,0,0,0,0,0,0,0,0,0,1364.91,1682.42,6,0,0.08,0.08,400,14.29,0.08,0.06,31.26,LANDED,C-1000G,0:/Integrated Flight Computer/aircraft/c_1000g_cfg.ks (inferred preloaded)
31.76,TAKEOFF,TO_ROTATE,118.43,80,-38.43,4.92,-4.27,-0.33,-0.04,0.12,86.66,0.028,1,0,0,0,0,0,0,0,0,0,0,0,0,0,0,90.93,5.338,1,0,-0.16,0,0,0.13,90,0,0,0,0,0,0,0,0,0.978,0,0,3,0,0,0,69,0,0,0,0,0,0,,0,NONE,0,0,0,0,0,0,0,0.45,0,0,0,0,0,0,0,0,0,0,0,0,0,90.93,1,0.978,-4.273,0.1923,1,0,0.1923,0,0.45,5.338,5.375,0.08,0,1,1,0,0,VALID,0,0,0,0,0,1,0,0,0,0,0,0,0,0,0,0,0,0,0,0,1366.92,1677.93,6,0,0.08,0.08,404,13.33,0.08,0.06,31.56,LANDED,C-1000G,0:/Integrated Flight Computer/aircraft/c_1000g_cfg.ks (inferred preloaded)
32.04,TAKEOFF,TO_ROTATE,120.08,80,-40.08,4.97,-4.33,-0.28,0.09,0.22,86.73,0.034,1,0,0,0,0,0,0,0,0,0,0,0,0,0,0,90.96,5.618,1,0,-0.14,0,0,0.13,90,0,0,0,0,0,0,0,0,1.021,0,0,3,0,0,0,69,0,0,0,0,0,0,,0,NONE,0,0,0,0,0,0,0,0.45,0,0,0,0,0,0,0,0,0,0,0,0,0,90.96,1,1.021,-4.232,0.1905,1,0,0.1905,0,0.45,5.618,5.531,0.08,0,1,1,0,0,VALID,0,0,0,0,0,1,0,0,0,0,0,0,0,0,0,0,0,0,0,0,1368.7,1673.77,6,0,0.08,0.08,408,14.29,0.08,0.06,31.84,LANDED,C-1000G,0:/Integrated Flight Computer/aircraft/c_1000g_cfg.ks (inferred preloaded)
32.32,TAKEOFF,TO_ROTATE,121.74,80,-41.74,5.07,-4.33,-0.19,0.35,0.44,86.83,0.037,1,0,0,0,0,0,0,0,0,0,0,0,0,0,0,90.99,5.898,1,0,-0.09,0,0,0.14,90,0,0,0,0,0,0,0,0,1.063,0,0,3,0,0,0,69,0,0,0,0,0,0,,0,NONE,0,0,0,0,0,0,0,0.45,0,0,0,0,0,0,0,0,0,0,0,0,0,90.99,1,1.063,-4.158,0.1871,1,0,0.1871,0,0.45,5.898,5.547,0.08,0,1,1,0,0,VALID,0,0,0,0,0,1,0,0,0,0,0,0,0,0,0,0,0,0,0,0,1370.41,1669.64,6,0,0.08,0.08,412,14.29,0.08,0.06,32.12,LANDED,C-1000G,0:/Integrated Flight Computer/aircraft/c_1000g_cfg.ks (inferred preloaded)
32.62,TAKEOFF,TO_ROTATE,123.5,80,-43.5,5.29,-4.21,-0.02,0.96,0.98,86.97,0.045,1,0,0,0,0,0,0,0,0,0,0,0,0,0,0,91.01,6,1,0,-0.02,0,0,0.14,90,0,0,0,0,0,0,0,0,1.107,0,0,3,0,0,0,69,0,0,0,0,0,0,,0,NONE,0,0,0,0,0,0,0,0.45,0,0,0,0,0,0,0,0,0,0,0,0,0,91.01,1,1.107,-4.043,0.1819,1,0,0.1819,0,0.45,6,5.038,0.08,0,1,1,0,0,VALID,0,0,0,0,0,1,0,0,0,0,0,0,0,0,0,0,0,0,0,0,1372.16,1665.29,6,0,0.08,0.08,416,13.33,0.08,0.06,32.42,LANDED,C-1000G,0:/Integrated Flight Computer/aircraft/c_1000g_cfg.ks (inferred preloaded)
32.9,TAKEOFF,TO_ROTATE,125.11,80,-45.11,5.68,-3.95,0.13,1.94,1.87,87.12,0.053,1,0,0,0,0,0,0,0,0,0,0,0,0,0,0,91.03,6,1,0,0.08,0,0,0.14,90,0,0,0,0,0,0,0,0,1.148,0,0,3,0,0,0,69,0,0,0,0,0,0,,0,NONE,0,0,0,0,0,0,0,0.4045,0,0,0,0,0,0,0,0,0,0,0,0,0,91.03,1,1.148,-3.915,0.1762,1,0,0.1762,0,0.4045,6,4.056,0.08,0,1,1,0,0,VALID,0,0,0,0,0,1,0,0,0,0,0,0,0,0,0,0,0,0,0,0,1373.76,1661.31,6,0,0.08,0.08,420,14.29,0.08,0.06,32.7,LANDED,C-1000G,0:/Integrated Flight Computer/aircraft/c_1000g_cfg.ks (inferred preloaded)
33.18,TAKEOFF,TO_ROTATE,126.65,80,-46.65,6.27,-3.46,0.57,3.66,3.44,87.33,0.067,1,0,0,0,0,0,0,0,0,0,0,0,0,0,0,91.01,6,1,0,0.23,0,0,0.15,90,0,0,0,0,0,0,0,0,1.189,0,0,3,0,0,0,69,0,0,0,0,0,0,,0,NONE,0,0,0,0,0,0,0,0.2669,0,0,0,0,0,0,0,0,0,0,0,0,0,91.01,1,1.189,-3.684,0.1658,1,0,0.1658,0,0.2669,6,2.337,0.08,0,1,1,0,0,VALID,0,0,0,0,0,1,0,0,0,0,0,0,0,0,0,0,0,0,0,0,1375.41,1657.53,6,0,0.08,0.08,424,14.29,0.08,0.06,32.98,LANDED,C-1000G,0:/Integrated Flight Computer/aircraft/c_1000g_cfg.ks (inferred preloaded)
33.46,TAKEOFF,TO_ROTATE,128.04,80,-48.04,7.18,-2.64,1.98,5.85,4.92,87.63,0.11,1,0,0,0,0,0,0,0,0,0,0,0,0,0,0,90,6,0,1,0.89,0,0,6,90,-0.8554,0.0001,0.5179,6,90,0,0,0,0,0,0,3,0,0,0,69,0,0,0,0,0,0,,0,NONE,0,0,0,0,0,0,0,0,0,0,0,0,0,0,0,0,0,0,0,0,0,90,1,0,-2.37,0,0,3,0,0,0,6,0.15,0,0,1,1,0,0,VALID,0,0,0,0,0,1,0,0,0,0,0,0,0,0,0,0,0,0,0,0,1377.22,1654.08,6,0,0.08,0.08,428,14.29,0.08,0.06,33.28,FLYING,C-1000G,0:/Integrated Flight Computer/aircraft/c_1000g_cfg.ks (inferred preloaded)
33.72,TAKEOFF,TO_ROTATE,129.14,80,-49.14,8.32,-1.59,4.04,6.92,5.21,87.57,1.112,1,0,0,0,0,0,0,0,0,0,0,0,0,0,0,90,6,0,1,1.79,0,0,6,90,-0.8554,0.0001,0.5179,6,90,0,0,0,0,0,0,3,0,0,0,69,0,0,0,0,0,0,,0,NONE,0,0,0,0,0,0,0,0,0,0,0,0,0,0,0,0,0,0,0,0,0,90,1,0,-2.426,0,0,3,0,0,0,6,-0.921,0,0,1,1,0,0,VALID,0,0,0,0,0,1,0,0,0,0,0,0,0,0,0,0,0,0,0,0,1379.11,1651.24,6,0,0.04,0.04,432,15.38,0.08,0.04,33.54,FLYING,C-1000G,0:/Integrated Flight Computer/aircraft/c_1000g_cfg.ks (inferred preloaded)
34,TAKEOFF,TO_CLIMB,130.2,80,-50.2,9.87,-0.14,6.16,6.86,4.32,87.2,4.558,0.944,0,0,0,0,0,0,0,0,0,0,0,0,0,0,90,7.28,0,1,2.71,0,0,7.18,90,-0.8437,0.0001,0.5368,7.28,90,0,0,0,0,0,0,3,0,0,0,69,0,0,0,0,0,0,,0,NONE,0,0,0,0,0,0,0,0,0,0,0,0,0,0,0,0,0,0,0,0,0,90,1,0,-2.8,0,0,3,0,0,0,6,-1.056,0,0,1,1,0,0,VALID,0,0,0,0,0,1,0,0,0,0,0,0,0,0,0,0,0,0,0,0,1381.19,1648.38,6,0,0.06,0.06,436,14.29,0.08,0.04,33.82,FLYING,C-1000G,0:/Integrated Flight Computer/aircraft/c_1000g_cfg.ks (inferred preloaded)
34.28,TAKEOFF,TO_CLIMB,131.37,80,-51.37,11.9,1.8,7.51,6.91,3.76,87.39,7.126,0.832,0,0,0,0,0,0,0,0,0,0,0,0,0,0,90,7.728,0,1,3.27,0,0,7.63,90,-0.8395,0.0001,0.5433,7.73,90,0,0,0,0,0,0,3,0,0,0,69,0,0,0,0,0,0,,0,NONE,0,0,0,0,0,0,0,0,0,0,0,1.8,0,0,0,0,0,0,0,0,0,90,1,0,-2.609,0,0,3,0,0,0,6,-1.056,0,0,1,1,0,0,VALID,0,0,0,0,0,1,0,0,0,0,0,0,0,0,0,0,0,0,0,0,1380.72,1645.16,6,0,0.06,0.06,440,14.29,0.08,0.06,34.1,FLYING,C-1000G,0:/Integrated Flight Computer/aircraft/c_1000g_cfg.ks (inferred preloaded)
34.54,TAKEOFF,TO_CLIMB,132.5,80,-52.5,14.2,4.01,8.84,7.23,3.6,87.75,7.546,0.78,0,0,0,0,0,0,0,0,0,0,0,0,0,0,90,8,0,1,3.82,0,0,8,90,-0.837,0.0001,0.5473,8,90,0,0,0,0,0,0,3,0,0,0,69,0,0,0,0,0,0,,0,NONE,0,0,0,0,0,0,0,0,0,0,0,4.01,0,0,0,0,0,0,0,0,0,90,1,0,-2.251,0,0,3,0,0,0,6,-1.056,0,0,1,1,0,0,VALID,0,0,0,0,0,1,0,0,0,0,0,0,0,0,0,0,0,0,0,0,1375.04,1641.99,6,0,0.04,0.04,444,15.38,0.08,0.04,34.36,FLYING,C-1000G,0:/Integrated Flight Computer/aircraft/c_1000g_cfg.ks (inferred preloaded)
34.8,TAKEOFF,TO_CLIMB,133.62,80,-53.62,16.73,6.45,10.05,7.07,2.97,87.9,7.714,0.78,0,0,0,0,0,0,0,0,0,0,0,0,0,0,90,8,0,1,4.3,0,0,8,90,-0.837,0.0001,0.5472,8,90,0,0,0,0,0,0,3,0,0,0,69,0,0,0,0,0,0,,0,NONE,0,0,0,0,0,0,0,0,0,0,0,6.45,0,0,0,0,0,0,0,0,0,90,1,0,-2.095,0,0,3,0,0,0,6,-1.056,0,0,1,1,0,0,VALID,0,0,0,0,0,1,0,0,0,0,0,0,0,0,0,0,0,0,0,0,1366.46,1638.82,6,0,0.04,0.04,448,15.38,0.08,0.04,34.62,FLYING,C-1000G,0:/Integrated Flight Computer/aircraft/c_1000g_cfg.ks (inferred preloaded)
35.12,TAKEOFF,TO_CLIMB,135.02,80,-55.02,20.45,9.84,11.11,7,2.48,88.07,7.746,0.78,0,0,0,0,0,0,0,0,0,0,0,0,0,0,90,8,0,1,4.7,0,0,8,90,-0.837,0.0001,0.5472,8,90,0,0,0,0,0,0,3,0,0,0,69,0,0,0,0,0,0,,0,NONE,0,0,0,0,0,0,0,0,0,0,0,9.84,0,0,0,0,0,0,0,0,0,90,1,0,-1.93,0,0,3,0,0,0,6,-1.056,0,0,1,1,0,0,VALID,0,0,0,0,0,1,0,0,0,0,0,0,0,0,0,0,0,0,0,0,1356.34,1634.78,6,0,0.08,0.08,453,15.62,0.08,0.04,34.94,FLYING,C-1000G,0:/Integrated Flight Computer/aircraft/c_1000g_cfg.ks (inferred preloaded)
35.44,TAKEOFF,TO_CLIMB,136.42,80,-56.42,24.68,13.57,12.06,7.08,2.2,88.25,7.619,0.78,0,0,0,0,0,0,0,0,0,0,0,0,0,0,90,8,0,1,5.05,0,0,8,90,-0.8371,0.0001,0.5471,8,90,0,0,0,0,0,0,3,0,0,0,69,0,0,0,0,0,0,,0,NONE,0,0,0,0,0,0,0,0,0,0,0,13.57,0,0,0,0,0,0,0,0,0,90,1,0,-1.753,0,0,3,0,0,0,6,-1.056,0,0,1,1,0,0,VALID,0,0,0,0,0,1,0,0,0,0,0,0,0,0,0,0,0,0,0,0,1346.73,1630.71,6,0,0.08,0.08,458,15.62,0.08,0.04,35.26,FLYING,C-1000G,0:/Integrated Flight Computer/aircraft/c_1000g_cfg.ks (inferred preloaded)
35.7,TAKEOFF,TO_CLIMB,137.54,80,-57.54,28.31,16.83,12.78,7.15,2.02,88.38,7.419,0.78,0,0,0,0,0,0,0,0,0,0,0,0,0,0,90,8,0,1,5.31,0,0,8,90,-0.8371,0.0001,0.5471,8,90,0,0,0,0,0,0,3,0,0,0,69,0,0,0,0,0,0,,0,NONE,0,0,0,0,0,0,0,0,0,0,0,16.83,0,0,0,0,0,0,0,0,0,90,1,0,-1.615,0,0,3,0,0,0,6,-1.056,0,0,1,1,0,0,VALID,0,0,0,0,0,1,0,0,0,0,0,0,0,0,0,0,0,0,0,0,1339.31,1627.4,6,0,0.06,0.06,462,15.38,0.08,0.04,35.52,FLYING,C-1000G,0:/Integrated Flight Computer/aircraft/c_1000g_cfg.ks (inferred preloaded)
36.02,TAKEOFF,TO_CLIMB,138.91,80,-58.91,37.72,21.08,13.62,7.24,1.82,88.54,7.094,0.78,0,0,0,0,0,0,0,0,0,0,0,0,0,0,90,8,0,1,5.6,0,0,8,90,-0.8371,0.0001,0.547,8,90,0,0,0,0,0,0,3,0,0,0,69,0,0,0,0,0,0,,0,NONE,0,0,0,0,0,0,0,0,0,0,0,21.08,0,0,0,0,0,0,0,0,0,90,1,0,-1.456,0,0,3,0,0,0,6,-1.056,0,0,1,1,0,0,VALID,0,0,0,0,0,1,0,0,0,0,0,0,0,0,0,0,0,0,0,0,1330.61,1623.36,6,0,0.08,0.08,467,15.62,0.08,0.04,35.84,FLYING,C-1000G,0:/Integrated Flight Computer/aircraft/c_1000g_cfg.ks (inferred preloaded)
