t_s,phase,subphase,ias_ms,vapp_ms,spd_err_ms,agl_m,vs_ms,pitch_deg,aoa_deg,hdg_deg,bank_deg,thr_cmd,thr_cur,thr_intg,at_gain,at_tau_s,at_a_up,at_a_dn,at_kp_thr,at_ki_spd,at_thr_slew,aa_hdg_cmd_deg,aa_fpa_cmd_deg,ils_loc_m,ils_gs_m,ils_dist_km,loc_corr_deg,gs_corr_deg,flare_fpa_cmd,flare_tgt_vs,flare_frac,steer_hdg_deg,steer_blend,ro_loc_corr_deg,ro_hdg_err_deg,ro_yaw_tgt,ro_yaw_scale,ro_yaw_gate,yaw_cmd,roll_cmd,pitch_cmd,ro_pitch_tgt_deg,ro_pitch_err_deg,ro_pitch_ff,ro_roll_assist,flaps_cur,flaps_tgt,asc_j_ab,asc_j_rk,asc_validity,asc_q_pa,asc_q_raw_pa,asc_mach,asc_apo_m,asc_drag_n,asc_w_prop,asc_edot_aero,asc_edot_orb,asc_pitch_bias,asc_blend,asc_spooling,asc_ab_thr_ratio,asc_ab_t_now,asc_ab_t_avail,asc_ab_ign_on,asc_ab_flameouts,asc_rk_t_now,asc_rk_t_avail,asc_rk_ign_on,asc_rk_flameouts,ship_thrust,ship_avail_thrust,ship_ign_on,ship_flameouts,phase_el_s,status
0.94,TAKEOFF,TO_PREFLIGHT,0.35,80,79.65,4.38,-0.14,2.28,61.2,90.13,-0.061,0.2,0,0,0,0,0,0,0,0,0,90.4,0,0,0,0,0,0,0,0,0,90.4,1,0,-0.268,0,0,1,0,0,0,0,0,0,0,1,2,0,0,VALID,0,0,0,0,0,1,0,0,0,0,0,0,0,0,0,0,0,0,0,0,0,888.42,2,0,0.22,LANDED
3.52,TAKEOFF,TO_PREFLIGHT,0.06,80,79.94,3.61,0.02,-0.14,-14.92,90.14,-0.051,1,0,0,0,0,0,0,0,0,0,90.4,0,0,0,0,0,0,0,0,0,90.4,1,0,-0.268,0,0,1,0,0,0,0,0,0,0,2,2,0,0,VALID,0,0,0,0,0,1,0,0,0,0,0,0,0,0,0,0,0,0,0,0,184.42,888.41,2,0,2.78,LANDED
6.08,TAKEOFF,TO_PREFLIGHT,0.15,80,79.85,3.59,0,-0.22,0.13,90.19,-0.054,1,0,0,0,0,0,0,0,0,0,90.4,0,0,0,0,0,0,0,0,0,90.4,1,0,-0.268,0,0,1,0,0,0,0,0,0,0,2,2,0,0,VALID,0,0,0,0,0,1,0,0,0,0,0,0,0,0,0,0,0,0,0,0,466.94,888.4,2,0,5.34,LANDED
8.66,TAKEOFF,TO_PREFLIGHT,0.4,80,79.6,3.58,0,-0.24,-0.1,90.24,-0.055,1,0,0,0,0,0,0,0,0,0,90.4,0,0,0,0,0,0,0,0,0,90.4,1,0,-0.268,0,0,1,0,0,0,0,0,0,0,2,2,0,0,VALID,0,0,0,0,0,1,0,0,0,0,0,0,0,0,0,0,0,0,0,0,637.08,888.39,2,0,7.92,LANDED
10.7,TAKEOFF,TO_GROUND_ROLL,3.18,80,76.82,3.62,0.02,-0.13,-0.42,90.27,-0.054,1,0,0,0,0,0,0,0,0,0,90.35,0,0,0,0,-0.005,0,0,0,0,90.35,1,-0.005,-0.076,-0.0014,0.578,0,-0.0014,0,0,0,0,0,0,2,2,0,0,VALID,0,0,0,0,0,1,0,0,0,0,0,0,0,0,0,0,0,0,0,0,722.03,888.33,2,0,9.98,LANDED
12.78,TAKEOFF,TO_GROUND_ROLL,12.79,80,67.21,3.62,-0.03,-0.1,0.03,90.26,-0.054,1,0,0,0,0,0,0,0,0,0,90.4,0,0,0,0,-0.005,0,0,0,0,90.4,1,-0.005,-0.133,0.0043,0.675,0,0.0043,0,0,0,0,0,0,2,2,0,0,VALID,0,0,0,0,0,1,0,0,0,0,0,0,0,0,0,0,0,0,0,0,777.61,887.55,2,0,12.06,LANDED
14.84,TAKEOFF,TO_GROUND_ROLL,22.98,80,57.02,3.62,-0.05,-0.1,0.02,90.26,-0.053,1,0,0,0,0,0,0,0,0,0,90.4,0,0,0,0,-0.002,0,0,0,0,90.4,1,-0.002,-0.142,0.0053,0.777,0,0.0053,0,0,0,0,0,0,2,2,0,0,VALID,0,0,0,0,0,1,0,0,0,0,0,0,0,0,0,0,0,0,0,0,813.39,886.01,2,0,14.12,LANDED
16.96,TAKEOFF,TO_GROUND_ROLL,33.86,80,46.14,3.62,-0.07,-0.09,0.02,90.24,-0.054,1,0,0,0,0,0,0,0,0,0,90.41,0,0,0,0,0.004,0,0,0,0,90.41,1,0.004,-0.168,0.0074,0.885,0,0.0074,0,0,0,0,0,0,2,2,0,0,VALID,0,0,0,0,0,1,0,0,0,0,0,0,0,0,0,0,0,0,0,0,836.59,883.96,2,0,16.24,LANDED
19.08,TAKEOFF,TO_GROUND_ROLL,44.99,80,35.01,3.62,-0.09,-0.08,0.02,90.2,-0.055,1,0,0,0,0,0,0,0,0,0,90.42,0,0,0,0,0.015,0,0,0,0,90.42,1,0.015,-0.213,0.0106,0.997,0,0.0106,0,0,0,0,0,0,2,2,0,0,VALID,0,0,0,0,0,1,0,0,0,0,0,0,0,0,0,0,0,0,0,0,850.97,881.86,2,0,18.36,LANDED
21.2,TAKEOFF,TO_GROUND_ROLL,56.26,80,23.74,3.62,-0.1,-0.08,0.02,90.16,-0.056,1,0,0,0,0,0,0,0,0,0,90.44,0,0,0,0,0.033,0,0,0,0,90.44,1,0.033,-0.277,0.0139,1,0,0.0139,0,0,0,0,0,0,2,2,0,0,VALID,0,0,0,0,0,1,0,0,0,0,0,0,0,0,0,0,0,0,0,0,860.06,880.22,2,0,20.48,LANDED
23.32,TAKEOFF,TO_GROUND_ROLL,67.64,80,12.36,3.62,-0.1,-0.07,0.01,90.09,-0.056,1,0,0,0,0,0,0,0,0,0,90.47,0,0,0,0,0.063,0,0,0,0,90.47,1,0.063,-0.375,0.0188,1,0,0.0188,0,0,0,0,0,0,2,2,0,0,VALID,0,0,0,0,0,1,0,0,0,0,0,0,0,0,0,0,0,0,0,0,866.36,879.54,2,0,22.6,LANDED
25.44,TAKEOFF,TO_GROUND_ROLL,79.11,80,0.89,3.62,-0.09,-0.07,0,90.05,-0.078,1,0,0,0,0,0,0,0,0,0,90.51,0,0,0,0,0.106,0,0,0,0,90.51,1,0.106,-0.458,0.0222,1,0,0.0222,0,0,0,0,0,0,2,2,0,0,VALID,0,0,0,0,0,1,0,0,0,0,0,0,0,0,0,0,0,0,0,0,879.84,888.72,2,0,24.72,LANDED
27.56,TAKEOFF,TO_GROUND_ROLL,90.86,80,-10.86,3.62,-0.1,-0.05,0,90.05,-0.052,1,0,0,0,0,0,0,0,0,0,90.55,0,0,0,0,0.161,0,0,0,0,90.55,1,0.161,-0.507,0.0234,1,0,0.0234,0,0,0,0,0,0,2,2,0,0,VALID,0,0,0,0,0,1,0,0,0,0,0,0,0,0,0,0,0,0,0,0,908.83,915,2,0,26.84,LANDED
29.68,TAKEOFF,TO_GROUND_ROLL,103.07,80,-23.07,3.62,-0.05,-0.02,0.01,90.12,-0.053,1,0,0,0,0,0,0,0,0,0,90.61,0,0,0,0,0.216,0,0,0,0,90.61,1,0.216,-0.496,0.0228,1,0,0.0228,0,0,0,0,0,0,2,2,0,0,VALID,0,0,0,0,0,1,0,0,0,0,0,0,0,0,0,0,0,0,0,0,950.26,954.68,2,0,28.96,LANDED
31.8,TAKEOFF,TO_GROUND_ROLL,115.9,80,-35.9,3.63,0.01,0.03,0.04,90.15,-0.088,1,0,0,0,0,0,0,0,0,0,90.67,0,0,0,0,0.268,0,0,0,0,90.67,1,0.268,-0.526,0.0249,1,0,0.0249,0,0,0,0,0,0,2,2,0,0,VALID,0,0,0,0,0,1,0,0,0,0,0,0,0,0,0,0,0,0,0,0,1000.32,1003.56,2,0,31.08,LANDED
33.92,TAKEOFF,TO_GROUND_ROLL,129.45,80,-49.45,3.61,0.04,0.01,-0.01,90.54,0.015,1,0,0,0,0,0,0,0,0,0,90.63,0,0,0,0,0.302,0,0,0,0,90.63,1,0.302,-0.167,-0.0006,1,0,-0.0006,0,0,0,0,0,0,2,2,0,0,VALID,0,0,0,0,0,1,0,0,0,0,0,0,0,0,0,0,0,0,0,0,1053.63,1056.01,2,0,33.2,LANDED
36.02,TAKEOFF,TO_GROUND_ROLL,143.61,80,-63.61,3.62,0.13,0.03,-0.02,90.72,-0.103,1,0,0,0,0,0,0,0,0,0,90.66,0,0,0,0,0.205,0,0,0,0,90.66,1,0.205,0.057,0.0042,1,0,0.0042,0,0,0,0,0,0,2,2,0,0,VALID,0,0,0,0,0,1,0,0,0,0,0,0,0,0,0,0,0,0,0,0,1109.6,1111.47,2,0,35.3,LANDED
38.14,TAKEOFF,TO_GROUND_ROLL,158.77,80,-78.77,3.62,0.23,0.03,-0.05,90.98,-0.13,1,0,0,0,0,0,0,0,0,0,90.48,0,0,0,0,0.054,0,0,0,0,90.48,1,0.054,0.524,-0.0214,1,0,-0.0214,0,0,0,0,0,0,2,2,0,0,VALID,0,0,0,0,0,1,0,0,0,0,0,0,0,0,0,0,0,0,0,0,1174.31,1175.86,2,0,37.42,LANDED
40.26,TAKEOFF,TO_ROTATE,175.07,80,-95.07,7.69,-1.05,0.52,0.8,90.82,-0.093,1,0,0,0,0,0,0,0,0,0,90.4,3.65,0,0,0,0,0,0,0,0,90.4,1,0,0.429,0,0,3,0,0,0,3.65,3.228,0,0,2,2,0,0,VALID,0,0,0,0,0,1,0,0,0,0,0,0,0,0,0,0,0,0,0,0,1249.01,1250.37,2,0,39.54,FLYING
42.74,TAKEOFF,TO_ROTATE,187.21,80,-107.21,31.01,3.54,20.6,19.48,90.36,0.988,1,0,0,0,0,0,0,0,0,0,90.4,10.85,0,0,0,0,0,0,0,0,90.4,1,0,-0.042,0,0,3,0,0,0,10.85,-9.666,0,0,2,2,0,0,VALID,0,0,0,0,0,1,0,0,0,0,0,0,0,0,0,0,0,0,0,0,1309.48,1310.09,2,0,42.02,FLYING
45.32,TAKEOFF,TO_CLIMB,191.59,80,-111.59,105.24,20.64,20.65,14.57,90.32,0.788,0.8461,0,0,0,0,0,0,0,0,0,90.4,7.3,0,0,0,0,0,0,0,0,90.4,1,0,-0.075,0,0,3,0,0,0,11.5,-10.501,0,0,1,1,0,0,VALID,0,0,0,0,0,1,0,0,0,0,0,0,0,0,0,0,0,0,0,0,1263.72,1328.95,2,0,44.58,FLYING
47.76,TAKEOFF,TO_CLIMB,202.18,80,-122.18,159.67,23.94,16.94,10.19,90.39,0.376,0.82,0,0,0,0,0,0,0,0,0,90.4,7,0,0,0,0,0,0,0,0,90.4,1,0,-0.015,0,0,3,0,0,0,11.5,-10.501,0,0,1,1,0,0,VALID,0,0,0,0,0,1,0,0,0,0,0,0,0,0,0,0,0,0,0,0,1210.36,1377.7,2,0,47.02,FLYING
50.24,TAKEOFF,TO_CLIMB,214.11,80,-134.11,221.13,25.84,15.95,9.06,90.41,0.121,0.82,0,0,0,0,0,0,0,0,0,90.4,7,0,0,0,0,0,0,0,0,90.4,1,0,0.011,0,0,3,0,0,0,11.5,-10.501,0,0,1,1,0,0,VALID,0,0,0,0,0,1,0,0,0,0,0,0,0,0,0,0,0,0,0,0,1211.38,1434.72,2,0,49.5,FLYING
52.72,TAKEOFF,TO_CLIMB,226.73,80,-146.73,287.22,27.67,15.1,8.12,90.41,0.055,0.82,0,0,0,0,0,0,0,0,0,90.4,7,0,0,0,0,0,0,0,0,90.4,1,0,0.013,0,0,3,0,0,0,11.5,-10.501,0,0,1,1,0,0,VALID,0,0,0,0,0,1,0,0,0,0,0,0,0,0,0,0,0,0,0,0,1242.49,1496.96,2,0,51.98,FLYING
55.2,ASCENT,AB_CORRIDOR,240.7,80,-160.7,358.58,29.67,14.25,7.18,90.41,0.024,1,0,0,0,0,0,0,0,0,0,90.41,6.984,0,0,0,0,0,0,0,0,90.4,1,0,0.012,0,0,3,0,0,0,11.5,-10.501,0,0,1,1,24.538,6286.979,DEGRADED,30455.8,31228.9,0.681,368,0,1.1163,941.26,657.28,-0.086,0,0,0.8446,1316.48,1558.68,2,0,1318.7,389.75,2,0,1338.5,1567.97,2,0,1.88,FLYING
57.7,ASCENT,AB_ZOOM,257.77,80,-177.77,434.07,31.16,12.88,5.89,90.41,0.015,1,0,0,0,0,0,0,0,0,0,90.41,6.906,0,0,0,0,0,0,0,0,90.4,1,0,0.012,0,0,3,0,0,0,11.5,-10.501,0,0,1,1,20.498,3593.933,VALID,33167.3,35200.4,0.727,409,0,1.1167,2088.37,2334.81,-0.087,0,0,0.9056,1491.18,1646.61,2,0,1493.2,411.75,2,0,1511.43,1658.96,2,0,4.38,FLYING
60.14,ASCENT,AB_ZOOM,277.49,80,-197.49,514.11,34.96,13.53,6.24,90.4,0.007,1,0,0,0,0,0,0,0,0,0,90.4,8.322,0,0,0,0,0,0,0,0,90.4,1,0,0.012,0,0,3,0,0,0,11.5,-10.501,0,0,1,1,12.301,3083.669,DEGRADED,37298.4,40006.6,0.78,472,0,1.1172,3038.35,3664.46,1.038,0,0,0.9419,1650.77,1752.56,2,0,1652.6,438.25,2,0,1669.58,1766.29,2,0,6.82,FLYING
62.46,ASCENT,RKT_SUSTAIN,291.24,80,-211.24,605.46,43.39,16.38,7.74,90.41,-0.052,1,0,0,0,0,0,0,0,0,0,90.41,9.428,0,0,0,0,0,0,0,0,90.4,1,0,0.012,0,0,3,0,0,0,11.5,-10.501,0,0,1,1,0,5619.027,DEGRADED,41734.2,44003.3,0.823,561,0,1.1162,3059.05,4053.68,1.288,0.155,0,0,0,0,0,0,847.03,1363.23,2,0,992.24,1363.28,2,0,9.14,FLYING
64.52,ASCENT,RKT_SUSTAIN,301.53,80,-221.53,699.91,46.89,13.42,4.38,90.4,-0.045,1,0,0,0,0,0,0,0,0,0,90.4,8.162,0,0,0,0,0,0,0,0,90.4,1,0,0.012,0,0,3,0,0,0,11.5,-10.501,0,0,1,1,0,3439.637,DEGRADED,44532.9,46286.4,0.851,665,0,1.1067,1878.64,3880,1.376,0.675,0,0,0,0,0,0,1354.91,1366.55,2,0,1358.42,1366.66,2,0,11.2,FLYING
66.58,ASCENT,RKT_SUSTAIN,315.36,80,-235.36,792.77,42.75,9.8,1.89,90.4,-0.223,1,0,0,0,0,0,0,0,0,0,90.4,6.337,0,0,0,0,0,0,0,0,90.4,1,0,0.012,0,0,3,0,0,0,11.5,-10.501,0,0,1,1,0,2990.833,DEGRADED,47742,49798.4,0.889,762,0,1.0965,1153.72,4229.81,1.264,1,0,0,0,0,0,0,1369.41,1369.84,2,0,1369.76,1369.97,2,0,13.26,FLYING
68.68,ASCENT,RKT_SUSTAIN,330.79,80,-250.79,875.48,36.55,8.66,2.2,90.41,-0.373,1,0,0,0,0,0,0,0,0,0,90.41,5.295,0,0,0,0,0,0,0,0,90.4,1,0,0.012,0,0,3,0,0,0,11.5,-10.501,0,0,1,1,0,2882.361,DEGRADED,51449.3,53805.7,0.93,841,0,1.086,708.53,4605.18,1.083,1,0,0,0,0,0,0,1372.61,1372.76,2,0,1372.84,1372.87,2,0,15.36,FLYING
70.8,ASCENT,RKT_SUSTAIN,346.86,80,-266.86,947.25,31.68,7.73,2.36,90.43,-0.583,1,0,0,0,0,0,0,0,0,0,90.43,4.486,0,0,0,0,0,0,0,0,90.4,1,0,0.012,0,0,3,0,0,0,11.5,-10.501,0,0,1,1,0,2902.455,DEGRADED,55526.8,58067.3,0.972,908,0,1.0755,435.12,4859.88,0.94,1,0,0,0,0,0,0,1375.13,1375.26,2,0,1375.33,1375.35,2,0,17.48,FLYING
72.92,ASCENT,RKT_SUSTAIN,363.29,80,-283.29,1010.19,28.09,6.93,2.36,90.46,-0.781,1,0,0,0,0,0,0,0,0,0,90.46,3.891,0,0,0,0,0,0,0,0,90.4,1,0,0.012,0,0,3,0,0,0,11.5,-10.501,0,0,1,1,0,2980.736,DEGRADED,59835.9,62495.8,1.013,969,0,1.0649,267.22,5022.22,0.834,1,0,0,0,0,0,0,1377.32,1377.43,2,0,1377.49,1377.51,2,0,19.6,FLYING
75.04,ASCENT,RKT_SUSTAIN,379.9,80,-299.9,1066.79,25.65,6.3,2.3,90.48,-0.735,1,0,0,0,0,0,0,0,0,0,90.48,3.478,0,0,0,0,0,0,0,0,90.4,1,0,0.012,0,0,3,0,0,0,11.5,-10.501,0,0,1,1,0,3087.929,DEGRADED,64295.9,67042,1.054,1024,0,1.0544,164.11,5126.02,0.762,1,0,0,0,0,0,0,1379.26,1379.36,2,0,1379.42,1379.43,2,0,21.72,FLYING
77.16,ASCENT,RKT_SUSTAIN,396.67,80,-316.67,1119.22,24.18,5.71,2.07,90.48,-0.462,1,0,0,0,0,0,0,0,0,0,90.48,3.215,0,0,0,0,0,0,0,0,90.4,1,0,0.012,0,0,3,0,0,0,11.5,-10.501,0,0,1,1,0,3213.327,DEGRADED,68890.3,71721.2,1.094,1076,0,1.0438,100.78,5217.86,0.72,1,0,0,0,0,0,0,1381.04,1381.13,2,0,1381.19,1381.2,2,0,23.84,FLYING
79.28,ASCENT,RKT_SUSTAIN,413.38,80,-333.38,1169.23,23.36,5.18,1.8,90.47,-0.211,1,0,0,0,0,0,0,0,0,0,90.47,3.051,0,0,0,0,0,0,0,0,90.4,1,0,0.012,0,0,3,0,0,0,11.5,-10.501,0,0,1,1,0,3349.438,DEGRADED,73611.9,76515.5,1.134,1127,0,1.0333,61.89,5299,0.698,1,0,0,0,0,0,0,1382.73,1382.81,2,0,1382.87,1382.88,2,0,25.96,FLYING
81.4,ASCENT,RKT_SUSTAIN,430.02,80,-350.02,1217.67,23.04,4.78,1.55,90.46,-0.11,1,0,0,0,0,0,0,0,0,0,90.46,2.955,0,0,0,0,0,0,0,0,90.4,1,0,0.012,0,0,3,0,0,0,11.5,-10.501,0,0,1,1,0,3493.473,VALID,78443,81410,1.175,1176,0,1.0227,38.01,5378.76,0.69,1,0,0,0,0,0,0,1384.36,1384.43,2,0,1384.49,1384.51,2,0,28.08,FLYING
83.52,ASCENT,RKT_SUSTAIN,446.45,80,-366.45,1266.44,23.06,4.49,1.35,90.45,-0.069,1,0,0,0,0,0,0,0,0,0,90.45,2.906,0,0,0,0,0,0,0,0,90.4,1,0,0.012,0,0,3,0,0,0,11.5,-10.501,0,0,1,1,0,3643.749,VALID,83366.3,86384.1,1.214,1225,0,1.0122,23.34,5457.34,0.692,1,0,0,0,0,0,0,1385.97,1386.04,2,0,1386.1,1386.12,2,0,30.2,FLYING
85.64,ASCENT,RKT_SUSTAIN,462.65,80,-382.65,1315.67,23.46,4.39,1.3,90.44,-0.058,1,0,0,0,0,0,0,0,0,0,90.44,2.91,0,0,0,0,0,0,0,0,90.4,1,0,0.012,0,0,3,0,0,0,11.5,-10.501,0,0,1,1,0,3799.036,VALID,88365.7,91426.6,1.254,1275,0,1.0016,14.34,5536.43,0.706,1,0,0,0,0,0,0,1387.58,1387.65,2,0,1387.72,1387.73,2,0,32.32,FLYING
87.76,ASCENT,RKT_SUSTAIN,478.33,80,-398.33,1366.13,24.22,4.25,1.16,90.42,-0.055,1,0,0,0,0,0,0,0,0,0,90.42,2.959,0,0,0,0,0,0,0,0,90.4,1,0,0.012,0,0,3,0,0,0,11.5,-10.501,0,0,1,1,0,3923.678,VALID,93385.6,96441.4,1.293,1325,0,1,8.8,5585.19,0.731,1,0,0,0,0,0,0,1389.22,1389.29,2,0,1389.36,1389.38,2,0,34.44,FLYING
89.88,ASCENT,RKT_SUSTAIN,493.33,80,-413.33,1418.44,25.2,4.14,1,90.41,-0.048,1,0,0,0,0,0,0,0,0,0,90.41,3.035,0,0,0,0,0,0,0,0,90.4,1,0,0.012,0,0,3,0,0,0,11.5,-10.501,0,0,1,1,0,4042.339,VALID,98350.2,101362,1.331,1378,0,1,5.41,5600.28,0.763,1,0,0,0,0,0,0,1390.91,1390.98,2,0,1391.05,1391.07,2,0,36.56,FLYING
92,ASCENT,RKT_SUSTAIN,507.58,80,-427.58,1473.09,26.4,4.05,0.85,90.39,-0.031,1,0,0,0,0,0,0,0,0,0,90.39,3.137,0,0,0,0,0,0,0,0,90.4,1,0,0.012,0,0,3,0,0,0,11.5,-10.501,0,0,1,1,0,4160.84,VALID,103208.8,106145.4,1.368,1432,0,1,3.32,5583.74,0.802,1,0,0,0,0,0,0,1392.66,1392.72,2,0,1392.81,1392.82,2,0,38.68,FLYING
94.12,ASCENT,RKT_SUSTAIN,521.25,80,-441.25,1530.41,27.7,4.15,0.87,90.38,-0.022,1,0,0,0,0,0,0,0,0,0,90.38,3.249,0,0,0,0,0,0,0,0,90.4,1,0,0.012,0,0,3,0,0,0,11.5,-10.501,0,0,1,1,0,4303.276,VALID,107950.8,110828.6,1.403,1490,0,1,2.04,5570.43,0.844,1,0,0,0,0,0,0,1394.48,1394.55,2,0,1394.63,1394.65,2,0,40.8,FLYING
96.14,ASCENT,RKT_SUSTAIN,533.51,80,-453.51,1587.76,29.09,4.23,0.86,90.37,-0.012,1,0,0,0,0,0,0,0,0,0,90.37,3.374,0,0,0,0,0,0,0,0,90.4,1,0,0.012,0,0,3,0,0,0,11.5,-10.501,0,0,1,1,0,4443.996,VALID,112487.4,115188.1,1.437,1549,0,1,1.25,5455.33,0.89,1,0,0,0,0,0,0,1396.3,1396.37,2,0,1396.43,1396.45,2,0,42.8,FLYING
98.16,ASCENT,RKT_SUSTAIN,545.47,80,-465.47,1648.06,30.6,4.31,0.84,90.36,-0.012,1,0,0,0,0,0,0,0,0,0,90.36,3.512,0,0,0,0,0,0,0,0,90.4,1,0,0.012,0,0,3,0,0,0,11.5,-10.501,0,0,1,1,0,4588.037,VALID,116826.3,119434.5,1.47,1611,0,1,0.77,5378.45,0.94,1,0,0,0,0,0,0,1398.19,1398.26,2,0,1398.32,1398.34,2,0,44.82,FLYING
100.18,ASCENT,RKT_SUSTAIN,556.97,80,-476.97,1711.65,32.35,4.43,0.85,90.35,-0.019,1,0,0,0,0,0,0,0,0,0,90.35,3.672,0,0,0,0,0,0,0,0,90.4,1,0,0.012,0,0,3,0,0,0,11.5,-10.501,0,0,1,1,0,4736.153,VALID,121044.2,123582.7,1.503,1676,0,1,0.47,5335.96,0.996,1,0,0,0,0,0,0,1400.16,1400.23,2,0,1400.3,1400.32,2,0,46.84,FLYING
102.2,ASCENT,RKT_SUSTAIN,567.95,80,-487.95,1779.06,34.39,4.57,0.83,90.34,-0.031,1,0,0,0,0,0,0,0,0,0,90.34,3.863,0,0,0,0,0,0,0,0,90.4,1,0,0.012,0,0,3,0,0,0,11.5,-10.501,0,0,1,1,0,4888.745,VALID,125141,127602.5,1.535,1745,0,1,0.29,5309.99,1.062,1,0,0,0,0,0,0,1402.23,1402.31,2,0,1402.38,1402.4,2,0,48.86,FLYING
104.22,ASCENT,RKT_SUSTAIN,578.36,80,-498.36,1850.96,36.81,4.75,0.83,90.32,-0.042,1,0,0,0,0,0,0,0,0,0,90.32,4.095,0,0,0,0,0,0,0,0,90.4,1,0,0.012,0,0,3,0,0,0,11.5,-10.501,0,0,1,1,0,5046.25,VALID,129093.6,131461.9,1.567,1820,0,1,0.18,5289.96,1.14,1,0,0,0,0,0,0,1404.42,1404.5,2,0,1404.58,1404.6,2,0,50.88,FLYING
106.24,ASCENT,RKT_SUSTAIN,588.14,80,-508.14,1928.26,39.74,4.99,0.83,90.31,-0.051,1,0,0,0,0,0,0,0,0,0,90.31,4.381,0,0,0,0,0,0,0,0,90.4,1,0,0.012,0,0,3,0,0,0,11.5,-10.501,0,0,1,1,0,5209.351,VALID,132870.4,135125,1.598,1900,0,1,0.11,5269.93,1.235,1,0,0,0,0,0,0,1406.75,1406.83,2,0,1406.92,1406.94,2,0,52.9,FLYING
108.26,ASCENT,RKT_SUSTAIN,597.22,80,-517.22,2012.15,43.32,5.32,0.86,90.3,-0.067,1,0,0,0,0,0,0,0,0,0,90.3,4.734,0,0,0,0,0,0,0,0,90.4,1,0,0.012,0,0,3,0,0,0,11.5,-10.501,0,0,1,1,0,5378.944,VALID,136434.5,138553.1,1.629,1988,0,1,0.07,5248.2,1.35,1,0,0,0,0,0,0,1409.25,1409.34,2,0,1409.43,1409.46,2,0,54.92,FLYING
110.3,ASCENT,RKT_SUSTAIN,605.63,80,-525.63,2105.13,47.86,5.74,0.9,90.29,-0.088,1,0,0,0,0,0,0,0,0,0,90.29,5.187,0,0,0,0,0,0,0,0,90.4,1,0,0.012,0,0,3,0,0,0,11.5,-10.501,0,0,1,1,0,5558.13,VALID,139766,141735.9,1.659,2088,0,1,0.04,5244.83,1.496,1,0,0,0,0,0,0,1411.99,1412.08,2,0,1412.18,1412.21,2,0,56.96,FLYING
112.32,ASCENT,RKT_SUSTAIN,613.05,80,-533.05,2207.53,53.51,6.27,0.95,90.29,-0.121,1,0,0,0,0,0,0,0,0,0,90.29,5.756,0,0,0,0,0,0,0,0,90.4,1,0,0.012,0,0,3,0,0,0,11.5,-10.501,0,0,1,1,0,5745.221,VALID,142778.1,144534.7,1.689,2202,0,1,0.03,5204.66,1.678,1,0,0,0,0,0,0,1414.96,1415.06,2,0,1415.17,1415.21,2,0,58.98,FLYING
114.36,ASCENT,RKT_SUSTAIN,619.39,80,-539.39,2324.27,60.94,7,1.03,90.28,-0.162,1,0,0,0,0,0,0,0,0,0,90.28,6.507,0,0,0,0,0,0,0,0,90.4,1,0,0.012,0,0,3,0,0,0,11.5,-10.501,0,0,1,1,0,5945.109,VALID,145395.2,146894.8,1.718,2335,0,1,0.02,5163.53,1.917,1,0,0,0,0,0,0,1418.29,1418.4,2,0,1418.53,1418.57,2,0,61.02,FLYING
116.38,ASCENT,RKT_SUSTAIN,624.31,80,-544.31,2456.98,70.53,7.94,1.12,90.27,-0.197,1,0,0,0,0,0,0,0,0,0,90.27,7.487,0,0,0,0,0,0,0,0,90.4,1,0,0.012,0,0,3,0,0,0,11.5,-10.501,0,0,1,1,0,6157.395,VALID,147490.7,148646.5,1.746,2497,0,1,0.01,5071.69,2.226,1,0,0,0,0,0,0,1422.01,1422.14,2,0,1422.29,1422.33,2,0,63.04,FLYING
118.4,ASCENT,RKT_SUSTAIN,627.63,80,-547.63,2611.88,82.98,9.23,1.32,90.26,-0.249,1,0,0,0,0,0,0,0,0,0,90.26,8.754,0,0,0,0,0,0,0,0,90.4,1,0,0.012,0,0,3,0,0,0,11.5,-10.501,0,0,1,1,0,6387.541,VALID,148949.6,149696.8,1.774,2698,0,1,0.01,4967.88,2.625,1,0,0,0,0,0,0,1426.27,1426.42,2,0,1426.59,1426.64,2,0,65.06,FLYING
120.42,ASCENT,RKT_SUSTAIN,629.03,80,-549.03,2795.18,98.9,10.96,1.64,90.26,-0.317,1,0,0,0,0,0,0,0,0,0,90.26,10.376,0,0,0,0,0,0,0,0,90.4,1,0,0.012,0,0,3,0,0,0,11.5,-10.501,0,0,1,1,0,6640.453,VALID,149641,149888.8,1.801,2956,0,1,0,4837.72,3.133,1,0,0,0,0,0,0,1431.19,1431.36,2,0,1431.56,1431.62,2,0,67.08,FLYING
122.44,ASCENT,RKT_SUSTAIN,628.02,80,-548.02,3014.51,118.67,13.05,1.95,90.27,-0.385,1,0,0,0,0,0,0,0,0,0,90.27,12.407,0,0,0,0,0,0,0,0,90.4,1,0,0.012,0,0,3,0,0,0,11.5,-10.501,0,0,1,1,0,6923.581,VALID,149373.2,149000.7,1.827,3296,0,1,0,4658.06,3.769,1,0,0,0,0,0,0,1436.93,1437.13,2,0,1437.36,1437.42,2,0,69.1,FLYING
124.46,ASCENT,RKT_SUSTAIN,624.2,80,-544.2,3278.44,142.96,15.64,2.35,90.28,-0.418,1,0,0,0,0,0,0,0,0,0,90.28,14.912,0,0,0,0,0,0,0,0,90.4,1,0,0.012,0,0,3,0,0,0,11.5,-10.501,0,0,1,1,0,7242.773,VALID,147959.7,146852.9,1.852,3749,0,1,0,4424.2,4.549,1,0,0,0,0,0,0,1443.62,1443.85,2,0,1444.12,1444.19,2,0,71.12,FLYING
126.48,ASCENT,RKT_SUSTAIN,616.97,80,-536.97,3596.42,172.28,18.83,2.87,90.3,-0.47,1,0,0,0,0,0,0,0,0,0,90.3,17.965,0,0,0,0,0,0,0,0,90.4,1,0,0.012,0,0,3,0,0,0,11.5,-10.501,0,0,1,1,0,7604.439,VALID,145186,143209.9,1.876,4357,0,1,0,4090.99,5.491,1,0,0,0,0,0,0,1451.38,1451.64,2,0,1451.96,1452.04,2,0,73.14,FLYING
128.5,ASCENT,RKT_SUSTAIN,605.85,80,-525.85,3978.8,206.83,22.69,3.52,90.35,-0.561,1,0,0,0,0,0,0,0,0,0,90.35,21.61,0,0,0,0,0,0,0,0,90.4,1,0,0.012,0,0,3,0,0,0,11.5,-10.501,0,0,1,1,0,8015.119,VALID,140862.7,137909.8,1.899,5174,0,1,0,3640.64,6.598,1,0,0,0,0,0,0,1460.29,1460.6,2,0,1460.96,1461.06,2,0,75.16,FLYING
130.52,ASCENT,RKT_SUSTAIN,590.39,80,-510.39,4435.88,246.18,27.22,4.26,90.43,-0.767,1,0,0,0,0,0,0,0,0,0,90.43,25,0,0,0,0,0,0,0,0,90.4,1,0,0.012,0,0,3,0,0,0,11.5,-10.501,0,0,1,1,0,8480.612,VALID,134853.5,130855.8,1.92,6255,0,1,0,3051.78,7.856,1,0,0,0,0,0,0,1470.39,1470.73,2,0,1471.14,1471.24,2,0,77.18,FLYING
132.54,ASCENT,RKT_SUSTAIN,575.28,80,-495.28,4958.4,265.53,25.95,1.18,90.48,-1.769,1,0,0,0,0,0,0,0,0,0,90.48,25,0,0,0,0,0,0,0,0,90.4,1,0,0.012,0,0,3,0,0,0,11.5,-10.501,0,0,1,1,0,9160.811,VALID,127873.4,123698.6,1.952,7459,0,1,0,3651.96,8.521,1,0,0,0,0,0,0,1481.34,1481.65,2,0,1482.1,1482.2,2,0,79.2,FLYING
134.58,ASCENT,RKT_SUSTAIN,561.7,80,-481.7,5505.35,270.36,25.95,0.97,90.45,-0.1,1,0,0,0,0,0,0,0,0,0,90.45,25,0,0,0,0,0,0,0,0,90.4,1,0,0.012,0,0,3,0,0,0,11.5,-10.501,0,0,1,1,0,9815.119,VALID,121319.5,117401.6,1.993,8451,0,1,0,4927.74,8.711,1,0,0,0,0,0,0,1492.04,1492.33,2,0,1492.75,1492.86,2,0,81.24,FLYING
136.6,ASCENT,RKT_SUSTAIN,548.53,80,-468.53,6055.8,274.57,26.11,1.02,90.44,-0.013,1,0,0,0,0,0,0,0,0,0,90.44,25,0,0,0,0,0,0,0,0,90.4,1,0,0.012,0,0,3,0,0,0,11.5,-10.501,0,0,1,1,0,10458.882,VALID,115143.7,111463.1,2.039,9302,0,1,0,5898.08,8.883,1,0,0,0,0,0,0,1502.01,1502.28,2,0,1502.68,1502.77,2,0,83.26,FLYING
138.64,ASCENT,RKT_SUSTAIN,535.39,80,-455.39,6620.22,278.7,26.22,1.07,90.43,-0.046,1,0,0,0,0,0,0,0,0,0,90.43,25,0,0,0,0,0,0,0,0,90.4,1,0,0.012,0,0,3,0,0,0,11.5,-10.501,0,0,1,1,0,11116.712,VALID,109254.7,105706.1,2.088,10084,0,1,0,6726.67,9.057,1,0,0,0,0,0,0,1511.44,1511.69,2,0,1512.06,1512.15,2,0,85.3,FLYING
140.66,ASCENT,RKT_SUSTAIN,522.45,80,-442.45,7187.33,282.74,26.31,1.14,90.42,-0.068,1,0,0,0,0,0,0,0,0,0,90.42,25,0,0,0,0,0,0,0,0,90.4,1,0,0.012,0,0,3,0,0,0,11.5,-10.501,0,0,1,1,0,11784.807,VALID,103595.9,100207,2.142,10836,0,1,0,7397.95,9.231,1,0,0,0,0,0,0,1520.16,1520.39,2,0,1520.74,1520.82,2,0,87.32,FLYING
142.68,ASCENT,RKT_SUSTAIN,509.47,80,-429.47,7762.72,286.93,26.42,1.24,90.41,-0.083,1,0,0,0,0,0,0,0,0,0,90.41,25,0,0,0,0,0,0,0,0,90.4,1,0,0.012,0,0,3,0,0,0,11.5,-10.501,0,0,1,1,0,12471.591,VALID,98144.3,94868.1,2.199,11579,0,1,0,8003.79,9.414,1,0,0,0,0,0,0,1528.28,1528.5,2,0,1528.82,1528.9,2,0,89.34,FLYING
144.72,ASCENT,RKT_SUSTAIN,485.1,80,-405.1,8348.52,284.61,26.71,1.53,90.4,-0.073,1,0,0,0,0,0,0,0,0,0,90.4,25,0,0,0,0,0,0,0,0,90.4,1,0,0.012,0,0,3,0,0,0,11.5,-10.501,0,0,1,1,0,0,VALID,91456.3,86350.4,2.218,12269,0,1,0,5409.25,9.355,1,0,0,0,0,0,0,0,0,2,2,0,0,2,2,91.4,FLYING
146.78,ASCENT,RKT_SUSTAIN,451.47,80,-371.47,8927.84,277.85,27.04,1.83,90.39,-0.071,1,0,0,0,0,0,0,0,0,0,90.39,25,0,0,0,0,0,0,0,0,90.4,1,0,0.012,0,0,3,0,0,0,11.5,-10.501,0,0,1,1,0,0,VALID,81429.1,75077.7,2.188,12794,0,1,0,1353.71,9.107,1,0,0,0,0,0,0,0,0,2,2,0,0,2,2,93.46,FLYING
148.84,ASCENT,RKT_SUSTAIN,416.83,80,-336.83,9493.53,271.38,27.44,2.23,90.38,-0.07,1,0,0,0,0,0,0,0,0,0,90.38,25,0,0,0,0,0,0,0,0,90.4,1,0,0.012,0,0,3,0,0,0,11.5,-10.501,0,0,1,1,0,0,VALID,70690.9,64232,2.14,13232,0,1,0,-931.7,8.872,1,0,0,0,0,0,0,0,0,2,2,0,0,2,2,95.52,FLYING
150.9,ASCENT,RKT_SUSTAIN,385.55,80,-305.55,10046.24,265.23,27.88,2.66,90.38,-0.068,1,0,0,0,0,0,0,0,0,0,90.38,25,0,0,0,0,0,0,0,0,90.4,1,0,0.012,0,0,3,0,0,0,11.5,-10.501,0,0,1,1,0,0,VALID,60881.5,55163.3,2.094,13626,0,1,0,-2160.47,8.651,1,0,0,0,0,0,0,0,0,2,2,0,0,2,2,97.58,FLYING
152.96,ASCENT,RKT_SUSTAIN,357.21,80,-277.21,10586.56,259.33,28.37,3.15,90.37,-0.068,1,0,0,0,0,0,0,0,0,0,90.38,25,0,0,0,0,0,0,0,0,90.4,1,0,0.012,0,0,3,0,0,0,11.5,-10.501,0,0,1,1,0,0,VALID,52425.2,47535,2.05,13999,0,1,0,-2773.19,8.442,1,0,0,0,0,0,0,0,0,2,2,0,0,2,2,99.64,FLYING
155.02,ASCENT,RKT_SUSTAIN,331.4,80,-251.4,11114.98,253.64,28.89,3.67,90.37,-0.067,1,0,0,0,0,0,0,0,0,0,90.37,25,0,0,0,0,0,0,0,0,90.4,1,0,0.012,0,0,3,0,0,0,11.5,-10.501,0,0,1,1,0,0,VALID,45234.2,41080.9,2.007,14361,0,1,0,-3031.36,8.241,1,0,0,0,0,0,0,0,0,2,2,0,0,2,2,101.7,FLYING
157.58,ASCENT,RKT_SUSTAIN,302.42,80,-222.42,11755.65,246.82,29.62,4.38,90.37,-0.068,1,0,0,0,0,0,0,0,0,0,90.37,25,0,0,0,0,0,0,0,0,90.4,1,0,0.012,0,0,3,0,0,0,11.5,-10.501,0,0,1,1,0,0,VALID,37494.9,34295.5,1.955,14827,0,1,0,-3004.6,8.002,1,0,0,0,0,0,0,0,0,2,2,0,0,2,2,104.26,FLYING
160.14,ASCENT,RKT_SUSTAIN,276.4,80,-196.4,12379.2,240.23,30.43,5.18,90.37,-0.073,1,0,0,0,0,0,0,0,0,0,90.37,25,0,0,0,0,0,0,0,0,90.4,1,0,0.012,0,0,3,0,0,0,11.5,-10.501,0,0,1,1,0,0,VALID,31387,28809.6,1.905,15273,0,1,0,-2865.45,7.773,1,0,0,0,0,0,0,0,0,2,2,0,0,2,2,106.82,FLYING
162.7,ASCENT,RKT_SUSTAIN,252.94,80,-172.94,12986.13,233.82,31.29,6.04,90.38,-0.08,1,0,0,0,0,0,0,0,0,0,90.38,25,0,0,0,0,0,0,0,0,90.4,1,0,0.012,0,0,3,0,0,0,11.5,-10.501,0,0,1,1,0,0,VALID,26392.3,24271.4,1.856,15707,0,1,0,-2709.04,7.552,1,0,0,0,0,0,0,0,0,2,2,0,0,2,2,109.38,FLYING
165.26,ASCENT,RKT_SUSTAIN,231.69,80,-151.69,13576.83,227.5,32.35,7.09,90.38,-0.093,1,0,0,0,0,0,0,0,0,0,90.38,25,0,0,0,0,0,0,0,0,90.4,1,0,0.012,0,0,3,0,0,0,11.5,-10.501,0,0,1,1,0,0,VALID,22257.6,20495.9,1.807,16132,0,1,0,-2570.51,7.335,1,0,0,0,0,0,0,0,0,2,2,0,0,2,2,111.94,FLYING
167.82,ASCENT,RKT_SUSTAIN,212.3,80,-132.3,14151.45,221.23,33.55,8.27,90.39,-0.119,1,0,0,0,0,0,0,0,0,0,90.39,25,0,0,0,0,0,0,0,0,90.4,1,0,0.012,0,0,3,0,0,0,11.5,-10.501,0,0,1,1,0,0,VALID,18805.7,17331.1,1.758,16549,0,1,0,-2472.46,7.121,1,0,0,0,0,0,0,0,0,2,2,0,0,2,2,114.5,FLYING
170.38,ASCENT,RKT_SUSTAIN,194.59,80,-114.59,14710.02,214.99,34.63,9.35,90.42,-0.194,1,0,0,0,0,0,0,0,0,0,90.42,25,0,0,0,0,0,0,0,0,90.4,1,0,0.012,0,0,3,0,0,0,11.5,-10.501,0,0,1,1,0,0,VALID,15909.5,14671.1,1.709,16955,0,1,0,-2405.91,6.909,1,0,0,0,0,0,0,0,0,2,2,0,0,2,2,117.06,FLYING
172.94,ASCENT,RKT_SUSTAIN,178.36,80,-98.36,15252.31,208.48,36.5,11.22,90.46,-0.285,1,0,0,0,0,0,0,0,0,0,90.46,25,0,0,0,0,0,0,0,0,90.4,1,0,0.012,0,0,3,0,0,0,11.5,-10.501,0,0,1,1,0,0,VALID,13474.7,12431.5,1.659,17348,0,1,0,-2369.18,6.689,1,0,0,0,0,0,0,0,0,2,2,0,0,2,2,119.62,FLYING
175.5,ASCENT,RKT_SUSTAIN,163.37,80,-83.37,15778.18,202.19,37.32,12.02,90.49,-0.313,1,0,0,0,0,0,0,0,0,0,90.49,24.895,0,0,0,0,0,0,0,0,90.4,1,0,0.012,0,0,3,0,0,0,11.5,-10.501,0,0,1,1,0,0,VALID,11413.6,10529.7,1.608,17732,0,1,0,-2395.92,6.477,1,0,0,0,0,0,0,0,0,2,2,0,0,2,2,122.16,FLYING
178.02,ASCENT,RKT_SUSTAIN,149.73,80,-69.73,16278.41,194.32,39.39,14.3,90.51,-0.284,1,0,0,0,0,0,0,0,0,0,90.51,24.326,0,0,0,0,0,0,0,0,90.4,1,0,0.012,0,0,3,0,0,0,11.5,-10.501,0,0,1,1,0,0,VALID,9684.6,8940.1,1.556,18087,0,1,0,-2363.66,6.216,1,0,0,0,0,0,0,0,0,2,2,0,0,2,2,124.7,FLYING
180.56,ASCENT,RKT_SUSTAIN,137.3,80,-57.3,16758.89,183.93,38.86,14.36,90.47,-0.185,1,0,0,0,0,0,0,0,0,0,90.47,23.393,0,0,0,0,0,0,0,0,90.4,1,0,0.012,0,0,3,0,0,0,11.5,-10.501,0,0,1,1,0,0,VALID,8222.4,7601.4,1.503,18396,0,1,0,-2214.86,5.877,1,0,0,0,0,0,0,0,0,2,2,0,0,2,2,127.22,FLYING
183.12,ASCENT,RKT_SUSTAIN,126.38,80,-46.38,17213.5,171.34,37.13,13.63,90.43,-0.113,1,0,0,0,0,0,0,0,0,0,90.43,22.108,0,0,0,0,0,0,0,0,90.4,1,0,0.012,0,0,3,0,0,0,11.5,-10.501,0,0,1,1,0,0,VALID,7020.1,6512.7,1.455,18649,0,1,0,-1949.17,5.471,1,0,0,0,0,0,0,0,0,2,2,0,0,2,2,129.78,FLYING
185.68,ASCENT,RKT_SUSTAIN,116.98,80,-36.98,17633.6,157.15,34.71,12.59,90.41,-0.066,1,0,0,0,0,0,0,0,0,0,90.41,20.535,0,0,0,0,0,0,0,0,90.4,1,0,0.012,0,0,3,0,0,0,11.5,-10.501,0,0,1,1,0,0,VALID,6048.8,5640.8,1.411,18852,0,1,0,-1641.59,5.016,1,0,0,0,0,0,0,0,0,2,2,0,0,2,2,132.34,FLYING
188.24,ASCENT,RKT_SUSTAIN,108.91,80,-28.91,18015.84,141.85,33.61,13.19,90.4,-0.044,1,0,0,0,0,0,0,0,0,0,90.4,18.745,0,0,0,0,0,0,0,0,90.4,1,0,0.012,0,0,3,0,0,0,11.5,-10.501,0,0,1,1,0,0,VALID,5269.8,4942,1.371,19010,0,1,0,-1372.35,4.526,1,0,0,0,0,0,0,0,0,2,2,0,0,2,2,134.9,FLYING
190.78,ASCENT,RKT_SUSTAIN,102.25,80,-22.25,18353.22,124.92,26.64,8.28,90.4,-0.036,1,0,0,0,0,0,0,0,0,0,90.4,16.665,0,0,0,0,0,0,0,0,90.4,1,0,0.012,0,0,3,0,0,0,11.5,-10.501,0,0,1,1,0,0,VALID,4651.3,4396.6,1.337,19132,0,1,0,-1059.33,3.988,1,0,0,0,0,0,0,0,0,2,2,0,0,2,2,137.44,FLYING
193.34,ASCENT,RKT_SUSTAIN,96.64,80,-16.64,18650.56,107.02,29.54,13.46,90.41,-0.026,1,0,0,0,0,0,0,0,0,0,90.41,14.391,0,0,0,0,0,0,0,0,90.4,1,0,0.012,0,0,3,0,0,0,11.5,-10.501,0,0,1,1,0,0,DEGRADED,4168,3964.7,1.307,19219,0,1,0,-836.48,3.416,1,0,0,0,0,0,0,0,0,2,2,0,0,2,2,140.02,FLYING
195.88,ASCENT,RKT_SUSTAIN,91.76,80,-11.76,18900.37,89.58,29.36,15.69,90.41,-0.023,1,0,0,0,0,0,0,0,0,0,90.41,12.151,0,0,0,0,0,0,0,0,90.4,1,0,0.012,0,0,3,0,0,0,11.5,-10.501,0,0,1,1,0,0,VALID,3774.5,3608.3,1.278,19288,0,1,0,-819.88,2.86,1,0,0,0,0,0,0,0,0,2,2,0,0,2,2,142.54,FLYING
198.44,ASCENT,RKT_SUSTAIN,87.53,80,-7.53,19107.05,71.86,31.08,19.91,90.42,-0.022,1,0,0,0,0,0,0,0,0,0,90.42,9.835,0,0,0,0,0,0,0,0,90.4,1,0,0.012,0,0,3,0,0,0,11.5,-10.501,0,0,1,1,0,0,VALID,3453,3315.6,1.25,19342,0,1,0,-887.87,2.294,1,0,0,0,0,0,0,0,0,2,2,0,0,2,2,145.1,FLYING
201,ASCENT,RKT_SUSTAIN,83.99,80,-3.99,19267.63,54.19,28.58,20.01,90.42,-0.023,1,0,0,0,0,0,0,0,0,0,90.42,7.487,0,0,0,0,0,0,0,0,90.4,1,0,0.012,0,0,3,0,0,0,11.5,-10.501,0,0,1,1,0,0,VALID,3189.8,3080.1,1.224,19386,0,1,0,-956.02,1.731,1,0,0,0,0,0,0,0,0,2,2,0,0,2,2,147.66,FLYING
203.56,ASCENT,RKT_SUSTAIN,81.25,80,-1.25,19382.48,36.25,25.83,20.01,90.43,-0.023,1,0,0,0,0,0,0,0,0,0,90.43,5.056,0,0,0,0,0,0,0,0,90.4,1,0,0.012,0,0,3,0,0,0,11.5,-10.501,0,0,1,1,0,0,VALID,2987.3,2904.6,1.202,19420,0,1,0,-957.92,1.16,1,0,0,0,0,0,0,0,0,2,2,0,0,2,2,150.22,FLYING
206.12,ASCENT,RKT_SUSTAIN,79.27,80,0.73,19451.2,18.23,22.98,20.01,90.43,-0.022,1,0,0,0,0,0,0,0,0,0,90.43,2.577,0,0,0,0,0,0,0,0,90.4,1,0,0.012,0,0,3,0,0,0,11.5,-10.501,0,0,1,1,0,0,VALID,2840.2,2781.9,1.184,19443,0,1,0,-931.35,0.587,1,0,0,0,0,0,0,0,0,2,2,0,0,2,2,152.78,FLYING
208.68,ASCENT,RKT_SUSTAIN,78.02,80,1.98,19473.86,0.29,20.06,20.01,90.43,-0.02,1,0,0,0,0,0,0,0,0,0,90.43,0.079,0,0,0,0,0,0,0,0,90.4,1,0,0.012,0,0,3,0,0,0,11.5,-10.501,0,0,1,1,0,0,VALID,2743.4,2707.3,1.171,19457,0,1,0,-891.48,0.017,1,0,0,0,0,0,0,0,0,2,2,0,0,2,2,155.34,FLYING
211.24,ASCENT,RKT_SUSTAIN,77.48,80,2.52,19450.7,-17.54,17.11,20.01,90.43,-0.018,1,0,0,0,0,0,0,0,0,0,90.43,0.139,0,0,0,0,0,0,0,0,90.4,1,0,0.012,0,0,3,0,0,0,11.5,-10.501,0,0,1,1,0,0,VALID,2692.9,2677.3,1.163,19462,0,1,0,-851.95,2.017,1,0,0,0,0,0,0,0,0,2,2,0,0,2,2,157.92,FLYING
213.8,ASCENT,RKT_SUSTAIN,77.63,80,2.37,19382.06,-35.22,14.15,20.01,90.43,-0.016,1,0,0,0,0,0,0,0,0,0,90.43,0.2,0,0,0,0,0,0,0,0,90.4,1,0,0.012,0,0,3,0,0,0,11.5,-10.501,0,0,1,1,0,0,VALID,2686,2690.1,1.158,19457,0,1,0,-819.09,4.017,1,0,0,0,0,0,0,0,0,2,2,0,0,2,2,160.48,FLYING
216.36,ASCENT,RKT_SUSTAIN,78.46,80,1.54,19268.41,-52.7,11.22,20.01,90.43,-0.015,1,0,0,0,0,0,0,0,0,0,90.43,0.275,0,0,0,0,0,0,0,0,90.4,1,0,0.012,0,0,3,0,0,0,11.5,-10.501,0,0,1,1,0,0,VALID,2721.9,2745.5,1.158,19443,0,1,0,-795.72,6.017,1,0,0,0,0,0,0,0,0,2,2,0,0,2,2,163.04,FLYING
218.92,ASCENT,RKT_SUSTAIN,79.95,80,0.05,19110.31,-69.94,8.34,20.01,90.44,-0.015,1,0,0,0,0,0,0,0,0,0,90.44,0.374,0,0,0,0,0,0,0,0,90.4,1,0,0.012,0,0,3,0,0,0,11.5,-10.501,0,0,1,1,0,0,VALID,2801.2,2844.8,1.161,19417,0,1,0,-783.14,8.017,1,0,0,0,0,0,0,0,0,2,2,0,0,2,2,165.6,FLYING
221.48,ASCENT,RKT_SUSTAIN,82.14,80,-2.14,18908.47,-86.88,5.55,20.01,90.44,-0.014,1,0,0,0,0,0,0,0,0,0,90.44,0.509,0,0,0,0,0,0,0,0,90.4,1,0,0.012,0,0,3,0,0,0,11.5,-10.501,0,0,1,1,0,0,VALID,2926,2991,1.168,19380,0,1,0,-782.02,10.017,1,0,0,0,0,0,0,0,0,2,2,0,0,2,2,168.16,FLYING
224.02,ASCENT,RKT_SUSTAIN,84.99,80,-4.99,18665.84,-103.32,2.87,20.01,90.44,-0.013,1,0,0,0,0,0,0,0,0,0,90.44,0.708,0,0,0,0,0,0,0,0,90.4,1,0,0.012,0,0,3,0,0,0,11.5,-10.501,0,0,1,1,0,0,VALID,3099.4,3186.5,1.178,19330,0,1,0,-789.15,12.017,1,0,0,0,0,0,0,0,0,2,2,0,0,2,2,170.7,FLYING
226.54,ASCENT,RKT_SUSTAIN,88.51,80,-8.51,18384.41,-119.2,0.34,20.01,90.44,-0.012,1,0,0,0,0,0,0,0,0,0,90.44,0.981,0,0,0,0,0,0,0,0,90.4,1,0,0.012,0,0,3,0,0,0,11.5,-10.501,0,0,1,1,0,0,VALID,3324.3,3435.9,1.191,19265,0,1,0,-807.69,14.017,1,0,0,0,0,0,0,0,0,2,2,0,0,2,2,173.22,FLYING
229.08,ASCENT,RKT_SUSTAIN,92.79,80,-12.79,18060.94,-134.67,-2.06,20.01,90.44,-0.012,1,0,0,0,0,0,0,0,0,0,90.44,1.313,0,0,0,0,0,0,0,0,90.4,1,0,0.012,0,0,3,0,0,0,11.5,-10.501,0,0,1,1,0,0,VALID,3608.9,3750.3,1.206,19184,0,1,0,-844.98,16.017,1,0,0,0,0,0,0,0,0,2,2,0,0,2,2,175.76,FLYING
231.6,ASCENT,RKT_SUSTAIN,97.79,80,-17.79,17702.13,-149.29,-4.26,20.01,90.45,-0.011,1,0,0,0,0,0,0,0,0,0,90.45,1.757,0,0,0,0,0,0,0,0,90.4,1,0,0.012,0,0,3,0,0,0,11.5,-10.501,0,0,1,1,0,0,VALID,3962.1,4134.8,1.223,19082,0,1,0,-879.24,18.017,1,0,0,0,0,0,0,0,0,2,2,0,0,2,2,178.28,FLYING
234.16,ASCENT,RKT_SUSTAIN,103.65,80,-23.65,17301.14,-163.21,-6.28,20.01,90.45,-0.012,1,0,0,0,0,0,0,0,0,0,90.45,2.302,0,0,0,0,0,0,0,0,90.4,1,0,0.012,0,0,3,0,0,0,11.5,-10.501,0,0,1,1,0,0,VALID,4396.5,4610,1.242,18955,0,1,0,-928.2,20.017,1,0,0,0,0,0,0,0,0,2,2,0,0,2,2,180.84,FLYING
236.68,ASCENT,RKT_SUSTAIN,110.2,80,-30.2,16873.12,-175.75,-8.03,20.01,90.46,-0.011,1,0,0,0,0,0,0,0,0,0,90.46,3.016,0,0,0,0,0,0,0,0,90.4,1,0,0.012,0,0,3,0,0,0,11.5,-10.501,0,0,1,1,0,0,VALID,4917.6,5171.3,1.262,18799,0,1,0,-976.51,22.017,1,0,0,0,0,0,0,0,0,2,2,0,0,2,2,183.36,FLYING
239.18,ASCENT,RKT_SUSTAIN,117.44,80,-37.44,16419.02,-186.83,-9.49,20.01,90.47,-0.011,1,0,0,0,0,0,0,0,0,0,90.47,3.908,0,0,0,0,0,0,0,0,90.4,1,0,0.012,0,0,3,0,0,0,11.5,-10.501,0,0,1,1,0,0,VALID,5533.3,5829.5,1.282,18608,0,1,0,-1033.5,24.017,1,0,0,0,0,0,0,0,0,2,2,0,0,2,2,185.86,FLYING
241.72,ASCENT,RKT_SUSTAIN,125.46,80,-45.46,15931.46,-196.41,-10.69,20.01,90.47,-0.011,1,0,0,0,0,0,0,0,0,0,90.47,3.963,0,0,0,0,0,0,0,0,90.4,1,0,0.012,0,0,3,0,0,0,11.5,-10.501,0,0,1,1,0,0,VALID,6257.6,6607.9,1.302,18374,0,1,0,-1119.87,25,1,0,0,0,0,0,0,0,0,2,2,0,0,2,2,188.4,FLYING
244.28,ASCENT,RKT_SUSTAIN,133.99,80,-53.99,15418.02,-204.09,-11.57,20.01,90.48,-0.011,1,0,0,0,0,0,0,0,0,0,90.48,3.252,0,0,0,0,0,0,0,0,90.4,1,0,0.012,0,0,3,0,0,0,11.5,-10.501,0,0,1,1,0,0,VALID,7093.8,7494.7,1.319,18088,0,1,0,-1226.83,25,1,0,0,0,0,0,0,0,0,2,2,0,0,2,2,190.96,FLYING
246.84,ASCENT,RKT_SUSTAIN,143.02,80,-63.02,14887.81,-209.56,-12.12,20,90.5,-0.011,1,0,0,0,0,0,0,0,0,0,90.5,2.786,0,0,0,0,0,0,0,0,90.4,1,0,0.012,0,0,3,0,0,0,11.5,-10.501,0,0,1,1,0,0,VALID,8045.2,8499.2,1.334,17745,0,1,0,-1349.08,25,1,0,0,0,0,0,0,0,0,2,2,0,0,2,2,193.52,FLYING
249.4,ASCENT,RKT_SUSTAIN,152.63,80,-72.63,14344.96,-213.1,-18.87,13.63,90.52,-0.014,1,0,0,0,0,0,0,0,0,0,90.52,2.553,0,0,0,0,0,0,0,0,90.4,1,0,0.012,0,0,3,0,0,0,11.5,-10.501,0,0,1,1,0,0,DEGRADED,9115.1,9630.6,1.346,17339,0,1,0,-1425.75,25,1,0,0,0,0,0,0,0,0,2,2,0,0,2,2,196.08,FLYING
251.94,ASCENT,RKT_SUSTAIN,165.7,80,-85.7,13787.82,-224.54,-26.54,6.76,90.52,-0.009,1,0,0,0,0,0,0,0,0,0,90.52,1.639,0,0,0,0,0,0,0,0,90.4,1,0,0.012,0,0,3,0,0,0,11.5,-10.501,0,0,1,1,0,0,VALID,10515.3,11231.4,1.377,16971,0,1,0,-911.16,25,1,0,0,0,0,0,0,0,0,2,2,0,0,2,2,198.62,FLYING
254.48,ASCENT,RKT_SUSTAIN,179.17,80,-99.17,13212.12,-228.22,-25.31,8.08,90.51,0.018,1,0,0,0,0,0,0,0,0,0,90.51,1.562,0,0,0,0,0,0,0,0,90.4,1,0,0.012,0,0,3,0,0,0,11.5,-10.501,0,0,1,1,0,0,DEGRADED,12227.9,13041.3,1.402,16585,0,1,0,-730.4,25,1,0,0,0,0,0,0,0,0,2,2,0,0,2,2,201.16,FLYING
257.02,ASCENT,RKT_SUSTAIN,194.02,80,-114.02,12625.94,-231.82,-20.83,12.34,90.5,0.015,1,0,0,0,0,0,0,0,0,0,90.5,1.502,0,0,0,0,0,0,0,0,90.4,1,0,0.012,0,0,3,0,0,0,11.5,-10.501,0,0,1,1,0,0,DEGRADED,14234.7,15195.5,1.429,16151,0,1,0,-582.87,25,1,0,0,0,0,0,0,0,0,2,2,0,0,2,2,203.7,FLYING
259.58,ASCENT,RKT_SUSTAIN,208.94,80,-128.94,12034.81,-229.41,-21.78,10.46,90.49,0.012,1,0,0,0,0,0,0,0,0,0,90.49,2.064,0,0,0,0,0,0,0,0,90.4,1,0,0.012,0,0,3,0,0,0,11.5,-10.501,0,0,1,1,0,0,VALID,16468.1,17532.7,1.449,15602,0,1,0,-614.29,25,1,0,0,0,0,0,0,0,0,2,2,0,0,2,2,206.26,FLYING
262.14,ASCENT,RKT_SUSTAIN,224.33,80,-144.33,11454.12,-224.82,-22.75,8.2,90.48,0.005,1,0,0,0,0,0,0,0,0,0,90.48,2.828,0,0,0,0,0,0,0,0,90.4,1,0,0.012,0,0,3,0,0,0,11.5,-10.501,0,0,1,1,0,0,VALID,18943,20123,1.466,14964,0,1,0,-635.38,25,1,0,0,0,0,0,0,0,0,2,2,0,0,2,2,208.82,FLYING
264.68,ASCENT,RKT_SUSTAIN,238.14,80,-158.14,10899.74,-211.58,-19.36,9.54,90.46,0.009,1,0,0,0,0,0,0,0,0,0,90.46,4.356,0,0,0,0,0,0,0,0,90.4,1,0,0.012,0,0,3,0,0,0,11.5,-10.501,0,0,1,1,0,0,DEGRADED,21514.8,22664.9,1.473,14229,0,1,0,-910.04,25,1,0,0,0,0,0,0,0,0,2,2,0,0,2,2,211.36,FLYING
267.24,ASCENT,RKT_SUSTAIN,250.86,80,-170.86,10379.05,-194.73,-13.65,12.61,90.45,0.018,1,0,0,0,0,0,0,0,0,0,90.45,6.156,0,0,0,0,0,0,0,0,90.4,1,0,0.012,0,0,3,0,0,0,11.5,-10.501,0,0,1,1,0,0,VALID,24060.4,25182.3,1.475,13402,0,1,0,-1181.66,25,1,0,0,0,0,0,0,0,0,2,2,0,0,2,2,213.92,FLYING
269.8,ASCENT,RKT_SUSTAIN,261.45,80,-181.45,9909.1,-173.2,-11.23,12.06,90.43,0.008,1,0,0,0,0,0,0,0,0,0,90.43,8.336,0,0,0,0,0,0,0,0,90.4,1,0,0.012,0,0,3,0,0,0,11.5,-10.501,0,0,1,1,0,0,VALID,26377,27418.4,1.469,12513,0,1,0,-1450.3,25,1,0,0,0,0,0,0,0,0,2,2,0,0,2,2,216.48,FLYING
