t_s,phase,subphase,ias_ms,vapp_ms,spd_err_ms,agl_m,gear_h_m,vs_ms,pitch_deg,aoa_deg,hdg_deg,bank_deg,thr_cmd,thr_cur,thr_intg,at_gain,at_tau_s,at_a_up,at_a_dn,at_kp_thr,at_ki_spd,at_thr_slew,as_cmd_deg,as_cap_deg,as_raw_deg,as_spd_err_ms,as_active,aa_hdg_cmd_deg,aa_fpa_cmd_deg,aa_fbw,aa_dir,actual_fpa_deg,ftf_hdg_err_deg,ftf_fix_idx,kos_steer_pit_deg,kos_steer_hdg_deg,aa_dir_vx,aa_dir_vy,aa_dir_vz,aa_dir_pitch_deg,aa_dir_hdg_deg,ils_loc_m,ils_gs_m,ils_dist_km,loc_corr_deg,gs_corr_deg,gs_latched,active_gs_ang_deg,ils_intercept_alt_m,d_gs_ms,fpa_preclamped_deg,gs_nom_alt_m,flare_fpa_cmd,flare_tgt_vs,flare_frac,steer_hdg_deg,steer_blend,ro_loc_corr_deg,ro_hdg_err_deg,ro_yaw_tgt,ro_yaw_scale,ro_yaw_gate,yaw_cmd,roll_cmd,pitch_cmd,ro_pitch_tgt_deg,ro_pitch_err_deg,ro_pitch_ff,ro_roll_assist,flaps_cur,flaps_tgt,asc_j_ab,asc_j_rk,asc_validity,asc_q_pa,asc_q_raw_pa,asc_mach,asc_apo_m,asc_drag_n,asc_w_prop,asc_edot_aero,asc_edot_orb,asc_pitch_bias,asc_blend,asc_spooling,asc_ab_thr_ratio,asc_ab_t_now,asc_ab_t_avail,asc_ab_ign_on,asc_ab_flameouts,asc_rk_t_now,asc_rk_t_avail,asc_rk_ign_on,asc_rk_flameouts,ship_thrust,ship_avail_thrust,ship_ign_on,ship_flameouts,ifc_raw_dt_s,ifc_dt_s,ifc_loop_n,ifc_hz_est,ifc_raw_dt_max_s,ifc_raw_dt_min_s,phase_el_s,status,craft_name,cfg_file
0.16,APPROACH,ILS_TRACK,156.82,152,-4.82,1344.72,1264.04,-14.84,11.96,17.6,268.4,-17.192,0,0,0,0,0,0,0,0,0,0,0,0,0,0,0,0,0,1,0,-5.43,0,0,0,90,0,0,0,0,0,-109.26,-269.93,29.392,0,0,0,3,1344.72,0,0,1614.65,0,0,0,268.42,0,0,0,0,0,0,0,0,0,0,0,0,0,0,0,0,0,VALID,0,0,0,0,0,1,0,0,0,0,0,0,0,0,0,0,0,0,0,0,325.92,1052.81,2,0,0.14,0.14,1,3.7,0.14,0.02,0.16,FLYING,X10-F,0:/Integrated Flight Computer/aircraft/x10_f_cfg.ks (inferred preloaded)
0.42,APPROACH,ILS_TRACK,156.76,152,-4.76,1340.91,1260.37,-14.08,11.81,17.15,268.3,-16.093,0,0,0,1,0.6,1.422,0.75,0.35,0.0168,0.4,3.627,20.548,3.627,4.765,1,272.01,0,0,1,-5.18,0,0,0,295,-0.0814,0.035,0.9961,0,272.01,-107.21,-271.19,29.354,2.006,0,0,3,1344.72,-5.682,0,1612.69,0,0,0,268.42,0,0,0,0,0,0,0,0,0,0,0,0,0,1,3,0,0,VALID,0,0,0,0,0,1,0,0,0,0,0,0,0,0,0,0,0,0,0,0,297.48,1052.79,2,0,0.12,0.12,3,7.69,0.14,0.12,0.42,FLYING,X10-F,0:/Integrated Flight Computer/aircraft/x10_f_cfg.ks (inferred preloaded)
0.68,APPROACH,ILS_TRACK,156.63,152,-4.63,1337.14,1256.94,-13.5,11.16,16.26,268.14,-14.571,0,0,0,1,0.6,2.625,0.75,0.35,0.0168,0.4,3.487,20.585,3.487,4.634,1,272.13,0,0,1,-4.95,0,0,0,272.06,-0.0813,0.0372,0.996,0,272.13,-105,-272.65,29.31,2.13,0,0,3,1344.72,-5.537,0,1610.36,0,0,0,268.42,0,0,0,0,0,0,0,0,0,0,0,0,0,1,3,0,0,VALID,0,0,0,0,0,1,0,0,0,0,0,0,0,0,0,0,0,0,0,0,271.42,1052.42,2,0,0.12,0.12,5,7.69,0.14,0.12,0.68,FLYING,X10-F,0:/Integrated Flight Computer/aircraft/x10_f_cfg.ks (inferred preloaded)
1.04,APPROACH,ILS_TRACK,156.49,152,-4.49,1332.16,1252.63,-13.13,10.39,15.17,268.41,-9.046,0,0,0,1,0.6,4.091,0.75,0.35,0.0168,0.4,3.345,20.623,3.345,4.501,1,272.34,0,0,1,-4.8,0,0,0,272.27,-0.0812,0.0407,0.9959,0,272.34,-102.33,-274.45,29.249,2.335,0,0,3,1344.72,-4.705,0,1607.15,0,0,0,268.42,0,0,0,0,0,0,0,0,0,0,0,0,0,2,3,0,0,VALID,0,0,0,0,0,1,0,0,0,0,0,0,0,0,0,0,0,0,0,0,239.12,1052.13,2,0,0.12,0.12,8,8.33,0.12,0.12,1.04,FLYING,X10-F,0:/Integrated Flight Computer/aircraft/x10_f_cfg.ks (inferred preloaded)
1.4,APPROACH,ILS_TRACK,156.37,152,-4.37,1327.53,1248.36,-12.84,10.52,15.01,269.23,-3.971,0,0,0,1,0.6,4.5,0.75,0.35,0.0168,0.4,3.214,20.657,3.214,4.378,1,272.43,0,0,1,-4.72,0,0,0,272.41,-0.0811,0.0424,0.9958,0,272.43,-100,-275.9,29.187,2.431,0,0,3,1344.72,-3.689,0,1603.93,0,0,0,268.42,0,0,0,0,0,0,0,0,0,0,0,0,0,3,3,0,0,VALID,0,0,0,0,0,1,0,0,0,0,0,0,0,0,0,0,0,0,0,0,210.67,1051.89,2,0,0.12,0.12,11,8.33,0.12,0.12,1.4,FLYING,X10-F,0:/Integrated Flight Computer/aircraft/x10_f_cfg.ks (inferred preloaded)
1.7,APPROACH,ILS_TRACK,156.19,152,-4.19,1323.84,1244.78,-12.46,10.86,15.1,270,-1.341,0,0,0,1,0.6,4.5,0.75,0.35,0.0168,0.4,3.028,20.706,3.028,4.205,1,272.43,0,0,1,-4.58,0,0,0,272.44,-0.081,0.0424,0.9958,0,272.43,-98.19,-276.94,29.136,2.433,0,0,3,1344.72,-3.286,0,1601.26,0,0,0,268.42,0,0,0,0,0,0,0,0,0,0,0,0,0,3,3,0,0,VALID,0,0,0,0,0,1,0,0,0,0,0,0,0,0,0,0,0,0,0,0,189.51,1051.35,2,0,0.08,0.08,14,10,0.12,0.08,1.7,FLYING,X10-F,0:/Integrated Flight Computer/aircraft/x10_f_cfg.ks (inferred preloaded)
2.06,APPROACH,ILS_TRACK,155.85,152,-3.85,1319.64,1240.47,-11.9,11.55,15.61,270.81,-0.335,0,0,0,1,0.6,4.5,0.75,0.35,0.0168,0.4,2.667,20.8,2.667,3.873,1,272.37,0,0,1,-4.41,0,0,0,272.39,-0.0809,0.0413,0.9959,0,272.37,-96.05,-277.96,29.075,2.369,0,0,3,1344.72,-2.562,0,1598.05,0,0,0,268.42,0,0,0,0,0,0,0,0,0,0,0,0,0,3,3,0,0,VALID,0,0,0,0,0,1,0,0,0,0,0,0,0,0,0,0,0,0,0,0,166.81,1050.14,2,0,0.12,0.12,17,8.33,0.12,0.08,2.06,FLYING,X10-F,0:/Integrated Flight Computer/aircraft/x10_f_cfg.ks (inferred preloaded)
2.4,APPROACH,ILS_TRACK,155.34,152,-3.34,1315.82,1236.56,-11.27,11.92,15.75,271.45,0.191,0.1143,0,-1.203,1,0.6,4.5,0.75,0.35,0.0168,0.4,0,20.942,0,3.367,0,272.29,0,0,1,-4.17,0,0,0,272.32,-0.0808,0.04,0.9959,0,272.29,-94.05,-278.78,29.018,2.293,0,0,3,1344.72,-2.219,0,1595.04,0,0,0,268.42,0,0,0,0,0,0,0,0,0,0,0,0,0,3,3,0,0,VALID,0,0,0,0,0,1,0,0,0,0,0,0,0,0,0,0,0,0,0,0,151.03,1048.16,2,0,0.1,0.1,20,8.82,0.12,0.1,2.4,FLYING,X10-F,0:/Integrated Flight Computer/aircraft/x10_f_cfg.ks (inferred preloaded)
2.68,APPROACH,ILS_TRACK,154.86,152,-2.86,1312.91,1233.45,-10.86,12.48,16.22,271.89,0.466,0.2263,0,-2.06,1,0.6,4.5,0.75,0.35,0.0168,0.4,0,21.074,0,2.897,0,272.21,0,0,1,-4.03,0,0,0,272.25,-0.0807,0.0386,0.996,0,272.21,-92.41,-279.25,28.97,2.215,0,0,3,1344.72,-1.387,0,1592.56,0,0,0,268.42,0,0,0,0,0,0,0,0,0,0,0,0,0,3,3,0,0,VALID,0,0,0,0,0,1,0,0,0,0,0,0,0,0,0,0,0,0,0,0,150.08,1046.3,2,0,0.08,0.08,23,10.71,0.1,0.08,2.68,FLYING,X10-F,0:/Integrated Flight Computer/aircraft/x10_f_cfg.ks (inferred preloaded)
2.98,APPROACH,ILS_TRACK,154.26,152,-2.26,1310.04,1230.28,-10.31,13.55,17.14,272.13,0.542,0.3463,0,-2.812,1,0.6,4.5,0.75,0.35,0.0168,0.4,0,21.242,0,2.302,0,272.13,0,0,1,-3.86,0,0,0,272.15,-0.0807,0.0371,0.996,0,272.13,-90.62,-279.5,28.92,2.128,0,0,3,1344.72,-0.545,0,1589.91,0,0,0,268.42,0,0,0,0,0,0,0,0,0,0,0,0,0,3,3,0,0,VALID,0,0,0,0,0,1,0,0,0,0,0,0,0,0,0,0,0,0,0,0,156.74,1043.91,2,0,0.08,0.08,26,10,0.12,0.08,2.98,FLYING,X10-F,0:/Integrated Flight Computer/aircraft/x10_f_cfg.ks (inferred preloaded)
3.28,APPROACH,ILS_TRACK,153.52,152,-1.52,1307.34,1227.37,-9.18,14.46,17.65,272.22,0.462,0.4663,0,-3.361,1,0.6,4.5,0.75,0.35,0.0168,0.4,0,21.447,0,1.574,0,272.03,0,0,1,-3.49,0,0,0,272.07,-0.0806,0.0355,0.9961,0,272.03,-88.81,-279.58,28.87,2.034,0,0,3,1344.72,-0.188,0,1587.28,0,0,0,268.42,0,0,0,0,0,0,0,0,0,0,0,0,0,3,3,0,0,VALID,0,0,0,0,0,1,0,0,0,0,0,0,0,0,0,0,0,0,0,0,170.17,1040.9,2,0,0.08,0.08,29,10,0.12,0.08,3.28,FLYING,X10-F,0:/Integrated Flight Computer/aircraft/x10_f_cfg.ks (inferred preloaded)
3.6,APPROACH,ILS_TRACK,152.57,152,-0.57,1304.44,1224.67,-7.93,13.95,16.62,272.19,0.299,0.5943,0,-3.66,1,0.6,4.5,0.75,0.35,0.0168,0.4,0,21.716,0,0.619,0,271.95,0,0,1,-3.02,0,0,0,271.97,-0.0805,0.0341,0.9962,0,271.95,-86.86,-279.69,28.816,1.952,0,0,3,1344.72,-0.377,0,1584.48,0,0,0,268.42,0,0,0,0,0,0,0,0,0,0,0,0,0,3,3,0,0,VALID,0,0,0,0,0,1,0,0,0,0,0,0,0,0,0,0,0,0,0,0,191.33,1036.98,2,0,0.1,0.1,32,9.38,0.12,0.08,3.6,FLYING,X10-F,0:/Integrated Flight Computer/aircraft/x10_f_cfg.ks (inferred preloaded)
3.94,APPROACH,ILS_TRACK,151.95,152,0.05,1301.53,1222.09,-7.38,12.79,15.28,272.14,0.093,0.7007,0,-3.714,1,0.6,4.5,0.75,0.35,0.0168,0.4,0,21.897,0,-0.023,0,271.88,0,0,1,-2.79,0,0,0,271.89,-0.0804,0.0328,0.9962,0,271.88,-84.79,-279.67,28.76,1.881,0,0,3,1344.72,0.369,0,1581.52,0,0,0,268.42,0,0,0,0,0,0,0,0,0,0,0,0,0,3,3,0,0,VALID,0,0,0,0,0,1,0,0,0,0,0,0,0,0,0,0,0,0,0,0,221.37,1034.47,2,0,0.1,0.1,35,8.82,0.12,0.1,3.94,FLYING,X10-F,0:/Integrated Flight Computer/aircraft/x10_f_cfg.ks (inferred preloaded)
4.28,APPROACH,ILS_TRACK,151.57,152,0.43,1298.92,1219.63,-6.95,12.17,14.55,272.09,-0.119,0.5647,0,-3.614,1,0.6,4.5,0.75,0.35,0.0168,0.4,0,22.007,0,-0.412,0,271.79,0,0,1,-2.65,0,0,0,271.81,-0.0803,0.0312,0.9963,0,271.79,-82.72,-279.36,28.703,1.789,0,0,3,1344.72,1.117,0,1578.58,0,0,0,268.42,0,0,0,0,0,0,0,0,0,0,0,0,0,3,3,0,0,VALID,0,0,0,0,0,1,0,0,0,0,0,0,0,0,0,0,0,0,0,0,251.35,1032.99,2,0,0.12,0.12,38,8.82,0.12,0.1,4.28,FLYING,X10-F,0:/Integrated Flight Computer/aircraft/x10_f_cfg.ks (inferred preloaded)
4.62,APPROACH,ILS_TRACK,151.34,152,0.66,1296.47,1217.3,-6.68,11.61,13.9,272.03,-0.358,0.4287,0,-3.414,1,0.6,4.5,0.75,0.35,0.0168,0.4,0,22.075,0,-0.654,0,271.72,0,0,1,-2.53,0,0,0,271.73,-0.0802,0.03,0.9963,0,271.72,-80.66,-278.89,28.647,1.717,0,0,3,1344.72,1.619,0,1575.63,0,0,0,268.42,0,0,0,0,0,0,0,0,0,0,0,0,0,3,3,0,0,VALID,0,0,0,0,0,1,0,0,0,0,0,0,0,0,0,0,0,0,0,0,270.44,1032.14,2,0,0.1,0.1,41,8.82,0.12,0.1,4.62,FLYING,X10-F,0:/Integrated Flight Computer/aircraft/x10_f_cfg.ks (inferred preloaded)
4.9,APPROACH,ILS_TRACK,151.22,152,0.78,1294.66,1215.42,-6.62,11.71,14.03,271.97,-0.554,0.3167,0,-3.208,1,0.6,4.5,0.75,0.35,0.0168,0.4,0,22.109,0,-0.775,0,271.65,0,0,1,-2.51,0,0,0,271.67,-0.0802,0.0288,0.9964,0,271.65,-78.96,-278.3,28.601,1.651,0,0,3,1344.72,2.353,0,1573.21,0,0,0,268.42,0,0,0,0,0,0,0,0,0,0,0,0,0,3,3,0,0,VALID,0,0,0,0,0,1,0,0,0,0,0,0,0,0,0,0,0,0,0,0,278.08,1031.75,2,0,0.08,0.08,44,10.71,0.1,0.08,4.9,FLYING,X10-F,0:/Integrated Flight Computer/aircraft/x10_f_cfg.ks (inferred preloaded)
5.2,APPROACH,ILS_TRACK,151.05,152,0.95,1292.94,1213.44,-6.48,12.49,14.81,271.9,-0.757,0.2564,0,-2.945,1,0.6,4.5,0.75,0.35,0.0168,0.4,0,22.154,0,-0.934,0,271.59,0,0,1,-2.47,0,0,0,271.6,-0.0801,0.0277,0.9964,0,271.59,-77.16,-277.46,28.552,1.586,0,0,3,1344.72,3.052,0,1570.62,0,0,0,268.42,0,0,0,0,0,0,0,0,0,0,0,0,0,3,3,0,0,VALID,0,0,0,0,0,1,0,0,0,0,0,0,0,0,0,0,0,0,0,0,279.02,1031.19,2,0,0.08,0.08,47,10,0.12,0.08,5.2,FLYING,X10-F,0:/Integrated Flight Computer/aircraft/x10_f_cfg.ks (inferred preloaded)
5.5,APPROACH,ILS_TRACK,150.73,152,1.27,1291.3,1211.63,-5.5,13.24,15.17,271.82,-0.953,0.3349,0,-2.61,1,0.6,4.5,0.75,0.35,0.0168,0.4,0,22.24,0,-1.239,0,271.53,0,0,1,-2.15,0,0,0,271.54,-0.08,0.0268,0.9964,0,271.53,-75.37,-276.5,28.502,1.534,0,0,3,1344.72,3.116,0,1568.03,0,0,0,268.42,0,0,0,0,0,0,0,0,0,0,0,0,0,3,3,0,0,VALID,0,0,0,0,0,1,0,0,0,0,0,0,0,0,0,0,0,0,0,0,278.43,1029.94,2,0,0.08,0.08,50,10,0.12,0.08,5.5,FLYING,X10-F,0:/Integrated Flight Computer/aircraft/x10_f_cfg.ks (inferred preloaded)
5.82,APPROACH,ILS_TRACK,150.28,152,1.72,1289.47,1210,-4.67,12.58,14.17,271.76,-1.137,0.4629,0,-2.108,1,0.6,4.5,0.75,0.35,0.0168,0.4,0,22.371,0,-1.704,0,271.47,0,0,1,-1.82,0,0,0,271.49,-0.0799,0.0257,0.9965,0,271.47,-73.48,-275.58,28.45,1.475,0,0,3,1344.72,2.933,0,1565.27,0,0,0,268.42,0,0,0,0,0,0,0,0,0,0,0,0,0,3,3,0,0,VALID,0,0,0,0,0,1,0,0,0,0,0,0,0,0,0,0,0,0,0,0,284.33,1028.1,2,0,0.1,0.1,53,9.38,0.12,0.08,5.82,FLYING,X10-F,0:/Integrated Flight Computer/aircraft/x10_f_cfg.ks (inferred preloaded)
6.16,APPROACH,ILS_TRACK,150.04,152,1.96,1287.58,1208.47,-4.32,11.23,12.67,271.72,-1.318,0.4319,0,-1.466,1,0.6,4.5,0.75,0.35,0.0168,0.4,0,22.441,0,-1.952,0,271.43,0,0,1,-1.65,0,0,0,271.43,-0.0798,0.025,0.9965,0,271.43,-71.51,-274.56,28.394,1.431,0,0,3,1344.72,3.125,0,1562.35,0,0,0,268.42,0,0,0,0,0,0,0,0,0,0,0,0,0,3,3,0,0,VALID,0,0,0,0,0,1,0,0,0,0,0,0,0,0,0,0,0,0,0,0,296.95,1027.18,2,0,0.1,0.1,56,8.82,0.12,0.1,6.16,FLYING,X10-F,0:/Integrated Flight Computer/aircraft/x10_f_cfg.ks (inferred preloaded)
6.5,APPROACH,ILS_TRACK,149.99,152,2.01,1285.9,1206.96,-4.47,10.45,12,271.68,-1.464,0.3186,0,-0.787,1,0.6,4.5,0.75,0.35,0.0168,0.4,0,22.457,0,-2.009,0,271.36,0,0,1,-1.7,0,0,0,271.38,-0.0797,0.0238,0.9965,0,271.36,-69.57,-273.35,28.338,1.361,0,0,3,1344.72,3.783,0,1559.44,0,0,0,268.42,0,0,0,0,0,0,0,0,0,0,0,0,0,3,3,0,0,VALID,0,0,0,0,0,1,0,0,0,0,0,0,0,0,0,0,0,0,0,0,304.17,1027.05,2,0,0.12,0.12,59,8.82,0.12,0.1,6.5,FLYING,X10-F,0:/Integrated Flight Computer/aircraft/x10_f_cfg.ks (inferred preloaded)
6.86,APPROACH,ILS_TRACK,149.95,152,2.05,1284.36,1205.29,-4.69,10.72,12.4,271.61,-1.599,0.257,0,-0.057,1,0.6,4.5,0.75,0.35,0.0168,0.4,0,22.467,0,-2.043,0,271.3,0,0,1,-1.78,0,0,0,271.32,-0.0796,0.0227,0.9966,0,271.3,-67.54,-271.83,28.279,1.3,0,0,3,1344.72,4.432,0,1556.35,0,0,0,268.42,0,0,0,0,0,0,0,0,0,0,0,0,0,3,3,0,0,VALID,0,0,0,0,0,1,0,0,0,0,0,0,0,0,0,0,0,0,0,0,303.61,1027,2,0,0.12,0.12,62,8.33,0.12,0.12,6.86,FLYING,X10-F,0:/Integrated Flight Computer/aircraft/x10_f_cfg.ks (inferred preloaded)
7.22,APPROACH,ILS_TRACK,149.81,152,2.19,1282.99,1203.62,-4.5,11.78,13.42,271.52,-1.73,0.2894,0,0.707,1,0.6,4.5,0.75,0.35,0.0168,0.4,0,22.504,0,-2.176,0,271.24,0,0,1,-1.74,0,0,0,271.27,-0.0795,0.0217,0.9966,0,271.24,-65.54,-270.12,28.22,1.245,0,0,3,1344.72,4.824,0,1553.26,0,0,0,268.42,0,0,0,0,0,0,0,0,0,0,0,0,0,3,3,0,0,VALID,0,0,0,0,0,1,0,0,0,0,0,0,0,0,0,0,0,0,0,0,299.22,1026.53,2,0,0.12,0.12,65,8.33,0.12,0.12,7.22,FLYING,X10-F,0:/Integrated Flight Computer/aircraft/x10_f_cfg.ks (inferred preloaded)
7.58,APPROACH,ILS_TRACK,149.51,152,2.49,1281.65,1202.13,-3.63,12.4,13.68,271.43,-1.866,0.403,0,1.555,1,0.6,4.5,0.75,0.35,0.0168,0.4,0,22.586,0,-2.467,0,271.2,0,0,1,-1.44,0,0,0,271.22,-0.0794,0.021,0.9966,0,271.2,-63.6,-268.38,28.162,1.202,0,0,3,1344.72,4.797,0,1550.18,0,0,0,268.42,0,0,0,0,0,0,0,0,0,0,0,0,0,3,3,0,0,VALID,0,0,0,0,0,1,0,0,0,0,0,0,0,0,0,0,0,0,0,0,300.6,1025.35,2,0,0.12,0.12,68,8.33,0.12,0.12,7.58,FLYING,X10-F,0:/Integrated Flight Computer/aircraft/x10_f_cfg.ks (inferred preloaded)
7.94,APPROACH,ILS_TRACK,149.15,152,2.85,1280.26,1200.95,-2.89,11.71,12.68,271.39,-1.936,0.5167,0,2.539,1,0.6,4.5,0.75,0.35,0.0168,0.4,0,22.691,0,-2.837,0,271.17,0,0,1,-1.14,0,0,0,271.18,-0.0794,0.0204,0.9966,0,271.17,-61.7,-266.69,28.103,1.166,0,0,3,1344.72,4.726,0,1547.1,0,0,0,268.42,0,0,0,0,0,0,0,0,0,0,0,0,0,3,3,0,0,VALID,0,0,0,0,0,1,0,0,0,0,0,0,0,0,0,0,0,0,0,0,310.9,1023.88,2,0,0.12,0.12,71,8.33,0.12,0.12,7.94,FLYING,X10-F,0:/Integrated Flight Computer/aircraft/x10_f_cfg.ks (inferred preloaded)
8.3,APPROACH,ILS_TRACK,149,152,3,1278.89,1199.95,-2.73,10.36,11.26,271.38,-1.964,0.4824,0,3.608,1,0.6,4.5,0.75,0.35,0.0168,0.4,0,22.737,0,-3.001,0,271.13,0,0,1,-1.04,0,0,0,271.14,-0.0793,0.0196,0.9967,0,271.13,-59.86,-265,28.044,1.126,0,0,3,1344.72,4.813,0,1544.03,0,0,0,268.42,0,0,0,0,0,0,0,0,0,0,0,0,0,3,3,0,0,VALID,0,0,0,0,0,1,0,0,0,0,0,0,0,0,0,0,0,0,0,0,325.93,1023.3,2,0,0.12,0.12,74,8.33,0.12,0.12,8.3,FLYING,X10-F,0:/Integrated Flight Computer/aircraft/x10_f_cfg.ks (inferred preloaded)
8.66,APPROACH,ILS_TRACK,149.04,152,2.96,1277.7,1198.9,-3.08,9.74,10.82,271.36,-1.976,0.3738,0,4.682,1,0.6,4.5,0.75,0.35,0.0168,0.4,0,22.726,0,-2.963,0,271.08,0,0,1,-1.17,0,0,0,271.1,-0.0792,0.0188,0.9967,0,271.08,-58.07,-263.14,27.986,1.08,0,0,3,1344.72,5.355,0,1540.96,0,0,0,268.42,0,0,0,0,0,0,0,0,0,0,0,0,0,3,3,0,0,VALID,0,0,0,0,0,1,0,0,0,0,0,0,0,0,0,0,0,0,0,0,335.4,1023.54,2,0,0.12,0.12,77,8.33,0.12,0.12,8.66,FLYING,X10-F,0:/Integrated Flight Computer/aircraft/x10_f_cfg.ks (inferred preloaded)
9.02,APPROACH,ILS_TRACK,149.11,152,2.89,1276.71,1197.72,-3.45,10.27,11.55,271.3,-1.989,0.3108,0,5.73,1,0.6,4.5,0.75,0.35,0.0168,0.4,0,22.706,0,-2.892,0,271.04,0,0,1,-1.31,0,0,0,271.05,-0.0791,0.0182,0.9967,0,271.04,-56.31,-261.08,27.927,1.041,0,0,3,1344.72,5.881,0,1537.89,0,0,0,268.42,0,0,0,0,0,0,0,0,0,0,0,0,0,3,3,0,0,VALID,0,0,0,0,0,1,0,0,0,0,0,0,0,0,0,0,0,0,0,0,337.16,1023.92,2,0,0.12,0.12,80,8.33,0.12,0.12,9.02,FLYING,X10-F,0:/Integrated Flight Computer/aircraft/x10_f_cfg.ks (inferred preloaded)
9.38,APPROACH,ILS_TRACK,149.1,152,2.9,1275.83,1196.51,-3.19,11.5,12.7,271.21,-2.026,0.3255,0,6.769,1,0.6,4.5,0.75,0.35,0.0168,0.4,0,22.706,0,-2.894,0,271,0,0,1,-1.26,0,0,0,271,-0.079,0.0175,0.9967,0,271,-54.59,-258.89,27.869,1.004,0,0,3,1344.72,6.132,0,1534.82,0,0,0,268.42,0,0,0,0,0,0,0,0,0,0,0,0,0,3,3,0,0,VALID,0,0,0,0,0,1,0,0,0,0,0,0,0,0,0,0,0,0,0,0,334.97,1023.98,2,0,0.12,0.12,83,8.33,0.12,0.12,9.38,FLYING,X10-F,0:/Integrated Flight Computer/aircraft/x10_f_cfg.ks (inferred preloaded)
9.74,APPROACH,ILS_TRACK,148.91,152,3.09,1274.85,1195.53,-2.42,11.65,12.49,271.15,-2.047,0.4443,0,7.852,1,0.6,4.5,0.75,0.35,0.0168,0.4,0,22.759,0,-3.081,0,270.97,0,0,1,-0.95,0,0,0,270.98,-0.0789,0.017,0.9967,0,270.97,-52.92,-256.79,27.81,0.974,0,0,3,1344.72,5.688,0,1531.75,0,0,0,268.42,0,0,0,0,0,0,0,0,0,0,0,0,0,3,3,0,0,VALID,0,0,0,0,0,1,0,0,0,0,0,0,0,0,0,0,0,0,0,0,336.78,1023.24,2,0,0.12,0.12,86,8.33,0.12,0.12,9.74,FLYING,X10-F,0:/Integrated Flight Computer/aircraft/x10_f_cfg.ks (inferred preloaded)
10.1,APPROACH,ILS_TRACK,148.85,152,3.15,1273.85,1194.73,-2.1,10.93,11.64,271.13,-2.022,0.4517,0,8.981,1,0.6,4.5,0.75,0.35,0.0168,0.4,0,22.779,0,-3.152,0,270.94,0,0,1,-0.81,0,0,0,270.96,-0.0788,0.0165,0.9968,0,270.94,-51.31,-254.73,27.751,0.944,0,0,3,1344.72,5.771,0,1528.68,0,0,0,268.42,0,0,0,0,0,0,0,0,0,0,0,0,0,3,3,0,0,VALID,0,0,0,0,0,1,0,0,0,0,0,0,0,0,0,0,0,0,0,0,345.29,1023.02,2,0,0.12,0.12,89,8.33,0.12,0.12,10.1,FLYING,X10-F,0:/Integrated Flight Computer/aircraft/x10_f_cfg.ks (inferred preloaded)
10.46,APPROACH,ILS_TRACK,148.92,152,3.08,1272.95,1193.98,-2.15,10.36,11.1,271.12,-1.995,0.3927,0,10.103,1,0.6,4.5,0.75,0.35,0.0168,0.4,0,22.76,0,-3.085,0,270.91,0,0,1,-0.81,0,0,0,270.92,-0.0787,0.0159,0.9968,0,270.91,-49.75,-252.57,27.693,0.913,0,0,3,1344.72,6.142,0,1525.61,0,0,0,268.42,0,0,0,0,0,0,0,0,0,0,0,0,0,3,3,0,0,VALID,0,0,0,0,0,1,0,0,0,0,0,0,0,0,0,0,0,0,0,0,352.42,1023.36,2,0,0.12,0.12,92,8.33,0.12,0.12,10.46,FLYING,X10-F,0:/Integrated Flight Computer/aircraft/x10_f_cfg.ks (inferred preloaded)
10.82,APPROACH,ILS_TRACK,149.03,152,2.97,1272.26,1193.17,-2.38,10.7,11.58,271.07,-1.962,0.3503,0,11.187,1,0.6,4.5,0.75,0.35,0.0168,0.4,0,22.73,0,-2.979,0,270.88,0,0,1,-0.91,0,0,0,270.89,-0.0786,0.0154,0.9968,0,270.88,-48.22,-250.22,27.634,0.882,0,0,3,1344.72,6.713,0,1522.54,0,0,0,268.42,0,0,0,0,0,0,0,0,0,0,0,0,0,3,3,0,0,VALID,0,0,0,0,0,1,0,0,0,0,0,0,0,0,0,0,0,0,0,0,354.94,1023.86,2,0,0.12,0.12,95,8.33,0.12,0.12,10.82,FLYING,X10-F,0:/Integrated Flight Computer/aircraft/x10_f_cfg.ks (inferred preloaded)
11.18,APPROACH,ILS_TRACK,149.05,152,2.95,1271.6,1192.4,-1.84,11.2,11.85,271.01,-1.96,0.3771,0,12.247,1,0.6,4.5,0.75,0.35,0.0168,0.4,0,22.721,0,-2.947,0,270.85,0,0,1,-0.73,0,0,0,270.86,-0.0785,0.0148,0.9968,0,270.85,-46.74,-247.79,27.576,0.848,0,0,3,1344.72,6.581,0,1519.47,0,0,0,268.42,0,0,0,0,0,0,0,0,0,0,0,0,0,3,3,0,0,VALID,0,0,0,0,0,1,0,0,0,0,0,0,0,0,0,0,0,0,0,0,355.31,1024.02,2,0,0.12,0.12,98,8.33,0.12,0.12,11.18,FLYING,X10-F,0:/Integrated Flight Computer/aircraft/x10_f_cfg.ks (inferred preloaded)
11.54,APPROACH,ILS_TRACK,149.09,152,2.91,1270.86,1191.79,-1.62,10.8,11.35,270.99,-1.939,0.3902,0,13.303,1,0.6,4.5,0.75,0.35,0.0168,0.4,0,22.712,0,-2.913,0,270.82,0,0,1,-0.63,0,0,0,270.84,-0.0784,0.0144,0.9968,0,270.82,-45.31,-245.46,27.517,0.824,0,0,3,1344.72,6.512,0,1516.4,0,0,0,268.42,0,0,0,0,0,0,0,0,0,0,0,0,0,3,3,0,0,VALID,0,0,0,0,0,1,0,0,0,0,0,0,0,0,0,0,0,0,0,0,358.2,1024.23,2,0,0.12,0.12,101,8.33,0.12,0.12,11.54,FLYING,X10-F,0:/Integrated Flight Computer/aircraft/x10_f_cfg.ks (inferred preloaded)
11.9,APPROACH,ILS_TRACK,149.21,152,2.79,1270.2,1191.22,-1.59,10.4,10.96,270.97,-1.89,0.3592,0,14.325,1,0.6,4.5,0.75,0.35,0.0168,0.4,0,22.678,0,-2.793,0,270.8,0,0,1,-0.61,0,0,0,270.81,-0.0783,0.014,0.9968,0,270.8,-43.92,-243.06,27.458,0.803,0,0,3,1344.72,6.754,0,1513.33,0,0,0,268.42,0,0,0,0,0,0,0,0,0,0,0,0,0,3,3,0,0,VALID,0,0,0,0,0,1,0,0,0,0,0,0,0,0,0,0,0,0,0,0,360.7,1024.78,2,0,0.12,0.12,104,8.33,0.12,0.12,11.9,FLYING,X10-F,0:/Integrated Flight Computer/aircraft/x10_f_cfg.ks (inferred preloaded)
12.26,APPROACH,ILS_TRACK,149.35,152,2.65,1269.67,1190.63,-1.74,10.58,11.22,270.93,-1.836,0.3367,0,15.296,1,0.6,4.5,0.75,0.35,0.0168,0.4,0,22.638,0,-2.652,0,270.77,0,0,1,-0.66,0,0,0,270.78,-0.0782,0.0134,0.9968,0,270.77,-42.57,-240.53,27.4,0.769,0,0,3,1344.72,7.162,0,1510.25,0,0,0,268.42,0,0,0,0,0,0,0,0,0,0,0,0,0,3,3,0,0,VALID,0,0,0,0,0,1,0,0,0,0,0,0,0,0,0,0,0,0,0,0,360.61,1025.42,2,0,0.12,0.12,107,8.33,0.12,0.12,12.26,FLYING,X10-F,0:/Integrated Flight Computer/aircraft/x10_f_cfg.ks (inferred preloaded)
12.62,APPROACH,ILS_TRACK,149.44,152,2.56,1269.17,1190.07,-1.35,10.9,11.37,270.89,-1.801,0.3545,0,16.226,1,0.6,4.5,0.75,0.35,0.0168,0.4,0,22.612,0,-2.558,0,270.75,0,0,1,-0.53,0,0,0,270.77,-0.0781,0.013,0.9969,0,270.75,-41.26,-237.94,27.341,0.747,0,0,3,1344.72,7.131,0,1507.17,0,0,0,268.42,0,0,0,0,0,0,0,0,0,0,0,0,0,3,3,0,0,VALID,0,0,0,0,0,1,0,0,0,0,0,0,0,0,0,0,0,0,0,0,359.25,1025.84,2,0,0.12,0.12,110,8.33,0.12,0.12,12.62,FLYING,X10-F,0:/Integrated Flight Computer/aircraft/x10_f_cfg.ks (inferred preloaded)
12.98,APPROACH,ILS_TRACK,149.53,152,2.47,1268.64,1189.62,-1.15,10.65,11.03,270.87,-1.762,0.3695,0,17.128,1,0.6,4.5,0.75,0.35,0.0168,0.4,0,22.588,0,-2.473,0,270.72,0,0,1,-0.44,0,0,0,270.74,-0.078,0.0126,0.9969,0,270.72,-40,-235.39,27.282,0.724,0,0,3,1344.72,7.059,0,1504.09,0,0,0,268.42,0,0,0,0,0,0,0,0,0,0,0,0,0,3,3,0,0,VALID,0,0,0,0,0,1,0,0,0,0,0,0,0,0,0,0,0,0,0,0,360.16,1026.23,2,0,0.12,0.12,113,8.33,0.12,0.12,12.98,FLYING,X10-F,0:/Integrated Flight Computer/aircraft/x10_f_cfg.ks (inferred preloaded)
13.34,APPROACH,ILS_TRACK,149.67,152,2.33,1268.16,1189.21,-1.14,10.36,10.76,270.85,-1.71,0.355,0,17.988,1,0.6,4.5,0.75,0.35,0.0168,0.4,0,22.55,0,-2.34,0,270.71,0,0,1,-0.44,0,0,0,270.72,-0.0779,0.0123,0.9969,0,270.71,-38.77,-232.8,27.223,0.707,0,0,3,1344.72,7.292,0,1501.01,0,0,0,268.42,0,0,0,0,0,0,0,0,0,0,0,0,0,3,3,0,0,VALID,0,0,0,0,0,1,0,0,0,0,0,0,0,0,0,0,0,0,0,0,361.49,1026.83,2,0,0.12,0.12,116,8.33,0.12,0.12,13.34,FLYING,X10-F,0:/Integrated Flight Computer/aircraft/x10_f_cfg.ks (inferred preloaded)
13.7,APPROACH,ILS_TRACK,149.82,152,2.18,1267.76,1188.81,-1.05,10.37,10.74,270.82,-1.67,0.3428,0,18.794,1,0.6,4.5,0.75,0.35,0.0168,0.4,0,22.509,0,-2.192,0,270.69,0,0,1,-0.4,0,0,0,270.69,-0.0778,0.012,0.9969,0,270.69,-37.58,-230.12,27.165,0.686,0,0,3,1344.72,7.446,0,1497.93,0,0,0,268.42,0,0,0,0,0,0,0,0,0,0,0,0,0,3,3,0,0,VALID,0,0,0,0,0,1,0,0,0,0,0,0,0,0,0,0,0,0,0,0,361.38,1027.48,2,0,0.12,0.12,119,8.33,0.12,0.12,13.7,FLYING,X10-F,0:/Integrated Flight Computer/aircraft/x10_f_cfg.ks (inferred preloaded)
14.06,APPROACH,ILS_TRACK,149.97,152,2.03,1267.41,1188.42,-1.03,10.51,10.89,270.79,-1.621,0.335,0,19.548,1,0.6,4.5,0.75,0.35,0.0168,0.4,0,22.466,0,-2.042,0,270.66,0,0,1,-0.41,0,0,0,270.67,-0.0777,0.0115,0.9969,0,270.66,-36.43,-227.39,27.106,0.66,0,0,3,1344.72,7.71,0,1494.84,0,0,0,268.42,0,0,0,0,0,0,0,0,0,0,0,0,0,3,3,0,0,VALID,0,0,0,0,0,1,0,0,0,0,0,0,0,0,0,0,0,0,0,0,360.22,1028.15,2,0,0.12,0.12,122,8.33,0.12,0.12,14.06,FLYING,X10-F,0:/Integrated Flight Computer/aircraft/x10_f_cfg.ks (inferred preloaded)
14.32,APPROACH,ILS_TRACK,150.05,152,1.95,1267.14,1188.18,-0.89,10.43,10.73,270.78,-1.583,0.3443,0,20,1,0.6,4.5,0.75,0.35,0.0168,0.4,0,22.442,0,-1.956,0,270.66,0,0,1,-0.34,0,0,0,270.65,-0.0776,0.0115,0.9969,0,270.66,-35.62,-225.43,27.063,0.658,0,0,3,1344.72,7.501,0,1492.61,0,0,0,268.42,0,0,0,0,0,0,0,0,0,0,0,0,0,3,3,0,0,VALID,0,0,0,0,0,1,0,0,0,0,0,0,0,0,0,0,0,0,0,0,359.19,1028.52,2,0,0.12,0.12,124,7.69,0.14,0.12,14.32,FLYING,X10-F,0:/Integrated Flight Computer/aircraft/x10_f_cfg.ks (inferred preloaded)
14.68,APPROACH,ILS_TRACK,150.2,152,1.8,1266.8,1187.87,-0.93,10.34,10.68,270.76,-1.505,0.3258,0,20,1,0.6,4.5,0.75,0.35,0.0168,0.4,0,22.4,0,-1.807,0,270.63,0,0,1,-0.35,0,0,0,270.64,-0.0775,0.0109,0.9969,0,270.63,-34.52,-222.68,27.004,0.627,0,0,3,1344.72,7.72,0,1489.51,0,0,0,268.42,0,0,0,0,0,0,0,0,0,0,0,0,0,3,3,0,0,VALID,0,0,0,0,0,1,0,0,0,0,0,0,0,0,0,0,0,0,0,0,358.1,1029.18,2,0,0.12,0.12,127,8.33,0.12,0.12,14.68,FLYING,X10-F,0:/Integrated Flight Computer/aircraft/x10_f_cfg.ks (inferred preloaded)
15.04,APPROACH,ILS_TRACK,150.34,152,1.66,1266.5,1187.57,-0.79,10.4,10.68,270.74,-1.424,0.3174,0,20,1,0.6,4.5,0.75,0.35,0.0168,0.4,0,22.361,0,-1.669,0,270.61,0,0,1,-0.32,0,0,0,270.62,-0.0774,0.0106,0.9969,0,270.61,-33.46,-219.88,26.945,0.607,0,0,3,1344.72,7.811,0,1486.42,0,0,0,268.42,0,0,0,0,0,0,0,0,0,0,0,0,0,3,3,0,0,VALID,0,0,0,0,0,1,0,0,0,0,0,0,0,0,0,0,0,0,0,0,355.31,1029.78,2,0,0.12,0.12,130,8.33,0.12,0.12,15.04,FLYING,X10-F,0:/Integrated Flight Computer/aircraft/x10_f_cfg.ks (inferred preloaded)
15.4,APPROACH,ILS_TRACK,150.47,152,1.53,1266.21,1187.3,-0.75,10.35,10.62,270.73,-1.35,0.3131,0,20,1,0.6,4.5,0.75,0.35,0.0168,0.4,0,22.325,0,-1.54,0,270.59,0,0,1,-0.3,0,0,0,270.6,-0.0773,0.0103,0.997,0,270.59,-32.44,-217.08,26.886,0.592,0,0,3,1344.72,7.874,0,1483.32,0,0,0,268.42,0,0,0,0,0,0,0,0,0,0,0,0,0,3,3,0,0,VALID,0,0,0,0,0,1,0,0,0,0,0,0,0,0,0,0,0,0,0,0,352.08,1030.34,2,0,0.12,0.12,133,8.33,0.12,0.12,15.4,FLYING,X10-F,0:/Integrated Flight Computer/aircraft/x10_f_cfg.ks (inferred preloaded)
15.76,APPROACH,ILS_TRACK,150.59,152,1.41,1265.94,1187.04,-0.78,10.29,10.58,270.72,-1.272,0.3116,0,20,1,0.6,4.5,0.75,0.35,0.0168,0.4,0,22.291,0,-1.421,0,270.57,0,0,1,-0.3,0,0,0,270.58,-0.0772,0.0099,0.997,0,270.57,-31.43,-214.25,26.827,0.566,0,0,3,1344.72,7.922,0,1480.22,0,0,0,268.42,0,0,0,0,0,0,0,0,0,0,0,0,0,3,3,0,0,VALID,0,0,0,0,0,1,0,0,0,0,0,0,0,0,0,0,0,0,0,0,348.87,1030.87,2,0,0.12,0.12,136,8.33,0.12,0.12,15.76,FLYING,X10-F,0:/Integrated Flight Computer/aircraft/x10_f_cfg.ks (inferred preloaded)
16.12,APPROACH,ILS_TRACK,150.69,152,1.31,1265.68,1186.81,-0.62,10.27,10.48,270.7,-1.209,0.3169,0,20,1,0.6,4.5,0.75,0.35,0.0168,0.4,0,22.263,0,-1.319,0,270.54,0,0,1,-0.23,0,0,0,270.56,-0.0771,0.0095,0.997,0,270.54,-30.46,-211.4,26.768,0.545,0,0,3,1344.72,7.85,0,1477.12,0,0,0,268.42,0,0,0,0,0,0,0,0,0,0,0,0,0,3,3,0,0,VALID,0,0,0,0,0,1,0,0,0,0,0,0,0,0,0,0,0,0,0,0,345.84,1031.31,2,0,0.12,0.12,139,8.33,0.12,0.12,16.12,FLYING,X10-F,0:/Integrated Flight Computer/aircraft/x10_f_cfg.ks (inferred preloaded)
16.48,APPROACH,ILS_TRACK,150.79,152,1.21,1265.49,1186.56,-0.78,10.38,10.68,270.69,-1.148,0.3144,0,20,1,0.6,4.5,0.75,0.35,0.0168,0.4,0,22.233,0,-1.213,0,270.53,0,0,1,-0.29,0,0,0,270.54,-0.0771,0.0092,0.997,0,270.53,-29.52,-208.51,26.708,0.529,0,0,3,1344.72,8.182,0,1474.01,0,0,0,268.42,0,0,0,0,0,0,0,0,0,0,0,0,0,3,3,0,0,VALID,0,0,0,0,0,1,0,0,0,0,0,0,0,0,0,0,0,0,0,0,343.51,1031.78,2,0,0.12,0.12,142,8.33,0.12,0.12,16.48,FLYING,X10-F,0:/Integrated Flight Computer/aircraft/x10_f_cfg.ks (inferred preloaded)
16.84,APPROACH,ILS_TRACK,150.82,152,1.18,1265.34,1186.34,-0.38,10.76,10.88,270.66,-1.106,0.3506,0,20,1,0.6,4.5,0.75,0.35,0.0168,0.4,0,22.223,0,-1.179,0,270.51,0,0,1,-0.16,0,0,0,270.52,-0.077,0.0089,0.997,0,270.51,-28.6,-205.54,26.649,0.509,0,0,3,1344.72,8.1,0,1470.91,0,0,0,268.42,0,0,0,0,0,0,0,0,0,0,0,0,0,3,3,0,0,VALID,0,0,0,0,0,1,0,0,0,0,0,0,0,0,0,0,0,0,0,0,342.07,1031.91,2,0,0.12,0.12,145,8.33,0.12,0.12,16.84,FLYING,X10-F,0:/Integrated Flight Computer/aircraft/x10_f_cfg.ks (inferred preloaded)
17.2,APPROACH,ILS_TRACK,150.86,152,1.14,1265.08,1186.22,-0.38,10.29,10.4,270.66,-1.035,0.3626,0,20,1,0.6,4.5,0.75,0.35,0.0168,0.4,0,22.214,0,-1.147,0,270.49,0,0,1,-0.14,0,0,0,270.5,-0.0769,0.0085,0.997,0,270.49,-27.7,-202.69,26.59,0.488,0,0,3,1344.72,7.964,0,1467.8,0,0,0,268.42,0,0,0,0,0,0,0,0,0,0,0,0,0,3,3,0,0,VALID,0,0,0,0,0,1,0,0,0,0,0,0,0,0,0,0,0,0,0,0,344.28,1032.08,2,0,0.12,0.12,148,8.33,0.12,0.12,17.2,FLYING,X10-F,0:/Integrated Flight Computer/aircraft/x10_f_cfg.ks (inferred preloaded)
17.56,APPROACH,ILS_TRACK,150.95,152,1.05,1264.94,1186.08,-0.33,10.29,10.4,270.65,-0.985,0.3405,0,20,1,0.6,4.5,0.75,0.35,0.0168,0.4,0,22.189,0,-1.057,0,270.47,0,0,1,-0.13,0,0,0,270.48,-0.0768,0.0082,0.997,0,270.47,-26.83,-199.74,26.53,0.469,0,0,3,1344.72,8.231,0,1464.69,0,0,0,268.42,0,0,0,0,0,0,0,0,0,0,0,0,0,3,3,0,0,VALID,0,0,0,0,0,1,0,0,0,0,0,0,0,0,0,0,0,0,0,0,345.94,1032.47,2,0,0.12,0.12,151,8.33,0.12,0.12,17.56,FLYING,X10-F,0:/Integrated Flight Computer/aircraft/x10_f_cfg.ks (inferred preloaded)
17.92,APPROACH,ILS_TRACK,151.05,152,0.95,1264.79,1185.95,-0.44,10.19,10.36,270.64,-0.944,0.3182,0,20,1,0.6,4.5,0.75,0.35,0.0168,0.4,0,22.16,0,-0.956,0,270.46,0,0,1,-0.16,0,0,0,270.46,-0.0767,0.008,0.997,0,270.46,-25.98,-196.79,26.471,0.456,0,0,3,1344.72,8.297,0,1461.59,0,0,0,268.42,0,0,0,0,0,0,0,0,0,0,0,0,0,3,3,0,0,VALID,0,0,0,0,0,1,0,0,0,0,0,0,0,0,0,0,0,0,0,0,346.01,1032.92,2,0,0.12,0.12,154,8.33,0.12,0.12,17.92,FLYING,X10-F,0:/Integrated Flight Computer/aircraft/x10_f_cfg.ks (inferred preloaded)
18.28,APPROACH,ILS_TRACK,151.12,152,0.88,1264.7,1185.82,-0.23,10.39,10.45,270.62,-0.92,0.321,0,20,1,0.6,4.5,0.75,0.35,0.0168,0.4,0,22.139,0,-0.881,0,270.44,0,0,1,-0.09,0,0,0,270.44,-0.0766,0.0076,0.997,0,270.44,-25.15,-193.76,26.412,0.436,0,0,3,1344.72,8.268,0,1458.47,0,0,0,268.42,0,0,0,0,0,0,0,0,0,0,0,0,0,3,3,0,0,VALID,0,0,0,0,0,1,0,0,0,0,0,0,0,0,0,0,0,0,0,0,343.66,1033.23,2,0,0.12,0.12,157,8.33,0.12,0.12,18.28,FLYING,X10-F,0:/Integrated Flight Computer/aircraft/x10_f_cfg.ks (inferred preloaded)
18.64,APPROACH,ILS_TRACK,151.21,152,0.79,1264.58,1185.72,-0.27,10.29,10.39,270.6,-0.916,0.3116,0,20,1,0.6,4.5,0.75,0.35,0.0168,0.4,0,22.115,0,-0.797,0,270.42,0,0,1,-0.11,0,0,0,270.42,-0.0765,0.0073,0.997,0,270.42,-24.34,-190.77,26.352,0.418,0,0,3,1344.72,8.389,0,1455.36,0,0,0,268.42,0,0,0,0,0,0,0,0,0,0,0,0,0,3,3,0,0,VALID,0,0,0,0,0,1,0,0,0,0,0,0,0,0,0,0,0,0,0,0,342.23,1033.61,2,0,0.12,0.12,160,8.33,0.12,0.12,18.64,FLYING,X10-F,0:/Integrated Flight Computer/aircraft/x10_f_cfg.ks (inferred preloaded)
19,APPROACH,ILS_TRACK,151.3,152,0.7,1264.48,1185.63,-0.22,10.27,10.34,270.59,-0.9,0.3021,0,20,1,0.6,4.5,0.75,0.35,0.0168,0.4,0,22.09,0,-0.708,0,270.39,0,0,1,-0.08,0,0,0,270.41,-0.0764,0.0068,0.9971,0,270.39,-23.55,-187.75,26.293,0.39,0,0,3,1344.72,8.391,0,1452.25,0,0,0,268.42,0,0,0,0,0,0,0,0,0,0,0,0,0,3,3,0,0,VALID,0,0,0,0,0,1,0,0,0,0,0,0,0,0,0,0,0,0,0,0,339.62,1033.99,2,0,0.12,0.12,163,8.33,0.12,0.12,19,FLYING,X10-F,0:/Integrated Flight Computer/aircraft/x10_f_cfg.ks (inferred preloaded)
19.36,APPROACH,ILS_TRACK,151.38,152,0.62,1264.4,1185.55,-0.2,10.25,10.31,270.57,-0.87,0.2991,0,20,1,0.6,4.5,0.75,0.35,0.0168,0.4,0,22.068,0,-0.627,0,270.39,0,0,1,-0.07,0,0,0,270.38,-0.0763,0.0067,0.9971,0,270.39,-22.78,-184.73,26.234,0.385,0,0,3,1344.72,8.407,0,1449.13,0,0,0,268.42,0,0,0,0,0,0,0,0,0,0,0,0,0,3,3,0,0,VALID,0,0,0,0,0,1,0,0,0,0,0,0,0,0,0,0,0,0,0,0,336.32,1034.34,2,0,0.12,0.12,166,8.33,0.12,0.12,19.36,FLYING,X10-F,0:/Integrated Flight Computer/aircraft/x10_f_cfg.ks (inferred preloaded)
19.72,APPROACH,ILS_TRACK,151.45,152,0.55,1264.32,1185.48,-0.21,10.24,10.32,270.56,-0.858,0.3013,0,20,1,0.6,4.5,0.75,0.35,0.0168,0.4,0,22.048,0,-0.558,0,270.36,0,0,1,-0.08,0,0,0,270.37,-0.0762,0.0064,0.9971,0,270.36,-22.03,-181.68,26.174,0.364,0,0,3,1344.72,8.445,0,1446.01,0,0,0,268.42,0,0,0,0,0,0,0,0,0,0,0,0,0,3,3,0,0,VALID,0,0,0,0,0,1,0,0,0,0,0,0,0,0,0,0,0,0,0,0,333.26,1034.64,2,0,0.12,0.12,169,8.33,0.12,0.12,19.72,FLYING,X10-F,0:/Integrated Flight Computer/aircraft/x10_f_cfg.ks (inferred preloaded)
20.08,APPROACH,ILS_TRACK,151.51,152,0.49,1264.26,1185.41,-0.17,10.26,10.32,270.54,-0.842,0.3049,0,20,1,0.6,4.5,0.75,0.35,0.0168,0.4,0,22.031,0,-0.498,0,270.34,0,0,1,-0.07,0,0,0,270.35,-0.0761,0.006,0.9971,0,270.34,-21.29,-178.63,26.115,0.344,0,0,3,1344.72,8.487,0,1442.9,0,0,0,268.42,0,0,0,0,0,0,0,0,0,0,0,0,0,3,3,0,0,VALID,0,0,0,0,0,1,0,0,0,0,0,0,0,0,0,0,0,0,0,0,330.88,1034.9,2,0,0.12,0.12,172,8.33,0.12,0.12,20.08,FLYING,X10-F,0:/Integrated Flight Computer/aircraft/x10_f_cfg.ks (inferred preloaded)
20.44,APPROACH,ILS_TRACK,151.56,152,0.44,1264.2,1185.36,-0.15,10.26,10.32,270.53,-0.838,0.3086,0,20,1,0.6,4.5,0.75,0.35,0.0168,0.4,0,22.016,0,-0.445,0,270.33,0,0,1,-0.06,0,0,0,270.34,-0.076,0.0057,0.9971,0,270.33,-20.57,-175.57,26.055,0.327,0,0,3,1344.72,8.52,0,1439.78,0,0,0,268.42,0,0,0,0,0,0,0,0,0,0,0,0,0,3,3,0,0,VALID,0,0,0,0,0,1,0,0,0,0,0,0,0,0,0,0,0,0,0,0,329.27,1035.12,2,0,0.12,0.12,175,8.33,0.12,0.12,20.44,FLYING,X10-F,0:/Integrated Flight Computer/aircraft/x10_f_cfg.ks (inferred preloaded)
20.8,APPROACH,ILS_TRACK,151.6,152,0.4,1264.16,1185.31,-0.12,10.26,10.31,270.51,-0.845,0.3117,0,20,1,0.6,4.5,0.75,0.35,0.0168,0.4,0,22.003,0,-0.398,0,270.32,0,0,1,-0.05,0,0,0,270.32,-0.0759,0.0055,0.9971,0,270.32,-19.88,-172.49,25.995,0.316,0,0,3,1344.72,8.543,0,1436.65,0,0,0,268.42,0,0,0,0,0,0,0,0,0,0,0,0,0,3,3,0,0,VALID,0,0,0,0,0,1,0,0,0,0,0,0,0,0,0,0,0,0,0,0,328.28,1035.32,2,0,0.12,0.12,178,8.33,0.12,0.12,20.8,FLYING,X10-F,0:/Integrated Flight Computer/aircraft/x10_f_cfg.ks (inferred preloaded)
21.16,APPROACH,ILS_TRACK,151.65,152,0.35,1264.12,1185.27,-0.08,10.26,10.29,270.49,-0.846,0.3142,0,20,1,0.6,4.5,0.75,0.35,0.0168,0.4,0,21.991,0,-0.356,0,270.3,0,0,1,-0.04,0,0,0,270.31,-0.0758,0.0053,0.9971,0,270.3,-19.2,-169.41,25.936,0.302,0,0,3,1344.72,8.564,0,1433.53,0,0,0,268.42,0,0,0,0,0,0,0,0,0,0,0,0,0,3,3,0,0,VALID,0,0,0,0,0,1,0,0,0,0,0,0,0,0,0,0,0,0,0,0,327.77,1035.51,2,0,0.12,0.12,181,8.33,0.12,0.12,21.16,FLYING,X10-F,0:/Integrated Flight Computer/aircraft/x10_f_cfg.ks (inferred preloaded)
21.52,APPROACH,ILS_TRACK,151.69,152,0.31,1264.08,1185.25,-0.08,10.25,10.27,270.48,-0.816,0.3147,0,20,1,0.6,4.5,0.75,0.35,0.0168,0.4,0,21.98,0,-0.315,0,270.28,0,0,1,-0.03,0,0,0,270.29,-0.0757,0.0048,0.9971,0,270.28,-18.53,-166.32,25.876,0.277,0,0,3,1344.72,8.593,0,1430.41,0,0,0,268.42,0,0,0,0,0,0,0,0,0,0,0,0,0,3,3,0,0,VALID,0,0,0,0,0,1,0,0,0,0,0,0,0,0,0,0,0,0,0,0,327.57,1035.68,2,0,0.12,0.12,184,8.33,0.12,0.12,21.52,FLYING,X10-F,0:/Integrated Flight Computer/aircraft/x10_f_cfg.ks (inferred preloaded)
21.88,APPROACH,ILS_TRACK,151.73,152,0.27,1264.06,1185.22,-0.06,10.24,10.26,270.46,-0.792,0.3144,0,20,1,0.6,4.5,0.75,0.35,0.0168,0.4,0,21.968,0,-0.275,0,270.27,0,0,1,-0.02,0,0,0,270.28,-0.0756,0.0048,0.9971,0,270.27,-17.89,-163.23,25.817,0.274,0,0,3,1344.72,8.589,0,1427.29,0,0,0,268.42,0,0,0,0,0,0,0,0,0,0,0,0,0,3,3,0,0,VALID,0,0,0,0,0,1,0,0,0,0,0,0,0,0,0,0,0,0,0,0,327.4,1035.85,2,0,0.12,0.12,187,8.33,0.12,0.12,21.88,FLYING,X10-F,0:/Integrated Flight Computer/aircraft/x10_f_cfg.ks (inferred preloaded)
22.24,APPROACH,ILS_TRACK,151.77,152,0.23,1264.04,1185.21,-0.04,10.24,10.25,270.45,-0.762,0.3133,0,20,1,0.6,4.5,0.75,0.35,0.0168,0.4,0,21.958,0,-0.237,0,270.26,0,0,1,-0.01,0,0,0,270.27,-0.0755,0.0045,0.9971,0,270.26,-17.27,-160.12,25.757,0.257,0,0,3,1344.72,8.642,0,1424.16,0,0,0,268.42,0,0,0,0,0,0,0,0,0,0,0,0,0,3,3,0,0,VALID,0,0,0,0,0,1,0,0,0,0,0,0,0,0,0,0,0,0,0,0,327.21,1036.02,2,0,0.12,0.12,190,8.33,0.12,0.12,22.24,FLYING,X10-F,0:/Integrated Flight Computer/aircraft/x10_f_cfg.ks (inferred preloaded)
22.6,APPROACH,ILS_TRACK,151.8,152,0.2,1264.03,1185.2,-0.01,10.23,10.24,270.44,-0.748,0.3111,0,20,1,0.6,4.5,0.75,0.35,0.0168,0.4,0,21.947,0,-0.197,0,270.25,0,0,1,-0.01,0,0,0,270.25,-0.0754,0.0043,0.9971,0,270.25,-16.66,-157.01,25.698,0.247,0,0,3,1344.72,8.644,0,1421.04,0,0,0,268.42,0,0,0,0,0,0,0,0,0,0,0,0,0,3,3,0,0,VALID,0,0,0,0,0,1,0,0,0,0,0,0,0,0,0,0,0,0,0,0,326.86,1036.19,2,0,0.12,0.12,193,8.33,0.12,0.12,22.6,FLYING,X10-F,0:/Integrated Flight Computer/aircraft/x10_f_cfg.ks (inferred preloaded)
22.96,APPROACH,ILS_TRACK,151.84,152,0.16,1264.03,1185.2,-0.01,10.22,10.23,270.43,-0.73,0.3092,0,20,1,0.6,4.5,0.75,0.35,0.0168,0.4,0,21.936,0,-0.159,0,270.23,0,0,1,0,0,0,0,270.24,-0.0753,0.004,0.9972,0,270.23,-16.07,-153.89,25.638,0.228,0,0,3,1344.72,8.667,0,1417.91,0,0,0,268.42,0,0,0,0,0,0,0,0,0,0,0,0,0,3,3,0,0,VALID,0,0,0,0,0,1,0,0,0,0,0,0,0,0,0,0,0,0,0,0,326.29,1036.35,2,0,0.12,0.12,196,8.33,0.12,0.12,22.96,FLYING,X10-F,0:/Integrated Flight Computer/aircraft/x10_f_cfg.ks (inferred preloaded)
23.32,APPROACH,ILS_TRACK,151.88,152,0.12,1264.03,1185.2,0,10.22,10.22,270.42,-0.713,0.3077,0,20,1,0.6,4.5,0.75,0.35,0.0168,0.4,0,21.925,0,-0.122,0,270.22,0,0,1,0,0,0,0,270.23,-0.0752,0.0038,0.9972,0,270.22,-15.49,-150.76,25.578,0.217,0,0,3,1344.72,8.699,0,1414.79,0,0,0,268.42,0,0,0,0,0,0,0,0,0,0,0,0,0,3,3,0,0,VALID,0,0,0,0,0,1,0,0,0,0,0,0,0,0,0,0,0,0,0,0,325.59,1036.51,2,0,0.12,0.12,199,8.33,0.12,0.12,23.32,FLYING,X10-F,0:/Integrated Flight Computer/aircraft/x10_f_cfg.ks (inferred preloaded)
23.68,APPROACH,ILS_TRACK,151.91,152,0.09,1264.03,1185.21,0.02,10.21,10.2,270.4,-0.702,0.3075,0,20,1,0.6,4.5,0.75,0.35,0.0168,0.4,0,21.916,0,-0.088,0,270.21,0,0,1,0.01,0,0,0,270.21,-0.0751,0.0038,0.9972,0,270.21,-14.93,-147.63,25.519,0.215,0,0,3,1344.72,8.688,0,1411.66,0,0,0,268.42,0,0,0,0,0,0,0,0,0,0,0,0,0,3,3,0,0,VALID,0,0,0,0,0,1,0,0,0,0,0,0,0,0,0,0,0,0,0,0,324.82,1036.65,2,0,0.12,0.12,202,8.33,0.12,0.12,23.68,FLYING,X10-F,0:/Integrated Flight Computer/aircraft/x10_f_cfg.ks (inferred preloaded)
23.94,APPROACH,ILS_TRACK,151.94,152,0.06,1264.04,1185.22,0.03,10.22,10.21,270.4,-0.689,0.3072,0,20,1,0.6,4.5,0.75,0.35,0.0168,0.4,0,21.909,0,-0.065,0,270.21,0,0,1,0.01,0,0,0,270.2,-0.075,0.0037,0.9972,0,270.21,-14.54,-145.36,25.475,0.212,0,0,3,1344.72,8.723,0,1409.4,0,0,0,268.42,0,0,0,0,0,0,0,0,0,0,0,0,0,3,3,0,0,VALID,0,0,0,0,0,1,0,0,0,0,0,0,0,0,0,0,0,0,0,0,324.3,1036.75,2,0,0.12,0.12,204,7.69,0.14,0.12,23.94,FLYING,X10-F,0:/Integrated Flight Computer/aircraft/x10_f_cfg.ks (inferred preloaded)
24.3,APPROACH,ILS_TRACK,151.97,152,0.03,1264.06,1185.24,0.05,10.22,10.2,270.38,-0.689,0.3066,0,20,1,0.6,4.5,0.75,0.35,0.0168,0.4,0,21.901,0,-0.034,0,270.19,0,0,1,0.02,0,0,0,270.19,-0.0749,0.0034,0.9972,0,270.19,-14,-142.22,25.416,0.194,0,0,3,1344.72,8.739,0,1406.27,0,0,0,268.42,0,0,0,0,0,0,0,0,0,0,0,0,0,3,3,0,0,VALID,0,0,0,0,0,1,0,0,0,0,0,0,0,0,0,0,0,0,0,0,323.63,1036.88,2,0,0.12,0.12,207,8.33,0.12,0.12,24.3,FLYING,X10-F,0:/Integrated Flight Computer/aircraft/x10_f_cfg.ks (inferred preloaded)
24.66,APPROACH,ILS_TRACK,151.99,152,0.01,1264.08,1185.26,0.07,10.21,10.2,270.37,-0.69,0.3072,0,20,1,0.6,4.5,0.75,0.35,0.0168,0.4,0,21.893,0,-0.007,0,270.18,0,0,1,0.02,0,0,0,270.18,-0.0748,0.0032,0.9972,0,270.18,-13.48,-139.07,25.356,0.185,0,0,3,1344.72,8.743,0,1403.15,0,0,0,268.42,0,0,0,0,0,0,0,0,0,0,0,0,0,3,3,0,0,VALID,0,0,0,0,0,1,0,0,0,0,0,0,0,0,0,0,0,0,0,0,322.99,1037,2,0,0.12,0.12,210,8.33,0.12,0.12,24.66,FLYING,X10-F,0:/Integrated Flight Computer/aircraft/x10_f_cfg.ks (inferred preloaded)
25.02,APPROACH,ILS_TRACK,152.02,152,-0.02,1264.11,1185.29,0.08,10.21,10.18,270.36,-0.666,0.3078,0,19.996,1,0.6,4.5,0.75,0.35,0.0168,0.4,0,21.886,0,0.019,0,270.17,0,0,1,0.03,0,0,0,270.17,-0.0747,0.0029,0.9972,0,270.17,-12.98,-135.91,25.296,0.168,0,0,3,1344.72,8.763,0,1400.02,0,0,0,268.42,0,0,0,0,0,0,0,0,0,0,0,0,0,3,3,0,0,VALID,0,0,0,0,0,1,0,0,0,0,0,0,0,0,0,0,0,0,0,0,322.52,1037.1,2,0,0.12,0.12,213,8.33,0.12,0.12,25.02,FLYING,X10-F,0:/Integrated Flight Computer/aircraft/x10_f_cfg.ks (inferred preloaded)
25.38,APPROACH,ILS_TRACK,152.04,152,-0.04,1264.14,1185.32,0.08,10.21,10.18,270.34,-0.655,0.3075,0,19.984,1,0.6,4.5,0.75,0.35,0.0168,0.4,0,21.879,0,0.043,0,270.17,0,0,1,0.03,0,0,0,270.17,-0.0746,0.0029,0.9972,0,270.17,-12.49,-132.75,25.237,0.167,0,0,3,1344.72,8.783,0,1396.89,0,0,0,268.42,0,0,0,0,0,0,0,0,0,0,0,0,0,3,3,0,0,VALID,0,0,0,0,0,1,0,0,0,0,0,0,0,0,0,0,0,0,0,0,322.16,1037.21,2,0,0.12,0.12,216,8.33,0.12,0.12,25.38,FLYING,X10-F,0:/Integrated Flight Computer/aircraft/x10_f_cfg.ks (inferred preloaded)
25.74,APPROACH,ILS_TRACK,152.06,152,-0.06,1264.17,1185.36,0.1,10.21,10.17,270.33,-0.64,0.3083,0,19.963,1,0.6,4.5,0.75,0.35,0.0168,0.4,0,21.873,0,0.064,0,270.15,0,0,1,0.04,0,0,0,270.16,-0.0745,0.0027,0.9972,0,270.15,-12.01,-129.59,25.177,0.153,0,0,3,1344.72,8.772,0,1393.76,0,0,0,268.42,0,0,0,0,0,0,0,0,0,0,0,0,0,3,3,0,0,VALID,0,0,0,0,0,1,0,0,0,0,0,0,0,0,0,0,0,0,0,0,321.79,1037.29,2,0,0.12,0.12,219,8.33,0.12,0.12,25.74,FLYING,X10-F,0:/Integrated Flight Computer/aircraft/x10_f_cfg.ks (inferred preloaded)
26.1,APPROACH,ILS_TRACK,152.08,152,-0.08,1264.22,1185.4,0.13,10.22,10.19,270.32,-0.614,0.3096,0,19.936,1,0.6,4.5,0.75,0.35,0.0168,0.4,0,21.868,0,0.081,0,270.15,0,0,1,0.04,0,0,0,270.14,-0.0744,0.0026,0.9972,0,270.15,-11.55,-126.41,25.117,0.148,0,0,3,1344.72,8.829,0,1390.63,0,0,0,268.42,0,0,0,0,0,0,0,0,0,0,0,0,0,3,3,0,0,VALID,0,0,0,0,0,1,0,0,0,0,0,0,0,0,0,0,0,0,0,0,321.62,1037.36,2,0,0.12,0.12,222,8.33,0.12,0.12,26.1,FLYING,X10-F,0:/Integrated Flight Computer/aircraft/x10_f_cfg.ks (inferred preloaded)
26.46,APPROACH,ILS_TRACK,152.1,152,-0.1,1264.26,1185.45,0.13,10.21,10.17,270.32,-0.594,0.3084,0,19.903,1,0.6,4.5,0.75,0.35,0.0168,0.4,0,21.863,0,0.099,0,270.14,0,0,1,0.05,0,0,0,270.14,-0.0743,0.0025,0.9972,0,270.14,-11.1,-123.24,25.057,0.141,0,0,3,1344.72,8.824,0,1387.5,0,0,0,268.42,0,0,0,0,0,0,0,0,0,0,0,0,0,3,3,0,0,VALID,0,0,0,0,0,1,0,0,0,0,0,0,0,0,0,0,0,0,0,0,321.6,1037.44,2,0,0.12,0.12,225,8.33,0.12,0.12,26.46,FLYING,X10-F,0:/Integrated Flight Computer/aircraft/x10_f_cfg.ks (inferred preloaded)
26.82,APPROACH,ILS_TRACK,152.12,152,-0.12,1264.31,1185.5,0.14,10.21,10.16,270.3,-0.597,0.3051,0,19.862,1,0.6,4.5,0.75,0.35,0.0168,0.4,0,21.857,0,0.121,0,270.13,0,0,1,0.05,0,0,0,270.13,-0.0742,0.0022,0.9972,0,270.13,-10.66,-120.06,24.998,0.127,0,0,3,1344.72,8.835,0,1384.36,0,0,0,268.42,0,0,0,0,0,0,0,0,0,0,0,0,0,3,3,0,0,VALID,0,0,0,0,0,1,0,0,0,0,0,0,0,0,0,0,0,0,0,0,321.31,1037.53,2,0,0.12,0.12,228,8.33,0.12,0.12,26.82,FLYING,X10-F,0:/Integrated Flight Computer/aircraft/x10_f_cfg.ks (inferred preloaded)
27.18,APPROACH,ILS_TRACK,152.14,152,-0.14,1264.36,1185.55,0.16,10.21,10.16,270.29,-0.601,0.3036,0,19.813,1,0.6,4.5,0.75,0.35,0.0168,0.4,0,21.851,0,0.141,0,270.12,0,0,1,0.05,0,0,0,270.12,-0.0741,0.0021,0.9972,0,270.12,-10.24,-116.88,24.938,0.122,0,0,3,1344.72,8.851,0,1381.23,0,0,0,268.42,0,0,0,0,0,0,0,0,0,0,0,0,0,3,3,0,0,VALID,0,0,0,0,0,1,0,0,0,0,0,0,0,0,0,0,0,0,0,0,320.71,1037.61,2,0,0.12,0.12,231,8.33,0.12,0.12,27.18,FLYING,X10-F,0:/Integrated Flight Computer/aircraft/x10_f_cfg.ks (inferred preloaded)
27.54,APPROACH,ILS_TRACK,152.16,152,-0.16,1264.41,1185.61,0.13,10.19,10.15,270.28,-0.594,0.3035,0,19.759,1,0.6,4.5,0.75,0.35,0.0168,0.4,0,21.847,0,0.157,0,270.11,0,0,1,0.05,0,0,0,270.11,-0.074,0.0019,0.9973,0,270.11,-9.83,-113.69,24.878,0.106,0,0,3,1344.72,8.845,0,1378.1,0,0,0,268.42,0,0,0,0,0,0,0,0,0,0,0,0,0,3,3,0,0,VALID,0,0,0,0,0,1,0,0,0,0,0,0,0,0,0,0,0,0,0,0,320.04,1037.67,2,0,0.12,0.12,234,8.33,0.12,0.12,27.54,FLYING,X10-F,0:/Integrated Flight Computer/aircraft/x10_f_cfg.ks (inferred preloaded)
27.9,APPROACH,ILS_TRACK,152.17,152,-0.17,1264.48,1185.67,0.16,10.21,10.16,270.27,-0.564,0.3041,0,19.699,1,0.6,4.5,0.75,0.35,0.0168,0.4,0,21.843,0,0.169,0,270.11,0,0,1,0.06,0,0,0,270.11,-0.0739,0.0018,0.9973,0,270.11,-9.44,-110.5,24.818,0.106,0,0,3,1344.72,8.86,0,1374.97,0,0,0,268.42,0,0,0,0,0,0,0,0,0,0,0,0,0,3,3,0,0,VALID,0,0,0,0,0,1,0,0,0,0,0,0,0,0,0,0,0,0,0,0,319.46,1037.72,2,0,0.12,0.12,237,8.33,0.12,0.12,27.9,FLYING,X10-F,0:/Integrated Flight Computer/aircraft/x10_f_cfg.ks (inferred preloaded)
28.26,APPROACH,ILS_TRACK,152.18,152,-0.18,1264.54,1185.73,0.18,10.21,10.15,270.26,-0.536,0.304,0,19.636,1,0.6,4.5,0.75,0.35,0.0168,0.4,0,21.84,0,0.181,0,270.1,0,0,1,0.07,0,0,0,270.1,-0.0738,0.0017,0.9973,0,270.1,-9.05,-107.3,24.759,0.099,0,0,3,1344.72,8.884,0,1371.84,0,0,0,268.42,0,0,0,0,0,0,0,0,0,0,0,0,0,3,3,0,0,VALID,0,0,0,0,0,1,0,0,0,0,0,0,0,0,0,0,0,0,0,0,319.03,1037.77,2,0,0.12,0.12,240,8.33,0.12,0.12,28.26,FLYING,X10-F,0:/Integrated Flight Computer/aircraft/x10_f_cfg.ks (inferred preloaded)
28.62,APPROACH,ILS_TRACK,152.19,152,-0.19,1264.6,1185.8,0.2,10.21,10.14,270.26,-0.519,0.3039,0,19.568,1,0.6,4.5,0.75,0.35,0.0168,0.4,0,21.837,0,0.191,0,270.09,0,0,1,0.07,0,0,0,270.09,-0.0737,0.0016,0.9973,0,270.09,-8.68,-104.11,24.699,0.093,0,0,3,1344.72,8.901,0,1368.7,0,0,0,268.42,0,0,0,0,0,0,0,0,0,0,0,0,0,3,3,0,0,VALID,0,0,0,0,0,1,0,0,0,0,0,0,0,0,0,0,0,0,0,0,318.61,1037.81,2,0,0.12,0.12,243,8.33,0.12,0.12,28.62,FLYING,X10-F,0:/Integrated Flight Computer/aircraft/x10_f_cfg.ks (inferred preloaded)
28.98,APPROACH,ILS_TRACK,152.2,152,-0.2,1264.67,1185.87,0.2,10.21,10.14,270.25,-0.513,0.3032,0,19.497,1,0.6,4.5,0.75,0.35,0.0168,0.4,0,21.834,0,0.2,0,270.09,0,0,1,0.07,0,0,0,270.09,-0.0736,0.0015,0.9973,0,270.09,-8.32,-100.9,24.639,0.087,0,0,3,1344.72,8.897,0,1365.57,0,0,0,268.42,0,0,0,0,0,0,0,0,0,0,0,0,0,3,3,0,0,VALID,0,0,0,0,0,1,0,0,0,0,0,0,0,0,0,0,0,0,0,0,318.23,1037.84,2,0,0.12,0.12,246,8.33,0.12,0.12,28.98,FLYING,X10-F,0:/Integrated Flight Computer/aircraft/x10_f_cfg.ks (inferred preloaded)
29.34,APPROACH,ILS_TRACK,152.21,152,-0.21,1264.75,1185.94,0.18,10.21,10.16,270.24,-0.505,0.3027,0,19.423,1,0.6,4.5,0.75,0.35,0.0168,0.4,0,21.832,0,0.208,0,270.08,0,0,1,0.07,0,0,0,270.08,-0.0735,0.0015,0.9973,0,270.08,-7.97,-97.7,24.579,0.083,0,0,3,1344.72,8.92,0,1362.44,0,0,0,268.42,0,0,0,0,0,0,0,0,0,0,0,0,0,3,3,0,0,VALID,0,0,0,0,0,1,0,0,0,0,0,0,0,0,0,0,0,0,0,0,317.79,1037.87,2,0,0.12,0.12,249,8.33,0.12,0.12,29.34,FLYING,X10-F,0:/Integrated Flight Computer/aircraft/x10_f_cfg.ks (inferred preloaded)
29.7,APPROACH,ILS_TRACK,152.21,152,-0.21,1264.82,1186.02,0.22,10.21,10.15,270.23,-0.487,0.3044,0,19.347,1,0.6,4.5,0.75,0.35,0.0168,0.4,0,21.832,0,0.211,0,270.07,0,0,1,0.07,0,0,0,270.08,-0.0734,0.0012,0.9973,0,270.07,-7.63,-94.49,24.52,0.068,0,0,3,1344.72,8.937,0,1359.3,0,0,0,268.42,0,0,0,0,0,0,0,0,0,0,0,0,0,3,3,0,0,VALID,0,0,0,0,0,1,0,0,0,0,0,0,0,0,0,0,0,0,0,0,317.49,1037.88,2,0,0.12,0.12,252,8.33,0.12,0.12,29.7,FLYING,X10-F,0:/Integrated Flight Computer/aircraft/x10_f_cfg.ks (inferred preloaded)
29.96,APPROACH,ILS_TRACK,152.21,152,-0.21,1264.88,1186.08,0.22,10.21,10.14,270.23,-0.475,0.3046,0,19.292,1,0.6,4.5,0.75,0.35,0.0168,0.4,0,21.831,0,0.212,0,270.06,0,0,1,0.08,0,0,0,270.07,-0.0733,0.0011,0.9973,0,270.06,-7.39,-92.17,24.476,0.064,0,0,3,1344.72,8.935,0,1357.04,0,0,0,268.42,0,0,0,0,0,0,0,0,0,0,0,0,0,3,3,0,0,VALID,0,0,0,0,0,1,0,0,0,0,0,0,0,0,0,0,0,0,0,0,317.37,1037.88,2,0,0.12,0.12,254,7.69,0.14,0.12,29.96,FLYING,X10-F,0:/Integrated Flight Computer/aircraft/x10_f_cfg.ks (inferred preloaded)
30.32,APPROACH,ILS_TRACK,152.22,152,-0.22,1264.96,1186.16,0.24,10.21,10.12,270.22,-0.46,0.3038,0,19.215,1,0.6,4.5,0.75,0.35,0.0168,0.4,0,21.83,0,0.216,0,270.06,0,0,1,0.09,0,0,0,270.06,-0.0732,0.0011,0.9973,0,270.06,-7.07,-88.96,24.417,0.065,0,0,3,1344.72,8.918,0,1353.91,0,0,0,268.42,0,0,0,0,0,0,0,0,0,0,0,0,0,3,3,0,0,VALID,0,0,0,0,0,1,0,0,0,0,0,0,0,0,0,0,0,0,0,0,317.19,1037.89,2,0,0.12,0.12,257,8.33,0.12,0.12,30.32,FLYING,X10-F,0:/Integrated Flight Computer/aircraft/x10_f_cfg.ks (inferred preloaded)
30.68,APPROACH,ILS_TRACK,152.22,152,-0.22,1265.04,1186.25,0.22,10.22,10.14,270.21,-0.44,0.303,0,19.137,1,0.6,4.5,0.75,0.35,0.0168,0.4,0,21.829,0,0.218,0,270.06,0,0,1,0.09,0,0,0,270.06,-0.0731,0.001,0.9973,0,270.06,-6.76,-85.74,24.357,0.056,0,0,3,1344.72,8.946,0,1350.77,0,0,0,268.42,0,0,0,0,0,0,0,0,0,0,0,0,0,3,3,0,0,VALID,0,0,0,0,0,1,0,0,0,0,0,0,0,0,0,0,0,0,0,0,316.94,1037.9,2,0,0.12,0.12,260,8.33,0.12,0.12,30.68,FLYING,X10-F,0:/Integrated Flight Computer/aircraft/x10_f_cfg.ks (inferred preloaded)
31.04,APPROACH,ILS_TRACK,152.22,152,-0.22,1265.13,1186.33,0.24,10.21,10.13,270.21,-0.426,0.3023,0,19.058,1,0.6,4.5,0.75,0.35,0.0168,0.4,0,21.829,0,0.22,0,270.06,0,0,1,0.1,0,0,0,270.05,-0.073,0.001,0.9973,0,270.06,-6.46,-82.52,24.297,0.059,0,0,3,1344.72,8.927,0,1347.64,0,0,0,268.42,0,0,0,0,0,0,0,0,0,0,0,0,0,3,3,0,0,VALID,0,0,0,0,0,1,0,0,0,0,0,0,0,0,0,0,0,0,0,0,316.59,1037.9,2,0,0.12,0.12,263,8.33,0.12,0.12,31.04,FLYING,X10-F,0:/Integrated Flight Computer/aircraft/x10_f_cfg.ks (inferred preloaded)
31.4,APPROACH,ILS_TRACK,152.22,152,-0.22,1265.21,1186.42,0.24,10.2,10.11,270.2,-0.419,0.3028,0,18.978,1,0.6,4.5,0.75,0.35,0.0168,0.4,0,21.829,0,0.219,0,270.05,0,0,1,0.1,0,0,0,270.04,-0.073,0.0009,0.9973,0,270.05,-6.17,-79.3,24.237,0.051,16.649,1,3,1344.72,8.928,0,1344.51,0,0,0,268.42,0,0,0,0,0,0,0,0,0,0,0,0,0,3,3,0,0,VALID,0,0,0,0,0,1,0,0,0,0,0,0,0,0,0,0,0,0,0,0,316.27,1037.89,2,0,0.12,0.12,266,8.33,0.12,0.12,31.4,FLYING,X10-F,0:/Integrated Flight Computer/aircraft/x10_f_cfg.ks (inferred preloaded)
31.76,APPROACH,ILS_TRACK,152.22,152,-0.22,1265.31,1186.51,0.25,10.22,10.13,270.19,-0.404,0.3015,0,18.899,1,0.6,4.5,0.75,0.35,0.0168,0.4,0,21.829,0,0.22,0,270.04,0,0,1,0.1,0,0,0,270.05,-0.0729,0.0008,0.9973,0,270.04,-5.89,-76.07,24.177,0.043,15.649,1,3,1344.72,8.967,0,1341.37,0,0,0,268.42,0,0,0,0,0,0,0,0,0,0,0,0,0,3,3,0,0,VALID,0,0,0,0,0,1,0,0,0,0,0,0,0,0,0,0,0,0,0,0,315.96,1037.89,2,0,0.12,0.12,269,8.33,0.12,0.12,31.76,FLYING,X10-F,0:/Integrated Flight Computer/aircraft/x10_f_cfg.ks (inferred preloaded)
32.12,APPROACH,ILS_TRACK,152.21,152,-0.21,1265.41,1186.56,0.28,10.31,10.21,270.19,-0.398,0.3051,0,18.821,1,0.6,4.5,0.75,0.35,0.0168,0.4,0,21.831,0,0.213,0,270.04,0,0,1,0.1,0,0,0,270.04,-0.0728,0.0006,0.9973,0,270.04,-5.61,-72.84,24.118,0.037,14.677,1,3,1344.72,8.969,0,1338.24,0,0,0,268.42,0,0,0,0,0,0,0,0,0,0,0,0,0,3,3,0,0,VALID,0,0,0,0,0,1,0,0,0,0,0,0,0,0,0,0,0,0,0,0,315.51,1037.84,2,0,0.12,0.12,272,8.33,0.12,0.12,32.12,FLYING,X10-F,0:/Integrated Flight Computer/aircraft/x10_f_cfg.ks (inferred preloaded)
32.38,APPROACH,ILS_TRACK,152.2,152,-0.2,1265.47,1186.57,0.25,10.3,10.21,270.18,-0.389,0.3086,0,18.768,1,0.6,4.5,0.75,0.35,0.0168,0.4,0,21.834,0,0.202,0,270.04,0,0,1,0.09,0,0,0,270.03,-0.0727,0.0006,0.9974,0,270.04,-5.42,-70.51,24.074,0.035,13.972,1,3,1344.72,8.978,0,1335.98,0,0,0,268.42,0,0,0,0,0,0,0,0,0,0,0,0,0,3,3,0,0,VALID,0,0,0,0,0,1,0,0,0,0,0,0,0,0,0,0,0,0,0,0,315.61,1037.8,2,0,0.12,0.12,274,7.69,0.14,0.12,32.38,FLYING,X10-F,0:/Integrated Flight Computer/aircraft/x10_f_cfg.ks (inferred preloaded)
32.74,APPROACH,ILS_TRACK,152.19,152,-0.19,1265.56,1186.56,0.26,10.29,10.2,270.17,-0.378,0.3088,0,18.698,1,0.6,4.5,0.75,0.35,0.0168,0.4,0,21.837,0,0.192,0,270.03,0,0,1,0.1,0,0,0,270.03,-0.0726,0.0006,0.9974,0,270.03,-5.17,-67.29,24.015,0.032,13.03,1,3,1344.72,8.946,0,1332.84,0,0,0,268.42,0,0,0,0,0,0,0,0,0,0,0,0,0,3,3,0,0,VALID,0,0,0,0,0,1,0,0,0,0,0,0,0,0,0,0,0,0,0,0,315.94,1037.75,2,0,0.12,0.12,277,8.33,0.12,0.12,32.74,FLYING,X10-F,0:/Integrated Flight Computer/aircraft/x10_f_cfg.ks (inferred preloaded)
33.1,APPROACH,ILS_TRACK,152.18,152,-0.18,1265.65,1186.51,0.26,10.29,10.19,270.17,-0.364,0.3075,0,18.63,1,0.6,4.5,0.75,0.35,0.0168,0.4,0,21.839,0,0.185,0,270.02,0,0,1,0.1,0,0,0,270.02,-0.0725,0.0004,0.9974,0,270.02,-4.91,-64.07,23.955,0.022,12.062,1,3,1344.72,8.946,0,1329.71,0,0,0,268.42,0,0,0,0,0,0,0,0,0,0,0,0,0,3,3,0,0,VALID,0,0,0,0,0,1,0,0,0,0,0,0,0,0,0,0,0,0,0,0,316.21,1037.71,2,0,0.12,0.12,280,8.33,0.12,0.12,33.1,FLYING,X10-F,0:/Integrated Flight Computer/aircraft/x10_f_cfg.ks (inferred preloaded)
33.46,APPROACH,ILS_TRACK,152.18,152,-0.18,1265.75,1186.44,0.25,10.3,10.21,270.16,-0.356,0.3057,0,18.565,1,0.6,4.5,0.75,0.35,0.0168,0.4,0,21.84,0,0.18,0,270.02,0,0,1,0.1,0,0,0,270.02,-0.0724,0.0003,0.9974,0,270.02,-4.67,-60.84,23.895,0.018,11.066,1,3,1344.72,8.981,0,1326.58,0,0,0,268.42,0,0,0,0,0,0,0,0,0,0,0,0,0,3,3,0,0,VALID,0,0,0,0,0,1,0,0,0,0,0,0,0,0,0,0,0,0,0,0,316.37,1037.69,2,0,0.12,0.12,283,8.33,0.12,0.12,33.46,FLYING,X10-F,0:/Integrated Flight Computer/aircraft/x10_f_cfg.ks (inferred preloaded)
33.82,APPROACH,ILS_TRACK,152.17,152,-0.17,1265.84,1186.37,0.32,10.27,10.15,270.16,-0.344,0.3097,0,18.503,1,0.6,4.5,0.75,0.35,0.0168,0.4,0,21.844,0,0.166,0,270.02,0,0,1,0.12,0,0,0,270.02,-0.0723,0.0003,0.9974,0,270.02,-4.44,-57.61,23.835,0.017,10.169,1,3,1344.72,8.892,0,1323.44,0,0,0,268.42,0,0,0,0,0,0,0,0,0,0,0,0,0,3,3,0,0,VALID,0,0,0,0,0,1,0,0,0,0,0,0,0,0,0,0,0,0,0,0,316.43,1037.62,2,0,0.12,0.12,286,8.33,0.12,0.12,33.82,FLYING,X10-F,0:/Integrated Flight Computer/aircraft/x10_f_cfg.ks (inferred preloaded)
34.18,APPROACH,ILS_TRACK,152.16,152,-0.16,1265.95,1186.28,0.31,10.26,10.14,270.15,-0.334,0.3095,0,18.445,1,0.6,4.5,0.75,0.35,0.0168,0.4,0,21.847,0,0.156,0,270.02,0,0,1,0.12,0,0,0,270.01,-0.0722,0.0003,0.9974,0,270.02,-4.21,-54.38,23.775,0.019,9.154,1,3,1344.72,8.948,0,1320.31,0,0,0,268.42,0,0,0,0,0,0,0,0,0,0,0,0,0,3,3,0,0,VALID,0,0,0,0,0,1,0,0,0,0,0,0,0,0,0,0,0,0,0,0,316.68,1037.57,2,0,0.12,0.12,289,8.33,0.12,0.12,34.18,FLYING,X10-F,0:/Integrated Flight Computer/aircraft/x10_f_cfg.ks (inferred preloaded)
34.54,APPROACH,ILS_TRACK,152.15,152,-0.15,1266.05,1186.21,0.27,10.23,10.14,270.15,-0.327,0.3062,0,18.39,1,0.6,4.5,0.75,0.35,0.0168,0.4,0,21.848,0,0.151,0,270.01,0,0,1,0.11,0,0,0,270.01,-0.0721,0.0002,0.9974,0,270.01,-3.99,-51.14,23.716,0.009,8.162,1,3,1344.72,8.975,0,1317.18,0,0,0,268.42,0,0,0,0,0,0,0,0,0,0,0,0,0,3,3,0,0,VALID,0,0,0,0,0,1,0,0,0,0,0,0,0,0,0,0,0,0,0,0,316.9,1037.54,2,0,0.12,0.12,292,8.33,0.12,0.12,34.54,FLYING,X10-F,0:/Integrated Flight Computer/aircraft/x10_f_cfg.ks (inferred preloaded)
34.9,APPROACH,ILS_TRACK,152.15,152,-0.15,1266.16,1186.15,0.32,10.24,10.14,270.14,-0.317,0.3023,0,18.336,1,0.6,4.5,0.75,0.35,0.0168,0.4,0,21.849,0,0.149,0,270,0,0,1,0.12,0,0,0,270.01,-0.072,0.0001,0.9974,0,270,-3.78,-47.9,23.656,0.004,7.156,1,3,1344.72,9.016,0,1314.05,0,0,0,268.42,0,0,0,0,0,0,0,0,0,0,0,0,0,3,3,0,0,VALID,0,0,0,0,0,1,0,0,0,0,0,0,0,0,0,0,0,0,0,0,316.81,1037.53,2,0,0.12,0.12,295,8.33,0.12,0.12,34.9,FLYING,X10-F,0:/Integrated Flight Computer/aircraft/x10_f_cfg.ks (inferred preloaded)
35.26,APPROACH,ILS_TRACK,152.15,152,-0.15,1266.28,1186.1,0.28,10.3,10.22,270.14,-0.31,0.298,0,18.282,1,0.6,4.5,0.75,0.35,0.0168,0.4,0,21.848,0,0.152,0,270,0,0,1,0.1,0,0,0,270.01,-0.0719,-0.0001,0.9974,0,270,-3.57,-44.64,23.596,-0.005,6.122,1,3,1344.72,9.089,0,1310.91,0,0,0,268.42,0,0,0,0,0,0,0,0,0,0,0,0,0,3,3,0,0,VALID,0,0,0,0,0,1,0,0,0,0,0,0,0,0,0,0,0,0,0,0,316.24,1037.53,2,0,0.12,0.12,298,8.33,0.12,0.12,35.26,FLYING,X10-F,0:/Integrated Flight Computer/aircraft/x10_f_cfg.ks (inferred preloaded)
35.62,APPROACH,ILS_TRACK,152.14,152,-0.14,1266.39,1186.1,0.29,10.25,10.15,270.13,-0.305,0.3039,0,18.231,1,0.6,4.5,0.75,0.35,0.0168,0.4,0,21.852,0,0.137,0,270,0,0,1,0.11,0,0,0,270,-0.0718,-0.0001,0.9974,0,270,-3.37,-41.41,23.536,-0.003,5.226,1,3,1344.72,8.995,0,1307.78,0,0,0,268.42,0,0,0,0,0,0,0,0,0,0,0,0,0,3,3,0,0,VALID,0,0,0,0,0,1,0,0,0,0,0,0,0,0,0,0,0,0,0,0,315.75,1037.46,2,0,0.12,0.12,301,8.33,0.12,0.12,35.62,FLYING,X10-F,0:/Integrated Flight Computer/aircraft/x10_f_cfg.ks (inferred preloaded)
35.98,APPROACH,ILS_TRACK,152.13,152,-0.13,1266.5,1186.08,0.31,10.26,10.16,270.13,-0.303,0.303,0,18.183,1,0.6,4.5,0.75,0.35,0.0168,0.4,0,21.854,0,0.131,0,269.99,0,0,1,0.12,0,0,0,270,-0.0717,-0.0001,0.9974,0,269.99,-3.17,-38.16,23.477,-0.008,4.23,1,3,1344.72,9.022,0,1304.65,0,0,0,268.42,0,0,0,0,0,0,0,0,0,0,0,0,0,3,3,0,0,VALID,0,0,0,0,0,1,0,0,0,0,0,0,0,0,0,0,0,0,0,0,315.65,1037.43,2,0,0.12,0.12,304,8.33,0.12,0.12,35.98,FLYING,X10-F,0:/Integrated Flight Computer/aircraft/x10_f_cfg.ks (inferred preloaded)
36.34,APPROACH,ILS_TRACK,152.12,152,-0.12,1266.62,1186.06,0.36,10.26,10.13,270.12,-0.298,0.3034,0,18.138,1,0.6,4.5,0.75,0.35,0.0168,0.4,0,21.856,0,0.123,0,269.99,0,0,1,0.13,0,0,0,269.99,-0.0716,-0.0001,0.9974,0,269.99,-2.99,-34.91,23.417,-0.006,3.257,1,3,1344.72,9.02,0,1301.52,0,0,0,268.42,0,0,0,0,0,0,0,0,0,0,0,0,0,3,3,0,0,VALID,0,0,0,0,0,1,0,0,0,0,0,0,0,0,0,0,0,0,0,0,315.47,1037.38,2,0,0.12,0.12,307,8.33,0.12,0.12,36.34,FLYING,X10-F,0:/Integrated Flight Computer/aircraft/x10_f_cfg.ks (inferred preloaded)
36.7,APPROACH,ILS_TRACK,152.11,152,-0.11,1266.72,1186.07,0.41,10.23,10.08,270.11,-0.314,0.3033,0,18.096,1,0.6,4.5,0.75,0.35,0.0168,0.4,0,21.859,0,0.115,0,269.99,-0.695,0,1,0.14,0,0,-0.4,269.99,-0.0594,-0.0002,0.9982,-0.7,269.99,-2.81,-31.67,23.357,-0.012,2.305,1,3,1344.72,8.995,-0.695,1298.38,0,0,0,268.42,0,0,0,0,0,0,0,0,0,0,0,0,0,3,3,0,0,VALID,0,0,0,0,0,1,0,0,0,0,0,0,0,0,0,0,0,0,0,0,315.4,1037.34,2,0,0.12,0.12,310,8.33,0.12,0.12,36.7,FLYING,X10-F,0:/Integrated Flight Computer/aircraft/x10_f_cfg.ks (inferred preloaded)
37.06,APPROACH,ILS_TRACK,152.11,152,-0.11,1266.67,1186.18,0.48,9.48,9.26,270.1,-0.399,0.3022,0,18.059,1,0.6,4.5,0.75,0.35,0.0168,0.4,0,21.861,0,0.106,0,269.98,-1.174,0,1,0.19,0,0,-0.98,269.99,-0.0509,-0.0004,0.9987,-1.17,269.98,-2.63,-28.58,23.297,-0.02,1.826,1,3,1344.72,8.434,-1.174,1295.25,0,0,0,268.42,0,0,0,0,0,0,0,0,0,0,0,0,0,3,3,0,0,VALID,0,0,0,0,0,1,0,0,0,0,0,0,0,0,0,0,0,0,0,0,315.54,1037.29,2,0,0.12,0.12,313,8.33,0.12,0.12,37.06,FLYING,X10-F,0:/Integrated Flight Computer/aircraft/x10_f_cfg.ks (inferred preloaded)
37.42,APPROACH,ILS_TRACK,152.2,152,-0.2,1266.59,1186.23,0.03,8.8,8.77,270.08,-0.459,0.2501,0,18.001,1,0.6,4.5,0.75,0.35,0.0168,0.4,0,21.837,0,0.192,0,269.98,-2.177,0,1,0.03,0,0,-1.8,269.99,-0.0333,-0.0003,0.9994,-2.18,269.98,-2.47,-25.53,23.238,-0.017,0.823,1,3,1344.72,8.544,-2.177,1292.12,0,0,0,268.42,0,0,0,0,0,0,0,0,0,0,0,0,0,3,3,0,0,VALID,0,0,0,0,0,1,0,0,0,0,0,0,0,0,0,0,0,0,0,0,313.55,1037.66,2,0,0.12,0.12,316,8.33,0.12,0.12,37.42,FLYING,X10-F,0:/Integrated Flight Computer/aircraft/x10_f_cfg.ks (inferred preloaded)
37.78,APPROACH,ILS_TRACK,152.29,152,-0.29,1266.42,1186.22,0.04,8.32,8.24,270.07,-0.519,0.2184,0,17.909,1,0.6,4.5,0.75,0.35,0.0168,0.4,0,21.811,0,0.284,0,269.98,-2.634,0,1,0.02,0,0,-2.68,269.99,-0.0253,-0.0004,0.9997,-2.63,269.98,-2.31,-22.53,23.178,-0.019,0.366,1,3,1344.72,7.99,-2.634,1288.98,0,0,0,268.42,0,0,0,0,0,0,0,0,0,0,0,0,0,3,3,0,0,VALID,0,0,0,0,0,1,0,0,0,0,0,0,0,0,0,0,0,0,0,0,305.76,1038.04,2,0,0.12,0.12,319,8.33,0.12,0.12,37.78,FLYING,X10-F,0:/Integrated Flight Computer/aircraft/x10_f_cfg.ks (inferred preloaded)
38.14,APPROACH,ILS_TRACK,152.44,152,-0.44,1265.95,1186.14,-0.63,6.97,7.11,270.06,-0.56,0.1627,0,17.775,1,0.6,4.5,0.75,0.35,0.0168,0.4,0,21.769,0,0.432,0,269.99,-2.924,0,1,-0.2,0,0,-2.71,269.98,-0.0201,-0.0003,0.9998,-2.92,269.99,-2.16,-19.84,23.118,-0.015,0.076,1,3,1344.72,7.346,-2.924,1285.85,0,0,0,268.42,0,0,0,0,0,0,0,0,0,0,0,0,0,3,3,0,0,VALID,0,0,0,0,0,1,0,0,0,0,0,0,0,0,0,0,0,0,0,0,295.24,1038.69,2,0,0.12,0.12,322,8.33,0.12,0.12,38.14,FLYING,X10-F,0:/Integrated Flight Computer/aircraft/x10_f_cfg.ks (inferred preloaded)
38.4,APPROACH,ILS_TRACK,152.57,152,-0.57,1265.6,1185.87,-1.4,6.59,7.05,270.06,-0.562,0.1256,0,17.637,1,0.6,4.5,0.75,0.35,0.0168,0.4,0,21.732,0,0.564,0,269.98,-3.546,0,1,-0.48,0,0,-3.24,269.99,-0.0092,-0.0004,1,-3.55,269.98,-2.06,-17.92,23.075,-0.019,-0.546,1,3,1344.72,7.404,-3.546,1283.58,0,0,0,268.42,0,0,0,0,0,0,0,0,0,0,0,0,0,3,3,0,0,VALID,0,0,0,0,0,1,0,0,0,0,0,0,0,0,0,0,0,0,0,0,283.72,1039.26,2,0,0.12,0.12,324,7.69,0.14,0.12,38.4,FLYING,X10-F,0:/Integrated Flight Computer/aircraft/x10_f_cfg.ks (inferred preloaded)
38.76,APPROACH,ILS_TRACK,152.71,152,-0.71,1264.98,1185.28,-1.76,6.57,7.13,270.05,-0.562,0.1125,0,17.4,1,0.6,4.5,0.75,0.35,0.0168,0.4,0,21.694,0,0.7,0,269.99,-3.775,0,1,-0.65,0,0,-3.9,269.99,-0.0051,-0.0002,1,-3.78,269.99,-1.94,-15.36,23.015,-0.007,-0.775,1,3,1344.72,6.728,-3.775,1280.44,0,0,0,268.42,0,0,0,0,0,0,0,0,0,0,0,0,0,3,3,0,0,VALID,0,0,0,0,0,1,0,0,0,0,0,0,0,0,0,0,0,0,0,0,265.05,1039.86,2,0,0.12,0.12,327,8.33,0.12,0.12,38.76,FLYING,X10-F,0:/Integrated Flight Computer/aircraft/x10_f_cfg.ks (inferred preloaded)
39.12,APPROACH,ILS_TRACK,152.83,152,-0.83,1264.03,1184.51,-2.61,5.92,6.78,270.04,-0.563,0.1036,0,17.118,1,0.6,4.5,0.75,0.35,0.0168,0.4,0,21.659,0,0.824,0,270,-3.864,0,1,-0.94,0,0,-3.71,269.99,-0.0034,-0.0001,1,-3.86,270,-1.82,-13.15,22.955,-0.004,-0.864,1,3,1344.72,6.01,-3.864,1277.29,0,0,0,268.42,0,0,0,0,0,0,0,0,0,0,0,0,0,3,3,0,0,VALID,0,0,0,0,0,1,0,0,0,0,0,0,0,0,0,0,0,0,0,0,247.41,1040.44,2,0,0.12,0.12,330,8.33,0.12,0.12,39.12,FLYING,X10-F,0:/Integrated Flight Computer/aircraft/x10_f_cfg.ks (inferred preloaded)
39.48,APPROACH,ILS_TRACK,152.89,152,-0.89,1262.99,1183.51,-3.3,6.1,7.22,270.03,-0.539,0.1263,0,16.804,1,0.6,4.5,0.75,0.35,0.0168,0.4,0,21.64,0,0.889,0,269.99,-4.27,0,1,-1.22,0,0,-4.28,270,0.0037,-0.0002,1,-4.27,269.99,-1.71,-11.02,22.895,-0.006,-1.27,1,3,1344.72,5.721,-4.27,1274.15,0,0,0,268.42,0,0,0,0,0,0,0,0,0,0,0,0,0,3,3,0,0,VALID,0,0,0,0,0,1,0,0,0,0,0,0,0,0,0,0,0,0,0,0,231.58,1040.77,2,0,0.12,0.12,333,8.33,0.12,0.12,39.48,FLYING,X10-F,0:/Integrated Flight Computer/aircraft/x10_f_cfg.ks (inferred preloaded)
39.84,APPROACH,ILS_TRACK,152.92,152,-0.92,1261.71,1182.2,-3.88,6.2,7.52,270.02,-0.496,0.1525,0,16.476,1,0.6,4.5,0.75,0.35,0.0168,0.4,0,21.632,0,0.917,0,270,-4.31,0,1,-1.44,0,0,-4.29,269.99,0.0045,0,1,-4.31,270,-1.61,-9.14,22.835,0.003,-1.31,1,3,1344.72,5.064,-4.31,1271,0,0,0,268.42,0,0,0,0,0,0,0,0,0,0,0,0,0,3,3,0,0,VALID,0,0,0,0,0,1,0,0,0,0,0,0,0,0,0,0,0,0,0,0,220.55,1040.96,2,0,0.12,0.12,336,8.33,0.12,0.12,39.84,FLYING,X10-F,0:/Integrated Flight Computer/aircraft/x10_f_cfg.ks (inferred preloaded)
40.2,APPROACH,ILS_TRACK,152.91,152,-0.91,1260.17,1180.71,-4.46,6.04,7.55,270.02,-0.45,0.1823,0,16.148,1,0.6,4.5,0.75,0.35,0.0168,0.4,0,21.635,0,0.907,0,270,-4.208,0,1,-1.64,0,0,-4.17,270,0.0029,0,1,-4.21,270,-1.52,-7.51,22.775,0.001,-1.208,1,3,1344.72,4.325,-4.208,1267.85,0,0,0,268.42,0,0,0,0,0,0,0,0,0,0,0,0,0,3,3,0,0,VALID,0,0,0,0,0,1,0,0,0,0,0,0,0,0,0,0,0,0,0,0,214.35,1041.01,2,0,0.12,0.12,339,8.33,0.12,0.12,40.2,FLYING,X10-F,0:/Integrated Flight Computer/aircraft/x10_f_cfg.ks (inferred preloaded)
