t_s,phase,subphase,ias_ms,vapp_ms,spd_err_ms,agl_m,vs_ms,pitch_deg,aoa_deg,hdg_deg,bank_deg,thr_cmd,thr_cur,thr_intg,at_gain,at_tau_s,at_a_up,at_a_dn,at_kp_thr,at_ki_spd,at_thr_slew,aa_hdg_cmd_deg,aa_fpa_cmd_deg,aa_fbw,aa_dir,actual_fpa_deg,ftf_hdg_err_deg,ftf_fix_idx,kos_steer_pit_deg,kos_steer_hdg_deg,aa_dir_vx,aa_dir_vy,aa_dir_vz,aa_dir_pitch_deg,aa_dir_hdg_deg,ils_loc_m,ils_gs_m,ils_dist_km,loc_corr_deg,gs_corr_deg,flare_fpa_cmd,flare_tgt_vs,flare_frac,steer_hdg_deg,steer_blend,ro_loc_corr_deg,ro_hdg_err_deg,ro_yaw_tgt,ro_yaw_scale,ro_yaw_gate,yaw_cmd,roll_cmd,pitch_cmd,ro_pitch_tgt_deg,ro_pitch_err_deg,ro_pitch_ff,ro_roll_assist,flaps_cur,flaps_tgt,asc_j_ab,asc_j_rk,asc_validity,asc_q_pa,asc_q_raw_pa,asc_mach,asc_apo_m,asc_drag_n,asc_w_prop,asc_edot_aero,asc_edot_orb,asc_pitch_bias,asc_blend,asc_spooling,asc_ab_thr_ratio,asc_ab_t_now,asc_ab_t_avail,asc_ab_ign_on,asc_ab_flameouts,asc_rk_t_now,asc_rk_t_avail,asc_rk_ign_on,asc_rk_flameouts,ship_thrust,ship_avail_thrust,ship_ign_on,ship_flameouts,ifc_raw_dt_s,ifc_dt_s,ifc_loop_n,ifc_hz_est,ifc_raw_dt_max_s,ifc_raw_dt_min_s,phase_el_s,status,craft_name,cfg_file
1.1,TAKEOFF,TO_PREFLIGHT,0.32,80,79.68,3.6,0,-0.33,0.21,88.78,0.114,0.2,0,0,0,0,0,0,0,0,0,90.4,0,1,0,0.83,0,0,0,90,0,0,0,0,0,0,0,0,0,0,0,0,0,90.4,1,0,-1.619,0,0,1,0,0,0,0,0,0,0,1,2,0,0,VALID,0,0,0,0,0,1,0,0,0,0,0,0,0,0,0,0,0,0,0,0,0,887.94,2,0,0.92,0.5,1,2.44,0.92,0.02,0.22,LANDED,X10-G,0:/Integrated Flight Computer/aircraft/x10_g_cfg.ks (inferred preloaded)
1.8,TAKEOFF,TO_PREFLIGHT,0.13,80,79.87,3.59,0,-0.39,-6.88,88.72,0.112,0.4,0,0,0,0,0,0,0,0,0,90.4,0,1,0,0.53,0,0,0,90,0,0,0,0,0,0,0,0,0,0,0,0,0,90.4,1,0,-1.619,0,0,1,0,0,0,0,0,0,0,2,2,0,0,VALID,0,0,0,0,0,1,0,0,0,0,0,0,0,0,0,0,0,0,0,0,22,887.94,2,0,0.74,0.5,2,1.47,0.92,0.74,0.9,LANDED,X10-G,0:/Integrated Flight Computer/aircraft/x10_g_cfg.ks (inferred preloaded)
2.48,TAKEOFF,TO_PREFLIGHT,0.04,80,79.96,3.6,0.01,-0.36,-23.83,88.7,0.111,0.6,0,0,0,0,0,0,0,0,0,90.4,0,1,0,1.24,0,0,0,90,0,0,0,0,0,0,0,0,0,0,0,0,0,90.4,1,0,-1.619,0,0,1,0,0,0,0,0,0,0,2,2,0,0,VALID,0,0,0,0,0,1,0,0,0,0,0,0,0,0,0,0,0,0,0,0,64.99,887.94,2,0,0.7,0.5,3,1.47,0.74,0.7,1.58,LANDED,X10-G,0:/Integrated Flight Computer/aircraft/x10_g_cfg.ks (inferred preloaded)
3.16,TAKEOFF,TO_PREFLIGHT,0.04,80,79.96,3.6,0,-0.36,-6.64,88.68,0.111,0.8,0,0,0,0,0,0,0,0,0,90.4,0,1,0,0.5,0,0,0,90,0,0,0,0,0,0,0,0,0,0,0,0,0,90.4,1,0,-1.619,0,0,1,0,0,0,0,0,0,0,2,2,0,0,VALID,0,0,0,0,0,1,0,0,0,0,0,0,0,0,0,0,0,0,0,0,124.67,887.94,2,0,0.64,0.5,4,1.47,0.7,0.64,2.26,LANDED,X10-G,0:/Integrated Flight Computer/aircraft/x10_g_cfg.ks (inferred preloaded)
3.84,TAKEOFF,TO_PREFLIGHT,0.05,80,79.95,3.59,0,-0.39,-2.13,88.66,0.112,1,0,0,0,0,0,0,0,0,0,90.4,0,1,0,0.1,0,0,0,90,0,0,0,0,0,0,0,0,0,0,0,0,0,90.4,1,0,-1.619,0,0,1,0,0,0,0,0,0,0,2,2,0,0,VALID,0,0,0,0,0,1,0,0,0,0,0,0,0,0,0,0,0,0,0,0,199.99,887.93,2,0,0.68,0.5,5,1.47,0.68,0.64,2.94,LANDED,X10-G,0:/Integrated Flight Computer/aircraft/x10_g_cfg.ks (inferred preloaded)
4.44,TAKEOFF,TO_PREFLIGHT,0.07,80,79.93,3.59,0,-0.41,-0.77,88.65,0.112,1,0,0,0,0,0,0,0,0,0,90.4,0,1,0,0.03,0,0,0,90,0,0,0,0,0,0,0,0,0,0,0,0,0,90.4,1,0,-1.619,0,0,1,0,0,0,0,0,0,0,2,2,0,0,VALID,0,0,0,0,0,1,0,0,0,0,0,0,0,0,0,0,0,0,0,0,277.93,887.93,2,0,0.68,0.5,6,1.61,0.68,0.68,3.5,LANDED,X10-G,0:/Integrated Flight Computer/aircraft/x10_g_cfg.ks (inferred preloaded)
4.76,TAKEOFF,TO_PREFLIGHT,0.09,80,79.91,3.58,0,-0.43,-0.55,88.65,0.111,1,0,0,0,0,0,0,0,0,0,90.4,0,1,0,-0.01,0,0,0,90,0,0,0,0,0,0,0,0,0,0,0,0,0,90.4,1,0,-1.619,0,0,1,0,0,0,0,0,0,0,2,2,0,0,VALID,0,0,0,0,0,1,0,0,0,0,0,0,0,0,0,0,0,0,0,0,315.82,887.93,2,0,0.08,0.08,11,15.63,0.68,0.04,3.82,LANDED,X10-G,0:/Integrated Flight Computer/aircraft/x10_g_cfg.ks (inferred preloaded)
5.04,TAKEOFF,TO_PREFLIGHT,0.1,80,79.9,3.58,0,-0.44,-0.66,88.65,0.111,1,0,0,0,0,0,0,0,0,0,90.4,0,1,0,0,0,0,0,90,0,0,0,0,0,0,0,0,0,0,0,0,0,90.4,1,0,-1.619,0,0,1,0,0,0,0,0,0,0,2,2,0,0,VALID,0,0,0,0,0,1,0,0,0,0,0,0,0,0,0,0,0,0,0,0,347.04,887.93,2,0,0.08,0.08,15,14.29,0.08,0.06,4.1,LANDED,X10-G,0:/Integrated Flight Computer/aircraft/x10_g_cfg.ks (inferred preloaded)
5.32,TAKEOFF,TO_PREFLIGHT,0.11,80,79.89,3.58,0,-0.44,-0.54,88.65,0.111,1,0,0,0,0,0,0,0,0,0,90.4,0,1,0,0.02,0,0,0,90,0,0,0,0,0,0,0,0,0,0,0,0,0,90.4,1,0,-1.619,0,0,1,0,0,0,0,0,0,0,2,2,0,0,VALID,0,0,0,0,0,1,0,0,0,0,0,0,0,0,0,0,0,0,0,0,376.55,887.93,2,0,0.08,0.08,19,14.29,0.08,0.06,4.38,LANDED,X10-G,0:/Integrated Flight Computer/aircraft/x10_g_cfg.ks (inferred preloaded)
5.6,TAKEOFF,TO_PREFLIGHT,0.12,80,79.88,3.57,0,-0.45,-0.49,88.66,0.111,1,0,0,0,0,0,0,0,0,0,90.4,0,1,0,0.02,0,0,0,90,0,0,0,0,0,0,0,0,0,0,0,0,0,90.4,1,0,-1.619,0,0,1,0,0,0,0,0,0,0,2,2,0,0,VALID,0,0,0,0,0,1,0,0,0,0,0,0,0,0,0,0,0,0,0,0,404.46,887.93,2,0,0.08,0.08,23,14.29,0.08,0.06,4.66,LANDED,X10-G,0:/Integrated Flight Computer/aircraft/x10_g_cfg.ks (inferred preloaded)
5.88,TAKEOFF,TO_PREFLIGHT,0.13,80,79.87,3.57,0,-0.46,-0.23,88.66,0.11,1,0,0,0,0,0,0,0,0,0,90.4,0,1,0,-0.04,0,0,0,90,0,0,0,0,0,0,0,0,0,0,0,0,0,90.4,1,0,-1.619,0,0,1,0,0,0,0,0,0,0,2,2,0,0,VALID,0,0,0,0,0,1,0,0,0,0,0,0,0,0,0,0,0,0,0,0,430.84,887.93,2,0,0.08,0.08,27,14.29,0.08,0.06,4.94,LANDED,X10-G,0:/Integrated Flight Computer/aircraft/x10_g_cfg.ks (inferred preloaded)
6.16,TAKEOFF,TO_PREFLIGHT,0.13,80,79.87,3.57,0,-0.46,-0.33,88.67,0.109,1,0,0,0,0,0,0,0,0,0,90.4,0,1,0,-0.03,0,0,0,90,0,0,0,0,0,0,0,0,0,0,0,0,0,90.4,1,0,-1.619,0,0,1,0,0,0,0,0,0,0,2,2,0,0,VALID,0,0,0,0,0,1,0,0,0,0,0,0,0,0,0,0,0,0,0,0,455.78,887.93,2,0,0.08,0.08,31,14.29,0.08,0.06,5.22,LANDED,X10-G,0:/Integrated Flight Computer/aircraft/x10_g_cfg.ks (inferred preloaded)
6.44,TAKEOFF,TO_PREFLIGHT,0.14,80,79.86,3.57,0,-0.46,-0.66,88.68,0.11,1,0,0,0,0,0,0,0,0,0,90.4,0,1,0,0.03,0,0,0,90,0,0,0,0,0,0,0,0,0,0,0,0,0,90.4,1,0,-1.619,0,0,1,0,0,0,0,0,0,0,2,2,0,0,VALID,0,0,0,0,0,1,0,0,0,0,0,0,0,0,0,0,0,0,0,0,479.36,887.93,2,0,0.08,0.08,35,14.29,0.08,0.06,5.5,LANDED,X10-G,0:/Integrated Flight Computer/aircraft/x10_g_cfg.ks (inferred preloaded)
6.72,TAKEOFF,TO_PREFLIGHT,0.15,80,79.85,3.57,0,-0.47,0.16,88.69,0.108,1,0,0,0,0,0,0,0,0,0,90.4,0,1,0,-0.11,0,0,0,90,0,0,0,0,0,0,0,0,0,0,0,0,0,90.4,1,0,-1.619,0,0,1,0,0,0,0,0,0,0,2,2,0,0,VALID,0,0,0,0,0,1,0,0,0,0,0,0,0,0,0,0,0,0,0,0,501.65,887.92,2,0,0.08,0.08,39,14.29,0.08,0.06,5.78,LANDED,X10-G,0:/Integrated Flight Computer/aircraft/x10_g_cfg.ks (inferred preloaded)
7,TAKEOFF,TO_PREFLIGHT,0.16,80,79.84,3.57,0,-0.47,-0.78,88.7,0.108,1,0,0,0,0,0,0,0,0,0,90.4,0,1,0,0.05,0,0,0,90,0,0,0,0,0,0,0,0,0,0,0,0,0,90.4,1,0,-1.619,0,0,1,0,0,0,0,0,0,0,2,2,0,0,VALID,0,0,0,0,0,1,0,0,0,0,0,0,0,0,0,0,0,0,0,0,522.73,887.92,2,0,0.08,0.08,43,14.29,0.08,0.06,6.06,LANDED,X10-G,0:/Integrated Flight Computer/aircraft/x10_g_cfg.ks (inferred preloaded)
7.28,TAKEOFF,TO_PREFLIGHT,0.17,80,79.83,3.57,0,-0.47,0,88.71,0.109,1,0,0,0,0,0,0,0,0,0,90.4,0,1,0,-0.1,0,0,0,90,0,0,0,0,0,0,0,0,0,0,0,0,0,90.4,1,0,-1.619,0,0,1,0,0,0,0,0,0,0,2,2,0,0,VALID,0,0,0,0,0,1,0,0,0,0,0,0,0,0,0,0,0,0,0,0,542.66,887.92,2,0,0.08,0.08,47,14.29,0.08,0.06,6.34,LANDED,X10-G,0:/Integrated Flight Computer/aircraft/x10_g_cfg.ks (inferred preloaded)
7.56,TAKEOFF,TO_PREFLIGHT,0.17,80,79.83,3.57,0,-0.47,-0.31,88.72,0.107,1,0,0,0,0,0,0,0,0,0,90.4,0,1,0,-0.02,0,0,0,90,0,0,0,0,0,0,0,0,0,0,0,0,0,90.4,1,0,-1.619,0,0,1,0,0,0,0,0,0,0,2,2,0,0,VALID,0,0,0,0,0,1,0,0,0,0,0,0,0,0,0,0,0,0,0,0,561.5,887.92,2,0,0.08,0.08,51,14.29,0.08,0.06,6.62,LANDED,X10-G,0:/Integrated Flight Computer/aircraft/x10_g_cfg.ks (inferred preloaded)
7.84,TAKEOFF,TO_PREFLIGHT,0.18,80,79.82,3.57,0,-0.48,-0.48,88.73,0.107,1,0,0,0,0,0,0,0,0,0,90.4,0,1,0,-0.01,0,0,0,90,0,0,0,0,0,0,0,0,0,0,0,0,0,90.4,1,0,-1.619,0,0,1,0,0,0,0,0,0,0,2,2,0,0,VALID,0,0,0,0,0,1,0,0,0,0,0,0,0,0,0,0,0,0,0,0,579.31,887.92,2,0,0.08,0.08,55,14.29,0.08,0.06,6.9,LANDED,X10-G,0:/Integrated Flight Computer/aircraft/x10_g_cfg.ks (inferred preloaded)
8.12,TAKEOFF,TO_PREFLIGHT,0.18,80,79.82,3.57,0,-0.48,-0.1,88.74,0.107,1,0,0,0,0,0,0,0,0,0,90.4,0,1,0,-0.07,0,0,0,90,0,0,0,0,0,0,0,0,0,0,0,0,0,90.4,1,0,-1.619,0,0,1,0,0,0,0,0,0,0,2,2,0,0,VALID,0,0,0,0,0,1,0,0,0,0,0,0,0,0,0,0,0,0,0,0,596.15,887.92,2,0,0.08,0.08,59,14.29,0.08,0.06,7.18,LANDED,X10-G,0:/Integrated Flight Computer/aircraft/x10_g_cfg.ks (inferred preloaded)
8.4,TAKEOFF,TO_PREFLIGHT,0.19,80,79.81,3.57,0,-0.48,-0.2,88.75,0.104,1,0,0,0,0,0,0,0,0,0,90.4,0,1,0,-0.07,0,0,0,90,0,0,0,0,0,0,0,0,0,0,0,0,0,90.4,1,0,-1.619,0,0,1,0,0,0,0,0,0,0,2,2,0,0,VALID,0,0,0,0,0,1,0,0,0,0,0,0,0,0,0,0,0,0,0,0,612.07,887.92,2,0,0.08,0.08,63,14.29,0.08,0.06,7.46,LANDED,X10-G,0:/Integrated Flight Computer/aircraft/x10_g_cfg.ks (inferred preloaded)
8.68,TAKEOFF,TO_PREFLIGHT,0.22,80,79.78,3.57,0,-0.48,-0.21,88.76,0.11,1,0,0,0,0,0,0,0,0,0,90.4,0,1,0,-0.08,0,0,0,90,0,0,0,0,0,0,0,0,0,0,0,0,0,90.4,1,0,-1.619,0,0,1,0,0,0,0,0,0,0,2,2,0,0,VALID,0,0,0,0,0,1,0,0,0,0,0,0,0,0,0,0,0,0,0,0,627.12,887.92,2,0,0.08,0.08,67,14.29,0.08,0.06,7.74,LANDED,X10-G,0:/Integrated Flight Computer/aircraft/x10_g_cfg.ks (inferred preloaded)
8.96,TAKEOFF,TO_PREFLIGHT,0.28,80,79.72,3.57,0,-0.48,-0.27,88.78,0.109,1,0,0,0,0,0,0,0,0,0,90.4,0,1,0,-0.06,0,0,0,90,0,0,0,0,0,0,0,0,0,0,0,0,0,90.4,1,0,-1.619,0,0,1,0,0,0,0,0,0,0,2,2,0,0,VALID,0,0,0,0,0,1,0,0,0,0,0,0,0,0,0,0,0,0,0,0,641.35,887.92,2,0,0.08,0.08,71,14.29,0.08,0.06,8.02,LANDED,X10-G,0:/Integrated Flight Computer/aircraft/x10_g_cfg.ks (inferred preloaded)
9.24,TAKEOFF,TO_PREFLIGHT,0.35,80,79.65,3.57,0,-0.48,-0.12,88.79,0.107,1,0,0,0,0,0,0,0,0,0,90.4,0,1,0,-0.15,0,0,0,90,0,0,0,0,0,0,0,0,0,0,0,0,0,90.4,1,0,-1.619,0,0,1,0,0,0,0,0,0,0,2,2,0,0,VALID,0,0,0,0,0,1,0,0,0,0,0,0,0,0,0,0,0,0,0,0,654.8,887.92,2,0,0.08,0.08,75,14.29,0.08,0.06,8.3,LANDED,X10-G,0:/Integrated Flight Computer/aircraft/x10_g_cfg.ks (inferred preloaded)
9.52,TAKEOFF,TO_PREFLIGHT,0.45,80,79.55,3.57,0,-0.48,-0.23,88.8,0.108,1,0,0,0,0,0,0,0,0,0,90.4,0,1,0,-0.13,0,0,0,90,0,0,0,0,0,0,0,0,0,0,0,0,0,90.4,1,0,-1.619,0,0,1,0,0,0,0,0,0,0,2,2,0,0,VALID,0,0,0,0,0,1,0,0,0,0,0,0,0,0,0,0,0,0,0,0,667.52,887.91,2,0,0.08,0.08,79,14.29,0.08,0.06,8.58,LANDED,X10-G,0:/Integrated Flight Computer/aircraft/x10_g_cfg.ks (inferred preloaded)
9.8,TAKEOFF,TO_GROUND_ROLL,0.58,80,79.42,3.57,0,-0.48,-0.15,88.82,0.108,1,0,0,0,0,0,0,0,0,0,90.4,0,1,0,-0.19,0,0,0,90,0,0,0,0,0,0,0,0,0,0,0,0,0,90.4,1,0,-1.619,0,0,1,0,0,0,0,0,0,0,2,2,0,0,VALID,0,0,0,0,0,1,0,0,0,0,0,0,0,0,0,0,0,0,0,0,679.55,887.91,2,0,0.08,0.08,83,14.29,0.08,0.06,8.86,LANDED,X10-G,0:/Integrated Flight Computer/aircraft/x10_g_cfg.ks (inferred preloaded)
10.08,TAKEOFF,TO_GROUND_ROLL,1.03,80,78.97,3.61,-0.04,-0.32,1.13,88.83,0.116,1,0,0,0,0,0,0,0,0,0,90.39,0,1,0,-2.3,0,0,0,90,0,0,0,0,0,0,0,0,-0.004,0,0,0,0,90.39,1,-0.004,-1.559,0.041,0.56,0,0.041,0,0,0,0,0,0,2,2,0,0,VALID,0,0,0,0,0,1,0,0,0,0,0,0,0,0,0,0,0,0,0,0,690.91,887.91,2,0,0.08,0.08,87,14.29,0.08,0.06,9.16,LANDED,X10-G,0:/Integrated Flight Computer/aircraft/x10_g_cfg.ks (inferred preloaded)
10.36,TAKEOFF,TO_GROUND_ROLL,2.16,80,77.84,3.6,0.02,-0.34,-0.63,88.83,0.101,1,0,0,0,0,0,0,0,0,0,90.4,0,1,0,0.56,0,0,0,90,0,0,0,0,0,0,0,0,-0.003,0,0,0,0,90.4,1,-0.003,-1.577,0.0433,0.572,0,0.0433,0,0,0,0,0,0,2,2,0,0,VALID,0,0,0,0,0,1,0,0,0,0,0,0,0,0,0,0,0,0,0,0,701.65,887.89,2,0,0.08,0.08,91,14.29,0.08,0.06,9.44,LANDED,X10-G,0:/Integrated Flight Computer/aircraft/x10_g_cfg.ks (inferred preloaded)
10.64,TAKEOFF,TO_GROUND_ROLL,3.37,80,76.63,3.61,-0.05,-0.35,0.23,88.81,0.107,1,0,0,0,0,0,0,0,0,0,90.41,0,1,0,-0.81,0,0,0,90,0,0,0,0,0,0,0,0,-0.002,0,0,0,0,90.41,1,-0.002,-1.596,0.0449,0.584,0,0.0449,0,0,0,0,0,0,2,2,0,0,VALID,0,0,0,0,0,1,0,0,0,0,0,0,0,0,0,0,0,0,0,0,711.78,887.85,2,0,0.08,0.08,95,14.29,0.08,0.06,9.72,LANDED,X10-G,0:/Integrated Flight Computer/aircraft/x10_g_cfg.ks (inferred preloaded)
10.92,TAKEOFF,TO_GROUND_ROLL,4.59,80,75.41,3.61,-0.01,-0.32,-0.11,88.8,0.11,1,0,0,0,0,0,0,0,0,0,90.41,0,1,0,-0.18,0,0,0,90,0,0,0,0,0,0,0,0,-0.001,0,0,0,0,90.41,1,-0.001,-1.609,0.0462,0.596,0,0.0462,0,0,0,0,0,0,2,2,0,0,VALID,0,0,0,0,0,1,0,0,0,0,0,0,0,0,0,0,0,0,0,0,721.35,887.8,2,0,0.08,0.08,99,14.29,0.08,0.06,10,LANDED,X10-G,0:/Integrated Flight Computer/aircraft/x10_g_cfg.ks (inferred preloaded)
11.2,TAKEOFF,TO_GROUND_ROLL,5.84,80,74.16,3.6,-0.04,-0.35,-0.06,88.78,0.106,1,0,0,0,0,0,0,0,0,0,90.41,0,1,0,-0.38,0,0,0,90,0,0,0,0,0,0,0,0,0,0,0,0,0,90.41,1,0,-1.626,0.0477,0.608,0,0.0477,0,0,0,0,0,0,2,2,0,0,VALID,0,0,0,0,0,1,0,0,0,0,0,0,0,0,0,0,0,0,0,0,730.37,887.73,2,0,0.08,0.08,103,14.29,0.08,0.06,10.28,LANDED,X10-G,0:/Integrated Flight Computer/aircraft/x10_g_cfg.ks (inferred preloaded)
11.48,TAKEOFF,TO_GROUND_ROLL,7.1,80,72.9,3.61,-0.05,-0.33,0.02,88.77,0.106,1,0,0,0,0,0,0,0,0,0,90.41,0,1,0,-0.37,0,0,0,90,0,0,0,0,0,0,0,0,0.002,0,0,0,0,90.41,1,0.002,-1.638,0.0489,0.621,0,0.0489,0,0,0,0,0,0,2,2,0,0,VALID,0,0,0,0,0,1,0,0,0,0,0,0,0,0,0,0,0,0,0,0,738.89,887.64,2,0,0.08,0.08,107,14.29,0.08,0.06,10.56,LANDED,X10-G,0:/Integrated Flight Computer/aircraft/x10_g_cfg.ks (inferred preloaded)
11.76,TAKEOFF,TO_GROUND_ROLL,8.37,80,71.63,3.61,-0.04,-0.34,-0.09,88.76,0.107,1,0,0,0,0,0,0,0,0,0,90.41,0,1,0,-0.29,0,0,0,90,0,0,0,0,0,0,0,0,0.005,0,0,0,0,90.41,1,0.005,-1.653,0.0504,0.634,0,0.0504,0,0,0,0,0,0,2,2,0,0,VALID,0,0,0,0,0,1,0,0,0,0,0,0,0,0,0,0,0,0,0,0,746.92,887.54,2,0,0.08,0.08,111,14.29,0.08,0.06,10.84,LANDED,X10-G,0:/Integrated Flight Computer/aircraft/x10_g_cfg.ks (inferred preloaded)
12.04,TAKEOFF,TO_GROUND_ROLL,9.65,80,70.35,3.61,-0.06,-0.33,0.01,88.75,0.107,1,0,0,0,0,0,0,0,0,0,90.41,0,1,0,-0.38,0,0,0,90,0,0,0,0,0,0,0,0,0.008,0,0,0,0,90.41,1,0.008,-1.667,0.0517,0.647,0,0.0517,0,0,0,0,0,0,2,2,0,0,VALID,0,0,0,0,0,1,0,0,0,0,0,0,0,0,0,0,0,0,0,0,754.5,887.42,2,0,0.08,0.08,115,14.29,0.08,0.06,11.12,LANDED,X10-G,0:/Integrated Flight Computer/aircraft/x10_g_cfg.ks (inferred preloaded)
12.32,TAKEOFF,TO_GROUND_ROLL,10.95,80,69.05,3.61,-0.06,-0.34,-0.06,88.74,0.106,1,0,0,0,0,0,0,0,0,0,90.42,0,1,0,-0.3,0,0,0,90,0,0,0,0,0,0,0,0,0.011,0,0,0,0,90.42,1,0.011,-1.681,0.0532,0.66,0,0.0532,0,0,0,0,0,0,2,2,0,0,VALID,0,0,0,0,0,1,0,0,0,0,0,0,0,0,0,0,0,0,0,0,761.64,887.29,2,0,0.08,0.08,119,14.29,0.08,0.06,11.4,LANDED,X10-G,0:/Integrated Flight Computer/aircraft/x10_g_cfg.ks (inferred preloaded)
12.6,TAKEOFF,TO_GROUND_ROLL,12.26,80,67.74,3.61,-0.07,-0.34,-0.02,88.73,0.107,1,0,0,0,0,0,0,0,0,0,90.42,0,1,0,-0.35,0,0,0,90,0,0,0,0,0,0,0,0,0.015,0,0,0,0,90.42,1,0.015,-1.694,0.0547,0.673,0,0.0547,0,0,0,0,0,0,2,2,0,0,VALID,0,0,0,0,0,1,0,0,0,0,0,0,0,0,0,0,0,0,0,0,768.37,887.15,2,0,0.08,0.08,123,14.29,0.08,0.06,11.68,LANDED,X10-G,0:/Integrated Flight Computer/aircraft/x10_g_cfg.ks (inferred preloaded)
12.88,TAKEOFF,TO_GROUND_ROLL,13.59,80,66.41,3.61,-0.08,-0.33,-0.03,88.72,0.107,1,0,0,0,0,0,0,0,0,0,90.42,0,1,0,-0.32,0,0,0,90,0,0,0,0,0,0,0,0,0.019,0,0,0,0,90.42,1,0.019,-1.707,0.0561,0.686,0,0.0561,0,0,0,0,0,0,2,2,0,0,VALID,0,0,0,0,0,1,0,0,0,0,0,0,0,0,0,0,0,0,0,0,774.72,886.99,2,0,0.08,0.08,127,14.29,0.08,0.06,11.96,LANDED,X10-G,0:/Integrated Flight Computer/aircraft/x10_g_cfg.ks (inferred preloaded)
13.16,TAKEOFF,TO_GROUND_ROLL,14.92,80,65.08,3.61,-0.08,-0.34,-0.04,88.71,0.106,1,0,0,0,0,0,0,0,0,0,90.43,0,1,0,-0.33,0,0,0,90,0,0,0,0,0,0,0,0,0.024,0,0,0,0,90.43,1,0.024,-1.721,0.0576,0.699,0,0.0576,0,0,0,0,0,0,2,2,0,0,VALID,0,0,0,0,0,1,0,0,0,0,0,0,0,0,0,0,0,0,0,0,780.69,886.81,2,0,0.08,0.08,131,14.29,0.08,0.06,12.24,LANDED,X10-G,0:/Integrated Flight Computer/aircraft/x10_g_cfg.ks (inferred preloaded)
13.44,TAKEOFF,TO_GROUND_ROLL,16.26,80,63.74,3.61,-0.09,-0.33,-0.03,88.7,0.106,1,0,0,0,0,0,0,0,0,0,90.43,0,1,0,-0.33,0,0,0,90,0,0,0,0,0,0,0,0,0.029,0,0,0,0,90.43,1,0.029,-1.733,0.0591,0.713,0,0.0591,0,0,0,0,0,0,2,2,0,0,VALID,0,0,0,0,0,1,0,0,0,0,0,0,0,0,0,0,0,0,0,0,786.32,886.63,2,0,0.08,0.08,135,14.29,0.08,0.06,12.52,LANDED,X10-G,0:/Integrated Flight Computer/aircraft/x10_g_cfg.ks (inferred preloaded)
13.72,TAKEOFF,TO_GROUND_ROLL,17.61,80,62.39,3.61,-0.1,-0.34,-0.04,88.69,0.106,1,0,0,0,0,0,0,0,0,0,90.44,0,1,0,-0.32,0,0,0,90,0,0,0,0,0,0,0,0,0.034,0,0,0,0,90.44,1,0.034,-1.746,0.0607,0.726,0,0.0607,0,0,0,0,0,0,2,2,0,0,VALID,0,0,0,0,0,1,0,0,0,0,0,0,0,0,0,0,0,0,0,0,791.62,886.43,2,0,0.08,0.08,139,14.29,0.08,0.06,12.8,LANDED,X10-G,0:/Integrated Flight Computer/aircraft/x10_g_cfg.ks (inferred preloaded)
14,TAKEOFF,TO_GROUND_ROLL,18.98,80,61.02,3.61,-0.11,-0.33,-0.03,88.69,0.106,1,0,0,0,0,0,0,0,0,0,90.44,0,1,0,-0.32,0,0,0,90,0,0,0,0,0,0,0,0,0.041,0,0,0,0,90.44,1,0.041,-1.759,0.0622,0.74,0,0.0622,0,0,0,0,0,0,2,2,0,0,VALID,0,0,0,0,0,1,0,0,0,0,0,0,0,0,0,0,0,0,0,0,796.6,886.22,2,0,0.08,0.08,143,14.29,0.08,0.06,13.08,LANDED,X10-G,0:/Integrated Flight Computer/aircraft/x10_g_cfg.ks (inferred preloaded)
14.28,TAKEOFF,TO_GROUND_ROLL,20.35,80,59.65,3.61,-0.11,-0.33,-0.04,88.68,0.106,1,0,0,0,0,0,0,0,0,0,90.45,0,1,0,-0.32,0,0,0,90,0,0,0,0,0,0,0,0,0.047,0,0,0,0,90.45,1,0.047,-1.771,0.0637,0.753,0,0.0637,0,0,0,0,0,0,2,2,0,0,VALID,0,0,0,0,0,1,0,0,0,0,0,0,0,0,0,0,0,0,0,0,801.3,886,2,0,0.08,0.08,147,14.29,0.08,0.06,13.36,LANDED,X10-G,0:/Integrated Flight Computer/aircraft/x10_g_cfg.ks (inferred preloaded)
14.56,TAKEOFF,TO_GROUND_ROLL,21.72,80,58.28,3.61,-0.12,-0.33,-0.03,88.67,0.105,1,0,0,0,0,0,0,0,0,0,90.46,0,1,0,-0.32,0,0,0.01,90,0,0,0,0,0,0,0,0,0.054,0,0,0,0,90.46,1,0.054,-1.783,0.0653,0.767,0,0.0653,0,0,0,0,0,0,2,2,0,0,VALID,0,0,0,0,0,1,0,0,0,0,0,0,0,0,0,0,0,0,0,0,805.71,885.77,2,0,0.08,0.08,151,14.29,0.08,0.06,13.64,LANDED,X10-G,0:/Integrated Flight Computer/aircraft/x10_g_cfg.ks (inferred preloaded)
14.84,TAKEOFF,TO_GROUND_ROLL,23.11,80,56.89,3.61,-0.13,-0.33,-0.04,88.67,0.105,1,0,0,0,0,0,0,0,0,0,90.46,0,1,0,-0.32,0,0,0.01,90,0,0,0,0,0,0,0,0,0.062,0,0,0,0,90.46,1,0.062,-1.795,0.0669,0.781,0,0.0669,0,0,0,0,0,0,2,2,0,0,VALID,0,0,0,0,0,1,0,0,0,0,0,0,0,0,0,0,0,0,0,0,809.86,885.53,2,0,0.08,0.08,155,14.29,0.08,0.06,13.92,LANDED,X10-G,0:/Integrated Flight Computer/aircraft/x10_g_cfg.ks (inferred preloaded)
15.12,TAKEOFF,TO_GROUND_ROLL,24.5,80,55.5,3.61,-0.14,-0.33,-0.03,88.67,0.105,1,0,0,0,0,0,0,0,0,0,90.47,0,1,0,-0.32,0,0,0.01,90,0,0,0,0,0,0,0,0,0.07,0,0,0,0,90.47,1,0.07,-1.806,0.0685,0.795,0,0.0685,0,0,0,0,0,0,2,2,0,0,VALID,0,0,0,0,0,1,0,0,0,0,0,0,0,0,0,0,0,0,0,0,813.77,885.29,2,0,0.08,0.08,159,14.29,0.08,0.06,14.2,LANDED,X10-G,0:/Integrated Flight Computer/aircraft/x10_g_cfg.ks (inferred preloaded)
15.4,TAKEOFF,TO_GROUND_ROLL,25.9,80,54.1,3.61,-0.14,-0.33,-0.03,88.66,0.104,1,0,0,0,0,0,0,0,0,0,90.48,0,1,0,-0.32,0,0,0.01,90,0,0,0,0,0,0,0,0,0.078,0,0,0,0,90.48,1,0.078,-1.818,0.07,0.809,0,0.07,0,0,0,0,0,0,2,2,0,0,VALID,0,0,0,0,0,1,0,0,0,0,0,0,0,0,0,0,0,0,0,0,817.44,885.03,2,0,0.08,0.08,163,14.29,0.08,0.06,14.48,LANDED,X10-G,0:/Integrated Flight Computer/aircraft/x10_g_cfg.ks (inferred preloaded)
15.68,TAKEOFF,TO_GROUND_ROLL,27.3,80,52.7,3.61,-0.15,-0.33,-0.04,88.66,0.104,1,0,0,0,0,0,0,0,0,0,90.49,0,1,0,-0.31,0,0,0.01,90,0,0,0,0,0,0,0,0,0.088,0,0,0,0,90.49,1,0.088,-1.829,0.0716,0.823,0,0.0716,0,0,0,0,0,0,2,2,0,0,VALID,0,0,0,0,0,1,0,0,0,0,0,0,0,0,0,0,0,0,0,0,820.89,884.77,2,0,0.08,0.08,167,14.29,0.08,0.06,14.76,LANDED,X10-G,0:/Integrated Flight Computer/aircraft/x10_g_cfg.ks (inferred preloaded)
15.96,TAKEOFF,TO_GROUND_ROLL,28.71,80,51.29,3.61,-0.16,-0.33,-0.03,88.66,0.103,1,0,0,0,0,0,0,0,0,0,90.5,0,1,0,-0.31,0,0,0.01,90,0,0,0,0,0,0,0,0,0.097,0,0,0,0,90.5,1,0.097,-1.84,0.0733,0.837,0,0.0733,0,0,0,0,0,0,2,2,0,0,VALID,0,0,0,0,0,1,0,0,0,0,0,0,0,0,0,0,0,0,0,0,824.13,884.51,2,0,0.08,0.08,171,14.29,0.08,0.06,15.04,LANDED,X10-G,0:/Integrated Flight Computer/aircraft/x10_g_cfg.ks (inferred preloaded)
16.24,TAKEOFF,TO_GROUND_ROLL,30.13,80,49.87,3.61,-0.16,-0.33,-0.04,88.66,0.099,1,0,0,0,0,0,0,0,0,0,90.51,0,1,0,-0.31,0,0,0.01,90,0,0,0,0,0,0,0,0,0.107,0,0,0,0,90.51,1,0.107,-1.851,0.0749,0.851,0,0.0749,0,0,0,0,0,0,2,2,0,0,VALID,0,0,0,0,0,1,0,0,0,0,0,0,0,0,0,0,0,0,0,0,827.17,884.24,2,0,0.08,0.08,175,14.29,0.08,0.06,15.32,LANDED,X10-G,0:/Integrated Flight Computer/aircraft/x10_g_cfg.ks (inferred preloaded)
16.52,TAKEOFF,TO_GROUND_ROLL,31.55,80,48.45,3.61,-0.17,-0.33,-0.03,88.66,0.098,1,0,0,0,0,0,0,0,0,0,90.52,0,1,0,-0.31,0,0,0.01,90,0,0,0,0,0,0,0,0,0.118,0,0,0,0,90.52,1,0.118,-1.862,0.0766,0.866,0,0.0766,0,0,0,0,0,0,2,2,0,0,VALID,0,0,0,0,0,1,0,0,0,0,0,0,0,0,0,0,0,0,0,0,830.03,883.97,2,0,0.08,0.08,179,14.29,0.08,0.06,15.6,LANDED,X10-G,0:/Integrated Flight Computer/aircraft/x10_g_cfg.ks (inferred preloaded)
16.8,TAKEOFF,TO_GROUND_ROLL,32.98,80,47.02,3.61,-0.18,-0.33,-0.04,88.66,0.097,1,0,0,0,0,0,0,0,0,0,90.53,0,1,0,-0.31,0,0,0.01,90,0,0,0,0,0,0,0,0,0.129,0,0,0,0,90.53,1,0.129,-1.873,0.0783,0.88,0,0.0783,0,0,0,0,0,0,2,2,0,0,VALID,0,0,0,0,0,1,0,0,0,0,0,0,0,0,0,0,0,0,0,0,832.72,883.69,2,0,0.08,0.08,183,14.29,0.08,0.06,15.88,LANDED,X10-G,0:/Integrated Flight Computer/aircraft/x10_g_cfg.ks (inferred preloaded)
17.08,TAKEOFF,TO_GROUND_ROLL,34.41,80,45.59,3.61,-0.19,-0.33,-0.03,88.66,0.097,1,0,0,0,0,0,0,0,0,0,90.54,0,1,0,-0.31,0,0,0.01,90,0,0,0,0,0,0,0,0,0.14,0,0,0,0,90.54,1,0.14,-1.884,0.08,0.894,0,0.08,0,0,0,0,0,0,2,2,0,0,VALID,0,0,0,0,0,1,0,0,0,0,0,0,0,0,0,0,0,0,0,0,835.24,883.42,2,0,0.08,0.08,187,14.29,0.08,0.06,16.16,LANDED,X10-G,0:/Integrated Flight Computer/aircraft/x10_g_cfg.ks (inferred preloaded)
17.36,TAKEOFF,TO_GROUND_ROLL,35.84,80,44.16,3.61,-0.19,-0.32,-0.03,88.66,0.097,1,0,0,0,0,0,0,0,0,0,90.55,0,1,0,-0.31,0,0,0.01,90,0,0,0,0,0,0,0,0,0.153,0,0,0,0,90.55,1,0.153,-1.895,0.0817,0.908,0,0.0817,0,0,0,0,0,0,2,2,0,0,VALID,0,0,0,0,0,1,0,0,0,0,0,0,0,0,0,0,0,0,0,0,837.61,883.14,2,0,0.08,0.08,191,14.29,0.08,0.06,16.44,LANDED,X10-G,0:/Integrated Flight Computer/aircraft/x10_g_cfg.ks (inferred preloaded)
17.64,TAKEOFF,TO_GROUND_ROLL,37.28,80,42.72,3.61,-0.2,-0.32,-0.03,88.66,0.096,1,0,0,0,0,0,0,0,0,0,90.56,0,1,0,-0.31,0,0,0.01,90,0,0,0,0,0,0,0,0,0.165,0,0,0,0,90.56,1,0.165,-1.905,0.0833,0.923,0,0.0833,0,0,0,0,0,0,2,2,0,0,VALID,0,0,0,0,0,1,0,0,0,0,0,0,0,0,0,0,0,0,0,0,839.83,882.86,2,0,0.08,0.08,195,14.29,0.08,0.06,16.72,LANDED,X10-G,0:/Integrated Flight Computer/aircraft/x10_g_cfg.ks (inferred preloaded)
17.92,TAKEOFF,TO_GROUND_ROLL,38.72,80,41.28,3.61,-0.21,-0.32,-0.03,88.66,0.095,1,0,0,0,0,0,0,0,0,0,90.58,0,1,0,-0.3,0,0,0.02,90,0,0,0,0,0,0,0,0,0.178,0,0,0,0,90.58,1,0.178,-1.915,0.085,0.937,0,0.085,0,0,0,0,0,0,2,2,0,0,VALID,0,0,0,0,0,1,0,0,0,0,0,0,0,0,0,0,0,0,0,0,841.92,882.59,2,0,0.08,0.08,199,14.29,0.08,0.06,17,LANDED,X10-G,0:/Integrated Flight Computer/aircraft/x10_g_cfg.ks (inferred preloaded)
18.2,TAKEOFF,TO_GROUND_ROLL,40.17,80,39.83,3.61,-0.21,-0.32,-0.03,88.66,0.095,1,0,0,0,0,0,0,0,0,0,90.59,0,1,0,-0.3,0,0,0.02,90,0,0,0,0,0,0,0,0,0.191,0,0,0,0,90.59,1,0.191,-1.925,0.0867,0.952,0,0.0867,0,0,0,0,0,0,2,2,0,0,VALID,0,0,0,0,0,1,0,0,0,0,0,0,0,0,0,0,0,0,0,0,843.88,882.32,2,0,0.08,0.08,203,14.29,0.08,0.06,17.28,LANDED,X10-G,0:/Integrated Flight Computer/aircraft/x10_g_cfg.ks (inferred preloaded)
18.48,TAKEOFF,TO_GROUND_ROLL,41.62,80,38.38,3.61,-0.22,-0.32,-0.03,88.67,0.094,1,0,0,0,0,0,0,0,0,0,90.6,0,1,0,-0.3,0,0,0.02,90,0,0,0,0,0,0,0,0,0.205,0,0,0,0,90.6,1,0.205,-1.934,0.0884,0.966,0,0.0884,0,0,0,0,0,0,2,2,0,0,VALID,0,0,0,0,0,1,0,0,0,0,0,0,0,0,0,0,0,0,0,0,845.72,882.05,2,0,0.08,0.08,207,14.29,0.08,0.06,17.56,LANDED,X10-G,0:/Integrated Flight Computer/aircraft/x10_g_cfg.ks (inferred preloaded)
18.76,TAKEOFF,TO_GROUND_ROLL,43.07,80,36.93,3.61,-0.23,-0.32,-0.03,88.67,0.094,1,0,0,0,0,0,0,0,0,0,90.62,0,1,0,-0.3,0,0,0.02,90,0,0,0,0,0,0,0,0,0.22,0,0,0,0,90.62,1,0.22,-1.943,0.0901,0.981,0,0.0901,0,0,0,0,0,0,2,2,0,0,VALID,0,0,0,0,0,1,0,0,0,0,0,0,0,0,0,0,0,0,0,0,847.45,881.79,2,0,0.08,0.08,211,14.29,0.08,0.06,17.84,LANDED,X10-G,0:/Integrated Flight Computer/aircraft/x10_g_cfg.ks (inferred preloaded)
19.04,TAKEOFF,TO_GROUND_ROLL,44.53,80,35.47,3.61,-0.23,-0.32,-0.03,88.68,0.094,1,0,0,0,0,0,0,0,0,0,90.63,0,1,0,-0.3,0,0,0.02,90,0,0,0,0,0,0,0,0,0.235,0,0,0,0,90.63,1,0.235,-1.952,0.0918,0.995,0,0.0918,0,0,0,0,0,0,2,2,0,0,VALID,0,0,0,0,0,1,0,0,0,0,0,0,0,0,0,0,0,0,0,0,849.08,881.54,2,0,0.08,0.08,215,14.29,0.08,0.06,18.12,LANDED,X10-G,0:/Integrated Flight Computer/aircraft/x10_g_cfg.ks (inferred preloaded)
19.32,TAKEOFF,TO_GROUND_ROLL,45.98,80,34.02,3.61,-0.24,-0.32,-0.03,88.69,0.093,1,0,0,0,0,0,0,0,0,0,90.65,0,1,0,-0.3,0,0,0.02,90,0,0,0,0,0,0,0,0,0.25,0,0,0,0,90.65,1,0.25,-1.96,0.0925,1,0,0.0925,0,0,0,0,0,0,2,2,0,0,VALID,0,0,0,0,0,1,0,0,0,0,0,0,0,0,0,0,0,0,0,0,850.62,881.29,2,0,0.08,0.08,219,14.29,0.08,0.06,18.4,LANDED,X10-G,0:/Integrated Flight Computer/aircraft/x10_g_cfg.ks (inferred preloaded)
19.6,TAKEOFF,TO_GROUND_ROLL,47.44,80,32.56,3.61,-0.25,-0.31,-0.03,88.69,0.093,1,0,0,0,0,0,0,0,0,0,90.66,0,1,0,-0.3,0,0,0.02,90,0,0,0,0,0,0,0,0,0.265,0,0,0,0,90.66,1,0.265,-1.968,0.0929,1,0,0.0929,0,0,0,0,0,0,2,2,0,0,VALID,0,0,0,0,0,1,0,0,0,0,0,0,0,0,0,0,0,0,0,0,852.06,881.05,2,0,0.08,0.08,223,14.29,0.08,0.06,18.68,LANDED,X10-G,0:/Integrated Flight Computer/aircraft/x10_g_cfg.ks (inferred preloaded)
19.88,TAKEOFF,TO_GROUND_ROLL,48.91,80,31.09,3.61,-0.25,-0.31,-0.03,88.7,0.092,1,0,0,0,0,0,0,0,0,0,90.68,0,1,0,-0.29,0,0,0.02,90,0,0,0,0,0,0,0,0,0.281,0,0,0,0,90.68,1,0.281,-1.977,0.0933,1,0,0.0933,0,0,0,0,0,0,2,2,0,0,VALID,0,0,0,0,0,1,0,0,0,0,0,0,0,0,0,0,0,0,0,0,853.42,880.82,2,0,0.08,0.08,227,14.29,0.08,0.06,18.96,LANDED,X10-G,0:/Integrated Flight Computer/aircraft/x10_g_cfg.ks (inferred preloaded)
20.16,TAKEOFF,TO_GROUND_ROLL,50.37,80,29.63,3.61,-0.26,-0.31,-0.03,88.71,0.092,1,0,0,0,0,0,0,0,0,0,90.69,0,1,0,-0.29,0,0,0.03,90,0,0,0,0,0,0,0,0,0.298,0,0,0,0,90.69,1,0.298,-1.985,0.0937,1,0,0.0937,0,0,0,0,0,0,2,2,0,0,VALID,0,0,0,0,0,1,0,0,0,0,0,0,0,0,0,0,0,0,0,0,854.7,880.61,2,0,0.08,0.08,231,14.29,0.08,0.06,19.24,LANDED,X10-G,0:/Integrated Flight Computer/aircraft/x10_g_cfg.ks (inferred preloaded)
20.44,TAKEOFF,TO_GROUND_ROLL,51.84,80,28.16,3.61,-0.26,-0.31,-0.03,88.72,0.092,1,0,0,0,0,0,0,0,0,0,90.71,0,1,0,-0.29,0,0,0.03,90,0,0,0,0,0,0,0,0,0.314,0,0,0,0,90.71,1,0.314,-1.993,0.094,1,0,0.094,0,0,0,0,0,0,2,2,0,0,VALID,0,0,0,0,0,1,0,0,0,0,0,0,0,0,0,0,0,0,0,0,855.92,880.4,2,0,0.08,0.08,235,14.29,0.08,0.06,19.52,LANDED,X10-G,0:/Integrated Flight Computer/aircraft/x10_g_cfg.ks (inferred preloaded)
20.72,TAKEOFF,TO_GROUND_ROLL,53.31,80,26.69,3.61,-0.27,-0.31,-0.03,88.72,0.091,1,0,0,0,0,0,0,0,0,0,90.73,0,1,0,-0.29,0,0,0.03,90,0,0,0,0,0,0,0,0,0.332,0,0,0,0,90.73,1,0.332,-2.002,0.0944,1,0,0.0944,0,0,0,0,0,0,2,2,0,0,VALID,0,0,0,0,0,1,0,0,0,0,0,0,0,0,0,0,0,0,0,0,857.06,880.21,2,0,0.08,0.08,239,14.29,0.08,0.06,19.8,LANDED,X10-G,0:/Integrated Flight Computer/aircraft/x10_g_cfg.ks (inferred preloaded)
21,TAKEOFF,TO_GROUND_ROLL,54.78,80,25.22,3.61,-0.27,-0.31,-0.03,88.73,0.091,1,0,0,0,0,0,0,0,0,0,90.74,0,1,0,-0.29,0,0,0.03,90,0,0,0,0,0,0,0,0,0.349,0,0,0,0,90.74,1,0.349,-2.009,0.0947,1,0,0.0947,0,0,0,0,0,0,2,2,0,0,VALID,0,0,0,0,0,1,0,0,0,0,0,0,0,0,0,0,0,0,0,0,858.15,880.03,2,0,0.08,0.08,243,14.29,0.08,0.06,20.08,LANDED,X10-G,0:/Integrated Flight Computer/aircraft/x10_g_cfg.ks (inferred preloaded)
21.28,TAKEOFF,TO_GROUND_ROLL,56.25,80,23.75,3.61,-0.28,-0.31,-0.03,88.74,0.091,1,0,0,0,0,0,0,0,0,0,90.76,0,1,0,-0.29,0,0,0.03,90,0,0,0,0,0,0,0,0,0.367,0,0,0,0,90.76,1,0.367,-2.018,0.0951,1,0,0.0951,0,0,0,0,0,0,2,2,0,0,VALID,0,0,0,0,0,1,0,0,0,0,0,0,0,0,0,0,0,0,0,0,859.19,879.86,2,0,0.08,0.08,247,14.29,0.08,0.06,20.36,LANDED,X10-G,0:/Integrated Flight Computer/aircraft/x10_g_cfg.ks (inferred preloaded)
21.56,TAKEOFF,TO_GROUND_ROLL,57.72,80,22.28,3.61,-0.29,-0.31,-0.03,88.75,0.09,1,0,0,0,0,0,0,0,0,0,90.78,0,1,0,-0.28,0,0,0.03,90,0,0,0,0,0,0,0,0,0.385,0,0,0,0,90.78,1,0.385,-2.026,0.0954,1,0,0.0954,0,0,0,0,0,0,2,2,0,0,VALID,0,0,0,0,0,1,0,0,0,0,0,0,0,0,0,0,0,0,0,0,860.17,879.72,2,0,0.08,0.08,251,14.29,0.08,0.06,20.64,LANDED,X10-G,0:/Integrated Flight Computer/aircraft/x10_g_cfg.ks (inferred preloaded)
21.84,TAKEOFF,TO_GROUND_ROLL,59.2,80,20.8,3.61,-0.29,-0.3,-0.03,88.76,0.09,1,0,0,0,0,0,0,0,0,0,90.8,0,1,0,-0.28,0,0,0.03,90,0,0,0,0,0,0,0,0,0.404,0,0,0,0,90.8,1,0.404,-2.033,0.0958,1,0,0.0958,0,0,0,0,0,0,2,2,0,0,VALID,0,0,0,0,0,1,0,0,0,0,0,0,0,0,0,0,0,0,0,0,861.11,879.59,2,0,0.08,0.08,255,14.29,0.08,0.06,20.92,LANDED,X10-G,0:/Integrated Flight Computer/aircraft/x10_g_cfg.ks (inferred preloaded)
22.12,TAKEOFF,TO_GROUND_ROLL,60.68,80,19.32,3.61,-0.3,-0.3,-0.03,88.77,0.089,1,0,0,0,0,0,0,0,0,0,90.82,0,1,0,-0.28,0,0,0.04,90,0,0,0,0,0,0,0,0,0.422,0,0,0,0,90.82,1,0.422,-2.041,0.0961,1,0,0.0961,0,0,0,0,0,0,2,2,0,0,VALID,0,0,0,0,0,1,0,0,0,0,0,0,0,0,0,0,0,0,0,0,862.01,879.47,2,0,0.08,0.08,259,14.29,0.08,0.06,21.2,LANDED,X10-G,0:/Integrated Flight Computer/aircraft/x10_g_cfg.ks (inferred preloaded)
22.4,TAKEOFF,TO_GROUND_ROLL,62.16,80,17.84,3.61,-0.3,-0.3,-0.03,88.79,0.089,1,0,0,0,0,0,0,0,0,0,90.83,0,1,0,-0.28,0,0,0.04,90,0,0,0,0,0,0,0,0,0.441,0,0,0,0,90.83,1,0.441,-2.048,0.0964,1,0,0.0964,0,0,0,0,0,0,2,2,0,0,VALID,0,0,0,0,0,1,0,0,0,0,0,0,0,0,0,0,0,0,0,0,862.87,879.38,2,0,0.08,0.08,263,14.29,0.08,0.06,21.48,LANDED,X10-G,0:/Integrated Flight Computer/aircraft/x10_g_cfg.ks (inferred preloaded)
22.68,TAKEOFF,TO_GROUND_ROLL,63.64,80,16.36,3.61,-0.31,-0.3,-0.04,88.8,0.089,1,0,0,0,0,0,0,0,0,0,90.85,0,1,0,-0.28,0,0,0.04,90,0,0,0,0,0,0,0,0,0.461,0,0,0,0,90.85,1,0.461,-2.055,0.0967,1,0,0.0967,0,0,0,0,0,0,2,2,0,0,VALID,0,0,0,0,0,1,0,0,0,0,0,0,0,0,0,0,0,0,0,0,863.7,879.31,2,0,0.08,0.08,267,14.29,0.08,0.06,21.76,LANDED,X10-G,0:/Integrated Flight Computer/aircraft/x10_g_cfg.ks (inferred preloaded)
22.96,TAKEOFF,TO_GROUND_ROLL,65.12,80,14.88,3.61,-0.31,-0.3,-0.04,88.81,0.088,1,0,0,0,0,0,0,0,0,0,90.87,0,1,0,-0.27,0,0,0.04,90,0,0,0,0,0,0,0,0,0.48,0,0,0,0,90.87,1,0.48,-2.063,0.097,1,0,0.097,0,0,0,0,0,0,2,2,0,0,VALID,0,0,0,0,0,1,0,0,0,0,0,0,0,0,0,0,0,0,0,0,864.5,879.26,2,0,0.08,0.08,271,14.29,0.08,0.06,22.04,LANDED,X10-G,0:/Integrated Flight Computer/aircraft/x10_g_cfg.ks (inferred preloaded)
23.24,TAKEOFF,TO_GROUND_ROLL,66.6,80,13.4,3.61,-0.32,-0.3,-0.04,88.82,0.087,1,0,0,0,0,0,0,0,0,0,90.89,0,1,0,-0.27,0,0,0.04,90,0,0,0,0,0,0,0,0,0.5,0,0,0,0,90.89,1,0.5,-2.07,0.0974,1,0,0.0974,0,0,0,0,0,0,2,2,0,0,VALID,0,0,0,0,0,1,0,0,0,0,0,0,0,0,0,0,0,0,0,0,865.28,879.24,2,0,0.08,0.08,275,14.29,0.08,0.06,22.32,LANDED,X10-G,0:/Integrated Flight Computer/aircraft/x10_g_cfg.ks (inferred preloaded)
23.52,TAKEOFF,TO_GROUND_ROLL,68.09,80,11.91,3.61,-0.32,-0.3,-0.04,88.84,0.087,1,0,0,0,0,0,0,0,0,0,90.91,0,1,0,-0.27,0,0,0.05,90,0,0,0,0,0,0,0,0,0.52,0,0,0,0,90.91,1,0.52,-2.077,0.0976,1,0,0.0976,0,0,0,0,0,0,2,2,0,0,VALID,0,0,0,0,0,1,0,0,0,0,0,0,0,0,0,0,0,0,0,0,866.04,879.23,2,0,0.08,0.08,279,14.29,0.08,0.06,22.6,LANDED,X10-G,0:/Integrated Flight Computer/aircraft/x10_g_cfg.ks (inferred preloaded)
23.8,TAKEOFF,TO_GROUND_ROLL,69.57,80,10.43,3.6,-0.47,-0.32,0.05,88.85,0.088,1,0,0,0,0,0,0,0,0,0,90.93,0,1,0,-0.38,0,0,0.05,90,0,0,0,0,0,0,0,0,0.54,0,0,0,0,90.93,1,0.54,-2.082,0.0977,1,0,0.0977,0,0,0,0,0,0,2,2,0,0,VALID,0,0,0,0,0,1,0,0,0,0,0,0,0,0,0,0,0,0,0,0,866.93,879.44,2,0,0.08,0.08,283,14.29,0.08,0.06,22.88,LANDED,X10-G,0:/Integrated Flight Computer/aircraft/x10_g_cfg.ks (inferred preloaded)
24.08,TAKEOFF,TO_GROUND_ROLL,71.06,80,8.94,3.62,-0.26,-0.24,-0.04,88.87,0.082,1,0,0,0,0,0,0,0,0,0,90.95,0,1,0,-0.21,0,0,0.05,90,0,0,0,0,0,0,0,0,0.561,0,0,0,0,90.95,1,0.561,-2.086,0.0978,1,0,0.0978,0,0,0,0,0,0,2,2,0,0,VALID,0,0,0,0,0,1,0,0,0,0,0,0,0,0,0,0,0,0,0,0,868.14,879.99,2,0,0.08,0.08,287,14.29,0.08,0.06,23.16,LANDED,X10-G,0:/Integrated Flight Computer/aircraft/x10_g_cfg.ks (inferred preloaded)
24.36,TAKEOFF,TO_GROUND_ROLL,72.55,80,7.45,3.59,-0.36,-0.34,-0.07,88.88,0.086,1,0,0,0,0,0,0,0,0,0,90.97,0,1,0,-0.28,0,0,0.05,90,0,0,0,0,0,0,0,0,0.581,0,0,0,0,90.97,1,0.581,-2.092,0.0982,1,0,0.0982,0,0,0,0,0,0,2,2,0,0,VALID,0,0,0,0,0,1,0,0,0,0,0,0,0,0,0,0,0,0,0,0,869.64,880.88,2,0,0.08,0.08,291,14.29,0.08,0.06,23.44,LANDED,X10-G,0:/Integrated Flight Computer/aircraft/x10_g_cfg.ks (inferred preloaded)
24.64,TAKEOFF,TO_GROUND_ROLL,74.04,80,5.96,3.62,-0.34,-0.26,0,88.9,0.085,1,0,0,0,0,0,0,0,0,0,90.99,0,1,0,-0.26,0,0,0.05,90,0,0,0,0,0,0,0,0,0.602,0,0,0,0,90.99,1,0.602,-2.093,0.098,1,0,0.098,0,0,0,0,0,0,2,2,0,0,VALID,0,0,0,0,0,1,0,0,0,0,0,0,0,0,0,0,0,0,0,0,871.43,882.1,2,0,0.08,0.08,295,14.29,0.08,0.06,23.72,LANDED,X10-G,0:/Integrated Flight Computer/aircraft/x10_g_cfg.ks (inferred preloaded)
24.92,TAKEOFF,TO_GROUND_ROLL,75.53,80,4.47,3.6,-0.33,-0.31,-0.07,88.91,0.082,1,0,0,0,0,0,0,0,0,0,91.01,0,1,0,-0.25,0,0,0.06,90,0,0,0,0,0,0,0,0,0.623,0,0,0,0,91.01,1,0.623,-2.101,0.0986,1,0,0.0986,0,0,0,0,0,0,2,2,0,0,VALID,0,0,0,0,0,1,0,0,0,0,0,0,0,0,0,0,0,0,0,0,873.5,883.63,2,0,0.08,0.08,299,14.29,0.08,0.06,24,LANDED,X10-G,0:/Integrated Flight Computer/aircraft/x10_g_cfg.ks (inferred preloaded)
25.2,TAKEOFF,TO_GROUND_ROLL,77.03,80,2.97,3.61,-0.36,-0.28,-0.02,88.93,0.086,1,0,0,0,0,0,0,0,0,0,91.03,0,1,0,-0.27,0,0,0.06,90,0,0,0,0,0,0,0,0,0.644,0,0,0,0,91.03,1,0.644,-2.103,0.0985,1,0,0.0985,0,0,0,0,0,0,2,2,0,0,VALID,0,0,0,0,0,1,0,0,0,0,0,0,0,0,0,0,0,0,0,0,875.85,885.48,2,0,0.08,0.08,303,14.29,0.08,0.06,24.28,LANDED,X10-G,0:/Integrated Flight Computer/aircraft/x10_g_cfg.ks (inferred preloaded)
25.48,TAKEOFF,TO_GROUND_ROLL,78.53,80,1.47,3.61,-0.34,-0.29,-0.05,88.95,0.082,1,0,0,0,0,0,0,0,0,0,91.05,0,1,0,-0.25,0,0,0.06,90,0,0,0,0,0,0,0,0,0.665,0,0,0,0,91.05,1,0.665,-2.109,0.0989,1,0,0.0989,0,0,0,0,0,0,2,2,0,0,VALID,0,0,0,0,0,1,0,0,0,0,0,0,0,0,0,0,0,0,0,0,878.47,887.62,2,0,0.08,0.08,307,14.29,0.08,0.06,24.56,LANDED,X10-G,0:/Integrated Flight Computer/aircraft/x10_g_cfg.ks (inferred preloaded)
25.76,TAKEOFF,TO_GROUND_ROLL,80.04,80,-0.04,3.61,-0.36,-0.29,-0.04,88.96,0.083,1,0,0,0,0,0,0,0,0,0,91.07,0,1,0,-0.26,0,0,0.06,90,0,0,0,0,0,0,0,0,0.686,0,0,0,0,91.07,1,0.686,-2.112,0.0989,1,0,0.0989,0,0,0,0,0,0,2,2,0,0,VALID,0,0,0,0,0,1,0,0,0,0,0,0,0,0,0,0,0,0,0,0,881.35,890.06,2,0,0.08,0.08,311,14.29,0.08,0.06,24.84,LANDED,X10-G,0:/Integrated Flight Computer/aircraft/x10_g_cfg.ks (inferred preloaded)
26.04,TAKEOFF,TO_GROUND_ROLL,81.55,80,-1.55,3.61,-0.35,-0.28,-0.04,88.98,0.082,1,0,0,0,0,0,0,0,0,0,91.1,0,1,0,-0.25,0,0,0.06,90,0,0,0,0,0,0,0,0,0.707,0,0,0,0,91.1,1,0.707,-2.115,0.099,1,0,0.099,0,0,0,0,0,0,2,2,0,0,VALID,0,0,0,0,0,1,0,0,0,0,0,0,0,0,0,0,0,0,0,0,884.49,892.78,2,0,0.08,0.08,315,14.29,0.08,0.06,25.12,LANDED,X10-G,0:/Integrated Flight Computer/aircraft/x10_g_cfg.ks (inferred preloaded)
26.32,TAKEOFF,TO_GROUND_ROLL,83.07,80,-3.07,3.61,-0.36,-0.28,-0.04,89,0.081,1,0,0,0,0,0,0,0,0,0,91.12,0,1,0,-0.25,0,0,0.07,90,0,0,0,0,0,0,0,0,0.728,0,0,0,0,91.12,1,0.728,-2.118,0.0992,1,0,0.0992,0,0,0,0,0,0,2,2,0,0,VALID,0,0,0,0,0,1,0,0,0,0,0,0,0,0,0,0,0,0,0,0,887.89,895.78,2,0,0.08,0.08,319,14.29,0.08,0.06,25.4,LANDED,X10-G,0:/Integrated Flight Computer/aircraft/x10_g_cfg.ks (inferred preloaded)
26.6,TAKEOFF,TO_GROUND_ROLL,84.59,80,-4.59,3.61,-0.36,-0.28,-0.04,89.02,0.081,1,0,0,0,0,0,0,0,0,0,91.14,0,1,0,-0.25,0,0,0.07,90,0,0,0,0,0,0,0,0,0.749,0,0,0,0,91.14,1,0.749,-2.12,0.0992,1,0,0.0992,0,0,0,0,0,0,2,2,0,0,VALID,0,0,0,0,0,1,0,0,0,0,0,0,0,0,0,0,0,0,0,0,891.53,899.05,2,0,0.08,0.08,323,14.29,0.08,0.06,25.68,LANDED,X10-G,0:/Integrated Flight Computer/aircraft/x10_g_cfg.ks (inferred preloaded)
26.88,TAKEOFF,TO_GROUND_ROLL,86.12,80,-6.12,3.61,-0.36,-0.28,-0.05,89.04,0.08,1,0,0,0,0,0,0,0,0,0,91.16,0,1,0,-0.24,0,0,0.07,90,0,0,0,0,0,0,0,0,0.77,0,0,0,0,91.16,1,0.77,-2.121,0.0992,1,0,0.0992,0,0,0,0,0,0,2,2,0,0,VALID,0,0,0,0,0,1,0,0,0,0,0,0,0,0,0,0,0,0,0,0,895.4,902.57,2,0,0.08,0.08,327,14.29,0.08,0.06,25.96,LANDED,X10-G,0:/Integrated Flight Computer/aircraft/x10_g_cfg.ks (inferred preloaded)
27.16,TAKEOFF,TO_GROUND_ROLL,87.66,80,-7.66,3.61,-0.37,-0.27,-0.04,89.06,0.079,1,0,0,0,0,0,0,0,0,0,91.18,0,1,0,-0.24,0,0,0.07,90,0,0,0,0,0,0,0,0,0.791,0,0,0,0,91.18,1,0.791,-2.122,0.0992,1,0,0.0992,0,0,0,0,0,0,2,2,0,0,VALID,0,0,0,0,0,1,0,0,0,0,0,0,0,0,0,0,0,0,0,0,899.51,906.35,2,0,0.08,0.08,331,14.29,0.08,0.06,26.24,LANDED,X10-G,0:/Integrated Flight Computer/aircraft/x10_g_cfg.ks (inferred preloaded)
27.44,TAKEOFF,TO_GROUND_ROLL,89.2,80,-9.2,3.61,-0.37,-0.27,-0.04,89.08,0.078,1,0,0,0,0,0,0,0,0,0,91.2,0,1,0,-0.24,0,0,0.08,90,0,0,0,0,0,0,0,0,0.812,0,0,0,0,91.2,1,0.812,-2.122,0.0992,1,0,0.0992,0,0,0,0,0,0,2,2,0,0,VALID,0,0,0,0,0,1,0,0,0,0,0,0,0,0,0,0,0,0,0,0,903.85,910.37,2,0,0.08,0.08,335,14.29,0.08,0.06,26.52,LANDED,X10-G,0:/Integrated Flight Computer/aircraft/x10_g_cfg.ks (inferred preloaded)
27.72,TAKEOFF,TO_GROUND_ROLL,90.75,80,-10.75,3.61,-0.37,-0.27,-0.04,89.1,0.078,1,0,0,0,0,0,0,0,0,0,91.22,0,1,0,-0.24,0,0,0.08,90,0,0,0,0,0,0,0,0,0.833,0,0,0,0,91.22,1,0.833,-2.122,0.0991,1,0,0.0991,0,0,0,0,0,0,2,2,0,0,VALID,0,0,0,0,0,1,0,0,0,0,0,0,0,0,0,0,0,0,0,0,908.4,914.63,2,0,0.08,0.08,339,14.29,0.08,0.06,26.8,LANDED,X10-G,0:/Integrated Flight Computer/aircraft/x10_g_cfg.ks (inferred preloaded)
28,TAKEOFF,TO_GROUND_ROLL,92.31,80,-12.31,3.61,-0.37,-0.27,-0.05,89.12,0.075,1,0,0,0,0,0,0,0,0,0,91.24,0,1,0,-0.23,0,0,0.08,90,0,0,0,0,0,0,0,0,0.854,0,0,0,0,91.24,1,0.854,-2.121,0.099,1,0,0.099,0,0,0,0,0,0,2,2,0,0,VALID,0,0,0,0,0,1,0,0,0,0,0,0,0,0,0,0,0,0,0,0,913.16,919.11,2,0,0.08,0.08,343,14.29,0.08,0.06,27.08,LANDED,X10-G,0:/Integrated Flight Computer/aircraft/x10_g_cfg.ks (inferred preloaded)
28.28,TAKEOFF,TO_GROUND_ROLL,93.88,80,-13.88,3.61,-0.38,-0.27,-0.05,89.14,0.073,1,0,0,0,0,0,0,0,0,0,91.26,0,1,0,-0.23,0,0,0.08,90,0,0,0,0,0,0,0,0,0.874,0,0,0,0,91.26,1,0.874,-2.119,0.0988,1,0,0.0988,0,0,0,0,0,0,2,2,0,0,VALID,0,0,0,0,0,1,0,0,0,0,0,0,0,0,0,0,0,0,0,0,918.13,923.82,2,0,0.08,0.08,347,14.29,0.08,0.06,27.36,LANDED,X10-G,0:/Integrated Flight Computer/aircraft/x10_g_cfg.ks (inferred preloaded)
28.56,TAKEOFF,TO_GROUND_ROLL,95.45,80,-15.45,3.61,-0.38,-0.27,-0.05,89.16,0.071,1,0,0,0,0,0,0,0,0,0,91.28,0,1,0,-0.23,0,0,0.09,90,0,0,0,0,0,0,0,0,0.895,0,0,0,0,91.28,1,0.895,-2.117,0.0988,1,0,0.0988,0,0,0,0,0,0,2,2,0,0,VALID,0,0,0,0,0,1,0,0,0,0,0,0,0,0,0,0,0,0,0,0,923.3,928.73,2,0,0.08,0.08,351,14.29,0.08,0.06,27.64,LANDED,X10-G,0:/Integrated Flight Computer/aircraft/x10_g_cfg.ks (inferred preloaded)
28.84,TAKEOFF,TO_GROUND_ROLL,97.04,80,-17.04,3.61,-0.38,-0.26,-0.05,89.19,0.069,1,0,0,0,0,0,0,0,0,0,91.3,0,1,0,-0.22,0,0,0.09,90,0,0,0,0,0,0,0,0,0.915,0,0,0,0,91.3,1,0.915,-2.113,0.0985,1,0,0.0985,0,0,0,0,0,0,2,2,0,0,VALID,0,0,0,0,0,1,0,0,0,0,0,0,0,0,0,0,0,0,0,0,928.66,933.85,2,0,0.08,0.08,355,14.29,0.08,0.06,27.92,LANDED,X10-G,0:/Integrated Flight Computer/aircraft/x10_g_cfg.ks (inferred preloaded)
29.12,TAKEOFF,TO_GROUND_ROLL,98.63,80,-18.63,3.61,-0.38,-0.26,-0.05,89.21,0.069,1,0,0,0,0,0,0,0,0,0,91.32,0,1,0,-0.22,0,0,0.09,90,0,0,0,0,0,0,0,0,0.935,0,0,0,0,91.32,1,0.935,-2.109,0.0983,1,0,0.0983,0,0,0,0,0,0,2,2,0,0,VALID,0,0,0,0,0,1,0,0,0,0,0,0,0,0,0,0,0,0,0,0,934.19,939.17,2,0,0.08,0.08,359,14.29,0.08,0.06,28.2,LANDED,X10-G,0:/Integrated Flight Computer/aircraft/x10_g_cfg.ks (inferred preloaded)
29.4,TAKEOFF,TO_GROUND_ROLL,100.24,80,-20.24,3.61,-0.38,-0.26,-0.05,89.23,0.068,1,0,0,0,0,0,0,0,0,0,91.34,0,1,0,-0.22,0,0,0.09,90,0,0,0,0,0,0,0,0,0.954,0,0,0,0,91.34,1,0.954,-2.104,0.0979,1,0,0.0979,0,0,0,0,0,0,2,2,0,0,VALID,0,0,0,0,0,1,0,0,0,0,0,0,0,0,0,0,0,0,0,0,939.9,944.66,2,0,0.08,0.08,363,14.29,0.08,0.06,28.48,LANDED,X10-G,0:/Integrated Flight Computer/aircraft/x10_g_cfg.ks (inferred preloaded)
29.68,TAKEOFF,TO_GROUND_ROLL,101.85,80,-21.85,3.61,-0.4,-0.27,-0.05,89.26,0.068,1,0,0,0,0,0,0,0,0,0,91.36,0,1,0,-0.22,0,0,0.1,90,0,0,0,0,0,0,0,0,0.974,0,0,0,0,91.36,1,0.974,-2.099,0.0978,1,0,0.0978,0,0,0,0,0,0,2,2,0,0,VALID,0,0,0,0,0,1,0,0,0,0,0,0,0,0,0,0,0,0,0,0,945.78,950.34,2,0,0.08,0.08,367,14.29,0.08,0.06,28.76,LANDED,X10-G,0:/Integrated Flight Computer/aircraft/x10_g_cfg.ks (inferred preloaded)
29.96,TAKEOFF,TO_GROUND_ROLL,103.48,80,-23.48,3.61,-0.38,-0.25,-0.05,89.29,0.066,1,0,0,0,0,0,0,0,0,0,91.37,0,1,0,-0.21,0,0,0.1,90,0,0,0,0,0,0,0,0,0.993,0,0,0,0,91.37,1,0.993,-2.088,0.0969,1,0,0.0969,0,0,0,0,0,0,2,2,0,0,VALID,0,0,0,0,0,1,0,0,0,0,0,0,0,0,0,0,0,0,0,0,951.81,956.18,2,0,0.08,0.08,371,14.29,0.08,0.06,29.04,LANDED,X10-G,0:/Integrated Flight Computer/aircraft/x10_g_cfg.ks (inferred preloaded)
30.24,TAKEOFF,TO_GROUND_ROLL,105.11,80,-25.11,3.61,-0.38,-0.26,-0.06,89.31,0.064,1,0,0,0,0,0,0,0,0,0,91.4,0,1,0,-0.21,0,0,0.1,90,0,0,0,0,0,0,0,0,1.012,0,0,0,0,91.4,1,1.012,-2.083,0.097,1,0,0.097,0,0,0,0,0,0,2,2,0,0,VALID,0,0,0,0,0,1,0,0,0,0,0,0,0,0,0,0,0,0,0,0,957.98,962.17,2,0,0.08,0.08,375,14.29,0.08,0.06,29.32,LANDED,X10-G,0:/Integrated Flight Computer/aircraft/x10_g_cfg.ks (inferred preloaded)
30.52,TAKEOFF,TO_GROUND_ROLL,106.76,80,-26.76,3.61,-0.39,-0.25,-0.05,89.34,0.067,1,0,0,0,0,0,0,0,0,0,91.41,0,1,0,-0.21,0,0,0.11,90,0,0,0,0,0,0,0,0,1.03,0,0,0,0,91.41,1,1.03,-2.073,0.0962,1,0,0.0962,0,0,0,0,0,0,2,2,0,0,VALID,0,0,0,0,0,1,0,0,0,0,0,0,0,0,0,0,0,0,0,0,964.29,968.31,2,0,0.08,0.08,379,14.29,0.08,0.06,29.6,LANDED,X10-G,0:/Integrated Flight Computer/aircraft/x10_g_cfg.ks (inferred preloaded)
30.8,TAKEOFF,TO_GROUND_ROLL,108.42,80,-28.42,3.61,-0.38,-0.25,-0.05,89.37,0.063,1,0,0,0,0,0,0,0,0,0,91.43,0,1,0,-0.2,0,0,0.11,90,0,0,0,0,0,0,0,0,1.048,0,0,0,0,91.43,1,1.048,-2.064,0.0958,1,0,0.0958,0,0,0,0,0,0,2,2,0,0,VALID,0,0,0,0,0,1,0,0,0,0,0,0,0,0,0,0,0,0,0,0,970.73,974.58,2,0,0.08,0.08,383,14.29,0.08,0.06,29.88,LANDED,X10-G,0:/Integrated Flight Computer/aircraft/x10_g_cfg.ks (inferred preloaded)
31.08,TAKEOFF,TO_GROUND_ROLL,110.08,80,-30.08,3.61,-0.39,-0.25,-0.06,89.39,0.064,1,0,0,0,0,0,0,0,0,0,91.45,0,1,0,-0.2,0,0,0.11,90,0,0,0,0,0,0,0,0,1.065,0,0,0,0,91.45,1,1.065,-2.053,0.0953,1,0,0.0953,0,0,0,0,0,0,2,2,0,0,VALID,0,0,0,0,0,1,0,0,0,0,0,0,0,0,0,0,0,0,0,0,977.28,980.97,2,0,0.08,0.08,387,14.29,0.08,0.06,30.16,LANDED,X10-G,0:/Integrated Flight Computer/aircraft/x10_g_cfg.ks (inferred preloaded)
31.36,TAKEOFF,TO_GROUND_ROLL,111.76,80,-31.76,3.61,-0.38,-0.24,-0.05,89.42,0.063,1,0,0,0,0,0,0,0,0,0,91.46,0,1,0,-0.2,0,0,0.11,90,0,0,0,0,0,0,0,0,1.082,0,0,0,0,91.46,1,1.082,-2.04,0.0946,1,0,0.0946,0,0,0,0,0,0,2,2,0,0,VALID,0,0,0,0,0,1,0,0,0,0,0,0,0,0,0,0,0,0,0,0,983.93,987.47,2,0,0.08,0.08,391,14.29,0.08,0.06,30.44,LANDED,X10-G,0:/Integrated Flight Computer/aircraft/x10_g_cfg.ks (inferred preloaded)
31.64,TAKEOFF,TO_GROUND_ROLL,113.46,80,-33.46,3.61,-0.38,-0.25,-0.06,89.45,0.062,1,0,0,0,0,0,0,0,0,0,91.48,0,1,0,-0.19,0,0,0.12,90,0,0,0,0,0,0,0,0,1.098,0,0,0,0,91.48,1,1.098,-2.028,0.094,1,0,0.094,0,0,0,0,0,0,2,2,0,0,VALID,0,0,0,0,0,1,0,0,0,0,0,0,0,0,0,0,0,0,0,0,990.67,994.07,2,0,0.08,0.08,395,14.29,0.08,0.06,30.72,LANDED,X10-G,0:/Integrated Flight Computer/aircraft/x10_g_cfg.ks (inferred preloaded)
31.92,TAKEOFF,TO_GROUND_ROLL,115.16,80,-35.16,3.61,-0.38,-0.24,-0.06,89.48,0.062,1,0,0,0,0,0,0,0,0,0,91.49,0,1,0,-0.19,0,0,0.12,90,0,0,0,0,0,0,0,0,1.114,0,0,0,0,91.49,1,1.114,-2.013,0.0932,1,0,0.0932,0,0,0,0,0,0,2,2,0,0,VALID,0,0,0,0,0,1,0,0,0,0,0,0,0,0,0,0,0,0,0,0,997.49,1000.76,2,0,0.08,0.08,399,14.29,0.08,0.06,31,LANDED,X10-G,0:/Integrated Flight Computer/aircraft/x10_g_cfg.ks (inferred preloaded)
32.2,TAKEOFF,TO_GROUND_ROLL,116.88,80,-36.88,3.61,-0.38,-0.24,-0.06,89.51,0.06,1,0,0,0,0,0,0,0,0,0,91.51,0,1,0,-0.19,0,0,0.12,90,0,0,0,0,0,0,0,0,1.129,0,0,0,0,91.51,1,1.129,-1.998,0.0925,1,0,0.0925,0,0,0,0,0,0,2,2,0,0,VALID,0,0,0,0,0,1,0,0,0,0,0,0,0,0,0,0,0,0,0,0,1004.37,1007.51,2,0,0.08,0.08,403,14.29,0.08,0.06,31.28,LANDED,X10-G,0:/Integrated Flight Computer/aircraft/x10_g_cfg.ks (inferred preloaded)
32.48,TAKEOFF,TO_GROUND_ROLL,118.61,80,-38.61,3.61,-0.38,-0.24,-0.06,89.54,0.06,1,0,0,0,0,0,0,0,0,0,91.52,0,1,0,-0.18,0,0,0.13,90,0,0,0,0,0,0,0,0,1.143,0,0,0,0,91.52,1,1.143,-1.98,0.0915,1,0,0.0915,0,0,0,0,0,0,2,2,0,0,VALID,0,0,0,0,0,1,0,0,0,0,0,0,0,0,0,0,0,0,0,0,1011.31,1014.32,2,0,0.08,0.08,407,14.29,0.08,0.06,31.56,LANDED,X10-G,0:/Integrated Flight Computer/aircraft/x10_g_cfg.ks (inferred preloaded)
32.76,TAKEOFF,TO_GROUND_ROLL,120.35,80,-40.35,3.61,-0.38,-0.24,-0.06,89.57,0.059,1,0,0,0,0,0,0,0,0,0,91.54,0,1,0,-0.18,0,0,0.13,90,0,0,0,0,0,0,0,0,1.157,0,0,0,0,91.54,1,1.157,-1.962,0.0907,1,0,0.0907,0,0,0,0,0,0,2,2,0,0,VALID,0,0,0,0,0,1,0,0,0,0,0,0,0,0,0,0,0,0,0,0,1018.27,1021.17,2,0,0.08,0.08,411,14.29,0.08,0.06,31.84,LANDED,X10-G,0:/Integrated Flight Computer/aircraft/x10_g_cfg.ks (inferred preloaded)
33.04,TAKEOFF,TO_GROUND_ROLL,122.1,80,-42.1,3.61,-0.38,-0.23,-0.06,89.61,0.058,1,0,0,0,0,0,0,0,0,0,91.55,0,1,0,-0.18,0,0,0.13,90,0,0,0,0,0,0,0,0,1.169,0,0,0,0,91.55,1,1.169,-1.943,0.0897,1,0,0.0897,0,0,0,0,0,0,2,2,0,0,VALID,0,0,0,0,0,1,0,0,0,0,0,0,0,0,0,0,0,0,0,0,1025.26,1028.04,2,0,0.08,0.08,415,14.29,0.08,0.06,32.12,LANDED,X10-G,0:/Integrated Flight Computer/aircraft/x10_g_cfg.ks (inferred preloaded)
33.32,TAKEOFF,TO_GROUND_ROLL,123.87,80,-43.87,3.61,-0.37,-0.23,-0.06,89.64,0.058,1,0,0,0,0,0,0,0,0,0,91.56,0,1,0,-0.17,0,0,0.14,90,0,0,0,0,0,0,0,0,1.181,0,0,0,0,91.56,1,1.181,-1.922,0.0886,1,0,0.0886,0,0,0,0,0,0,2,2,0,0,VALID,0,0,0,0,0,1,0,0,0,0,0,0,0,0,0,0,0,0,0,0,1032.26,1034.93,2,0,0.08,0.08,419,14.29,0.08,0.06,32.4,LANDED,X10-G,0:/Integrated Flight Computer/aircraft/x10_g_cfg.ks (inferred preloaded)
33.6,TAKEOFF,TO_GROUND_ROLL,125.65,80,-45.65,3.61,-0.37,-0.23,-0.06,89.67,0.057,1,0,0,0,0,0,0,0,0,0,91.57,0,1,0,-0.17,0,0,0.14,90,0,0,0,0,0,0,0,0,1.193,0,0,0,0,91.57,1,1.193,-1.9,0.0876,1,0,0.0876,0,0,0,0,0,0,2,2,0,0,VALID,0,0,0,0,0,1,0,0,0,0,0,0,0,0,0,0,0,0,0,0,1039.24,1041.8,2,0,0.08,0.08,423,14.29,0.08,0.06,32.68,LANDED,X10-G,0:/Integrated Flight Computer/aircraft/x10_g_cfg.ks (inferred preloaded)
33.88,TAKEOFF,TO_GROUND_ROLL,127.44,80,-47.44,3.61,-0.36,-0.22,-0.07,89.7,0.056,1,0,0,0,0,0,0,0,0,0,91.58,0,1,0,-0.16,0,0,0.14,90,0,0,0,0,0,0,0,0,1.203,0,0,0,0,91.58,1,1.203,-1.876,0.0864,1,0,0.0864,0,0,0,0,0,0,2,2,0,0,VALID,0,0,0,0,0,1,0,0,0,0,0,0,0,0,0,0,0,0,0,0,1046.18,1048.64,2,0,0.08,0.08,427,14.29,0.08,0.06,32.96,LANDED,X10-G,0:/Integrated Flight Computer/aircraft/x10_g_cfg.ks (inferred preloaded)
34.16,TAKEOFF,TO_GROUND_ROLL,129.24,80,-49.24,3.6,-0.37,-0.23,-0.07,89.74,0.056,1,0,0,0,0,0,0,0,0,0,91.59,0,1,0,-0.16,0,0,0.15,90,0,0,0,0,0,0,0,0,1.212,0,0,0,0,91.59,1,1.212,-1.852,0.0852,1,0,0.0852,0,0,0,0,0,0,2,2,0,0,VALID,0,0,0,0,0,1,0,0,0,0,0,0,0,0,0,0,0,0,0,0,1053.08,1055.45,2,0,0.08,0.08,431,14.29,0.08,0.06,33.24,LANDED,X10-G,0:/Integrated Flight Computer/aircraft/x10_g_cfg.ks (inferred preloaded)
34.46,TAKEOFF,TO_ROTATE,131.19,80,-51.19,3.61,-0.37,-0.22,-0.06,89.77,0.054,1,0,0,0,0,0,0,0,0,0,91.6,0.286,1,0,-0.16,0,0,0.15,90,0,0,0,0,0,0,0,0,1.221,0,0,0,0,91.6,1,1.221,-1.832,0.0848,1,0,0.0848,0,0.1454,0.286,0.503,0.08,0,2,2,0,0,VALID,0,0,0,0,0,1,0,0,0,0,0,0,0,0,0,0,0,0,0,0,1060.51,1062.79,2,0,0.08,0.08,435,13.33,0.08,0.06,33.52,LANDED,X10-G,0:/Integrated Flight Computer/aircraft/x10_g_cfg.ks (inferred preloaded)
34.74,TAKEOFF,TO_ROTATE,133.02,80,-53.02,3.61,-0.37,-0.19,-0.03,89.8,0.063,1,0,0,0,0,0,0,0,0,0,91.61,1.294,1,0,-0.16,0,0,0.16,90,0,0,0,0,0,0,0,0,1.228,0,0,0,0,91.61,1,1.228,-1.812,0.0838,1,0,0.0838,0,0.2726,1.294,1.482,0.08,0,2,2,0,0,VALID,0,0,0,0,0,1,0,0,0,0,0,0,0,0,0,0,0,0,0,0,1067.58,1069.77,2,0,0.08,0.08,439,14.29,0.08,0.06,33.8,LANDED,X10-G,0:/Integrated Flight Computer/aircraft/x10_g_cfg.ks (inferred preloaded)
35.02,TAKEOFF,TO_ROTATE,134.86,80,-54.86,3.62,-0.36,-0.16,-0.02,89.82,0.06,1,0,0,0,0,0,0,0,0,0,91.62,2.302,1,0,-0.15,0,0,0.16,90,0,0,0,0,0,0,0,0,1.235,0,0,0,0,91.62,1,1.235,-1.797,0.0835,1,0,0.0835,0,0.4006,2.302,2.466,0.08,0,2,2,0,0,VALID,0,0,0,0,0,1,0,0,0,0,0,0,0,0,0,0,0,0,0,0,1074.76,1076.89,2,0,0.08,0.08,443,14.29,0.08,0.06,34.08,LANDED,X10-G,0:/Integrated Flight Computer/aircraft/x10_g_cfg.ks (inferred preloaded)
35.3,TAKEOFF,TO_ROTATE,136.71,80,-56.71,3.62,-0.36,-0.14,0.01,89.84,0.067,1,0,0,0,0,0,0,0,0,0,91.63,3.31,1,0,-0.15,0,0,0.16,90,0,0,0,0,0,0,0,0,1.24,0,0,0,0,91.63,1,1.24,-1.787,0.0835,1,0,0.0835,0,0.5285,3.31,3.45,0.08,0,2,2,0,0,VALID,0,0,0,0,0,1,0,0,0,0,0,0,0,0,0,0,0,0,0,0,1082.07,1084.12,2,0,0.08,0.08,447,14.29,0.08,0.06,34.36,LANDED,X10-G,0:/Integrated Flight Computer/aircraft/x10_g_cfg.ks (inferred preloaded)
35.58,TAKEOFF,TO_ROTATE,138.57,80,-58.57,3.63,-0.35,-0.11,0.03,89.86,0.071,1,0,0,0,0,0,0,0,0,0,91.64,4.318,1,0,-0.15,0,0,0.17,90,0,0,0,0,0,0,0,0,1.246,0,0,0,0,91.64,1,1.246,-1.778,0.0833,1,0,0.0833,0,0.6556,4.318,4.428,0.08,0,2,2,0,0,VALID,0,0,0,0,0,1,0,0,0,0,0,0,0,0,0,0,0,0,0,0,1089.48,1091.47,2,0,0.08,0.08,451,14.29,0.08,0.06,34.64,LANDED,X10-G,0:/Integrated Flight Computer/aircraft/x10_g_cfg.ks (inferred preloaded)
35.86,TAKEOFF,TO_ROTATE,140.44,80,-60.44,3.63,-0.35,-0.09,0.05,89.87,0.073,1,0,0,0,0,0,0,0,0,0,91.64,5.326,1,0,-0.14,0,0,0.17,90,0,0,0,0,0,0,0,0,1.25,0,0,0,0,91.64,1,1.25,-1.77,0.083,1,0,0.083,0,0.72,5.326,5.412,0.08,0,2,2,0,0,VALID,0,0,0,0,0,1,0,0,0,0,0,0,0,0,0,0,0,0,0,0,1096.99,1098.92,2,0,0.08,0.08,455,14.29,0.08,0.06,34.92,LANDED,X10-G,0:/Integrated Flight Computer/aircraft/x10_g_cfg.ks (inferred preloaded)
36.14,TAKEOFF,TO_ROTATE,142.31,80,-62.31,3.63,-0.34,-0.07,0.06,89.89,0.073,1,0,0,0,0,0,0,0,0,0,91.64,6.334,1,0,-0.13,0,0,0.17,90,0,0,0,0,0,0,0,0,1.255,0,0,0,0,91.64,1,1.255,-1.759,0.0824,1,0,0.0824,0,0.72,6.334,6.404,0.08,0,2,2,0,0,VALID,0,0,0,0,0,1,0,0,0,0,0,0,0,0,0,0,0,0,0,0,1104.61,1106.47,2,0,0.08,0.08,459,14.29,0.08,0.06,35.2,LANDED,X10-G,0:/Integrated Flight Computer/aircraft/x10_g_cfg.ks (inferred preloaded)
36.42,TAKEOFF,TO_ROTATE,144.19,80,-64.19,3.63,-0.34,-0.07,0.06,89.9,0.074,1,0,0,0,0,0,0,0,0,0,91.65,7.342,1,0,-0.13,0,0,0.18,90,0,0,0,0,0,0,0,0,1.258,0,0,0,0,91.65,1,1.258,-1.746,0.0816,1,0,0.0816,0,0.72,7.342,7.412,0.08,0,2,2,0,0,VALID,0,0,0,0,0,1,0,0,0,0,0,0,0,0,0,0,0,0,0,0,1112.34,1114.15,2,0,0.08,0.08,463,14.29,0.08,0.06,35.48,LANDED,X10-G,0:/Integrated Flight Computer/aircraft/x10_g_cfg.ks (inferred preloaded)
36.7,TAKEOFF,TO_ROTATE,146.08,80,-66.08,3.64,-0.33,-0.06,0.07,89.92,0.072,1,0,0,0,0,0,0,0,0,0,91.65,8.35,1,0,-0.13,0,0,0.18,90,0,0,0,0,0,0,0,0,1.262,0,0,0,0,91.65,1,1.262,-1.733,0.081,1,0,0.081,0,0.72,8.35,8.41,0.08,0,2,2,0,0,VALID,0,0,0,0,0,1,0,0,0,0,0,0,0,0,0,0,0,0,0,0,1120.2,1121.96,2,0,0.08,0.08,467,14.29,0.08,0.06,35.76,LANDED,X10-G,0:/Integrated Flight Computer/aircraft/x10_g_cfg.ks (inferred preloaded)
36.98,TAKEOFF,TO_ROTATE,147.99,80,-67.99,3.64,-0.32,-0.06,0.06,89.93,0.073,1,0,0,0,0,0,0,0,0,0,91.65,9.358,1,0,-0.12,0,0,0.19,90,0,0,0,0,0,0,0,0,1.264,0,0,0,0,91.65,1,1.264,-1.721,0.0805,1,0,0.0805,0,0.72,9.358,9.416,0.08,0,2,2,0,0,VALID,0,0,0,0,0,1,0,0,0,0,0,0,0,0,0,0,0,0,0,0,1128.19,1129.9,2,0,0.08,0.08,471,14.29,0.08,0.06,36.04,LANDED,X10-G,0:/Integrated Flight Computer/aircraft/x10_g_cfg.ks (inferred preloaded)
37.26,TAKEOFF,TO_ROTATE,149.91,80,-69.91,3.64,-0.32,-0.05,0.07,89.95,0.073,1,0,0,0,0,0,0,0,0,0,91.66,10.366,1,0,-0.12,0,0,0.19,90,0,0,0,0,0,0,0,0,1.266,0,0,0,0,91.66,1,1.266,-1.706,0.0797,1,0,0.0797,0,0.72,10.366,10.417,0.08,0,2,2,0,0,VALID,0,0,0,0,0,1,0,0,0,0,0,0,0,0,0,0,0,0,0,0,1136.32,1137.99,2,0,0.08,0.08,475,14.29,0.08,0.06,36.32,LANDED,X10-G,0:/Integrated Flight Computer/aircraft/x10_g_cfg.ks (inferred preloaded)
37.54,TAKEOFF,TO_ROTATE,151.85,80,-71.85,3.64,-0.3,-0.04,0.08,89.97,0.071,1,0,0,0,0,0,0,0,0,0,91.66,11.374,1,0,-0.12,0,0,0.19,90,0,0,0,0,0,0,0,0,1.268,0,0,0,0,91.66,1,1.268,-1.69,0.0789,1,0,0.0789,0,0.72,11.374,11.41,0.08,0,2,2,0,0,VALID,0,0,0,0,0,1,0,0,0,0,0,0,0,0,0,0,0,0,0,0,1144.59,1146.22,2,0,0.08,0.08,479,14.29,0.08,0.06,36.6,LANDED,X10-G,0:/Integrated Flight Computer/aircraft/x10_g_cfg.ks (inferred preloaded)
37.82,TAKEOFF,TO_ROTATE,153.8,80,-73.8,3.65,-0.3,-0.03,0.08,89.98,0.073,1,0,0,0,0,0,0,0,0,0,91.66,11.5,1,0,-0.11,0,0,0.2,90,0,0,0,0,0,0,0,0,1.269,0,0,0,0,91.66,1,1.269,-1.679,0.0786,1,0,0.0786,0,0.72,11.5,11.525,0.08,0,2,2,0,0,VALID,0,0,0,0,0,1,0,0,0,0,0,0,0,0,0,0,0,0,0,0,1153.01,1154.6,2,0,0.08,0.08,483,14.29,0.08,0.06,36.88,LANDED,X10-G,0:/Integrated Flight Computer/aircraft/x10_g_cfg.ks (inferred preloaded)
38.1,TAKEOFF,TO_ROTATE,155.76,80,-75.76,3.64,-0.3,-0.03,0.08,90,0.073,1,0,0,0,0,0,0,0,0,0,91.66,11.5,1,0,-0.11,0,0,0.2,90,0,0,0,0,0,0,0,0,1.269,0,0,0,0,91.66,1,1.269,-1.656,0.0771,1,0,0.0771,0,0.72,11.5,11.531,0.08,0,2,2,0,0,VALID,0,0,0,0,0,1,0,0,0,0,0,0,0,0,0,0,0,0,0,0,1161.56,1163.12,2,0,0.08,0.08,487,14.29,0.08,0.06,37.16,LANDED,X10-G,0:/Integrated Flight Computer/aircraft/x10_g_cfg.ks (inferred preloaded)
38.38,TAKEOFF,TO_ROTATE,157.74,80,-77.74,3.64,-0.28,-0.03,0.07,90.02,0.068,1,0,0,0,0,0,0,0,0,0,91.66,11.5,1,0,-0.1,0,0,0.21,90,0,0,0,0,0,0,0,0,1.269,0,0,0,0,91.66,1,1.269,-1.643,0.0768,1,0,0.0768,0,0.72,11.5,11.528,0.08,0,2,2,0,0,VALID,0,0,0,0,0,1,0,0,0,0,0,0,0,0,0,0,0,0,0,0,1170.27,1171.79,2,0,0.08,0.08,491,14.29,0.08,0.06,37.44,LANDED,X10-G,0:/Integrated Flight Computer/aircraft/x10_g_cfg.ks (inferred preloaded)
38.66,TAKEOFF,TO_ROTATE,159.74,80,-79.74,3.64,-0.28,-0.02,0.08,90.03,0.075,1,0,0,0,0,0,0,0,0,0,91.66,11.5,1,0,-0.1,0,0,0.21,90,0,0,0,0,0,0,0,0,1.268,0,0,0,0,91.66,1,1.268,-1.626,0.0759,1,0,0.0759,0,0.72,11.5,11.517,0.08,0,2,2,0,0,VALID,0,0,0,0,0,1,0,0,0,0,0,0,0,0,0,0,0,0,0,0,1179.12,1180.61,2,0,0.08,0.08,495,14.29,0.08,0.06,37.72,LANDED,X10-G,0:/Integrated Flight Computer/aircraft/x10_g_cfg.ks (inferred preloaded)
38.94,TAKEOFF,TO_ROTATE,161.75,80,-81.75,3.65,-0.26,0,0.09,90.05,0.071,1,0,0,0,0,0,0,0,0,0,91.65,11.5,1,0,-0.09,0,0,0.22,90,0,0,0,0,0,0,0,0,1.266,0,0,0,0,91.65,1,1.266,-1.604,0.0747,1,0,0.0747,0,0.72,11.5,11.5,0.08,0,2,2,0,0,VALID,0,0,0,0,0,1,0,0,0,0,0,0,0,0,0,0,0,0,0,0,1188.12,1189.58,2,0,0.08,0.08,499,14.29,0.08,0.06,38,LANDED,X10-G,0:/Integrated Flight Computer/aircraft/x10_g_cfg.ks (inferred preloaded)
39.22,TAKEOFF,TO_ROTATE,163.78,80,-83.78,3.66,-0.26,0.03,0.12,90.07,0.07,1,0,0,0,0,0,0,0,0,0,91.65,11.5,1,0,-0.09,0,0,0.22,90,0,0,0,0,0,0,0,0,1.264,0,0,0,0,91.65,1,1.264,-1.588,0.0742,1,0,0.0742,0,0.72,11.5,11.469,0.08,0,2,2,0,0,VALID,0,0,0,0,0,1,0,0,0,0,0,0,0,0,0,0,0,0,0,0,1197.28,1198.71,2,0,0.08,0.08,503,14.29,0.08,0.06,38.28,LANDED,X10-G,0:/Integrated Flight Computer/aircraft/x10_g_cfg.ks (inferred preloaded)
39.5,TAKEOFF,TO_ROTATE,165.82,80,-85.82,3.67,-0.24,0.08,0.16,90.08,0.072,1,0,0,0,0,0,0,0,0,0,91.65,11.5,1,0,-0.08,0,0,0.22,90,0,0,0,0,0,0,0,0,1.261,0,0,0,0,91.65,1,1.261,-1.57,0.0733,1,0,0.0733,0,0.72,11.5,11.424,0.08,0,2,2,0,0,VALID,0,0,0,0,0,1,0,0,0,0,0,0,0,0,0,0,0,0,0,0,1206.59,1207.99,2,0,0.08,0.08,507,14.29,0.08,0.06,38.56,LANDED,X10-G,0:/Integrated Flight Computer/aircraft/x10_g_cfg.ks (inferred preloaded)
39.78,TAKEOFF,TO_ROTATE,167.89,80,-87.89,3.69,-0.23,0.13,0.21,90.1,0.07,1,0,0,0,0,0,0,0,0,0,91.65,11.5,1,0,-0.08,0,0,0.23,90,0,0,0,0,0,0,0,0,1.257,0,0,0,0,91.65,1,1.257,-1.548,0.0721,1,0,0.0721,0,0.72,11.5,11.371,0.08,0,2,2,0,0,VALID,0,0,0,0,0,1,0,0,0,0,0,0,0,0,0,0,0,0,0,0,1216.05,1217.44,2,0,0.08,0.08,511,14.29,0.08,0.06,38.84,LANDED,X10-G,0:/Integrated Flight Computer/aircraft/x10_g_cfg.ks (inferred preloaded)
40.06,TAKEOFF,TO_ROTATE,169.96,80,-89.96,3.71,-0.21,0.19,0.26,90.11,0.068,1,0,0,0,0,0,0,0,0,0,91.64,11.5,1,0,-0.07,0,0,0.23,90,0,0,0,0,0,0,0,0,1.253,0,0,0,0,91.64,1,1.253,-1.528,0.0714,1,0,0.0714,0,0.72,11.5,11.306,0.08,0,2,2,0,0,VALID,0,0,0,0,0,1,0,0,0,0,0,0,0,0,0,0,0,0,0,0,1225.68,1227.04,2,0,0.08,0.08,515,14.29,0.08,0.06,39.12,LANDED,X10-G,0:/Integrated Flight Computer/aircraft/x10_g_cfg.ks (inferred preloaded)
40.34,TAKEOFF,TO_ROTATE,172.06,80,-92.06,3.76,-0.19,0.28,0.33,90.13,0.082,1,0,0,0,0,0,0,0,0,0,91.64,11.5,1,0,-0.05,0,0,0.24,90,0,0,0,0,0,0,0,0,1.247,0,0,0,0,91.64,1,1.247,-1.515,0.0712,1,0,0.0712,0,0.72,11.5,11.22,0.08,0,2,2,0,0,VALID,0,0,0,0,0,1,0,0,0,0,0,0,0,0,0,0,0,0,0,0,1235.46,1236.81,2,0,0.08,0.08,519,14.29,0.08,0.06,39.4,LANDED,X10-G,0:/Integrated Flight Computer/aircraft/x10_g_cfg.ks (inferred preloaded)
40.62,TAKEOFF,TO_ROTATE,174.18,80,-94.18,3.82,-0.22,0.47,0.54,90.15,0.074,1,0,0,0,0,0,0,0,0,0,91.63,11.5,1,0,-0.07,0,0,0.24,90,0,0,0,0,0,0,0,0,1.242,0,0,0,0,91.63,1,1.242,-1.481,0.0684,1,0,0.0684,0,0.72,11.5,11.033,0.08,0,2,2,0,0,VALID,0,0,0,0,0,1,0,0,0,0,0,0,0,0,0,0,0,0,0,0,1245.42,1246.74,2,0,0.08,0.08,523,14.29,0.08,0.06,39.68,LANDED,X10-G,0:/Integrated Flight Computer/aircraft/x10_g_cfg.ks (inferred preloaded)
40.9,TAKEOFF,TO_ROTATE,176.31,80,-96.31,3.89,-0.13,0.72,0.76,90.16,0.062,1,0,0,0,0,0,0,0,0,0,91.63,11.5,1,0,-0.04,0,0,0.25,90,0,0,0,0,0,0,0,0,1.235,0,0,0,0,91.63,1,1.235,-1.467,0.069,1,0,0.069,0,0.72,11.5,10.784,0.08,0,2,2,0,0,VALID,0,0,0,0,0,1,0,0,0,0,0,0,0,0,0,0,0,0,0,0,1255.54,1256.84,2,0,0.08,0.08,527,14.29,0.08,0.06,39.96,LANDED,X10-G,0:/Integrated Flight Computer/aircraft/x10_g_cfg.ks (inferred preloaded)
41.18,TAKEOFF,TO_ROTATE,178.46,80,-98.46,3.97,-0.18,0.94,1,90.17,0.086,1,0,0,0,0,0,0,0,0,0,91.62,11.5,1,0,-0.06,0,0,0.25,90,0,0,0,0,0,0,0,0,1.228,0,0,0,0,91.62,1,1.228,-1.455,0.0684,1,0,0.0684,0,0.72,11.5,10.559,0.08,0,2,2,0,0,VALID,0,0,0,0,0,1,0,0,0,0,0,0,0,0,0,0,0,0,0,0,1265.82,1267.11,2,0,0.08,0.08,531,14.29,0.08,0.06,40.24,LANDED,X10-G,0:/Integrated Flight Computer/aircraft/x10_g_cfg.ks (inferred preloaded)
41.46,TAKEOFF,TO_ROTATE,180.62,80,-100.62,4.02,-0.13,1.11,1.15,90.19,0.074,1,0,0,0,0,0,0,0,0,0,91.6,11.5,1,0,-0.04,0,0,0.26,90,0,0,0,0,0,0,0,0,1.22,0,0,0,0,91.6,1,1.22,-1.416,0.0652,1,0,0.0652,0,0.72,11.5,10.39,0.08,0,2,2,0,0,VALID,0,0,0,0,0,1,0,0,0,0,0,0,0,0,0,0,0,0,0,0,1276.26,1277.54,2,0,0.08,0.08,535,14.29,0.08,0.06,40.52,LANDED,X10-G,0:/Integrated Flight Computer/aircraft/x10_g_cfg.ks (inferred preloaded)
41.74,TAKEOFF,TO_ROTATE,182.81,80,-102.81,4.04,-0.16,1.19,1.24,90.21,0.054,1,0,0,0,0,0,0,0,0,0,91.6,11.5,1,0,-0.05,0,0,0.26,90,0,0,0,0,0,0,0,0,1.211,0,0,0,0,91.6,1,1.211,-1.399,0.0657,1,0,0.0657,0,0.72,11.5,10.308,0.08,0,2,2,0,0,VALID,0,0,0,0,0,1,0,0,0,0,0,0,0,0,0,0,0,0,0,0,1286.88,1288.14,2,0,0.08,0.08,539,14.29,0.08,0.06,40.8,LANDED,X10-G,0:/Integrated Flight Computer/aircraft/x10_g_cfg.ks (inferred preloaded)
42.02,TAKEOFF,TO_ROTATE,185.01,80,-105.01,4.04,-0.13,1.2,1.24,90.21,0.086,1,0,0,0,0,0,0,0,0,0,91.6,11.5,1,0,-0.04,0,0,0.27,90,0,0,0,0,0,0,0,0,1.201,0,0,0,0,91.6,1,1.201,-1.394,0.0661,1,0,0.0661,0,0.72,11.5,10.301,0.08,0,2,2,0,0,VALID,0,0,0,0,0,1,0,0,0,0,0,0,0,0,0,0,0,0,0,0,1297.66,1298.92,2,0,0.08,0.08,543,14.29,0.08,0.06,41.08,LANDED,X10-G,0:/Integrated Flight Computer/aircraft/x10_g_cfg.ks (inferred preloaded)
42.3,TAKEOFF,TO_ROTATE,187.24,80,-107.24,4.02,-0.13,1.15,1.19,90.23,0.084,1,0,0,0,0,0,0,0,0,0,91.57,11.5,1,0,-0.04,0,0,0.27,90,0,0,0,0,0,0,0,0,1.192,0,0,0,0,91.57,1,1.192,-1.345,0.0615,1,0,0.0615,0,0.72,11.5,10.351,0.08,0,2,2,0,0,VALID,0,0,0,0,0,1,0,0,0,0,0,0,0,0,0,0,0,0,0,0,1308.63,1309.88,2,0,0.08,0.08,547,14.29,0.08,0.06,41.36,LANDED,X10-G,0:/Integrated Flight Computer/aircraft/x10_g_cfg.ks (inferred preloaded)
42.58,TAKEOFF,TO_ROTATE,189.48,80,-109.48,4,-0.11,1.08,1.11,90.25,0.045,1,0,0,0,0,0,0,0,0,0,91.57,11.5,1,0,-0.03,0,0,0.28,90,0,0,0,0,0,0,0,0,1.181,0,0,0,0,91.57,1,1.181,-1.323,0.0619,1,0,0.0619,0,0.72,11.5,10.418,0.08,0,2,2,0,0,VALID,0,0,0,0,0,1,0,0,0,0,0,0,0,0,0,0,0,0,0,0,1319.78,1321.02,2,0,0.08,0.08,551,14.29,0.08,0.06,41.64,LANDED,X10-G,0:/Integrated Flight Computer/aircraft/x10_g_cfg.ks (inferred preloaded)
42.86,TAKEOFF,TO_ROTATE,191.75,80,-111.75,3.99,-0.09,1.04,1.07,90.25,0.089,1,0,0,0,0,0,0,0,0,0,91.57,11.5,1,0,-0.03,0,0,0.28,90,0,0,0,0,0,0,0,0,1.169,0,0,0,0,91.57,1,1.169,-1.327,0.0634,1,0,0.0634,0,0.72,11.5,10.458,0.08,0,2,2,0,0,VALID,0,0,0,0,0,1,0,0,0,0,0,0,0,0,0,0,0,0,0,0,1331.12,1332.35,2,0,0.08,0.08,555,14.29,0.08,0.06,41.92,LANDED,X10-G,0:/Integrated Flight Computer/aircraft/x10_g_cfg.ks (inferred preloaded)
43.14,TAKEOFF,TO_ROTATE,194.04,80,-114.04,4,-0.23,1.07,1.13,90.27,0.094,1,0,0,0,0,0,0,0,0,0,91.53,11.5,1,0,-0.06,0,0,0.29,90,0,0,0,0,0,0,0,0,1.157,0,0,0,0,91.53,1,1.157,-1.269,0.0575,1,0,0.0575,0,0.72,11.5,10.431,0.08,0,2,2,0,0,VALID,0,0,0,0,0,1,0,0,0,0,0,0,0,0,0,0,0,0,0,0,1342.64,1343.87,2,0,0.08,0.08,559,14.29,0.08,0.06,42.2,LANDED,X10-G,0:/Integrated Flight Computer/aircraft/x10_g_cfg.ks (inferred preloaded)
43.42,TAKEOFF,TO_ROTATE,196.35,80,-116.35,4.02,0.07,1.15,1.14,90.29,0.033,1,0,0,0,0,0,0,0,0,0,91.54,11.5,1,0,0.02,0,0,0.29,90,0,0,0,0,0,0,0,0,1.144,0,0,0,0,91.54,1,1.144,-1.247,0.0587,1,0,0.0587,0,0.72,11.5,10.345,0.08,0,2,2,0,0,VALID,0,0,0,0,0,1,0,0,0,0,0,0,0,0,0,0,0,0,0,0,1354.36,1355.58,2,0,0.08,0.08,563,14.29,0.08,0.06,42.48,LANDED,X10-G,0:/Integrated Flight Computer/aircraft/x10_g_cfg.ks (inferred preloaded)
43.7,TAKEOFF,TO_ROTATE,198.68,80,-118.68,4.07,-0.1,1.29,1.32,90.28,0.11,1,0,0,0,0,0,0,0,0,0,91.53,11.5,1,0,-0.03,0,0,0.3,90,0,0,0,0,0,0,0,0,1.129,0,0,0,0,91.53,1,1.129,-1.252,0.0599,1,0,0.0599,0,0.72,11.5,10.209,0.08,0,2,2,0,0,VALID,0,0,0,0,0,1,0,0,0,0,0,0,0,0,0,0,0,0,0,0,1366.26,1367.48,2,0,0.08,0.08,567,14.29,0.08,0.06,42.76,LANDED,X10-G,0:/Integrated Flight Computer/aircraft/x10_g_cfg.ks (inferred preloaded)
43.98,TAKEOFF,TO_ROTATE,201.03,80,-121.03,4.13,0.05,1.47,1.45,90.31,0.088,1,0,0,0,0,0,0,0,0,0,91.49,11.5,1,0,0.02,0,0,0.3,90,0,0,0,0,0,0,0,0,1.115,0,0,0,0,91.49,1,1.115,-1.175,0.0521,1,0,0.0521,0,0.72,11.5,10.032,0.08,0,2,2,0,0,VALID,0,0,0,0,0,1,0,0,0,0,0,0,0,0,0,0,0,0,0,0,1378.35,1379.56,2,0,0.08,0.08,571,14.29,0.08,0.06,43.04,LANDED,X10-G,0:/Integrated Flight Computer/aircraft/x10_g_cfg.ks (inferred preloaded)
