t_s,phase,subphase,ias_ms,vapp_ms,spd_err_ms,agl_m,vs_ms,pitch_deg,aoa_deg,hdg_deg,bank_deg,thr_cmd,thr_intg,aa_hdg_cmd_deg,aa_fpa_cmd_deg,ils_loc_m,ils_gs_m,ils_dist_km,loc_corr_deg,gs_corr_deg,flare_fpa_cmd,flare_tgt_vs,flare_frac,steer_hdg_deg,steer_blend,ro_loc_corr_deg,ro_hdg_err_deg,ro_yaw_tgt,ro_yaw_scale,ro_yaw_gate,yaw_cmd,roll_cmd,pitch_cmd,ro_pitch_tgt_deg,ro_pitch_err_deg,ro_pitch_ff,ro_roll_assist,flaps_cur,flaps_tgt,phase_el_s,status
0.2,APPROACH,FLY_TO_FIX,77.66,76,-1.66,548.59,-13.98,-5.68,4.59,270.42,0.021,0,-0.131,169.82,4.755,0,0,0,0,0,0,0,0,270.41,0,0,0,0,0,0,0,0,0,0,0,0,0,0,1,0.24,FLYING
0.42,APPROACH,ILS_TRACK,77.94,76,-1.94,544.97,-16.18,-11.05,0.18,270.39,0.766,0,-0.551,96.67,-0.283,0,0,0,0,0,0,0,0,270.41,0,0,0,0,0,0,0,0,0,0,0,0,0,0,1,0.46,FLYING
0.64,APPROACH,ILS_TRACK,78.29,76,-2.29,541.1,-18.84,-10.44,2.11,270.3,1.628,0,-1.048,272.72,0,-1.97,-17.71,9.341,2.322,69.724,0,0,0,270.41,0,0,0,0,0,0,0,0,0,0,0,0,0,1,1,0.68,FLYING
0.84,APPROACH,ILS_TRACK,78.65,76,-2.65,537.41,-19.4,-7.48,5.59,270.23,1.31,0,-1.623,270.48,0,-1.97,-20.51,9.324,0.076,16.342,0,0,0,270.41,0,0,0,0,0,0,0,0,0,0,0,0,0,1,1,0.88,FLYING
1.04,APPROACH,ILS_TRACK,78.99,76,-2.99,533.65,-19.02,-6.26,6.66,270.23,0.967,0,-2.216,270.49,0,-1.98,-23.41,9.308,0.09,18.593,0,0,0,270.41,0,0,0,0,0,0,0,0,0,0,0,0,0,1,1,1.08,FLYING
1.28,APPROACH,ILS_TRACK,79.31,76,-3.31,529.2,-18.62,-5.15,7.32,270.24,0.606,0,-3.005,270.5,0,-2,-26.84,9.288,0.103,19.509,0,0,0,270.41,0,0,0,0,0,0,0,0,0,0,0,0,0,1,1,1.32,FLYING
1.48,APPROACH,ILS_TRACK,79.49,76,-3.49,525.69,-17.83,-2.67,9.19,270.25,0.351,0,-3.701,270.51,0,-2.03,-29.52,9.272,0.111,19.571,0,0,0,270.41,0,0,0,0,0,0,0,0,0,0,0,0,0,1,1,1.52,FLYING
1.68,APPROACH,ILS_TRACK,79.57,76,-3.57,522.4,-16.27,-1.06,9.86,270.28,0.144,0,-4.415,270.52,0,-2.06,-31.99,9.255,0.12,19.45,0,0,0,270.41,0,0,0,0,0,0,0,0,0,0,0,0,0,1,1,1.72,FLYING
1.88,APPROACH,ILS_TRACK,79.56,76,-3.56,519.37,-14.77,-0.33,9.6,270.31,-0.021,0,-5.126,270.52,0,-2.09,-34.2,9.238,0.121,19.119,0,0,0,270.41,0,0,0,0,0,0,0,0,0,0,0,0,0,1,1,1.92,FLYING
2.08,APPROACH,ILS_TRACK,79.5,76,-3.5,516.6,-13.44,0.31,9.35,270.33,-0.147,0,-5.828,270.52,0,-2.12,-36.14,9.221,0.124,18.607,0,0,0,270.41,0,0,0,0,0,0,0,0,0,0,0,0,0,1,1,2.12,FLYING
2.32,APPROACH,ILS_TRACK,79.41,76,-3.41,513.6,-12,0.87,8.96,270.36,-0.264,0,-6.65,270.52,0,-2.15,-38.14,9.201,0.123,18.106,0,0,0,270.41,0,0,0,0,0,0,0,0,0,0,0,0,0,1,1,2.36,FLYING
2.52,APPROACH,ILS_TRACK,79.32,76,-3.32,511.35,-10.95,1.33,8.71,270.38,-0.329,0,-7.316,270.52,0,-2.18,-39.56,9.184,0.118,17.537,0,0,0,270.41,0,0,0,0,0,0,0,0,0,0,0,0,0,1,1,2.56,FLYING
2.72,APPROACH,ILS_TRACK,79.22,76,-3.22,509.29,-9.99,1.77,8.51,270.4,-0.37,0,-7.962,270.51,0,-2.2,-40.77,9.168,0.115,17.088,0,0,0,270.41,0,0,0,0,0,0,0,0,0,0,0,0,0,1,1,2.76,FLYING
2.92,APPROACH,ILS_TRACK,79.1,76,-3.1,507.41,-9.11,2.17,8.32,270.41,-0.392,0,-8.585,270.51,0,-2.22,-41.8,9.151,0.11,16.661,0,0,0,270.41,0,0,0,0,0,0,0,0,0,0,0,0,0,1,1,2.96,FLYING
3.12,APPROACH,ILS_TRACK,78.97,76,-2.97,505.7,-8.31,2.54,8.16,270.43,-0.396,0,-9.183,270.51,0,-2.23,-42.67,9.134,0.105,16.249,0,0,0,270.41,0,0,0,0,0,0,0,0,0,0,0,0,0,1,1,3.16,FLYING
3.36,APPROACH,ILS_TRACK,78.8,76,-2.8,503.85,-7.43,2.95,7.98,270.44,-0.391,0,-9.858,270.5,0,-2.24,-43.5,9.114,0.099,15.825,0,0,0,270.41,0,0,0,0,0,0,0,0,0,0,0,0,0,1,1,3.4,FLYING
3.56,APPROACH,ILS_TRACK,78.64,76,-2.64,502.46,-6.78,3.27,7.86,270.45,-0.375,0,-10.389,270.49,0,-2.24,-44.04,9.097,0.095,15.385,0,0,0,270.41,0,0,0,0,0,0,0,0,0,0,0,0,0,1,1,3.6,FLYING
3.76,APPROACH,ILS_TRACK,78.47,76,-2.47,501.19,-6.17,3.55,7.75,270.46,-0.35,0,-10.887,270.49,0,-2.24,-44.46,9.081,0.09,15.008,0,0,0,270.41,0,0,0,0,0,0,0,0,0,0,0,0,0,1,1,3.8,FLYING
3.96,APPROACH,ILS_TRACK,78.29,76,-2.29,500.03,-5.63,3.81,7.65,270.47,-0.32,0,-11.349,270.49,0,-2.24,-44.76,9.064,0.086,14.649,0,0,0,270.41,0,0,0,0,0,0,0,0,0,0,0,0,0,1,1,4,FLYING
4.16,APPROACH,ILS_TRACK,78.1,76,-2.1,498.98,-5.13,4.06,7.56,270.47,-0.287,0,-11.773,270.48,0,-2.23,-44.97,9.047,0.08,14.297,0,0,0,270.41,0,0,0,0,0,0,0,0,0,0,0,0,0,1,1,4.2,FLYING
4.4,APPROACH,ILS_TRACK,77.86,76,-1.86,497.83,-4.6,4.33,7.48,270.47,-0.244,0,-12.225,270.48,0,-2.22,-45.09,9.027,0.075,13.928,0,0,0,270.41,0,0,0,0,0,0,0,0,0,0,0,0,0,1,1,4.44,FLYING
4.6,APPROACH,ILS_TRACK,77.65,76,-1.65,496.97,-4.19,4.53,7.41,270.48,-0.208,0,-12.559,270.47,0,-2.21,-45.09,9.011,0.072,13.563,0,0,0,270.41,0,0,0,0,0,0,0,0,0,0,0,0,0,1,1,4.64,FLYING
4.8,APPROACH,ILS_TRACK,77.43,76,-1.43,496.19,-3.83,4.73,7.37,270.48,-0.172,0,-12.849,270.47,0,-2.19,-45.03,8.994,0.069,13.245,0,0,0,270.41,0,0,0,0,0,0,0,0,0,0,0,0,0,1,1,4.84,FLYING
5,APPROACH,ILS_TRACK,77.2,76,-1.2,495.47,-3.49,4.91,7.32,270.48,-0.139,0,-13.094,270.47,0,-2.17,-44.9,8.978,0.066,12.935,0,0,0,270.41,0,0,0,0,0,0,0,0,0,0,0,0,0,1,1,5.04,FLYING
5.2,APPROACH,ILS_TRACK,76.96,76,-0.96,494.81,-3.19,5.08,7.29,270.48,-0.108,0,-13.292,270.46,0,-2.16,-44.7,8.961,0.063,12.632,0,0,0,270.41,0,0,0,0,0,0,0,0,0,0,0,0,0,1,1,5.24,FLYING
5.44,APPROACH,ILS_TRACK,76.67,76,-0.67,494.1,-2.87,5.27,7.27,270.48,-0.075,0,-13.459,270.46,0,-2.13,-44.39,8.942,0.062,12.299,0,0,0,270.41,0,0,0,0,0,0,0,0,0,0,0,0,0,1,1,5.48,FLYING
5.64,APPROACH,ILS_TRACK,76.42,76,-0.42,493.57,-2.62,5.42,7.25,270.48,-0.05,0,-13.548,270.46,0,-2.11,-44.09,8.925,0.06,11.987,0,0,0,270.41,0,0,0,0,0,0,0,0,0,0,0,0,0,1,1,5.68,FLYING
5.84,APPROACH,ILS_TRACK,76.17,76,-0.17,493.08,-2.39,5.56,7.23,270.48,-0.029,0,-13.587,270.46,0,-2.09,-43.73,8.909,0.056,11.702,0,0,0,270.41,0,0,0,0,0,0,0,0,0,0,0,0,0,1,1,5.88,FLYING
6.04,APPROACH,ILS_TRACK,75.92,76,0.08,492.63,-2.18,5.68,7.21,270.48,-0.008,0,-13.575,270.46,0,-2.07,-43.34,8.893,0.057,11.421,0,0,0,270.41,0,0,0,0,0,0,0,0,0,0,0,0,0,1,1,6.08,FLYING
6.24,APPROACH,ILS_TRACK,75.66,76,0.34,492.22,-1.99,5.8,7.2,270.47,0.007,0,-13.512,270.45,0,-2.05,-42.9,8.877,0.054,11.144,0,0,0,270.41,0,0,0,0,0,0,0,0,0,0,0,0,0,1,1,6.28,FLYING
6.48,APPROACH,ILS_TRACK,75.35,76,0.65,491.78,-1.79,5.94,7.2,270.47,0.025,0,-13.361,270.46,0,-2.03,-42.34,8.857,0.056,10.831,0,0,0,270.41,0,0,0,0,0,0,0,0,0,0,0,0,0,1,1,6.52,FLYING
6.68,APPROACH,ILS_TRACK,75.08,76,0.92,491.45,-1.63,6.05,7.2,270.47,0.036,0,-13.183,270.45,0,-2,-41.84,8.841,0.052,10.549,0,0,0,270.41,0,0,0,0,0,0,0,0,0,0,0,0,0,1,1,6.72,FLYING
6.89,APPROACH,ILS_TRACK,74.83,76,1.17,491.12,-1.49,6.16,7.21,270.47,0.045,0,-12.971,270.45,0,-1.98,-41.31,8.825,0.05,10.102,0,0,0,270.41,0,0,0,0,0,0,0,0,0,0,0,0,0,1,1,6.95,FLYING
7.13,APPROACH,ILS_TRACK,74.53,76,1.47,490.8,-1.34,6.27,7.22,270.47,0.052,0,-12.639,270.45,0,-1.96,-40.66,8.806,0.052,9.95,0,0,0,270.41,0,0,0,0,0,0,0,0,0,0,0,0,0,1,1,7.19,FLYING
7.39,APPROACH,ILS_TRACK,74.21,76,1.79,490.48,-1.2,6.39,7.24,270.47,0.058,0,-12.214,270.45,0,-1.93,-39.94,8.787,0.051,9.611,0,0,0,270.41,0,0,0,0,0,0,0,0,0,0,0,0,0,1,1,7.45,FLYING
7.73,APPROACH,ILS_TRACK,73.76,76,2.24,490.11,-1.03,6.53,7.27,270.47,0.061,0,-11.486,270.45,0,-1.9,-38.91,8.76,0.05,9.184,0,0,0,270.41,0,0,0,0,0,0,0,0,0,0,0,0,0,1,1,7.8,FLYING
8.04,APPROACH,ILS_TRACK,73.37,76,2.63,489.82,-0.91,6.66,7.31,270.46,0.062,0.0136,-10.726,270.45,0,-1.87,-37.95,8.736,0.049,8.784,0,0,0,270.41,0,0,0,0,0,0,0,0,0,0,0,0,0,1,1,8.11,FLYING
8.36,APPROACH,ILS_TRACK,72.94,76,3.06,489.56,-0.8,6.78,7.35,270.46,0.063,0.0485,-9.777,270.45,0,-1.84,-36.93,8.711,0.049,8.489,0,0,0,270.41,0,0,0,0,0,0,0,0,0,0,0,0,0,1,1,8.43,FLYING
8.67,APPROACH,ILS_TRACK,72.51,76,3.49,489.33,-0.7,6.89,7.4,270.46,0.062,0.0852,-8.691,270.45,0,-1.81,-35.89,8.687,0.049,8.112,0,0,0,270.41,0,0,0,0,0,0,0,0,0,0,0,0,0,1,1,8.74,FLYING
9.06,APPROACH,ILS_TRACK,71.98,76,4.02,489.09,-0.62,7,7.45,270.46,0.062,0.1325,-7.162,270.45,0,-1.77,-34.58,8.657,0.047,7.669,0,0,0,270.41,0,0,0,0,0,0,0,0,0,0,0,0,0,1,1,9.13,FLYING
9.37,APPROACH,ILS_TRACK,71.55,76,4.45,488.91,-0.56,7.09,7.5,270.46,0.059,0.1726,-5.776,270.45,0,-1.74,-33.5,8.633,0.047,7.308,0,0,0,270.41,0,0,0,0,0,0,0,0,0,0,0,0,0,1,1,9.44,FLYING
9.69,APPROACH,ILS_TRACK,71.13,76,4.87,488.75,-0.52,7.18,7.56,270.46,0.056,0.214,-4.258,270.45,0,-1.71,-32.42,8.609,0.047,6.959,0,0,0,270.41,0,0,0,0,0,0,0,0,0,0,0,0,0,1,1,9.76,FLYING
10.07,APPROACH,ILS_TRACK,70.63,76,5.37,488.57,-0.47,7.29,7.64,270.46,0.054,0.2662,-2.209,270.45,0,-1.68,-31.08,8.58,0.045,6.541,0,0,0,270.41,0,0,0,0,0,0,0,0,0,0,0,0,0,1,1,10.14,FLYING
10.39,APPROACH,ILS_TRACK,70.23,76,5.77,488.43,-0.44,7.37,7.7,270.46,0.054,0.3098,-0.407,270.44,0,-1.65,-29.98,8.557,0.045,6.2,0,0,0,270.41,0,0,0,0,0,0,0,0,0,0,0,0,0,1,1,10.46,FLYING
10.7,APPROACH,ILS_TRACK,69.85,76,6.15,488.3,-0.41,7.45,7.76,270.46,0.05,0.3542,1.517,270.44,0,-1.63,-28.87,8.533,0.044,5.864,0,0,0,270.41,0,0,0,0,0,0,0,0,0,0,0,0,0,1,1,10.77,FLYING
11.09,APPROACH,ILS_TRACK,69.4,76,6.6,488.15,-0.39,7.55,7.84,270.46,0.052,0.4094,4.044,270.44,0,-1.6,-27.53,8.505,0.044,5.457,0,0,0,270.41,0,0,0,0,0,0,0,0,0,0,0,0,0,1,1,11.16,FLYING
11.4,APPROACH,ILS_TRACK,69.05,76,6.95,488.04,-0.37,7.62,7.9,270.46,0.051,0.4549,6.222,270.44,0,-1.57,-26.42,8.481,0.043,5.125,0,0,0,270.41,0,0,0,0,0,0,0,0,0,0,0,0,0,1,1,11.47,FLYING
11.72,APPROACH,ILS_TRACK,68.72,76,7.28,487.93,-0.35,7.69,7.96,270.46,0.048,0.5006,8.505,270.44,0,-1.55,-25.32,8.458,0.042,4.794,0,0,0,270.41,0,0,0,0,0,0,0,0,0,0,0,0,0,1,1,11.79,FLYING
12.1,APPROACH,ILS_TRACK,68.34,76,7.66,487.8,-0.33,7.77,8.03,270.46,0.044,0.5567,11.44,270.44,0,-1.52,-23.97,8.43,0.041,4.391,0,0,0,270.41,0,0,0,0,0,0,0,0,0,0,0,0,0,1,1,12.17,FLYING
12.42,APPROACH,ILS_TRACK,68.06,76,7.94,487.7,-0.32,7.83,8.07,270.46,0.044,0.6022,13.932,270.44,0,-1.49,-22.87,8.407,0.039,4.062,0,0,0,270.41,0,0,0,0,0,0,0,0,0,0,0,0,0,1,1,12.49,FLYING
12.73,APPROACH,ILS_TRACK,67.8,76,8.2,487.61,-0.3,7.89,8.12,270.46,0.042,0.6473,16.505,270.44,0,-1.47,-21.77,8.384,0.039,3.731,0,0,0,270.41,0,0,0,0,0,0,0,0,0,0,0,0,0,1,1,12.8,FLYING
13.12,APPROACH,ILS_TRACK,67.53,76,8.47,487.5,-0.29,7.94,8.17,270.46,0.04,0.7017,19.757,270.44,0,-1.44,-20.42,8.356,0.038,3.327,0,0,0,270.41,0,0,0,0,0,0,0,0,0,0,0,0,0,1,1,13.19,FLYING
13.43,APPROACH,ILS_TRACK,67.34,76,8.66,487.42,-0.27,7.98,8.2,270.46,0.039,0.7155,20,270.44,-0.005,-1.41,-19.32,8.334,0.037,2.995,0,0,0,270.41,0,0,0,0,0,0,0,0,0,0,0,0,0,1,1,13.5,FLYING
13.75,APPROACH,ILS_TRACK,67.17,76,8.83,487.33,-0.26,8,8.22,270.46,0.038,0.7246,20,270.43,-0.337,-1.38,-18.22,8.311,0.035,2.663,0,0,0,270.41,0,0,0,0,0,0,0,0,0,0,0,0,0,1,1,13.82,FLYING
14.13,APPROACH,ILS_TRACK,67.02,76,8.98,487.23,-0.26,7.95,8.2,270.46,0.035,0.7335,20,270.43,-0.736,-1.35,-16.87,8.284,0.034,2.264,0,0,0,270.41,0,0,0,0,0,0,0,0,0,0,0,0,0,1,1,14.2,FLYING
14.45,APPROACH,ILS_TRACK,66.93,76,9.07,487.13,-0.33,7.76,8.05,270.46,0.049,0.7386,20,270.43,-1.021,-1.33,-15.78,8.261,0.033,1.979,0,0,0,270.41,0,0,0,0,0,0,0,0,0,0,0,0,0,1,1,14.52,FLYING
14.76,APPROACH,ILS_TRACK,66.88,76,9.12,487.01,-0.42,7.6,7.96,270.46,0.065,0.7414,20,270.43,-1.281,-1.3,-14.72,8.238,0.031,1.719,0,0,0,270.41,0,0,0,0,0,0,0,0,0,0,0,0,0,1,1,14.83,FLYING
15.15,APPROACH,ILS_TRACK,66.87,76,9.13,486.8,-0.57,7.4,7.9,270.45,0.076,0.742,20,270.43,-1.556,-1.27,-13.47,8.211,0.031,1.444,0,0,0,270.41,0,0,0,0,0,0,0,0,0,0,0,0,0,1,1,15.22,FLYING
15.46,APPROACH,ILS_TRACK,66.91,76,9.09,486.59,-0.72,7.21,7.82,270.45,0.079,0.7402,20,270.43,-1.728,-1.25,-12.5,8.188,0.029,1.272,0,0,0,270.41,0,0,0,0,0,0,0,0,0,0,0,0,0,1,1,15.53,FLYING
15.78,APPROACH,ILS_TRACK,66.99,76,9.01,486.32,-0.88,7.05,7.78,270.45,0.083,0.7363,20,270.43,-1.889,-1.22,-11.57,8.166,0.03,1.111,0,0,0,270.41,0,0,0,0,0,0,0,0,0,0,0,0,0,1,1,15.85,FLYING
16.16,APPROACH,ILS_TRACK,67.12,76,8.88,485.93,-1.08,6.85,7.74,270.45,0.085,0.729,20,270.43,-2.072,-1.19,-10.5,8.138,0.028,0.928,0,0,0,270.41,0,0,0,0,0,0,0,0,0,0,0,0,0,1,1,16.23,FLYING
16.48,APPROACH,ILS_TRACK,67.27,76,8.73,485.55,-1.25,6.67,7.68,270.45,0.086,0.7211,20,270.43,-2.177,-1.17,-9.68,8.116,0.028,0.823,0,0,0,270.41,0,0,0,0,0,0,0,0,0,0,0,0,0,1,1,16.55,FLYING
16.79,APPROACH,ILS_TRACK,67.45,76,8.55,485.12,-1.41,6.5,7.64,270.44,0.087,0.7114,20,270.43,-2.283,-1.15,-8.91,8.093,0.028,0.717,0,0,0,270.41,0,0,0,0,0,0,0,0,0,0,0,0,0,1,1,16.86,FLYING
17.18,APPROACH,ILS_TRACK,67.71,76,8.29,484.52,-1.61,6.3,7.6,270.44,0.088,0.6973,20,270.43,-2.408,-1.12,-8.03,8.065,0.028,0.592,0,0,0,270.41,0,0,0,0,0,0,0,0,0,0,0,0,0,1,1,17.25,FLYING
17.49,APPROACH,ILS_TRACK,67.95,76,8.05,483.98,-1.77,6.14,7.55,270.44,0.087,0.6842,20,270.43,-2.473,-1.1,-7.37,8.042,0.027,0.527,0,0,0,270.41,0,0,0,0,0,0,0,0,0,0,0,0,0,1,1,17.56,FLYING
17.81,APPROACH,ILS_TRACK,68.22,76,7.78,483.38,-1.93,5.98,7.51,270.44,0.088,0.6696,20,270.43,-2.545,-1.08,-6.75,8.019,0.027,0.455,0,0,0,270.41,0,0,0,0,0,0,0,0,0,0,0,0,0,1,1,17.88,FLYING
18.19,APPROACH,ILS_TRACK,68.58,76,7.42,482.59,-2.11,5.79,7.46,270.44,0.084,0.6501,20,270.43,-2.634,-1.05,-6.05,7.991,0.026,0.366,0,0,0,270.41,0,0,0,0,0,0,0,0,0,0,0,0,0,1,1,18.26,FLYING
18.51,APPROACH,ILS_TRACK,68.9,76,7.1,481.89,-2.25,5.63,7.4,270.43,0.082,0.6328,20,270.43,-2.676,-1.04,-5.53,7.968,0.027,0.324,0,0,0,270.41,0,0,0,0,0,0,0,0,0,0,0,0,0,1,1,18.58,FLYING
18.82,APPROACH,ILS_TRACK,69.23,76,6.77,481.15,-2.39,5.48,7.34,270.43,0.076,0.6144,20,270.43,-2.725,-1.02,-5.04,7.945,0.027,0.275,0,0,0,270.41,0,0,0,0,0,0,0,0,0,0,0,0,0,1,1,18.89,FLYING
19.21,APPROACH,ILS_TRACK,69.67,76,6.33,480.18,-2.55,5.31,7.28,270.43,0.075,0.5905,20,270.43,-2.785,-1,-4.5,7.916,0.026,0.215,0,0,0,270.41,0,0,0,0,0,0,0,0,0,0,0,0,0,1,1,19.28,FLYING
19.52,APPROACH,ILS_TRACK,70.04,76,5.96,479.35,-2.68,5.16,7.22,270.43,0.069,0.5701,20,270.43,-2.811,-0.98,-4.09,7.892,0.026,0.189,0,0,0,270.41,0,0,0,0,0,0,0,0,0,0,0,0,0,1,1,19.59,FLYING
19.84,APPROACH,ILS_TRACK,70.43,76,5.57,478.47,-2.8,5.03,7.17,270.43,0.062,0.5488,20,270.43,-2.843,-0.97,-3.71,7.869,0.026,0.157,0,0,0,270.41,0,0,0,0,0,0,0,0,0,0,0,0,0,1,1,19.91,FLYING
20.22,APPROACH,ILS_TRACK,70.92,76,5.08,477.36,-2.93,4.87,7.1,270.43,0.06,0.522,20,270.43,-2.885,-0.95,-3.29,7.84,0.026,0.115,0,0,0,270.41,0,0,0,0,0,0,0,0,0,0,0,0,0,1,1,20.29,FLYING
20.54,APPROACH,ILS_TRACK,71.33,76,4.67,476.41,-3.04,4.74,7.03,270.43,0.057,0.4994,20,270.43,-2.9,-0.93,-2.98,7.816,0.026,0.1,0,0,0,270.41,0,0,0,0,0,0,0,0,0,0,0,0,0,1,1,20.61,FLYING
20.85,APPROACH,ILS_TRACK,71.75,76,4.25,475.43,-3.14,4.62,6.98,270.43,0.05,0.4764,20,270.42,-2.922,-0.92,-2.69,7.792,0.025,0.078,0,0,0,270.41,0,0,0,0,0,0,0,0,0,0,0,0,0,1,1,20.92,FLYING
21.24,APPROACH,ILS_TRACK,72.27,76,3.73,474.18,-3.26,4.49,6.91,270.43,0.047,0.4479,20,270.43,-2.952,-0.9,-2.37,7.762,0.025,0.048,0,0,0,270.41,0,0,0,0,0,0,0,0,0,0,0,0,0,1,1,21.31,FLYING
21.55,APPROACH,ILS_TRACK,72.7,76,3.3,473.14,-3.34,4.38,6.85,270.43,0.041,0.4243,20,270.43,-2.965,-0.89,-2.13,7.737,0.026,0.035,0,0,0,270.41,0,0,0,0,0,0,0,0,0,0,0,0,0,1,1,21.62,FLYING
21.87,APPROACH,ILS_TRACK,73.13,76,2.87,472.06,-3.42,4.29,6.8,270.43,0.037,0.4006,20,270.42,-2.985,-0.87,-1.91,7.713,0.024,0.015,0,0,0,270.41,0,0,0,0,0,0,0,0,0,0,0,0,0,1,1,21.94,FLYING
22.25,APPROACH,ILS_TRACK,73.65,76,2.35,470.72,-3.5,4.18,6.73,270.43,0.033,0.3721,20,270.42,-3.014,-0.86,-1.67,7.683,0.025,-0.014,0,0,0,270.41,0,0,0,0,0,0,0,0,0,0,0,0,0,1,1,22.32,FLYING
22.57,APPROACH,ILS_TRACK,74.06,76,1.94,469.6,-3.57,4.08,6.68,270.43,0.031,0.3493,20,270.42,-3.028,-0.85,-1.48,7.658,0.024,-0.028,0,0,0,270.41,0,0,0,0,0,0,0,0,0,0,0,0,0,1,1,22.64,FLYING
22.88,APPROACH,ILS_TRACK,74.46,76,1.54,468.46,-3.63,4,6.62,270.43,0.026,0.3272,20,270.42,-3.046,-0.83,-1.31,7.633,0.023,-0.046,0,0,0,270.41,0,0,0,0,0,0,0,0,0,0,0,0,0,1,1,22.95,FLYING
23.27,APPROACH,ILS_TRACK,74.92,76,1.08,467.04,-3.71,3.9,6.56,270.43,0.026,0.3015,20,270.42,-3.068,-0.82,-1.11,7.602,0.023,-0.068,0,0,0,270.41,0,0,0,0,0,0,0,0,0,0,0,0,0,1,1,23.34,FLYING
23.58,APPROACH,ILS_TRACK,75.28,76,0.72,465.86,-3.77,3.83,6.52,270.42,0.027,0.2817,20,270.42,-3.077,-0.81,-0.97,7.577,0.024,-0.077,0,0,0,270.41,0,0,0,0,0,0,0,0,0,0,0,0,0,1,1,23.65,FLYING
23.9,APPROACH,ILS_TRACK,75.62,76,0.38,464.66,-3.82,3.76,6.48,270.42,0.023,0.2632,20,270.42,-3.087,-0.8,-0.84,7.552,0.022,-0.087,0,0,0,270.41,0,0,0,0,0,0,0,0,0,0,0,0,0,1,1,23.97,FLYING
24.28,APPROACH,ILS_TRACK,75.99,76,0.01,463.17,-3.88,3.69,6.43,270.42,0.021,0.2422,20,270.42,-3.102,-0.78,-0.69,7.52,0.022,-0.102,0,0,0,270.41,0,0,0,0,0,0,0,0,0,0,0,0,0,1,1,24.35,FLYING
24.6,APPROACH,ILS_TRACK,76.27,76,-0.27,461.94,-3.93,3.63,6.4,270.42,0.019,0.2257,19.923,270.42,-3.106,-0.77,-0.58,7.495,0.022,-0.106,0,0,0,270.41,0,0,0,0,0,0,0,0,0,0,0,0,0,1,1,24.67,FLYING
24.91,APPROACH,ILS_TRACK,76.53,76,-0.53,460.69,-3.97,3.59,6.37,270.42,0.02,0.2095,19.765,270.42,-3.112,-0.76,-0.48,7.469,0.022,-0.112,0,0,0,270.41,0,0,0,0,0,0,0,0,0,0,0,0,0,1,1,24.98,FLYING
25.3,APPROACH,ILS_TRACK,76.81,76,-0.81,459.15,-4.02,3.53,6.34,270.42,0.02,0.1904,19.463,270.42,-3.12,-0.75,-0.37,7.438,0.021,-0.12,0,0,0,270.41,0,0,0,0,0,0,0,0,0,0,0,0,0,1,1,25.37,FLYING
25.61,APPROACH,ILS_TRACK,77.01,76,-1.01,457.87,-4.05,3.5,6.32,270.42,0.02,0.1756,19.152,270.42,-3.121,-0.74,-0.29,7.412,0.02,-0.121,0,0,0,270.41,0,0,0,0,0,0,0,0,0,0,0,0,0,1,1,25.68,FLYING
25.93,APPROACH,ILS_TRACK,77.18,76,-1.18,456.59,-4.08,3.46,6.31,270.42,0.018,0.1615,18.786,270.42,-3.124,-0.72,-0.21,7.386,0.02,-0.124,0,0,0,270.41,0,0,0,0,0,0,0,0,0,0,0,0,0,1,1,26,FLYING
26.31,APPROACH,ILS_TRACK,77.36,76,-1.36,455.01,-4.12,3.43,6.29,270.42,0.016,0.1454,18.269,270.42,-3.129,-0.71,-0.13,7.354,0.02,-0.129,0,0,0,270.41,0,0,0,0,0,0,0,0,0,0,0,0,0,1,1,26.38,FLYING
26.63,APPROACH,ILS_TRACK,77.47,76,-1.47,453.7,-4.15,3.41,6.28,270.42,0.015,0.1332,17.808,270.42,-3.127,-0.7,-0.07,7.328,0.02,-0.127,0,0,0,270.41,0,0,0,0,0,0,0,0,0,0,0,0,0,1,1,26.7,FLYING
26.94,APPROACH,ILS_TRACK,77.57,76,-1.57,452.39,-4.17,3.39,6.28,270.42,0.016,0.1221,17.317,270.42,-3.128,-0.69,-0.02,7.302,0.019,-0.128,0,0,0,270.41,0,0,0,0,0,0,0,0,0,0,0,0,0,1,1,27.01,FLYING
27.33,APPROACH,ILS_TRACK,77.65,76,-1.65,450.78,-4.19,3.37,6.27,270.42,0.013,0.1099,16.684,270.42,-3.128,-0.68,0.04,7.271,0.02,-0.128,0,0,0,270.41,0,0,0,0,0,0,0,0,0,0,0,0,0,1,1,27.4,FLYING
27.64,APPROACH,ILS_TRACK,77.69,76,-1.69,449.46,-4.21,3.36,6.27,270.42,0.012,0.1011,16.153,270.42,-3.125,-0.67,0.08,7.245,0.018,-0.125,0,0,0,270.41,0,0,0,0,0,0,0,0,0,0,0,0,0,1,1,27.71,FLYING
27.96,APPROACH,ILS_TRACK,77.71,76,-1.71,448.13,-4.23,3.35,6.28,270.42,0.008,0.0935,15.615,270.42,-3.123,-0.66,0.11,7.219,0.019,-0.123,0,0,0,270.41,0,0,0,0,0,0,0,0,0,0,0,0,0,1,1,28.03,FLYING
28.34,APPROACH,ILS_TRACK,77.7,76,-1.7,446.49,-4.24,3.35,6.28,270.42,0.01,0.0857,14.959,270.42,-3.122,-0.65,0.15,7.187,0.018,-0.122,0,0,0,270.41,0,0,0,0,0,0,0,0,0,0,0,0,0,1,1,28.41,FLYING
28.66,APPROACH,ILS_TRACK,77.68,76,-1.68,445.16,-4.26,3.35,6.3,270.42,0.007,0.0807,14.429,270.42,-3.117,-0.64,0.17,7.161,0.017,-0.117,0,0,0,270.41,0,0,0,0,0,0,0,0,0,0,0,0,0,1,1,28.73,FLYING
28.97,APPROACH,ILS_TRACK,77.63,76,-1.63,443.81,-4.26,3.35,6.31,270.42,0.008,0.0768,13.913,270.42,-3.113,-0.63,0.2,7.135,0.017,-0.113,0,0,0,270.41,0,0,0,0,0,0,0,0,0,0,0,0,0,1,1,29.04,FLYING
29.36,APPROACH,ILS_TRACK,77.56,76,-1.56,442.17,-4.27,3.36,6.32,270.42,0.006,0.0736,13.31,270.42,-3.109,-0.61,0.22,7.103,0.017,-0.109,0,0,0,270.41,0,0,0,0,0,0,0,0,0,0,0,0,0,1,1,29.43,FLYING
29.67,APPROACH,ILS_TRACK,77.48,76,-1.48,440.82,-4.28,3.37,6.34,270.42,0.007,0.0723,12.842,270.42,-3.104,-0.6,0.23,7.077,0.016,-0.104,0,0,0,270.41,0,0,0,0,0,0,0,0,0,0,0,0,0,1,1,29.74,FLYING
29.99,APPROACH,ILS_TRACK,77.39,76,-1.39,439.48,-4.28,3.38,6.36,270.42,0.007,0.072,12.402,270.42,-3.099,-0.59,0.24,7.051,0.016,-0.099,0,0,0,270.41,0,0,0,0,0,0,0,0,0,0,0,0,0,1,1,30.06,FLYING
30.37,APPROACH,ILS_TRACK,77.26,76,-1.26,437.83,-4.29,3.39,6.38,270.42,0.008,0.0732,11.913,270.41,-3.094,-0.58,0.25,7.019,0.015,-0.094,0,0,0,270.41,0,0,0,0,0,0,0,0,0,0,0,0,0,1,1,30.44,FLYING
30.69,APPROACH,ILS_TRACK,77.14,76,-1.14,436.48,-4.29,3.41,6.4,270.42,0.007,0.0752,11.55,270.42,-3.088,-0.57,0.26,6.994,0.015,-0.088,0,0,0,270.41,0,0,0,0,0,0,0,0,0,0,0,0,0,1,1,30.76,FLYING
31,APPROACH,ILS_TRACK,77.01,76,-1.01,435.13,-4.29,3.42,6.42,270.42,0.008,0.0781,11.226,270.41,-3.083,-0.56,0.26,6.968,0.014,-0.083,0,0,0,270.41,0,0,0,0,0,0,0,0,0,0,0,0,0,1,1,31.07,FLYING
31.39,APPROACH,ILS_TRACK,76.85,76,-0.85,433.48,-4.28,3.44,6.45,270.42,0.007,0.0829,10.892,270.41,-3.076,-0.55,0.26,6.936,0.014,-0.076,0,0,0,270.41,0,0,0,0,0,0,0,0,0,0,0,0,0,1,1,31.46,FLYING
31.7,APPROACH,ILS_TRACK,76.72,76,-0.72,432.13,-4.28,3.46,6.47,270.42,0.007,0.0877,10.661,270.41,-3.069,-0.54,0.25,6.911,0.015,-0.069,0,0,0,270.41,0,0,0,0,0,0,0,0,0,0,0,0,0,1,1,31.77,FLYING
32.02,APPROACH,ILS_TRACK,76.58,76,-0.58,430.78,-4.28,3.48,6.49,270.42,0.006,0.0932,10.475,270.41,-3.064,-0.53,0.25,6.885,0.012,-0.064,0,0,0,270.41,0,0,0,0,0,0,0,0,0,0,0,0,0,1,1,32.09,FLYING
32.4,APPROACH,ILS_TRACK,76.4,76,-0.4,429.14,-4.28,3.5,6.52,270.42,0.008,0.1008,10.314,270.41,-3.057,-0.52,0.24,6.854,0.012,-0.057,0,0,0,270.41,0,0,0,0,0,0,0,0,0,0,0,0,0,1,1,32.47,FLYING
32.72,APPROACH,ILS_TRACK,76.26,76,-0.26,427.79,-4.27,3.52,6.54,270.42,0.008,0.1075,10.227,270.41,-3.05,-0.51,0.23,6.828,0.013,-0.05,0,0,0,270.41,0,0,0,0,0,0,0,0,0,0,0,0,0,1,1,32.79,FLYING
33.03,APPROACH,ILS_TRACK,76.12,76,-0.12,426.45,-4.27,3.54,6.56,270.42,0.007,0.1148,10.185,270.41,-3.044,-0.5,0.23,6.803,0.011,-0.044,0,0,0,270.41,0,0,0,0,0,0,0,0,0,0,0,0,0,1,1,33.1,FLYING
33.42,APPROACH,ILS_TRACK,75.95,76,0.05,424.81,-4.26,3.56,6.59,270.42,0.006,0.1244,10.199,270.41,-3.037,-0.48,0.21,6.772,0.011,-0.037,0,0,0,270.41,0,0,0,0,0,0,0,0,0,0,0,0,0,1,1,33.49,FLYING
33.73,APPROACH,ILS_TRACK,75.81,76,0.19,423.47,-4.26,3.58,6.61,270.42,0.006,0.1327,10.255,270.41,-3.031,-0.47,0.2,6.746,0.011,-0.031,0,0,0,270.41,0,0,0,0,0,0,0,0,0,0,0,0,0,1,1,33.8,FLYING
34.05,APPROACH,ILS_TRACK,75.67,76,0.33,422.13,-4.25,3.6,6.63,270.42,0.006,0.1415,10.353,270.41,-3.024,-0.46,0.19,6.721,0.01,-0.024,0,0,0,270.41,0,0,0,0,0,0,0,0,0,0,0,0,0,1,1,34.12,FLYING
34.43,APPROACH,ILS_TRACK,75.51,76,0.49,420.49,-4.25,3.63,6.66,270.43,0.006,0.1528,10.538,270.41,-3.017,-0.45,0.17,6.69,0.009,-0.017,0,0,0,270.41,0,0,0,0,0,0,0,0,0,0,0,0,0,1,1,34.5,FLYING
34.75,APPROACH,ILS_TRACK,75.38,76,0.62,419.16,-4.24,3.64,6.68,270.43,0.006,0.1623,10.73,270.41,-3.01,-0.44,0.16,6.665,0.008,-0.01,0,0,0,270.41,0,0,0,0,0,0,0,0,0,0,0,0,0,1,1,34.82,FLYING
35.06,APPROACH,ILS_TRACK,75.25,76,0.75,417.82,-4.24,3.66,6.7,270.43,0.008,0.1722,10.963,270.41,-3.004,-0.42,0.14,6.64,0.008,-0.004,0,0,0,270.41,0,0,0,0,0,0,0,0,0,0,0,0,0,1,1,35.13,FLYING
35.45,APPROACH,ILS_TRACK,75.09,76,0.91,416.2,-4.23,3.69,6.72,270.43,0.008,0.1847,11.306,270.41,-2.997,-0.41,0.12,6.609,0.007,0.003,0,0,0,270.41,0,0,0,0,0,0,0,0,0,0,0,0,0,1,1,35.52,FLYING
35.76,APPROACH,ILS_TRACK,74.98,76,1.02,414.87,-4.22,3.7,6.74,270.43,0.009,0.1951,11.624,270.41,-2.991,-0.4,0.11,6.584,0.008,0.009,0,0,0,270.41,0,0,0,0,0,0,0,0,0,0,0,0,0,1,1,35.83,FLYING
36.08,APPROACH,ILS_TRACK,74.86,76,1.14,413.54,-4.22,3.72,6.76,270.43,0.01,0.2058,11.98,270.41,-2.985,-0.39,0.09,6.559,0.006,0.015,0,0,0,270.41,0,0,0,0,0,0,0,0,0,0,0,0,0,1,1,36.15,FLYING
36.46,APPROACH,ILS_TRACK,74.73,76,1.27,411.92,-4.21,3.74,6.78,270.43,0.01,0.219,12.466,270.41,-2.979,-0.37,0.07,6.528,0.006,0.021,0,0,0,270.41,0,0,0,0,0,0,0,0,0,0,0,0,0,1,1,36.53,FLYING
36.78,APPROACH,ILS_TRACK,74.62,76,1.38,410.59,-4.2,3.76,6.8,270.43,0.011,0.2299,12.896,270.4,-2.974,-0.36,0.05,6.503,0.005,0.026,0,0,0,270.41,0,0,0,0,0,0,0,0,0,0,0,0,0,1,1,36.85,FLYING
37.09,APPROACH,ILS_TRACK,74.53,76,1.47,409.27,-4.2,3.77,6.81,270.43,0.011,0.2408,13.357,270.41,-2.97,-0.35,0.04,6.479,0.005,0.03,0,0,0,270.41,0,0,0,0,0,0,0,0,0,0,0,0,0,1,1,37.16,FLYING
37.48,APPROACH,ILS_TRACK,74.42,76,1.58,407.66,-4.19,3.79,6.83,270.43,0.013,0.2542,13.964,270.4,-2.965,-0.33,0.02,6.448,0.003,0.035,0,0,0,270.41,0,0,0,0,0,0,0,0,0,0,0,0,0,1,1,37.55,FLYING
37.79,APPROACH,ILS_TRACK,74.33,76,1.67,406.34,-4.18,3.81,6.84,270.43,0.013,0.2651,14.486,270.4,-2.962,-0.32,0,6.423,0.003,0.038,0,0,0,270.41,0,0,0,0,0,0,0,0,0,0,0,0,0,1,1,37.86,FLYING
38.11,APPROACH,ILS_TRACK,74.26,76,1.74,405.03,-4.18,3.82,6.85,270.43,0.014,0.2758,15.033,270.4,-2.959,-0.31,-0.01,6.398,0.003,0.041,0,0,0,270.41,0,0,0,0,0,0,0,0,0,0,0,0,0,1,1,38.18,FLYING
38.49,APPROACH,ILS_TRACK,74.18,76,1.82,403.42,-4.17,3.83,6.86,270.43,0.016,0.2888,15.732,270.4,-2.956,-0.3,-0.03,6.368,0.002,0.044,0,0,0,270.41,0,0,0,0,0,0,0,0,0,0,0,0,0,1,1,38.56,FLYING
38.81,APPROACH,ILS_TRACK,74.12,76,1.88,402.11,-4.16,3.84,6.87,270.43,0.015,0.2991,16.324,270.4,-2.955,-0.28,-0.04,6.343,0.001,0.045,0,0,0,270.41,0,0,0,0,0,0,0,0,0,0,0,0,0,1,1,38.88,FLYING
39.12,APPROACH,ILS_TRACK,74.07,76,1.93,400.8,-4.15,3.85,6.88,270.43,0.015,0.3091,16.93,270.4,-2.954,-0.27,-0.05,6.319,0.001,0.046,0,0,0,270.41,0,0,0,0,0,0,0,0,0,0,0,0,0,1,1,39.19,FLYING
39.51,APPROACH,ILS_TRACK,74.02,76,1.98,399.2,-4.15,3.86,6.88,270.43,0.017,0.321,17.691,270.4,-2.953,-0.25,-0.07,6.288,0,0.047,0,0,0,270.41,0,0,0,0,0,0,0,0,0,0,0,0,0,1,1,39.58,FLYING
39.82,APPROACH,ILS_TRACK,73.99,76,2.01,397.9,-4.14,3.87,6.88,270.43,0.017,0.3303,18.324,270.4,-2.953,-0.24,-0.08,6.264,-0.001,0.047,0,0,0,270.41,0,0,0,0,0,0,0,0,0,0,0,0,0,1,1,39.89,FLYING
40.14,APPROACH,ILS_TRACK,73.97,76,2.03,396.59,-4.14,3.87,6.89,270.43,0.016,0.3391,18.962,270.4,-2.954,-0.23,-0.08,6.239,-0.001,0.046,0,0,0,270.41,0,0,0,0,0,0,0,0,0,0,0,0,0,1,1,40.21,FLYING
40.52,APPROACH,ILS_TRACK,73.96,76,2.04,395,-4.13,3.87,6.89,270.43,0.016,0.3492,19.748,270.4,-2.955,-0.21,-0.09,6.209,-0.001,0.045,0,0,0,270.41,0,0,0,0,0,0,0,0,0,0,0,0,0,1,1,40.59,FLYING
40.84,APPROACH,ILS_TRACK,73.96,76,2.04,393.7,-4.12,3.88,6.88,270.43,0.018,0.3523,20,270.4,-2.958,-0.2,-0.1,6.184,-0.002,0.042,0,0,0,270.41,0,0,0,0,0,0,0,0,0,0,0,0,0,1,1,40.91,FLYING
41.15,APPROACH,ILS_TRACK,73.97,76,2.03,392.41,-4.12,3.87,6.88,270.43,0.017,0.3517,20,270.4,-2.96,-0.19,-0.1,6.159,-0.002,0.04,0,0,0,270.41,0,0,0,0,0,0,0,0,0,0,0,0,0,1,1,41.22,FLYING
41.54,APPROACH,ILS_TRACK,74,76,2,390.82,-4.12,3.87,6.87,270.43,0.02,0.3503,20,270.4,-2.963,-0.17,-0.1,6.129,-0.003,0.037,0,0,0,270.41,0,0,0,0,0,0,0,0,0,0,0,0,0,1,1,41.61,FLYING
41.85,APPROACH,ILS_TRACK,74.03,76,1.97,389.52,-4.11,3.87,6.87,270.43,0.021,0.3485,20,270.4,-2.967,-0.16,-0.1,6.104,-0.004,0.033,0,0,0,270.41,0,0,0,0,0,0,0,0,0,0,0,0,0,1,1,41.92,FLYING
42.17,APPROACH,ILS_TRACK,74.07,76,1.93,388.23,-4.11,3.86,6.86,270.43,0.019,0.3463,20,270.4,-2.972,-0.15,-0.1,6.08,-0.005,0.028,0,0,0,270.41,0,0,0,0,0,0,0,0,0,0,0,0,0,1,1,42.24,FLYING
42.55,APPROACH,ILS_TRACK,74.13,76,1.87,386.65,-4.11,3.85,6.84,270.43,0.019,0.3429,20,270.39,-2.977,-0.13,-0.1,6.049,-0.005,0.023,0,0,0,270.41,0,0,0,0,0,0,0,0,0,0,0,0,0,1,1,42.62,FLYING
42.87,APPROACH,ILS_TRACK,74.2,76,1.8,385.35,-4.1,3.85,6.83,270.43,0.02,0.3397,20,270.39,-2.983,-0.12,-0.1,6.025,-0.005,0.017,0,0,0,270.41,0,0,0,0,0,0,0,0,0,0,0,0,0,1,1,42.94,FLYING
43.18,APPROACH,ILS_TRACK,74.26,76,1.74,384.06,-4.1,3.84,6.82,270.43,0.019,0.336,20,270.39,-2.989,-0.1,-0.09,6,-0.006,0.011,0,0,0,270.41,0,0,0,0,0,0,0,0,0,0,0,0,0,1,1,43.25,FLYING
43.57,APPROACH,ILS_TRACK,74.36,76,1.64,382.48,-4.1,3.83,6.8,270.43,0.02,0.3309,20,270.39,-2.996,-0.09,-0.08,5.969,-0.007,0.004,0,0,0,270.41,0,0,0,0,0,0,0,0,0,0,0,0,0,1,1,43.64,FLYING
43.88,APPROACH,ILS_TRACK,74.44,76,1.56,381.19,-4.1,3.81,6.79,270.43,0.021,0.3264,20,270.39,-3.004,-0.07,-0.07,5.945,-0.007,-0.004,0,0,0,270.41,0,0,0,0,0,0,0,0,0,0,0,0,0,1,1,43.95,FLYING
44.2,APPROACH,ILS_TRACK,74.53,76,1.47,379.89,-4.1,3.8,6.77,270.43,0.02,0.3215,20,270.39,-3.011,-0.06,-0.06,5.92,-0.008,-0.011,0,0,0,270.41,0,0,0,0,0,0,0,0,0,0,0,0,0,1,1,44.27,FLYING
44.58,APPROACH,ILS_TRACK,74.64,76,1.36,378.31,-4.1,3.78,6.75,270.43,0.021,0.3152,20,270.39,-3.02,-0.05,-0.04,5.889,-0.009,-0.02,0,0,0,270.41,0,0,0,0,0,0,0,0,0,0,0,0,0,1,1,44.65,FLYING
44.9,APPROACH,ILS_TRACK,74.75,76,1.25,377.02,-4.1,3.77,6.73,270.43,0.022,0.3096,20,270.39,-3.029,-0.03,-0.03,5.864,-0.009,-0.029,0,0,0,270.41,0,0,0,0,0,0,0,0,0,0,0,0,0,1,1,44.97,FLYING
45.21,APPROACH,ILS_TRACK,74.85,76,1.15,375.73,-4.1,3.75,6.71,270.43,0.021,0.3038,20,270.39,-3.036,-0.02,-0.01,5.839,-0.009,-0.036,0,0,0,270.41,0,0,0,0,0,0,0,0,0,0,0,0,0,1,1,45.28,FLYING
45.6,APPROACH,ILS_TRACK,74.99,76,1.01,374.15,-4.11,3.73,6.69,270.43,0.024,0.2965,20,270.39,-3.046,0,0.01,5.809,-0.01,-0.046,0,0,0,270.41,0,0,0,0,0,0,0,0,0,0,0,0,0,1,1,45.67,FLYING
45.91,APPROACH,ILS_TRACK,75.1,76,0.9,372.85,-4.11,3.72,6.67,270.43,0.025,0.2902,20,270.39,-3.054,0.01,0.03,5.784,-0.01,-0.054,0,0,0,270.41,0,0,0,0,0,0,0,0,0,0,0,0,0,1,1,45.98,FLYING
46.23,APPROACH,ILS_TRACK,75.22,76,0.78,371.55,-4.11,3.7,6.65,270.43,0.027,0.2838,20,270.39,-3.062,0.02,0.05,5.759,-0.011,-0.062,0,0,0,270.41,0,0,0,0,0,0,0,0,0,0,0,0,0,1,1,46.3,FLYING
46.61,APPROACH,ILS_TRACK,75.36,76,0.64,369.97,-4.12,3.67,6.63,270.42,0.03,0.2757,20,270.39,-3.071,0.04,0.07,5.728,-0.011,-0.071,0,0,0,270.41,0,0,0,0,0,0,0,0,0,0,0,0,0,1,1,46.68,FLYING
46.93,APPROACH,ILS_TRACK,75.49,76,0.51,368.67,-4.12,3.65,6.61,270.42,0.03,0.269,20,270.39,-3.078,0.05,0.09,5.703,-0.012,-0.078,0,0,0,270.41,0,0,0,0,0,0,0,0,0,0,0,0,0,1,1,47,FLYING
47.24,APPROACH,ILS_TRACK,75.61,76,0.39,367.37,-4.13,3.63,6.58,270.42,0.031,0.2622,20,270.39,-3.084,0.06,0.11,5.678,-0.012,-0.084,0,0,0,270.41,0,0,0,0,0,0,0,0,0,0,0,0,0,1,1,47.31,FLYING
47.63,APPROACH,ILS_TRACK,75.76,76,0.24,365.77,-4.14,3.61,6.56,270.42,0.034,0.2538,20,270.39,-3.091,0.07,0.13,5.647,-0.012,-0.091,0,0,0,270.41,0,0,0,0,0,0,0,0,0,0,0,0,0,1,1,47.7,FLYING
47.94,APPROACH,ILS_TRACK,75.89,76,0.11,364.46,-4.15,3.59,6.54,270.42,0.036,0.2469,20,270.39,-3.096,0.09,0.15,5.621,-0.013,-0.096,0,0,0,270.41,0,0,0,0,0,0,0,0,0,0,0,0,0,1,1,48.01,FLYING
48.26,APPROACH,ILS_TRACK,76.01,76,-0.01,363.16,-4.16,3.57,6.52,270.42,0.037,0.24,20,270.39,-3.101,0.1,0.17,5.596,-0.012,-0.101,0,0,0,270.41,0,0,0,0,0,0,0,0,0,0,0,0,0,1,1,48.33,FLYING
48.64,APPROACH,ILS_TRACK,76.17,76,-0.17,361.55,-4.17,3.54,6.5,270.42,0.038,0.2309,19.941,270.39,-3.107,0.11,0.2,5.565,-0.013,-0.107,0,0,0,270.41,0,0,0,0,0,0,0,0,0,0,0,0,0,1,1,48.71,FLYING
48.96,APPROACH,ILS_TRACK,76.29,76,-0.29,360.24,-4.18,3.52,6.48,270.42,0.038,0.2232,19.855,270.39,-3.11,0.12,0.21,5.54,-0.013,-0.11,0,0,0,270.41,0,0,0,0,0,0,0,0,0,0,0,0,0,1,1,49.03,FLYING
49.27,APPROACH,ILS_TRACK,76.4,76,-0.4,358.92,-4.19,3.5,6.46,270.42,0.038,0.2154,19.732,270.39,-3.112,0.13,0.23,5.514,-0.013,-0.112,0,0,0,270.41,0,0,0,0,0,0,0,0,0,0,0,0,0,1,1,49.34,FLYING
49.66,APPROACH,ILS_TRACK,76.54,76,-0.54,357.3,-4.2,3.48,6.44,270.42,0.039,0.2055,19.53,270.39,-3.115,0.14,0.25,5.483,-0.013,-0.115,0,0,0,270.41,0,0,0,0,0,0,0,0,0,0,0,0,0,1,1,49.73,FLYING
49.97,APPROACH,ILS_TRACK,76.64,76,-0.64,355.98,-4.21,3.46,6.43,270.41,0.04,0.1975,19.333,270.39,-3.116,0.15,0.27,5.457,-0.013,-0.116,0,0,0,270.41,0,0,0,0,0,0,0,0,0,0,0,0,0,1,1,50.04,FLYING
50.29,APPROACH,ILS_TRACK,76.73,76,-0.73,354.65,-4.21,3.45,6.42,270.41,0.039,0.1895,19.105,270.39,-3.117,0.16,0.28,5.432,-0.013,-0.117,0,0,0,270.41,0,0,0,0,0,0,0,0,0,0,0,0,0,1,1,50.36,FLYING
50.67,APPROACH,ILS_TRACK,76.84,76,-0.84,353.03,-4.22,3.43,6.41,270.41,0.036,0.18,18.787,270.39,-3.118,0.17,0.29,5.401,-0.013,-0.118,0,0,0,270.41,0,0,0,0,0,0,0,0,0,0,0,0,0,1,1,50.74,FLYING
50.99,APPROACH,ILS_TRACK,76.91,76,-0.91,351.69,-4.23,3.42,6.4,270.41,0.036,0.1724,18.503,270.39,-3.117,0.17,0.3,5.375,-0.012,-0.117,0,0,0,270.41,0,0,0,0,0,0,0,0,0,0,0,0,0,1,1,51.06,FLYING
51.3,APPROACH,ILS_TRACK,76.97,76,-0.97,350.36,-4.24,3.41,6.39,270.41,0.036,0.1651,18.198,270.39,-3.117,0.18,0.31,5.349,-0.012,-0.117,0,0,0,270.41,0,0,0,0,0,0,0,0,0,0,0,0,0,1,1,51.37,FLYING
51.69,APPROACH,ILS_TRACK,77.04,76,-1.04,348.72,-4.25,3.4,6.38,270.41,0.033,0.1567,17.8,270.39,-3.116,0.19,0.32,5.318,-0.013,-0.116,0,0,0,270.41,0,0,0,0,0,0,0,0,0,0,0,0,0,1,1,51.76,FLYING
52,APPROACH,ILS_TRACK,77.08,76,-1.08,347.38,-4.25,3.39,6.38,270.41,0.033,0.1503,17.46,270.39,-3.114,0.19,0.33,5.292,-0.012,-0.114,0,0,0,270.41,0,0,0,0,0,0,0,0,0,0,0,0,0,1,1,52.07,FLYING
52.32,APPROACH,ILS_TRACK,77.11,76,-1.11,346.04,-4.26,3.39,6.38,270.41,0.033,0.1444,17.111,270.39,-3.111,0.2,0.33,5.267,-0.012,-0.111,0,0,0,270.41,0,0,0,0,0,0,0,0,0,0,0,0,0,1,1,52.39,FLYING
52.7,APPROACH,ILS_TRACK,77.13,76,-1.13,344.4,-4.27,3.38,6.38,270.41,0.033,0.1378,16.675,270.39,-3.109,0.2,0.34,5.235,-0.012,-0.109,0,0,0,270.41,0,0,0,0,0,0,0,0,0,0,0,0,0,1,1,52.77,FLYING
53.02,APPROACH,ILS_TRACK,77.14,76,-1.14,343.05,-4.27,3.38,6.38,270.41,0.031,0.133,16.316,270.39,-3.106,0.21,0.34,5.209,-0.012,-0.106,0,0,0,270.41,0,0,0,0,0,0,0,0,0,0,0,0,0,1,1,53.09,FLYING
53.33,APPROACH,ILS_TRACK,77.14,76,-1.14,341.71,-4.27,3.38,6.38,270.41,0.03,0.1288,15.957,270.39,-3.103,0.21,0.34,5.184,-0.012,-0.103,0,0,0,270.41,0,0,0,0,0,0,0,0,0,0,0,0,0,1,1,53.4,FLYING
53.72,APPROACH,ILS_TRACK,77.12,76,-1.12,340.06,-4.28,3.39,6.39,270.4,0.028,0.1245,15.525,270.39,-3.099,0.22,0.34,5.152,-0.012,-0.099,0,0,0,270.41,0,0,0,0,0,0,0,0,0,0,0,0,0,1,1,53.79,FLYING
54.03,APPROACH,ILS_TRACK,77.1,76,-1.1,338.72,-4.28,3.39,6.39,270.4,0.027,0.1217,15.179,270.39,-3.096,0.22,0.34,5.127,-0.011,-0.096,0,0,0,270.41,0,0,0,0,0,0,0,0,0,0,0,0,0,1,1,54.1,FLYING
54.35,APPROACH,ILS_TRACK,77.06,76,-1.06,337.37,-4.28,3.39,6.4,270.4,0.026,0.1195,14.843,270.39,-3.092,0.22,0.33,5.101,-0.012,-0.092,0,0,0,270.41,0,0,0,0,0,0,0,0,0,0,0,0,0,1,1,54.42,FLYING
54.73,APPROACH,ILS_TRACK,77.01,76,-1.01,335.72,-4.28,3.4,6.41,270.4,0.026,0.1176,14.452,270.39,-3.087,0.23,0.33,5.07,-0.011,-0.087,0,0,0,270.41,0,0,0,0,0,0,0,0,0,0,0,0,0,1,1,54.8,FLYING
55.05,APPROACH,ILS_TRACK,76.96,76,-0.96,334.37,-4.28,3.41,6.42,270.4,0.026,0.1168,14.148,270.39,-3.083,0.23,0.32,5.044,-0.011,-0.083,0,0,0,270.41,0,0,0,0,0,0,0,0,0,0,0,0,0,1,1,55.12,FLYING
55.36,APPROACH,ILS_TRACK,76.9,76,-0.9,333.03,-4.28,3.41,6.43,270.4,0.024,0.1165,13.863,270.39,-3.079,0.23,0.32,5.019,-0.011,-0.079,0,0,0,270.41,0,0,0,0,0,0,0,0,0,0,0,0,0,1,1,55.43,FLYING
55.75,APPROACH,ILS_TRACK,76.82,76,-0.82,331.38,-4.28,3.43,6.44,270.4,0.021,0.117,13.544,270.39,-3.074,0.23,0.31,4.987,-0.011,-0.074,0,0,0,270.41,0,0,0,0,0,0,0,0,0,0,0,0,0,1,1,55.82,FLYING
56.06,APPROACH,ILS_TRACK,76.75,76,-0.75,330.03,-4.28,3.44,6.46,270.4,0.02,0.118,13.306,270.39,-3.069,0.24,0.3,4.962,-0.01,-0.069,0,0,0,270.41,0,0,0,0,0,0,0,0,0,0,0,0,0,1,1,56.13,FLYING
56.38,APPROACH,ILS_TRACK,76.67,76,-0.67,328.69,-4.27,3.45,6.47,270.4,0.019,0.1195,13.09,270.39,-3.064,0.24,0.29,4.936,-0.011,-0.064,0,0,0,270.41,0,0,0,0,0,0,0,0,0,0,0,0,0,1,1,56.45,FLYING
56.76,APPROACH,ILS_TRACK,76.58,76,-0.58,327.04,-4.27,3.46,6.48,270.4,0.019,0.1221,12.864,270.39,-3.058,0.24,0.28,4.905,-0.011,-0.058,0,0,0,270.41,0,0,0,0,0,0,0,0,0,0,0,0,0,1,1,56.83,FLYING
57.08,APPROACH,ILS_TRACK,76.5,76,-0.5,325.7,-4.27,3.47,6.5,270.4,0.018,0.1247,12.705,270.39,-3.053,0.24,0.27,4.88,-0.011,-0.053,0,0,0,270.41,0,0,0,0,0,0,0,0,0,0,0,0,0,1,1,57.15,FLYING
57.39,APPROACH,ILS_TRACK,76.41,76,-0.41,324.36,-4.26,3.48,6.51,270.4,0.017,0.1276,12.572,270.39,-3.049,0.24,0.26,4.854,-0.01,-0.049,0,0,0,270.41,0,0,0,0,0,0,0,0,0,0,0,0,0,1,1,57.46,FLYING
57.78,APPROACH,ILS_TRACK,76.31,76,-0.31,322.72,-4.26,3.5,6.53,270.4,0.016,0.1318,12.449,270.39,-3.043,0.24,0.24,4.823,-0.011,-0.043,0,0,0,270.41,0,0,0,0,0,0,0,0,0,0,0,0,0,1,1,57.85,FLYING
58.09,APPROACH,ILS_TRACK,76.23,76,-0.23,321.38,-4.26,3.51,6.54,270.4,0.015,0.1355,12.375,270.39,-3.038,0.24,0.23,4.798,-0.01,-0.038,0,0,0,270.41,0,0,0,0,0,0,0,0,0,0,0,0,0,1,1,58.16,FLYING
58.41,APPROACH,ILS_TRACK,76.14,76,-0.14,320.04,-4.25,3.52,6.55,270.4,0.013,0.1396,12.327,270.39,-3.033,0.24,0.22,4.773,-0.011,-0.033,0,0,0,270.41,0,0,0,0,0,0,0,0,0,0,0,0,0,1,1,58.48,FLYING
58.79,APPROACH,ILS_TRACK,76.04,76,-0.04,318.4,-4.25,3.54,6.57,270.4,0.011,0.1449,12.307,270.39,-3.028,0.24,0.2,4.742,-0.011,-0.028,0,0,0,270.41,0,0,0,0,0,0,0,0,0,0,0,0,0,1,1,58.86,FLYING
59.11,APPROACH,ILS_TRACK,75.96,76,0.04,317.06,-4.24,3.55,6.58,270.4,0.01,0.1496,12.317,270.39,-3.023,0.25,0.19,4.716,-0.011,-0.023,0,0,0,270.41,0,0,0,0,0,0,0,0,0,0,0,0,0,1,1,59.18,FLYING
59.42,APPROACH,ILS_TRACK,75.88,76,0.12,315.73,-4.24,3.56,6.59,270.4,0.01,0.1545,12.353,270.39,-3.019,0.25,0.17,4.691,-0.011,-0.019,0,0,0,270.41,0,0,0,0,0,0,0,0,0,0,0,0,0,1,1,59.49,FLYING
59.81,APPROACH,ILS_TRACK,75.78,76,0.22,314.1,-4.23,3.58,6.61,270.4,0.01,0.1608,12.435,270.39,-3.013,0.25,0.16,4.66,-0.011,-0.013,0,0,0,270.41,0,0,0,0,0,0,0,0,0,0,0,0,0,1,1,59.88,FLYING
60.12,APPROACH,ILS_TRACK,75.7,76,0.3,312.77,-4.23,3.59,6.62,270.4,0.008,0.1662,12.526,270.39,-3.009,0.25,0.14,4.635,-0.011,-0.009,0,0,0,270.41,0,0,0,0,0,0,0,0,0,0,0,0,0,1,1,60.19,FLYING
60.44,APPROACH,ILS_TRACK,75.63,76,0.37,311.44,-4.23,3.6,6.63,270.4,0.008,0.1719,12.641,270.39,-3.004,0.25,0.13,4.61,-0.011,-0.004,0,0,0,270.41,0,0,0,0,0,0,0,0,0,0,0,0,0,1,1,60.51,FLYING
60.82,APPROACH,ILS_TRACK,75.53,76,0.47,309.81,-4.22,3.61,6.64,270.4,0.008,0.179,12.817,270.39,-3,0.25,0.11,4.579,-0.011,0,0,0,0,270.41,0,0,0,0,0,0,0,0,0,0,0,0,0,1,1,60.89,FLYING
61.14,APPROACH,ILS_TRACK,75.46,76,0.54,308.48,-4.22,3.63,6.65,270.4,0.006,0.1849,12.984,270.39,-2.996,0.25,0.1,4.554,-0.011,0.004,0,0,0,270.41,0,0,0,0,0,0,0,0,0,0,0,0,0,1,1,61.21,FLYING
61.45,APPROACH,ILS_TRACK,75.39,76,0.61,307.16,-4.21,3.64,6.67,270.4,0.008,0.191,13.173,270.39,-2.992,0.26,0.09,4.529,-0.012,0.008,0,0,0,270.41,0,0,0,0,0,0,0,0,0,0,0,0,0,1,1,61.52,FLYING
61.84,APPROACH,ILS_TRACK,75.31,76,0.69,305.54,-4.2,3.65,6.68,270.4,0.009,0.1986,13.434,270.39,-2.988,0.26,0.07,4.499,-0.012,0.012,0,0,0,270.41,0,0,0,0,0,0,0,0,0,0,0,0,0,1,1,61.91,FLYING
62.15,APPROACH,ILS_TRACK,75.25,76,0.75,304.21,-4.2,3.66,6.69,270.4,0.008,0.2048,13.668,270.39,-2.985,0.26,0.06,4.474,-0.011,0.015,0,0,0,270.41,0,0,0,0,0,0,0,0,0,0,0,0,0,1,1,62.22,FLYING
62.47,APPROACH,ILS_TRACK,75.19,76,0.81,302.89,-4.2,3.67,6.7,270.4,0.01,0.2111,13.921,270.39,-2.982,0.26,0.05,4.449,-0.012,0.018,0,0,0,270.41,0,0,0,0,0,0,0,0,0,0,0,0,0,1,1,62.54,FLYING
62.85,APPROACH,ILS_TRACK,75.13,76,0.87,301.28,-4.19,3.68,6.71,270.4,0.01,0.2189,14.255,270.39,-2.98,0.26,0.03,4.418,-0.012,0.02,0,0,0,270.41,0,0,0,0,0,0,0,0,0,0,0,0,0,1,1,62.92,FLYING
63.17,APPROACH,ILS_TRACK,75.07,76,0.93,299.96,-4.18,3.69,6.71,270.4,0.009,0.2251,14.545,270.39,-2.978,0.27,0.02,4.393,-0.012,0.022,0,0,0,270.41,0,0,0,0,0,0,0,0,0,0,0,0,0,1,1,63.24,FLYING
63.48,APPROACH,ILS_TRACK,75.03,76,0.97,298.65,-4.18,3.7,6.72,270.41,0.009,0.2313,14.849,270.39,-2.976,0.27,0.01,4.368,-0.013,0.024,0,0,0,270.41,0,0,0,0,0,0,0,0,0,0,0,0,0,1,1,63.55,FLYING
63.87,APPROACH,ILS_TRACK,74.98,76,1.02,297.04,-4.17,3.71,6.73,270.41,0.01,0.2389,15.241,270.39,-2.975,0.27,0,4.338,-0.013,0.025,0,0,0,270.41,0,0,0,0,0,0,0,0,0,0,0,0,0,1,1,63.94,FLYING
64.18,APPROACH,ILS_TRACK,74.94,76,1.06,295.73,-4.17,3.71,6.73,270.41,0.012,0.2449,15.573,270.39,-2.974,0.27,-0.01,4.313,-0.013,0.026,0,0,0,270.41,0,0,0,0,0,0,0,0,0,0,0,0,0,1,1,64.25,FLYING
64.5,APPROACH,ILS_TRACK,74.91,76,1.09,294.41,-4.16,3.72,6.74,270.41,0.012,0.2507,15.915,270.39,-2.974,0.28,-0.02,4.288,-0.013,0.026,0,0,0,270.41,0,0,0,0,0,0,0,0,0,0,0,0,0,1,1,64.57,FLYING
64.88,APPROACH,ILS_TRACK,74.88,76,1.12,292.81,-4.16,3.72,6.74,270.41,0.013,0.2576,16.346,270.39,-2.973,0.28,-0.03,4.258,-0.013,0.027,0,0,0,270.41,0,0,0,0,0,0,0,0,0,0,0,0,0,1,1,64.95,FLYING
65.2,APPROACH,ILS_TRACK,74.86,76,1.14,291.5,-4.15,3.73,6.74,270.41,0.013,0.263,16.704,270.39,-2.974,0.28,-0.03,4.233,-0.014,0.026,0,0,0,270.41,0,0,0,0,0,0,0,0,0,0,0,0,0,1,1,65.27,FLYING
65.51,APPROACH,ILS_TRACK,74.85,76,1.15,290.2,-4.15,3.73,6.74,270.41,0.012,0.2682,17.067,270.39,-2.975,0.29,-0.04,4.208,-0.014,0.025,0,0,0,270.41,0,0,0,0,0,0,0,0,0,0,0,0,0,1,1,65.58,FLYING
65.9,APPROACH,ILS_TRACK,74.84,76,1.16,288.6,-4.14,3.73,6.74,270.41,0.012,0.2742,17.515,270.39,-2.976,0.29,-0.04,4.178,-0.014,0.024,0,0,0,270.41,0,0,0,0,0,0,0,0,0,0,0,0,0,1,1,65.97,FLYING
66.21,APPROACH,ILS_TRACK,74.83,76,1.17,287.29,-4.14,3.74,6.74,270.41,0.013,0.2787,17.883,270.39,-2.978,0.29,-0.05,4.153,-0.014,0.022,0,0,0,270.41,0,0,0,0,0,0,0,0,0,0,0,0,0,1,1,66.28,FLYING
66.53,APPROACH,ILS_TRACK,74.84,76,1.16,285.99,-4.14,3.74,6.74,270.41,0.011,0.2829,18.249,270.39,-2.98,0.3,-0.05,4.128,-0.015,0.02,0,0,0,270.41,0,0,0,0,0,0,0,0,0,0,0,0,0,1,1,66.6,FLYING
66.91,APPROACH,ILS_TRACK,74.85,76,1.15,284.4,-4.13,3.74,6.74,270.41,0.01,0.2876,18.691,270.39,-2.982,0.3,-0.05,4.097,-0.014,0.018,0,0,0,270.41,0,0,0,0,0,0,0,0,0,0,0,0,0,1,1,66.98,FLYING
67.23,APPROACH,ILS_TRACK,74.87,76,1.13,283.1,-4.13,3.73,6.73,270.41,0.012,0.2909,19.049,270.38,-2.985,0.3,-0.05,4.073,-0.015,0.015,0,0,0,270.41,0,0,0,0,0,0,0,0,0,0,0,0,0,1,1,67.3,FLYING
67.54,APPROACH,ILS_TRACK,74.89,76,1.11,281.79,-4.13,3.73,6.73,270.41,0.011,0.2939,19.399,270.38,-2.988,0.31,-0.05,4.048,-0.015,0.012,0,0,0,270.41,0,0,0,0,0,0,0,0,0,0,0,0,0,1,1,67.61,FLYING
67.93,APPROACH,ILS_TRACK,74.93,76,1.07,280.21,-4.13,3.73,6.72,270.41,0.012,0.2969,19.813,270.38,-2.992,0.31,-0.05,4.017,-0.015,0.008,0,0,0,270.41,0,0,0,0,0,0,0,0,0,0,0,0,0,1,1,68,FLYING
68.24,APPROACH,ILS_TRACK,74.96,76,1.04,278.91,-4.12,3.72,6.71,270.41,0.011,0.2972,20,270.38,-2.996,0.32,-0.04,3.992,-0.016,0.004,0,0,0,270.41,0,0,0,0,0,0,0,0,0,0,0,0,0,1,1,68.31,FLYING
68.56,APPROACH,ILS_TRACK,75.01,76,0.99,277.61,-4.12,3.72,6.7,270.41,0.012,0.2949,20,270.38,-3.001,0.32,-0.04,3.968,-0.016,-0.001,0,0,0,270.41,0,0,0,0,0,0,0,0,0,0,0,0,0,1,1,68.63,FLYING
68.94,APPROACH,ILS_TRACK,75.07,76,0.93,276.02,-4.12,3.71,6.69,270.41,0.012,0.2917,20,270.38,-3.006,0.32,-0.03,3.937,-0.016,-0.006,0,0,0,270.41,0,0,0,0,0,0,0,0,0,0,0,0,0,1,1,69.01,FLYING
69.26,APPROACH,ILS_TRACK,75.12,76,0.88,274.72,-4.12,3.7,6.68,270.41,0.015,0.2888,20,270.38,-3.011,0.33,-0.02,3.912,-0.016,-0.011,0,0,0,270.41,0,0,0,0,0,0,0,0,0,0,0,0,0,1,1,69.33,FLYING
69.57,APPROACH,ILS_TRACK,75.18,76,0.82,273.42,-4.12,3.7,6.67,270.41,0.013,0.2855,20,270.38,-3.017,0.33,-0.02,3.887,-0.016,-0.017,0,0,0,270.41,0,0,0,0,0,0,0,0,0,0,0,0,0,1,1,69.64,FLYING
69.96,APPROACH,ILS_TRACK,75.26,76,0.74,271.83,-4.12,3.68,6.66,270.41,0.014,0.2813,20,270.38,-3.023,0.34,0,3.857,-0.017,-0.023,0,0,0,270.41,0,0,0,0,0,0,0,0,0,0,0,0,0,1,1,70.03,FLYING
70.27,APPROACH,ILS_TRACK,75.33,76,0.67,270.53,-4.12,3.68,6.65,270.41,0.015,0.2775,20,270.38,-3.03,0.34,0.01,3.832,-0.017,-0.03,0,0,0,270.41,0,0,0,0,0,0,0,0,0,0,0,0,0,1,1,70.34,FLYING
70.59,APPROACH,ILS_TRACK,75.4,76,0.6,269.24,-4.12,3.66,6.63,270.41,0.015,0.2735,20,270.38,-3.035,0.35,0.02,3.807,-0.017,-0.035,0,0,0,270.41,0,0,0,0,0,0,0,0,0,0,0,0,0,1,1,70.66,FLYING
70.97,APPROACH,ILS_TRACK,75.49,76,0.51,267.65,-4.12,3.65,6.62,270.41,0.017,0.2684,20,270.38,-3.042,0.35,0.03,3.776,-0.017,-0.042,0,0,0,270.41,0,0,0,0,0,0,0,0,0,0,0,0,0,1,1,71.04,FLYING
71.29,APPROACH,ILS_TRACK,75.57,76,0.43,266.35,-4.12,3.64,6.61,270.41,0.017,0.264,20,270.38,-3.049,0.36,0.05,3.751,-0.018,-0.049,0,0,0,270.41,0,0,0,0,0,0,0,0,0,0,0,0,0,1,1,71.36,FLYING
71.6,APPROACH,ILS_TRACK,75.66,76,0.34,265.05,-4.13,3.62,6.59,270.41,0.018,0.2594,20,270.38,-3.055,0.36,0.06,3.726,-0.018,-0.055,0,0,0,270.41,0,0,0,0,0,0,0,0,0,0,0,0,0,1,1,71.67,FLYING
71.99,APPROACH,ILS_TRACK,75.76,76,0.24,263.46,-4.13,3.61,6.57,270.41,0.02,0.2537,20,270.38,-3.061,0.36,0.08,3.695,-0.018,-0.061,0,0,0,270.41,0,0,0,0,0,0,0,0,0,0,0,0,0,1,1,72.06,FLYING
72.3,APPROACH,ILS_TRACK,75.85,76,0.15,262.15,-4.13,3.6,6.56,270.41,0.02,0.2489,20,270.38,-3.067,0.37,0.1,3.67,-0.018,-0.067,0,0,0,270.41,0,0,0,0,0,0,0,0,0,0,0,0,0,1,1,72.37,FLYING
72.62,APPROACH,ILS_TRACK,75.94,76,0.06,260.85,-4.14,3.58,6.55,270.41,0.022,0.244,20,270.38,-3.072,0.37,0.11,3.645,-0.018,-0.072,0,0,0,270.41,0,0,0,0,0,0,0,0,0,0,0,0,0,1,1,72.69,FLYING
73,APPROACH,ILS_TRACK,76.05,76,-0.05,259.25,-4.14,3.56,6.53,270.41,0.023,0.2377,19.985,270.38,-3.078,0.38,0.13,3.614,-0.018,-0.078,0,0,0,270.41,0,0,0,0,0,0,0,0,0,0,0,0,0,1,1,73.07,FLYING
73.32,APPROACH,ILS_TRACK,76.14,76,-0.14,257.95,-4.15,3.55,6.51,270.41,0.021,0.2322,19.944,270.38,-3.083,0.38,0.14,3.589,-0.018,-0.083,0,0,0,270.41,0,0,0,0,0,0,0,0,0,0,0,0,0,1,1,73.39,FLYING
73.63,APPROACH,ILS_TRACK,76.23,76,-0.23,256.64,-4.15,3.53,6.5,270.41,0.023,0.2263,19.875,270.38,-3.087,0.38,0.16,3.564,-0.018,-0.087,0,0,0,270.41,0,0,0,0,0,0,0,0,0,0,0,0,0,1,1,73.7,FLYING
74.02,APPROACH,ILS_TRACK,76.34,76,-0.34,255.04,-4.16,3.52,6.48,270.4,0.024,0.2186,19.746,270.38,-3.091,0.39,0.18,3.533,-0.018,-0.091,0,0,0,270.41,0,0,0,0,0,0,0,0,0,0,0,0,0,1,1,74.09,FLYING
74.33,APPROACH,ILS_TRACK,76.43,76,-0.43,253.72,-4.17,3.5,6.47,270.4,0.026,0.212,19.612,270.38,-3.094,0.39,0.19,3.508,-0.018,-0.094,0,0,0,270.41,0,0,0,0,0,0,0,0,0,0,0,0,0,1,1,74.4,FLYING
74.65,APPROACH,ILS_TRACK,76.52,76,-0.52,252.41,-4.17,3.49,6.45,270.4,0.026,0.2052,19.45,270.38,-3.097,0.39,0.21,3.482,-0.018,-0.097,0,0,0,270.41,0,0,0,0,0,0,0,0,0,0,0,0,0,1,1,74.72,FLYING
75.03,APPROACH,ILS_TRACK,76.62,76,-0.62,250.8,-4.18,3.47,6.44,270.4,0.026,0.1967,19.213,270.38,-3.099,0.4,0.22,3.451,-0.017,-0.099,0,0,0,270.41,0,0,0,0,0,0,0,0,0,0,0,0,0,1,1,75.1,FLYING
75.35,APPROACH,ILS_TRACK,76.7,76,-0.7,249.48,-4.19,3.46,6.43,270.4,0.025,0.1898,18.995,270.38,-3.101,0.4,0.23,3.426,-0.018,-0.101,0,0,0,270.41,0,0,0,0,0,0,0,0,0,0,0,0,0,1,1,75.42,FLYING
75.66,APPROACH,ILS_TRACK,76.77,76,-0.77,248.16,-4.2,3.45,6.42,270.4,0.024,0.1829,18.753,270.38,-3.102,0.4,0.25,3.4,-0.017,-0.102,0,0,0,270.41,0,0,0,0,0,0,0,0,0,0,0,0,0,1,1,75.73,FLYING
76.05,APPROACH,ILS_TRACK,76.85,76,-0.85,246.54,-4.2,3.43,6.41,270.4,0.024,0.1746,18.428,270.38,-3.104,0.4,0.26,3.369,-0.017,-0.104,0,0,0,270.41,0,0,0,0,0,0,0,0,0,0,0,0,0,1,1,76.12,FLYING
76.36,APPROACH,ILS_TRACK,76.91,76,-0.91,245.21,-4.21,3.42,6.4,270.4,0.024,0.1681,18.144,270.38,-3.104,0.4,0.27,3.344,-0.017,-0.104,0,0,0,270.41,0,0,0,0,0,0,0,0,0,0,0,0,0,1,1,76.43,FLYING
76.68,APPROACH,ILS_TRACK,76.95,76,-0.95,243.89,-4.21,3.42,6.4,270.4,0.024,0.1619,17.845,270.38,-3.104,0.4,0.28,3.318,-0.018,-0.104,0,0,0,270.41,0,0,0,0,0,0,0,0,0,0,0,0,0,1,1,76.75,FLYING
77.06,APPROACH,ILS_TRACK,77,76,-1,242.26,-4.22,3.41,6.39,270.4,0.025,0.1547,17.461,270.38,-3.103,0.41,0.28,3.287,-0.017,-0.103,0,0,0,270.41,0,0,0,0,0,0,0,0,0,0,0,0,0,1,1,77.13,FLYING
77.38,APPROACH,ILS_TRACK,77.03,76,-1.03,240.93,-4.22,3.41,6.39,270.4,0.022,0.1493,17.138,270.38,-3.102,0.41,0.29,3.262,-0.017,-0.102,0,0,0,270.41,0,0,0,0,0,0,0,0,0,0,0,0,0,1,1,77.45,FLYING
77.69,APPROACH,ILS_TRACK,77.05,76,-1.05,239.6,-4.23,3.4,6.39,270.4,0.021,0.1442,16.809,270.38,-3.101,0.41,0.3,3.236,-0.017,-0.101,0,0,0,270.41,0,0,0,0,0,0,0,0,0,0,0,0,0,1,1,77.76,FLYING
78.08,APPROACH,ILS_TRACK,77.06,76,-1.06,237.97,-4.23,3.4,6.39,270.4,0.02,0.1387,16.402,270.38,-3.099,0.41,0.3,3.205,-0.016,-0.099,0,0,0,270.41,0,0,0,0,0,0,0,0,0,0,0,0,0,1,1,78.15,FLYING
78.39,APPROACH,ILS_TRACK,77.06,76,-1.06,236.64,-4.24,3.4,6.39,270.4,0.02,0.1347,16.069,270.38,-3.097,0.41,0.3,3.18,-0.016,-0.097,0,0,0,270.41,0,0,0,0,0,0,0,0,0,0,0,0,0,1,1,78.46,FLYING
78.71,APPROACH,ILS_TRACK,77.05,76,-1.05,235.3,-4.24,3.4,6.4,270.4,0.017,0.1313,15.739,270.38,-3.095,0.41,0.3,3.154,-0.016,-0.095,0,0,0,270.41,0,0,0,0,0,0,0,0,0,0,0,0,0,1,1,78.78,FLYING
79.09,APPROACH,ILS_TRACK,77.02,76,-1.02,233.67,-4.24,3.4,6.4,270.4,0.014,0.1278,15.344,270.38,-3.092,0.41,0.3,3.123,-0.016,-0.092,0,0,0,270.41,0,0,0,0,0,0,0,0,0,0,0,0,0,1,1,79.16,FLYING
79.41,APPROACH,ILS_TRACK,76.99,76,-0.99,232.33,-4.24,3.41,6.41,270.4,0.014,0.1255,15.03,270.38,-3.089,0.41,0.3,3.097,-0.016,-0.089,0,0,0,270.41,0,0,0,0,0,0,0,0,0,0,0,0,0,1,1,79.48,FLYING
79.72,APPROACH,ILS_TRACK,76.96,76,-0.96,231,-4.24,3.41,6.42,270.4,0.012,0.1238,14.727,270.38,-3.086,0.4,0.3,3.072,-0.016,-0.086,0,0,0,270.41,0,0,0,0,0,0,0,0,0,0,0,0,0,1,1,79.79,FLYING
80.11,APPROACH,ILS_TRACK,76.9,76,-0.9,229.37,-4.24,3.42,6.43,270.4,0.012,0.1225,14.377,270.38,-3.082,0.4,0.3,3.041,-0.016,-0.082,0,0,0,270.41,0,0,0,0,0,0,0,0,0,0,0,0,0,1,1,80.18,FLYING
80.42,APPROACH,ILS_TRACK,76.85,76,-0.85,228.03,-4.24,3.43,6.44,270.4,0.012,0.122,14.107,270.38,-3.079,0.4,0.29,3.015,-0.016,-0.079,0,0,0,270.41,0,0,0,0,0,0,0,0,0,0,0,0,0,1,1,80.49,FLYING
80.74,APPROACH,ILS_TRACK,76.8,76,-0.8,226.69,-4.24,3.43,6.44,270.4,0.012,0.1221,13.854,270.38,-3.075,0.4,0.29,2.99,-0.016,-0.075,0,0,0,270.41,0,0,0,0,0,0,0,0,0,0,0,0,0,1,1,80.81,FLYING
81.12,APPROACH,ILS_TRACK,76.72,76,-0.72,225.06,-4.24,3.44,6.46,270.4,0.012,0.1229,13.574,270.38,-3.071,0.4,0.28,2.959,-0.015,-0.071,0,0,0,270.41,0,0,0,0,0,0,0,0,0,0,0,0,0,1,1,81.19,FLYING
81.44,APPROACH,ILS_TRACK,76.65,76,-0.65,223.73,-4.24,3.45,6.47,270.4,0.009,0.124,13.365,270.38,-3.067,0.4,0.28,2.934,-0.016,-0.067,0,0,0,270.41,0,0,0,0,0,0,0,0,0,0,0,0,0,1,1,81.51,FLYING
81.75,APPROACH,ILS_TRACK,76.58,76,-0.58,222.39,-4.24,3.46,6.48,270.4,0.009,0.1256,13.179,270.38,-3.063,0.4,0.27,2.908,-0.015,-0.063,0,0,0,270.41,0,0,0,0,0,0,0,0,0,0,0,0,0,1,1,81.82,FLYING
82.14,APPROACH,ILS_TRACK,76.49,76,-0.49,220.76,-4.23,3.48,6.49,270.4,0.008,0.1282,12.985,270.38,-3.058,0.4,0.26,2.877,-0.016,-0.058,0,0,0,270.41,0,0,0,0,0,0,0,0,0,0,0,0,0,1,1,82.21,FLYING
82.45,APPROACH,ILS_TRACK,76.42,76,-0.42,219.43,-4.23,3.49,6.51,270.4,0.009,0.1307,12.851,270.38,-3.054,0.4,0.25,2.852,-0.015,-0.054,0,0,0,270.41,0,0,0,0,0,0,0,0,0,0,0,0,0,1,1,82.52,FLYING
82.77,APPROACH,ILS_TRACK,76.34,76,-0.34,218.1,-4.23,3.5,6.52,270.4,0.01,0.1335,12.74,270.38,-3.05,0.4,0.24,2.827,-0.016,-0.05,0,0,0,270.41,0,0,0,0,0,0,0,0,0,0,0,0,0,1,1,82.84,FLYING
83.15,APPROACH,ILS_TRACK,76.25,76,-0.25,216.47,-4.22,3.51,6.53,270.4,0.011,0.1374,12.64,270.38,-3.045,0.4,0.23,2.796,-0.016,-0.045,0,0,0,270.41,0,0,0,0,0,0,0,0,0,0,0,0,0,1,1,83.22,FLYING
83.47,APPROACH,ILS_TRACK,76.17,76,-0.17,215.14,-4.22,3.52,6.54,270.4,0.01,0.1409,12.582,270.38,-3.041,0.4,0.22,2.771,-0.016,-0.041,0,0,0,270.41,0,0,0,0,0,0,0,0,0,0,0,0,0,1,1,83.54,FLYING
83.78,APPROACH,ILS_TRACK,76.1,76,-0.1,213.82,-4.22,3.53,6.56,270.4,0.009,0.1447,12.549,270.38,-3.037,0.4,0.21,2.746,-0.015,-0.037,0,0,0,270.41,0,0,0,0,0,0,0,0,0,0,0,0,0,1,1,83.85,FLYING
84.17,APPROACH,ILS_TRACK,76.01,76,-0.01,212.19,-4.21,3.54,6.57,270.4,0.008,0.1497,12.543,270.38,-3.032,0.4,0.2,2.715,-0.016,-0.032,0,0,0,270.41,0,0,0,0,0,0,0,0,0,0,0,0,0,1,1,84.24,FLYING
84.48,APPROACH,ILS_TRACK,75.93,76,0.07,210.87,-4.21,3.56,6.58,270.4,0.008,0.154,12.561,270.38,-3.028,0.4,0.19,2.69,-0.016,-0.028,0,0,0,270.41,0,0,0,0,0,0,0,0,0,0,0,0,0,1,1,84.55,FLYING
84.8,APPROACH,ILS_TRACK,75.86,76,0.14,209.54,-4.21,3.57,6.59,270.4,0.007,0.1585,12.603,270.38,-3.024,0.4,0.18,2.665,-0.016,-0.024,0,0,0,270.41,0,0,0,0,0,0,0,0,0,0,0,0,0,1,1,84.87,FLYING
85.18,APPROACH,ILS_TRACK,75.77,76,0.23,207.93,-4.2,3.58,6.61,270.4,0.007,0.1643,12.687,270.38,-3.02,0.4,0.16,2.634,-0.016,-0.02,0,0,0,270.41,0,0,0,0,0,0,0,0,0,0,0,0,0,1,1,85.25,FLYING
85.5,APPROACH,ILS_TRACK,75.7,76,0.3,206.6,-4.2,3.59,6.62,270.4,0.008,0.1693,12.779,270.38,-3.016,0.4,0.15,2.609,-0.016,-0.016,0,0,0,270.41,0,0,0,0,0,0,0,0,0,0,0,0,0,1,1,85.57,FLYING
85.81,APPROACH,ILS_TRACK,75.63,76,0.37,205.28,-4.19,3.6,6.63,270.4,0.008,0.1744,12.891,270.38,-3.013,0.4,0.14,2.584,-0.016,-0.013,0,0,0,270.41,0,0,0,0,0,0,0,0,0,0,0,0,0,1,1,85.88,FLYING
86.2,APPROACH,ILS_TRACK,75.55,76,0.45,203.67,-4.19,3.61,6.64,270.4,0.008,0.1809,13.061,270.38,-3.009,0.4,0.12,2.554,-0.016,-0.009,0,0,0,270.41,0,0,0,0,0,0,0,0,0,0,0,0,0,1,1,86.27,FLYING
86.51,APPROACH,ILS_TRACK,75.49,76,0.51,202.35,-4.18,3.62,6.65,270.4,0.009,0.1863,13.219,270.38,-3.005,0.4,0.11,2.529,-0.016,-0.005,0,0,0,270.41,0,0,0,0,0,0,0,0,0,0,0,0,0,1,1,86.58,FLYING
86.83,APPROACH,ILS_TRACK,75.43,76,0.57,201.04,-4.18,3.63,6.66,270.4,0.009,0.1918,13.397,270.38,-3.002,0.4,0.1,2.504,-0.017,-0.002,0,0,0,270.41,0,0,0,0,0,0,0,0,0,0,0,0,0,1,1,86.9,FLYING
87.21,APPROACH,ILS_TRACK,75.36,76,0.64,199.43,-4.17,3.64,6.67,270.4,0.011,0.1986,13.641,270.38,-2.999,0.4,0.09,2.474,-0.017,0.001,0,0,0,270.41,0,0,0,0,0,0,0,0,0,0,0,0,0,1,1,87.28,FLYING
87.53,APPROACH,ILS_TRACK,75.3,76,0.7,198.11,-4.17,3.65,6.68,270.4,0.011,0.2043,13.859,270.38,-2.997,0.4,0.08,2.449,-0.017,0.003,0,0,0,270.41,0,0,0,0,0,0,0,0,0,0,0,0,0,1,1,87.6,FLYING
87.84,APPROACH,ILS_TRACK,75.25,76,0.75,196.8,-4.17,3.66,6.68,270.4,0.011,0.2099,14.093,270.38,-2.995,0.4,0.07,2.424,-0.017,0.005,0,0,0,270.41,0,0,0,0,0,0,0,0,0,0,0,0,0,1,1,87.91,FLYING
88.23,APPROACH,ILS_TRACK,75.19,76,0.81,195.2,-4.16,3.67,6.69,270.4,0.01,0.2168,14.401,270.38,-2.992,0.4,0.06,2.393,-0.017,0.008,0,0,0,270.41,0,0,0,0,0,0,0,0,0,0,0,0,0,1,1,88.3,FLYING
88.54,APPROACH,ILS_TRACK,75.15,76,0.85,193.89,-4.16,3.68,6.7,270.4,0.011,0.2224,14.667,270.38,-2.99,0.41,0.05,2.369,-0.017,0.01,0,0,0,270.41,0,0,0,0,0,0,0,0,0,0,0,0,0,1,1,88.61,FLYING
88.86,APPROACH,ILS_TRACK,75.11,76,0.89,192.58,-4.15,3.68,6.7,270.4,0.01,0.228,14.945,270.38,-2.989,0.41,0.04,2.344,-0.018,0.011,0,0,0,270.41,0,0,0,0,0,0,0,0,0,0,0,0,0,1,1,88.93,FLYING
89.24,APPROACH,ILS_TRACK,75.07,76,0.93,190.98,-4.15,3.69,6.71,270.4,0.012,0.2346,15.302,270.38,-2.987,0.41,0.03,2.314,-0.017,0.013,0,0,0,270.41,0,0,0,0,0,0,0,0,0,0,0,0,0,1,1,89.31,FLYING
89.56,APPROACH,ILS_TRACK,75.04,76,0.96,189.68,-4.14,3.7,6.71,270.4,0.012,0.2399,15.604,270.38,-2.987,0.41,0.02,2.289,-0.018,0.013,0,0,0,270.41,0,0,0,0,0,0,0,0,0,0,0,0,0,1,1,89.63,FLYING
89.87,APPROACH,ILS_TRACK,75.01,76,0.99,188.37,-4.14,3.7,6.72,270.4,0.012,0.245,15.913,270.38,-2.986,0.41,0.01,2.264,-0.018,0.014,0,0,0,270.41,0,0,0,0,0,0,0,0,0,0,0,0,0,1,1,89.94,FLYING
90.26,APPROACH,ILS_TRACK,74.99,76,1.01,186.78,-4.14,3.71,6.72,270.4,0.011,0.2511,16.301,270.38,-2.986,0.41,0.01,2.234,-0.018,0.014,0,0,0,270.41,0,0,0,0,0,0,0,0,0,0,0,0,0,1,1,90.33,FLYING
90.57,APPROACH,ILS_TRACK,74.98,76,1.02,185.48,-4.13,3.71,6.72,270.4,0.012,0.2558,16.624,270.38,-2.987,0.42,0,2.209,-0.018,0.013,0,0,0,270.41,0,0,0,0,0,0,0,0,0,0,0,0,0,1,1,90.64,FLYING
90.88,APPROACH,ILS_TRACK,74.97,76,1.03,184.19,-4.13,3.71,6.72,270.4,0.01,0.2602,16.949,270.38,-2.987,0.42,0,2.184,-0.018,0.013,0,0,0,270.41,0,0,0,0,0,0,0,0,0,0,0,0,0,1,1,90.95,FLYING
91.22,APPROACH,ILS_TRACK,74.96,76,1.04,182.79,-4.13,3.71,6.72,270.4,0.011,0.2651,17.329,270.38,-2.988,0.42,-0.01,2.157,-0.018,0.012,0,0,0,270.41,0,0,0,0,0,0,0,0,0,0,0,0,0,1,1,91.28,FLYING
91.44,APPROACH,ILS_TRACK,74.96,76,1.04,181.89,-4.12,3.72,6.72,270.4,0.011,0.2684,17.604,270.38,-2.99,0.42,-0.01,2.138,-0.019,0.01,0,0,0,270.41,0,0,0,0,0,0,0,0,0,0,0,0,0,1,1,91.48,FLYING
91.64,APPROACH,ILS_TRACK,74.96,76,1.04,181.06,-4.12,3.72,6.72,270.4,0.012,0.2708,17.812,270.38,-2.991,0.42,-0.01,2.123,-0.018,0.009,0,0,0,270.41,0,0,0,0,0,0,0,0,0,0,0,0,0,1,1,91.68,FLYING
91.84,APPROACH,ILS_TRACK,74.97,76,1.03,180.24,-4.12,3.72,6.72,270.4,0.011,0.273,18.018,270.38,-2.993,0.42,-0.01,2.107,-0.019,0.007,0,0,0,270.41,0,0,0,0,0,0,0,0,0,0,0,0,0,1,1,91.88,FLYING
92.04,APPROACH,ILS_TRACK,74.98,76,1.02,179.42,-4.12,3.72,6.72,270.4,0.012,0.275,18.223,270.38,-2.994,0.43,-0.01,2.091,-0.019,0.006,0,0,0,270.41,0,0,0,0,0,0,0,0,0,0,0,0,0,1,1,92.08,FLYING
92.28,APPROACH,ILS_TRACK,74.99,76,1.01,178.43,-4.11,3.72,6.71,270.4,0.011,0.2773,18.466,270.38,-2.996,0.43,-0.01,2.072,-0.019,0.004,0,0,0,270.41,0,0,0,0,0,0,0,0,0,0,0,0,0,1,1,92.32,FLYING
92.48,APPROACH,ILS_TRACK,75,76,1,177.61,-4.11,3.71,6.71,270.4,0.011,0.279,18.666,270.38,-2.998,0.43,-0.01,2.057,-0.019,0.002,0,0,0,270.41,0,0,0,0,0,0,0,0,0,0,0,0,0,1,1,92.52,FLYING
92.68,APPROACH,ILS_TRACK,75.02,76,0.98,176.78,-4.11,3.71,6.71,270.4,0.012,0.2806,18.863,270.38,-3,0.43,-0.01,2.041,-0.019,0,0,0,0,270.41,0,0,0,0,0,0,0,0,0,0,0,0,0,1,1,92.72,FLYING
92.88,APPROACH,ILS_TRACK,75.03,76,0.97,175.96,-4.11,3.71,6.7,270.4,0.012,0.282,19.057,270.38,-3.001,0.43,-0.01,2.025,-0.019,-0.001,0,0,0,270.41,0,0,0,0,0,0,0,0,0,0,0,0,0,1,1,92.92,FLYING
93.08,APPROACH,ILS_TRACK,75.05,76,0.95,175.14,-4.11,3.71,6.7,270.4,0.011,0.2832,19.247,270.38,-3.004,0.43,-0.01,2.009,-0.019,-0.004,0,0,0,270.41,0,0,0,0,0,0,0,0,0,0,0,0,0,1,1,93.12,FLYING
93.32,APPROACH,ILS_TRACK,75.08,76,0.92,174.15,-4.11,3.71,6.7,270.4,0.012,0.2845,19.469,270.38,-3.006,0.43,-0.01,1.991,-0.019,-0.006,0,0,0,270.41,0,0,0,0,0,0,0,0,0,0,0,0,0,1,1,93.36,FLYING
93.52,APPROACH,ILS_TRACK,75.1,76,0.9,173.33,-4.11,3.7,6.69,270.4,0.012,0.2854,19.649,270.38,-3.008,0.44,0,1.975,-0.019,-0.008,0,0,0,270.41,0,0,0,0,0,0,0,0,0,0,0,0,0,1,1,93.56,FLYING
93.72,APPROACH,ILS_TRACK,75.13,76,0.87,172.51,-4.11,3.7,6.69,270.4,0.012,0.286,19.824,270.38,-3.01,0.44,0,1.959,-0.02,-0.01,0,0,0,270.41,0,0,0,0,0,0,0,0,0,0,0,0,0,1,1,93.76,FLYING
93.92,APPROACH,ILS_TRACK,75.16,76,0.84,171.69,-4.11,3.7,6.68,270.4,0.013,0.2865,19.994,270.38,-3.013,0.44,0,1.943,-0.02,-0.013,0,0,0,270.41,0,0,0,0,0,0,0,0,0,0,0,0,0,1,1,93.96,FLYING
94.12,APPROACH,ILS_TRACK,75.19,76,0.81,170.87,-4.11,3.69,6.68,270.4,0.014,0.285,20,270.38,-3.015,0.44,0,1.928,-0.02,-0.015,0,0,0,270.41,0,0,0,0,0,0,0,0,0,0,0,0,0,1,1,94.16,FLYING
94.36,APPROACH,ILS_TRACK,75.22,76,0.78,169.88,-4.11,3.69,6.67,270.4,0.015,0.2828,20,270.38,-3.018,0.44,0.01,1.909,-0.02,-0.018,0,0,0,270.41,0,0,0,0,0,0,0,0,0,0,0,0,0,1,1,94.4,FLYING
94.56,APPROACH,ILS_TRACK,75.26,76,0.74,169.06,-4.11,3.68,6.66,270.4,0.014,0.281,20,270.38,-3.021,0.45,0.01,1.893,-0.02,-0.021,0,0,0,270.41,0,0,0,0,0,0,0,0,0,0,0,0,0,1,1,94.6,FLYING
94.76,APPROACH,ILS_TRACK,75.3,76,0.7,168.24,-4.11,3.68,6.66,270.4,0.015,0.279,20,270.38,-3.024,0.45,0.02,1.877,-0.02,-0.024,0,0,0,270.41,0,0,0,0,0,0,0,0,0,0,0,0,0,1,1,94.8,FLYING
94.96,APPROACH,ILS_TRACK,75.33,76,0.67,167.42,-4.11,3.67,6.65,270.4,0.015,0.2769,20,270.38,-3.027,0.45,0.02,1.862,-0.02,-0.027,0,0,0,270.41,0,0,0,0,0,0,0,0,0,0,0,0,0,1,1,95,FLYING
95.16,APPROACH,ILS_TRACK,75.37,76,0.63,166.6,-4.11,3.66,6.64,270.4,0.016,0.2747,20,270.38,-3.03,0.45,0.03,1.846,-0.02,-0.03,0,0,0,270.41,0,0,0,0,0,0,0,0,0,0,0,0,0,1,1,95.2,FLYING
95.4,APPROACH,ILS_TRACK,75.42,76,0.58,165.61,-4.11,3.66,6.63,270.4,0.017,0.2719,20,270.38,-3.033,0.45,0.04,1.827,-0.02,-0.033,0,0,0,270.41,0,0,0,0,0,0,0,0,0,0,0,0,0,1,1,95.44,FLYING
95.6,APPROACH,ILS_TRACK,75.47,76,0.53,164.79,-4.11,3.65,6.63,270.4,0.017,0.2696,20,270.38,-3.036,0.45,0.04,1.811,-0.02,-0.036,0,0,0,270.41,0,0,0,0,0,0,0,0,0,0,0,0,0,1,1,95.64,FLYING
95.8,APPROACH,ILS_TRACK,75.51,76,0.49,163.97,-4.11,3.64,6.62,270.4,0.018,0.2671,20,270.38,-3.039,0.46,0.05,1.795,-0.02,-0.039,0,0,0,270.41,0,0,0,0,0,0,0,0,0,0,0,0,0,1,1,95.84,FLYING
96,APPROACH,ILS_TRACK,75.56,76,0.44,163.14,-4.11,3.64,6.61,270.4,0.018,0.2646,20,270.38,-3.042,0.46,0.05,1.779,-0.021,-0.042,0,0,0,270.41,0,0,0,0,0,0,0,0,0,0,0,0,0,1,1,96.04,FLYING
96.2,APPROACH,ILS_TRACK,75.6,76,0.4,162.32,-4.11,3.63,6.6,270.4,0.018,0.262,20,270.38,-3.044,0.46,0.06,1.764,-0.02,-0.044,0,0,0,270.41,0,0,0,0,0,0,0,0,0,0,0,0,0,1,1,96.24,FLYING
96.44,APPROACH,ILS_TRACK,75.66,76,0.34,161.33,-4.11,3.62,6.59,270.4,0.019,0.2588,20,270.38,-3.048,0.46,0.07,1.745,-0.021,-0.048,0,0,0,270.41,0,0,0,0,0,0,0,0,0,0,0,0,0,1,1,96.48,FLYING
96.64,APPROACH,ILS_TRACK,75.71,76,0.29,160.51,-4.11,3.61,6.59,270.4,0.02,0.2561,20,270.38,-3.051,0.46,0.08,1.729,-0.021,-0.051,0,0,0,270.41,0,0,0,0,0,0,0,0,0,0,0,0,0,1,1,96.68,FLYING
96.84,APPROACH,ILS_TRACK,75.76,76,0.24,159.69,-4.12,3.61,6.58,270.4,0.021,0.2533,20,270.38,-3.053,0.46,0.08,1.713,-0.02,-0.053,0,0,0,270.41,0,0,0,0,0,0,0,0,0,0,0,0,0,1,1,96.88,FLYING
97.04,APPROACH,ILS_TRACK,75.81,76,0.19,158.86,-4.12,3.6,6.57,270.4,0.02,0.2505,20,270.38,-3.056,0.47,0.09,1.697,-0.021,-0.056,0,0,0,270.41,0,0,0,0,0,0,0,0,0,0,0,0,0,1,1,97.08,FLYING
97.24,APPROACH,ILS_TRACK,75.87,76,0.13,158.04,-4.12,3.59,6.56,270.4,0.021,0.2476,20,270.38,-3.059,0.47,0.1,1.681,-0.02,-0.059,0,0,0,270.41,0,0,0,0,0,0,0,0,0,0,0,0,0,1,1,97.28,FLYING
97.48,APPROACH,ILS_TRACK,75.93,76,0.07,157.05,-4.12,3.58,6.55,270.4,0.022,0.2441,20,270.38,-3.062,0.47,0.11,1.662,-0.02,-0.062,0,0,0,270.41,0,0,0,0,0,0,0,0,0,0,0,0,0,1,1,97.52,FLYING
97.68,APPROACH,ILS_TRACK,75.98,76,0.02,156.22,-4.13,3.57,6.54,270.4,0.022,0.2412,20,270.38,-3.064,0.47,0.11,1.646,-0.021,-0.064,0,0,0,270.41,0,0,0,0,0,0,0,0,0,0,0,0,0,1,1,97.72,FLYING
97.88,APPROACH,ILS_TRACK,76.04,76,-0.04,155.4,-4.13,3.56,6.53,270.4,0.022,0.2381,19.993,270.38,-3.067,0.47,0.12,1.63,-0.02,-0.067,0,0,0,270.41,0,0,0,0,0,0,0,0,0,0,0,0,0,1,1,97.92,FLYING
98.08,APPROACH,ILS_TRACK,76.09,76,-0.09,154.57,-4.13,3.55,6.53,270.4,0.022,0.2349,19.976,270.38,-3.069,0.47,0.13,1.614,-0.02,-0.069,0,0,0,270.41,0,0,0,0,0,0,0,0,0,0,0,0,0,1,1,98.12,FLYING
98.28,APPROACH,ILS_TRACK,76.15,76,-0.15,153.74,-4.13,3.55,6.52,270.4,0.022,0.2315,19.947,270.38,-3.071,0.47,0.14,1.598,-0.02,-0.071,0,0,0,270.41,0,0,0,0,0,0,0,0,0,0,0,0,0,1,1,98.32,FLYING
98.52,APPROACH,ILS_TRACK,76.21,76,-0.21,152.75,-4.14,3.53,6.51,270.4,0.022,0.2273,19.897,270.38,-3.074,0.47,0.15,1.579,-0.02,-0.074,0,0,0,270.41,0,0,0,0,0,0,0,0,0,0,0,0,0,1,1,98.56,FLYING
98.72,APPROACH,ILS_TRACK,76.27,76,-0.27,151.92,-4.14,3.53,6.5,270.4,0.023,0.2236,19.845,270.38,-3.076,0.48,0.15,1.563,-0.021,-0.076,0,0,0,270.41,0,0,0,0,0,0,0,0,0,0,0,0,0,1,1,98.76,FLYING
98.92,APPROACH,ILS_TRACK,76.32,76,-0.32,151.09,-4.14,3.52,6.49,270.4,0.023,0.2198,19.781,270.38,-3.078,0.48,0.16,1.547,-0.02,-0.078,0,0,0,270.41,0,0,0,0,0,0,0,0,0,0,0,0,0,1,1,98.96,FLYING
99.12,APPROACH,ILS_TRACK,76.38,76,-0.38,150.26,-4.15,3.51,6.48,270.4,0.022,0.2159,19.706,270.38,-3.08,0.48,0.17,1.531,-0.02,-0.08,0,0,0,270.41,0,0,0,0,0,0,0,0,0,0,0,0,0,1,1,99.16,FLYING
99.32,APPROACH,ILS_TRACK,76.43,76,-0.43,149.43,-4.15,3.5,6.47,270.4,0.022,0.2119,19.62,270.38,-3.082,0.48,0.18,1.516,-0.02,-0.082,0,0,0,270.41,0,0,0,0,0,0,0,0,0,0,0,0,0,1,1,99.36,FLYING
