t_s,phase,subphase,ias_ms,vapp_ms,spd_err_ms,agl_m,vs_ms,pitch_deg,aoa_deg,hdg_deg,bank_deg,thr_cmd,thr_cur,thr_intg,at_gain,at_tau_s,at_a_up,at_a_dn,at_kp_thr,at_ki_spd,at_thr_slew,aa_hdg_cmd_deg,aa_fpa_cmd_deg,aa_fbw,aa_dir,actual_fpa_deg,ftf_hdg_err_deg,ftf_fix_idx,kos_steer_pit_deg,kos_steer_hdg_deg,aa_dir_vx,aa_dir_vy,aa_dir_vz,aa_dir_pitch_deg,aa_dir_hdg_deg,ils_loc_m,ils_gs_m,ils_dist_km,loc_corr_deg,gs_corr_deg,gs_latched,active_gs_ang_deg,ils_intercept_alt_m,d_gs_ms,fpa_preclamped_deg,gs_nom_alt_m,flare_fpa_cmd,flare_tgt_vs,flare_frac,steer_hdg_deg,steer_blend,ro_loc_corr_deg,ro_hdg_err_deg,ro_yaw_tgt,ro_yaw_scale,ro_yaw_gate,yaw_cmd,roll_cmd,pitch_cmd,ro_pitch_tgt_deg,ro_pitch_err_deg,ro_pitch_ff,ro_roll_assist,flaps_cur,flaps_tgt,asc_j_ab,asc_j_rk,asc_validity,asc_q_pa,asc_q_raw_pa,asc_mach,asc_apo_m,asc_drag_n,asc_w_prop,asc_edot_aero,asc_edot_orb,asc_pitch_bias,asc_blend,asc_spooling,asc_ab_thr_ratio,asc_ab_t_now,asc_ab_t_avail,asc_ab_ign_on,asc_ab_flameouts,asc_rk_t_now,asc_rk_t_avail,asc_rk_ign_on,asc_rk_flameouts,ship_thrust,ship_avail_thrust,ship_ign_on,ship_flameouts,ifc_raw_dt_s,ifc_dt_s,ifc_loop_n,ifc_hz_est,ifc_raw_dt_max_s,ifc_raw_dt_min_s,phase_el_s,status,craft_name,cfg_file
0.12,TAKEOFF,TO_PREFLIGHT,0.14,80,79.86,3.63,-0.02,-0.13,3.19,90.11,0.091,0.04,0,0,0,0,0,0,0,0,0,90.4,0,1,0,-0.49,0,0,0,90,0,0,0,0,0,0,0,0,0,0,0,3,0,0,0,69,0,0,0,90.4,1,0,-0.286,0,0,1,0,0,0,0,0,0,0,0,1,0,0,VALID,0,0,0,0,0,1,0,0,0,0,0,0,0,0,0,0,0,0,0,0,0,518.09,2,0,0.1,0.1,1,3.45,0.1,0.02,0.02,PRELAUNCH,CF1-H,0:/Integrated Flight Computer/aircraft/cf1_h_cfg.ks (inferred preloaded)
0.38,TAKEOFF,TO_PREFLIGHT,0.13,80,79.87,3.61,0.04,-0.29,-20.31,90.12,0.091,0.112,0,0,0,0,0,0,0,0,0,90.4,0,1,0,2.39,0,0,0,90,0,0,0,0,0,0,0,0,0,0,0,3,0,0,0,69,0,0,0,90.4,1,0,-0.285,0,0,1,0,0,0,0,0,0,0,1,1,0,0,VALID,0,0,0,0,0,1,0,0,0,0,0,0,0,0,0,0,0,0,0,0,0.35,518.09,2,0,0.04,0.04,6,19.23,0.1,0.04,0.28,PRELAUNCH,CF1-H,0:/Integrated Flight Computer/aircraft/cf1_h_cfg.ks (inferred preloaded)
0.64,TAKEOFF,TO_PREFLIGHT,0.02,80,79.98,3.61,-0.03,-0.27,44.81,90.13,0.106,0.216,0,0,0,0,0,0,0,0,0,90.4,0,1,0,-1.94,0,0,0,90,0,0,0,0,0,0,0,0,0,0,0,3,0,0,0,69,0,0,0,90.4,1,0,-0.285,0,0,1,0,0,0,0,0,0,0,1,1,0,0,VALID,0,0,0,0,0,1,0,0,0,0,0,0,0,0,0,0,0,0,0,0,1.44,518.11,2,0,0.04,0.04,11,19.23,0.08,0.04,0.54,PRELAUNCH,CF1-H,0:/Integrated Flight Computer/aircraft/cf1_h_cfg.ks (inferred preloaded)
0.9,TAKEOFF,TO_PREFLIGHT,0.04,80,79.96,3.62,-0.04,-0.17,62.19,90.13,0.112,0.32,0,0,0,0,0,0,0,0,0,90.4,0,1,0,-2.39,0,0,0,90,0,0,0,0,0,0,0,0,0,0,0,3,0,0,0,69,0,0,0,90.4,1,0,-0.285,0,0,1,0,0,0,0,0,0,0,1,1,0,0,VALID,0,0,0,0,0,1,0,0,0,0,0,0,0,0,0,0,0,0,0,0,3.35,518.11,2,0,0.04,0.04,16,19.23,0.08,0.04,0.8,PRELAUNCH,CF1-H,0:/Integrated Flight Computer/aircraft/cf1_h_cfg.ks (inferred preloaded)
1.16,TAKEOFF,TO_PREFLIGHT,0.02,80,79.98,3.62,0.02,-0.22,-43.77,90.14,0.107,0.424,0,0,0,0,0,0,0,0,0,90.4,0,1,0,1.18,0,0,0,90,0,0,0,0,0,0,0,0,0,0,0,3,0,0,0,69,0,0,0,90.4,1,0,-0.285,0,0,1,0,0,0,0,0,0,0,1,1,0,0,VALID,0,0,0,0,0,1,0,0,0,0,0,0,0,0,0,0,0,0,0,0,6.07,518.11,2,0,0.04,0.04,21,19.23,0.08,0.04,1.06,PRELAUNCH,CF1-H,0:/Integrated Flight Computer/aircraft/cf1_h_cfg.ks (inferred preloaded)
1.42,TAKEOFF,TO_PREFLIGHT,0.02,80,79.98,3.61,0,-0.25,36.96,90.14,0.1,0.528,0,0,0,0,0,0,0,0,0,90.4,0,1,0,-0.16,0,0,0,90,0,0,0,0,0,0,0,0,0,0,0,3,0,0,0,69,0,0,0,90.4,1,0,-0.285,0,0,1,0,0,0,0,0,0,0,1,1,0,0,VALID,0,0,0,0,0,1,0,0,0,0,0,0,0,0,0,0,0,0,0,0,9.57,518.11,2,0,0.04,0.04,26,19.23,0.08,0.04,1.32,PRELAUNCH,CF1-H,0:/Integrated Flight Computer/aircraft/cf1_h_cfg.ks (inferred preloaded)
1.68,TAKEOFF,TO_PREFLIGHT,0.02,80,79.98,3.61,-0.02,-0.19,76.32,90.15,0.098,0.632,0,0,0,0,0,0,0,0,0,90.4,0,1,0,-1.21,0,0,0,90,0,0,0,0,0,0,0,0,0,0,0,3,0,0,0,69,0,0,0,90.4,1,0,-0.285,0,0,1,0,0,0,0,0,0,0,1,1,0,0,VALID,0,0,0,0,0,1,0,0,0,0,0,0,0,0,0,0,0,0,0,0,13.86,518.11,2,0,0.04,0.04,31,19.23,0.08,0.04,1.58,PRELAUNCH,CF1-H,0:/Integrated Flight Computer/aircraft/cf1_h_cfg.ks (inferred preloaded)
1.93,TAKEOFF,TO_PREFLIGHT,0.01,80,79.99,3.62,0,-0.18,-23.48,90.15,0.1,0.7324,0,0,0,0,0,0,0,0,0,90.4,0,1,0,0,0,0,0,90,0,0,0,0,0,0,0,0,0,0,0,3,0,0,0,69,0,0,0,90.4,1,0,-0.285,0,0,1,0,0,0,0,0,0,0,1,1,0,0,VALID,0,0,0,0,0,1,0,0,0,0,0,0,0,0,0,0,0,0,0,0,0,518.11,2,0,0.102,0.102,35,15.93,0.102,0.021,1.83,PRELAUNCH,CF1-H,0:/Integrated Flight Computer/aircraft/cf1_h_cfg.ks (inferred preloaded)
2.25,TAKEOFF,TO_PREFLIGHT,0,80,80,3.62,0,-0.18,-23.79,90.15,0.1,0.8595,0,0,0,0,0,0,0,0,0,90.4,0,1,0,0,0,0,0,90,0,0,0,0,0,0,0,0,0,0,0,3,0,0,0,69,0,0,0,90.4,1,0,-0.285,0,0,1,0,0,0,0,0,0,0,1,1,0,0,VALID,0,0,0,0,0,1,0,0,0,0,0,0,0,0,0,0,0,0,0,0,0,518.12,2,0,0.318,0.318,36,3.15,0.318,0.102,2.15,PRELAUNCH,CF1-H,0:/Integrated Flight Computer/aircraft/cf1_h_cfg.ks (inferred preloaded)
2.58,TAKEOFF,TO_PREFLIGHT,0,80,80,3.62,0,-0.18,-23.79,90.15,0.1,0.9937,0,0,0,0,0,0,0,0,0,90.4,0,1,0,0,0,0,0,90,0,0,0,0,0,0,0,0,0,0,0,3,0,0,0,69,0,0,0,90.4,1,0,-0.285,0,0,1,0,0,0,0,0,0,0,1,1,0,0,VALID,0,0,0,0,0,1,0,0,0,0,0,0,0,0,0,0,0,0,0,0,0,518.11,2,0,0.336,0.336,37,2.98,0.336,0.318,2.48,PRELAUNCH,CF1-H,0:/Integrated Flight Computer/aircraft/cf1_h_cfg.ks (inferred preloaded)
3.24,TAKEOFF,TO_GROUND_ROLL,0,80,80,3.62,0,-0.18,-24.07,90.15,0.1,1,0,0,0,0,0,0,0,0,0,90.4,0,1,0,0,0,0,0,90,0,0,0,0,0,0,0,0,0,0,0,3,0,0,0,69,0,0,0,90.4,1,0,-0.285,0,0,1,0,0,0,0,0,0,0,1,1,0,0,VALID,0,0,0,0,0,1,0,0,0,0,0,0,0,0,0,0,0,0,0,0,0,518.11,2,0,0.656,0.5,38,1.52,0.656,0.336,3.14,PRELAUNCH,CF1-H,0:/Integrated Flight Computer/aircraft/cf1_h_cfg.ks (inferred preloaded)
4.34,TAKEOFF,TO_GROUND_ROLL,0,80,80,3.62,0,-0.18,-23.79,90.15,0.1,1,0,0,0,0,0,0,0,0,0,90.39,0,1,0,0,0,0,0,90,0,0,0,0,0,0,0,0,0,0,0,3,0,0,0,69,0,0,0,90.39,1,0,-0.234,0,0,3,0,0,0,0,0,0,0,1,1,0,0,VALID,0,0,0,0,0,1,0,0,0,0,0,0,0,0,0,0,0,0,0,0,0,518.11,2,0,1.099,0.5,39,0.91,1.099,0.656,4.55,PRELAUNCH,CF1-H,0:/Integrated Flight Computer/aircraft/cf1_h_cfg.ks (inferred preloaded)
5.69,TAKEOFF,TO_GROUND_ROLL,0,80,80,3.62,0,-0.18,-22.66,90.15,0.1,1,0,0,0,0,0,0,0,0,0,90.4,0,1,0,0,0,0,0,90,0,0,0,0,0,0,0,0,0,0,0,3,0,0,0,69,0,0,0,90.4,1,0,-0.249,0,0,3,0,0,0,0,0,0,0,1,1,0,0,VALID,0,0,0,0,0,1,0,0,0,0,0,0,0,0,0,0,0,0,0,0,0,518.11,2,0,1.354,0.5,40,0.74,1.354,1.099,5.97,PRELAUNCH,CF1-H,0:/Integrated Flight Computer/aircraft/cf1_h_cfg.ks (inferred preloaded)
7.3,TAKEOFF,TO_GROUND_ROLL,0,80,80,3.62,0,-0.18,-21.52,90.15,0.1,1,0,0,0,0,0,0,0,0,0,90.4,0,1,0,0,0,0,0,90,0,0,0,0,0,0,0,0,0,0,0,3,0,0,0,69,0,0,0,90.4,1,0,-0.249,0,0,3,0,0,0,0,0,0,0,1,1,0,0,VALID,0,0,0,0,0,1,0,0,0,0,0,0,0,0,0,0,0,0,0,0,0,518.11,2,0,1.61,0.5,41,0.62,1.61,1.354,7.65,PRELAUNCH,CF1-H,0:/Integrated Flight Computer/aircraft/cf1_h_cfg.ks (inferred preloaded)
9.17,TAKEOFF,TO_GROUND_ROLL,0,80,80,3.62,0,-0.18,-24.07,90.15,0.1,1,0,0,0,0,0,0,0,0,0,90.4,0,1,0,0,0,0,0,90,0,0,0,0,0,0,0,0,0,0,0,3,0,0,0,69,0,0,0,90.4,1,0,-0.249,0,0,3,0,0,0,0,0,0,0,1,1,0,0,VALID,0,0,0,0,0,1,0,0,0,0,0,0,0,0,0,0,0,0,0,0,0,518.1,2,0,1.866,0.5,42,0.54,1.866,1.61,9.58,PRELAUNCH,CF1-H,0:/Integrated Flight Computer/aircraft/cf1_h_cfg.ks (inferred preloaded)
12.62,TAKEOFF,TO_GROUND_ROLL,0,80,80,3.62,0,-0.18,-23.48,90.15,0.1,1,0,0,0,0,0,0,0,0,0,90.4,0,1,0,0,0,0,0,90,0,0,0,0,0,0,0,0,0,0,0,3,0,0,0,69,0,0,0,90.4,1,0,-0.249,0,0,3,0,0,0,0,0,0,0,1,1,0,0,VALID,0,0,0,0,0,1,0,0,0,0,0,0,0,0,0,0,0,0,0,0,0,518.1,2,0,3.446,0.5,43,0.29,3.446,1.866,13.46,PRELAUNCH,CF1-H,0:/Integrated Flight Computer/aircraft/cf1_h_cfg.ks (inferred preloaded)
14.16,TAKEOFF,TO_GROUND_ROLL,0,80,80,3.62,0,-0.18,-24.07,90.15,0.1,1,0,0,0,0,0,0,0,0,0,90.4,0,1,0,0,0,0,0,90,0,0,0,0,0,0,0,0,0,0,0,3,0,0,0,69,0,0,0,90.4,1,0,-0.249,0,0,3,0,0,0,0,0,0,0,1,1,0,0,VALID,0,0,0,0,0,1,0,0,0,0,0,0,0,0,0,0,0,0,0,0,0,518.09,2,0,1.539,0.5,44,0.65,3.446,1.539,14.25,PRELAUNCH,CF1-H,0:/Integrated Flight Computer/aircraft/cf1_h_cfg.ks (inferred preloaded)
14.83,TAKEOFF,TO_GROUND_ROLL,0,80,80,3.62,0,-0.18,-24.66,90.15,0.1,1,0,0,0,0,0,0,0,0,0,90.4,0,1,0,0,0,0,0,90,0,0,0,0,0,0,0,0,0,0,0,3,0,0,0,69,0,0,0,90.4,1,0,-0.249,0,0,3,0,0,0,0,0,0,0,1,1,0,0,VALID,0,0,0,0,0,1,0,0,0,0,0,0,0,0,0,0,0,0,0,0,0,518.09,2,0,0.672,0.5,45,1.49,1.539,0.672,14.82,PRELAUNCH,CF1-H,0:/Integrated Flight Computer/aircraft/cf1_h_cfg.ks (inferred preloaded)
15.21,TAKEOFF,TO_GROUND_ROLL,0,80,80,3.62,0,-0.18,-23.79,90.15,0.1,1,0,0,0,0,0,0,0,0,0,90.4,0,1,0,0,0,0,0,90,0,0,0,0,0,0,0,0,0,0,0,3,0,0,0,69,0,0,0,90.4,1,0,-0.249,0,0,3,0,0,0,0,0,0,0,1,1,0,0,VALID,0,0,0,0,0,1,0,0,0,0,0,0,0,0,0,0,0,0,0,0,0,518.08,2,0,0.379,0.379,46,2.64,0.672,0.379,15.2,PRELAUNCH,CF1-H,0:/Integrated Flight Computer/aircraft/cf1_h_cfg.ks (inferred preloaded)
15.51,TAKEOFF,TO_GROUND_ROLL,0,80,80,3.84,0,-0.18,-23.48,90.15,0.1,1,0,0,0,0,0,0,0,0,0,90.4,0,1,0,0,0,0,0,90,0,0,0,0,0,0,0,0,0,0,0,3,0,0,0,69,0,0,0,90.4,1,0,-0.249,0,0,3,0,0,0,0,0,0,0,1,1,0,0,VALID,0,0,0,0,0,1,0,0,0,0,0,0,0,0,0,0,0,0,0,0,0,518.08,2,0,0.307,0.307,47,3.25,0.379,0.307,15.43,PRELAUNCH,CF1-H,0:/Integrated Flight Computer/aircraft/cf1_h_cfg.ks (inferred preloaded)
15.81,TAKEOFF,TO_GROUND_ROLL,0.64,80,79.36,3.68,-1.46,-0.15,85.33,90.15,0.1,1,0,0,0,0,0,0,0,0,0,90.4,0,1,0,-55.65,0,0,0,90,0,0,0,0,0,0,0,0,0,0,0,3,0,0,0,69,0,0,0,90.4,1,0,-0.249,0,0,3,0,0,0,0,0,0,0,1,1,0,0,VALID,0,0,0,0,0,1,0,0,0,0,0,0,0,0,0,0,0,0,0,0,24.31,517.92,2,0,0.06,0.06,51,13.33,0.307,0.06,15.73,PRELAUNCH,CF1-H,0:/Integrated Flight Computer/aircraft/cf1_h_cfg.ks (inferred preloaded)
16.09,TAKEOFF,TO_GROUND_ROLL,0.29,80,79.71,3.69,0.49,0.13,-65.76,90.16,0.108,1,0,0,0,0,0,0,0,0,0,90.4,0,1,0,26.22,0,0,0,90,0,0,0,0,0,0,0,0,0,0,0,3,0,0,0,69,0,0,0,90.4,1,0,-0.238,0,0,3,0,0,0,0,0,0,0,1,1,0,0,VALID,0,0,0,0,0,1,0,0,0,0,0,0,0,0,0,0,0,0,0,0,32.55,518.01,2,0,0.06,0.06,55,14.29,0.08,0.06,16.01,PRELAUNCH,CF1-H,0:/Integrated Flight Computer/aircraft/cf1_h_cfg.ks (inferred preloaded)
16.37,TAKEOFF,TO_GROUND_ROLL,0.44,80,79.56,3.62,-0.08,-0.07,13.09,90.17,0.109,1,0,0,0,0,0,0,0,0,0,90.39,0,1,0,-4.39,0,0,0,90,0,0,0,0,0,0,0,0,0,0,0,3,0,0,0,69,0,0,0,90.39,1,0,-0.226,0,0,3,0,0,0,0,0,0,0,1,1,0,0,VALID,0,0,0,0,0,1,0,0,0,0,0,0,0,0,0,0,0,0,0,0,40.63,517.98,2,0,0.06,0.06,59,14.29,0.08,0.06,16.29,PRELAUNCH,CF1-H,0:/Integrated Flight Computer/aircraft/cf1_h_cfg.ks (inferred preloaded)
16.65,TAKEOFF,TO_GROUND_ROLL,0.6,80,79.4,3.61,-0.04,-0.24,0.54,90.18,0.109,1,0,0,0,0,0,0,0,0,0,90.4,0,1,0,-2.2,0,0,0,90,0,0,0,0,0,0,0,0,0,0,0,3,0,0,0,69,0,0,0,90.4,1,0,-0.22,0,0,3,0,0,0,0,0,0,0,1,1,0,0,VALID,0,0,0,0,0,1,0,0,0,0,0,0,0,0,0,0,0,0,0,0,48.59,517.94,2,0,0.06,0.06,63,14.29,0.08,0.06,16.57,PRELAUNCH,CF1-H,0:/Integrated Flight Computer/aircraft/cf1_h_cfg.ks (inferred preloaded)
16.93,TAKEOFF,TO_GROUND_ROLL,0.86,80,79.14,3.63,0.01,-0.01,0.21,90.18,0.103,1,0,0,0,0,0,0,0,0,0,90.4,0,1,0,0.38,0,0,0,90,0,0,0,0,0,0,0,0,0,0,0,3,0,0,0,69,0,0,0,90.4,1,0,-0.214,0,0,3,0,0,0,0,0,0,0,1,1,0,0,VALID,0,0,0,0,0,1,0,0,0,0,0,0,0,0,0,0,0,0,0,0,56.4,517.87,2,0,0.06,0.06,67,14.29,0.08,0.06,16.85,PRELAUNCH,CF1-H,0:/Integrated Flight Computer/aircraft/cf1_h_cfg.ks (inferred preloaded)
17.21,TAKEOFF,TO_GROUND_ROLL,1.15,80,78.85,3.61,0,-0.15,-0.39,90.19,0.101,1,0,0,0,0,0,0,0,0,0,90.39,0,1,0,0.23,0,0,0,90,0,0,0,0,0,0,0,0,0,0,0,3,0,0,0,69,0,0,0,90.39,1,0,-0.205,0,0,3,0,0,0,0,0,0,0,1,1,0,0,VALID,0,0,0,0,0,1,0,0,0,0,0,0,0,0,0,0,0,0,0,0,64.09,517.8,2,0,0.06,0.06,71,14.29,0.08,0.06,17.13,PRELAUNCH,CF1-H,0:/Integrated Flight Computer/aircraft/cf1_h_cfg.ks (inferred preloaded)
17.49,TAKEOFF,TO_GROUND_ROLL,1.48,80,78.52,3.62,-0.03,-0.12,0.68,90.2,0.105,1,0,0,0,0,0,0,0,0,0,90.39,0,1,0,-0.99,0,0,0,90,0,0,0,0,0,0,0,0,0,0,0,3,0,0,0,69,0,0,0,90.39,1,0,-0.194,0,0,3,0,0,0,0,0,0,0,1,1,0,0,VALID,0,0,0,0,0,1,0,0,0,0,0,0,0,0,0,0,0,0,0,0,71.64,517.72,2,0,0.06,0.06,75,14.29,0.08,0.06,17.41,PRELAUNCH,CF1-H,0:/Integrated Flight Computer/aircraft/cf1_h_cfg.ks (inferred preloaded)
17.77,TAKEOFF,TO_GROUND_ROLL,1.85,80,78.15,3.62,0,-0.07,0.1,90.21,0.11,1,0,0,0,0,0,0,0,0,0,90.39,0,1,0,-0.11,0,0,0,90,0,0,0,0,0,0,0,0,0,0,0,3,0,0,0,69,0,0,0,90.39,1,0,-0.182,0,0,3,0,0,0,0,0,0,0,1,1,0,0,VALID,0,0,0,0,0,1,0,0,0,0,0,0,0,0,0,0,0,0,0,0,79.06,517.62,2,0,0.06,0.06,79,14.29,0.08,0.06,17.69,PRELAUNCH,CF1-H,0:/Integrated Flight Computer/aircraft/cf1_h_cfg.ks (inferred preloaded)
18.05,TAKEOFF,TO_GROUND_ROLL,2.25,80,77.75,3.62,-0.01,-0.13,0.12,90.22,0.112,1,0,0,0,0,0,0,0,0,0,90.39,0,1,0,-0.31,0,0,0,90,0,0,0,0,0,0,0,0,0,0,0,3,0,0,0,69,0,0,0,90.39,1,0,-0.169,0.0014,0.25,1,0.0014,0,0,0,0,0,0,1,1,0,0,VALID,0,0,0,0,0,1,0,0,0,0,0,0,0,0,0,0,0,0,0,0,86.36,517.52,2,0,0.06,0.06,83,14.29,0.08,0.06,17.97,LANDED,CF1-H,0:/Integrated Flight Computer/aircraft/cf1_h_cfg.ks (inferred preloaded)
18.33,TAKEOFF,TO_GROUND_ROLL,2.69,80,77.31,3.62,-0.02,-0.09,0.32,90.24,0.109,1,0,0,0,0,0,0,0,0,0,90.39,0,1,0,-0.45,0,0,0,90,0,0,0,0,0,0,0,0,0,0,0,3,0,0,0,69,0,0,0,90.39,1,0,-0.155,0.0013,0.25,1,0.0013,0,0,0,0,0,0,1,1,0,0,VALID,0,0,0,0,0,1,0,0,0,0,0,0,0,0,0,0,0,0,0,0,93.52,517.4,2,0,0.06,0.06,87,14.29,0.08,0.06,18.25,LANDED,CF1-H,0:/Integrated Flight Computer/aircraft/cf1_h_cfg.ks (inferred preloaded)
18.61,TAKEOFF,TO_GROUND_ROLL,3.17,80,76.83,3.62,-0.01,-0.1,0.15,90.25,0.105,1,0,0,0,0,0,0,0,0,0,90.39,0,1,0,-0.27,0,0,0,90,0,0,0,0,0,0,0,0,0,0,0,3,0,0,0,69,0,0,0,90.39,1,0,-0.139,0.0011,0.25,1,0.0011,0,0,0,0,0,0,1,1,0,0,VALID,0,0,0,0,0,1,0,0,0,0,0,0,0,0,0,0,0,0,0,0,100.56,517.28,2,0,0.06,0.06,91,14.29,0.08,0.06,18.53,LANDED,CF1-H,0:/Integrated Flight Computer/aircraft/cf1_h_cfg.ks (inferred preloaded)
18.89,TAKEOFF,TO_GROUND_ROLL,3.68,80,76.32,3.62,-0.02,-0.1,0.23,90.27,0.102,1,0,0,0,0,0,0,0,0,0,90.39,0,1,0,-0.38,0,0,0,90,0,0,0,0,0,0,0,0,0,0,0,3,0,0,0,69,0,0,0,90.39,1,0,-0.122,0.001,0.25,1,0.001,0,0,0,0,0,0,1,1,0,0,VALID,0,0,0,0,0,1,0,0,0,0,0,0,0,0,0,0,0,0,0,0,107.48,517.14,2,0,0.06,0.06,95,14.29,0.08,0.06,18.81,LANDED,CF1-H,0:/Integrated Flight Computer/aircraft/cf1_h_cfg.ks (inferred preloaded)
19.17,TAKEOFF,TO_GROUND_ROLL,4.22,80,75.78,3.62,-0.02,-0.09,0.23,90.28,0.104,1,0,0,0,0,0,0,0,0,0,90.39,0,1,0,-0.34,0,0,0,90,0,0,0,0,0,0,0,0,0,0,0,3,0,0,0,69,0,0,0,90.39,1,0,-0.105,0.0008,0.25,1,0.0008,0,0,0,0,0,0,1,1,0,0,VALID,0,0,0,0,0,1,0,0,0,0,0,0,0,0,0,0,0,0,0,0,114.28,516.99,2,0,0.06,0.06,99,14.29,0.08,0.06,19.09,LANDED,CF1-H,0:/Integrated Flight Computer/aircraft/cf1_h_cfg.ks (inferred preloaded)
19.45,TAKEOFF,TO_GROUND_ROLL,4.79,80,75.21,3.62,-0.03,-0.1,0.2,90.3,0.106,1,0,0,0,0,0,0,0,0,0,90.39,0,1,0,-0.33,0,0,0,90,0,0,0,0,0,0,0,0,-0.001,0,0,3,0,0,0,69,0,0,0,90.39,1,-0.001,-0.089,0.0007,0.25,1,0.0007,0,0,0,0,0,0,1,1,0,0,VALID,0,0,0,0,0,1,0,0,0,0,0,0,0,0,0,0,0,0,0,0,120.95,516.82,2,0,0.06,0.06,103,14.29,0.08,0.06,19.37,LANDED,CF1-H,0:/Integrated Flight Computer/aircraft/cf1_h_cfg.ks (inferred preloaded)
19.73,TAKEOFF,TO_GROUND_ROLL,5.4,80,74.6,3.62,-0.03,-0.09,0.23,90.32,0.107,1,0,0,0,0,0,0,0,0,0,90.39,0,1,0,-0.34,0,0,0,90,0,0,0,0,0,0,0,0,-0.001,0,0,3,0,0,0,69,0,0,0,90.39,1,-0.001,-0.072,0.0005,0.25,1,0.0005,0,0,0,0,0,0,1,1,0,0,VALID,0,0,0,0,0,1,0,0,0,0,0,0,0,0,0,0,0,0,0,0,127.51,516.65,2,0,0.06,0.06,107,14.29,0.08,0.06,19.65,LANDED,CF1-H,0:/Integrated Flight Computer/aircraft/cf1_h_cfg.ks (inferred preloaded)
20.01,TAKEOFF,TO_GROUND_ROLL,6.04,80,73.96,3.62,-0.03,-0.09,0.22,90.33,0.106,1,0,0,0,0,0,0,0,0,0,90.39,0,1,0,-0.33,0,0,0,90,0,0,0,0,0,0,0,0,-0.001,0,0,3,0,0,0,69,0,0,0,90.39,1,-0.001,-0.057,0.0004,0.25,1,0.0004,0,0,0,0,0,0,1,1,0,0,VALID,0,0,0,0,0,1,0,0,0,0,0,0,0,0,0,0,0,0,0,0,133.95,516.46,2,0,0.06,0.06,111,14.29,0.08,0.06,19.93,LANDED,CF1-H,0:/Integrated Flight Computer/aircraft/cf1_h_cfg.ks (inferred preloaded)
20.29,TAKEOFF,TO_GROUND_ROLL,6.71,80,73.29,3.62,-0.04,-0.09,0.22,90.35,0.104,1,0,0,0,0,0,0,0,0,0,90.39,0,1,0,-0.33,0,0,0,90,0,0,0,0,0,0,0,0,-0.001,0,0,3,0,0,0,69,0,0,0,90.39,1,-0.001,-0.042,0.0003,0.25,1,0.0003,0,0,0,0,0,0,1,1,0,0,VALID,0,0,0,0,0,1,0,0,0,0,0,0,0,0,0,0,0,0,0,0,140.27,516.26,2,0,0.06,0.06,115,14.29,0.08,0.06,20.21,LANDED,CF1-H,0:/Integrated Flight Computer/aircraft/cf1_h_cfg.ks (inferred preloaded)
20.57,TAKEOFF,TO_GROUND_ROLL,7.41,80,72.59,3.62,-0.04,-0.08,0.23,90.36,0.102,1,0,0,0,0,0,0,0,0,0,90.39,0,1,0,-0.33,0,0,0,90,0,0,0,0,0,0,0,0,-0.001,0,0,3,0,0,0,69,0,0,0,90.39,1,-0.001,-0.029,0.0002,0.25,1,0.0002,0,0,0,0,0,0,1,1,0,0,VALID,0,0,0,0,0,1,0,0,0,0,0,0,0,0,0,0,0,0,0,0,146.47,516.04,2,0,0.06,0.06,119,14.29,0.08,0.06,20.49,LANDED,CF1-H,0:/Integrated Flight Computer/aircraft/cf1_h_cfg.ks (inferred preloaded)
20.85,TAKEOFF,TO_GROUND_ROLL,8.14,80,71.86,3.62,-0.05,-0.08,0.23,90.37,0.103,1,0,0,0,0,0,0,0,0,0,90.39,0,1,0,-0.33,0,0,0,90,0,0,0,0,0,0,0,0,-0.002,0,0,3,0,0,0,69,0,0,0,90.39,1,-0.002,-0.017,0.0001,0.25,1,0.0001,0,0,0,0,0,0,1,1,0,0,VALID,0,0,0,0,0,1,0,0,0,0,0,0,0,0,0,0,0,0,0,0,152.57,515.81,2,0,0.06,0.06,123,14.29,0.08,0.06,20.77,LANDED,CF1-H,0:/Integrated Flight Computer/aircraft/cf1_h_cfg.ks (inferred preloaded)
21.13,TAKEOFF,TO_GROUND_ROLL,8.9,80,71.1,3.62,-0.05,-0.08,0.23,90.38,0.104,1,0,0,0,0,0,0,0,0,0,90.39,0,1,0,-0.33,0,0,0,90,0,0,0,0,0,0,0,0,-0.002,0,0,3,0,0,0,69,0,0,0,90.39,1,-0.002,-0.007,0,0.25,1,0,0,0,0,0,0,0,1,1,0,0,VALID,0,0,0,0,0,1,0,0,0,0,0,0,0,0,0,0,0,0,0,0,158.55,515.56,2,0,0.06,0.06,127,14.29,0.08,0.06,21.05,LANDED,CF1-H,0:/Integrated Flight Computer/aircraft/cf1_h_cfg.ks (inferred preloaded)
21.41,TAKEOFF,TO_GROUND_ROLL,9.69,80,70.31,3.62,-0.06,-0.08,0.23,90.39,0.105,1,0,0,0,0,0,0,0,0,0,90.39,0,1,0,-0.33,0,0,0,90,0,0,0,0,0,0,0,0,-0.002,0,0,3,0,0,0,69,0,0,0,90.39,1,-0.002,0.002,0,0.25,1,0,0,0,0,0,0,0,1,1,0,0,VALID,0,0,0,0,0,1,0,0,0,0,0,0,0,0,0,0,0,0,0,0,164.42,515.3,2,0,0.06,0.06,131,14.29,0.08,0.06,21.33,LANDED,CF1-H,0:/Integrated Flight Computer/aircraft/cf1_h_cfg.ks (inferred preloaded)
21.69,TAKEOFF,TO_GROUND_ROLL,10.51,80,69.49,3.62,-0.06,-0.07,0.23,90.4,0.106,1,0,0,0,0,0,0,0,0,0,90.4,0,1,0,-0.33,0,0,0,90,0,0,0,0,0,0,0,0,-0.003,0,0,3,0,0,0,69,0,0,0,90.4,1,-0.003,0.001,0,0.25,1,0,0,0,0,0,0,0,1,1,0,0,VALID,0,0,0,0,0,1,0,0,0,0,0,0,0,0,0,0,0,0,0,0,170.17,515.02,2,0,0.06,0.06,135,14.29,0.08,0.06,21.61,LANDED,CF1-H,0:/Integrated Flight Computer/aircraft/cf1_h_cfg.ks (inferred preloaded)
21.97,TAKEOFF,TO_GROUND_ROLL,11.36,80,68.64,3.62,-0.06,-0.07,0.23,90.4,0.106,1,0,0,0,0,0,0,0,0,0,90.4,0,1,0,-0.33,0,0,0,90,0,0,0,0,0,0,0,0,-0.003,0,0,3,0,0,0,69,0,0,0,90.4,1,-0.003,0.001,0,0.25,1,0,0,0,0,0,0,0,1,1,0,0,VALID,0,0,0,0,0,1,0,0,0,0,0,0,0,0,0,0,0,0,0,0,175.82,514.73,2,0,0.06,0.06,139,14.29,0.08,0.06,21.89,LANDED,CF1-H,0:/Integrated Flight Computer/aircraft/cf1_h_cfg.ks (inferred preloaded)
22.25,TAKEOFF,TO_GROUND_ROLL,12.23,80,67.77,3.62,-0.07,-0.07,0.23,90.39,0.107,1,0,0,0,0,0,0,0,0,0,90.4,0,1,0,-0.33,0,0,0,90,0,0,0,0,0,0,0,0,-0.004,0,0,3,0,0,0,69,0,0,0,90.4,1,-0.004,-0.007,0,0.25,1,0,0,0,0,0,0,0,1,1,0,0,VALID,0,0,0,0,0,1,0,0,0,0,0,0,0,0,0,0,0,0,0,0,181.36,514.42,2,0,0.06,0.06,143,14.29,0.08,0.06,22.17,LANDED,CF1-H,0:/Integrated Flight Computer/aircraft/cf1_h_cfg.ks (inferred preloaded)
22.53,TAKEOFF,TO_GROUND_ROLL,13.13,80,66.87,3.62,-0.07,-0.07,0.24,90.39,0.108,1,0,0,0,0,0,0,0,0,0,90.4,0,1,0,-0.32,0,0,0,90,0,0,0,0,0,0,0,0,-0.004,0,0,3,0,0,0,69,0,0,0,90.4,1,-0.004,-0.015,0.0001,0.25,1,0.0001,0,0,0,0,0,0,1,1,0,0,VALID,0,0,0,0,0,1,0,0,0,0,0,0,0,0,0,0,0,0,0,0,186.8,514.09,2,0,0.06,0.06,147,14.29,0.08,0.06,22.45,LANDED,CF1-H,0:/Integrated Flight Computer/aircraft/cf1_h_cfg.ks (inferred preloaded)
22.81,TAKEOFF,TO_GROUND_ROLL,14.06,80,65.94,3.63,-0.08,-0.07,0.24,90.38,0.109,1,0,0,0,0,0,0,0,0,0,90.4,0,1,0,-0.32,0,0,0,90,0,0,0,0,0,0,0,0,-0.005,0,0,3,0,0,0,69,0,0,0,90.4,1,-0.005,-0.013,0.0001,0.25,1,0.0001,0,0,0,0,0,0,1,1,0,0,VALID,0,0,0,0,0,1,0,0,0,0,0,0,0,0,0,0,0,0,0,0,192.13,513.75,2,0,0.06,0.06,151,14.29,0.08,0.06,22.73,LANDED,CF1-H,0:/Integrated Flight Computer/aircraft/cf1_h_cfg.ks (inferred preloaded)
23.09,TAKEOFF,TO_GROUND_ROLL,15.01,80,64.99,3.63,-0.08,-0.06,0.24,90.39,0.108,1,0,0,0,0,0,0,0,0,0,90.39,0,1,0,-0.32,0,0,0,90,0,0,0,0,0,0,0,0,-0.005,0,0,3,0,0,0,69,0,0,0,90.39,1,-0.005,-0.007,0,0.25,1,0,0,0,0,0,0,0,1,1,0,0,VALID,0,0,0,0,0,1,0,0,0,0,0,0,0,0,0,0,0,0,0,0,197.35,513.39,2,0,0.06,0.06,155,14.29,0.08,0.06,23.01,LANDED,CF1-H,0:/Integrated Flight Computer/aircraft/cf1_h_cfg.ks (inferred preloaded)
23.37,TAKEOFF,TO_GROUND_ROLL,15.99,80,64.01,3.63,-0.09,-0.06,0.24,90.39,0.105,1,0,0,0,0,0,0,0,0,0,90.39,0,1,0,-0.32,0,0,0,90,0,0,0,0,0,0,0,0,-0.006,0,0,3,0,0,0,69,0,0,0,90.39,1,-0.006,0,0,0.25,1,0,0,0,0,0,0,0,1,1,0,0,VALID,0,0,0,0,0,1,0,0,0,0,0,0,0,0,0,0,0,0,0,0,202.47,513.01,2,0,0.06,0.06,159,14.29,0.08,0.06,23.29,LANDED,CF1-H,0:/Integrated Flight Computer/aircraft/cf1_h_cfg.ks (inferred preloaded)
23.65,TAKEOFF,TO_GROUND_ROLL,16.99,80,63.01,3.63,-0.09,-0.06,0.24,90.39,0.105,1,0,0,0,0,0,0,0,0,0,90.4,0,1,0,-0.32,0,0,0.01,90,0,0,0,0,0,0,0,0,-0.007,0,0,3,0,0,0,69,0,0,0,90.4,1,-0.007,-0.013,0.0001,0.25,1,0.0001,0,0,0,0,0,0,1,1,0,0,VALID,0,0,0,0,0,1,0,0,0,0,0,0,0,0,0,0,0,0,0,0,207.49,512.61,2,0,0.06,0.06,163,14.29,0.08,0.06,23.57,LANDED,CF1-H,0:/Integrated Flight Computer/aircraft/cf1_h_cfg.ks (inferred preloaded)
23.93,TAKEOFF,TO_GROUND_ROLL,18.01,80,61.99,3.63,-0.1,-0.06,0.24,90.38,0.107,1,0,0,0,0,0,0,0,0,0,90.4,0,1,0,-0.32,0,0,0.01,90,0,0,0,0,0,0,0,0,-0.007,0,0,3,0,0,0,69,0,0,0,90.4,1,-0.007,-0.018,0.0001,0.25,1,0.0001,0,0,0,0,0,0,1,1,0,0,VALID,0,0,0,0,0,1,0,0,0,0,0,0,0,0,0,0,0,0,0,0,212.4,512.2,2,0,0.06,0.06,167,14.29,0.08,0.06,23.85,LANDED,CF1-H,0:/Integrated Flight Computer/aircraft/cf1_h_cfg.ks (inferred preloaded)
24.21,TAKEOFF,TO_GROUND_ROLL,19.06,80,60.94,3.63,-0.11,-0.05,0.25,90.38,0.111,1,0,0,0,0,0,0,0,0,0,90.39,0,1,0,-0.32,0,0,0.01,90,0,0,0,0,0,0,0,0,-0.008,0,0,3,0,0,0,69,0,0,0,90.39,1,-0.008,-0.012,0.0001,0.25,1,0.0001,0,0,0,0,0,0,1,1,0,0,VALID,0,0,0,0,0,1,0,0,0,0,0,0,0,0,0,0,0,0,0,0,217.22,511.76,2,0,0.06,0.06,171,14.29,0.08,0.06,24.13,LANDED,CF1-H,0:/Integrated Flight Computer/aircraft/cf1_h_cfg.ks (inferred preloaded)
24.49,TAKEOFF,TO_GROUND_ROLL,20.13,80,59.87,3.63,-0.11,-0.05,0.25,90.38,0.11,1,0,0,0,0,0,0,0,0,0,90.39,0,1,0,-0.32,0,0,0.01,90,0,0,0,0,0,0,0,0,-0.009,0,0,3,0,0,0,69,0,0,0,90.39,1,-0.009,-0.003,0,0.251,0,0,0,0,0,0,0,0,1,1,0,0,VALID,0,0,0,0,0,1,0,0,0,0,0,0,0,0,0,0,0,0,0,0,221.93,511.31,2,0,0.06,0.06,175,14.29,0.08,0.06,24.41,LANDED,CF1-H,0:/Integrated Flight Computer/aircraft/cf1_h_cfg.ks (inferred preloaded)
24.77,TAKEOFF,TO_GROUND_ROLL,21.23,80,58.77,3.63,-0.12,-0.05,0.25,90.39,0.104,1,0,0,0,0,0,0,0,0,0,90.39,0,1,0,-0.32,0,0,0.01,90,0,0,0,0,0,0,0,0,-0.01,0,0,3,0,0,0,69,0,0,0,90.39,1,-0.01,0.005,0,0.263,0,0,0,0,0,0,0,0,1,1,0,0,VALID,0,0,0,0,0,1,0,0,0,0,0,0,0,0,0,0,0,0,0,0,226.55,510.84,2,0,0.06,0.06,179,14.29,0.08,0.06,24.69,LANDED,CF1-H,0:/Integrated Flight Computer/aircraft/cf1_h_cfg.ks (inferred preloaded)
25.05,TAKEOFF,TO_GROUND_ROLL,22.34,80,57.66,3.63,-0.12,-0.05,0.25,90.39,0.1,1,0,0,0,0,0,0,0,0,0,90.39,0,1,0,-0.32,0,0,0.01,90,0,0,0,0,0,0,0,0,-0.011,0,0,3,0,0,0,69,0,0,0,90.39,1,-0.011,0.001,0,0.275,0,0,0,0,0,0,0,0,1,1,0,0,VALID,0,0,0,0,0,1,0,0,0,0,0,0,0,0,0,0,0,0,0,0,231.06,510.35,2,0,0.06,0.06,183,14.29,0.08,0.06,24.97,LANDED,CF1-H,0:/Integrated Flight Computer/aircraft/cf1_h_cfg.ks (inferred preloaded)
25.33,TAKEOFF,TO_GROUND_ROLL,23.48,80,56.52,3.63,-0.13,-0.05,0.25,90.38,0.104,1,0,0,0,0,0,0,0,0,0,90.4,0,1,0,-0.32,0,0,0.01,90,0,0,0,0,0,0,0,0,-0.011,0,0,3,0,0,0,69,0,0,0,90.4,1,-0.011,-0.012,0.0001,0.287,0,0.0001,0,0,0,0,0,0,1,1,0,0,VALID,0,0,0,0,0,1,0,0,0,0,0,0,0,0,0,0,0,0,0,0,235.48,509.83,2,0,0.06,0.06,187,14.29,0.08,0.06,25.25,LANDED,CF1-H,0:/Integrated Flight Computer/aircraft/cf1_h_cfg.ks (inferred preloaded)
25.61,TAKEOFF,TO_GROUND_ROLL,24.64,80,55.36,3.63,-0.14,-0.05,0.25,90.37,0.114,1,0,0,0,0,0,0,0,0,0,90.4,0,1,0,-0.31,0,0,0.01,90,0,0,0,0,0,0,0,0,-0.012,0,0,3,0,0,0,69,0,0,0,90.4,1,-0.012,-0.028,0.0002,0.3,0,0.0002,0,0,0,0,0,0,1,1,0,0,VALID,0,0,0,0,0,1,0,0,0,0,0,0,0,0,0,0,0,0,0,0,239.81,509.3,2,0,0.06,0.06,191,14.29,0.08,0.06,25.53,LANDED,CF1-H,0:/Integrated Flight Computer/aircraft/cf1_h_cfg.ks (inferred preloaded)
25.89,TAKEOFF,TO_GROUND_ROLL,25.82,80,54.18,3.63,-0.14,-0.04,0.25,90.36,0.12,1,0,0,0,0,0,0,0,0,0,90.39,0,1,0,-0.31,0,0,0.01,90,0,0,0,0,0,0,0,0,-0.013,0,0,3,0,0,0,69,0,0,0,90.39,1,-0.013,-0.028,0.0002,0.312,0,0.0002,0,0,0,0,0,0,1,1,0,0,VALID,0,0,0,0,0,1,0,0,0,0,0,0,0,0,0,0,0,0,0,0,244.04,508.75,2,0,0.06,0.06,195,14.29,0.08,0.06,25.81,LANDED,CF1-H,0:/Integrated Flight Computer/aircraft/cf1_h_cfg.ks (inferred preloaded)
26.17,TAKEOFF,TO_GROUND_ROLL,27.02,80,52.98,3.63,-0.15,-0.04,0.25,90.36,0.117,1,0,0,0,0,0,0,0,0,0,90.38,0,1,0,-0.31,0,0,0.01,90,0,0,0,0,0,0,0,0,-0.014,0,0,3,0,0,0,69,0,0,0,90.38,1,-0.014,-0.019,0.0002,0.325,0,0.0002,0,0,0,0,0,0,1,1,0,0,VALID,0,0,0,0,0,1,0,0,0,0,0,0,0,0,0,0,0,0,0,0,248.17,508.18,2,0,0.06,0.06,199,14.29,0.08,0.06,26.09,LANDED,CF1-H,0:/Integrated Flight Computer/aircraft/cf1_h_cfg.ks (inferred preloaded)
26.45,TAKEOFF,TO_GROUND_ROLL,28.24,80,51.76,3.63,-0.15,-0.04,0.25,90.37,0.104,1,0,0,0,0,0,0,0,0,0,90.38,0,1,0,-0.31,0,0,0.01,90,0,0,0,0,0,0,0,0,-0.015,0,0,3,0,0,0,69,0,0,0,90.38,1,-0.015,-0.008,0.0001,0.338,0,0.0001,0,0,0,0,0,0,1,1,0,0,VALID,0,0,0,0,0,1,0,0,0,0,0,0,0,0,0,0,0,0,0,0,252.21,507.58,2,0,0.06,0.06,203,14.29,0.08,0.06,26.37,LANDED,CF1-H,0:/Integrated Flight Computer/aircraft/cf1_h_cfg.ks (inferred preloaded)
26.73,TAKEOFF,TO_GROUND_ROLL,29.48,80,50.52,3.63,-0.16,-0.04,0.25,90.38,0.092,1,0,0,0,0,0,0,0,0,0,90.38,0,1,0,-0.31,0,0,0.01,90,0,0,0,0,0,0,0,0,-0.016,0,0,3,0,0,0,69,0,0,0,90.38,1,-0.016,0.002,0,0.352,0,0,0,0,0,0,0,0,1,1,0,0,VALID,0,0,0,0,0,1,0,0,0,0,0,0,0,0,0,0,0,0,0,0,256.16,506.97,2,0,0.06,0.06,207,14.29,0.08,0.06,26.65,LANDED,CF1-H,0:/Integrated Flight Computer/aircraft/cf1_h_cfg.ks (inferred preloaded)
27.01,TAKEOFF,TO_GROUND_ROLL,30.73,80,49.27,3.63,-0.17,-0.04,0.26,90.38,0.092,1,0,0,0,0,0,0,0,0,0,90.38,0,1,0,-0.31,0,0,0.01,90,0,0,0,0,0,0,0,0,-0.018,0,0,3,0,0,0,69,0,0,0,90.38,1,-0.018,0.004,0,0.365,0,0,0,0,0,0,0,0,1,1,0,0,VALID,0,0,0,0,0,1,0,0,0,0,0,0,0,0,0,0,0,0,0,0,260.02,506.34,2,0,0.06,0.06,211,14.29,0.08,0.06,26.93,LANDED,CF1-H,0:/Integrated Flight Computer/aircraft/cf1_h_cfg.ks (inferred preloaded)
27.29,TAKEOFF,TO_GROUND_ROLL,32.01,80,47.99,3.63,-0.17,-0.04,0.26,90.38,0.103,1,0,0,0,0,0,0,0,0,0,90.39,0,1,0,-0.31,0,0,0.01,90,0,0,0,0,0,0,0,0,-0.019,0,0,3,0,0,0,69,0,0,0,90.39,1,-0.019,-0.006,0.0001,0.379,0,0.0001,0,0,0,0,0,0,1,1,0,0,VALID,0,0,0,0,0,1,0,0,0,0,0,0,0,0,0,0,0,0,0,0,263.78,505.68,2,0,0.06,0.06,215,14.29,0.08,0.06,27.21,LANDED,CF1-H,0:/Integrated Flight Computer/aircraft/cf1_h_cfg.ks (inferred preloaded)
27.57,TAKEOFF,TO_GROUND_ROLL,33.3,80,46.7,3.63,-0.18,-0.03,0.26,90.38,0.117,1,0,0,0,0,0,0,0,0,0,90.38,0,1,0,-0.31,0,0,0.02,90,0,0,0,0,0,0,0,0,-0.02,0,0,3,0,0,0,69,0,0,0,90.38,1,-0.02,-0.005,0,0.392,0,0,0,0,0,0,0,0,1,1,0,0,VALID,0,0,0,0,0,1,0,0,0,0,0,0,0,0,0,0,0,0,0,0,267.46,505.01,2,0,0.06,0.06,219,14.29,0.08,0.06,27.49,LANDED,CF1-H,0:/Integrated Flight Computer/aircraft/cf1_h_cfg.ks (inferred preloaded)
27.85,TAKEOFF,TO_GROUND_ROLL,34.61,80,45.39,3.63,-0.19,-0.03,0.26,90.38,0.119,1,0,0,0,0,0,0,0,0,0,90.38,0,1,0,-0.31,0,0,0.02,90,0,0,0,0,0,0,0,0,-0.021,0,0,3,0,0,0,69,0,0,0,90.38,1,-0.021,-0.003,0,0.407,0,0,0,0,0,0,0,0,1,1,0,0,VALID,0,0,0,0,0,1,0,0,0,0,0,0,0,0,0,0,0,0,0,0,271.05,504.32,2,0,0.06,0.06,223,14.29,0.08,0.06,27.77,LANDED,CF1-H,0:/Integrated Flight Computer/aircraft/cf1_h_cfg.ks (inferred preloaded)
28.13,TAKEOFF,TO_GROUND_ROLL,35.93,80,44.07,3.63,-0.19,-0.03,0.26,90.37,0.113,1,0,0,0,0,0,0,0,0,0,90.39,0,1,0,-0.3,0,0,0.02,90,0,0,0,0,0,0,0,0,-0.023,0,0,3,0,0,0,69,0,0,0,90.39,1,-0.023,-0.018,0.0002,0.421,0,0.0002,0,0,0,0,0,0,1,1,0,0,VALID,0,0,0,0,0,1,0,0,0,0,0,0,0,0,0,0,0,0,0,0,274.55,503.6,2,0,0.06,0.06,227,14.29,0.08,0.06,28.05,LANDED,CF1-H,0:/Integrated Flight Computer/aircraft/cf1_h_cfg.ks (inferred preloaded)
28.41,TAKEOFF,TO_GROUND_ROLL,37.28,80,42.72,3.63,-0.2,-0.03,0.26,90.36,0.109,1,0,0,0,0,0,0,0,0,0,90.38,0,1,0,-0.3,0,0,0.02,90,0,0,0,0,0,0,0,0,-0.024,0,0,3,0,0,0,69,0,0,0,90.38,1,-0.024,-0.021,0.0002,0.435,0,0.0002,0,0,0,0,0,0,1,1,0,0,VALID,0,0,0,0,0,1,0,0,0,0,0,0,0,0,0,0,0,0,0,0,277.96,502.86,2,0,0.06,0.06,231,14.29,0.08,0.06,28.33,LANDED,CF1-H,0:/Integrated Flight Computer/aircraft/cf1_h_cfg.ks (inferred preloaded)
28.69,TAKEOFF,TO_GROUND_ROLL,38.64,80,41.36,3.63,-0.2,-0.03,0.26,90.36,0.107,1,0,0,0,0,0,0,0,0,0,90.37,0,1,0,-0.3,0,0,0.02,90,0,0,0,0,0,0,0,0,-0.025,0,0,3,0,0,0,69,0,0,0,90.37,1,-0.025,-0.016,0.0002,0.45,0,0.0002,0,0,0,0,0,0,1,1,0,0,VALID,0,0,0,0,0,1,0,0,0,0,0,0,0,0,0,0,0,0,0,0,281.29,502.11,2,0,0.06,0.06,235,14.29,0.08,0.06,28.61,LANDED,CF1-H,0:/Integrated Flight Computer/aircraft/cf1_h_cfg.ks (inferred preloaded)
28.97,TAKEOFF,TO_GROUND_ROLL,40.01,80,39.99,3.63,-0.21,-0.03,0.26,90.36,0.105,1,0,0,0,0,0,0,0,0,0,90.37,0,1,0,-0.3,0,0,0.02,90,0,0,0,0,0,0,0,0,-0.027,0,0,3,0,0,0,69,0,0,0,90.37,1,-0.027,-0.011,0.0001,0.464,0,0.0001,0,0,0,0,0,0,1,1,0,0,VALID,0,0,0,0,0,1,0,0,0,0,0,0,0,0,0,0,0,0,0,0,284.53,501.33,2,0,0.06,0.06,239,14.29,0.08,0.06,28.89,LANDED,CF1-H,0:/Integrated Flight Computer/aircraft/cf1_h_cfg.ks (inferred preloaded)
29.25,TAKEOFF,TO_GROUND_ROLL,41.4,80,38.6,3.63,-0.22,-0.03,0.26,90.36,0.102,1,0,0,0,0,0,0,0,0,0,90.37,0,1,0,-0.3,0,0,0.02,90,0,0,0,0,0,0,0,0,-0.028,0,0,3,0,0,0,69,0,0,0,90.37,1,-0.028,-0.005,0.0001,0.479,0,0.0001,0,0,0,0,0,0,1,1,0,0,VALID,0,0,0,0,0,1,0,0,0,0,0,0,0,0,0,0,0,0,0,0,287.69,500.54,2,0,0.06,0.06,243,14.29,0.08,0.06,29.17,LANDED,CF1-H,0:/Integrated Flight Computer/aircraft/cf1_h_cfg.ks (inferred preloaded)
29.53,TAKEOFF,TO_GROUND_ROLL,42.8,80,37.2,3.63,-0.22,-0.02,0.26,90.37,0.1,1,0,0,0,0,0,0,0,0,0,90.37,0,1,0,-0.3,0,0,0.02,90,0,0,0,0,0,0,0,0,-0.03,0,0,3,0,0,0,69,0,0,0,90.37,1,-0.03,-0.001,0,0.494,0,0,0,0,0,0,0,0,1,1,0,0,VALID,0,0,0,0,0,1,0,0,0,0,0,0,0,0,0,0,0,0,0,0,290.77,499.73,2,0,0.06,0.06,247,14.29,0.08,0.06,29.45,LANDED,CF1-H,0:/Integrated Flight Computer/aircraft/cf1_h_cfg.ks (inferred preloaded)
29.81,TAKEOFF,TO_GROUND_ROLL,44.22,80,35.78,3.63,-0.23,-0.02,0.26,90.37,0.101,1,0,0,0,0,0,0,0,0,0,90.37,0,1,0,-0.3,0,0,0.02,90,0,0,0,0,0,0,0,0,-0.031,0,0,3,0,0,0,69,0,0,0,90.37,1,-0.031,0.002,0,0.509,0,0,0,0,0,0,0,0,1,1,0,0,VALID,0,0,0,0,0,1,0,0,0,0,0,0,0,0,0,0,0,0,0,0,293.76,498.89,2,0,0.06,0.06,251,14.29,0.08,0.06,29.73,LANDED,CF1-H,0:/Integrated Flight Computer/aircraft/cf1_h_cfg.ks (inferred preloaded)
30.09,TAKEOFF,TO_GROUND_ROLL,45.65,80,34.35,3.63,-0.24,-0.02,0.26,90.37,0.105,1,0,0,0,0,0,0,0,0,0,90.37,0,1,0,-0.3,0,0,0.03,90,0,0,0,0,0,0,0,0,-0.033,0,0,3,0,0,0,69,0,0,0,90.37,1,-0.033,0.003,0,0.525,0,0,0,0,0,0,0,0,1,1,0,0,VALID,0,0,0,0,0,1,0,0,0,0,0,0,0,0,0,0,0,0,0,0,296.68,498.04,2,0,0.06,0.06,255,14.29,0.08,0.06,30.01,LANDED,CF1-H,0:/Integrated Flight Computer/aircraft/cf1_h_cfg.ks (inferred preloaded)
30.37,TAKEOFF,TO_GROUND_ROLL,47.09,80,32.91,3.63,-0.24,-0.02,0.26,90.37,0.108,1,0,0,0,0,0,0,0,0,0,90.37,0,1,0,-0.29,0,0,0.03,90,0,0,0,0,0,0,0,0,-0.035,0,0,3,0,0,0,69,0,0,0,90.37,1,-0.035,0.002,0,0.54,0,0,0,0,0,0,0,0,1,1,0,0,VALID,0,0,0,0,0,1,0,0,0,0,0,0,0,0,0,0,0,0,0,0,299.51,497.17,2,0,0.06,0.06,259,14.29,0.08,0.06,30.29,LANDED,CF1-H,0:/Integrated Flight Computer/aircraft/cf1_h_cfg.ks (inferred preloaded)
30.65,TAKEOFF,TO_GROUND_ROLL,48.55,80,31.45,3.63,-0.25,-0.02,0.26,90.37,0.11,1,0,0,0,0,0,0,0,0,0,90.37,0,1,0,-0.29,0,0,0.03,90,0,0,0,0,0,0,0,0,-0.037,0,0,3,0,0,0,69,0,0,0,90.37,1,-0.037,-0.003,0,0.556,0,0,0,0,0,0,0,0,1,1,0,0,VALID,0,0,0,0,0,1,0,0,0,0,0,0,0,0,0,0,0,0,0,0,302.27,496.28,2,0,0.06,0.06,263,14.29,0.08,0.06,30.57,LANDED,CF1-H,0:/Integrated Flight Computer/aircraft/cf1_h_cfg.ks (inferred preloaded)
30.93,TAKEOFF,TO_GROUND_ROLL,50.01,80,29.99,3.63,-0.25,-0.02,0.26,90.36,0.113,1,0,0,0,0,0,0,0,0,0,90.37,0,1,0,-0.29,0,0,0.03,90,0,0,0,0,0,0,0,0,-0.038,0,0,3,0,0,0,69,0,0,0,90.37,1,-0.038,-0.007,0.0001,0.572,0,0.0001,0,0,0,0,0,0,1,1,0,0,VALID,0,0,0,0,0,1,0,0,0,0,0,0,0,0,0,0,0,0,0,0,304.94,495.37,2,0,0.06,0.06,267,14.29,0.08,0.06,30.85,LANDED,CF1-H,0:/Integrated Flight Computer/aircraft/cf1_h_cfg.ks (inferred preloaded)
31.21,TAKEOFF,TO_GROUND_ROLL,51.49,80,28.51,3.64,-0.26,-0.02,0.26,90.35,0.114,1,0,0,0,0,0,0,0,0,0,90.36,0,1,0,-0.29,0,0,0.03,90,0,0,0,0,0,0,0,0,-0.04,0,0,3,0,0,0,69,0,0,0,90.36,1,-0.04,-0.01,0.0002,0.587,0,0.0002,0,0,0,0,0,0,1,1,0,0,VALID,0,0,0,0,0,1,0,0,0,0,0,0,0,0,0,0,0,0,0,0,307.54,494.45,2,0,0.06,0.06,271,14.29,0.08,0.06,31.13,LANDED,CF1-H,0:/Integrated Flight Computer/aircraft/cf1_h_cfg.ks (inferred preloaded)
31.49,TAKEOFF,TO_GROUND_ROLL,52.99,80,27.01,3.64,-0.27,-0.02,0.26,90.35,0.112,1,0,0,0,0,0,0,0,0,0,90.36,0,1,0,-0.29,0,0,0.03,90,0,0,0,0,0,0,0,0,-0.042,0,0,3,0,0,0,69,0,0,0,90.36,1,-0.042,-0.012,0.0002,0.603,0,0.0002,0,0,0,0,0,0,1,1,0,0,VALID,0,0,0,0,0,1,0,0,0,0,0,0,0,0,0,0,0,0,0,0,310.07,493.51,2,0,0.06,0.06,275,14.29,0.08,0.06,31.41,LANDED,CF1-H,0:/Integrated Flight Computer/aircraft/cf1_h_cfg.ks (inferred preloaded)
31.77,TAKEOFF,TO_GROUND_ROLL,54.49,80,25.51,3.64,-0.27,-0.02,0.26,90.34,0.11,1,0,0,0,0,0,0,0,0,0,90.36,0,1,0,-0.29,0,0,0.03,90,0,0,0,0,0,0,0,0,-0.044,0,0,3,0,0,0,69,0,0,0,90.36,1,-0.044,-0.015,0.0002,0.62,0,0.0002,0,0,0,0,0,0,1,1,0,0,VALID,0,0,0,0,0,1,0,0,0,0,0,0,0,0,0,0,0,0,0,0,312.52,492.55,2,0,0.06,0.06,279,14.29,0.08,0.06,31.69,LANDED,CF1-H,0:/Integrated Flight Computer/aircraft/cf1_h_cfg.ks (inferred preloaded)
32.05,TAKEOFF,TO_GROUND_ROLL,56,80,24,3.64,-0.28,-0.01,0.26,90.34,0.109,1,0,0,0,0,0,0,0,0,0,90.36,0,1,0,-0.28,0,0,0.04,90,0,0,0,0,0,0,0,0,-0.046,0,0,3,0,0,0,69,0,0,0,90.36,1,-0.046,-0.017,0.0003,0.636,0,0.0003,0,0,0,0,0,0,1,1,0,0,VALID,0,0,0,0,0,1,0,0,0,0,0,0,0,0,0,0,0,0,0,0,314.9,491.57,2,0,0.06,0.06,283,14.29,0.08,0.06,31.97,LANDED,CF1-H,0:/Integrated Flight Computer/aircraft/cf1_h_cfg.ks (inferred preloaded)
32.33,TAKEOFF,TO_GROUND_ROLL,57.53,80,22.47,3.64,-0.28,-0.01,0.26,90.34,0.11,1,0,0,0,0,0,0,0,0,0,90.36,0,1,0,-0.28,0,0,0.04,90,0,0,0,0,0,0,0,0,-0.048,0,0,3,0,0,0,69,0,0,0,90.36,1,-0.048,-0.02,0.0003,0.652,0,0.0003,0,0,0,0,0,0,1,1,0,0,VALID,0,0,0,0,0,1,0,0,0,0,0,0,0,0,0,0,0,0,0,0,317.21,490.58,2,0,0.06,0.06,287,14.29,0.08,0.06,32.25,LANDED,CF1-H,0:/Integrated Flight Computer/aircraft/cf1_h_cfg.ks (inferred preloaded)
32.61,TAKEOFF,TO_GROUND_ROLL,59.06,80,20.94,3.64,-0.29,-0.01,0.26,90.33,0.111,1,0,0,0,0,0,0,0,0,0,90.35,0,1,0,-0.28,0,0,0.04,90,0,0,0,0,0,0,0,0,-0.05,0,0,3,0,0,0,69,0,0,0,90.35,1,-0.05,-0.024,0.0004,0.669,0,0.0004,0,0,0,0,0,0,1,1,0,0,VALID,0,0,0,0,0,1,0,0,0,0,0,0,0,0,0,0,0,0,0,0,319.44,489.57,2,0,0.06,0.06,291,14.29,0.08,0.06,32.53,LANDED,CF1-H,0:/Integrated Flight Computer/aircraft/cf1_h_cfg.ks (inferred preloaded)
32.89,TAKEOFF,TO_GROUND_ROLL,60.6,80,19.4,3.64,-0.29,0.01,0.27,90.32,0.113,1,0,0,0,0,0,0,0,0,0,90.35,0,1,0,-0.28,0,0,0.04,90,0,0,0,0,0,0,0,0,-0.052,0,0,3,0,0,0,69,0,0,0,90.35,1,-0.052,-0.028,0.0005,0.685,0,0.0005,0,0,0,0,0,0,1,1,0,0,VALID,0,0,0,0,0,1,0,0,0,0,0,0,0,0,0,0,0,0,0,0,321.61,488.55,2,0,0.06,0.06,295,14.29,0.08,0.06,32.81,LANDED,CF1-H,0:/Integrated Flight Computer/aircraft/cf1_h_cfg.ks (inferred preloaded)
33.17,TAKEOFF,TO_GROUND_ROLL,62.16,80,17.84,3.65,-0.3,0.03,0.29,90.32,0.113,1,0,0,0,0,0,0,0,0,0,90.35,0,1,0,-0.27,0,0,0.04,90,0,0,0,0,0,0,0,0,-0.054,0,0,3,0,0,0,69,0,0,0,90.35,1,-0.054,-0.031,0.0006,0.702,0,0.0006,0,0,0,0,0,0,1,1,0,0,VALID,0,0,0,0,0,1,0,0,0,0,0,0,0,0,0,0,0,0,0,0,323.71,487.52,2,0,0.06,0.06,299,14.29,0.08,0.06,33.09,LANDED,CF1-H,0:/Integrated Flight Computer/aircraft/cf1_h_cfg.ks (inferred preloaded)
33.45,TAKEOFF,TO_GROUND_ROLL,63.72,80,16.28,3.65,-0.3,0.07,0.32,90.31,0.113,1,0,0,0,0,0,0,0,0,0,90.35,0,1,0,-0.27,0,0,0.04,90,0,0,0,0,0,0,0,0,-0.056,0,0,3,0,0,0,69,0,0,0,90.35,1,-0.056,-0.035,0.0007,0.718,0,0.0007,0,0,0,0,0,0,1,1,0,0,VALID,0,0,0,0,0,1,0,0,0,0,0,0,0,0,0,0,0,0,0,0,325.74,486.47,2,0,0.06,0.06,303,14.29,0.08,0.06,33.37,LANDED,CF1-H,0:/Integrated Flight Computer/aircraft/cf1_h_cfg.ks (inferred preloaded)
33.73,TAKEOFF,TO_GROUND_ROLL,65.28,80,14.72,3.66,-0.31,0.11,0.36,90.31,0.112,1,0,0,0,0,0,0,0,0,0,90.35,0,1,0,-0.27,0,0,0.05,90,0,0,0,0,0,0,0,0,-0.058,0,0,3,0,0,0,69,0,0,0,90.35,1,-0.058,-0.039,0.0008,0.735,0,0.0008,0,0,0,0,0,0,1,1,0,0,VALID,0,0,0,0,0,1,0,0,0,0,0,0,0,0,0,0,0,0,0,0,327.7,485.41,2,0,0.06,0.06,307,14.29,0.08,0.06,33.65,LANDED,CF1-H,0:/Integrated Flight Computer/aircraft/cf1_h_cfg.ks (inferred preloaded)
34.01,TAKEOFF,TO_GROUND_ROLL,66.86,80,13.14,3.68,-0.35,0.16,0.44,90.3,0.109,1,0,0,0,0,0,0,0,0,0,90.34,0,1,0,-0.3,0,0,0.05,90,0,0,0,0,0,0,0,0,-0.06,0,0,3,0,0,0,69,0,0,0,90.34,1,-0.06,-0.041,0.0008,0.752,0,0.0008,0,0,0,0,0,0,1,1,0,0,VALID,0,0,0,0,0,1,0,0,0,0,0,0,0,0,0,0,0,0,0,0,329.6,484.33,2,0,0.06,0.06,311,14.29,0.08,0.06,33.93,LANDED,CF1-H,0:/Integrated Flight Computer/aircraft/cf1_h_cfg.ks (inferred preloaded)
34.29,TAKEOFF,TO_GROUND_ROLL,68.45,80,11.55,3.69,-0.32,0.26,0.55,90.3,0.107,1,0,0,0,0,0,0,0,0,0,90.34,0,1,0,-0.27,0,0,0.05,90,0,0,0,0,0,0,0,0,-0.062,0,0,3,0,0,0,69,0,0,0,90.34,1,-0.062,-0.044,0.0009,0.769,0,0.0009,0,0,0,0,0,0,1,1,0,0,VALID,0,0,0,0,0,1,0,0,0,0,0,0,0,0,0,0,0,0,0,0,331.44,483.25,2,0,0.06,0.06,315,14.29,0.08,0.06,34.21,LANDED,CF1-H,0:/Integrated Flight Computer/aircraft/cf1_h_cfg.ks (inferred preloaded)
34.57,TAKEOFF,TO_ROTATE,70.04,80,9.96,3.71,-0.36,0.29,0.56,90.29,0.105,1,0,0,0,0,0,0,0,0,0,90.34,0,1,0,-0.29,0,0,0.05,90,0,0,0,0,0,0,0,0,-0.064,0,0,3,0,0,0,69,0,0,0,90.34,1,-0.064,-0.046,0.001,0.786,0,0,0,0,0,0,0,0,1,1,0,0,VALID,0,0,0,0,0,1,0,0,0,0,0,0,0,0,0,0,0,0,0,0,333.21,482.15,2,0,0.06,0.06,319,14.29,0.08,0.06,34.49,LANDED,CF1-H,0:/Integrated Flight Computer/aircraft/cf1_h_cfg.ks (inferred preloaded)
34.83,TAKEOFF,TO_ROTATE,71.52,80,8.48,3.71,-0.31,0.33,0.57,90.29,0.104,1,0,0,0,0,0,0,0,0,0,90.34,1.014,1,0,-0.25,0,0,0.05,90,0,0,0,0,0,0,0,0,-0.066,0,0,3,0,0,0,69,0,0,0,90.34,1,-0.066,-0.046,0.001,0.801,0,0.001,0,0.1346,1.014,0.683,0.08,0,1,1,0,0,VALID,0,0,0,0,0,1,0,0,0,0,0,0,0,0,0,0,0,0,0,0,334.81,481.13,2,0,0.08,0.08,322,11.54,0.1,0.06,34.73,LANDED,CF1-H,0:/Integrated Flight Computer/aircraft/cf1_h_cfg.ks (inferred preloaded)
35.11,TAKEOFF,TO_ROTATE,73.12,80,6.88,3.73,-0.33,0.42,0.67,90.29,0.104,1,0,0,0,0,0,0,0,0,0,90.33,1.854,1,0,-0.26,0,0,0.05,90,0,0,0,0,0,0,0,0,-0.068,0,0,3,0,0,0,69,0,0,0,90.33,1,-0.068,-0.046,0.001,0.818,0,0.001,0,0.1951,1.854,1.439,0.08,0,1,1,0,0,VALID,0,0,0,0,0,1,0,0,0,0,0,0,0,0,0,0,0,0,0,0,336.47,480.01,2,0,0.08,0.08,326,14.29,0.08,0.06,35.01,LANDED,CF1-H,0:/Integrated Flight Computer/aircraft/cf1_h_cfg.ks (inferred preloaded)
35.39,TAKEOFF,TO_ROTATE,74.72,80,5.28,3.76,-0.32,0.6,0.84,90.29,0.103,1,0,0,0,0,0,0,0,0,0,90.33,2.694,1,0,-0.25,0,0,0.06,90,0,0,0,0,0,0,0,0,-0.07,0,0,3,0,0,0,69,0,0,0,90.33,1,-0.07,-0.045,0.001,0.835,0,0.001,0,0.2471,2.694,2.089,0.08,0,1,1,0,0,VALID,0,0,0,0,0,1,0,0,0,0,0,0,0,0,0,0,0,0,0,0,338.07,478.89,2,0,0.08,0.08,330,14.29,0.08,0.06,35.29,LANDED,CF1-H,0:/Integrated Flight Computer/aircraft/cf1_h_cfg.ks (inferred preloaded)
35.67,TAKEOFF,TO_ROTATE,76.33,80,3.67,3.82,-0.32,0.89,1.12,90.29,0.1,1,0,0,0,0,0,0,0,0,0,90.33,3.534,1,0,-0.24,0,0,0.06,90,0,0,0,0,0,0,0,0,-0.072,0,0,3,0,0,0,69,0,0,0,90.33,1,-0.072,-0.042,0.001,0.852,0,0.001,0,0.2916,3.534,2.645,0.08,0,1,1,0,0,VALID,0,0,0,0,0,1,0,0,0,0,0,0,0,0,0,0,0,0,0,0,339.62,477.76,2,0,0.08,0.08,334,14.29,0.08,0.06,35.57,LANDED,CF1-H,0:/Integrated Flight Computer/aircraft/cf1_h_cfg.ks (inferred preloaded)
35.95,TAKEOFF,TO_ROTATE,77.94,80,2.06,3.87,-0.33,1.21,1.44,90.29,0.097,1,0,0,0,0,0,0,0,0,0,90.32,4.374,1,0,-0.24,0,0,0.06,90,0,0,0,0,0,0,0,0,-0.074,0,0,3,0,0,0,69,0,0,0,90.32,1,-0.074,-0.036,0.0008,0.87,0,0.0008,0,0.3333,4.374,3.167,0.08,0,1,1,0,0,VALID,0,0,0,0,0,1,0,0,0,0,0,0,0,0,0,0,0,0,0,0,341.11,476.63,2,0,0.08,0.08,338,14.29,0.08,0.06,35.85,LANDED,CF1-H,0:/Integrated Flight Computer/aircraft/cf1_h_cfg.ks (inferred preloaded)
36.23,TAKEOFF,TO_ROTATE,79.54,80,0.46,3.93,-0.32,1.49,1.71,90.29,0.093,1,0,0,0,0,0,0,0,0,0,90.32,5.214,1,0,-0.23,0,0,0.06,90,0,0,0,0,0,0,0,0,-0.076,0,0,3,0,0,0,69,0,0,0,90.32,1,-0.076,-0.03,0.0007,0.887,0,0.0007,0,0.3776,5.214,3.72,0.08,0,1,1,0,0,VALID,0,0,0,0,0,1,0,0,0,0,0,0,0,0,0,0,0,0,0,0,342.56,475.5,2,0,0.08,0.08,342,14.29,0.08,0.06,36.13,LANDED,CF1-H,0:/Integrated Flight Computer/aircraft/cf1_h_cfg.ks (inferred preloaded)
36.51,TAKEOFF,TO_ROTATE,81.13,80,-1.13,3.98,-0.3,1.76,1.97,90.29,0.087,1,0,0,0,0,0,0,0,0,0,90.32,6.054,1,0,-0.21,0,0,0.07,90,0,0,0,0,0,0,0,0,-0.079,0,0,3,0,0,0,69,0,0,0,90.32,1,-0.079,-0.025,0.0006,0.904,0,0.0006,0,0.4232,6.054,4.29,0.08,0,1,1,0,0,VALID,0,0,0,0,0,1,0,0,0,0,0,0,0,0,0,0,0,0,0,0,343.95,474.37,2,0,0.08,0.08,346,14.29,0.08,0.06,36.41,LANDED,CF1-H,0:/Integrated Flight Computer/aircraft/cf1_h_cfg.ks (inferred preloaded)
36.79,TAKEOFF,TO_ROTATE,82.72,80,-2.72,4.09,-0.36,2.08,2.28,90.3,0.087,1,0,0,0,0,0,0,0,0,0,90.32,6.894,1,0,-0.21,0,0,0.07,90,0,0,0,0,0,0,0,0,-0.081,0,0,3,0,0,0,69,0,0,0,90.32,1,-0.081,-0.017,0.0004,0.921,0,0.0004,0,0.45,6.894,4.811,0.08,0,1,1,0,0,VALID,0,0,0,0,0,1,0,0,0,0,0,0,0,0,0,0,0,0,0,0,345.3,473.23,2,0,0.08,0.08,350,14.29,0.08,0.06,36.69,LANDED,CF1-H,0:/Integrated Flight Computer/aircraft/cf1_h_cfg.ks (inferred preloaded)
37.07,TAKEOFF,TO_ROTATE,84.3,80,-4.3,4.2,-0.16,2.75,2.86,90.3,0.087,1,0,0,0,0,0,0,0,0,0,90.31,7.734,1,0,-0.12,0,0,0.07,90,0,0,0,0,0,0,0,0,-0.084,0,0,3,0,0,0,69,0,0,0,90.31,1,-0.084,-0.012,0.0003,0.938,0,0.0003,0,0.45,7.734,4.985,0.08,0,1,1,0,0,VALID,0,0,0,0,0,1,0,0,0,0,0,0,0,0,0,0,0,0,0,0,346.61,472.11,2,0,0.08,0.08,354,14.29,0.08,0.06,36.97,LANDED,CF1-H,0:/Integrated Flight Computer/aircraft/cf1_h_cfg.ks (inferred preloaded)
37.35,TAKEOFF,TO_ROTATE,85.85,80,-5.85,4.37,-0.31,3.57,3.77,90.31,0.088,1,0,0,0,0,0,0,0,0,0,90.31,8.574,1,0,-0.21,0,0,0.07,90,0,0,0,0,0,0,0,0,-0.086,0,0,3,0,0,0,69,0,0,0,90.31,1,-0.086,-0.004,0.0001,0.954,0,0.0001,0,0.45,8.574,5.003,0.08,0,1,1,0,0,VALID,0,0,0,0,0,1,0,0,0,0,0,0,0,0,0,0,0,0,0,0,347.88,471,2,0,0.08,0.08,358,14.29,0.08,0.06,37.25,LANDED,CF1-H,0:/Integrated Flight Computer/aircraft/cf1_h_cfg.ks (inferred preloaded)
37.63,TAKEOFF,TO_ROTATE,87.37,80,-7.37,4.57,-0.2,4.55,4.68,90.31,0.084,1,0,0,0,0,0,0,0,0,0,90.31,9.414,1,0,-0.13,0,0,0.07,90,0,0,0,0,0,0,0,0,-0.089,0,0,3,0,0,0,69,0,0,0,90.31,1,-0.089,0.002,0,0.971,0,0,0,0.45,9.414,4.865,0.08,0,1,1,0,0,VALID,0,0,0,0,0,1,0,0,0,0,0,0,0,0,0,0,0,0,0,0,349.13,469.92,2,0,0.08,0.08,362,14.29,0.08,0.06,37.53,LANDED,CF1-H,0:/Integrated Flight Computer/aircraft/cf1_h_cfg.ks (inferred preloaded)
37.89,TAKEOFF,TO_ROTATE,88.72,80,-8.72,4.79,0.05,5.53,5.45,90.31,0.066,1,0,0,0,0,0,0,0,0,0,90.4,10,0,1,0.04,0,0,10,90.4,-0.8906,-0.0067,0.4547,10,90.4,0,0,0,0,0,0,3,0,0,0,69,0,0,0,90.4,1,0,-0.088,0,0,3,0,0,0,10,4.471,0,0,1,1,0,0,VALID,0,0,0,0,0,1,0,0,0,0,0,0,0,0,0,0,0,0,0,0,350.27,468.94,2,0,0.08,0.08,366,15.38,0.08,0.06,37.79,FLYING,CF1-H,0:/Integrated Flight Computer/aircraft/cf1_h_cfg.ks (inferred preloaded)
38.17,TAKEOFF,TO_ROTATE,90.13,80,-10.13,5.05,0.69,5.8,5.39,90.31,0.073,1,0,0,0,0,0,0,0,0,0,90.4,10,0,1,0.44,0,0,10,90.4,-0.8906,-0.0067,0.4547,10,90.4,0,0,0,0,0,0,3,0,0,0,69,0,0,0,90.4,1,0,-0.087,0,0,3,0,0,0,10,4.204,0,0,1,1,0,0,VALID,0,0,0,0,0,1,0,0,0,0,0,0,0,0,0,0,0,0,0,0,351.49,467.93,2,0,0.08,0.08,370,14.29,0.08,0.06,38.07,FLYING,CF1-H,0:/Integrated Flight Computer/aircraft/cf1_h_cfg.ks (inferred preloaded)
38.45,TAKEOFF,TO_ROTATE,91.51,80,-11.51,5.46,1.24,6.04,5.32,90.32,0.08,1,0,0,0,0,0,0,0,0,0,90.4,10,0,1,0.77,0,0,10,90.4,-0.8907,-0.0067,0.4546,10,90.4,0,0,0,0,0,0,3,0,0,0,69,0,0,0,90.4,1,0,-0.083,0,0,3,0,0,0,10,3.957,0,0,1,1,0,0,VALID,0,0,0,0,0,1,0,0,0,0,0,0,0,0,0,0,0,0,0,0,352.67,466.91,2,0,0.08,0.08,374,14.29,0.08,0.06,38.35,FLYING,CF1-H,0:/Integrated Flight Computer/aircraft/cf1_h_cfg.ks (inferred preloaded)
38.73,TAKEOFF,TO_CLIMB,92.89,80,-12.89,5.97,1.81,5.81,4.75,90.32,0.075,0.968,0,0,0,0,0,0,0,0,0,90.4,5.983,0,1,1.12,0,0,10,90.4,-0.9203,-0.0069,0.3911,5.98,90.4,0,0,0,0,0,0,3,0,0,0,69,0,0,0,90.4,1,0,-0.081,0,0,3,0,0,0,10,4.145,0,0,1,1,0,0,VALID,0,0,0,0,0,1,0,0,0,0,0,0,0,0,0,0,0,0,0,0,353.8,465.89,2,0,0.08,0.08,378,14.29,0.08,0.06,38.63,FLYING,CF1-H,0:/Integrated Flight Computer/aircraft/cf1_h_cfg.ks (inferred preloaded)
39.01,TAKEOFF,TO_CLIMB,94.29,80,-14.29,6.67,2.33,5.9,4.57,90.32,0.07,0.8571,0,0,0,0,0,0,0,0,0,90.4,6.431,0,1,1.42,0,0,6.3,90.4,-0.9173,-0.0069,0.3982,6.43,90.4,0,0,0,0,0,0,3,0,0,0,69,0,0,0,90.4,1,0,-0.08,0,0,3,0,0,0,10,4.145,0,0,1,1,0,0,VALID,0,0,0,0,0,1,0,0,0,0,0,0,0,0,0,0,0,0,0,0,354.43,464.86,2,0,0.08,0.08,382,14.29,0.08,0.06,38.91,FLYING,CF1-H,0:/Integrated Flight Computer/aircraft/cf1_h_cfg.ks (inferred preloaded)
39.29,TAKEOFF,TO_CLIMB,95.68,80,-15.68,7.42,2.77,5.34,3.78,90.32,0.07,0.8432,0,0,0,0,0,0,0,0,0,90.4,6.879,0,1,1.66,0,0,6.75,90.4,-0.9142,-0.0068,0.4053,6.88,90.4,0,0,0,0,0,0,3,0,0,0,69,0,0,0,90.4,1,0,-0.078,0,0,3,0,0,0,10,4.145,0,0,1,1,0,0,VALID,0,0,0,0,0,1,0,0,0,0,0,0,0,0,0,0,0,0,0,0,354.37,463.81,2,0,0.08,0.08,386,14.29,0.08,0.06,39.19,FLYING,CF1-H,0:/Integrated Flight Computer/aircraft/cf1_h_cfg.ks (inferred preloaded)
39.57,TAKEOFF,TO_CLIMB,97.1,80,-17.1,8.29,2.97,5.12,3.45,90.32,0.069,0.829,0,0,0,0,0,0,0,0,0,90.4,7.327,0,1,1.75,0,0,7.2,90.4,-0.911,-0.0068,0.4124,7.33,90.4,0,0,0,0,0,0,3,0,0,0,69,0,0,0,90.4,1,0,-0.076,0,0,3,0,0,0,10,4.145,0,0,1,1,0,0,VALID,0,0,0,0,0,1,0,0,0,0,0,0,0,0,0,0,0,0,0,0,354.14,462.74,2,0,0.08,0.08,390,14.29,0.08,0.06,39.47,FLYING,CF1-H,0:/Integrated Flight Computer/aircraft/cf1_h_cfg.ks (inferred preloaded)
39.85,TAKEOFF,TO_CLIMB,98.53,80,-18.53,9.25,3.2,5.04,3.26,90.33,0.067,0.8147,0,0,0,0,0,0,0,0,0,90.4,7.775,0,1,1.86,0,0,7.65,90.4,-0.9077,-0.0068,0.4195,7.77,90.4,0,0,0,0,0,0,3,0,0,0,69,0,0,0,90.4,1,0,-0.075,0,0,3,0,0,0,10,4.145,0,0,1,1,0,0,VALID,0,0,0,0,0,1,0,0,0,0,0,0,0,0,0,0,0,0,0,0,353.78,461.66,2,0,0.08,0.08,394,14.29,0.08,0.06,39.75,FLYING,CF1-H,0:/Integrated Flight Computer/aircraft/cf1_h_cfg.ks (inferred preloaded)
40.13,TAKEOFF,TO_CLIMB,99.96,80,-19.96,10.26,3.43,4.98,3.09,90.33,0.066,0.8004,0,0,0,0,0,0,0,0,0,90.4,8,0,1,1.97,0,0,8,90.4,-0.9061,-0.0068,0.423,8,90.4,0,0,0,0,0,0,3,0,0,0,69,0,0,0,90.4,1,0,-0.072,0,0,3,0,0,0,10,4.145,0,0,1,1,0,0,VALID,0,0,0,0,0,1,0,0,0,0,0,0,0,0,0,0,0,0,0,0,353.3,460.58,2,0,0.08,0.08,398,14.29,0.08,0.06,40.03,FLYING,CF1-H,0:/Integrated Flight Computer/aircraft/cf1_h_cfg.ks (inferred preloaded)
40.41,TAKEOFF,TO_CLIMB,101.38,80,-21.38,11.35,3.67,4.91,2.92,90.33,0.064,0.7862,0,0,0,0,0,0,0,0,0,90.4,8,0,1,2.07,0,0,8,90.4,-0.9061,-0.0068,0.423,8,90.4,0,0,0,0,0,0,3,0,0,0,69,0,0,0,90.4,1,0,-0.071,0,0,3,0,0,0,10,4.145,0,0,1,1,0,0,VALID,0,0,0,0,0,1,0,0,0,0,0,0,0,0,0,0,0,0,0,0,352.7,459.5,2,0,0.08,0.08,402,14.29,0.08,0.06,40.31,FLYING,CF1-H,0:/Integrated Flight Computer/aircraft/cf1_h_cfg.ks (inferred preloaded)
40.69,TAKEOFF,TO_CLIMB,102.8,80,-22.8,12.51,3.91,4.85,2.75,90.33,0.063,0.78,0,0,0,0,0,0,0,0,0,90.4,8,0,1,2.18,0,0,8,90.4,-0.9061,-0.0068,0.4229,8,90.4,0,0,0,0,0,0,3,0,0,0,69,0,0,0,90.4,1,0,-0.069,0,0,3,0,0,0,10,4.145,0,0,1,1,0,0,VALID,0,0,0,0,0,1,0,0,0,0,0,0,0,0,0,0,0,0,0,0,352,458.42,2,0,0.08,0.08,406,14.29,0.08,0.06,40.59,FLYING,CF1-H,0:/Integrated Flight Computer/aircraft/cf1_h_cfg.ks (inferred preloaded)
40.97,TAKEOFF,TO_CLIMB,104.21,80,-24.21,13.73,4.15,4.78,2.59,90.33,0.062,0.78,0,0,0,0,0,0,0,0,0,90.4,8,0,1,2.28,0,0,8,90.4,-0.9062,-0.0068,0.4229,8,90.4,0,0,0,0,0,0,3,0,0,0,69,0,0,0,90.4,1,0,-0.067,0,0,3,0,0,0,10,4.145,0,0,1,1,0,0,VALID,0,0,0,0,0,1,0,0,0,0,0,0,0,0,0,0,0,0,0,0,351.27,457.35,2,0,0.08,0.08,410,14.29,0.08,0.06,40.87,FLYING,CF1-H,0:/Integrated Flight Computer/aircraft/cf1_h_cfg.ks (inferred preloaded)
41.25,TAKEOFF,TO_CLIMB,105.62,80,-25.62,15.03,4.38,4.73,2.44,90.33,0.06,0.78,0,0,0,0,0,0,0,0,0,90.4,8,0,1,2.38,0,0,8,90.4,-0.9062,-0.0068,0.4228,8,90.4,0,0,0,0,0,0,3,0,0,0,69,0,0,0,90.4,1,0,-0.066,0,0,3,0,0,0,10,4.145,0,0,1,1,0,0,VALID,0,0,0,0,0,1,0,0,0,0,0,0,0,0,0,0,0,0,0,0,350.53,456.27,2,0,0.08,0.08,414,14.29,0.08,0.06,41.15,FLYING,CF1-H,0:/Integrated Flight Computer/aircraft/cf1_h_cfg.ks (inferred preloaded)
41.53,TAKEOFF,TO_CLIMB,107.02,80,-27.02,16.39,4.62,4.69,2.31,90.34,0.059,0.78,0,0,0,0,0,0,0,0,0,90.4,8,0,1,2.47,0,0,8,90.4,-0.9062,-0.0068,0.4228,8,90.4,0,0,0,0,0,0,3,0,0,0,69,0,0,0,90.4,1,0,-0.065,0,0,3,0,0,0,10,4.145,0,0,1,1,0,0,VALID,0,0,0,0,0,1,0,0,0,0,0,0,0,0,0,0,0,0,0,0,349.8,455.2,2,0,0.08,0.08,418,14.29,0.08,0.06,41.43,FLYING,CF1-H,0:/Integrated Flight Computer/aircraft/cf1_h_cfg.ks (inferred preloaded)
41.81,TAKEOFF,TO_CLIMB,108.42,80,-28.42,17.81,4.86,4.64,2.16,90.34,0.059,0.78,0,0,0,0,0,0,0,0,0,90.4,8,0,1,2.57,0,0,8,90.4,-0.9062,-0.0068,0.4227,8,90.4,0,0,0,0,0,0,3,0,0,0,69,0,0,0,90.4,1,0,-0.063,0,0,3,0,0,0,10,4.145,0,0,1,1,0,0,VALID,0,0,0,0,0,1,0,0,0,0,0,0,0,0,0,0,0,0,0,0,349.07,454.13,2,0,0.08,0.08,422,14.29,0.08,0.06,41.71,FLYING,CF1-H,0:/Integrated Flight Computer/aircraft/cf1_h_cfg.ks (inferred preloaded)
42.09,TAKEOFF,TO_CLIMB,109.81,80,-29.81,19.31,5.1,4.59,2.03,90.34,0.058,0.78,0,0,0,0,0,0,0,0,0,90.4,8,0,1,2.66,0,0,8,90.4,-0.9063,-0.0068,0.4227,8,90.4,0,0,0,0,0,0,3,0,0,0,69,0,0,0,90.4,1,0,-0.062,0,0,3,0,0,0,10,4.145,0,0,1,1,0,0,VALID,0,0,0,0,0,1,0,0,0,0,0,0,0,0,0,0,0,0,0,0,348.34,453.07,2,0,0.08,0.08,426,14.29,0.08,0.06,41.99,FLYING,CF1-H,0:/Integrated Flight Computer/aircraft/cf1_h_cfg.ks (inferred preloaded)
42.37,TAKEOFF,TO_CLIMB,111.2,80,-31.2,20.87,5.34,4.55,1.9,90.34,0.056,0.78,0,0,0,0,0,0,0,0,0,90.4,8,0,1,2.75,0,0,8,90.4,-0.9063,-0.0068,0.4226,8,90.4,0,0,0,0,0,0,3,0,0,0,69,0,0,0,90.4,1,0,-0.061,0,0,3,0,0,0,10,4.145,0,0,1,1,0,0,VALID,0,0,0,0,0,1,0,0,0,0,0,0,0,0,0,0,0,0,0,0,347.61,452.01,2,0,0.08,0.08,430,14.29,0.08,0.06,42.27,FLYING,CF1-H,0:/Integrated Flight Computer/aircraft/cf1_h_cfg.ks (inferred preloaded)
42.65,TAKEOFF,TO_CLIMB,112.58,80,-32.58,22.49,5.57,4.51,1.77,90.34,0.055,0.78,0,0,0,0,0,0,0,0,0,90.4,8,0,1,2.83,0,0,8,90.4,-0.9063,-0.0068,0.4226,8,90.4,0,0,0,0,0,0,3,0,0,0,69,0,0,0,90.4,1,0,-0.06,0,0,3,0,0,0,10,4.145,0,0,1,1,0,0,VALID,0,0,0,0,0,1,0,0,0,0,0,0,0,0,0,0,0,0,0,0,346.88,450.95,2,0,0.08,0.08,434,14.29,0.08,0.06,42.55,FLYING,CF1-H,0:/Integrated Flight Computer/aircraft/cf1_h_cfg.ks (inferred preloaded)
42.93,TAKEOFF,TO_CLIMB,113.96,80,-33.96,24.19,5.82,4.46,1.64,90.34,0.054,0.78,0,0,0,0,0,0,0,0,0,90.4,8,0,1,2.92,0,0,8,90.4,-0.9063,-0.0068,0.4225,8,90.4,0,0,0,0,0,0,3,0,0,0,69,0,0,0,90.4,1,0,-0.059,0,0,3,0,0,0,10,4.145,0,0,1,1,0,0,VALID,0,0,0,0,0,1,0,0,0,0,0,0,0,0,0,0,0,0,0,0,346.15,449.9,2,0,0.08,0.08,438,14.29,0.08,0.06,42.83,FLYING,CF1-H,0:/Integrated Flight Computer/aircraft/cf1_h_cfg.ks (inferred preloaded)
43.21,TAKEOFF,TO_CLIMB,115.33,80,-35.33,25.95,6.05,4.42,1.52,90.34,0.054,0.78,0,0,0,0,0,0,0,0,0,90.4,8,0,1,3,0,0,8,90.4,-0.9063,-0.0068,0.4225,8,90.4,0,0,0,0,0,0,3,0,0,0,69,0,0,0,90.4,1,0,-0.058,0,0,3,0,0,0,10,4.145,0,0,1,1,0,0,VALID,0,0,0,0,0,1,0,0,0,0,0,0,0,0,0,0,0,0,0,0,345.42,448.85,2,0,0.08,0.08,442,14.29,0.08,0.06,43.11,FLYING,CF1-H,0:/Integrated Flight Computer/aircraft/cf1_h_cfg.ks (inferred preloaded)
43.49,TAKEOFF,TO_CLIMB,116.69,80,-36.69,27.77,6.29,4.39,1.4,90.34,0.053,0.78,0,0,0,0,0,0,0,0,0,90.4,8,0,1,3.08,0,0,8,90.4,-0.9064,-0.0068,0.4224,8,90.4,0,0,0,0,0,0,3,0,0,0,69,0,0,0,90.4,1,0,-0.057,0,0,3,0,0,0,10,4.145,0,0,1,1,0,0,VALID,0,0,0,0,0,1,0,0,0,0,0,0,0,0,0,0,0,0,0,0,344.7,447.81,2,0,0.08,0.08,446,14.29,0.08,0.06,43.39,FLYING,CF1-H,0:/Integrated Flight Computer/aircraft/cf1_h_cfg.ks (inferred preloaded)
43.77,TAKEOFF,TO_CLIMB,118.05,80,-38.05,29.66,6.52,4.36,1.3,90.34,0.053,0.78,0,0,0,0,0,0,0,0,0,90.4,8,0,1,3.16,0,0,8,90.4,-0.9064,-0.0068,0.4224,8,90.4,0,0,0,0,0,0,3,0,0,0,69,0,0,0,90.4,1,0,-0.055,0,0,3,0,0,0,10,4.145,0,0,1,1,0,0,VALID,0,0,0,0,0,1,0,0,0,0,0,0,0,0,0,0,0,0,0,0,343.98,446.77,2,0,0.08,0.08,450,14.29,0.08,0.06,43.67,FLYING,CF1-H,0:/Integrated Flight Computer/aircraft/cf1_h_cfg.ks (inferred preloaded)
44.05,TAKEOFF,TO_CLIMB,119.4,80,-39.4,31.62,6.76,4.33,1.2,90.35,0.051,0.78,0,0,0,0,0,0,0,0,0,90.4,8,0,1,3.24,0,0,8,90.4,-0.9064,-0.0068,0.4223,8,90.4,0,0,0,0,0,0,3,0,0,0,69,0,0,0,90.4,1,0,-0.055,0,0,3,0,0,0,10,4.145,0,0,1,1,0,0,VALID,0,0,0,0,0,1,0,0,0,0,0,0,0,0,0,0,0,0,0,0,343.26,445.74,2,0,0.08,0.08,454,14.29,0.08,0.06,43.95,FLYING,CF1-H,0:/Integrated Flight Computer/aircraft/cf1_h_cfg.ks (inferred preloaded)
44.33,TAKEOFF,TO_CLIMB,120.75,80,-40.75,33.67,6.99,4.31,1.1,90.35,0.051,0.78,0,0,0,0,0,0,0,0,0,90.4,8,0,1,3.31,0,0,8,90.4,-0.9064,-0.0068,0.4223,8,90.4,0,0,0,0,0,0,3,0,0,0,69,0,0,0,90.4,1,0,-0.054,0,0,3,0,0,0,10,4.145,0,0,1,1,0,0,VALID,0,0,0,0,0,1,0,0,0,0,0,0,0,0,0,0,0,0,0,0,342.54,444.71,2,0,0.08,0.08,458,14.29,0.08,0.06,44.23,FLYING,CF1-H,0:/Integrated Flight Computer/aircraft/cf1_h_cfg.ks (inferred preloaded)
44.61,TAKEOFF,TO_CLIMB,122.09,80,-42.09,35.76,7.24,4.28,0.99,90.35,0.051,0.78,0,0,0,0,0,0,0,0,0,90.4,8,0,1,3.39,0,0,8,90.4,-0.9065,-0.0068,0.4222,8,90.4,0,0,0,0,0,0,3,0,0,0,69,0,0,0,90.4,1,0,-0.052,0,0,3,0,0,0,10,4.145,0,0,1,1,0,0,VALID,0,0,0,0,0,1,0,0,0,0,0,0,0,0,0,0,0,0,0,0,341.83,443.69,2,0,0.08,0.08,462,14.29,0.08,0.06,44.51,FLYING,CF1-H,0:/Integrated Flight Computer/aircraft/cf1_h_cfg.ks (inferred preloaded)
44.89,TAKEOFF,TO_CLIMB,123.42,80,-43.42,37.91,7.47,4.26,0.9,90.35,0.05,0.78,0,0,0,0,0,0,0,0,0,90.4,8,0,1,3.46,0,0,8,90.4,-0.9065,-0.0068,0.4222,8,90.4,0,0,0,0,0,0,3,0,0,0,69,0,0,0,90.4,1,0,-0.051,0,0,3,0,0,0,10,4.145,0,0,1,1,0,0,VALID,0,0,0,0,0,1,0,0,0,0,0,0,0,0,0,0,0,0,0,0,341.12,442.68,2,0,0.08,0.08,466,14.29,0.08,0.06,44.79,FLYING,CF1-H,0:/Integrated Flight Computer/aircraft/cf1_h_cfg.ks (inferred preloaded)
45.17,TAKEOFF,TO_CLIMB,124.75,80,-44.75,40.13,7.71,4.25,0.82,90.35,0.049,0.78,0,0,0,0,0,0,0,0,0,90.4,8,0,1,3.54,0,0,8,90.4,-0.9065,-0.0068,0.4221,8,90.4,0,0,0,0,0,0,3,0,0,0,69,0,0,0,90.4,1,0,-0.05,0,0,3,0,0,0,10,4.145,0,0,1,1,0,0,VALID,0,0,0,0,0,1,0,0,0,0,0,0,0,0,0,0,0,0,0,0,340.41,441.67,2,0,0.08,0.08,470,14.29,0.08,0.06,45.07,FLYING,CF1-H,0:/Integrated Flight Computer/aircraft/cf1_h_cfg.ks (inferred preloaded)
45.44,TAKEOFF,TO_CLIMB,125.99,80,-45.99,42.3,7.94,4.23,0.74,90.35,0.049,0.78,0,0,0,0,0,0,0,0,0,90.4,8,0,1,3.6,0,0,8,90.4,-0.9065,-0.0068,0.4221,8,90.4,0,0,0,0,0,0,3,0,0,0,69,0,0,0,90.4,1,0,-0.049,0,0,3,0,0,0,10,4.145,0,0,1,1,0,0,VALID,0,0,0,0,0,1,0,0,0,0,0,0,0,0,0,0,0,0,0,0,339.76,440.73,2,0,0.021,0.021,476,22.61,0.08,0.021,45.34,FLYING,CF1-H,0:/Integrated Flight Computer/aircraft/cf1_h_cfg.ks (inferred preloaded)
45.72,TAKEOFF,TO_CLIMB,127.21,80,-47.21,44.69,8.18,4.24,0.67,90.35,0.048,0.78,0,0,0,0,0,0,0,0,0,90.4,8,0,1,3.68,0,0,8,90.4,-0.9066,-0.0068,0.422,8,90.4,0,0,0,0,0,0,3,0,0,0,69,0,0,0,90.4,1,0,-0.047,0,0,3,0,0,0,10,4.145,0,0,1,1,0,0,VALID,0,0,0,0,0,1,0,0,0,0,0,0,0,0,0,0,0,0,0,0,339.11,439.8,2,0,0.077,0.077,481,17.59,0.077,0.021,45.62,FLYING,CF1-H,0:/Integrated Flight Computer/aircraft/cf1_h_cfg.ks (inferred preloaded)
45.97,TAKEOFF,TO_CLIMB,128.29,80,-48.29,46.87,8.41,4.24,0.61,90.35,0.048,0.78,0,0,0,0,0,0,0,0,0,90.4,8,0,1,3.75,0,0,8,90.4,-0.9066,-0.0068,0.422,8,90.4,0,0,0,0,0,0,3,0,0,0,69,0,0,0,90.4,1,0,-0.046,0,0,3,0,0,0,10,4.145,0,0,1,1,0,0,VALID,0,0,0,0,0,1,0,0,0,0,0,0,0,0,0,0,0,0,0,0,338.55,438.97,2,0,0.091,0.091,485,15.88,0.091,0.03,45.87,FLYING,CF1-H,0:/Integrated Flight Computer/aircraft/cf1_h_cfg.ks (inferred preloaded)
46.26,TAKEOFF,TO_CLIMB,129.54,80,-49.54,49.37,8.67,4.24,0.53,90.35,0.047,0.78,0,0,0,0,0,0,0,0,0,90.4,8,0,1,3.83,0,0,8,90.4,-0.9066,-0.0068,0.4219,8,90.4,0,0,0,0,0,0,3,0,0,0,69,0,0,0,90.4,1,0,-0.045,0,0,3,0,0,0,10,4.145,0,0,1,1,0,0,VALID,0,0,0,0,0,1,0,0,0,0,0,0,0,0,0,0,0,0,0,0,337.89,438.03,2,0,0.095,0.095,489,14.2,0.095,0.031,46.16,FLYING,CF1-H,0:/Integrated Flight Computer/aircraft/cf1_h_cfg.ks (inferred preloaded)
46.53,TAKEOFF,TO_CLIMB,130.73,80,-50.73,51.87,8.93,4.25,0.46,90.36,0.046,0.78,0,0,0,0,0,0,0,0,0,90.4,8,0,1,3.91,0,0,8,90.4,-0.9066,-0.0068,0.4218,8,90.4,0,0,0,0,0,0,3,0,0,0,69,0,0,0,90.4,1,0,-0.044,0,0,3,0,0,0,10,4.145,0,0,1,1,0,0,VALID,0,0,0,0,0,1,0,0,0,0,0,0,0,0,0,0,0,0,0,0,337.27,437.12,2,0,0.105,0.105,492,10.94,0.105,0.064,46.43,FLYING,CF1-H,0:/Integrated Flight Computer/aircraft/cf1_h_cfg.ks (inferred preloaded)
46.85,TAKEOFF,TO_CLIMB,132.17,80,-52.17,54.84,9.22,4.26,0.39,90.36,0.046,0.78,0,0,0,0,0,0,0,0,0,90.4,8,0,1,3.99,0,0,8,90.4,-0.9067,-0.0068,0.4218,8,90.4,0,0,0,0,0,0,3,0,0,0,69,0,0,0,90.4,1,0,-0.043,0,0,3,0,0,0,10,4.145,0,0,1,1,0,0,VALID,0,0,0,0,0,1,0,0,0,0,0,0,0,0,0,0,0,0,0,0,336.5,436.04,2,0,0.105,0.105,495,9.52,0.105,0.105,46.75,FLYING,CF1-H,0:/Integrated Flight Computer/aircraft/cf1_h_cfg.ks (inferred preloaded)
47.16,TAKEOFF,TO_CLIMB,133.61,80,-53.61,57.9,9.53,4.27,0.31,90.36,0.046,0.78,0,0,0,0,0,0,0,0,0,90.4,8,0,1,4.08,0,0,8,90.4,-0.9067,-0.0068,0.4217,8,90.4,0,0,0,0,0,0,3,0,0,0,69,0,0,0,90.4,1,0,-0.042,0,0,3,0,0,0,10,4.145,0,0,1,1,0,0,VALID,0,0,0,0,0,1,0,0,0,0,0,0,0,0,0,0,0,0,0,0,335.74,434.96,2,0,0.105,0.105,498,9.52,0.105,0.105,47.06,FLYING,CF1-H,0:/Integrated Flight Computer/aircraft/cf1_h_cfg.ks (inferred preloaded)
47.48,TAKEOFF,TO_CLIMB,135.04,80,-55.04,61.05,9.83,4.27,0.23,90.36,0.044,0.78,0,0,0,0,0,0,0,0,0,90.4,8,0,1,4.16,0,0,8,90.4,-0.9067,-0.0068,0.4216,8,90.4,0,0,0,0,0,0,3,0,0,0,69,0,0,0,90.4,1,0,-0.041,0,0,3,0,0,0,10,4.145,0,0,1,1,0,0,VALID,0,0,0,0,0,1,0,0,0,0,0,0,0,0,0,0,0,0,0,0,334.98,433.89,2,0,0.105,0.105,501,9.52,0.105,0.105,47.38,FLYING,CF1-H,0:/Integrated Flight Computer/aircraft/cf1_h_cfg.ks (inferred preloaded)
47.79,TAKEOFF,TO_CLIMB,136.46,80,-56.46,64.29,10.12,4.27,0.15,90.36,0.044,0.78,0,0,0,0,0,0,0,0,0,90.4,8,0,1,4.24,0,0,8,90.4,-0.9068,-0.0068,0.4216,8,90.4,0,0,0,0,0,0,3,0,0,0,69,0,0,0,90.4,1,0,-0.039,0,0,3,0,0,0,10,4.145,0,0,1,1,0,0,VALID,0,0,0,0,0,1,0,0,0,0,0,0,0,0,0,0,0,0,0,0,334.23,432.83,2,0,0.105,0.105,504,9.52,0.105,0.105,47.69,FLYING,CF1-H,0:/Integrated Flight Computer/aircraft/cf1_h_cfg.ks (inferred preloaded)
48.11,TAKEOFF,TO_CLIMB,137.87,80,-57.87,67.61,10.42,4.28,0.09,90.36,0.044,0.78,0,0,0,0,0,0,0,0,0,90.4,8,0,1,4.32,0,0,8,90.4,-0.9068,-0.0068,0.4215,8,90.4,0,0,0,0,0,0,3,0,0,0,69,0,0,0,90.4,1,0,-0.038,0,0,3,0,0,0,10,4.145,0,0,1,1,0,0,VALID,0,0,0,0,0,1,0,0,0,0,0,0,0,0,0,0,0,0,0,0,333.48,431.78,2,0,0.105,0.105,507,9.52,0.105,0.105,48.01,FLYING,CF1-H,0:/Integrated Flight Computer/aircraft/cf1_h_cfg.ks (inferred preloaded)
48.42,TAKEOFF,TO_CLIMB,139.27,80,-59.27,71.03,10.72,4.29,0.02,90.36,0.044,0.78,0,0,0,0,0,0,0,0,0,90.4,8,0,1,4.4,0,0,8,90.4,-0.9068,-0.0068,0.4214,8,90.4,0,0,0,0,0,0,3,0,0,0,69,0,0,0,90.4,1,0,-0.037,0,0,3,0,0,0,10,4.145,0,0,1,1,0,0,VALID,0,0,0,0,0,1,0,0,0,0,0,0,0,0,0,0,0,0,0,0,332.74,430.74,2,0,0.105,0.105,510,9.52,0.105,0.105,48.32,FLYING,CF1-H,0:/Integrated Flight Computer/aircraft/cf1_h_cfg.ks (inferred preloaded)
48.74,TAKEOFF,TO_CLIMB,140.66,80,-60.66,74.54,11.01,4.3,-0.05,90.36,0.044,0.78,0,0,0,0,0,0,0,0,0,90.4,8,0,1,4.48,0,0,8,90.4,-0.9069,-0.0068,0.4214,8,90.4,0,0,0,0,0,0,3,0,0,0,69,0,0,0,90.4,1,0,-0.036,0,0,3,0,0,0,10,4.145,0,0,1,1,0,0,VALID,0,0,0,0,0,1,0,0,0,0,0,0,0,0,0,0,0,0,0,0,332.01,429.72,2,0,0.105,0.105,513,9.52,0.105,0.105,48.64,FLYING,CF1-H,0:/Integrated Flight Computer/aircraft/cf1_h_cfg.ks (inferred preloaded)
49.05,TAKEOFF,TO_CLIMB,142.04,80,-62.04,78.15,11.31,4.32,-0.1,90.37,0.043,0.78,0,0,0,0,0,0,0,0,0,90.4,8,0,1,4.55,0,0,8,90.4,-0.9069,-0.0068,0.4213,8,90.4,0,0,0,0,0,0,3,0,0,0,69,0,0,0,90.4,1,0,-0.035,0,0,3,0,0,0,10,4.145,0,0,1,1,0,0,VALID,0,0,0,0,0,1,0,0,0,0,0,0,0,0,0,0,0,0,0,0,331.28,428.7,2,0,0.105,0.105,516,9.52,0.105,0.105,48.95,FLYING,CF1-H,0:/Integrated Flight Computer/aircraft/cf1_h_cfg.ks (inferred preloaded)
49.37,TAKEOFF,TO_CLIMB,143.41,80,-63.41,81.85,11.61,4.34,-0.16,90.37,0.043,0.78,0,0,0,0,0,0,0,0,0,90.4,8,0,1,4.63,0,0,8,90.4,-0.9069,-0.0068,0.4212,8,90.4,0,0,0,0,0,0,3,0,0,0,69,0,0,0,90.4,1,0,-0.033,0,0,3,0,0,0,10,4.145,0,0,1,1,0,0,VALID,0,0,0,0,0,1,0,0,0,0,0,0,0,0,0,0,0,0,0,0,330.56,427.69,2,0,0.105,0.105,519,9.52,0.105,0.105,49.27,FLYING,CF1-H,0:/Integrated Flight Computer/aircraft/cf1_h_cfg.ks (inferred preloaded)
49.68,TAKEOFF,TO_CLIMB,144.77,80,-64.77,85.64,11.91,4.35,-0.22,90.37,0.042,0.78,0,0,0,0,0,0,0,0,0,90.4,8,0,1,4.7,0,0,8,90.4,-0.907,-0.0068,0.4212,8,90.4,0,0,0,0,0,0,3,0,0,0,69,0,0,0,90.4,1,0,-0.032,0,0,3,0,0,0,10,4.145,0,0,1,1,0,0,VALID,0,0,0,0,0,1,0,0,0,0,0,0,0,0,0,0,0,0,0,0,329.85,426.7,2,0,0.105,0.105,522,9.52,0.105,0.105,49.58,FLYING,CF1-H,0:/Integrated Flight Computer/aircraft/cf1_h_cfg.ks (inferred preloaded)
50,TAKEOFF,TO_CLIMB,146.12,80,-66.12,89.52,12.21,4.37,-0.28,90.37,0.041,0.78,0,0,0,0,0,0,0,0,0,90.4,8,0,1,4.78,0,0,8,90.4,-0.907,-0.0068,0.4211,8,90.4,0,0,0,0,0,0,3,0,0,0,69,0,0,0,90.4,1,0,-0.031,0,0,3,0,0,0,10,4.145,0,0,1,1,0,0,VALID,0,0,0,0,0,1,0,0,0,0,0,0,0,0,0,0,0,0,0,0,329.15,425.71,2,0,0.105,0.105,525,9.52,0.105,0.105,49.9,FLYING,CF1-H,0:/Integrated Flight Computer/aircraft/cf1_h_cfg.ks (inferred preloaded)
50.31,TAKEOFF,TO_CLIMB,147.46,80,-67.46,93.49,12.51,4.39,-0.33,90.37,0.041,0.78,0,0,0,0,0,0,0,0,0,90.4,8,0,1,4.85,0,0,8,90.4,-0.907,-0.0068,0.421,8,90.4,0,0,0,0,0,0,3,0,0,0,69,0,0,0,90.4,1,0,-0.03,0,0,3,0,0,0,10,4.145,0,0,1,1,0,0,VALID,0,0,0,0,0,1,0,0,0,0,0,0,0,0,0,0,0,0,0,0,328.45,424.74,2,0,0.105,0.105,528,9.52,0.105,0.105,50.21,FLYING,CF1-H,0:/Integrated Flight Computer/aircraft/cf1_h_cfg.ks (inferred preloaded)
