t_s,phase,subphase,ias_ms,vapp_ms,spd_err_ms,agl_m,vs_ms,pitch_deg,aoa_deg,hdg_deg,bank_deg,thr_cmd,thr_cur,thr_intg,at_gain,at_tau_s,at_a_up,at_a_dn,at_kp_thr,at_ki_spd,at_thr_slew,as_cmd_deg,as_cap_deg,as_raw_deg,as_spd_err_ms,as_active,aa_hdg_cmd_deg,aa_fpa_cmd_deg,aa_fbw,aa_dir,actual_fpa_deg,ftf_hdg_err_deg,ftf_fix_idx,kos_steer_pit_deg,kos_steer_hdg_deg,aa_dir_vx,aa_dir_vy,aa_dir_vz,aa_dir_pitch_deg,aa_dir_hdg_deg,ils_loc_m,ils_gs_m,ils_dist_km,loc_corr_deg,gs_corr_deg,gs_latched,active_gs_ang_deg,ils_intercept_alt_m,d_gs_ms,fpa_preclamped_deg,gs_nom_alt_m,flare_fpa_cmd,flare_tgt_vs,flare_frac,steer_hdg_deg,steer_blend,ro_loc_corr_deg,ro_hdg_err_deg,ro_yaw_tgt,ro_yaw_scale,ro_yaw_gate,yaw_cmd,roll_cmd,pitch_cmd,ro_pitch_tgt_deg,ro_pitch_err_deg,ro_pitch_ff,ro_roll_assist,flaps_cur,flaps_tgt,asc_j_ab,asc_j_rk,asc_validity,asc_q_pa,asc_q_raw_pa,asc_mach,asc_apo_m,asc_drag_n,asc_w_prop,asc_edot_aero,asc_edot_orb,asc_pitch_bias,asc_blend,asc_spooling,asc_ab_thr_ratio,asc_ab_t_now,asc_ab_t_avail,asc_ab_ign_on,asc_ab_flameouts,asc_rk_t_now,asc_rk_t_avail,asc_rk_ign_on,asc_rk_flameouts,ship_thrust,ship_avail_thrust,ship_ign_on,ship_flameouts,ifc_raw_dt_s,ifc_dt_s,ifc_loop_n,ifc_hz_est,ifc_raw_dt_max_s,ifc_raw_dt_min_s,phase_el_s,status,craft_name,cfg_file
1.9,TAKEOFF,TO_PREFLIGHT,0.33,80,79.67,3.68,-0.18,4.79,26.94,90.37,0.135,0.056,0,0,0,0,0,0,0,0,0,0,0,0,0,0,90.4,0,1,0,-0.3,0,0,0,90,0,0,0,0,0,0,0,0,0,0,0,3,0,0,0,69,0,0,0,90.4,1,0,-0.027,0,0,1,0,0,0,0,0,0,0,0,2,0,0,VALID,0,0,0,0,0,1,0,0,0,0,0,0,0,0,0,0,0,0,0,0,0,877.71,2,0,0.14,0.14,1,0.5,0.14,0.02,1.76,LANDED,X10-F,0:/Integrated Flight Computer/aircraft/x10_f_cfg.ks (inferred preloaded)
2.16,TAKEOFF,TO_PREFLIGHT,0.32,80,79.68,3.86,0.24,0.63,-31.23,90.3,0.127,0.328,0,0,0,0,0,0,0,0,0,0,0,0,0,0,90.4,0,1,0,13.35,0,0,0,90,0,0,0,0,0,0,0,0,0,0,0,3,0,0,0,69,0,0,0,90.4,1,0,-0.027,0,0,1,0,0,0,0,0,0,0,1,2,0,0,VALID,0,0,0,0,0,1,0,0,0,0,0,0,0,0,0,0,0,0,0,0,7.42,877.71,2,0,0.04,0.04,6,19.23,1.84,0.04,2.02,LANDED,X10-F,0:/Integrated Flight Computer/aircraft/x10_f_cfg.ks (inferred preloaded)
2.42,TAKEOFF,TO_PREFLIGHT,0.25,80,79.75,4.1,-0.11,1.33,25.56,90.29,0.12,0.432,0,0,0,0,0,0,0,0,0,0,0,0,0,0,90.4,0,1,0,-6.44,0,0,0,90,0,0,0,0,0,0,0,0,0,0,0,3,0,0,0,69,0,0,0,90.4,1,0,-0.027,0,0,1,0,0,0,0,0,0,0,2,2,0,0,VALID,0,0,0,0,0,1,0,0,0,0,0,0,0,0,0,0,0,0,0,0,22.72,877.71,2,0,0.06,0.06,10,15.38,0.08,0.04,2.28,LANDED,X10-F,0:/Integrated Flight Computer/aircraft/x10_f_cfg.ks (inferred preloaded)
2.68,TAKEOFF,TO_PREFLIGHT,0.14,80,79.86,4.2,-0.02,1.81,25.78,90.29,0.138,0.536,0,0,0,0,0,0,0,0,0,0,0,0,0,0,90.4,0,1,0,-1.1,0,0,0,90,0,0,0,0,0,0,0,0,0,0,0,3,0,0,0,69,0,0,0,90.4,1,0,-0.027,0,0,1,0,0,0,0,0,0,0,2,2,0,0,VALID,0,0,0,0,0,1,0,0,0,0,0,0,0,0,0,0,0,0,0,0,41.83,877.71,2,0,0.06,0.06,14,15.38,0.08,0.04,2.54,LANDED,X10-F,0:/Integrated Flight Computer/aircraft/x10_f_cfg.ks (inferred preloaded)
2.94,TAKEOFF,TO_PREFLIGHT,0.12,80,79.88,4.32,0.04,2.16,-51.97,90.29,0.141,0.64,0,0,0,0,0,0,0,0,0,0,0,0,0,0,90.4,0,1,0,2.43,0,0,0,90,0,0,0,0,0,0,0,0,0,0,0,3,0,0,0,69,0,0,0,90.4,1,0,-0.027,0,0,1,0,0,0,0,0,0,0,2,2,0,0,VALID,0,0,0,0,0,1,0,0,0,0,0,0,0,0,0,0,0,0,0,0,64.6,877.71,2,0,0.06,0.06,18,15.38,0.08,0.04,2.8,LANDED,X10-F,0:/Integrated Flight Computer/aircraft/x10_f_cfg.ks (inferred preloaded)
3.2,TAKEOFF,TO_PREFLIGHT,0.06,80,79.94,4.38,-0.06,2.41,75.19,90.29,0.138,0.744,0,0,0,0,0,0,0,0,0,0,0,0,0,0,90.4,0,1,0,-3.47,0,0,0,90,0,0,0,0,0,0,0,0,0,0,0,3,0,0,0,69,0,0,0,90.4,1,0,-0.027,0,0,1,0,0,0,0,0,0,0,2,2,0,0,VALID,0,0,0,0,0,1,0,0,0,0,0,0,0,0,0,0,0,0,0,0,90.84,877.71,2,0,0.06,0.06,22,15.38,0.08,0.04,3.06,LANDED,X10-F,0:/Integrated Flight Computer/aircraft/x10_f_cfg.ks (inferred preloaded)
3.46,TAKEOFF,TO_PREFLIGHT,0.03,80,79.97,4.4,0.04,2.46,-36.05,90.29,0.142,0.848,0,0,0,0,0,0,0,0,0,0,0,0,0,0,90.4,0,1,0,2.38,0,0,0,90,0,0,0,0,0,0,0,0,0,0,0,3,0,0,0,69,0,0,0,90.4,1,0,-0.027,0,0,1,0,0,0,0,0,0,0,2,2,0,0,VALID,0,0,0,0,0,1,0,0,0,0,0,0,0,0,0,0,0,0,0,0,120.39,877.71,2,0,0.06,0.06,26,15.38,0.08,0.04,3.32,LANDED,X10-F,0:/Integrated Flight Computer/aircraft/x10_f_cfg.ks (inferred preloaded)
3.72,TAKEOFF,TO_PREFLIGHT,0.1,80,79.9,4.35,-0.02,2.27,8.07,90.29,0.137,0.952,0,0,0,0,0,0,0,0,0,0,0,0,0,0,90.4,0,1,0,-0.89,0,0,0,90,0,0,0,0,0,0,0,0,0,0,0,3,0,0,0,69,0,0,0,90.4,1,0,-0.027,0,0,1,0,0,0,0,0,0,0,2,2,0,0,VALID,0,0,0,0,0,1,0,0,0,0,0,0,0,0,0,0,0,0,0,0,153.07,877.71,2,0,0.06,0.06,30,15.38,0.08,0.04,3.58,LANDED,X10-F,0:/Integrated Flight Computer/aircraft/x10_f_cfg.ks (inferred preloaded)
3.98,TAKEOFF,TO_PREFLIGHT,0.18,80,79.82,4.21,0.02,1.79,-3.56,90.28,0.137,1,0,0,0,0,0,0,0,0,0,0,0,0,0,0,90.4,0,1,0,1.4,0,0,0,90,0,0,0,0,0,0,0,0,0,0,0,3,0,0,0,69,0,0,0,90.4,1,0,-0.027,0,0,1,0,0,0,0,0,0,0,2,2,0,0,VALID,0,0,0,0,0,1,0,0,0,0,0,0,0,0,0,0,0,0,0,0,188.62,877.71,2,0,0.06,0.06,34,15.38,0.08,0.04,3.84,LANDED,X10-F,0:/Integrated Flight Computer/aircraft/x10_f_cfg.ks (inferred preloaded)
4.24,TAKEOFF,TO_PREFLIGHT,0.27,80,79.73,3.98,0.02,1,-2.79,90.28,0.13,1,0,0,0,0,0,0,0,0,0,0,0,0,0,0,90.4,0,1,0,1.08,0,0,0,90,0,0,0,0,0,0,0,0,0,0,0,3,0,0,0,69,0,0,0,90.4,1,0,-0.027,0,0,1,0,0,0,0,0,0,0,2,2,0,0,VALID,0,0,0,0,0,1,0,0,0,0,0,0,0,0,0,0,0,0,0,0,223.6,877.7,2,0,0.06,0.06,38,15.38,0.08,0.04,4.1,LANDED,X10-F,0:/Integrated Flight Computer/aircraft/x10_f_cfg.ks (inferred preloaded)
4.5,TAKEOFF,TO_PREFLIGHT,0.36,80,79.64,3.67,0.02,-0.1,-2.16,90.28,0.126,1,0,0,0,0,0,0,0,0,0,0,0,0,0,0,90.4,0,1,0,1.38,0,0,0,90,0,0,0,0,0,0,0,0,0,0,0,3,0,0,0,69,0,0,0,90.4,1,0,-0.027,0,0,1,0,0,0,0,0,0,0,2,2,0,0,VALID,0,0,0,0,0,1,0,0,0,0,0,0,0,0,0,0,0,0,0,0,256.81,877.7,2,0,0.06,0.06,42,15.38,0.08,0.04,4.36,LANDED,X10-F,0:/Integrated Flight Computer/aircraft/x10_f_cfg.ks (inferred preloaded)
4.76,TAKEOFF,TO_PREFLIGHT,0.36,80,79.64,3.54,0.09,-0.62,-22.83,90.27,0.113,1,0,0,0,0,0,0,0,0,0,0,0,0,0,0,90.4,0,1,0,5.28,0,0,0,90,0,0,0,0,0,0,0,0,0,0,0,3,0,0,0,69,0,0,0,90.4,1,0,-0.027,0,0,1,0,0,0,0,0,0,0,2,2,0,0,VALID,0,0,0,0,0,1,0,0,0,0,0,0,0,0,0,0,0,0,0,0,288.33,877.7,2,0,0.06,0.06,46,15.38,0.08,0.04,4.62,LANDED,X10-F,0:/Integrated Flight Computer/aircraft/x10_f_cfg.ks (inferred preloaded)
5.02,TAKEOFF,TO_PREFLIGHT,0.19,80,79.81,3.64,-0.28,-0.14,86.66,90.27,0.119,1,0,0,0,0,0,0,0,0,0,0,0,0,0,0,90.4,0,1,0,-15.7,0,0,0,90,0,0,0,0,0,0,0,0,0,0,0,3,0,0,0,69,0,0,0,90.4,1,0,-0.027,0,0,1,0,0,0,0,0,0,0,2,2,0,0,VALID,0,0,0,0,0,1,0,0,0,0,0,0,0,0,0,0,0,0,0,0,318.26,877.7,2,0,0.06,0.06,50,15.38,0.08,0.04,4.88,LANDED,X10-F,0:/Integrated Flight Computer/aircraft/x10_f_cfg.ks (inferred preloaded)
5.28,TAKEOFF,TO_PREFLIGHT,0.08,80,79.92,3.66,0.11,0,-38.62,90.27,0.138,1,0,0,0,0,0,0,0,0,0,0,0,0,0,0,90.4,0,1,0,6.18,0,0,0,90,0,0,0,0,0,0,0,0,0,0,0,3,0,0,0,69,0,0,0,90.4,1,0,-0.027,0,0,1,0,0,0,0,0,0,0,2,2,0,0,VALID,0,0,0,0,0,1,0,0,0,0,0,0,0,0,0,0,0,0,0,0,346.66,877.71,2,0,0.06,0.06,54,15.38,0.08,0.04,5.14,LANDED,X10-F,0:/Integrated Flight Computer/aircraft/x10_f_cfg.ks (inferred preloaded)
5.54,TAKEOFF,TO_PREFLIGHT,0.23,80,79.77,3.61,0.05,-0.27,-12.9,90.27,0.131,1,0,0,0,0,0,0,0,0,0,0,0,0,0,0,90.4,0,1,0,3.09,0,0,0,90,0,0,0,0,0,0,0,0,0,0,0,3,0,0,0,69,0,0,0,90.4,1,0,-0.027,0,0,1,0,0,0,0,0,0,0,2,2,0,0,VALID,0,0,0,0,0,1,0,0,0,0,0,0,0,0,0,0,0,0,0,0,373.62,877.7,2,0,0.06,0.06,58,15.38,0.08,0.04,5.4,LANDED,X10-F,0:/Integrated Flight Computer/aircraft/x10_f_cfg.ks (inferred preloaded)
5.8,TAKEOFF,TO_PREFLIGHT,0.26,80,79.74,3.59,0.01,-0.39,-4.65,90.27,0.116,1,0,0,0,0,0,0,0,0,0,0,0,0,0,0,90.4,0,1,0,0.43,0,0,0,90,0,0,0,0,0,0,0,0,0,0,0,3,0,0,0,69,0,0,0,90.4,1,0,-0.027,0,0,1,0,0,0,0,0,0,0,2,2,0,0,VALID,0,0,0,0,0,1,0,0,0,0,0,0,0,0,0,0,0,0,0,0,399.21,877.7,2,0,0.06,0.06,62,15.38,0.08,0.04,5.66,LANDED,X10-F,0:/Integrated Flight Computer/aircraft/x10_f_cfg.ks (inferred preloaded)
6.06,TAKEOFF,TO_PREFLIGHT,0.2,80,79.8,3.61,-0.08,-0.25,23.28,90.28,0.12,1,0,0,0,0,0,0,0,0,0,0,0,0,0,0,90.4,0,1,0,-4.33,0,0,0,90,0,0,0,0,0,0,0,0,0,0,0,3,0,0,0,69,0,0,0,90.4,1,0,-0.027,0,0,1,0,0,0,0,0,0,0,2,2,0,0,VALID,0,0,0,0,0,1,0,0,0,0,0,0,0,0,0,0,0,0,0,0,423.5,877.7,2,0,0.06,0.06,66,15.38,0.08,0.04,5.92,LANDED,X10-F,0:/Integrated Flight Computer/aircraft/x10_f_cfg.ks (inferred preloaded)
6.32,TAKEOFF,TO_PREFLIGHT,0.17,80,79.83,3.62,0.03,-0.22,-9.09,90.28,0.132,1,0,0,0,0,0,0,0,0,0,0,0,0,0,0,90.4,0,1,0,1.87,0,0,0,90,0,0,0,0,0,0,0,0,0,0,0,3,0,0,0,69,0,0,0,90.4,1,0,-0.027,0,0,1,0,0,0,0,0,0,0,2,2,0,0,VALID,0,0,0,0,0,1,0,0,0,0,0,0,0,0,0,0,0,0,0,0,446.56,877.7,2,0,0.06,0.06,70,15.38,0.08,0.04,6.18,LANDED,X10-F,0:/Integrated Flight Computer/aircraft/x10_f_cfg.ks (inferred preloaded)
6.58,TAKEOFF,TO_PREFLIGHT,0.23,80,79.77,3.6,0.02,-0.31,-5.09,90.28,0.123,1,0,0,0,0,0,0,0,0,0,0,0,0,0,0,90.4,0,1,0,1.17,0,0,0,90,0,0,0,0,0,0,0,0,0,0,0,3,0,0,0,69,0,0,0,90.4,1,0,-0.027,0,0,1,0,0,0,0,0,0,0,2,2,0,0,VALID,0,0,0,0,0,1,0,0,0,0,0,0,0,0,0,0,0,0,0,0,468.45,877.7,2,0,0.06,0.06,74,15.38,0.08,0.04,6.44,LANDED,X10-F,0:/Integrated Flight Computer/aircraft/x10_f_cfg.ks (inferred preloaded)
6.84,TAKEOFF,TO_PREFLIGHT,0.32,80,79.68,3.6,-0.02,-0.31,1.56,90.29,0.121,1,0,0,0,0,0,0,0,0,0,0,0,0,0,0,90.4,0,1,0,-0.87,0,0,0,90,0,0,0,0,0,0,0,0,0,0,0,3,0,0,0,69,0,0,0,90.4,1,0,-0.027,0,0,1,0,0,0,0,0,0,0,2,2,0,0,VALID,0,0,0,0,0,1,0,0,0,0,0,0,0,0,0,0,0,0,0,0,489.23,877.7,2,0,0.06,0.06,78,15.38,0.08,0.04,6.7,LANDED,X10-F,0:/Integrated Flight Computer/aircraft/x10_f_cfg.ks (inferred preloaded)
7.1,TAKEOFF,TO_PREFLIGHT,0.46,80,79.54,3.61,-0.02,-0.26,1.99,90.3,0.124,1,0,0,0,0,0,0,0,0,0,0,0,0,0,0,90.4,0,1,0,-1.09,0,0,0,90,0,0,0,0,0,0,0,0,0,0,0,3,0,0,0,69,0,0,0,90.4,1,0,-0.027,0,0,1,0,0,0,0,0,0,0,2,2,0,0,VALID,0,0,0,0,0,1,0,0,0,0,0,0,0,0,0,0,0,0,0,0,508.95,877.69,2,0,0.06,0.06,82,15.38,0.08,0.04,6.96,LANDED,X10-F,0:/Integrated Flight Computer/aircraft/x10_f_cfg.ks (inferred preloaded)
7.36,TAKEOFF,TO_PREFLIGHT,0.65,80,79.35,3.6,0.01,-0.28,-1.02,90.31,0.125,1,0,0,0,0,0,0,0,0,0,0,0,0,0,0,90.4,0,1,0,0.67,0,0,0,90,0,0,0,0,0,0,0,0,0,0,0,3,0,0,0,69,0,0,0,90.4,1,0,-0.027,0,0,1,0,0,0,0,0,0,0,2,2,0,0,VALID,0,0,0,0,0,1,0,0,0,0,0,0,0,0,0,0,0,0,0,0,527.67,877.69,2,0,0.06,0.06,86,15.38,0.08,0.04,7.22,LANDED,X10-F,0:/Integrated Flight Computer/aircraft/x10_f_cfg.ks (inferred preloaded)
7.62,TAKEOFF,TO_PREFLIGHT,0.83,80,79.17,3.59,0.01,-0.33,-0.81,90.32,0.123,1,0,0,0,0,0,0,0,0,0,0,0,0,0,0,90.4,0,1,0,0.33,0,0,0,90,0,0,0,0,0,0,0,0,0,0,0,3,0,0,0,69,0,0,0,90.4,1,0,-0.027,0,0,1,0,0,0,0,0,0,0,2,2,0,0,VALID,0,0,0,0,0,1,0,0,0,0,0,0,0,0,0,0,0,0,0,0,545.44,877.69,2,0,0.06,0.06,90,15.38,0.08,0.04,7.48,LANDED,X10-F,0:/Integrated Flight Computer/aircraft/x10_f_cfg.ks (inferred preloaded)
7.88,TAKEOFF,TO_PREFLIGHT,0.96,80,79.04,3.59,-0.01,-0.33,0.28,90.34,0.122,1,0,0,0,0,0,0,0,0,0,0,0,0,0,0,90.4,0,1,0,-0.63,0,0,0,90,0,0,0,0,0,0,0,0,0,0,0,3,0,0,0,69,0,0,0,90.4,1,0,-0.027,0,0,1,0,0,0,0,0,0,0,2,2,0,0,VALID,0,0,0,0,0,1,0,0,0,0,0,0,0,0,0,0,0,0,0,0,562.31,877.69,2,0,0.06,0.06,94,15.38,0.08,0.04,7.74,LANDED,X10-F,0:/Integrated Flight Computer/aircraft/x10_f_cfg.ks (inferred preloaded)
8.14,TAKEOFF,TO_PREFLIGHT,1.02,80,78.98,3.59,-0.01,-0.33,0.04,90.35,0.123,1,0,0,0,0,0,0,0,0,0,0,0,0,0,0,90.4,0,1,0,-0.33,0,0,0,90,0,0,0,0,0,0,0,0,0,0,0,3,0,0,0,69,0,0,0,90.4,1,0,-0.027,0,0,1,0,0,0,0,0,0,0,2,2,0,0,VALID,0,0,0,0,0,1,0,0,0,0,0,0,0,0,0,0,0,0,0,0,578.32,877.69,2,0,0.06,0.06,98,15.38,0.08,0.04,8,LANDED,X10-F,0:/Integrated Flight Computer/aircraft/x10_f_cfg.ks (inferred preloaded)
8.4,TAKEOFF,TO_PREFLIGHT,1.06,80,78.94,3.59,0,-0.34,-0.28,90.37,0.122,1,0,0,0,0,0,0,0,0,0,0,0,0,0,0,90.4,0,1,0,-0.06,0,0,0,90,0,0,0,0,0,0,0,0,0,0,0,3,0,0,0,69,0,0,0,90.4,1,0,-0.027,0,0,1,0,0,0,0,0,0,0,2,2,0,0,VALID,0,0,0,0,0,1,0,0,0,0,0,0,0,0,0,0,0,0,0,0,593.52,877.69,2,0,0.06,0.06,102,15.38,0.08,0.04,8.26,LANDED,X10-F,0:/Integrated Flight Computer/aircraft/x10_f_cfg.ks (inferred preloaded)
8.66,TAKEOFF,TO_PREFLIGHT,1.09,80,78.91,3.59,0,-0.35,-0.16,90.38,0.121,1,0,0,0,0,0,0,0,0,0,0,0,0,0,0,90.4,0,1,0,-0.22,0,0,0,90,0,0,0,0,0,0,0,0,0,0,0,3,0,0,0,69,0,0,0,90.4,1,0,-0.027,0,0,1,0,0,0,0,0,0,0,2,2,0,0,VALID,0,0,0,0,0,1,0,0,0,0,0,0,0,0,0,0,0,0,0,0,607.94,877.68,2,0,0.06,0.06,106,15.38,0.08,0.04,8.52,LANDED,X10-F,0:/Integrated Flight Computer/aircraft/x10_f_cfg.ks (inferred preloaded)
8.92,TAKEOFF,TO_PREFLIGHT,1.12,80,78.88,3.59,-0.01,-0.35,0.02,90.4,0.122,1,0,0,0,0,0,0,0,0,0,0,0,0,0,0,90.4,0,1,0,-0.39,0,0,0,90,0,0,0,0,0,0,0,0,0,0,0,3,0,0,0,69,0,0,0,90.4,1,0,-0.027,0,0,1,0,0,0,0,0,0,0,2,2,0,0,VALID,0,0,0,0,0,1,0,0,0,0,0,0,0,0,0,0,0,0,0,0,621.64,877.68,2,0,0.06,0.06,110,15.38,0.08,0.04,8.78,LANDED,X10-F,0:/Integrated Flight Computer/aircraft/x10_f_cfg.ks (inferred preloaded)
9.18,TAKEOFF,TO_PREFLIGHT,1.15,80,78.85,3.59,-0.01,-0.35,-0.06,90.41,0.121,1,0,0,0,0,0,0,0,0,0,0,0,0,0,0,90.4,0,1,0,-0.28,0,0,0,90,0,0,0,0,0,0,0,0,0,0,0,3,0,0,0,69,0,0,0,90.4,1,0,-0.027,0,0,1,0,0,0,0,0,0,0,2,2,0,0,VALID,0,0,0,0,0,1,0,0,0,0,0,0,0,0,0,0,0,0,0,0,634.63,877.68,2,0,0.06,0.06,114,15.38,0.08,0.04,9.04,LANDED,X10-F,0:/Integrated Flight Computer/aircraft/x10_f_cfg.ks (inferred preloaded)
9.44,TAKEOFF,TO_PREFLIGHT,1.17,80,78.83,3.59,0,-0.36,-0.14,90.42,0.121,1,0,0,0,0,0,0,0,0,0,0,0,0,0,0,90.4,0,1,0,-0.21,0,0,0,90,0,0,0,0,0,0,0,0,0,0,0,3,0,0,0,69,0,0,0,90.4,1,0,-0.027,0,0,1,0,0,0,0,0,0,0,2,2,0,0,VALID,0,0,0,0,0,1,0,0,0,0,0,0,0,0,0,0,0,0,0,0,646.97,877.68,2,0,0.06,0.06,118,15.38,0.08,0.04,9.3,LANDED,X10-F,0:/Integrated Flight Computer/aircraft/x10_f_cfg.ks (inferred preloaded)
9.7,TAKEOFF,TO_PREFLIGHT,1.2,80,78.8,3.58,-0.01,-0.37,-0.13,90.44,0.121,1,0,0,0,0,0,0,0,0,0,0,0,0,0,0,90.4,0,1,0,-0.28,0,0,0,90,0,0,0,0,0,0,0,0,0,0,0,3,0,0,0,69,0,0,0,90.4,1,0,-0.027,0,0,1,0,0,0,0,0,0,0,2,2,0,0,VALID,0,0,0,0,0,1,0,0,0,0,0,0,0,0,0,0,0,0,0,0,658.69,877.68,2,0,0.06,0.06,122,15.38,0.08,0.04,9.56,LANDED,X10-F,0:/Integrated Flight Computer/aircraft/x10_f_cfg.ks (inferred preloaded)
9.96,TAKEOFF,TO_PREFLIGHT,1.22,80,78.78,3.58,-0.01,-0.37,-0.06,90.45,0.121,1,0,0,0,0,0,0,0,0,0,0,0,0,0,0,90.4,0,1,0,-0.33,0,0,0,90,0,0,0,0,0,0,0,0,0,0,0,3,0,0,0,69,0,0,0,90.4,1,0,-0.027,0,0,1,0,0,0,0,0,0,0,2,2,0,0,VALID,0,0,0,0,0,1,0,0,0,0,0,0,0,0,0,0,0,0,0,0,669.8,877.68,2,0,0.06,0.06,126,15.38,0.08,0.04,9.82,LANDED,X10-F,0:/Integrated Flight Computer/aircraft/x10_f_cfg.ks (inferred preloaded)
10.22,TAKEOFF,TO_PREFLIGHT,1.23,80,78.77,3.58,-0.01,-0.37,-0.11,90.47,0.121,1,0,0,0,0,0,0,0,0,0,0,0,0,0,0,90.4,0,1,0,-0.27,0,0,0,90,0,0,0,0,0,0,0,0,0,0,0,3,0,0,0,69,0,0,0,90.4,1,0,-0.027,0,0,1,0,0,0,0,0,0,0,2,2,0,0,VALID,0,0,0,0,0,1,0,0,0,0,0,0,0,0,0,0,0,0,0,0,680.36,877.68,2,0,0.06,0.06,130,15.38,0.08,0.04,10.08,LANDED,X10-F,0:/Integrated Flight Computer/aircraft/x10_f_cfg.ks (inferred preloaded)
10.48,TAKEOFF,TO_GROUND_ROLL,1.26,80,78.74,3.58,-0.01,-0.37,-0.11,90.48,0.121,1,0,0,0,0,0,0,0,0,0,0,0,0,0,0,90.07,0,1,0,-0.29,0,0,0,90,0,0,0,0,0,0,0,0,-0.001,0,0,3,0,0,0,69,0,0,0,90.07,1,-0.001,0.411,-0.0341,0.563,0,-0.0341,0,0,0,0,0,0,2,2,0,0,VALID,0,0,0,0,0,1,0,0,0,0,0,0,0,0,0,0,0,0,0,0,690.37,877.68,2,0,0.06,0.06,134,15.38,0.08,0.04,10.36,LANDED,X10-F,0:/Integrated Flight Computer/aircraft/x10_f_cfg.ks (inferred preloaded)
10.76,TAKEOFF,TO_GROUND_ROLL,2.2,80,77.8,3.67,-0.13,-0.03,2.4,90.48,0.127,1,0,0,0,0,0,0,0,0,0,0,0,0,0,0,90.4,0,1,0,-3.4,0,0,0,90,0,0,0,0,0,0,0,0,-0.002,0,0,3,0,0,0,69,0,0,0,90.4,1,-0.002,0.079,-0.0017,0.572,0,-0.0017,0,0,0,0,0,0,2,2,0,0,VALID,0,0,0,0,0,1,0,0,0,0,0,0,0,0,0,0,0,0,0,0,700.58,877.66,2,0,0.06,0.06,138,14.29,0.08,0.06,10.64,LANDED,X10-F,0:/Integrated Flight Computer/aircraft/x10_f_cfg.ks (inferred preloaded)
11.04,TAKEOFF,TO_GROUND_ROLL,4.05,80,75.95,3.81,0.16,0.49,-0.9,90.47,0.135,1,0,0,0,0,0,0,0,0,0,0,0,0,0,0,90.41,0,1,0,2.29,0,0,0,90,0,0,0,0,0,0,0,0,-0.002,0,0,3,0,0,0,69,0,0,0,90.41,1,-0.002,0.065,-0.0012,0.591,0,-0.0012,0,0,0,0,0,0,2,2,0,0,VALID,0,0,0,0,0,1,0,0,0,0,0,0,0,0,0,0,0,0,0,0,710.2,877.6,2,0,0.06,0.06,142,14.29,0.08,0.06,10.92,LANDED,X10-F,0:/Integrated Flight Computer/aircraft/x10_f_cfg.ks (inferred preloaded)
11.32,TAKEOFF,TO_GROUND_ROLL,5.98,80,74.02,4.08,-0.12,1.25,1.9,90.46,0.124,1,0,0,0,0,0,0,0,0,0,0,0,0,0,0,90.41,0,1,0,-1.19,0,0,0,90,0,0,0,0,0,0,0,0,-0.003,0,0,3,0,0,0,69,0,0,0,90.41,1,-0.003,0.049,-0.0006,0.61,0,-0.0006,0,0,0,0,0,0,2,2,0,0,VALID,0,0,0,0,0,1,0,0,0,0,0,0,0,0,0,0,0,0,0,0,719.24,877.49,2,0,0.06,0.06,146,14.29,0.08,0.06,11.2,LANDED,X10-F,0:/Integrated Flight Computer/aircraft/x10_f_cfg.ks (inferred preloaded)
11.6,TAKEOFF,TO_GROUND_ROLL,7.94,80,72.06,4.29,-0.06,2.12,2.61,90.44,0.136,1,0,0,0,0,0,0,0,0,0,0,0,0,0,0,90.41,0,1,0,-0.44,0,0,0,90,0,0,0,0,0,0,0,0,-0.004,0,0,3,0,0,0,69,0,0,0,90.41,1,-0.004,0.034,-0.0002,0.629,0,-0.0002,0,0,0,0,0,0,2,2,0,0,VALID,0,0,0,0,0,1,0,0,0,0,0,0,0,0,0,0,0,0,0,0,727.77,877.35,2,0,0.06,0.06,150,14.29,0.08,0.06,11.48,LANDED,X10-F,0:/Integrated Flight Computer/aircraft/x10_f_cfg.ks (inferred preloaded)
11.88,TAKEOFF,TO_GROUND_ROLL,9.92,80,70.08,4.57,-0.06,3.03,3.21,90.42,0.142,1,0,0,0,0,0,0,0,0,0,0,0,0,0,0,90.41,0,1,0,-0.37,0,0,0,90,0,0,0,0,0,0,0,0,-0.005,0,0,3,0,0,0,69,0,0,0,90.41,1,-0.005,0.016,0.0004,0.649,0,0.0004,0,0,0,0,0,0,2,2,0,0,VALID,0,0,0,0,0,1,0,0,0,0,0,0,0,0,0,0,0,0,0,0,735.79,877.18,2,0,0.06,0.06,154,14.29,0.08,0.06,11.76,LANDED,X10-F,0:/Integrated Flight Computer/aircraft/x10_f_cfg.ks (inferred preloaded)
12.16,TAKEOFF,TO_GROUND_ROLL,11.92,80,68.08,4.79,-0.12,3.83,4.34,90.4,0.148,1,0,0,0,0,0,0,0,0,0,0,0,0,0,0,90.41,0,1,0,-0.57,0,0,0,90,0,0,0,0,0,0,0,0,-0.006,0,0,3,0,0,0,69,0,0,0,90.41,1,-0.006,-0.004,0.001,0.669,0,0.001,0,0,0,0,0,0,2,2,0,0,VALID,0,0,0,0,0,1,0,0,0,0,0,0,0,0,0,0,0,0,0,0,743.33,876.97,2,0,0.06,0.06,158,14.29,0.08,0.06,12.04,LANDED,X10-F,0:/Integrated Flight Computer/aircraft/x10_f_cfg.ks (inferred preloaded)
12.44,TAKEOFF,TO_GROUND_ROLL,13.93,80,66.07,4.97,-0.07,4.44,4.67,90.38,0.152,1,0,0,0,0,0,0,0,0,0,0,0,0,0,0,90.41,0,1,0,-0.31,0,0,0,90,0,0,0,0,0,0,0,0,-0.008,0,0,3,0,0,0,69,0,0,0,90.41,1,-0.008,-0.025,0.0018,0.689,0,0.0018,0,0,0,0,0,0,2,2,0,0,VALID,0,0,0,0,0,1,0,0,0,0,0,0,0,0,0,0,0,0,0,0,750.42,876.73,2,0,0.06,0.06,162,14.29,0.08,0.06,12.32,LANDED,X10-F,0:/Integrated Flight Computer/aircraft/x10_f_cfg.ks (inferred preloaded)
12.72,TAKEOFF,TO_GROUND_ROLL,15.97,80,64.03,5.06,-0.12,4.76,5.14,90.36,0.153,1,0,0,0,0,0,0,0,0,0,0,0,0,0,0,90.41,0,1,0,-0.42,0,0,0,90,0,0,0,0,0,0,0,0,-0.009,0,0,3,0,0,0,69,0,0,0,90.41,1,-0.009,-0.049,0.0027,0.71,0,0.0027,0,0,0,0,0,0,2,2,0,0,VALID,0,0,0,0,0,1,0,0,0,0,0,0,0,0,0,0,0,0,0,0,757.08,876.46,2,0,0.06,0.06,166,14.29,0.08,0.06,12.6,LANDED,X10-F,0:/Integrated Flight Computer/aircraft/x10_f_cfg.ks (inferred preloaded)
13,TAKEOFF,TO_GROUND_ROLL,18.02,80,61.98,5.06,-0.09,4.77,5.04,90.33,0.156,1,0,0,0,0,0,0,0,0,0,0,0,0,0,0,90.41,0,1,0,-0.28,0,0,0,90,0,0,0,0,0,0,0,0,-0.011,0,0,3,0,0,0,69,0,0,0,90.41,1,-0.011,-0.073,0.0039,0.73,0,0.0039,0,0,0,0,0,0,2,2,0,0,VALID,0,0,0,0,0,1,0,0,0,0,0,0,0,0,0,0,0,0,0,0,763.34,876.16,2,0,0.06,0.06,170,14.29,0.08,0.06,12.88,LANDED,X10-F,0:/Integrated Flight Computer/aircraft/x10_f_cfg.ks (inferred preloaded)
13.28,TAKEOFF,TO_GROUND_ROLL,20.08,80,59.92,4.97,-0.11,4.47,4.79,90.31,0.154,1,0,0,0,0,0,0,0,0,0,0,0,0,0,0,90.41,0,1,0,-0.31,0,0,0,90,0,0,0,0,0,0,0,0,-0.012,0,0,3,0,0,0,69,0,0,0,90.41,1,-0.012,-0.1,0.0052,0.751,0,0.0052,0,0,0,0,0,0,2,2,0,0,VALID,0,0,0,0,0,1,0,0,0,0,0,0,0,0,0,0,0,0,0,0,769.21,875.84,2,0,0.06,0.06,174,14.29,0.08,0.06,13.16,LANDED,X10-F,0:/Integrated Flight Computer/aircraft/x10_f_cfg.ks (inferred preloaded)
13.56,TAKEOFF,TO_GROUND_ROLL,22.17,80,57.83,4.81,-0.1,3.9,4.2,90.28,0.153,1,0,0,0,0,0,0,0,0,0,0,0,0,0,0,90.4,0,1,0,-0.26,0,0,0,90,0,0,0,0,0,0,0,0,-0.014,0,0,3,0,0,0,69,0,0,0,90.4,1,-0.014,-0.126,0.0064,0.772,0,0.0064,0,0,0,0,0,0,2,2,0,0,VALID,0,0,0,0,0,1,0,0,0,0,0,0,0,0,0,0,0,0,0,0,774.73,875.49,2,0,0.06,0.06,178,14.29,0.08,0.06,13.44,LANDED,X10-F,0:/Integrated Flight Computer/aircraft/x10_f_cfg.ks (inferred preloaded)
13.84,TAKEOFF,TO_GROUND_ROLL,24.27,80,55.73,4.6,-0.12,3.16,3.47,90.25,0.148,1,0,0,0,0,0,0,0,0,0,0,0,0,0,0,90.4,0,1,0,-0.28,0,0,0,90,0,0,0,0,0,0,0,0,-0.016,0,0,3,0,0,0,69,0,0,0,90.4,1,-0.016,-0.153,0.0076,0.793,0,0.0076,0,0,0,0,0,0,2,2,0,0,VALID,0,0,0,0,0,1,0,0,0,0,0,0,0,0,0,0,0,0,0,0,779.9,875.12,2,0,0.06,0.06,182,14.29,0.08,0.06,13.72,LANDED,X10-F,0:/Integrated Flight Computer/aircraft/x10_f_cfg.ks (inferred preloaded)
14.12,TAKEOFF,TO_GROUND_ROLL,26.38,80,53.62,4.37,-0.13,2.33,2.65,90.22,0.142,1,0,0,0,0,0,0,0,0,0,0,0,0,0,0,90.4,0,1,0,-0.28,0,0,0.01,90,0,0,0,0,0,0,0,0,-0.017,0,0,3,0,0,0,69,0,0,0,90.4,1,-0.017,-0.179,0.0087,0.814,0,0.0087,0,0,0,0,0,0,2,2,0,0,VALID,0,0,0,0,0,1,0,0,0,0,0,0,0,0,0,0,0,0,0,0,784.76,874.74,2,0,0.06,0.06,186,14.29,0.08,0.06,14,LANDED,X10-F,0:/Integrated Flight Computer/aircraft/x10_f_cfg.ks (inferred preloaded)
14.4,TAKEOFF,TO_GROUND_ROLL,28.51,80,51.49,4.14,-0.15,1.55,1.87,90.2,0.137,1,0,0,0,0,0,0,0,0,0,0,0,0,0,0,90.4,0,1,0,-0.29,0,0,0.01,90,0,0,0,0,0,0,0,0,-0.019,0,0,3,0,0,0,69,0,0,0,90.4,1,-0.019,-0.202,0.0097,0.835,0,0.0097,0,0,0,0,0,0,2,2,0,0,VALID,0,0,0,0,0,1,0,0,0,0,0,0,0,0,0,0,0,0,0,0,789.31,874.35,2,0,0.06,0.06,190,14.29,0.08,0.06,14.28,LANDED,X10-F,0:/Integrated Flight Computer/aircraft/x10_f_cfg.ks (inferred preloaded)
14.68,TAKEOFF,TO_GROUND_ROLL,30.65,80,49.35,3.95,-0.16,0.89,1.21,90.17,0.133,1,0,0,0,0,0,0,0,0,0,0,0,0,0,0,90.39,0,1,0,-0.3,0,0,0.01,90,0,0,0,0,0,0,0,0,-0.02,0,0,3,0,0,0,69,0,0,0,90.39,1,-0.02,-0.221,0.0104,0.857,0,0.0104,0,0,0,0,0,0,2,2,0,0,VALID,0,0,0,0,0,1,0,0,0,0,0,0,0,0,0,0,0,0,0,0,793.59,873.94,2,0,0.06,0.06,194,14.29,0.08,0.06,14.56,LANDED,X10-F,0:/Integrated Flight Computer/aircraft/x10_f_cfg.ks (inferred preloaded)
14.96,TAKEOFF,TO_GROUND_ROLL,32.81,80,47.19,3.83,-0.18,0.45,0.76,90.15,0.128,1,0,0,0,0,0,0,0,0,0,0,0,0,0,0,90.39,0,1,0,-0.31,0,0,0.01,90,0,0,0,0,0,0,0,0,-0.022,0,0,3,0,0,0,69,0,0,0,90.39,1,-0.022,-0.234,0.0109,0.878,0,0.0109,0,0,0,0,0,0,2,2,0,0,VALID,0,0,0,0,0,1,0,0,0,0,0,0,0,0,0,0,0,0,0,0,797.6,873.53,2,0,0.06,0.06,198,14.29,0.08,0.06,14.84,LANDED,X10-F,0:/Integrated Flight Computer/aircraft/x10_f_cfg.ks (inferred preloaded)
15.24,TAKEOFF,TO_GROUND_ROLL,34.98,80,45.02,3.78,-0.19,0.27,0.57,90.14,0.126,1,0,0,0,0,0,0,0,0,0,0,0,0,0,0,90.38,0,1,0,-0.32,0,0,0.01,90,0,0,0,0,0,0,0,0,-0.023,0,0,3,0,0,0,69,0,0,0,90.38,1,-0.023,-0.24,0.0109,0.9,0,0.0109,0,0,0,0,0,0,2,2,0,0,VALID,0,0,0,0,0,1,0,0,0,0,0,0,0,0,0,0,0,0,0,0,801.36,873.11,2,0,0.06,0.06,202,14.29,0.08,0.06,15.12,LANDED,X10-F,0:/Integrated Flight Computer/aircraft/x10_f_cfg.ks (inferred preloaded)
15.52,TAKEOFF,TO_GROUND_ROLL,37.15,80,42.85,3.8,-0.21,0.37,0.65,90.14,0.125,1,0,0,0,0,0,0,0,0,0,0,0,0,0,0,90.38,0,1,0,-0.32,0,0,0.01,90,0,0,0,0,0,0,0,0,-0.024,0,0,3,0,0,0,69,0,0,0,90.38,1,-0.024,-0.239,0.0106,0.922,0,0.0106,0,0,0,0,0,0,2,2,0,0,VALID,0,0,0,0,0,1,0,0,0,0,0,0,0,0,0,0,0,0,0,0,804.9,872.7,2,0,0.06,0.06,206,14.29,0.08,0.06,15.4,LANDED,X10-F,0:/Integrated Flight Computer/aircraft/x10_f_cfg.ks (inferred preloaded)
15.8,TAKEOFF,TO_GROUND_ROLL,39.34,80,40.66,3.9,-0.22,0.71,0.98,90.14,0.125,1,0,0,0,0,0,0,0,0,0,0,0,0,0,0,90.37,0,1,0,-0.32,0,0,0.01,90,0,0,0,0,0,0,0,0,-0.026,0,0,3,0,0,0,69,0,0,0,90.37,1,-0.026,-0.231,0.01,0.943,0,0.01,0,0,0,0,0,0,2,2,0,0,VALID,0,0,0,0,0,1,0,0,0,0,0,0,0,0,0,0,0,0,0,0,808.22,872.29,2,0,0.06,0.06,210,14.29,0.08,0.06,15.68,LANDED,X10-F,0:/Integrated Flight Computer/aircraft/x10_f_cfg.ks (inferred preloaded)
16.08,TAKEOFF,TO_GROUND_ROLL,41.53,80,38.47,4.06,-0.24,1.25,1.51,90.15,0.126,1,0,0,0,0,0,0,0,0,0,0,0,0,0,0,90.37,0,1,0,-0.33,0,0,0.01,90,0,0,0,0,0,0,0,0,-0.027,0,0,3,0,0,0,69,0,0,0,90.37,1,-0.027,-0.219,0.0093,0.965,0,0.0093,0,0,0,0,0,0,2,2,0,0,VALID,0,0,0,0,0,1,0,0,0,0,0,0,0,0,0,0,0,0,0,0,811.34,871.88,2,0,0.06,0.06,214,14.29,0.08,0.06,15.96,LANDED,X10-F,0:/Integrated Flight Computer/aircraft/x10_f_cfg.ks (inferred preloaded)
16.36,TAKEOFF,TO_GROUND_ROLL,43.73,80,36.27,4.24,-0.25,1.9,2.16,90.16,0.131,1,0,0,0,0,0,0,0,0,0,0,0,0,0,0,90.36,0,1,0,-0.33,0,0,0.01,90,0,0,0,0,0,0,0,0,-0.029,0,0,3,0,0,0,69,0,0,0,90.36,1,-0.029,-0.2,0.0081,0.987,0,0.0081,0,0,0,0,0,0,2,2,0,0,VALID,0,0,0,0,0,1,0,0,0,0,0,0,0,0,0,0,0,0,0,0,814.28,871.49,2,0,0.06,0.06,218,14.29,0.08,0.06,16.24,LANDED,X10-F,0:/Integrated Flight Computer/aircraft/x10_f_cfg.ks (inferred preloaded)
16.64,TAKEOFF,TO_GROUND_ROLL,45.94,80,34.06,4.43,-0.26,2.56,2.83,90.18,0.131,1,0,0,0,0,0,0,0,0,0,0,0,0,0,0,90.35,0,1,0,-0.33,0,0,0.01,90,0,0,0,0,0,0,0,0,-0.03,0,0,3,0,0,0,69,0,0,0,90.35,1,-0.03,-0.171,0.0061,1,0,0.0061,0,0,0,0,0,0,2,2,0,0,VALID,0,0,0,0,0,1,0,0,0,0,0,0,0,0,0,0,0,0,0,0,817.05,871.12,2,0,0.06,0.06,222,14.29,0.08,0.06,16.52,LANDED,X10-F,0:/Integrated Flight Computer/aircraft/x10_f_cfg.ks (inferred preloaded)
16.92,TAKEOFF,TO_GROUND_ROLL,48.15,80,31.85,4.6,-0.27,3.15,3.42,90.21,0.132,1,0,0,0,0,0,0,0,0,0,0,0,0,0,0,90.35,0,1,0,-0.32,0,0,0.02,90,0,0,0,0,0,0,0,0,-0.033,0,0,3,0,0,0,69,0,0,0,90.35,1,-0.033,-0.131,0.0035,1,0,0.0035,0,0,0,0,0,0,2,2,0,0,VALID,0,0,0,0,0,1,0,0,0,0,0,0,0,0,0,0,0,0,0,0,819.66,870.76,2,0,0.06,0.06,226,14.29,0.08,0.06,16.8,LANDED,X10-F,0:/Integrated Flight Computer/aircraft/x10_f_cfg.ks (inferred preloaded)
17.2,TAKEOFF,TO_GROUND_ROLL,50.36,80,29.64,4.72,-0.28,3.57,3.85,90.25,0.131,1,0,0,0,0,0,0,0,0,0,0,0,0,0,0,90.34,0,1,0,-0.32,0,0,0.02,90,0,0,0,0,0,0,0,0,-0.035,0,0,3,0,0,0,69,0,0,0,90.34,1,-0.035,-0.082,0.0003,1,0,0.0003,0,0,0,0,0,0,2,2,0,0,VALID,0,0,0,0,0,1,0,0,0,0,0,0,0,0,0,0,0,0,0,0,822.14,870.43,2,0,0.06,0.06,230,14.29,0.08,0.06,17.08,LANDED,X10-F,0:/Integrated Flight Computer/aircraft/x10_f_cfg.ks (inferred preloaded)
17.48,TAKEOFF,TO_GROUND_ROLL,52.58,80,27.42,4.78,-0.28,3.77,4.06,90.31,0.128,1,0,0,0,0,0,0,0,0,0,0,0,0,0,0,90.33,0,1,0,-0.31,0,0,0.02,90,0,0,0,0,0,0,0,0,-0.038,0,0,3,0,0,0,69,0,0,0,90.33,1,-0.038,-0.021,-0.0028,1,0,-0.0028,0,0,0,0,0,0,2,2,0,0,VALID,0,0,0,0,0,1,0,0,0,0,0,0,0,0,0,0,0,0,0,0,824.48,870.12,2,0,0.06,0.06,234,14.29,0.08,0.06,17.36,LANDED,X10-F,0:/Integrated Flight Computer/aircraft/x10_f_cfg.ks (inferred preloaded)
17.76,TAKEOFF,TO_GROUND_ROLL,54.8,80,25.2,4.77,-0.28,3.73,4.02,90.37,0.123,1,0,0,0,0,0,0,0,0,0,0,0,0,0,0,90.32,0,1,0,-0.3,0,0,0.02,90,0,0,0,0,0,0,0,0,-0.042,0,0,3,0,0,0,69,0,0,0,90.32,1,-0.042,0.051,-0.0069,1,0,-0.0069,0,0,0,0,0,0,2,2,0,0,VALID,0,0,0,0,0,1,0,0,0,0,0,0,0,0,0,0,0,0,0,0,826.71,869.85,2,0,0.06,0.06,238,14.29,0.08,0.06,17.64,LANDED,X10-F,0:/Integrated Flight Computer/aircraft/x10_f_cfg.ks (inferred preloaded)
18.04,TAKEOFF,TO_GROUND_ROLL,57.02,80,22.98,4.69,-0.29,3.46,3.76,90.44,0.113,1,0,0,0,0,0,0,0,0,0,0,0,0,0,0,90.3,0,1,0,-0.29,0,0,0.02,90,0,0,0,0,0,0,0,0,-0.047,0,0,3,0,0,0,69,0,0,0,90.3,1,-0.047,0.137,-0.0128,1,0,-0.0128,0,0,0,0,0,0,2,2,0,0,VALID,0,0,0,0,0,1,0,0,0,0,0,0,0,0,0,0,0,0,0,0,828.83,869.61,2,0,0.06,0.06,242,14.29,0.08,0.06,17.92,LANDED,X10-F,0:/Integrated Flight Computer/aircraft/x10_f_cfg.ks (inferred preloaded)
18.32,TAKEOFF,TO_GROUND_ROLL,59.26,80,20.74,4.56,-0.3,2.99,3.3,90.53,0.101,1,0,0,0,0,0,0,0,0,0,0,0,0,0,0,90.29,0,1,0,-0.29,0,0,0.02,90,0,0,0,0,0,0,0,0,-0.054,0,0,3,0,0,0,69,0,0,0,90.29,1,-0.054,0.237,-0.0185,1,0,-0.0185,0,0,0,0,0,0,2,2,0,0,VALID,0,0,0,0,0,1,0,0,0,0,0,0,0,0,0,0,0,0,0,0,830.86,869.4,2,0,0.06,0.06,246,14.29,0.08,0.06,18.2,LANDED,X10-F,0:/Integrated Flight Computer/aircraft/x10_f_cfg.ks (inferred preloaded)
18.6,TAKEOFF,TO_GROUND_ROLL,61.5,80,18.5,4.39,-0.31,2.41,2.72,90.62,0.085,1,0,0,0,0,0,0,0,0,0,0,0,0,0,0,90.28,0,1,0,-0.28,0,0,0.03,90,0,0,0,0,0,0,0,0,-0.062,0,0,3,0,0,0,69,0,0,0,90.28,1,-0.062,0.346,-0.0243,1,0,-0.0243,0,0,0,0,0,0,2,2,0,0,VALID,0,0,0,0,0,1,0,0,0,0,0,0,0,0,0,0,0,0,0,0,832.8,869.24,2,0,0.06,0.06,250,14.29,0.08,0.06,18.48,LANDED,X10-F,0:/Integrated Flight Computer/aircraft/x10_f_cfg.ks (inferred preloaded)
18.88,TAKEOFF,TO_GROUND_ROLL,63.75,80,16.25,4.21,-0.32,1.79,2.1,90.72,0.084,1,0,0,0,0,0,0,0,0,0,0,0,0,0,0,90.27,0,1,0,-0.29,0,0,0.03,90,0,0,0,0,0,0,0,0,-0.072,0,0,3,0,0,0,69,0,0,0,90.27,1,-0.072,0.446,-0.0285,1,0,-0.0285,0,0,0,0,0,0,2,2,0,0,VALID,0,0,0,0,0,1,0,0,0,0,0,0,0,0,0,0,0,0,0,0,834.68,869.12,2,0,0.06,0.06,254,14.29,0.08,0.06,18.76,LANDED,X10-F,0:/Integrated Flight Computer/aircraft/x10_f_cfg.ks (inferred preloaded)
19.16,TAKEOFF,TO_GROUND_ROLL,66,80,14,4.05,-0.33,1.22,1.53,90.79,0.093,1,0,0,0,0,0,0,0,0,0,0,0,0,0,0,90.27,0,1,0,-0.29,0,0,0.03,90,0,0,0,0,0,0,0,0,-0.085,0,0,3,0,0,0,69,0,0,0,90.27,1,-0.085,0.524,-0.0305,1,0,-0.0305,0,0,0,0,0,0,2,2,0,0,VALID,0,0,0,0,0,1,0,0,0,0,0,0,0,0,0,0,0,0,0,0,836.49,869.06,2,0,0.06,0.06,258,14.29,0.08,0.06,19.04,LANDED,X10-F,0:/Integrated Flight Computer/aircraft/x10_f_cfg.ks (inferred preloaded)
19.44,TAKEOFF,TO_GROUND_ROLL,68.27,80,11.73,3.92,-0.34,0.77,1.07,90.85,0.103,1,0,0,0,0,0,0,0,0,0,0,0,0,0,0,90.27,0,1,0,-0.29,0,0,0.03,90,0,0,0,0,0,0,0,0,-0.099,0,0,3,0,0,0,69,0,0,0,90.27,1,-0.099,0.572,-0.0305,1,0,-0.0305,0,0,0,0,0,0,2,2,0,0,VALID,0,0,0,0,0,1,0,0,0,0,0,0,0,0,0,0,0,0,0,0,838.25,869.05,2,0,0.06,0.06,262,14.29,0.08,0.06,19.32,LANDED,X10-F,0:/Integrated Flight Computer/aircraft/x10_f_cfg.ks (inferred preloaded)
19.72,TAKEOFF,TO_GROUND_ROLL,70.54,80,9.46,3.84,-0.35,0.5,0.78,90.87,0.119,1,0,0,0,0,0,0,0,0,0,0,0,0,0,0,90.28,0,1,0,-0.29,0,0,0.03,90,0,0,0,0,0,0,0,0,-0.114,0,0,3,0,0,0,69,0,0,0,90.28,1,-0.114,0.588,-0.0285,1,0,-0.0285,0,0,0,0,0,0,2,2,0,0,VALID,0,0,0,0,0,1,0,0,0,0,0,0,0,0,0,0,0,0,0,0,840.37,869.56,2,0,0.06,0.06,266,14.29,0.08,0.06,19.6,LANDED,X10-F,0:/Integrated Flight Computer/aircraft/x10_f_cfg.ks (inferred preloaded)
20,TAKEOFF,TO_GROUND_ROLL,72.81,80,7.19,3.82,-0.36,0.43,0.7,90.86,0.137,1,0,0,0,0,0,0,0,0,0,0,0,0,0,0,90.29,0,1,0,-0.29,0,0,0.03,90,0,0,0,0,0,0,0,0,-0.13,0,0,3,0,0,0,69,0,0,0,90.29,1,-0.13,0.571,-0.0251,1,0,-0.0251,0,0,0,0,0,0,2,2,0,0,VALID,0,0,0,0,0,1,0,0,0,0,0,0,0,0,0,0,0,0,0,0,843.16,870.86,2,0,0.06,0.06,270,14.29,0.08,0.06,19.88,LANDED,X10-F,0:/Integrated Flight Computer/aircraft/x10_f_cfg.ks (inferred preloaded)
20.28,TAKEOFF,TO_GROUND_ROLL,75.1,80,4.9,3.86,-0.37,0.56,0.82,90.81,0.156,1,0,0,0,0,0,0,0,0,0,0,0,0,0,0,90.29,0,1,0,-0.29,0,0,0.04,90,0,0,0,0,0,0,0,0,-0.147,0,0,3,0,0,0,69,0,0,0,90.29,1,-0.147,0.524,-0.0204,1,0,-0.0204,0,0,0,0,0,0,2,2,0,0,VALID,0,0,0,0,0,1,0,0,0,0,0,0,0,0,0,0,0,0,0,0,846.61,872.91,2,0,0.06,0.06,274,14.29,0.08,0.06,20.16,LANDED,X10-F,0:/Integrated Flight Computer/aircraft/x10_f_cfg.ks (inferred preloaded)
20.56,TAKEOFF,TO_GROUND_ROLL,77.39,80,2.61,3.94,-0.38,0.85,1.1,90.74,0.172,1,0,0,0,0,0,0,0,0,0,0,0,0,0,0,90.29,0,1,0,-0.28,0,0,0.04,90,0,0,0,0,0,0,0,0,-0.162,0,0,3,0,0,0,69,0,0,0,90.29,1,-0.162,0.453,-0.015,1,0,-0.015,0,0,0,0,0,0,2,2,0,0,VALID,0,0,0,0,0,1,0,0,0,0,0,0,0,0,0,0,0,0,0,0,850.68,875.69,2,0,0.06,0.06,278,14.29,0.08,0.06,20.44,LANDED,X10-F,0:/Integrated Flight Computer/aircraft/x10_f_cfg.ks (inferred preloaded)
20.84,TAKEOFF,TO_GROUND_ROLL,79.69,80,0.31,4.06,-0.39,1.26,1.5,90.65,0.188,1,0,0,0,0,0,0,0,0,0,0,0,0,0,0,90.29,0,1,0,-0.28,0,0,0.04,90,0,0,0,0,0,0,0,0,-0.177,0,0,3,0,0,0,69,0,0,0,90.29,1,-0.177,0.358,-0.0087,1,0,-0.0087,0,0,0,0,0,0,2,2,0,0,VALID,0,0,0,0,0,1,0,0,0,0,0,0,0,0,0,0,0,0,0,0,855.36,879.15,2,0,0.06,0.06,282,14.29,0.08,0.06,20.72,LANDED,X10-F,0:/Integrated Flight Computer/aircraft/x10_f_cfg.ks (inferred preloaded)
21.12,TAKEOFF,TO_GROUND_ROLL,82,80,-2,4.19,-0.4,1.7,1.94,90.53,0.198,1,0,0,0,0,0,0,0,0,0,0,0,0,0,0,90.29,0,1,0,-0.28,0,0,0.04,90,0,0,0,0,0,0,0,0,-0.19,0,0,3,0,0,0,69,0,0,0,90.29,1,-0.19,0.242,-0.0014,1,0,-0.0014,0,0,0,0,0,0,2,2,0,0,VALID,0,0,0,0,0,1,0,0,0,0,0,0,0,0,0,0,0,0,0,0,860.62,883.28,2,0,0.06,0.06,286,14.29,0.08,0.06,21,LANDED,X10-F,0:/Integrated Flight Computer/aircraft/x10_f_cfg.ks (inferred preloaded)
21.4,TAKEOFF,TO_GROUND_ROLL,84.32,80,-4.32,4.31,-0.41,2.11,2.35,90.39,0.222,1,0,0,0,0,0,0,0,0,0,0,0,0,0,0,90.3,0,1,0,-0.28,0,0,0.05,90,0,0,0,0,0,0,0,0,-0.201,0,0,3,0,0,0,69,0,0,0,90.3,1,-0.201,0.096,0.0074,1,0,0.0074,0,0,0,0,0,0,2,2,0,0,VALID,0,0,0,0,0,1,0,0,0,0,0,0,0,0,0,0,0,0,0,0,866.43,888.03,2,0,0.06,0.06,290,14.29,0.08,0.06,21.28,LANDED,X10-F,0:/Integrated Flight Computer/aircraft/x10_f_cfg.ks (inferred preloaded)
21.68,TAKEOFF,TO_GROUND_ROLL,86.66,80,-6.66,4.4,-0.37,2.43,2.64,90.23,0.248,1,0,0,0,0,0,0,0,0,0,0,0,0,0,0,90.3,0,1,0,-0.25,0,0,0.05,90,0,0,0,0,0,0,0,0,-0.208,0,0,3,0,0,0,69,0,0,0,90.3,1,-0.208,-0.065,0.0152,1,0,0.0152,0,0,0,0,0,0,2,2,0,0,VALID,0,0,0,0,0,1,0,0,0,0,0,0,0,0,0,0,0,0,0,0,872.78,893.37,2,0,0.06,0.06,294,14.29,0.08,0.06,21.56,LANDED,X10-F,0:/Integrated Flight Computer/aircraft/x10_f_cfg.ks (inferred preloaded)
21.96,TAKEOFF,TO_GROUND_ROLL,89,80,-9,4.44,-0.45,2.59,2.86,90.08,0.214,1,0,0,0,0,0,0,0,0,0,0,0,0,0,0,90.28,0,1,0,-0.29,0,0,0.05,90,0,0,0,0,0,0,0,0,-0.212,0,0,3,0,0,0,69,0,0,0,90.28,1,-0.212,-0.199,0.0207,1,0,0.0207,0,0,0,0,0,0,2,2,0,0,VALID,0,0,0,0,0,1,0,0,0,0,0,0,0,0,0,0,0,0,0,0,879.63,899.29,2,0,0.06,0.06,298,14.29,0.08,0.06,21.84,LANDED,X10-F,0:/Integrated Flight Computer/aircraft/x10_f_cfg.ks (inferred preloaded)
22.24,TAKEOFF,TO_GROUND_ROLL,91.37,80,-11.37,4.44,-0.4,2.59,2.83,89.96,0.191,1,0,0,0,0,0,0,0,0,0,0,0,0,0,0,90.25,0,1,0,-0.25,0,0,0.05,90,0,0,0,0,0,0,0,0,-0.213,0,0,3,0,0,0,69,0,0,0,90.25,1,-0.213,-0.286,0.0214,1,0,0.0214,0,0,0,0,0,0,2,2,0,0,VALID,0,0,0,0,0,1,0,0,0,0,0,0,0,0,0,0,0,0,0,0,886.96,905.74,2,0,0.06,0.06,302,14.29,0.08,0.06,22.12,LANDED,X10-F,0:/Integrated Flight Computer/aircraft/x10_f_cfg.ks (inferred preloaded)
22.52,TAKEOFF,TO_GROUND_ROLL,93.75,80,-13.75,4.39,-0.44,2.42,2.69,89.89,0.18,1,0,0,0,0,0,0,0,0,0,0,0,0,0,0,90.22,0,1,0,-0.27,0,0,0.06,90,0,0,0,0,0,0,0,0,-0.211,0,0,3,0,0,0,69,0,0,0,90.22,1,-0.211,-0.331,0.0201,1,0,0.0201,0,0,0,0,0,0,2,2,0,0,VALID,0,0,0,0,0,1,0,0,0,0,0,0,0,0,0,0,0,0,0,0,894.76,912.71,2,0,0.06,0.06,306,14.29,0.08,0.06,22.4,LANDED,X10-F,0:/Integrated Flight Computer/aircraft/x10_f_cfg.ks (inferred preloaded)
22.8,TAKEOFF,TO_GROUND_ROLL,96.16,80,-16.16,4.3,-0.42,2.1,2.37,89.86,0.131,1,0,0,0,0,0,0,0,0,0,0,0,0,0,0,90.21,0,1,0,-0.25,0,0,0.06,90,0,0,0,0,0,0,0,0,-0.207,0,0,3,0,0,0,69,0,0,0,90.21,1,-0.207,-0.347,0.0184,1,0,0.0184,0,0,0,0,0,0,2,2,0,0,VALID,0,0,0,0,0,1,0,0,0,0,0,0,0,0,0,0,0,0,0,0,903.01,920.18,2,0,0.06,0.06,310,14.29,0.08,0.06,22.68,LANDED,X10-F,0:/Integrated Flight Computer/aircraft/x10_f_cfg.ks (inferred preloaded)
23.08,TAKEOFF,TO_GROUND_ROLL,98.59,80,-18.59,4.19,-0.44,1.7,1.97,89.84,0.128,1,0,0,0,0,0,0,0,0,0,0,0,0,0,0,90.2,0,1,0,-0.26,0,0,0.06,90,0,0,0,0,0,0,0,0,-0.204,0,0,3,0,0,0,69,0,0,0,90.2,1,-0.204,-0.359,0.0181,1,0,0.0181,0,0,0,0,0,0,2,2,0,0,VALID,0,0,0,0,0,1,0,0,0,0,0,0,0,0,0,0,0,0,0,0,911.69,928.11,2,0,0.06,0.06,314,14.29,0.08,0.06,22.96,LANDED,X10-F,0:/Integrated Flight Computer/aircraft/x10_f_cfg.ks (inferred preloaded)
23.36,TAKEOFF,TO_GROUND_ROLL,101.05,80,-21.05,4.06,-0.44,1.26,1.53,89.83,0.137,1,0,0,0,0,0,0,0,0,0,0,0,0,0,0,90.21,0,1,0,-0.25,0,0,0.06,90,0,0,0,0,0,0,0,0,-0.2,0,0,3,0,0,0,69,0,0,0,90.21,1,-0.2,-0.376,0.0189,1,0,0.0189,0,0,0,0,0,0,2,2,0,0,VALID,0,0,0,0,0,1,0,0,0,0,0,0,0,0,0,0,0,0,0,0,920.77,936.49,2,0,0.06,0.06,318,14.29,0.08,0.06,23.24,LANDED,X10-F,0:/Integrated Flight Computer/aircraft/x10_f_cfg.ks (inferred preloaded)
23.64,TAKEOFF,TO_GROUND_ROLL,103.54,80,-23.54,3.94,-0.45,0.86,1.12,89.82,0.135,1,0,0,0,0,0,0,0,0,0,0,0,0,0,0,90.21,0,1,0,-0.25,0,0,0.07,90,0,0,0,0,0,0,0,0,-0.195,0,0,3,0,0,0,69,0,0,0,90.21,1,-0.195,-0.396,0.02,1,0,0.02,0,0,0,0,0,0,2,2,0,0,VALID,0,0,0,0,0,1,0,0,0,0,0,0,0,0,0,0,0,0,0,0,930.22,945.29,2,0,0.06,0.06,322,14.29,0.08,0.06,23.52,LANDED,X10-F,0:/Integrated Flight Computer/aircraft/x10_f_cfg.ks (inferred preloaded)
23.92,TAKEOFF,TO_GROUND_ROLL,106.06,80,-26.06,3.85,-0.45,0.54,0.8,89.81,0.132,1,0,0,0,0,0,0,0,0,0,0,0,0,0,0,90.22,0,1,0,-0.24,0,0,0.07,90,0,0,0,0,0,0,0,0,-0.191,0,0,3,0,0,0,69,0,0,0,90.22,1,-0.191,-0.41,0.0203,1,0,0.0203,0,0,0,0,0,0,2,2,0,0,VALID,0,0,0,0,0,1,0,0,0,0,0,0,0,0,0,0,0,0,0,0,940.02,954.46,2,0,0.06,0.06,326,14.29,0.08,0.06,23.8,LANDED,X10-F,0:/Integrated Flight Computer/aircraft/x10_f_cfg.ks (inferred preloaded)
24.2,TAKEOFF,TO_GROUND_ROLL,108.6,80,-28.6,3.8,-0.46,0.36,0.6,89.8,0.121,1,0,0,0,0,0,0,0,0,0,0,0,0,0,0,90.22,0,1,0,-0.24,0,0,0.07,90,0,0,0,0,0,0,0,0,-0.185,0,0,3,0,0,0,69,0,0,0,90.22,1,-0.185,-0.413,0.0197,1,0,0.0197,0,0,0,0,0,0,2,2,0,0,VALID,0,0,0,0,0,1,0,0,0,0,0,0,0,0,0,0,0,0,0,0,950.13,963.97,2,0,0.06,0.06,330,14.29,0.08,0.06,24.08,LANDED,X10-F,0:/Integrated Flight Computer/aircraft/x10_f_cfg.ks (inferred preloaded)
24.48,TAKEOFF,TO_GROUND_ROLL,111.18,80,-31.18,3.78,-0.46,0.31,0.54,89.81,0.112,1,0,0,0,0,0,0,0,0,0,0,0,0,0,0,90.21,0,1,0,-0.24,0,0,0.08,90,0,0,0,0,0,0,0,0,-0.18,0,0,3,0,0,0,69,0,0,0,90.21,1,-0.18,-0.406,0.0185,1,0,0.0185,0,0,0,0,0,0,2,2,0,0,VALID,0,0,0,0,0,1,0,0,0,0,0,0,0,0,0,0,0,0,0,0,960.51,973.77,2,0,0.06,0.06,334,14.29,0.08,0.06,24.36,LANDED,X10-F,0:/Integrated Flight Computer/aircraft/x10_f_cfg.ks (inferred preloaded)
24.76,TAKEOFF,TO_GROUND_ROLL,113.79,80,-33.79,3.81,-0.47,0.4,0.62,89.82,0.104,1,0,0,0,0,0,0,0,0,0,0,0,0,0,0,90.21,0,1,0,-0.24,0,0,0.08,90,0,0,0,0,0,0,0,0,-0.175,0,0,3,0,0,0,69,0,0,0,90.21,1,-0.175,-0.39,0.017,1,0,0.017,0,0,0,0,0,0,2,2,0,0,VALID,0,0,0,0,0,1,0,0,0,0,0,0,0,0,0,0,0,0,0,0,971.1,983.82,2,0,0.06,0.06,338,14.29,0.08,0.06,24.64,LANDED,X10-F,0:/Integrated Flight Computer/aircraft/x10_f_cfg.ks (inferred preloaded)
25.04,TAKEOFF,TO_GROUND_ROLL,116.43,80,-36.43,3.86,-0.47,0.59,0.8,89.85,0.098,1,0,0,0,0,0,0,0,0,0,0,0,0,0,0,90.21,0,1,0,-0.23,0,0,0.08,90,0,0,0,0,0,0,0,0,-0.17,0,0,3,0,0,0,69,0,0,0,90.21,1,-0.17,-0.366,0.0153,1,0,0.0153,0,0,0,0,0,0,2,2,0,0,VALID,0,0,0,0,0,1,0,0,0,0,0,0,0,0,0,0,0,0,0,0,981.86,994.05,2,0,0.06,0.06,342,14.29,0.08,0.06,24.92,LANDED,X10-F,0:/Integrated Flight Computer/aircraft/x10_f_cfg.ks (inferred preloaded)
25.32,TAKEOFF,TO_GROUND_ROLL,119.09,80,-39.09,3.94,-0.47,0.84,1.04,89.88,0.095,1,0,0,0,0,0,0,0,0,0,0,0,0,0,0,90.22,0,1,0,-0.23,0,0,0.09,90,0,0,0,0,0,0,0,0,-0.165,0,0,3,0,0,0,69,0,0,0,90.22,1,-0.165,-0.34,0.0138,1,0,0.0138,0,0,0,0,0,0,2,2,0,0,VALID,0,0,0,0,0,1,0,0,0,0,0,0,0,0,0,0,0,0,0,0,992.73,1004.42,2,0,0.06,0.06,346,14.29,0.08,0.06,25.2,LANDED,X10-F,0:/Integrated Flight Computer/aircraft/x10_f_cfg.ks (inferred preloaded)
25.6,TAKEOFF,TO_GROUND_ROLL,121.78,80,-41.78,4.01,-0.48,1.09,1.29,89.91,0.095,1,0,0,0,0,0,0,0,0,0,0,0,0,0,0,90.22,0,1,0,-0.22,0,0,0.09,90,0,0,0,0,0,0,0,0,-0.162,0,0,3,0,0,0,69,0,0,0,90.22,1,-0.162,-0.313,0.0125,1,0,0.0125,0,0,0,0,0,0,2,2,0,0,VALID,0,0,0,0,0,1,0,0,0,0,0,0,0,0,0,0,0,0,0,0,1003.65,1014.86,2,0,0.06,0.06,350,14.29,0.08,0.06,25.48,LANDED,X10-F,0:/Integrated Flight Computer/aircraft/x10_f_cfg.ks (inferred preloaded)
25.88,TAKEOFF,TO_GROUND_ROLL,124.5,80,-44.5,4.07,-0.48,1.3,1.5,89.93,0.099,1,0,0,0,0,0,0,0,0,0,0,0,0,0,0,90.22,0,1,0,-0.22,0,0,0.09,90,0,0,0,0,0,0,0,0,-0.16,0,0,3,0,0,0,69,0,0,0,90.22,1,-0.16,-0.291,0.0118,1,0,0.0118,0,0,0,0,0,0,2,2,0,0,VALID,0,0,0,0,0,1,0,0,0,0,0,0,0,0,0,0,0,0,0,0,1014.58,1025.31,2,0,0.06,0.06,354,14.29,0.08,0.06,25.76,LANDED,X10-F,0:/Integrated Flight Computer/aircraft/x10_f_cfg.ks (inferred preloaded)
26.16,TAKEOFF,TO_GROUND_ROLL,127.24,80,-47.24,4.1,-0.61,1.41,1.67,89.95,0.104,1,0,0,0,0,0,0,0,0,0,0,0,0,0,0,90.23,0,1,0,-0.27,0,0,0.1,90,0,0,0,0,0,0,0,0,-0.158,0,0,3,0,0,0,69,0,0,0,90.23,1,-0.158,-0.275,0.0115,1,0,0.0115,0,0,0,0,0,0,2,2,0,0,VALID,0,0,0,0,0,1,0,0,0,0,0,0,0,0,0,0,0,0,0,0,1025.44,1035.72,2,0,0.06,0.06,358,14.29,0.08,0.06,26.04,LANDED,X10-F,0:/Integrated Flight Computer/aircraft/x10_f_cfg.ks (inferred preloaded)
26.44,TAKEOFF,TO_GROUND_ROLL,130.01,80,-50.01,4.1,-0.41,1.41,1.6,89.97,0.11,1,0,0,0,0,0,0,0,0,0,0,0,0,0,0,90.24,0,1,0,-0.18,0,0,0.1,90,0,0,0,0,0,0,0,0,-0.157,0,0,3,0,0,0,69,0,0,0,90.24,1,-0.157,-0.266,0.0117,1,0,0.0117,0,0,0,0,0,0,2,2,0,0,VALID,0,0,0,0,0,1,0,0,0,0,0,0,0,0,0,0,0,0,0,0,1036.2,1046.05,2,0,0.06,0.06,362,14.29,0.08,0.06,26.32,LANDED,X10-F,0:/Integrated Flight Computer/aircraft/x10_f_cfg.ks (inferred preloaded)
26.72,TAKEOFF,TO_GROUND_ROLL,132.82,80,-52.82,4.08,-0.52,1.31,1.54,89.98,0.118,1,0,0,0,0,0,0,0,0,0,0,0,0,0,0,90.24,0,1,0,-0.23,0,0,0.1,90,0,0,0,0,0,0,0,0,-0.156,0,0,3,0,0,0,69,0,0,0,90.24,1,-0.156,-0.264,0.0121,1,0,0.0121,0,0,0,0,0,0,2,2,0,0,VALID,0,0,0,0,0,1,0,0,0,0,0,0,0,0,0,0,0,0,0,0,1047.12,1056.58,2,0,0.06,0.06,366,14.29,0.08,0.06,26.6,LANDED,X10-F,0:/Integrated Flight Computer/aircraft/x10_f_cfg.ks (inferred preloaded)
27,TAKEOFF,TO_GROUND_ROLL,135.65,80,-55.65,4.01,-0.47,1.11,1.32,89.98,0.121,1,0,0,0,0,0,0,0,0,0,0,0,0,0,0,90.24,0,1,0,-0.2,0,0,0.11,90,0,0,0,0,0,0,0,0,-0.155,0,0,3,0,0,0,69,0,0,0,90.24,1,-0.155,-0.265,0.0126,1,0,0.0126,0,0,0,0,0,0,2,2,0,0,VALID,0,0,0,0,0,1,0,0,0,0,0,0,0,0,0,0,0,0,0,0,1058.33,1067.43,2,0,0.06,0.06,370,14.29,0.08,0.06,26.88,LANDED,X10-F,0:/Integrated Flight Computer/aircraft/x10_f_cfg.ks (inferred preloaded)
27.28,TAKEOFF,TO_GROUND_ROLL,138.53,80,-58.53,3.94,-0.49,0.85,1.07,89.98,0.124,1,0,0,0,0,0,0,0,0,0,0,0,0,0,0,90.25,0,1,0,-0.2,0,0,0.11,90,0,0,0,0,0,0,0,0,-0.155,0,0,3,0,0,0,69,0,0,0,90.25,1,-0.155,-0.27,0.013,1,0,0.013,0,0,0,0,0,0,2,2,0,0,VALID,0,0,0,0,0,1,0,0,0,0,0,0,0,0,0,0,0,0,0,0,1069.86,1078.6,2,0,0.06,0.06,374,14.29,0.08,0.06,27.16,LANDED,X10-F,0:/Integrated Flight Computer/aircraft/x10_f_cfg.ks (inferred preloaded)
27.56,TAKEOFF,TO_GROUND_ROLL,141.44,80,-61.44,3.86,-0.49,0.57,0.78,89.97,0.122,1,0,0,0,0,0,0,0,0,0,0,0,0,0,0,90.25,0,1,0,-0.2,0,0,0.11,90,0,0,0,0,0,0,0,0,-0.154,0,0,3,0,0,0,69,0,0,0,90.25,1,-0.154,-0.273,0.0131,1,0,0.0131,0,0,0,0,0,0,2,2,0,0,VALID,0,0,0,0,0,1,0,0,0,0,0,0,0,0,0,0,0,0,0,0,1081.71,1090.13,2,0,0.06,0.06,378,14.29,0.08,0.06,27.44,LANDED,X10-F,0:/Integrated Flight Computer/aircraft/x10_f_cfg.ks (inferred preloaded)
27.84,TAKEOFF,TO_GROUND_ROLL,144.39,80,-64.39,3.78,-0.49,0.32,0.52,89.97,0.118,1,0,0,0,0,0,0,0,0,0,0,0,0,0,0,90.25,0,1,0,-0.19,0,0,0.12,90,0,0,0,0,0,0,0,0,-0.153,0,0,3,0,0,0,69,0,0,0,90.25,1,-0.153,-0.274,0.013,1,0,0.013,0,0,0,0,0,0,2,2,0,0,VALID,0,0,0,0,0,1,0,0,0,0,0,0,0,0,0,0,0,0,0,0,1093.89,1102,2,0,0.06,0.06,382,14.29,0.08,0.06,27.72,LANDED,X10-F,0:/Integrated Flight Computer/aircraft/x10_f_cfg.ks (inferred preloaded)
28.12,TAKEOFF,TO_GROUND_ROLL,147.37,80,-67.37,3.73,-0.49,0.13,0.33,89.98,0.113,1,0,0,0,0,0,0,0,0,0,0,0,0,0,0,90.24,0,1,0,-0.19,0,0,0.12,90,0,0,0,0,0,0,0,0,-0.153,0,0,3,0,0,0,69,0,0,0,90.24,1,-0.153,-0.27,0.0125,1,0,0.0125,0,0,0,0,0,0,2,2,0,0,VALID,0,0,0,0,0,1,0,0,0,0,0,0,0,0,0,0,0,0,0,0,1106.42,1114.23,2,0,0.06,0.06,386,14.29,0.08,0.06,28,LANDED,X10-F,0:/Integrated Flight Computer/aircraft/x10_f_cfg.ks (inferred preloaded)
28.4,TAKEOFF,TO_GROUND_ROLL,150.4,80,-70.4,3.7,-0.48,0.03,0.21,89.98,0.107,1,0,0,0,0,0,0,0,0,0,0,0,0,0,0,90.24,0,1,0,-0.18,0,0,0.13,90,0,0,0,0,0,0,0,0,-0.152,0,0,3,0,0,0,69,0,0,0,90.24,1,-0.152,-0.26,0.0116,1,0,0.0116,0,0,0,0,0,0,2,2,0,0,VALID,0,0,0,0,0,1,0,0,0,0,0,0,0,0,0,0,0,0,0,0,1119.3,1126.83,2,0,0.06,0.06,390,14.29,0.08,0.06,28.28,LANDED,X10-F,0:/Integrated Flight Computer/aircraft/x10_f_cfg.ks (inferred preloaded)
28.68,TAKEOFF,TO_GROUND_ROLL,153.46,80,-73.46,3.67,-0.58,0.01,0.22,89.99,0.099,1,0,0,0,0,0,0,0,0,0,0,0,0,0,0,90.24,0,1,0,-0.21,0,0,0.13,90,0,0,0,0,0,0,0,0,-0.152,0,0,3,0,0,0,69,0,0,0,90.24,1,-0.152,-0.244,0.0104,1,0,0.0104,0,0,0,0,0,0,2,2,0,0,VALID,0,0,0,0,0,1,0,0,0,0,0,0,0,0,0,0,0,0,0,0,1132.49,1139.76,2,0,0.06,0.06,394,14.29,0.08,0.06,28.56,LANDED,X10-F,0:/Integrated Flight Computer/aircraft/x10_f_cfg.ks (inferred preloaded)
28.96,TAKEOFF,TO_GROUND_ROLL,156.53,80,-76.53,3.68,-0.43,0.06,0.21,90.01,0.093,1,0,0,0,0,0,0,0,0,0,0,0,0,0,0,90.24,0,1,0,-0.16,0,0,0.13,90,0,0,0,0,0,0,0,0,-0.152,0,0,3,0,0,0,69,0,0,0,90.24,1,-0.152,-0.226,0.0094,1,0,0.0094,0,0,0,0,0,0,2,2,0,0,VALID,0,0,0,0,0,1,0,0,0,0,0,0,0,0,0,0,0,0,0,0,1145.93,1152.94,2,0,0.06,0.06,398,14.29,0.08,0.06,28.84,LANDED,X10-F,0:/Integrated Flight Computer/aircraft/x10_f_cfg.ks (inferred preloaded)
29.24,TAKEOFF,TO_GROUND_ROLL,159.67,80,-79.67,3.7,-0.49,0.08,0.25,90.03,0.093,1,0,0,0,0,0,0,0,0,0,0,0,0,0,0,90.23,0,1,0,-0.18,0,0,0.14,90,0,0,0,0,0,0,0,0,-0.153,0,0,3,0,0,0,69,0,0,0,90.23,1,-0.153,-0.205,0.0081,1,0,0.0081,0,0,0,0,0,0,2,2,0,0,VALID,0,0,0,0,0,1,0,0,0,0,0,0,0,0,0,0,0,0,0,0,1159.83,1166.61,2,0,0.06,0.06,402,14.29,0.08,0.06,29.12,LANDED,X10-F,0:/Integrated Flight Computer/aircraft/x10_f_cfg.ks (inferred preloaded)
29.54,TAKEOFF,TO_ROTATE,163.08,80,-83.08,3.7,-0.36,0.13,0.26,90.05,0.09,1,0,0,0,0,0,0,0,0,0,0,0,0,0,0,90.23,0.811,1,0,-0.13,0,0,0.14,90,0,0,0,0,0,0,0,0,-0.154,0,0,3,0,0,0,69,0,0,0,90.23,1,-0.154,-0.186,0.0075,1,0,0.0075,0,0.1684,0.811,0.68,0.08,0,2,2,0,0,VALID,0,0,0,0,0,1,0,0,0,0,0,0,0,0,0,0,0,0,0,0,1175.15,1181.69,2,0,0.06,0.06,406,13.33,0.08,0.06,29.4,LANDED,X10-F,0:/Integrated Flight Computer/aircraft/x10_f_cfg.ks (inferred preloaded)
29.82,TAKEOFF,TO_ROTATE,166.29,80,-86.29,3.8,-0.43,0.35,0.48,90.07,0.099,1,0,0,0,0,0,0,0,0,0,0,0,0,0,0,90.23,1.819,1,0,-0.14,0,0,0.15,90,0,0,0,0,0,0,0,0,-0.157,0,0,3,0,0,0,69,0,0,0,90.23,1,-0.157,-0.168,0.0067,1,0,0.0067,0,0.2716,1.819,1.474,0.08,0,2,2,0,0,VALID,0,0,0,0,0,1,0,0,0,0,0,0,0,0,0,0,0,0,0,0,1189.76,1196.1,2,0,0.06,0.06,410,14.29,0.08,0.06,29.68,LANDED,X10-F,0:/Integrated Flight Computer/aircraft/x10_f_cfg.ks (inferred preloaded)
30.12,TAKEOFF,TO_ROTATE,169.79,80,-89.79,3.98,-0.49,0.97,1.13,90.08,0.103,1,0,0,0,0,0,0,0,0,0,0,0,0,0,0,90.23,2.899,1,0,-0.17,0,0,0.15,90,0,0,0,0,0,0,0,0,-0.16,0,0,3,0,0,0,69,0,0,0,90.23,1,-0.16,-0.151,0.0062,1,0,0.0062,0,0.3312,2.899,1.932,0.08,0,2,2,0,0,VALID,0,0,0,0,0,1,0,0,0,0,0,0,0,0,0,0,0,0,0,0,1205.9,1212.03,2,0,0.06,0.06,414,13.33,0.1,0.06,29.98,LANDED,X10-F,0:/Integrated Flight Computer/aircraft/x10_f_cfg.ks (inferred preloaded)
30.4,TAKEOFF,TO_ROTATE,173.08,80,-93.08,4.28,-0.41,1.94,2.08,90.09,0.112,1,0,0,0,0,0,0,0,0,0,0,0,0,0,0,90.23,3.907,1,0,-0.13,0,0,0.16,90,0,0,0,0,0,0,0,0,-0.164,0,0,3,0,0,0,69,0,0,0,90.23,1,-0.164,-0.147,0.0068,1,0,0.0068,0,0.3353,3.907,1.964,0.08,0,2,2,0,0,VALID,0,0,0,0,0,1,0,0,0,0,0,0,0,0,0,0,0,0,0,0,1221.3,1227.22,2,0,0.06,0.06,418,14.29,0.08,0.06,30.26,LANDED,X10-F,0:/Integrated Flight Computer/aircraft/x10_f_cfg.ks (inferred preloaded)
30.68,TAKEOFF,TO_ROTATE,176.39,80,-96.39,4.62,-0.46,3.12,3.26,90.08,0.14,1,0,0,0,0,0,0,0,0,0,0,0,0,0,0,90.24,4.915,1,0,-0.15,0,0,0.16,90,0,0,0,0,0,0,0,0,-0.168,0,0,3,0,0,0,69,0,0,0,90.24,1,-0.168,-0.151,0.0076,1,0,0.0076,0,0.3137,4.915,1.798,0.08,0,2,2,0,0,VALID,0,0,0,0,0,1,0,0,0,0,0,0,0,0,0,0,0,0,0,0,1236.96,1242.7,2,0,0.06,0.06,422,14.29,0.08,0.06,30.54,LANDED,X10-F,0:/Integrated Flight Computer/aircraft/x10_f_cfg.ks (inferred preloaded)
30.96,TAKEOFF,TO_ROTATE,179.69,80,-99.69,4.97,-0.24,4.23,4.31,90.09,0.227,1,0,0,0,0,0,0,0,0,0,0,0,0,0,0,90.22,5.923,1,0,-0.08,0,0,0.17,90,0,0,0,0,0,0,0,0,-0.173,0,0,3,0,0,0,69,0,0,0,90.22,1,-0.173,-0.13,0.0052,1,0,0.0052,0,0.3003,5.923,1.694,0.08,0,2,2,0,0,VALID,0,0,0,0,0,1,0,0,0,0,0,0,0,0,0,0,0,0,0,0,1252.81,1258.36,2,0,0.06,0.06,426,14.29,0.08,0.06,30.82,LANDED,X10-F,0:/Integrated Flight Computer/aircraft/x10_f_cfg.ks (inferred preloaded)
31.24,TAKEOFF,TO_ROTATE,182.98,80,-102.98,5.37,0.05,5.19,5.17,90.11,0.288,1,0,0,0,0,0,0,0,0,0,0,0,0,0,0,90.21,6.931,1,0,0.02,0,0,0.17,90,0,0,0,0,0,0,0,0,-0.177,0,0,3,0,0,0,69,0,0,0,90.21,1,-0.177,-0.105,0.0037,1,0,0.0037,0,0.306,6.931,1.738,0.08,0,2,2,0,0,VALID,0,0,0,0,0,1,0,0,0,0,0,0,0,0,0,0,0,0,0,0,1268.76,1274.13,2,0,0.06,0.06,430,14.29,0.08,0.06,31.1,LANDED,X10-F,0:/Integrated Flight Computer/aircraft/x10_f_cfg.ks (inferred preloaded)
31.5,TAKEOFF,TO_ROTATE,186.01,80,-106.01,5.72,-0.02,6.13,6.09,90.12,0.113,1,0,0,0,0,0,0,0,0,0,0,0,0,0,0,90.4,7.939,0,1,-0.01,0,0,7.72,90.4,0.7348,-0.0068,-0.6783,7.94,90.4,0,0,0,0,0,0,3,0,0,0,69,0,0,0,90.4,1,0,-0.279,0,0,3,0,0,0,7.939,1.805,0,0,2,2,0,0,VALID,0,0,0,0,0,1,0,0,0,0,0,0,0,0,0,0,0,0,0,0,1283.62,1288.82,2,0,0.06,0.06,434,15.38,0.08,0.06,31.36,FLYING,X10-F,0:/Integrated Flight Computer/aircraft/x10_f_cfg.ks (inferred preloaded)
31.76,TAKEOFF,TO_ROTATE,189,80,-109,6.12,-0.07,7.16,7.06,90.15,0.366,1,0,0,0,0,0,0,0,0,0,0,0,0,0,0,90.4,8.875,0,1,-0.02,0,0,8.73,90.4,0.7236,-0.0068,-0.6901,8.88,90.4,0,0,0,0,0,0,3,0,0,0,69,0,0,0,90.4,1,0,-0.253,0,0,3,0,0,0,8.875,1.719,0,0,2,2,0,0,VALID,0,0,0,0,0,1,0,0,0,0,0,0,0,0,0,0,0,0,0,0,1298.44,1303.48,2,0,0.04,0.04,438,15.38,0.08,0.04,31.62,FLYING,X10-F,0:/Integrated Flight Computer/aircraft/x10_f_cfg.ks (inferred preloaded)
32.04,TAKEOFF,TO_ROTATE,192.12,80,-112.12,6.97,0.16,9.68,9.41,90.22,0.633,1,0,0,0,0,0,0,0,0,0,0,0,0,0,0,90.4,9.883,0,1,0.05,0,0,9.67,90.4,0.7114,-0.0068,-0.7027,9.88,90.4,0,0,0,0,0,0,3,0,0,0,69,0,0,0,90.4,1,0,-0.182,0,0,3,0,0,0,9.883,0.201,0,0,2,2,0,0,VALID,0,0,0,0,0,1,0,0,0,0,0,0,0,0,0,0,0,0,0,0,1314.09,1318.9,2,0,0.06,0.06,442,14.29,0.08,0.04,31.9,FLYING,X10-F,0:/Integrated Flight Computer/aircraft/x10_f_cfg.ks (inferred preloaded)
32.3,TAKEOFF,TO_ROTATE,194.73,80,-114.73,8.41,1.33,13.66,12.96,90.3,0.74,1,0,0,0,0,0,0,0,0,0,0,0,0,0,0,90.4,10.819,0,1,0.39,0,0,10.68,90.4,0.6999,-0.0067,-0.7142,10.82,90.4,0,0,0,0,0,0,3,0,0,0,69,0,0,0,90.4,1,0,-0.099,0,0,3,0,0,0,10.819,-2.839,0,0,2,2,0,0,VALID,0,0,0,0,0,1,0,0,0,0,0,0,0,0,0,0,0,0,0,0,1327.46,1331.98,2,0,0.04,0.04,446,15.38,0.08,0.04,32.16,FLYING,X10-F,0:/Integrated Flight Computer/aircraft/x10_f_cfg.ks (inferred preloaded)
32.58,TAKEOFF,TO_ROTATE,196.86,80,-116.86,10.64,5.3,18,16.35,90.39,0.776,1,0,0,0,0,0,0,0,0,0,0,0,0,0,0,90.4,11.5,0,1,1.54,0,0,11.5,90.4,0.6915,-0.0067,-0.7224,11.5,90.4,0,0,0,0,0,0,3,0,0,0,69,0,0,0,90.4,1,0,-0.014,0,0,3,0,0,0,11.5,-6.495,0,0,2,2,0,0,VALID,0,0,0,0,0,1,0,0,0,0,0,0,0,0,0,0,0,0,0,0,1338.72,1342.7,2,0,0.06,0.06,450,14.29,0.08,0.04,32.44,FLYING,X10-F,0:/Integrated Flight Computer/aircraft/x10_f_cfg.ks (inferred preloaded)
32.86,TAKEOFF,TO_CLIMB,198.08,80,-118.08,13.37,10.09,19.54,16.71,90.42,0.788,0.976,0,0,0,0,0,0,0,0,0,0,0,0,0,0,90.4,19.279,0,1,2.92,0,0,11.5,90.4,0.5874,-0.0063,-0.8093,19.28,90.4,0,0,0,0,0,0,3,0,0,0,69,0,0,0,90.4,1,0,0.023,0,0,3,0,0,0,11.5,-7.947,0,0,1,1,0,0,VALID,0,0,0,0,0,1,0,0,0,0,0,0,0,0,0,0,0,0,0,0,1345.1,1348.71,2,0,0.06,0.06,454,14.29,0.08,0.06,32.74,FLYING,X10-F,0:/Integrated Flight Computer/aircraft/x10_f_cfg.ks (inferred preloaded)
33.16,TAKEOFF,TO_CLIMB,199.55,80,-119.55,17.18,13.96,19.62,15.67,90.41,0.677,0.856,0,0,0,0,0,0,0,0,0,0,0,0,0,0,90.4,18.439,0,1,4,0,0,18.61,90.4,0.5993,-0.0064,-0.8005,18.44,90.4,0,0,0,0,0,0,3,0,0,0,69,0,0,0,90.4,1,0,0.011,0,0,3,0,0,0,11.5,-7.947,0,0,1,1,0,0,VALID,0,0,0,0,0,1,0,0,0,0,0,0,0,0,0,0,0,0,0,0,1344.73,1355.85,2,0,0.06,0.06,459,16.67,0.08,0.04,33.02,FLYING,X10-F,0:/Integrated Flight Computer/aircraft/x10_f_cfg.ks (inferred preloaded)
33.44,TAKEOFF,TO_CLIMB,201.23,80,-121.23,21.93,16.98,20.68,15.81,90.41,0.599,0.82,0,0,0,0,0,0,0,0,0,0,0,0,0,0,90.4,17.655,0,1,4.82,0,0,17.77,90.4,0.6103,-0.0064,-0.7922,17.66,90.4,0,0,0,0,0,0,3,0,0,0,69,0,0,0,90.4,1,0,0.006,0,0,3,0,0,0,11.5,-7.947,0,0,1,1,0,0,VALID,0,0,0,0,0,1,0,0,0,0,0,0,0,0,0,0,0,0,0,0,1333.29,1364.05,2,0,0.04,0.04,464,17.86,0.08,0.04,33.3,FLYING,X10-F,0:/Integrated Flight Computer/aircraft/x10_f_cfg.ks (inferred preloaded)
33.7,TAKEOFF,TO_CLIMB,202.66,80,-122.66,27.39,19.92,22.75,17.02,90.42,0.554,0.82,0,0,0,0,0,0,0,0,0,0,0,0,0,0,90.4,16.927,0,1,5.61,0,0,17.15,90.4,0.6203,-0.0065,-0.7843,16.93,90.4,0,0,0,0,0,0,3,0,0,0,69,0,0,0,90.4,1,0,0.022,0,0,3,0,0,0,11.5,-7.947,0,0,1,1,0,0,VALID,0,0,0,0,0,1,0,0,0,0,0,0,0,0,0,0,0,0,0,0,1321.24,1370.95,2,0,0.08,0.08,468,15.38,0.08,0.04,33.56,FLYING,X10-F,0:/Integrated Flight Computer/aircraft/x10_f_cfg.ks (inferred preloaded)
33.98,TAKEOFF,TO_CLIMB,203.73,80,-123.73,34.34,24.16,25.34,18.51,90.45,0.526,0.82,0,0,0,0,0,0,0,0,0,0,0,0,0,0,90.4,16.143,0,1,6.76,0,0,16.37,90.4,0.6311,-0.0065,-0.7757,16.14,90.4,0,0,0,0,0,0,3,0,0,0,69,0,0,0,90.4,1,0,0.049,0,0,3,0,0,0,11.5,-7.947,0,0,1,1,0,0,VALID,0,0,0,0,0,1,0,0,0,0,0,0,0,0,0,0,0,0,0,0,1307.76,1375.98,2,0,0.08,0.08,472,14.29,0.08,0.06,33.84,FLYING,X10-F,0:/Integrated Flight Computer/aircraft/x10_f_cfg.ks (inferred preloaded)
34.26,TAKEOFF,TO_CLIMB,204.24,80,-124.24,42.24,29.52,26.45,18.32,90.46,0.513,0.82,0,0,0,0,0,0,0,0,0,0,0,0,0,0,90.4,15.359,0,1,8.22,0,0,15.58,90.4,0.6417,-0.0065,-0.7669,15.36,90.4,0,0,0,0,0,0,3,0,0,0,69,0,0,0,90.4,1,0,0.064,0,0,3,0,0,0,11.5,-7.947,0,0,1,1,0,0,VALID,0,0,0,0,0,1,0,0,0,0,0,0,0,0,0,0,0,0,0,0,1292.98,1377.93,2,0,0.08,0.08,476,14.29,0.08,0.06,34.12,FLYING,X10-F,0:/Integrated Flight Computer/aircraft/x10_f_cfg.ks (inferred preloaded)
34.54,TAKEOFF,TO_CLIMB,204.46,80,-124.46,50.83,34.21,24.49,15.18,90.45,0.508,0.82,0,0,0,0,0,0,0,0,0,0,0,0,0,0,90.4,14.575,0,1,9.5,0,0,14.8,90.4,0.6522,-0.0066,-0.758,14.58,90.4,0,0,0,0,0,0,3,0,0,0,69,0,0,0,90.4,1,0,0.046,0,0,3,0,0,0,11.5,-7.947,0,0,1,1,0,0,VALID,0,0,0,0,0,1,0,0,0,0,0,0,0,0,0,0,0,0,0,0,1277.8,1378.24,2,0,0.08,0.08,480,14.29,0.08,0.06,34.4,FLYING,X10-F,0:/Integrated Flight Computer/aircraft/x10_f_cfg.ks (inferred preloaded)
34.82,TAKEOFF,TO_CLIMB,205.75,80,-125.75,60.22,37.22,21.64,11.52,90.42,0.51,0.82,0,0,0,0,0,0,0,0,0,0,0,0,0,0,90.4,13.791,0,1,10.25,0,0,14.02,90.4,0.6626,-0.0066,-0.7489,13.79,90.4,0,0,0,0,0,0,3,0,0,0,69,0,0,0,90.4,1,0,0.024,0,0,3,0,0,0,11.5,-7.947,0,0,1,1,0,0,VALID,0,0,0,0,0,1,0,0,0,0,0,0,0,0,0,0,0,0,0,0,1268.85,1383.91,2,0,0.08,0.08,484,14.29,0.08,0.06,34.68,FLYING,X10-F,0:/Integrated Flight Computer/aircraft/x10_f_cfg.ks (inferred preloaded)
35.1,TAKEOFF,TO_CLIMB,207.72,80,-127.72,70.52,38.59,20.13,9.56,90.41,0.489,0.82,0,0,0,0,0,0,0,0,0,0,0,0,0,0,90.4,13.007,0,1,10.52,0,0,13.23,90.4,0.6729,-0.0066,-0.7397,13.01,90.4,0,0,0,0,0,0,3,0,0,0,69,0,0,0,90.4,1,0,0.014,0,0,3,0,0,0,11.5,-7.947,0,0,1,1,0,0,VALID,0,0,0,0,0,1,0,0,0,0,0,0,0,0,0,0,0,0,0,0,1264.49,1393.15,2,0,0.08,0.08,488,14.29,0.08,0.06,34.96,FLYING,X10-F,0:/Integrated Flight Computer/aircraft/x10_f_cfg.ks (inferred preloaded)
35.38,TAKEOFF,TO_CLIMB,209.87,80,-129.87,81.54,40.77,19.62,8.63,90.41,0.49,0.82,0,0,0,0,0,0,0,0,0,0,0,0,0,0,90.4,12.223,0,1,10.99,0,0,12.45,90.4,0.683,-0.0067,-0.7304,12.22,90.4,0,0,0,0,0,0,3,0,0,0,69,0,0,0,90.4,1,0,0.015,0,0,3,0,0,0,11.5,-7.947,0,0,1,1,0,0,VALID,0,0,0,0,0,1,0,0,0,0,0,0,0,0,0,0,0,0,0,0,1262.14,1403.31,2,0,0.08,0.08,492,14.29,0.08,0.06,35.24,FLYING,X10-F,0:/Integrated Flight Computer/aircraft/x10_f_cfg.ks (inferred preloaded)
35.66,TAKEOFF,TO_CLIMB,212.15,80,-132.15,92.82,42.24,18.1,6.84,90.41,0.501,0.82,0,0,0,0,0,0,0,0,0,0,0,0,0,0,90.4,11.439,0,1,11.26,0,0,11.66,90.4,0.693,-0.0067,-0.7209,11.44,90.4,0,0,0,0,0,0,3,0,0,0,69,0,0,0,90.4,1,0,0.009,0,0,3,0,0,0,11.5,-7.947,0,0,1,1,0,0,VALID,0,0,0,0,0,1,0,0,0,0,0,0,0,0,0,0,0,0,0,0,1261.25,1414.19,2,0,0.08,0.08,496,14.29,0.08,0.06,35.52,FLYING,X10-F,0:/Integrated Flight Computer/aircraft/x10_f_cfg.ks (inferred preloaded)
35.94,TAKEOFF,TO_CLIMB,214.72,80,-134.72,104.41,42.95,16.71,5.37,90.39,0.419,0.82,0,0,0,0,0,0,0,0,0,0,0,0,0,0,90.4,10.655,0,1,11.31,0,0,10.88,90.4,0.7029,-0.0067,-0.7113,10.66,90.4,0,0,0,0,0,0,3,0,0,0,69,0,0,0,90.4,1,0,-0.008,0,0,3,0,0,0,11.5,-7.947,0,0,1,1,0,0,VALID,0,0,0,0,0,1,0,0,0,0,0,0,0,0,0,0,0,0,0,0,1262.61,1426.63,2,0,0.08,0.08,500,14.29,0.08,0.06,35.8,FLYING,X10-F,0:/Integrated Flight Computer/aircraft/x10_f_cfg.ks (inferred preloaded)
36.22,TAKEOFF,TO_CLIMB,217.45,80,-137.45,116.16,43.25,15.41,4.11,90.39,0.49,0.82,0,0,0,0,0,0,0,0,0,0,0,0,0,0,90.4,9.871,0,1,11.25,0,0,10.1,90.4,0.7126,-0.0068,-0.7015,9.87,90.4,0,0,0,0,0,0,3,0,0,0,69,0,0,0,90.4,1,0,-0.009,0,0,3,0,0,0,11.5,-7.947,0,0,1,1,0,0,VALID,0,0,0,0,0,1,0,0,0,0,0,0,0,0,0,0,0,0,0,0,1265.54,1439.99,2,0,0.08,0.08,504,14.29,0.08,0.06,36.08,FLYING,X10-F,0:/Integrated Flight Computer/aircraft/x10_f_cfg.ks (inferred preloaded)
36.5,TAKEOFF,TO_CLIMB,220.32,80,-140.32,127.96,43.19,14.19,3.05,90.39,0.571,0.82,0,0,0,0,0,0,0,0,0,0,0,0,0,0,90.4,9.087,0,1,11.09,0,0,9.31,90.4,0.7222,-0.0068,-0.6917,9.09,90.4,0,0,0,0,0,0,3,0,0,0,69,0,0,0,90.4,1,0,-0.008,0,0,3,0,0,0,11.5,-7.947,0,0,1,1,0,0,VALID,0,0,0,0,0,1,0,0,0,0,0,0,0,0,0,0,0,0,0,0,1269.86,1454.15,2,0,0.08,0.08,508,14.29,0.08,0.06,36.36,FLYING,X10-F,0:/Integrated Flight Computer/aircraft/x10_f_cfg.ks (inferred preloaded)
36.78,TAKEOFF,TO_CLIMB,223.27,80,-143.27,139.68,42.83,12.89,1.98,90.39,0.665,0.82,0,0,0,0,0,0,0,0,0,0,0,0,0,0,90.4,8.303,0,1,10.86,0,0,8.53,90.4,0.7317,-0.0068,-0.6816,8.3,90.4,0,0,0,0,0,0,3,0,0,0,69,0,0,0,90.4,1,0,-0.009,0,0,3,0,0,0,11.5,-7.947,0,0,1,1,0,0,VALID,0,0,0,0,0,1,0,0,0,0,0,0,0,0,0,0,0,0,0,0,1275.31,1468.9,2,0,0.08,0.08,512,14.29,0.08,0.06,36.64,FLYING,X10-F,0:/Integrated Flight Computer/aircraft/x10_f_cfg.ks (inferred preloaded)
37.06,TAKEOFF,TO_CLIMB,226.31,80,-146.31,151.24,41.96,11.79,1.22,90.39,0.745,0.82,0,0,0,0,0,0,0,0,0,0,0,0,0,0,90.4,7.519,0,1,10.5,0,0,7.74,90.4,0.741,-0.0068,-0.6715,7.52,90.4,0,0,0,0,0,0,3,0,0,0,69,0,0,0,90.4,1,0,-0.012,0,0,3,0,0,0,11.5,-7.947,0,0,1,1,0,0,VALID,0,0,0,0,0,1,0,0,0,0,0,0,0,0,0,0,0,0,0,0,1281.78,1484.19,2,0,0.08,0.08,516,14.29,0.08,0.06,36.92,FLYING,X10-F,0:/Integrated Flight Computer/aircraft/x10_f_cfg.ks (inferred preloaded)
37.34,TAKEOFF,TO_CLIMB,229.41,80,-149.41,162.52,40.93,10.61,0.44,90.38,0.874,0.82,0,0,0,0,0,0,0,0,0,0,0,0,0,0,90.4,7,0,1,10.12,0,0,7,90.4,0.7471,-0.0068,-0.6647,7,90.4,0,0,0,0,0,0,3,0,0,0,69,0,0,0,90.4,1,0,-0.017,0,0,3,0,0,0,11.5,-7.947,0,0,1,1,0,0,VALID,0,0,0,0,0,1,0,0,0,0,0,0,0,0,0,0,0,0,0,0,1289.17,1499.97,2,0,0.08,0.08,520,14.29,0.08,0.06,37.2,FLYING,X10-F,0:/Integrated Flight Computer/aircraft/x10_f_cfg.ks (inferred preloaded)
37.62,TAKEOFF,TO_CLIMB,232.58,80,-152.58,173.56,39.22,10.02,0.33,90.39,0.971,0.82,0,0,0,0,0,0,0,0,0,0,0,0,0,0,90.4,7,0,1,9.57,0,0,7,90.4,0.7472,-0.0068,-0.6646,7,90.4,0,0,0,0,0,0,3,0,0,0,69,0,0,0,90.4,1,0,-0.015,0,0,3,0,0,0,11.5,-7.947,0,0,1,1,0,0,VALID,0,0,0,0,0,1,0,0,0,0,0,0,0,0,0,0,0,0,0,0,1297.44,1516.23,2,0,0.08,0.08,524,14.29,0.08,0.06,37.48,FLYING,X10-F,0:/Integrated Flight Computer/aircraft/x10_f_cfg.ks (inferred preloaded)
37.9,TAKEOFF,TO_CLIMB,235.8,80,-155.8,184.37,38.05,10.06,0.78,90.39,0.897,0.82,0,0,0,0,0,0,0,0,0,0,0,0,0,0,90.4,7,0,1,9.17,0,0,7,90.4,0.7473,-0.0068,-0.6645,7,90.4,0,0,0,0,0,0,3,0,0,0,69,0,0,0,90.4,1,0,-0.005,0,0,3,0,0,0,11.5,-7.947,0,0,1,1,0,0,VALID,0,0,0,0,0,1,0,0,0,0,0,0,0,0,0,0,0,0,0,0,1306.53,1532.99,2,0,0.08,0.08,528,14.29,0.08,0.06,37.76,FLYING,X10-F,0:/Integrated Flight Computer/aircraft/x10_f_cfg.ks (inferred preloaded)
38.18,TAKEOFF,TO_CLIMB,239.09,80,-159.09,194.92,37.08,10.18,1.25,90.4,0.739,0.82,0,0,0,0,0,0,0,0,0,0,0,0,0,0,90.4,7,0,1,8.82,0,0,7,90.4,0.7473,-0.0068,-0.6644,7,90.4,0,0,0,0,0,0,3,0,0,0,69,0,0,0,90.4,1,0,0.002,0,0,3,0,0,0,11.5,-7.947,0,0,1,1,0,0,VALID,0,0,0,0,0,1,0,0,0,0,0,0,0,0,0,0,0,0,0,0,1316.42,1550.21,2,0,0.08,0.08,532,14.29,0.08,0.06,38.04,FLYING,X10-F,0:/Integrated Flight Computer/aircraft/x10_f_cfg.ks (inferred preloaded)
38.46,TAKEOFF,TO_CLIMB,242.42,80,-162.42,205.23,36.36,10.27,1.64,90.41,0.568,0.82,0,0,0,0,0,0,0,0,0,0,0,0,0,0,90.4,7,0,1,8.53,0,0,7,90.4,0.7474,-0.0068,-0.6643,7,90.4,0,0,0,0,0,0,3,0,0,0,69,0,0,0,90.4,1,0,0.006,0,0,3,0,0,0,11.5,-7.947,0,0,1,1,0,0,VALID,0,0,0,0,0,1,0,0,0,0,0,0,0,0,0,0,0,0,0,0,1326.97,1567.8,2,0,0.08,0.08,536,14.29,0.08,0.06,38.32,FLYING,X10-F,0:/Integrated Flight Computer/aircraft/x10_f_cfg.ks (inferred preloaded)
38.74,TAKEOFF,TO_CLIMB,245.79,80,-165.79,215.3,35.79,10.33,1.96,90.41,0.414,0.82,0,0,0,0,0,0,0,0,0,0,0,0,0,0,90.4,7,0,1,8.28,0,0,7,90.4,0.7475,-0.0068,-0.6643,7,90.4,0,0,0,0,0,0,3,0,0,0,69,0,0,0,90.4,1,0,0.008,0,0,3,0,0,0,11.5,-7.947,0,0,1,1,0,0,VALID,0,0,0,0,0,1,0,0,0,0,0,0,0,0,0,0,0,0,0,0,1338.13,1585.75,2,0,0.08,0.08,540,14.29,0.08,0.06,38.6,FLYING,X10-F,0:/Integrated Flight Computer/aircraft/x10_f_cfg.ks (inferred preloaded)
39.02,TAKEOFF,TO_CLIMB,249.21,80,-169.21,225.23,35.34,10.34,2.18,90.41,0.284,0.82,0,0,0,0,0,0,0,0,0,0,0,0,0,0,90.4,7,0,1,8.07,0,0,7,90.4,0.7476,-0.0068,-0.6642,7,90.4,0,0,0,0,0,0,3,0,0,0,69,0,0,0,90.4,1,0,0.007,0,0,3,0,0,0,11.5,-7.947,0,0,1,1,0,0,VALID,0,0,0,0,0,1,0,0,0,0,0,0,0,0,0,0,0,0,0,0,1349.88,1604.05,2,0,0.08,0.08,544,14.29,0.08,0.06,38.88,FLYING,X10-F,0:/Integrated Flight Computer/aircraft/x10_f_cfg.ks (inferred preloaded)
39.3,TAKEOFF,TO_CLIMB,252.68,80,-172.68,235.03,35.05,10.33,2.35,90.41,0.18,0.82,0,0,0,0,0,0,0,0,0,0,0,0,0,0,90.4,7,0,1,7.9,0,0,7,90.4,0.7476,-0.0068,-0.6641,7,90.4,0,0,0,0,0,0,3,0,0,0,69,0,0,0,90.4,1,0,0.006,0,0,3,0,0,0,11.5,-7.947,0,0,0,0,0,0,VALID,0,0,0,0,0,1,0,0,0,0,0,0,0,0,0,0,0,0,0,0,1362.19,1622.7,2,0,0.08,0.08,548,14.29,0.08,0.06,39.18,FLYING,X10-F,0:/Integrated Flight Computer/aircraft/x10_f_cfg.ks (inferred preloaded)
39.58,TAKEOFF,TO_CLIMB,256.19,80,-176.19,244.78,34.78,10.35,2.51,90.4,0.099,0.82,0,0,0,0,0,0,0,0,0,0,0,0,0,0,90.4,7,0,1,7.73,0,0,7,90.4,0.7477,-0.0068,-0.664,7,90.4,0,0,0,0,0,0,3,0,0,0,69,0,0,0,90.4,1,0,0.005,0,0,3,0,0,0,11.5,-7.947,0,0,0,0,0,0,VALID,0,0,0,0,0,1,0,0,0,0,0,0,0,0,0,0,0,0,0,0,1375.07,1641.75,2,0,0.08,0.08,552,14.29,0.08,0.06,39.44,FLYING,X10-F,0:/Integrated Flight Computer/aircraft/x10_f_cfg.ks (inferred preloaded)
