t_s,phase,subphase,ias_ms,vapp_ms,spd_err_ms,agl_m,gear_h_m,vs_ms,pitch_deg,aoa_deg,hdg_deg,bank_deg,thr_cmd,thr_cur,thr_intg,at_gain,at_tau_s,at_a_up,at_a_dn,at_kp_thr,at_ki_spd,at_thr_slew,as_cmd_deg,as_cap_deg,as_raw_deg,as_spd_err_ms,as_active,aa_hdg_cmd_deg,aa_fpa_cmd_deg,aa_fbw,aa_dir,actual_fpa_deg,ftf_hdg_err_deg,ftf_fix_idx,kos_steer_pit_deg,kos_steer_hdg_deg,aa_dir_vx,aa_dir_vy,aa_dir_vz,aa_dir_pitch_deg,aa_dir_hdg_deg,ils_loc_m,ils_gs_m,ils_dist_km,loc_corr_deg,gs_corr_deg,gs_latched,active_gs_ang_deg,ils_intercept_alt_m,d_gs_ms,fpa_preclamped_deg,gs_nom_alt_m,flare_fpa_cmd,flare_tgt_vs,flare_frac,flare_mode,flare_auth_limited,flare_auth_reason,flare_vs_err,flare_fpa_err,flare_pitch_err,flare_theta_cmd_raw,flare_theta_cmd_clamped,flare_theta_clamp_active,flare_aoa_clamp_active,flare_pitch_in_cmd,elev_defl_avg_deg,elev_defl_max_deg,elev_defl_n,flare_ctrl_h_m,flare_req_up_a,flare_thr_floor,flare_tecs_et_err,flare_tecs_eb_err,flare_tecs_h_ref,flare_tecs_v_ref,flare_gamma_ref,flare_gamma_eb_term,flare_gamma_unsat,steer_hdg_deg,steer_blend,ro_loc_corr_deg,ro_hdg_err_deg,ro_yaw_tgt,ro_yaw_scale,ro_yaw_gate,yaw_cmd,roll_cmd,pitch_cmd,ro_pitch_tgt_deg,ro_pitch_err_deg,ro_pitch_ff,ro_roll_assist,flaps_cur,flaps_tgt,asc_j_ab,asc_j_rk,asc_validity,asc_q_pa,asc_q_raw_pa,asc_mach,asc_apo_m,asc_drag_n,asc_w_prop,asc_edot_aero,asc_edot_orb,asc_pitch_bias,asc_blend,asc_spooling,asc_ab_thr_ratio,asc_ab_t_now,asc_ab_t_avail,asc_ab_ign_on,asc_ab_flameouts,asc_rk_t_now,asc_rk_t_avail,asc_rk_ign_on,asc_rk_flameouts,ship_thrust,ship_avail_thrust,ship_ign_on,ship_flameouts,ifc_raw_dt_s,ifc_dt_s,ifc_loop_n,ifc_hz_est,ifc_raw_dt_max_s,ifc_raw_dt_min_s,phase_el_s,status,craft_name,cfg_file
0.16,APPROACH,ILS_TRACK,154.31,152,-2.31,741.48,662.52,-12.33,10.84,15.16,269.82,0.287,0,0,0,0,0,0,0,0,0,0,0,0,0,0,0,0,0,1,0,-4.58,0,0,0,90,0,0,0,0,0,7.04,-488.4,22.055,0,0,0,3,741.48,0,0,1230.12,0,0,0,,0,NONE,0,0,0,0,0,0,0,0,0,0,0,662.52,0,0,0,0,0,0,0,0,0,269.81,0,0,0,0,0,0,0,0,0,0,0,0,0,0,0,0,0,VALID,0,0,0,0,0,1,0,0,0,0,0,0,0,0,0,0,0,0,0,0,298.92,1081.43,2,0,0.14,0.14,1,3.7,0.14,0.02,0.16,FLYING,X10-H,0:/Integrated Flight Computer/aircraft/x10_h_cfg.ks (inferred preloaded)
0.46,APPROACH,ILS_TRACK,154.39,152,-2.39,737.96,658.94,-11.69,11.14,15.24,269.8,0.17,0,0,0,1,0.6,2.105,0.75,0.35,0.0168,0.4,1.024,21.217,1.024,2.393,1,269.92,0,0,1,-4.36,0,0,0,269.91,0.7077,-0.0014,-0.7065,0,269.92,6.82,-489.3,22.009,-0.079,0,0,3,741.48,-3.22,0,1227.73,0,0,0,,0,NONE,0,0,0,0,0,0,0,0,0,0,0,658.94,0,0,0,0,0,0,0,0,0,269.81,0,0,0,0,0,0,0,0,0,0,0,0,0,1,3,0,0,VALID,0,0,0,0,0,1,0,0,0,0,0,0,0,0,0,0,0,0,0,0,269.2,1082.06,2,0,0.08,0.08,4,10,0.14,0.08,0.46,FLYING,X10-H,0:/Integrated Flight Computer/aircraft/x10_h_cfg.ks (inferred preloaded)
0.76,APPROACH,ILS_TRACK,154.31,152,-2.31,734.36,655.54,-10.95,10.6,14.36,269.77,0.143,0,0,0,1,0.6,3.745,0.75,0.35,0.0168,0.4,0.942,21.237,0.942,2.32,1,269.92,0,0,1,-4.09,0,0,0,269.92,0.7077,-0.0015,-0.7066,0,269.92,6.6,-490.31,21.96,-0.085,0,0,3,741.48,-3.633,0,1225.16,0,0,0,,0,NONE,0,0,0,0,0,0,0,0,0,0,0,655.54,0,0,0,0,0,0,0,0,0,269.81,0,0,0,0,0,0,0,0,0,0,0,0,0,1,3,0,0,VALID,0,0,0,0,0,1,0,0,0,0,0,0,0,0,0,0,0,0,0,0,242.26,1081.93,2,0,0.08,0.08,7,10,0.12,0.08,0.76,FLYING,X10-H,0:/Integrated Flight Computer/aircraft/x10_h_cfg.ks (inferred preloaded)
1.12,APPROACH,ILS_TRACK,154.16,152,-2.16,729.66,651.64,-10.75,7.82,11.4,269.77,0.25,0,0,0,1,0.6,4.5,0.75,0.35,0.0168,0.4,0.747,21.285,0.747,2.149,1,269.94,0,0,1,-3.97,0,0,0,269.94,0.7076,-0.0011,-0.7066,0,269.94,6.32,-491.9,21.901,-0.06,0,0,3,741.48,-4.71,0,1222.09,0,0,0,,0,NONE,0,0,0,0,0,0,0,0,0,0,0,651.64,0,0,0,0,0,0,0,0,0,269.81,0,0,0,0,0,0,0,0,0,0,0,0,0,2,3,0,0,VALID,0,0,0,0,0,1,0,0,0,0,0,0,0,0,0,0,0,0,0,0,213.39,1081.54,2,0,0.12,0.12,10,8.33,0.12,0.08,1.12,FLYING,X10-H,0:/Integrated Flight Computer/aircraft/x10_h_cfg.ks (inferred preloaded)
1.46,APPROACH,ILS_TRACK,154.45,152,-2.45,725.17,647.85,-11.53,5.28,9.17,269.79,0.242,0,0,0,1,0.6,4.5,0.75,0.35,0.0168,0.4,1.062,21.207,1.062,2.427,1,269.95,0,0,1,-4.23,0,0,0,269.94,0.7075,-0.001,-0.7067,0,269.95,6.07,-493.48,21.846,-0.055,0,0,3,741.48,-4.665,0,1219.18,0,0,0,,0,NONE,0,0,0,0,0,0,0,0,0,0,0,647.85,0,0,0,0,0,0,0,0,0,269.81,0,0,0,0,0,0,0,0,0,0,0,0,0,3,3,0,0,VALID,0,0,0,0,0,1,0,0,0,0,0,0,0,0,0,0,0,0,0,0,189.62,1083.03,2,0,0.1,0.1,13,8.82,0.12,0.1,1.46,FLYING,X10-H,0:/Integrated Flight Computer/aircraft/x10_h_cfg.ks (inferred preloaded)
1.74,APPROACH,ILS_TRACK,154.75,152,-2.75,721.51,644.48,-12.56,4.12,8.45,269.76,0.041,0,0,0,1,0.6,4.5,0.75,0.35,0.0168,0.4,1.406,21.121,1.406,2.731,1,269.94,0,0,1,-4.58,0,0,0,269.94,0.7075,-0.001,-0.7067,0,269.94,5.87,-494.76,21.8,-0.057,0,0,3,741.48,-4.474,0,1216.78,0,0,0,,0,NONE,0,0,0,0,0,0,0,0,0,0,0,644.48,0,0,0,0,0,0,0,0,0,269.81,0,0,0,0,0,0,0,0,0,0,0,0,0,3,3,0,0,VALID,0,0,0,0,0,1,0,0,0,0,0,0,0,0,0,0,0,0,0,0,172.11,1084.58,2,0,0.08,0.08,16,10.71,0.1,0.08,1.74,FLYING,X10-H,0:/Integrated Flight Computer/aircraft/x10_h_cfg.ks (inferred preloaded)
2.04,APPROACH,ILS_TRACK,155.02,152,-3.02,717.69,640.53,-13.64,4.36,9.16,269.73,-0.051,0,0,0,1,0.6,4.5,0.75,0.35,0.0168,0.4,1.717,21.043,1.717,3.009,1,269.95,0,0,1,-4.98,0,0,0,269.96,0.7074,-0.0009,-0.7068,0,269.95,5.66,-496.02,21.751,-0.051,0,0,3,741.48,-4.05,0,1214.21,0,0,0,,0,NONE,0,0,0,0,0,0,0,0,0,0,0,640.53,0,0,0,0,0,0,0,0,0,269.81,0,0,0,0,0,0,0,0,0,0,0,0,0,3,3,0,0,VALID,0,0,0,0,0,1,0,0,0,0,0,0,0,0,0,0,0,0,0,0,155.11,1086.04,2,0,0.08,0.08,19,10,0.12,0.08,2.04,FLYING,X10-H,0:/Integrated Flight Computer/aircraft/x10_h_cfg.ks (inferred preloaded)
2.34,APPROACH,ILS_TRACK,155.16,152,-3.16,714.04,636.33,-14.34,6.12,11.28,269.74,0.031,0,0,0,1,0.6,4.5,0.75,0.35,0.0168,0.4,1.881,21.001,1.881,3.157,1,269.96,0,0,1,-5.26,0,0,0,269.97,0.7074,-0.0007,-0.7069,0,269.96,5.44,-497.12,21.702,-0.039,0,0,3,741.48,-3.436,0,1211.64,0,0,0,,0,NONE,0,0,0,0,0,0,0,0,0,0,0,636.33,0,0,0,0,0,0,0,0,0,269.81,0,0,0,0,0,0,0,0,0,0,0,0,0,3,3,0,0,VALID,0,0,0,0,0,1,0,0,0,0,0,0,0,0,0,0,0,0,0,0,139.72,1086.97,2,0,0.08,0.08,22,10,0.12,0.08,2.34,FLYING,X10-H,0:/Integrated Flight Computer/aircraft/x10_h_cfg.ks (inferred preloaded)
2.64,APPROACH,ILS_TRACK,155.07,152,-3.07,710.47,632.06,-14.14,8.65,13.76,269.77,0.113,0,0,0,1,0.6,4.5,0.75,0.35,0.0168,0.4,1.802,21.021,1.802,3.086,1,269.97,0,0,1,-5.24,0,0,0,269.98,0.7073,-0.0005,-0.7069,0,269.97,5.21,-498.12,21.653,-0.028,0,0,3,741.48,-3.32,0,1209.07,0,0,0,,0,NONE,0,0,0,0,0,0,0,0,0,0,0,632.06,0,0,0,0,0,0,0,0,0,269.81,0,0,0,0,0,0,0,0,0,0,0,0,0,3,3,0,0,VALID,0,0,0,0,0,1,0,0,0,0,0,0,0,0,0,0,0,0,0,0,125.76,1086.95,2,0,0.08,0.08,25,10,0.12,0.08,2.64,FLYING,X10-H,0:/Integrated Flight Computer/aircraft/x10_h_cfg.ks (inferred preloaded)
2.94,APPROACH,ILS_TRACK,154.58,152,-2.58,706.75,627.96,-13.26,10.23,14.94,269.74,-0.099,0.032,0,-0.21,1,0.6,4.5,0.75,0.35,0.0168,0.4,1.287,21.151,1.287,2.626,1,269.98,0,0,1,-4.95,0,0,0,269.98,0.7072,-0.0004,-0.707,0,269.98,5,-499.24,21.604,-0.023,0,0,3,741.48,-4.092,0,1206.5,0,0,0,,0,NONE,0,0,0,0,0,0,0,0,0,0,0,627.96,0,0,0,0,0,0,0,0,0,269.81,0,0,0,0,0,0,0,0,0,0,0,0,0,3,3,0,0,VALID,0,0,0,0,0,1,0,0,0,0,0,0,0,0,0,0,0,0,0,0,113.01,1085.17,2,0,0.08,0.08,28,10,0.12,0.08,2.94,FLYING,X10-H,0:/Integrated Flight Computer/aircraft/x10_h_cfg.ks (inferred preloaded)
3.24,APPROACH,ILS_TRACK,153.92,152,-1.92,702.9,624.11,-12.6,10.33,14.77,269.7,-0.096,0.152,0,-0.86,1,0.6,4.5,0.75,0.35,0.0168,0.4,0,21.338,0,1.961,0,269.98,0,0,1,-4.7,0,0,0,269.99,0.7072,-0.0003,-0.707,0,269.98,4.79,-500.54,21.555,-0.02,0,0,3,741.48,-4.307,0,1203.95,0,0,0,,0,NONE,0,0,0,0,0,0,0,0,0,0,0,624.11,0,0,0,0,0,0,0,0,0,269.81,0,0,0,0,0,0,0,0,0,0,0,0,0,3,3,0,0,VALID,0,0,0,0,0,1,0,0,0,0,0,0,0,0,0,0,0,0,0,0,108.26,1082.66,2,0,0.08,0.08,31,10,0.12,0.08,3.24,FLYING,X10-H,0:/Integrated Flight Computer/aircraft/x10_h_cfg.ks (inferred preloaded)
3.54,APPROACH,ILS_TRACK,153.37,152,-1.37,699.26,620.38,-12.21,10.52,14.88,269.76,0.208,0.272,0,-1.337,1,0.6,4.5,0.75,0.35,0.0168,0.4,0,21.493,0,1.411,0,270.01,0,0,1,-4.57,0,0,0,270.01,0.7071,0.0002,-0.7071,0,270.01,4.56,-501.67,21.507,0.01,0,0,3,741.48,-3.383,0,1201.4,0,0,0,,0,NONE,0,0,0,0,0,0,0,0,0,0,0,620.38,0,0,0,0,0,0,0,0,0,269.81,0,0,0,0,0,0,0,0,0,0,0,0,0,3,3,0,0,VALID,0,0,0,0,0,1,0,0,0,0,0,0,0,0,0,0,0,0,0,0,113.36,1080.61,2,0,0.08,0.08,34,10,0.12,0.08,3.54,FLYING,X10-H,0:/Integrated Flight Computer/aircraft/x10_h_cfg.ks (inferred preloaded)
3.84,APPROACH,ILS_TRACK,152.78,152,-0.78,696.01,616.77,-11.78,11.57,15.87,269.84,0.463,0.392,0,-1.644,1,0.6,4.5,0.75,0.35,0.0168,0.4,0,21.659,0,0.824,0,270.02,0,0,1,-4.43,0,0,0,270.01,0.7071,0.0003,-0.7071,0,270.02,4.33,-502.45,21.458,0.019,0,0,3,741.48,-2.095,0,1198.87,0,0,0,,0,NONE,0,0,0,0,0,0,0,0,0,0,0,616.77,0,0,0,0,0,0,0,0,0,269.81,0,0,0,0,0,0,0,0,0,0,0,0,0,3,3,0,0,VALID,0,0,0,0,0,1,0,0,0,0,0,0,0,0,0,0,0,0,0,0,125.66,1078.38,2,0,0.08,0.08,37,10,0.12,0.08,3.84,FLYING,X10-H,0:/Integrated Flight Computer/aircraft/x10_h_cfg.ks (inferred preloaded)
4.14,APPROACH,ILS_TRACK,152.05,152,-0.05,693.05,613.39,-10.76,13.16,17.1,269.92,0.644,0.512,0,-1.753,1,0.6,4.5,0.75,0.35,0.0168,0.4,0,21.86,0,0.109,0,270.01,0,0,1,-4.11,0,0,0,270.01,0.707,0.0002,-0.7072,0,270.01,4.12,-502.9,21.41,0.012,0,0,3,741.48,-1.342,0,1196.34,0,0,0,,0,NONE,0,0,0,0,0,0,0,0,0,0,0,613.39,0,0,0,0,0,0,0,0,0,269.81,0,0,0,0,0,0,0,0,0,0,0,0,0,3,3,0,0,VALID,0,0,0,0,0,1,0,0,0,0,0,0,0,0,0,0,0,0,0,0,144.65,1075.57,2,0,0.08,0.08,40,10,0.12,0.08,4.14,FLYING,X10-H,0:/Integrated Flight Computer/aircraft/x10_h_cfg.ks (inferred preloaded)
4.44,APPROACH,ILS_TRACK,151.17,152,0.83,690.21,610.35,-9.51,13.95,17.41,269.99,0.776,0.632,0,-1.611,1,0.6,4.5,0.75,0.35,0.0168,0.4,0,22.106,0,-0.765,0,270.01,0,0,1,-3.66,0,0,0,270.01,0.707,0.0001,-0.7073,0,270.01,3.91,-503.24,21.362,0.008,0,0,3,741.48,-1.044,0,1193.83,0,0,0,,0,NONE,0,0,0,0,0,0,0,0,0,0,0,610.35,0,0,0,0,0,0,0,0,0,269.81,0,0,0,0,0,0,0,0,0,0,0,0,0,3,3,0,0,VALID,0,0,0,0,0,1,0,0,0,0,0,0,0,0,0,0,0,0,0,0,169.82,1072.11,2,0,0.08,0.08,43,10,0.12,0.08,4.44,FLYING,X10-H,0:/Integrated Flight Computer/aircraft/x10_h_cfg.ks (inferred preloaded)
4.74,APPROACH,ILS_TRACK,150.36,152,1.64,687.55,607.66,-8.51,14.04,17.13,270.04,0.848,0.752,0,-1.33,1,0.6,4.5,0.75,0.35,0.0168,0.4,0,22.341,0,-1.597,0,270,0,0,1,-3.28,0,0,0,270,0.7069,0,-0.7073,0,270,3.73,-503.44,21.314,-0.002,0,0,3,741.48,-0.309,0,1191.33,0,0,0,,0,NONE,0,0,0,0,0,0,0,0,0,0,0,607.66,0,0,0,0,0,0,0,0,0,269.81,0,0,0,0,0,0,0,0,0,0,0,0,0,3,3,0,0,VALID,0,0,0,0,0,1,0,0,0,0,0,0,0,0,0,0,0,0,0,0,200.84,1068.87,2,0,0.08,0.08,46,10,0.12,0.08,4.74,FLYING,X10-H,0:/Integrated Flight Computer/aircraft/x10_h_cfg.ks (inferred preloaded)
5.04,APPROACH,ILS_TRACK,149.68,152,2.32,685.26,605.24,-7.68,14.45,17.29,270.08,0.88,0.872,0,-0.932,1,0.6,4.5,0.75,0.35,0.0168,0.4,0,22.532,0,-2.275,0,269.99,0,0,1,-2.99,0,0,0,269.99,0.7068,-0.0001,-0.7074,0,269.99,3.56,-503.29,21.267,-0.005,0,0,3,741.48,0.934,0,1188.84,0,0,0,,0,NONE,0,0,0,0,0,0,0,0,0,0,0,605.24,0,0,0,0,0,0,0,0,0,269.81,0,0,0,0,0,0,0,0,0,0,0,0,0,3,3,0,0,VALID,0,0,0,0,0,1,0,0,0,0,0,0,0,0,0,0,0,0,0,0,237.44,1066.25,2,0,0.08,0.08,49,10,0.12,0.08,5.04,FLYING,X10-H,0:/Integrated Flight Computer/aircraft/x10_h_cfg.ks (inferred preloaded)
5.34,APPROACH,ILS_TRACK,148.99,152,3.01,683.16,603.16,-6.33,14.58,16.88,270.1,0.855,0.992,0,-0.621,1,0.6,4.5,0.75,0.35,0.0168,0.4,0,22.725,0,-2.96,0,269.98,0,0,1,-2.5,0,0,0,269.98,0.7068,-0.0004,-0.7074,0,269.98,3.42,-502.92,21.219,-0.021,0,0,3,741.48,1.298,0,1186.36,0,0,0,,0,NONE,0,0,0,0,0,0,0,0,0,0,0,603.16,0,0,0,0,0,0,0,0,0,269.81,0,0,0,0,0,0,0,0,0,0,0,0,0,3,3,0,0,VALID,0,0,0,0,0,1,0,0,0,0,0,0,0,0,0,0,0,0,0,0,279.14,1063.53,2,0,0.08,0.08,52,10,0.12,0.08,5.34,FLYING,X10-H,0:/Integrated Flight Computer/aircraft/x10_h_cfg.ks (inferred preloaded)
5.64,APPROACH,ILS_TRACK,148.48,152,3.52,681.19,601.42,-5.38,13.78,15.7,270.08,0.769,0.968,0,-0.335,1,0.6,4.5,0.75,0.35,0.0168,0.4,0,22.877,0,-3.5,0,269.97,0,0,1,-2.11,0,0,0,269.98,0.7067,-0.0006,-0.7075,0,269.97,3.3,-502.45,21.172,-0.034,0,0,3,741.48,1.801,0,1183.89,0,0,0,,0,NONE,0,0,0,0,0,0,0,0,0,0,0,601.42,0,0,0,0,0,0,0,0,0,269.81,0,0,0,0,0,0,0,0,0,0,0,0,0,3,3,0,0,VALID,0,0,0,0,0,1,0,0,0,0,0,0,0,0,0,0,0,0,0,0,323.91,1061.51,2,0,0.08,0.08,55,10,0.12,0.08,5.64,FLYING,X10-H,0:/Integrated Flight Computer/aircraft/x10_h_cfg.ks (inferred preloaded)
5.94,APPROACH,ILS_TRACK,148.27,152,3.73,679.49,599.9,-4.78,13.06,14.79,270.05,0.668,0.848,0,0.765,1,0.6,4.5,0.75,0.35,0.0168,0.4,0,22.939,0,-3.719,0,269.95,0,0,1,-1.88,0,0,0,269.96,0.7067,-0.0008,-0.7075,0,269.95,3.19,-501.72,21.125,-0.047,0,0,3,741.48,2.822,0,1181.42,0,0,0,,0,NONE,0,0,0,0,0,0,0,0,0,0,0,599.9,0,0,0,0,0,0,0,0,0,269.81,0,0,0,0,0,0,0,0,0,0,0,0,0,3,3,0,0,VALID,0,0,0,0,0,1,0,0,0,0,0,0,0,0,0,0,0,0,0,0,362.71,1060.78,2,0,0.08,0.08,58,10,0.12,0.08,5.94,FLYING,X10-H,0:/Integrated Flight Computer/aircraft/x10_h_cfg.ks (inferred preloaded)
6.24,APPROACH,ILS_TRACK,148.23,152,3.77,678.04,598.59,-4.03,12.64,14.09,270.03,0.564,0.728,0,1.892,1,0.6,4.5,0.75,0.35,0.0168,0.4,0,22.952,0,-3.765,0,269.95,0,0,1,-1.59,0,0,0,269.96,0.7066,-0.0009,-0.7076,0,269.95,3.09,-500.72,21.078,-0.049,0,0,3,741.48,3.514,0,1178.95,0,0,0,,0,NONE,0,0,0,0,0,0,0,0,0,0,0,598.59,0,0,0,0,0,0,0,0,0,269.81,0,0,0,0,0,0,0,0,0,0,0,0,0,3,3,0,0,VALID,0,0,0,0,0,1,0,0,0,0,0,0,0,0,0,0,0,0,0,0,392.02,1060.71,2,0,0.08,0.08,61,10,0.12,0.08,6.24,FLYING,X10-H,0:/Integrated Flight Computer/aircraft/x10_h_cfg.ks (inferred preloaded)
6.54,APPROACH,ILS_TRACK,148.32,152,3.68,676.75,597.47,-3.51,12.03,13.28,270.01,0.476,0.608,0,3.011,1,0.6,4.5,0.75,0.35,0.0168,0.4,0,22.931,0,-3.689,0,269.95,0,0,1,-1.38,0,0,0,269.95,0.7066,-0.0009,-0.7077,0,269.95,3.01,-499.57,21.031,-0.049,0,0,3,741.48,4.07,0,1176.48,0,0,0,,0,NONE,0,0,0,0,0,0,0,0,0,0,0,597.47,0,0,0,0,0,0,0,0,0,269.81,0,0,0,0,0,0,0,0,0,0,0,0,0,3,3,0,0,VALID,0,0,0,0,0,1,0,0,0,0,0,0,0,0,0,0,0,0,0,0,412.37,1061.15,2,0,0.08,0.08,64,10,0.12,0.08,6.54,FLYING,X10-H,0:/Integrated Flight Computer/aircraft/x10_h_cfg.ks (inferred preloaded)
6.9,APPROACH,ILS_TRACK,148.58,152,3.42,675.42,596.32,-2.97,11.42,12.48,270,0.377,0.464,0,4.282,1,0.6,4.5,0.75,0.35,0.0168,0.4,0,22.86,0,-3.439,0,269.95,0,0,1,-1.17,0,0,0,269.94,0.7065,-0.0009,-0.7077,0,269.95,2.92,-497.96,20.975,-0.054,0,0,3,741.48,4.698,0,1173.52,0,0,0,,0,NONE,0,0,0,0,0,0,0,0,0,0,0,596.32,0,0,0,0,0,0,0,0,0,269.81,0,0,0,0,0,0,0,0,0,0,0,0,0,3,3,0,0,VALID,0,0,0,0,0,1,0,0,0,0,0,0,0,0,0,0,0,0,0,0,425.94,1062.3,2,0,0.12,0.12,67,8.33,0.12,0.08,6.9,FLYING,X10-H,0:/Integrated Flight Computer/aircraft/x10_h_cfg.ks (inferred preloaded)
7.24,APPROACH,ILS_TRACK,148.9,152,3.1,674.36,595.38,-2.57,10.95,11.86,269.98,0.299,0.328,0,5.38,1,0.6,4.5,0.75,0.35,0.0168,0.4,0,22.77,0,-3.119,0,269.94,0,0,1,-1.01,0,0,0,269.94,0.7064,-0.001,-0.7078,0,269.94,2.84,-496.24,20.921,-0.056,0,0,3,741.48,5.23,0,1170.71,0,0,0,,0,NONE,0,0,0,0,0,0,0,0,0,0,0,595.38,0,0,0,0,0,0,0,0,0,269.81,0,0,0,0,0,0,0,0,0,0,0,0,0,3,3,0,0,VALID,0,0,0,0,0,1,0,0,0,0,0,0,0,0,0,0,0,0,0,0,427.85,1063.71,2,0,0.1,0.1,70,8.82,0.12,0.1,7.24,FLYING,X10-H,0:/Integrated Flight Computer/aircraft/x10_h_cfg.ks (inferred preloaded)
7.52,APPROACH,ILS_TRACK,149.18,152,2.82,673.57,594.72,-2.19,10.56,11.31,269.97,0.244,0.216,0,6.201,1,0.6,4.5,0.75,0.35,0.0168,0.4,0,22.691,0,-2.84,0,269.94,0,0,1,-0.86,0,0,0,269.95,0.7064,-0.001,-0.7078,0,269.94,2.78,-494.72,20.877,-0.056,0,0,3,741.48,5.473,0,1168.4,0,0,0,,0,NONE,0,0,0,0,0,0,0,0,0,0,0,594.72,0,0,0,0,0,0,0,0,0,269.81,0,0,0,0,0,0,0,0,0,0,0,0,0,3,3,0,0,VALID,0,0,0,0,0,1,0,0,0,0,0,0,0,0,0,0,0,0,0,0,417.98,1064.91,2,0,0.08,0.08,73,10.71,0.1,0.08,7.52,FLYING,X10-H,0:/Integrated Flight Computer/aircraft/x10_h_cfg.ks (inferred preloaded)
7.82,APPROACH,ILS_TRACK,149.47,152,2.53,672.8,594.08,-2.1,10.04,10.78,269.96,0.199,0.096,0,6.996,1,0.6,4.5,0.75,0.35,0.0168,0.4,0,22.611,0,-2.553,0,269.93,0,0,1,-0.8,0,0,0,269.94,0.7063,-0.0011,-0.7079,0,269.93,2.72,-493.02,20.829,-0.066,0,0,3,741.48,5.842,0,1165.92,0,0,0,,0,NONE,0,0,0,0,0,0,0,0,0,0,0,594.08,0,0,0,0,0,0,0,0,0,269.81,0,0,0,0,0,0,0,0,0,0,0,0,0,3,3,0,0,VALID,0,0,0,0,0,1,0,0,0,0,0,0,0,0,0,0,0,0,0,0,396.18,1066.15,2,0,0.08,0.08,76,10,0.12,0.08,7.82,FLYING,X10-H,0:/Integrated Flight Computer/aircraft/x10_h_cfg.ks (inferred preloaded)
8.12,APPROACH,ILS_TRACK,149.7,152,2.3,672.26,593.45,-2.17,10.26,11.1,269.96,0.158,0.0041,0,7.711,1,0.6,4.5,0.75,0.35,0.0168,0.4,0,22.542,0,-2.312,0,269.94,0,0,1,-0.83,0,0,0,269.94,0.7063,-0.0011,-0.7079,0,269.94,2.66,-491.11,20.782,-0.061,0,0,3,741.48,6.725,0,1163.43,0,0,0,,0,NONE,0,0,0,0,0,0,0,0,0,0,0,593.45,0,0,0,0,0,0,0,0,0,269.81,0,0,0,0,0,0,0,0,0,0,0,0,0,3,3,0,0,VALID,0,0,0,0,0,1,0,0,0,0,0,0,0,0,0,0,0,0,0,0,363.69,1067.18,2,0,0.08,0.08,79,10,0.12,0.08,8.12,FLYING,X10-H,0:/Integrated Flight Computer/aircraft/x10_h_cfg.ks (inferred preloaded)
8.42,APPROACH,ILS_TRACK,149.76,152,2.24,671.96,592.85,-1.74,11.35,12.05,269.96,0.13,0.1002,0,8.383,1,0.6,4.5,0.75,0.35,0.0168,0.4,0,22.521,0,-2.237,0,269.94,0,0,1,-0.71,0,0,0,269.94,0.7062,-0.001,-0.708,0,269.94,2.6,-488.94,20.734,-0.06,0,0,3,741.48,7.332,0,1160.94,0,0,0,,0,NONE,0,0,0,0,0,0,0,0,0,0,0,592.85,0,0,0,0,0,0,0,0,0,269.81,0,0,0,0,0,0,0,0,0,0,0,0,0,3,3,0,0,VALID,0,0,0,0,0,1,0,0,0,0,0,0,0,0,0,0,0,0,0,0,330.22,1067.49,2,0,0.08,0.08,82,10,0.12,0.08,8.42,FLYING,X10-H,0:/Integrated Flight Computer/aircraft/x10_h_cfg.ks (inferred preloaded)
8.72,APPROACH,ILS_TRACK,149.52,152,2.48,671.46,592.47,-0.9,11.21,11.47,269.96,0.103,0.2202,0,9.093,1,0.6,4.5,0.75,0.35,0.0168,0.4,0,22.585,0,-2.464,0,269.95,0,0,1,-0.37,0,0,0,269.95,0.7062,-0.0009,-0.7081,0,269.95,2.54,-486.9,20.687,-0.052,0,0,3,741.48,6.368,0,1158.45,0,0,0,,0,NONE,0,0,0,0,0,0,0,0,0,0,0,592.47,0,0,0,0,0,0,0,0,0,269.81,0,0,0,0,0,0,0,0,0,0,0,0,0,3,3,0,0,VALID,0,0,0,0,0,1,0,0,0,0,0,0,0,0,0,0,0,0,0,0,311.1,1066.5,2,0,0.08,0.08,85,10,0.12,0.08,8.72,FLYING,X10-H,0:/Integrated Flight Computer/aircraft/x10_h_cfg.ks (inferred preloaded)
9.02,APPROACH,ILS_TRACK,149.38,152,2.62,670.83,592.21,-0.87,9.87,10.1,269.95,0.084,0.3402,0,9.872,1,0.6,4.5,0.75,0.35,0.0168,0.4,0,22.628,0,-2.616,0,269.94,0,0,1,-0.32,0,0,0,269.95,0.7061,-0.001,-0.7081,0,269.94,2.49,-485.05,20.64,-0.058,0,0,3,741.48,6.242,0,1155.96,0,0,0,,0,NONE,0,0,0,0,0,0,0,0,0,0,0,592.21,0,0,0,0,0,0,0,0,0,269.81,0,0,0,0,0,0,0,0,0,0,0,0,0,3,3,0,0,VALID,0,0,0,0,0,1,0,0,0,0,0,0,0,0,0,0,0,0,0,0,306.56,1065.95,2,0,0.08,0.08,88,10,0.12,0.08,9.02,FLYING,X10-H,0:/Integrated Flight Computer/aircraft/x10_h_cfg.ks (inferred preloaded)
9.32,APPROACH,ILS_TRACK,149.41,152,2.59,670.38,591.89,-1.22,9.22,9.65,269.95,0.07,0.3916,0,10.653,1,0.6,4.5,0.75,0.35,0.0168,0.4,0,22.621,0,-2.59,0,269.94,0,0,1,-0.45,0,0,0,269.95,0.706,-0.001,-0.7082,0,269.94,2.44,-483.06,20.592,-0.056,0,0,3,741.48,6.941,0,1153.48,0,0,0,,0,NONE,0,0,0,0,0,0,0,0,0,0,0,591.89,0,0,0,0,0,0,0,0,0,269.81,0,0,0,0,0,0,0,0,0,0,0,0,0,3,3,0,0,VALID,0,0,0,0,0,1,0,0,0,0,0,0,0,0,0,0,0,0,0,0,311.62,1066.09,2,0,0.08,0.08,91,10,0.12,0.08,9.32,FLYING,X10-H,0:/Integrated Flight Computer/aircraft/x10_h_cfg.ks (inferred preloaded)
9.62,APPROACH,ILS_TRACK,149.45,152,2.55,670.16,591.48,-1.41,9.79,10.37,269.95,0.065,0.3636,0,11.421,1,0.6,4.5,0.75,0.35,0.0168,0.4,0,22.609,0,-2.549,0,269.94,0,0,1,-0.55,0,0,0,269.95,0.706,-0.0011,-0.7082,0,269.94,2.39,-480.81,20.545,-0.061,0,0,3,741.48,7.75,0,1151,0,0,0,,0,NONE,0,0,0,0,0,0,0,0,0,0,0,591.48,0,0,0,0,0,0,0,0,0,269.81,0,0,0,0,0,0,0,0,0,0,0,0,0,3,3,0,0,VALID,0,0,0,0,0,1,0,0,0,0,0,0,0,0,0,0,0,0,0,0,317.38,1066.3,2,0,0.08,0.08,94,10,0.12,0.08,9.62,FLYING,X10-H,0:/Integrated Flight Computer/aircraft/x10_h_cfg.ks (inferred preloaded)
9.92,APPROACH,ILS_TRACK,149.45,152,2.55,669.91,591.13,-1.01,10.3,10.67,269.95,0.057,0.3843,0,12.184,1,0.6,4.5,0.75,0.35,0.0168,0.4,0,22.61,0,-2.55,0,269.95,0,0,1,-0.41,0,0,0,269.95,0.7059,-0.0009,-0.7083,0,269.95,2.34,-478.56,20.497,-0.053,0,0,3,741.48,7.312,0,1148.51,0,0,0,,0,NONE,0,0,0,0,0,0,0,0,0,0,0,591.13,0,0,0,0,0,0,0,0,0,269.81,0,0,0,0,0,0,0,0,0,0,0,0,0,3,3,0,0,VALID,0,0,0,0,0,1,0,0,0,0,0,0,0,0,0,0,0,0,0,0,321.66,1066.31,2,0,0.08,0.08,97,10,0.12,0.08,9.92,FLYING,X10-H,0:/Integrated Flight Computer/aircraft/x10_h_cfg.ks (inferred preloaded)
10.22,APPROACH,ILS_TRACK,149.46,152,2.54,669.56,590.84,-0.9,10.07,10.38,269.95,0.057,0.3884,0,12.951,1,0.6,4.5,0.75,0.35,0.0168,0.4,0,22.608,0,-2.546,0,269.95,0,0,1,-0.35,0,0,0,269.96,0.7059,-0.0009,-0.7083,0,269.95,2.29,-476.42,20.45,-0.05,0,0,3,741.48,7.141,0,1146.02,0,0,0,,0,NONE,0,0,0,0,0,0,0,0,0,0,0,590.84,0,0,0,0,0,0,0,0,0,269.81,0,0,0,0,0,0,0,0,0,0,0,0,0,3,3,0,0,VALID,0,0,0,0,0,1,0,0,0,0,0,0,0,0,0,0,0,0,0,0,327.18,1066.37,2,0,0.08,0.08,100,10,0.12,0.08,10.22,FLYING,X10-H,0:/Integrated Flight Computer/aircraft/x10_h_cfg.ks (inferred preloaded)
10.52,APPROACH,ILS_TRACK,149.53,152,2.47,669.27,590.57,-0.88,9.99,10.32,269.95,0.054,0.3578,0,13.701,1,0.6,4.5,0.75,0.35,0.0168,0.4,0,22.588,0,-2.475,0,269.96,0,0,1,-0.35,0,0,0,269.95,0.7058,-0.0008,-0.7084,0,269.96,2.24,-474.23,20.402,-0.045,0,0,3,741.48,7.43,0,1143.54,0,0,0,,0,NONE,0,0,0,0,0,0,0,0,0,0,0,590.57,0,0,0,0,0,0,0,0,0,269.81,0,0,0,0,0,0,0,0,0,0,0,0,0,3,3,0,0,VALID,0,0,0,0,0,1,0,0,0,0,0,0,0,0,0,0,0,0,0,0,331.92,1066.69,2,0,0.08,0.08,103,10,0.12,0.08,10.52,FLYING,X10-H,0:/Integrated Flight Computer/aircraft/x10_h_cfg.ks (inferred preloaded)
10.82,APPROACH,ILS_TRACK,149.61,152,2.39,669.01,590.32,-0.79,9.94,10.22,269.95,0.054,0.3395,0,14.428,1,0.6,4.5,0.75,0.35,0.0168,0.4,0,22.566,0,-2.394,0,269.95,0,0,1,-0.3,0,0,0,269.95,0.7058,-0.0009,-0.7084,0,269.95,2.19,-472.01,20.355,-0.05,0,0,3,741.48,7.411,0,1141.05,0,0,0,,0,NONE,0,0,0,0,0,0,0,0,0,0,0,590.32,0,0,0,0,0,0,0,0,0,269.81,0,0,0,0,0,0,0,0,0,0,0,0,0,3,3,0,0,VALID,0,0,0,0,0,1,0,0,0,0,0,0,0,0,0,0,0,0,0,0,334.7,1067.05,2,0,0.08,0.08,106,10,0.12,0.08,10.82,FLYING,X10-H,0:/Integrated Flight Computer/aircraft/x10_h_cfg.ks (inferred preloaded)
11.12,APPROACH,ILS_TRACK,149.71,152,2.29,668.76,590.1,-0.75,9.89,10.15,269.95,0.053,0.3219,0,15.126,1,0.6,4.5,0.75,0.35,0.0168,0.4,0,22.538,0,-2.295,0,269.95,0,0,1,-0.28,0,0,0,269.96,0.7057,-0.0009,-0.7085,0,269.95,2.14,-469.77,20.308,-0.05,0,0,3,741.48,7.507,0,1138.56,0,0,0,,0,NONE,0,0,0,0,0,0,0,0,0,0,0,590.1,0,0,0,0,0,0,0,0,0,269.81,0,0,0,0,0,0,0,0,0,0,0,0,0,3,3,0,0,VALID,0,0,0,0,0,1,0,0,0,0,0,0,0,0,0,0,0,0,0,0,336.19,1067.49,2,0,0.08,0.08,109,10,0.12,0.08,11.12,FLYING,X10-H,0:/Integrated Flight Computer/aircraft/x10_h_cfg.ks (inferred preloaded)
11.42,APPROACH,ILS_TRACK,149.81,152,2.19,668.54,589.88,-0.69,9.84,10.08,269.95,0.052,0.314,0,15.794,1,0.6,4.5,0.75,0.35,0.0168,0.4,0,22.509,0,-2.193,0,269.96,0,0,1,-0.26,0,0,0,269.95,0.7057,-0.0008,-0.7086,0,269.96,2.1,-467.5,20.26,-0.044,0,0,3,741.48,7.517,0,1136.07,0,0,0,,0,NONE,0,0,0,0,0,0,0,0,0,0,0,589.88,0,0,0,0,0,0,0,0,0,269.81,0,0,0,0,0,0,0,0,0,0,0,0,0,3,3,0,0,VALID,0,0,0,0,0,1,0,0,0,0,0,0,0,0,0,0,0,0,0,0,336.59,1067.93,2,0,0.08,0.08,112,10,0.12,0.08,11.42,FLYING,X10-H,0:/Integrated Flight Computer/aircraft/x10_h_cfg.ks (inferred preloaded)
11.72,APPROACH,ILS_TRACK,149.92,152,2.08,668.34,589.68,-0.67,9.83,10.08,269.95,0.051,0.3065,0,16.43,1,0.6,4.5,0.75,0.35,0.0168,0.4,0,22.478,0,-2.085,0,269.96,0,0,1,-0.26,0,0,0,269.95,0.7056,-0.0007,-0.7086,0,269.96,2.05,-465.22,20.212,-0.043,0,0,3,741.48,7.669,0,1133.58,0,0,0,,0,NONE,0,0,0,0,0,0,0,0,0,0,0,589.68,0,0,0,0,0,0,0,0,0,269.81,0,0,0,0,0,0,0,0,0,0,0,0,0,3,3,0,0,VALID,0,0,0,0,0,1,0,0,0,0,0,0,0,0,0,0,0,0,0,0,336.38,1068.4,2,0,0.08,0.08,115,10,0.12,0.08,11.72,FLYING,X10-H,0:/Integrated Flight Computer/aircraft/x10_h_cfg.ks (inferred preloaded)
12.02,APPROACH,ILS_TRACK,150.03,152,1.97,668.15,589.5,-0.66,9.81,10.05,269.95,0.051,0.3064,0,17.035,1,0.6,4.5,0.75,0.35,0.0168,0.4,0,22.449,0,-1.981,0,269.96,0,0,1,-0.24,0,0,0,269.96,0.7055,-0.0008,-0.7087,0,269.96,2,-462.91,20.165,-0.044,0,0,3,741.48,7.717,0,1131.09,0,0,0,,0,NONE,0,0,0,0,0,0,0,0,0,0,0,589.5,0,0,0,0,0,0,0,0,0,269.81,0,0,0,0,0,0,0,0,0,0,0,0,0,3,3,0,0,VALID,0,0,0,0,0,1,0,0,0,0,0,0,0,0,0,0,0,0,0,0,335.64,1068.85,2,0,0.08,0.08,118,10,0.12,0.08,12.02,FLYING,X10-H,0:/Integrated Flight Computer/aircraft/x10_h_cfg.ks (inferred preloaded)
12.32,APPROACH,ILS_TRACK,150.11,152,1.89,668.01,589.32,-0.43,10,10.14,269.95,0.049,0.3236,0,17.609,1,0.6,4.5,0.75,0.35,0.0168,0.4,0,22.425,0,-1.895,0,269.97,0,0,1,-0.18,0,0,0,269.96,0.7055,-0.0006,-0.7087,0,269.97,1.96,-460.55,20.117,-0.034,0,0,3,741.48,7.749,0,1128.59,0,0,0,,0,NONE,0,0,0,0,0,0,0,0,0,0,0,589.32,0,0,0,0,0,0,0,0,0,269.81,0,0,0,0,0,0,0,0,0,0,0,0,0,3,3,0,0,VALID,0,0,0,0,0,1,0,0,0,0,0,0,0,0,0,0,0,0,0,0,335,1069.2,2,0,0.08,0.08,121,10,0.12,0.08,12.32,FLYING,X10-H,0:/Integrated Flight Computer/aircraft/x10_h_cfg.ks (inferred preloaded)
12.62,APPROACH,ILS_TRACK,150.19,152,1.81,667.81,589.18,-0.52,9.72,9.9,269.95,0.049,0.3317,0,18.166,1,0.6,4.5,0.75,0.35,0.0168,0.4,0,22.404,0,-1.822,0,269.97,0,0,1,-0.19,0,0,0,269.95,0.7054,-0.0006,-0.7088,0,269.97,1.91,-458.27,20.07,-0.034,0,0,3,741.48,7.72,0,1126.09,0,0,0,,0,NONE,0,0,0,0,0,0,0,0,0,0,0,589.18,0,0,0,0,0,0,0,0,0,269.81,0,0,0,0,0,0,0,0,0,0,0,0,0,3,3,0,0,VALID,0,0,0,0,0,1,0,0,0,0,0,0,0,0,0,0,0,0,0,0,336.2,1069.54,2,0,0.08,0.08,124,10,0.12,0.08,12.62,FLYING,X10-H,0:/Integrated Flight Computer/aircraft/x10_h_cfg.ks (inferred preloaded)
12.92,APPROACH,ILS_TRACK,150.29,152,1.71,667.67,589.04,-0.45,9.75,9.91,269.95,0.048,0.3238,0,18.691,1,0.6,4.5,0.75,0.35,0.0168,0.4,0,22.375,0,-1.717,0,269.97,0,0,1,-0.17,0,0,0,269.96,0.7054,-0.0006,-0.7088,0,269.97,1.87,-455.91,20.022,-0.032,0,0,3,741.48,7.812,0,1123.6,0,0,0,,0,NONE,0,0,0,0,0,0,0,0,0,0,0,589.04,0,0,0,0,0,0,0,0,0,269.81,0,0,0,0,0,0,0,0,0,0,0,0,0,3,3,0,0,VALID,0,0,0,0,0,1,0,0,0,0,0,0,0,0,0,0,0,0,0,0,337.23,1069.99,2,0,0.08,0.08,127,10,0.12,0.08,12.92,FLYING,X10-H,0:/Integrated Flight Computer/aircraft/x10_h_cfg.ks (inferred preloaded)
13.22,APPROACH,ILS_TRACK,150.41,152,1.59,667.53,588.91,-0.45,9.71,9.87,269.95,0.047,0.3119,0,19.183,1,0.6,4.5,0.75,0.35,0.0168,0.4,0,22.342,0,-1.602,0,269.96,0,0,1,-0.17,0,0,0,269.96,0.7053,-0.0006,-0.7089,0,269.96,1.83,-453.55,19.974,-0.036,0,0,3,741.48,7.881,0,1121.1,0,0,0,,0,NONE,0,0,0,0,0,0,0,0,0,0,0,588.91,0,0,0,0,0,0,0,0,0,269.81,0,0,0,0,0,0,0,0,0,0,0,0,0,3,3,0,0,VALID,0,0,0,0,0,1,0,0,0,0,0,0,0,0,0,0,0,0,0,0,337.75,1070.48,2,0,0.08,0.08,130,10,0.12,0.08,13.22,FLYING,X10-H,0:/Integrated Flight Computer/aircraft/x10_h_cfg.ks (inferred preloaded)
13.52,APPROACH,ILS_TRACK,150.53,152,1.47,667.4,588.79,-0.4,9.7,9.85,269.95,0.045,0.3027,0,19.64,1,0.6,4.5,0.75,0.35,0.0168,0.4,0,22.309,0,-1.482,0,269.97,0,0,1,-0.16,0,0,0,269.97,0.7053,-0.0005,-0.709,0,269.97,1.78,-451.18,19.927,-0.029,0,0,3,741.48,7.944,0,1118.6,0,0,0,,0,NONE,0,0,0,0,0,0,0,0,0,0,0,588.79,0,0,0,0,0,0,0,0,0,269.81,0,0,0,0,0,0,0,0,0,0,0,0,0,3,3,0,0,VALID,0,0,0,0,0,1,0,0,0,0,0,0,0,0,0,0,0,0,0,0,337.24,1071,2,0,0.08,0.08,133,10,0.12,0.08,13.52,FLYING,X10-H,0:/Integrated Flight Computer/aircraft/x10_h_cfg.ks (inferred preloaded)
13.82,APPROACH,ILS_TRACK,150.65,152,1.35,667.28,588.67,-0.35,9.69,9.82,269.95,0.045,0.2961,0,20,1,0.6,4.5,0.75,0.35,0.0168,0.4,0,22.275,0,-1.362,0,269.96,0,0,1,-0.14,0,0,0,269.97,0.7052,-0.0007,-0.709,0,269.96,1.74,-448.79,19.879,-0.038,0,0,3,741.48,7.979,0,1116.09,0,0,0,,0,NONE,0,0,0,0,0,0,0,0,0,0,0,588.67,0,0,0,0,0,0,0,0,0,269.81,0,0,0,0,0,0,0,0,0,0,0,0,0,3,3,0,0,VALID,0,0,0,0,0,1,0,0,0,0,0,0,0,0,0,0,0,0,0,0,335.94,1071.51,2,0,0.08,0.08,136,10,0.12,0.08,13.82,FLYING,X10-H,0:/Integrated Flight Computer/aircraft/x10_h_cfg.ks (inferred preloaded)
14.12,APPROACH,ILS_TRACK,150.76,152,1.24,667.17,588.56,-0.32,9.68,9.79,269.96,0.045,0.2897,0,20,1,0.6,4.5,0.75,0.35,0.0168,0.4,0,22.243,0,-1.248,0,269.97,0,0,1,-0.12,0,0,0,269.97,0.7051,-0.0006,-0.7091,0,269.97,1.69,-446.4,19.831,-0.034,0,0,3,741.48,7.982,0,1113.59,0,0,0,,0,NONE,0,0,0,0,0,0,0,0,0,0,0,588.56,0,0,0,0,0,0,0,0,0,269.81,0,0,0,0,0,0,0,0,0,0,0,0,0,3,3,0,0,VALID,0,0,0,0,0,1,0,0,0,0,0,0,0,0,0,0,0,0,0,0,334.02,1071.99,2,0,0.08,0.08,139,10,0.12,0.08,14.12,FLYING,X10-H,0:/Integrated Flight Computer/aircraft/x10_h_cfg.ks (inferred preloaded)
14.42,APPROACH,ILS_TRACK,150.86,152,1.14,667.07,588.46,-0.31,9.65,9.76,269.96,0.045,0.2878,0,20,1,0.6,4.5,0.75,0.35,0.0168,0.4,0,22.213,0,-1.143,0,269.97,0,0,1,-0.11,0,0,0,269.97,0.7051,-0.0005,-0.7091,0,269.97,1.65,-444,19.783,-0.03,0,0,3,741.48,7.983,0,1111.08,0,0,0,,0,NONE,0,0,0,0,0,0,0,0,0,0,0,588.46,0,0,0,0,0,0,0,0,0,269.81,0,0,0,0,0,0,0,0,0,0,0,0,0,3,3,0,0,VALID,0,0,0,0,0,1,0,0,0,0,0,0,0,0,0,0,0,0,0,0,331.73,1072.44,2,0,0.08,0.08,142,10,0.12,0.08,14.42,FLYING,X10-H,0:/Integrated Flight Computer/aircraft/x10_h_cfg.ks (inferred preloaded)
14.72,APPROACH,ILS_TRACK,150.97,152,1.03,666.97,588.37,-0.31,9.63,9.74,269.96,0.044,0.2842,0,20,1,0.6,4.5,0.75,0.35,0.0168,0.4,0,22.184,0,-1.04,0,269.96,0,0,1,-0.11,0,0,0,269.97,0.705,-0.0007,-0.7092,0,269.96,1.61,-441.59,19.735,-0.043,0,0,3,741.48,8.028,0,1108.57,0,0,0,,0,NONE,0,0,0,0,0,0,0,0,0,0,0,588.37,0,0,0,0,0,0,0,0,0,269.81,0,0,0,0,0,0,0,0,0,0,0,0,0,3,3,0,0,VALID,0,0,0,0,0,1,0,0,0,0,0,0,0,0,0,0,0,0,0,0,329.47,1072.88,2,0,0.08,0.08,145,10,0.12,0.08,14.72,FLYING,X10-H,0:/Integrated Flight Computer/aircraft/x10_h_cfg.ks (inferred preloaded)
15.02,APPROACH,ILS_TRACK,151.06,152,0.94,666.88,588.28,-0.27,9.64,9.73,269.96,0.042,0.2836,0,20,1,0.6,4.5,0.75,0.35,0.0168,0.4,0,22.157,0,-0.943,0,269.97,0,0,1,-0.11,0,0,0,269.98,0.705,-0.0006,-0.7092,0,269.97,1.57,-439.17,19.687,-0.033,0,0,3,741.48,8.105,0,1106.06,0,0,0,,0,NONE,0,0,0,0,0,0,0,0,0,0,0,588.28,0,0,0,0,0,0,0,0,0,269.81,0,0,0,0,0,0,0,0,0,0,0,0,0,3,3,0,0,VALID,0,0,0,0,0,1,0,0,0,0,0,0,0,0,0,0,0,0,0,0,327.07,1073.29,2,0,0.08,0.08,148,10,0.12,0.08,15.02,FLYING,X10-H,0:/Integrated Flight Computer/aircraft/x10_h_cfg.ks (inferred preloaded)
15.32,APPROACH,ILS_TRACK,151.15,152,0.85,666.8,588.2,-0.28,9.61,9.72,269.96,0.043,0.2841,0,20,1,0.6,4.5,0.75,0.35,0.0168,0.4,0,22.131,0,-0.853,0,269.98,0,0,1,-0.1,0,0,0,269.97,0.7049,-0.0004,-0.7093,0,269.98,1.53,-436.74,19.639,-0.021,0,0,3,741.48,8.096,0,1103.55,0,0,0,,0,NONE,0,0,0,0,0,0,0,0,0,0,0,588.2,0,0,0,0,0,0,0,0,0,269.81,0,0,0,0,0,0,0,0,0,0,0,0,0,3,3,0,0,VALID,0,0,0,0,0,1,0,0,0,0,0,0,0,0,0,0,0,0,0,0,324.9,1073.68,2,0,0.08,0.08,151,10,0.12,0.08,15.32,FLYING,X10-H,0:/Integrated Flight Computer/aircraft/x10_h_cfg.ks (inferred preloaded)
15.62,APPROACH,ILS_TRACK,151.24,152,0.76,666.72,588.13,-0.26,9.61,9.7,269.96,0.042,0.2858,0,20,1,0.6,4.5,0.75,0.35,0.0168,0.4,0,22.108,0,-0.77,0,269.97,0,0,1,-0.09,0,0,0,269.98,0.7049,-0.0005,-0.7093,0,269.97,1.49,-434.31,19.591,-0.03,0,0,3,741.48,8.113,0,1101.04,0,0,0,,0,NONE,0,0,0,0,0,0,0,0,0,0,0,588.13,0,0,0,0,0,0,0,0,0,269.81,0,0,0,0,0,0,0,0,0,0,0,0,0,3,3,0,0,VALID,0,0,0,0,0,1,0,0,0,0,0,0,0,0,0,0,0,0,0,0,323.04,1074.03,2,0,0.08,0.08,154,10,0.12,0.08,15.62,FLYING,X10-H,0:/Integrated Flight Computer/aircraft/x10_h_cfg.ks (inferred preloaded)
15.92,APPROACH,ILS_TRACK,151.31,152,0.69,666.65,588.06,-0.2,9.62,9.69,269.96,0.041,0.2879,0,20,1,0.6,4.5,0.75,0.35,0.0168,0.4,0,22.086,0,-0.693,0,269.98,0,0,1,-0.08,0,0,0,269.98,0.7048,-0.0004,-0.7094,0,269.98,1.45,-431.86,19.544,-0.025,0,0,3,741.48,8.173,0,1098.52,0,0,0,,0,NONE,0,0,0,0,0,0,0,0,0,0,0,588.06,0,0,0,0,0,0,0,0,0,269.81,0,0,0,0,0,0,0,0,0,0,0,0,0,3,3,0,0,VALID,0,0,0,0,0,1,0,0,0,0,0,0,0,0,0,0,0,0,0,0,321.54,1074.36,2,0,0.08,0.08,157,10,0.12,0.08,15.92,FLYING,X10-H,0:/Integrated Flight Computer/aircraft/x10_h_cfg.ks (inferred preloaded)
16.22,APPROACH,ILS_TRACK,151.38,152,0.62,666.59,588,-0.21,9.6,9.67,269.96,0.042,0.2896,0,20,1,0.6,4.5,0.75,0.35,0.0168,0.4,0,22.066,0,-0.622,0,269.98,0,0,1,-0.08,0,0,0,269.98,0.7047,-0.0003,-0.7095,0,269.98,1.41,-429.41,19.496,-0.019,0,0,3,741.48,8.159,0,1096.01,0,0,0,,0,NONE,0,0,0,0,0,0,0,0,0,0,0,588,0,0,0,0,0,0,0,0,0,269.81,0,0,0,0,0,0,0,0,0,0,0,0,0,3,3,0,0,VALID,0,0,0,0,0,1,0,0,0,0,0,0,0,0,0,0,0,0,0,0,320.47,1074.66,2,0,0.08,0.08,160,10,0.12,0.08,16.22,FLYING,X10-H,0:/Integrated Flight Computer/aircraft/x10_h_cfg.ks (inferred preloaded)
16.52,APPROACH,ILS_TRACK,151.45,152,0.55,666.53,587.94,-0.2,9.59,9.67,269.96,0.043,0.288,0,20,1,0.6,4.5,0.75,0.35,0.0168,0.4,0,22.046,0,-0.551,0,269.97,0,0,1,-0.08,0,0,0,269.98,0.7047,-0.0005,-0.7095,0,269.97,1.37,-426.96,19.448,-0.031,0,0,3,741.48,8.197,0,1093.49,0,0,0,,0,NONE,0,0,0,0,0,0,0,0,0,0,0,587.94,0,0,0,0,0,0,0,0,0,269.81,0,0,0,0,0,0,0,0,0,0,0,0,0,3,3,0,0,VALID,0,0,0,0,0,1,0,0,0,0,0,0,0,0,0,0,0,0,0,0,319.58,1074.96,2,0,0.08,0.08,163,10,0.12,0.08,16.52,FLYING,X10-H,0:/Integrated Flight Computer/aircraft/x10_h_cfg.ks (inferred preloaded)
16.82,APPROACH,ILS_TRACK,151.52,152,0.48,666.47,587.89,-0.16,9.58,9.63,269.96,0.042,0.2877,0,20,1,0.6,4.5,0.75,0.35,0.0168,0.4,0,22.027,0,-0.484,0,269.98,0,0,1,-0.06,0,0,0,269.98,0.7046,-0.0003,-0.7096,0,269.98,1.33,-424.5,19.399,-0.02,0,0,3,741.48,8.202,0,1090.97,0,0,0,,0,NONE,0,0,0,0,0,0,0,0,0,0,0,587.89,0,0,0,0,0,0,0,0,0,269.81,0,0,0,0,0,0,0,0,0,0,0,0,0,3,3,0,0,VALID,0,0,0,0,0,1,0,0,0,0,0,0,0,0,0,0,0,0,0,0,318.65,1075.25,2,0,0.08,0.08,166,10,0.12,0.08,16.82,FLYING,X10-H,0:/Integrated Flight Computer/aircraft/x10_h_cfg.ks (inferred preloaded)
17.12,APPROACH,ILS_TRACK,151.59,152,0.41,666.42,587.84,-0.14,9.57,9.62,269.96,0.042,0.2861,0,20,1,0.6,4.5,0.75,0.35,0.0168,0.4,0,22.009,0,-0.418,0,269.98,0,0,1,-0.05,0,0,0,269.98,0.7046,-0.0004,-0.7096,0,269.98,1.29,-422.03,19.351,-0.023,0,0,3,741.48,8.227,0,1088.46,0,0,0,,0,NONE,0,0,0,0,0,0,0,0,0,0,0,587.84,0,0,0,0,0,0,0,0,0,269.81,0,0,0,0,0,0,0,0,0,0,0,0,0,3,3,0,0,VALID,0,0,0,0,0,1,0,0,0,0,0,0,0,0,0,0,0,0,0,0,317.71,1075.53,2,0,0.08,0.08,169,10,0.12,0.08,17.12,FLYING,X10-H,0:/Integrated Flight Computer/aircraft/x10_h_cfg.ks (inferred preloaded)
17.42,APPROACH,ILS_TRACK,151.65,152,0.35,666.38,587.8,-0.16,9.56,9.62,269.96,0.041,0.2865,0,20,1,0.6,4.5,0.75,0.35,0.0168,0.4,0,21.992,0,-0.358,0,269.98,0,0,1,-0.05,0,0,0,269.98,0.7045,-0.0004,-0.7097,0,269.98,1.25,-419.55,19.303,-0.022,0,0,3,741.48,8.238,0,1085.94,0,0,0,,0,NONE,0,0,0,0,0,0,0,0,0,0,0,587.8,0,0,0,0,0,0,0,0,0,269.81,0,0,0,0,0,0,0,0,0,0,0,0,0,3,3,0,0,VALID,0,0,0,0,0,1,0,0,0,0,0,0,0,0,0,0,0,0,0,0,316.74,1075.79,2,0,0.08,0.08,172,10,0.12,0.08,17.42,FLYING,X10-H,0:/Integrated Flight Computer/aircraft/x10_h_cfg.ks (inferred preloaded)
17.72,APPROACH,ILS_TRACK,151.7,152,0.3,666.34,587.76,-0.11,9.57,9.61,269.96,0.041,0.2872,0,20,1,0.6,4.5,0.75,0.35,0.0168,0.4,0,21.976,0,-0.301,0,269.99,0,0,1,-0.04,0,0,0,269.99,0.7045,-0.0002,-0.7097,0,269.99,1.21,-417.07,19.255,-0.011,0,0,3,741.48,8.287,0,1083.41,0,0,0,,0,NONE,0,0,0,0,0,0,0,0,0,0,0,587.76,0,0,0,0,0,0,0,0,0,269.81,0,0,0,0,0,0,0,0,0,0,0,0,0,3,3,0,0,VALID,0,0,0,0,0,1,0,0,0,0,0,0,0,0,0,0,0,0,0,0,315.95,1076.03,2,0,0.08,0.08,175,10,0.12,0.08,17.72,FLYING,X10-H,0:/Integrated Flight Computer/aircraft/x10_h_cfg.ks (inferred preloaded)
18.02,APPROACH,ILS_TRACK,151.76,152,0.24,666.3,587.73,-0.11,9.56,9.59,269.96,0.041,0.2839,0,20,1,0.6,4.5,0.75,0.35,0.0168,0.4,0,21.959,0,-0.243,0,269.98,0,0,1,-0.04,0,0,0,269.99,0.7044,-0.0004,-0.7098,0,269.98,1.18,-414.59,19.207,-0.021,0,0,3,741.48,8.289,0,1080.89,0,0,0,,0,NONE,0,0,0,0,0,0,0,0,0,0,0,587.73,0,0,0,0,0,0,0,0,0,269.81,0,0,0,0,0,0,0,0,0,0,0,0,0,3,3,0,0,VALID,0,0,0,0,0,1,0,0,0,0,0,0,0,0,0,0,0,0,0,0,315.24,1076.28,2,0,0.08,0.08,178,10,0.12,0.08,18.02,FLYING,X10-H,0:/Integrated Flight Computer/aircraft/x10_h_cfg.ks (inferred preloaded)
18.32,APPROACH,ILS_TRACK,151.82,152,0.18,666.27,587.7,-0.09,9.55,9.59,269.96,0.041,0.2812,0,20,1,0.6,4.5,0.75,0.35,0.0168,0.4,0,21.943,0,-0.186,0,269.97,0,0,1,-0.03,0,0,0,269.99,0.7043,-0.0005,-0.7099,0,269.97,1.14,-412.09,19.159,-0.028,0,0,3,741.48,8.306,0,1078.37,0,0,0,,0,NONE,0,0,0,0,0,0,0,0,0,0,0,587.7,0,0,0,0,0,0,0,0,0,269.81,0,0,0,0,0,0,0,0,0,0,0,0,0,3,3,0,0,VALID,0,0,0,0,0,1,0,0,0,0,0,0,0,0,0,0,0,0,0,0,314.25,1076.52,2,0,0.08,0.08,181,10,0.12,0.08,18.32,FLYING,X10-H,0:/Integrated Flight Computer/aircraft/x10_h_cfg.ks (inferred preloaded)
18.62,APPROACH,ILS_TRACK,151.87,152,0.13,666.25,587.67,-0.08,9.55,9.58,269.96,0.039,0.28,0,20,1,0.6,4.5,0.75,0.35,0.0168,0.4,0,21.928,0,-0.132,0,269.99,0,0,1,-0.03,0,0,0,269.99,0.7043,-0.0002,-0.7099,0,269.99,1.1,-409.6,19.111,-0.01,0,0,3,741.48,8.329,0,1075.85,0,0,0,,0,NONE,0,0,0,0,0,0,0,0,0,0,0,587.67,0,0,0,0,0,0,0,0,0,269.81,0,0,0,0,0,0,0,0,0,0,0,0,0,3,3,0,0,VALID,0,0,0,0,0,1,0,0,0,0,0,0,0,0,0,0,0,0,0,0,313.11,1076.75,2,0,0.08,0.08,184,10,0.12,0.08,18.62,FLYING,X10-H,0:/Integrated Flight Computer/aircraft/x10_h_cfg.ks (inferred preloaded)
18.92,APPROACH,ILS_TRACK,151.92,152,0.08,666.23,587.65,-0.06,9.55,9.57,269.96,0.039,0.2801,0,20,1,0.6,4.5,0.75,0.35,0.0168,0.4,0,21.914,0,-0.082,0,269.99,0,0,1,-0.02,0,0,0,269.99,0.7042,-0.0002,-0.71,0,269.99,1.06,-407.09,19.063,-0.01,0,0,3,741.48,8.348,0,1073.32,0,0,0,,0,NONE,0,0,0,0,0,0,0,0,0,0,0,587.65,0,0,0,0,0,0,0,0,0,269.81,0,0,0,0,0,0,0,0,0,0,0,0,0,3,3,0,0,VALID,0,0,0,0,0,1,0,0,0,0,0,0,0,0,0,0,0,0,0,0,311.99,1076.96,2,0,0.08,0.08,187,10,0.12,0.08,18.92,FLYING,X10-H,0:/Integrated Flight Computer/aircraft/x10_h_cfg.ks (inferred preloaded)
19.22,APPROACH,ILS_TRACK,151.97,152,0.03,666.21,587.64,-0.05,9.54,9.56,269.96,0.039,0.2805,0,20,1,0.6,4.5,0.75,0.35,0.0168,0.4,0,21.901,0,-0.035,0,269.99,0,0,1,-0.02,0,0,0,269.99,0.7042,-0.0002,-0.71,0,269.99,1.03,-404.59,19.015,-0.01,0,0,3,741.48,8.364,0,1070.8,0,0,0,,0,NONE,0,0,0,0,0,0,0,0,0,0,0,587.64,0,0,0,0,0,0,0,0,0,269.81,0,0,0,0,0,0,0,0,0,0,0,0,0,3,3,0,0,VALID,0,0,0,0,0,1,0,0,0,0,0,0,0,0,0,0,0,0,0,0,311.01,1077.16,2,0,0.08,0.08,190,10,0.12,0.08,19.22,FLYING,X10-H,0:/Integrated Flight Computer/aircraft/x10_h_cfg.ks (inferred preloaded)
19.52,APPROACH,ILS_TRACK,152.01,152,-0.01,666.2,587.62,-0.03,9.54,9.56,269.96,0.039,0.281,0,19.999,1,0.6,4.5,0.75,0.35,0.0168,0.4,0,21.889,0,0.008,0,269.99,0,0,1,-0.01,0,0,0,269.99,0.7041,-0.0002,-0.7101,0,269.99,0.99,-402.08,18.966,-0.011,0,0,3,741.48,8.376,0,1068.28,0,0,0,,0,NONE,0,0,0,0,0,0,0,0,0,0,0,587.62,0,0,0,0,0,0,0,0,0,269.81,0,0,0,0,0,0,0,0,0,0,0,0,0,3,3,0,0,VALID,0,0,0,0,0,1,0,0,0,0,0,0,0,0,0,0,0,0,0,0,310.17,1077.34,2,0,0.08,0.08,193,10,0.12,0.08,19.52,FLYING,X10-H,0:/Integrated Flight Computer/aircraft/x10_h_cfg.ks (inferred preloaded)
19.82,APPROACH,ILS_TRACK,152.05,152,-0.05,666.19,587.62,-0.02,9.54,9.54,269.96,0.038,0.2812,0,19.988,1,0.6,4.5,0.75,0.35,0.0168,0.4,0,21.877,0,0.049,0,269.99,0,0,1,-0.01,0,0,0,269.99,0.7041,-0.0002,-0.7101,0,269.99,0.96,-399.56,18.918,-0.012,0,0,3,741.48,8.391,0,1065.75,0,0,0,,0,NONE,0,0,0,0,0,0,0,0,0,0,0,587.62,0,0,0,0,0,0,0,0,0,269.81,0,0,0,0,0,0,0,0,0,0,0,0,0,3,3,0,0,VALID,0,0,0,0,0,1,0,0,0,0,0,0,0,0,0,0,0,0,0,0,309.47,1077.51,2,0,0.08,0.08,196,10,0.12,0.08,19.82,FLYING,X10-H,0:/Integrated Flight Computer/aircraft/x10_h_cfg.ks (inferred preloaded)
20.12,APPROACH,ILS_TRACK,152.09,152,-0.09,666.18,587.61,-0.01,9.54,9.54,269.96,0.038,0.2809,0,19.966,1,0.6,4.5,0.75,0.35,0.0168,0.4,0,21.866,0,0.089,0,269.99,0,0,1,0,0,0,0,269.99,0.704,-0.0002,-0.7102,0,269.99,0.93,-397.04,18.87,-0.012,0,0,3,741.48,8.412,0,1063.22,0,0,0,,0,NONE,0,0,0,0,0,0,0,0,0,0,0,587.61,0,0,0,0,0,0,0,0,0,269.81,0,0,0,0,0,0,0,0,0,0,0,0,0,3,3,0,0,VALID,0,0,0,0,0,1,0,0,0,0,0,0,0,0,0,0,0,0,0,0,308.85,1077.68,2,0,0.08,0.08,199,10,0.12,0.08,20.12,FLYING,X10-H,0:/Integrated Flight Computer/aircraft/x10_h_cfg.ks (inferred preloaded)
20.42,APPROACH,ILS_TRACK,152.13,152,-0.13,666.18,587.61,0,9.53,9.53,269.96,0.039,0.2802,0,19.932,1,0.6,4.5,0.75,0.35,0.0168,0.4,0,21.855,0,0.126,0,270,0,0,1,0,0,0,0,269.99,0.7039,-0.0001,-0.7103,0,270,0.89,-394.51,18.822,-0.005,0,0,3,741.48,8.428,0,1060.7,0,0,0,,0,NONE,0,0,0,0,0,0,0,0,0,0,0,587.61,0,0,0,0,0,0,0,0,0,269.81,0,0,0,0,0,0,0,0,0,0,0,0,0,3,3,0,0,VALID,0,0,0,0,0,1,0,0,0,0,0,0,0,0,0,0,0,0,0,0,308.25,1077.84,2,0,0.08,0.08,202,10,0.12,0.08,20.42,FLYING,X10-H,0:/Integrated Flight Computer/aircraft/x10_h_cfg.ks (inferred preloaded)
20.72,APPROACH,ILS_TRACK,152.16,152,-0.16,666.19,587.62,0.02,9.53,9.53,269.96,0.04,0.2794,0,19.887,1,0.6,4.5,0.75,0.35,0.0168,0.4,0,21.846,0,0.161,0,270,0,0,1,0.01,0,0,0,269.99,0.7039,-0.0001,-0.7103,0,270,0.85,-391.98,18.773,-0.005,0,0,3,741.48,8.441,0,1058.17,0,0,0,,0,NONE,0,0,0,0,0,0,0,0,0,0,0,587.62,0,0,0,0,0,0,0,0,0,269.81,0,0,0,0,0,0,0,0,0,0,0,0,0,3,3,0,0,VALID,0,0,0,0,0,1,0,0,0,0,0,0,0,0,0,0,0,0,0,0,307.63,1077.98,2,0,0.08,0.08,205,10,0.12,0.08,20.72,FLYING,X10-H,0:/Integrated Flight Computer/aircraft/x10_h_cfg.ks (inferred preloaded)
21.02,APPROACH,ILS_TRACK,152.2,152,-0.2,666.19,587.62,0.03,9.53,9.52,269.97,0.041,0.2787,0,19.832,1,0.6,4.5,0.75,0.35,0.0168,0.4,0,21.836,0,0.194,0,269.99,0,0,1,0.01,0,0,0,269.99,0.7038,-0.0001,-0.7104,0,269.99,0.82,-389.45,18.725,-0.006,0,0,3,741.48,8.452,0,1055.64,0,0,0,,0,NONE,0,0,0,0,0,0,0,0,0,0,0,587.62,0,0,0,0,0,0,0,0,0,269.81,0,0,0,0,0,0,0,0,0,0,0,0,0,3,3,0,0,VALID,0,0,0,0,0,1,0,0,0,0,0,0,0,0,0,0,0,0,0,0,306.99,1078.12,2,0,0.08,0.08,208,10,0.12,0.08,21.02,FLYING,X10-H,0:/Integrated Flight Computer/aircraft/x10_h_cfg.ks (inferred preloaded)
21.32,APPROACH,ILS_TRACK,152.23,152,-0.23,666.2,587.63,0.05,9.53,9.52,269.97,0.041,0.2778,0,19.767,1,0.6,4.5,0.75,0.35,0.0168,0.4,0,21.827,0,0.225,0,269.99,0,0,1,0.01,0,0,0,270,0.7038,-0.0001,-0.7104,0,269.99,0.79,-386.91,18.677,-0.007,0,0,3,741.48,8.469,0,1053.11,0,0,0,,0,NONE,0,0,0,0,0,0,0,0,0,0,0,587.63,0,0,0,0,0,0,0,0,0,269.81,0,0,0,0,0,0,0,0,0,0,0,0,0,3,3,0,0,VALID,0,0,0,0,0,1,0,0,0,0,0,0,0,0,0,0,0,0,0,0,306.35,1078.25,2,0,0.08,0.08,211,10,0.12,0.08,21.32,FLYING,X10-H,0:/Integrated Flight Computer/aircraft/x10_h_cfg.ks (inferred preloaded)
21.62,APPROACH,ILS_TRACK,152.26,152,-0.26,666.22,587.65,0.06,9.53,9.51,269.97,0.04,0.2771,0,19.694,1,0.6,4.5,0.75,0.35,0.0168,0.4,0,21.819,0,0.254,0,270,0,0,1,0.02,0,0,0,270,0.7037,0,-0.7105,0,270,0.75,-384.36,18.629,0.002,0,0,3,741.48,8.484,0,1050.58,0,0,0,,0,NONE,0,0,0,0,0,0,0,0,0,0,0,587.65,0,0,0,0,0,0,0,0,0,269.81,0,0,0,0,0,0,0,0,0,0,0,0,0,3,3,0,0,VALID,0,0,0,0,0,1,0,0,0,0,0,0,0,0,0,0,0,0,0,0,305.67,1078.37,2,0,0.08,0.08,214,10,0.12,0.08,21.62,FLYING,X10-H,0:/Integrated Flight Computer/aircraft/x10_h_cfg.ks (inferred preloaded)
21.92,APPROACH,ILS_TRACK,152.28,152,-0.28,666.24,587.67,0.07,9.53,9.51,269.97,0.042,0.2763,0,19.612,1,0.6,4.5,0.75,0.35,0.0168,0.4,0,21.812,0,0.281,0,270,0,0,1,0.02,0,0,0,270,0.7037,-0.0001,-0.7105,0,270,0.72,-381.82,18.58,-0.004,0,0,3,741.48,8.494,0,1048.05,0,0,0,,0,NONE,0,0,0,0,0,0,0,0,0,0,0,587.67,0,0,0,0,0,0,0,0,0,269.81,0,0,0,0,0,0,0,0,0,0,0,0,0,3,3,0,0,VALID,0,0,0,0,0,1,0,0,0,0,0,0,0,0,0,0,0,0,0,0,304.98,1078.48,2,0,0.08,0.08,217,10,0.12,0.08,21.92,FLYING,X10-H,0:/Integrated Flight Computer/aircraft/x10_h_cfg.ks (inferred preloaded)
22.22,APPROACH,ILS_TRACK,152.31,152,-0.31,666.26,587.69,0.08,9.53,9.5,269.97,0.042,0.2757,0,19.523,1,0.6,4.5,0.75,0.35,0.0168,0.4,0,21.805,0,0.305,0,270,0,0,1,0.03,0,0,0,270,0.7036,0,-0.7106,0,270,0.69,-379.27,18.532,0.003,0,0,3,741.48,8.507,0,1045.52,0,0,0,,0,NONE,0,0,0,0,0,0,0,0,0,0,0,587.69,0,0,0,0,0,0,0,0,0,269.81,0,0,0,0,0,0,0,0,0,0,0,0,0,3,3,0,0,VALID,0,0,0,0,0,1,0,0,0,0,0,0,0,0,0,0,0,0,0,0,304.27,1078.59,2,0,0.08,0.08,220,10,0.12,0.08,22.22,FLYING,X10-H,0:/Integrated Flight Computer/aircraft/x10_h_cfg.ks (inferred preloaded)
22.52,APPROACH,ILS_TRACK,152.33,152,-0.33,666.28,587.71,0.09,9.53,9.5,269.97,0.043,0.2751,0,19.427,1,0.6,4.5,0.75,0.35,0.0168,0.4,0,21.799,0,0.327,0,270,0,0,1,0.03,0,0,0,270.01,0.7035,0,-0.7106,0,270,0.65,-376.71,18.484,0.003,0,0,3,741.48,8.519,0,1042.99,0,0,0,,0,NONE,0,0,0,0,0,0,0,0,0,0,0,587.71,0,0,0,0,0,0,0,0,0,269.81,0,0,0,0,0,0,0,0,0,0,0,0,0,3,3,0,0,VALID,0,0,0,0,0,1,0,0,0,0,0,0,0,0,0,0,0,0,0,0,303.57,1078.68,2,0,0.08,0.08,223,10,0.12,0.08,22.52,FLYING,X10-H,0:/Integrated Flight Computer/aircraft/x10_h_cfg.ks (inferred preloaded)
22.82,APPROACH,ILS_TRACK,152.35,152,-0.35,666.31,587.74,0.1,9.53,9.49,269.97,0.044,0.2746,0,19.325,1,0.6,4.5,0.75,0.35,0.0168,0.4,0,21.793,0,0.347,0,270,0,0,1,0.04,0,0,0,270,0.7035,0,-0.7107,0,270,0.62,-374.15,18.436,0.002,0,0,3,741.48,8.528,0,1040.46,0,0,0,,0,NONE,0,0,0,0,0,0,0,0,0,0,0,587.74,0,0,0,0,0,0,0,0,0,269.81,0,0,0,0,0,0,0,0,0,0,0,0,0,3,3,0,0,VALID,0,0,0,0,0,1,0,0,0,0,0,0,0,0,0,0,0,0,0,0,302.89,1078.76,2,0,0.08,0.08,226,10,0.12,0.08,22.82,FLYING,X10-H,0:/Integrated Flight Computer/aircraft/x10_h_cfg.ks (inferred preloaded)
23.12,APPROACH,ILS_TRACK,152.37,152,-0.37,666.34,587.77,0.11,9.53,9.49,269.97,0.045,0.2741,0,19.217,1,0.6,4.5,0.75,0.35,0.0168,0.4,0,21.788,0,0.365,0,270,0,0,1,0.04,0,0,0,270,0.7034,0,-0.7108,0,270,0.59,-371.59,18.387,-0.003,0,0,3,741.48,8.541,0,1037.93,0,0,0,,0,NONE,0,0,0,0,0,0,0,0,0,0,0,587.77,0,0,0,0,0,0,0,0,0,269.81,0,0,0,0,0,0,0,0,0,0,0,0,0,3,3,0,0,VALID,0,0,0,0,0,1,0,0,0,0,0,0,0,0,0,0,0,0,0,0,302.22,1078.83,2,0,0.08,0.08,229,10,0.12,0.08,23.12,FLYING,X10-H,0:/Integrated Flight Computer/aircraft/x10_h_cfg.ks (inferred preloaded)
23.42,APPROACH,ILS_TRACK,152.38,152,-0.38,666.38,587.81,0.12,9.53,9.49,269.97,0.046,0.2737,0,19.104,1,0.6,4.5,0.75,0.35,0.0168,0.4,0,21.784,0,0.38,0,270,0,0,1,0.04,0,0,0,270,0.7034,0,-0.7108,0,270,0.56,-369.03,18.339,0.001,0,0,3,741.48,8.554,0,1035.4,0,0,0,,0,NONE,0,0,0,0,0,0,0,0,0,0,0,587.81,0,0,0,0,0,0,0,0,0,269.81,0,0,0,0,0,0,0,0,0,0,0,0,0,3,3,0,0,VALID,0,0,0,0,0,1,0,0,0,0,0,0,0,0,0,0,0,0,0,0,301.56,1078.89,2,0,0.08,0.08,232,10,0.12,0.08,23.42,FLYING,X10-H,0:/Integrated Flight Computer/aircraft/x10_h_cfg.ks (inferred preloaded)
23.72,APPROACH,ILS_TRACK,152.39,152,-0.39,666.41,587.84,0.13,9.53,9.49,269.97,0.047,0.2733,0,18.987,1,0.6,4.5,0.75,0.35,0.0168,0.4,0,21.78,0,0.394,0,270,0,0,1,0.05,0,0,0,270,0.7033,0,-0.7109,0,270,0.53,-366.46,18.291,-0.002,0,0,3,741.48,8.564,0,1032.87,0,0,0,,0,NONE,0,0,0,0,0,0,0,0,0,0,0,587.84,0,0,0,0,0,0,0,0,0,269.81,0,0,0,0,0,0,0,0,0,0,0,0,0,3,3,0,0,VALID,0,0,0,0,0,1,0,0,0,0,0,0,0,0,0,0,0,0,0,0,300.93,1078.95,2,0,0.08,0.08,235,10,0.12,0.08,23.72,FLYING,X10-H,0:/Integrated Flight Computer/aircraft/x10_h_cfg.ks (inferred preloaded)
24.02,APPROACH,ILS_TRACK,152.41,152,-0.41,666.46,587.88,0.14,9.53,9.48,269.97,0.047,0.273,0,18.867,1,0.6,4.5,0.75,0.35,0.0168,0.4,0,21.777,0,0.405,0,270.01,0,0,1,0.05,0,0,0,270,0.7033,0.0001,-0.7109,0,270.01,0.5,-363.88,18.242,0.009,0,0,3,741.48,8.579,0,1030.33,0,0,0,,0,NONE,0,0,0,0,0,0,0,0,0,0,0,587.88,0,0,0,0,0,0,0,0,0,269.81,0,0,0,0,0,0,0,0,0,0,0,0,0,3,3,0,0,VALID,0,0,0,0,0,1,0,0,0,0,0,0,0,0,0,0,0,0,0,0,300.32,1078.99,2,0,0.08,0.08,238,10,0.12,0.08,24.02,FLYING,X10-H,0:/Integrated Flight Computer/aircraft/x10_h_cfg.ks (inferred preloaded)
24.32,APPROACH,ILS_TRACK,152.41,152,-0.41,666.5,587.93,0.15,9.53,9.48,269.97,0.048,0.2728,0,18.743,1,0.6,4.5,0.75,0.35,0.0168,0.4,0,21.774,0,0.414,0,270.01,0,0,1,0.06,0,0,0,270,0.7032,0.0002,-0.711,0,270.01,0.47,-361.31,18.194,0.011,0,0,3,741.48,8.586,0,1027.8,0,0,0,,0,NONE,0,0,0,0,0,0,0,0,0,0,0,587.93,0,0,0,0,0,0,0,0,0,269.81,0,0,0,0,0,0,0,0,0,0,0,0,0,3,3,0,0,VALID,0,0,0,0,0,1,0,0,0,0,0,0,0,0,0,0,0,0,0,0,299.74,1079.03,2,0,0.08,0.08,241,10,0.12,0.08,24.32,FLYING,X10-H,0:/Integrated Flight Computer/aircraft/x10_h_cfg.ks (inferred preloaded)
24.62,APPROACH,ILS_TRACK,152.42,152,-0.42,666.54,587.97,0.17,9.54,9.48,269.97,0.049,0.2729,0,18.618,1,0.6,4.5,0.75,0.35,0.0168,0.4,0,21.772,0,0.421,0,270,0,0,1,0.06,0,0,0,270.01,0.7031,0.0001,-0.711,0,270,0.44,-358.73,18.146,0.004,0,0,3,741.48,8.625,0,1025.27,0,0,0,,0,NONE,0,0,0,0,0,0,0,0,0,0,0,587.97,0,0,0,0,0,0,0,0,0,269.81,0,0,0,0,0,0,0,0,0,0,0,0,0,3,3,0,0,VALID,0,0,0,0,0,1,0,0,0,0,0,0,0,0,0,0,0,0,0,0,299.19,1079.05,2,0,0.08,0.08,244,10,0.12,0.08,24.62,FLYING,X10-H,0:/Integrated Flight Computer/aircraft/x10_h_cfg.ks (inferred preloaded)
24.92,APPROACH,ILS_TRACK,152.42,152,-0.42,666.59,588.02,0.17,9.54,9.48,269.97,0.051,0.2744,0,18.491,1,0.6,4.5,0.75,0.35,0.0168,0.4,0,21.772,0,0.423,0,270.01,0,0,1,0.06,0,0,0,270,0.7031,0.0001,-0.7111,0,270.01,0.42,-356.15,18.097,0.005,0,0,3,741.48,8.602,0,1022.74,0,0,0,,0,NONE,0,0,0,0,0,0,0,0,0,0,0,588.02,0,0,0,0,0,0,0,0,0,269.81,0,0,0,0,0,0,0,0,0,0,0,0,0,3,3,0,0,VALID,0,0,0,0,0,1,0,0,0,0,0,0,0,0,0,0,0,0,0,0,298.79,1079.05,2,0,0.08,0.08,247,10,0.12,0.08,24.92,FLYING,X10-H,0:/Integrated Flight Computer/aircraft/x10_h_cfg.ks (inferred preloaded)
25.22,APPROACH,ILS_TRACK,152.43,152,-0.43,666.64,588.07,0.18,9.54,9.47,269.97,0.052,0.2732,0,18.363,1,0.6,4.5,0.75,0.35,0.0168,0.4,0,21.771,0,0.427,0,270.01,0,0,1,0.07,0,0,0,270.01,0.703,0.0001,-0.7112,0,270.01,0.39,-353.57,18.049,0.008,0,0,3,741.48,8.616,0,1020.21,0,0,0,,0,NONE,0,0,0,0,0,0,0,0,0,0,0,588.07,0,0,0,0,0,0,0,0,0,269.81,0,0,0,0,0,0,0,0,0,0,0,0,0,3,3,0,0,VALID,0,0,0,0,0,1,0,0,0,0,0,0,0,0,0,0,0,0,0,0,298.49,1079.06,2,0,0.08,0.08,250,10,0.12,0.08,25.22,FLYING,X10-H,0:/Integrated Flight Computer/aircraft/x10_h_cfg.ks (inferred preloaded)
25.52,APPROACH,ILS_TRACK,152.43,152,-0.43,666.7,588.13,0.16,9.53,9.47,269.98,0.055,0.2723,0,18.235,1,0.6,4.5,0.75,0.35,0.0168,0.4,0,21.77,0,0.429,0,270,0,0,1,0.07,0,0,0,270.01,0.703,0.0001,-0.7112,0,270,0.36,-350.98,18.001,0.004,0,0,3,741.48,8.607,0,1017.67,0,0,0,,0,NONE,0,0,0,0,0,0,0,0,0,0,0,588.13,0,0,0,0,0,0,0,0,0,269.81,0,0,0,0,0,0,0,0,0,0,0,0,0,3,3,0,0,VALID,0,0,0,0,0,1,0,0,0,0,0,0,0,0,0,0,0,0,0,0,298.08,1079.07,2,0,0.08,0.08,253,10,0.12,0.08,25.52,FLYING,X10-H,0:/Integrated Flight Computer/aircraft/x10_h_cfg.ks (inferred preloaded)
25.82,APPROACH,ILS_TRACK,152.43,152,-0.43,666.76,588.18,0.19,9.54,9.48,269.98,0.054,0.2722,0,18.106,1,0.6,4.5,0.75,0.35,0.0168,0.4,0,21.77,0,0.429,0,270.01,0,0,1,0.07,0,0,0,270.01,0.7029,0.0001,-0.7113,0,270.01,0.33,-348.39,17.953,0.006,0,0,3,741.48,8.63,0,1015.14,0,0,0,,0,NONE,0,0,0,0,0,0,0,0,0,0,0,588.18,0,0,0,0,0,0,0,0,0,269.81,0,0,0,0,0,0,0,0,0,0,0,0,0,3,3,0,0,VALID,0,0,0,0,0,1,0,0,0,0,0,0,0,0,0,0,0,0,0,0,297.65,1079.07,2,0,0.08,0.08,256,10,0.12,0.08,25.82,FLYING,X10-H,0:/Integrated Flight Computer/aircraft/x10_h_cfg.ks (inferred preloaded)
26.12,APPROACH,ILS_TRACK,152.43,152,-0.43,666.81,588.24,0.2,9.54,9.47,269.98,0.055,0.2708,0,17.977,1,0.6,4.5,0.75,0.35,0.0168,0.4,0,21.77,0,0.429,0,270.02,0,0,1,0.07,0,0,0,270,0.7029,0.0003,-0.7113,0,270.02,0.31,-345.8,17.904,0.018,0,0,3,741.48,8.639,0,1012.61,0,0,0,,0,NONE,0,0,0,0,0,0,0,0,0,0,0,588.24,0,0,0,0,0,0,0,0,0,269.81,0,0,0,0,0,0,0,0,0,0,0,0,0,3,3,0,0,VALID,0,0,0,0,0,1,0,0,0,0,0,0,0,0,0,0,0,0,0,0,297.2,1079.06,2,0,0.08,0.08,259,10,0.12,0.08,26.12,FLYING,X10-H,0:/Integrated Flight Computer/aircraft/x10_h_cfg.ks (inferred preloaded)
26.42,APPROACH,ILS_TRACK,152.43,152,-0.43,666.87,588.3,0.22,9.55,9.47,269.98,0.055,0.2704,0,17.849,1,0.6,4.5,0.75,0.35,0.0168,0.4,0,21.77,0,0.428,0,270.02,0,0,1,0.08,0,0,0,270,0.7028,0.0003,-0.7114,0,270.02,0.28,-343.21,17.856,0.019,0,0,3,741.48,8.661,0,1010.08,0,0,0,,0,NONE,0,0,0,0,0,0,0,0,0,0,0,588.3,0,0,0,0,0,0,0,0,0,269.81,0,0,0,0,0,0,0,0,0,0,0,0,0,3,3,0,0,VALID,0,0,0,0,0,1,0,0,0,0,0,0,0,0,0,0,0,0,0,0,296.67,1079.05,2,0,0.08,0.08,262,10,0.12,0.08,26.42,FLYING,X10-H,0:/Integrated Flight Computer/aircraft/x10_h_cfg.ks (inferred preloaded)
26.72,APPROACH,ILS_TRACK,152.42,152,-0.42,666.94,588.36,0.21,9.54,9.47,269.98,0.058,0.2707,0,17.721,1,0.6,4.5,0.75,0.35,0.0168,0.4,0,21.772,0,0.423,0,270.01,0,0,1,0.08,0,0,0,270.01,0.7027,0.0002,-0.7114,0,270.01,0.26,-340.62,17.808,0.009,0,0,3,741.48,8.66,0,1007.54,0,0,0,,0,NONE,0,0,0,0,0,0,0,0,0,0,0,588.36,0,0,0,0,0,0,0,0,0,269.81,0,0,0,0,0,0,0,0,0,0,0,0,0,3,3,0,0,VALID,0,0,0,0,0,1,0,0,0,0,0,0,0,0,0,0,0,0,0,0,296.19,1079.03,2,0,0.08,0.08,265,10,0.12,0.08,26.72,FLYING,X10-H,0:/Integrated Flight Computer/aircraft/x10_h_cfg.ks (inferred preloaded)
27.02,APPROACH,ILS_TRACK,152.42,152,-0.42,667,588.42,0.23,9.55,9.47,269.98,0.059,0.2714,0,17.595,1,0.6,4.5,0.75,0.35,0.0168,0.4,0,21.773,0,0.417,0,270,0,0,1,0.08,0,0,0,270.02,0.7027,0.0001,-0.7115,0,270,0.23,-338.02,17.759,0.004,0,0,3,741.48,8.662,0,1005.01,0,0,0,,0,NONE,0,0,0,0,0,0,0,0,0,0,0,588.42,0,0,0,0,0,0,0,0,0,269.81,0,0,0,0,0,0,0,0,0,0,0,0,0,3,3,0,0,VALID,0,0,0,0,0,1,0,0,0,0,0,0,0,0,0,0,0,0,0,0,295.79,1078.99,2,0,0.08,0.08,268,10,0.12,0.08,27.02,FLYING,X10-H,0:/Integrated Flight Computer/aircraft/x10_h_cfg.ks (inferred preloaded)
27.32,APPROACH,ILS_TRACK,152.41,152,-0.41,667.07,588.49,0.23,9.55,9.47,269.98,0.06,0.2716,0,17.472,1,0.6,4.5,0.75,0.35,0.0168,0.4,0,21.775,0,0.41,0,270,0,0,1,0.08,0,0,0,270.01,0.7026,0.0001,-0.7116,0,270,0.21,-335.42,17.711,0.005,0,0,3,741.48,8.662,0,1002.48,0,0,0,,0,NONE,0,0,0,0,0,0,0,0,0,0,0,588.49,0,0,0,0,0,0,0,0,0,269.81,0,0,0,0,0,0,0,0,0,0,0,0,0,3,3,0,0,VALID,0,0,0,0,0,1,0,0,0,0,0,0,0,0,0,0,0,0,0,0,295.48,1078.96,2,0,0.08,0.08,271,10,0.12,0.08,27.32,FLYING,X10-H,0:/Integrated Flight Computer/aircraft/x10_h_cfg.ks (inferred preloaded)
27.62,APPROACH,ILS_TRACK,152.4,152,-0.4,667.14,588.56,0.23,9.55,9.47,269.98,0.059,0.2707,0,17.35,1,0.6,4.5,0.75,0.35,0.0168,0.4,0,21.777,0,0.403,0,270.02,0,0,1,0.09,0,0,0,270.01,0.7026,0.0003,-0.7116,0,270.02,0.18,-332.82,17.663,0.019,0,0,3,741.48,8.674,0,999.95,0,0,0,,0,NONE,0,0,0,0,0,0,0,0,0,0,0,588.56,0,0,0,0,0,0,0,0,0,269.81,0,0,0,0,0,0,0,0,0,0,0,0,0,3,3,0,0,VALID,0,0,0,0,0,1,0,0,0,0,0,0,0,0,0,0,0,0,0,0,295.2,1078.92,2,0,0.08,0.08,274,10,0.12,0.08,27.62,FLYING,X10-H,0:/Integrated Flight Computer/aircraft/x10_h_cfg.ks (inferred preloaded)
27.92,APPROACH,ILS_TRACK,152.4,152,-0.4,667.21,588.63,0.23,9.56,9.47,269.98,0.06,0.2698,0,17.231,1,0.6,4.5,0.75,0.35,0.0168,0.4,0,21.779,0,0.396,0,270.02,0,0,1,0.09,0,0,0,270.01,0.7025,0.0003,-0.7117,0,270.02,0.16,-330.22,17.614,0.017,0,0,3,741.48,8.678,0,997.42,0,0,0,,0,NONE,0,0,0,0,0,0,0,0,0,0,0,588.63,0,0,0,0,0,0,0,0,0,269.81,0,0,0,0,0,0,0,0,0,0,0,0,0,3,3,0,0,VALID,0,0,0,0,0,1,0,0,0,0,0,0,0,0,0,0,0,0,0,0,294.85,1078.89,2,0,0.08,0.08,277,10,0.12,0.08,27.92,FLYING,X10-H,0:/Integrated Flight Computer/aircraft/x10_h_cfg.ks (inferred preloaded)
28.22,APPROACH,ILS_TRACK,152.39,152,-0.39,667.28,588.7,0.24,9.56,9.47,269.98,0.061,0.2693,0,17.114,1,0.6,4.5,0.75,0.35,0.0168,0.4,0,21.782,0,0.387,0,270.01,0,0,1,0.09,0,0,0,270.02,0.7025,0.0001,-0.7117,0,270.01,0.14,-327.62,17.566,0.008,0,0,3,741.48,8.675,0,994.89,0,0,0,,0,NONE,0,0,0,0,0,0,0,0,0,0,0,588.7,0,0,0,0,0,0,0,0,0,269.81,0,0,0,0,0,0,0,0,0,0,0,0,0,3,3,0,0,VALID,0,0,0,0,0,1,0,0,0,0,0,0,0,0,0,0,0,0,0,0,294.44,1078.85,2,0,0.08,0.08,280,10,0.12,0.08,28.22,FLYING,X10-H,0:/Integrated Flight Computer/aircraft/x10_h_cfg.ks (inferred preloaded)
28.52,APPROACH,ILS_TRACK,152.38,152,-0.38,667.35,588.77,0.25,9.57,9.48,269.98,0.061,0.2695,0,16.999,1,0.6,4.5,0.75,0.35,0.0168,0.4,0,21.785,0,0.377,0,270.01,0,0,1,0.09,0,0,0,270,0.7024,0.0002,-0.7118,0,270.01,0.12,-325.01,17.518,0.011,0,0,3,741.48,8.699,0,992.35,0,0,0,,0,NONE,0,0,0,0,0,0,0,0,0,0,0,588.77,0,0,0,0,0,0,0,0,0,269.81,0,0,0,0,0,0,0,0,0,0,0,0,0,3,3,0,0,VALID,0,0,0,0,0,1,0,0,0,0,0,0,0,0,0,0,0,0,0,0,294.03,1078.8,2,0,0.08,0.08,283,10,0.12,0.08,28.52,FLYING,X10-H,0:/Integrated Flight Computer/aircraft/x10_h_cfg.ks (inferred preloaded)
28.82,APPROACH,ILS_TRACK,152.36,152,-0.36,667.43,588.85,0.25,9.56,9.48,269.99,0.062,0.2702,0,16.888,1,0.6,4.5,0.75,0.35,0.0168,0.4,0,21.788,0,0.365,0,270.02,0,0,1,0.09,0,0,0,270.01,0.7023,0.0003,-0.7118,0,270.02,0.1,-322.4,17.469,0.016,0,0,3,741.48,8.69,0,989.82,0,0,0,,0,NONE,0,0,0,0,0,0,0,0,0,0,0,588.85,0,0,0,0,0,0,0,0,0,269.81,0,0,0,0,0,0,0,0,0,0,0,0,0,3,3,0,0,VALID,0,0,0,0,0,1,0,0,0,0,0,0,0,0,0,0,0,0,0,0,293.71,1078.74,2,0,0.08,0.08,286,10,0.12,0.08,28.82,FLYING,X10-H,0:/Integrated Flight Computer/aircraft/x10_h_cfg.ks (inferred preloaded)
29.12,APPROACH,ILS_TRACK,152.35,152,-0.35,667.51,588.92,0.26,9.57,9.48,269.99,0.063,0.2704,0,16.781,1,0.6,4.5,0.75,0.35,0.0168,0.4,0,21.791,0,0.353,0,270.01,0,0,1,0.09,0,0,0,270.02,0.7023,0.0002,-0.7119,0,270.01,0.08,-319.8,17.421,0.013,0,0,3,741.48,8.693,0,987.29,0,0,0,,0,NONE,0,0,0,0,0,0,0,0,0,0,0,588.92,0,0,0,0,0,0,0,0,0,269.81,0,0,0,0,0,0,0,0,0,0,0,0,0,3,3,0,0,VALID,0,0,0,0,0,1,0,0,0,0,0,0,0,0,0,0,0,0,0,0,293.47,1078.68,2,0,0.08,0.08,289,10,0.12,0.08,29.12,FLYING,X10-H,0:/Integrated Flight Computer/aircraft/x10_h_cfg.ks (inferred preloaded)
29.42,APPROACH,ILS_TRACK,152.34,152,-0.34,667.58,589,0.27,9.57,9.48,269.99,0.064,0.2708,0,16.678,1,0.6,4.5,0.75,0.35,0.0168,0.4,0,21.795,0,0.34,0,270.02,0,0,1,0.1,0,0,0,270.01,0.7022,0.0004,-0.7119,0,270.02,0.06,-317.19,17.373,0.02,0,0,3,741.48,8.711,0,984.76,0,0,0,,0,NONE,0,0,0,0,0,0,0,0,0,0,0,589,0,0,0,0,0,0,0,0,0,269.81,0,0,0,0,0,0,0,0,0,0,0,0,0,3,3,0,0,VALID,0,0,0,0,0,1,0,0,0,0,0,0,0,0,0,0,0,0,0,0,293.28,1078.62,2,0,0.08,0.08,292,10,0.12,0.08,29.42,FLYING,X10-H,0:/Integrated Flight Computer/aircraft/x10_h_cfg.ks (inferred preloaded)
29.72,APPROACH,ILS_TRACK,152.32,152,-0.32,667.66,589.08,0.24,9.56,9.48,269.99,0.066,0.2716,0,16.579,1,0.6,4.5,0.75,0.35,0.0168,0.4,0,21.799,0,0.325,0,270.02,0,0,1,0.09,0,0,0,270.01,0.7022,0.0003,-0.712,0,270.02,0.04,-314.58,17.325,0.017,0,0,3,741.48,8.708,0,982.23,0,0,0,,0,NONE,0,0,0,0,0,0,0,0,0,0,0,589.08,0,0,0,0,0,0,0,0,0,269.81,0,0,0,0,0,0,0,0,0,0,0,0,0,3,3,0,0,VALID,0,0,0,0,0,1,0,0,0,0,0,0,0,0,0,0,0,0,0,0,293.17,1078.55,2,0,0.08,0.08,295,10,0.12,0.08,29.72,FLYING,X10-H,0:/Integrated Flight Computer/aircraft/x10_h_cfg.ks (inferred preloaded)
30.02,APPROACH,ILS_TRACK,152.31,152,-0.31,667.74,589.16,0.27,9.58,9.49,269.99,0.065,0.2725,0,16.485,1,0.6,4.5,0.75,0.35,0.0168,0.4,0,21.804,0,0.309,0,270.01,0,0,1,0.1,0,0,0,270.01,0.7021,0.0002,-0.7121,0,270.01,0.02,-311.96,17.276,0.011,0,0,3,741.48,8.705,0,979.7,0,0,0,,0,NONE,0,0,0,0,0,0,0,0,0,0,0,589.16,0,0,0,0,0,0,0,0,0,269.81,0,0,0,0,0,0,0,0,0,0,0,0,0,3,3,0,0,VALID,0,0,0,0,0,1,0,0,0,0,0,0,0,0,0,0,0,0,0,0,293.18,1078.48,2,0,0.08,0.08,298,10,0.12,0.08,30.02,FLYING,X10-H,0:/Integrated Flight Computer/aircraft/x10_h_cfg.ks (inferred preloaded)
30.32,APPROACH,ILS_TRACK,152.29,152,-0.29,667.83,589.24,0.27,9.58,9.49,269.99,0.065,0.2722,0,16.395,1,0.6,4.5,0.75,0.35,0.0168,0.4,0,21.808,0,0.294,0,270.02,0,0,1,0.1,0,0,0,270,0.7021,0.0003,-0.7121,0,270.02,0.01,-309.35,17.228,0.019,0,0,3,741.48,8.719,0,977.17,0,0,0,,0,NONE,0,0,0,0,0,0,0,0,0,0,0,589.24,0,0,0,0,0,0,0,0,0,269.81,0,0,0,0,0,0,0,0,0,0,0,0,0,3,3,0,0,VALID,0,0,0,0,0,1,0,0,0,0,0,0,0,0,0,0,0,0,0,0,293.19,1078.41,2,0,0.08,0.08,301,10,0.12,0.08,30.32,FLYING,X10-H,0:/Integrated Flight Computer/aircraft/x10_h_cfg.ks (inferred preloaded)
30.62,APPROACH,ILS_TRACK,152.28,152,-0.28,667.91,589.32,0.28,9.59,9.49,269.99,0.065,0.2727,0,16.31,1,0.6,4.5,0.75,0.35,0.0168,0.4,0,21.813,0,0.277,0,270.01,0,0,1,0.1,0,0,0,270.02,0.702,0.0002,-0.7122,0,270.01,-0.01,-306.74,17.18,0.01,0,0,3,741.48,8.751,0,974.64,0,0,0,,0,NONE,0,0,0,0,0,0,0,0,0,0,0,589.32,0,0,0,0,0,0,0,0,0,269.81,0,0,0,0,0,0,0,0,0,0,0,0,0,3,3,0,0,VALID,0,0,0,0,0,1,0,0,0,0,0,0,0,0,0,0,0,0,0,0,293.21,1078.33,2,0,0.08,0.08,304,10,0.12,0.08,30.62,FLYING,X10-H,0:/Integrated Flight Computer/aircraft/x10_h_cfg.ks (inferred preloaded)
30.92,APPROACH,ILS_TRACK,152.26,152,-0.26,668,589.4,0.27,9.59,9.51,269.99,0.065,0.2729,0,16.231,1,0.6,4.5,0.75,0.35,0.0168,0.4,0,21.817,0,0.261,0,270.01,0,0,1,0.1,0,0,0,270.01,0.7019,0.0002,-0.7122,0,270.01,-0.02,-304.13,17.131,0.01,0,0,3,741.48,8.722,0,972.11,0,0,0,,0,NONE,0,0,0,0,0,0,0,0,0,0,0,589.4,0,0,0,0,0,0,0,0,0,269.81,0,0,0,0,0,0,0,0,0,0,0,0,0,3,3,0,0,VALID,0,0,0,0,0,1,0,0,0,0,0,0,0,0,0,0,0,0,0,0,293.26,1078.26,2,0,0.08,0.08,307,10,0.12,0.08,30.92,FLYING,X10-H,0:/Integrated Flight Computer/aircraft/x10_h_cfg.ks (inferred preloaded)
31.22,APPROACH,ILS_TRACK,152.24,152,-0.24,668.08,589.49,0.25,9.57,9.49,269.99,0.065,0.2745,0,16.156,1,0.6,4.5,0.75,0.35,0.0168,0.4,0,21.823,0,0.242,0,270.02,0,0,1,0.09,0,0,0,270.01,0.7019,0.0004,-0.7123,0,270.02,-0.04,-301.52,17.083,0.02,0,0,3,741.48,8.728,0,969.58,0,0,0,,0,NONE,0,0,0,0,0,0,0,0,0,0,0,589.49,0,0,0,0,0,0,0,0,0,269.81,0,0,0,0,0,0,0,0,0,0,0,0,0,3,3,0,0,VALID,0,0,0,0,0,1,0,0,0,0,0,0,0,0,0,0,0,0,0,0,293.33,1078.17,2,0,0.08,0.08,310,10,0.12,0.08,31.22,FLYING,X10-H,0:/Integrated Flight Computer/aircraft/x10_h_cfg.ks (inferred preloaded)
31.52,APPROACH,ILS_TRACK,152.22,152,-0.22,668.17,589.57,0.28,9.6,9.51,269.99,0.064,0.2756,0,16.087,1,0.6,4.5,0.75,0.35,0.0168,0.4,0,21.828,0,0.223,0,270.02,0,0,1,0.1,0,0,0,270.01,0.7018,0.0003,-0.7123,0,270.02,-0.05,-298.9,17.035,0.015,0,0,3,741.48,8.77,0,967.05,0,0,0,,0,NONE,0,0,0,0,0,0,0,0,0,0,0,589.57,0,0,0,0,0,0,0,0,0,269.81,0,0,0,0,0,0,0,0,0,0,0,0,0,3,3,0,0,VALID,0,0,0,0,0,1,0,0,0,0,0,0,0,0,0,0,0,0,0,0,293.48,1078.08,2,0,0.08,0.08,313,10,0.12,0.08,31.52,FLYING,X10-H,0:/Integrated Flight Computer/aircraft/x10_h_cfg.ks (inferred preloaded)
31.82,APPROACH,ILS_TRACK,152.2,152,-0.2,668.25,589.66,0.31,9.62,9.5,269.99,0.063,0.2757,0,16.024,1,0.6,4.5,0.75,0.35,0.0168,0.4,0,21.833,0,0.205,0,270.01,0,0,1,0.11,0,0,0,270.02,0.7018,0.0002,-0.7124,0,270.01,-0.06,-296.28,16.987,0.01,0,0,3,741.48,8.745,0,964.52,0,0,0,,0,NONE,0,0,0,0,0,0,0,0,0,0,0,589.66,0,0,0,0,0,0,0,0,0,269.81,0,0,0,0,0,0,0,0,0,0,0,0,0,3,3,0,0,VALID,0,0,0,0,0,1,0,0,0,0,0,0,0,0,0,0,0,0,0,0,293.68,1078,2,0,0.08,0.08,316,10,0.12,0.08,31.82,FLYING,X10-H,0:/Integrated Flight Computer/aircraft/x10_h_cfg.ks (inferred preloaded)
