t_s,phase,subphase,ias_ms,vapp_ms,spd_err_ms,agl_m,vs_ms,pitch_deg,aoa_deg,hdg_deg,bank_deg,thr_cmd,thr_cur,thr_intg,at_gain,at_tau_s,at_a_up,at_a_dn,at_kp_thr,at_ki_spd,at_thr_slew,aa_hdg_cmd_deg,aa_fpa_cmd_deg,aa_fbw,aa_dir,actual_fpa_deg,ftf_hdg_err_deg,ftf_fix_idx,kos_steer_pit_deg,kos_steer_hdg_deg,aa_dir_vx,aa_dir_vy,aa_dir_vz,aa_dir_pitch_deg,aa_dir_hdg_deg,ils_loc_m,ils_gs_m,ils_dist_km,loc_corr_deg,gs_corr_deg,flare_fpa_cmd,flare_tgt_vs,flare_frac,steer_hdg_deg,steer_blend,ro_loc_corr_deg,ro_hdg_err_deg,ro_yaw_tgt,ro_yaw_scale,ro_yaw_gate,yaw_cmd,roll_cmd,pitch_cmd,ro_pitch_tgt_deg,ro_pitch_err_deg,ro_pitch_ff,ro_roll_assist,flaps_cur,flaps_tgt,asc_j_ab,asc_j_rk,asc_validity,asc_q_pa,asc_q_raw_pa,asc_mach,asc_apo_m,asc_drag_n,asc_w_prop,asc_edot_aero,asc_edot_orb,asc_pitch_bias,asc_blend,asc_spooling,asc_ab_thr_ratio,asc_ab_t_now,asc_ab_t_avail,asc_ab_ign_on,asc_ab_flameouts,asc_rk_t_now,asc_rk_t_avail,asc_rk_ign_on,asc_rk_flameouts,ship_thrust,ship_avail_thrust,ship_ign_on,ship_flameouts,ifc_raw_dt_s,ifc_dt_s,ifc_loop_n,ifc_hz_est,ifc_raw_dt_max_s,ifc_raw_dt_min_s,phase_el_s,status
1.24,APPROACH,FLY_TO_FIX,260.15,150.8,-109.35,964.92,-23.96,-0.92,3.82,267.56,-3.987,0,0,0,1,0.6,0.9,0.75,0.35,0.0168,0.4,255.46,1.862,1,0,-5.3,12.11,0,-0.02,90,0.4469,-0.2487,0.8594,6.08,255.46,0,0,54.048,0,0,0,0,0,267.7,0,0,0,0,0,0,0,0,0,0,0,0,0,0,0,0,0,VALID,0,0,0,0,0,1,0,0,0,0,0,0,0,0,0,0,0,0,0,0,297.52,4111.95,6,0,0.94,0.5,1,1.89,0.94,0.02,1.28,FLYING
2,APPROACH,FLY_TO_FIX,260.56,151.6,-108.96,948.06,-23.49,-0.54,6.06,266.97,-3.987,0,0,0,1,0.6,1.492,0.75,0.35,0.0168,0.4,255.36,1.95,0,1,-5.46,11.61,0,6.09,255.46,0.4246,-0.2494,0.8704,7.51,255.36,0,0,53.848,0,0,0,0,0,267.7,0,0,0,0,0,0,0,0,0,0,0,0,0,0,0,0,0,VALID,0,0,0,0,0,1,0,0,0,0,0,0,0,0,0,0,0,0,0,0,226.45,4119.35,6,0,0.72,0.5,2,1.32,0.94,0.72,2.04,FLYING
2.8,APPROACH,FLY_TO_FIX,260.12,152.4,-107.72,933.2,-18.12,2.58,7.76,264.76,-4.002,0,0,0,1,0.6,2.15,0.75,0.35,0.0168,0.4,255.25,2.029,0,1,-4.56,9.5,0,7.53,255.36,0.3935,-0.2495,0.8848,9.5,255.25,0,0,53.637,0,0,0,0,0,267.7,0,0,0,0,0,0,0,0,0,0,0,0,0,0,0,0,0,VALID,0,0,0,0,0,1,0,0,0,0,0,0,0,0,0,0,0,0,0,0,170.73,4116.79,6,0,0.8,0.5,3,1.25,0.8,0.72,2.84,FLYING
3.56,APPROACH,FLY_TO_FIX,258.54,153.2,-105.34,924.39,-10.36,5.36,9.11,262.9,-4.241,0,0,0,1,0.6,2.753,0.75,0.35,0.0168,0.4,255.15,2.08,0,1,-3.1,7.75,0,9.52,255.25,0.3699,-0.2497,0.8949,10.98,255.15,0,0,53.437,0,0,0,0,0,267.7,0,0,0,0,0,0,0,0,0,0,0,0,0,0,0,0,0,VALID,0,0,0,0,0,1,0,0,0,0,0,0,0,0,0,0,0,0,0,0,129.24,4100.01,6,0,0.76,0.5,4,1.32,0.8,0.76,3.6,FLYING
4.32,APPROACH,FLY_TO_FIX,255.82,154,-101.82,922.08,-1.11,8.18,10,261.52,-4.468,0,0,-20,1,0.6,3.302,0.75,0.35,0.0168,0.4,255.05,2.1,0,1,-1.18,6.47,0,11,255.15,0.3544,-0.2503,0.9009,11.95,255.05,0,0,53.238,0,0,0,0,0,267.7,0,0,0,0,0,0,0,0,0,0,0,0,0,0,0,0,0,VALID,0,0,0,0,0,1,0,0,0,0,0,0,0,0,0,0,0,0,0,0,97.49,4068.13,6,0,0.76,0.5,5,1.32,0.76,0.76,4.36,FLYING
5.08,APPROACH,FLY_TO_FIX,252.27,154.8,-97.47,926.77,8.67,10.79,10.25,260.66,-4.674,0.2,0,-20,1,0.6,3.799,0.797,0.35,0.0168,0.4,254.96,2.085,0,1,0.97,5.7,0,11.97,255.05,0.3478,-0.2514,0.9032,12.36,254.96,0,0,53.042,0,0,0,0,0,267.7,0,0,0,0,0,0,0,0,0,0,0,0,0,0,0,0,0,VALID,0,0,0,0,0,1,0,0,0,0,0,0,0,0,0,0,0,0,0,0,72.8,4026.31,6,0,0.76,0.5,6,1.32,0.76,0.76,5.12,FLYING
5.84,APPROACH,FLY_TO_FIX,248.39,155.6,-92.79,938.29,17.87,12.88,9.99,260.16,-4.818,0.4,0,-20,1,0.6,4.248,0.797,0.35,0.0168,0.4,254.87,2.035,0,1,3.17,5.3,0,12.38,254.96,0.3508,-0.2531,0.9016,12.18,254.87,0,0,52.848,0,0,0,0,0,267.7,0,0,0,0,0,0,0,0,0,0,0,0,0,0,0,0,0,VALID,0,0,0,0,0,1,0,0,0,0,0,0,0,0,0,0,0,0,0,0,168.86,3981.32,6,0,0.76,0.5,7,1.32,0.76,0.76,5.88,FLYING
6.58,APPROACH,FLY_TO_FIX,244.94,156.4,-88.54,955.22,25.56,14.22,9.2,259.73,-5.019,0.6,0,-20,1,0.6,4.5,0.797,0.35,0.0168,0.4,254.78,1.957,0,1,5.15,4.95,0,12.2,254.87,0.3631,-0.2554,0.8961,11.42,254.78,0,0,52.662,0,0,0,0,0,267.7,0,0,0,0,0,0,0,0,0,0,0,0,0,0,0,0,0,VALID,0,0,0,0,0,1,0,0,0,0,0,0,0,0,0,0,0,0,0,0,358.55,3939.54,6,0,0.74,0.5,8,1.35,0.76,0.74,6.62,FLYING
7.34,APPROACH,FLY_TO_FIX,242.25,157.2,-85.05,977.25,31.7,14.7,7.92,259.33,-5.234,0.8,0,-20,1,0.6,4.5,0.797,0.35,0.0168,0.4,254.7,1.852,0,1,6.83,4.63,0,11.44,254.78,0.3838,-0.2581,0.8866,10.13,254.7,0,0,52.474,0,0,0,0,0,267.7,0,0,0,0,0,0,0,0,0,0,0,0,0,0,0,0,0,VALID,0,0,0,0,0,1,0,0,0,0,0,0,0,0,0,0,0,0,0,0,633.68,3905.91,6,0,0.76,0.5,9,1.32,0.76,0.74,7.38,FLYING
8.12,APPROACH,FLY_TO_FIX,240.69,158,-82.69,1003.2,35.68,14.34,6.27,258.96,-5.398,0.8961,0,-20,1,0.6,4.5,0.797,0.35,0.0168,0.4,254.62,1.725,0,1,8.08,4.35,0,10.15,254.7,0.4115,-0.2611,0.8732,8.38,254.62,0,0,52.282,0,0,0,0,0,267.7,0,0,0,0,0,0,0,0,0,0,0,0,0,0,0,0,0,VALID,0,0,0,0,0,1,0,0,0,0,0,0,0,0,0,0,0,0,0,0,986.04,3884.6,6,0,0.78,0.5,10,1.28,0.78,0.76,8.16,FLYING
8.88,APPROACH,FLY_TO_FIX,240.48,158.8,-81.68,1029.9,36.96,13.12,4.5,258.64,-5.579,0.6961,0,-20,1,0.6,4.5,0.797,0.35,0.0168,0.4,254.54,1.593,0,1,8.67,4.11,0,8.39,254.61,0.4416,-0.2639,0.8575,6.45,254.54,0,0,52.097,0,0,0,0,0,267.7,0,0,0,0,0,0,0,0,0,0,0,0,0,0,0,0,0,VALID,0,0,0,0,0,1,0,0,0,0,0,0,0,0,0,0,0,0,0,0,1335.11,3878.76,6,0,0.76,0.5,11,1.32,0.78,0.76,8.92,FLYING
9.62,APPROACH,FLY_TO_FIX,241.41,159,-82.41,1056.16,35.56,11.27,2.82,258.34,-5.827,0.4961,0,-20,1,0.6,4.5,0.797,0.35,0.0168,0.4,254.46,1.46,0,1,8.61,3.88,0,6.46,254.54,0.4701,-0.2663,0.8415,4.58,254.46,0,0,51.912,0,0,0,0,0,267.7,0,0,0,0,0,0,0,0,0,0,0,0,0,0,0,0,0,VALID,0,0,0,0,0,1,0,0,0,0,0,0,0,0,0,0,0,0,0,0,1533.27,3885.79,6,0,0.76,0.5,12,1.32,0.76,0.76,9.68,FLYING
10.38,APPROACH,FLY_TO_FIX,243.01,159,-84.01,1080.2,31.85,9.05,1.39,258.04,-6.021,0.2961,0,-19.9,1,0.6,4.5,0.797,0.35,0.0168,0.4,254.39,1.336,0,1,7.93,3.65,0,4.6,254.46,0.4939,-0.2683,0.8271,3.01,254.39,0,0,51.725,0,0,0,0,0,267.7,0,0,0,0,0,0,0,0,0,0,0,0,0,0,0,0,0,VALID,0,0,0,0,0,1,0,0,0,0,0,0,0,0,0,0,0,0,0,0,1597.79,3900.89,6,0,0.76,0.5,13,1.32,0.76,0.76,10.44,FLYING
11.14,APPROACH,FLY_TO_FIX,244.87,159,-85.87,1100.59,26.06,6.76,0.4,257.72,-6.181,0.0961,0,-19.8,1,0.6,4.5,0.797,0.35,0.0168,0.4,254.31,1.229,0,1,6.72,3.41,0,3.02,254.39,0.5106,-0.2699,0.8163,1.88,254.31,0,0,51.537,0,0,0,0,0,267.7,0,0,0,0,0,0,0,0,0,0,0,0,0,0,0,0,0,VALID,0,0,0,0,0,1,0,0,0,0,0,0,0,0,0,0,0,0,0,0,1501.8,3919.44,6,0,0.76,0.5,14,1.32,0.76,0.76,11.2,FLYING
11.9,APPROACH,FLY_TO_FIX,246.65,159,-87.65,1115.83,18.76,4.65,-0.08,257.38,-4.119,0,0,-19.701,1,0.6,4.5,0.797,0.35,0.0168,0.4,254.24,1.145,0,1,5.14,3.14,0,1.9,254.31,0.5218,-0.2713,0.8088,1.13,254.24,0,0,51.347,0,0,0,0,0,267.7,0,0,0,0,0,0,0,0,0,0,0,0,0,0,0,0,0,VALID,0,0,0,0,0,1,0,0,0,0,0,0,0,0,0,0,0,0,0,0,1241.2,3937.72,6,0,0.76,0.5,15,1.32,0.76,0.76,11.96,FLYING
12.68,APPROACH,FLY_TO_FIX,248.14,159,-89.14,1126.14,10.92,2.82,-0.17,257.01,-2.361,0,0,-19.603,1,0.6,4.5,0.765,0.35,0.0168,0.4,254.17,1.089,0,1,3.33,2.84,0,1.15,254.24,0.5254,-0.2725,0.806,0.89,254.17,0,0,51.155,0,0,0,0,0,267.7,0,0,0,0,0,0,0,0,0,0,0,0,0,0,0,0,0,VALID,0,0,0,0,0,1,0,0,0,0,0,0,0,0,0,0,0,0,0,0,948.64,3953.4,6,0,0.76,0.5,16,1.32,0.76,0.76,12.72,FLYING
13.44,APPROACH,FLY_TO_FIX,249.36,159,-90.36,1130.54,3.32,1.36,0.14,256.63,-0.899,0,0,-19.505,1,0.6,4.5,0.75,0.35,0.0168,0.4,254.11,1.06,0,1,1.54,2.53,0,0.9,254.17,0.5229,-0.2736,0.8073,1.06,254.11,0,0,50.962,0,0,0,0,0,267.7,0,0,0,0,0,0,0,0,0,0,0,0,0,0,0,0,0,VALID,0,0,0,0,0,1,0,0,0,0,0,0,0,0,0,0,0,0,0,0,723.17,3966.64,6,0,0.76,0.5,17,1.32,0.76,0.76,13.48,FLYING
14.18,APPROACH,FLY_TO_FIX,250.4,159,-91.4,1129.87,-3.3,0.38,0.76,256.27,0.08,0,0,-19.407,1,0.6,4.5,0.75,0.35,0.0168,0.4,254.04,1.058,0,1,-0.1,2.23,0,1.08,254.11,0.5147,-0.2746,0.8122,1.63,254.04,0,0,50.769,0,0,0,0,0,267.7,0,0,0,0,0,0,0,0,0,0,0,0,0,0,0,0,0,VALID,0,0,0,0,0,1,0,0,0,0,0,0,0,0,0,0,0,0,0,0,551.26,3978.64,6,0,0.76,0.5,18,1.32,0.76,0.76,14.24,FLYING
14.94,APPROACH,FLY_TO_FIX,251.33,159,-92.33,1125.08,-8.53,-0.06,1.69,255.92,0.691,0,0,-19.31,1,0.6,4.5,0.75,0.35,0.0168,0.4,253.98,1.077,0,1,-1.45,1.95,0,1.65,254.04,0.5017,-0.2754,0.8201,2.52,253.98,0,0,50.575,0,0,0,0,0,267.7,0,0,0,0,0,0,0,0,0,0,0,0,0,0,0,0,0,VALID,0,0,0,0,0,1,0,0,0,0,0,0,0,0,0,0,0,0,0,0,420.24,3989.86,6,0,0.76,0.5,19,1.32,0.76,0.76,15,FLYING
15.7,APPROACH,FLY_TO_FIX,252.14,159,-93.14,1117.37,-12.07,0.05,2.8,255.6,0.937,0,0,-19.214,1,0.6,4.5,0.75,0.35,0.0168,0.4,253.91,1.113,0,1,-2.43,1.69,0,2.54,253.97,0.4854,-0.276,0.8296,3.62,253.91,0,0,50.38,0,0,0,0,0,267.7,0,0,0,0,0,0,0,0,0,0,0,0,0,0,0,0,0,VALID,0,0,0,0,0,1,0,0,0,0,0,0,0,0,0,0,0,0,0,0,320.37,4000.18,6,0,0.76,0.5,20,1.32,0.76,0.76,15.76,FLYING
16.46,APPROACH,FLY_TO_FIX,252.72,159,-93.72,1108.15,-13.54,0.69,3.99,255.31,0.915,0,0,-19.118,1,0.6,4.5,0.75,0.35,0.0168,0.4,253.85,1.158,0,1,-2.95,1.46,0,3.64,253.91,0.4672,-0.2764,0.8398,4.83,253.85,0,0,50.186,0,0,0,0,0,267.7,0,0,0,0,0,0,0,0,0,0,0,0,0,0,0,0,0,VALID,0,0,0,0,0,1,0,0,0,0,0,0,0,0,0,0,0,0,0,0,244.15,4008.21,6,0,0.76,0.5,21,1.32,0.76,0.76,16.52,FLYING
17.22,APPROACH,FLY_TO_FIX,252.87,159,-93.87,1098.89,-12.87,1.8,5.03,255.05,0.762,0,0,-19.022,1,0.6,4.5,0.75,0.35,0.0168,0.4,253.79,1.205,0,1,-3.02,1.26,0,4.85,253.85,0.4491,-0.2766,0.8496,6.02,253.79,0,0,49.992,0,0,0,0,0,267.7,0,0,0,0,0,0,0,0,0,0,0,0,0,0,0,0,0,VALID,0,0,0,0,0,1,0,0,0,0,0,0,0,0,0,0,0,0,0,0,185.88,4011.37,6,0,0.76,0.5,22,1.32,0.76,0.76,17.28,FLYING
17.98,APPROACH,FLY_TO_FIX,252.54,159,-93.54,1090.96,-10.59,3.15,6,254.8,0.551,0,0,-18.927,1,0.6,4.5,0.75,0.35,0.0168,0.4,253.74,1.247,0,1,-2.66,1.06,0,6.04,253.79,0.4333,-0.2768,0.8577,7.06,253.74,0,0,49.798,0,0,0,0,0,267.7,0,0,0,0,0,0,0,0,0,0,0,0,0,0,0,0,0,VALID,0,0,0,0,0,1,0,0,0,0,0,0,0,0,0,0,0,0,0,0,141.33,4008.76,6,0,0.76,0.5,23,1.32,0.76,0.76,18.04,FLYING
18.74,APPROACH,FLY_TO_FIX,251.68,159,-92.68,1085.36,-7.01,4.65,6.82,254.57,0.409,0,0,-18.832,1,0.6,4.5,0.75,0.35,0.0168,0.4,253.68,1.278,0,1,-2,0.9,0,7.08,253.74,0.4196,-0.2771,0.8644,7.95,253.68,0,0,49.604,0,0,0,0,0,267.7,0,0,0,0,0,0,0,0,0,0,0,0,0,0,0,0,0,VALID,0,0,0,0,0,1,0,0,0,0,0,0,0,0,0,0,0,0,0,0,107.3,3999.82,6,0,0.76,0.5,24,1.32,0.76,0.76,18.8,FLYING
19.52,APPROACH,FLY_TO_FIX,250.32,159,-91.32,1082.81,-2.34,6.11,7.19,254.36,0.259,0,0,-18.738,1,0.6,4.5,0.75,0.35,0.0168,0.4,253.62,1.294,0,1,-1.02,0.74,0,7.97,253.68,0.4119,-0.2776,0.8679,8.45,253.62,0,0,49.411,0,0,0,0,0,267.7,0,0,0,0,0,0,0,0,0,0,0,0,0,0,0,0,0,VALID,0,0,0,0,0,1,0,0,0,0,0,0,0,0,0,0,0,0,0,0,81.34,3984.55,6,0,0.76,0.5,25,1.32,0.76,0.76,19.56,FLYING
20.28,APPROACH,FLY_TO_FIX,248.61,159,-89.61,1083.73,2.46,7.36,7.3,254.15,0.123,0,0,-18.645,1,0.6,4.5,0.75,0.35,0.0168,0.4,253.57,1.294,0,1,0.07,0.58,0,8.47,253.62,0.4098,-0.2784,0.8687,8.6,253.57,0,0,49.22,0,0,0,0,0,267.7,0,0,0,0,0,0,0,0,0,0,0,0,0,0,0,0,0,VALID,0,0,0,0,0,1,0,0,0,0,0,0,0,0,0,0,0,0,0,0,61.59,3964.81,6,0,0.76,0.5,26,1.32,0.76,0.76,20.32,FLYING
21.04,APPROACH,FLY_TO_FIX,246.66,159,-87.66,1088.08,7.12,8.38,7.13,253.93,-0.009,0,0,-18.551,1,0.6,4.5,0.75,0.35,0.0168,0.4,253.52,1.276,0,1,1.18,0.42,0,8.61,253.57,0.4117,-0.2793,0.8674,8.48,253.52,0,0,49.029,0,0,0,0,0,267.7,0,0,0,0,0,0,0,0,0,0,0,0,0,0,0,0,0,VALID,0,0,0,0,0,1,0,0,0,0,0,0,0,0,0,0,0,0,0,0,46.6,3941.91,6,0,0.76,0.5,27,1.32,0.76,0.76,21.08,FLYING
21.8,APPROACH,FLY_TO_FIX,244.64,159,-85.64,1095.47,11.13,9.08,6.75,253.72,-0.096,0.088,0,-20,1,0.6,4.5,0.75,0.35,0.0168,0.4,253.47,1.243,0,1,2.2,0.25,0,8.5,253.52,0.4173,-0.2805,0.8644,8.13,253.47,0,0,48.84,0,0,0,0,0,267.7,0,0,0,0,0,0,0,0,0,0,0,0,0,0,0,0,0,VALID,0,0,0,0,0,1,0,0,0,0,0,0,0,0,0,0,0,0,0,0,34.99,3917.18,6,0,0.76,0.5,28,1.32,0.76,0.76,21.84,FLYING
22.54,APPROACH,FLY_TO_FIX,242.7,159,-83.7,1105.26,14.15,9.37,6.19,253.5,-0.169,0.2249,0,-20,1,0.6,4.5,0.75,0.35,0.0168,0.4,253.42,1.196,0,1,3.04,0.08,0,8.15,253.47,0.4264,-0.2818,0.8595,7.56,253.42,0,0,48.653,0,0,0,0,0,267.7,0,0,0,0,0,0,0,0,0,0,0,0,0,0,0,0,0,VALID,0,0,0,0,0,1,0,0,0,0,0,0,0,0,0,0,0,0,0,0,75.96,3894.43,6,0,0.76,0.5,29,1.32,0.76,0.76,22.6,FLYING
23.3,APPROACH,FLY_TO_FIX,241.08,159,-82.08,1116.58,15.98,9.21,5.48,253.27,-0.209,0.2931,0,-20,1,0.6,4.5,0.75,0.35,0.0168,0.4,253.37,1.141,0,1,3.61,0.1,0,7.58,253.42,0.4384,-0.2832,0.853,6.79,253.37,0,0,48.467,0,0,0,0,0,267.7,0,0,0,0,0,0,0,0,0,0,0,0,0,0,0,0,0,VALID,0,0,0,0,0,1,0,0,0,0,0,0,0,0,0,0,0,0,0,0,186.17,3874.44,6,0,0.76,0.5,30,1.32,0.76,0.76,23.36,FLYING
24.06,APPROACH,FLY_TO_FIX,239.87,159,-80.87,1128.65,16.72,8.82,4.71,253.02,-0.248,0.2907,0,-20,1,0.6,4.5,0.75,0.35,0.0168,0.4,253.32,1.081,0,1,3.93,0.31,0,6.81,253.37,0.451,-0.2846,0.8459,5.98,253.32,0,0,48.282,0,0,0,0,0,267.7,0,0,0,0,0,0,0,0,0,0,0,0,0,0,0,0,0,VALID,0,0,0,0,0,1,0,0,0,0,0,0,0,0,0,0,0,0,0,0,318.14,3859.1,6,0,0.76,0.5,31,1.32,0.76,0.76,24.12,FLYING
24.82,APPROACH,FLY_TO_FIX,239.19,159,-80.19,1140.62,16.18,8.02,3.99,252.75,-0.244,0.2158,0,-20,1,0.6,4.5,0.75,0.35,0.0168,0.4,253.28,1.021,0,1,3.96,0.53,0,6,253.32,0.4642,-0.2859,0.8383,5.12,253.28,0,0,48.098,0,0,0,0,0,267.7,0,0,0,0,0,0,0,0,0,0,0,0,0,0,0,0,0,VALID,0,0,0,0,0,1,0,0,0,0,0,0,0,0,0,0,0,0,0,0,430.65,3849.72,6,0,0.76,0.5,32,1.32,0.76,0.76,24.88,FLYING
25.58,APPROACH,FLY_TO_FIX,238.9,159,-79.9,1151.61,14.64,7.06,3.25,252.47,-0.211,0.0982,0,-20,1,0.6,4.5,0.75,0.35,0.0168,0.4,253.23,0.964,0,1,3.7,0.77,0,5.14,253.28,0.4758,-0.287,0.8314,4.37,253.23,0,0,47.915,0,0,0,0,0,267.7,0,0,0,0,0,0,0,0,0,0,0,0,0,0,0,0,0,VALID,0,0,0,0,0,1,0,0,0,0,0,0,0,0,0,0,0,0,0,0,487.54,3844.93,6,0,0.76,0.5,33,1.32,0.76,0.76,25.64,FLYING
26.34,APPROACH,FLY_TO_FIX,238.88,159,-79.88,1160.87,12.23,6.01,2.81,252.17,-0.124,0,0,-19.9,1,0.6,4.5,0.75,0.35,0.0168,0.4,253.19,0.915,0,1,3.2,1.03,0,4.38,253.23,0.4844,-0.288,0.8261,3.8,253.19,0,0,47.731,0,0,0,0,0,267.7,0,0,0,0,0,0,0,0,0,0,0,0,0,0,0,0,0,VALID,0,0,0,0,0,1,0,0,0,0,0,0,0,0,0,0,0,0,0,0,462.58,3843.38,6,0,0.76,0.5,34,1.32,0.76,0.76,26.4,FLYING
27.1,APPROACH,FLY_TO_FIX,238.89,159,-79.89,1168.45,9.05,5.02,2.57,251.86,-0.122,0,0,-19.8,1,0.6,4.5,0.75,0.35,0.0168,0.4,253.15,0.876,0,1,2.51,1.3,0,3.82,253.19,0.4896,-0.2888,0.8227,3.46,253.15,0,0,47.548,0,0,0,0,0,267.7,0,0,0,0,0,0,0,0,0,0,0,0,0,0,0,0,0,VALID,0,0,0,0,0,1,0,0,0,0,0,0,0,0,0,0,0,0,0,0,353.23,3842.37,6,0,0.76,0.5,35,1.32,0.76,0.76,27.16,FLYING
27.86,APPROACH,FLY_TO_FIX,238.82,159,-79.82,1173.46,5.7,4.17,2.56,251.54,-0.15,0,0,-19.701,1,0.6,4.5,0.75,0.35,0.0168,0.4,253.12,0.848,0,1,1.73,1.57,0,3.48,253.15,0.4911,-0.2895,0.8216,3.37,253.12,0,0,47.365,0,0,0,0,0,267.7,0,0,0,0,0,0,0,0,0,0,0,0,0,0,0,0,0,VALID,0,0,0,0,0,1,0,0,0,0,0,0,0,0,0,0,0,0,0,0,268.16,3840.77,6,0,0.76,0.5,36,1.32,0.76,0.76,27.92,FLYING
28.62,APPROACH,FLY_TO_FIX,238.71,159,-79.71,1176.15,2.54,3.52,2.73,251.23,-0.111,0,0,-19.603,1,0.6,4.5,0.75,0.35,0.0168,0.4,253.08,0.831,0,1,0.94,1.85,0,3.39,253.12,0.4898,-0.29,0.8222,3.47,253.08,0,0,47.181,0,0,0,0,0,267.7,0,0,0,0,0,0,0,0,0,0,0,0,0,0,0,0,0,VALID,0,0,0,0,0,1,0,0,0,0,0,0,0,0,0,0,0,0,0,0,203.62,3839.08,6,0,0.76,0.5,37,1.32,0.76,0.76,28.68,FLYING
29.38,APPROACH,FLY_TO_FIX,238.58,159,-79.58,1176.73,-0.31,3.11,3.09,250.92,-0.125,0,0,-19.505,1,0.6,4.5,0.75,0.35,0.0168,0.4,253.05,0.826,0,1,0.21,2.13,0,3.49,253.08,0.4849,-0.2904,0.8249,3.81,253.05,0,0,46.999,0,0,0,0,0,267.7,0,0,0,0,0,0,0,0,0,0,0,0,0,0,0,0,0,VALID,0,0,0,0,0,1,0,0,0,0,0,0,0,0,0,0,0,0,0,0,154.65,3837.49,6,0,0.76,0.5,38,1.32,0.76,0.76,29.44,FLYING
30.14,APPROACH,FLY_TO_FIX,238.41,159,-79.41,1175.61,-2.48,2.96,3.58,250.71,-0.165,0,0,-19.407,1,0.6,4.5,0.75,0.35,0.0168,0.4,253.02,0.83,0,1,-0.38,2.31,0,3.83,253.05,0.4786,-0.2906,0.8285,4.25,253.02,0,0,46.816,0,0,0,0,0,267.7,0,0,0,0,0,0,0,0,0,0,0,0,0,0,0,0,0,VALID,0,0,0,0,0,1,0,0,0,0,0,0,0,0,0,0,0,0,0,0,117.48,3835.54,6,0,0.76,0.5,39,1.32,0.76,0.76,30.2,FLYING
30.9,APPROACH,FLY_TO_FIX,238.15,159,-79.15,1173.35,-3.76,3.13,4.1,250.7,-0.138,0,0,-19.31,1,0.6,4.5,0.75,0.35,0.0168,0.4,253,0.84,0,1,-0.79,2.3,0,4.26,253.02,0.4701,-0.2907,0.8334,4.82,253,0,0,46.634,0,0,0,0,0,267.7,0,0,0,0,0,0,0,0,0,0,0,0,0,0,0,0,0,VALID,0,0,0,0,0,1,0,0,0,0,0,0,0,0,0,0,0,0,0,0,89.24,3832.86,6,0,0.76,0.5,40,1.32,0.76,0.76,30.96,FLYING
31.66,APPROACH,FLY_TO_FIX,237.76,159,-78.76,1170.63,-4.26,3.52,4.72,250.79,-0.084,0,0,-19.214,1,0.6,4.5,0.75,0.35,0.0168,0.4,252.97,0.853,0,1,-0.99,2.19,0,4.84,253,0.461,-0.2908,0.8384,5.44,252.97,0,0,46.452,0,0,0,0,0,267.7,0,0,0,0,0,0,0,0,0,0,0,0,0,0,0,0,0,VALID,0,0,0,0,0,1,0,0,0,0,0,0,0,0,0,0,0,0,0,0,67.78,3828.81,6,0,0.76,0.5,41,1.32,0.76,0.76,31.72,FLYING
32.42,APPROACH,FLY_TO_FIX,237.18,159,-78.18,1168.01,-3.81,4.17,5.31,250.93,-0.117,0,0,-19.118,1,0.6,4.5,0.75,0.35,0.0168,0.4,252.95,0.867,0,1,-0.98,2.02,0,5.45,252.97,0.4518,-0.2908,0.8434,6.05,252.95,0,0,46.271,0,0,0,0,0,267.7,0,0,0,0,0,0,0,0,0,0,0,0,0,0,0,0,0,VALID,0,0,0,0,0,1,0,0,0,0,0,0,0,0,0,0,0,0,0,0,51.46,3822.66,6,0,0.76,0.5,42,1.32,0.76,0.76,32.48,FLYING
33.18,APPROACH,FLY_TO_FIX,236.45,159,-77.45,1166.04,-2.78,4.85,5.81,251.09,-0.16,0,0,-19.022,1,0.6,4.5,0.75,0.35,0.0168,0.4,252.93,0.878,0,1,-0.78,1.84,0,6.07,252.95,0.4445,-0.2908,0.8473,6.55,252.93,0,0,46.091,0,0,0,0,0,267.7,0,0,0,0,0,0,0,0,0,0,0,0,0,0,0,0,0,VALID,0,0,0,0,0,1,0,0,0,0,0,0,0,0,0,0,0,0,0,0,39.06,3814.7,6,0,0.76,0.5,43,1.32,0.76,0.76,33.24,FLYING
33.94,APPROACH,FLY_TO_FIX,235.51,159,-76.51,1165.06,-1.14,5.62,6.15,251.28,-0.148,0,0,-18.927,1,0.6,4.5,0.754,0.35,0.0168,0.4,252.91,0.884,0,1,-0.47,1.63,0,6.56,252.93,0.4378,-0.2908,0.8508,7,252.91,0,0,45.911,0,0,0,0,0,267.7,0,0,0,0,0,0,0,0,0,0,0,0,0,0,0,0,0,VALID,0,0,0,0,0,1,0,0,0,0,0,0,0,0,0,0,0,0,0,0,29.63,3804.23,6,0,0.76,0.5,44,1.32,0.76,0.76,34,FLYING
34.7,APPROACH,FLY_TO_FIX,234.39,159,-75.39,1165.43,0.85,6.3,6.37,251.47,-0.198,0,0,-18.832,1,0.6,4.5,0.781,0.35,0.0168,0.4,252.89,0.884,0,1,-0.02,1.42,0,7.01,252.91,0.4341,-0.2909,0.8526,7.25,252.89,0,0,45.732,0,0,0,0,0,267.7,0,0,0,0,0,0,0,0,0,0,0,0,0,0,0,0,0,VALID,0,0,0,0,0,1,0,0,0,0,0,0,0,0,0,0,0,0,0,0,22.47,3791.68,6,0,0.76,0.5,45,1.32,0.76,0.76,34.76,FLYING
35.46,APPROACH,FLY_TO_FIX,233.17,159,-74.17,1167.22,2.85,6.86,6.41,251.66,-0.187,0,0,-18.738,1,0.6,4.5,0.817,0.35,0.0168,0.4,252.87,0.877,0,1,0.48,1.21,0,7.27,252.89,0.434,-0.2912,0.8526,7.27,252.87,0,0,45.554,0,0,0,0,0,267.7,0,0,0,0,0,0,0,0,0,0,0,0,0,0,0,0,0,VALID,0,0,0,0,0,1,0,0,0,0,0,0,0,0,0,0,0,0,0,0,17.03,3777.82,6,0,0.76,0.5,46,1.32,0.76,0.76,35.52,FLYING
36.22,APPROACH,FLY_TO_FIX,231.89,159,-72.89,1170.36,4.64,7.28,6.34,251.84,-0.207,0,0,-18.645,1,0.6,4.5,0.86,0.35,0.0168,0.4,252.86,0.862,0,1,0.95,1.02,0,7.29,252.87,0.4351,-0.2915,0.8519,7.21,252.86,0,0,45.377,0,0,0,0,0,267.7,0,0,0,0,0,0,0,0,0,0,0,0,0,0,0,0,0,VALID,0,0,0,0,0,1,0,0,0,0,0,0,0,0,0,0,0,0,0,0,12.91,3763.06,6,0,0.76,0.5,47,1.32,0.76,0.76,36.28,FLYING
37,APPROACH,FLY_TO_FIX,230.58,159,-71.58,1174.68,6.16,7.6,6.22,251.99,-0.168,0.014,0,-20,1,0.6,4.5,0.91,0.35,0.0168,0.4,252.84,0.842,0,1,1.37,0.85,0,7.23,252.86,0.4371,-0.2919,0.8507,7.1,252.84,0,0,45.2,0,0,0,0,0,267.7,0,0,0,0,0,0,0,0,0,0,0,0,0,0,0,0,0,VALID,0,0,0,0,0,1,0,0,0,0,0,0,0,0,0,0,0,0,0,0,9.79,3747.56,6,0,0.76,0.5,48,1.32,0.76,0.76,37.04,FLYING
37.76,APPROACH,FLY_TO_FIX,229.28,159,-70.28,1179.86,7.37,7.69,5.94,252.14,-0.168,0.044,0,-20,1,0.6,4.5,0.964,0.35,0.0168,0.4,252.83,0.817,0,1,1.71,0.69,0,7.11,252.84,0.4416,-0.2924,0.8482,6.82,252.83,0,0,45.025,0,0,0,0,0,267.7,0,0,0,0,0,0,0,0,0,0,0,0,0,0,0,0,0,VALID,0,0,0,0,0,1,0,0,0,0,0,0,0,0,0,0,0,0,0,0,15.54,3731.99,6,0,0.76,0.5,49,1.32,0.76,0.76,37.8,FLYING
38.52,APPROACH,FLY_TO_FIX,228.07,159,-69.07,1185.51,7.95,7.53,5.45,252.25,-0.132,0.0536,0,-20,1,0.6,4.5,1.019,0.35,0.0168,0.4,252.81,0.789,0,1,1.96,0.56,0,6.84,252.83,0.4489,-0.2929,0.8442,6.36,252.81,0,0,44.85,0,0,0,0,0,267.7,0,0,0,0,0,0,0,0,0,0,0,0,0,0,0,0,0,VALID,0,0,0,0,0,1,0,0,0,0,0,0,0,0,0,0,0,0,0,0,36.01,3717.25,6,0,0.76,0.5,50,1.32,0.76,0.76,38.56,FLYING
39.28,APPROACH,FLY_TO_FIX,227.01,159,-68.01,1191.27,7.83,7.14,5.1,252.34,-0.102,0.0354,0,-20,1,0.6,4.5,1.072,0.35,0.0168,0.4,252.8,0.76,0,1,2,0.46,0,6.37,252.81,0.4556,-0.2935,0.8404,5.93,252.8,0,0,44.672,0,0,0,0,0,267.7,0,0,0,0,0,0,0,0,0,0,0,0,0,1,1,0,0,VALID,0,0,0,0,0,1,0,0,0,0,0,0,0,0,0,0,0,0,0,0,59.29,3704.24,6,0,0.76,0.5,51,1.28,0.76,0.76,39.34,FLYING
40.1,APPROACH,FLY_TO_FIX,226.04,159,-67.04,1197.29,7.56,6.77,4.81,252.42,-0.073,0.0058,0,-20,1,0.6,4.5,1.122,0.35,0.0168,0.4,252.78,0.73,0,1,1.94,0.36,0,5.95,252.79,0.4607,-0.294,0.8375,5.61,252.78,0,0,44.49,0,0,0,0,0,267.7,0,0,0,0,0,0,0,0,0,0,0,0,0,1,1,0,0,VALID,0,0,0,0,0,1,0,0,0,0,0,0,0,0,0,0,0,0,0,0,70.19,3691.87,6,0,0.82,0.5,52,1.25,0.82,0.76,40.14,FLYING
40.84,APPROACH,FLY_TO_FIX,225.19,159,-66.19,1202.44,7.19,6.39,4.49,252.48,-0.096,0,0,-19.9,1,0.6,4.5,1.165,0.35,0.0168,0.4,252.77,0.704,0,1,1.86,0.29,0,5.63,252.78,0.4659,-0.2944,0.8344,5.29,252.77,0,0,44.322,0,0,0,0,0,267.7,0,0,0,0,0,0,0,0,0,0,0,0,0,1,1,0,0,VALID,0,0,0,0,0,1,0,0,0,0,0,0,0,0,0,0,0,0,0,0,59.31,3681.57,6,0,0.74,0.5,53,1.35,0.82,0.74,40.88,FLYING
41.6,APPROACH,FLY_TO_FIX,224.31,159,-65.31,1207.43,6.75,5.99,4.19,252.53,-0.055,0,0,-19.8,1,0.6,4.5,1.205,0.35,0.0168,0.4,252.75,0.679,0,1,1.77,0.23,0,5.3,252.77,0.4713,-0.2949,0.8312,4.94,252.75,0,0,44.15,0,0,0,0,0,267.7,0,0,0,0,0,0,0,0,0,0,0,0,0,1,1,0,0,VALID,0,0,0,0,0,1,0,0,0,0,0,0,0,0,0,0,0,0,0,0,45.01,3670.57,6,0,0.76,0.5,54,1.32,0.76,0.74,41.64,FLYING
42.34,APPROACH,FLY_TO_FIX,223.45,159,-64.45,1211.9,6.18,5.58,3.91,252.56,-0.038,0,0,-19.701,1,0.6,4.5,1.242,0.35,0.0168,0.4,252.74,0.656,0,1,1.64,0.18,0,4.96,252.75,0.4761,-0.2953,0.8283,4.63,252.74,0,0,43.983,0,0,0,0,0,267.7,0,0,0,0,0,0,0,0,0,0,0,0,0,1,1,0,0,VALID,0,0,0,0,0,1,0,0,0,0,0,0,0,0,0,0,0,0,0,0,34.33,3659.82,6,0,0.74,0.5,55,1.35,0.76,0.74,42.38,FLYING
43.08,APPROACH,FLY_TO_FIX,222.59,159,-63.59,1215.91,5.46,5.16,3.66,252.58,-0.037,0,0,-19.603,1,0.6,4.5,1.275,0.35,0.0168,0.4,252.72,0.635,0,1,1.49,0.14,0,4.65,252.74,0.4807,-0.2957,0.8255,4.34,252.72,0,0,43.817,0,0,0,0,0,267.7,0,0,0,0,0,0,0,0,0,0,0,0,0,1,1,0,0,VALID,0,0,0,0,0,1,0,0,0,0,0,0,0,0,0,0,0,0,0,0,26.19,3649.2,6,0,0.74,0.5,56,1.35,0.74,0.74,43.12,FLYING
43.82,APPROACH,FLY_TO_FIX,221.8,159,-62.8,1219.27,4.42,4.76,3.51,252.6,-0.034,0,0,-19.505,1,0.6,4.5,1.304,0.35,0.0168,0.4,252.71,0.617,0,1,1.26,0.11,0,4.36,252.72,0.4838,-0.296,0.8236,4.15,252.71,0,0,43.651,0,0,0,0,0,267.7,0,0,0,0,0,0,0,0,0,0,0,0,0,1,1,0,0,VALID,0,0,0,0,0,1,0,0,0,0,0,0,0,0,0,0,0,0,0,0,19.98,3639.3,6,0,0.74,0.5,57,1.35,0.74,0.74,43.86,FLYING
44.56,APPROACH,FLY_TO_FIX,221.07,159,-62.07,1221.86,3.27,4.4,3.45,252.61,-0.05,0,0,-19.407,1,0.6,4.5,1.329,0.35,0.0168,0.4,252.7,0.603,0,1,0.98,0.09,0,4.17,252.71,0.4854,-0.2963,0.8225,4.06,252.7,0,0,43.486,0,0,0,0,0,267.7,0,0,0,0,0,0,0,0,0,0,0,0,0,1,1,0,0,VALID,0,0,0,0,0,1,0,0,0,0,0,0,0,0,0,0,0,0,0,0,15.26,3630.2,6,0,0.74,0.5,58,1.35,0.74,0.74,44.6,FLYING
45.34,APPROACH,FLY_TO_FIX,220.35,159,-61.35,1223.68,1.98,4.06,3.45,252.61,-0.017,0,0,-19.31,1,0.6,4.5,1.35,0.35,0.0168,0.4,252.68,0.593,0,1,0.67,0.07,0,4.07,252.7,0.4862,-0.2965,0.822,4.02,252.68,0,0,43.312,0,0,0,0,0,267.7,0,0,0,0,0,0,0,0,0,0,0,0,0,1,1,0,0,VALID,0,0,0,0,0,1,0,0,0,0,0,0,0,0,0,0,0,0,0,0,11.48,3621.34,6,0,0.78,0.5,59,1.28,0.78,0.74,45.38,FLYING
46.1,APPROACH,FLY_TO_FIX,219.69,159,-60.69,1224.61,0.77,3.85,3.61,252.61,-0.033,0,0,-19.214,1,0.6,4.5,1.367,0.35,0.0168,0.4,252.67,0.588,0,1,0.33,0.06,0,4.04,252.68,0.4846,-0.2967,0.8229,4.14,252.67,0,0,43.144,0,0,0,0,0,267.7,0,0,0,0,0,0,0,0,0,0,0,0,0,1,1,0,0,VALID,0,0,0,0,0,1,0,0,0,0,0,0,0,0,0,0,0,0,0,0,8.71,3613.31,6,0,0.76,0.5,60,1.32,0.78,0.76,46.14,FLYING
46.86,APPROACH,FLY_TO_FIX,219.03,159,-60.03,1224.81,-0.15,3.79,3.82,252.62,-0.003,0,0,-19.118,1,0.6,4.5,1.381,0.35,0.0168,0.4,252.65,0.586,0,1,0.06,0.04,0,4.16,252.67,0.4816,-0.2968,0.8246,4.36,252.65,0,0,42.976,0,0,0,0,0,267.7,0,0,0,0,0,0,0,0,0,0,0,0,0,1,1,0,0,VALID,0,0,0,0,0,1,0,0,0,0,0,0,0,0,0,0,0,0,0,0,6.61,3605.31,6,0,0.76,0.5,61,1.32,0.76,0.76,46.9,FLYING
47.62,APPROACH,FLY_TO_FIX,218.34,159,-59.34,1224.5,-0.78,3.85,4.06,252.62,-0.009,0,0,-19.022,1,0.6,4.5,1.393,0.35,0.0168,0.4,252.64,0.587,0,1,-0.14,0.02,0,4.37,252.65,0.4781,-0.2969,0.8266,4.6,252.64,0,0,42.808,0,0,0,0,0,267.7,0,0,0,0,0,0,0,0,0,0,0,0,0,1,1,0,0,VALID,0,0,0,0,0,1,0,0,0,0,0,0,0,0,0,0,0,0,0,0,5.01,3596.99,6,0,0.76,0.5,62,1.32,0.76,0.76,47.66,FLYING
48.38,APPROACH,FLY_TO_FIX,217.66,159,-58.66,1223.86,-1.25,3.97,4.4,252.61,-0.028,0,0,-18.927,1,0.6,4.5,1.402,0.35,0.0168,0.4,252.63,0.59,0,1,-0.28,0.02,0,4.62,252.64,0.4739,-0.297,0.829,4.89,252.63,0,0,42.641,0,0,0,0,0,267.7,0,0,0,0,0,0,0,0,0,0,0,0,0,1,1,0,0,VALID,0,0,0,0,0,1,0,0,0,0,0,0,0,0,0,0,0,0,0,0,3.81,3588.84,6,0,0.76,0.5,63,1.32,0.76,0.76,48.42,FLYING
49.14,APPROACH,FLY_TO_FIX,216.9,159,-57.9,1223.14,-1.27,4.31,4.77,252.6,-0.014,0,0,-18.832,1,0.6,4.5,1.412,0.35,0.0168,0.4,252.61,0.593,0,1,-0.34,0.01,0,4.91,252.63,0.4683,-0.297,0.8321,5.28,252.61,0,0,42.474,0,0,0,0,0,267.7,0,0,0,0,0,0,0,0,0,0,0,0,0,1,1,0,0,VALID,0,0,0,0,0,1,0,0,0,0,0,0,0,0,0,0,0,0,0,0,2.89,3579.77,6,0,0.76,0.5,64,1.32,0.76,0.76,49.18,FLYING
49.9,APPROACH,FLY_TO_FIX,216.06,159,-57.06,1222.56,-0.94,4.67,5.04,252.59,-0.027,0,0,-18.738,1,0.6,4.5,1.423,0.35,0.0168,0.4,252.6,0.597,0,1,-0.29,0.01,0,5.29,252.61,0.4642,-0.2971,0.8344,5.57,252.6,0,0,42.308,0,0,0,0,0,267.7,0,0,0,0,0,0,0,0,0,0,0,0,0,1,1,0,0,VALID,0,0,0,0,0,1,0,0,0,0,0,0,0,0,0,0,0,0,0,0,2.19,3569.63,6,0,0.76,0.5,65,1.32,0.76,0.76,49.94,FLYING
50.66,APPROACH,FLY_TO_FIX,215.15,159,-56.15,1222.32,-0.33,5.02,5.24,252.58,-0.024,0,0,-18.645,1,0.6,4.5,1.435,0.35,0.0168,0.4,252.59,0.598,0,1,-0.16,0,0,5.58,252.6,0.4609,-0.2972,0.8362,5.8,252.59,0,0,42.142,0,0,0,0,0,267.7,0,0,0,0,0,0,0,0,0,0,0,0,0,1,1,0,0,VALID,0,0,0,0,0,1,0,0,0,0,0,0,0,0,0,0,0,0,0,0,1.66,3558.54,6,0,0.76,0.5,66,1.32,0.76,0.76,50.7,FLYING
51.42,APPROACH,FLY_TO_FIX,214.16,159,-55.16,1222.54,0.42,5.36,5.33,252.57,-0.044,0,0,-18.551,1,0.6,4.5,1.451,0.35,0.0168,0.4,252.57,0.598,0,1,0.02,0,0,5.81,252.59,0.4588,-0.2973,0.8373,5.95,252.57,0,0,41.977,0,0,0,0,0,267.7,0,0,0,0,0,0,0,0,0,0,0,0,0,1,1,0,0,VALID,0,0,0,0,0,1,0,0,0,0,0,0,0,0,0,0,0,0,0,0,1.26,3546.38,6,0,0.76,0.5,67,1.32,0.76,0.76,51.46,FLYING
52.18,APPROACH,FLY_TO_FIX,213.17,159,-54.17,1223.31,1.01,5.54,5.5,252.56,-0.048,0,0,-18.459,1,0.6,4.5,1.469,0.35,0.0168,0.4,252.56,0.595,0,1,0.19,0,0,5.96,252.57,0.4578,-0.2975,0.8378,6.03,252.56,0,0,41.813,0,0,0,0,0,267.7,0,0,0,0,0,0,0,0,0,0,0,0,0,1,1,0,0,VALID,0,0,0,0,0,1,0,0,0,0,0,0,0,0,0,0,0,0,0,0,0.96,3534.17,6,0,0.76,0.5,68,1.32,0.76,0.76,52.22,FLYING
52.94,APPROACH,FLY_TO_FIX,212.09,159,-53.09,1224.57,1.78,5.92,5.58,252.55,-0.029,0,0,-18.366,1,0.6,4.5,1.491,0.35,0.0168,0.4,252.54,0.589,0,1,0.39,0.01,0,6.04,252.56,0.4563,-0.2977,0.8386,6.14,252.54,0,0,41.65,0,0,0,0,0,267.7,0,0,0,0,0,0,0,0,0,0,0,0,0,1,1,0,0,VALID,0,0,0,0,0,1,0,0,0,0,0,0,0,0,0,0,0,0,0,0,0.62,3520.84,6,0,0.76,0.5,69,1.32,0.76,0.76,52.98,FLYING
53.7,APPROACH,FLY_TO_FIX,210.95,159,-51.95,1226.24,2.56,6.13,5.36,252.54,-0.022,0,0,-18.274,1,0.6,4.5,1.515,0.35,0.0168,0.4,252.53,0.581,0,1,0.61,0.01,0,6.16,252.54,0.4581,-0.298,0.8374,6.03,252.53,0,0,41.487,0,0,0,0,0,267.7,0,0,0,0,0,0,0,0,0,0,0,0,0,1,1,0,0,VALID,0,0,0,0,0,1,0,0,0,0,0,0,0,0,0,0,0,0,0,0,0.48,3506.5,6,0,0.76,0.5,70,1.32,0.76,0.76,53.74,FLYING
54.46,APPROACH,FLY_TO_FIX,209.86,159,-50.86,1228.35,2.98,6.09,5.24,252.52,-0.012,0,0,-18.183,1,0.6,4.5,1.541,0.35,0.0168,0.4,252.52,0.571,0,1,0.76,0.01,0,6.05,252.53,0.4608,-0.2983,0.8358,5.87,252.52,0,0,41.325,0,0,0,0,0,267.7,0,0,0,0,0,0,0,0,0,0,0,0,0,1,1,0,0,VALID,0,0,0,0,0,1,0,0,0,0,0,0,0,0,0,0,0,0,0,0,0.36,3492.77,6,0,0.76,0.5,71,1.32,0.76,0.76,54.5,FLYING
55.22,APPROACH,FLY_TO_FIX,208.82,159,-49.82,1230.82,3.05,5.87,5.44,252.51,-0.01,0,0,-18.092,1,0.6,4.5,1.566,0.35,0.0168,0.4,252.5,0.56,0,1,0.84,0.01,0,5.88,252.52,0.4624,-0.2986,0.8349,5.78,252.5,0,0,41.164,0,0,0,0,0,267.7,0,0,0,0,0,0,0,0,0,0,0,0,0,1,1,0,0,VALID,0,0,0,0,0,1,0,0,0,0,0,0,0,0,0,0,0,0,0,0,0.27,3479.26,6,0,0.76,0.5,72,1.32,0.76,0.76,55.26,FLYING
55.98,APPROACH,FLY_TO_FIX,207.57,159,-48.57,1232.96,3.3,6.1,4.79,252.49,-0.035,0,0,-18.002,1,0.6,4.5,1.596,0.35,0.0168,0.4,252.49,0.548,0,1,0.95,0,0,5.79,252.5,0.4671,-0.299,0.8321,5.48,252.49,0,0,41.004,0,0,0,0,0,267.7,0,0,0,0,0,0,0,0,0,0,0,0,0,1,1,0,0,VALID,0,0,0,0,0,1,0,0,0,0,0,0,0,0,0,0,0,0,0,0,0,3463.35,6,0,0.76,0.5,73,1.32,0.76,0.76,56.02,FLYING
56.74,APPROACH,FLY_TO_FIX,206.44,159,-47.44,1235.72,3.3,6.12,5.21,252.49,-0.038,0,0,-17.912,1,0.6,4.5,1.625,0.35,0.0168,0.4,252.48,0.534,0,1,0.92,0.01,0,5.5,252.49,0.4633,-0.2991,0.8342,5.74,252.48,0,0,40.844,0,0,0,0,0,267.7,0,0,0,0,0,0,0,0,0,0,0,0,0,1,1,0,0,VALID,0,0,0,0,0,1,0,0,0,0,0,0,0,0,0,0,0,0,0,0,0,3449.02,6,0,0.76,0.5,74,1.32,0.76,0.76,56.78,FLYING
57.5,APPROACH,FLY_TO_FIX,205.36,159,-46.36,1238.18,3.25,5.95,5.19,252.47,-0.016,0,0,-17.822,1,0.6,4.5,1.654,0.35,0.0168,0.4,252.46,0.522,0,1,0.88,0.01,0,5.76,252.48,0.4635,-0.2993,0.834,5.75,252.46,0,0,40.685,0,0,0,0,0,267.7,0,0,0,0,0,0,0,0,0,0,0,0,0,1,1,0,0,VALID,0,0,0,0,0,1,0,0,0,0,0,0,0,0,0,0,0,0,0,0,0,3435.09,6,0,0.76,0.5,75,1.32,0.76,0.76,57.54,FLYING
58.26,APPROACH,FLY_TO_FIX,204.32,159,-45.32,1240.5,3.1,5.92,5.1,252.45,0.012,0,0,-17.733,1,0.6,4.5,1.681,0.35,0.0168,0.4,252.45,0.51,0,1,0.89,0,0,5.76,252.46,0.4657,-0.2997,0.8327,5.61,252.45,0,0,40.527,0,0,0,0,0,267.7,0,0,0,0,0,0,0,0,0,0,0,0,0,1,1,0,0,VALID,0,0,0,0,0,1,0,0,0,0,0,0,0,0,0,0,0,0,0,0,0,3421.86,6,0,0.76,0.5,76,1.32,0.76,0.76,58.3,FLYING
59.02,APPROACH,FLY_TO_FIX,203.34,159,-44.34,1242.62,2.63,5.66,5.06,252.45,0.007,0,0,-17.644,1,0.6,4.5,1.706,0.35,0.0168,0.4,252.43,0.5,0,1,0.84,0.02,0,5.63,252.45,0.4693,-0.3,0.8305,5.39,252.43,0,0,40.37,0,0,0,0,0,267.7,0,0,0,0,0,0,0,0,0,0,0,0,0,1,1,0,0,VALID,0,0,0,0,0,1,0,0,0,0,0,0,0,0,0,0,0,0,0,0,0,3409.22,6,0,0.76,0.5,77,1.32,0.76,0.76,59.06,FLYING
59.78,APPROACH,FLY_TO_FIX,202.33,159,-43.33,1244.36,2.24,5.71,4.93,252.43,0.018,0,0,-17.556,1,0.6,4.5,1.729,0.35,0.0168,0.4,252.42,0.49,0,1,0.71,0.01,0,5.4,252.43,0.4688,-0.3002,0.8307,5.44,252.42,0,0,40.214,0,0,0,0,0,267.7,0,0,0,0,0,0,0,0,0,0,0,0,0,1,1,0,0,VALID,0,0,0,0,0,1,0,0,0,0,0,0,0,0,0,0,0,0,0,0,0,3396.22,6,0,0.76,0.5,78,1.32,0.76,0.76,59.82,FLYING
60.54,APPROACH,FLY_TO_FIX,201.44,159,-42.44,1245.89,1.7,5.55,5.1,252.42,-0.003,0,0,-17.468,1,0.6,4.5,1.749,0.35,0.0168,0.4,252.41,0.482,0,1,0.55,0.01,0,5.45,252.42,0.4674,-0.3004,0.8314,5.54,252.41,0,0,40.058,0,0,0,0,0,267.7,0,0,0,0,0,0,0,0,0,0,0,0,0,1,1,0,0,VALID,0,0,0,0,0,1,0,0,0,0,0,0,0,0,0,0,0,0,0,0,0,3384.79,6,0,0.76,0.5,79,1.32,0.76,0.76,60.58,FLYING
61.3,APPROACH,FLY_TO_FIX,200.56,159,-41.56,1246.99,1.3,5.57,5.2,252.4,-0.003,0,0,-17.381,1,0.6,4.5,1.766,0.35,0.0168,0.4,252.39,0.476,0,1,0.41,0.01,0,5.55,252.41,0.4656,-0.3006,0.8324,5.67,252.39,0,0,39.902,0,0,0,0,0,267.7,0,0,0,0,0,0,0,0,0,0,0,0,0,1,1,0,0,VALID,0,0,0,0,0,1,0,0,0,0,0,0,0,0,0,0,0,0,0,0,0,3373.47,6,0,0.76,0.5,80,1.32,0.76,0.76,61.34,FLYING
62.06,APPROACH,FLY_TO_FIX,199.66,159,-40.66,1247.7,0.75,5.38,5.24,252.39,-0.011,0,0,-17.294,1,0.6,4.5,1.78,0.35,0.0168,0.4,252.38,0.472,0,1,0.26,0.01,0,5.69,252.39,0.4662,-0.3009,0.8319,5.64,252.38,0,0,39.748,0,0,0,0,0,267.7,0,0,0,0,0,0,0,0,0,0,0,0,0,1,1,0,0,VALID,0,0,0,0,0,1,0,0,0,0,0,0,0,0,0,0,0,0,0,0,0,3361.86,6,0,0.76,0.5,81,1.32,0.76,0.76,62.1,FLYING
62.82,APPROACH,FLY_TO_FIX,198.78,159,-39.78,1248.16,0.6,5.57,5.34,252.38,-0.003,0,0,-17.208,1,0.6,4.5,1.792,0.35,0.0168,0.4,252.36,0.469,0,1,0.15,0.02,0,5.66,252.38,0.462,-0.3009,0.8342,5.93,252.36,0,0,39.594,0,0,0,0,0,267.7,0,0,0,0,0,0,0,0,0,0,0,0,0,1,1,0,0,VALID,0,0,0,0,0,1,0,0,0,0,0,0,0,0,0,0,0,0,0,0,0,3350.52,6,0,0.76,0.5,82,1.32,0.76,0.76,62.86,FLYING
63.58,APPROACH,FLY_TO_FIX,197.87,159,-38.87,1248.29,-0.22,5.2,5.53,252.36,-0.01,0,0,-17.122,1,0.6,4.5,1.803,0.35,0.0168,0.4,252.35,0.469,0,1,0.02,0.01,0,5.95,252.36,0.4653,-0.3013,0.8323,5.73,252.35,0,0,39.44,0,0,0,0,0,267.7,0,0,0,0,0,0,0,0,0,0,0,0,0,1,1,0,0,VALID,0,0,0,0,0,1,0,0,0,0,0,0,0,0,0,0,0,0,0,0,0,3338.97,6,0,0.76,0.5,83,1.32,0.76,0.76,63.62,FLYING
64.34,APPROACH,FLY_TO_FIX,196.91,159,-37.91,1248.44,-0.18,5.79,5.89,252.35,-0.019,0,0,-17.036,1,0.6,4.5,1.814,0.35,0.0168,0.4,252.33,0.468,0,1,-0.04,0.02,0,5.75,252.35,0.4566,-0.3012,0.8371,6.31,252.33,0,0,39.287,0,0,0,0,0,267.7,0,0,0,0,0,0,0,0,0,0,0,0,0,1,1,0,0,VALID,0,0,0,0,0,1,0,0,0,0,0,0,0,0,0,0,0,0,0,0,0,3326.59,6,0,0.76,0.5,84,1.32,0.76,0.76,64.38,FLYING
65.1,APPROACH,FLY_TO_FIX,195.9,159,-36.9,1248.59,0.12,6.13,6.1,252.33,0.004,0,0,-16.951,1,0.6,4.5,1.826,0.35,0.0168,0.4,252.32,0.467,0,1,-0.01,0.01,0,6.33,252.33,0.4529,-0.3013,0.8391,6.57,252.32,0,0,39.135,0,0,0,0,0,267.7,0,0,0,0,0,0,0,0,0,0,0,0,0,1,1,0,0,VALID,0,0,0,0,0,1,0,0,0,0,0,0,0,0,0,0,0,0,0,0,0,3313.6,6,0,0.76,0.5,85,1.32,0.76,0.76,65.14,FLYING
65.86,APPROACH,FLY_TO_FIX,194.91,159,-35.91,1248.65,0.2,6.04,5.94,252.32,0.013,0,0,-16.866,1,0.6,4.5,1.838,0.35,0.0168,0.4,252.3,0.467,0,1,0.06,0.01,0,6.59,252.32,0.4554,-0.3016,0.8376,6.41,252.3,0,0,38.984,0,0,0,0,0,267.7,0,0,0,0,0,0,0,0,0,0,0,0,0,1,1,0,0,VALID,0,0,0,0,0,1,0,0,0,0,0,0,0,0,0,0,0,0,0,0,0,3300.81,6,0,0.76,0.5,86,1.32,0.76,0.76,65.9,FLYING
66.62,APPROACH,FLY_TO_FIX,193.95,159,-34.95,1249.13,0.22,6.2,6.42,252.3,-0.008,0,0,-16.782,1,0.6,4.5,1.849,0.35,0.0168,0.4,252.29,0.465,0,1,0.02,0.01,0,6.43,252.3,0.4506,-0.3017,0.8402,6.74,252.29,0,0,38.834,0,0,0,0,0,267.7,0,0,0,0,0,0,0,0,0,0,0,0,0,1,1,0,0,VALID,0,0,0,0,0,1,0,0,0,0,0,0,0,0,0,0,0,0,0,0,0,3288.39,6,0,0.76,0.5,87,1.32,0.76,0.76,66.66,FLYING
67.38,APPROACH,FLY_TO_FIX,192.82,159,-33.82,1249.68,0.84,6.73,6.47,252.28,0,0,0,-16.698,1,0.6,4.5,1.863,0.35,0.0168,0.4,252.27,0.462,0,1,0.17,0.01,0,6.76,252.29,0.447,-0.3018,0.8421,6.99,252.27,0,0,38.684,0,0,0,0,0,267.7,0,0,0,0,0,0,0,0,0,0,0,0,0,1,1,0,0,VALID,0,0,0,0,0,1,0,0,0,0,0,0,0,0,0,0,0,0,0,0,0,3273.77,6,0,0.76,0.5,88,1.32,0.76,0.76,67.42,FLYING
68.14,APPROACH,FLY_TO_FIX,191.76,159,-32.76,1250.58,1.02,6.69,6.69,252.28,0.006,0,0,-16.614,1,0.6,4.5,1.877,0.35,0.0168,0.4,252.26,0.459,0,1,0.26,0.02,0,7.01,252.27,0.4466,-0.302,0.8422,7.03,252.26,0,0,38.535,0,0,0,0,0,267.7,0,0,0,0,0,0,0,0,0,0,0,0,0,1,1,0,0,VALID,0,0,0,0,0,1,0,0,0,0,0,0,0,0,0,0,0,0,0,0,0,3260.11,6,0,0.76,0.5,89,1.32,0.76,0.76,68.18,FLYING
68.9,APPROACH,FLY_TO_FIX,190.58,159,-31.58,1251.79,1.6,7.18,6.84,252.26,-0.001,0,0,-16.531,1,0.6,4.5,1.893,0.35,0.0168,0.4,252.24,0.453,0,1,0.4,0.02,0,7.04,252.26,0.4432,-0.3021,0.844,7.27,252.24,0,0,38.386,0,0,0,0,0,267.7,0,0,0,0,0,0,0,0,0,0,0,0,0,1,1,0,0,VALID,0,0,0,0,0,1,0,0,0,0,0,0,0,0,0,0,0,0,0,0,0,3244.74,6,0,0.76,0.5,90,1.32,0.76,0.76,68.94,FLYING
69.66,APPROACH,FLY_TO_FIX,189.39,159,-30.39,1253.17,2.02,7.23,6.66,252.24,-0.006,0,0,-16.449,1,0.6,4.5,1.912,0.35,0.0168,0.4,252.22,0.446,0,1,0.57,0.02,0,7.28,252.24,0.4458,-0.3025,0.8425,7.11,252.22,0,0,38.239,0,0,0,0,0,267.7,0,0,0,0,0,0,0,0,0,0,0,0,0,1,1,0,0,VALID,0,0,0,0,0,1,0,0,0,0,0,0,0,0,0,0,0,0,0,0,0,3229.14,6,0,0.76,0.5,91,1.32,0.76,0.76,69.7,FLYING
70.42,APPROACH,FLY_TO_FIX,188.26,159,-29.26,1254.92,2.25,7.29,6.76,252.22,-0.011,0,0,-16.366,1,0.6,4.5,1.931,0.35,0.0168,0.4,252.21,0.438,0,1,0.65,0.02,0,7.12,252.22,0.4453,-0.3028,0.8427,7.15,252.21,0,0,38.092,0,0,0,0,0,267.7,0,0,0,0,0,0,0,0,0,0,0,0,0,1,1,0,0,VALID,0,0,0,0,0,1,0,0,0,0,0,0,0,0,0,0,0,0,0,0,0,3214.28,6,0,0.76,0.5,92,1.32,0.76,0.76,70.46,FLYING
71.18,APPROACH,FLY_TO_FIX,187.1,159,-28.1,1256.73,2.43,7.42,6.74,252.21,-0.007,0,0,-16.285,1,0.6,4.5,1.95,0.35,0.0168,0.4,252.19,0.429,0,1,0.73,0.02,0,7.17,252.21,0.4452,-0.303,0.8426,7.17,252.19,0,0,37.946,0,0,0,0,0,267.7,0,0,0,0,0,0,0,0,0,0,0,0,0,1,1,0,0,VALID,0,0,0,0,0,1,0,0,0,0,0,0,0,0,0,0,0,0,0,0,0,3199.1,6,0,0.76,0.5,93,1.32,0.76,0.76,71.22,FLYING
71.94,APPROACH,FLY_TO_FIX,185.93,159,-26.93,1258.56,2.61,7.43,6.57,252.19,-0.005,0,0,-16.203,1,0.6,4.5,1.97,0.35,0.0168,0.4,252.17,0.419,0,1,0.77,0.02,0,7.18,252.19,0.4466,-0.3034,0.8417,7.09,252.17,0,0,37.801,0,0,0,0,0,267.7,0,0,0,0,0,0,0,0,0,0,0,0,0,1,1,0,0,VALID,0,0,0,0,0,1,0,0,0,0,0,0,0,0,0,0,0,0,0,0,0,3183.64,6,0,0.76,0.5,94,1.32,0.76,0.76,71.98,FLYING
72.7,APPROACH,FLY_TO_FIX,184.85,159,-25.85,1260.24,2.34,7.09,6.35,252.18,-0.001,0,0,-16.122,1,0.6,4.5,1.989,0.35,0.0168,0.4,252.16,0.411,0,1,0.77,0.02,0,7.1,252.17,0.4516,-0.3039,0.8389,6.77,252.16,0,0,37.657,0,0,0,0,0,267.7,0,0,0,0,0,0,0,0,0,0,0,0,0,1,1,0,0,VALID,0,0,0,0,0,1,0,0,0,0,0,0,0,0,0,0,0,0,0,0,0,3169.43,6,0,0.76,0.5,95,1.32,0.76,0.76,72.74,FLYING
73.46,APPROACH,FLY_TO_FIX,183.83,159,-24.83,1261.71,1.87,6.87,6.27,252.16,0.011,0,0,-16.042,1,0.6,4.5,2.005,0.35,0.0168,0.4,252.14,0.403,0,1,0.66,0.02,0,6.79,252.16,0.4535,-0.3043,0.8377,6.65,252.14,0,0,37.514,0,0,0,0,0,267.7,0,0,0,0,0,0,0,0,0,0,0,0,0,1,1,0,0,VALID,0,0,0,0,0,1,0,0,0,0,0,0,0,0,0,0,0,0,0,0,0,3156.02,6,0,0.76,0.5,96,1.32,0.76,0.76,73.5,FLYING
74.22,APPROACH,FLY_TO_FIX,182.81,159,-23.81,1263.03,1.54,6.97,6.49,252.14,-0.003,0,0,-15.961,1,0.6,4.5,2.02,0.35,0.0168,0.4,252.12,0.396,0,1,0.5,0.01,0,6.67,252.14,0.4494,-0.3044,0.8399,6.93,252.12,0,0,37.371,0,0,0,0,0,267.7,0,0,0,0,0,0,0,0,0,0,0,0,0,1,1,0,0,VALID,0,0,0,0,0,1,0,0,0,0,0,0,0,0,0,0,0,0,0,0,0,3142.58,6,0,0.76,0.5,97,1.32,0.76,0.76,74.26,FLYING
74.98,APPROACH,FLY_TO_FIX,181.8,159,-22.8,1263.78,1.03,6.71,6.28,252.12,0,0,0,-15.882,1,0.6,4.5,2.033,0.35,0.0168,0.4,252.1,0.392,0,1,0.41,0.02,0,6.95,252.12,0.4534,-0.3048,0.8376,6.69,252.1,0,0,37.229,0,0,0,0,0,267.7,0,0,0,0,0,0,0,0,0,0,0,0,0,1,1,0,0,VALID,0,0,0,0,0,1,0,0,0,0,0,0,0,0,0,0,0,0,0,0,0,3129.23,6,0,0.76,0.5,98,1.32,0.76,0.76,75.02,FLYING
75.74,APPROACH,FLY_TO_FIX,180.88,159,-21.88,1264.49,0.42,6.62,6.72,252.1,0.007,0,0,-15.802,1,0.6,4.5,2.042,0.35,0.0168,0.4,252.09,0.388,0,1,0.2,0.02,0,6.7,252.1,0.4497,-0.305,0.8395,6.94,252.09,0,0,37.088,0,0,0,0,0,267.7,0,0,0,0,0,0,0,0,0,0,0,0,0,1,1,0,0,VALID,0,0,0,0,0,1,0,0,0,0,0,0,0,0,0,0,0,0,0,0,0,3117.2,6,0,0.76,0.5,99,1.32,0.76,0.76,75.78,FLYING
76.5,APPROACH,FLY_TO_FIX,179.84,159,-20.84,1264.93,0.27,7.04,7.03,252.09,0.018,0,0,-15.723,1,0.6,4.5,2.052,0.35,0.0168,0.4,252.07,0.386,0,1,0.1,0.02,0,6.95,252.09,0.4432,-0.305,0.8429,7.37,252.07,0,0,36.948,0,0,0,0,0,267.7,0,0,0,0,0,0,0,0,0,0,0,0,0,1,1,0,0,VALID,0,0,0,0,0,1,0,0,0,0,0,0,0,0,0,0,0,0,0,0,0,3103.62,6,0,0.76,0.5,100,1.32,0.76,0.76,76.54,FLYING
77.26,APPROACH,FLY_TO_FIX,178.78,159,-19.78,1265.3,0.24,7.29,7.3,252.07,0.01,0,0,-15.644,1,0.6,4.5,2.061,0.35,0.0168,0.4,252.05,0.384,0,1,0.07,0.02,0,7.39,252.07,0.4394,-0.3051,0.8449,7.63,252.05,0,0,36.808,0,0,0,0,0,267.7,0,0,0,0,0,0,0,0,0,0,0,0,0,1,1,0,0,VALID,0,0,0,0,0,1,0,0,0,0,0,0,0,0,0,0,0,0,0,0,0,3089.78,6,0,0.76,0.5,101,1.32,0.76,0.76,77.3,FLYING
78.02,APPROACH,FLY_TO_FIX,177.68,159,-18.68,1265.65,0.31,7.49,7.47,252.05,0.011,0,0,-15.566,1,0.6,4.5,2.071,0.35,0.0168,0.4,252.03,0.382,0,1,0.09,0.02,0,7.64,252.05,0.4369,-0.3053,0.8461,7.81,252.03,0,0,36.669,0,0,0,0,0,267.7,0,0,0,0,0,0,0,0,0,0,0,0,0,1,1,0,0,VALID,0,0,0,0,0,1,0,0,0,0,0,0,0,0,0,0,0,0,0,0,0,3075.29,6,0,0.76,0.5,102,1.32,0.76,0.76,78.06,FLYING
78.78,APPROACH,FLY_TO_FIX,176.54,159,-17.54,1266.06,0.44,7.67,7.61,252.03,-0.017,0,0,-15.488,1,0.6,4.5,2.082,0.35,0.0168,0.4,252.01,0.38,0,1,0.13,0.02,0,7.82,252.03,0.4349,-0.3055,0.8471,7.95,252.01,0,0,36.531,0,0,0,0,0,267.7,0,0,0,0,0,0,0,0,0,0,0,0,0,1,1,0,0,VALID,0,0,0,0,0,1,0,0,0,0,0,0,0,0,0,0,0,0,0,0,0,3060.43,6,0,0.76,0.5,103,1.32,0.76,0.76,78.82,FLYING
79.54,APPROACH,FLY_TO_FIX,175.39,159,-16.39,1266.56,0.57,7.83,7.72,252.01,-0.027,0,0,-15.411,1,0.6,4.5,2.094,0.35,0.0168,0.4,251.99,0.378,0,1,0.17,0.02,0,7.96,252.01,0.4331,-0.3058,0.8479,8.07,251.99,0,0,36.393,0,0,0,0,0,267.7,0,0,0,0,0,0,0,0,0,0,0,0,0,1,1,0,0,VALID,0,0,0,0,0,1,0,0,0,0,0,0,0,0,0,0,0,0,0,0,0,3045.33,6,0,0.76,0.5,104,1.32,0.76,0.76,79.58,FLYING
80.3,APPROACH,FLY_TO_FIX,174.21,159,-15.21,1267.16,0.73,7.99,7.81,251.99,-0.014,0,0,-15.334,1,0.6,4.5,2.108,0.35,0.0168,0.4,251.97,0.375,0,1,0.21,0.02,0,8.08,251.99,0.4317,-0.306,0.8485,8.17,251.97,0,0,36.257,0,0,0,0,0,267.7,0,0,0,0,0,0,0,0,0,0,0,0,0,1,1,0,0,VALID,0,0,0,0,0,1,0,0,0,0,0,0,0,0,0,0,0,0,0,0,0,3029.87,6,0,0.76,0.5,105,1.32,0.76,0.76,80.34,FLYING
81.06,APPROACH,FLY_TO_FIX,173.02,159,-14.02,1267.84,0.84,8.11,7.9,251.97,-0.012,0,0,-15.257,1,0.6,4.5,2.122,0.35,0.0168,0.4,251.95,0.372,0,1,0.26,0.02,0,8.18,251.97,0.4307,-0.3063,0.8489,8.25,251.95,0,0,36.121,0,0,0,0,0,267.7,0,0,0,0,0,0,0,0,0,0,0,0,0,1,1,0,0,VALID,0,0,0,0,0,1,0,0,0,0,0,0,0,0,0,0,0,0,0,0,0,3014.3,6,0,0.76,0.5,106,1.32,0.76,0.76,81.1,FLYING
81.82,APPROACH,FLY_TO_FIX,171.85,159,-12.85,1268.55,0.84,8.2,7.99,251.95,0.003,0,0,-15.181,1,0.6,4.5,2.137,0.35,0.0168,0.4,251.93,0.368,0,1,0.28,0.03,0,8.26,251.95,0.4295,-0.3066,0.8494,8.33,251.93,0,0,35.986,0,0,0,0,0,267.7,0,0,0,0,0,0,0,0,0,0,0,0,0,1,1,0,0,VALID,0,0,0,0,0,1,0,0,0,0,0,0,0,0,0,0,0,0,0,0,0,2998.88,6,0,0.76,0.5,107,1.32,0.76,0.76,81.86,FLYING
82.58,APPROACH,FLY_TO_FIX,170.67,159,-11.67,1269.25,0.82,8.3,8.09,251.92,0.002,0,0,-15.105,1,0.6,4.5,2.152,0.35,0.0168,0.4,251.9,0.365,0,1,0.28,0.02,0,8.34,251.93,0.4281,-0.3069,0.85,8.43,251.9,0,0,35.852,0,0,0,0,0,267.7,0,0,0,0,0,0,0,0,0,0,0,0,0,1,1,0,0,VALID,0,0,0,0,0,1,0,0,0,0,0,0,0,0,0,0,0,0,0,0,0,2983.46,6,0,0.76,0.5,108,1.32,0.76,0.76,82.62,FLYING
83.34,APPROACH,FLY_TO_FIX,169.49,159,-10.49,1269.93,0.79,8.4,8.2,251.91,-0.004,0,0,-15.03,1,0.6,4.5,2.167,0.35,0.0168,0.4,251.88,0.361,0,1,0.27,0.03,0,8.44,251.9,0.4267,-0.3072,0.8506,8.53,251.88,0,0,35.719,0,0,0,0,0,267.7,0,0,0,0,0,0,0,0,0,0,0,0,0,1,1,0,0,VALID,0,0,0,0,0,1,0,0,0,0,0,0,0,0,0,0,0,0,0,0,0,2968.02,6,0,0.76,0.5,109,1.32,0.76,0.76,83.38,FLYING
84.1,APPROACH,FLY_TO_FIX,168.27,159,-9.27,1270.63,0.82,8.52,8.3,251.88,0.002,0,0,-14.954,1,0.6,4.5,2.182,0.35,0.0168,0.4,251.86,0.358,0,1,0.28,0.02,0,8.54,251.88,0.4253,-0.3075,0.8512,8.63,251.86,0,0,35.587,0,0,0,0,0,267.7,0,0,0,0,0,0,0,0,0,0,0,0,0,1,1,0,0,VALID,0,0,0,0,0,1,0,0,0,0,0,0,0,0,0,0,0,0,0,0,0,2952.1,6,0,0.76,0.5,110,1.32,0.76,0.76,84.14,FLYING
84.86,APPROACH,FLY_TO_FIX,167.06,159,-8.06,1271.29,0.74,8.62,8.41,251.86,0.001,0,0,-14.88,1,0.6,4.5,2.198,0.35,0.0168,0.4,251.83,0.354,0,1,0.27,0.03,0,8.64,251.86,0.4238,-0.3079,0.8518,8.74,251.83,0,0,35.456,0,0,0,0,0,267.7,0,0,0,0,0,0,0,0,0,0,0,0,0,1,1,0,0,VALID,0,0,0,0,0,1,0,0,0,0,0,0,0,0,0,0,0,0,0,0,0,2936.34,6,0,0.76,0.5,111,1.32,0.76,0.76,84.9,FLYING
85.62,APPROACH,FLY_TO_FIX,165.83,159,-6.83,1271.9,0.66,8.72,8.55,251.84,0.002,0.0296,0,-18.356,1,0.6,4.5,2.214,0.35,0.0168,0.4,251.81,0.351,0,1,0.25,0.03,0,8.75,251.83,0.4221,-0.3082,0.8526,8.85,251.81,0,0,35.326,0,0,0,0,0,267.7,0,0,0,0,0,0,0,0,0,0,0,0,0,1,1,0,0,VALID,0,0,0,0,0,1,0,0,0,0,0,0,0,0,0,0,0,0,0,0,0,2920.68,6,0,0.76,0.5,112,1.32,0.76,0.76,85.66,FLYING
86.38,APPROACH,FLY_TO_FIX,164.6,159,-5.6,1272.49,0.63,8.82,8.67,251.81,0.002,0.0935,0,-20,1,0.6,4.5,2.23,0.35,0.0168,0.4,251.78,0.348,0,1,0.23,0.03,0,8.86,251.81,0.4203,-0.3085,0.8534,8.98,251.78,0,0,35.196,0,0,0,0,0,267.7,0,0,0,0,0,0,0,0,0,0,0,0,0,1,1,0,0,VALID,0,0,0,0,0,1,0,0,0,0,0,0,0,0,0,0,0,0,0,0,11.84,2904.8,6,0,0.76,0.5,113,1.32,0.76,0.76,86.42,FLYING
87.14,APPROACH,FLY_TO_FIX,163.45,159,-4.45,1273.04,0.58,8.95,8.8,251.79,0.005,0.1778,0,-20,1,0.6,4.5,2.23,0.35,0.0168,0.4,251.76,0.345,0,1,0.21,0.04,0,8.99,251.78,0.4183,-0.3088,0.8542,9.11,251.76,0,0,35.068,0,0,0,0,0,267.7,0,0,0,0,0,0,0,0,0,0,0,0,0,1,1,0,0,VALID,0,0,0,0,0,1,0,0,0,0,0,0,0,0,0,0,0,0,0,0,46.76,2889.77,6,0,0.76,0.5,114,1.32,0.76,0.76,87.18,FLYING
87.9,APPROACH,FLY_TO_FIX,162.34,159,-3.34,1273.57,0.56,9.07,8.94,251.76,-0.003,0.2459,0,-20,1,0.6,4.5,2.23,0.35,0.0168,0.4,251.73,0.343,0,1,0.21,0.03,0,9.12,251.76,0.4164,-0.3092,0.855,9.24,251.73,0,0,34.94,0,0,0,0,0,267.7,0,0,0,0,0,0,0,0,0,0,0,0,0,1,1,0,0,VALID,0,0,0,0,0,1,0,0,0,0,0,0,0,0,0,0,0,0,0,0,111.35,2875.46,6,0,0.76,0.5,115,1.32,0.76,0.76,87.94,FLYING
88.66,APPROACH,FLY_TO_FIX,161.37,159,-2.37,1274.08,0.58,9.2,9.06,251.74,-0.003,0.2884,0,-20,1,0.6,4.5,2.23,0.35,0.0168,0.4,251.7,0.34,0,1,0.2,0.04,0,9.25,251.73,0.4146,-0.3095,0.8558,9.37,251.7,0,0,34.813,0,0,0,0,0,267.7,0,0,0,0,0,0,0,0,0,0,0,0,0,1,1,0,0,VALID,0,0,0,0,0,1,0,0,0,0,0,0,0,0,0,0,0,0,0,0,193.97,2862.84,6,0,0.76,0.5,116,1.32,0.76,0.76,88.7,FLYING
89.42,APPROACH,FLY_TO_FIX,160.55,159,-1.55,1274.63,0.61,9.33,9.17,251.71,-0.007,0.3043,0,-20,1,0.6,4.5,2.23,0.35,0.0168,0.4,251.67,0.337,0,1,0.22,0.04,0,9.38,251.7,0.4129,-0.3099,0.8564,9.48,251.67,0,0,34.687,0,0,0,0,0,267.7,0,0,0,0,0,0,0,0,0,0,0,0,0,1,1,0,0,VALID,0,0,0,0,0,1,0,0,0,0,0,0,0,0,0,0,0,0,0,0,281.77,2852.28,6,0,0.76,0.5,117,1.32,0.76,0.76,89.46,FLYING
90.18,APPROACH,FLY_TO_FIX,159.9,159,-0.9,1275.2,0.67,9.44,9.27,251.68,0.002,0.2915,0,-20,1,0.6,4.5,2.23,0.35,0.0168,0.4,251.64,0.335,0,1,0.23,0.04,0,9.49,251.67,0.4115,-0.3103,0.8569,9.58,251.64,0,0,34.561,0,0,0,0,0,267.7,0,0,0,0,0,0,0,0,0,0,0,0,0,1,1,0,0,VALID,0,0,0,0,0,1,0,0,0,0,0,0,0,0,0,0,0,0,0,0,363.36,2843.96,6,0,0.76,0.5,118,1.32,0.76,0.76,90.22,FLYING
90.94,APPROACH,FLY_TO_FIX,159.36,159,-0.36,1275.86,0.83,9.56,9.33,251.65,0.007,0.2679,0,-20,1,0.6,4.5,2.23,0.35,0.0168,0.4,251.61,0.332,0,1,0.28,0.04,0,9.59,251.64,0.4106,-0.3108,0.8572,9.64,251.61,0,0,34.436,0,0,0,0,0,267.7,0,0,0,0,0,0,0,0,0,0,0,0,0,1,1,0,0,VALID,0,0,0,0,0,1,0,0,0,0,0,0,0,0,0,0,0,0,0,0,428.2,2836.99,6,0,0.76,0.5,119,1.32,0.76,0.76,90.98,FLYING
91.7,APPROACH,FLY_TO_FIX,158.96,159,0.04,1276.59,0.92,9.65,9.38,251.62,0.002,0.2288,0,-19.993,1,0.6,4.5,2.23,0.35,0.0168,0.4,251.58,0.328,0,1,0.32,0.04,0,9.66,251.61,0.4099,-0.3113,0.8574,9.69,251.58,0,0,34.311,0,0,0,0,0,267.7,0,0,0,0,0,0,0,0,0,0,0,0,0,1,1,0,0,VALID,0,0,0,0,0,1,0,0,0,0,0,0,0,0,0,0,0,0,0,0,474.44,2831.72,6,0,0.76,0.5,120,1.32,0.76,0.76,91.74,FLYING
92.46,APPROACH,FLY_TO_FIX,158.63,159,0.37,1277.37,1.02,9.72,9.41,251.58,-0.001,0.1891,0,-19.819,1,0.6,4.5,2.23,0.35,0.0168,0.4,251.54,0.324,0,1,0.35,0.04,0,9.7,251.58,0.4094,-0.3118,0.8574,9.73,251.54,0,0,34.186,0,0,0,0,0,267.7,0,0,0,0,0,0,0,0,0,0,0,0,0,1,1,0,0,VALID,0,0,0,0,0,1,0,0,0,0,0,0,0,0,0,0,0,0,0,0,498.58,2827.44,6,0,0.76,0.5,121,1.32,0.76,0.76,92.5,FLYING
93.22,APPROACH,FLY_TO_FIX,158.3,159,0.7,1278.25,1.17,9.79,9.42,251.55,0.01,0.1634,0,-19.482,1,0.6,4.5,2.23,0.35,0.0168,0.4,251.51,0.32,0,1,0.4,0.05,0,9.74,251.54,0.4093,-0.3124,0.8573,9.74,251.51,0,0,34.062,0,0,0,0,0,267.7,0,0,0,0,0,0,0,0,0,0,0,0,0,1,1,0,0,VALID,0,0,0,0,0,1,0,0,0,0,0,0,0,0,0,0,0,0,0,0,503.31,2823.21,6,0,0.76,0.5,122,1.32,0.76,0.76,93.26,FLYING
93.98,APPROACH,FLY_TO_FIX,157.98,159,1.02,1279.21,1.27,9.83,9.42,251.51,-0.001,0.1513,0,-18.983,1,0.6,4.5,2.23,0.35,0.0168,0.4,251.47,0.315,0,1,0.45,0.04,0,9.75,251.51,0.4094,-0.313,0.857,9.74,251.47,0,0,33.938,0,0,0,0,0,267.7,0,0,0,0,0,0,0,0,0,0,0,0,0,1,1,0,0,VALID,0,0,0,0,0,1,0,0,0,0,0,0,0,0,0,0,0,0,0,0,492.75,2818.97,6,0,0.76,0.5,123,1.32,0.76,0.76,94.02,FLYING
94.74,APPROACH,FLY_TO_FIX,157.61,159,1.39,1280.23,1.39,9.86,9.4,251.47,-0.001,0.1582,0,-18.304,1,0.6,4.5,2.23,0.35,0.0168,0.4,251.43,0.31,0,1,0.48,0.04,0,9.75,251.47,0.4097,-0.3137,0.8566,9.72,251.43,0,0,33.814,0,0,0,0,0,267.7,0,0,0,0,0,0,0,0,0,0,0,0,0,1,1,0,0,VALID,0,0,0,0,0,1,0,0,0,0,0,0,0,0,0,0,0,0,0,0,476.19,2814.22,6,0,0.76,0.5,124,1.32,0.76,0.76,94.78,FLYING
95.5,APPROACH,FLY_TO_FIX,157.24,159,1.76,1281.27,1.4,9.85,9.38,251.43,-0.003,0.1776,0,-17.437,1,0.6,4.5,2.23,0.35,0.0168,0.4,251.39,0.305,0,1,0.51,0.04,0,9.73,251.43,0.4103,-0.3144,0.856,9.69,251.39,0,0,33.69,0,0,0,0,0,267.7,0,0,0,0,0,0,0,0,0,0,0,0,0,1,1,0,0,VALID,0,0,0,0,0,1,0,0,0,0,0,0,0,0,0,0,0,0,0,0,467.85,2809.36,6,0,0.76,0.5,125,1.32,0.76,0.76,95.54,FLYING
96.26,APPROACH,FLY_TO_FIX,156.86,159,2.14,1282.29,1.35,9.82,9.35,251.4,0,0.2041,0,-16.383,1,0.6,4.5,2.23,0.35,0.0168,0.4,251.35,0.3,0,1,0.51,0.05,0,9.7,251.39,0.411,-0.3151,0.8555,9.65,251.35,0,0,33.567,0,0,0,0,0,267.7,0,0,0,0,0,0,0,0,0,0,0,0,0,1,1,0,0,VALID,0,0,0,0,0,1,0,0,0,0,0,0,0,0,0,0,0,0,0,0,471.17,2804.51,6,0,0.76,0.5,126,1.32,0.76,0.76,96.3,FLYING
97.02,APPROACH,FLY_TO_FIX,156.53,159,2.47,1283.25,1.26,9.78,9.34,251.36,0.01,0.2289,0,-15.161,1,0.6,4.5,2.23,0.35,0.0168,0.4,251.3,0.295,0,1,0.47,0.05,0,9.66,251.35,0.4113,-0.3159,0.855,9.63,251.3,0,0,33.444,0,0,0,0,0,267.7,0,0,0,0,0,0,0,0,0,0,0,0,0,1,1,0,0,VALID,0,0,0,0,0,1,0,0,0,0,0,0,0,0,0,0,0,0,0,0,484.46,2800.15,6,0,0.76,0.5,127,1.32,0.76,0.76,97.06,FLYING
97.78,APPROACH,FLY_TO_FIX,156.22,159,2.78,1284.16,1.2,9.74,9.32,251.31,0.001,0.2562,0,-13.78,1,0.6,4.5,2.23,0.35,0.0168,0.4,251.26,0.29,0,1,0.45,0.05,0,9.65,251.3,0.4117,-0.3167,0.8545,9.61,251.26,0,0,33.321,0,0,0,0,0,267.7,0,0,0,0,0,0,0,0,0,0,0,0,0,1,1,0,0,VALID,0,0,0,0,0,1,0,0,0,0,0,0,0,0,0,0,0,0,0,0,505.61,2796.07,6,0,0.76,0.5,128,1.32,0.76,0.76,97.82,FLYING
98.54,APPROACH,FLY_TO_FIX,155.97,159,3.03,1285.01,1.1,9.69,9.31,251.27,0.006,0.276,0,-12.272,1,0.6,4.5,2.23,0.35,0.0168,0.4,251.21,0.286,0,1,0.42,0.06,0,9.62,251.26,0.412,-0.3175,0.8541,9.59,251.21,0,0,33.198,0,0,0,0,0,267.7,0,0,0,0,0,0,0,0,0,0,0,0,0,1,1,0,0,VALID,0,0,0,0,0,1,0,0,0,0,0,0,0,0,0,0,0,0,0,0,534.49,2792.84,6,0,0.76,0.5,129,1.32,0.76,0.76,98.58,FLYING
99.3,APPROACH,FLY_TO_FIX,155.8,159,3.2,1285.76,0.96,9.66,9.32,251.22,0.008,0.2853,0,-10.677,1,0.6,4.5,2.23,0.35,0.0168,0.4,251.15,0.282,0,1,0.38,0.07,0,9.61,251.21,0.4121,-0.3184,0.8537,9.59,251.15,0,0,33.076,0,0,0,0,0,267.7,0,0,0,0,0,0,0,0,0,0,0,0,0,1,1,0,0,VALID,0,0,0,0,0,1,0,0,0,0,0,0,0,0,0,0,0,0,0,0,567.23,2790.64,6,0,0.76,0.5,130,1.32,0.76,0.76,99.34,FLYING
100.06,APPROACH,FLY_TO_FIX,155.73,159,3.27,1286.39,0.78,9.62,9.35,251.17,-0.003,0.2813,0,-9.041,1,0.6,4.5,2.23,0.35,0.0168,0.4,251.1,0.279,0,1,0.31,0.07,0,9.6,251.15,0.4117,-0.3193,0.8536,9.62,251.1,0,0,32.954,0,0,0,0,0,267.7,0,0,0,0,0,0,0,0,0,0,0,0,0,1,1,0,0,VALID,0,0,0,0,0,1,0,0,0,0,0,0,0,0,0,0,0,0,0,0,599.27,2789.63,6,0,0.76,0.5,131,1.32,0.76,0.76,100.1,FLYING
100.82,APPROACH,FLY_TO_FIX,155.7,159,3.3,1286.93,0.65,9.6,9.39,251.11,-0.004,0.2742,0,-7.392,1,0.6,4.5,2.23,0.35,0.0168,0.4,251.03,0.276,0,1,0.26,0.08,0,9.63,251.1,0.4112,-0.3203,0.8535,9.65,251.03,0,0,32.831,0,0,0,0,0,267.7,0,0,0,0,0,0,0,0,0,0,0,0,0,1,1,0,0,VALID,0,0,0,0,0,1,0,0,0,0,0,0,0,0,0,0,0,0,0,0,625.43,2789.26,6,0,0.76,0.5,132,1.32,0.76,0.76,100.86,FLYING
101.58,APPROACH,FLY_TO_FIX,155.72,159,3.28,1287.41,0.59,9.62,9.43,251.06,0.011,0.2651,0,-5.75,1,0.6,4.5,2.23,0.35,0.0168,0.4,250.97,0.273,0,1,0.22,0.09,0,9.66,251.03,0.4105,-0.3213,0.8534,9.69,250.97,0,0,32.709,0,0,0,0,0,267.7,0,0,0,0,0,0,0,0,0,0,0,0,0,1,1,0,0,VALID,0,0,0,0,0,1,0,0,0,0,0,0,0,0,0,0,0,0,0,0,645.24,2789.44,6,0,0.76,0.5,133,1.32,0.76,0.76,101.62,FLYING
102.34,APPROACH,FLY_TO_FIX,155.76,159,3.24,1287.87,0.55,9.64,9.46,250.99,0.002,0.2582,0,-4.126,1,0.6,4.5,2.23,0.35,0.0168,0.4,250.9,0.271,0,1,0.21,0.09,0,9.7,250.97,0.41,-0.3224,0.8532,9.72,250.9,0,0,32.587,0,0,0,0,0,267.7,0,0,0,0,0,0,0,0,0,0,0,0,0,1,1,0,0,VALID,0,0,0,0,0,1,0,0,0,0,0,0,0,0,0,0,0,0,0,0,658.76,2789.92,6,0,0.76,0.5,134,1.32,0.76,0.76,102.38,FLYING
103.1,APPROACH,FLY_TO_FIX,155.84,159,3.16,1288.28,0.44,9.66,9.53,250.92,0.001,0.2476,0,-2.544,1,0.6,4.5,2.23,0.35,0.0168,0.4,250.82,0.269,0,1,0.18,0.1,0,9.73,250.9,0.4092,-0.3236,0.8532,9.77,250.82,0,0,32.464,0,0,0,0,0,267.7,0,0,0,0,0,0,0,0,0,0,0,0,0,1,1,0,0,VALID,0,0,0,0,0,1,0,0,0,0,0,0,0,0,0,0,0,0,0,0,667.78,2790.95,6,0,0.76,0.5,135,1.32,0.76,0.76,103.14,FLYING
103.86,APPROACH,FLY_TO_FIX,155.87,159,3.13,1288.83,0.59,9.86,9.71,250.85,0,0.2523,0,-0.98,1,0.6,4.5,2.23,0.35,0.0168,0.4,250.74,0.266,0,1,0.2,0.11,0,9.78,250.82,0.4062,-0.3248,0.8542,9.96,250.74,0,0,32.342,0,0,0,0,0,267.7,0,0,0,0,0,0,0,0,0,0,0,0,0,1,1,0,0,VALID,0,0,0,0,0,1,0,0,0,0,0,0,0,0,0,0,0,0,0,0,671.27,2791.36,6,0,0.76,0.5,136,1.32,0.76,0.76,103.9,FLYING
104.62,APPROACH,FLY_TO_FIX,155.89,159,3.11,1289.42,0.8,9.98,9.74,250.77,0.007,0.265,0,0.576,1,0.6,4.5,2.23,0.35,0.0168,0.4,250.65,0.264,0,1,0.26,0.12,0,9.97,250.74,0.4052,-0.3262,0.8541,10.01,250.65,0,0,32.22,0,0,0,0,0,267.7,0,0,0,0,0,0,0,0,0,0,0,0,0,1,1,0,0,VALID,0,0,0,0,0,1,0,0,0,0,0,0,0,0,0,0,0,0,0,0,675.92,2791.51,6,0,0.76,0.5,137,1.32,0.76,0.76,104.66,FLYING
105.38,APPROACH,FLY_TO_FIX,155.89,159,3.11,1290.15,1.04,10.04,9.7,250.69,-0.01,0.2843,0,2.133,1,0.6,4.5,2.23,0.35,0.0168,0.4,250.56,0.26,0,1,0.34,0.13,0,10.02,250.65,0.4056,-0.3278,0.8532,9.97,250.56,0,0,32.098,0,0,0,0,0,267.7,0,0,0,0,0,0,0,0,0,0,0,0,0,1,1,0,0,VALID,0,0,0,0,0,1,0,0,0,0,0,0,0,0,0,0,0,0,0,0,684.78,2791.43,6,0,0.76,0.5,138,1.32,0.76,0.76,105.42,FLYING
106.14,APPROACH,FLY_TO_FIX,155.92,159,3.08,1290.99,1.2,10.03,9.62,250.59,0.003,0.2984,0,3.677,1,0.6,4.5,2.23,0.35,0.0168,0.4,250.45,0.256,0,1,0.42,0.14,0,9.98,250.56,0.4067,-0.3296,0.852,9.89,250.45,0,0,31.975,0,0,0,0,0,267.7,0,0,0,0,0,0,0,0,0,0,0,0,0,1,1,0,0,VALID,0,0,0,0,0,1,0,0,0,0,0,0,0,0,0,0,0,0,0,0,700.05,2791.76,6,0,0.76,0.5,139,1.32,0.76,0.76,106.18,FLYING
106.9,APPROACH,FLY_TO_FIX,156,159,3,1291.9,1.3,9.99,9.52,250.5,0.007,0.3029,0,5.181,1,0.6,4.5,2.23,0.35,0.0168,0.4,250.33,0.252,0,1,0.47,0.17,0,9.91,250.45,0.408,-0.3317,0.8506,9.8,250.33,0,0,31.853,0,0,0,0,0,267.7,0,0,0,0,0,0,0,0,0,0,0,0,0,1,1,0,0,VALID,0,0,0,0,0,1,0,0,0,0,0,0,0,0,0,0,0,0,0,0,718.97,2792.76,6,0,0.76,0.5,140,1.32,0.76,0.76,106.94,FLYING
107.66,APPROACH,FLY_TO_FIX,156.14,159,2.86,1292.84,1.36,9.91,9.41,250.38,-0.003,0.2962,0,6.614,1,0.6,4.5,2.23,0.35,0.0168,0.4,250.19,0.247,0,1,0.48,0.19,0,9.81,250.33,0.4093,-0.334,0.8491,9.7,250.19,0,0,31.73,0,0,0,0,0,267.7,0,0,0,0,0,0,0,0,0,0,0,0,0,1,1,0,0,VALID,0,0,0,0,0,1,0,0,0,0,0,0,0,0,0,0,0,0,0,0,737.3,2794.5,6,0,0.76,0.5,141,1.32,0.76,0.76,107.7,FLYING
108.42,APPROACH,FLY_TO_FIX,156.34,159,2.66,1293.8,1.35,9.82,9.32,250.25,-0.012,0.2831,0,7.955,1,0.6,4.5,2.23,0.35,0.0168,0.4,250.04,0.242,0,1,0.5,0.21,0,9.71,250.19,0.4106,-0.3366,0.8474,9.59,250.04,0,0,31.608,0,0,0,0,0,267.7,0,0,0,0,0,0,0,0,0,0,0,0,0,1,1,0,0,VALID,0,0,0,0,0,1,0,0,0,0,0,0,0,0,0,0,0,0,0,0,750.78,2796.84,6,0,0.76,0.5,142,1.32,0.76,0.76,108.46,FLYING
109.18,APPROACH,FLY_TO_FIX,156.57,159,2.43,1294.73,1.32,9.71,9.22,250.12,-0.003,0.2616,0,9.178,1,0.6,4.5,2.23,0.35,0.0168,0.4,249.86,0.237,0,1,0.48,0.25,0,9.6,250.04,0.4116,-0.3395,0.8457,9.5,249.86,0,0,31.485,0,0,0,0,0,267.7,0,0,0,0,0,0,0,0,0,0,0,0,0,1,1,0,0,VALID,0,0,0,0,0,1,0,0,0,0,0,0,0,0,0,0,0,0,0,0,757.5,2799.78,6,0,0.76,0.5,143,1.32,0.76,0.76,109.22,FLYING
109.94,APPROACH,FLY_TO_FIX,156.83,159,2.17,1295.62,1.26,9.6,9.13,249.95,0,0.2414,0,10.278,1,0.6,4.5,2.23,0.35,0.0168,0.4,249.66,0.233,0,1,0.47,0.29,0,9.51,249.86,0.4129,-0.3429,0.8438,9.38,249.66,0,0,31.363,0,0,0,0,0,267.7,0,0,0,0,0,0,0,0,0,0,0,0,0,1,1,0,0,VALID,0,0,0,0,0,1,0,0,0,0,0,0,0,0,0,0,0,0,0,0,752.39,2802.95,6,0,0.76,0.5,144,1.32,0.76,0.76,109.98,FLYING
110.72,APPROACH,FLY_TO_FIX,157.07,159,1.93,1296.47,1.23,9.48,9.01,249.76,-0.006,0.2208,0,11.249,1,0.6,4.5,2.23,0.35,0.0168,0.4,268.35,-2.201,0,1,0.44,18.59,1,9.39,249.66,0.4878,-0.0287,0.8725,6.87,268.35,0,0,31.236,0,0,0,0,0,267.7,0,0,0,0,0,0,0,0,0,0,0,0,0,1,1,0,0,VALID,0,0,0,0,0,1,0,0,0,0,0,0,0,0,0,0,0,0,0,0,734.94,2806.02,6,0,0.78,0.5,145,1.28,0.78,0.76,110.76,FLYING
111.46,APPROACH,FLY_TO_FIX,157.23,159,1.77,1296.44,0.84,8.71,7.95,249.82,-0.002,0.2243,0,12.144,1,0.6,4.5,2.23,0.35,0.0168,0.4,268.47,-2.202,0,1,0.41,18.65,1,6.88,268.35,0.5016,-0.0265,0.8647,5.97,268.47,0,0,31.117,0,0,0,0,0,267.7,0,0,0,0,0,0,0,0,0,0,0,0,0,1,1,0,0,VALID,0,0,0,0,0,1,0,0,0,0,0,0,0,0,0,0,0,0,0,0,708.58,2807.91,6,0,0.74,0.5,146,1.35,0.78,0.74,111.5,FLYING
112.2,APPROACH,FLY_TO_FIX,157.66,159,1.34,1295.83,-0.35,7.53,7.25,250.91,0.079,0.1713,0,12.835,1,0.6,4.5,2.23,0.35,0.0168,0.4,268.6,-2.2,0,1,0.08,17.69,1,5.98,268.47,0.5138,-0.0243,0.8575,5.17,268.6,0,0,30.997,0,0,0,0,0,267.7,0,0,0,0,0,0,0,0,0,0,0,0,0,1,1,0,0,VALID,0,0,0,0,0,1,0,0,0,0,0,0,0,0,0,0,0,0,0,0,691.28,2813.23,6,0,0.74,0.5,147,1.35,0.74,0.74,112.24,FLYING
112.94,APPROACH,FLY_TO_FIX,158.19,159,0.81,1294.28,-1.89,6.49,6.75,252.97,0.217,0.0961,0,13.262,1,0.6,4.5,2.23,0.35,0.0168,0.4,268.73,-2.194,0,1,-0.42,15.77,1,5.18,268.6,0.5223,-0.022,0.8525,4.62,268.73,0,0,30.877,0,0,0,0,0,267.7,0,0,0,0,0,0,0,0,0,0,0,0,0,1,1,0,0,VALID,0,0,0,0,0,1,0,0,0,0,0,0,0,0,0,0,0,0,0,0,644.34,2819.98,6,0,0.74,0.5,148,1.35,0.74,0.74,112.98,FLYING
113.7,APPROACH,FLY_TO_FIX,158.76,159,0.24,1291.52,-3.66,5.55,6.46,255.84,0.416,0.0146,0,13.401,1,0.6,4.5,2.23,0.35,0.0168,0.4,268.87,-2.181,0,1,-1.04,13.04,1,4.63,268.73,0.527,-0.0196,0.8497,4.32,268.87,0,0,30.753,0,0,0,0,0,267.7,0,0,0,0,0,0,0,0,0,0,0,0,0,1,1,0,0,VALID,0,0,0,0,0,1,0,0,0,0,0,0,0,0,0,0,0,0,0,0,556.95,2827.29,6,0,0.76,0.5,149,1.32,0.76,0.74,113.74,FLYING
114.46,APPROACH,FLY_TO_FIX,159.11,159,-0.11,1287.59,-5.47,4.83,6.47,257.76,0.522,0,0,13.334,1,0.6,4.5,2.14,0.35,0.0168,0.4,269.01,-2.163,0,1,-1.68,11.25,1,4.33,268.87,0.5277,-0.0172,0.8492,4.28,269.01,0,0,30.629,0,0,0,0,0,267.7,0,0,0,0,0,0,0,0,0,0,0,0,0,1,1,0,0,VALID,0,0,0,0,0,1,0,0,0,0,0,0,0,0,0,0,0,0,0,0,434.65,2831.95,6,0,0.76,0.5,150,1.32,0.76,0.76,114.5,FLYING
115.22,APPROACH,FLY_TO_FIX,159.26,159,-0.26,1282.53,-7.18,4.39,6.69,258.31,0.499,0,0,13.268,1,0.6,4.5,2.055,0.35,0.0168,0.4,269.15,-2.139,0,1,-2.31,10.84,1,4.29,269.01,0.5251,-0.0148,0.8509,4.47,269.15,0,0,30.504,0,0,0,0,0,267.7,0,0,0,0,0,0,0,0,0,0,0,0,0,1,1,0,0,VALID,0,0,0,0,0,1,0,0,0,0,0,0,0,0,0,0,0,0,0,0,330.46,2834.15,6,0,0.76,0.5,151,1.32,0.76,0.76,115.26,FLYING
116,APPROACH,FLY_TO_FIX,159.39,159,-0.39,1276.27,-8.7,4.21,7.12,257.87,0.379,0.0056,0,13.076,1,0.6,4.5,1.973,0.35,0.0168,0.4,269.3,-2.109,0,1,-2.89,11.43,1,4.48,269.15,0.5192,-0.0123,0.8546,4.88,269.29,0,0,30.376,0,0,0,0,0,267.7,0,0,0,0,0,0,0,0,0,0,0,0,0,1,1,0,0,VALID,0,0,0,0,0,1,0,0,0,0,0,0,0,0,0,0,0,0,0,0,247.51,2836.26,6,0,0.78,0.5,152,1.28,0.78,0.76,116.04,FLYING
116.76,APPROACH,FLY_TO_FIX,159.34,159,-0.34,1269.35,-9.87,4.32,7.71,257.7,0.304,0.0476,0,12.902,1,0.6,4.5,1.894,0.35,0.0168,0.4,269.44,-2.075,0,1,-3.36,11.73,1,4.89,269.3,0.5106,-0.0099,0.8597,5.47,269.44,0,0,30.251,0,0,0,0,0,267.7,0,0,0,0,0,0,0,0,0,0,0,0,0,1,1,0,0,VALID,0,0,0,0,0,1,0,0,0,0,0,0,0,0,0,0,0,0,0,0,191.7,2836.09,6,0,0.76,0.5,153,1.32,0.78,0.76,116.8,FLYING
117.52,APPROACH,FLY_TO_FIX,159.17,159,-0.17,1261.87,-10.6,4.67,8.39,257.93,0.256,0.1091,0,12.809,1,0.6,4.5,1.818,0.35,0.0168,0.4,269.58,-2.038,0,1,-3.7,11.65,1,5.48,269.44,0.4999,-0.0074,0.866,6.19,269.58,0,0,30.126,0,0,0,0,0,267.7,0,0,0,0,0,0,0,0,0,0,0,0,0,1,1,0,0,VALID,0,0,0,0,0,1,0,0,0,0,0,0,0,0,0,0,0,0,0,0,177.43,2834.44,6,0,0.76,0.5,154,1.32,0.76,0.76,117.56,FLYING
118.28,APPROACH,FLY_TO_FIX,158.85,159,0.15,1254.21,-10.82,5.29,9.14,258.05,0.14,0.193,0,12.87,1,0.6,4.5,1.818,0.35,0.0168,0.4,269.72,-2,0,1,-3.86,11.67,1,6.2,269.58,0.4882,-0.005,0.8727,6.98,269.72,0,0,30.001,0,0,0,0,0,267.7,0,0,0,0,0,0,0,0,0,0,0,0,0,1,1,0,0,VALID,0,0,0,0,0,1,0,0,0,0,0,0,0,0,0,0,0,0,0,0,194.67,2831.13,6,0,0.76,0.5,155,1.32,0.76,0.76,118.32,FLYING
119.04,APPROACH,FLY_TO_FIX,158.42,159,0.58,1246.68,-10.51,6.07,9.87,258.16,0.072,0.2941,0,13.145,1,0.6,4.5,1.818,0.35,0.0168,0.4,269.86,-1.962,0,1,-3.84,11.71,1,6.99,269.72,0.4765,-0.0025,0.8791,7.75,269.86,0,0,29.877,0,0,0,0,0,267.7,0,0,0,0,0,0,0,0,0,0,0,0,0,1,1,0,0,VALID,0,0,0,0,0,1,0,0,0,0,0,0,0,0,0,0,0,0,0,0,243.13,2826.23,6,0,0.76,0.5,156,1.32,0.76,0.76,119.08,FLYING
119.8,APPROACH,FLY_TO_FIX,157.96,159,1.04,1239.52,-9.88,6.85,10.52,258.25,0.025,0.3895,0,13.644,1,0.6,4.5,1.818,0.35,0.0168,0.4,270.01,-1.925,0,1,-3.68,11.76,1,7.76,269.86,0.4662,0,0.8847,8.43,270.01,0,0,29.749,0,0,0,0,0,267.7,0,0,0,0,0,0,0,0,0,0,0,0,0,2,2,0,0,VALID,0,0,0,0,0,1,0,0,0,0,0,0,0,0,0,0,0,0,0,0,326.66,2821.03,6,0,0.76,0.5,157,1.28,0.76,0.76,119.86,FLYING
120.44,APPROACH,ILS_TRACK,157.55,159,1.45,1234,-8.87,7.74,10.86,258.35,-0.061,0.3895,0,13.644,1,0.6,4.5,1.818,0.35,0.0168,0.4,270.01,-1.925,0,1,-3.33,11.76,1,8.45,270.01,0.4662,0,0.8847,8.43,270.01,0,0,29.619,0,0,0,0,0,267.7,0,0,0,0,0,0,0,0,0,0,0,0,0,2,2,0,0,VALID,0,0,0,0,0,1,0,0,0,0,0,0,0,0,0,0,0,0,0,0,417.99,2816.34,6,0,0.82,0.5,158,1.56,0.82,0.76,120.48,FLYING
121.42,APPROACH,ILS_TRACK,156.96,158.2,1.24,1226.67,-7.13,8.29,10.9,258.43,-0.156,0.5357,0,14.243,1,0.6,4.5,1.818,0.35,0.0168,0.4,245.4,0.032,0,1,-2.8,11.76,1,8.46,270.01,0.376,-0.409,0.8315,10.88,245.4,127.44,-387.31,29.489,-68.819,0,0,0,0,267.7,0,0,0,0,0,0,0,0,0,0,0,0,0,2,2,0,0,VALID,0,0,0,0,0,1,0,0,0,0,0,0,0,0,0,0,0,0,0,0,537.75,2809.39,6,0,0.8,0.5,159,1.04,0.82,0.8,121.46,FLYING
122.32,APPROACH,ILS_TRACK,156.03,157.4,1.37,1222.57,-4.62,10.26,12.15,258.1,-0.347,0.6248,0,14.864,1,0.6,4.5,1.818,0.35,0.0168,0.4,289.01,0.054,0,1,-2.2,11.76,1,10.9,245.4,0.3734,0.318,0.8715,12.36,289.01,83.54,-384.21,29.343,18.612,0,0,0,0,267.7,0,0,0,0,0,0,0,0,0,0,0,0,0,2,2,0,0,VALID,0,0,0,0,0,1,0,0,0,0,0,0,0,0,0,0,0,0,0,0,694.61,2797.96,6,0,0.9,0.5,160,1.11,0.9,0.8,122.36,FLYING
123.22,APPROACH,ILS_TRACK,155.01,156.6,1.59,1220.27,-2.43,11.62,13.03,256.59,-0.769,0.7438,0,15.609,1,0.6,4.5,1.818,0.35,0.0168,0.4,290.42,0.069,0,1,-1.46,11.76,1,12.37,289.01,0.3569,0.3396,0.8702,13.11,290.42,40.27,-379.53,29.198,20.021,0,0,0,0,267.7,0,0,0,0,0,0,0,0,0,0,0,0,0,2,2,0,0,VALID,0,0,0,0,0,1,0,0,0,0,0,0,0,0,0,0,0,0,0,0,861.21,2785.47,6,0,0.9,0.5,161,1.11,0.9,0.9,123.26,FLYING
124.12,APPROACH,ILS_TRACK,153.92,155.8,1.88,1220.45,0.32,13.46,13.96,256.29,-0.97,0.8561,0,16.499,1,0.6,4.5,1.818,0.35,0.0168,0.4,292.17,0.07,0,1,-0.48,11.76,1,13.12,290.42,0.3359,0.3659,0.8679,14.03,292.17,-3.04,-372.41,29.053,21.775,0,0,0,0,267.7,0,0,0,0,0,0,0,0,0,0,0,0,0,2,2,0,0,VALID,0,0,0,0,0,1,0,0,0,0,0,0,0,0,0,0,0,0,0,0,1054.8,2771.94,6,0,0.9,0.5,162,1.11,0.9,0.9,124.16,FLYING
