t_s,phase,subphase,ias_ms,vapp_ms,spd_err_ms,agl_m,gear_h_m,vs_ms,pitch_deg,aoa_deg,hdg_deg,bank_deg,thr_cmd,thr_cur,thr_intg,at_gain,at_tau_s,at_a_up,at_a_dn,at_kp_thr,at_ki_spd,at_thr_slew,as_cmd_deg,as_cap_deg,as_raw_deg,as_spd_err_ms,as_active,aa_hdg_cmd_deg,aa_fpa_cmd_deg,aa_fbw,aa_dir,actual_fpa_deg,ftf_hdg_err_deg,ftf_fix_idx,kos_steer_pit_deg,kos_steer_hdg_deg,aa_dir_vx,aa_dir_vy,aa_dir_vz,aa_dir_pitch_deg,aa_dir_hdg_deg,ils_loc_m,ils_gs_m,ils_dist_km,loc_corr_deg,gs_corr_deg,gs_latched,active_gs_ang_deg,ils_intercept_alt_m,d_gs_ms,fpa_preclamped_deg,gs_nom_alt_m,flare_fpa_cmd,flare_tgt_vs,flare_frac,flare_round_blend_h,flare_round_blend_ttg,flare_round_blend,flare_mode,flare_auth_limited,flare_auth_reason,flare_vs_err,flare_fpa_err,flare_pitch_err,flare_theta_cmd_raw,flare_theta_cmd_clamped,flare_theta_clamp_active,flare_aoa_clamp_active,flare_pitch_in_cmd,elev_defl_avg_deg,elev_defl_max_deg,elev_defl_n,flare_ctrl_h_m,flare_req_up_a,flare_thr_floor,flare_tecs_et_err,flare_tecs_eb_err,flare_tecs_h_ref,flare_tecs_v_ref,flare_gamma_ref,flare_gamma_eb_term,flare_gamma_unsat,steer_hdg_deg,steer_blend,ro_loc_corr_deg,ro_hdg_err_deg,ro_yaw_tgt,ro_yaw_scale,ro_yaw_gate,yaw_cmd,roll_cmd,pitch_cmd,ro_pitch_tgt_deg,ro_pitch_err_deg,ro_pitch_ff,ro_roll_assist,flaps_cur,flaps_tgt,asc_j_ab,asc_j_rk,asc_validity,asc_q_pa,asc_q_raw_pa,asc_mach,asc_apo_m,asc_drag_n,asc_w_prop,asc_edot_aero,asc_edot_orb,asc_pitch_bias,asc_blend,asc_spooling,asc_ab_thr_ratio,asc_ab_t_now,asc_ab_t_avail,asc_ab_ign_on,asc_ab_flameouts,asc_rk_t_now,asc_rk_t_avail,asc_rk_ign_on,asc_rk_flameouts,ship_thrust,ship_avail_thrust,ship_ign_on,ship_flameouts,ifc_raw_dt_s,ifc_dt_s,ifc_loop_n,ifc_hz_est,ifc_raw_dt_max_s,ifc_raw_dt_min_s,phase_el_s,status,craft_name,cfg_file
2.58,TAKEOFF,TO_PREFLIGHT,0.06,80,79.94,4.82,-11.73,0,-0.33,-0.39,89.87,0.045,0.08,0,0,0,0,0,0,0,0,0,0,0,0,0,0,90,0,1,0,-0.16,0,0,0,90,0,0,0,0,0,0,0,0,0,0,0,3,0,0,0,69,0,0,0,0,0,0,,0,NONE,0,0,0,0,0,0,0,0,0,0,0,0,0,0,0,0,0,0,0,0,0,90,1,0,-0.126,0,0,1,0,0,0,0,0,0,0,0,1,0,0,VALID,0,0,0,0,0,1,0,0,0,0,0,0,0,0,0,0,0,0,0,0,0,1941.76,6,0,0.2,0.2,1,0.38,0.2,0.02,2.4,LANDED,C-1000F,0:/Integrated Flight Computer/aircraft/c_1000f_cfg.ks (inferred preloaded)
2.88,TAKEOFF,TO_PREFLIGHT,0.06,80,79.94,4.82,-11.73,0,-0.33,1.21,89.94,0.055,0.36,0,0,0,0,0,0,0,0,0,0,0,0,0,0,90,0,1,0,-0.07,0,0,0,90,0,0,0,0,0,0,0,0,0,0,0,3,0,0,0,69,0,0,0,0,0,0,,0,NONE,0,0,0,0,0,0,0,0,0,0,0,0,0,0,0,0,0,0,0,0,0,90,1,0,-0.126,0,0,1,0,0,0,0,0,0,0,1,1,0,0,VALID,0,0,0,0,0,1,0,0,0,0,0,0,0,0,0,0,0,0,0,0,6.49,1941.76,6,0,0.08,0.08,5,13.33,2.48,0.04,2.72,LANDED,C-1000F,0:/Integrated Flight Computer/aircraft/c_1000f_cfg.ks (inferred preloaded)
3.14,TAKEOFF,TO_PREFLIGHT,0.05,80,79.95,4.82,-11.73,0,-0.33,-1.53,89.95,0.059,0.464,0,0,0,0,0,0,0,0,0,0,0,0,0,0,90,0,1,0,0.07,0,0,0,90,0,0,0,0,0,0,0,0,0,0,0,3,0,0,0,69,0,0,0,0,0,0,,0,NONE,0,0,0,0,0,0,0,0,0,0,0,0,0,0,0,0,0,0,0,0,0,90,1,0,-0.126,0,0,1,0,0,0,0,0,0,0,1,1,0,0,VALID,0,0,0,0,0,1,0,0,0,0,0,0,0,0,0,0,0,0,0,0,17.85,1941.77,6,0,0.06,0.06,9,15.38,0.08,0.04,2.98,LANDED,C-1000F,0:/Integrated Flight Computer/aircraft/c_1000f_cfg.ks (inferred preloaded)
3.4,TAKEOFF,TO_PREFLIGHT,0.05,80,79.95,4.82,-11.73,0,-0.33,1.42,89.97,0.056,0.568,0,0,0,0,0,0,0,0,0,0,0,0,0,0,90,0,1,0,-0.07,0,0,0,90,0,0,0,0,0,0,0,0,0,0,0,3,0,0,0,69,0,0,0,0,0,0,,0,NONE,0,0,0,0,0,0,0,0,0,0,0,0,0,0,0,0,0,0,0,0,0,90,1,0,-0.126,0,0,1,0,0,0,0,0,0,0,1,1,0,0,VALID,0,0,0,0,0,1,0,0,0,0,0,0,0,0,0,0,0,0,0,0,32.16,1941.77,6,0,0.04,0.04,13,15.38,0.08,0.04,3.24,LANDED,C-1000F,0:/Integrated Flight Computer/aircraft/c_1000f_cfg.ks (inferred preloaded)
3.66,TAKEOFF,TO_PREFLIGHT,0.07,80,79.93,4.82,-11.73,0,-0.33,-0.01,89.99,0.051,0.672,0,0,0,0,0,0,0,0,0,0,0,0,0,0,90,0,1,0,0,0,0,0,90,0,0,0,0,0,0,0,0,0,0,0,3,0,0,0,69,0,0,0,0,0,0,,0,NONE,0,0,0,0,0,0,0,0,0,0,0,0,0,0,0,0,0,0,0,0,0,90,1,0,-0.126,0,0,1,0,0,0,0,0,0,0,1,1,0,0,VALID,0,0,0,0,0,1,0,0,0,0,0,0,0,0,0,0,0,0,0,0,49.45,1941.75,6,0,0.06,0.06,17,15.38,0.08,0.04,3.5,LANDED,C-1000F,0:/Integrated Flight Computer/aircraft/c_1000f_cfg.ks (inferred preloaded)
3.98,TAKEOFF,TO_PREFLIGHT,0.09,80,79.91,4.81,-11.74,0,-0.34,0.89,90.01,0.048,0.8,0,0,0,0,0,0,0,0,0,0,0,0,0,0,90,0,1,0,-0.06,0,0,0,90,0,0,0,0,0,0,0,0,0,0,0,3,0,0,0,69,0,0,0,0,0,0,,0,NONE,0,0,0,0,0,0,0,0,0,0,0,0,0,0,0,0,0,0,0,0,0,90,1,0,-0.126,0,0,1,0,0,0,0,0,0,0,1,1,0,0,VALID,0,0,0,0,0,1,0,0,0,0,0,0,0,0,0,0,0,0,0,0,74.64,1941.73,6,0,0.08,0.08,22,15.62,0.08,0.04,3.82,LANDED,C-1000F,0:/Integrated Flight Computer/aircraft/c_1000f_cfg.ks (inferred preloaded)
4.3,TAKEOFF,TO_PREFLIGHT,0.06,80,79.94,4.81,-11.74,0,-0.33,-0.08,90.03,0.051,0.928,0,0,0,0,0,0,0,0,0,0,0,0,0,0,90,0,1,0,-0.02,0,0,0,90,0,0,0,0,0,0,0,0,0,0,0,3,0,0,0,69,0,0,0,0,0,0,,0,NONE,0,0,0,0,0,0,0,0,0,0,0,0,0,0,0,0,0,0,0,0,0,90,1,0,-0.126,0,0,1,0,0,0,0,0,0,0,1,1,0,0,VALID,0,0,0,0,0,1,0,0,0,0,0,0,0,0,0,0,0,0,0,0,104.04,1941.75,6,0,0.08,0.08,27,15.62,0.08,0.04,4.14,LANDED,C-1000F,0:/Integrated Flight Computer/aircraft/c_1000f_cfg.ks (inferred preloaded)
4.62,TAKEOFF,TO_PREFLIGHT,0.08,80,79.92,4.81,-11.74,0,-0.34,-0.17,90.05,0.056,1,0,0,0,0,0,0,0,0,0,0,0,0,0,0,90,0,1,0,-0.01,0,0,0,90,0,0,0,0,0,0,0,0,0,0,0,3,0,0,0,69,0,0,0,0,0,0,,0,NONE,0,0,0,0,0,0,0,0,0,0,0,0,0,0,0,0,0,0,0,0,0,90,1,0,-0.126,0,0,1,0,0,0,0,0,0,0,1,1,0,0,VALID,0,0,0,0,0,1,0,0,0,0,0,0,0,0,0,0,0,0,0,0,137.47,1941.73,6,0,0.08,0.08,32,15.62,0.08,0.04,4.46,LANDED,C-1000F,0:/Integrated Flight Computer/aircraft/c_1000f_cfg.ks (inferred preloaded)
4.94,TAKEOFF,TO_PREFLIGHT,0.14,80,79.86,4.82,-11.74,0,-0.33,-0.17,90.08,0.055,1,0,0,0,0,0,0,0,0,0,0,0,0,0,0,90,0,1,0,-0.03,0,0,0,90,0,0,0,0,0,0,0,0,0,0,0,3,0,0,0,69,0,0,0,0,0,0,,0,NONE,0,0,0,0,0,0,0,0,0,0,0,0,0,0,0,0,0,0,0,0,0,90,1,0,-0.126,0,0,1,0,0,0,0,0,0,0,1,1,0,0,VALID,0,0,0,0,0,1,0,0,0,0,0,0,0,0,0,0,0,0,0,0,171.79,1941.68,6,0,0.08,0.08,37,15.62,0.08,0.04,4.78,LANDED,C-1000F,0:/Integrated Flight Computer/aircraft/c_1000f_cfg.ks (inferred preloaded)
5.22,TAKEOFF,TO_GROUND_ROLL,0.23,80,79.77,4.81,-11.74,0,-0.33,-0.35,90.1,0.049,1,0,0,0,0,0,0,0,0,0,0,0,0,0,0,89.24,0,1,0,0,0,0,0,90,0,0,0,0,0,0,0,0,-0.005,0,0,3,0,0,0,69,0,0,0,0,0,0,,0,NONE,0,0,0,0,0,0,0,0,0,0,0,0,0,0,0,0,0,0,0,0,0,89.24,1,-0.005,0.861,-0.0097,0.25,1,-0.0097,0,0,0,0,0,0,1,1,0,0,VALID,0,0,0,0,0,1,0,0,0,0,0,0,0,0,0,0,0,0,0,0,201.29,1941.6,6,0,0.06,0.06,41,15.38,0.08,0.04,5.04,LANDED,C-1000F,0:/Integrated Flight Computer/aircraft/c_1000f_cfg.ks (inferred preloaded)
5.52,TAKEOFF,TO_GROUND_ROLL,0.45,80,79.55,4.82,-11.74,0,-0.31,-0.1,90.13,0.042,1,0,0,0,0,0,0,0,0,0,0,0,0,0,0,89.97,0,1,0,-0.12,0,0,0,90,0,0,0,0,0,0,0,0,-0.005,0,0,3,0,0,0,69,0,0,0,0,0,0,,0,NONE,0,0,0,0,0,0,0,0,0,0,0,0,0,0,0,0,0,0,0,0,0,89.97,1,-0.005,0.155,-0.0013,0.25,1,-0.0013,0,0,0,0,0,0,1,1,0,0,VALID,0,0,0,0,0,1,0,0,0,0,0,0,0,0,0,0,0,0,0,0,232.33,1941.39,6,0,0.06,0.06,45,13.33,0.1,0.06,5.34,LANDED,C-1000F,0:/Integrated Flight Computer/aircraft/c_1000f_cfg.ks (inferred preloaded)
5.8,TAKEOFF,TO_GROUND_ROLL,0.75,80,79.25,4.82,-11.74,0,-0.32,-0.31,90.16,0.043,1,0,0,0,0,0,0,0,0,0,0,0,0,0,0,89.97,0,1,0,-0.02,0,0,0,90,0,0,0,0,0,0,0,0,-0.005,0,0,3,0,0,0,69,0,0,0,0,0,0,,0,NONE,0,0,0,0,0,0,0,0,0,0,0,0,0,0,0,0,0,0,0,0,0,89.97,1,-0.005,0.183,-0.0016,0.25,1,-0.0016,0,0,0,0,0,0,1,1,0,0,VALID,0,0,0,0,0,1,0,0,0,0,0,0,0,0,0,0,0,0,0,0,260.78,1941.11,6,0,0.06,0.06,49,14.29,0.08,0.06,5.62,LANDED,C-1000F,0:/Integrated Flight Computer/aircraft/c_1000f_cfg.ks (inferred preloaded)
6.08,TAKEOFF,TO_GROUND_ROLL,1.09,80,78.91,4.82,-11.74,0,-0.31,-0.12,90.18,0.051,1,0,0,0,0,0,0,0,0,0,0,0,0,0,0,89.97,0,1,0,-0.23,0,0,0,90,0,0,0,0,0,0,0,0,-0.006,0,0,3,0,0,0,69,0,0,0,0,0,0,,0,NONE,0,0,0,0,0,0,0,0,0,0,0,0,0,0,0,0,0,0,0,0,0,89.97,1,-0.006,0.21,-0.0019,0.25,1,-0.0019,0,0,0,0,0,0,1,1,0,0,VALID,0,0,0,0,0,1,0,0,0,0,0,0,0,0,0,0,0,0,0,0,288.75,1940.79,6,0,0.06,0.06,53,14.29,0.08,0.06,5.9,LANDED,C-1000F,0:/Integrated Flight Computer/aircraft/c_1000f_cfg.ks (inferred preloaded)
6.38,TAKEOFF,TO_GROUND_ROLL,1.5,80,78.5,4.82,-11.74,0,-0.32,-0.24,90.21,0.058,1,0,0,0,0,0,0,0,0,0,0,0,0,0,0,89.98,0,1,0,-0.09,0,0,0,90,0,0,0,0,0,0,0,0,-0.006,0,0,3,0,0,0,69,0,0,0,0,0,0,,0,NONE,0,0,0,0,0,0,0,0,0,0,0,0,0,0,0,0,0,0,0,0,0,89.98,1,-0.006,0.236,-0.0022,0.25,1,-0.0022,0,0,0,0,0,0,1,1,0,0,VALID,0,0,0,0,0,1,0,0,0,0,0,0,0,0,0,0,0,0,0,0,318.17,1940.4,6,0,0.06,0.06,57,13.33,0.1,0.06,6.2,LANDED,C-1000F,0:/Integrated Flight Computer/aircraft/c_1000f_cfg.ks (inferred preloaded)
6.66,TAKEOFF,TO_GROUND_ROLL,1.92,80,78.08,4.82,-11.74,-0.01,-0.31,-0.14,90.24,0.056,1,0,0,0,0,0,0,0,0,0,0,0,0,0,0,89.98,0,1,0,-0.2,0,0,0,90,0,0,0,0,0,0,0,0,-0.006,0,0,3,0,0,0,69,0,0,0,0,0,0,,0,NONE,0,0,0,0,0,0,0,0,0,0,0,0,0,0,0,0,0,0,0,0,0,89.98,1,-0.006,0.263,-0.0025,0.25,1,-0.0025,0,0,0,0,0,0,1,1,0,0,VALID,0,0,0,0,0,1,0,0,0,0,0,0,0,0,0,0,0,0,0,0,345.14,1940,6,0,0.06,0.06,61,14.29,0.08,0.06,6.48,LANDED,C-1000F,0:/Integrated Flight Computer/aircraft/c_1000f_cfg.ks (inferred preloaded)
6.96,TAKEOFF,TO_GROUND_ROLL,2.41,80,77.59,4.82,-11.74,0,-0.31,-0.22,90.27,0.049,1,0,0,0,0,0,0,0,0,0,0,0,0,0,0,89.97,0,1,0,-0.1,0,0,0,90,0,0,0,0,0,0,0,0,-0.007,0,0,3,0,0,0,69,0,0,0,0,0,0,,0,NONE,0,0,0,0,0,0,0,0,0,0,0,0,0,0,0,0,0,0,0,0,0,89.97,1,-0.007,0.296,-0.0029,0.25,1,-0.0029,0,0,0,0,0,0,1,1,0,0,VALID,0,0,0,0,0,1,0,0,0,0,0,0,0,0,0,0,0,0,0,0,373.52,1939.53,6,0,0.06,0.06,65,13.33,0.1,0.06,6.78,LANDED,C-1000F,0:/Integrated Flight Computer/aircraft/c_1000f_cfg.ks (inferred preloaded)
7.26,TAKEOFF,TO_GROUND_ROLL,2.93,80,77.07,4.82,-11.74,-0.01,-0.31,-0.15,90.3,0.042,1,0,0,0,0,0,0,0,0,0,0,0,0,0,0,89.97,0,1,0,-0.18,0,0,0,90,0,0,0,0,0,0,0,0,-0.007,0,0,3,0,0,0,69,0,0,0,0,0,0,,0,NONE,0,0,0,0,0,0,0,0,0,0,0,0,0,0,0,0,0,0,0,0,0,89.97,1,-0.007,0.322,-0.0033,0.25,1,-0.0033,0,0,0,0,0,0,1,1,0,0,VALID,0,0,0,0,0,1,0,0,0,0,0,0,0,0,0,0,0,0,0,0,401.36,1939,6,0,0.06,0.06,69,13.33,0.1,0.06,7.08,LANDED,C-1000F,0:/Integrated Flight Computer/aircraft/c_1000f_cfg.ks (inferred preloaded)
7.54,TAKEOFF,TO_GROUND_ROLL,3.46,80,76.54,4.82,-11.74,-0.01,-0.31,-0.2,90.32,0.044,1,0,0,0,0,0,0,0,0,0,0,0,0,0,0,89.97,0,1,0,-0.12,0,0,0,90,0,0,0,0,0,0,0,0,-0.007,0,0,3,0,0,0,69,0,0,0,0,0,0,,0,NONE,0,0,0,0,0,0,0,0,0,0,0,0,0,0,0,0,0,0,0,0,0,89.97,1,-0.007,0.351,-0.0037,0.25,1,-0.0037,0,0,0,0,0,0,1,1,0,0,VALID,0,0,0,0,0,1,0,0,0,0,0,0,0,0,0,0,0,0,0,0,426.88,1938.47,6,0,0.06,0.06,73,14.29,0.08,0.06,7.36,LANDED,C-1000F,0:/Integrated Flight Computer/aircraft/c_1000f_cfg.ks (inferred preloaded)
7.82,TAKEOFF,TO_GROUND_ROLL,4.01,80,75.99,4.82,-11.75,-0.01,-0.31,-0.17,90.35,0.05,1,0,0,0,0,0,0,0,0,0,0,0,0,0,0,89.97,0,1,0,-0.16,0,0,0,90,0,0,0,0,0,0,0,0,-0.008,0,0,3,0,0,0,69,0,0,0,0,0,0,,0,NONE,0,0,0,0,0,0,0,0,0,0,0,0,0,0,0,0,0,0,0,0,0,89.97,1,-0.008,0.38,-0.0042,0.25,1,-0.0042,0,0,0,0,0,0,1,1,0,0,VALID,0,0,0,0,0,1,0,0,0,0,0,0,0,0,0,0,0,0,0,0,451.94,1937.89,6,0,0.06,0.06,77,14.29,0.08,0.06,7.64,LANDED,C-1000F,0:/Integrated Flight Computer/aircraft/c_1000f_cfg.ks (inferred preloaded)
8.12,TAKEOFF,TO_GROUND_ROLL,4.65,80,75.35,4.82,-11.75,-0.01,-0.3,-0.18,90.38,0.056,1,0,0,0,0,0,0,0,0,0,0,0,0,0,0,89.97,0,1,0,-0.13,0,0,0,90,0,0,0,0,0,0,0,0,-0.008,0,0,3,0,0,0,69,0,0,0,0,0,0,,0,NONE,0,0,0,0,0,0,0,0,0,0,0,0,0,0,0,0,0,0,0,0,0,89.97,1,-0.008,0.413,-0.0046,0.25,1,-0.0046,0,0,0,0,0,0,1,1,0,0,VALID,0,0,0,0,0,1,0,0,0,0,0,0,0,0,0,0,0,0,0,0,478.3,1937.21,6,0,0.06,0.06,81,13.33,0.1,0.06,7.94,LANDED,C-1000F,0:/Integrated Flight Computer/aircraft/c_1000f_cfg.ks (inferred preloaded)
8.4,TAKEOFF,TO_GROUND_ROLL,5.27,80,74.73,4.82,-11.75,-0.01,-0.3,-0.18,90.41,0.054,1,0,0,0,0,0,0,0,0,0,0,0,0,0,0,89.97,0,1,0,-0.14,0,0,0,90,0,0,0,0,0,0,0,0,-0.008,0,0,3,0,0,0,69,0,0,0,0,0,0,,0,NONE,0,0,0,0,0,0,0,0,0,0,0,0,0,0,0,0,0,0,0,0,0,89.97,1,-0.008,0.442,-0.005,0.25,1,-0.005,0,0,0,0,0,0,1,1,0,0,VALID,0,0,0,0,0,1,0,0,0,0,0,0,0,0,0,0,0,0,0,0,502.45,1936.54,6,0,0.06,0.06,85,14.29,0.08,0.06,8.22,LANDED,C-1000F,0:/Integrated Flight Computer/aircraft/c_1000f_cfg.ks (inferred preloaded)
8.68,TAKEOFF,TO_GROUND_ROLL,5.93,80,74.07,4.82,-11.76,-0.01,-0.3,-0.18,90.44,0.048,1,0,0,0,0,0,0,0,0,0,0,0,0,0,0,89.97,0,1,0,-0.13,0,0,0,90,0,0,0,0,0,0,0,0,-0.009,0,0,3,0,0,0,69,0,0,0,0,0,0,,0,NONE,0,0,0,0,0,0,0,0,0,0,0,0,0,0,0,0,0,0,0,0,0,89.97,1,-0.009,0.473,-0.0053,0.25,1,-0.0053,0,0,0,0,0,0,1,1,0,0,VALID,0,0,0,0,0,1,0,0,0,0,0,0,0,0,0,0,0,0,0,0,526.16,1935.81,6,0,0.06,0.06,89,14.29,0.08,0.06,8.5,LANDED,C-1000F,0:/Integrated Flight Computer/aircraft/c_1000f_cfg.ks (inferred preloaded)
8.98,TAKEOFF,TO_GROUND_ROLL,6.66,80,73.34,4.82,-11.76,-0.02,-0.3,-0.17,90.47,0.042,1,0,0,0,0,0,0,0,0,0,0,0,0,0,0,89.97,0,1,0,-0.14,0,0,0,90,0,0,0,0,0,0,0,0,-0.009,0,0,3,0,0,0,69,0,0,0,0,0,0,,0,NONE,0,0,0,0,0,0,0,0,0,0,0,0,0,0,0,0,0,0,0,0,0,89.97,1,-0.009,0.502,-0.0056,0.25,1,-0.0056,0,0,0,0,0,0,1,1,0,0,VALID,0,0,0,0,0,1,0,0,0,0,0,0,0,0,0,0,0,0,0,0,551.08,1934.98,6,0,0.06,0.06,93,13.33,0.1,0.06,8.8,LANDED,C-1000F,0:/Integrated Flight Computer/aircraft/c_1000f_cfg.ks (inferred preloaded)
9.26,TAKEOFF,TO_GROUND_ROLL,7.38,80,72.62,4.82,-11.77,-0.02,-0.3,-0.17,90.5,0.044,1,0,0,0,0,0,0,0,0,0,0,0,0,0,0,89.97,0,1,0,-0.13,0,0,0,90,0,0,0,0,0,0,0,0,-0.01,0,0,3,0,0,0,69,0,0,0,0,0,0,,0,NONE,0,0,0,0,0,0,0,0,0,0,0,0,0,0,0,0,0,0,0,0,0,89.97,1,-0.01,0.533,-0.006,0.25,1,-0.006,0,0,0,0,0,0,1,1,0,0,VALID,0,0,0,0,0,1,0,0,0,0,0,0,0,0,0,0,0,0,0,0,573.91,1934.14,6,0,0.06,0.06,97,14.29,0.08,0.06,9.08,LANDED,C-1000F,0:/Integrated Flight Computer/aircraft/c_1000f_cfg.ks (inferred preloaded)
9.56,TAKEOFF,TO_GROUND_ROLL,8.18,80,71.82,4.82,-11.77,-0.02,-0.3,-0.17,90.54,0.05,1,0,0,0,0,0,0,0,0,0,0,0,0,0,0,89.97,0,1,0,-0.14,0,0,0,90,0,0,0,0,0,0,0,0,-0.011,0,0,3,0,0,0,69,0,0,0,0,0,0,,0,NONE,0,0,0,0,0,0,0,0,0,0,0,0,0,0,0,0,0,0,0,0,0,89.97,1,-0.011,0.569,-0.0064,0.25,1,-0.0064,0,0,0,0,0,0,1,1,0,0,VALID,0,0,0,0,0,1,0,0,0,0,0,0,0,0,0,0,0,0,0,0,597.89,1933.19,6,0,0.06,0.06,101,13.33,0.1,0.06,9.38,LANDED,C-1000F,0:/Integrated Flight Computer/aircraft/c_1000f_cfg.ks (inferred preloaded)
9.86,TAKEOFF,TO_GROUND_ROLL,9.02,80,70.98,4.82,-11.78,-0.02,-0.29,-0.17,90.57,0.053,1,0,0,0,0,0,0,0,0,0,0,0,0,0,0,89.97,0,1,0,-0.13,0,0,0,90,0,0,0,0,0,0,0,0,-0.011,0,0,3,0,0,0,69,0,0,0,0,0,0,,0,NONE,0,0,0,0,0,0,0,0,0,0,0,0,0,0,0,0,0,0,0,0,0,89.97,1,-0.011,0.601,-0.0068,0.25,1,-0.0068,0,0,0,0,0,0,1,1,0,0,VALID,0,0,0,0,0,1,0,0,0,0,0,0,0,0,0,0,0,0,0,0,621.4,1932.17,6,0,0.06,0.06,105,13.33,0.1,0.06,9.68,LANDED,C-1000F,0:/Integrated Flight Computer/aircraft/c_1000f_cfg.ks (inferred preloaded)
10.14,TAKEOFF,TO_GROUND_ROLL,9.83,80,70.17,4.82,-11.78,-0.02,-0.29,-0.17,90.6,0.051,1,0,0,0,0,0,0,0,0,0,0,0,0,0,0,89.97,0,1,0,-0.14,0,0,0,90,0,0,0,0,0,0,0,0,-0.012,0,0,3,0,0,0,69,0,0,0,0,0,0,,0,NONE,0,0,0,0,0,0,0,0,0,0,0,0,0,0,0,0,0,0,0,0,0,89.97,1,-0.012,0.633,-0.0071,0.25,1,-0.0071,0,0,0,0,0,0,1,1,0,0,VALID,0,0,0,0,0,1,0,0,0,0,0,0,0,0,0,0,0,0,0,0,642.92,1931.16,6,0,0.06,0.06,109,14.29,0.08,0.06,9.96,LANDED,C-1000F,0:/Integrated Flight Computer/aircraft/c_1000f_cfg.ks (inferred preloaded)
10.42,TAKEOFF,TO_GROUND_ROLL,10.66,80,69.34,4.82,-11.79,-0.02,-0.29,-0.17,90.63,0.046,1,0,0,0,0,0,0,0,0,0,0,0,0,0,0,89.97,0,1,0,-0.13,0,0,0,90,0,0,0,0,0,0,0,0,-0.013,0,0,3,0,0,0,69,0,0,0,0,0,0,,0,NONE,0,0,0,0,0,0,0,0,0,0,0,0,0,0,0,0,0,0,0,0,0,89.97,1,-0.013,0.665,-0.0075,0.25,1,-0.0075,0,0,0,0,0,0,1,1,0,0,VALID,0,0,0,0,0,1,0,0,0,0,0,0,0,0,0,0,0,0,0,0,664.03,1930.09,6,0,0.06,0.06,113,14.29,0.08,0.06,10.24,LANDED,C-1000F,0:/Integrated Flight Computer/aircraft/c_1000f_cfg.ks (inferred preloaded)
10.72,TAKEOFF,TO_GROUND_ROLL,11.59,80,68.41,4.82,-11.8,-0.03,-0.29,-0.17,90.67,0.043,1,0,0,0,0,0,0,0,0,0,0,0,0,0,0,89.96,0,1,0,-0.13,0,0,0,90,0,0,0,0,0,0,0,0,-0.014,0,0,3,0,0,0,69,0,0,0,0,0,0,,0,NONE,0,0,0,0,0,0,0,0,0,0,0,0,0,0,0,0,0,0,0,0,0,89.96,1,-0.014,0.703,-0.0079,0.25,1,-0.0079,0,0,0,0,0,0,1,1,0,0,VALID,0,0,0,0,0,1,0,0,0,0,0,0,0,0,0,0,0,0,0,0,686.2,1928.88,6,0,0.06,0.06,117,13.33,0.1,0.06,10.54,LANDED,C-1000F,0:/Integrated Flight Computer/aircraft/c_1000f_cfg.ks (inferred preloaded)
11,TAKEOFF,TO_GROUND_ROLL,12.48,80,67.52,4.83,-11.81,-0.03,-0.29,-0.17,90.7,0.045,1,0,0,0,0,0,0,0,0,0,0,0,0,0,0,89.96,0,1,0,-0.13,0,0,0,90,0,0,0,0,0,0,0,0,-0.015,0,0,3,0,0,0,69,0,0,0,0,0,0,,0,NONE,0,0,0,0,0,0,0,0,0,0,0,0,0,0,0,0,0,0,0,0,0,89.96,1,-0.015,0.734,-0.0083,0.25,1,-0.0083,0,0,0,0,0,0,1,1,0,0,VALID,0,0,0,0,0,1,0,0,0,0,0,0,0,0,0,0,0,0,0,0,706.48,1927.69,6,0,0.06,0.06,121,14.29,0.08,0.06,10.82,LANDED,C-1000F,0:/Integrated Flight Computer/aircraft/c_1000f_cfg.ks (inferred preloaded)
11.28,TAKEOFF,TO_GROUND_ROLL,13.39,80,66.61,4.83,-11.82,-0.03,-0.29,-0.17,90.73,0.049,1,0,0,0,0,0,0,0,0,0,0,0,0,0,0,89.96,0,1,0,-0.13,0,0,0,90,0,0,0,0,0,0,0,0,-0.016,0,0,3,0,0,0,69,0,0,0,0,0,0,,0,NONE,0,0,0,0,0,0,0,0,0,0,0,0,0,0,0,0,0,0,0,0,0,89.96,1,-0.016,0.766,-0.0086,0.25,1,-0.0086,0,0,0,0,0,0,1,1,0,0,VALID,0,0,0,0,0,1,0,0,0,0,0,0,0,0,0,0,0,0,0,0,726.37,1926.43,6,0,0.06,0.06,125,14.29,0.08,0.06,11.1,LANDED,C-1000F,0:/Integrated Flight Computer/aircraft/c_1000f_cfg.ks (inferred preloaded)
11.58,TAKEOFF,TO_GROUND_ROLL,14.4,80,65.6,4.83,-11.82,-0.03,-0.29,-0.17,90.76,0.051,1,0,0,0,0,0,0,0,0,0,0,0,0,0,0,89.96,0,1,0,-0.13,0,0,0,90,0,0,0,0,0,0,0,0,-0.017,0,0,3,0,0,0,69,0,0,0,0,0,0,,0,NONE,0,0,0,0,0,0,0,0,0,0,0,0,0,0,0,0,0,0,0,0,0,89.96,1,-0.017,0.796,-0.009,0.25,1,-0.009,0,0,0,0,0,0,1,1,0,0,VALID,0,0,0,0,0,1,0,0,0,0,0,0,0,0,0,0,0,0,0,0,747.24,1925.01,6,0,0.06,0.06,129,13.33,0.1,0.06,11.4,LANDED,C-1000F,0:/Integrated Flight Computer/aircraft/c_1000f_cfg.ks (inferred preloaded)
11.86,TAKEOFF,TO_GROUND_ROLL,15.37,80,64.63,4.83,-11.83,-0.04,-0.28,-0.16,90.79,0.049,1,0,0,0,0,0,0,0,0,0,0,0,0,0,0,89.96,0,1,0,-0.13,0,0,0,90,0,0,0,0,0,0,0,0,-0.018,0,0,3,0,0,0,69,0,0,0,0,0,0,,0,NONE,0,0,0,0,0,0,0,0,0,0,0,0,0,0,0,0,0,0,0,0,0,89.96,1,-0.018,0.825,-0.0093,0.25,1,-0.0093,0,0,0,0,0,0,1,1,0,0,VALID,0,0,0,0,0,1,0,0,0,0,0,0,0,0,0,0,0,0,0,0,766.32,1923.62,6,0,0.06,0.06,133,14.29,0.08,0.06,11.68,LANDED,C-1000F,0:/Integrated Flight Computer/aircraft/c_1000f_cfg.ks (inferred preloaded)
12.16,TAKEOFF,TO_GROUND_ROLL,16.44,80,63.56,4.83,-11.85,-0.04,-0.28,-0.17,90.82,0.046,1,0,0,0,0,0,0,0,0,0,0,0,0,0,0,89.96,0,1,0,-0.13,0,0,0,90,0,0,0,0,0,0,0,0,-0.019,0,0,3,0,0,0,69,0,0,0,0,0,0,,0,NONE,0,0,0,0,0,0,0,0,0,0,0,0,0,0,0,0,0,0,0,0,0,89.96,1,-0.019,0.859,-0.0097,0.25,1,-0.0097,0,0,0,0,0,0,1,1,0,0,VALID,0,0,0,0,0,1,0,0,0,0,0,0,0,0,0,0,0,0,0,0,786.34,1922.05,6,0,0.06,0.06,137,13.33,0.1,0.06,11.98,LANDED,C-1000F,0:/Integrated Flight Computer/aircraft/c_1000f_cfg.ks (inferred preloaded)
12.46,TAKEOFF,TO_GROUND_ROLL,17.53,80,62.47,4.83,-11.86,-0.04,-0.28,-0.16,90.85,0.043,1,0,0,0,0,0,0,0,0,0,0,0,0,0,0,89.96,0,1,0,-0.13,0,0,0.01,90,0,0,0,0,0,0,0,0,-0.021,0,0,3,0,0,0,69,0,0,0,0,0,0,,0,NONE,0,0,0,0,0,0,0,0,0,0,0,0,0,0,0,0,0,0,0,0,0,89.96,1,-0.021,0.886,-0.01,0.25,1,-0.01,0,0,0,0,0,0,1,1,0,0,VALID,0,0,0,0,0,1,0,0,0,0,0,0,0,0,0,0,0,0,0,0,805.93,1920.4,6,0,0.06,0.06,141,13.33,0.1,0.06,12.28,LANDED,C-1000F,0:/Integrated Flight Computer/aircraft/c_1000f_cfg.ks (inferred preloaded)
12.74,TAKEOFF,TO_GROUND_ROLL,18.57,80,61.43,4.83,-11.87,-0.04,-0.28,-0.16,90.87,0.044,1,0,0,0,0,0,0,0,0,0,0,0,0,0,0,89.96,0,1,0,-0.13,0,0,0.01,90,0,0,0,0,0,0,0,0,-0.022,0,0,3,0,0,0,69,0,0,0,0,0,0,,0,NONE,0,0,0,0,0,0,0,0,0,0,0,0,0,0,0,0,0,0,0,0,0,89.96,1,-0.022,0.912,-0.0103,0.25,1,-0.0103,0,0,0,0,0,0,1,1,0,0,VALID,0,0,0,0,0,1,0,0,0,0,0,0,0,0,0,0,0,0,0,0,823.82,1918.79,6,0,0.06,0.06,145,14.29,0.08,0.06,12.56,LANDED,C-1000F,0:/Integrated Flight Computer/aircraft/c_1000f_cfg.ks (inferred preloaded)
13.02,TAKEOFF,TO_GROUND_ROLL,19.64,80,60.36,4.83,-11.88,-0.04,-0.28,-0.16,90.9,0.047,1,0,0,0,0,0,0,0,0,0,0,0,0,0,0,89.96,0,1,0,-0.13,0,0,0.01,90,0,0,0,0,0,0,0,0,-0.024,0,0,3,0,0,0,69,0,0,0,0,0,0,,0,NONE,0,0,0,0,0,0,0,0,0,0,0,0,0,0,0,0,0,0,0,0,0,89.96,1,-0.024,0.937,-0.0105,0.25,1,-0.0105,0,0,0,0,0,0,1,1,0,0,VALID,0,0,0,0,0,1,0,0,0,0,0,0,0,0,0,0,0,0,0,0,841.34,1917.11,6,0,0.06,0.06,149,14.29,0.08,0.06,12.84,LANDED,C-1000F,0:/Integrated Flight Computer/aircraft/c_1000f_cfg.ks (inferred preloaded)
13.32,TAKEOFF,TO_GROUND_ROLL,20.81,80,59.19,4.83,-11.89,-0.05,-0.28,-0.16,90.92,0.049,1,0,0,0,0,0,0,0,0,0,0,0,0,0,0,89.96,0,1,0,-0.13,0,0,0.01,90,0,0,0,0,0,0,0,0,-0.026,0,0,3,0,0,0,69,0,0,0,0,0,0,,0,NONE,0,0,0,0,0,0,0,0,0,0,0,0,0,0,0,0,0,0,0,0,0,89.96,1,-0.026,0.965,-0.0112,0.259,0,-0.0112,0,0,0,0,0,0,1,1,0,0,VALID,0,0,0,0,0,1,0,0,0,0,0,0,0,0,0,0,0,0,0,0,859.7,1915.23,6,0,0.06,0.06,153,13.33,0.1,0.06,13.14,LANDED,C-1000F,0:/Integrated Flight Computer/aircraft/c_1000f_cfg.ks (inferred preloaded)
13.6,TAKEOFF,TO_GROUND_ROLL,21.92,80,58.08,4.83,-11.91,-0.05,-0.28,-0.16,90.94,0.048,1,0,0,0,0,0,0,0,0,0,0,0,0,0,0,89.96,0,1,0,-0.12,0,0,0.01,90,0,0,0,0,0,0,0,0,-0.028,0,0,3,0,0,0,69,0,0,0,0,0,0,,0,NONE,0,0,0,0,0,0,0,0,0,0,0,0,0,0,0,0,0,0,0,0,0,89.96,1,-0.028,0.986,-0.012,0.271,0,-0.012,0,0,0,0,0,0,1,1,0,0,VALID,0,0,0,0,0,1,0,0,0,0,0,0,0,0,0,0,0,0,0,0,876.46,1913.4,6,0,0.06,0.06,157,14.29,0.08,0.06,13.42,LANDED,C-1000F,0:/Integrated Flight Computer/aircraft/c_1000f_cfg.ks (inferred preloaded)
13.88,TAKEOFF,TO_GROUND_ROLL,23.05,80,56.95,4.83,-11.92,-0.05,-0.27,-0.16,90.96,0.045,1,0,0,0,0,0,0,0,0,0,0,0,0,0,0,89.96,0,1,0,-0.12,0,0,0.01,90,0,0,0,0,0,0,0,0,-0.03,0,0,3,0,0,0,69,0,0,0,0,0,0,,0,NONE,0,0,0,0,0,0,0,0,0,0,0,0,0,0,0,0,0,0,0,0,0,89.96,1,-0.03,1.006,-0.0128,0.283,0,-0.0128,0,0,0,0,0,0,1,1,0,0,VALID,0,0,0,0,0,1,0,0,0,0,0,0,0,0,0,0,0,0,0,0,892.86,1911.5,6,0,0.06,0.06,161,14.29,0.08,0.06,13.7,LANDED,C-1000F,0:/Integrated Flight Computer/aircraft/c_1000f_cfg.ks (inferred preloaded)
14.18,TAKEOFF,TO_GROUND_ROLL,24.29,80,55.71,4.83,-11.93,-0.05,-0.27,-0.16,90.98,0.044,1,0,0,0,0,0,0,0,0,0,0,0,0,0,0,89.96,0,1,0,-0.12,0,0,0.01,90,0,0,0,0,0,0,0,0,-0.032,0,0,3,0,0,0,69,0,0,0,0,0,0,,0,NONE,0,0,0,0,0,0,0,0,0,0,0,0,0,0,0,0,0,0,0,0,0,89.96,1,-0.032,1.024,-0.0136,0.296,0,-0.0136,0,0,0,0,0,0,1,1,0,0,VALID,0,0,0,0,0,1,0,0,0,0,0,0,0,0,0,0,0,0,0,0,910.04,1909.38,6,0,0.06,0.06,165,13.33,0.1,0.06,14,LANDED,C-1000F,0:/Integrated Flight Computer/aircraft/c_1000f_cfg.ks (inferred preloaded)
14.46,TAKEOFF,TO_GROUND_ROLL,25.46,80,54.54,4.83,-11.95,-0.05,-0.27,-0.16,91,0.046,1,0,0,0,0,0,0,0,0,0,0,0,0,0,0,89.96,0,1,0,-0.12,0,0,0.01,90,0,0,0,0,0,0,0,0,-0.034,0,0,3,0,0,0,69,0,0,0,0,0,0,,0,NONE,0,0,0,0,0,0,0,0,0,0,0,0,0,0,0,0,0,0,0,0,0,89.96,1,-0.034,1.041,-0.0145,0.309,0,-0.0145,0,0,0,0,0,0,1,1,0,0,VALID,0,0,0,0,0,1,0,0,0,0,0,0,0,0,0,0,0,0,0,0,925.7,1907.32,6,0,0.06,0.06,169,14.29,0.08,0.06,14.28,LANDED,C-1000F,0:/Integrated Flight Computer/aircraft/c_1000f_cfg.ks (inferred preloaded)
14.76,TAKEOFF,TO_GROUND_ROLL,26.74,80,53.26,4.83,-11.97,-0.06,-0.27,-0.16,91.01,0.049,1,0,0,0,0,0,0,0,0,0,0,0,0,0,0,89.95,0,1,0,-0.12,0,0,0.01,90,0,0,0,0,0,0,0,0,-0.037,0,0,3,0,0,0,69,0,0,0,0,0,0,,0,NONE,0,0,0,0,0,0,0,0,0,0,0,0,0,0,0,0,0,0,0,0,0,89.95,1,-0.037,1.06,-0.0154,0.322,0,-0.0154,0,0,0,0,0,0,1,1,0,0,VALID,0,0,0,0,0,1,0,0,0,0,0,0,0,0,0,0,0,0,0,0,942.1,1905.03,6,0,0.06,0.06,173,13.33,0.1,0.06,14.58,LANDED,C-1000F,0:/Integrated Flight Computer/aircraft/c_1000f_cfg.ks (inferred preloaded)
15.06,TAKEOFF,TO_GROUND_ROLL,28.04,80,51.96,4.83,-11.98,-0.06,-0.27,-0.15,91.03,0.048,1,0,0,0,0,0,0,0,0,0,0,0,0,0,0,89.95,0,1,0,-0.12,0,0,0.01,90,0,0,0,0,0,0,0,0,-0.04,0,0,3,0,0,0,69,0,0,0,0,0,0,,0,NONE,0,0,0,0,0,0,0,0,0,0,0,0,0,0,0,0,0,0,0,0,0,89.95,1,-0.04,1.072,-0.0162,0.336,0,-0.0162,0,0,0,0,0,0,1,1,0,0,VALID,0,0,0,0,0,1,0,0,0,0,0,0,0,0,0,0,0,0,0,0,958.1,1902.65,6,0,0.06,0.06,177,13.33,0.1,0.06,14.88,LANDED,C-1000F,0:/Integrated Flight Computer/aircraft/c_1000f_cfg.ks (inferred preloaded)
15.34,TAKEOFF,TO_GROUND_ROLL,29.28,80,50.72,4.83,-12,-0.06,-0.27,-0.15,91.04,0.047,1,0,0,0,0,0,0,0,0,0,0,0,0,0,0,89.95,0,1,0,-0.12,0,0,0.01,90,0,0,0,0,0,0,0,0,-0.042,0,0,3,0,0,0,69,0,0,0,0,0,0,,0,NONE,0,0,0,0,0,0,0,0,0,0,0,0,0,0,0,0,0,0,0,0,0,89.95,1,-0.042,1.084,-0.017,0.349,0,-0.017,0,0,0,0,0,0,1,1,0,0,VALID,0,0,0,0,0,1,0,0,0,0,0,0,0,0,0,0,0,0,0,0,972.67,1900.36,6,0,0.06,0.06,181,14.29,0.08,0.06,15.16,LANDED,C-1000F,0:/Integrated Flight Computer/aircraft/c_1000f_cfg.ks (inferred preloaded)
15.62,TAKEOFF,TO_GROUND_ROLL,30.53,80,49.47,4.83,-12.02,-0.06,-0.26,-0.15,91.04,0.045,1,0,0,0,0,0,0,0,0,0,0,0,0,0,0,89.95,0,1,0,-0.12,0,0,0.01,90,0,0,0,0,0,0,0,0,-0.045,0,0,3,0,0,0,69,0,0,0,0,0,0,,0,NONE,0,0,0,0,0,0,0,0,0,0,0,0,0,0,0,0,0,0,0,0,0,89.95,1,-0.045,1.093,-0.0178,0.363,0,-0.0178,0,0,0,0,0,0,1,1,0,0,VALID,0,0,0,0,0,1,0,0,0,0,0,0,0,0,0,0,0,0,0,0,986.91,1897.99,6,0,0.06,0.06,185,14.29,0.08,0.06,15.44,LANDED,C-1000F,0:/Integrated Flight Computer/aircraft/c_1000f_cfg.ks (inferred preloaded)
15.92,TAKEOFF,TO_GROUND_ROLL,31.9,80,48.1,4.83,-12.04,-0.07,-0.26,-0.15,91.05,0.045,1,0,0,0,0,0,0,0,0,0,0,0,0,0,0,89.95,0,1,0,-0.12,0,0,0.01,90,0,0,0,0,0,0,0,0,-0.049,0,0,3,0,0,0,69,0,0,0,0,0,0,,0,NONE,0,0,0,0,0,0,0,0,0,0,0,0,0,0,0,0,0,0,0,0,0,89.95,1,-0.049,1.102,-0.0187,0.377,0,-0.0187,0,0,0,0,0,0,1,1,0,0,VALID,0,0,0,0,0,1,0,0,0,0,0,0,0,0,0,0,0,0,0,0,1001.79,1895.36,6,0,0.06,0.06,189,13.33,0.1,0.06,15.74,LANDED,C-1000F,0:/Integrated Flight Computer/aircraft/c_1000f_cfg.ks (inferred preloaded)
16.2,TAKEOFF,TO_GROUND_ROLL,33.19,80,46.81,4.83,-12.06,-0.07,-0.26,-0.15,91.05,0.047,1,0,0,0,0,0,0,0,0,0,0,0,0,0,0,89.95,0,1,0,-0.12,0,0,0.01,90,0,0,0,0,0,0,0,0,-0.052,0,0,3,0,0,0,69,0,0,0,0,0,0,,0,NONE,0,0,0,0,0,0,0,0,0,0,0,0,0,0,0,0,0,0,0,0,0,89.95,1,-0.052,1.106,-0.0195,0.391,0,-0.0195,0,0,0,0,0,0,1,1,0,0,VALID,0,0,0,0,0,1,0,0,0,0,0,0,0,0,0,0,0,0,0,0,1015.34,1892.84,6,0,0.06,0.06,193,14.29,0.08,0.06,16.02,LANDED,C-1000F,0:/Integrated Flight Computer/aircraft/c_1000f_cfg.ks (inferred preloaded)
16.48,TAKEOFF,TO_GROUND_ROLL,34.49,80,45.51,4.83,-12.08,-0.07,-0.26,-0.15,91.05,0.048,1,0,0,0,0,0,0,0,0,0,0,0,0,0,0,89.94,0,1,0,-0.12,0,0,0.02,90,0,0,0,0,0,0,0,0,-0.055,0,0,3,0,0,0,69,0,0,0,0,0,0,,0,NONE,0,0,0,0,0,0,0,0,0,0,0,0,0,0,0,0,0,0,0,0,0,89.94,1,-0.055,1.107,-0.0202,0.405,0,-0.0202,0,0,0,0,0,0,1,1,0,0,VALID,0,0,0,0,0,1,0,0,0,0,0,0,0,0,0,0,0,0,0,0,1028.55,1890.23,6,0,0.06,0.06,197,14.29,0.08,0.06,16.3,LANDED,C-1000F,0:/Integrated Flight Computer/aircraft/c_1000f_cfg.ks (inferred preloaded)
16.78,TAKEOFF,TO_GROUND_ROLL,35.91,80,44.09,4.83,-12.1,-0.07,-0.26,-0.15,91.05,0.048,1,0,0,0,0,0,0,0,0,0,0,0,0,0,0,89.95,0,1,0,-0.11,0,0,0.02,90,0,0,0,0,0,0,0,0,-0.059,0,0,3,0,0,0,69,0,0,0,0,0,0,,0,NONE,0,0,0,0,0,0,0,0,0,0,0,0,0,0,0,0,0,0,0,0,0,89.95,1,-0.059,1.103,-0.0209,0.42,0,-0.0209,0,0,0,0,0,0,1,1,0,0,VALID,0,0,0,0,0,1,0,0,0,0,0,0,0,0,0,0,0,0,0,0,1042.35,1887.36,6,0,0.06,0.06,201,13.33,0.1,0.06,16.6,LANDED,C-1000F,0:/Integrated Flight Computer/aircraft/c_1000f_cfg.ks (inferred preloaded)
17.08,TAKEOFF,TO_GROUND_ROLL,37.35,80,42.65,4.83,-12.12,-0.07,-0.25,-0.15,91.04,0.047,1,0,0,0,0,0,0,0,0,0,0,0,0,0,0,89.94,0,1,0,-0.11,0,0,0.02,90,0,0,0,0,0,0,0,0,-0.063,0,0,3,0,0,0,69,0,0,0,0,0,0,,0,NONE,0,0,0,0,0,0,0,0,0,0,0,0,0,0,0,0,0,0,0,0,0,89.94,1,-0.063,1.101,-0.0216,0.436,0,-0.0216,0,0,0,0,0,0,1,1,0,0,VALID,0,0,0,0,0,1,0,0,0,0,0,0,0,0,0,0,0,0,0,0,1055.79,1884.4,6,0,0.06,0.06,205,13.33,0.1,0.06,16.9,LANDED,C-1000F,0:/Integrated Flight Computer/aircraft/c_1000f_cfg.ks (inferred preloaded)
17.38,TAKEOFF,TO_GROUND_ROLL,38.8,80,41.2,4.83,-12.14,-0.08,-0.25,-0.15,91.03,0.046,1,0,0,0,0,0,0,0,0,0,0,0,0,0,0,89.94,0,1,0,-0.11,0,0,0.02,90,0,0,0,0,0,0,0,0,-0.067,0,0,3,0,0,0,69,0,0,0,0,0,0,,0,NONE,0,0,0,0,0,0,0,0,0,0,0,0,0,0,0,0,0,0,0,0,0,89.94,1,-0.067,1.093,-0.0222,0.451,0,-0.0222,0,0,0,0,0,0,1,1,0,0,VALID,0,0,0,0,0,1,0,0,0,0,0,0,0,0,0,0,0,0,0,0,1068.85,1881.35,6,0,0.06,0.06,209,13.33,0.1,0.06,17.2,LANDED,C-1000F,0:/Integrated Flight Computer/aircraft/c_1000f_cfg.ks (inferred preloaded)
17.68,TAKEOFF,TO_GROUND_ROLL,40.27,80,39.73,4.83,-12.17,-0.08,-0.25,-0.15,91.02,0.046,1,0,0,0,0,0,0,0,0,0,0,0,0,0,0,89.94,0,1,0,-0.11,0,0,0.02,90,0,0,0,0,0,0,0,0,-0.071,0,0,3,0,0,0,69,0,0,0,0,0,0,,0,NONE,0,0,0,0,0,0,0,0,0,0,0,0,0,0,0,0,0,0,0,0,0,89.94,1,-0.071,1.086,-0.0228,0.467,0,-0.0228,0,0,0,0,0,0,1,1,0,0,VALID,0,0,0,0,0,1,0,0,0,0,0,0,0,0,0,0,0,0,0,0,1081.56,1878.22,6,0,0.06,0.06,213,13.33,0.1,0.06,17.5,LANDED,C-1000F,0:/Integrated Flight Computer/aircraft/c_1000f_cfg.ks (inferred preloaded)
17.96,TAKEOFF,TO_GROUND_ROLL,41.66,80,38.34,4.83,-12.19,-0.08,-0.25,-0.15,91.01,0.047,1,0,0,0,0,0,0,0,0,0,0,0,0,0,0,89.93,0,1,0,-0.11,0,0,0.02,90,0,0,0,0,0,0,0,0,-0.075,0,0,3,0,0,0,69,0,0,0,0,0,0,,0,NONE,0,0,0,0,0,0,0,0,0,0,0,0,0,0,0,0,0,0,0,0,0,89.93,1,-0.075,1.075,-0.0233,0.482,0,-0.0233,0,0,0,0,0,0,1,1,0,0,VALID,0,0,0,0,0,1,0,0,0,0,0,0,0,0,0,0,0,0,0,0,1093.1,1875.22,6,0,0.06,0.06,217,14.29,0.08,0.06,17.78,LANDED,C-1000F,0:/Integrated Flight Computer/aircraft/c_1000f_cfg.ks (inferred preloaded)
18.24,TAKEOFF,TO_GROUND_ROLL,43.06,80,36.94,4.84,-12.21,-0.08,-0.25,-0.15,90.99,0.048,1,0,0,0,0,0,0,0,0,0,0,0,0,0,0,89.93,0,1,0,-0.11,0,0,0.02,90,0,0,0,0,0,0,0,0,-0.08,0,0,3,0,0,0,69,0,0,0,0,0,0,,0,NONE,0,0,0,0,0,0,0,0,0,0,0,0,0,0,0,0,0,0,0,0,0,89.93,1,-0.08,1.062,-0.0238,0.497,0,-0.0238,0,0,0,0,0,0,1,1,0,0,VALID,0,0,0,0,0,1,0,0,0,0,0,0,0,0,0,0,0,0,0,0,1104.33,1872.15,6,0,0.06,0.06,221,14.29,0.08,0.06,18.06,LANDED,C-1000F,0:/Integrated Flight Computer/aircraft/c_1000f_cfg.ks (inferred preloaded)
18.54,TAKEOFF,TO_GROUND_ROLL,44.58,80,35.42,4.84,-12.23,-0.08,-0.24,-0.14,90.97,0.047,1,0,0,0,0,0,0,0,0,0,0,0,0,0,0,89.93,0,1,0,-0.11,0,0,0.02,90,0,0,0,0,0,0,0,0,-0.085,0,0,3,0,0,0,69,0,0,0,0,0,0,,0,NONE,0,0,0,0,0,0,0,0,0,0,0,0,0,0,0,0,0,0,0,0,0,89.93,1,-0.085,1.043,-0.0241,0.513,0,-0.0241,0,0,0,0,0,0,1,1,0,0,VALID,0,0,0,0,0,1,0,0,0,0,0,0,0,0,0,0,0,0,0,0,1116.03,1868.79,6,0,0.06,0.06,225,13.33,0.1,0.06,18.36,LANDED,C-1000F,0:/Integrated Flight Computer/aircraft/c_1000f_cfg.ks (inferred preloaded)
18.82,TAKEOFF,TO_GROUND_ROLL,46.01,80,33.99,4.84,-12.26,-0.08,-0.24,-0.14,90.95,0.045,1,0,0,0,0,0,0,0,0,0,0,0,0,0,0,89.93,0,1,0,-0.1,0,0,0.03,90,0,0,0,0,0,0,0,0,-0.089,0,0,3,0,0,0,69,0,0,0,0,0,0,,0,NONE,0,0,0,0,0,0,0,0,0,0,0,0,0,0,0,0,0,0,0,0,0,89.93,1,-0.089,1.024,-0.0244,0.529,0,-0.0244,0,0,0,0,0,0,1,1,0,0,VALID,0,0,0,0,0,1,0,0,0,0,0,0,0,0,0,0,0,0,0,0,1126.65,1865.57,6,0,0.06,0.06,229,14.29,0.08,0.06,18.64,LANDED,C-1000F,0:/Integrated Flight Computer/aircraft/c_1000f_cfg.ks (inferred preloaded)
19.1,TAKEOFF,TO_GROUND_ROLL,47.45,80,32.55,4.84,-12.28,-0.09,-0.24,-0.14,90.93,0.045,1,0,0,0,0,0,0,0,0,0,0,0,0,0,0,89.92,0,1,0,-0.1,0,0,0.03,90,0,0,0,0,0,0,0,0,-0.094,0,0,3,0,0,0,69,0,0,0,0,0,0,,0,NONE,0,0,0,0,0,0,0,0,0,0,0,0,0,0,0,0,0,0,0,0,0,89.92,1,-0.094,1.006,-0.0246,0.544,0,-0.0246,0,0,0,0,0,0,1,1,0,0,VALID,0,0,0,0,0,1,0,0,0,0,0,0,0,0,0,0,0,0,0,0,1136.97,1862.29,6,0,0.06,0.06,233,14.29,0.08,0.06,18.92,LANDED,C-1000F,0:/Integrated Flight Computer/aircraft/c_1000f_cfg.ks (inferred preloaded)
19.4,TAKEOFF,TO_GROUND_ROLL,49.01,80,30.99,4.84,-12.31,-0.09,-0.24,-0.14,90.9,0.048,1,0,0,0,0,0,0,0,0,0,0,0,0,0,0,89.92,0,1,0,-0.1,0,0,0.03,90,0,0,0,0,0,0,0,0,-0.099,0,0,3,0,0,0,69,0,0,0,0,0,0,,0,NONE,0,0,0,0,0,0,0,0,0,0,0,0,0,0,0,0,0,0,0,0,0,89.92,1,-0.099,0.988,-0.0249,0.561,0,-0.0249,0,0,0,0,0,0,1,1,0,0,VALID,0,0,0,0,0,1,0,0,0,0,0,0,0,0,0,0,0,0,0,0,1147.7,1858.69,6,0,0.06,0.06,237,13.33,0.1,0.06,19.22,LANDED,C-1000F,0:/Integrated Flight Computer/aircraft/c_1000f_cfg.ks (inferred preloaded)
19.68,TAKEOFF,TO_GROUND_ROLL,50.48,80,29.52,4.84,-12.33,-0.09,-0.24,-0.14,90.88,0.052,1,0,0,0,0,0,0,0,0,0,0,0,0,0,0,89.91,0,1,0,-0.1,0,0,0.03,90,0,0,0,0,0,0,0,0,-0.104,0,0,3,0,0,0,69,0,0,0,0,0,0,,0,NONE,0,0,0,0,0,0,0,0,0,0,0,0,0,0,0,0,0,0,0,0,0,89.91,1,-0.104,0.975,-0.0253,0.577,0,-0.0253,0,0,0,0,0,0,1,1,0,0,VALID,0,0,0,0,0,1,0,0,0,0,0,0,0,0,0,0,0,0,0,0,1157.42,1855.27,6,0,0.06,0.06,241,14.29,0.08,0.06,19.5,LANDED,C-1000F,0:/Integrated Flight Computer/aircraft/c_1000f_cfg.ks (inferred preloaded)
19.98,TAKEOFF,TO_GROUND_ROLL,52.07,80,27.93,4.84,-12.36,-0.09,-0.23,-0.14,90.86,0.056,1,0,0,0,0,0,0,0,0,0,0,0,0,0,0,89.9,0,1,0,-0.1,0,0,0.03,90,0,0,0,0,0,0,0,0,-0.11,0,0,3,0,0,0,69,0,0,0,0,0,0,,0,NONE,0,0,0,0,0,0,0,0,0,0,0,0,0,0,0,0,0,0,0,0,0,89.9,1,-0.11,0.961,-0.0257,0.594,0,-0.0257,0,0,0,0,0,0,1,1,0,0,VALID,0,0,0,0,0,1,0,0,0,0,0,0,0,0,0,0,0,0,0,0,1167.53,1851.53,6,0,0.06,0.06,245,13.33,0.1,0.06,19.8,LANDED,C-1000F,0:/Integrated Flight Computer/aircraft/c_1000f_cfg.ks (inferred preloaded)
20.28,TAKEOFF,TO_GROUND_ROLL,53.67,80,26.33,4.84,-12.39,-0.09,-0.23,-0.14,90.85,0.058,1,0,0,0,0,0,0,0,0,0,0,0,0,0,0,89.89,0,1,0,-0.1,0,0,0.03,90,0,0,0,0,0,0,0,0,-0.115,0,0,3,0,0,0,69,0,0,0,0,0,0,,0,NONE,0,0,0,0,0,0,0,0,0,0,0,0,0,0,0,0,0,0,0,0,0,89.89,1,-0.115,0.957,-0.0263,0.611,0,-0.0263,0,0,0,0,0,0,1,1,0,0,VALID,0,0,0,0,0,1,0,0,0,0,0,0,0,0,0,0,0,0,0,0,1177.32,1847.72,6,0,0.06,0.06,249,13.33,0.1,0.06,20.1,LANDED,C-1000F,0:/Integrated Flight Computer/aircraft/c_1000f_cfg.ks (inferred preloaded)
20.56,TAKEOFF,TO_GROUND_ROLL,55.17,80,24.83,4.84,-12.41,-0.09,-0.23,-0.14,90.84,0.057,1,0,0,0,0,0,0,0,0,0,0,0,0,0,0,89.88,0,1,0,-0.09,0,0,0.03,90,0,0,0,0,0,0,0,0,-0.121,0,0,3,0,0,0,69,0,0,0,0,0,0,,0,NONE,0,0,0,0,0,0,0,0,0,0,0,0,0,0,0,0,0,0,0,0,0,89.88,1,-0.121,0.955,-0.0269,0.627,0,-0.0269,0,0,0,0,0,0,1,1,0,0,VALID,0,0,0,0,0,1,0,0,0,0,0,0,0,0,0,0,0,0,0,0,1186.17,1844.09,6,0,0.06,0.06,253,14.29,0.08,0.06,20.38,LANDED,C-1000F,0:/Integrated Flight Computer/aircraft/c_1000f_cfg.ks (inferred preloaded)
20.84,TAKEOFF,TO_GROUND_ROLL,56.68,80,23.32,4.84,-12.44,-0.09,-0.23,-0.14,90.83,0.055,1,0,0,0,0,0,0,0,0,0,0,0,0,0,0,89.88,0,1,0,-0.09,0,0,0.04,90,0,0,0,0,0,0,0,0,-0.126,0,0,3,0,0,0,69,0,0,0,0,0,0,,0,NONE,0,0,0,0,0,0,0,0,0,0,0,0,0,0,0,0,0,0,0,0,0,89.88,1,-0.126,0.956,-0.0277,0.643,0,-0.0277,0,0,0,0,0,0,1,1,0,0,VALID,0,0,0,0,0,1,0,0,0,0,0,0,0,0,0,0,0,0,0,0,1194.76,1840.41,6,0,0.06,0.06,257,14.29,0.08,0.06,20.66,LANDED,C-1000F,0:/Integrated Flight Computer/aircraft/c_1000f_cfg.ks (inferred preloaded)
21.14,TAKEOFF,TO_GROUND_ROLL,58.31,80,21.69,4.84,-12.46,-0.09,-0.22,-0.14,90.83,0.053,1,0,0,0,0,0,0,0,0,0,0,0,0,0,0,89.87,0,1,0,-0.09,0,0,0.04,90,0,0,0,0,0,0,0,0,-0.132,0,0,3,0,0,0,69,0,0,0,0,0,0,,0,NONE,0,0,0,0,0,0,0,0,0,0,0,0,0,0,0,0,0,0,0,0,0,89.87,1,-0.132,0.955,-0.0284,0.661,0,-0.0284,0,0,0,0,0,0,1,1,0,0,VALID,0,0,0,0,0,1,0,0,0,0,0,0,0,0,0,0,0,0,0,0,1203.66,1836.4,6,0,0.06,0.06,261,13.33,0.1,0.06,20.96,LANDED,C-1000F,0:/Integrated Flight Computer/aircraft/c_1000f_cfg.ks (inferred preloaded)
21.42,TAKEOFF,TO_GROUND_ROLL,59.85,80,20.15,4.84,-12.49,-0.09,-0.22,-0.14,90.82,0.053,1,0,0,0,0,0,0,0,0,0,0,0,0,0,0,89.87,0,1,0,-0.09,0,0,0.04,90,0,0,0,0,0,0,0,0,-0.137,0,0,3,0,0,0,69,0,0,0,0,0,0,,0,NONE,0,0,0,0,0,0,0,0,0,0,0,0,0,0,0,0,0,0,0,0,0,89.87,1,-0.137,0.958,-0.0292,0.677,0,-0.0292,0,0,0,0,0,0,1,1,0,0,VALID,0,0,0,0,0,1,0,0,0,0,0,0,0,0,0,0,0,0,0,0,1211.7,1832.6,6,0,0.06,0.06,265,14.29,0.08,0.06,21.24,LANDED,C-1000F,0:/Integrated Flight Computer/aircraft/c_1000f_cfg.ks (inferred preloaded)
21.7,TAKEOFF,TO_GROUND_ROLL,61.39,80,18.61,4.84,-12.52,-0.09,-0.22,-0.14,90.82,0.053,1,0,0,0,0,0,0,0,0,0,0,0,0,0,0,89.86,0,1,0,-0.09,0,0,0.04,90,0,0,0,0,0,0,0,0,-0.143,0,0,3,0,0,0,69,0,0,0,0,0,0,,0,NONE,0,0,0,0,0,0,0,0,0,0,0,0,0,0,0,0,0,0,0,0,0,89.86,1,-0.143,0.958,-0.0299,0.693,0,-0.0299,0,0,0,0,0,0,1,1,0,0,VALID,0,0,0,0,0,1,0,0,0,0,0,0,0,0,0,0,0,0,0,0,1219.49,1828.75,6,0,0.06,0.06,269,14.29,0.08,0.06,21.52,LANDED,C-1000F,0:/Integrated Flight Computer/aircraft/c_1000f_cfg.ks (inferred preloaded)
22,TAKEOFF,TO_GROUND_ROLL,63.05,80,16.95,4.84,-12.55,-0.09,-0.22,-0.14,90.81,0.054,1,0,0,0,0,0,0,0,0,0,0,0,0,0,0,89.85,0,1,0,-0.09,0,0,0.04,90,0,0,0,0,0,0,0,0,-0.149,0,0,3,0,0,0,69,0,0,0,0,0,0,,0,NONE,0,0,0,0,0,0,0,0,0,0,0,0,0,0,0,0,0,0,0,0,0,89.85,1,-0.149,0.958,-0.0307,0.711,0,-0.0307,0,0,0,0,0,0,1,1,0,0,VALID,0,0,0,0,0,1,0,0,0,0,0,0,0,0,0,0,0,0,0,0,1227.56,1824.56,6,0,0.06,0.06,273,13.33,0.1,0.06,21.82,LANDED,C-1000F,0:/Integrated Flight Computer/aircraft/c_1000f_cfg.ks (inferred preloaded)
22.28,TAKEOFF,TO_GROUND_ROLL,64.61,80,15.39,4.84,-12.57,-0.09,-0.21,-0.13,90.81,0.053,1,0,0,0,0,0,0,0,0,0,0,0,0,0,0,89.85,0,1,0,-0.08,0,0,0.04,90,0,0,0,0,0,0,0,0,-0.155,0,0,3,0,0,0,69,0,0,0,0,0,0,,0,NONE,0,0,0,0,0,0,0,0,0,0,0,0,0,0,0,0,0,0,0,0,0,89.85,1,-0.155,0.955,-0.0313,0.728,0,-0.0313,0,0,0,0,0,0,1,1,0,0,VALID,0,0,0,0,0,1,0,0,0,0,0,0,0,0,0,0,0,0,0,0,1234.83,1820.61,6,0,0.06,0.06,277,14.29,0.08,0.06,22.1,LANDED,C-1000F,0:/Integrated Flight Computer/aircraft/c_1000f_cfg.ks (inferred preloaded)
22.58,TAKEOFF,TO_GROUND_ROLL,66.29,80,13.71,4.85,-12.6,-0.09,-0.21,-0.13,90.79,0.053,1,0,0,0,0,0,0,0,0,0,0,0,0,0,0,89.85,0,1,0,-0.08,0,0,0.05,90,0,0,0,0,0,0,0,0,-0.161,0,0,3,0,0,0,69,0,0,0,0,0,0,,0,NONE,0,0,0,0,0,0,0,0,0,0,0,0,0,0,0,0,0,0,0,0,0,89.85,1,-0.161,0.946,-0.0318,0.746,0,-0.0318,0,0,0,0,0,0,1,1,0,0,VALID,0,0,0,0,0,1,0,0,0,0,0,0,0,0,0,0,0,0,0,0,1242.36,1816.31,6,0,0.06,0.06,281,13.33,0.1,0.06,22.4,LANDED,C-1000F,0:/Integrated Flight Computer/aircraft/c_1000f_cfg.ks (inferred preloaded)
22.88,TAKEOFF,TO_GROUND_ROLL,67.98,80,12.02,4.85,-12.63,-0.1,-0.21,-0.13,90.78,0.052,1,0,0,0,0,0,0,0,0,0,0,0,0,0,0,89.84,0,1,0,-0.08,0,0,0.05,90,0,0,0,0,0,0,0,0,-0.168,0,0,3,0,0,0,69,0,0,0,0,0,0,,0,NONE,0,0,0,0,0,0,0,0,0,0,0,0,0,0,0,0,0,0,0,0,0,89.84,1,-0.168,0.939,-0.0323,0.764,0,-0.0323,0,0,0,0,0,0,1,1,0,0,VALID,0,0,0,0,0,1,0,0,0,0,0,0,0,0,0,0,0,0,0,0,1249.61,1811.97,6,0,0.06,0.06,285,13.33,0.1,0.06,22.7,LANDED,C-1000F,0:/Integrated Flight Computer/aircraft/c_1000f_cfg.ks (inferred preloaded)
23.16,TAKEOFF,TO_GROUND_ROLL,69.57,80,10.43,4.85,-12.66,-0.09,-0.21,-0.14,90.77,0.047,1,0,0,0,0,0,0,0,0,0,0,0,0,0,0,89.84,0,1,0,-0.07,0,0,0.05,90,0,0,0,0,0,0,0,0,-0.174,0,0,3,0,0,0,69,0,0,0,0,0,0,,0,NONE,0,0,0,0,0,0,0,0,0,0,0,0,0,0,0,0,0,0,0,0,0,89.84,1,-0.174,0.929,-0.0326,0.781,0,-0.0326,0,0,0,0,0,0,1,1,0,0,VALID,0,0,0,0,0,1,0,0,0,0,0,0,0,0,0,0,0,0,0,0,1256.15,1807.87,6,0,0.06,0.06,289,14.29,0.08,0.06,22.98,LANDED,C-1000F,0:/Integrated Flight Computer/aircraft/c_1000f_cfg.ks (inferred preloaded)
23.44,TAKEOFF,TO_GROUND_ROLL,71.16,80,8.84,4.85,-12.68,-0.1,-0.21,-0.13,90.75,0.04,1,0,0,0,0,0,0,0,0,0,0,0,0,0,0,89.83,0,1,0,-0.08,0,0,0.05,90,0,0,0,0,0,0,0,0,-0.18,0,0,3,0,0,0,69,0,0,0,0,0,0,,0,NONE,0,0,0,0,0,0,0,0,0,0,0,0,0,0,0,0,0,0,0,0,0,89.83,1,-0.18,0.917,-0.0329,0.798,0,-0.0329,0,0,0,0,0,0,1,1,0,0,VALID,0,0,0,0,0,1,0,0,0,0,0,0,0,0,0,0,0,0,0,0,1262.45,1803.73,6,0,0.06,0.06,293,14.29,0.08,0.06,23.26,LANDED,C-1000F,0:/Integrated Flight Computer/aircraft/c_1000f_cfg.ks (inferred preloaded)
23.74,TAKEOFF,TO_GROUND_ROLL,72.87,80,7.13,4.85,-12.71,-0.09,-0.2,-0.13,90.73,0.032,1,0,0,0,0,0,0,0,0,0,0,0,0,0,0,89.83,0,1,0,-0.07,0,0,0.05,90,0,0,0,0,0,0,0,0,-0.186,0,0,3,0,0,0,69,0,0,0,0,0,0,,0,NONE,0,0,0,0,0,0,0,0,0,0,0,0,0,0,0,0,0,0,0,0,0,89.83,1,-0.186,0.898,-0.033,0.816,0,-0.033,0,0,0,0,0,0,1,1,0,0,VALID,0,0,0,0,0,1,0,0,0,0,0,0,0,0,0,0,0,0,0,0,1268.96,1799.25,6,0,0.06,0.06,297,13.33,0.1,0.06,23.56,LANDED,C-1000F,0:/Integrated Flight Computer/aircraft/c_1000f_cfg.ks (inferred preloaded)
24.02,TAKEOFF,TO_GROUND_ROLL,74.48,80,5.52,4.85,-12.73,-0.09,-0.2,-0.13,90.69,0.033,1,0,0,0,0,0,0,0,0,0,0,0,0,0,0,89.84,0,1,0,-0.07,0,0,0.06,90,0,0,0,0,0,0,0,0,-0.193,0,0,3,0,0,0,69,0,0,0,0,0,0,,0,NONE,0,0,0,0,0,0,0,0,0,0,0,0,0,0,0,0,0,0,0,0,0,89.84,1,-0.193,0.852,-0.032,0.834,0,-0.032,0,0,0,0,0,0,1,1,0,0,VALID,0,0,0,0,0,1,0,0,0,0,0,0,0,0,0,0,0,0,0,0,1274.82,1795.03,6,0,0.06,0.06,301,14.29,0.08,0.06,23.84,LANDED,C-1000F,0:/Integrated Flight Computer/aircraft/c_1000f_cfg.ks (inferred preloaded)
24.3,TAKEOFF,TO_GROUND_ROLL,76.09,80,3.91,4.85,-12.76,-0.09,-0.19,-0.13,90.61,0.051,1,0,0,0,0,0,0,0,0,0,0,0,0,0,0,89.89,0,1,0,-0.07,0,0,0.06,90,0,0,0,0,0,0,0,0,-0.199,0,0,3,0,0,0,69,0,0,0,0,0,0,,0,NONE,0,0,0,0,0,0,0,0,0,0,0,0,0,0,0,0,0,0,0,0,0,89.89,1,-0.199,0.724,-0.0277,0.851,0,-0.0277,0,0,0,0,0,0,1,1,0,0,VALID,0,0,0,0,0,1,0,0,0,0,0,0,0,0,0,0,0,0,0,0,1280.46,1790.78,6,0,0.06,0.06,305,14.29,0.08,0.06,24.12,LANDED,C-1000F,0:/Integrated Flight Computer/aircraft/c_1000f_cfg.ks (inferred preloaded)
24.6,TAKEOFF,TO_GROUND_ROLL,77.82,80,2.18,4.85,-12.79,-0.09,-0.19,-0.13,90.41,0.084,1,0,0,0,0,0,0,0,0,0,0,0,0,0,0,89.96,0,1,0,-0.06,0,0,0.06,90,0,0,0,0,0,0,0,0,-0.204,0,0,3,0,0,0,69,0,0,0,0,0,0,,0,NONE,0,0,0,0,0,0,0,0,0,0,0,0,0,0,0,0,0,0,0,0,0,89.96,1,-0.204,0.449,-0.0176,0.869,0,-0.0176,0,0,0,0,0,0,1,1,0,0,VALID,0,0,0,0,0,1,0,0,0,0,0,0,0,0,0,0,0,0,0,0,1286.27,1786.19,6,0,0.06,0.06,309,13.33,0.1,0.06,24.42,LANDED,C-1000F,0:/Integrated Flight Computer/aircraft/c_1000f_cfg.ks (inferred preloaded)
24.88,TAKEOFF,TO_GROUND_ROLL,79.44,80,0.56,4.85,-12.81,-0.09,-0.18,-0.12,90.27,0.172,1,0,0,0,0,0,0,0,0,0,0,0,0,0,0,89.84,0,1,0,-0.06,0,0,0.06,90,0,0,0,0,0,0,0,0,-0.207,0,0,3,0,0,0,69,0,0,0,0,0,0,,0,NONE,0,0,0,0,0,0,0,0,0,0,0,0,0,0,0,0,0,0,0,0,0,89.84,1,-0.207,0.424,-0.0169,0.887,0,-0.0169,0,0,0,0,0,0,1,1,0,0,VALID,0,0,0,0,0,1,0,0,0,0,0,0,0,0,0,0,0,0,0,0,1291.49,1781.88,6,0,0.06,0.06,313,14.29,0.08,0.06,24.7,LANDED,C-1000F,0:/Integrated Flight Computer/aircraft/c_1000f_cfg.ks (inferred preloaded)
25.18,TAKEOFF,TO_GROUND_ROLL,81.18,80,-1.18,4.85,-12.84,-0.08,-0.19,-0.14,90.25,0.144,1,0,0,0,0,0,0,0,0,0,0,0,0,0,0,89.78,0,1,0,-0.06,0,0,0.07,90,0,0,0,0,0,0,0,0,-0.209,0,0,3,0,0,0,69,0,0,0,0,0,0,,0,NONE,0,0,0,0,0,0,0,0,0,0,0,0,0,0,0,0,0,0,0,0,0,89.78,1,-0.209,0.476,-0.0194,0.906,0,-0.0194,0,0,0,0,0,0,1,1,0,0,VALID,0,0,0,0,0,1,0,0,0,0,0,0,0,0,0,0,0,0,0,0,1296.86,1777.24,6,0,0.06,0.06,317,13.33,0.1,0.06,25,LANDED,C-1000F,0:/Integrated Flight Computer/aircraft/c_1000f_cfg.ks (inferred preloaded)
25.48,TAKEOFF,TO_GROUND_ROLL,82.93,80,-2.93,4.85,-12.86,-0.04,-0.15,-0.13,90.28,-0.004,1,0,0,0,0,0,0,0,0,0,0,0,0,0,0,89.77,0,1,0,-0.03,0,0,0.07,90,0,0,0,0,0,0,0,0,-0.211,0,0,3,0,0,0,69,0,0,0,0,0,0,,0,NONE,0,0,0,0,0,0,0,0,0,0,0,0,0,0,0,0,0,0,0,0,0,89.77,1,-0.211,0.513,-0.0213,0.924,0,-0.0213,0,0,0,0,0,0,1,1,0,0,VALID,0,0,0,0,0,1,0,0,0,0,0,0,0,0,0,0,0,0,0,0,1302.01,1772.56,6,0,0.06,0.06,321,13.33,0.1,0.06,25.3,LANDED,C-1000F,0:/Integrated Flight Computer/aircraft/c_1000f_cfg.ks (inferred preloaded)
25.76,TAKEOFF,TO_GROUND_ROLL,84.57,80,-4.57,4.86,-12.86,-0.02,-0.16,-0.15,90.3,-0.074,1,0,0,0,0,0,0,0,0,0,0,0,0,0,0,89.78,0,1,0,-0.01,0,0,0.07,90,0,0,0,0,0,0,0,0,-0.213,0,0,3,0,0,0,69,0,0,0,0,0,0,,0,NONE,0,0,0,0,0,0,0,0,0,0,0,0,0,0,0,0,0,0,0,0,0,89.78,1,-0.213,0.526,-0.0223,0.942,0,-0.0223,0,0,0,0,0,0,1,1,0,0,VALID,0,0,0,0,0,1,0,0,0,0,0,0,0,0,0,0,0,0,0,0,1306.62,1768.18,6,0,0.06,0.06,325,14.29,0.08,0.06,25.58,LANDED,C-1000F,0:/Integrated Flight Computer/aircraft/c_1000f_cfg.ks (inferred preloaded)
26.04,TAKEOFF,TO_ROTATE,86.32,80,-6.32,4.85,-12.9,-0.11,-0.2,-0.13,90.33,-0.045,1,0,0,0,0,0,0,0,0,0,0,0,0,0,0,89.75,0.387,1,0,-0.08,0,0,0.07,90,0,0,0,0,0,0,0,0,-0.216,0,0,3,0,0,0,69,0,0,0,0,0,0,,0,NONE,0,0,0,0,0,0,0,0.1272,0,0,0,0,0,0,0,0,0,0,0,0,0,89.75,1,-0.216,0.586,-0.0253,0.959,0,-0.0253,0,0.1272,0.387,0.589,0.08,0,1,1,0,0,VALID,0,0,0,0,0,1,0,0,0,0,0,0,0,0,0,0,0,0,0,0,1311.05,1763.78,6,0,0.06,0.06,329,13.33,0.08,0.06,25.86,LANDED,C-1000F,0:/Integrated Flight Computer/aircraft/c_1000f_cfg.ks (inferred preloaded)
26.36,TAKEOFF,TO_ROTATE,88.2,80,-8.2,4.87,-12.91,-0.09,-0.14,-0.09,90.43,0.014,1,0,0,0,0,0,0,0,0,0,0,0,0,0,0,89.71,1.347,1,0,-0.05,0,0,0.08,90,0,0,0,0,0,0,0,0,-0.219,0,0,3,0,0,0,69,0,0,0,0,0,0,,0,NONE,0,0,0,0,0,0,0,0.1987,0,0,0,0,0,0,0,0,0,0,0,0,0,89.71,1,-0.219,0.719,-0.0317,0.979,0,-0.0317,0,0.1987,1.347,1.483,0.08,0,1,1,0,0,VALID,0,0,0,0,0,1,0,0,0,0,0,0,0,0,0,0,0,0,0,0,1315.9,1758.74,6,0,0.08,0.08,333,12.5,0.1,0.06,26.18,LANDED,C-1000F,0:/Integrated Flight Computer/aircraft/c_1000f_cfg.ks (inferred preloaded)
26.64,TAKEOFF,TO_ROTATE,89.85,80,-9.85,4.86,-12.94,-0.06,-0.16,-0.12,90.55,0.035,1,0,0,0,0,0,0,0,0,0,0,0,0,0,0,89.67,2.187,1,0,-0.05,0,0,0.08,90,0,0,0,0,0,0,0,0,-0.223,0,0,3,0,0,0,69,0,0,0,0,0,0,,0,NONE,0,0,0,0,0,0,0,0.2678,0,0,0,0,0,0,0,0,0,0,0,0,0,89.67,1,-0.223,0.878,-0.0394,0.997,0,-0.0394,0,0.2678,2.187,2.348,0.08,0,1,1,0,0,VALID,0,0,0,0,0,1,0,0,0,0,0,0,0,0,0,0,0,0,0,0,1319.95,1754.31,6,0,0.08,0.08,337,14.29,0.08,0.06,26.46,LANDED,C-1000F,0:/Integrated Flight Computer/aircraft/c_1000f_cfg.ks (inferred preloaded)
26.92,TAKEOFF,TO_ROTATE,91.5,80,-11.5,4.87,-12.96,-0.08,-0.1,-0.06,90.73,0,1,0,0,0,0,0,0,0,0,0,0,0,0,0,0,89.65,3.027,1,0,-0.05,0,0,0.08,90,0,0,0,0,0,0,0,0,-0.227,0,0,3,0,0,0,69,0,0,0,0,0,0,,0,NONE,0,0,0,0,0,0,0,0.3303,0,0,0,0,0,0,0,0,0,0,0,0,0,89.65,1,-0.227,1.076,-0.0484,1,0,-0.0484,0,0.3303,3.027,3.129,0.08,0,1,1,0,0,VALID,0,0,0,0,0,1,0,0,0,0,0,0,0,0,0,0,0,0,0,0,1323.84,1749.87,6,0,0.08,0.08,341,14.29,0.08,0.06,26.74,LANDED,C-1000F,0:/Integrated Flight Computer/aircraft/c_1000f_cfg.ks (inferred preloaded)
27.22,TAKEOFF,TO_ROTATE,93.27,80,-13.27,4.87,-12.99,-0.06,-0.12,-0.08,90.76,-0.11,1,0,0,0,0,0,0,0,0,0,0,0,0,0,0,89.78,3.927,1,0,-0.04,0,0,0.08,90,0,0,0,0,0,0,0,0,-0.235,0,0,3,0,0,0,69,0,0,0,0,0,0,,0,NONE,0,0,0,0,0,0,0,0.4039,0,0,0,0,0,0,0,0,0,0,0,0,0,89.78,1,-0.235,0.986,-0.0444,1,0,-0.0444,0,0.4039,3.927,4.048,0.08,0,1,1,0,0,VALID,0,0,0,0,0,1,0,0,0,0,0,0,0,0,0,0,0,0,0,0,1327.84,1745.12,6,0,0.08,0.08,345,13.33,0.08,0.06,27.04,LANDED,C-1000F,0:/Integrated Flight Computer/aircraft/c_1000f_cfg.ks (inferred preloaded)
27.5,TAKEOFF,TO_ROTATE,94.93,80,-14.93,4.88,-13.01,-0.08,-0.08,-0.04,90.7,-0.058,1,0,0,0,0,0,0,0,0,0,0,0,0,0,0,89.82,4.767,1,0,-0.04,0,0,0.09,90,0,0,0,0,0,0,0,0,-0.243,0,0,3,0,0,0,69,0,0,0,0,0,0,,0,NONE,0,0,0,0,0,0,0,0.45,0,0,0,0,0,0,0,0,0,0,0,0,0,89.82,1,-0.243,0.886,-0.0399,1,0,-0.0399,0,0.45,4.767,4.85,0.08,0,1,1,0,0,VALID,0,0,0,0,0,1,0,0,0,0,0,0,0,0,0,0,0,0,0,0,1331.4,1740.68,6,0,0.08,0.08,349,14.29,0.08,0.06,27.32,LANDED,C-1000F,0:/Integrated Flight Computer/aircraft/c_1000f_cfg.ks (inferred preloaded)
27.78,TAKEOFF,TO_ROTATE,96.58,80,-16.58,4.88,-13.02,-0.05,-0.09,-0.06,90.59,0.073,1,0,0,0,0,0,0,0,0,0,0,0,0,0,0,89.85,5.607,1,0,-0.03,0,0,0.09,90,0,0,0,0,0,0,0,0,-0.25,0,0,3,0,0,0,69,0,0,0,0,0,0,,0,NONE,0,0,0,0,0,0,0,0.45,0,0,0,0,0,0,0,0,0,0,0,0,0,89.85,1,-0.25,0.739,-0.0332,1,0,-0.0332,0,0.45,5.607,5.693,0.08,0,1,1,0,0,VALID,0,0,0,0,0,1,0,0,0,0,0,0,0,0,0,0,0,0,0,0,1334.82,1736.24,6,0,0.08,0.08,353,14.29,0.08,0.06,27.6,LANDED,C-1000F,0:/Integrated Flight Computer/aircraft/c_1000f_cfg.ks (inferred preloaded)
28.08,TAKEOFF,TO_ROTATE,98.36,80,-18.36,4.88,-13.05,-0.06,-0.05,-0.02,90.46,0.219,1,0,0,0,0,0,0,0,0,0,0,0,0,0,0,89.78,6.507,1,0,-0.04,0,0,0.09,90,0,0,0,0,0,0,0,0,-0.257,0,0,3,0,0,0,69,0,0,0,0,0,0,,0,NONE,0,0,0,0,0,0,0,0.45,0,0,0,0,0,0,0,0,0,0,0,0,0,89.78,1,-0.257,0.675,-0.0304,1,0,-0.0304,0,0.45,6.507,6.561,0.08,0,1,1,0,0,VALID,0,0,0,0,0,1,0,0,0,0,0,0,0,0,0,0,0,0,0,0,1338.32,1731.49,6,0,0.08,0.08,357,13.33,0.08,0.06,27.9,LANDED,C-1000F,0:/Integrated Flight Computer/aircraft/c_1000f_cfg.ks (inferred preloaded)
28.36,TAKEOFF,TO_ROTATE,100.01,80,-20.01,4.88,-13.07,-0.05,-0.07,-0.05,90.46,0.275,1,0,0,0,0,0,0,0,0,0,0,0,0,0,0,89.74,7.347,1,0,-0.03,0,0,0.09,90,0,0,0,0,0,0,0,0,-0.261,0,0,3,0,0,0,69,0,0,0,0,0,0,,0,NONE,0,0,0,0,0,0,0,0.45,0,0,0,0,0,0,0,0,0,0,0,0,0,89.74,1,-0.261,0.72,-0.0324,1,0,-0.0324,0,0.45,7.347,7.422,0.08,0,1,1,0,0,VALID,0,0,0,0,0,1,0,0,0,0,0,0,0,0,0,0,0,0,0,0,1341.44,1727.07,6,0,0.08,0.08,361,14.29,0.08,0.06,28.18,LANDED,C-1000F,0:/Integrated Flight Computer/aircraft/c_1000f_cfg.ks (inferred preloaded)
28.64,TAKEOFF,TO_ROTATE,101.67,80,-21.67,4.9,-13.04,0.01,-0.05,-0.07,90.45,0.135,1,0,0,0,0,0,0,0,0,0,0,0,0,0,0,89.74,8.187,1,0,0.02,0,0,0.1,90,0,0,0,0,0,0,0,0,-0.266,0,0,3,0,0,0,69,0,0,0,0,0,0,,0,NONE,0,0,0,0,0,0,0,0.45,0,0,0,0,0,0,0,0,0,0,0,0,0,89.74,1,-0.266,0.713,-0.0321,1,0,-0.0321,0,0.45,8.187,8.233,0.08,0,1,1,0,0,VALID,0,0,0,0,0,1,0,0,0,0,0,0,0,0,0,0,0,0,0,0,1344.42,1722.64,6,0,0.08,0.08,365,14.29,0.08,0.06,28.46,LANDED,C-1000F,0:/Integrated Flight Computer/aircraft/c_1000f_cfg.ks (inferred preloaded)
28.94,TAKEOFF,TO_ROTATE,103.45,80,-23.45,4.88,-13.08,-0.08,-0.03,0.03,90.43,-0.024,1,0,0,0,0,0,0,0,0,0,0,0,0,0,0,89.75,9.087,1,0,-0.06,0,0,0.1,90,0,0,0,0,0,0,0,0,-0.271,0,0,3,0,0,0,69,0,0,0,0,0,0,,0,NONE,0,0,0,0,0,0,0,0.45,0,0,0,0,0,0,0,0,0,0,0,0,0,89.75,1,-0.271,0.671,-0.0302,1,0,-0.0302,0,0.45,9.087,9.115,0.08,0,1,1,0,0,VALID,0,0,0,0,0,1,0,0,0,0,0,0,0,0,0,0,0,0,0,0,1347.47,1717.92,6,0,0.08,0.08,369,13.33,0.08,0.06,28.76,LANDED,C-1000F,0:/Integrated Flight Computer/aircraft/c_1000f_cfg.ks (inferred preloaded)
29.22,TAKEOFF,TO_ROTATE,105.11,80,-25.11,4.89,-13.07,-0.02,-0.07,-0.06,90.37,-0.048,1,0,0,0,0,0,0,0,0,0,0,0,0,0,0,89.77,9.927,1,0,0,0,0,0.1,90,0,0,0,0,0,0,0,0,-0.276,0,0,3,0,0,0,69,0,0,0,0,0,0,,0,NONE,0,0,0,0,0,0,0,0.45,0,0,0,0,0,0,0,0,0,0,0,0,0,89.77,1,-0.276,0.595,-0.0268,1,0,-0.0268,0,0.45,9.927,9.992,0.08,0,1,1,0,0,VALID,0,0,0,0,0,1,0,0,0,0,0,0,0,0,0,0,0,0,0,0,1350.18,1713.51,6,0,0.08,0.08,373,14.29,0.08,0.06,29.04,LANDED,C-1000F,0:/Integrated Flight Computer/aircraft/c_1000f_cfg.ks (inferred preloaded)
29.5,TAKEOFF,TO_ROTATE,106.77,80,-26.77,4.89,-13.09,-0.04,-0.02,0,90.29,0.024,1,0,0,0,0,0,0,0,0,0,0,0,0,0,0,89.77,10,1,0,-0.03,0,0,0.11,90,0,0,0,0,0,0,0,0,-0.28,0,0,3,0,0,0,69,0,0,0,0,0,0,,0,NONE,0,0,0,0,0,0,0,0.45,0,0,0,0,0,0,0,0,0,0,0,0,0,89.77,1,-0.28,0.52,-0.0234,1,0,-0.0234,0,0.45,10,10.024,0.08,0,1,1,0,0,VALID,0,0,0,0,0,1,0,0,0,0,0,0,0,0,0,0,0,0,0,0,1352.78,1709.13,6,0,0.08,0.08,377,14.29,0.08,0.06,29.32,LANDED,C-1000F,0:/Integrated Flight Computer/aircraft/c_1000f_cfg.ks (inferred preloaded)
29.8,TAKEOFF,TO_ROTATE,108.55,80,-28.55,4.89,-13.1,-0.04,-0.03,-0.02,90.28,0.148,1,0,0,0,0,0,0,0,0,0,0,0,0,0,0,89.7,10,1,0,-0.02,0,0,0.11,90,0,0,0,0,0,0,0,0,-0.284,0,0,3,0,0,0,69,0,0,0,0,0,0,,0,NONE,0,0,0,0,0,0,0,0.45,0,0,0,0,0,0,0,0,0,0,0,0,0,89.7,1,-0.284,0.584,-0.0263,1,0,-0.0263,0,0.45,10,10.035,0.08,0,1,1,0,0,VALID,0,0,0,0,0,1,0,0,0,0,0,0,0,0,0,0,0,0,0,0,1355.42,1704.45,6,0,0.08,0.08,381,13.33,0.08,0.06,29.62,LANDED,C-1000F,0:/Integrated Flight Computer/aircraft/c_1000f_cfg.ks (inferred preloaded)
30.08,TAKEOFF,TO_ROTATE,110.22,80,-30.22,4.89,-13.12,-0.01,-0.02,-0.02,90.31,0.18,1,0,0,0,0,0,0,0,0,0,0,0,0,0,0,89.7,10,1,0,-0.01,0,0,0.11,90,0,0,0,0,0,0,0,0,-0.287,0,0,3,0,0,0,69,0,0,0,0,0,0,,0,NONE,0,0,0,0,0,0,0,0.45,0,0,0,0,0,0,0,0,0,0,0,0,0,89.7,1,-0.287,0.613,-0.0276,1,0,-0.0276,0,0.45,10,10.023,0.08,0,1,1,0,0,VALID,0,0,0,0,0,1,0,0,0,0,0,0,0,0,0,0,0,0,0,0,1357.77,1700.11,6,0,0.08,0.08,385,14.29,0.08,0.06,29.9,LANDED,C-1000F,0:/Integrated Flight Computer/aircraft/c_1000f_cfg.ks (inferred preloaded)
30.36,TAKEOFF,TO_ROTATE,111.88,80,-31.88,4.9,-13.11,-0.03,-0.02,0,90.32,0.109,1,0,0,0,0,0,0,0,0,0,0,0,0,0,0,89.71,10,1,0,-0.01,0,0,0.12,90,0,0,0,0,0,0,0,0,-0.29,0,0,3,0,0,0,69,0,0,0,0,0,0,,0,NONE,0,0,0,0,0,0,0,0.45,0,0,0,0,0,0,0,0,0,0,0,0,0,89.71,1,-0.29,0.607,-0.0273,1,0,-0.0273,0,0.45,10,10.017,0.08,0,1,1,0,0,VALID,0,0,0,0,0,1,0,0,0,0,0,0,0,0,0,0,0,0,0,0,1360.01,1695.78,6,0,0.08,0.08,389,14.29,0.08,0.06,30.18,LANDED,C-1000F,0:/Integrated Flight Computer/aircraft/c_1000f_cfg.ks (inferred preloaded)
30.66,TAKEOFF,TO_ROTATE,113.66,80,-33.66,4.92,-13.12,0,0.02,0.02,90.3,0.046,1,0,0,0,0,0,0,0,0,0,0,0,0,0,0,89.73,10,1,0,0,0,0,0.12,90,0,0,0,0,0,0,0,0,-0.293,0,0,3,0,0,0,69,0,0,0,0,0,0,,0,NONE,0,0,0,0,0,0,0,0.45,0,0,0,0,0,0,0,0,0,0,0,0,0,89.73,1,-0.293,0.566,-0.0255,1,0,-0.0255,0,0.45,10,9.977,0.08,0,1,1,0,0,VALID,0,0,0,0,0,1,0,0,0,0,0,0,0,0,0,0,0,0,0,0,1362.3,1691.17,6,0,0.08,0.08,393,13.33,0.08,0.06,30.48,LANDED,C-1000F,0:/Integrated Flight Computer/aircraft/c_1000f_cfg.ks (inferred preloaded)
30.94,TAKEOFF,TO_ROTATE,115.32,80,-35.32,4.95,-13.14,0.05,0.16,0.15,90.25,0.027,1,0,0,0,0,0,0,0,0,0,0,0,0,0,0,89.74,10,1,0,0.01,0,0,0.12,90,0,0,0,0,0,0,0,0,-0.296,0,0,3,0,0,0,69,0,0,0,0,0,0,,0,NONE,0,0,0,0,0,0,0,0.45,0,0,0,0,0,0,0,0,0,0,0,0,0,89.74,1,-0.296,0.505,-0.0227,1,0,-0.0227,0,0.45,10,9.835,0.08,0,1,1,0,0,VALID,0,0,0,0,0,1,0,0,0,0,0,0,0,0,0,0,0,0,0,0,1364.33,1686.9,6,0,0.08,0.08,397,14.29,0.08,0.06,30.76,LANDED,C-1000F,0:/Integrated Flight Computer/aircraft/c_1000f_cfg.ks (inferred preloaded)
31.2,TAKEOFF,TO_ROTATE,116.86,80,-36.86,5.02,-13.11,0.15,0.29,0.21,90.19,0.028,1,0,0,0,0,0,0,0,0,0,0,0,0,0,0,89.75,10,1,0,0.08,0,0,0.13,90,0,0,0,0,0,0,0,0,-0.299,0,0,3,0,0,0,69,0,0,0,0,0,0,,0,NONE,0,0,0,0,0,0,0,0.45,0,0,0,0,0,0,0,0,0,0,0,0,0,89.75,1,-0.299,0.438,-0.0197,1,0,-0.0197,0,0.45,10,9.714,0.08,0,1,1,0,0,VALID,0,0,0,0,0,1,0,0,0,0,0,0,0,0,0,0,0,0,0,0,1366.14,1682.97,6,0,0.08,0.08,400,11.54,0.1,0.08,31.02,LANDED,C-1000F,0:/Integrated Flight Computer/aircraft/c_1000f_cfg.ks (inferred preloaded)
31.5,TAKEOFF,TO_ROTATE,118.62,80,-38.62,5.18,-13.12,0.25,0.77,0.67,90.15,0.07,1,0,0,0,0,0,0,0,0,0,0,0,0,0,0,89.69,10,1,0,0.11,0,0,0.13,90,0,0,0,0,0,0,0,0,-0.302,0,0,3,0,0,0,69,0,0,0,0,0,0,,0,NONE,0,0,0,0,0,0,0,0.45,0,0,0,0,0,0,0,0,0,0,0,0,0,89.69,1,-0.302,0.455,-0.0205,1,0,-0.0205,0,0.45,10,9.225,0.08,0,1,1,0,0,VALID,0,0,0,0,0,1,0,0,0,0,0,0,0,0,0,0,0,0,0,0,1368.13,1678.47,6,0,0.08,0.08,404,13.33,0.08,0.06,31.32,LANDED,C-1000F,0:/Integrated Flight Computer/aircraft/c_1000f_cfg.ks (inferred preloaded)
31.8,TAKEOFF,TO_ROTATE,120.36,80,-40.36,5.48,-13.11,0.41,1.59,1.41,90.2,0.134,1,0,0,0,0,0,0,0,0,0,0,0,0,0,0,89.67,10,1,0,0.19,0,0,0.13,90,0,0,0,0,0,0,0,0,-0.304,0,0,3,0,0,0,69,0,0,0,0,0,0,,0,NONE,0,0,0,0,0,0,0,0.45,0,0,0,0,0,0,0,0,0,0,0,0,0,89.67,1,-0.304,0.527,-0.0237,1,0,-0.0237,0,0.45,10,8.408,0.08,0,1,1,0,0,VALID,0,0,0,0,0,1,0,0,0,0,0,0,0,0,0,0,0,0,0,0,1370.06,1674.06,6,0,0.08,0.08,408,13.33,0.08,0.06,31.62,LANDED,C-1000F,0:/Integrated Flight Computer/aircraft/c_1000f_cfg.ks (inferred preloaded)
32.1,TAKEOFF,TO_ROTATE,122.05,80,-42.05,5.98,-13.08,0.69,3.02,2.71,90.18,0.053,1,0,0,0,0,0,0,0,0,0,0,0,0,0,0,89.73,10,1,0,0.31,0,0,0.14,90,0,0,0,0,0,0,0,0,-0.306,0,0,3,0,0,0,69,0,0,0,0,0,0,,0,NONE,0,0,0,0,0,0,0,0.45,0,0,0,0,0,0,0,0,0,0,0,0,0,89.73,1,-0.306,0.45,-0.0203,1,0,-0.0203,0,0.45,10,6.985,0.08,0,1,1,0,0,VALID,0,0,0,0,0,1,0,0,0,0,0,0,0,0,0,0,0,0,0,0,1371.98,1669.8,6,0,0.08,0.08,412,13.33,0.08,0.06,31.92,LANDED,C-1000F,0:/Integrated Flight Computer/aircraft/c_1000f_cfg.ks (inferred preloaded)
32.38,TAKEOFF,TO_ROTATE,123.52,80,-43.52,6.71,-12.98,1.45,5.06,4.31,90.11,-0.036,1,0,0,0,0,0,0,0,0,0,0,0,0,0,0,90,10,1,0,0.67,0,0,0.14,90,-0.9943,-0.0002,0.1062,10,90,0,0,0,0,0,0,3,0,0,0,69,0,0,0,0,0,0,,0,NONE,0,0,0,0,0,0,0,0,0,0,0,0,0,0,0,0,0,0,0,0,0,90,1,0,0.11,0,0,3,0,0,0,10,4.937,0,0,1,1,0,0,VALID,0,0,0,0,0,1,0,0,0,0,0,0,0,0,0,0,0,0,0,0,1373.87,1666.08,6,0,0.08,0.08,416,14.29,0.08,0.06,32.22,FLYING,C-1000F,0:/Integrated Flight Computer/aircraft/c_1000f_cfg.ks (inferred preloaded)
32.64,TAKEOFF,TO_ROTATE,124.74,80,-44.74,7.62,-12.52,3.12,6.48,5.1,90.13,-0.081,1,0,0,0,0,0,0,0,0,0,0,0,0,0,0,90,10,0,1,1.43,0,0,10,90,-0.9943,-0.0002,0.1062,10,90,0,0,0,0,0,0,3,0,0,0,69,0,0,0,0,0,0,,0,NONE,0,0,0,0,0,0,0,0,0,0,0,0,0,0,0,0,0,0,0,0,0,90,1,0,0.128,0,0,3,0,0,0,10,3.517,0,0,1,1,0,0,VALID,0,0,0,0,0,1,0,0,0,0,0,0,0,0,0,0,0,0,0,0,1375.77,1662.93,6,0,0.08,0.08,420,15.38,0.08,0.04,32.48,FLYING,C-1000F,0:/Integrated Flight Computer/aircraft/c_1000f_cfg.ks (inferred preloaded)
32.92,TAKEOFF,TO_CLIMB,125.94,80,-45.94,8.95,-11.46,4.98,7.31,5.13,90.16,-0.191,1,0,0,0,0,0,0,0,0,0,0,0,0,0,0,90,10,0,1,2.26,0,0,10,90,-0.9944,-0.0002,0.1061,10,90,0,0,0,0,0,0,3,0,0,0,69,0,0,0,0,0,0,,0,NONE,0,0,0,0,0,0,0,0,0,0,0,0,0,0,0,0,0,0,0,0,0,90,1,0,0.162,0,0,3,0,0,0,10,2.693,0,0,1,1,0,0,VALID,0,0,0,0,0,1,0,0,0,0,0,0,0,0,0,0,0,0,0,0,1377.89,1659.72,6,0,0.06,0.06,424,14.29,0.1,0.04,32.76,FLYING,C-1000F,0:/Integrated Flight Computer/aircraft/c_1000f_cfg.ks (inferred preloaded)
33.22,TAKEOFF,TO_CLIMB,127.1,80,-47.1,10.84,-9.91,6.95,7.68,4.65,90.14,-0.312,0.888,0,0,0,0,0,0,0,0,0,0,0,0,0,0,90,7.755,0,1,3.13,0,0,7.66,90,-0.9978,-0.0001,0.067,7.75,90,0,0,0,0,0,0,3,0,0,0,69,0,0,0,0,0,0,,0,NONE,0,0,0,0,0,0,0,0,0,0,0,0,0,0,0,0,0,0,0,0,0,90,1,0,0.144,0,0,3,0,0,0,10,2.693,0,0,1,1,0,0,VALID,0,0,0,0,0,1,0,0,0,0,0,0,0,0,0,0,0,0,0,0,1379.11,1656.5,6,0,0.06,0.06,428,14.29,0.08,0.06,33.04,FLYING,C-1000F,0:/Integrated Flight Computer/aircraft/c_1000f_cfg.ks (inferred preloaded)
33.5,TAKEOFF,TO_CLIMB,128.26,80,-48.26,12.98,-7.7,8.42,7.4,3.76,90.13,-0.405,0.78,0,0,0,0,0,0,0,0,0,0,0,0,0,0,90,8,0,1,3.76,0,0,8,90,-0.9975,-0.0001,0.0712,8,90,0,0,0,0,0,0,3,0,0,0,69,0,0,0,0,0,0,,0,NONE,0,0,0,0,0,0,0,0,0,0,0,0,0,0,0,0,0,0,0,0,0,90,1,0,0.129,0,0,3,0,0,0,10,2.693,0,0,1,1,0,0,VALID,0,0,0,0,0,1,0,0,0,0,0,0,0,0,0,0,0,0,0,0,1377.02,1653.18,6,0,0.04,0.04,432,14.29,0.1,0.04,33.32,FLYING,C-1000F,0:/Integrated Flight Computer/aircraft/c_1000f_cfg.ks (inferred preloaded)
33.78,TAKEOFF,TO_CLIMB,129.45,80,-49.45,15.62,-5.18,9.78,7.75,3.56,90.11,-0.465,0.78,0,0,0,0,0,0,0,0,0,0,0,0,0,0,90,8,0,1,4.32,0,0,8,90,-0.9975,-0.0001,0.0711,8,90,0,0,0,0,0,0,3,0,0,0,69,0,0,0,0,0,0,,0,NONE,0,0,0,0,0,0,0,0,0,0,0,0,0,0,0,0,0,0,0,0,0,90,1,0,0.115,0,0,3,0,0,0,10,2.693,0,0,1,1,0,0,VALID,0,0,0,0,0,1,0,0,0,0,0,0,0,0,0,0,0,0,0,0,1368.42,1649.73,6,0,0.06,0.06,436,14.29,0.1,0.04,33.6,FLYING,C-1000F,0:/Integrated Flight Computer/aircraft/c_1000f_cfg.ks (inferred preloaded)
34.04,TAKEOFF,TO_CLIMB,130.53,80,-50.53,18.35,-2.47,10.97,7.81,3.15,90.1,-0.509,0.78,0,0,0,0,0,0,0,0,0,0,0,0,0,0,90,8,0,1,4.8,0,0,8,90,-0.9975,-0.0001,0.0711,8,90,0,0,0,0,0,0,3,0,0,0,69,0,0,0,0,0,0,,0,NONE,0,0,0,0,0,0,0,0,0,0,0,0,0,0,0,0,0,0,0,0,0,90,1,0,0.104,0,0,3,0,0,0,10,2.693,0,0,1,1,0,0,VALID,0,0,0,0,0,1,0,0,0,0,0,0,0,0,0,0,0,0,0,0,1360.62,1646.51,6,0,0.04,0.04,440,15.38,0.1,0.04,33.86,FLYING,C-1000F,0:/Integrated Flight Computer/aircraft/c_1000f_cfg.ks (inferred preloaded)
34.3,TAKEOFF,TO_CLIMB,131.61,80,-51.61,21.37,0.53,12.03,7.88,2.8,90.09,-0.53,0.78,0,0,0,0,0,0,0,0,0,0,0,0,0,0,90,8,0,1,5.22,0,0,8,90,-0.9975,-0.0001,0.071,8,90,0,0,0,0,0,0,3,0,0,0,69,0,0,0,0,0,0,,0,NONE,0,0,0,0,0,0,0,0,0,0,0,0.53,0,0,0,0,0,0,0,0,0,90,1,0,0.093,0,0,3,0,0,0,10,2.693,0,0,1,1,0,0,VALID,0,0,0,0,0,1,0,0,0,0,0,0,0,0,0,0,0,0,0,0,1353.13,1643.24,6,0,0.04,0.04,444,15.38,0.08,0.04,34.12,FLYING,C-1000F,0:/Integrated Flight Computer/aircraft/c_1000f_cfg.ks (inferred preloaded)
34.58,TAKEOFF,TO_CLIMB,132.77,80,-52.77,24.88,4.07,13.03,7.85,2.41,90.08,-0.53,0.78,0,0,0,0,0,0,0,0,0,0,0,0,0,0,90,8,0,1,5.6,0,0,8,90,-0.9975,-0.0001,0.071,8,90,0,0,0,0,0,0,3,0,0,0,69,0,0,0,0,0,0,,0,NONE,0,0,0,0,0,0,0,0,0,0,0,4.07,0,0,0,0,0,0,0,0,0,90,1,0,0.084,0,0,3,0,0,0,10,2.693,0,0,1,1,0,0,VALID,0,0,0,0,0,1,0,0,0,0,0,0,0,0,0,0,0,0,0,0,1345.4,1639.7,6,0,0.06,0.06,448,14.29,0.1,0.04,34.4,FLYING,C-1000F,0:/Integrated Flight Computer/aircraft/c_1000f_cfg.ks (inferred preloaded)
34.84,TAKEOFF,TO_CLIMB,133.84,80,-53.84,28.36,7.59,13.81,7.86,2.13,90.08,-0.515,0.78,0,0,0,0,0,0,0,0,0,0,0,0,0,0,90,8,0,1,5.89,0,0,8,90,-0.9975,-0.0001,0.0709,8,90,0,0,0,0,0,0,3,0,0,0,69,0,0,0,0,0,0,,0,NONE,0,0,0,0,0,0,0,0,0,0,0,7.59,0,0,0,0,0,0,0,0,0,90,1,0,0.077,0,0,3,0,0,0,10,2.693,0,0,1,1,0,0,VALID,0,0,0,0,0,1,0,0,0,0,0,0,0,0,0,0,0,0,0,0,1338.51,1636.38,6,0,0.06,0.06,452,15.38,0.08,0.04,34.66,FLYING,C-1000F,0:/Integrated Flight Computer/aircraft/c_1000f_cfg.ks (inferred preloaded)
35.1,TAKEOFF,TO_CLIMB,134.91,80,-54.91,32.04,11.31,14.52,7.89,1.91,90.07,-0.492,0.78,0,0,0,0,0,0,0,0,0,0,0,0,0,0,90,8,0,1,6.14,0,0,8,90,-0.9975,-0.0001,0.0708,8,90,0,0,0,0,0,0,3,0,0,0,69,0,0,0,0,0,0,,0,NONE,0,0,0,0,0,0,0,0,0,0,0,11.31,0,0,0,0,0,0,0,0,0,90,1,0,0.07,0,0,3,0,0,0,10,2.693,0,0,1,1,0,0,VALID,0,0,0,0,0,1,0,0,0,0,0,0,0,0,0,0,0,0,0,0,1331.89,1633.05,6,0,0.06,0.06,456,15.38,0.08,0.04,34.92,FLYING,C-1000F,0:/Integrated Flight Computer/aircraft/c_1000f_cfg.ks (inferred preloaded)
35.36,TAKEOFF,TO_CLIMB,135.97,80,-55.97,35.89,15.22,15.16,7.87,1.68,90.06,-0.46,0.78,0,0,0,0,0,0,0,0,0,0,0,0,0,0,90,8,0,1,6.36,0,0,8,90,-0.9975,-0.0001,0.0708,8,90,0,0,0,0,0,0,3,0,0,0,69,0,0,0,0,0,0,,0,NONE,0,0,0,0,0,0,0,0,0,0,0,15.22,0,0,0,0,0,0,0,0,0,90,1,0,0.062,0,0,3,0,0,0,10,2.693,0,0,1,1,0,0,VALID,0,0,0,0,0,1,0,0,0,0,0,0,0,0,0,0,0,0,0,0,1325.53,1629.72,6,0,0.06,0.06,460,15.38,0.08,0.04,35.18,FLYING,C-1000F,0:/Integrated Flight Computer/aircraft/c_1000f_cfg.ks (inferred preloaded)
35.62,TAKEOFF,TO_CLIMB,137.02,80,-57.02,39.89,19.31,15.73,7.87,1.49,90.06,-0.422,0.78,0,0,0,0,0,0,0,0,0,0,0,0,0,0,90,8,0,1,6.55,0,0,8,90,-0.9975,-0.0001,0.0707,8,90,0,0,0,0,0,0,3,0,0,0,69,0,0,0,0,0,0,,0,NONE,0,0,0,0,0,0,0,0,0,0,0,19.31,0,0,0,0,0,0,0,0,0,90,1,0,0.055,0,0,3,0,0,0,10,2.693,0,0,1,1,0,0,VALID,0,0,0,0,0,1,0,0,0,0,0,0,0,0,0,0,0,0,0,0,1319.41,1626.39,6,0,0.06,0.06,464,15.38,0.08,0.04,35.44,FLYING,C-1000F,0:/Integrated Flight Computer/aircraft/c_1000f_cfg.ks (inferred preloaded)
35.88,TAKEOFF,TO_CLIMB,138.07,80,-58.07,44.02,23.55,16.24,7.88,1.35,90.05,-0.384,0.78,0,0,0,0,0,0,0,0,0,0,0,0,0,0,90,8,0,1,6.71,0,0,8,90,-0.9975,-0.0001,0.0707,8,90,0,0,0,0,0,0,3,0,0,0,69,0,0,0,0,0,0,,0,NONE,0,0,0,0,0,0,0,0,0,0,0,23.55,0,0,0,0,0,0,0,0,0,90,1,0,0.049,0,0,3,0,0,0,10,2.693,0,0,1,1,0,0,VALID,0,0,0,0,0,1,0,0,0,0,0,0,0,0,0,0,0,0,0,0,1313.52,1623.06,6,0,0.06,0.06,468,15.38,0.08,0.04,35.7,FLYING,C-1000F,0:/Integrated Flight Computer/aircraft/c_1000f_cfg.ks (inferred preloaded)
