t_s,phase,subphase,ias_ms,vapp_ms,spd_err_ms,agl_m,gear_h_m,vs_ms,pitch_deg,aoa_deg,hdg_deg,bank_deg,thr_cmd,thr_cur,thr_intg,at_gain,at_tau_s,at_a_up,at_a_dn,at_kp_thr,at_ki_spd,at_thr_slew,as_cmd_deg,as_cap_deg,as_raw_deg,as_spd_err_ms,as_active,aa_hdg_cmd_deg,aa_fpa_cmd_deg,aa_fbw,aa_dir,actual_fpa_deg,ftf_hdg_err_deg,ftf_fix_idx,kos_steer_pit_deg,kos_steer_hdg_deg,aa_dir_vx,aa_dir_vy,aa_dir_vz,aa_dir_pitch_deg,aa_dir_hdg_deg,ils_loc_m,ils_gs_m,ils_dist_km,loc_corr_deg,gs_corr_deg,gs_latched,active_gs_ang_deg,ils_intercept_alt_m,d_gs_ms,fpa_preclamped_deg,gs_nom_alt_m,flare_fpa_cmd,flare_tgt_vs,flare_frac,flare_mode,flare_auth_limited,flare_vs_err,flare_fpa_err,flare_pitch_err,flare_req_up_a,flare_thr_floor,flare_tecs_et_err,flare_tecs_eb_err,flare_tecs_h_ref,flare_tecs_v_ref,flare_gamma_ref,flare_gamma_eb_term,flare_gamma_unsat,steer_hdg_deg,steer_blend,ro_loc_corr_deg,ro_hdg_err_deg,ro_yaw_tgt,ro_yaw_scale,ro_yaw_gate,yaw_cmd,roll_cmd,pitch_cmd,ro_pitch_tgt_deg,ro_pitch_err_deg,ro_pitch_ff,ro_roll_assist,flaps_cur,flaps_tgt,asc_j_ab,asc_j_rk,asc_validity,asc_q_pa,asc_q_raw_pa,asc_mach,asc_apo_m,asc_drag_n,asc_w_prop,asc_edot_aero,asc_edot_orb,asc_pitch_bias,asc_blend,asc_spooling,asc_ab_thr_ratio,asc_ab_t_now,asc_ab_t_avail,asc_ab_ign_on,asc_ab_flameouts,asc_rk_t_now,asc_rk_t_avail,asc_rk_ign_on,asc_rk_flameouts,ship_thrust,ship_avail_thrust,ship_ign_on,ship_flameouts,ifc_raw_dt_s,ifc_dt_s,ifc_loop_n,ifc_hz_est,ifc_raw_dt_max_s,ifc_raw_dt_min_s,phase_el_s,status,craft_name,cfg_file
0.16,APPROACH,ILS_TRACK,155.41,152,-3.41,663.25,588.43,-21.33,6.69,14.16,270.02,0.043,0,0,0,0,0,0,0,0,0,0,0,0,0,0,0,0,0,1,0,-7.82,0,0,0,90,0,0,0,0,0,-0.01,-24.55,11.706,0,0,0,3,663.25,0,0,687.8,0,0,0,,0,0,0,0,0,0,0,0,0,0,0,0,0,270.02,0,0,0,0,0,0,0,0,0,0,0,0,0,0,0,0,0,VALID,0,0,0,0,0,1,0,0,0,0,0,0,0,0,0,0,0,0,0,0,258.32,1093.87,2,0,0.14,0.14,1,3.7,0.14,0.02,0.16,FLYING,X10-F,0:/Integrated Flight Computer/aircraft/x10_f_cfg.ks (inferred preloaded)
0.42,APPROACH,ILS_TRACK,155.66,152,-3.66,657.74,582.93,-20.99,6.74,14.07,270.01,0.035,0,0,0,1,0.6,1.488,0.75,0.35,0.0168,0.4,2.423,20.863,2.423,3.649,1,270,0,0,1,-7.71,0,0,0,270.02,0.8485,0,0.5292,0,270,-0.01,-27.33,11.671,-0.003,18.35,1,3,663.25,-12.689,0,685.92,0,0,0,,0,0,0,0,0,0,0,0,0,0,0,0,0,270.02,0,0,0,0,0,0,0,0,0,0,0,0,0,1,3,0,0,VALID,0,0,0,0,0,1,0,0,0,0,0,0,0,0,0,0,0,0,0,0,236.11,1095.37,2,0,0.12,0.12,3,7.69,0.14,0.12,0.42,FLYING,X10-F,0:/Integrated Flight Computer/aircraft/x10_f_cfg.ks (inferred preloaded)
0.68,APPROACH,ILS_TRACK,155.72,152,-3.72,652.04,577.57,-20.49,5.86,12.91,270.01,0.026,0,0,0,1,0.6,2.749,0.75,0.35,0.0168,0.4,2.503,20.842,2.503,3.721,1,270,0,0,1,-7.52,0,0,0,269.99,0.8485,0,0.5292,0,270,-0.01,-30.77,11.628,0,20.034,1,3,663.25,-13.503,0,683.71,0,0,0,,0,0,0,0,0,0,0,0,0,0,0,0,0,270.02,0,0,0,0,0,0,0,0,0,0,0,0,0,1,3,0,0,VALID,0,0,0,0,0,1,0,0,0,0,0,0,0,0,0,0,0,0,0,0,215.64,1096.02,2,0,0.12,0.12,5,7.69,0.14,0.12,0.68,FLYING,X10-F,0:/Integrated Flight Computer/aircraft/x10_f_cfg.ks (inferred preloaded)
0.94,APPROACH,ILS_TRACK,155.76,152,-3.76,645.97,572.25,-20.51,3.77,10.67,270.01,0.023,0,0,0,1,0.6,3.817,0.75,0.35,0.0168,0.4,2.526,20.836,2.526,3.743,1,269.99,0,0,1,-7.47,0,0,0,270,0.8485,-0.0001,0.5291,0,269.99,0,-34.32,11.588,-0.006,21.983,1,3,663.25,-14.608,0,681.59,0,0,0,,0,0,0,0,0,0,0,0,0,0,0,0,0,270.02,0,0,0,0,0,0,0,0,0,0,0,0,0,2,3,0,0,VALID,0,0,0,0,0,1,0,0,0,0,0,0,0,0,0,0,0,0,0,0,196.65,1096.54,2,0,0.127,0.127,7,7.59,0.127,0.12,0.94,FLYING,X10-F,0:/Integrated Flight Computer/aircraft/x10_f_cfg.ks (inferred preloaded)
1.27,APPROACH,ILS_TRACK,156.15,152,-4.15,638.36,565.49,-21.59,1,8.24,270.01,0.024,0,0,0,1,0.6,4.5,0.75,0.35,0.0168,0.4,2.913,20.736,2.913,4.099,1,270,0,0,1,-7.78,0,0,0,270,0.8486,0,0.529,0,270,0,-38.94,11.538,0.001,23.646,1,3,663.25,-14.954,0,678.95,0,0,0,,0,0,0,0,0,0,0,0,0,0,0,0,0,270.02,0,0,0,0,0,0,0,0,0,0,0,0,0,3,3,0,0,VALID,0,0,0,0,0,1,0,0,0,0,0,0,0,0,0,0,0,0,0,0,175.78,1098.71,2,0,0.163,0.163,9,6.17,0.163,0.127,1.27,FLYING,X10-F,0:/Integrated Flight Computer/aircraft/x10_f_cfg.ks (inferred preloaded)
1.65,APPROACH,ILS_TRACK,156.86,152,-4.86,629.14,556.76,-23.34,-1.2,6.74,270,0.023,0,0,0,1,0.6,4.5,0.75,0.35,0.0168,0.4,3.655,20.541,3.655,4.792,1,270,0,0,1,-8.34,0,0,0,270,0.8487,0,0.529,0,270,0,-44.82,11.475,0,25.783,1,3,663.25,-15.42,0,675.65,0,0,0,,0,0,0,0,0,0,0,0,0,0,0,0,0,270.02,0,0,0,0,0,0,0,0,0,0,0,0,0,3,3,0,0,VALID,0,0,0,0,0,1,0,0,0,0,0,0,0,0,0,0,0,0,0,0,154,1102.4,2,0,0.175,0.175,11,5.19,0.21,0.163,1.65,FLYING,X10-F,0:/Integrated Flight Computer/aircraft/x10_f_cfg.ks (inferred preloaded)
2,APPROACH,ILS_TRACK,157.5,152,-5.5,620.66,548.26,-25.03,-1.44,7.24,270,0.023,0,0,0,1,0.6,4.5,0.75,0.35,0.0168,0.4,4.338,20.357,4.338,5.442,1,270,0,0,1,-8.93,0,0,0,270,0.8487,0,0.5289,0,270,0,-50.28,11.417,-0.001,27.587,1,3,663.25,-15.63,0,672.64,0,0,0,,0,0,0,0,0,0,0,0,0,0,0,0,0,270.02,0,0,0,0,0,0,0,0,0,0,0,0,0,3,3,0,0,VALID,0,0,0,0,0,1,0,0,0,0,0,0,0,0,0,0,0,0,0,0,136.57,1105.85,2,0,0.175,0.175,13,5.71,0.175,0.175,2,FLYING,X10-F,0:/Integrated Flight Computer/aircraft/x10_f_cfg.ks (inferred preloaded)
2.35,APPROACH,ILS_TRACK,158.05,152,-6.05,612.13,539.3,-26.32,-0.07,9.23,270,0.018,0,0,0,1,0.6,4.5,0.75,0.35,0.0168,0.4,4.919,20.198,4.919,6.006,1,270,0,0,1,-9.39,0,0,0,270,0.8488,0,0.5288,0,270,0,-55.8,11.36,-0.001,29.366,1,3,663.25,-15.782,0,669.64,0,0,0,,0,0,0,0,0,0,0,0,0,0,0,0,0,270.02,0,0,0,0,0,0,0,0,0,0,0,0,0,3,3,0,0,VALID,0,0,0,0,0,1,0,0,0,0,0,0,0,0,0,0,0,0,0,0,121.08,1108.95,2,0,0.175,0.175,15,5.71,0.175,0.175,2.35,FLYING,X10-F,0:/Integrated Flight Computer/aircraft/x10_f_cfg.ks (inferred preloaded)
2.74,APPROACH,ILS_TRACK,158.37,152,-6.37,602.9,528.94,-26.75,3.27,12.9,270,0.015,0,0,0,1,0.6,4.5,0.75,0.35,0.0168,0.4,5.274,20.1,5.274,6.354,1,270,0,0,1,-9.62,0,0,0,270,0.8488,0.0001,0.5287,0,270,0,-61.76,11.297,0.004,30.77,1,3,663.25,-15.303,0,666.32,0,0,0,,0,0,0,0,0,0,0,0,0,0,0,0,0,270.02,0,0,0,0,0,0,0,0,0,0,0,0,0,3,3,0,0,VALID,0,0,0,0,0,1,0,0,0,0,0,0,0,0,0,0,0,0,0,0,105.95,1111.17,2,0,0.175,0.175,17,5.19,0.21,0.175,2.74,FLYING,X10-F,0:/Integrated Flight Computer/aircraft/x10_f_cfg.ks (inferred preloaded)
3.09,APPROACH,ILS_TRACK,158.2,152,-6.2,594.53,519.68,-25.78,6.39,15.62,270,0.005,0,0,0,1,0.6,4.5,0.75,0.35,0.0168,0.4,5.163,20.131,5.163,6.245,1,270,0,0,1,-9.34,0,0,0,270,0.8489,0,0.5286,0,270,0,-67.11,11.239,0.001,32.383,1,3,663.25,-15.314,0,663.32,0,0,0,,0,0,0,0,0,0,0,0,0,0,0,0,0,270.02,0,0,0,0,0,0,0,0,0,0,0,0,0,3,3,0,0,VALID,0,0,0,0,0,1,0,0,0,0,0,0,0,0,0,0,0,0,0,0,93.69,1111.24,2,0,0.175,0.175,19,5.71,0.175,0.175,3.09,FLYING,X10-F,0:/Integrated Flight Computer/aircraft/x10_f_cfg.ks (inferred preloaded)
3.44,APPROACH,ILS_TRACK,157.56,152,-5.56,586.24,510.87,-24.47,8.22,16.92,270,0.01,0,0,0,1,0.6,4.5,0.75,0.35,0.0168,0.4,4.541,20.302,4.541,5.638,1,270.01,0,0,1,-8.91,0,0,0,270,0.8489,0.0001,0.5285,0,270.01,-0.01,-72.44,11.182,0.006,33.846,1,3,663.25,-15.143,0,660.32,0,0,0,,0,0,0,0,0,0,0,0,0,0,0,0,0,270.02,0,0,0,0,0,0,0,0,0,0,0,0,0,3,3,0,0,VALID,0,0,0,0,0,1,0,0,0,0,0,0,0,0,0,0,0,0,0,0,82.68,1109.15,2,0,0.175,0.175,21,5.71,0.175,0.175,3.44,FLYING,X10-F,0:/Integrated Flight Computer/aircraft/x10_f_cfg.ks (inferred preloaded)
3.79,APPROACH,ILS_TRACK,156.68,152,-4.68,578.33,502.51,-23.31,9.67,18.03,269.99,0.017,0.07,0,-0.836,1,0.6,4.5,0.75,0.35,0.0168,0.4,3.638,20.545,3.638,4.776,1,270.01,0,0,1,-8.53,0,0,0,270,0.849,0.0001,0.5285,0,270.01,-0.01,-77.46,11.125,0.006,34.454,1,3,663.25,-14.021,0,657.33,0,0,0,,0,0,0,0,0,0,0,0,0,0,0,0,0,270.02,0,0,0,0,0,0,0,0,0,0,0,0,0,3,3,0,0,VALID,0,0,0,0,0,1,0,0,0,0,0,0,0,0,0,0,0,0,0,0,72.89,1106.02,2,0,0.175,0.175,23,5.71,0.175,0.175,3.79,FLYING,X10-F,0:/Integrated Flight Computer/aircraft/x10_f_cfg.ks (inferred preloaded)
4.14,APPROACH,ILS_TRACK,155.55,152,-3.55,570.83,494.55,-22.09,11.18,19.17,269.99,0.026,0.21,0,-2.224,1,0.6,4.5,0.75,0.35,0.0168,0.4,0,20.856,0,3.674,0,270.01,0,0,1,-8.16,0,0,0,270.01,0.849,0.0002,0.5284,0,270.01,-0.03,-82.07,11.068,0.01,34.95,1,3,663.25,-12.912,0,654.36,0,0,0,,0,0,0,0,0,0,0,0,0,0,0,0,0,270.02,0,0,0,0,0,0,0,0,0,0,0,0,0,3,3,0,0,VALID,0,0,0,0,0,1,0,0,0,0,0,0,0,0,0,0,0,0,0,0,74.2,1101.79,2,0,0.175,0.175,25,5.71,0.175,0.175,4.14,FLYING,X10-F,0:/Integrated Flight Computer/aircraft/x10_f_cfg.ks (inferred preloaded)
4.49,APPROACH,ILS_TRACK,154.17,152,-2.17,563.63,487.14,-20.33,12.14,19.48,269.99,0.026,0.35,0,-3.158,1,0.6,4.5,0.75,0.35,0.0168,0.4,0,21.238,0,2.317,0,270.01,0,0,1,-7.64,0,0,0,270.01,0.8491,0.0003,0.5283,0,270.01,-0.05,-86.37,11.012,0.014,35.623,1,3,663.25,-12.139,0,651.42,0,0,0,,0,0,0,0,0,0,0,0,0,0,0,0,0,270.02,0,0,0,0,0,0,0,0,0,0,0,0,0,3,3,0,0,VALID,0,0,0,0,0,1,0,0,0,0,0,0,0,0,0,0,0,0,0,0,86.09,1096.5,2,0,0.175,0.175,27,5.71,0.175,0.175,4.49,FLYING,X10-F,0:/Integrated Flight Computer/aircraft/x10_f_cfg.ks (inferred preloaded)
4.84,APPROACH,ILS_TRACK,152.75,152,-0.75,556.72,480.37,-18.7,11.86,18.56,269.99,0.03,0.49,0,-3.591,1,0.6,4.5,0.75,0.35,0.0168,0.4,0,21.643,0,0.881,0,270.02,0,0,1,-7.06,0,0,0,270.01,0.8491,0.0003,0.5282,0,270.02,-0.06,-90.42,10.957,0.016,36.197,1,3,663.25,-11.337,0,648.5,0,0,0,,0,0,0,0,0,0,0,0,0,0,0,0,0,270.02,0,0,0,0,0,0,0,0,0,0,0,0,0,3,3,0,0,VALID,0,0,0,0,0,1,0,0,0,0,0,0,0,0,0,0,0,0,0,0,107.37,1090.96,2,0,0.175,0.175,29,5.71,0.175,0.175,4.84,FLYING,X10-F,0:/Integrated Flight Computer/aircraft/x10_f_cfg.ks (inferred preloaded)
5.19,APPROACH,ILS_TRACK,151.55,152,0.45,550.16,474.03,-17.74,11.11,17.48,269.99,0.051,0.63,0,-3.614,1,0.6,4.5,0.75,0.35,0.0168,0.4,0,21.987,0,-0.34,0,270.02,0,0,1,-6.73,0,0,0,270.02,0.8492,0.0003,0.5281,0,270.02,-0.09,-94.15,10.901,0.019,36.604,1,3,663.25,-10.447,0,645.6,0,0,0,,0,0,0,0,0,0,0,0,0,0,0,0,0,270.02,0,0,0,0,0,0,0,0,0,0,0,0,0,3,3,0,0,VALID,0,0,0,0,0,1,0,0,0,0,0,0,0,0,0,0,0,0,0,0,137.4,1086.4,2,0,0.175,0.175,31,5.71,0.175,0.175,5.19,FLYING,X10-F,0:/Integrated Flight Computer/aircraft/x10_f_cfg.ks (inferred preloaded)
5.54,APPROACH,ILS_TRACK,150.58,152,1.42,543.88,467.97,-17.08,10.39,16.57,269.99,0.065,0.77,0,-3.578,1,0.6,4.5,0.75,0.35,0.0168,0.4,0,22.267,0,-1.333,0,270.02,0,0,1,-6.51,0,0,0,270.02,0.8492,0.0004,0.5281,0,270.02,-0.11,-97.6,10.846,0.023,37.004,1,3,663.25,-9.654,0,642.72,0,0,0,,0,0,0,0,0,0,0,0,0,0,0,0,0,270.02,0,0,0,0,0,0,0,0,0,0,0,0,0,3,3,0,0,VALID,0,0,0,0,0,1,0,0,0,0,0,0,0,0,0,0,0,0,0,0,175.53,1082.79,2,0,0.175,0.175,33,5.71,0.175,0.175,5.54,FLYING,X10-F,0:/Integrated Flight Computer/aircraft/x10_f_cfg.ks (inferred preloaded)
5.89,APPROACH,ILS_TRACK,149.84,152,2.16,537.88,462.09,-16.6,9.92,15.97,269.99,0.073,0.91,0,-3.542,1,0.6,4.5,0.75,0.35,0.0168,0.4,0,22.481,0,-2.093,0,270.03,0,0,1,-6.35,0,0,0,270.02,0.8493,0.0005,0.528,0,270.03,-0.14,-100.79,10.792,0.028,37.372,1,3,663.25,-8.92,0,639.85,0,0,0,,0,0,0,0,0,0,0,0,0,0,0,0,0,270.02,0,0,0,0,0,0,0,0,0,0,0,0,0,3,3,0,0,VALID,0,0,0,0,0,1,0,0,0,0,0,0,0,0,0,0,0,0,0,0,221.24,1080.17,2,0,0.175,0.175,35,5.71,0.175,0.175,5.89,FLYING,X10-F,0:/Integrated Flight Computer/aircraft/x10_f_cfg.ks (inferred preloaded)
6.24,APPROACH,ILS_TRACK,149.32,152,2.68,532.14,456.36,-16.2,9.81,15.77,269.99,0.084,0.9486,0,-2.663,1,0.6,4.5,0.75,0.35,0.0168,0.4,0,22.633,0,-2.634,0,270.02,0,0,1,-6.22,0,0,0,270.03,0.8493,0.0004,0.5279,0,270.02,-0.17,-103.72,10.737,0.025,37.68,1,3,663.25,-8.204,0,636.99,0,0,0,,0,0,0,0,0,0,0,0,0,0,0,0,0,270.02,0,0,0,0,0,0,0,0,0,0,0,0,0,3,3,0,0,VALID,0,0,0,0,0,1,0,0,0,0,0,0,0,0,0,0,0,0,0,0,274.07,1078.46,2,0,0.175,0.175,37,5.71,0.175,0.175,6.24,FLYING,X10-F,0:/Integrated Flight Computer/aircraft/x10_f_cfg.ks (inferred preloaded)
6.59,APPROACH,ILS_TRACK,148.98,152,3.02,526.67,450.77,-15.76,10.13,15.99,270,0.099,0.8256,0,-1.645,1,0.6,4.5,0.75,0.35,0.0168,0.4,0,22.733,0,-2.989,0,270.03,0,0,1,-6.07,0,0,0,270.03,0.8493,0.0005,0.5278,0,270.03,-0.2,-106.4,10.683,0.031,37.877,1,3,663.25,-7.448,0,634.14,0,0,0,,0,0,0,0,0,0,0,0,0,0,0,0,0,270.02,0,0,0,0,0,0,0,0,0,0,0,0,0,3,3,0,0,VALID,0,0,0,0,0,1,0,0,0,0,0,0,0,0,0,0,0,0,0,0,322.99,1077.5,2,0,0.175,0.175,39,5.71,0.175,0.175,6.59,FLYING,X10-F,0:/Integrated Flight Computer/aircraft/x10_f_cfg.ks (inferred preloaded)
6.94,APPROACH,ILS_TRACK,148.75,152,3.25,521.49,445.34,-15.2,10.85,16.56,270,0.118,0.7144,0,-0.534,1,0.6,4.5,0.75,0.35,0.0168,0.4,0,22.801,0,-3.228,0,270.03,0,0,1,-5.88,0,0,0,270.03,0.8494,0.0006,0.5278,0,270.03,-0.23,-108.79,10.628,0.032,37.947,1,3,663.25,-6.637,0,631.29,0,0,0,,0,0,0,0,0,0,0,0,0,0,0,0,0,270.02,0,0,0,0,0,0,0,0,0,0,0,0,0,3,3,0,0,VALID,0,0,0,0,0,1,0,0,0,0,0,0,0,0,0,0,0,0,0,0,359.92,1076.98,2,0,0.175,0.175,41,5.71,0.175,0.175,6.94,FLYING,X10-F,0:/Integrated Flight Computer/aircraft/x10_f_cfg.ks (inferred preloaded)
7.29,APPROACH,ILS_TRACK,148.53,152,3.47,516.57,440.19,-14.17,11.73,17.03,270,0.112,0.6508,0,0.653,1,0.6,4.5,0.75,0.35,0.0168,0.4,0,22.863,0,-3.449,0,270.04,0,0,1,-5.53,0,0,0,270.03,0.8494,0.0006,0.5277,0,270.04,-0.26,-110.91,10.574,0.035,37.988,1,3,663.25,-5.894,0,628.45,0,0,0,,0,0,0,0,0,0,0,0,0,0,0,0,0,270.02,0,0,0,0,0,0,0,0,0,0,0,0,0,3,3,0,0,VALID,0,0,0,0,0,1,0,0,0,0,0,0,0,0,0,0,0,0,0,0,386.68,1076.47,2,0,0.175,0.175,43,5.71,0.175,0.175,7.29,FLYING,X10-F,0:/Integrated Flight Computer/aircraft/x10_f_cfg.ks (inferred preloaded)
7.64,APPROACH,ILS_TRACK,148.29,152,3.71,511.83,435.4,-13.28,11.95,16.9,270,0.12,0.6331,0,1.925,1,0.6,4.5,0.75,0.35,0.0168,0.4,0,22.932,0,-3.693,0,270.04,0,0,1,-5.18,0,0,0,270.03,0.8495,0.0006,0.5276,0,270.04,-0.29,-112.85,10.52,0.036,38.153,1,3,663.25,-5.372,0,625.61,0,0,0,,0,0,0,0,0,0,0,0,0,0,0,0,0,270.02,0,0,0,0,0,0,0,0,0,0,0,0,0,3,3,0,0,VALID,0,0,0,0,0,1,0,0,0,0,0,0,0,0,0,0,0,0,0,0,407.65,1075.88,2,0,0.175,0.175,45,5.71,0.175,0.175,7.64,FLYING,X10-F,0:/Integrated Flight Computer/aircraft/x10_f_cfg.ks (inferred preloaded)
8.02,APPROACH,ILS_TRACK,148.1,152,3.9,506.98,430.46,-12.44,12.2,16.86,270.01,0.138,0.6088,0,3.404,1,0.6,4.5,0.75,0.35,0.0168,0.4,0,22.985,0,-3.882,0,270.04,0,0,1,-4.86,0,0,0,270.03,0.8495,0.0006,0.5275,0,270.04,-0.32,-114.65,10.46,0.035,37.915,1,3,663.25,-4.4,0,622.49,0,0,0,,0,0,0,0,0,0,0,0,0,0,0,0,0,270.02,0,0,0,0,0,0,0,0,0,0,0,0,0,3,3,0,0,VALID,0,0,0,0,0,1,0,0,0,0,0,0,0,0,0,0,0,0,0,0,427.6,1075.52,2,0,0.175,0.175,47,5.19,0.21,0.175,8.02,FLYING,X10-F,0:/Integrated Flight Computer/aircraft/x10_f_cfg.ks (inferred preloaded)
8.37,APPROACH,ILS_TRACK,147.98,152,4.02,502.92,426.25,-11.55,12.68,17.06,270.01,0.15,0.5838,0,4.795,1,0.6,4.5,0.75,0.35,0.0168,0.4,0,23.02,0,-4.005,0,270.04,0,0,1,-4.57,0,0,0,270.03,0.8496,0.0007,0.5274,0,270.04,-0.35,-115.94,10.406,0.038,37.528,1,3,663.25,-3.433,0,619.65,0,0,0,,0,0,0,0,0,0,0,0,0,0,0,0,0,270.02,0,0,0,0,0,0,0,0,0,0,0,0,0,3,3,0,0,VALID,0,0,0,0,0,1,0,0,0,0,0,0,0,0,0,0,0,0,0,0,442.64,1075.38,2,0,0.175,0.175,49,5.71,0.175,0.175,8.37,FLYING,X10-F,0:/Integrated Flight Computer/aircraft/x10_f_cfg.ks (inferred preloaded)
8.72,APPROACH,ILS_TRACK,147.78,152,4.22,498.95,422.59,-9.69,12.14,15.58,270.01,0.146,0.6116,0,6.243,1,0.6,4.5,0.75,0.35,0.0168,0.4,0,23.073,0,-4.195,0,270.04,0,0,1,-3.86,0,0,0,270.04,0.8496,0.0007,0.5274,0,270.04,-0.39,-117.07,10.352,0.039,37.726,1,3,663.25,-3.258,0,616.82,0,0,0,,0,0,0,0,0,0,0,0,0,0,0,0,0,270.02,0,0,0,0,0,0,0,0,0,0,0,0,0,3,3,0,0,VALID,0,0,0,0,0,1,0,0,0,0,0,0,0,0,0,0,0,0,0,0,455.1,1074.82,2,0,0.175,0.175,51,5.71,0.175,0.175,8.72,FLYING,X10-F,0:/Integrated Flight Computer/aircraft/x10_f_cfg.ks (inferred preloaded)
9.07,APPROACH,ILS_TRACK,147.76,152,4.24,495.03,419.45,-8.7,9.78,12.72,270.01,0.153,0.5844,0,7.74,1,0.6,4.5,0.75,0.35,0.0168,0.4,0,23.093,0,-4.264,0,270.04,0,0,1,-3.42,0,0,0,270.04,0.8497,0.0006,0.5273,0,270.04,-0.41,-118.17,10.298,0.037,37.92,1,3,663.25,-3.086,0,613.99,0,0,0,,0,0,0,0,0,0,0,0,0,0,0,0,0,270.02,0,0,0,0,0,0,0,0,0,0,0,0,0,3,3,0,0,VALID,0,0,0,0,0,1,0,0,0,0,0,0,0,0,0,0,0,0,0,0,469.11,1074.97,2,0,0.175,0.175,53,5.71,0.175,0.175,9.07,FLYING,X10-F,0:/Integrated Flight Computer/aircraft/x10_f_cfg.ks (inferred preloaded)
9.42,APPROACH,ILS_TRACK,148.26,152,3.74,491.23,416.44,-8.88,7.02,10.06,270,0.163,0.4444,0,9.124,1,0.6,4.5,0.75,0.35,0.0168,0.4,0,22.964,0,-3.808,0,270.04,0,0,1,-3.39,0,0,0,270.04,0.8497,0.0007,0.5272,0,270.04,-0.44,-119.17,10.244,0.037,37.906,1,3,663.25,-2.693,0,611.14,0,0,0,,0,0,0,0,0,0,0,0,0,0,0,0,0,270.02,0,0,0,0,0,0,0,0,0,0,0,0,0,3,3,0,0,VALID,0,0,0,0,0,1,0,0,0,0,0,0,0,0,0,0,0,0,0,0,479.06,1077.27,2,0,0.175,0.175,55,5.71,0.175,0.175,9.42,FLYING,X10-F,0:/Integrated Flight Computer/aircraft/x10_f_cfg.ks (inferred preloaded)
9.77,APPROACH,ILS_TRACK,149.1,152,2.9,487.69,413.22,-9.6,5.64,9.09,270,0.201,0.3044,0,10.246,1,0.6,4.5,0.75,0.35,0.0168,0.4,0,22.734,0,-2.992,0,270.04,0,0,1,-3.63,0,0,0,270.04,0.8498,0.0006,0.5271,0,270.04,-0.47,-119.91,10.189,0.036,37.497,1,3,663.25,-1.905,0,608.29,0,0,0,,0,0,0,0,0,0,0,0,0,0,0,0,0,270.02,0,0,0,0,0,0,0,0,0,0,0,0,0,3,3,0,0,VALID,0,0,0,0,0,1,0,0,0,0,0,0,0,0,0,0,0,0,0,0,477.46,1080.98,2,0,0.175,0.175,57,5.71,0.175,0.175,9.77,FLYING,X10-F,0:/Integrated Flight Computer/aircraft/x10_f_cfg.ks (inferred preloaded)
10.12,APPROACH,ILS_TRACK,149.98,152,2.02,484.41,409.71,-10.29,6.04,9.91,270.01,0.23,0.1644,0,11.06,1,0.6,4.5,0.75,0.35,0.0168,0.4,0,22.484,0,-2.105,0,270.04,0,0,1,-3.89,0,0,0,270.04,0.8498,0.0006,0.5271,0,270.04,-0.49,-120.37,10.135,0.037,37.023,1,3,663.25,-1.139,0,605.42,0,0,0,,0,0,0,0,0,0,0,0,0,0,0,0,0,270.02,0,0,0,0,0,0,0,0,0,0,0,0,0,3,3,0,0,VALID,0,0,0,0,0,1,0,0,0,0,0,0,0,0,0,0,0,0,0,0,459.11,1084.96,2,0,0.175,0.175,59,5.71,0.175,0.175,10.12,FLYING,X10-F,0:/Integrated Flight Computer/aircraft/x10_f_cfg.ks (inferred preloaded)
10.47,APPROACH,ILS_TRACK,150.72,152,1.28,481.37,405.99,-10.59,7.99,12.1,270.02,0.235,0.0244,0,11.592,1,0.6,4.5,0.75,0.35,0.0168,0.4,0,22.27,0,-1.345,0,270.04,0,0,1,-4.01,0,0,0,270.04,0.8499,0.0006,0.527,0,270.04,-0.52,-120.58,10.08,0.035,36.49,1,3,663.25,-0.396,0,602.53,0,0,0,,0,0,0,0,0,0,0,0,0,0,0,0,0,270.02,0,0,0,0,0,0,0,0,0,0,0,0,0,3,3,0,0,VALID,0,0,0,0,0,1,0,0,0,0,0,0,0,0,0,0,0,0,0,0,425.09,1088.37,2,0,0.175,0.175,61,5.71,0.175,0.175,10.47,FLYING,X10-F,0:/Integrated Flight Computer/aircraft/x10_f_cfg.ks (inferred preloaded)
10.82,APPROACH,ILS_TRACK,151.1,152,0.9,478.55,402.27,-10.11,10.9,14.9,270.04,0.239,0,0,11.941,1,0.6,4.5,0.75,0.35,0.0168,0.4,0,22.149,0,-0.917,0,270.04,0,0,1,-3.93,0,0,0,270.04,0.8499,0.0006,0.5269,0,270.04,-0.54,-120.54,10.024,0.035,35.941,1,3,663.25,0.275,0,599.64,0,0,0,,0,0,0,0,0,0,0,0,0,0,0,0,0,270.02,0,0,0,0,0,0,0,0,0,0,0,0,0,3,3,0,0,VALID,0,0,0,0,0,1,0,0,0,0,0,0,0,0,0,0,0,0,0,0,379.18,1090.31,2,0,0.175,0.175,63,5.71,0.175,0.175,10.82,FLYING,X10-F,0:/Integrated Flight Computer/aircraft/x10_f_cfg.ks (inferred preloaded)
11.17,APPROACH,ILS_TRACK,150.89,152,1.11,475.76,399.05,-8.47,12.75,15.96,270.03,0.146,0,0,12.286,1,0.6,4.5,0.75,0.35,0.0168,0.4,0,22.191,0,-1.066,0,270.03,0,0,1,-3.31,0,0,0,270.03,0.85,0.0006,0.5268,0,270.03,-0.55,-120.44,9.969,0.034,35.952,1,3,663.25,0.225,0,596.76,0,0,0,,0,0,0,0,0,0,0,0,0,0,0,0,0,270.02,0,0,0,0,0,0,0,0,0,0,0,0,0,3,3,0,0,VALID,0,0,0,0,0,1,0,0,0,0,0,0,0,0,0,0,0,0,0,0,335.11,1089.72,2,0,0.175,0.175,65,5.71,0.175,0.175,11.17,FLYING,X10-F,0:/Integrated Flight Computer/aircraft/x10_f_cfg.ks (inferred preloaded)
11.52,APPROACH,ILS_TRACK,150.39,152,1.61,473.15,396.31,-7.33,13.29,16.02,270.01,0.095,0.14,0,12.788,1,0.6,4.5,0.75,0.35,0.0168,0.4,0,22.33,0,-1.559,0,270.03,0,0,1,-2.86,0,0,0,270.03,0.85,0.0006,0.5267,0,270.03,-0.57,-120.22,9.914,0.033,35.432,1,3,663.25,0.791,0,593.87,0,0,0,,0,0,0,0,0,0,0,0,0,0,0,0,0,270.02,0,0,0,0,0,0,0,0,0,0,0,0,0,3,3,0,0,VALID,0,0,0,0,0,1,0,0,0,0,0,0,0,0,0,0,0,0,0,0,299.41,1087.85,2,0,0.175,0.175,67,5.71,0.175,0.175,11.52,FLYING,X10-F,0:/Integrated Flight Computer/aircraft/x10_f_cfg.ks (inferred preloaded)
11.87,APPROACH,ILS_TRACK,149.79,152,2.21,470.71,393.98,-6.41,13.06,15.38,270.01,0.126,0.2792,0,13.483,1,0.6,4.5,0.75,0.35,0.0168,0.4,0,22.497,0,-2.152,0,270.03,0,0,1,-2.5,0,0,0,270.03,0.8501,0.0006,0.5267,0,270.03,-0.58,-119.84,9.86,0.035,35.051,1,3,663.25,1.128,0,591.02,0,0,0,,0,0,0,0,0,0,0,0,0,0,0,0,0,270.02,0,0,0,0,0,0,0,0,0,0,0,0,0,3,3,0,0,VALID,0,0,0,0,0,1,0,0,0,0,0,0,0,0,0,0,0,0,0,0,284.69,1085.52,2,0,0.173,0.173,69,5.78,0.175,0.173,11.87,FLYING,X10-F,0:/Integrated Flight Computer/aircraft/x10_f_cfg.ks (inferred preloaded)
12.15,APPROACH,ILS_TRACK,149.24,152,2.76,468.84,392.22,-6.01,12.63,14.82,270.02,0.149,0.4008,0,14.266,1,0.6,4.5,0.75,0.35,0.0168,0.4,0,22.657,0,-2.717,0,270.04,0,0,1,-2.33,0,0,0,270.03,0.8501,0.0006,0.5266,0,270.04,-0.6,-119.38,9.812,0.035,34.496,1,3,663.25,1.65,0,588.54,0,0,0,,0,0,0,0,0,0,0,0,0,0,0,0,0,270.02,0,0,0,0,0,0,0,0,0,0,0,0,0,3,3,0,0,VALID,0,0,0,0,0,1,0,0,0,0,0,0,0,0,0,0,0,0,0,0,285.82,1083.38,2,0,0.143,0.143,71,7,0.173,0.143,12.15,FLYING,X10-F,0:/Integrated Flight Computer/aircraft/x10_f_cfg.ks (inferred preloaded)
12.51,APPROACH,ILS_TRACK,148.67,152,3.33,466.68,390.15,-5.66,12.3,14.37,270.03,0.17,0.5448,0,15.389,1,0.6,4.5,0.75,0.35,0.0168,0.4,0,22.82,0,-3.297,0,270.04,0,0,1,-2.19,0,0,0,270.04,0.8502,0.0006,0.5265,0,270.04,-0.61,-118.66,9.756,0.036,33.841,1,3,663.25,2.195,0,585.6,0,0,0,,0,0,0,0,0,0,0,0,0,0,0,0,0,270.02,0,0,0,0,0,0,0,0,0,0,0,0,0,3,3,0,0,VALID,0,0,0,0,0,1,0,0,0,0,0,0,0,0,0,0,0,0,0,0,298.32,1081.2,2,0,0.117,0.117,74,8.42,0.143,0.117,12.51,FLYING,X10-F,0:/Integrated Flight Computer/aircraft/x10_f_cfg.ks (inferred preloaded)
12.84,APPROACH,ILS_TRACK,148.26,152,3.74,464.84,388.33,-5.43,12.22,14.24,270.03,0.156,0.6784,0,16.586,1,0.6,4.5,0.75,0.35,0.0168,0.4,0,22.938,0,-3.714,0,270.03,0,0,1,-2.11,0,0,0,270.03,0.8502,0.0006,0.5265,0,270.03,-0.62,-117.82,9.705,0.033,33.223,1,3,663.25,2.654,0,582.89,0,0,0,,0,0,0,0,0,0,0,0,0,0,0,0,0,270.02,0,0,0,0,0,0,0,0,0,0,0,0,0,3,3,0,0,VALID,0,0,0,0,0,1,0,0,0,0,0,0,0,0,0,0,0,0,0,0,319,1079.65,2,0,0.109,0.109,77,9.07,0.117,0.109,12.84,FLYING,X10-F,0:/Integrated Flight Computer/aircraft/x10_f_cfg.ks (inferred preloaded)
13.17,APPROACH,ILS_TRACK,147.95,152,4.05,463.19,386.58,-5.24,12.49,14.46,270.03,0.152,0.8104,0,17.883,1,0.6,4.5,0.75,0.35,0.0168,0.4,0,23.028,0,-4.036,0,270.03,0,0,1,-2.04,0,0,0,270.03,0.8502,0.0005,0.5264,0,270.03,-0.63,-116.84,9.654,0.03,32.532,1,3,663.25,3.149,0,580.22,0,0,0,,0,0,0,0,0,0,0,0,0,0,0,0,0,270.02,0,0,0,0,0,0,0,0,0,0,0,0,0,3,3,0,0,VALID,0,0,0,0,0,1,0,0,0,0,0,0,0,0,0,0,0,0,0,0,347.37,1078.49,2,0,0.121,0.121,80,9.17,0.121,0.103,13.17,FLYING,X10-F,0:/Integrated Flight Computer/aircraft/x10_f_cfg.ks (inferred preloaded)
13.53,APPROACH,ILS_TRACK,147.68,152,4.32,461.58,384.74,-4.8,13.24,15.07,270.03,0.155,0.9544,0,19.403,1,0.6,4.5,0.75,0.35,0.0168,0.4,0,23.105,0,-4.307,0,270.03,0,0,1,-1.9,0,0,0,270.03,0.8503,0.0005,0.5263,0,270.03,-0.64,-115.56,9.598,0.031,31.658,1,3,663.25,3.76,0,577.3,0,0,0,,0,0,0,0,0,0,0,0,0,0,0,0,0,270.02,0,0,0,0,0,0,0,0,0,0,0,0,0,3,3,0,0,VALID,0,0,0,0,0,1,0,0,0,0,0,0,0,0,0,0,0,0,0,0,386.75,1077.55,2,0,0.12,0.12,83,8.33,0.121,0.12,13.53,FLYING,X10-F,0:/Integrated Flight Computer/aircraft/x10_f_cfg.ks (inferred preloaded)
13.89,APPROACH,ILS_TRACK,147.48,152,4.52,460.1,383.15,-3.83,13.7,15.14,270.04,0.155,0.916,0,20,1,0.6,4.5,0.75,0.35,0.0168,0.4,0,23.163,0,-4.513,0,270.03,0,0,1,-1.55,0,0,0,270.03,0.8503,0.0005,0.5262,0,270.03,-0.65,-114.14,9.543,0.029,31.021,1,3,663.25,4.025,0,574.39,0,0,0,,0,0,0,0,0,0,0,0,0,0,0,0,0,270.02,0,0,0,0,0,0,0,0,0,0,0,0,0,3,3,0,0,VALID,0,0,0,0,0,1,0,0,0,0,0,0,0,0,0,0,0,0,0,0,430.41,1076.84,2,0,0.12,0.12,86,8.33,0.12,0.12,13.89,FLYING,X10-F,0:/Integrated Flight Computer/aircraft/x10_f_cfg.ks (inferred preloaded)
14.2,APPROACH,ILS_TRACK,147.39,152,4.61,458.9,382.15,-2.79,13.17,14.16,270.03,0.129,0.8441,0,20,1,0.6,4.5,0.75,0.35,0.0168,0.4,0,23.19,0,-4.611,0,270.02,0,0,1,-1.13,0,0,0,270.03,0.8504,0.0004,0.5262,0,270.02,-0.65,-112.86,9.495,0.02,30.471,1,3,663.25,4.233,0,571.92,0,0,0,,0,0,0,0,0,0,0,0,0,0,0,0,0,270.02,0,0,0,0,0,0,0,0,0,0,0,0,0,3,3,0,0,VALID,0,0,0,0,0,1,0,0,0,0,0,0,0,0,0,0,0,0,0,0,462.79,1076.56,2,0,0.104,0.104,89,9.71,0.12,0.1,14.2,FLYING,X10-F,0:/Integrated Flight Computer/aircraft/x10_f_cfg.ks (inferred preloaded)
14.45,APPROACH,ILS_TRACK,147.5,152,4.5,458.04,381.52,-2.44,12.42,13.27,270.03,0.107,0.7473,0,20,1,0.6,4.5,0.75,0.35,0.0168,0.4,0,23.166,0,-4.525,0,270.02,0,0,1,-0.97,0,0,0,270.03,0.8504,0.0004,0.5261,0,270.02,-0.65,-111.76,9.458,0.024,29.771,1,3,663.25,4.695,0,569.97,0,0,0,,0,0,0,0,0,0,0,0,0,0,0,0,0,270.02,0,0,0,0,0,0,0,0,0,0,0,0,0,3,3,0,0,VALID,0,0,0,0,0,1,0,0,0,0,0,0,0,0,0,0,0,0,0,0,484.05,1077.04,2,0,0.128,0.128,91,7.95,0.128,0.104,14.45,FLYING,X10-F,0:/Integrated Flight Computer/aircraft/x10_f_cfg.ks (inferred preloaded)
14.72,APPROACH,ILS_TRACK,147.76,152,4.24,457.22,380.96,-1.91,11.6,12.22,270.02,0.111,0.6411,0,20,1,0.6,4.5,0.75,0.35,0.0168,0.4,0,23.094,0,-4.268,0,270.03,0,0,1,-0.76,0,0,0,270.02,0.8505,0.0005,0.526,0,270.03,-0.65,-110.43,9.417,0.028,29.103,1,3,663.25,5.033,0,567.82,0,0,0,,0,0,0,0,0,0,0,0,0,0,0,0,0,270.02,0,0,0,0,0,0,0,0,0,0,0,0,0,3,3,0,0,VALID,0,0,0,0,0,1,0,0,0,0,0,0,0,0,0,0,0,0,0,0,500.41,1078.19,2,0,0.134,0.134,93,7.46,0.134,0.128,14.72,FLYING,X10-F,0:/Integrated Flight Computer/aircraft/x10_f_cfg.ks (inferred preloaded)
15,APPROACH,ILS_TRACK,148.18,152,3.82,456.46,380.47,-1.74,10.67,11.22,270.02,0.117,0.5295,0,20,1,0.6,4.5,0.75,0.35,0.0168,0.4,0,22.982,0,-3.872,0,270.02,0,0,1,-0.67,0,0,0,270.03,0.8505,0.0004,0.526,0,270.02,-0.65,-108.95,9.374,0.023,28.358,1,3,663.25,5.408,0,565.55,0,0,0,,0,0,0,0,0,0,0,0,0,0,0,0,0,270.02,0,0,0,0,0,0,0,0,0,0,0,0,0,3,3,0,0,VALID,0,0,0,0,0,1,0,0,0,0,0,0,0,0,0,0,0,0,0,0,510.64,1079.93,2,0,0.141,0.141,95,7.09,0.141,0.134,15,FLYING,X10-F,0:/Integrated Flight Computer/aircraft/x10_f_cfg.ks (inferred preloaded)
15.29,APPROACH,ILS_TRACK,148.74,152,3.26,455.8,379.95,-1.78,10.09,10.72,270.03,0.121,0.4121,0,20,1,0.6,4.5,0.75,0.35,0.0168,0.4,0,22.827,0,-3.323,0,270.02,0,0,1,-0.69,0,0,0,270.03,0.8505,0.0004,0.5259,0,270.02,-0.65,-107.24,9.328,0.022,27.411,1,3,663.25,5.953,0,563.17,0,0,0,,0,0,0,0,0,0,0,0,0,0,0,0,0,270.02,0,0,0,0,0,0,0,0,0,0,0,0,0,3,3,0,0,VALID,0,0,0,0,0,1,0,0,0,0,0,0,0,0,0,0,0,0,0,0,514.04,1082.29,2,0,0.149,0.149,97,6.76,0.149,0.141,15.29,FLYING,X10-F,0:/Integrated Flight Computer/aircraft/x10_f_cfg.ks (inferred preloaded)
15.6,APPROACH,ILS_TRACK,149.37,152,2.63,455.24,379.42,-1.81,9.9,10.57,270.03,0.125,0.2912,0,20,1,0.6,4.5,0.75,0.35,0.0168,0.4,0,22.651,0,-2.697,0,270.03,0,0,1,-0.68,0,0,0,270.02,0.8506,0.0004,0.5258,0,270.03,-0.64,-105.36,9.281,0.025,26.545,1,3,663.25,6.327,0,560.69,0,0,0,,0,0,0,0,0,0,0,0,0,0,0,0,0,270.02,0,0,0,0,0,0,0,0,0,0,0,0,0,3,3,0,0,VALID,0,0,0,0,0,1,0,0,0,0,0,0,0,0,0,0,0,0,0,0,506.21,1084.95,2,0,0.152,0.152,99,6.57,0.152,0.149,15.6,FLYING,X10-F,0:/Integrated Flight Computer/aircraft/x10_f_cfg.ks (inferred preloaded)
15.92,APPROACH,ILS_TRACK,149.98,152,2.02,454.78,378.86,-1.56,10.27,10.86,270.03,0.125,0.1648,0,20,1,0.6,4.5,0.75,0.35,0.0168,0.4,0,22.476,0,-2.076,0,270.02,0,0,1,-0.63,0,0,0,270.02,0.8506,0.0004,0.5258,0,270.02,-0.64,-103.22,9.232,0.023,25.516,1,3,663.25,6.814,0,558.1,0,0,0,,0,0,0,0,0,0,0,0,0,0,0,0,0,270.02,0,0,0,0,0,0,0,0,0,0,0,0,0,3,3,0,0,VALID,0,0,0,0,0,1,0,0,0,0,0,0,0,0,0,0,0,0,0,0,484.79,1087.56,2,0,0.16,0.16,101,6.26,0.16,0.152,15.92,FLYING,X10-F,0:/Integrated Flight Computer/aircraft/x10_f_cfg.ks (inferred preloaded)
16.25,APPROACH,ILS_TRACK,150.51,152,1.49,454.34,378.35,-1.35,10.49,11.03,270.03,0.128,0.0318,0,20,1,0.6,4.5,0.75,0.35,0.0168,0.4,0,22.324,0,-1.538,0,270.02,0,0,1,-0.57,0,0,0,270.02,0.8507,0.0004,0.5257,0,270.02,-0.64,-100.94,9.179,0.021,24.686,1,3,663.25,6.994,0,555.36,0,0,0,,0,0,0,0,0,0,0,0,0,0,0,0,0,270.02,0,0,0,0,0,0,0,0,0,0,0,0,0,3,3,0,0,VALID,0,0,0,0,0,1,0,0,0,0,0,0,0,0,0,0,0,0,0,0,449.04,1089.83,2,0,0.168,0.168,103,5.96,0.168,0.16,16.25,FLYING,X10-F,0:/Integrated Flight Computer/aircraft/x10_f_cfg.ks (inferred preloaded)
16.6,APPROACH,ILS_TRACK,150.9,152,1.1,453.84,377.96,-1.12,10.19,10.56,270.03,0.113,0,0,20,1,0.6,4.5,0.75,0.35,0.0168,0.4,0,22.209,0,-1.13,0,270.02,0,0,1,-0.42,0,0,0,270.02,0.8507,0.0003,0.5256,0,270.02,-0.63,-98.57,9.125,0.019,24.15,1,3,663.25,6.774,0,552.5,0,0,0,,0,0,0,0,0,0,0,0,0,0,0,0,0,270.02,0,0,0,0,0,0,0,0,0,0,0,0,0,3,3,0,0,VALID,0,0,0,0,0,1,0,0,0,0,0,0,0,0,0,0,0,0,0,0,400.89,1091.51,2,0,0.175,0.175,105,5.73,0.175,0.168,16.6,FLYING,X10-F,0:/Integrated Flight Computer/aircraft/x10_f_cfg.ks (inferred preloaded)
16.95,APPROACH,ILS_TRACK,151.19,152,0.81,453.46,377.55,-1.05,10.26,10.67,270.03,0.102,0,0,20,1,0.6,4.5,0.75,0.35,0.0168,0.4,0,22.125,0,-0.83,0,270.02,0,0,1,-0.44,0,0,0,270.02,0.8508,0.0003,0.5255,0,270.02,-0.62,-96.06,9.069,0.018,22.984,1,3,663.25,7.293,0,549.6,0,0,0,,0,0,0,0,0,0,0,0,0,0,0,0,0,270.02,0,0,0,0,0,0,0,0,0,0,0,0,0,3,3,0,0,VALID,0,0,0,0,0,1,0,0,0,0,0,0,0,0,0,0,0,0,0,0,354.82,1092.74,2,0,0.175,0.175,107,5.71,0.175,0.175,16.95,FLYING,X10-F,0:/Integrated Flight Computer/aircraft/x10_f_cfg.ks (inferred preloaded)
17.3,APPROACH,ILS_TRACK,151.29,152,0.71,453.09,377.2,-1.07,10.16,10.56,270.02,0.086,0.0675,0,20,1,0.6,4.5,0.75,0.35,0.0168,0.4,0,22.091,0,-0.712,0,270.02,0,0,1,-0.39,0,0,0,270.02,0.8508,0.0003,0.5255,0,270.02,-0.62,-93.55,9.014,0.019,22.301,1,3,663.25,7.205,0,546.71,0,0,0,,0,0,0,0,0,0,0,0,0,0,0,0,0,270.02,0,0,0,0,0,0,0,0,0,0,0,0,0,3,3,0,0,VALID,0,0,0,0,0,1,0,0,0,0,0,0,0,0,0,0,0,0,0,0,314.4,1093.21,2,0,0.175,0.175,109,5.71,0.175,0.175,17.3,FLYING,X10-F,0:/Integrated Flight Computer/aircraft/x10_f_cfg.ks (inferred preloaded)
17.65,APPROACH,ILS_TRACK,151.26,152,0.74,452.82,376.83,-0.88,10.53,10.86,270.02,0.081,0.1913,0,20,1,0.6,4.5,0.75,0.35,0.0168,0.4,0,22.096,0,-0.729,0,270.02,0,0,1,-0.36,0,0,0,270.02,0.8509,0.0003,0.5254,0,270.02,-0.61,-90.92,8.959,0.018,21.244,1,3,663.25,7.542,0,543.81,0,0,0,,0,0,0,0,0,0,0,0,0,0,0,0,0,270.02,0,0,0,0,0,0,0,0,0,0,0,0,0,3,3,0,0,VALID,0,0,0,0,0,1,0,0,0,0,0,0,0,0,0,0,0,0,0,0,288.84,1093.1,2,0,0.175,0.175,111,5.71,0.175,0.175,17.65,FLYING,X10-F,0:/Integrated Flight Computer/aircraft/x10_f_cfg.ks (inferred preloaded)
18,APPROACH,ILS_TRACK,151.11,152,0.89,452.53,376.53,-0.86,10.5,10.84,270.02,0.079,0.326,0,20,1,0.6,4.5,0.75,0.35,0.0168,0.4,0,22.138,0,-0.877,0,270.02,0,0,1,-0.33,0,0,0,270.02,0.8509,0.0003,0.5253,0,270.02,-0.6,-88.34,8.904,0.02,20.554,1,3,663.25,7.433,0,540.92,0,0,0,,0,0,0,0,0,0,0,0,0,0,0,0,0,270.02,0,0,0,0,0,0,0,0,0,0,0,0,0,3,3,0,0,VALID,0,0,0,0,0,1,0,0,0,0,0,0,0,0,0,0,0,0,0,0,282.26,1092.48,2,0,0.175,0.175,113,5.71,0.175,0.175,18,FLYING,X10-F,0:/Integrated Flight Computer/aircraft/x10_f_cfg.ks (inferred preloaded)
18.35,APPROACH,ILS_TRACK,150.93,152,1.07,452.24,376.29,-0.7,10.44,10.67,270.02,0.075,0.4263,0,20,1,0.6,4.5,0.75,0.35,0.0168,0.4,0,22.187,0,-1.05,0,270.02,0,0,1,-0.26,0,0,0,270.02,0.851,0.0003,0.5252,0,270.02,-0.6,-85.73,8.849,0.019,19.803,1,3,663.25,7.393,0,538.03,0,0,0,,0,0,0,0,0,0,0,0,0,0,0,0,0,270.02,0,0,0,0,0,0,0,0,0,0,0,0,0,3,3,0,0,VALID,0,0,0,0,0,1,0,0,0,0,0,0,0,0,0,0,0,0,0,0,288.25,1091.77,2,0,0.175,0.175,115,5.71,0.175,0.175,18.35,FLYING,X10-F,0:/Integrated Flight Computer/aircraft/x10_f_cfg.ks (inferred preloaded)
18.7,APPROACH,ILS_TRACK,150.79,152,1.21,452.01,376.05,-0.58,10.46,10.65,270.02,0.071,0.4821,0,20,1,0.6,4.5,0.75,0.35,0.0168,0.4,0,22.228,0,-1.195,0,270.02,0,0,1,-0.23,0,0,0,270.02,0.851,0.0003,0.5252,0,270.02,-0.59,-83.08,8.793,0.019,18.848,1,3,663.25,7.594,0,535.14,0,0,0,,0,0,0,0,0,0,0,0,0,0,0,0,0,270.02,0,0,0,0,0,0,0,0,0,0,0,0,0,3,3,0,0,VALID,0,0,0,0,0,1,0,0,0,0,0,0,0,0,0,0,0,0,0,0,300.77,1091.2,2,0,0.175,0.175,117,5.71,0.175,0.175,18.7,FLYING,X10-F,0:/Integrated Flight Computer/aircraft/x10_f_cfg.ks (inferred preloaded)
19.05,APPROACH,ILS_TRACK,150.7,152,1.3,451.79,375.83,-0.57,10.4,10.63,270.02,0.069,0.5008,0,20,1,0.6,4.5,0.75,0.35,0.0168,0.4,0,22.255,0,-1.293,0,270.02,0,0,1,-0.24,0,0,0,270.02,0.8511,0.0003,0.5251,0,270.02,-0.59,-80.42,8.738,0.019,17.995,1,3,663.25,7.666,0,532.25,0,0,0,,0,0,0,0,0,0,0,0,0,0,0,0,0,270.02,0,0,0,0,0,0,0,0,0,0,0,0,0,3,3,0,0,VALID,0,0,0,0,0,1,0,0,0,0,0,0,0,0,0,0,0,0,0,0,316.24,1090.84,2,0,0.175,0.175,119,5.71,0.175,0.175,19.05,FLYING,X10-F,0:/Integrated Flight Computer/aircraft/x10_f_cfg.ks (inferred preloaded)
19.4,APPROACH,ILS_TRACK,150.67,152,1.33,451.58,375.64,-0.58,10.31,10.54,270.02,0.061,0.488,0,20,1,0.6,4.5,0.75,0.35,0.0168,0.4,0,22.265,0,-1.327,0,270.02,0,0,1,-0.22,0,0,0,270.02,0.8511,0.0003,0.525,0,270.02,-0.58,-77.76,8.683,0.017,17.213,1,3,663.25,7.642,0,529.37,0,0,0,,0,0,0,0,0,0,0,0,0,0,0,0,0,270.02,0,0,0,0,0,0,0,0,0,0,0,0,0,3,3,0,0,VALID,0,0,0,0,0,1,0,0,0,0,0,0,0,0,0,0,0,0,0,0,331.69,1090.73,2,0,0.175,0.175,121,5.71,0.175,0.175,19.4,FLYING,X10-F,0:/Integrated Flight Computer/aircraft/x10_f_cfg.ks (inferred preloaded)
19.75,APPROACH,ILS_TRACK,150.71,152,1.29,451.39,375.47,-0.5,10.27,10.47,270.01,0.055,0.4525,0,20,1,0.6,4.5,0.75,0.35,0.0168,0.4,0,22.256,0,-1.295,0,270.02,0,0,1,-0.19,0,0,0,270.02,0.8512,0.0004,0.5249,0,270.02,-0.58,-75.06,8.628,0.022,16.37,1,3,663.25,7.685,0,526.48,0,0,0,,0,0,0,0,0,0,0,0,0,0,0,0,0,270.02,0,0,0,0,0,0,0,0,0,0,0,0,0,3,3,0,0,VALID,0,0,0,0,0,1,0,0,0,0,0,0,0,0,0,0,0,0,0,0,344.92,1090.91,2,0,0.175,0.175,123,5.71,0.175,0.175,19.75,FLYING,X10-F,0:/Integrated Flight Computer/aircraft/x10_f_cfg.ks (inferred preloaded)
20.1,APPROACH,ILS_TRACK,150.81,152,1.19,451.21,375.32,-0.44,10.21,10.36,270.01,0.054,0.4041,0,20,1,0.6,4.5,0.75,0.35,0.0168,0.4,0,22.231,0,-1.205,0,270.02,0,0,1,-0.16,0,0,0,270.02,0.8512,0.0004,0.5248,0,270.02,-0.58,-72.35,8.573,0.021,15.517,1,3,663.25,7.735,0,523.59,0,0,0,,0,0,0,0,0,0,0,0,0,0,0,0,0,270.02,0,0,0,0,0,0,0,0,0,0,0,0,0,3,3,0,0,VALID,0,0,0,0,0,1,0,0,0,0,0,0,0,0,0,0,0,0,0,0,354.57,1091.32,2,0,0.175,0.175,125,5.71,0.175,0.175,20.1,FLYING,X10-F,0:/Integrated Flight Computer/aircraft/x10_f_cfg.ks (inferred preloaded)
20.45,APPROACH,ILS_TRACK,150.94,152,1.06,451.04,375.18,-0.37,10.16,10.27,270.01,0.05,0.3531,0,20,1,0.6,4.5,0.75,0.35,0.0168,0.4,0,22.193,0,-1.073,0,270.02,0,0,1,-0.13,0,0,0,270.02,0.8512,0.0004,0.5248,0,270.02,-0.58,-69.62,8.518,0.023,14.67,1,3,663.25,7.771,0,520.7,0,0,0,,0,0,0,0,0,0,0,0,0,0,0,0,0,270.02,0,0,0,0,0,0,0,0,0,0,0,0,0,3,3,0,0,VALID,0,0,0,0,0,1,0,0,0,0,0,0,0,0,0,0,0,0,0,0,360,1091.89,2,0,0.175,0.175,127,5.71,0.175,0.175,20.45,FLYING,X10-F,0:/Integrated Flight Computer/aircraft/x10_f_cfg.ks (inferred preloaded)
20.8,APPROACH,ILS_TRACK,151.1,152,0.9,450.9,375.04,-0.33,10.15,10.25,270.01,0.051,0.3078,0,20,1,0.6,4.5,0.75,0.35,0.0168,0.4,0,22.15,0,-0.92,0,270.02,0,0,1,-0.13,0,0,0,270.02,0.8513,0.0004,0.5247,0,270.02,-0.58,-66.88,8.463,0.023,13.741,1,3,663.25,7.902,0,517.81,0,0,0,,0,0,0,0,0,0,0,0,0,0,0,0,0,270.02,0,0,0,0,0,0,0,0,0,0,0,0,0,3,3,0,0,VALID,0,0,0,0,0,1,0,0,0,0,0,0,0,0,0,0,0,0,0,0,361.41,1092.55,2,0,0.175,0.175,129,5.71,0.175,0.175,20.8,FLYING,X10-F,0:/Integrated Flight Computer/aircraft/x10_f_cfg.ks (inferred preloaded)
21.15,APPROACH,ILS_TRACK,151.26,152,0.74,450.77,374.91,-0.31,10.12,10.22,270.01,0.05,0.2718,0,20,1,0.6,4.5,0.75,0.35,0.0168,0.4,0,22.105,0,-0.759,0,270.02,0,0,1,-0.12,0,0,0,270.02,0.8513,0.0004,0.5246,0,270.02,-0.57,-64.11,8.408,0.021,12.885,1,3,663.25,7.937,0,514.92,0,0,0,,0,0,0,0,0,0,0,0,0,0,0,0,0,270.02,0,0,0,0,0,0,0,0,0,0,0,0,0,3,3,0,0,VALID,0,0,0,0,0,1,0,0,0,0,0,0,0,0,0,0,0,0,0,0,357.99,1093.24,2,0,0.175,0.175,131,5.71,0.175,0.175,21.15,FLYING,X10-F,0:/Integrated Flight Computer/aircraft/x10_f_cfg.ks (inferred preloaded)
21.5,APPROACH,ILS_TRACK,151.41,152,0.59,450.66,374.8,-0.32,10.1,10.22,270.01,0.048,0.2482,0,20,1,0.6,4.5,0.75,0.35,0.0168,0.4,0,22.062,0,-0.605,0,270.02,0,0,1,-0.12,0,0,0,270.02,0.8514,0.0004,0.5245,0,270.02,-0.58,-61.34,8.352,0.024,12.025,1,3,663.25,7.97,0,512.02,0,0,0,,0,0,0,0,0,0,0,0,0,0,0,0,0,270.02,0,0,0,0,0,0,0,0,0,0,0,0,0,3,3,0,0,VALID,0,0,0,0,0,1,0,0,0,0,0,0,0,0,0,0,0,0,0,0,350.63,1093.89,2,0,0.175,0.175,133,5.71,0.175,0.175,21.5,FLYING,X10-F,0:/Integrated Flight Computer/aircraft/x10_f_cfg.ks (inferred preloaded)
21.85,APPROACH,ILS_TRACK,151.54,152,0.46,450.55,374.69,-0.28,10.11,10.22,270.01,0.049,0.2384,0,20,1,0.6,4.5,0.75,0.35,0.0168,0.4,0,22.024,0,-0.473,0,270.02,0,0,1,-0.12,0,0,0,270.02,0.8514,0.0004,0.5245,0,270.02,-0.58,-58.55,8.297,0.024,11.155,1,3,663.25,8.01,0,509.12,0,0,0,,0,0,0,0,0,0,0,0,0,0,0,0,0,270.02,0,0,0,0,0,0,0,0,0,0,0,0,0,3,3,0,0,VALID,0,0,0,0,0,1,0,0,0,0,0,0,0,0,0,0,0,0,0,0,341.4,1094.45,2,0,0.175,0.175,135,5.71,0.175,0.175,21.85,FLYING,X10-F,0:/Integrated Flight Computer/aircraft/x10_f_cfg.ks (inferred preloaded)
22.2,APPROACH,ILS_TRACK,151.63,152,0.37,450.45,374.59,-0.27,10.11,10.21,270.01,0.049,0.2447,0,20,1,0.6,4.5,0.75,0.35,0.0168,0.4,0,21.997,0,-0.377,0,270.02,0,0,1,-0.11,0,0,0,270.03,0.8515,0.0004,0.5244,0,270.02,-0.58,-55.74,8.242,0.024,10.29,1,3,663.25,8.041,0,506.21,0,0,0,,0,0,0,0,0,0,0,0,0,0,0,0,0,270.02,0,0,0,0,0,0,0,0,0,0,0,0,0,3,3,0,0,VALID,0,0,0,0,0,1,0,0,0,0,0,0,0,0,0,0,0,0,0,0,332.3,1094.84,2,0,0.175,0.175,137,5.71,0.175,0.175,22.2,FLYING,X10-F,0:/Integrated Flight Computer/aircraft/x10_f_cfg.ks (inferred preloaded)
22.55,APPROACH,ILS_TRACK,151.69,152,0.31,450.37,374.5,-0.24,10.13,10.23,270,0.047,0.2598,0,20,1,0.6,4.5,0.75,0.35,0.0168,0.4,0,21.979,0,-0.313,0,270.02,0,0,1,-0.11,0,0,0,270.03,0.8515,0.0004,0.5243,0,270.02,-0.58,-52.93,8.186,0.024,9.434,1,3,663.25,8.056,0,503.31,0,0,0,,0,0,0,0,0,0,0,0,0,0,0,0,0,270.02,0,0,0,0,0,0,0,0,0,0,0,0,0,3,3,0,0,VALID,0,0,0,0,0,1,0,0,0,0,0,0,0,0,0,0,0,0,0,0,325.2,1095.11,2,0,0.175,0.175,139,5.71,0.175,0.175,22.55,FLYING,X10-F,0:/Integrated Flight Computer/aircraft/x10_f_cfg.ks (inferred preloaded)
22.9,APPROACH,ILS_TRACK,151.72,152,0.28,450.28,374.41,-0.22,10.13,10.2,270,0.047,0.2806,0,20,1,0.6,4.5,0.75,0.35,0.0168,0.4,0,21.969,0,-0.279,0,270.03,0,0,1,-0.08,0,0,0,270.03,0.8516,0.0005,0.5242,0,270.03,-0.59,-50.11,8.131,0.027,8.569,1,3,663.25,8.079,0,500.41,0,0,0,,0,0,0,0,0,0,0,0,0,0,0,0,0,270.02,0,0,0,0,0,0,0,0,0,0,0,0,0,3,3,0,0,VALID,0,0,0,0,0,1,0,0,0,0,0,0,0,0,0,0,0,0,0,0,320.94,1095.25,2,0,0.175,0.175,141,5.71,0.175,0.175,22.9,FLYING,X10-F,0:/Integrated Flight Computer/aircraft/x10_f_cfg.ks (inferred preloaded)
23.25,APPROACH,ILS_TRACK,151.74,152,0.26,450.21,374.34,-0.24,10.12,10.2,270,0.044,0.3006,0,20,1,0.6,4.5,0.75,0.35,0.0168,0.4,0,21.965,0,-0.262,0,270.03,0,0,1,-0.08,0,0,0,270.03,0.8516,0.0005,0.5241,0,270.03,-0.59,-47.28,8.075,0.028,7.738,1,3,663.25,8.058,0,497.5,0,0,0,,0,0,0,0,0,0,0,0,0,0,0,0,0,270.02,0,0,0,0,0,0,0,0,0,0,0,0,0,3,3,0,0,VALID,0,0,0,0,0,1,0,0,0,0,0,0,0,0,0,0,0,0,0,0,319.79,1095.32,2,0,0.175,0.175,143,5.71,0.175,0.175,23.25,FLYING,X10-F,0:/Integrated Flight Computer/aircraft/x10_f_cfg.ks (inferred preloaded)
23.6,APPROACH,ILS_TRACK,151.75,152,0.25,450.14,374.27,-0.18,10.14,10.2,270,0.049,0.3158,0,20,1,0.6,4.5,0.75,0.35,0.0168,0.4,0,21.962,0,-0.253,0,270.03,0,0,1,-0.07,0,0,0,270.03,0.8517,0.0005,0.5241,0,270.03,-0.6,-44.44,8.02,0.03,6.85,1,3,663.25,8.104,0,494.6,0,0,0,,0,0,0,0,0,0,0,0,0,0,0,0,0,270.02,0,0,0,0,0,0,0,0,0,0,0,0,0,3,3,0,0,VALID,0,0,0,0,0,1,0,0,0,0,0,0,0,0,0,0,0,0,0,0,320.63,1095.36,2,0,0.175,0.175,145,5.71,0.175,0.175,23.6,FLYING,X10-F,0:/Integrated Flight Computer/aircraft/x10_f_cfg.ks (inferred preloaded)
23.95,APPROACH,ILS_TRACK,151.76,152,0.24,450.07,374.21,-0.18,10.12,10.18,270,0.047,0.324,0,20,1,0.6,4.5,0.75,0.35,0.0168,0.4,0,21.959,0,-0.24,0,270.03,0,0,1,-0.06,0,0,0,270.03,0.8517,0.0005,0.524,0,270.03,-0.61,-41.61,7.965,0.029,5.998,1,3,663.25,8.105,0,491.69,0,0,0,,0,0,0,0,0,0,0,0,0,0,0,0,0,270.02,0,0,0,0,0,0,0,0,0,0,0,0,0,3,3,0,0,VALID,0,0,0,0,0,1,0,0,0,0,0,0,0,0,0,0,0,0,0,0,322.46,1095.43,2,0,0.175,0.175,147,5.71,0.175,0.175,23.95,FLYING,X10-F,0:/Integrated Flight Computer/aircraft/x10_f_cfg.ks (inferred preloaded)
24.3,APPROACH,ILS_TRACK,151.78,152,0.22,450.02,374.15,-0.12,10.14,10.18,270,0.049,0.3257,0,20,1,0.6,4.5,0.75,0.35,0.0168,0.4,0,21.953,0,-0.22,0,270.03,0,0,1,-0.06,0,0,0,270.03,0.8518,0.0005,0.5239,0,270.03,-0.62,-38.75,7.909,0.03,5.107,1,3,663.25,8.15,0,488.79,0,0,0,,0,0,0,0,0,0,0,0,0,0,0,0,0,270.02,0,0,0,0,0,0,0,0,0,0,0,0,0,3,3,0,0,VALID,0,0,0,0,0,1,0,0,0,0,0,0,0,0,0,0,0,0,0,0,324.71,1095.52,2,0,0.175,0.175,149,5.71,0.175,0.175,24.3,FLYING,X10-F,0:/Integrated Flight Computer/aircraft/x10_f_cfg.ks (inferred preloaded)
24.65,APPROACH,ILS_TRACK,151.81,152,0.19,449.97,374.11,-0.11,10.12,10.15,270,0.048,0.3234,0,20,1,0.6,4.5,0.75,0.35,0.0168,0.4,0,21.945,0,-0.193,0,270.03,0,0,1,-0.04,0,0,0,270.03,0.8518,0.0006,0.5238,0,270.03,-0.63,-35.9,7.854,0.032,4.227,1,3,663.25,8.18,0,485.88,0,0,0,,0,0,0,0,0,0,0,0,0,0,0,0,0,270.02,0,0,0,0,0,0,0,0,0,0,0,0,0,3,3,0,0,VALID,0,0,0,0,0,1,0,0,0,0,0,0,0,0,0,0,0,0,0,0,326.91,1095.64,2,0,0.175,0.175,151,5.71,0.175,0.175,24.65,FLYING,X10-F,0:/Integrated Flight Computer/aircraft/x10_f_cfg.ks (inferred preloaded)
25,APPROACH,ILS_TRACK,151.85,152,0.15,449.93,374.06,-0.1,10.11,10.17,270,0.049,0.3172,0,20,1,0.6,4.5,0.75,0.35,0.0168,0.4,0,21.935,0,-0.157,0,270.03,0,0,1,-0.05,0,0,0,270.03,0.8519,0.0006,0.5237,0,270.03,-0.64,-33.04,7.798,0.033,3.366,1,3,663.25,8.182,0,482.98,0,0,0,,0,0,0,0,0,0,0,0,0,0,0,0,0,270.02,0,0,0,0,0,0,0,0,0,0,0,0,0,3,3,0,0,VALID,0,0,0,0,0,1,0,0,0,0,0,0,0,0,0,0,0,0,0,0,328.74,1095.8,2,0,0.175,0.175,153,5.71,0.175,0.175,25,FLYING,X10-F,0:/Integrated Flight Computer/aircraft/x10_f_cfg.ks (inferred preloaded)
25.35,APPROACH,ILS_TRACK,151.89,152,0.11,449.88,374.03,-0.11,10.08,10.11,270,0.047,0.3093,0,20,1,0.6,4.5,0.75,0.35,0.0168,0.4,0,21.923,0,-0.114,0,270.03,-0.505,0,1,-0.03,0,0,-0.05,270.03,0.8565,0.0006,0.5161,-0.51,270.03,-0.65,-30.18,7.743,0.034,2.495,1,3,663.25,8.197,-0.505,480.07,0,0,0,,0,0,0,0,0,0,0,0,0,0,0,0,0,270.02,0,0,0,0,0,0,0,0,0,0,0,0,0,3,3,0,0,VALID,0,0,0,0,0,1,0,0,0,0,0,0,0,0,0,0,0,0,0,0,329.98,1095.98,2,0,0.175,0.175,155,5.71,0.175,0.175,25.35,FLYING,X10-F,0:/Integrated Flight Computer/aircraft/x10_f_cfg.ks (inferred preloaded)
25.7,APPROACH,ILS_TRACK,151.92,152,0.08,449.7,374.08,0.28,9.6,9.35,270,0.121,0.309,0,20,1,0.6,4.5,0.75,0.35,0.0168,0.4,0,21.914,0,-0.083,0,270.04,-0.965,0,1,0.09,0,0,-0.9,270.04,0.8607,0.0006,0.5092,-0.97,270.04,-0.66,-27.4,7.687,0.037,2.035,1,3,663.25,7.729,-0.965,477.16,0,0,0,,0,0,0,0,0,0,0,0,0,0,0,0,0,270.02,0,0,0,0,0,0,0,0,0,0,0,0,0,3,3,0,0,VALID,0,0,0,0,0,1,0,0,0,0,0,0,0,0,0,0,0,0,0,0,330.53,1096.08,2,0,0.175,0.175,157,5.71,0.175,0.175,25.7,FLYING,X10-F,0:/Integrated Flight Computer/aircraft/x10_f_cfg.ks (inferred preloaded)
26.05,APPROACH,ILS_TRACK,152.01,152,-0.01,449.32,374.14,-0.18,8.08,8,270.02,0.231,0.2882,0,20,1,0.6,4.5,0.75,0.35,0.0168,0.4,0,21.894,0,-0.012,0,270.04,-1.3,0,1,-0.01,0,0,-0.99,270.04,0.8637,0.0006,0.504,-1.3,270.04,-0.68,-24.86,7.632,0.038,1.7,1,3,663.25,7.198,-1.3,474.25,0,0,0,,0,0,0,0,0,0,0,0,0,0,0,0,0,270.02,0,0,0,0,0,0,0,0,0,0,0,0,0,3,3,0,0,VALID,0,0,0,0,0,1,0,0,0,0,0,0,0,0,0,0,0,0,0,0,331.21,1096.44,2,0,0.175,0.175,159,5.71,0.175,0.175,26.05,FLYING,X10-F,0:/Integrated Flight Computer/aircraft/x10_f_cfg.ks (inferred preloaded)
26.4,APPROACH,ILS_TRACK,152.24,152,-0.24,448.95,373.95,-0.72,7.4,7.59,270.03,0.293,0.2061,0,19.945,1,0.6,4.5,0.75,0.35,0.0168,0.4,0,21.83,0,0.216,0,270.03,-2.192,0,1,-0.26,0,0,-1.75,270.04,0.8715,0.0006,0.4905,-2.19,270.03,-0.69,-22.3,7.576,0.034,0.808,1,3,663.25,7.352,-2.192,471.34,0,0,0,,0,0,0,0,0,0,0,0,0,0,0,0,0,270.02,0,0,0,0,0,0,0,0,0,0,0,0,0,3,3,0,0,VALID,0,0,0,0,0,1,0,0,0,0,0,0,0,0,0,0,0,0,0,0,327.79,1097.43,2,0,0.175,0.175,161,5.71,0.175,0.175,26.4,FLYING,X10-F,0:/Integrated Flight Computer/aircraft/x10_f_cfg.ks (inferred preloaded)
26.75,APPROACH,ILS_TRACK,152.52,152,-0.52,448.3,373.64,-1.31,6.37,6.7,270.03,0.311,0.1263,0,19.799,1,0.6,4.5,0.75,0.35,0.0168,0.4,0,21.753,0,0.49,0,270.03,-2.133,0,1,-0.42,0,0,-2.16,270.03,0.871,0.0005,0.4913,-2.13,270.03,-0.69,-19.98,7.52,0.033,0.867,1,3,663.25,6.407,-2.133,468.42,0,0,0,,0,0,0,0,0,0,0,0,0,0,0,0,0,270.02,0,0,0,0,0,0,0,0,0,0,0,0,0,3,3,0,0,VALID,0,0,0,0,0,1,0,0,0,0,0,0,0,0,0,0,0,0,0,0,314.79,1098.63,2,0,0.175,0.175,163,5.71,0.175,0.175,26.75,FLYING,X10-F,0:/Integrated Flight Computer/aircraft/x10_f_cfg.ks (inferred preloaded)
27.1,APPROACH,ILS_TRACK,152.83,152,-0.83,447.58,372.98,-2.38,5.9,6.75,270.04,0.312,0.0506,0,19.545,1,0.6,4.5,0.75,0.35,0.0168,0.4,0,21.665,0,0.801,0,270.03,-2.7,0,1,-0.81,0,0,-2.36,270.03,0.8759,0.0005,0.4826,-2.7,270.03,-0.7,-17.78,7.465,0.028,0.3,1,3,663.25,6.291,-2.7,465.5,0,0,0,,0,0,0,0,0,0,0,0,0,0,0,0,0,270.02,0,0,0,0,0,0,0,0,0,0,0,0,0,3,3,0,0,VALID,0,0,0,0,0,1,0,0,0,0,0,0,0,0,0,0,0,0,0,0,292.98,1099.97,2,0,0.175,0.175,165,5.71,0.175,0.175,27.1,FLYING,X10-F,0:/Integrated Flight Computer/aircraft/x10_f_cfg.ks (inferred preloaded)
27.45,APPROACH,ILS_TRACK,153.06,152,-1.06,446.68,372.07,-2.74,6.14,7.07,270.04,0.266,0.0231,0,19.201,1,0.6,4.5,0.75,0.35,0.0168,0.4,0,21.598,0,1.039,0,270.03,-2.918,0,1,-1.01,0,0,-2.99,270.03,0.8777,0.0004,0.4791,-2.92,270.03,-0.7,-15.67,7.409,0.026,0.082,1,3,663.25,5.775,-2.918,462.57,0,0,0,,0,0,0,0,0,0,0,0,0,0,0,0,0,270.02,0,0,0,0,0,0,0,0,0,0,0,0,0,3,3,0,0,VALID,0,0,0,0,0,1,0,0,0,0,0,0,0,0,0,0,0,0,0,0,265.15,1101.02,2,0,0.175,0.175,167,5.71,0.175,0.175,27.45,FLYING,X10-F,0:/Integrated Flight Computer/aircraft/x10_f_cfg.ks (inferred preloaded)
27.8,APPROACH,ILS_TRACK,153.21,152,-1.21,445.45,370.98,-3.53,5.6,6.81,270.03,0.224,0.0316,0,18.795,1,0.6,4.5,0.75,0.35,0.0168,0.4,0,21.554,0,1.195,0,270.02,-2.66,0,1,-1.25,0,0,-2.65,270.02,0.8756,0.0004,0.483,-2.66,270.02,-0.69,-13.94,7.353,0.023,0.34,1,3,663.25,4.802,-2.66,459.64,0,0,0,,0,0,0,0,0,0,0,0,0,0,0,0,0,270.02,0,0,0,0,0,0,0,0,0,0,0,0,0,3,3,0,0,VALID,0,0,0,0,0,1,0,0,0,0,0,0,0,0,0,0,0,0,0,0,237.69,1101.74,2,0,0.175,0.175,169,5.71,0.175,0.175,27.8,FLYING,X10-F,0:/Integrated Flight Computer/aircraft/x10_f_cfg.ks (inferred preloaded)
28.15,APPROACH,ILS_TRACK,153.26,152,-1.26,444.17,369.56,-4.36,5.89,7.52,270.03,0.182,0.0691,0,18.356,1,0.6,4.5,0.75,0.35,0.0168,0.4,0,21.535,0,1.262,0,270.02,-3.123,0,1,-1.6,0,0,-2.85,270.02,0.8795,0.0003,0.4758,-3.12,270.02,-0.68,-12.28,7.297,0.019,-0.123,1,3,663.25,4.758,-3.123,456.71,0,0,0,,0,0,0,0,0,0,0,0,0,0,0,0,0,270.02,0,0,0,0,0,0,0,0,0,0,0,0,0,3,3,0,0,VALID,0,0,0,0,0,1,0,0,0,0,0,0,0,0,0,0,0,0,0,0,214.79,1102.08,2,0,0.175,0.175,171,5.71,0.175,0.175,28.15,FLYING,X10-F,0:/Integrated Flight Computer/aircraft/x10_f_cfg.ks (inferred preloaded)
28.5,APPROACH,ILS_TRACK,153.2,152,-1.2,442.62,368,-4.63,6.12,7.74,270.03,0.136,0.139,0,17.926,1,0.6,4.5,0.75,0.35,0.0168,0.4,0,21.55,0,1.211,0,270.02,-2.814,0,1,-1.69,0,0,-3.13,270.02,0.877,0.0003,0.4805,-2.81,270.02,-0.67,-10.83,7.241,0.018,0.186,1,3,663.25,3.827,-2.814,453.78,0,0,0,,0,0,0,0,0,0,0,0,0,0,0,0,0,270.02,0,0,0,0,0,0,0,0,0,0,0,0,0,3,3,0,0,VALID,0,0,0,0,0,1,0,0,0,0,0,0,0,0,0,0,0,0,0,0,200.13,1101.96,2,0,0.175,0.175,173,5.71,0.175,0.175,28.5,FLYING,X10-F,0:/Integrated Flight Computer/aircraft/x10_f_cfg.ks (inferred preloaded)
28.85,APPROACH,ILS_TRACK,153.1,152,-1.1,440.93,366.24,-5.34,6.17,8.12,270.03,0.11,0.2045,0,17.529,1,0.6,4.5,0.75,0.35,0.0168,0.4,0,21.579,0,1.108,0,270.02,-2.942,0,1,-1.94,0,0,-2.78,270.02,0.8781,0.0003,0.4784,-2.94,270.02,-0.66,-9.59,7.185,0.018,0.058,1,3,663.25,3.523,-2.942,450.85,0,0,0,,0,0,0,0,0,0,0,0,0,0,0,0,0,270.02,0,0,0,0,0,0,0,0,0,0,0,0,0,3,3,0,0,VALID,0,0,0,0,0,1,0,0,0,0,0,0,0,0,0,0,0,0,0,0,196.03,1101.65,2,0,0.175,0.175,175,5.71,0.175,0.175,28.85,FLYING,X10-F,0:/Integrated Flight Computer/aircraft/x10_f_cfg.ks (inferred preloaded)
29.2,APPROACH,ILS_TRACK,152.94,152,-0.94,439.11,364.34,-5.43,6.61,8.53,270.02,0.08,0.2703,0,17.181,1,0.6,4.5,0.75,0.35,0.0168,0.4,0,21.622,0,0.953,0,270.02,-2.959,0,1,-2.03,0,0,-3.13,270.02,0.8783,0.0003,0.4781,-2.96,270.02,-0.65,-8.43,7.13,0.018,0.041,1,3,663.25,3.109,-2.959,447.93,0,0,0,,0,0,0,0,0,0,0,0,0,0,0,0,0,270.02,0,0,0,0,0,0,0,0,0,0,0,0,0,3,3,0,0,VALID,0,0,0,0,0,1,0,0,0,0,0,0,0,0,0,0,0,0,0,0,198.71,1101.13,2,0,0.175,0.175,177,5.71,0.175,0.175,29.2,FLYING,X10-F,0:/Integrated Flight Computer/aircraft/x10_f_cfg.ks (inferred preloaded)
29.55,APPROACH,ILS_TRACK,152.78,152,-0.78,437.08,362.36,-5.92,6.36,8.47,270.02,0.069,0.3156,0,16.889,1,0.6,4.5,0.75,0.35,0.0168,0.4,0,21.667,0,0.795,0,270.02,-2.744,0,1,-2.17,0,0,-2.71,270.02,0.8766,0.0003,0.4813,-2.74,270.02,-0.64,-7.53,7.074,0.018,0.256,1,3,663.25,2.504,-2.744,445.01,0,0,0,,0,0,0,0,0,0,0,0,0,0,0,0,0,270.02,0,0,0,0,0,0,0,0,0,0,0,0,0,3,3,0,0,VALID,0,0,0,0,0,1,0,0,0,0,0,0,0,0,0,0,0,0,0,0,205.92,1100.64,2,0,0.175,0.175,179,5.71,0.175,0.175,29.55,FLYING,X10-F,0:/Integrated Flight Computer/aircraft/x10_f_cfg.ks (inferred preloaded)
29.9,APPROACH,ILS_TRACK,152.64,152,-0.64,435.06,360.19,-6.23,6.83,9.12,270.02,0.057,0.3393,0,16.647,1,0.6,4.5,0.75,0.35,0.0168,0.4,0,21.706,0,0.657,0,270.02,-3.133,0,1,-2.35,0,0,-2.93,270.02,0.8798,0.0003,0.4753,-3.13,270.02,-0.62,-6.62,7.018,0.018,-0.133,1,3,663.25,2.648,-3.133,442.1,0,0,0,,0,0,0,0,0,0,0,0,0,0,0,0,0,270.02,0,0,0,0,0,0,0,0,0,0,0,0,0,3,3,0,0,VALID,0,0,0,0,0,1,0,0,0,0,0,0,0,0,0,0,0,0,0,0,215.65,1100.23,2,0,0.175,0.175,181,5.71,0.175,0.175,29.9,FLYING,X10-F,0:/Integrated Flight Computer/aircraft/x10_f_cfg.ks (inferred preloaded)
30.25,APPROACH,ILS_TRACK,152.5,152,-0.5,432.8,358.03,-6.28,6.66,8.86,270.02,0.051,0.3622,0,16.456,1,0.6,4.5,0.75,0.35,0.0168,0.4,0,21.748,0,0.508,0,270.02,-2.64,0,1,-2.33,0,0,-2.92,270.02,0.8758,0.0003,0.4827,-2.64,270.02,-0.61,-5.92,6.963,0.018,0.36,1,3,663.25,1.768,-2.64,439.18,0,0,0,,0,0,0,0,0,0,0,0,0,0,0,0,0,270.02,0,0,0,0,0,0,0,0,0,0,0,0,0,3,3,0,0,VALID,0,0,0,0,0,1,0,0,0,0,0,0,0,0,0,0,0,0,0,0,226.56,1099.78,2,0,0.175,0.175,183,5.71,0.175,0.175,30.25,FLYING,X10-F,0:/Integrated Flight Computer/aircraft/x10_f_cfg.ks (inferred preloaded)
30.6,APPROACH,ILS_TRACK,152.43,152,-0.43,430.51,355.73,-6.83,6.51,8.99,270.02,0.05,0.3475,0,16.3,1,0.6,4.5,0.75,0.35,0.0168,0.4,0,21.769,0,0.432,0,270.02,-2.833,0,1,-2.52,0,0,-2.65,270.02,0.8774,0.0003,0.4797,-2.83,270.02,-0.6,-5.31,6.907,0.017,0.167,1,3,663.25,1.782,-2.833,436.27,0,0,0,,0,0,0,0,0,0,0,0,0,0,0,0,0,270.02,0,0,0,0,0,0,0,0,0,0,0,0,0,3,3,0,0,VALID,0,0,0,0,0,1,0,0,0,0,0,0,0,0,0,0,0,0,0,0,238.04,1099.68,2,0,0.175,0.175,185,5.71,0.175,0.175,30.6,FLYING,X10-F,0:/Integrated Flight Computer/aircraft/x10_f_cfg.ks (inferred preloaded)
30.95,APPROACH,ILS_TRACK,152.37,152,-0.37,428.24,353.3,-6.78,7.13,9.59,270.02,0.042,0.3327,0,16.164,1,0.6,4.5,0.75,0.35,0.0168,0.4,0,21.785,0,0.375,0,270.02,-3.097,0,1,-2.58,0,0,-3.09,270.02,0.8797,0.0002,0.4756,-3.1,270.02,-0.59,-4.64,6.851,0.016,-0.097,1,3,663.25,1.86,-3.097,433.36,0,0,0,,0,0,0,0,0,0,0,0,0,0,0,0,0,270.02,0,0,0,0,0,0,0,0,0,0,0,0,0,3,3,0,0,VALID,0,0,0,0,0,1,0,0,0,0,0,0,0,0,0,0,0,0,0,0,247.61,1099.63,2,0,0.175,0.175,187,5.71,0.175,0.175,30.95,FLYING,X10-F,0:/Integrated Flight Computer/aircraft/x10_f_cfg.ks (inferred preloaded)
31.3,APPROACH,ILS_TRACK,152.3,152,-0.3,425.73,350.93,-6.93,6.73,9.18,270.01,0.042,0.3302,0,16.053,1,0.6,4.5,0.75,0.35,0.0168,0.4,0,21.806,0,0.302,0,270.02,-2.606,0,1,-2.58,0,0,-2.73,270.02,0.8756,0.0003,0.483,-2.61,270.02,-0.59,-4.22,6.796,0.018,0.394,1,3,663.25,1.089,-2.606,430.45,0,0,0,,0,0,0,0,0,0,0,0,0,0,0,0,0,270.02,0,0,0,0,0,0,0,0,0,0,0,0,0,3,3,0,0,VALID,0,0,0,0,0,1,0,0,0,0,0,0,0,0,0,0,0,0,0,0,255.69,1099.54,2,0,0.175,0.175,189,5.71,0.175,0.175,31.3,FLYING,X10-F,0:/Integrated Flight Computer/aircraft/x10_f_cfg.ks (inferred preloaded)
31.65,APPROACH,ILS_TRACK,152.32,152,-0.32,423.29,348.4,-7.41,6.8,9.53,270.01,0.041,0.2918,0,15.943,1,0.6,4.5,0.75,0.35,0.0168,0.4,0,21.801,0,0.318,0,270.02,-2.957,0,1,-2.75,0,0,-2.72,270.02,0.8786,0.0003,0.4775,-2.96,270.02,-0.58,-3.78,6.74,0.017,0.043,1,3,663.25,1.363,-2.957,427.54,0,0,0,,0,0,0,0,0,0,0,0,0,0,0,0,0,270.02,0,0,0,0,0,0,0,0,0,0,0,0,0,3,3,0,0,VALID,0,0,0,0,0,1,0,0,0,0,0,0,0,0,0,0,0,0,0,0,262.49,1099.83,2,0,0.175,0.175,191,5.71,0.175,0.175,31.65,FLYING,X10-F,0:/Integrated Flight Computer/aircraft/x10_f_cfg.ks (inferred preloaded)
32,APPROACH,ILS_TRACK,152.31,152,-0.31,420.8,345.86,-7.1,7.23,9.76,270.01,0.036,0.2745,0,15.831,1,0.6,4.5,0.75,0.35,0.0168,0.4,0,21.802,0,0.316,0,270.02,-2.934,0,1,-2.69,0,0,-3.16,270.02,0.8785,0.0003,0.4778,-2.93,270.02,-0.57,-3.31,6.685,0.018,0.066,1,3,663.25,1.157,-2.934,424.64,0,0,0,,0,0,0,0,0,0,0,0,0,0,0,0,0,270.02,0,0,0,0,0,0,0,0,0,0,0,0,0,3,3,0,0,VALID,0,0,0,0,0,1,0,0,0,0,0,0,0,0,0,0,0,0,0,0,266.25,1100.02,2,0,0.175,0.175,193,5.71,0.175,0.175,32,FLYING,X10-F,0:/Integrated Flight Computer/aircraft/x10_f_cfg.ks (inferred preloaded)
32.35,APPROACH,ILS_TRACK,152.31,152,-0.31,418.13,343.35,-7.35,6.66,9.26,270.01,0.04,0.2654,0,15.726,1,0.6,4.5,0.75,0.35,0.0168,0.4,0,21.805,0,0.306,0,270.02,-2.603,0,1,-2.73,0,0,-2.61,270.02,0.8757,0.0003,0.4828,-2.6,270.02,-0.57,-3.07,6.63,0.019,0.397,1,3,663.25,0.655,-2.603,421.73,0,0,0,,0,0,0,0,0,0,0,0,0,0,0,0,0,270.02,0,0,0,0,0,0,0,0,0,0,0,0,0,3,3,0,0,VALID,0,0,0,0,0,1,0,0,0,0,0,0,0,0,0,0,0,0,0,0,268.77,1100.21,2,0,0.175,0.175,195,5.71,0.175,0.175,32.35,FLYING,X10-F,0:/Integrated Flight Computer/aircraft/x10_f_cfg.ks (inferred preloaded)
32.7,APPROACH,ILS_TRACK,152.37,152,-0.37,415.58,340.68,-7.75,6.84,9.71,270.01,0.037,0.2286,0,15.602,1,0.6,4.5,0.75,0.35,0.0168,0.4,0,21.787,0,0.368,0,270.02,-3.021,0,1,-2.91,0,0,-2.77,270.02,0.8793,0.0003,0.4763,-3.02,270.02,-0.56,-2.74,6.574,0.019,-0.021,1,3,663.25,1.055,-3.021,418.82,0,0,0,,0,0,0,0,0,0,0,0,0,0,0,0,0,270.02,0,0,0,0,0,0,0,0,0,0,0,0,0,3,3,0,0,VALID,0,0,0,0,0,1,0,0,0,0,0,0,0,0,0,0,0,0,0,0,269.89,1100.69,2,0,0.175,0.175,197,5.71,0.175,0.175,32.7,FLYING,X10-F,0:/Integrated Flight Computer/aircraft/x10_f_cfg.ks (inferred preloaded)
33.05,APPROACH,ILS_TRACK,152.39,152,-0.39,412.95,338.02,-7.51,7.14,9.82,270.01,0.032,0.2181,0,15.465,1,0.6,4.5,0.75,0.35,0.0168,0.4,0,21.78,0,0.394,0,270.02,-2.863,0,1,-2.82,0,0,-3.1,270.02,0.878,0.0003,0.4787,-2.86,270.02,-0.56,-2.42,6.519,0.02,0.137,1,3,663.25,0.738,-2.863,415.92,0,0,0,,0,0,0,0,0,0,0,0,0,0,0,0,0,270.02,0,0,0,0,0,0,0,0,0,0,0,0,0,3,3,0,0,VALID,0,0,0,0,0,1,0,0,0,0,0,0,0,0,0,0,0,0,0,0,267.58,1101.01,2,0,0.175,0.175,199,5.71,0.175,0.175,33.05,FLYING,X10-F,0:/Integrated Flight Computer/aircraft/x10_f_cfg.ks (inferred preloaded)
33.4,APPROACH,ILS_TRACK,152.42,152,-0.42,410.27,335.35,-7.79,6.99,9.82,270.01,0.039,0.212,0,15.323,1,0.6,4.5,0.75,0.35,0.0168,0.4,0,21.774,0,0.414,0,270.02,-2.853,0,1,-2.9,0,0,-2.73,270.02,0.878,0.0004,0.4787,-2.85,270.02,-0.56,-2.22,6.463,0.024,0.147,1,3,663.25,0.647,-2.853,413.01,0,0,0,,0,0,0,0,0,0,0,0,0,0,0,0,0,270.02,0,0,0,0,0,0,0,0,0,0,0,0,0,3,3,0,0,VALID,0,0,0,0,0,1,0,0,0,0,0,0,0,0,0,0,0,0,0,0,264.44,1101.32,2,0,0.175,0.175,201,5.71,0.175,0.175,33.4,FLYING,X10-F,0:/Integrated Flight Computer/aircraft/x10_f_cfg.ks (inferred preloaded)
33.75,APPROACH,ILS_TRACK,152.42,152,-0.42,407.61,332.64,-7.63,7.27,10.01,270.01,0.032,0.2123,0,15.175,1,0.6,4.5,0.75,0.35,0.0168,0.4,0,21.772,0,0.422,0,270.02,-2.978,0,1,-2.88,0,0,-3.05,270.02,0.879,0.0004,0.4767,-2.98,270.02,-0.56,-1.95,6.408,0.022,0.022,1,3,663.25,0.702,-2.978,410.1,0,0,0,,0,0,0,0,0,0,0,0,0,0,0,0,0,270.02,0,0,0,0,0,0,0,0,0,0,0,0,0,3,3,0,0,VALID,0,0,0,0,0,1,0,0,0,0,0,0,0,0,0,0,0,0,0,0,260.83,1101.56,2,0,0.175,0.175,203,5.71,0.175,0.175,33.75,FLYING,X10-F,0:/Integrated Flight Computer/aircraft/x10_f_cfg.ks (inferred preloaded)
34.1,APPROACH,ILS_TRACK,152.4,152,-0.4,404.9,329.93,-7.83,7.16,10,270.01,0.039,0.222,0,15.032,1,0.6,4.5,0.75,0.35,0.0168,0.4,0,21.777,0,0.405,0,270.02,-2.929,0,1,-2.92,0,0,-2.82,270.02,0.8787,0.0004,0.4774,-2.93,270.02,-0.56,-1.76,6.352,0.024,0.071,1,3,663.25,0.572,-2.929,407.2,0,0,0,,0,0,0,0,0,0,0,0,0,0,0,0,0,270.02,0,0,0,0,0,0,0,0,0,0,0,0,0,3,3,0,0,VALID,0,0,0,0,0,1,0,0,0,0,0,0,0,0,0,0,0,0,0,0,258.02,1101.72,2,0,0.175,0.175,205,5.71,0.175,0.175,34.1,FLYING,X10-F,0:/Integrated Flight Computer/aircraft/x10_f_cfg.ks (inferred preloaded)
34.45,APPROACH,ILS_TRACK,152.38,152,-0.38,402.2,327.22,-7.66,7.28,10.02,270,0.039,0.2315,0,14.896,1,0.6,4.5,0.75,0.35,0.0168,0.4,0,21.784,0,0.38,0,270.02,-2.98,0,1,-2.88,0,0,-3.08,270.02,0.8791,0.0004,0.4766,-2.98,270.02,-0.56,-1.54,6.297,0.024,0.02,1,3,663.25,0.553,-2.98,404.29,0,0,0,,0,0,0,0,0,0,0,0,0,0,0,0,0,270.02,0,0,0,0,0,0,0,0,0,0,0,0,0,3,3,0,0,VALID,0,0,0,0,0,1,0,0,0,0,0,0,0,0,0,0,0,0,0,0,256.62,1101.82,2,0,0.175,0.175,207,5.71,0.175,0.175,34.45,FLYING,X10-F,0:/Integrated Flight Computer/aircraft/x10_f_cfg.ks (inferred preloaded)
34.8,APPROACH,ILS_TRACK,152.35,152,-0.35,399.47,324.5,-7.88,7.14,10.02,270,0.046,0.2395,0,14.771,1,0.6,4.5,0.75,0.35,0.0168,0.4,0,21.792,0,0.35,0,270.03,-3.002,0,1,-2.94,0,0,-2.87,270.02,0.8794,0.0004,0.4761,-3,270.03,-0.56,-1.38,6.241,0.025,-0.002,1,3,663.25,0.52,-3.002,401.39,0,0,0,,0,0,0,0,0,0,0,0,0,0,0,0,0,270.02,0,0,0,0,0,0,0,0,0,0,0,0,0,3,3,0,0,VALID,0,0,0,0,0,1,0,0,0,0,0,0,0,0,0,0,0,0,0,0,256.59,1101.93,2,0,0.175,0.175,209,5.71,0.175,0.175,34.8,FLYING,X10-F,0:/Integrated Flight Computer/aircraft/x10_f_cfg.ks (inferred preloaded)
35.15,APPROACH,ILS_TRACK,152.31,152,-0.31,396.73,321.79,-7.68,7.22,9.96,270,0.045,0.2462,0,14.657,1,0.6,4.5,0.75,0.35,0.0168,0.4,0,21.802,0,0.317,0,270.03,-3,0,1,-2.89,0,0,-3.14,270.03,0.8794,0.0004,0.4761,-3,270.03,-0.57,-1.19,6.186,0.026,0,1,3,663.25,0.446,-3,398.48,0,0,0,,0,0,0,0,0,0,0,0,0,0,0,0,0,270.02,0,0,0,0,0,0,0,0,0,0,0,0,0,3,3,0,0,VALID,0,0,0,0,0,1,0,0,0,0,0,0,0,0,0,0,0,0,0,0,257.15,1102.01,2,0,0.175,0.175,211,5.71,0.175,0.175,35.15,FLYING,X10-F,0:/Integrated Flight Computer/aircraft/x10_f_cfg.ks (inferred preloaded)
35.5,APPROACH,ILS_TRACK,152.29,152,-0.29,393.96,319.06,-7.95,6.96,9.83,270,0.056,0.2459,0,14.553,1,0.6,4.5,0.75,0.35,0.0168,0.4,0,21.808,0,0.294,0,270.03,-2.979,0,1,-2.96,0,0,-2.87,270.03,0.8793,0.0004,0.4763,-2.98,270.03,-0.57,-1.08,6.131,0.027,0.021,1,3,663.25,0.378,-2.979,395.58,0,0,0,,0,0,0,0,0,0,0,0,0,0,0,0,0,270.02,0,0,0,0,0,0,0,0,0,0,0,0,0,3,3,0,0,VALID,0,0,0,0,0,1,0,0,0,0,0,0,0,0,0,0,0,0,0,0,258.19,1102.15,2,0,0.175,0.175,213,5.71,0.175,0.175,35.5,FLYING,X10-F,0:/Integrated Flight Computer/aircraft/x10_f_cfg.ks (inferred preloaded)
35.85,APPROACH,ILS_TRACK,152.27,152,-0.27,391.23,316.28,-7.8,7.2,10.01,270,0.053,0.2433,0,14.453,1,0.6,4.5,0.75,0.35,0.0168,0.4,0,21.812,0,0.278,0,270.03,-3.13,0,1,-2.95,0,0,-3.18,270.03,0.8806,0.0004,0.4739,-3.13,270.03,-0.58,-0.89,6.075,0.027,-0.13,1,3,663.25,0.495,-3.13,392.68,0,0,0,,0,0,0,0,0,0,0,0,0,0,0,0,0,270.02,0,0,0,0,0,0,0,0,0,0,0,0,0,3,3,0,0,VALID,0,0,0,0,0,1,0,0,0,0,0,0,0,0,0,0,0,0,0,0,259.01,1102.3,2,0,0.175,0.175,215,5.71,0.175,0.175,35.85,FLYING,X10-F,0:/Integrated Flight Computer/aircraft/x10_f_cfg.ks (inferred preloaded)
36.2,APPROACH,ILS_TRACK,152.26,152,-0.26,388.43,313.53,-8.01,6.97,9.86,270,0.07,0.2443,0,14.363,1,0.6,4.5,0.75,0.35,0.0168,0.4,0,21.819,0,0.255,0,270.03,-2.974,0,1,-2.99,0,0,-2.92,270.03,0.8793,0.0004,0.4762,-2.97,270.03,-0.58,-0.8,6.02,0.028,0.026,1,3,663.25,0.268,-2.974,389.78,0,0,0,,0,0,0,0,0,0,0,0,0,0,0,0,0,270.02,0,0,0,0,0,0,0,0,0,0,0,0,0,3,3,0,0,VALID,0,0,0,0,0,1,0,0,0,0,0,0,0,0,0,0,0,0,0,0,259.76,1102.45,2,0,0.175,0.175,217,5.71,0.175,0.175,36.2,FLYING,X10-F,0:/Integrated Flight Computer/aircraft/x10_f_cfg.ks (inferred preloaded)
36.55,APPROACH,ILS_TRACK,152.24,152,-0.24,385.67,310.72,-7.9,7.2,10.04,270,0.06,0.239,0,14.275,1,0.6,4.5,0.75,0.35,0.0168,0.4,0,21.821,0,0.247,0,270.03,-3.14,0,1,-2.99,0,0,-3.17,270.03,0.8807,0.0005,0.4736,-3.14,270.03,-0.59,-0.64,5.965,0.029,-0.14,1,3,663.25,0.416,-3.14,386.88,0,0,0,,0,0,0,0,0,0,0,0,0,0,0,0,0,270.02,0,0,0,0,0,0,0,0,0,0,0,0,0,3,3,0,0,VALID,0,0,0,0,0,1,0,0,0,0,0,0,0,0,0,0,0,0,0,0,260.31,1102.64,2,0,0.175,0.175,219,5.71,0.175,0.175,36.55,FLYING,X10-F,0:/Integrated Flight Computer/aircraft/x10_f_cfg.ks (inferred preloaded)
36.9,APPROACH,ILS_TRACK,152.23,152,-0.23,382.87,307.92,-8.11,7.07,10.03,270,0.074,0.239,0,14.194,1,0.6,4.5,0.75,0.35,0.0168,0.4,0,21.826,0,0.23,0,270.03,-3.046,0,1,-3.03,0,0,-2.96,270.03,0.88,0.0005,0.475,-3.05,270.03,-0.6,-0.56,5.909,0.029,-0.046,1,3,663.25,0.27,-3.046,383.98,0,0,0,,0,0,0,0,0,0,0,0,0,0,0,0,0,270.02,0,0,0,0,0,0,0,0,0,0,0,0,0,3,3,0,0,VALID,0,0,0,0,0,1,0,0,0,0,0,0,0,0,0,0,0,0,0,0,260.63,1102.81,2,0,0.175,0.175,221,5.71,0.175,0.175,36.9,FLYING,X10-F,0:/Integrated Flight Computer/aircraft/x10_f_cfg.ks (inferred preloaded)
37.25,APPROACH,ILS_TRACK,152.22,152,-0.22,380.06,305.12,-7.94,7.18,10.03,270,0.069,0.2359,0,14.115,1,0.6,4.5,0.75,0.35,0.0168,0.4,0,21.829,0,0.22,0,270.03,-3.062,0,1,-2.99,0,0,-3.18,270.03,0.8802,0.0005,0.4746,-3.06,270.03,-0.61,-0.45,5.854,0.03,-0.062,1,3,663.25,0.247,-3.062,381.08,0,0,0,,0,0,0,0,0,0,0,0,0,0,0,0,0,270.02,0,0,0,0,0,0,0,0,0,0,0,0,0,3,3,0,0,VALID,0,0,0,0,0,1,0,0,0,0,0,0,0,0,0,0,0,0,0,0,260.77,1103,2,0,0.175,0.175,223,5.71,0.175,0.175,37.25,FLYING,X10-F,0:/Integrated Flight Computer/aircraft/x10_f_cfg.ks (inferred preloaded)
