t_s,phase,subphase,ias_ms,vapp_ms,spd_err_ms,agl_m,gear_h_m,vs_ms,pitch_deg,aoa_deg,hdg_deg,bank_deg,thr_cmd,thr_cur,thr_intg,at_gain,at_tau_s,at_a_up,at_a_dn,at_kp_thr,at_ki_spd,at_thr_slew,as_cmd_deg,as_cap_deg,as_raw_deg,as_spd_err_ms,as_active,aa_hdg_cmd_deg,aa_fpa_cmd_deg,aa_fbw,aa_dir,actual_fpa_deg,ftf_hdg_err_deg,ftf_fix_idx,kos_steer_pit_deg,kos_steer_hdg_deg,aa_dir_vx,aa_dir_vy,aa_dir_vz,aa_dir_pitch_deg,aa_dir_hdg_deg,ils_loc_m,ils_gs_m,ils_dist_km,loc_corr_deg,gs_corr_deg,gs_latched,active_gs_ang_deg,ils_intercept_alt_m,d_gs_ms,fpa_preclamped_deg,gs_nom_alt_m,flare_fpa_cmd,flare_tgt_vs,flare_frac,flare_round_blend_h,flare_round_blend_ttg,flare_round_blend,flare_mode,flare_auth_limited,flare_auth_reason,flare_vs_err,flare_fpa_err,flare_pitch_err,flare_theta_cmd_raw,flare_theta_cmd_clamped,flare_theta_clamp_active,flare_aoa_clamp_active,flare_pitch_in_cmd,elev_defl_avg_deg,elev_defl_max_deg,elev_defl_n,flare_ctrl_h_m,flare_req_up_a,flare_thr_floor,flare_tecs_et_err,flare_tecs_eb_err,flare_tecs_h_ref,flare_tecs_v_ref,flare_gamma_ref,flare_gamma_eb_term,flare_gamma_unsat,steer_hdg_deg,steer_blend,ro_loc_corr_deg,ro_hdg_err_deg,ro_yaw_tgt,ro_yaw_scale,ro_yaw_gate,yaw_cmd,roll_cmd,pitch_cmd,ro_pitch_tgt_deg,ro_pitch_err_deg,ro_pitch_ff,ro_roll_assist,flaps_cur,flaps_tgt,asc_j_ab,asc_j_rk,asc_validity,asc_q_pa,asc_q_raw_pa,asc_mach,asc_apo_m,asc_drag_n,asc_w_prop,asc_edot_aero,asc_edot_orb,asc_pitch_bias,asc_blend,asc_spooling,asc_ab_thr_ratio,asc_ab_t_now,asc_ab_t_avail,asc_ab_ign_on,asc_ab_flameouts,asc_rk_t_now,asc_rk_t_avail,asc_rk_ign_on,asc_rk_flameouts,ship_thrust,ship_avail_thrust,ship_ign_on,ship_flameouts,ifc_raw_dt_s,ifc_dt_s,ifc_loop_n,ifc_hz_est,ifc_raw_dt_max_s,ifc_raw_dt_min_s,phase_el_s,status,craft_name,cfg_file
3.48,TAKEOFF,TO_PREFLIGHT,0.53,80,79.47,5.19,-3.23,-0.03,0.15,-0.56,89.98,0.104,0.072,0,0,0,0,0,0,0,0,0,0,0,0,0,0,90,0,1,0,1.48,0,0,0,90,0,0,0,0,0,0,0,0,0,0,0,3,0,0,0,69,0,0,0,0,0,0,,0,NONE,0,0,0,0,0,0,0,0,0,0,0,0,0,0,0,0,0,0,0,0,0,90,1,0,-0.02,0,0,1,0,0,0,0,0,0,0,0,2,0,0,VALID,0,0,0,0,0,1,0,0,0,0,0,0,0,0,0,0,0,0,0,0,0,2311.65,6,0,0.18,0.18,1,0.28,0.18,0.02,3.32,LANDED,X11-E,0:/Integrated Flight Computer/aircraft/x11_e_cfg.ks (inferred preloaded)
3.8,TAKEOFF,TO_PREFLIGHT,0.54,80,79.46,5.28,-3.26,0.03,-0.08,-3.65,89.88,0.103,0.352,0,0,0,0,0,0,0,0,0,0,0,0,0,0,90,0,1,0,1.98,0,0,0,90,0,0,0,0,0,0,0,0,0,0,0,3,0,0,0,69,0,0,0,0,0,0,,0,NONE,0,0,0,0,0,0,0,0,0,0,0,0,0,0,0,0,0,0,0,0,0,90,1,0,-0.02,0,0,1,0,0,0,0,0,0,0,1,2,0,0,VALID,0,0,0,0,0,1,0,0,0,0,0,0,0,0,0,0,0,0,0,0,24.44,2311.64,6,0,0.06,0.06,5,13.33,3.4,0.06,3.62,LANDED,X11-E,0:/Integrated Flight Computer/aircraft/x11_e_cfg.ks (inferred preloaded)
4.1,TAKEOFF,TO_PREFLIGHT,0.52,80,79.48,5.1,-3.23,-0.04,-0.35,3.86,89.87,0.098,0.472,0,0,0,0,0,0,0,0,0,0,0,0,0,0,90,0,1,0,-2.24,0,0,0,90,0,0,0,0,0,0,0,0,0,0,0,3,0,0,0,69,0,0,0,0,0,0,,0,NONE,0,0,0,0,0,0,0,0,0,0,0,0,0,0,0,0,0,0,0,0,0,90,1,0,-0.02,0,0,1,0,0,0,0,0,0,0,2,2,0,0,VALID,0,0,0,0,0,1,0,0,0,0,0,0,0,0,0,0,0,0,0,0,74.74,2311.66,6,0,0.06,0.06,10,16.67,0.08,0.04,3.92,LANDED,X11-E,0:/Integrated Flight Computer/aircraft/x11_e_cfg.ks (inferred preloaded)
4.36,TAKEOFF,TO_PREFLIGHT,0.5,80,79.5,5.08,-3.24,0.02,-0.41,-2.09,89.87,0.096,0.576,0,0,0,0,0,0,0,0,0,0,0,0,0,0,90,0,1,0,0.87,0,0,0,90,0,0,0,0,0,0,0,0,0,0,0,3,0,0,0,69,0,0,0,0,0,0,,0,NONE,0,0,0,0,0,0,0,0,0,0,0,0,0,0,0,0,0,0,0,0,0,90,1,0,-0.02,0,0,1,0,0,0,0,0,0,0,2,2,0,0,VALID,0,0,0,0,0,1,0,0,0,0,0,0,0,0,0,0,0,0,0,0,128.85,2311.71,6,0,0.04,0.04,14,15.38,0.08,0.04,4.18,LANDED,X11-E,0:/Integrated Flight Computer/aircraft/x11_e_cfg.ks (inferred preloaded)
4.64,TAKEOFF,TO_PREFLIGHT,0.51,80,79.49,5.26,-3.24,-0.04,-0.14,3.75,89.9,0.094,0.688,0,0,0,0,0,0,0,0,0,0,0,0,0,0,90,0,1,0,-2.13,0,0,0,90,0,0,0,0,0,0,0,0,0,0,0,3,0,0,0,69,0,0,0,0,0,0,,0,NONE,0,0,0,0,0,0,0,0,0,0,0,0,0,0,0,0,0,0,0,0,0,90,1,0,-0.02,0,0,1,0,0,0,0,0,0,0,2,2,0,0,VALID,0,0,0,0,0,1,0,0,0,0,0,0,0,0,0,0,0,0,0,0,197.93,2311.69,6,0,0.06,0.06,18,14.29,0.08,0.04,4.46,LANDED,X11-E,0:/Integrated Flight Computer/aircraft/x11_e_cfg.ks (inferred preloaded)
4.9,TAKEOFF,TO_PREFLIGHT,0.56,80,79.44,5.21,-3.25,0.02,-0.17,-1.78,89.92,0.111,0.792,0,0,0,0,0,0,0,0,0,0,0,0,0,0,90,0,1,0,0.99,0,0,0,90,0,0,0,0,0,0,0,0,0,0,0,3,0,0,0,69,0,0,0,0,0,0,,0,NONE,0,0,0,0,0,0,0,0,0,0,0,0,0,0,0,0,0,0,0,0,0,90,1,0,-0.02,0,0,1,0,0,0,0,0,0,0,2,2,0,0,VALID,0,0,0,0,0,1,0,0,0,0,0,0,0,0,0,0,0,0,0,0,270.98,2311.6,6,0,0.04,0.04,22,15.38,0.1,0.04,4.72,LANDED,X11-E,0:/Integrated Flight Computer/aircraft/x11_e_cfg.ks (inferred preloaded)
5.18,TAKEOFF,TO_PREFLIGHT,0.68,80,79.32,5.08,-3.24,-0.01,-0.39,0.23,89.92,0.104,0.904,0,0,0,0,0,0,0,0,0,0,0,0,0,0,90,0,1,0,-0.47,0,0,0,90,0,0,0,0,0,0,0,0,0,0,0,3,0,0,0,69,0,0,0,0,0,0,,0,NONE,0,0,0,0,0,0,0,0,0,0,0,0,0,0,0,0,0,0,0,0,0,90,1,0,-0.02,0,0,1,0,0,0,0,0,0,0,2,2,0,0,VALID,0,0,0,0,0,1,0,0,0,0,0,0,0,0,0,0,0,0,0,0,359.37,2311.4,6,0,0.06,0.06,26,14.29,0.1,0.04,5,LANDED,X11-E,0:/Integrated Flight Computer/aircraft/x11_e_cfg.ks (inferred preloaded)
5.44,TAKEOFF,TO_PREFLIGHT,0.83,80,79.17,5.14,-3.25,-0.02,-0.32,0.6,89.9,0.099,1,0,0,0,0,0,0,0,0,0,0,0,0,0,0,90,0,1,0,-0.87,0,0,0,90,0,0,0,0,0,0,0,0,0,0,0,3,0,0,0,69,0,0,0,0,0,0,,0,NONE,0,0,0,0,0,0,0,0,0,0,0,0,0,0,0,0,0,0,0,0,0,90,1,0,-0.02,0,0,1,0,0,0,0,0,0,0,2,2,0,0,VALID,0,0,0,0,0,1,0,0,0,0,0,0,0,0,0,0,0,0,0,0,449.52,2311.14,6,0,0.04,0.04,30,15.38,0.1,0.04,5.26,LANDED,X11-E,0:/Integrated Flight Computer/aircraft/x11_e_cfg.ks (inferred preloaded)
5.72,TAKEOFF,TO_PREFLIGHT,1.07,80,78.93,5.26,-3.25,-0.01,-0.14,0.32,89.88,0.104,1,0,0,0,0,0,0,0,0,0,0,0,0,0,0,90,0,1,0,-0.53,0,0,0,90,0,0,0,0,0,0,0,0,0,0,0,3,0,0,0,69,0,0,0,0,0,0,,0,NONE,0,0,0,0,0,0,0,0,0,0,0,0,0,0,0,0,0,0,0,0,0,90,1,0,-0.02,0,0,1,0,0,0,0,0,0,0,2,2,0,0,VALID,0,0,0,0,0,1,0,0,0,0,0,0,0,0,0,0,0,0,0,0,550.87,2310.73,6,0,0.06,0.06,34,14.29,0.1,0.04,5.54,LANDED,X11-E,0:/Integrated Flight Computer/aircraft/x11_e_cfg.ks (inferred preloaded)
5.98,TAKEOFF,TO_PREFLIGHT,1.37,80,78.63,5.17,-3.25,0,-0.25,-0.14,89.85,0.096,1,0,0,0,0,0,0,0,0,0,0,0,0,0,0,90,0,1,0,-0.13,0,0,0,90,0,0,0,0,0,0,0,0,0,0,0,3,0,0,0,69,0,0,0,0,0,0,,0,NONE,0,0,0,0,0,0,0,0,0,0,0,0,0,0,0,0,0,0,0,0,0,90,1,0,-0.02,0,0,1,0,0,0,0,0,0,0,2,2,0,0,VALID,0,0,0,0,0,1,0,0,0,0,0,0,0,0,0,0,0,0,0,0,640.08,2310.22,6,0,0.04,0.04,38,15.38,0.1,0.04,5.8,LANDED,X11-E,0:/Integrated Flight Computer/aircraft/x11_e_cfg.ks (inferred preloaded)
6.26,TAKEOFF,TO_PREFLIGHT,1.76,80,78.24,5.1,-3.25,-0.01,-0.38,-0.15,89.82,0.109,1,0,0,0,0,0,0,0,0,0,0,0,0,0,0,90,0,1,0,-0.25,0,0,0,90,0,0,0,0,0,0,0,0,0,0,0,3,0,0,0,69,0,0,0,0,0,0,,0,NONE,0,0,0,0,0,0,0,0,0,0,0,0,0,0,0,0,0,0,0,0,0,90,1,0,-0.02,0,0,1,0,0,0,0,0,0,0,2,2,0,0,VALID,0,0,0,0,0,1,0,0,0,0,0,0,0,0,0,0,0,0,0,0,731.01,2309.55,6,0,0.06,0.06,42,14.29,0.1,0.04,6.08,LANDED,X11-E,0:/Integrated Flight Computer/aircraft/x11_e_cfg.ks (inferred preloaded)
6.52,TAKEOFF,TO_PREFLIGHT,2.16,80,77.84,5.18,-3.26,-0.03,-0.25,0.43,89.78,0.098,1,0,0,0,0,0,0,0,0,0,0,0,0,0,0,90,0,1,0,-0.77,0,0,0,90,0,0,0,0,0,0,0,0,0,0,0,3,0,0,0,69,0,0,0,0,0,0,,0,NONE,0,0,0,0,0,0,0,0,0,0,0,0,0,0,0,0,0,0,0,0,0,90,1,0,-0.02,0,0,1,0,0,0,0,0,0,0,2,2,0,0,VALID,0,0,0,0,0,1,0,0,0,0,0,0,0,0,0,0,0,0,0,0,810.91,2308.84,6,0,0.04,0.04,46,15.38,0.1,0.04,6.34,LANDED,X11-E,0:/Integrated Flight Computer/aircraft/x11_e_cfg.ks (inferred preloaded)
6.8,TAKEOFF,TO_PREFLIGHT,2.67,80,77.33,5.23,-3.26,-0.01,-0.17,-0.01,89.73,0.105,1,0,0,0,0,0,0,0,0,0,0,0,0,0,0,90,0,1,0,-0.17,0,0,0,90,0,0,0,0,0,0,0,0,0,0,0,3,0,0,0,69,0,0,0,0,0,0,,0,NONE,0,0,0,0,0,0,0,0,0,0,0,0,0,0,0,0,0,0,0,0,0,90,1,0,-0.02,0,0,1,0,0,0,0,0,0,0,2,2,0,0,VALID,0,0,0,0,0,1,0,0,0,0,0,0,0,0,0,0,0,0,0,0,892.31,2307.97,6,0,0.06,0.06,50,14.29,0.1,0.04,6.62,LANDED,X11-E,0:/Integrated Flight Computer/aircraft/x11_e_cfg.ks (inferred preloaded)
7.06,TAKEOFF,TO_PREFLIGHT,3.19,80,76.81,5.14,-3.26,-0.02,-0.3,0.01,89.68,0.097,1,0,0,0,0,0,0,0,0,0,0,0,0,0,0,90,0,1,0,-0.35,0,0,0,90,0,0,0,0,0,0,0,0,0,0,0,3,0,0,0,69,0,0,0,0,0,0,,0,NONE,0,0,0,0,0,0,0,0,0,0,0,0,0,0,0,0,0,0,0,0,0,90,1,0,-0.02,0,0,1,0,0,0,0,0,0,0,2,2,0,0,VALID,0,0,0,0,0,1,0,0,0,0,0,0,0,0,0,0,0,0,0,0,963.8,2307.04,6,0,0.04,0.04,54,15.38,0.1,0.04,6.88,LANDED,X11-E,0:/Integrated Flight Computer/aircraft/x11_e_cfg.ks (inferred preloaded)
7.34,TAKEOFF,TO_PREFLIGHT,3.81,80,76.19,5.12,-3.27,-0.02,-0.34,-0.06,89.62,0.107,1,0,0,0,0,0,0,0,0,0,0,0,0,0,0,90,0,1,0,-0.31,0,0,0,90,0,0,0,0,0,0,0,0,0,0,0,3,0,0,0,69,0,0,0,0,0,0,,0,NONE,0,0,0,0,0,0,0,0,0,0,0,0,0,0,0,0,0,0,0,0,0,90,1,0,-0.02,0,0,1,0,0,0,0,0,0,0,2,2,0,0,VALID,0,0,0,0,0,1,0,0,0,0,0,0,0,0,0,0,0,0,0,0,1036.62,2305.95,6,0,0.06,0.06,58,14.29,0.1,0.04,7.16,LANDED,X11-E,0:/Integrated Flight Computer/aircraft/x11_e_cfg.ks (inferred preloaded)
7.6,TAKEOFF,TO_PREFLIGHT,4.42,80,75.58,5.21,-3.28,-0.04,-0.21,0.23,89.56,0.097,1,0,0,0,0,0,0,0,0,0,0,0,0,0,0,90,0,1,0,-0.49,0,0,0,90,0,0,0,0,0,0,0,0,0,0,0,3,0,0,0,69,0,0,0,0,0,0,,0,NONE,0,0,0,0,0,0,0,0,0,0,0,0,0,0,0,0,0,0,0,0,0,90,1,0,-0.02,0,0,1,0,0,0,0,0,0,0,2,2,0,0,VALID,0,0,0,0,0,1,0,0,0,0,0,0,0,0,0,0,0,0,0,0,1100.55,2304.86,6,0,0.04,0.04,62,15.38,0.1,0.04,7.42,LANDED,X11-E,0:/Integrated Flight Computer/aircraft/x11_e_cfg.ks (inferred preloaded)
7.86,TAKEOFF,TO_PREFLIGHT,5.14,80,74.86,5.2,-3.29,-0.02,-0.21,0,89.5,0.108,1,0,0,0,0,0,0,0,0,0,0,0,0,0,0,90,0,1,0,-0.23,0,0,0,90,0,0,0,0,0,0,0,0,0,0,0,3,0,0,0,69,0,0,0,0,0,0,,0,NONE,0,0,0,0,0,0,0,0,0,0,0,0,0,0,0,0,0,0,0,0,0,90,1,0,-0.02,0,0,1,0,0,0,0,0,0,0,2,2,0,0,VALID,0,0,0,0,0,1,0,0,0,0,0,0,0,0,0,0,0,0,0,0,1165.62,2303.58,6,0,0.06,0.06,66,14.29,0.1,0.04,7.7,LANDED,X11-E,0:/Integrated Flight Computer/aircraft/x11_e_cfg.ks (inferred preloaded)
8.12,TAKEOFF,TO_PREFLIGHT,5.85,80,74.15,5.13,-3.29,-0.04,-0.32,0,89.44,0.095,1,0,0,0,0,0,0,0,0,0,0,0,0,0,0,90,0,1,0,-0.35,0,0,0,90,0,0,0,0,0,0,0,0,0,0,0,3,0,0,0,69,0,0,0,0,0,0,,0,NONE,0,0,0,0,0,0,0,0,0,0,0,0,0,0,0,0,0,0,0,0,0,90,1,0,-0.02,0,0,1,0,0,0,0,0,0,0,2,2,0,0,VALID,0,0,0,0,0,1,0,0,0,0,0,0,0,0,0,0,0,0,0,0,1222.72,2302.29,6,0,0.04,0.04,70,15.38,0.1,0.04,7.96,LANDED,X11-E,0:/Integrated Flight Computer/aircraft/x11_e_cfg.ks (inferred preloaded)
8.4,TAKEOFF,TO_PREFLIGHT,6.65,80,73.35,5.15,-3.3,-0.04,-0.3,0.01,89.36,0.109,1,0,0,0,0,0,0,0,0,0,0,0,0,0,0,90,0,1,0,-0.34,0,0,0,90,0,0,0,0,0,0,0,0,0,0,0,3,0,0,0,69,0,0,0,0,0,0,,0,NONE,0,0,0,0,0,0,0,0,0,0,0,0,0,0,0,0,0,0,0,0,0,90,1,0,-0.02,0,0,1,0,0,0,0,0,0,0,2,2,0,0,VALID,0,0,0,0,0,1,0,0,0,0,0,0,0,0,0,0,0,0,0,0,1280.83,2300.84,6,0,0.06,0.06,74,14.29,0.1,0.04,8.24,LANDED,X11-E,0:/Integrated Flight Computer/aircraft/x11_e_cfg.ks (inferred preloaded)
8.66,TAKEOFF,TO_PREFLIGHT,7.43,80,72.57,5.21,-3.32,-0.05,-0.2,0.14,89.29,0.099,1,0,0,0,0,0,0,0,0,0,0,0,0,0,0,90,0,1,0,-0.38,0,0,0,90,0,0,0,0,0,0,0,0,0,0,0,3,0,0,0,69,0,0,0,0,0,0,,0,NONE,0,0,0,0,0,0,0,0,0,0,0,0,0,0,0,0,0,0,0,0,0,90,1,0,-0.02,0,0,1,0,0,0,0,0,0,0,2,2,0,0,VALID,0,0,0,0,0,1,0,0,0,0,0,0,0,0,0,0,0,0,0,0,1331.8,2299.41,6,0,0.04,0.04,78,15.38,0.1,0.04,8.5,LANDED,X11-E,0:/Integrated Flight Computer/aircraft/x11_e_cfg.ks (inferred preloaded)
8.94,TAKEOFF,TO_PREFLIGHT,8.31,80,71.69,5.17,-3.33,-0.04,-0.25,0.01,89.2,0.11,1,0,0,0,0,0,0,0,0,0,0,0,0,0,0,90,0,1,0,-0.28,0,0,0,90,0,0,0,0,0,0,0,0,0,0,0,3,0,0,0,69,0,0,0,0,0,0,,0,NONE,0,0,0,0,0,0,0,0,0,0,0,0,0,0,0,0,0,0,0,0,0,90,1,0,-0.02,0,0,1,0,0,0,0,0,0,0,2,2,0,0,VALID,0,0,0,0,0,1,0,0,0,0,0,0,0,0,0,0,0,0,0,0,1383.63,2297.79,6,0,0.06,0.06,82,14.29,0.1,0.04,8.78,LANDED,X11-E,0:/Integrated Flight Computer/aircraft/x11_e_cfg.ks (inferred preloaded)
9.2,TAKEOFF,TO_PREFLIGHT,9.16,80,70.84,5.13,-3.34,-0.05,-0.32,-0.01,89.12,0.099,1,0,0,0,0,0,0,0,0,0,0,0,0,0,0,90,0,1,0,-0.34,0,0,0,90,0,0,0,0,0,0,0,0,0,0,0,3,0,0,0,69,0,0,0,0,0,0,,0,NONE,0,0,0,0,0,0,0,0,0,0,0,0,0,0,0,0,0,0,0,0,0,90,1,0,-0.02,0,0,1,0,0,0,0,0,0,0,2,2,0,0,VALID,0,0,0,0,0,1,0,0,0,0,0,0,0,0,0,0,0,0,0,0,1429.07,2296.21,6,0,0.04,0.04,86,15.38,0.1,0.04,9.04,LANDED,X11-E,0:/Integrated Flight Computer/aircraft/x11_e_cfg.ks (inferred preloaded)
9.48,TAKEOFF,TO_GROUND_ROLL,10.11,80,69.89,5.17,-3.36,-0.06,-0.26,0.05,89.03,0.11,1,0,0,0,0,0,0,0,0,0,0,0,0,0,0,90,0,1,0,-0.35,0,0,0,90,0,0,0,0,0,0,0,0,0,0,0,3,0,0,0,69,0,0,0,0,0,0,,0,NONE,0,0,0,0,0,0,0,0,0,0,0,0,0,0,0,0,0,0,0,0,0,90,1,0,-0.02,0,0,1,0,0,0,0,0,0,0,2,2,0,0,VALID,0,0,0,0,0,1,0,0,0,0,0,0,0,0,0,0,0,0,0,0,1475.25,2294.43,6,0,0.06,0.06,90,14.29,0.1,0.04,9.32,LANDED,X11-E,0:/Integrated Flight Computer/aircraft/x11_e_cfg.ks (inferred preloaded)
9.78,TAKEOFF,TO_GROUND_ROLL,11.12,80,68.88,5.2,-3.38,-0.06,-0.21,0.09,88.93,0.108,1,0,0,0,0,0,0,0,0,0,0,0,0,0,0,90.07,0,1,0,-0.32,0,0,0,90,0,0,0,0,0,0,0,0,0.009,0,0,3,0,0,0,69,0,0,0,0,0,0,,0,NONE,0,0,0,0,0,0,0,0,0,0,0,0,0,0,0,0,0,0,0,0,0,90.07,1,0.009,-1.137,0.0404,0.661,0,0.0404,0,0,0,0,0,0,2,2,0,0,VALID,0,0,0,0,0,1,0,0,0,0,0,0,0,0,0,0,0,0,0,0,1521.7,2292.37,6,0,0.06,0.06,94,14.29,0.08,0.06,9.6,LANDED,X11-E,0:/Integrated Flight Computer/aircraft/x11_e_cfg.ks (inferred preloaded)
10.08,TAKEOFF,TO_GROUND_ROLL,12.31,80,67.69,5.16,-3.4,-0.07,-0.28,0.02,88.84,0.109,1,0,0,0,0,0,0,0,0,0,0,0,0,0,0,90.06,0,1,0,-0.32,0,0,0,90,0,0,0,0,0,0,0,0,0.013,0,0,3,0,0,0,69,0,0,0,0,0,0,,0,NONE,0,0,0,0,0,0,0,0,0,0,0,0,0,0,0,0,0,0,0,0,0,90.06,1,0.013,-1.214,0.0427,0.673,0,0.0427,0,0,0,0,0,0,2,2,0,0,VALID,0,0,0,0,0,1,0,0,0,0,0,0,0,0,0,0,0,0,0,0,1565.12,2290.08,6,0,0.06,0.06,98,13.33,0.1,0.06,9.9,LANDED,X11-E,0:/Integrated Flight Computer/aircraft/x11_e_cfg.ks (inferred preloaded)
10.36,TAKEOFF,TO_GROUND_ROLL,13.47,80,66.53,5.15,-3.41,-0.08,-0.29,0.02,88.78,0.104,1,0,0,0,0,0,0,0,0,0,0,0,0,0,0,90.05,0,1,0,-0.33,0,0,0,90,0,0,0,0,0,0,0,0,0.017,0,0,3,0,0,0,69,0,0,0,0,0,0,,0,NONE,0,0,0,0,0,0,0,0,0,0,0,0,0,0,0,0,0,0,0,0,0,90.05,1,0.017,-1.272,0.0445,0.685,0,0.0445,0,0,0,0,0,0,2,2,0,0,VALID,0,0,0,0,0,1,0,0,0,0,0,0,0,0,0,0,0,0,0,0,1603.14,2287.86,6,0,0.06,0.06,102,14.29,0.08,0.06,10.18,LANDED,X11-E,0:/Integrated Flight Computer/aircraft/x11_e_cfg.ks (inferred preloaded)
10.64,TAKEOFF,TO_GROUND_ROLL,14.65,80,65.35,5.19,-3.44,-0.09,-0.22,0.09,88.73,0.108,1,0,0,0,0,0,0,0,0,0,0,0,0,0,0,90.05,0,1,0,-0.34,0,0,0,90,0,0,0,0,0,0,0,0,0.021,0,0,3,0,0,0,69,0,0,0,0,0,0,,0,NONE,0,0,0,0,0,0,0,0,0,0,0,0,0,0,0,0,0,0,0,0,0,90.05,1,0.021,-1.315,0.0458,0.696,0,0.0458,0,0,0,0,0,0,2,2,0,0,VALID,0,0,0,0,0,1,0,0,0,0,0,0,0,0,0,0,0,0,0,0,1638.87,2285.57,6,0,0.06,0.06,106,14.29,0.08,0.06,10.46,LANDED,X11-E,0:/Integrated Flight Computer/aircraft/x11_e_cfg.ks (inferred preloaded)
10.92,TAKEOFF,TO_GROUND_ROLL,15.85,80,64.15,5.18,-3.46,-0.09,-0.23,0.06,88.7,0.106,1,0,0,0,0,0,0,0,0,0,0,0,0,0,0,90.04,0,1,0,-0.32,0,0,0,90,0,0,0,0,0,0,0,0,0.026,0,0,3,0,0,0,69,0,0,0,0,0,0,,0,NONE,0,0,0,0,0,0,0,0,0,0,0,0,0,0,0,0,0,0,0,0,0,90.04,1,0.026,-1.347,0.047,0.709,0,0.047,0,0,0,0,0,0,2,2,0,0,VALID,0,0,0,0,0,1,0,0,0,0,0,0,0,0,0,0,0,0,0,0,1672.44,2283.2,6,0,0.06,0.06,110,14.29,0.08,0.06,10.74,LANDED,X11-E,0:/Integrated Flight Computer/aircraft/x11_e_cfg.ks (inferred preloaded)
11.2,TAKEOFF,TO_GROUND_ROLL,17.08,80,62.92,5.15,-3.49,-0.1,-0.29,0.01,88.68,0.106,1,0,0,0,0,0,0,0,0,0,0,0,0,0,0,90.04,0,1,0,-0.32,0,0,0,90,0,0,0,0,0,0,0,0,0.032,0,0,3,0,0,0,69,0,0,0,0,0,0,,0,NONE,0,0,0,0,0,0,0,0,0,0,0,0,0,0,0,0,0,0,0,0,0,90.04,1,0.032,-1.367,0.0478,0.721,0,0.0478,0,0,0,0,0,0,2,2,0,0,VALID,0,0,0,0,0,1,0,0,0,0,0,0,0,0,0,0,0,0,0,0,1703.97,2280.78,6,0,0.06,0.06,114,14.29,0.08,0.06,11.02,LANDED,X11-E,0:/Integrated Flight Computer/aircraft/x11_e_cfg.ks (inferred preloaded)
11.48,TAKEOFF,TO_GROUND_ROLL,18.34,80,61.66,5.17,-3.52,-0.11,-0.26,0.05,88.67,0.105,1,0,0,0,0,0,0,0,0,0,0,0,0,0,0,90.04,0,1,0,-0.33,0,0,0.01,90,0,0,0,0,0,0,0,0,0.038,0,0,3,0,0,0,69,0,0,0,0,0,0,,0,NONE,0,0,0,0,0,0,0,0,0,0,0,0,0,0,0,0,0,0,0,0,0,90.04,1,0.038,-1.374,0.0481,0.733,0,0.0481,0,0,0,0,0,0,2,2,0,0,VALID,0,0,0,0,0,1,0,0,0,0,0,0,0,0,0,0,0,0,0,0,1733.56,2278.28,6,0,0.06,0.06,118,14.29,0.08,0.06,11.3,LANDED,X11-E,0:/Integrated Flight Computer/aircraft/x11_e_cfg.ks (inferred preloaded)
11.76,TAKEOFF,TO_GROUND_ROLL,19.61,80,60.39,5.19,-3.55,-0.11,-0.22,0.08,88.67,0.106,1,0,0,0,0,0,0,0,0,0,0,0,0,0,0,90.04,0,1,0,-0.33,0,0,0.01,90,0,0,0,0,0,0,0,0,0.045,0,0,3,0,0,0,69,0,0,0,0,0,0,,0,NONE,0,0,0,0,0,0,0,0,0,0,0,0,0,0,0,0,0,0,0,0,0,90.04,1,0.045,-1.37,0.0481,0.746,0,0.0481,0,0,0,0,0,0,2,2,0,0,VALID,0,0,0,0,0,1,0,0,0,0,0,0,0,0,0,0,0,0,0,0,1761.32,2275.74,6,0,0.06,0.06,122,14.29,0.08,0.06,11.58,LANDED,X11-E,0:/Integrated Flight Computer/aircraft/x11_e_cfg.ks (inferred preloaded)
12.04,TAKEOFF,TO_GROUND_ROLL,20.91,80,59.09,5.16,-3.58,-0.12,-0.26,0.03,88.68,0.105,1,0,0,0,0,0,0,0,0,0,0,0,0,0,0,90.04,0,1,0,-0.31,0,0,0.01,90,0,0,0,0,0,0,0,0,0.052,0,0,3,0,0,0,69,0,0,0,0,0,0,,0,NONE,0,0,0,0,0,0,0,0,0,0,0,0,0,0,0,0,0,0,0,0,0,90.04,1,0.052,-1.357,0.0478,0.759,0,0.0478,0,0,0,0,0,0,2,2,0,0,VALID,0,0,0,0,0,1,0,0,0,0,0,0,0,0,0,0,0,0,0,0,1787.36,2273.13,6,0,0.06,0.06,126,14.29,0.08,0.06,11.86,LANDED,X11-E,0:/Integrated Flight Computer/aircraft/x11_e_cfg.ks (inferred preloaded)
12.34,TAKEOFF,TO_GROUND_ROLL,22.32,80,57.68,5.16,-3.61,-0.13,-0.28,0.03,88.71,0.106,1,0,0,0,0,0,0,0,0,0,0,0,0,0,0,90.04,0,1,0,-0.32,0,0,0.01,90,0,0,0,0,0,0,0,0,0.06,0,0,3,0,0,0,69,0,0,0,0,0,0,,0,NONE,0,0,0,0,0,0,0,0,0,0,0,0,0,0,0,0,0,0,0,0,0,90.04,1,0.06,-1.332,0.0471,0.773,0,0.0471,0,0,0,0,0,0,2,2,0,0,VALID,0,0,0,0,0,1,0,0,0,0,0,0,0,0,0,0,0,0,0,0,1813.44,2270.28,6,0,0.06,0.06,130,13.33,0.1,0.06,12.16,LANDED,X11-E,0:/Integrated Flight Computer/aircraft/x11_e_cfg.ks (inferred preloaded)
12.62,TAKEOFF,TO_GROUND_ROLL,23.65,80,56.35,5.18,-3.65,-0.13,-0.24,0.06,88.75,0.106,1,0,0,0,0,0,0,0,0,0,0,0,0,0,0,90.04,0,1,0,-0.32,0,0,0.01,90,0,0,0,0,0,0,0,0,0.068,0,0,3,0,0,0,69,0,0,0,0,0,0,,0,NONE,0,0,0,0,0,0,0,0,0,0,0,0,0,0,0,0,0,0,0,0,0,90.04,1,0.068,-1.298,0.0461,0.787,0,0.0461,0,0,0,0,0,0,2,2,0,0,VALID,0,0,0,0,0,1,0,0,0,0,0,0,0,0,0,0,0,0,0,0,1836.19,2267.57,6,0,0.06,0.06,134,14.29,0.08,0.06,12.44,LANDED,X11-E,0:/Integrated Flight Computer/aircraft/x11_e_cfg.ks (inferred preloaded)
12.92,TAKEOFF,TO_GROUND_ROLL,25.1,80,54.9,5.18,-3.7,-0.14,-0.24,0.06,88.79,0.103,1,0,0,0,0,0,0,0,0,0,0,0,0,0,0,90.05,0,1,0,-0.32,0,0,0.01,90,0,0,0,0,0,0,0,0,0.077,0,0,3,0,0,0,69,0,0,0,0,0,0,,0,NONE,0,0,0,0,0,0,0,0,0,0,0,0,0,0,0,0,0,0,0,0,0,90.05,1,0.077,-1.254,0.0446,0.801,0,0.0446,0,0,0,0,0,0,2,2,0,0,VALID,0,0,0,0,0,1,0,0,0,0,0,0,0,0,0,0,0,0,0,0,1858.95,2264.62,6,0,0.06,0.06,138,13.33,0.1,0.06,12.74,LANDED,X11-E,0:/Integrated Flight Computer/aircraft/x11_e_cfg.ks (inferred preloaded)
13.2,TAKEOFF,TO_GROUND_ROLL,26.47,80,53.53,5.15,-3.74,-0.15,-0.27,0.02,88.84,0.103,1,0,0,0,0,0,0,0,0,0,0,0,0,0,0,90.05,0,1,0,-0.32,0,0,0.01,90,0,0,0,0,0,0,0,0,0.086,0,0,3,0,0,0,69,0,0,0,0,0,0,,0,NONE,0,0,0,0,0,0,0,0,0,0,0,0,0,0,0,0,0,0,0,0,0,90.05,1,0.086,-1.206,0.043,0.815,0,0.043,0,0,0,0,0,0,2,2,0,0,VALID,0,0,0,0,0,1,0,0,0,0,0,0,0,0,0,0,0,0,0,0,1878.78,2261.82,6,0,0.06,0.06,142,14.29,0.08,0.06,13.02,LANDED,X11-E,0:/Integrated Flight Computer/aircraft/x11_e_cfg.ks (inferred preloaded)
13.48,TAKEOFF,TO_GROUND_ROLL,27.85,80,52.15,5.17,-3.78,-0.16,-0.26,0.04,88.9,0.102,1,0,0,0,0,0,0,0,0,0,0,0,0,0,0,90.05,0,1,0,-0.32,0,0,0.01,90,0,0,0,0,0,0,0,0,0.094,0,0,3,0,0,0,69,0,0,0,0,0,0,,0,NONE,0,0,0,0,0,0,0,0,0,0,0,0,0,0,0,0,0,0,0,0,0,90.05,1,0.094,-1.151,0.0412,0.829,0,0.0412,0,0,0,0,0,0,2,2,0,0,VALID,0,0,0,0,0,1,0,0,0,0,0,0,0,0,0,0,0,0,0,0,1897.31,2258.99,6,0,0.06,0.06,146,14.29,0.08,0.06,13.3,LANDED,X11-E,0:/Integrated Flight Computer/aircraft/x11_e_cfg.ks (inferred preloaded)
13.78,TAKEOFF,TO_GROUND_ROLL,29.35,80,50.65,5.18,-3.82,-0.16,-0.23,0.06,88.97,0.102,1,0,0,0,0,0,0,0,0,0,0,0,0,0,0,90.06,0,1,0,-0.31,0,0,0.01,90,0,0,0,0,0,0,0,0,0.104,0,0,3,0,0,0,69,0,0,0,0,0,0,,0,NONE,0,0,0,0,0,0,0,0,0,0,0,0,0,0,0,0,0,0,0,0,0,90.06,1,0.104,-1.089,0.0391,0.843,0,0.0391,0,0,0,0,0,0,2,2,0,0,VALID,0,0,0,0,0,1,0,0,0,0,0,0,0,0,0,0,0,0,0,0,1915.82,2255.91,6,0,0.06,0.06,150,13.33,0.1,0.06,13.6,LANDED,X11-E,0:/Integrated Flight Computer/aircraft/x11_e_cfg.ks (inferred preloaded)
14.08,TAKEOFF,TO_GROUND_ROLL,30.86,80,49.14,5.16,-3.87,-0.17,-0.26,0.03,89.05,0.1,1,0,0,0,0,0,0,0,0,0,0,0,0,0,0,90.07,0,1,0,-0.31,0,0,0.01,90,0,0,0,0,0,0,0,0,0.113,0,0,3,0,0,0,69,0,0,0,0,0,0,,0,NONE,0,0,0,0,0,0,0,0,0,0,0,0,0,0,0,0,0,0,0,0,0,90.07,1,0.113,-1.019,0.0366,0.859,0,0.0366,0,0,0,0,0,0,2,2,0,0,VALID,0,0,0,0,0,1,0,0,0,0,0,0,0,0,0,0,0,0,0,0,1933,2252.8,6,0,0.06,0.06,154,13.33,0.1,0.06,13.9,LANDED,X11-E,0:/Integrated Flight Computer/aircraft/x11_e_cfg.ks (inferred preloaded)
14.38,TAKEOFF,TO_GROUND_ROLL,32.38,80,47.62,5.16,-3.92,-0.18,-0.26,0.03,89.13,0.101,1,0,0,0,0,0,0,0,0,0,0,0,0,0,0,90.07,0,1,0,-0.31,0,0,0.01,90,0,0,0,0,0,0,0,0,0.122,0,0,3,0,0,0,69,0,0,0,0,0,0,,0,NONE,0,0,0,0,0,0,0,0,0,0,0,0,0,0,0,0,0,0,0,0,0,90.07,1,0.122,-0.947,0.0341,0.874,0,0.0341,0,0,0,0,0,0,2,2,0,0,VALID,0,0,0,0,0,1,0,0,0,0,0,0,0,0,0,0,0,0,0,0,1948.96,2249.66,6,0,0.06,0.06,158,13.33,0.1,0.06,14.2,LANDED,X11-E,0:/Integrated Flight Computer/aircraft/x11_e_cfg.ks (inferred preloaded)
14.66,TAKEOFF,TO_GROUND_ROLL,33.81,80,46.19,5.18,-3.97,-0.19,-0.24,0.06,89.2,0.1,1,0,0,0,0,0,0,0,0,0,0,0,0,0,0,90.08,0,1,0,-0.31,0,0,0.01,90,0,0,0,0,0,0,0,0,0.131,0,0,3,0,0,0,69,0,0,0,0,0,0,,0,NONE,0,0,0,0,0,0,0,0,0,0,0,0,0,0,0,0,0,0,0,0,0,90.08,1,0.131,-0.877,0.0315,0.888,0,0.0315,0,0,0,0,0,0,2,2,0,0,VALID,0,0,0,0,0,1,0,0,0,0,0,0,0,0,0,0,0,0,0,0,1962.79,2246.7,6,0,0.06,0.06,162,14.29,0.08,0.06,14.48,LANDED,X11-E,0:/Integrated Flight Computer/aircraft/x11_e_cfg.ks (inferred preloaded)
14.96,TAKEOFF,TO_GROUND_ROLL,35.36,80,44.64,5.17,-4.03,-0.19,-0.25,0.04,89.29,0.097,1,0,0,0,0,0,0,0,0,0,0,0,0,0,0,90.09,0,1,0,-0.31,0,0,0.01,90,0,0,0,0,0,0,0,0,0.14,0,0,3,0,0,0,69,0,0,0,0,0,0,,0,NONE,0,0,0,0,0,0,0,0,0,0,0,0,0,0,0,0,0,0,0,0,0,90.09,1,0.14,-0.801,0.0287,0.904,0,0.0287,0,0,0,0,0,0,2,2,0,0,VALID,0,0,0,0,0,1,0,0,0,0,0,0,0,0,0,0,0,0,0,0,1976.56,2243.51,6,0,0.06,0.06,166,13.33,0.1,0.06,14.78,LANDED,X11-E,0:/Integrated Flight Computer/aircraft/x11_e_cfg.ks (inferred preloaded)
15.26,TAKEOFF,TO_GROUND_ROLL,36.92,80,43.08,5.16,-4.09,-0.2,-0.27,0.03,89.37,0.098,1,0,0,0,0,0,0,0,0,0,0,0,0,0,0,90.1,0,1,0,-0.31,0,0,0.02,90,0,0,0,0,0,0,0,0,0.148,0,0,3,0,0,0,69,0,0,0,0,0,0,,0,NONE,0,0,0,0,0,0,0,0,0,0,0,0,0,0,0,0,0,0,0,0,0,90.1,1,0.148,-0.727,0.026,0.919,0,0.026,0,0,0,0,0,0,2,2,0,0,VALID,0,0,0,0,0,1,0,0,0,0,0,0,0,0,0,0,0,0,0,0,1989.3,2240.3,6,0,0.06,0.06,170,13.33,0.1,0.06,15.08,LANDED,X11-E,0:/Integrated Flight Computer/aircraft/x11_e_cfg.ks (inferred preloaded)
15.56,TAKEOFF,TO_GROUND_ROLL,38.49,80,41.51,5.17,-4.15,-0.21,-0.25,0.05,89.46,0.096,1,0,0,0,0,0,0,0,0,0,0,0,0,0,0,90.11,0,1,0,-0.31,0,0,0.02,90,0,0,0,0,0,0,0,0,0.156,0,0,3,0,0,0,69,0,0,0,0,0,0,,0,NONE,0,0,0,0,0,0,0,0,0,0,0,0,0,0,0,0,0,0,0,0,0,90.11,1,0.156,-0.651,0.023,0.935,0,0.023,0,0,0,0,0,0,2,2,0,0,VALID,0,0,0,0,0,1,0,0,0,0,0,0,0,0,0,0,0,0,0,0,2001.08,2237.08,6,0,0.06,0.06,174,13.33,0.1,0.06,15.38,LANDED,X11-E,0:/Integrated Flight Computer/aircraft/x11_e_cfg.ks (inferred preloaded)
15.86,TAKEOFF,TO_GROUND_ROLL,40.07,80,39.93,5.17,-4.21,-0.21,-0.24,0.05,89.54,0.097,1,0,0,0,0,0,0,0,0,0,0,0,0,0,0,90.12,0,1,0,-0.31,0,0,0.02,90,0,0,0,0,0,0,0,0,0.164,0,0,3,0,0,0,69,0,0,0,0,0,0,,0,NONE,0,0,0,0,0,0,0,0,0,0,0,0,0,0,0,0,0,0,0,0,0,90.12,1,0.164,-0.579,0.0205,0.951,0,0.0205,0,0,0,0,0,0,2,2,0,0,VALID,0,0,0,0,0,1,0,0,0,0,0,0,0,0,0,0,0,0,0,0,2011.95,2233.85,6,0,0.06,0.06,178,13.33,0.1,0.06,15.68,LANDED,X11-E,0:/Integrated Flight Computer/aircraft/x11_e_cfg.ks (inferred preloaded)
16.16,TAKEOFF,TO_GROUND_ROLL,41.65,80,38.35,5.16,-4.28,-0.22,-0.26,0.03,89.61,0.095,1,0,0,0,0,0,0,0,0,0,0,0,0,0,0,90.12,0,1,0,-0.31,0,0,0.02,90,0,0,0,0,0,0,0,0,0.17,0,0,3,0,0,0,69,0,0,0,0,0,0,,0,NONE,0,0,0,0,0,0,0,0,0,0,0,0,0,0,0,0,0,0,0,0,0,90.12,1,0.17,-0.51,0.0178,0.967,0,0.0178,0,0,0,0,0,0,2,2,0,0,VALID,0,0,0,0,0,1,0,0,0,0,0,0,0,0,0,0,0,0,0,0,2021.98,2230.61,6,0,0.06,0.06,182,13.33,0.1,0.06,15.98,LANDED,X11-E,0:/Integrated Flight Computer/aircraft/x11_e_cfg.ks (inferred preloaded)
16.46,TAKEOFF,TO_GROUND_ROLL,43.25,80,36.75,5.16,-4.34,-0.23,-0.25,0.03,89.69,0.096,1,0,0,0,0,0,0,0,0,0,0,0,0,0,0,90.13,0,1,0,-0.3,0,0,0.02,90,0,0,0,0,0,0,0,0,0.177,0,0,3,0,0,0,69,0,0,0,0,0,0,,0,NONE,0,0,0,0,0,0,0,0,0,0,0,0,0,0,0,0,0,0,0,0,0,90.13,1,0.177,-0.444,0.0153,0.982,0,0.0153,0,0,0,0,0,0,2,2,0,0,VALID,0,0,0,0,0,1,0,0,0,0,0,0,0,0,0,0,0,0,0,0,2031.21,2227.37,6,0,0.06,0.06,186,13.33,0.1,0.06,16.28,LANDED,X11-E,0:/Integrated Flight Computer/aircraft/x11_e_cfg.ks (inferred preloaded)
16.76,TAKEOFF,TO_GROUND_ROLL,44.85,80,35.15,5.17,-4.42,-0.24,-0.24,0.05,89.76,0.094,1,0,0,0,0,0,0,0,0,0,0,0,0,0,0,90.14,0,1,0,-0.3,0,0,0.02,90,0,0,0,0,0,0,0,0,0.182,0,0,3,0,0,0,69,0,0,0,0,0,0,,0,NONE,0,0,0,0,0,0,0,0,0,0,0,0,0,0,0,0,0,0,0,0,0,90.14,1,0.182,-0.381,0.0129,0.999,0,0.0129,0,0,0,0,0,0,2,2,0,0,VALID,0,0,0,0,0,1,0,0,0,0,0,0,0,0,0,0,0,0,0,0,2039.7,2224.14,6,0,0.06,0.06,190,13.33,0.1,0.06,16.58,LANDED,X11-E,0:/Integrated Flight Computer/aircraft/x11_e_cfg.ks (inferred preloaded)
17.06,TAKEOFF,TO_GROUND_ROLL,46.46,80,33.54,5.16,-4.49,-0.24,-0.25,0.03,89.83,0.095,1,0,0,0,0,0,0,0,0,0,0,0,0,0,0,90.15,0,1,0,-0.3,0,0,0.02,90,0,0,0,0,0,0,0,0,0.187,0,0,3,0,0,0,69,0,0,0,0,0,0,,0,NONE,0,0,0,0,0,0,0,0,0,0,0,0,0,0,0,0,0,0,0,0,0,90.15,1,0.187,-0.325,0.0108,1,0,0.0108,0,0,0,0,0,0,2,2,0,0,VALID,0,0,0,0,0,1,0,0,0,0,0,0,0,0,0,0,0,0,0,0,2047.5,2220.91,6,0,0.06,0.06,194,13.33,0.1,0.06,16.88,LANDED,X11-E,0:/Integrated Flight Computer/aircraft/x11_e_cfg.ks (inferred preloaded)
17.36,TAKEOFF,TO_GROUND_ROLL,48.08,80,31.92,5.16,-4.57,-0.25,-0.25,0.03,89.88,0.094,1,0,0,0,0,0,0,0,0,0,0,0,0,0,0,90.16,0,1,0,-0.3,0,0,0.02,90,0,0,0,0,0,0,0,0,0.191,0,0,3,0,0,0,69,0,0,0,0,0,0,,0,NONE,0,0,0,0,0,0,0,0,0,0,0,0,0,0,0,0,0,0,0,0,0,90.16,1,0.191,-0.271,0.0085,1,0,0.0085,0,0,0,0,0,0,2,2,0,0,VALID,0,0,0,0,0,1,0,0,0,0,0,0,0,0,0,0,0,0,0,0,2054.65,2217.69,6,0,0.06,0.06,198,13.33,0.1,0.06,17.18,LANDED,X11-E,0:/Integrated Flight Computer/aircraft/x11_e_cfg.ks (inferred preloaded)
17.66,TAKEOFF,TO_GROUND_ROLL,49.7,80,30.3,5.17,-4.64,-0.26,-0.24,0.04,89.94,0.095,1,0,0,0,0,0,0,0,0,0,0,0,0,0,0,90.16,0,1,0,-0.3,0,0,0.03,90,0,0,0,0,0,0,0,0,0.194,0,0,3,0,0,0,69,0,0,0,0,0,0,,0,NONE,0,0,0,0,0,0,0,0,0,0,0,0,0,0,0,0,0,0,0,0,0,90.16,1,0.194,-0.224,0.0067,1,0,0.0067,0,0,0,0,0,0,2,2,0,0,VALID,0,0,0,0,0,1,0,0,0,0,0,0,0,0,0,0,0,0,0,0,2061.19,2214.49,6,0,0.06,0.06,202,13.33,0.1,0.06,17.48,LANDED,X11-E,0:/Integrated Flight Computer/aircraft/x11_e_cfg.ks (inferred preloaded)
17.96,TAKEOFF,TO_GROUND_ROLL,51.33,80,28.67,5.16,-4.72,-0.27,-0.24,0.04,89.99,0.094,1,0,0,0,0,0,0,0,0,0,0,0,0,0,0,90.17,0,1,0,-0.3,0,0,0.03,90,0,0,0,0,0,0,0,0,0.196,0,0,3,0,0,0,69,0,0,0,0,0,0,,0,NONE,0,0,0,0,0,0,0,0,0,0,0,0,0,0,0,0,0,0,0,0,0,90.17,1,0.196,-0.181,0.0051,1,0,0.0051,0,0,0,0,0,0,2,2,0,0,VALID,0,0,0,0,0,1,0,0,0,0,0,0,0,0,0,0,0,0,0,0,2067.17,2211.3,6,0,0.06,0.06,206,13.33,0.1,0.06,17.78,LANDED,X11-E,0:/Integrated Flight Computer/aircraft/x11_e_cfg.ks (inferred preloaded)
18.26,TAKEOFF,TO_GROUND_ROLL,52.96,80,27.04,5.16,-4.8,-0.27,-0.25,0.03,90.03,0.095,1,0,0,0,0,0,0,0,0,0,0,0,0,0,0,90.17,0,1,0,-0.29,0,0,0.03,90,0,0,0,0,0,0,0,0,0.198,0,0,3,0,0,0,69,0,0,0,0,0,0,,0,NONE,0,0,0,0,0,0,0,0,0,0,0,0,0,0,0,0,0,0,0,0,0,90.17,1,0.198,-0.144,0.0039,1,0,0.0039,0,0,0,0,0,0,2,2,0,0,VALID,0,0,0,0,0,1,0,0,0,0,0,0,0,0,0,0,0,0,0,0,2072.63,2208.14,6,0,0.06,0.06,210,13.33,0.1,0.06,18.08,LANDED,X11-E,0:/Integrated Flight Computer/aircraft/x11_e_cfg.ks (inferred preloaded)
18.56,TAKEOFF,TO_GROUND_ROLL,54.59,80,25.41,5.16,-4.89,-0.28,-0.24,0.03,90.07,0.094,1,0,0,0,0,0,0,0,0,0,0,0,0,0,0,90.18,0,1,0,-0.29,0,0,0.03,90,0,0,0,0,0,0,0,0,0.199,0,0,3,0,0,0,69,0,0,0,0,0,0,,0,NONE,0,0,0,0,0,0,0,0,0,0,0,0,0,0,0,0,0,0,0,0,0,90.18,1,0.199,-0.109,0.0024,1,0,0.0024,0,0,0,0,0,0,2,2,0,0,VALID,0,0,0,0,0,1,0,0,0,0,0,0,0,0,0,0,0,0,0,0,2077.59,2205.01,6,0,0.06,0.06,214,13.33,0.1,0.06,18.38,LANDED,X11-E,0:/Integrated Flight Computer/aircraft/x11_e_cfg.ks (inferred preloaded)
18.86,TAKEOFF,TO_GROUND_ROLL,56.24,80,23.76,5.17,-4.97,-0.29,-0.24,0.04,90.1,0.096,1,0,0,0,0,0,0,0,0,0,0,0,0,0,0,90.18,0,1,0,-0.29,0,0,0.03,90,0,0,0,0,0,0,0,0,0.199,0,0,3,0,0,0,69,0,0,0,0,0,0,,0,NONE,0,0,0,0,0,0,0,0,0,0,0,0,0,0,0,0,0,0,0,0,0,90.18,1,0.199,-0.081,0.0016,1,0,0.0016,0,0,0,0,0,0,2,2,0,0,VALID,0,0,0,0,0,1,0,0,0,0,0,0,0,0,0,0,0,0,0,0,2082.1,2201.9,6,0,0.06,0.06,218,13.33,0.1,0.06,18.68,LANDED,X11-E,0:/Integrated Flight Computer/aircraft/x11_e_cfg.ks (inferred preloaded)
19.16,TAKEOFF,TO_GROUND_ROLL,57.88,80,22.12,5.16,-5.06,-0.29,-0.25,0.03,90.13,0.095,1,0,0,0,0,0,0,0,0,0,0,0,0,0,0,90.18,0,1,0,-0.29,0,0,0.03,90,0,0,0,0,0,0,0,0,0.198,0,0,3,0,0,0,69,0,0,0,0,0,0,,0,NONE,0,0,0,0,0,0,0,0,0,0,0,0,0,0,0,0,0,0,0,0,0,90.18,1,0.198,-0.055,0.0007,1,0,0.0007,0,0,0,0,0,0,2,2,0,0,VALID,0,0,0,0,0,1,0,0,0,0,0,0,0,0,0,0,0,0,0,0,2086.19,2198.83,6,0,0.06,0.06,222,13.33,0.1,0.06,18.98,LANDED,X11-E,0:/Integrated Flight Computer/aircraft/x11_e_cfg.ks (inferred preloaded)
19.46,TAKEOFF,TO_GROUND_ROLL,59.53,80,20.47,5.16,-5.14,-0.3,-0.24,0.03,90.15,0.097,1,0,0,0,0,0,0,0,0,0,0,0,0,0,0,90.18,0,1,0,-0.29,0,0,0.04,90,0,0,0,0,0,0,0,0,0.197,0,0,3,0,0,0,69,0,0,0,0,0,0,,0,NONE,0,0,0,0,0,0,0,0,0,0,0,0,0,0,0,0,0,0,0,0,0,90.18,1,0.197,-0.035,0.0001,1,0,0.0001,0,0,0,0,0,0,2,2,0,0,VALID,0,0,0,0,0,1,0,0,0,0,0,0,0,0,0,0,0,0,0,0,2089.89,2195.8,6,0,0.06,0.06,226,13.33,0.1,0.06,19.28,LANDED,X11-E,0:/Integrated Flight Computer/aircraft/x11_e_cfg.ks (inferred preloaded)
19.76,TAKEOFF,TO_GROUND_ROLL,61.18,80,18.82,5.16,-5.24,-0.3,-0.24,0.03,90.17,0.096,1,0,0,0,0,0,0,0,0,0,0,0,0,0,0,90.18,0,1,0,-0.29,0,0,0.04,90,0,0,0,0,0,0,0,0,0.195,0,0,3,0,0,0,69,0,0,0,0,0,0,,0,NONE,0,0,0,0,0,0,0,0,0,0,0,0,0,0,0,0,0,0,0,0,0,90.18,1,0.195,-0.015,-0.0006,1,0,-0.0006,0,0,0,0,0,0,2,2,0,0,VALID,0,0,0,0,0,1,0,0,0,0,0,0,0,0,0,0,0,0,0,0,2093.22,2192.82,6,0,0.06,0.06,230,13.33,0.1,0.06,19.58,LANDED,X11-E,0:/Integrated Flight Computer/aircraft/x11_e_cfg.ks (inferred preloaded)
20.06,TAKEOFF,TO_GROUND_ROLL,62.84,80,17.16,5.16,-5.33,-0.31,-0.24,0.03,90.18,0.098,1,0,0,0,0,0,0,0,0,0,0,0,0,0,0,90.18,0,1,0,-0.28,0,0,0.04,90,0,0,0,0,0,0,0,0,0.193,0,0,3,0,0,0,69,0,0,0,0,0,0,,0,NONE,0,0,0,0,0,0,0,0,0,0,0,0,0,0,0,0,0,0,0,0,0,90.18,1,0.193,0,-0.0008,1,0,-0.0008,0,0,0,0,0,0,2,2,0,0,VALID,0,0,0,0,0,1,0,0,0,0,0,0,0,0,0,0,0,0,0,0,2096.23,2189.87,6,0,0.06,0.06,234,13.33,0.1,0.06,19.88,LANDED,X11-E,0:/Integrated Flight Computer/aircraft/x11_e_cfg.ks (inferred preloaded)
20.36,TAKEOFF,TO_GROUND_ROLL,64.5,80,15.5,5.16,-5.43,-0.32,-0.24,0.02,90.2,0.096,1,0,0,0,0,0,0,0,0,0,0,0,0,0,0,90.18,0,1,0,-0.28,0,0,0.04,90,0,0,0,0,0,0,0,0,0.19,0,0,3,0,0,0,69,0,0,0,0,0,0,,0,NONE,0,0,0,0,0,0,0,0,0,0,0,0,0,0,0,0,0,0,0,0,0,90.18,1,0.19,0.015,-0.0014,1,0,-0.0014,0,0,0,0,0,0,2,2,0,0,VALID,0,0,0,0,0,1,0,0,0,0,0,0,0,0,0,0,0,0,0,0,2098.92,2186.98,6,0,0.06,0.06,238,13.33,0.1,0.06,20.18,LANDED,X11-E,0:/Integrated Flight Computer/aircraft/x11_e_cfg.ks (inferred preloaded)
20.66,TAKEOFF,TO_GROUND_ROLL,66.16,80,13.84,5.16,-5.52,-0.32,-0.23,0.03,90.21,0.098,1,0,0,0,0,0,0,0,0,0,0,0,0,0,0,90.18,0,1,0,-0.28,0,0,0.04,90,0,0,0,0,0,0,0,0,0.187,0,0,3,0,0,0,69,0,0,0,0,0,0,,0,NONE,0,0,0,0,0,0,0,0,0,0,0,0,0,0,0,0,0,0,0,0,0,90.18,1,0.187,0.028,-0.0017,1,0,-0.0017,0,0,0,0,0,0,2,2,0,0,VALID,0,0,0,0,0,1,0,0,0,0,0,0,0,0,0,0,0,0,0,0,2101.34,2184.14,6,0,0.06,0.06,242,13.33,0.1,0.06,20.48,LANDED,X11-E,0:/Integrated Flight Computer/aircraft/x11_e_cfg.ks (inferred preloaded)
20.96,TAKEOFF,TO_GROUND_ROLL,67.82,80,12.18,5.15,-5.6,-0.13,-0.25,-0.14,90.22,0.093,1,0,0,0,0,0,0,0,0,0,0,0,0,0,0,90.18,0,1,0,-0.12,0,0,0.05,90,0,0,0,0,0,0,0,0,0.183,0,0,3,0,0,0,69,0,0,0,0,0,0,,0,NONE,0,0,0,0,0,0,0,0,0,0,0,0,0,0,0,0,0,0,0,0,0,90.18,1,0.183,0.036,-0.0017,1,0,-0.0017,0,0,0,0,0,0,2,2,0,0,VALID,0,0,0,0,0,1,0,0,0,0,0,0,0,0,0,0,0,0,0,0,2103.49,2181.35,6,0,0.06,0.06,246,13.33,0.1,0.06,20.78,LANDED,X11-E,0:/Integrated Flight Computer/aircraft/x11_e_cfg.ks (inferred preloaded)
21.26,TAKEOFF,TO_GROUND_ROLL,69.49,80,10.51,5.16,-5.69,-0.5,-0.23,0.15,90.23,0.098,1,0,0,0,0,0,0,0,0,0,0,0,0,0,0,90.17,0,1,0,-0.41,0,0,0.05,90,0,0,0,0,0,0,0,0,0.179,0,0,3,0,0,0,69,0,0,0,0,0,0,,0,NONE,0,0,0,0,0,0,0,0,0,0,0,0,0,0,0,0,0,0,0,0,0,90.17,1,0.179,0.052,-0.0027,1,0,-0.0027,0,0,0,0,0,0,2,2,0,0,VALID,0,0,0,0,0,1,0,0,0,0,0,0,0,0,0,0,0,0,0,0,2105.84,2179.15,6,0,0.06,0.06,250,13.33,0.1,0.06,21.08,LANDED,X11-E,0:/Integrated Flight Computer/aircraft/x11_e_cfg.ks (inferred preloaded)
21.56,TAKEOFF,TO_GROUND_ROLL,71.16,80,8.84,5.16,-5.8,-0.21,-0.24,-0.08,90.23,0.098,1,0,0,0,0,0,0,0,0,0,0,0,0,0,0,90.17,0,1,0,-0.16,0,0,0.05,90,0,0,0,0,0,0,0,0,0.174,0,0,3,0,0,0,69,0,0,0,0,0,0,,0,NONE,0,0,0,0,0,0,0,0,0,0,0,0,0,0,0,0,0,0,0,0,0,90.17,1,0.174,0.064,-0.0033,1,0,-0.0033,0,0,0,0,0,0,2,2,0,0,VALID,0,0,0,0,0,1,0,0,0,0,0,0,0,0,0,0,0,0,0,0,2109.05,2178.11,6,0,0.06,0.06,254,13.33,0.1,0.06,21.38,LANDED,X11-E,0:/Integrated Flight Computer/aircraft/x11_e_cfg.ks (inferred preloaded)
21.86,TAKEOFF,TO_GROUND_ROLL,72.83,80,7.17,5.15,-5.9,-0.44,-0.23,0.11,90.24,0.099,1,0,0,0,0,0,0,0,0,0,0,0,0,0,0,90.17,0,1,0,-0.35,0,0,0.05,90,0,0,0,0,0,0,0,0,0.17,0,0,3,0,0,0,69,0,0,0,0,0,0,,0,NONE,0,0,0,0,0,0,0,0,0,0,0,0,0,0,0,0,0,0,0,0,0,90.17,1,0.17,0.072,-0.0035,1,0,-0.0035,0,0,0,0,0,0,2,2,0,0,VALID,0,0,0,0,0,1,0,0,0,0,0,0,0,0,0,0,0,0,0,0,2113.09,2178.2,6,0,0.06,0.06,258,13.33,0.1,0.06,21.68,LANDED,X11-E,0:/Integrated Flight Computer/aircraft/x11_e_cfg.ks (inferred preloaded)
22.16,TAKEOFF,TO_GROUND_ROLL,74.51,80,5.49,5.16,-6,-0.28,-0.23,-0.03,90.24,0.097,1,0,0,0,0,0,0,0,0,0,0,0,0,0,0,90.16,0,1,0,-0.21,0,0,0.05,90,0,0,0,0,0,0,0,0,0.165,0,0,3,0,0,0,69,0,0,0,0,0,0,,0,NONE,0,0,0,0,0,0,0,0,0,0,0,0,0,0,0,0,0,0,0,0,0,90.16,1,0.165,0.082,-0.0041,1,0,-0.0041,0,0,0,0,0,0,2,2,0,0,VALID,0,0,0,0,0,1,0,0,0,0,0,0,0,0,0,0,0,0,0,0,2117.98,2179.39,6,0,0.06,0.06,262,13.33,0.1,0.06,21.98,LANDED,X11-E,0:/Integrated Flight Computer/aircraft/x11_e_cfg.ks (inferred preloaded)
22.46,TAKEOFF,TO_GROUND_ROLL,76.19,80,3.81,5.15,-6.11,-0.4,-0.23,0.06,90.25,0.099,1,0,0,0,0,0,0,0,0,0,0,0,0,0,0,90.16,0,1,0,-0.31,0,0,0.06,90,0,0,0,0,0,0,0,0,0.16,0,0,3,0,0,0,69,0,0,0,0,0,0,,0,NONE,0,0,0,0,0,0,0,0,0,0,0,0,0,0,0,0,0,0,0,0,0,90.16,1,0.16,0.087,-0.0041,1,0,-0.0041,0,0,0,0,0,0,2,2,0,0,VALID,0,0,0,0,0,1,0,0,0,0,0,0,0,0,0,0,0,0,0,0,2123.69,2181.65,6,0,0.06,0.06,266,13.33,0.1,0.06,22.28,LANDED,X11-E,0:/Integrated Flight Computer/aircraft/x11_e_cfg.ks (inferred preloaded)
22.76,TAKEOFF,TO_GROUND_ROLL,77.87,80,2.13,5.16,-6.21,-0.33,-0.22,0,90.25,0.098,1,0,0,0,0,0,0,0,0,0,0,0,0,0,0,90.15,0,1,0,-0.24,0,0,0.06,90,0,0,0,0,0,0,0,0,0.154,0,0,3,0,0,0,69,0,0,0,0,0,0,,0,NONE,0,0,0,0,0,0,0,0,0,0,0,0,0,0,0,0,0,0,0,0,0,90.15,1,0.154,0.094,-0.0045,1,0,-0.0045,0,0,0,0,0,0,2,2,0,0,VALID,0,0,0,0,0,1,0,0,0,0,0,0,0,0,0,0,0,0,0,0,2130.21,2184.96,6,0,0.06,0.06,270,13.33,0.1,0.06,22.58,LANDED,X11-E,0:/Integrated Flight Computer/aircraft/x11_e_cfg.ks (inferred preloaded)
23.06,TAKEOFF,TO_GROUND_ROLL,79.56,80,0.44,5.15,-6.32,-0.37,-0.23,0.03,90.25,0.099,1,0,0,0,0,0,0,0,0,0,0,0,0,0,0,90.15,0,1,0,-0.27,0,0,0.06,90,0,0,0,0,0,0,0,0,0.149,0,0,3,0,0,0,69,0,0,0,0,0,0,,0,NONE,0,0,0,0,0,0,0,0,0,0,0,0,0,0,0,0,0,0,0,0,0,90.15,1,0.149,0.097,-0.0044,1,0,-0.0044,0,0,0,0,0,0,2,2,0,0,VALID,0,0,0,0,0,1,0,0,0,0,0,0,0,0,0,0,0,0,0,0,2137.54,2189.28,6,0,0.06,0.06,274,13.33,0.1,0.06,22.88,LANDED,X11-E,0:/Integrated Flight Computer/aircraft/x11_e_cfg.ks (inferred preloaded)
23.36,TAKEOFF,TO_GROUND_ROLL,81.26,80,-1.26,5.16,-6.43,-0.36,-0.23,0.01,90.24,0.098,1,0,0,0,0,0,0,0,0,0,0,0,0,0,0,90.14,0,1,0,-0.25,0,0,0.06,90,0,0,0,0,0,0,0,0,0.143,0,0,3,0,0,0,69,0,0,0,0,0,0,,0,NONE,0,0,0,0,0,0,0,0,0,0,0,0,0,0,0,0,0,0,0,0,0,90.14,1,0.143,0.101,-0.0046,1,0,-0.0046,0,0,0,0,0,0,2,2,0,0,VALID,0,0,0,0,0,1,0,0,0,0,0,0,0,0,0,0,0,0,0,0,2145.67,2194.59,6,0,0.06,0.06,278,13.33,0.1,0.06,23.18,LANDED,X11-E,0:/Integrated Flight Computer/aircraft/x11_e_cfg.ks (inferred preloaded)
23.66,TAKEOFF,TO_GROUND_ROLL,82.97,80,-2.97,5.15,-6.54,-0.36,-0.22,0.02,90.24,0.1,1,0,0,0,0,0,0,0,0,0,0,0,0,0,0,90.14,0,1,0,-0.25,0,0,0.07,90,0,0,0,0,0,0,0,0,0.137,0,0,3,0,0,0,69,0,0,0,0,0,0,,0,NONE,0,0,0,0,0,0,0,0,0,0,0,0,0,0,0,0,0,0,0,0,0,90.14,1,0.137,0.101,-0.0045,1,0,-0.0045,0,0,0,0,0,0,2,2,0,0,VALID,0,0,0,0,0,1,0,0,0,0,0,0,0,0,0,0,0,0,0,0,2154.59,2200.86,6,0,0.06,0.06,282,13.33,0.1,0.06,23.48,LANDED,X11-E,0:/Integrated Flight Computer/aircraft/x11_e_cfg.ks (inferred preloaded)
23.96,TAKEOFF,TO_GROUND_ROLL,84.68,80,-4.68,5.16,-6.65,-0.38,-0.22,0.02,90.24,0.099,1,0,0,0,0,0,0,0,0,0,0,0,0,0,0,90.13,0,1,0,-0.25,0,0,0.07,90,0,0,0,0,0,0,0,0,0.131,0,0,3,0,0,0,69,0,0,0,0,0,0,,0,NONE,0,0,0,0,0,0,0,0,0,0,0,0,0,0,0,0,0,0,0,0,0,90.13,1,0.131,0.102,-0.0045,1,0,-0.0045,0,0,0,0,0,0,2,2,0,0,VALID,0,0,0,0,0,1,0,0,0,0,0,0,0,0,0,0,0,0,0,0,2164.27,2208.08,6,0,0.06,0.06,286,13.33,0.1,0.06,23.78,LANDED,X11-E,0:/Integrated Flight Computer/aircraft/x11_e_cfg.ks (inferred preloaded)
24.26,TAKEOFF,TO_GROUND_ROLL,86.4,80,-6.4,5.15,-6.76,-0.36,-0.22,0.01,90.23,0.1,1,0,0,0,0,0,0,0,0,0,0,0,0,0,0,90.13,0,1,0,-0.24,0,0,0.07,90,0,0,0,0,0,0,0,0,0.125,0,0,3,0,0,0,69,0,0,0,0,0,0,,0,NONE,0,0,0,0,0,0,0,0,0,0,0,0,0,0,0,0,0,0,0,0,0,90.13,1,0.125,0.1,-0.0041,1,0,-0.0041,0,0,0,0,0,0,2,2,0,0,VALID,0,0,0,0,0,1,0,0,0,0,0,0,0,0,0,0,0,0,0,0,2174.73,2216.21,6,0,0.06,0.06,290,13.33,0.1,0.06,24.08,LANDED,X11-E,0:/Integrated Flight Computer/aircraft/x11_e_cfg.ks (inferred preloaded)
24.56,TAKEOFF,TO_GROUND_ROLL,88.13,80,-8.13,5.15,-6.88,-0.39,-0.22,0.02,90.22,0.099,1,0,0,0,0,0,0,0,0,0,0,0,0,0,0,90.12,0,1,0,-0.25,0,0,0.07,90,0,0,0,0,0,0,0,0,0.119,0,0,3,0,0,0,69,0,0,0,0,0,0,,0,NONE,0,0,0,0,0,0,0,0,0,0,0,0,0,0,0,0,0,0,0,0,0,90.12,1,0.119,0.098,-0.004,1,0,-0.004,0,0,0,0,0,0,2,2,0,0,VALID,0,0,0,0,0,1,0,0,0,0,0,0,0,0,0,0,0,0,0,0,2185.92,2225.24,6,0,0.06,0.06,294,13.33,0.1,0.06,24.38,LANDED,X11-E,0:/Integrated Flight Computer/aircraft/x11_e_cfg.ks (inferred preloaded)
24.86,TAKEOFF,TO_GROUND_ROLL,89.88,80,-9.88,5.15,-6.99,-0.37,-0.22,0.01,90.21,0.1,1,0,0,0,0,0,0,0,0,0,0,0,0,0,0,90.12,0,1,0,-0.24,0,0,0.08,90,0,0,0,0,0,0,0,0,0.113,0,0,3,0,0,0,69,0,0,0,0,0,0,,0,NONE,0,0,0,0,0,0,0,0,0,0,0,0,0,0,0,0,0,0,0,0,0,90.12,1,0.113,0.092,-0.0035,1,0,-0.0035,0,0,0,0,0,0,2,2,0,0,VALID,0,0,0,0,0,1,0,0,0,0,0,0,0,0,0,0,0,0,0,0,2197.86,2235.14,6,0,0.06,0.06,298,13.33,0.1,0.06,24.68,LANDED,X11-E,0:/Integrated Flight Computer/aircraft/x11_e_cfg.ks (inferred preloaded)
25.16,TAKEOFF,TO_GROUND_ROLL,91.63,80,-11.63,5.15,-7.11,-0.39,-0.22,0.02,90.2,0.1,1,0,0,0,0,0,0,0,0,0,0,0,0,0,0,90.11,0,1,0,-0.24,0,0,0.08,90,0,0,0,0,0,0,0,0,0.107,0,0,3,0,0,0,69,0,0,0,0,0,0,,0,NONE,0,0,0,0,0,0,0,0,0,0,0,0,0,0,0,0,0,0,0,0,0,90.11,1,0.107,0.087,-0.0032,1,0,-0.0032,0,0,0,0,0,0,2,2,0,0,VALID,0,0,0,0,0,1,0,0,0,0,0,0,0,0,0,0,0,0,0,0,2210.52,2245.88,6,0,0.06,0.06,302,13.33,0.1,0.06,24.98,LANDED,X11-E,0:/Integrated Flight Computer/aircraft/x11_e_cfg.ks (inferred preloaded)
25.46,TAKEOFF,TO_GROUND_ROLL,93.39,80,-13.39,5.15,-7.22,-0.38,-0.21,0.01,90.19,0.102,1,0,0,0,0,0,0,0,0,0,0,0,0,0,0,90.11,0,1,0,-0.23,0,0,0.08,90,0,0,0,0,0,0,0,0,0.101,0,0,3,0,0,0,69,0,0,0,0,0,0,,0,NONE,0,0,0,0,0,0,0,0,0,0,0,0,0,0,0,0,0,0,0,0,0,90.11,1,0.101,0.08,-0.0027,1,0,-0.0027,0,0,0,0,0,0,2,2,0,0,VALID,0,0,0,0,0,1,0,0,0,0,0,0,0,0,0,0,0,0,0,0,2223.88,2257.44,6,0,0.06,0.06,306,13.33,0.1,0.06,25.28,LANDED,X11-E,0:/Integrated Flight Computer/aircraft/x11_e_cfg.ks (inferred preloaded)
25.76,TAKEOFF,TO_GROUND_ROLL,95.16,80,-15.16,5.15,-7.34,-0.39,-0.21,0.02,90.18,0.1,1,0,0,0,0,0,0,0,0,0,0,0,0,0,0,90.1,0,1,0,-0.24,0,0,0.08,90,0,0,0,0,0,0,0,0,0.095,0,0,3,0,0,0,69,0,0,0,0,0,0,,0,NONE,0,0,0,0,0,0,0,0,0,0,0,0,0,0,0,0,0,0,0,0,0,90.1,1,0.095,0.072,-0.0022,1,0,-0.0022,0,0,0,0,0,0,2,2,0,0,VALID,0,0,0,0,0,1,0,0,0,0,0,0,0,0,0,0,0,0,0,0,2237.94,2269.81,6,0,0.06,0.06,310,13.33,0.1,0.06,25.58,LANDED,X11-E,0:/Integrated Flight Computer/aircraft/x11_e_cfg.ks (inferred preloaded)
26.06,TAKEOFF,TO_GROUND_ROLL,96.95,80,-16.95,5.15,-7.45,-0.39,-0.21,0.01,90.16,0.102,1,0,0,0,0,0,0,0,0,0,0,0,0,0,0,90.1,0,1,0,-0.23,0,0,0.09,90,0,0,0,0,0,0,0,0,0.089,0,0,3,0,0,0,69,0,0,0,0,0,0,,0,NONE,0,0,0,0,0,0,0,0,0,0,0,0,0,0,0,0,0,0,0,0,0,90.1,1,0.089,0.063,-0.0018,1,0,-0.0018,0,0,0,0,0,0,2,2,0,0,VALID,0,0,0,0,0,1,0,0,0,0,0,0,0,0,0,0,0,0,0,0,2252.67,2282.95,6,0,0.06,0.06,314,13.33,0.1,0.06,25.88,LANDED,X11-E,0:/Integrated Flight Computer/aircraft/x11_e_cfg.ks (inferred preloaded)
26.36,TAKEOFF,TO_GROUND_ROLL,98.75,80,-18.75,5.15,-7.58,-0.39,-0.21,0.01,90.15,0.101,1,0,0,0,0,0,0,0,0,0,0,0,0,0,0,90.09,0,1,0,-0.23,0,0,0.09,90,0,0,0,0,0,0,0,0,0.084,0,0,3,0,0,0,69,0,0,0,0,0,0,,0,NONE,0,0,0,0,0,0,0,0,0,0,0,0,0,0,0,0,0,0,0,0,0,90.09,1,0.084,0.053,-0.0012,1,0,-0.0012,0,0,0,0,0,0,2,2,0,0,VALID,0,0,0,0,0,1,0,0,0,0,0,0,0,0,0,0,0,0,0,0,2268.05,2296.84,6,0,0.06,0.06,318,13.33,0.1,0.06,26.18,LANDED,X11-E,0:/Integrated Flight Computer/aircraft/x11_e_cfg.ks (inferred preloaded)
26.66,TAKEOFF,TO_GROUND_ROLL,100.56,80,-20.56,5.14,-7.68,-0.24,-0.22,-0.08,90.13,0.1,1,0,0,0,0,0,0,0,0,0,0,0,0,0,0,90.09,0,1,0,-0.15,0,0,0.09,90,0,0,0,0,0,0,0,0,0.079,0,0,3,0,0,0,69,0,0,0,0,0,0,,0,NONE,0,0,0,0,0,0,0,0,0,0,0,0,0,0,0,0,0,0,0,0,0,90.09,1,0.079,0.041,-0.0004,1,0,-0.0004,0,0,0,0,0,0,2,2,0,0,VALID,0,0,0,0,0,1,0,0,0,0,0,0,0,0,0,0,0,0,0,0,2284.07,2311.44,6,0,0.06,0.06,322,13.33,0.1,0.06,26.48,LANDED,X11-E,0:/Integrated Flight Computer/aircraft/x11_e_cfg.ks (inferred preloaded)
26.96,TAKEOFF,TO_GROUND_ROLL,102.39,80,-22.39,5.15,-7.79,-0.53,-0.2,0.08,90.12,0.101,1,0,0,0,0,0,0,0,0,0,0,0,0,0,0,90.08,0,1,0,-0.29,0,0,0.1,90,0,0,0,0,0,0,0,0,0.073,0,0,3,0,0,0,69,0,0,0,0,0,0,,0,NONE,0,0,0,0,0,0,0,0,0,0,0,0,0,0,0,0,0,0,0,0,0,90.08,1,0.073,0.037,-0.0007,1,0,-0.0007,0,0,0,0,0,0,2,2,0,0,VALID,0,0,0,0,0,1,0,0,0,0,0,0,0,0,0,0,0,0,0,0,2300.71,2326.75,6,0,0.06,0.06,326,13.33,0.1,0.06,26.78,LANDED,X11-E,0:/Integrated Flight Computer/aircraft/x11_e_cfg.ks (inferred preloaded)
27.26,TAKEOFF,TO_GROUND_ROLL,104.23,80,-24.23,5.15,-7.91,-0.28,-0.21,-0.05,90.11,0.104,1,0,0,0,0,0,0,0,0,0,0,0,0,0,0,90.08,0,1,0,-0.16,0,0,0.1,90,0,0,0,0,0,0,0,0,0.068,0,0,3,0,0,0,69,0,0,0,0,0,0,,0,NONE,0,0,0,0,0,0,0,0,0,0,0,0,0,0,0,0,0,0,0,0,0,90.08,1,0.068,0.03,-0.0005,1,0,-0.0005,0,0,0,0,0,0,2,2,0,0,VALID,0,0,0,0,0,1,0,0,0,0,0,0,0,0,0,0,0,0,0,0,2317.94,2342.73,6,0,0.06,0.06,330,13.33,0.1,0.06,27.08,LANDED,X11-E,0:/Integrated Flight Computer/aircraft/x11_e_cfg.ks (inferred preloaded)
27.56,TAKEOFF,TO_GROUND_ROLL,106.09,80,-26.09,5.14,-8.03,-0.48,-0.2,0.05,90.09,0.1,1,0,0,0,0,0,0,0,0,0,0,0,0,0,0,90.07,0,1,0,-0.26,0,0,0.1,90,0,0,0,0,0,0,0,0,0.064,0,0,3,0,0,0,69,0,0,0,0,0,0,,0,NONE,0,0,0,0,0,0,0,0,0,0,0,0,0,0,0,0,0,0,0,0,0,90.07,1,0.064,0.023,-0.0002,1,0,-0.0002,0,0,0,0,0,0,2,2,0,0,VALID,0,0,0,0,0,1,0,0,0,0,0,0,0,0,0,0,0,0,0,0,2335.73,2359.34,6,0,0.06,0.06,334,13.33,0.1,0.06,27.38,LANDED,X11-E,0:/Integrated Flight Computer/aircraft/x11_e_cfg.ks (inferred preloaded)
27.86,TAKEOFF,TO_GROUND_ROLL,107.96,80,-27.96,5.15,-8.15,-0.33,-0.2,-0.03,90.08,0.105,1,0,0,0,0,0,0,0,0,0,0,0,0,0,0,90.07,0,1,0,-0.17,0,0,0.11,90,0,0,0,0,0,0,0,0,0.06,0,0,3,0,0,0,69,0,0,0,0,0,0,,0,NONE,0,0,0,0,0,0,0,0,0,0,0,0,0,0,0,0,0,0,0,0,0,90.07,1,0.06,0.015,0.0002,1,0,0.0002,0,0,0,0,0,0,2,2,0,0,VALID,0,0,0,0,0,1,0,0,0,0,0,0,0,0,0,0,0,0,0,0,2354.08,2376.56,6,0,0.06,0.06,338,13.33,0.1,0.06,27.68,LANDED,X11-E,0:/Integrated Flight Computer/aircraft/x11_e_cfg.ks (inferred preloaded)
28.16,TAKEOFF,TO_GROUND_ROLL,109.85,80,-29.85,5.14,-8.27,-0.44,-0.2,0.03,90.07,0.098,1,0,0,0,0,0,0,0,0,0,0,0,0,0,0,90.06,0,1,0,-0.23,0,0,0.11,90,0,0,0,0,0,0,0,0,0.056,0,0,3,0,0,0,69,0,0,0,0,0,0,,0,NONE,0,0,0,0,0,0,0,0,0,0,0,0,0,0,0,0,0,0,0,0,0,90.06,1,0.056,0.007,0.0004,1,0,0.0004,0,0,0,0,0,0,2,2,0,0,VALID,0,0,0,0,0,1,0,0,0,0,0,0,0,0,0,0,0,0,0,0,2372.93,2394.36,6,0,0.06,0.06,342,13.33,0.1,0.06,27.98,LANDED,X11-E,0:/Integrated Flight Computer/aircraft/x11_e_cfg.ks (inferred preloaded)
28.46,TAKEOFF,TO_GROUND_ROLL,111.75,80,-31.75,5.15,-8.38,-0.37,-0.19,-0.01,90.06,0.105,1,0,0,0,0,0,0,0,0,0,0,0,0,0,0,90.06,0,1,0,-0.19,0,0,0.11,90,0,0,0,0,0,0,0,0,0.053,0,0,3,0,0,0,69,0,0,0,0,0,0,,0,NONE,0,0,0,0,0,0,0,0,0,0,0,0,0,0,0,0,0,0,0,0,0,90.06,1,0.053,-0.004,0.001,1,0,0.001,0,0,0,0,0,0,2,2,0,0,VALID,0,0,0,0,0,1,0,0,0,0,0,0,0,0,0,0,0,0,0,0,2392.27,2412.7,6,0,0.06,0.06,346,13.33,0.1,0.06,28.28,LANDED,X11-E,0:/Integrated Flight Computer/aircraft/x11_e_cfg.ks (inferred preloaded)
28.76,TAKEOFF,TO_GROUND_ROLL,113.68,80,-33.68,5.14,-8.51,-0.41,-0.19,0.01,90.04,0.099,1,0,0,0,0,0,0,0,0,0,0,0,0,0,0,90.06,0,1,0,-0.21,0,0,0.12,90,0,0,0,0,0,0,0,0,0.049,0,0,3,0,0,0,69,0,0,0,0,0,0,,0,NONE,0,0,0,0,0,0,0,0,0,0,0,0,0,0,0,0,0,0,0,0,0,90.06,1,0.049,-0.014,0.0014,1,0,0.0014,0,0,0,0,0,0,2,2,0,0,VALID,0,0,0,0,0,1,0,0,0,0,0,0,0,0,0,0,0,0,0,0,2412.06,2431.55,6,0,0.06,0.06,350,13.33,0.1,0.06,28.58,LANDED,X11-E,0:/Integrated Flight Computer/aircraft/x11_e_cfg.ks (inferred preloaded)
29.06,TAKEOFF,TO_GROUND_ROLL,115.62,80,-35.62,5.15,-8.62,-0.39,-0.19,-0.01,90.03,0.105,1,0,0,0,0,0,0,0,0,0,0,0,0,0,0,90.06,0,1,0,-0.19,0,0,0.12,90,0,0,0,0,0,0,0,0,0.047,0,0,3,0,0,0,69,0,0,0,0,0,0,,0,NONE,0,0,0,0,0,0,0,0,0,0,0,0,0,0,0,0,0,0,0,0,0,90.06,1,0.047,-0.026,0.002,1,0,0.002,0,0,0,0,0,0,2,2,0,0,VALID,0,0,0,0,0,1,0,0,0,0,0,0,0,0,0,0,0,0,0,0,2432.27,2450.86,6,0,0.06,0.06,354,13.33,0.1,0.06,28.88,LANDED,X11-E,0:/Integrated Flight Computer/aircraft/x11_e_cfg.ks (inferred preloaded)
29.36,TAKEOFF,TO_GROUND_ROLL,117.57,80,-37.57,5.14,-8.75,-0.39,-0.19,0,90.01,0.1,1,0,0,0,0,0,0,0,0,0,0,0,0,0,0,90.05,0,1,0,-0.19,0,0,0.12,90,0,0,0,0,0,0,0,0,0.044,0,0,3,0,0,0,69,0,0,0,0,0,0,,0,NONE,0,0,0,0,0,0,0,0,0,0,0,0,0,0,0,0,0,0,0,0,0,90.05,1,0.044,-0.039,0.0026,1,0,0.0026,0,0,0,0,0,0,2,2,0,0,VALID,0,0,0,0,0,1,0,0,0,0,0,0,0,0,0,0,0,0,0,0,2452.86,2470.6,6,0,0.06,0.06,358,13.33,0.1,0.06,29.18,LANDED,X11-E,0:/Integrated Flight Computer/aircraft/x11_e_cfg.ks (inferred preloaded)
29.66,TAKEOFF,TO_GROUND_ROLL,119.55,80,-39.55,5.14,-8.86,-0.4,-0.18,0,90,0.104,1,0,0,0,0,0,0,0,0,0,0,0,0,0,0,90.05,0,1,0,-0.19,0,0,0.13,90,0,0,0,0,0,0,0,0,0.042,0,0,3,0,0,0,69,0,0,0,0,0,0,,0,NONE,0,0,0,0,0,0,0,0,0,0,0,0,0,0,0,0,0,0,0,0,0,90.05,1,0.042,-0.053,0.0034,1,0,0.0034,0,0,0,0,0,0,2,2,0,0,VALID,0,0,0,0,0,1,0,0,0,0,0,0,0,0,0,0,0,0,0,0,2473.79,2490.72,6,0,0.06,0.06,362,13.33,0.1,0.06,29.48,LANDED,X11-E,0:/Integrated Flight Computer/aircraft/x11_e_cfg.ks (inferred preloaded)
29.9,TAKEOFF,TO_ROTATE,121.28,80,-41.28,5.14,-8.96,-0.4,-0.18,0,89.99,0.102,1,0,0,0,0,0,0,0,0,0,0,0,0,0,0,90.05,0.321,1,0,-0.19,0,0,0.13,90,0,0,0,0,0,0,0,0,0.041,0,0,3,0,0,0,69,0,0,0,0,0,0,,0,NONE,0,0,0,0,0,0,0,0.1455,0,0,0,0,0,0,0,0,0,0,0,0,0,90.05,1,0.041,-0.065,0.004,1,0,0.004,0,0.1455,0.321,0.504,0.08,0,2,2,0,0,VALID,0,0,0,0,0,1,0,0,0,0,0,0,0,0,0,0,0,0,0,0,2490.74,2507.06,6,0,0.08,0.08,365,11.54,0.1,0.06,29.72,LANDED,X11-E,0:/Integrated Flight Computer/aircraft/x11_e_cfg.ks (inferred preloaded)
30.2,TAKEOFF,TO_ROTATE,123.29,80,-43.29,5.18,-9.08,-0.39,-0.12,0.05,89.97,0.105,1,0,0,0,0,0,0,0,0,0,0,0,0,0,0,90.05,1.401,1,0,-0.18,0,0,0.13,90,0,0,0,0,0,0,0,0,0.04,0,0,3,0,0,0,69,0,0,0,0,0,0,,0,NONE,0,0,0,0,0,0,0,0.2782,0,0,0,0,0,0,0,0,0,0,0,0,0,90.05,1,0.04,-0.08,0.0047,1,0,0.0047,0,0.2782,1.401,1.524,0.08,0,2,2,0,0,VALID,0,0,0,0,0,1,0,0,0,0,0,0,0,0,0,0,0,0,0,0,2512.18,2527.76,6,0,0.08,0.08,369,13.33,0.08,0.06,30.02,LANDED,X11-E,0:/Integrated Flight Computer/aircraft/x11_e_cfg.ks (inferred preloaded)
30.5,TAKEOFF,TO_ROTATE,125.32,80,-45.32,5.24,-9.2,-0.39,-0.02,0.15,89.96,0.107,1,0,0,0,0,0,0,0,0,0,0,0,0,0,0,90.04,2.481,1,0,-0.18,0,0,0.14,90,0,0,0,0,0,0,0,0,0.039,0,0,3,0,0,0,69,0,0,0,0,0,0,,0,NONE,0,0,0,0,0,0,0,0.4053,0,0,0,0,0,0,0,0,0,0,0,0,0,90.04,1,0.039,-0.086,0.0045,1,0,0.0045,0,0.4053,2.481,2.503,0.08,0,2,2,0,0,VALID,0,0,0,0,0,1,0,0,0,0,0,0,0,0,0,0,0,0,0,0,2533.84,2548.71,6,0,0.08,0.08,373,13.33,0.08,0.06,30.32,LANDED,X11-E,0:/Integrated Flight Computer/aircraft/x11_e_cfg.ks (inferred preloaded)
30.8,TAKEOFF,TO_ROTATE,127.36,80,-47.36,5.27,-9.32,-0.39,0.03,0.19,89.95,0.113,1,0,0,0,0,0,0,0,0,0,0,0,0,0,0,90.04,3.561,1,0,-0.18,0,0,0.14,90,0,0,0,0,0,0,0,0,0.039,0,0,3,0,0,0,69,0,0,0,0,0,0,,0,NONE,0,0,0,0,0,0,0,0.5396,0,0,0,0,0,0,0,0,0,0,0,0,0,90.04,1,0.039,-0.088,0.0044,1,0,0.0044,0,0.5396,3.561,3.535,0.08,0,2,2,0,0,VALID,0,0,0,0,0,1,0,0,0,0,0,0,0,0,0,0,0,0,0,0,2555.58,2569.78,6,0,0.08,0.08,377,13.33,0.08,0.06,30.62,LANDED,X11-E,0:/Integrated Flight Computer/aircraft/x11_e_cfg.ks (inferred preloaded)
31.1,TAKEOFF,TO_ROTATE,129.41,80,-49.41,5.27,-9.52,-0.36,0.07,0.27,89.96,0.134,1,0,0,0,0,0,0,0,0,0,0,0,0,0,0,90.03,4.641,1,0,-0.2,0,0,0.14,90,0,0,0,0,0,0,0,0,0.04,0,0,3,0,0,0,69,0,0,0,0,0,0,,0,NONE,0,0,0,0,0,0,0,0.6738,0,0,0,0,0,0,0,0,0,0,0,0,0,90.03,1,0.04,-0.078,0.0027,1,0,0.0027,0,0.6738,4.641,4.568,0.08,0,2,2,0,0,VALID,0,0,0,0,0,1,0,0,0,0,0,0,0,0,0,0,0,0,0,0,2577.31,2590.86,6,0,0.08,0.08,381,13.33,0.08,0.06,30.92,LANDED,X11-E,0:/Integrated Flight Computer/aircraft/x11_e_cfg.ks (inferred preloaded)
31.4,TAKEOFF,TO_ROTATE,131.46,80,-51.46,5.43,-9.56,-0.37,0.21,0.34,89.98,0.092,1,0,0,0,0,0,0,0,0,0,0,0,0,0,0,90.03,5.721,1,0,-0.14,0,0,0.15,90,0,0,0,0,0,0,0,0,0.043,0,0,3,0,0,0,69,0,0,0,0,0,0,,0,NONE,0,0,0,0,0,0,0,0.72,0,0,0,0,0,0,0,0,0,0,0,0,0,90.03,1,0.043,-0.046,0.0001,1,0,0.0001,0,0.72,5.721,5.51,0.08,0,2,2,0,0,VALID,0,0,0,0,0,1,0,0,0,0,0,0,0,0,0,0,0,0,0,0,2599.12,2612.07,6,0,0.08,0.08,385,13.33,0.08,0.06,31.22,LANDED,X11-E,0:/Integrated Flight Computer/aircraft/x11_e_cfg.ks (inferred preloaded)
31.7,TAKEOFF,TO_ROTATE,133.5,80,-53.5,5.6,-9.7,-0.23,0.49,0.6,89.99,0.094,1,0,0,0,0,0,0,0,0,0,0,0,0,0,0,90.04,6.801,1,0,-0.12,0,0,0.15,90,0,0,0,0,0,0,0,0,0.045,0,0,3,0,0,0,69,0,0,0,0,0,0,,0,NONE,0,0,0,0,0,0,0,0.72,0,0,0,0,0,0,0,0,0,0,0,0,0,90.04,1,0.045,-0.052,0.0022,1,0,0.0022,0,0.72,6.801,6.314,0.08,0,2,2,0,0,VALID,0,0,0,0,0,1,0,0,0,0,0,0,0,0,0,0,0,0,0,0,2621.23,2633.62,6,0,0.08,0.08,389,13.33,0.08,0.06,31.52,LANDED,X11-E,0:/Integrated Flight Computer/aircraft/x11_e_cfg.ks (inferred preloaded)
32,TAKEOFF,TO_ROTATE,135.56,80,-55.56,5.97,-9.75,-0.24,0.88,0.96,89.98,0.114,1,0,0,0,0,0,0,0,0,0,0,0,0,0,0,90.05,7.881,1,0,-0.09,0,0,0.16,90,0,0,0,0,0,0,0,0,0.044,0,0,3,0,0,0,69,0,0,0,0,0,0,,0,NONE,0,0,0,0,0,0,0,0.72,0,0,0,0,0,0,0,0,0,0,0,0,0,90.05,1,0.044,-0.069,0.0039,1,0,0.0039,0,0.72,7.881,7.004,0.08,0,2,2,0,0,VALID,0,0,0,0,0,1,0,0,0,0,0,0,0,0,0,0,0,0,0,0,2643.73,2655.61,6,0,0.08,0.08,393,13.33,0.08,0.06,31.82,LANDED,X11-E,0:/Integrated Flight Computer/aircraft/x11_e_cfg.ks (inferred preloaded)
32.3,TAKEOFF,TO_ROTATE,137.62,80,-57.62,6.46,-9.88,-0.1,1.51,1.56,89.97,0.111,1,0,0,0,0,0,0,0,0,0,0,0,0,0,0,90.05,8.961,1,0,-0.05,0,0,0.16,90,0,0,0,0,0,0,0,0,0.044,0,0,3,0,0,0,69,0,0,0,0,0,0,,0,NONE,0,0,0,0,0,0,0,0.72,0,0,0,0,0,0,0,0,0,0,0,0,0,90.05,1,0.044,-0.073,0.0037,1,0,0.0037,0,0.72,8.961,7.453,0.08,0,2,2,0,0,VALID,0,0,0,0,0,1,0,0,0,0,0,0,0,0,0,0,0,0,0,0,2666.7,2678.09,6,0,0.08,0.08,397,13.33,0.08,0.06,32.12,LANDED,X11-E,0:/Integrated Flight Computer/aircraft/x11_e_cfg.ks (inferred preloaded)
32.6,TAKEOFF,TO_ROTATE,139.7,80,-59.7,7.17,-9.98,-0.06,2.34,2.36,89.98,0.118,1,0,0,0,0,0,0,0,0,0,0,0,0,0,0,90.04,10,1,0,-0.02,0,0,0.16,90,0,0,0,0,0,0,0,0,0.044,0,0,3,0,0,0,69,0,0,0,0,0,0,,0,NONE,0,0,0,0,0,0,0,0.72,0,0,0,0,0,0,0,0,0,0,0,0,0,90.04,1,0.044,-0.061,0.0021,1,0,0.0021,0,0.72,10,7.657,0.08,0,2,2,0,0,VALID,0,0,0,0,0,1,0,0,0,0,0,0,0,0,0,0,0,0,0,0,2690.13,2701.05,6,0,0.08,0.08,401,13.33,0.08,0.06,32.42,LANDED,X11-E,0:/Integrated Flight Computer/aircraft/x11_e_cfg.ks (inferred preloaded)
32.92,TAKEOFF,TO_ROTATE,141.92,80,-61.92,8.16,-10.14,0.1,3.56,3.53,89.99,0.114,1,0,0,0,0,0,0,0,0,0,0,0,0,0,0,90.03,10,1,0,0.03,0,0,0.17,90,0,0,0,0,0,0,0,0,0.044,0,0,3,0,0,0,69,0,0,0,0,0,0,,0,NONE,0,0,0,0,0,0,0,0.72,0,0,0,0,0,0,0,0,0,0,0,0,0,90.03,1,0.044,-0.042,0.0006,1,0,0.0006,0,0.72,10,6.436,0.08,0,2,2,0,0,VALID,0,0,0,0,0,1,0,0,0,0,0,0,0,0,0,0,0,0,0,0,2715.58,2726.02,6,0,0.1,0.1,405,12.5,0.1,0.06,32.74,LANDED,X11-E,0:/Integrated Flight Computer/aircraft/x11_e_cfg.ks (inferred preloaded)
33.22,TAKEOFF,TO_ROTATE,144,80,-64,9.38,-10.24,0.28,5.03,4.93,90.01,0.118,1,0,0,0,0,0,0,0,0,0,0,0,0,0,0,90.03,10,1,0,0.11,0,0,0.17,90,0,0,0,0,0,0,0,0,0.044,0,0,3,0,0,0,69,0,0,0,0,0,0,,0,NONE,0,0,0,0,0,0,0,0.72,0,0,0,0,0,0,0,0,0,0,0,0,0,90.03,1,0.044,-0.025,-0.0001,1,0,-0.0001,0,0.72,10,4.968,0.08,0,2,2,0,0,VALID,0,0,0,0,0,1,0,0,0,0,0,0,0,0,0,0,0,0,0,0,2739.62,2749.62,6,0,0.08,0.08,409,13.33,0.1,0.06,33.04,LANDED,X11-E,0:/Integrated Flight Computer/aircraft/x11_e_cfg.ks (inferred preloaded)
33.52,TAKEOFF,TO_ROTATE,145.98,80,-65.98,10.91,-10.51,0.62,6.84,6.6,90.02,0.109,1,0,0,0,0,0,0,0,0,0,0,0,0,0,0,90.04,10,1,0,0.24,0,0,0.18,90,0,0,0,0,0,0,0,0,0.045,0,0,3,0,0,0,69,0,0,0,0,0,0,,0,NONE,0,0,0,0,0,0,0,0.4914,0,0,0,0,0,0,0,0,0,0,0,0,0,90.04,1,0.045,-0.015,-0.0001,1,0,-0.0001,0,0.4914,10,3.164,0.08,0,2,2,0,0,VALID,0,0,0,0,0,1,0,0,0,0,0,0,0,0,0,0,0,0,0,0,2763.01,2772.52,6,0,0.08,0.08,413,13.33,0.08,0.06,33.34,LANDED,X11-E,0:/Integrated Flight Computer/aircraft/x11_e_cfg.ks (inferred preloaded)
33.82,TAKEOFF,TO_ROTATE,147.86,80,-67.86,12.18,-10.38,1.54,8,7.4,90.02,0.08,1,0,0,0,0,0,0,0,0,0,0,0,0,0,0,90.05,10,1,0,0.62,0,0,0.18,90,0,0,0,0,0,0,0,0,0.044,0,0,3,0,0,0,69,0,0,0,0,0,0,,0,NONE,0,0,0,0,0,0,0,0.3398,0,0,0,0,0,0,0,0,0,0,0,0,0,90.05,1,0.044,-0.021,0.001,1,0,0.001,0,0.3398,10,1.999,0.08,0,2,2,0,0,VALID,0,0,0,0,0,1,0,0,0,0,0,0,0,0,0,0,0,0,0,0,2785.29,2794.34,6,0,0.08,0.08,417,13.33,0.08,0.06,33.64,LANDED,X11-E,0:/Integrated Flight Computer/aircraft/x11_e_cfg.ks (inferred preloaded)
34.12,TAKEOFF,TO_ROTATE,149.67,80,-69.67,13.35,-10.29,1.05,8.98,8.59,90.02,0.058,1,0,0,0,0,0,0,0,0,0,0,0,0,0,0,90,10,0,1,0.4,0,0,10,90,0.3037,0.0001,0.9528,10,90,0,0,0,0,0,0,3,0,0,0,69,0,0,0,0,0,0,,0,NONE,0,0,0,0,0,0,0,0,0,0,0,0,0,0,0,0,0,0,0,0,0,90,1,0,0.018,0,0,3,0,0,0,10,1.023,0,0,2,2,0,0,VALID,0,0,0,0,0,1,0,0,0,0,0,0,0,0,0,0,0,0,0,0,2806.72,2815.47,6,0,0.08,0.08,421,14.29,0.08,0.06,33.94,FLYING,X11-E,0:/Integrated Flight Computer/aircraft/x11_e_cfg.ks (inferred preloaded)
34.4,TAKEOFF,TO_ROTATE,151.54,80,-71.54,14.61,-10.37,1.2,10.33,9.93,90.02,0.058,1,0,0,0,0,0,0,0,0,0,0,0,0,0,0,90.04,10,1,0,0.41,0,0,10,90,0.3037,0.0001,0.9528,10,90,0,0,0,0.044,0,0,3,0,0,0,69,0,0,0,0,0,0,,0,NONE,0,0,0,0,0,0,0,0.0373,0,0,0,0,0,0,0,0,0,0,0,0,0,90.04,1,0.044,-0.021,0.0005,1,0,0.0005,0,0.0373,10,-0.328,0.08,0,2,2,0,0,VALID,0,0,0,0,0,1,0,0,0,0,0,0,0,0,0,0,0,0,0,0,2829.39,2837.69,6,0,0.08,0.08,425,13.33,0.08,0.06,34.22,LANDED,X11-E,0:/Integrated Flight Computer/aircraft/x11_e_cfg.ks (inferred preloaded)
34.72,TAKEOFF,TO_ROTATE,153.31,80,-73.31,16.07,-10.09,2.14,11.43,10.66,90.03,0.028,1,0,0,0,0,0,0,0,0,0,0,0,0,0,0,90,10,1,0,0.8,0,0,10.01,90,0.3036,0.0001,0.9528,10,90,0,0,0,0,0,0,3,0,0,0,69,0,0,0,0,0,0,,0,NONE,0,0,0,0,0,0,0,0,0,0,0,0,0,0,0,0,0,0,0,0,0,90,1,0,0.026,0,0,3,0,0,0,10,-1.435,0,0,2,2,0,0,VALID,0,0,0,0,0,1,0,0,0,0,0,0,0,0,0,0,0,0,0,0,2850.85,2858.74,6,0,0.08,0.08,429,13.33,0.1,0.06,34.54,FLYING,X11-E,0:/Integrated Flight Computer/aircraft/x11_e_cfg.ks (inferred preloaded)
34.98,TAKEOFF,TO_ROTATE,154.75,80,-74.75,17.3,-9.65,2.54,12.18,11.27,90.02,0.033,1,0,0,0,0,0,0,0,0,0,0,0,0,0,0,90,10,0,1,0.94,0,0,10,90,0.3035,0.0001,0.9528,10,90,0,0,0,0,0,0,3,0,0,0,69,0,0,0,0,0,0,,0,NONE,0,0,0,0,0,0,0,0,0,0,0,0,0,0,0,0,0,0,0,0,0,90,1,0,0.015,0,0,3,0,0,0,10,-2.181,0,0,2,2,0,0,VALID,0,0,0,0,0,1,0,0,0,0,0,0,0,0,0,0,0,0,0,0,2868.49,2876.06,6,0,0.08,0.08,433,15.38,0.08,0.04,34.8,FLYING,X11-E,0:/Integrated Flight Computer/aircraft/x11_e_cfg.ks (inferred preloaded)
35.24,TAKEOFF,TO_CLIMB,156.12,80,-76.12,19.06,-9.33,2.65,13.53,12.58,90.01,0.006,1,0,0,0,0,0,0,0,0,0,0,0,0,0,0,90,10,0,1,0.97,0,0,10,90,0.3035,0.0001,0.9528,10,90,0,0,0,0,0,0,3,0,0,0,69,0,0,0,0,0,0,,0,NONE,0,0,0,0,0,0,0,0,0,0,0,0,0,0,0,0,0,0,0,0,0,90,1,0,0.007,0,0,3,0,0,0,10,-3.528,0,0,2,2,0,0,VALID,0,0,0,0,0,1,0,0,0,0,0,0,0,0,0,0,0,0,0,0,2885.49,2892.57,6,0,0.08,0.08,437,15.38,0.08,0.04,35.06,FLYING,X11-E,0:/Integrated Flight Computer/aircraft/x11_e_cfg.ks (inferred preloaded)
35.52,TAKEOFF,TO_CLIMB,157.21,80,-77.21,21.42,-9.06,3.31,15.69,14.52,90.02,0.022,0.9279,0,0,0,0,0,0,0,0,0,0,0,0,0,0,90,12.744,0,1,1.21,0,0,12.97,90,0.3487,0.0002,0.9372,12.74,90,0,0,0,0,0,0,3,0,0,0,69,0,0,0,0,0,0,,0,NONE,0,0,0,0,0,0,0,0,0,0,0,0,0,0,0,0,0,0,0,0,0,90,1,0,0.016,0,0,3,0,0,0,10,-3.528,0,0,1,1,0,0,VALID,0,0,0,0,0,1,0,0,0,0,0,0,0,0,0,0,0,0,0,0,2891.4,2905.87,6,0,0.08,0.08,441,14.29,0.08,0.04,35.34,FLYING,X11-E,0:/Integrated Flight Computer/aircraft/x11_e_cfg.ks (inferred preloaded)
35.78,TAKEOFF,TO_CLIMB,158.07,80,-78.07,23.56,-8.27,5.39,17.05,15.14,90.01,0,0.9193,0,0,0,0,0,0,0,0,0,0,0,0,0,0,90,12.016,0,1,1.95,0,0,12.24,90,0.3367,0.0002,0.9416,12.02,90,0,0,0,0,0,0,3,0,0,0,69,0,0,0,0,0,0,,0,NONE,0,0,0,0,0,0,0,0,0,0,0,0,0,0,0,0,0,0,0,0,0,90,1,0,0.013,0,0,3,0,0,0,10,-3.528,0,0,1,1,0,0,VALID,0,0,0,0,0,1,0,0,0,0,0,0,0,0,0,0,0,0,0,0,2883.97,2916.45,6,0,0.08,0.08,445,15.38,0.08,0.04,35.6,FLYING,X11-E,0:/Integrated Flight Computer/aircraft/x11_e_cfg.ks (inferred preloaded)
36.04,TAKEOFF,TO_CLIMB,158.79,80,-78.79,25.5,-6.67,7.21,17.36,14.82,90.01,0.01,0.9121,0,0,0,0,0,0,0,0,0,0,0,0,0,0,90,11.288,0,1,2.6,0,0,11.51,90,0.3246,0.0001,0.9458,11.29,90,0,0,0,0,0,0,3,0,0,0,69,0,0,0,0,0,0,,0,NONE,0,0,0,0,0,0,0,0,0,0,0,0,0,0,0,0,0,0,0,0,0,90,1,0,0.01,0,0,3,0,0,0,10,-3.528,0,0,1,1,0,0,VALID,0,0,0,0,0,1,0,0,0,0,0,0,0,0,0,0,0,0,0,0,2873.57,2924.96,6,0,0.08,0.08,449,15.38,0.08,0.04,35.86,FLYING,X11-E,0:/Integrated Flight Computer/aircraft/x11_e_cfg.ks (inferred preloaded)
36.3,TAKEOFF,TO_CLIMB,159.6,80,-79.6,27.44,-4.42,9.1,16.98,13.79,90.01,0.014,0.904,0,0,0,0,0,0,0,0,0,0,0,0,0,0,90,10.56,0,1,3.26,0,0,10.79,90,0.3125,0.0001,0.9499,10.56,90,0,0,0,0,0,0,3,0,0,0,69,0,0,0,0,0,0,,0,NONE,0,0,0,0,0,0,0,0,0,0,0,0,0,0,0,0,0,0,0,0,0,90,1,0,0.012,0,0,3,0,0,0,10,-3.528,0,0,1,1,0,0,VALID,0,0,0,0,0,1,0,0,0,0,0,0,0,0,0,0,0,0,0,0,2864.14,2934.69,6,0,0.08,0.08,453,15.38,0.08,0.04,36.12,FLYING,X11-E,0:/Integrated Flight Computer/aircraft/x11_e_cfg.ks (inferred preloaded)
36.56,TAKEOFF,TO_CLIMB,160.49,80,-80.49,29.4,-1.57,10.45,16,12.36,90.01,0.009,0.8951,0,0,0,0,0,0,0,0,0,0,0,0,0,0,90,9.832,0,1,3.73,0,0,10.06,90,0.3003,0.0001,0.9538,9.83,90,0,0,0,0,0,0,3,0,0,0,69,0,0,0,0,0,0,,0,NONE,0,0,0,0,0,0,0,0,0,0,0,0,0,0,0,0,0,0,0,0,0,90,1,0,0.009,0,0,3,0,0,0,10,-3.528,0,0,1,1,0,0,VALID,0,0,0,0,0,1,0,0,0,0,0,0,0,0,0,0,0,0,0,0,2854.55,2945.16,6,0,0.08,0.08,457,15.38,0.08,0.04,36.38,FLYING,X11-E,0:/Integrated Flight Computer/aircraft/x11_e_cfg.ks (inferred preloaded)
36.82,TAKEOFF,TO_CLIMB,161.62,80,-81.62,31.63,1.59,11.34,14.97,11.05,90.01,0.009,0.8838,0,0,0,0,0,0,0,0,0,0,0,0,0,0,90,9.104,0,1,4.01,0,0,9.33,90,0.2881,0.0001,0.9576,9.1,90,0,0,0,0,0,0,3,0,0,0,69,0,0,0,0,0,0,,0,NONE,0,0,0,0,0,0,0,0,0,0,0,1.59,0,0,0,0,0,0,0,0,0,90,1,0,0.007,0,0,3,0,0,0,10,-3.528,0,0,1,1,0,0,VALID,0,0,0,0,0,1,0,0,0,0,0,0,0,0,0,0,0,0,0,0,2847.07,2958.66,6,0,0.08,0.08,461,15.38,0.08,0.04,36.64,FLYING,X11-E,0:/Integrated Flight Computer/aircraft/x11_e_cfg.ks (inferred preloaded)
37.08,TAKEOFF,TO_CLIMB,162.89,80,-82.89,34.11,4.94,11.89,14.05,9.97,90.01,0.009,0.8711,0,0,0,0,0,0,0,0,0,0,0,0,0,0,90,8.376,0,1,4.18,0,0,8.6,90,0.2759,0.0001,0.9612,8.38,90,0,0,0,0,0,0,3,0,0,0,69,0,0,0,0,0,0,,0,NONE,0,0,0,0,0,0,0,0,0,0,0,4.94,0,0,0,0,0,0,0,0,0,90,1,0,0.005,0,0,3,0,0,0,10,-3.528,0,0,1,1,0,0,VALID,0,0,0,0,0,1,0,0,0,0,0,0,0,0,0,0,0,0,0,0,2839.79,2973.83,6,0,0.08,0.08,465,15.38,0.08,0.04,36.9,FLYING,X11-E,0:/Integrated Flight Computer/aircraft/x11_e_cfg.ks (inferred preloaded)
37.34,TAKEOFF,TO_CLIMB,164.25,80,-84.25,37.05,8.27,12.26,13.63,9.45,90.01,0.008,0.8575,0,0,0,0,0,0,0,0,0,0,0,0,0,0,90,7.648,0,1,4.27,0,0,7.87,90,0.2636,0.0001,0.9646,7.65,90,0,0,0,0,0,0,3,0,0,0,69,0,0,0,0,0,0,,0,NONE,0,0,0,0,0,0,0,0,0,0,0,8.27,0,0,0,0,0,0,0,0,0,90,1,0,0.006,0,0,3,0,0,0,10,-3.528,0,0,1,1,0,0,VALID,0,0,0,0,0,1,0,0,0,0,0,0,0,0,0,0,0,0,0,0,2832.09,2990.31,6,0,0.08,0.08,469,15.38,0.08,0.04,37.16,FLYING,X11-E,0:/Integrated Flight Computer/aircraft/x11_e_cfg.ks (inferred preloaded)
37.6,TAKEOFF,TO_CLIMB,165.62,80,-85.62,40.24,11.65,12.51,13.48,9.26,90.01,0.016,0.8438,0,0,0,0,0,0,0,0,0,0,0,0,0,0,90,7,0,1,4.32,0,0,7.15,90,0.2526,0.0001,0.9676,7,90,0,0,0,0,0,0,3,0,0,0,69,0,0,0,0,0,0,,0,NONE,0,0,0,0,0,0,0,0,0,0,0,11.65,0,0,0,0,0,0,0,0,0,90,1,0,0.005,0,0,3,0,0,0,10,-3.528,0,0,1,1,0,0,VALID,0,0,0,0,0,1,0,0,0,0,0,0,0,0,0,0,0,0,0,0,2822.84,3007.03,6,0,0.08,0.08,473,15.38,0.08,0.04,37.42,FLYING,X11-E,0:/Integrated Flight Computer/aircraft/x11_e_cfg.ks (inferred preloaded)
37.86,TAKEOFF,TO_CLIMB,166.96,80,-86.96,43.89,14.95,13.04,13.87,9.5,90.01,-0.006,0.8304,0,0,0,0,0,0,0,0,0,0,0,0,0,0,90,7,0,1,4.46,0,0,7,90,0.2525,0.0001,0.9676,7,90,0,0,0,0,0,0,3,0,0,0,69,0,0,0,0,0,0,,0,NONE,0,0,0,0,0,0,0,0,0,0,0,14.95,0,0,0,0,0,0,0,0,0,90,1,0,0.006,0,0,3,0,0,0,10,-3.528,0,0,1,1,0,0,VALID,0,0,0,0,0,1,0,0,0,0,0,0,0,0,0,0,0,0,0,0,2811.66,3023.46,6,0,0.08,0.08,477,15.38,0.08,0.04,37.68,FLYING,X11-E,0:/Integrated Flight Computer/aircraft/x11_e_cfg.ks (inferred preloaded)
