t_s,phase,subphase,ias_ms,vapp_ms,spd_err_ms,agl_m,vs_ms,pitch_deg,aoa_deg,hdg_deg,bank_deg,thr_cmd,thr_cur,thr_intg,at_gain,at_tau_s,at_a_up,at_a_dn,at_kp_thr,at_ki_spd,at_thr_slew,as_cmd_deg,as_cap_deg,as_raw_deg,as_spd_err_ms,as_active,aa_hdg_cmd_deg,aa_fpa_cmd_deg,aa_fbw,aa_dir,actual_fpa_deg,ftf_hdg_err_deg,ftf_fix_idx,kos_steer_pit_deg,kos_steer_hdg_deg,aa_dir_vx,aa_dir_vy,aa_dir_vz,aa_dir_pitch_deg,aa_dir_hdg_deg,ils_loc_m,ils_gs_m,ils_dist_km,loc_corr_deg,gs_corr_deg,gs_latched,active_gs_ang_deg,ils_intercept_alt_m,d_gs_ms,fpa_preclamped_deg,gs_nom_alt_m,flare_fpa_cmd,flare_tgt_vs,flare_frac,steer_hdg_deg,steer_blend,ro_loc_corr_deg,ro_hdg_err_deg,ro_yaw_tgt,ro_yaw_scale,ro_yaw_gate,yaw_cmd,roll_cmd,pitch_cmd,ro_pitch_tgt_deg,ro_pitch_err_deg,ro_pitch_ff,ro_roll_assist,flaps_cur,flaps_tgt,asc_j_ab,asc_j_rk,asc_validity,asc_q_pa,asc_q_raw_pa,asc_mach,asc_apo_m,asc_drag_n,asc_w_prop,asc_edot_aero,asc_edot_orb,asc_pitch_bias,asc_blend,asc_spooling,asc_ab_thr_ratio,asc_ab_t_now,asc_ab_t_avail,asc_ab_ign_on,asc_ab_flameouts,asc_rk_t_now,asc_rk_t_avail,asc_rk_ign_on,asc_rk_flameouts,ship_thrust,ship_avail_thrust,ship_ign_on,ship_flameouts,ifc_raw_dt_s,ifc_dt_s,ifc_loop_n,ifc_hz_est,ifc_raw_dt_max_s,ifc_raw_dt_min_s,phase_el_s,status,craft_name,cfg_file
0.28,APPROACH,FLY_TO_FIX,159.27,70.14,-89.12,1197.38,-56.58,-20.52,-1.46,269.58,1.575,0,0,0,1,0.6,0.9,0.75,0.35,0.0168,0.4,4.5,28.242,28.242,89.049,1,281.3,5,1,0,-19.43,11.72,0,0,90,0,0,0,0,0,0,0,49.296,0,0,0,3,0,0,0,2657.8,0,0,0,269.57,0,0,0,0,0,0,0,0,0,0,0,0,0,0,0,0,0,VALID,0,0,0,0,0,1,0,0,0,0,0,0,0,0,0,0,0,0,0,0,34.25,342.59,2,0,0.18,0.18,1,2.86,0.18,0.02,0.28,FLYING,CF1-J,0:/Integrated Flight Computer/aircraft/cf1_j_cfg.ks (inferred preloaded)
0.56,APPROACH,FLY_TO_FIX,160.28,70.38,-89.89,1181.69,-57.38,-19.34,0.73,269.78,2.069,0,0,0,1,0.6,1.225,0.75,0.35,0.0168,0.4,12,28,28,89.826,1,281.33,5,0,0,-19.77,11.55,0,5,281.31,0,0,0,0,0,0,0,49.251,0,0,0,3,0,0,0,2655.41,0,0,0,269.57,0,0,0,0,0,0,0,0,0,0,0,0,0,0,0,0,0,VALID,0,0,0,0,0,1,0,0,0,0,0,0,0,0,0,0,0,0,0,0,31.96,342.97,2,0,0.14,0.14,3,7.14,0.18,0.14,0.56,FLYING,CF1-J,0:/Integrated Flight Computer/aircraft/cf1_j_cfg.ks (inferred preloaded)
0.84,APPROACH,FLY_TO_FIX,161.05,70.61,-90.44,1166.41,-54.46,-16.09,2.61,270.13,4.933,0,0,0,1,0.6,1.888,0.75,0.35,0.0168,0.4,19,28,28,90.395,1,281.35,5,0,0,-19.04,11.23,0,5,281.34,0,0,0,0,0,0,0,49.205,0,0,0,3,0,0,0,2653,0,0,0,269.57,0,0,0,0,0,0,0,0,0,0,0,0,0,0,0,0,0,VALID,0,0,0,0,0,1,0,0,0,0,0,0,0,0,0,0,0,0,0,0,29.84,343.43,2,0,0.14,0.14,5,7.14,0.14,0.14,0.84,FLYING,CF1-J,0:/Integrated Flight Computer/aircraft/cf1_j_cfg.ks (inferred preloaded)
1.12,APPROACH,FLY_TO_FIX,161.58,70.83,-90.75,1151.81,-51.29,-14.97,2.55,270.73,9.306,0,0,0,1,0.6,2.45,0.75,0.35,0.0168,0.4,26,28,28,90.71,1,281.38,5,0,0,-17.91,10.65,0,5,281.37,0,0,0,0,0,0,0,49.159,0,0,0,3,0,0,0,2650.58,0,0,0,269.57,0,0,0,0,0,0,0,0,0,0,0,0,0,0,0,0,0,VALID,0,0,0,0,0,1,0,0,0,0,0,0,0,0,0,0,0,0,0,0,27.85,343.92,2,0,0.14,0.14,7,7.14,0.14,0.14,1.12,FLYING,CF1-J,0:/Integrated Flight Computer/aircraft/cf1_j_cfg.ks (inferred preloaded)
1.4,APPROACH,FLY_TO_FIX,162.11,71.06,-91.05,1138.08,-48.1,-13.93,2.42,271.33,12.684,0,0,0,1,0.6,2.927,0.75,0.35,0.0168,0.4,28,28,28,91.019,1,281.41,5,0,0,-16.82,10.08,0,5,281.39,0,0,0,0,0,0,0,49.112,0,0,0,3,0,0,0,2648.14,0,0,0,269.57,0,0,0,0,0,0,0,0,0,0,0,0,0,0,0,0,0,VALID,0,0,0,0,0,1,0,0,0,0,0,0,0,0,0,0,0,0,0,0,26,344.38,2,0,0.14,0.14,9,7.14,0.14,0.14,1.4,FLYING,CF1-J,0:/Integrated Flight Computer/aircraft/cf1_j_cfg.ks (inferred preloaded)
1.68,APPROACH,FLY_TO_FIX,162.51,71.28,-91.23,1125.21,-45.08,-13,2.29,271.78,13.932,0,0,0,1,0.6,3.332,0.75,0.35,0.0168,0.4,28,28,28,91.206,1,281.43,5,0,0,-15.79,9.65,0,5,281.42,0,0,0,0,0,0,0,49.065,0,0,0,3,0,0,0,2645.67,0,0,0,269.57,0,0,0,0,0,0,0,0,0,0,0,0,0,0,0,0,0,VALID,0,0,0,0,0,1,0,0,0,0,0,0,0,0,0,0,0,0,0,0,24.27,344.84,2,0,0.14,0.14,11,7.14,0.14,0.14,1.68,FLYING,CF1-J,0:/Integrated Flight Computer/aircraft/cf1_j_cfg.ks (inferred preloaded)
1.96,APPROACH,FLY_TO_FIX,162.7,71.5,-91.2,1113.16,-42.16,-12.13,2.14,272.15,14.269,0,0,0,1,0.6,3.676,0.75,0.35,0.0168,0.4,28,28,28,91.188,1,281.46,5,0,0,-14.81,9.3,0,5,281.44,0,0,0,0,0,0,0,49.018,0,0,0,3,0,0,0,2643.2,0,0,0,269.57,0,0,0,0,0,0,0,0,0,0,0,0,0,0,0,0,0,VALID,0,0,0,0,0,1,0,0,0,0,0,0,0,0,0,0,0,0,0,0,22.66,345.33,2,0,0.14,0.14,13,7.14,0.14,0.14,1.96,FLYING,CF1-J,0:/Integrated Flight Computer/aircraft/cf1_j_cfg.ks (inferred preloaded)
2.24,APPROACH,FLY_TO_FIX,162.85,71.73,-91.12,1101.9,-39.39,-11.3,2.02,272.55,14.439,0,0,0,1,0.6,3.969,0.75,0.35,0.0168,0.4,28,28,28,91.109,1,281.48,5,0,0,-13.86,8.93,0,5,281.47,0,0,0,0,0,0,0,48.97,0,0,0,3,0,0,0,2640.71,0,0,0,269.57,0,0,0,0,0,0,0,0,0,0,0,0,0,0,0,0,0,VALID,0,0,0,0,0,1,0,0,0,0,0,0,0,0,0,0,0,0,0,0,21.15,345.8,2,0,0.14,0.14,15,7.14,0.14,0.14,2.24,FLYING,CF1-J,0:/Integrated Flight Computer/aircraft/cf1_j_cfg.ks (inferred preloaded)
2.52,APPROACH,FLY_TO_FIX,162.96,71.95,-91,1091.39,-36.76,-10.53,1.88,272.96,14.48,0,0,0,1,0.6,4.217,0.75,0.35,0.0168,0.4,28,28,28,90.997,1,281.5,5,0,0,-12.96,8.54,0,5,281.49,0,0,0,0,0,0,0,48.923,0,0,0,3,0,0,0,2638.22,0,0,0,269.57,0,0,0,0,0,0,0,0,0,0,0,0,0,0,0,0,0,VALID,0,0,0,0,0,1,0,0,0,0,0,0,0,0,0,0,0,0,0,0,19.74,346.25,2,0,0.14,0.14,17,7.14,0.14,0.14,2.52,FLYING,CF1-J,0:/Integrated Flight Computer/aircraft/cf1_j_cfg.ks (inferred preloaded)
2.8,APPROACH,FLY_TO_FIX,163.03,72.18,-90.85,1081.63,-34.14,-9.66,1.88,273.4,14.467,0,0,0,1,0.6,4.429,0.75,0.35,0.0168,0.4,28,28,28,90.849,1,281.52,5,0,0,-12.08,8.12,0,5,281.51,0,0,0,0,0,0,0,48.875,0,0,0,3,0,0,0,2635.71,0,0,0,269.57,0,0,0,0,0,0,0,0,0,0,0,0,0,0,0,0,0,VALID,0,0,0,0,0,1,0,0,0,0,0,0,0,0,0,0,0,0,0,0,18.43,346.68,2,0,0.14,0.14,19,7.14,0.14,0.14,2.8,FLYING,CF1-J,0:/Integrated Flight Computer/aircraft/cf1_j_cfg.ks (inferred preloaded)
3.08,APPROACH,FLY_TO_FIX,163.06,72.4,-90.66,1072.57,-31.62,-8.92,1.77,273.82,14.416,0,0,0,1,0.6,4.5,0.75,0.35,0.0168,0.4,28,28,28,90.654,1,281.54,5,0,0,-11.22,7.72,0,5,281.53,0,0,0,0,0,0,0,48.827,0,0,0,3,0,0,0,2633.21,0,0,0,269.57,0,0,0,0,0,0,0,0,0,0,0,0,0,0,0,0,0,VALID,0,0,0,0,0,1,0,0,0,0,0,0,0,0,0,0,0,0,0,0,17.2,347.1,2,0,0.14,0.14,21,7.14,0.14,0.14,3.08,FLYING,CF1-J,0:/Integrated Flight Computer/aircraft/cf1_j_cfg.ks (inferred preloaded)
3.36,APPROACH,FLY_TO_FIX,163.05,72.62,-90.43,1064.19,-29.2,-8.21,1.64,274.23,14.282,0,0,0,1,0.6,4.5,0.75,0.35,0.0168,0.4,28,28,28,90.427,1,281.56,5,0,0,-10.38,7.34,0,5,281.55,0,0,0,0,0,0,0,48.779,0,0,0,3,0,0,0,2630.69,0,0,0,269.57,0,0,0,0,0,0,0,0,0,0,0,0,0,0,0,0,0,VALID,0,0,0,0,0,1,0,0,0,0,0,0,0,0,0,0,0,0,0,0,16.05,347.49,2,0,0.14,0.14,23,7.14,0.14,0.14,3.36,FLYING,CF1-J,0:/Integrated Flight Computer/aircraft/cf1_j_cfg.ks (inferred preloaded)
3.64,APPROACH,FLY_TO_FIX,163.02,72.85,-90.17,1056.46,-26.89,-7.54,1.53,274.61,14.073,0,0,0,1,0.6,4.5,0.75,0.35,0.0168,0.4,28,28,28,90.171,1,281.58,5,0,0,-9.59,6.97,0,5,281.57,0,0,0,0,0,0,0,48.731,0,0,0,3,0,0,0,2628.18,0,0,0,269.57,0,0,0,0,0,0,0,0,0,0,0,0,0,0,0,0,0,VALID,0,0,0,0,0,1,0,0,0,0,0,0,0,0,0,0,0,0,0,0,14.98,347.86,2,0,0.14,0.14,25,7.14,0.14,0.14,3.64,FLYING,CF1-J,0:/Integrated Flight Computer/aircraft/cf1_j_cfg.ks (inferred preloaded)
3.92,APPROACH,FLY_TO_FIX,162.96,73.07,-89.88,1049.36,-24.72,-6.91,1.44,274.98,13.811,0,0,0,1,0.6,4.5,0.75,0.35,0.0168,0.4,28,28,28,89.889,1,281.6,5,0,0,-8.84,6.62,0,5,281.59,0,0,0,0,0,0,0,48.683,0,0,0,3,0,0,0,2625.66,0,0,0,269.57,0,0,0,0,0,0,0,0,0,0,0,0,0,0,0,0,0,VALID,0,0,0,0,0,1,0,0,0,0,0,0,0,0,0,0,0,0,0,0,13.98,348.21,2,0,0.14,0.14,27,7.14,0.14,0.14,3.92,FLYING,CF1-J,0:/Integrated Flight Computer/aircraft/cf1_j_cfg.ks (inferred preloaded)
4.2,APPROACH,FLY_TO_FIX,162.87,73.3,-89.57,1042.84,-22.67,-6.33,1.34,275.33,13.506,0,0,0,1,0.6,4.5,0.75,0.35,0.0168,0.4,28,28,28,89.581,1,281.62,5,0,0,-8.12,6.29,0,5,281.61,0,0,0,0,0,0,0,48.635,0,0,0,3,0,0,0,2623.14,0,0,0,269.57,0,0,0,0,0,0,0,0,0,0,0,0,0,0,0,0,0,VALID,0,0,0,0,0,1,0,0,0,0,0,0,0,0,0,0,0,0,0,0,13.05,348.55,2,0,0.14,0.14,29,7.14,0.14,0.14,4.2,FLYING,CF1-J,0:/Integrated Flight Computer/aircraft/cf1_j_cfg.ks (inferred preloaded)
4.48,APPROACH,FLY_TO_FIX,162.76,73.52,-89.24,1036.87,-20.72,-5.78,1.23,275.67,13.172,0,0,0,1,0.6,4.5,0.75,0.35,0.0168,0.4,28,28,28,89.247,1,281.63,5,0,0,-7.44,5.97,0,5,281.63,0,0,0,0,0,0,0,48.587,0,0,0,3,0,0,0,2620.62,0,0,0,269.57,0,0,0,0,0,0,0,0,0,0,0,0,0,0,0,0,0,VALID,0,0,0,0,0,1,0,0,0,0,0,0,0,0,0,0,0,0,0,0,12.17,348.86,2,0,0.14,0.14,31,7.14,0.14,0.14,4.48,FLYING,CF1-J,0:/Integrated Flight Computer/aircraft/cf1_j_cfg.ks (inferred preloaded)
4.76,APPROACH,FLY_TO_FIX,162.62,73.74,-88.88,1031.43,-18.86,-5.24,1.14,275.99,12.814,0,0,0,1,0.6,4.5,0.75,0.35,0.0168,0.4,28,28,28,88.891,1,281.65,5,0,0,-6.79,5.66,0,5,281.64,0,0,0,0,0,0,0,48.539,0,0,0,3,0,0,0,2618.11,0,0,0,269.57,0,0,0,0,0,0,0,0,0,0,0,0,0,0,0,0,0,VALID,0,0,0,0,0,1,0,0,0,0,0,0,0,0,0,0,0,0,0,0,11.36,349.16,2,0,0.14,0.14,33,7.14,0.14,0.14,4.76,FLYING,CF1-J,0:/Integrated Flight Computer/aircraft/cf1_j_cfg.ks (inferred preloaded)
5.04,APPROACH,FLY_TO_FIX,162.47,73.97,-88.5,1026.5,-17.1,-4.73,1.08,276.3,12.443,0,0,0,1,0.6,4.5,0.75,0.35,0.0168,0.4,28,28,28,88.511,1,281.66,5,0,0,-6.18,5.36,0,5,281.66,0,0,0,0,0,0,0,48.491,0,0,0,3,0,0,0,2615.59,0,0,0,269.57,0,0,0,0,0,0,0,0,0,0,0,0,0,0,0,0,0,VALID,0,0,0,0,0,1,0,0,0,0,0,0,0,0,0,0,0,0,0,0,10.6,349.45,2,0,0.14,0.14,35,7.14,0.14,0.14,5.04,FLYING,CF1-J,0:/Integrated Flight Computer/aircraft/cf1_j_cfg.ks (inferred preloaded)
5.32,APPROACH,FLY_TO_FIX,162.29,74.19,-88.1,1022.03,-15.46,-4.27,0.99,276.59,12.06,0,0,0,1,0.6,4.5,0.75,0.35,0.0168,0.4,28,28,28,88.109,1,281.68,5,0,0,-5.6,5.09,0,5,281.67,0,0,0,0,0,0,0,48.443,0,0,0,3,0,0,0,2613.08,0,0,0,269.57,0,0,0,0,0,0,0,0,0,0,0,0,0,0,0,0,0,VALID,0,0,0,0,0,1,0,0,0,0,0,0,0,0,0,0,0,0,0,0,9.89,349.72,2,0,0.14,0.14,37,7.14,0.14,0.14,5.32,FLYING,CF1-J,0:/Integrated Flight Computer/aircraft/cf1_j_cfg.ks (inferred preloaded)
5.6,APPROACH,FLY_TO_FIX,162.09,74.42,-87.67,1018.01,-13.89,-3.81,0.91,276.87,11.669,0,0,0,1,0.6,4.5,0.75,0.35,0.0168,0.4,28,28,28,87.686,1,281.69,5,0,0,-5.05,4.82,0,5,281.68,0,0,0,0,0,0,0,48.395,0,0,0,3,0,0,0,2610.57,0,0,0,269.57,0,0,0,0,0,0,0,0,0,0,0,0,0,0,0,0,0,VALID,0,0,0,0,0,1,0,0,0,0,0,0,0,0,0,0,0,0,0,0,9.22,349.98,2,0,0.14,0.14,39,7.14,0.14,0.14,5.6,FLYING,CF1-J,0:/Integrated Flight Computer/aircraft/cf1_j_cfg.ks (inferred preloaded)
5.88,APPROACH,FLY_TO_FIX,161.87,74.64,-87.23,1014.41,-12.41,-3.39,0.85,277.13,11.274,0,0,0,1,0.6,4.5,0.75,0.35,0.0168,0.4,28,28,28,87.243,1,281.7,5,0,0,-4.53,4.57,0,5,281.7,0,0,0,0,0,0,0,48.347,0,0,0,3,0,0,0,2608.06,0,0,0,269.57,0,0,0,0,0,0,0,0,0,0,0,0,0,0,0,0,0,VALID,0,0,0,0,0,1,0,0,0,0,0,0,0,0,0,0,0,0,0,0,8.6,350.22,2,0,0.14,0.14,41,7.14,0.14,0.14,5.88,FLYING,CF1-J,0:/Integrated Flight Computer/aircraft/cf1_j_cfg.ks (inferred preloaded)
6.16,APPROACH,FLY_TO_FIX,161.63,74.86,-86.76,1011.21,-11.01,-2.98,0.79,277.38,10.878,0,0,0,1,0.6,4.5,0.75,0.35,0.0168,0.4,28,28,28,86.781,1,281.71,5,0,0,-4.03,4.33,0,5,281.71,0,0,0,0,0,0,0,48.299,0,0,0,3,0,0,0,2605.55,0,0,0,269.57,0,0,0,0,0,0,0,0,0,0,0,0,0,0,0,0,0,VALID,0,0,0,0,0,1,0,0,0,0,0,0,0,0,0,0,0,0,0,0,8.03,350.46,2,0,0.14,0.14,43,7.14,0.14,0.14,6.16,FLYING,CF1-J,0:/Integrated Flight Computer/aircraft/cf1_j_cfg.ks (inferred preloaded)
6.44,APPROACH,FLY_TO_FIX,161.37,75.09,-86.28,1008.39,-9.68,-2.62,0.71,277.62,10.485,0,0,-12.055,1,0.6,4.5,0.75,0.35,0.0168,0.4,28,28,28,86.299,1,281.73,4.649,0,0,-3.56,4.11,0,4.84,281.72,0,0,0,0,0,0,0,48.252,0,0,0,3,0,0,0,2603.06,0,0,0,269.57,0,0,0,0,0,0,0,0,0,0,0,0,0,0,0,0,0,VALID,0,0,0,0,0,1,0,0,0,0,0,0,0,0,0,0,0,0,0,0,7.49,350.68,2,0,0.14,0.14,45,7.14,0.14,0.14,6.44,FLYING,CF1-J,0:/Integrated Flight Computer/aircraft/cf1_j_cfg.ks (inferred preloaded)
6.72,APPROACH,FLY_TO_FIX,161.1,75.31,-85.78,1005.91,-8.49,-2.31,0.61,277.84,10.124,0,0,-11.935,1,0.6,4.5,0.75,0.35,0.0168,0.4,28,28,28,85.804,1,281.74,4.297,0,0,-3.13,3.9,0,4.47,281.73,0,0,0,0,0,0,0,48.204,0,0,0,3,0,0,0,2600.56,0,0,0,269.57,0,0,0,0,0,0,0,0,0,0,0,0,0,0,0,0,0,VALID,0,0,0,0,0,1,0,0,0,0,0,0,0,0,0,0,0,0,0,0,6.98,350.89,2,0,0.14,0.14,47,7.14,0.14,0.14,6.72,FLYING,CF1-J,0:/Integrated Flight Computer/aircraft/cf1_j_cfg.ks (inferred preloaded)
7,APPROACH,FLY_TO_FIX,160.81,75.54,-85.28,1003.74,-7.41,-2.03,0.52,278.05,9.792,0,0,-11.816,1,0.6,4.5,0.75,0.35,0.0168,0.4,28,28,28,85.297,1,281.75,3.979,0,0,-2.74,3.7,0,4.14,281.74,0,0,0,0,0,0,0,48.157,0,0,0,3,0,0,0,2598.07,0,0,0,269.57,0,0,0,0,0,0,0,0,0,0,0,0,0,0,0,0,0,VALID,0,0,0,0,0,1,0,0,0,0,0,0,0,0,0,0,0,0,0,0,6.51,351.09,2,0,0.14,0.14,49,7.14,0.14,0.14,7,FLYING,CF1-J,0:/Integrated Flight Computer/aircraft/cf1_j_cfg.ks (inferred preloaded)
7.28,APPROACH,FLY_TO_FIX,160.52,75.76,-84.76,1001.85,-6.43,-1.78,0.44,278.24,9.477,0,0,-11.698,1,0.6,4.5,0.75,0.35,0.0168,0.4,28,28,28,84.78,1,281.76,3.692,0,0,-2.39,3.51,0,3.83,281.75,0,0,0,0,0,0,0,48.109,0,0,0,3,0,0,0,2595.59,0,0,0,269.57,0,0,0,0,0,0,0,0,0,0,0,0,0,0,0,0,0,VALID,0,0,0,0,0,1,0,0,0,0,0,0,0,0,0,0,0,0,0,0,6.08,351.29,2,0,0.14,0.14,51,7.14,0.14,0.14,7.28,FLYING,CF1-J,0:/Integrated Flight Computer/aircraft/cf1_j_cfg.ks (inferred preloaded)
7.56,APPROACH,FLY_TO_FIX,160.21,75.98,-84.23,1000.22,-5.55,-1.55,0.37,278.43,9.174,0,0,-11.581,1,0.6,4.5,0.75,0.35,0.0168,0.4,28,28,28,84.253,1,281.76,3.433,0,0,-2.07,3.33,0,3.56,281.76,0,0,0,0,0,0,0,48.062,0,0,0,3,0,0,0,2593.11,0,0,0,269.57,0,0,0,0,0,0,0,0,0,0,0,0,0,0,0,0,0,VALID,0,0,0,0,0,1,0,0,0,0,0,0,0,0,0,0,0,0,0,0,5.67,351.47,2,0,0.14,0.14,53,7.14,0.14,0.14,7.56,FLYING,CF1-J,0:/Integrated Flight Computer/aircraft/cf1_j_cfg.ks (inferred preloaded)
7.84,APPROACH,FLY_TO_FIX,159.9,76.21,-83.69,998.81,-4.76,-1.35,0.31,278.61,8.877,0,0,-11.466,1,0.6,4.5,0.75,0.35,0.0168,0.4,28.023,28.023,28.023,83.716,1,281.77,3.199,0,0,-1.78,3.16,0,3.31,281.77,0,0,0,0,0,0,0,48.015,0,0,0,3,0,0,0,2590.63,0,0,0,269.57,0,0,0,0,0,0,0,0,0,0,0,0,0,0,0,0,0,VALID,0,0,0,0,0,1,0,0,0,0,0,0,0,0,0,0,0,0,0,0,5.29,351.65,2,0,0.14,0.14,55,7.14,0.14,0.14,7.84,FLYING,CF1-J,0:/Integrated Flight Computer/aircraft/cf1_j_cfg.ks (inferred preloaded)
8.12,APPROACH,FLY_TO_FIX,159.58,76.43,-83.15,997.62,-4.05,-1.16,0.25,278.78,8.581,0,0,-11.352,1,0.6,4.5,0.75,0.35,0.0168,0.4,28.119,28.119,28.119,83.17,1,281.78,2.988,0,0,-1.52,3,0,3.09,281.78,0,0,0,0,0,0,0,47.968,0,0,0,3,0,0,0,2588.17,0,0,0,269.57,0,0,0,0,0,0,0,0,0,0,0,0,0,0,0,0,0,VALID,0,0,0,0,0,1,0,0,0,0,0,0,0,0,0,0,0,0,0,0,4.93,351.82,2,0,0.14,0.14,57,7.14,0.14,0.14,8.12,FLYING,CF1-J,0:/Integrated Flight Computer/aircraft/cf1_j_cfg.ks (inferred preloaded)
8.4,APPROACH,FLY_TO_FIX,159.24,76.66,-82.59,996.61,-3.41,-0.99,0.2,278.94,8.286,0,0,-11.238,1,0.6,4.5,0.75,0.35,0.0168,0.4,28.22,28.22,28.22,82.612,1,281.79,2.798,0,0,-1.29,2.85,0,2.89,281.78,0,0,0,0,0,0,0,47.921,0,0,0,3,0,0,0,2585.7,0,0,0,269.57,0,0,0,0,0,0,0,0,0,0,0,0,0,0,0,0,0,VALID,0,0,0,0,0,1,0,0,0,0,0,0,0,0,0,0,0,0,0,0,4.6,351.99,2,0,0.14,0.14,59,7.14,0.14,0.14,8.4,FLYING,CF1-J,0:/Integrated Flight Computer/aircraft/cf1_j_cfg.ks (inferred preloaded)
8.68,APPROACH,FLY_TO_FIX,158.9,76.88,-82.02,995.76,-2.83,-0.84,0.16,279.09,7.992,0,0,-11.126,1,0.6,4.5,0.752,0.35,0.0168,0.4,28.323,28.323,28.323,82.043,1,281.8,2.626,0,0,-1.08,2.7,0,2.71,281.79,0,0,0,0,0,0,0,47.874,0,0,0,3,0,0,0,2583.25,0,0,0,269.57,0,0,0,0,0,0,0,0,0,0,0,0,0,0,0,0,0,VALID,0,0,0,0,0,1,0,0,0,0,0,0,0,0,0,0,0,0,0,0,4.29,352.16,2,0,0.14,0.14,61,7.14,0.14,0.14,8.68,FLYING,CF1-J,0:/Integrated Flight Computer/aircraft/cf1_j_cfg.ks (inferred preloaded)
8.96,APPROACH,FLY_TO_FIX,158.54,77.1,-81.44,995.07,-2.31,-0.7,0.12,279.24,7.695,0,0,-11.015,1,0.6,4.5,0.796,0.35,0.0168,0.4,28.43,28.43,28.43,81.464,1,281.8,2.471,0,0,-0.89,2.56,0,2.55,281.8,0,0,0,0,0,0,0,47.827,0,0,0,3,0,0,0,2580.8,0,0,0,269.57,0,0,0,0,0,0,0,0,0,0,0,0,0,0,0,0,0,VALID,0,0,0,0,0,1,0,0,0,0,0,0,0,0,0,0,0,0,0,0,4,352.32,2,0,0.14,0.14,63,7.14,0.14,0.14,8.96,FLYING,CF1-J,0:/Integrated Flight Computer/aircraft/cf1_j_cfg.ks (inferred preloaded)
9.24,APPROACH,FLY_TO_FIX,158.18,77.33,-80.85,994.52,-1.84,-0.57,0.09,279.38,7.398,0,0,-10.905,1,0.6,4.5,0.84,0.35,0.0168,0.4,28.539,28.539,28.539,80.876,1,281.81,2.331,0,0,-0.71,2.43,0,2.4,281.81,0,0,0,0,0,0,0,47.78,0,0,0,3,0,0,0,2578.35,0,0,0,269.57,0,0,0,0,0,0,0,0,0,0,0,0,0,0,0,0,0,VALID,0,0,0,0,0,1,0,0,0,0,0,0,0,0,0,0,0,0,0,0,3.73,352.48,2,0,0.14,0.14,65,7.14,0.14,0.14,9.24,FLYING,CF1-J,0:/Integrated Flight Computer/aircraft/cf1_j_cfg.ks (inferred preloaded)
9.52,APPROACH,FLY_TO_FIX,157.8,77.55,-80.25,994.08,-1.42,-0.45,0.06,279.51,7.103,0,0,-10.797,1,0.6,4.5,0.883,0.35,0.0168,0.4,28.651,28.651,28.651,80.279,1,281.81,2.204,0,0,-0.56,2.3,0,2.27,281.81,0,0,0,0,0,0,0,47.734,0,0,0,3,0,0,0,2575.92,0,0,0,269.57,0,0,0,0,0,0,0,0,0,0,0,0,0,0,0,0,0,VALID,0,0,0,0,0,1,0,0,0,0,0,0,0,0,0,0,0,0,0,0,3.48,352.64,2,0,0.14,0.14,67,7.14,0.14,0.14,9.52,FLYING,CF1-J,0:/Integrated Flight Computer/aircraft/cf1_j_cfg.ks (inferred preloaded)
9.8,APPROACH,FLY_TO_FIX,157.42,77.78,-79.64,993.76,-1.03,-0.34,0.04,279.64,6.812,0,0,-10.689,1,0.6,4.5,0.925,0.35,0.0168,0.4,28.766,28.766,28.766,79.671,1,281.82,2.089,0,0,-0.42,2.18,0,2.15,281.82,0,0,0,0,0,0,0,47.688,0,0,0,3,0,0,0,2573.49,0,0,0,269.57,0,0,0,0,0,0,0,0,0,0,0,0,0,0,0,0,0,VALID,0,0,0,0,0,1,0,0,0,0,0,0,0,0,0,0,0,0,0,0,3.24,352.8,2,0,0.14,0.14,69,7.14,0.14,0.14,9.8,FLYING,CF1-J,0:/Integrated Flight Computer/aircraft/cf1_j_cfg.ks (inferred preloaded)
10.08,APPROACH,FLY_TO_FIX,157.03,78,-79.03,993.54,-0.69,-0.24,0.02,279.76,6.524,0,0,-10.582,1,0.6,4.5,0.968,0.35,0.0168,0.4,28.883,28.883,28.883,79.056,1,281.83,1.986,0,0,-0.29,2.07,0,2.04,281.82,0,0,0,0,0,0,0,47.641,0,0,0,3,0,0,0,2571.06,0,0,0,269.57,0,0,0,0,0,0,0,0,0,0,0,0,0,0,0,0,0,VALID,0,0,0,0,0,1,0,0,0,0,0,0,0,0,0,0,0,0,0,0,3.03,352.96,2,0,0.14,0.14,71,7.14,0.14,0.14,10.08,FLYING,CF1-J,0:/Integrated Flight Computer/aircraft/cf1_j_cfg.ks (inferred preloaded)
10.36,APPROACH,FLY_TO_FIX,156.63,78.22,-78.4,993.41,-0.38,-0.15,0,279.87,6.239,0,0,-10.477,1,0.6,4.5,1.009,0.35,0.0168,0.4,29.003,29.003,29.003,78.434,1,281.83,1.892,0,0,-0.17,1.96,0,1.94,281.83,0,0,0,0,0,0,0,47.595,0,0,0,3,0,0,0,2568.65,0,0,0,269.57,0,0,0,0,0,0,0,0,0,0,0,0,0,0,0,0,0,VALID,0,0,0,0,0,1,0,0,0,0,0,0,0,0,0,0,0,0,0,0,2.82,353.11,2,0,0.14,0.14,73,7.14,0.14,0.14,10.36,FLYING,CF1-J,0:/Integrated Flight Computer/aircraft/cf1_j_cfg.ks (inferred preloaded)
10.64,APPROACH,FLY_TO_FIX,156.22,78.45,-77.77,993.35,-0.1,-0.07,-0.01,279.98,5.956,0,0,-10.372,1,0.6,4.5,1.05,0.35,0.0168,0.4,29.125,29.125,29.125,77.803,1,281.84,1.807,0,0,-0.07,1.85,0,1.85,281.83,0,0,0,0,0,0,0,47.549,0,0,0,3,0,0,0,2566.24,0,0,0,269.57,0,0,0,0,0,0,0,0,0,0,0,0,0,0,0,0,0,VALID,0,0,0,0,0,1,0,0,0,0,0,0,0,0,0,0,0,0,0,0,2.63,353.27,2,0,0.14,0.14,75,7.14,0.14,0.14,10.64,FLYING,CF1-J,0:/Integrated Flight Computer/aircraft/cf1_j_cfg.ks (inferred preloaded)
10.92,APPROACH,FLY_TO_FIX,155.81,78.67,-77.13,993.38,0.15,0.01,-0.02,280.09,5.678,0,0,-10.269,1,0.6,4.5,1.091,0.35,0.0168,0.4,29.249,29.249,29.249,77.164,1,281.84,1.731,0,0,0.03,1.75,0,1.77,281.84,0,0,0,0,0,0,0,47.503,0,0,0,3,0,0,0,2563.83,0,0,0,269.57,0,0,0,0,0,0,0,0,0,0,0,0,0,0,0,0,0,VALID,0,0,0,0,0,1,0,0,0,0,0,0,0,0,0,0,0,0,0,0,2.46,353.43,2,0,0.14,0.14,77,7.14,0.14,0.14,10.92,FLYING,CF1-J,0:/Integrated Flight Computer/aircraft/cf1_j_cfg.ks (inferred preloaded)
11.2,APPROACH,FLY_TO_FIX,155.38,78.9,-76.49,993.46,0.38,0.08,-0.03,280.19,5.409,0,0,-10.166,1,0.6,4.5,1.13,0.35,0.0168,0.4,29.376,29.376,29.376,76.519,1,281.84,1.661,0,0,0.12,1.66,0,1.7,281.84,0,0,0,0,0,0,0,47.458,0,0,0,3,0,0,0,2561.43,0,0,0,269.57,0,0,0,0,0,0,0,0,0,0,0,0,0,0,0,0,0,VALID,0,0,0,0,0,1,0,0,0,0,0,0,0,0,0,0,0,0,0,0,2.29,353.59,2,0,0.14,0.14,79,7.14,0.14,0.14,11.2,FLYING,CF1-J,0:/Integrated Flight Computer/aircraft/cf1_j_cfg.ks (inferred preloaded)
11.48,APPROACH,FLY_TO_FIX,154.95,79.12,-75.83,993.61,0.58,0.15,-0.03,280.28,5.146,0,0,-10.065,1,0.6,4.5,1.169,0.35,0.0168,0.4,29.505,29.505,29.505,75.864,1,281.85,1.598,0,0,0.19,1.57,0,1.63,281.85,0,0,0,0,0,0,0,47.412,0,0,0,3,0,0,0,2559.04,0,0,0,269.57,0,0,0,0,0,0,0,0,0,0,0,0,0,0,0,0,0,VALID,0,0,0,0,0,1,0,0,0,0,0,0,0,0,0,0,0,0,0,0,2.14,353.75,2,0,0.14,0.14,81,7.14,0.14,0.14,11.48,FLYING,CF1-J,0:/Integrated Flight Computer/aircraft/cf1_j_cfg.ks (inferred preloaded)
11.76,APPROACH,FLY_TO_FIX,154.51,79.34,-75.17,993.81,0.77,0.21,-0.04,280.37,4.89,0,0,-9.965,1,0.6,4.5,1.208,0.35,0.0168,0.4,29.636,29.636,29.636,75.202,1,281.85,1.541,0,0,0.26,1.48,0,1.57,281.85,0,0,0,0,0,0,0,47.366,0,0,0,3,0,0,0,2556.66,0,0,0,269.57,0,0,0,0,0,0,0,0,0,0,0,0,0,0,0,0,0,VALID,0,0,0,0,0,1,0,0,0,0,0,0,0,0,0,0,0,0,0,0,1.99,353.91,2,0,0.14,0.14,83,7.14,0.14,0.14,11.76,FLYING,CF1-J,0:/Integrated Flight Computer/aircraft/cf1_j_cfg.ks (inferred preloaded)
12.04,APPROACH,FLY_TO_FIX,154.07,79.57,-74.5,994.06,0.93,0.27,-0.04,280.46,4.643,0,0,-9.865,1,0.6,4.5,1.245,0.35,0.0168,0.4,29.77,29.77,29.77,74.532,1,281.86,1.489,0,0,0.33,1.4,0,1.52,281.85,0,0,0,0,0,0,0,47.321,0,0,0,3,0,0,0,2554.29,0,0,0,269.57,0,0,0,0,0,0,0,0,0,0,0,0,0,0,0,0,0,VALID,0,0,0,0,0,1,0,0,0,0,0,0,0,0,0,0,0,0,0,0,1.86,354.08,2,0,0.14,0.14,85,7.14,0.14,0.14,12.04,FLYING,CF1-J,0:/Integrated Flight Computer/aircraft/cf1_j_cfg.ks (inferred preloaded)
12.32,APPROACH,FLY_TO_FIX,153.61,79.79,-73.82,994.35,1.08,0.33,-0.04,280.54,4.403,0,0,-9.767,1,0.6,4.5,1.283,0.35,0.0168,0.4,29.906,29.906,29.906,73.854,1,281.86,1.442,0,0,0.39,1.32,0,1.47,281.86,0,0,0,0,0,0,0,47.276,0,0,0,3,0,0,0,2551.92,0,0,0,269.57,0,0,0,0,0,0,0,0,0,0,0,0,0,0,0,0,0,VALID,0,0,0,0,0,1,0,0,0,0,0,0,0,0,0,0,0,0,0,0,1.73,354.24,2,0,0.14,0.14,87,7.14,0.14,0.14,12.32,FLYING,CF1-J,0:/Integrated Flight Computer/aircraft/cf1_j_cfg.ks (inferred preloaded)
12.6,APPROACH,FLY_TO_FIX,153.15,80.02,-73.13,994.68,1.22,0.38,-0.03,280.62,4.173,0,0,-9.669,1,0.6,4.5,1.32,0.35,0.0168,0.4,30.045,30.045,30.045,73.168,1,281.86,1.399,0,0,0.44,1.25,0,1.42,281.86,0,0,0,0,0,0,0,47.231,0,0,0,3,0,0,0,2549.56,0,0,0,269.57,0,0,0,0,0,0,0,0,0,0,0,0,0,0,0,0,0,VALID,0,0,0,0,0,1,0,0,0,0,0,0,0,0,0,0,0,0,0,0,1.62,354.41,2,0,0.14,0.14,89,7.14,0.14,0.14,12.6,FLYING,CF1-J,0:/Integrated Flight Computer/aircraft/cf1_j_cfg.ks (inferred preloaded)
12.88,APPROACH,FLY_TO_FIX,152.68,80.24,-72.44,995.05,1.34,0.43,-0.03,280.69,3.951,0,0,-9.573,1,0.6,4.5,1.356,0.35,0.0168,0.4,30.186,30.186,30.186,72.473,1,281.87,1.361,0,0,0.49,1.18,0,1.38,281.86,0,0,0,0,0,0,0,47.186,0,0,0,3,0,0,0,2547.2,0,0,0,269.57,0,0,0,0,0,0,0,0,0,0,0,0,0,0,0,0,0,VALID,0,0,0,0,0,1,0,0,0,0,0,0,0,0,0,0,0,0,0,0,1.51,354.59,2,0,0.14,0.14,91,7.14,0.14,0.14,12.88,FLYING,CF1-J,0:/Integrated Flight Computer/aircraft/cf1_j_cfg.ks (inferred preloaded)
13.16,APPROACH,FLY_TO_FIX,152.2,80.46,-71.73,995.44,1.45,0.47,-0.02,280.76,3.737,0,0,-9.477,1,0.6,4.5,1.392,0.35,0.0168,0.4,30.33,30.33,30.33,71.769,1,281.87,1.326,0,0,0.53,1.11,0,1.34,281.87,0,0,0,0,0,0,0,47.141,0,0,0,3,0,0,0,2544.86,0,0,0,269.57,0,0,0,0,0,0,0,0,0,0,0,0,0,0,0,0,0,VALID,0,0,0,0,0,1,0,0,0,0,0,0,0,0,0,0,0,0,0,0,1.41,354.76,2,0,0.14,0.14,93,7.14,0.14,0.14,13.16,FLYING,CF1-J,0:/Integrated Flight Computer/aircraft/cf1_j_cfg.ks (inferred preloaded)
13.44,APPROACH,FLY_TO_FIX,151.71,80.69,-71.02,995.87,1.54,0.52,-0.01,280.82,3.533,0,0,-9.383,1,0.6,4.5,1.428,0.35,0.0168,0.4,30.477,30.477,30.477,71.057,1,281.87,1.294,0,0,0.57,1.05,0,1.31,281.87,0,0,0,0,0,0,0,47.097,0,0,0,3,0,0,0,2542.52,0,0,0,269.57,0,0,0,0,0,0,0,0,0,0,0,0,0,0,0,0,0,VALID,0,0,0,0,0,1,0,0,0,0,0,0,0,0,0,0,0,0,0,0,1.31,354.94,2,0,0.14,0.14,95,7.14,0.14,0.14,13.44,FLYING,CF1-J,0:/Integrated Flight Computer/aircraft/cf1_j_cfg.ks (inferred preloaded)
13.72,APPROACH,FLY_TO_FIX,151.21,80.91,-70.3,996.32,1.63,0.56,-0.01,280.88,3.339,0,0,-9.289,1,0.6,4.5,1.464,0.35,0.0168,0.4,30.626,30.626,30.626,70.334,1,281.87,1.265,0,0,0.61,0.99,0,1.28,281.87,0,0,0,0,0,0,0,47.052,0,0,0,3,0,0,0,2540.18,0,0,0,269.57,0,0,0,0,0,0,0,0,0,0,0,0,0,0,0,0,0,VALID,0,0,0,0,0,1,0,0,0,0,0,0,0,0,0,0,0,0,0,0,1.22,355.13,2,0,0.14,0.14,97,7.14,0.14,0.14,13.72,FLYING,CF1-J,0:/Integrated Flight Computer/aircraft/cf1_j_cfg.ks (inferred preloaded)
14,APPROACH,FLY_TO_FIX,150.7,81.14,-69.57,996.8,1.71,0.6,0,280.94,3.152,0,0,-9.197,1,0.6,4.5,1.5,0.35,0.0168,0.4,30.778,30.778,30.778,69.603,1,281.88,1.239,0,0,0.64,0.93,0,1.25,281.88,0,0,0,0,0,0,0,47.008,0,0,0,3,0,0,0,2537.86,0,0,0,269.57,0,0,0,0,0,0,0,0,0,0,0,0,0,0,0,0,0,VALID,0,0,0,0,0,1,0,0,0,0,0,0,0,0,0,0,0,0,0,0,1.14,355.32,2,0,0.14,0.14,99,7.14,0.14,0.14,14,FLYING,CF1-J,0:/Integrated Flight Computer/aircraft/cf1_j_cfg.ks (inferred preloaded)
14.28,APPROACH,FLY_TO_FIX,150.18,81.36,-68.82,997.29,1.78,0.64,0.02,281,2.973,0,0,-9.105,1,0.6,4.5,1.536,0.35,0.0168,0.4,30.934,30.934,30.934,68.861,1,281.88,1.215,0,0,0.67,0.88,0,1.23,281.88,0,0,0,0,0,0,0,46.964,0,0,0,3,0,0,0,2535.55,0,0,0,269.57,0,0,0,0,0,0,0,0,0,0,0,0,0,0,0,0,0,VALID,0,0,0,0,0,1,0,0,0,0,0,0,0,0,0,0,0,0,0,0,1.06,355.51,2,0,0.14,0.14,101,7.14,0.14,0.14,14.28,FLYING,CF1-J,0:/Integrated Flight Computer/aircraft/cf1_j_cfg.ks (inferred preloaded)
14.56,APPROACH,FLY_TO_FIX,149.66,81.58,-68.07,997.8,1.84,0.68,0.03,281.05,2.804,0,0,-9.014,1,0.6,4.5,1.572,0.35,0.0168,0.4,31.092,31.092,31.092,68.11,1,281.88,1.194,0,0,0.7,0.83,0,1.21,281.88,0,0,0,0,0,0,0,46.92,0,0,0,3,0,0,0,2533.24,0,0,0,269.57,0,0,0,0,0,0,0,0,0,0,0,0,0,0,0,0,0,VALID,0,0,0,0,0,1,0,0,0,0,0,0,0,0,0,0,0,0,0,0,0.99,355.71,2,0,0.14,0.14,103,7.14,0.14,0.14,14.56,FLYING,CF1-J,0:/Integrated Flight Computer/aircraft/cf1_j_cfg.ks (inferred preloaded)
14.84,APPROACH,FLY_TO_FIX,149.12,81.81,-67.31,998.33,1.89,0.71,0.04,281.1,2.643,0,0,-8.924,1,0.6,4.5,1.609,0.35,0.0168,0.4,31.253,31.253,31.253,67.349,1,281.88,1.174,0,0,0.72,0.78,0,1.19,281.88,0,0,0,0,0,0,0,46.876,0,0,0,3,0,0,0,2530.94,0,0,0,269.57,0,0,0,0,0,0,0,0,0,0,0,0,0,0,0,0,0,VALID,0,0,0,0,0,1,0,0,0,0,0,0,0,0,0,0,0,0,0,0,0.93,355.91,2,0,0.14,0.14,105,7.14,0.14,0.14,14.84,FLYING,CF1-J,0:/Integrated Flight Computer/aircraft/cf1_j_cfg.ks (inferred preloaded)
15.12,APPROACH,FLY_TO_FIX,148.57,82.03,-66.54,998.88,1.94,0.75,0.06,281.15,2.489,0,0,-8.835,1,0.6,4.5,1.645,0.35,0.0168,0.4,31.418,31.418,31.418,66.575,1,281.89,1.157,0,0,0.74,0.74,0,1.17,281.88,0,0,0,0,0,0,0,46.832,0,0,0,3,0,0,0,2528.65,0,0,0,269.57,0,0,0,0,0,0,0,0,0,0,0,0,0,0,0,0,0,VALID,0,0,0,0,0,1,0,0,0,0,0,0,0,0,0,0,0,0,0,0,0.86,356.12,2,0,0.14,0.14,107,7.14,0.14,0.14,15.12,FLYING,CF1-J,0:/Integrated Flight Computer/aircraft/cf1_j_cfg.ks (inferred preloaded)
15.4,APPROACH,FLY_TO_FIX,148.01,82.26,-65.75,999.43,1.99,0.78,0.07,281.19,2.344,0,0,-8.747,1,0.6,4.5,1.682,0.35,0.0168,0.4,31.585,31.585,31.585,65.794,1,281.89,1.141,0,0,0.76,0.7,0,1.15,281.89,0,0,0,0,0,0,0,46.788,0,0,0,3,0,0,0,2526.37,0,0,0,269.57,0,0,0,0,0,0,0,0,0,0,0,0,0,0,0,0,0,VALID,0,0,0,0,0,1,0,0,0,0,0,0,0,0,0,0,0,0,0,0,0.81,356.34,2,0,0.14,0.14,109,7.14,0.14,0.14,15.4,FLYING,CF1-J,0:/Integrated Flight Computer/aircraft/cf1_j_cfg.ks (inferred preloaded)
15.68,APPROACH,FLY_TO_FIX,147.44,82.48,-64.96,1000,2.02,0.82,0.09,281.23,2.206,0,0,-8.66,1,0.6,4.5,1.719,0.35,0.0168,0.4,31.756,31.756,31.756,65,1,281.89,1.126,0,0,0.78,0.66,0,1.14,281.89,0,0,0,0,0,0,0,46.745,0,0,0,3,0,0,0,2524.09,0,0,0,269.57,0,0,0,0,0,0,0,0,0,0,0,0,0,0,0,0,0,VALID,0,0,0,0,0,1,0,0,0,0,0,0,0,0,0,0,0,0,0,0,0.75,356.56,2,0,0.14,0.14,111,7.14,0.14,0.14,15.68,FLYING,CF1-J,0:/Integrated Flight Computer/aircraft/cf1_j_cfg.ks (inferred preloaded)
15.96,APPROACH,FLY_TO_FIX,146.85,82.7,-64.15,1000.58,2.06,0.85,0.11,281.27,2.076,0,0,-8.573,1,0.6,4.5,1.757,0.35,0.0168,0.4,31.931,31.931,31.931,64.192,1,281.89,1.114,0,0,0.8,0.62,0,1.12,281.89,0,0,0,0,0,0,0,46.702,0,0,0,3,0,0,0,2521.83,0,0,0,269.57,0,0,0,0,0,0,0,0,0,0,0,0,0,0,0,0,0,VALID,0,0,0,0,0,1,0,0,0,0,0,0,0,0,0,0,0,0,0,0,0.7,356.79,2,0,0.14,0.14,113,7.14,0.14,0.14,15.96,FLYING,CF1-J,0:/Integrated Flight Computer/aircraft/cf1_j_cfg.ks (inferred preloaded)
16.24,APPROACH,FLY_TO_FIX,146.26,82.93,-63.33,1001.16,2.09,0.88,0.13,281.31,1.952,0,0,-8.488,1,0.6,4.5,1.795,0.35,0.0168,0.4,32.108,32.108,32.108,63.378,1,281.89,1.102,0,0,0.81,0.58,0,1.11,281.89,0,0,0,0,0,0,0,46.659,0,0,0,3,0,0,0,2519.57,0,0,0,269.57,0,0,0,0,0,0,0,0,0,0,0,0,0,0,0,0,0,VALID,0,0,0,0,0,1,0,0,0,0,0,0,0,0,0,0,0,0,0,0,0.65,357.02,2,0,0.14,0.14,115,7.14,0.14,0.14,16.24,FLYING,CF1-J,0:/Integrated Flight Computer/aircraft/cf1_j_cfg.ks (inferred preloaded)
16.52,APPROACH,FLY_TO_FIX,145.66,83.15,-62.51,1001.75,2.11,0.92,0.15,281.34,1.836,0,0,-8.403,1,0.6,4.5,1.833,0.35,0.0168,0.4,32.29,32.29,32.29,62.549,1,281.89,1.091,0,0,0.83,0.55,0,1.1,281.89,0,0,0,0,0,0,0,46.616,0,0,0,3,0,0,0,2517.32,0,0,0,269.57,0,0,0,0,0,0,0,0,0,0,0,0,0,0,0,0,0,VALID,0,0,0,0,0,1,0,0,0,0,0,0,0,0,0,0,0,0,0,0,0.61,357.26,2,0,0.14,0.14,117,7.14,0.14,0.14,16.52,FLYING,CF1-J,0:/Integrated Flight Computer/aircraft/cf1_j_cfg.ks (inferred preloaded)
16.8,APPROACH,FLY_TO_FIX,145.04,83.38,-61.66,1002.35,2.13,0.95,0.17,281.38,1.726,0,0,-8.319,1,0.6,4.5,1.872,0.35,0.0168,0.4,32.475,32.475,32.475,61.707,1,281.89,1.082,0,0,0.84,0.52,0,1.09,281.89,0,0,0,0,0,0,0,46.573,0,0,0,3,0,0,0,2515.08,0,0,0,269.57,0,0,0,0,0,0,0,0,0,0,0,0,0,0,0,0,0,VALID,0,0,0,0,0,1,0,0,0,0,0,0,0,0,0,0,0,0,0,0,0.57,357.51,2,0,0.14,0.14,119,7.14,0.14,0.14,16.8,FLYING,CF1-J,0:/Integrated Flight Computer/aircraft/cf1_j_cfg.ks (inferred preloaded)
17.08,APPROACH,FLY_TO_FIX,144.4,83.6,-60.8,1002.96,2.15,0.98,0.2,281.41,1.621,0,0,-8.236,1,0.6,4.5,1.912,0.35,0.0168,0.4,32.665,32.665,32.665,60.85,1,281.9,1.073,0,0,0.85,0.49,0,1.08,281.9,0,0,0,0,0,0,0,46.531,0,0,0,3,0,0,0,2512.85,0,0,0,269.57,0,0,0,0,0,0,0,0,0,0,0,0,0,0,0,0,0,VALID,0,0,0,0,0,1,0,0,0,0,0,0,0,0,0,0,0,0,0,0,0.53,357.77,2,0,0.14,0.14,121,7.14,0.14,0.14,17.08,FLYING,CF1-J,0:/Integrated Flight Computer/aircraft/cf1_j_cfg.ks (inferred preloaded)
17.36,APPROACH,FLY_TO_FIX,143.76,83.82,-59.93,1003.57,2.16,1.01,0.22,281.43,1.511,0,0,-8.154,1,0.6,4.5,1.953,0.35,0.0168,0.4,32.859,32.859,32.859,59.98,1,281.9,1.066,0,0,0.86,0.46,0,1.07,281.9,0,0,0,0,0,0,0,46.488,0,0,0,3,0,0,0,2510.64,0,0,0,269.57,0,0,0,0,0,0,0,0,0,0,0,0,0,0,0,0,0,VALID,0,0,0,0,0,1,0,0,0,0,0,0,0,0,0,0,0,0,0,0,0.5,358.04,2,0,0.14,0.14,123,7.14,0.14,0.14,17.36,FLYING,CF1-J,0:/Integrated Flight Computer/aircraft/cf1_j_cfg.ks (inferred preloaded)
17.64,APPROACH,FLY_TO_FIX,143.1,84.05,-59.05,1004.18,2.17,1.04,0.24,281.46,1.397,0,0,-8.073,1,0.6,4.5,1.995,0.35,0.0168,0.4,33.057,33.057,33.057,59.097,1,281.9,1.06,0,0,0.87,0.44,0,1.06,281.9,0,0,0,0,0,0,0,46.446,0,0,0,3,0,0,0,2508.43,0,0,0,269.57,0,0,0,0,0,0,0,0,0,0,0,0,0,0,0,0,0,VALID,0,0,0,0,0,1,0,0,0,0,0,0,0,0,0,0,0,0,0,0,0.46,358.32,2,0,0.14,0.14,125,7.14,0.14,0.14,17.64,FLYING,CF1-J,0:/Integrated Flight Computer/aircraft/cf1_j_cfg.ks (inferred preloaded)
17.92,APPROACH,FLY_TO_FIX,142.42,84.27,-58.15,1004.79,2.18,1.08,0.27,281.48,1.284,0,0,-7.992,1,0.6,4.5,2.038,0.35,0.0168,0.4,33.259,33.259,33.259,58.199,1,281.9,1.055,0,0,0.87,0.41,0,1.06,281.9,0,0,0,0,0,0,0,46.404,0,0,0,3,0,0,0,2506.23,0,0,0,269.57,0,0,0,0,0,0,0,0,0,0,0,0,0,0,0,0,0,VALID,0,0,0,0,0,1,0,0,0,0,0,0,0,0,0,0,0,0,0,0,0.43,358.6,2,0,0.14,0.14,127,7.14,0.14,0.14,17.92,FLYING,CF1-J,0:/Integrated Flight Computer/aircraft/cf1_j_cfg.ks (inferred preloaded)
18.2,APPROACH,FLY_TO_FIX,141.73,84.5,-57.24,1005.41,2.18,1.11,0.3,281.51,1.175,0,0,-7.913,1,0.6,4.5,2.081,0.35,0.0168,0.4,33.465,33.465,33.465,57.288,1,281.9,1.051,0,0,0.88,0.39,0,1.05,281.9,0,0,0,0,0,0,0,46.362,0,0,0,3,0,0,0,2504.04,0,0,0,269.57,0,0,0,0,0,0,0,0,0,0,0,0,0,0,0,0,0,VALID,0,0,0,0,0,1,0,0,0,0,0,0,0,0,0,0,0,0,0,0,0.4,358.89,2,0,0.14,0.14,129,7.14,0.14,0.14,18.2,FLYING,CF1-J,0:/Integrated Flight Computer/aircraft/cf1_j_cfg.ks (inferred preloaded)
18.48,APPROACH,FLY_TO_FIX,141.03,84.72,-56.31,1006.02,2.18,1.14,0.33,281.53,1.074,0,0,-7.834,1,0.6,4.5,2.126,0.35,0.0168,0.4,33.675,33.675,33.675,56.364,1,281.9,1.048,0,0,0.88,0.37,0,1.05,281.9,0,0,0,0,0,0,0,46.321,0,0,0,3,0,0,0,2501.86,0,0,0,269.57,0,0,0,0,0,0,0,0,0,0,0,0,0,0,0,0,0,VALID,0,0,0,0,0,1,0,0,0,0,0,0,0,0,0,0,0,0,0,0,0.38,359.2,2,0,0.14,0.14,131,7.14,0.14,0.14,18.48,FLYING,CF1-J,0:/Integrated Flight Computer/aircraft/cf1_j_cfg.ks (inferred preloaded)
18.76,APPROACH,FLY_TO_FIX,140.32,84.94,-55.38,1006.64,2.18,1.17,0.36,281.55,0.98,0,0,-7.756,1,0.6,4.5,2.17,0.35,0.0168,0.4,33.889,33.889,33.889,55.427,1,281.9,1.045,0,0,0.89,0.35,0,1.05,281.9,0,0,0,0,0,0,0,46.279,0,0,0,3,0,0,0,2499.69,0,0,0,269.57,0,0,0,0,0,0,0,0,0,0,0,0,0,0,0,0,0,VALID,0,0,0,0,0,1,0,0,0,0,0,0,0,0,0,0,0,0,0,0,0.35,359.51,2,0,0.14,0.14,133,7.14,0.14,0.14,18.76,FLYING,CF1-J,0:/Integrated Flight Computer/aircraft/cf1_j_cfg.ks (inferred preloaded)
19.04,APPROACH,FLY_TO_FIX,139.59,85,-54.59,1007.25,2.17,1.21,0.39,281.57,0.895,0,0,-7.678,1,0.6,4.5,2.216,0.35,0.0168,0.4,34.107,34.107,34.107,54.645,1,281.9,1.043,0,0,0.89,0.34,0,1.05,281.9,0,0,0,0,0,0,0,46.238,0,0,0,3,0,0,0,2497.53,0,0,0,269.57,0,0,0,0,0,0,0,0,0,0,0,0,0,0,0,0,0,VALID,0,0,0,0,0,1,0,0,0,0,0,0,0,0,0,0,0,0,0,0,0.33,359.83,2,0,0.14,0.14,135,7.14,0.14,0.14,19.04,FLYING,CF1-J,0:/Integrated Flight Computer/aircraft/cf1_j_cfg.ks (inferred preloaded)
19.32,APPROACH,FLY_TO_FIX,138.85,85,-53.85,1007.87,2.17,1.24,0.42,281.58,0.817,0,0,-7.602,1,0.6,4.5,2.262,0.35,0.0168,0.4,34.328,34.328,34.328,53.906,1,281.9,1.042,0,0,0.89,0.32,0,1.04,281.9,0,0,0,0,0,0,0,46.197,0,0,0,3,0,0,0,2495.39,0,0,0,269.57,0,0,0,0,0,0,0,0,0,0,0,0,0,0,0,0,0,VALID,0,0,0,0,0,1,0,0,0,0,0,0,0,0,0,0,0,0,0,0,0.3,360.16,2,0,0.14,0.14,137,7.14,0.14,0.14,19.32,FLYING,CF1-J,0:/Integrated Flight Computer/aircraft/cf1_j_cfg.ks (inferred preloaded)
19.6,APPROACH,FLY_TO_FIX,138.1,85,-53.1,1008.48,2.16,1.28,0.45,281.6,0.747,0,0,-7.526,1,0.6,4.5,2.308,0.35,0.0168,0.4,34.553,34.553,34.553,53.155,1,281.91,1.041,0,0,0.9,0.31,0,1.04,281.9,0,0,0,0,0,0,0,46.157,0,0,0,3,0,0,0,2493.25,0,0,0,269.57,0,0,0,0,0,0,0,0,0,0,0,0,0,0,0,0,0,VALID,0,0,0,0,0,1,0,0,0,0,0,0,0,0,0,0,0,0,0,0,0.28,360.49,2,0,0.14,0.14,139,7.14,0.14,0.14,19.6,FLYING,CF1-J,0:/Integrated Flight Computer/aircraft/cf1_j_cfg.ks (inferred preloaded)
19.88,APPROACH,FLY_TO_FIX,137.33,85,-52.33,1009.09,2.15,1.32,0.49,281.61,0.685,0,0,-7.451,1,0.6,4.5,2.355,0.35,0.0168,0.4,34.784,34.784,34.784,52.387,1,281.91,1.04,0,0,0.9,0.29,0,1.04,281.91,0,0,0,0,0,0,0,46.116,0,0,0,3,0,0,0,2491.13,0,0,0,269.57,0,0,0,0,0,0,0,0,0,0,0,0,0,0,0,0,0,VALID,0,0,0,0,0,1,0,0,0,0,0,0,0,0,0,0,0,0,0,0,0.27,360.84,2,0,0.14,0.14,141,7.14,0.14,0.14,19.88,FLYING,CF1-J,0:/Integrated Flight Computer/aircraft/cf1_j_cfg.ks (inferred preloaded)
20.16,APPROACH,FLY_TO_FIX,136.55,85,-51.55,1009.7,2.14,1.35,0.53,281.62,0.629,0,0,-7.376,1,0.6,4.5,2.402,0.35,0.0168,0.4,35.019,35.019,35.019,51.604,1,281.91,1.04,0,0,0.9,0.28,0,1.04,281.91,0,0,0,0,0,0,0,46.076,0,0,0,3,0,0,0,2489.01,0,0,0,269.57,0,0,0,0,0,0,0,0,0,0,0,0,0,0,0,0,0,VALID,0,0,0,0,0,1,0,0,0,0,0,0,0,0,0,0,0,0,0,0,0.25,361.21,2,0,0.14,0.14,143,7.14,0.14,0.14,20.16,FLYING,CF1-J,0:/Integrated Flight Computer/aircraft/cf1_j_cfg.ks (inferred preloaded)
20.44,APPROACH,FLY_TO_FIX,135.75,85,-50.75,1010.3,2.13,1.39,0.57,281.64,0.579,0,0,-7.303,1,0.6,4.5,2.451,0.35,0.0168,0.4,35.257,35.257,35.257,50.809,1,281.91,1.04,0,0,0.9,0.27,0,1.04,281.91,0,0,0,0,0,0,0,46.036,0,0,0,3,0,0,0,2486.91,0,0,0,269.57,0,0,0,0,0,0,0,0,0,0,0,0,0,0,0,0,0,VALID,0,0,0,0,0,1,0,0,0,0,0,0,0,0,0,0,0,0,0,0,0.23,361.58,2,0,0.14,0.14,145,7.14,0.14,0.14,20.44,FLYING,CF1-J,0:/Integrated Flight Computer/aircraft/cf1_j_cfg.ks (inferred preloaded)
20.72,APPROACH,FLY_TO_FIX,134.94,85,-49.94,1010.9,2.12,1.43,0.61,281.65,0.535,0,0,-7.23,1,0.6,4.5,2.499,0.35,0.0168,0.4,35.5,35.5,35.5,49.998,1,281.91,1.041,0,0,0.9,0.26,0,1.04,281.91,0,0,0,0,0,0,0,45.996,0,0,0,3,0,0,0,2484.82,0,0,0,269.57,0,0,0,0,0,0,0,0,0,0,0,0,0,0,0,0,0,VALID,0,0,0,0,0,1,0,0,0,0,0,0,0,0,0,0,0,0,0,0,0.22,361.96,2,0,0.14,0.14,147,7.14,0.14,0.14,20.72,FLYING,CF1-J,0:/Integrated Flight Computer/aircraft/cf1_j_cfg.ks (inferred preloaded)
21,APPROACH,FLY_TO_FIX,134.11,85,-49.11,1011.5,2.11,1.47,0.65,281.66,0.495,0,0,-7.158,1,0.6,4.5,2.549,0.35,0.0168,0.4,35.748,35.748,35.748,49.174,1,281.91,1.041,0,0,0.9,0.25,0,1.04,281.91,0,0,0,0,0,0,0,45.956,0,0,0,3,0,0,0,2482.75,0,0,0,269.57,0,0,0,0,0,0,0,0,0,0,0,0,0,0,0,0,0,VALID,0,0,0,0,0,1,0,0,0,0,0,0,0,0,0,0,0,0,0,0,0.2,362.35,2,0,0.14,0.14,149,7.14,0.14,0.14,21,FLYING,CF1-J,0:/Integrated Flight Computer/aircraft/cf1_j_cfg.ks (inferred preloaded)
21.28,APPROACH,FLY_TO_FIX,133.28,85,-48.28,1012.1,2.09,1.52,0.69,281.67,0.46,0,0,-7.086,1,0.6,4.5,2.598,0.35,0.0168,0.4,35.999,35.999,35.999,48.338,1,281.91,1.043,0,0,0.9,0.24,0,1.04,281.91,0,0,0,0,0,0,0,45.917,0,0,0,3,0,0,0,2480.68,0,0,0,269.57,0,0,0,0,0,0,0,0,0,0,0,0,0,0,0,0,0,VALID,0,0,0,0,0,1,0,0,0,0,0,0,0,0,0,0,0,0,0,0,0.19,362.75,2,0,0.14,0.14,151,7.14,0.14,0.14,21.28,FLYING,CF1-J,0:/Integrated Flight Computer/aircraft/cf1_j_cfg.ks (inferred preloaded)
21.56,APPROACH,FLY_TO_FIX,132.43,85,-47.43,1012.69,2.08,1.56,0.74,281.68,0.429,0,0,-7.016,1,0.6,4.5,2.648,0.35,0.0168,0.4,36.254,36.254,36.254,47.486,1,281.91,1.044,0,0,0.9,0.23,0,1.04,281.91,0,0,0,0,0,0,0,45.878,0,0,0,3,0,0,0,2478.63,0,0,0,269.57,0,0,0,0,0,0,0,0,0,0,0,0,0,0,0,0,0,VALID,0,0,0,0,0,1,0,0,0,0,0,0,0,0,0,0,0,0,0,0,0.18,363.16,2,0,0.14,0.14,153,7.14,0.14,0.14,21.56,FLYING,CF1-J,0:/Integrated Flight Computer/aircraft/cf1_j_cfg.ks (inferred preloaded)
21.84,APPROACH,FLY_TO_FIX,131.56,85,-46.56,1013.27,2.06,1.61,0.78,281.68,0.401,0,0,-6.946,1,0.6,4.5,2.698,0.35,0.0168,0.4,36.514,36.514,36.514,46.621,1,281.91,1.045,0,0,0.9,0.23,0,1.05,281.91,0,0,0,0,0,0,0,45.839,0,0,0,3,0,0,0,2476.59,0,0,0,269.57,0,0,0,0,0,0,0,0,0,0,0,0,0,0,0,0,0,VALID,0,0,0,0,0,1,0,0,0,0,0,0,0,0,0,0,0,0,0,0,0.16,363.59,2,0,0.14,0.14,155,7.14,0.14,0.14,21.84,FLYING,CF1-J,0:/Integrated Flight Computer/aircraft/cf1_j_cfg.ks (inferred preloaded)
22.12,APPROACH,FLY_TO_FIX,130.68,85,-45.68,1013.86,2.05,1.66,0.83,281.69,0.376,0,0,-6.876,1,0.6,4.5,2.749,0.35,0.0168,0.4,36.777,36.777,36.777,45.744,1,281.91,1.047,0,0,0.9,0.22,0,1.05,281.91,0,0,0,0,0,0,0,45.8,0,0,0,3,0,0,0,2474.57,0,0,0,269.57,0,0,0,0,0,0,0,0,0,0,0,0,0,0,0,0,0,VALID,0,0,0,0,0,1,0,0,0,0,0,0,0,0,0,0,0,0,0,0,0.15,364.02,2,0,0.14,0.14,157,7.14,0.14,0.14,22.12,FLYING,CF1-J,0:/Integrated Flight Computer/aircraft/cf1_j_cfg.ks (inferred preloaded)
22.4,APPROACH,FLY_TO_FIX,129.79,85,-44.79,1014.44,2.03,1.7,0.88,281.7,0.353,0,0,-6.808,1,0.6,4.5,2.799,0.35,0.0168,0.4,37.044,37.044,37.044,44.854,1,281.91,1.049,0,0,0.9,0.21,0,1.05,281.91,0,0,0,0,0,0,0,45.762,0,0,0,3,0,0,0,2472.55,0,0,0,269.57,0,0,0,0,0,0,0,0,0,0,0,0,0,0,0,0,0,VALID,0,0,0,0,0,1,0,0,0,0,0,0,0,0,0,0,0,0,0,0,0.14,364.47,2,0,0.14,0.14,159,7.14,0.14,0.14,22.4,FLYING,CF1-J,0:/Integrated Flight Computer/aircraft/cf1_j_cfg.ks (inferred preloaded)
22.68,APPROACH,FLY_TO_FIX,128.89,85,-43.89,1015.01,2.02,1.76,0.94,281.71,0.333,0,0,-6.74,1,0.6,4.5,2.85,0.35,0.0168,0.4,37.314,37.314,37.314,43.954,1,281.91,1.052,0,0,0.9,0.21,0,1.05,281.91,0,0,0,0,0,0,0,45.723,0,0,0,3,0,0,0,2470.55,0,0,0,269.57,0,0,0,0,0,0,0,0,0,0,0,0,0,0,0,0,0,VALID,0,0,0,0,0,1,0,0,0,0,0,0,0,0,0,0,0,0,0,0,0.13,364.92,2,0,0.14,0.14,161,7.14,0.14,0.14,22.68,FLYING,CF1-J,0:/Integrated Flight Computer/aircraft/cf1_j_cfg.ks (inferred preloaded)
22.96,APPROACH,FLY_TO_FIX,127.98,85,-42.98,1015.59,2.01,1.82,1,281.71,0.315,0,0,-6.673,1,0.6,4.5,2.9,0.35,0.0168,0.4,37.588,37.588,37.588,43.041,1,281.91,1.052,0,0,0.9,0.2,0,1.05,281.91,0,0,0,0,0,0,0,45.686,0,0,0,3,0,0,0,2468.57,0,0,0,269.57,0,0,0,0,0,0,0,0,0,0,0,0,0,0,0,0,0,VALID,0,0,0,0,0,1,0,0,0,0,0,0,0,0,0,0,0,0,0,0,0.12,365.39,2,0,0.14,0.14,163,7.14,0.14,0.14,22.96,FLYING,CF1-J,0:/Integrated Flight Computer/aircraft/cf1_j_cfg.ks (inferred preloaded)
23.24,APPROACH,FLY_TO_FIX,127.05,85,-42.05,1016.15,1.99,1.87,1.05,281.72,0.298,0,0,-6.606,1,0.6,4.5,2.95,0.35,0.0168,0.4,37.865,37.865,37.865,42.118,1,281.91,1.052,0,0,0.9,0.19,0,1.05,281.91,0,0,0,0,0,0,0,45.648,0,0,0,3,0,0,0,2466.6,0,0,0,269.57,0,0,0,0,0,0,0,0,0,0,0,0,0,0,0,0,0,VALID,0,0,0,0,0,1,0,0,0,0,0,0,0,0,0,0,0,0,0,0,0.12,365.86,2,0,0.14,0.14,165,7.14,0.14,0.14,23.24,FLYING,CF1-J,0:/Integrated Flight Computer/aircraft/cf1_j_cfg.ks (inferred preloaded)
23.52,APPROACH,FLY_TO_FIX,126.12,85,-41.12,1016.72,1.98,1.93,1.11,281.72,0.283,0,0,-6.54,1,0.6,4.5,2.999,0.35,0.0168,0.4,38.145,38.145,38.145,41.183,1,281.91,1.054,0,0,0.9,0.19,0,1.05,281.91,0,0,0,0,0,0,0,45.611,0,0,0,3,0,0,0,2464.64,0,0,0,269.57,0,0,0,0,0,0,0,0,0,0,0,0,0,0,0,0,0,VALID,0,0,0,0,0,1,0,0,0,0,0,0,0,0,0,0,0,0,0,0,0.11,366.35,2,0,0.14,0.14,167,7.14,0.14,0.14,23.52,FLYING,CF1-J,0:/Integrated Flight Computer/aircraft/cf1_j_cfg.ks (inferred preloaded)
23.8,APPROACH,FLY_TO_FIX,125.17,85,-40.17,1017.28,1.97,1.99,1.17,281.73,0.268,0,0,-6.475,1,0.6,4.5,3.048,0.35,0.0168,0.4,38.428,38.428,38.428,40.241,1,281.91,1.055,0,0,0.9,0.18,0,1.06,281.91,0,0,0,0,0,0,0,45.573,0,0,0,3,0,0,0,2462.69,0,0,0,269.57,0,0,0,0,0,0,0,0,0,0,0,0,0,0,0,0,0,VALID,0,0,0,0,0,1,0,0,0,0,0,0,0,0,0,0,0,0,0,0,0.1,366.84,2,0,0.14,0.14,169,7.14,0.14,0.14,23.8,FLYING,CF1-J,0:/Integrated Flight Computer/aircraft/cf1_j_cfg.ks (inferred preloaded)
24.08,APPROACH,FLY_TO_FIX,124.22,85,-39.22,1017.84,1.95,2.05,1.23,281.73,0.255,0,0,-6.41,1,0.6,4.5,3.096,0.35,0.0168,0.4,38.713,38.713,38.713,39.29,1,281.91,1.057,0,0,0.9,0.18,0,1.06,281.91,0,0,0,0,0,0,0,45.537,0,0,0,3,0,0,0,2460.76,0,0,0,269.57,0,0,0,0,0,0,0,0,0,0,0,0,0,0,0,0,0,VALID,0,0,0,0,0,1,0,0,0,0,0,0,0,0,0,0,0,0,0,0,0.09,367.34,2,0,0.14,0.14,171,7.14,0.14,0.14,24.08,FLYING,CF1-J,0:/Integrated Flight Computer/aircraft/cf1_j_cfg.ks (inferred preloaded)
24.36,APPROACH,FLY_TO_FIX,123.26,85,-38.26,1018.39,1.93,2.11,1.3,281.74,0.243,0,0,-6.346,1,0.6,4.5,3.143,0.35,0.0168,0.4,39.001,39.001,39.001,38.33,1,281.91,1.059,0,0,0.9,0.18,0,1.06,281.91,0,0,0,0,0,0,0,45.5,0,0,0,3,0,0,0,2458.85,0,0,0,269.57,0,0,0,0,0,0,0,0,0,0,0,0,0,0,0,0,0,VALID,0,0,0,0,0,1,0,0,0,0,0,0,0,0,0,0,0,0,0,0,0.09,367.85,2,0,0.14,0.14,173,7.14,0.14,0.14,24.36,FLYING,CF1-J,0:/Integrated Flight Computer/aircraft/cf1_j_cfg.ks (inferred preloaded)
24.64,APPROACH,FLY_TO_FIX,122.3,85,-37.3,1018.94,1.92,2.18,1.36,281.74,0.232,0,0,-6.283,1,0.6,4.5,3.189,0.35,0.0168,0.4,39.291,39.291,39.291,37.365,1,281.92,1.061,0,0,0.9,0.17,0,1.06,281.92,0,0,0,0,0,0,0,45.464,0,0,0,3,0,0,0,2456.95,0,0,0,269.57,0,0,0,0,0,0,0,0,0,0,0,0,0,0,0,0,0,VALID,0,0,0,0,0,1,0,0,0,0,0,0,0,0,0,0,0,0,0,0,0.08,368.37,2,0,0.14,0.14,175,7.14,0.14,0.14,24.64,FLYING,CF1-J,0:/Integrated Flight Computer/aircraft/cf1_j_cfg.ks (inferred preloaded)
24.92,APPROACH,FLY_TO_FIX,121.33,85,-36.33,1019.49,1.9,2.25,1.43,281.75,0.222,0,0,-6.221,1,0.6,4.5,3.234,0.35,0.0168,0.4,39.582,39.582,39.582,36.395,1,281.92,1.063,0,0,0.9,0.17,0,1.06,281.92,0,0,0,0,0,0,0,45.428,0,0,0,3,0,0,0,2455.06,0,0,0,269.57,0,0,0,0,0,0,0,0,0,0,0,0,0,0,0,0,0,VALID,0,0,0,0,0,1,0,0,0,0,0,0,0,0,0,0,0,0,0,0,0.08,368.9,2,0,0.14,0.14,177,7.14,0.14,0.14,24.92,FLYING,CF1-J,0:/Integrated Flight Computer/aircraft/cf1_j_cfg.ks (inferred preloaded)
25.2,APPROACH,FLY_TO_FIX,120.35,85,-35.35,1020.03,1.88,2.32,1.5,281.75,0.213,0,0,-6.158,1,0.6,4.5,3.277,0.35,0.0168,0.4,39.874,39.874,39.874,35.42,1,281.92,1.066,0,0,0.9,0.16,0,1.07,281.92,0,0,0,0,0,0,0,45.392,0,0,0,3,0,0,0,2453.19,0,0,0,269.57,0,0,0,0,0,0,0,0,0,0,0,0,0,0,0,0,0,VALID,0,0,0,0,0,1,0,0,0,0,0,0,0,0,0,0,0,0,0,0,0.07,369.43,2,0,0.14,0.14,179,7.14,0.14,0.14,25.2,FLYING,CF1-J,0:/Integrated Flight Computer/aircraft/cf1_j_cfg.ks (inferred preloaded)
25.48,APPROACH,FLY_TO_FIX,119.37,85,-34.37,1020.56,1.87,2.39,1.57,281.76,0.204,0,0,-6.097,1,0.6,4.5,3.318,0.35,0.0168,0.4,40.168,40.168,40.168,34.441,1,281.92,1.069,0,0,0.9,0.16,0,1.07,281.92,0,0,0,0,0,0,0,45.357,0,0,0,3,0,0,0,2451.33,0,0,0,269.57,0,0,0,0,0,0,0,0,0,0,0,0,0,0,0,0,0,VALID,0,0,0,0,0,1,0,0,0,0,0,0,0,0,0,0,0,0,0,0,0.07,369.96,2,0,0.14,0.14,181,7.14,0.14,0.14,25.48,FLYING,CF1-J,0:/Integrated Flight Computer/aircraft/cf1_j_cfg.ks (inferred preloaded)
25.76,APPROACH,FLY_TO_FIX,118.39,85,-33.39,1021.1,1.85,2.46,1.65,281.76,0.196,0,0,-6.036,1,0.6,4.5,3.358,0.35,0.0168,0.4,40.462,40.462,40.462,33.459,1,281.92,1.071,0,0,0.89,0.15,0,1.07,281.92,0,0,0,0,0,0,0,45.321,0,0,0,3,0,0,0,2449.49,0,0,0,269.57,0,0,0,0,0,0,0,0,0,0,0,0,0,0,0,0,0,VALID,0,0,0,0,0,1,0,0,0,0,0,0,0,0,0,0,0,0,0,0,0.06,370.51,2,0,0.14,0.14,183,7.14,0.14,0.14,25.76,FLYING,CF1-J,0:/Integrated Flight Computer/aircraft/cf1_j_cfg.ks (inferred preloaded)
26.04,APPROACH,FLY_TO_FIX,117.41,85,-32.41,1021.62,1.83,2.53,1.73,281.77,0.189,0,0,-5.976,1,0.6,4.5,3.395,0.35,0.0168,0.4,40.757,40.757,40.757,32.476,1,281.92,1.074,0,0,0.89,0.15,0,1.07,281.92,0,0,0,0,0,0,0,45.287,0,0,0,3,0,0,0,2447.66,0,0,0,269.57,0,0,0,0,0,0,0,0,0,0,0,0,0,0,0,0,0,VALID,0,0,0,0,0,1,0,0,0,0,0,0,0,0,0,0,0,0,0,0,0.06,371.05,2,0,0.14,0.14,185,7.14,0.14,0.14,26.04,FLYING,CF1-J,0:/Integrated Flight Computer/aircraft/cf1_j_cfg.ks (inferred preloaded)
26.32,APPROACH,FLY_TO_FIX,116.42,85,-31.42,1022.15,1.81,2.61,1.81,281.77,0.182,0,0,-5.916,1,0.6,4.5,3.431,0.35,0.0168,0.4,41.052,41.052,41.052,31.492,1,281.92,1.076,0,0,0.89,0.15,0,1.08,281.92,0,0,0,0,0,0,0,45.252,0,0,0,3,0,0,0,2445.84,0,0,0,269.57,0,0,0,0,0,0,0,0,0,0,0,0,0,0,0,0,0,VALID,0,0,0,0,0,1,0,0,0,0,0,0,0,0,0,0,0,0,0,0,0.05,371.61,2,0,0.14,0.14,187,7.14,0.14,0.14,26.32,FLYING,CF1-J,0:/Integrated Flight Computer/aircraft/cf1_j_cfg.ks (inferred preloaded)
26.6,APPROACH,FLY_TO_FIX,115.44,85,-30.44,1022.66,1.79,2.69,1.89,281.77,0.175,0,0,-5.857,1,0.6,4.5,3.464,0.35,0.0168,0.4,41.348,41.348,41.348,30.508,1,281.92,1.078,0,0,0.89,0.14,0,1.08,281.92,0,0,0,0,0,0,0,45.218,0,0,0,3,0,0,0,2444.04,0,0,0,269.57,0,0,0,0,0,0,0,0,0,0,0,0,0,0,0,0,0,VALID,0,0,0,0,0,1,0,0,0,0,0,0,0,0,0,0,0,0,0,0,0.05,372.16,2,0,0.14,0.14,189,7.14,0.14,0.14,26.6,FLYING,CF1-J,0:/Integrated Flight Computer/aircraft/cf1_j_cfg.ks (inferred preloaded)
26.88,APPROACH,FLY_TO_FIX,114.46,85,-29.46,1023.18,1.78,2.78,1.97,281.78,0.171,0,0,-5.799,1,0.6,4.5,3.495,0.35,0.0168,0.4,41.642,41.642,41.642,29.527,1,281.92,1.082,0,0,0.89,0.14,0,1.08,281.92,0,0,0,0,0,0,0,45.184,0,0,0,3,0,0,0,2442.26,0,0,0,269.57,0,0,0,0,0,0,0,0,0,0,0,0,0,0,0,0,0,VALID,0,0,0,0,0,1,0,0,0,0,0,0,0,0,0,0,0,0,0,0,0.05,372.72,2,0,0.14,0.14,191,7.14,0.14,0.14,26.88,FLYING,CF1-J,0:/Integrated Flight Computer/aircraft/cf1_j_cfg.ks (inferred preloaded)
27.16,APPROACH,FLY_TO_FIX,113.48,85,-28.48,1023.69,1.76,2.86,2.06,281.78,0.165,0,0,-5.741,1,0.6,4.5,3.523,0.35,0.0168,0.4,41.935,41.935,41.935,28.549,1,281.92,1.084,0,0,0.89,0.14,0,1.08,281.92,0,0,0,0,0,0,0,45.15,0,0,0,3,0,0,0,2440.49,0,0,0,269.57,0,0,0,0,0,0,0,0,0,0,0,0,0,0,0,0,0,VALID,0,0,0,0,0,1,0,0,0,0,0,0,0,0,0,0,0,0,0,0,0.04,373.27,2,0,0.14,0.14,193,7.14,0.14,0.14,27.16,FLYING,CF1-J,0:/Integrated Flight Computer/aircraft/cf1_j_cfg.ks (inferred preloaded)
27.44,APPROACH,FLY_TO_FIX,112.5,85,-27.5,1024.19,1.74,2.95,2.15,281.78,0.16,0,0,-5.684,1,0.6,4.5,3.548,0.35,0.0168,0.4,42.228,42.228,42.228,27.574,1,281.92,1.087,0,0,0.89,0.13,0,1.09,281.92,0,0,0,0,0,0,0,45.116,0,0,0,3,0,0,0,2438.74,0,0,0,269.57,0,0,0,0,0,0,0,0,0,0,0,0,0,0,0,0,0,VALID,0,0,0,0,0,1,0,0,0,0,0,0,0,0,0,0,0,0,0,0,0.04,373.83,2,0,0.14,0.14,195,7.14,0.14,0.14,27.44,FLYING,CF1-J,0:/Integrated Flight Computer/aircraft/cf1_j_cfg.ks (inferred preloaded)
27.72,APPROACH,FLY_TO_FIX,111.53,85,-26.53,1024.69,1.73,3.04,2.24,281.79,0.155,0,0,-5.627,1,0.6,4.5,3.57,0.35,0.0168,0.4,42.519,42.519,42.519,26.603,1,281.92,1.09,0,0,0.89,0.13,0,1.09,281.92,0,0,0,0,0,0,0,45.083,0,0,0,3,0,0,0,2437,0,0,0,269.57,0,0,0,0,0,0,0,0,0,0,0,0,0,0,0,0,0,VALID,0,0,0,0,0,1,0,0,0,0,0,0,0,0,0,0,0,0,0,0,0.04,374.39,2,0,0.14,0.14,197,7.14,0.14,0.14,27.72,FLYING,CF1-J,0:/Integrated Flight Computer/aircraft/cf1_j_cfg.ks (inferred preloaded)
28,APPROACH,FLY_TO_FIX,110.57,85,-25.57,1025.19,1.71,3.13,2.33,281.79,0.15,0,0,-5.571,1,0.6,4.5,3.59,0.35,0.0168,0.4,42.809,42.809,42.809,25.637,1,281.92,1.092,0,0,0.89,0.13,0,1.09,281.92,0,0,0,0,0,0,0,45.05,0,0,0,3,0,0,0,2435.27,0,0,0,269.57,0,0,0,0,0,0,0,0,0,0,0,0,0,0,0,0,0,VALID,0,0,0,0,0,1,0,0,0,0,0,0,0,0,0,0,0,0,0,0,0,374.95,2,0,0.14,0.14,199,7.14,0.14,0.14,28,FLYING,CF1-J,0:/Integrated Flight Computer/aircraft/cf1_j_cfg.ks (inferred preloaded)
28.28,APPROACH,FLY_TO_FIX,109.61,85,-24.61,1025.68,1.69,3.22,2.42,281.79,0.146,0,0,-5.515,1,0.6,4.5,3.607,0.35,0.0168,0.4,43.097,43.097,43.097,24.677,1,281.92,1.095,0,0,0.89,0.13,0,1.09,281.92,0,0,0,0,0,0,0,45.018,0,0,0,3,0,0,0,2433.56,0,0,0,269.57,0,0,0,0,0,0,0,0,0,0,0,0,0,0,0,0,0,VALID,0,0,0,0,0,1,0,0,0,0,0,0,0,0,0,0,0,0,0,0,0,375.51,2,0,0.14,0.14,201,7.14,0.14,0.14,28.28,FLYING,CF1-J,0:/Integrated Flight Computer/aircraft/cf1_j_cfg.ks (inferred preloaded)
28.56,APPROACH,FLY_TO_FIX,108.66,85,-23.66,1026.16,1.68,3.31,2.52,281.8,0.142,0,0,-5.46,1,0.6,4.5,3.621,0.35,0.0168,0.4,43.383,43.383,43.383,23.724,1,281.92,1.097,0,0,0.88,0.12,0,1.1,281.92,0,0,0,0,0,0,0,44.985,0,0,0,3,0,0,0,2431.86,0,0,0,269.57,0,0,0,0,0,0,0,0,0,0,0,0,0,0,0,0,0,VALID,0,0,0,0,0,1,0,0,0,0,0,0,0,0,0,0,0,0,0,0,0,376.07,2,0,0.14,0.14,203,7.14,0.14,0.14,28.56,FLYING,CF1-J,0:/Integrated Flight Computer/aircraft/cf1_j_cfg.ks (inferred preloaded)
28.84,APPROACH,FLY_TO_FIX,107.71,85,-22.71,1026.65,1.68,3.4,2.6,281.8,0.138,0,0,-5.406,1,0.6,4.5,3.632,0.35,0.0168,0.4,43.667,43.667,43.667,22.776,1,281.92,1.097,0,0,0.89,0.12,0,1.1,281.92,0,0,0,0,0,0,0,44.953,0,0,0,3,0,0,0,2430.18,0,0,0,269.57,0,0,0,0,0,0,0,0,0,0,0,0,0,1,1,0,0,VALID,0,0,0,0,0,1,0,0,0,0,0,0,0,0,0,0,0,0,0,0,0,376.63,2,0,0.14,0.14,205,7.14,0.14,0.14,28.84,FLYING,CF1-J,0:/Integrated Flight Computer/aircraft/cf1_j_cfg.ks (inferred preloaded)
29.12,APPROACH,FLY_TO_FIX,106.76,85,-21.76,1027.12,1.71,3.44,2.6,281.8,0.133,0,0,-5.352,1,0.6,4.5,3.641,0.35,0.0168,0.4,43.951,43.951,43.951,21.83,1,281.92,1.086,0,0,0.91,0.12,0,1.09,281.92,0,0,0,0,0,0,0,44.921,0,0,0,3,0,0,0,2428.51,0,0,0,269.57,0,0,0,0,0,0,0,0,0,0,0,0,0,1,1,0,0,VALID,0,0,0,0,0,1,0,0,0,0,0,0,0,0,0,0,0,0,0,0,0,377.19,2,0,0.14,0.14,207,7.14,0.14,0.14,29.12,FLYING,CF1-J,0:/Integrated Flight Computer/aircraft/cf1_j_cfg.ks (inferred preloaded)
29.4,APPROACH,FLY_TO_FIX,105.82,85,-20.82,1027.6,1.73,3.42,2.56,281.81,0.126,0,0,-5.299,1,0.6,4.5,3.649,0.35,0.0168,0.4,44.235,44.235,44.235,20.884,1,281.92,1.075,0,0,0.93,0.12,0,1.08,281.92,0,0,0,0,0,0,0,44.89,0,0,0,3,0,0,0,2426.86,0,0,0,269.57,0,0,0,0,0,0,0,0,0,0,0,0,0,1,1,0,0,VALID,0,0,0,0,0,1,0,0,0,0,0,0,0,0,0,0,0,0,0,0,0,377.75,2,0,0.14,0.14,209,7.14,0.14,0.14,29.4,FLYING,CF1-J,0:/Integrated Flight Computer/aircraft/cf1_j_cfg.ks (inferred preloaded)
29.68,APPROACH,FLY_TO_FIX,104.87,85,-19.87,1028.09,1.75,3.42,2.53,281.81,0.119,0,0,-5.246,1,0.6,4.5,3.655,0.35,0.0168,0.4,44.517,44.517,44.517,19.942,1,281.92,1.066,0,0,0.95,0.11,0,1.07,281.92,0,0,0,0,0,0,0,44.858,0,0,0,3,0,0,0,2425.22,0,0,0,269.57,0,0,0,0,0,0,0,0,0,0,0,0,0,1,1,0,0,VALID,0,0,0,0,0,1,0,0,0,0,0,0,0,0,0,0,0,0,0,0,0,378.3,2,0,0.14,0.14,211,7.14,0.14,0.14,29.68,FLYING,CF1-J,0:/Integrated Flight Computer/aircraft/cf1_j_cfg.ks (inferred preloaded)
29.96,APPROACH,FLY_TO_FIX,103.93,85,-18.93,1028.58,1.77,3.41,2.51,281.81,0.11,0,0,-5.193,1,0.6,4.5,3.659,0.35,0.0168,0.4,44.8,44.8,44.8,19.001,1,281.92,1.06,0,0,0.97,0.11,0,1.06,281.92,0,0,0,0,0,0,0,44.827,0,0,0,3,0,0,0,2423.6,0,0,0,269.57,0,0,0,0,0,0,0,0,0,0,0,0,0,1,1,0,0,VALID,0,0,0,0,0,1,0,0,0,0,0,0,0,0,0,0,0,0,0,0,0,378.86,2,0,0.14,0.14,213,7.14,0.14,0.14,29.96,FLYING,CF1-J,0:/Integrated Flight Computer/aircraft/cf1_j_cfg.ks (inferred preloaded)
30.24,APPROACH,FLY_TO_FIX,102.99,85,-17.99,1029.08,1.78,3.4,2.49,281.81,0.102,0,0,-5.142,1,0.6,4.5,3.663,0.35,0.0168,0.4,45.082,45.082,45.082,18.061,1,281.92,1.052,0,0,0.99,0.11,0,1.06,281.92,0,0,0,0,0,0,0,44.797,0,0,0,3,0,0,0,2421.99,0,0,0,269.57,0,0,0,0,0,0,0,0,0,0,0,0,0,1,1,0,0,VALID,0,0,0,0,0,1,0,0,0,0,0,0,0,0,0,0,0,0,0,0,0,379.43,2,0,0.14,0.14,215,7.14,0.14,0.14,30.24,FLYING,CF1-J,0:/Integrated Flight Computer/aircraft/cf1_j_cfg.ks (inferred preloaded)
30.52,APPROACH,FLY_TO_FIX,102.06,85,-17.06,1029.58,1.8,3.4,2.47,281.81,0.095,0,0,-5.09,1,0.6,4.5,3.666,0.35,0.0168,0.4,42.949,45.363,42.949,17.122,1,281.92,1.045,0,0,1,0.11,0,1.05,281.92,0,0,0,0,0,0,0,44.766,0,0,0,3,0,0,0,2420.39,0,0,0,269.57,0,0,0,0,0,0,0,0,0,0,0,0,0,1,1,0,0,VALID,0,0,0,0,0,1,0,0,0,0,0,0,0,0,0,0,0,0,0,0,0,379.99,2,0,0.14,0.14,217,7.14,0.14,0.14,30.52,FLYING,CF1-J,0:/Integrated Flight Computer/aircraft/cf1_j_cfg.ks (inferred preloaded)
30.8,APPROACH,FLY_TO_FIX,101.14,85,-16.14,1030.08,1.82,3.4,2.45,281.82,0.088,0,0,-5.04,1,0.6,4.5,3.667,0.35,0.0168,0.4,40.668,45.639,40.668,16.203,1,281.92,1.038,0,0,1.02,0.11,0,1.04,281.92,0,0,0,0,0,0,0,44.736,0,0,0,3,0,0,0,2418.81,0,0,0,269.57,0,0,0,0,0,0,0,0,0,0,0,0,0,1,1,0,0,VALID,0,0,0,0,0,1,0,0,0,0,0,0,0,0,0,0,0,0,0,0,0,380.54,2,0,0.14,0.14,219,7.14,0.14,0.14,30.8,FLYING,CF1-J,0:/Integrated Flight Computer/aircraft/cf1_j_cfg.ks (inferred preloaded)
31.08,APPROACH,FLY_TO_FIX,100.26,85,-15.26,1030.59,1.82,3.4,2.44,281.82,0.081,0,0,-4.989,1,0.6,4.5,3.663,0.35,0.0168,0.4,38.444,45.905,38.444,15.318,1,281.92,1.031,0,0,1.04,0.11,0,1.03,281.92,0,0,0,0,0,0,0,44.706,0,0,0,3,0,0,0,2417.24,0,0,0,269.57,0,0,0,0,0,0,0,0,0,0,0,0,0,1,1,0,0,VALID,0,0,0,0,0,1,0,0,0,0,0,0,0,0,0,0,0,0,0,0,0,381.07,2,0,0.14,0.14,221,7.14,0.14,0.14,31.08,FLYING,CF1-J,0:/Integrated Flight Computer/aircraft/cf1_j_cfg.ks (inferred preloaded)
31.36,APPROACH,FLY_TO_FIX,99.43,85,-14.43,1031.11,1.84,3.39,2.42,281.82,0.075,0,0,-7.039,1,0.6,4.5,3.651,0.35,0.0168,0.4,36.325,46.154,36.325,14.486,1,281.92,1.026,0,0,1.06,0.1,0,1.03,281.92,0,0,0,0,0,0,0,44.676,0,0,0,3,0,0,0,2415.68,0,0,0,269.57,0,0,0,0,0,0,0,0,0,0,0,0,0,1,1,0,0,VALID,0,0,0,0,0,1,0,0,0,0,0,0,0,0,0,0,0,0,0,0,0,381.56,2,0,0.14,0.14,223,7.14,0.14,0.14,31.36,FLYING,CF1-J,0:/Integrated Flight Computer/aircraft/cf1_j_cfg.ks (inferred preloaded)
31.64,APPROACH,FLY_TO_FIX,98.66,85,-13.66,1031.62,1.85,3.39,2.41,281.82,0.069,0,0,-6.969,1,0.6,4.5,3.628,0.35,0.0168,0.4,34.345,46.385,34.345,13.717,1,281.92,1.019,0,0,1.07,0.1,0,1.02,281.92,0,0,0,0,0,0,0,44.647,0,0,0,3,0,0,0,2414.14,0,0,0,269.57,0,0,0,0,0,0,0,0,0,0,0,0,0,1,1,0,0,VALID,0,0,0,0,0,1,0,0,0,0,0,0,0,0,0,0,0,0,0,0,0,382.02,2,0,0.14,0.14,225,7.14,0.14,0.14,31.64,FLYING,CF1-J,0:/Integrated Flight Computer/aircraft/cf1_j_cfg.ks (inferred preloaded)
31.92,APPROACH,FLY_TO_FIX,97.97,85,-12.97,1032.14,1.87,3.39,2.38,281.82,0.064,0,0,-6.899,1,0.6,4.5,3.591,0.35,0.0168,0.4,32.522,46.595,32.522,13.016,1,281.92,1.011,0,0,1.09,0.1,0,1.02,281.92,0,0,0,0,0,0,0,44.618,0,0,0,3,0,0,0,2412.61,0,0,0,269.57,0,0,0,0,0,0,0,0,0,0,0,0,0,1,1,0,0,VALID,0,0,0,0,0,1,0,0,0,0,0,0,0,0,0,0,0,0,0,0,0,382.43,2,0,0.14,0.14,227,7.14,0.14,0.14,31.92,FLYING,CF1-J,0:/Integrated Flight Computer/aircraft/cf1_j_cfg.ks (inferred preloaded)
32.2,APPROACH,FLY_TO_FIX,97.34,85,-12.34,1032.67,1.88,3.38,2.36,281.82,0.061,0,0,-6.831,1,0.6,4.5,3.54,0.35,0.0168,0.4,30.847,46.786,30.847,12.379,1,281.92,1.005,0,0,1.1,0.1,0,1.01,281.92,0,0,0,0,0,0,0,44.589,0,0,0,3,0,0,0,2411.08,0,0,0,269.57,0,0,0,0,0,0,0,0,0,0,0,0,0,1,1,0,0,VALID,0,0,0,0,0,1,0,0,0,0,0,0,0,0,0,0,0,0,0,0,0,382.81,2,0,0.14,0.14,229,7.14,0.14,0.14,32.2,FLYING,CF1-J,0:/Integrated Flight Computer/aircraft/cf1_j_cfg.ks (inferred preloaded)
32.48,APPROACH,FLY_TO_FIX,96.77,85,-11.77,1033.19,1.84,3.39,2.4,281.82,0.058,0,0,-6.763,1,0.6,4.5,3.475,0.35,0.0168,0.4,29.335,46.958,29.335,11.808,1,281.92,1.011,0,0,1.1,0.1,0,1.01,281.92,0,0,0,0,0,0,0,44.56,0,0,0,3,0,0,0,2409.57,0,0,0,269.57,0,0,0,0,0,0,0,0,0,0,0,0,0,1,1,0,0,VALID,0,0,0,0,0,1,0,0,0,0,0,0,0,0,0,0,0,0,0,0,0,383.14,2,0,0.14,0.14,231,7.14,0.14,0.14,32.48,FLYING,CF1-J,0:/Integrated Flight Computer/aircraft/cf1_j_cfg.ks (inferred preloaded)
32.76,APPROACH,FLY_TO_FIX,96.26,85,-11.26,1033.71,1.81,3.43,2.45,281.82,0.056,0,0,-6.695,1,0.6,4.5,3.397,0.35,0.0168,0.4,27.964,47.112,27.964,11.294,1,281.92,1.02,0,0,1.08,0.1,0,1.02,281.92,0,0,0,0,0,0,0,44.531,0,0,0,3,0,0,0,2408.06,0,0,0,269.57,0,0,0,0,0,0,0,0,0,0,0,0,0,1,1,0,0,VALID,0,0,0,0,0,1,0,0,0,0,0,0,0,0,0,0,0,0,0,0,0,383.44,2,0,0.14,0.14,233,7.14,0.14,0.14,32.76,FLYING,CF1-J,0:/Integrated Flight Computer/aircraft/cf1_j_cfg.ks (inferred preloaded)
33.04,APPROACH,FLY_TO_FIX,95.79,85,-10.79,1034.22,1.76,3.48,2.52,281.83,0.053,0,0,-6.628,1,0.6,4.5,3.308,0.35,0.0168,0.4,26.692,47.254,26.692,10.82,1,281.92,1.03,0,0,1.06,0.1,0,1.03,281.92,0,0,0,0,0,0,0,44.502,0,0,0,3,0,0,0,2406.56,0,0,0,269.57,0,0,0,0,0,0,0,0,0,0,0,0,0,1,1,0,0,VALID,0,0,0,0,0,1,0,0,0,0,0,0,0,0,0,0,0,0,0,0,0,383.72,2,0,0.14,0.14,235,7.14,0.14,0.14,33.04,FLYING,CF1-J,0:/Integrated Flight Computer/aircraft/cf1_j_cfg.ks (inferred preloaded)
33.32,APPROACH,FLY_TO_FIX,95.34,85,-10.34,1034.71,1.72,3.52,2.58,281.83,0.051,0,0,-6.562,1,0.6,4.5,3.213,0.35,0.0168,0.4,25.489,47.388,25.489,10.375,1,281.92,1.039,0,0,1.04,0.1,0,1.04,281.92,0,0,0,0,0,0,0,44.474,0,0,0,3,0,0,0,2405.07,0,0,0,269.57,0,0,0,0,0,0,0,0,0,0,0,0,0,1,1,0,0,VALID,0,0,0,0,0,1,0,0,0,0,0,0,0,0,0,0,0,0,0,0,0,383.97,2,0,0.14,0.14,237,7.14,0.14,0.14,33.32,FLYING,CF1-J,0:/Integrated Flight Computer/aircraft/cf1_j_cfg.ks (inferred preloaded)
33.6,APPROACH,FLY_TO_FIX,94.92,85,-9.92,1035.19,1.68,3.57,2.65,281.83,0.05,0,0,-6.497,1,0.6,4.5,3.113,0.35,0.0168,0.4,24.327,47.516,24.327,9.948,1,281.92,1.05,0,0,1.02,0.1,0,1.05,281.92,0,0,0,0,0,0,0,44.446,0,0,0,3,0,0,0,2403.58,0,0,0,269.57,0,0,0,0,0,0,0,0,0,0,0,0,0,1,1,0,0,VALID,0,0,0,0,0,1,0,0,0,0,0,0,0,0,0,0,0,0,0,0,0,384.22,2,0,0.14,0.14,239,7.14,0.14,0.14,33.6,FLYING,CF1-J,0:/Integrated Flight Computer/aircraft/cf1_j_cfg.ks (inferred preloaded)
33.88,APPROACH,FLY_TO_FIX,94.5,85,-9.5,1035.66,1.64,3.61,2.71,281.83,0.05,0,0,-6.432,1,0.6,4.5,3.013,0.35,0.0168,0.4,23.194,47.64,23.194,9.533,1,281.92,1.061,0,0,1,0.1,0,1.06,281.92,0,0,0,0,0,0,0,44.417,0,0,0,3,0,0,0,2402.1,0,0,0,269.57,0,0,0,0,0,0,0,0,0,0,0,0,0,1,1,0,0,VALID,0,0,0,0,0,1,0,0,0,0,0,0,0,0,0,0,0,0,0,0,0,384.46,2,0,0.14,0.14,241,7.14,0.14,0.14,33.88,FLYING,CF1-J,0:/Integrated Flight Computer/aircraft/cf1_j_cfg.ks (inferred preloaded)
34.16,APPROACH,FLY_TO_FIX,94.1,85,-9.1,1036.13,1.59,3.68,2.81,281.83,0.049,0,0,-6.368,1,0.6,4.5,2.914,0.35,0.0168,0.4,22.081,47.762,22.081,9.128,1,281.92,1.071,0,0,0.98,0.09,0,1.07,281.92,0,0,0,0,0,0,0,44.389,0,0,0,3,0,0,0,2400.63,0,0,0,269.57,0,0,0,0,0,0,0,0,0,0,0,0,0,1,1,0,0,VALID,0,0,0,0,0,1,0,0,0,0,0,0,0,0,0,0,0,0,0,0,0,384.7,2,0,0.14,0.14,243,7.14,0.14,0.14,34.16,FLYING,CF1-J,0:/Integrated Flight Computer/aircraft/cf1_j_cfg.ks (inferred preloaded)
34.44,APPROACH,FLY_TO_FIX,93.7,85,-8.7,1036.58,1.57,3.75,2.89,281.83,0.048,0,0,-6.304,1,0.6,4.5,2.818,0.35,0.0168,0.4,20.982,47.881,20.982,8.73,1,281.93,1.077,0,0,0.96,0.09,0,1.08,281.93,0,0,0,0,0,0,0,44.361,0,0,0,3,0,0,0,2399.16,0,0,0,269.57,0,0,0,0,0,0,0,0,0,0,0,0,0,1,1,0,0,VALID,0,0,0,0,0,1,0,0,0,0,0,0,0,0,0,0,0,0,0,0,0,384.93,2,0,0.14,0.14,245,7.14,0.14,0.14,34.44,FLYING,CF1-J,0:/Integrated Flight Computer/aircraft/cf1_j_cfg.ks (inferred preloaded)
34.72,APPROACH,FLY_TO_FIX,93.31,85,-8.31,1037.03,1.55,3.83,2.97,281.83,0.048,0,0,-6.241,1,0.6,4.5,2.725,0.35,0.0168,0.4,19.891,47.999,19.891,8.338,1,281.93,1.08,0,0,0.95,0.09,0,1.08,281.93,0,0,0,0,0,0,0,44.333,0,0,0,3,0,0,0,2397.7,0,0,0,269.57,0,0,0,0,0,0,0,0,0,0,0,0,0,1,1,0,0,VALID,0,0,0,0,0,1,0,0,0,0,0,0,0,0,0,0,0,0,0,0,0,385.16,2,0,0.14,0.14,247,7.14,0.14,0.14,34.72,FLYING,CF1-J,0:/Integrated Flight Computer/aircraft/cf1_j_cfg.ks (inferred preloaded)
35,APPROACH,FLY_TO_FIX,92.92,85,-7.92,1037.47,1.53,3.89,3.04,281.83,0.047,0,0,-6.179,1,0.6,4.5,2.636,0.35,0.0168,0.4,18.808,48.115,18.808,7.95,1,281.93,1.084,0,0,0.95,0.09,0,1.08,281.93,0,0,0,0,0,0,0,44.305,0,0,0,3,0,0,0,2396.24,0,0,0,269.57,0,0,0,0,0,0,0,0,0,0,0,0,0,1,1,0,0,VALID,0,0,0,0,0,1,0,0,0,0,0,0,0,0,0,0,0,0,0,0,0,385.38,2,0,0.14,0.14,249,7.14,0.14,0.14,35,FLYING,CF1-J,0:/Integrated Flight Computer/aircraft/cf1_j_cfg.ks (inferred preloaded)
35.28,APPROACH,FLY_TO_FIX,92.54,85,-7.54,1037.91,1.52,3.96,3.11,281.83,0.046,0,0,-6.117,1,0.6,4.5,2.553,0.35,0.0168,0.4,17.728,48.23,17.728,7.565,1,281.93,1.085,0,0,0.94,0.09,0,1.09,281.93,0,0,0,0,0,0,0,44.278,0,0,0,3,0,0,0,2394.79,0,0,0,269.57,0,0,0,0,0,0,0,0,0,0,0,0,0,1,1,0,0,VALID,0,0,0,0,0,1,0,0,0,0,0,0,0,0,0,0,0,0,0,0,0,385.61,2,0,0.14,0.14,251,7.14,0.14,0.14,35.28,FLYING,CF1-J,0:/Integrated Flight Computer/aircraft/cf1_j_cfg.ks (inferred preloaded)
35.56,APPROACH,FLY_TO_FIX,92.16,85,-7.16,1038.34,1.51,4.02,3.18,281.84,0.046,0,0,-6.056,1,0.6,4.5,2.474,0.35,0.0168,0.4,16.65,48.345,16.65,7.183,1,281.93,1.086,0,0,0.94,0.09,0,1.09,281.93,0,0,0,0,0,0,0,44.25,0,0,0,3,0,0,0,2393.35,0,0,0,269.57,0,0,0,0,0,0,0,0,0,0,0,0,0,1,1,0,0,VALID,0,0,0,0,0,1,0,0,0,0,0,0,0,0,0,0,0,0,0,0,0,385.83,2,0,0.14,0.14,253,7.14,0.14,0.14,35.56,FLYING,CF1-J,0:/Integrated Flight Computer/aircraft/cf1_j_cfg.ks (inferred preloaded)
