t_s,phase,subphase,ias_ms,vapp_ms,spd_err_ms,agl_m,vs_ms,pitch_deg,aoa_deg,hdg_deg,bank_deg,thr_cmd,thr_intg,aa_hdg_cmd_deg,aa_fpa_cmd_deg,ils_loc_m,ils_gs_m,ils_dist_km,loc_corr_deg,gs_corr_deg,flare_fpa_cmd,flare_tgt_vs,flare_frac,steer_hdg_deg,steer_blend,ro_loc_corr_deg,ro_hdg_err_deg,ro_yaw_tgt,ro_yaw_scale,ro_yaw_gate,yaw_cmd,roll_cmd,pitch_cmd,ro_pitch_tgt_deg,ro_pitch_err_deg,ro_pitch_ff,ro_roll_assist,flaps_cur,flaps_tgt,phase_el_s,status
0.24,APPROACH,FLY_TO_FIX,216.74,200.1,-16.64,2749.78,0.01,6.8,6.79,269.98,-0.019,0,-1.331,305.77,1.251,0,0,0,0,0,0,0,0,269.98,0,0,0,0,0,0,0,0,0,0,0,0,0,0,1,0.28,FLYING
0.48,APPROACH,FLY_TO_FIX,216.68,200.44,-16.24,2749.79,0.08,6.84,6.83,270.06,-1.562,0,-5.554,307.11,1.251,0,0,0,0,0,0,0,0,269.98,0,0,0,0,0,0,0,0,0,0,0,0,0,1,1,0.52,FLYING
0.72,APPROACH,FLY_TO_FIX,216.53,200.75,-15.78,2749.78,0.16,6.72,6.7,270.35,-6.777,0,-9.344,308.24,1.251,0,0,0,0,0,0,0,0,269.98,0,0,0,0,0,0,0,0,0,0,0,0,0,1,1,0.76,FLYING
0.96,APPROACH,FLY_TO_FIX,216.3,201.07,-15.23,2749.73,0.19,6.38,6.36,270.91,-15.811,0,-13.005,309.48,1.251,0,0,0,0,0,0,0,0,269.98,0,0,0,0,0,0,0,0,0,0,0,0,0,1,1,1,FLYING
1.26,APPROACH,FLY_TO_FIX,215.99,201.46,-14.54,2749.68,-0.16,6.14,6.33,272.08,-26.482,0,-17.373,311.03,1.252,0,0,0,0,0,0,0,0,269.98,0,0,0,0,0,0,0,0,0,0,0,0,0,1,1,1.3,FLYING
1.5,APPROACH,FLY_TO_FIX,215.67,201.77,-13.9,2749.71,-0.55,6.56,7.18,273.43,-30.404,0,-20,312.26,1.252,0,0,0,0,0,0,0,0,269.98,0,0,0,0,0,0,0,0,0,0,0,0,0,1,1,1.54,FLYING
1.74,APPROACH,FLY_TO_FIX,215.23,202.08,-13.15,2749.78,-0.47,7.23,8.3,274.82,-32.075,0,-20,313.49,1.251,0,0,0,0,0,0,0,0,269.98,0,0,0,0,0,0,0,0,0,0,0,0,0,1,1,1.78,FLYING
1.98,APPROACH,FLY_TO_FIX,214.65,202.39,-12.26,2749.8,-0.2,7.57,8.95,275.98,-36.063,0,-20,314.7,1.251,0,0,0,0,0,0,0,0,269.98,0,0,0,0,0,0,0,0,0,0,0,0,0,1,1,2.02,FLYING
2.28,APPROACH,FLY_TO_FIX,213.75,202.78,-10.97,2749.85,0.09,7.79,9.71,277.66,-41.886,0,-20,316.21,1.251,0,0,0,0,0,0,0,0,269.98,0,0,0,0,0,0,0,0,0,0,0,0,0,1,1,2.32,FLYING
2.52,APPROACH,FLY_TO_FIX,212.93,203.09,-9.84,2749.88,0.22,7.73,10.1,278.87,-43.877,0,-20,317.4,1.251,0,0,0,0,0,0,0,0,269.98,0,0,0,0,0,0,0,0,0,0,0,0,0,1,1,2.56,FLYING
2.76,APPROACH,FLY_TO_FIX,212.02,203.41,-8.62,2749.92,0.32,7.63,10.31,279.85,-44.368,0,-20,318.57,1.25,0,0,0,0,0,0,0,0,269.98,0,0,0,0,0,0,0,0,0,0,0,0,0,1,1,2.8,FLYING
3,APPROACH,FLY_TO_FIX,211.06,203.72,-7.34,2749.97,0.38,7.52,10.35,280.6,-44.537,0,-20,319.73,1.25,0,0,0,0,0,0,0,0,269.98,0,0,0,0,0,0,0,0,0,0,0,0,0,1,1,3.04,FLYING
3.3,APPROACH,FLY_TO_FIX,209.8,204.11,-5.69,2750.08,0.44,7.47,10.36,281.38,-44.533,0,-20,321.15,1.25,0,0,0,0,0,0,0,0,269.98,0,0,0,0,0,0,0,0,0,0,0,0,0,1,1,3.34,FLYING
3.54,APPROACH,FLY_TO_FIX,208.76,204.42,-4.34,2750.2,0.5,7.49,10.36,281.94,-44.466,0,-20,322.27,1.249,0,0,0,0,0,0,0,0,269.98,0,0,0,0,0,0,0,0,0,0,0,0,0,1,1,3.58,FLYING
3.78,APPROACH,FLY_TO_FIX,207.69,204.73,-2.96,2750.34,0.57,7.53,10.38,282.5,-44.395,0,-20,323.38,1.248,0,0,0,0,0,0,0,0,269.98,0,0,0,0,0,0,0,0,0,0,0,0,0,1,1,3.82,FLYING
4.02,APPROACH,FLY_TO_FIX,206.6,205.04,-1.56,2750.49,0.61,7.57,10.4,283.07,-44.317,0,-20,324.46,1.248,0,0,0,0,0,0,0,0,269.98,0,0,0,0,0,0,0,0,0,0,0,0,0,1,1,4.06,FLYING
4.32,APPROACH,FLY_TO_FIX,205.23,205.43,0.2,2750.69,0.7,7.58,10.37,283.72,-44.094,0,-19.966,325.8,1.247,0,0,0,0,0,0,0,0,269.98,0,0,0,0,0,0,0,0,0,0,0,0,0,1,1,4.36,FLYING
4.56,APPROACH,FLY_TO_FIX,204.13,205.75,1.61,2750.88,0.66,7.66,10.43,284.29,-43.854,0,-19.601,326.85,1.246,0,0,0,0,0,0,0,0,269.98,0,0,0,0,0,0,0,0,0,0,0,0,0,1,1,4.6,FLYING
4.8,APPROACH,FLY_TO_FIX,203.03,206.06,3.03,2751.06,0.74,7.68,10.41,284.78,-43.508,0,-18.897,327.88,1.245,0,0,0,0,0,0,0,0,269.98,0,0,0,0,0,0,0,0,0,0,0,0,0,1,1,4.84,FLYING
5.04,APPROACH,FLY_TO_FIX,201.93,206.37,4.44,2751.24,0.68,7.74,10.44,285.3,-43.174,0.0246,-17.854,328.9,1.244,0,0,0,0,0,0,0,0,269.98,0,0,0,0,0,0,0,0,0,0,0,0,0,1,1,5.08,FLYING
5.34,APPROACH,FLY_TO_FIX,200.56,206.76,6.2,2751.48,0.74,7.81,10.44,285.91,-42.629,0.1435,-16.023,330.14,1.243,0,0,0,0,0,0,0,0,269.98,0,0,0,0,0,0,0,0,0,0,0,0,0,1,1,5.38,FLYING
5.58,APPROACH,FLY_TO_FIX,199.48,207.07,7.59,2751.67,0.69,7.9,10.5,286.42,-42.189,0.2418,-14.223,331.12,1.242,0,0,0,0,0,0,0,0,269.98,0,0,0,0,0,0,0,0,0,0,0,0,0,1,1,5.62,FLYING
5.82,APPROACH,FLY_TO_FIX,198.43,207.38,8.95,2751.86,0.73,7.94,10.47,286.86,-41.706,0.3427,-12.094,332.08,1.241,0,0,0,0,0,0,0,0,269.98,0,0,0,0,0,0,0,0,0,0,0,0,0,1,1,5.86,FLYING
6.06,APPROACH,FLY_TO_FIX,197.42,207.7,10.28,2752.05,0.72,8.03,10.51,287.34,-41.225,0.445,-9.647,333.03,1.24,0,0,0,0,0,0,0,0,269.98,0,0,0,0,0,0,0,0,0,0,0,0,0,1,1,6.1,FLYING
6.36,APPROACH,FLY_TO_FIX,196.24,208.09,11.85,2752.28,0.7,8.09,10.5,287.89,-40.633,0.574,-6.116,334.19,1.239,0,0,0,0,0,0,0,0,269.98,0,0,0,0,0,0,0,0,0,0,0,0,0,1,1,6.4,FLYING
6.6,APPROACH,FLY_TO_FIX,195.37,208.4,13.02,2752.47,0.73,8.14,10.48,288.31,-40.194,0.6765,-3.007,335.11,1.238,0,0,0,0,0,0,0,0,269.98,0,0,0,0,0,0,0,0,0,0,0,0,0,1,1,6.64,FLYING
6.84,APPROACH,FLY_TO_FIX,194.59,208.71,14.12,2752.67,0.75,8.24,10.54,288.79,-39.873,0.7776,0.367,336.01,1.237,0,0,0,0,0,0,0,0,269.98,0,0,0,0,0,0,0,0,0,0,0,0,0,1,1,6.88,FLYING
7.08,APPROACH,FLY_TO_FIX,193.9,209.02,15.12,2752.87,0.78,8.29,10.54,289.24,-39.604,0.8766,3.984,336.89,1.236,0,0,0,0,0,0,0,0,269.98,0,0,0,0,0,0,0,0,0,0,0,0,0,1,1,7.12,FLYING
7.38,APPROACH,FLY_TO_FIX,193.18,209.41,16.23,2753.13,0.83,8.33,10.53,289.8,-39.311,0.9964,8.84,337.98,1.235,0,0,0,0,0,0,0,0,269.98,0,0,0,0,0,0,0,0,0,0,0,0,0,1,1,7.42,FLYING
7.62,APPROACH,FLY_TO_FIX,192.74,209.72,16.99,2753.34,0.87,8.35,10.52,290.26,-39.139,1,12.91,338.84,1.234,0,0,0,0,0,0,0,0,269.98,0,0,0,0,0,0,0,0,0,0,0,0,0,1,1,7.66,FLYING
7.86,APPROACH,FLY_TO_FIX,192.41,210.04,17.63,2753.56,0.92,8.37,10.51,290.72,-39.037,1,17.135,339.68,1.232,0,0,0,0,0,0,0,0,269.98,0,0,0,0,0,0,0,0,0,0,0,0,0,1,1,7.9,FLYING
8.1,APPROACH,FLY_TO_FIX,192.2,210.35,18.15,2753.79,0.98,8.39,10.49,291.19,-39.008,1,20,340.51,1.231,0,0,0,0,0,0,0,0,269.98,0,0,0,0,0,0,0,0,0,0,0,0,0,1,1,8.14,FLYING
8.4,APPROACH,FLY_TO_FIX,192.09,210.74,18.65,2754.1,1.07,8.39,10.48,291.81,-39.063,1,20,341.54,1.23,0,0,0,0,0,0,0,0,269.98,0,0,0,0,0,0,0,0,0,0,0,0,0,1,1,8.44,FLYING
8.64,APPROACH,FLY_TO_FIX,192.12,211.05,18.93,2754.36,1.15,8.38,10.46,292.3,-39.175,1,20,342.34,1.229,0,0,0,0,0,0,0,0,269.98,0,0,0,0,0,0,0,0,0,0,0,0,0,1,1,8.68,FLYING
8.88,APPROACH,FLY_TO_FIX,192.25,211.36,19.12,2754.64,1.21,8.37,10.45,292.82,-39.354,1,20,343.14,1.227,0,0,0,0,0,0,0,0,269.98,0,0,0,0,0,0,0,0,0,0,0,0,0,1,1,8.92,FLYING
9.12,APPROACH,FLY_TO_FIX,192.47,211.67,19.21,2754.94,1.3,8.36,10.44,293.35,-39.583,1,20,343.92,1.226,0,0,0,0,0,0,0,0,269.98,0,0,0,0,0,0,0,0,0,0,0,0,0,1,1,9.16,FLYING
9.42,APPROACH,FLY_TO_FIX,192.86,212.06,19.2,2755.34,1.4,8.33,10.42,294.01,-39.914,1,20,344.89,1.224,0,0,0,0,0,0,0,0,269.98,0,0,0,0,0,0,0,0,0,0,0,0,0,1,1,9.46,FLYING
9.66,APPROACH,FLY_TO_FIX,193.27,212.38,19.1,2755.68,1.49,8.31,10.41,294.56,-40.225,1,20,345.65,1.222,0,0,0,0,0,0,0,0,269.98,0,0,0,0,0,0,0,0,0,0,0,0,0,1,1,9.7,FLYING
9.9,APPROACH,FLY_TO_FIX,193.76,212.69,18.92,2756.05,1.59,8.28,10.39,295.11,-40.573,1,20,346.4,1.22,0,0,0,0,0,0,0,0,269.98,0,0,0,0,0,0,0,0,0,0,0,0,0,1,1,9.94,FLYING
10.14,APPROACH,FLY_TO_FIX,194.32,213,18.68,2756.43,1.69,8.25,10.38,295.68,-40.955,1,20,347.14,1.218,0,0,0,0,0,0,0,0,269.98,0,0,0,0,0,0,0,0,0,0,0,0,0,1,1,10.18,FLYING
10.44,APPROACH,FLY_TO_FIX,195.1,213.39,18.29,2756.95,1.82,8.21,10.36,296.4,-41.476,1,20,348.05,1.216,0,0,0,0,0,0,0,0,269.98,0,0,0,0,0,0,0,0,0,0,0,0,0,1,1,10.48,FLYING
10.68,APPROACH,FLY_TO_FIX,195.8,213.7,17.91,2757.39,1.93,8.18,10.35,297,-41.923,1,20,348.77,1.214,0,0,0,0,0,0,0,0,269.98,0,0,0,0,0,0,0,0,0,0,0,0,0,1,1,10.72,FLYING
10.92,APPROACH,FLY_TO_FIX,196.54,214.01,17.47,2757.86,2.04,8.14,10.34,297.6,-42.391,1,20,349.48,1.211,0,0,0,0,0,0,0,0,269.98,0,0,0,0,0,0,0,0,0,0,0,0,0,1,1,10.96,FLYING
11.16,APPROACH,FLY_TO_FIX,197.35,214.33,16.98,2758.35,2.16,8.1,10.33,298.21,-42.877,1,20,350.17,1.209,0,0,0,0,0,0,0,0,269.98,0,0,0,0,0,0,0,0,0,0,0,0,0,1,1,11.2,FLYING
11.46,APPROACH,FLY_TO_FIX,198.42,214.72,16.3,2759.01,2.31,8.05,10.32,298.99,-43.506,1,20,351.02,1.206,0,0,0,0,0,0,0,0,269.98,0,0,0,0,0,0,0,0,0,0,0,0,0,1,1,11.5,FLYING
11.7,APPROACH,FLY_TO_FIX,199.33,215,15.67,2759.57,2.43,8.01,10.32,299.62,-44.025,1,20,351.69,1.203,0,0,0,0,0,0,0,0,269.98,0,0,0,0,0,0,0,0,0,0,0,0,0,1,1,11.74,FLYING
11.94,APPROACH,FLY_TO_FIX,200.29,215,14.71,2760.15,2.55,7.97,10.31,300.27,-44.554,1,20,352.35,1.2,0,0,0,0,0,0,0,0,269.98,0,0,0,0,0,0,0,0,0,0,0,0,0,1,1,11.98,FLYING
12.18,APPROACH,FLY_TO_FIX,201.3,215,13.7,2760.77,2.68,7.92,10.3,300.92,-45.091,0.9982,20,353,1.197,0,0,0,0,0,0,0,0,269.98,0,0,0,0,0,0,0,0,0,0,0,0,0,1,1,12.22,FLYING
12.48,APPROACH,FLY_TO_FIX,202.62,215,12.38,2761.58,2.84,7.87,10.3,301.76,-45.772,0.926,20,353.79,1.193,0,0,0,0,0,0,0,0,269.98,0,0,0,0,0,0,0,0,0,0,0,0,0,1,1,12.52,FLYING
12.72,APPROACH,FLY_TO_FIX,203.71,215,11.29,2762.27,2.98,7.82,10.3,302.43,-46.323,0.8658,20,354.41,1.19,0,0,0,0,0,0,0,0,269.98,0,0,0,0,0,0,0,0,0,0,0,0,0,1,1,12.76,FLYING
12.96,APPROACH,FLY_TO_FIX,204.84,215,10.16,2762.99,3.11,7.78,10.3,303.12,-46.87,0.804,20,355.01,1.186,0,0,0,0,0,0,0,0,269.98,0,0,0,0,0,0,0,0,0,0,0,0,0,1,1,13,FLYING
13.2,APPROACH,FLY_TO_FIX,205.99,215,9.01,2763.74,3.24,7.74,10.3,303.81,-47.407,0.741,20,355.6,1.182,0,0,0,0,0,0,0,0,269.98,0,0,0,0,0,0,0,0,0,0,0,0,0,1,1,13.24,FLYING
13.5,APPROACH,FLY_TO_FIX,207.43,215,7.57,2764.72,3.4,7.68,10.3,304.69,-48.06,0.6615,20,356.32,1.177,0,0,0,0,0,0,0,0,269.98,0,0,0,0,0,0,0,0,0,0,0,0,0,1,1,13.54,FLYING
13.74,APPROACH,FLY_TO_FIX,208.59,215,6.41,2765.55,3.53,7.64,10.31,305.4,-48.56,0.5979,20,356.88,1.173,0,0,0,0,0,0,0,0,269.98,0,0,0,0,0,0,0,0,0,0,0,0,0,1,1,13.78,FLYING
13.98,APPROACH,FLY_TO_FIX,209.73,215,5.27,2766.4,3.66,7.61,10.31,306.12,-49.032,0.5352,20,357.42,1.169,0,0,0,0,0,0,0,0,269.98,0,0,0,0,0,0,0,0,0,0,0,0,0,1,1,14.02,FLYING
14.22,APPROACH,FLY_TO_FIX,210.83,215,4.17,2767.28,3.78,7.57,10.32,306.84,-49.471,0.4742,20,357.95,1.165,0,0,0,0,0,0,0,0,269.98,0,0,0,0,0,0,0,0,0,0,0,0,0,1,1,14.26,FLYING
14.52,APPROACH,FLY_TO_FIX,212.15,215,2.85,2768.43,3.92,7.54,10.33,307.74,-49.971,0.4016,20,358.58,1.159,0,0,0,0,0,0,0,0,269.98,0,0,0,0,0,0,0,0,0,0,0,0,0,1,1,14.56,FLYING
14.76,APPROACH,FLY_TO_FIX,213.13,215,1.87,2769.38,4.03,7.51,10.33,308.46,-50.332,0.3471,20,359.07,1.154,0,0,0,0,0,0,0,0,269.98,0,0,0,0,0,0,0,0,0,0,0,0,0,1,1,14.8,FLYING
15,APPROACH,FLY_TO_FIX,214.05,215,0.95,2770.35,4.12,7.49,10.34,309.17,-50.643,0.2964,20,359.54,1.149,0,0,0,0,0,0,0,0,269.98,0,0,0,0,0,0,0,0,0,0,0,0,0,1,1,15.04,FLYING
15.24,APPROACH,FLY_TO_FIX,214.88,215,0.12,2771.34,4.21,7.47,10.35,309.89,-50.908,0.2501,20,360,1.145,0,0,0,0,0,0,0,0,269.98,0,0,0,0,0,0,0,0,0,0,0,0,0,1,1,15.28,FLYING
15.54,APPROACH,FLY_TO_FIX,215.8,215,-0.8,2772.62,4.32,7.45,10.35,310.77,-51.169,0.1963,19.777,0.54,1.138,0,0,0,0,0,0,0,0,269.98,0,0,0,0,0,0,0,0,0,0,0,0,0,1,1,15.58,FLYING
15.78,APPROACH,FLY_TO_FIX,216.43,215,-1.43,2773.67,4.4,7.45,10.36,311.48,-51.322,0.1571,19.444,0.95,1.133,0,0,0,0,0,0,0,0,269.98,0,0,0,0,0,0,0,0,0,0,0,0,0,1,1,15.82,FLYING
16.02,APPROACH,FLY_TO_FIX,216.97,215,-1.97,2774.73,4.43,7.44,10.35,312.17,-51.45,0.1217,18.981,1.34,1.128,0,0,0,0,0,0,0,0,269.98,0,0,0,0,0,0,0,0,0,0,0,0,0,1,1,16.06,FLYING
16.26,APPROACH,FLY_TO_FIX,217.39,215,-2.39,2775.81,4.61,7.44,10.32,312.83,-51.454,0.0913,18.416,1.71,1.122,0,0,0,0,0,0,0,0,269.98,0,0,0,0,0,0,0,0,0,0,0,0,0,1,1,16.3,FLYING
16.56,APPROACH,FLY_TO_FIX,217.78,215,-2.78,2777.17,4.52,7.39,10.26,313.64,-51.599,0.0595,17.589,2.15,1.116,0,0,0,0,0,0,0,0,269.98,0,0,0,0,0,0,0,0,0,0,0,0,0,1,1,16.6,FLYING
16.8,APPROACH,FLY_TO_FIX,217.95,215,-2.95,2778.29,4.62,7.47,10.39,314.43,-51.65,0.0409,16.883,2.47,1.11,0,0,0,0,0,0,0,0,269.98,0,0,0,0,0,0,0,0,0,0,0,0,0,1,1,16.84,FLYING
17.04,APPROACH,FLY_TO_FIX,218.01,215,-3.01,2779.4,4.66,7.48,10.4,315.11,-51.634,0.0285,16.161,2.78,1.104,0,0,0,0,0,0,0,0,269.98,0,0,0,0,0,0,0,0,0,0,0,0,0,1,1,17.08,FLYING
17.28,APPROACH,FLY_TO_FIX,217.95,215,-2.95,2780.52,4.65,7.47,10.36,315.75,-51.57,0.0224,15.45,3.07,1.099,0,0,0,0,0,0,0,0,269.98,0,0,0,0,0,0,0,0,0,0,0,0,0,1,1,17.32,FLYING
17.58,APPROACH,FLY_TO_FIX,217.74,215,-2.74,2781.94,4.69,7.5,10.38,316.59,-51.407,0.0237,14.622,3.39,1.092,0,0,0,0,0,0,0,0,269.98,0,0,0,0,0,0,0,0,0,0,0,0,0,1,1,17.62,FLYING
17.82,APPROACH,FLY_TO_FIX,217.46,215,-2.46,2783.07,4.7,7.53,10.38,317.23,-51.23,0.0314,14.025,3.63,1.086,0,0,0,0,0,0,0,0,269.98,0,0,0,0,0,0,0,0,0,0,0,0,0,1,1,17.86,FLYING
18.06,APPROACH,FLY_TO_FIX,217.1,215,-2.1,2784.21,4.71,7.56,10.38,317.88,-51.046,0.0449,13.513,3.85,1.08,0,0,0,0,0,0,0,0,269.98,0,0,0,0,0,0,0,0,0,0,0,0,0,1,1,18.1,FLYING
18.3,APPROACH,FLY_TO_FIX,216.66,215,-1.66,2785.35,4.71,7.59,10.38,318.52,-50.845,0.0639,13.105,4.04,1.075,0,0,0,0,0,0,0,0,269.98,0,0,0,0,0,0,0,0,0,0,0,0,0,1,1,18.34,FLYING
18.6,APPROACH,FLY_TO_FIX,216.02,215,-1.02,2786.77,4.71,7.63,10.38,319.3,-50.572,0.0949,12.786,4.26,1.068,0,0,0,0,0,0,0,0,269.98,0,0,0,0,0,0,0,0,0,0,0,0,0,1,1,18.64,FLYING
18.84,APPROACH,FLY_TO_FIX,215.45,215,-0.45,2787.91,4.7,7.67,10.38,319.92,-50.341,0.1245,12.666,4.41,1.062,0,0,0,0,0,0,0,0,269.98,0,0,0,0,0,0,0,0,0,0,0,0,0,1,1,18.88,FLYING
19.08,APPROACH,FLY_TO_FIX,214.85,215,0.15,2789.05,4.7,7.7,10.38,320.54,-50.102,0.158,12.691,4.54,1.056,0,0,0,0,0,0,0,0,269.98,0,0,0,0,0,0,0,0,0,0,0,0,0,1,1,19.12,FLYING
19.32,APPROACH,FLY_TO_FIX,214.22,215,0.78,2790.18,4.69,7.73,10.38,321.15,-49.863,0.1946,12.866,4.65,1.05,0,0,0,0,0,0,0,0,269.98,0,0,0,0,0,0,0,0,0,0,0,0,0,1,1,19.36,FLYING
19.62,APPROACH,FLY_TO_FIX,213.42,215,1.58,2791.6,4.68,7.78,10.37,321.91,-49.562,0.2441,13.325,4.75,1.043,0,0,0,0,0,0,0,0,269.98,0,0,0,0,0,0,0,0,0,0,0,0,0,1,1,19.66,FLYING
19.86,APPROACH,FLY_TO_FIX,212.78,215,2.22,2792.73,4.67,7.81,10.37,322.51,-49.327,0.2855,13.846,4.82,1.038,0,0,0,0,0,0,0,0,269.98,0,0,0,0,0,0,0,0,0,0,0,0,0,1,1,19.9,FLYING
20.1,APPROACH,FLY_TO_FIX,212.15,215,2.85,2793.86,4.67,7.84,10.37,323.11,-49.101,0.328,14.517,4.86,1.032,0,0,0,0,0,0,0,0,269.98,0,0,0,0,0,0,0,0,0,0,0,0,0,1,1,20.14,FLYING
20.34,APPROACH,FLY_TO_FIX,211.54,215,3.46,2794.99,4.66,7.87,10.37,323.7,-48.881,0.3714,15.335,4.88,1.026,0,0,0,0,0,0,0,0,269.98,0,0,0,0,0,0,0,0,0,0,0,0,0,1,1,20.38,FLYING
20.64,APPROACH,FLY_TO_FIX,210.82,215,4.18,2796.39,4.65,7.9,10.36,324.44,-48.619,0.4263,16.575,4.89,1.019,0,0,0,0,0,0,0,0,269.98,0,0,0,0,0,0,0,0,0,0,0,0,0,1,1,20.68,FLYING
20.88,APPROACH,FLY_TO_FIX,210.28,215,4.72,2797.52,4.65,7.93,10.36,325.03,-48.425,0.4698,17.698,4.87,1.014,0,0,0,0,0,0,0,0,269.98,0,0,0,0,0,0,0,0,0,0,0,0,0,1,1,20.92,FLYING
21.12,APPROACH,FLY_TO_FIX,209.77,215,5.23,2798.64,4.65,7.95,10.35,325.62,-48.249,0.5128,18.944,4.83,1.008,0,0,0,0,0,0,0,0,269.98,0,0,0,0,0,0,0,0,0,0,0,0,0,1,1,21.16,FLYING
21.36,APPROACH,FLY_TO_FIX,209.31,215,5.69,2799.76,4.65,7.97,10.35,326.21,-48.09,0.5511,20,4.77,1.003,0,0,0,0,0,0,0,0,269.98,0,0,0,0,0,0,0,0,0,0,0,0,0,1,1,21.4,FLYING
21.66,APPROACH,FLY_TO_FIX,208.8,215,6.2,2801.16,4.66,8,10.34,326.95,-47.923,0.5794,20,4.68,0.996,0,0,0,0,0,0,0,0,269.98,0,0,0,0,0,0,0,0,0,0,0,0,0,1,1,21.7,FLYING
21.9,APPROACH,FLY_TO_FIX,208.45,215,6.55,2802.29,4.67,8.01,10.33,327.54,-47.817,0.5989,20,4.58,0.99,0,0,0,0,0,0,0,0,269.98,0,0,0,0,0,0,0,0,0,0,0,0,0,1,1,21.94,FLYING
22.14,APPROACH,FLY_TO_FIX,208.15,215,6.85,2803.41,4.68,8.02,10.33,328.13,-47.736,0.6156,20,4.46,0.984,0,0,0,0,0,0,0,0,269.98,0,0,0,0,0,0,0,0,0,0,0,0,0,1,1,22.18,FLYING
22.38,APPROACH,FLY_TO_FIX,207.9,215,7.1,2804.54,4.69,8.03,10.32,328.72,-47.677,0.6293,20,4.32,0.979,0,0,0,0,0,0,0,0,269.98,0,0,0,0,0,0,0,0,0,0,0,0,0,1,1,22.42,FLYING
22.68,APPROACH,FLY_TO_FIX,207.67,215,7.33,2805.95,4.72,8.04,10.31,329.47,-47.634,0.6423,20,4.12,0.972,0,0,0,0,0,0,0,0,269.98,0,0,0,0,0,0,0,0,0,0,0,0,0,1,1,22.72,FLYING
22.92,APPROACH,FLY_TO_FIX,207.55,215,7.45,2807.08,4.75,8.03,10.3,330.06,-47.634,0.6495,20,3.95,0.966,0,0,0,0,0,0,0,0,269.98,0,0,0,0,0,0,0,0,0,0,0,0,0,1,1,22.96,FLYING
23.16,APPROACH,FLY_TO_FIX,207.47,215,7.53,2808.22,4.75,8.03,10.3,330.68,-47.675,0.6539,20,3.75,0.96,0,0,0,0,0,0,0,0,269.98,0,0,0,0,0,0,0,0,0,0,0,0,0,1,1,23.2,FLYING
23.4,APPROACH,FLY_TO_FIX,207.44,215,7.56,2809.37,4.78,8.04,10.31,331.3,-47.737,0.6556,20,3.53,0.955,0,0,0,0,0,0,0,0,269.98,0,0,0,0,0,0,0,0,0,0,0,0,0,1,1,23.44,FLYING
23.7,APPROACH,FLY_TO_FIX,207.48,215,7.52,2810.81,4.82,8.04,10.31,332.08,-47.837,0.6541,20,3.24,0.947,0,0,0,0,0,0,0,0,269.98,0,0,0,0,0,0,0,0,0,0,0,0,0,1,1,23.74,FLYING
23.94,APPROACH,FLY_TO_FIX,207.55,215,7.45,2811.97,4.85,8.03,10.31,332.7,-47.935,0.6502,20,2.98,0.942,0,0,0,0,0,0,0,0,269.98,0,0,0,0,0,0,0,0,0,0,0,0,0,1,1,23.98,FLYING
24.18,APPROACH,FLY_TO_FIX,207.67,215,7.33,2813.13,4.88,8.02,10.31,333.33,-48.046,0.6439,20,2.7,0.936,0,0,0,0,0,0,0,0,269.98,0,0,0,0,0,0,0,0,0,0,0,0,0,1,1,24.22,FLYING
24.42,APPROACH,FLY_TO_FIX,207.82,215,7.18,2814.3,4.93,7.99,10.28,333.94,-48.173,0.6356,20,2.4,0.93,0,0,0,0,0,0,0,0,269.98,0,0,0,0,0,0,0,0,0,0,0,0,0,1,1,24.46,FLYING
24.72,APPROACH,FLY_TO_FIX,208.07,215,6.93,2815.77,4.93,7.96,10.26,334.72,-48.408,0.6222,20,2,0.923,0,0,0,0,0,0,0,0,269.98,0,0,0,0,0,0,0,0,0,0,0,0,0,1,1,24.76,FLYING
24.96,APPROACH,FLY_TO_FIX,208.3,215,6.7,2816.96,4.98,7.96,10.29,335.39,-48.581,0.6095,20,1.66,0.917,0,0,0,0,0,0,0,0,269.98,0,0,0,0,0,0,0,0,0,0,0,0,0,1,1,25,FLYING
25.2,APPROACH,FLY_TO_FIX,208.56,215,6.44,2818.16,5.02,7.95,10.3,336.04,-48.748,0.5953,20,1.3,0.911,0,0,0,0,0,0,0,0,269.98,0,0,0,0,0,0,0,0,0,0,0,0,0,1,1,25.24,FLYING
25.44,APPROACH,FLY_TO_FIX,208.85,215,6.15,2819.36,5.04,7.93,10.3,336.69,-48.915,0.5797,20,0.92,0.905,0,0,0,0,0,0,0,0,269.98,0,0,0,0,0,0,0,0,0,0,0,0,0,1,1,25.48,FLYING
25.74,APPROACH,FLY_TO_FIX,209.23,215,5.77,2820.87,5.09,7.9,10.28,337.49,-49.127,0.5586,20,0.42,0.897,0,0,0,0,0,0,0,0,269.98,0,0,0,0,0,0,0,0,0,0,0,0,0,1,1,25.78,FLYING
25.98,APPROACH,FLY_TO_FIX,209.57,215,5.43,2822.09,5.11,7.87,10.27,338.14,-49.288,0.5405,20,359.99,0.891,0,0,0,0,0,0,0,0,269.98,0,0,0,0,0,0,0,0,0,0,0,0,0,1,1,26.02,FLYING
26.22,APPROACH,FLY_TO_FIX,209.91,215,5.09,2823.31,5.13,7.86,10.28,338.8,-49.482,0.5216,20,359.54,0.885,0,0,0,0,0,0,0,0,269.98,0,0,0,0,0,0,0,0,0,0,0,0,0,1,1,26.26,FLYING
26.46,APPROACH,FLY_TO_FIX,210.26,215,4.74,2824.54,5.16,7.82,10.25,339.44,-49.67,0.5022,20,359.08,0.879,0,0,0,0,0,0,0,0,269.98,0,0,0,0,0,0,0,0,0,0,0,0,0,1,1,26.5,FLYING
26.76,APPROACH,FLY_TO_FIX,210.71,215,4.29,2826.08,5.19,7.79,10.26,340.27,-49.898,0.4774,20,358.47,0.871,0,0,0,0,0,0,0,0,269.98,0,0,0,0,0,0,0,0,0,0,0,0,0,1,1,26.8,FLYING
27,APPROACH,FLY_TO_FIX,211.08,215,3.92,2827.32,5.21,7.77,10.25,340.93,-50.084,0.4574,20,357.95,0.865,0,0,0,0,0,0,0,0,269.98,0,0,0,0,0,0,0,0,0,0,0,0,0,1,1,27.04,FLYING
27.24,APPROACH,FLY_TO_FIX,211.44,215,3.56,2828.56,5.22,7.74,10.25,341.6,-50.271,0.4374,20,357.42,0.859,0,0,0,0,0,0,0,0,269.98,0,0,0,0,0,0,0,0,0,0,0,0,0,1,1,27.28,FLYING
27.48,APPROACH,FLY_TO_FIX,211.79,215,3.21,2829.81,5.23,7.71,10.25,342.27,-50.461,0.4179,20,356.86,0.853,0,0,0,0,0,0,0,0,269.98,0,0,0,0,0,0,0,0,0,0,0,0,0,1,1,27.52,FLYING
27.78,APPROACH,FLY_TO_FIX,212.22,215,2.78,2831.37,5.24,7.68,10.24,343.1,-50.69,0.3945,20,356.14,0.845,0,0,0,0,0,0,0,0,269.98,0,0,0,0,0,0,0,0,0,0,0,0,0,1,1,27.82,FLYING
28.02,APPROACH,FLY_TO_FIX,212.54,215,2.46,2832.61,5.24,7.65,10.24,343.77,-50.869,0.3769,20,355.54,0.838,0,0,0,0,0,0,0,0,269.98,0,0,0,0,0,0,0,0,0,0,0,0,0,1,1,28.06,FLYING
28.26,APPROACH,FLY_TO_FIX,212.83,215,2.17,2833.86,5.23,7.62,10.23,344.44,-51.037,0.3605,20,354.91,0.832,0,0,0,0,0,0,0,0,269.98,0,0,0,0,0,0,0,0,0,0,0,0,0,1,1,28.3,FLYING
28.5,APPROACH,FLY_TO_FIX,213.1,215,1.9,2835.11,5.22,7.59,10.23,345.11,-51.204,0.3455,20,354.27,0.826,0,0,0,0,0,0,0,0,269.98,0,0,0,0,0,0,0,0,0,0,0,0,0,1,1,28.54,FLYING
28.8,APPROACH,FLY_TO_FIX,213.4,215,1.6,2836.66,5.2,7.55,10.23,345.95,-51.399,0.329,20,353.44,0.818,0,0,0,0,0,0,0,0,269.98,0,0,0,0,0,0,0,0,0,0,0,0,0,1,1,28.84,FLYING
29.04,APPROACH,FLY_TO_FIX,213.6,215,1.4,2837.88,5.16,7.48,10.16,346.58,-51.552,0.3176,20,352.74,0.812,0,0,0,0,0,0,0,0,269.98,0,0,0,0,0,0,0,0,0,0,0,0,0,1,1,29.08,FLYING
29.28,APPROACH,FLY_TO_FIX,213.78,215,1.22,2839.11,5.12,7.46,10.16,347.24,-51.654,0.3078,20,352.03,0.806,0,0,0,0,0,0,0,0,269.98,0,0,0,0,0,0,0,0,0,0,0,0,0,1,1,29.32,FLYING
29.52,APPROACH,FLY_TO_FIX,213.93,215,1.07,2840.3,5.1,7.35,10.02,347.8,-51.707,0.2998,20,351.3,0.8,0,0,0,0,0,0,0,0,269.98,0,0,0,0,0,0,0,0,0,0,0,0,0,1,1,29.56,FLYING
29.82,APPROACH,FLY_TO_FIX,214.09,215,0.91,2841.79,4.92,7.27,9.92,348.51,-51.591,0.2908,20,350.35,0.793,0,0,0,0,0,0,0,0,269.98,0,0,0,0,0,0,0,0,0,0,0,0,0,1,1,29.86,FLYING
30.06,APPROACH,FLY_TO_FIX,214.17,215,0.83,2842.98,4.88,7.33,10.04,349.27,-51.737,0.2857,20,349.58,0.787,0,0,0,0,0,0,0,0,269.98,0,0,0,0,0,0,0,0,0,0,0,0,0,1,1,30.1,FLYING
30.3,APPROACH,FLY_TO_FIX,214.23,215,0.77,2844.14,4.83,7.33,10.14,350.02,-52.059,0.2827,20,348.78,0.781,0,0,0,0,0,0,0,0,269.98,0,0,0,0,0,0,0,0,0,0,0,0,0,1,1,30.34,FLYING
30.54,APPROACH,FLY_TO_FIX,214.24,215,0.76,2845.26,4.77,7.19,10.02,350.62,-52.409,0.2817,20,347.96,0.775,0,0,0,0,0,0,0,0,269.98,0,0,0,0,0,0,0,0,0,0,0,0,0,1,1,30.58,FLYING
30.84,APPROACH,FLY_TO_FIX,214.24,215,0.76,2846.6,4.69,6.98,9.81,351.29,-52.479,0.2819,20,346.91,0.768,0,0,0,0,0,0,0,0,269.98,0,0,0,0,0,0,0,0,0,0,0,0,0,1,1,30.88,FLYING
31.08,APPROACH,FLY_TO_FIX,214.19,215,0.81,2847.5,4.6,6.2,8.45,350.74,-50.171,0.2846,20,346.04,0.764,0,0,0,0,0,0,0,0,269.98,0,0,0,0,0,0,0,0,0,0,0,0,0,1,1,31.12,FLYING
31.32,APPROACH,FLY_TO_FIX,214.3,215,0.7,2848.23,4.2,5.09,6.46,349.51,-44.78,0.2794,20,345.16,0.76,0,0,0,0,0,0,0,0,269.98,0,0,0,0,0,0,0,0,0,0,0,0,0,1,1,31.36,FLYING
31.56,APPROACH,FLY_TO_FIX,214.59,215,0.41,2848.79,3.59,3.84,4.34,348.07,-35.505,0.2642,20,344.26,0.757,0,0,0,0,0,0,0,0,269.98,0,0,0,0,0,0,0,0,0,0,0,0,0,1,1,31.6,FLYING
31.86,APPROACH,FLY_TO_FIX,215.1,215,-0.1,2849.32,2.3,2.66,2.54,346.72,-19.425,0.2362,19.981,343.12,0.754,0,0,0,0,0,0,0,0,269.98,0,0,0,0,0,0,0,0,0,0,0,0,0,1,1,31.9,FLYING
32.1,APPROACH,FLY_TO_FIX,215.56,215,-0.56,2849.68,1.14,2.54,2.31,346.06,-5.987,0.2098,19.856,342.2,0.752,0,0,0,0,0,0,0,0,269.98,0,0,0,0,0,0,0,0,0,0,0,0,0,1,1,32.14,FLYING
32.34,APPROACH,FLY_TO_FIX,215.99,215,-0.99,2850.02,0.14,3.22,3.06,345.39,6.945,0.1827,19.626,341.27,0.75,0,0,0,0,0,0,0,0,269.98,0,0,0,0,0,0,0,0,0,0,0,0,0,1,1,32.38,FLYING
32.58,APPROACH,FLY_TO_FIX,216.39,215,-1.39,2850.33,-0.35,4.4,4.44,344.38,18.311,0.1569,19.3,340.35,0.749,0,0,0,0,0,0,0,0,269.98,0,0,0,0,0,0,0,0,0,0,0,0,0,1,1,32.62,FLYING
32.88,APPROACH,FLY_TO_FIX,216.71,215,-1.71,2850.71,-0.52,6.2,6.76,342.3,29.314,0.1323,18.792,339.19,0.747,0,0,0,0,0,0,0,0,269.98,0,0,0,0,0,0,0,0,0,0,0,0,0,1,1,32.92,FLYING
33.12,APPROACH,FLY_TO_FIX,216.78,215,-1.78,2850.97,-0.09,7.33,8.34,340.55,35.722,0.1225,18.365,338.26,0.745,0,0,0,0,0,0,0,0,269.98,0,0,0,0,0,0,0,0,0,0,0,0,0,1,1,33.16,FLYING
33.36,APPROACH,FLY_TO_FIX,216.67,215,-1.67,2851.2,0.45,7.97,9.31,339.09,40.577,0.1229,17.961,337.35,0.744,0,0,0,0,0,0,0,0,269.98,0,0,0,0,0,0,0,0,0,0,0,0,0,1,1,33.4,FLYING
33.6,APPROACH,FLY_TO_FIX,216.38,215,-1.38,2851.4,1.03,8.01,9.82,337.67,43.892,0.1338,17.622,336.45,0.743,0,0,0,0,0,0,0,0,269.98,0,0,0,0,0,0,0,0,0,0,0,0,0,1,1,33.64,FLYING
33.9,APPROACH,FLY_TO_FIX,215.89,215,-0.89,2851.65,1.3,7.6,9.98,336.2,45.717,0.1571,17.343,335.35,0.742,0,0,0,0,0,0,0,0,269.98,0,0,0,0,0,0,0,0,0,0,0,0,0,1,1,33.94,FLYING
34.14,APPROACH,FLY_TO_FIX,215.43,215,-0.43,2851.93,1.46,7.43,10.1,335.25,46.227,0.1807,17.23,334.49,0.741,0,0,0,0,0,0,0,0,269.98,0,0,0,0,0,0,0,0,0,0,0,0,0,1,1,34.18,FLYING
34.38,APPROACH,FLY_TO_FIX,214.95,215,0.05,2852.25,1.52,7.3,10.05,334.55,46.479,0.2073,17.232,333.65,0.739,0,0,0,0,0,0,0,0,269.98,0,0,0,0,0,0,0,0,0,0,0,0,0,1,1,34.42,FLYING
34.62,APPROACH,FLY_TO_FIX,214.45,215,0.55,2852.64,1.66,7.31,10.11,333.86,46.608,0.2362,17.354,332.83,0.737,0,0,0,0,0,0,0,0,269.98,0,0,0,0,0,0,0,0,0,0,0,0,0,1,1,34.66,FLYING
34.92,APPROACH,FLY_TO_FIX,213.83,215,1.17,2853.16,1.79,7.33,10.12,333.09,46.702,0.2746,17.694,331.83,0.735,0,0,0,0,0,0,0,0,269.98,0,0,0,0,0,0,0,0,0,0,0,0,0,1,1,34.96,FLYING
35.16,APPROACH,FLY_TO_FIX,213.33,215,1.67,2853.6,1.88,7.31,10.05,332.54,46.753,0.3067,18.085,331.05,0.733,0,0,0,0,0,0,0,0,269.98,0,0,0,0,0,0,0,0,0,0,0,0,0,1,1,35.2,FLYING
35.4,APPROACH,FLY_TO_FIX,212.84,215,2.16,2854.08,2,7.34,10.08,331.93,46.782,0.3396,18.594,330.28,0.73,0,0,0,0,0,0,0,0,269.98,0,0,0,0,0,0,0,0,0,0,0,0,0,1,1,35.44,FLYING
35.64,APPROACH,FLY_TO_FIX,212.37,215,2.63,2854.57,2.07,7.36,10.09,331.33,46.797,0.3729,19.214,329.54,0.728,0,0,0,0,0,0,0,0,269.98,0,0,0,0,0,0,0,0,0,0,0,0,0,1,1,35.68,FLYING
35.94,APPROACH,FLY_TO_FIX,211.82,215,3.18,2855.2,2.17,7.35,10.02,330.64,46.761,0.413,20,328.63,0.725,0,0,0,0,0,0,0,0,269.98,0,0,0,0,0,0,0,0,0,0,0,0,0,1,1,35.98,FLYING
36.18,APPROACH,FLY_TO_FIX,211.41,215,3.59,2855.73,2.2,7.37,10.03,330.05,46.762,0.4357,20,327.93,0.722,0,0,0,0,0,0,0,0,269.98,0,0,0,0,0,0,0,0,0,0,0,0,0,1,1,36.22,FLYING
36.42,APPROACH,FLY_TO_FIX,211.02,215,3.98,2856.28,2.28,7.4,10.05,329.44,46.765,0.457,20,327.24,0.719,0,0,0,0,0,0,0,0,269.98,0,0,0,0,0,0,0,0,0,0,0,0,0,1,1,36.46,FLYING
36.66,APPROACH,FLY_TO_FIX,210.68,215,4.32,2856.84,2.32,7.4,10.03,328.87,46.744,0.4763,20,326.57,0.717,0,0,0,0,0,0,0,0,269.98,0,0,0,0,0,0,0,0,0,0,0,0,0,1,1,36.7,FLYING
36.96,APPROACH,FLY_TO_FIX,210.29,215,4.71,2857.55,2.38,7.41,10.02,328.15,46.695,0.4979,20,325.76,0.713,0,0,0,0,0,0,0,0,269.98,0,0,0,0,0,0,0,0,0,0,0,0,0,1,1,37,FLYING
37.2,APPROACH,FLY_TO_FIX,210.02,215,4.98,2858.13,2.4,7.41,10,327.58,46.653,0.5129,20,325.14,0.71,0,0,0,0,0,0,0,0,269.98,0,0,0,0,0,0,0,0,0,0,0,0,0,1,1,37.24,FLYING
37.44,APPROACH,FLY_TO_FIX,209.77,215,5.23,2858.73,2.55,7.49,10.06,326.97,46.471,0.5265,20,324.52,0.707,0,0,0,0,0,0,0,0,269.98,0,0,0,0,0,0,0,0,0,0,0,0,0,1,1,37.48,FLYING
37.68,APPROACH,FLY_TO_FIX,209.57,215,5.43,2859.28,2.61,7.22,9.68,326.66,46.656,0.538,20,323.93,0.704,0,0,0,0,0,0,0,0,269.98,0,0,0,0,0,0,0,0,0,0,0,0,0,1,1,37.72,FLYING
37.98,APPROACH,FLY_TO_FIX,209.41,215,5.59,2860.04,2.38,7.26,9.78,325.84,46.887,0.547,20,323.22,0.701,0,0,0,0,0,0,0,0,269.98,0,0,0,0,0,0,0,0,0,0,0,0,0,1,1,38.02,FLYING
38.22,APPROACH,FLY_TO_FIX,209.28,215,5.72,2860.69,2.56,7.5,10.14,324.99,46.837,0.5539,20,322.66,0.697,0,0,0,0,0,0,0,0,269.98,0,0,0,0,0,0,0,0,0,0,0,0,0,1,1,38.26,FLYING
38.46,APPROACH,FLY_TO_FIX,209.19,215,5.81,2861.26,2.62,7.28,9.8,324.65,46.867,0.5595,20,322.12,0.694,0,0,0,0,0,0,0,0,269.98,0,0,0,0,0,0,0,0,0,0,0,0,0,1,1,38.5,FLYING
38.7,APPROACH,FLY_TO_FIX,209.17,215,5.83,2861.87,2.45,7.28,9.81,324.07,46.878,0.5608,20,321.61,0.691,0,0,0,0,0,0,0,0,269.98,0,0,0,0,0,0,0,0,0,0,0,0,0,1,1,38.74,FLYING
39,APPROACH,FLY_TO_FIX,209.17,215,5.83,2862.66,2.56,7.39,9.96,323.22,46.895,0.561,20,320.98,0.687,0,0,0,0,0,0,0,0,269.98,0,0,0,0,0,0,0,0,0,0,0,0,0,1,1,39.04,FLYING
39.24,APPROACH,FLY_TO_FIX,209.21,215,5.79,2863.28,2.62,7.41,9.99,322.6,46.953,0.5588,20,320.5,0.684,0,0,0,0,0,0,0,0,269.98,0,0,0,0,0,0,0,0,0,0,0,0,0,1,1,39.28,FLYING
39.48,APPROACH,FLY_TO_FIX,209.28,215,5.72,2863.91,2.64,7.41,9.98,322.01,47.023,0.555,20,320.04,0.681,0,0,0,0,0,0,0,0,269.98,0,0,0,0,0,0,0,0,0,0,0,0,0,1,1,39.52,FLYING
39.72,APPROACH,FLY_TO_FIX,209.38,215,5.62,2864.55,2.69,7.41,9.98,321.41,47.104,0.5495,20,319.6,0.678,0,0,0,0,0,0,0,0,269.98,0,0,0,0,0,0,0,0,0,0,0,0,0,1,1,39.76,FLYING
40.02,APPROACH,FLY_TO_FIX,209.55,215,5.45,2865.36,2.74,7.4,9.98,320.65,47.232,0.5407,20,319.07,0.674,0,0,0,0,0,0,0,0,269.98,0,0,0,0,0,0,0,0,0,0,0,0,0,1,1,40.06,FLYING
40.26,APPROACH,FLY_TO_FIX,209.7,215,5.3,2866.02,2.78,7.38,9.96,320.06,47.361,0.5321,20,318.66,0.671,0,0,0,0,0,0,0,0,269.98,0,0,0,0,0,0,0,0,0,0,0,0,0,1,1,40.3,FLYING
40.5,APPROACH,FLY_TO_FIX,209.88,215,5.12,2866.68,2.85,7.32,9.88,319.5,47.49,0.5223,20,318.28,0.667,0,0,0,0,0,0,0,0,269.98,0,0,0,0,0,0,0,0,0,0,0,0,0,1,1,40.54,FLYING
40.74,APPROACH,FLY_TO_FIX,210.09,215,4.91,2867.35,2.79,7.27,9.84,318.91,47.665,0.511,20,317.91,0.664,0,0,0,0,0,0,0,0,269.98,0,0,0,0,0,0,0,0,0,0,0,0,0,1,1,40.78,FLYING
41.04,APPROACH,FLY_TO_FIX,210.36,215,4.64,2868.21,2.87,7.33,9.96,318.05,47.865,0.496,20,317.48,0.66,0,0,0,0,0,0,0,0,269.98,0,0,0,0,0,0,0,0,0,0,0,0,0,1,1,41.08,FLYING
41.28,APPROACH,FLY_TO_FIX,210.6,215,4.4,2868.89,2.9,7.31,9.95,317.43,48.012,0.4831,20,317.15,0.656,0,0,0,0,0,0,0,0,269.98,0,0,0,0,0,0,0,0,0,0,0,0,0,1,1,41.32,FLYING
41.52,APPROACH,FLY_TO_FIX,210.85,215,4.15,2869.58,2.93,7.26,9.89,316.86,48.114,0.4697,20,316.84,0.653,0,0,0,0,0,0,0,0,269.98,0,0,0,0,0,0,0,0,0,0,0,0,0,1,1,41.56,FLYING
41.76,APPROACH,FLY_TO_FIX,211.11,215,3.89,2870.26,2.92,7.15,9.74,316.36,48.141,0.4554,20,316.56,0.65,0,0,0,0,0,0,0,0,269.98,0,0,0,0,0,0,0,0,0,0,0,0,0,1,1,41.8,FLYING
42.06,APPROACH,FLY_TO_FIX,211.46,215,3.54,2871.13,2.92,7.17,9.75,315.62,48.06,0.4362,20,316.22,0.645,0,0,0,0,0,0,0,0,269.98,0,0,0,0,0,0,0,0,0,0,0,0,0,1,1,42.1,FLYING
42.3,APPROACH,FLY_TO_FIX,211.74,215,3.26,2871.82,2.9,7.14,9.71,315.04,48.139,0.4207,20,315.98,0.642,0,0,0,0,0,0,0,0,269.98,0,0,0,0,0,0,0,0,0,0,0,0,0,1,1,42.34,FLYING
42.54,APPROACH,FLY_TO_FIX,212.02,215,2.98,2872.53,2.95,7.19,9.81,314.35,48.3,0.4053,20,315.75,0.638,0,0,0,0,0,0,0,0,269.98,0,0,0,0,0,0,0,0,0,0,0,0,0,1,1,42.58,FLYING
42.78,APPROACH,FLY_TO_FIX,212.29,215,2.71,2873.21,2.93,7.12,9.72,313.8,48.35,0.3903,20,315.54,0.635,0,0,0,0,0,0,0,0,269.98,0,0,0,0,0,0,0,0,0,0,0,0,0,1,1,42.82,FLYING
43.08,APPROACH,FLY_TO_FIX,212.63,215,2.37,2874.09,2.93,7.12,9.74,313.03,48.393,0.3718,20,315.31,0.63,0,0,0,0,0,0,0,0,269.98,0,0,0,0,0,0,0,0,0,0,0,0,0,1,1,43.12,FLYING
43.32,APPROACH,FLY_TO_FIX,212.88,215,2.12,2874.79,2.93,7.1,9.73,312.43,48.469,0.3577,20,315.15,0.627,0,0,0,0,0,0,0,0,269.98,0,0,0,0,0,0,0,0,0,0,0,0,0,1,1,43.36,FLYING
43.56,APPROACH,FLY_TO_FIX,213.12,215,1.88,2875.43,3.03,6.84,9.3,312.17,48.079,0.3447,20,315,0.624,0,0,0,0,0,0,0,0,269.98,0,0,0,0,0,0,0,0,0,0,0,0,0,1,1,43.6,FLYING
43.8,APPROACH,FLY_TO_FIX,213.39,215,1.61,2876.02,2.93,6.41,8.54,312.26,46.273,0.33,20,314.88,0.621,0,0,0,0,0,0,0,0,269.98,0,0,0,0,0,0,0,0,0,0,0,0,0,1,1,43.84,FLYING
44.1,APPROACH,FLY_TO_FIX,213.8,215,1.2,2876.76,2.57,6.14,7.77,312.49,41.743,0.3078,20,314.75,0.617,0,0,0,0,0,0,0,0,269.98,0,0,0,0,0,0,0,0,0,0,0,0,0,1,1,44.14,FLYING
44.34,APPROACH,FLY_TO_FIX,214.18,215,0.82,2877.37,2.48,6.17,7.43,312.58,38.307,0.2871,20,314.66,0.614,0,0,0,0,0,0,0,0,269.98,0,0,0,0,0,0,0,0,0,0,0,0,0,1,1,44.38,FLYING
44.58,APPROACH,FLY_TO_FIX,214.57,215,0.43,2877.94,2.47,6.13,7.05,312.75,34.906,0.2654,20,314.59,0.611,0,0,0,0,0,0,0,0,269.98,0,0,0,0,0,0,0,0,0,0,0,0,0,1,1,44.62,FLYING
44.82,APPROACH,FLY_TO_FIX,214.97,215,0.03,2878.5,2.41,6.04,6.65,312.96,31.538,0.2433,20,314.53,0.608,0,0,0,0,0,0,0,0,269.98,0,0,0,0,0,0,0,0,0,0,0,0,0,1,1,44.86,FLYING
45.12,APPROACH,FLY_TO_FIX,215.47,215,-0.47,2879.21,2.34,6.04,6.35,313.15,27.572,0.2144,19.869,314.48,0.605,0,0,0,0,0,0,0,0,269.98,0,0,0,0,0,0,0,0,0,0,0,0,0,1,1,45.16,FLYING
45.36,APPROACH,FLY_TO_FIX,215.85,215,-0.85,2879.78,2.4,6.05,6.18,313.28,24.628,0.1913,19.673,314.44,0.602,0,0,0,0,0,0,0,0,269.98,0,0,0,0,0,0,0,0,0,0,0,0,0,1,1,45.4,FLYING
45.6,APPROACH,FLY_TO_FIX,216.2,215,-1.2,2880.32,2.34,5.97,5.93,313.45,21.847,0.1683,19.392,314.42,0.599,0,0,0,0,0,0,0,0,269.98,0,0,0,0,0,0,0,0,0,0,0,0,0,1,1,45.64,FLYING
45.84,APPROACH,FLY_TO_FIX,216.5,215,-1.5,2880.93,2.34,6.18,6.04,313.48,19.26,0.1473,19.038,314.4,0.596,0,0,0,0,0,0,0,0,269.98,0,0,0,0,0,0,0,0,0,0,0,0,0,1,1,45.88,FLYING
46.14,APPROACH,FLY_TO_FIX,216.82,215,-1.82,2881.56,2.53,5.76,5.5,313.7,17.083,0.1228,18.497,314.38,0.593,0,0,0,0,0,0,0,0,269.98,0,0,0,0,0,0,0,0,0,0,0,0,0,1,1,46.18,FLYING
46.38,APPROACH,FLY_TO_FIX,217.05,215,-2.05,2882.09,2.24,5.62,5.3,313.82,14.607,0.1044,18.01,314.38,0.59,0,0,0,0,0,0,0,0,269.98,0,0,0,0,0,0,0,0,0,0,0,0,0,1,1,46.42,FLYING
46.62,APPROACH,FLY_TO_FIX,217.19,215,-2.19,2882.72,2.19,6.01,5.66,313.77,13.307,0.0899,17.487,314.38,0.587,0,0,0,0,0,0,0,0,269.98,0,0,0,0,0,0,0,0,0,0,0,0,0,1,1,46.66,FLYING
46.86,APPROACH,FLY_TO_FIX,217.3,215,-2.3,2883.26,2.35,5.98,5.58,313.84,11.196,0.077,16.936,314.38,0.584,0,0,0,0,0,0,0,0,269.98,0,0,0,0,0,0,0,0,0,0,0,0,0,1,1,46.9,FLYING
47.16,APPROACH,FLY_TO_FIX,217.36,215,-2.36,2883.97,2.35,6.03,5.59,313.9,9.451,0.0649,16.227,314.4,0.581,0,0,0,0,0,0,0,0,269.98,0,0,0,0,0,0,0,0,0,0,0,0,0,1,1,47.2,FLYING
47.4,APPROACH,FLY_TO_FIX,217.35,215,-2.35,2884.52,2.37,5.97,5.49,314.02,6.742,0.0584,15.662,314.41,0.578,0,0,0,0,0,0,0,0,269.98,0,0,0,0,0,0,0,0,0,0,0,0,0,1,1,47.44,FLYING
47.64,APPROACH,FLY_TO_FIX,217.3,215,-2.3,2885.1,2.36,6.02,5.51,314.18,4.974,0.0546,15.109,314.42,0.575,0,0,0,0,0,0,0,0,269.98,0,0,0,0,0,0,0,0,0,0,0,0,0,1,1,47.68,FLYING
47.88,APPROACH,FLY_TO_FIX,217.19,215,-2.19,2885.67,2.36,6.02,5.49,314.27,4.099,0.0537,14.58,314.44,0.572,0,0,0,0,0,0,0,0,269.98,0,0,0,0,0,0,0,0,0,0,0,0,0,1,1,47.92,FLYING
48.18,APPROACH,FLY_TO_FIX,216.99,215,-1.99,2886.41,2.44,6.11,5.57,314.34,3.116,0.0572,13.977,314.46,0.569,0,0,0,0,0,0,0,0,269.98,0,0,0,0,0,0,0,0,0,0,0,0,0,1,1,48.22,FLYING
48.42,APPROACH,FLY_TO_FIX,216.79,215,-1.79,2887,2.39,6.13,5.59,314.38,2.416,0.0631,13.544,314.48,0.566,0,0,0,0,0,0,0,0,269.98,0,0,0,0,0,0,0,0,0,0,0,0,0,1,1,48.46,FLYING
48.66,APPROACH,FLY_TO_FIX,216.54,215,-1.54,2887.6,2.45,6.18,5.62,314.42,1.826,0.0723,13.169,314.5,0.563,0,0,0,0,0,0,0,0,269.98,0,0,0,0,0,0,0,0,0,0,0,0,0,1,1,48.7,FLYING
48.9,APPROACH,FLY_TO_FIX,216.26,215,-1.26,2888.19,2.47,6.2,5.64,314.46,1.344,0.0839,12.862,314.53,0.56,0,0,0,0,0,0,0,0,269.98,0,0,0,0,0,0,0,0,0,0,0,0,0,1,1,48.94,FLYING
49.2,APPROACH,FLY_TO_FIX,215.86,215,-0.86,2888.95,2.49,6.24,5.67,314.49,0.886,0.1022,12.596,314.55,0.556,0,0,0,0,0,0,0,0,269.98,0,0,0,0,0,0,0,0,0,0,0,0,0,1,1,49.24,FLYING
49.44,APPROACH,FLY_TO_FIX,215.52,215,-0.52,2889.55,2.5,6.26,5.69,314.51,0.614,0.1192,12.463,314.58,0.553,0,0,0,0,0,0,0,0,269.98,0,0,0,0,0,0,0,0,0,0,0,0,0,1,1,49.48,FLYING
49.68,APPROACH,FLY_TO_FIX,215.17,215,-0.17,2890.16,2.52,6.29,5.71,314.53,0.413,0.1381,12.416,314.6,0.55,0,0,0,0,0,0,0,0,269.98,0,0,0,0,0,0,0,0,0,0,0,0,0,1,1,49.72,FLYING
49.92,APPROACH,FLY_TO_FIX,214.81,215,0.19,2890.78,2.54,6.32,5.73,314.54,0.256,0.1585,12.455,314.62,0.547,0,0,0,0,0,0,0,0,269.98,0,0,0,0,0,0,0,0,0,0,0,0,0,1,1,49.96,FLYING
50.22,APPROACH,FLY_TO_FIX,214.35,215,0.65,2891.55,2.56,6.34,5.76,314.55,0.093,0.1859,12.641,314.65,0.543,0,0,0,0,0,0,0,0,269.98,0,0,0,0,0,0,0,0,0,0,0,0,0,1,1,50.26,FLYING
50.46,APPROACH,FLY_TO_FIX,213.99,215,1.01,2892.17,2.58,6.36,5.77,314.57,-0.038,0.2086,12.878,314.67,0.54,0,0,0,0,0,0,0,0,269.98,0,0,0,0,0,0,0,0,0,0,0,0,0,1,1,50.5,FLYING
50.7,APPROACH,FLY_TO_FIX,213.63,215,1.37,2892.79,2.59,6.37,5.78,314.58,-0.172,0.2321,13.199,314.69,0.537,0,0,0,0,0,0,0,0,269.98,0,0,0,0,0,0,0,0,0,0,0,0,0,1,1,50.74,FLYING
50.94,APPROACH,FLY_TO_FIX,213.29,215,1.71,2893.42,2.6,6.39,5.79,314.59,-0.31,0.2559,13.604,314.72,0.534,0,0,0,0,0,0,0,0,269.98,0,0,0,0,0,0,0,0,0,0,0,0,0,1,1,50.98,FLYING
51.24,APPROACH,FLY_TO_FIX,212.88,215,2.12,2894.2,2.61,6.41,5.81,314.62,-0.482,0.286,14.232,314.74,0.53,0,0,0,0,0,0,0,0,269.98,0,0,0,0,0,0,0,0,0,0,0,0,0,1,1,51.28,FLYING
51.48,APPROACH,FLY_TO_FIX,212.57,215,2.43,2894.83,2.63,6.42,5.82,314.64,-0.634,0.3099,14.809,314.77,0.527,0,0,0,0,0,0,0,0,269.98,0,0,0,0,0,0,0,0,0,0,0,0,0,1,1,51.52,FLYING
51.72,APPROACH,FLY_TO_FIX,212.29,215,2.71,2895.44,2.56,6.37,5.76,314.66,-0.791,0.3333,15.454,314.79,0.524,0,0,0,0,0,0,0,0,269.98,0,0,0,0,0,0,0,0,0,0,0,0,0,1,1,51.76,FLYING
51.96,APPROACH,FLY_TO_FIX,212.02,215,2.98,2896.08,2.63,6.43,5.83,314.68,-0.943,0.3569,16.165,314.81,0.52,0,0,0,0,0,0,0,0,269.98,0,0,0,0,0,0,0,0,0,0,0,0,0,1,1,52,FLYING
52.26,APPROACH,FLY_TO_FIX,211.73,215,3.27,2896.86,2.59,6.43,5.83,314.71,-1.123,0.3844,17.14,314.84,0.516,0,0,0,0,0,0,0,0,269.98,0,0,0,0,0,0,0,0,0,0,0,0,0,1,1,52.3,FLYING
52.5,APPROACH,FLY_TO_FIX,211.54,215,3.46,2897.48,2.58,6.4,5.8,314.74,-1.273,0.4052,17.967,314.86,0.513,0,0,0,0,0,0,0,0,269.98,0,0,0,0,0,0,0,0,0,0,0,0,0,1,1,52.54,FLYING
52.74,APPROACH,FLY_TO_FIX,211.37,215,3.63,2898.1,2.62,6.42,5.83,314.76,-1.418,0.4248,18.834,314.88,0.51,0,0,0,0,0,0,0,0,269.98,0,0,0,0,0,0,0,0,0,0,0,0,0,1,1,52.78,FLYING
52.98,APPROACH,FLY_TO_FIX,211.25,215,3.75,2898.72,2.54,6.39,5.79,314.79,-1.554,0.4424,19.732,314.9,0.507,0,0,0,0,0,0,0,0,269.98,0,0,0,0,0,0,0,0,0,0,0,0,0,1,1,53.02,FLYING
53.28,APPROACH,FLY_TO_FIX,211.14,215,3.86,2899.5,2.56,6.44,5.84,314.82,-1.68,0.452,20,314.93,0.503,0,0,0,0,0,0,0,0,269.98,0,0,0,0,0,0,0,0,0,0,0,0,0,1,1,53.32,FLYING
53.52,APPROACH,FLY_TO_FIX,211.1,215,3.9,2900.09,2.62,6.31,5.71,314.85,-1.787,0.4544,20,314.95,0.5,0,0,0,0,0,0,0,0,269.98,0,0,0,0,0,0,0,0,0,0,0,0,0,1,1,53.56,FLYING
53.76,APPROACH,FLY_TO_FIX,211.09,215,3.91,2900.72,2.62,6.33,5.74,314.87,-1.866,0.4551,20,314.97,0.497,0,0,0,0,0,0,0,0,269.98,0,0,0,0,0,0,0,0,0,0,0,0,0,1,1,53.8,FLYING
54,APPROACH,FLY_TO_FIX,211.13,215,3.87,2901.29,2.55,6.14,5.55,314.89,-1.947,0.4532,20,314.98,0.494,0,0,0,0,0,0,0,0,269.98,0,0,0,0,0,0,0,0,0,0,0,0,0,1,1,54.04,FLYING
54.3,APPROACH,FLY_TO_FIX,211.21,215,3.79,2902.08,2.49,6.31,5.74,314.92,-1.974,0.449,20,315.01,0.49,0,0,0,0,0,0,0,0,269.98,0,0,0,0,0,0,0,0,0,0,0,0,0,1,1,54.34,FLYING
54.54,APPROACH,FLY_TO_FIX,211.32,215,3.68,2902.68,2.5,6.34,5.77,314.95,-2.015,0.4428,20,315.02,0.487,0,0,0,0,0,0,0,0,269.98,0,0,0,0,0,0,0,0,0,0,0,0,0,1,1,54.58,FLYING
54.78,APPROACH,FLY_TO_FIX,211.46,215,3.54,2903.28,2.49,6.36,5.79,314.97,-2.04,0.4353,20,315.04,0.484,0,0,0,0,0,0,0,0,269.98,0,0,0,0,0,0,0,0,0,0,0,0,0,1,1,54.82,FLYING
55.02,APPROACH,FLY_TO_FIX,211.63,215,3.37,2903.85,2.48,6.23,5.65,314.98,-2.054,0.4262,20,315.06,0.481,0,0,0,0,0,0,0,0,269.98,0,0,0,0,0,0,0,0,0,0,0,0,0,1,1,55.06,FLYING
55.32,APPROACH,FLY_TO_FIX,211.82,215,3.18,2904.71,2.21,6.78,6.2,315.02,-2.013,0.4153,20,315.07,0.477,0,0,0,0,0,0,0,0,269.98,0,0,0,0,0,0,0,0,0,0,0,0,0,1,1,55.36,FLYING
55.56,APPROACH,FLY_TO_FIX,211.96,215,3.04,2905.4,2.9,7.08,6.46,315.05,-2,0.408,20,315.09,0.474,0,0,0,0,0,0,0,0,269.98,0,0,0,0,0,0,0,0,0,0,0,0,0,1,1,55.6,FLYING
55.8,APPROACH,FLY_TO_FIX,212.12,215,2.88,2905.93,3.08,6.35,5.7,315.05,-2.109,0.3995,20,315.1,0.471,0,0,0,0,0,0,0,0,269.98,0,0,0,0,0,0,0,0,0,0,0,0,0,1,1,55.84,FLYING
56.04,APPROACH,FLY_TO_FIX,212.36,215,2.64,2906.51,2.78,5.92,5.29,315.06,-2.136,0.3865,20,315.12,0.468,0,0,0,0,0,0,0,0,269.98,0,0,0,0,0,0,0,0,0,0,0,0,0,1,1,56.08,FLYING
56.34,APPROACH,FLY_TO_FIX,212.65,215,2.35,2907.39,2.72,6.26,5.64,315.09,-2.015,0.3706,20,315.13,0.464,0,0,0,0,0,0,0,0,269.98,0,0,0,0,0,0,0,0,0,0,0,0,0,1,1,56.38,FLYING
56.58,APPROACH,FLY_TO_FIX,212.94,215,2.06,2908.01,2.73,6.08,5.46,315.09,-1.967,0.3549,20,315.14,0.461,0,0,0,0,0,0,0,0,269.98,0,0,0,0,0,0,0,0,0,0,0,0,0,1,1,56.62,FLYING
56.82,APPROACH,FLY_TO_FIX,213.23,215,1.77,2908.66,2.62,6.14,5.53,315.11,-1.889,0.3386,20,315.16,0.458,0,0,0,0,0,0,0,0,269.98,0,0,0,0,0,0,0,0,0,0,0,0,0,1,1,56.86,FLYING
57.06,APPROACH,FLY_TO_FIX,213.54,215,1.46,2909.29,2.66,6.15,5.55,315.12,-1.818,0.3218,20,315.17,0.454,0,0,0,0,0,0,0,0,269.98,0,0,0,0,0,0,0,0,0,0,0,0,0,1,1,57.1,FLYING
57.36,APPROACH,FLY_TO_FIX,213.93,215,1.07,2910.08,2.64,6.13,5.53,315.13,-1.726,0.3003,20,315.18,0.45,0,0,0,0,0,0,0,0,269.98,0,0,0,0,0,0,0,0,0,0,0,0,0,1,1,57.4,FLYING
57.6,APPROACH,FLY_TO_FIX,214.24,215,0.76,2910.7,2.63,6.11,5.52,315.14,-1.66,0.2833,20,315.19,0.447,0,0,0,0,0,0,0,0,269.98,0,0,0,0,0,0,0,0,0,0,0,0,0,1,1,57.64,FLYING
57.84,APPROACH,FLY_TO_FIX,214.54,215,0.46,2911.31,2.56,6.08,5.49,315.14,-1.602,0.2666,20,315.2,0.444,0,0,0,0,0,0,0,0,269.98,0,0,0,0,0,0,0,0,0,0,0,0,0,1,1,57.88,FLYING
58.08,APPROACH,FLY_TO_FIX,214.83,215,0.17,2911.93,2.59,6.08,5.49,315.15,-1.535,0.2507,20,315.21,0.441,0,0,0,0,0,0,0,0,269.98,0,0,0,0,0,0,0,0,0,0,0,0,0,1,1,58.12,FLYING
58.38,APPROACH,FLY_TO_FIX,215.17,215,-0.17,2912.7,2.58,6.06,5.48,315.16,-1.452,0.2312,19.955,315.22,0.437,0,0,0,0,0,0,0,0,269.98,0,0,0,0,0,0,0,0,0,0,0,0,0,1,1,58.42,FLYING
58.62,APPROACH,FLY_TO_FIX,215.42,215,-0.42,2913.31,2.56,6.04,5.47,315.17,-1.401,0.2162,19.859,315.22,0.434,0,0,0,0,0,0,0,0,269.98,0,0,0,0,0,0,0,0,0,0,0,0,0,1,1,58.66,FLYING
58.86,APPROACH,FLY_TO_FIX,215.65,215,-0.65,2913.91,2.55,6.03,5.46,315.18,-1.353,0.2016,19.706,315.23,0.431,0,0,0,0,0,0,0,0,269.98,0,0,0,0,0,0,0,0,0,0,0,0,0,1,1,58.9,FLYING
59.1,APPROACH,FLY_TO_FIX,215.86,215,-0.86,2914.52,2.53,6.03,5.46,315.18,-1.301,0.1877,19.504,315.24,0.428,0,0,0,0,0,0,0,0,269.98,0,0,0,0,0,0,0,0,0,0,0,0,0,1,1,59.14,FLYING
59.4,APPROACH,FLY_TO_FIX,216.08,215,-1.08,2915.27,2.53,6.02,5.45,315.19,-1.231,0.1717,19.185,315.25,0.424,0,0,0,0,0,0,0,0,269.98,0,0,0,0,0,0,0,0,0,0,0,0,0,1,1,59.44,FLYING
59.64,APPROACH,FLY_TO_FIX,216.22,215,-1.22,2915.87,2.51,6.02,5.45,315.2,-1.181,0.1604,18.895,315.25,0.421,0,0,0,0,0,0,0,0,269.98,0,0,0,0,0,0,0,0,0,0,0,0,0,1,1,59.68,FLYING
59.88,APPROACH,FLY_TO_FIX,216.32,215,-1.32,2916.47,2.49,6.02,5.46,315.2,-1.132,0.1505,18.579,315.26,0.418,0,0,0,0,0,0,0,0,269.98,0,0,0,0,0,0,0,0,0,0,0,0,0,1,1,59.92,FLYING
60.12,APPROACH,FLY_TO_FIX,216.4,215,-1.4,2917.06,2.45,6.02,5.46,315.21,-1.086,0.1425,18.245,315.26,0.415,0,0,0,0,0,0,0,0,269.98,0,0,0,0,0,0,0,0,0,0,0,0,0,1,1,60.16,FLYING
60.42,APPROACH,FLY_TO_FIX,216.44,215,-1.44,2917.8,2.47,6.03,5.47,315.21,-1.024,0.1347,17.814,315.27,0.412,0,0,0,0,0,0,0,0,269.98,0,0,0,0,0,0,0,0,0,0,0,0,0,1,1,60.46,FLYING
60.66,APPROACH,FLY_TO_FIX,216.44,215,-1.44,2918.39,2.46,6.03,5.47,315.22,-0.982,0.1303,17.468,315.27,0.409,0,0,0,0,0,0,0,0,269.98,0,0,0,0,0,0,0,0,0,0,0,0,0,1,1,60.7,FLYING
60.9,APPROACH,FLY_TO_FIX,216.41,215,-1.41,2918.97,2.45,6.03,5.48,315.22,-0.943,0.1278,17.129,315.28,0.406,0,0,0,0,0,0,0,0,269.98,0,0,0,0,0,0,0,0,0,0,0,0,0,1,1,60.94,FLYING
61.14,APPROACH,FLY_TO_FIX,216.35,215,-1.35,2919.56,2.43,6.03,5.48,315.23,-0.908,0.1272,16.804,315.28,0.403,0,0,0,0,0,0,0,0,269.98,0,0,0,0,0,0,0,0,0,0,0,0,0,1,1,61.18,FLYING
61.44,APPROACH,FLY_TO_FIX,216.23,215,-1.23,2920.29,2.42,6.05,5.5,315.23,-0.86,0.1291,16.432,315.28,0.399,0,0,0,0,0,0,0,0,269.98,0,0,0,0,0,0,0,0,0,0,0,0,0,1,1,61.48,FLYING
61.68,APPROACH,FLY_TO_FIX,216.11,215,-1.11,2920.87,2.41,6.06,5.51,315.24,-0.825,0.1326,16.164,315.29,0.396,0,0,0,0,0,0,0,0,269.98,0,0,0,0,0,0,0,0,0,0,0,0,0,1,1,61.72,FLYING
61.92,APPROACH,FLY_TO_FIX,215.96,215,-0.96,2921.44,2.4,6.07,5.52,315.24,-0.79,0.1378,15.931,315.29,0.394,0,0,0,0,0,0,0,0,269.98,0,0,0,0,0,0,0,0,0,0,0,0,0,1,1,61.96,FLYING
62.16,APPROACH,FLY_TO_FIX,215.79,215,-0.79,2922.02,2.38,6.08,5.54,315.25,-0.757,0.1447,15.739,315.29,0.391,0,0,0,0,0,0,0,0,269.98,0,0,0,0,0,0,0,0,0,0,0,0,0,1,1,62.2,FLYING
62.46,APPROACH,FLY_TO_FIX,215.55,215,-0.55,2922.73,2.37,6.1,5.56,315.25,-0.717,0.1556,15.568,315.3,0.387,0,0,0,0,0,0,0,0,269.98,0,0,0,0,0,0,0,0,0,0,0,0,0,1,1,62.5,FLYING
62.7,APPROACH,FLY_TO_FIX,215.35,215,-0.35,2923.3,2.36,6.11,5.57,315.25,-0.686,0.1656,15.48,315.3,0.384,0,0,0,0,0,0,0,0,269.98,0,0,0,0,0,0,0,0,0,0,0,0,0,1,1,62.74,FLYING
62.94,APPROACH,FLY_TO_FIX,215.14,215,-0.14,2923.87,2.35,6.12,5.58,315.26,-0.655,0.1769,15.444,315.3,0.381,0,0,0,0,0,0,0,0,269.98,0,0,0,0,0,0,0,0,0,0,0,0,0,1,1,62.98,FLYING
63.18,APPROACH,FLY_TO_FIX,214.92,215,0.08,2924.43,2.34,6.13,5.6,315.26,-0.627,0.189,15.459,315.3,0.379,0,0,0,0,0,0,0,0,269.98,0,0,0,0,0,0,0,0,0,0,0,0,0,1,1,63.22,FLYING
63.48,APPROACH,FLY_TO_FIX,214.64,215,0.36,2925.13,2.33,6.15,5.62,315.26,-0.591,0.2054,15.561,315.3,0.375,0,0,0,0,0,0,0,0,269.98,0,0,0,0,0,0,0,0,0,0,0,0,0,1,1,63.52,FLYING
63.72,APPROACH,FLY_TO_FIX,214.42,215,0.58,2925.69,2.31,6.15,5.62,315.27,-0.565,0.2191,15.695,315.3,0.372,0,0,0,0,0,0,0,0,269.98,0,0,0,0,0,0,0,0,0,0,0,0,0,1,1,63.76,FLYING
63.96,APPROACH,FLY_TO_FIX,214.21,215,0.79,2926.24,2.3,6.16,5.64,315.27,-0.54,0.2331,15.881,315.31,0.369,0,0,0,0,0,0,0,0,269.98,0,0,0,0,0,0,0,0,0,0,0,0,0,1,1,64,FLYING
64.2,APPROACH,FLY_TO_FIX,214,215,1,2926.79,2.3,6.17,5.65,315.27,-0.516,0.2474,16.116,315.31,0.367,0,0,0,0,0,0,0,0,269.98,0,0,0,0,0,0,0,0,0,0,0,0,0,1,1,64.24,FLYING
64.5,APPROACH,FLY_TO_FIX,213.75,215,1.25,2927.48,2.28,6.19,5.66,315.27,-0.488,0.2656,16.486,315.31,0.363,0,0,0,0,0,0,0,0,269.98,0,0,0,0,0,0,0,0,0,0,0,0,0,1,1,64.54,FLYING
64.74,APPROACH,FLY_TO_FIX,213.57,215,1.43,2928.02,2.27,6.19,5.67,315.28,-0.465,0.28,16.826,315.31,0.361,0,0,0,0,0,0,0,0,269.98,0,0,0,0,0,0,0,0,0,0,0,0,0,1,1,64.78,FLYING
64.98,APPROACH,FLY_TO_FIX,213.39,215,1.61,2928.57,2.26,6.2,5.68,315.28,-0.442,0.2942,17.209,315.31,0.358,0,0,0,0,0,0,0,0,269.98,0,0,0,0,0,0,0,0,0,0,0,0,0,1,1,65.02,FLYING
65.22,APPROACH,FLY_TO_FIX,213.23,215,1.77,2929.11,2.25,6.2,5.69,315.28,-0.422,0.308,17.63,315.31,0.355,0,0,0,0,0,0,0,0,269.98,0,0,0,0,0,0,0,0,0,0,0,0,0,1,1,65.26,FLYING
65.52,APPROACH,FLY_TO_FIX,213.06,215,1.94,2929.78,2.24,6.21,5.7,315.28,-0.397,0.3248,18.21,315.31,0.352,0,0,0,0,0,0,0,0,269.98,0,0,0,0,0,0,0,0,0,0,0,0,0,1,1,65.56,FLYING
65.76,APPROACH,FLY_TO_FIX,212.94,215,2.06,2930.31,2.23,6.21,5.7,315.28,-0.379,0.3374,18.702,315.31,0.349,0,0,0,0,0,0,0,0,269.98,0,0,0,0,0,0,0,0,0,0,0,0,0,1,1,65.8,FLYING
66,APPROACH,FLY_TO_FIX,212.84,215,2.16,2930.85,2.22,6.21,5.7,315.28,-0.362,0.3492,19.22,315.31,0.346,0,0,0,0,0,0,0,0,269.98,0,0,0,0,0,0,0,0,0,0,0,0,0,1,1,66.04,FLYING
66.24,APPROACH,FLY_TO_FIX,212.76,215,2.24,2931.38,2.21,6.21,5.7,315.28,-0.344,0.36,19.756,315.31,0.344,0,0,0,0,0,0,0,0,269.98,0,0,0,0,0,0,0,0,0,0,0,0,0,1,1,66.28,FLYING
66.54,APPROACH,FLY_TO_FIX,212.69,215,2.31,2932.03,2.21,6.21,5.7,315.29,-0.322,0.3667,20,315.31,0.34,0,0,0,0,0,0,0,0,269.98,0,0,0,0,0,0,0,0,0,0,0,0,0,1,1,66.58,FLYING
66.78,APPROACH,FLY_TO_FIX,212.67,215,2.33,2932.56,2.2,6.2,5.7,315.29,-0.305,0.3683,20,315.31,0.338,0,0,0,0,0,0,0,0,269.98,0,0,0,0,0,0,0,0,0,0,0,0,0,1,1,66.82,FLYING
67.02,APPROACH,FLY_TO_FIX,212.66,215,2.34,2933.08,2.19,6.19,5.69,315.29,-0.288,0.3687,20,315.31,0.335,0,0,0,0,0,0,0,0,269.98,0,0,0,0,0,0,0,0,0,0,0,0,0,1,1,67.06,FLYING
67.26,APPROACH,FLY_TO_FIX,212.68,215,2.32,2933.6,2.18,6.18,5.68,315.29,-0.273,0.3678,20,315.31,0.333,0,0,0,0,0,0,0,0,269.98,0,0,0,0,0,0,0,0,0,0,0,0,0,1,1,67.3,FLYING
67.56,APPROACH,FLY_TO_FIX,212.73,215,2.27,2934.24,2.18,6.17,5.67,315.29,-0.253,0.3651,20,315.31,0.329,0,0,0,0,0,0,0,0,269.98,0,0,0,0,0,0,0,0,0,0,0,0,0,1,1,67.6,FLYING
67.8,APPROACH,FLY_TO_FIX,212.79,215,2.21,2934.76,2.17,6.16,5.67,315.29,-0.238,0.3617,20,315.3,0.327,0,0,0,0,0,0,0,0,269.98,0,0,0,0,0,0,0,0,0,0,0,0,0,1,1,67.84,FLYING
68.04,APPROACH,FLY_TO_FIX,212.87,215,2.13,2935.27,2.16,6.15,5.66,315.29,-0.223,0.3573,20,315.3,0.324,0,0,0,0,0,0,0,0,269.98,0,0,0,0,0,0,0,0,0,0,0,0,0,1,1,68.08,FLYING
68.28,APPROACH,FLY_TO_FIX,212.97,215,2.03,2935.78,2.16,6.14,5.65,315.29,-0.209,0.352,20,315.3,0.322,0,0,0,0,0,0,0,0,269.98,0,0,0,0,0,0,0,0,0,0,0,0,0,1,1,68.32,FLYING
68.58,APPROACH,FLY_TO_FIX,213.12,215,1.88,2936.42,2.14,6.12,5.64,315.29,-0.191,0.3442,20,315.3,0.319,0,0,0,0,0,0,0,0,269.98,0,0,0,0,0,0,0,0,0,0,0,0,0,1,1,68.62,FLYING
68.82,APPROACH,FLY_TO_FIX,213.25,215,1.75,2936.92,2.13,6.11,5.62,315.29,-0.177,0.337,20,315.3,0.316,0,0,0,0,0,0,0,0,269.98,0,0,0,0,0,0,0,0,0,0,0,0,0,1,1,68.86,FLYING
69.06,APPROACH,FLY_TO_FIX,213.39,215,1.61,2937.43,2.13,6.1,5.61,315.29,-0.163,0.3291,20,315.3,0.313,0,0,0,0,0,0,0,0,269.98,0,0,0,0,0,0,0,0,0,0,0,0,0,1,1,69.1,FLYING
69.3,APPROACH,FLY_TO_FIX,213.55,215,1.45,2937.93,2.12,6.08,5.6,315.29,-0.15,0.3206,20,315.3,0.311,0,0,0,0,0,0,0,0,269.98,0,0,0,0,0,0,0,0,0,0,0,0,0,1,1,69.34,FLYING
69.6,APPROACH,FLY_TO_FIX,213.75,215,1.25,2938.55,2.11,6.06,5.59,315.29,-0.135,0.3094,20,315.3,0.308,0,0,0,0,0,0,0,0,269.98,0,0,0,0,0,0,0,0,0,0,0,0,0,1,1,69.64,FLYING
69.84,APPROACH,FLY_TO_FIX,213.92,215,1.08,2939.05,2.1,6.05,5.57,315.29,-0.124,0.3,20,315.29,0.305,0,0,0,0,0,0,0,0,269.98,0,0,0,0,0,0,0,0,0,0,0,0,0,1,1,69.88,FLYING
70.08,APPROACH,FLY_TO_FIX,214.1,215,0.9,2939.54,2.09,6.03,5.56,315.29,-0.112,0.2904,20,315.29,0.303,0,0,0,0,0,0,0,0,269.98,0,0,0,0,0,0,0,0,0,0,0,0,0,1,1,70.12,FLYING
70.32,APPROACH,FLY_TO_FIX,214.28,215,0.72,2940.04,2.08,6.02,5.55,315.29,-0.101,0.2806,20,315.29,0.3,0,0,0,0,0,0,0,0,269.98,0,0,0,0,0,0,0,0,0,0,0,0,0,1,1,70.36,FLYING
70.62,APPROACH,FLY_TO_FIX,214.5,215,0.5,2940.65,2.07,6.01,5.54,315.29,-0.088,0.2683,20,315.29,0.297,0,0,0,0,0,0,0,0,269.98,0,0,0,0,0,0,0,0,0,0,0,0,0,1,1,70.66,FLYING
70.86,APPROACH,FLY_TO_FIX,214.68,215,0.32,2941.14,2.05,5.99,5.53,315.29,-0.077,0.2586,20,315.29,0.295,0,0,0,0,0,0,0,0,269.98,0,0,0,0,0,0,0,0,0,0,0,0,0,1,1,70.9,FLYING
71.1,APPROACH,FLY_TO_FIX,214.85,215,0.15,2941.62,2.05,5.99,5.52,315.29,-0.066,0.249,20,315.29,0.292,0,0,0,0,0,0,0,0,269.98,0,0,0,0,0,0,0,0,0,0,0,0,0,1,1,71.14,FLYING
71.34,APPROACH,FLY_TO_FIX,215.01,215,-0.01,2942.11,2.05,5.98,5.51,315.29,-0.056,0.2399,20,315.29,0.29,0,0,0,0,0,0,0,0,269.98,0,0,0,0,0,0,0,0,0,0,0,0,0,1,1,71.38,FLYING
71.64,APPROACH,FLY_TO_FIX,215.2,215,-0.2,2942.71,2.03,5.96,5.51,315.29,-0.046,0.2288,19.942,315.28,0.287,0,0,0,0,0,0,0,0,269.98,0,0,0,0,0,0,0,0,0,0,0,0,0,1,1,71.68,FLYING
71.88,APPROACH,FLY_TO_FIX,215.34,215,-0.34,2943.19,2.03,5.96,5.5,315.28,-0.037,0.2202,19.863,315.28,0.285,0,0,0,0,0,0,0,0,269.98,0,0,0,0,0,0,0,0,0,0,0,0,0,1,1,71.92,FLYING
72.12,APPROACH,FLY_TO_FIX,215.46,215,-0.46,2943.67,2.01,5.95,5.5,315.28,-0.028,0.212,19.754,315.28,0.282,0,0,0,0,0,0,0,0,269.98,0,0,0,0,0,0,0,0,0,0,0,0,0,1,1,72.16,FLYING
72.36,APPROACH,FLY_TO_FIX,215.57,215,-0.57,2944.15,2,5.94,5.49,315.28,-0.021,0.2044,19.618,315.28,0.28,0,0,0,0,0,0,0,0,269.98,0,0,0,0,0,0,0,0,0,0,0,0,0,1,1,72.4,FLYING
72.66,APPROACH,FLY_TO_FIX,215.68,215,-0.68,2944.74,1.99,5.94,5.49,315.28,-0.012,0.1957,19.415,315.28,0.277,0,0,0,0,0,0,0,0,269.98,0,0,0,0,0,0,0,0,0,0,0,0,0,1,1,72.7,FLYING
72.9,APPROACH,FLY_TO_FIX,215.75,215,-0.75,2945.21,1.98,5.93,5.49,315.28,-0.003,0.1897,19.235,315.28,0.275,0,0,0,0,0,0,0,0,269.98,0,0,0,0,0,0,0,0,0,0,0,0,0,1,1,72.94,FLYING
73.14,APPROACH,FLY_TO_FIX,215.8,215,-0.8,2945.68,1.98,5.93,5.49,315.28,0.004,0.1846,19.043,315.27,0.272,0,0,0,0,0,0,0,0,269.98,0,0,0,0,0,0,0,0,0,0,0,0,0,1,1,73.18,FLYING
73.38,APPROACH,FLY_TO_FIX,215.83,215,-0.83,2946.15,1.96,5.93,5.49,315.28,0.009,0.1804,18.844,315.27,0.27,0,0,0,0,0,0,0,0,269.98,0,0,0,0,0,0,0,0,0,0,0,0,0,1,1,73.42,FLYING
73.68,APPROACH,FLY_TO_FIX,215.84,215,-0.84,2946.73,1.94,5.93,5.5,315.28,0.017,0.1766,18.591,315.27,0.267,0,0,0,0,0,0,0,0,269.98,0,0,0,0,0,0,0,0,0,0,0,0,0,1,1,73.72,FLYING
73.92,APPROACH,FLY_TO_FIX,215.84,215,-0.84,2947.19,1.93,5.94,5.5,315.28,0.025,0.1746,18.39,315.27,0.265,0,0,0,0,0,0,0,0,269.98,0,0,0,0,0,0,0,0,0,0,0,0,0,1,1,73.96,FLYING
74.16,APPROACH,FLY_TO_FIX,215.81,215,-0.81,2947.65,1.92,5.94,5.5,315.28,0.029,0.1737,18.195,315.27,0.262,0,0,0,0,0,0,0,0,269.98,0,0,0,0,0,0,0,0,0,0,0,0,0,1,1,74.2,FLYING
74.4,APPROACH,FLY_TO_FIX,215.76,215,-0.76,2948.1,1.91,5.94,5.51,315.27,0.035,0.1739,18.011,315.27,0.26,0,0,0,0,0,0,0,0,269.98,0,0,0,0,0,0,0,0,0,0,0,0,0,1,1,74.44,FLYING
74.7,APPROACH,FLY_TO_FIX,215.68,215,-0.68,2948.67,1.89,5.95,5.52,315.27,0.039,0.1757,17.804,315.27,0.257,0,0,0,0,0,0,0,0,269.98,0,0,0,0,0,0,0,0,0,0,0,0,0,1,1,74.74,FLYING
74.94,APPROACH,FLY_TO_FIX,215.6,215,-0.6,2949.12,1.88,5.95,5.53,315.27,0.043,0.1783,17.657,315.26,0.255,0,0,0,0,0,0,0,0,269.98,0,0,0,0,0,0,0,0,0,0,0,0,0,1,1,74.98,FLYING
75.18,APPROACH,FLY_TO_FIX,215.51,215,-0.51,2949.57,1.87,5.96,5.53,315.27,0.047,0.1818,17.532,315.26,0.253,0,0,0,0,0,0,0,0,269.98,0,0,0,0,0,0,0,0,0,0,0,0,0,1,1,75.22,FLYING
75.42,APPROACH,FLY_TO_FIX,215.41,215,-0.41,2950.02,1.86,5.96,5.54,315.27,0.052,0.1861,17.432,315.26,0.25,0,0,0,0,0,0,0,0,269.98,0,0,0,0,0,0,0,0,0,0,0,0,0,1,1,75.46,FLYING
75.72,APPROACH,FLY_TO_FIX,215.27,215,-0.27,2950.57,1.85,5.97,5.55,315.27,0.057,0.1928,17.348,315.26,0.248,0,0,0,0,0,0,0,0,269.98,0,0,0,0,0,0,0,0,0,0,0,0,0,1,1,75.76,FLYING
75.96,APPROACH,FLY_TO_FIX,215.15,215,-0.15,2951.02,1.83,5.97,5.56,315.27,0.06,0.1989,17.31,315.26,0.245,0,0,0,0,0,0,0,0,269.98,0,0,0,0,0,0,0,0,0,0,0,0,0,1,1,76,FLYING
76.2,APPROACH,FLY_TO_FIX,215.02,215,-0.02,2951.45,1.83,5.98,5.57,315.27,0.063,0.2057,17.301,315.26,0.243,0,0,0,0,0,0,0,0,269.98,0,0,0,0,0,0,0,0,0,0,0,0,0,1,1,76.24,FLYING
76.44,APPROACH,FLY_TO_FIX,214.9,215,0.1,2951.89,1.81,5.98,5.57,315.26,0.066,0.2129,17.323,315.26,0.241,0,0,0,0,0,0,0,0,269.98,0,0,0,0,0,0,0,0,0,0,0,0,0,1,1,76.48,FLYING
76.74,APPROACH,FLY_TO_FIX,214.74,215,0.26,2952.43,1.8,6,5.59,315.26,0.07,0.2226,17.398,315.25,0.238,0,0,0,0,0,0,0,0,269.98,0,0,0,0,0,0,0,0,0,0,0,0,0,1,1,76.78,FLYING
76.98,APPROACH,FLY_TO_FIX,214.61,215,0.39,2952.86,1.79,6,5.59,315.26,0.071,0.2305,17.488,315.25,0.236,0,0,0,0,0,0,0,0,269.98,0,0,0,0,0,0,0,0,0,0,0,0,0,1,1,77.02,FLYING
77.22,APPROACH,FLY_TO_FIX,214.49,215,0.51,2953.29,1.78,6.01,5.6,315.26,0.073,0.2387,17.608,315.25,0.234,0,0,0,0,0,0,0,0,269.98,0,0,0,0,0,0,0,0,0,0,0,0,0,1,1,77.26,FLYING
77.46,APPROACH,FLY_TO_FIX,214.37,215,0.63,2953.71,1.76,6.01,5.6,315.26,0.074,0.2469,17.756,315.25,0.232,0,0,0,0,0,0,0,0,269.98,0,0,0,0,0,0,0,0,0,0,0,0,0,1,1,77.5,FLYING
77.76,APPROACH,FLY_TO_FIX,214.23,215,0.77,2954.24,1.75,6.01,5.61,315.26,0.077,0.2574,17.983,315.25,0.229,0,0,0,0,0,0,0,0,269.98,0,0,0,0,0,0,0,0,0,0,0,0,0,1,1,77.8,FLYING
78,APPROACH,FLY_TO_FIX,214.13,215,0.87,2954.65,1.74,6.01,5.61,315.26,0.078,0.2657,18.189,315.25,0.227,0,0,0,0,0,0,0,0,269.98,0,0,0,0,0,0,0,0,0,0,0,0,0,1,1,78.04,FLYING
78.24,APPROACH,FLY_TO_FIX,214.03,215,0.97,2955.07,1.73,6.01,5.62,315.26,0.079,0.2737,18.419,315.25,0.225,0,0,0,0,0,0,0,0,269.98,0,0,0,0,0,0,0,0,0,0,0,0,0,1,1,78.28,FLYING
78.48,APPROACH,FLY_TO_FIX,213.95,215,1.05,2955.48,1.73,6.02,5.62,315.25,0.081,0.2815,18.67,315.25,0.223,0,0,0,0,0,0,0,0,269.98,0,0,0,0,0,0,0,0,0,0,0,0,0,1,1,78.52,FLYING
78.78,APPROACH,FLY_TO_FIX,213.85,215,1.15,2956,1.71,6.02,5.63,315.25,0.082,0.2909,19.012,315.25,0.221,0,0,0,0,0,0,0,0,269.98,0,0,0,0,0,0,0,0,0,0,0,0,0,1,1,78.82,FLYING
79.02,APPROACH,FLY_TO_FIX,213.79,215,1.21,2956.4,1.7,6.02,5.63,315.25,0.082,0.2979,19.302,315.25,0.218,0,0,0,0,0,0,0,0,269.98,0,0,0,0,0,0,0,0,0,0,0,0,0,1,1,79.06,FLYING
79.26,APPROACH,FLY_TO_FIX,213.74,215,1.26,2956.81,1.7,6.02,5.63,315.25,0.082,0.3044,19.604,315.24,0.216,0,0,0,0,0,0,0,0,269.98,0,0,0,0,0,0,0,0,0,0,0,0,0,1,1,79.3,FLYING
79.5,APPROACH,FLY_TO_FIX,213.7,215,1.3,2957.21,1.69,6.02,5.63,315.25,0.082,0.3103,19.915,315.24,0.214,0,0,0,0,0,0,0,0,269.98,0,0,0,0,0,0,0,0,0,0,0,0,0,1,1,79.54,FLYING
79.8,APPROACH,FLY_TO_FIX,213.67,215,1.33,2957.71,1.66,6.01,5.62,315.25,0.08,0.3131,20,315.24,0.212,0,0,0,0,0,0,0,0,269.98,0,0,0,0,0,0,0,0,0,0,0,0,0,1,1,79.84,FLYING
80.04,APPROACH,FLY_TO_FIX,213.66,215,1.34,2958.11,1.66,6.01,5.63,315.25,0.078,0.3137,20,315.24,0.21,0,0,0,0,0,0,0,0,269.98,0,0,0,0,0,0,0,0,0,0,0,0,0,1,1,80.08,FLYING
80.28,APPROACH,FLY_TO_FIX,213.66,215,1.34,2958.5,1.66,6,5.63,315.25,0.077,0.3135,20,315.24,0.208,0,0,0,0,0,0,0,0,269.98,0,0,0,0,0,0,0,0,0,0,0,0,0,1,1,80.32,FLYING
80.52,APPROACH,FLY_TO_FIX,213.68,215,1.32,2958.9,1.66,6,5.63,315.25,0.075,0.3127,20,315.24,0.206,0,0,0,0,0,0,0,0,269.98,0,0,0,0,0,0,0,0,0,0,0,0,0,1,1,80.56,FLYING
80.82,APPROACH,FLY_TO_FIX,213.71,215,1.29,2959.38,1.65,5.99,5.61,315.24,0.072,0.3109,20,315.24,0.204,0,0,0,0,0,0,0,0,269.98,0,0,0,0,0,0,0,0,0,0,0,0,0,1,1,80.86,FLYING
81.06,APPROACH,FLY_TO_FIX,213.76,215,1.24,2959.77,1.64,5.98,5.61,315.24,0.07,0.3086,20,315.24,0.202,0,0,0,0,0,0,0,0,269.98,0,0,0,0,0,0,0,0,0,0,0,0,0,1,1,81.1,FLYING
81.3,APPROACH,FLY_TO_FIX,213.81,215,1.19,2960.16,1.63,5.97,5.61,315.24,0.069,0.3059,20,315.24,0.2,0,0,0,0,0,0,0,0,269.98,0,0,0,0,0,0,0,0,0,0,0,0,0,1,1,81.34,FLYING
81.54,APPROACH,FLY_TO_FIX,213.87,215,1.13,2960.54,1.62,5.97,5.6,315.24,0.068,0.3025,20,315.24,0.198,0,0,0,0,0,0,0,0,269.98,0,0,0,0,0,0,0,0,0,0,0,0,0,1,1,81.58,FLYING
81.84,APPROACH,FLY_TO_FIX,213.96,215,1.04,2961.02,1.61,5.95,5.59,315.24,0.064,0.2977,20,315.24,0.195,0,0,0,0,0,0,0,0,269.98,0,0,0,0,0,0,0,0,0,0,0,0,0,1,1,81.88,FLYING
82.08,APPROACH,FLY_TO_FIX,214.04,215,0.96,2961.39,1.59,5.95,5.58,315.24,0.061,0.2932,20,315.24,0.193,0,0,0,0,0,0,0,0,269.98,0,0,0,0,0,0,0,0,0,0,0,0,0,1,1,82.12,FLYING
82.32,APPROACH,FLY_TO_FIX,214.13,215,0.87,2961.77,1.58,5.94,5.58,315.24,0.058,0.2884,20,315.24,0.192,0,0,0,0,0,0,0,0,269.98,0,0,0,0,0,0,0,0,0,0,0,0,0,1,1,82.36,FLYING
82.56,APPROACH,FLY_TO_FIX,214.22,215,0.78,2962.15,1.59,5.93,5.57,315.24,0.057,0.2832,20,315.24,0.19,0,0,0,0,0,0,0,0,269.98,0,0,0,0,0,0,0,0,0,0,0,0,0,1,1,82.6,FLYING
82.86,APPROACH,FLY_TO_FIX,214.35,215,0.65,2962.61,1.57,5.92,5.57,315.24,0.054,0.2765,20,315.24,0.187,0,0,0,0,0,0,0,0,269.98,0,0,0,0,0,0,0,0,0,0,0,0,0,1,1,82.9,FLYING
83.1,APPROACH,FLY_TO_FIX,214.45,215,0.55,2962.98,1.57,5.91,5.56,315.24,0.052,0.2709,20,315.24,0.186,0,0,0,0,0,0,0,0,269.98,0,0,0,0,0,0,0,0,0,0,0,0,0,1,1,83.14,FLYING
83.34,APPROACH,FLY_TO_FIX,214.55,215,0.45,2963.35,1.56,5.91,5.56,315.24,0.048,0.2653,20,315.24,0.184,0,0,0,0,0,0,0,0,269.98,0,0,0,0,0,0,0,0,0,0,0,0,0,1,1,83.38,FLYING
83.58,APPROACH,FLY_TO_FIX,214.65,215,0.35,2963.72,1.55,5.9,5.55,315.24,0.045,0.2595,20,315.24,0.182,0,0,0,0,0,0,0,0,269.98,0,0,0,0,0,0,0,0,0,0,0,0,0,1,1,83.62,FLYING
83.88,APPROACH,FLY_TO_FIX,214.78,215,0.22,2964.17,1.54,5.89,5.54,315.24,0.042,0.2524,20,315.24,0.18,0,0,0,0,0,0,0,0,269.98,0,0,0,0,0,0,0,0,0,0,0,0,0,1,1,83.92,FLYING
84.12,APPROACH,FLY_TO_FIX,214.88,215,0.12,2964.54,1.54,5.88,5.54,315.24,0.041,0.2468,20,315.24,0.178,0,0,0,0,0,0,0,0,269.98,0,0,0,0,0,0,0,0,0,0,0,0,0,1,1,84.16,FLYING
84.36,APPROACH,FLY_TO_FIX,214.98,215,0.02,2964.9,1.53,5.88,5.53,315.24,0.037,0.2415,20,315.24,0.176,0,0,0,0,0,0,0,0,269.98,0,0,0,0,0,0,0,0,0,0,0,0,0,1,1,84.4,FLYING
84.6,APPROACH,FLY_TO_FIX,215.07,215,-0.07,2965.25,1.51,5.87,5.53,315.24,0.034,0.2363,19.985,315.24,0.174,0,0,0,0,0,0,0,0,269.98,0,0,0,0,0,0,0,0,0,0,0,0,0,1,1,84.64,FLYING
84.9,APPROACH,FLY_TO_FIX,215.17,215,-0.17,2965.7,1.51,5.86,5.52,315.24,0.03,0.23,19.934,315.24,0.172,0,0,0,0,0,0,0,0,269.98,0,0,0,0,0,0,0,0,0,0,0,0,0,1,1,84.94,FLYING
85.14,APPROACH,FLY_TO_FIX,215.25,215,-0.25,2966.05,1.49,5.85,5.52,315.24,0.028,0.2249,19.875,315.24,0.17,0,0,0,0,0,0,0,0,269.98,0,0,0,0,0,0,0,0,0,0,0,0,0,1,1,85.18,FLYING
85.38,APPROACH,FLY_TO_FIX,215.32,215,-0.32,2966.41,1.48,5.85,5.52,315.24,0.025,0.2202,19.799,315.24,0.168,0,0,0,0,0,0,0,0,269.98,0,0,0,0,0,0,0,0,0,0,0,0,0,1,1,85.42,FLYING
85.62,APPROACH,FLY_TO_FIX,215.38,215,-0.38,2966.76,1.47,5.85,5.52,315.23,0.023,0.2157,19.708,315.24,0.167,0,0,0,0,0,0,0,0,269.98,0,0,0,0,0,0,0,0,0,0,0,0,0,1,1,85.66,FLYING
85.92,APPROACH,FLY_TO_FIX,215.44,215,-0.44,2967.19,1.47,5.84,5.52,315.23,0.02,0.2107,19.577,315.24,0.164,0,0,0,0,0,0,0,0,269.98,0,0,0,0,0,0,0,0,0,0,0,0,0,1,1,85.96,FLYING
86.16,APPROACH,FLY_TO_FIX,215.48,215,-0.48,2967.54,1.46,5.85,5.52,315.23,0.016,0.2074,19.462,315.24,0.163,0,0,0,0,0,0,0,0,269.98,0,0,0,0,0,0,0,0,0,0,0,0,0,1,1,86.2,FLYING
86.4,APPROACH,FLY_TO_FIX,215.5,215,-0.5,2967.89,1.45,5.85,5.52,315.23,0.015,0.2046,19.342,315.24,0.161,0,0,0,0,0,0,0,0,269.98,0,0,0,0,0,0,0,0,0,0,0,0,0,1,1,86.44,FLYING
86.64,APPROACH,FLY_TO_FIX,215.51,215,-0.51,2968.23,1.44,5.85,5.52,315.23,0.014,0.2024,19.219,315.24,0.159,0,0,0,0,0,0,0,0,269.98,0,0,0,0,0,0,0,0,0,0,0,0,0,1,1,86.68,FLYING
86.94,APPROACH,FLY_TO_FIX,215.51,215,-0.51,2968.65,1.44,5.84,5.52,315.23,0.01,0.2006,19.065,315.24,0.157,0,0,0,0,0,0,0,0,269.98,0,0,0,0,0,0,0,0,0,0,0,0,0,1,1,86.98,FLYING
87.18,APPROACH,FLY_TO_FIX,215.5,215,-0.5,2968.99,1.42,5.85,5.53,315.23,0.007,0.1998,18.945,315.24,0.155,0,0,0,0,0,0,0,0,269.98,0,0,0,0,0,0,0,0,0,0,0,0,0,1,1,87.22,FLYING
87.42,APPROACH,FLY_TO_FIX,215.48,215,-0.48,2969.33,1.41,5.85,5.53,315.23,0.003,0.1996,18.83,315.24,0.154,0,0,0,0,0,0,0,0,269.98,0,0,0,0,0,0,0,0,0,0,0,0,0,1,1,87.46,FLYING
87.66,APPROACH,FLY_TO_FIX,215.45,215,-0.45,2969.67,1.4,5.85,5.53,315.23,0.002,0.2,18.723,315.24,0.152,0,0,0,0,0,0,0,0,269.98,0,0,0,0,0,0,0,0,0,0,0,0,0,1,1,87.7,FLYING
87.96,APPROACH,FLY_TO_FIX,215.39,215,-0.39,2970.08,1.39,5.85,5.54,315.23,0,0.2013,18.603,315.24,0.15,0,0,0,0,0,0,0,0,269.98,0,0,0,0,0,0,0,0,0,0,0,0,0,1,1,88,FLYING
88.2,APPROACH,FLY_TO_FIX,215.34,215,-0.34,2970.41,1.38,5.85,5.54,315.23,-0.004,0.203,18.519,315.24,0.148,0,0,0,0,0,0,0,0,269.98,0,0,0,0,0,0,0,0,0,0,0,0,0,1,1,88.24,FLYING
88.44,APPROACH,FLY_TO_FIX,215.29,215,-0.29,2970.74,1.37,5.85,5.54,315.23,-0.007,0.2053,18.449,315.24,0.147,0,0,0,0,0,0,0,0,269.98,0,0,0,0,0,0,0,0,0,0,0,0,0,1,1,88.48,FLYING
88.68,APPROACH,FLY_TO_FIX,215.23,215,-0.23,2971.07,1.37,5.86,5.55,315.23,-0.009,0.208,18.394,315.24,0.145,0,0,0,0,0,0,0,0,269.98,0,0,0,0,0,0,0,0,0,0,0,0,0,1,1,88.72,FLYING
88.98,APPROACH,FLY_TO_FIX,215.14,215,-0.14,2971.47,1.36,5.87,5.56,315.23,-0.01,0.2121,18.35,315.24,0.143,0,0,0,0,0,0,0,0,269.98,0,0,0,0,0,0,0,0,0,0,0,0,0,1,1,89.02,FLYING
89.22,APPROACH,FLY_TO_FIX,215.07,215,-0.07,2971.8,1.35,5.87,5.56,315.23,-0.013,0.2158,18.332,315.24,0.141,0,0,0,0,0,0,0,0,269.98,0,0,0,0,0,0,0,0,0,0,0,0,0,1,1,89.26,FLYING
89.46,APPROACH,FLY_TO_FIX,215,215,0,2972.12,1.34,5.87,5.57,315.23,-0.014,0.2199,18.331,315.24,0.14,0,0,0,0,0,0,0,0,269.98,0,0,0,0,0,0,0,0,0,0,0,0,0,1,1,89.5,FLYING
89.7,APPROACH,FLY_TO_FIX,214.92,215,0.08,2972.44,1.34,5.87,5.57,315.23,-0.017,0.2241,18.348,315.24,0.138,0,0,0,0,0,0,0,0,269.98,0,0,0,0,0,0,0,0,0,0,0,0,0,1,1,89.74,FLYING
90,APPROACH,FLY_TO_FIX,214.83,215,0.17,2972.83,1.33,5.87,5.57,315.23,-0.019,0.2298,18.398,315.24,0.136,0,0,0,0,0,0,0,0,269.98,0,0,0,0,0,0,0,0,0,0,0,0,0,1,1,90.04,FLYING
