t_s,phase,subphase,ias_ms,vapp_ms,spd_err_ms,agl_m,gear_h_m,vs_ms,pitch_deg,aoa_deg,hdg_deg,bank_deg,thr_cmd,thr_cur,thr_intg,at_gain,at_tau_s,at_a_up,at_a_dn,at_kp_thr,at_ki_spd,at_thr_slew,as_cmd_deg,as_cap_deg,as_raw_deg,as_spd_err_ms,as_active,aa_hdg_cmd_deg,aa_fpa_cmd_deg,aa_fbw,aa_dir,actual_fpa_deg,ftf_hdg_err_deg,ftf_fix_idx,kos_steer_pit_deg,kos_steer_hdg_deg,aa_dir_vx,aa_dir_vy,aa_dir_vz,aa_dir_pitch_deg,aa_dir_hdg_deg,ils_loc_m,ils_gs_m,ils_dist_km,loc_corr_deg,gs_corr_deg,gs_latched,active_gs_ang_deg,ils_intercept_alt_m,d_gs_ms,fpa_preclamped_deg,gs_nom_alt_m,flare_fpa_cmd,flare_tgt_vs,flare_frac,flare_mode,flare_auth_limited,flare_vs_err,flare_fpa_err,flare_pitch_err,flare_req_up_a,flare_thr_floor,steer_hdg_deg,steer_blend,ro_loc_corr_deg,ro_hdg_err_deg,ro_yaw_tgt,ro_yaw_scale,ro_yaw_gate,yaw_cmd,roll_cmd,pitch_cmd,ro_pitch_tgt_deg,ro_pitch_err_deg,ro_pitch_ff,ro_roll_assist,flaps_cur,flaps_tgt,asc_j_ab,asc_j_rk,asc_validity,asc_q_pa,asc_q_raw_pa,asc_mach,asc_apo_m,asc_drag_n,asc_w_prop,asc_edot_aero,asc_edot_orb,asc_pitch_bias,asc_blend,asc_spooling,asc_ab_thr_ratio,asc_ab_t_now,asc_ab_t_avail,asc_ab_ign_on,asc_ab_flameouts,asc_rk_t_now,asc_rk_t_avail,asc_rk_ign_on,asc_rk_flameouts,ship_thrust,ship_avail_thrust,ship_ign_on,ship_flameouts,ifc_raw_dt_s,ifc_dt_s,ifc_loop_n,ifc_hz_est,ifc_raw_dt_max_s,ifc_raw_dt_min_s,phase_el_s,status,craft_name,cfg_file
0.16,APPROACH,ILS_TRACK,155.71,152,-3.71,658.02,578.12,-21.02,7.41,14.76,270.07,0.306,0,0,0,0,0,0,0,0,0,0,0,0,0,0,0,0,0,1,0,-7.7,0,0,0,90,0,0,0,0,0,0,-27.56,11.664,0,0,0,3,658.02,0,0,685.58,0,0,0,,0,0,0,0,0,0,270.06,0,0,0,0,0,0,0,0,0,0,0,0,0,0,0,0,0,VALID,0,0,0,0,0,1,0,0,0,0,0,0,0,0,0,0,0,0,0,0,258.52,1095.59,2,0,0.14,0.14,1,3.7,0.14,0.02,0.16,FLYING,X10-F,0:/Integrated Flight Computer/aircraft/x10_f_cfg.ks (inferred preloaded)
0.42,APPROACH,ILS_TRACK,155.85,152,-3.85,652.62,572.74,-20.45,7.49,14.62,270.1,0.267,0,0,0,1,0.6,1.49,0.75,0.35,0.0168,0.4,2.643,20.806,2.643,3.85,1,269.99,0,0,1,-7.51,0,0,0,269.99,0.3761,-0.0001,0.9266,0,269.99,0.01,-30.24,11.628,-0.007,18.872,1,3,658.02,-12.251,0,683.7,0,0,0,,0,0,0,0,0,0,270.06,0,0,0,0,0,0,0,0,0,0,0,0,0,1,3,0,0,VALID,0,0,0,0,0,1,0,0,0,0,0,0,0,0,0,0,0,0,0,0,236.19,1096.61,2,0,0.12,0.12,3,7.69,0.14,0.12,0.42,FLYING,X10-F,0:/Integrated Flight Computer/aircraft/x10_f_cfg.ks (inferred preloaded)
0.68,APPROACH,ILS_TRACK,155.78,152,-3.78,647.02,567.54,-19.83,6.41,13.21,270.08,0.191,0,0,0,1,0.6,2.752,0.75,0.35,0.0168,0.4,2.578,20.823,2.578,3.79,1,269.98,0,0,1,-7.28,0,0,0,269.98,0.3762,-0.0004,0.9266,0,269.98,0.03,-33.58,11.586,-0.022,20.579,1,3,658.02,-13.132,0,681.48,0,0,0,,0,0,0,0,0,0,270.06,0,0,0,0,0,0,0,0,0,0,0,0,0,1,3,0,0,VALID,0,0,0,0,0,1,0,0,0,0,0,0,0,0,0,0,0,0,0,0,215.61,1096.69,2,0,0.12,0.12,5,7.69,0.14,0.12,0.68,FLYING,X10-F,0:/Integrated Flight Computer/aircraft/x10_f_cfg.ks (inferred preloaded)
0.94,APPROACH,ILS_TRACK,155.84,152,-3.84,641.2,562.45,-19.94,4.2,10.98,270.05,0.122,0,0,0,1,0.6,3.82,0.75,0.35,0.0168,0.4,2.611,20.814,2.611,3.821,1,269.98,0,0,1,-7.27,0,0,0,269.98,0.3762,-0.0004,0.9265,0,269.98,0.05,-37.15,11.543,-0.022,22.244,1,3,658.02,-13.872,0,679.26,0,0,0,,0,0,0,0,0,0,270.06,0,0,0,0,0,0,0,0,0,0,0,0,0,2,3,0,0,VALID,0,0,0,0,0,1,0,0,0,0,0,0,0,0,0,0,0,0,0,0,196.88,1097.31,2,0,0.12,0.12,7,7.69,0.14,0.12,0.94,FLYING,X10-F,0:/Integrated Flight Computer/aircraft/x10_f_cfg.ks (inferred preloaded)
1.3,APPROACH,ILS_TRACK,156.34,152,-4.34,633.04,555.19,-20.87,1.3,8.4,270.04,0.081,0,0,0,1,0.6,4.5,0.75,0.35,0.0168,0.4,3.141,20.676,3.141,4.31,1,269.98,0,0,1,-7.55,0,0,0,269.98,0.3763,-0.0004,0.9265,0,269.98,0.08,-42.22,11.485,-0.022,24.055,1,3,658.02,-14.236,0,676.18,0,0,0,,0,0,0,0,0,0,270.06,0,0,0,0,0,0,0,0,0,0,0,0,0,3,3,0,0,VALID,0,0,0,0,0,1,0,0,0,0,0,0,0,0,0,0,0,0,0,0,173.91,1100,2,0,0.12,0.12,10,8.33,0.12,0.12,1.3,FLYING,X10-F,0:/Integrated Flight Computer/aircraft/x10_f_cfg.ks (inferred preloaded)
1.66,APPROACH,ILS_TRACK,156.95,152,-4.95,624.79,547.35,-22.47,-0.43,7.31,270.04,0.105,0,0,0,1,0.6,4.5,0.75,0.35,0.0168,0.4,3.787,20.505,3.787,4.917,1,269.98,0,0,1,-8.09,0,0,0,269.98,0.3764,-0.0004,0.9265,0,269.98,0.11,-47.39,11.426,-0.024,25.711,1,3,658.02,-14.369,0,673.09,0,0,0,,0,0,0,0,0,0,270.06,0,0,0,0,0,0,0,0,0,0,0,0,0,3,3,0,0,VALID,0,0,0,0,0,1,0,0,0,0,0,0,0,0,0,0,0,0,0,0,153.7,1103.21,2,0,0.12,0.12,13,8.33,0.12,0.12,1.66,FLYING,X10-F,0:/Integrated Flight Computer/aircraft/x10_f_cfg.ks (inferred preloaded)
2.02,APPROACH,ILS_TRACK,157.51,152,-5.51,616.5,538.98,-24,-0.32,8.04,270.04,0.069,0,0,0,1,0.6,4.5,0.75,0.35,0.0168,0.4,4.381,20.346,4.381,5.483,1,269.97,0,0,1,-8.61,0,0,0,269.97,0.3765,-0.0005,0.9264,0,269.97,0.14,-52.59,11.367,-0.027,27.35,1,3,658.02,-14.468,0,670,0,0,0,,0,0,0,0,0,0,270.06,0,0,0,0,0,0,0,0,0,0,0,0,0,3,3,0,0,VALID,0,0,0,0,0,1,0,0,0,0,0,0,0,0,0,0,0,0,0,0,135.83,1106.3,2,0,0.12,0.12,16,8.33,0.12,0.12,2.02,FLYING,X10-F,0:/Integrated Flight Computer/aircraft/x10_f_cfg.ks (inferred preloaded)
2.38,APPROACH,ILS_TRACK,157.89,152,-5.89,608.26,530.1,-25.05,1.63,10.45,270.04,0.051,0,0,0,1,0.6,4.5,0.75,0.35,0.0168,0.4,4.789,20.234,4.789,5.878,1,269.97,0,0,1,-8.99,0,0,0,269.97,0.3766,-0.0005,0.9264,0,269.97,0.17,-57.74,11.308,-0.029,28.693,1,3,658.02,-14.213,0,666.91,0,0,0,,0,0,0,0,0,0,270.06,0,0,0,0,0,0,0,0,0,0,0,0,0,3,3,0,0,VALID,0,0,0,0,0,1,0,0,0,0,0,0,0,0,0,0,0,0,0,0,119.96,1108.67,2,0,0.12,0.12,19,8.33,0.12,0.12,2.38,FLYING,X10-F,0:/Integrated Flight Computer/aircraft/x10_f_cfg.ks (inferred preloaded)
2.74,APPROACH,ILS_TRACK,157.96,152,-5.96,600.06,521.01,-24.84,4.51,13.26,270.04,0.014,0,0,0,1,0.6,4.5,0.75,0.35,0.0168,0.4,4.882,20.209,4.882,5.969,1,269.97,0,0,1,-8.96,0,0,0,269.97,0.3767,-0.0005,0.9263,0,269.97,0.2,-62.84,11.249,-0.03,30.258,1,3,658.02,-14.259,0,663.81,0,0,0,,0,0,0,0,0,0,270.06,0,0,0,0,0,0,0,0,0,0,0,0,0,3,3,0,0,VALID,0,0,0,0,0,1,0,0,0,0,0,0,0,0,0,0,0,0,0,0,105.82,1109.71,2,0,0.12,0.12,22,8.33,0.12,0.12,2.74,FLYING,X10-F,0:/Integrated Flight Computer/aircraft/x10_f_cfg.ks (inferred preloaded)
3.1,APPROACH,ILS_TRACK,157.61,152,-5.61,591.81,512.16,-24.13,6.48,14.98,270.03,-0.024,0,0,0,1,0.6,4.5,0.75,0.35,0.0168,0.4,4.543,20.301,4.543,5.64,1,269.97,0,0,1,-8.73,0,0,0,269.97,0.3768,-0.0006,0.9263,0,269.97,0.23,-68.01,11.19,-0.033,31.799,1,3,658.02,-14.245,0,660.72,0,0,0,,0,0,0,0,0,0,270.06,0,0,0,0,0,0,0,0,0,0,0,0,0,3,3,0,0,VALID,0,0,0,0,0,1,0,0,0,0,0,0,0,0,0,0,0,0,0,0,93.19,1108.93,2,0,0.12,0.12,25,8.33,0.12,0.12,3.1,FLYING,X10-F,0:/Integrated Flight Computer/aircraft/x10_f_cfg.ks (inferred preloaded)
3.43,APPROACH,ILS_TRACK,157.05,152,-5.05,584.51,504.24,-23.37,8.4,16.72,270.01,-0.077,0.0384,0,-0.531,1,0.6,4.5,0.75,0.35,0.0168,0.4,3.979,20.454,3.979,5.099,1,269.96,0,0,1,-8.5,0,0,0,269.96,0.3769,-0.0006,0.9263,0,269.96,0.27,-72.43,11.137,-0.036,32.288,1,3,658.02,-13.198,0,657.94,0,0,0,,0,0,0,0,0,0,270.06,0,0,0,0,0,0,0,0,0,0,0,0,0,3,3,0,0,VALID,0,0,0,0,0,1,0,0,0,0,0,0,0,0,0,0,0,0,0,0,82.8,1107.14,2,0,0.104,0.104,28,9.03,0.12,0.102,3.43,FLYING,X10-F,0:/Integrated Flight Computer/aircraft/x10_f_cfg.ks (inferred preloaded)
3.69,APPROACH,ILS_TRACK,156.45,152,-4.45,579.11,498.3,-22.59,10.11,18.25,270,-0.104,0.1388,0,-1.707,1,0.6,4.5,0.75,0.35,0.0168,0.4,0,20.615,0,4.528,0,269.97,0,0,1,-8.27,0,0,0,269.97,0.3769,-0.0006,0.9262,0,269.97,0.29,-75.6,11.096,-0.034,32.622,1,3,658.02,-12.428,0,655.8,0,0,0,,0,0,0,0,0,0,270.06,0,0,0,0,0,0,0,0,0,0,0,0,0,3,3,0,0,VALID,0,0,0,0,0,1,0,0,0,0,0,0,0,0,0,0,0,0,0,0,80.53,1105.03,2,0,0.129,0.129,30,7.77,0.129,0.104,3.69,FLYING,X10-F,0:/Integrated Flight Computer/aircraft/x10_f_cfg.ks (inferred preloaded)
3.96,APPROACH,ILS_TRACK,155.54,152,-3.54,573.6,492.38,-21.05,11.64,19.22,269.99,-0.117,0.2459,0,-2.747,1,0.6,4.5,0.75,0.35,0.0168,0.4,0,20.864,0,3.644,0,269.97,0,0,1,-7.83,0,0,0,269.97,0.377,-0.0006,0.9262,0,269.97,0.31,-78.81,11.052,-0.033,33.148,1,3,658.02,-11.881,0,653.53,0,0,0,,0,0,0,0,0,0,270.06,0,0,0,0,0,0,0,0,0,0,0,0,0,3,3,0,0,VALID,0,0,0,0,0,1,0,0,0,0,0,0,0,0,0,0,0,0,0,0,85.1,1101.56,2,0,0.136,0.136,32,7.4,0.136,0.129,3.96,FLYING,X10-F,0:/Integrated Flight Computer/aircraft/x10_f_cfg.ks (inferred preloaded)
4.24,APPROACH,ILS_TRACK,154.37,152,-2.37,567.96,486.63,-19.58,12.13,19.16,269.98,-0.113,0.3585,0,-3.528,1,0.6,4.5,0.75,0.35,0.0168,0.4,0,21.191,0,2.484,0,269.97,0,0,1,-7.31,0,0,0,269.97,0.3771,-0.0005,0.9262,0,269.97,0.33,-82.07,11.007,-0.03,33.733,1,3,658.02,-11.391,0,651.15,0,0,0,,0,0,0,0,0,0,270.06,0,0,0,0,0,0,0,0,0,0,0,0,0,3,3,0,0,VALID,0,0,0,0,0,1,0,0,0,0,0,0,0,0,0,0,0,0,0,0,96.1,1097.01,2,0,0.142,0.142,34,7.04,0.142,0.136,4.24,FLYING,X10-F,0:/Integrated Flight Computer/aircraft/x10_f_cfg.ks (inferred preloaded)
4.54,APPROACH,ILS_TRACK,153.26,152,-1.26,562.32,480.99,-18.48,12.17,18.81,269.98,-0.11,0.4767,0,-4.014,1,0.6,4.5,0.75,0.35,0.0168,0.4,0,21.504,0,1.373,0,269.97,0,0,1,-6.94,0,0,0,269.97,0.3771,-0.0005,0.9262,0,269.97,0.34,-85.24,10.96,-0.027,34.02,1,3,658.02,-10.559,0,648.68,0,0,0,,0,0,0,0,0,0,270.06,0,0,0,0,0,0,0,0,0,0,0,0,0,3,3,0,0,VALID,0,0,0,0,0,1,0,0,0,0,0,0,0,0,0,0,0,0,0,0,114.05,1092.74,2,0,0.149,0.149,36,6.72,0.149,0.142,4.54,FLYING,X10-F,0:/Integrated Flight Computer/aircraft/x10_f_cfg.ks (inferred preloaded)
4.84,APPROACH,ILS_TRACK,152.19,152,-0.19,556.88,475.61,-17.56,12.01,18.35,269.98,-0.105,0.5967,0,-4.182,1,0.6,4.5,0.75,0.35,0.0168,0.4,0,21.808,0,0.293,0,269.98,0,0,1,-6.64,0,0,0,269.97,0.3772,-0.0004,0.9261,0,269.98,0.36,-88.24,10.912,-0.025,34.297,1,3,658.02,-9.782,0,646.18,0,0,0,,0,0,0,0,0,0,270.06,0,0,0,0,0,0,0,0,0,0,0,0,0,3,3,0,0,VALID,0,0,0,0,0,1,0,0,0,0,0,0,0,0,0,0,0,0,0,0,138.48,1088.61,2,0,0.15,0.15,38,6.67,0.15,0.149,4.84,FLYING,X10-F,0:/Integrated Flight Computer/aircraft/x10_f_cfg.ks (inferred preloaded)
5.14,APPROACH,ILS_TRACK,151.22,152,0.78,551.68,470.47,-16.77,11.81,17.9,269.98,-0.095,0.7167,0,-4.14,1,0.6,4.5,0.75,0.35,0.0168,0.4,0,22.084,0,-0.686,0,269.97,0,0,1,-6.38,0,0,0,269.98,0.3773,-0.0005,0.9261,0,269.97,0.37,-91,10.865,-0.026,34.504,1,3,658.02,-9.006,0,643.7,0,0,0,,0,0,0,0,0,0,270.06,0,0,0,0,0,0,0,0,0,0,0,0,0,3,3,0,0,VALID,0,0,0,0,0,1,0,0,0,0,0,0,0,0,0,0,0,0,0,0,168.95,1084.95,2,0,0.15,0.15,40,6.67,0.15,0.15,5.14,FLYING,X10-F,0:/Integrated Flight Computer/aircraft/x10_f_cfg.ks (inferred preloaded)
5.44,APPROACH,ILS_TRACK,150.39,152,1.61,546.73,465.56,-16.07,11.66,17.52,269.98,-0.085,0.8367,0,-4.099,1,0.6,4.5,0.75,0.35,0.0168,0.4,0,22.323,0,-1.532,0,269.98,0,0,1,-6.14,0,0,0,269.98,0.3773,-0.0004,0.9261,0,269.98,0.38,-93.53,10.818,-0.023,34.66,1,3,658.02,-8.252,0,641.23,0,0,0,,0,0,0,0,0,0,270.06,0,0,0,0,0,0,0,0,0,0,0,0,0,3,3,0,0,VALID,0,0,0,0,0,1,0,0,0,0,0,0,0,0,0,0,0,0,0,0,205.09,1081.84,2,0,0.15,0.15,42,6.67,0.15,0.15,5.44,FLYING,X10-F,0:/Integrated Flight Computer/aircraft/x10_f_cfg.ks (inferred preloaded)
5.74,APPROACH,ILS_TRACK,149.7,152,2.3,542.01,460.84,-15.43,11.61,17.28,269.98,-0.081,0.9567,0,-4.058,1,0.6,4.5,0.75,0.35,0.0168,0.4,0,22.523,0,-2.241,0,269.98,0,0,1,-5.93,0,0,0,269.98,0.3774,-0.0003,0.926,0,269.98,0.38,-95.84,10.771,-0.019,34.756,1,3,658.02,-7.506,0,638.77,0,0,0,,0,0,0,0,0,0,270.06,0,0,0,0,0,0,0,0,0,0,0,0,0,3,3,0,0,VALID,0,0,0,0,0,1,0,0,0,0,0,0,0,0,0,0,0,0,0,0,246.57,1079.3,2,0,0.15,0.15,44,6.67,0.15,0.15,5.74,FLYING,X10-F,0:/Integrated Flight Computer/aircraft/x10_f_cfg.ks (inferred preloaded)
6.04,APPROACH,ILS_TRACK,149.13,152,2.87,537.53,456.31,-14.82,11.73,17.22,269.98,-0.077,1,0,-4.017,1,0.6,4.5,0.75,0.35,0.0168,0.4,0,22.684,0,-2.815,0,269.98,0,0,1,-5.72,0,0,0,269.98,0.3775,-0.0003,0.926,0,269.98,0.39,-97.92,10.724,-0.018,34.772,1,3,658.02,-6.746,0,636.32,0,0,0,,0,0,0,0,0,0,270.06,0,0,0,0,0,0,0,0,0,0,0,0,0,3,3,0,0,VALID,0,0,0,0,0,1,0,0,0,0,0,0,0,0,0,0,0,0,0,0,292.68,1077.33,2,0,0.15,0.15,46,6.67,0.15,0.15,6.04,FLYING,X10-F,0:/Integrated Flight Computer/aircraft/x10_f_cfg.ks (inferred preloaded)
6.34,APPROACH,ILS_TRACK,148.7,152,3.3,533.26,451.99,-14.08,11.96,17.18,269.98,-0.062,0.9253,0,-3.069,1,0.6,4.5,0.75,0.35,0.0168,0.4,0,22.811,0,-3.265,0,269.98,0,0,1,-5.46,0,0,0,269.98,0.3776,-0.0003,0.926,0,269.98,0.39,-99.78,10.678,-0.016,34.769,1,3,658.02,-6.045,0,633.88,0,0,0,,0,0,0,0,0,0,270.06,0,0,0,0,0,0,0,0,0,0,0,0,0,3,3,0,0,VALID,0,0,0,0,0,1,0,0,0,0,0,0,0,0,0,0,0,0,0,0,337.18,1075.86,2,0,0.15,0.15,48,6.67,0.15,0.15,6.34,FLYING,X10-F,0:/Integrated Flight Computer/aircraft/x10_f_cfg.ks (inferred preloaded)
6.64,APPROACH,ILS_TRACK,148.37,152,3.63,529.23,447.87,-13.4,12.19,17.18,269.98,-0.054,0.8364,0,-2.012,1,0.6,4.5,0.75,0.35,0.0168,0.4,0,22.905,0,-3.6,0,269.99,0,0,1,-5.21,0,0,0,269.99,0.3776,-0.0002,0.926,0,269.99,0.39,-101.43,10.631,-0.013,34.668,1,3,658.02,-5.3,0,631.44,0,0,0,,0,0,0,0,0,0,270.06,0,0,0,0,0,0,0,0,0,0,0,0,0,3,3,0,0,VALID,0,0,0,0,0,1,0,0,0,0,0,0,0,0,0,0,0,0,0,0,374.41,1074.85,2,0,0.15,0.15,50,6.67,0.15,0.15,6.64,FLYING,X10-F,0:/Integrated Flight Computer/aircraft/x10_f_cfg.ks (inferred preloaded)
6.94,APPROACH,ILS_TRACK,148.13,152,3.87,525.45,443.96,-12.72,12.61,17.39,269.98,-0.049,0.7535,0,-0.876,1,0.6,4.5,0.75,0.35,0.0168,0.4,0,22.975,0,-3.848,0,269.99,0,0,1,-4.96,0,0,0,269.99,0.3777,-0.0002,0.9259,0,269.99,0.38,-102.82,10.585,-0.012,34.385,1,3,658.02,-4.422,0,629.01,0,0,0,,0,0,0,0,0,0,270.06,0,0,0,0,0,0,0,0,0,0,0,0,0,3,3,0,0,VALID,0,0,0,0,0,1,0,0,0,0,0,0,0,0,0,0,0,0,0,0,403.95,1074.17,2,0,0.15,0.15,52,6.67,0.15,0.15,6.94,FLYING,X10-F,0:/Integrated Flight Computer/aircraft/x10_f_cfg.ks (inferred preloaded)
7.24,APPROACH,ILS_TRACK,147.92,152,4.08,521.97,440.25,-11.95,13.3,17.83,269.98,-0.046,0.6973,0,0.326,1,0.6,4.5,0.75,0.35,0.0168,0.4,0,23.035,0,-4.058,0,269.99,0,0,1,-4.68,0,0,0,269.99,0.3778,-0.0002,0.9259,0,269.99,0.38,-103.93,10.538,-0.012,33.945,1,3,658.02,-3.456,0,626.57,0,0,0,,0,0,0,0,0,0,270.06,0,0,0,0,0,0,0,0,0,0,0,0,0,3,3,0,0,VALID,0,0,0,0,0,1,0,0,0,0,0,0,0,0,0,0,0,0,0,0,426.82,1073.61,2,0,0.15,0.15,54,6.67,0.15,0.15,7.24,FLYING,X10-F,0:/Integrated Flight Computer/aircraft/x10_f_cfg.ks (inferred preloaded)
7.54,APPROACH,ILS_TRACK,147.69,152,4.31,518.8,436.8,-11.07,14.22,18.46,269.98,-0.04,0.6817,0,1.594,1,0.6,4.5,0.75,0.35,0.0168,0.4,0,23.098,0,-4.282,0,269.99,0,0,1,-4.36,0,0,0,269.99,0.3779,-0.0002,0.9259,0,269.99,0.37,-104.74,10.492,-0.01,33.347,1,3,658.02,-2.408,0,624.15,0,0,0,,0,0,0,0,0,0,270.06,0,0,0,0,0,0,0,0,0,0,0,0,0,3,3,0,0,VALID,0,0,0,0,0,1,0,0,0,0,0,0,0,0,0,0,0,0,0,0,445.16,1072.96,2,0,0.15,0.15,56,6.67,0.15,0.15,7.54,FLYING,X10-F,0:/Integrated Flight Computer/aircraft/x10_f_cfg.ks (inferred preloaded)
7.84,APPROACH,ILS_TRACK,147.41,152,4.59,515.93,433.66,-9.87,15.19,18.97,269.98,-0.033,0.7121,0,2.938,1,0.6,4.5,0.75,0.35,0.0168,0.4,0,23.175,0,-4.557,0,269.99,0,0,1,-3.92,0,0,0,269.99,0.3779,-0.0001,0.9258,0,269.99,0.37,-105.23,10.446,-0.009,32.74,1,3,658.02,-1.462,0,621.72,0,0,0,,0,0,0,0,0,0,270.06,0,0,0,0,0,0,0,0,0,0,0,0,0,3,3,0,0,VALID,0,0,0,0,0,1,0,0,0,0,0,0,0,0,0,0,0,0,0,0,461.73,1072.07,2,0,0.15,0.15,58,6.67,0.15,0.15,7.84,FLYING,X10-F,0:/Integrated Flight Computer/aircraft/x10_f_cfg.ks (inferred preloaded)
8.14,APPROACH,ILS_TRACK,147.1,152,4.9,513.34,430.9,-8.6,15.86,19.14,269.98,-0.018,0.7671,0,4.376,1,0.6,4.5,0.75,0.35,0.0168,0.4,0,23.264,0,-4.872,0,269.99,0,0,1,-3.44,0,0,0,269.99,0.378,-0.0001,0.9258,0,269.99,0.36,-105.46,10.399,-0.007,32.049,1,3,658.02,-0.515,0,619.3,0,0,0,,0,0,0,0,0,0,270.06,0,0,0,0,0,0,0,0,0,0,0,0,0,3,3,0,0,VALID,0,0,0,0,0,1,0,0,0,0,0,0,0,0,0,0,0,0,0,0,479.45,1070.99,2,0,0.15,0.15,60,6.67,0.15,0.15,8.14,FLYING,X10-F,0:/Integrated Flight Computer/aircraft/x10_f_cfg.ks (inferred preloaded)
8.44,APPROACH,ILS_TRACK,146.78,152,5.22,510.99,428.54,-7.26,16.01,18.73,269.98,-0.003,0.8234,0,5.911,1,0.6,4.5,0.75,0.35,0.0168,0.4,0,23.355,0,-5.194,0,270,0,0,1,-2.92,0,0,0,270,0.3781,-0.0001,0.9258,0,270,0.34,-105.44,10.353,-0.003,31.429,1,3,658.02,0.252,0,616.88,0,0,0,,0,0,0,0,0,0,270.06,0,0,0,0,0,0,0,0,0,0,0,0,0,3,3,0,0,VALID,0,0,0,0,0,1,0,0,0,0,0,0,0,0,0,0,0,0,0,0,499.51,1069.88,2,0,0.15,0.15,62,6.67,0.15,0.15,8.44,FLYING,X10-F,0:/Integrated Flight Computer/aircraft/x10_f_cfg.ks (inferred preloaded)
8.74,APPROACH,ILS_TRACK,146.56,152,5.44,508.89,426.56,-6.13,15.65,17.92,269.99,0.016,0.8318,0,7.524,1,0.6,4.5,0.75,0.35,0.0168,0.4,0,23.42,0,-5.424,0,270,0,0,1,-2.47,0,0,0,270,0.3781,-0.0001,0.9258,0,270,0.33,-105.18,10.307,-0.003,30.708,1,3,658.02,1.056,0,614.47,0,0,0,,0,0,0,0,0,0,270.06,0,0,0,0,0,0,0,0,0,0,0,0,0,3,3,0,0,VALID,0,0,0,0,0,1,0,0,0,0,0,0,0,0,0,0,0,0,0,0,521.58,1069.15,2,0,0.15,0.15,64,6.67,0.15,0.15,8.74,FLYING,X10-F,0:/Integrated Flight Computer/aircraft/x10_f_cfg.ks (inferred preloaded)
9.04,APPROACH,ILS_TRACK,146.51,152,5.49,507.01,424.89,-5.12,15.01,16.87,269.99,0.032,0.775,0,9.17,1,0.6,4.5,0.75,0.35,0.0168,0.4,0,23.44,0,-5.495,0,270,0,0,1,-2.08,0,0,0,270,0.3782,-0.0001,0.9257,0,270,0.32,-104.68,10.261,-0.003,29.934,1,3,658.02,1.838,0,612.05,0,0,0,,0,0,0,0,0,0,270.06,0,0,0,0,0,0,0,0,0,0,0,0,0,3,3,0,0,VALID,0,0,0,0,0,1,0,0,0,0,0,0,0,0,0,0,0,0,0,0,542.47,1069.06,2,0,0.15,0.15,66,6.67,0.15,0.15,9.04,FLYING,X10-F,0:/Integrated Flight Computer/aircraft/x10_f_cfg.ks (inferred preloaded)
9.34,APPROACH,ILS_TRACK,146.62,152,5.38,505.32,423.49,-4.47,14.05,15.64,269.99,0.04,0.6684,0,10.8,1,0.6,4.5,0.75,0.35,0.0168,0.4,0,23.412,0,-5.396,0,270,0,0,1,-1.78,0,0,0,270,0.3783,0,0.9257,0,270,0.31,-103.99,10.215,-0.002,29.231,1,3,658.02,2.46,0,609.64,0,0,0,,0,0,0,0,0,0,270.06,0,0,0,0,0,0,0,0,0,0,0,0,0,3,3,0,0,VALID,0,0,0,0,0,1,0,0,0,0,0,0,0,0,0,0,0,0,0,0,558.48,1069.65,2,0,0.15,0.15,68,6.67,0.15,0.15,9.34,FLYING,X10-F,0:/Integrated Flight Computer/aircraft/x10_f_cfg.ks (inferred preloaded)
9.64,APPROACH,ILS_TRACK,146.93,152,5.07,503.87,422.21,-4.13,13.34,14.84,270,0.048,0.5484,0,12.357,1,0.6,4.5,0.75,0.35,0.0168,0.4,0,23.33,0,-5.107,0,270,0,0,1,-1.63,0,0,0,270,0.3783,0,0.9257,0,270,0.3,-103.08,10.169,-0.002,28.315,1,3,658.02,3.261,0,607.22,0,0,0,,0,0,0,0,0,0,270.06,0,0,0,0,0,0,0,0,0,0,0,0,0,3,3,0,0,VALID,0,0,0,0,0,1,0,0,0,0,0,0,0,0,0,0,0,0,0,0,567.14,1071,2,0,0.15,0.15,70,6.67,0.15,0.15,9.64,FLYING,X10-F,0:/Integrated Flight Computer/aircraft/x10_f_cfg.ks (inferred preloaded)
9.94,APPROACH,ILS_TRACK,147.33,152,4.67,502.63,421.03,-3.7,13.12,14.49,270,0.056,0.4284,0,13.802,1,0.6,4.5,0.75,0.35,0.0168,0.4,0,23.22,0,-4.715,0,270,0,0,1,-1.49,0,0,0,270,0.3784,0,0.9256,0,270,0.29,-101.92,10.123,-0.002,27.348,1,3,658.02,4.036,0,604.79,0,0,0,,0,0,0,0,0,0,270.06,0,0,0,0,0,0,0,0,0,0,0,0,0,3,3,0,0,VALID,0,0,0,0,0,1,0,0,0,0,0,0,0,0,0,0,0,0,0,0,567.26,1072.73,2,0,0.15,0.15,72,6.67,0.15,0.15,9.94,FLYING,X10-F,0:/Integrated Flight Computer/aircraft/x10_f_cfg.ks (inferred preloaded)
10.24,APPROACH,ILS_TRACK,147.74,152,4.26,501.53,419.97,-3.42,12.92,14.19,270,0.058,0.3084,0,15.123,1,0.6,4.5,0.75,0.35,0.0168,0.4,0,23.103,0,-4.3,0,270,0,0,1,-1.34,0,0,0,270,0.3785,0,0.9256,0,270,0.27,-100.62,10.076,-0.002,26.612,1,3,658.02,4.469,0,602.36,0,0,0,,0,0,0,0,0,0,270.06,0,0,0,0,0,0,0,0,0,0,0,0,0,3,3,0,0,VALID,0,0,0,0,0,1,0,0,0,0,0,0,0,0,0,0,0,0,0,0,555.34,1074.54,2,0,0.15,0.15,74,6.67,0.15,0.15,10.24,FLYING,X10-F,0:/Integrated Flight Computer/aircraft/x10_f_cfg.ks (inferred preloaded)
10.54,APPROACH,ILS_TRACK,148.14,152,3.86,500.6,419.01,-2.87,13.06,14.16,270,0.063,0.1884,0,16.32,1,0.6,4.5,0.75,0.35,0.0168,0.4,0,22.988,0,-3.893,0,270,0,0,1,-1.19,0,0,0,270,0.3786,-0.0001,0.9256,0,270,0.26,-99.14,10.03,-0.003,25.68,1,3,658.02,5.079,0,599.92,0,0,0,,0,0,0,0,0,0,270.06,0,0,0,0,0,0,0,0,0,0,0,0,0,3,3,0,0,VALID,0,0,0,0,0,1,0,0,0,0,0,0,0,0,0,0,0,0,0,0,531.73,1076.27,2,0,0.15,0.15,76,6.67,0.15,0.15,10.54,FLYING,X10-F,0:/Integrated Flight Computer/aircraft/x10_f_cfg.ks (inferred preloaded)
10.84,APPROACH,ILS_TRACK,148.42,152,3.58,499.7,418.33,-1.92,12.51,13.14,270,0.058,0.1942,0,17.421,1,0.6,4.5,0.75,0.35,0.0168,0.4,0,22.908,0,-3.607,0,270,0,0,1,-0.79,0,0,0,270,0.3786,0,0.9255,0,270,0.25,-97.6,9.983,-0.002,25.178,1,3,658.02,5.127,0,597.48,0,0,0,,0,0,0,0,0,0,270.06,0,0,0,0,0,0,0,0,0,0,0,0,0,3,3,0,0,VALID,0,0,0,0,0,1,0,0,0,0,0,0,0,0,0,0,0,0,0,0,499.51,1077.46,2,0,0.15,0.15,78,6.67,0.15,0.15,10.84,FLYING,X10-F,0:/Integrated Flight Computer/aircraft/x10_f_cfg.ks (inferred preloaded)
11.14,APPROACH,ILS_TRACK,148.73,152,3.27,498.88,417.87,-1.38,11.4,11.78,270,0.059,0.1877,0,18.438,1,0.6,4.5,0.75,0.35,0.0168,0.4,0,22.822,0,-3.304,0,270,0,0,1,-0.56,0,0,0,270,0.3787,0,0.9255,0,270,0.24,-95.99,9.936,-0.003,24.443,1,3,658.02,5.44,0,595.03,0,0,0,,0,0,0,0,0,0,270.06,0,0,0,0,0,0,0,0,0,0,0,0,0,3,3,0,0,VALID,0,0,0,0,0,1,0,0,0,0,0,0,0,0,0,0,0,0,0,0,471.09,1078.79,2,0,0.15,0.15,80,6.67,0.15,0.15,11.14,FLYING,X10-F,0:/Integrated Flight Computer/aircraft/x10_f_cfg.ks (inferred preloaded)
11.44,APPROACH,ILS_TRACK,149.11,152,2.89,498.17,417.47,-1.38,10.25,10.68,270,0.061,0.1461,0,19.346,1,0.6,4.5,0.75,0.35,0.0168,0.4,0,22.717,0,-2.931,0,270,0,0,1,-0.54,0,0,0,270,0.3788,0,0.9255,0,270,0.24,-94.28,9.889,-0.003,23.601,1,3,658.02,5.852,0,592.57,0,0,0,,0,0,0,0,0,0,270.06,0,0,0,0,0,0,0,0,0,0,0,0,0,3,3,0,0,VALID,0,0,0,0,0,1,0,0,0,0,0,0,0,0,0,0,0,0,0,0,444.22,1080.39,2,0,0.15,0.15,82,6.67,0.15,0.15,11.44,FLYING,X10-F,0:/Integrated Flight Computer/aircraft/x10_f_cfg.ks (inferred preloaded)
11.74,APPROACH,ILS_TRACK,149.52,152,2.48,497.57,417.05,-1.57,9.56,10.09,270,0.06,0.0961,0,20,1,0.6,4.5,0.75,0.35,0.0168,0.4,0,22.602,0,-2.524,0,270,0,0,1,-0.57,0,0,0,270,0.3789,0,0.9255,0,270,0.23,-92.43,9.843,-0.002,22.744,1,3,658.02,6.233,0,590.11,0,0,0,,0,0,0,0,0,0,270.06,0,0,0,0,0,0,0,0,0,0,0,0,0,3,3,0,0,VALID,0,0,0,0,0,1,0,0,0,0,0,0,0,0,0,0,0,0,0,0,415.26,1082.11,2,0,0.15,0.15,84,6.67,0.15,0.15,11.74,FLYING,X10-F,0:/Integrated Flight Computer/aircraft/x10_f_cfg.ks (inferred preloaded)
12.04,APPROACH,ILS_TRACK,149.86,152,2.14,497.13,416.54,-1.69,9.68,10.33,270,0.059,0.0728,0,20,1,0.6,4.5,0.75,0.35,0.0168,0.4,0,22.502,0,-2.168,0,270,0,0,1,-0.65,0,0,0,270,0.3789,0,0.9254,0,270,0.22,-90.43,9.795,-0.002,21.687,1,3,658.02,6.804,0,587.65,0,0,0,,0,0,0,0,0,0,270.06,0,0,0,0,0,0,0,0,0,0,0,0,0,3,3,0,0,VALID,0,0,0,0,0,1,0,0,0,0,0,0,0,0,0,0,0,0,0,0,384.02,1083.6,2,0,0.15,0.15,86,6.67,0.15,0.15,12.04,FLYING,X10-F,0:/Integrated Flight Computer/aircraft/x10_f_cfg.ks (inferred preloaded)
12.34,APPROACH,ILS_TRACK,150.1,152,1.9,496.76,416.01,-1.67,10.14,10.82,270,0.056,0.1018,0,20,1,0.6,4.5,0.75,0.35,0.0168,0.4,0,22.432,0,-1.919,0,270,0,0,1,-0.67,0,0,0,270,0.379,-0.0001,0.9254,0,270,0.21,-88.35,9.748,-0.003,20.871,1,3,658.02,7.042,0,585.18,0,0,0,,0,0,0,0,0,0,270.06,0,0,0,0,0,0,0,0,0,0,0,0,0,3,3,0,0,VALID,0,0,0,0,0,1,0,0,0,0,0,0,0,0,0,0,0,0,0,0,354.26,1084.64,2,0,0.15,0.15,88,6.67,0.15,0.15,12.34,FLYING,X10-F,0:/Integrated Flight Computer/aircraft/x10_f_cfg.ks (inferred preloaded)
12.64,APPROACH,ILS_TRACK,150.19,152,1.81,496.38,415.55,-1.48,10.46,11.03,270,0.053,0.1829,0,20,1,0.6,4.5,0.75,0.35,0.0168,0.4,0,22.401,0,-1.811,0,270,0,0,1,-0.57,0,0,0,270,0.3791,0,0.9254,0,270,0.2,-86.26,9.701,-0.001,20.325,1,3,658.02,6.94,0,582.71,0,0,0,,0,0,0,0,0,0,270.06,0,0,0,0,0,0,0,0,0,0,0,0,0,3,3,0,0,VALID,0,0,0,0,0,1,0,0,0,0,0,0,0,0,0,0,0,0,0,0,331.34,1085.08,2,0,0.15,0.15,90,6.67,0.15,0.15,12.64,FLYING,X10-F,0:/Integrated Flight Computer/aircraft/x10_f_cfg.ks (inferred preloaded)
12.94,APPROACH,ILS_TRACK,150.19,152,1.81,495.97,415.17,-1.16,10.48,10.88,270,0.05,0.2809,0,20,1,0.6,4.5,0.75,0.35,0.0168,0.4,0,22.399,0,-1.803,0,270,0,0,1,-0.45,0,0,0,270,0.3791,-0.0001,0.9253,0,270,0.2,-84.18,9.654,-0.004,19.789,1,3,658.02,6.832,0,580.24,0,0,0,,0,0,0,0,0,0,270.06,0,0,0,0,0,0,0,0,0,0,0,0,0,3,3,0,0,VALID,0,0,0,0,0,1,0,0,0,0,0,0,0,0,0,0,0,0,0,0,319.67,1085.11,2,0,0.15,0.15,92,6.67,0.15,0.15,12.94,FLYING,X10-F,0:/Integrated Flight Computer/aircraft/x10_f_cfg.ks (inferred preloaded)
13.24,APPROACH,ILS_TRACK,150.17,152,1.83,495.58,414.82,-1.07,10.33,10.71,270,0.046,0.3586,0,20,1,0.6,4.5,0.75,0.35,0.0168,0.4,0,22.406,0,-1.829,0,270,0,0,1,-0.43,0,0,0,270,0.3792,0,0.9253,0,270,0.19,-82.1,9.607,-0.001,19.032,1,3,658.02,6.999,0,577.76,0,0,0,,0,0,0,0,0,0,270.06,0,0,0,0,0,0,0,0,0,0,0,0,0,3,3,0,0,VALID,0,0,0,0,0,1,0,0,0,0,0,0,0,0,0,0,0,0,0,0,319.05,1085.03,2,0,0.15,0.15,94,6.67,0.15,0.15,13.24,FLYING,X10-F,0:/Integrated Flight Computer/aircraft/x10_f_cfg.ks (inferred preloaded)
13.54,APPROACH,ILS_TRACK,150.16,152,1.84,495.23,414.49,-1.17,10.17,10.6,270,0.047,0.4013,0,20,1,0.6,4.5,0.75,0.35,0.0168,0.4,0,22.409,0,-1.839,0,270,0,0,1,-0.43,0,0,0,270,0.3793,0,0.9253,0,270,0.18,-80.01,9.56,-0.002,18.352,1,3,658.02,7.062,0,575.29,0,0,0,,0,0,0,0,0,0,270.06,0,0,0,0,0,0,0,0,0,0,0,0,0,3,3,0,0,VALID,0,0,0,0,0,1,0,0,0,0,0,0,0,0,0,0,0,0,0,0,323.6,1085.02,2,0,0.15,0.15,96,6.67,0.15,0.15,13.54,FLYING,X10-F,0:/Integrated Flight Computer/aircraft/x10_f_cfg.ks (inferred preloaded)
13.84,APPROACH,ILS_TRACK,150.17,152,1.83,494.92,414.18,-0.95,10.29,10.62,270,0.039,0.4219,0,20,1,0.6,4.5,0.75,0.35,0.0168,0.4,0,22.408,0,-1.834,0,270,0,0,1,-0.37,0,0,0,270,0.3794,0,0.9252,0,270,0.18,-77.83,9.513,-0.002,17.593,1,3,658.02,7.196,0,572.82,0,0,0,,0,0,0,0,0,0,270.06,0,0,0,0,0,0,0,0,0,0,0,0,0,3,3,0,0,VALID,0,0,0,0,0,1,0,0,0,0,0,0,0,0,0,0,0,0,0,0,330.28,1085.07,2,0,0.15,0.15,98,6.67,0.15,0.15,13.84,FLYING,X10-F,0:/Integrated Flight Computer/aircraft/x10_f_cfg.ks (inferred preloaded)
14.14,APPROACH,ILS_TRACK,150.19,152,1.81,494.63,413.88,-0.96,10.26,10.63,270,0.041,0.4272,0,20,1,0.6,4.5,0.75,0.35,0.0168,0.4,0,22.403,0,-1.815,0,270,0,0,1,-0.39,0,0,0,270,0.3794,-0.0001,0.9252,0,270,0.17,-75.66,9.465,-0.003,16.85,1,3,658.02,7.312,0,570.35,0,0,0,,0,0,0,0,0,0,270.06,0,0,0,0,0,0,0,0,0,0,0,0,0,3,3,0,0,VALID,0,0,0,0,0,1,0,0,0,0,0,0,0,0,0,0,0,0,0,0,337.9,1085.19,2,0,0.15,0.15,100,6.67,0.15,0.15,14.14,FLYING,X10-F,0:/Integrated Flight Computer/aircraft/x10_f_cfg.ks (inferred preloaded)
14.43,APPROACH,ILS_TRACK,150.23,152,1.77,494.33,413.64,-0.85,10.1,10.39,270,0.036,0.4197,0,20,1,0.6,4.5,0.75,0.35,0.0168,0.4,0,22.391,0,-1.774,0,270,0,0,1,-0.31,0,0,0,270,0.3795,0,0.9252,0,270,0.17,-73.54,9.419,-0.002,16.327,1,3,658.02,7.171,0,567.93,0,0,0,,0,0,0,0,0,0,270.06,0,0,0,0,0,0,0,0,0,0,0,0,0,3,3,0,0,VALID,0,0,0,0,0,1,0,0,0,0,0,0,0,0,0,0,0,0,0,0,345.01,1085.38,2,0,0.145,0.145,102,6.88,0.15,0.145,14.43,FLYING,X10-F,0:/Integrated Flight Computer/aircraft/x10_f_cfg.ks (inferred preloaded)
14.7,APPROACH,ILS_TRACK,150.32,152,1.68,494.08,413.42,-0.77,10.02,10.29,270,0.034,0.3896,0,20,1,0.6,4.5,0.75,0.35,0.0168,0.4,0,22.367,0,-1.691,0,270,0,0,1,-0.3,0,0,0,270,0.3796,0,0.9252,0,270,0.16,-71.52,9.376,-0.001,15.589,1,3,658.02,7.332,0,565.65,0,0,0,,0,0,0,0,0,0,270.06,0,0,0,0,0,0,0,0,0,0,0,0,0,3,3,0,0,VALID,0,0,0,0,0,1,0,0,0,0,0,0,0,0,0,0,0,0,0,0,350.68,1085.77,2,0,0.136,0.136,104,7.42,0.145,0.136,14.7,FLYING,X10-F,0:/Integrated Flight Computer/aircraft/x10_f_cfg.ks (inferred preloaded)
15.06,APPROACH,ILS_TRACK,150.47,152,1.53,493.78,413.13,-0.74,9.94,10.2,270,0.031,0.3383,0,20,1,0.6,4.5,0.75,0.35,0.0168,0.4,0,22.325,0,-1.54,0,270,0,0,1,-0.29,0,0,0,270,0.3797,0,0.9251,0,270,0.15,-68.87,9.319,0,14.717,1,3,658.02,7.428,0,562.68,0,0,0,,0,0,0,0,0,0,270.06,0,0,0,0,0,0,0,0,0,0,0,0,0,3,3,0,0,VALID,0,0,0,0,0,1,0,0,0,0,0,0,0,0,0,0,0,0,0,0,354.82,1086.42,2,0,0.117,0.117,107,8.44,0.136,0.117,15.06,FLYING,X10-F,0:/Integrated Flight Computer/aircraft/x10_f_cfg.ks (inferred preloaded)
15.4,APPROACH,ILS_TRACK,150.62,152,1.38,493.52,412.86,-0.75,9.95,10.24,270,0.032,0.2997,0,20,1,0.6,4.5,0.75,0.35,0.0168,0.4,0,22.282,0,-1.386,0,270,0,0,1,-0.31,0,0,0,270,0.3797,0,0.9251,0,270,0.15,-66.37,9.267,-0.001,13.847,1,3,658.02,7.581,0,559.93,0,0,0,,0,0,0,0,0,0,270.06,0,0,0,0,0,0,0,0,0,0,0,0,0,3,3,0,0,VALID,0,0,0,0,0,1,0,0,0,0,0,0,0,0,0,0,0,0,0,0,354.74,1087.09,2,0,0.116,0.116,110,8.86,0.117,0.103,15.4,FLYING,X10-F,0:/Integrated Flight Computer/aircraft/x10_f_cfg.ks (inferred preloaded)
15.69,APPROACH,ILS_TRACK,150.73,152,1.27,493.28,412.66,-0.78,9.83,10.11,270,0.032,0.2956,0,20,1,0.6,4.5,0.75,0.35,0.0168,0.4,0,22.253,0,-1.286,0,270,0,0,1,-0.28,0,0,0,270,0.3798,0,0.9251,0,270,0.14,-64.29,9.222,-0.001,13.354,1,3,658.02,7.417,0,557.62,0,0,0,,0,0,0,0,0,0,270.06,0,0,0,0,0,0,0,0,0,0,0,0,0,3,3,0,0,VALID,0,0,0,0,0,1,0,0,0,0,0,0,0,0,0,0,0,0,0,0,352.05,1087.54,2,0,0.152,0.152,112,6.87,0.152,0.116,15.69,FLYING,X10-F,0:/Integrated Flight Computer/aircraft/x10_f_cfg.ks (inferred preloaded)
16.01,APPROACH,ILS_TRACK,150.86,152,1.14,493.08,412.4,-0.72,10.02,10.29,270,0.029,0.2808,0,20,1,0.6,4.5,0.75,0.35,0.0168,0.4,0,22.216,0,-1.154,0,270,0,0,1,-0.28,0,0,0,270,0.3799,0,0.925,0,270,0.14,-61.88,9.173,-0.001,12.435,1,3,658.02,7.663,0,555.01,0,0,0,,0,0,0,0,0,0,270.06,0,0,0,0,0,0,0,0,0,0,0,0,0,3,3,0,0,VALID,0,0,0,0,0,1,0,0,0,0,0,0,0,0,0,0,0,0,0,0,348.57,1088.11,2,0,0.16,0.16,114,6.28,0.16,0.152,16.01,FLYING,X10-F,0:/Integrated Flight Computer/aircraft/x10_f_cfg.ks (inferred preloaded)
16.34,APPROACH,ILS_TRACK,150.97,152,1.03,492.85,412.17,-0.66,10.07,10.3,270,0.03,0.2798,0,20,1,0.6,4.5,0.75,0.35,0.0168,0.4,0,22.185,0,-1.043,0,270,0,0,1,-0.25,0,0,0,270,0.38,0,0.925,0,270,0.13,-59.36,9.12,-0.001,11.727,1,3,658.02,7.603,0,552.26,0,0,0,,0,0,0,0,0,0,270.06,0,0,0,0,0,0,0,0,0,0,0,0,0,3,3,0,0,VALID,0,0,0,0,0,1,0,0,0,0,0,0,0,0,0,0,0,0,0,0,343.96,1088.59,2,0,0.168,0.168,116,5.97,0.168,0.16,16.34,FLYING,X10-F,0:/Integrated Flight Computer/aircraft/x10_f_cfg.ks (inferred preloaded)
16.69,APPROACH,ILS_TRACK,151.07,152,0.93,492.63,411.92,-0.65,10.12,10.36,270,0.031,0.2821,0,20,1,0.6,4.5,0.75,0.35,0.0168,0.4,0,22.156,0,-0.94,0,270,0,0,1,-0.25,0,0,0,270,0.3801,0,0.925,0,270,0.12,-56.71,9.065,0,10.871,1,3,658.02,7.679,0,549.39,0,0,0,,0,0,0,0,0,0,270.06,0,0,0,0,0,0,0,0,0,0,0,0,0,3,3,0,0,VALID,0,0,0,0,0,1,0,0,0,0,0,0,0,0,0,0,0,0,0,0,339.58,1089.04,2,0,0.175,0.175,118,5.74,0.175,0.168,16.69,FLYING,X10-F,0:/Integrated Flight Computer/aircraft/x10_f_cfg.ks (inferred preloaded)
17.04,APPROACH,ILS_TRACK,151.15,152,0.85,492.42,411.7,-0.6,10.15,10.37,270,0.031,0.288,0,20,1,0.6,4.5,0.75,0.35,0.0168,0.4,0,22.131,0,-0.854,0,270,0,0,1,-0.23,0,0,0,270,0.3801,0,0.9249,0,270,0.12,-54.03,9.01,0,10.063,1,3,658.02,7.682,0,546.49,0,0,0,,0,0,0,0,0,0,270.06,0,0,0,0,0,0,0,0,0,0,0,0,0,3,3,0,0,VALID,0,0,0,0,0,1,0,0,0,0,0,0,0,0,0,0,0,0,0,0,336.07,1089.42,2,0,0.175,0.175,120,5.71,0.175,0.175,17.04,FLYING,X10-F,0:/Integrated Flight Computer/aircraft/x10_f_cfg.ks (inferred preloaded)
17.39,APPROACH,ILS_TRACK,151.23,152,0.77,492.21,411.5,-0.56,10.15,10.35,270,0.03,0.2957,0,20,1,0.6,4.5,0.75,0.35,0.0168,0.4,0,22.111,0,-0.781,0,270,0,0,1,-0.22,0,0,0,270,0.3802,0,0.9249,0,270,0.11,-51.33,8.955,0.002,9.234,1,3,658.02,7.709,0,543.59,0,0,0,,0,0,0,0,0,0,270.06,0,0,0,0,0,0,0,0,0,0,0,0,0,3,3,0,0,VALID,0,0,0,0,0,1,0,0,0,0,0,0,0,0,0,0,0,0,0,0,333.74,1089.73,2,0,0.175,0.175,122,5.71,0.175,0.175,17.39,FLYING,X10-F,0:/Integrated Flight Computer/aircraft/x10_f_cfg.ks (inferred preloaded)
17.74,APPROACH,ILS_TRACK,151.29,152,0.71,492.02,411.31,-0.53,10.13,10.33,270,0.03,0.3024,0,20,1,0.6,4.5,0.75,0.35,0.0168,0.4,0,22.093,0,-0.717,0,270,0,0,1,-0.2,0,0,0,270,0.3803,0,0.9249,0,270,0.1,-48.63,8.899,0.001,8.391,1,3,658.02,7.746,0,540.68,0,0,0,,0,0,0,0,0,0,270.06,0,0,0,0,0,0,0,0,0,0,0,0,0,3,3,0,0,VALID,0,0,0,0,0,1,0,0,0,0,0,0,0,0,0,0,0,0,0,0,332.63,1090.02,2,0,0.175,0.175,124,5.71,0.175,0.175,17.74,FLYING,X10-F,0:/Integrated Flight Computer/aircraft/x10_f_cfg.ks (inferred preloaded)
18.09,APPROACH,ILS_TRACK,151.35,152,0.65,491.84,411.13,-0.49,10.13,10.31,270,0.029,0.3068,0,20,1,0.6,4.5,0.75,0.35,0.0168,0.4,0,22.076,0,-0.657,0,270,0,0,1,-0.19,0,0,0,270,0.3804,0,0.9248,0,270,0.09,-45.91,8.844,0.003,7.54,1,3,658.02,7.79,0,537.78,0,0,0,,0,0,0,0,0,0,270.06,0,0,0,0,0,0,0,0,0,0,0,0,0,3,3,0,0,VALID,0,0,0,0,0,1,0,0,0,0,0,0,0,0,0,0,0,0,0,0,332.48,1090.28,2,0,0.175,0.175,126,5.71,0.175,0.175,18.09,FLYING,X10-F,0:/Integrated Flight Computer/aircraft/x10_f_cfg.ks (inferred preloaded)
18.44,APPROACH,ILS_TRACK,151.41,152,0.59,491.67,410.97,-0.46,10.13,10.29,270,0.028,0.3085,0,20,1,0.6,4.5,0.75,0.35,0.0168,0.4,0,22.059,0,-0.598,0,270,0,0,1,-0.18,0,0,0,270,0.3805,0,0.9248,0,270,0.09,-43.17,8.788,0.003,6.691,1,3,658.02,7.824,0,534.87,0,0,0,,0,0,0,0,0,0,270.06,0,0,0,0,0,0,0,0,0,0,0,0,0,3,3,0,0,VALID,0,0,0,0,0,1,0,0,0,0,0,0,0,0,0,0,0,0,0,0,332.72,1090.54,2,0,0.175,0.175,128,5.71,0.175,0.175,18.44,FLYING,X10-F,0:/Integrated Flight Computer/aircraft/x10_f_cfg.ks (inferred preloaded)
18.79,APPROACH,ILS_TRACK,151.47,152,0.53,491.52,410.81,-0.42,10.11,10.27,270,0.027,0.3077,0,20,1,0.6,4.5,0.75,0.35,0.0168,0.4,0,22.043,0,-0.538,0,270,0,0,1,-0.16,0,0,0,270,0.3806,0.0001,0.9248,0,270,0.08,-40.42,8.733,0.003,5.841,1,3,658.02,7.857,0,531.97,0,0,0,,0,0,0,0,0,0,270.06,0,0,0,0,0,0,0,0,0,0,0,0,0,3,3,0,0,VALID,0,0,0,0,0,1,0,0,0,0,0,0,0,0,0,0,0,0,0,0,333.05,1090.81,2,0,0.175,0.175,130,5.71,0.175,0.175,18.79,FLYING,X10-F,0:/Integrated Flight Computer/aircraft/x10_f_cfg.ks (inferred preloaded)
19.14,APPROACH,ILS_TRACK,151.53,152,0.47,491.37,410.67,-0.39,10.1,10.24,269.99,0.026,0.3047,0,20,1,0.6,4.5,0.75,0.35,0.0168,0.4,0,22.025,0,-0.476,0,270,0,0,1,-0.15,0,0,0,270,0.3807,0.0001,0.9247,0,270,0.07,-37.66,8.678,0.003,4.986,1,3,658.02,7.892,0,529.06,0,0,0,,0,0,0,0,0,0,270.06,0,0,0,0,0,0,0,0,0,0,0,0,0,3,3,0,0,VALID,0,0,0,0,0,1,0,0,0,0,0,0,0,0,0,0,0,0,0,0,333.27,1091.08,2,0,0.175,0.175,132,5.71,0.175,0.175,19.14,FLYING,X10-F,0:/Integrated Flight Computer/aircraft/x10_f_cfg.ks (inferred preloaded)
19.49,APPROACH,ILS_TRACK,151.59,152,0.41,491.24,410.54,-0.37,10.1,10.23,269.99,0.025,0.3007,0,20,1,0.6,4.5,0.75,0.35,0.0168,0.4,0,22.007,0,-0.413,0,270.01,0,0,1,-0.14,0,0,0,270,0.3807,0.0001,0.9247,0,270.01,0.06,-34.89,8.622,0.006,4.124,1,3,658.02,7.93,0,526.15,0,0,0,,0,0,0,0,0,0,270.06,0,0,0,0,0,0,0,0,0,0,0,0,0,3,3,0,0,VALID,0,0,0,0,0,1,0,0,0,0,0,0,0,0,0,0,0,0,0,0,333.18,1091.36,2,0,0.175,0.175,134,5.71,0.175,0.175,19.49,FLYING,X10-F,0:/Integrated Flight Computer/aircraft/x10_f_cfg.ks (inferred preloaded)
19.84,APPROACH,ILS_TRACK,151.66,152,0.34,491.11,410.41,-0.34,10.09,10.21,269.99,0.023,0.2967,0,20,1,0.6,4.5,0.75,0.35,0.0168,0.4,0,21.989,0,-0.349,0,270,0,0,1,-0.13,0,0,0,270,0.3808,0.0001,0.9246,0,270,0.05,-32.11,8.567,0.004,3.269,1,3,658.02,7.955,0,523.24,0,0,0,,0,0,0,0,0,0,270.06,0,0,0,0,0,0,0,0,0,0,0,0,0,3,3,0,0,VALID,0,0,0,0,0,1,0,0,0,0,0,0,0,0,0,0,0,0,0,0,332.59,1091.64,2,0,0.175,0.175,136,5.71,0.175,0.175,19.84,FLYING,X10-F,0:/Integrated Flight Computer/aircraft/x10_f_cfg.ks (inferred preloaded)
20.19,APPROACH,ILS_TRACK,151.72,152,0.28,490.99,410.31,-0.32,10.05,10.15,269.99,0.024,0.2933,0,20,1,0.6,4.5,0.75,0.35,0.0168,0.4,0,21.972,0,-0.288,0,270.01,-0.566,0,1,-0.11,0,0,-0.16,270.01,0.39,0.0001,0.9208,-0.57,270.01,0.04,-29.32,8.511,0.006,2.434,1,3,658.02,7.954,-0.566,520.33,0,0,0,,0,0,0,0,0,0,270.06,0,0,0,0,0,0,0,0,0,0,0,0,0,3,3,0,0,VALID,0,0,0,0,0,1,0,0,0,0,0,0,0,0,0,0,0,0,0,0,331.59,1091.9,2,0,0.175,0.175,138,5.72,0.175,0.175,20.19,FLYING,X10-F,0:/Integrated Flight Computer/aircraft/x10_f_cfg.ks (inferred preloaded)
20.51,APPROACH,ILS_TRACK,151.76,152,0.24,490.78,410.27,-0.02,9.67,9.59,269.99,0.033,0.2958,0,20,1,0.6,4.5,0.75,0.35,0.0168,0.4,0,21.959,0,-0.242,0,270.01,-1.087,0,1,-0.01,0,0,-0.96,270.01,0.3985,0.0001,0.9172,-1.09,270.01,0.03,-26.75,8.459,0.008,1.913,1,3,658.02,7.639,-1.087,517.58,0,0,0,,0,0,0,0,0,0,270.06,0,0,0,0,0,0,0,0,0,0,0,0,0,3,3,0,0,VALID,0,0,0,0,0,1,0,0,0,0,0,0,0,0,0,0,0,0,0,0,330.43,1092.08,2,0,0.157,0.157,140,6.26,0.175,0.157,20.51,FLYING,X10-F,0:/Integrated Flight Computer/aircraft/x10_f_cfg.ks (inferred preloaded)
20.77,APPROACH,ILS_TRACK,151.83,152,0.17,490.55,410.25,-0.23,8.88,8.9,270,0.054,0.2813,0,20,1,0.6,4.5,0.75,0.35,0.0168,0.4,0,21.942,0,-0.182,0,270.01,-1.51,0,1,-0.07,0,0,-1.22,270.01,0.4053,0.0001,0.9142,-1.51,270.01,0.02,-24.76,8.416,0.008,1.49,1,3,658.02,7.421,-1.51,515.35,0,0,0,,0,0,0,0,0,0,270.06,0,0,0,0,0,0,0,0,0,0,0,0,0,3,3,0,0,VALID,0,0,0,0,0,1,0,0,0,0,0,0,0,0,0,0,0,0,0,0,329.88,1092.36,2,0,0.123,0.123,142,7.73,0.157,0.123,20.77,FLYING,X10-F,0:/Integrated Flight Computer/aircraft/x10_f_cfg.ks (inferred preloaded)
21.02,APPROACH,ILS_TRACK,151.97,152,0.03,490.3,410.19,-0.42,8.28,8.38,270,0.058,0.2253,0,20,1,0.6,4.5,0.75,0.35,0.0168,0.4,0,21.902,0,-0.04,0,270.01,-2.016,0,1,-0.14,0,0,-1.83,270,0.4134,0.0001,0.9106,-2.02,270.01,0.01,-22.83,8.375,0.008,0.984,1,3,658.02,7.333,-2.016,513.18,0,0,0,,0,0,0,0,0,0,270.06,0,0,0,0,0,0,0,0,0,0,0,0,0,3,3,0,0,VALID,0,0,0,0,0,1,0,0,0,0,0,0,0,0,0,0,0,0,0,0,327.28,1092.97,2,0,0.12,0.12,144,7.94,0.14,0.12,21.02,FLYING,X10-F,0:/Integrated Flight Computer/aircraft/x10_f_cfg.ks (inferred preloaded)
21.38,APPROACH,ILS_TRACK,152.19,152,-0.19,489.96,409.93,-0.84,7.94,8.22,270,0.06,0.1629,0,19.962,1,0.6,4.5,0.75,0.35,0.0168,0.4,0,21.841,0,0.177,0,270.01,-2.878,0,1,-0.32,0,0,-2.62,270.01,0.4271,0.0001,0.9042,-2.88,270.01,0,-20.17,8.317,0.006,0.122,1,3,658.02,7.412,-2.878,510.18,0,0,0,,0,0,0,0,0,0,270.06,0,0,0,0,0,0,0,0,0,0,0,0,0,3,3,0,0,VALID,0,0,0,0,0,1,0,0,0,0,0,0,0,0,0,0,0,0,0,0,315.21,1093.89,2,0,0.12,0.12,147,8.33,0.12,0.12,21.38,FLYING,X10-F,0:/Integrated Flight Computer/aircraft/x10_f_cfg.ks (inferred preloaded)
21.74,APPROACH,ILS_TRACK,152.37,152,-0.37,489.38,409.61,-1.24,7.17,7.56,270,0.061,0.1407,0,19.857,1,0.6,4.5,0.75,0.35,0.0168,0.4,0,21.791,0,0.355,0,270.01,-2.996,0,1,-0.43,0,0,-2.84,270.01,0.4291,0.0001,0.9033,-3,270.01,-0.01,-17.72,8.26,0.006,0.004,1,3,658.02,6.639,-2.996,507.17,0,0,0,,0,0,0,0,0,0,270.06,0,0,0,0,0,0,0,0,0,0,0,0,0,3,3,0,0,VALID,0,0,0,0,0,1,0,0,0,0,0,0,0,0,0,0,0,0,0,0,298.7,1094.67,2,0,0.12,0.12,150,8.33,0.12,0.12,21.74,FLYING,X10-F,0:/Integrated Flight Computer/aircraft/x10_f_cfg.ks (inferred preloaded)
22.1,APPROACH,ILS_TRACK,152.56,152,-0.56,488.68,409.08,-1.67,6.63,7.17,270,0.062,0.1126,0,19.68,1,0.6,4.5,0.75,0.35,0.0168,0.4,0,21.735,0,0.554,0,270.01,-3.352,0,1,-0.61,0,0,-3.39,270.01,0.4348,0.0001,0.9005,-3.35,270.01,-0.02,-15.39,8.202,0.007,-0.352,1,3,658.02,6.212,-3.352,504.16,0,0,0,,0,0,0,0,0,0,270.06,0,0,0,0,0,0,0,0,0,0,0,0,0,3,3,0,0,VALID,0,0,0,0,0,1,0,0,0,0,0,0,0,0,0,0,0,0,0,0,280.36,1095.53,2,0,0.12,0.12,153,8.33,0.12,0.12,22.1,FLYING,X10-F,0:/Integrated Flight Computer/aircraft/x10_f_cfg.ks (inferred preloaded)
22.36,APPROACH,ILS_TRACK,152.7,152,-0.7,488.01,408.57,-2.29,6.05,6.83,270,0.065,0.1004,0,19.51,1,0.6,4.5,0.75,0.35,0.0168,0.4,0,21.697,0,0.686,0,270.01,-3.454,0,1,-0.82,0,0,-3.34,270.01,0.4364,0,0.8997,-3.45,270.01,-0.02,-13.88,8.161,0.005,-0.454,1,3,658.02,5.771,-3.454,501.99,0,0,0,,0,0,0,0,0,0,270.06,0,0,0,0,0,0,0,0,0,0,0,0,0,3,3,0,0,VALID,0,0,0,0,0,1,0,0,0,0,0,0,0,0,0,0,0,0,0,0,266.64,1096.13,2,0,0.12,0.12,155,7.69,0.14,0.12,22.36,FLYING,X10-F,0:/Integrated Flight Computer/aircraft/x10_f_cfg.ks (inferred preloaded)
22.72,APPROACH,ILS_TRACK,152.82,152,-0.82,487.08,407.56,-3.11,6.21,7.35,270,0.064,0.1183,0,19.23,1,0.6,4.5,0.75,0.35,0.0168,0.4,0,21.662,0,0.811,0,270,-4.115,0,1,-1.15,0,0,-3.9,270.01,0.4469,0,0.8946,-4.12,270,-0.03,-11.79,8.104,0.005,-1.115,1,3,658.02,5.815,-4.115,498.98,0,0,0,,0,0,0,0,0,0,270.06,0,0,0,0,0,0,0,0,0,0,0,0,0,3,3,0,0,VALID,0,0,0,0,0,1,0,0,0,0,0,0,0,0,0,0,0,0,0,0,248.37,1096.71,2,0,0.12,0.12,158,8.33,0.12,0.12,22.72,FLYING,X10-F,0:/Integrated Flight Computer/aircraft/x10_f_cfg.ks (inferred preloaded)
23.08,APPROACH,ILS_TRACK,152.86,152,-0.86,485.88,406.39,-3.52,6.17,7.41,270,0.062,0.1601,0,18.926,1,0.6,4.5,0.75,0.35,0.0168,0.4,0,21.649,0,0.859,0,270,-3.886,0,1,-1.29,0,0,-3.89,270.01,0.4434,0,0.8963,-3.89,270,-0.03,-9.94,8.046,0.004,-0.886,1,3,658.02,4.835,-3.886,495.96,0,0,0,,0,0,0,0,0,0,270.06,0,0,0,0,0,0,0,0,0,0,0,0,0,3,3,0,0,VALID,0,0,0,0,0,1,0,0,0,0,0,0,0,0,0,0,0,0,0,0,235.97,1097,2,0,0.12,0.12,161,8.33,0.12,0.12,23.08,FLYING,X10-F,0:/Integrated Flight Computer/aircraft/x10_f_cfg.ks (inferred preloaded)
23.44,APPROACH,ILS_TRACK,152.88,152,-0.88,484.5,405.02,-3.89,6.2,7.56,270,0.06,0.1926,0,18.609,1,0.6,4.5,0.75,0.35,0.0168,0.4,0,21.643,0,0.88,0,270,-4.032,0,1,-1.46,0,0,-4.14,270,0.4458,0,0.8952,-4.03,270,-0.04,-8.27,7.989,0.004,-1.032,1,3,658.02,4.393,-4.032,492.95,0,0,0,,0,0,0,0,0,0,270.06,0,0,0,0,0,0,0,0,0,0,0,0,0,3,3,0,0,VALID,0,0,0,0,0,1,0,0,0,0,0,0,0,0,0,0,0,0,0,0,229.81,1097.18,2,0,0.12,0.12,164,8.33,0.12,0.12,23.44,FLYING,X10-F,0:/Integrated Flight Computer/aircraft/x10_f_cfg.ks (inferred preloaded)
23.8,APPROACH,ILS_TRACK,152.89,152,-0.89,482.81,403.54,-4.55,5.53,7.12,270,0.057,0.2105,0,18.295,1,0.6,4.5,0.75,0.35,0.0168,0.4,0,21.642,0,0.885,0,270,-3.783,0,1,-1.67,0,0,-3.72,270,0.4419,0,0.897,-3.78,270,-0.04,-6.93,7.931,0.004,-0.783,1,3,658.02,3.579,-3.783,489.94,0,0,0,,0,0,0,0,0,0,270.06,0,0,0,0,0,0,0,0,0,0,0,0,0,3,3,0,0,VALID,0,0,0,0,0,1,0,0,0,0,0,0,0,0,0,0,0,0,0,0,229.07,1097.33,2,0,0.12,0.12,167,8.33,0.12,0.12,23.8,FLYING,X10-F,0:/Integrated Flight Computer/aircraft/x10_f_cfg.ks (inferred preloaded)
24.16,APPROACH,ILS_TRACK,152.91,152,-0.91,481.1,401.72,-5.32,5.76,7.7,270,0.051,0.21,0,17.969,1,0.6,4.5,0.75,0.35,0.0168,0.4,0,21.635,0,0.909,0,270,-4.253,0,1,-1.98,0,0,-4.08,270,0.4494,0,0.8933,-4.25,270,-0.05,-5.63,7.874,0.005,-1.253,1,3,658.02,3.677,-4.253,486.92,0,0,0,,0,0,0,0,0,0,270.06,0,0,0,0,0,0,0,0,0,0,0,0,0,3,3,0,0,VALID,0,0,0,0,0,1,0,0,0,0,0,0,0,0,0,0,0,0,0,0,229,1097.58,2,0,0.12,0.12,170,8.33,0.12,0.12,24.16,FLYING,X10-F,0:/Integrated Flight Computer/aircraft/x10_f_cfg.ks (inferred preloaded)
24.52,APPROACH,ILS_TRACK,152.91,152,-0.91,479.15,399.78,-5.56,5.84,7.8,270,0.046,0.217,0,17.641,1,0.6,4.5,0.75,0.35,0.0168,0.4,0,21.634,0,0.912,0,270,-3.817,0,1,-2.06,0,0,-3.97,270,0.4426,0,0.8967,-3.82,270,-0.05,-4.53,7.816,0.004,-0.817,1,3,658.02,2.719,-3.817,483.91,0,0,0,,0,0,0,0,0,0,270.06,0,0,0,0,0,0,0,0,0,0,0,0,0,3,3,0,0,VALID,0,0,0,0,0,1,0,0,0,0,0,0,0,0,0,0,0,0,0,0,229.28,1097.75,2,0,0.12,0.12,173,8.33,0.12,0.12,24.52,FLYING,X10-F,0:/Integrated Flight Computer/aircraft/x10_f_cfg.ks (inferred preloaded)
24.78,APPROACH,ILS_TRACK,152.93,152,-0.93,477.66,398.26,-6.06,5.83,8.01,270,0.044,0.2079,0,17.4,1,0.6,4.5,0.75,0.35,0.0168,0.4,0,21.628,0,0.931,0,270,-3.948,0,1,-2.24,0,0,-3.84,270,0.4448,0,0.8957,-3.95,270,-0.05,-3.85,7.775,0.002,-0.948,1,3,658.02,2.627,-3.948,481.73,0,0,0,,0,0,0,0,0,0,270.06,0,0,0,0,0,0,0,0,0,0,0,0,0,3,3,0,0,VALID,0,0,0,0,0,1,0,0,0,0,0,0,0,0,0,0,0,0,0,0,229.65,1097.95,2,0,0.12,0.12,175,7.69,0.14,0.12,24.78,FLYING,X10-F,0:/Integrated Flight Computer/aircraft/x10_f_cfg.ks (inferred preloaded)
25.14,APPROACH,ILS_TRACK,152.92,152,-0.92,475.5,396.04,-6.29,6.1,8.34,270,0.037,0.2164,0,17.066,1,0.6,4.5,0.75,0.35,0.0168,0.4,0,21.631,0,0.924,0,270,-3.85,0,1,-2.34,0,0,-3.99,270,0.4433,0,0.8964,-3.85,270,-0.05,-2.97,7.717,0.002,-0.85,1,3,658.02,2.176,-3.85,478.72,0,0,0,,0,0,0,0,0,0,270.06,0,0,0,0,0,0,0,0,0,0,0,0,0,3,3,0,0,VALID,0,0,0,0,0,1,0,0,0,0,0,0,0,0,0,0,0,0,0,0,229.8,1098.1,2,0,0.12,0.12,178,8.33,0.12,0.12,25.14,FLYING,X10-F,0:/Integrated Flight Computer/aircraft/x10_f_cfg.ks (inferred preloaded)
25.5,APPROACH,ILS_TRACK,152.91,152,-0.91,473.21,393.71,-6.51,6.24,8.57,270,0.032,0.2201,0,16.734,1,0.6,4.5,0.75,0.35,0.0168,0.4,0,21.633,0,0.914,0,270,-3.848,0,1,-2.44,0,0,-3.95,270,0.4434,0,0.8963,-3.85,270,-0.05,-2.24,7.66,0.002,-0.848,1,3,658.02,1.899,-3.848,475.71,0,0,0,,0,0,0,0,0,0,270.06,0,0,0,0,0,0,0,0,0,0,0,0,0,3,3,0,0,VALID,0,0,0,0,0,1,0,0,0,0,0,0,0,0,0,0,0,0,0,0,230.32,1098.24,2,0,0.12,0.12,181,8.33,0.12,0.12,25.5,FLYING,X10-F,0:/Integrated Flight Computer/aircraft/x10_f_cfg.ks (inferred preloaded)
25.86,APPROACH,ILS_TRACK,152.9,152,-0.9,470.78,391.29,-6.97,6.15,8.65,270,0.031,0.2214,0,16.411,1,0.6,4.5,0.75,0.35,0.0168,0.4,0,21.638,0,0.897,0,270,-3.804,0,1,-2.59,0,0,-3.7,270,0.4428,0,0.8966,-3.8,270,-0.05,-1.66,7.602,0.002,-0.804,1,3,658.02,1.626,-3.804,472.7,0,0,0,,0,0,0,0,0,0,270.06,0,0,0,0,0,0,0,0,0,0,0,0,0,3,3,0,0,VALID,0,0,0,0,0,1,0,0,0,0,0,0,0,0,0,0,0,0,0,0,231.34,1098.37,2,0,0.12,0.12,184,8.33,0.12,0.12,25.86,FLYING,X10-F,0:/Integrated Flight Computer/aircraft/x10_f_cfg.ks (inferred preloaded)
26.22,APPROACH,ILS_TRACK,152.85,152,-0.85,468.27,388.77,-7,6.24,8.73,270,0.027,0.2356,0,16.096,1,0.6,4.5,0.75,0.35,0.0168,0.4,0,21.65,0,0.856,0,270,-3.6,0,1,-2.61,0,0,-3.81,270,0.4397,0,0.8982,-3.6,270,-0.05,-1.13,7.545,0,-0.6,1,3,658.02,1.176,-3.6,469.69,0,0,0,,0,0,0,0,0,0,270.06,0,0,0,0,0,0,0,0,0,0,0,0,0,3,3,0,0,VALID,0,0,0,0,0,1,0,0,0,0,0,0,0,0,0,0,0,0,0,0,232.36,1098.39,2,0,0.12,0.12,187,8.33,0.12,0.12,26.22,FLYING,X10-F,0:/Integrated Flight Computer/aircraft/x10_f_cfg.ks (inferred preloaded)
26.58,APPROACH,ILS_TRACK,152.84,152,-0.84,465.67,386.16,-7.45,6.19,8.89,270,0.026,0.2246,0,15.792,1,0.6,4.5,0.75,0.35,0.0168,0.4,0,21.653,0,0.843,0,270,-3.746,0,1,-2.78,0,0,-3.61,270,0.442,0,0.897,-3.75,270,-0.05,-0.73,7.487,0.001,-0.746,1,3,658.02,1.206,-3.746,466.69,0,0,0,,0,0,0,0,0,0,270.06,0,0,0,0,0,0,0,0,0,0,0,0,0,3,3,0,0,VALID,0,0,0,0,0,1,0,0,0,0,0,0,0,0,0,0,0,0,0,0,233.99,1098.56,2,0,0.12,0.12,190,8.33,0.12,0.12,26.58,FLYING,X10-F,0:/Integrated Flight Computer/aircraft/x10_f_cfg.ks (inferred preloaded)
26.94,APPROACH,ILS_TRACK,152.8,152,-0.8,462.97,383.5,-7.46,6.15,8.8,270,0.023,0.2336,0,15.497,1,0.6,4.5,0.75,0.35,0.0168,0.4,0,21.665,0,0.803,0,270,-3.4,0,1,-2.78,0,0,-3.56,270,0.4367,0,0.8996,-3.4,270,-0.05,-0.4,7.43,0.002,-0.4,1,3,658.02,0.65,-3.4,463.68,0,0,0,,0,0,0,0,0,0,270.06,0,0,0,0,0,0,0,0,0,0,0,0,0,3,3,0,0,VALID,0,0,0,0,0,1,0,0,0,0,0,0,0,0,0,0,0,0,0,0,235,1098.6,2,0,0.12,0.12,193,8.33,0.12,0.12,26.94,FLYING,X10-F,0:/Integrated Flight Computer/aircraft/x10_f_cfg.ks (inferred preloaded)
27.2,APPROACH,ILS_TRACK,152.81,152,-0.81,460.98,381.51,-7.82,6.06,8.87,270,0.022,0.2178,0,15.288,1,0.6,4.5,0.75,0.35,0.0168,0.4,0,21.664,0,0.806,0,270,-3.501,0,1,-2.91,0,0,-3.4,270,0.4383,0,0.8988,-3.5,270,-0.04,-0.23,7.389,0.001,-0.501,1,3,658.02,0.713,-3.501,461.51,0,0,0,,0,0,0,0,0,0,270.06,0,0,0,0,0,0,0,0,0,0,0,0,0,3,3,0,0,VALID,0,0,0,0,0,1,0,0,0,0,0,0,0,0,0,0,0,0,0,0,235.93,1098.78,2,0,0.12,0.12,195,7.69,0.14,0.12,27.2,FLYING,X10-F,0:/Integrated Flight Computer/aircraft/x10_f_cfg.ks (inferred preloaded)
27.56,APPROACH,ILS_TRACK,152.77,152,-0.77,458.22,378.68,-7.8,6.38,9.17,270,0.016,0.2232,0,15.003,1,0.6,4.5,0.75,0.35,0.0168,0.4,0,21.673,0,0.774,0,270,-3.433,0,1,-2.92,0,0,-3.65,270,0.4374,0,0.8993,-3.43,270,-0.04,0.03,7.331,0.002,-0.433,1,3,658.02,0.528,-3.433,458.5,0,0,0,,0,0,0,0,0,0,270.06,0,0,0,0,0,0,0,0,0,0,0,0,0,3,3,0,0,VALID,0,0,0,0,0,1,0,0,0,0,0,0,0,0,0,0,0,0,0,0,236.14,1098.86,2,0,0.12,0.12,198,8.33,0.12,0.12,27.56,FLYING,X10-F,0:/Integrated Flight Computer/aircraft/x10_f_cfg.ks (inferred preloaded)
27.92,APPROACH,ILS_TRACK,152.75,152,-0.75,455.33,375.82,-8.14,6.22,9.15,270,0.016,0.218,0,14.733,1,0.6,4.5,0.75,0.35,0.0168,0.4,0,21.68,0,0.749,0,270,-3.332,0,1,-3.03,0,0,-3.25,270,0.4359,0,0.9,-3.33,270,-0.04,0.15,7.274,0.001,-0.332,1,3,658.02,0.36,-3.332,455.5,0,0,0,,0,0,0,0,0,0,270.06,0,0,0,0,0,0,0,0,0,0,0,0,0,3,3,0,0,VALID,0,0,0,0,0,1,0,0,0,0,0,0,0,0,0,0,0,0,0,0,236.93,1099,2,0,0.12,0.12,201,8.33,0.12,0.12,27.92,FLYING,X10-F,0:/Integrated Flight Computer/aircraft/x10_f_cfg.ks (inferred preloaded)
28.28,APPROACH,ILS_TRACK,152.7,152,-0.7,452.49,372.86,-8.08,6.67,9.58,270,0.013,0.2304,0,14.472,1,0.6,4.5,0.75,0.35,0.0168,0.4,0,21.693,0,0.702,0,270,-3.389,0,1,-3.04,0,0,-3.56,270,0.4368,-0.0001,0.8995,-3.39,270,-0.04,0.32,7.217,0,-0.389,1,3,658.02,0.365,-3.389,452.5,0,0,0,,0,0,0,0,0,0,270.06,0,0,0,0,0,0,0,0,0,0,0,0,0,3,3,0,0,VALID,0,0,0,0,0,1,0,0,0,0,0,0,0,0,0,0,0,0,0,0,237.18,1099.03,2,0,0.12,0.12,204,8.33,0.12,0.12,28.28,FLYING,X10-F,0:/Integrated Flight Computer/aircraft/x10_f_cfg.ks (inferred preloaded)
28.64,APPROACH,ILS_TRACK,152.63,152,-0.63,449.51,369.93,-8.27,6.44,9.41,270,0.015,0.2414,0,14.239,1,0.6,4.5,0.75,0.35,0.0168,0.4,0,21.712,0,0.636,0,270,-3.142,0,1,-3.09,0,0,-3.08,270,0.433,-0.0001,0.9014,-3.14,270,-0.04,0.34,7.159,-0.001,-0.142,1,3,658.02,0.052,-3.142,449.5,0,0,0,,0,0,0,0,0,0,270.06,0,0,0,0,0,0,0,0,0,0,0,0,0,3,3,0,0,VALID,0,0,0,0,0,1,0,0,0,0,0,0,0,0,0,0,0,0,0,0,239.02,1099,2,0,0.12,0.12,207,8.33,0.12,0.12,28.64,FLYING,X10-F,0:/Integrated Flight Computer/aircraft/x10_f_cfg.ks (inferred preloaded)
29,APPROACH,ILS_TRACK,152.58,152,-0.58,446.6,366.92,-8.26,6.8,9.78,270,0.012,0.243,0,14.02,1,0.6,4.5,0.75,0.35,0.0168,0.4,0,21.725,0,0.587,0,270,-3.31,0,1,-3.11,0,0,-3.41,270,0.4358,0,0.9001,-3.31,270,-0.03,0.43,7.102,0,-0.31,1,3,658.02,0.225,-3.31,446.5,0,0,0,,0,0,0,0,0,0,270.06,0,0,0,0,0,0,0,0,0,0,0,0,0,3,3,0,0,VALID,0,0,0,0,0,1,0,0,0,0,0,0,0,0,0,0,0,0,0,0,240.71,1099.03,2,0,0.12,0.12,210,8.33,0.12,0.12,29,FLYING,X10-F,0:/Integrated Flight Computer/aircraft/x10_f_cfg.ks (inferred preloaded)
29.36,APPROACH,ILS_TRACK,152.52,152,-0.52,443.59,363.93,-8.41,6.69,9.72,270,0.013,0.2483,0,13.827,1,0.6,4.5,0.75,0.35,0.0168,0.4,0,21.743,0,0.524,0,270,-3.13,0,1,-3.14,0,0,-3.06,270,0.433,-0.0001,0.9014,-3.13,270,-0.03,0.42,7.045,-0.001,-0.13,1,3,658.02,0.005,-3.13,443.5,0,0,0,,0,0,0,0,0,0,270.06,0,0,0,0,0,0,0,0,0,0,0,0,0,3,3,0,0,VALID,0,0,0,0,0,1,0,0,0,0,0,0,0,0,0,0,0,0,0,0,243.01,1099.02,2,0,0.12,0.12,213,8.33,0.12,0.12,29.36,FLYING,X10-F,0:/Integrated Flight Computer/aircraft/x10_f_cfg.ks (inferred preloaded)
29.62,APPROACH,ILS_TRACK,152.48,152,-0.48,441.46,361.75,-8.3,6.89,9.89,270,0.012,0.2481,0,13.697,1,0.6,4.5,0.75,0.35,0.0168,0.4,0,21.754,0,0.487,0,270,-3.216,0,1,-3.13,0,0,-3.27,270,0.4344,0,0.9007,-3.22,270,-0.03,0.45,7.004,0,-0.216,1,3,658.02,0.1,-3.216,441.34,0,0,0,,0,0,0,0,0,0,270.06,0,0,0,0,0,0,0,0,0,0,0,0,0,3,3,0,0,VALID,0,0,0,0,0,1,0,0,0,0,0,0,0,0,0,0,0,0,0,0,244.5,1099.04,2,0,0.12,0.12,215,7.69,0.14,0.12,29.62,FLYING,X10-F,0:/Integrated Flight Computer/aircraft/x10_f_cfg.ks (inferred preloaded)
29.98,APPROACH,ILS_TRACK,152.43,152,-0.43,438.46,358.74,-8.4,6.88,9.93,270,0.013,0.2469,0,13.536,1,0.6,4.5,0.75,0.35,0.0168,0.4,0,21.768,0,0.435,0,270,-3.18,0,1,-3.16,0,0,-3.08,270,0.434,-0.0001,0.9009,-3.18,270,-0.03,0.44,6.947,-0.002,-0.18,1,3,658.02,0.059,-3.18,438.34,0,0,0,,0,0,0,0,0,0,270.06,0,0,0,0,0,0,0,0,0,0,0,0,0,3,3,0,0,VALID,0,0,0,0,0,1,0,0,0,0,0,0,0,0,0,0,0,0,0,0,246.66,1099.07,2,0,0.12,0.12,218,8.33,0.12,0.12,29.98,FLYING,X10-F,0:/Integrated Flight Computer/aircraft/x10_f_cfg.ks (inferred preloaded)
30.34,APPROACH,ILS_TRACK,152.39,152,-0.39,435.46,355.73,-8.37,6.95,9.98,270,0.011,0.243,0,13.39,1,0.6,4.5,0.75,0.35,0.0168,0.4,0,21.78,0,0.392,0,270,-3.16,0,1,-3.15,0,0,-3.1,270,0.4337,-0.0001,0.901,-3.16,270,-0.02,0.45,6.889,-0.002,-0.16,1,3,658.02,0.032,-3.16,435.35,0,0,0,,0,0,0,0,0,0,270.06,0,0,0,0,0,0,0,0,0,0,0,0,0,3,3,0,0,VALID,0,0,0,0,0,1,0,0,0,0,0,0,0,0,0,0,0,0,0,0,248.37,1099.14,2,0,0.12,0.12,221,8.33,0.12,0.12,30.34,FLYING,X10-F,0:/Integrated Flight Computer/aircraft/x10_f_cfg.ks (inferred preloaded)
30.7,APPROACH,ILS_TRACK,152.35,152,-0.35,432.46,352.73,-8.4,6.94,9.98,270,0.011,0.2401,0,13.259,1,0.6,4.5,0.75,0.35,0.0168,0.4,0,21.792,0,0.352,0,270,-3.133,0,1,-3.15,0,0,-3.06,270,0.4334,-0.0001,0.9012,-3.13,270,-0.02,0.44,6.832,-0.002,-0.133,1,3,658.02,0.002,-3.133,432.36,0,0,0,,0,0,0,0,0,0,270.06,0,0,0,0,0,0,0,0,0,0,0,0,0,3,3,0,0,VALID,0,0,0,0,0,1,0,0,0,0,0,0,0,0,0,0,0,0,0,0,249.7,1099.22,2,0,0.12,0.12,224,8.33,0.12,0.12,30.7,FLYING,X10-F,0:/Integrated Flight Computer/aircraft/x10_f_cfg.ks (inferred preloaded)
31.06,APPROACH,ILS_TRACK,152.3,152,-0.3,429.46,349.74,-8.28,6.91,9.88,270,0.01,0.2444,0,13.143,1,0.6,4.5,0.75,0.35,0.0168,0.4,0,21.805,0,0.304,0,270,-3.018,0,1,-3.11,0,0,-3.09,270,0.4317,0,0.902,-3.02,270,-0.02,0.43,6.775,0,-0.018,1,3,658.02,-0.138,-3.018,429.36,0,0,0,,0,0,0,0,0,0,270.06,0,0,0,0,0,0,0,0,0,0,0,0,0,3,3,0,0,VALID,0,0,0,0,0,1,0,0,0,0,0,0,0,0,0,0,0,0,0,0,250.73,1099.26,2,0,0.12,0.12,227,8.33,0.12,0.12,31.06,FLYING,X10-F,0:/Integrated Flight Computer/aircraft/x10_f_cfg.ks (inferred preloaded)
31.42,APPROACH,ILS_TRACK,152.27,152,-0.27,426.47,346.74,-8.28,6.96,9.94,270,0.01,0.2357,0,13.04,1,0.6,4.5,0.75,0.35,0.0168,0.4,0,21.813,0,0.277,0,270,-3.136,0,1,-3.11,0,0,-3.19,270,0.4336,-0.0001,0.9011,-3.14,270,-0.02,0.43,6.718,-0.001,-0.136,1,3,658.02,0.008,-3.136,426.38,0,0,0,,0,0,0,0,0,0,270.06,0,0,0,0,0,0,0,0,0,0,0,0,0,3,3,0,0,VALID,0,0,0,0,0,1,0,0,0,0,0,0,0,0,0,0,0,0,0,0,251.69,1099.39,2,0,0.12,0.12,230,8.33,0.12,0.12,31.42,FLYING,X10-F,0:/Integrated Flight Computer/aircraft/x10_f_cfg.ks (inferred preloaded)
31.78,APPROACH,ILS_TRACK,152.25,152,-0.25,423.48,343.75,-8.3,6.97,9.97,270,0.011,0.2297,0,12.947,1,0.6,4.5,0.75,0.35,0.0168,0.4,0,21.82,0,0.252,0,270,-3.163,0,1,-3.13,0,0,-3.13,270,0.4341,-0.0001,0.9009,-3.16,270,-0.01,0.43,6.661,-0.001,-0.163,1,3,658.02,0.043,-3.163,423.39,0,0,0,,0,0,0,0,0,0,270.06,0,0,0,0,0,0,0,0,0,0,0,0,0,3,3,0,0,VALID,0,0,0,0,0,1,0,0,0,0,0,0,0,0,0,0,0,0,0,0,252.16,1099.54,2,0,0.12,0.12,233,8.33,0.12,0.12,31.78,FLYING,X10-F,0:/Integrated Flight Computer/aircraft/x10_f_cfg.ks (inferred preloaded)
32.04,APPROACH,ILS_TRACK,152.24,152,-0.24,421.32,341.59,-8.34,6.94,9.96,270,0.011,0.2261,0,12.885,1,0.6,4.5,0.75,0.35,0.0168,0.4,0,21.824,0,0.237,0,270,-3.114,0,1,-3.13,0,0,-3.1,270,0.4334,-0.0001,0.9012,-3.11,270,-0.01,0.42,6.62,-0.001,-0.114,1,3,658.02,-0.015,-3.114,421.23,0,0,0,,0,0,0,0,0,0,270.06,0,0,0,0,0,0,0,0,0,0,0,0,0,3,3,0,0,VALID,0,0,0,0,0,1,0,0,0,0,0,0,0,0,0,0,0,0,0,0,252.19,1099.65,2,0,0.12,0.12,235,7.69,0.14,0.12,32.04,FLYING,X10-F,0:/Integrated Flight Computer/aircraft/x10_f_cfg.ks (inferred preloaded)
32.4,APPROACH,ILS_TRACK,152.22,152,-0.22,418.34,338.6,-8.34,6.96,9.99,270,0.011,0.2223,0,12.804,1,0.6,4.5,0.75,0.35,0.0168,0.4,0,21.83,0,0.218,0,270,-3.136,0,1,-3.13,0,0,-3.11,270,0.4338,-0.0001,0.901,-3.14,270,-0.01,0.42,6.563,-0.002,-0.136,1,3,658.02,0.011,-3.136,418.24,0,0,0,,0,0,0,0,0,0,270.06,0,0,0,0,0,0,0,0,0,0,0,0,0,3,3,0,0,VALID,0,0,0,0,0,1,0,0,0,0,0,0,0,0,0,0,0,0,0,0,251.63,1099.82,2,0,0.12,0.12,238,8.33,0.12,0.12,32.4,FLYING,X10-F,0:/Integrated Flight Computer/aircraft/x10_f_cfg.ks (inferred preloaded)
32.76,APPROACH,ILS_TRACK,152.19,152,-0.19,415.35,335.61,-8.33,6.95,9.96,270,0.011,0.2259,0,12.732,1,0.6,4.5,0.75,0.35,0.0168,0.4,0,21.838,0,0.189,0,270,-3.11,0,1,-3.12,0,0,-3.08,270,0.4335,-0.0001,0.9011,-3.11,270,0,0.42,6.506,-0.002,-0.11,1,3,658.02,-0.02,-3.11,415.25,0,0,0,,0,0,0,0,0,0,270.06,0,0,0,0,0,0,0,0,0,0,0,0,0,3,3,0,0,VALID,0,0,0,0,0,1,0,0,0,0,0,0,0,0,0,0,0,0,0,0,250.97,1099.94,2,0,0.12,0.12,241,8.33,0.12,0.12,32.76,FLYING,X10-F,0:/Integrated Flight Computer/aircraft/x10_f_cfg.ks (inferred preloaded)
33.12,APPROACH,ILS_TRACK,152.16,152,-0.16,412.36,332.63,-8.32,6.95,9.96,270,0.011,0.2275,0,12.671,1,0.6,4.5,0.75,0.35,0.0168,0.4,0,21.845,0,0.162,0,270,-3.11,0,1,-3.12,0,0,-3.12,270,0.4336,-0.0001,0.9011,-3.11,270,0,0.42,6.449,-0.002,-0.11,1,3,658.02,-0.021,-3.11,412.27,0,0,0,,0,0,0,0,0,0,270.06,0,0,0,0,0,0,0,0,0,0,0,0,0,3,3,0,0,VALID,0,0,0,0,0,1,0,0,0,0,0,0,0,0,0,0,0,0,0,0,250.73,1100.07,2,0,0.12,0.12,244,8.33,0.12,0.12,33.12,FLYING,X10-F,0:/Integrated Flight Computer/aircraft/x10_f_cfg.ks (inferred preloaded)
33.48,APPROACH,ILS_TRACK,152.12,152,-0.12,409.38,329.65,-8.21,6.97,9.93,270,0.01,0.2382,0,12.621,1,0.6,4.5,0.75,0.35,0.0168,0.4,0,21.857,0,0.12,0,270,-3.055,0,1,-3.09,0,0,-3.19,270,0.4328,-0.0001,0.9015,-3.06,270,0,0.43,6.392,-0.003,-0.055,1,3,658.02,-0.093,-3.055,409.29,0,0,0,,0,0,0,0,0,0,270.06,0,0,0,0,0,0,0,0,0,0,0,0,0,3,3,0,0,VALID,0,0,0,0,0,1,0,0,0,0,0,0,0,0,0,0,0,0,0,0,250.75,1100.14,2,0,0.12,0.12,247,8.33,0.12,0.12,33.48,FLYING,X10-F,0:/Integrated Flight Computer/aircraft/x10_f_cfg.ks (inferred preloaded)
33.84,APPROACH,ILS_TRACK,152.09,152,-0.09,406.42,326.66,-8.26,7.04,10.04,270,0.008,0.2362,0,12.585,1,0.6,4.5,0.75,0.35,0.0168,0.4,0,21.865,0,0.091,0,270,-3.257,0,1,-3.13,0,0,-3.18,270,0.4361,-0.0001,0.8999,-3.26,270,0.01,0.45,6.335,-0.002,-0.257,1,3,658.02,0.153,-3.257,406.3,0,0,0,,0,0,0,0,0,0,270.06,0,0,0,0,0,0,0,0,0,0,0,0,0,3,3,0,0,VALID,0,0,0,0,0,1,0,0,0,0,0,0,0,0,0,0,0,0,0,0,251.48,1100.27,2,0,0.12,0.12,250,8.33,0.12,0.12,33.84,FLYING,X10-F,0:/Integrated Flight Computer/aircraft/x10_f_cfg.ks (inferred preloaded)
34.2,APPROACH,ILS_TRACK,152.05,152,-0.05,403.41,323.71,-8.31,6.84,9.84,270,0.009,0.2424,0,12.564,1,0.6,4.5,0.75,0.35,0.0168,0.4,0,21.877,0,0.048,0,270,-3.059,0,1,-3.11,0,0,-3,270,0.4331,-0.0001,0.9014,-3.06,270,0.01,0.42,6.278,-0.002,-0.059,1,3,658.02,-0.083,-3.059,403.32,0,0,0,,0,0,0,0,0,0,270.06,0,0,0,0,0,0,0,0,0,0,0,0,0,3,3,0,0,VALID,0,0,0,0,0,1,0,0,0,0,0,0,0,0,0,0,0,0,0,0,252.52,1100.34,2,0,0.12,0.12,253,8.33,0.12,0.12,34.2,FLYING,X10-F,0:/Integrated Flight Computer/aircraft/x10_f_cfg.ks (inferred preloaded)
34.46,APPROACH,ILS_TRACK,152.03,152,-0.03,401.28,321.54,-8.26,6.98,9.97,270,0.008,0.2376,0,12.554,1,0.6,4.5,0.75,0.35,0.0168,0.4,0,21.881,0,0.035,0,270,-3.217,0,1,-3.12,0,0,-3.2,270,0.4356,-0.0001,0.9001,-3.22,270,0.01,0.44,6.237,-0.004,-0.217,1,3,658.02,0.106,-3.217,401.17,0,0,0,,0,0,0,0,0,0,270.06,0,0,0,0,0,0,0,0,0,0,0,0,0,3,3,0,0,VALID,0,0,0,0,0,1,0,0,0,0,0,0,0,0,0,0,0,0,0,0,253.2,1100.45,2,0,0.12,0.12,255,7.69,0.14,0.12,34.46,FLYING,X10-F,0:/Integrated Flight Computer/aircraft/x10_f_cfg.ks (inferred preloaded)
34.82,APPROACH,ILS_TRACK,152.01,152,-0.01,398.31,318.55,-8.37,7.01,10.06,270,0.008,0.2342,0,12.548,1,0.6,4.5,0.75,0.35,0.0168,0.4,0,21.887,0,0.013,0,270,-3.217,0,1,-3.16,0,0,-3.1,270,0.4357,-0.0001,0.9001,-3.22,270,0.01,0.45,6.18,-0.003,-0.217,1,3,658.02,0.104,-3.217,398.19,0,0,0,,0,0,0,0,0,0,270.06,0,0,0,0,0,0,0,0,0,0,0,0,0,3,3,0,0,VALID,0,0,0,0,0,1,0,0,0,0,0,0,0,0,0,0,0,0,0,0,253.88,1100.62,2,0,0.12,0.12,258,8.33,0.12,0.12,34.82,FLYING,X10-F,0:/Integrated Flight Computer/aircraft/x10_f_cfg.ks (inferred preloaded)
35.18,APPROACH,ILS_TRACK,151.97,152,0.03,395.31,315.59,-8.22,6.94,9.91,270,0.007,0.2476,0,12.554,1,0.6,4.5,0.75,0.35,0.0168,0.4,0,21.9,0,-0.032,0,269.99,-3.006,0,1,-3.09,0,0,-3.08,270,0.4325,-0.0001,0.9017,-3.01,269.99,0.02,0.43,6.123,-0.005,-0.006,1,3,658.02,-0.156,-3.006,395.21,0,0,0,,0,0,0,0,0,0,270.06,0,0,0,0,0,0,0,0,0,0,0,0,0,3,3,0,0,VALID,0,0,0,0,0,1,0,0,0,0,0,0,0,0,0,0,0,0,0,0,254.42,1100.67,2,0,0.12,0.12,261,8.33,0.12,0.12,35.18,FLYING,X10-F,0:/Integrated Flight Computer/aircraft/x10_f_cfg.ks (inferred preloaded)
35.51,APPROACH,ILS_TRACK,151.96,152,0.04,392.62,312.88,-8.26,7,10.01,270,0.006,0.2367,0,12.565,1,0.6,4.5,0.75,0.35,0.0168,0.4,0,21.902,0,-0.041,0,270,-3.214,0,1,-3.12,0,0,-3.19,270,0.4358,-0.0001,0.9,-3.21,270,0.02,0.44,6.073,-0.002,-0.214,1,3,658.02,0.101,-3.214,392.55,0,0,0,,0,0,0,0,0,0,270.06,0,0,0,0,0,0,0,0,0,0,0,0,0,3,3,0,0,VALID,0,0,0,0,0,1,0,0,0,0,0,0,0,0,0,0,0,0,0,0,255.29,1100.85,2,0,0.101,0.101,264,9.18,0.12,0.1,35.51,FLYING,X10-F,0:/Integrated Flight Computer/aircraft/x10_f_cfg.ks (inferred preloaded)
35.76,APPROACH,ILS_TRACK,151.95,152,0.05,390.48,310.75,-8.31,6.94,9.95,270,0.006,0.2355,0,12.578,1,0.6,4.5,0.75,0.35,0.0168,0.4,0,21.906,0,-0.053,0,270,-3.086,0,1,-3.12,0,0,-3.09,270,0.4338,-0.0001,0.901,-3.09,270,0.02,0.43,6.033,-0.003,-0.086,1,3,658.02,-0.055,-3.086,390.48,0,0,0,,0,0,0,0,0,0,270.06,0,0,0,0,0,0,0,0,0,0,0,0,0,3,3,0,0,VALID,0,0,0,0,0,1,0,0,0,0,0,0,0,0,0,0,0,0,0,0,255.59,1100.98,2,0,0.129,0.129,266,7.78,0.129,0.101,35.76,FLYING,X10-F,0:/Integrated Flight Computer/aircraft/x10_f_cfg.ks (inferred preloaded)
36.03,APPROACH,ILS_TRACK,151.94,152,0.06,388.25,308.51,-8.23,7,9.98,270,0.004,0.2314,0,12.593,1,0.6,4.5,0.75,0.35,0.0168,0.4,0,21.907,0,-0.058,0,270,-3.137,0,1,-3.1,0,0,-3.18,270,0.4347,-0.0001,0.9006,-3.14,270,0.02,0.44,5.991,-0.002,-0.137,1,3,658.02,0.006,-3.137,388.27,0,0,0,,0,0,0,0,0,0,270.06,0,0,0,0,0,0,0,0,0,0,0,0,0,3,3,0,0,VALID,0,0,0,0,0,1,0,0,0,0,0,0,0,0,0,0,0,0,0,0,255.74,1101.14,2,0,0.136,0.136,268,7.4,0.136,0.129,36.03,FLYING,X10-F,0:/Integrated Flight Computer/aircraft/x10_f_cfg.ks (inferred preloaded)
36.32,APPROACH,ILS_TRACK,151.93,152,0.07,385.91,306.16,-8.3,7,10.02,270,0.005,0.2298,0,12.611,1,0.6,4.5,0.75,0.35,0.0168,0.4,0,21.909,0,-0.066,0,270,-3.166,0,1,-3.13,0,0,-3.08,270,0.4352,-0.0001,0.9003,-3.17,270,0.03,0.44,5.947,-0.002,-0.166,1,3,658.02,0.043,-3.166,385.94,0,0,0,,0,0,0,0,0,0,270.06,0,0,0,0,0,0,0,0,0,0,0,0,0,3,3,0,0,VALID,0,0,0,0,0,1,0,0,0,0,0,0,0,0,0,0,0,0,0,0,255.7,1101.31,2,0,0.142,0.142,270,7.04,0.142,0.136,36.32,FLYING,X10-F,0:/Integrated Flight Computer/aircraft/x10_f_cfg.ks (inferred preloaded)
36.61,APPROACH,ILS_TRACK,151.93,152,0.07,383.45,303.69,-8.3,7.02,10.04,270,0.006,0.2291,0,12.632,1,0.6,4.5,0.75,0.35,0.0168,0.4,0,21.912,0,-0.073,0,270,-3.133,0,1,-3.13,0,0,-3.14,270,0.4348,-0.0001,0.9005,-3.13,270,0.03,0.44,5.9,-0.002,-0.133,1,3,658.02,0.001,-3.133,383.5,0,0,0,,0,0,0,0,0,0,270.06,0,0,0,0,0,0,0,0,0,0,0,0,0,3,3,0,0,VALID,0,0,0,0,0,1,0,0,0,0,0,0,0,0,0,0,0,0,0,0,255.46,1101.48,2,0,0.149,0.149,272,6.72,0.149,0.142,36.61,FLYING,X10-F,0:/Integrated Flight Computer/aircraft/x10_f_cfg.ks (inferred preloaded)
