t_s,phase,subphase,ias_ms,vapp_ms,spd_err_ms,agl_m,vs_ms,pitch_deg,aoa_deg,hdg_deg,bank_deg,thr_cmd,thr_cur,thr_intg,at_gain,at_tau_s,at_a_up,at_a_dn,at_kp_thr,at_ki_spd,at_thr_slew,aa_hdg_cmd_deg,aa_fpa_cmd_deg,aa_fbw,aa_dir,actual_fpa_deg,ftf_hdg_err_deg,ftf_fix_idx,kos_steer_pit_deg,kos_steer_hdg_deg,aa_dir_vx,aa_dir_vy,aa_dir_vz,aa_dir_pitch_deg,aa_dir_hdg_deg,ils_loc_m,ils_gs_m,ils_dist_km,loc_corr_deg,gs_corr_deg,flare_fpa_cmd,flare_tgt_vs,flare_frac,steer_hdg_deg,steer_blend,ro_loc_corr_deg,ro_hdg_err_deg,ro_yaw_tgt,ro_yaw_scale,ro_yaw_gate,yaw_cmd,roll_cmd,pitch_cmd,ro_pitch_tgt_deg,ro_pitch_err_deg,ro_pitch_ff,ro_roll_assist,flaps_cur,flaps_tgt,asc_j_ab,asc_j_rk,asc_validity,asc_q_pa,asc_q_raw_pa,asc_mach,asc_apo_m,asc_drag_n,asc_w_prop,asc_edot_aero,asc_edot_orb,asc_pitch_bias,asc_blend,asc_spooling,asc_ab_thr_ratio,asc_ab_t_now,asc_ab_t_avail,asc_ab_ign_on,asc_ab_flameouts,asc_rk_t_now,asc_rk_t_avail,asc_rk_ign_on,asc_rk_flameouts,ship_thrust,ship_avail_thrust,ship_ign_on,ship_flameouts,ifc_raw_dt_s,ifc_dt_s,ifc_loop_n,ifc_hz_est,ifc_raw_dt_max_s,ifc_raw_dt_min_s,phase_el_s,status,craft_name,cfg_file
0.1,APPROACH,ILS_TRACK,68.49,73,4.51,2266.86,-2.28,4.95,6.72,271.29,1.323,0,0,0,0,0,0,0,0,0,0,0,0,1,0,-1.9,0,0,0,90,0,0,0,0,0,0,0,33.969,0,0,0,0,0,271.22,0,0,0,0,0,0,0,0,0,0,0,0,0,0,0,0,0,VALID,0,0,0,0,0,1,0,0,0,0,0,0,0,0,0,0,0,0,0,0,209.69,365.85,2,0,0.1,0.1,1,3.7,0.1,0.02,0.1,FLYING,CF1-F,0:/Integrated Flight Computer/aircraft/cf1_f_cfg.ks (inferred preloaded)
0.4,APPROACH,ILS_TRACK,69.18,73,3.82,2265.57,-3.54,2.64,5.07,271.44,1.502,0,0,1.131,1,0.6,1.027,0.75,0.35,0.0168,0.4,270.4,-5.083,0,1,-2.86,0,0,0.39,270.39,0.9205,0.0069,0.3906,0.05,270.4,-1.16,416.59,33.947,-0.004,0,0,0,0,271.22,0,0,0,0,0,0,0,0,0,0,0,0,0,1,1,0,0,VALID,0,0,0,0,0,1,0,0,0,0,0,0,0,0,0,0,0,0,0,0,194.64,365.45,2,0,0.08,0.08,4,10,0.1,0.08,0.4,FLYING,CF1-F,0:/Integrated Flight Computer/aircraft/cf1_f_cfg.ks (inferred preloaded)
0.66,APPROACH,ILS_TRACK,69.79,73,3.21,2264.31,-4.86,1.65,4.96,271.43,1.343,0,0,2.018,1,0.6,1.825,0.75,0.35,0.0168,0.4,270.35,-5.082,0,1,-3.9,0,0,-0.26,270.37,0.922,0.0062,0.3871,-0.17,270.35,-1.08,416.46,33.925,-0.047,0,0,0,0,271.22,0,0,0,0,0,0,0,0,0,0,0,0,0,1,1,0,0,VALID,0,0,0,0,0,1,0,0,0,0,0,0,0,0,0,0,0,0,0,0,182.19,365.1,2,0,0.1,0.1,7,11.54,0.1,0.06,0.66,FLYING,CF1-F,0:/Integrated Flight Computer/aircraft/cf1_f_cfg.ks (inferred preloaded)
1,APPROACH,ILS_TRACK,70.56,73,2.44,2262.52,-6.26,2.37,6.63,271.17,1.157,0,0,2.945,1,0.6,2.62,0.75,0.35,0.0168,0.4,270.32,-5.081,0,1,-5.02,0,0,0.87,270.33,0.9108,0.0056,0.4128,1.44,270.32,-0.94,416.15,33.897,-0.077,0,0,0,0,271.22,0,0,0,0,0,0,0,0,0,0,0,0,0,1,1,0,0,VALID,0,0,0,0,0,1,0,0,0,0,0,0,0,0,0,0,0,0,0,0,167.11,364.68,2,0,0.1,0.1,11,11.76,0.1,0.06,1,FLYING,CF1-F,0:/Integrated Flight Computer/aircraft/cf1_f_cfg.ks (inferred preloaded)
1.32,APPROACH,ILS_TRACK,71.2,73,1.8,2260.49,-6.94,2.98,7.69,270.96,1.047,0,0,3.595,1,0.6,3.189,0.75,0.35,0.0168,0.4,270.3,-5.078,0,1,-5.54,0,0,2.37,270.33,0.9024,0.0053,0.4309,2.59,270.3,-0.79,415.54,33.871,-0.095,0,0,0,0,271.22,0,0,0,0,0,0,0,0,0,0,0,0,0,1,1,0,0,VALID,0,0,0,0,0,1,0,0,0,0,0,0,0,0,0,0,0,0,0,0,154.1,364.36,2,0,0.1,0.1,15,12.5,0.1,0.06,1.32,FLYING,CF1-F,0:/Integrated Flight Computer/aircraft/cf1_f_cfg.ks (inferred preloaded)
1.66,APPROACH,ILS_TRACK,71.78,73,1.22,2257.84,-7.45,1.97,6.98,270.87,0.993,0,0,4.083,1,0.6,3.595,0.75,0.35,0.0168,0.4,270.3,-5.072,0,1,-5.9,0,0,2.41,270.31,0.9067,0.0051,0.4217,2.01,270.3,-0.62,414.42,33.842,-0.104,0,0,0,0,271.22,0,0,0,0,0,0,0,0,0,0,0,0,0,1,1,0,0,VALID,0,0,0,0,0,1,0,0,0,0,0,0,0,0,0,0,0,0,0,0,141.4,364.09,2,0,0.1,0.1,19,11.76,0.1,0.06,1.66,FLYING,CF1-F,0:/Integrated Flight Computer/aircraft/cf1_f_cfg.ks (inferred preloaded)
2,APPROACH,ILS_TRACK,72.37,73,0.63,2254.73,-8.54,-0.43,5.24,270.85,0.893,0,0,4.375,1,0.6,3.885,0.75,0.35,0.0168,0.4,270.27,-5.064,0,1,-6.67,0,0,0.67,270.31,0.9193,0.0048,0.3935,0.24,270.27,-0.45,412.83,33.813,-0.126,0,0,0,0,271.22,0,0,0,0,0,0,0,0,0,0,0,0,0,1,1,0,0,VALID,0,0,0,0,0,1,0,0,0,0,0,0,0,0,0,0,0,0,0,0,129.76,363.82,2,0,0.1,0.1,23,11.76,0.1,0.06,2,FLYING,CF1-F,0:/Integrated Flight Computer/aircraft/cf1_f_cfg.ks (inferred preloaded)
2.32,APPROACH,ILS_TRACK,72.98,73,0.02,2251.6,-9.85,-1.43,5.08,270.85,0.814,0,0,4.453,1,0.6,4.092,0.75,0.35,0.0168,0.4,270.26,-5.056,0,1,-7.64,0,0,-0.03,270.3,0.9209,0.0046,0.3898,0.01,270.26,-0.27,411.14,33.786,-0.137,0,0,0,0,271.22,0,0,0,0,0,0,0,0,0,0,0,0,0,1,1,0,0,VALID,0,0,0,0,0,1,0,0,0,0,0,0,0,0,0,0,0,0,0,0,119.67,363.55,2,0,0.1,0.1,27,12.5,0.1,0.06,2.32,FLYING,CF1-F,0:/Integrated Flight Computer/aircraft/cf1_f_cfg.ks (inferred preloaded)
2.66,APPROACH,ILS_TRACK,73.61,73,-0.61,2247.84,-10.99,-2.62,4.59,270.86,0.755,0,0,4.365,1,0.6,4.239,0.75,0.35,0.0168,0.4,270.26,-5.045,0,1,-8.44,0,0,-0.15,270.26,0.9237,0.0045,0.3831,-0.4,270.26,-0.08,408.94,33.757,-0.145,0,0,0,0,271.22,0,0,0,0,0,0,0,0,0,0,0,0,0,1,1,0,0,VALID,0,0,0,0,0,1,0,0,0,0,0,0,0,0,0,0,0,0,0,0,109.82,363.3,2,0,0.1,0.1,31,11.76,0.1,0.06,2.66,FLYING,CF1-F,0:/Integrated Flight Computer/aircraft/cf1_f_cfg.ks (inferred preloaded)
2.98,APPROACH,ILS_TRACK,74.22,73,-1.22,2243.92,-12.43,-3.63,4.46,270.87,0.706,0,0,4.278,1,0.6,4.344,0.75,0.35,0.0168,0.4,270.23,-5.032,0,1,-9.44,0,0,-0.73,270.26,0.9252,0.0041,0.3795,-0.62,270.23,0.12,406.48,33.73,-0.168,0,0,0,0,271.22,0,0,0,0,0,0,0,0,0,0,0,0,0,1,1,0,0,VALID,0,0,0,0,0,1,0,0,0,0,0,0,0,0,0,0,0,0,0,0,101.29,363.07,2,0,0.1,0.1,35,12.5,0.1,0.06,2.98,FLYING,CF1-F,0:/Integrated Flight Computer/aircraft/cf1_f_cfg.ks (inferred preloaded)
3.32,APPROACH,ILS_TRACK,74.85,73,-1.85,2239.66,-13.79,-2.5,6.44,270.89,0.535,0,0,4.193,1,0.6,4.418,0.75,0.35,0.0168,0.4,270.22,-5.019,0,1,-10.4,0,0,0.47,270.23,0.9123,0.0038,0.4095,1.25,270.22,0.34,403.76,33.7,-0.179,0,0,0,0,271.22,0,0,0,0,0,0,0,0,0,0,0,0,0,1,1,0,0,VALID,0,0,0,0,0,1,0,0,0,0,0,0,0,0,0,0,0,0,0,0,92.96,362.86,2,0,0.1,0.1,39,11.76,0.1,0.06,3.32,FLYING,CF1-F,0:/Integrated Flight Computer/aircraft/cf1_f_cfg.ks (inferred preloaded)
3.66,APPROACH,ILS_TRACK,75.36,73,-2.36,2235.35,-14.15,0.36,9.54,270.91,0.39,0,0,4.11,1,0.6,4.47,0.75,0.35,0.0168,0.4,270.21,-5.005,0,1,-10.65,0,0,3.57,270.22,0.8885,0.0036,0.4589,4.4,270.21,0.56,401.01,33.671,-0.188,0,0,0,0,271.22,0,0,0,0,0,0,0,0,0,0,0,0,0,1,1,0,0,VALID,0,0,0,0,0,1,0,0,0,0,0,0,0,0,0,0,0,0,0,0,85.34,362.74,2,0,0.1,0.1,43,11.76,0.1,0.06,3.66,FLYING,CF1-F,0:/Integrated Flight Computer/aircraft/cf1_f_cfg.ks (inferred preloaded)
3.98,APPROACH,ILS_TRACK,75.65,73,-2.65,2231.05,-13.72,1.42,10.3,270.94,0.458,0,0,4.029,1,0.6,4.5,0.75,0.35,0.0168,0.4,270.19,-4.991,0,1,-10.3,0,0,5.3,270.2,0.881,0.0032,0.4731,5.32,270.19,0.79,398.2,33.643,-0.207,0,0,0,0,271.22,0,0,0,0,0,0,0,0,0,0,0,0,0,1,1,0,0,VALID,0,0,0,0,0,1,0,0,0,0,0,0,0,0,0,0,0,0,0,0,78.76,362.74,2,0,0.1,0.1,47,12.5,0.1,0.06,3.98,FLYING,CF1-F,0:/Integrated Flight Computer/aircraft/cf1_f_cfg.ks (inferred preloaded)
4.3,APPROACH,ILS_TRACK,75.89,73,-2.89,2226.67,-13.53,1.2,9.91,270.95,0.36,0,0,3.949,1,0.6,4.5,0.75,0.35,0.0168,0.4,270.18,-4.976,0,1,-10.11,0,0,5.03,270.18,0.8841,0.003,0.4673,4.95,270.18,1.02,395.28,33.615,-0.224,0,0,0,0,271.22,0,0,0,0,0,0,0,0,0,0,0,0,0,1,1,0,0,VALID,0,0,0,0,0,1,0,0,0,0,0,0,0,0,0,0,0,0,0,0,72.7,362.78,2,0,0.1,0.1,51,12.5,0.1,0.06,4.3,FLYING,CF1-F,0:/Integrated Flight Computer/aircraft/cf1_f_cfg.ks (inferred preloaded)
4.64,APPROACH,ILS_TRACK,76.11,73,-3.11,2222.21,-13.45,1.89,10.53,270.93,0.155,0,0,3.87,1,0.6,4.5,0.75,0.35,0.0168,0.4,270.17,-4.962,0,1,-10.03,0,0,5.18,270.14,0.8797,0.0029,0.4756,5.49,270.17,1.27,392.37,33.585,-0.228,0,0,0,0,271.22,0,0,0,0,0,0,0,0,0,0,0,0,0,1,1,0,0,VALID,0,0,0,0,0,1,0,0,0,0,0,0,0,0,0,0,0,0,0,0,66.77,362.84,2,0,0.1,0.1,55,11.76,0.1,0.06,4.64,FLYING,CF1-F,0:/Integrated Flight Computer/aircraft/cf1_f_cfg.ks (inferred preloaded)
4.98,APPROACH,ILS_TRACK,76.23,73,-3.23,2218.06,-12.96,3.88,12.22,270.9,-0.014,0,0,3.793,1,0.6,4.5,0.75,0.35,0.0168,0.4,270.14,-6.13,0,1,-9.68,0,0,6,270.17,0.8754,0.0023,0.4834,6,270.14,1.53,389.77,33.555,-0.258,0,0,0,0,271.22,0,0,0,0,0,0,0,0,0,0,0,0,0,1,1,0,0,VALID,0,0,0,0,0,1,0,0,0,0,0,0,0,0,0,0,0,0,0,0,61.34,362.96,2,0,0.1,0.1,59,11.76,0.1,0.06,4.98,FLYING,CF1-F,0:/Integrated Flight Computer/aircraft/cf1_f_cfg.ks (inferred preloaded)
5.3,APPROACH,ILS_TRACK,76.22,73,-3.22,2214.35,-12.06,5.59,13.37,270.86,-0.157,0,0,3.718,1,0.6,4.5,0.75,0.35,0.0168,0.4,270.14,-7.313,0,1,-9.04,0,0,6,270.13,0.8754,0.0023,0.4833,6,270.14,1.78,387.53,33.526,-0.258,0,0,0,0,271.22,0,0,0,0,0,0,0,0,0,0,0,0,0,1,1,0,0,VALID,0,0,0,0,0,1,0,0,0,0,0,0,0,0,0,0,0,0,0,0,56.64,363.15,2,0,0.1,0.1,63,12.5,0.1,0.06,5.3,FLYING,CF1-F,0:/Integrated Flight Computer/aircraft/cf1_f_cfg.ks (inferred preloaded)
5.64,APPROACH,ILS_TRACK,76.07,73,-3.07,2210.67,-10.93,6.92,13.99,270.82,-0.293,0,0,3.644,1,0.6,4.5,0.75,0.35,0.0168,0.4,270.13,-7.963,0,1,-8.22,0,0,6,270.15,0.8755,0.0021,0.4833,6,270.13,2.03,385.41,33.496,-0.27,0,0,0,0,271.22,0,0,0,0,0,0,0,0,0,0,0,0,0,1,1,0,0,VALID,0,0,0,0,0,1,0,0,0,0,0,0,0,0,0,0,0,0,0,0,52.05,363.42,2,0,0.1,0.1,67,11.76,0.1,0.06,5.64,FLYING,CF1-F,0:/Integrated Flight Computer/aircraft/cf1_f_cfg.ks (inferred preloaded)
5.98,APPROACH,ILS_TRACK,75.84,73,-2.84,2207.33,-9.74,7.85,14.18,270.77,-0.41,0.0289,0,3.15,1,0.6,4.5,0.75,0.35,0.0168,0.4,270.13,-8.175,0,1,-7.37,0,0,6,270.1,0.8755,0.0021,0.4832,6,270.13,2.28,383.61,33.466,-0.27,0,0,0,0,271.22,0,0,0,0,0,0,0,0,0,0,0,0,0,1,1,0,0,VALID,0,0,0,0,0,1,0,0,0,0,0,0,0,0,0,0,0,0,0,0,47.86,363.74,2,0,0.1,0.1,71,11.76,0.1,0.06,5.98,FLYING,CF1-F,0:/Integrated Flight Computer/aircraft/cf1_f_cfg.ks (inferred preloaded)
6.32,APPROACH,ILS_TRACK,75.54,73,-2.54,2204.33,-8.61,8.52,14.13,270.72,-0.505,0.1133,0,2.248,1,0.6,4.5,0.75,0.35,0.0168,0.4,270.12,-8.135,0,1,-6.55,0,0,6,270.12,0.8755,0.002,0.4832,6,270.12,2.52,382.17,33.436,-0.279,0,0,0,0,271.22,0,0,0,0,0,0,0,0,0,0,0,0,0,1,1,0,0,VALID,0,0,0,0,0,1,0,0,0,0,0,0,0,0,0,0,0,0,0,0,45.57,364.07,2,0,0.1,0.1,75,11.76,0.1,0.06,6.32,FLYING,CF1-F,0:/Integrated Flight Computer/aircraft/cf1_f_cfg.ks (inferred preloaded)
6.66,APPROACH,ILS_TRACK,75.21,73,-2.21,2201.69,-7.54,9.07,14.01,270.68,-0.577,0.1742,0,1.454,1,0.6,4.5,0.75,0.35,0.0168,0.4,270.12,-8.015,0,1,-5.77,0,0,6,270.14,0.8755,0.002,0.4832,6,270.12,2.74,381.07,33.407,-0.278,0,0,0,0,271.22,0,0,0,0,0,0,0,0,0,0,0,0,0,1,1,0,0,VALID,0,0,0,0,0,1,0,0,0,0,0,0,0,0,0,0,0,0,0,0,45.51,364.41,2,0,0.1,0.1,79,11.76,0.1,0.06,6.66,FLYING,CF1-F,0:/Integrated Flight Computer/aircraft/cf1_f_cfg.ks (inferred preloaded)
6.92,APPROACH,ILS_TRACK,74.95,73,-1.95,2199.9,-6.77,9.43,13.89,270.64,-0.618,0.2085,0,0.925,1,0.6,4.5,0.75,0.35,0.0168,0.4,270.14,-7.896,0,1,-5.2,0,0,6,270.13,0.8756,0.0023,0.4831,6,270.14,2.9,380.46,33.384,-0.257,0,0,0,0,271.22,0,0,0,0,0,0,0,0,0,0,0,0,0,1,1,0,0,VALID,0,0,0,0,0,1,0,0,0,0,0,0,0,0,0,0,0,0,0,0,45.85,364.67,2,0,0.08,0.08,82,11.54,0.1,0.08,6.92,FLYING,CF1-F,0:/Integrated Flight Computer/aircraft/cf1_f_cfg.ks (inferred preloaded)
7.18,APPROACH,ILS_TRACK,74.68,73,-1.68,2198.3,-6.05,9.75,13.74,270.61,-0.646,0.2366,0,0.466,1,0.6,4.5,0.75,0.35,0.0168,0.4,270.13,-7.75,0,1,-4.67,0,0,6,270.15,0.8756,0.0022,0.4831,6,270.13,3.05,380.02,33.361,-0.267,0,0,0,0,271.22,0,0,0,0,0,0,0,0,0,0,0,0,0,1,1,0,0,VALID,0,0,0,0,0,1,0,0,0,0,0,0,0,0,0,0,0,0,0,0,46.38,364.92,2,0,0.1,0.1,85,11.54,0.1,0.06,7.18,FLYING,CF1-F,0:/Integrated Flight Computer/aircraft/cf1_f_cfg.ks (inferred preloaded)
7.44,APPROACH,ILS_TRACK,74.4,73,-1.4,2196.87,-5.37,10.01,13.57,270.59,-0.664,0.2601,0,0.077,1,0.6,4.5,0.75,0.35,0.0168,0.4,270.14,-7.589,0,1,-4.17,0,0,6,270.14,0.8756,0.0023,0.4831,6,270.14,3.19,379.76,33.339,-0.261,0,0,0,0,271.22,0,0,0,0,0,0,0,0,0,0,0,0,0,1,1,0,0,VALID,0,0,0,0,0,1,0,0,0,0,0,0,0,0,0,0,0,0,0,0,47.05,365.16,2,0,0.08,0.08,88,11.54,0.1,0.08,7.44,FLYING,CF1-F,0:/Integrated Flight Computer/aircraft/cf1_f_cfg.ks (inferred preloaded)
7.7,APPROACH,ILS_TRACK,74.13,73,-1.13,2195.59,-4.74,10.2,13.36,270.56,-0.67,0.2798,0,-0.24,1,0.6,4.5,0.75,0.35,0.0168,0.4,270.17,-7.379,0,1,-3.7,0,0,6,270.15,0.8756,0.0027,0.483,6,270.17,3.31,379.65,33.316,-0.235,0,0,0,0,271.22,0,0,0,0,0,0,0,0,0,0,0,0,0,1,1,0,0,VALID,0,0,0,0,0,1,0,0,0,0,0,0,0,0,0,0,0,0,0,0,47.85,365.4,2,0,0.1,0.1,91,11.54,0.1,0.06,7.7,FLYING,CF1-F,0:/Integrated Flight Computer/aircraft/cf1_f_cfg.ks (inferred preloaded)
7.96,APPROACH,ILS_TRACK,73.86,73,-0.86,2194.45,-4.21,10.26,13.07,270.54,-0.668,0.2948,0,-0.486,1,0.6,4.5,0.75,0.35,0.0168,0.4,270.14,-7.082,0,1,-3.29,0,0,6,270.16,0.8756,0.0023,0.483,6,270.14,3.44,379.67,33.294,-0.259,0,0,0,0,271.22,0,0,0,0,0,0,0,0,0,0,0,0,0,1,1,0,0,VALID,0,0,0,0,0,1,0,0,0,0,0,0,0,0,0,0,0,0,0,0,48.74,365.63,2,0,0.08,0.08,94,11.54,0.1,0.08,7.96,FLYING,CF1-F,0:/Integrated Flight Computer/aircraft/cf1_f_cfg.ks (inferred preloaded)
8.22,APPROACH,ILS_TRACK,73.59,73,-0.59,2193.47,-3.73,10.55,13.05,270.52,-0.659,0.3081,0,-0.663,1,0.6,4.5,0.75,0.35,0.0168,0.4,270.16,-7.052,0,1,-2.93,0,0,6,270.14,0.8756,0.0026,0.483,6,270.16,3.54,379.85,33.271,-0.241,0,0,0,0,271.22,0,0,0,0,0,0,0,0,0,0,0,0,0,1,1,0,0,VALID,0,0,0,0,0,1,0,0,0,0,0,0,0,0,0,0,0,0,0,0,49.7,365.85,2,0,0.1,0.1,97,11.54,0.1,0.06,8.22,FLYING,CF1-F,0:/Integrated Flight Computer/aircraft/cf1_f_cfg.ks (inferred preloaded)
8.48,APPROACH,ILS_TRACK,73.33,73,-0.33,2192.61,-3.26,10.8,13,270.5,-0.647,0.325,0,-0.771,1,0.6,4.5,0.75,0.35,0.0168,0.4,270.15,-7.002,0,1,-2.58,0,0,6,270.17,0.8757,0.0025,0.4829,6,270.15,3.64,380.15,33.249,-0.25,0,0,0,0,271.22,0,0,0,0,0,0,0,0,0,0,0,0,0,1,1,0,0,VALID,0,0,0,0,0,1,0,0,0,0,0,0,0,0,0,0,0,0,0,0,50.72,366.07,2,0,0.08,0.08,100,11.54,0.1,0.08,8.48,FLYING,CF1-F,0:/Integrated Flight Computer/aircraft/cf1_f_cfg.ks (inferred preloaded)
8.74,APPROACH,ILS_TRACK,73.05,73,-0.05,2191.87,-2.82,11.1,13.01,270.48,-0.631,0.3455,0,-0.808,1,0.6,4.5,0.75,0.35,0.0168,0.4,270.17,-7.008,0,1,-2.24,0,0,6,270.18,0.8757,0.0028,0.4829,6,270.17,3.73,380.57,33.227,-0.23,0,0,0,0,271.22,0,0,0,0,0,0,0,0,0,0,0,0,0,1,1,0,0,VALID,0,0,0,0,0,1,0,0,0,0,0,0,0,0,0,0,0,0,0,0,51.82,366.28,2,0,0.1,0.1,103,11.54,0.1,0.06,8.74,FLYING,CF1-F,0:/Integrated Flight Computer/aircraft/cf1_f_cfg.ks (inferred preloaded)
9,APPROACH,ILS_TRACK,72.78,73,0.22,2191.24,-2.39,11.36,12.98,270.46,-0.613,0.3688,0,-0.774,1,0.6,4.5,0.75,0.35,0.0168,0.4,270.17,-6.987,0,1,-1.91,0,0,6,270.18,0.8757,0.0028,0.4829,6,270.17,3.81,381.09,33.205,-0.232,0,0,0,0,271.22,0,0,0,0,0,0,0,0,0,0,0,0,0,1,1,0,0,VALID,0,0,0,0,0,1,0,0,0,0,0,0,0,0,0,0,0,0,0,0,53.03,366.49,2,0,0.08,0.08,106,11.54,0.1,0.08,9,FLYING,CF1-F,0:/Integrated Flight Computer/aircraft/cf1_f_cfg.ks (inferred preloaded)
9.26,APPROACH,ILS_TRACK,72.5,73,0.5,2190.72,-2.01,11.6,12.98,270.45,-0.593,0.3929,0,-0.668,1,0.6,4.5,0.75,0.35,0.0168,0.4,270.17,-6.972,0,1,-1.61,0,0,6,270.17,0.8757,0.0029,0.4828,6,270.17,3.88,381.72,33.183,-0.227,0,0,0,0,271.22,0,0,0,0,0,0,0,0,0,0,0,0,0,1,1,0,0,VALID,0,0,0,0,0,1,0,0,0,0,0,0,0,0,0,0,0,0,0,0,54.36,366.7,2,0,0.1,0.1,109,11.54,0.1,0.06,9.26,FLYING,CF1-F,0:/Integrated Flight Computer/aircraft/cf1_f_cfg.ks (inferred preloaded)
9.52,APPROACH,ILS_TRACK,72.22,73,0.78,2190.32,-1.64,12.03,13.16,270.43,-0.575,0.42,0,-0.49,1,0.6,4.5,0.75,0.35,0.0168,0.4,270.19,-7.148,0,1,-1.33,0,0,6,270.18,0.8757,0.0031,0.4828,6,270.19,3.95,382.46,33.161,-0.213,0,0,0,0,271.22,0,0,0,0,0,0,0,0,0,0,0,0,0,1,1,0,0,VALID,0,0,0,0,0,1,0,0,0,0,0,0,0,0,0,0,0,0,0,0,55.81,366.91,2,0,0.08,0.08,112,11.54,0.1,0.08,9.52,FLYING,CF1-F,0:/Integrated Flight Computer/aircraft/cf1_f_cfg.ks (inferred preloaded)
9.78,APPROACH,ILS_TRACK,71.93,73,1.07,2190.01,-1.24,12.4,13.26,270.41,-0.557,0.4522,0,-0.238,1,0.6,4.5,0.75,0.35,0.0168,0.4,270.19,-7.256,0,1,-1.01,0,0,6,270.17,0.8757,0.0032,0.4828,6,270.19,4,383.29,33.139,-0.21,0,0,0,0,271.22,0,0,0,0,0,0,0,0,0,0,0,0,0,1,1,0,0,VALID,0,0,0,0,0,1,0,0,0,0,0,0,0,0,0,0,0,0,0,0,57.4,367.11,2,0,0.1,0.1,115,11.54,0.1,0.06,9.78,FLYING,CF1-F,0:/Integrated Flight Computer/aircraft/cf1_f_cfg.ks (inferred preloaded)
10.04,APPROACH,ILS_TRACK,71.64,73,1.36,2189.79,-0.86,12.71,13.32,270.39,-0.537,0.4861,0,0.091,1,0.6,4.5,0.75,0.35,0.0168,0.4,270.2,-7.313,0,1,-0.71,0,0,6,270.18,0.8758,0.0033,0.4827,6,270.2,4.05,384.21,33.117,-0.201,0,0,0,0,271.22,0,0,0,0,0,0,0,0,0,0,0,0,0,1,1,0,0,VALID,0,0,0,0,0,1,0,0,0,0,0,0,0,0,0,0,0,0,0,0,59.14,367.32,2,0,0.08,0.08,118,11.54,0.1,0.08,10.04,FLYING,CF1-F,0:/Integrated Flight Computer/aircraft/cf1_f_cfg.ks (inferred preloaded)
10.3,APPROACH,ILS_TRACK,71.34,73,1.66,2189.67,-0.5,12.98,13.34,270.38,-0.515,0.5193,0,0.497,1,0.6,4.5,0.75,0.35,0.0168,0.4,270.2,-7.34,0,1,-0.42,0,0,6,270.2,0.8758,0.0034,0.4827,6,270.2,4.09,385.21,33.096,-0.197,0,0,0,0,271.22,0,0,0,0,0,0,0,0,0,0,0,0,0,1,1,0,0,VALID,0,0,0,0,0,1,0,0,0,0,0,0,0,0,0,0,0,0,0,0,61.06,367.52,2,0,0.1,0.1,121,11.54,0.1,0.06,10.3,FLYING,CF1-F,0:/Integrated Flight Computer/aircraft/cf1_f_cfg.ks (inferred preloaded)
10.56,APPROACH,ILS_TRACK,71.04,73,1.96,2189.66,-0.19,13.4,13.55,270.36,-0.496,0.5532,0,0.981,1,0.6,4.5,0.75,0.35,0.0168,0.4,270.21,-7.528,0,1,-0.17,0,0,6,270.2,0.8758,0.0034,0.4827,6,270.21,4.12,386.32,33.074,-0.194,0,0,0,0,271.22,0,0,0,0,0,0,0,0,0,0,0,0,0,1,1,0,0,VALID,0,0,0,0,0,1,0,0,0,0,0,0,0,0,0,0,0,0,0,0,63.14,367.72,2,0,0.08,0.08,124,11.54,0.1,0.08,10.56,FLYING,CF1-F,0:/Integrated Flight Computer/aircraft/cf1_f_cfg.ks (inferred preloaded)
10.82,APPROACH,ILS_TRACK,70.73,73,2.27,2189.74,0.2,13.88,13.76,270.35,-0.479,0.5918,0,1.544,1,0.6,4.5,0.75,0.35,0.0168,0.4,270.21,-7.755,0,1,0.14,0,0,6,270.2,0.8758,0.0035,0.4826,6,270.21,4.15,387.53,33.052,-0.191,0,0,0,0,271.22,0,0,0,0,0,0,0,0,0,0,0,0,0,1,1,0,0,VALID,0,0,0,0,0,1,0,0,0,0,0,0,0,0,0,0,0,0,0,0,65.39,367.92,2,0,0.1,0.1,127,11.54,0.1,0.06,10.82,FLYING,CF1-F,0:/Integrated Flight Computer/aircraft/cf1_f_cfg.ks (inferred preloaded)
11.08,APPROACH,ILS_TRACK,70.42,73,2.58,2189.9,0.57,14.21,13.83,270.33,-0.46,0.6328,0,2.188,1,0.6,4.5,0.75,0.35,0.0168,0.4,270.22,-7.829,0,1,0.44,0,0,6,270.22,0.8758,0.0037,0.4826,6,270.22,4.16,388.8,33.031,-0.179,0,0,0,0,271.22,0,0,0,0,0,0,0,0,0,0,0,0,0,1,1,0,0,VALID,0,0,0,0,0,1,0,0,0,0,0,0,0,0,0,0,0,0,0,0,67.82,368.12,2,0,0.08,0.08,130,11.54,0.1,0.08,11.08,FLYING,CF1-F,0:/Integrated Flight Computer/aircraft/cf1_f_cfg.ks (inferred preloaded)
11.34,APPROACH,ILS_TRACK,70.1,73,2.9,2190.14,0.9,14.5,13.89,270.32,-0.44,0.6718,0,2.915,1,0.6,4.5,0.75,0.35,0.0168,0.4,270.22,-7.881,0,1,0.71,0,0,6,270.24,0.8758,0.0036,0.4826,6,270.22,4.17,390.16,33.01,-0.184,0,0,0,0,271.22,0,0,0,0,0,0,0,0,0,0,0,0,0,1,1,0,0,VALID,0,0,0,0,0,1,0,0,0,0,0,0,0,0,0,0,0,0,0,0,70.46,368.32,2,0,0.1,0.1,133,11.54,0.1,0.06,11.34,FLYING,CF1-F,0:/Integrated Flight Computer/aircraft/cf1_f_cfg.ks (inferred preloaded)
11.6,APPROACH,ILS_TRACK,69.78,73,3.22,2190.5,1.23,14.97,14.14,270.31,-0.423,0.7116,0,3.724,1,0.6,4.5,0.75,0.35,0.0168,0.4,270.24,-8.119,0,1,0.98,0,0,6,270.23,0.8759,0.004,0.4825,6,270.24,4.18,391.62,32.988,-0.161,0,0,0,0,271.22,0,0,0,0,0,0,0,0,0,0,0,0,0,1,1,0,0,VALID,0,0,0,0,0,1,0,0,0,0,0,0,0,0,0,0,0,0,0,0,73.28,368.51,2,0,0.08,0.08,136,11.54,0.1,0.08,11.6,FLYING,CF1-F,0:/Integrated Flight Computer/aircraft/cf1_f_cfg.ks (inferred preloaded)
11.86,APPROACH,ILS_TRACK,69.46,73,3.54,2190.93,1.61,15.35,14.24,270.29,-0.404,0.7542,0,4.616,1,0.6,4.5,0.75,0.35,0.0168,0.4,270.24,-8.248,0,1,1.3,0,0,6,270.22,0.8759,0.0041,0.4825,6,270.24,4.18,393.16,32.967,-0.156,0,0,0,0,271.22,0,0,0,0,0,0,0,0,0,0,0,0,0,1,1,0,0,VALID,0,0,0,0,0,1,0,0,0,0,0,0,0,0,0,0,0,0,0,0,76.29,368.71,2,0,0.1,0.1,139,11.54,0.1,0.06,11.86,FLYING,CF1-F,0:/Integrated Flight Computer/aircraft/cf1_f_cfg.ks (inferred preloaded)
12.12,APPROACH,ILS_TRACK,69.14,73,3.86,2191.41,1.95,15.4,14.04,270.29,-0.381,0.7941,0,5.592,1,0.6,4.5,0.75,0.35,0.0168,0.4,270.24,-8.053,0,1,1.59,0,0,6,270.24,0.8759,0.004,0.4825,6,270.24,4.18,394.73,32.946,-0.164,0,0,0,0,271.22,0,0,0,0,0,0,0,0,0,0,0,0,0,1,1,0,0,VALID,0,0,0,0,0,1,0,0,0,0,0,0,0,0,0,0,0,0,0,0,79.49,368.9,2,0,0.08,0.08,142,11.54,0.1,0.08,12.12,FLYING,CF1-F,0:/Integrated Flight Computer/aircraft/cf1_f_cfg.ks (inferred preloaded)
12.38,APPROACH,ILS_TRACK,68.83,73,4.17,2191.98,2.17,15.55,14.02,270.28,-0.358,0.8248,0,6.649,1,0.6,4.5,0.75,0.35,0.0168,0.4,270.25,-8.008,0,1,1.79,0,0,6,270.23,0.8759,0.0043,0.4824,6,270.25,4.17,396.39,32.925,-0.146,0,0,0,0,271.22,0,0,0,0,0,0,0,0,0,0,0,0,0,1,1,0,0,VALID,0,0,0,0,0,1,0,0,0,0,0,0,0,0,0,0,0,0,0,0,82.87,369.07,2,0,0.1,0.1,145,11.54,0.1,0.06,12.38,FLYING,CF1-F,0:/Integrated Flight Computer/aircraft/cf1_f_cfg.ks (inferred preloaded)
12.64,APPROACH,ILS_TRACK,68.54,73,4.46,2192.63,2.45,15.83,14.11,270.27,-0.333,0.8551,0,7.785,1,0.6,4.5,0.75,0.35,0.0168,0.4,270.26,-8.102,0,1,2.03,0,0,6,270.24,0.8759,0.0044,0.4824,6,270.26,4.15,398.13,32.904,-0.141,0,0,0,0,271.22,0,0,0,0,0,0,0,0,0,0,0,0,0,1,1,0,0,VALID,0,0,0,0,0,1,0,0,0,0,0,0,0,0,0,0,0,0,0,0,86.37,369.24,2,0,0.08,0.08,148,11.54,0.1,0.08,12.64,FLYING,CF1-F,0:/Integrated Flight Computer/aircraft/cf1_f_cfg.ks (inferred preloaded)
12.9,APPROACH,ILS_TRACK,68.24,73,4.76,2193.34,2.7,16.07,14.15,270.26,-0.308,0.8875,0,8.997,1,0.6,4.5,0.75,0.35,0.0168,0.4,270.26,-8.15,0,1,2.25,0,0,6,270.27,0.8759,0.0044,0.4824,6,270.26,4.13,399.92,32.884,-0.142,0,0,0,0,271.22,0,0,0,0,0,0,0,0,0,0,0,0,0,1,1,0,0,VALID,0,0,0,0,0,1,0,0,0,0,0,0,0,0,0,0,0,0,0,0,90,369.4,2,0,0.1,0.1,151,11.54,0.1,0.06,12.9,FLYING,CF1-F,0:/Integrated Flight Computer/aircraft/cf1_f_cfg.ks (inferred preloaded)
13.16,APPROACH,ILS_TRACK,67.96,73,5.04,2194.11,2.94,16.3,14.2,270.26,-0.284,0.9206,0,10.284,1,0.6,4.5,0.75,0.35,0.0168,0.4,270.25,-8.198,0,1,2.46,0,0,6,270.27,0.876,0.0043,0.4824,6,270.25,4.11,401.77,32.863,-0.147,0,0,0,0,271.22,0,0,0,0,0,0,0,0,0,0,0,0,0,1,1,0,0,VALID,0,0,0,0,0,1,0,0,0,0,0,0,0,0,0,0,0,0,0,0,93.75,369.55,2,0,0.08,0.08,154,11.54,0.1,0.08,13.16,FLYING,CF1-F,0:/Integrated Flight Computer/aircraft/cf1_f_cfg.ks (inferred preloaded)
13.42,APPROACH,ILS_TRACK,67.68,73,5.32,2194.94,3.16,16.46,14.19,270.25,-0.26,0.9532,0,11.645,1,0.6,4.5,0.75,0.35,0.0168,0.4,270.27,-8.188,0,1,2.66,0,0,6,270.26,0.876,0.0045,0.4823,6,270.27,4.08,403.67,32.842,-0.131,0,0,0,0,271.22,0,0,0,0,0,0,0,0,0,0,0,0,0,1,1,0,0,VALID,0,0,0,0,0,1,0,0,0,0,0,0,0,0,0,0,0,0,0,0,97.64,369.7,2,0,0.1,0.1,157,11.54,0.1,0.06,13.42,FLYING,CF1-F,0:/Integrated Flight Computer/aircraft/cf1_f_cfg.ks (inferred preloaded)
13.68,APPROACH,ILS_TRACK,67.41,73,5.59,2195.82,3.37,16.64,14.21,270.25,-0.237,0.9846,0,13.076,1,0.6,4.5,0.75,0.35,0.0168,0.4,270.29,-8.21,0,1,2.85,0,0,6,270.26,0.876,0.0048,0.4823,6,270.29,4.04,405.63,32.822,-0.113,0,0,0,0,271.22,0,0,0,0,0,0,0,0,0,0,0,0,0,1,1,0,0,VALID,0,0,0,0,0,1,0,0,0,0,0,0,0,0,0,0,0,0,0,0,101.65,369.83,2,0,0.08,0.08,160,11.54,0.1,0.08,13.68,FLYING,CF1-F,0:/Integrated Flight Computer/aircraft/cf1_f_cfg.ks (inferred preloaded)
13.94,APPROACH,ILS_TRACK,67.15,73,5.85,2196.75,3.56,16.81,14.24,270.25,-0.214,1,0,13.92,1,0.6,4.5,0.75,0.35,0.0168,0.4,270.28,-8.231,0,1,3.02,0,0,6,270.26,0.876,0.0047,0.4823,6,270.28,4.01,407.63,32.801,-0.124,0,0,0,0,271.22,0,0,0,0,0,0,0,0,0,0,0,0,0,1,1,0,0,VALID,0,0,0,0,0,1,0,0,0,0,0,0,0,0,0,0,0,0,0,0,105.78,369.96,2,0,0.1,0.1,163,11.54,0.1,0.06,13.94,FLYING,CF1-F,0:/Integrated Flight Computer/aircraft/cf1_f_cfg.ks (inferred preloaded)
14.2,APPROACH,ILS_TRACK,66.9,73,6.1,2197.73,3.75,16.97,14.25,270.24,-0.192,1,0,13.713,1,0.6,4.5,0.75,0.35,0.0168,0.4,270.29,-8.247,0,1,3.2,0,0,6,270.28,0.876,0.0049,0.4822,6,270.29,3.97,409.67,32.781,-0.112,0,0,0,0,271.22,0,0,0,0,0,0,0,0,0,0,0,0,0,1,1,0,0,VALID,0,0,0,0,0,1,0,0,0,0,0,0,0,0,0,0,0,0,0,0,109.91,370.08,2,0,0.08,0.08,166,11.54,0.1,0.08,14.2,FLYING,CF1-F,0:/Integrated Flight Computer/aircraft/cf1_f_cfg.ks (inferred preloaded)
14.46,APPROACH,ILS_TRACK,66.66,73,6.34,2198.76,3.92,17.14,14.28,270.24,-0.17,1,0,13.508,1,0.6,4.5,0.75,0.35,0.0168,0.4,270.29,-8.275,0,1,3.36,0,0,6,270.27,0.876,0.0049,0.4822,6,270.29,3.93,411.76,32.761,-0.108,0,0,0,0,271.22,0,0,0,0,0,0,0,0,0,0,0,0,0,1,1,0,0,VALID,0,0,0,0,0,1,0,0,0,0,0,0,0,0,0,0,0,0,0,0,113.97,370.19,2,0,0.1,0.1,169,11.54,0.1,0.06,14.46,FLYING,CF1-F,0:/Integrated Flight Computer/aircraft/cf1_f_cfg.ks (inferred preloaded)
14.72,APPROACH,ILS_TRACK,66.43,73,6.57,2199.83,4.09,17.29,14.3,270.24,-0.15,1,0,13.306,1,0.6,4.5,0.75,0.35,0.0168,0.4,270.29,-8.3,0,1,3.51,0,0,6,270.28,0.8761,0.0048,0.4822,6,270.29,3.89,413.88,32.741,-0.115,0,0,0,0,271.22,0,0,0,0,0,0,0,0,0,0,0,0,0,1,1,0,0,VALID,0,0,0,0,0,1,0,0,0,0,0,0,0,0,0,0,0,0,0,0,117.97,370.29,2,0,0.08,0.08,172,11.54,0.1,0.08,14.72,FLYING,CF1-F,0:/Integrated Flight Computer/aircraft/cf1_f_cfg.ks (inferred preloaded)
14.98,APPROACH,ILS_TRACK,66.22,73,6.78,2200.93,4.24,17.43,14.31,270.24,-0.131,1,0,13.108,1,0.6,4.5,0.75,0.35,0.0168,0.4,270.3,-8.31,0,1,3.66,0,0,6,270.27,0.8761,0.0051,0.4821,6,270.3,3.84,416.04,32.72,-0.099,0,0,0,0,271.22,0,0,0,0,0,0,0,0,0,0,0,0,0,1,1,0,0,VALID,0,0,0,0,0,1,0,0,0,0,0,0,0,0,0,0,0,0,0,0,121.91,370.38,2,0,0.1,0.1,175,11.54,0.1,0.06,14.98,FLYING,CF1-F,0:/Integrated Flight Computer/aircraft/cf1_f_cfg.ks (inferred preloaded)
15.24,APPROACH,ILS_TRACK,66.01,73,6.99,2202.08,4.39,17.58,14.35,270.24,-0.113,0.9993,0,12.912,1,0.6,4.5,0.75,0.35,0.0168,0.4,270.31,-8.346,0,1,3.79,0,0,6,270.29,0.8761,0.0052,0.4821,6,270.31,3.79,418.24,32.7,-0.095,0,0,0,0,271.22,0,0,0,0,0,0,0,0,0,0,0,0,0,1,1,0,0,VALID,0,0,0,0,0,1,0,0,0,0,0,0,0,0,0,0,0,0,0,0,125.79,370.46,2,0,0.08,0.08,178,11.54,0.1,0.08,15.24,FLYING,CF1-F,0:/Integrated Flight Computer/aircraft/cf1_f_cfg.ks (inferred preloaded)
15.5,APPROACH,ILS_TRACK,65.81,73,7.19,2203.27,4.53,17.71,14.36,270.24,-0.095,1,0,13.208,1,0.6,4.5,0.75,0.35,0.0168,0.4,270.3,-8.362,0,1,3.92,0,0,6,270.3,0.8761,0.005,0.4821,6,270.3,3.75,420.47,32.68,-0.102,0,0,0,0,271.22,0,0,0,0,0,0,0,0,0,0,0,0,0,1,1,0,0,VALID,0,0,0,0,0,1,0,0,0,0,0,0,0,0,0,0,0,0,0,0,129.6,370.54,2,0,0.1,0.1,181,11.54,0.1,0.06,15.5,FLYING,CF1-F,0:/Integrated Flight Computer/aircraft/cf1_f_cfg.ks (inferred preloaded)
15.76,APPROACH,ILS_TRACK,65.62,73,7.38,2204.48,4.66,17.84,14.38,270.24,-0.077,1,0,13.011,1,0.6,4.5,0.75,0.35,0.0168,0.4,270.31,-8.384,0,1,4.05,0,0,6,270.29,0.8761,0.0052,0.4821,6,270.31,3.69,422.73,32.66,-0.093,0,0,0,0,271.22,0,0,0,0,0,0,0,0,0,0,0,0,0,1,1,0,0,VALID,0,0,0,0,0,1,0,0,0,0,0,0,0,0,0,0,0,0,0,0,133.36,370.61,2,0,0.08,0.08,184,11.54,0.1,0.08,15.76,FLYING,CF1-F,0:/Integrated Flight Computer/aircraft/cf1_f_cfg.ks (inferred preloaded)
16.02,APPROACH,ILS_TRACK,65.45,73,7.55,2205.73,4.79,17.96,14.41,270.24,-0.061,1,0,13.328,1,0.6,4.5,0.75,0.35,0.0168,0.4,270.3,-8.405,0,1,4.17,0,0,6,270.3,0.8761,0.0051,0.482,6,270.3,3.65,425.02,32.64,-0.096,0,0,0,0,271.22,0,0,0,0,0,0,0,0,0,0,0,0,0,1,1,0,0,VALID,0,0,0,0,0,1,0,0,0,0,0,0,0,0,0,0,0,0,0,0,137.05,370.67,2,0,0.1,0.1,187,11.54,0.1,0.06,16.02,FLYING,CF1-F,0:/Integrated Flight Computer/aircraft/cf1_f_cfg.ks (inferred preloaded)
16.28,APPROACH,ILS_TRACK,65.28,73,7.72,2207.01,4.91,18.08,14.43,270.24,-0.048,1,0,13.129,1,0.6,4.5,0.75,0.35,0.0168,0.4,270.29,-8.424,0,1,4.29,0,0,6,270.32,0.8762,0.0049,0.482,6,270.29,3.6,427.34,32.621,-0.109,0,0,0,0,271.22,0,0,0,0,0,0,0,0,0,0,0,0,0,1,1,0,0,VALID,0,0,0,0,0,1,0,0,0,0,0,0,0,0,0,0,0,0,0,0,140.69,370.72,2,0,0.08,0.08,190,11.54,0.1,0.08,16.28,FLYING,CF1-F,0:/Integrated Flight Computer/aircraft/cf1_f_cfg.ks (inferred preloaded)
16.54,APPROACH,ILS_TRACK,65.12,73,7.88,2208.33,5.02,18.25,14.5,270.24,-0.034,1,0,13.465,1,0.6,4.5,0.75,0.35,0.0168,0.4,270.31,-8.494,0,1,4.4,0,0,6,270.3,0.8762,0.0053,0.482,6,270.31,3.54,429.7,32.601,-0.087,0,0,0,0,271.22,0,0,0,0,0,0,0,0,0,0,0,0,0,1,1,0,0,VALID,0,0,0,0,0,1,0,0,0,0,0,0,0,0,0,0,0,0,0,0,144.27,370.76,2,0,0.1,0.1,193,11.54,0.1,0.06,16.54,FLYING,CF1-F,0:/Integrated Flight Computer/aircraft/cf1_f_cfg.ks (inferred preloaded)
16.8,APPROACH,ILS_TRACK,64.96,73,8.04,2209.67,5.15,18.35,14.5,270.24,-0.02,1,0,13.264,1,0.6,4.5,0.75,0.35,0.0168,0.4,270.3,-8.498,0,1,4.52,0,0,6,270.31,0.8762,0.0051,0.4819,6,270.3,3.49,432.07,32.581,-0.097,0,0,0,0,271.22,0,0,0,0,0,0,0,0,0,0,0,0,0,1,1,0,0,VALID,0,0,0,0,0,1,0,0,0,0,0,0,0,0,0,0,0,0,0,0,147.8,370.8,2,0,0.08,0.08,196,11.54,0.1,0.08,16.8,FLYING,CF1-F,0:/Integrated Flight Computer/aircraft/cf1_f_cfg.ks (inferred preloaded)
17.06,APPROACH,ILS_TRACK,64.82,73,8.18,2211.04,5.25,18.43,14.49,270.25,-0.008,1,0,13.617,1,0.6,4.5,0.75,0.35,0.0168,0.4,270.31,-8.49,0,1,4.63,0,0,6,270.32,0.8762,0.0053,0.4819,6,270.31,3.43,434.47,32.561,-0.085,0,0,0,0,271.22,0,0,0,0,0,0,0,0,0,0,0,0,0,1,1,0,0,VALID,0,0,0,0,0,1,0,0,0,0,0,0,0,0,0,0,0,0,0,0,151.26,370.83,2,0,0.1,0.1,199,11.54,0.1,0.06,17.06,FLYING,CF1-F,0:/Integrated Flight Computer/aircraft/cf1_f_cfg.ks (inferred preloaded)
17.32,APPROACH,ILS_TRACK,64.69,73,8.31,2212.44,5.37,18.53,14.49,270.25,0.003,1,0,14.146,1,0.6,4.5,0.75,0.35,0.0168,0.4,270.32,-8.493,0,1,4.74,0,0,6,270.31,0.8762,0.0054,0.4819,6,270.32,3.38,436.9,32.542,-0.081,0,0,0,0,271.22,0,0,0,0,0,0,0,0,0,0,0,0,0,1,1,0,0,VALID,0,0,0,0,0,1,0,0,0,0,0,0,0,0,0,0,0,0,0,0,154.67,370.85,2,0,0.08,0.08,202,11.54,0.1,0.08,17.32,FLYING,CF1-F,0:/Integrated Flight Computer/aircraft/cf1_f_cfg.ks (inferred preloaded)
17.58,APPROACH,ILS_TRACK,64.57,73,8.43,2213.86,5.47,18.62,14.5,270.25,0.013,1,0,13.935,1,0.6,4.5,0.75,0.35,0.0168,0.4,270.33,-8.503,0,1,4.83,0,0,6,270.3,0.8762,0.0055,0.4819,6,270.33,3.33,439.35,32.522,-0.074,0,0,0,0,271.22,0,0,0,0,0,0,0,0,0,0,0,0,0,1,1,0,0,VALID,0,0,0,0,0,1,0,0,0,0,0,0,0,0,0,0,0,0,0,0,158.03,370.87,2,0,0.1,0.1,205,11.54,0.1,0.06,17.58,FLYING,CF1-F,0:/Integrated Flight Computer/aircraft/cf1_f_cfg.ks (inferred preloaded)
17.84,APPROACH,ILS_TRACK,64.45,73,8.55,2215.31,5.57,18.7,14.5,270.25,0.024,1,0,14.643,1,0.6,4.5,0.75,0.35,0.0168,0.4,270.31,-8.504,0,1,4.93,0,0,6,270.33,0.8762,0.0052,0.4818,6,270.31,3.27,441.82,32.502,-0.092,0,0,0,0,271.22,0,0,0,0,0,0,0,0,0,0,0,0,0,1,1,0,0,VALID,0,0,0,0,0,1,0,0,0,0,0,0,0,0,0,0,0,0,0,0,161.33,370.88,2,0,0.08,0.08,208,11.54,0.1,0.08,17.84,FLYING,CF1-F,0:/Integrated Flight Computer/aircraft/cf1_f_cfg.ks (inferred preloaded)
18.1,APPROACH,ILS_TRACK,64.35,73,8.65,2216.78,5.66,18.77,14.49,270.25,0.032,1,0,14.424,1,0.6,4.5,0.75,0.35,0.0168,0.4,270.33,-8.493,0,1,5.02,0,0,6,270.32,0.8763,0.0055,0.4818,6,270.33,3.22,444.32,32.483,-0.074,0,0,0,0,271.22,0,0,0,0,0,0,0,0,0,0,0,0,0,1,1,0,0,VALID,0,0,0,0,0,1,0,0,0,0,0,0,0,0,0,0,0,0,0,0,164.57,370.88,2,0,0.1,0.1,211,11.54,0.1,0.06,18.1,FLYING,CF1-F,0:/Integrated Flight Computer/aircraft/cf1_f_cfg.ks (inferred preloaded)
18.36,APPROACH,ILS_TRACK,64.25,73,8.75,2218.28,5.75,18.84,14.48,270.26,0.04,1,0,14.968,1,0.6,4.5,0.75,0.35,0.0168,0.4,270.33,-8.484,0,1,5.11,0,0,6,270.32,0.8763,0.0056,0.4818,6,270.33,3.16,446.84,32.463,-0.072,0,0,0,0,271.22,0,0,0,0,0,0,0,0,0,0,0,0,0,1,1,0,0,VALID,0,0,0,0,0,1,0,0,0,0,0,0,0,0,0,0,0,0,0,0,167.77,370.87,2,0,0.08,0.08,214,11.54,0.1,0.08,18.36,FLYING,CF1-F,0:/Integrated Flight Computer/aircraft/cf1_f_cfg.ks (inferred preloaded)
18.62,APPROACH,ILS_TRACK,64.16,73,8.84,2219.8,5.84,18.9,14.47,270.26,0.048,1,0,15.344,1,0.6,4.5,0.75,0.35,0.0168,0.4,270.33,-8.475,0,1,5.2,0,0,6,270.32,0.8763,0.0056,0.4817,6,270.33,3.11,449.38,32.444,-0.07,0,0,0,0,271.22,0,0,0,0,0,0,0,0,0,0,0,0,0,1,1,0,0,VALID,0,0,0,0,0,1,0,0,0,0,0,0,0,0,0,0,0,0,0,0,170.91,370.86,2,0,0.1,0.1,217,11.54,0.1,0.06,18.62,FLYING,CF1-F,0:/Integrated Flight Computer/aircraft/cf1_f_cfg.ks (inferred preloaded)
18.88,APPROACH,ILS_TRACK,64.09,73,8.91,2221.34,5.93,18.94,14.44,270.26,0.055,1,0,16.076,1,0.6,4.5,0.75,0.35,0.0168,0.4,270.32,-8.445,0,1,5.28,0,0,6,270.34,0.8763,0.0055,0.4817,6,270.32,3.06,451.94,32.424,-0.077,0,0,0,0,271.22,0,0,0,0,0,0,0,0,0,0,0,0,0,1,1,0,0,VALID,0,0,0,0,0,1,0,0,0,0,0,0,0,0,0,0,0,0,0,0,174,370.84,2,0,0.08,0.08,220,11.54,0.1,0.08,18.88,FLYING,CF1-F,0:/Integrated Flight Computer/aircraft/cf1_f_cfg.ks (inferred preloaded)
19.14,APPROACH,ILS_TRACK,64.02,73,8.98,2222.9,6.01,18.97,14.41,270.26,0.06,0.9989,0,15.836,1,0.6,4.5,0.75,0.35,0.0168,0.4,270.33,-8.411,0,1,5.36,0,0,6,270.33,0.8763,0.0056,0.4817,6,270.33,3,454.51,32.405,-0.071,0,0,0,0,271.22,0,0,0,0,0,0,0,0,0,0,0,0,0,1,1,0,0,VALID,0,0,0,0,0,1,0,0,0,0,0,0,0,0,0,0,0,0,0,0,177.03,370.82,2,0,0.1,0.1,223,11.54,0.1,0.06,19.14,FLYING,CF1-F,0:/Integrated Flight Computer/aircraft/cf1_f_cfg.ks (inferred preloaded)
19.4,APPROACH,ILS_TRACK,63.96,73,9.04,2224.48,6.09,19.01,14.39,270.27,0.063,0.9995,0,16.391,1,0.6,4.5,0.75,0.35,0.0168,0.4,270.34,-8.39,0,1,5.43,0,0,6,270.33,0.8763,0.0058,0.4817,6,270.34,2.95,457.11,32.385,-0.057,0,0,0,0,271.22,0,0,0,0,0,0,0,0,0,0,0,0,0,1,1,0,0,VALID,0,0,0,0,0,1,0,0,0,0,0,0,0,0,0,0,0,0,0,0,180.02,370.78,2,0,0.08,0.08,226,11.54,0.1,0.08,19.4,FLYING,CF1-F,0:/Integrated Flight Computer/aircraft/cf1_f_cfg.ks (inferred preloaded)
19.66,APPROACH,ILS_TRACK,63.91,73,9.09,2226.08,6.16,19.05,14.36,270.27,0.068,1,0,17.124,1,0.6,4.5,0.75,0.35,0.0168,0.4,270.33,-8.366,0,1,5.5,0,0,6,270.34,0.8764,0.0057,0.4816,6,270.33,2.9,459.73,32.366,-0.066,0,0,0,0,271.22,0,0,0,0,0,0,0,0,0,0,0,0,0,1,1,0,0,VALID,0,0,0,0,0,1,0,0,0,0,0,0,0,0,0,0,0,0,0,0,182.95,370.74,2,0,0.1,0.1,229,11.54,0.1,0.06,19.66,FLYING,CF1-F,0:/Integrated Flight Computer/aircraft/cf1_f_cfg.ks (inferred preloaded)
19.92,APPROACH,ILS_TRACK,63.87,73,9.13,2227.69,6.24,19.07,14.32,270.27,0.071,1,0,17.674,1,0.6,4.5,0.75,0.35,0.0168,0.4,270.35,-8.324,0,1,5.57,0,0,6,270.33,0.8764,0.006,0.4816,6,270.35,2.85,462.36,32.346,-0.049,0,0,0,0,271.22,0,0,0,0,0,0,0,0,0,0,0,0,0,1,1,0,0,VALID,0,0,0,0,0,1,0,0,0,0,0,0,0,0,0,0,0,0,0,0,185.84,370.7,2,0,0.08,0.08,232,11.54,0.1,0.08,19.92,FLYING,CF1-F,0:/Integrated Flight Computer/aircraft/cf1_f_cfg.ks (inferred preloaded)
20.18,APPROACH,ILS_TRACK,63.84,73,9.16,2229.33,6.31,19.09,14.29,270.27,0.075,1,0,18.403,1,0.6,4.5,0.75,0.35,0.0168,0.4,270.34,-8.29,0,1,5.64,0,0,6,270.33,0.8764,0.0057,0.4816,6,270.34,2.8,465.01,32.327,-0.062,0,0,0,0,271.22,0,0,0,0,0,0,0,0,0,0,0,0,0,1,1,0,0,VALID,0,0,0,0,0,1,0,0,0,0,0,0,0,0,0,0,0,0,0,0,188.67,370.64,2,0,0.1,0.1,235,11.54,0.1,0.06,20.18,FLYING,CF1-F,0:/Integrated Flight Computer/aircraft/cf1_f_cfg.ks (inferred preloaded)
20.44,APPROACH,ILS_TRACK,63.82,73,9.18,2230.98,6.37,19.1,14.24,270.28,0.077,1,0,19.133,1,0.6,4.5,0.75,0.35,0.0168,0.4,270.34,-8.247,0,1,5.7,0,0,6,270.34,0.8764,0.0057,0.4815,6,270.34,2.74,467.68,32.308,-0.062,0,0,0,0,271.22,0,0,0,0,0,0,0,0,0,0,0,0,0,1,1,0,0,VALID,0,0,0,0,0,1,0,0,0,0,0,0,0,0,0,0,0,0,0,0,191.46,370.58,2,0,0.08,0.08,238,11.54,0.1,0.08,20.44,FLYING,CF1-F,0:/Integrated Flight Computer/aircraft/cf1_f_cfg.ks (inferred preloaded)
20.7,APPROACH,ILS_TRACK,63.8,73,9.2,2232.64,6.44,19.1,14.2,270.28,0.078,1,0,19.491,1,0.6,4.5,0.75,0.35,0.0168,0.4,270.34,-8.205,0,1,5.76,0,0,6,270.34,0.8764,0.0058,0.4815,6,270.34,2.7,470.36,32.288,-0.058,0,0,0,0,271.22,0,0,0,0,0,0,0,0,0,0,0,0,0,1,1,0,0,VALID,0,0,0,0,0,1,0,0,0,0,0,0,0,0,0,0,0,0,0,0,194.2,370.52,2,0,0.1,0.1,241,11.54,0.1,0.06,20.7,FLYING,CF1-F,0:/Integrated Flight Computer/aircraft/cf1_f_cfg.ks (inferred preloaded)
20.96,APPROACH,ILS_TRACK,63.8,73,9.2,2234.33,6.5,19.11,14.16,270.28,0.08,0.998,0,20,1,0.6,4.5,0.75,0.35,0.0168,0.4,270.35,-8.163,0,1,5.82,0,0,6,270.34,0.8764,0.0059,0.4815,6,270.35,2.64,473.06,32.269,-0.051,0,0,0,0,271.22,0,0,0,0,0,0,0,0,0,0,0,0,0,1,1,0,0,VALID,0,0,0,0,0,1,0,0,0,0,0,0,0,0,0,0,0,0,0,0,196.89,370.44,2,0,0.08,0.08,244,11.54,0.1,0.08,20.96,FLYING,CF1-F,0:/Integrated Flight Computer/aircraft/cf1_f_cfg.ks (inferred preloaded)
21.22,APPROACH,ILS_TRACK,63.8,73,9.2,2236.03,6.57,19.1,14.1,270.28,0.082,0.9859,0,20,1,0.6,4.5,0.75,0.35,0.0168,0.4,270.34,-8.108,0,1,5.88,0,0,6,270.33,0.8764,0.0058,0.4815,6,270.34,2.6,475.78,32.249,-0.06,0,0,0,0,271.22,0,0,0,0,0,0,0,0,0,0,0,0,0,1,1,0,0,VALID,0,0,0,0,0,1,0,0,0,0,0,0,0,0,0,0,0,0,0,0,199.51,370.36,2,0,0.1,0.1,247,11.54,0.1,0.06,21.22,FLYING,CF1-F,0:/Integrated Flight Computer/aircraft/cf1_f_cfg.ks (inferred preloaded)
21.48,APPROACH,ILS_TRACK,63.82,73,9.18,2237.74,6.63,19.09,14.05,270.28,0.084,0.973,0,20,1,0.6,4.5,0.75,0.35,0.0168,0.4,270.35,-8.056,0,1,5.92,0,0,6,270.33,0.8765,0.006,0.4814,6,270.35,2.55,478.51,32.23,-0.046,0,0,0,0,271.22,0,0,0,0,0,0,0,0,0,0,0,0,0,1,1,0,0,VALID,0,0,0,0,0,1,0,0,0,0,0,0,0,0,0,0,0,0,0,0,202.02,370.28,2,0,0.08,0.08,250,11.54,0.1,0.08,21.48,FLYING,CF1-F,0:/Integrated Flight Computer/aircraft/cf1_f_cfg.ks (inferred preloaded)
21.74,APPROACH,ILS_TRACK,63.84,73,9.16,2239.47,6.69,19.09,14,270.29,0.086,0.96,0,20,1,0.6,4.5,0.75,0.35,0.0168,0.4,270.34,-8.008,0,1,5.98,0,0,6,270.35,0.8765,0.0058,0.4814,6,270.34,2.5,481.25,32.211,-0.06,0,0,0,0,271.22,0,0,0,0,0,0,0,0,0,0,0,0,0,1,1,0,0,VALID,0,0,0,0,0,1,0,0,0,0,0,0,0,0,0,0,0,0,0,0,204.4,370.18,2,0,0.1,0.1,253,11.54,0.1,0.06,21.74,FLYING,CF1-F,0:/Integrated Flight Computer/aircraft/cf1_f_cfg.ks (inferred preloaded)
22,APPROACH,ILS_TRACK,63.87,73,9.13,2241.22,6.75,19.07,13.95,270.29,0.087,0.9469,0,20,1,0.6,4.5,0.75,0.35,0.0168,0.4,270.34,-7.952,0,1,6.03,0,0,6,270.35,0.8765,0.0058,0.4814,6,270.34,2.46,484.02,32.191,-0.059,0,0,0,0,271.22,0,0,0,0,0,0,0,0,0,0,0,0,0,1,1,0,0,VALID,0,0,0,0,0,1,0,0,0,0,0,0,0,0,0,0,0,0,0,0,206.67,370.09,2,0,0.08,0.08,256,11.54,0.1,0.08,22,FLYING,CF1-F,0:/Integrated Flight Computer/aircraft/cf1_f_cfg.ks (inferred preloaded)
22.26,APPROACH,ILS_TRACK,63.9,73,9.1,2242.97,6.8,19.06,13.89,270.29,0.088,0.9337,0,20,1,0.6,4.5,0.75,0.35,0.0168,0.4,270.34,-7.893,0,1,6.07,0,0,6,270.36,0.8765,0.0058,0.4813,6,270.34,2.41,486.79,32.172,-0.057,0,0,0,0,271.22,0,0,0,0,0,0,0,0,0,0,0,0,0,1,1,0,0,VALID,0,0,0,0,0,1,0,0,0,0,0,0,0,0,0,0,0,0,0,0,208.83,369.98,2,0,0.1,0.1,259,11.54,0.1,0.06,22.26,FLYING,CF1-F,0:/Integrated Flight Computer/aircraft/cf1_f_cfg.ks (inferred preloaded)
22.52,APPROACH,ILS_TRACK,63.95,73,9.05,2244.75,6.86,19.03,13.82,270.29,0.089,0.9204,0,20,1,0.6,4.5,0.75,0.35,0.0168,0.4,270.37,-7.825,0,1,6.12,0,0,6,270.35,0.8765,0.0062,0.4813,6,270.37,2.36,489.58,32.152,-0.035,0,0,0,0,271.22,0,0,0,0,0,0,0,0,0,0,0,0,0,1,1,0,0,VALID,0,0,0,0,0,1,0,0,0,0,0,0,0,0,0,0,0,0,0,0,210.87,369.87,2,0,0.08,0.08,262,11.54,0.1,0.08,22.52,FLYING,CF1-F,0:/Integrated Flight Computer/aircraft/cf1_f_cfg.ks (inferred preloaded)
22.78,APPROACH,ILS_TRACK,64,73,9,2246.53,6.91,19,13.76,270.3,0.092,0.9068,0,20,1,0.6,4.5,0.75,0.35,0.0168,0.4,270.34,-7.761,0,1,6.16,0,0,6,270.38,0.8765,0.0058,0.4813,6,270.34,2.32,492.39,32.133,-0.059,0,0,0,0,271.22,0,0,0,0,0,0,0,0,0,0,0,0,0,1,1,0,0,VALID,0,0,0,0,0,1,0,0,0,0,0,0,0,0,0,0,0,0,0,0,212.8,369.76,2,0,0.1,0.1,265,11.54,0.1,0.06,22.78,FLYING,CF1-F,0:/Integrated Flight Computer/aircraft/cf1_f_cfg.ks (inferred preloaded)
