t_s,phase,subphase,ias_ms,vapp_ms,spd_err_ms,agl_m,vs_ms,pitch_deg,aoa_deg,hdg_deg,bank_deg,thr_cmd,thr_intg,aa_hdg_cmd_deg,aa_fpa_cmd_deg,ils_loc_m,ils_gs_m,ils_dist_km,loc_corr_deg,gs_corr_deg,flare_fpa_cmd,flare_tgt_vs,flare_frac,steer_hdg_deg,steer_blend,ro_loc_corr_deg,ro_hdg_err_deg,ro_yaw_tgt,ro_yaw_scale,ro_yaw_gate,yaw_cmd,roll_cmd,pitch_cmd,ro_pitch_tgt_deg,ro_pitch_err_deg,ro_pitch_ff,ro_roll_assist,flaps_cur,flaps_tgt,phase_el_s,status
0.2,APPROACH,FLY_TO_FIX,202.93,200,-2.93,1089.32,-23.89,1.59,7.96,270.4,0.01,0,-0.23,321.15,2.049,0,0,0,0,0,0,0,0,270.4,0,0,0,0,0,0,0,0,0,0,0,0,0,0,1,0.24,FLYING
0.42,APPROACH,ILS_TRACK,203.41,200,-3.41,1084,-23.91,1.36,7.72,270.44,-0.728,0,-0.972,103.76,-2.98,0,0,0,0,0,0,0,0,270.4,0,0,0,0,0,0,0,0,0,0,0,0,0,0,1,0.46,FLYING
0.64,APPROACH,ILS_TRACK,203.79,200,-3.79,1078.65,-23.77,1,7.36,270.6,-2.704,0,-1.805,270.08,0,0.27,-18.67,19.621,-0.316,73.472,0,0,0,270.4,0,0,0,0,0,0,0,0,0,0,0,0,0,1,1,0.66,FLYING
0.84,APPROACH,ILS_TRACK,204.15,200,-4.15,1073.66,-23.82,0.19,6.5,270.73,-2.762,0,-2.711,270.39,0,0.26,-21.15,19.574,-0.007,15.393,0,0,0,270.4,0,0,0,0,0,0,0,0,0,0,0,0,0,1,1,0.88,FLYING
1.04,APPROACH,ILS_TRACK,204.49,200,-4.49,1068.65,-24.25,-0.48,5.93,270.7,-1.607,0,-3.601,270.35,0,0.3,-23.91,19.531,-0.05,18.181,0,0,0,270.4,0,0,0,0,0,0,0,0,0,0,0,0,0,1,1,1.08,FLYING
1.26,APPROACH,ILS_TRACK,204.84,200,-4.84,1063.22,-24.94,-0.54,6.04,270.62,-1.152,0,-4.659,270.31,0,0.36,-26.88,19.483,-0.087,18.864,0,0,0,270.4,0,0,0,0,0,0,0,0,0,0,0,0,0,1,1,1.3,FLYING
1.46,APPROACH,ILS_TRACK,205.08,200,-5.08,1058.4,-25.45,0.26,6.98,270.6,-0.896,0,-5.672,270.31,0,0.42,-29.46,19.44,-0.091,19.163,0,0,0,270.4,0,0,0,0,0,0,0,0,0,0,0,0,0,1,1,1.5,FLYING
1.66,APPROACH,ILS_TRACK,205.25,200,-5.25,1053.61,-25.29,1.24,7.92,270.59,-0.69,0,-6.719,270.3,0,0.48,-31.98,19.397,-0.099,19.672,0,0,0,270.4,0,0,0,0,0,0,0,0,0,0,0,0,0,1,1,1.7,FLYING
1.86,APPROACH,ILS_TRACK,205.33,200,-5.33,1048.73,-24.92,2.1,8.68,270.58,-0.487,0,-7.79,270.29,0,0.55,-34.53,19.353,-0.108,20.533,0,0,0,270.4,0,0,0,0,0,0,0,0,0,0,0,0,0,1,1,1.91,FLYING
2.08,APPROACH,ILS_TRACK,205.3,200,-5.3,1043.64,-24.5,2.83,9.3,270.55,-0.193,0,-8.903,270.28,0,0.63,-37.19,19.307,-0.123,21.303,0,0,0,270.4,0,0,0,0,0,0,0,0,0,0,0,0,0,1,1,2.12,FLYING
2.33,APPROACH,ILS_TRACK,205.12,200,-5.12,1038.01,-23.9,4.2,10.52,270.5,0.104,0,-10.152,270.27,0,0.73,-40.04,19.254,-0.13,21.4,0,0,0,270.4,0,0,0,0,0,0,0,0,0,0,0,0,0,1,1,2.38,FLYING
2.57,APPROACH,ILS_TRACK,204.75,200,-4.75,1032.7,-22.48,5.4,11.36,270.45,0.318,0,-11.268,270.26,0,0.83,-42.56,19.203,-0.138,21.438,0,0,0,270.4,0,0,0,0,0,0,0,0,0,0,0,0,0,1,1,2.62,FLYING
2.81,APPROACH,ILS_TRACK,204.22,200,-4.22,1027.76,-21.19,6.03,11.67,270.4,0.487,0,-12.254,270.26,0,0.92,-44.89,19.152,-0.135,21.544,0,0,0,270.4,0,0,0,0,0,0,0,0,0,0,0,0,0,1,1,2.86,FLYING
3.06,APPROACH,ILS_TRACK,203.58,200,-3.58,1022.87,-19.69,6.53,11.78,270.36,0.609,0,-13.133,270.27,0,1.01,-47.03,19.1,-0.133,21.249,0,0,0,270.4,0,0,0,0,0,0,0,0,0,0,0,0,0,1,1,3.12,FLYING
3.33,APPROACH,ILS_TRACK,202.8,200,-2.8,1017.76,-18.18,6.83,11.7,270.33,0.693,0,-13.884,270.27,0,1.09,-49.1,19.042,-0.125,21.083,0,0,0,270.4,0,0,0,0,0,0,0,0,0,0,0,0,0,1,1,3.39,FLYING
3.67,APPROACH,ILS_TRACK,201.74,200,-1.74,1012.12,-16.21,7.27,11.64,270.31,0.74,0,-14.473,270.28,0,1.18,-51.05,18.972,-0.116,20.238,0,0,0,270.4,0,0,0,0,0,0,0,0,0,0,0,0,0,1,1,3.74,FLYING
3.98,APPROACH,ILS_TRACK,200.61,200,-0.61,1007.42,-14.67,7.75,11.72,270.28,0.764,0,-14.707,270.3,0,1.24,-52.39,18.906,-0.099,19.142,0,0,0,270.4,0,0,0,0,0,0,0,0,0,0,0,0,0,1,1,4.05,FLYING
4.3,APPROACH,ILS_TRACK,199.39,200,0.61,1003.27,-12.8,8.22,11.71,270.27,0.749,0,-14.56,270.31,0,1.29,-53.17,18.839,-0.089,17.924,0,0,0,270.4,0,0,0,0,0,0,0,0,0,0,0,0,0,1,1,4.37,FLYING
4.61,APPROACH,ILS_TRACK,198.09,200,1.91,999.64,-11.24,8.68,11.76,270.26,0.717,0,-14.004,270.33,0,1.31,-53.48,18.773,-0.072,16.817,0,0,0,270.4,0,0,0,0,0,0,0,0,0,0,0,0,0,1,1,4.68,FLYING
4.96,APPROACH,ILS_TRACK,196.54,200,3.46,996.23,-9.23,9.13,11.68,270.26,0.643,0.0272,-12.849,270.34,0,1.32,-53.18,18.701,-0.059,15.285,0,0,0,270.4,0,0,0,0,0,0,0,0,0,0,0,0,0,1,1,5.03,FLYING
5.28,APPROACH,ILS_TRACK,195.1,200,4.9,993.59,-7.61,9.04,11.15,270.27,0.544,0.1242,-11.357,270.36,0,1.31,-52.51,18.635,-0.043,14.038,0,0,0,270.4,0,0,0,0,0,0,0,0,0,0,0,0,0,1,1,5.35,FLYING
5.59,APPROACH,ILS_TRACK,193.68,200,6.32,991.37,-6.23,8.81,10.56,270.29,0.408,0.226,-9.416,270.37,0,1.28,-51.43,18.571,-0.032,12.682,0,0,0,270.4,0,0,0,0,0,0,0,0,0,0,0,0,0,1,1,5.66,FLYING
5.91,APPROACH,ILS_TRACK,192.33,200,7.67,989.53,-5.07,8.51,9.93,270.32,0.255,0.3294,-7.045,270.38,0,1.25,-49.98,18.507,-0.022,11.321,0,0,0,270.4,0,0,0,0,0,0,0,0,0,0,0,0,0,1,1,5.98,FLYING
6.26,APPROACH,ILS_TRACK,190.94,200,9.06,987.83,-4.02,8.07,9.21,270.35,0.108,0.4438,-3.922,270.39,0,1.2,-48.02,18.436,-0.014,9.934,0,0,0,270.4,0,0,0,0,0,0,0,0,0,0,0,0,0,1,1,6.33,FLYING
6.57,APPROACH,ILS_TRACK,189.84,200,10.16,986.54,-3.3,7.5,8.44,270.36,0.001,0.5433,-0.758,270.39,0,1.16,-46.04,18.372,-0.013,8.764,0,0,0,270.4,0,0,0,0,0,0,0,0,0,0,0,0,0,1,1,6.64,FLYING
6.89,APPROACH,ILS_TRACK,188.9,200,11.1,985.43,-2.85,6.96,7.77,270.37,-0.061,0.6379,2.709,270.39,0,1.12,-43.88,18.309,-0.01,7.678,0,0,0,270.4,0,0,0,0,0,0,0,0,0,0,0,0,0,1,1,6.96,FLYING
7.2,APPROACH,ILS_TRACK,188.09,200,11.91,984.58,-2.7,7.04,7.81,270.38,-0.12,0.7276,6.434,270.39,0,1.08,-41.49,18.246,-0.011,6.392,0,0,0,270.4,0,0,0,0,0,0,0,0,0,0,0,0,0,1,1,7.27,FLYING
7.55,APPROACH,ILS_TRACK,187.33,200,12.67,983.8,-2.02,7.15,7.73,270.39,-0.142,0.8233,10.846,270.39,0,1.03,-38.63,18.176,-0.012,5.037,0,0,0,270.4,0,0,0,0,0,0,0,0,0,0,0,0,0,1,1,7.62,FLYING
7.87,APPROACH,ILS_TRACK,186.83,200,13.17,983.14,-1.65,6.84,7.31,270.39,-0.143,0.9013,14.978,270.39,0,1,-36.03,18.114,-0.013,4.208,0,0,0,270.4,0,0,0,0,0,0,0,0,0,0,0,0,0,1,1,7.94,FLYING
8.18,APPROACH,ILS_TRACK,186.51,200,13.49,982.58,-1.42,6.55,6.96,270.39,-0.128,0.9711,19.219,270.38,0,0.97,-33.34,18.051,-0.015,3.181,0,0,0,270.4,0,0,0,0,0,0,0,0,0,0,0,0,0,1,1,8.25,FLYING
8.5,APPROACH,ILS_TRACK,186.37,200,13.63,982.1,-1.23,6.33,6.69,270.39,-0.1,0.9893,20,270.38,-0.885,0.94,-30.56,17.989,-0.016,2.115,0,0,0,270.4,0,0,0,0,0,0,0,0,0,0,0,0,0,1,1,8.57,FLYING
8.85,APPROACH,ILS_TRACK,186.46,200,13.54,981.42,-0.81,5.04,5.28,270.39,-0.075,0.986,20,270.38,-1.602,0.92,-27.56,17.92,-0.017,1.398,0,0,0,270.4,0,0,0,0,0,0,0,0,0,0,0,0,0,1,1,8.92,FLYING
9.16,APPROACH,ILS_TRACK,186.87,200,13.13,980.58,-1.26,3.18,3.54,270.39,-0.056,0.9656,20,270.38,-1.758,0.89,-25.08,17.857,-0.019,1.242,0,0,0,270.4,0,0,0,0,0,0,0,0,0,0,0,0,0,1,1,9.23,FLYING
9.48,APPROACH,ILS_TRACK,187.53,200,12.47,979.68,-2.51,2.2,2.92,270.39,-0.033,0.9301,20,270.38,-2.27,0.87,-22.69,17.795,-0.017,0.73,0,0,0,270.4,0,0,0,0,0,0,0,0,0,0,0,0,0,1,1,9.55,FLYING
9.79,APPROACH,ILS_TRACK,188.37,200,11.63,978.73,-3.46,2.3,3.29,270.38,-0.024,0.8852,20,270.38,-2.969,0.85,-20.3,17.732,-0.018,0.031,0,0,0,270.4,0,0,0,0,0,0,0,0,0,0,0,0,0,1,1,9.86,FLYING
10.14,APPROACH,ILS_TRACK,189.63,200,10.37,977.13,-4.05,1.18,2.33,270.38,-0.007,0.8181,20,270.38,-2.64,0.83,-18.09,17.661,-0.017,0.36,0,0,0,270.4,0,0,0,0,0,0,0,0,0,0,0,0,0,1,1,10.21,FLYING
10.46,APPROACH,ILS_TRACK,190.92,200,9.08,975.38,-5.59,0.48,2.06,270.38,-0.008,0.7474,20,270.38,-2.187,0.81,-16.46,17.597,-0.017,0.813,0,0,0,270.4,0,0,0,0,0,0,0,0,0,0,0,0,0,1,1,10.53,FLYING
10.77,APPROACH,ILS_TRACK,192.23,200,7.77,973.6,-7.08,1.33,3.31,270.38,-0.01,0.6752,20,270.38,-2.526,0.79,-14.89,17.533,-0.016,0.474,0,0,0,270.4,0,0,0,0,0,0,0,0,0,0,0,0,0,1,1,10.84,FLYING
11.09,APPROACH,ILS_TRACK,193.63,200,6.37,971.61,-7.24,2.26,4.27,270.38,-0.005,0.5994,20,270.39,-2.718,0.77,-13.42,17.469,-0.015,0.282,0,0,0,270.4,0,0,0,0,0,0,0,0,0,0,0,0,0,1,1,11.16,FLYING
11.44,APPROACH,ILS_TRACK,195.31,200,4.69,968.93,-7.44,1.72,3.77,270.38,-0.009,0.5072,20,270.39,-2.042,0.75,-12.23,17.397,-0.014,0.958,0,0,0,270.4,0,0,0,0,0,0,0,0,0,0,0,0,0,1,1,11.51,FLYING
11.75,APPROACH,ILS_TRACK,196.81,200,3.19,966.45,-8.31,1.79,4.07,270.39,-0.011,0.4242,20,270.39,-1.996,0.73,-11.29,17.331,-0.014,1.004,0,0,0,270.4,0,0,0,0,0,0,0,0,0,0,0,0,0,1,1,11.82,FLYING
12.07,APPROACH,ILS_TRACK,198.23,200,1.77,964.05,-8.45,2.75,5.05,270.39,-0.007,0.3461,20,270.39,-2.619,0.71,-10.23,17.265,-0.013,0.381,0,0,0,270.4,0,0,0,0,0,0,0,0,0,0,0,0,0,1,1,12.14,FLYING
12.38,APPROACH,ILS_TRACK,199.64,200,0.36,961.34,-8.06,2.22,4.4,270.39,-0.007,0.2684,20,270.39,-2.316,0.69,-9.39,17.199,-0.013,0.684,0,0,0,270.4,0,0,0,0,0,0,0,0,0,0,0,0,0,1,1,12.45,FLYING
12.73,APPROACH,ILS_TRACK,201.14,200,-1.14,958.28,-8.72,1.79,4.13,270.39,-0.008,0.1808,19.65,270.39,-2.243,0.67,-8.6,17.125,-0.011,0.757,0,0,0,270.4,0,0,0,0,0,0,0,0,0,0,0,0,0,1,1,12.8,FLYING
13.05,APPROACH,ILS_TRACK,202.32,200,-2.32,955.63,-8.86,2.33,4.69,270.39,-0.011,0.1067,18.959,270.39,-2.894,0.65,-7.73,17.058,-0.013,0.106,0,0,0,270.4,0,0,0,0,0,0,0,0,0,0,0,0,0,1,1,13.12,FLYING
13.36,APPROACH,ILS_TRACK,203.42,200,-3.42,952.69,-8.57,1.52,3.8,270.39,-0.01,0.0334,17.918,270.39,-2.594,0.63,-7.05,16.99,-0.01,0.406,0,0,0,270.4,0,0,0,0,0,0,0,0,0,0,0,0,0,1,1,13.43,FLYING
13.68,APPROACH,ILS_TRACK,204.38,200,-4.38,949.66,-9.3,0.78,3.25,270.39,-0.007,0,16.569,270.39,-2.325,0.62,-6.54,16.922,-0.011,0.675,0,0,0,270.4,0,0,0,0,0,0,0,0,0,0,0,0,0,1,1,13.75,FLYING
14.03,APPROACH,ILS_TRACK,205.13,200,-5.13,946.42,-10.14,1.44,4.12,270.39,-0.013,0,14.794,270.39,-2.798,0.6,-5.86,16.847,-0.012,0.202,0,0,0,270.4,0,0,0,0,0,0,0,0,0,0,0,0,0,1,1,14.1,FLYING
14.34,APPROACH,ILS_TRACK,205.59,200,-5.59,943.39,-9.8,1.77,4.36,270.39,-0.01,0,13.047,270.39,-2.964,0.58,-5.26,16.779,-0.01,0.036,0,0,0,270.4,0,0,0,0,0,0,0,0,0,0,0,0,0,1,1,14.41,FLYING
14.66,APPROACH,ILS_TRACK,205.95,200,-5.95,940.16,-9.94,1.28,3.91,270.39,-0.012,0,11.183,270.39,-2.437,0.56,-4.9,16.711,-0.009,0.563,0,0,0,270.4,0,0,0,0,0,0,0,0,0,0,0,0,0,1,1,14.73,FLYING
14.97,APPROACH,ILS_TRACK,206.06,200,-6.06,936.99,-10.41,1.47,4.22,270.39,-0.015,0,9.274,270.39,-2.615,0.55,-4.52,16.643,-0.011,0.385,0,0,0,270.4,0,0,0,0,0,0,0,0,0,0,0,0,0,1,1,15.04,FLYING
15.32,APPROACH,ILS_TRACK,205.99,200,-5.99,933.5,-10.28,1.9,4.61,270.39,-0.011,0,7.175,270.39,-2.92,0.53,-4.02,16.567,-0.009,0.08,0,0,0,270.4,0,0,0,0,0,0,0,0,0,0,0,0,0,1,1,15.39,FLYING
15.64,APPROACH,ILS_TRACK,205.84,200,-5.84,930.2,-10.21,1.58,4.28,270.39,-0.012,0,5.328,270.39,-2.624,0.52,-3.73,16.499,-0.009,0.376,0,0,0,270.4,0,0,0,0,0,0,0,0,0,0,0,0,0,1,1,15.71,FLYING
15.95,APPROACH,ILS_TRACK,205.52,200,-5.52,926.97,-10.5,1.69,4.48,270.39,-0.012,0,3.574,270.39,-2.734,0.51,-3.43,16.431,-0.01,0.266,0,0,0,270.4,0,0,0,0,0,0,0,0,0,0,0,0,0,1,1,16.02,FLYING
16.27,APPROACH,ILS_TRACK,205.07,200,-5.07,923.75,-10.37,1.91,4.67,270.39,-0.01,0,1.961,270.39,-2.976,0.49,-3.08,16.363,-0.009,0.024,0,0,0,270.4,0,0,0,0,0,0,0,0,0,0,0,0,0,1,1,16.34,FLYING
16.62,APPROACH,ILS_TRACK,204.53,200,-4.53,920.06,-10.34,1.62,4.37,270.39,-0.01,0,0.353,270.39,-2.768,0.48,-2.81,16.288,-0.01,0.232,0,0,0,270.4,0,0,0,0,0,0,0,0,0,0,0,0,0,1,1,16.69,FLYING
16.93,APPROACH,ILS_TRACK,203.91,200,-3.91,916.81,-10.57,1.81,4.64,270.39,-0.007,0,-0.902,270.39,-2.906,0.47,-2.55,16.22,-0.009,0.094,0,0,0,270.4,0,0,0,0,0,0,0,0,0,0,0,0,0,1,1,17,FLYING
17.25,APPROACH,ILS_TRACK,203.21,200,-3.21,913.56,-10.46,1.97,4.77,270.39,-0.008,0,-1.936,270.39,-3.046,0.46,-2.26,16.153,-0.01,-0.046,0,0,0,270.4,0,0,0,0,0,0,0,0,0,0,0,0,0,1,1,17.32,FLYING
17.56,APPROACH,ILS_TRACK,202.49,200,-2.49,910.21,-10.4,1.72,4.52,270.39,-0.004,0,-2.748,270.39,-2.851,0.45,-2.07,16.086,-0.009,0.149,0,0,0,270.4,0,0,0,0,0,0,0,0,0,0,0,0,0,1,1,17.63,FLYING
17.91,APPROACH,ILS_TRACK,201.59,200,-1.59,906.57,-10.67,1.87,4.76,270.39,-0.001,0,-3.338,270.39,-2.922,0.44,-1.86,16.012,-0.01,0.078,0,0,0,270.4,0,0,0,0,0,0,0,0,0,0,0,0,0,1,1,17.98,FLYING
18.23,APPROACH,ILS_TRACK,200.71,200,-0.71,903.31,-10.56,2.15,5.02,270.39,-0.002,0,-3.592,270.39,-3.111,0.43,-1.63,15.945,-0.008,-0.111,0,0,0,270.4,0,0,0,0,0,0,0,0,0,0,0,0,0,1,1,18.3,FLYING
18.54,APPROACH,ILS_TRACK,199.85,200,0.15,899.93,-10.44,1.85,4.7,270.39,-0.001,0,-3.574,270.39,-2.844,0.42,-1.51,15.879,-0.01,0.156,0,0,0,270.4,0,0,0,0,0,0,0,0,0,0,0,0,0,1,1,18.61,FLYING
18.86,APPROACH,ILS_TRACK,198.92,200,1.08,896.58,-10.69,1.78,4.72,270.39,0.002,0.0142,-3.268,270.39,-2.778,0.41,-1.43,15.813,-0.009,0.222,0,0,0,270.4,0,0,0,0,0,0,0,0,0,0,0,0,0,1,1,18.93,FLYING
19.21,APPROACH,ILS_TRACK,197.79,200,2.21,892.96,-10.74,2.32,5.28,270.39,0.007,0.0847,-2.535,270.39,-3.073,0.4,-1.24,15.741,-0.01,-0.073,0,0,0,270.4,0,0,0,0,0,0,0,0,0,0,0,0,0,1,1,19.28,FLYING
19.52,APPROACH,ILS_TRACK,196.83,200,3.17,889.58,-10.57,2.18,5.11,270.39,0.009,0.1496,-1.57,270.39,-2.82,0.39,-1.17,15.675,-0.009,0.18,0,0,0,270.4,0,0,0,0,0,0,0,0,0,0,0,0,0,1,1,19.59,FLYING
19.84,APPROACH,ILS_TRACK,195.85,200,4.15,886.23,-10.73,2.18,5.16,270.39,0.005,0.2184,-0.299,270.39,-2.72,0.38,-1.14,15.61,-0.008,0.28,0,0,0,270.4,0,0,0,0,0,0,0,0,0,0,0,0,0,1,1,19.91,FLYING
20.15,APPROACH,ILS_TRACK,194.85,200,5.15,882.97,-10.72,2.64,5.63,270.39,0.008,0.2928,1.289,270.39,-2.992,0.37,-1.03,15.546,-0.009,0.008,0,0,0,270.4,0,0,0,0,0,0,0,0,0,0,0,0,0,1,1,20.22,FLYING
20.5,APPROACH,ILS_TRACK,193.86,200,6.14,879.22,-10.51,2.44,5.39,270.39,0.007,0.3735,3.406,270.39,-2.747,0.37,-1,15.474,-0.008,0.253,0,0,0,270.4,0,0,0,0,0,0,0,0,0,0,0,0,0,1,1,20.57,FLYING
20.82,APPROACH,ILS_TRACK,193.02,200,6.98,875.89,-10.68,2.46,5.48,270.39,0.008,0.4456,5.575,270.39,-2.691,0.36,-1.01,15.41,-0.01,0.309,0,0,0,270.4,0,0,0,0,0,0,0,0,0,0,0,0,0,1,1,20.89,FLYING
21.13,APPROACH,ILS_TRACK,192.22,200,7.78,872.66,-10.63,2.96,5.97,270.39,0.013,0.5193,7.999,270.39,-3,0.35,-0.9,15.347,-0.008,0,0,0,0,270.4,0,0,0,0,0,0,0,0,0,0,0,0,0,1,1,21.2,FLYING
21.45,APPROACH,ILS_TRACK,191.58,200,8.42,869.31,-10.36,2.71,5.65,270.39,0.011,0.5871,10.631,270.39,-2.745,0.35,-0.9,15.283,-0.009,0.255,0,0,0,270.4,0,0,0,0,0,0,0,0,0,0,0,0,0,1,1,21.52,FLYING
21.8,APPROACH,ILS_TRACK,191,200,9,865.62,-10.57,2.63,5.64,270.39,0.01,0.6571,13.762,270.39,-2.665,0.34,-0.92,15.213,-0.008,0.335,0,0,0,270.4,0,0,0,0,0,0,0,0,0,0,0,0,0,1,1,21.87,FLYING
22.11,APPROACH,ILS_TRACK,190.57,200,9.43,862.43,-10.51,3.13,6.13,270.39,0.012,0.7173,16.72,270.39,-3.036,0.33,-0.81,15.15,-0.008,-0.036,0,0,0,270.4,0,0,0,0,0,0,0,0,0,0,0,0,0,1,1,22.18,FLYING
22.43,APPROACH,ILS_TRACK,190.33,200,9.67,859.09,-10.22,2.8,5.71,270.4,0.011,0.7682,19.762,270.39,-2.772,0.33,-0.81,15.086,-0.009,0.228,0,0,0,270.4,0,0,0,0,0,0,0,0,0,0,0,0,0,1,1,22.5,FLYING
22.74,APPROACH,ILS_TRACK,190.24,200,9.76,855.79,-10.46,2.64,5.63,270.4,0.011,0.7763,20,270.39,-2.688,0.32,-0.83,15.023,-0.008,0.312,0,0,0,270.4,0,0,0,0,0,0,0,0,0,0,0,0,0,1,1,22.81,FLYING
23.09,APPROACH,ILS_TRACK,190.29,200,9.71,852.24,-10.37,3.06,6.02,270.39,0.014,0.775,20,270.39,-3.066,0.31,-0.71,14.953,-0.009,-0.066,0,0,0,270.4,0,0,0,0,0,0,0,0,0,0,0,0,0,1,1,23.16,FLYING
23.41,APPROACH,ILS_TRACK,190.55,200,9.45,848.91,-10.21,2.67,5.58,270.4,0.013,0.762,20,270.39,-2.792,0.31,-0.71,14.89,-0.008,0.208,0,0,0,270.4,0,0,0,0,0,0,0,0,0,0,0,0,0,1,1,23.48,FLYING
23.72,APPROACH,ILS_TRACK,190.93,200,9.07,845.66,-10.49,2.71,5.69,270.4,0.017,0.7411,20,270.39,-2.863,0.31,-0.68,14.827,-0.009,0.137,0,0,0,270.4,0,0,0,0,0,0,0,0,0,0,0,0,0,1,1,23.79,FLYING
24.04,APPROACH,ILS_TRACK,191.45,200,8.55,842.39,-10.35,2.7,5.63,270.4,0.017,0.714,20,270.39,-3.016,0.3,-0.6,14.764,-0.008,-0.016,0,0,0,270.4,0,0,0,0,0,0,0,0,0,0,0,0,0,1,1,24.11,FLYING
24.39,APPROACH,ILS_TRACK,192.2,200,7.8,838.74,-10.36,2.6,5.52,270.4,0.015,0.6734,20,270.39,-2.96,0.29,-0.55,14.693,-0.008,0.04,0,0,0,270.4,0,0,0,0,0,0,0,0,0,0,0,0,0,1,1,24.46,FLYING
24.7,APPROACH,ILS_TRACK,192.99,200,7.01,835.46,-10.36,2.55,5.46,270.4,0.014,0.6307,20,270.39,-3.026,0.29,-0.48,14.629,-0.008,-0.026,0,0,0,270.4,0,0,0,0,0,0,0,0,0,0,0,0,0,1,1,24.77,FLYING
25.02,APPROACH,ILS_TRACK,193.87,200,6.13,832.17,-10.38,2.44,5.35,270.4,0.014,0.5826,20,270.39,-3.04,0.29,-0.42,14.565,-0.008,-0.04,0,0,0,270.4,0,0,0,0,0,0,0,0,0,0,0,0,0,1,1,25.09,FLYING
25.33,APPROACH,ILS_TRACK,194.83,200,5.17,828.87,-10.41,2.35,5.25,270.4,0.015,0.5302,20,270.39,-3.083,0.28,-0.34,14.501,-0.008,-0.083,0,0,0,270.4,0,0,0,0,0,0,0,0,0,0,0,0,0,1,1,25.4,FLYING
25.68,APPROACH,ILS_TRACK,195.97,200,4.03,825.17,-10.47,2.21,5.11,270.4,0.016,0.4681,20,270.39,-3.102,0.28,-0.26,14.429,-0.008,-0.102,0,0,0,270.4,0,0,0,0,0,0,0,0,0,0,0,0,0,1,1,25.75,FLYING
26,APPROACH,ILS_TRACK,197.03,200,2.97,821.84,-10.53,2.1,5.01,270.4,0.017,0.4098,20,270.39,-3.131,0.27,-0.19,14.364,-0.008,-0.131,0,0,0,270.4,0,0,0,0,0,0,0,0,0,0,0,0,0,1,1,26.07,FLYING
26.31,APPROACH,ILS_TRACK,198.12,200,1.88,818.48,-10.6,1.98,4.9,270.4,0.022,0.3501,20,270.39,-3.137,0.27,-0.12,14.298,-0.008,-0.137,0,0,0,270.4,0,0,0,0,0,0,0,0,0,0,0,0,0,1,1,26.38,FLYING
26.63,APPROACH,ILS_TRACK,199.19,200,0.81,815.1,-10.68,1.9,4.82,270.4,0.023,0.2908,20,270.39,-3.159,0.27,-0.05,14.233,-0.007,-0.159,0,0,0,270.4,0,0,0,0,0,0,0,0,0,0,0,0,0,1,1,26.7,FLYING
26.98,APPROACH,ILS_TRACK,200.35,200,-0.35,811.32,-10.77,1.79,4.72,270.4,0.024,0.2259,19.917,270.39,-3.149,0.26,0.01,14.159,-0.008,-0.149,0,0,0,270.4,0,0,0,0,0,0,0,0,0,0,0,0,0,1,1,27.05,FLYING
27.29,APPROACH,ILS_TRACK,201.31,200,-1.31,807.9,-10.85,1.75,4.69,270.4,0.025,0.1679,19.536,270.39,-3.165,0.26,0.07,14.093,-0.007,-0.165,0,0,0,270.4,0,0,0,0,0,0,0,0,0,0,0,0,0,1,1,27.36,FLYING
27.61,APPROACH,ILS_TRACK,202.18,200,-2.18,804.45,-10.92,1.68,4.63,270.4,0.025,0.1113,18.876,270.39,-3.142,0.25,0.11,14.027,-0.007,-0.142,0,0,0,270.4,0,0,0,0,0,0,0,0,0,0,0,0,0,1,1,27.68,FLYING
27.92,APPROACH,ILS_TRACK,202.93,200,-2.93,801,-10.97,1.67,4.62,270.4,0.023,0.0589,17.978,270.39,-3.165,0.25,0.16,13.96,-0.007,-0.165,0,0,0,270.4,0,0,0,0,0,0,0,0,0,0,0,0,0,1,1,27.99,FLYING
28.27,APPROACH,ILS_TRACK,203.59,200,-3.59,797.13,-11.04,1.61,4.58,270.4,0.026,0.0064,16.74,270.39,-3.131,0.25,0.19,13.886,-0.007,-0.131,0,0,0,270.4,0,0,0,0,0,0,0,0,0,0,0,0,0,1,1,28.34,FLYING
28.59,APPROACH,ILS_TRACK,204.01,200,-4.01,793.65,-11.07,1.63,4.6,270.4,0.024,0,15.489,270.39,-3.16,0.24,0.23,13.819,-0.007,-0.16,0,0,0,270.4,0,0,0,0,0,0,0,0,0,0,0,0,0,1,1,28.66,FLYING
28.9,APPROACH,ILS_TRACK,204.27,200,-4.27,790.15,-11.1,1.6,4.58,270.4,0.025,0,14.149,270.39,-3.124,0.24,0.25,13.751,-0.007,-0.124,0,0,0,270.4,0,0,0,0,0,0,0,0,0,0,0,0,0,1,1,28.97,FLYING
29.22,APPROACH,ILS_TRACK,204.35,200,-4.35,786.66,-11.11,1.64,4.62,270.4,0.022,0,12.779,270.39,-3.152,0.23,0.27,13.684,-0.006,-0.152,0,0,0,270.4,0,0,0,0,0,0,0,0,0,0,0,0,0,1,1,29.29,FLYING
29.57,APPROACH,ILS_TRACK,204.28,200,-4.28,782.77,-11.12,1.63,4.61,270.4,0.019,0,11.275,270.39,-3.121,0.23,0.29,13.61,-0.006,-0.121,0,0,0,270.4,0,0,0,0,0,0,0,0,0,0,0,0,0,1,1,29.64,FLYING
29.88,APPROACH,ILS_TRACK,204.06,200,-4.06,779.28,-11.12,1.68,4.67,270.4,0.016,0,9.986,270.39,-3.146,0.22,0.31,13.543,-0.006,-0.146,0,0,0,270.4,0,0,0,0,0,0,0,0,0,0,0,0,0,1,1,29.95,FLYING
30.2,APPROACH,ILS_TRACK,203.74,200,-3.74,775.78,-11.11,1.69,4.69,270.4,0.019,0,8.796,270.39,-3.118,0.22,0.32,13.476,-0.006,-0.118,0,0,0,270.4,0,0,0,0,0,0,0,0,0,0,0,0,0,1,1,30.27,FLYING
30.51,APPROACH,ILS_TRACK,203.29,200,-3.29,772.3,-11.1,1.75,4.75,270.4,0.017,0,7.742,270.39,-3.139,0.22,0.33,13.409,-0.006,-0.139,0,0,0,270.4,0,0,0,0,0,0,0,0,0,0,0,0,0,1,1,30.58,FLYING
30.86,APPROACH,ILS_TRACK,202.7,200,-2.7,768.43,-11.08,1.78,4.79,270.4,0.016,0,6.773,270.39,-3.116,0.21,0.34,13.335,-0.006,-0.116,0,0,0,270.4,0,0,0,0,0,0,0,0,0,0,0,0,0,1,1,30.93,FLYING
31.18,APPROACH,ILS_TRACK,202.08,200,-2.08,764.97,-11.05,1.85,4.86,270.4,0.017,0,6.095,270.4,-3.132,0.21,0.35,13.269,-0.005,-0.132,0,0,0,270.4,0,0,0,0,0,0,0,0,0,0,0,0,0,1,1,31.25,FLYING
31.49,APPROACH,ILS_TRACK,201.39,200,-1.39,761.5,-11.02,1.9,4.91,270.4,0.016,0,5.634,270.39,-3.114,0.21,0.35,13.203,-0.006,-0.114,0,0,0,270.4,0,0,0,0,0,0,0,0,0,0,0,0,0,1,1,31.56,FLYING
31.81,APPROACH,ILS_TRACK,200.63,200,-0.63,758.06,-10.98,1.97,4.98,270.4,0.015,0.0257,5.409,270.39,-3.125,0.2,0.36,13.137,-0.006,-0.125,0,0,0,270.4,0,0,0,0,0,0,0,0,0,0,0,0,0,1,1,31.88,FLYING
32.16,APPROACH,ILS_TRACK,199.72,200,0.28,754.24,-10.94,2.04,5.05,270.4,0.015,0.076,5.475,270.39,-3.112,0.2,0.36,13.064,-0.005,-0.112,0,0,0,270.4,0,0,0,0,0,0,0,0,0,0,0,0,0,1,1,32.23,FLYING
32.47,APPROACH,ILS_TRACK,198.86,200,1.14,750.82,-10.9,2.12,5.13,270.4,0.014,0.1268,5.802,270.39,-3.118,0.2,0.37,12.998,-0.005,-0.118,0,0,0,270.4,0,0,0,0,0,0,0,0,0,0,0,0,0,1,1,32.54,FLYING
32.79,APPROACH,ILS_TRACK,198,200,2,747.42,-10.86,2.18,5.19,270.4,0.015,0.1815,6.402,270.4,-3.107,0.19,0.36,12.933,-0.004,-0.107,0,0,0,270.4,0,0,0,0,0,0,0,0,0,0,0,0,0,1,1,32.86,FLYING
33.1,APPROACH,ILS_TRACK,197.15,200,2.85,744.02,-10.82,2.26,5.27,270.4,0.013,0.2389,7.271,270.39,-3.11,0.19,0.36,12.869,-0.006,-0.11,0,0,0,270.4,0,0,0,0,0,0,0,0,0,0,0,0,0,1,1,33.17,FLYING
33.45,APPROACH,ILS_TRACK,196.24,200,3.76,740.26,-10.78,2.32,5.34,270.4,0.014,0.3046,8.555,270.4,-3.099,0.19,0.36,12.797,-0.005,-0.099,0,0,0,270.4,0,0,0,0,0,0,0,0,0,0,0,0,0,1,1,33.52,FLYING
33.77,APPROACH,ILS_TRACK,195.47,200,4.53,736.9,-10.74,2.39,5.4,270.4,0.012,0.3639,9.956,270.4,-3.099,0.18,0.36,12.733,-0.005,-0.099,0,0,0,270.4,0,0,0,0,0,0,0,0,0,0,0,0,0,1,1,33.84,FLYING
34.08,APPROACH,ILS_TRACK,194.77,200,5.23,733.54,-10.7,2.44,5.46,270.4,0.013,0.4225,11.58,270.39,-3.093,0.18,0.35,12.669,-0.006,-0.093,0,0,0,270.4,0,0,0,0,0,0,0,0,0,0,0,0,0,1,1,34.15,FLYING
34.4,APPROACH,ILS_TRACK,194.14,200,5.86,730.19,-10.66,2.49,5.5,270.4,0.013,0.4793,13.404,270.39,-3.09,0.18,0.35,12.605,-0.005,-0.09,0,0,0,270.4,0,0,0,0,0,0,0,0,0,0,0,0,0,1,1,34.47,FLYING
34.75,APPROACH,ILS_TRACK,193.56,200,6.44,726.47,-10.62,2.53,5.54,270.4,0.013,0.539,15.639,270.4,-3.086,0.17,0.34,12.534,-0.005,-0.086,0,0,0,270.4,0,0,0,0,0,0,0,0,0,0,0,0,0,1,1,34.82,FLYING
35.06,APPROACH,ILS_TRACK,193.14,200,6.86,723.14,-10.59,2.56,5.56,270.4,0.012,0.5884,17.787,270.39,-3.084,0.17,0.33,12.47,-0.006,-0.084,0,0,0,270.4,0,0,0,0,0,0,0,0,0,0,0,0,0,1,1,35.13,FLYING
35.38,APPROACH,ILS_TRACK,192.84,200,7.16,719.81,-10.57,2.57,5.57,270.4,0.012,0.6322,20,270.39,-3.082,0.17,0.33,12.407,-0.005,-0.082,0,0,0,270.4,0,0,0,0,0,0,0,0,0,0,0,0,0,1,1,35.45,FLYING
35.69,APPROACH,ILS_TRACK,192.66,200,7.34,716.49,-10.55,2.57,5.57,270.4,0.008,0.6428,20,270.39,-3.082,0.17,0.32,12.344,-0.006,-0.082,0,0,0,270.4,0,0,0,0,0,0,0,0,0,0,0,0,0,1,1,35.76,FLYING
36.04,APPROACH,ILS_TRACK,192.62,200,7.38,712.8,-10.53,2.56,5.56,270.4,0.011,0.6461,20,270.39,-3.084,0.17,0.32,12.273,-0.005,-0.084,0,0,0,270.4,0,0,0,0,0,0,0,0,0,0,0,0,0,1,1,36.11,FLYING
36.36,APPROACH,ILS_TRACK,192.72,200,7.28,709.47,-10.52,2.54,5.53,270.4,0.01,0.6416,20,270.39,-3.086,0.17,0.31,12.21,-0.005,-0.086,0,0,0,270.4,0,0,0,0,0,0,0,0,0,0,0,0,0,1,1,36.43,FLYING
36.67,APPROACH,ILS_TRACK,192.93,200,7.07,706.15,-10.52,2.5,5.49,270.4,0.013,0.6303,20,270.39,-3.091,0.16,0.31,12.147,-0.006,-0.091,0,0,0,270.4,0,0,0,0,0,0,0,0,0,0,0,0,0,1,1,36.74,FLYING
36.99,APPROACH,ILS_TRACK,193.27,200,6.73,702.83,-10.52,2.46,5.44,270.4,0.012,0.6126,20,270.39,-3.097,0.16,0.31,12.083,-0.006,-0.097,0,0,0,270.4,0,0,0,0,0,0,0,0,0,0,0,0,0,1,1,37.06,FLYING
37.34,APPROACH,ILS_TRACK,193.76,200,6.24,699.13,-10.53,2.4,5.38,270.4,0.015,0.5862,20,270.39,-3.105,0.16,0.32,12.012,-0.006,-0.105,0,0,0,270.4,0,0,0,0,0,0,0,0,0,0,0,0,0,1,1,37.41,FLYING
37.65,APPROACH,ILS_TRACK,194.3,200,5.7,695.79,-10.55,2.34,5.32,270.4,0.016,0.5568,20,270.39,-3.11,0.16,0.32,11.949,-0.006,-0.11,0,0,0,270.4,0,0,0,0,0,0,0,0,0,0,0,0,0,1,1,37.72,FLYING
37.97,APPROACH,ILS_TRACK,194.93,200,5.07,692.44,-10.57,2.28,5.25,270.4,0.015,0.5229,20,270.39,-3.118,0.16,0.33,11.885,-0.006,-0.118,0,0,0,270.4,0,0,0,0,0,0,0,0,0,0,0,0,0,1,1,38.04,FLYING
38.28,APPROACH,ILS_TRACK,195.62,200,4.38,689.09,-10.6,2.21,5.18,270.4,0.019,0.4852,20,270.39,-3.123,0.16,0.34,11.821,-0.006,-0.123,0,0,0,270.4,0,0,0,0,0,0,0,0,0,0,0,0,0,1,1,38.35,FLYING
38.63,APPROACH,ILS_TRACK,196.46,200,3.54,685.35,-10.64,2.14,5.11,270.4,0.018,0.4396,20,270.39,-3.131,0.16,0.35,11.749,-0.007,-0.131,0,0,0,270.4,0,0,0,0,0,0,0,0,0,0,0,0,0,1,1,38.7,FLYING
38.95,APPROACH,ILS_TRACK,197.25,200,2.75,681.97,-10.68,2.06,5.03,270.4,0.018,0.3963,20,270.39,-3.129,0.16,0.36,11.685,-0.006,-0.129,0,0,0,270.4,0,0,0,0,0,0,0,0,0,0,0,0,0,1,1,39.02,FLYING
39.26,APPROACH,ILS_TRACK,198.06,200,1.94,678.58,-10.72,2,4.97,270.4,0.019,0.3516,20,270.39,-3.14,0.16,0.37,11.62,-0.007,-0.14,0,0,0,270.4,0,0,0,0,0,0,0,0,0,0,0,0,0,1,1,39.33,FLYING
39.58,APPROACH,ILS_TRACK,198.89,200,1.11,675.18,-10.77,1.93,4.9,270.4,0.019,0.3063,20,270.39,-3.133,0.16,0.38,11.555,-0.006,-0.133,0,0,0,270.4,0,0,0,0,0,0,0,0,0,0,0,0,0,1,1,39.65,FLYING
39.93,APPROACH,ILS_TRACK,199.78,200,0.22,671.38,-10.81,1.88,4.85,270.4,0.022,0.2569,20,270.39,-3.147,0.16,0.39,11.482,-0.007,-0.147,0,0,0,270.4,0,0,0,0,0,0,0,0,0,0,0,0,0,1,1,40,FLYING
40.24,APPROACH,ILS_TRACK,200.55,200,-0.55,667.95,-10.86,1.81,4.79,270.4,0.022,0.2127,19.854,270.39,-3.135,0.16,0.4,11.417,-0.007,-0.135,0,0,0,270.4,0,0,0,0,0,0,0,0,0,0,0,0,0,1,1,40.31,FLYING
40.56,APPROACH,ILS_TRACK,201.25,200,-1.25,664.51,-10.9,1.78,4.76,270.4,0.022,0.1693,19.484,270.39,-3.15,0.16,0.41,11.351,-0.006,-0.15,0,0,0,270.4,0,0,0,0,0,0,0,0,0,0,0,0,0,1,1,40.63,FLYING
40.87,APPROACH,ILS_TRACK,201.87,200,-1.87,661.06,-10.93,1.73,4.71,270.4,0.022,0.1276,18.915,270.39,-3.138,0.16,0.41,11.285,-0.006,-0.138,0,0,0,270.4,0,0,0,0,0,0,0,0,0,0,0,0,0,1,1,40.94,FLYING
41.22,APPROACH,ILS_TRACK,202.44,200,-2.44,657.22,-10.96,1.71,4.7,270.4,0.023,0.0853,18.077,270.39,-3.15,0.16,0.42,11.211,-0.007,-0.15,0,0,0,270.4,0,0,0,0,0,0,0,0,0,0,0,0,0,1,1,41.29,FLYING
41.54,APPROACH,ILS_TRACK,202.84,200,-2.84,653.76,-10.99,1.68,4.67,270.4,0.022,0.0522,17.195,270.39,-3.141,0.16,0.43,11.145,-0.006,-0.141,0,0,0,270.4,0,0,0,0,0,0,0,0,0,0,0,0,0,1,1,41.61,FLYING
41.85,APPROACH,ILS_TRACK,203.11,200,-3.11,650.29,-11.01,1.68,4.67,270.4,0.024,0.0249,16.222,270.39,-3.15,0.16,0.44,11.079,-0.006,-0.15,0,0,0,270.4,0,0,0,0,0,0,0,0,0,0,0,0,0,1,1,41.92,FLYING
42.17,APPROACH,ILS_TRACK,203.25,200,-3.25,646.82,-11.02,1.67,4.67,270.4,0.024,0.0042,15.201,270.39,-3.142,0.16,0.44,11.013,-0.007,-0.142,0,0,0,270.4,0,0,0,0,0,0,0,0,0,0,0,0,0,1,1,42.24,FLYING
42.52,APPROACH,ILS_TRACK,203.24,200,-3.24,642.97,-11.02,1.69,4.69,270.4,0.025,0,14.064,270.39,-3.146,0.16,0.45,10.939,-0.006,-0.146,0,0,0,270.4,0,0,0,0,0,0,0,0,0,0,0,0,0,1,1,42.59,FLYING
42.83,APPROACH,ILS_TRACK,203.09,200,-3.09,639.5,-11.02,1.71,4.71,270.4,0.028,0,13.083,270.39,-3.139,0.16,0.45,10.873,-0.006,-0.139,0,0,0,270.4,0,0,0,0,0,0,0,0,0,0,0,0,0,1,1,42.9,FLYING
43.15,APPROACH,ILS_TRACK,202.82,200,-2.82,636.04,-11.02,1.74,4.74,270.4,0.025,0,12.184,270.39,-3.142,0.16,0.45,10.807,-0.007,-0.142,0,0,0,270.4,0,0,0,0,0,0,0,0,0,0,0,0,0,1,1,43.22,FLYING
43.46,APPROACH,ILS_TRACK,202.43,200,-2.43,632.58,-11,1.77,4.78,270.4,0.028,0.0004,11.402,270.39,-3.135,0.16,0.45,10.741,-0.006,-0.135,0,0,0,270.4,0,0,0,0,0,0,0,0,0,0,0,0,0,1,1,43.53,FLYING
43.81,APPROACH,ILS_TRACK,201.89,200,-1.89,628.75,-10.98,1.83,4.84,270.4,0.025,0.0216,10.721,270.39,-3.136,0.16,0.45,10.668,-0.007,-0.136,0,0,0,270.4,0,0,0,0,0,0,0,0,0,0,0,0,0,1,1,43.88,FLYING
44.13,APPROACH,ILS_TRACK,201.31,200,-1.31,625.31,-10.95,1.88,4.89,270.4,0.023,0.0479,10.288,270.39,-3.129,0.16,0.45,10.602,-0.005,-0.129,0,0,0,270.4,0,0,0,0,0,0,0,0,0,0,0,0,0,1,1,44.2,FLYING
44.44,APPROACH,ILS_TRACK,200.65,200,-0.65,621.88,-10.93,1.93,4.95,270.4,0.021,0.0806,10.058,270.39,-3.128,0.16,0.45,10.536,-0.006,-0.128,0,0,0,270.4,0,0,0,0,0,0,0,0,0,0,0,0,0,1,1,44.51,FLYING
44.76,APPROACH,ILS_TRACK,199.96,200,0.04,618.46,-10.89,1.99,5,270.4,0.021,0.1185,10.047,270.39,-3.123,0.16,0.44,10.471,-0.006,-0.123,0,0,0,270.4,0,0,0,0,0,0,0,0,0,0,0,0,0,1,1,44.83,FLYING
45.11,APPROACH,ILS_TRACK,199.16,200,0.84,614.67,-10.85,2.06,5.07,270.4,0.022,0.1655,10.313,270.39,-3.12,0.16,0.44,10.399,-0.006,-0.12,0,0,0,270.4,0,0,0,0,0,0,0,0,0,0,0,0,0,1,1,45.18,FLYING
45.42,APPROACH,ILS_TRACK,198.44,200,1.56,611.28,-10.82,2.11,5.13,270.4,0.02,0.2107,10.779,270.39,-3.114,0.16,0.43,10.334,-0.006,-0.114,0,0,0,270.4,0,0,0,0,0,0,0,0,0,0,0,0,0,1,1,45.49,FLYING
45.74,APPROACH,ILS_TRACK,197.74,200,2.26,607.89,-10.78,2.17,5.19,270.4,0.019,0.2577,11.466,270.39,-3.111,0.16,0.42,10.27,-0.006,-0.111,0,0,0,270.4,0,0,0,0,0,0,0,0,0,0,0,0,0,1,1,45.81,FLYING
46.05,APPROACH,ILS_TRACK,197.07,200,2.93,604.52,-10.75,2.22,5.24,270.4,0.02,0.3056,12.367,270.39,-3.106,0.16,0.42,10.205,-0.006,-0.106,0,0,0,270.4,0,0,0,0,0,0,0,0,0,0,0,0,0,1,1,46.12,FLYING
46.4,APPROACH,ILS_TRACK,196.38,200,3.62,600.78,-10.71,2.28,5.29,270.4,0.02,0.3591,13.612,270.39,-3.103,0.16,0.41,10.134,-0.006,-0.103,0,0,0,270.4,0,0,0,0,0,0,0,0,0,0,0,0,0,1,1,46.47,FLYING
46.72,APPROACH,ILS_TRACK,195.81,200,4.19,597.42,-10.68,2.32,5.33,270.4,0.019,0.406,14.913,270.39,-3.098,0.16,0.4,10.07,-0.006,-0.098,0,0,0,270.4,0,0,0,0,0,0,0,0,0,0,0,0,0,1,1,46.79,FLYING
47.03,APPROACH,ILS_TRACK,195.32,200,4.68,594.07,-10.64,2.36,5.37,270.4,0.018,0.4511,16.371,270.39,-3.096,0.16,0.39,10.007,-0.006,-0.096,0,0,0,270.4,0,0,0,0,0,0,0,0,0,0,0,0,0,1,1,47.1,FLYING
47.35,APPROACH,ILS_TRACK,194.91,200,5.09,590.73,-10.62,2.38,5.39,270.4,0.018,0.4935,17.963,270.39,-3.093,0.16,0.38,9.943,-0.006,-0.093,0,0,0,270.4,0,0,0,0,0,0,0,0,0,0,0,0,0,1,1,47.42,FLYING
47.7,APPROACH,ILS_TRACK,194.55,200,5.45,587.03,-10.59,2.4,5.41,270.4,0.018,0.5362,19.859,270.39,-3.092,0.16,0.37,9.873,-0.006,-0.092,0,0,0,270.4,0,0,0,0,0,0,0,0,0,0,0,0,0,1,1,47.77,FLYING
48.01,APPROACH,ILS_TRACK,194.34,200,5.66,583.7,-10.57,2.41,5.41,270.4,0.016,0.5503,20,270.39,-3.091,0.15,0.37,9.809,-0.006,-0.091,0,0,0,270.4,0,0,0,0,0,0,0,0,0,0,0,0,0,1,1,48.08,FLYING
48.33,APPROACH,ILS_TRACK,194.23,200,5.77,580.38,-10.55,2.41,5.41,270.4,0.016,0.5569,20,270.39,-3.092,0.15,0.36,9.746,-0.006,-0.092,0,0,0,270.4,0,0,0,0,0,0,0,0,0,0,0,0,0,1,1,48.4,FLYING
48.64,APPROACH,ILS_TRACK,194.23,200,5.77,577.05,-10.54,2.4,5.4,270.4,0.015,0.5577,20,270.39,-3.094,0.15,0.36,9.682,-0.006,-0.094,0,0,0,270.4,0,0,0,0,0,0,0,0,0,0,0,0,0,1,1,48.71,FLYING
48.99,APPROACH,ILS_TRACK,194.35,200,5.65,573.36,-10.53,2.38,5.37,270.4,0.018,0.5519,20,270.39,-3.097,0.16,0.35,9.612,-0.007,-0.097,0,0,0,270.4,0,0,0,0,0,0,0,0,0,0,0,0,0,1,1,49.06,FLYING
49.31,APPROACH,ILS_TRACK,194.55,200,5.45,570.03,-10.53,2.35,5.34,270.4,0.019,0.5411,20,270.39,-3.101,0.15,0.35,9.549,-0.006,-0.101,0,0,0,270.4,0,0,0,0,0,0,0,0,0,0,0,0,0,1,1,49.38,FLYING
49.62,APPROACH,ILS_TRACK,194.85,200,5.15,566.71,-10.53,2.31,5.3,270.4,0.02,0.5252,20,270.39,-3.107,0.15,0.35,9.485,-0.006,-0.107,0,0,0,270.4,0,0,0,0,0,0,0,0,0,0,0,0,0,1,1,49.69,FLYING
49.94,APPROACH,ILS_TRACK,195.23,200,4.77,563.37,-10.54,2.27,5.25,270.4,0.019,0.5049,20,270.39,-3.112,0.15,0.35,9.422,-0.006,-0.112,0,0,0,270.4,0,0,0,0,0,0,0,0,0,0,0,0,0,1,1,50.01,FLYING
50.29,APPROACH,ILS_TRACK,195.73,200,4.27,559.67,-10.56,2.22,5.2,270.4,0.019,0.4776,20,270.39,-3.118,0.16,0.36,9.351,-0.006,-0.118,0,0,0,270.4,0,0,0,0,0,0,0,0,0,0,0,0,0,1,1,50.36,FLYING
50.6,APPROACH,ILS_TRACK,196.25,200,3.75,556.32,-10.58,2.16,5.14,270.4,0.022,0.4493,20,270.39,-3.122,0.16,0.36,9.287,-0.006,-0.122,0,0,0,270.4,0,0,0,0,0,0,0,0,0,0,0,0,0,1,1,50.67,FLYING
50.92,APPROACH,ILS_TRACK,196.83,200,3.17,552.97,-10.6,2.11,5.09,270.4,0.023,0.4182,20,270.39,-3.128,0.16,0.37,9.223,-0.007,-0.128,0,0,0,270.4,0,0,0,0,0,0,0,0,0,0,0,0,0,1,1,50.99,FLYING
51.23,APPROACH,ILS_TRACK,197.43,200,2.57,549.61,-10.63,2.06,5.03,270.4,0.023,0.3849,20,270.39,-3.131,0.16,0.38,9.159,-0.007,-0.131,0,0,0,270.4,0,0,0,0,0,0,0,0,0,0,0,0,0,1,1,51.3,FLYING
51.58,APPROACH,ILS_TRACK,198.14,200,1.86,545.87,-10.66,2,4.97,270.4,0.023,0.3461,20,270.39,-3.136,0.16,0.39,9.087,-0.006,-0.136,0,0,0,270.4,0,0,0,0,0,0,0,0,0,0,0,0,0,1,1,51.65,FLYING
51.9,APPROACH,ILS_TRACK,198.79,200,1.21,542.49,-10.69,1.94,4.92,270.4,0.025,0.3103,20,270.39,-3.136,0.16,0.39,9.022,-0.006,-0.136,0,0,0,270.4,0,0,0,0,0,0,0,0,0,0,0,0,0,1,1,51.97,FLYING
52.21,APPROACH,ILS_TRACK,199.44,200,0.56,539.1,-10.73,1.89,4.87,270.4,0.025,0.2746,20,270.39,-3.141,0.16,0.4,8.958,-0.007,-0.141,0,0,0,270.4,0,0,0,0,0,0,0,0,0,0,0,0,0,1,1,52.28,FLYING
52.53,APPROACH,ILS_TRACK,200.07,200,-0.07,535.7,-10.76,1.85,4.83,270.4,0.025,0.2398,19.999,270.39,-3.141,0.16,0.41,8.893,-0.006,-0.141,0,0,0,270.4,0,0,0,0,0,0,0,0,0,0,0,0,0,1,1,52.6,FLYING
52.85,APPROACH,ILS_TRACK,200.71,200,-0.71,532.2,-10.73,1.8,4.76,270.4,0.032,0.2013,19.772,270.39,-3.148,0.16,0.42,8.824,-0.006,-0.148,0,0,0,270.4,0,0,0,0,0,0,0,0,0,0,0,0,0,1,1,52.91,FLYING
53.1,APPROACH,ILS_TRACK,201.19,200,-1.19,529.54,-10.7,1.66,4.61,270.4,0.035,0.1709,19.465,270.39,-3.11,0.16,0.41,8.771,-0.008,-0.11,0,0,0,270.4,0,0,0,0,0,0,0,0,0,0,0,0,0,1,1,53.15,FLYING
53.32,APPROACH,ILS_TRACK,201.6,200,-1.6,527.09,-10.7,1.5,4.45,270.4,0.039,0.1431,19.077,270.39,-3.101,0.16,0.41,8.722,-0.005,-0.101,0,0,0,270.4,0,0,0,0,0,0,0,0,0,0,0,0,0,1,1,53.36,FLYING
53.52,APPROACH,ILS_TRACK,201.91,200,-1.91,524.91,-10.74,1.4,4.35,270.4,0.037,0.121,18.694,270.39,-3.134,0.16,0.41,8.681,-0.007,-0.134,0,0,0,270.4,0,0,0,0,0,0,0,0,0,0,0,0,0,1,1,53.56,FLYING
53.72,APPROACH,ILS_TRACK,202.17,200,-2.17,522.75,-10.82,1.35,4.32,270.4,0.036,0.1012,18.265,270.39,-3.168,0.16,0.42,8.639,-0.007,-0.168,0,0,0,270.4,0,0,0,0,0,0,0,0,0,0,0,0,0,1,1,53.76,FLYING
53.94,APPROACH,ILS_TRACK,202.41,200,-2.41,520.36,-10.8,1.3,4.26,270.4,0.035,0.0815,17.739,270.39,-3.199,0.16,0.44,8.593,-0.006,-0.199,0,0,0,270.4,0,0,0,0,0,0,0,0,0,0,0,0,0,1,1,53.98,FLYING
54.14,APPROACH,ILS_TRACK,202.59,200,-2.59,518.19,-10.88,1.27,4.26,270.4,0.035,0.0653,17.225,270.4,-3.171,0.16,0.45,8.552,-0.005,-0.171,0,0,0,270.4,0,0,0,0,0,0,0,0,0,0,0,0,0,1,1,54.18,FLYING
54.34,APPROACH,ILS_TRACK,202.71,200,-2.71,516.02,-10.86,1.31,4.29,270.4,0.034,0.0518,16.685,270.39,-3.243,0.16,0.47,8.51,-0.007,-0.243,0,0,0,270.4,0,0,0,0,0,0,0,0,0,0,0,0,0,1,1,54.38,FLYING
54.54,APPROACH,ILS_TRACK,202.81,200,-2.81,513.82,-10.83,1.16,4.13,270.4,0.035,0.0395,16.125,270.4,-3.081,0.16,0.46,8.468,-0.005,-0.081,0,0,0,270.4,0,0,0,0,0,0,0,0,0,0,0,0,0,1,1,54.58,FLYING
54.74,APPROACH,ILS_TRACK,202.84,200,-2.84,511.63,-11.04,1.17,4.2,270.4,0.032,0.0304,15.557,270.39,-3.091,0.16,0.45,8.426,-0.005,-0.091,0,0,0,270.4,0,0,0,0,0,0,0,0,0,0,0,0,0,1,1,54.78,FLYING
54.96,APPROACH,ILS_TRACK,202.8,200,-2.8,509.26,-10.99,1.38,4.4,270.4,0.031,0.0253,14.941,270.4,-3.294,0.15,0.49,8.381,-0.004,-0.294,0,0,0,270.4,0,0,0,0,0,0,0,0,0,0,0,0,0,1,1,55,FLYING
55.16,APPROACH,ILS_TRACK,202.75,200,-2.75,507.03,-10.82,1.18,4.15,270.4,0.031,0.021,14.389,270.39,-3.024,0.15,0.46,8.339,-0.006,-0.024,0,0,0,270.4,0,0,0,0,0,0,0,0,0,0,0,0,0,1,1,55.2,FLYING
55.36,APPROACH,ILS_TRACK,202.66,200,-2.66,504.78,-11,0.95,3.97,270.4,0.028,0.0192,13.855,270.4,-2.826,0.15,0.39,8.297,-0.005,0.174,0,0,0,270.4,0,0,0,0,0,0,0,0,0,0,0,0,0,1,1,55.4,FLYING
55.56,APPROACH,ILS_TRACK,202.49,200,-2.49,502.6,-11.26,1.1,4.19,270.4,0.027,0.0223,13.353,270.4,-3.03,0.15,0.37,8.256,-0.004,-0.03,0,0,0,270.4,0,0,0,0,0,0,0,0,0,0,0,0,0,1,1,55.6,FLYING
55.76,APPROACH,ILS_TRACK,202.27,200,-2.27,500.44,-11.17,1.39,4.46,270.4,0.026,0.0288,12.895,270.4,-3.222,0.15,0.39,8.214,-0.005,-0.222,0,0,0,270.4,0,0,0,0,0,0,0,0,0,0,0,0,0,1,1,55.8,FLYING
55.98,APPROACH,ILS_TRACK,202.04,200,-2.04,497.99,-11.04,1.33,4.37,270.4,0.025,0.0356,12.44,270.4,-2.943,0.15,0.35,8.168,-0.004,0.057,0,0,0,270.4,0,0,0,0,0,0,0,0,0,0,0,0,0,1,1,56.02,FLYING
56.18,APPROACH,ILS_TRACK,201.78,200,-1.78,495.77,-11.17,1.35,4.44,270.4,0.025,0.0453,12.078,270.39,-2.882,0.15,0.3,8.127,-0.005,0.118,0,0,0,270.4,0,0,0,0,0,0,0,0,0,0,0,0,0,1,1,56.22,FLYING
56.38,APPROACH,ILS_TRACK,201.46,200,-1.46,493.6,-11.12,1.58,4.65,270.4,0.025,0.0594,11.78,270.4,-3.095,0.15,0.3,8.085,-0.004,-0.095,0,0,0,270.4,0,0,0,0,0,0,0,0,0,0,0,0,0,1,1,56.42,FLYING
56.58,APPROACH,ILS_TRACK,201.15,200,-1.15,491.38,-10.96,1.5,4.53,270.4,0.023,0.0733,11.543,270.39,-2.898,0.15,0.25,8.044,-0.005,0.102,0,0,0,270.4,0,0,0,0,0,0,0,0,0,0,0,0,0,1,1,56.62,FLYING
56.78,APPROACH,ILS_TRACK,200.82,200,-0.82,489.17,-11.05,1.45,4.51,270.4,0.022,0.0893,11.371,270.4,-2.812,0.15,0.19,8.003,-0.004,0.188,0,0,0,270.4,0,0,0,0,0,0,0,0,0,0,0,0,0,1,1,56.82,FLYING
57,APPROACH,ILS_TRACK,200.39,200,-0.39,486.8,-11.06,1.71,4.79,270.4,0.023,0.1115,11.276,270.4,-3.073,0.14,0.2,7.958,-0.004,-0.073,0,0,0,270.4,0,0,0,0,0,0,0,0,0,0,0,0,0,1,1,57.04,FLYING
57.2,APPROACH,ILS_TRACK,200.03,200,-0.03,484.6,-10.83,1.64,4.66,270.4,0.021,0.1313,11.262,270.39,-2.928,0.14,0.17,7.916,-0.005,0.072,0,0,0,270.4,0,0,0,0,0,0,0,0,0,0,0,0,0,1,1,57.24,FLYING
57.4,APPROACH,ILS_TRACK,199.68,200,0.32,482.39,-10.9,1.49,4.53,270.4,0.019,0.1515,11.319,270.4,-2.752,0.14,0.1,7.875,-0.004,0.248,0,0,0,270.4,0,0,0,0,0,0,0,0,0,0,0,0,0,1,1,57.44,FLYING
57.6,APPROACH,ILS_TRACK,199.28,200,0.72,480.24,-11.05,1.68,4.76,270.4,0.018,0.1746,11.454,270.4,-2.971,0.14,0.08,7.834,-0.005,0.029,0,0,0,270.4,0,0,0,0,0,0,0,0,0,0,0,0,0,1,1,57.64,FLYING
57.8,APPROACH,ILS_TRACK,198.89,200,1.11,478.11,-10.79,1.84,4.87,270.4,0.019,0.1991,11.669,270.4,-3.122,0.14,0.11,7.793,-0.004,-0.122,0,0,0,270.4,0,0,0,0,0,0,0,0,0,0,0,0,0,1,1,57.84,FLYING
58.02,APPROACH,ILS_TRACK,198.52,200,1.48,475.68,-10.74,1.63,4.65,270.4,0.018,0.2236,11.988,270.4,-2.766,0.14,0.04,7.749,-0.005,0.234,0,0,0,270.4,0,0,0,0,0,0,0,0,0,0,0,0,0,1,1,58.06,FLYING
58.22,APPROACH,ILS_TRACK,198.16,200,1.84,473.52,-10.88,1.65,4.7,270.4,0.018,0.2474,12.349,270.4,-2.847,0.14,0,7.708,-0.005,0.153,0,0,0,270.4,0,0,0,0,0,0,0,0,0,0,0,0,0,1,1,58.26,FLYING
58.42,APPROACH,ILS_TRACK,197.8,200,2.2,471.41,-10.83,1.86,4.91,270.4,0.019,0.2726,12.782,270.4,-3.078,0.14,0.02,7.667,-0.004,-0.078,0,0,0,270.4,0,0,0,0,0,0,0,0,0,0,0,0,0,1,1,58.46,FLYING
58.62,APPROACH,ILS_TRACK,197.5,200,2.5,469.25,-10.68,1.79,4.8,270.4,0.019,0.2954,13.277,270.4,-2.897,0.14,-0.01,7.627,-0.005,0.103,0,0,0,270.4,0,0,0,0,0,0,0,0,0,0,0,0,0,1,1,58.66,FLYING
58.82,APPROACH,ILS_TRACK,197.2,200,2.8,467.09,-10.78,1.75,4.79,270.4,0.017,0.3181,13.83,270.4,-2.824,0.14,-0.05,7.586,-0.004,0.176,0,0,0,270.4,0,0,0,0,0,0,0,0,0,0,0,0,0,1,1,58.86,FLYING
59.04,APPROACH,ILS_TRACK,196.87,200,3.13,464.78,-10.74,1.96,5,270.4,0.018,0.3448,14.513,270.4,-3.05,0.13,-0.03,7.541,-0.005,-0.05,0,0,0,270.4,0,0,0,0,0,0,0,0,0,0,0,0,0,1,1,59.08,FLYING
59.24,APPROACH,ILS_TRACK,196.63,200,3.37,462.62,-10.59,1.87,4.87,270.4,0.017,0.3665,15.183,270.4,-2.898,0.13,-0.05,7.501,-0.004,0.102,0,0,0,270.4,0,0,0,0,0,0,0,0,0,0,0,0,0,1,1,59.28,FLYING
59.44,APPROACH,ILS_TRACK,196.4,200,3.6,460.48,-10.69,1.82,4.85,270.4,0.017,0.3874,15.898,270.4,-2.829,0.13,-0.09,7.461,-0.004,0.171,0,0,0,270.4,0,0,0,0,0,0,0,0,0,0,0,0,0,1,1,59.48,FLYING
59.64,APPROACH,ILS_TRACK,196.17,200,3.83,458.39,-10.67,2,5.02,270.4,0.018,0.4092,16.659,270.4,-3.055,0.13,-0.07,7.42,-0.005,-0.055,0,0,0,270.4,0,0,0,0,0,0,0,0,0,0,0,0,0,1,1,59.68,FLYING
59.84,APPROACH,ILS_TRACK,196.01,200,3.99,456.25,-10.53,1.91,4.9,270.4,0.016,0.4281,17.455,270.39,-2.909,0.13,-0.09,7.38,-0.005,0.091,0,0,0,270.4,0,0,0,0,0,0,0,0,0,0,0,0,0,1,1,59.88,FLYING
60.06,APPROACH,ILS_TRACK,195.86,200,4.14,453.92,-10.66,1.9,4.93,270.4,0.015,0.4475,18.363,270.4,-2.88,0.13,-0.11,7.336,-0.004,0.12,0,0,0,270.4,0,0,0,0,0,0,0,0,0,0,0,0,0,1,1,60.1,FLYING
60.26,APPROACH,ILS_TRACK,195.74,200,4.26,451.82,-10.57,1.99,5,270.4,0.015,0.4647,19.214,270.39,-3.038,0.13,-0.09,7.295,-0.005,-0.038,0,0,0,270.4,0,0,0,0,0,0,0,0,0,0,0,0,0,1,1,60.3,FLYING
60.46,APPROACH,ILS_TRACK,195.67,200,4.33,449.7,-10.52,1.92,4.91,270.4,0.014,0.4776,20,270.4,-2.915,0.13,-0.11,7.255,-0.005,0.085,0,0,0,270.4,0,0,0,0,0,0,0,0,0,0,0,0,0,1,1,60.5,FLYING
60.66,APPROACH,ILS_TRACK,195.63,200,4.37,447.6,-10.54,1.97,4.97,270.4,0.015,0.4802,20,270.4,-2.991,0.13,-0.1,7.215,-0.005,0.009,0,0,0,270.4,0,0,0,0,0,0,0,0,0,0,0,0,0,1,1,60.7,FLYING
60.86,APPROACH,ILS_TRACK,195.63,200,4.37,445.49,-10.52,1.94,4.93,270.4,0.013,0.4806,20,270.4,-2.951,0.13,-0.11,7.175,-0.005,0.049,0,0,0,270.4,0,0,0,0,0,0,0,0,0,0,0,0,0,1,1,60.9,FLYING
61.08,APPROACH,ILS_TRACK,195.66,200,4.34,443.18,-10.5,1.96,4.94,270.4,0.013,0.4791,20,270.4,-3.004,0.13,-0.1,7.131,-0.005,-0.004,0,0,0,270.4,0,0,0,0,0,0,0,0,0,0,0,0,0,1,1,61.12,FLYING
61.28,APPROACH,ILS_TRACK,195.73,200,4.27,441.08,-10.48,1.94,4.92,270.4,0.013,0.4754,20,270.4,-2.994,0.13,-0.09,7.09,-0.005,0.006,0,0,0,270.4,0,0,0,0,0,0,0,0,0,0,0,0,0,1,1,61.32,FLYING
61.48,APPROACH,ILS_TRACK,195.83,200,4.17,438.98,-10.48,1.93,4.91,270.4,0.012,0.47,20,270.39,-3.01,0.13,-0.08,7.05,-0.005,-0.01,0,0,0,270.4,0,0,0,0,0,0,0,0,0,0,0,0,0,1,1,61.52,FLYING
61.68,APPROACH,ILS_TRACK,195.96,200,4.04,436.88,-10.47,1.92,4.89,270.4,0.011,0.4629,20,270.39,-3.02,0.13,-0.07,7.01,-0.005,-0.02,0,0,0,270.4,0,0,0,0,0,0,0,0,0,0,0,0,0,1,1,61.72,FLYING
61.88,APPROACH,ILS_TRACK,196.12,200,3.88,434.79,-10.46,1.9,4.87,270.4,0.011,0.4542,20,270.39,-3.033,0.13,-0.06,6.97,-0.005,-0.033,0,0,0,270.4,0,0,0,0,0,0,0,0,0,0,0,0,0,1,1,61.92,FLYING
62.1,APPROACH,ILS_TRACK,196.33,200,3.67,432.48,-10.46,1.87,4.84,270.4,0.01,0.443,20,270.4,-3.044,0.13,-0.04,6.925,-0.005,-0.044,0,0,0,270.4,0,0,0,0,0,0,0,0,0,0,0,0,0,1,1,62.14,FLYING
62.3,APPROACH,ILS_TRACK,196.54,200,3.46,430.38,-10.45,1.85,4.81,270.4,0.012,0.4315,20,270.39,-3.058,0.13,-0.03,6.885,-0.006,-0.058,0,0,0,270.4,0,0,0,0,0,0,0,0,0,0,0,0,0,1,1,62.34,FLYING
62.5,APPROACH,ILS_TRACK,196.77,200,3.23,428.28,-10.45,1.81,4.77,270.4,0.012,0.4188,20,270.4,-3.063,0.13,-0.01,6.845,-0.005,-0.063,0,0,0,270.4,0,0,0,0,0,0,0,0,0,0,0,0,0,1,1,62.54,FLYING
62.7,APPROACH,ILS_TRACK,197.03,200,2.97,426.18,-10.47,1.79,4.75,270.4,0.011,0.405,20,270.39,-3.079,0.13,0.01,6.804,-0.006,-0.079,0,0,0,270.4,0,0,0,0,0,0,0,0,0,0,0,0,0,1,1,62.74,FLYING
62.9,APPROACH,ILS_TRACK,197.3,200,2.7,424.08,-10.47,1.75,4.71,270.4,0.011,0.3901,20,270.39,-3.083,0.13,0.03,6.764,-0.006,-0.083,0,0,0,270.4,0,0,0,0,0,0,0,0,0,0,0,0,0,1,1,62.94,FLYING
63.12,APPROACH,ILS_TRACK,197.61,200,2.39,421.77,-10.49,1.72,4.68,270.4,0.011,0.373,20,270.39,-3.099,0.13,0.05,6.719,-0.006,-0.099,0,0,0,270.4,0,0,0,0,0,0,0,0,0,0,0,0,0,1,1,63.16,FLYING
63.32,APPROACH,ILS_TRACK,197.91,200,2.09,419.66,-10.49,1.69,4.65,270.4,0.012,0.3566,20,270.39,-3.101,0.13,0.07,6.679,-0.006,-0.101,0,0,0,270.4,0,0,0,0,0,0,0,0,0,0,0,0,0,1,1,63.36,FLYING
63.52,APPROACH,ILS_TRACK,198.22,200,1.78,417.55,-10.52,1.65,4.61,270.4,0.013,0.3397,20,270.39,-3.108,0.13,0.09,6.638,-0.007,-0.108,0,0,0,270.4,0,0,0,0,0,0,0,0,0,0,0,0,0,1,1,63.56,FLYING
63.72,APPROACH,ILS_TRACK,198.53,200,1.47,415.44,-10.53,1.63,4.59,270.4,0.013,0.3224,20,270.39,-3.119,0.13,0.11,6.597,-0.006,-0.119,0,0,0,270.4,0,0,0,0,0,0,0,0,0,0,0,0,0,1,1,63.76,FLYING
63.92,APPROACH,ILS_TRACK,198.85,200,1.15,413.32,-10.55,1.59,4.55,270.4,0.015,0.3048,20,270.39,-3.115,0.13,0.13,6.557,-0.006,-0.115,0,0,0,270.4,0,0,0,0,0,0,0,0,0,0,0,0,0,1,1,63.96,FLYING
64.14,APPROACH,ILS_TRACK,199.21,200,0.79,410.99,-10.58,1.57,4.53,270.4,0.016,0.2853,20,270.39,-3.128,0.13,0.15,6.512,-0.006,-0.128,0,0,0,270.4,0,0,0,0,0,0,0,0,0,0,0,0,0,1,1,64.18,FLYING
64.34,APPROACH,ILS_TRACK,199.53,200,0.47,408.87,-10.61,1.53,4.5,270.4,0.019,0.2676,20,270.39,-3.114,0.14,0.17,6.471,-0.007,-0.114,0,0,0,270.4,0,0,0,0,0,0,0,0,0,0,0,0,0,1,1,64.38,FLYING
64.54,APPROACH,ILS_TRACK,199.84,200,0.16,406.74,-10.61,1.51,4.48,270.4,0.02,0.2505,20,270.39,-3.14,0.14,0.19,6.43,-0.006,-0.14,0,0,0,270.4,0,0,0,0,0,0,0,0,0,0,0,0,0,1,1,64.58,FLYING
64.74,APPROACH,ILS_TRACK,200.15,200,-0.15,404.61,-10.64,1.48,4.45,270.4,0.021,0.2333,19.977,270.39,-3.12,0.14,0.2,6.389,-0.006,-0.12,0,0,0,270.4,0,0,0,0,0,0,0,0,0,0,0,0,0,1,1,64.78,FLYING
64.94,APPROACH,ILS_TRACK,200.44,200,-0.44,402.48,-10.66,1.48,4.45,270.4,0.022,0.2164,19.895,270.39,-3.149,0.14,0.23,6.348,-0.007,-0.149,0,0,0,270.4,0,0,0,0,0,0,0,0,0,0,0,0,0,1,1,64.98,FLYING
65.16,APPROACH,ILS_TRACK,200.74,200,-0.74,400.12,-10.7,1.43,4.41,270.4,0.023,0.1977,19.738,270.39,-3.109,0.14,0.24,6.303,-0.006,-0.109,0,0,0,270.4,0,0,0,0,0,0,0,0,0,0,0,0,0,1,1,65.2,FLYING
65.36,APPROACH,ILS_TRACK,200.98,200,-0.98,397.99,-10.7,1.45,4.43,270.4,0.025,0.1819,19.547,270.39,-3.168,0.14,0.26,6.262,-0.007,-0.168,0,0,0,270.4,0,0,0,0,0,0,0,0,0,0,0,0,0,1,1,65.4,FLYING
65.56,APPROACH,ILS_TRACK,201.22,200,-1.22,395.83,-10.68,1.36,4.33,270.4,0.025,0.166,19.308,270.39,-3.086,0.14,0.26,6.22,-0.007,-0.086,0,0,0,270.4,0,0,0,0,0,0,0,0,0,0,0,0,0,1,1,65.6,FLYING
65.76,APPROACH,ILS_TRACK,201.41,200,-1.41,393.7,-10.76,1.42,4.41,270.4,0.026,0.1518,19.03,270.39,-3.163,0.14,0.28,6.179,-0.006,-0.163,0,0,0,270.4,0,0,0,0,0,0,0,0,0,0,0,0,0,1,1,65.8,FLYING
65.96,APPROACH,ILS_TRACK,201.58,200,-1.58,391.53,-10.71,1.33,4.3,270.4,0.026,0.1384,18.716,270.39,-3.091,0.14,0.28,6.138,-0.007,-0.091,0,0,0,270.4,0,0,0,0,0,0,0,0,0,0,0,0,0,1,1,66,FLYING
66.18,APPROACH,ILS_TRACK,201.73,200,-1.73,389.18,-10.81,1.4,4.4,270.4,0.026,0.1253,18.337,270.39,-3.139,0.14,0.3,6.093,-0.007,-0.139,0,0,0,270.4,0,0,0,0,0,0,0,0,0,0,0,0,0,1,1,66.22,FLYING
66.38,APPROACH,ILS_TRACK,201.84,200,-1.84,387.01,-10.76,1.35,4.34,270.4,0.027,0.1149,17.971,270.39,-3.111,0.14,0.3,6.051,-0.007,-0.111,0,0,0,270.4,0,0,0,0,0,0,0,0,0,0,0,0,0,1,1,66.42,FLYING
66.58,APPROACH,ILS_TRACK,201.92,200,-1.92,384.86,-10.79,1.4,4.39,270.4,0.027,0.1059,17.588,270.39,-3.143,0.14,0.31,6.01,-0.006,-0.143,0,0,0,270.4,0,0,0,0,0,0,0,0,0,0,0,0,0,1,1,66.62,FLYING
66.78,APPROACH,ILS_TRACK,201.97,200,-1.97,382.7,-10.8,1.35,4.35,270.4,0.027,0.0981,17.195,270.39,-3.081,0.15,0.31,5.969,-0.007,-0.081,0,0,0,270.4,0,0,0,0,0,0,0,0,0,0,0,0,0,1,1,66.82,FLYING
66.98,APPROACH,ILS_TRACK,201.98,200,-1.98,380.55,-10.8,1.43,4.42,270.4,0.027,0.0929,16.8,270.39,-3.162,0.15,0.33,5.928,-0.007,-0.162,0,0,0,270.4,0,0,0,0,0,0,0,0,0,0,0,0,0,1,1,67.02,FLYING
67.2,APPROACH,ILS_TRACK,201.97,200,-1.97,378.16,-10.77,1.32,4.31,270.4,0.027,0.0881,16.366,270.39,-3.044,0.15,0.31,5.882,-0.006,-0.044,0,0,0,270.4,0,0,0,0,0,0,0,0,0,0,0,0,0,1,1,67.24,FLYING
67.4,APPROACH,ILS_TRACK,201.9,200,-1.9,376.01,-10.86,1.41,4.42,270.4,0.027,0.0867,15.984,270.39,-3.133,0.15,0.32,5.841,-0.007,-0.133,0,0,0,270.4,0,0,0,0,0,0,0,0,0,0,0,0,0,1,1,67.44,FLYING
67.6,APPROACH,ILS_TRACK,201.82,200,-1.82,373.85,-10.78,1.38,4.37,270.4,0.026,0.0869,15.619,270.39,-3.105,0.15,0.32,5.8,-0.006,-0.105,0,0,0,270.4,0,0,0,0,0,0,0,0,0,0,0,0,0,1,1,67.64,FLYING
67.8,APPROACH,ILS_TRACK,201.71,200,-1.71,371.7,-10.83,1.43,4.44,270.4,0.026,0.0887,15.275,270.39,-3.111,0.15,0.33,5.759,-0.007,-0.111,0,0,0,270.4,0,0,0,0,0,0,0,0,0,0,0,0,0,1,1,67.84,FLYING
68,APPROACH,ILS_TRACK,201.57,200,-1.57,369.54,-10.8,1.46,4.47,270.4,0.025,0.0924,14.958,270.39,-3.122,0.15,0.33,5.717,-0.006,-0.122,0,0,0,270.4,0,0,0,0,0,0,0,0,0,0,0,0,0,1,1,68.04,FLYING
68.22,APPROACH,ILS_TRACK,201.4,200,-1.4,367.17,-10.79,1.47,4.47,270.4,0.025,0.098,14.647,270.39,-3.094,0.15,0.33,5.672,-0.006,-0.094,0,0,0,270.4,0,0,0,0,0,0,0,0,0,0,0,0,0,1,1,68.26,FLYING
68.42,APPROACH,ILS_TRACK,201.21,200,-1.21,365.02,-10.78,1.49,4.5,270.4,0.024,0.1051,14.401,270.39,-3.119,0.15,0.34,5.631,-0.007,-0.119,0,0,0,270.4,0,0,0,0,0,0,0,0,0,0,0,0,0,1,1,68.46,FLYING
68.62,APPROACH,ILS_TRACK,201.01,200,-1.01,362.87,-10.78,1.5,4.5,270.4,0.024,0.1134,14.194,270.39,-3.093,0.15,0.33,5.59,-0.007,-0.093,0,0,0,270.4,0,0,0,0,0,0,0,0,0,0,0,0,0,1,1,68.66,FLYING
68.82,APPROACH,ILS_TRACK,200.79,200,-0.79,360.73,-10.75,1.53,4.54,270.4,0.023,0.1236,14.031,270.39,-3.13,0.15,0.34,5.549,-0.006,-0.13,0,0,0,270.4,0,0,0,0,0,0,0,0,0,0,0,0,0,1,1,68.86,FLYING
69.02,APPROACH,ILS_TRACK,200.57,200,-0.57,358.58,-10.73,1.5,4.51,270.4,0.023,0.1344,13.913,270.39,-3.079,0.15,0.34,5.508,-0.007,-0.079,0,0,0,270.4,0,0,0,0,0,0,0,0,0,0,0,0,0,1,1,69.06,FLYING
69.24,APPROACH,ILS_TRACK,200.29,200,-0.29,356.23,-10.73,1.58,4.58,270.4,0.023,0.1486,13.843,270.39,-3.146,0.15,0.35,5.463,-0.007,-0.146,0,0,0,270.4,0,0,0,0,0,0,0,0,0,0,0,0,0,1,1,69.28,FLYING
69.44,APPROACH,ILS_TRACK,200.06,200,-0.06,354.08,-10.68,1.51,4.51,270.4,0.023,0.1615,13.827,270.39,-3.06,0.15,0.34,5.422,-0.006,-0.06,0,0,0,270.4,0,0,0,0,0,0,0,0,0,0,0,0,0,1,1,69.48,FLYING
69.64,APPROACH,ILS_TRACK,199.8,200,0.2,351.95,-10.74,1.58,4.6,270.4,0.023,0.1761,13.862,270.39,-3.121,0.15,0.34,5.382,-0.007,-0.121,0,0,0,270.4,0,0,0,0,0,0,0,0,0,0,0,0,0,1,1,69.68,FLYING
69.84,APPROACH,ILS_TRACK,199.55,200,0.45,349.82,-10.69,1.59,4.6,270.4,0.023,0.191,13.948,270.39,-3.113,0.15,0.34,5.341,-0.007,-0.113,0,0,0,270.4,0,0,0,0,0,0,0,0,0,0,0,0,0,1,1,69.88,FLYING
70.04,APPROACH,ILS_TRACK,199.3,200,0.7,347.69,-10.68,1.62,4.63,270.4,0.023,0.2061,14.083,270.39,-3.113,0.15,0.35,5.3,-0.006,-0.113,0,0,0,270.4,0,0,0,0,0,0,0,0,0,0,0,0,0,1,1,70.08,FLYING
70.26,APPROACH,ILS_TRACK,199.04,200,0.96,345.35,-10.66,1.65,4.65,270.4,0.022,0.223,14.289,270.39,-3.11,0.15,0.35,5.255,-0.007,-0.11,0,0,0,270.4,0,0,0,0,0,0,0,0,0,0,0,0,0,1,1,70.3,FLYING
70.46,APPROACH,ILS_TRACK,198.81,200,1.19,343.22,-10.65,1.67,4.67,270.4,0.022,0.2386,14.523,270.39,-3.109,0.15,0.35,5.215,-0.006,-0.109,0,0,0,270.4,0,0,0,0,0,0,0,0,0,0,0,0,0,1,1,70.5,FLYING
70.66,APPROACH,ILS_TRACK,198.59,200,1.41,341.1,-10.63,1.68,4.69,270.4,0.022,0.2542,14.801,270.39,-3.109,0.16,0.35,5.174,-0.007,-0.109,0,0,0,270.4,0,0,0,0,0,0,0,0,0,0,0,0,0,1,1,70.7,FLYING
70.86,APPROACH,ILS_TRACK,198.37,200,1.63,338.98,-10.62,1.7,4.7,270.4,0.022,0.2698,15.122,270.39,-3.109,0.16,0.35,5.134,-0.006,-0.109,0,0,0,270.4,0,0,0,0,0,0,0,0,0,0,0,0,0,1,1,70.9,FLYING
71.06,APPROACH,ILS_TRACK,198.17,200,1.83,336.86,-10.61,1.71,4.72,270.4,0.022,0.2852,15.484,270.39,-3.11,0.16,0.35,5.093,-0.007,-0.11,0,0,0,270.4,0,0,0,0,0,0,0,0,0,0,0,0,0,1,1,71.1,FLYING
71.28,APPROACH,ILS_TRACK,197.97,200,2.03,334.53,-10.59,1.73,4.73,270.4,0.022,0.3018,15.927,270.39,-3.11,0.16,0.35,5.049,-0.007,-0.11,0,0,0,270.4,0,0,0,0,0,0,0,0,0,0,0,0,0,1,1,71.32,FLYING
71.48,APPROACH,ILS_TRACK,197.8,200,2.2,332.42,-10.58,1.74,4.74,270.4,0.022,0.3165,16.363,270.39,-3.11,0.16,0.35,5.009,-0.006,-0.11,0,0,0,270.4,0,0,0,0,0,0,0,0,0,0,0,0,0,1,1,71.52,FLYING
71.68,APPROACH,ILS_TRACK,197.65,200,2.35,330.3,-10.57,1.74,4.74,270.4,0.021,0.3306,16.831,270.39,-3.111,0.16,0.36,4.968,-0.007,-0.111,0,0,0,270.4,0,0,0,0,0,0,0,0,0,0,0,0,0,1,1,71.72,FLYING
71.88,APPROACH,ILS_TRACK,197.51,200,2.49,328.19,-10.56,1.75,4.75,270.4,0.022,0.344,17.326,270.39,-3.111,0.16,0.36,4.928,-0.007,-0.111,0,0,0,270.4,0,0,0,0,0,0,0,0,0,0,0,0,0,1,1,71.92,FLYING
72.08,APPROACH,ILS_TRACK,197.4,200,2.6,326.08,-10.55,1.76,4.75,270.4,0.022,0.3566,17.844,270.39,-3.113,0.16,0.36,4.888,-0.007,-0.113,0,0,0,270.4,0,0,0,0,0,0,0,0,0,0,0,0,0,1,1,72.12,FLYING
72.3,APPROACH,ILS_TRACK,197.3,200,2.7,323.77,-10.54,1.76,4.76,270.4,0.022,0.3694,18.437,270.39,-3.113,0.16,0.36,4.843,-0.007,-0.113,0,0,0,270.4,0,0,0,0,0,0,0,0,0,0,0,0,0,1,1,72.34,FLYING
72.5,APPROACH,ILS_TRACK,197.23,200,2.77,321.66,-10.54,1.76,4.76,270.4,0.022,0.38,18.99,270.39,-3.114,0.16,0.36,4.803,-0.007,-0.114,0,0,0,270.4,0,0,0,0,0,0,0,0,0,0,0,0,0,1,1,72.54,FLYING
72.7,APPROACH,ILS_TRACK,197.18,200,2.82,319.55,-10.53,1.76,4.76,270.4,0.023,0.3895,19.553,270.39,-3.114,0.16,0.36,4.763,-0.006,-0.114,0,0,0,270.4,0,0,0,0,0,0,0,0,0,0,0,0,0,1,1,72.74,FLYING
72.9,APPROACH,ILS_TRACK,197.16,200,2.84,317.44,-10.53,1.76,4.75,270.4,0.022,0.3964,20,270.39,-3.114,0.16,0.36,4.723,-0.007,-0.114,0,0,0,270.4,0,0,0,0,0,0,0,0,0,0,0,0,0,1,1,72.94,FLYING
73.1,APPROACH,ILS_TRACK,197.15,200,2.85,315.34,-10.52,1.75,4.75,270.4,0.022,0.3965,20,270.39,-3.114,0.16,0.36,4.682,-0.006,-0.114,0,0,0,270.4,0,0,0,0,0,0,0,0,0,0,0,0,0,1,1,73.14,FLYING
73.32,APPROACH,ILS_TRACK,197.18,200,2.82,313.02,-10.52,1.75,4.74,270.4,0.022,0.3952,20,270.39,-3.114,0.16,0.37,4.638,-0.007,-0.114,0,0,0,270.4,0,0,0,0,0,0,0,0,0,0,0,0,0,1,1,73.36,FLYING
73.52,APPROACH,ILS_TRACK,197.23,200,2.77,310.92,-10.52,1.74,4.73,270.4,0.023,0.3928,20,270.39,-3.116,0.16,0.37,4.598,-0.007,-0.116,0,0,0,270.4,0,0,0,0,0,0,0,0,0,0,0,0,0,1,1,73.56,FLYING
73.72,APPROACH,ILS_TRACK,197.3,200,2.7,308.81,-10.52,1.73,4.72,270.4,0.023,0.389,20,270.39,-3.116,0.16,0.37,4.558,-0.007,-0.116,0,0,0,270.4,0,0,0,0,0,0,0,0,0,0,0,0,0,1,1,73.76,FLYING
73.92,APPROACH,ILS_TRACK,197.39,200,2.61,306.7,-10.53,1.72,4.71,270.4,0.023,0.3842,20,270.39,-3.114,0.16,0.37,4.518,-0.007,-0.114,0,0,0,270.4,0,0,0,0,0,0,0,0,0,0,0,0,0,1,1,73.96,FLYING
74.12,APPROACH,ILS_TRACK,197.5,200,2.5,304.59,-10.52,1.71,4.7,270.4,0.023,0.3783,20,270.39,-3.12,0.16,0.37,4.477,-0.007,-0.12,0,0,0,270.4,0,0,0,0,0,0,0,0,0,0,0,0,0,1,1,74.16,FLYING
74.34,APPROACH,ILS_TRACK,197.64,200,2.36,302.27,-10.53,1.69,4.68,270.4,0.023,0.3706,20,270.39,-3.116,0.16,0.37,4.433,-0.007,-0.116,0,0,0,270.4,0,0,0,0,0,0,0,0,0,0,0,0,0,1,1,74.38,FLYING
74.54,APPROACH,ILS_TRACK,197.78,200,2.22,300.16,-10.54,1.68,4.67,270.4,0.023,0.3627,20,270.39,-3.12,0.16,0.37,4.393,-0.007,-0.12,0,0,0,270.4,0,0,0,0,0,0,0,0,0,0,0,0,0,1,1,74.58,FLYING
74.74,APPROACH,ILS_TRACK,197.94,200,2.06,298.05,-10.54,1.66,4.65,270.4,0.023,0.354,20,270.39,-3.12,0.16,0.38,4.352,-0.007,-0.12,0,0,0,270.4,0,0,0,0,0,0,0,0,0,0,0,0,0,1,1,74.78,FLYING
74.94,APPROACH,ILS_TRACK,198.12,200,1.88,295.94,-10.54,1.65,4.64,270.4,0.024,0.3445,20,270.39,-3.12,0.16,0.38,4.312,-0.007,-0.12,0,0,0,270.4,0,0,0,0,0,0,0,0,0,0,0,0,0,1,1,74.98,FLYING
75.14,APPROACH,ILS_TRACK,198.3,200,1.7,293.82,-10.55,1.63,4.62,270.4,0.024,0.3343,20,270.39,-3.121,0.16,0.38,4.272,-0.007,-0.121,0,0,0,270.4,0,0,0,0,0,0,0,0,0,0,0,0,0,1,1,75.18,FLYING
75.36,APPROACH,ILS_TRACK,198.52,200,1.48,291.5,-10.56,1.61,4.6,270.4,0.024,0.3225,20,270.39,-3.122,0.16,0.38,4.227,-0.007,-0.122,0,0,0,270.4,0,0,0,0,0,0,0,0,0,0,0,0,0,1,1,75.4,FLYING
75.56,APPROACH,ILS_TRACK,198.72,200,1.28,289.38,-10.56,1.59,4.58,270.4,0.024,0.3113,20,270.39,-3.124,0.16,0.38,4.187,-0.007,-0.124,0,0,0,270.4,0,0,0,0,0,0,0,0,0,0,0,0,0,1,1,75.6,FLYING
75.76,APPROACH,ILS_TRACK,198.94,200,1.06,287.26,-10.58,1.58,4.57,270.4,0.025,0.2997,20,270.39,-3.121,0.16,0.39,4.146,-0.006,-0.121,0,0,0,270.4,0,0,0,0,0,0,0,0,0,0,0,0,0,1,1,75.8,FLYING
75.96,APPROACH,ILS_TRACK,199.15,200,0.85,285.14,-10.59,1.56,4.55,270.4,0.025,0.2879,20,270.39,-3.124,0.17,0.39,4.106,-0.007,-0.124,0,0,0,270.4,0,0,0,0,0,0,0,0,0,0,0,0,0,1,1,76,FLYING
76.16,APPROACH,ILS_TRACK,199.37,200,0.63,283.01,-10.6,1.54,4.53,270.4,0.026,0.276,20,270.39,-3.123,0.17,0.39,4.065,-0.007,-0.123,0,0,0,270.4,0,0,0,0,0,0,0,0,0,0,0,0,0,1,1,76.2,FLYING
76.38,APPROACH,ILS_TRACK,199.61,200,0.39,280.67,-10.61,1.52,4.51,270.4,0.025,0.2628,20,270.39,-3.126,0.17,0.39,4.021,-0.007,-0.126,0,0,0,270.4,0,0,0,0,0,0,0,0,0,0,0,0,0,1,1,76.42,FLYING
76.58,APPROACH,ILS_TRACK,199.82,200,0.18,278.55,-10.62,1.51,4.5,270.4,0.027,0.2509,20,270.39,-3.125,0.17,0.39,3.98,-0.007,-0.125,0,0,0,270.4,0,0,0,0,0,0,0,0,0,0,0,0,0,1,1,76.62,FLYING
76.78,APPROACH,ILS_TRACK,200.04,200,-0.04,276.42,-10.63,1.49,4.48,270.4,0.025,0.2391,19.997,270.39,-3.125,0.17,0.39,3.939,-0.007,-0.125,0,0,0,270.4,0,0,0,0,0,0,0,0,0,0,0,0,0,1,1,76.82,FLYING
76.98,APPROACH,ILS_TRACK,200.24,200,-0.24,274.29,-10.64,1.48,4.47,270.4,0.024,0.2273,19.953,270.39,-3.127,0.17,0.4,3.899,-0.007,-0.127,0,0,0,270.4,0,0,0,0,0,0,0,0,0,0,0,0,0,1,1,77.02,FLYING
77.18,APPROACH,ILS_TRACK,200.44,200,-0.44,272.15,-10.65,1.46,4.45,270.4,0.024,0.2154,19.869,270.39,-3.127,0.17,0.4,3.858,-0.007,-0.127,0,0,0,270.4,0,0,0,0,0,0,0,0,0,0,0,0,0,1,1,77.22,FLYING
77.4,APPROACH,ILS_TRACK,200.64,200,-0.64,269.8,-10.66,1.45,4.44,270.4,0.026,0.2026,19.733,270.39,-3.128,0.17,0.4,3.813,-0.007,-0.128,0,0,0,270.4,0,0,0,0,0,0,0,0,0,0,0,0,0,1,1,77.44,FLYING
77.6,APPROACH,ILS_TRACK,200.81,200,-0.81,267.67,-10.67,1.44,4.43,270.4,0.027,0.1914,19.574,270.39,-3.128,0.17,0.4,3.772,-0.007,-0.128,0,0,0,270.4,0,0,0,0,0,0,0,0,0,0,0,0,0,1,1,77.64,FLYING
77.8,APPROACH,ILS_TRACK,200.96,200,-0.96,265.53,-10.68,1.43,4.42,270.4,0.027,0.1806,19.385,270.39,-3.129,0.17,0.4,3.731,-0.007,-0.129,0,0,0,270.4,0,0,0,0,0,0,0,0,0,0,0,0,0,1,1,77.84,FLYING
78,APPROACH,ILS_TRACK,201.09,200,-1.09,263.39,-10.69,1.42,4.42,270.4,0.026,0.1705,19.169,270.39,-3.13,0.17,0.41,3.691,-0.007,-0.13,0,0,0,270.4,0,0,0,0,0,0,0,0,0,0,0,0,0,1,1,78.04,FLYING
78.2,APPROACH,ILS_TRACK,201.21,200,-1.21,261.25,-10.69,1.41,4.41,270.4,0.025,0.1612,18.929,270.39,-3.131,0.17,0.41,3.65,-0.007,-0.131,0,0,0,270.4,0,0,0,0,0,0,0,0,0,0,0,0,0,1,1,78.24,FLYING
78.42,APPROACH,ILS_TRACK,201.31,200,-1.31,258.9,-10.69,1.41,4.4,270.4,0.025,0.1519,18.642,270.39,-3.131,0.17,0.41,3.605,-0.007,-0.131,0,0,0,270.4,0,0,0,0,0,0,0,0,0,0,0,0,0,1,1,78.46,FLYING
78.62,APPROACH,ILS_TRACK,201.38,200,-1.38,256.76,-10.7,1.41,4.4,270.4,0.024,0.1446,18.366,270.39,-3.129,0.17,0.41,3.564,-0.007,-0.129,0,0,0,270.4,0,0,0,0,0,0,0,0,0,0,0,0,0,1,1,78.66,FLYING
78.82,APPROACH,ILS_TRACK,201.43,200,-1.43,254.62,-10.7,1.41,4.4,270.4,0.024,0.1384,18.08,270.39,-3.134,0.17,0.41,3.523,-0.007,-0.134,0,0,0,270.4,0,0,0,0,0,0,0,0,0,0,0,0,0,1,1,78.86,FLYING
79.02,APPROACH,ILS_TRACK,201.46,200,-1.46,252.48,-10.7,1.4,4.4,270.4,0.023,0.1333,17.789,270.39,-3.13,0.17,0.42,3.482,-0.007,-0.13,0,0,0,270.4,0,0,0,0,0,0,0,0,0,0,0,0,0,1,1,79.06,FLYING
79.22,APPROACH,ILS_TRACK,201.46,200,-1.46,250.34,-10.71,1.41,4.41,270.4,0.023,0.1295,17.496,270.39,-3.133,0.17,0.42,3.441,-0.007,-0.133,0,0,0,270.4,0,0,0,0,0,0,0,0,0,0,0,0,0,1,1,79.26,FLYING
79.44,APPROACH,ILS_TRACK,201.44,200,-1.44,247.98,-10.71,1.41,4.41,270.4,0.024,0.1267,17.179,270.39,-3.132,0.17,0.42,3.396,-0.007,-0.132,0,0,0,270.4,0,0,0,0,0,0,0,0,0,0,0,0,0,1,1,79.48,FLYING
79.64,APPROACH,ILS_TRACK,201.4,200,-1.4,245.84,-10.71,1.42,4.42,270.4,0.023,0.1256,16.898,270.39,-3.134,0.17,0.42,3.355,-0.007,-0.134,0,0,0,270.4,0,0,0,0,0,0,0,0,0,0,0,0,0,1,1,79.68,FLYING
79.84,APPROACH,ILS_TRACK,201.33,200,-1.33,243.7,-10.7,1.42,4.42,270.4,0.023,0.1258,16.63,270.39,-3.132,0.17,0.42,3.315,-0.007,-0.132,0,0,0,270.4,0,0,0,0,0,0,0,0,0,0,0,0,0,1,1,79.88,FLYING
80.04,APPROACH,ILS_TRACK,201.25,200,-1.25,241.57,-10.7,1.43,4.44,270.4,0.022,0.1272,16.378,270.39,-3.134,0.17,0.42,3.274,-0.007,-0.134,0,0,0,270.4,0,0,0,0,0,0,0,0,0,0,0,0,0,1,1,80.08,FLYING
80.24,APPROACH,ILS_TRACK,201.15,200,-1.15,239.43,-10.7,1.44,4.44,270.4,0.022,0.1299,16.145,270.39,-3.131,0.17,0.43,3.233,-0.007,-0.131,0,0,0,270.4,0,0,0,0,0,0,0,0,0,0,0,0,0,1,1,80.28,FLYING
80.46,APPROACH,ILS_TRACK,201.02,200,-1.02,237.08,-10.69,1.45,4.46,270.4,0.022,0.1344,15.919,270.39,-3.135,0.17,0.43,3.188,-0.007,-0.135,0,0,0,270.4,0,0,0,0,0,0,0,0,0,0,0,0,0,1,1,80.5,FLYING
80.66,APPROACH,ILS_TRACK,200.88,200,-0.88,234.95,-10.68,1.46,4.46,270.4,0.022,0.1395,15.739,270.39,-3.128,0.17,0.43,3.147,-0.007,-0.128,0,0,0,270.4,0,0,0,0,0,0,0,0,0,0,0,0,0,1,1,80.7,FLYING
80.86,APPROACH,ILS_TRACK,200.73,200,-0.73,232.82,-10.68,1.48,4.48,270.4,0.022,0.1459,15.59,270.39,-3.132,0.17,0.43,3.107,-0.007,-0.132,0,0,0,270.4,0,0,0,0,0,0,0,0,0,0,0,0,0,1,1,80.9,FLYING
81.06,APPROACH,ILS_TRACK,200.57,200,-0.57,230.68,-10.67,1.49,4.49,270.4,0.022,0.1532,15.472,270.39,-3.131,0.17,0.43,3.066,-0.007,-0.131,0,0,0,270.4,0,0,0,0,0,0,0,0,0,0,0,0,0,1,1,81.1,FLYING
81.26,APPROACH,ILS_TRACK,200.41,200,-0.41,228.56,-10.66,1.5,4.51,270.4,0.022,0.1614,15.387,270.39,-3.128,0.17,0.43,3.025,-0.007,-0.128,0,0,0,270.4,0,0,0,0,0,0,0,0,0,0,0,0,0,1,1,81.3,FLYING
81.48,APPROACH,ILS_TRACK,200.21,200,-0.21,226.22,-10.65,1.52,4.52,270.4,0.02,0.1713,15.336,270.39,-3.132,0.17,0.43,2.981,-0.007,-0.132,0,0,0,270.4,0,0,0,0,0,0,0,0,0,0,0,0,0,1,1,81.52,FLYING
81.68,APPROACH,ILS_TRACK,200.04,200,-0.04,224.09,-10.64,1.53,4.54,270.4,0.021,0.1809,15.325,270.39,-3.128,0.17,0.43,2.94,-0.006,-0.128,0,0,0,270.4,0,0,0,0,0,0,0,0,0,0,0,0,0,1,1,81.72,FLYING
81.88,APPROACH,ILS_TRACK,199.86,200,0.14,221.97,-10.63,1.55,4.55,270.4,0.02,0.191,15.35,270.39,-3.13,0.17,0.43,2.9,-0.007,-0.13,0,0,0,270.4,0,0,0,0,0,0,0,0,0,0,0,0,0,1,1,81.92,FLYING
82.08,APPROACH,ILS_TRACK,199.68,200,0.32,219.85,-10.62,1.56,4.56,270.4,0.021,0.2015,15.41,270.39,-3.125,0.17,0.43,2.859,-0.007,-0.125,0,0,0,270.4,0,0,0,0,0,0,0,0,0,0,0,0,0,1,1,82.12,FLYING
82.28,APPROACH,ILS_TRACK,199.5,200,0.5,217.73,-10.61,1.57,4.58,270.4,0.021,0.2124,15.506,270.39,-3.129,0.17,0.43,2.819,-0.007,-0.129,0,0,0,270.4,0,0,0,0,0,0,0,0,0,0,0,0,0,1,1,82.32,FLYING
82.5,APPROACH,ILS_TRACK,199.32,200,0.68,215.4,-10.6,1.59,4.59,270.4,0.021,0.2245,15.652,270.39,-3.124,0.17,0.43,2.774,-0.007,-0.124,0,0,0,270.4,0,0,0,0,0,0,0,0,0,0,0,0,0,1,1,82.54,FLYING
82.7,APPROACH,ILS_TRACK,199.15,200,0.85,213.28,-10.59,1.6,4.6,270.4,0.021,0.2357,15.819,270.39,-3.126,0.17,0.43,2.734,-0.007,-0.126,0,0,0,270.4,0,0,0,0,0,0,0,0,0,0,0,0,0,1,1,82.74,FLYING
82.9,APPROACH,ILS_TRACK,198.99,200,1.01,211.17,-10.58,1.61,4.61,270.4,0.02,0.2469,16.018,270.39,-3.123,0.17,0.43,2.694,-0.006,-0.123,0,0,0,270.4,0,0,0,0,0,0,0,0,0,0,0,0,0,1,1,82.94,FLYING
83.1,APPROACH,ILS_TRACK,198.84,200,1.16,209.05,-10.57,1.62,4.62,270.4,0.02,0.2581,16.248,270.39,-3.124,0.17,0.42,2.653,-0.007,-0.124,0,0,0,270.4,0,0,0,0,0,0,0,0,0,0,0,0,0,1,1,83.14,FLYING
83.3,APPROACH,ILS_TRACK,198.69,200,1.31,206.94,-10.57,1.63,4.63,270.4,0.02,0.2691,16.506,270.39,-3.12,0.17,0.42,2.613,-0.007,-0.12,0,0,0,270.4,0,0,0,0,0,0,0,0,0,0,0,0,0,1,1,83.34,FLYING
83.52,APPROACH,ILS_TRACK,198.55,200,1.45,204.62,-10.56,1.64,4.64,270.4,0.02,0.281,16.823,270.39,-3.123,0.17,0.42,2.569,-0.007,-0.123,0,0,0,270.4,0,0,0,0,0,0,0,0,0,0,0,0,0,1,1,83.56,FLYING
