t_s,phase,subphase,ias_ms,vapp_ms,spd_err_ms,agl_m,gear_h_m,vs_ms,pitch_deg,aoa_deg,hdg_deg,bank_deg,thr_cmd,thr_cur,thr_intg,at_gain,at_tau_s,at_a_up,at_a_dn,at_kp_thr,at_ki_spd,at_thr_slew,as_cmd_deg,as_cap_deg,as_raw_deg,as_spd_err_ms,as_active,aa_hdg_cmd_deg,aa_fpa_cmd_deg,aa_fbw,aa_dir,actual_fpa_deg,ftf_hdg_err_deg,ftf_fix_idx,kos_steer_pit_deg,kos_steer_hdg_deg,aa_dir_vx,aa_dir_vy,aa_dir_vz,aa_dir_pitch_deg,aa_dir_hdg_deg,ils_loc_m,ils_gs_m,ils_dist_km,loc_corr_deg,gs_corr_deg,gs_latched,active_gs_ang_deg,ils_intercept_alt_m,d_gs_ms,fpa_preclamped_deg,gs_nom_alt_m,flare_fpa_cmd,flare_tgt_vs,flare_frac,flare_mode,flare_auth_limited,flare_vs_err,flare_fpa_err,flare_pitch_err,flare_req_up_a,flare_thr_floor,steer_hdg_deg,steer_blend,ro_loc_corr_deg,ro_hdg_err_deg,ro_yaw_tgt,ro_yaw_scale,ro_yaw_gate,yaw_cmd,roll_cmd,pitch_cmd,ro_pitch_tgt_deg,ro_pitch_err_deg,ro_pitch_ff,ro_roll_assist,flaps_cur,flaps_tgt,asc_j_ab,asc_j_rk,asc_validity,asc_q_pa,asc_q_raw_pa,asc_mach,asc_apo_m,asc_drag_n,asc_w_prop,asc_edot_aero,asc_edot_orb,asc_pitch_bias,asc_blend,asc_spooling,asc_ab_thr_ratio,asc_ab_t_now,asc_ab_t_avail,asc_ab_ign_on,asc_ab_flameouts,asc_rk_t_now,asc_rk_t_avail,asc_rk_ign_on,asc_rk_flameouts,ship_thrust,ship_avail_thrust,ship_ign_on,ship_flameouts,ifc_raw_dt_s,ifc_dt_s,ifc_loop_n,ifc_hz_est,ifc_raw_dt_max_s,ifc_raw_dt_min_s,phase_el_s,status,craft_name,cfg_file
0.16,APPROACH,ILS_TRACK,155.1,152,-3.1,669.44,589.35,-21.42,8.02,15.54,269.95,-0.265,0,0,0,0,0,0,0,0,0,0,0,0,0,0,0,0,0,1,0,-7.88,0,0,0,90,0,0,0,0,0,-0.02,-20.74,11.752,0,0,0,3,669.44,0,0,690.18,0,0,0,,0,0,0,0,0,0,269.96,0,0,0,0,0,0,0,0,0,0,0,0,0,0,0,0,0,VALID,0,0,0,0,0,1,0,0,0,0,0,0,0,0,0,0,0,0,0,0,258.09,1092.09,2,0,0.14,0.14,1,3.7,0.14,0.02,0.16,FLYING,X10-F,0:/Integrated Flight Computer/aircraft/x10_f_cfg.ks (inferred preloaded)
0.42,APPROACH,ILS_TRACK,155.19,152,-3.19,664.12,583.86,-20.76,8.61,15.92,269.93,-0.198,0,0,0,1,0.6,1.485,0.75,0.35,0.0168,0.4,1.925,20.99,1.925,3.197,1,270,0,0,1,-7.66,0,0,0,270.04,0.4334,0.0001,0.9012,0,270,-0.02,-23.37,11.716,0.004,16.607,1,3,669.44,-11.997,0,688.31,0,0,0,,0,0,0,0,0,0,269.96,0,0,0,0,0,0,0,0,0,0,0,0,0,1,3,0,0,VALID,0,0,0,0,0,1,0,0,0,0,0,0,0,0,0,0,0,0,0,0,235.76,1092.94,2,0,0.12,0.12,3,7.69,0.14,0.12,0.42,FLYING,X10-F,0:/Integrated Flight Computer/aircraft/x10_f_cfg.ks (inferred preloaded)
0.68,APPROACH,ILS_TRACK,155.14,152,-3.14,658.74,578.55,-20.09,8.51,15.53,269.94,-0.159,0,0,0,1,0.6,2.743,0.75,0.35,0.0168,0.4,1.867,21.005,1.867,3.144,1,270.01,0,0,1,-7.42,0,0,0,270.01,0.4335,0.0002,0.9011,0,270.01,-0.03,-26.52,11.674,0.012,17.709,1,3,669.44,-12.191,0,686.09,0,0,0,,0,0,0,0,0,0,269.96,0,0,0,0,0,0,0,0,0,0,0,0,0,1,3,0,0,VALID,0,0,0,0,0,1,0,0,0,0,0,0,0,0,0,0,0,0,0,0,215.22,1093.09,2,0,0.12,0.12,5,7.69,0.14,0.12,0.68,FLYING,X10-F,0:/Integrated Flight Computer/aircraft/x10_f_cfg.ks (inferred preloaded)
0.94,APPROACH,ILS_TRACK,154.97,152,-2.97,653.22,573.45,-19.53,7.32,14.06,269.95,-0.13,0,0,0,1,0.6,3.807,0.75,0.35,0.0168,0.4,1.684,21.051,1.684,2.98,1,270.01,0,0,1,-7.2,0,0,0,270.01,0.4336,0.0002,0.9011,0,270.01,-0.04,-29.81,11.632,0.013,19.202,1,3,669.44,-12.824,0,683.88,0,0,0,,0,0,0,0,0,0,269.96,0,0,0,0,0,0,0,0,0,0,0,0,0,2,3,0,0,VALID,0,0,0,0,0,1,0,0,0,0,0,0,0,0,0,0,0,0,0,0,196.38,1092.76,2,0,0.12,0.12,7,7.69,0.14,0.12,0.94,FLYING,X10-F,0:/Integrated Flight Computer/aircraft/x10_f_cfg.ks (inferred preloaded)
1.3,APPROACH,ILS_TRACK,155.09,152,-3.09,645.54,566.44,-19.81,5.1,11.94,269.97,-0.046,0,0,0,1,0.6,4.5,0.75,0.35,0.0168,0.4,1.788,21.025,1.788,3.073,1,270.02,0,0,1,-7.26,0,0,0,270.01,0.4337,0.0003,0.9011,0,270.02,-0.06,-34.44,11.573,0.017,20.539,1,3,669.44,-12.758,0,680.82,0,0,0,,0,0,0,0,0,0,269.96,0,0,0,0,0,0,0,0,0,0,0,0,0,3,3,0,0,VALID,0,0,0,0,0,1,0,0,0,0,0,0,0,0,0,0,0,0,0,0,173.2,1093.78,2,0,0.12,0.12,10,8.33,0.12,0.12,1.3,FLYING,X10-F,0:/Integrated Flight Computer/aircraft/x10_f_cfg.ks (inferred preloaded)
1.66,APPROACH,ILS_TRACK,155.36,152,-3.36,638.04,559.19,-20.56,4.14,11.33,269.98,-0.023,0,0,0,1,0.6,4.5,0.75,0.35,0.0168,0.4,2.088,20.949,2.088,3.344,1,270.02,0,0,1,-7.51,0,0,0,270.02,0.4337,0.0003,0.901,0,270.02,-0.08,-38.9,11.515,0.017,21.42,1,3,669.44,-12.187,0,677.76,0,0,0,,0,0,0,0,0,0,269.96,0,0,0,0,0,0,0,0,0,0,0,0,0,3,3,0,0,VALID,0,0,0,0,0,1,0,0,0,0,0,0,0,0,0,0,0,0,0,0,152.87,1095.49,2,0,0.12,0.12,13,8.33,0.12,0.12,1.66,FLYING,X10-F,0:/Integrated Flight Computer/aircraft/x10_f_cfg.ks (inferred preloaded)
2.02,APPROACH,ILS_TRACK,155.54,152,-3.54,630.78,551.63,-21.21,4.9,12.42,269.98,-0.009,0,0,0,1,0.6,4.5,0.75,0.35,0.0168,0.4,2.297,20.895,2.297,3.534,1,270.02,0,0,1,-7.75,0,0,0,270.01,0.4338,0.0003,0.901,0,270.02,-0.1,-43.13,11.456,0.018,22.131,1,3,669.44,-11.492,0,674.7,0,0,0,,0,0,0,0,0,0,269.96,0,0,0,0,0,0,0,0,0,0,0,0,0,3,3,0,0,VALID,0,0,0,0,0,1,0,0,0,0,0,0,0,0,0,0,0,0,0,0,134.89,1096.86,2,0,0.12,0.12,16,8.33,0.12,0.12,2.02,FLYING,X10-F,0:/Integrated Flight Computer/aircraft/x10_f_cfg.ks (inferred preloaded)
2.38,APPROACH,ILS_TRACK,155.48,152,-3.48,623.79,543.92,-21.23,7.1,14.71,269.98,-0.005,0,0,0,1,0.6,4.5,0.75,0.35,0.0168,0.4,2.251,20.907,2.251,3.492,1,270.02,0,0,1,-7.79,0,0,0,270.02,0.4339,0.0003,0.9009,0,270.02,-0.11,-47.08,11.398,0.016,22.72,1,3,669.44,-10.744,0,671.64,0,0,0,,0,0,0,0,0,0,269.96,0,0,0,0,0,0,0,0,0,0,0,0,0,3,3,0,0,VALID,0,0,0,0,0,1,0,0,0,0,0,0,0,0,0,0,0,0,0,0,118.91,1097.24,2,0,0.12,0.12,19,8.33,0.12,0.12,2.38,FLYING,X10-F,0:/Integrated Flight Computer/aircraft/x10_f_cfg.ks (inferred preloaded)
2.73,APPROACH,ILS_TRACK,155.04,152,-3.04,617.17,536.58,-20.21,9.49,16.78,269.98,-0.004,0,0,0,1,0.6,4.5,0.75,0.35,0.0168,0.4,1.797,21.023,1.797,3.081,1,270.02,0,0,1,-7.5,0,0,0,270.02,0.434,0.0003,0.9009,0,270.02,-0.13,-50.62,11.343,0.017,23.439,1,3,669.44,-10.315,0,668.74,0,0,0,,0,0,0,0,0,0,269.96,0,0,0,0,0,0,0,0,0,0,0,0,0,3,3,0,0,VALID,0,0,0,0,0,1,0,0,0,0,0,0,0,0,0,0,0,0,0,0,104.99,1095.94,2,0,0.101,0.101,22,8.54,0.12,0.101,2.73,FLYING,X10-F,0:/Integrated Flight Computer/aircraft/x10_f_cfg.ks (inferred preloaded)
3.03,APPROACH,ILS_TRACK,154.39,152,-2.39,611.59,530.83,-19.03,10.26,17.06,269.98,-0.018,0.1113,0,-0.734,1,0.6,4.5,0.75,0.35,0.0168,0.4,0,21.194,0,2.473,0,270.02,0,0,1,-7.1,0,0,0,270.01,0.4341,0.0003,0.9009,0,270.02,-0.14,-53.55,11.298,0.019,24.527,1,3,669.44,-10.577,0,666.39,0,0,0,,0,0,0,0,0,0,269.96,0,0,0,0,0,0,0,0,0,0,0,0,0,3,3,0,0,VALID,0,0,0,0,0,1,0,0,0,0,0,0,0,0,0,0,0,0,0,0,96.92,1093.6,2,0,0.152,0.152,24,6.81,0.152,0.101,3.03,FLYING,X10-F,0:/Integrated Flight Computer/aircraft/x10_f_cfg.ks (inferred preloaded)
3.38,APPROACH,ILS_TRACK,153.56,152,-1.56,605.15,524.35,-18.13,10.36,16.87,269.99,0.032,0.2497,0,-1.372,1,0.6,4.5,0.75,0.35,0.0168,0.4,0,21.429,0,1.638,0,270.02,0,0,1,-6.78,0,0,0,270.02,0.4342,0.0003,0.9008,0,270.02,-0.16,-57.08,11.242,0.017,25.083,1,3,669.44,-9.951,0,663.48,0,0,0,,0,0,0,0,0,0,269.96,0,0,0,0,0,0,0,0,0,0,0,0,0,3,3,0,0,VALID,0,0,0,0,0,1,0,0,0,0,0,0,0,0,0,0,0,0,0,0,99.76,1090.54,2,0,0.175,0.175,26,5.71,0.175,0.152,3.38,FLYING,X10-F,0:/Integrated Flight Computer/aircraft/x10_f_cfg.ks (inferred preloaded)
3.73,APPROACH,ILS_TRACK,152.73,152,-0.73,599.1,518.13,-17.41,10.81,17.14,270,0.069,0.3897,0,-1.729,1,0.6,4.5,0.75,0.35,0.0168,0.4,0,21.662,0,0.813,0,270.02,0,0,1,-6.55,0,0,0,270.02,0.4342,0.0003,0.9008,0,270.02,-0.17,-60.27,11.187,0.016,25.185,1,3,669.44,-8.88,0,660.55,0,0,0,,0,0,0,0,0,0,269.96,0,0,0,0,0,0,0,0,0,0,0,0,0,3,3,0,0,VALID,0,0,0,0,0,1,0,0,0,0,0,0,0,0,0,0,0,0,0,0,112.76,1087.52,2,0,0.175,0.175,28,5.71,0.175,0.175,3.73,FLYING,X10-F,0:/Integrated Flight Computer/aircraft/x10_f_cfg.ks (inferred preloaded)
4.08,APPROACH,ILS_TRACK,151.87,152,0.13,593.39,512.17,-16.56,11.64,17.73,270.01,0.083,0.5297,0,-1.79,1,0.6,4.5,0.75,0.35,0.0168,0.4,0,21.903,0,-0.042,0,270.02,0,0,1,-6.31,0,0,0,270.02,0.4343,0.0003,0.9008,0,270.02,-0.19,-63.13,11.131,0.017,25.28,1,3,669.44,-7.927,0,657.64,0,0,0,,0,0,0,0,0,0,269.96,0,0,0,0,0,0,0,0,0,0,0,0,0,3,3,0,0,VALID,0,0,0,0,0,1,0,0,0,0,0,0,0,0,0,0,0,0,0,0,135.09,1084.35,2,0,0.175,0.175,30,5.71,0.175,0.175,4.08,FLYING,X10-F,0:/Integrated Flight Computer/aircraft/x10_f_cfg.ks (inferred preloaded)
4.43,APPROACH,ILS_TRACK,150.93,152,1.07,587.89,506.64,-15.23,11.92,17.46,270,0.034,0.6697,0,-1.531,1,0.6,4.5,0.75,0.35,0.0168,0.4,0,22.167,0,-0.979,0,270.01,0,0,1,-5.84,0,0,0,270.01,0.4344,0.0002,0.9007,0,270.01,-0.19,-65.77,11.076,0.013,25.676,1,3,669.44,-7.432,0,654.74,0,0,0,,0,0,0,0,0,0,269.96,0,0,0,0,0,0,0,0,0,0,0,0,0,3,3,0,0,VALID,0,0,0,0,0,1,0,0,0,0,0,0,0,0,0,0,0,0,0,0,165.96,1080.83,2,0,0.175,0.175,32,5.71,0.175,0.175,4.43,FLYING,X10-F,0:/Integrated Flight Computer/aircraft/x10_f_cfg.ks (inferred preloaded)
4.78,APPROACH,ILS_TRACK,150.13,152,1.87,582.7,501.49,-14.33,11.78,17.01,270,0.027,0.8097,0,-0.966,1,0.6,4.5,0.75,0.35,0.0168,0.4,0,22.399,0,-1.804,0,270.01,0,0,1,-5.51,0,0,0,270.01,0.4345,0.0002,0.9007,0,270.01,-0.2,-68.14,11.021,0.009,25.679,1,3,669.44,-6.547,0,651.85,0,0,0,,0,0,0,0,0,0,269.96,0,0,0,0,0,0,0,0,0,0,0,0,0,3,3,0,0,VALID,0,0,0,0,0,1,0,0,0,0,0,0,0,0,0,0,0,0,0,0,204.84,1077.87,2,0,0.175,0.175,34,5.71,0.175,0.175,4.78,FLYING,X10-F,0:/Integrated Flight Computer/aircraft/x10_f_cfg.ks (inferred preloaded)
5.13,APPROACH,ILS_TRACK,149.52,152,2.48,577.78,496.64,-13.56,11.56,16.51,270,0.019,0.9075,0,-0.167,1,0.6,4.5,0.75,0.35,0.0168,0.4,0,22.575,0,-2.428,0,270.01,0,0,1,-5.22,0,0,0,270.01,0.4346,0.0002,0.9006,0,270.01,-0.2,-70.24,10.966,0.011,25.716,1,3,669.44,-5.806,0,648.98,0,0,0,,0,0,0,0,0,0,269.96,0,0,0,0,0,0,0,0,0,0,0,0,0,3,3,0,0,VALID,0,0,0,0,0,1,0,0,0,0,0,0,0,0,0,0,0,0,0,0,251.23,1075.72,2,0,0.175,0.175,36,5.71,0.175,0.175,5.13,FLYING,X10-F,0:/Integrated Flight Computer/aircraft/x10_f_cfg.ks (inferred preloaded)
5.48,APPROACH,ILS_TRACK,149.11,152,2.89,573.13,492.05,-12.86,11.35,16.06,270,0.017,0.8416,0,0.8,1,0.6,4.5,0.75,0.35,0.0168,0.4,0,22.697,0,-2.861,0,270.01,0,0,1,-4.97,0,0,0,270.01,0.4347,0.0002,0.9006,0,270.01,-0.2,-72.07,10.911,0.011,25.698,1,3,669.44,-5.094,0,646.11,0,0,0,,0,0,0,0,0,0,269.96,0,0,0,0,0,0,0,0,0,0,0,0,0,3,3,0,0,VALID,0,0,0,0,0,1,0,0,0,0,0,0,0,0,0,0,0,0,0,0,299.01,1074.36,2,0,0.175,0.175,38,5.71,0.175,0.175,5.48,FLYING,X10-F,0:/Integrated Flight Computer/aircraft/x10_f_cfg.ks (inferred preloaded)
5.83,APPROACH,ILS_TRACK,148.87,152,3.13,568.77,487.65,-12.21,11.44,15.96,270,0.029,0.7381,0,1.87,1,0.6,4.5,0.75,0.35,0.0168,0.4,0,22.767,0,-3.108,0,270.01,0,0,1,-4.76,0,0,0,270.01,0.4347,0.0001,0.9006,0,270.01,-0.21,-73.62,10.856,0.008,25.455,1,3,669.44,-4.209,0,643.25,0,0,0,,0,0,0,0,0,0,269.96,0,0,0,0,0,0,0,0,0,0,0,0,0,3,3,0,0,VALID,0,0,0,0,0,1,0,0,0,0,0,0,0,0,0,0,0,0,0,0,338.66,1073.74,2,0,0.175,0.175,40,5.71,0.175,0.175,5.83,FLYING,X10-F,0:/Integrated Flight Computer/aircraft/x10_f_cfg.ks (inferred preloaded)
6.18,APPROACH,ILS_TRACK,148.74,152,3.26,564.61,483.5,-11.63,11.41,15.7,270,0.029,0.6404,0,2.997,1,0.6,4.5,0.75,0.35,0.0168,0.4,0,22.806,0,-3.248,0,270.01,0,0,1,-4.51,0,0,0,270.01,0.4348,0.0002,0.9005,0,270.01,-0.21,-74.97,10.802,0.01,25.43,1,3,669.44,-3.674,0,640.39,0,0,0,,0,0,0,0,0,0,269.96,0,0,0,0,0,0,0,0,0,0,0,0,0,3,3,0,0,VALID,0,0,0,0,0,1,0,0,0,0,0,0,0,0,0,0,0,0,0,0,368.29,1073.53,2,0,0.175,0.175,42,5.71,0.175,0.175,6.18,FLYING,X10-F,0:/Integrated Flight Computer/aircraft/x10_f_cfg.ks (inferred preloaded)
6.53,APPROACH,ILS_TRACK,148.71,152,3.29,560.75,479.54,-10.96,11.72,15.79,270.01,0.033,0.5459,0,4.145,1,0.6,4.5,0.75,0.35,0.0168,0.4,0,22.818,0,-3.288,0,270.01,0,0,1,-4.28,0,0,0,270.01,0.4349,0.0001,0.9005,0,270.01,-0.2,-76.03,10.747,0.007,25.059,1,3,669.44,-2.815,0,637.53,0,0,0,,0,0,0,0,0,0,269.96,0,0,0,0,0,0,0,0,0,0,0,0,0,3,3,0,0,VALID,0,0,0,0,0,1,0,0,0,0,0,0,0,0,0,0,0,0,0,0,388.82,1073.71,2,0,0.175,0.175,44,5.71,0.175,0.175,6.53,FLYING,X10-F,0:/Integrated Flight Computer/aircraft/x10_f_cfg.ks (inferred preloaded)
6.88,APPROACH,ILS_TRACK,148.68,152,3.32,557.11,475.81,-10.35,11.96,15.83,270.01,0.037,0.4894,0,5.304,1,0.6,4.5,0.75,0.35,0.0168,0.4,0,22.826,0,-3.318,0,270.01,0,0,1,-4.03,0,0,0,270,0.435,0.0001,0.9004,0,270.01,-0.2,-76.86,10.693,0.007,24.808,1,3,669.44,-2.187,0,634.67,0,0,0,,0,0,0,0,0,0,269.96,0,0,0,0,0,0,0,0,0,0,0,0,0,3,3,0,0,VALID,0,0,0,0,0,1,0,0,0,0,0,0,0,0,0,0,0,0,0,0,401.65,1073.89,2,0,0.175,0.175,46,5.71,0.175,0.175,6.88,FLYING,X10-F,0:/Integrated Flight Computer/aircraft/x10_f_cfg.ks (inferred preloaded)
7.23,APPROACH,ILS_TRACK,148.65,152,3.35,553.71,472.34,-9.57,12.25,15.81,270.01,0.035,0.4605,0,6.472,1,0.6,4.5,0.75,0.35,0.0168,0.4,0,22.834,0,-3.345,0,270,0,0,1,-3.74,0,0,0,270.01,0.4351,0.0001,0.9004,0,270,-0.2,-77.44,10.638,0.004,24.436,1,3,669.44,-1.505,0,631.81,0,0,0,,0,0,0,0,0,0,269.96,0,0,0,0,0,0,0,0,0,0,0,0,0,3,3,0,0,VALID,0,0,0,0,0,1,0,0,0,0,0,0,0,0,0,0,0,0,0,0,409.72,1074.05,2,0,0.175,0.175,48,5.71,0.175,0.175,7.23,FLYING,X10-F,0:/Integrated Flight Computer/aircraft/x10_f_cfg.ks (inferred preloaded)
7.58,APPROACH,ILS_TRACK,148.6,152,3.4,550.57,469.11,-8.88,12.53,15.85,270.02,0.039,0.458,0,7.655,1,0.6,4.5,0.75,0.35,0.0168,0.4,0,22.847,0,-3.391,0,270,0,0,1,-3.49,0,0,0,270,0.4352,0,0.9004,0,270,-0.19,-77.77,10.584,0.002,23.931,1,3,669.44,-0.748,0,628.96,0,0,0,,0,0,0,0,0,0,269.96,0,0,0,0,0,0,0,0,0,0,0,0,0,3,3,0,0,VALID,0,0,0,0,0,1,0,0,0,0,0,0,0,0,0,0,0,0,0,0,415.46,1074.11,2,0,0.175,0.175,50,5.71,0.175,0.175,7.58,FLYING,X10-F,0:/Integrated Flight Computer/aircraft/x10_f_cfg.ks (inferred preloaded)
7.93,APPROACH,ILS_TRACK,148.51,152,3.49,547.6,466.21,-7.97,12.41,15.33,270.02,0.032,0.4862,0,8.866,1,0.6,4.5,0.75,0.35,0.0168,0.4,0,22.873,0,-3.486,0,270,0,0,1,-3.12,0,0,0,270,0.4352,0,0.9003,0,270,-0.18,-77.93,10.529,0.001,23.65,1,3,669.44,-0.34,0,626.1,0,0,0,,0,0,0,0,0,0,269.96,0,0,0,0,0,0,0,0,0,0,0,0,0,3,3,0,0,VALID,0,0,0,0,0,1,0,0,0,0,0,0,0,0,0,0,0,0,0,0,420.95,1073.95,2,0,0.175,0.175,52,5.71,0.175,0.175,7.93,FLYING,X10-F,0:/Integrated Flight Computer/aircraft/x10_f_cfg.ks (inferred preloaded)
8.28,APPROACH,ILS_TRACK,148.48,152,3.52,544.86,463.51,-7.51,12.22,15,270.01,0.02,0.4886,0,10.097,1,0.6,4.5,0.75,0.35,0.0168,0.4,0,22.884,0,-3.523,0,270,0,0,1,-2.93,0,0,0,270,0.4353,0,0.9003,0,270,-0.17,-77.85,10.475,-0.001,23.046,1,3,669.44,0.387,0,623.24,0,0,0,,0,0,0,0,0,0,269.96,0,0,0,0,0,0,0,0,0,0,0,0,0,3,3,0,0,VALID,0,0,0,0,0,1,0,0,0,0,0,0,0,0,0,0,0,0,0,0,427.86,1074.04,2,0,0.175,0.175,54,5.71,0.175,0.175,8.28,FLYING,X10-F,0:/Integrated Flight Computer/aircraft/x10_f_cfg.ks (inferred preloaded)
8.63,APPROACH,ILS_TRACK,148.47,152,3.53,542.38,460.95,-7.14,12.39,15.06,270.01,0.005,0.4862,0,11.332,1,0.6,4.5,0.75,0.35,0.0168,0.4,0,22.886,0,-3.53,0,270,0,0,1,-2.78,0,0,0,270,0.4354,0,0.9002,0,270,-0.16,-77.53,10.42,-0.001,22.387,1,3,669.44,1.092,0,620.39,0,0,0,,0,0,0,0,0,0,269.96,0,0,0,0,0,0,0,0,0,0,0,0,0,3,3,0,0,VALID,0,0,0,0,0,1,0,0,0,0,0,0,0,0,0,0,0,0,0,0,434.47,1074.22,2,0,0.175,0.175,56,5.71,0.175,0.175,8.63,FLYING,X10-F,0:/Integrated Flight Computer/aircraft/x10_f_cfg.ks (inferred preloaded)
8.98,APPROACH,ILS_TRACK,148.46,152,3.54,540.15,458.53,-6.69,12.97,15.53,270.01,-0.008,0.4927,0,12.569,1,0.6,4.5,0.75,0.35,0.0168,0.4,0,22.888,0,-3.537,0,270,0,0,1,-2.62,0,0,0,270,0.4355,-0.0001,0.9002,0,270,-0.14,-76.96,10.366,-0.003,21.621,1,3,669.44,1.833,0,617.53,0,0,0,,0,0,0,0,0,0,269.96,0,0,0,0,0,0,0,0,0,0,0,0,0,3,3,0,0,VALID,0,0,0,0,0,1,0,0,0,0,0,0,0,0,0,0,0,0,0,0,440.54,1074.39,2,0,0.175,0.175,58,5.71,0.175,0.175,8.98,FLYING,X10-F,0:/Integrated Flight Computer/aircraft/x10_f_cfg.ks (inferred preloaded)
9.33,APPROACH,ILS_TRACK,148.4,152,3.6,538.2,456.28,-6.07,13.93,16.3,270.01,-0.023,0.5246,0,13.82,1,0.6,4.5,0.75,0.35,0.0168,0.4,0,22.902,0,-3.589,0,270,0,0,1,-2.41,0,0,0,269.99,0.4356,-0.0001,0.9002,0,270,-0.13,-76.11,10.311,-0.004,20.716,1,3,669.44,2.644,0,614.67,0,0,0,,0,0,0,0,0,0,269.96,0,0,0,0,0,0,0,0,0,0,0,0,0,3,3,0,0,VALID,0,0,0,0,0,1,0,0,0,0,0,0,0,0,0,0,0,0,0,0,446.87,1074.34,2,0,0.175,0.175,60,5.71,0.175,0.175,9.33,FLYING,X10-F,0:/Integrated Flight Computer/aircraft/x10_f_cfg.ks (inferred preloaded)
9.68,APPROACH,ILS_TRACK,148.23,152,3.77,536.45,454.39,-4.6,14.66,16.41,270,-0.033,0.6003,0,15.113,1,0.6,4.5,0.75,0.35,0.0168,0.4,0,22.947,0,-3.746,0,269.99,0,0,1,-1.93,0,0,0,269.99,0.4356,-0.0001,0.9001,0,269.99,-0.12,-75.03,10.257,-0.006,19.991,1,3,669.44,3.147,0,611.82,0,0,0,,0,0,0,0,0,0,269.96,0,0,0,0,0,0,0,0,0,0,0,0,0,3,3,0,0,VALID,0,0,0,0,0,1,0,0,0,0,0,0,0,0,0,0,0,0,0,0,455.34,1073.79,2,0,0.175,0.175,62,5.71,0.175,0.175,9.68,FLYING,X10-F,0:/Integrated Flight Computer/aircraft/x10_f_cfg.ks (inferred preloaded)
10.03,APPROACH,ILS_TRACK,147.93,152,4.07,534.69,453.13,-3.17,13.34,14.33,270,-0.037,0.7254,0,16.504,1,0.6,4.5,0.75,0.35,0.0168,0.4,0,23.033,0,-4.052,0,269.99,0,0,1,-1.28,0,0,0,269.99,0.4357,-0.0001,0.9001,0,269.99,-0.1,-73.94,10.202,-0.006,19.738,1,3,669.44,3.056,0,608.97,0,0,0,,0,0,0,0,0,0,269.96,0,0,0,0,0,0,0,0,0,0,0,0,0,3,3,0,0,VALID,0,0,0,0,0,1,0,0,0,0,0,0,0,0,0,0,0,0,0,0,469.26,1072.63,2,0,0.175,0.175,64,5.71,0.175,0.175,10.03,FLYING,X10-F,0:/Integrated Flight Computer/aircraft/x10_f_cfg.ks (inferred preloaded)
10.38,APPROACH,ILS_TRACK,148.03,152,3.97,533.02,452.25,-2.46,10.86,11.5,270,-0.041,0.6641,0,17.921,1,0.6,4.5,0.75,0.35,0.0168,0.4,0,23.019,0,-4.004,0,269.99,0,0,1,-0.96,0,0,0,269.99,0.4358,-0.0001,0.9,0,269.99,-0.09,-72.78,10.148,-0.006,19.187,1,3,669.44,3.308,0,606.13,0,0,0,,0,0,0,0,0,0,269.96,0,0,0,0,0,0,0,0,0,0,0,0,0,3,3,0,0,VALID,0,0,0,0,0,1,0,0,0,0,0,0,0,0,0,0,0,0,0,0,489.87,1073.08,2,0,0.175,0.175,66,5.71,0.175,0.175,10.38,FLYING,X10-F,0:/Integrated Flight Computer/aircraft/x10_f_cfg.ks (inferred preloaded)
10.73,APPROACH,ILS_TRACK,148.59,152,3.41,531.54,451.36,-2.87,8.67,9.56,270.01,-0.017,0.5241,0,19.196,1,0.6,4.5,0.75,0.35,0.0168,0.4,0,22.873,0,-3.484,0,269.99,0,0,1,-1.06,0,0,0,269.99,0.4359,-0.0001,0.9,0,269.99,-0.07,-71.45,10.093,-0.007,18.239,1,3,669.44,3.996,0,603.27,0,0,0,,0,0,0,0,0,0,269.96,0,0,0,0,0,0,0,0,0,0,0,0,0,3,3,0,0,VALID,0,0,0,0,0,1,0,0,0,0,0,0,0,0,0,0,0,0,0,0,504.35,1075.46,2,0,0.175,0.175,68,5.71,0.175,0.175,10.73,FLYING,X10-F,0:/Integrated Flight Computer/aircraft/x10_f_cfg.ks (inferred preloaded)
11.08,APPROACH,ILS_TRACK,149.39,152,2.61,530.34,450.23,-3.52,8.08,9.37,270.01,-0.003,0.3841,0,20,1,0.6,4.5,0.75,0.35,0.0168,0.4,0,22.651,0,-2.698,0,269.99,0,0,1,-1.3,0,0,0,269.99,0.436,-0.0001,0.9,0,269.99,-0.06,-69.84,10.039,-0.007,17.096,1,3,669.44,4.819,0,600.4,0,0,0,,0,0,0,0,0,0,269.96,0,0,0,0,0,0,0,0,0,0,0,0,0,3,3,0,0,VALID,0,0,0,0,0,1,0,0,0,0,0,0,0,0,0,0,0,0,0,0,507.97,1078.86,2,0,0.175,0.175,70,5.71,0.175,0.175,11.08,FLYING,X10-F,0:/Integrated Flight Computer/aircraft/x10_f_cfg.ks (inferred preloaded)
11.43,APPROACH,ILS_TRACK,150.2,152,1.8,529.39,448.89,-3.79,9.14,10.7,270.01,-0.04,0.2441,0,20,1,0.6,4.5,0.75,0.35,0.0168,0.4,0,22.421,0,-1.88,0,269.99,0,0,1,-1.48,0,0,0,269.99,0.4361,-0.0002,0.8999,0,269.99,-0.04,-67.94,9.984,-0.01,15.882,1,3,669.44,5.624,0,597.51,0,0,0,,0,0,0,0,0,0,269.96,0,0,0,0,0,0,0,0,0,0,0,0,0,3,3,0,0,VALID,0,0,0,0,0,1,0,0,0,0,0,0,0,0,0,0,0,0,0,0,495.92,1082.37,2,0,0.175,0.175,72,5.71,0.175,0.175,11.43,FLYING,X10-F,0:/Integrated Flight Computer/aircraft/x10_f_cfg.ks (inferred preloaded)
11.78,APPROACH,ILS_TRACK,150.85,152,1.15,528.47,447.64,-3.28,10.35,11.64,270,-0.066,0.1041,0,20,1,0.6,4.5,0.75,0.35,0.0168,0.4,0,22.231,0,-1.206,0,269.99,0,0,1,-1.28,0,0,0,269.99,0.4361,-0.0002,0.8999,0,269.99,-0.03,-65.95,9.928,-0.01,15.27,1,3,669.44,5.646,0,594.61,0,0,0,,0,0,0,0,0,0,269.96,0,0,0,0,0,0,0,0,0,0,0,0,0,3,3,0,0,VALID,0,0,0,0,0,1,0,0,0,0,0,0,0,0,0,0,0,0,0,0,467.5,1085.23,2,0,0.175,0.175,74,5.71,0.175,0.175,11.78,FLYING,X10-F,0:/Integrated Flight Computer/aircraft/x10_f_cfg.ks (inferred preloaded)
12.13,APPROACH,ILS_TRACK,151.3,152,0.7,527.56,446.61,-2.6,10.92,11.88,270,-0.084,0,0,20,1,0.6,4.5,0.75,0.35,0.0168,0.4,0,22.098,0,-0.736,0,269.99,0,0,1,-1.04,0,0,0,269.99,0.4362,-0.0002,0.8998,0,269.99,-0.01,-63.96,9.873,-0.009,14.62,1,3,669.44,5.709,0,591.7,0,0,0,,0,0,0,0,0,0,269.96,0,0,0,0,0,0,0,0,0,0,0,0,0,3,3,0,0,VALID,0,0,0,0,0,1,0,0,0,0,0,0,0,0,0,0,0,0,0,0,424.37,1087.21,2,0,0.175,0.175,76,5.71,0.175,0.175,12.13,FLYING,X10-F,0:/Integrated Flight Computer/aircraft/x10_f_cfg.ks (inferred preloaded)
12.47,APPROACH,ILS_TRACK,151.54,152,0.46,526.69,445.78,-2.19,10.82,11.6,269.99,-0.091,0,0,20,1,0.6,4.5,0.75,0.35,0.0168,0.4,0,22.026,0,-0.479,0,269.99,0,0,1,-0.85,0,0,0,269.99,0.4363,-0.0001,0.8998,0,269.99,0,-61.94,9.817,-0.008,13.888,1,3,669.44,5.866,0,588.79,0,0,0,,0,0,0,0,0,0,269.96,0,0,0,0,0,0,0,0,0,0,0,0,0,3,3,0,0,VALID,0,0,0,0,0,1,0,0,0,0,0,0,0,0,0,0,0,0,0,0,376.08,1088.29,2,0,0.175,0.175,78,5.73,0.175,0.175,12.47,FLYING,X10-F,0:/Integrated Flight Computer/aircraft/x10_f_cfg.ks (inferred preloaded)
12.78,APPROACH,ILS_TRACK,151.65,152,0.35,526.01,445.16,-1.88,10.63,11.3,269.99,-0.092,0.037,0,20,1,0.6,4.5,0.75,0.35,0.0168,0.4,0,21.992,0,-0.359,0,269.99,0,0,1,-0.74,0,0,0,269.99,0.4364,-0.0002,0.8998,0,269.99,0.01,-60,9.766,-0.009,13.08,1,3,669.44,6.149,0,586.13,0,0,0,,0,0,0,0,0,0,269.96,0,0,0,0,0,0,0,0,0,0,0,0,0,3,3,0,0,VALID,0,0,0,0,0,1,0,0,0,0,0,0,0,0,0,0,0,0,0,0,337.54,1088.79,2,0,0.148,0.148,80,6.48,0.175,0.148,12.78,FLYING,X10-F,0:/Integrated Flight Computer/aircraft/x10_f_cfg.ks (inferred preloaded)
13.15,APPROACH,ILS_TRACK,151.62,152,0.38,525.3,444.52,-1.61,10.38,10.95,269.99,-0.083,0.1914,0,20,1,0.6,4.5,0.75,0.35,0.0168,0.4,0,21.996,0,-0.373,0,269.99,0,0,1,-0.62,0,0,0,269.99,0.4365,-0.0001,0.8997,0,269.99,0.02,-57.54,9.705,-0.009,12.065,1,3,669.44,6.495,0,582.91,0,0,0,,0,0,0,0,0,0,269.96,0,0,0,0,0,0,0,0,0,0,0,0,0,3,3,0,0,VALID,0,0,0,0,0,1,0,0,0,0,0,0,0,0,0,0,0,0,0,0,307.5,1088.74,2,0,0.12,0.12,83,8.15,0.148,0.12,13.15,FLYING,X10-F,0:/Integrated Flight Computer/aircraft/x10_f_cfg.ks (inferred preloaded)
13.51,APPROACH,ILS_TRACK,151.53,152,0.47,524.74,443.95,-1.43,10.39,10.92,269.99,-0.079,0.3336,0,20,1,0.6,4.5,0.75,0.35,0.0168,0.4,0,22.022,0,-0.466,0,269.99,0,0,1,-0.57,0,0,0,269.99,0.4366,-0.0001,0.8997,0,269.99,0.03,-55.11,9.648,-0.008,11.019,1,3,669.44,6.893,0,579.92,0,0,0,,0,0,0,0,0,0,269.96,0,0,0,0,0,0,0,0,0,0,0,0,0,3,3,0,0,VALID,0,0,0,0,0,1,0,0,0,0,0,0,0,0,0,0,0,0,0,0,300.82,1088.39,2,0,0.12,0.12,86,8.33,0.12,0.12,13.51,FLYING,X10-F,0:/Integrated Flight Computer/aircraft/x10_f_cfg.ks (inferred preloaded)
13.87,APPROACH,ILS_TRACK,151.41,152,0.59,524.21,443.48,-1.3,10.16,10.64,269.99,-0.069,0.4127,0,20,1,0.6,4.5,0.75,0.35,0.0168,0.4,0,22.056,0,-0.584,0,269.99,0,0,1,-0.5,0,0,0,269.99,0.4366,-0.0001,0.8996,0,269.99,0.04,-52.66,9.591,-0.005,10.279,1,3,669.44,6.9,0,576.92,0,0,0,,0,0,0,0,0,0,269.96,0,0,0,0,0,0,0,0,0,0,0,0,0,3,3,0,0,VALID,0,0,0,0,0,1,0,0,0,0,0,0,0,0,0,0,0,0,0,0,307.31,1087.94,2,0,0.12,0.12,89,8.33,0.12,0.12,13.87,FLYING,X10-F,0:/Integrated Flight Computer/aircraft/x10_f_cfg.ks (inferred preloaded)
14.23,APPROACH,ILS_TRACK,151.37,152,0.63,523.76,443.04,-1.16,10.16,10.59,269.99,-0.064,0.42,0,20,1,0.6,4.5,0.75,0.35,0.0168,0.4,0,22.069,0,-0.632,0,270,0,0,1,-0.46,0,0,0,269.99,0.4367,-0.0001,0.8996,0,270,0.04,-50.12,9.534,-0.004,9.291,1,3,669.44,7.182,0,573.93,0,0,0,,0,0,0,0,0,0,269.96,0,0,0,0,0,0,0,0,0,0,0,0,0,3,3,0,0,VALID,0,0,0,0,0,1,0,0,0,0,0,0,0,0,0,0,0,0,0,0,317.46,1087.78,2,0,0.12,0.12,92,8.33,0.12,0.12,14.23,FLYING,X10-F,0:/Integrated Flight Computer/aircraft/x10_f_cfg.ks (inferred preloaded)
14.59,APPROACH,ILS_TRACK,151.35,152,0.65,523.33,442.67,-1.09,9.97,10.36,269.99,-0.052,0.4089,0,20,1,0.6,4.5,0.75,0.35,0.0168,0.4,0,22.075,0,-0.652,0,269.99,0,0,1,-0.4,0,0,0,269.99,0.4368,-0.0001,0.8996,0,269.99,0.05,-47.57,9.477,-0.005,8.544,1,3,669.44,7.157,0,570.94,0,0,0,,0,0,0,0,0,0,269.96,0,0,0,0,0,0,0,0,0,0,0,0,0,3,3,0,0,VALID,0,0,0,0,0,1,0,0,0,0,0,0,0,0,0,0,0,0,0,0,327.23,1087.74,2,0,0.12,0.12,95,8.33,0.12,0.12,14.59,FLYING,X10-F,0:/Integrated Flight Computer/aircraft/x10_f_cfg.ks (inferred preloaded)
14.95,APPROACH,ILS_TRACK,151.39,152,0.61,522.95,442.32,-0.96,9.86,10.2,269.99,-0.04,0.3759,0,20,1,0.6,4.5,0.75,0.35,0.0168,0.4,0,22.065,0,-0.616,0,270,0,0,1,-0.35,0,0,0,269.99,0.4369,-0.0001,0.8995,0,270,0.05,-44.96,9.419,-0.003,7.715,1,3,669.44,7.215,0,567.94,0,0,0,,0,0,0,0,0,0,269.96,0,0,0,0,0,0,0,0,0,0,0,0,0,3,3,0,0,VALID,0,0,0,0,0,1,0,0,0,0,0,0,0,0,0,0,0,0,0,0,334.71,1087.93,2,0,0.12,0.12,98,8.33,0.12,0.12,14.95,FLYING,X10-F,0:/Integrated Flight Computer/aircraft/x10_f_cfg.ks (inferred preloaded)
15.31,APPROACH,ILS_TRACK,151.47,152,0.53,522.61,441.99,-0.92,9.85,10.18,270,-0.03,0.3332,0,20,1,0.6,4.5,0.75,0.35,0.0168,0.4,0,22.042,0,-0.535,0,269.99,0,0,1,-0.34,0,0,0,269.99,0.437,-0.0001,0.8995,0,269.99,0.06,-42.3,9.362,-0.007,6.795,1,3,669.44,7.371,0,564.95,0,0,0,,0,0,0,0,0,0,269.96,0,0,0,0,0,0,0,0,0,0,0,0,0,3,3,0,0,VALID,0,0,0,0,0,1,0,0,0,0,0,0,0,0,0,0,0,0,0,0,338.92,1088.3,2,0,0.12,0.12,101,8.33,0.12,0.12,15.31,FLYING,X10-F,0:/Integrated Flight Computer/aircraft/x10_f_cfg.ks (inferred preloaded)
15.67,APPROACH,ILS_TRACK,151.56,152,0.44,522.3,441.68,-0.82,9.82,10.11,270,-0.024,0.3043,0,20,1,0.6,4.5,0.75,0.35,0.0168,0.4,0,22.016,0,-0.445,0,270,0,0,1,-0.3,0,0,0,270,0.4371,-0.0001,0.8994,0,270,0.06,-39.62,9.305,-0.005,5.963,1,3,669.44,7.405,0,561.96,0,0,0,,0,0,0,0,0,0,269.96,0,0,0,0,0,0,0,0,0,0,0,0,0,3,3,0,0,VALID,0,0,0,0,0,1,0,0,0,0,0,0,0,0,0,0,0,0,0,0,339.88,1088.71,2,0,0.12,0.12,104,8.33,0.12,0.12,15.67,FLYING,X10-F,0:/Integrated Flight Computer/aircraft/x10_f_cfg.ks (inferred preloaded)
16.03,APPROACH,ILS_TRACK,151.66,152,0.34,522.01,441.41,-0.78,9.76,10.04,270,-0.019,0.2794,0,20,1,0.6,4.5,0.75,0.35,0.0168,0.4,0,21.987,0,-0.341,0,269.99,0,0,1,-0.29,0,0,0,269.99,0.4372,-0.0001,0.8994,0,269.99,0.06,-36.92,9.248,-0.005,5.085,1,3,669.44,7.489,0,558.96,0,0,0,,0,0,0,0,0,0,269.96,0,0,0,0,0,0,0,0,0,0,0,0,0,3,3,0,0,VALID,0,0,0,0,0,1,0,0,0,0,0,0,0,0,0,0,0,0,0,0,337.82,1089.17,2,0,0.12,0.12,107,8.33,0.12,0.12,16.03,FLYING,X10-F,0:/Integrated Flight Computer/aircraft/x10_f_cfg.ks (inferred preloaded)
16.29,APPROACH,ILS_TRACK,151.73,152,0.27,521.81,441.21,-0.68,9.79,10.03,270,-0.016,0.2698,0,20,1,0.6,4.5,0.75,0.35,0.0168,0.4,0,21.967,0,-0.27,0,270,0,0,1,-0.26,0,0,0,269.99,0.4372,-0.0001,0.8994,0,270,0.06,-34.95,9.207,-0.003,4.428,1,3,669.44,7.569,0,556.79,0,0,0,,0,0,0,0,0,0,269.96,0,0,0,0,0,0,0,0,0,0,0,0,0,3,3,0,0,VALID,0,0,0,0,0,1,0,0,0,0,0,0,0,0,0,0,0,0,0,0,334.71,1089.47,2,0,0.12,0.12,109,7.69,0.14,0.12,16.29,FLYING,X10-F,0:/Integrated Flight Computer/aircraft/x10_f_cfg.ks (inferred preloaded)
16.65,APPROACH,ILS_TRACK,151.81,152,0.19,521.57,440.96,-0.62,9.83,10.05,270,-0.011,0.2675,0,20,1,0.6,4.5,0.75,0.35,0.0168,0.4,0,21.944,0,-0.189,0,270,0,0,1,-0.24,0,0,0,270,0.4373,-0.0001,0.8993,0,270,0.07,-32.19,9.149,-0.003,3.507,1,3,669.44,7.687,0,553.79,0,0,0,,0,0,0,0,0,0,269.96,0,0,0,0,0,0,0,0,0,0,0,0,0,3,3,0,0,VALID,0,0,0,0,0,1,0,0,0,0,0,0,0,0,0,0,0,0,0,0,329.79,1089.83,2,0,0.12,0.12,112,8.33,0.12,0.12,16.65,FLYING,X10-F,0:/Integrated Flight Computer/aircraft/x10_f_cfg.ks (inferred preloaded)
17.01,APPROACH,ILS_TRACK,151.87,152,0.13,521.33,440.73,-0.57,9.8,10,270,-0.006,0.2745,0,20,1,0.6,4.5,0.75,0.35,0.0168,0.4,0,21.927,0,-0.129,0,269.99,-0.357,0,1,-0.23,0,0,-0.04,269.99,0.443,-0.0001,0.8965,-0.36,269.99,0.07,-29.43,9.092,-0.005,2.643,1,3,669.44,7.733,-0.357,550.79,0,0,0,,0,0,0,0,0,0,269.96,0,0,0,0,0,0,0,0,0,0,0,0,0,3,3,0,0,VALID,0,0,0,0,0,1,0,0,0,0,0,0,0,0,0,0,0,0,0,0,325.79,1090.1,2,0,0.12,0.12,115,8.33,0.12,0.12,17.01,FLYING,X10-F,0:/Integrated Flight Computer/aircraft/x10_f_cfg.ks (inferred preloaded)
17.35,APPROACH,ILS_TRACK,151.91,152,0.09,521.03,440.57,-0.46,9.42,9.54,270,-0.007,0.2854,0,20,1,0.6,4.5,0.75,0.35,0.0168,0.4,0,21.916,0,-0.09,0,270,-0.877,0,1,-0.17,0,0,-0.62,269.99,0.4512,-0.0001,0.8924,-0.88,270,0.07,-26.95,9.04,-0.002,2.123,1,3,669.44,7.453,-0.877,548.04,0,0,0,,0,0,0,0,0,0,269.96,0,0,0,0,0,0,0,0,0,0,0,0,0,3,3,0,0,VALID,0,0,0,0,0,1,0,0,0,0,0,0,0,0,0,0,0,0,0,0,323.61,1090.28,2,0,0.127,0.127,118,8.78,0.127,0.101,17.35,FLYING,X10-F,0:/Integrated Flight Computer/aircraft/x10_f_cfg.ks (inferred preloaded)
17.62,APPROACH,ILS_TRACK,151.98,152,0.02,520.71,440.47,-0.45,8.76,8.83,270,-0.011,0.2737,0,20,1,0.6,4.5,0.75,0.35,0.0168,0.4,0,21.9,0,-0.032,0,270,-1.161,0,1,-0.15,0,0,-1.05,269.99,0.4557,-0.0001,0.8902,-1.16,270,0.07,-25.06,8.998,-0.002,1.839,1,3,669.44,7.098,-1.161,545.84,0,0,0,,0,0,0,0,0,0,269.96,0,0,0,0,0,0,0,0,0,0,0,0,0,3,3,0,0,VALID,0,0,0,0,0,1,0,0,0,0,0,0,0,0,0,0,0,0,0,0,322.39,1090.54,2,0,0.133,0.133,120,7.53,0.133,0.127,17.62,FLYING,X10-F,0:/Integrated Flight Computer/aircraft/x10_f_cfg.ks (inferred preloaded)
17.9,APPROACH,ILS_TRACK,152.1,152,-0.1,520.35,440.31,-0.75,8.08,8.27,270,-0.012,0.2356,0,19.986,1,0.6,4.5,0.75,0.35,0.0168,0.4,0,21.867,0,0.083,0,269.99,-1.732,0,1,-0.26,0,0,-1.4,269.99,0.4646,-0.0001,0.8855,-1.73,269.99,0.08,-23.1,8.954,-0.005,1.268,1,3,669.44,7.079,-1.732,543.53,0,0,0,,0,0,0,0,0,0,269.96,0,0,0,0,0,0,0,0,0,0,0,0,0,3,3,0,0,VALID,0,0,0,0,0,1,0,0,0,0,0,0,0,0,0,0,0,0,0,0,319.71,1091.06,2,0,0.14,0.14,122,7.16,0.14,0.133,17.9,FLYING,X10-F,0:/Integrated Flight Computer/aircraft/x10_f_cfg.ks (inferred preloaded)
18.19,APPROACH,ILS_TRACK,152.27,152,-0.27,519.89,440.06,-1.14,7.39,7.72,270,-0.015,0.185,0,19.927,1,0.6,4.5,0.75,0.35,0.0168,0.4,0,21.821,0,0.248,0,269.99,-2.062,0,1,-0.38,0,0,-1.9,269.99,0.4697,-0.0001,0.8828,-2.06,269.99,0.08,-21.12,8.907,-0.006,0.938,1,3,669.44,6.747,-2.062,541.1,0,0,0,,0,0,0,0,0,0,269.96,0,0,0,0,0,0,0,0,0,0,0,0,0,3,3,0,0,VALID,0,0,0,0,0,1,0,0,0,0,0,0,0,0,0,0,0,0,0,0,312.9,1091.79,2,0,0.147,0.147,124,6.81,0.147,0.14,18.19,FLYING,X10-F,0:/Integrated Flight Computer/aircraft/x10_f_cfg.ks (inferred preloaded)
18.49,APPROACH,ILS_TRACK,152.47,152,-0.47,519.33,439.66,-1.53,6.88,7.35,270,-0.02,0.1326,0,19.808,1,0.6,4.5,0.75,0.35,0.0168,0.4,0,21.765,0,0.448,0,269.99,-2.471,0,1,-0.54,0,0,-2.32,270,0.4761,-0.0002,0.8794,-2.47,269.99,0.08,-19.14,8.859,-0.007,0.529,1,3,669.44,6.515,-2.471,538.6,0,0,0,,0,0,0,0,0,0,269.96,0,0,0,0,0,0,0,0,0,0,0,0,0,3,3,0,0,VALID,0,0,0,0,0,1,0,0,0,0,0,0,0,0,0,0,0,0,0,0,301.08,1092.66,2,0,0.15,0.15,126,6.67,0.15,0.147,18.49,FLYING,X10-F,0:/Integrated Flight Computer/aircraft/x10_f_cfg.ks (inferred preloaded)
18.79,APPROACH,ILS_TRACK,152.67,152,-0.67,518.66,439.11,-2.17,6.39,7.12,270,-0.019,0.09,0,19.627,1,0.6,4.5,0.75,0.35,0.0168,0.4,0,21.707,0,0.653,0,269.99,-2.705,0,1,-0.76,0,0,-2.53,269.99,0.4798,-0.0001,0.8774,-2.71,269.99,0.08,-17.29,8.812,-0.005,0.295,1,3,669.44,6.113,-2.705,536.08,0,0,0,,0,0,0,0,0,0,269.96,0,0,0,0,0,0,0,0,0,0,0,0,0,3,3,0,0,VALID,0,0,0,0,0,1,0,0,0,0,0,0,0,0,0,0,0,0,0,0,284.89,1093.56,2,0,0.15,0.15,128,6.67,0.15,0.15,18.79,FLYING,X10-F,0:/Integrated Flight Computer/aircraft/x10_f_cfg.ks (inferred preloaded)
19.09,APPROACH,ILS_TRACK,152.84,152,-0.84,517.87,438.41,-2.54,6.17,7.01,270,-0.022,0.0722,0,19.392,1,0.6,4.5,0.75,0.35,0.0168,0.4,0,21.658,0,0.825,0,269.99,-2.904,0,1,-0.92,0,0,-2.93,269.99,0.4829,-0.0002,0.8757,-2.9,269.99,0.09,-15.52,8.764,-0.008,0.096,1,3,669.44,5.7,-2.904,533.57,0,0,0,,0,0,0,0,0,0,269.96,0,0,0,0,0,0,0,0,0,0,0,0,0,3,3,0,0,VALID,0,0,0,0,0,1,0,0,0,0,0,0,0,0,0,0,0,0,0,0,266.05,1094.33,2,0,0.15,0.15,130,6.67,0.15,0.15,19.09,FLYING,X10-F,0:/Integrated Flight Computer/aircraft/x10_f_cfg.ks (inferred preloaded)
19.39,APPROACH,ILS_TRACK,152.97,152,-0.97,516.93,437.54,-3.28,5.85,6.99,270,-0.021,0.071,0,19.112,1,0.6,4.5,0.75,0.35,0.0168,0.4,0,21.62,0,0.962,0,270,-3.017,0,1,-1.17,0,0,-2.86,269.99,0.4847,-0.0001,0.8747,-3.02,270,0.09,-13.93,8.715,-0.003,-0.017,1,3,669.44,5.246,-3.017,531.05,0,0,0,,0,0,0,0,0,0,269.96,0,0,0,0,0,0,0,0,0,0,0,0,0,3,3,0,0,VALID,0,0,0,0,0,1,0,0,0,0,0,0,0,0,0,0,0,0,0,0,247.4,1094.96,2,0,0.15,0.15,132,6.67,0.15,0.15,19.39,FLYING,X10-F,0:/Integrated Flight Computer/aircraft/x10_f_cfg.ks (inferred preloaded)
19.69,APPROACH,ILS_TRACK,153.05,152,-1.05,515.88,436.49,-3.62,5.92,7.17,270,-0.028,0.0933,0,18.805,1,0.6,4.5,0.75,0.35,0.0168,0.4,0,21.597,0,1.042,0,269.99,-3.176,0,1,-1.33,0,0,-3.22,269.99,0.4872,-0.0002,0.8733,-3.18,269.99,0.09,-12.42,8.667,-0.006,-0.176,1,3,669.44,4.878,-3.176,528.53,0,0,0,,0,0,0,0,0,0,269.96,0,0,0,0,0,0,0,0,0,0,0,0,0,3,3,0,0,VALID,0,0,0,0,0,1,0,0,0,0,0,0,0,0,0,0,0,0,0,0,230.87,1095.35,2,0,0.15,0.15,134,6.67,0.15,0.15,19.69,FLYING,X10-F,0:/Integrated Flight Computer/aircraft/x10_f_cfg.ks (inferred preloaded)
19.99,APPROACH,ILS_TRACK,153.08,152,-1.08,514.64,435.31,-4.26,5.66,7.16,270,-0.022,0.1243,0,18.483,1,0.6,4.5,0.75,0.35,0.0168,0.4,0,21.587,0,1.078,0,269.99,-3.054,0,1,-1.54,0,0,-3.01,269.99,0.4854,-0.0001,0.8743,-3.05,269.99,0.1,-11.12,8.619,-0.006,-0.054,1,3,669.44,4.238,-3.054,526.01,0,0,0,,0,0,0,0,0,0,269.96,0,0,0,0,0,0,0,0,0,0,0,0,0,3,3,0,0,VALID,0,0,0,0,0,1,0,0,0,0,0,0,0,0,0,0,0,0,0,0,218.59,1095.59,2,0,0.15,0.15,136,6.67,0.15,0.15,19.99,FLYING,X10-F,0:/Integrated Flight Computer/aircraft/x10_f_cfg.ks (inferred preloaded)
20.29,APPROACH,ILS_TRACK,153.07,152,-1.07,513.36,433.93,-4.71,5.95,7.65,270,-0.028,0.1631,0,18.16,1,0.6,4.5,0.75,0.35,0.0168,0.4,0,21.589,0,1.071,0,269.99,-3.367,0,1,-1.75,0,0,-3.23,269.99,0.4902,-0.0001,0.8716,-3.37,269.99,0.1,-9.86,8.571,-0.006,-0.367,1,3,669.44,4.157,-3.367,523.49,0,0,0,,0,0,0,0,0,0,269.96,0,0,0,0,0,0,0,0,0,0,0,0,0,3,3,0,0,VALID,0,0,0,0,0,1,0,0,0,0,0,0,0,0,0,0,0,0,0,0,210.96,1095.64,2,0,0.15,0.15,138,6.67,0.15,0.15,20.29,FLYING,X10-F,0:/Integrated Flight Computer/aircraft/x10_f_cfg.ks (inferred preloaded)
20.59,APPROACH,ILS_TRACK,153.02,152,-1.02,511.85,432.48,-5.03,5.82,7.58,270,-0.027,0.2069,0,17.85,1,0.6,4.5,0.75,0.35,0.0168,0.4,0,21.603,0,1.021,0,269.99,-2.979,0,1,-1.84,0,0,-3.17,269.99,0.4844,-0.0001,0.8749,-2.98,269.99,0.1,-8.82,8.523,-0.006,0.021,1,3,669.44,3.279,-2.979,520.98,0,0,0,,0,0,0,0,0,0,269.96,0,0,0,0,0,0,0,0,0,0,0,0,0,3,3,0,0,VALID,0,0,0,0,0,1,0,0,0,0,0,0,0,0,0,0,0,0,0,0,208.52,1095.54,2,0,0.15,0.15,140,6.67,0.15,0.15,20.59,FLYING,X10-F,0:/Integrated Flight Computer/aircraft/x10_f_cfg.ks (inferred preloaded)
20.89,APPROACH,ILS_TRACK,152.97,152,-0.97,510.28,430.86,-5.68,5.85,7.91,270,-0.02,0.2319,0,17.554,1,0.6,4.5,0.75,0.35,0.0168,0.4,0,21.616,0,0.975,0,270,-3.177,0,1,-2.08,0,0,-3.01,269.99,0.4875,-0.0001,0.8731,-3.18,270,0.1,-7.87,8.475,-0.004,-0.177,1,3,669.44,3.172,-3.177,518.46,0,0,0,,0,0,0,0,0,0,269.96,0,0,0,0,0,0,0,0,0,0,0,0,0,3,3,0,0,VALID,0,0,0,0,0,1,0,0,0,0,0,0,0,0,0,0,0,0,0,0,209.78,1095.47,2,0,0.15,0.15,142,6.67,0.15,0.15,20.89,FLYING,X10-F,0:/Integrated Flight Computer/aircraft/x10_f_cfg.ks (inferred preloaded)
21.19,APPROACH,ILS_TRACK,152.89,152,-0.89,508.63,429.14,-5.73,6.22,8.26,270,-0.028,0.2614,0,17.277,1,0.6,4.5,0.75,0.35,0.0168,0.4,0,21.637,0,0.903,0,269.99,-3.177,0,1,-2.15,0,0,-3.35,269.99,0.4875,-0.0001,0.8731,-3.18,269.99,0.11,-6.96,8.427,-0.006,-0.177,1,3,669.44,2.832,-3.177,515.95,0,0,0,,0,0,0,0,0,0,269.96,0,0,0,0,0,0,0,0,0,0,0,0,0,3,3,0,0,VALID,0,0,0,0,0,1,0,0,0,0,0,0,0,0,0,0,0,0,0,0,212.63,1095.29,2,0,0.15,0.15,144,6.67,0.15,0.15,21.19,FLYING,X10-F,0:/Integrated Flight Computer/aircraft/x10_f_cfg.ks (inferred preloaded)
21.49,APPROACH,ILS_TRACK,152.82,152,-0.82,506.78,427.37,-6.14,5.95,8.12,270,-0.023,0.2826,0,17.025,1,0.6,4.5,0.75,0.35,0.0168,0.4,0,21.659,0,0.824,0,270,-2.867,0,1,-2.26,0,0,-2.9,269.99,0.4829,-0.0001,0.8757,-2.87,270,0.11,-6.28,8.379,-0.004,0.133,1,3,669.44,2.189,-2.867,513.43,0,0,0,,0,0,0,0,0,0,269.96,0,0,0,0,0,0,0,0,0,0,0,0,0,3,3,0,0,VALID,0,0,0,0,0,1,0,0,0,0,0,0,0,0,0,0,0,0,0,0,217.19,1095.11,2,0,0.15,0.15,146,6.67,0.15,0.15,21.49,FLYING,X10-F,0:/Integrated Flight Computer/aircraft/x10_f_cfg.ks (inferred preloaded)
21.79,APPROACH,ILS_TRACK,152.77,152,-0.77,504.96,425.43,-6.6,6.21,8.63,270,-0.023,0.2812,0,16.787,1,0.6,4.5,0.75,0.35,0.0168,0.4,0,21.671,0,0.78,0,270,-3.196,0,1,-2.46,0,0,-2.99,269.99,0.4879,-0.0001,0.8729,-3.2,270,0.11,-5.6,8.331,-0.004,-0.196,1,3,669.44,2.343,-3.196,510.92,0,0,0,,0,0,0,0,0,0,269.96,0,0,0,0,0,0,0,0,0,0,0,0,0,3,3,0,0,VALID,0,0,0,0,0,1,0,0,0,0,0,0,0,0,0,0,0,0,0,0,222.48,1095.08,2,0,0.15,0.15,148,6.67,0.15,0.15,21.79,FLYING,X10-F,0:/Integrated Flight Computer/aircraft/x10_f_cfg.ks (inferred preloaded)
22.09,APPROACH,ILS_TRACK,152.71,152,-0.71,503.02,423.46,-6.59,6.43,8.77,270,-0.026,0.2895,0,16.567,1,0.6,4.5,0.75,0.35,0.0168,0.4,0,21.689,0,0.716,0,269.99,-2.955,0,1,-2.46,0,0,-3.2,269.99,0.4843,-0.0001,0.8749,-2.96,269.99,0.11,-4.99,8.284,-0.006,0.045,1,3,669.44,1.815,-2.955,508.41,0,0,0,,0,0,0,0,0,0,269.96,0,0,0,0,0,0,0,0,0,0,0,0,0,3,3,0,0,VALID,0,0,0,0,0,1,0,0,0,0,0,0,0,0,0,0,0,0,0,0,227.53,1094.97,2,0,0.15,0.15,150,6.67,0.15,0.15,22.09,FLYING,X10-F,0:/Integrated Flight Computer/aircraft/x10_f_cfg.ks (inferred preloaded)
22.39,APPROACH,ILS_TRACK,152.67,152,-0.67,501.02,421.42,-6.99,6.45,8.98,270,-0.018,0.2857,0,16.364,1,0.6,4.5,0.75,0.35,0.0168,0.4,0,21.702,0,0.671,0,269.99,-3.002,0,1,-2.59,0,0,-2.88,269.99,0.4851,-0.0001,0.8744,-3,269.99,0.11,-4.49,8.236,-0.006,-0.002,1,3,669.44,1.687,-3.002,505.9,0,0,0,,0,0,0,0,0,0,269.96,0,0,0,0,0,0,0,0,0,0,0,0,0,3,3,0,0,VALID,0,0,0,0,0,1,0,0,0,0,0,0,0,0,0,0,0,0,0,0,232.75,1094.95,2,0,0.15,0.15,152,6.67,0.15,0.15,22.39,FLYING,X10-F,0:/Integrated Flight Computer/aircraft/x10_f_cfg.ks (inferred preloaded)
22.69,APPROACH,ILS_TRACK,152.62,152,-0.62,498.98,419.32,-6.88,6.76,9.22,270,-0.023,0.2842,0,16.172,1,0.6,4.5,0.75,0.35,0.0168,0.4,0,21.715,0,0.625,0,269.99,-3.058,0,1,-2.6,0,0,-3.16,269.99,0.4861,-0.0001,0.8739,-3.06,269.99,0.12,-3.99,8.188,-0.006,-0.058,1,3,669.44,1.569,-3.058,503.4,0,0,0,,0,0,0,0,0,0,269.96,0,0,0,0,0,0,0,0,0,0,0,0,0,3,3,0,0,VALID,0,0,0,0,0,1,0,0,0,0,0,0,0,0,0,0,0,0,0,0,237.38,1094.92,2,0,0.15,0.15,154,6.67,0.15,0.15,22.69,FLYING,X10-F,0:/Integrated Flight Computer/aircraft/x10_f_cfg.ks (inferred preloaded)
22.99,APPROACH,ILS_TRACK,152.57,152,-0.57,496.81,417.24,-7.1,6.45,8.97,270,-0.018,0.288,0,15.998,1,0.6,4.5,0.75,0.35,0.0168,0.4,0,21.73,0,0.569,0,269.99,-2.768,0,1,-2.64,0,0,-2.8,269.99,0.4817,-0.0001,0.8763,-2.77,269.99,0.12,-3.65,8.14,-0.007,0.232,1,3,669.44,1.079,-2.768,500.89,0,0,0,,0,0,0,0,0,0,269.96,0,0,0,0,0,0,0,0,0,0,0,0,0,3,3,0,0,VALID,0,0,0,0,0,1,0,0,0,0,0,0,0,0,0,0,0,0,0,0,241.81,1094.86,2,0,0.15,0.15,156,6.67,0.15,0.15,22.99,FLYING,X10-F,0:/Integrated Flight Computer/aircraft/x10_f_cfg.ks (inferred preloaded)
23.29,APPROACH,ILS_TRACK,152.56,152,-0.56,494.7,415.03,-7.47,6.63,9.38,270,-0.012,0.2693,0,15.829,1,0.6,4.5,0.75,0.35,0.0168,0.4,0,21.734,0,0.558,0,269.99,-3.121,0,1,-2.79,0,0,-2.9,269.99,0.4871,-0.0002,0.8733,-3.12,269.99,0.12,-3.27,8.092,-0.008,-0.121,1,3,669.44,1.376,-3.121,498.38,0,0,0,,0,0,0,0,0,0,269.96,0,0,0,0,0,0,0,0,0,0,0,0,0,3,3,0,0,VALID,0,0,0,0,0,1,0,0,0,0,0,0,0,0,0,0,0,0,0,0,245.85,1095,2,0,0.15,0.15,158,6.67,0.15,0.15,23.29,FLYING,X10-F,0:/Integrated Flight Computer/aircraft/x10_f_cfg.ks (inferred preloaded)
23.59,APPROACH,ILS_TRACK,152.51,152,-0.51,492.52,412.84,-7.19,6.9,9.44,270,-0.02,0.273,0,15.67,1,0.6,4.5,0.75,0.35,0.0168,0.4,0,21.746,0,0.516,0,269.99,-2.958,0,1,-2.71,0,0,-3.23,269.99,0.4847,-0.0002,0.8747,-2.96,269.99,0.13,-2.9,8.044,-0.009,0.042,1,3,669.44,1.034,-2.958,495.88,0,0,0,,0,0,0,0,0,0,269.96,0,0,0,0,0,0,0,0,0,0,0,0,0,3,3,0,0,VALID,0,0,0,0,0,1,0,0,0,0,0,0,0,0,0,0,0,0,0,0,248.69,1094.97,2,0,0.15,0.15,160,6.67,0.15,0.15,23.59,FLYING,X10-F,0:/Integrated Flight Computer/aircraft/x10_f_cfg.ks (inferred preloaded)
23.89,APPROACH,ILS_TRACK,152.47,152,-0.47,490.21,410.66,-7.43,6.43,9.06,270,-0.008,0.277,0,15.529,1,0.6,4.5,0.75,0.35,0.0168,0.4,0,21.759,0,0.467,0,269.99,-2.696,0,1,-2.76,0,0,-2.69,269.99,0.4808,-0.0002,0.8768,-2.7,269.99,0.13,-2.7,7.997,-0.007,0.304,1,3,669.44,0.633,-2.696,493.37,0,0,0,,0,0,0,0,0,0,269.96,0,0,0,0,0,0,0,0,0,0,0,0,0,3,3,0,0,VALID,0,0,0,0,0,1,0,0,0,0,0,0,0,0,0,0,0,0,0,0,251.83,1094.97,2,0,0.15,0.15,162,6.67,0.15,0.15,23.89,FLYING,X10-F,0:/Integrated Flight Computer/aircraft/x10_f_cfg.ks (inferred preloaded)
24.19,APPROACH,ILS_TRACK,152.49,152,-0.49,488,408.35,-7.83,6.55,9.42,270,-0.002,0.2481,0,15.384,1,0.6,4.5,0.75,0.35,0.0168,0.4,0,21.754,0,0.485,0,269.99,-3.06,0,1,-2.92,0,0,-2.84,269.99,0.4864,-0.0002,0.8737,-3.06,269.99,0.13,-2.44,7.949,-0.006,-0.06,1,3,669.44,0.989,-3.06,490.87,0,0,0,,0,0,0,0,0,0,269.96,0,0,0,0,0,0,0,0,0,0,0,0,0,3,3,0,0,VALID,0,0,0,0,0,1,0,0,0,0,0,0,0,0,0,0,0,0,0,0,254.5,1095.24,2,0,0.15,0.15,164,6.67,0.15,0.15,24.19,FLYING,X10-F,0:/Integrated Flight Computer/aircraft/x10_f_cfg.ks (inferred preloaded)
24.49,APPROACH,ILS_TRACK,152.47,152,-0.47,485.76,406.04,-7.56,6.96,9.67,270,-0.011,0.2422,0,15.24,1,0.6,4.5,0.75,0.35,0.0168,0.4,0,21.757,0,0.476,0,269.99,-3.031,0,1,-2.86,0,0,-3.21,269.99,0.4861,-0.0002,0.8739,-3.03,269.99,0.13,-2.14,7.901,-0.007,-0.031,1,3,669.44,0.843,-3.031,488.37,0,0,0,,0,0,0,0,0,0,269.96,0,0,0,0,0,0,0,0,0,0,0,0,0,3,3,0,0,VALID,0,0,0,0,0,1,0,0,0,0,0,0,0,0,0,0,0,0,0,0,255.45,1095.37,2,0,0.15,0.15,166,6.67,0.15,0.15,24.49,FLYING,X10-F,0:/Integrated Flight Computer/aircraft/x10_f_cfg.ks (inferred preloaded)
24.79,APPROACH,ILS_TRACK,152.44,152,-0.44,483.38,403.76,-7.71,6.62,9.36,270,-0.004,0.2483,0,15.106,1,0.6,4.5,0.75,0.35,0.0168,0.4,0,21.766,0,0.443,0,269.99,-2.719,0,1,-2.87,0,0,-2.75,269.99,0.4814,-0.0002,0.8765,-2.72,269.99,0.14,-2.01,7.853,-0.007,0.281,1,3,669.44,0.403,-2.719,485.86,0,0,0,,0,0,0,0,0,0,269.96,0,0,0,0,0,0,0,0,0,0,0,0,0,3,3,0,0,VALID,0,0,0,0,0,1,0,0,0,0,0,0,0,0,0,0,0,0,0,0,256.22,1095.43,2,0,0.15,0.15,168,6.67,0.15,0.15,24.79,FLYING,X10-F,0:/Integrated Flight Computer/aircraft/x10_f_cfg.ks (inferred preloaded)
25.09,APPROACH,ILS_TRACK,152.46,152,-0.46,481.09,401.39,-7.97,6.77,9.69,270,0.003,0.2284,0,14.969,1,0.6,4.5,0.75,0.35,0.0168,0.4,0,21.761,0,0.461,0,269.99,-3.065,0,1,-3,0,0,-2.85,269.99,0.4867,-0.0002,0.8736,-3.07,269.99,0.14,-1.82,7.806,-0.009,-0.065,1,3,669.44,0.763,-3.065,483.36,0,0,0,,0,0,0,0,0,0,269.96,0,0,0,0,0,0,0,0,0,0,0,0,0,3,3,0,0,VALID,0,0,0,0,0,1,0,0,0,0,0,0,0,0,0,0,0,0,0,0,256.91,1095.7,2,0,0.15,0.15,170,6.67,0.15,0.15,25.09,FLYING,X10-F,0:/Integrated Flight Computer/aircraft/x10_f_cfg.ks (inferred preloaded)
25.39,APPROACH,ILS_TRACK,152.45,152,-0.45,478.76,399.04,-7.79,6.95,9.73,270,-0.003,0.2283,0,14.832,1,0.6,4.5,0.75,0.35,0.0168,0.4,0,21.764,0,0.45,0,269.99,-2.915,0,1,-2.92,0,0,-3.1,269.99,0.4845,-0.0002,0.8748,-2.92,269.99,0.14,-1.63,7.758,-0.008,0.085,1,3,669.44,0.504,-2.915,480.86,0,0,0,,0,0,0,0,0,0,269.96,0,0,0,0,0,0,0,0,0,0,0,0,0,3,3,0,0,VALID,0,0,0,0,0,1,0,0,0,0,0,0,0,0,0,0,0,0,0,0,256.25,1095.84,2,0,0.15,0.15,172,6.67,0.15,0.15,25.39,FLYING,X10-F,0:/Integrated Flight Computer/aircraft/x10_f_cfg.ks (inferred preloaded)
25.69,APPROACH,ILS_TRACK,152.44,152,-0.44,476.41,396.67,-7.97,6.94,9.83,270,0.003,0.2256,0,14.699,1,0.6,4.5,0.75,0.35,0.0168,0.4,0,21.766,0,0.443,0,269.99,-2.981,0,1,-2.99,0,0,-2.85,269.99,0.4856,-0.0002,0.8742,-2.98,269.99,0.15,-1.49,7.71,-0.011,0.019,1,3,669.44,0.534,-2.981,478.36,0,0,0,,0,0,0,0,0,0,269.96,0,0,0,0,0,0,0,0,0,0,0,0,0,3,3,0,0,VALID,0,0,0,0,0,1,0,0,0,0,0,0,0,0,0,0,0,0,0,0,255.68,1096.01,2,0,0.15,0.15,174,6.67,0.15,0.15,25.69,FLYING,X10-F,0:/Integrated Flight Computer/aircraft/x10_f_cfg.ks (inferred preloaded)
25.99,APPROACH,ILS_TRACK,152.43,152,-0.43,474.05,394.31,-7.82,7.03,9.82,270,-0.002,0.2269,0,14.569,1,0.6,4.5,0.75,0.35,0.0168,0.4,0,21.77,0,0.429,0,269.99,-2.95,0,1,-2.94,0,0,-3.06,269.99,0.4852,-0.0002,0.8744,-2.95,269.99,0.15,-1.33,7.662,-0.011,0.05,1,3,669.44,0.436,-2.95,475.86,0,0,0,,0,0,0,0,0,0,269.96,0,0,0,0,0,0,0,0,0,0,0,0,0,3,3,0,0,VALID,0,0,0,0,0,1,0,0,0,0,0,0,0,0,0,0,0,0,0,0,254.85,1096.13,2,0,0.15,0.15,176,6.67,0.15,0.15,25.99,FLYING,X10-F,0:/Integrated Flight Computer/aircraft/x10_f_cfg.ks (inferred preloaded)
26.29,APPROACH,ILS_TRACK,152.41,152,-0.41,471.69,391.93,-7.96,7,9.9,270,0.005,0.2278,0,14.444,1,0.6,4.5,0.75,0.35,0.0168,0.4,0,21.774,0,0.414,0,269.99,-3.037,0,1,-3,0,0,-2.9,269.99,0.4866,-0.0002,0.8736,-3.04,269.99,0.16,-1.2,7.615,-0.009,-0.037,1,3,669.44,0.497,-3.037,473.36,0,0,0,,0,0,0,0,0,0,269.96,0,0,0,0,0,0,0,0,0,0,0,0,0,3,3,0,0,VALID,0,0,0,0,0,1,0,0,0,0,0,0,0,0,0,0,0,0,0,0,254.31,1096.27,2,0,0.15,0.15,178,6.67,0.15,0.15,26.29,FLYING,X10-F,0:/Integrated Flight Computer/aircraft/x10_f_cfg.ks (inferred preloaded)
26.59,APPROACH,ILS_TRACK,152.39,152,-0.39,469.31,389.57,-7.88,7,9.82,270.01,0.002,0.2322,0,14.325,1,0.6,4.5,0.75,0.35,0.0168,0.4,0,21.781,0,0.391,0,269.99,-2.965,0,1,-2.95,0,0,-3.07,269.99,0.4855,-0.0003,0.8742,-2.97,269.99,0.16,-1.07,7.567,-0.012,0.035,1,3,669.44,0.358,-2.965,470.86,0,0,0,,0,0,0,0,0,0,269.96,0,0,0,0,0,0,0,0,0,0,0,0,0,3,3,0,0,VALID,0,0,0,0,0,1,0,0,0,0,0,0,0,0,0,0,0,0,0,0,253.93,1096.35,2,0,0.15,0.15,180,6.67,0.15,0.15,26.59,FLYING,X10-F,0:/Integrated Flight Computer/aircraft/x10_f_cfg.ks (inferred preloaded)
26.89,APPROACH,ILS_TRACK,152.37,152,-0.37,466.95,387.19,-7.9,7.06,9.91,270.01,0,0.2315,0,14.211,1,0.6,4.5,0.75,0.35,0.0168,0.4,0,21.785,0,0.374,0,269.99,-3.125,0,1,-2.98,0,0,-3.01,269.99,0.4881,-0.0002,0.8728,-3.13,269.99,0.17,-0.94,7.519,-0.012,-0.125,1,3,669.44,0.507,-3.125,468.36,0,0,0,,0,0,0,0,0,0,269.96,0,0,0,0,0,0,0,0,0,0,0,0,0,3,3,0,0,VALID,0,0,0,0,0,1,0,0,0,0,0,0,0,0,0,0,0,0,0,0,253.97,1096.48,2,0,0.15,0.15,182,6.67,0.15,0.15,26.89,FLYING,X10-F,0:/Integrated Flight Computer/aircraft/x10_f_cfg.ks (inferred preloaded)
27.19,APPROACH,ILS_TRACK,152.35,152,-0.35,464.54,384.83,-7.92,6.9,9.73,270.01,-0.005,0.2347,0,14.105,1,0.6,4.5,0.75,0.35,0.0168,0.4,0,21.792,0,0.35,0,269.99,-2.956,0,1,-2.96,0,0,-3.02,269.99,0.4855,-0.0003,0.8742,-2.96,269.99,0.18,-0.84,7.472,-0.013,0.044,1,3,669.44,0.261,-2.956,465.86,0,0,0,,0,0,0,0,0,0,269.96,0,0,0,0,0,0,0,0,0,0,0,0,0,3,3,0,0,VALID,0,0,0,0,0,1,0,0,0,0,0,0,0,0,0,0,0,0,0,0,254.04,1096.57,2,0,0.15,0.15,184,6.67,0.15,0.15,27.19,FLYING,X10-F,0:/Integrated Flight Computer/aircraft/x10_f_cfg.ks (inferred preloaded)
27.49,APPROACH,ILS_TRACK,152.34,152,-0.34,462.18,382.43,-7.94,7.02,9.9,270.01,-0.007,0.2303,0,14.002,1,0.6,4.5,0.75,0.35,0.0168,0.4,0,21.795,0,0.339,0,269.99,-3.209,0,1,-3,0,0,-3.08,269.99,0.4895,-0.0003,0.872,-3.21,269.99,0.18,-0.71,7.424,-0.012,-0.209,1,3,669.44,0.526,-3.209,463.37,0,0,0,,0,0,0,0,0,0,269.96,0,0,0,0,0,0,0,0,0,0,0,0,0,3,3,0,0,VALID,0,0,0,0,0,1,0,0,0,0,0,0,0,0,0,0,0,0,0,0,254.19,1096.72,2,0,0.15,0.15,186,6.67,0.15,0.15,27.49,FLYING,X10-F,0:/Integrated Flight Computer/aircraft/x10_f_cfg.ks (inferred preloaded)
27.79,APPROACH,ILS_TRACK,152.31,152,-0.31,459.74,380.07,-7.92,6.8,9.62,270,-0.014,0.2373,0,13.907,1,0.6,4.5,0.75,0.35,0.0168,0.4,0,21.804,0,0.308,0,269.99,-2.92,0,1,-2.96,0,0,-3.04,269.99,0.4851,-0.0003,0.8744,-2.92,269.99,0.19,-0.64,7.376,-0.013,0.08,1,3,669.44,0.139,-2.92,460.87,0,0,0,,0,0,0,0,0,0,269.96,0,0,0,0,0,0,0,0,0,0,0,0,0,3,3,0,0,VALID,0,0,0,0,0,1,0,0,0,0,0,0,0,0,0,0,0,0,0,0,254.18,1096.78,2,0,0.15,0.15,188,6.67,0.15,0.15,27.79,FLYING,X10-F,0:/Integrated Flight Computer/aircraft/x10_f_cfg.ks (inferred preloaded)
28.09,APPROACH,ILS_TRACK,152.31,152,-0.31,457.37,377.65,-8.14,6.84,9.82,270,-0.009,0.2274,0,13.816,1,0.6,4.5,0.75,0.35,0.0168,0.4,0,21.805,0,0.306,0,269.99,-3.193,0,1,-3.06,0,0,-3,269.99,0.4894,-0.0003,0.8721,-3.19,269.99,0.19,-0.54,7.329,-0.013,-0.193,1,3,669.44,0.443,-3.193,458.37,0,0,0,,0,0,0,0,0,0,269.96,0,0,0,0,0,0,0,0,0,0,0,0,0,3,3,0,0,VALID,0,0,0,0,0,1,0,0,0,0,0,0,0,0,0,0,0,0,0,0,254.45,1096.97,2,0,0.15,0.15,190,6.67,0.15,0.15,28.09,FLYING,X10-F,0:/Integrated Flight Computer/aircraft/x10_f_cfg.ks (inferred preloaded)
28.39,APPROACH,ILS_TRACK,152.28,152,-0.28,454.94,375.25,-7.99,6.87,9.72,270,-0.019,0.2318,0,13.728,1,0.6,4.5,0.75,0.35,0.0168,0.4,0,21.811,0,0.283,0,269.99,-3.004,0,1,-2.99,0,0,-3.21,269.99,0.4866,-0.0003,0.8736,-3,269.99,0.2,-0.45,7.281,-0.015,-0.004,1,3,669.44,0.173,-3.004,455.88,0,0,0,,0,0,0,0,0,0,269.96,0,0,0,0,0,0,0,0,0,0,0,0,0,3,3,0,0,VALID,0,0,0,0,0,1,0,0,0,0,0,0,0,0,0,0,0,0,0,0,254.01,1097.06,2,0,0.15,0.15,192,6.67,0.15,0.15,28.39,FLYING,X10-F,0:/Integrated Flight Computer/aircraft/x10_f_cfg.ks (inferred preloaded)
28.69,APPROACH,ILS_TRACK,152.27,152,-0.27,452.53,372.81,-8.2,6.85,9.84,270,-0.016,0.2272,0,13.646,1,0.6,4.5,0.75,0.35,0.0168,0.4,0,21.814,0,0.273,0,269.99,-3.136,0,1,-3.08,0,0,-2.99,269.99,0.4886,-0.0003,0.8725,-3.14,269.99,0.21,-0.38,7.233,-0.015,-0.136,1,3,669.44,0.312,-3.136,453.38,0,0,0,,0,0,0,0,0,0,269.96,0,0,0,0,0,0,0,0,0,0,0,0,0,3,3,0,0,VALID,0,0,0,0,0,1,0,0,0,0,0,0,0,0,0,0,0,0,0,0,254.03,1097.23,2,0,0.15,0.15,194,6.67,0.15,0.15,28.69,FLYING,X10-F,0:/Integrated Flight Computer/aircraft/x10_f_cfg.ks (inferred preloaded)
28.99,APPROACH,ILS_TRACK,152.25,152,-0.25,450.09,370.39,-8.01,6.92,9.78,270,-0.024,0.231,0,13.569,1,0.6,4.5,0.75,0.35,0.0168,0.4,0,21.82,0,0.251,0,269.99,-3.026,0,1,-3.01,0,0,-3.22,269.99,0.487,-0.0003,0.8734,-3.03,269.99,0.22,-0.3,7.186,-0.015,-0.026,1,3,669.44,0.143,-3.026,450.89,0,0,0,,0,0,0,0,0,0,269.96,0,0,0,0,0,0,0,0,0,0,0,0,0,3,3,0,0,VALID,0,0,0,0,0,1,0,0,0,0,0,0,0,0,0,0,0,0,0,0,253.57,1097.32,2,0,0.15,0.15,196,6.67,0.15,0.15,28.99,FLYING,X10-F,0:/Integrated Flight Computer/aircraft/x10_f_cfg.ks (inferred preloaded)
29.29,APPROACH,ILS_TRACK,152.24,152,-0.24,447.65,367.96,-8.24,6.78,9.76,270,-0.019,0.2296,0,13.498,1,0.6,4.5,0.75,0.35,0.0168,0.4,0,21.825,0,0.235,0,269.99,-3.051,0,1,-3.08,0,0,-2.94,269.98,0.4875,-0.0003,0.8731,-3.05,269.99,0.22,-0.27,7.138,-0.014,-0.051,1,3,669.44,0.164,-3.051,448.39,0,0,0,,0,0,0,0,0,0,269.96,0,0,0,0,0,0,0,0,0,0,0,0,0,3,3,0,0,VALID,0,0,0,0,0,1,0,0,0,0,0,0,0,0,0,0,0,0,0,0,253.58,1097.47,2,0,0.15,0.15,198,6.67,0.15,0.15,29.29,FLYING,X10-F,0:/Integrated Flight Computer/aircraft/x10_f_cfg.ks (inferred preloaded)
29.59,APPROACH,ILS_TRACK,152.22,152,-0.22,445.22,365.5,-8.09,6.97,9.87,270,-0.023,0.2279,0,13.43,1,0.6,4.5,0.75,0.35,0.0168,0.4,0,21.828,0,0.223,0,269.99,-3.127,0,1,-3.05,0,0,-3.21,269.98,0.4887,-0.0003,0.8725,-3.13,269.99,0.23,-0.18,7.091,-0.014,-0.127,1,3,669.44,0.226,-3.127,445.9,0,0,0,,0,0,0,0,0,0,269.96,0,0,0,0,0,0,0,0,0,0,0,0,0,3,3,0,0,VALID,0,0,0,0,0,1,0,0,0,0,0,0,0,0,0,0,0,0,0,0,253.35,1097.61,2,0,0.15,0.15,200,6.67,0.15,0.15,29.59,FLYING,X10-F,0:/Integrated Flight Computer/aircraft/x10_f_cfg.ks (inferred preloaded)
29.89,APPROACH,ILS_TRACK,152.2,152,-0.2,442.77,363.05,-8.26,6.85,9.84,270,-0.019,0.2305,0,13.368,1,0.6,4.5,0.75,0.35,0.0168,0.4,0,21.834,0,0.202,0,269.98,-3.041,0,1,-3.09,0,0,-2.98,269.99,0.4875,-0.0003,0.8731,-3.04,269.98,0.24,-0.16,7.043,-0.017,-0.041,1,3,669.44,0.11,-3.041,443.41,0,0,0,,0,0,0,0,0,0,269.96,0,0,0,0,0,0,0,0,0,0,0,0,0,3,3,0,0,VALID,0,0,0,0,0,1,0,0,0,0,0,0,0,0,0,0,0,0,0,0,253.18,1097.73,2,0,0.15,0.15,202,6.67,0.15,0.15,29.89,FLYING,X10-F,0:/Integrated Flight Computer/aircraft/x10_f_cfg.ks (inferred preloaded)
30.19,APPROACH,ILS_TRACK,152.18,152,-0.18,440.33,360.59,-8.12,6.99,9.91,270,-0.022,0.23,0,13.31,1,0.6,4.5,0.75,0.35,0.0168,0.4,0,21.838,0,0.187,0,269.99,-3.1,0,1,-3.06,0,0,-3.18,269.98,0.4884,-0.0003,0.8726,-3.1,269.99,0.25,-0.09,6.996,-0.014,-0.1,1,3,669.44,0.16,-3.1,440.92,0,0,0,,0,0,0,0,0,0,269.96,0,0,0,0,0,0,0,0,0,0,0,0,0,3,3,0,0,VALID,0,0,0,0,0,1,0,0,0,0,0,0,0,0,0,0,0,0,0,0,253.09,1097.86,2,0,0.15,0.15,204,6.67,0.15,0.15,30.19,FLYING,X10-F,0:/Integrated Flight Computer/aircraft/x10_f_cfg.ks (inferred preloaded)
30.49,APPROACH,ILS_TRACK,152.16,152,-0.16,437.87,358.13,-8.27,6.92,9.93,270,-0.014,0.2323,0,13.259,1,0.6,4.5,0.75,0.35,0.0168,0.4,0,21.844,0,0.165,0,269.98,-3.077,0,1,-3.1,0,0,-2.99,269.98,0.4882,-0.0003,0.8728,-3.08,269.98,0.25,-0.07,6.948,-0.016,-0.077,1,3,669.44,0.124,-3.077,438.42,0,0,0,,0,0,0,0,0,0,269.96,0,0,0,0,0,0,0,0,0,0,0,0,0,3,3,0,0,VALID,0,0,0,0,0,1,0,0,0,0,0,0,0,0,0,0,0,0,0,0,253.12,1097.98,2,0,0.15,0.15,206,6.67,0.15,0.15,30.49,FLYING,X10-F,0:/Integrated Flight Computer/aircraft/x10_f_cfg.ks (inferred preloaded)
30.79,APPROACH,ILS_TRACK,152.14,152,-0.14,435.41,355.68,-8.14,6.98,9.9,270,-0.017,0.2336,0,13.214,1,0.6,4.5,0.75,0.35,0.0168,0.4,0,21.85,0,0.146,0,269.98,-3.054,0,1,-3.06,0,0,-3.16,269.98,0.4879,-0.0003,0.8729,-3.05,269.98,0.26,-0.03,6.901,-0.017,-0.054,1,3,669.44,0.078,-3.054,435.93,0,0,0,,0,0,0,0,0,0,269.96,0,0,0,0,0,0,0,0,0,0,0,0,0,3,3,0,0,VALID,0,0,0,0,0,1,0,0,0,0,0,0,0,0,0,0,0,0,0,0,253.24,1098.09,2,0,0.15,0.15,208,6.67,0.15,0.15,30.79,FLYING,X10-F,0:/Integrated Flight Computer/aircraft/x10_f_cfg.ks (inferred preloaded)
31.09,APPROACH,ILS_TRACK,152.13,152,-0.13,432.96,353.21,-8.24,6.98,9.98,270.01,-0.012,0.233,0,13.174,1,0.6,4.5,0.75,0.35,0.0168,0.4,0,21.854,0,0.13,0,269.98,-3.139,0,1,-3.11,0,0,-3.01,269.98,0.4892,-0.0003,0.8722,-3.14,269.98,0.27,0,6.853,-0.017,-0.139,1,3,669.44,0.173,-3.139,433.44,0,0,0,,0,0,0,0,0,0,269.96,0,0,0,0,0,0,0,0,0,0,0,0,0,3,3,0,0,VALID,0,0,0,0,0,1,0,0,0,0,0,0,0,0,0,0,0,0,0,0,253.47,1098.23,2,0,0.15,0.15,210,6.67,0.15,0.15,31.09,FLYING,X10-F,0:/Integrated Flight Computer/aircraft/x10_f_cfg.ks (inferred preloaded)
31.39,APPROACH,ILS_TRACK,152.11,152,-0.11,430.49,350.76,-8.22,6.96,9.93,270.01,-0.015,0.2351,0,13.139,1,0.6,4.5,0.75,0.35,0.0168,0.4,0,21.86,0,0.109,0,269.98,-3.044,0,1,-3.08,0,0,-3.11,269.98,0.4878,-0.0003,0.8729,-3.04,269.98,0.28,0.03,6.806,-0.017,-0.044,1,3,669.44,0.043,-3.044,430.95,0,0,0,,0,0,0,0,0,0,269.96,0,0,0,0,0,0,0,0,0,0,0,0,0,3,3,0,0,VALID,0,0,0,0,0,1,0,0,0,0,0,0,0,0,0,0,0,0,0,0,253.66,1098.34,2,0,0.15,0.15,212,6.67,0.15,0.15,31.39,FLYING,X10-F,0:/Integrated Flight Computer/aircraft/x10_f_cfg.ks (inferred preloaded)
31.69,APPROACH,ILS_TRACK,152.09,152,-0.09,428.04,348.3,-8.16,7,9.94,270.01,-0.018,0.2345,0,13.11,1,0.6,4.5,0.75,0.35,0.0168,0.4,0,21.865,0,0.093,0,269.98,-3.099,0,1,-3.07,0,0,-3.13,269.98,0.4888,-0.0004,0.8724,-3.1,269.98,0.29,0.07,6.758,-0.019,-0.099,1,3,669.44,0.099,-3.099,428.47,0,0,0,,0,0,0,0,0,0,269.96,0,0,0,0,0,0,0,0,0,0,0,0,0,3,3,0,0,VALID,0,0,0,0,0,1,0,0,0,0,0,0,0,0,0,0,0,0,0,0,253.93,1098.48,2,0,0.15,0.15,214,6.67,0.15,0.15,31.69,FLYING,X10-F,0:/Integrated Flight Computer/aircraft/x10_f_cfg.ks (inferred preloaded)
31.99,APPROACH,ILS_TRACK,152.08,152,-0.08,425.58,345.83,-8.22,7.01,9.99,270.01,-0.017,0.2343,0,13.086,1,0.6,4.5,0.75,0.35,0.0168,0.4,0,21.869,0,0.077,0,269.98,-3.148,0,1,-3.1,0,0,-3.05,269.98,0.4896,-0.0004,0.872,-3.15,269.98,0.29,0.1,6.711,-0.019,-0.148,1,3,669.44,0.149,-3.148,425.98,0,0,0,,0,0,0,0,0,0,269.96,0,0,0,0,0,0,0,0,0,0,0,0,0,3,3,0,0,VALID,0,0,0,0,0,1,0,0,0,0,0,0,0,0,0,0,0,0,0,0,254.19,1098.62,2,0,0.15,0.15,216,6.67,0.15,0.15,31.99,FLYING,X10-F,0:/Integrated Flight Computer/aircraft/x10_f_cfg.ks (inferred preloaded)
32.29,APPROACH,ILS_TRACK,152.06,152,-0.06,423.11,343.38,-8.22,6.93,9.89,270.01,-0.017,0.2351,0,13.067,1,0.6,4.5,0.75,0.35,0.0168,0.4,0,21.874,0,0.06,0,269.98,-3.033,0,1,-3.08,0,0,-3.1,269.98,0.4879,-0.0004,0.8729,-3.03,269.98,0.3,0.11,6.663,-0.019,-0.033,1,3,669.44,0.001,-3.033,423.49,0,0,0,,0,0,0,0,0,0,269.96,0,0,0,0,0,0,0,0,0,0,0,0,0,3,3,0,0,VALID,0,0,0,0,0,1,0,0,0,0,0,0,0,0,0,0,0,0,0,0,254.42,1098.75,2,0,0.15,0.15,218,6.67,0.15,0.15,32.29,FLYING,X10-F,0:/Integrated Flight Computer/aircraft/x10_f_cfg.ks (inferred preloaded)
32.59,APPROACH,ILS_TRACK,152.05,152,-0.05,420.65,340.92,-8.17,7,9.95,270.01,-0.018,0.2336,0,13.051,1,0.6,4.5,0.75,0.35,0.0168,0.4,0,21.877,0,0.049,0,269.98,-3.147,0,1,-3.08,0,0,-3.14,269.98,0.4897,-0.0004,0.8719,-3.15,269.98,0.31,0.15,6.616,-0.02,-0.147,1,3,669.44,0.128,-3.147,421,0,0,0,,0,0,0,0,0,0,269.96,0,0,0,0,0,0,0,0,0,0,0,0,0,3,3,0,0,VALID,0,0,0,0,0,1,0,0,0,0,0,0,0,0,0,0,0,0,0,0,254.65,1098.9,2,0,0.15,0.15,220,6.67,0.15,0.15,32.59,FLYING,X10-F,0:/Integrated Flight Computer/aircraft/x10_f_cfg.ks (inferred preloaded)
32.89,APPROACH,ILS_TRACK,152.03,152,-0.03,418.2,338.45,-8.24,6.98,9.97,270.01,-0.016,0.234,0,13.04,1,0.6,4.5,0.75,0.35,0.0168,0.4,0,21.881,0,0.034,0,269.98,-3.125,0,1,-3.1,0,0,-3.07,269.98,0.4894,-0.0004,0.872,-3.13,269.98,0.32,0.17,6.568,-0.019,-0.125,1,3,669.44,0.094,-3.125,418.52,0,0,0,,0,0,0,0,0,0,269.96,0,0,0,0,0,0,0,0,0,0,0,0,0,3,3,0,0,VALID,0,0,0,0,0,1,0,0,0,0,0,0,0,0,0,0,0,0,0,0,254.84,1099.05,2,0,0.15,0.15,222,6.67,0.15,0.15,32.89,FLYING,X10-F,0:/Integrated Flight Computer/aircraft/x10_f_cfg.ks (inferred preloaded)
33.19,APPROACH,ILS_TRACK,152.02,152,-0.02,415.73,335.99,-8.21,6.98,9.95,270.01,-0.018,0.2327,0,13.032,1,0.6,4.5,0.75,0.35,0.0168,0.4,0,21.884,0,0.024,0,269.98,-3.103,0,1,-3.09,0,0,-3.13,269.98,0.4892,-0.0004,0.8722,-3.1,269.98,0.33,0.19,6.521,-0.02,-0.103,1,3,669.44,0.057,-3.103,416.03,0,0,0,,0,0,0,0,0,0,269.96,0,0,0,0,0,0,0,0,0,0,0,0,0,3,3,0,0,VALID,0,0,0,0,0,1,0,0,0,0,0,0,0,0,0,0,0,0,0,0,254.99,1099.2,2,0,0.15,0.15,224,6.67,0.15,0.15,33.19,FLYING,X10-F,0:/Integrated Flight Computer/aircraft/x10_f_cfg.ks (inferred preloaded)
33.49,APPROACH,ILS_TRACK,152.02,152,-0.02,413.27,333.53,-8.2,6.98,9.94,270.01,-0.02,0.2309,0,13.027,1,0.6,4.5,0.75,0.35,0.0168,0.4,0,21.886,0,0.016,0,269.98,-3.111,0,1,-3.08,0,0,-3.14,269.98,0.4894,-0.0004,0.8721,-3.11,269.98,0.34,0.21,6.473,-0.021,-0.111,1,3,669.44,0.058,-3.111,413.55,0,0,0,,0,0,0,0,0,0,269.96,0,0,0,0,0,0,0,0,0,0,0,0,0,3,3,0,0,VALID,0,0,0,0,0,1,0,0,0,0,0,0,0,0,0,0,0,0,0,0,255.04,1099.38,2,0,0.15,0.15,226,6.67,0.15,0.15,33.49,FLYING,X10-F,0:/Integrated Flight Computer/aircraft/x10_f_cfg.ks (inferred preloaded)
33.79,APPROACH,ILS_TRACK,152.01,152,-0.01,410.8,331.06,-8.2,6.98,9.94,270.01,-0.022,0.2306,0,13.024,1,0.6,4.5,0.75,0.35,0.0168,0.4,0,21.889,0,0.007,0,269.98,-3.122,0,1,-3.08,0,0,-3.13,269.98,0.4896,-0.0004,0.872,-3.12,269.98,0.34,0.24,6.426,-0.021,-0.122,1,3,669.44,0.064,-3.122,411.06,0,0,0,,0,0,0,0,0,0,269.96,0,0,0,0,0,0,0,0,0,0,0,0,0,3,3,0,0,VALID,0,0,0,0,0,1,0,0,0,0,0,0,0,0,0,0,0,0,0,0,254.95,1099.54,2,0,0.15,0.15,228,6.67,0.15,0.15,33.79,FLYING,X10-F,0:/Integrated Flight Computer/aircraft/x10_f_cfg.ks (inferred preloaded)
34.09,APPROACH,ILS_TRACK,152,152,0,408.34,328.6,-8.21,6.98,9.96,270,-0.026,0.2305,0,13.024,1,0.6,4.5,0.75,0.35,0.0168,0.4,0,21.891,0,-0.002,0,269.98,-3.135,0,1,-3.09,0,0,-3.13,269.98,0.4899,-0.0004,0.8718,-3.14,269.98,0.35,0.26,6.379,-0.022,-0.135,1,3,669.44,0.073,-3.135,408.58,0,0,0,,0,0,0,0,0,0,269.96,0,0,0,0,0,0,0,0,0,0,0,0,0,3,3,0,0,VALID,0,0,0,0,0,1,0,0,0,0,0,0,0,0,0,0,0,0,0,0,254.86,1099.71,2,0,0.15,0.15,230,6.67,0.15,0.15,34.09,FLYING,X10-F,0:/Integrated Flight Computer/aircraft/x10_f_cfg.ks (inferred preloaded)
34.39,APPROACH,ILS_TRACK,151.99,152,0.01,405.88,326.14,-8.21,6.98,9.95,270,-0.023,0.2289,0,13.026,1,0.6,4.5,0.75,0.35,0.0168,0.4,0,21.893,0,-0.007,0,269.98,-3.136,0,1,-3.09,0,0,-3.13,269.98,0.4899,-0.0004,0.8718,-3.14,269.98,0.36,0.28,6.331,-0.02,-0.136,1,3,669.44,0.067,-3.136,406.09,0,0,0,,0,0,0,0,0,0,269.96,0,0,0,0,0,0,0,0,0,0,0,0,0,3,3,0,0,VALID,0,0,0,0,0,1,0,0,0,0,0,0,0,0,0,0,0,0,0,0,254.74,1099.89,2,0,0.15,0.15,232,6.67,0.15,0.15,34.39,FLYING,X10-F,0:/Integrated Flight Computer/aircraft/x10_f_cfg.ks (inferred preloaded)
34.69,APPROACH,ILS_TRACK,151.99,152,0.01,403.41,323.67,-8.22,6.98,9.95,270,-0.023,0.2278,0,13.029,1,0.6,4.5,0.75,0.35,0.0168,0.4,0,21.894,0,-0.012,0,269.98,-3.139,0,1,-3.09,0,0,-3.13,269.98,0.4901,-0.0004,0.8717,-3.14,269.98,0.37,0.29,6.284,-0.022,-0.139,1,3,669.44,0.063,-3.139,403.61,0,0,0,,0,0,0,0,0,0,269.96,0,0,0,0,0,0,0,0,0,0,0,0,0,3,3,0,0,VALID,0,0,0,0,0,1,0,0,0,0,0,0,0,0,0,0,0,0,0,0,254.47,1100.08,2,0,0.15,0.15,234,6.67,0.15,0.15,34.69,FLYING,X10-F,0:/Integrated Flight Computer/aircraft/x10_f_cfg.ks (inferred preloaded)
34.99,APPROACH,ILS_TRACK,151.98,152,0.02,400.95,321.21,-8.22,6.97,9.95,270,-0.026,0.2275,0,13.034,1,0.6,4.5,0.75,0.35,0.0168,0.4,0,21.896,0,-0.017,0,269.98,-3.142,0,1,-3.1,0,0,-3.14,269.98,0.4902,-0.0004,0.8716,-3.14,269.98,0.38,0.31,6.236,-0.023,-0.142,1,3,669.44,0.06,-3.142,401.13,0,0,0,,0,0,0,0,0,0,269.96,0,0,0,0,0,0,0,0,0,0,0,0,0,3,3,0,0,VALID,0,0,0,0,0,1,0,0,0,0,0,0,0,0,0,0,0,0,0,0,254.12,1100.26,2,0,0.15,0.15,236,6.67,0.15,0.15,34.99,FLYING,X10-F,0:/Integrated Flight Computer/aircraft/x10_f_cfg.ks (inferred preloaded)
35.29,APPROACH,ILS_TRACK,151.98,152,0.02,398.48,318.74,-8.22,6.97,9.95,270,-0.027,0.228,0,13.041,1,0.6,4.5,0.75,0.35,0.0168,0.4,0,21.897,0,-0.023,0,269.98,-3.143,0,1,-3.1,0,0,-3.14,269.98,0.4903,-0.0004,0.8716,-3.14,269.98,0.39,0.33,6.189,-0.023,-0.143,1,3,669.44,0.056,-3.143,398.64,0,0,0,,0,0,0,0,0,0,269.96,0,0,0,0,0,0,0,0,0,0,0,0,0,3,3,0,0,VALID,0,0,0,0,0,1,0,0,0,0,0,0,0,0,0,0,0,0,0,0,253.79,1100.44,2,0,0.15,0.15,238,6.67,0.15,0.15,35.29,FLYING,X10-F,0:/Integrated Flight Computer/aircraft/x10_f_cfg.ks (inferred preloaded)
35.59,APPROACH,ILS_TRACK,151.97,152,0.03,396.01,316.27,-8.22,6.97,9.95,270,-0.031,0.2289,0,13.049,1,0.6,4.5,0.75,0.35,0.0168,0.4,0,21.899,0,-0.03,0,269.98,-3.145,0,1,-3.1,0,0,-3.14,269.98,0.4904,-0.0004,0.8715,-3.15,269.98,0.4,0.34,6.142,-0.022,-0.145,1,3,669.44,0.052,-3.145,396.16,0,0,0,,0,0,0,0,0,0,269.96,0,0,0,0,0,0,0,0,0,0,0,0,0,3,3,0,0,VALID,0,0,0,0,0,1,0,0,0,0,0,0,0,0,0,0,0,0,0,0,253.55,1100.61,2,0,0.15,0.15,240,6.67,0.15,0.15,35.59,FLYING,X10-F,0:/Integrated Flight Computer/aircraft/x10_f_cfg.ks (inferred preloaded)
