t_s,phase,subphase,ias_ms,vapp_ms,spd_err_ms,agl_m,vs_ms,pitch_deg,aoa_deg,hdg_deg,bank_deg,thr_cmd,thr_intg,aa_hdg_cmd_deg,aa_fpa_cmd_deg,ils_loc_m,ils_gs_m,ils_dist_km,loc_corr_deg,gs_corr_deg,flare_fpa_cmd,flare_tgt_vs,flare_frac,steer_hdg_deg,steer_blend,ro_loc_corr_deg,ro_hdg_err_deg,ro_yaw_tgt,ro_yaw_scale,ro_yaw_gate,yaw_cmd,roll_cmd,pitch_cmd,ro_pitch_tgt_deg,ro_pitch_err_deg,ro_pitch_ff,ro_roll_assist,flaps_cur,flaps_tgt,phase_el_s,status
0.26,APPROACH,FLY_TO_FIX,198.04,160.13,-37.91,2478.49,-23.3,1.53,7.54,269.65,-1.973,0.032,-3.03,10.22,-4.903,0,0,0,0,0,0,0,0,269.67,0,0,0,0,0,0,0,0,0,0,0,0,0,0,3,0.3,FLYING
0.54,APPROACH,ILS_TRACK,198.35,160.58,-37.78,2471.38,-24,-0.17,5.96,269.82,-2.093,0,-13.6,107.79,-6,0,0,0,0,0,0,0,0,269.67,0,0,0,0,0,0,0,0,0,0,0,0,0,1,3,0.56,FLYING
0.8,APPROACH,ILS_TRACK,198.71,161.02,-37.68,2464.82,-24.98,-0.79,5.5,269.82,-2.869,0,-20,245.4,0,33.52,-23.04,46.184,-31.268,72.744,0,0,0,269.67,0,0,0,0,0,0,0,0,0,0,0,0,0,1,3,0.84,FLYING
1.06,APPROACH,ILS_TRACK,198.97,161.44,-37.53,2457.84,-25.91,-0.24,6.19,269.76,0.081,0,-20,270,0,32.58,-26.75,46.12,-0.398,19.449,0,0,0,269.67,0,0,0,0,0,0,0,0,0,0,0,0,0,2,3,1.1,FLYING
1.38,APPROACH,ILS_TRACK,199.19,161.95,-37.24,2450.29,-26.11,0.7,7.22,269.33,4.229,0,-20,269.9,0,31.6,-30.7,46.053,-0.503,19.066,0,0,0,269.67,0,0,0,0,0,0,0,0,0,0,0,0,0,2,3,1.42,FLYING
1.64,APPROACH,ILS_TRACK,199.25,162.37,-36.88,2443.08,-26.18,1.09,7.66,269.04,3.064,0,-20,270.06,0,30.68,-34.57,45.99,-0.338,22.28,0,0,0,269.67,0,0,0,0,0,0,0,0,0,0,0,0,0,3,3,1.68,FLYING
1.9,APPROACH,ILS_TRACK,199.23,161.95,-37.28,2436.86,-25.97,1.22,7.79,269.1,1.21,0,-20,270.02,0,29.83,-37.93,45.936,-0.378,21.721,0,0,0,269.67,0,0,0,0,0,0,0,0,0,0,0,0,0,3,3,1.94,FLYING
2.16,APPROACH,ILS_TRACK,199.15,161.54,-37.61,2429.93,-25.85,0.5,7.07,269.28,0.808,0,-20,270.19,0,28.84,-41.72,45.877,-0.206,24.192,0,0,0,269.67,0,0,0,0,0,0,0,0,0,0,0,0,0,3,3,2.2,FLYING
2.46,APPROACH,ILS_TRACK,199.1,161.06,-38.05,2421.94,-26.36,-0.03,6.6,269.38,0.357,0,-20,270.23,0,27.72,-46.21,45.81,-0.168,25.824,0,0,0,269.67,0,0,0,0,0,0,0,0,0,0,0,0,0,3,3,2.5,FLYING
2.72,APPROACH,ILS_TRACK,199,160.64,-38.36,2415.16,-26.67,0.38,7.07,269.43,0.076,0,-20,270.28,0,26.73,-49.97,45.751,-0.123,26.575,0,0,0,269.67,0,0,0,0,0,0,0,0,0,0,0,0,0,3,3,2.76,FLYING
2.98,APPROACH,ILS_TRACK,198.87,160.22,-38.65,2408.39,-26.67,0.98,7.67,269.46,-0.151,0,-20,270.32,0,25.75,-53.68,45.693,-0.083,27.528,0,0,0,269.67,0,0,0,0,0,0,0,0,0,0,0,0,0,3,3,3.02,FLYING
3.24,APPROACH,ILS_TRACK,198.64,160,-38.64,2401.67,-26.44,1.6,8.25,269.5,-0.366,0,-20,270.34,0,24.78,-57.37,45.635,-0.06,28.563,0,0,0,269.67,0,0,0,0,0,0,0,0,0,0,0,0,0,3,3,3.28,FLYING
3.54,APPROACH,ILS_TRACK,198.27,160,-38.27,2393.98,-25.94,2.18,8.74,269.53,-0.435,0,-20,270.39,0,23.66,-61.57,45.568,-0.013,29.672,0,0,0,269.67,0,0,0,0,0,0,0,0,0,0,0,0,0,3,3,3.58,FLYING
3.8,APPROACH,ILS_TRACK,197.85,160,-37.85,2387.4,-25.38,2.5,8.94,269.52,-0.322,0,-20,270.42,0,22.7,-65.14,45.51,0.016,30.517,0,0,0,269.67,0,0,0,0,0,0,0,0,0,0,0,0,0,3,3,3.84,FLYING
4.06,APPROACH,ILS_TRACK,197.37,160,-37.37,2380.93,-24.83,2.66,8.99,269.48,-0.016,0,-20,270.45,0,21.74,-68.63,45.452,0.047,31.312,0,0,0,269.67,0,0,0,0,0,0,0,0,0,0,0,0,0,3,3,4.1,FLYING
4.32,APPROACH,ILS_TRACK,196.83,160,-36.83,2374.65,-24.35,3.04,9.23,269.53,-0.851,0,-20,270.47,0,20.8,-71.96,45.394,0.072,31.844,0,0,0,269.67,0,0,0,0,0,0,0,0,0,0,0,0,0,3,3,4.36,FLYING
4.62,APPROACH,ILS_TRACK,196.08,160,-36.08,2367.78,-23.69,4.19,10.18,269.72,-1.793,0,-20,270.53,0,19.71,-75.49,45.327,0.128,32.065,0,0,0,269.67,0,0,0,0,0,0,0,0,0,0,0,0,0,3,3,4.66,FLYING
4.88,APPROACH,ILS_TRACK,195.3,160,-35.3,2362.15,-22.57,5.51,11.27,269.91,-2.386,0,-20,270.55,0,18.77,-78.21,45.27,0.151,31.829,0,0,0,269.67,0,0,0,0,0,0,0,0,0,0,0,0,0,3,3,4.92,FLYING
5.14,APPROACH,ILS_TRACK,194.38,160,-34.38,2356.71,-21.15,6.3,11.78,270.07,-2.72,0,-20,270.54,0,17.88,-80.73,45.213,0.138,31.958,0,0,0,269.67,0,0,0,0,0,0,0,0,0,0,0,0,0,3,3,5.18,FLYING
5.4,APPROACH,ILS_TRACK,193.38,160,-33.38,2351.47,-19.78,6.54,11.7,270.18,-2.913,0.0024,-20,270.53,0,17.03,-83.06,45.156,0.132,32.108,0,0,0,269.67,0,0,0,0,0,0,0,0,0,0,0,0,0,3,3,5.44,FLYING
5.7,APPROACH,ILS_TRACK,192.17,160,-32.17,2345.85,-18.47,6.88,11.71,270.28,-3.016,0.0795,-20,270.51,0,16.13,-85.42,45.09,0.105,31.922,0,0,0,269.67,0,0,0,0,0,0,0,0,0,0,0,0,0,3,3,5.74,FLYING
5.96,APPROACH,ILS_TRACK,191.09,160,-31.09,2341.32,-17.14,7.17,11.71,270.34,-3.017,0.1485,-20,270.47,0,15.42,-87.1,45.034,0.072,31.29,0,0,0,269.67,0,0,0,0,0,0,0,0,0,0,0,0,0,3,3,6,FLYING
6.22,APPROACH,ILS_TRACK,190,160,-30,2337.08,-16.01,7.37,11.62,270.38,-2.989,0.2049,-20,270.45,0,14.75,-88.52,44.978,0.052,30.941,0,0,0,269.67,0,0,0,0,0,0,0,0,0,0,0,0,0,3,3,6.26,FLYING
6.48,APPROACH,ILS_TRACK,188.9,160,-28.9,2333.2,-14.84,7.81,11.77,270.43,-2.919,0.2524,-20,270.43,0,14.13,-89.61,44.922,0.029,30.224,0,0,0,269.67,0,0,0,0,0,0,0,0,0,0,0,0,0,3,3,6.52,FLYING
6.78,APPROACH,ILS_TRACK,187.65,160,-27.65,2329.07,-13.47,8.12,11.73,270.46,-2.821,0.2881,-20,270.39,0,13.49,-90.51,44.858,-0.007,29.567,0,0,0,269.67,0,0,0,0,0,0,0,0,0,0,0,0,0,3,3,6.82,FLYING
7.04,APPROACH,ILS_TRACK,186.57,160,-26.57,2325.83,-12.27,8.47,11.79,270.49,-2.689,0.3157,-20,270.35,0,13,-90.98,44.803,-0.046,28.718,0,0,0,269.67,0,0,0,0,0,0,0,0,0,0,0,0,0,3,3,7.08,FLYING
7.3,APPROACH,ILS_TRACK,185.51,160,-25.51,2322.85,-11.13,8.63,11.66,270.5,-2.532,0.3328,-20,270.34,0,12.54,-91.18,44.748,-0.061,27.986,0,0,0,269.67,0,0,0,0,0,0,0,0,0,0,0,0,0,3,3,7.34,FLYING
7.56,APPROACH,ILS_TRACK,184.47,160,-24.47,2320.21,-10.09,9.01,11.75,270.52,-2.367,0.3431,-20,270.3,0,12.14,-91.1,44.693,-0.099,27.062,0,0,0,269.67,0,0,0,0,0,0,0,0,0,0,0,0,0,3,3,7.6,FLYING
7.86,APPROACH,ILS_TRACK,183.3,160,-23.3,2317.5,-8.69,9.32,11.72,270.52,-2.135,0.3475,-20,270.28,0,11.72,-90.62,44.631,-0.123,25.925,0,0,0,269.67,0,0,0,0,0,0,0,0,0,0,0,0,0,3,3,7.9,FLYING
8.12,APPROACH,ILS_TRACK,182.31,160,-22.31,2315.43,-7.55,9.46,11.57,270.51,-1.902,0.3453,-20,270.25,0,11.4,-89.96,44.576,-0.149,24.933,0,0,0,269.67,0,0,0,0,0,0,0,0,0,0,0,0,0,3,3,8.16,FLYING
8.38,APPROACH,ILS_TRACK,181.37,160,-21.37,2313.59,-6.49,9.37,11.2,270.47,-1.61,0.3356,-20,270.22,0,11.13,-89.06,44.523,-0.183,23.968,0,0,0,269.67,0,0,0,0,0,0,0,0,0,0,0,0,0,3,3,8.42,FLYING
8.64,APPROACH,ILS_TRACK,180.48,160,-20.48,2311.98,-5.55,9.19,10.77,270.43,-1.273,0.3168,-20,270.2,0,10.89,-87.95,44.469,-0.2,22.958,0,0,0,269.67,0,0,0,0,0,0,0,0,0,0,0,0,0,3,3,8.68,FLYING
8.94,APPROACH,ILS_TRACK,179.56,160,-19.56,2310.37,-4.63,8.83,10.16,270.37,-0.903,0.2854,-20,270.19,0,10.63,-86.42,44.408,-0.212,21.854,0,0,0,269.67,0,0,0,0,0,0,0,0,0,0,0,0,0,3,3,8.98,FLYING
9.2,APPROACH,ILS_TRACK,178.84,160,-18.84,2309.16,-4.03,8.53,9.69,270.32,-0.618,0.244,-20,270.18,0,10.43,-84.91,44.354,-0.222,20.83,0,0,0,269.67,0,0,0,0,0,0,0,0,0,0,0,0,0,3,3,9.24,FLYING
9.46,APPROACH,ILS_TRACK,178.19,160,-18.19,2308.11,-3.53,8.28,9.3,270.28,-0.377,0.1982,-20,270.18,0,10.23,-83.24,44.301,-0.222,19.833,0,0,0,269.67,0,0,0,0,0,0,0,0,0,0,0,0,0,3,3,9.5,FLYING
9.72,APPROACH,ILS_TRACK,177.59,160,-17.59,2307.2,-3.11,8.12,9.02,270.25,-0.193,0.1526,-20,270.17,0,10.05,-81.44,44.249,-0.226,18.875,0,0,0,269.67,0,0,0,0,0,0,0,0,0,0,0,0,0,3,3,9.76,FLYING
10.02,APPROACH,ILS_TRACK,176.93,160,-16.93,2306.3,-2.81,8.02,8.81,270.22,-0.029,0.1021,-20,270.18,0,9.85,-79.22,44.188,-0.225,17.858,0,0,0,269.67,0,0,0,0,0,0,0,0,0,0,0,0,0,3,3,10.06,FLYING
10.28,APPROACH,ILS_TRACK,176.34,160,-16.34,2305.66,-2.43,8.21,8.91,270.2,0.06,0.0712,-20,270.19,0,9.66,-77.15,44.136,-0.211,16.759,0,0,0,269.67,0,0,0,0,0,0,0,0,0,0,0,0,0,3,3,10.32,FLYING
10.54,APPROACH,ILS_TRACK,175.77,160,-15.77,2305.06,-2.1,8.11,8.72,270.19,0.089,0.0445,-20,270.19,0,9.49,-75.03,44.083,-0.207,15.995,0,0,0,269.67,0,0,0,0,0,0,0,0,0,0,0,0,0,3,3,10.58,FLYING
10.8,APPROACH,ILS_TRACK,175.16,160,-15.16,2304.56,-1.9,8.2,8.74,270.19,0.09,0.0275,-20,270.2,0,9.3,-72.84,44.031,-0.198,15.133,0,0,0,269.67,0,0,0,0,0,0,0,0,0,0,0,0,0,3,3,10.84,FLYING
11.1,APPROACH,ILS_TRACK,174.45,160,-14.45,2303.99,-1.51,7.95,8.41,270.19,0.065,0.0177,-20,270.21,0,9.1,-70.26,43.971,-0.191,14.184,0,0,0,269.67,0,0,0,0,0,0,0,0,0,0,0,0,0,3,3,11.14,FLYING
11.36,APPROACH,ILS_TRACK,173.82,160,-13.82,2303.56,-1.49,7.79,8.22,270.2,0.031,0.0114,-20,270.22,0,8.91,-68.02,43.92,-0.177,13.502,0,0,0,269.67,0,0,0,0,0,0,0,0,0,0,0,0,0,3,3,11.4,FLYING
11.62,APPROACH,ILS_TRACK,173.15,160,-13.15,2303.24,-1.43,8.04,8.44,270.21,-0.016,0.0147,-20,270.23,0,8.73,-65.67,43.868,-0.174,12.49,0,0,0,269.67,0,0,0,0,0,0,0,0,0,0,0,0,0,3,3,11.66,FLYING
11.88,APPROACH,ILS_TRACK,172.47,160,-12.47,2302.91,-1.18,8.01,8.37,270.21,-0.051,0.0193,-20,270.23,0,8.55,-63.29,43.817,-0.166,11.671,0,0,0,269.67,0,0,0,0,0,0,0,0,0,0,0,0,0,3,3,11.92,FLYING
12.18,APPROACH,ILS_TRACK,171.66,160,-11.66,2302.55,-1.17,7.99,8.32,270.22,-0.084,0.026,-20,270.23,0,8.35,-60.58,43.758,-0.17,10.947,0,0,0,269.67,0,0,0,0,0,0,0,0,0,0,0,0,0,3,3,12.22,FLYING
12.44,APPROACH,ILS_TRACK,170.92,160,-10.92,2302.31,-1.08,8.21,8.52,270.22,-0.098,0.0388,-20,270.25,0,8.17,-58.16,43.707,-0.152,10.005,0,0,0,269.67,0,0,0,0,0,0,0,0,0,0,0,0,0,3,3,12.48,FLYING
12.7,APPROACH,ILS_TRACK,170.19,160,-10.19,2302.08,-0.99,8.33,8.61,270.23,-0.122,0.0491,-20,270.24,0,8,-55.74,43.656,-0.163,9.275,0,0,0,269.67,0,0,0,0,0,0,0,0,0,0,0,0,0,3,3,12.74,FLYING
12.96,APPROACH,ILS_TRACK,169.44,160,-9.44,2301.86,-0.91,8.4,8.67,270.23,-0.128,0.0605,-20,270.26,0,7.82,-53.32,43.605,-0.142,8.544,0,0,0,269.67,0,0,0,0,0,0,0,0,0,0,0,0,0,3,3,13,FLYING
13.26,APPROACH,ILS_TRACK,168.56,160,-8.56,2301.63,-0.83,8.51,8.75,270.24,-0.148,0.0716,-20,270.25,0,7.63,-50.52,43.547,-0.145,7.671,0,0,0,269.67,0,0,0,0,0,0,0,0,0,0,0,0,0,3,3,13.3,FLYING
13.52,APPROACH,ILS_TRACK,167.79,160,-7.79,2301.45,-0.76,8.6,8.82,270.24,-0.15,0.0812,-20,270.26,0,7.47,-48.08,43.497,-0.141,6.923,0,0,0,269.67,0,0,0,0,0,0,0,0,0,0,0,0,0,3,3,13.56,FLYING
13.78,APPROACH,ILS_TRACK,167.03,160,-7.03,2301.28,-0.73,8.68,8.89,270.25,-0.153,0.1065,-20,270.27,0,7.3,-45.64,43.447,-0.13,6.2,0,0,0,269.67,0,0,0,0,0,0,0,0,0,0,0,0,0,3,3,13.82,FLYING
14.04,APPROACH,ILS_TRACK,166.27,160,-6.27,2301.12,-0.69,8.79,8.99,270.25,-0.156,0.151,-20,270.26,0,7.15,-43.2,43.398,-0.141,5.433,0,0,0,269.67,0,0,0,0,0,0,0,0,0,0,0,0,0,3,3,14.08,FLYING
14.34,APPROACH,ILS_TRACK,165.4,160,-5.4,2300.96,-0.65,8.91,9.09,270.25,-0.149,0.198,-20,270.27,0,6.97,-40.38,43.341,-0.13,4.591,0,0,0,269.67,0,0,0,0,0,0,0,0,0,0,0,0,0,3,3,14.38,FLYING
14.6,APPROACH,ILS_TRACK,164.65,160,-4.65,2300.82,-0.59,8.97,9.14,270.25,-0.151,0.2359,-20,270.28,0,6.81,-37.93,43.291,-0.122,3.86,0,0,0,269.67,0,0,0,0,0,0,0,0,0,0,0,0,0,3,3,14.64,FLYING
14.86,APPROACH,ILS_TRACK,163.93,160,-3.93,2300.71,-0.57,9.09,9.25,270.26,-0.153,0.2696,-20,270.28,0,6.67,-35.49,43.242,-0.123,3.125,0,0,0,269.67,0,0,0,0,0,0,0,0,0,0,0,0,0,3,3,14.9,FLYING
15.12,APPROACH,ILS_TRACK,163.23,160,-3.23,2300.59,-0.47,9.17,9.32,270.26,-0.161,0.2977,-20,270.28,-0.614,6.52,-33.04,43.194,-0.122,2.386,0,0,0,269.67,0,0,0,0,0,0,0,0,0,0,0,0,0,3,3,15.16,FLYING
15.42,APPROACH,ILS_TRACK,162.46,160,-2.46,2300.29,-0.23,8.44,8.59,270.27,-0.226,0.325,-20,270.29,-1.134,6.35,-30.33,43.137,-0.112,1.866,0,0,0,269.67,0,0,0,0,0,0,0,0,0,0,0,0,0,3,3,15.46,FLYING
15.68,APPROACH,ILS_TRACK,161.9,160,-1.9,2299.86,-0.4,7.21,7.42,270.28,-0.305,0.326,-20,270.29,-1.202,6.2,-28.17,43.089,-0.106,1.798,0,0,0,269.67,0,0,0,0,0,0,0,0,0,0,0,0,0,3,3,15.72,FLYING
15.94,APPROACH,ILS_TRACK,161.45,160,-1.45,2299.38,-0.98,6.17,6.52,270.29,-0.358,0.307,-20,270.29,-1.508,6.07,-26.11,43.041,-0.114,1.492,0,0,0,269.67,0,0,0,0,0,0,0,0,0,0,0,0,0,3,3,15.98,FLYING
16.2,APPROACH,ILS_TRACK,161.04,160,-1.04,2298.87,-1.7,5.66,6.19,270.29,-0.369,0.2815,-20,270.29,-2.023,5.93,-24.08,42.993,-0.107,0.977,0,0,0,269.67,0,0,0,0,0,0,0,0,0,0,0,0,0,3,3,16.24,FLYING
16.5,APPROACH,ILS_TRACK,160.63,160,-0.63,2298.27,-2.48,5.81,6.55,270.3,-0.387,0.2576,-20,270.29,-2.646,5.78,-21.76,42.937,-0.106,0.354,0,0,0,269.67,0,0,0,0,0,0,0,0,0,0,0,0,0,3,3,16.54,FLYING
16.76,APPROACH,ILS_TRACK,160.32,160,-0.32,2297.53,-2.63,5.56,6.43,270.3,-0.394,0.2275,-20,270.3,-2.876,5.66,-19.86,42.889,-0.104,0.124,0,0,0,269.67,0,0,0,0,0,0,0,0,0,0,0,0,0,3,3,16.8,FLYING
17.02,APPROACH,ILS_TRACK,160.06,160,-0.06,2296.48,-3.19,4.54,5.59,270.3,-0.393,0.1959,-20,270.3,-2.294,5.53,-18.31,42.841,-0.103,0.706,0,0,0,269.67,0,0,0,0,0,0,0,0,0,0,0,0,0,3,3,17.06,FLYING
17.28,APPROACH,ILS_TRACK,159.86,160,0.14,2295.29,-4.1,3.74,5.03,270.3,-0.364,0.1573,-19.972,270.29,-2.095,5.42,-16.95,42.794,-0.112,0.905,0,0,0,269.67,0,0,0,0,0,0,0,0,0,0,0,0,0,3,3,17.32,FLYING
17.58,APPROACH,ILS_TRACK,159.63,160,0.37,2293.82,-5.25,3.55,5.14,270.3,-0.309,0.1299,-19.871,270.3,-2.211,5.29,-15.5,42.738,-0.101,0.789,0,0,0,269.67,0,0,0,0,0,0,0,0,0,0,0,0,0,3,3,17.62,FLYING
17.84,APPROACH,ILS_TRACK,159.42,160,0.58,2292.49,-6.16,4.11,5.94,270.3,-0.277,0.1117,-19.729,270.3,-2.344,5.18,-14.32,42.691,-0.097,0.656,0,0,0,269.67,0,0,0,0,0,0,0,0,0,0,0,0,0,3,3,17.88,FLYING
18.1,APPROACH,ILS_TRACK,159.17,160,0.83,2291.13,-6.81,5.29,7.3,270.31,-0.241,0.1085,-19.525,270.3,-2.561,5.07,-13.18,42.643,-0.101,0.439,0,0,0,269.67,0,0,0,0,0,0,0,0,0,0,0,0,0,3,3,18.14,FLYING
18.36,APPROACH,ILS_TRACK,158.89,160,1.11,2289.64,-6.89,6.31,8.4,270.31,-0.209,0.1174,-19.249,270.3,-2.661,4.97,-12.11,42.596,-0.098,0.339,0,0,0,269.67,0,0,0,0,0,0,0,0,0,0,0,0,0,3,3,18.4,FLYING
18.66,APPROACH,ILS_TRACK,158.51,160,1.49,2287.67,-6.89,6.61,8.76,270.32,-0.185,0.1452,-18.818,270.3,-2.27,4.85,-11.13,42.541,-0.096,0.73,0,0,0,269.67,0,0,0,0,0,0,0,0,0,0,0,0,0,3,3,18.7,FLYING
18.92,APPROACH,ILS_TRACK,158.15,160,1.85,2285.88,-7.08,6.7,8.9,270.31,-0.147,0.1766,-18.352,270.3,-2.018,4.75,-10.43,42.494,-0.095,0.982,0,0,0,269.67,0,0,0,0,0,0,0,0,0,0,0,0,0,3,3,18.96,FLYING
19.18,APPROACH,ILS_TRACK,157.77,160,2.23,2284.1,-7.31,7.04,9.29,270.31,-0.123,0.2133,-17.789,270.31,-2.188,4.65,-9.74,42.446,-0.092,0.812,0,0,0,269.67,0,0,0,0,0,0,0,0,0,0,0,0,0,3,3,19.22,FLYING
19.44,APPROACH,ILS_TRACK,157.36,160,2.64,2282.35,-7.26,7.57,9.84,270.31,-0.1,0.2557,-17.12,270.3,-2.51,4.56,-9.02,42.399,-0.097,0.49,0,0,0,269.67,0,0,0,0,0,0,0,0,0,0,0,0,0,3,3,19.48,FLYING
19.74,APPROACH,ILS_TRACK,156.89,160,3.11,2280.18,-7.14,7.48,9.75,270.31,-0.083,0.3029,-16.206,270.31,-2.424,4.46,-8.31,42.345,-0.091,0.576,0,0,0,269.67,0,0,0,0,0,0,0,0,0,0,0,0,0,3,3,19.78,FLYING
20,APPROACH,ILS_TRACK,156.51,160,3.49,2278.3,-7.28,7.45,9.74,270.31,-0.074,0.3374,-15.314,270.32,-2.385,4.36,-7.75,42.298,-0.085,0.615,0,0,0,269.67,0,0,0,0,0,0,0,0,0,0,0,0,0,3,3,20.04,FLYING
20.26,APPROACH,ILS_TRACK,156.14,160,3.86,2276.47,-7.32,7.75,10.06,270.31,-0.066,0.3707,-14.324,270.32,-2.718,4.27,-7.14,42.252,-0.083,0.282,0,0,0,269.67,0,0,0,0,0,0,0,0,0,0,0,0,0,3,3,20.3,FLYING
20.52,APPROACH,ILS_TRACK,155.77,160,4.23,2274.53,-7.1,7.46,9.76,270.31,-0.079,0.4024,-13.239,270.31,-2.756,4.19,-6.58,42.205,-0.087,0.244,0,0,0,269.67,0,0,0,0,0,0,0,0,0,0,0,0,0,3,3,20.56,FLYING
20.82,APPROACH,ILS_TRACK,155.45,160,4.55,2272.2,-7.31,6.88,9.23,270.31,-0.084,0.4217,-11.885,270.32,-2.493,4.09,-6.09,42.151,-0.077,0.507,0,0,0,269.67,0,0,0,0,0,0,0,0,0,0,0,0,0,3,3,20.86,FLYING
21.08,APPROACH,ILS_TRACK,155.21,160,4.79,2270.23,-7.64,6.79,9.2,270.32,-0.08,0.4263,-10.65,270.32,-2.654,4.01,-5.65,42.105,-0.084,0.346,0,0,0,269.67,0,0,0,0,0,0,0,0,0,0,0,0,0,3,3,21.12,FLYING
21.34,APPROACH,ILS_TRACK,155,160,5,2268.32,-7.9,7.21,9.69,270.32,-0.079,0.4304,-9.358,270.33,-2.981,3.91,-5.15,42.059,-0.067,0.019,0,0,0,269.67,0,0,0,0,0,0,0,0,0,0,0,0,0,3,3,21.38,FLYING
21.6,APPROACH,ILS_TRACK,154.8,160,5.2,2266.33,-7.59,7.26,9.74,270.32,-0.106,0.4368,-8.015,270.32,-3.144,3.84,-4.65,42.012,-0.083,-0.144,0,0,0,269.67,0,0,0,0,0,0,0,0,0,0,0,0,0,3,3,21.64,FLYING
21.9,APPROACH,ILS_TRACK,154.62,160,5.38,2263.79,-7.7,6.37,8.89,270.32,-0.105,0.4435,-6.405,270.33,-2.54,3.74,-4.34,41.959,-0.069,0.46,0,0,0,269.67,0,0,0,0,0,0,0,0,0,0,0,0,0,3,3,21.94,FLYING
22.16,APPROACH,ILS_TRACK,154.57,160,5.43,2261.56,-8.13,5.8,8.41,270.32,-0.089,0.4237,-4.996,270.32,-2.348,3.67,-4.14,41.913,-0.075,0.652,0,0,0,269.67,0,0,0,0,0,0,0,0,0,0,0,0,0,3,3,22.2,FLYING
22.42,APPROACH,ILS_TRACK,154.56,160,5.44,2259.37,-8.63,5.76,8.5,270.32,-0.087,0.4023,-3.582,270.33,-2.471,3.59,-3.93,41.867,-0.066,0.529,0,0,0,269.67,0,0,0,0,0,0,0,0,0,0,0,0,0,3,3,22.46,FLYING
22.68,APPROACH,ILS_TRACK,154.56,160,5.44,2257.23,-9.06,6.34,9.17,270.33,-0.088,0.3851,-2.168,270.33,-2.687,3.51,-3.68,41.821,-0.068,0.313,0,0,0,269.67,0,0,0,0,0,0,0,0,0,0,0,0,0,3,3,22.72,FLYING
22.98,APPROACH,ILS_TRACK,154.54,160,5.46,2254.77,-8.99,7.25,10.1,270.33,-0.082,0.38,-0.532,270.34,-2.941,3.42,-3.32,41.767,-0.063,0.059,0,0,0,269.67,0,0,0,0,0,0,0,0,0,0,0,0,0,3,3,23.02,FLYING
23.24,APPROACH,ILS_TRACK,154.51,160,5.49,2252.49,-8.82,7.35,10.18,270.33,-0.072,0.3821,0.895,270.33,-2.647,3.35,-3.13,41.721,-0.068,0.353,0,0,0,269.67,0,0,0,0,0,0,0,0,0,0,0,0,0,3,3,23.28,FLYING
23.5,APPROACH,ILS_TRACK,154.5,160,5.5,2250.21,-8.93,7.42,10.26,270.33,-0.072,0.3831,2.324,270.34,-2.456,3.28,-3.02,41.675,-0.063,0.544,0,0,0,269.67,0,0,0,0,0,0,0,0,0,0,0,0,0,3,3,23.54,FLYING
23.76,APPROACH,ILS_TRACK,154.48,160,5.52,2248,-8.94,7.87,10.71,270.33,-0.076,0.3888,3.759,270.33,-2.704,3.22,-2.84,41.629,-0.066,0.296,0,0,0,269.67,0,0,0,0,0,0,0,0,0,0,0,0,0,3,3,23.8,FLYING
24.06,APPROACH,ILS_TRACK,154.41,160,5.59,2245.35,-8.51,7.68,10.46,270.33,-0.063,0.4092,5.434,270.35,-2.746,3.13,-2.64,41.576,-0.055,0.254,0,0,0,269.67,0,0,0,0,0,0,0,0,0,0,0,0,0,3,3,24.1,FLYING
24.32,APPROACH,ILS_TRACK,154.43,160,5.57,2243.01,-8.6,7.26,10.04,270.33,-0.059,0.4133,6.885,270.34,-2.425,3.07,-2.57,41.53,-0.062,0.575,0,0,0,269.67,0,0,0,0,0,0,0,0,0,0,0,0,0,3,3,24.36,FLYING
24.58,APPROACH,ILS_TRACK,154.47,160,5.53,2240.75,-8.81,7.26,10.06,270.33,-0.06,0.4096,8.324,270.35,-2.617,3,-2.46,41.484,-0.055,0.383,0,0,0,269.67,0,0,0,0,0,0,0,0,0,0,0,0,0,3,3,24.62,FLYING
24.84,APPROACH,ILS_TRACK,154.52,160,5.48,2238.54,-8.68,7.53,10.33,270.34,-0.061,0.4085,9.751,270.34,-2.957,2.94,-2.25,41.437,-0.062,0.043,0,0,0,269.67,0,0,0,0,0,0,0,0,0,0,0,0,0,3,3,24.88,FLYING
25.14,APPROACH,ILS_TRACK,154.59,160,5.41,2235.87,-8.56,7.17,9.94,270.34,-0.058,0.4108,11.379,270.35,-2.784,2.87,-2.1,41.384,-0.052,0.216,0,0,0,269.67,0,0,0,0,0,0,0,0,0,0,0,0,0,3,3,25.18,FLYING
25.4,APPROACH,ILS_TRACK,154.7,160,5.3,2233.57,-8.76,7.02,9.82,270.34,-0.053,0.4008,12.761,270.35,-2.707,2.81,-2,41.338,-0.051,0.293,0,0,0,269.67,0,0,0,0,0,0,0,0,0,0,0,0,0,3,3,25.44,FLYING
25.66,APPROACH,ILS_TRACK,154.81,160,5.19,2231.35,-8.79,7.29,10.1,270.34,-0.051,0.3936,14.115,270.35,-3,2.74,-1.82,41.292,-0.047,0,0,0,0,269.67,0,0,0,0,0,0,0,0,0,0,0,0,0,3,3,25.7,FLYING
25.92,APPROACH,ILS_TRACK,154.92,160,5.08,2229.04,-8.64,7.1,9.88,270.34,-0.055,0.3917,15.442,270.35,-2.979,2.68,-1.66,41.246,-0.049,0.021,0,0,0,269.67,0,0,0,0,0,0,0,0,0,0,0,0,0,3,3,25.96,FLYING
26.22,APPROACH,ILS_TRACK,155.09,160,4.91,2226.39,-8.86,7,9.82,270.34,-0.056,0.3824,16.921,270.35,-2.858,2.61,-1.54,41.192,-0.048,0.142,0,0,0,269.67,0,0,0,0,0,0,0,0,0,0,0,0,0,3,3,26.26,FLYING
26.48,APPROACH,ILS_TRACK,155.24,160,4.76,2224.14,-8.75,7.16,9.98,270.34,-0.052,0.3753,18.166,270.35,-3.12,2.56,-1.37,41.146,-0.047,-0.12,0,0,0,269.67,0,0,0,0,0,0,0,0,0,0,0,0,0,3,3,26.52,FLYING
26.74,APPROACH,ILS_TRACK,155.38,160,4.62,2221.77,-8.66,6.75,9.55,270.35,-0.063,0.3712,19.373,270.35,-2.923,2.5,-1.27,41.1,-0.05,0.077,0,0,0,269.67,0,0,0,0,0,0,0,0,0,0,0,0,0,3,3,26.78,FLYING
27,APPROACH,ILS_TRACK,155.58,160,4.42,2219.4,-8.91,6.47,9.31,270.35,-0.059,0.3509,20,270.36,-2.778,2.44,-1.22,41.054,-0.04,0.222,0,0,0,269.67,0,0,0,0,0,0,0,0,0,0,0,0,0,3,3,27.04,FLYING
27.3,APPROACH,ILS_TRACK,155.8,160,4.2,2216.77,-9.17,6.81,9.7,270.35,-0.058,0.3252,20,270.36,-3.039,2.38,-1.09,41,-0.043,-0.039,0,0,0,269.67,0,0,0,0,0,0,0,0,0,0,0,0,0,3,3,27.34,FLYING
27.56,APPROACH,ILS_TRACK,155.97,160,4.03,2214.45,-8.9,6.88,9.74,270.35,-0.058,0.3091,20,270.36,-3.198,2.33,-0.93,40.954,-0.045,-0.198,0,0,0,269.67,0,0,0,0,0,0,0,0,0,0,0,0,0,3,3,27.6,FLYING
27.82,APPROACH,ILS_TRACK,156.15,160,3.85,2212.01,-8.94,6.43,9.3,270.35,-0.061,0.2934,20,270.37,-2.805,2.27,-0.91,40.907,-0.034,0.195,0,0,0,269.67,0,0,0,0,0,0,0,0,0,0,0,0,0,3,3,27.86,FLYING
28.08,APPROACH,ILS_TRACK,156.35,160,3.65,2209.6,-9.22,6.25,9.17,270.35,-0.059,0.2724,20,270.36,-2.743,2.22,-0.9,40.861,-0.039,0.257,0,0,0,269.67,0,0,0,0,0,0,0,0,0,0,0,0,0,3,3,28.12,FLYING
28.38,APPROACH,ILS_TRACK,156.55,160,3.45,2206.92,-9.46,6.75,9.71,270.35,-0.057,0.2588,20,270.36,-3.027,2.17,-0.8,40.807,-0.043,-0.027,0,0,0,269.67,0,0,0,0,0,0,0,0,0,0,0,0,0,3,3,28.42,FLYING
28.64,APPROACH,ILS_TRACK,156.66,160,3.34,2204.53,-9.14,6.82,9.74,270.35,-0.051,0.2598,20,270.37,-3.147,2.12,-0.69,40.76,-0.034,-0.147,0,0,0,269.67,0,0,0,0,0,0,0,0,0,0,0,0,0,3,3,28.68,FLYING
28.9,APPROACH,ILS_TRACK,156.79,160,3.21,2202.07,-9.22,6.52,9.46,270.36,-0.056,0.26,20,270.36,-2.735,2.07,-0.7,40.714,-0.042,0.265,0,0,0,269.67,0,0,0,0,0,0,0,0,0,0,0,0,0,3,3,28.94,FLYING
29.16,APPROACH,ILS_TRACK,156.91,160,3.09,2199.65,-9.44,6.58,9.54,270.36,-0.056,0.2576,20,270.36,-2.801,2.03,-0.7,40.667,-0.036,0.199,0,0,0,269.67,0,0,0,0,0,0,0,0,0,0,0,0,0,3,3,29.2,FLYING
29.46,APPROACH,ILS_TRACK,157.01,160,2.99,2196.92,-9.3,6.91,9.87,270.36,-0.054,0.2624,20,270.37,-3.077,1.96,-0.6,40.613,-0.026,-0.077,0,0,0,269.67,0,0,0,0,0,0,0,0,0,0,0,0,0,3,3,29.5,FLYING
29.72,APPROACH,ILS_TRACK,157.08,160,2.92,2194.46,-9.23,6.66,9.6,270.36,-0.055,0.2717,20,270.36,-2.849,1.93,-0.6,40.567,-0.04,0.151,0,0,0,269.67,0,0,0,0,0,0,0,0,0,0,0,0,0,3,3,29.76,FLYING
29.98,APPROACH,ILS_TRACK,157.16,160,2.84,2192.02,-9.4,6.6,9.56,270.36,-0.05,0.2754,20,270.37,-2.772,1.88,-0.61,40.52,-0.03,0.228,0,0,0,269.67,0,0,0,0,0,0,0,0,0,0,0,0,0,3,3,30.02,FLYING
30.24,APPROACH,ILS_TRACK,157.21,160,2.79,2189.65,-9.36,6.9,9.87,270.36,-0.05,0.2835,20,270.36,-3.034,1.84,-0.55,40.473,-0.038,-0.034,0,0,0,269.67,0,0,0,0,0,0,0,0,0,0,0,0,0,3,3,30.28,FLYING
30.54,APPROACH,ILS_TRACK,157.25,160,2.75,2186.81,-9.24,6.67,9.61,270.36,-0.046,0.2936,20,270.37,-2.906,1.79,-0.52,40.419,-0.03,0.094,0,0,0,269.67,0,0,0,0,0,0,0,0,0,0,0,0,0,3,3,30.58,FLYING
30.8,APPROACH,ILS_TRACK,157.31,160,2.69,2184.38,-9.41,6.66,9.62,270.36,-0.045,0.2963,20,270.37,-2.82,1.75,-0.53,40.372,-0.03,0.18,0,0,0,269.67,0,0,0,0,0,0,0,0,0,0,0,0,0,3,3,30.84,FLYING
31.06,APPROACH,ILS_TRACK,157.35,160,2.65,2181.99,-9.29,6.86,9.81,270.37,-0.044,0.3017,20,270.37,-3.058,1.71,-0.46,40.326,-0.034,-0.058,0,0,0,269.67,0,0,0,0,0,0,0,0,0,0,0,0,0,3,3,31.1,FLYING
31.32,APPROACH,ILS_TRACK,157.4,160,2.6,2179.53,-9.25,6.64,9.58,270.37,-0.043,0.3057,20,270.37,-2.897,1.68,-0.45,40.279,-0.032,0.103,0,0,0,269.67,0,0,0,0,0,0,0,0,0,0,0,0,0,3,3,31.36,FLYING
31.62,APPROACH,ILS_TRACK,157.46,160,2.54,2176.74,-9.43,6.69,9.66,270.37,-0.039,0.3041,20,270.38,-2.884,1.63,-0.45,40.225,-0.023,0.116,0,0,0,269.67,0,0,0,0,0,0,0,0,0,0,0,0,0,3,3,31.66,FLYING
31.88,APPROACH,ILS_TRACK,157.51,160,2.49,2174.33,-9.26,6.77,9.71,270.37,-0.038,0.3054,20,270.37,-3.073,1.6,-0.39,40.178,-0.034,-0.073,0,0,0,269.67,0,0,0,0,0,0,0,0,0,0,0,0,0,3,3,31.92,FLYING
32.14,APPROACH,ILS_TRACK,157.57,160,2.43,2171.88,-9.29,6.59,9.53,270.37,-0.037,0.3033,20,270.37,-2.896,1.56,-0.38,40.131,-0.026,0.104,0,0,0,269.67,0,0,0,0,0,0,0,0,0,0,0,0,0,3,3,32.18,FLYING
32.4,APPROACH,ILS_TRACK,157.63,160,2.37,2169.48,-9.37,6.72,9.68,270.37,-0.035,0.3003,20,270.37,-2.973,1.53,-0.36,40.085,-0.033,0.027,0,0,0,269.67,0,0,0,0,0,0,0,0,0,0,0,0,0,3,3,32.44,FLYING
32.7,APPROACH,ILS_TRACK,157.69,160,2.31,2166.68,-9.28,6.7,9.64,270.37,-0.031,0.2984,20,270.37,-3.042,1.49,-0.31,40.031,-0.027,-0.042,0,0,0,269.67,0,0,0,0,0,0,0,0,0,0,0,0,0,3,3,32.74,FLYING
32.96,APPROACH,ILS_TRACK,157.76,160,2.24,2164.24,-9.3,6.62,9.56,270.37,-0.031,0.2942,20,270.38,-2.966,1.45,-0.29,39.984,-0.023,0.034,0,0,0,269.67,0,0,0,0,0,0,0,0,0,0,0,0,0,3,3,33,FLYING
33.22,APPROACH,ILS_TRACK,157.82,160,2.18,2161.85,-9.36,6.76,9.71,270.37,-0.028,0.2904,20,270.37,-3.045,1.42,-0.25,39.937,-0.027,-0.045,0,0,0,269.67,0,0,0,0,0,0,0,0,0,0,0,0,0,3,3,33.26,FLYING
33.48,APPROACH,ILS_TRACK,157.87,160,2.13,2159.41,-9.22,6.62,9.55,270.37,-0.027,0.2911,20,270.37,-3.076,1.4,-0.21,39.89,-0.03,-0.076,0,0,0,269.67,0,0,0,0,0,0,0,0,0,0,0,0,0,3,3,33.52,FLYING
33.78,APPROACH,ILS_TRACK,157.94,160,2.06,2156.62,-9.4,6.62,9.57,270.37,-0.027,0.2866,20,270.38,-2.979,1.36,-0.19,39.836,-0.023,0.021,0,0,0,269.67,0,0,0,0,0,0,0,0,0,0,0,0,0,3,3,33.82,FLYING
34.04,APPROACH,ILS_TRACK,157.98,160,2.02,2154.21,-9.19,6.67,9.6,270.37,-0.026,0.2868,20,270.37,-3.177,1.33,-0.12,39.789,-0.025,-0.177,0,0,0,269.67,0,0,0,0,0,0,0,0,0,0,0,0,0,3,3,34.08,FLYING
34.3,APPROACH,ILS_TRACK,158.04,160,1.96,2151.72,-9.22,6.31,9.24,270.37,-0.027,0.2844,20,270.38,-2.915,1.3,-0.14,39.743,-0.021,0.085,0,0,0,269.67,0,0,0,0,0,0,0,0,0,0,0,0,0,3,3,34.34,FLYING
34.56,APPROACH,ILS_TRACK,158.11,160,1.89,2149.28,-9.45,6.25,9.22,270.38,-0.025,0.2774,20,270.37,-2.909,1.27,-0.15,39.696,-0.027,0.091,0,0,0,269.67,0,0,0,0,0,0,0,0,0,0,0,0,0,3,3,34.6,FLYING
34.86,APPROACH,ILS_TRACK,158.17,160,1.83,2146.53,-9.4,6.58,9.56,270.38,-0.023,0.2753,20,270.38,-3.183,1.24,-0.07,39.642,-0.022,-0.183,0,0,0,269.67,0,0,0,0,0,0,0,0,0,0,0,0,0,3,3,34.9,FLYING
35.12,APPROACH,ILS_TRACK,158.22,160,1.78,2144.04,-9.33,6.36,9.32,270.38,-0.022,0.2759,20,270.38,-3,1.21,-0.07,39.595,-0.024,0,0,0,0,269.67,0,0,0,0,0,0,0,0,0,0,0,0,0,3,3,35.16,FLYING
35.38,APPROACH,ILS_TRACK,158.28,160,1.72,2141.57,-9.52,6.3,9.29,270.38,-0.022,0.2718,20,270.38,-2.875,1.19,-0.1,39.548,-0.023,0.125,0,0,0,269.67,0,0,0,0,0,0,0,0,0,0,0,0,0,3,3,35.42,FLYING
35.64,APPROACH,ILS_TRACK,158.32,160,1.68,2139.17,-9.49,6.59,9.59,270.38,-0.021,0.2729,20,270.38,-3.114,1.16,-0.06,39.501,-0.018,-0.114,0,0,0,269.67,0,0,0,0,0,0,0,0,0,0,0,0,0,3,3,35.68,FLYING
35.94,APPROACH,ILS_TRACK,158.35,160,1.65,2136.3,-9.43,6.44,9.42,270.38,-0.021,0.2759,20,270.38,-2.979,1.13,-0.06,39.447,-0.025,0.021,0,0,0,269.67,0,0,0,0,0,0,0,0,0,0,0,0,0,3,3,35.98,FLYING
36.2,APPROACH,ILS_TRACK,158.39,160,1.61,2133.86,-9.55,6.55,9.55,270.38,-0.018,0.276,20,270.37,-2.946,1.12,-0.07,39.4,-0.027,0.054,0,0,0,269.67,0,0,0,0,0,0,0,0,0,0,0,0,0,3,3,36.24,FLYING
36.46,APPROACH,ILS_TRACK,158.41,160,1.59,2131.41,-9.41,6.58,9.56,270.38,-0.016,0.2789,20,270.39,-3.061,1.08,-0.04,39.353,-0.011,-0.061,0,0,0,269.67,0,0,0,0,0,0,0,0,0,0,0,0,0,3,3,36.5,FLYING
36.72,APPROACH,ILS_TRACK,158.44,160,1.56,2128.94,-9.48,6.52,9.5,270.38,-0.018,0.2795,20,270.37,-2.933,1.07,-0.06,39.306,-0.029,0.067,0,0,0,269.67,0,0,0,0,0,0,0,0,0,0,0,0,0,3,3,36.76,FLYING
37.02,APPROACH,ILS_TRACK,158.47,160,1.53,2126.11,-9.4,6.57,9.55,270.38,-0.014,0.2818,20,270.39,-3.037,1.04,-0.04,39.252,-0.015,-0.037,0,0,0,269.67,0,0,0,0,0,0,0,0,0,0,0,0,0,3,3,37.06,FLYING
37.28,APPROACH,ILS_TRACK,158.49,160,1.51,2123.66,-9.46,6.57,9.55,270.38,-0.013,0.2825,20,270.37,-2.967,1.03,-0.05,39.205,-0.032,0.033,0,0,0,269.67,0,0,0,0,0,0,0,0,0,0,0,0,0,3,3,37.32,FLYING
37.54,APPROACH,ILS_TRACK,158.52,160,1.48,2121.21,-9.39,6.58,9.55,270.38,-0.011,0.2836,20,270.39,-3.037,1,-0.03,39.158,-0.014,-0.037,0,0,0,269.67,0,0,0,0,0,0,0,0,0,0,0,0,0,3,3,37.58,FLYING
37.8,APPROACH,ILS_TRACK,158.54,160,1.46,2118.76,-9.44,6.54,9.51,270.38,-0.012,0.2835,20,270.37,-2.993,0.99,-0.03,39.111,-0.026,0.007,0,0,0,269.67,0,0,0,0,0,0,0,0,0,0,0,0,0,3,3,37.84,FLYING
38.1,APPROACH,ILS_TRACK,158.57,160,1.43,2115.94,-9.36,6.56,9.52,270.38,-0.01,0.2836,20,270.38,-3.061,0.97,-0.01,39.057,-0.023,-0.061,0,0,0,269.67,0,0,0,0,0,0,0,0,0,0,0,0,0,3,3,38.14,FLYING
38.36,APPROACH,ILS_TRACK,158.6,160,1.4,2113.49,-9.42,6.5,9.47,270.38,-0.009,0.2824,20,270.38,-3.001,0.95,-0.01,39.01,-0.018,-0.001,0,0,0,269.67,0,0,0,0,0,0,0,0,0,0,0,0,0,3,3,38.4,FLYING
38.62,APPROACH,ILS_TRACK,158.62,160,1.38,2111.05,-9.35,6.54,9.51,270.39,-0.008,0.2823,20,270.39,-3.09,0.92,0.02,38.963,-0.012,-0.09,0,0,0,269.67,0,0,0,0,0,0,0,0,0,0,0,0,0,3,3,38.66,FLYING
38.88,APPROACH,ILS_TRACK,158.65,160,1.35,2108.59,-9.39,6.44,9.4,270.39,-0.009,0.2808,20,270.37,-3.013,0.91,0.02,38.916,-0.027,-0.013,0,0,0,269.67,0,0,0,0,0,0,0,0,0,0,0,0,0,3,3,38.92,FLYING
39.18,APPROACH,ILS_TRACK,158.68,160,1.32,2105.8,-9.33,6.54,9.49,270.39,-0.005,0.2804,20,270.38,-3.117,0.89,0.06,38.862,-0.019,-0.117,0,0,0,269.67,0,0,0,0,0,0,0,0,0,0,0,0,0,3,3,39.22,FLYING
39.44,APPROACH,ILS_TRACK,158.7,160,1.3,2103.32,-9.37,6.36,9.32,270.39,-0.006,0.2798,20,270.38,-2.999,0.88,0.05,38.815,-0.02,0.001,0,0,0,269.67,0,0,0,0,0,0,0,0,0,0,0,0,0,3,3,39.48,FLYING
39.7,APPROACH,ILS_TRACK,158.73,160,1.27,2100.9,-9.46,6.49,9.47,270.39,-0.005,0.278,20,270.39,-3.061,0.85,0.07,38.768,-0.011,-0.061,0,0,0,269.67,0,0,0,0,0,0,0,0,0,0,0,0,0,3,3,39.74,FLYING
39.96,APPROACH,ILS_TRACK,158.75,160,1.25,2098.46,-9.35,6.47,9.43,270.39,-0.003,0.2787,20,270.37,-3.136,0.84,0.1,38.721,-0.027,-0.136,0,0,0,269.67,0,0,0,0,0,0,0,0,0,0,0,0,0,3,3,40,FLYING
40.26,APPROACH,ILS_TRACK,158.78,160,1.22,2095.62,-9.46,6.4,9.37,270.39,0.006,0.2758,20,270.38,-3.014,0.83,0.1,38.667,-0.024,-0.014,0,0,0,269.67,0,0,0,0,0,0,0,0,0,0,0,0,0,3,3,40.3,FLYING
40.52,APPROACH,ILS_TRACK,158.8,160,1.2,2093.2,-9.37,6.5,9.47,270.39,0.008,0.2757,20,270.39,-3.147,0.81,0.13,38.62,-0.012,-0.147,0,0,0,269.67,0,0,0,0,0,0,0,0,0,0,0,0,0,3,3,40.56,FLYING
40.78,APPROACH,ILS_TRACK,158.83,160,1.17,2090.71,-9.38,6.31,9.27,270.39,0.005,0.2749,20,270.38,-3.008,0.8,0.12,38.573,-0.016,-0.008,0,0,0,269.67,0,0,0,0,0,0,0,0,0,0,0,0,0,3,3,40.82,FLYING
41.04,APPROACH,ILS_TRACK,158.85,160,1.15,2088.28,-9.52,6.4,9.39,270.39,0.004,0.273,20,270.37,-3.023,0.79,0.12,38.526,-0.026,-0.023,0,0,0,269.67,0,0,0,0,0,0,0,0,0,0,0,0,0,3,3,41.08,FLYING
41.34,APPROACH,ILS_TRACK,158.88,160,1.12,2085.46,-9.39,6.49,9.46,270.39,0.006,0.2735,20,270.38,-3.161,0.77,0.16,38.472,-0.017,-0.161,0,0,0,269.67,0,0,0,0,0,0,0,0,0,0,0,0,0,3,3,41.38,FLYING
41.6,APPROACH,ILS_TRACK,158.9,160,1.1,2082.97,-9.39,6.27,9.24,270.39,0.006,0.2731,20,270.38,-2.976,0.76,0.14,38.425,-0.019,0.024,0,0,0,269.67,0,0,0,0,0,0,0,0,0,0,0,0,0,3,3,41.64,FLYING
41.86,APPROACH,ILS_TRACK,158.92,160,1.08,2080.52,-9.58,6.33,9.33,270.39,0.007,0.2714,20,270.38,-2.982,0.75,0.12,38.378,-0.022,0.018,0,0,0,269.67,0,0,0,0,0,0,0,0,0,0,0,0,0,3,3,41.9,FLYING
42.12,APPROACH,ILS_TRACK,158.93,160,1.07,2078.08,-9.43,6.47,9.46,270.39,0.008,0.2733,20,270.38,-3.163,0.74,0.16,38.332,-0.017,-0.163,0,0,0,269.67,0,0,0,0,0,0,0,0,0,0,0,0,0,3,3,42.16,FLYING
42.42,APPROACH,ILS_TRACK,158.95,160,1.05,2075.2,-9.45,6.25,9.23,270.39,0.009,0.2733,20,270.38,-2.957,0.73,0.13,38.277,-0.021,0.043,0,0,0,269.67,0,0,0,0,0,0,0,0,0,0,0,0,0,3,3,42.46,FLYING
42.68,APPROACH,ILS_TRACK,158.97,160,1.03,2072.75,-9.6,6.37,9.38,270.39,0.011,0.2727,20,270.38,-2.982,0.72,0.11,38.23,-0.021,0.018,0,0,0,269.67,0,0,0,0,0,0,0,0,0,0,0,0,0,3,3,42.72,FLYING
42.94,APPROACH,ILS_TRACK,158.97,160,1.03,2070.31,-9.45,6.47,9.46,270.39,0.012,0.2749,20,270.38,-3.129,0.71,0.14,38.184,-0.016,-0.129,0,0,0,269.67,0,0,0,0,0,0,0,0,0,0,0,0,0,3,3,42.98,FLYING
43.2,APPROACH,ILS_TRACK,158.99,160,1.01,2067.81,-9.48,6.32,9.31,270.39,0.01,0.275,20,270.38,-2.946,0.7,0.11,38.137,-0.018,0.054,0,0,0,269.67,0,0,0,0,0,0,0,0,0,0,0,0,0,3,3,43.24,FLYING
43.5,APPROACH,ILS_TRACK,159,160,1,2064.99,-9.52,6.46,9.47,270.39,0.01,0.2758,20,270.38,-3.017,0.69,0.11,38.083,-0.019,-0.017,0,0,0,269.67,0,0,0,0,0,0,0,0,0,0,0,0,0,3,3,43.54,FLYING
43.76,APPROACH,ILS_TRACK,159,160,1,2062.52,-9.46,6.47,9.47,270.39,0.01,0.2773,20,270.39,-3.044,0.67,0.11,38.036,-0.012,-0.044,0,0,0,269.67,0,0,0,0,0,0,0,0,0,0,0,0,0,3,3,43.8,FLYING
44.02,APPROACH,ILS_TRACK,159.01,160,0.99,2060.05,-9.52,6.45,9.44,270.39,0.008,0.2775,20,270.37,-2.979,0.67,0.09,37.989,-0.028,0.021,0,0,0,269.67,0,0,0,0,0,0,0,0,0,0,0,0,0,3,3,44.06,FLYING
44.28,APPROACH,ILS_TRACK,159.02,160,0.98,2057.6,-9.43,6.47,9.46,270.39,0.01,0.2783,20,270.39,-3.043,0.66,0.1,37.942,-0.013,-0.043,0,0,0,269.67,0,0,0,0,0,0,0,0,0,0,0,0,0,3,3,44.32,FLYING
44.58,APPROACH,ILS_TRACK,159.03,160,0.97,2054.76,-9.46,6.47,9.46,270.39,0.009,0.2779,20,270.38,-3.001,0.66,0.09,37.888,-0.023,-0.001,0,0,0,269.67,0,0,0,0,0,0,0,0,0,0,0,0,0,3,3,44.62,FLYING
44.84,APPROACH,ILS_TRACK,159.04,160,0.96,2052.3,-9.41,6.47,9.45,270.39,0.008,0.2778,20,270.39,-3.053,0.64,0.1,37.841,-0.012,-0.053,0,0,0,269.67,0,0,0,0,0,0,0,0,0,0,0,0,0,3,3,44.88,FLYING
45.1,APPROACH,ILS_TRACK,159.05,160,0.95,2049.85,-9.46,6.46,9.44,270.39,0.008,0.2771,20,270.38,-3.01,0.64,0.09,37.794,-0.021,-0.01,0,0,0,269.67,0,0,0,0,0,0,0,0,0,0,0,0,0,3,3,45.14,FLYING
45.36,APPROACH,ILS_TRACK,159.06,160,0.94,2047.4,-9.39,6.46,9.44,270.4,0.01,0.2771,20,270.37,-3.075,0.64,0.1,37.747,-0.027,-0.075,0,0,0,269.67,0,0,0,0,0,0,0,0,0,0,0,0,0,3,3,45.4,FLYING
45.66,APPROACH,ILS_TRACK,159.07,160,0.93,2044.57,-9.46,6.45,9.43,270.39,0.016,0.276,20,270.39,-3.027,0.62,0.1,37.693,-0.013,-0.027,0,0,0,269.67,0,0,0,0,0,0,0,0,0,0,0,0,0,3,3,45.7,FLYING
45.92,APPROACH,ILS_TRACK,159.08,160,0.92,2042.12,-9.36,6.43,9.39,270.39,0.017,0.2767,20,270.38,-3.091,0.61,0.12,37.646,-0.016,-0.091,0,0,0,269.67,0,0,0,0,0,0,0,0,0,0,0,0,0,3,3,45.96,FLYING
46.18,APPROACH,ILS_TRACK,159.1,160,0.9,2039.68,-9.45,6.41,9.39,270.39,0.016,0.275,20,270.38,-3.03,0.61,0.12,37.599,-0.023,-0.03,0,0,0,269.67,0,0,0,0,0,0,0,0,0,0,0,0,0,3,3,46.22,FLYING
46.44,APPROACH,ILS_TRACK,159.1,160,0.9,2037.24,-9.35,6.44,9.41,270.4,0.018,0.2751,20,270.38,-3.126,0.61,0.15,37.552,-0.021,-0.126,0,0,0,269.67,0,0,0,0,0,0,0,0,0,0,0,0,0,3,3,46.48,FLYING
46.74,APPROACH,ILS_TRACK,159.12,160,0.88,2034.39,-9.42,6.3,9.27,270.39,0.025,0.2732,20,270.38,-3.008,0.6,0.13,37.498,-0.015,-0.008,0,0,0,269.67,0,0,0,0,0,0,0,0,0,0,0,0,0,3,3,46.78,FLYING
47,APPROACH,ILS_TRACK,159.13,160,0.87,2031.97,-9.38,6.42,9.4,270.39,0.026,0.2732,20,270.38,-3.128,0.6,0.16,37.451,-0.025,-0.128,0,0,0,269.67,0,0,0,0,0,0,0,0,0,0,0,0,0,3,3,47.04,FLYING
47.26,APPROACH,ILS_TRACK,159.14,160,0.86,2029.5,-9.4,6.3,9.27,270.39,0.034,0.2732,20,270.39,-3.044,0.59,0.16,37.405,-0.015,-0.044,0,0,0,269.67,0,0,0,0,0,0,0,0,0,0,0,0,0,3,3,47.3,FLYING
47.52,APPROACH,ILS_TRACK,159.15,160,0.85,2027.07,-9.44,6.41,9.39,270.39,0.032,0.2721,20,270.38,-3.078,0.58,0.17,37.358,-0.016,-0.078,0,0,0,269.67,0,0,0,0,0,0,0,0,0,0,0,0,0,3,3,47.56,FLYING
47.82,APPROACH,ILS_TRACK,159.16,160,0.84,2024.25,-9.39,6.41,9.38,270.39,0.03,0.2722,20,270.38,-3.109,0.58,0.19,37.304,-0.018,-0.109,0,0,0,269.67,0,0,0,0,0,0,0,0,0,0,0,0,0,3,3,47.86,FLYING
48.08,APPROACH,ILS_TRACK,159.17,160,0.83,2021.79,-9.45,6.36,9.34,270.39,0.029,0.2714,20,270.38,-3.045,0.57,0.18,37.257,-0.019,-0.045,0,0,0,269.67,0,0,0,0,0,0,0,0,0,0,0,0,0,3,3,48.12,FLYING
48.34,APPROACH,ILS_TRACK,159.18,160,0.82,2019.35,-9.37,6.42,9.39,270.39,0.031,0.2719,20,270.38,-3.124,0.57,0.2,37.21,-0.021,-0.124,0,0,0,269.67,0,0,0,0,0,0,0,0,0,0,0,0,0,3,3,48.38,FLYING
48.6,APPROACH,ILS_TRACK,159.19,160,0.81,2016.88,-9.4,6.29,9.26,270.39,0.032,0.2714,20,270.38,-3.025,0.57,0.19,37.163,-0.025,-0.025,0,0,0,269.67,0,0,0,0,0,0,0,0,0,0,0,0,0,3,3,48.64,FLYING
48.9,APPROACH,ILS_TRACK,159.19,160,0.81,2014.08,-9.41,6.4,9.38,270.39,0.032,0.2715,20,270.39,-3.104,0.56,0.21,37.109,-0.013,-0.104,0,0,0,269.67,0,0,0,0,0,0,0,0,0,0,0,0,0,3,3,48.94,FLYING
49.16,APPROACH,ILS_TRACK,159.2,160,0.8,2011.62,-9.44,6.34,9.32,270.39,0.031,0.2718,20,270.38,-3.068,0.55,0.21,37.062,-0.015,-0.068,0,0,0,269.67,0,0,0,0,0,0,0,0,0,0,0,0,0,3,3,49.2,FLYING
49.42,APPROACH,ILS_TRACK,159.21,160,0.79,2009.18,-9.38,6.39,9.37,270.39,0.031,0.2724,20,270.38,-3.115,0.55,0.23,37.015,-0.022,-0.115,0,0,0,269.67,0,0,0,0,0,0,0,0,0,0,0,0,0,3,3,49.46,FLYING
49.68,APPROACH,ILS_TRACK,159.21,160,0.79,2006.71,-9.43,6.29,9.27,270.39,0.034,0.2719,20,270.38,-3.024,0.55,0.21,36.969,-0.019,-0.024,0,0,0,269.67,0,0,0,0,0,0,0,0,0,0,0,0,0,3,3,49.72,FLYING
49.98,APPROACH,ILS_TRACK,159.22,160,0.78,2003.9,-9.38,6.41,9.39,270.39,0.033,0.2729,20,270.38,-3.129,0.55,0.23,36.915,-0.016,-0.129,0,0,0,269.67,0,0,0,0,0,0,0,0,0,0,0,0,0,3,3,50.02,FLYING
50.24,APPROACH,ILS_TRACK,159.22,160,0.78,2001.43,-9.41,6.27,9.25,270.4,0.031,0.2731,20,270.38,-3.025,0.54,0.22,36.868,-0.018,-0.025,0,0,0,269.67,0,0,0,0,0,0,0,0,0,0,0,0,0,3,3,50.28,FLYING
50.5,APPROACH,ILS_TRACK,159.23,160,0.77,1998.99,-9.45,6.38,9.37,270.4,0.031,0.2729,20,270.38,-3.078,0.54,0.22,36.821,-0.02,-0.078,0,0,0,269.67,0,0,0,0,0,0,0,0,0,0,0,0,0,3,3,50.54,FLYING
50.76,APPROACH,ILS_TRACK,159.23,160,0.77,1996.54,-9.39,6.38,9.36,270.4,0.032,0.2733,20,270.38,-3.117,0.53,0.24,36.774,-0.015,-0.117,0,0,0,269.67,0,0,0,0,0,0,0,0,0,0,0,0,0,3,3,50.8,FLYING
51.06,APPROACH,ILS_TRACK,159.24,160,0.76,1993.71,-9.48,6.35,9.33,270.4,0.031,0.2722,20,270.38,-3.032,0.54,0.23,36.72,-0.024,-0.032,0,0,0,269.67,0,0,0,0,0,0,0,0,0,0,0,0,0,3,3,51.1,FLYING
51.32,APPROACH,ILS_TRACK,159.24,160,0.76,1991.27,-9.38,6.41,9.39,270.4,0.032,0.2731,20,270.39,-3.134,0.53,0.25,36.673,-0.013,-0.134,0,0,0,269.67,0,0,0,0,0,0,0,0,0,0,0,0,0,3,3,51.36,FLYING
51.58,APPROACH,ILS_TRACK,159.25,160,0.75,1988.79,-9.41,6.25,9.23,270.4,0.03,0.2724,20,270.38,-3.009,0.53,0.23,36.627,-0.024,-0.009,0,0,0,269.67,0,0,0,0,0,0,0,0,0,0,0,0,0,3,3,51.62,FLYING
51.84,APPROACH,ILS_TRACK,159.25,160,0.75,1986.36,-9.48,6.37,9.37,270.4,0.029,0.272,20,270.39,-3.063,0.52,0.22,36.58,-0.014,-0.063,0,0,0,269.67,0,0,0,0,0,0,0,0,0,0,0,0,0,3,3,51.88,FLYING
52.14,APPROACH,ILS_TRACK,159.26,160,0.74,1983.53,-9.38,6.38,9.37,270.4,0.029,0.2726,20,270.38,-3.123,0.52,0.24,36.526,-0.021,-0.123,0,0,0,269.67,0,0,0,0,0,0,0,0,0,0,0,0,0,3,3,52.18,FLYING
52.4,APPROACH,ILS_TRACK,159.26,160,0.74,1981.06,-9.44,6.28,9.26,270.4,0.031,0.2717,20,270.38,-3.003,0.52,0.22,36.479,-0.016,-0.003,0,0,0,269.67,0,0,0,0,0,0,0,0,0,0,0,0,0,3,3,52.44,FLYING
52.66,APPROACH,ILS_TRACK,159.26,160,0.74,1978.63,-9.41,6.39,9.38,270.4,0.031,0.2722,20,270.38,-3.106,0.52,0.23,36.432,-0.02,-0.106,0,0,0,269.67,0,0,0,0,0,0,0,0,0,0,0,0,0,3,3,52.7,FLYING
52.92,APPROACH,ILS_TRACK,159.27,160,0.73,1976.16,-9.44,6.31,9.29,270.4,0.032,0.2727,20,270.38,-3.041,0.51,0.23,36.385,-0.016,-0.041,0,0,0,269.67,0,0,0,0,0,0,0,0,0,0,0,0,0,3,3,52.96,FLYING
53.22,APPROACH,ILS_TRACK,159.27,160,0.73,1973.35,-9.38,6.39,9.37,270.4,0.031,0.2732,20,270.38,-3.108,0.51,0.24,36.332,-0.018,-0.108,0,0,0,269.67,0,0,0,0,0,0,0,0,0,0,0,0,0,3,3,53.26,FLYING
53.48,APPROACH,ILS_TRACK,159.27,160,0.73,1970.88,-9.44,6.29,9.28,270.4,0.031,0.2729,20,270.38,-3.008,0.51,0.22,36.285,-0.02,-0.008,0,0,0,269.67,0,0,0,0,0,0,0,0,0,0,0,0,0,3,3,53.52,FLYING
53.74,APPROACH,ILS_TRACK,159.27,160,0.73,1968.45,-9.39,6.39,9.38,270.4,0.031,0.2732,20,270.38,-3.107,0.51,0.23,36.238,-0.017,-0.107,0,0,0,269.67,0,0,0,0,0,0,0,0,0,0,0,0,0,3,3,53.78,FLYING
54,APPROACH,ILS_TRACK,159.28,160,0.72,1965.98,-9.43,6.3,9.28,270.4,0.032,0.2731,20,270.38,-3.034,0.5,0.22,36.191,-0.017,-0.034,0,0,0,269.67,0,0,0,0,0,0,0,0,0,0,0,0,0,3,3,54.04,FLYING
54.3,APPROACH,ILS_TRACK,159.28,160,0.72,1963.17,-9.39,6.39,9.37,270.4,0.031,0.273,20,270.38,-3.102,0.5,0.23,36.137,-0.02,-0.102,0,0,0,269.67,0,0,0,0,0,0,0,0,0,0,0,0,0,3,3,54.34,FLYING
54.56,APPROACH,ILS_TRACK,159.29,160,0.71,1960.71,-9.43,6.31,9.29,270.4,0.033,0.2721,20,270.39,-3.032,0.5,0.22,36.091,-0.013,-0.032,0,0,0,269.67,0,0,0,0,0,0,0,0,0,0,0,0,0,3,3,54.6,FLYING
54.82,APPROACH,ILS_TRACK,159.29,160,0.71,1958.28,-9.38,6.38,9.36,270.4,0.032,0.2718,20,270.38,-3.102,0.5,0.23,36.044,-0.023,-0.102,0,0,0,269.67,0,0,0,0,0,0,0,0,0,0,0,0,0,3,3,54.86,FLYING
55.08,APPROACH,ILS_TRACK,159.3,160,0.7,1955.81,-9.43,6.3,9.29,270.4,0.035,0.2709,20,270.38,-3.039,0.49,0.22,35.997,-0.016,-0.039,0,0,0,269.67,0,0,0,0,0,0,0,0,0,0,0,0,0,3,3,55.12,FLYING
55.38,APPROACH,ILS_TRACK,159.3,160,0.7,1953.01,-9.37,6.38,9.36,270.4,0.035,0.2711,20,270.38,-3.113,0.5,0.24,35.943,-0.024,-0.113,0,0,0,269.67,0,0,0,0,0,0,0,0,0,0,0,0,0,3,3,55.42,FLYING
55.64,APPROACH,ILS_TRACK,159.31,160,0.69,1950.54,-9.41,6.27,9.25,270.4,0.039,0.2702,20,270.39,-3.025,0.49,0.23,35.897,-0.011,-0.025,0,0,0,269.67,0,0,0,0,0,0,0,0,0,0,0,0,0,3,3,55.68,FLYING
55.9,APPROACH,ILS_TRACK,159.31,160,0.69,1948.11,-9.4,6.37,9.35,270.4,0.035,0.2702,20,270.38,-3.098,0.49,0.23,35.85,-0.02,-0.098,0,0,0,269.67,0,0,0,0,0,0,0,0,0,0,0,0,0,3,3,55.94,FLYING
56.16,APPROACH,ILS_TRACK,159.32,160,0.68,1945.66,-9.43,6.32,9.3,270.4,0.035,0.2701,20,270.38,-3.066,0.49,0.23,35.803,-0.019,-0.066,0,0,0,269.67,0,0,0,0,0,0,0,0,0,0,0,0,0,3,3,56.2,FLYING
56.46,APPROACH,ILS_TRACK,159.32,160,0.68,1942.85,-9.36,6.36,9.34,270.4,0.035,0.2701,20,270.38,-3.106,0.49,0.24,35.749,-0.021,-0.106,0,0,0,269.67,0,0,0,0,0,0,0,0,0,0,0,0,0,3,3,56.5,FLYING
56.72,APPROACH,ILS_TRACK,159.33,160,0.67,1940.39,-9.44,6.32,9.3,270.4,0.037,0.2693,20,270.39,-3.041,0.49,0.24,35.703,-0.015,-0.041,0,0,0,269.67,0,0,0,0,0,0,0,0,0,0,0,0,0,3,3,56.76,FLYING
56.98,APPROACH,ILS_TRACK,159.32,160,0.68,1937.96,-9.32,6.37,9.35,270.4,0.037,0.2711,20,270.38,-3.145,0.49,0.26,35.656,-0.02,-0.145,0,0,0,269.67,0,0,0,0,0,0,0,0,0,0,0,0,0,3,3,57.02,FLYING
57.24,APPROACH,ILS_TRACK,159.33,160,0.67,1935.48,-9.38,6.18,9.16,270.4,0.039,0.271,20,270.38,-2.983,0.48,0.23,35.609,-0.017,0.017,0,0,0,269.67,0,0,0,0,0,0,0,0,0,0,0,0,0,3,3,57.28,FLYING
57.54,APPROACH,ILS_TRACK,159.33,160,0.67,1932.69,-9.45,6.34,9.34,270.4,0.038,0.2708,20,270.38,-3.077,0.49,0.23,35.555,-0.022,-0.077,0,0,0,269.67,0,0,0,0,0,0,0,0,0,0,0,0,0,3,3,57.58,FLYING
57.8,APPROACH,ILS_TRACK,159.33,160,0.67,1930.24,-9.38,6.35,9.34,270.4,0.037,0.2716,20,270.39,-3.128,0.48,0.25,35.509,-0.012,-0.128,0,0,0,269.67,0,0,0,0,0,0,0,0,0,0,0,0,0,3,3,57.84,FLYING
58.06,APPROACH,ILS_TRACK,159.33,160,0.67,1927.78,-9.43,6.27,9.26,270.4,0.035,0.2706,20,270.38,-3.021,0.48,0.23,35.462,-0.023,-0.021,0,0,0,269.67,0,0,0,0,0,0,0,0,0,0,0,0,0,3,3,58.1,FLYING
58.32,APPROACH,ILS_TRACK,159.33,160,0.67,1925.35,-9.39,6.37,9.36,270.4,0.035,0.2711,20,270.38,-3.104,0.48,0.24,35.415,-0.015,-0.104,0,0,0,269.67,0,0,0,0,0,0,0,0,0,0,0,0,0,3,3,58.36,FLYING
58.62,APPROACH,ILS_TRACK,159.34,160,0.66,1922.51,-9.44,6.3,9.29,270.4,0.034,0.2709,20,270.38,-3.033,0.48,0.23,35.362,-0.019,-0.033,0,0,0,269.67,0,0,0,0,0,0,0,0,0,0,0,0,0,3,3,58.66,FLYING
58.88,APPROACH,ILS_TRACK,159.34,160,0.66,1920.08,-9.37,6.37,9.35,270.4,0.035,0.2715,20,270.38,-3.11,0.48,0.24,35.315,-0.016,-0.11,0,0,0,269.67,0,0,0,0,0,0,0,0,0,0,0,0,0,3,3,58.92,FLYING
59.14,APPROACH,ILS_TRACK,159.34,160,0.66,1917.62,-9.41,6.26,9.25,270.4,0.035,0.2709,20,270.38,-3.017,0.47,0.23,35.268,-0.016,-0.017,0,0,0,269.67,0,0,0,0,0,0,0,0,0,0,0,0,0,3,3,59.18,FLYING
59.4,APPROACH,ILS_TRACK,159.34,160,0.66,1915.19,-9.39,6.37,9.36,270.4,0.035,0.2712,20,270.38,-3.096,0.47,0.23,35.222,-0.021,-0.096,0,0,0,269.67,0,0,0,0,0,0,0,0,0,0,0,0,0,3,3,59.44,FLYING
59.7,APPROACH,ILS_TRACK,159.34,160,0.66,1912.36,-9.43,6.31,9.3,270.4,0.036,0.2714,20,270.38,-3.046,0.47,0.23,35.168,-0.018,-0.046,0,0,0,269.67,0,0,0,0,0,0,0,0,0,0,0,0,0,3,3,59.74,FLYING
59.96,APPROACH,ILS_TRACK,159.34,160,0.66,1909.93,-9.36,6.35,9.34,270.4,0.037,0.2714,20,270.38,-3.106,0.48,0.24,35.121,-0.021,-0.106,0,0,0,269.67,0,0,0,0,0,0,0,0,0,0,0,0,0,3,3,60,FLYING
60.22,APPROACH,ILS_TRACK,159.35,160,0.65,1907.47,-9.42,6.28,9.27,270.4,0.038,0.2705,20,270.38,-3.025,0.48,0.22,35.075,-0.02,-0.025,0,0,0,269.67,0,0,0,0,0,0,0,0,0,0,0,0,0,3,3,60.26,FLYING
60.48,APPROACH,ILS_TRACK,159.35,160,0.65,1905.05,-9.35,6.36,9.35,270.4,0.038,0.2709,20,270.39,-3.116,0.47,0.24,35.028,-0.013,-0.116,0,0,0,269.67,0,0,0,0,0,0,0,0,0,0,0,0,0,3,3,60.52,FLYING
60.78,APPROACH,ILS_TRACK,159.35,160,0.65,1902.21,-9.42,6.26,9.25,270.4,0.037,0.2702,20,270.38,-3.023,0.47,0.22,34.974,-0.021,-0.023,0,0,0,269.67,0,0,0,0,0,0,0,0,0,0,0,0,0,3,3,60.82,FLYING
61.04,APPROACH,ILS_TRACK,159.35,160,0.65,1899.79,-9.36,6.36,9.35,270.4,0.037,0.2708,20,270.39,-3.121,0.47,0.24,34.928,-0.015,-0.121,0,0,0,269.67,0,0,0,0,0,0,0,0,0,0,0,0,0,3,3,61.08,FLYING
61.3,APPROACH,ILS_TRACK,159.36,160,0.64,1897.32,-9.39,6.24,9.23,270.4,0.037,0.2705,20,270.38,-3.025,0.47,0.22,34.881,-0.021,-0.025,0,0,0,269.67,0,0,0,0,0,0,0,0,0,0,0,0,0,3,3,61.34,FLYING
61.56,APPROACH,ILS_TRACK,159.35,160,0.65,1894.9,-9.38,6.35,9.34,270.4,0.037,0.2705,20,270.38,-3.091,0.47,0.23,34.835,-0.015,-0.091,0,0,0,269.67,0,0,0,0,0,0,0,0,0,0,0,0,0,3,3,61.6,FLYING
61.86,APPROACH,ILS_TRACK,159.36,160,0.64,1892.08,-9.43,6.33,9.32,270.4,0.037,0.2709,20,270.38,-3.063,0.47,0.23,34.781,-0.02,-0.063,0,0,0,269.67,0,0,0,0,0,0,0,0,0,0,0,0,0,3,3,61.9,FLYING
62.12,APPROACH,ILS_TRACK,159.36,160,0.64,1889.64,-9.35,6.34,9.33,270.4,0.037,0.2709,20,270.38,-3.1,0.47,0.24,34.734,-0.018,-0.1,0,0,0,269.67,0,0,0,0,0,0,0,0,0,0,0,0,0,3,3,62.16,FLYING
62.38,APPROACH,ILS_TRACK,159.36,160,0.64,1887.2,-9.42,6.31,9.3,270.4,0.036,0.2699,20,270.38,-3.037,0.47,0.23,34.688,-0.023,-0.037,0,0,0,269.67,0,0,0,0,0,0,0,0,0,0,0,0,0,3,3,62.42,FLYING
62.64,APPROACH,ILS_TRACK,159.35,160,0.65,1884.77,-9.29,6.35,9.32,270.4,0.037,0.2717,20,270.39,-3.143,0.47,0.25,34.641,-0.014,-0.143,0,0,0,269.67,0,0,0,0,0,0,0,0,0,0,0,0,0,3,3,62.68,FLYING
62.94,APPROACH,ILS_TRACK,159.36,160,0.64,1881.92,-9.4,6.17,9.16,270.4,0.036,0.2711,20,270.38,-2.968,0.47,0.21,34.587,-0.019,0.032,0,0,0,269.67,0,0,0,0,0,0,0,0,0,0,0,0,0,3,3,62.98,FLYING
63.2,APPROACH,ILS_TRACK,159.36,160,0.64,1879.51,-9.39,6.35,9.35,270.4,0.036,0.2715,20,270.38,-3.119,0.47,0.23,34.541,-0.017,-0.119,0,0,0,269.67,0,0,0,0,0,0,0,0,0,0,0,0,0,3,3,63.24,FLYING
63.46,APPROACH,ILS_TRACK,159.35,160,0.65,1877.04,-9.35,6.19,9.18,270.4,0.036,0.2732,20,270.38,-3.051,0.47,0.22,34.494,-0.02,-0.051,0,0,0,269.67,0,0,0,0,0,0,0,0,0,0,0,0,0,3,3,63.5,FLYING
63.72,APPROACH,ILS_TRACK,159.36,160,0.64,1874.61,-9.49,6.26,9.27,270.4,0.035,0.2708,20,270.38,-2.998,0.47,0.2,34.448,-0.016,0.002,0,0,0,269.67,0,0,0,0,0,0,0,0,0,0,0,0,0,3,3,63.76,FLYING
64.02,APPROACH,ILS_TRACK,159.36,160,0.64,1871.81,-9.36,6.35,9.35,270.4,0.036,0.2709,20,270.38,-3.138,0.47,0.23,34.394,-0.021,-0.138,0,0,0,269.67,0,0,0,0,0,0,0,0,0,0,0,0,0,3,3,64.06,FLYING
64.28,APPROACH,ILS_TRACK,159.37,160,0.63,1869.34,-9.39,6.21,9.2,270.4,0.04,0.2696,20,270.39,-2.981,0.46,0.2,34.348,-0.013,0.019,0,0,0,269.67,0,0,0,0,0,0,0,0,0,0,0,0,0,3,3,64.32,FLYING
64.54,APPROACH,ILS_TRACK,159.37,160,0.63,1866.91,-9.44,6.33,9.33,270.4,0.039,0.269,20,270.38,-3.04,0.47,0.2,34.301,-0.024,-0.04,0,0,0,269.67,0,0,0,0,0,0,0,0,0,0,0,0,0,3,3,64.58,FLYING
64.8,APPROACH,ILS_TRACK,159.37,160,0.63,1864.47,-9.36,6.34,9.34,270.4,0.039,0.2693,20,270.38,-3.097,0.47,0.21,34.255,-0.021,-0.097,0,0,0,269.67,0,0,0,0,0,0,0,0,0,0,0,0,0,3,3,64.84,FLYING
65.1,APPROACH,ILS_TRACK,159.38,160,0.62,1861.65,-9.43,6.3,9.29,270.4,0.039,0.2683,20,270.38,-3,0.47,0.19,34.201,-0.018,0,0,0,0,269.67,0,0,0,0,0,0,0,0,0,0,0,0,0,3,3,65.14,FLYING
65.36,APPROACH,ILS_TRACK,159.38,160,0.62,1859.21,-9.34,6.34,9.33,270.4,0.038,0.2688,20,270.38,-3.089,0.47,0.2,34.154,-0.016,-0.089,0,0,0,269.67,0,0,0,0,0,0,0,0,0,0,0,0,0,3,3,65.4,FLYING
65.62,APPROACH,ILS_TRACK,159.38,160,0.62,1856.76,-9.41,6.29,9.27,270.4,0.037,0.2683,20,270.38,-3.004,0.47,0.18,34.108,-0.02,-0.004,0,0,0,269.67,0,0,0,0,0,0,0,0,0,0,0,0,0,3,3,65.66,FLYING
65.88,APPROACH,ILS_TRACK,159.38,160,0.62,1854.34,-9.33,6.35,9.33,270.4,0.037,0.2696,20,270.38,-3.1,0.47,0.19,34.061,-0.018,-0.1,0,0,0,269.67,0,0,0,0,0,0,0,0,0,0,0,0,0,3,3,65.92,FLYING
66.18,APPROACH,ILS_TRACK,159.38,160,0.62,1851.51,-9.41,6.28,9.27,270.4,0.036,0.2693,20,270.38,-3.002,0.47,0.18,34.008,-0.018,-0.002,0,0,0,269.67,0,0,0,0,0,0,0,0,0,0,0,0,0,3,3,66.22,FLYING
66.44,APPROACH,ILS_TRACK,159.38,160,0.62,1849.09,-9.33,6.35,9.34,270.4,0.036,0.2704,20,270.38,-3.109,0.47,0.19,33.961,-0.02,-0.109,0,0,0,269.67,0,0,0,0,0,0,0,0,0,0,0,0,0,3,3,66.48,FLYING
66.7,APPROACH,ILS_TRACK,159.38,160,0.62,1846.63,-9.35,6.23,9.21,270.4,0.039,0.2699,20,270.38,-3.005,0.47,0.18,33.915,-0.02,-0.005,0,0,0,269.67,0,0,0,0,0,0,0,0,0,0,0,0,0,3,3,66.74,FLYING
66.96,APPROACH,ILS_TRACK,159.38,160,0.62,1844.22,-9.38,6.33,9.32,270.4,0.039,0.2697,20,270.38,-3.062,0.47,0.18,33.868,-0.019,-0.062,0,0,0,269.67,0,0,0,0,0,0,0,0,0,0,0,0,0,3,3,67,FLYING
67.26,APPROACH,ILS_TRACK,159.38,160,0.62,1841.41,-9.32,6.33,9.31,270.4,0.038,0.2699,20,270.38,-3.092,0.47,0.19,33.815,-0.016,-0.092,0,0,0,269.67,0,0,0,0,0,0,0,0,0,0,0,0,0,3,3,67.3,FLYING
67.52,APPROACH,ILS_TRACK,159.39,160,0.61,1838.98,-9.4,6.31,9.3,270.4,0.038,0.2691,20,270.38,-3.033,0.47,0.18,33.768,-0.021,-0.033,0,0,0,269.67,0,0,0,0,0,0,0,0,0,0,0,0,0,3,3,67.56,FLYING
67.78,APPROACH,ILS_TRACK,159.39,160,0.61,1836.55,-9.3,6.34,9.31,270.4,0.039,0.2696,20,270.38,-3.107,0.47,0.2,33.722,-0.021,-0.107,0,0,0,269.67,0,0,0,0,0,0,0,0,0,0,0,0,0,3,3,67.82,FLYING
68.04,APPROACH,ILS_TRACK,159.39,160,0.61,1834.1,-9.36,6.25,9.23,270.4,0.043,0.2687,20,270.38,-3.016,0.47,0.19,33.675,-0.017,-0.016,0,0,0,269.67,0,0,0,0,0,0,0,0,0,0,0,0,0,3,3,68.08,FLYING
68.34,APPROACH,ILS_TRACK,159.39,160,0.61,1831.32,-9.3,6.34,9.32,270.4,0.042,0.2694,20,270.38,-3.116,0.47,0.21,33.622,-0.019,-0.116,0,0,0,269.67,0,0,0,0,0,0,0,0,0,0,0,0,0,3,3,68.38,FLYING
68.6,APPROACH,ILS_TRACK,159.39,160,0.61,1828.85,-9.29,6.11,9.09,270.4,0.043,0.2691,20,270.38,-2.989,0.47,0.19,33.575,-0.017,0.011,0,0,0,269.67,0,0,0,0,0,0,0,0,0,0,0,0,0,3,3,68.64,FLYING
68.86,APPROACH,ILS_TRACK,159.4,160,0.6,1826.41,-9.48,6.15,9.15,270.4,0.039,0.2666,20,270.38,-2.969,0.47,0.16,33.529,-0.022,0.031,0,0,0,269.67,0,0,0,0,0,0,0,0,0,0,0,0,0,3,3,68.9,FLYING
69.12,APPROACH,ILS_TRACK,159.4,160,0.6,1824.01,-9.35,6.33,9.33,270.4,0.041,0.2686,20,270.38,-3.18,0.47,0.2,33.483,-0.016,-0.18,0,0,0,269.67,0,0,0,0,0,0,0,0,0,0,0,0,0,3,3,69.16,FLYING
69.42,APPROACH,ILS_TRACK,159.4,160,0.6,1821.15,-9.35,6.09,9.09,270.4,0.044,0.2684,20,270.38,-2.955,0.48,0.16,33.429,-0.025,0.045,0,0,0,269.67,0,0,0,0,0,0,0,0,0,0,0,0,0,3,3,69.46,FLYING
69.68,APPROACH,ILS_TRACK,159.41,160,0.59,1818.72,-9.53,6.21,9.23,270.4,0.045,0.2668,20,270.39,-2.966,0.47,0.14,33.383,-0.013,0.034,0,0,0,269.67,0,0,0,0,0,0,0,0,0,0,0,0,0,3,3,69.72,FLYING
69.94,APPROACH,ILS_TRACK,159.4,160,0.6,1816.3,-9.38,6.33,9.34,270.4,0.044,0.2684,20,270.38,-3.131,0.47,0.17,33.336,-0.021,-0.131,0,0,0,269.67,0,0,0,0,0,0,0,0,0,0,0,0,0,3,3,69.98,FLYING
70.2,APPROACH,ILS_TRACK,159.41,160,0.59,1813.83,-9.39,6.18,9.18,270.4,0.045,0.2681,20,270.38,-2.94,0.47,0.13,33.29,-0.02,0.06,0,0,0,269.67,0,0,0,0,0,0,0,0,0,0,0,0,0,3,3,70.24,FLYING
70.5,APPROACH,ILS_TRACK,159.4,160,0.6,1811.03,-9.44,6.33,9.35,270.4,0.044,0.2686,20,270.38,-3.001,0.47,0.12,33.236,-0.019,-0.001,0,0,0,269.67,0,0,0,0,0,0,0,0,0,0,0,0,0,3,3,70.54,FLYING
70.76,APPROACH,ILS_TRACK,159.4,160,0.6,1808.58,-9.41,6.32,9.32,270.4,0.041,0.2704,20,270.39,-3.021,0.47,0.12,33.19,-0.011,-0.021,0,0,0,269.67,0,0,0,0,0,0,0,0,0,0,0,0,0,3,3,70.8,FLYING
71.02,APPROACH,ILS_TRACK,159.4,160,0.6,1806.15,-9.39,6.34,9.34,270.4,0.037,0.2703,20,270.37,-3.005,0.47,0.11,33.144,-0.027,-0.005,0,0,0,269.67,0,0,0,0,0,0,0,0,0,0,0,0,0,3,3,71.06,FLYING
71.28,APPROACH,ILS_TRACK,159.4,160,0.6,1803.71,-9.37,6.35,9.34,270.4,0.037,0.2701,20,270.38,-3.006,0.47,0.1,33.097,-0.02,-0.006,0,0,0,269.67,0,0,0,0,0,0,0,0,0,0,0,0,0,3,3,71.32,FLYING
71.58,APPROACH,ILS_TRACK,159.4,160,0.6,1800.9,-9.36,6.35,9.34,270.4,0.035,0.2701,20,270.38,-3.011,0.47,0.09,33.044,-0.018,-0.011,0,0,0,269.67,0,0,0,0,0,0,0,0,0,0,0,0,0,3,3,71.62,FLYING
71.84,APPROACH,ILS_TRACK,159.4,160,0.6,1798.47,-9.33,6.34,9.32,270.4,0.034,0.27,20,270.38,-3.023,0.47,0.09,32.997,-0.02,-0.023,0,0,0,269.67,0,0,0,0,0,0,0,0,0,0,0,0,0,3,3,71.88,FLYING
72.1,APPROACH,ILS_TRACK,159.4,160,0.6,1796.04,-9.32,6.34,9.32,270.4,0.033,0.2698,20,270.38,-3.026,0.47,0.09,32.951,-0.017,-0.026,0,0,0,269.67,0,0,0,0,0,0,0,0,0,0,0,0,0,3,3,72.14,FLYING
72.36,APPROACH,ILS_TRACK,159.4,160,0.6,1793.62,-9.3,6.34,9.31,270.4,0.032,0.2695,20,270.38,-3.041,0.47,0.1,32.905,-0.017,-0.041,0,0,0,269.67,0,0,0,0,0,0,0,0,0,0,0,0,0,3,3,72.4,FLYING
72.66,APPROACH,ILS_TRACK,159.4,160,0.6,1790.83,-9.29,6.33,9.31,270.4,0.032,0.2693,20,270.38,-3.05,0.47,0.1,32.851,-0.02,-0.05,0,0,0,269.67,0,0,0,0,0,0,0,0,0,0,0,0,0,3,3,72.7,FLYING
72.92,APPROACH,ILS_TRACK,159.41,160,0.59,1788.41,-9.27,6.32,9.29,270.4,0.033,0.269,20,270.38,-3.061,0.48,0.11,32.805,-0.024,-0.061,0,0,0,269.67,0,0,0,0,0,0,0,0,0,0,0,0,0,3,3,72.96,FLYING
73.18,APPROACH,ILS_TRACK,159.41,160,0.59,1785.99,-9.29,6.31,9.28,270.4,0.034,0.2685,20,270.39,-3.053,0.47,0.12,32.758,-0.012,-0.053,0,0,0,269.67,0,0,0,0,0,0,0,0,0,0,0,0,0,3,3,73.22,FLYING
73.44,APPROACH,ILS_TRACK,159.41,160,0.59,1783.58,-9.25,6.32,9.29,270.4,0.034,0.268,20,270.38,-3.089,0.48,0.13,32.712,-0.024,-0.089,0,0,0,269.67,0,0,0,0,0,0,0,0,0,0,0,0,0,3,3,73.48,FLYING
73.74,APPROACH,ILS_TRACK,159.42,160,0.58,1780.78,-9.33,6.25,9.23,270.4,0.04,0.2675,20,270.38,-3.041,0.47,0.13,32.659,-0.015,-0.041,0,0,0,269.67,0,0,0,0,0,0,0,0,0,0,0,0,0,3,3,73.78,FLYING
74,APPROACH,ILS_TRACK,159.41,160,0.59,1778.38,-9.23,6.3,9.27,270.4,0.04,0.2679,20,270.38,-3.134,0.47,0.16,32.612,-0.022,-0.134,0,0,0,269.67,0,0,0,0,0,0,0,0,0,0,0,0,0,3,3,74.04,FLYING
74.26,APPROACH,ILS_TRACK,159.42,160,0.58,1775.94,-9.29,6.17,9.14,270.4,0.049,0.2668,20,270.38,-3.023,0.47,0.15,32.566,-0.018,-0.023,0,0,0,269.67,0,0,0,0,0,0,0,0,0,0,0,0,0,3,3,74.3,FLYING
74.52,APPROACH,ILS_TRACK,159.42,160,0.58,1773.54,-9.29,6.29,9.27,270.4,0.048,0.2668,20,270.38,-3.109,0.48,0.17,32.52,-0.024,-0.109,0,0,0,269.67,0,0,0,0,0,0,0,0,0,0,0,0,0,3,3,74.56,FLYING
74.82,APPROACH,ILS_TRACK,159.42,160,0.58,1770.74,-9.34,6.25,9.23,270.4,0.049,0.2671,20,270.38,-3.077,0.48,0.18,32.466,-0.02,-0.077,0,0,0,269.67,0,0,0,0,0,0,0,0,0,0,0,0,0,3,3,74.86,FLYING
75.08,APPROACH,ILS_TRACK,159.42,160,0.58,1768.34,-9.26,6.29,9.26,270.4,0.049,0.2673,20,270.38,-3.123,0.48,0.2,32.42,-0.02,-0.123,0,0,0,269.67,0,0,0,0,0,0,0,0,0,0,0,0,0,3,3,75.12,FLYING
75.34,APPROACH,ILS_TRACK,159.43,160,0.57,1765.9,-9.32,6.2,9.18,270.4,0.05,0.2664,20,270.39,-3.032,0.48,0.19,32.374,-0.014,-0.032,0,0,0,269.67,0,0,0,0,0,0,0,0,0,0,0,0,0,3,3,75.38,FLYING
75.6,APPROACH,ILS_TRACK,159.43,160,0.57,1763.5,-9.26,6.28,9.26,270.4,0.048,0.2672,20,270.38,-3.128,0.48,0.21,32.328,-0.023,-0.128,0,0,0,269.67,0,0,0,0,0,0,0,0,0,0,0,0,0,3,3,75.64,FLYING
75.9,APPROACH,ILS_TRACK,159.43,160,0.57,1760.69,-9.33,6.17,9.16,270.4,0.051,0.267,20,270.38,-3.027,0.48,0.2,32.274,-0.019,-0.027,0,0,0,269.67,0,0,0,0,0,0,0,0,0,0,0,0,0,3,3,75.94,FLYING
76.16,APPROACH,ILS_TRACK,159.43,160,0.57,1758.29,-9.29,6.3,9.28,270.4,0.05,0.2677,20,270.38,-3.133,0.48,0.22,32.228,-0.021,-0.133,0,0,0,269.67,0,0,0,0,0,0,0,0,0,0,0,0,0,3,3,76.2,FLYING
76.42,APPROACH,ILS_TRACK,159.43,160,0.57,1755.84,-9.29,6.16,9.14,270.4,0.05,0.268,20,270.38,-3.037,0.48,0.21,32.182,-0.021,-0.037,0,0,0,269.67,0,0,0,0,0,0,0,0,0,0,0,0,0,3,3,76.46,FLYING
76.68,APPROACH,ILS_TRACK,159.43,160,0.57,1753.44,-9.38,6.28,9.28,270.4,0.049,0.2675,20,270.38,-3.062,0.48,0.21,32.135,-0.02,-0.062,0,0,0,269.67,0,0,0,0,0,0,0,0,0,0,0,0,0,3,3,76.72,FLYING
76.98,APPROACH,ILS_TRACK,159.43,160,0.57,1750.64,-9.28,6.27,9.26,270.4,0.047,0.2687,20,270.39,-3.119,0.48,0.23,32.082,-0.014,-0.119,0,0,0,269.67,0,0,0,0,0,0,0,0,0,0,0,0,0,3,3,77.02,FLYING
77.24,APPROACH,ILS_TRACK,159.43,160,0.57,1748.21,-9.36,6.24,9.23,270.4,0.045,0.2676,20,270.38,-3.026,0.48,0.22,32.036,-0.022,-0.026,0,0,0,269.67,0,0,0,0,0,0,0,0,0,0,0,0,0,3,3,77.28,FLYING
77.5,APPROACH,ILS_TRACK,159.43,160,0.57,1745.81,-9.27,6.31,9.3,270.4,0.044,0.2684,20,270.38,-3.127,0.48,0.24,31.99,-0.016,-0.127,0,0,0,269.67,0,0,0,0,0,0,0,0,0,0,0,0,0,3,3,77.54,FLYING
77.76,APPROACH,ILS_TRACK,159.43,160,0.57,1743.36,-9.3,6.17,9.15,270.4,0.044,0.2679,20,270.38,-3.012,0.48,0.22,31.943,-0.021,-0.012,0,0,0,269.67,0,0,0,0,0,0,0,0,0,0,0,0,0,3,3,77.8,FLYING
78.06,APPROACH,ILS_TRACK,159.43,160,0.57,1740.59,-9.31,6.29,9.28,270.4,0.042,0.2681,20,270.38,-3.091,0.48,0.23,31.89,-0.022,-0.091,0,0,0,269.67,0,0,0,0,0,0,0,0,0,0,0,0,0,3,3,78.1,FLYING
78.32,APPROACH,ILS_TRACK,159.43,160,0.57,1738.16,-9.35,6.27,9.26,270.4,0.041,0.268,20,270.39,-3.068,0.48,0.23,31.844,-0.015,-0.068,0,0,0,269.67,0,0,0,0,0,0,0,0,0,0,0,0,0,3,3,78.36,FLYING
78.58,APPROACH,ILS_TRACK,159.42,160,0.58,1735.74,-9.24,6.28,9.26,270.4,0.039,0.2691,20,270.38,-3.119,0.47,0.24,31.798,-0.017,-0.119,0,0,0,269.67,0,0,0,0,0,0,0,0,0,0,0,0,0,3,3,78.62,FLYING
78.84,APPROACH,ILS_TRACK,159.43,160,0.57,1733.3,-9.34,6.18,9.17,270.4,0.038,0.2684,20,270.38,-2.988,0.48,0.22,31.751,-0.022,0.012,0,0,0,269.67,0,0,0,0,0,0,0,0,0,0,0,0,0,3,3,78.88,FLYING
79.14,APPROACH,ILS_TRACK,159.42,160,0.58,1730.54,-9.27,6.31,9.3,270.4,0.039,0.2691,20,270.38,-3.129,0.48,0.24,31.698,-0.017,-0.129,0,0,0,269.67,0,0,0,0,0,0,0,0,0,0,0,0,0,3,3,79.18,FLYING
79.4,APPROACH,ILS_TRACK,159.43,160,0.57,1728.08,-9.28,6.14,9.13,270.4,0.04,0.2685,20,270.38,-3.012,0.47,0.22,31.652,-0.018,-0.012,0,0,0,269.67,0,0,0,0,0,0,0,0,0,0,0,0,0,3,3,79.44,FLYING
79.66,APPROACH,ILS_TRACK,159.43,160,0.57,1725.68,-9.38,6.25,9.25,270.4,0.036,0.2674,20,270.38,-3.041,0.48,0.21,31.606,-0.021,-0.041,0,0,0,269.67,0,0,0,0,0,0,0,0,0,0,0,0,0,3,3,79.7,FLYING
79.92,APPROACH,ILS_TRACK,159.43,160,0.57,1723.27,-9.27,6.29,9.28,270.4,0.036,0.2678,20,270.38,-3.14,0.48,0.24,31.56,-0.019,-0.14,0,0,0,269.67,0,0,0,0,0,0,0,0,0,0,0,0,0,3,3,79.96,FLYING
80.22,APPROACH,ILS_TRACK,159.44,160,0.56,1720.44,-9.33,6.14,9.13,270.4,0.038,0.2663,20,270.38,-2.985,0.48,0.21,31.506,-0.02,0.015,0,0,0,269.67,0,0,0,0,0,0,0,0,0,0,0,0,0,3,3,80.26,FLYING
80.48,APPROACH,ILS_TRACK,159.44,160,0.56,1718.04,-9.32,6.28,9.28,270.4,0.037,0.2667,20,270.39,-3.095,0.47,0.22,31.46,-0.012,-0.095,0,0,0,269.67,0,0,0,0,0,0,0,0,0,0,0,0,0,3,3,80.52,FLYING
80.74,APPROACH,ILS_TRACK,159.44,160,0.56,1715.62,-9.35,6.25,9.24,270.4,0.036,0.2672,20,270.38,-3.053,0.47,0.21,31.414,-0.022,-0.053,0,0,0,269.67,0,0,0,0,0,0,0,0,0,0,0,0,0,3,3,80.78,FLYING
81,APPROACH,ILS_TRACK,159.44,160,0.56,1713.2,-9.29,6.29,9.28,270.4,0.037,0.2673,20,270.38,-3.081,0.47,0.22,31.368,-0.021,-0.081,0,0,0,269.67,0,0,0,0,0,0,0,0,0,0,0,0,0,3,3,81.04,FLYING
81.3,APPROACH,ILS_TRACK,159.44,160,0.56,1710.41,-9.32,6.29,9.28,270.4,0.036,0.2667,20,270.38,-3.042,0.48,0.21,31.314,-0.022,-0.042,0,0,0,269.67,0,0,0,0,0,0,0,0,0,0,0,0,0,3,3,81.34,FLYING
81.56,APPROACH,ILS_TRACK,159.44,160,0.56,1707.99,-9.27,6.29,9.28,270.4,0.036,0.2668,20,270.38,-3.081,0.47,0.22,31.268,-0.016,-0.081,0,0,0,269.67,0,0,0,0,0,0,0,0,0,0,0,0,0,3,3,81.6,FLYING
81.82,APPROACH,ILS_TRACK,159.44,160,0.56,1705.57,-9.33,6.28,9.26,270.4,0.035,0.2664,20,270.38,-3.038,0.48,0.21,31.222,-0.021,-0.038,0,0,0,269.67,0,0,0,0,0,0,0,0,0,0,0,0,0,3,3,81.86,FLYING
82.08,APPROACH,ILS_TRACK,159.44,160,0.56,1703.16,-9.26,6.3,9.29,270.4,0.036,0.2671,20,270.38,-3.104,0.47,0.22,31.176,-0.017,-0.104,0,0,0,269.67,0,0,0,0,0,0,0,0,0,0,0,0,0,3,3,82.12,FLYING
82.38,APPROACH,ILS_TRACK,159.45,160,0.55,1700.36,-9.32,6.22,9.21,270.4,0.035,0.2666,20,270.38,-3.031,0.47,0.21,31.123,-0.017,-0.031,0,0,0,269.67,0,0,0,0,0,0,0,0,0,0,0,0,0,3,3,82.42,FLYING
82.64,APPROACH,ILS_TRACK,159.44,160,0.56,1697.96,-9.23,6.29,9.27,270.4,0.036,0.2675,20,270.38,-3.127,0.48,0.23,31.077,-0.022,-0.127,0,0,0,269.67,0,0,0,0,0,0,0,0,0,0,0,0,0,3,3,82.68,FLYING
82.9,APPROACH,ILS_TRACK,159.45,160,0.55,1695.52,-9.28,6.16,9.14,270.4,0.041,0.2669,20,270.38,-3.016,0.48,0.21,31.031,-0.021,-0.016,0,0,0,269.67,0,0,0,0,0,0,0,0,0,0,0,0,0,3,3,82.94,FLYING
83.16,APPROACH,ILS_TRACK,159.44,160,0.56,1693.13,-9.28,6.29,9.28,270.4,0.041,0.2673,20,270.39,-3.105,0.47,0.22,30.985,-0.013,-0.105,0,0,0,269.67,0,0,0,0,0,0,0,0,0,0,0,0,0,3,3,83.2,FLYING
83.46,APPROACH,ILS_TRACK,159.44,160,0.56,1690.34,-9.31,6.22,9.2,270.4,0.038,0.268,20,270.37,-3.065,0.48,0.22,30.931,-0.027,-0.065,0,0,0,269.67,0,0,0,0,0,0,0,0,0,0,0,0,0,3,3,83.5,FLYING
83.72,APPROACH,ILS_TRACK,159.44,160,0.56,1687.93,-9.22,6.26,9.24,270.4,0.04,0.2687,20,270.39,-3.121,0.47,0.24,30.885,-0.012,-0.121,0,0,0,269.67,0,0,0,0,0,0,0,0,0,0,0,0,0,3,3,83.76,FLYING
83.98,APPROACH,ILS_TRACK,159.44,160,0.56,1685.51,-9.31,6.19,9.17,270.4,0.039,0.2678,20,270.38,-3.014,0.48,0.22,30.839,-0.021,-0.014,0,0,0,269.67,0,0,0,0,0,0,0,0,0,0,0,0,0,3,3,84.02,FLYING
84.24,APPROACH,ILS_TRACK,159.44,160,0.56,1683.11,-9.24,6.28,9.26,270.4,0.04,0.2684,20,270.38,-3.133,0.48,0.24,30.793,-0.021,-0.133,0,0,0,269.67,0,0,0,0,0,0,0,0,0,0,0,0,0,3,3,84.28,FLYING
84.54,APPROACH,ILS_TRACK,159.44,160,0.56,1680.3,-9.31,6.15,9.14,270.4,0.044,0.2675,20,270.38,-3.013,0.48,0.22,30.74,-0.021,-0.013,0,0,0,269.67,0,0,0,0,0,0,0,0,0,0,0,0,0,3,3,84.58,FLYING
84.8,APPROACH,ILS_TRACK,159.44,160,0.56,1677.91,-9.27,6.27,9.26,270.4,0.044,0.2678,20,270.39,-3.119,0.47,0.24,30.694,-0.012,-0.119,0,0,0,269.67,0,0,0,0,0,0,0,0,0,0,0,0,0,3,3,84.84,FLYING
85.06,APPROACH,ILS_TRACK,159.45,160,0.55,1675.48,-9.3,6.18,9.17,270.4,0.042,0.2674,20,270.38,-3.04,0.48,0.23,30.648,-0.023,-0.04,0,0,0,269.67,0,0,0,0,0,0,0,0,0,0,0,0,0,3,3,85.1,FLYING
85.32,APPROACH,ILS_TRACK,159.44,160,0.56,1673.08,-9.27,6.27,9.26,270.4,0.042,0.2671,20,270.38,-3.097,0.48,0.24,30.602,-0.021,-0.097,0,0,0,269.67,0,0,0,0,0,0,0,0,0,0,0,0,0,3,3,85.36,FLYING
85.62,APPROACH,ILS_TRACK,159.45,160,0.55,1670.28,-9.33,6.23,9.22,270.4,0.045,0.2665,20,270.38,-3.04,0.48,0.23,30.549,-0.021,-0.04,0,0,0,269.67,0,0,0,0,0,0,0,0,0,0,0,0,0,3,3,85.66,FLYING
85.88,APPROACH,ILS_TRACK,159.45,160,0.55,1667.88,-9.24,6.27,9.26,270.4,0.045,0.267,20,270.38,-3.113,0.48,0.24,30.503,-0.021,-0.113,0,0,0,269.67,0,0,0,0,0,0,0,0,0,0,0,0,0,3,3,85.92,FLYING
