t_s,phase,subphase,ias_ms,vapp_ms,spd_err_ms,agl_m,gear_h_m,vs_ms,pitch_deg,aoa_deg,hdg_deg,bank_deg,thr_cmd,thr_cur,thr_intg,at_gain,at_tau_s,at_a_up,at_a_dn,at_kp_thr,at_ki_spd,at_thr_slew,as_cmd_deg,as_cap_deg,as_raw_deg,as_spd_err_ms,as_active,aa_hdg_cmd_deg,aa_fpa_cmd_deg,aa_fbw,aa_dir,actual_fpa_deg,ftf_hdg_err_deg,ftf_fix_idx,kos_steer_pit_deg,kos_steer_hdg_deg,aa_dir_vx,aa_dir_vy,aa_dir_vz,aa_dir_pitch_deg,aa_dir_hdg_deg,ils_loc_m,ils_gs_m,ils_dist_km,loc_corr_deg,gs_corr_deg,gs_latched,active_gs_ang_deg,ils_intercept_alt_m,d_gs_ms,fpa_preclamped_deg,gs_nom_alt_m,flare_fpa_cmd,flare_tgt_vs,flare_frac,flare_mode,flare_auth_limited,flare_auth_reason,flare_vs_err,flare_fpa_err,flare_pitch_err,flare_theta_cmd_raw,flare_theta_cmd_clamped,flare_theta_clamp_active,flare_aoa_clamp_active,flare_pitch_in_cmd,elev_defl_avg_deg,elev_defl_max_deg,elev_defl_n,flare_ctrl_h_m,flare_req_up_a,flare_thr_floor,flare_tecs_et_err,flare_tecs_eb_err,flare_tecs_h_ref,flare_tecs_v_ref,flare_gamma_ref,flare_gamma_eb_term,flare_gamma_unsat,steer_hdg_deg,steer_blend,ro_loc_corr_deg,ro_hdg_err_deg,ro_yaw_tgt,ro_yaw_scale,ro_yaw_gate,yaw_cmd,roll_cmd,pitch_cmd,ro_pitch_tgt_deg,ro_pitch_err_deg,ro_pitch_ff,ro_roll_assist,flaps_cur,flaps_tgt,asc_j_ab,asc_j_rk,asc_validity,asc_q_pa,asc_q_raw_pa,asc_mach,asc_apo_m,asc_drag_n,asc_w_prop,asc_edot_aero,asc_edot_orb,asc_pitch_bias,asc_blend,asc_spooling,asc_ab_thr_ratio,asc_ab_t_now,asc_ab_t_avail,asc_ab_ign_on,asc_ab_flameouts,asc_rk_t_now,asc_rk_t_avail,asc_rk_ign_on,asc_rk_flameouts,ship_thrust,ship_avail_thrust,ship_ign_on,ship_flameouts,ifc_raw_dt_s,ifc_dt_s,ifc_loop_n,ifc_hz_est,ifc_raw_dt_max_s,ifc_raw_dt_min_s,phase_el_s,status,craft_name,cfg_file
0.16,APPROACH,ILS_TRACK,154.25,152,-2.25,742.87,663.94,-12.29,10.69,15,269.81,0.302,0,0,0,0,0,0,0,0,0,0,0,0,0,0,0,0,0,1,0,-4.57,0,0,0,90,0,0,0,0,0,7.12,-487.87,22.071,0,0,0,3,742.87,0,0,1230.97,0,0,0,,0,NONE,0,0,0,0,0,0,0,0,0,0,0,663.94,0,0,0,0,0,0,0,0,0,269.8,0,0,0,0,0,0,0,0,0,0,0,0,0,0,0,0,0,VALID,0,0,0,0,0,1,0,0,0,0,0,0,0,0,0,0,0,0,0,0,298.76,1081.05,2,0,0.14,0.14,1,3.7,0.14,0.02,0.16,FLYING,X10-H,0:/Integrated Flight Computer/aircraft/x10_h_cfg.ks (inferred preloaded)
0.46,APPROACH,ILS_TRACK,154.36,152,-2.36,739.35,660.38,-11.68,10.97,15.07,269.79,0.051,0,0,0,1,0.6,2.105,0.75,0.35,0.0168,0.4,0.98,21.228,0.98,2.354,1,269.9,0,0,1,-4.36,0,0,0,269.92,0.6536,-0.0017,-0.7568,0,269.9,6.91,-488.76,22.025,-0.096,0,0,3,742.87,-3.217,0,1228.58,0,0,0,,0,NONE,0,0,0,0,0,0,0,0,0,0,0,660.38,0,0,0,0,0,0,0,0,0,269.8,0,0,0,0,0,0,0,0,0,0,0,0,0,1,3,0,0,VALID,0,0,0,0,0,1,0,0,0,0,0,0,0,0,0,0,0,0,0,0,269.08,1081.79,2,0,0.08,0.08,4,10,0.14,0.08,0.46,FLYING,X10-H,0:/Integrated Flight Computer/aircraft/x10_h_cfg.ks (inferred preloaded)
0.76,APPROACH,ILS_TRACK,154.28,152,-2.28,735.69,656.96,-11,10.27,14.03,269.71,-0.184,0,0,0,1,0.6,3.744,0.75,0.35,0.0168,0.4,0.909,21.245,0.909,2.292,1,269.92,0,0,1,-4.11,0,0,0,269.91,0.6536,-0.0014,-0.7569,0,269.92,6.69,-489.82,21.976,-0.081,0,0,3,742.87,-3.849,0,1226.01,0,0,0,,0,NONE,0,0,0,0,0,0,0,0,0,0,0,656.96,0,0,0,0,0,0,0,0,0,269.8,0,0,0,0,0,0,0,0,0,0,0,0,0,1,3,0,0,VALID,0,0,0,0,0,1,0,0,0,0,0,0,0,0,0,0,0,0,0,0,242.17,1081.71,2,0,0.08,0.08,7,10,0.12,0.08,0.76,FLYING,X10-H,0:/Integrated Flight Computer/aircraft/x10_h_cfg.ks (inferred preloaded)
1.12,APPROACH,ILS_TRACK,154.27,152,-2.27,731,653.01,-11.06,7.7,11.42,269.72,0.098,0,0,0,1,0.6,4.5,0.75,0.35,0.0168,0.4,0.865,21.256,0.865,2.252,1,269.95,0,0,1,-4.08,0,0,0,269.93,0.6535,-0.0009,-0.7569,0,269.95,6.41,-491.42,21.918,-0.052,0,0,3,742.87,-4.506,0,1222.94,0,0,0,,0,NONE,0,0,0,0,0,0,0,0,0,0,0,653.01,0,0,0,0,0,0,0,0,0,269.8,0,0,0,0,0,0,0,0,0,0,0,0,0,2,3,0,0,VALID,0,0,0,0,0,1,0,0,0,0,0,0,0,0,0,0,0,0,0,0,213.42,1081.9,2,0,0.12,0.12,10,8.33,0.12,0.08,1.12,FLYING,X10-H,0:/Integrated Flight Computer/aircraft/x10_h_cfg.ks (inferred preloaded)
1.46,APPROACH,ILS_TRACK,154.56,152,-2.56,726.6,649.13,-11.79,5.74,9.76,269.74,0.055,0,0,0,1,0.6,4.5,0.75,0.35,0.0168,0.4,1.188,21.176,1.188,2.538,1,269.95,0,0,1,-4.32,0,0,0,269.94,0.6534,-0.0009,-0.757,0,269.95,6.14,-492.92,21.862,-0.052,0,0,3,742.87,-4.367,0,1220.03,0,0,0,,0,NONE,0,0,0,0,0,0,0,0,0,0,0,649.13,0,0,0,0,0,0,0,0,0,269.8,0,0,0,0,0,0,0,0,0,0,0,0,0,3,3,0,0,VALID,0,0,0,0,0,1,0,0,0,0,0,0,0,0,0,0,0,0,0,0,189.66,1083.41,2,0,0.1,0.1,13,8.82,0.12,0.1,1.46,FLYING,X10-H,0:/Integrated Flight Computer/aircraft/x10_h_cfg.ks (inferred preloaded)
1.74,APPROACH,ILS_TRACK,154.81,152,-2.81,723.07,645.7,-12.66,5.23,9.64,269.72,-0.062,0,0,0,1,0.6,4.5,0.75,0.35,0.0168,0.4,1.478,21.103,1.478,2.796,1,269.96,0,0,1,-4.63,0,0,0,269.95,0.6534,-0.0007,-0.757,0,269.96,5.93,-494.06,21.816,-0.041,0,0,3,742.87,-3.921,0,1217.63,0,0,0,,0,NONE,0,0,0,0,0,0,0,0,0,0,0,645.7,0,0,0,0,0,0,0,0,0,269.8,0,0,0,0,0,0,0,0,0,0,0,0,0,3,3,0,0,VALID,0,0,0,0,0,1,0,0,0,0,0,0,0,0,0,0,0,0,0,0,172.11,1084.76,2,0,0.08,0.08,16,10.71,0.1,0.08,1.74,FLYING,X10-H,0:/Integrated Flight Computer/aircraft/x10_h_cfg.ks (inferred preloaded)
2.04,APPROACH,ILS_TRACK,154.99,152,-2.99,719.47,641.77,-13.45,6.16,10.96,269.7,-0.136,0,0,0,1,0.6,4.5,0.75,0.35,0.0168,0.4,1.686,21.051,1.686,2.982,1,269.96,0,0,1,-4.93,0,0,0,269.96,0.6533,-0.0006,-0.7571,0,269.96,5.7,-495.12,21.767,-0.035,0,0,3,742.87,-3.27,0,1215.06,0,0,0,,0,NONE,0,0,0,0,0,0,0,0,0,0,0,641.77,0,0,0,0,0,0,0,0,0,269.8,0,0,0,0,0,0,0,0,0,0,0,0,0,3,3,0,0,VALID,0,0,0,0,0,1,0,0,0,0,0,0,0,0,0,0,0,0,0,0,155.06,1085.83,2,0,0.08,0.08,19,10,0.12,0.08,2.04,FLYING,X10-H,0:/Integrated Flight Computer/aircraft/x10_h_cfg.ks (inferred preloaded)
2.34,APPROACH,ILS_TRACK,154.98,152,-2.98,716.04,637.72,-13.48,8.33,13.19,269.69,-0.161,0,0,0,1,0.6,4.5,0.75,0.35,0.0168,0.4,1.693,21.049,1.693,2.988,1,269.97,0,0,1,-4.99,0,0,0,269.97,0.6533,-0.0006,-0.7571,0,269.97,5.47,-495.99,21.718,-0.032,0,0,3,742.87,-2.852,0,1212.49,0,0,0,,0,NONE,0,0,0,0,0,0,0,0,0,0,0,637.72,0,0,0,0,0,0,0,0,0,269.8,0,0,0,0,0,0,0,0,0,0,0,0,0,3,3,0,0,VALID,0,0,0,0,0,1,0,0,0,0,0,0,0,0,0,0,0,0,0,0,139.6,1086.12,2,0,0.08,0.08,22,10,0.12,0.08,2.34,FLYING,X10-H,0:/Integrated Flight Computer/aircraft/x10_h_cfg.ks (inferred preloaded)
2.64,APPROACH,ILS_TRACK,154.69,152,-2.69,712.57,633.77,-13.07,10.14,14.84,269.71,0.011,0,0,0,1,0.6,4.5,0.75,0.35,0.0168,0.4,1.392,21.125,1.392,2.719,1,269.99,0,0,1,-4.85,0,0,0,269.98,0.6532,-0.0002,-0.7572,0,269.99,5.23,-496.9,21.669,-0.011,0,0,3,742.87,-2.963,0,1209.92,0,0,0,,0,NONE,0,0,0,0,0,0,0,0,0,0,0,633.77,0,0,0,0,0,0,0,0,0,269.8,0,0,0,0,0,0,0,0,0,0,0,0,0,3,3,0,0,VALID,0,0,0,0,0,1,0,0,0,0,0,0,0,0,0,0,0,0,0,0,125.54,1085.23,2,0,0.08,0.08,25,10,0.12,0.08,2.64,FLYING,X10-H,0:/Integrated Flight Computer/aircraft/x10_h_cfg.ks (inferred preloaded)
2.94,APPROACH,ILS_TRACK,154.18,152,-2.18,709.27,629.94,-12.32,11.95,16.41,269.77,0.283,0.0738,0,-0.723,1,0.6,4.5,0.75,0.35,0.0168,0.4,0.832,21.264,0.832,2.224,1,270.01,0,0,1,-4.61,0,0,0,270,0.6531,0.0001,-0.7572,0,270.01,4.98,-497.66,21.62,0.009,0,0,3,742.87,-2.39,0,1207.36,0,0,0,,0,NONE,0,0,0,0,0,0,0,0,0,0,0,629.94,0,0,0,0,0,0,0,0,0,269.8,0,0,0,0,0,0,0,0,0,0,0,0,0,3,3,0,0,VALID,0,0,0,0,0,1,0,0,0,0,0,0,0,0,0,0,0,0,0,0,113.81,1083.34,2,0,0.08,0.08,28,10,0.12,0.08,2.94,FLYING,X10-H,0:/Integrated Flight Computer/aircraft/x10_h_cfg.ks (inferred preloaded)
3.24,APPROACH,ILS_TRACK,153.4,152,-1.4,706.09,626.41,-11.27,13.27,17.34,269.86,0.524,0.1938,0,-1.24,1,0.6,4.5,0.75,0.35,0.0168,0.4,0,21.481,0,1.455,0,270.01,0,0,1,-4.25,0,0,0,270,0.6531,0.0001,-0.7573,0,270.01,4.75,-498.31,21.572,0.008,0,0,3,742.87,-1.991,0,1204.81,0,0,0,,0,NONE,0,0,0,0,0,0,0,0,0,0,0,626.41,0,0,0,0,0,0,0,0,0,269.8,0,0,0,0,0,0,0,0,0,0,0,0,0,3,3,0,0,VALID,0,0,0,0,0,1,0,0,0,0,0,0,0,0,0,0,0,0,0,0,112.79,1080.29,2,0,0.08,0.08,31,10,0.12,0.08,3.24,FLYING,X10-H,0:/Integrated Flight Computer/aircraft/x10_h_cfg.ks (inferred preloaded)
3.54,APPROACH,ILS_TRACK,152.48,152,-0.48,703.09,623.2,-10.14,14.04,17.7,269.94,0.701,0.3138,0,-1.496,1,0.6,4.5,0.75,0.35,0.0168,0.4,0,21.737,0,0.546,0,270.01,0,0,1,-3.86,0,0,0,270.01,0.653,0.0002,-0.7574,0,270.01,4.52,-498.8,21.523,0.01,0,0,3,742.87,-1.407,0,1202.28,0,0,0,,0,NONE,0,0,0,0,0,0,0,0,0,0,0,623.2,0,0,0,0,0,0,0,0,0,269.8,0,0,0,0,0,0,0,0,0,0,0,0,0,3,3,0,0,VALID,0,0,0,0,0,1,0,0,0,0,0,0,0,0,0,0,0,0,0,0,120.05,1076.66,2,0,0.08,0.08,34,10,0.12,0.08,3.54,FLYING,X10-H,0:/Integrated Flight Computer/aircraft/x10_h_cfg.ks (inferred preloaded)
3.84,APPROACH,ILS_TRACK,151.54,152,0.46,700.32,620.33,-9.08,14.41,17.7,270.01,0.819,0.4338,0,-1.469,1,0.6,4.5,0.75,0.35,0.0168,0.4,0,22.003,0,-0.397,0,269.99,0,0,1,-3.47,0,0,0,270,0.6529,-0.0001,-0.7574,0,269.99,4.32,-499.09,21.475,-0.007,0,0,3,742.87,-0.641,0,1199.76,0,0,0,,0,NONE,0,0,0,0,0,0,0,0,0,0,0,620.33,0,0,0,0,0,0,0,0,0,269.8,0,0,0,0,0,0,0,0,0,0,0,0,0,3,3,0,0,VALID,0,0,0,0,0,1,0,0,0,0,0,0,0,0,0,0,0,0,0,0,134.3,1072.91,2,0,0.08,0.08,37,10,0.12,0.08,3.84,FLYING,X10-H,0:/Integrated Flight Computer/aircraft/x10_h_cfg.ks (inferred preloaded)
4.14,APPROACH,ILS_TRACK,150.64,152,1.36,697.87,617.76,-8.03,14.82,17.75,270.06,0.885,0.5538,0,-1.448,1,0.6,4.5,0.75,0.35,0.0168,0.4,0,22.258,0,-1.301,0,269.99,0,0,1,-3.11,0,0,0,269.98,0.6529,-0.0002,-0.7575,0,269.99,4.12,-499.07,21.427,-0.011,0,0,3,742.87,0.376,0,1197.25,0,0,0,,0,NONE,0,0,0,0,0,0,0,0,0,0,0,617.76,0,0,0,0,0,0,0,0,0,269.8,0,0,0,0,0,0,0,0,0,0,0,0,0,3,3,0,0,VALID,0,0,0,0,0,1,0,0,0,0,0,0,0,0,0,0,0,0,0,0,155.12,1069.3,2,0,0.08,0.08,40,10,0.12,0.08,4.14,FLYING,X10-H,0:/Integrated Flight Computer/aircraft/x10_h_cfg.ks (inferred preloaded)
4.44,APPROACH,ILS_TRACK,149.75,152,2.25,695.64,615.53,-6.94,14.9,17.43,270.09,0.908,0.6738,0,-1.426,1,0.6,4.5,0.75,0.35,0.0168,0.4,0,22.51,0,-2.195,0,269.98,0,0,1,-2.71,0,0,0,269.98,0.6528,-0.0003,-0.7575,0,269.98,3.95,-498.83,21.38,-0.018,0,0,3,742.87,1.049,0,1194.76,0,0,0,,0,NONE,0,0,0,0,0,0,0,0,0,0,0,615.53,0,0,0,0,0,0,0,0,0,269.8,0,0,0,0,0,0,0,0,0,0,0,0,0,3,3,0,0,VALID,0,0,0,0,0,1,0,0,0,0,0,0,0,0,0,0,0,0,0,0,182.02,1065.74,2,0,0.08,0.08,43,10,0.12,0.08,4.44,FLYING,X10-H,0:/Integrated Flight Computer/aircraft/x10_h_cfg.ks (inferred preloaded)
4.74,APPROACH,ILS_TRACK,148.97,152,3.03,693.65,613.6,-5.99,14.68,16.86,270.1,0.879,0.7938,0,-1.405,1,0.6,4.5,0.75,0.35,0.0168,0.4,0,22.731,0,-2.98,0,269.96,0,0,1,-2.35,0,0,0,269.97,0.6528,-0.0006,-0.7576,0,269.96,3.81,-498.37,21.332,-0.037,0,0,3,742.87,1.805,0,1192.27,0,0,0,,0,NONE,0,0,0,0,0,0,0,0,0,0,0,613.6,0,0,0,0,0,0,0,0,0,269.8,0,0,0,0,0,0,0,0,0,0,0,0,0,3,3,0,0,VALID,0,0,0,0,0,1,0,0,0,0,0,0,0,0,0,0,0,0,0,0,214.67,1062.65,2,0,0.08,0.08,46,10,0.12,0.08,4.74,FLYING,X10-H,0:/Integrated Flight Computer/aircraft/x10_h_cfg.ks (inferred preloaded)
5.04,APPROACH,ILS_TRACK,148.36,152,3.64,691.9,611.95,-5.17,14.35,16.24,270.09,0.8,0.9138,0,-1.384,1,0.6,4.5,0.75,0.35,0.0168,0.4,0,22.908,0,-3.608,0,269.95,0,0,1,-2.03,0,0,0,269.96,0.6527,-0.0009,-0.7576,0,269.95,3.68,-497.69,21.285,-0.051,0,0,3,742.87,2.604,0,1189.8,0,0,0,,0,NONE,0,0,0,0,0,0,0,0,0,0,0,611.95,0,0,0,0,0,0,0,0,0,269.8,0,0,0,0,0,0,0,0,0,0,0,0,0,3,3,0,0,VALID,0,0,0,0,0,1,0,0,0,0,0,0,0,0,0,0,0,0,0,0,252.77,1060.21,2,0,0.08,0.08,49,10,0.12,0.08,5.04,FLYING,X10-H,0:/Integrated Flight Computer/aircraft/x10_h_cfg.ks (inferred preloaded)
5.34,APPROACH,ILS_TRACK,147.9,152,4.1,690.4,610.53,-4.32,14.09,15.66,270.08,0.699,0.9639,0,-0.656,1,0.6,4.5,0.75,0.35,0.0168,0.4,0,23.038,0,-4.069,0,269.95,0,0,1,-1.72,0,0,0,269.94,0.6526,-0.0008,-0.7577,0,269.95,3.57,-496.75,21.238,-0.046,0,0,3,742.87,3.33,0,1187.34,0,0,0,,0,NONE,0,0,0,0,0,0,0,0,0,0,0,610.53,0,0,0,0,0,0,0,0,0,269.8,0,0,0,0,0,0,0,0,0,0,0,0,0,3,3,0,0,VALID,0,0,0,0,0,1,0,0,0,0,0,0,0,0,0,0,0,0,0,0,295.96,1058.44,2,0,0.08,0.08,52,10,0.12,0.08,5.34,FLYING,X10-H,0:/Integrated Flight Computer/aircraft/x10_h_cfg.ks (inferred preloaded)
5.64,APPROACH,ILS_TRACK,147.61,152,4.39,689.07,609.35,-3.65,13.58,14.9,270.05,0.589,0.8599,0,0.633,1,0.6,4.5,0.75,0.35,0.0168,0.4,0,23.124,0,-4.377,0,269.94,0,0,1,-1.45,0,0,0,269.94,0.6526,-0.0011,-0.7577,0,269.94,3.48,-495.65,21.191,-0.06,0,0,3,742.87,3.917,0,1184.88,0,0,0,,0,NONE,0,0,0,0,0,0,0,0,0,0,0,609.35,0,0,0,0,0,0,0,0,0,269.8,0,0,0,0,0,0,0,0,0,0,0,0,0,3,3,0,0,VALID,0,0,0,0,0,1,0,0,0,0,0,0,0,0,0,0,0,0,0,0,336.4,1057.31,2,0,0.08,0.08,55,10,0.12,0.08,5.64,FLYING,X10-H,0:/Integrated Flight Computer/aircraft/x10_h_cfg.ks (inferred preloaded)
5.94,APPROACH,ILS_TRACK,147.5,152,4.5,687.92,608.36,-3.03,13.05,14.13,270.03,0.472,0.7399,0,1.974,1,0.6,4.5,0.75,0.35,0.0168,0.4,0,23.158,0,-4.496,0,269.92,0,0,1,-1.21,0,0,0,269.93,0.6525,-0.0013,-0.7578,0,269.92,3.4,-494.36,21.144,-0.076,0,0,3,742.87,4.487,0,1182.42,0,0,0,,0,NONE,0,0,0,0,0,0,0,0,0,0,0,608.36,0,0,0,0,0,0,0,0,0,269.8,0,0,0,0,0,0,0,0,0,0,0,0,0,3,3,0,0,VALID,0,0,0,0,0,1,0,0,0,0,0,0,0,0,0,0,0,0,0,0,367.7,1056.93,2,0,0.08,0.08,58,10,0.12,0.08,5.94,FLYING,X10-H,0:/Integrated Flight Computer/aircraft/x10_h_cfg.ks (inferred preloaded)
6.24,APPROACH,ILS_TRACK,147.54,152,4.46,686.93,607.54,-2.55,12.49,13.39,270,0.357,0.6199,0,3.321,1,0.6,4.5,0.75,0.35,0.0168,0.4,0,23.151,0,-4.471,0,269.93,0,0,1,-1.01,0,0,0,269.92,0.6525,-0.0013,-0.7578,0,269.93,3.32,-492.91,21.098,-0.072,0,0,3,742.87,5.002,0,1179.97,0,0,0,,0,NONE,0,0,0,0,0,0,0,0,0,0,0,607.54,0,0,0,0,0,0,0,0,0,269.8,0,0,0,0,0,0,0,0,0,0,0,0,0,3,3,0,0,VALID,0,0,0,0,0,1,0,0,0,0,0,0,0,0,0,0,0,0,0,0,389.96,1057.13,2,0,0.08,0.08,61,10,0.12,0.08,6.24,FLYING,X10-H,0:/Integrated Flight Computer/aircraft/x10_h_cfg.ks (inferred preloaded)
6.54,APPROACH,ILS_TRACK,147.68,152,4.32,686.08,606.84,-2.15,11.93,12.69,269.98,0.266,0.4999,0,4.637,1,0.6,4.5,0.75,0.35,0.0168,0.4,0,23.113,0,-4.336,0,269.92,0,0,1,-0.85,0,0,0,269.93,0.6524,-0.0015,-0.7579,0,269.92,3.26,-491.33,21.051,-0.083,0,0,3,742.87,5.439,0,1177.51,0,0,0,,0,NONE,0,0,0,0,0,0,0,0,0,0,0,606.84,0,0,0,0,0,0,0,0,0,269.8,0,0,0,0,0,0,0,0,0,0,0,0,0,3,3,0,0,VALID,0,0,0,0,0,1,0,0,0,0,0,0,0,0,0,0,0,0,0,0,403.7,1057.76,2,0,0.08,0.08,64,10,0.12,0.08,6.54,FLYING,X10-H,0:/Integrated Flight Computer/aircraft/x10_h_cfg.ks (inferred preloaded)
6.9,APPROACH,ILS_TRACK,147.95,152,4.05,685.19,606.15,-1.76,11.27,11.88,269.96,0.17,0.3559,0,6.136,1,0.6,4.5,0.75,0.35,0.0168,0.4,0,23.037,0,-4.067,0,269.93,0,0,1,-0.7,0,0,0,269.92,0.6523,-0.0013,-0.7579,0,269.93,3.18,-489.27,20.994,-0.073,0,0,3,742.87,5.873,0,1174.55,0,0,0,,0,NONE,0,0,0,0,0,0,0,0,0,0,0,606.15,0,0,0,0,0,0,0,0,0,269.8,0,0,0,0,0,0,0,0,0,0,0,0,0,3,3,0,0,VALID,0,0,0,0,0,1,0,0,0,0,0,0,0,0,0,0,0,0,0,0,409.78,1058.93,2,0,0.12,0.12,67,8.33,0.12,0.08,6.9,FLYING,X10-H,0:/Integrated Flight Computer/aircraft/x10_h_cfg.ks (inferred preloaded)
7.24,APPROACH,ILS_TRACK,148.26,152,3.74,684.54,605.56,-1.75,10.94,11.59,269.95,0.109,0.2199,0,7.449,1,0.6,4.5,0.75,0.35,0.0168,0.4,0,22.949,0,-3.754,0,269.92,0,0,1,-0.67,0,0,0,269.93,0.6523,-0.0013,-0.758,0,269.92,3.11,-487.16,20.941,-0.075,0,0,3,742.87,6.521,0,1171.76,0,0,0,,0,NONE,0,0,0,0,0,0,0,0,0,0,0,605.56,0,0,0,0,0,0,0,0,0,269.8,0,0,0,0,0,0,0,0,0,0,0,0,0,3,3,0,0,VALID,0,0,0,0,0,1,0,0,0,0,0,0,0,0,0,0,0,0,0,0,402,1060.28,2,0,0.1,0.1,70,8.82,0.12,0.1,7.24,FLYING,X10-H,0:/Integrated Flight Computer/aircraft/x10_h_cfg.ks (inferred preloaded)
7.52,APPROACH,ILS_TRACK,148.47,152,3.53,684.26,605.09,-1.56,11.56,12.2,269.94,0.068,0.1501,0,8.458,1,0.6,4.5,0.75,0.35,0.0168,0.4,0,22.889,0,-3.543,0,269.93,0,0,1,-0.64,0,0,0,269.92,0.6522,-0.0012,-0.758,0,269.93,3.06,-485.16,20.897,-0.072,0,0,3,742.87,7.433,0,1169.45,0,0,0,,0,NONE,0,0,0,0,0,0,0,0,0,0,0,605.09,0,0,0,0,0,0,0,0,0,269.8,0,0,0,0,0,0,0,0,0,0,0,0,0,3,3,0,0,VALID,0,0,0,0,0,1,0,0,0,0,0,0,0,0,0,0,0,0,0,0,383.63,1061.17,2,0,0.08,0.08,73,10.71,0.1,0.08,7.52,FLYING,X10-H,0:/Integrated Flight Computer/aircraft/x10_h_cfg.ks (inferred preloaded)
7.82,APPROACH,ILS_TRACK,148.45,152,3.55,683.91,604.76,-0.67,11.73,11.93,269.94,0.044,0.2506,0,9.513,1,0.6,4.5,0.75,0.35,0.0168,0.4,0,22.889,0,-3.543,0,269.92,0,0,1,-0.3,0,0,0,269.93,0.6522,-0.0014,-0.7581,0,269.92,3,-483.01,20.85,-0.079,0,0,3,742.87,6.865,0,1166.98,0,0,0,,0,NONE,0,0,0,0,0,0,0,0,0,0,0,604.76,0,0,0,0,0,0,0,0,0,269.8,0,0,0,0,0,0,0,0,0,0,0,0,0,3,3,0,0,VALID,0,0,0,0,0,1,0,0,0,0,0,0,0,0,0,0,0,0,0,0,363.69,1061.11,2,0,0.08,0.08,76,10,0.12,0.08,7.82,FLYING,X10-H,0:/Integrated Flight Computer/aircraft/x10_h_cfg.ks (inferred preloaded)
8.12,APPROACH,ILS_TRACK,148.38,152,3.62,683.35,604.61,-0.43,10.33,10.38,269.94,0.03,0.3706,0,10.6,1,0.6,4.5,0.75,0.35,0.0168,0.4,0,22.913,0,-3.626,0,269.93,0,0,1,-0.16,0,0,0,269.93,0.6521,-0.0013,-0.7581,0,269.93,2.95,-481.09,20.803,-0.072,0,0,3,742.87,6.35,0,1164.51,0,0,0,,0,NONE,0,0,0,0,0,0,0,0,0,0,0,604.61,0,0,0,0,0,0,0,0,0,269.8,0,0,0,0,0,0,0,0,0,0,0,0,0,3,3,0,0,VALID,0,0,0,0,0,1,0,0,0,0,0,0,0,0,0,0,0,0,0,0,357.23,1060.83,2,0,0.08,0.08,79,10,0.12,0.08,8.12,FLYING,X10-H,0:/Integrated Flight Computer/aircraft/x10_h_cfg.ks (inferred preloaded)
8.42,APPROACH,ILS_TRACK,148.56,152,3.44,682.91,604.42,-0.77,9.29,9.53,269.93,0.025,0.323,0,11.656,1,0.6,4.5,0.75,0.35,0.0168,0.4,0,22.865,0,-3.456,0,269.93,0,0,1,-0.28,0,0,0,269.93,0.652,-0.0012,-0.7582,0,269.93,2.89,-479.08,20.755,-0.069,0,0,3,742.87,6.953,0,1162.04,0,0,0,,0,NONE,0,0,0,0,0,0,0,0,0,0,0,604.42,0,0,0,0,0,0,0,0,0,269.8,0,0,0,0,0,0,0,0,0,0,0,0,0,3,3,0,0,VALID,0,0,0,0,0,1,0,0,0,0,0,0,0,0,0,0,0,0,0,0,359.45,1061.57,2,0,0.08,0.08,82,10,0.12,0.08,8.42,FLYING,X10-H,0:/Integrated Flight Computer/aircraft/x10_h_cfg.ks (inferred preloaded)
8.72,APPROACH,ILS_TRACK,148.76,152,3.24,682.72,604.13,-1.17,9.49,9.97,269.94,0.021,0.266,0,12.651,1,0.6,4.5,0.75,0.35,0.0168,0.4,0,22.807,0,-3.251,0,269.94,0,0,1,-0.44,0,0,0,269.93,0.652,-0.001,-0.7582,0,269.94,2.83,-476.84,20.708,-0.06,0,0,3,742.87,7.816,0,1159.56,0,0,0,,0,NONE,0,0,0,0,0,0,0,0,0,0,0,604.13,0,0,0,0,0,0,0,0,0,269.8,0,0,0,0,0,0,0,0,0,0,0,0,0,3,3,0,0,VALID,0,0,0,0,0,1,0,0,0,0,0,0,0,0,0,0,0,0,0,0,356.36,1062.44,2,0,0.08,0.08,85,10,0.12,0.08,8.72,FLYING,X10-H,0:/Integrated Flight Computer/aircraft/x10_h_cfg.ks (inferred preloaded)
9.02,APPROACH,ILS_TRACK,148.9,152,3.1,682.58,603.82,-0.87,10.17,10.52,269.94,0.016,0.2773,0,13.594,1,0.6,4.5,0.75,0.35,0.0168,0.4,0,22.765,0,-3.102,0,269.94,0,0,1,-0.35,0,0,0,269.94,0.6519,-0.0011,-0.7583,0,269.94,2.78,-474.48,20.661,-0.064,0,0,3,742.87,7.684,0,1157.09,0,0,0,,0,NONE,0,0,0,0,0,0,0,0,0,0,0,603.82,0,0,0,0,0,0,0,0,0,269.8,0,0,0,0,0,0,0,0,0,0,0,0,0,3,3,0,0,VALID,0,0,0,0,0,1,0,0,0,0,0,0,0,0,0,0,0,0,0,0,349.07,1063.07,2,0,0.08,0.08,88,10,0.12,0.08,9.02,FLYING,X10-H,0:/Integrated Flight Computer/aircraft/x10_h_cfg.ks (inferred preloaded)
9.32,APPROACH,ILS_TRACK,149,152,3,682.32,603.6,-0.72,10.1,10.36,269.94,0.014,0.3138,0,14.507,1,0.6,4.5,0.75,0.35,0.0168,0.4,0,22.739,0,-3.009,0,269.94,0,0,1,-0.28,0,0,0,269.92,0.6519,-0.001,-0.7583,0,269.94,2.72,-472.25,20.614,-0.056,0,0,3,742.87,7.386,0,1154.61,0,0,0,,0,NONE,0,0,0,0,0,0,0,0,0,0,0,603.6,0,0,0,0,0,0,0,0,0,269.8,0,0,0,0,0,0,0,0,0,0,0,0,0,3,3,0,0,VALID,0,0,0,0,0,1,0,0,0,0,0,0,0,0,0,0,0,0,0,0,344.97,1063.48,2,0,0.08,0.08,91,10,0.12,0.08,9.32,FLYING,X10-H,0:/Integrated Flight Computer/aircraft/x10_h_cfg.ks (inferred preloaded)
9.62,APPROACH,ILS_TRACK,149.13,152,2.87,682.08,603.38,-0.73,10,10.27,269.94,0.014,0.3157,0,15.384,1,0.6,4.5,0.75,0.35,0.0168,0.4,0,22.703,0,-2.883,0,269.94,0,0,1,-0.28,0,0,0,269.94,0.6518,-0.0011,-0.7584,0,269.94,2.67,-470.02,20.566,-0.064,0,0,3,742.87,7.576,0,1152.12,0,0,0,,0,NONE,0,0,0,0,0,0,0,0,0,0,0,603.38,0,0,0,0,0,0,0,0,0,269.8,0,0,0,0,0,0,0,0,0,0,0,0,0,3,3,0,0,VALID,0,0,0,0,0,1,0,0,0,0,0,0,0,0,0,0,0,0,0,0,344.1,1064.02,2,0,0.08,0.08,94,10,0.12,0.08,9.62,FLYING,X10-H,0:/Integrated Flight Computer/aircraft/x10_h_cfg.ks (inferred preloaded)
9.92,APPROACH,ILS_TRACK,149.25,152,2.75,681.87,603.18,-0.67,9.97,10.22,269.94,0.014,0.3242,0,16.225,1,0.6,4.5,0.75,0.35,0.0168,0.4,0,22.67,0,-2.764,0,269.94,0,0,1,-0.26,0,0,0,269.94,0.6517,-0.0011,-0.7584,0,269.94,2.62,-467.74,20.519,-0.065,0,0,3,742.87,7.608,0,1149.64,0,0,0,,0,NONE,0,0,0,0,0,0,0,0,0,0,0,603.18,0,0,0,0,0,0,0,0,0,269.8,0,0,0,0,0,0,0,0,0,0,0,0,0,3,3,0,0,VALID,0,0,0,0,0,1,0,0,0,0,0,0,0,0,0,0,0,0,0,0,343.63,1064.54,2,0,0.08,0.08,97,10,0.12,0.08,9.92,FLYING,X10-H,0:/Integrated Flight Computer/aircraft/x10_h_cfg.ks (inferred preloaded)
10.22,APPROACH,ILS_TRACK,149.37,152,2.63,681.68,603,-0.6,9.94,10.17,269.94,0.016,0.327,0,17.029,1,0.6,4.5,0.75,0.35,0.0168,0.4,0,22.635,0,-2.639,0,269.95,0,0,1,-0.24,0,0,0,269.93,0.6517,-0.001,-0.7585,0,269.95,2.56,-465.45,20.472,-0.055,0,0,3,742.87,7.684,0,1147.16,0,0,0,,0,NONE,0,0,0,0,0,0,0,0,0,0,0,603,0,0,0,0,0,0,0,0,0,269.8,0,0,0,0,0,0,0,0,0,0,0,0,0,3,3,0,0,VALID,0,0,0,0,0,1,0,0,0,0,0,0,0,0,0,0,0,0,0,0,343.94,1065.07,2,0,0.08,0.08,100,10,0.12,0.08,10.22,FLYING,X10-H,0:/Integrated Flight Computer/aircraft/x10_h_cfg.ks (inferred preloaded)
10.52,APPROACH,ILS_TRACK,149.5,152,2.5,681.5,602.83,-0.54,9.93,10.13,269.94,0.017,0.3269,0,17.795,1,0.6,4.5,0.75,0.35,0.0168,0.4,0,22.598,0,-2.509,0,269.95,0,0,1,-0.22,0,0,0,269.94,0.6516,-0.0009,-0.7585,0,269.95,2.51,-463.14,20.424,-0.052,0,0,3,742.87,7.764,0,1144.67,0,0,0,,0,NONE,0,0,0,0,0,0,0,0,0,0,0,602.83,0,0,0,0,0,0,0,0,0,269.8,0,0,0,0,0,0,0,0,0,0,0,0,0,3,3,0,0,VALID,0,0,0,0,0,1,0,0,0,0,0,0,0,0,0,0,0,0,0,0,344.39,1065.62,2,0,0.08,0.08,103,10,0.12,0.08,10.52,FLYING,X10-H,0:/Integrated Flight Computer/aircraft/x10_h_cfg.ks (inferred preloaded)
10.82,APPROACH,ILS_TRACK,149.63,152,2.37,681.34,602.67,-0.49,9.9,10.08,269.94,0.019,0.3277,0,18.522,1,0.6,4.5,0.75,0.35,0.0168,0.4,0,22.562,0,-2.38,0,269.94,0,0,1,-0.2,0,0,0,269.95,0.6516,-0.001,-0.7586,0,269.94,2.45,-460.82,20.377,-0.059,0,0,3,742.87,7.8,0,1142.18,0,0,0,,0,NONE,0,0,0,0,0,0,0,0,0,0,0,602.67,0,0,0,0,0,0,0,0,0,269.8,0,0,0,0,0,0,0,0,0,0,0,0,0,3,3,0,0,VALID,0,0,0,0,0,1,0,0,0,0,0,0,0,0,0,0,0,0,0,0,344.87,1066.18,2,0,0.08,0.08,106,10,0.12,0.08,10.82,FLYING,X10-H,0:/Integrated Flight Computer/aircraft/x10_h_cfg.ks (inferred preloaded)
11.12,APPROACH,ILS_TRACK,149.76,152,2.24,681.18,602.52,-0.44,9.87,10.03,269.94,0.021,0.327,0,19.209,1,0.6,4.5,0.75,0.35,0.0168,0.4,0,22.524,0,-2.248,0,269.95,0,0,1,-0.18,0,0,0,269.95,0.6515,-0.0008,-0.7587,0,269.95,2.4,-458.49,20.329,-0.047,0,0,3,742.87,7.837,0,1139.69,0,0,0,,0,NONE,0,0,0,0,0,0,0,0,0,0,0,602.52,0,0,0,0,0,0,0,0,0,269.8,0,0,0,0,0,0,0,0,0,0,0,0,0,3,3,0,0,VALID,0,0,0,0,0,1,0,0,0,0,0,0,0,0,0,0,0,0,0,0,345.36,1066.74,2,0,0.08,0.08,109,10,0.12,0.08,11.12,FLYING,X10-H,0:/Integrated Flight Computer/aircraft/x10_h_cfg.ks (inferred preloaded)
11.42,APPROACH,ILS_TRACK,149.9,152,2.1,681.03,602.39,-0.44,9.8,9.97,269.94,0.023,0.3233,0,19.857,1,0.6,4.5,0.75,0.35,0.0168,0.4,0,22.486,0,-2.11,0,269.95,0,0,1,-0.17,0,0,0,269.95,0.6514,-0.0008,-0.7587,0,269.95,2.35,-456.14,20.281,-0.047,0,0,3,742.87,7.859,0,1137.2,0,0,0,,0,NONE,0,0,0,0,0,0,0,0,0,0,0,602.39,0,0,0,0,0,0,0,0,0,269.8,0,0,0,0,0,0,0,0,0,0,0,0,0,3,3,0,0,VALID,0,0,0,0,0,1,0,0,0,0,0,0,0,0,0,0,0,0,0,0,345.77,1067.33,2,0,0.08,0.08,112,10,0.12,0.08,11.42,FLYING,X10-H,0:/Integrated Flight Computer/aircraft/x10_h_cfg.ks (inferred preloaded)
11.72,APPROACH,ILS_TRACK,150.05,152,1.95,680.9,602.26,-0.4,9.78,9.92,269.94,0.026,0.3095,0,20,1,0.6,4.5,0.75,0.35,0.0168,0.4,0,22.445,0,-1.965,0,269.95,0,0,1,-0.16,0,0,0,269.95,0.6514,-0.0009,-0.7588,0,269.95,2.3,-453.78,20.234,-0.051,0,0,3,742.87,7.906,0,1134.7,0,0,0,,0,NONE,0,0,0,0,0,0,0,0,0,0,0,602.26,0,0,0,0,0,0,0,0,0,269.8,0,0,0,0,0,0,0,0,0,0,0,0,0,3,3,0,0,VALID,0,0,0,0,0,1,0,0,0,0,0,0,0,0,0,0,0,0,0,0,345.58,1067.95,2,0,0.08,0.08,115,10,0.12,0.08,11.72,FLYING,X10-H,0:/Integrated Flight Computer/aircraft/x10_h_cfg.ks (inferred preloaded)
12.02,APPROACH,ILS_TRACK,150.19,152,1.81,680.78,602.14,-0.38,9.76,9.9,269.94,0.027,0.2974,0,20,1,0.6,4.5,0.75,0.35,0.0168,0.4,0,22.404,0,-1.82,0,269.95,0,0,1,-0.15,0,0,0,269.95,0.6513,-0.0009,-0.7588,0,269.95,2.25,-451.41,20.186,-0.053,0,0,3,742.87,7.927,0,1132.2,0,0,0,,0,NONE,0,0,0,0,0,0,0,0,0,0,0,602.14,0,0,0,0,0,0,0,0,0,269.8,0,0,0,0,0,0,0,0,0,0,0,0,0,3,3,0,0,VALID,0,0,0,0,0,1,0,0,0,0,0,0,0,0,0,0,0,0,0,0,343.92,1068.56,2,0,0.08,0.08,118,10,0.12,0.08,12.02,FLYING,X10-H,0:/Integrated Flight Computer/aircraft/x10_h_cfg.ks (inferred preloaded)
12.32,APPROACH,ILS_TRACK,150.33,152,1.67,680.66,602.03,-0.4,9.72,9.88,269.94,0.028,0.2902,0,20,1,0.6,4.5,0.75,0.35,0.0168,0.4,0,22.365,0,-1.683,0,269.96,0,0,1,-0.16,0,0,0,269.96,0.6513,-0.0008,-0.7589,0,269.96,2.19,-449.03,20.138,-0.044,0,0,3,742.87,8.014,0,1129.7,0,0,0,,0,NONE,0,0,0,0,0,0,0,0,0,0,0,602.03,0,0,0,0,0,0,0,0,0,269.8,0,0,0,0,0,0,0,0,0,0,0,0,0,3,3,0,0,VALID,0,0,0,0,0,1,0,0,0,0,0,0,0,0,0,0,0,0,0,0,341.31,1069.14,2,0,0.08,0.08,121,10,0.12,0.08,12.32,FLYING,X10-H,0:/Integrated Flight Computer/aircraft/x10_h_cfg.ks (inferred preloaded)
12.62,APPROACH,ILS_TRACK,150.45,152,1.55,680.55,601.93,-0.32,9.72,9.84,269.94,0.028,0.2906,0,20,1,0.6,4.5,0.75,0.35,0.0168,0.4,0,22.33,0,-1.557,0,269.96,0,0,1,-0.13,0,0,0,269.95,0.6512,-0.0007,-0.7589,0,269.96,2.14,-446.63,20.091,-0.039,0,0,3,742.87,7.984,0,1127.2,0,0,0,,0,NONE,0,0,0,0,0,0,0,0,0,0,0,601.93,0,0,0,0,0,0,0,0,0,269.8,0,0,0,0,0,0,0,0,0,0,0,0,0,3,3,0,0,VALID,0,0,0,0,0,1,0,0,0,0,0,0,0,0,0,0,0,0,0,0,338.33,1069.67,2,0,0.08,0.08,124,10,0.12,0.08,12.62,FLYING,X10-H,0:/Integrated Flight Computer/aircraft/x10_h_cfg.ks (inferred preloaded)
12.92,APPROACH,ILS_TRACK,150.58,152,1.42,680.45,601.83,-0.31,9.71,9.82,269.94,0.029,0.2865,0,20,1,0.6,4.5,0.75,0.35,0.0168,0.4,0,22.295,0,-1.432,0,269.96,0,0,1,-0.12,0,0,0,269.96,0.6511,-0.0007,-0.759,0,269.96,2.09,-444.23,20.043,-0.038,0,0,3,742.87,8.028,0,1124.7,0,0,0,,0,NONE,0,0,0,0,0,0,0,0,0,0,0,601.83,0,0,0,0,0,0,0,0,0,269.8,0,0,0,0,0,0,0,0,0,0,0,0,0,3,3,0,0,VALID,0,0,0,0,0,1,0,0,0,0,0,0,0,0,0,0,0,0,0,0,335.57,1070.2,2,0,0.08,0.08,127,10,0.12,0.08,12.92,FLYING,X10-H,0:/Integrated Flight Computer/aircraft/x10_h_cfg.ks (inferred preloaded)
13.22,APPROACH,ILS_TRACK,150.68,152,1.32,680.36,601.75,-0.24,9.7,9.78,269.94,0.03,0.2921,0,20,1,0.6,4.5,0.75,0.35,0.0168,0.4,0,22.264,0,-1.324,0,269.95,0,0,1,-0.09,0,0,0,269.96,0.6511,-0.0009,-0.759,0,269.95,2.04,-441.81,19.995,-0.051,0,0,3,742.87,7.968,0,1122.19,0,0,0,,0,NONE,0,0,0,0,0,0,0,0,0,0,0,601.75,0,0,0,0,0,0,0,0,0,269.8,0,0,0,0,0,0,0,0,0,0,0,0,0,3,3,0,0,VALID,0,0,0,0,0,1,0,0,0,0,0,0,0,0,0,0,0,0,0,0,332.79,1070.66,2,0,0.08,0.08,130,10,0.12,0.08,13.22,FLYING,X10-H,0:/Integrated Flight Computer/aircraft/x10_h_cfg.ks (inferred preloaded)
13.52,APPROACH,ILS_TRACK,150.78,152,1.22,680.31,601.65,-0.37,9.79,9.95,269.95,0.03,0.2932,0,20,1,0.6,4.5,0.75,0.35,0.0168,0.4,0,22.235,0,-1.222,0,269.96,0,0,1,-0.15,0,0,0,269.96,0.651,-0.0007,-0.7591,0,269.96,1.99,-439.37,19.947,-0.043,0,0,3,742.87,8.325,0,1119.68,0,0,0,,0,NONE,0,0,0,0,0,0,0,0,0,0,0,601.65,0,0,0,0,0,0,0,0,0,269.8,0,0,0,0,0,0,0,0,0,0,0,0,0,3,3,0,0,VALID,0,0,0,0,0,1,0,0,0,0,0,0,0,0,0,0,0,0,0,0,330.97,1071.1,2,0,0.08,0.08,133,10,0.12,0.08,13.52,FLYING,X10-H,0:/Integrated Flight Computer/aircraft/x10_h_cfg.ks (inferred preloaded)
13.82,APPROACH,ILS_TRACK,150.83,152,1.17,680.21,601.59,-0.13,9.76,9.78,269.95,0.03,0.328,0,20,1,0.6,4.5,0.75,0.35,0.0168,0.4,0,22.221,0,-1.172,0,269.96,0,0,1,-0.05,0,0,0,269.97,0.651,-0.0007,-0.7591,0,269.96,1.94,-436.94,19.899,-0.037,0,0,3,742.87,7.908,0,1117.17,0,0,0,,0,NONE,0,0,0,0,0,0,0,0,0,0,0,601.59,0,0,0,0,0,0,0,0,0,269.8,0,0,0,0,0,0,0,0,0,0,0,0,0,3,3,0,0,VALID,0,0,0,0,0,1,0,0,0,0,0,0,0,0,0,0,0,0,0,0,329.94,1071.3,2,0,0.08,0.08,136,10,0.12,0.08,13.82,FLYING,X10-H,0:/Integrated Flight Computer/aircraft/x10_h_cfg.ks (inferred preloaded)
14.12,APPROACH,ILS_TRACK,150.92,152,1.08,680.15,601.52,-0.25,9.71,9.82,269.95,0.032,0.3132,0,20,1,0.6,4.5,0.75,0.35,0.0168,0.4,0,22.196,0,-1.083,0,269.97,0,0,1,-0.11,0,0,0,269.96,0.6509,-0.0005,-0.7592,0,269.97,1.89,-434.51,19.852,-0.028,0,0,3,742.87,8.31,0,1114.66,0,0,0,,0,NONE,0,0,0,0,0,0,0,0,0,0,0,601.52,0,0,0,0,0,0,0,0,0,269.8,0,0,0,0,0,0,0,0,0,0,0,0,0,3,3,0,0,VALID,0,0,0,0,0,1,0,0,0,0,0,0,0,0,0,0,0,0,0,0,331.1,1071.69,2,0,0.08,0.08,139,10,0.12,0.08,14.12,FLYING,X10-H,0:/Integrated Flight Computer/aircraft/x10_h_cfg.ks (inferred preloaded)
14.42,APPROACH,ILS_TRACK,151,152,1,680.07,601.48,-0.17,9.62,9.68,269.95,0.031,0.3137,0,20,1,0.6,4.5,0.75,0.35,0.0168,0.4,0,22.175,0,-1.009,0,269.97,0,0,1,-0.06,0,0,0,269.96,0.6508,-0.0006,-0.7592,0,269.97,1.85,-432.07,19.804,-0.035,0,0,3,742.87,8.067,0,1112.15,0,0,0,,0,NONE,0,0,0,0,0,0,0,0,0,0,0,601.48,0,0,0,0,0,0,0,0,0,269.8,0,0,0,0,0,0,0,0,0,0,0,0,0,3,3,0,0,VALID,0,0,0,0,0,1,0,0,0,0,0,0,0,0,0,0,0,0,0,0,331.49,1072.01,2,0,0.08,0.08,142,10,0.12,0.08,14.42,FLYING,X10-H,0:/Integrated Flight Computer/aircraft/x10_h_cfg.ks (inferred preloaded)
14.72,APPROACH,ILS_TRACK,151.1,152,0.9,680.02,601.42,-0.17,9.64,9.69,269.95,0.031,0.2931,0,20,1,0.6,4.5,0.75,0.35,0.0168,0.4,0,22.146,0,-0.904,0,269.96,0,0,1,-0.06,0,0,0,269.97,0.6508,-0.0006,-0.7593,0,269.96,1.8,-429.61,19.756,-0.036,0,0,3,742.87,8.186,0,1109.64,0,0,0,,0,NONE,0,0,0,0,0,0,0,0,0,0,0,601.42,0,0,0,0,0,0,0,0,0,269.8,0,0,0,0,0,0,0,0,0,0,0,0,0,3,3,0,0,VALID,0,0,0,0,0,1,0,0,0,0,0,0,0,0,0,0,0,0,0,0,331.3,1072.45,2,0,0.08,0.08,145,10,0.12,0.08,14.72,FLYING,X10-H,0:/Integrated Flight Computer/aircraft/x10_h_cfg.ks (inferred preloaded)
15.02,APPROACH,ILS_TRACK,151.2,152,0.8,679.98,601.38,-0.14,9.64,9.7,269.95,0.031,0.2801,0,20,1,0.6,4.5,0.75,0.35,0.0168,0.4,0,22.117,0,-0.803,0,269.96,0,0,1,-0.06,0,0,0,269.97,0.6507,-0.0006,-0.7593,0,269.96,1.76,-427.14,19.708,-0.036,0,0,3,742.87,8.261,0,1107.13,0,0,0,,0,NONE,0,0,0,0,0,0,0,0,0,0,0,601.38,0,0,0,0,0,0,0,0,0,269.8,0,0,0,0,0,0,0,0,0,0,0,0,0,3,3,0,0,VALID,0,0,0,0,0,1,0,0,0,0,0,0,0,0,0,0,0,0,0,0,329.38,1072.88,2,0,0.08,0.08,148,10,0.12,0.08,15.02,FLYING,X10-H,0:/Integrated Flight Computer/aircraft/x10_h_cfg.ks (inferred preloaded)
15.32,APPROACH,ILS_TRACK,151.3,152,0.7,679.93,601.33,-0.14,9.62,9.67,269.95,0.031,0.2748,0,20,1,0.6,4.5,0.75,0.35,0.0168,0.4,0,22.091,0,-0.709,0,269.97,0,0,1,-0.05,0,0,0,269.97,0.6506,-0.0006,-0.7594,0,269.97,1.71,-424.68,19.66,-0.032,0,0,3,742.87,8.227,0,1104.61,0,0,0,,0,NONE,0,0,0,0,0,0,0,0,0,0,0,601.33,0,0,0,0,0,0,0,0,0,269.8,0,0,0,0,0,0,0,0,0,0,0,0,0,3,3,0,0,VALID,0,0,0,0,0,1,0,0,0,0,0,0,0,0,0,0,0,0,0,0,326.46,1073.28,2,0,0.08,0.08,151,10,0.12,0.08,15.32,FLYING,X10-H,0:/Integrated Flight Computer/aircraft/x10_h_cfg.ks (inferred preloaded)
15.62,APPROACH,ILS_TRACK,151.38,152,0.62,679.89,601.3,-0.12,9.62,9.66,269.95,0.032,0.2729,0,20,1,0.6,4.5,0.75,0.35,0.0168,0.4,0,22.066,0,-0.621,0,269.97,0,0,1,-0.04,0,0,0,269.97,0.6506,-0.0006,-0.7594,0,269.97,1.67,-422.2,19.612,-0.034,0,0,3,742.87,8.259,0,1102.09,0,0,0,,0,NONE,0,0,0,0,0,0,0,0,0,0,0,601.3,0,0,0,0,0,0,0,0,0,269.8,0,0,0,0,0,0,0,0,0,0,0,0,0,3,3,0,0,VALID,0,0,0,0,0,1,0,0,0,0,0,0,0,0,0,0,0,0,0,0,323.32,1073.65,2,0,0.08,0.08,154,10,0.12,0.08,15.62,FLYING,X10-H,0:/Integrated Flight Computer/aircraft/x10_h_cfg.ks (inferred preloaded)
15.92,APPROACH,ILS_TRACK,151.46,152,0.54,679.86,601.26,-0.11,9.61,9.64,269.95,0.032,0.2756,0,20,1,0.6,4.5,0.75,0.35,0.0168,0.4,0,22.044,0,-0.543,0,269.97,0,0,1,-0.04,0,0,0,269.97,0.6505,-0.0004,-0.7595,0,269.97,1.62,-419.71,19.564,-0.026,0,0,3,742.87,8.267,0,1099.57,0,0,0,,0,NONE,0,0,0,0,0,0,0,0,0,0,0,601.26,0,0,0,0,0,0,0,0,0,269.8,0,0,0,0,0,0,0,0,0,0,0,0,0,3,3,0,0,VALID,0,0,0,0,0,1,0,0,0,0,0,0,0,0,0,0,0,0,0,0,320.41,1073.98,2,0,0.08,0.08,157,10,0.12,0.08,15.92,FLYING,X10-H,0:/Integrated Flight Computer/aircraft/x10_h_cfg.ks (inferred preloaded)
16.22,APPROACH,ILS_TRACK,151.53,152,0.47,679.83,601.23,-0.09,9.61,9.65,269.95,0.033,0.2821,0,20,1,0.6,4.5,0.75,0.35,0.0168,0.4,0,22.025,0,-0.477,0,269.98,0,0,1,-0.04,0,0,0,269.98,0.6505,-0.0004,-0.7595,0,269.98,1.57,-417.22,19.516,-0.025,0,0,3,742.87,8.311,0,1097.06,0,0,0,,0,NONE,0,0,0,0,0,0,0,0,0,0,0,601.23,0,0,0,0,0,0,0,0,0,269.8,0,0,0,0,0,0,0,0,0,0,0,0,0,3,3,0,0,VALID,0,0,0,0,0,1,0,0,0,0,0,0,0,0,0,0,0,0,0,0,318.16,1074.26,2,0,0.08,0.08,160,10,0.12,0.08,16.22,FLYING,X10-H,0:/Integrated Flight Computer/aircraft/x10_h_cfg.ks (inferred preloaded)
16.52,APPROACH,ILS_TRACK,151.59,152,0.41,679.8,601.21,-0.07,9.6,9.64,269.95,0.033,0.2852,0,20,1,0.6,4.5,0.75,0.35,0.0168,0.4,0,22.008,0,-0.415,0,269.97,0,0,1,-0.03,0,0,0,269.97,0.6504,-0.0005,-0.7596,0,269.97,1.53,-414.73,19.467,-0.028,0,0,3,742.87,8.321,0,1094.53,0,0,0,,0,NONE,0,0,0,0,0,0,0,0,0,0,0,601.21,0,0,0,0,0,0,0,0,0,269.8,0,0,0,0,0,0,0,0,0,0,0,0,0,3,3,0,0,VALID,0,0,0,0,0,1,0,0,0,0,0,0,0,0,0,0,0,0,0,0,316.8,1074.52,2,0,0.08,0.08,163,10,0.12,0.08,16.52,FLYING,X10-H,0:/Integrated Flight Computer/aircraft/x10_h_cfg.ks (inferred preloaded)
16.82,APPROACH,ILS_TRACK,151.65,152,0.35,679.78,601.19,-0.04,9.59,9.6,269.95,0.032,0.2882,0,20,1,0.6,4.5,0.75,0.35,0.0168,0.4,0,21.992,0,-0.358,0,269.98,0,0,1,-0.01,0,0,0,269.97,0.6503,-0.0004,-0.7596,0,269.98,1.49,-412.23,19.419,-0.021,0,0,3,742.87,8.311,0,1092.01,0,0,0,,0,NONE,0,0,0,0,0,0,0,0,0,0,0,601.19,0,0,0,0,0,0,0,0,0,269.8,0,0,0,0,0,0,0,0,0,0,0,0,0,3,3,0,0,VALID,0,0,0,0,0,1,0,0,0,0,0,0,0,0,0,0,0,0,0,0,315.88,1074.76,2,0,0.08,0.08,166,10,0.12,0.08,16.82,FLYING,X10-H,0:/Integrated Flight Computer/aircraft/x10_h_cfg.ks (inferred preloaded)
17.12,APPROACH,ILS_TRACK,151.7,152,0.3,679.76,601.18,-0.04,9.6,9.61,269.95,0.032,0.2893,0,20,1,0.6,4.5,0.75,0.35,0.0168,0.4,0,21.977,0,-0.304,0,269.98,0,0,1,-0.02,0,0,0,269.99,0.6503,-0.0004,-0.7597,0,269.98,1.44,-409.72,19.371,-0.024,0,0,3,742.87,8.358,0,1089.49,0,0,0,,0,NONE,0,0,0,0,0,0,0,0,0,0,0,601.18,0,0,0,0,0,0,0,0,0,269.8,0,0,0,0,0,0,0,0,0,0,0,0,0,3,3,0,0,VALID,0,0,0,0,0,1,0,0,0,0,0,0,0,0,0,0,0,0,0,0,315.37,1074.99,2,0,0.08,0.08,169,10,0.12,0.08,17.12,FLYING,X10-H,0:/Integrated Flight Computer/aircraft/x10_h_cfg.ks (inferred preloaded)
17.42,APPROACH,ILS_TRACK,151.75,152,0.25,679.75,601.17,-0.03,9.59,9.6,269.95,0.033,0.2872,0,20,1,0.6,4.5,0.75,0.35,0.0168,0.4,0,21.961,0,-0.249,0,269.98,0,0,1,-0.01,0,0,0,269.97,0.6502,-0.0003,-0.7597,0,269.98,1.4,-407.22,19.323,-0.016,0,0,3,742.87,8.375,0,1086.97,0,0,0,,0,NONE,0,0,0,0,0,0,0,0,0,0,0,601.17,0,0,0,0,0,0,0,0,0,269.8,0,0,0,0,0,0,0,0,0,0,0,0,0,3,3,0,0,VALID,0,0,0,0,0,1,0,0,0,0,0,0,0,0,0,0,0,0,0,0,314.95,1075.22,2,0,0.08,0.08,172,10,0.12,0.08,17.42,FLYING,X10-H,0:/Integrated Flight Computer/aircraft/x10_h_cfg.ks (inferred preloaded)
17.72,APPROACH,ILS_TRACK,151.81,152,0.19,679.74,601.16,-0.02,9.58,9.59,269.96,0.033,0.2845,0,20,1,0.6,4.5,0.75,0.35,0.0168,0.4,0,21.946,0,-0.194,0,269.98,0,0,1,-0.01,0,0,0,269.98,0.6502,-0.0004,-0.7598,0,269.98,1.36,-404.7,19.275,-0.023,0,0,3,742.87,8.385,0,1084.44,0,0,0,,0,NONE,0,0,0,0,0,0,0,0,0,0,0,601.16,0,0,0,0,0,0,0,0,0,269.8,0,0,0,0,0,0,0,0,0,0,0,0,0,3,3,0,0,VALID,0,0,0,0,0,1,0,0,0,0,0,0,0,0,0,0,0,0,0,0,314.32,1075.45,2,0,0.08,0.08,175,10,0.12,0.08,17.72,FLYING,X10-H,0:/Integrated Flight Computer/aircraft/x10_h_cfg.ks (inferred preloaded)
18.02,APPROACH,ILS_TRACK,151.86,152,0.14,679.74,601.15,-0.01,9.58,9.58,269.96,0.033,0.2823,0,20,1,0.6,4.5,0.75,0.35,0.0168,0.4,0,21.931,0,-0.141,0,269.99,0,0,1,0,0,0,0,269.98,0.6501,-0.0002,-0.7598,0,269.99,1.32,-402.18,19.227,-0.014,0,0,3,742.87,8.406,0,1081.92,0,0,0,,0,NONE,0,0,0,0,0,0,0,0,0,0,0,601.15,0,0,0,0,0,0,0,0,0,269.8,0,0,0,0,0,0,0,0,0,0,0,0,0,3,3,0,0,VALID,0,0,0,0,0,1,0,0,0,0,0,0,0,0,0,0,0,0,0,0,313.47,1075.68,2,0,0.08,0.08,178,10,0.12,0.08,18.02,FLYING,X10-H,0:/Integrated Flight Computer/aircraft/x10_h_cfg.ks (inferred preloaded)
18.32,APPROACH,ILS_TRACK,151.91,152,0.09,679.74,601.16,0.01,9.57,9.57,269.96,0.032,0.2813,0,20,1,0.6,4.5,0.75,0.35,0.0168,0.4,0,21.916,0,-0.09,0,269.99,0,0,1,0,0,0,0,269.98,0.65,-0.0002,-0.7599,0,269.99,1.28,-399.66,19.179,-0.014,0,0,3,742.87,8.421,0,1079.39,0,0,0,,0,NONE,0,0,0,0,0,0,0,0,0,0,0,601.16,0,0,0,0,0,0,0,0,0,269.8,0,0,0,0,0,0,0,0,0,0,0,0,0,3,3,0,0,VALID,0,0,0,0,0,1,0,0,0,0,0,0,0,0,0,0,0,0,0,0,312.51,1075.89,2,0,0.08,0.08,181,10,0.12,0.08,18.32,FLYING,X10-H,0:/Integrated Flight Computer/aircraft/x10_h_cfg.ks (inferred preloaded)
18.62,APPROACH,ILS_TRACK,151.96,152,0.04,679.74,601.16,0.02,9.57,9.56,269.96,0.033,0.281,0,20,1,0.6,4.5,0.75,0.35,0.0168,0.4,0,21.903,0,-0.043,0,269.98,0,0,1,0.01,0,0,0,269.98,0.65,-0.0003,-0.76,0,269.98,1.24,-397.13,19.13,-0.017,0,0,3,742.87,8.434,0,1076.87,0,0,0,,0,NONE,0,0,0,0,0,0,0,0,0,0,0,601.16,0,0,0,0,0,0,0,0,0,269.8,0,0,0,0,0,0,0,0,0,0,0,0,0,3,3,0,0,VALID,0,0,0,0,0,1,0,0,0,0,0,0,0,0,0,0,0,0,0,0,311.55,1076.09,2,0,0.08,0.08,184,10,0.12,0.08,18.62,FLYING,X10-H,0:/Integrated Flight Computer/aircraft/x10_h_cfg.ks (inferred preloaded)
18.92,APPROACH,ILS_TRACK,152,152,0,679.75,601.17,0.03,9.57,9.56,269.96,0.033,0.2811,0,20,1,0.6,4.5,0.75,0.35,0.0168,0.4,0,21.891,0,0.001,0,269.99,0,0,1,0.01,0,0,0,269.98,0.6499,-0.0002,-0.76,0,269.99,1.2,-394.59,19.082,-0.011,0,0,3,742.87,8.451,0,1074.34,0,0,0,,0,NONE,0,0,0,0,0,0,0,0,0,0,0,601.17,0,0,0,0,0,0,0,0,0,269.8,0,0,0,0,0,0,0,0,0,0,0,0,0,3,3,0,0,VALID,0,0,0,0,0,1,0,0,0,0,0,0,0,0,0,0,0,0,0,0,310.67,1076.27,2,0,0.08,0.08,187,10,0.12,0.08,18.92,FLYING,X10-H,0:/Integrated Flight Computer/aircraft/x10_h_cfg.ks (inferred preloaded)
19.22,APPROACH,ILS_TRACK,152.05,152,-0.05,679.76,601.18,0.04,9.56,9.55,269.96,0.033,0.2813,0,19.991,1,0.6,4.5,0.75,0.35,0.0168,0.4,0,21.879,0,0.043,0,269.98,0,0,1,0.02,0,0,0,269.99,0.6499,-0.0003,-0.7601,0,269.98,1.16,-392.06,19.034,-0.015,0,0,3,742.87,8.463,0,1071.81,0,0,0,,0,NONE,0,0,0,0,0,0,0,0,0,0,0,601.18,0,0,0,0,0,0,0,0,0,269.8,0,0,0,0,0,0,0,0,0,0,0,0,0,3,3,0,0,VALID,0,0,0,0,0,1,0,0,0,0,0,0,0,0,0,0,0,0,0,0,309.91,1076.45,2,0,0.08,0.08,190,10,0.12,0.08,19.22,FLYING,X10-H,0:/Integrated Flight Computer/aircraft/x10_h_cfg.ks (inferred preloaded)
19.52,APPROACH,ILS_TRACK,152.08,152,-0.08,679.77,601.19,0.06,9.56,9.54,269.96,0.033,0.2813,0,19.97,1,0.6,4.5,0.75,0.35,0.0168,0.4,0,21.868,0,0.082,0,269.99,0,0,1,0.02,0,0,0,269.99,0.6498,-0.0002,-0.7601,0,269.99,1.13,-389.51,18.986,-0.011,0,0,3,742.87,8.479,0,1069.28,0,0,0,,0,NONE,0,0,0,0,0,0,0,0,0,0,0,601.19,0,0,0,0,0,0,0,0,0,269.8,0,0,0,0,0,0,0,0,0,0,0,0,0,3,3,0,0,VALID,0,0,0,0,0,1,0,0,0,0,0,0,0,0,0,0,0,0,0,0,309.23,1076.61,2,0,0.08,0.08,193,10,0.12,0.08,19.52,FLYING,X10-H,0:/Integrated Flight Computer/aircraft/x10_h_cfg.ks (inferred preloaded)
19.82,APPROACH,ILS_TRACK,152.12,152,-0.12,679.79,601.21,0.07,9.56,9.54,269.96,0.033,0.2809,0,19.938,1,0.6,4.5,0.75,0.35,0.0168,0.4,0,21.857,0,0.119,0,269.99,0,0,1,0.02,0,0,0,269.99,0.6497,-0.0002,-0.7602,0,269.99,1.09,-386.97,18.937,-0.011,0,0,3,742.87,8.491,0,1066.76,0,0,0,,0,NONE,0,0,0,0,0,0,0,0,0,0,0,601.21,0,0,0,0,0,0,0,0,0,269.8,0,0,0,0,0,0,0,0,0,0,0,0,0,3,3,0,0,VALID,0,0,0,0,0,1,0,0,0,0,0,0,0,0,0,0,0,0,0,0,308.62,1076.76,2,0,0.08,0.08,196,10,0.12,0.08,19.82,FLYING,X10-H,0:/Integrated Flight Computer/aircraft/x10_h_cfg.ks (inferred preloaded)
20.12,APPROACH,ILS_TRACK,152.16,152,-0.16,679.81,601.23,0.08,9.56,9.53,269.96,0.034,0.2802,0,19.896,1,0.6,4.5,0.75,0.35,0.0168,0.4,0,21.848,0,0.154,0,269.99,0,0,1,0.03,0,0,0,269.98,0.6497,-0.0002,-0.7602,0,269.99,1.05,-384.42,18.889,-0.009,0,0,3,742.87,8.503,0,1064.23,0,0,0,,0,NONE,0,0,0,0,0,0,0,0,0,0,0,601.23,0,0,0,0,0,0,0,0,0,269.8,0,0,0,0,0,0,0,0,0,0,0,0,0,3,3,0,0,VALID,0,0,0,0,0,1,0,0,0,0,0,0,0,0,0,0,0,0,0,0,308.02,1076.91,2,0,0.08,0.08,199,10,0.12,0.08,20.12,FLYING,X10-H,0:/Integrated Flight Computer/aircraft/x10_h_cfg.ks (inferred preloaded)
20.42,APPROACH,ILS_TRACK,152.19,152,-0.19,679.84,601.26,0.09,9.55,9.52,269.96,0.035,0.2793,0,19.843,1,0.6,4.5,0.75,0.35,0.0168,0.4,0,21.838,0,0.187,0,269.99,0,0,1,0.03,0,0,0,269.99,0.6496,-0.0001,-0.7603,0,269.99,1.02,-381.86,18.841,-0.007,0,0,3,742.87,8.517,0,1061.7,0,0,0,,0,NONE,0,0,0,0,0,0,0,0,0,0,0,601.26,0,0,0,0,0,0,0,0,0,269.8,0,0,0,0,0,0,0,0,0,0,0,0,0,3,3,0,0,VALID,0,0,0,0,0,1,0,0,0,0,0,0,0,0,0,0,0,0,0,0,307.39,1077.05,2,0,0.08,0.08,202,10,0.12,0.08,20.42,FLYING,X10-H,0:/Integrated Flight Computer/aircraft/x10_h_cfg.ks (inferred preloaded)
20.72,APPROACH,ILS_TRACK,152.22,152,-0.22,679.86,601.29,0.1,9.55,9.52,269.96,0.035,0.2784,0,19.78,1,0.6,4.5,0.75,0.35,0.0168,0.4,0,21.829,0,0.218,0,269.99,0,0,1,0.04,0,0,0,269.99,0.6495,-0.0001,-0.7603,0,269.99,0.98,-379.3,18.793,-0.008,0,0,3,742.87,8.535,0,1059.17,0,0,0,,0,NONE,0,0,0,0,0,0,0,0,0,0,0,601.29,0,0,0,0,0,0,0,0,0,269.8,0,0,0,0,0,0,0,0,0,0,0,0,0,3,3,0,0,VALID,0,0,0,0,0,1,0,0,0,0,0,0,0,0,0,0,0,0,0,0,306.74,1077.18,2,0,0.08,0.08,205,10,0.12,0.08,20.72,FLYING,X10-H,0:/Integrated Flight Computer/aircraft/x10_h_cfg.ks (inferred preloaded)
21.02,APPROACH,ILS_TRACK,152.25,152,-0.25,679.9,601.32,0.11,9.55,9.51,269.96,0.035,0.2775,0,19.709,1,0.6,4.5,0.75,0.35,0.0168,0.4,0,21.821,0,0.247,0,269.99,0,0,1,0.04,0,0,0,269.99,0.6495,-0.0002,-0.7604,0,269.99,0.95,-376.74,18.744,-0.01,0,0,3,742.87,8.539,0,1056.63,0,0,0,,0,NONE,0,0,0,0,0,0,0,0,0,0,0,601.32,0,0,0,0,0,0,0,0,0,269.8,0,0,0,0,0,0,0,0,0,0,0,0,0,3,3,0,0,VALID,0,0,0,0,0,1,0,0,0,0,0,0,0,0,0,0,0,0,0,0,306.05,1077.3,2,0,0.08,0.08,208,10,0.12,0.08,21.02,FLYING,X10-H,0:/Integrated Flight Computer/aircraft/x10_h_cfg.ks (inferred preloaded)
21.32,APPROACH,ILS_TRACK,152.28,152,-0.28,679.93,601.35,0.12,9.55,9.51,269.96,0.036,0.2767,0,19.629,1,0.6,4.5,0.75,0.35,0.0168,0.4,0,21.814,0,0.274,0,270,0,0,1,0.04,0,0,0,269.99,0.6494,-0.0001,-0.7604,0,270,0.91,-374.18,18.696,-0.004,0,0,3,742.87,8.556,0,1054.1,0,0,0,,0,NONE,0,0,0,0,0,0,0,0,0,0,0,601.35,0,0,0,0,0,0,0,0,0,269.8,0,0,0,0,0,0,0,0,0,0,0,0,0,3,3,0,0,VALID,0,0,0,0,0,1,0,0,0,0,0,0,0,0,0,0,0,0,0,0,305.33,1077.41,2,0,0.08,0.08,211,10,0.12,0.08,21.32,FLYING,X10-H,0:/Integrated Flight Computer/aircraft/x10_h_cfg.ks (inferred preloaded)
21.62,APPROACH,ILS_TRACK,152.3,152,-0.3,679.97,601.39,0.13,9.55,9.5,269.97,0.038,0.276,0,19.542,1,0.6,4.5,0.75,0.35,0.0168,0.4,0,21.807,0,0.299,0,270,0,0,1,0.05,0,0,0,269.99,0.6494,-0.0001,-0.7605,0,270,0.88,-371.61,18.648,-0.004,0,0,3,742.87,8.565,0,1051.57,0,0,0,,0,NONE,0,0,0,0,0,0,0,0,0,0,0,601.39,0,0,0,0,0,0,0,0,0,269.8,0,0,0,0,0,0,0,0,0,0,0,0,0,3,3,0,0,VALID,0,0,0,0,0,1,0,0,0,0,0,0,0,0,0,0,0,0,0,0,304.61,1077.51,2,0,0.08,0.08,214,10,0.12,0.08,21.62,FLYING,X10-H,0:/Integrated Flight Computer/aircraft/x10_h_cfg.ks (inferred preloaded)
21.92,APPROACH,ILS_TRACK,152.32,152,-0.32,680.01,601.43,0.14,9.55,9.5,269.97,0.039,0.2756,0,19.448,1,0.6,4.5,0.75,0.35,0.0168,0.4,0,21.8,0,0.321,0,269.99,0,0,1,0.05,0,0,0,269.99,0.6493,-0.0002,-0.7605,0,269.99,0.85,-369.04,18.599,-0.009,0,0,3,742.87,8.576,0,1049.04,0,0,0,,0,NONE,0,0,0,0,0,0,0,0,0,0,0,601.43,0,0,0,0,0,0,0,0,0,269.8,0,0,0,0,0,0,0,0,0,0,0,0,0,3,3,0,0,VALID,0,0,0,0,0,1,0,0,0,0,0,0,0,0,0,0,0,0,0,0,303.89,1077.6,2,0,0.08,0.08,217,10,0.12,0.08,21.92,FLYING,X10-H,0:/Integrated Flight Computer/aircraft/x10_h_cfg.ks (inferred preloaded)
22.22,APPROACH,ILS_TRACK,152.34,152,-0.34,680.05,601.48,0.15,9.54,9.49,269.97,0.041,0.2751,0,19.347,1,0.6,4.5,0.75,0.35,0.0168,0.4,0,21.795,0,0.342,0,270,0,0,1,0.06,0,0,0,269.99,0.6492,-0.0001,-0.7606,0,270,0.81,-366.46,18.551,-0.003,0,0,3,742.87,8.586,0,1046.51,0,0,0,,0,NONE,0,0,0,0,0,0,0,0,0,0,0,601.48,0,0,0,0,0,0,0,0,0,269.8,0,0,0,0,0,0,0,0,0,0,0,0,0,3,3,0,0,VALID,0,0,0,0,0,1,0,0,0,0,0,0,0,0,0,0,0,0,0,0,303.2,1077.68,2,0,0.08,0.08,220,10,0.12,0.08,22.22,FLYING,X10-H,0:/Integrated Flight Computer/aircraft/x10_h_cfg.ks (inferred preloaded)
22.52,APPROACH,ILS_TRACK,152.36,152,-0.36,680.1,601.52,0.16,9.54,9.49,269.97,0.042,0.2746,0,19.241,1,0.6,4.5,0.75,0.35,0.0168,0.4,0,21.79,0,0.36,0,270,0,0,1,0.06,0,0,0,269.99,0.6492,-0.0001,-0.7606,0,270,0.78,-363.88,18.503,-0.004,0,0,3,742.87,8.599,0,1043.97,0,0,0,,0,NONE,0,0,0,0,0,0,0,0,0,0,0,601.52,0,0,0,0,0,0,0,0,0,269.8,0,0,0,0,0,0,0,0,0,0,0,0,0,3,3,0,0,VALID,0,0,0,0,0,1,0,0,0,0,0,0,0,0,0,0,0,0,0,0,302.52,1077.75,2,0,0.08,0.08,223,10,0.12,0.08,22.52,FLYING,X10-H,0:/Integrated Flight Computer/aircraft/x10_h_cfg.ks (inferred preloaded)
22.82,APPROACH,ILS_TRACK,152.38,152,-0.38,680.15,601.57,0.17,9.54,9.49,269.97,0.043,0.2741,0,19.13,1,0.6,4.5,0.75,0.35,0.0168,0.4,0,21.785,0,0.376,0,270.01,0,0,1,0.06,0,0,0,269.99,0.6491,0.0001,-0.7607,0,270.01,0.75,-361.3,18.454,0.007,0,0,3,742.87,8.611,0,1041.44,0,0,0,,0,NONE,0,0,0,0,0,0,0,0,0,0,0,601.57,0,0,0,0,0,0,0,0,0,269.8,0,0,0,0,0,0,0,0,0,0,0,0,0,3,3,0,0,VALID,0,0,0,0,0,1,0,0,0,0,0,0,0,0,0,0,0,0,0,0,301.86,1077.82,2,0,0.08,0.08,226,10,0.12,0.08,22.82,FLYING,X10-H,0:/Integrated Flight Computer/aircraft/x10_h_cfg.ks (inferred preloaded)
23.12,APPROACH,ILS_TRACK,152.39,152,-0.39,680.2,601.62,0.18,9.54,9.48,269.97,0.046,0.2737,0,19.014,1,0.6,4.5,0.75,0.35,0.0168,0.4,0,21.781,0,0.389,0,269.99,0,0,1,0.06,0,0,0,270,0.6491,-0.0001,-0.7607,0,269.99,0.72,-358.72,18.406,-0.006,0,0,3,742.87,8.625,0,1038.91,0,0,0,,0,NONE,0,0,0,0,0,0,0,0,0,0,0,601.62,0,0,0,0,0,0,0,0,0,269.8,0,0,0,0,0,0,0,0,0,0,0,0,0,3,3,0,0,VALID,0,0,0,0,0,1,0,0,0,0,0,0,0,0,0,0,0,0,0,0,301.22,1077.87,2,0,0.08,0.08,229,10,0.12,0.08,23.12,FLYING,X10-H,0:/Integrated Flight Computer/aircraft/x10_h_cfg.ks (inferred preloaded)
23.42,APPROACH,ILS_TRACK,152.4,152,-0.4,680.25,601.68,0.2,9.53,9.46,269.97,0.046,0.2737,0,18.895,1,0.6,4.5,0.75,0.35,0.0168,0.4,0,21.778,0,0.4,0,270,0,0,1,0.07,0,0,0,270,0.649,-0.0001,-0.7608,0,270,0.69,-356.13,18.358,-0.004,0,0,3,742.87,8.611,0,1036.37,0,0,0,,0,NONE,0,0,0,0,0,0,0,0,0,0,0,601.68,0,0,0,0,0,0,0,0,0,269.8,0,0,0,0,0,0,0,0,0,0,0,0,0,3,3,0,0,VALID,0,0,0,0,0,1,0,0,0,0,0,0,0,0,0,0,0,0,0,0,300.6,1077.91,2,0,0.08,0.08,232,10,0.12,0.08,23.42,FLYING,X10-H,0:/Integrated Flight Computer/aircraft/x10_h_cfg.ks (inferred preloaded)
23.72,APPROACH,ILS_TRACK,152.41,152,-0.41,680.31,601.73,0.19,9.55,9.48,269.97,0.046,0.2743,0,18.773,1,0.6,4.5,0.75,0.35,0.0168,0.4,0,21.776,0,0.409,0,270,0,0,1,0.07,0,0,0,270,0.6489,0,-0.7608,0,270,0.66,-353.54,18.309,-0.002,0,0,3,742.87,8.637,0,1033.84,0,0,0,,0,NONE,0,0,0,0,0,0,0,0,0,0,0,601.73,0,0,0,0,0,0,0,0,0,269.8,0,0,0,0,0,0,0,0,0,0,0,0,0,3,3,0,0,VALID,0,0,0,0,0,1,0,0,0,0,0,0,0,0,0,0,0,0,0,0,300.05,1077.94,2,0,0.08,0.08,235,10,0.12,0.08,23.72,FLYING,X10-H,0:/Integrated Flight Computer/aircraft/x10_h_cfg.ks (inferred preloaded)
24.02,APPROACH,ILS_TRACK,152.42,152,-0.42,680.36,601.79,0.2,9.54,9.47,269.97,0.046,0.2737,0,18.649,1,0.6,4.5,0.75,0.35,0.0168,0.4,0,21.774,0,0.416,0,269.99,0,0,1,0.08,0,0,0,270,0.6489,-0.0001,-0.7609,0,269.99,0.64,-350.95,18.261,-0.006,0,0,3,742.87,8.636,0,1031.31,0,0,0,,0,NONE,0,0,0,0,0,0,0,0,0,0,0,601.79,0,0,0,0,0,0,0,0,0,269.8,0,0,0,0,0,0,0,0,0,0,0,0,0,3,3,0,0,VALID,0,0,0,0,0,1,0,0,0,0,0,0,0,0,0,0,0,0,0,0,299.59,1077.97,2,0,0.08,0.08,238,10,0.12,0.08,24.02,FLYING,X10-H,0:/Integrated Flight Computer/aircraft/x10_h_cfg.ks (inferred preloaded)
24.32,APPROACH,ILS_TRACK,152.42,152,-0.42,680.42,601.85,0.21,9.55,9.48,269.98,0.047,0.274,0,18.524,1,0.6,4.5,0.75,0.35,0.0168,0.4,0,21.772,0,0.421,0,270,0,0,1,0.07,0,0,0,270,0.6488,-0.0001,-0.7609,0,270,0.61,-348.36,18.213,-0.004,0,0,3,742.87,8.659,0,1028.77,0,0,0,,0,NONE,0,0,0,0,0,0,0,0,0,0,0,601.85,0,0,0,0,0,0,0,0,0,269.8,0,0,0,0,0,0,0,0,0,0,0,0,0,3,3,0,0,VALID,0,0,0,0,0,1,0,0,0,0,0,0,0,0,0,0,0,0,0,0,299.13,1077.98,2,0,0.08,0.08,241,10,0.12,0.08,24.32,FLYING,X10-H,0:/Integrated Flight Computer/aircraft/x10_h_cfg.ks (inferred preloaded)
24.62,APPROACH,ILS_TRACK,152.42,152,-0.42,680.49,601.91,0.19,9.54,9.48,269.98,0.047,0.2737,0,18.397,1,0.6,4.5,0.75,0.35,0.0168,0.4,0,21.771,0,0.424,0,270,0,0,1,0.07,0,0,0,270,0.6488,0,-0.761,0,270,0.58,-345.76,18.164,0.001,0,0,3,742.87,8.651,0,1026.24,0,0,0,,0,NONE,0,0,0,0,0,0,0,0,0,0,0,601.91,0,0,0,0,0,0,0,0,0,269.8,0,0,0,0,0,0,0,0,0,0,0,0,0,3,3,0,0,VALID,0,0,0,0,0,1,0,0,0,0,0,0,0,0,0,0,0,0,0,0,298.73,1077.99,2,0,0.08,0.08,244,10,0.12,0.08,24.62,FLYING,X10-H,0:/Integrated Flight Computer/aircraft/x10_h_cfg.ks (inferred preloaded)
24.92,APPROACH,ILS_TRACK,152.42,152,-0.42,680.55,601.97,0.22,9.55,9.47,269.98,0.047,0.2739,0,18.269,1,0.6,4.5,0.75,0.35,0.0168,0.4,0,21.771,0,0.425,0,270,0,0,1,0.09,0,0,0,270,0.6487,0,-0.7611,0,270,0.56,-343.16,18.116,0.001,0,0,3,742.87,8.649,0,1023.7,0,0,0,,0,NONE,0,0,0,0,0,0,0,0,0,0,0,601.97,0,0,0,0,0,0,0,0,0,269.8,0,0,0,0,0,0,0,0,0,0,0,0,0,3,3,0,0,VALID,0,0,0,0,0,1,0,0,0,0,0,0,0,0,0,0,0,0,0,0,298.35,1077.99,2,0,0.08,0.08,247,10,0.12,0.08,24.92,FLYING,X10-H,0:/Integrated Flight Computer/aircraft/x10_h_cfg.ks (inferred preloaded)
25.22,APPROACH,ILS_TRACK,152.43,152,-0.43,680.62,602.04,0.22,9.55,9.47,269.98,0.048,0.2727,0,18.142,1,0.6,4.5,0.75,0.35,0.0168,0.4,0,21.771,0,0.426,0,270,0,0,1,0.08,0,0,0,270,0.6486,0.0001,-0.7611,0,270,0.53,-340.56,18.068,0.004,0,0,3,742.87,8.663,0,1021.17,0,0,0,,0,NONE,0,0,0,0,0,0,0,0,0,0,0,602.04,0,0,0,0,0,0,0,0,0,269.8,0,0,0,0,0,0,0,0,0,0,0,0,0,3,3,0,0,VALID,0,0,0,0,0,1,0,0,0,0,0,0,0,0,0,0,0,0,0,0,298,1077.99,2,0,0.08,0.08,250,10,0.12,0.08,25.22,FLYING,X10-H,0:/Integrated Flight Computer/aircraft/x10_h_cfg.ks (inferred preloaded)
25.52,APPROACH,ILS_TRACK,152.43,152,-0.43,680.68,602.11,0.23,9.55,9.47,269.98,0.049,0.2708,0,18.014,1,0.6,4.5,0.75,0.35,0.0168,0.4,0,21.771,0,0.427,0,269.99,0,0,1,0.09,0,0,0,270,0.6486,-0.0001,-0.7612,0,269.99,0.51,-337.96,18.019,-0.007,0,0,3,742.87,8.667,0,1018.63,0,0,0,,0,NONE,0,0,0,0,0,0,0,0,0,0,0,602.11,0,0,0,0,0,0,0,0,0,269.8,0,0,0,0,0,0,0,0,0,0,0,0,0,3,3,0,0,VALID,0,0,0,0,0,1,0,0,0,0,0,0,0,0,0,0,0,0,0,0,297.54,1077.99,2,0,0.08,0.08,253,10,0.12,0.08,25.52,FLYING,X10-H,0:/Integrated Flight Computer/aircraft/x10_h_cfg.ks (inferred preloaded)
25.82,APPROACH,ILS_TRACK,152.43,152,-0.43,680.75,602.18,0.24,9.55,9.47,269.98,0.048,0.27,0,17.886,1,0.6,4.5,0.75,0.35,0.0168,0.4,0,21.771,0,0.427,0,270,0,0,1,0.09,0,0,0,270,0.6485,0.0001,-0.7612,0,270,0.49,-335.36,17.971,0.004,0,0,3,742.87,8.688,0,1016.1,0,0,0,,0,NONE,0,0,0,0,0,0,0,0,0,0,0,602.18,0,0,0,0,0,0,0,0,0,269.8,0,0,0,0,0,0,0,0,0,0,0,0,0,3,3,0,0,VALID,0,0,0,0,0,1,0,0,0,0,0,0,0,0,0,0,0,0,0,0,296.94,1077.98,2,0,0.08,0.08,256,10,0.12,0.08,25.82,FLYING,X10-H,0:/Integrated Flight Computer/aircraft/x10_h_cfg.ks (inferred preloaded)
26.12,APPROACH,ILS_TRACK,152.42,152,-0.42,680.83,602.25,0.25,9.56,9.47,269.98,0.048,0.2703,0,17.758,1,0.6,4.5,0.75,0.35,0.0168,0.4,0,21.772,0,0.424,0,270,0,0,1,0.09,0,0,0,270,0.6484,0,-0.7613,0,270,0.47,-332.75,17.922,0.003,0,0,3,742.87,8.701,0,1013.57,0,0,0,,0,NONE,0,0,0,0,0,0,0,0,0,0,0,602.25,0,0,0,0,0,0,0,0,0,269.8,0,0,0,0,0,0,0,0,0,0,0,0,0,3,3,0,0,VALID,0,0,0,0,0,1,0,0,0,0,0,0,0,0,0,0,0,0,0,0,296.33,1077.96,2,0,0.08,0.08,259,10,0.12,0.08,26.12,FLYING,X10-H,0:/Integrated Flight Computer/aircraft/x10_h_cfg.ks (inferred preloaded)
26.42,APPROACH,ILS_TRACK,152.42,152,-0.42,680.9,602.32,0.25,9.57,9.48,269.98,0.048,0.2715,0,17.632,1,0.6,4.5,0.75,0.35,0.0168,0.4,0,21.773,0,0.417,0,270,0,0,1,0.09,0,0,0,270,0.6484,0.0001,-0.7613,0,270,0.44,-330.14,17.874,0.004,0,0,3,742.87,8.708,0,1011.03,0,0,0,,0,NONE,0,0,0,0,0,0,0,0,0,0,0,602.32,0,0,0,0,0,0,0,0,0,269.8,0,0,0,0,0,0,0,0,0,0,0,0,0,3,3,0,0,VALID,0,0,0,0,0,1,0,0,0,0,0,0,0,0,0,0,0,0,0,0,295.85,1077.93,2,0,0.08,0.08,262,10,0.12,0.08,26.42,FLYING,X10-H,0:/Integrated Flight Computer/aircraft/x10_h_cfg.ks (inferred preloaded)
26.72,APPROACH,ILS_TRACK,152.41,152,-0.41,680.97,602.39,0.25,9.56,9.48,269.98,0.048,0.2725,0,17.509,1,0.6,4.5,0.75,0.35,0.0168,0.4,0,21.776,0,0.409,0,270,0,0,1,0.09,0,0,0,270,0.6483,0.0001,-0.7614,0,270,0.42,-327.53,17.826,0.003,0,0,3,742.87,8.691,0,1008.5,0,0,0,,0,NONE,0,0,0,0,0,0,0,0,0,0,0,602.39,0,0,0,0,0,0,0,0,0,269.8,0,0,0,0,0,0,0,0,0,0,0,0,0,3,3,0,0,VALID,0,0,0,0,0,1,0,0,0,0,0,0,0,0,0,0,0,0,0,0,295.56,1077.89,2,0,0.08,0.08,265,10,0.12,0.08,26.72,FLYING,X10-H,0:/Integrated Flight Computer/aircraft/x10_h_cfg.ks (inferred preloaded)
27.02,APPROACH,ILS_TRACK,152.4,152,-0.4,681.05,602.47,0.24,9.56,9.47,269.98,0.048,0.2726,0,17.388,1,0.6,4.5,0.75,0.35,0.0168,0.4,0,21.778,0,0.401,0,270,0,0,1,0.1,0,0,0,270,0.6483,-0.0001,-0.7614,0,270,0.41,-324.93,17.777,-0.004,0,0,3,742.87,8.678,0,1005.96,0,0,0,,0,NONE,0,0,0,0,0,0,0,0,0,0,0,602.47,0,0,0,0,0,0,0,0,0,269.8,0,0,0,0,0,0,0,0,0,0,0,0,0,3,3,0,0,VALID,0,0,0,0,0,1,0,0,0,0,0,0,0,0,0,0,0,0,0,0,295.35,1077.85,2,0,0.08,0.08,268,10,0.12,0.08,27.02,FLYING,X10-H,0:/Integrated Flight Computer/aircraft/x10_h_cfg.ks (inferred preloaded)
27.32,APPROACH,ILS_TRACK,152.39,152,-0.39,681.13,602.54,0.26,9.57,9.48,269.99,0.047,0.2725,0,17.269,1,0.6,4.5,0.75,0.35,0.0168,0.4,0,21.781,0,0.391,0,270,0,0,1,0.1,0,0,0,270,0.6482,0,-0.7615,0,270,0.39,-322.31,17.729,0,0,0,3,742.87,8.701,0,1003.43,0,0,0,,0,NONE,0,0,0,0,0,0,0,0,0,0,0,602.54,0,0,0,0,0,0,0,0,0,269.8,0,0,0,0,0,0,0,0,0,0,0,0,0,3,3,0,0,VALID,0,0,0,0,0,1,0,0,0,0,0,0,0,0,0,0,0,0,0,0,295.19,1077.8,2,0,0.08,0.08,271,10,0.12,0.08,27.32,FLYING,X10-H,0:/Integrated Flight Computer/aircraft/x10_h_cfg.ks (inferred preloaded)
27.62,APPROACH,ILS_TRACK,152.38,152,-0.38,681.2,602.62,0.27,9.57,9.47,269.99,0.047,0.2708,0,17.154,1,0.6,4.5,0.75,0.35,0.0168,0.4,0,21.783,0,0.383,0,269.99,0,0,1,0.1,0,0,0,270,0.6481,-0.0001,-0.7615,0,269.99,0.37,-319.7,17.681,-0.006,0,0,3,742.87,8.71,0,1000.9,0,0,0,,0,NONE,0,0,0,0,0,0,0,0,0,0,0,602.62,0,0,0,0,0,0,0,0,0,269.8,0,0,0,0,0,0,0,0,0,0,0,0,0,3,3,0,0,VALID,0,0,0,0,0,1,0,0,0,0,0,0,0,0,0,0,0,0,0,0,294.98,1077.76,2,0,0.08,0.08,274,10,0.12,0.08,27.62,FLYING,X10-H,0:/Integrated Flight Computer/aircraft/x10_h_cfg.ks (inferred preloaded)
27.92,APPROACH,ILS_TRACK,152.37,152,-0.37,681.28,602.7,0.27,9.57,9.47,269.99,0.046,0.2698,0,17.04,1,0.6,4.5,0.75,0.35,0.0168,0.4,0,21.785,0,0.375,0,270,0,0,1,0.1,0,0,0,270,0.6481,0.0001,-0.7616,0,270,0.35,-317.09,17.632,0.005,0,0,3,742.87,8.717,0,998.36,0,0,0,,0,NONE,0,0,0,0,0,0,0,0,0,0,0,602.7,0,0,0,0,0,0,0,0,0,269.8,0,0,0,0,0,0,0,0,0,0,0,0,0,3,3,0,0,VALID,0,0,0,0,0,1,0,0,0,0,0,0,0,0,0,0,0,0,0,0,294.61,1077.72,2,0,0.08,0.08,277,10,0.12,0.08,27.92,FLYING,X10-H,0:/Integrated Flight Computer/aircraft/x10_h_cfg.ks (inferred preloaded)
28.22,APPROACH,ILS_TRACK,152.36,152,-0.36,681.37,602.78,0.28,9.58,9.47,269.99,0.046,0.2698,0,16.93,1,0.6,4.5,0.75,0.35,0.0168,0.4,0,21.788,0,0.365,0,270.01,0,0,1,0.1,0,0,0,270,0.648,0.0002,-0.7616,0,270.01,0.34,-314.47,17.584,0.01,0,0,3,742.87,8.727,0,995.83,0,0,0,,0,NONE,0,0,0,0,0,0,0,0,0,0,0,602.78,0,0,0,0,0,0,0,0,0,269.8,0,0,0,0,0,0,0,0,0,0,0,0,0,3,3,0,0,VALID,0,0,0,0,0,1,0,0,0,0,0,0,0,0,0,0,0,0,0,0,294.2,1077.67,2,0,0.08,0.08,280,10,0.12,0.08,28.22,FLYING,X10-H,0:/Integrated Flight Computer/aircraft/x10_h_cfg.ks (inferred preloaded)
28.52,APPROACH,ILS_TRACK,152.35,152,-0.35,681.45,602.87,0.28,9.58,9.47,269.99,0.047,0.2743,0,16.823,1,0.6,4.5,0.75,0.35,0.0168,0.4,0,21.793,0,0.348,0,270,0,0,1,0.11,0,0,0,270,0.648,0,-0.7617,0,270,0.32,-311.86,17.536,-0.001,0,0,3,742.87,8.665,0,993.3,0,0,0,,0,NONE,0,0,0,0,0,0,0,0,0,0,0,602.87,0,0,0,0,0,0,0,0,0,269.8,0,0,0,0,0,0,0,0,0,0,0,0,0,3,3,0,0,VALID,0,0,0,0,0,1,0,0,0,0,0,0,0,0,0,0,0,0,0,0,293.88,1077.59,2,0,0.08,0.08,283,10,0.12,0.08,28.52,FLYING,X10-H,0:/Integrated Flight Computer/aircraft/x10_h_cfg.ks (inferred preloaded)
28.82,APPROACH,ILS_TRACK,152.33,152,-0.33,681.53,602.95,0.28,9.58,9.49,269.99,0.045,0.2748,0,16.722,1,0.6,4.5,0.75,0.35,0.0168,0.4,0,21.797,0,0.332,0,270,0,0,1,0.1,0,0,0,270,0.6479,0,-0.7617,0,270,0.31,-309.24,17.487,-0.001,0,0,3,742.87,8.718,0,990.76,0,0,0,,0,NONE,0,0,0,0,0,0,0,0,0,0,0,602.95,0,0,0,0,0,0,0,0,0,269.8,0,0,0,0,0,0,0,0,0,0,0,0,0,3,3,0,0,VALID,0,0,0,0,0,1,0,0,0,0,0,0,0,0,0,0,0,0,0,0,293.97,1077.52,2,0,0.08,0.08,286,10,0.12,0.08,28.82,FLYING,X10-H,0:/Integrated Flight Computer/aircraft/x10_h_cfg.ks (inferred preloaded)
29.12,APPROACH,ILS_TRACK,152.32,152,-0.32,681.62,603.03,0.27,9.57,9.48,269.99,0.043,0.274,0,16.626,1,0.6,4.5,0.75,0.35,0.0168,0.4,0,21.801,0,0.317,0,270,0,0,1,0.11,0,0,0,270,0.6478,-0.0001,-0.7618,0,270,0.29,-306.63,17.439,-0.004,0,0,3,742.87,8.701,0,988.23,0,0,0,,0,NONE,0,0,0,0,0,0,0,0,0,0,0,603.03,0,0,0,0,0,0,0,0,0,269.8,0,0,0,0,0,0,0,0,0,0,0,0,0,3,3,0,0,VALID,0,0,0,0,0,1,0,0,0,0,0,0,0,0,0,0,0,0,0,0,294.06,1077.45,2,0,0.08,0.08,289,10,0.12,0.08,29.12,FLYING,X10-H,0:/Integrated Flight Computer/aircraft/x10_h_cfg.ks (inferred preloaded)
29.42,APPROACH,ILS_TRACK,152.3,152,-0.3,681.7,603.12,0.3,9.58,9.48,269.99,0.041,0.2724,0,16.533,1,0.6,4.5,0.75,0.35,0.0168,0.4,0,21.805,0,0.304,0,270,0,0,1,0.1,0,0,0,270,0.6478,0,-0.7618,0,270,0.28,-304.01,17.391,0.002,0,0,3,742.87,8.745,0,985.7,0,0,0,,0,NONE,0,0,0,0,0,0,0,0,0,0,0,603.12,0,0,0,0,0,0,0,0,0,269.8,0,0,0,0,0,0,0,0,0,0,0,0,0,3,3,0,0,VALID,0,0,0,0,0,1,0,0,0,0,0,0,0,0,0,0,0,0,0,0,294.18,1077.39,2,0,0.08,0.08,292,10,0.12,0.08,29.42,FLYING,X10-H,0:/Integrated Flight Computer/aircraft/x10_h_cfg.ks (inferred preloaded)
29.72,APPROACH,ILS_TRACK,152.29,152,-0.29,681.79,603.2,0.28,9.59,9.49,269.99,0.04,0.2716,0,16.445,1,0.6,4.5,0.75,0.35,0.0168,0.4,0,21.809,0,0.291,0,269.99,0,0,1,0.11,0,0,0,270.01,0.6477,-0.0001,-0.7619,0,269.99,0.27,-301.39,17.342,-0.007,0,0,3,742.87,8.723,0,983.17,0,0,0,,0,NONE,0,0,0,0,0,0,0,0,0,0,0,603.2,0,0,0,0,0,0,0,0,0,269.8,0,0,0,0,0,0,0,0,0,0,0,0,0,3,3,0,0,VALID,0,0,0,0,0,1,0,0,0,0,0,0,0,0,0,0,0,0,0,0,294.08,1077.33,2,0,0.08,0.08,295,10,0.12,0.08,29.72,FLYING,X10-H,0:/Integrated Flight Computer/aircraft/x10_h_cfg.ks (inferred preloaded)
30.02,APPROACH,ILS_TRACK,152.28,152,-0.28,681.88,603.29,0.28,9.59,9.49,269.99,0.04,0.2706,0,16.36,1,0.6,4.5,0.75,0.35,0.0168,0.4,0,21.812,0,0.278,0,270,0,0,1,0.11,0,0,0,270,0.6476,0.0001,-0.7619,0,270,0.26,-298.77,17.294,0.003,0,0,3,742.87,8.733,0,980.63,0,0,0,,0,NONE,0,0,0,0,0,0,0,0,0,0,0,603.29,0,0,0,0,0,0,0,0,0,269.8,0,0,0,0,0,0,0,0,0,0,0,0,0,3,3,0,0,VALID,0,0,0,0,0,1,0,0,0,0,0,0,0,0,0,0,0,0,0,0,293.89,1077.27,2,0,0.08,0.08,298,10,0.12,0.08,30.02,FLYING,X10-H,0:/Integrated Flight Computer/aircraft/x10_h_cfg.ks (inferred preloaded)
30.32,APPROACH,ILS_TRACK,152.26,152,-0.26,681.97,603.38,0.3,9.6,9.48,269.99,0.038,0.2717,0,16.279,1,0.6,4.5,0.75,0.35,0.0168,0.4,0,21.817,0,0.263,0,270.01,0,0,1,0.12,0,0,0,270,0.6476,0.0001,-0.762,0,270.01,0.25,-296.15,17.246,0.005,0,0,3,742.87,8.719,0,978.1,0,0,0,,0,NONE,0,0,0,0,0,0,0,0,0,0,0,603.38,0,0,0,0,0,0,0,0,0,269.8,0,0,0,0,0,0,0,0,0,0,0,0,0,3,3,0,0,VALID,0,0,0,0,0,1,0,0,0,0,0,0,0,0,0,0,0,0,0,0,293.64,1077.2,2,0,0.08,0.08,301,10,0.12,0.08,30.32,FLYING,X10-H,0:/Integrated Flight Computer/aircraft/x10_h_cfg.ks (inferred preloaded)
30.62,APPROACH,ILS_TRACK,152.25,152,-0.25,682.06,603.47,0.3,9.59,9.49,269.99,0.038,0.2723,0,16.204,1,0.6,4.5,0.75,0.35,0.0168,0.4,0,21.821,0,0.248,0,270,0,0,1,0.11,0,0,0,270,0.6475,0,-0.762,0,270,0.24,-293.53,17.197,-0.002,0,0,3,742.87,8.734,0,975.57,0,0,0,,0,NONE,0,0,0,0,0,0,0,0,0,0,0,603.47,0,0,0,0,0,0,0,0,0,269.8,0,0,0,0,0,0,0,0,0,0,0,0,0,3,3,0,0,VALID,0,0,0,0,0,1,0,0,0,0,0,0,0,0,0,0,0,0,0,0,293.55,1077.12,2,0,0.08,0.08,304,10,0.12,0.08,30.62,FLYING,X10-H,0:/Integrated Flight Computer/aircraft/x10_h_cfg.ks (inferred preloaded)
30.92,APPROACH,ILS_TRACK,152.23,152,-0.23,682.15,603.56,0.3,9.6,9.49,269.99,0.037,0.2712,0,16.132,1,0.6,4.5,0.75,0.35,0.0168,0.4,0,21.825,0,0.234,0,270,0,0,1,0.11,0,0,0,270,0.6475,0,-0.7621,0,270,0.23,-290.9,17.149,-0.001,0,0,3,742.87,8.744,0,973.04,0,0,0,,0,NONE,0,0,0,0,0,0,0,0,0,0,0,603.56,0,0,0,0,0,0,0,0,0,269.8,0,0,0,0,0,0,0,0,0,0,0,0,0,3,3,0,0,VALID,0,0,0,0,0,1,0,0,0,0,0,0,0,0,0,0,0,0,0,0,293.47,1077.06,2,0,0.08,0.08,307,10,0.12,0.08,30.92,FLYING,X10-H,0:/Integrated Flight Computer/aircraft/x10_h_cfg.ks (inferred preloaded)
31.22,APPROACH,ILS_TRACK,152.22,152,-0.22,682.23,603.65,0.29,9.59,9.49,269.99,0.034,0.2719,0,16.065,1,0.6,4.5,0.75,0.35,0.0168,0.4,0,21.829,0,0.219,0,270,0,0,1,0.11,0,0,0,269.99,0.6474,0,-0.7621,0,270,0.22,-288.29,17.101,-0.002,0,0,3,742.87,8.728,0,970.51,0,0,0,,0,NONE,0,0,0,0,0,0,0,0,0,0,0,603.65,0,0,0,0,0,0,0,0,0,269.8,0,0,0,0,0,0,0,0,0,0,0,0,0,3,3,0,0,VALID,0,0,0,0,0,1,0,0,0,0,0,0,0,0,0,0,0,0,0,0,293.32,1076.99,2,0,0.08,0.08,310,10,0.12,0.08,31.22,FLYING,X10-H,0:/Integrated Flight Computer/aircraft/x10_h_cfg.ks (inferred preloaded)
31.52,APPROACH,ILS_TRACK,152.2,152,-0.2,682.33,603.74,0.3,9.6,9.49,269.99,0.032,0.2716,0,16.002,1,0.6,4.5,0.75,0.35,0.0168,0.4,0,21.833,0,0.204,0,270,0,0,1,0.11,0,0,0,270,0.6473,0,-0.7622,0,270,0.21,-285.66,17.053,-0.001,0,0,3,742.87,8.748,0,967.98,0,0,0,,0,NONE,0,0,0,0,0,0,0,0,0,0,0,603.74,0,0,0,0,0,0,0,0,0,269.8,0,0,0,0,0,0,0,0,0,0,0,0,0,3,3,0,0,VALID,0,0,0,0,0,1,0,0,0,0,0,0,0,0,0,0,0,0,0,0,293.25,1076.92,2,0,0.08,0.08,313,10,0.12,0.08,31.52,FLYING,X10-H,0:/Integrated Flight Computer/aircraft/x10_h_cfg.ks (inferred preloaded)
31.82,APPROACH,ILS_TRACK,152.19,152,-0.19,682.42,603.83,0.3,9.61,9.5,270,0.03,0.2714,0,15.944,1,0.6,4.5,0.75,0.35,0.0168,0.4,0,21.837,0,0.19,0,270.01,0,0,1,0.11,0,0,0,269.99,0.6473,0.0001,-0.7623,0,270.01,0.2,-283.04,17.004,0.006,0,0,3,742.87,8.756,0,965.45,0,0,0,,0,NONE,0,0,0,0,0,0,0,0,0,0,0,603.83,0,0,0,0,0,0,0,0,0,269.8,0,0,0,0,0,0,0,0,0,0,0,0,0,3,3,0,0,VALID,0,0,0,0,0,1,0,0,0,0,0,0,0,0,0,0,0,0,0,0,293.14,1076.85,2,0,0.08,0.08,316,10,0.12,0.08,31.82,FLYING,X10-H,0:/Integrated Flight Computer/aircraft/x10_h_cfg.ks (inferred preloaded)
