t_s,phase,subphase,ias_ms,vapp_ms,spd_err_ms,agl_m,vs_ms,pitch_deg,aoa_deg,hdg_deg,bank_deg,thr_cmd,thr_cur,thr_intg,at_gain,at_tau_s,at_a_up,at_a_dn,at_kp_thr,at_ki_spd,at_thr_slew,as_cmd_deg,as_cap_deg,as_raw_deg,as_spd_err_ms,as_active,aa_hdg_cmd_deg,aa_fpa_cmd_deg,aa_fbw,aa_dir,actual_fpa_deg,ftf_hdg_err_deg,ftf_fix_idx,kos_steer_pit_deg,kos_steer_hdg_deg,aa_dir_vx,aa_dir_vy,aa_dir_vz,aa_dir_pitch_deg,aa_dir_hdg_deg,ils_loc_m,ils_gs_m,ils_dist_km,loc_corr_deg,gs_corr_deg,gs_latched,active_gs_ang_deg,ils_intercept_alt_m,d_gs_ms,fpa_preclamped_deg,gs_nom_alt_m,flare_fpa_cmd,flare_tgt_vs,flare_frac,steer_hdg_deg,steer_blend,ro_loc_corr_deg,ro_hdg_err_deg,ro_yaw_tgt,ro_yaw_scale,ro_yaw_gate,yaw_cmd,roll_cmd,pitch_cmd,ro_pitch_tgt_deg,ro_pitch_err_deg,ro_pitch_ff,ro_roll_assist,flaps_cur,flaps_tgt,asc_j_ab,asc_j_rk,asc_validity,asc_q_pa,asc_q_raw_pa,asc_mach,asc_apo_m,asc_drag_n,asc_w_prop,asc_edot_aero,asc_edot_orb,asc_pitch_bias,asc_blend,asc_spooling,asc_ab_thr_ratio,asc_ab_t_now,asc_ab_t_avail,asc_ab_ign_on,asc_ab_flameouts,asc_rk_t_now,asc_rk_t_avail,asc_rk_ign_on,asc_rk_flameouts,ship_thrust,ship_avail_thrust,ship_ign_on,ship_flameouts,ifc_raw_dt_s,ifc_dt_s,ifc_loop_n,ifc_hz_est,ifc_raw_dt_max_s,ifc_raw_dt_min_s,phase_el_s,status,craft_name,cfg_file
0.24,APPROACH,FLY_TO_FIX,145.2,70.14,-75.06,1406.81,-31.58,-12.73,-1.45,269.16,2.006,0,0,0,1,0.6,0.9,0.75,0.35,0.0168,0.4,4.5,32.439,32.439,75.058,1,280.87,5,1,0,-12.14,11.71,0,0,90,0,0,0,0,0,0,0,50.044,0,0,0,3,0,0,0,2696.97,0,0,0,269.1,0,0,0,0,0,0,0,0,0,0,0,0,0,0,0,0,0,VALID,0,0,0,0,0,1,0,0,0,0,0,0,0,0,0,0,0,0,0,0,35.1,338.59,2,0,0.18,0.18,1,3.45,0.18,0.02,0.24,FLYING,CF1-J,0:/Integrated Flight Computer/aircraft/cf1_j_cfg.ks (inferred preloaded)
0.48,APPROACH,FLY_TO_FIX,145.78,70.35,-75.43,1399.27,-32.73,-11.76,0.18,269.31,2.187,0,0,0,1,0.6,1.21,0.75,0.35,0.0168,0.4,11,32.278,32.278,75.388,1,280.89,5,0,0,-12.64,11.58,0,5,280.88,0,0,0,0,0,0,0,50.006,0,0,0,3,0,0,0,2695.01,0,0,0,269.1,0,0,0,0,0,0,0,0,0,0,0,0,0,0,0,0,0,VALID,0,0,0,0,0,1,0,0,0,0,0,0,0,0,0,0,0,0,0,0,32.9,338.72,2,0,0.12,0.12,3,7.69,0.18,0.12,0.48,FLYING,CF1-J,0:/Integrated Flight Computer/aircraft/cf1_j_cfg.ks (inferred preloaded)
0.84,APPROACH,FLY_TO_FIX,146.37,70.64,-75.73,1388.17,-30.69,-9.1,1.98,269.73,5.299,0,0,0,1,0.6,2.153,0.75,0.35,0.0168,0.4,20,32.095,32.095,75.709,1,280.92,5,0,0,-11.95,11.19,0,5,280.91,0,0,0,0,0,0,0,49.95,0,0,0,3,0,0,0,2692.05,0,0,0,269.1,0,0,0,0,0,0,0,0,0,0,0,0,0,0,0,0,0,VALID,0,0,0,0,0,1,0,0,0,0,0,0,0,0,0,0,0,0,0,0,30.09,338.99,2,0,0.12,0.12,6,8.33,0.12,0.12,0.84,FLYING,CF1-J,0:/Integrated Flight Computer/aircraft/cf1_j_cfg.ks (inferred preloaded)
1.2,APPROACH,FLY_TO_FIX,146.73,70.93,-75.8,1377.69,-28.49,-8.05,2.35,270.41,10.841,0,0,0,1,0.6,2.888,0.75,0.35,0.0168,0.4,29,31.988,31.988,75.778,1,280.96,5,0,0,-11.11,10.54,0,5,280.95,0,0,0,0,0,0,0,49.893,0,0,0,3,0,0,0,2689.07,0,0,0,269.1,0,0,0,0,0,0,0,0,0,0,0,0,0,0,0,0,0,VALID,0,0,0,0,0,1,0,0,0,0,0,0,0,0,0,0,0,0,0,0,27.52,339.32,2,0,0.12,0.12,9,8.33,0.12,0.12,1.2,FLYING,CF1-J,0:/Integrated Flight Computer/aircraft/cf1_j_cfg.ks (inferred preloaded)
1.56,APPROACH,FLY_TO_FIX,147.02,71.22,-75.8,1368.06,-26,-7.29,2.24,271.07,14.792,0,0,0,1,0.6,3.462,0.75,0.35,0.0168,0.4,31.899,31.899,31.899,75.789,1,280.99,5,0,0,-10.13,9.92,0,5,280.98,0,0,0,0,0,0,0,49.836,0,0,0,3,0,0,0,2686.09,0,0,0,269.1,0,0,0,0,0,0,0,0,0,0,0,0,0,0,0,0,0,VALID,0,0,0,0,0,1,0,0,0,0,0,0,0,0,0,0,0,0,0,0,25.17,339.64,2,0,0.12,0.12,12,8.33,0.12,0.12,1.56,FLYING,CF1-J,0:/Integrated Flight Computer/aircraft/cf1_j_cfg.ks (inferred preloaded)
1.92,APPROACH,FLY_TO_FIX,146.97,71.5,-75.46,1359.28,-23.59,-6.55,2.09,271.54,15.633,0,0,0,1,0.6,3.91,0.75,0.35,0.0168,0.4,31.904,31.904,31.904,75.481,1,281.02,5,0,0,-9.21,9.48,0,5,281.01,0,0,0,0,0,0,0,49.779,0,0,0,3,0,0,0,2683.09,0,0,0,269.1,0,0,0,0,0,0,0,0,0,0,0,0,0,0,0,0,0,VALID,0,0,0,0,0,1,0,0,0,0,0,0,0,0,0,0,0,0,0,0,23.02,340.06,2,0,0.12,0.12,15,8.33,0.12,0.12,1.92,FLYING,CF1-J,0:/Integrated Flight Computer/aircraft/cf1_j_cfg.ks (inferred preloaded)
2.28,APPROACH,FLY_TO_FIX,146.56,71.79,-74.77,1351.35,-21.32,-5.83,1.97,272,15.843,0,0,0,1,0.6,4.261,0.75,0.35,0.0168,0.4,32.025,32.025,32.025,74.791,1,281.04,5,0,0,-8.36,9.05,0,5,281.04,0,0,0,0,0,0,0,49.722,0,0,0,3,0,0,0,2680.1,0,0,0,269.1,0,0,0,0,0,0,0,0,0,0,0,0,0,0,0,0,0,VALID,0,0,0,0,0,1,0,0,0,0,0,0,0,0,0,0,0,0,0,0,21.07,340.59,2,0,0.12,0.12,18,8.33,0.12,0.12,2.28,FLYING,CF1-J,0:/Integrated Flight Computer/aircraft/cf1_j_cfg.ks (inferred preloaded)
2.64,APPROACH,FLY_TO_FIX,146.1,72.08,-74.02,1344.19,-19.16,-5.13,1.89,272.5,15.868,0,0,-8.885,1,0.6,4.5,0.75,0.35,0.0168,0.4,32.163,32.163,32.163,74.043,1,281.07,5,0,0,-7.55,8.57,0,5,281.06,0,0,0,0,0,0,0,49.665,0,0,0,3,0,0,0,2677.11,0,0,0,269.1,0,0,0,0,0,0,0,0,0,0,0,0,0,0,0,0,0,VALID,0,0,0,0,0,1,0,0,0,0,0,0,0,0,0,0,0,0,0,0,19.28,341.1,2,0,0.12,0.12,21,8.33,0.12,0.12,2.64,FLYING,CF1-J,0:/Integrated Flight Computer/aircraft/cf1_j_cfg.ks (inferred preloaded)
2.96,APPROACH,FLY_TO_FIX,145.64,72.34,-73.3,1338.47,-17.32,-4.44,1.93,273,15.816,0,0,-8.753,1,0.6,4.5,0.75,0.35,0.0168,0.4,32.3,32.3,32.3,73.332,1,281.09,5,0,0,-6.87,8.1,0,5,281.09,0,0,0,0,0,0,0,49.614,0,0,0,3,0,0,0,2674.47,0,0,0,269.1,0,0,0,0,0,0,0,0,0,0,0,0,0,0,0,0,0,VALID,0,0,0,0,0,1,0,0,0,0,0,0,0,0,0,0,0,0,0,0,17.82,341.56,2,0,0.1,0.1,24,9.38,0.12,0.1,2.96,FLYING,CF1-J,0:/Integrated Flight Computer/aircraft/cf1_j_cfg.ks (inferred preloaded)
3.32,APPROACH,FLY_TO_FIX,145.07,72.62,-72.44,1332.69,-15.4,-3.83,1.87,273.5,15.588,0,0,-17.344,1,0.6,4.5,0.75,0.35,0.0168,0.4,32.47,32.47,32.47,72.476,1,281.12,4.755,0,0,-6.15,7.62,0,4.95,281.11,0,0,0,0,0,0,0,49.558,0,0,0,3,0,0,0,2671.5,0,0,0,269.1,0,0,0,0,0,0,0,0,0,0,0,0,0,0,0,0,0,VALID,0,0,0,0,0,1,0,0,0,0,0,0,0,0,0,0,0,0,0,0,16.31,342.06,2,0,0.12,0.12,27,8.33,0.12,0.1,3.32,FLYING,CF1-J,0:/Integrated Flight Computer/aircraft/cf1_j_cfg.ks (inferred preloaded)
3.64,APPROACH,FLY_TO_FIX,144.53,72.88,-71.65,1328.09,-13.88,-3.45,1.71,273.9,15.31,0,0,-17.085,1,0.6,4.5,0.75,0.35,0.0168,0.4,32.632,32.632,32.632,71.681,1,281.14,4.309,0,0,-5.56,7.24,0,4.41,281.13,0,0,0,0,0,0,0,49.507,0,0,0,3,0,0,0,2668.86,0,0,0,269.1,0,0,0,0,0,0,0,0,0,0,0,0,0,0,0,0,0,VALID,0,0,0,0,0,1,0,0,0,0,0,0,0,0,0,0,0,0,0,0,15.07,342.5,2,0,0.1,0.1,30,9.38,0.12,0.1,3.64,FLYING,CF1-J,0:/Integrated Flight Computer/aircraft/cf1_j_cfg.ks (inferred preloaded)
4,APPROACH,FLY_TO_FIX,143.93,73.15,-70.78,1323.48,-12.31,-3.09,1.53,274.31,14.974,0,0,-16.83,1,0.6,4.5,0.843,0.35,0.0168,0.4,32.81,32.81,32.81,70.814,1,281.16,3.849,0,0,-4.97,6.85,0,3.98,281.15,0,0,0,0,0,0,0,49.454,0,0,0,3,0,0,0,2666.08,0,0,0,269.1,0,0,0,0,0,0,0,0,0,0,0,0,0,0,0,0,0,VALID,0,0,0,0,0,1,0,0,0,0,0,0,0,0,0,0,0,0,0,0,13.79,342.99,2,0,0.1,0.1,33,8.82,0.12,0.1,4,FLYING,CF1-J,0:/Integrated Flight Computer/aircraft/cf1_j_cfg.ks (inferred preloaded)
4.32,APPROACH,FLY_TO_FIX,143.35,73.41,-69.94,1319.81,-11.01,-2.72,1.39,274.69,14.62,0,0,-16.579,1,0.6,4.5,0.961,0.35,0.0168,0.4,32.985,32.985,32.985,69.976,1,281.18,3.476,0,0,-4.47,6.48,0,3.61,281.17,0,0,0,0,0,0,0,49.404,0,0,0,3,0,0,0,2663.47,0,0,0,269.1,0,0,0,0,0,0,0,0,0,0,0,0,0,0,0,0,0,VALID,0,0,0,0,0,1,0,0,0,0,0,0,0,0,0,0,0,0,0,0,12.74,343.41,2,0,0.1,0.1,36,9.38,0.12,0.1,4.32,FLYING,CF1-J,0:/Integrated Flight Computer/aircraft/cf1_j_cfg.ks (inferred preloaded)
4.64,APPROACH,FLY_TO_FIX,142.71,73.68,-69.03,1316.53,-9.88,-2.33,1.36,275.09,14.206,0,0,-16.331,1,0.6,4.5,1.075,0.35,0.0168,0.4,33.176,33.176,33.176,69.066,1,281.19,3.156,0,0,-4.02,6.1,0,3.25,281.19,0,0,0,0,0,0,0,49.352,0,0,0,3,0,0,0,2660.7,0,0,0,269.1,0,0,0,0,0,0,0,0,0,0,0,0,0,0,0,0,0,VALID,0,0,0,0,0,1,0,0,0,0,0,0,0,0,0,0,0,0,0,0,11.77,343.83,2,0,0.1,0.1,39,8.82,0.14,0.1,4.64,FLYING,CF1-J,0:/Integrated Flight Computer/aircraft/cf1_j_cfg.ks (inferred preloaded)
5,APPROACH,FLY_TO_FIX,142.01,73.97,-68.04,1313.23,-8.8,-2,1.31,275.48,13.73,0,0,-16.088,1,0.6,4.5,1.186,0.35,0.0168,0.4,33.386,33.386,33.386,68.078,1,281.21,2.845,0,0,-3.6,5.73,0,2.96,281.2,0,0,0,0,0,0,0,49.296,0,0,0,3,0,0,0,2657.79,0,0,0,269.1,0,0,0,0,0,0,0,0,0,0,0,0,0,0,0,0,0,VALID,0,0,0,0,0,1,0,0,0,0,0,0,0,0,0,0,0,0,0,0,10.77,344.29,2,0,0.12,0.12,42,8.33,0.12,0.1,5,FLYING,CF1-J,0:/Integrated Flight Computer/aircraft/cf1_j_cfg.ks (inferred preloaded)
5.32,APPROACH,FLY_TO_FIX,141.36,74.22,-67.13,1310.59,-7.95,-1.82,1.18,275.79,13.279,0,0,-15.847,1,0.6,4.5,1.294,0.35,0.0168,0.4,33.581,33.581,33.581,67.174,1,281.22,2.595,0,0,-3.26,5.44,0,2.65,281.22,0,0,0,0,0,0,0,49.247,0,0,0,3,0,0,0,2655.21,0,0,0,269.1,0,0,0,0,0,0,0,0,0,0,0,0,0,0,0,0,0,VALID,0,0,0,0,0,1,0,0,0,0,0,0,0,0,0,0,0,0,0,0,9.95,344.7,2,0,0.1,0.1,45,9.38,0.12,0.1,5.32,FLYING,CF1-J,0:/Integrated Flight Computer/aircraft/cf1_j_cfg.ks (inferred preloaded)
5.68,APPROACH,FLY_TO_FIX,140.61,74.51,-66.09,1307.94,-7.08,-1.57,1.12,276.13,12.74,0,0,-15.611,1,0.6,4.5,1.397,0.35,0.0168,0.4,33.805,33.805,33.805,66.137,1,281.24,2.343,0,0,-2.92,5.11,0,2.42,281.24,0,0,0,0,0,0,0,49.192,0,0,0,3,0,0,0,2652.33,0,0,0,269.1,0,0,0,0,0,0,0,0,0,0,0,0,0,0,0,0,0,VALID,0,0,0,0,0,1,0,0,0,0,0,0,0,0,0,0,0,0,0,0,9.11,345.16,2,0,0.12,0.12,48,8.33,0.12,0.1,5.68,FLYING,CF1-J,0:/Integrated Flight Computer/aircraft/cf1_j_cfg.ks (inferred preloaded)
6.04,APPROACH,FLY_TO_FIX,139.83,74.8,-65.03,1305.57,-6.31,-1.34,1.07,276.46,12.178,0,0,-15.378,1,0.6,4.5,1.497,0.35,0.0168,0.4,34.038,34.038,34.038,65.075,1,281.25,2.122,0,0,-2.62,4.79,0,2.19,281.25,0,0,0,0,0,0,0,49.137,0,0,0,3,0,0,0,2649.47,0,0,0,269.1,0,0,0,0,0,0,0,0,0,0,0,0,0,0,0,0,0,VALID,0,0,0,0,0,1,0,0,0,0,0,0,0,0,0,0,0,0,0,0,8.33,345.63,2,0,0.12,0.12,51,8.33,0.12,0.12,6.04,FLYING,CF1-J,0:/Integrated Flight Computer/aircraft/cf1_j_cfg.ks (inferred preloaded)
6.4,APPROACH,FLY_TO_FIX,139.03,75.09,-63.94,1303.46,-5.63,-1.12,1.04,276.77,11.609,0,0,-15.148,1,0.6,4.5,1.595,0.35,0.0168,0.4,34.278,34.278,34.278,63.986,1,281.27,1.926,0,0,-2.35,4.5,0,1.99,281.26,0,0,0,0,0,0,0,49.083,0,0,0,3,0,0,0,2646.62,0,0,0,269.1,0,0,0,0,0,0,0,0,0,0,0,0,0,0,0,0,0,VALID,0,0,0,0,0,1,0,0,0,0,0,0,0,0,0,0,0,0,0,0,7.62,346.09,2,0,0.12,0.12,54,8.33,0.12,0.12,6.4,FLYING,CF1-J,0:/Integrated Flight Computer/aircraft/cf1_j_cfg.ks (inferred preloaded)
6.76,APPROACH,FLY_TO_FIX,138.2,75.38,-62.82,1301.58,-5.03,-0.93,1.01,277.07,11.038,0,0,-14.922,1,0.6,4.5,1.69,0.35,0.0168,0.4,34.526,34.526,34.526,62.869,1,281.28,1.751,0,0,-2.11,4.21,0,1.81,281.28,0,0,0,0,0,0,0,49.029,0,0,0,3,0,0,0,2643.79,0,0,0,269.1,0,0,0,0,0,0,0,0,0,0,0,0,0,0,0,0,0,VALID,0,0,0,0,0,1,0,0,0,0,0,0,0,0,0,0,0,0,0,0,6.98,346.57,2,0,0.12,0.12,57,8.33,0.12,0.12,6.76,FLYING,CF1-J,0:/Integrated Flight Computer/aircraft/cf1_j_cfg.ks (inferred preloaded)
7.12,APPROACH,FLY_TO_FIX,137.35,75.66,-61.68,1299.9,-4.49,-0.75,0.99,277.34,10.467,0,0,-14.7,1,0.6,4.5,1.784,0.35,0.0168,0.4,34.782,34.782,34.782,61.73,1,281.29,1.596,0,0,-1.9,3.95,0,1.65,281.29,0,0,0,0,0,0,0,48.975,0,0,0,3,0,0,0,2640.98,0,0,0,269.1,0,0,0,0,0,0,0,0,0,0,0,0,0,0,0,0,0,VALID,0,0,0,0,0,1,0,0,0,0,0,0,0,0,0,0,0,0,0,0,6.38,347.05,2,0,0.12,0.12,60,8.33,0.12,0.12,7.12,FLYING,CF1-J,0:/Integrated Flight Computer/aircraft/cf1_j_cfg.ks (inferred preloaded)
7.48,APPROACH,FLY_TO_FIX,136.46,75.95,-60.51,1298.4,-4.01,-0.58,0.99,277.61,9.905,0,0,-14.48,1,0.6,4.5,1.876,0.35,0.0168,0.4,35.046,35.046,35.046,60.56,1,281.3,1.458,0,0,-1.7,3.7,0,1.5,281.3,0,0,0,0,0,0,0,48.922,0,0,0,3,0,0,0,2638.18,0,0,0,269.1,0,0,0,0,0,0,0,0,0,0,0,0,0,0,0,0,0,VALID,0,0,0,0,0,1,0,0,0,0,0,0,0,0,0,0,0,0,0,0,5.84,347.54,2,0,0.12,0.12,63,8.33,0.12,0.12,7.48,FLYING,CF1-J,0:/Integrated Flight Computer/aircraft/cf1_j_cfg.ks (inferred preloaded)
7.84,APPROACH,FLY_TO_FIX,135.56,76.24,-59.32,1297.07,-3.58,-0.42,0.99,277.85,9.354,0,0,-14.264,1,0.6,4.5,1.967,0.35,0.0168,0.4,35.318,35.318,35.318,59.368,1,281.31,1.335,0,0,-1.53,3.46,0,1.38,281.31,0,0,0,0,0,0,0,48.869,0,0,0,3,0,0,0,2635.41,0,0,0,269.1,0,0,0,0,0,0,0,0,0,0,0,0,0,0,0,0,0,VALID,0,0,0,0,0,1,0,0,0,0,0,0,0,0,0,0,0,0,0,0,5.34,348.04,2,0,0.12,0.12,66,8.33,0.12,0.12,7.84,FLYING,CF1-J,0:/Integrated Flight Computer/aircraft/cf1_j_cfg.ks (inferred preloaded)
8.2,APPROACH,FLY_TO_FIX,134.63,76.53,-58.1,1295.87,-3.2,-0.27,0.99,278.09,8.814,0,0,-14.051,1,0.6,4.5,2.055,0.35,0.0168,0.4,35.596,35.596,35.596,58.151,1,281.32,1.224,0,0,-1.38,3.24,0,1.26,281.32,0,0,0,0,0,0,0,48.816,0,0,0,3,0,0,0,2632.65,0,0,0,269.1,0,0,0,0,0,0,0,0,0,0,0,0,0,0,0,0,0,VALID,0,0,0,0,0,1,0,0,0,0,0,0,0,0,0,0,0,0,0,0,4.89,348.54,2,0,0.12,0.12,69,8.33,0.12,0.12,8.2,FLYING,CF1-J,0:/Integrated Flight Computer/aircraft/cf1_j_cfg.ks (inferred preloaded)
8.56,APPROACH,FLY_TO_FIX,133.67,76.82,-56.85,1294.81,-2.86,-0.13,1,278.3,8.286,0,0,-13.841,1,0.6,4.5,2.143,0.35,0.0168,0.4,35.883,35.883,35.883,56.907,1,281.33,1.127,0,0,-1.24,3.03,0,1.16,281.33,0,0,0,0,0,0,0,48.764,0,0,0,3,0,0,0,2629.92,0,0,0,269.1,0,0,0,0,0,0,0,0,0,0,0,0,0,0,0,0,0,VALID,0,0,0,0,0,1,0,0,0,0,0,0,0,0,0,0,0,0,0,0,4.47,349.06,2,0,0.12,0.12,72,8.33,0.12,0.12,8.56,FLYING,CF1-J,0:/Integrated Flight Computer/aircraft/cf1_j_cfg.ks (inferred preloaded)
8.92,APPROACH,FLY_TO_FIX,132.69,77.1,-55.58,1293.86,-2.56,0,1.02,278.51,7.778,0,0,-13.635,1,0.6,4.5,2.23,0.35,0.0168,0.4,36.177,36.177,36.177,55.639,1,281.34,1.039,0,0,-1.12,2.83,0,1.07,281.34,0,0,0,0,0,0,0,48.713,0,0,0,3,0,0,0,2627.2,0,0,0,269.1,0,0,0,0,0,0,0,0,0,0,0,0,0,0,0,0,0,VALID,0,0,0,0,0,1,0,0,0,0,0,0,0,0,0,0,0,0,0,0,4.1,349.6,2,0,0.12,0.12,75,8.33,0.12,0.12,8.92,FLYING,CF1-J,0:/Integrated Flight Computer/aircraft/cf1_j_cfg.ks (inferred preloaded)
9.28,APPROACH,FLY_TO_FIX,131.68,77.39,-54.29,1293.01,-2.29,0.13,1.05,278.7,7.288,0,0,-13.431,1,0.6,4.5,2.315,0.35,0.0168,0.4,36.479,36.479,36.479,54.346,1,281.35,0.961,0,0,-1.01,2.65,0,0.99,281.35,0,0,0,0,0,0,0,48.661,0,0,0,3,0,0,0,2624.51,0,0,0,269.1,0,0,0,0,0,0,0,0,0,0,0,0,0,0,0,0,0,VALID,0,0,0,0,0,1,0,0,0,0,0,0,0,0,0,0,0,0,0,0,3.75,350.14,2,0,0.12,0.12,78,8.33,0.12,0.12,9.28,FLYING,CF1-J,0:/Integrated Flight Computer/aircraft/cf1_j_cfg.ks (inferred preloaded)
9.64,APPROACH,FLY_TO_FIX,130.65,77.68,-52.97,1292.25,-2.04,0.25,1.08,278.88,6.818,0,0,-13.231,1,0.6,4.5,2.399,0.35,0.0168,0.4,36.787,36.787,36.787,53.031,1,281.36,0.891,0,0,-0.91,2.47,0,0.92,281.35,0,0,0,0,0,0,0,48.61,0,0,0,3,0,0,0,2621.84,0,0,0,269.1,0,0,0,0,0,0,0,0,0,0,0,0,0,0,0,0,0,VALID,0,0,0,0,0,1,0,0,0,0,0,0,0,0,0,0,0,0,0,0,3.43,350.7,2,0,0.12,0.12,81,8.33,0.12,0.12,9.64,FLYING,CF1-J,0:/Integrated Flight Computer/aircraft/cf1_j_cfg.ks (inferred preloaded)
10,APPROACH,FLY_TO_FIX,129.61,77.97,-51.64,1291.57,-1.83,0.37,1.12,279.06,6.371,0,0,-13.033,1,0.6,4.5,2.481,0.35,0.0168,0.4,37.101,37.101,37.101,51.696,1,281.36,0.829,0,0,-0.82,2.31,0,0.85,281.36,0,0,0,0,0,0,0,48.56,0,0,0,3,0,0,0,2619.19,0,0,0,269.1,0,0,0,0,0,0,0,0,0,0,0,0,0,0,0,0,0,VALID,0,0,0,0,0,1,0,0,0,0,0,0,0,0,0,0,0,0,0,0,3.14,351.27,2,0,0.12,0.12,84,8.33,0.12,0.12,10,FLYING,CF1-J,0:/Integrated Flight Computer/aircraft/cf1_j_cfg.ks (inferred preloaded)
10.36,APPROACH,FLY_TO_FIX,128.54,78.26,-50.28,1290.97,-1.63,0.48,1.16,279.21,5.946,0,0,-12.839,1,0.6,4.5,2.561,0.35,0.0168,0.4,37.421,37.421,37.421,50.342,1,281.37,0.773,0,0,-0.74,2.15,0,0.79,281.37,0,0,0,0,0,0,0,48.509,0,0,0,3,0,0,0,2616.56,0,0,0,269.1,0,0,0,0,0,0,0,0,0,0,0,0,0,0,0,0,0,VALID,0,0,0,0,0,1,0,0,0,0,0,0,0,0,0,0,0,0,0,0,2.87,351.85,2,0,0.12,0.12,87,8.33,0.12,0.12,10.36,FLYING,CF1-J,0:/Integrated Flight Computer/aircraft/cf1_j_cfg.ks (inferred preloaded)
10.72,APPROACH,FLY_TO_FIX,127.45,78.54,-48.91,1290.43,-1.46,0.59,1.2,279.36,5.541,0,0,-12.647,1,0.6,4.5,2.639,0.35,0.0168,0.4,37.746,37.746,37.746,48.971,1,281.37,0.723,0,0,-0.66,2.01,0,0.74,281.37,0,0,0,0,0,0,0,48.46,0,0,0,3,0,0,0,2613.96,0,0,0,269.1,0,0,0,0,0,0,0,0,0,0,0,0,0,0,0,0,0,VALID,0,0,0,0,0,1,0,0,0,0,0,0,0,0,0,0,0,0,0,0,2.63,352.44,2,0,0.12,0.12,90,8.33,0.12,0.12,10.72,FLYING,CF1-J,0:/Integrated Flight Computer/aircraft/cf1_j_cfg.ks (inferred preloaded)
11.08,APPROACH,FLY_TO_FIX,126.35,78.83,-47.52,1289.96,-1.31,0.7,1.25,279.5,5.159,0,0,-12.459,1,0.6,4.5,2.714,0.35,0.0168,0.4,38.076,38.076,38.076,47.581,1,281.38,0.678,0,0,-0.6,1.88,0,0.69,281.38,0,0,0,0,0,0,0,48.41,0,0,0,3,0,0,0,2611.37,0,0,0,269.1,0,0,0,0,0,0,0,0,0,0,0,0,0,0,0,0,0,VALID,0,0,0,0,0,1,0,0,0,0,0,0,0,0,0,0,0,0,0,0,2.41,353.05,2,0,0.12,0.12,93,8.33,0.12,0.12,11.08,FLYING,CF1-J,0:/Integrated Flight Computer/aircraft/cf1_j_cfg.ks (inferred preloaded)
11.44,APPROACH,FLY_TO_FIX,125.23,79.12,-46.11,1289.53,-1.17,0.81,1.31,279.63,4.798,0,0,-12.273,1,0.6,4.5,2.787,0.35,0.0168,0.4,38.412,38.412,38.412,46.173,1,281.39,0.639,0,0,-0.54,1.75,0,0.65,281.38,0,0,0,0,0,0,0,48.362,0,0,0,3,0,0,0,2608.81,0,0,0,269.1,0,0,0,0,0,0,0,0,0,0,0,0,0,0,0,0,0,VALID,0,0,0,0,0,1,0,0,0,0,0,0,0,0,0,0,0,0,0,0,2.2,353.67,2,0,0.12,0.12,96,8.33,0.12,0.12,11.44,FLYING,CF1-J,0:/Integrated Flight Computer/aircraft/cf1_j_cfg.ks (inferred preloaded)
11.8,APPROACH,FLY_TO_FIX,124.1,79.41,-44.69,1289.15,-1.04,0.92,1.37,279.76,4.458,0,0,-12.089,1,0.6,4.5,2.857,0.35,0.0168,0.4,38.752,38.752,38.752,44.752,1,281.39,0.603,0,0,-0.49,1.63,0,0.62,281.39,0,0,0,0,0,0,0,48.313,0,0,0,3,0,0,0,2606.28,0,0,0,269.1,0,0,0,0,0,0,0,0,0,0,0,0,0,0,0,0,0,VALID,0,0,0,0,0,1,0,0,0,0,0,0,0,0,0,0,0,0,0,0,2.02,354.3,2,0,0.12,0.12,99,8.33,0.12,0.12,11.8,FLYING,CF1-J,0:/Integrated Flight Computer/aircraft/cf1_j_cfg.ks (inferred preloaded)
12.16,APPROACH,FLY_TO_FIX,122.95,79.7,-43.25,1288.81,-0.93,1.03,1.44,279.87,4.139,0,0,-11.909,1,0.6,4.5,2.925,0.35,0.0168,0.4,39.096,39.096,39.096,43.317,1,281.39,0.57,0,0,-0.44,1.52,0,0.58,281.39,0,0,0,0,0,0,0,48.265,0,0,0,3,0,0,0,2603.76,0,0,0,269.1,0,0,0,0,0,0,0,0,0,0,0,0,0,0,0,0,0,VALID,0,0,0,0,0,1,0,0,0,0,0,0,0,0,0,0,0,0,0,0,1.85,354.94,2,0,0.12,0.12,102,8.33,0.12,0.12,12.16,FLYING,CF1-J,0:/Integrated Flight Computer/aircraft/cf1_j_cfg.ks (inferred preloaded)
12.52,APPROACH,FLY_TO_FIX,121.79,79.98,-41.81,1288.51,-0.83,1.14,1.51,279.98,3.841,0,0,-11.731,1,0.6,4.5,2.99,0.35,0.0168,0.4,39.443,39.443,39.443,41.872,1,281.4,0.541,0,0,-0.4,1.42,0,0.55,281.4,0,0,0,0,0,0,0,48.218,0,0,0,3,0,0,0,2601.27,0,0,0,269.1,0,0,0,0,0,0,0,0,0,0,0,0,0,0,0,0,0,VALID,0,0,0,0,0,1,0,0,0,0,0,0,0,0,0,0,0,0,0,0,1.69,355.59,2,0,0.12,0.12,105,8.33,0.12,0.12,12.52,FLYING,CF1-J,0:/Integrated Flight Computer/aircraft/cf1_j_cfg.ks (inferred preloaded)
12.88,APPROACH,FLY_TO_FIX,120.62,80.27,-40.35,1288.25,-0.74,1.25,1.58,280.07,3.563,0,0,-11.556,1,0.6,4.5,3.051,0.35,0.0168,0.4,39.793,39.793,39.793,40.418,1,281.4,0.515,0,0,-0.36,1.33,0,0.53,281.4,0,0,0,0,0,0,0,48.171,0,0,0,3,0,0,0,2598.81,0,0,0,269.1,0,0,0,0,0,0,0,0,0,0,0,0,0,0,0,0,0,VALID,0,0,0,0,0,1,0,0,0,0,0,0,0,0,0,0,0,0,0,0,1.55,356.25,2,0,0.12,0.12,108,8.33,0.12,0.12,12.88,FLYING,CF1-J,0:/Integrated Flight Computer/aircraft/cf1_j_cfg.ks (inferred preloaded)
13.24,APPROACH,FLY_TO_FIX,119.45,80.56,-38.89,1288.02,-0.66,1.36,1.66,280.17,3.301,0,0,-11.384,1,0.6,4.5,3.108,0.35,0.0168,0.4,40.145,40.145,40.145,38.955,1,281.41,0.492,0,0,-0.32,1.24,0,0.5,281.4,0,0,0,0,0,0,0,48.124,0,0,0,3,0,0,0,2596.37,0,0,0,269.1,0,0,0,0,0,0,0,0,0,0,0,0,0,0,0,0,0,VALID,0,0,0,0,0,1,0,0,0,0,0,0,0,0,0,0,0,0,0,0,1.42,356.91,2,0,0.12,0.12,111,8.33,0.12,0.12,13.24,FLYING,CF1-J,0:/Integrated Flight Computer/aircraft/cf1_j_cfg.ks (inferred preloaded)
13.6,APPROACH,FLY_TO_FIX,118.27,80.85,-37.42,1287.81,-0.59,1.47,1.74,280.25,3.057,0,0,-11.214,1,0.6,4.5,3.162,0.35,0.0168,0.4,40.499,40.499,40.499,37.489,1,281.41,0.471,0,0,-0.29,1.16,0,0.48,281.41,0,0,0,0,0,0,0,48.078,0,0,0,3,0,0,0,2593.95,0,0,0,269.1,0,0,0,0,0,0,0,0,0,0,0,0,0,0,0,0,0,VALID,0,0,0,0,0,1,0,0,0,0,0,0,0,0,0,0,0,0,0,0,1.3,357.59,2,0,0.12,0.12,114,8.33,0.12,0.12,13.6,FLYING,CF1-J,0:/Integrated Flight Computer/aircraft/cf1_j_cfg.ks (inferred preloaded)
13.96,APPROACH,FLY_TO_FIX,117.09,81.14,-35.95,1287.63,-0.52,1.59,1.83,280.33,2.829,0,0,-11.046,1,0.6,4.5,3.211,0.35,0.0168,0.4,40.854,40.854,40.854,36.018,1,281.41,0.452,0,0,-0.26,1.08,0,0.46,281.41,0,0,0,0,0,0,0,48.032,0,0,0,3,0,0,0,2591.55,0,0,0,269.1,0,0,0,0,0,0,0,0,0,0,0,0,0,0,0,0,0,VALID,0,0,0,0,0,1,0,0,0,0,0,0,0,0,0,0,0,0,0,0,1.19,358.27,2,0,0.12,0.12,117,8.33,0.12,0.12,13.96,FLYING,CF1-J,0:/Integrated Flight Computer/aircraft/cf1_j_cfg.ks (inferred preloaded)
14.32,APPROACH,FLY_TO_FIX,115.9,81.42,-34.48,1287.47,-0.46,1.7,1.92,280.41,2.618,0,0,-10.882,1,0.6,4.5,3.257,0.35,0.0168,0.4,41.209,41.209,41.209,34.545,1,281.41,0.435,0,0,-0.23,1.01,0,0.44,281.41,0,0,0,0,0,0,0,47.987,0,0,0,3,0,0,0,2589.18,0,0,0,269.1,0,0,0,0,0,0,0,0,0,0,0,0,0,0,0,0,0,VALID,0,0,0,0,0,1,0,0,0,0,0,0,0,0,0,0,0,0,0,0,1.09,358.96,2,0,0.12,0.12,120,8.33,0.12,0.12,14.32,FLYING,CF1-J,0:/Integrated Flight Computer/aircraft/cf1_j_cfg.ks (inferred preloaded)
14.68,APPROACH,FLY_TO_FIX,114.72,81.71,-33.01,1287.33,-0.41,1.82,2.01,280.48,2.421,0,0,-10.719,1,0.6,4.5,3.298,0.35,0.0168,0.4,41.564,41.564,41.564,33.074,1,281.42,0.42,0,0,-0.21,0.94,0,0.43,281.42,0,0,0,0,0,0,0,47.942,0,0,0,3,0,0,0,2586.83,0,0,0,269.1,0,0,0,0,0,0,0,0,0,0,0,0,0,0,0,0,0,VALID,0,0,0,0,0,1,0,0,0,0,0,0,0,0,0,0,0,0,0,0,0.99,359.65,2,0,0.12,0.12,123,8.33,0.12,0.12,14.68,FLYING,CF1-J,0:/Integrated Flight Computer/aircraft/cf1_j_cfg.ks (inferred preloaded)
15.04,APPROACH,FLY_TO_FIX,113.54,82,-31.54,1287.21,-0.36,1.93,2.11,280.54,2.239,0,0,-10.559,1,0.6,4.5,3.334,0.35,0.0168,0.4,41.919,41.919,41.919,31.604,1,281.42,0.406,0,0,-0.19,0.88,0,0.41,281.42,0,0,0,0,0,0,0,47.898,0,0,0,3,0,0,0,2584.51,0,0,0,269.1,0,0,0,0,0,0,0,0,0,0,0,0,0,0,0,0,0,VALID,0,0,0,0,0,1,0,0,0,0,0,0,0,0,0,0,0,0,0,0,0.91,360.34,2,0,0.12,0.12,126,8.33,0.12,0.12,15.04,FLYING,CF1-J,0:/Integrated Flight Computer/aircraft/cf1_j_cfg.ks (inferred preloaded)
15.4,APPROACH,FLY_TO_FIX,112.36,82.29,-30.07,1287.11,-0.32,2.05,2.21,280.6,2.07,0,0,-10.402,1,0.6,4.5,3.365,0.35,0.0168,0.4,42.272,42.272,42.272,30.139,1,281.42,0.394,0,0,-0.17,0.82,0,0.4,281.42,0,0,0,0,0,0,0,47.854,0,0,0,3,0,0,0,2582.21,0,0,0,269.1,0,0,0,0,0,0,0,0,0,0,0,0,0,0,0,0,0,VALID,0,0,0,0,0,1,0,0,0,0,0,0,0,0,0,0,0,0,0,0,0.83,361.03,2,0,0.12,0.12,129,8.33,0.12,0.12,15.4,FLYING,CF1-J,0:/Integrated Flight Computer/aircraft/cf1_j_cfg.ks (inferred preloaded)
15.76,APPROACH,FLY_TO_FIX,111.19,82.58,-28.61,1287.02,-0.28,2.17,2.31,280.66,1.914,0,0,-10.246,1,0.6,4.5,3.392,0.35,0.0168,0.4,42.623,42.623,42.623,28.68,1,281.42,0.383,0,0,-0.15,0.77,0,0.39,281.42,0,0,0,0,0,0,0,47.811,0,0,0,3,0,0,0,2579.94,0,0,0,269.1,0,0,0,0,0,0,0,0,0,0,0,0,0,0,0,0,0,VALID,0,0,0,0,0,1,0,0,0,0,0,0,0,0,0,0,0,0,0,0,0.76,361.73,2,0,0.12,0.12,132,8.33,0.12,0.12,15.76,FLYING,CF1-J,0:/Integrated Flight Computer/aircraft/cf1_j_cfg.ks (inferred preloaded)
16.12,APPROACH,FLY_TO_FIX,110.03,82.86,-27.16,1286.94,-0.25,2.3,2.43,280.71,1.77,0,0,-10.093,1,0.6,4.5,3.413,0.35,0.0168,0.4,42.972,42.972,42.972,27.229,1,281.43,0.373,0,0,-0.13,0.72,0,0.38,281.43,0,0,0,0,0,0,0,47.768,0,0,0,3,0,0,0,2577.68,0,0,0,269.1,0,0,0,0,0,0,0,0,0,0,0,0,0,0,0,0,0,VALID,0,0,0,0,0,1,0,0,0,0,0,0,0,0,0,0,0,0,0,0,0.7,362.42,2,0,0.12,0.12,135,8.33,0.12,0.12,16.12,FLYING,CF1-J,0:/Integrated Flight Computer/aircraft/cf1_j_cfg.ks (inferred preloaded)
16.48,APPROACH,FLY_TO_FIX,108.87,83.15,-25.72,1286.88,-0.22,2.42,2.53,280.76,1.637,0,0,-9.943,1,0.6,4.5,3.43,0.35,0.0168,0.4,43.319,43.319,43.319,25.785,1,281.43,0.363,0,0,-0.12,0.67,0,0.37,281.43,0,0,0,0,0,0,0,47.725,0,0,0,3,0,0,0,2575.46,0,0,0,269.1,0,0,0,0,0,0,0,0,0,0,0,0,0,0,0,0,0,VALID,0,0,0,0,0,1,0,0,0,0,0,0,0,0,0,0,0,0,0,0,0.64,363.12,2,0,0.12,0.12,138,8.33,0.12,0.12,16.48,FLYING,CF1-J,0:/Integrated Flight Computer/aircraft/cf1_j_cfg.ks (inferred preloaded)
16.84,APPROACH,FLY_TO_FIX,107.73,83.44,-24.29,1286.82,-0.19,2.55,2.65,280.8,1.514,0,0,-9.794,1,0.6,4.5,3.442,0.35,0.0168,0.4,43.663,43.663,43.663,24.352,1,281.43,0.355,0,0,-0.1,0.63,0,0.36,281.43,0,0,0,0,0,0,0,47.683,0,0,0,3,0,0,0,2573.25,0,0,0,269.1,0,0,0,0,0,0,0,0,0,0,0,0,0,0,0,0,0,VALID,0,0,0,0,0,1,0,0,0,0,0,0,0,0,0,0,0,0,0,0,0.59,363.81,2,0,0.12,0.12,141,8.33,0.12,0.12,16.84,FLYING,CF1-J,0:/Integrated Flight Computer/aircraft/cf1_j_cfg.ks (inferred preloaded)
17.2,APPROACH,FLY_TO_FIX,106.59,83.73,-22.86,1286.78,-0.16,2.68,2.77,280.85,1.401,0,0,-9.648,1,0.6,4.5,3.45,0.35,0.0168,0.4,44.004,44.004,44.004,22.926,1,281.43,0.348,0,0,-0.09,0.59,0,0.35,281.43,0,0,0,0,0,0,0,47.641,0,0,0,3,0,0,0,2571.07,0,0,0,269.1,0,0,0,0,0,0,0,0,0,0,0,0,0,0,0,0,0,VALID,0,0,0,0,0,1,0,0,0,0,0,0,0,0,0,0,0,0,0,0,0.54,364.49,2,0,0.12,0.12,144,8.33,0.12,0.12,17.2,FLYING,CF1-J,0:/Integrated Flight Computer/aircraft/cf1_j_cfg.ks (inferred preloaded)
17.56,APPROACH,FLY_TO_FIX,105.46,84.02,-21.45,1286.75,-0.14,2.81,2.89,280.88,1.295,0,0,-9.504,1,0.6,4.5,3.454,0.35,0.0168,0.4,44.343,44.343,44.343,21.509,1,281.43,0.341,0,0,-0.08,0.55,0,0.34,281.43,0,0,0,0,0,0,0,47.6,0,0,0,3,0,0,0,2568.91,0,0,0,269.1,0,0,0,0,0,0,0,0,0,0,0,0,0,0,0,0,0,VALID,0,0,0,0,0,1,0,0,0,0,0,0,0,0,0,0,0,0,0,0,0.49,365.18,2,0,0.12,0.12,147,8.33,0.12,0.12,17.56,FLYING,CF1-J,0:/Integrated Flight Computer/aircraft/cf1_j_cfg.ks (inferred preloaded)
17.92,APPROACH,FLY_TO_FIX,104.34,84.3,-20.04,1286.72,-0.12,2.94,3.01,280.92,1.199,0,0,-9.362,1,0.6,4.5,3.454,0.35,0.0168,0.4,44.679,44.679,44.679,20.101,1,281.43,0.335,0,0,-0.07,0.51,0,0.34,281.43,0,0,0,0,0,0,0,47.559,0,0,0,3,0,0,0,2566.77,0,0,0,269.1,0,0,0,0,0,0,0,0,0,0,0,0,0,0,0,0,0,VALID,0,0,0,0,0,1,0,0,0,0,0,0,0,0,0,0,0,0,0,0,0.45,365.87,2,0,0.12,0.12,150,8.33,0.12,0.12,17.92,FLYING,CF1-J,0:/Integrated Flight Computer/aircraft/cf1_j_cfg.ks (inferred preloaded)
18.28,APPROACH,FLY_TO_FIX,103.23,84.59,-18.64,1286.7,-0.1,3.08,3.14,280.95,1.11,0,0,-9.223,1,0.6,4.5,3.452,0.35,0.0168,0.4,45.012,45.012,45.012,18.7,1,281.43,0.33,0,0,-0.06,0.48,0,0.33,281.43,0,0,0,0,0,0,0,47.519,0,0,0,3,0,0,0,2564.65,0,0,0,269.1,0,0,0,0,0,0,0,0,0,0,0,0,0,0,0,0,0,VALID,0,0,0,0,0,1,0,0,0,0,0,0,0,0,0,0,0,0,0,0,0.41,366.55,2,0,0.12,0.12,153,8.33,0.12,0.12,18.28,FLYING,CF1-J,0:/Integrated Flight Computer/aircraft/cf1_j_cfg.ks (inferred preloaded)
18.64,APPROACH,FLY_TO_FIX,102.13,84.88,-17.25,1286.69,-0.09,3.21,3.27,280.99,1.027,0,0,-9.085,1,0.6,4.5,3.446,0.35,0.0168,0.4,43.446,45.343,43.446,17.31,1,281.44,0.325,0,0,-0.05,0.45,0,0.33,281.44,0,0,0,0,0,0,0,47.479,0,0,0,3,0,0,0,2562.56,0,0,0,269.1,0,0,0,0,0,0,0,0,0,0,0,0,0,0,0,0,0,VALID,0,0,0,0,0,1,0,0,0,0,0,0,0,0,0,0,0,0,0,0,0.38,367.23,2,0,0.12,0.12,156,8.33,0.12,0.12,18.64,FLYING,CF1-J,0:/Integrated Flight Computer/aircraft/cf1_j_cfg.ks (inferred preloaded)
19,APPROACH,FLY_TO_FIX,101.06,85,-16.06,1286.68,-0.08,3.35,3.4,281.01,0.952,0,0,-8.949,1,0.6,4.5,3.436,0.35,0.0168,0.4,40.462,45.664,40.462,16.121,1,281.44,0.322,0,0,-0.04,0.42,0,0.32,281.44,0,0,0,0,0,0,0,47.44,0,0,0,3,0,0,0,2560.49,0,0,0,269.1,0,0,0,0,0,0,0,0,0,0,0,0,0,0,0,0,0,VALID,0,0,0,0,0,1,0,0,0,0,0,0,0,0,0,0,0,0,0,0,0.34,367.89,2,0,0.12,0.12,159,8.33,0.12,0.12,19,FLYING,CF1-J,0:/Integrated Flight Computer/aircraft/cf1_j_cfg.ks (inferred preloaded)
19.36,APPROACH,FLY_TO_FIX,100.06,85,-15.06,1286.68,-0.07,3.49,3.54,281.04,0.882,0,0,-8.816,1,0.6,4.5,3.414,0.35,0.0168,0.4,37.927,45.966,37.927,15.114,1,281.44,0.318,0,0,-0.04,0.4,0,0.32,281.44,0,0,0,0,0,0,0,47.4,0,0,0,3,0,0,0,2558.44,0,0,0,269.1,0,0,0,0,0,0,0,0,0,0,0,0,0,0,0,0,0,VALID,0,0,0,0,0,1,0,0,0,0,0,0,0,0,0,0,0,0,0,0,0.32,368.51,2,0,0.12,0.12,162,8.33,0.12,0.12,19.36,FLYING,CF1-J,0:/Integrated Flight Computer/aircraft/cf1_j_cfg.ks (inferred preloaded)
19.72,APPROACH,FLY_TO_FIX,99.14,85,-14.14,1286.68,-0.06,3.63,3.67,281.07,0.814,0,0,-8.684,1,0.6,4.5,3.375,0.35,0.0168,0.4,35.558,46.244,35.558,14.187,1,281.44,0.315,0,0,-0.03,0.37,0,0.32,281.44,0,0,0,0,0,0,0,47.362,0,0,0,3,0,0,0,2556.41,0,0,0,269.1,0,0,0,0,0,0,0,0,0,0,0,0,0,0,0,0,0,VALID,0,0,0,0,0,1,0,0,0,0,0,0,0,0,0,0,0,0,0,0,0.29,369.08,2,0,0.12,0.12,165,8.33,0.12,0.12,19.72,FLYING,CF1-J,0:/Integrated Flight Computer/aircraft/cf1_j_cfg.ks (inferred preloaded)
20.08,APPROACH,FLY_TO_FIX,98.31,85,-13.31,1286.68,-0.05,3.76,3.79,281.09,0.748,0,0,-8.555,1,0.6,4.5,3.315,0.35,0.0168,0.4,33.408,46.493,33.408,13.356,1,281.44,0.312,0,0,-0.03,0.35,0,0.31,281.44,0,0,0,0,0,0,0,47.323,0,0,0,3,0,0,0,2554.39,0,0,0,269.1,0,0,0,0,0,0,0,0,0,0,0,0,0,0,0,0,0,VALID,0,0,0,0,0,1,0,0,0,0,0,0,0,0,0,0,0,0,0,0,0.26,369.59,2,0,0.12,0.12,168,8.33,0.12,0.12,20.08,FLYING,CF1-J,0:/Integrated Flight Computer/aircraft/cf1_j_cfg.ks (inferred preloaded)
20.44,APPROACH,FLY_TO_FIX,97.59,85,-12.59,1286.68,-0.04,3.87,3.9,281.11,0.686,0,0,-8.427,1,0.6,4.5,3.232,0.35,0.0168,0.4,31.493,46.713,31.493,12.624,1,281.44,0.31,0,0,-0.02,0.33,0,0.31,281.44,0,0,0,0,0,0,0,47.285,0,0,0,3,0,0,0,2552.39,0,0,0,269.1,0,0,0,0,0,0,0,0,0,0,0,0,0,0,0,0,0,VALID,0,0,0,0,0,1,0,0,0,0,0,0,0,0,0,0,0,0,0,0,0.24,370.05,2,0,0.12,0.12,171,8.33,0.12,0.12,20.44,FLYING,CF1-J,0:/Integrated Flight Computer/aircraft/cf1_j_cfg.ks (inferred preloaded)
20.8,APPROACH,FLY_TO_FIX,96.95,85,-11.95,1286.69,-0.03,3.98,4,281.13,0.627,0,0,-8.301,1,0.6,4.5,3.127,0.35,0.0168,0.4,29.799,46.905,29.799,11.982,1,281.44,0.307,0,0,-0.02,0.31,0,0.31,281.44,0,0,0,0,0,0,0,47.247,0,0,0,3,0,0,0,2550.41,0,0,0,269.1,0,0,0,0,0,0,0,0,0,0,0,0,0,0,0,0,0,VALID,0,0,0,0,0,1,0,0,0,0,0,0,0,0,0,0,0,0,0,0,0.22,370.45,2,0,0.12,0.12,174,8.33,0.12,0.12,20.8,FLYING,CF1-J,0:/Integrated Flight Computer/aircraft/cf1_j_cfg.ks (inferred preloaded)
21.16,APPROACH,FLY_TO_FIX,96.39,85,-11.39,1286.7,-0.02,4.08,4.09,281.14,0.573,0,0,-8.177,1,0.6,4.5,3.004,0.35,0.0168,0.4,28.297,47.074,28.297,11.418,1,281.44,0.303,0,0,-0.01,0.3,0,0.31,281.44,0,0,0,0,0,0,0,47.209,0,0,0,3,0,0,0,2548.43,0,0,0,269.1,0,0,0,0,0,0,0,0,0,0,0,0,0,0,0,0,0,VALID,0,0,0,0,0,1,0,0,0,0,0,0,0,0,0,0,0,0,0,0,0.2,370.8,2,0,0.12,0.12,177,8.33,0.12,0.12,21.16,FLYING,CF1-J,0:/Integrated Flight Computer/aircraft/cf1_j_cfg.ks (inferred preloaded)
21.52,APPROACH,FLY_TO_FIX,95.89,85,-10.89,1286.7,-0.01,4.16,4.17,281.16,0.523,0,0,-8.055,1,0.6,4.5,2.868,0.35,0.0168,0.4,26.952,47.225,26.952,10.917,1,281.44,0.3,0,0,0,0.28,0,0.3,281.44,0,0,0,0,0,0,0,47.172,0,0,0,3,0,0,0,2546.47,0,0,0,269.1,0,0,0,0,0,0,0,0,0,0,0,0,0,0,0,0,0,VALID,0,0,0,0,0,1,0,0,0,0,0,0,0,0,0,0,0,0,0,0,0.18,371.11,2,0,0.12,0.12,180,8.33,0.12,0.12,21.52,FLYING,CF1-J,0:/Integrated Flight Computer/aircraft/cf1_j_cfg.ks (inferred preloaded)
21.88,APPROACH,FLY_TO_FIX,95.44,85,-10.44,1286.72,0,4.24,4.24,281.17,0.478,0,0,-7.935,1,0.6,4.5,2.726,0.35,0.0168,0.4,25.729,47.361,25.729,10.464,1,281.44,0.298,0,0,0,0.27,0,0.3,281.44,0,0,0,0,0,0,0,47.135,0,0,0,3,0,0,0,2544.52,0,0,0,269.1,0,0,0,0,0,0,0,0,0,0,0,0,0,0,0,0,0,VALID,0,0,0,0,0,1,0,0,0,0,0,0,0,0,0,0,0,0,0,0,0.17,371.39,2,0,0.12,0.12,183,8.33,0.12,0.12,21.88,FLYING,CF1-J,0:/Integrated Flight Computer/aircraft/cf1_j_cfg.ks (inferred preloaded)
22.24,APPROACH,FLY_TO_FIX,95.03,85,-10.03,1286.73,0.01,4.31,4.31,281.18,0.436,0,0,-7.817,1,0.6,4.5,2.581,0.35,0.0168,0.4,24.6,47.486,24.6,10.048,1,281.44,0.295,0,0,0.01,0.26,0,0.3,281.44,0,0,0,0,0,0,0,47.098,0,0,0,3,0,0,0,2542.57,0,0,0,269.1,0,0,0,0,0,0,0,0,0,0,0,0,0,0,0,0,0,VALID,0,0,0,0,0,1,0,0,0,0,0,0,0,0,0,0,0,0,0,0,0.15,371.65,2,0,0.12,0.12,186,8.33,0.12,0.12,22.24,FLYING,CF1-J,0:/Integrated Flight Computer/aircraft/cf1_j_cfg.ks (inferred preloaded)
22.6,APPROACH,FLY_TO_FIX,94.63,85,-9.63,1286.74,0.02,4.37,4.37,281.2,0.399,0,0,-7.7,1,0.6,4.5,2.438,0.35,0.0168,0.4,23.529,47.603,23.529,9.655,1,281.45,0.293,0,0,0.01,0.25,0,0.29,281.45,0,0,0,0,0,0,0,47.061,0,0,0,3,0,0,0,2540.63,0,0,0,269.1,0,0,0,0,0,0,0,0,0,0,0,0,0,0,0,0,0,VALID,0,0,0,0,0,1,0,0,0,0,0,0,0,0,0,0,0,0,0,0,0.14,371.9,2,0,0.12,0.12,189,8.33,0.12,0.12,22.6,FLYING,CF1-J,0:/Integrated Flight Computer/aircraft/cf1_j_cfg.ks (inferred preloaded)
22.96,APPROACH,FLY_TO_FIX,94.26,85,-9.26,1286.76,0.02,4.44,4.43,281.21,0.366,0,0,-7.585,1,0.6,4.5,2.302,0.35,0.0168,0.4,22.493,47.717,22.493,9.278,1,281.45,0.291,0,0,0.01,0.24,0,0.29,281.45,0,0,0,0,0,0,0,47.024,0,0,0,3,0,0,0,2538.7,0,0,0,269.1,0,0,0,0,0,0,0,0,0,0,0,0,0,0,0,0,0,VALID,0,0,0,0,0,1,0,0,0,0,0,0,0,0,0,0,0,0,0,0,0.13,372.14,2,0,0.12,0.12,192,8.33,0.12,0.12,22.96,FLYING,CF1-J,0:/Integrated Flight Computer/aircraft/cf1_j_cfg.ks (inferred preloaded)
23.32,APPROACH,FLY_TO_FIX,93.89,85,-8.89,1286.78,0.03,4.5,4.49,281.22,0.337,0,0,-7.472,1,0.6,4.5,2.175,0.35,0.0168,0.4,21.482,47.827,21.482,8.911,1,281.45,0.288,0,0,0.02,0.23,0,0.29,281.45,0,0,0,0,0,0,0,46.987,0,0,0,3,0,0,0,2536.78,0,0,0,269.1,0,0,0,0,0,0,0,0,0,0,0,0,0,0,0,0,0,VALID,0,0,0,0,0,1,0,0,0,0,0,0,0,0,0,0,0,0,0,0,0.12,372.37,2,0,0.12,0.12,195,8.33,0.12,0.12,23.32,FLYING,CF1-J,0:/Integrated Flight Computer/aircraft/cf1_j_cfg.ks (inferred preloaded)
23.68,APPROACH,FLY_TO_FIX,93.53,85,-8.53,1286.8,0.04,4.56,4.54,281.22,0.31,0,0,-7.36,1,0.6,4.5,2.056,0.35,0.0168,0.4,20.491,47.934,20.491,8.553,1,281.45,0.287,0,0,0.02,0.22,0,0.29,281.45,0,0,0,0,0,0,0,46.951,0,0,0,3,0,0,0,2534.86,0,0,0,269.1,0,0,0,0,0,0,0,0,0,0,0,0,0,0,0,0,0,VALID,0,0,0,0,0,1,0,0,0,0,0,0,0,0,0,0,0,0,0,0,0.11,372.59,2,0,0.12,0.12,198,8.33,0.12,0.12,23.68,FLYING,CF1-J,0:/Integrated Flight Computer/aircraft/cf1_j_cfg.ks (inferred preloaded)
24.04,APPROACH,FLY_TO_FIX,93.18,85,-8.18,1286.83,0.04,4.62,4.6,281.23,0.286,0,0,-7.25,1,0.6,4.5,1.948,0.35,0.0168,0.4,19.515,48.039,19.515,8.203,1,281.45,0.285,0,0,0.03,0.22,0,0.29,281.45,0,0,0,0,0,0,0,46.914,0,0,0,3,0,0,0,2532.96,0,0,0,269.1,0,0,0,0,0,0,0,0,0,0,0,0,0,0,0,0,0,VALID,0,0,0,0,0,1,0,0,0,0,0,0,0,0,0,0,0,0,0,0,0.1,372.81,2,0,0.12,0.12,201,8.33,0.12,0.12,24.04,FLYING,CF1-J,0:/Integrated Flight Computer/aircraft/cf1_j_cfg.ks (inferred preloaded)
24.4,APPROACH,FLY_TO_FIX,92.84,85,-7.84,1286.85,0.05,4.68,4.66,281.24,0.265,0,0,-7.142,1,0.6,4.5,1.848,0.35,0.0168,0.4,18.551,48.143,18.551,7.858,1,281.45,0.283,0,0,0.03,0.21,0,0.28,281.45,0,0,0,0,0,0,0,46.878,0,0,0,3,0,0,0,2531.05,0,0,0,269.1,0,0,0,0,0,0,0,0,0,0,0,0,0,0,0,0,0,VALID,0,0,0,0,0,1,0,0,0,0,0,0,0,0,0,0,0,0,0,0,0.09,373.03,2,0,0.12,0.12,204,8.33,0.12,0.12,24.4,FLYING,CF1-J,0:/Integrated Flight Computer/aircraft/cf1_j_cfg.ks (inferred preloaded)
24.76,APPROACH,FLY_TO_FIX,92.5,85,-7.5,1286.88,0.05,4.74,4.72,281.25,0.246,0,0,-7.036,1,0.6,4.5,1.758,0.35,0.0168,0.4,17.595,48.245,17.595,7.518,1,281.45,0.282,0,0,0.03,0.2,0,0.28,281.45,0,0,0,0,0,0,0,46.842,0,0,0,3,0,0,0,2529.16,0,0,0,269.1,0,0,0,0,0,0,0,0,0,0,0,0,0,0,0,0,0,VALID,0,0,0,0,0,1,0,0,0,0,0,0,0,0,0,0,0,0,0,0,0.08,373.24,2,0,0.12,0.12,207,8.33,0.12,0.12,24.76,FLYING,CF1-J,0:/Integrated Flight Computer/aircraft/cf1_j_cfg.ks (inferred preloaded)
25.12,APPROACH,FLY_TO_FIX,92.16,85,-7.16,1286.91,0.06,4.8,4.77,281.25,0.229,0,0,-6.931,1,0.6,4.5,1.677,0.35,0.0168,0.4,16.644,48.346,16.644,7.18,1,281.45,0.28,0,0,0.03,0.2,0,0.28,281.45,0,0,0,0,0,0,0,46.806,0,0,0,3,0,0,0,2527.27,0,0,0,269.1,0,0,0,0,0,0,0,0,0,0,0,0,0,0,0,0,0,VALID,0,0,0,0,0,1,0,0,0,0,0,0,0,0,0,0,0,0,0,0,0.08,373.45,2,0,0.12,0.12,210,8.33,0.12,0.12,25.12,FLYING,CF1-J,0:/Integrated Flight Computer/aircraft/cf1_j_cfg.ks (inferred preloaded)
25.48,APPROACH,FLY_TO_FIX,91.83,85,-6.83,1286.94,0.06,4.86,4.83,281.26,0.214,0,0,-6.827,1,0.6,4.5,1.603,0.35,0.0168,0.4,15.694,48.446,15.694,6.845,1,281.45,0.279,0,0,0.04,0.19,0,0.28,281.45,0,0,0,0,0,0,0,46.77,0,0,0,3,0,0,0,2525.39,0,0,0,269.1,0,0,0,0,0,0,0,0,0,0,0,0,0,0,0,0,0,VALID,0,0,0,0,0,1,0,0,0,0,0,0,0,0,0,0,0,0,0,0,0.07,373.66,2,0,0.12,0.12,213,8.33,0.12,0.12,25.48,FLYING,CF1-J,0:/Integrated Flight Computer/aircraft/cf1_j_cfg.ks (inferred preloaded)
25.84,APPROACH,FLY_TO_FIX,91.49,85,-6.49,1286.97,0.06,4.92,4.89,281.26,0.201,0,0,-6.725,1,0.6,4.5,1.537,0.35,0.0168,0.4,14.745,48.547,14.745,6.511,1,281.45,0.278,0,0,0.04,0.19,0,0.28,281.45,0,0,0,0,0,0,0,46.734,0,0,0,3,0,0,0,2523.52,0,0,0,269.1,0,0,0,0,0,0,0,0,0,0,0,0,0,0,0,0,0,VALID,0,0,0,0,0,1,0,0,0,0,0,0,0,0,0,0,0,0,0,0,0.06,373.87,2,0,0.12,0.12,216,8.33,0.12,0.12,25.84,FLYING,CF1-J,0:/Integrated Flight Computer/aircraft/cf1_j_cfg.ks (inferred preloaded)
26.2,APPROACH,FLY_TO_FIX,91.16,85,-6.16,1287,0.06,4.98,4.94,281.27,0.189,0,0,-6.625,1,0.6,4.5,1.478,0.35,0.0168,0.4,13.793,48.647,13.793,6.178,1,281.45,0.277,0,0,0.04,0.18,0,0.28,281.45,0,0,0,0,0,0,0,46.698,0,0,0,3,0,0,0,2521.65,0,0,0,269.1,0,0,0,0,0,0,0,0,0,0,0,0,0,0,0,0,0,VALID,0,0,0,0,0,1,0,0,0,0,0,0,0,0,0,0,0,0,0,0,0.06,374.08,2,0,0.12,0.12,219,8.33,0.12,0.12,26.2,FLYING,CF1-J,0:/Integrated Flight Computer/aircraft/cf1_j_cfg.ks (inferred preloaded)
26.56,APPROACH,FLY_TO_FIX,90.83,85,-5.83,1287.04,0.07,5.04,5,281.27,0.178,0,0,-6.526,1,0.6,4.5,1.425,0.35,0.0168,0.4,12.836,48.747,12.836,5.845,1,281.45,0.276,0,0,0.04,0.18,0,0.28,281.45,0,0,0,0,0,0,0,46.663,0,0,0,3,0,0,0,2519.79,0,0,0,269.1,0,0,0,0,0,0,0,0,0,0,0,0,0,0,0,0,0,VALID,0,0,0,0,0,1,0,0,0,0,0,0,0,0,0,0,0,0,0,0,0.05,374.29,2,0,0.12,0.12,222,8.33,0.12,0.12,26.56,FLYING,CF1-J,0:/Integrated Flight Computer/aircraft/cf1_j_cfg.ks (inferred preloaded)
26.92,APPROACH,FLY_TO_FIX,90.49,85,-5.49,1287.07,0.07,5.1,5.06,281.28,0.168,0,0,-6.429,1,0.6,4.5,1.379,0.35,0.0168,0.4,11.873,48.847,11.873,5.511,1,281.45,0.275,0,0,0.04,0.17,0,0.28,281.45,0,0,0,0,0,0,0,46.628,0,0,0,3,0,0,0,2517.94,0,0,0,269.1,0,0,0,0,0,0,0,0,0,0,0,0,0,0,0,0,0,VALID,0,0,0,0,0,1,0,0,0,0,0,0,0,0,0,0,0,0,0,0,0.05,374.5,2,0,0.12,0.12,225,8.33,0.12,0.12,26.92,FLYING,CF1-J,0:/Integrated Flight Computer/aircraft/cf1_j_cfg.ks (inferred preloaded)
27.28,APPROACH,FLY_TO_FIX,90.16,85,-5.16,1287.11,0.07,5.16,5.12,281.28,0.16,0,0,-6.333,1,0.6,4.5,1.337,0.35,0.0168,0.4,10.904,48.947,10.904,5.176,1,281.45,0.274,0,0,0.05,0.17,0,0.28,281.45,0,0,0,0,0,0,0,46.592,0,0,0,3,0,0,0,2516.09,0,0,0,269.1,0,0,0,0,0,0,0,0,0,0,0,0,0,0,0,0,0,VALID,0,0,0,0,0,1,0,0,0,0,0,0,0,0,0,0,0,0,0,0,0.04,374.71,2,0,0.12,0.12,228,8.33,0.12,0.12,27.28,FLYING,CF1-J,0:/Integrated Flight Computer/aircraft/cf1_j_cfg.ks (inferred preloaded)
27.64,APPROACH,FLY_TO_FIX,89.82,85,-4.82,1287.14,0.07,5.22,5.18,281.29,0.152,0,0,-6.238,1,0.6,4.5,1.301,0.35,0.0168,0.4,9.927,49.048,9.927,4.839,1,281.45,0.274,0,0,0.05,0.17,0,0.28,281.45,0,0,0,0,0,0,0,46.557,0,0,0,3,0,0,0,2514.25,0,0,0,269.1,0,0,0,0,0,0,0,0,0,0,0,0,0,0,0,0,0,VALID,0,0,0,0,0,1,0,0,0,0,0,0,0,0,0,0,0,0,0,0,0.04,374.93,2,0,0.12,0.12,231,8.33,0.12,0.12,27.64,FLYING,CF1-J,0:/Integrated Flight Computer/aircraft/cf1_j_cfg.ks (inferred preloaded)
28,APPROACH,FLY_TO_FIX,89.48,85,-4.48,1287.18,0.07,5.28,5.25,281.29,0.145,0,0,-6.145,1,0.6,4.5,1.27,0.35,0.0168,0.4,8.943,49.149,8.943,4.502,1,281.45,0.273,0,0,0.05,0.16,0,0.27,281.45,0,0,0,0,0,0,0,46.522,0,0,0,3,0,0,0,2512.41,0,0,0,269.1,0,0,0,0,0,0,0,0,0,0,0,0,0,0,0,0,0,VALID,0,0,0,0,0,1,0,0,0,0,0,0,0,0,0,0,0,0,0,0,0,375.14,2,0,0.12,0.12,234,8.33,0.12,0.12,28,FLYING,CF1-J,0:/Integrated Flight Computer/aircraft/cf1_j_cfg.ks (inferred preloaded)
28.36,APPROACH,FLY_TO_FIX,89.15,85,-4.15,1287.22,0.08,5.35,5.31,281.29,0.138,0,0,-6.053,1,0.6,4.5,1.242,0.35,0.0168,0.4,7.952,49.251,7.952,4.164,1,281.45,0.273,0,0,0.05,0.16,0,0.27,281.45,0,0,0,0,0,0,0,46.487,0,0,0,3,0,0,0,2510.59,0,0,0,269.1,0,0,0,0,0,0,0,0,0,0,0,0,0,0,0,0,0,VALID,0,0,0,0,0,1,0,0,0,0,0,0,0,0,0,0,0,0,0,0,0,375.35,2,0,0.12,0.12,237,8.33,0.12,0.12,28.36,FLYING,CF1-J,0:/Integrated Flight Computer/aircraft/cf1_j_cfg.ks (inferred preloaded)
28.72,APPROACH,FLY_TO_FIX,88.81,85,-3.81,1287.25,0.08,5.41,5.37,281.3,0.133,0,0,-5.963,1,0.6,4.5,1.218,0.35,0.0168,0.4,6.952,49.353,6.952,3.824,1,281.45,0.273,0,0,0.05,0.16,0,0.27,281.45,0,0,0,0,0,0,0,46.453,0,0,0,3,0,0,0,2508.77,0,0,0,269.1,0,0,0,0,0,0,0,0,0,0,0,0,0,0,0,0,0,VALID,0,0,0,0,0,1,0,0,0,0,0,0,0,0,0,0,0,0,0,0,0,375.56,2,0,0.12,0.12,240,8.33,0.12,0.12,28.72,FLYING,CF1-J,0:/Integrated Flight Computer/aircraft/cf1_j_cfg.ks (inferred preloaded)
29.08,APPROACH,FLY_TO_FIX,88.46,85,-3.46,1287.29,0.08,5.48,5.44,281.3,0.128,0,0,-5.874,1,0.6,4.5,1.197,0.35,0.0168,0.4,5.946,49.455,5.946,3.484,1,281.45,0.272,0,0,0.05,0.15,0,0.27,281.45,0,0,0,0,0,0,0,46.418,0,0,0,3,0,0,0,2506.95,0,0,0,269.1,0,0,0,0,0,0,0,0,0,0,0,0,0,0,0,0,0,VALID,0,0,0,0,0,1,0,0,0,0,0,0,0,0,0,0,0,0,0,0,0,375.78,2,0,0.12,0.12,243,8.33,0.12,0.12,29.08,FLYING,CF1-J,0:/Integrated Flight Computer/aircraft/cf1_j_cfg.ks (inferred preloaded)
29.44,APPROACH,FLY_TO_FIX,88.12,85,-3.12,1287.33,0.08,5.55,5.51,281.3,0.123,0.0003,0,-6.612,1,0.6,4.5,1.179,0.35,0.0168,0.4,4.931,49.557,4.931,3.142,1,281.45,0.272,0,0,0.05,0.15,0,0.27,281.45,0,0,0,0,0,0,0,46.383,0,0,0,3,0,0,0,2505.15,0,0,0,269.1,0,0,0,0,0,0,0,0,0,0,0,0,0,0,0,0,0,VALID,0,0,0,0,0,1,0,0,0,0,0,0,0,0,0,0,0,0,0,0,0,376,2,0,0.12,0.12,246,8.33,0.12,0.12,29.44,FLYING,CF1-J,0:/Integrated Flight Computer/aircraft/cf1_j_cfg.ks (inferred preloaded)
29.8,APPROACH,FLY_TO_FIX,87.78,85,-2.78,1287.37,0.08,5.61,5.57,281.31,0.119,0.0078,0,-7.661,1,0.6,4.5,1.163,0.35,0.0168,0.4,3.909,49.66,3.909,2.799,1,281.45,0.271,0,0,0.05,0.15,0,0.27,281.45,0,0,0,0,0,0,0,46.349,0,0,0,3,0,0,0,2503.35,0,0,0,269.1,0,0,0,0,0,0,0,0,0,0,0,0,0,0,0,0,0,VALID,0,0,0,0,0,1,0,0,0,0,0,0,0,0,0,0,0,0,0,0,0.02,376.21,2,0,0.12,0.12,249,8.33,0.12,0.12,29.8,FLYING,CF1-J,0:/Integrated Flight Computer/aircraft/cf1_j_cfg.ks (inferred preloaded)
30.16,APPROACH,FLY_TO_FIX,87.44,85,-2.44,1287.41,0.08,5.68,5.64,281.31,0.117,0.0175,0,-8.586,1,0.6,4.5,1.15,0.35,0.0168,0.4,2.879,49.764,2.879,2.454,1,281.45,0.271,0,0,0.05,0.15,0,0.27,281.45,0,0,0,0,0,0,0,46.315,0,0,0,3,0,0,0,2501.55,0,0,0,269.1,0,0,0,0,0,0,0,0,0,0,0,0,0,0,0,0,0,VALID,0,0,0,0,0,1,0,0,0,0,0,0,0,0,0,0,0,0,0,0,0.1,376.43,2,0,0.12,0.12,252,8.33,0.12,0.12,30.16,FLYING,CF1-J,0:/Integrated Flight Computer/aircraft/cf1_j_cfg.ks (inferred preloaded)
30.52,APPROACH,FLY_TO_FIX,87.09,85,-2.09,1287.44,0.08,5.75,5.71,281.31,0.113,0.029,0,-9.387,1,0.6,4.5,1.138,0.35,0.0168,0.4,1.842,49.867,1.842,2.11,1,281.46,0.271,0,0,0.05,0.14,0,0.27,281.46,0,0,0,0,0,0,0,46.281,0,0,0,3,0,0,0,2499.77,0,0,0,269.1,0,0,0,0,0,0,0,0,0,0,0,0,0,0,0,0,0,VALID,0,0,0,0,0,1,0,0,0,0,0,0,0,0,0,0,0,0,0,0,0.27,376.65,2,0,0.12,0.12,255,8.33,0.12,0.12,30.52,FLYING,CF1-J,0:/Integrated Flight Computer/aircraft/cf1_j_cfg.ks (inferred preloaded)
30.88,APPROACH,FLY_TO_FIX,86.75,85,-1.75,1287.48,0.08,5.82,5.78,281.31,0.11,0.0423,0,-10.063,1,0.6,4.5,1.128,0.35,0.0168,0.4,0.801,49.971,0.801,1.765,1,281.46,0.271,0,0,0.05,0.14,0,0.27,281.46,0,0,0,0,0,0,0,46.247,0,0,0,3,0,0,0,2497.99,0,0,0,269.1,0,0,0,0,0,0,0,0,0,0,0,0,0,0,0,0,0,VALID,0,0,0,0,0,1,0,0,0,0,0,0,0,0,0,0,0,0,0,0,0.52,376.87,2,0,0.12,0.12,258,8.33,0.12,0.12,30.88,FLYING,CF1-J,0:/Integrated Flight Computer/aircraft/cf1_j_cfg.ks (inferred preloaded)
31.24,APPROACH,FLY_TO_FIX,86.4,85,-1.4,1287.52,0.08,5.89,5.85,281.32,0.107,0.0573,0,-10.616,1,0.6,4.5,1.12,0.35,0.0168,0.4,0,50.074,0,1.42,0,281.46,0.271,0,0,0.05,0.14,0,0.27,281.46,0,0,0,0,0,0,0,46.213,0,0,0,3,0,0,0,2496.22,0,0,0,269.1,0,0,0,0,0,0,0,0,0,0,0,0,0,0,0,0,0,VALID,0,0,0,0,0,1,0,0,0,0,0,0,0,0,0,0,0,0,0,0,0.89,377.08,2,0,0.12,0.12,261,8.33,0.12,0.12,31.24,FLYING,CF1-J,0:/Integrated Flight Computer/aircraft/cf1_j_cfg.ks (inferred preloaded)
31.6,APPROACH,FLY_TO_FIX,86.06,85,-1.06,1287.56,0.08,5.96,5.92,281.32,0.104,0.0739,0,-11.044,1,0.6,4.5,1.112,0.35,0.0168,0.4,0,50.177,0,1.076,0,281.46,0.271,0,0,0.05,0.14,0,0.27,281.46,0,0,0,0,0,0,0,46.179,0,0,0,3,0,0,0,2494.45,0,0,0,269.1,0,0,0,0,0,0,0,0,0,0,0,0,0,0,0,0,0,VALID,0,0,0,0,0,1,0,0,0,0,0,0,0,0,0,0,0,0,0,0,1.37,377.3,2,0,0.12,0.12,264,8.33,0.12,0.12,31.6,FLYING,CF1-J,0:/Integrated Flight Computer/aircraft/cf1_j_cfg.ks (inferred preloaded)
31.96,APPROACH,FLY_TO_FIX,85.71,85,-0.71,1287.6,0.08,6.03,5.99,281.32,0.101,0.0923,0,-11.349,1,0.6,4.5,1.107,0.35,0.0168,0.4,0,50.28,0,0.732,0,281.46,0.271,0,0,0.05,0.14,0,0.27,281.46,0,0,0,0,0,0,0,46.146,0,0,0,3,0,0,0,2492.69,0,0,0,269.1,0,0,0,0,0,0,0,0,0,0,0,0,0,0,0,0,0,VALID,0,0,0,0,0,1,0,0,0,0,0,0,0,0,0,0,0,0,0,0,1.98,377.52,2,0,0.12,0.12,267,8.33,0.12,0.12,31.96,FLYING,CF1-J,0:/Integrated Flight Computer/aircraft/cf1_j_cfg.ks (inferred preloaded)
32.32,APPROACH,FLY_TO_FIX,85.37,85,-0.37,1287.64,0.07,6.11,6.06,281.32,0.099,0.1122,0,-11.531,1,0.6,4.5,1.107,0.35,0.0168,0.4,0,50.383,0,0.391,0,281.46,0.27,0,0,0.05,0.13,0,0.27,281.46,0,0,0,0,0,0,0,46.112,0,0,0,3,0,0,0,2490.94,0,0,0,269.1,0,0,0,0,0,0,0,0,0,0,0,0,0,0,0,0,0,VALID,0,0,0,0,0,1,0,0,0,0,0,0,0,0,0,0,0,0,0,0,2.73,377.73,2,0,0.12,0.12,270,8.33,0.12,0.12,32.32,FLYING,CF1-J,0:/Integrated Flight Computer/aircraft/cf1_j_cfg.ks (inferred preloaded)
32.68,APPROACH,FLY_TO_FIX,85.03,85,-0.03,1287.68,0.08,6.18,6.13,281.33,0.097,0.1334,0,-11.59,1,0.6,4.5,1.107,0.35,0.0168,0.4,0,50.485,0,0.051,0,281.46,0.27,0,0,0.05,0.13,0,0.27,281.46,0,0,0,0,0,0,0,46.079,0,0,0,3,0,0,0,2489.2,0,0,0,269.1,0,0,0,0,0,0,0,0,0,0,0,0,0,0,0,0,0,VALID,0,0,0,0,0,1,0,0,0,0,0,0,0,0,0,0,0,0,0,0,3.62,377.95,2,0,0.12,0.12,273,8.33,0.12,0.12,32.68,FLYING,CF1-J,0:/Integrated Flight Computer/aircraft/cf1_j_cfg.ks (inferred preloaded)
33.04,APPROACH,FLY_TO_FIX,84.7,85,0.3,1287.72,0.08,6.25,6.21,281.33,0.095,0.1555,0,-11.527,1,0.6,4.5,1.107,0.35,0.0168,0.4,0,50.586,0,-0.285,0,281.46,0.27,0,0,0.05,0.13,0,0.27,281.46,0,0,0,0,0,0,0,46.046,0,0,0,3,0,0,0,2487.46,0,0,0,269.1,0,0,0,0,0,0,0,0,0,0,0,0,0,0,0,0,0,VALID,0,0,0,0,0,1,0,0,0,0,0,0,0,0,0,0,0,0,0,0,4.68,378.16,2,0,0.12,0.12,276,8.33,0.12,0.12,33.04,FLYING,CF1-J,0:/Integrated Flight Computer/aircraft/cf1_j_cfg.ks (inferred preloaded)
33.4,APPROACH,FLY_TO_FIX,84.36,85,0.64,1287.76,0.08,6.32,6.28,281.33,0.094,0.1785,0,-11.345,1,0.6,4.5,1.107,0.35,0.0168,0.4,0,50.685,0,-0.617,0,281.46,0.27,0,0,0.05,0.13,0,0.27,281.46,0,0,0,0,0,0,0,46.013,0,0,0,3,0,0,0,2485.73,0,0,0,269.1,0,0,0,0,0,0,0,0,0,0,0,0,0,0,0,0,0,VALID,0,0,0,0,0,1,0,0,0,0,0,0,0,0,0,0,0,0,0,0,5.89,378.37,2,0,0.12,0.12,279,8.33,0.12,0.12,33.4,FLYING,CF1-J,0:/Integrated Flight Computer/aircraft/cf1_j_cfg.ks (inferred preloaded)
33.76,APPROACH,FLY_TO_FIX,84.04,85,0.96,1287.79,0.08,6.39,6.35,281.33,0.092,0.2022,0,-11.044,1,0.6,4.5,1.107,0.35,0.0168,0.4,0,50.783,0,-0.944,0,281.46,0.27,0,0,0.05,0.13,0,0.27,281.46,0,0,0,0,0,0,0,45.98,0,0,0,3,0,0,0,2484.01,0,0,0,269.1,0,0,0,0,0,0,0,0,0,0,0,0,0,0,0,0,0,VALID,0,0,0,0,0,1,0,0,0,0,0,0,0,0,0,0,0,0,0,0,7.26,378.58,2,0,0.12,0.12,282,8.33,0.12,0.12,33.76,FLYING,CF1-J,0:/Integrated Flight Computer/aircraft/cf1_j_cfg.ks (inferred preloaded)
34.12,APPROACH,FLY_TO_FIX,83.72,85,1.28,1287.83,0.08,6.46,6.41,281.33,0.091,0.2264,0,-10.628,1,0.6,4.5,1.107,0.35,0.0168,0.4,0,50.879,0,-1.264,0,281.46,0.269,0,0,0.05,0.12,0,0.27,281.46,0,0,0,0,0,0,0,45.947,0,0,0,3,0,0,0,2482.29,0,0,0,269.1,0,0,0,0,0,0,0,0,0,0,0,0,0,0,0,0,0,VALID,0,0,0,0,0,1,0,0,0,0,0,0,0,0,0,0,0,0,0,0,8.8,378.78,2,0,0.12,0.12,285,8.33,0.12,0.12,34.12,FLYING,CF1-J,0:/Integrated Flight Computer/aircraft/cf1_j_cfg.ks (inferred preloaded)
34.48,APPROACH,FLY_TO_FIX,83.41,85,1.59,1287.87,0.08,6.52,6.48,281.34,0.089,0.2509,0,-10.097,1,0.6,4.5,1.107,0.35,0.0168,0.4,0,50.973,0,-1.577,0,281.46,0.269,0,0,0.05,0.12,0,0.27,281.46,0,0,0,0,0,0,0,45.915,0,0,0,3,0,0,0,2480.58,0,0,0,269.1,0,0,0,0,0,0,0,0,0,0,0,0,0,0,0,0,0,VALID,0,0,0,0,0,1,0,0,0,0,0,0,0,0,0,0,0,0,0,0,10.51,378.98,2,0,0.12,0.12,288,8.33,0.12,0.12,34.48,FLYING,CF1-J,0:/Integrated Flight Computer/aircraft/cf1_j_cfg.ks (inferred preloaded)
34.84,APPROACH,FLY_TO_FIX,83.1,85,1.9,1287.91,0.08,6.59,6.54,281.34,0.087,0.2757,0,-9.456,1,0.6,4.5,1.107,0.35,0.0168,0.4,0,51.064,0,-1.881,0,281.46,0.269,0,0,0.05,0.12,0,0.27,281.46,0,0,0,0,0,0,0,45.882,0,0,0,3,0,0,0,2478.87,0,0,0,269.1,0,0,0,0,0,0,0,0,0,0,0,0,0,0,0,0,0,VALID,0,0,0,0,0,1,0,0,0,0,0,0,0,0,0,0,0,0,0,0,12.38,379.17,2,0,0.12,0.12,291,8.33,0.12,0.12,34.84,FLYING,CF1-J,0:/Integrated Flight Computer/aircraft/cf1_j_cfg.ks (inferred preloaded)
35.2,APPROACH,FLY_TO_FIX,82.81,85,2.19,1287.94,0.08,6.65,6.61,281.34,0.085,0.3005,0,-8.708,1,0.6,4.5,1.107,0.35,0.0168,0.4,0,51.153,0,-2.175,0,281.46,0.269,0,0,0.05,0.12,0,0.27,281.46,0,0,0,0,0,0,0,45.85,0,0,0,3,0,0,0,2477.17,0,0,0,269.1,0,0,0,0,0,0,0,0,0,0,0,0,0,0,0,0,0,VALID,0,0,0,0,0,1,0,0,0,0,0,0,0,0,0,0,0,0,0,0,14.41,379.35,2,0,0.12,0.12,294,8.33,0.12,0.12,35.2,FLYING,CF1-J,0:/Integrated Flight Computer/aircraft/cf1_j_cfg.ks (inferred preloaded)
35.56,APPROACH,FLY_TO_FIX,82.53,85,2.47,1287.98,0.08,6.71,6.67,281.34,0.084,0.3252,0,-7.857,1,0.6,4.5,1.107,0.35,0.0168,0.4,0,51.238,0,-2.459,0,281.46,0.269,0,0,0.05,0.12,0,0.27,281.46,0,0,0,0,0,0,0,45.817,0,0,0,3,0,0,0,2475.48,0,0,0,269.1,0,0,0,0,0,0,0,0,0,0,0,0,0,0,0,0,0,VALID,0,0,0,0,0,1,0,0,0,0,0,0,0,0,0,0,0,0,0,0,16.61,379.53,2,0,0.12,0.12,297,8.33,0.12,0.12,35.56,FLYING,CF1-J,0:/Integrated Flight Computer/aircraft/cf1_j_cfg.ks (inferred preloaded)
35.92,APPROACH,FLY_TO_FIX,82.25,85,2.75,1288.02,0.08,6.77,6.72,281.34,0.082,0.3497,0,-6.906,1,0.6,4.5,1.107,0.35,0.0168,0.4,0,51.319,0,-2.73,0,281.46,0.268,0,0,0.05,0.12,0,0.27,281.46,0,0,0,0,0,0,0,45.785,0,0,0,3,0,0,0,2473.79,0,0,0,269.1,0,0,0,0,0,0,0,0,0,0,0,0,0,0,0,0,0,VALID,0,0,0,0,0,1,0,0,0,0,0,0,0,0,0,0,0,0,0,0,18.96,379.7,2,0,0.12,0.12,300,8.33,0.12,0.12,35.92,FLYING,CF1-J,0:/Integrated Flight Computer/aircraft/cf1_j_cfg.ks (inferred preloaded)
36.28,APPROACH,FLY_TO_FIX,82,85,3,1288.05,0.08,6.82,6.78,281.34,0.081,0.3738,0,-5.861,1,0.6,4.5,1.107,0.35,0.0168,0.4,0,51.397,0,-2.989,0,281.46,0.268,0,0,0.05,0.12,0,0.27,281.46,0,0,0,0,0,0,0,45.753,0,0,0,3,0,0,0,2472.11,0,0,0,269.1,0,0,0,0,0,0,0,0,0,0,0,0,0,0,0,0,0,VALID,0,0,0,0,0,1,0,0,0,0,0,0,0,0,0,0,0,0,0,0,21.45,379.87,2,0,0.12,0.12,303,8.33,0.12,0.12,36.28,FLYING,CF1-J,0:/Integrated Flight Computer/aircraft/cf1_j_cfg.ks (inferred preloaded)
36.64,APPROACH,FLY_TO_FIX,81.75,85,3.25,1288.09,0.08,6.87,6.83,281.35,0.079,0.3974,0,-4.726,1,0.6,4.5,1.107,0.35,0.0168,0.4,0,51.47,0,-3.234,0,281.46,0.267,0,0,0.06,0.11,0,0.27,281.46,0,0,0,0,0,0,0,45.721,0,0,0,3,0,0,0,2470.43,0,0,0,269.1,0,0,0,0,0,0,0,0,0,0,0,0,0,0,0,0,0,VALID,0,0,0,0,0,1,0,0,0,0,0,0,0,0,0,0,0,0,0,0,24.09,380.02,2,0,0.12,0.12,306,8.33,0.12,0.12,36.64,FLYING,CF1-J,0:/Integrated Flight Computer/aircraft/cf1_j_cfg.ks (inferred preloaded)
37,APPROACH,FLY_TO_FIX,81.52,85,3.48,1288.13,0.08,6.92,6.87,281.35,0.078,0.4204,0,-3.506,1,0.6,4.5,1.107,0.35,0.0168,0.4,0,51.539,0,-3.464,0,281.46,0.267,0,0,0.06,0.11,0,0.27,281.46,0,0,0,0,0,0,0,45.689,0,0,0,3,0,0,0,2468.76,0,0,0,269.1,0,0,0,0,0,0,0,0,0,0,0,0,0,0,0,0,0,VALID,0,0,0,0,0,1,0,0,0,0,0,0,0,0,0,0,0,0,0,0,26.87,380.17,2,0,0.12,0.12,309,8.33,0.12,0.12,37,FLYING,CF1-J,0:/Integrated Flight Computer/aircraft/cf1_j_cfg.ks (inferred preloaded)
37.36,APPROACH,FLY_TO_FIX,81.31,85,3.69,1288.16,0.08,6.97,6.92,281.35,0.077,0.4426,0,-2.207,1,0.6,4.5,1.107,0.35,0.0168,0.4,0,51.603,0,-3.677,0,281.46,0.266,0,0,0.06,0.11,0,0.27,281.46,0,0,0,0,0,0,0,45.657,0,0,0,3,0,0,0,2467.09,0,0,0,269.1,0,0,0,0,0,0,0,0,0,0,0,0,0,0,0,0,0,VALID,0,0,0,0,0,1,0,0,0,0,0,0,0,0,0,0,0,0,0,0,29.78,380.3,2,0,0.12,0.12,312,8.33,0.12,0.12,37.36,FLYING,CF1-J,0:/Integrated Flight Computer/aircraft/cf1_j_cfg.ks (inferred preloaded)
37.72,APPROACH,FLY_TO_FIX,81.12,85,3.88,1288.2,0.08,7.01,6.96,281.35,0.075,0.4639,0,-0.836,1,0.6,4.5,1.107,0.35,0.0168,0.4,0,51.662,0,-3.874,0,281.46,0.265,0,0,0.06,0.11,0,0.27,281.46,0,0,0,0,0,0,0,45.626,0,0,0,3,0,0,0,2465.42,0,0,0,269.1,0,0,0,0,0,0,0,0,0,0,0,0,0,0,0,0,0,VALID,0,0,0,0,0,1,0,0,0,0,0,0,0,0,0,0,0,0,0,0,32.8,380.42,2,0,0.12,0.12,315,8.33,0.12,0.12,37.72,FLYING,CF1-J,0:/Integrated Flight Computer/aircraft/cf1_j_cfg.ks (inferred preloaded)
38.08,APPROACH,FLY_TO_FIX,80.94,85,4.06,1288.24,0.09,7.04,6.99,281.35,0.073,0.4842,0,0.602,1,0.6,4.5,1.107,0.35,0.0168,0.4,0,51.716,0,-4.053,0,281.46,0.264,0,0,0.06,0.11,0,0.27,281.46,0,0,0,0,0,0,0,45.594,0,0,0,3,0,0,0,2463.76,0,0,0,269.1,0,0,0,0,0,0,0,0,0,0,0,0,0,0,0,0,0,VALID,0,0,0,0,0,1,0,0,0,0,0,0,0,0,0,0,0,0,0,0,35.93,380.53,2,0,0.12,0.12,318,8.33,0.12,0.12,38.08,FLYING,CF1-J,0:/Integrated Flight Computer/aircraft/cf1_j_cfg.ks (inferred preloaded)
38.44,APPROACH,FLY_TO_FIX,80.78,85,4.22,1288.27,0.09,7.07,7.02,281.35,0.071,0.5033,0,2.101,1,0.6,4.5,1.107,0.35,0.0168,0.4,0,51.764,0,-4.213,0,281.46,0.263,0,0,0.06,0.11,0,0.26,281.46,0,0,0,0,0,0,0,45.562,0,0,0,3,0,0,0,2462.1,0,0,0,269.1,0,0,0,0,0,0,0,0,0,0,0,0,0,0,0,0,0,VALID,0,0,0,0,0,1,0,0,0,0,0,0,0,0,0,0,0,0,0,0,39.15,380.63,2,0,0.12,0.12,321,8.33,0.12,0.12,38.44,FLYING,CF1-J,0:/Integrated Flight Computer/aircraft/cf1_j_cfg.ks (inferred preloaded)
38.8,APPROACH,FLY_TO_FIX,80.64,85,4.36,1288.31,0.09,7.1,7.04,281.35,0.069,0.5211,0,3.652,1,0.6,4.5,1.107,0.35,0.0168,0.4,0,51.806,0,-4.354,0,281.46,0.262,0,0,0.07,0.11,0,0.26,281.46,0,0,0,0,0,0,0,45.531,0,0,0,3,0,0,0,2460.45,0,0,0,269.1,0,0,0,0,0,0,0,0,0,0,0,0,0,0,0,0,0,VALID,0,0,0,0,0,1,0,0,0,0,0,0,0,0,0,0,0,0,0,0,42.46,380.72,2,0,0.12,0.12,324,8.33,0.12,0.12,38.8,FLYING,CF1-J,0:/Integrated Flight Computer/aircraft/cf1_j_cfg.ks (inferred preloaded)
39.16,APPROACH,FLY_TO_FIX,80.52,85,4.48,1288.35,0.1,7.12,7.06,281.35,0.068,0.5376,0,5.249,1,0.6,4.5,1.107,0.35,0.0168,0.4,0,51.843,0,-4.475,0,281.46,0.261,0,0,0.07,0.11,0,0.26,281.46,0,0,0,0,0,0,0,45.499,0,0,0,3,0,0,0,2458.8,0,0,0,269.1,0,0,0,0,0,0,0,0,0,0,0,0,0,0,0,0,0,VALID,0,0,0,0,0,1,0,0,0,0,0,0,0,0,0,0,0,0,0,0,45.84,380.79,2,0,0.12,0.12,327,8.33,0.12,0.12,39.16,FLYING,CF1-J,0:/Integrated Flight Computer/aircraft/cf1_j_cfg.ks (inferred preloaded)
39.52,APPROACH,FLY_TO_FIX,80.42,85,4.58,1288.39,0.1,7.14,7.07,281.35,0.067,0.5526,0,6.884,1,0.6,4.5,1.107,0.35,0.0168,0.4,0,51.873,0,-4.575,0,281.46,0.259,0,0,0.07,0.11,0,0.26,281.46,0,0,0,0,0,0,0,45.468,0,0,0,3,0,0,0,2457.15,0,0,0,269.1,0,0,0,0,0,0,0,0,0,0,0,0,0,0,0,0,0,VALID,0,0,0,0,0,1,0,0,0,0,0,0,0,0,0,0,0,0,0,0,49.28,380.86,2,0,0.12,0.12,330,8.33,0.12,0.12,39.52,FLYING,CF1-J,0:/Integrated Flight Computer/aircraft/cf1_j_cfg.ks (inferred preloaded)
39.88,APPROACH,FLY_TO_FIX,80.34,85,4.66,1288.42,0.11,7.15,7.08,281.36,0.065,0.566,0,8.551,1,0.6,4.5,1.107,0.35,0.0168,0.4,0,51.896,0,-4.654,0,281.46,0.258,0,0,0.07,0.11,0,0.26,281.46,0,0,0,0,0,0,0,45.436,0,0,0,3,0,0,0,2455.5,0,0,0,269.1,0,0,0,0,0,0,0,0,0,0,0,0,0,0,0,0,0,VALID,0,0,0,0,0,1,0,0,0,0,0,0,0,0,0,0,0,0,0,0,52.77,380.9,2,0,0.12,0.12,333,8.33,0.12,0.12,39.88,FLYING,CF1-J,0:/Integrated Flight Computer/aircraft/cf1_j_cfg.ks (inferred preloaded)
40.24,APPROACH,FLY_TO_FIX,80.29,85,4.71,1288.46,0.11,7.15,7.08,281.36,0.064,0.5777,0,10.24,1,0.6,4.5,1.107,0.35,0.0168,0.4,0,51.913,0,-4.711,0,281.46,0.256,0,0,0.08,0.11,0,0.26,281.46,0,0,0,0,0,0,0,45.405,0,0,0,3,0,0,0,2453.85,0,0,0,269.1,0,0,0,0,0,0,0,0,0,0,0,0,0,0,0,0,0,VALID,0,0,0,0,0,1,0,0,0,0,0,0,0,0,0,0,0,0,0,0,56.28,380.94,2,0,0.12,0.12,336,8.33,0.12,0.12,40.24,FLYING,CF1-J,0:/Integrated Flight Computer/aircraft/cf1_j_cfg.ks (inferred preloaded)
40.6,APPROACH,FLY_TO_FIX,80.25,85,4.75,1288.5,0.11,7.15,7.08,281.36,0.062,0.5877,0,11.945,1,0.6,4.5,1.107,0.35,0.0168,0.4,0,51.924,0,-4.745,0,281.46,0.255,0,0,0.08,0.11,0,0.26,281.46,0,0,0,0,0,0,0,45.373,0,0,0,3,0,0,0,2452.2,0,0,0,269.1,0,0,0,0,0,0,0,0,0,0,0,0,0,0,0,0,0,VALID,0,0,0,0,0,1,0,0,0,0,0,0,0,0,0,0,0,0,0,0,59.81,380.96,2,0,0.12,0.12,339,8.33,0.12,0.12,40.6,FLYING,CF1-J,0:/Integrated Flight Computer/aircraft/cf1_j_cfg.ks (inferred preloaded)
40.96,APPROACH,FLY_TO_FIX,80.24,85,4.76,1288.54,0.12,7.14,7.07,281.36,0.061,0.596,0,13.657,1,0.6,4.5,1.107,0.35,0.0168,0.4,0,51.927,0,-4.758,0,281.46,0.253,0,0,0.09,0.11,0,0.25,281.46,0,0,0,0,0,0,0,45.342,0,0,0,3,0,0,0,2450.56,0,0,0,269.1,0,0,0,0,0,0,0,0,0,0,0,0,0,0,0,0,0,VALID,0,0,0,0,0,1,0,0,0,0,0,0,0,0,0,0,0,0,0,0,63.34,380.96,2,0,0.12,0.12,342,8.33,0.12,0.12,40.96,FLYING,CF1-J,0:/Integrated Flight Computer/aircraft/cf1_j_cfg.ks (inferred preloaded)
41.32,APPROACH,FLY_TO_FIX,80.25,85,4.75,1288.59,0.13,7.13,7.05,281.36,0.059,0.6023,0,15.368,1,0.6,4.5,1.107,0.35,0.0168,0.4,0,51.924,0,-4.748,0,281.46,0.251,0,0,0.09,0.1,0,0.25,281.46,0,0,0,0,0,0,0,45.31,0,0,0,3,0,0,0,2448.91,0,0,0,269.1,0,0,0,0,0,0,0,0,0,0,0,0,0,0,0,0,0,VALID,0,0,0,0,0,1,0,0,0,0,0,0,0,0,0,0,0,0,0,0,66.85,380.95,2,0,0.12,0.12,345,8.33,0.12,0.12,41.32,FLYING,CF1-J,0:/Integrated Flight Computer/aircraft/cf1_j_cfg.ks (inferred preloaded)
41.68,APPROACH,FLY_TO_FIX,80.29,85,4.71,1288.63,0.13,7.11,7.03,281.36,0.059,0.6067,0,17.07,1,0.6,4.5,1.107,0.35,0.0168,0.4,0,51.914,0,-4.715,0,281.46,0.249,0,0,0.09,0.1,0,0.25,281.46,0,0,0,0,0,0,0,45.279,0,0,0,3,0,0,0,2447.27,0,0,0,269.1,0,0,0,0,0,0,0,0,0,0,0,0,0,0,0,0,0,VALID,0,0,0,0,0,1,0,0,0,0,0,0,0,0,0,0,0,0,0,0,70.33,380.93,2,0,0.12,0.12,348,8.33,0.12,0.12,41.68,FLYING,CF1-J,0:/Integrated Flight Computer/aircraft/cf1_j_cfg.ks (inferred preloaded)
42.04,APPROACH,FLY_TO_FIX,80.34,85,4.66,1288.68,0.14,7.09,7,281.36,0.057,0.6092,0,18.755,1,0.6,4.5,1.107,0.35,0.0168,0.4,0,51.898,0,-4.659,0,281.46,0.247,0,0,0.1,0.1,0,0.25,281.46,0,0,0,0,0,0,0,45.248,0,0,0,3,0,0,0,2445.62,0,0,0,269.1,0,0,0,0,0,0,0,0,0,0,0,0,0,0,0,0,0,VALID,0,0,0,0,0,1,0,0,0,0,0,0,0,0,0,0,0,0,0,0,73.77,380.89,2,0,0.12,0.12,351,8.33,0.12,0.12,42.04,FLYING,CF1-J,0:/Integrated Flight Computer/aircraft/cf1_j_cfg.ks (inferred preloaded)
42.4,APPROACH,FLY_TO_FIX,80.42,85,4.58,1288.72,0.14,7.06,6.97,281.36,0.055,0.6028,0,20,1,0.6,4.5,1.107,0.35,0.0168,0.4,0,51.874,0,-4.581,0,281.46,0.245,0,0,0.1,0.1,0,0.25,281.46,0,0,0,0,0,0,0,45.216,0,0,0,3,0,0,0,2443.97,0,0,0,269.1,0,0,0,0,0,0,0,0,0,0,0,0,0,0,0,0,0,VALID,0,0,0,0,0,1,0,0,0,0,0,0,0,0,0,0,0,0,0,0,77.15,380.83,2,0,0.12,0.12,354,8.33,0.12,0.12,42.4,FLYING,CF1-J,0:/Integrated Flight Computer/aircraft/cf1_j_cfg.ks (inferred preloaded)
42.76,APPROACH,FLY_TO_FIX,80.52,85,4.48,1288.77,0.15,7.03,6.93,281.36,0.054,0.574,0,20,1,0.6,4.5,1.107,0.35,0.0168,0.4,0,51.844,0,-4.481,0,281.46,0.242,0,0,0.11,0.1,0,0.24,281.46,0,0,0,0,0,0,0,45.185,0,0,0,3,0,0,0,2442.32,0,0,0,269.1,0,0,0,0,0,0,0,0,0,0,0,0,0,0,0,0,0,VALID,0,0,0,0,0,1,0,0,0,0,0,0,0,0,0,0,0,0,0,0,80.33,380.77,2,0,0.12,0.12,357,8.33,0.12,0.12,42.76,FLYING,CF1-J,0:/Integrated Flight Computer/aircraft/cf1_j_cfg.ks (inferred preloaded)
43.12,APPROACH,FLY_TO_FIX,80.65,85,4.35,1288.82,0.16,7,6.89,281.36,0.052,0.5445,0,20,1,0.6,4.5,1.107,0.35,0.0168,0.4,0,51.808,0,-4.36,0,281.46,0.24,0,0,0.11,0.1,0,0.24,281.46,0,0,0,0,0,0,0,45.153,0,0,0,3,0,0,0,2440.66,0,0,0,269.1,0,0,0,0,0,0,0,0,0,0,0,0,0,0,0,0,0,VALID,0,0,0,0,0,1,0,0,0,0,0,0,0,0,0,0,0,0,0,0,83.2,380.68,2,0,0.12,0.12,360,8.33,0.12,0.12,43.12,FLYING,CF1-J,0:/Integrated Flight Computer/aircraft/cf1_j_cfg.ks (inferred preloaded)
43.48,APPROACH,FLY_TO_FIX,80.79,85,4.21,1288.87,0.17,6.96,6.85,281.36,0.051,0.5149,0,20,1,0.6,4.5,1.107,0.35,0.0168,0.4,0,51.766,0,-4.22,0,281.46,0.238,0,0,0.12,0.1,0,0.24,281.46,0,0,0,0,0,0,0,45.121,0,0,0,3,0,0,0,2439.01,0,0,0,269.1,0,0,0,0,0,0,0,0,0,0,0,0,0,0,0,0,0,VALID,0,0,0,0,0,1,0,0,0,0,0,0,0,0,0,0,0,0,0,0,85.76,380.59,2,0,0.12,0.12,363,8.33,0.12,0.12,43.48,FLYING,CF1-J,0:/Integrated Flight Computer/aircraft/cf1_j_cfg.ks (inferred preloaded)
43.84,APPROACH,FLY_TO_FIX,80.95,85,4.05,1288.93,0.17,6.92,6.8,281.36,0.051,0.4855,0,20,1,0.6,4.5,1.107,0.35,0.0168,0.4,0,51.719,0,-4.062,0,281.47,0.235,0,0,0.12,0.1,0,0.24,281.47,0,0,0,0,0,0,0,45.09,0,0,0,3,0,0,0,2437.35,0,0,0,269.1,0,0,0,0,0,0,0,0,0,0,0,0,0,0,0,0,0,VALID,0,0,0,0,0,1,0,0,0,0,0,0,0,0,0,0,0,0,0,0,88.03,380.49,2,0,0.12,0.12,366,8.33,0.12,0.12,43.84,FLYING,CF1-J,0:/Integrated Flight Computer/aircraft/cf1_j_cfg.ks (inferred preloaded)
44.2,APPROACH,FLY_TO_FIX,81.12,85,3.88,1288.98,0.18,6.87,6.76,281.36,0.049,0.4567,0,20,1,0.6,4.5,1.107,0.35,0.0168,0.4,0,51.667,0,-3.889,0,281.47,0.233,0,0,0.13,0.1,0,0.23,281.47,0,0,0,0,0,0,0,45.058,0,0,0,3,0,0,0,2435.69,0,0,0,269.1,0,0,0,0,0,0,0,0,0,0,0,0,0,0,0,0,0,VALID,0,0,0,0,0,1,0,0,0,0,0,0,0,0,0,0,0,0,0,0,90,380.37,2,0,0.12,0.12,369,8.33,0.12,0.12,44.2,FLYING,CF1-J,0:/Integrated Flight Computer/aircraft/cf1_j_cfg.ks (inferred preloaded)
44.56,APPROACH,FLY_TO_FIX,81.31,85,3.69,1289.04,0.19,6.82,6.7,281.36,0.048,0.4285,0,20,1,0.6,4.5,1.107,0.35,0.0168,0.4,0,51.611,0,-3.702,0,281.47,0.23,0,0,0.13,0.1,0,0.23,281.47,0,0,0,0,0,0,0,45.026,0,0,0,3,0,0,0,2434.02,0,0,0,269.1,0,0,0,0,0,0,0,0,0,0,0,0,0,0,0,0,0,VALID,0,0,0,0,0,1,0,0,0,0,0,0,0,0,0,0,0,0,0,0,91.7,380.25,2,0,0.12,0.12,372,8.33,0.12,0.12,44.56,FLYING,CF1-J,0:/Integrated Flight Computer/aircraft/cf1_j_cfg.ks (inferred preloaded)
44.92,APPROACH,FLY_TO_FIX,81.51,85,3.49,1289.1,0.19,6.78,6.65,281.36,0.047,0.4012,0,20,1,0.6,4.5,1.107,0.35,0.0168,0.4,0,51.551,0,-3.503,0,281.47,0.228,0,0,0.14,0.1,0,0.23,281.47,0,0,0,0,0,0,0,44.994,0,0,0,3,0,0,0,2432.35,0,0,0,269.1,0,0,0,0,0,0,0,0,0,0,0,0,0,0,0,0,0,VALID,0,0,0,0,0,1,0,0,0,0,0,0,0,0,0,0,0,0,0,0,93.13,380.12,2,0,0.12,0.12,375,8.33,0.12,0.12,44.92,FLYING,CF1-J,0:/Integrated Flight Computer/aircraft/cf1_j_cfg.ks (inferred preloaded)
45.28,APPROACH,FLY_TO_FIX,81.71,85,3.29,1289.16,0.23,6.71,6.56,281.36,0.046,0.3763,0,20,1,0.6,4.5,1.107,0.35,0.0168,0.4,0,51.492,0,-3.306,0,281.47,0.22,0,0,0.15,0.1,0,0.22,281.47,0,0,0,0,0,0,0,44.964,0,0,0,3,0,0,0,2430.77,0,0,0,269.1,0,0,0,0,0,0,0,0,0,0,0,0,0,1,1,0,0,VALID,0,0,0,0,0,1,0,0,0,0,0,0,0,0,0,0,0,0,0,0,94.24,379.99,2,0,0.1,0.1,378,8.82,0.12,0.1,45.28,FLYING,CF1-J,0:/Integrated Flight Computer/aircraft/cf1_j_cfg.ks (inferred preloaded)
