t_s,phase,subphase,ias_ms,vapp_ms,spd_err_ms,agl_m,gear_h_m,vs_ms,pitch_deg,aoa_deg,hdg_deg,bank_deg,thr_cmd,thr_cur,thr_intg,at_gain,at_tau_s,at_a_up,at_a_dn,at_kp_thr,at_ki_spd,at_thr_slew,as_cmd_deg,as_cap_deg,as_raw_deg,as_spd_err_ms,as_active,aa_hdg_cmd_deg,aa_fpa_cmd_deg,aa_fbw,aa_dir,actual_fpa_deg,ftf_hdg_err_deg,ftf_fix_idx,kos_steer_pit_deg,kos_steer_hdg_deg,aa_dir_vx,aa_dir_vy,aa_dir_vz,aa_dir_pitch_deg,aa_dir_hdg_deg,ils_loc_m,ils_gs_m,ils_dist_km,loc_corr_deg,gs_corr_deg,gs_latched,active_gs_ang_deg,ils_intercept_alt_m,d_gs_ms,fpa_preclamped_deg,gs_nom_alt_m,flare_fpa_cmd,flare_tgt_vs,flare_frac,flare_mode,flare_auth_limited,flare_auth_reason,flare_vs_err,flare_fpa_err,flare_pitch_err,flare_theta_cmd_raw,flare_theta_cmd_clamped,flare_theta_clamp_active,flare_pitch_in_cmd,elev_defl_avg_deg,elev_defl_max_deg,elev_defl_n,flare_ctrl_h_m,flare_req_up_a,flare_thr_floor,flare_tecs_et_err,flare_tecs_eb_err,flare_tecs_h_ref,flare_tecs_v_ref,flare_gamma_ref,flare_gamma_eb_term,flare_gamma_unsat,steer_hdg_deg,steer_blend,ro_loc_corr_deg,ro_hdg_err_deg,ro_yaw_tgt,ro_yaw_scale,ro_yaw_gate,yaw_cmd,roll_cmd,pitch_cmd,ro_pitch_tgt_deg,ro_pitch_err_deg,ro_pitch_ff,ro_roll_assist,flaps_cur,flaps_tgt,asc_j_ab,asc_j_rk,asc_validity,asc_q_pa,asc_q_raw_pa,asc_mach,asc_apo_m,asc_drag_n,asc_w_prop,asc_edot_aero,asc_edot_orb,asc_pitch_bias,asc_blend,asc_spooling,asc_ab_thr_ratio,asc_ab_t_now,asc_ab_t_avail,asc_ab_ign_on,asc_ab_flameouts,asc_rk_t_now,asc_rk_t_avail,asc_rk_ign_on,asc_rk_flameouts,ship_thrust,ship_avail_thrust,ship_ign_on,ship_flameouts,ifc_raw_dt_s,ifc_dt_s,ifc_loop_n,ifc_hz_est,ifc_raw_dt_max_s,ifc_raw_dt_min_s,phase_el_s,status,craft_name,cfg_file
0.16,APPROACH,ILS_TRACK,155.84,152,-3.84,649.6,569.22,-20.08,8.98,16.01,270.04,0.119,0,0,0,0,0,0,0,0,0,0,0,0,0,0,0,0,0,1,0,-7.36,0,0,0,90,0,0,0,0,0,0,-32.01,11.596,0,0,0,3,649.6,0,0,681.99,0,0,0,,0,NONE,0,0,0,0,0,0,0,0,0,0,569.22,0,0,0,0,0,0,0,0,0,270.04,0,0,0,0,0,0,0,0,0,0,0,0,0,0,0,0,0,VALID,0,0,0,0,0,1,0,0,0,0,0,0,0,0,0,0,0,0,0,0,258.56,1096.84,2,0,0.14,0.14,1,3.7,0.14,0.02,0.16,FLYING,X10-F,0:/Integrated Flight Computer/aircraft/x10_f_cfg.ks (inferred preloaded)
0.48,APPROACH,ILS_TRACK,155.78,152,-3.78,643.44,562.95,-19.18,9.38,16.1,270.05,0.12,0,0,0,1,0.6,2.149,0.75,0.35,0.0168,0.4,2.579,20.823,2.579,3.791,1,269.99,0,0,1,-7.05,0,0,0,269.99,0.7538,-0.0001,-0.6571,0,269.99,0.01,-35.23,11.547,-0.007,19.104,1,3,649.6,-10.67,0,679.43,0,0,0,,0,NONE,0,0,0,0,0,0,0,0,0,0,562.95,0,0,0,0,0,0,0,0,0,270.04,0,0,0,0,0,0,0,0,0,0,0,0,0,1,3,0,0,VALID,0,0,0,0,0,1,0,0,0,0,0,0,0,0,0,0,0,0,0,0,231.14,1097.1,2,0,0.08,0.08,4,9.38,0.14,0.08,0.48,FLYING,X10-F,0:/Integrated Flight Computer/aircraft/x10_f_cfg.ks (inferred preloaded)
0.78,APPROACH,ILS_TRACK,155.66,152,-3.66,637.82,557.29,-18.48,9.52,16.02,270.03,0.059,0,0,0,1,0.6,3.822,0.75,0.35,0.0168,0.4,2.446,20.857,2.446,3.67,1,269.99,0,0,1,-6.82,0,0,0,269.99,0.7538,-0.0002,-0.6571,0,269.99,0.02,-38.31,11.498,-0.012,19.504,1,3,649.6,-10.014,0,676.87,0,0,0,,0,NONE,0,0,0,0,0,0,0,0,0,0,557.29,0,0,0,0,0,0,0,0,0,270.04,0,0,0,0,0,0,0,0,0,0,0,0,0,2,3,0,0,VALID,0,0,0,0,0,1,0,0,0,0,0,0,0,0,0,0,0,0,0,0,208.01,1097,2,0,0.08,0.08,7,10,0.12,0.08,0.78,FLYING,X10-F,0:/Integrated Flight Computer/aircraft/x10_f_cfg.ks (inferred preloaded)
1.08,APPROACH,ILS_TRACK,155.34,152,-3.34,632.22,551.92,-17.64,8.93,15.06,270.02,0.01,0,0,0,1,0.6,4.5,0.75,0.35,0.0168,0.4,2.103,20.945,2.103,3.358,1,269.99,0,0,1,-6.5,0,0,0,269.99,0.7537,-0.0002,-0.6572,0,269.99,0.04,-41.35,11.449,-0.011,20.555,1,3,649.6,-10.189,0,674.31,0,0,0,,0,NONE,0,0,0,0,0,0,0,0,0,0,551.92,0,0,0,0,0,0,0,0,0,270.04,0,0,0,0,0,0,0,0,0,0,0,0,0,2,3,0,0,VALID,0,0,0,0,0,1,0,0,0,0,0,0,0,0,0,0,0,0,0,0,187.05,1096.04,2,0,0.08,0.08,10,10,0.12,0.08,1.08,FLYING,X10-F,0:/Integrated Flight Computer/aircraft/x10_f_cfg.ks (inferred preloaded)
1.44,APPROACH,ILS_TRACK,155.12,152,-3.12,625.59,545.69,-17.11,7.7,13.63,270.01,-0.021,0,0,-0.388,1,0.6,4.5,0.75,0.35,0.0168,0.4,1.857,21.007,1.857,3.135,1,269.99,0,0,1,-6.31,0,0,0,269.99,0.7536,-0.0002,-0.6573,0,269.99,0.05,-44.92,11.391,-0.014,21.363,1,3,649.6,-9.861,0,671.25,0,0,0,,0,NONE,0,0,0,0,0,0,0,0,0,0,545.69,0,0,0,0,0,0,0,0,0,270.04,0,0,0,0,0,0,0,0,0,0,0,0,0,3,3,0,0,VALID,0,0,0,0,0,1,0,0,0,0,0,0,0,0,0,0,0,0,0,0,164.91,1095.57,2,0,0.12,0.12,13,8.33,0.12,0.08,1.44,FLYING,X10-F,0:/Integrated Flight Computer/aircraft/x10_f_cfg.ks (inferred preloaded)
1.78,APPROACH,ILS_TRACK,155.01,152,-3.01,619.37,539.91,-17.18,6.24,12.21,270.01,-0.012,0,0,-0.382,1,0.6,4.5,0.75,0.35,0.0168,0.4,1.717,21.043,1.717,3.009,1,269.99,0,0,1,-6.31,0,0,0,269.99,0.7536,-0.0002,-0.6574,0,269.99,0.07,-48.26,11.335,-0.013,22.228,1,3,649.6,-9.688,0,668.36,0,0,0,,0,NONE,0,0,0,0,0,0,0,0,0,0,539.91,0,0,0,0,0,0,0,0,0,270.04,0,0,0,0,0,0,0,0,0,0,0,0,0,3,3,0,0,VALID,0,0,0,0,0,1,0,0,0,0,0,0,0,0,0,0,0,0,0,0,146.34,1095.51,2,0,0.1,0.1,16,8.82,0.12,0.1,1.78,FLYING,X10-F,0:/Integrated Flight Computer/aircraft/x10_f_cfg.ks (inferred preloaded)
2.12,APPROACH,ILS_TRACK,154.96,152,-2.96,613.37,534,-17.59,5.78,11.98,270.01,-0.007,0,0,-0.376,1,0.6,4.5,0.75,0.35,0.0168,0.4,1.667,21.055,1.667,2.965,1,269.99,0,0,1,-6.46,0,0,0,269.99,0.7535,-0.0002,-0.6574,0,269.99,0.08,-51.4,11.28,-0.011,22.622,1,3,649.6,-9.001,0,665.47,0,0,0,,0,NONE,0,0,0,0,0,0,0,0,0,0,534,0,0,0,0,0,0,0,0,0,270.04,0,0,0,0,0,0,0,0,0,0,0,0,0,3,3,0,0,VALID,0,0,0,0,0,1,0,0,0,0,0,0,0,0,0,0,0,0,0,0,129.89,1095.77,2,0,0.12,0.12,19,8.82,0.12,0.1,2.12,FLYING,X10-F,0:/Integrated Flight Computer/aircraft/x10_f_cfg.ks (inferred preloaded)
2.46,APPROACH,ILS_TRACK,154.81,152,-2.81,607.66,527.94,-17.86,6.71,13.1,270.01,-0.006,0,0,-0.371,1,0.6,4.5,0.75,0.35,0.0168,0.4,1.51,21.095,1.51,2.824,1,269.99,0,0,1,-6.57,0,0,0,269.99,0.7535,-0.0002,-0.6575,0,269.99,0.09,-54.27,11.225,-0.011,22.784,1,3,649.6,-8.128,0,662.58,0,0,0,,0,NONE,0,0,0,0,0,0,0,0,0,0,527.94,0,0,0,0,0,0,0,0,0,270.04,0,0,0,0,0,0,0,0,0,0,0,0,0,3,3,0,0,VALID,0,0,0,0,0,1,0,0,0,0,0,0,0,0,0,0,0,0,0,0,115.26,1095.61,2,0,0.1,0.1,22,8.82,0.12,0.1,2.46,FLYING,X10-F,0:/Integrated Flight Computer/aircraft/x10_f_cfg.ks (inferred preloaded)
2.74,APPROACH,ILS_TRACK,154.51,152,-2.51,603.2,522.91,-17.75,8.47,14.91,270.01,-0.006,0.0366,0,-0.837,1,0.6,4.5,0.75,0.35,0.0168,0.4,1.193,21.174,1.193,2.542,1,269.98,0,0,1,-6.57,0,0,0,269.99,0.7534,-0.0003,-0.6575,0,269.98,0.1,-56.39,11.18,-0.017,22.706,1,3,649.6,-7.238,0,660.21,0,0,0,,0,NONE,0,0,0,0,0,0,0,0,0,0,522.91,0,0,0,0,0,0,0,0,0,270.04,0,0,0,0,0,0,0,0,0,0,0,0,0,3,3,0,0,VALID,0,0,0,0,0,1,0,0,0,0,0,0,0,0,0,0,0,0,0,0,104.5,1094.76,2,0,0.08,0.08,25,10.71,0.1,0.08,2.74,FLYING,X10-F,0:/Integrated Flight Computer/aircraft/x10_f_cfg.ks (inferred preloaded)
3.04,APPROACH,ILS_TRACK,153.9,152,-1.9,598.59,517.69,-16.7,10.57,16.62,270.01,-0.012,0.1566,0,-1.491,1,0.6,4.5,0.75,0.35,0.0168,0.4,0,21.341,0,1.952,0,269.99,0,0,1,-6.25,0,0,0,269.99,0.7534,-0.0003,-0.6576,0,269.99,0.11,-58.47,11.132,-0.015,23.109,1,3,649.6,-6.961,0,657.68,0,0,0,,0,NONE,0,0,0,0,0,0,0,0,0,0,517.69,0,0,0,0,0,0,0,0,0,270.04,0,0,0,0,0,0,0,0,0,0,0,0,0,3,3,0,0,VALID,0,0,0,0,0,1,0,0,0,0,0,0,0,0,0,0,0,0,0,0,101.11,1092.55,2,0,0.08,0.08,28,10,0.12,0.08,3.04,FLYING,X10-F,0:/Integrated Flight Computer/aircraft/x10_f_cfg.ks (inferred preloaded)
3.34,APPROACH,ILS_TRACK,152.9,152,-0.9,593.9,512.89,-15.43,11.15,16.68,270.01,0.004,0.2766,0,-1.881,1,0.6,4.5,0.75,0.35,0.0168,0.4,0,21.619,0,0.966,0,269.99,0,0,1,-5.81,0,0,0,269.99,0.7533,-0.0002,-0.6577,0,269.99,0.12,-60.63,11.084,-0.013,24.022,1,3,649.6,-7.29,0,655.16,0,0,0,,0,NONE,0,0,0,0,0,0,0,0,0,0,512.89,0,0,0,0,0,0,0,0,0,270.04,0,0,0,0,0,0,0,0,0,0,0,0,0,3,3,0,0,VALID,0,0,0,0,0,1,0,0,0,0,0,0,0,0,0,0,0,0,0,0,106.87,1088.71,2,0,0.08,0.08,31,10,0.12,0.08,3.34,FLYING,X10-F,0:/Integrated Flight Computer/aircraft/x10_f_cfg.ks (inferred preloaded)
3.64,APPROACH,ILS_TRACK,152.09,152,-0.09,589.34,508.4,-14.65,10.91,16.17,270.01,-0.007,0.3966,0,-1.998,1,0.6,4.5,0.75,0.35,0.0168,0.4,0,21.852,0,0.138,0,269.99,0,0,1,-5.53,0,0,0,269.99,0.7533,-0.0002,-0.6577,0,269.99,0.13,-62.72,11.036,-0.013,24.155,1,3,649.6,-6.673,0,652.66,0,0,0,,0,NONE,0,0,0,0,0,0,0,0,0,0,508.4,0,0,0,0,0,0,0,0,0,270.04,0,0,0,0,0,0,0,0,0,0,0,0,0,3,3,0,0,VALID,0,0,0,0,0,1,0,0,0,0,0,0,0,0,0,0,0,0,0,0,119.9,1085.61,2,0,0.08,0.08,34,10,0.12,0.08,3.64,FLYING,X10-F,0:/Integrated Flight Computer/aircraft/x10_f_cfg.ks (inferred preloaded)
3.94,APPROACH,ILS_TRACK,151.4,152,0.6,585.03,504.09,-14.14,10.87,15.99,270,-0.03,0.5166,0,-1.899,1,0.6,4.5,0.75,0.35,0.0168,0.4,0,22.047,0,-0.554,0,269.99,0,0,1,-5.35,0,0,0,269.99,0.7532,-0.0002,-0.6578,0,269.99,0.14,-64.57,10.988,-0.01,24.068,1,3,649.6,-5.873,0,650.16,0,0,0,,0,NONE,0,0,0,0,0,0,0,0,0,0,504.09,0,0,0,0,0,0,0,0,0,270.04,0,0,0,0,0,0,0,0,0,0,0,0,0,3,3,0,0,VALID,0,0,0,0,0,1,0,0,0,0,0,0,0,0,0,0,0,0,0,0,139.73,1083.04,2,0,0.08,0.08,37,10,0.12,0.08,3.94,FLYING,X10-F,0:/Integrated Flight Computer/aircraft/x10_f_cfg.ks (inferred preloaded)
4.24,APPROACH,ILS_TRACK,150.76,152,1.24,580.92,499.96,-13.39,10.95,15.81,270,-0.01,0.6366,0,-1.602,1,0.6,4.5,0.75,0.35,0.0168,0.4,0,22.23,0,-1.203,0,269.98,0,0,1,-5.11,0,0,0,269.99,0.7532,-0.0003,-0.6578,0,269.98,0.15,-66.22,10.941,-0.017,24.139,1,3,649.6,-5.341,0,647.68,0,0,0,,0,NONE,0,0,0,0,0,0,0,0,0,0,499.96,0,0,0,0,0,0,0,0,0,270.04,0,0,0,0,0,0,0,0,0,0,0,0,0,3,3,0,0,VALID,0,0,0,0,0,1,0,0,0,0,0,0,0,0,0,0,0,0,0,0,165.89,1080.65,2,0,0.08,0.08,40,10,0.12,0.08,4.24,FLYING,X10-F,0:/Integrated Flight Computer/aircraft/x10_f_cfg.ks (inferred preloaded)
4.54,APPROACH,ILS_TRACK,150.2,152,1.8,577,496.05,-12.7,10.9,15.53,270.01,0.008,0.7566,0,-1.124,1,0.6,4.5,0.75,0.35,0.0168,0.4,0,22.388,0,-1.765,0,269.99,0,0,1,-4.87,0,0,0,269.98,0.7531,-0.0002,-0.6579,0,269.99,0.16,-67.69,10.894,-0.01,24.025,1,3,649.6,-4.646,0,645.2,0,0,0,,0,NONE,0,0,0,0,0,0,0,0,0,0,496.05,0,0,0,0,0,0,0,0,0,270.04,0,0,0,0,0,0,0,0,0,0,0,0,0,3,3,0,0,VALID,0,0,0,0,0,1,0,0,0,0,0,0,0,0,0,0,0,0,0,0,198.01,1078.64,2,0,0.08,0.08,43,10,0.12,0.08,4.54,FLYING,X10-F,0:/Integrated Flight Computer/aircraft/x10_f_cfg.ks (inferred preloaded)
4.84,APPROACH,ILS_TRACK,149.76,152,2.24,573.28,492.35,-12.03,10.86,15.26,270.01,0.018,0.7668,0,-0.502,1,0.6,4.5,0.75,0.35,0.0168,0.4,0,22.515,0,-2.216,0,269.99,0,0,1,-4.62,0,0,0,269.99,0.753,-0.0001,-0.658,0,269.99,0.16,-68.96,10.846,-0.008,23.887,1,3,649.6,-3.998,0,642.73,0,0,0,,0,NONE,0,0,0,0,0,0,0,0,0,0,492.35,0,0,0,0,0,0,0,0,0,270.04,0,0,0,0,0,0,0,0,0,0,0,0,0,3,3,0,0,VALID,0,0,0,0,0,1,0,0,0,0,0,0,0,0,0,0,0,0,0,0,235.07,1077.08,2,0,0.08,0.08,46,10,0.12,0.08,4.84,FLYING,X10-F,0:/Integrated Flight Computer/aircraft/x10_f_cfg.ks (inferred preloaded)
5.14,APPROACH,ILS_TRACK,149.43,152,2.57,569.78,488.84,-11.39,10.85,15.03,270.02,0.026,0.6858,0,0.233,1,0.6,4.5,0.75,0.35,0.0168,0.4,0,22.61,0,-2.552,0,269.98,0,0,1,-4.39,0,0,0,269.99,0.753,-0.0003,-0.658,0,269.98,0.17,-70.03,10.799,-0.015,23.674,1,3,649.6,-3.33,0,640.27,0,0,0,,0,NONE,0,0,0,0,0,0,0,0,0,0,488.84,0,0,0,0,0,0,0,0,0,270.04,0,0,0,0,0,0,0,0,0,0,0,0,0,3,3,0,0,VALID,0,0,0,0,0,1,0,0,0,0,0,0,0,0,0,0,0,0,0,0,268.23,1075.98,2,0,0.08,0.08,49,10,0.12,0.08,5.14,FLYING,X10-F,0:/Integrated Flight Computer/aircraft/x10_f_cfg.ks (inferred preloaded)
5.44,APPROACH,ILS_TRACK,149.19,152,2.81,566.47,485.53,-10.74,10.87,14.81,270.02,0.03,0.6047,0,1.05,1,0.6,4.5,0.75,0.35,0.0168,0.4,0,22.678,0,-2.794,0,269.99,0,0,1,-4.15,0,0,0,269.99,0.7529,-0.0003,-0.6581,0,269.99,0.18,-70.91,10.753,-0.015,23.423,1,3,649.6,-2.688,0,637.81,0,0,0,,0,NONE,0,0,0,0,0,0,0,0,0,0,485.53,0,0,0,0,0,0,0,0,0,270.04,0,0,0,0,0,0,0,0,0,0,0,0,0,3,3,0,0,VALID,0,0,0,0,0,1,0,0,0,0,0,0,0,0,0,0,0,0,0,0,294.32,1075.26,2,0,0.08,0.08,52,10,0.12,0.08,5.44,FLYING,X10-F,0:/Integrated Flight Computer/aircraft/x10_f_cfg.ks (inferred preloaded)
5.74,APPROACH,ILS_TRACK,149.02,152,2.98,563.36,482.4,-10.14,10.91,14.64,270.02,0.032,0.5352,0,1.924,1,0.6,4.5,0.75,0.35,0.0168,0.4,0,22.727,0,-2.966,0,269.98,0,0,1,-3.92,0,0,0,269.99,0.7529,-0.0003,-0.6581,0,269.98,0.19,-71.59,10.706,-0.016,23.088,1,3,649.6,-2.013,0,635.35,0,0,0,,0,NONE,0,0,0,0,0,0,0,0,0,0,482.4,0,0,0,0,0,0,0,0,0,270.04,0,0,0,0,0,0,0,0,0,0,0,0,0,3,3,0,0,VALID,0,0,0,0,0,1,0,0,0,0,0,0,0,0,0,0,0,0,0,0,314.01,1074.81,2,0,0.08,0.08,55,10,0.12,0.08,5.74,FLYING,X10-F,0:/Integrated Flight Computer/aircraft/x10_f_cfg.ks (inferred preloaded)
6.04,APPROACH,ILS_TRACK,148.9,152,3.1,560.47,479.42,-9.77,11.19,14.8,270.01,-0.009,0.4862,0,2.84,1,0.6,4.5,0.75,0.35,0.0168,0.4,0,22.762,0,-3.092,0,269.98,0,0,1,-3.77,0,0,0,269.98,0.7528,-0.0003,-0.6582,0,269.98,0.2,-72.05,10.659,-0.018,22.62,1,3,649.6,-1.257,0,632.89,0,0,0,,0,NONE,0,0,0,0,0,0,0,0,0,0,479.42,0,0,0,0,0,0,0,0,0,270.04,0,0,0,0,0,0,0,0,0,0,0,0,0,3,3,0,0,VALID,0,0,0,0,0,1,0,0,0,0,0,0,0,0,0,0,0,0,0,0,328.42,1074.53,2,0,0.08,0.08,58,10,0.12,0.08,6.04,FLYING,X10-F,0:/Integrated Flight Computer/aircraft/x10_f_cfg.ks (inferred preloaded)
6.34,APPROACH,ILS_TRACK,148.73,152,3.27,557.76,476.6,-9.03,11.57,14.91,270.01,-0.018,0.5009,0,3.798,1,0.6,4.5,0.75,0.35,0.0168,0.4,0,22.808,0,-3.254,0,269.99,0,0,1,-3.5,0,0,0,269.98,0.7528,-0.0001,-0.6583,0,269.99,0.21,-72.33,10.612,-0.008,22.3,1,3,649.6,-0.752,0,630.44,0,0,0,,0,NONE,0,0,0,0,0,0,0,0,0,0,476.6,0,0,0,0,0,0,0,0,0,270.04,0,0,0,0,0,0,0,0,0,0,0,0,0,3,3,0,0,VALID,0,0,0,0,0,1,0,0,0,0,0,0,0,0,0,0,0,0,0,0,339.69,1074.07,2,0,0.08,0.08,61,10,0.12,0.08,6.34,FLYING,X10-F,0:/Integrated Flight Computer/aircraft/x10_f_cfg.ks (inferred preloaded)
6.64,APPROACH,ILS_TRACK,148.59,152,3.41,555.25,473.97,-8.47,11.94,15.1,270,-0.021,0.5102,0,4.805,1,0.6,4.5,0.75,0.35,0.0168,0.4,0,22.85,0,-3.403,0,269.98,0,0,1,-3.29,0,0,0,269.98,0.7527,-0.0003,-0.6583,0,269.98,0.22,-72.41,10.565,-0.016,21.743,1,3,649.6,-0.024,0,627.99,0,0,0,,0,NONE,0,0,0,0,0,0,0,0,0,0,473.97,0,0,0,0,0,0,0,0,0,270.04,0,0,0,0,0,0,0,0,0,0,0,0,0,3,3,0,0,VALID,0,0,0,0,0,1,0,0,0,0,0,0,0,0,0,0,0,0,0,0,351.29,1073.68,2,0,0.08,0.08,64,10,0.12,0.08,6.64,FLYING,X10-F,0:/Integrated Flight Computer/aircraft/x10_f_cfg.ks (inferred preloaded)
6.94,APPROACH,ILS_TRACK,148.41,152,3.59,552.95,471.52,-7.92,12.42,15.38,270,-0.019,0.5454,0,5.859,1,0.6,4.5,0.75,0.35,0.0168,0.4,0,22.898,0,-3.573,0,269.98,0,0,1,-3.08,0,0,0,269.99,0.7527,-0.0003,-0.6584,0,269.98,0.23,-72.3,10.518,-0.015,21.181,1,3,649.6,0.636,0,625.54,0,0,0,,0,NONE,0,0,0,0,0,0,0,0,0,0,471.52,0,0,0,0,0,0,0,0,0,270.04,0,0,0,0,0,0,0,0,0,0,0,0,0,3,3,0,0,VALID,0,0,0,0,0,1,0,0,0,0,0,0,0,0,0,0,0,0,0,0,363.08,1073.16,2,0,0.08,0.08,67,10,0.12,0.08,6.94,FLYING,X10-F,0:/Integrated Flight Computer/aircraft/x10_f_cfg.ks (inferred preloaded)
7.24,APPROACH,ILS_TRACK,148.19,152,3.81,550.84,469.22,-7.36,13.03,15.8,270,-0.02,0.61,0,6.974,1,0.6,4.5,0.75,0.35,0.0168,0.4,0,22.96,0,-3.792,0,269.98,0,0,1,-2.87,0,0,0,269.98,0.7526,-0.0003,-0.6584,0,269.98,0.24,-71.99,10.472,-0.02,20.574,1,3,649.6,1.277,0,623.09,0,0,0,,0,NONE,0,0,0,0,0,0,0,0,0,0,469.22,0,0,0,0,0,0,0,0,0,270.04,0,0,0,0,0,0,0,0,0,0,0,0,0,3,3,0,0,VALID,0,0,0,0,0,1,0,0,0,0,0,0,0,0,0,0,0,0,0,0,376.79,1072.43,2,0,0.08,0.08,70,10,0.12,0.08,7.24,FLYING,X10-F,0:/Integrated Flight Computer/aircraft/x10_f_cfg.ks (inferred preloaded)
7.54,APPROACH,ILS_TRACK,147.95,152,4.05,548.93,467.11,-6.69,13.71,16.24,270,-0.023,0.6761,0,8.161,1,0.6,4.5,0.75,0.35,0.0168,0.4,0,23.028,0,-4.036,0,269.99,0,0,1,-2.62,0,0,0,269.98,0.7526,-0.0002,-0.6585,0,269.99,0.24,-71.48,10.425,-0.012,19.923,1,3,649.6,1.901,0,620.65,0,0,0,,0,NONE,0,0,0,0,0,0,0,0,0,0,467.11,0,0,0,0,0,0,0,0,0,270.04,0,0,0,0,0,0,0,0,0,0,0,0,0,3,3,0,0,VALID,0,0,0,0,0,1,0,0,0,0,0,0,0,0,0,0,0,0,0,0,393.71,1071.59,2,0,0.08,0.08,73,10,0.12,0.08,7.54,FLYING,X10-F,0:/Integrated Flight Computer/aircraft/x10_f_cfg.ks (inferred preloaded)
7.84,APPROACH,ILS_TRACK,147.69,152,4.31,547.23,465.19,-6.03,14.42,16.72,270,-0.025,0.7348,0,9.422,1,0.6,4.5,0.75,0.35,0.0168,0.4,0,23.1,0,-4.29,0,269.99,0,0,1,-2.38,0,0,0,269.98,0.7525,-0.0002,-0.6586,0,269.99,0.25,-70.77,10.379,-0.013,19.114,1,3,649.6,2.647,0,618.21,0,0,0,,0,NONE,0,0,0,0,0,0,0,0,0,0,465.19,0,0,0,0,0,0,0,0,0,270.04,0,0,0,0,0,0,0,0,0,0,0,0,0,3,3,0,0,VALID,0,0,0,0,0,1,0,0,0,0,0,0,0,0,0,0,0,0,0,0,413.62,1070.7,2,0,0.08,0.08,76,10,0.12,0.08,7.84,FLYING,X10-F,0:/Integrated Flight Computer/aircraft/x10_f_cfg.ks (inferred preloaded)
8.14,APPROACH,ILS_TRACK,147.43,152,4.57,545.75,463.51,-5.19,15.14,17.12,270,-0.025,0.792,0,10.763,1,0.6,4.5,0.75,0.35,0.0168,0.4,0,23.175,0,-4.555,0,269.99,0,0,1,-2.06,0,0,0,269.98,0.7525,-0.0002,-0.6586,0,269.99,0.26,-69.85,10.332,-0.012,18.267,1,3,649.6,3.359,0,615.78,0,0,0,,0,NONE,0,0,0,0,0,0,0,0,0,0,463.51,0,0,0,0,0,0,0,0,0,270.04,0,0,0,0,0,0,0,0,0,0,0,0,0,3,3,0,0,VALID,0,0,0,0,0,1,0,0,0,0,0,0,0,0,0,0,0,0,0,0,435.96,1069.75,2,0,0.08,0.08,79,10,0.12,0.08,8.14,FLYING,X10-F,0:/Integrated Flight Computer/aircraft/x10_f_cfg.ks (inferred preloaded)
8.44,APPROACH,ILS_TRACK,147.17,152,4.83,544.49,462.08,-4.32,15.72,17.38,270,-0.013,0.8342,0,12.181,1,0.6,4.5,0.75,0.35,0.0168,0.4,0,23.246,0,-4.81,0,269.98,0,0,1,-1.73,0,0,0,269.99,0.7524,-0.0003,-0.6587,0,269.98,0.26,-68.7,10.286,-0.018,17.333,1,3,649.6,4.098,0,613.35,0,0,0,,0,NONE,0,0,0,0,0,0,0,0,0,0,462.08,0,0,0,0,0,0,0,0,0,270.04,0,0,0,0,0,0,0,0,0,0,0,0,0,3,3,0,0,VALID,0,0,0,0,0,1,0,0,0,0,0,0,0,0,0,0,0,0,0,0,460.34,1068.83,2,0,0.08,0.08,82,10,0.12,0.08,8.44,FLYING,X10-F,0:/Integrated Flight Computer/aircraft/x10_f_cfg.ks (inferred preloaded)
8.74,APPROACH,ILS_TRACK,146.95,152,5.05,543.49,460.92,-3.41,16.25,17.57,270.01,0.006,0.8569,0,13.67,1,0.6,4.5,0.75,0.35,0.0168,0.4,0,23.309,0,-5.033,0,269.98,0,0,1,-1.38,0,0,0,269.99,0.7524,-0.0003,-0.6587,0,269.98,0.27,-67.32,10.24,-0.02,16.247,1,3,649.6,4.935,0,610.92,0,0,0,,0,NONE,0,0,0,0,0,0,0,0,0,0,460.92,0,0,0,0,0,0,0,0,0,270.04,0,0,0,0,0,0,0,0,0,0,0,0,0,3,3,0,0,VALID,0,0,0,0,0,1,0,0,0,0,0,0,0,0,0,0,0,0,0,0,485.61,1068.02,2,0,0.08,0.08,85,10,0.12,0.08,8.74,FLYING,X10-F,0:/Integrated Flight Computer/aircraft/x10_f_cfg.ks (inferred preloaded)
9.04,APPROACH,ILS_TRACK,146.77,152,5.23,542.74,460.05,-2.47,16.72,17.69,270.01,0.028,0.8643,0,15.218,1,0.6,4.5,0.75,0.35,0.0168,0.4,0,23.361,0,-5.217,0,269.98,0,0,1,-1.01,0,0,0,269.99,0.7523,-0.0003,-0.6588,0,269.98,0.27,-65.67,10.193,-0.019,15.057,1,3,649.6,5.805,0,608.5,0,0,0,,0,NONE,0,0,0,0,0,0,0,0,0,0,460.05,0,0,0,0,0,0,0,0,0,270.04,0,0,0,0,0,0,0,0,0,0,0,0,0,3,3,0,0,VALID,0,0,0,0,0,1,0,0,0,0,0,0,0,0,0,0,0,0,0,0,510.59,1067.35,2,0,0.08,0.08,88,10,0.12,0.08,9.04,FLYING,X10-F,0:/Integrated Flight Computer/aircraft/x10_f_cfg.ks (inferred preloaded)
9.34,APPROACH,ILS_TRACK,146.64,152,5.36,542.29,459.44,-1.51,17.24,17.86,270.01,0.024,0.8577,0,16.811,1,0.6,4.5,0.75,0.35,0.0168,0.4,0,23.4,0,-5.354,0,269.98,0,0,1,-0.65,0,0,0,269.99,0.7523,-0.0003,-0.6588,0,269.98,0.27,-63.74,10.147,-0.019,13.666,1,3,649.6,6.819,0,606.07,0,0,0,,0,NONE,0,0,0,0,0,0,0,0,0,0,459.44,0,0,0,0,0,0,0,0,0,270.04,0,0,0,0,0,0,0,0,0,0,0,0,0,3,3,0,0,VALID,0,0,0,0,0,1,0,0,0,0,0,0,0,0,0,0,0,0,0,0,534.38,1066.85,2,0,0.08,0.08,91,10,0.12,0.08,9.34,FLYING,X10-F,0:/Integrated Flight Computer/aircraft/x10_f_cfg.ks (inferred preloaded)
9.64,APPROACH,ILS_TRACK,146.53,152,5.47,542.11,459.16,-0.47,17.63,17.85,270.01,0.005,0.8579,0,18.442,1,0.6,4.5,0.75,0.35,0.0168,0.4,0,23.432,0,-5.469,0,269.98,0,0,1,-0.23,0,0,0,269.98,0.7522,-0.0003,-0.6589,0,269.98,0.28,-61.53,10.101,-0.015,12.32,1,3,649.6,7.675,0,603.65,0,0,0,,0,NONE,0,0,0,0,0,0,0,0,0,0,459.16,0,0,0,0,0,0,0,0,0,270.04,0,0,0,0,0,0,0,0,0,0,0,0,0,3,3,0,0,VALID,0,0,0,0,0,1,0,0,0,0,0,0,0,0,0,0,0,0,0,0,556.56,1066.42,2,0,0.08,0.08,94,10,0.12,0.08,9.64,FLYING,X10-F,0:/Integrated Flight Computer/aircraft/x10_f_cfg.ks (inferred preloaded)
9.94,APPROACH,ILS_TRACK,146.47,152,5.53,542.23,459.17,0.51,17.98,17.83,270.01,-0.006,0.8361,0,20,1,0.6,4.5,0.75,0.35,0.0168,0.4,0,23.448,0,-5.525,0,269.99,0,0,1,0.15,0,0,0,269.98,0.7522,-0.0002,-0.659,0,269.99,0.29,-59.04,10.055,-0.01,10.764,1,3,649.6,8.686,0,601.23,0,0,0,,0,NONE,0,0,0,0,0,0,0,0,0,0,459.17,0,0,0,0,0,0,0,0,0,270.04,0,0,0,0,0,0,0,0,0,0,0,0,0,3,3,0,0,VALID,0,0,0,0,0,1,0,0,0,0,0,0,0,0,0,0,0,0,0,0,577.17,1066.21,2,0,0.08,0.08,97,10,0.12,0.08,9.94,FLYING,X10-F,0:/Integrated Flight Computer/aircraft/x10_f_cfg.ks (inferred preloaded)
10.24,APPROACH,ILS_TRACK,146.46,152,5.54,542.64,459.48,1.57,18.35,17.82,270,-0.032,0.7871,0,20,1,0.6,4.5,0.75,0.35,0.0168,0.4,0,23.451,0,-5.537,0,269.98,0,0,1,0.55,0,0,0,269.98,0.7521,-0.0003,-0.659,0,269.98,0.29,-56.24,10.009,-0.018,9.111,1,3,649.6,9.703,0,598.81,0,0,0,,0,NONE,0,0,0,0,0,0,0,0,0,0,459.48,0,0,0,0,0,0,0,0,0,270.04,0,0,0,0,0,0,0,0,0,0,0,0,0,3,3,0,0,VALID,0,0,0,0,0,1,0,0,0,0,0,0,0,0,0,0,0,0,0,0,594.74,1066.15,2,0,0.08,0.08,100,10,0.12,0.08,10.24,FLYING,X10-F,0:/Integrated Flight Computer/aircraft/x10_f_cfg.ks (inferred preloaded)
10.54,APPROACH,ILS_TRACK,146.36,152,5.64,543.23,460.25,3.45,17.96,16.63,269.99,-0.069,0.829,0,20,1,0.6,4.5,0.75,0.35,0.0168,0.4,0,23.478,0,-5.633,0,269.98,0,0,1,1.25,0,0,0,269.98,0.7521,-0.0003,-0.6591,0,269.98,0.3,-53.24,9.962,-0.019,7.915,1,3,649.6,10.073,0,596.4,0,0,0,,0,NONE,0,0,0,0,0,0,0,0,0,0,460.25,0,0,0,0,0,0,0,0,0,270.04,0,0,0,0,0,0,0,0,0,0,0,0,0,3,3,0,0,VALID,0,0,0,0,0,1,0,0,0,0,0,0,0,0,0,0,0,0,0,0,608.83,1065.64,2,0,0.08,0.08,103,10,0.12,0.08,10.54,FLYING,X10-F,0:/Integrated Flight Computer/aircraft/x10_f_cfg.ks (inferred preloaded)
10.84,APPROACH,ILS_TRACK,146.39,152,5.61,543.89,461.53,4.65,15.94,14.07,269.98,-0.092,0.7939,0,20,1,0.6,4.5,0.75,0.35,0.0168,0.4,0,23.478,0,-5.632,0,269.98,0,0,1,1.78,0,0,0,269.99,0.752,-0.0003,-0.6591,0,269.98,0.3,-50.19,9.916,-0.019,6.757,1,3,649.6,10.373,0,593.98,0,0,0,,0,NONE,0,0,0,0,0,0,0,0,0,0,461.53,0,0,0,0,0,0,0,0,0,270.04,0,0,0,0,0,0,0,0,0,0,0,0,0,3,3,0,0,VALID,0,0,0,0,0,1,0,0,0,0,0,0,0,0,0,0,0,0,0,0,625.1,1065.66,2,0,0.08,0.08,106,10,0.12,0.08,10.84,FLYING,X10-F,0:/Integrated Flight Computer/aircraft/x10_f_cfg.ks (inferred preloaded)
11.14,APPROACH,ILS_TRACK,146.95,152,5.05,544.73,463.05,5.16,13.63,11.57,269.98,-0.102,0.6739,0,20,1,0.6,4.5,0.75,0.35,0.0168,0.4,0,23.328,0,-5.098,0,269.99,0,0,1,2,0,0,0,269.98,0.752,-0.0002,-0.6592,0,269.99,0.31,-46.94,9.87,-0.014,5.254,1,3,649.6,11.037,0,591.56,0,0,0,,0,NONE,0,0,0,0,0,0,0,0,0,0,463.05,0,0,0,0,0,0,0,0,0,270.04,0,0,0,0,0,0,0,0,0,0,0,0,0,3,3,0,0,VALID,0,0,0,0,0,1,0,0,0,0,0,0,0,0,0,0,0,0,0,0,637.22,1067.82,2,0,0.08,0.08,109,10,0.12,0.08,11.14,FLYING,X10-F,0:/Integrated Flight Computer/aircraft/x10_f_cfg.ks (inferred preloaded)
11.44,APPROACH,ILS_TRACK,147.77,152,4.23,545.69,464.67,5.4,11.45,9.3,269.98,-0.097,0.5539,0,20,1,0.6,4.5,0.75,0.35,0.0168,0.4,0,23.099,0,-4.287,0,269.99,0,0,1,2.1,0,0,0,269.99,0.7519,-0.0002,-0.6593,0,269.99,0.31,-43.55,9.824,-0.011,4.036,1,3,649.6,11.287,0,589.12,0,0,0,,0,NONE,0,0,0,0,0,0,0,0,0,0,464.67,0,0,0,0,0,0,0,0,0,270.04,0,0,0,0,0,0,0,0,0,0,0,0,0,3,3,0,0,VALID,0,0,0,0,0,1,0,0,0,0,0,0,0,0,0,0,0,0,0,0,641.81,1071.06,2,0,0.08,0.08,112,10,0.12,0.08,11.44,FLYING,X10-F,0:/Integrated Flight Computer/aircraft/x10_f_cfg.ks (inferred preloaded)
11.74,APPROACH,ILS_TRACK,148.8,152,3.2,546.67,466.26,4.89,9.35,7.45,269.98,-0.083,0.4339,0,20,1,0.6,4.5,0.75,0.35,0.0168,0.4,0,22.814,0,-3.274,0,269.99,-0.191,0,1,1.91,0,0,0,269.99,0.7497,-0.0001,-0.6618,-0.19,269.99,0.3,-40.13,9.777,-0.005,2.809,1,3,649.6,11.538,-0.191,586.67,0,0,0,,0,NONE,0,0,0,0,0,0,0,0,0,0,466.26,0,0,0,0,0,0,0,0,0,270.04,0,0,0,0,0,0,0,0,0,0,0,0,0,3,3,0,0,VALID,0,0,0,0,0,1,0,0,0,0,0,0,0,0,0,0,0,0,0,0,635.85,1075.17,2,0,0.08,0.08,115,10,0.12,0.08,11.74,FLYING,X10-F,0:/Integrated Flight Computer/aircraft/x10_f_cfg.ks (inferred preloaded)
12.04,APPROACH,ILS_TRACK,149.94,152,2.06,547.62,467.69,4.31,7.76,6.09,269.99,-0.069,0.3139,0,20,1,0.6,4.5,0.75,0.35,0.0168,0.4,0,22.494,0,-2.14,0,269.99,-1.056,0,1,1.69,0,0,-0.82,269.99,0.7395,-0.0002,-0.6731,-1.06,269.99,0.3,-36.7,9.73,-0.01,1.944,1,3,649.6,11.334,-1.056,584.2,0,0,0,,0,NONE,0,0,0,0,0,0,0,0,0,0,467.69,0,0,0,0,0,0,0,0,0,270.04,0,0,0,0,0,0,0,0,0,0,0,0,0,3,3,0,0,VALID,0,0,0,0,0,1,0,0,0,0,0,0,0,0,0,0,0,0,0,0,618.04,1079.79,2,0,0.08,0.08,118,10,0.12,0.08,12.04,FLYING,X10-F,0:/Integrated Flight Computer/aircraft/x10_f_cfg.ks (inferred preloaded)
12.34,APPROACH,ILS_TRACK,151.11,152,0.89,548.42,468.92,3.64,6.4,4.97,269.99,-0.059,0.1939,0,20,1,0.6,4.5,0.75,0.35,0.0168,0.4,0,22.163,0,-0.966,0,269.99,-1.589,0,1,1.43,0,0,-1.54,269.99,0.7332,-0.0002,-0.68,-1.59,269.99,0.3,-33.39,9.682,-0.009,1.411,1,3,649.6,10.756,-1.589,581.71,0,0,0,,0,NONE,0,0,0,0,0,0,0,0,0,0,468.92,0,0,0,0,0,0,0,0,0,270.04,0,0,0,0,0,0,0,0,0,0,0,0,0,3,3,0,0,VALID,0,0,0,0,0,1,0,0,0,0,0,0,0,0,0,0,0,0,0,0,589.22,1084.6,2,0,0.08,0.08,121,10,0.12,0.08,12.34,FLYING,X10-F,0:/Integrated Flight Computer/aircraft/x10_f_cfg.ks (inferred preloaded)
12.64,APPROACH,ILS_TRACK,152.25,152,-0.25,549.05,469.83,2.45,5.39,4.46,269.99,-0.045,0.0739,0,19.9,1,0.6,4.5,0.75,0.35,0.0168,0.4,0,21.84,0,0.18,0,269.99,-2.299,0,1,0.96,0,0,-2.07,269.99,0.7247,-0.0002,-0.6891,-2.3,269.99,0.29,-30.23,9.634,-0.008,0.701,1,3,649.6,10.461,-2.299,579.2,0,0,0,,0,NONE,0,0,0,0,0,0,0,0,0,0,469.83,0,0,0,0,0,0,0,0,0,270.04,0,0,0,0,0,0,0,0,0,0,0,0,0,3,3,0,0,VALID,0,0,0,0,0,1,0,0,0,0,0,0,0,0,0,0,0,0,0,0,550.19,1089.33,2,0,0.08,0.08,124,10,0.12,0.08,12.64,FLYING,X10-F,0:/Integrated Flight Computer/aircraft/x10_f_cfg.ks (inferred preloaded)
12.94,APPROACH,ILS_TRACK,153.3,152,-1.3,549.38,470.49,1.68,4.42,3.71,269.99,-0.036,0,0,19.603,1,0.6,4.5,0.75,0.35,0.0168,0.4,0,21.544,0,1.229,0,270,-2.128,0,1,0.69,0,0,-2.24,269.99,0.7267,-0.0001,-0.687,-2.13,270,0.28,-27.32,9.586,-0.002,0.872,1,3,649.6,9.156,-2.128,576.68,0,0,0,,0,NONE,0,0,0,0,0,0,0,0,0,0,470.49,0,0,0,0,0,0,0,0,0,270.04,0,0,0,0,0,0,0,0,0,0,0,0,0,3,3,0,0,VALID,0,0,0,0,0,1,0,0,0,0,0,0,0,0,0,0,0,0,0,0,502.01,1093.69,2,0,0.08,0.08,127,10,0.12,0.08,12.94,FLYING,X10-F,0:/Integrated Flight Computer/aircraft/x10_f_cfg.ks (inferred preloaded)
13.24,APPROACH,ILS_TRACK,154.25,152,-2.25,549.44,470.78,0.19,3.57,3.45,269.99,-0.018,0,0,19.31,1,0.6,4.5,0.75,0.35,0.0168,0.4,0.793,21.274,0.793,2.189,1,269.99,-2.465,0,1,0.15,0,0,-2.34,269.99,0.7225,-0.0002,-0.6913,-2.46,269.99,0.28,-24.7,9.538,-0.008,0.535,1,3,649.6,8.594,-2.465,574.14,0,0,0,,0,NONE,0,0,0,0,0,0,0,0,0,0,470.78,0,0,0,0,0,0,0,0,0,270.04,0,0,0,0,0,0,0,0,0,0,0,0,0,3,3,0,0,VALID,0,0,0,0,0,1,0,0,0,0,0,0,0,0,0,0,0,0,0,0,453.48,1097.71,2,0,0.08,0.08,130,10,0.12,0.08,13.24,FLYING,X10-F,0:/Integrated Flight Computer/aircraft/x10_f_cfg.ks (inferred preloaded)
13.54,APPROACH,ILS_TRACK,155.01,152,-3.01,549.43,470.59,-1.21,3.97,4.45,269.99,-0.008,0,0,19.022,1,0.6,4.5,0.75,0.35,0.0168,0.4,1.663,21.056,1.663,2.961,1,269.99,-3.096,0,1,-0.4,0,0,-2.92,269.99,0.7148,-0.0001,-0.6993,-3.1,269.99,0.27,-22.16,9.489,-0.006,-0.096,1,3,649.6,8.429,-3.096,571.59,0,0,0,,0,NONE,0,0,0,0,0,0,0,0,0,0,470.59,0,0,0,0,0,0,0,0,0,270.04,0,0,0,0,0,0,0,0,0,0,0,0,0,3,3,0,0,VALID,0,0,0,0,0,1,0,0,0,0,0,0,0,0,0,0,0,0,0,0,409.36,1100.98,2,0,0.08,0.08,133,10,0.12,0.08,13.54,FLYING,X10-F,0:/Integrated Flight Computer/aircraft/x10_f_cfg.ks (inferred preloaded)
13.84,APPROACH,ILS_TRACK,155.63,152,-3.63,549.14,470.13,-1.67,4.64,5.21,269.99,-0.003,0,0,18.738,1,0.6,4.5,0.75,0.35,0.0168,0.4,2.365,20.878,2.365,3.596,1,269.99,-2.813,0,1,-0.58,0,0,-3.05,270,0.7182,-0.0001,-0.6958,-2.81,269.99,0.27,-19.82,9.44,-0.006,0.187,1,3,649.6,7.2,-2.813,569.03,0,0,0,,0,NONE,0,0,0,0,0,0,0,0,0,0,470.13,0,0,0,0,0,0,0,0,0,270.04,0,0,0,0,0,0,0,0,0,0,0,0,0,3,3,0,0,VALID,0,0,0,0,0,1,0,0,0,0,0,0,0,0,0,0,0,0,0,0,369.35,1103.71,2,0,0.08,0.08,136,10,0.12,0.08,13.84,FLYING,X10-F,0:/Integrated Flight Computer/aircraft/x10_f_cfg.ks (inferred preloaded)
14.14,APPROACH,ILS_TRACK,156.14,152,-4.14,548.56,469.49,-2.57,4.76,5.67,269.99,0.002,0,0,18.459,1,0.6,4.5,0.75,0.35,0.0168,0.4,2.922,20.733,2.922,4.107,1,269.99,-2.885,0,1,-0.9,0,0,-2.78,269.99,0.7173,-0.0001,-0.6968,-2.89,269.99,0.26,-17.82,9.391,-0.005,0.115,1,3,649.6,6.539,-2.885,566.46,0,0,0,,0,NONE,0,0,0,0,0,0,0,0,0,0,469.49,0,0,0,0,0,0,0,0,0,270.04,0,0,0,0,0,0,0,0,0,0,0,0,0,3,3,0,0,VALID,0,0,0,0,0,1,0,0,0,0,0,0,0,0,0,0,0,0,0,0,333.09,1105.93,2,0,0.08,0.08,139,10,0.12,0.08,14.14,FLYING,X10-F,0:/Integrated Flight Computer/aircraft/x10_f_cfg.ks (inferred preloaded)
14.44,APPROACH,ILS_TRACK,156.5,152,-4.5,547.78,468.65,-2.94,5.05,6.06,269.99,0.002,0,0,18.183,1,0.6,4.5,0.75,0.35,0.0168,0.4,3.319,20.629,3.319,4.477,1,270,-2.767,0,1,-1.05,0,0,-2.95,270,0.7187,-0.0001,-0.6954,-2.77,270,0.25,-15.98,9.342,-0.003,0.233,1,3,649.6,5.7,-2.767,563.88,0,0,0,,0,NONE,0,0,0,0,0,0,0,0,0,0,468.65,0,0,0,0,0,0,0,0,0,270.04,0,0,0,0,0,0,0,0,0,0,0,0,0,3,3,0,0,VALID,0,0,0,0,0,1,0,0,0,0,0,0,0,0,0,0,0,0,0,0,300.23,1107.56,2,0,0.08,0.08,142,10,0.12,0.08,14.44,FLYING,X10-F,0:/Integrated Flight Computer/aircraft/x10_f_cfg.ks (inferred preloaded)
14.74,APPROACH,ILS_TRACK,156.76,152,-4.76,546.8,467.65,-3.7,5.05,6.35,269.99,0.009,0,0,17.912,1,0.6,4.5,0.75,0.35,0.0168,0.4,3.603,20.554,3.603,4.743,1,269.99,-2.932,0,1,-1.31,0,0,-2.82,270,0.7166,-0.0002,-0.6975,-2.93,269.99,0.25,-14.37,9.293,-0.008,0.068,1,3,649.6,5.303,-2.932,561.3,0,0,0,,0,NONE,0,0,0,0,0,0,0,0,0,0,467.65,0,0,0,0,0,0,0,0,0,270.04,0,0,0,0,0,0,0,0,0,0,0,0,0,3,3,0,0,VALID,0,0,0,0,0,1,0,0,0,0,0,0,0,0,0,0,0,0,0,0,270.5,1108.76,2,0,0.08,0.08,145,10,0.12,0.08,14.74,FLYING,X10-F,0:/Integrated Flight Computer/aircraft/x10_f_cfg.ks (inferred preloaded)
15.04,APPROACH,ILS_TRACK,156.9,152,-4.9,545.68,466.49,-4,5.26,6.64,269.99,0.013,0,0,17.644,1,0.6,4.5,0.75,0.35,0.0168,0.4,3.761,20.512,3.761,4.892,1,269.99,-2.848,0,1,-1.44,0,0,-2.99,270,0.7176,-0.0002,-0.6965,-2.85,269.99,0.24,-12.87,9.243,-0.01,0.152,1,3,649.6,4.636,-2.848,558.72,0,0,0,,0,NONE,0,0,0,0,0,0,0,0,0,0,466.49,0,0,0,0,0,0,0,0,0,270.04,0,0,0,0,0,0,0,0,0,0,0,0,0,3,3,0,0,VALID,0,0,0,0,0,1,0,0,0,0,0,0,0,0,0,0,0,0,0,0,243.61,1109.47,2,0,0.08,0.08,148,10,0.12,0.08,15.04,FLYING,X10-F,0:/Integrated Flight Computer/aircraft/x10_f_cfg.ks (inferred preloaded)
15.34,APPROACH,ILS_TRACK,156.96,152,-4.96,544.42,465.19,-4.59,5.33,6.94,269.99,0.016,0,0,17.381,1,0.6,4.5,0.75,0.35,0.0168,0.4,3.833,20.493,3.833,4.961,1,270,-3.063,0,1,-1.66,0,0,-2.95,270,0.7149,-0.0001,-0.6992,-3.06,270,0.23,-11.54,9.194,-0.002,-0.063,1,3,649.6,4.407,-3.063,556.13,0,0,0,,0,NONE,0,0,0,0,0,0,0,0,0,0,465.19,0,0,0,0,0,0,0,0,0,270.04,0,0,0,0,0,0,0,0,0,0,0,0,0,3,3,0,0,VALID,0,0,0,0,0,1,0,0,0,0,0,0,0,0,0,0,0,0,0,0,219.33,1109.84,2,0,0.08,0.08,151,10,0.12,0.08,15.34,FLYING,X10-F,0:/Integrated Flight Computer/aircraft/x10_f_cfg.ks (inferred preloaded)
15.64,APPROACH,ILS_TRACK,156.93,152,-4.93,543.01,463.78,-4.84,5.37,7.03,269.99,0.019,0,0,17.122,1,0.6,4.5,0.75,0.35,0.0168,0.4,3.804,20.501,3.804,4.932,1,270,-2.856,0,1,-1.74,0,0,-2.93,270,0.7174,-0.0001,-0.6967,-2.86,270,0.22,-10.34,9.145,-0.003,0.144,1,3,649.6,3.699,-2.856,553.55,0,0,0,,0,NONE,0,0,0,0,0,0,0,0,0,0,463.78,0,0,0,0,0,0,0,0,0,270.04,0,0,0,0,0,0,0,0,0,0,0,0,0,3,3,0,0,VALID,0,0,0,0,0,1,0,0,0,0,0,0,0,0,0,0,0,0,0,0,197.39,1109.81,2,0,0.08,0.08,154,10,0.12,0.08,15.64,FLYING,X10-F,0:/Integrated Flight Computer/aircraft/x10_f_cfg.ks (inferred preloaded)
15.94,APPROACH,ILS_TRACK,156.83,152,-4.83,541.52,462.23,-5.38,5.47,7.37,269.99,0.022,0.0257,0,16.161,1,0.6,4.5,0.75,0.35,0.0168,0.4,3.708,20.526,3.708,4.842,1,270,-3.149,0,1,-1.95,0,0,-3.03,270,0.7137,-0.0001,-0.7004,-3.15,270,0.22,-9.25,9.096,-0.003,-0.149,1,3,649.6,3.656,-3.149,550.97,0,0,0,,0,NONE,0,0,0,0,0,0,0,0,0,0,462.23,0,0,0,0,0,0,0,0,0,270.04,0,0,0,0,0,0,0,0,0,0,0,0,0,3,3,0,0,VALID,0,0,0,0,0,1,0,0,0,0,0,0,0,0,0,0,0,0,0,0,177.61,1109.52,2,0,0.08,0.08,157,10,0.12,0.08,15.94,FLYING,X10-F,0:/Integrated Flight Computer/aircraft/x10_f_cfg.ks (inferred preloaded)
16.24,APPROACH,ILS_TRACK,156.66,152,-4.66,539.9,460.59,-5.59,5.61,7.55,269.99,0.021,0.092,0,14.741,1,0.6,4.5,0.75,0.35,0.0168,0.4,1.583,20.574,0,4.674,1,270,-2.972,0,1,-2.02,0,0,-3.02,270,0.7158,-0.0001,-0.6983,-2.97,270,0.21,-8.27,9.046,-0.001,0.028,1,3,649.6,3.064,-2.972,548.39,0,0,0,,0,NONE,0,0,0,0,0,0,0,0,0,0,460.59,0,0,0,0,0,0,0,0,0,270.04,0,0,0,0,0,0,0,0,0,0,0,0,0,3,3,0,0,VALID,0,0,0,0,0,1,0,0,0,0,0,0,0,0,0,0,0,0,0,0,164.31,1108.91,2,0,0.08,0.08,160,10,0.12,0.08,16.24,FLYING,X10-F,0:/Integrated Flight Computer/aircraft/x10_f_cfg.ks (inferred preloaded)
16.54,APPROACH,ILS_TRACK,156.45,152,-4.45,538.22,458.85,-5.89,5.8,7.87,269.99,0.022,0.1372,0,13.379,1,0.6,4.5,0.75,0.35,0.0168,0.4,0,20.632,0,4.468,0,269.99,-3.156,0,1,-2.16,0,0,-3.14,270,0.7135,-0.0002,-0.7006,-3.16,269.99,0.2,-7.36,8.997,-0.007,-0.156,1,3,649.6,2.956,-3.156,545.82,0,0,0,,0,NONE,0,0,0,0,0,0,0,0,0,0,458.85,0,0,0,0,0,0,0,0,0,270.04,0,0,0,0,0,0,0,0,0,0,0,0,0,3,3,0,0,VALID,0,0,0,0,0,1,0,0,0,0,0,0,0,0,0,0,0,0,0,0,159.05,1108.15,2,0,0.08,0.08,163,10,0.12,0.08,16.54,FLYING,X10-F,0:/Integrated Flight Computer/aircraft/x10_f_cfg.ks (inferred preloaded)
16.84,APPROACH,ILS_TRACK,156.22,152,-4.22,536.4,457.05,-6.15,5.72,7.87,269.99,0.024,0.1637,0,12.087,1,0.6,4.5,0.75,0.35,0.0168,0.4,0,20.698,0,4.232,0,270,-2.962,0,1,-2.23,0,0,-2.94,270,0.7158,0,-0.6983,-2.96,270,0.19,-6.6,8.948,0.001,0.038,1,3,649.6,2.427,-2.962,543.25,0,0,0,,0,NONE,0,0,0,0,0,0,0,0,0,0,457.05,0,0,0,0,0,0,0,0,0,270.04,0,0,0,0,0,0,0,0,0,0,0,0,0,3,3,0,0,VALID,0,0,0,0,0,1,0,0,0,0,0,0,0,0,0,0,0,0,0,0,158.8,1107.27,2,0,0.08,0.08,166,10,0.12,0.08,16.84,FLYING,X10-F,0:/Integrated Flight Computer/aircraft/x10_f_cfg.ks (inferred preloaded)
17.14,APPROACH,ILS_TRACK,155.98,152,-3.98,534.56,455.15,-6.38,5.93,8.17,269.99,0.023,0.1706,0,10.864,1,0.6,4.5,0.75,0.35,0.0168,0.4,0,20.765,0,3.994,0,270,-3.145,0,1,-2.34,0,0,-3.19,270,0.7135,-0.0001,-0.7006,-3.15,270,0.19,-5.86,8.899,-0.002,-0.145,1,3,649.6,2.381,-3.145,540.68,0,0,0,,0,NONE,0,0,0,0,0,0,0,0,0,0,455.15,0,0,0,0,0,0,0,0,0,270.04,0,0,0,0,0,0,0,0,0,0,0,0,0,3,3,0,0,VALID,0,0,0,0,0,1,0,0,0,0,0,0,0,0,0,0,0,0,0,0,160.02,1106.4,2,0,0.08,0.08,169,10,0.12,0.08,17.14,FLYING,X10-F,0:/Integrated Flight Computer/aircraft/x10_f_cfg.ks (inferred preloaded)
17.44,APPROACH,ILS_TRACK,155.74,152,-3.74,532.62,453.2,-6.67,5.93,8.27,270,0.024,0.1647,0,9.715,1,0.6,4.5,0.75,0.35,0.0168,0.4,0,20.833,0,3.754,0,270,-3.065,0,1,-2.43,0,0,-3.01,270,0.7145,-0.0001,-0.6997,-3.06,270,0.18,-5.24,8.85,-0.004,-0.065,1,3,649.6,2.046,-3.065,538.12,0,0,0,,0,NONE,0,0,0,0,0,0,0,0,0,0,453.2,0,0,0,0,0,0,0,0,0,270.04,0,0,0,0,0,0,0,0,0,0,0,0,0,3,3,0,0,VALID,0,0,0,0,0,1,0,0,0,0,0,0,0,0,0,0,0,0,0,0,161.53,1105.52,2,0,0.08,0.08,172,10,0.12,0.08,17.44,FLYING,X10-F,0:/Integrated Flight Computer/aircraft/x10_f_cfg.ks (inferred preloaded)
17.74,APPROACH,ILS_TRACK,155.49,152,-3.49,530.63,451.18,-6.74,6.08,8.44,270,0.024,0.1756,0,8.638,1,0.6,4.5,0.75,0.35,0.0168,0.4,0,20.902,0,3.508,0,270,-3.015,0,1,-2.47,0,0,-3.13,270,0.715,-0.0001,-0.6991,-3.01,270,0.18,-4.65,8.802,-0.001,-0.015,1,3,649.6,1.763,-3.015,535.56,0,0,0,,0,NONE,0,0,0,0,0,0,0,0,0,0,451.18,0,0,0,0,0,0,0,0,0,270.04,0,0,0,0,0,0,0,0,0,0,0,0,0,3,3,0,0,VALID,0,0,0,0,0,1,0,0,0,0,0,0,0,0,0,0,0,0,0,0,162.74,1104.62,2,0,0.08,0.08,175,10,0.12,0.08,17.74,FLYING,X10-F,0:/Integrated Flight Computer/aircraft/x10_f_cfg.ks (inferred preloaded)
18.04,APPROACH,ILS_TRACK,155.25,152,-3.25,528.59,449.11,-7.05,6.13,8.63,270,0.026,0.1778,0,7.634,1,0.6,4.5,0.75,0.35,0.0168,0.4,0,20.97,0,3.267,0,270,-3.159,0,1,-2.59,0,0,-3.06,270,0.7132,-0.0001,-0.701,-3.16,270,0.17,-4.14,8.753,-0.002,-0.159,1,3,649.6,1.752,-3.159,533.01,0,0,0,,0,NONE,0,0,0,0,0,0,0,0,0,0,449.11,0,0,0,0,0,0,0,0,0,270.04,0,0,0,0,0,0,0,0,0,0,0,0,0,3,3,0,0,VALID,0,0,0,0,0,1,0,0,0,0,0,0,0,0,0,0,0,0,0,0,164.48,1103.75,2,0,0.08,0.08,178,10,0.12,0.08,18.04,FLYING,X10-F,0:/Integrated Flight Computer/aircraft/x10_f_cfg.ks (inferred preloaded)
18.34,APPROACH,ILS_TRACK,154.99,152,-2.99,526.47,447.01,-7.02,6.14,8.59,270,0.026,0.1928,0,6.706,1,0.6,4.5,0.75,0.35,0.0168,0.4,0,21.043,0,3.009,0,270,-2.903,0,1,-2.58,0,0,-3.01,270,0.7163,-0.0001,-0.6978,-2.9,270,0.16,-3.69,8.704,-0.004,0.097,1,3,649.6,1.264,-2.903,530.46,0,0,0,,0,NONE,0,0,0,0,0,0,0,0,0,0,447.01,0,0,0,0,0,0,0,0,0,270.04,0,0,0,0,0,0,0,0,0,0,0,0,0,3,3,0,0,VALID,0,0,0,0,0,1,0,0,0,0,0,0,0,0,0,0,0,0,0,0,166.38,1102.81,2,0,0.08,0.08,181,10,0.12,0.08,18.34,FLYING,X10-F,0:/Integrated Flight Computer/aircraft/x10_f_cfg.ks (inferred preloaded)
18.64,APPROACH,ILS_TRACK,154.76,152,-2.76,524.31,444.85,-7.39,6.07,8.69,270,0.027,0.1836,0,5.85,1,0.6,4.5,0.75,0.35,0.0168,0.4,0,21.108,0,2.778,0,270,-3.084,0,1,-2.71,0,0,-2.98,270,0.714,-0.0001,-0.7001,-3.08,270,0.16,-3.31,8.656,-0.003,-0.084,1,3,649.6,1.347,-3.084,527.91,0,0,0,,0,NONE,0,0,0,0,0,0,0,0,0,0,444.85,0,0,0,0,0,0,0,0,0,270.04,0,0,0,0,0,0,0,0,0,0,0,0,0,3,3,0,0,VALID,0,0,0,0,0,1,0,0,0,0,0,0,0,0,0,0,0,0,0,0,168.8,1102,2,0,0.08,0.08,184,10,0.12,0.08,18.64,FLYING,X10-F,0:/Integrated Flight Computer/aircraft/x10_f_cfg.ks (inferred preloaded)
18.94,APPROACH,ILS_TRACK,154.51,152,-2.51,522.17,442.61,-7.34,6.4,9,270,0.025,0.1944,0,5.066,1,0.6,4.5,0.75,0.35,0.0168,0.4,0,21.178,0,2.529,0,270,-3.071,0,1,-2.73,0,0,-3.23,270,0.7141,-0.0001,-0.7,-3.07,270,0.15,-2.9,8.607,-0.002,-0.071,1,3,649.6,1.177,-3.071,525.37,0,0,0,,0,NONE,0,0,0,0,0,0,0,0,0,0,442.61,0,0,0,0,0,0,0,0,0,270.04,0,0,0,0,0,0,0,0,0,0,0,0,0,3,3,0,0,VALID,0,0,0,0,0,1,0,0,0,0,0,0,0,0,0,0,0,0,0,0,170.74,1101.1,2,0,0.08,0.08,187,10,0.12,0.08,18.94,FLYING,X10-F,0:/Integrated Flight Computer/aircraft/x10_f_cfg.ks (inferred preloaded)
19.24,APPROACH,ILS_TRACK,154.27,152,-2.27,519.9,440.4,-7.53,6.22,8.88,270,0.026,0.1974,0,4.359,1,0.6,4.5,0.75,0.35,0.0168,0.4,0,21.248,0,2.28,0,270,-2.914,0,1,-2.78,0,0,-2.87,270,0.716,0,-0.6981,-2.91,270,0.15,-2.63,8.559,0,0.086,1,3,649.6,0.88,-2.914,522.83,0,0,0,,0,NONE,0,0,0,0,0,0,0,0,0,0,440.4,0,0,0,0,0,0,0,0,0,270.04,0,0,0,0,0,0,0,0,0,0,0,0,0,3,3,0,0,VALID,0,0,0,0,0,1,0,0,0,0,0,0,0,0,0,0,0,0,0,0,173.42,1100.23,2,0,0.08,0.08,190,10,0.12,0.08,19.24,FLYING,X10-F,0:/Integrated Flight Computer/aircraft/x10_f_cfg.ks (inferred preloaded)
19.54,APPROACH,ILS_TRACK,154.03,152,-2.03,517.7,438.08,-7.75,6.53,9.32,270,0.025,0.1975,0,3.721,1,0.6,4.5,0.75,0.35,0.0168,0.4,0,21.313,0,2.049,0,270,-3.259,0,1,-2.89,0,0,-3.17,270,0.7117,-0.0001,-0.7025,-3.26,270,0.14,-2.31,8.51,-0.003,-0.259,1,3,649.6,1.191,-3.259,520.3,0,0,0,,0,NONE,0,0,0,0,0,0,0,0,0,0,438.08,0,0,0,0,0,0,0,0,0,270.04,0,0,0,0,0,0,0,0,0,0,0,0,0,3,3,0,0,VALID,0,0,0,0,0,1,0,0,0,0,0,0,0,0,0,0,0,0,0,0,175.76,1099.43,2,0,0.08,0.08,193,10,0.12,0.08,19.54,FLYING,X10-F,0:/Integrated Flight Computer/aircraft/x10_f_cfg.ks (inferred preloaded)
19.84,APPROACH,ILS_TRACK,153.77,152,-1.77,515.4,435.79,-7.62,6.58,9.27,270,0.023,0.2241,0,3.159,1,0.6,4.5,0.75,0.35,0.0168,0.4,0,21.388,0,1.783,0,270,-2.876,0,1,-2.83,0,0,-2.96,270,0.7163,-0.0001,-0.6978,-2.88,270,0.14,-2.06,8.462,-0.001,0.124,1,3,649.6,0.618,-2.876,517.77,0,0,0,,0,NONE,0,0,0,0,0,0,0,0,0,0,435.79,0,0,0,0,0,0,0,0,0,270.04,0,0,0,0,0,0,0,0,0,0,0,0,0,3,3,0,0,VALID,0,0,0,0,0,1,0,0,0,0,0,0,0,0,0,0,0,0,0,0,178.39,1098.47,2,0,0.08,0.08,196,10,0.12,0.08,19.84,FLYING,X10-F,0:/Integrated Flight Computer/aircraft/x10_f_cfg.ks (inferred preloaded)
20.14,APPROACH,ILS_TRACK,153.54,152,-1.54,513.09,433.46,-7.88,6.57,9.4,270,0.023,0.214,0,2.67,1,0.6,4.5,0.75,0.35,0.0168,0.4,0,21.452,0,1.559,0,270,-3.089,0,1,-2.93,0,0,-2.98,270,0.7137,-0.0001,-0.7005,-3.09,270,0.13,-1.85,8.414,-0.001,-0.089,1,3,649.6,0.807,-3.089,515.25,0,0,0,,0,NONE,0,0,0,0,0,0,0,0,0,0,433.46,0,0,0,0,0,0,0,0,0,270.04,0,0,0,0,0,0,0,0,0,0,0,0,0,3,3,0,0,VALID,0,0,0,0,0,1,0,0,0,0,0,0,0,0,0,0,0,0,0,0,182.04,1097.71,2,0,0.08,0.08,199,10,0.12,0.08,20.14,FLYING,X10-F,0:/Integrated Flight Computer/aircraft/x10_f_cfg.ks (inferred preloaded)
20.44,APPROACH,ILS_TRACK,153.31,152,-1.31,510.78,431.12,-7.75,6.76,9.52,270,0.02,0.2223,0,2.249,1,0.6,4.5,0.75,0.35,0.0168,0.4,0,21.518,0,1.324,0,270,-2.97,0,1,-2.89,0,0,-3.1,270,0.7151,-0.0001,-0.6991,-2.97,270,0.13,-1.63,8.366,-0.002,0.03,1,3,649.6,0.573,-2.97,512.73,0,0,0,,0,NONE,0,0,0,0,0,0,0,0,0,0,431.12,0,0,0,0,0,0,0,0,0,270.04,0,0,0,0,0,0,0,0,0,0,0,0,0,3,3,0,0,VALID,0,0,0,0,0,1,0,0,0,0,0,0,0,0,0,0,0,0,0,0,185.07,1096.9,2,0,0.08,0.08,202,10,0.12,0.08,20.44,FLYING,X10-F,0:/Integrated Flight Computer/aircraft/x10_f_cfg.ks (inferred preloaded)
20.74,APPROACH,ILS_TRACK,153.09,152,-1.09,508.45,428.76,-7.95,6.76,9.62,270,0.021,0.2189,0,1.896,1,0.6,4.5,0.75,0.35,0.0168,0.4,0,21.579,0,1.106,0,270,-3.09,0,1,-2.96,0,0,-2.99,270,0.7135,0,-0.7006,-3.09,270,0.12,-1.46,8.318,0.003,-0.09,1,3,649.6,0.659,-3.09,510.21,0,0,0,,0,NONE,0,0,0,0,0,0,0,0,0,0,428.76,0,0,0,0,0,0,0,0,0,270.04,0,0,0,0,0,0,0,0,0,0,0,0,0,3,3,0,0,VALID,0,0,0,0,0,1,0,0,0,0,0,0,0,0,0,0,0,0,0,0,188.42,1096.17,2,0,0.08,0.08,205,10,0.12,0.08,20.74,FLYING,X10-F,0:/Integrated Flight Computer/aircraft/x10_f_cfg.ks (inferred preloaded)
21.04,APPROACH,ILS_TRACK,152.87,152,-0.87,506.1,426.4,-7.81,6.86,9.64,270,0.019,0.2305,0,1.609,1,0.6,4.5,0.75,0.35,0.0168,0.4,0,21.643,0,0.881,0,270,-2.947,0,1,-2.92,0,0,-3.06,270,0.7152,-0.0001,-0.6989,-2.95,270,0.12,-1.28,8.27,-0.001,0.053,1,3,649.6,0.414,-2.947,507.7,0,0,0,,0,NONE,0,0,0,0,0,0,0,0,0,0,426.4,0,0,0,0,0,0,0,0,0,270.04,0,0,0,0,0,0,0,0,0,0,0,0,0,3,3,0,0,VALID,0,0,0,0,0,1,0,0,0,0,0,0,0,0,0,0,0,0,0,0,191.41,1095.4,2,0,0.08,0.08,208,10,0.12,0.08,21.04,FLYING,X10-F,0:/Integrated Flight Computer/aircraft/x10_f_cfg.ks (inferred preloaded)
21.34,APPROACH,ILS_TRACK,152.67,152,-0.67,503.73,424.03,-8.01,6.82,9.71,270,0.019,0.2245,0,1.386,1,0.6,4.5,0.75,0.35,0.0168,0.4,0,21.699,0,0.679,0,270,-3.105,0,1,-2.99,0,0,-3,270,0.7132,0,-0.7009,-3.11,270,0.11,-1.14,8.222,0.001,-0.105,1,3,649.6,0.561,-3.105,505.19,0,0,0,,0,NONE,0,0,0,0,0,0,0,0,0,0,424.03,0,0,0,0,0,0,0,0,0,270.04,0,0,0,0,0,0,0,0,0,0,0,0,0,3,3,0,0,VALID,0,0,0,0,0,1,0,0,0,0,0,0,0,0,0,0,0,0,0,0,194.83,1094.75,2,0,0.08,0.08,211,10,0.12,0.08,21.34,FLYING,X10-F,0:/Integrated Flight Computer/aircraft/x10_f_cfg.ks (inferred preloaded)
21.64,APPROACH,ILS_TRACK,152.46,152,-0.46,501.37,421.65,-7.86,6.92,9.73,270,0.017,0.2341,0,1.223,1,0.6,4.5,0.75,0.35,0.0168,0.4,0,21.758,0,0.472,0,270,-2.967,0,1,-2.95,0,0,-3.09,270,0.7149,0,-0.6993,-2.97,270,0.11,-0.99,8.174,0,0.033,1,3,649.6,0.331,-2.967,502.68,0,0,0,,0,NONE,0,0,0,0,0,0,0,0,0,0,421.65,0,0,0,0,0,0,0,0,0,270.04,0,0,0,0,0,0,0,0,0,0,0,0,0,3,3,0,0,VALID,0,0,0,0,0,1,0,0,0,0,0,0,0,0,0,0,0,0,0,0,197.77,1094.06,2,0,0.08,0.08,214,10,0.12,0.08,21.64,FLYING,X10-F,0:/Integrated Flight Computer/aircraft/x10_f_cfg.ks (inferred preloaded)
21.94,APPROACH,ILS_TRACK,152.28,152,-0.28,498.99,419.27,-8.06,6.88,9.79,270,0.016,0.2274,0,1.12,1,0.6,4.5,0.75,0.35,0.0168,0.4,0,21.809,0,0.289,0,270,-3.118,0,1,-3.02,0,0,-3.02,270,0.713,0,-0.7012,-3.12,270,0.1,-0.88,8.126,0,-0.118,1,3,649.6,0.478,-3.118,500.18,0,0,0,,0,NONE,0,0,0,0,0,0,0,0,0,0,419.27,0,0,0,0,0,0,0,0,0,270.04,0,0,0,0,0,0,0,0,0,0,0,0,0,3,3,0,0,VALID,0,0,0,0,0,1,0,0,0,0,0,0,0,0,0,0,0,0,0,0,201.04,1093.48,2,0,0.08,0.08,217,10,0.12,0.08,21.94,FLYING,X10-F,0:/Integrated Flight Computer/aircraft/x10_f_cfg.ks (inferred preloaded)
22.24,APPROACH,ILS_TRACK,152.09,152,-0.09,496.6,416.87,-7.92,6.97,9.81,270,0.014,0.2359,0,1.07,1,0.6,4.5,0.75,0.35,0.0168,0.4,0,21.862,0,0.102,0,270,-2.98,0,1,-2.98,0,0,-3.09,270,0.7146,0,-0.6995,-2.98,270,0.1,-0.76,8.079,0.003,0.02,1,3,649.6,0.258,-2.98,497.68,0,0,0,,0,NONE,0,0,0,0,0,0,0,0,0,0,416.87,0,0,0,0,0,0,0,0,0,270.04,0,0,0,0,0,0,0,0,0,0,0,0,0,3,3,0,0,VALID,0,0,0,0,0,1,0,0,0,0,0,0,0,0,0,0,0,0,0,0,203.79,1092.88,2,0,0.08,0.08,220,10,0.12,0.08,22.24,FLYING,X10-F,0:/Integrated Flight Computer/aircraft/x10_f_cfg.ks (inferred preloaded)
22.54,APPROACH,ILS_TRACK,151.93,152,0.07,494.21,414.47,-8.11,6.94,9.89,270,0.015,0.2301,0,1.074,1,0.6,4.5,0.75,0.35,0.0168,0.4,0,21.909,0,-0.063,0,270,-3.142,0,1,-3.05,0,0,-3.04,270,0.7126,0,-0.7016,-3.14,270,0.1,-0.66,8.031,0.001,-0.142,1,3,649.6,0.426,-3.142,495.18,0,0,0,,0,NONE,0,0,0,0,0,0,0,0,0,0,414.47,0,0,0,0,0,0,0,0,0,270.04,0,0,0,0,0,0,0,0,0,0,0,0,0,3,3,0,0,VALID,0,0,0,0,0,1,0,0,0,0,0,0,0,0,0,0,0,0,0,0,206.83,1092.39,2,0,0.08,0.08,223,10,0.12,0.08,22.54,FLYING,X10-F,0:/Integrated Flight Computer/aircraft/x10_f_cfg.ks (inferred preloaded)
22.84,APPROACH,ILS_TRACK,151.75,152,0.25,491.8,412.06,-7.96,7.01,9.87,270,0.012,0.2432,0,1.127,1,0.6,4.5,0.75,0.35,0.0168,0.4,0,21.958,0,-0.238,0,270.01,-2.974,0,1,-3,0,0,-3.07,270,0.7146,0.0001,-0.6996,-2.97,270.01,0.09,-0.56,7.984,0.005,0.026,1,3,649.6,0.178,-2.974,492.69,0,0,0,,0,NONE,0,0,0,0,0,0,0,0,0,0,412.06,0,0,0,0,0,0,0,0,0,270.04,0,0,0,0,0,0,0,0,0,0,0,0,0,3,3,0,0,VALID,0,0,0,0,0,1,0,0,0,0,0,0,0,0,0,0,0,0,0,0,209.46,1091.84,2,0,0.08,0.08,226,10,0.12,0.08,22.84,FLYING,X10-F,0:/Integrated Flight Computer/aircraft/x10_f_cfg.ks (inferred preloaded)
23.14,APPROACH,ILS_TRACK,151.6,152,0.4,489.4,409.64,-8.16,7,9.97,270,0.013,0.2367,0,1.229,1,0.6,4.5,0.75,0.35,0.0168,0.4,0,22,0,-0.386,0,270,-3.16,0,1,-3.07,0,0,-3.05,270,0.7122,-0.0001,-0.7019,-3.16,270,0.09,-0.48,7.936,-0.003,-0.16,1,3,649.6,0.381,-3.16,490.2,0,0,0,,0,NONE,0,0,0,0,0,0,0,0,0,0,409.64,0,0,0,0,0,0,0,0,0,270.04,0,0,0,0,0,0,0,0,0,0,0,0,0,3,3,0,0,VALID,0,0,0,0,0,1,0,0,0,0,0,0,0,0,0,0,0,0,0,0,212.59,1091.42,2,0,0.08,0.08,229,10,0.12,0.08,23.14,FLYING,X10-F,0:/Integrated Flight Computer/aircraft/x10_f_cfg.ks (inferred preloaded)
23.44,APPROACH,ILS_TRACK,151.44,152,0.56,486.99,407.23,-7.98,7.06,9.93,270,0.011,0.2534,0,1.376,1,0.6,4.5,0.75,0.35,0.0168,0.4,0,22.046,0,-0.549,0,270,-2.961,0,1,-3.01,0,0,-3.08,270,0.7146,0,-0.6995,-2.96,270,0.08,-0.4,7.889,0.002,0.039,1,3,649.6,0.101,-2.961,487.71,0,0,0,,0,NONE,0,0,0,0,0,0,0,0,0,0,407.23,0,0,0,0,0,0,0,0,0,270.04,0,0,0,0,0,0,0,0,0,0,0,0,0,3,3,0,0,VALID,0,0,0,0,0,1,0,0,0,0,0,0,0,0,0,0,0,0,0,0,215.33,1090.92,2,0,0.08,0.08,232,10,0.12,0.08,23.44,FLYING,X10-F,0:/Integrated Flight Computer/aircraft/x10_f_cfg.ks (inferred preloaded)
23.74,APPROACH,ILS_TRACK,151.31,152,0.69,484.56,404.81,-8.19,7,9.98,270,0.012,0.2446,0,1.569,1,0.6,4.5,0.75,0.35,0.0168,0.4,0,22.083,0,-0.68,0,270,-3.124,0,1,-3.09,0,0,-3.02,270,0.7126,-0.0001,-0.7016,-3.12,270,0.08,-0.35,7.841,-0.001,-0.124,1,3,649.6,0.286,-3.124,485.23,0,0,0,,0,NONE,0,0,0,0,0,0,0,0,0,0,404.81,0,0,0,0,0,0,0,0,0,270.04,0,0,0,0,0,0,0,0,0,0,0,0,0,3,3,0,0,VALID,0,0,0,0,0,1,0,0,0,0,0,0,0,0,0,0,0,0,0,0,218.77,1090.58,2,0,0.08,0.08,235,10,0.12,0.08,23.74,FLYING,X10-F,0:/Integrated Flight Computer/aircraft/x10_f_cfg.ks (inferred preloaded)
24.04,APPROACH,ILS_TRACK,151.17,152,0.83,482.14,402.38,-8.05,7.09,10,270,0.01,0.2545,0,1.799,1,0.6,4.5,0.75,0.35,0.0168,0.4,0,22.121,0,-0.817,0,270,-2.994,0,1,-3.04,0,0,-3.1,270,0.7141,0,-0.7,-2.99,270,0.07,-0.27,7.794,0.004,0.006,1,3,649.6,0.095,-2.994,482.75,0,0,0,,0,NONE,0,0,0,0,0,0,0,0,0,0,402.38,0,0,0,0,0,0,0,0,0,270.04,0,0,0,0,0,0,0,0,0,0,0,0,0,3,3,0,0,VALID,0,0,0,0,0,1,0,0,0,0,0,0,0,0,0,0,0,0,0,0,221.58,1090.2,2,0,0.08,0.08,238,10,0.12,0.08,24.04,FLYING,X10-F,0:/Integrated Flight Computer/aircraft/x10_f_cfg.ks (inferred preloaded)
24.34,APPROACH,ILS_TRACK,151.06,152,0.94,479.72,399.93,-8.18,7.11,10.1,270,0.01,0.2479,0,2.068,1,0.6,4.5,0.75,0.35,0.0168,0.4,0,22.153,0,-0.929,0,270,-3.164,0,1,-3.1,0,0,-3.07,270,0.712,0,-0.7022,-3.16,270,0.07,-0.22,7.746,0.002,-0.164,1,3,649.6,0.288,-3.164,480.26,0,0,0,,0,NONE,0,0,0,0,0,0,0,0,0,0,399.93,0,0,0,0,0,0,0,0,0,270.04,0,0,0,0,0,0,0,0,0,0,0,0,0,3,3,0,0,VALID,0,0,0,0,0,1,0,0,0,0,0,0,0,0,0,0,0,0,0,0,224.74,1089.93,2,0,0.08,0.08,241,10,0.12,0.08,24.34,FLYING,X10-F,0:/Integrated Flight Computer/aircraft/x10_f_cfg.ks (inferred preloaded)
24.64,APPROACH,ILS_TRACK,150.95,152,1.05,477.29,397.5,-8.15,7.15,10.1,270,0.01,0.2532,0,2.37,1,0.6,4.5,0.75,0.35,0.0168,0.4,0,22.185,0,-1.044,0,270,-3.055,0,1,-3.08,0,0,-3.04,270,0.7132,-0.0001,-0.7009,-3.06,270,0.07,-0.17,7.699,-0.004,-0.055,1,3,649.6,0.133,-3.055,477.79,0,0,0,,0,NONE,0,0,0,0,0,0,0,0,0,0,397.5,0,0,0,0,0,0,0,0,0,270.04,0,0,0,0,0,0,0,0,0,0,0,0,0,3,3,0,0,VALID,0,0,0,0,0,1,0,0,0,0,0,0,0,0,0,0,0,0,0,0,227.46,1089.65,2,0,0.08,0.08,244,10,0.12,0.08,24.64,FLYING,X10-F,0:/Integrated Flight Computer/aircraft/x10_f_cfg.ks (inferred preloaded)
24.94,APPROACH,ILS_TRACK,150.85,152,1.15,474.86,395.06,-8.09,7.19,10.12,270,0.008,0.2562,0,2.703,1,0.6,4.5,0.75,0.35,0.0168,0.4,0,22.214,0,-1.145,0,270,-3.03,0,1,-3.07,0,0,-3.1,270,0.7135,0,-0.7007,-3.03,270,0.06,-0.12,7.652,0.001,-0.03,1,3,649.6,0.083,-3.03,475.31,0,0,0,,0,NONE,0,0,0,0,0,0,0,0,0,0,395.06,0,0,0,0,0,0,0,0,0,270.04,0,0,0,0,0,0,0,0,0,0,0,0,0,3,3,0,0,VALID,0,0,0,0,0,1,0,0,0,0,0,0,0,0,0,0,0,0,0,0,230.23,1089.42,2,0,0.08,0.08,247,10,0.12,0.08,24.94,FLYING,X10-F,0:/Integrated Flight Computer/aircraft/x10_f_cfg.ks (inferred preloaded)
25.24,APPROACH,ILS_TRACK,150.76,152,1.24,472.44,392.62,-8.08,7.23,10.17,270,0.008,0.2567,0,3.065,1,0.6,4.5,0.75,0.35,0.0168,0.4,0,22.239,0,-1.236,0,270,-3.11,0,1,-3.08,0,0,-3.14,270,0.7125,0,-0.7017,-3.11,270,0.06,-0.07,7.605,0.002,-0.11,1,3,649.6,0.165,-3.11,472.84,0,0,0,,0,NONE,0,0,0,0,0,0,0,0,0,0,392.62,0,0,0,0,0,0,0,0,0,270.04,0,0,0,0,0,0,0,0,0,0,0,0,0,3,3,0,0,VALID,0,0,0,0,0,1,0,0,0,0,0,0,0,0,0,0,0,0,0,0,233.05,1089.24,2,0,0.08,0.08,250,10,0.12,0.08,25.24,FLYING,X10-F,0:/Integrated Flight Computer/aircraft/x10_f_cfg.ks (inferred preloaded)
25.54,APPROACH,ILS_TRACK,150.67,152,1.33,470,390.19,-8.15,7.22,10.2,270,0.01,0.2583,0,3.454,1,0.6,4.5,0.75,0.35,0.0168,0.4,0,22.264,0,-1.322,0,270,-3.151,0,1,-3.1,0,0,-3.07,270,0.7119,0,-0.7023,-3.15,270,0.05,-0.04,7.558,0.001,-0.151,1,3,649.6,0.203,-3.151,470.36,0,0,0,,0,NONE,0,0,0,0,0,0,0,0,0,0,390.19,0,0,0,0,0,0,0,0,0,270.04,0,0,0,0,0,0,0,0,0,0,0,0,0,3,3,0,0,VALID,0,0,0,0,0,1,0,0,0,0,0,0,0,0,0,0,0,0,0,0,235.87,1089.09,2,0,0.08,0.08,253,10,0.12,0.08,25.54,FLYING,X10-F,0:/Integrated Flight Computer/aircraft/x10_f_cfg.ks (inferred preloaded)
25.84,APPROACH,ILS_TRACK,150.59,152,1.41,467.56,387.76,-8.14,7.18,10.14,270,0.009,0.2635,0,3.867,1,0.6,4.5,0.75,0.35,0.0168,0.4,0,22.286,0,-1.403,0,270,-3.067,0,1,-3.09,0,0,-3.04,270,0.7129,0,-0.7013,-3.07,270,0.05,-0.01,7.51,0,-0.067,1,3,649.6,0.087,-3.067,467.89,0,0,0,,0,NONE,0,0,0,0,0,0,0,0,0,0,387.76,0,0,0,0,0,0,0,0,0,270.04,0,0,0,0,0,0,0,0,0,0,0,0,0,3,3,0,0,VALID,0,0,0,0,0,1,0,0,0,0,0,0,0,0,0,0,0,0,0,0,238.64,1088.95,2,0,0.08,0.08,256,10,0.12,0.08,25.84,FLYING,X10-F,0:/Integrated Flight Computer/aircraft/x10_f_cfg.ks (inferred preloaded)
26.14,APPROACH,ILS_TRACK,150.52,152,1.48,465.13,385.32,-8.09,7.21,10.14,270,0.009,0.266,0,4.301,1,0.6,4.5,0.75,0.35,0.0168,0.4,0,22.305,0,-1.47,0,270,-3.048,0,1,-3.07,0,0,-3.12,270,0.7131,0,-0.7011,-3.05,270,0.05,0.03,7.463,0,-0.048,1,3,649.6,0.048,-3.048,465.42,0,0,0,,0,NONE,0,0,0,0,0,0,0,0,0,0,385.32,0,0,0,0,0,0,0,0,0,270.04,0,0,0,0,0,0,0,0,0,0,0,0,0,3,3,0,0,VALID,0,0,0,0,0,1,0,0,0,0,0,0,0,0,0,0,0,0,0,0,241.41,1088.86,2,0,0.08,0.08,259,10,0.12,0.08,26.14,FLYING,X10-F,0:/Integrated Flight Computer/aircraft/x10_f_cfg.ks (inferred preloaded)
26.44,APPROACH,ILS_TRACK,150.47,152,1.53,462.7,382.88,-8.08,7.23,10.17,270,0.008,0.2636,0,4.754,1,0.6,4.5,0.75,0.35,0.0168,0.4,0,22.321,0,-1.525,0,270,-3.123,0,1,-3.08,0,0,-3.15,270,0.7121,0,-0.7021,-3.12,270,0.04,0.07,7.416,0.003,-0.123,1,3,649.6,0.128,-3.123,462.95,0,0,0,,0,NONE,0,0,0,0,0,0,0,0,0,0,382.88,0,0,0,0,0,0,0,0,0,270.04,0,0,0,0,0,0,0,0,0,0,0,0,0,3,3,0,0,VALID,0,0,0,0,0,1,0,0,0,0,0,0,0,0,0,0,0,0,0,0,244.2,1088.84,2,0,0.08,0.08,262,10,0.12,0.08,26.44,FLYING,X10-F,0:/Integrated Flight Computer/aircraft/x10_f_cfg.ks (inferred preloaded)
26.74,APPROACH,ILS_TRACK,150.43,152,1.57,460.26,380.45,-8.13,7.22,10.2,270,0.009,0.2623,0,5.221,1,0.6,4.5,0.75,0.35,0.0168,0.4,0,22.334,0,-1.572,0,270,-3.168,0,1,-3.1,0,0,-3.1,270,0.7115,0,-0.7027,-3.17,270,0.04,0.1,7.369,0.003,-0.168,1,3,649.6,0.173,-3.168,460.49,0,0,0,,0,NONE,0,0,0,0,0,0,0,0,0,0,380.45,0,0,0,0,0,0,0,0,0,270.04,0,0,0,0,0,0,0,0,0,0,0,0,0,3,3,0,0,VALID,0,0,0,0,0,1,0,0,0,0,0,0,0,0,0,0,0,0,0,0,246.78,1088.85,2,0,0.08,0.08,265,10,0.12,0.08,26.74,FLYING,X10-F,0:/Integrated Flight Computer/aircraft/x10_f_cfg.ks (inferred preloaded)
27.04,APPROACH,ILS_TRACK,150.39,152,1.61,457.82,378.01,-8.17,7.18,10.17,270,0.009,0.2639,0,5.702,1,0.6,4.5,0.75,0.35,0.0168,0.4,0,22.345,0,-1.613,0,270,-3.115,0,1,-3.1,0,0,-3.06,270,0.7121,-0.0001,-0.7021,-3.12,270,0.03,0.12,7.322,-0.003,-0.115,1,3,649.6,0.099,-3.115,458.02,0,0,0,,0,NONE,0,0,0,0,0,0,0,0,0,0,378.01,0,0,0,0,0,0,0,0,0,270.04,0,0,0,0,0,0,0,0,0,0,0,0,0,3,3,0,0,VALID,0,0,0,0,0,1,0,0,0,0,0,0,0,0,0,0,0,0,0,0,249.16,1088.88,2,0,0.08,0.08,268,10,0.12,0.08,27.04,FLYING,X10-F,0:/Integrated Flight Computer/aircraft/x10_f_cfg.ks (inferred preloaded)
27.34,APPROACH,ILS_TRACK,150.35,152,1.65,455.38,375.58,-8.1,7.18,10.13,270,0.008,0.2669,0,6.192,1,0.6,4.5,0.75,0.35,0.0168,0.4,0,22.355,0,-1.646,0,270,-3.051,0,1,-3.08,0,0,-3.1,270,0.7128,0,-0.7014,-3.05,270,0.03,0.15,7.275,0.004,-0.051,1,3,649.6,0.008,-3.051,455.56,0,0,0,,0,NONE,0,0,0,0,0,0,0,0,0,0,375.58,0,0,0,0,0,0,0,0,0,270.04,0,0,0,0,0,0,0,0,0,0,0,0,0,3,3,0,0,VALID,0,0,0,0,0,1,0,0,0,0,0,0,0,0,0,0,0,0,0,0,251.41,1088.94,2,0,0.08,0.08,271,10,0.12,0.08,27.34,FLYING,X10-F,0:/Integrated Flight Computer/aircraft/x10_f_cfg.ks (inferred preloaded)
27.64,APPROACH,ILS_TRACK,150.33,152,1.67,452.94,373.13,-8.09,7.22,10.17,270,0.008,0.2646,0,6.689,1,0.6,4.5,0.75,0.35,0.0168,0.4,0,22.36,0,-1.665,0,270,-3.145,0,1,-3.09,0,0,-3.18,270,0.7116,0,-0.7026,-3.14,270,0.02,0.18,7.228,0.004,-0.145,1,3,649.6,0.113,-3.145,453.09,0,0,0,,0,NONE,0,0,0,0,0,0,0,0,0,0,373.13,0,0,0,0,0,0,0,0,0,270.04,0,0,0,0,0,0,0,0,0,0,0,0,0,3,3,0,0,VALID,0,0,0,0,0,1,0,0,0,0,0,0,0,0,0,0,0,0,0,0,253.67,1089.05,2,0,0.08,0.08,274,10,0.12,0.08,27.64,FLYING,X10-F,0:/Integrated Flight Computer/aircraft/x10_f_cfg.ks (inferred preloaded)
27.94,APPROACH,ILS_TRACK,150.32,152,1.68,450.5,370.69,-8.2,7.17,10.18,270,0.01,0.265,0,7.194,1,0.6,4.5,0.75,0.35,0.0168,0.4,0,22.365,0,-1.683,0,270,-3.159,0,1,-3.12,0,0,-3.08,270.01,0.7114,0,-0.7028,-3.16,270,0.02,0.2,7.181,0.003,-0.159,1,3,649.6,0.125,-3.159,450.63,0,0,0,,0,NONE,0,0,0,0,0,0,0,0,0,0,370.69,0,0,0,0,0,0,0,0,0,270.04,0,0,0,0,0,0,0,0,0,0,0,0,0,3,3,0,0,VALID,0,0,0,0,0,1,0,0,0,0,0,0,0,0,0,0,0,0,0,0,255.85,1089.19,2,0,0.08,0.08,277,10,0.12,0.08,27.94,FLYING,X10-F,0:/Integrated Flight Computer/aircraft/x10_f_cfg.ks (inferred preloaded)
28.24,APPROACH,ILS_TRACK,150.3,152,1.7,448.05,368.26,-8.14,7.16,10.13,270,0.01,0.2697,0,7.701,1,0.6,4.5,0.75,0.35,0.0168,0.4,0,22.369,0,-1.697,0,270,-3.064,0,1,-3.09,0,0,-3.08,270,0.7125,0,-0.7017,-3.06,270,0.01,0.21,7.134,0.003,-0.064,1,3,649.6,-0.001,-3.064,448.16,0,0,0,,0,NONE,0,0,0,0,0,0,0,0,0,0,368.26,0,0,0,0,0,0,0,0,0,270.04,0,0,0,0,0,0,0,0,0,0,0,0,0,3,3,0,0,VALID,0,0,0,0,0,1,0,0,0,0,0,0,0,0,0,0,0,0,0,0,257.87,1089.33,2,0,0.08,0.08,280,10,0.12,0.08,28.24,FLYING,X10-F,0:/Integrated Flight Computer/aircraft/x10_f_cfg.ks (inferred preloaded)
28.54,APPROACH,ILS_TRACK,150.3,152,1.7,445.61,365.81,-8.09,7.21,10.16,270,0.009,0.2697,0,8.21,1,0.6,4.5,0.75,0.35,0.0168,0.4,0,22.369,0,-1.698,0,270,-3.1,0,1,-3.09,0,0,-3.19,270,0.712,0,-0.7022,-3.1,270,0.01,0.24,7.087,0.003,-0.1,1,3,649.6,0.034,-3.1,445.7,0,0,0,,0,NONE,0,0,0,0,0,0,0,0,0,0,365.81,0,0,0,0,0,0,0,0,0,270.04,0,0,0,0,0,0,0,0,0,0,0,0,0,3,3,0,0,VALID,0,0,0,0,0,1,0,0,0,0,0,0,0,0,0,0,0,0,0,0,259.94,1089.52,2,0,0.08,0.08,283,10,0.12,0.08,28.54,FLYING,X10-F,0:/Integrated Flight Computer/aircraft/x10_f_cfg.ks (inferred preloaded)
28.84,APPROACH,ILS_TRACK,150.31,152,1.69,443.16,363.36,-8.21,7.17,10.18,270,0.011,0.2673,0,8.72,1,0.6,4.5,0.75,0.35,0.0168,0.4,0,22.368,0,-1.694,0,270,-3.178,0,1,-3.13,0,0,-3.09,270,0.711,0,-0.7032,-3.18,270,0,0.25,7.04,0.004,-0.178,1,3,649.6,0.128,-3.178,443.24,0,0,0,,0,NONE,0,0,0,0,0,0,0,0,0,0,363.36,0,0,0,0,0,0,0,0,0,270.04,0,0,0,0,0,0,0,0,0,0,0,0,0,3,3,0,0,VALID,0,0,0,0,0,1,0,0,0,0,0,0,0,0,0,0,0,0,0,0,262.06,1089.75,2,0,0.08,0.08,286,10,0.12,0.08,28.84,FLYING,X10-F,0:/Integrated Flight Computer/aircraft/x10_f_cfg.ks (inferred preloaded)
29.14,APPROACH,ILS_TRACK,150.31,152,1.69,440.71,360.92,-8.18,7.14,10.13,270,0.011,0.2711,0,9.227,1,0.6,4.5,0.75,0.35,0.0168,0.4,0,22.367,0,-1.689,0,270,-3.083,0,1,-3.11,0,0,-3.06,270,0.7121,0,-0.7021,-3.08,270,0,0.26,6.993,0.004,-0.083,1,3,649.6,0.005,-3.083,440.77,0,0,0,,0,NONE,0,0,0,0,0,0,0,0,0,0,360.92,0,0,0,0,0,0,0,0,0,270.04,0,0,0,0,0,0,0,0,0,0,0,0,0,3,3,0,0,VALID,0,0,0,0,0,1,0,0,0,0,0,0,0,0,0,0,0,0,0,0,263.9,1089.97,2,0,0.08,0.08,289,10,0.12,0.08,29.14,FLYING,X10-F,0:/Integrated Flight Computer/aircraft/x10_f_cfg.ks (inferred preloaded)
29.44,APPROACH,ILS_TRACK,150.33,152,1.67,438.26,358.47,-8.13,7.16,10.12,270,0.011,0.271,0,9.73,1,0.6,4.5,0.75,0.35,0.0168,0.4,0,22.362,0,-1.672,0,270,-3.062,0,1,-3.09,0,0,-3.14,270,0.7123,0,-0.7019,-3.06,270,-0.01,0.28,6.946,0.001,-0.062,1,3,649.6,-0.027,-3.062,438.31,0,0,0,,0,NONE,0,0,0,0,0,0,0,0,0,0,358.47,0,0,0,0,0,0,0,0,0,270.04,0,0,0,0,0,0,0,0,0,0,0,0,0,3,3,0,0,VALID,0,0,0,0,0,1,0,0,0,0,0,0,0,0,0,0,0,0,0,0,265.73,1090.24,2,0,0.08,0.08,292,10,0.12,0.08,29.44,FLYING,X10-F,0:/Integrated Flight Computer/aircraft/x10_f_cfg.ks (inferred preloaded)
29.74,APPROACH,ILS_TRACK,150.35,152,1.65,435.81,356.02,-8.12,7.17,10.14,270,0.01,0.2674,0,10.226,1,0.6,4.5,0.75,0.35,0.0168,0.4,0,22.355,0,-1.646,0,270.01,-3.13,0,1,-3.1,0,0,-3.17,270,0.7114,0,-0.7028,-3.13,270.01,-0.01,0.29,6.899,0.005,-0.13,1,3,649.6,0.052,-3.13,435.85,0,0,0,,0,NONE,0,0,0,0,0,0,0,0,0,0,356.02,0,0,0,0,0,0,0,0,0,270.04,0,0,0,0,0,0,0,0,0,0,0,0,0,3,3,0,0,VALID,0,0,0,0,0,1,0,0,0,0,0,0,0,0,0,0,0,0,0,0,267.48,1090.55,2,0,0.08,0.08,295,10,0.12,0.08,29.74,FLYING,X10-F,0:/Integrated Flight Computer/aircraft/x10_f_cfg.ks (inferred preloaded)
30.04,APPROACH,ILS_TRACK,150.39,152,1.61,433.36,353.57,-8.18,7.15,10.15,270,0.011,0.2645,0,10.715,1,0.6,4.5,0.75,0.35,0.0168,0.4,0,22.346,0,-1.617,0,270,-3.171,0,1,-3.12,0,0,-3.11,270,0.7108,0,-0.7034,-3.17,270,-0.02,0.3,6.852,0.003,-0.171,1,3,649.6,0.101,-3.171,433.39,0,0,0,,0,NONE,0,0,0,0,0,0,0,0,0,0,353.57,0,0,0,0,0,0,0,0,0,270.04,0,0,0,0,0,0,0,0,0,0,0,0,0,3,3,0,0,VALID,0,0,0,0,0,1,0,0,0,0,0,0,0,0,0,0,0,0,0,0,269.02,1090.88,2,0,0.08,0.08,298,10,0.12,0.08,30.04,FLYING,X10-F,0:/Integrated Flight Computer/aircraft/x10_f_cfg.ks (inferred preloaded)
30.34,APPROACH,ILS_TRACK,150.42,152,1.58,430.9,351.12,-8.22,7.12,10.13,270,0.011,0.2636,0,11.194,1,0.6,4.5,0.75,0.35,0.0168,0.4,0,22.337,0,-1.582,0,270.01,-3.132,0,1,-3.12,0,0,-3.07,270.01,0.7113,0.0001,-0.7029,-3.13,270.01,-0.02,0.31,6.805,0.005,-0.132,1,3,649.6,0.05,-3.132,430.92,0,0,0,,0,NONE,0,0,0,0,0,0,0,0,0,0,351.12,0,0,0,0,0,0,0,0,0,270.04,0,0,0,0,0,0,0,0,0,0,0,0,0,3,3,0,0,VALID,0,0,0,0,0,1,0,0,0,0,0,0,0,0,0,0,0,0,0,0,270.31,1091.23,2,0,0.08,0.08,301,10,0.12,0.08,30.34,FLYING,X10-F,0:/Integrated Flight Computer/aircraft/x10_f_cfg.ks (inferred preloaded)
30.64,APPROACH,ILS_TRACK,150.46,152,1.54,428.44,348.67,-8.18,7.1,10.08,270,0.011,0.2659,0,11.661,1,0.6,4.5,0.75,0.35,0.0168,0.4,0,22.327,0,-1.546,0,270.01,-3.07,0,1,-3.1,0,0,-3.08,270,0.712,0.0001,-0.7022,-3.07,270.01,-0.03,0.31,6.758,0.007,-0.07,1,3,649.6,-0.029,-3.07,428.46,0,0,0,,0,NONE,0,0,0,0,0,0,0,0,0,0,348.67,0,0,0,0,0,0,0,0,0,270.04,0,0,0,0,0,0,0,0,0,0,0,0,0,3,3,0,0,VALID,0,0,0,0,0,1,0,0,0,0,0,0,0,0,0,0,0,0,0,0,271.41,1091.59,2,0,0.08,0.08,304,10,0.12,0.08,30.64,FLYING,X10-F,0:/Integrated Flight Computer/aircraft/x10_f_cfg.ks (inferred preloaded)
30.94,APPROACH,ILS_TRACK,150.5,152,1.5,425.99,346.22,-8.14,7.12,10.08,270,0.011,0.2656,0,12.115,1,0.6,4.5,0.75,0.35,0.0168,0.4,0,22.314,0,-1.502,0,270.01,-3.079,0,1,-3.09,0,0,-3.17,270,0.7118,0.0001,-0.7024,-3.08,270.01,-0.03,0.33,6.711,0.007,-0.079,1,3,649.6,-0.024,-3.079,426,0,0,0,,0,NONE,0,0,0,0,0,0,0,0,0,0,346.22,0,0,0,0,0,0,0,0,0,270.04,0,0,0,0,0,0,0,0,0,0,0,0,0,3,3,0,0,VALID,0,0,0,0,0,1,0,0,0,0,0,0,0,0,0,0,0,0,0,0,272.51,1091.97,2,0,0.08,0.08,307,10,0.12,0.08,30.94,FLYING,X10-F,0:/Integrated Flight Computer/aircraft/x10_f_cfg.ks (inferred preloaded)
31.24,APPROACH,ILS_TRACK,150.55,152,1.45,423.55,343.75,-8.2,7.16,10.17,270,0.012,0.2617,0,12.556,1,0.6,4.5,0.75,0.35,0.0168,0.4,0,22.3,0,-1.453,0,270.01,-3.225,0,1,-3.13,0,0,-3.16,270.01,0.7099,0.0001,-0.7043,-3.23,270.01,-0.04,0.34,6.664,0.006,-0.225,1,3,649.6,0.154,-3.225,423.53,0,0,0,,0,NONE,0,0,0,0,0,0,0,0,0,0,343.75,0,0,0,0,0,0,0,0,0,270.04,0,0,0,0,0,0,0,0,0,0,0,0,0,3,3,0,0,VALID,0,0,0,0,0,1,0,0,0,0,0,0,0,0,0,0,0,0,0,0,273.62,1092.38,2,0,0.08,0.08,310,10,0.12,0.08,31.24,FLYING,X10-F,0:/Integrated Flight Computer/aircraft/x10_f_cfg.ks (inferred preloaded)
31.54,APPROACH,ILS_TRACK,150.58,152,1.42,421.06,341.32,-8.16,7,9.97,270,0.012,0.2725,0,12.986,1,0.6,4.5,0.75,0.35,0.0168,0.4,0,22.292,0,-1.422,0,270.01,-3.008,0,1,-3.09,0,0,-3,270.01,0.7125,0.0001,-0.7016,-3.01,270.01,-0.04,0.32,6.617,0.007,-0.008,1,3,649.6,-0.111,-3.008,421.07,0,0,0,,0,NONE,0,0,0,0,0,0,0,0,0,0,341.32,0,0,0,0,0,0,0,0,0,270.04,0,0,0,0,0,0,0,0,0,0,0,0,0,3,3,0,0,VALID,0,0,0,0,0,1,0,0,0,0,0,0,0,0,0,0,0,0,0,0,274.69,1092.72,2,0,0.08,0.08,313,10,0.12,0.08,31.54,FLYING,X10-F,0:/Integrated Flight Computer/aircraft/x10_f_cfg.ks (inferred preloaded)
