t_s,phase,subphase,ias_ms,vapp_ms,spd_err_ms,agl_m,gear_h_m,vs_ms,pitch_deg,aoa_deg,hdg_deg,bank_deg,thr_cmd,thr_cur,thr_intg,at_gain,at_tau_s,at_a_up,at_a_dn,at_kp_thr,at_ki_spd,at_thr_slew,as_cmd_deg,as_cap_deg,as_raw_deg,as_spd_err_ms,as_active,aa_hdg_cmd_deg,aa_fpa_cmd_deg,aa_fbw,aa_dir,actual_fpa_deg,ftf_hdg_err_deg,ftf_fix_idx,kos_steer_pit_deg,kos_steer_hdg_deg,aa_dir_vx,aa_dir_vy,aa_dir_vz,aa_dir_pitch_deg,aa_dir_hdg_deg,ils_loc_m,ils_gs_m,ils_dist_km,loc_corr_deg,gs_corr_deg,gs_latched,active_gs_ang_deg,ils_intercept_alt_m,d_gs_ms,fpa_preclamped_deg,gs_nom_alt_m,flare_fpa_cmd,flare_tgt_vs,flare_frac,flare_mode,flare_auth_limited,flare_vs_err,flare_fpa_err,flare_pitch_err,flare_req_up_a,flare_thr_floor,flare_tecs_et_err,flare_tecs_eb_err,flare_tecs_h_ref,flare_tecs_v_ref,flare_gamma_ref,flare_gamma_eb_term,flare_gamma_unsat,steer_hdg_deg,steer_blend,ro_loc_corr_deg,ro_hdg_err_deg,ro_yaw_tgt,ro_yaw_scale,ro_yaw_gate,yaw_cmd,roll_cmd,pitch_cmd,ro_pitch_tgt_deg,ro_pitch_err_deg,ro_pitch_ff,ro_roll_assist,flaps_cur,flaps_tgt,asc_j_ab,asc_j_rk,asc_validity,asc_q_pa,asc_q_raw_pa,asc_mach,asc_apo_m,asc_drag_n,asc_w_prop,asc_edot_aero,asc_edot_orb,asc_pitch_bias,asc_blend,asc_spooling,asc_ab_thr_ratio,asc_ab_t_now,asc_ab_t_avail,asc_ab_ign_on,asc_ab_flameouts,asc_rk_t_now,asc_rk_t_avail,asc_rk_ign_on,asc_rk_flameouts,ship_thrust,ship_avail_thrust,ship_ign_on,ship_flameouts,ifc_raw_dt_s,ifc_dt_s,ifc_loop_n,ifc_hz_est,ifc_raw_dt_max_s,ifc_raw_dt_min_s,phase_el_s,status,craft_name,cfg_file
0.28,APPROACH,ILS_TRACK,155.16,152,-3.16,666.81,592.02,-21.31,6.54,14.02,270.09,0.561,0,0,0,0,0,0,0,0,0,0,0,0,0,0,0,0,0,1,0,-7.84,0,0,0,90,0,0,0,0,0,0.01,-22.42,11.734,0,0,0,3,666.81,0,0,689.23,0,0,0,,0,0,0,0,0,0,0,0,0,0,0,0,0,270.06,0,0,0,0,0,0,0,0,0,0,0,0,0,0,0,0,0,VALID,0,0,0,0,0,1,0,0,0,0,0,0,0,0,0,0,0,0,0,0,258.07,1092.46,2,0,0.245,0.245,1,3.51,0.245,0.02,0.28,FLYING,X10-F,0:/Integrated Flight Computer/aircraft/x10_f_cfg.ks (inferred preloaded)
0.67,APPROACH,ILS_TRACK,155.57,152,-3.57,658.57,583.89,-20.96,6.43,13.71,270.18,0.25,0,0,0,1,0.6,1.487,0.75,0.35,0.0168,0.4,2.312,20.891,2.312,3.547,1,269.98,0,0,1,-7.72,0,0,0,269.98,0.8086,-0.0003,0.5884,0,269.98,0.02,-26.46,11.683,-0.015,18.206,1,3,666.81,-12.836,0,686.54,0,0,0,,0,0,0,0,0,0,0,0,0,0,0,0,0,270.06,0,0,0,0,0,0,0,0,0,0,0,0,0,1,3,0,0,VALID,0,0,0,0,0,1,0,0,0,0,0,0,0,0,0,0,0,0,0,0,225.86,1094.87,2,0,0.175,0.175,3,5.19,0.245,0.175,0.67,FLYING,X10-F,0:/Integrated Flight Computer/aircraft/x10_f_cfg.ks (inferred preloaded)
1.02,APPROACH,ILS_TRACK,155.72,152,-3.72,650.73,576.68,-20.67,4.79,11.74,270.08,0.115,0,0,0,1,0.6,2.748,0.75,0.35,0.0168,0.4,2.492,20.845,2.492,3.712,1,269.96,0,0,1,-7.55,0,0,0,269.96,0.8086,-0.0007,0.5883,0,269.96,0.07,-31.23,11.626,-0.04,20.529,1,3,666.81,-13.951,0,683.56,0,0,0,,0,0,0,0,0,0,0,0,0,0,0,0,0,270.06,0,0,0,0,0,0,0,0,0,0,0,0,0,2,3,0,0,VALID,0,0,0,0,0,1,0,0,0,0,0,0,0,0,0,0,0,0,0,0,199.9,1096.05,2,0,0.175,0.175,5,5.71,0.175,0.175,1.02,FLYING,X10-F,0:/Integrated Flight Computer/aircraft/x10_f_cfg.ks (inferred preloaded)
1.37,APPROACH,ILS_TRACK,156.05,152,-4.05,642.61,569.4,-21.29,2.18,9.3,270.04,-0.009,0,0,0,1,0.6,3.817,0.75,0.35,0.0168,0.4,2.81,20.763,2.81,4.004,1,269.96,0,0,1,-7.73,0,0,0,269.97,0.8087,-0.0006,0.5883,0,269.96,0.12,-36.31,11.569,-0.036,22.588,1,3,666.81,-14.619,0,680.57,0,0,0,,0,0,0,0,0,0,0,0,0,0,0,0,0,270.06,0,0,0,0,0,0,0,0,0,0,0,0,0,3,3,0,0,VALID,0,0,0,0,0,1,0,0,0,0,0,0,0,0,0,0,0,0,0,0,177,1097.99,2,0,0.175,0.175,7,5.71,0.175,0.175,1.37,FLYING,X10-F,0:/Integrated Flight Computer/aircraft/x10_f_cfg.ks (inferred preloaded)
1.72,APPROACH,ILS_TRACK,156.62,152,-4.62,634.21,561.69,-22.54,-0.4,7.18,270.03,-0.059,0,0,0,1,0.6,4.5,0.75,0.35,0.0168,0.4,3.401,20.608,3.401,4.553,1,269.97,0,0,1,-8.11,0,0,0,269.97,0.8087,-0.0006,0.5882,0,269.97,0.16,-41.66,11.511,-0.035,24.855,1,3,666.81,-15.445,0,677.57,0,0,0,,0,0,0,0,0,0,0,0,0,0,0,0,0,270.06,0,0,0,0,0,0,0,0,0,0,0,0,0,3,3,0,0,VALID,0,0,0,0,0,1,0,0,0,0,0,0,0,0,0,0,0,0,0,0,156.89,1100.98,2,0,0.175,0.175,9,5.71,0.175,0.175,1.72,FLYING,X10-F,0:/Integrated Flight Computer/aircraft/x10_f_cfg.ks (inferred preloaded)
2.07,APPROACH,ILS_TRACK,157.29,152,-5.29,625.37,553.42,-24.14,-2.76,5.33,270.03,-0.004,0,0,0,1,0.6,4.5,0.75,0.35,0.0168,0.4,4.109,20.419,4.109,5.223,1,269.96,0,0,1,-8.59,0,0,0,269.96,0.8088,-0.0006,0.5881,0,269.96,0.2,-47.4,11.454,-0.036,27.637,1,3,666.81,-16.769,0,674.57,0,0,0,,0,0,0,0,0,0,0,0,0,0,0,0,0,270.06,0,0,0,0,0,0,0,0,0,0,0,0,0,3,3,0,0,VALID,0,0,0,0,0,1,0,0,0,0,0,0,0,0,0,0,0,0,0,0,139.14,1104.51,2,0,0.175,0.175,11,5.71,0.175,0.175,2.07,FLYING,X10-F,0:/Integrated Flight Computer/aircraft/x10_f_cfg.ks (inferred preloaded)
2.42,APPROACH,ILS_TRACK,158.01,152,-6.01,616.25,544.52,-26.29,-4.02,4.97,270.04,0.008,0,0,0,1,0.6,4.5,0.75,0.35,0.0168,0.4,4.853,20.217,4.853,5.941,1,269.96,0,0,1,-9.3,0,0,0,269.97,0.8088,-0.0006,0.588,0,269.96,0.23,-53.47,11.397,-0.036,30.021,1,3,666.81,-17.475,0,671.56,0,0,0,,0,0,0,0,0,0,0,0,0,0,0,0,0,270.06,0,0,0,0,0,0,0,0,0,0,0,0,0,3,3,0,0,VALID,0,0,0,0,0,1,0,0,0,0,0,0,0,0,0,0,0,0,0,0,123.43,1108.28,2,0,0.175,0.175,13,5.71,0.175,0.175,2.42,FLYING,X10-F,0:/Integrated Flight Computer/aircraft/x10_f_cfg.ks (inferred preloaded)
2.77,APPROACH,ILS_TRACK,158.64,152,-6.64,607,534.98,-28.21,-3.26,6.59,270.04,-0.029,0,0,0,1,0.6,4.5,0.75,0.35,0.0168,0.4,5.503,20.036,5.503,6.581,1,269.96,0,0,1,-9.97,0,0,0,269.96,0.8089,-0.0007,0.5879,0,269.96,0.27,-59.69,11.339,-0.04,32.167,1,3,666.81,-17.827,0,668.54,0,0,0,,0,0,0,0,0,0,0,0,0,0,0,0,0,270.06,0,0,0,0,0,0,0,0,0,0,0,0,0,3,3,0,0,VALID,0,0,0,0,0,1,0,0,0,0,0,0,0,0,0,0,0,0,0,0,109.46,1111.78,2,0,0.175,0.175,15,5.71,0.175,0.175,2.77,FLYING,X10-F,0:/Integrated Flight Computer/aircraft/x10_f_cfg.ks (inferred preloaded)
3.12,APPROACH,ILS_TRACK,159.11,152,-7.11,597.76,524.99,-29.38,-0.58,9.87,270.03,-0.064,0,0,0,1,0.6,4.5,0.75,0.35,0.0168,0.4,5.994,19.898,5.994,7.073,1,269.96,0,0,1,-10.41,0,0,0,269.96,0.809,-0.0007,0.5879,0,269.96,0.31,-65.93,11.281,-0.039,34.015,1,3,666.81,-17.796,0,665.53,0,0,0,,0,0,0,0,0,0,0,0,0,0,0,0,0,270.06,0,0,0,0,0,0,0,0,0,0,0,0,0,3,3,0,0,VALID,0,0,0,0,0,1,0,0,0,0,0,0,0,0,0,0,0,0,0,0,97.03,1114.67,2,0,0.175,0.175,17,5.71,0.175,0.175,3.12,FLYING,X10-F,0:/Integrated Flight Computer/aircraft/x10_f_cfg.ks (inferred preloaded)
3.47,APPROACH,ILS_TRACK,159.26,152,-7.26,588.68,514.59,-29.26,3.56,14.1,270.01,-0.101,0,0,0,1,0.6,4.5,0.75,0.35,0.0168,0.4,6.185,19.843,6.185,7.267,1,269.96,0,0,1,-10.48,0,0,0,269.96,0.809,-0.0007,0.5878,0,269.96,0.35,-72.02,11.224,-0.04,35.415,1,3,666.81,-17.259,0,662.51,0,0,0,,0,0,0,0,0,0,0,0,0,0,0,0,0,270.06,0,0,0,0,0,0,0,0,0,0,0,0,0,3,3,0,0,VALID,0,0,0,0,0,1,0,0,0,0,0,0,0,0,0,0,0,0,0,0,85.91,1116.2,2,0,0.175,0.175,19,5.71,0.175,0.175,3.47,FLYING,X10-F,0:/Integrated Flight Computer/aircraft/x10_f_cfg.ks (inferred preloaded)
3.82,APPROACH,ILS_TRACK,158.85,152,-6.85,579.62,504.53,-27.83,7.06,17.01,270,-0.118,0,0,0,1,0.6,4.5,0.75,0.35,0.0168,0.4,5.841,19.941,5.841,6.919,1,269.96,0,0,1,-10.04,0,0,0,269.96,0.8091,-0.0007,0.5877,0,269.96,0.39,-78.08,11.166,-0.041,37.266,1,3,666.81,-17.304,0,659.5,0,0,0,,0,0,0,0,0,0,0,0,0,0,0,0,0,270.06,0,0,0,0,0,0,0,0,0,0,0,0,0,3,3,0,0,VALID,0,0,0,0,0,1,0,0,0,0,0,0,0,0,0,0,0,0,0,0,75.9,1115.24,2,0,0.175,0.175,21,5.71,0.175,0.175,3.82,FLYING,X10-F,0:/Integrated Flight Computer/aircraft/x10_f_cfg.ks (inferred preloaded)
4.17,APPROACH,ILS_TRACK,157.91,152,-5.91,570.8,495.06,-26.25,9.3,18.7,269.99,-0.127,0,0,0,1,0.6,4.5,0.75,0.35,0.0168,0.4,4.936,20.194,4.936,6.022,1,269.96,0,0,1,-9.53,0,0,0,269.96,0.8091,-0.0006,0.5876,0,269.96,0.42,-83.97,11.109,-0.037,38.462,1,3,666.81,-16.587,0,656.5,0,0,0,,0,0,0,0,0,0,0,0,0,0,0,0,0,270.06,0,0,0,0,0,0,0,0,0,0,0,0,0,3,3,0,0,VALID,0,0,0,0,0,1,0,0,0,0,0,0,0,0,0,0,0,0,0,0,66.91,1111.95,2,0,0.175,0.175,23,5.71,0.175,0.175,4.17,FLYING,X10-F,0:/Integrated Flight Computer/aircraft/x10_f_cfg.ks (inferred preloaded)
4.52,APPROACH,ILS_TRACK,156.67,152,-4.67,562.4,486.14,-24.63,11.13,20,269.98,-0.142,0.14,0,-1.797,1,0.6,4.5,0.75,0.35,0.0168,0.4,0,20.536,0,4.808,0,269.96,0,0,1,-9.06,0,0,0,269.96,0.8092,-0.0007,0.5876,0,269.96,0.45,-89.47,11.052,-0.038,39.192,1,3,666.81,-15.437,0,653.52,0,0,0,,0,0,0,0,0,0,0,0,0,0,0,0,0,270.06,0,0,0,0,0,0,0,0,0,0,0,0,0,3,3,0,0,VALID,0,0,0,0,0,1,0,0,0,0,0,0,0,0,0,0,0,0,0,0,62.32,1107.27,2,0,0.175,0.175,25,5.71,0.175,0.175,4.52,FLYING,X10-F,0:/Integrated Flight Computer/aircraft/x10_f_cfg.ks (inferred preloaded)
4.87,APPROACH,ILS_TRACK,155.12,152,-3.12,554.29,477.89,-22.68,11.88,20,269.97,-0.134,0.28,0,-3.081,1,0.6,4.5,0.75,0.35,0.0168,0.4,0,20.968,0,3.275,0,269.97,0,0,1,-8.45,0,0,0,269.96,0.8092,-0.0006,0.5875,0,269.97,0.47,-94.68,10.996,-0.032,40.157,1,3,666.81,-14.689,0,650.57,0,0,0,,0,0,0,0,0,0,0,0,0,0,0,0,0,270.06,0,0,0,0,0,0,0,0,0,0,0,0,0,3,3,0,0,VALID,0,0,0,0,0,1,0,0,0,0,0,0,0,0,0,0,0,0,0,0,69.88,1101.26,2,0,0.175,0.175,27,5.71,0.175,0.175,4.87,FLYING,X10-F,0:/Integrated Flight Computer/aircraft/x10_f_cfg.ks (inferred preloaded)
5.22,APPROACH,ILS_TRACK,153.55,152,-1.55,546.48,470.34,-20.88,11.25,18.67,269.98,-0.116,0.42,0,-3.812,1,0.6,4.5,0.75,0.35,0.0168,0.4,0,21.412,0,1.698,0,269.97,0,0,1,-7.83,0,0,0,269.97,0.8093,-0.0005,0.5874,0,269.97,0.48,-99.63,10.94,-0.031,40.997,1,3,666.81,-13.887,0,647.64,0,0,0,,0,0,0,0,0,0,0,0,0,0,0,0,0,270.06,0,0,0,0,0,0,0,0,0,0,0,0,0,3,3,0,0,VALID,0,0,0,0,0,1,0,0,0,0,0,0,0,0,0,0,0,0,0,0,87.21,1095.16,2,0,0.175,0.175,29,5.71,0.175,0.175,5.22,FLYING,X10-F,0:/Integrated Flight Computer/aircraft/x10_f_cfg.ks (inferred preloaded)
5.57,APPROACH,ILS_TRACK,152.28,152,-0.28,539.01,463.26,-19.89,10,17.07,269.98,-0.106,0.56,0,-4.056,1,0.6,4.5,0.75,0.35,0.0168,0.4,0,21.78,0,0.395,0,269.97,0,0,1,-7.49,0,0,0,269.97,0.8093,-0.0005,0.5873,0,269.97,0.5,-104.25,10.885,-0.03,41.687,1,3,666.81,-13.014,0,644.74,0,0,0,,0,0,0,0,0,0,0,0,0,0,0,0,0,270.06,0,0,0,0,0,0,0,0,0,0,0,0,0,3,3,0,0,VALID,0,0,0,0,0,1,0,0,0,0,0,0,0,0,0,0,0,0,0,0,113.61,1090.33,2,0,0.175,0.175,31,5.71,0.175,0.175,5.57,FLYING,X10-F,0:/Integrated Flight Computer/aircraft/x10_f_cfg.ks (inferred preloaded)
5.92,APPROACH,ILS_TRACK,151.31,152,0.69,531.82,456.44,-19.33,8.75,15.66,269.98,-0.096,0.7,0,-4.016,1,0.6,4.5,0.75,0.35,0.0168,0.4,0,22.061,0,-0.605,0,269.97,0,0,1,-7.3,0,0,0,269.97,0.8094,-0.0005,0.5873,0,269.97,0.51,-108.61,10.83,-0.029,42.398,1,3,666.81,-12.268,0,641.85,0,0,0,,0,0,0,0,0,0,0,0,0,0,0,0,0,270.06,0,0,0,0,0,0,0,0,0,0,0,0,0,3,3,0,0,VALID,0,0,0,0,0,1,0,0,0,0,0,0,0,0,0,0,0,0,0,0,148.45,1086.76,2,0,0.175,0.175,33,5.71,0.175,0.175,5.92,FLYING,X10-F,0:/Integrated Flight Computer/aircraft/x10_f_cfg.ks (inferred preloaded)
6.27,APPROACH,ILS_TRACK,150.63,152,1.37,524.86,449.75,-19.04,7.78,14.65,269.98,-0.088,0.84,0,-3.976,1,0.6,4.5,0.75,0.35,0.0168,0.4,0,22.261,0,-1.312,0,269.98,0,0,1,-7.21,0,0,0,269.97,0.8095,-0.0004,0.5872,0,269.98,0.51,-112.74,10.775,-0.024,43.132,1,3,666.81,-11.639,0,638.97,0,0,0,,0,0,0,0,0,0,0,0,0,0,0,0,0,270.06,0,0,0,0,0,0,0,0,0,0,0,0,0,3,3,0,0,VALID,0,0,0,0,0,1,0,0,0,0,0,0,0,0,0,0,0,0,0,0,191.18,1084.43,2,0,0.175,0.175,35,5.71,0.175,0.175,6.27,FLYING,X10-F,0:/Integrated Flight Computer/aircraft/x10_f_cfg.ks (inferred preloaded)
6.62,APPROACH,ILS_TRACK,150.21,152,1.79,518.1,443.13,-18.9,7.26,14.13,269.98,-0.084,0.8492,0,-3.394,1,0.6,4.5,0.75,0.35,0.0168,0.4,0,22.386,0,-1.758,0,269.98,0,0,1,-7.18,0,0,0,269.97,0.8095,-0.0004,0.5871,0,269.98,0.52,-116.67,10.72,-0.022,43.875,1,3,666.81,-11.094,0,636.1,0,0,0,,0,0,0,0,0,0,0,0,0,0,0,0,0,270.06,0,0,0,0,0,0,0,0,0,0,0,0,0,3,3,0,0,VALID,0,0,0,0,0,1,0,0,0,0,0,0,0,0,0,0,0,0,0,0,241.32,1083.19,2,0,0.175,0.175,37,5.71,0.175,0.175,6.62,FLYING,X10-F,0:/Integrated Flight Computer/aircraft/x10_f_cfg.ks (inferred preloaded)
6.97,APPROACH,ILS_TRACK,150,152,2,511.53,436.53,-18.79,7.24,14.14,269.98,-0.085,0.7092,0,-2.714,1,0.6,4.5,0.75,0.35,0.0168,0.4,0,22.451,0,-1.989,0,269.98,0,0,1,-7.15,0,0,0,269.98,0.8096,-0.0004,0.587,0,269.98,0.52,-120.41,10.665,-0.023,44.579,1,3,666.81,-10.569,0,633.24,0,0,0,,0,0,0,0,0,0,0,0,0,0,0,0,0,270.06,0,0,0,0,0,0,0,0,0,0,0,0,0,3,3,0,0,VALID,0,0,0,0,0,1,0,0,0,0,0,0,0,0,0,0,0,0,0,0,285.57,1082.83,2,0,0.175,0.175,39,5.71,0.175,0.175,6.97,FLYING,X10-F,0:/Integrated Flight Computer/aircraft/x10_f_cfg.ks (inferred preloaded)
7.32,APPROACH,ILS_TRACK,149.91,152,2.09,505.16,429.98,-18.58,7.73,14.6,269.98,-0.084,0.5692,0,-1.991,1,0.6,4.5,0.75,0.35,0.0168,0.4,0,22.478,0,-2.083,0,269.98,0,0,1,-7.08,0,0,0,269.98,0.8096,-0.0004,0.587,0,269.98,0.52,-123.96,10.611,-0.022,45.195,1,3,666.81,-10.008,0,630.38,0,0,0,,0,0,0,0,0,0,0,0,0,0,0,0,0,270.06,0,0,0,0,0,0,0,0,0,0,0,0,0,3,3,0,0,VALID,0,0,0,0,0,1,0,0,0,0,0,0,0,0,0,0,0,0,0,0,316.73,1083.01,2,0,0.175,0.175,41,5.71,0.175,0.175,7.32,FLYING,X10-F,0:/Integrated Flight Computer/aircraft/x10_f_cfg.ks (inferred preloaded)
7.67,APPROACH,ILS_TRACK,149.84,152,2.16,499.01,423.53,-18.17,8.62,15.39,269.98,-0.084,0.4292,0,-1.246,1,0.6,4.5,0.75,0.35,0.0168,0.4,0,22.496,0,-2.148,0,269.98,0,0,1,-6.95,0,0,0,269.98,0.8097,-0.0004,0.5869,0,269.98,0.52,-127.31,10.556,-0.022,45.705,1,3,666.81,-9.391,0,627.53,0,0,0,,0,0,0,0,0,0,0,0,0,0,0,0,0,270.06,0,0,0,0,0,0,0,0,0,0,0,0,0,3,3,0,0,VALID,0,0,0,0,0,1,0,0,0,0,0,0,0,0,0,0,0,0,0,0,335.54,1083.26,2,0,0.175,0.175,43,5.71,0.175,0.175,7.67,FLYING,X10-F,0:/Integrated Flight Computer/aircraft/x10_f_cfg.ks (inferred preloaded)
8.02,APPROACH,ILS_TRACK,149.7,152,2.3,493.08,417.26,-17.55,9.73,16.3,269.97,-0.077,0.3823,0,-0.461,1,0.6,4.5,0.75,0.35,0.0168,0.4,0,22.534,0,-2.281,0,269.98,0,0,1,-6.74,0,0,0,269.98,0.8097,-0.0004,0.5868,0,269.98,0.52,-130.42,10.502,-0.021,46.112,1,3,666.81,-8.732,0,624.67,0,0,0,,0,0,0,0,0,0,0,0,0,0,0,0,0,270.06,0,0,0,0,0,0,0,0,0,0,0,0,0,3,3,0,0,VALID,0,0,0,0,0,1,0,0,0,0,0,0,0,0,0,0,0,0,0,0,343.55,1083.18,2,0,0.175,0.175,45,5.71,0.175,0.175,8.02,FLYING,X10-F,0:/Integrated Flight Computer/aircraft/x10_f_cfg.ks (inferred preloaded)
8.37,APPROACH,ILS_TRACK,149.43,152,2.57,487.43,411.25,-16.69,10.91,17.21,269.97,-0.065,0.4238,0,0.401,1,0.6,4.5,0.75,0.35,0.0168,0.4,0,22.605,0,-2.534,0,269.98,0,0,1,-6.45,0,0,0,269.98,0.8098,-0.0003,0.5867,0,269.98,0.52,-133.28,10.447,-0.016,46.348,1,3,666.81,-7.956,0,621.82,0,0,0,,0,0,0,0,0,0,0,0,0,0,0,0,0,270.06,0,0,0,0,0,0,0,0,0,0,0,0,0,3,3,0,0,VALID,0,0,0,0,0,1,0,0,0,0,0,0,0,0,0,0,0,0,0,0,348.59,1082.58,2,0,0.175,0.175,47,5.71,0.175,0.175,8.37,FLYING,X10-F,0:/Integrated Flight Computer/aircraft/x10_f_cfg.ks (inferred preloaded)
8.72,APPROACH,ILS_TRACK,149.04,152,2.96,481.97,405.66,-15.42,11.58,17.31,269.97,-0.057,0.5193,0,1.385,1,0.6,4.5,0.75,0.35,0.0168,0.4,0,22.713,0,-2.915,0,269.98,0,0,1,-5.99,0,0,0,269.98,0.8098,-0.0003,0.5867,0,269.98,0.51,-135.92,10.393,-0.017,46.76,1,3,666.81,-7.479,0,618.97,0,0,0,,0,0,0,0,0,0,0,0,0,0,0,0,0,270.06,0,0,0,0,0,0,0,0,0,0,0,0,0,3,3,0,0,VALID,0,0,0,0,0,1,0,0,0,0,0,0,0,0,0,0,0,0,0,0,356.76,1081.41,2,0,0.175,0.175,49,5.71,0.175,0.175,8.72,FLYING,X10-F,0:/Integrated Flight Computer/aircraft/x10_f_cfg.ks (inferred preloaded)
9.07,APPROACH,ILS_TRACK,148.66,152,3.34,476.73,400.44,-14.52,11.52,16.9,269.98,-0.049,0.6017,0,2.511,1,0.6,4.5,0.75,0.35,0.0168,0.4,0,22.824,0,-3.31,0,269.99,0,0,1,-5.64,0,0,0,269.99,0.8099,-0.0003,0.5866,0,269.99,0.5,-138.38,10.339,-0.015,46.986,1,3,666.81,-6.84,0,616.13,0,0,0,,0,0,0,0,0,0,0,0,0,0,0,0,0,270.06,0,0,0,0,0,0,0,0,0,0,0,0,0,3,3,0,0,VALID,0,0,0,0,0,1,0,0,0,0,0,0,0,0,0,0,0,0,0,0,371.34,1080.24,2,0,0.175,0.175,51,5.71,0.175,0.175,9.07,FLYING,X10-F,0:/Integrated Flight Computer/aircraft/x10_f_cfg.ks (inferred preloaded)
9.42,APPROACH,ILS_TRACK,148.37,152,3.63,471.78,395.5,-13.78,11.44,16.56,269.98,-0.044,0.6306,0,3.749,1,0.6,4.5,0.75,0.35,0.0168,0.4,0,22.907,0,-3.605,0,269.99,0,0,1,-5.36,0,0,0,269.99,0.8099,-0.0002,0.5865,0,269.99,0.49,-140.56,10.285,-0.013,46.973,1,3,666.81,-6.008,0,613.3,0,0,0,,0,0,0,0,0,0,0,0,0,0,0,0,0,270.06,0,0,0,0,0,0,0,0,0,0,0,0,0,3,3,0,0,VALID,0,0,0,0,0,1,0,0,0,0,0,0,0,0,0,0,0,0,0,0,390.31,1079.46,2,0,0.175,0.175,53,5.71,0.175,0.175,9.42,FLYING,X10-F,0:/Integrated Flight Computer/aircraft/x10_f_cfg.ks (inferred preloaded)
9.77,APPROACH,ILS_TRACK,148.18,152,3.82,467.12,390.81,-13.11,11.54,16.44,269.98,-0.037,0.623,0,5.065,1,0.6,4.5,0.75,0.35,0.0168,0.4,0,22.962,0,-3.802,0,269.99,0,0,1,-5.1,0,0,0,269.99,0.81,-0.0002,0.5864,0,269.99,0.48,-142.44,10.231,-0.013,46.857,1,3,666.81,-5.158,0,610.47,0,0,0,,0,0,0,0,0,0,0,0,0,0,0,0,0,270.06,0,0,0,0,0,0,0,0,0,0,0,0,0,3,3,0,0,VALID,0,0,0,0,0,1,0,0,0,0,0,0,0,0,0,0,0,0,0,0,409.77,1079.07,2,0,0.175,0.175,55,5.71,0.175,0.175,9.77,FLYING,X10-F,0:/Integrated Flight Computer/aircraft/x10_f_cfg.ks (inferred preloaded)
10.12,APPROACH,ILS_TRACK,148.07,152,3.93,462.78,386.35,-12.44,11.88,16.56,269.98,-0.029,0.5998,0,6.429,1,0.6,4.5,0.75,0.35,0.0168,0.4,0,22.997,0,-3.924,0,269.99,0,0,1,-4.85,0,0,0,269.99,0.81,-0.0002,0.5864,0,269.99,0.47,-144.02,10.177,-0.012,46.643,1,3,666.81,-4.297,0,607.64,0,0,0,,0,0,0,0,0,0,0,0,0,0,0,0,0,270.06,0,0,0,0,0,0,0,0,0,0,0,0,0,3,3,0,0,VALID,0,0,0,0,0,1,0,0,0,0,0,0,0,0,0,0,0,0,0,0,427.25,1078.96,2,0,0.175,0.175,57,5.71,0.175,0.175,10.12,FLYING,X10-F,0:/Integrated Flight Computer/aircraft/x10_f_cfg.ks (inferred preloaded)
10.47,APPROACH,ILS_TRACK,147.98,152,4.02,458.74,382.12,-11.71,12.46,16.9,269.98,-0.023,0.5818,0,7.825,1,0.6,4.5,0.75,0.35,0.0168,0.4,0,23.021,0,-4.01,0,269.99,0,0,1,-4.58,0,0,0,269.99,0.8101,-0.0002,0.5863,0,269.99,0.46,-145.29,10.123,-0.01,46.308,1,3,666.81,-3.403,0,604.81,0,0,0,,0,0,0,0,0,0,0,0,0,0,0,0,0,270.06,0,0,0,0,0,0,0,0,0,0,0,0,0,3,3,0,0,VALID,0,0,0,0,0,1,0,0,0,0,0,0,0,0,0,0,0,0,0,0,441.93,1078.97,2,0,0.175,0.175,59,5.71,0.175,0.175,10.47,FLYING,X10-F,0:/Integrated Flight Computer/aircraft/x10_f_cfg.ks (inferred preloaded)
10.82,APPROACH,ILS_TRACK,147.89,152,4.11,455.04,378.16,-10.89,13.28,17.44,269.98,-0.016,0.5851,0,9.252,1,0.6,4.5,0.75,0.35,0.0168,0.4,0,23.047,0,-4.103,0,269.99,0,0,1,-4.28,0,0,0,269.99,0.8101,-0.0001,0.5862,0,269.99,0.45,-146.23,10.069,-0.009,45.825,1,3,666.81,-2.446,0,601.98,0,0,0,,0,0,0,0,0,0,0,0,0,0,0,0,0,270.06,0,0,0,0,0,0,0,0,0,0,0,0,0,3,3,0,0,VALID,0,0,0,0,0,1,0,0,0,0,0,0,0,0,0,0,0,0,0,0,454.51,1078.91,2,0,0.175,0.175,61,5.71,0.175,0.175,10.82,FLYING,X10-F,0:/Integrated Flight Computer/aircraft/x10_f_cfg.ks (inferred preloaded)
11.17,APPROACH,ILS_TRACK,147.74,152,4.26,451.64,374.56,-9.78,14.02,17.75,269.98,-0.01,0.6201,0,10.724,1,0.6,4.5,0.75,0.35,0.0168,0.4,0,23.087,0,-4.245,0,269.99,0,0,1,-3.86,0,0,0,269.99,0.8102,-0.0001,0.5862,0,269.99,0.43,-146.86,10.015,-0.008,45.353,1,3,666.81,-1.62,0,599.16,0,0,0,,0,0,0,0,0,0,0,0,0,0,0,0,0,270.06,0,0,0,0,0,0,0,0,0,0,0,0,0,3,3,0,0,VALID,0,0,0,0,0,1,0,0,0,0,0,0,0,0,0,0,0,0,0,0,466.75,1078.61,2,0,0.175,0.175,63,5.71,0.175,0.175,11.17,FLYING,X10-F,0:/Integrated Flight Computer/aircraft/x10_f_cfg.ks (inferred preloaded)
11.52,APPROACH,ILS_TRACK,147.57,152,4.43,448.55,371.35,-8.57,14.52,17.77,269.98,-0.002,0.6663,0,12.253,1,0.6,4.5,0.75,0.35,0.0168,0.4,0,23.134,0,-4.412,0,269.99,0,0,1,-3.42,0,0,0,269.99,0.8102,-0.0001,0.5861,0,269.99,0.42,-147.18,9.961,-0.007,44.72,1,3,666.81,-0.707,0,596.33,0,0,0,,0,0,0,0,0,0,0,0,0,0,0,0,0,270.06,0,0,0,0,0,0,0,0,0,0,0,0,0,3,3,0,0,VALID,0,0,0,0,0,1,0,0,0,0,0,0,0,0,0,0,0,0,0,0,480.81,1078.18,2,0,0.175,0.175,65,5.71,0.175,0.175,11.52,FLYING,X10-F,0:/Integrated Flight Computer/aircraft/x10_f_cfg.ks (inferred preloaded)
11.87,APPROACH,ILS_TRACK,147.42,152,4.58,445.73,368.56,-7.54,14.48,17.31,269.99,0.004,0.7043,0,13.84,1,0.6,4.5,0.75,0.35,0.0168,0.4,0,23.178,0,-4.567,0,269.99,0,0,1,-3,0,0,0,269.99,0.8103,-0.0001,0.586,0,269.99,0.41,-147.24,9.907,-0.008,44.142,1,3,666.81,0.038,0,593.51,0,0,0,,0,0,0,0,0,0,0,0,0,0,0,0,0,270.06,0,0,0,0,0,0,0,0,0,0,0,0,0,3,3,0,0,VALID,0,0,0,0,0,1,0,0,0,0,0,0,0,0,0,0,0,0,0,0,497.3,1077.81,2,0,0.175,0.175,67,5.71,0.175,0.175,11.87,FLYING,X10-F,0:/Integrated Flight Computer/aircraft/x10_f_cfg.ks (inferred preloaded)
12.22,APPROACH,ILS_TRACK,147.39,152,4.61,443.2,366.1,-6.62,14.27,16.73,269.99,0.005,0.695,0,15.453,1,0.6,4.5,0.75,0.35,0.0168,0.4,0,23.191,0,-4.612,0,269.99,0,0,1,-2.64,0,0,0,269.99,0.8104,-0.0001,0.5859,0,269.99,0.39,-147.01,9.854,-0.005,43.385,1,3,666.81,0.895,0,590.69,0,0,0,,0,0,0,0,0,0,0,0,0,0,0,0,0,270.06,0,0,0,0,0,0,0,0,0,0,0,0,0,3,3,0,0,VALID,0,0,0,0,0,1,0,0,0,0,0,0,0,0,0,0,0,0,0,0,514.98,1077.88,2,0,0.175,0.175,69,5.71,0.175,0.175,12.22,FLYING,X10-F,0:/Integrated Flight Computer/aircraft/x10_f_cfg.ks (inferred preloaded)
12.57,APPROACH,ILS_TRACK,147.47,152,4.53,440.94,363.97,-5.76,13.88,15.99,269.99,0.006,0.6496,0,17.051,1,0.6,4.5,0.75,0.35,0.0168,0.4,0,23.171,0,-4.541,0,269.99,0,0,1,-2.29,0,0,0,269.99,0.8104,-0.0001,0.5859,0,269.99,0.38,-146.5,9.8,-0.006,42.656,1,3,666.81,1.616,0,587.87,0,0,0,,0,0,0,0,0,0,0,0,0,0,0,0,0,270.06,0,0,0,0,0,0,0,0,0,0,0,0,0,3,3,0,0,VALID,0,0,0,0,0,1,0,0,0,0,0,0,0,0,0,0,0,0,0,0,530.59,1078.39,2,0,0.175,0.175,71,5.71,0.175,0.175,12.57,FLYING,X10-F,0:/Integrated Flight Computer/aircraft/x10_f_cfg.ks (inferred preloaded)
12.92,APPROACH,ILS_TRACK,147.69,152,4.31,438.92,362.08,-5.12,13.42,15.3,269.99,0.009,0.5694,0,18.589,1,0.6,4.5,0.75,0.35,0.0168,0.4,0,23.113,0,-4.336,0,269.99,0,0,1,-2.03,0,0,0,270,0.8105,-0.0001,0.5858,0,269.99,0.37,-145.73,9.746,-0.007,41.83,1,3,666.81,2.363,0,585.04,0,0,0,,0,0,0,0,0,0,0,0,0,0,0,0,0,270.06,0,0,0,0,0,0,0,0,0,0,0,0,0,3,3,0,0,VALID,0,0,0,0,0,1,0,0,0,0,0,0,0,0,0,0,0,0,0,0,541.73,1079.45,2,0,0.175,0.175,73,5.71,0.175,0.175,12.92,FLYING,X10-F,0:/Integrated Flight Computer/aircraft/x10_f_cfg.ks (inferred preloaded)
13.27,APPROACH,ILS_TRACK,148.02,152,3.98,437.14,360.39,-4.62,13.08,14.78,269.99,0.01,0.472,0,20,1,0.6,4.5,0.75,0.35,0.0168,0.4,0,23.023,0,-4.017,0,269.99,0,0,1,-1.82,0,0,0,269.99,0.8105,-0.0001,0.5857,0,269.99,0.36,-144.73,9.692,-0.006,40.987,1,3,666.81,3.041,0,582.21,0,0,0,,0,0,0,0,0,0,0,0,0,0,0,0,0,270.06,0,0,0,0,0,0,0,0,0,0,0,0,0,3,3,0,0,VALID,0,0,0,0,0,1,0,0,0,0,0,0,0,0,0,0,0,0,0,0,546.29,1080.94,2,0,0.175,0.175,75,5.71,0.175,0.175,13.27,FLYING,X10-F,0:/Integrated Flight Computer/aircraft/x10_f_cfg.ks (inferred preloaded)
13.62,APPROACH,ILS_TRACK,148.41,152,3.59,435.56,358.86,-4.22,12.87,14.44,269.99,0.012,0.3573,0,20,1,0.6,4.5,0.75,0.35,0.0168,0.4,0,22.914,0,-3.63,0,270,0,0,1,-1.65,0,0,0,269.99,0.8106,-0.0001,0.5856,0,270,0.34,-143.51,9.638,-0.005,40.148,1,3,666.81,3.632,0,579.37,0,0,0,,0,0,0,0,0,0,0,0,0,0,0,0,0,270.06,0,0,0,0,0,0,0,0,0,0,0,0,0,3,3,0,0,VALID,0,0,0,0,0,1,0,0,0,0,0,0,0,0,0,0,0,0,0,0,540.38,1082.69,2,0,0.175,0.175,77,5.71,0.175,0.175,13.62,FLYING,X10-F,0:/Integrated Flight Computer/aircraft/x10_f_cfg.ks (inferred preloaded)
13.97,APPROACH,ILS_TRACK,148.79,152,3.21,434.18,357.47,-3.67,12.93,14.28,269.99,0.012,0.2741,0,20,1,0.6,4.5,0.75,0.35,0.0168,0.4,0,22.804,0,-3.24,0,270,0,0,1,-1.46,0,0,0,269.99,0.8106,-0.0001,0.5856,0,270,0.33,-142.08,9.583,-0.004,39.242,1,3,666.81,4.226,0,576.52,0,0,0,,0,0,0,0,0,0,0,0,0,0,0,0,0,270.06,0,0,0,0,0,0,0,0,0,0,0,0,0,3,3,0,0,VALID,0,0,0,0,0,1,0,0,0,0,0,0,0,0,0,0,0,0,0,0,521.54,1084.4,2,0,0.175,0.175,79,5.71,0.175,0.175,13.97,FLYING,X10-F,0:/Integrated Flight Computer/aircraft/x10_f_cfg.ks (inferred preloaded)
14.32,APPROACH,ILS_TRACK,149.12,152,2.88,432.92,356.25,-3.32,12.77,14,269.99,0.012,0.237,0,20,1,0.6,4.5,0.75,0.35,0.0168,0.4,0,22.711,0,-2.911,0,269.99,0,0,1,-1.31,0,0,0,269.99,0.8107,-0.0001,0.5855,0,269.99,0.32,-140.51,9.529,-0.006,38.48,1,3,666.81,4.593,0,573.67,0,0,0,,0,0,0,0,0,0,0,0,0,0,0,0,0,270.06,0,0,0,0,0,0,0,0,0,0,0,0,0,3,3,0,0,VALID,0,0,0,0,0,1,0,0,0,0,0,0,0,0,0,0,0,0,0,0,495.47,1085.85,2,0,0.175,0.175,81,5.71,0.175,0.175,14.32,FLYING,X10-F,0:/Integrated Flight Computer/aircraft/x10_f_cfg.ks (inferred preloaded)
14.67,APPROACH,ILS_TRACK,149.38,152,2.62,431.81,355.15,-2.99,12.72,13.82,269.99,0.012,0.2327,0,20,1,0.6,4.5,0.75,0.35,0.0168,0.4,0,22.637,0,-2.646,0,269.99,0,0,1,-1.17,0,0,0,269.99,0.8107,-0.0001,0.5854,0,269.99,0.31,-138.8,9.474,-0.006,37.626,1,3,666.81,5.016,0,570.81,0,0,0,,0,0,0,0,0,0,0,0,0,0,0,0,0,270.06,0,0,0,0,0,0,0,0,0,0,0,0,0,3,3,0,0,VALID,0,0,0,0,0,1,0,0,0,0,0,0,0,0,0,0,0,0,0,0,468.18,1087.01,2,0,0.175,0.175,83,5.71,0.175,0.175,14.67,FLYING,X10-F,0:/Integrated Flight Computer/aircraft/x10_f_cfg.ks (inferred preloaded)
15.02,APPROACH,ILS_TRACK,149.54,152,2.46,430.81,354.17,-2.71,12.67,13.67,269.99,0.013,0.2613,0,20,1,0.6,4.5,0.75,0.35,0.0168,0.4,0,22.587,0,-2.469,0,269.99,0,0,1,-1.05,0,0,0,270,0.8108,-0.0001,0.5854,0,269.99,0.3,-136.96,9.42,-0.006,36.821,1,3,666.81,5.332,0,567.95,0,0,0,,0,0,0,0,0,0,0,0,0,0,0,0,0,270.06,0,0,0,0,0,0,0,0,0,0,0,0,0,3,3,0,0,VALID,0,0,0,0,0,1,0,0,0,0,0,0,0,0,0,0,0,0,0,0,444.09,1087.8,2,0,0.175,0.175,85,5.71,0.175,0.175,15.02,FLYING,X10-F,0:/Integrated Flight Computer/aircraft/x10_f_cfg.ks (inferred preloaded)
15.37,APPROACH,ILS_TRACK,149.63,152,2.37,429.92,353.28,-2.42,12.66,13.57,269.99,0.012,0.3095,0,20,1,0.6,4.5,0.75,0.35,0.0168,0.4,0,22.559,0,-2.372,0,269.99,0,0,1,-0.95,0,0,0,270,0.8108,-0.0001,0.5853,0,269.99,0.29,-135,9.365,-0.007,35.99,1,3,666.81,5.639,0,565.09,0,0,0,,0,0,0,0,0,0,0,0,0,0,0,0,0,270.06,0,0,0,0,0,0,0,0,0,0,0,0,0,3,3,0,0,VALID,0,0,0,0,0,1,0,0,0,0,0,0,0,0,0,0,0,0,0,0,426.71,1088.24,2,0,0.175,0.175,87,5.71,0.175,0.175,15.37,FLYING,X10-F,0:/Integrated Flight Computer/aircraft/x10_f_cfg.ks (inferred preloaded)
15.72,APPROACH,ILS_TRACK,149.67,152,2.33,429.11,352.48,-2.2,12.6,13.42,269.99,0.01,0.3631,0,20,1,0.6,4.5,0.75,0.35,0.0168,0.4,0,22.549,0,-2.335,0,270,0,0,1,-0.85,0,0,0,270,0.8109,-0.0001,0.5852,0,270,0.28,-132.97,9.31,-0.004,35.194,1,3,666.81,5.872,0,562.23,0,0,0,,0,0,0,0,0,0,0,0,0,0,0,0,0,270.06,0,0,0,0,0,0,0,0,0,0,0,0,0,3,3,0,0,VALID,0,0,0,0,0,1,0,0,0,0,0,0,0,0,0,0,0,0,0,0,417.5,1088.45,2,0,0.175,0.175,89,5.71,0.175,0.175,15.72,FLYING,X10-F,0:/Integrated Flight Computer/aircraft/x10_f_cfg.ks (inferred preloaded)
16.07,APPROACH,ILS_TRACK,149.68,152,2.32,428.38,351.76,-1.99,12.56,13.3,269.99,0.008,0.4076,0,20,1,0.6,4.5,0.75,0.35,0.0168,0.4,0,22.546,0,-2.323,0,270,0,0,1,-0.77,0,0,0,270,0.8109,-0.0001,0.5851,0,270,0.27,-130.85,9.256,-0.004,34.379,1,3,666.81,6.095,0,559.37,0,0,0,,0,0,0,0,0,0,0,0,0,0,0,0,0,270.06,0,0,0,0,0,0,0,0,0,0,0,0,0,3,3,0,0,VALID,0,0,0,0,0,1,0,0,0,0,0,0,0,0,0,0,0,0,0,0,415.78,1088.55,2,0,0.175,0.175,91,5.71,0.175,0.175,16.07,FLYING,X10-F,0:/Integrated Flight Computer/aircraft/x10_f_cfg.ks (inferred preloaded)
16.42,APPROACH,ILS_TRACK,149.69,152,2.31,427.71,351.12,-1.79,12.52,13.17,269.99,0.011,0.436,0,20,1,0.6,4.5,0.75,0.35,0.0168,0.4,0,22.543,0,-2.314,0,270,0,0,1,-0.69,0,0,0,270,0.811,-0.0001,0.5851,0,270,0.26,-128.66,9.201,-0.004,33.576,1,3,666.81,6.279,0,556.5,0,0,0,,0,0,0,0,0,0,0,0,0,0,0,0,0,270.06,0,0,0,0,0,0,0,0,0,0,0,0,0,3,3,0,0,VALID,0,0,0,0,0,1,0,0,0,0,0,0,0,0,0,0,0,0,0,0,418.05,1088.65,2,0,0.175,0.175,93,5.71,0.175,0.175,16.42,FLYING,X10-F,0:/Integrated Flight Computer/aircraft/x10_f_cfg.ks (inferred preloaded)
16.77,APPROACH,ILS_TRACK,149.71,152,2.29,427.13,350.52,-1.57,12.56,13.13,269.99,0.01,0.4486,0,20,1,0.6,4.5,0.75,0.35,0.0168,0.4,0,22.537,0,-2.291,0,270,0,0,1,-0.62,0,0,0,270,0.811,0,0.585,0,270,0.25,-126.4,9.147,-0.002,32.703,1,3,666.81,6.52,0,553.64,0,0,0,,0,0,0,0,0,0,0,0,0,0,0,0,0,270.06,0,0,0,0,0,0,0,0,0,0,0,0,0,3,3,0,0,VALID,0,0,0,0,0,1,0,0,0,0,0,0,0,0,0,0,0,0,0,0,422.09,1088.8,2,0,0.175,0.175,95,5.71,0.175,0.175,16.77,FLYING,X10-F,0:/Integrated Flight Computer/aircraft/x10_f_cfg.ks (inferred preloaded)
17.12,APPROACH,ILS_TRACK,149.76,152,2.24,426.58,350.01,-1.4,12.46,12.96,269.99,0.016,0.4478,0,20,1,0.6,4.5,0.75,0.35,0.0168,0.4,0,22.525,0,-2.25,0,270,0,0,1,-0.54,0,0,0,270,0.8111,0,0.5849,0,270,0.24,-124.09,9.092,-0.003,31.926,1,3,666.81,6.626,0,550.77,0,0,0,,0,0,0,0,0,0,0,0,0,0,0,0,0,270.06,0,0,0,0,0,0,0,0,0,0,0,0,0,3,3,0,0,VALID,0,0,0,0,0,1,0,0,0,0,0,0,0,0,0,0,0,0,0,0,426.69,1089.03,2,0,0.175,0.175,97,5.71,0.175,0.175,17.12,FLYING,X10-F,0:/Integrated Flight Computer/aircraft/x10_f_cfg.ks (inferred preloaded)
17.47,APPROACH,ILS_TRACK,149.83,152,2.17,426.09,349.54,-1.25,12.39,12.83,269.99,0.017,0.4333,0,20,1,0.6,4.5,0.75,0.35,0.0168,0.4,0,22.505,0,-2.178,0,270,0,0,1,-0.49,0,0,0,270,0.8112,0,0.5848,0,270,0.23,-121.72,9.037,-0.002,31.07,1,3,666.81,6.809,0,547.91,0,0,0,,0,0,0,0,0,0,0,0,0,0,0,0,0,270.06,0,0,0,0,0,0,0,0,0,0,0,0,0,3,3,0,0,VALID,0,0,0,0,0,1,0,0,0,0,0,0,0,0,0,0,0,0,0,0,430.79,1089.37,2,0,0.175,0.175,99,5.71,0.175,0.175,17.47,FLYING,X10-F,0:/Integrated Flight Computer/aircraft/x10_f_cfg.ks (inferred preloaded)
17.82,APPROACH,ILS_TRACK,149.93,152,2.07,425.64,349.12,-1.13,12.3,12.7,269.99,0.016,0.4111,0,20,1,0.6,4.5,0.75,0.35,0.0168,0.4,0,22.478,0,-2.081,0,270,0,0,1,-0.44,0,0,0,270,0.8112,0,0.5848,0,270,0.22,-119.31,8.982,-0.002,30.24,1,3,666.81,6.942,0,545.04,0,0,0,,0,0,0,0,0,0,0,0,0,0,0,0,0,270.06,0,0,0,0,0,0,0,0,0,0,0,0,0,3,3,0,0,VALID,0,0,0,0,0,1,0,0,0,0,0,0,0,0,0,0,0,0,0,0,433.51,1089.82,2,0,0.175,0.175,101,5.71,0.175,0.175,17.82,FLYING,X10-F,0:/Integrated Flight Computer/aircraft/x10_f_cfg.ks (inferred preloaded)
18.17,APPROACH,ILS_TRACK,150.05,152,1.95,425.24,348.74,-1.04,12.22,12.59,269.99,0.016,0.3851,0,20,1,0.6,4.5,0.75,0.35,0.0168,0.4,0,22.444,0,-1.962,0,270,0,0,1,-0.41,0,0,0,270,0.8113,0,0.5847,0,270,0.21,-116.86,8.928,-0.002,29.4,1,3,666.81,7.07,0,542.17,0,0,0,,0,0,0,0,0,0,0,0,0,0,0,0,0,270.06,0,0,0,0,0,0,0,0,0,0,0,0,0,3,3,0,0,VALID,0,0,0,0,0,1,0,0,0,0,0,0,0,0,0,0,0,0,0,0,434.3,1090.36,2,0,0.175,0.175,103,5.71,0.175,0.175,18.17,FLYING,X10-F,0:/Integrated Flight Computer/aircraft/x10_f_cfg.ks (inferred preloaded)
18.52,APPROACH,ILS_TRACK,150.18,152,1.82,424.87,348.38,-0.96,12.17,12.53,269.99,0.014,0.3604,0,20,1,0.6,4.5,0.75,0.35,0.0168,0.4,0,22.407,0,-1.831,0,270,0,0,1,-0.39,0,0,0,270,0.8113,0,0.5846,0,270,0.2,-114.36,8.873,-0.001,28.562,1,3,666.81,7.182,0,539.3,0,0,0,,0,0,0,0,0,0,0,0,0,0,0,0,0,270.06,0,0,0,0,0,0,0,0,0,0,0,0,0,3,3,0,0,VALID,0,0,0,0,0,1,0,0,0,0,0,0,0,0,0,0,0,0,0,0,432.35,1090.94,2,0,0.175,0.175,105,5.71,0.175,0.175,18.52,FLYING,X10-F,0:/Integrated Flight Computer/aircraft/x10_f_cfg.ks (inferred preloaded)
18.87,APPROACH,ILS_TRACK,150.31,152,1.69,424.53,348.05,-0.9,12.13,12.47,269.99,0.011,0.3419,0,20,1,0.6,4.5,0.75,0.35,0.0168,0.4,0,22.37,0,-1.701,0,270,0,0,1,-0.36,0,0,0,270,0.8114,0,0.5845,0,270,0.19,-111.83,8.818,-0.001,27.734,1,3,666.81,7.269,0,536.43,0,0,0,,0,0,0,0,0,0,0,0,0,0,0,0,0,270.06,0,0,0,0,0,0,0,0,0,0,0,0,0,3,3,0,0,VALID,0,0,0,0,0,1,0,0,0,0,0,0,0,0,0,0,0,0,0,0,427.64,1091.51,2,0,0.175,0.175,107,5.71,0.175,0.175,18.87,FLYING,X10-F,0:/Integrated Flight Computer/aircraft/x10_f_cfg.ks (inferred preloaded)
19.22,APPROACH,ILS_TRACK,150.43,152,1.57,424.22,347.75,-0.85,12.1,12.42,269.99,0.012,0.3322,0,20,1,0.6,4.5,0.75,0.35,0.0168,0.4,0,22.337,0,-1.583,0,270,0,0,1,-0.34,0,0,0,270,0.8114,0,0.5845,0,270,0.18,-109.27,8.763,0.002,26.911,1,3,666.81,7.338,0,533.55,0,0,0,,0,0,0,0,0,0,0,0,0,0,0,0,0,270.06,0,0,0,0,0,0,0,0,0,0,0,0,0,3,3,0,0,VALID,0,0,0,0,0,1,0,0,0,0,0,0,0,0,0,0,0,0,0,0,421.3,1092.02,2,0,0.175,0.175,109,5.71,0.175,0.175,19.22,FLYING,X10-F,0:/Integrated Flight Computer/aircraft/x10_f_cfg.ks (inferred preloaded)
19.57,APPROACH,ILS_TRACK,150.52,152,1.48,423.94,347.46,-0.78,12.11,12.4,269.99,0.012,0.3321,0,20,1,0.6,4.5,0.75,0.35,0.0168,0.4,0,22.31,0,-1.487,0,270,0,0,1,-0.31,0,0,0,270,0.8115,0,0.5844,0,270,0.17,-106.68,8.708,0.002,26.063,1,3,666.81,7.427,0,530.67,0,0,0,,0,0,0,0,0,0,0,0,0,0,0,0,0,270.06,0,0,0,0,0,0,0,0,0,0,0,0,0,3,3,0,0,VALID,0,0,0,0,0,1,0,0,0,0,0,0,0,0,0,0,0,0,0,0,414.65,1092.44,2,0,0.175,0.175,111,5.71,0.175,0.175,19.57,FLYING,X10-F,0:/Integrated Flight Computer/aircraft/x10_f_cfg.ks (inferred preloaded)
19.92,APPROACH,ILS_TRACK,150.59,152,1.41,423.67,347.2,-0.73,12.11,12.38,269.99,0.013,0.3399,0,20,1,0.6,4.5,0.75,0.35,0.0168,0.4,0,22.289,0,-1.414,0,270,0,0,1,-0.28,0,0,0,270,0.8115,0,0.5843,0,270,0.16,-104.07,8.653,0.002,25.24,1,3,666.81,7.477,0,527.79,0,0,0,,0,0,0,0,0,0,0,0,0,0,0,0,0,270.06,0,0,0,0,0,0,0,0,0,0,0,0,0,3,3,0,0,VALID,0,0,0,0,0,1,0,0,0,0,0,0,0,0,0,0,0,0,0,0,408.9,1092.76,2,0,0.175,0.175,113,5.71,0.175,0.175,19.92,FLYING,X10-F,0:/Integrated Flight Computer/aircraft/x10_f_cfg.ks (inferred preloaded)
20.27,APPROACH,ILS_TRACK,150.64,152,1.36,423.43,346.96,-0.68,12.11,12.35,269.99,0.011,0.352,0,20,1,0.6,4.5,0.75,0.35,0.0168,0.4,0,22.275,0,-1.362,0,270,0,0,1,-0.26,0,0,0,270,0.8116,0,0.5842,0,270,0.15,-101.44,8.598,0.002,24.406,1,3,666.81,7.532,0,524.91,0,0,0,,0,0,0,0,0,0,0,0,0,0,0,0,0,270.06,0,0,0,0,0,0,0,0,0,0,0,0,0,3,3,0,0,VALID,0,0,0,0,0,1,0,0,0,0,0,0,0,0,0,0,0,0,0,0,404.88,1092.99,2,0,0.175,0.175,115,5.71,0.175,0.175,20.27,FLYING,X10-F,0:/Integrated Flight Computer/aircraft/x10_f_cfg.ks (inferred preloaded)
20.62,APPROACH,ILS_TRACK,150.68,152,1.32,423.2,346.73,-0.64,12.1,12.33,269.99,0.012,0.3653,0,20,1,0.6,4.5,0.75,0.35,0.0168,0.4,0,22.265,0,-1.326,0,270,0,0,1,-0.24,0,0,0,270,0.8116,0,0.5842,0,270,0.14,-98.79,8.543,0.001,23.583,1,3,666.81,7.568,0,522.03,0,0,0,,0,0,0,0,0,0,0,0,0,0,0,0,0,270.06,0,0,0,0,0,0,0,0,0,0,0,0,0,3,3,0,0,VALID,0,0,0,0,0,1,0,0,0,0,0,0,0,0,0,0,0,0,0,0,402.89,1093.15,2,0,0.175,0.175,117,5.71,0.175,0.175,20.62,FLYING,X10-F,0:/Integrated Flight Computer/aircraft/x10_f_cfg.ks (inferred preloaded)
20.97,APPROACH,ILS_TRACK,150.7,152,1.3,422.98,346.52,-0.59,12.07,12.28,269.99,0.014,0.3761,0,20,1,0.6,4.5,0.75,0.35,0.0168,0.4,0,22.257,0,-1.298,0,270,0,0,1,-0.22,0,0,0,270,0.8117,0,0.5841,0,270,0.13,-96.13,8.488,0.003,22.765,1,3,666.81,7.593,0,519.15,0,0,0,,0,0,0,0,0,0,0,0,0,0,0,0,0,270.06,0,0,0,0,0,0,0,0,0,0,0,0,0,3,3,0,0,VALID,0,0,0,0,0,1,0,0,0,0,0,0,0,0,0,0,0,0,0,0,402.7,1093.28,2,0,0.175,0.175,119,5.71,0.175,0.175,20.97,FLYING,X10-F,0:/Integrated Flight Computer/aircraft/x10_f_cfg.ks (inferred preloaded)
21.32,APPROACH,ILS_TRACK,150.73,152,1.27,422.78,346.32,-0.54,12.09,12.29,269.99,0.014,0.3821,0,20,1,0.6,4.5,0.75,0.35,0.0168,0.4,0,22.249,0,-1.27,0,270,0,0,1,-0.22,0,0,0,270,0.8117,0.0001,0.584,0,270,0.12,-93.45,8.433,0.004,21.899,1,3,666.81,7.669,0,516.27,0,0,0,,0,0,0,0,0,0,0,0,0,0,0,0,0,270.06,0,0,0,0,0,0,0,0,0,0,0,0,0,3,3,0,0,VALID,0,0,0,0,0,1,0,0,0,0,0,0,0,0,0,0,0,0,0,0,403.4,1093.42,2,0,0.175,0.175,121,5.71,0.175,0.175,21.32,FLYING,X10-F,0:/Integrated Flight Computer/aircraft/x10_f_cfg.ks (inferred preloaded)
21.67,APPROACH,ILS_TRACK,150.77,152,1.23,422.6,346.13,-0.51,12.07,12.26,269.99,0.013,0.3836,0,20,1,0.6,4.5,0.75,0.35,0.0168,0.4,0,22.24,0,-1.237,0,270,0,0,1,-0.2,0,0,0,270,0.8118,0,0.5839,0,270,0.11,-90.76,8.378,0.003,21.068,1,3,666.81,7.699,0,513.39,0,0,0,,0,0,0,0,0,0,0,0,0,0,0,0,0,270.06,0,0,0,0,0,0,0,0,0,0,0,0,0,3,3,0,0,VALID,0,0,0,0,0,1,0,0,0,0,0,0,0,0,0,0,0,0,0,0,404.46,1093.57,2,0,0.175,0.175,123,5.71,0.175,0.175,21.67,FLYING,X10-F,0:/Integrated Flight Computer/aircraft/x10_f_cfg.ks (inferred preloaded)
22.02,APPROACH,ILS_TRACK,150.8,152,1.2,422.42,345.96,-0.48,12.06,12.24,269.99,0.013,0.3813,0,20,1,0.6,4.5,0.75,0.35,0.0168,0.4,0,22.229,0,-1.199,0,270,0,0,1,-0.18,0,0,0,270,0.8118,0.0001,0.5839,0,270,0.1,-88.05,8.323,0.003,20.22,1,3,666.81,7.744,0,510.51,0,0,0,,0,0,0,0,0,0,0,0,0,0,0,0,0,270.06,0,0,0,0,0,0,0,0,0,0,0,0,0,3,3,0,0,VALID,0,0,0,0,0,1,0,0,0,0,0,0,0,0,0,0,0,0,0,0,405.52,1093.75,2,0,0.175,0.175,125,5.71,0.175,0.175,22.02,FLYING,X10-F,0:/Integrated Flight Computer/aircraft/x10_f_cfg.ks (inferred preloaded)
22.37,APPROACH,ILS_TRACK,150.85,152,1.15,422.26,345.8,-0.44,12.06,12.21,269.99,0.009,0.3768,0,20,1,0.6,4.5,0.75,0.35,0.0168,0.4,0,22.217,0,-1.157,0,270.01,0,0,1,-0.17,0,0,0,270,0.8119,0.0001,0.5838,0,270.01,0.09,-85.33,8.268,0.005,19.381,1,3,666.81,7.774,0,507.62,0,0,0,,0,0,0,0,0,0,0,0,0,0,0,0,0,270.06,0,0,0,0,0,0,0,0,0,0,0,0,0,3,3,0,0,VALID,0,0,0,0,0,1,0,0,0,0,0,0,0,0,0,0,0,0,0,0,406.32,1093.94,2,0,0.175,0.175,127,5.71,0.175,0.175,22.37,FLYING,X10-F,0:/Integrated Flight Computer/aircraft/x10_f_cfg.ks (inferred preloaded)
22.72,APPROACH,ILS_TRACK,150.89,152,1.11,422.1,345.65,-0.41,12.05,12.19,269.99,0.009,0.3711,0,20,1,0.6,4.5,0.75,0.35,0.0168,0.4,0,22.204,0,-1.11,0,270.01,0,0,1,-0.16,0,0,0,270,0.812,0.0001,0.5837,0,270.01,0.08,-82.6,8.213,0.006,18.535,1,3,666.81,7.807,0,504.74,0,0,0,,0,0,0,0,0,0,0,0,0,0,0,0,0,270.06,0,0,0,0,0,0,0,0,0,0,0,0,0,3,3,0,0,VALID,0,0,0,0,0,1,0,0,0,0,0,0,0,0,0,0,0,0,0,0,406.73,1094.15,2,0,0.175,0.175,129,5.71,0.175,0.175,22.72,FLYING,X10-F,0:/Integrated Flight Computer/aircraft/x10_f_cfg.ks (inferred preloaded)
23.07,APPROACH,ILS_TRACK,150.94,152,1.06,421.96,345.51,-0.39,12.04,12.18,269.99,0.008,0.3654,0,20,1,0.6,4.5,0.75,0.35,0.0168,0.4,0,22.19,0,-1.061,0,270.01,0,0,1,-0.15,0,0,0,270,0.812,0.0001,0.5836,0,270.01,0.07,-79.86,8.158,0.006,17.688,1,3,666.81,7.838,0,501.85,0,0,0,,0,0,0,0,0,0,0,0,0,0,0,0,0,270.06,0,0,0,0,0,0,0,0,0,0,0,0,0,3,3,0,0,VALID,0,0,0,0,0,1,0,0,0,0,0,0,0,0,0,0,0,0,0,0,406.6,1094.37,2,0,0.175,0.175,131,5.71,0.175,0.175,23.07,FLYING,X10-F,0:/Integrated Flight Computer/aircraft/x10_f_cfg.ks (inferred preloaded)
23.42,APPROACH,ILS_TRACK,150.99,152,1.01,421.83,345.38,-0.36,12.04,12.17,269.99,0.006,0.3603,0,20,1,0.6,4.5,0.75,0.35,0.0168,0.4,0,22.176,0,-1.012,0,270.01,0,0,1,-0.14,0,0,0,270,0.8121,0.0001,0.5836,0,270.01,0.05,-77.11,8.103,0.006,16.836,1,3,666.81,7.872,0,498.97,0,0,0,,0,0,0,0,0,0,0,0,0,0,0,0,0,270.06,0,0,0,0,0,0,0,0,0,0,0,0,0,3,3,0,0,VALID,0,0,0,0,0,1,0,0,0,0,0,0,0,0,0,0,0,0,0,0,405.79,1094.59,2,0,0.175,0.175,133,5.71,0.175,0.175,23.42,FLYING,X10-F,0:/Integrated Flight Computer/aircraft/x10_f_cfg.ks (inferred preloaded)
23.77,APPROACH,ILS_TRACK,151.04,152,0.96,421.71,345.26,-0.34,12.03,12.16,269.99,0.008,0.357,0,20,1,0.6,4.5,0.75,0.35,0.0168,0.4,0,22.163,0,-0.965,0,270.01,0,0,1,-0.13,0,0,0,270.01,0.8121,0.0001,0.5835,0,270.01,0.04,-74.35,8.048,0.006,15.985,1,3,666.81,7.9,0,496.08,0,0,0,,0,0,0,0,0,0,0,0,0,0,0,0,0,270.06,0,0,0,0,0,0,0,0,0,0,0,0,0,3,3,0,0,VALID,0,0,0,0,0,1,0,0,0,0,0,0,0,0,0,0,0,0,0,0,404.47,1094.79,2,0,0.175,0.175,135,5.71,0.175,0.175,23.77,FLYING,X10-F,0:/Integrated Flight Computer/aircraft/x10_f_cfg.ks (inferred preloaded)
24.12,APPROACH,ILS_TRACK,151.08,152,0.92,421.59,345.15,-0.3,12.04,12.15,269.99,0.008,0.3562,0,20,1,0.6,4.5,0.75,0.35,0.0168,0.4,0,22.151,0,-0.924,0,270.01,0,0,1,-0.12,0,0,0,270.01,0.8122,0.0001,0.5834,0,270.01,0.03,-71.57,7.993,0.006,15.12,1,3,666.81,7.94,0,493.19,0,0,0,,0,0,0,0,0,0,0,0,0,0,0,0,0,270.06,0,0,0,0,0,0,0,0,0,0,0,0,0,3,3,0,0,VALID,0,0,0,0,0,1,0,0,0,0,0,0,0,0,0,0,0,0,0,0,402.94,1094.97,2,0,0.175,0.175,137,5.71,0.175,0.175,24.12,FLYING,X10-F,0:/Integrated Flight Computer/aircraft/x10_f_cfg.ks (inferred preloaded)
24.47,APPROACH,ILS_TRACK,151.11,152,0.89,421.49,345.04,-0.29,12.03,12.14,269.99,0.006,0.3571,0,20,1,0.6,4.5,0.75,0.35,0.0168,0.4,0,22.141,0,-0.889,0,270.01,0,0,1,-0.11,0,0,0,270.01,0.8122,0.0001,0.5833,0,270.01,0.02,-68.79,7.938,0.006,14.269,1,3,666.81,7.961,0,490.3,0,0,0,,0,0,0,0,0,0,0,0,0,0,0,0,0,270.06,0,0,0,0,0,0,0,0,0,0,0,0,0,3,3,0,0,VALID,0,0,0,0,0,1,0,0,0,0,0,0,0,0,0,0,0,0,0,0,401.51,1095.13,2,0,0.175,0.175,139,5.71,0.175,0.175,24.47,FLYING,X10-F,0:/Integrated Flight Computer/aircraft/x10_f_cfg.ks (inferred preloaded)
24.82,APPROACH,ILS_TRACK,151.14,152,0.86,421.39,344.94,-0.26,12.04,12.13,269.99,0.006,0.359,0,20,1,0.6,4.5,0.75,0.35,0.0168,0.4,0,22.133,0,-0.859,0,270.01,0,0,1,-0.1,0,0,0,270.01,0.8123,0.0001,0.5833,0,270.01,0.01,-66,7.883,0.007,13.416,1,3,666.81,7.98,0,487.41,0,0,0,,0,0,0,0,0,0,0,0,0,0,0,0,0,270.06,0,0,0,0,0,0,0,0,0,0,0,0,0,3,3,0,0,VALID,0,0,0,0,0,1,0,0,0,0,0,0,0,0,0,0,0,0,0,0,400.39,1095.26,2,0,0.175,0.175,141,5.71,0.175,0.175,24.82,FLYING,X10-F,0:/Integrated Flight Computer/aircraft/x10_f_cfg.ks (inferred preloaded)
25.17,APPROACH,ILS_TRACK,151.17,152,0.83,421.31,344.85,-0.24,12.04,12.13,269.99,0.003,0.3613,0,20,1,0.6,4.5,0.75,0.35,0.0168,0.4,0,22.126,0,-0.833,0,270.01,0,0,1,-0.1,0,0,0,270.01,0.8123,0.0002,0.5832,0,270.01,0,-63.2,7.828,0.009,12.557,1,3,666.81,8.004,0,484.52,0,0,0,,0,0,0,0,0,0,0,0,0,0,0,0,0,270.06,0,0,0,0,0,0,0,0,0,0,0,0,0,3,3,0,0,VALID,0,0,0,0,0,1,0,0,0,0,0,0,0,0,0,0,0,0,0,0,399.65,1095.37,2,0,0.175,0.175,143,5.71,0.175,0.175,25.17,FLYING,X10-F,0:/Integrated Flight Computer/aircraft/x10_f_cfg.ks (inferred preloaded)
25.52,APPROACH,ILS_TRACK,151.19,152,0.81,421.22,344.77,-0.22,12.04,12.12,269.99,0.005,0.3636,0,20,1,0.6,4.5,0.75,0.35,0.0168,0.4,0,22.119,0,-0.81,0,270.01,0,0,1,-0.09,0,0,0,270.01,0.8124,0.0002,0.5831,0,270.01,-0.01,-60.39,7.773,0.01,11.7,1,3,666.81,8.024,0,481.63,0,0,0,,0,0,0,0,0,0,0,0,0,0,0,0,0,270.06,0,0,0,0,0,0,0,0,0,0,0,0,0,3,3,0,0,VALID,0,0,0,0,0,1,0,0,0,0,0,0,0,0,0,0,0,0,0,0,399.28,1095.47,2,0,0.175,0.175,145,5.71,0.175,0.175,25.52,FLYING,X10-F,0:/Integrated Flight Computer/aircraft/x10_f_cfg.ks (inferred preloaded)
25.87,APPROACH,ILS_TRACK,151.21,152,0.79,421.15,344.7,-0.21,12.04,12.12,269.99,0.001,0.3651,0,20,1,0.6,4.5,0.75,0.35,0.0168,0.4,0,22.113,0,-0.79,0,270.01,0,0,1,-0.08,0,0,0,270.01,0.8124,0.0002,0.5831,0,270.01,-0.03,-57.58,7.717,0.009,10.836,1,3,666.81,8.048,0,478.74,0,0,0,,0,0,0,0,0,0,0,0,0,0,0,0,0,270.06,0,0,0,0,0,0,0,0,0,0,0,0,0,3,3,0,0,VALID,0,0,0,0,0,1,0,0,0,0,0,0,0,0,0,0,0,0,0,0,399.28,1095.57,2,0,0.175,0.175,147,5.71,0.175,0.175,25.87,FLYING,X10-F,0:/Integrated Flight Computer/aircraft/x10_f_cfg.ks (inferred preloaded)
26.22,APPROACH,ILS_TRACK,151.23,152,0.77,421.08,344.63,-0.18,12.04,12.1,269.99,0.003,0.3658,0,20,1,0.6,4.5,0.75,0.35,0.0168,0.4,0,22.108,0,-0.769,0,270.01,0,0,1,-0.07,0,0,0,270.01,0.8125,0.0002,0.583,0,270.01,-0.04,-54.76,7.662,0.011,9.973,1,3,666.81,8.068,0,475.85,0,0,0,,0,0,0,0,0,0,0,0,0,0,0,0,0,270.06,0,0,0,0,0,0,0,0,0,0,0,0,0,3,3,0,0,VALID,0,0,0,0,0,1,0,0,0,0,0,0,0,0,0,0,0,0,0,0,399.37,1095.66,2,0,0.175,0.175,149,5.71,0.175,0.175,26.22,FLYING,X10-F,0:/Integrated Flight Computer/aircraft/x10_f_cfg.ks (inferred preloaded)
26.57,APPROACH,ILS_TRACK,151.25,152,0.75,421.02,344.57,-0.16,12.04,12.1,269.99,0.002,0.3656,0,20,1,0.6,4.5,0.75,0.35,0.0168,0.4,0,22.102,0,-0.749,0,270.01,0,0,1,-0.06,0,0,0,270.01,0.8125,0.0002,0.5829,0,270.01,-0.05,-51.93,7.607,0.01,9.107,1,3,666.81,8.089,0,472.96,0,0,0,,0,0,0,0,0,0,0,0,0,0,0,0,0,270.06,0,0,0,0,0,0,0,0,0,0,0,0,0,3,3,0,0,VALID,0,0,0,0,0,1,0,0,0,0,0,0,0,0,0,0,0,0,0,0,399.5,1095.75,2,0,0.175,0.175,151,5.71,0.175,0.175,26.57,FLYING,X10-F,0:/Integrated Flight Computer/aircraft/x10_f_cfg.ks (inferred preloaded)
26.92,APPROACH,ILS_TRACK,151.27,152,0.73,420.97,344.52,-0.14,12.04,12.09,269.99,0.002,0.3646,0,20,1,0.6,4.5,0.75,0.35,0.0168,0.4,0,22.096,0,-0.727,0,270.01,0,0,1,-0.05,0,0,0,270.01,0.8126,0.0002,0.5828,0,270.01,-0.06,-49.09,7.552,0.012,8.238,1,3,666.81,8.111,0,470.07,0,0,0,,0,0,0,0,0,0,0,0,0,0,0,0,0,270.06,0,0,0,0,0,0,0,0,0,0,0,0,0,3,3,0,0,VALID,0,0,0,0,0,1,0,0,0,0,0,0,0,0,0,0,0,0,0,0,399.59,1095.84,2,0,0.175,0.175,153,5.71,0.175,0.175,26.92,FLYING,X10-F,0:/Integrated Flight Computer/aircraft/x10_f_cfg.ks (inferred preloaded)
27.27,APPROACH,ILS_TRACK,151.3,152,0.7,420.92,344.47,-0.12,12.04,12.08,269.99,0.003,0.3634,0,20,1,0.6,4.5,0.75,0.35,0.0168,0.4,0,22.09,0,-0.706,0,270.01,0,0,1,-0.05,0,0,0,270.01,0.8127,0.0002,0.5828,0,270.01,-0.08,-46.25,7.497,0.013,7.371,1,3,666.81,8.13,0,467.18,0,0,0,,0,0,0,0,0,0,0,0,0,0,0,0,0,270.06,0,0,0,0,0,0,0,0,0,0,0,0,0,3,3,0,0,VALID,0,0,0,0,0,1,0,0,0,0,0,0,0,0,0,0,0,0,0,0,399.58,1095.94,2,0,0.175,0.175,155,5.71,0.175,0.175,27.27,FLYING,X10-F,0:/Integrated Flight Computer/aircraft/x10_f_cfg.ks (inferred preloaded)
27.62,APPROACH,ILS_TRACK,151.32,152,0.68,420.88,344.43,-0.1,12.04,12.08,269.99,0.002,0.3621,0,20,1,0.6,4.5,0.75,0.35,0.0168,0.4,0,22.084,0,-0.684,0,270.01,0,0,1,-0.04,0,0,0,270.01,0.8127,0.0003,0.5827,0,270.01,-0.09,-43.4,7.442,0.015,6.499,1,3,666.81,8.15,0,464.29,0,0,0,,0,0,0,0,0,0,0,0,0,0,0,0,0,270.06,0,0,0,0,0,0,0,0,0,0,0,0,0,3,3,0,0,VALID,0,0,0,0,0,1,0,0,0,0,0,0,0,0,0,0,0,0,0,0,399.43,1096.03,2,0,0.175,0.175,157,5.71,0.175,0.175,27.62,FLYING,X10-F,0:/Integrated Flight Computer/aircraft/x10_f_cfg.ks (inferred preloaded)
27.97,APPROACH,ILS_TRACK,151.34,152,0.66,420.85,344.4,-0.08,12.04,12.08,269.99,0.001,0.361,0,20,1,0.6,4.5,0.75,0.35,0.0168,0.4,0,22.078,0,-0.663,0,270.01,0,0,1,-0.04,0,0,0,270.01,0.8128,0.0002,0.5826,0,270.01,-0.11,-40.54,7.386,0.013,5.628,1,3,666.81,8.168,0,461.39,0,0,0,,0,0,0,0,0,0,0,0,0,0,0,0,0,270.06,0,0,0,0,0,0,0,0,0,0,0,0,0,3,3,0,0,VALID,0,0,0,0,0,1,0,0,0,0,0,0,0,0,0,0,0,0,0,0,399.15,1096.12,2,0,0.175,0.175,159,5.71,0.175,0.175,27.97,FLYING,X10-F,0:/Integrated Flight Computer/aircraft/x10_f_cfg.ks (inferred preloaded)
28.32,APPROACH,ILS_TRACK,151.36,152,0.64,420.82,344.37,-0.07,12.05,12.07,269.99,-0.001,0.3602,0,20,1,0.6,4.5,0.75,0.35,0.0168,0.4,0,22.072,0,-0.644,0,270.02,0,0,1,-0.03,0,0,0,270.01,0.8128,0.0003,0.5825,0,270.02,-0.12,-37.68,7.331,0.016,4.751,1,3,666.81,8.189,0,458.5,0,0,0,,0,0,0,0,0,0,0,0,0,0,0,0,0,270.06,0,0,0,0,0,0,0,0,0,0,0,0,0,3,3,0,0,VALID,0,0,0,0,0,1,0,0,0,0,0,0,0,0,0,0,0,0,0,0,398.76,1096.21,2,0,0.175,0.175,161,5.71,0.175,0.175,28.32,FLYING,X10-F,0:/Integrated Flight Computer/aircraft/x10_f_cfg.ks (inferred preloaded)
28.67,APPROACH,ILS_TRACK,151.38,152,0.62,420.8,344.35,-0.05,12.05,12.07,269.98,-0.002,0.3599,0,20,1,0.6,4.5,0.75,0.35,0.0168,0.4,0,22.067,0,-0.626,0,270.02,0,0,1,-0.02,0,0,0,270.01,0.8129,0.0003,0.5825,0,270.02,-0.13,-34.81,7.276,0.016,3.877,1,3,666.81,8.206,0,455.61,0,0,0,,0,0,0,0,0,0,0,0,0,0,0,0,0,270.06,0,0,0,0,0,0,0,0,0,0,0,0,0,3,3,0,0,VALID,0,0,0,0,0,1,0,0,0,0,0,0,0,0,0,0,0,0,0,0,398.33,1096.28,2,0,0.175,0.175,163,5.71,0.175,0.175,28.67,FLYING,X10-F,0:/Integrated Flight Computer/aircraft/x10_f_cfg.ks (inferred preloaded)
29.02,APPROACH,ILS_TRACK,151.39,152,0.61,420.78,344.33,-0.04,12.05,12.06,269.98,-0.003,0.3601,0,20,1,0.6,4.5,0.75,0.35,0.0168,0.4,0,22.063,0,-0.609,0,270.02,0,0,1,-0.02,0,0,0,270.02,0.8129,0.0003,0.5824,0,270.02,-0.15,-31.93,7.221,0.016,3.001,1,3,666.81,8.222,0,452.72,0,0,0,,0,0,0,0,0,0,0,0,0,0,0,0,0,270.06,0,0,0,0,0,0,0,0,0,0,0,0,0,3,3,0,0,VALID,0,0,0,0,0,1,0,0,0,0,0,0,0,0,0,0,0,0,0,0,397.92,1096.35,2,0,0.175,0.175,165,5.71,0.175,0.175,29.02,FLYING,X10-F,0:/Integrated Flight Computer/aircraft/x10_f_cfg.ks (inferred preloaded)
29.37,APPROACH,ILS_TRACK,151.41,152,0.59,420.76,344.36,0.41,12,11.83,269.98,0.008,0.3602,0,20,1,0.6,4.5,0.75,0.35,0.0168,0.4,0,22.058,0,-0.594,0,270.02,-0.875,0,1,0.08,0,0,-0.44,270.02,0.8218,0.0003,0.5698,-0.88,270.02,-0.16,-29.05,7.166,0.017,2.125,1,3,666.81,8.237,-0.875,449.82,0,0,0,,0,0,0,0,0,0,0,0,0,0,0,0,0,270.06,0,0,0,0,0,0,0,0,0,0,0,0,0,3,3,0,0,VALID,0,0,0,0,0,1,0,0,0,0,0,0,0,0,0,0,0,0,0,0,397.59,1096.41,2,0,0.175,0.175,167,5.71,0.175,0.175,29.37,FLYING,X10-F,0:/Integrated Flight Computer/aircraft/x10_f_cfg.ks (inferred preloaded)
29.72,APPROACH,ILS_TRACK,151.45,152,0.55,420.65,344.63,0.94,10.95,10.45,269.99,0.055,0.3516,0,20,1,0.6,4.5,0.75,0.35,0.0168,0.4,0,22.049,0,-0.562,0,270.02,-1.506,0,1,0.32,0,0,-1.13,270.02,0.828,0.0003,0.5607,-1.51,270.02,-0.18,-26.25,7.11,0.018,1.494,1,3,666.81,7.974,-1.506,446.93,0,0,0,,0,0,0,0,0,0,0,0,0,0,0,0,0,270.06,0,0,0,0,0,0,0,0,0,0,0,0,0,3,3,0,0,VALID,0,0,0,0,0,1,0,0,0,0,0,0,0,0,0,0,0,0,0,0,397.41,1096.55,2,0,0.175,0.175,169,5.71,0.175,0.175,29.72,FLYING,X10-F,0:/Integrated Flight Computer/aircraft/x10_f_cfg.ks (inferred preloaded)
30.07,APPROACH,ILS_TRACK,151.67,152,0.33,420.43,344.99,0.88,9.11,8.57,270,0.09,0.2732,0,20,1,0.6,4.5,0.75,0.35,0.0168,0.4,0,21.994,0,-0.364,0,270.02,-2.067,0,1,0.36,0,0,-1.74,270.02,0.8335,0.0003,0.5524,-2.07,270.02,-0.2,-23.55,7.055,0.019,0.933,1,3,666.81,7.663,-2.067,444.03,0,0,0,,0,0,0,0,0,0,0,0,0,0,0,0,0,270.06,0,0,0,0,0,0,0,0,0,0,0,0,0,3,3,0,0,VALID,0,0,0,0,0,1,0,0,0,0,0,0,0,0,0,0,0,0,0,0,394.86,1097.42,2,0,0.175,0.175,171,5.71,0.175,0.175,30.07,FLYING,X10-F,0:/Integrated Flight Computer/aircraft/x10_f_cfg.ks (inferred preloaded)
30.42,APPROACH,ILS_TRACK,152.08,152,-0.08,420.16,345.22,0.25,7.36,7.09,270,0.113,0.1359,0,19.994,1,0.6,4.5,0.75,0.35,0.0168,0.4,0,21.881,0,0.037,0,270.02,-2.74,0,1,0.16,0,0,-2.38,270.02,0.84,0.0003,0.5425,-2.74,270.02,-0.21,-20.91,7,0.018,0.26,1,3,666.81,7.515,-2.74,441.12,0,0,0,,0,0,0,0,0,0,0,0,0,0,0,0,0,270.06,0,0,0,0,0,0,0,0,0,0,0,0,0,3,3,0,0,VALID,0,0,0,0,0,1,0,0,0,0,0,0,0,0,0,0,0,0,0,0,381.44,1099.14,2,0,0.175,0.175,173,5.71,0.175,0.175,30.42,FLYING,X10-F,0:/Integrated Flight Computer/aircraft/x10_f_cfg.ks (inferred preloaded)
30.77,APPROACH,ILS_TRACK,152.59,152,-0.59,419.78,345.17,-0.64,6.18,6.3,270,0.123,0,0,19.844,1,0.6,4.5,0.75,0.35,0.0168,0.4,0,21.74,0,0.537,0,270.02,-3.296,0,1,-0.16,0,0,-3.02,270.02,0.8453,0.0002,0.5343,-3.3,270.02,-0.22,-18.35,6.944,0.017,-0.296,1,3,666.81,7.25,-3.296,438.21,0,0,0,,0,0,0,0,0,0,0,0,0,0,0,0,0,270.06,0,0,0,0,0,0,0,0,0,0,0,0,0,3,3,0,0,VALID,0,0,0,0,0,1,0,0,0,0,0,0,0,0,0,0,0,0,0,0,352.34,1101.25,2,0,0.175,0.175,175,5.71,0.175,0.175,30.77,FLYING,X10-F,0:/Integrated Flight Computer/aircraft/x10_f_cfg.ks (inferred preloaded)
31.12,APPROACH,ILS_TRACK,153.06,152,-1.06,419.23,344.8,-1.56,5.49,5.98,270,0.123,0,0,19.646,1,0.6,4.5,0.75,0.35,0.0168,0.4,0,21.604,0,1.017,0,270.01,-3.579,0,1,-0.5,0,0,-3.51,270.02,0.848,0.0002,0.53,-3.58,270.01,-0.23,-15.94,6.888,0.014,-0.579,1,3,666.81,6.701,-3.579,435.29,0,0,0,,0,0,0,0,0,0,0,0,0,0,0,0,0,270.06,0,0,0,0,0,0,0,0,0,0,0,0,0,3,3,0,0,VALID,0,0,0,0,0,1,0,0,0,0,0,0,0,0,0,0,0,0,0,0,312.85,1103.27,2,0,0.175,0.175,177,5.71,0.175,0.175,31.12,FLYING,X10-F,0:/Integrated Flight Computer/aircraft/x10_f_cfg.ks (inferred preloaded)
31.47,APPROACH,ILS_TRACK,153.41,152,-1.41,418.51,344.08,-2.32,5.51,6.3,270.01,0.118,0,0,19.45,1,0.6,4.5,0.75,0.35,0.0168,0.4,0,21.501,0,1.384,0,270.01,-3.98,0,1,-0.83,0,0,-3.84,270.01,0.8517,0.0002,0.524,-3.98,270.01,-0.24,-13.67,6.832,0.014,-0.98,1,3,666.81,6.353,-3.98,432.36,0,0,0,,0,0,0,0,0,0,0,0,0,0,0,0,0,270.06,0,0,0,0,0,0,0,0,0,0,0,0,0,3,3,0,0,VALID,0,0,0,0,0,1,0,0,0,0,0,0,0,0,0,0,0,0,0,0,276.98,1104.83,2,0,0.175,0.175,179,5.71,0.175,0.175,31.47,FLYING,X10-F,0:/Integrated Flight Computer/aircraft/x10_f_cfg.ks (inferred preloaded)
31.82,APPROACH,ILS_TRACK,153.65,152,-1.65,417.46,343.12,-3.22,5.18,6.29,270.01,0.119,0,0,19.256,1,0.6,4.5,0.75,0.35,0.0168,0.4,0.155,21.431,0.155,1.633,1,270.01,-3.74,0,1,-1.12,0,0,-3.75,270.01,0.8496,0.0002,0.5275,-3.74,270.01,-0.24,-11.75,6.776,0.012,-0.74,1,3,666.81,5.329,-3.74,429.43,0,0,0,,0,0,0,0,0,0,0,0,0,0,0,0,0,270.06,0,0,0,0,0,0,0,0,0,0,0,0,0,3,3,0,0,VALID,0,0,0,0,0,1,0,0,0,0,0,0,0,0,0,0,0,0,0,0,245.11,1105.92,2,0,0.175,0.175,181,5.71,0.175,0.175,31.82,FLYING,X10-F,0:/Integrated Flight Computer/aircraft/x10_f_cfg.ks (inferred preloaded)
32.16,APPROACH,ILS_TRACK,153.76,152,-1.76,416.32,341.82,-3.97,5.59,7.04,270.01,0.105,0,0,19.064,1,0.6,4.5,0.75,0.35,0.0168,0.4,0.297,21.396,0.297,1.757,1,270.01,-4.113,0,1,-1.45,0,0,-3.92,270.01,0.853,0.0001,0.5219,-4.11,270.01,-0.24,-9.95,6.721,0.011,-1.113,1,3,666.81,5.121,-4.113,426.51,0,0,0,,0,0,0,0,0,0,0,0,0,0,0,0,0,270.06,0,0,0,0,0,0,0,0,0,0,0,0,0,3,3,0,0,VALID,0,0,0,0,0,1,0,0,0,0,0,0,0,0,0,0,0,0,0,0,217.1,1106.49,2,0,0.173,0.173,183,5.78,0.175,0.173,32.16,FLYING,X10-F,0:/Integrated Flight Computer/aircraft/x10_f_cfg.ks (inferred preloaded)
32.45,APPROACH,ILS_TRACK,153.75,152,-1.75,415.11,340.62,-4.33,5.67,7.19,270.01,0.09,0.032,0,18.711,1,0.6,4.5,0.75,0.35,0.0168,0.4,0.298,21.396,0.298,1.758,1,270.01,-3.743,0,1,-1.58,0,0,-3.94,270.01,0.8497,0.0001,0.5273,-3.74,270.01,-0.25,-8.59,6.671,0.011,-0.743,1,3,666.81,4.15,-3.743,423.92,0,0,0,,0,0,0,0,0,0,0,0,0,0,0,0,0,270.06,0,0,0,0,0,0,0,0,0,0,0,0,0,3,3,0,0,VALID,0,0,0,0,0,1,0,0,0,0,0,0,0,0,0,0,0,0,0,0,196.05,1106.56,2,0,0.147,0.147,185,6.89,0.173,0.147,32.45,FLYING,X10-F,0:/Integrated Flight Computer/aircraft/x10_f_cfg.ks (inferred preloaded)
32.81,APPROACH,ILS_TRACK,153.65,152,-1.65,413.51,338.94,-4.89,5.88,7.64,270.01,0.072,0.1579,0,18.099,1,0.6,4.5,0.75,0.35,0.0168,0.4,0,21.424,0,1.655,0,270.01,-3.931,0,1,-1.82,0,0,-3.88,270.01,0.8515,0.0001,0.5244,-3.93,270.01,-0.24,-7.17,6.614,0.009,-0.931,1,3,666.81,3.853,-3.931,420.9,0,0,0,,0,0,0,0,0,0,0,0,0,0,0,0,0,270.06,0,0,0,0,0,0,0,0,0,0,0,0,0,3,3,0,0,VALID,0,0,0,0,0,1,0,0,0,0,0,0,0,0,0,0,0,0,0,0,181.66,1106.24,2,0,0.117,0.117,188,8.41,0.147,0.117,32.81,FLYING,X10-F,0:/Integrated Flight Computer/aircraft/x10_f_cfg.ks (inferred preloaded)
33.14,APPROACH,ILS_TRACK,153.49,152,-1.49,411.82,337.26,-5.34,5.85,7.76,270.01,0.06,0.2536,0,17.58,1,0.6,4.5,0.75,0.35,0.0168,0.4,0,21.468,0,1.501,0,270.01,-3.71,0,1,-1.96,0,0,-3.68,270.01,0.8495,0.0001,0.5276,-3.71,270.01,-0.24,-6.06,6.56,0.007,-0.71,1,3,666.81,3.16,-3.71,418.1,0,0,0,,0,0,0,0,0,0,0,0,0,0,0,0,0,270.06,0,0,0,0,0,0,0,0,0,0,0,0,0,3,3,0,0,VALID,0,0,0,0,0,1,0,0,0,0,0,0,0,0,0,0,0,0,0,0,182.92,1105.72,2,0,0.109,0.109,191,9.06,0.117,0.109,33.14,FLYING,X10-F,0:/Integrated Flight Computer/aircraft/x10_f_cfg.ks (inferred preloaded)
33.47,APPROACH,ILS_TRACK,153.33,152,-1.33,410.06,335.44,-5.61,6.08,8.09,270.01,0.048,0.3097,0,17.119,1,0.6,4.5,0.75,0.35,0.0168,0.4,0,21.513,0,1.34,0,270.01,-3.785,0,1,-2.09,0,0,-3.9,270.01,0.8502,0,0.5264,-3.79,270.01,-0.24,-5.05,6.508,0.006,-0.785,1,3,666.81,2.877,-3.785,415.34,0,0,0,,0,0,0,0,0,0,0,0,0,0,0,0,0,270.06,0,0,0,0,0,0,0,0,0,0,0,0,0,3,3,0,0,VALID,0,0,0,0,0,1,0,0,0,0,0,0,0,0,0,0,0,0,0,0,190.23,1105.19,2,0,0.121,0.121,194,9.16,0.121,0.103,33.47,FLYING,X10-F,0:/Integrated Flight Computer/aircraft/x10_f_cfg.ks (inferred preloaded)
33.81,APPROACH,ILS_TRACK,153.19,152,-1.19,408.03,333.45,-6.1,5.93,8.12,270.01,0.04,0.3224,0,16.697,1,0.6,4.5,0.75,0.35,0.0168,0.4,0,21.552,0,1.201,0,270.01,-3.648,0,1,-2.25,0,0,-3.58,270.01,0.849,0,0.5284,-3.65,270.01,-0.24,-4.22,6.453,0.005,-0.648,1,3,666.81,2.393,-3.648,412.5,0,0,0,,0,0,0,0,0,0,0,0,0,0,0,0,0,270.06,0,0,0,0,0,0,0,0,0,0,0,0,0,3,3,0,0,VALID,0,0,0,0,0,1,0,0,0,0,0,0,0,0,0,0,0,0,0,0,200.75,1104.78,2,0,0.1,0.1,197,8.79,0.121,0.1,33.81,FLYING,X10-F,0:/Integrated Flight Computer/aircraft/x10_f_cfg.ks (inferred preloaded)
34.2,APPROACH,ILS_TRACK,153.08,152,-1.08,405.64,331.03,-6.33,6.1,8.34,270.01,0.031,0.313,0,16.284,1,0.6,4.5,0.75,0.35,0.0168,0.4,0,21.583,0,1.091,0,270.01,-3.576,0,1,-2.35,0,0,-3.8,270,0.8484,0.0001,0.5294,-3.58,270.01,-0.23,-3.4,6.395,0.008,-0.576,1,3,666.81,1.993,-3.576,409.44,0,0,0,,0,0,0,0,0,0,0,0,0,0,0,0,0,270.06,0,0,0,0,0,0,0,0,0,0,0,0,0,3,3,0,0,VALID,0,0,0,0,0,1,0,0,0,0,0,0,0,0,0,0,0,0,0,0,212.08,1104.5,2,0,0.138,0.138,200,7.75,0.138,0.1,34.2,FLYING,X10-F,0:/Integrated Flight Computer/aircraft/x10_f_cfg.ks (inferred preloaded)
34.54,APPROACH,ILS_TRACK,153.02,152,-1.02,403.37,328.74,-6.88,6.02,8.51,270.01,0.029,0.2952,0,15.929,1,0.6,4.5,0.75,0.35,0.0168,0.4,0,21.603,0,1.021,0,270,-3.576,0,1,-2.53,0,0,-3.48,270.01,0.8484,0,0.5293,-3.58,270,-0.22,-2.79,6.34,0.004,-0.576,1,3,666.81,1.767,-3.576,406.58,0,0,0,,0,0,0,0,0,0,0,0,0,0,0,0,0,270.06,0,0,0,0,0,0,0,0,0,0,0,0,0,3,3,0,0,VALID,0,0,0,0,0,1,0,0,0,0,0,0,0,0,0,0,0,0,0,0,220.86,1104.4,2,0,0.158,0.158,202,5.78,0.185,0.138,34.54,FLYING,X10-F,0:/Integrated Flight Computer/aircraft/x10_f_cfg.ks (inferred preloaded)
34.87,APPROACH,ILS_TRACK,152.96,152,-0.96,401.12,326.44,-6.93,6.31,8.79,270.01,0.015,0.2804,0,15.608,1,0.6,4.5,0.75,0.35,0.0168,0.4,0,21.62,0,0.963,0,270.01,-3.553,0,1,-2.59,0,0,-3.71,270,0.8483,0,0.5296,-3.55,270.01,-0.22,-2.24,6.288,0.005,-0.553,1,3,666.81,1.531,-3.553,403.84,0,0,0,,0,0,0,0,0,0,0,0,0,0,0,0,0,270.06,0,0,0,0,0,0,0,0,0,0,0,0,0,3,3,0,0,VALID,0,0,0,0,0,1,0,0,0,0,0,0,0,0,0,0,0,0,0,0,227.45,1104.34,2,0,0.166,0.166,204,6.03,0.166,0.158,34.87,FLYING,X10-F,0:/Integrated Flight Computer/aircraft/x10_f_cfg.ks (inferred preloaded)
35.22,APPROACH,ILS_TRACK,152.92,152,-0.92,398.65,323.96,-7.37,6.24,8.91,270.01,0.017,0.2623,0,15.287,1,0.6,4.5,0.75,0.35,0.0168,0.4,0,21.631,0,0.921,0,270,-3.404,0,1,-2.72,0,0,-3.36,270,0.8469,0,0.5317,-3.4,270,-0.21,-1.83,6.233,0.005,-0.404,1,3,666.81,1.19,-3.404,400.97,0,0,0,,0,0,0,0,0,0,0,0,0,0,0,0,0,270.06,0,0,0,0,0,0,0,0,0,0,0,0,0,3,3,0,0,VALID,0,0,0,0,0,1,0,0,0,0,0,0,0,0,0,0,0,0,0,0,232.79,1104.38,2,0,0.174,0.174,206,5.76,0.174,0.166,35.22,FLYING,X10-F,0:/Integrated Flight Computer/aircraft/x10_f_cfg.ks (inferred preloaded)
35.61,APPROACH,ILS_TRACK,152.87,152,-0.87,395.86,321.09,-7.39,6.6,9.25,270.01,0.008,0.2502,0,14.946,1,0.6,4.5,0.75,0.35,0.0168,0.4,0,21.644,0,0.875,0,270,-3.416,0,1,-2.77,0,0,-3.56,270,0.8471,0,0.5314,-3.42,270,-0.21,-1.38,6.172,0.002,-0.416,1,3,666.81,1.036,-3.416,397.77,0,0,0,,0,0,0,0,0,0,0,0,0,0,0,0,0,270.06,0,0,0,0,0,0,0,0,0,0,0,0,0,3,3,0,0,VALID,0,0,0,0,0,1,0,0,0,0,0,0,0,0,0,0,0,0,0,0,236.85,1104.41,2,0,0.175,0.175,208,5.19,0.21,0.174,35.61,FLYING,X10-F,0:/Integrated Flight Computer/aircraft/x10_f_cfg.ks (inferred preloaded)
35.96,APPROACH,ILS_TRACK,152.83,152,-0.83,393.2,318.45,-7.74,6.47,9.26,270.01,0.006,0.2416,0,14.651,1,0.6,4.5,0.75,0.35,0.0168,0.4,0,21.656,0,0.832,0,270,-3.232,0,1,-2.87,0,0,-3.19,270,0.8454,0,0.5341,-3.23,270,-0.2,-1.13,6.117,0.003,-0.232,1,3,666.81,0.713,-3.232,394.85,0,0,0,,0,0,0,0,0,0,0,0,0,0,0,0,0,270.06,0,0,0,0,0,0,0,0,0,0,0,0,0,3,3,0,0,VALID,0,0,0,0,0,1,0,0,0,0,0,0,0,0,0,0,0,0,0,0,239.47,1104.46,2,0,0.175,0.175,210,5.71,0.175,0.175,35.96,FLYING,X10-F,0:/Integrated Flight Computer/aircraft/x10_f_cfg.ks (inferred preloaded)
36.31,APPROACH,ILS_TRACK,152.78,152,-0.78,390.57,315.71,-7.7,6.89,9.67,270.01,-0.003,0.2377,0,14.371,1,0.6,4.5,0.75,0.35,0.0168,0.4,0,21.669,0,0.786,0,270,-3.419,0,1,-2.91,0,0,-3.41,270,0.8472,0,0.5312,-3.42,270,-0.19,-0.83,6.061,0.001,-0.419,1,3,666.81,0.834,-3.419,391.94,0,0,0,,0,0,0,0,0,0,0,0,0,0,0,0,0,270.06,0,0,0,0,0,0,0,0,0,0,0,0,0,3,3,0,0,VALID,0,0,0,0,0,1,0,0,0,0,0,0,0,0,0,0,0,0,0,0,241.23,1104.48,2,0,0.175,0.175,212,5.71,0.175,0.175,36.31,FLYING,X10-F,0:/Integrated Flight Computer/aircraft/x10_f_cfg.ks (inferred preloaded)
36.66,APPROACH,ILS_TRACK,152.71,152,-0.71,387.78,313,-7.88,6.61,9.43,270.01,-0.003,0.2462,0,14.116,1,0.6,4.5,0.75,0.35,0.0168,0.4,0,21.69,0,0.713,0,270,-3.035,0,1,-2.93,0,0,-3.1,270,0.8437,0,0.5368,-3.04,270,-0.18,-0.7,6.006,0.002,-0.035,1,3,666.81,0.306,-3.035,389.03,0,0,0,,0,0,0,0,0,0,0,0,0,0,0,0,0,270.06,0,0,0,0,0,0,0,0,0,0,0,0,0,3,3,0,0,VALID,0,0,0,0,0,1,0,0,0,0,0,0,0,0,0,0,0,0,0,0,242.85,1104.41,2,0,0.175,0.175,214,5.71,0.175,0.175,36.66,FLYING,X10-F,0:/Integrated Flight Computer/aircraft/x10_f_cfg.ks (inferred preloaded)
37.01,APPROACH,ILS_TRACK,152.67,152,-0.67,385.08,310.17,-8.09,6.92,9.9,270.01,-0.005,0.2387,0,13.877,1,0.6,4.5,0.75,0.35,0.0168,0.4,0,21.702,0,0.672,0,270,-3.362,0,1,-3.05,0,0,-3.16,270,0.8468,0,0.5319,-3.36,270,-0.18,-0.51,5.95,0.002,-0.362,1,3,666.81,0.644,-3.362,386.13,0,0,0,,0,0,0,0,0,0,0,0,0,0,0,0,0,270.06,0,0,0,0,0,0,0,0,0,0,0,0,0,3,3,0,0,VALID,0,0,0,0,0,1,0,0,0,0,0,0,0,0,0,0,0,0,0,0,244.65,1104.47,2,0,0.175,0.175,216,5.71,0.175,0.175,37.01,FLYING,X10-F,0:/Integrated Flight Computer/aircraft/x10_f_cfg.ks (inferred preloaded)
37.36,APPROACH,ILS_TRACK,152.59,152,-0.59,382.24,307.39,-7.95,6.9,9.74,270,-0.011,0.2481,0,13.66,1,0.6,4.5,0.75,0.35,0.0168,0.4,0,21.722,0,0.598,0,270,-2.985,0,1,-2.97,0,0,-3.26,270,0.8433,0,0.5374,-2.99,270,-0.17,-0.4,5.895,0.002,0.015,1,3,666.81,0.132,-2.985,383.22,0,0,0,,0,0,0,0,0,0,0,0,0,0,0,0,0,270.06,0,0,0,0,0,0,0,0,0,0,0,0,0,3,3,0,0,VALID,0,0,0,0,0,1,0,0,0,0,0,0,0,0,0,0,0,0,0,0,246.02,1104.38,2,0,0.175,0.175,218,5.71,0.175,0.175,37.36,FLYING,X10-F,0:/Integrated Flight Computer/aircraft/x10_f_cfg.ks (inferred preloaded)
37.71,APPROACH,ILS_TRACK,152.54,152,-0.54,379.45,304.54,-8.26,6.89,9.93,270,-0.01,0.2444,0,13.465,1,0.6,4.5,0.75,0.35,0.0168,0.4,0,21.737,0,0.548,0,270,-3.156,0,1,-3.08,0,0,-2.99,270,0.845,0,0.5348,-3.16,270,-0.17,-0.33,5.839,0.002,-0.156,1,3,666.81,0.317,-3.156,380.32,0,0,0,,0,0,0,0,0,0,0,0,0,0,0,0,0,270.06,0,0,0,0,0,0,0,0,0,0,0,0,0,3,3,0,0,VALID,0,0,0,0,0,1,0,0,0,0,0,0,0,0,0,0,0,0,0,0,247.9,1104.41,2,0,0.175,0.175,220,5.71,0.175,0.175,37.71,FLYING,X10-F,0:/Integrated Flight Computer/aircraft/x10_f_cfg.ks (inferred preloaded)
38.06,APPROACH,ILS_TRACK,152.48,152,-0.48,376.62,301.69,-8.04,7.14,10.02,270,-0.015,0.2484,0,13.289,1,0.6,4.5,0.75,0.35,0.0168,0.4,0,21.754,0,0.485,0,270,-3.093,0,1,-3.02,0,0,-3.28,270,0.8444,0,0.5356,-3.09,270,-0.16,-0.21,5.784,0.002,-0.093,1,3,666.81,0.196,-3.093,377.42,0,0,0,,0,0,0,0,0,0,0,0,0,0,0,0,0,270.06,0,0,0,0,0,0,0,0,0,0,0,0,0,3,3,0,0,VALID,0,0,0,0,0,1,0,0,0,0,0,0,0,0,0,0,0,0,0,0,249.43,1104.38,2,0,0.175,0.175,222,5.71,0.175,0.175,38.06,FLYING,X10-F,0:/Integrated Flight Computer/aircraft/x10_f_cfg.ks (inferred preloaded)
38.41,APPROACH,ILS_TRACK,152.42,152,-0.42,373.77,298.84,-8.26,7.01,10.02,270,-0.01,0.2483,0,13.135,1,0.6,4.5,0.75,0.35,0.0168,0.4,0,21.77,0,0.429,0,270,-3.059,0,1,-3.08,0,0,-2.95,270,0.8442,0,0.5361,-3.06,270,-0.15,-0.18,5.729,0.002,-0.059,1,3,666.81,0.143,-3.059,374.51,0,0,0,,0,0,0,0,0,0,0,0,0,0,0,0,0,270.06,0,0,0,0,0,0,0,0,0,0,0,0,0,3,3,0,0,VALID,0,0,0,0,0,1,0,0,0,0,0,0,0,0,0,0,0,0,0,0,251.16,1104.39,2,0,0.175,0.175,224,5.71,0.175,0.175,38.41,FLYING,X10-F,0:/Integrated Flight Computer/aircraft/x10_f_cfg.ks (inferred preloaded)
