t_s,phase,subphase,ias_ms,vapp_ms,spd_err_ms,agl_m,vs_ms,pitch_deg,aoa_deg,hdg_deg,bank_deg,thr_cmd,thr_cur,thr_intg,at_gain,at_tau_s,at_a_up,at_a_dn,at_kp_thr,at_ki_spd,at_thr_slew,as_cmd_deg,as_cap_deg,as_raw_deg,as_spd_err_ms,as_active,aa_hdg_cmd_deg,aa_fpa_cmd_deg,aa_fbw,aa_dir,actual_fpa_deg,ftf_hdg_err_deg,ftf_fix_idx,kos_steer_pit_deg,kos_steer_hdg_deg,aa_dir_vx,aa_dir_vy,aa_dir_vz,aa_dir_pitch_deg,aa_dir_hdg_deg,ils_loc_m,ils_gs_m,ils_dist_km,loc_corr_deg,gs_corr_deg,gs_latched,active_gs_ang_deg,ils_intercept_alt_m,d_gs_ms,fpa_preclamped_deg,gs_nom_alt_m,flare_fpa_cmd,flare_tgt_vs,flare_frac,steer_hdg_deg,steer_blend,ro_loc_corr_deg,ro_hdg_err_deg,ro_yaw_tgt,ro_yaw_scale,ro_yaw_gate,yaw_cmd,roll_cmd,pitch_cmd,ro_pitch_tgt_deg,ro_pitch_err_deg,ro_pitch_ff,ro_roll_assist,flaps_cur,flaps_tgt,asc_j_ab,asc_j_rk,asc_validity,asc_q_pa,asc_q_raw_pa,asc_mach,asc_apo_m,asc_drag_n,asc_w_prop,asc_edot_aero,asc_edot_orb,asc_pitch_bias,asc_blend,asc_spooling,asc_ab_thr_ratio,asc_ab_t_now,asc_ab_t_avail,asc_ab_ign_on,asc_ab_flameouts,asc_rk_t_now,asc_rk_t_avail,asc_rk_ign_on,asc_rk_flameouts,ship_thrust,ship_avail_thrust,ship_ign_on,ship_flameouts,ifc_raw_dt_s,ifc_dt_s,ifc_loop_n,ifc_hz_est,ifc_raw_dt_max_s,ifc_raw_dt_min_s,phase_el_s,status,craft_name,cfg_file
0.2,TAKEOFF,TO_PREFLIGHT,0.8,80,79.2,5.22,0,-0.19,0.12,90.31,0.104,0.072,0,0,0,0,0,0,0,0,0,0,0,0,0,0,90,0,1,0,-0.26,0,0,0,90,0,0,0,0,0,0,0,0,0,0,0,3,0,0,0,69,0,0,0,90,1,0,0.313,0,0,1,0,0,0,0,0,0,0,0,2,0,0,VALID,0,0,0,0,0,1,0,0,0,0,0,0,0,0,0,0,0,0,0,0,0,2325.15,6,0,0.18,0.18,1,3.7,0.18,0.02,0.02,LANDED,X11-D,0:/Integrated Flight Computer/aircraft/x11_d_cfg.ks (inferred preloaded)
0.46,TAKEOFF,TO_PREFLIGHT,0.81,80,79.19,5.16,0,-0.27,-0.37,90.32,0.105,0.112,0,0,0,0,0,0,0,0,0,0,0,0,0,0,90,0,1,0,0.01,0,0,0,90,0,0,0,0,0,0,0,0,0,0,0,3,0,0,0,69,0,0,0,90,1,0,0.314,0,0,1,0,0,0,0,0,0,0,1,2,0,0,VALID,0,0,0,0,0,1,0,0,0,0,0,0,0,0,0,0,0,0,0,0,6.35,2325.13,6,0,0.04,0.04,6,19.23,0.18,0.04,0.28,LANDED,X11-D,0:/Integrated Flight Computer/aircraft/x11_d_cfg.ks (inferred preloaded)
0.72,TAKEOFF,TO_PREFLIGHT,0.79,80,79.21,5.14,-0.01,-0.31,0.24,90.32,0.098,0.216,0,0,0,0,0,0,0,0,0,0,0,0,0,0,90,0,1,0,-0.45,0,0,0,90,0,0,0,0,0,0,0,0,0,0,0,3,0,0,0,69,0,0,0,90,1,0,0.314,0,0,1,0,0,0,0,0,0,0,1,2,0,0,VALID,0,0,0,0,0,1,0,0,0,0,0,0,0,0,0,0,0,0,0,0,22.2,2325.16,6,0,0.04,0.04,11,19.23,0.08,0.04,0.54,LANDED,X11-D,0:/Integrated Flight Computer/aircraft/x11_d_cfg.ks (inferred preloaded)
0.98,TAKEOFF,TO_PREFLIGHT,0.74,80,79.26,5.19,-0.01,-0.24,0.3,90.33,0.102,0.32,0,0,0,0,0,0,0,0,0,0,0,0,0,0,90,0,1,0,-0.41,0,0,0,90,0,0,0,0,0,0,0,0,0,0,0,3,0,0,0,69,0,0,0,90,1,0,0.314,0,0,1,0,0,0,0,0,0,0,2,2,0,0,VALID,0,0,0,0,0,1,0,0,0,0,0,0,0,0,0,0,0,0,0,0,49.53,2325.25,6,0,0.04,0.04,16,19.23,0.08,0.04,0.8,LANDED,X11-D,0:/Integrated Flight Computer/aircraft/x11_d_cfg.ks (inferred preloaded)
1.24,TAKEOFF,TO_PREFLIGHT,0.69,80,79.31,5.2,0,-0.22,0.12,90.35,0.102,0.424,0,0,0,0,0,0,0,0,0,0,0,0,0,0,90,0,1,0,-0.21,0,0,0,90,0,0,0,0,0,0,0,0,0,0,0,3,0,0,0,69,0,0,0,90,1,0,0.314,0,0,1,0,0,0,0,0,0,0,2,2,0,0,VALID,0,0,0,0,0,1,0,0,0,0,0,0,0,0,0,0,0,0,0,0,87.76,2325.34,6,0,0.04,0.04,21,19.23,0.08,0.04,1.06,LANDED,X11-D,0:/Integrated Flight Computer/aircraft/x11_d_cfg.ks (inferred preloaded)
1.5,TAKEOFF,TO_PREFLIGHT,0.66,80,79.34,5.15,0,-0.28,-0.49,90.37,0.103,0.528,0,0,0,0,0,0,0,0,0,0,0,0,0,0,90,0,1,0,0.14,0,0,0,90,0,0,0,0,0,0,0,0,0,0,0,3,0,0,0,69,0,0,0,90,1,0,0.314,0,0,1,0,0,0,0,0,0,0,2,2,0,0,VALID,0,0,0,0,0,1,0,0,0,0,0,0,0,0,0,0,0,0,0,0,136.32,2325.38,6,0,0.04,0.04,26,19.23,0.08,0.04,1.32,LANDED,X11-D,0:/Integrated Flight Computer/aircraft/x11_d_cfg.ks (inferred preloaded)
1.76,TAKEOFF,TO_PREFLIGHT,0.67,80,79.33,5.15,-0.01,-0.29,0.29,90.4,0.103,0.632,0,0,0,0,0,0,0,0,0,0,0,0,0,0,90,0,1,0,-0.48,0,0,0,90,0,0,0,0,0,0,0,0,0,0,0,3,0,0,0,69,0,0,0,90,1,0,0.314,0,0,1,0,0,0,0,0,0,0,2,2,0,0,VALID,0,0,0,0,0,1,0,0,0,0,0,0,0,0,0,0,0,0,0,0,194.69,2325.37,6,0,0.04,0.04,31,19.23,0.08,0.04,1.58,LANDED,X11-D,0:/Integrated Flight Computer/aircraft/x11_d_cfg.ks (inferred preloaded)
2.02,TAKEOFF,TO_PREFLIGHT,0.72,80,79.28,5.19,-0.01,-0.23,0.24,90.44,0.103,0.736,0,0,0,0,0,0,0,0,0,0,0,0,0,0,90,0,1,0,-0.32,0,0,0,90,0,0,0,0,0,0,0,0,0,0,0,3,0,0,0,69,0,0,0,90,1,0,0.314,0,0,1,0,0,0,0,0,0,0,2,2,0,0,VALID,0,0,0,0,0,1,0,0,0,0,0,0,0,0,0,0,0,0,0,0,262.37,2325.28,6,0,0.04,0.04,36,19.23,0.08,0.04,1.84,LANDED,X11-D,0:/Integrated Flight Computer/aircraft/x11_d_cfg.ks (inferred preloaded)
2.34,TAKEOFF,TO_PREFLIGHT,0.84,80,79.16,5.18,0,-0.24,-0.04,90.49,0.101,0.864,0,0,0,0,0,0,0,0,0,0,0,0,0,0,90,0,1,0,-0.16,0,0,0,90,0,0,0,0,0,0,0,0,0,0,0,3,0,0,0,69,0,0,0,90,1,0,0.314,0,0,1,0,0,0,0,0,0,0,2,2,0,0,VALID,0,0,0,0,0,1,0,0,0,0,0,0,0,0,0,0,0,0,0,0,357.72,2325.07,6,0,0.08,0.08,41,15.63,0.08,0.04,2.16,LANDED,X11-D,0:/Integrated Flight Computer/aircraft/x11_d_cfg.ks (inferred preloaded)
2.62,TAKEOFF,TO_PREFLIGHT,1.02,80,78.98,5.15,0,-0.29,-0.07,90.55,0.102,0.976,0,0,0,0,0,0,0,0,0,0,0,0,0,0,90,0,1,0,-0.27,0,0,0,90,0,0,0,0,0,0,0,0,0,0,0,3,0,0,0,69,0,0,0,90,1,0,0.314,0,0,1,0,0,0,0,0,0,0,2,2,0,0,VALID,0,0,0,0,0,1,0,0,0,0,0,0,0,0,0,0,0,0,0,0,451.09,2324.76,6,0,0.08,0.08,45,14.29,0.08,0.06,2.44,LANDED,X11-D,0:/Integrated Flight Computer/aircraft/x11_d_cfg.ks (inferred preloaded)
2.9,TAKEOFF,TO_PREFLIGHT,1.27,80,78.73,5.17,-0.01,-0.26,0.21,90.61,0.101,1,0,0,0,0,0,0,0,0,0,0,0,0,0,0,90,0,1,0,-0.53,0,0,0,90,0,0,0,0,0,0,0,0,0,0,0,3,0,0,0,69,0,0,0,90,1,0,0.314,0,0,1,0,0,0,0,0,0,0,2,2,0,0,VALID,0,0,0,0,0,1,0,0,0,0,0,0,0,0,0,0,0,0,0,0,551.6,2324.34,6,0,0.08,0.08,49,14.29,0.08,0.06,2.72,LANDED,X11-D,0:/Integrated Flight Computer/aircraft/x11_d_cfg.ks (inferred preloaded)
3.18,TAKEOFF,TO_PREFLIGHT,1.58,80,78.42,5.19,-0.01,-0.23,0.07,90.67,0.101,1,0,0,0,0,0,0,0,0,0,0,0,0,0,0,90,0,1,0,-0.32,0,0,0,90,0,0,0,0,0,0,0,0,0,0,0,3,0,0,0,69,0,0,0,90,1,0,0.314,0,0,1,0,0,0,0,0,0,0,2,2,0,0,VALID,0,0,0,0,0,1,0,0,0,0,0,0,0,0,0,0,0,0,0,0,648.19,2323.8,6,0,0.08,0.08,53,14.29,0.08,0.06,3,LANDED,X11-D,0:/Integrated Flight Computer/aircraft/x11_d_cfg.ks (inferred preloaded)
3.46,TAKEOFF,TO_PREFLIGHT,1.97,80,78.03,5.16,-0.01,-0.27,-0.02,90.74,0.101,1,0,0,0,0,0,0,0,0,0,0,0,0,0,0,90,0,1,0,-0.28,0,0,0,90,0,0,0,0,0,0,0,0,0,0,0,3,0,0,0,69,0,0,0,90,1,0,0.314,0,0,1,0,0,0,0,0,0,0,2,2,0,0,VALID,0,0,0,0,0,1,0,0,0,0,0,0,0,0,0,0,0,0,0,0,739.41,2323.13,6,0,0.08,0.08,57,14.29,0.08,0.06,3.28,LANDED,X11-D,0:/Integrated Flight Computer/aircraft/x11_d_cfg.ks (inferred preloaded)
3.74,TAKEOFF,TO_PREFLIGHT,2.42,80,77.58,5.16,-0.02,-0.28,0.04,90.82,0.102,1,0,0,0,0,0,0,0,0,0,0,0,0,0,0,90,0,1,0,-0.37,0,0,0,90,0,0,0,0,0,0,0,0,0,0,0,3,0,0,0,69,0,0,0,90,1,0,0.314,0,0,1,0,0,0,0,0,0,0,2,2,0,0,VALID,0,0,0,0,0,1,0,0,0,0,0,0,0,0,0,0,0,0,0,0,825.56,2322.34,6,0,0.08,0.08,61,14.29,0.08,0.06,3.56,LANDED,X11-D,0:/Integrated Flight Computer/aircraft/x11_d_cfg.ks (inferred preloaded)
4.02,TAKEOFF,TO_PREFLIGHT,2.94,80,77.06,5.18,-0.02,-0.24,0.11,90.88,0.101,1,0,0,0,0,0,0,0,0,0,0,0,0,0,0,90,0,1,0,-0.39,0,0,0,90,0,0,0,0,0,0,0,0,0,0,0,3,0,0,0,69,0,0,0,90,1,0,0.314,0,0,1,0,0,0,0,0,0,0,2,2,0,0,VALID,0,0,0,0,0,1,0,0,0,0,0,0,0,0,0,0,0,0,0,0,906.88,2321.44,6,0,0.08,0.08,65,14.29,0.08,0.06,3.84,LANDED,X11-D,0:/Integrated Flight Computer/aircraft/x11_d_cfg.ks (inferred preloaded)
4.3,TAKEOFF,TO_PREFLIGHT,3.51,80,76.49,5.18,-0.02,-0.24,0.04,90.95,0.098,1,0,0,0,0,0,0,0,0,0,0,0,0,0,0,90,0,1,0,-0.31,0,0,0,90,0,0,0,0,0,0,0,0,0,0,0,3,0,0,0,69,0,0,0,90,1,0,0.314,0,0,1,0,0,0,0,0,0,0,2,2,0,0,VALID,0,0,0,0,0,1,0,0,0,0,0,0,0,0,0,0,0,0,0,0,983.65,2320.42,6,0,0.08,0.08,69,14.29,0.08,0.06,4.12,LANDED,X11-D,0:/Integrated Flight Computer/aircraft/x11_d_cfg.ks (inferred preloaded)
4.58,TAKEOFF,TO_PREFLIGHT,4.14,80,75.86,5.16,-0.02,-0.28,0.02,91.03,0.1,1,0,0,0,0,0,0,0,0,0,0,0,0,0,0,90,0,1,0,-0.33,0,0,0,90,0,0,0,0,0,0,0,0,0,0,0,3,0,0,0,69,0,0,0,90,1,0,0.314,0,0,1,0,0,0,0,0,0,0,2,2,0,0,VALID,0,0,0,0,0,1,0,0,0,0,0,0,0,0,0,0,0,0,0,0,1056.09,2319.31,6,0,0.08,0.08,73,14.29,0.08,0.06,4.4,LANDED,X11-D,0:/Integrated Flight Computer/aircraft/x11_d_cfg.ks (inferred preloaded)
4.86,TAKEOFF,TO_PREFLIGHT,4.82,80,75.18,5.17,-0.03,-0.26,0.07,91.11,0.099,1,0,0,0,0,0,0,0,0,0,0,0,0,0,0,90,0,1,0,-0.36,0,0,0,90,0,0,0,0,0,0,0,0,0,0,0,3,0,0,0,69,0,0,0,90,1,0,0.314,0,0,1,0,0,0,0,0,0,0,2,2,0,0,VALID,0,0,0,0,0,1,0,0,0,0,0,0,0,0,0,0,0,0,0,0,1124.44,2318.09,6,0,0.08,0.08,77,14.29,0.08,0.06,4.68,LANDED,X11-D,0:/Integrated Flight Computer/aircraft/x11_d_cfg.ks (inferred preloaded)
5.14,TAKEOFF,TO_PREFLIGHT,5.56,80,74.44,5.19,-0.03,-0.24,0.08,91.18,0.098,1,0,0,0,0,0,0,0,0,0,0,0,0,0,0,90,0,1,0,-0.34,0,0,0,90,0,0,0,0,0,0,0,0,0,0,0,3,0,0,0,69,0,0,0,90,1,0,0.314,0,0,1,0,0,0,0,0,0,0,2,2,0,0,VALID,0,0,0,0,0,1,0,0,0,0,0,0,0,0,0,0,0,0,0,0,1188.9,2316.77,6,0,0.08,0.08,81,14.29,0.08,0.06,4.96,LANDED,X11-D,0:/Integrated Flight Computer/aircraft/x11_d_cfg.ks (inferred preloaded)
5.42,TAKEOFF,TO_PREFLIGHT,6.33,80,73.67,5.17,-0.04,-0.26,0.03,91.26,0.097,1,0,0,0,0,0,0,0,0,0,0,0,0,0,0,90,0,1,0,-0.32,0,0,0,90,0,0,0,0,0,0,0,0,0,0,0,3,0,0,0,69,0,0,0,90,1,0,0.314,0,0,1,0,0,0,0,0,0,0,2,2,0,0,VALID,0,0,0,0,0,1,0,0,0,0,0,0,0,0,0,0,0,0,0,0,1249.7,2315.36,6,0,0.08,0.08,85,14.29,0.08,0.06,5.24,LANDED,X11-D,0:/Integrated Flight Computer/aircraft/x11_d_cfg.ks (inferred preloaded)
5.7,TAKEOFF,TO_PREFLIGHT,7.16,80,72.84,5.16,-0.04,-0.27,0.04,91.34,0.098,1,0,0,0,0,0,0,0,0,0,0,0,0,0,0,90,0,1,0,-0.35,0,0,0,90,0,0,0,0,0,0,0,0,0,0,0,3,0,0,0,69,0,0,0,90,1,0,0.314,0,0,1,0,0,0,0,0,0,0,2,2,0,0,VALID,0,0,0,0,0,1,0,0,0,0,0,0,0,0,0,0,0,0,0,0,1307.01,2313.86,6,0,0.08,0.08,89,14.29,0.08,0.06,5.52,LANDED,X11-D,0:/Integrated Flight Computer/aircraft/x11_d_cfg.ks (inferred preloaded)
5.98,TAKEOFF,TO_PREFLIGHT,8.02,80,71.98,5.18,-0.05,-0.25,0.07,91.42,0.096,1,0,0,0,0,0,0,0,0,0,0,0,0,0,0,90,0,1,0,-0.34,0,0,0,90,0,0,0,0,0,0,0,0,0,0,0,3,0,0,0,69,0,0,0,90,1,0,0.314,0,0,1,0,0,0,0,0,0,0,2,2,0,0,VALID,0,0,0,0,0,1,0,0,0,0,0,0,0,0,0,0,0,0,0,0,1361.02,2312.26,6,0,0.08,0.08,93,14.29,0.08,0.06,5.8,LANDED,X11-D,0:/Integrated Flight Computer/aircraft/x11_d_cfg.ks (inferred preloaded)
6.26,TAKEOFF,TO_PREFLIGHT,8.92,80,71.08,5.18,-0.05,-0.24,0.06,91.5,0.096,1,0,0,0,0,0,0,0,0,0,0,0,0,0,0,90,0,1,0,-0.33,0,0,0,90,0,0,0,0,0,0,0,0,0,0,0,3,0,0,0,69,0,0,0,90,1,0,0.314,0,0,1,0,0,0,0,0,0,0,2,2,0,0,VALID,0,0,0,0,0,1,0,0,0,0,0,0,0,0,0,0,0,0,0,0,1411.91,2310.58,6,0,0.08,0.08,97,14.29,0.08,0.06,6.08,LANDED,X11-D,0:/Integrated Flight Computer/aircraft/x11_d_cfg.ks (inferred preloaded)
6.54,TAKEOFF,TO_PREFLIGHT,9.87,80,70.13,5.16,-0.06,-0.27,0.03,91.59,0.096,1,0,0,0,0,0,0,0,0,0,0,0,0,0,0,90,0,1,0,-0.33,0,0,0,90,0,0,0,0,0,0,0,0,0,0,0,3,0,0,0,69,0,0,0,90,1,0,0.314,0,0,1,0,0,0,0,0,0,0,2,2,0,0,VALID,0,0,0,0,0,1,0,0,0,0,0,0,0,0,0,0,0,0,0,0,1459.84,2308.82,6,0,0.08,0.08,101,14.29,0.08,0.06,6.36,LANDED,X11-D,0:/Integrated Flight Computer/aircraft/x11_d_cfg.ks (inferred preloaded)
6.82,TAKEOFF,TO_GROUND_ROLL,10.86,80,69.14,5.17,-0.06,-0.26,0.04,91.67,0.099,1,0,0,0,0,0,0,0,0,0,0,0,0,0,0,89.9,0,1,0,-0.32,0,0,0,90,0,0,0,0,0,0,0,0,-0.052,0,0,3,0,0,0,69,0,0,0,89.9,1,-0.052,1.773,-0.0596,0.659,0,-0.0596,0,0,0,0,0,0,2,2,0,0,VALID,0,0,0,0,0,1,0,0,0,0,0,0,0,0,0,0,0,0,0,0,1504.96,2306.94,6,0,0.08,0.08,105,14.29,0.08,0.06,6.66,LANDED,X11-D,0:/Integrated Flight Computer/aircraft/x11_d_cfg.ks (inferred preloaded)
7.1,TAKEOFF,TO_GROUND_ROLL,11.96,80,68.04,5.19,-0.07,-0.23,0.1,91.74,0.099,1,0,0,0,0,0,0,0,0,0,0,0,0,0,0,89.9,0,1,0,-0.35,0,0,0,90,0,0,0,0,0,0,0,0,-0.058,0,0,3,0,0,0,69,0,0,0,89.9,1,-0.058,1.835,-0.0617,0.67,0,-0.0617,0,0,0,0,0,0,2,2,0,0,VALID,0,0,0,0,0,1,0,0,0,0,0,0,0,0,0,0,0,0,0,0,1547.33,2304.85,6,0,0.08,0.08,109,14.29,0.08,0.06,6.94,LANDED,X11-D,0:/Integrated Flight Computer/aircraft/x11_d_cfg.ks (inferred preloaded)
7.38,TAKEOFF,TO_GROUND_ROLL,13.11,80,66.89,5.18,-0.07,-0.24,0.05,91.79,0.097,1,0,0,0,0,0,0,0,0,0,0,0,0,0,0,89.9,0,1,0,-0.31,0,0,0,90,0,0,0,0,0,0,0,0,-0.064,0,0,3,0,0,0,69,0,0,0,89.9,1,-0.064,1.888,-0.0638,0.681,0,-0.0638,0,0,0,0,0,0,2,2,0,0,VALID,0,0,0,0,0,1,0,0,0,0,0,0,0,0,0,0,0,0,0,0,1587.16,2302.65,6,0,0.08,0.08,113,14.29,0.08,0.06,7.22,LANDED,X11-D,0:/Integrated Flight Computer/aircraft/x11_d_cfg.ks (inferred preloaded)
7.66,TAKEOFF,TO_GROUND_ROLL,14.28,80,65.72,5.17,-0.09,-0.26,0.05,91.83,0.098,1,0,0,0,0,0,0,0,0,0,0,0,0,0,0,89.91,0,1,0,-0.34,0,0,0,90,0,0,0,0,0,0,0,0,-0.071,0,0,3,0,0,0,69,0,0,0,89.91,1,-0.071,1.928,-0.0655,0.693,0,-0.0655,0,0,0,0,0,0,2,2,0,0,VALID,0,0,0,0,0,1,0,0,0,0,0,0,0,0,0,0,0,0,0,0,1624.61,2300.37,6,0,0.08,0.08,117,14.29,0.08,0.06,7.5,LANDED,X11-D,0:/Integrated Flight Computer/aircraft/x11_d_cfg.ks (inferred preloaded)
7.94,TAKEOFF,TO_GROUND_ROLL,15.48,80,64.52,5.18,-0.09,-0.24,0.07,91.86,0.097,1,0,0,0,0,0,0,0,0,0,0,0,0,0,0,89.91,0,1,0,-0.33,0,0,0,90,0,0,0,0,0,0,0,0,-0.079,0,0,3,0,0,0,69,0,0,0,89.91,1,-0.079,1.953,-0.0666,0.705,0,-0.0666,0,0,0,0,0,0,2,2,0,0,VALID,0,0,0,0,0,1,0,0,0,0,0,0,0,0,0,0,0,0,0,0,1659.8,2298.02,6,0,0.08,0.08,121,14.29,0.08,0.06,7.78,LANDED,X11-D,0:/Integrated Flight Computer/aircraft/x11_d_cfg.ks (inferred preloaded)
8.22,TAKEOFF,TO_GROUND_ROLL,16.71,80,63.29,5.19,-0.1,-0.23,0.08,91.87,0.097,1,0,0,0,0,0,0,0,0,0,0,0,0,0,0,89.91,0,1,0,-0.33,0,0,0,90,0,0,0,0,0,0,0,0,-0.088,0,0,3,0,0,0,69,0,0,0,89.91,1,-0.088,1.966,-0.0674,0.717,0,-0.0674,0,0,0,0,0,0,2,2,0,0,VALID,0,0,0,0,0,1,0,0,0,0,0,0,0,0,0,0,0,0,0,0,1692.86,2295.6,6,0,0.08,0.08,125,14.29,0.08,0.06,8.06,LANDED,X11-D,0:/Integrated Flight Computer/aircraft/x11_d_cfg.ks (inferred preloaded)
8.5,TAKEOFF,TO_GROUND_ROLL,17.96,80,62.04,5.17,-0.1,-0.25,0.05,91.87,0.097,1,0,0,0,0,0,0,0,0,0,0,0,0,0,0,89.91,0,1,0,-0.32,0,0,0,90,0,0,0,0,0,0,0,0,-0.097,0,0,3,0,0,0,69,0,0,0,89.91,1,-0.097,1.967,-0.0679,0.73,0,-0.0679,0,0,0,0,0,0,2,2,0,0,VALID,0,0,0,0,0,1,0,0,0,0,0,0,0,0,0,0,0,0,0,0,1723.89,2293.12,6,0,0.08,0.08,129,14.29,0.08,0.06,8.34,LANDED,X11-D,0:/Integrated Flight Computer/aircraft/x11_d_cfg.ks (inferred preloaded)
8.78,TAKEOFF,TO_GROUND_ROLL,19.24,80,60.76,5.17,-0.11,-0.25,0.06,91.86,0.098,1,0,0,0,0,0,0,0,0,0,0,0,0,0,0,89.91,0,1,0,-0.33,0,0,0.01,90,0,0,0,0,0,0,0,0,-0.107,0,0,3,0,0,0,69,0,0,0,89.91,1,-0.107,1.954,-0.0678,0.742,0,-0.0678,0,0,0,0,0,0,2,2,0,0,VALID,0,0,0,0,0,1,0,0,0,0,0,0,0,0,0,0,0,0,0,0,1753.02,2290.58,6,0,0.08,0.08,133,14.29,0.08,0.06,8.62,LANDED,X11-D,0:/Integrated Flight Computer/aircraft/x11_d_cfg.ks (inferred preloaded)
9.06,TAKEOFF,TO_GROUND_ROLL,20.54,80,59.46,5.19,-0.12,-0.23,0.07,91.83,0.098,1,0,0,0,0,0,0,0,0,0,0,0,0,0,0,89.9,0,1,0,-0.32,0,0,0.01,90,0,0,0,0,0,0,0,0,-0.117,0,0,3,0,0,0,69,0,0,0,89.9,1,-0.117,1.929,-0.0673,0.755,0,-0.0673,0,0,0,0,0,0,2,2,0,0,VALID,0,0,0,0,0,1,0,0,0,0,0,0,0,0,0,0,0,0,0,0,1780.34,2287.98,6,0,0.08,0.08,137,14.29,0.08,0.06,8.9,LANDED,X11-D,0:/Integrated Flight Computer/aircraft/x11_d_cfg.ks (inferred preloaded)
9.34,TAKEOFF,TO_GROUND_ROLL,21.85,80,58.15,5.18,-0.12,-0.24,0.07,91.79,0.099,1,0,0,0,0,0,0,0,0,0,0,0,0,0,0,89.9,0,1,0,-0.32,0,0,0.01,90,0,0,0,0,0,0,0,0,-0.128,0,0,3,0,0,0,69,0,0,0,89.9,1,-0.128,1.893,-0.0664,0.769,0,-0.0664,0,0,0,0,0,0,2,2,0,0,VALID,0,0,0,0,0,1,0,0,0,0,0,0,0,0,0,0,0,0,0,0,1805.96,2285.32,6,0,0.08,0.08,141,14.29,0.08,0.06,9.18,LANDED,X11-D,0:/Integrated Flight Computer/aircraft/x11_d_cfg.ks (inferred preloaded)
9.62,TAKEOFF,TO_GROUND_ROLL,23.19,80,56.81,5.17,-0.13,-0.25,0.05,91.74,0.099,1,0,0,0,0,0,0,0,0,0,0,0,0,0,0,89.9,0,1,0,-0.32,0,0,0.01,90,0,0,0,0,0,0,0,0,-0.14,0,0,3,0,0,0,69,0,0,0,89.9,1,-0.14,1.846,-0.0651,0.782,0,-0.0651,0,0,0,0,0,0,2,2,0,0,VALID,0,0,0,0,0,1,0,0,0,0,0,0,0,0,0,0,0,0,0,0,1829.96,2282.62,6,0,0.08,0.08,145,14.29,0.08,0.06,9.46,LANDED,X11-D,0:/Integrated Flight Computer/aircraft/x11_d_cfg.ks (inferred preloaded)
9.9,TAKEOFF,TO_GROUND_ROLL,24.54,80,55.46,5.18,-0.14,-0.24,0.07,91.68,0.101,1,0,0,0,0,0,0,0,0,0,0,0,0,0,0,89.89,0,1,0,-0.33,0,0,0.01,90,0,0,0,0,0,0,0,0,-0.152,0,0,3,0,0,0,69,0,0,0,89.89,1,-0.152,1.788,-0.0633,0.795,0,-0.0633,0,0,0,0,0,0,2,2,0,0,VALID,0,0,0,0,0,1,0,0,0,0,0,0,0,0,0,0,0,0,0,0,1852.44,2279.86,6,0,0.08,0.08,149,14.29,0.08,0.06,9.74,LANDED,X11-D,0:/Integrated Flight Computer/aircraft/x11_d_cfg.ks (inferred preloaded)
10.18,TAKEOFF,TO_GROUND_ROLL,25.91,80,54.09,5.19,-0.15,-0.23,0.07,91.61,0.102,1,0,0,0,0,0,0,0,0,0,0,0,0,0,0,89.88,0,1,0,-0.32,0,0,0.01,90,0,0,0,0,0,0,0,0,-0.164,0,0,3,0,0,0,69,0,0,0,89.88,1,-0.164,1.722,-0.0613,0.809,0,-0.0613,0,0,0,0,0,0,2,2,0,0,VALID,0,0,0,0,0,1,0,0,0,0,0,0,0,0,0,0,0,0,0,0,1873.47,2277.07,6,0,0.08,0.08,153,14.29,0.08,0.06,10.02,LANDED,X11-D,0:/Integrated Flight Computer/aircraft/x11_d_cfg.ks (inferred preloaded)
10.46,TAKEOFF,TO_GROUND_ROLL,27.29,80,52.71,5.18,-0.15,-0.24,0.06,91.53,0.103,1,0,0,0,0,0,0,0,0,0,0,0,0,0,0,89.88,0,1,0,-0.32,0,0,0.01,90,0,0,0,0,0,0,0,0,-0.177,0,0,3,0,0,0,69,0,0,0,89.88,1,-0.177,1.649,-0.0589,0.823,0,-0.0589,0,0,0,0,0,0,2,2,0,0,VALID,0,0,0,0,0,1,0,0,0,0,0,0,0,0,0,0,0,0,0,0,1893.15,2274.23,6,0,0.08,0.08,157,14.29,0.08,0.06,10.3,LANDED,X11-D,0:/Integrated Flight Computer/aircraft/x11_d_cfg.ks (inferred preloaded)
10.74,TAKEOFF,TO_GROUND_ROLL,28.69,80,51.31,5.18,-0.16,-0.24,0.06,91.44,0.104,1,0,0,0,0,0,0,0,0,0,0,0,0,0,0,89.87,0,1,0,-0.32,0,0,0.01,90,0,0,0,0,0,0,0,0,-0.19,0,0,3,0,0,0,69,0,0,0,89.87,1,-0.19,1.569,-0.0562,0.837,0,-0.0562,0,0,0,0,0,0,2,2,0,0,VALID,0,0,0,0,0,1,0,0,0,0,0,0,0,0,0,0,0,0,0,0,1911.54,2271.35,6,0,0.08,0.08,161,14.29,0.08,0.06,10.58,LANDED,X11-D,0:/Integrated Flight Computer/aircraft/x11_d_cfg.ks (inferred preloaded)
11.02,TAKEOFF,TO_GROUND_ROLL,30.1,80,49.9,5.19,-0.17,-0.22,0.08,91.34,0.105,1,0,0,0,0,0,0,0,0,0,0,0,0,0,0,89.86,0,1,0,-0.32,0,0,0.01,90,0,0,0,0,0,0,0,0,-0.202,0,0,3,0,0,0,69,0,0,0,89.86,1,-0.202,1.483,-0.0533,0.851,0,-0.0533,0,0,0,0,0,0,2,2,0,0,VALID,0,0,0,0,0,1,0,0,0,0,0,0,0,0,0,0,0,0,0,0,1928.71,2268.45,6,0,0.08,0.08,165,14.29,0.08,0.06,10.86,LANDED,X11-D,0:/Integrated Flight Computer/aircraft/x11_d_cfg.ks (inferred preloaded)
11.3,TAKEOFF,TO_GROUND_ROLL,31.53,80,48.47,5.19,-0.17,-0.23,0.07,91.24,0.106,1,0,0,0,0,0,0,0,0,0,0,0,0,0,0,89.85,0,1,0,-0.31,0,0,0.01,90,0,0,0,0,0,0,0,0,-0.215,0,0,3,0,0,0,69,0,0,0,89.85,1,-0.215,1.394,-0.0503,0.865,0,-0.0503,0,0,0,0,0,0,2,2,0,0,VALID,0,0,0,0,0,1,0,0,0,0,0,0,0,0,0,0,0,0,0,0,1944.74,2265.51,6,0,0.08,0.08,169,14.29,0.08,0.06,11.14,LANDED,X11-D,0:/Integrated Flight Computer/aircraft/x11_d_cfg.ks (inferred preloaded)
11.58,TAKEOFF,TO_GROUND_ROLL,32.96,80,47.04,5.18,-0.18,-0.23,0.06,91.14,0.107,1,0,0,0,0,0,0,0,0,0,0,0,0,0,0,89.84,0,1,0,-0.31,0,0,0.01,90,0,0,0,0,0,0,0,0,-0.228,0,0,3,0,0,0,69,0,0,0,89.84,1,-0.228,1.303,-0.0471,0.88,0,-0.0471,0,0,0,0,0,0,2,2,0,0,VALID,0,0,0,0,0,1,0,0,0,0,0,0,0,0,0,0,0,0,0,0,1959.69,2262.54,6,0,0.08,0.08,173,14.29,0.08,0.06,11.42,LANDED,X11-D,0:/Integrated Flight Computer/aircraft/x11_d_cfg.ks (inferred preloaded)
11.86,TAKEOFF,TO_GROUND_ROLL,34.41,80,45.59,5.19,-0.19,-0.23,0.07,91.04,0.108,1,0,0,0,0,0,0,0,0,0,0,0,0,0,0,89.83,0,1,0,-0.31,0,0,0.01,90,0,0,0,0,0,0,0,0,-0.241,0,0,3,0,0,0,69,0,0,0,89.83,1,-0.241,1.209,-0.0438,0.894,0,-0.0438,0,0,0,0,0,0,2,2,0,0,VALID,0,0,0,0,0,1,0,0,0,0,0,0,0,0,0,0,0,0,0,0,1973.62,2259.56,6,0,0.08,0.08,177,14.29,0.08,0.06,11.7,LANDED,X11-D,0:/Integrated Flight Computer/aircraft/x11_d_cfg.ks (inferred preloaded)
12.14,TAKEOFF,TO_GROUND_ROLL,35.86,80,44.14,5.19,-0.2,-0.22,0.08,90.93,0.109,1,0,0,0,0,0,0,0,0,0,0,0,0,0,0,89.81,0,1,0,-0.31,0,0,0.01,90,0,0,0,0,0,0,0,0,-0.253,0,0,3,0,0,0,69,0,0,0,89.81,1,-0.253,1.116,-0.0405,0.909,0,-0.0405,0,0,0,0,0,0,2,2,0,0,VALID,0,0,0,0,0,1,0,0,0,0,0,0,0,0,0,0,0,0,0,0,1986.59,2256.55,6,0,0.08,0.08,181,14.29,0.08,0.06,11.98,LANDED,X11-D,0:/Integrated Flight Computer/aircraft/x11_d_cfg.ks (inferred preloaded)
12.42,TAKEOFF,TO_GROUND_ROLL,37.33,80,42.67,5.19,-0.2,-0.22,0.07,90.83,0.11,1,0,0,0,0,0,0,0,0,0,0,0,0,0,0,89.8,0,1,0,-0.31,0,0,0.02,90,0,0,0,0,0,0,0,0,-0.264,0,0,3,0,0,0,69,0,0,0,89.8,1,-0.264,1.025,-0.0373,0.923,0,-0.0373,0,0,0,0,0,0,2,2,0,0,VALID,0,0,0,0,0,1,0,0,0,0,0,0,0,0,0,0,0,0,0,0,1998.66,2253.53,6,0,0.08,0.08,185,14.29,0.08,0.06,12.26,LANDED,X11-D,0:/Integrated Flight Computer/aircraft/x11_d_cfg.ks (inferred preloaded)
12.7,TAKEOFF,TO_GROUND_ROLL,38.8,80,41.2,5.19,-0.21,-0.22,0.07,90.74,0.13,1,0,0,0,0,0,0,0,0,0,0,0,0,0,0,89.78,0,1,0,-0.31,0,0,0.02,90,0,0,0,0,0,0,0,0,-0.275,0,0,3,0,0,0,69,0,0,0,89.78,1,-0.275,0.957,-0.0364,0.938,0,-0.0364,0,0,0,0,0,0,2,2,0,0,VALID,0,0,0,0,0,1,0,0,0,0,0,0,0,0,0,0,0,0,0,0,2009.87,2250.5,6,0,0.08,0.08,189,14.29,0.08,0.06,12.54,LANDED,X11-D,0:/Integrated Flight Computer/aircraft/x11_d_cfg.ks (inferred preloaded)
12.98,TAKEOFF,TO_GROUND_ROLL,40.29,80,39.71,5.19,-0.22,-0.21,0.08,90.67,0.1,1,0,0,0,0,0,0,0,0,0,0,0,0,0,0,89.76,0,1,0,-0.31,0,0,0.02,90,0,0,0,0,0,0,0,0,-0.282,0,0,3,0,0,0,69,0,0,0,89.76,1,-0.282,0.905,-0.0359,0.953,0,-0.0359,0,0,0,0,0,0,2,2,0,0,VALID,0,0,0,0,0,1,0,0,0,0,0,0,0,0,0,0,0,0,0,0,2020.28,2247.46,6,0,0.08,0.08,193,14.29,0.08,0.06,12.82,LANDED,X11-D,0:/Integrated Flight Computer/aircraft/x11_d_cfg.ks (inferred preloaded)
13.26,TAKEOFF,TO_GROUND_ROLL,41.78,80,38.22,5.19,-0.22,-0.21,0.07,90.6,0.107,1,0,0,0,0,0,0,0,0,0,0,0,0,0,0,89.76,0,1,0,-0.3,0,0,0.02,90,0,0,0,0,0,0,0,0,-0.289,0,0,3,0,0,0,69,0,0,0,89.76,1,-0.289,0.84,-0.0331,0.968,0,-0.0331,0,0,0,0,0,0,2,2,0,0,VALID,0,0,0,0,0,1,0,0,0,0,0,0,0,0,0,0,0,0,0,0,2029.93,2244.42,6,0,0.08,0.08,197,14.29,0.08,0.06,13.1,LANDED,X11-D,0:/Integrated Flight Computer/aircraft/x11_d_cfg.ks (inferred preloaded)
13.54,TAKEOFF,TO_GROUND_ROLL,43.28,80,36.72,5.19,-0.23,-0.22,0.07,90.52,0.102,1,0,0,0,0,0,0,0,0,0,0,0,0,0,0,89.75,0,1,0,-0.31,0,0,0.02,90,0,0,0,0,0,0,0,0,-0.296,0,0,3,0,0,0,69,0,0,0,89.75,1,-0.296,0.768,-0.0297,0.983,0,-0.0297,0,0,0,0,0,0,2,2,0,0,VALID,0,0,0,0,0,1,0,0,0,0,0,0,0,0,0,0,0,0,0,0,2038.88,2241.37,6,0,0.08,0.08,201,14.29,0.08,0.06,13.38,LANDED,X11-D,0:/Integrated Flight Computer/aircraft/x11_d_cfg.ks (inferred preloaded)
13.82,TAKEOFF,TO_GROUND_ROLL,44.78,80,35.22,5.19,-0.24,-0.21,0.08,90.44,0.109,1,0,0,0,0,0,0,0,0,0,0,0,0,0,0,89.75,0,1,0,-0.3,0,0,0.02,90,0,0,0,0,0,0,0,0,-0.303,0,0,3,0,0,0,69,0,0,0,89.75,1,-0.303,0.694,-0.0264,0.998,0,-0.0264,0,0,0,0,0,0,2,2,0,0,VALID,0,0,0,0,0,1,0,0,0,0,0,0,0,0,0,0,0,0,0,0,2047.16,2238.32,6,0,0.08,0.08,205,14.29,0.08,0.06,13.66,LANDED,X11-D,0:/Integrated Flight Computer/aircraft/x11_d_cfg.ks (inferred preloaded)
14.1,TAKEOFF,TO_GROUND_ROLL,46.29,80,33.71,5.19,-0.24,-0.2,0.08,90.36,0.108,1,0,0,0,0,0,0,0,0,0,0,0,0,0,0,89.74,0,1,0,-0.3,0,0,0.02,90,0,0,0,0,0,0,0,0,-0.31,0,0,3,0,0,0,69,0,0,0,89.74,1,-0.31,0.62,-0.023,1,0,-0.023,0,0,0,0,0,0,2,2,0,0,VALID,0,0,0,0,0,1,0,0,0,0,0,0,0,0,0,0,0,0,0,0,2054.81,2235.29,6,0,0.08,0.08,209,14.29,0.08,0.06,13.94,LANDED,X11-D,0:/Integrated Flight Computer/aircraft/x11_d_cfg.ks (inferred preloaded)
14.38,TAKEOFF,TO_GROUND_ROLL,47.81,80,32.19,5.19,-0.25,-0.21,0.07,90.28,0.11,1,0,0,0,0,0,0,0,0,0,0,0,0,0,0,89.73,0,1,0,-0.3,0,0,0.02,90,0,0,0,0,0,0,0,0,-0.317,0,0,3,0,0,0,69,0,0,0,89.73,1,-0.317,0.55,-0.0199,1,0,-0.0199,0,0,0,0,0,0,2,2,0,0,VALID,0,0,0,0,0,1,0,0,0,0,0,0,0,0,0,0,0,0,0,0,2061.87,2232.26,6,0,0.08,0.08,213,14.29,0.08,0.06,14.22,LANDED,X11-D,0:/Integrated Flight Computer/aircraft/x11_d_cfg.ks (inferred preloaded)
14.66,TAKEOFF,TO_GROUND_ROLL,49.33,80,30.67,5.19,-0.26,-0.21,0.08,90.21,0.111,1,0,0,0,0,0,0,0,0,0,0,0,0,0,0,89.72,0,1,0,-0.3,0,0,0.03,90,0,0,0,0,0,0,0,0,-0.323,0,0,3,0,0,0,69,0,0,0,89.72,1,-0.323,0.485,-0.0172,1,0,-0.0172,0,0,0,0,0,0,2,2,0,0,VALID,0,0,0,0,0,1,0,0,0,0,0,0,0,0,0,0,0,0,0,0,2068.38,2229.24,6,0,0.08,0.08,217,14.29,0.08,0.06,14.5,LANDED,X11-D,0:/Integrated Flight Computer/aircraft/x11_d_cfg.ks (inferred preloaded)
14.94,TAKEOFF,TO_GROUND_ROLL,50.86,80,29.14,5.2,-0.26,-0.2,0.08,90.14,0.111,1,0,0,0,0,0,0,0,0,0,0,0,0,0,0,89.72,0,1,0,-0.3,0,0,0.03,90,0,0,0,0,0,0,0,0,-0.328,0,0,3,0,0,0,69,0,0,0,89.72,1,-0.328,0.424,-0.0147,1,0,-0.0147,0,0,0,0,0,0,2,2,0,0,VALID,0,0,0,0,0,1,0,0,0,0,0,0,0,0,0,0,0,0,0,0,2074.37,2226.24,6,0,0.08,0.08,221,14.29,0.08,0.06,14.78,LANDED,X11-D,0:/Integrated Flight Computer/aircraft/x11_d_cfg.ks (inferred preloaded)
15.22,TAKEOFF,TO_GROUND_ROLL,52.39,80,27.61,5.19,-0.27,-0.2,0.08,90.08,0.112,1,0,0,0,0,0,0,0,0,0,0,0,0,0,0,89.71,0,1,0,-0.29,0,0,0.03,90,0,0,0,0,0,0,0,0,-0.333,0,0,3,0,0,0,69,0,0,0,89.71,1,-0.333,0.37,-0.0127,1,0,-0.0127,0,0,0,0,0,0,2,2,0,0,VALID,0,0,0,0,0,1,0,0,0,0,0,0,0,0,0,0,0,0,0,0,2079.88,2223.26,6,0,0.08,0.08,225,14.29,0.08,0.06,15.06,LANDED,X11-D,0:/Integrated Flight Computer/aircraft/x11_d_cfg.ks (inferred preloaded)
15.5,TAKEOFF,TO_GROUND_ROLL,53.92,80,26.08,5.19,-0.28,-0.2,0.08,90.02,0.112,1,0,0,0,0,0,0,0,0,0,0,0,0,0,0,89.7,0,1,0,-0.29,0,0,0.03,90,0,0,0,0,0,0,0,0,-0.337,0,0,3,0,0,0,69,0,0,0,89.7,1,-0.337,0.322,-0.0109,1,0,-0.0109,0,0,0,0,0,0,2,2,0,0,VALID,0,0,0,0,0,1,0,0,0,0,0,0,0,0,0,0,0,0,0,0,2084.94,2220.31,6,0,0.08,0.08,229,14.29,0.08,0.06,15.34,LANDED,X11-D,0:/Integrated Flight Computer/aircraft/x11_d_cfg.ks (inferred preloaded)
15.78,TAKEOFF,TO_GROUND_ROLL,55.46,80,24.54,5.2,-0.28,-0.19,0.08,89.97,0.112,1,0,0,0,0,0,0,0,0,0,0,0,0,0,0,89.69,0,1,0,-0.29,0,0,0.03,90,0,0,0,0,0,0,0,0,-0.34,0,0,3,0,0,0,69,0,0,0,89.69,1,-0.34,0.28,-0.0095,1,0,-0.0095,0,0,0,0,0,0,2,2,0,0,VALID,0,0,0,0,0,1,0,0,0,0,0,0,0,0,0,0,0,0,0,0,2089.57,2217.37,6,0,0.08,0.08,233,14.29,0.08,0.06,15.62,LANDED,X11-D,0:/Integrated Flight Computer/aircraft/x11_d_cfg.ks (inferred preloaded)
16.06,TAKEOFF,TO_GROUND_ROLL,57.01,80,22.99,5.2,-0.29,-0.19,0.09,89.93,0.112,1,0,0,0,0,0,0,0,0,0,0,0,0,0,0,89.68,0,1,0,-0.29,0,0,0.03,90,0,0,0,0,0,0,0,0,-0.342,0,0,3,0,0,0,69,0,0,0,89.68,1,-0.342,0.243,-0.0083,1,0,-0.0083,0,0,0,0,0,0,2,2,0,0,VALID,0,0,0,0,0,1,0,0,0,0,0,0,0,0,0,0,0,0,0,0,2093.81,2214.47,6,0,0.08,0.08,237,14.29,0.08,0.06,15.9,LANDED,X11-D,0:/Integrated Flight Computer/aircraft/x11_d_cfg.ks (inferred preloaded)
16.34,TAKEOFF,TO_GROUND_ROLL,58.55,80,21.45,5.2,-0.29,-0.19,0.09,89.89,0.112,1,0,0,0,0,0,0,0,0,0,0,0,0,0,0,89.68,0,1,0,-0.29,0,0,0.03,90,0,0,0,0,0,0,0,0,-0.344,0,0,3,0,0,0,69,0,0,0,89.68,1,-0.344,0.214,-0.0076,1,0,-0.0076,0,0,0,0,0,0,2,2,0,0,VALID,0,0,0,0,0,1,0,0,0,0,0,0,0,0,0,0,0,0,0,0,2097.68,2211.6,6,0,0.08,0.08,241,14.29,0.08,0.06,16.18,LANDED,X11-D,0:/Integrated Flight Computer/aircraft/x11_d_cfg.ks (inferred preloaded)
16.62,TAKEOFF,TO_GROUND_ROLL,60.1,80,19.9,5.2,-0.3,-0.19,0.09,89.86,0.111,1,0,0,0,0,0,0,0,0,0,0,0,0,0,0,89.67,0,1,0,-0.28,0,0,0.04,90,0,0,0,0,0,0,0,0,-0.344,0,0,3,0,0,0,69,0,0,0,89.67,1,-0.344,0.19,-0.0069,1,0,-0.0069,0,0,0,0,0,0,2,2,0,0,VALID,0,0,0,0,0,1,0,0,0,0,0,0,0,0,0,0,0,0,0,0,2101.21,2208.77,6,0,0.08,0.08,245,14.29,0.08,0.06,16.46,LANDED,X11-D,0:/Integrated Flight Computer/aircraft/x11_d_cfg.ks (inferred preloaded)
16.9,TAKEOFF,TO_GROUND_ROLL,61.65,80,18.35,5.2,-0.31,-0.18,0.09,89.84,0.111,1,0,0,0,0,0,0,0,0,0,0,0,0,0,0,89.67,0,1,0,-0.28,0,0,0.04,90,0,0,0,0,0,0,0,0,-0.345,0,0,3,0,0,0,69,0,0,0,89.67,1,-0.345,0.171,-0.0064,1,0,-0.0064,0,0,0,0,0,0,2,2,0,0,VALID,0,0,0,0,0,1,0,0,0,0,0,0,0,0,0,0,0,0,0,0,2104.42,2205.97,6,0,0.08,0.08,249,14.29,0.08,0.06,16.74,LANDED,X11-D,0:/Integrated Flight Computer/aircraft/x11_d_cfg.ks (inferred preloaded)
17.18,TAKEOFF,TO_GROUND_ROLL,63.21,80,16.79,5.2,-0.31,-0.18,0.09,89.82,0.11,1,0,0,0,0,0,0,0,0,0,0,0,0,0,0,89.67,0,1,0,-0.28,0,0,0.04,90,0,0,0,0,0,0,0,0,-0.344,0,0,3,0,0,0,69,0,0,0,89.67,1,-0.344,0.157,-0.0063,1,0,-0.0063,0,0,0,0,0,0,2,2,0,0,VALID,0,0,0,0,0,1,0,0,0,0,0,0,0,0,0,0,0,0,0,0,2107.34,2203.22,6,0,0.08,0.08,253,14.29,0.08,0.06,17.02,LANDED,X11-D,0:/Integrated Flight Computer/aircraft/x11_d_cfg.ks (inferred preloaded)
17.46,TAKEOFF,TO_GROUND_ROLL,64.76,80,15.24,5.2,-0.32,-0.18,0.09,89.81,0.11,1,0,0,0,0,0,0,0,0,0,0,0,0,0,0,89.66,0,1,0,-0.28,0,0,0.04,90,0,0,0,0,0,0,0,0,-0.343,0,0,3,0,0,0,69,0,0,0,89.66,1,-0.343,0.148,-0.0063,1,0,-0.0063,0,0,0,0,0,0,2,2,0,0,VALID,0,0,0,0,0,1,0,0,0,0,0,0,0,0,0,0,0,0,0,0,2109.98,2200.51,6,0,0.08,0.08,257,14.29,0.08,0.06,17.3,LANDED,X11-D,0:/Integrated Flight Computer/aircraft/x11_d_cfg.ks (inferred preloaded)
17.74,TAKEOFF,TO_GROUND_ROLL,66.32,80,13.68,5.2,-0.32,-0.17,0.09,89.8,0.108,1,0,0,0,0,0,0,0,0,0,0,0,0,0,0,89.66,0,1,0,-0.28,0,0,0.04,90,0,0,0,0,0,0,0,0,-0.342,0,0,3,0,0,0,69,0,0,0,89.66,1,-0.342,0.141,-0.0062,1,0,-0.0062,0,0,0,0,0,0,2,2,0,0,VALID,0,0,0,0,0,1,0,0,0,0,0,0,0,0,0,0,0,0,0,0,2112.37,2197.85,6,0,0.08,0.08,261,14.29,0.08,0.06,17.58,LANDED,X11-D,0:/Integrated Flight Computer/aircraft/x11_d_cfg.ks (inferred preloaded)
18.02,TAKEOFF,TO_GROUND_ROLL,67.88,80,12.12,5.2,-0.33,-0.16,0.1,89.8,0.108,1,0,0,0,0,0,0,0,0,0,0,0,0,0,0,89.66,0,1,0,-0.27,0,0,0.05,90,0,0,0,0,0,0,0,0,-0.34,0,0,3,0,0,0,69,0,0,0,89.66,1,-0.34,0.138,-0.0063,1,0,-0.0063,0,0,0,0,0,0,2,2,0,0,VALID,0,0,0,0,0,1,0,0,0,0,0,0,0,0,0,0,0,0,0,0,2114.53,2195.24,6,0,0.08,0.08,265,14.29,0.08,0.06,17.86,LANDED,X11-D,0:/Integrated Flight Computer/aircraft/x11_d_cfg.ks (inferred preloaded)
18.3,TAKEOFF,TO_GROUND_ROLL,69.45,80,10.55,5.17,-0.14,-0.17,-0.01,89.8,0.108,1,0,0,0,0,0,0,0,0,0,0,0,0,0,0,89.66,0,1,0,-0.17,0,0,0.05,90,0,0,0,0,0,0,0,0,-0.338,0,0,3,0,0,0,69,0,0,0,89.66,1,-0.338,0.134,-0.0062,1,0,-0.0062,0,0,0,0,0,0,2,2,0,0,VALID,0,0,0,0,0,1,0,0,0,0,0,0,0,0,0,0,0,0,0,0,2116.82,2193.11,6,0,0.08,0.08,269,14.29,0.08,0.06,18.14,LANDED,X11-D,0:/Integrated Flight Computer/aircraft/x11_d_cfg.ks (inferred preloaded)
18.58,TAKEOFF,TO_GROUND_ROLL,71.01,80,8.99,5.23,-0.49,-0.14,0.19,89.8,0.105,1,0,0,0,0,0,0,0,0,0,0,0,0,0,0,89.66,0,1,0,-0.35,0,0,0.05,90,0,0,0,0,0,0,0,0,-0.335,0,0,3,0,0,0,69,0,0,0,89.66,1,-0.335,0.142,-0.0074,1,0,-0.0074,0,0,0,0,0,0,2,2,0,0,VALID,0,0,0,0,0,1,0,0,0,0,0,0,0,0,0,0,0,0,0,0,2119.84,2191.99,6,0,0.08,0.08,273,14.29,0.08,0.06,18.42,LANDED,X11-D,0:/Integrated Flight Computer/aircraft/x11_d_cfg.ks (inferred preloaded)
18.86,TAKEOFF,TO_GROUND_ROLL,72.58,80,7.42,5.18,-0.21,-0.18,0.02,89.8,0.11,1,0,0,0,0,0,0,0,0,0,0,0,0,0,0,89.67,0,1,0,-0.2,0,0,0.05,90,0,0,0,0,0,0,0,0,-0.333,0,0,3,0,0,0,69,0,0,0,89.67,1,-0.333,0.135,-0.0063,1,0,-0.0063,0,0,0,0,0,0,2,2,0,0,VALID,0,0,0,0,0,1,0,0,0,0,0,0,0,0,0,0,0,0,0,0,2123.63,2191.91,6,0,0.08,0.08,277,14.29,0.08,0.06,18.7,LANDED,X11-D,0:/Integrated Flight Computer/aircraft/x11_d_cfg.ks (inferred preloaded)
19.14,TAKEOFF,TO_GROUND_ROLL,74.15,80,5.85,5.23,-0.45,-0.13,0.17,89.8,0.105,1,0,0,0,0,0,0,0,0,0,0,0,0,0,0,89.67,0,1,0,-0.32,0,0,0.05,90,0,0,0,0,0,0,0,0,-0.33,0,0,3,0,0,0,69,0,0,0,89.67,1,-0.33,0.128,-0.0059,1,0,-0.0059,0,0,0,0,0,0,2,2,0,0,VALID,0,0,0,0,0,1,0,0,0,0,0,0,0,0,0,0,0,0,0,0,2128.13,2192.78,6,0,0.08,0.08,281,14.29,0.08,0.06,18.98,LANDED,X11-D,0:/Integrated Flight Computer/aircraft/x11_d_cfg.ks (inferred preloaded)
19.42,TAKEOFF,TO_GROUND_ROLL,75.72,80,4.28,5.2,-0.26,-0.16,0.05,89.8,0.107,1,0,0,0,0,0,0,0,0,0,0,0,0,0,0,89.68,0,1,0,-0.22,0,0,0.06,90,0,0,0,0,0,0,0,0,-0.327,0,0,3,0,0,0,69,0,0,0,89.68,1,-0.327,0.122,-0.0055,1,0,-0.0055,0,0,0,0,0,0,2,2,0,0,VALID,0,0,0,0,0,1,0,0,0,0,0,0,0,0,0,0,0,0,0,0,2133.38,2194.62,6,0,0.08,0.08,285,14.29,0.08,0.06,19.26,LANDED,X11-D,0:/Integrated Flight Computer/aircraft/x11_d_cfg.ks (inferred preloaded)
19.7,TAKEOFF,TO_GROUND_ROLL,77.3,80,2.7,5.22,-0.43,-0.14,0.15,89.79,0.106,1,0,0,0,0,0,0,0,0,0,0,0,0,0,0,89.68,0,1,0,-0.3,0,0,0.06,90,0,0,0,0,0,0,0,0,-0.324,0,0,3,0,0,0,69,0,0,0,89.68,1,-0.324,0.115,-0.0052,1,0,-0.0052,0,0,0,0,0,0,2,2,0,0,VALID,0,0,0,0,0,1,0,0,0,0,0,0,0,0,0,0,0,0,0,0,2139.33,2197.38,6,0,0.08,0.08,289,14.29,0.08,0.06,19.54,LANDED,X11-D,0:/Integrated Flight Computer/aircraft/x11_d_cfg.ks (inferred preloaded)
19.98,TAKEOFF,TO_GROUND_ROLL,78.88,80,1.12,5.2,-0.3,-0.15,0.07,89.79,0.105,1,0,0,0,0,0,0,0,0,0,0,0,0,0,0,89.68,0,1,0,-0.23,0,0,0.06,90,0,0,0,0,0,0,0,0,-0.321,0,0,3,0,0,0,69,0,0,0,89.68,1,-0.321,0.108,-0.0048,1,0,-0.0048,0,0,0,0,0,0,2,2,0,0,VALID,0,0,0,0,0,1,0,0,0,0,0,0,0,0,0,0,0,0,0,0,2146.01,2201.05,6,0,0.08,0.08,293,14.29,0.08,0.06,19.82,LANDED,X11-D,0:/Integrated Flight Computer/aircraft/x11_d_cfg.ks (inferred preloaded)
20.26,TAKEOFF,TO_GROUND_ROLL,80.47,80,-0.47,5.22,-0.41,-0.13,0.14,89.79,0.108,1,0,0,0,0,0,0,0,0,0,0,0,0,0,0,89.68,0,1,0,-0.28,0,0,0.06,90,0,0,0,0,0,0,0,0,-0.317,0,0,3,0,0,0,69,0,0,0,89.68,1,-0.317,0.102,-0.0046,1,0,-0.0046,0,0,0,0,0,0,2,2,0,0,VALID,0,0,0,0,0,1,0,0,0,0,0,0,0,0,0,0,0,0,0,0,2153.38,2205.6,6,0,0.08,0.08,297,14.29,0.08,0.06,20.1,LANDED,X11-D,0:/Integrated Flight Computer/aircraft/x11_d_cfg.ks (inferred preloaded)
20.54,TAKEOFF,TO_GROUND_ROLL,82.06,80,-2.06,5.21,-0.32,-0.14,0.09,89.78,0.105,1,0,0,0,0,0,0,0,0,0,0,0,0,0,0,89.69,0,1,0,-0.23,0,0,0.06,90,0,0,0,0,0,0,0,0,-0.314,0,0,3,0,0,0,69,0,0,0,89.69,1,-0.314,0.096,-0.0043,1,0,-0.0043,0,0,0,0,0,0,2,2,0,0,VALID,0,0,0,0,0,1,0,0,0,0,0,0,0,0,0,0,0,0,0,0,2161.44,2211.02,6,0,0.08,0.08,301,14.29,0.08,0.06,20.38,LANDED,X11-D,0:/Integrated Flight Computer/aircraft/x11_d_cfg.ks (inferred preloaded)
20.82,TAKEOFF,TO_GROUND_ROLL,83.66,80,-3.66,5.22,-0.4,-0.13,0.13,89.78,0.108,1,0,0,0,0,0,0,0,0,0,0,0,0,0,0,89.69,0,1,0,-0.27,0,0,0.07,90,0,0,0,0,0,0,0,0,-0.311,0,0,3,0,0,0,69,0,0,0,89.69,1,-0.311,0.09,-0.004,1,0,-0.004,0,0,0,0,0,0,2,2,0,0,VALID,0,0,0,0,0,1,0,0,0,0,0,0,0,0,0,0,0,0,0,0,2170.19,2217.27,6,0,0.08,0.08,305,14.29,0.08,0.06,20.66,LANDED,X11-D,0:/Integrated Flight Computer/aircraft/x11_d_cfg.ks (inferred preloaded)
21.1,TAKEOFF,TO_GROUND_ROLL,85.27,80,-5.27,5.22,-0.34,-0.12,0.1,89.78,0.105,1,0,0,0,0,0,0,0,0,0,0,0,0,0,0,89.69,0,1,0,-0.23,0,0,0.07,90,0,0,0,0,0,0,0,0,-0.307,0,0,3,0,0,0,69,0,0,0,89.69,1,-0.307,0.084,-0.0037,1,0,-0.0037,0,0,0,0,0,0,2,2,0,0,VALID,0,0,0,0,0,1,0,0,0,0,0,0,0,0,0,0,0,0,0,0,2179.62,2224.35,6,0,0.08,0.08,309,14.29,0.08,0.06,20.94,LANDED,X11-D,0:/Integrated Flight Computer/aircraft/x11_d_cfg.ks (inferred preloaded)
21.38,TAKEOFF,TO_GROUND_ROLL,86.88,80,-6.88,5.22,-0.4,-0.11,0.13,89.78,0.108,1,0,0,0,0,0,0,0,0,0,0,0,0,0,0,89.7,0,1,0,-0.26,0,0,0.07,90,0,0,0,0,0,0,0,0,-0.303,0,0,3,0,0,0,69,0,0,0,89.7,1,-0.303,0.079,-0.0035,1,0,-0.0035,0,0,0,0,0,0,2,2,0,0,VALID,0,0,0,0,0,1,0,0,0,0,0,0,0,0,0,0,0,0,0,0,2189.7,2232.23,6,0,0.08,0.08,313,14.29,0.08,0.06,21.22,LANDED,X11-D,0:/Integrated Flight Computer/aircraft/x11_d_cfg.ks (inferred preloaded)
21.66,TAKEOFF,TO_GROUND_ROLL,88.51,80,-8.51,5.22,-0.36,-0.12,0.11,89.78,0.105,1,0,0,0,0,0,0,0,0,0,0,0,0,0,0,89.7,0,1,0,-0.23,0,0,0.07,90,0,0,0,0,0,0,0,0,-0.299,0,0,3,0,0,0,69,0,0,0,89.7,1,-0.299,0.074,-0.0032,1,0,-0.0032,0,0,0,0,0,0,2,2,0,0,VALID,0,0,0,0,0,1,0,0,0,0,0,0,0,0,0,0,0,0,0,0,2200.44,2240.89,6,0,0.08,0.08,317,14.29,0.08,0.06,21.5,LANDED,X11-D,0:/Integrated Flight Computer/aircraft/x11_d_cfg.ks (inferred preloaded)
21.94,TAKEOFF,TO_GROUND_ROLL,90.14,80,-10.14,5.22,-0.39,-0.11,0.13,89.77,0.107,1,0,0,0,0,0,0,0,0,0,0,0,0,0,0,89.71,0,1,0,-0.25,0,0,0.08,90,0,0,0,0,0,0,0,0,-0.295,0,0,3,0,0,0,69,0,0,0,89.71,1,-0.295,0.069,-0.003,1,0,-0.003,0,0,0,0,0,0,2,2,0,0,VALID,0,0,0,0,0,1,0,0,0,0,0,0,0,0,0,0,0,0,0,0,2211.82,2250.31,6,0,0.08,0.08,321,14.29,0.08,0.06,21.78,LANDED,X11-D,0:/Integrated Flight Computer/aircraft/x11_d_cfg.ks (inferred preloaded)
22.22,TAKEOFF,TO_GROUND_ROLL,91.78,80,-11.78,5.22,-0.37,-0.1,0.12,89.77,0.105,1,0,0,0,0,0,0,0,0,0,0,0,0,0,0,89.71,0,1,0,-0.23,0,0,0.08,90,0,0,0,0,0,0,0,0,-0.291,0,0,3,0,0,0,69,0,0,0,89.71,1,-0.291,0.064,-0.0028,1,0,-0.0028,0,0,0,0,0,0,2,2,0,0,VALID,0,0,0,0,0,1,0,0,0,0,0,0,0,0,0,0,0,0,0,0,2223.83,2260.47,6,0,0.08,0.08,325,14.29,0.08,0.06,22.06,LANDED,X11-D,0:/Integrated Flight Computer/aircraft/x11_d_cfg.ks (inferred preloaded)
22.5,TAKEOFF,TO_GROUND_ROLL,93.43,80,-13.43,5.23,-0.39,-0.1,0.13,89.77,0.107,1,0,0,0,0,0,0,0,0,0,0,0,0,0,0,89.71,0,1,0,-0.24,0,0,0.08,90,0,0,0,0,0,0,0,0,-0.287,0,0,3,0,0,0,69,0,0,0,89.71,1,-0.287,0.06,-0.0026,1,0,-0.0026,0,0,0,0,0,0,2,2,0,0,VALID,0,0,0,0,0,1,0,0,0,0,0,0,0,0,0,0,0,0,0,0,2236.46,2271.35,6,0,0.08,0.08,329,14.29,0.08,0.06,22.34,LANDED,X11-D,0:/Integrated Flight Computer/aircraft/x11_d_cfg.ks (inferred preloaded)
22.78,TAKEOFF,TO_GROUND_ROLL,95.08,80,-15.08,5.22,-0.38,-0.1,0.12,89.77,0.105,1,0,0,0,0,0,0,0,0,0,0,0,0,0,0,89.72,0,1,0,-0.23,0,0,0.08,90,0,0,0,0,0,0,0,0,-0.283,0,0,3,0,0,0,69,0,0,0,89.72,1,-0.283,0.056,-0.0024,1,0,-0.0024,0,0,0,0,0,0,2,2,0,0,VALID,0,0,0,0,0,1,0,0,0,0,0,0,0,0,0,0,0,0,0,0,2249.69,2282.93,6,0,0.08,0.08,333,14.29,0.08,0.06,22.62,LANDED,X11-D,0:/Integrated Flight Computer/aircraft/x11_d_cfg.ks (inferred preloaded)
23.06,TAKEOFF,TO_GROUND_ROLL,96.75,80,-16.75,5.23,-0.39,-0.09,0.14,89.77,0.106,1,0,0,0,0,0,0,0,0,0,0,0,0,0,0,89.72,0,1,0,-0.23,0,0,0.09,90,0,0,0,0,0,0,0,0,-0.279,0,0,3,0,0,0,69,0,0,0,89.72,1,-0.279,0.052,-0.0022,1,0,-0.0022,0,0,0,0,0,0,2,2,0,0,VALID,0,0,0,0,0,1,0,0,0,0,0,0,0,0,0,0,0,0,0,0,2263.5,2295.19,6,0,0.08,0.08,337,14.29,0.08,0.06,22.9,LANDED,X11-D,0:/Integrated Flight Computer/aircraft/x11_d_cfg.ks (inferred preloaded)
23.34,TAKEOFF,TO_GROUND_ROLL,98.43,80,-18.43,5.23,-0.38,-0.08,0.13,89.77,0.105,1,0,0,0,0,0,0,0,0,0,0,0,0,0,0,89.73,0,1,0,-0.22,0,0,0.09,90,0,0,0,0,0,0,0,0,-0.274,0,0,3,0,0,0,69,0,0,0,89.73,1,-0.274,0.048,-0.0021,1,0,-0.0021,0,0,0,0,0,0,2,2,0,0,VALID,0,0,0,0,0,1,0,0,0,0,0,0,0,0,0,0,0,0,0,0,2277.89,2308.11,6,0,0.08,0.08,341,14.29,0.08,0.06,23.18,LANDED,X11-D,0:/Integrated Flight Computer/aircraft/x11_d_cfg.ks (inferred preloaded)
23.62,TAKEOFF,TO_GROUND_ROLL,100.12,80,-20.12,5.23,-0.4,-0.08,0.14,89.77,0.106,1,0,0,0,0,0,0,0,0,0,0,0,0,0,0,89.73,0,1,0,-0.23,0,0,0.09,90,0,0,0,0,0,0,0,0,-0.27,0,0,3,0,0,0,69,0,0,0,89.73,1,-0.27,0.044,-0.0019,1,0,-0.0019,0,0,0,0,0,0,2,2,0,0,VALID,0,0,0,0,0,1,0,0,0,0,0,0,0,0,0,0,0,0,0,0,2292.84,2321.67,6,0,0.08,0.08,345,14.29,0.08,0.06,23.46,LANDED,X11-D,0:/Integrated Flight Computer/aircraft/x11_d_cfg.ks (inferred preloaded)
23.9,TAKEOFF,TO_GROUND_ROLL,101.83,80,-21.83,5.22,-0.32,-0.07,0.14,89.78,0.105,1,0,0,0,0,0,0,0,0,0,0,0,0,0,0,89.73,0,1,0,-0.22,0,0,0.09,90,0,0,0,0,0,0,0,0,-0.265,0,0,3,0,0,0,69,0,0,0,89.73,1,-0.265,0.041,-0.0018,1,0,-0.0018,0,0,0,0,0,0,2,2,0,0,VALID,0,0,0,0,0,1,0,0,0,0,0,0,0,0,0,0,0,0,0,0,2308.33,2335.84,6,0,0.08,0.08,349,14.29,0.08,0.06,23.74,LANDED,X11-D,0:/Integrated Flight Computer/aircraft/x11_d_cfg.ks (inferred preloaded)
24.18,TAKEOFF,TO_GROUND_ROLL,103.54,80,-23.54,5.25,-0.45,-0.06,0.17,89.77,0.108,1,0,0,0,0,0,0,0,0,0,0,0,0,0,0,89.74,0,1,0,-0.23,0,0,0.1,90,0,0,0,0,0,0,0,0,-0.261,0,0,3,0,0,0,69,0,0,0,89.74,1,-0.261,0.034,-0.0013,1,0,-0.0013,0,0,0,0,0,0,2,2,0,0,VALID,0,0,0,0,0,1,0,0,0,0,0,0,0,0,0,0,0,0,0,0,2324.34,2350.6,6,0,0.08,0.08,353,14.29,0.08,0.06,24.02,LANDED,X11-D,0:/Integrated Flight Computer/aircraft/x11_d_cfg.ks (inferred preloaded)
24.46,TAKEOFF,TO_GROUND_ROLL,105.27,80,-25.27,5.22,-0.35,-0.07,0.12,89.76,0.109,1,0,0,0,0,0,0,0,0,0,0,0,0,0,0,89.76,0,1,0,-0.2,0,0,0.1,90,0,0,0,0,0,0,0,0,-0.256,0,0,3,0,0,0,69,0,0,0,89.76,1,-0.256,0.006,0.001,1,0,0.001,0,0,0,0,0,0,2,2,0,0,VALID,0,0,0,0,0,1,0,0,0,0,0,0,0,0,0,0,0,0,0,0,2340.85,2365.94,6,0,0.08,0.08,357,14.29,0.08,0.06,24.3,LANDED,X11-D,0:/Integrated Flight Computer/aircraft/x11_d_cfg.ks (inferred preloaded)
24.74,TAKEOFF,TO_GROUND_ROLL,107.01,80,-27.01,5.25,-0.43,-0.05,0.16,89.74,0.106,1,0,0,0,0,0,0,0,0,0,0,0,0,0,0,89.76,0,1,0,-0.22,0,0,0.1,90,0,0,0,0,0,0,0,0,-0.25,0,0,3,0,0,0,69,0,0,0,89.76,1,-0.25,-0.02,0.0021,1,0,0.0021,0,0,0,0,0,0,2,2,0,0,VALID,0,0,0,0,0,1,0,0,0,0,0,0,0,0,0,0,0,0,0,0,2357.84,2381.81,6,0,0.08,0.08,361,14.29,0.08,0.06,24.58,LANDED,X11-D,0:/Integrated Flight Computer/aircraft/x11_d_cfg.ks (inferred preloaded)
25.02,TAKEOFF,TO_GROUND_ROLL,108.77,80,-28.77,5.23,-0.36,-0.05,0.14,89.71,0.114,1,0,0,0,0,0,0,0,0,0,0,0,0,0,0,89.78,0,1,0,-0.2,0,0,0.11,90,0,0,0,0,0,0,0,0,-0.245,0,0,3,0,0,0,69,0,0,0,89.78,1,-0.245,-0.063,0.0053,1,0,0.0053,0,0,0,0,0,0,2,2,0,0,VALID,0,0,0,0,0,1,0,0,0,0,0,0,0,0,0,0,0,0,0,0,2375.3,2398.2,6,0,0.08,0.08,365,14.29,0.08,0.06,24.86,LANDED,X11-D,0:/Integrated Flight Computer/aircraft/x11_d_cfg.ks (inferred preloaded)
25.3,TAKEOFF,TO_GROUND_ROLL,110.53,80,-30.53,5.25,-0.42,-0.04,0.16,89.66,0.115,1,0,0,0,0,0,0,0,0,0,0,0,0,0,0,89.8,0,1,0,-0.21,0,0,0.11,90,0,0,0,0,0,0,0,0,-0.238,0,0,3,0,0,0,69,0,0,0,89.8,1,-0.238,-0.143,0.012,1,0,0.012,0,0,0,0,0,0,2,2,0,0,VALID,0,0,0,0,0,1,0,0,0,0,0,0,0,0,0,0,0,0,0,0,2393.18,2415.08,6,0,0.08,0.08,369,14.29,0.08,0.06,25.14,LANDED,X11-D,0:/Integrated Flight Computer/aircraft/x11_d_cfg.ks (inferred preloaded)
25.58,TAKEOFF,TO_GROUND_ROLL,112.32,80,-32.32,5.24,-0.37,-0.04,0.15,89.58,0.117,1,0,0,0,0,0,0,0,0,0,0,0,0,0,0,89.83,0,1,0,-0.19,0,0,0.11,90,0,0,0,0,0,0,0,0,-0.231,0,0,3,0,0,0,69,0,0,0,89.83,1,-0.231,-0.252,0.0196,1,0,0.0196,0,0,0,0,0,0,2,2,0,0,VALID,0,0,0,0,0,1,0,0,0,0,0,0,0,0,0,0,0,0,0,0,2411.48,2432.42,6,0,0.08,0.08,373,14.29,0.08,0.06,25.42,LANDED,X11-D,0:/Integrated Flight Computer/aircraft/x11_d_cfg.ks (inferred preloaded)
25.86,TAKEOFF,TO_GROUND_ROLL,114.11,80,-34.11,5.25,-0.41,-0.03,0.17,89.46,0.135,1,0,0,0,0,0,0,0,0,0,0,0,0,0,0,89.86,0,1,0,-0.2,0,0,0.12,90,0,0,0,0,0,0,0,0,-0.221,0,0,3,0,0,0,69,0,0,0,89.86,1,-0.221,-0.398,0.0289,1,0,0.0289,0,0,0,0,0,0,2,2,0,0,VALID,0,0,0,0,0,1,0,0,0,0,0,0,0,0,0,0,0,0,0,0,2430.15,2450.18,6,0,0.08,0.08,377,14.29,0.08,0.06,25.7,LANDED,X11-D,0:/Integrated Flight Computer/aircraft/x11_d_cfg.ks (inferred preloaded)
26.14,TAKEOFF,TO_GROUND_ROLL,115.92,80,-35.92,5.25,-0.38,-0.02,0.16,89.37,0.146,1,0,0,0,0,0,0,0,0,0,0,0,0,0,0,89.84,0,1,0,-0.19,0,0,0.12,90,0,0,0,0,0,0,0,0,-0.206,0,0,3,0,0,0,69,0,0,0,89.84,1,-0.206,-0.471,0.0279,1,0,0.0279,0,0,0,0,0,0,2,2,0,0,VALID,0,0,0,0,0,1,0,0,0,0,0,0,0,0,0,0,0,0,0,0,2449.17,2468.34,6,0,0.08,0.08,381,14.29,0.08,0.06,25.98,LANDED,X11-D,0:/Integrated Flight Computer/aircraft/x11_d_cfg.ks (inferred preloaded)
26.42,TAKEOFF,TO_GROUND_ROLL,117.75,80,-37.75,5.25,-0.4,-0.02,0.17,89.34,0.094,1,0,0,0,0,0,0,0,0,0,0,0,0,0,0,89.82,0,1,0,-0.19,0,0,0.12,90,0,0,0,0,0,0,0,0,-0.186,0,0,3,0,0,0,69,0,0,0,89.82,1,-0.186,-0.483,0.0239,1,0,0.0239,0,0,0,0,0,0,2,2,0,0,VALID,0,0,0,0,0,1,0,0,0,0,0,0,0,0,0,0,0,0,0,0,2468.52,2486.86,6,0,0.08,0.08,385,14.29,0.08,0.06,26.26,LANDED,X11-D,0:/Integrated Flight Computer/aircraft/x11_d_cfg.ks (inferred preloaded)
26.7,TAKEOFF,TO_GROUND_ROLL,119.59,80,-39.59,5.25,-0.38,-0.02,0.16,89.34,0.108,1,0,0,0,0,0,0,0,0,0,0,0,0,0,0,89.82,0,1,0,-0.18,0,0,0.13,90,0,0,0,0,0,0,0,0,-0.166,0,0,3,0,0,0,69,0,0,0,89.82,1,-0.166,-0.48,0.0216,1,0,0.0216,0,0,0,0,0,0,2,2,0,0,VALID,0,0,0,0,0,1,0,0,0,0,0,0,0,0,0,0,0,0,0,0,2488.15,2505.72,6,0,0.08,0.08,389,14.29,0.08,0.06,26.54,LANDED,X11-D,0:/Integrated Flight Computer/aircraft/x11_d_cfg.ks (inferred preloaded)
27,TAKEOFF,TO_ROTATE,121.58,80,-41.58,5.26,-0.4,0,0.18,89.36,0.097,1,0,0,0,0,0,0,0,0,0,0,0,0,0,0,89.84,0.495,1,0,-0.19,0,0,0.13,90,0,0,0,0,0,0,0,0,-0.145,0,0,3,0,0,0,69,0,0,0,89.84,1,-0.145,-0.48,0.0213,1,0,0.0213,0,0.1446,0.495,0.497,0.08,0,2,2,0,0,VALID,0,0,0,0,0,1,0,0,0,0,0,0,0,0,0,0,0,0,0,0,2509.47,2526.23,6,0,0.08,0.08,393,13.33,0.08,0.06,26.82,LANDED,X11-D,0:/Integrated Flight Computer/aircraft/x11_d_cfg.ks (inferred preloaded)
27.28,TAKEOFF,TO_ROTATE,123.45,80,-43.45,5.29,-0.38,0.05,0.22,89.38,0.102,1,0,0,0,0,0,0,0,0,0,0,0,0,0,0,89.86,1.503,1,0,-0.18,0,0,0.13,90,0,0,0,0,0,0,0,0,-0.125,0,0,3,0,0,0,69,0,0,0,89.86,1,-0.125,-0.477,0.0209,1,0,0.0209,0,0.2689,1.503,1.453,0.08,0,2,2,0,0,VALID,0,0,0,0,0,1,0,0,0,0,0,0,0,0,0,0,0,0,0,0,2529.57,2545.61,6,0,0.08,0.08,397,14.29,0.08,0.06,27.1,LANDED,X11-D,0:/Integrated Flight Computer/aircraft/x11_d_cfg.ks (inferred preloaded)
27.56,TAKEOFF,TO_ROTATE,125.33,80,-45.33,5.36,-0.37,0.14,0.31,89.41,0.096,1,0,0,0,0,0,0,0,0,0,0,0,0,0,0,89.88,2.511,1,0,-0.17,0,0,0.14,90,0,0,0,0,0,0,0,0,-0.106,0,0,3,0,0,0,69,0,0,0,89.88,1,-0.106,-0.467,0.0199,1,0,0.0199,0,0.388,2.511,2.369,0.08,0,2,2,0,0,VALID,0,0,0,0,0,1,0,0,0,0,0,0,0,0,0,0,0,0,0,0,2549.74,2565.09,6,0,0.08,0.08,401,14.29,0.08,0.06,27.38,LANDED,X11-D,0:/Integrated Flight Computer/aircraft/x11_d_cfg.ks (inferred preloaded)
27.86,TAKEOFF,TO_ROTATE,127.34,80,-47.34,5.48,-0.31,0.3,0.43,89.44,0.099,1,0,0,0,0,0,0,0,0,0,0,0,0,0,0,89.9,3.591,1,0,-0.14,0,0,0.14,90,0,0,0,0,0,0,0,0,-0.085,0,0,3,0,0,0,69,0,0,0,89.9,1,-0.085,-0.459,0.0196,1,0,0.0196,0,0.5082,3.591,3.294,0.08,0,2,2,0,0,VALID,0,0,0,0,0,1,0,0,0,0,0,0,0,0,0,0,0,0,0,0,2571.32,2585.96,6,0,0.08,0.08,405,13.33,0.08,0.06,27.68,LANDED,X11-D,0:/Integrated Flight Computer/aircraft/x11_d_cfg.ks (inferred preloaded)
28.14,TAKEOFF,TO_ROTATE,129.21,80,-49.21,5.8,-0.41,0.64,0.79,89.47,0.095,1,0,0,0,0,0,0,0,0,0,0,0,0,0,0,89.91,4.599,1,0,-0.16,0,0,0.14,90,0,0,0,0,0,0,0,0,-0.067,0,0,3,0,0,0,69,0,0,0,89.91,1,-0.067,-0.449,0.019,1,0,0.019,0,0.5951,4.599,3.962,0.08,0,2,2,0,0,VALID,0,0,0,0,0,1,0,0,0,0,0,0,0,0,0,0,0,0,0,0,2591.32,2605.32,6,0,0.08,0.08,409,14.29,0.08,0.06,27.96,LANDED,X11-D,0:/Integrated Flight Computer/aircraft/x11_d_cfg.ks (inferred preloaded)
28.42,TAKEOFF,TO_ROTATE,131.08,80,-51.08,6.32,-0.04,1.32,1.36,89.48,0.088,1,0,0,0,0,0,0,0,0,0,0,0,0,0,0,89.95,5.607,1,0,-0.04,0,0,0.15,90,0,0,0,0,0,0,0,0,-0.049,0,0,3,0,0,0,69,0,0,0,89.95,1,-0.049,-0.463,0.0213,1,0,0.0213,0,0.6373,5.607,4.287,0.08,0,2,2,0,0,VALID,0,0,0,0,0,1,0,0,0,0,0,0,0,0,0,0,0,0,0,0,2611.32,2624.74,6,0,0.08,0.08,413,14.29,0.08,0.06,28.24,LANDED,X11-D,0:/Integrated Flight Computer/aircraft/x11_d_cfg.ks (inferred preloaded)
28.7,TAKEOFF,TO_ROTATE,132.93,80,-52.93,7.21,-0.01,2.34,2.33,89.49,0.098,1,0,0,0,0,0,0,0,0,0,0,0,0,0,0,89.97,6.615,1,0,0.01,0,0,0.15,90,0,0,0,0,0,0,0,0,-0.033,0,0,3,0,0,0,69,0,0,0,89.97,1,-0.033,-0.481,0.0227,1,0,0.0227,0,0.6355,6.615,4.273,0.08,0,2,2,0,0,VALID,0,0,0,0,0,1,0,0,0,0,0,0,0,0,0,0,0,0,0,0,2631.48,2644.34,6,0,0.08,0.08,417,14.29,0.08,0.06,28.52,LANDED,X11-D,0:/Integrated Flight Computer/aircraft/x11_d_cfg.ks (inferred preloaded)
28.98,TAKEOFF,TO_ROTATE,134.77,80,-54.77,8.43,0.13,3.86,3.82,89.49,0.104,1,0,0,0,0,0,0,0,0,0,0,0,0,0,0,89.98,7.623,1,0,0.04,0,0,0.15,90,0,0,0,0,0,0,0,0,-0.016,0,0,3,0,0,0,69,0,0,0,89.98,1,-0.016,-0.487,0.0224,1,0,0.0224,0,0.5697,7.623,3.767,0.08,0,2,2,0,0,VALID,0,0,0,0,0,1,0,0,0,0,0,0,0,0,0,0,0,0,0,0,2651.82,2664.15,6,0,0.08,0.08,421,14.29,0.08,0.06,28.8,LANDED,X11-D,0:/Integrated Flight Computer/aircraft/x11_d_cfg.ks (inferred preloaded)
29.26,TAKEOFF,TO_ROTATE,136.58,80,-56.58,10.06,0.57,5.79,5.56,89.51,0.104,1,0,0,0,0,0,0,0,0,0,0,0,0,0,0,89.98,8.631,1,0,0.23,0,0,0.16,90,0,0,0,0,0,0,0,0,0,0,0,3,0,0,0,69,0,0,0,89.98,1,0,-0.473,0.0204,1,0,0.0204,0,0.4498,8.631,2.845,0.08,0,2,2,0,0,VALID,0,0,0,0,0,1,0,0,0,0,0,0,0,0,0,0,0,0,0,0,2672.17,2683.96,6,0,0.08,0.08,425,14.29,0.08,0.06,29.08,LANDED,X11-D,0:/Integrated Flight Computer/aircraft/x11_d_cfg.ks (inferred preloaded)
29.54,TAKEOFF,TO_ROTATE,138.26,80,-58.26,11.85,1.74,7.84,7.07,89.53,0.101,1,0,0,0,0,0,0,0,0,0,0,0,0,0,0,90.01,9.639,1,0,0.79,0,0,0.16,90,0,0,0,0,0,0,0,0,0.018,0,0,3,0,0,0,69,0,0,0,90.01,1,0.018,-0.481,0.0224,1,0,0.0224,0,0.3145,9.639,1.804,0.08,0,2,2,0,0,VALID,0,0,0,0,0,1,0,0,0,0,0,0,0,0,0,0,0,0,0,0,2691.41,2702.55,6,0,0.08,0.08,429,14.29,0.08,0.06,29.36,LANDED,X11-D,0:/Integrated Flight Computer/aircraft/x11_d_cfg.ks (inferred preloaded)
29.82,TAKEOFF,TO_ROTATE,139.88,80,-59.88,13.28,1.37,9.04,8.49,89.55,0.074,1,0,0,0,0,0,0,0,0,0,0,0,0,0,0,90.03,10,1,0,0.56,0,0,0.17,90,0,0,0,0,0,0,0,0,0.034,0,0,3,0,0,0,69,0,0,0,90.03,1,0.034,-0.478,0.0218,1,0,0.0218,0,0.2054,10,0.964,0.08,0,2,2,0,0,VALID,0,0,0,0,0,1,0,0,0,0,0,0,0,0,0,0,0,0,0,0,2709.85,2720.59,6,0,0.08,0.08,433,14.29,0.08,0.06,29.64,LANDED,X11-D,0:/Integrated Flight Computer/aircraft/x11_d_cfg.ks (inferred preloaded)
30.1,TAKEOFF,TO_ROTATE,141.5,80,-61.5,14.82,1.87,10.43,9.71,89.55,0.047,1,0,0,0,0,0,0,0,0,0,0,0,0,0,0,90.05,10,1,0,0.74,0,0,0.17,90,0,0,0,0,0,0,0,0,0.051,0,0,3,0,0,0,69,0,0,0,90.05,1,0.051,-0.497,0.0235,1,0,0.0235,0,0.0236,10,-0.434,0.08,0,2,2,0,0,VALID,0,0,0,0,0,1,0,0,0,0,0,0,0,0,0,0,0,0,0,0,2728.64,2738.88,6,0,0.08,0.08,437,14.29,0.08,0.06,29.92,LANDED,X11-D,0:/Integrated Flight Computer/aircraft/x11_d_cfg.ks (inferred preloaded)
30.36,TAKEOFF,TO_ROTATE,142.93,80,-62.93,16.38,2.16,11.86,10.93,89.55,0.022,1,0,0,0,0,0,0,0,0,0,0,0,0,0,0,90,10,1,0,0.87,0,0,0.17,90,0.9927,0.0001,0.1206,10,90,0,0,0,0,0,0,3,0,0,0,69,0,0,0,90,1,0,-0.448,0,0,3,0,0,0,10,-1.861,0,0,2,2,0,0,VALID,0,0,0,0,0,1,0,0,0,0,0,0,0,0,0,0,0,0,0,0,2745.28,2755.05,6,0,0.08,0.08,441,15.38,0.08,0.06,30.18,FLYING,X11-D,0:/Integrated Flight Computer/aircraft/x11_d_cfg.ks (inferred preloaded)
30.64,TAKEOFF,TO_ROTATE,144.27,80,-64.27,18.08,3.1,13.09,11.85,89.54,-0.028,1,0,0,0,0,0,0,0,0,0,0,0,0,0,0,90,10,0,1,1.23,0,0,10,90,0.9927,0.0001,0.1206,10,90,0,0,0,0,0,0,3,0,0,0,69,0,0,0,90,1,0,-0.465,0,0,3,0,0,0,10,-3.086,0,0,2,2,0,0,VALID,0,0,0,0,0,1,0,0,0,0,0,0,0,0,0,0,0,0,0,0,2761.32,2770.48,6,0,0.08,0.08,445,14.29,0.08,0.06,30.46,FLYING,X11-D,0:/Integrated Flight Computer/aircraft/x11_d_cfg.ks (inferred preloaded)
30.92,TAKEOFF,TO_CLIMB,145.46,80,-65.46,19.64,4.1,13.71,12.12,89.53,0.086,1,0,0,0,0,0,0,0,0,0,0,0,0,0,0,90,13.323,0,1,1.62,0,0,10,90,0.998,0.0002,0.0629,13.32,90,0,0,0,0,0,0,3,0,0,0,69,0,0,0,90,1,0,-0.469,0,0,3,0,0,0,10,-3.547,0,0,1,1,0,0,VALID,0,0,0,0,0,1,0,0,0,0,0,0,0,0,0,0,0,0,0,0,2775.3,2784.04,6,0,0.08,0.08,449,14.29,0.08,0.06,30.76,FLYING,X11-D,0:/Integrated Flight Computer/aircraft/x11_d_cfg.ks (inferred preloaded)
31.2,TAKEOFF,TO_CLIMB,146.72,80,-66.72,21.43,5.06,14.3,12.35,89.55,0.175,1,0,0,0,0,0,0,0,0,0,0,0,0,0,0,90,12.539,0,1,1.97,0,0,12.76,90,0.9971,0.0002,0.0767,12.54,90,0,0,0,0,0,0,3,0,0,0,69,0,0,0,90,1,0,-0.445,0,0,3,0,0,0,10,-3.547,0,0,1,1,0,0,VALID,0,0,0,0,0,1,0,0,0,0,0,0,0,0,0,0,0,0,0,0,2790.13,2798.5,6,0,0.08,0.08,453,14.29,0.08,0.06,31.04,FLYING,X11-D,0:/Integrated Flight Computer/aircraft/x11_d_cfg.ks (inferred preloaded)
31.48,TAKEOFF,TO_CLIMB,147.95,80,-67.95,23.53,6.09,14.92,12.6,89.58,0.252,1,0,0,0,0,0,0,0,0,0,0,0,0,0,0,90,11.755,0,1,2.36,0,0,11.98,90,0.9959,0.0002,0.0904,11.75,90,0,0,0,0,0,0,3,0,0,0,69,0,0,0,90,1,0,-0.422,0,0,3,0,0,0,10,-3.547,0,0,1,1,0,0,VALID,0,0,0,0,0,1,0,0,0,0,0,0,0,0,0,0,0,0,0,0,2804.71,2812.69,6,0,0.08,0.08,457,14.29,0.08,0.06,31.32,FLYING,X11-D,0:/Integrated Flight Computer/aircraft/x11_d_cfg.ks (inferred preloaded)
31.76,TAKEOFF,TO_CLIMB,149.14,80,-69.14,25.96,7.22,15.59,12.86,89.6,0.329,1,0,0,0,0,0,0,0,0,0,0,0,0,0,0,90,10.971,0,1,2.77,0,0,11.2,90,0.9946,0.0001,0.1041,10.97,90,0,0,0,0,0,0,3,0,0,0,69,0,0,0,90,1,0,-0.397,0,0,3,0,0,0,10,-3.547,0,0,1,1,0,0,VALID,0,0,0,0,0,1,0,0,0,0,0,0,0,0,0,0,0,0,0,0,2818.95,2826.55,6,0,0.08,0.08,461,14.29,0.08,0.06,31.6,FLYING,X11-D,0:/Integrated Flight Computer/aircraft/x11_d_cfg.ks (inferred preloaded)
32.04,TAKEOFF,TO_CLIMB,150.29,80,-70.29,28.74,8.47,16.29,13.12,89.63,0.418,0.9971,0,0,0,0,0,0,0,0,0,0,0,0,0,0,90,10.187,0,1,3.23,0,0,10.41,90,0.993,0.0001,0.1177,10.19,90,0,0,0,0,0,0,3,0,0,0,69,0,0,0,90,1,0,-0.367,0,0,3,0,0,0,10,-3.547,0,0,1,1,0,0,VALID,0,0,0,0,0,1,0,0,0,0,0,0,0,0,0,0,0,0,0,0,2832.67,2839.9,6,0,0.08,0.08,465,14.29,0.08,0.06,31.88,FLYING,X11-D,0:/Integrated Flight Computer/aircraft/x11_d_cfg.ks (inferred preloaded)
32.32,TAKEOFF,TO_CLIMB,151.39,80,-71.39,31.89,9.81,17,13.36,89.67,0.525,0.9861,0,0,0,0,0,0,0,0,0,0,0,0,0,0,90,9.403,0,1,3.71,0,0,9.63,90,0.9913,0.0001,0.1314,9.4,90,0,0,0,0,0,0,3,0,0,0,69,0,0,0,90,1,0,-0.331,0,0,3,0,0,0,10,-3.547,0,0,1,1,0,0,VALID,0,0,0,0,0,1,0,0,0,0,0,0,0,0,0,0,0,0,0,0,2844.54,2852.73,6,0,0.08,0.08,469,14.29,0.08,0.06,32.16,FLYING,X11-D,0:/Integrated Flight Computer/aircraft/x11_d_cfg.ks (inferred preloaded)
32.6,TAKEOFF,TO_CLIMB,152.45,80,-72.45,35.44,11.24,17.75,13.6,89.71,0.66,0.9755,0,0,0,0,0,0,0,0,0,0,0,0,0,0,90,8.619,0,1,4.22,0,0,8.84,90,0.9894,0.0001,0.145,8.62,90,0,0,0,0,0,0,3,0,0,0,69,0,0,0,90,1,0,-0.286,0,0,3,0,0,0,10,-3.547,0,0,1,1,0,0,VALID,0,0,0,0,0,1,0,0,0,0,0,0,0,0,0,0,0,0,0,0,2853,2865.01,6,0,0.08,0.08,473,14.29,0.08,0.06,32.44,FLYING,X11-D,0:/Integrated Flight Computer/aircraft/x11_d_cfg.ks (inferred preloaded)
32.88,TAKEOFF,TO_CLIMB,153.45,80,-73.45,39.41,12.76,18.51,13.84,89.77,0.798,0.9655,0,0,0,0,0,0,0,0,0,0,0,0,0,0,90,7.835,0,1,4.75,0,0,8.06,90,0.9873,0.0001,0.1586,7.83,90,0,0,0,0,0,0,3,0,0,0,69,0,0,0,90,1,0,-0.231,0,0,3,0,0,0,10,-3.547,0,0,1,1,0,0,VALID,0,0,0,0,0,1,0,0,0,0,0,0,0,0,0,0,0,0,0,0,2858.28,2876.66,6,0,0.08,0.08,477,14.29,0.08,0.06,32.72,FLYING,X11-D,0:/Integrated Flight Computer/aircraft/x11_d_cfg.ks (inferred preloaded)
33.16,TAKEOFF,TO_CLIMB,154.33,80,-74.33,43.62,14.66,18.91,13.65,89.82,0.912,0.9567,0,0,0,0,0,0,0,0,0,0,0,0,0,0,90,7.051,0,1,5.43,0,0,7.28,90,0.9851,0.0001,0.1722,7.05,90,0,0,0,0,0,0,3,0,0,0,69,0,0,0,90,1,0,-0.175,0,0,3,0,0,0,10,-3.547,0,0,1,1,0,0,VALID,0,0,0,0,0,1,0,0,0,0,0,0,0,0,0,0,0,0,0,0,2860.07,2886.81,6,0,0.08,0.08,481,14.29,0.08,0.06,33,FLYING,X11-D,0:/Integrated Flight Computer/aircraft/x11_d_cfg.ks (inferred preloaded)
33.44,TAKEOFF,TO_CLIMB,154.99,80,-74.99,47.34,16.53,17.83,12.03,89.84,0.971,0.9501,0,0,0,0,0,0,0,0,0,0,0,0,0,0,90,7,0,1,6.09,0,0,7,90,0.9849,0.0001,0.1731,7,90,0,0,0,0,0,0,3,0,0,0,69,0,0,0,90,1,0,-0.157,0,0,3,0,0,0,10,-3.547,0,0,1,1,0,0,VALID,0,0,0,0,0,1,0,0,0,0,0,0,0,0,0,0,0,0,0,0,2857.47,2894.17,6,0,0.08,0.08,485,14.29,0.08,0.06,33.28,FLYING,X11-D,0:/Integrated Flight Computer/aircraft/x11_d_cfg.ks (inferred preloaded)
33.72,TAKEOFF,TO_CLIMB,155.86,80,-75.86,50.45,17.34,15.35,9.29,89.82,1.013,0.9414,0,0,0,0,0,0,0,0,0,0,0,0,0,0,90,7,0,1,6.35,0,0,7,90,0.9849,0.0001,0.1732,7,90,0,0,0,0,0,0,3,0,0,0,69,0,0,0,90,1,0,-0.183,0,0,3,0,0,0,10,-3.547,0,0,1,1,0,0,VALID,0,0,0,0,0,1,0,0,0,0,0,0,0,0,0,0,0,0,0,0,2855.53,2903.79,6,0,0.08,0.08,489,14.29,0.08,0.06,33.56,FLYING,X11-D,0:/Integrated Flight Computer/aircraft/x11_d_cfg.ks (inferred preloaded)
34,TAKEOFF,TO_CLIMB,157.26,80,-77.26,54.02,16.7,13.51,7.61,89.81,1.112,0.9274,0,0,0,0,0,0,0,0,0,0,0,0,0,0,90,7,0,1,6.06,0,0,7,90,0.9849,0.0001,0.1733,7,90,0,0,0,0,0,0,3,0,0,0,69,0,0,0,90,1,0,-0.19,0,0,3,0,0,0,10,-3.547,0,0,1,1,0,0,VALID,0,0,0,0,0,1,0,0,0,0,0,0,0,0,0,0,0,0,0,0,2858.56,2920.05,6,0,0.08,0.08,493,14.29,0.08,0.06,33.84,FLYING,X11-D,0:/Integrated Flight Computer/aircraft/x11_d_cfg.ks (inferred preloaded)
34.28,TAKEOFF,TO_CLIMB,158.47,80,-78.47,58.04,15.27,12.78,7.35,89.82,1.128,0.9153,0,0,0,0,0,0,0,0,0,0,0,0,0,0,90,7,0,1,5.5,0,0,7,90,0.9849,0.0001,0.1733,7,90,0,0,0,0,0,0,3,0,0,0,69,0,0,0,90,1,0,-0.177,0,0,3,0,0,0,10,-3.547,0,0,1,1,0,0,VALID,0,0,0,0,0,1,0,0,0,0,0,0,0,0,0,0,0,0,0,0,2857.13,2934.25,6,0,0.08,0.08,497,14.29,0.08,0.06,34.12,FLYING,X11-D,0:/Integrated Flight Computer/aircraft/x11_d_cfg.ks (inferred preloaded)
34.56,TAKEOFF,TO_CLIMB,159.57,80,-79.57,62.43,13.79,13.18,8.23,89.85,1.07,0.9043,0,0,0,0,0,0,0,0,0,0,0,0,0,0,90,7,0,1,4.94,0,0,7,90,0.9848,0.0001,0.1734,7,90,0,0,0,0,0,0,3,0,0,0,69,0,0,0,90,1,0,-0.154,0,0,3,0,0,0,10,-3.547,0,0,1,1,0,0,VALID,0,0,0,0,0,1,0,0,0,0,0,0,0,0,0,0,0,0,0,0,2852.41,2947.22,6,0,0.08,0.08,501,14.29,0.08,0.06,34.4,FLYING,X11-D,0:/Integrated Flight Computer/aircraft/x11_d_cfg.ks (inferred preloaded)
34.84,TAKEOFF,TO_CLIMB,160.7,80,-80.7,67.16,13.83,14.49,9.61,89.88,0.897,0.893,0,0,0,0,0,0,0,0,0,0,0,0,0,0,90,7,0,1,4.92,0,0,7,90,0.9848,0.0001,0.1735,7,90,0,0,0,0,0,0,3,0,0,0,69,0,0,0,90,1,0,-0.12,0,0,3,0,0,0,10,-3.547,0,0,1,1,0,0,VALID,0,0,0,0,0,1,0,0,0,0,0,0,0,0,0,0,0,0,0,0,2846.55,2960.94,6,0,0.08,0.08,505,14.29,0.08,0.06,34.68,FLYING,X11-D,0:/Integrated Flight Computer/aircraft/x11_d_cfg.ks (inferred preloaded)
35.12,TAKEOFF,TO_CLIMB,161.96,80,-81.96,71.86,15.05,15.34,10.14,89.88,0.825,0.8804,0,0,0,0,0,0,0,0,0,0,0,0,0,0,90,7,0,1,5.31,0,0,7,90,0.9848,0.0001,0.1736,7,90,0,0,0,0,0,0,3,0,0,0,69,0,0,0,90,1,0,-0.119,0,0,3,0,0,0,10,-3.547,0,0,1,1,0,0,VALID,0,0,0,0,0,1,0,0,0,0,0,0,0,0,0,0,0,0,0,0,2840.78,2976.18,6,0,0.08,0.08,509,14.29,0.08,0.06,34.96,FLYING,X11-D,0:/Integrated Flight Computer/aircraft/x11_d_cfg.ks (inferred preloaded)
35.4,TAKEOFF,TO_CLIMB,163.11,80,-83.11,76.2,16.01,15.25,9.79,89.89,0.866,0.8689,0,0,0,0,0,0,0,0,0,0,0,0,0,0,90,7,0,1,5.6,0,0,7,90,0.9848,0.0001,0.1736,7,90,0,0,0,0,0,0,3,0,0,0,69,0,0,0,90,1,0,-0.11,0,0,3,0,0,0,10,-3.547,0,0,1,1,0,0,VALID,0,0,0,0,0,1,0,0,0,0,0,0,0,0,0,0,0,0,0,0,2831.55,2989.87,6,0,0.08,0.08,513,14.29,0.08,0.06,35.24,FLYING,X11-D,0:/Integrated Flight Computer/aircraft/x11_d_cfg.ks (inferred preloaded)
35.68,TAKEOFF,TO_CLIMB,164.38,80,-84.38,80.47,16.76,14.7,9.04,89.9,0.846,0.8562,0,0,0,0,0,0,0,0,0,0,0,0,0,0,90,7,0,1,5.82,0,0,7,90,0.9848,0.0001,0.1737,7,90,0,0,0,0,0,0,3,0,0,0,69,0,0,0,90,1,0,-0.104,0,0,3,0,0,0,10,-3.547,0,0,1,1,0,0,VALID,0,0,0,0,0,1,0,0,0,0,0,0,0,0,0,0,0,0,0,0,2822.44,3005.19,6,0,0.08,0.08,517,14.29,0.08,0.06,35.52,FLYING,X11-D,0:/Integrated Flight Computer/aircraft/x11_d_cfg.ks (inferred preloaded)
35.96,TAKEOFF,TO_CLIMB,165.78,80,-85.78,84.85,17.22,14.09,8.3,89.89,0.776,0.8422,0,0,0,0,0,0,0,0,0,0,0,0,0,0,90,7,0,1,5.93,0,0,7,90,0.9848,0.0001,0.1738,7,90,0,0,0,0,0,0,3,0,0,0,69,0,0,0,90,1,0,-0.107,0,0,3,0,0,0,10,-3.547,0,0,1,1,0,0,VALID,0,0,0,0,0,1,0,0,0,0,0,0,0,0,0,0,0,0,0,0,2813.02,3022.09,6,0,0.08,0.08,521,14.29,0.08,0.06,35.8,FLYING,X11-D,0:/Integrated Flight Computer/aircraft/x11_d_cfg.ks (inferred preloaded)
36.24,TAKEOFF,TO_CLIMB,167.25,80,-87.25,89.51,17.53,13.73,7.88,89.89,0.753,0.8275,0,0,0,0,0,0,0,0,0,0,0,0,0,0,90,7,0,1,5.98,0,0,7,90,0.9848,0.0001,0.1739,7,90,0,0,0,0,0,0,3,0,0,0,69,0,0,0,90,1,0,-0.106,0,0,3,0,0,0,10,-3.547,0,0,1,1,0,0,VALID,0,0,0,0,0,1,0,0,0,0,0,0,0,0,0,0,0,0,0,0,2802.57,3039.96,6,0,0.08,0.08,525,14.29,0.08,0.06,36.08,FLYING,X11-D,0:/Integrated Flight Computer/aircraft/x11_d_cfg.ks (inferred preloaded)
36.52,TAKEOFF,TO_CLIMB,168.72,80,-88.72,94.36,17.76,13.56,7.66,89.9,0.725,0.82,0,0,0,0,0,0,0,0,0,0,0,0,0,0,90,7,0,1,6.01,0,0,7,90,0.9848,0.0001,0.1739,7,90,0,0,0,0,0,0,3,0,0,0,69,0,0,0,90,1,0,-0.102,0,0,3,0,0,0,10,-3.547,0,0,1,1,0,0,VALID,0,0,0,0,0,1,0,0,0,0,0,0,0,0,0,0,0,0,0,0,2790.38,3057.98,6,0,0.08,0.08,529,14.29,0.08,0.06,36.36,FLYING,X11-D,0:/Integrated Flight Computer/aircraft/x11_d_cfg.ks (inferred preloaded)
36.8,TAKEOFF,TO_CLIMB,170.17,80,-90.17,99.42,18,13.56,7.62,89.91,0.705,0.82,0,0,0,0,0,0,0,0,0,0,0,0,0,0,90,7,0,1,6.04,0,0,7,90,0.9847,0.0001,0.174,7,90,0,0,0,0,0,0,3,0,0,0,69,0,0,0,90,1,0,-0.094,0,0,3,0,0,0,10,-3.547,0,0,1,1,0,0,VALID,0,0,0,0,0,1,0,0,0,0,0,0,0,0,0,0,0,0,0,0,2779.26,3075.9,6,0,0.08,0.08,533,14.29,0.08,0.06,36.64,FLYING,X11-D,0:/Integrated Flight Computer/aircraft/x11_d_cfg.ks (inferred preloaded)
37.08,TAKEOFF,TO_CLIMB,171.58,80,-91.58,104.58,18.63,13.56,7.49,89.92,0.724,0.82,0,0,0,0,0,0,0,0,0,0,0,0,0,0,90,7,0,1,6.2,0,0,7,90,0.9847,0.0001,0.1741,7,90,0,0,0,0,0,0,3,0,0,0,69,0,0,0,90,1,0,-0.081,0,0,3,0,0,0,10,-3.547,0,0,1,1,0,0,VALID,0,0,0,0,0,1,0,0,0,0,0,0,0,0,0,0,0,0,0,0,2770.08,3093.25,6,0,0.08,0.08,537,14.29,0.08,0.06,36.92,FLYING,X11-D,0:/Integrated Flight Computer/aircraft/x11_d_cfg.ks (inferred preloaded)
37.36,TAKEOFF,TO_CLIMB,172.98,80,-92.98,109.74,18.94,13.39,7.28,89.93,0.709,0.82,0,0,0,0,0,0,0,0,0,0,0,0,0,0,90,7,0,1,6.25,0,0,7,90,0.9847,0.0001,0.1742,7,90,0,0,0,0,0,0,3,0,0,0,69,0,0,0,90,1,0,-0.071,0,0,3,0,0,0,10,-3.547,0,0,1,1,0,0,VALID,0,0,0,0,0,1,0,0,0,0,0,0,0,0,0,0,0,0,0,0,2762.74,3110.51,6,0,0.08,0.08,541,14.29,0.08,0.06,37.2,FLYING,X11-D,0:/Integrated Flight Computer/aircraft/x11_d_cfg.ks (inferred preloaded)
37.64,TAKEOFF,TO_CLIMB,174.41,80,-94.41,115.02,19.09,13.32,7.17,89.93,0.681,0.82,0,0,0,0,0,0,0,0,0,0,0,0,0,0,90,7,0,1,6.25,0,0,7,90,0.9847,0.0001,0.1743,7,90,0,0,0,0,0,0,3,0,0,0,69,0,0,0,90,1,0,-0.066,0,0,3,0,0,0,10,-3.547,0,0,1,1,0,0,VALID,0,0,0,0,0,1,0,0,0,0,0,0,0,0,0,0,0,0,0,0,2757.89,3128.31,6,0,0.08,0.08,545,14.29,0.08,0.06,37.48,FLYING,X11-D,0:/Integrated Flight Computer/aircraft/x11_d_cfg.ks (inferred preloaded)
37.92,TAKEOFF,TO_CLIMB,175.84,80,-95.84,120.47,19.44,13.3,7.08,89.94,0.652,0.82,0,0,0,0,0,0,0,0,0,0,0,0,0,0,90,7,0,1,6.31,0,0,7,90,0.9847,0.0001,0.1744,7,90,0,0,0,0,0,0,3,0,0,0,69,0,0,0,90,1,0,-0.061,0,0,3,0,0,0,10,-3.547,0,0,1,1,0,0,VALID,0,0,0,0,0,1,0,0,0,0,0,0,0,0,0,0,0,0,0,0,2754.89,3146.11,6,0,0.08,0.08,549,14.29,0.08,0.06,37.76,FLYING,X11-D,0:/Integrated Flight Computer/aircraft/x11_d_cfg.ks (inferred preloaded)
38.2,TAKEOFF,TO_CLIMB,177.29,80,-97.29,126.09,19.88,13.46,7.18,89.95,0.618,0.82,0,0,0,0,0,0,0,0,0,0,0,0,0,0,90,7,0,1,6.4,0,0,7,90,0.9847,0.0001,0.1744,7,90,0,0,0,0,0,0,3,0,0,0,69,0,0,0,90,1,0,-0.049,0,0,3,0,0,0,10,-3.547,0,0,1,1,0,0,VALID,0,0,0,0,0,1,0,0,0,0,0,0,0,0,0,0,0,0,0,0,2753.66,3164.13,6,0,0.08,0.08,553,14.29,0.08,0.06,38.04,FLYING,X11-D,0:/Integrated Flight Computer/aircraft/x11_d_cfg.ks (inferred preloaded)
38.48,TAKEOFF,TO_CLIMB,178.62,80,-98.62,131.55,20.26,13.21,6.83,89.95,0.582,0.82,0,0,0,0,0,0,0,0,0,0,0,0,0,0,90,7,0,1,6.47,0,0,7,90,0.9847,0.0001,0.1745,7,90,0,0,0,0,0,0,3,0,0,0,69,0,0,0,90,1,0,-0.053,0,0,3,0,0,0,10,-3.547,0,0,1,1,0,0,VALID,0,0,0,0,0,1,0,0,0,0,0,0,0,0,0,0,0,0,0,0,2752.55,3180.65,6,0,0.08,0.08,557,14.29,0.08,0.06,38.32,FLYING,X11-D,0:/Integrated Flight Computer/aircraft/x11_d_cfg.ks (inferred preloaded)
