t_s,phase,subphase,ias_ms,vapp_ms,spd_err_ms,agl_m,gear_h_m,vs_ms,pitch_deg,aoa_deg,hdg_deg,bank_deg,thr_cmd,thr_cur,thr_intg,at_gain,at_tau_s,at_a_up,at_a_dn,at_kp_thr,at_ki_spd,at_thr_slew,as_cmd_deg,as_cap_deg,as_raw_deg,as_spd_err_ms,as_active,aa_hdg_cmd_deg,aa_fpa_cmd_deg,aa_fbw,aa_dir,actual_fpa_deg,ftf_hdg_err_deg,ftf_fix_idx,kos_steer_pit_deg,kos_steer_hdg_deg,aa_dir_vx,aa_dir_vy,aa_dir_vz,aa_dir_pitch_deg,aa_dir_hdg_deg,ils_loc_m,ils_gs_m,ils_dist_km,loc_corr_deg,gs_corr_deg,gs_latched,active_gs_ang_deg,ils_intercept_alt_m,d_gs_ms,fpa_preclamped_deg,gs_nom_alt_m,flare_fpa_cmd,flare_tgt_vs,flare_frac,flare_round_blend_h,flare_round_blend_ttg,flare_round_blend,flare_mode,flare_auth_limited,flare_auth_reason,flare_vs_err,flare_fpa_err,flare_pitch_err,flare_theta_cmd_raw,flare_theta_cmd_clamped,flare_theta_clamp_active,flare_aoa_clamp_active,flare_pitch_in_cmd,elev_defl_avg_deg,elev_defl_max_deg,elev_defl_n,flare_ctrl_h_m,flare_req_up_a,flare_thr_floor,flare_tecs_et_err,flare_tecs_eb_err,flare_tecs_h_ref,flare_tecs_v_ref,flare_gamma_ref,flare_gamma_eb_term,flare_gamma_unsat,steer_hdg_deg,steer_blend,ro_loc_corr_deg,ro_hdg_err_deg,ro_yaw_tgt,ro_yaw_scale,ro_yaw_gate,yaw_cmd,roll_cmd,pitch_cmd,ro_pitch_tgt_deg,ro_pitch_err_deg,ro_pitch_ff,ro_roll_assist,flaps_cur,flaps_tgt,asc_j_ab,asc_j_rk,asc_validity,asc_q_pa,asc_q_raw_pa,asc_mach,asc_apo_m,asc_drag_n,asc_w_prop,asc_edot_aero,asc_edot_orb,asc_pitch_bias,asc_blend,asc_spooling,asc_ab_thr_ratio,asc_ab_t_now,asc_ab_t_avail,asc_ab_ign_on,asc_ab_flameouts,asc_rk_t_now,asc_rk_t_avail,asc_rk_ign_on,asc_rk_flameouts,ship_thrust,ship_avail_thrust,ship_ign_on,ship_flameouts,ifc_raw_dt_s,ifc_dt_s,ifc_loop_n,ifc_hz_est,ifc_raw_dt_max_s,ifc_raw_dt_min_s,phase_el_s,status,craft_name,cfg_file
0.16,APPROACH,ILS_TRACK,154.33,152,-2.33,741.25,662.26,-12.31,10.88,15.2,269.83,0.352,0,0,0,0,0,0,0,0,0,0,0,0,0,0,0,0,0,1,0,-4.58,0,0,0,90,0,0,0,0,0,7.02,-488.47,22.051,0,0,0,3,741.25,0,0,1229.95,0,0,0,0,0,0,,0,NONE,0,0,0,0,0,0,0,0,0,0,0,662.26,0,0,0,0,0,0,0,0,0,269.82,0,0,0,0,0,0,0,0,0,0,0,0,0,0,0,0,0,VALID,0,0,0,0,0,1,0,0,0,0,0,0,0,0,0,0,0,0,0,0,298.96,1081.51,2,0,0.14,0.14,1,3.7,0.14,0.02,0.16,FLYING,X10-H,0:/Integrated Flight Computer/aircraft/x10_h_cfg.ks (inferred preloaded)
0.46,APPROACH,ILS_TRACK,154.4,152,-2.4,737.72,658.71,-11.61,11.16,15.23,269.81,0.058,0,0,0,1,0.6,2.105,0.75,0.35,0.0168,0.4,1.031,21.215,1.031,2.399,1,269.91,0,0,1,-4.34,0,0,0,269.91,-0.1048,-0.0016,-0.9945,0,269.91,6.82,-489.36,22.006,-0.093,0,0,3,741.25,-3.266,0,1227.56,0,0,0,0,0,0,,0,NONE,0,0,0,0,0,0,0,0,0,0,0,658.71,0,0,0,0,0,0,0,0,0,269.82,0,0,0,0,0,0,0,0,0,0,0,0,0,1,3,0,0,VALID,0,0,0,0,0,1,0,0,0,0,0,0,0,0,0,0,0,0,0,0,269.22,1082.09,2,0,0.08,0.08,4,10,0.14,0.08,0.46,FLYING,X10-H,0:/Integrated Flight Computer/aircraft/x10_h_cfg.ks (inferred preloaded)
0.76,APPROACH,ILS_TRACK,154.27,152,-2.27,734.01,655.33,-10.97,10.16,13.9,269.74,0.015,0,0,0,1,0.6,3.745,0.75,0.35,0.0168,0.4,0.892,21.249,0.892,2.277,1,269.92,0,0,1,-4.08,0,0,0,269.91,-0.1049,-0.0014,-0.9945,0,269.92,6.6,-490.47,21.957,-0.081,0,0,3,741.25,-4.025,0,1224.99,0,0,0,0,0,0,,0,NONE,0,0,0,0,0,0,0,0,0,0,0,655.33,0,0,0,0,0,0,0,0,0,269.82,0,0,0,0,0,0,0,0,0,0,0,0,0,1,3,0,0,VALID,0,0,0,0,0,1,0,0,0,0,0,0,0,0,0,0,0,0,0,0,242.24,1081.78,2,0,0.08,0.08,7,10,0.12,0.08,0.76,FLYING,X10-H,0:/Integrated Flight Computer/aircraft/x10_h_cfg.ks (inferred preloaded)
1.12,APPROACH,ILS_TRACK,154.35,152,-2.35,729.49,651.35,-11.05,8.14,11.89,269.77,0.173,0,0,0,1,0.6,4.5,0.75,0.35,0.0168,0.4,0.967,21.231,0.967,2.343,1,269.93,0,0,1,-4.08,0,0,0,269.93,-0.105,-0.0012,-0.9945,0,269.93,6.33,-491.92,21.898,-0.067,0,0,3,741.25,-4.029,0,1221.91,0,0,0,0,0,0,,0,NONE,0,0,0,0,0,0,0,0,0,0,0,651.35,0,0,0,0,0,0,0,0,0,269.82,0,0,0,0,0,0,0,0,0,0,0,0,0,2,3,0,0,VALID,0,0,0,0,0,1,0,0,0,0,0,0,0,0,0,0,0,0,0,0,213.57,1082.41,2,0,0.12,0.12,10,8.33,0.12,0.08,1.12,FLYING,X10-H,0:/Integrated Flight Computer/aircraft/x10_h_cfg.ks (inferred preloaded)
1.46,APPROACH,ILS_TRACK,154.56,152,-2.56,725.35,647.49,-11.69,7.01,11.07,269.76,0.082,0,0,0,1,0.6,4.5,0.75,0.35,0.0168,0.4,1.204,21.172,1.204,2.552,1,269.93,0,0,1,-4.3,0,0,0,269.94,-0.1051,-0.0012,-0.9945,0,269.93,6.08,-493.18,21.842,-0.067,0,0,3,741.25,-3.443,0,1219,0,0,0,0,0,0,,0,NONE,0,0,0,0,0,0,0,0,0,0,0,647.49,0,0,0,0,0,0,0,0,0,269.82,0,0,0,0,0,0,0,0,0,0,0,0,0,3,3,0,0,VALID,0,0,0,0,0,1,0,0,0,0,0,0,0,0,0,0,0,0,0,0,189.74,1083.59,2,0,0.1,0.1,13,8.82,0.12,0.1,1.46,FLYING,X10-H,0:/Integrated Flight Computer/aircraft/x10_h_cfg.ks (inferred preloaded)
1.74,APPROACH,ILS_TRACK,154.68,152,-2.68,722.16,644.14,-12.22,7.42,11.76,269.75,0.038,0,0,0,1,0.6,4.5,0.75,0.35,0.0168,0.4,1.348,21.136,1.348,2.68,1,269.95,0,0,1,-4.5,0,0,0,269.94,-0.1051,-0.0009,-0.9945,0,269.95,5.88,-494,21.797,-0.05,0,0,3,741.25,-2.669,0,1216.61,0,0,0,0,0,0,,0,NONE,0,0,0,0,0,0,0,0,0,0,0,644.14,0,0,0,0,0,0,0,0,0,269.82,0,0,0,0,0,0,0,0,0,0,0,0,0,3,3,0,0,VALID,0,0,0,0,0,1,0,0,0,0,0,0,0,0,0,0,0,0,0,0,172.09,1084.37,2,0,0.08,0.08,16,10.71,0.1,0.08,1.74,FLYING,X10-H,0:/Integrated Flight Computer/aircraft/x10_h_cfg.ks (inferred preloaded)
2.04,APPROACH,ILS_TRACK,154.66,152,-2.66,718.99,640.45,-12.34,9.13,13.6,269.75,0.003,0,0,0,1,0.6,4.5,0.75,0.35,0.0168,0.4,1.336,21.139,1.336,2.669,1,269.96,0,0,1,-4.58,0,0,0,269.95,-0.1052,-0.0007,-0.9944,0,269.96,5.66,-494.64,21.748,-0.043,0,0,3,741.25,-1.833,0,1214.04,0,0,0,0,0,0,,0,NONE,0,0,0,0,0,0,0,0,0,0,0,640.45,0,0,0,0,0,0,0,0,0,269.82,0,0,0,0,0,0,0,0,0,0,0,0,0,3,3,0,0,VALID,0,0,0,0,0,1,0,0,0,0,0,0,0,0,0,0,0,0,0,0,154.92,1084.57,2,0,0.08,0.08,19,10,0.12,0.08,2.04,FLYING,X10-H,0:/Integrated Flight Computer/aircraft/x10_h_cfg.ks (inferred preloaded)
2.34,APPROACH,ILS_TRACK,154.33,152,-2.33,715.82,636.86,-11.64,10.8,14.96,269.76,0.062,0,0,-0.189,1,0.6,4.5,0.75,0.35,0.0168,0.4,0.996,21.223,0.996,2.369,1,269.97,0,0,1,-4.35,0,0,0,269.96,-0.1053,-0.0005,-0.9944,0,269.97,5.45,-495.23,21.699,-0.031,0,0,3,741.25,-2.184,0,1211.48,0,0,0,0,0,0,,0,NONE,0,0,0,0,0,0,0,0,0,0,0,636.86,0,0,0,0,0,0,0,0,0,269.82,0,0,0,0,0,0,0,0,0,0,0,0,0,3,3,0,0,VALID,0,0,0,0,0,1,0,0,0,0,0,0,0,0,0,0,0,0,0,0,139.3,1083.46,2,0,0.08,0.08,22,10,0.12,0.08,2.34,FLYING,X10-H,0:/Integrated Flight Computer/aircraft/x10_h_cfg.ks (inferred preloaded)
2.64,APPROACH,ILS_TRACK,153.77,152,-1.77,712.53,633.48,-10.96,11.21,15.09,269.77,0.126,0.12,0,-0.787,1,0.6,4.5,0.75,0.35,0.0168,0.4,0,21.382,0,1.806,0,269.98,0,0,1,-4.1,0,0,0,269.96,-0.1054,-0.0004,-0.9944,0,269.98,5.23,-495.95,21.65,-0.022,0,0,3,741.25,-2.437,0,1208.92,0,0,0,0,0,0,,0,NONE,0,0,0,0,0,0,0,0,0,0,0,633.48,0,0,0,0,0,0,0,0,0,269.82,0,0,0,0,0,0,0,0,0,0,0,0,0,3,3,0,0,VALID,0,0,0,0,0,1,0,0,0,0,0,0,0,0,0,0,0,0,0,0,128.86,1081.32,2,0,0.08,0.08,25,10,0.12,0.08,2.64,FLYING,X10-H,0:/Integrated Flight Computer/aircraft/x10_h_cfg.ks (inferred preloaded)
2.94,APPROACH,ILS_TRACK,153.25,152,-1.25,709.44,630.25,-10.55,11.58,15.37,269.82,0.334,0.24,0,-1.224,1,0.6,4.5,0.75,0.35,0.0168,0.4,0,21.529,0,1.286,0,269.97,0,0,1,-3.96,0,0,0,269.98,-0.1055,-0.0005,-0.9944,0,269.97,5.02,-496.54,21.601,-0.028,0,0,3,741.25,-1.575,0,1206.37,0,0,0,0,0,0,,0,NONE,0,0,0,0,0,0,0,0,0,0,0,630.25,0,0,0,0,0,0,0,0,0,269.82,0,0,0,0,0,0,0,0,0,0,0,0,0,3,3,0,0,VALID,0,0,0,0,0,1,0,0,0,0,0,0,0,0,0,0,0,0,0,0,130.6,1079.35,2,0,0.08,0.08,28,10,0.12,0.08,2.94,FLYING,X10-H,0:/Integrated Flight Computer/aircraft/x10_h_cfg.ks (inferred preloaded)
3.24,APPROACH,ILS_TRACK,152.66,152,-0.66,706.71,627.16,-9.96,12.76,16.41,269.89,0.504,0.36,0,-1.495,1,0.6,4.5,0.75,0.35,0.0168,0.4,0,21.693,0,0.704,0,269.98,0,0,1,-3.78,0,0,0,269.98,-0.1055,-0.0003,-0.9944,0,269.98,4.81,-496.77,21.553,-0.016,0,0,3,741.25,-0.357,0,1203.84,0,0,0,0,0,0,,0,NONE,0,0,0,0,0,0,0,0,0,0,0,627.16,0,0,0,0,0,0,0,0,0,269.82,0,0,0,0,0,0,0,0,0,0,0,0,0,3,3,0,0,VALID,0,0,0,0,0,1,0,0,0,0,0,0,0,0,0,0,0,0,0,0,139.83,1077.1,2,0,0.08,0.08,31,10,0.12,0.08,3.24,FLYING,X10-H,0:/Integrated Flight Computer/aircraft/x10_h_cfg.ks (inferred preloaded)
3.54,APPROACH,ILS_TRACK,151.89,152,0.11,704.11,624.35,-8.83,13.65,16.84,269.95,0.62,0.48,0,-1.558,1,0.6,4.5,0.75,0.35,0.0168,0.4,0,21.907,0,-0.058,0,269.97,0,0,1,-3.38,0,0,0,269.98,-0.1056,-0.0005,-0.9944,0,269.97,4.61,-496.85,21.505,-0.029,0,0,3,741.25,-0.258,0,1201.31,0,0,0,0,0,0,,0,NONE,0,0,0,0,0,0,0,0,0,0,0,624.35,0,0,0,0,0,0,0,0,0,269.82,0,0,0,0,0,0,0,0,0,0,0,0,0,3,3,0,0,VALID,0,0,0,0,0,1,0,0,0,0,0,0,0,0,0,0,0,0,0,0,155.88,1074.04,2,0,0.08,0.08,34,10,0.12,0.08,3.54,FLYING,X10-H,0:/Integrated Flight Computer/aircraft/x10_h_cfg.ks (inferred preloaded)
3.84,APPROACH,ILS_TRACK,151.12,152,0.88,701.61,621.84,-7.92,13.66,16.51,269.99,0.685,0.6,0,-1.379,1,0.6,4.5,0.75,0.35,0.0168,0.4,0,22.127,0,-0.839,0,269.97,0,0,1,-3.04,0,0,0,269.97,-0.1057,-0.0006,-0.9944,0,269.97,4.42,-496.86,21.457,-0.034,0,0,3,741.25,0.173,0,1198.79,0,0,0,0,0,0,,0,NONE,0,0,0,0,0,0,0,0,0,0,0,621.84,0,0,0,0,0,0,0,0,0,269.82,0,0,0,0,0,0,0,0,0,0,0,0,0,3,3,0,0,VALID,0,0,0,0,0,1,0,0,0,0,0,0,0,0,0,0,0,0,0,0,178.37,1070.98,2,0,0.08,0.08,37,10,0.12,0.08,3.84,FLYING,X10-H,0:/Integrated Flight Computer/aircraft/x10_h_cfg.ks (inferred preloaded)
4.14,APPROACH,ILS_TRACK,150.48,152,1.52,699.33,619.6,-7.1,13.55,16.11,270.01,0.693,0.72,0,-0.996,1,0.6,4.5,0.75,0.35,0.0168,0.4,0,22.308,0,-1.478,0,269.96,0,0,1,-2.74,0,0,0,269.96,-0.1058,-0.0007,-0.9944,0,269.96,4.26,-496.67,21.409,-0.038,0,0,3,741.25,0.908,0,1196.29,0,0,0,0,0,0,,0,NONE,0,0,0,0,0,0,0,0,0,0,0,619.6,0,0,0,0,0,0,0,0,0,269.82,0,0,0,0,0,0,0,0,0,0,0,0,0,3,3,0,0,VALID,0,0,0,0,0,1,0,0,0,0,0,0,0,0,0,0,0,0,0,0,206.98,1068.49,2,0,0.08,0.08,40,10,0.12,0.08,4.14,FLYING,X10-H,0:/Integrated Flight Computer/aircraft/x10_h_cfg.ks (inferred preloaded)
4.44,APPROACH,ILS_TRACK,149.96,152,2.04,697.28,617.59,-6.33,13.41,15.7,270.01,0.671,0.8245,0,-0.444,1,0.6,4.5,0.75,0.35,0.0168,0.4,0,22.456,0,-2.005,0,269.96,0,0,1,-2.46,0,0,0,269.96,-0.1059,-0.0007,-0.9944,0,269.96,4.11,-496.25,21.361,-0.042,0,0,3,741.25,1.643,0,1193.79,0,0,0,0,0,0,,0,NONE,0,0,0,0,0,0,0,0,0,0,0,617.59,0,0,0,0,0,0,0,0,0,269.82,0,0,0,0,0,0,0,0,0,0,0,0,0,3,3,0,0,VALID,0,0,0,0,0,1,0,0,0,0,0,0,0,0,0,0,0,0,0,0,241.33,1066.47,2,0,0.08,0.08,43,10,0.12,0.08,4.44,FLYING,X10-H,0:/Integrated Flight Computer/aircraft/x10_h_cfg.ks (inferred preloaded)
4.74,APPROACH,ILS_TRACK,149.57,152,2.43,695.47,615.79,-5.77,13.33,15.44,270.02,0.649,0.7485,0,0.242,1,0.6,4.5,0.75,0.35,0.0168,0.4,0,22.569,0,-2.405,0,269.95,0,0,1,-2.23,0,0,0,269.96,-0.1059,-0.0009,-0.9944,0,269.95,3.97,-495.61,21.314,-0.053,0,0,3,741.25,2.516,0,1191.3,0,0,0,0,0,0,,0,NONE,0,0,0,0,0,0,0,0,0,0,0,615.79,0,0,0,0,0,0,0,0,0,269.82,0,0,0,0,0,0,0,0,0,0,0,0,0,3,3,0,0,VALID,0,0,0,0,0,1,0,0,0,0,0,0,0,0,0,0,0,0,0,0,277.2,1064.97,2,0,0.08,0.08,46,10,0.12,0.08,4.74,FLYING,X10-H,0:/Integrated Flight Computer/aircraft/x10_h_cfg.ks (inferred preloaded)
5.04,APPROACH,ILS_TRACK,149.27,152,2.73,693.97,614.17,-4.94,13.79,15.62,270.03,0.612,0.6759,0,1.025,1,0.6,4.5,0.75,0.35,0.0168,0.4,0,22.655,0,-2.712,0,269.95,0,0,1,-1.95,0,0,0,269.94,-0.106,-0.0009,-0.9944,0,269.95,3.85,-494.65,21.266,-0.052,0,0,3,741.25,3.452,0,1188.82,0,0,0,0,0,0,,0,NONE,0,0,0,0,0,0,0,0,0,0,0,614.17,0,0,0,0,0,0,0,0,0,269.82,0,0,0,0,0,0,0,0,0,0,0,0,0,3,3,0,0,VALID,0,0,0,0,0,1,0,0,0,0,0,0,0,0,0,0,0,0,0,0,305.93,1063.82,2,0,0.08,0.08,49,10,0.12,0.08,5.04,FLYING,X10-H,0:/Integrated Flight Computer/aircraft/x10_h_cfg.ks (inferred preloaded)
5.34,APPROACH,ILS_TRACK,148.92,152,3.08,692.54,612.85,-4.1,13.5,14.97,270.02,0.557,0.6786,0,1.913,1,0.6,4.5,0.75,0.35,0.0168,0.4,0,22.754,0,-3.063,0,269.94,0,0,1,-1.61,0,0,0,269.94,-0.1061,-0.0011,-0.9944,0,269.94,3.74,-493.62,21.219,-0.062,0,0,3,741.25,3.558,0,1186.34,0,0,0,0,0,0,,0,NONE,0,0,0,0,0,0,0,0,0,0,0,612.85,0,0,0,0,0,0,0,0,0,269.82,0,0,0,0,0,0,0,0,0,0,0,0,0,3,3,0,0,VALID,0,0,0,0,0,1,0,0,0,0,0,0,0,0,0,0,0,0,0,0,330.14,1062.49,2,0,0.08,0.08,52,10,0.12,0.08,5.34,FLYING,X10-H,0:/Integrated Flight Computer/aircraft/x10_h_cfg.ks (inferred preloaded)
5.64,APPROACH,ILS_TRACK,148.79,152,3.21,691.29,611.72,-3.47,13.08,14.33,270.01,0.484,0.5758,0,2.863,1,0.6,4.5,0.75,0.35,0.0168,0.4,0,22.795,0,-3.207,0,269.93,0,0,1,-1.37,0,0,0,269.93,-0.1062,-0.0011,-0.9943,0,269.93,3.65,-492.41,21.172,-0.066,0,0,3,741.25,4.275,0,1183.86,0,0,0,0,0,0,,0,NONE,0,0,0,0,0,0,0,0,0,0,0,611.72,0,0,0,0,0,0,0,0,0,269.82,0,0,0,0,0,0,0,0,0,0,0,0,0,3,3,0,0,VALID,0,0,0,0,0,1,0,0,0,0,0,0,0,0,0,0,0,0,0,0,351.26,1062.01,2,0,0.08,0.08,55,10,0.12,0.08,5.64,FLYING,X10-H,0:/Integrated Flight Computer/aircraft/x10_h_cfg.ks (inferred preloaded)
5.94,APPROACH,ILS_TRACK,148.74,152,3.26,690.21,610.78,-2.85,12.59,13.61,270,0.4,0.4713,0,3.838,1,0.6,4.5,0.75,0.35,0.0168,0.4,0,22.809,0,-3.259,0,269.93,0,0,1,-1.13,0,0,0,269.93,-0.1063,-0.0012,-0.9943,0,269.93,3.56,-491.04,21.125,-0.07,0,0,3,741.25,4.739,0,1181.38,0,0,0,0,0,0,,0,NONE,0,0,0,0,0,0,0,0,0,0,0,610.78,0,0,0,0,0,0,0,0,0,269.82,0,0,0,0,0,0,0,0,0,0,0,0,0,3,3,0,0,VALID,0,0,0,0,0,1,0,0,0,0,0,0,0,0,0,0,0,0,0,0,364.78,1061.88,2,0,0.08,0.08,58,10,0.12,0.08,5.94,FLYING,X10-H,0:/Integrated Flight Computer/aircraft/x10_h_cfg.ks (inferred preloaded)
6.24,APPROACH,ILS_TRACK,148.78,152,3.22,689.25,610,-2.39,11.98,12.82,269.98,0.315,0.3724,0,4.81,1,0.6,4.5,0.75,0.35,0.0168,0.4,0,22.799,0,-3.222,0,269.93,0,0,1,-0.94,0,0,0,269.92,-0.1063,-0.0012,-0.9943,0,269.93,3.48,-489.53,21.077,-0.071,0,0,3,741.25,5.148,0,1178.91,0,0,0,0,0,0,,0,NONE,0,0,0,0,0,0,0,0,0,0,0,610,0,0,0,0,0,0,0,0,0,269.82,0,0,0,0,0,0,0,0,0,0,0,0,0,3,3,0,0,VALID,0,0,0,0,0,1,0,0,0,0,0,0,0,0,0,0,0,0,0,0,371.36,1062.11,2,0,0.08,0.08,61,10,0.12,0.08,6.24,FLYING,X10-H,0:/Integrated Flight Computer/aircraft/x10_h_cfg.ks (inferred preloaded)
6.54,APPROACH,ILS_TRACK,148.9,152,3.1,688.4,609.34,-2.11,11.32,12.06,269.97,0.243,0.2832,0,5.756,1,0.6,4.5,0.75,0.35,0.0168,0.4,0,22.769,0,-3.114,0,269.92,0,0,1,-0.82,0,0,0,269.92,-0.1064,-0.0014,-0.9943,0,269.92,3.41,-487.92,21.03,-0.077,0,0,3,741.25,5.535,0,1176.43,0,0,0,0,0,0,,0,NONE,0,0,0,0,0,0,0,0,0,0,0,609.34,0,0,0,0,0,0,0,0,0,269.82,0,0,0,0,0,0,0,0,0,0,0,0,0,3,3,0,0,VALID,0,0,0,0,0,1,0,0,0,0,0,0,0,0,0,0,0,0,0,0,371.19,1062.62,2,0,0.08,0.08,64,10,0.12,0.08,6.54,FLYING,X10-H,0:/Integrated Flight Computer/aircraft/x10_h_cfg.ks (inferred preloaded)
6.9,APPROACH,ILS_TRACK,149.08,152,2.92,687.56,608.63,-1.85,10.84,11.5,269.96,0.171,0.2136,0,6.833,1,0.6,4.5,0.75,0.35,0.0168,0.4,0,22.715,0,-2.926,0,269.92,0,0,1,-0.74,0,0,0,269.92,-0.1065,-0.0014,-0.9943,0,269.92,3.33,-485.8,20.973,-0.079,0,0,3,741.25,6.097,0,1173.45,0,0,0,0,0,0,,0,NONE,0,0,0,0,0,0,0,0,0,0,0,608.63,0,0,0,0,0,0,0,0,0,269.82,0,0,0,0,0,0,0,0,0,0,0,0,0,3,3,0,0,VALID,0,0,0,0,0,1,0,0,0,0,0,0,0,0,0,0,0,0,0,0,360.32,1063.46,2,0,0.12,0.12,67,8.33,0.12,0.08,6.9,FLYING,X10-H,0:/Integrated Flight Computer/aircraft/x10_h_cfg.ks (inferred preloaded)
7.24,APPROACH,ILS_TRACK,149.23,152,2.77,686.85,608.04,-1.72,10.4,11.01,269.95,0.115,0.1987,0,7.795,1,0.6,4.5,0.75,0.35,0.0168,0.4,0,22.675,0,-2.782,0,269.93,0,0,1,-0.66,0,0,0,269.91,-0.1066,-0.0013,-0.9943,0,269.93,3.26,-483.71,20.92,-0.073,0,0,3,741.25,6.299,0,1170.64,0,0,0,0,0,0,,0,NONE,0,0,0,0,0,0,0,0,0,0,0,608.04,0,0,0,0,0,0,0,0,0,269.82,0,0,0,0,0,0,0,0,0,0,0,0,0,3,3,0,0,VALID,0,0,0,0,0,1,0,0,0,0,0,0,0,0,0,0,0,0,0,0,345.12,1064.09,2,0,0.1,0.1,70,8.82,0.12,0.1,7.24,FLYING,X10-H,0:/Integrated Flight Computer/aircraft/x10_h_cfg.ks (inferred preloaded)
7.52,APPROACH,ILS_TRACK,149.31,152,2.69,686.43,607.57,-1.53,10.54,11.11,269.94,0.083,0.2153,0,8.555,1,0.6,4.5,0.75,0.35,0.0168,0.4,0,22.649,0,-2.691,0,269.93,0,0,1,-0.62,0,0,0,269.92,-0.1067,-0.0012,-0.9943,0,269.93,3.2,-481.83,20.875,-0.072,0,0,3,741.25,6.847,0,1168.32,0,0,0,0,0,0,,0,NONE,0,0,0,0,0,0,0,0,0,0,0,607.57,0,0,0,0,0,0,0,0,0,269.82,0,0,0,0,0,0,0,0,0,0,0,0,0,3,3,0,0,VALID,0,0,0,0,0,1,0,0,0,0,0,0,0,0,0,0,0,0,0,0,332.81,1064.48,2,0,0.08,0.08,73,10.71,0.1,0.08,7.52,FLYING,X10-H,0:/Integrated Flight Computer/aircraft/x10_h_cfg.ks (inferred preloaded)
7.82,APPROACH,ILS_TRACK,149.31,152,2.69,685.92,607.16,-1.31,10.23,10.68,269.94,0.058,0.2878,0,9.363,1,0.6,4.5,0.75,0.35,0.0168,0.4,0,22.65,0,-2.695,0,269.92,0,0,1,-0.5,0,0,0,269.92,-0.1067,-0.0014,-0.9943,0,269.92,3.15,-479.85,20.828,-0.079,0,0,3,741.25,6.588,0,1165.83,0,0,0,0,0,0,,0,NONE,0,0,0,0,0,0,0,0,0,0,0,607.16,0,0,0,0,0,0,0,0,0,269.82,0,0,0,0,0,0,0,0,0,0,0,0,0,3,3,0,0,VALID,0,0,0,0,0,1,0,0,0,0,0,0,0,0,0,0,0,0,0,0,324.65,1064.49,2,0,0.08,0.08,76,10,0.12,0.08,7.82,FLYING,X10-H,0:/Integrated Flight Computer/aircraft/x10_h_cfg.ks (inferred preloaded)
8.12,APPROACH,ILS_TRACK,149.35,152,2.65,685.5,606.77,-1.34,10.06,10.55,269.94,0.039,0.3004,0,10.163,1,0.6,4.5,0.75,0.35,0.0168,0.4,0,22.638,0,-2.65,0,269.92,0,0,1,-0.51,0,0,0,269.93,-0.1068,-0.0013,-0.9943,0,269.92,3.09,-477.8,20.78,-0.077,0,0,3,741.25,6.988,0,1163.35,0,0,0,0,0,0,,0,NONE,0,0,0,0,0,0,0,0,0,0,0,606.77,0,0,0,0,0,0,0,0,0,269.82,0,0,0,0,0,0,0,0,0,0,0,0,0,3,3,0,0,VALID,0,0,0,0,0,1,0,0,0,0,0,0,0,0,0,0,0,0,0,0,323.23,1064.71,2,0,0.08,0.08,79,10,0.12,0.08,8.12,FLYING,X10-H,0:/Integrated Flight Computer/aircraft/x10_h_cfg.ks (inferred preloaded)
8.42,APPROACH,ILS_TRACK,149.38,152,2.62,685.13,606.41,-1.12,10.09,10.49,269.93,0.025,0.3254,0,10.951,1,0.6,4.5,0.75,0.35,0.0168,0.4,0,22.63,0,-2.622,0,269.92,0,0,1,-0.43,0,0,0,269.93,-0.1069,-0.0014,-0.9943,0,269.92,3.03,-475.68,20.733,-0.081,0,0,3,741.25,6.999,0,1160.86,0,0,0,0,0,0,,0,NONE,0,0,0,0,0,0,0,0,0,0,0,606.41,0,0,0,0,0,0,0,0,0,269.82,0,0,0,0,0,0,0,0,0,0,0,0,0,3,3,0,0,VALID,0,0,0,0,0,1,0,0,0,0,0,0,0,0,0,0,0,0,0,0,323.28,1064.85,2,0,0.08,0.08,82,10,0.12,0.08,8.42,FLYING,X10-H,0:/Integrated Flight Computer/aircraft/x10_h_cfg.ks (inferred preloaded)
8.72,APPROACH,ILS_TRACK,149.43,152,2.57,684.77,606.09,-1.07,9.93,10.31,269.93,0.018,0.3276,0,11.73,1,0.6,4.5,0.75,0.35,0.0168,0.4,0,22.617,0,-2.576,0,269.93,0,0,1,-0.41,0,0,0,269.92,-0.107,-0.0012,-0.9943,0,269.93,2.97,-473.56,20.686,-0.068,0,0,3,741.25,7.101,0,1158.37,0,0,0,0,0,0,,0,NONE,0,0,0,0,0,0,0,0,0,0,0,606.09,0,0,0,0,0,0,0,0,0,269.82,0,0,0,0,0,0,0,0,0,0,0,0,0,3,3,0,0,VALID,0,0,0,0,0,1,0,0,0,0,0,0,0,0,0,0,0,0,0,0,324.8,1065.08,2,0,0.08,0.08,85,10,0.12,0.08,8.72,FLYING,X10-H,0:/Integrated Flight Computer/aircraft/x10_h_cfg.ks (inferred preloaded)
9.02,APPROACH,ILS_TRACK,149.49,152,2.51,684.47,605.77,-0.95,10.02,10.36,269.93,0.018,0.3277,0,12.489,1,0.6,4.5,0.75,0.35,0.0168,0.4,0,22.6,0,-2.515,0,269.93,0,0,1,-0.38,0,0,0,269.93,-0.1071,-0.0012,-0.9943,0,269.93,2.91,-471.37,20.638,-0.068,0,0,3,741.25,7.311,0,1155.88,0,0,0,0,0,0,,0,NONE,0,0,0,0,0,0,0,0,0,0,0,605.77,0,0,0,0,0,0,0,0,0,269.82,0,0,0,0,0,0,0,0,0,0,0,0,0,3,3,0,0,VALID,0,0,0,0,0,1,0,0,0,0,0,0,0,0,0,0,0,0,0,0,326.2,1065.35,2,0,0.08,0.08,88,10,0.12,0.08,9.02,FLYING,X10-H,0:/Integrated Flight Computer/aircraft/x10_h_cfg.ks (inferred preloaded)
9.32,APPROACH,ILS_TRACK,149.54,152,2.46,684.19,605.49,-1.02,9.98,10.36,269.93,0.019,0.3304,0,13.234,1,0.6,4.5,0.75,0.35,0.0168,0.4,0,22.584,0,-2.46,0,269.93,0,0,1,-0.39,0,0,0,269.93,-0.1071,-0.0012,-0.9942,0,269.93,2.86,-469.18,20.591,-0.067,0,0,3,741.25,7.441,0,1153.4,0,0,0,0,0,0,,0,NONE,0,0,0,0,0,0,0,0,0,0,0,605.49,0,0,0,0,0,0,0,0,0,269.82,0,0,0,0,0,0,0,0,0,0,0,0,0,3,3,0,0,VALID,0,0,0,0,0,1,0,0,0,0,0,0,0,0,0,0,0,0,0,0,327.83,1065.61,2,0,0.08,0.08,91,10,0.12,0.08,9.32,FLYING,X10-H,0:/Integrated Flight Computer/aircraft/x10_h_cfg.ks (inferred preloaded)
9.62,APPROACH,ILS_TRACK,149.58,152,2.42,683.91,605.23,-0.73,9.99,10.23,269.94,0.02,0.3532,0,13.962,1,0.6,4.5,0.75,0.35,0.0168,0.4,0,22.573,0,-2.421,0,269.94,0,0,1,-0.28,0,0,0,269.93,-0.1072,-0.0011,-0.9942,0,269.94,2.8,-466.95,20.543,-0.062,0,0,3,741.25,7.231,0,1150.91,0,0,0,0,0,0,,0,NONE,0,0,0,0,0,0,0,0,0,0,0,605.23,0,0,0,0,0,0,0,0,0,269.82,0,0,0,0,0,0,0,0,0,0,0,0,0,3,3,0,0,VALID,0,0,0,0,0,1,0,0,0,0,0,0,0,0,0,0,0,0,0,0,329.46,1065.78,2,0,0.08,0.08,94,10,0.12,0.08,9.62,FLYING,X10-H,0:/Integrated Flight Computer/aircraft/x10_h_cfg.ks (inferred preloaded)
9.92,APPROACH,ILS_TRACK,149.66,152,2.34,683.65,604.99,-0.88,9.81,10.14,269.94,0.022,0.3385,0,14.675,1,0.6,4.5,0.75,0.35,0.0168,0.4,0,22.552,0,-2.346,0,269.94,0,0,1,-0.33,0,0,0,269.93,-0.1073,-0.0011,-0.9942,0,269.94,2.75,-464.75,20.496,-0.06,0,0,3,741.25,7.527,0,1148.42,0,0,0,0,0,0,,0,NONE,0,0,0,0,0,0,0,0,0,0,0,604.99,0,0,0,0,0,0,0,0,0,269.82,0,0,0,0,0,0,0,0,0,0,0,0,0,3,3,0,0,VALID,0,0,0,0,0,1,0,0,0,0,0,0,0,0,0,0,0,0,0,0,332.23,1066.13,2,0,0.08,0.08,97,10,0.12,0.08,9.92,FLYING,X10-H,0:/Integrated Flight Computer/aircraft/x10_h_cfg.ks (inferred preloaded)
10.22,APPROACH,ILS_TRACK,149.74,152,2.26,683.42,604.76,-0.7,9.87,10.11,269.94,0.022,0.3369,0,15.362,1,0.6,4.5,0.75,0.35,0.0168,0.4,0,22.53,0,-2.267,0,269.93,0,0,1,-0.27,0,0,0,269.94,-0.1074,-0.0012,-0.9942,0,269.93,2.7,-462.47,20.448,-0.067,0,0,3,741.25,7.457,0,1145.93,0,0,0,0,0,0,,0,NONE,0,0,0,0,0,0,0,0,0,0,0,604.76,0,0,0,0,0,0,0,0,0,269.82,0,0,0,0,0,0,0,0,0,0,0,0,0,3,3,0,0,VALID,0,0,0,0,0,1,0,0,0,0,0,0,0,0,0,0,0,0,0,0,333.9,1066.47,2,0,0.08,0.08,100,10,0.12,0.08,10.22,FLYING,X10-H,0:/Integrated Flight Computer/aircraft/x10_h_cfg.ks (inferred preloaded)
10.52,APPROACH,ILS_TRACK,149.84,152,2.16,683.2,604.55,-0.67,9.85,10.09,269.94,0.023,0.3227,0,16.023,1,0.6,4.5,0.75,0.35,0.0168,0.4,0,22.502,0,-2.169,0,269.94,0,0,1,-0.26,0,0,0,269.94,-0.1075,-0.0011,-0.9942,0,269.94,2.64,-460.2,20.4,-0.061,0,0,3,741.25,7.606,0,1143.43,0,0,0,0,0,0,,0,NONE,0,0,0,0,0,0,0,0,0,0,0,604.55,0,0,0,0,0,0,0,0,0,269.82,0,0,0,0,0,0,0,0,0,0,0,0,0,3,3,0,0,VALID,0,0,0,0,0,1,0,0,0,0,0,0,0,0,0,0,0,0,0,0,335.32,1066.91,2,0,0.08,0.08,103,10,0.12,0.08,10.52,FLYING,X10-H,0:/Integrated Flight Computer/aircraft/x10_h_cfg.ks (inferred preloaded)
10.82,APPROACH,ILS_TRACK,149.94,152,2.06,682.99,604.35,-0.63,9.8,10.01,269.94,0.024,0.3147,0,16.653,1,0.6,4.5,0.75,0.35,0.0168,0.4,0,22.473,0,-2.065,0,269.95,0,0,1,-0.24,0,0,0,269.94,-0.1075,-0.001,-0.9942,0,269.95,2.59,-457.92,20.353,-0.054,0,0,3,741.25,7.578,0,1140.94,0,0,0,0,0,0,,0,NONE,0,0,0,0,0,0,0,0,0,0,0,604.35,0,0,0,0,0,0,0,0,0,269.82,0,0,0,0,0,0,0,0,0,0,0,0,0,3,3,0,0,VALID,0,0,0,0,0,1,0,0,0,0,0,0,0,0,0,0,0,0,0,0,335.87,1067.36,2,0,0.08,0.08,106,10,0.12,0.08,10.82,FLYING,X10-H,0:/Integrated Flight Computer/aircraft/x10_h_cfg.ks (inferred preloaded)
11.12,APPROACH,ILS_TRACK,150.05,152,1.95,682.8,604.16,-0.57,9.8,10,269.94,0.025,0.3103,0,17.251,1,0.6,4.5,0.75,0.35,0.0168,0.4,0,22.443,0,-1.957,0,269.94,0,0,1,-0.22,0,0,0,269.94,-0.1076,-0.001,-0.9942,0,269.94,2.54,-455.61,20.305,-0.059,0,0,3,741.25,7.669,0,1138.44,0,0,0,0,0,0,,0,NONE,0,0,0,0,0,0,0,0,0,0,0,604.16,0,0,0,0,0,0,0,0,0,269.82,0,0,0,0,0,0,0,0,0,0,0,0,0,3,3,0,0,VALID,0,0,0,0,0,1,0,0,0,0,0,0,0,0,0,0,0,0,0,0,335.82,1067.82,2,0,0.08,0.08,109,10,0.12,0.08,11.12,FLYING,X10-H,0:/Integrated Flight Computer/aircraft/x10_h_cfg.ks (inferred preloaded)
11.42,APPROACH,ILS_TRACK,150.16,152,1.84,682.62,603.99,-0.54,9.77,9.95,269.94,0.027,0.3083,0,17.817,1,0.6,4.5,0.75,0.35,0.0168,0.4,0,22.413,0,-1.851,0,269.94,0,0,1,-0.21,0,0,0,269.94,-0.1077,-0.001,-0.9942,0,269.94,2.49,-453.3,20.258,-0.057,0,0,3,741.25,7.714,0,1135.94,0,0,0,0,0,0,,0,NONE,0,0,0,0,0,0,0,0,0,0,0,603.99,0,0,0,0,0,0,0,0,0,269.82,0,0,0,0,0,0,0,0,0,0,0,0,0,3,3,0,0,VALID,0,0,0,0,0,1,0,0,0,0,0,0,0,0,0,0,0,0,0,0,335.52,1068.28,2,0,0.08,0.08,112,10,0.12,0.08,11.42,FLYING,X10-H,0:/Integrated Flight Computer/aircraft/x10_h_cfg.ks (inferred preloaded)
11.72,APPROACH,ILS_TRACK,150.27,152,1.73,682.45,603.82,-0.52,9.74,9.93,269.94,0.027,0.3045,0,18.351,1,0.6,4.5,0.75,0.35,0.0168,0.4,0,22.381,0,-1.741,0,269.95,0,0,1,-0.21,0,0,0,269.94,-0.1078,-0.001,-0.9942,0,269.95,2.44,-450.98,20.21,-0.055,0,0,3,741.25,7.815,0,1133.45,0,0,0,0,0,0,,0,NONE,0,0,0,0,0,0,0,0,0,0,0,603.82,0,0,0,0,0,0,0,0,0,269.82,0,0,0,0,0,0,0,0,0,0,0,0,0,3,3,0,0,VALID,0,0,0,0,0,1,0,0,0,0,0,0,0,0,0,0,0,0,0,0,335.04,1068.76,2,0,0.08,0.08,115,10,0.12,0.08,11.72,FLYING,X10-H,0:/Integrated Flight Computer/aircraft/x10_h_cfg.ks (inferred preloaded)
12.02,APPROACH,ILS_TRACK,150.38,152,1.62,682.28,603.66,-0.5,9.72,9.89,269.94,0.027,0.3041,0,18.851,1,0.6,4.5,0.75,0.35,0.0168,0.4,0,22.351,0,-1.631,0,269.95,0,0,1,-0.19,0,0,0,269.95,-0.1078,-0.001,-0.9942,0,269.95,2.39,-448.64,20.162,-0.055,0,0,3,741.25,7.798,0,1130.94,0,0,0,0,0,0,,0,NONE,0,0,0,0,0,0,0,0,0,0,0,603.66,0,0,0,0,0,0,0,0,0,269.82,0,0,0,0,0,0,0,0,0,0,0,0,0,3,3,0,0,VALID,0,0,0,0,0,1,0,0,0,0,0,0,0,0,0,0,0,0,0,0,334.25,1069.22,2,0,0.08,0.08,118,10,0.12,0.08,12.02,FLYING,X10-H,0:/Integrated Flight Computer/aircraft/x10_h_cfg.ks (inferred preloaded)
12.32,APPROACH,ILS_TRACK,150.49,152,1.51,682.13,603.52,-0.46,9.71,9.87,269.95,0.028,0.3039,0,19.318,1,0.6,4.5,0.75,0.35,0.0168,0.4,0,22.32,0,-1.522,0,269.95,0,0,1,-0.18,0,0,0,269.95,-0.1079,-0.001,-0.9942,0,269.95,2.34,-446.29,20.114,-0.055,0,0,3,741.25,7.857,0,1128.44,0,0,0,0,0,0,,0,NONE,0,0,0,0,0,0,0,0,0,0,0,603.52,0,0,0,0,0,0,0,0,0,269.82,0,0,0,0,0,0,0,0,0,0,0,0,0,3,3,0,0,VALID,0,0,0,0,0,1,0,0,0,0,0,0,0,0,0,0,0,0,0,0,333.49,1069.69,2,0,0.08,0.08,121,10,0.12,0.08,12.32,FLYING,X10-H,0:/Integrated Flight Computer/aircraft/x10_h_cfg.ks (inferred preloaded)
12.62,APPROACH,ILS_TRACK,150.59,152,1.41,682,603.38,-0.41,9.72,9.86,269.95,0.03,0.3047,0,19.753,1,0.6,4.5,0.75,0.35,0.0168,0.4,0,22.29,0,-1.414,0,269.95,0,0,1,-0.17,0,0,0,269.95,-0.108,-0.0009,-0.9941,0,269.95,2.3,-443.92,20.067,-0.052,0,0,3,741.25,7.933,0,1125.94,0,0,0,0,0,0,,0,NONE,0,0,0,0,0,0,0,0,0,0,0,603.38,0,0,0,0,0,0,0,0,0,269.82,0,0,0,0,0,0,0,0,0,0,0,0,0,3,3,0,0,VALID,0,0,0,0,0,1,0,0,0,0,0,0,0,0,0,0,0,0,0,0,332.8,1070.15,2,0,0.08,0.08,124,10,0.12,0.08,12.62,FLYING,X10-H,0:/Integrated Flight Computer/aircraft/x10_h_cfg.ks (inferred preloaded)
12.92,APPROACH,ILS_TRACK,150.69,152,1.31,681.87,603.24,-0.48,9.72,9.91,269.95,0.032,0.3052,0,20,1,0.6,4.5,0.75,0.35,0.0168,0.4,0,22.261,0,-1.314,0,269.94,0,0,1,-0.19,0,0,0,269.95,-0.1081,-0.001,-0.9941,0,269.94,2.25,-441.55,20.019,-0.056,0,0,3,741.25,8.055,0,1123.43,0,0,0,0,0,0,,0,NONE,0,0,0,0,0,0,0,0,0,0,0,603.24,0,0,0,0,0,0,0,0,0,269.82,0,0,0,0,0,0,0,0,0,0,0,0,0,3,3,0,0,VALID,0,0,0,0,0,1,0,0,0,0,0,0,0,0,0,0,0,0,0,0,332.47,1070.59,2,0,0.08,0.08,127,10,0.12,0.08,12.92,FLYING,X10-H,0:/Integrated Flight Computer/aircraft/x10_h_cfg.ks (inferred preloaded)
13.22,APPROACH,ILS_TRACK,150.77,152,1.23,681.72,603.14,-0.35,9.62,9.73,269.95,0.031,0.3172,0,20,1,0.6,4.5,0.75,0.35,0.0168,0.4,0,22.24,0,-1.237,0,269.95,0,0,1,-0.13,0,0,0,269.95,-0.1082,-0.0008,-0.9941,0,269.95,2.2,-439.18,19.971,-0.047,0,0,3,741.25,7.794,0,1120.92,0,0,0,0,0,0,,0,NONE,0,0,0,0,0,0,0,0,0,0,0,603.14,0,0,0,0,0,0,0,0,0,269.82,0,0,0,0,0,0,0,0,0,0,0,0,0,3,3,0,0,VALID,0,0,0,0,0,1,0,0,0,0,0,0,0,0,0,0,0,0,0,0,332.2,1070.92,2,0,0.08,0.08,130,10,0.12,0.08,13.22,FLYING,X10-H,0:/Integrated Flight Computer/aircraft/x10_h_cfg.ks (inferred preloaded)
13.52,APPROACH,ILS_TRACK,150.87,152,1.13,681.62,603.02,-0.32,9.66,9.78,269.95,0.032,0.303,0,20,1,0.6,4.5,0.75,0.35,0.0168,0.4,0,22.21,0,-1.133,0,269.95,0,0,1,-0.13,0,0,0,269.95,-0.1082,-0.0009,-0.9941,0,269.95,2.16,-436.78,19.923,-0.053,0,0,3,741.25,8.027,0,1118.41,0,0,0,0,0,0,,0,NONE,0,0,0,0,0,0,0,0,0,0,0,603.02,0,0,0,0,0,0,0,0,0,269.82,0,0,0,0,0,0,0,0,0,0,0,0,0,3,3,0,0,VALID,0,0,0,0,0,1,0,0,0,0,0,0,0,0,0,0,0,0,0,0,332.39,1071.36,2,0,0.08,0.08,133,10,0.12,0.08,13.52,FLYING,X10-H,0:/Integrated Flight Computer/aircraft/x10_h_cfg.ks (inferred preloaded)
13.82,APPROACH,ILS_TRACK,150.97,152,1.03,681.5,602.91,-0.42,9.58,9.75,269.95,0.03,0.2931,0,20,1,0.6,4.5,0.75,0.35,0.0168,0.4,0,22.183,0,-1.036,0,269.95,0,0,1,-0.15,0,0,0,269.95,-0.1083,-0.0009,-0.9941,0,269.95,2.11,-434.39,19.875,-0.052,0,0,3,741.25,8.054,0,1115.9,0,0,0,0,0,0,,0,NONE,0,0,0,0,0,0,0,0,0,0,0,602.91,0,0,0,0,0,0,0,0,0,269.82,0,0,0,0,0,0,0,0,0,0,0,0,0,3,3,0,0,VALID,0,0,0,0,0,1,0,0,0,0,0,0,0,0,0,0,0,0,0,0,331.72,1071.78,2,0,0.08,0.08,136,10,0.12,0.08,13.82,FLYING,X10-H,0:/Integrated Flight Computer/aircraft/x10_h_cfg.ks (inferred preloaded)
14.12,APPROACH,ILS_TRACK,151.06,152,0.94,681.4,602.81,-0.36,9.6,9.73,269.95,0.031,0.2908,0,20,1,0.6,4.5,0.75,0.35,0.0168,0.4,0,22.156,0,-0.942,0,269.95,0,0,1,-0.13,0,0,0,269.95,-0.1084,-0.0009,-0.9941,0,269.95,2.07,-431.98,19.827,-0.05,0,0,3,741.25,7.997,0,1113.39,0,0,0,0,0,0,,0,NONE,0,0,0,0,0,0,0,0,0,0,0,602.81,0,0,0,0,0,0,0,0,0,269.82,0,0,0,0,0,0,0,0,0,0,0,0,0,3,3,0,0,VALID,0,0,0,0,0,1,0,0,0,0,0,0,0,0,0,0,0,0,0,0,329.9,1072.18,2,0,0.08,0.08,139,10,0.12,0.08,14.12,FLYING,X10-H,0:/Integrated Flight Computer/aircraft/x10_h_cfg.ks (inferred preloaded)
14.42,APPROACH,ILS_TRACK,151.15,152,0.85,681.34,602.7,-0.22,9.81,9.89,269.95,0.032,0.2923,0,20,1,0.6,4.5,0.75,0.35,0.0168,0.4,0,22.132,0,-0.854,0,269.96,0,0,1,-0.1,0,0,0,269.95,-0.1085,-0.0008,-0.9941,0,269.96,2.03,-429.52,19.779,-0.044,0,0,3,741.25,8.168,0,1110.88,0,0,0,0,0,0,,0,NONE,0,0,0,0,0,0,0,0,0,0,0,602.7,0,0,0,0,0,0,0,0,0,269.82,0,0,0,0,0,0,0,0,0,0,0,0,0,3,3,0,0,VALID,0,0,0,0,0,1,0,0,0,0,0,0,0,0,0,0,0,0,0,0,327.93,1072.55,2,0,0.08,0.08,142,10,0.12,0.08,14.42,FLYING,X10-H,0:/Integrated Flight Computer/aircraft/x10_h_cfg.ks (inferred preloaded)
14.72,APPROACH,ILS_TRACK,151.21,152,0.79,681.2,602.64,-0.24,9.53,9.61,269.95,0.032,0.3034,0,20,1,0.6,4.5,0.75,0.35,0.0168,0.4,0,22.117,0,-0.801,0,269.96,0,0,1,-0.08,0,0,0,269.95,-0.1086,-0.0007,-0.9941,0,269.96,1.99,-427.14,19.731,-0.041,0,0,3,741.25,7.949,0,1108.36,0,0,0,0,0,0,,0,NONE,0,0,0,0,0,0,0,0,0,0,0,602.64,0,0,0,0,0,0,0,0,0,269.82,0,0,0,0,0,0,0,0,0,0,0,0,0,3,3,0,0,VALID,0,0,0,0,0,1,0,0,0,0,0,0,0,0,0,0,0,0,0,0,327.32,1072.79,2,0,0.08,0.08,145,10,0.12,0.08,14.72,FLYING,X10-H,0:/Integrated Flight Computer/aircraft/x10_h_cfg.ks (inferred preloaded)
15.02,APPROACH,ILS_TRACK,151.3,152,0.7,681.14,602.55,-0.26,9.58,9.68,269.96,0.033,0.2855,0,20,1,0.6,4.5,0.75,0.35,0.0168,0.4,0,22.089,0,-0.704,0,269.95,0,0,1,-0.1,0,0,0,269.95,-0.1086,-0.0008,-0.9941,0,269.95,1.95,-424.7,19.683,-0.048,0,0,3,741.25,8.217,0,1105.85,0,0,0,0,0,0,,0,NONE,0,0,0,0,0,0,0,0,0,0,0,602.55,0,0,0,0,0,0,0,0,0,269.82,0,0,0,0,0,0,0,0,0,0,0,0,0,3,3,0,0,VALID,0,0,0,0,0,1,0,0,0,0,0,0,0,0,0,0,0,0,0,0,326.67,1073.2,2,0,0.08,0.08,148,10,0.12,0.08,15.02,FLYING,X10-H,0:/Integrated Flight Computer/aircraft/x10_h_cfg.ks (inferred preloaded)
15.32,APPROACH,ILS_TRACK,151.39,152,0.61,681.06,602.48,-0.22,9.58,9.65,269.96,0.03,0.2786,0,20,1,0.6,4.5,0.75,0.35,0.0168,0.4,0,22.065,0,-0.618,0,269.96,0,0,1,-0.09,0,0,0,269.95,-0.1087,-0.0007,-0.9941,0,269.96,1.9,-422.26,19.635,-0.042,0,0,3,741.25,8.136,0,1103.33,0,0,0,0,0,0,,0,NONE,0,0,0,0,0,0,0,0,0,0,0,602.48,0,0,0,0,0,0,0,0,0,269.82,0,0,0,0,0,0,0,0,0,0,0,0,0,3,3,0,0,VALID,0,0,0,0,0,1,0,0,0,0,0,0,0,0,0,0,0,0,0,0,324.61,1073.57,2,0,0.08,0.08,151,10,0.12,0.08,15.32,FLYING,X10-H,0:/Integrated Flight Computer/aircraft/x10_h_cfg.ks (inferred preloaded)
15.62,APPROACH,ILS_TRACK,151.47,152,0.53,680.99,602.41,-0.23,9.57,9.65,269.96,0.029,0.2749,0,20,1,0.6,4.5,0.75,0.35,0.0168,0.4,0,22.041,0,-0.534,0,269.95,0,0,1,-0.08,0,0,0,269.96,-0.1088,-0.0008,-0.9941,0,269.95,1.87,-419.81,19.587,-0.046,0,0,3,741.25,8.144,0,1100.81,0,0,0,0,0,0,,0,NONE,0,0,0,0,0,0,0,0,0,0,0,602.41,0,0,0,0,0,0,0,0,0,269.82,0,0,0,0,0,0,0,0,0,0,0,0,0,3,3,0,0,VALID,0,0,0,0,0,1,0,0,0,0,0,0,0,0,0,0,0,0,0,0,321.97,1073.93,2,0,0.08,0.08,154,10,0.12,0.08,15.62,FLYING,X10-H,0:/Integrated Flight Computer/aircraft/x10_h_cfg.ks (inferred preloaded)
15.92,APPROACH,ILS_TRACK,151.54,152,0.46,680.92,602.35,-0.2,9.54,9.61,269.96,0.028,0.2803,0,20,1,0.6,4.5,0.75,0.35,0.0168,0.4,0,22.022,0,-0.465,0,269.95,0,0,1,-0.07,0,0,0,269.96,-0.1089,-0.0008,-0.9941,0,269.95,1.83,-417.36,19.539,-0.048,0,0,3,741.25,8.117,0,1098.29,0,0,0,0,0,0,,0,NONE,0,0,0,0,0,0,0,0,0,0,0,602.35,0,0,0,0,0,0,0,0,0,269.82,0,0,0,0,0,0,0,0,0,0,0,0,0,3,3,0,0,VALID,0,0,0,0,0,1,0,0,0,0,0,0,0,0,0,0,0,0,0,0,319.41,1074.22,2,0,0.08,0.08,157,10,0.12,0.08,15.92,FLYING,X10-H,0:/Integrated Flight Computer/aircraft/x10_h_cfg.ks (inferred preloaded)
16.22,APPROACH,ILS_TRACK,151.6,152,0.4,680.9,602.28,-0.14,9.72,9.78,269.96,0.029,0.2864,0,20,1,0.6,4.5,0.75,0.35,0.0168,0.4,0,22.005,0,-0.404,0,269.96,0,0,1,-0.07,0,0,0,269.96,-0.109,-0.0007,-0.994,0,269.96,1.79,-414.86,19.491,-0.039,0,0,3,741.25,8.36,0,1095.77,0,0,0,0,0,0,,0,NONE,0,0,0,0,0,0,0,0,0,0,0,602.28,0,0,0,0,0,0,0,0,0,269.82,0,0,0,0,0,0,0,0,0,0,0,0,0,3,3,0,0,VALID,0,0,0,0,0,1,0,0,0,0,0,0,0,0,0,0,0,0,0,0,317.64,1074.47,2,0,0.08,0.08,160,10,0.12,0.08,16.22,FLYING,X10-H,0:/Integrated Flight Computer/aircraft/x10_h_cfg.ks (inferred preloaded)
16.52,APPROACH,ILS_TRACK,151.63,152,0.37,680.81,602.25,-0.15,9.52,9.56,269.96,0.03,0.3026,0,20,1,0.6,4.5,0.75,0.35,0.0168,0.4,0,21.997,0,-0.376,0,269.97,0,0,1,-0.05,0,0,0,269.96,-0.109,-0.0006,-0.994,0,269.97,1.75,-412.43,19.443,-0.033,0,0,3,741.25,8.117,0,1093.25,0,0,0,0,0,0,,0,NONE,0,0,0,0,0,0,0,0,0,0,0,602.25,0,0,0,0,0,0,0,0,0,269.82,0,0,0,0,0,0,0,0,0,0,0,0,0,3,3,0,0,VALID,0,0,0,0,0,1,0,0,0,0,0,0,0,0,0,0,0,0,0,0,317.37,1074.6,2,0,0.08,0.08,163,10,0.12,0.08,16.52,FLYING,X10-H,0:/Integrated Flight Computer/aircraft/x10_h_cfg.ks (inferred preloaded)
16.82,APPROACH,ILS_TRACK,151.69,152,0.31,680.77,602.2,-0.14,9.55,9.59,269.96,0.029,0.2938,0,20,1,0.6,4.5,0.75,0.35,0.0168,0.4,0,21.98,0,-0.315,0,269.96,0,0,1,-0.05,0,0,0,269.97,-0.1091,-0.0006,-0.994,0,269.96,1.71,-409.95,19.395,-0.037,0,0,3,741.25,8.234,0,1090.73,0,0,0,0,0,0,,0,NONE,0,0,0,0,0,0,0,0,0,0,0,602.2,0,0,0,0,0,0,0,0,0,269.82,0,0,0,0,0,0,0,0,0,0,0,0,0,3,3,0,0,VALID,0,0,0,0,0,1,0,0,0,0,0,0,0,0,0,0,0,0,0,0,317.67,1074.86,2,0,0.08,0.08,166,10,0.12,0.08,16.82,FLYING,X10-H,0:/Integrated Flight Computer/aircraft/x10_h_cfg.ks (inferred preloaded)
17.12,APPROACH,ILS_TRACK,151.75,152,0.25,680.73,602.15,-0.14,9.55,9.59,269.96,0.028,0.2874,0,20,1,0.6,4.5,0.75,0.35,0.0168,0.4,0,21.963,0,-0.256,0,269.96,0,0,1,-0.05,0,0,0,269.96,-0.1092,-0.0007,-0.994,0,269.96,1.68,-407.47,19.347,-0.041,0,0,3,741.25,8.238,0,1088.2,0,0,0,0,0,0,,0,NONE,0,0,0,0,0,0,0,0,0,0,0,602.15,0,0,0,0,0,0,0,0,0,269.82,0,0,0,0,0,0,0,0,0,0,0,0,0,3,3,0,0,VALID,0,0,0,0,0,1,0,0,0,0,0,0,0,0,0,0,0,0,0,0,317.38,1075.11,2,0,0.08,0.08,169,10,0.12,0.08,17.12,FLYING,X10-H,0:/Integrated Flight Computer/aircraft/x10_h_cfg.ks (inferred preloaded)
17.42,APPROACH,ILS_TRACK,151.81,152,0.19,680.69,602.12,-0.11,9.54,9.57,269.96,0.028,0.2819,0,20,1,0.6,4.5,0.75,0.35,0.0168,0.4,0,21.946,0,-0.196,0,269.96,0,0,1,-0.04,0,0,0,269.96,-0.1093,-0.0006,-0.994,0,269.96,1.65,-404.99,19.298,-0.035,0,0,3,741.25,8.276,0,1085.68,0,0,0,0,0,0,,0,NONE,0,0,0,0,0,0,0,0,0,0,0,602.12,0,0,0,0,0,0,0,0,0,269.82,0,0,0,0,0,0,0,0,0,0,0,0,0,3,3,0,0,VALID,0,0,0,0,0,1,0,0,0,0,0,0,0,0,0,0,0,0,0,0,316.43,1075.37,2,0,0.08,0.08,172,10,0.12,0.08,17.42,FLYING,X10-H,0:/Integrated Flight Computer/aircraft/x10_h_cfg.ks (inferred preloaded)
17.72,APPROACH,ILS_TRACK,151.87,152,0.13,680.65,602.09,-0.12,9.52,9.56,269.96,0.028,0.278,0,20,1,0.6,4.5,0.75,0.35,0.0168,0.4,0,21.93,0,-0.137,0,269.96,0,0,1,-0.04,0,0,0,269.97,-0.1094,-0.0007,-0.994,0,269.96,1.61,-402.5,19.25,-0.042,0,0,3,741.25,8.282,0,1083.15,0,0,0,0,0,0,,0,NONE,0,0,0,0,0,0,0,0,0,0,0,602.09,0,0,0,0,0,0,0,0,0,269.82,0,0,0,0,0,0,0,0,0,0,0,0,0,3,3,0,0,VALID,0,0,0,0,0,1,0,0,0,0,0,0,0,0,0,0,0,0,0,0,314.99,1075.62,2,0,0.08,0.08,175,10,0.12,0.08,17.72,FLYING,X10-H,0:/Integrated Flight Computer/aircraft/x10_h_cfg.ks (inferred preloaded)
18.02,APPROACH,ILS_TRACK,151.92,152,0.08,680.62,602.06,-0.09,9.52,9.56,269.96,0.028,0.2766,0,20,1,0.6,4.5,0.75,0.35,0.0168,0.4,0,21.914,0,-0.083,0,269.96,0,0,1,-0.04,0,0,0,269.97,-0.1094,-0.0007,-0.994,0,269.96,1.58,-400,19.202,-0.039,0,0,3,741.25,8.311,0,1080.63,0,0,0,0,0,0,,0,NONE,0,0,0,0,0,0,0,0,0,0,0,602.06,0,0,0,0,0,0,0,0,0,269.82,0,0,0,0,0,0,0,0,0,0,0,0,0,3,3,0,0,VALID,0,0,0,0,0,1,0,0,0,0,0,0,0,0,0,0,0,0,0,0,313.37,1075.85,2,0,0.08,0.08,178,10,0.12,0.08,18.02,FLYING,X10-H,0:/Integrated Flight Computer/aircraft/x10_h_cfg.ks (inferred preloaded)
18.32,APPROACH,ILS_TRACK,151.97,152,0.03,680.6,602.03,-0.07,9.53,9.56,269.97,0.028,0.2755,0,20,1,0.6,4.5,0.75,0.35,0.0168,0.4,0,21.9,0,-0.031,0,269.96,0,0,1,-0.03,0,0,0,269.96,-0.1095,-0.0006,-0.994,0,269.96,1.55,-397.5,19.154,-0.035,0,0,3,741.25,8.369,0,1078.1,0,0,0,0,0,0,,0,NONE,0,0,0,0,0,0,0,0,0,0,0,602.03,0,0,0,0,0,0,0,0,0,269.82,0,0,0,0,0,0,0,0,0,0,0,0,0,3,3,0,0,VALID,0,0,0,0,0,1,0,0,0,0,0,0,0,0,0,0,0,0,0,0,311.8,1076.07,2,0,0.08,0.08,181,10,0.12,0.08,18.32,FLYING,X10-H,0:/Integrated Flight Computer/aircraft/x10_h_cfg.ks (inferred preloaded)
18.62,APPROACH,ILS_TRACK,152.02,152,-0.02,680.58,602.01,-0.08,9.51,9.54,269.97,0.027,0.2783,0,19.999,1,0.6,4.5,0.75,0.35,0.0168,0.4,0,21.887,0,0.013,0,269.97,0,0,1,-0.02,0,0,0,269.96,-0.1096,-0.0005,-0.994,0,269.97,1.51,-395,19.106,-0.029,0,0,3,741.25,8.318,0,1075.58,0,0,0,0,0,0,,0,NONE,0,0,0,0,0,0,0,0,0,0,0,602.01,0,0,0,0,0,0,0,0,0,269.82,0,0,0,0,0,0,0,0,0,0,0,0,0,3,3,0,0,VALID,0,0,0,0,0,1,0,0,0,0,0,0,0,0,0,0,0,0,0,0,310.36,1076.26,2,0,0.08,0.08,184,10,0.12,0.08,18.62,FLYING,X10-H,0:/Integrated Flight Computer/aircraft/x10_h_cfg.ks (inferred preloaded)
18.92,APPROACH,ILS_TRACK,152.04,152,-0.04,680.59,601.99,0.02,9.67,9.66,269.97,0.026,0.2885,0,19.988,1,0.6,4.5,0.75,0.35,0.0168,0.4,0,21.879,0,0.044,0,269.97,0,0,1,-0.01,0,0,0,269.97,-0.1097,-0.0005,-0.994,0,269.97,1.48,-392.45,19.057,-0.026,0,0,3,741.25,8.44,0,1073.05,0,0,0,0,0,0,,0,NONE,0,0,0,0,0,0,0,0,0,0,0,601.99,0,0,0,0,0,0,0,0,0,269.82,0,0,0,0,0,0,0,0,0,0,0,0,0,3,3,0,0,VALID,0,0,0,0,0,1,0,0,0,0,0,0,0,0,0,0,0,0,0,0,309.39,1076.38,2,0,0.08,0.08,187,10,0.12,0.08,18.92,FLYING,X10-H,0:/Integrated Flight Computer/aircraft/x10_h_cfg.ks (inferred preloaded)
19.22,APPROACH,ILS_TRACK,152.06,152,-0.06,680.56,601.99,-0.05,9.52,9.55,269.97,0.029,0.2976,0,19.973,1,0.6,4.5,0.75,0.35,0.0168,0.4,0,21.875,0,0.058,0,269.97,0,0,1,-0.02,0,0,0,269.96,-0.1098,-0.0006,-0.994,0,269.97,1.46,-389.96,19.009,-0.033,0,0,3,741.25,8.395,0,1070.52,0,0,0,0,0,0,,0,NONE,0,0,0,0,0,0,0,0,0,0,0,601.99,0,0,0,0,0,0,0,0,0,269.82,0,0,0,0,0,0,0,0,0,0,0,0,0,3,3,0,0,VALID,0,0,0,0,0,1,0,0,0,0,0,0,0,0,0,0,0,0,0,0,309.8,1076.45,2,0,0.08,0.08,190,10,0.12,0.08,19.22,FLYING,X10-H,0:/Integrated Flight Computer/aircraft/x10_h_cfg.ks (inferred preloaded)
19.52,APPROACH,ILS_TRACK,152.09,152,-0.09,680.55,601.98,-0.01,9.52,9.52,269.97,0.028,0.2919,0,19.949,1,0.6,4.5,0.75,0.35,0.0168,0.4,0,21.865,0,0.091,0,269.97,0,0,1,0,0,0,0,269.96,-0.1098,-0.0006,-0.9939,0,269.97,1.43,-387.44,18.961,-0.033,0,0,3,741.25,8.379,0,1067.99,0,0,0,0,0,0,,0,NONE,0,0,0,0,0,0,0,0,0,0,0,601.98,0,0,0,0,0,0,0,0,0,269.82,0,0,0,0,0,0,0,0,0,0,0,0,0,3,3,0,0,VALID,0,0,0,0,0,1,0,0,0,0,0,0,0,0,0,0,0,0,0,0,310.38,1076.59,2,0,0.08,0.08,193,10,0.12,0.08,19.52,FLYING,X10-H,0:/Integrated Flight Computer/aircraft/x10_h_cfg.ks (inferred preloaded)
19.82,APPROACH,ILS_TRACK,152.14,152,-0.14,680.55,601.98,0,9.52,9.53,269.97,0.026,0.2828,0,19.914,1,0.6,4.5,0.75,0.35,0.0168,0.4,0,21.854,0,0.133,0,269.97,0,0,1,0,0,0,0,269.97,-0.1099,-0.0006,-0.9939,0,269.97,1.4,-384.91,18.913,-0.032,0,0,3,741.25,8.432,0,1065.46,0,0,0,0,0,0,,0,NONE,0,0,0,0,0,0,0,0,0,0,0,601.98,0,0,0,0,0,0,0,0,0,269.82,0,0,0,0,0,0,0,0,0,0,0,0,0,3,3,0,0,VALID,0,0,0,0,0,1,0,0,0,0,0,0,0,0,0,0,0,0,0,0,310.48,1076.77,2,0,0.08,0.08,196,10,0.12,0.08,19.82,FLYING,X10-H,0:/Integrated Flight Computer/aircraft/x10_h_cfg.ks (inferred preloaded)
20.12,APPROACH,ILS_TRACK,152.18,152,-0.18,680.55,601.98,0.02,9.53,9.52,269.97,0.025,0.2756,0,19.865,1,0.6,4.5,0.75,0.35,0.0168,0.4,0,21.842,0,0.175,0,269.96,0,0,1,0,0,0,0,269.97,-0.11,-0.0007,-0.9939,0,269.96,1.37,-382.38,18.864,-0.039,0,0,3,741.25,8.449,0,1062.93,0,0,0,0,0,0,,0,NONE,0,0,0,0,0,0,0,0,0,0,0,601.98,0,0,0,0,0,0,0,0,0,269.82,0,0,0,0,0,0,0,0,0,0,0,0,0,3,3,0,0,VALID,0,0,0,0,0,1,0,0,0,0,0,0,0,0,0,0,0,0,0,0,309.72,1076.95,2,0,0.08,0.08,199,10,0.12,0.08,20.12,FLYING,X10-H,0:/Integrated Flight Computer/aircraft/x10_h_cfg.ks (inferred preloaded)
20.42,APPROACH,ILS_TRACK,152.22,152,-0.22,680.56,601.99,0.03,9.53,9.52,269.97,0.025,0.2716,0,19.805,1,0.6,4.5,0.75,0.35,0.0168,0.4,0,21.83,0,0.215,0,269.97,0,0,1,0.01,0,0,0,269.97,-0.1101,-0.0006,-0.9939,0,269.97,1.34,-379.85,18.816,-0.034,0,0,3,741.25,8.46,0,1060.4,0,0,0,0,0,0,,0,NONE,0,0,0,0,0,0,0,0,0,0,0,601.99,0,0,0,0,0,0,0,0,0,269.82,0,0,0,0,0,0,0,0,0,0,0,0,0,3,3,0,0,VALID,0,0,0,0,0,1,0,0,0,0,0,0,0,0,0,0,0,0,0,0,308.35,1077.11,2,0,0.08,0.08,202,10,0.12,0.08,20.42,FLYING,X10-H,0:/Integrated Flight Computer/aircraft/x10_h_cfg.ks (inferred preloaded)
20.72,APPROACH,ILS_TRACK,152.25,152,-0.25,680.57,602,0.04,9.53,9.51,269.97,0.026,0.2706,0,19.733,1,0.6,4.5,0.75,0.35,0.0168,0.4,0,21.82,0,0.25,0,269.97,0,0,1,0.01,0,0,0,269.96,-0.1102,-0.0005,-0.9939,0,269.97,1.32,-377.31,18.768,-0.027,0,0,3,741.25,8.47,0,1057.87,0,0,0,0,0,0,,0,NONE,0,0,0,0,0,0,0,0,0,0,0,602,0,0,0,0,0,0,0,0,0,269.82,0,0,0,0,0,0,0,0,0,0,0,0,0,3,3,0,0,VALID,0,0,0,0,0,1,0,0,0,0,0,0,0,0,0,0,0,0,0,0,306.76,1077.26,2,0,0.08,0.08,205,10,0.12,0.08,20.72,FLYING,X10-H,0:/Integrated Flight Computer/aircraft/x10_h_cfg.ks (inferred preloaded)
21.02,APPROACH,ILS_TRACK,152.28,152,-0.28,680.58,602.01,0.05,9.52,9.51,269.97,0.026,0.2718,0,19.652,1,0.6,4.5,0.75,0.35,0.0168,0.4,0,21.812,0,0.28,0,269.97,0,0,1,0.02,0,0,0,269.97,-0.1102,-0.0005,-0.9939,0,269.97,1.29,-374.76,18.72,-0.029,0,0,3,741.25,8.468,0,1055.34,0,0,0,0,0,0,,0,NONE,0,0,0,0,0,0,0,0,0,0,0,602.01,0,0,0,0,0,0,0,0,0,269.82,0,0,0,0,0,0,0,0,0,0,0,0,0,3,3,0,0,VALID,0,0,0,0,0,1,0,0,0,0,0,0,0,0,0,0,0,0,0,0,305.27,1077.38,2,0,0.08,0.08,208,10,0.12,0.08,21.02,FLYING,X10-H,0:/Integrated Flight Computer/aircraft/x10_h_cfg.ks (inferred preloaded)
21.32,APPROACH,ILS_TRACK,152.31,152,-0.31,680.6,602.03,0.06,9.53,9.51,269.97,0.025,0.2733,0,19.562,1,0.6,4.5,0.75,0.35,0.0168,0.4,0,21.805,0,0.305,0,269.97,0,0,1,0.02,0,0,0,269.97,-0.1103,-0.0006,-0.9939,0,269.97,1.27,-372.21,18.671,-0.033,0,0,3,741.25,8.509,0,1052.81,0,0,0,0,0,0,,0,NONE,0,0,0,0,0,0,0,0,0,0,0,602.03,0,0,0,0,0,0,0,0,0,269.82,0,0,0,0,0,0,0,0,0,0,0,0,0,3,3,0,0,VALID,0,0,0,0,0,1,0,0,0,0,0,0,0,0,0,0,0,0,0,0,304.08,1077.49,2,0,0.08,0.08,211,10,0.12,0.08,21.32,FLYING,X10-H,0:/Integrated Flight Computer/aircraft/x10_h_cfg.ks (inferred preloaded)
21.62,APPROACH,ILS_TRACK,152.33,152,-0.33,680.62,602.05,0.07,9.53,9.5,269.97,0.024,0.2747,0,19.466,1,0.6,4.5,0.75,0.35,0.0168,0.4,0,21.799,0,0.327,0,269.97,0,0,1,0.03,0,0,0,269.97,-0.1104,-0.0006,-0.9939,0,269.97,1.24,-369.66,18.623,-0.033,0,0,3,741.25,8.514,0,1050.27,0,0,0,0,0,0,,0,NONE,0,0,0,0,0,0,0,0,0,0,0,602.05,0,0,0,0,0,0,0,0,0,269.82,0,0,0,0,0,0,0,0,0,0,0,0,0,3,3,0,0,VALID,0,0,0,0,0,1,0,0,0,0,0,0,0,0,0,0,0,0,0,0,303.17,1077.58,2,0,0.08,0.08,214,10,0.12,0.08,21.62,FLYING,X10-H,0:/Integrated Flight Computer/aircraft/x10_h_cfg.ks (inferred preloaded)
21.92,APPROACH,ILS_TRACK,152.35,152,-0.35,680.64,602.07,0.08,9.53,9.5,269.97,0.022,0.2755,0,19.365,1,0.6,4.5,0.75,0.35,0.0168,0.4,0,21.794,0,0.345,0,269.97,0,0,1,0.03,0,0,0,269.97,-0.1105,-0.0006,-0.9939,0,269.97,1.22,-367.1,18.575,-0.032,0,0,3,741.25,8.526,0,1047.74,0,0,0,0,0,0,,0,NONE,0,0,0,0,0,0,0,0,0,0,0,602.07,0,0,0,0,0,0,0,0,0,269.82,0,0,0,0,0,0,0,0,0,0,0,0,0,3,3,0,0,VALID,0,0,0,0,0,1,0,0,0,0,0,0,0,0,0,0,0,0,0,0,302.49,1077.65,2,0,0.08,0.08,217,10,0.12,0.08,21.92,FLYING,X10-H,0:/Integrated Flight Computer/aircraft/x10_h_cfg.ks (inferred preloaded)
22.22,APPROACH,ILS_TRACK,152.36,152,-0.36,680.67,602.1,0.1,9.53,9.5,269.98,0.021,0.2759,0,19.258,1,0.6,4.5,0.75,0.35,0.0168,0.4,0,21.789,0,0.362,0,269.97,0,0,1,0.04,0,0,0,269.97,-0.1106,-0.0005,-0.9939,0,269.97,1.2,-364.54,18.526,-0.031,0,0,3,741.25,8.535,0,1045.21,0,0,0,0,0,0,,0,NONE,0,0,0,0,0,0,0,0,0,0,0,602.1,0,0,0,0,0,0,0,0,0,269.82,0,0,0,0,0,0,0,0,0,0,0,0,0,3,3,0,0,VALID,0,0,0,0,0,1,0,0,0,0,0,0,0,0,0,0,0,0,0,0,301.95,1077.72,2,0,0.08,0.08,220,10,0.12,0.08,22.22,FLYING,X10-H,0:/Integrated Flight Computer/aircraft/x10_h_cfg.ks (inferred preloaded)
22.52,APPROACH,ILS_TRACK,152.38,152,-0.38,680.7,602.13,0.12,9.53,9.49,269.98,0.02,0.2761,0,19.146,1,0.6,4.5,0.75,0.35,0.0168,0.4,0,21.785,0,0.376,0,269.98,0,0,1,0.04,0,0,0,269.96,-0.1106,-0.0004,-0.9939,0,269.98,1.17,-361.98,18.478,-0.021,0,0,3,741.25,8.546,0,1042.67,0,0,0,0,0,0,,0,NONE,0,0,0,0,0,0,0,0,0,0,0,602.13,0,0,0,0,0,0,0,0,0,269.82,0,0,0,0,0,0,0,0,0,0,0,0,0,3,3,0,0,VALID,0,0,0,0,0,1,0,0,0,0,0,0,0,0,0,0,0,0,0,0,301.49,1077.78,2,0,0.08,0.08,223,10,0.12,0.08,22.52,FLYING,X10-H,0:/Integrated Flight Computer/aircraft/x10_h_cfg.ks (inferred preloaded)
22.82,APPROACH,ILS_TRACK,152.39,152,-0.39,680.73,602.16,0.12,9.53,9.49,269.98,0.018,0.2779,0,19.031,1,0.6,4.5,0.75,0.35,0.0168,0.4,0,21.782,0,0.385,0,269.96,0,0,1,0.05,0,0,0,269.97,-0.1107,-0.0006,-0.9939,0,269.96,1.16,-359.41,18.43,-0.036,0,0,3,741.25,8.54,0,1040.14,0,0,0,0,0,0,,0,NONE,0,0,0,0,0,0,0,0,0,0,0,602.16,0,0,0,0,0,0,0,0,0,269.82,0,0,0,0,0,0,0,0,0,0,0,0,0,3,3,0,0,VALID,0,0,0,0,0,1,0,0,0,0,0,0,0,0,0,0,0,0,0,0,301.12,1077.81,2,0,0.08,0.08,226,10,0.12,0.08,22.82,FLYING,X10-H,0:/Integrated Flight Computer/aircraft/x10_h_cfg.ks (inferred preloaded)
23.12,APPROACH,ILS_TRACK,152.4,152,-0.4,680.77,602.2,0.11,9.53,9.49,269.98,0.018,0.2772,0,18.914,1,0.6,4.5,0.75,0.35,0.0168,0.4,0,21.78,0,0.395,0,269.96,0,0,1,0.05,0,0,0,269.98,-0.1108,-0.0006,-0.9938,0,269.96,1.13,-356.84,18.381,-0.035,0,0,3,741.25,8.56,0,1037.61,0,0,0,0,0,0,,0,NONE,0,0,0,0,0,0,0,0,0,0,0,602.2,0,0,0,0,0,0,0,0,0,269.82,0,0,0,0,0,0,0,0,0,0,0,0,0,3,3,0,0,VALID,0,0,0,0,0,1,0,0,0,0,0,0,0,0,0,0,0,0,0,0,300.96,1077.85,2,0,0.08,0.08,229,10,0.12,0.08,23.12,FLYING,X10-H,0:/Integrated Flight Computer/aircraft/x10_h_cfg.ks (inferred preloaded)
23.42,APPROACH,ILS_TRACK,152.4,152,-0.4,680.81,602.24,0.13,9.54,9.5,269.98,0.016,0.2754,0,18.794,1,0.6,4.5,0.75,0.35,0.0168,0.4,0,21.777,0,0.404,0,269.97,0,0,1,0.05,0,0,0,269.97,-0.1109,-0.0005,-0.9938,0,269.97,1.11,-354.27,18.333,-0.028,0,0,3,741.25,8.589,0,1035.07,0,0,0,0,0,0,,0,NONE,0,0,0,0,0,0,0,0,0,0,0,602.24,0,0,0,0,0,0,0,0,0,269.82,0,0,0,0,0,0,0,0,0,0,0,0,0,3,3,0,0,VALID,0,0,0,0,0,1,0,0,0,0,0,0,0,0,0,0,0,0,0,0,300.7,1077.89,2,0,0.08,0.08,232,10,0.12,0.08,23.42,FLYING,X10-H,0:/Integrated Flight Computer/aircraft/x10_h_cfg.ks (inferred preloaded)
23.72,APPROACH,ILS_TRACK,152.41,152,-0.41,680.86,602.29,0.18,9.56,9.49,269.98,0.017,0.2753,0,18.671,1,0.6,4.5,0.75,0.35,0.0168,0.4,0,21.775,0,0.411,0,269.97,0,0,1,0.06,0,0,0,269.97,-0.111,-0.0005,-0.9938,0,269.97,1.09,-351.69,18.284,-0.027,0,0,3,741.25,8.611,0,1032.54,0,0,0,0,0,0,,0,NONE,0,0,0,0,0,0,0,0,0,0,0,602.29,0,0,0,0,0,0,0,0,0,269.82,0,0,0,0,0,0,0,0,0,0,0,0,0,3,3,0,0,VALID,0,0,0,0,0,1,0,0,0,0,0,0,0,0,0,0,0,0,0,0,300.29,1077.91,2,0,0.08,0.08,235,10,0.12,0.08,23.72,FLYING,X10-H,0:/Integrated Flight Computer/aircraft/x10_h_cfg.ks (inferred preloaded)
24.02,APPROACH,ILS_TRACK,152.41,152,-0.41,680.9,602.33,0.17,9.55,9.48,269.98,0.019,0.2755,0,18.548,1,0.6,4.5,0.75,0.35,0.0168,0.4,0,21.774,0,0.414,0,269.97,0,0,1,0.06,0,0,0,269.97,-0.111,-0.0005,-0.9938,0,269.97,1.08,-349.11,18.236,-0.028,0,0,3,741.25,8.626,0,1030.01,0,0,0,0,0,0,,0,NONE,0,0,0,0,0,0,0,0,0,0,0,602.33,0,0,0,0,0,0,0,0,0,269.82,0,0,0,0,0,0,0,0,0,0,0,0,0,3,3,0,0,VALID,0,0,0,0,0,1,0,0,0,0,0,0,0,0,0,0,0,0,0,0,300,1077.92,2,0,0.08,0.08,238,10,0.12,0.08,24.02,FLYING,X10-H,0:/Integrated Flight Computer/aircraft/x10_h_cfg.ks (inferred preloaded)
24.32,APPROACH,ILS_TRACK,152.42,152,-0.42,680.95,602.38,0.17,9.53,9.47,269.98,0.019,0.2739,0,18.423,1,0.6,4.5,0.75,0.35,0.0168,0.4,0,21.773,0,0.418,0,269.97,0,0,1,0.07,0,0,0,269.98,-0.1111,-0.0005,-0.9938,0,269.97,1.06,-346.53,18.188,-0.026,0,0,3,741.25,8.599,0,1027.47,0,0,0,0,0,0,,0,NONE,0,0,0,0,0,0,0,0,0,0,0,602.38,0,0,0,0,0,0,0,0,0,269.82,0,0,0,0,0,0,0,0,0,0,0,0,0,3,3,0,0,VALID,0,0,0,0,0,1,0,0,0,0,0,0,0,0,0,0,0,0,0,0,299.7,1077.93,2,0,0.08,0.08,241,10,0.12,0.08,24.32,FLYING,X10-H,0:/Integrated Flight Computer/aircraft/x10_h_cfg.ks (inferred preloaded)
24.62,APPROACH,ILS_TRACK,152.42,152,-0.42,681.01,602.43,0.15,9.53,9.49,269.98,0.018,0.2714,0,18.296,1,0.6,4.5,0.75,0.35,0.0168,0.4,0,21.772,0,0.423,0,269.97,0,0,1,0.06,0,0,0,269.98,-0.1112,-0.0005,-0.9938,0,269.97,1.04,-343.94,18.139,-0.03,0,0,3,741.25,8.629,0,1024.94,0,0,0,0,0,0,,0,NONE,0,0,0,0,0,0,0,0,0,0,0,602.43,0,0,0,0,0,0,0,0,0,269.82,0,0,0,0,0,0,0,0,0,0,0,0,0,3,3,0,0,VALID,0,0,0,0,0,1,0,0,0,0,0,0,0,0,0,0,0,0,0,0,299.16,1077.95,2,0,0.08,0.08,244,10,0.12,0.08,24.62,FLYING,X10-H,0:/Integrated Flight Computer/aircraft/x10_h_cfg.ks (inferred preloaded)
24.92,APPROACH,ILS_TRACK,152.42,152,-0.42,681.06,602.49,0.15,9.52,9.47,269.98,0.019,0.2749,0,18.17,1,0.6,4.5,0.75,0.35,0.0168,0.4,0,21.772,0,0.42,0,269.97,0,0,1,0.06,0,0,0,269.97,-0.1113,-0.0005,-0.9938,0,269.97,1.02,-341.36,18.091,-0.03,0,0,3,741.25,8.624,0,1022.4,0,0,0,0,0,0,,0,NONE,0,0,0,0,0,0,0,0,0,0,0,602.49,0,0,0,0,0,0,0,0,0,269.82,0,0,0,0,0,0,0,0,0,0,0,0,0,3,3,0,0,VALID,0,0,0,0,0,1,0,0,0,0,0,0,0,0,0,0,0,0,0,0,298.55,1077.93,2,0,0.08,0.08,247,10,0.12,0.08,24.92,FLYING,X10-H,0:/Integrated Flight Computer/aircraft/x10_h_cfg.ks (inferred preloaded)
25.22,APPROACH,ILS_TRACK,152.42,152,-0.42,681.12,602.55,0.2,9.54,9.47,269.98,0.017,0.2742,0,18.044,1,0.6,4.5,0.75,0.35,0.0168,0.4,0,21.773,0,0.419,0,269.97,0,0,1,0.07,0,0,0,269.97,-0.1114,-0.0005,-0.9938,0,269.97,1.01,-338.76,18.043,-0.026,0,0,3,741.25,8.617,0,1019.87,0,0,0,0,0,0,,0,NONE,0,0,0,0,0,0,0,0,0,0,0,602.55,0,0,0,0,0,0,0,0,0,269.82,0,0,0,0,0,0,0,0,0,0,0,0,0,3,3,0,0,VALID,0,0,0,0,0,1,0,0,0,0,0,0,0,0,0,0,0,0,0,0,298.25,1077.92,2,0,0.08,0.08,250,10,0.12,0.08,25.22,FLYING,X10-H,0:/Integrated Flight Computer/aircraft/x10_h_cfg.ks (inferred preloaded)
25.52,APPROACH,ILS_TRACK,152.42,152,-0.42,681.18,602.6,0.2,9.54,9.48,269.98,0.017,0.2704,0,17.917,1,0.6,4.5,0.75,0.35,0.0168,0.4,0,21.772,0,0.421,0,269.98,0,0,1,0.07,0,0,0,269.97,-0.1114,-0.0003,-0.9938,0,269.98,0.99,-336.17,17.994,-0.02,0,0,3,741.25,8.676,0,1017.33,0,0,0,0,0,0,,0,NONE,0,0,0,0,0,0,0,0,0,0,0,602.6,0,0,0,0,0,0,0,0,0,269.82,0,0,0,0,0,0,0,0,0,0,0,0,0,3,3,0,0,VALID,0,0,0,0,0,1,0,0,0,0,0,0,0,0,0,0,0,0,0,0,297.88,1077.93,2,0,0.08,0.08,253,10,0.12,0.08,25.52,FLYING,X10-H,0:/Integrated Flight Computer/aircraft/x10_h_cfg.ks (inferred preloaded)
25.82,APPROACH,ILS_TRACK,152.42,152,-0.42,681.24,602.67,0.21,9.55,9.48,269.98,0.016,0.2692,0,17.791,1,0.6,4.5,0.75,0.35,0.0168,0.4,0,21.772,0,0.421,0,269.97,0,0,1,0.08,0,0,0,269.97,-0.1115,-0.0005,-0.9938,0,269.97,0.98,-333.57,17.946,-0.026,0,0,3,741.25,8.654,0,1014.8,0,0,0,0,0,0,,0,NONE,0,0,0,0,0,0,0,0,0,0,0,602.67,0,0,0,0,0,0,0,0,0,269.82,0,0,0,0,0,0,0,0,0,0,0,0,0,3,3,0,0,VALID,0,0,0,0,0,1,0,0,0,0,0,0,0,0,0,0,0,0,0,0,297.2,1077.92,2,0,0.08,0.08,256,10,0.12,0.08,25.82,FLYING,X10-H,0:/Integrated Flight Computer/aircraft/x10_h_cfg.ks (inferred preloaded)
26.12,APPROACH,ILS_TRACK,152.42,152,-0.42,681.3,602.73,0.22,9.56,9.48,269.98,0.016,0.2687,0,17.665,1,0.6,4.5,0.75,0.35,0.0168,0.4,0,21.773,0,0.419,0,269.98,0,0,1,0.08,0,0,0,269.97,-0.1116,-0.0004,-0.9938,0,269.98,0.96,-330.97,17.898,-0.02,0,0,3,741.25,8.668,0,1012.27,0,0,0,0,0,0,,0,NONE,0,0,0,0,0,0,0,0,0,0,0,602.73,0,0,0,0,0,0,0,0,0,269.82,0,0,0,0,0,0,0,0,0,0,0,0,0,3,3,0,0,VALID,0,0,0,0,0,1,0,0,0,0,0,0,0,0,0,0,0,0,0,0,296.45,1077.91,2,0,0.08,0.08,259,10,0.12,0.08,26.12,FLYING,X10-H,0:/Integrated Flight Computer/aircraft/x10_h_cfg.ks (inferred preloaded)
26.42,APPROACH,ILS_TRACK,152.41,152,-0.41,681.37,602.8,0.22,9.54,9.45,269.99,0.015,0.2713,0,17.54,1,0.6,4.5,0.75,0.35,0.0168,0.4,0,21.775,0,0.412,0,269.97,0,0,1,0.09,0,0,0,269.98,-0.1117,-0.0006,-0.9937,0,269.97,0.95,-328.37,17.849,-0.033,0,0,3,741.25,8.621,0,1009.73,0,0,0,0,0,0,,0,NONE,0,0,0,0,0,0,0,0,0,0,0,602.8,0,0,0,0,0,0,0,0,0,269.82,0,0,0,0,0,0,0,0,0,0,0,0,0,3,3,0,0,VALID,0,0,0,0,0,1,0,0,0,0,0,0,0,0,0,0,0,0,0,0,295.78,1077.87,2,0,0.08,0.08,262,10,0.12,0.08,26.42,FLYING,X10-H,0:/Integrated Flight Computer/aircraft/x10_h_cfg.ks (inferred preloaded)
26.72,APPROACH,ILS_TRACK,152.4,152,-0.4,681.44,602.86,0.23,9.56,9.48,269.99,0.014,0.2719,0,17.418,1,0.6,4.5,0.75,0.35,0.0168,0.4,0,21.777,0,0.404,0,269.97,0,0,1,0.08,0,0,0,269.97,-0.1118,-0.0005,-0.9937,0,269.97,0.94,-325.77,17.801,-0.027,0,0,3,741.25,8.683,0,1007.2,0,0,0,0,0,0,,0,NONE,0,0,0,0,0,0,0,0,0,0,0,602.86,0,0,0,0,0,0,0,0,0,269.82,0,0,0,0,0,0,0,0,0,0,0,0,0,3,3,0,0,VALID,0,0,0,0,0,1,0,0,0,0,0,0,0,0,0,0,0,0,0,0,295.42,1077.83,2,0,0.08,0.08,265,10,0.12,0.08,26.72,FLYING,X10-H,0:/Integrated Flight Computer/aircraft/x10_h_cfg.ks (inferred preloaded)
27.02,APPROACH,ILS_TRACK,152.39,152,-0.39,681.51,602.93,0.24,9.56,9.48,269.99,0.012,0.2714,0,17.299,1,0.6,4.5,0.75,0.35,0.0168,0.4,0,21.779,0,0.395,0,269.97,0,0,1,0.09,0,0,0,269.98,-0.1118,-0.0005,-0.9937,0,269.97,0.93,-323.16,17.753,-0.03,0,0,3,741.25,8.683,0,1004.66,0,0,0,0,0,0,,0,NONE,0,0,0,0,0,0,0,0,0,0,0,602.93,0,0,0,0,0,0,0,0,0,269.82,0,0,0,0,0,0,0,0,0,0,0,0,0,3,3,0,0,VALID,0,0,0,0,0,1,0,0,0,0,0,0,0,0,0,0,0,0,0,0,295.16,1077.79,2,0,0.08,0.08,268,10,0.12,0.08,27.02,FLYING,X10-H,0:/Integrated Flight Computer/aircraft/x10_h_cfg.ks (inferred preloaded)
27.32,APPROACH,ILS_TRACK,152.39,152,-0.39,681.58,603.01,0.23,9.56,9.48,269.99,0.01,0.2703,0,17.182,1,0.6,4.5,0.75,0.35,0.0168,0.4,0,21.782,0,0.388,0,269.97,0,0,1,0.09,0,0,0,269.97,-0.1119,-0.0004,-0.9937,0,269.97,0.91,-320.56,17.704,-0.025,0,0,3,741.25,8.694,0,1002.13,0,0,0,0,0,0,,0,NONE,0,0,0,0,0,0,0,0,0,0,0,603.01,0,0,0,0,0,0,0,0,0,269.82,0,0,0,0,0,0,0,0,0,0,0,0,0,3,3,0,0,VALID,0,0,0,0,0,1,0,0,0,0,0,0,0,0,0,0,0,0,0,0,294.85,1077.75,2,0,0.08,0.08,271,10,0.12,0.08,27.32,FLYING,X10-H,0:/Integrated Flight Computer/aircraft/x10_h_cfg.ks (inferred preloaded)
27.62,APPROACH,ILS_TRACK,152.38,152,-0.38,681.66,603.08,0.25,9.58,9.49,269.99,0.009,0.2706,0,17.068,1,0.6,4.5,0.75,0.35,0.0168,0.4,0,21.785,0,0.378,0,269.97,0,0,1,0.09,0,0,0,269.97,-0.112,-0.0005,-0.9937,0,269.97,0.9,-317.95,17.656,-0.026,0,0,3,741.25,8.711,0,999.6,0,0,0,0,0,0,,0,NONE,0,0,0,0,0,0,0,0,0,0,0,603.08,0,0,0,0,0,0,0,0,0,269.82,0,0,0,0,0,0,0,0,0,0,0,0,0,3,3,0,0,VALID,0,0,0,0,0,1,0,0,0,0,0,0,0,0,0,0,0,0,0,0,294.49,1077.7,2,0,0.08,0.08,274,10,0.12,0.08,27.62,FLYING,X10-H,0:/Integrated Flight Computer/aircraft/x10_h_cfg.ks (inferred preloaded)
27.92,APPROACH,ILS_TRACK,152.37,152,-0.37,681.74,603.16,0.27,9.58,9.48,269.99,0.009,0.271,0,16.957,1,0.6,4.5,0.75,0.35,0.0168,0.4,0,21.788,0,0.366,0,269.97,0,0,1,0.1,0,0,0,269.98,-0.1121,-0.0005,-0.9937,0,269.97,0.89,-315.34,17.608,-0.03,0,0,3,741.25,8.716,0,997.06,0,0,0,0,0,0,,0,NONE,0,0,0,0,0,0,0,0,0,0,0,603.16,0,0,0,0,0,0,0,0,0,269.82,0,0,0,0,0,0,0,0,0,0,0,0,0,3,3,0,0,VALID,0,0,0,0,0,1,0,0,0,0,0,0,0,0,0,0,0,0,0,0,294.21,1077.65,2,0,0.08,0.08,277,10,0.12,0.08,27.92,FLYING,X10-H,0:/Integrated Flight Computer/aircraft/x10_h_cfg.ks (inferred preloaded)
28.22,APPROACH,ILS_TRACK,152.35,152,-0.35,681.81,603.24,0.29,9.57,9.46,269.99,0.008,0.2747,0,16.85,1,0.6,4.5,0.75,0.35,0.0168,0.4,0,21.792,0,0.35,0,269.97,0,0,1,0.11,0,0,0,269.97,-0.1122,-0.0005,-0.9937,0,269.97,0.88,-312.73,17.559,-0.027,0,0,3,741.25,8.639,0,994.53,0,0,0,0,0,0,,0,NONE,0,0,0,0,0,0,0,0,0,0,0,603.24,0,0,0,0,0,0,0,0,0,269.82,0,0,0,0,0,0,0,0,0,0,0,0,0,3,3,0,0,VALID,0,0,0,0,0,1,0,0,0,0,0,0,0,0,0,0,0,0,0,0,294.01,1077.57,2,0,0.08,0.08,280,10,0.12,0.08,28.22,FLYING,X10-H,0:/Integrated Flight Computer/aircraft/x10_h_cfg.ks (inferred preloaded)
28.52,APPROACH,ILS_TRACK,152.33,152,-0.33,681.9,603.32,0.27,9.58,9.48,269.99,0.008,0.2745,0,16.748,1,0.6,4.5,0.75,0.35,0.0168,0.4,0,21.797,0,0.335,0,269.97,0,0,1,0.1,0,0,0,269.98,-0.1122,-0.0005,-0.9937,0,269.97,0.87,-310.11,17.511,-0.031,0,0,3,741.25,8.733,0,992,0,0,0,0,0,0,,0,NONE,0,0,0,0,0,0,0,0,0,0,0,603.32,0,0,0,0,0,0,0,0,0,269.82,0,0,0,0,0,0,0,0,0,0,0,0,0,3,3,0,0,VALID,0,0,0,0,0,1,0,0,0,0,0,0,0,0,0,0,0,0,0,0,294.11,1077.5,2,0,0.08,0.08,283,10,0.12,0.08,28.52,FLYING,X10-H,0:/Integrated Flight Computer/aircraft/x10_h_cfg.ks (inferred preloaded)
28.82,APPROACH,ILS_TRACK,152.32,152,-0.32,681.98,603.4,0.27,9.57,9.47,269.99,0.007,0.2732,0,16.651,1,0.6,4.5,0.75,0.35,0.0168,0.4,0,21.8,0,0.321,0,269.97,0,0,1,0.11,0,0,0,269.97,-0.1123,-0.0005,-0.9937,0,269.97,0.86,-307.5,17.463,-0.026,0,0,3,741.25,8.695,0,989.46,0,0,0,0,0,0,,0,NONE,0,0,0,0,0,0,0,0,0,0,0,603.4,0,0,0,0,0,0,0,0,0,269.82,0,0,0,0,0,0,0,0,0,0,0,0,0,3,3,0,0,VALID,0,0,0,0,0,1,0,0,0,0,0,0,0,0,0,0,0,0,0,0,294.19,1077.44,2,0,0.08,0.08,286,10,0.12,0.08,28.82,FLYING,X10-H,0:/Integrated Flight Computer/aircraft/x10_h_cfg.ks (inferred preloaded)
29.12,APPROACH,ILS_TRACK,152.31,152,-0.31,682.07,603.48,0.26,9.59,9.5,269.99,0.006,0.2733,0,16.557,1,0.6,4.5,0.75,0.35,0.0168,0.4,0,21.804,0,0.307,0,269.97,0,0,1,0.1,0,0,0,269.97,-0.1124,-0.0005,-0.9937,0,269.97,0.85,-304.88,17.414,-0.027,0,0,3,741.25,8.736,0,986.93,0,0,0,0,0,0,,0,NONE,0,0,0,0,0,0,0,0,0,0,0,603.48,0,0,0,0,0,0,0,0,0,269.82,0,0,0,0,0,0,0,0,0,0,0,0,0,3,3,0,0,VALID,0,0,0,0,0,1,0,0,0,0,0,0,0,0,0,0,0,0,0,0,294.15,1077.37,2,0,0.08,0.08,289,10,0.12,0.08,29.12,FLYING,X10-H,0:/Integrated Flight Computer/aircraft/x10_h_cfg.ks (inferred preloaded)
29.42,APPROACH,ILS_TRACK,152.29,152,-0.29,682.15,603.56,0.27,9.58,9.48,269.99,0.004,0.2742,0,16.469,1,0.6,4.5,0.75,0.35,0.0168,0.4,0,21.809,0,0.29,0,269.97,0,0,1,0.1,0,0,0,269.97,-0.1125,-0.0005,-0.9937,0,269.97,0.84,-302.27,17.366,-0.031,0,0,3,741.25,8.732,0,984.4,0,0,0,0,0,0,,0,NONE,0,0,0,0,0,0,0,0,0,0,0,603.56,0,0,0,0,0,0,0,0,0,269.82,0,0,0,0,0,0,0,0,0,0,0,0,0,3,3,0,0,VALID,0,0,0,0,0,1,0,0,0,0,0,0,0,0,0,0,0,0,0,0,294.17,1077.3,2,0,0.08,0.08,292,10,0.12,0.08,29.42,FLYING,X10-H,0:/Integrated Flight Computer/aircraft/x10_h_cfg.ks (inferred preloaded)
29.72,APPROACH,ILS_TRACK,152.27,152,-0.27,682.23,603.65,0.25,9.56,9.47,269.99,0.002,0.2738,0,16.384,1,0.6,4.5,0.75,0.35,0.0168,0.4,0,21.813,0,0.275,0,269.97,0,0,1,0.1,0,0,0,269.98,-0.1126,-0.0005,-0.9936,0,269.97,0.84,-299.65,17.318,-0.03,0,0,3,741.25,8.714,0,981.87,0,0,0,0,0,0,,0,NONE,0,0,0,0,0,0,0,0,0,0,0,603.65,0,0,0,0,0,0,0,0,0,269.82,0,0,0,0,0,0,0,0,0,0,0,0,0,3,3,0,0,VALID,0,0,0,0,0,1,0,0,0,0,0,0,0,0,0,0,0,0,0,0,294.16,1077.23,2,0,0.08,0.08,295,10,0.12,0.08,29.72,FLYING,X10-H,0:/Integrated Flight Computer/aircraft/x10_h_cfg.ks (inferred preloaded)
30.02,APPROACH,ILS_TRACK,152.25,152,-0.25,682.32,603.74,0.29,9.59,9.48,269.99,0.001,0.2775,0,16.305,1,0.6,4.5,0.75,0.35,0.0168,0.4,0,21.819,0,0.256,0,269.98,0,0,1,0.11,0,0,0,269.97,-0.1126,-0.0003,-0.9936,0,269.98,0.83,-297.03,17.269,-0.02,0,0,3,741.25,8.675,0,979.34,0,0,0,0,0,0,,0,NONE,0,0,0,0,0,0,0,0,0,0,0,603.74,0,0,0,0,0,0,0,0,0,269.82,0,0,0,0,0,0,0,0,0,0,0,0,0,3,3,0,0,VALID,0,0,0,0,0,1,0,0,0,0,0,0,0,0,0,0,0,0,0,0,294.17,1077.13,2,0,0.08,0.08,298,10,0.12,0.08,30.02,FLYING,X10-H,0:/Integrated Flight Computer/aircraft/x10_h_cfg.ks (inferred preloaded)
30.32,APPROACH,ILS_TRACK,152.24,152,-0.24,682.4,603.82,0.3,9.58,9.47,269.99,0,0.2764,0,16.232,1,0.6,4.5,0.75,0.35,0.0168,0.4,0,21.823,0,0.24,0,269.97,0,0,1,0.12,0,0,0,269.97,-0.1127,-0.0005,-0.9936,0,269.97,0.82,-294.41,17.221,-0.026,0,0,3,741.25,8.683,0,976.8,0,0,0,0,0,0,,0,NONE,0,0,0,0,0,0,0,0,0,0,0,603.82,0,0,0,0,0,0,0,0,0,269.82,0,0,0,0,0,0,0,0,0,0,0,0,0,3,3,0,0,VALID,0,0,0,0,0,1,0,0,0,0,0,0,0,0,0,0,0,0,0,0,294.36,1077.06,2,0,0.08,0.08,301,10,0.12,0.08,30.32,FLYING,X10-H,0:/Integrated Flight Computer/aircraft/x10_h_cfg.ks (inferred preloaded)
30.62,APPROACH,ILS_TRACK,152.23,152,-0.23,682.5,603.91,0.29,9.59,9.48,269.99,-0.002,0.274,0,16.162,1,0.6,4.5,0.75,0.35,0.0168,0.4,0,21.827,0,0.226,0,269.97,0,0,1,0.11,0,0,0,269.97,-0.1128,-0.0005,-0.9936,0,269.97,0.81,-291.79,17.173,-0.028,0,0,3,741.25,8.712,0,974.27,0,0,0,0,0,0,,0,NONE,0,0,0,0,0,0,0,0,0,0,0,603.91,0,0,0,0,0,0,0,0,0,269.82,0,0,0,0,0,0,0,0,0,0,0,0,0,3,3,0,0,VALID,0,0,0,0,0,1,0,0,0,0,0,0,0,0,0,0,0,0,0,0,294.5,1077,2,0,0.08,0.08,304,10,0.12,0.08,30.62,FLYING,X10-H,0:/Integrated Flight Computer/aircraft/x10_h_cfg.ks (inferred preloaded)
30.92,APPROACH,ILS_TRACK,152.21,152,-0.21,682.59,604,0.3,9.61,9.5,269.99,-0.002,0.2715,0,16.097,1,0.6,4.5,0.75,0.35,0.0168,0.4,0,21.831,0,0.214,0,269.97,0,0,1,0.11,0,0,0,269.97,-0.1129,-0.0005,-0.9936,0,269.97,0.81,-289.17,17.124,-0.026,0,0,3,741.25,8.754,0,971.74,0,0,0,0,0,0,,0,NONE,0,0,0,0,0,0,0,0,0,0,0,604,0,0,0,0,0,0,0,0,0,269.82,0,0,0,0,0,0,0,0,0,0,0,0,0,3,3,0,0,VALID,0,0,0,0,0,1,0,0,0,0,0,0,0,0,0,0,0,0,0,0,294.46,1076.94,2,0,0.08,0.08,307,10,0.12,0.08,30.92,FLYING,X10-H,0:/Integrated Flight Computer/aircraft/x10_h_cfg.ks (inferred preloaded)
31.22,APPROACH,ILS_TRACK,152.2,152,-0.2,682.68,604.09,0.31,9.62,9.51,269.99,-0.002,0.2699,0,16.035,1,0.6,4.5,0.75,0.35,0.0168,0.4,0,21.834,0,0.203,0,269.97,0,0,1,0.11,0,0,0,269.97,-0.113,-0.0005,-0.9936,0,269.97,0.8,-286.54,17.076,-0.027,0,0,3,741.25,8.757,0,969.21,0,0,0,0,0,0,,0,NONE,0,0,0,0,0,0,0,0,0,0,0,604.09,0,0,0,0,0,0,0,0,0,269.82,0,0,0,0,0,0,0,0,0,0,0,0,0,3,3,0,0,VALID,0,0,0,0,0,1,0,0,0,0,0,0,0,0,0,0,0,0,0,0,294.19,1076.89,2,0,0.08,0.08,310,10,0.12,0.08,31.22,FLYING,X10-H,0:/Integrated Flight Computer/aircraft/x10_h_cfg.ks (inferred preloaded)
