t_s,phase,subphase,ias_ms,vapp_ms,spd_err_ms,agl_m,gear_h_m,vs_ms,pitch_deg,aoa_deg,hdg_deg,bank_deg,thr_cmd,thr_cur,thr_intg,at_gain,at_tau_s,at_a_up,at_a_dn,at_kp_thr,at_ki_spd,at_thr_slew,as_cmd_deg,as_cap_deg,as_raw_deg,as_spd_err_ms,as_active,aa_hdg_cmd_deg,aa_fpa_cmd_deg,aa_fbw,aa_dir,actual_fpa_deg,ftf_hdg_err_deg,ftf_fix_idx,kos_steer_pit_deg,kos_steer_hdg_deg,aa_dir_vx,aa_dir_vy,aa_dir_vz,aa_dir_pitch_deg,aa_dir_hdg_deg,ils_loc_m,ils_gs_m,ils_dist_km,loc_corr_deg,gs_corr_deg,gs_latched,active_gs_ang_deg,ils_intercept_alt_m,d_gs_ms,fpa_preclamped_deg,gs_nom_alt_m,flare_fpa_cmd,flare_tgt_vs,flare_frac,flare_mode,flare_auth_limited,flare_vs_err,flare_fpa_err,flare_pitch_err,flare_req_up_a,flare_thr_floor,steer_hdg_deg,steer_blend,ro_loc_corr_deg,ro_hdg_err_deg,ro_yaw_tgt,ro_yaw_scale,ro_yaw_gate,yaw_cmd,roll_cmd,pitch_cmd,ro_pitch_tgt_deg,ro_pitch_err_deg,ro_pitch_ff,ro_roll_assist,flaps_cur,flaps_tgt,asc_j_ab,asc_j_rk,asc_validity,asc_q_pa,asc_q_raw_pa,asc_mach,asc_apo_m,asc_drag_n,asc_w_prop,asc_edot_aero,asc_edot_orb,asc_pitch_bias,asc_blend,asc_spooling,asc_ab_thr_ratio,asc_ab_t_now,asc_ab_t_avail,asc_ab_ign_on,asc_ab_flameouts,asc_rk_t_now,asc_rk_t_avail,asc_rk_ign_on,asc_rk_flameouts,ship_thrust,ship_avail_thrust,ship_ign_on,ship_flameouts,ifc_raw_dt_s,ifc_dt_s,ifc_loop_n,ifc_hz_est,ifc_raw_dt_max_s,ifc_raw_dt_min_s,phase_el_s,status,craft_name,cfg_file
0.16,APPROACH,ILS_TRACK,155.4,152,-3.4,664,584.28,-21.35,6.9,14.38,270.03,0.043,0,0,0,0,0,0,0,0,0,0,0,0,0,0,0,0,0,1,0,-7.83,0,0,0,90,0,0,0,0,0,-0.01,-24.13,11.713,0,0,0,3,664,0,0,688.14,0,0,0,,0,0,0,0,0,0,270.02,0,0,0,0,0,0,0,0,0,0,0,0,0,0,0,0,0,VALID,0,0,0,0,0,1,0,0,0,0,0,0,0,0,0,0,0,0,0,0,258.31,1093.76,2,0,0.14,0.14,1,3.7,0.14,0.02,0.16,FLYING,X10-F,0:/Integrated Flight Computer/aircraft/x10_f_cfg.ks (inferred preloaded)
0.42,APPROACH,ILS_TRACK,155.63,152,-3.63,658.48,578.78,-20.97,6.91,14.23,270.02,0.033,0,0,0,1,0.6,1.488,0.75,0.35,0.0168,0.4,2.385,20.872,2.385,3.614,1,269.99,0,0,1,-7.7,0,0,0,270.01,0.326,-0.0001,0.9454,0,269.99,0,-26.92,11.677,-0.008,18.259,1,3,664,-12.728,0,686.26,0,0,0,,0,0,0,0,0,0,270.02,0,0,0,0,0,0,0,0,0,0,0,0,0,1,3,0,0,VALID,0,0,0,0,0,1,0,0,0,0,0,0,0,0,0,0,0,0,0,0,236.08,1095.16,2,0,0.12,0.12,3,7.69,0.14,0.12,0.42,FLYING,X10-F,0:/Integrated Flight Computer/aircraft/x10_f_cfg.ks (inferred preloaded)
0.68,APPROACH,ILS_TRACK,155.67,152,-3.67,652.78,573.43,-20.46,5.99,13.03,270.01,0.023,0,0,0,1,0.6,2.749,0.75,0.35,0.0168,0.4,2.445,20.857,2.445,3.669,1,269.99,0,0,1,-7.51,0,0,0,269.99,0.3261,-0.0001,0.9453,0,269.99,0.01,-30.37,11.635,-0.006,19.931,1,3,664,-13.525,0,684.04,0,0,0,,0,0,0,0,0,0,270.02,0,0,0,0,0,0,0,0,0,0,0,0,0,1,3,0,0,VALID,0,0,0,0,0,1,0,0,0,0,0,0,0,0,0,0,0,0,0,0,215.6,1095.74,2,0,0.12,0.12,5,7.69,0.14,0.12,0.68,FLYING,X10-F,0:/Integrated Flight Computer/aircraft/x10_f_cfg.ks (inferred preloaded)
0.94,APPROACH,ILS_TRACK,155.71,152,-3.71,646.78,568.19,-20.45,3.73,10.67,270.01,0.024,0,0,0,1,0.6,3.816,0.75,0.35,0.0168,0.4,2.469,20.851,2.469,3.691,1,269.99,0,0,1,-7.46,0,0,0,269.99,0.3262,-0.0001,0.9453,0,269.99,0.01,-34.11,11.592,-0.008,21.957,1,3,664,-14.656,0,681.83,0,0,0,,0,0,0,0,0,0,270.02,0,0,0,0,0,0,0,0,0,0,0,0,0,2,3,0,0,VALID,0,0,0,0,0,1,0,0,0,0,0,0,0,0,0,0,0,0,0,0,196.87,1096.28,2,0,0.12,0.12,7,7.69,0.14,0.12,0.94,FLYING,X10-F,0:/Integrated Flight Computer/aircraft/x10_f_cfg.ks (inferred preloaded)
1.3,APPROACH,ILS_TRACK,156.26,152,-4.26,638.28,560.69,-21.63,0.41,7.76,270.01,0.016,0,0,0,1,0.6,4.5,0.75,0.35,0.0168,0.4,3.051,20.7,3.051,4.227,1,269.99,0,0,1,-7.82,0,0,0,269.99,0.3262,-0.0001,0.9453,0,269.99,0.02,-39.51,11.534,-0.006,23.984,1,3,664,-15.162,0,678.75,0,0,0,,0,0,0,0,0,0,270.02,0,0,0,0,0,0,0,0,0,0,0,0,0,3,3,0,0,VALID,0,0,0,0,0,1,0,0,0,0,0,0,0,0,0,0,0,0,0,0,173.93,1099.22,2,0,0.12,0.12,10,8.33,0.12,0.12,1.3,FLYING,X10-F,0:/Integrated Flight Computer/aircraft/x10_f_cfg.ks (inferred preloaded)
1.66,APPROACH,ILS_TRACK,156.96,152,-4.96,629.65,552.49,-23.43,-1.52,6.53,270.01,0.033,0,0,0,1,0.6,4.5,0.75,0.35,0.0168,0.4,3.793,20.504,3.793,4.922,1,269.99,0,0,1,-8.43,0,0,0,269.99,0.3263,-0.0001,0.9453,0,269.99,0.03,-45.05,11.475,-0.008,25.865,1,3,664,-15.439,0,675.67,0,0,0,,0,0,0,0,0,0,270.02,0,0,0,0,0,0,0,0,0,0,0,0,0,3,3,0,0,VALID,0,0,0,0,0,1,0,0,0,0,0,0,0,0,0,0,0,0,0,0,153.78,1102.83,2,0,0.12,0.12,13,8.33,0.12,0.12,1.66,FLYING,X10-F,0:/Integrated Flight Computer/aircraft/x10_f_cfg.ks (inferred preloaded)
2.02,APPROACH,ILS_TRACK,157.64,152,-5.64,620.89,543.71,-25.22,-1.68,7.07,270.01,0.032,0,0,0,1,0.6,4.5,0.75,0.35,0.0168,0.4,4.505,20.312,4.505,5.603,1,269.99,0,0,1,-9.03,0,0,0,269.99,0.3264,-0.0002,0.9452,0,269.99,0.04,-50.71,11.416,-0.009,27.876,1,3,664,-15.829,0,672.58,0,0,0,,0,0,0,0,0,0,270.02,0,0,0,0,0,0,0,0,0,0,0,0,0,3,3,0,0,VALID,0,0,0,0,0,1,0,0,0,0,0,0,0,0,0,0,0,0,0,0,135.96,1106.45,2,0,0.12,0.12,16,8.33,0.12,0.12,2.02,FLYING,X10-F,0:/Integrated Flight Computer/aircraft/x10_f_cfg.ks (inferred preloaded)
2.38,APPROACH,ILS_TRACK,158.15,152,-6.15,612.1,534.43,-26.57,0.06,9.37,270.02,0.03,0,0,0,1,0.6,4.5,0.75,0.35,0.0168,0.4,5.045,20.164,5.045,6.129,1,269.99,0,0,1,-9.5,0,0,0,269.99,0.3265,-0.0001,0.9452,0,269.99,0.05,-56.41,11.357,-0.006,29.558,1,3,664,-15.793,0,669.48,0,0,0,,0,0,0,0,0,0,270.02,0,0,0,0,0,0,0,0,0,0,0,0,0,3,3,0,0,VALID,0,0,0,0,0,1,0,0,0,0,0,0,0,0,0,0,0,0,0,0,120.14,1109.44,2,0,0.12,0.12,19,8.33,0.12,0.12,2.38,FLYING,X10-F,0:/Integrated Flight Computer/aircraft/x10_f_cfg.ks (inferred preloaded)
2.74,APPROACH,ILS_TRACK,158.4,152,-6.4,603.29,524.75,-26.66,2.9,12.26,270.02,0.014,0,0,0,1,0.6,4.5,0.75,0.35,0.0168,0.4,5.315,20.089,5.315,6.394,1,269.99,0,0,1,-9.57,0,0,0,269.99,0.3266,-0.0002,0.9452,0,269.99,0.07,-62.11,11.298,-0.011,31.416,1,3,664,-15.98,0,666.38,0,0,0,,0,0,0,0,0,0,270.02,0,0,0,0,0,0,0,0,0,0,0,0,0,3,3,0,0,VALID,0,0,0,0,0,1,0,0,0,0,0,0,0,0,0,0,0,0,0,0,106.06,1111.3,2,0,0.12,0.12,22,8.33,0.12,0.12,2.74,FLYING,X10-F,0:/Integrated Flight Computer/aircraft/x10_f_cfg.ks (inferred preloaded)
3.1,APPROACH,ILS_TRACK,158.24,152,-6.24,594.3,515.21,-26.14,4.73,13.87,270.01,0.006,0,0,0,1,0.6,4.5,0.75,0.35,0.0168,0.4,5.168,20.13,5.168,6.25,1,269.99,0,0,1,-9.4,0,0,0,269.99,0.3267,-0.0002,0.9451,0,269.99,0.08,-68,11.239,-0.013,33.52,1,3,664,-16.402,0,663.29,0,0,0,,0,0,0,0,0,0,270.02,0,0,0,0,0,0,0,0,0,0,0,0,0,3,3,0,0,VALID,0,0,0,0,0,1,0,0,0,0,0,0,0,0,0,0,0,0,0,0,93.47,1111.37,2,0,0.12,0.12,25,8.33,0.12,0.12,3.1,FLYING,X10-F,0:/Integrated Flight Computer/aircraft/x10_f_cfg.ks (inferred preloaded)
3.36,APPROACH,ILS_TRACK,157.97,152,-5.97,587.94,508.43,-25.75,5.99,15.05,270.01,-0.012,0,0,0,1,0.6,4.5,0.75,0.35,0.0168,0.4,4.913,20.2,4.913,5.999,1,269.99,0,0,1,-9.28,0,0,0,269.99,0.3268,-0.0002,0.9451,0,269.99,0.09,-72.16,11.196,-0.012,34.291,1,3,664,-15.806,0,661.06,0,0,0,,0,0,0,0,0,0,270.02,0,0,0,0,0,0,0,0,0,0,0,0,0,3,3,0,0,VALID,0,0,0,0,0,1,0,0,0,0,0,0,0,0,0,0,0,0,0,0,85.27,1110.78,2,0,0.12,0.12,27,7.69,0.14,0.12,3.36,FLYING,X10-F,0:/Integrated Flight Computer/aircraft/x10_f_cfg.ks (inferred preloaded)
3.72,APPROACH,ILS_TRACK,157.31,152,-5.31,579.52,499.26,-24.91,8.38,17.23,270,-0.033,0.048,0,-0.643,1,0.6,4.5,0.75,0.35,0.0168,0.4,4.247,20.382,4.247,5.354,1,269.99,0,0,1,-9.03,0,0,0,269.99,0.3269,-0.0002,0.9451,0,269.99,0.1,-77.54,11.137,-0.014,34.885,1,3,664,-14.529,0,657.98,0,0,0,,0,0,0,0,0,0,270.02,0,0,0,0,0,0,0,0,0,0,0,0,0,3,3,0,0,VALID,0,0,0,0,0,1,0,0,0,0,0,0,0,0,0,0,0,0,0,0,75,1108.64,2,0,0.12,0.12,30,8.33,0.12,0.12,3.72,FLYING,X10-F,0:/Integrated Flight Computer/aircraft/x10_f_cfg.ks (inferred preloaded)
4.08,APPROACH,ILS_TRACK,156.17,152,-4.17,571.49,490.54,-23.16,10.76,19.02,270,-0.046,0.192,0,-2.32,1,0.6,4.5,0.75,0.35,0.0168,0.4,0,20.693,0,4.249,0,269.99,0,0,1,-8.51,0,0,0,269.99,0.327,-0.0002,0.945,0,269.99,0.11,-82.54,11.079,-0.01,35.693,1,3,664,-13.665,0,654.91,0,0,0,,0,0,0,0,0,0,270.02,0,0,0,0,0,0,0,0,0,0,0,0,0,3,3,0,0,VALID,0,0,0,0,0,1,0,0,0,0,0,0,0,0,0,0,0,0,0,0,75.8,1104.44,2,0,0.12,0.12,33,8.33,0.12,0.12,4.08,FLYING,X10-F,0:/Integrated Flight Computer/aircraft/x10_f_cfg.ks (inferred preloaded)
4.44,APPROACH,ILS_TRACK,154.74,152,-2.74,563.77,482.55,-21.38,11.74,19.38,269.99,-0.046,0.336,0,-3.502,1,0.6,4.5,0.75,0.35,0.0168,0.4,0,21.098,0,2.813,0,269.99,0,0,1,-7.92,0,0,0,269.99,0.3271,-0.0002,0.945,0,269.99,0.12,-87.27,11.021,-0.011,36.392,1,3,664,-12.765,0,651.87,0,0,0,,0,0,0,0,0,0,270.02,0,0,0,0,0,0,0,0,0,0,0,0,0,3,3,0,0,VALID,0,0,0,0,0,1,0,0,0,0,0,0,0,0,0,0,0,0,0,0,87.98,1098.92,2,0,0.12,0.12,36,8.33,0.12,0.12,4.44,FLYING,X10-F,0:/Integrated Flight Computer/aircraft/x10_f_cfg.ks (inferred preloaded)
4.8,APPROACH,ILS_TRACK,153.33,152,-1.33,556.43,475.12,-19.89,12.12,19.27,269.99,-0.047,0.48,0,-4.177,1,0.6,4.5,0.75,0.35,0.0168,0.4,0,21.495,0,1.406,0,269.99,0,0,1,-7.46,0,0,0,269.99,0.3271,-0.0002,0.945,0,269.99,0.13,-91.62,10.963,-0.011,36.902,1,3,664,-11.77,0,648.85,0,0,0,,0,0,0,0,0,0,270.02,0,0,0,0,0,0,0,0,0,0,0,0,0,3,3,0,0,VALID,0,0,0,0,0,1,0,0,0,0,0,0,0,0,0,0,0,0,0,0,110.15,1093.5,2,0,0.12,0.12,39,8.33,0.12,0.12,4.8,FLYING,X10-F,0:/Integrated Flight Computer/aircraft/x10_f_cfg.ks (inferred preloaded)
5.16,APPROACH,ILS_TRACK,152,152,0,549.34,468.29,-18.34,11.38,17.94,269.99,-0.045,0.624,0,-4.354,1,0.6,4.5,0.75,0.35,0.0168,0.4,0,21.872,0,0.066,0,269.99,0,0,1,-6.92,0,0,0,269.99,0.3272,-0.0002,0.9449,0,269.99,0.14,-95.74,10.906,-0.009,37.718,1,3,664,-11.245,0,645.86,0,0,0,,0,0,0,0,0,0,270.02,0,0,0,0,0,0,0,0,0,0,0,0,0,3,3,0,0,VALID,0,0,0,0,0,1,0,0,0,0,0,0,0,0,0,0,0,0,0,0,141.46,1088.42,2,0,0.12,0.12,42,8.33,0.12,0.12,5.16,FLYING,X10-F,0:/Integrated Flight Computer/aircraft/x10_f_cfg.ks (inferred preloaded)
5.52,APPROACH,ILS_TRACK,151.06,152,0.94,542.57,461.89,-17.49,10.15,16.44,269.99,-0.045,0.768,0,-4.289,1,0.6,4.5,0.75,0.35,0.0168,0.4,0,22.145,0,-0.9,0,269.99,0,0,1,-6.63,0,0,0,269.99,0.3273,-0.0001,0.9449,0,269.99,0.15,-99.58,10.849,-0.009,38.169,1,3,664,-10.369,0,642.88,0,0,0,,0,0,0,0,0,0,270.02,0,0,0,0,0,0,0,0,0,0,0,0,0,3,3,0,0,VALID,0,0,0,0,0,1,0,0,0,0,0,0,0,0,0,0,0,0,0,0,181.4,1084.92,2,0,0.12,0.12,45,8.33,0.12,0.12,5.52,FLYING,X10-F,0:/Integrated Flight Computer/aircraft/x10_f_cfg.ks (inferred preloaded)
5.78,APPROACH,ILS_TRACK,150.57,152,1.43,537.87,457.41,-17.13,9.41,15.59,269.99,-0.045,0.872,0,-4.1,1,0.6,4.5,0.75,0.35,0.0168,0.4,0,22.285,0,-1.4,0,269.99,0,0,1,-6.5,0,0,0,269.99,0.3274,-0.0002,0.9449,0,269.99,0.15,-102.16,10.809,-0.01,38.47,1,3,664,-9.777,0,640.74,0,0,0,,0,0,0,0,0,0,270.02,0,0,0,0,0,0,0,0,0,0,0,0,0,3,3,0,0,VALID,0,0,0,0,0,1,0,0,0,0,0,0,0,0,0,0,0,0,0,0,215.16,1083.22,2,0,0.12,0.12,47,7.69,0.14,0.12,5.78,FLYING,X10-F,0:/Integrated Flight Computer/aircraft/x10_f_cfg.ks (inferred preloaded)
6.14,APPROACH,ILS_TRACK,150.14,152,1.86,531.61,451.32,-16.79,8.79,14.9,269.99,-0.045,0.7995,0,-3.483,1,0.6,4.5,0.75,0.35,0.0168,0.4,0,22.409,0,-1.839,0,269.99,0,0,1,-6.39,0,0,0,269.99,0.3275,-0.0002,0.9449,0,269.99,0.16,-105.49,10.752,-0.01,38.854,1,3,664,-9.007,0,637.79,0,0,0,,0,0,0,0,0,0,270.02,0,0,0,0,0,0,0,0,0,0,0,0,0,3,3,0,0,VALID,0,0,0,0,0,1,0,0,0,0,0,0,0,0,0,0,0,0,0,0,265.47,1081.93,2,0,0.12,0.12,50,8.33,0.12,0.12,6.14,FLYING,X10-F,0:/Integrated Flight Computer/aircraft/x10_f_cfg.ks (inferred preloaded)
6.5,APPROACH,ILS_TRACK,149.94,152,2.06,525.63,445.32,-16.52,8.78,14.83,269.99,-0.046,0.6555,0,-2.765,1,0.6,4.5,0.75,0.35,0.0168,0.4,0,22.471,0,-2.057,0,269.99,0,0,1,-6.3,0,0,0,269.99,0.3276,-0.0002,0.9448,0,269.99,0.16,-108.55,10.696,-0.01,39.162,1,3,664,-8.245,0,634.84,0,0,0,,0,0,0,0,0,0,270.02,0,0,0,0,0,0,0,0,0,0,0,0,0,3,3,0,0,VALID,0,0,0,0,0,1,0,0,0,0,0,0,0,0,0,0,0,0,0,0,304.01,1081.53,2,0,0.12,0.12,53,8.33,0.12,0.12,6.5,FLYING,X10-F,0:/Integrated Flight Computer/aircraft/x10_f_cfg.ks (inferred preloaded)
6.86,APPROACH,ILS_TRACK,149.81,152,2.19,519.94,439.43,-16.15,9.38,15.33,269.99,-0.045,0.5115,0,-1.993,1,0.6,4.5,0.75,0.35,0.0168,0.4,0,22.506,0,-2.183,0,269.99,0,0,1,-6.17,0,0,0,269.99,0.3277,-0.0001,0.9448,0,269.99,0.16,-111.33,10.64,-0.008,39.348,1,3,664,-7.437,0,631.89,0,0,0,,0,0,0,0,0,0,270.02,0,0,0,0,0,0,0,0,0,0,0,0,0,3,3,0,0,VALID,0,0,0,0,0,1,0,0,0,0,0,0,0,0,0,0,0,0,0,0,329.11,1081.49,2,0,0.12,0.12,56,8.33,0.12,0.12,6.86,FLYING,X10-F,0:/Integrated Flight Computer/aircraft/x10_f_cfg.ks (inferred preloaded)
7.22,APPROACH,ILS_TRACK,149.63,152,2.37,514.55,433.7,-15.59,10.47,16.26,269.99,-0.042,0.3787,0,-1.169,1,0.6,4.5,0.75,0.35,0.0168,0.4,0,22.555,0,-2.358,0,269.99,0,0,1,-5.97,0,0,0,269.99,0.3277,-0.0001,0.9448,0,269.99,0.17,-113.81,10.583,-0.006,39.423,1,3,664,-6.6,0,628.95,0,0,0,,0,0,0,0,0,0,270.02,0,0,0,0,0,0,0,0,0,0,0,0,0,3,3,0,0,VALID,0,0,0,0,0,1,0,0,0,0,0,0,0,0,0,0,0,0,0,0,341.56,1081.21,2,0,0.12,0.12,59,8.33,0.12,0.12,7.22,FLYING,X10-F,0:/Integrated Flight Computer/aircraft/x10_f_cfg.ks (inferred preloaded)
7.58,APPROACH,ILS_TRACK,149.3,152,2.7,509.51,428.21,-14.72,11.9,17.41,269.99,-0.043,0.4579,0,-0.248,1,0.6,4.5,0.75,0.35,0.0168,0.4,0,22.645,0,-2.676,0,269.99,0,0,1,-5.68,0,0,0,269.99,0.3278,-0.0001,0.9447,0,269.99,0.17,-115.95,10.527,-0.007,39.282,1,3,664,-5.62,0,626.01,0,0,0,,0,0,0,0,0,0,270.02,0,0,0,0,0,0,0,0,0,0,0,0,0,3,3,0,0,VALID,0,0,0,0,0,1,0,0,0,0,0,0,0,0,0,0,0,0,0,0,347.41,1080.31,2,0,0.12,0.12,62,8.33,0.12,0.12,7.58,FLYING,X10-F,0:/Integrated Flight Computer/aircraft/x10_f_cfg.ks (inferred preloaded)
7.94,APPROACH,ILS_TRACK,148.77,152,3.23,504.74,423.17,-13.24,12.95,17.87,269.99,-0.04,0.6019,0,0.835,1,0.6,4.5,0.75,0.35,0.0168,0.4,0,22.792,0,-3.196,0,269.99,0,0,1,-5.14,0,0,0,269.99,0.3279,-0.0001,0.9447,0,269.99,0.17,-117.81,10.471,-0.008,39.345,1,3,664,-5.003,0,623.07,0,0,0,,0,0,0,0,0,0,270.02,0,0,0,0,0,0,0,0,0,0,0,0,0,3,3,0,0,VALID,0,0,0,0,0,1,0,0,0,0,0,0,0,0,0,0,0,0,0,0,360.19,1078.52,2,0,0.12,0.12,65,8.33,0.12,0.12,7.94,FLYING,X10-F,0:/Integrated Flight Computer/aircraft/x10_f_cfg.ks (inferred preloaded)
8.3,APPROACH,ILS_TRACK,148.26,152,3.74,500.24,418.62,-12.11,13.1,17.6,269.99,-0.036,0.7384,0,2.114,1,0.6,4.5,0.75,0.35,0.0168,0.4,0,22.938,0,-3.715,0,270,0,0,1,-4.71,0,0,0,269.99,0.328,-0.0001,0.9447,0,270,0.17,-119.43,10.416,-0.004,39.182,1,3,664,-4.19,0,620.15,0,0,0,,0,0,0,0,0,0,270.02,0,0,0,0,0,0,0,0,0,0,0,0,0,3,3,0,0,VALID,0,0,0,0,0,1,0,0,0,0,0,0,0,0,0,0,0,0,0,0,382.74,1076.78,2,0,0.12,0.12,68,8.33,0.12,0.12,8.3,FLYING,X10-F,0:/Integrated Flight Computer/aircraft/x10_f_cfg.ks (inferred preloaded)
8.66,APPROACH,ILS_TRACK,147.88,152,4.12,496.1,414.46,-11.06,13.21,17.33,269.99,-0.033,0.7568,0,3.548,1,0.6,4.5,0.75,0.35,0.0168,0.4,0,23.048,0,-4.105,0,269.99,0,0,1,-4.32,0,0,0,270,0.3281,-0.0001,0.9446,0,269.99,0.16,-120.69,10.36,-0.005,38.754,1,3,664,-3.184,0,617.23,0,0,0,,0,0,0,0,0,0,270.02,0,0,0,0,0,0,0,0,0,0,0,0,0,3,3,0,0,VALID,0,0,0,0,0,1,0,0,0,0,0,0,0,0,0,0,0,0,0,0,411.47,1075.52,2,0,0.12,0.12,71,8.33,0.12,0.12,8.66,FLYING,X10-F,0:/Integrated Flight Computer/aircraft/x10_f_cfg.ks (inferred preloaded)
9.02,APPROACH,ILS_TRACK,147.62,152,4.38,492.3,410.67,-10.02,13.2,16.92,269.99,-0.029,0.7232,0,5.093,1,0.6,4.5,0.75,0.35,0.0168,0.4,0,23.122,0,-4.369,0,269.99,0,0,1,-3.93,0,0,0,270,0.3282,-0.0001,0.9446,0,269.99,0.16,-121.61,10.304,-0.005,38.314,1,3,664,-2.288,0,614.32,0,0,0,,0,0,0,0,0,0,270.02,0,0,0,0,0,0,0,0,0,0,0,0,0,3,3,0,0,VALID,0,0,0,0,0,1,0,0,0,0,0,0,0,0,0,0,0,0,0,0,438.61,1074.78,2,0,0.12,0.12,74,8.33,0.12,0.12,9.02,FLYING,X10-F,0:/Integrated Flight Computer/aircraft/x10_f_cfg.ks (inferred preloaded)
9.38,APPROACH,ILS_TRACK,147.51,152,4.49,488.82,407.22,-9.22,13.04,16.47,269.99,-0.024,0.6482,0,6.698,1,0.6,4.5,0.75,0.35,0.0168,0.4,0,23.155,0,-4.486,0,270,0,0,1,-3.61,0,0,0,270,0.3283,-0.0001,0.9446,0,270,0.16,-122.23,10.249,-0.005,37.778,1,3,664,-1.386,0,611.41,0,0,0,,0,0,0,0,0,0,270.02,0,0,0,0,0,0,0,0,0,0,0,0,0,3,3,0,0,VALID,0,0,0,0,0,1,0,0,0,0,0,0,0,0,0,0,0,0,0,0,460.7,1074.61,2,0,0.12,0.12,77,8.33,0.12,0.12,9.38,FLYING,X10-F,0:/Integrated Flight Computer/aircraft/x10_f_cfg.ks (inferred preloaded)
9.74,APPROACH,ILS_TRACK,147.51,152,4.49,485.64,404.08,-8.37,12.96,16.08,269.99,-0.022,0.5685,0,8.317,1,0.6,4.5,0.75,0.35,0.0168,0.4,0,23.157,0,-4.492,0,270,0,0,1,-3.28,0,0,0,269.99,0.3284,-0.0001,0.9446,0,270,0.16,-122.52,10.193,-0.004,37.219,1,3,664,-0.576,0,608.51,0,0,0,,0,0,0,0,0,0,270.02,0,0,0,0,0,0,0,0,0,0,0,0,0,3,3,0,0,VALID,0,0,0,0,0,1,0,0,0,0,0,0,0,0,0,0,0,0,0,0,475.47,1074.86,2,0,0.12,0.12,80,8.33,0.12,0.12,9.74,FLYING,X10-F,0:/Integrated Flight Computer/aircraft/x10_f_cfg.ks (inferred preloaded)
10.1,APPROACH,ILS_TRACK,147.6,152,4.4,482.79,401.17,-7.77,13.09,16,269.99,-0.021,0.4923,0,9.915,1,0.6,4.5,0.75,0.35,0.0168,0.4,0,23.133,0,-4.407,0,270,0,0,1,-3.04,0,0,0,270,0.3284,-0.0001,0.9445,0,270,0.15,-122.5,10.138,-0.004,36.433,1,3,664,0.398,0,605.6,0,0,0,,0,0,0,0,0,0,270.02,0,0,0,0,0,0,0,0,0,0,0,0,0,3,3,0,0,VALID,0,0,0,0,0,1,0,0,0,0,0,0,0,0,0,0,0,0,0,0,483.4,1075.46,2,0,0.12,0.12,83,8.33,0.12,0.12,10.1,FLYING,X10-F,0:/Integrated Flight Computer/aircraft/x10_f_cfg.ks (inferred preloaded)
10.46,APPROACH,ILS_TRACK,147.67,152,4.33,480.28,398.52,-6.87,13.61,16.19,269.99,-0.019,0.4719,0,11.481,1,0.6,4.5,0.75,0.35,0.0168,0.4,0,23.112,0,-4.333,0,269.99,0,0,1,-2.71,0,0,0,270,0.3285,-0.0001,0.9445,0,269.99,0.15,-122.13,10.082,-0.006,35.623,1,3,664,1.27,0,602.68,0,0,0,,0,0,0,0,0,0,270.02,0,0,0,0,0,0,0,0,0,0,0,0,0,3,3,0,0,VALID,0,0,0,0,0,1,0,0,0,0,0,0,0,0,0,0,0,0,0,0,486.01,1075.97,2,0,0.12,0.12,86,8.33,0.12,0.12,10.46,FLYING,X10-F,0:/Integrated Flight Computer/aircraft/x10_f_cfg.ks (inferred preloaded)
10.82,APPROACH,ILS_TRACK,147.71,152,4.29,477.97,396.22,-5.93,13.6,15.8,269.99,-0.015,0.4887,0,13.033,1,0.6,4.5,0.75,0.35,0.0168,0.4,0,23.102,0,-4.296,0,270,0,0,1,-2.33,0,0,0,270,0.3286,-0.0001,0.9445,0,270,0.14,-121.55,10.027,-0.003,35.052,1,3,664,1.767,0,599.77,0,0,0,,0,0,0,0,0,0,270.02,0,0,0,0,0,0,0,0,0,0,0,0,0,3,3,0,0,VALID,0,0,0,0,0,1,0,0,0,0,0,0,0,0,0,0,0,0,0,0,488.2,1076.32,2,0,0.12,0.12,89,8.33,0.12,0.12,10.82,FLYING,X10-F,0:/Integrated Flight Computer/aircraft/x10_f_cfg.ks (inferred preloaded)
11.18,APPROACH,ILS_TRACK,147.82,152,4.18,475.9,394.21,-5.35,13.37,15.36,269.99,-0.01,0.4695,0,14.557,1,0.6,4.5,0.75,0.35,0.0168,0.4,0,23.072,0,-4.19,0,270,0,0,1,-2.1,0,0,0,270,0.3287,0,0.9444,0,270,0.14,-120.74,9.971,-0.001,34.2,1,3,664,2.529,0,596.85,0,0,0,,0,0,0,0,0,0,270.02,0,0,0,0,0,0,0,0,0,0,0,0,0,3,3,0,0,VALID,0,0,0,0,0,1,0,0,0,0,0,0,0,0,0,0,0,0,0,0,490.88,1076.95,2,0,0.12,0.12,92,8.33,0.12,0.12,11.18,FLYING,X10-F,0:/Integrated Flight Computer/aircraft/x10_f_cfg.ks (inferred preloaded)
11.54,APPROACH,ILS_TRACK,147.96,152,4.04,474.15,392.36,-4.87,13.62,15.47,269.99,-0.008,0.45,0,16.031,1,0.6,4.5,0.75,0.35,0.0168,0.4,0,23.032,0,-4.047,0,270,0,0,1,-1.91,0,0,0,270,0.3288,0,0.9444,0,270,0.13,-119.61,9.915,-0.002,33.108,1,3,664,3.469,0,593.94,0,0,0,,0,0,0,0,0,0,270.02,0,0,0,0,0,0,0,0,0,0,0,0,0,3,3,0,0,VALID,0,0,0,0,0,1,0,0,0,0,0,0,0,0,0,0,0,0,0,0,491.66,1077.69,2,0,0.12,0.12,95,8.33,0.12,0.12,11.54,FLYING,X10-F,0:/Integrated Flight Computer/aircraft/x10_f_cfg.ks (inferred preloaded)
11.8,APPROACH,ILS_TRACK,148.01,152,3.99,473.03,391.22,-3.82,13.83,15.25,269.99,-0.007,0.4763,0,17.071,1,0.6,4.5,0.75,0.35,0.0168,0.4,0,23.016,0,-3.992,0,269.99,0,0,1,-1.56,0,0,0,270,0.3289,-0.0001,0.9444,0,269.99,0.13,-118.62,9.875,-0.005,32.528,1,3,664,3.824,0,591.83,0,0,0,,0,0,0,0,0,0,270.02,0,0,0,0,0,0,0,0,0,0,0,0,0,3,3,0,0,VALID,0,0,0,0,0,1,0,0,0,0,0,0,0,0,0,0,0,0,0,0,491.42,1077.98,2,0,0.12,0.12,97,7.69,0.14,0.12,11.8,FLYING,X10-F,0:/Integrated Flight Computer/aircraft/x10_f_cfg.ks (inferred preloaded)
12.16,APPROACH,ILS_TRACK,148.03,152,3.97,471.48,390.15,-2.49,12.41,13.23,269.99,-0.005,0.5312,0,18.514,1,0.6,4.5,0.75,0.35,0.0168,0.4,0,23.013,0,-3.982,0,270,0,0,1,-1,0,0,0,270,0.3289,-0.0001,0.9443,0,270,0.13,-117.26,9.819,-0.004,32.104,1,3,664,3.842,0,588.91,0,0,0,,0,0,0,0,0,0,270.02,0,0,0,0,0,0,0,0,0,0,0,0,0,3,3,0,0,VALID,0,0,0,0,0,1,0,0,0,0,0,0,0,0,0,0,0,0,0,0,495.49,1078.15,2,0,0.12,0.12,100,8.33,0.12,0.12,12.16,FLYING,X10-F,0:/Integrated Flight Computer/aircraft/x10_f_cfg.ks (inferred preloaded)
12.52,APPROACH,ILS_TRACK,148.49,152,3.51,470.08,389.34,-2.3,10.38,11.15,270,-0.001,0.3941,0,19.854,1,0.6,4.5,0.75,0.35,0.0168,0.4,0,22.889,0,-3.54,0,270,0,0,1,-0.89,0,0,0,270,0.329,0,0.9443,0,270,0.12,-115.76,9.764,0,31.173,1,3,664,4.444,0,585.98,0,0,0,,0,0,0,0,0,0,270.02,0,0,0,0,0,0,0,0,0,0,0,0,0,3,3,0,0,VALID,0,0,0,0,0,1,0,0,0,0,0,0,0,0,0,0,0,0,0,0,498.53,1080.12,2,0,0.12,0.12,103,8.33,0.12,0.12,12.52,FLYING,X10-F,0:/Integrated Flight Computer/aircraft/x10_f_cfg.ks (inferred preloaded)
12.88,APPROACH,ILS_TRACK,149.18,152,2.82,468.98,388.48,-2.61,9.43,10.37,270,0.002,0.2501,0,20,1,0.6,4.5,0.75,0.35,0.0168,0.4,0,22.696,0,-2.857,0,270,0,0,1,-0.98,0,0,0,270,0.3291,0,0.9443,0,270,0.12,-113.96,9.708,-0.002,29.934,1,3,664,5.317,0,583.04,0,0,0,,0,0,0,0,0,0,270.02,0,0,0,0,0,0,0,0,0,0,0,0,0,3,3,0,0,VALID,0,0,0,0,0,1,0,0,0,0,0,0,0,0,0,0,0,0,0,0,485.85,1083.04,2,0,0.12,0.12,106,8.33,0.12,0.12,12.88,FLYING,X10-F,0:/Integrated Flight Computer/aircraft/x10_f_cfg.ks (inferred preloaded)
13.24,APPROACH,ILS_TRACK,149.81,152,2.19,468.2,387.45,-2.9,10.1,11.24,270,0.003,0.1061,0,20,1,0.6,4.5,0.75,0.35,0.0168,0.4,0,22.516,0,-2.219,0,270,0,0,1,-1.12,0,0,0,270,0.3292,0,0.9443,0,270,0.12,-111.82,9.651,-0.003,28.533,1,3,664,6.265,0,580.09,0,0,0,,0,0,0,0,0,0,270.02,0,0,0,0,0,0,0,0,0,0,0,0,0,3,3,0,0,VALID,0,0,0,0,0,1,0,0,0,0,0,0,0,0,0,0,0,0,0,0,456.13,1085.76,2,0,0.12,0.12,109,8.33,0.12,0.12,13.24,FLYING,X10-F,0:/Integrated Flight Computer/aircraft/x10_f_cfg.ks (inferred preloaded)
13.6,APPROACH,ILS_TRACK,150.19,152,1.81,467.54,386.52,-2.18,11.12,11.95,270,-0.001,0.0112,0,20,1,0.6,4.5,0.75,0.35,0.0168,0.4,0,22.405,0,-1.823,0,270,0,0,1,-0.87,0,0,0,270,0.3293,0,0.9442,0,270,0.11,-109.51,9.595,0,27.768,1,3,664,6.357,0,577.13,0,0,0,,0,0,0,0,0,0,270.02,0,0,0,0,0,0,0,0,0,0,0,0,0,3,3,0,0,VALID,0,0,0,0,0,1,0,0,0,0,0,0,0,0,0,0,0,0,0,0,410.94,1087.43,2,0,0.12,0.12,112,8.33,0.12,0.12,13.6,FLYING,X10-F,0:/Integrated Flight Computer/aircraft/x10_f_cfg.ks (inferred preloaded)
13.96,APPROACH,ILS_TRACK,150.33,152,1.67,466.84,385.85,-1.58,11.07,11.63,270,-0.001,0.1552,0,20,1,0.6,4.5,0.75,0.35,0.0168,0.4,0,22.364,0,-1.68,0,270,0,0,1,-0.63,0,0,0,270,0.3294,-0.0001,0.9442,0,270,0.11,-107.26,9.538,-0.005,27.117,1,3,664,6.325,0,574.17,0,0,0,,0,0,0,0,0,0,270.02,0,0,0,0,0,0,0,0,0,0,0,0,0,3,3,0,0,VALID,0,0,0,0,0,1,0,0,0,0,0,0,0,0,0,0,0,0,0,0,369.48,1088.05,2,0,0.12,0.12,115,8.33,0.12,0.12,13.96,FLYING,X10-F,0:/Integrated Flight Computer/aircraft/x10_f_cfg.ks (inferred preloaded)
14.22,APPROACH,ILS_TRACK,150.37,152,1.63,466.35,385.48,-1.46,10.7,11.21,270,0,0.2361,0,20,1,0.6,4.5,0.75,0.35,0.0168,0.4,0,22.351,0,-1.632,0,270,0,0,1,-0.55,0,0,0,270,0.3295,0,0.9442,0,270,0.11,-105.61,9.497,-0.002,26.561,1,3,664,6.402,0,572.03,0,0,0,,0,0,0,0,0,0,270.02,0,0,0,0,0,0,0,0,0,0,0,0,0,3,3,0,0,VALID,0,0,0,0,0,1,0,0,0,0,0,0,0,0,0,0,0,0,0,0,353.45,1088.28,2,0,0.12,0.12,117,7.69,0.14,0.12,14.22,FLYING,X10-F,0:/Integrated Flight Computer/aircraft/x10_f_cfg.ks (inferred preloaded)
14.58,APPROACH,ILS_TRACK,150.42,152,1.58,465.74,385.03,-1.17,10.2,10.59,270,-0.001,0.3138,0,20,1,0.6,4.5,0.75,0.35,0.0168,0.4,0,22.336,0,-1.58,0,270,0,0,1,-0.44,0,0,0,270,0.3295,0,0.9441,0,270,0.1,-103.25,9.441,-0.002,25.784,1,3,664,6.49,0,569.06,0,0,0,,0,0,0,0,0,0,270.02,0,0,0,0,0,0,0,0,0,0,0,0,0,3,3,0,0,VALID,0,0,0,0,0,1,0,0,0,0,0,0,0,0,0,0,0,0,0,0,344.96,1088.52,2,0,0.12,0.12,120,8.33,0.12,0.12,14.58,FLYING,X10-F,0:/Integrated Flight Computer/aircraft/x10_f_cfg.ks (inferred preloaded)
14.94,APPROACH,ILS_TRACK,150.53,152,1.47,465.27,384.57,-1.41,10.05,10.59,270,0,0.3217,0,20,1,0.6,4.5,0.75,0.35,0.0168,0.4,0,22.307,0,-1.476,0,270,0,0,1,-0.53,0,0,0,270,0.3296,0,0.9441,0,270,0.1,-100.79,9.384,0,24.554,1,3,664,7.103,0,566.1,0,0,0,,0,0,0,0,0,0,270.02,0,0,0,0,0,0,0,0,0,0,0,0,0,3,3,0,0,VALID,0,0,0,0,0,1,0,0,0,0,0,0,0,0,0,0,0,0,0,0,344.92,1089,2,0,0.12,0.12,123,8.33,0.12,0.12,14.94,FLYING,X10-F,0:/Integrated Flight Computer/aircraft/x10_f_cfg.ks (inferred preloaded)
15.3,APPROACH,ILS_TRACK,150.59,152,1.41,464.87,384.13,-1.04,10.26,10.63,270,-0.003,0.3474,0,20,1,0.6,4.5,0.75,0.35,0.0168,0.4,0,22.289,0,-1.414,0,270,0,0,1,-0.4,0,0,0,270,0.3297,0,0.9441,0,270,0.1,-98.21,9.328,-0.002,23.832,1,3,664,7.037,0,563.13,0,0,0,,0,0,0,0,0,0,270.02,0,0,0,0,0,0,0,0,0,0,0,0,0,3,3,0,0,VALID,0,0,0,0,0,1,0,0,0,0,0,0,0,0,0,0,0,0,0,0,345.79,1089.29,2,0,0.12,0.12,126,8.33,0.12,0.12,15.3,FLYING,X10-F,0:/Integrated Flight Computer/aircraft/x10_f_cfg.ks (inferred preloaded)
15.66,APPROACH,ILS_TRACK,150.68,152,1.32,464.49,383.76,-0.92,10.2,10.52,270,-0.004,0.3411,0,20,1,0.6,4.5,0.75,0.35,0.0168,0.4,0,22.264,0,-1.325,0,270,0,0,1,-0.36,0,0,0,270,0.3298,-0.0001,0.944,0,270,0.09,-95.63,9.271,-0.003,22.925,1,3,664,7.205,0,560.16,0,0,0,,0,0,0,0,0,0,270.02,0,0,0,0,0,0,0,0,0,0,0,0,0,3,3,0,0,VALID,0,0,0,0,0,1,0,0,0,0,0,0,0,0,0,0,0,0,0,0,348.1,1089.69,2,0,0.12,0.12,129,8.33,0.12,0.12,15.66,FLYING,X10-F,0:/Integrated Flight Computer/aircraft/x10_f_cfg.ks (inferred preloaded)
16.02,APPROACH,ILS_TRACK,150.79,152,1.21,464.11,383.45,-0.87,10,10.3,270,-0.002,0.3244,0,20,1,0.6,4.5,0.75,0.35,0.0168,0.4,0,22.234,0,-1.218,0,270,0,0,1,-0.32,0,0,0,270,0.3299,-0.0001,0.944,0,270,0.09,-93.04,9.214,-0.003,22.143,1,3,664,7.21,0,557.19,0,0,0,,0,0,0,0,0,0,270.02,0,0,0,0,0,0,0,0,0,0,0,0,0,3,3,0,0,VALID,0,0,0,0,0,1,0,0,0,0,0,0,0,0,0,0,0,0,0,0,349.69,1090.18,2,0,0.12,0.12,132,8.33,0.12,0.12,16.02,FLYING,X10-F,0:/Integrated Flight Computer/aircraft/x10_f_cfg.ks (inferred preloaded)
16.38,APPROACH,ILS_TRACK,150.92,152,1.08,463.79,383.14,-0.82,9.93,10.22,270,-0.002,0.3006,0,20,1,0.6,4.5,0.75,0.35,0.0168,0.4,0,22.197,0,-1.087,0,270,0,0,1,-0.31,0,0,0,270,0.33,0,0.944,0,270,0.09,-90.39,9.158,-0.001,21.244,1,3,664,7.341,0,554.22,0,0,0,,0,0,0,0,0,0,270.02,0,0,0,0,0,0,0,0,0,0,0,0,0,3,3,0,0,VALID,0,0,0,0,0,1,0,0,0,0,0,0,0,0,0,0,0,0,0,0,349.17,1090.76,2,0,0.12,0.12,135,8.33,0.12,0.12,16.38,FLYING,X10-F,0:/Integrated Flight Computer/aircraft/x10_f_cfg.ks (inferred preloaded)
16.64,APPROACH,ILS_TRACK,151.02,152,0.98,463.59,382.93,-0.73,9.98,10.24,270,-0.004,0.2871,0,20,1,0.6,4.5,0.75,0.35,0.0168,0.4,0,22.17,0,-0.989,0,270,0,0,1,-0.29,0,0,0,270,0.3301,0,0.944,0,270,0.09,-88.44,9.117,-0.002,20.519,1,3,664,7.517,0,552.07,0,0,0,,0,0,0,0,0,0,270.02,0,0,0,0,0,0,0,0,0,0,0,0,0,3,3,0,0,VALID,0,0,0,0,0,1,0,0,0,0,0,0,0,0,0,0,0,0,0,0,347.14,1091.18,2,0,0.12,0.12,137,7.69,0.14,0.12,16.64,FLYING,X10-F,0:/Integrated Flight Computer/aircraft/x10_f_cfg.ks (inferred preloaded)
17,APPROACH,ILS_TRACK,151.14,152,0.86,463.33,382.65,-0.8,10.01,10.32,270,-0.003,0.2796,0,20,1,0.6,4.5,0.75,0.35,0.0168,0.4,0,22.136,0,-0.871,0,270,0,0,1,-0.32,0,0,0,270,0.3301,0,0.9439,0,270,0.08,-85.73,9.06,-0.001,19.579,1,3,664,7.675,0,549.09,0,0,0,,0,0,0,0,0,0,270.02,0,0,0,0,0,0,0,0,0,0,0,0,0,3,3,0,0,VALID,0,0,0,0,0,1,0,0,0,0,0,0,0,0,0,0,0,0,0,0,343.26,1091.7,2,0,0.12,0.12,140,8.33,0.12,0.12,17,FLYING,X10-F,0:/Integrated Flight Computer/aircraft/x10_f_cfg.ks (inferred preloaded)
17.36,APPROACH,ILS_TRACK,151.21,152,0.79,463.07,382.42,-0.66,9.93,10.16,270,-0.005,0.2951,0,20,1,0.6,4.5,0.75,0.35,0.0168,0.4,0,22.115,0,-0.794,0,270,0,0,1,-0.24,0,0,0,270,0.3302,0,0.9439,0,270,0.08,-83.01,9.003,0,18.894,1,3,664,7.513,0,546.11,0,0,0,,0,0,0,0,0,0,270.02,0,0,0,0,0,0,0,0,0,0,0,0,0,3,3,0,0,VALID,0,0,0,0,0,1,0,0,0,0,0,0,0,0,0,0,0,0,0,0,339.57,1092.04,2,0,0.12,0.12,143,8.33,0.12,0.12,17.36,FLYING,X10-F,0:/Integrated Flight Computer/aircraft/x10_f_cfg.ks (inferred preloaded)
17.72,APPROACH,ILS_TRACK,151.31,152,0.69,462.84,382.2,-0.63,9.91,10.14,270,-0.005,0.2916,0,20,1,0.6,4.5,0.75,0.35,0.0168,0.4,0,22.088,0,-0.7,0,270,0,0,1,-0.23,0,0,0,270,0.3303,0,0.9439,0,270,0.08,-80.26,8.946,-0.001,17.974,1,3,664,7.631,0,543.13,0,0,0,,0,0,0,0,0,0,270.02,0,0,0,0,0,0,0,0,0,0,0,0,0,3,3,0,0,VALID,0,0,0,0,0,1,0,0,0,0,0,0,0,0,0,0,0,0,0,0,337.31,1092.45,2,0,0.12,0.12,146,8.33,0.12,0.12,17.72,FLYING,X10-F,0:/Integrated Flight Computer/aircraft/x10_f_cfg.ks (inferred preloaded)
18.08,APPROACH,ILS_TRACK,151.39,152,0.61,462.63,381.99,-0.59,9.89,10.1,270,-0.006,0.291,0,20,1,0.6,4.5,0.75,0.35,0.0168,0.4,0,22.064,0,-0.614,0,270,0,0,1,-0.21,0,0,0,270,0.3304,0,0.9438,0,270,0.08,-77.49,8.889,0,17.102,1,3,664,7.683,0,540.15,0,0,0,,0,0,0,0,0,0,270.02,0,0,0,0,0,0,0,0,0,0,0,0,0,3,3,0,0,VALID,0,0,0,0,0,1,0,0,0,0,0,0,0,0,0,0,0,0,0,0,335.03,1092.83,2,0,0.12,0.12,149,8.33,0.12,0.12,18.08,FLYING,X10-F,0:/Integrated Flight Computer/aircraft/x10_f_cfg.ks (inferred preloaded)
18.44,APPROACH,ILS_TRACK,151.47,152,0.53,462.43,381.81,-0.54,9.82,10.02,270,-0.006,0.2916,0,20,1,0.6,4.5,0.75,0.35,0.0168,0.4,0,22.042,0,-0.535,0,270,0,0,1,-0.2,0,0,0,270,0.3305,0,0.9438,0,270,0.07,-74.71,8.832,-0.001,16.253,1,3,664,7.701,0,537.16,0,0,0,,0,0,0,0,0,0,270.02,0,0,0,0,0,0,0,0,0,0,0,0,0,3,3,0,0,VALID,0,0,0,0,0,1,0,0,0,0,0,0,0,0,0,0,0,0,0,0,333.02,1093.18,2,0,0.12,0.12,152,8.33,0.12,0.12,18.44,FLYING,X10-F,0:/Integrated Flight Computer/aircraft/x10_f_cfg.ks (inferred preloaded)
18.8,APPROACH,ILS_TRACK,151.55,152,0.45,462.25,381.63,-0.52,9.83,10.01,270,-0.007,0.2899,0,20,1,0.6,4.5,0.75,0.35,0.0168,0.4,0,22.02,0,-0.458,0,270,0,0,1,-0.19,0,0,0,270,0.3306,0,0.9438,0,270,0.07,-71.91,8.775,-0.002,15.362,1,3,664,7.764,0,534.18,0,0,0,,0,0,0,0,0,0,270.02,0,0,0,0,0,0,0,0,0,0,0,0,0,3,3,0,0,VALID,0,0,0,0,0,1,0,0,0,0,0,0,0,0,0,0,0,0,0,0,331.17,1093.52,2,0,0.12,0.12,155,8.33,0.12,0.12,18.8,FLYING,X10-F,0:/Integrated Flight Computer/aircraft/x10_f_cfg.ks (inferred preloaded)
19.06,APPROACH,ILS_TRACK,151.6,152,0.4,462.13,381.5,-0.43,9.86,10.01,270,-0.008,0.2905,0,20,1,0.6,4.5,0.75,0.35,0.0168,0.4,0,22.005,0,-0.406,0,270,0,0,1,-0.16,0,0,0,270,0.3307,0,0.9438,0,270,0.07,-69.87,8.734,0.001,14.722,1,3,664,7.799,0,532.02,0,0,0,,0,0,0,0,0,0,270.02,0,0,0,0,0,0,0,0,0,0,0,0,0,3,3,0,0,VALID,0,0,0,0,0,1,0,0,0,0,0,0,0,0,0,0,0,0,0,0,329.9,1093.73,2,0,0.12,0.12,157,7.69,0.14,0.12,19.06,FLYING,X10-F,0:/Integrated Flight Computer/aircraft/x10_f_cfg.ks (inferred preloaded)
19.42,APPROACH,ILS_TRACK,151.66,152,0.34,461.97,381.35,-0.39,9.86,9.99,270,-0.009,0.2932,0,20,1,0.6,4.5,0.75,0.35,0.0168,0.4,0,21.988,0,-0.344,0,270,0,0,1,-0.14,0,0,0,270,0.3307,0,0.9437,0,270,0.07,-67.04,8.677,0,13.853,1,3,664,7.825,0,529.03,0,0,0,,0,0,0,0,0,0,270.02,0,0,0,0,0,0,0,0,0,0,0,0,0,3,3,0,0,VALID,0,0,0,0,0,1,0,0,0,0,0,0,0,0,0,0,0,0,0,0,328.55,1094.01,2,0,0.12,0.12,160,8.33,0.12,0.12,19.42,FLYING,X10-F,0:/Integrated Flight Computer/aircraft/x10_f_cfg.ks (inferred preloaded)
19.78,APPROACH,ILS_TRACK,151.72,152,0.28,461.82,381.2,-0.37,9.84,9.97,270,-0.01,0.2939,0,20,1,0.6,4.5,0.75,0.35,0.0168,0.4,0,21.971,0,-0.285,0,270,0,0,1,-0.14,0,0,0,270,0.3308,0,0.9437,0,270,0.07,-64.21,8.62,-0.001,12.976,1,3,664,7.858,0,526.04,0,0,0,,0,0,0,0,0,0,270.02,0,0,0,0,0,0,0,0,0,0,0,0,0,3,3,0,0,VALID,0,0,0,0,0,1,0,0,0,0,0,0,0,0,0,0,0,0,0,0,327.69,1094.27,2,0,0.12,0.12,163,8.33,0.12,0.12,19.78,FLYING,X10-F,0:/Integrated Flight Computer/aircraft/x10_f_cfg.ks (inferred preloaded)
20.14,APPROACH,ILS_TRACK,151.77,152,0.23,461.68,381.06,-0.34,9.84,9.95,270,-0.011,0.2933,0,20,1,0.6,4.5,0.75,0.35,0.0168,0.4,0,21.955,0,-0.228,0,270,0,0,1,-0.13,0,0,0,270,0.3309,0,0.9437,0,270,0.06,-61.36,8.563,0,12.099,1,3,664,7.886,0,523.05,0,0,0,,0,0,0,0,0,0,270.02,0,0,0,0,0,0,0,0,0,0,0,0,0,3,3,0,0,VALID,0,0,0,0,0,1,0,0,0,0,0,0,0,0,0,0,0,0,0,0,326.94,1094.52,2,0,0.12,0.12,166,8.33,0.12,0.12,20.14,FLYING,X10-F,0:/Integrated Flight Computer/aircraft/x10_f_cfg.ks (inferred preloaded)
20.5,APPROACH,ILS_TRACK,151.83,152,0.17,461.55,380.93,-0.32,9.82,9.92,269.99,-0.012,0.2925,0,20,1,0.6,4.5,0.75,0.35,0.0168,0.4,0,21.94,0,-0.173,0,270,0,0,1,-0.12,0,0,0,270,0.331,0,0.9436,0,270,0.06,-58.5,8.506,0,11.228,1,3,664,7.903,0,520.06,0,0,0,,0,0,0,0,0,0,270.02,0,0,0,0,0,0,0,0,0,0,0,0,0,3,3,0,0,VALID,0,0,0,0,0,1,0,0,0,0,0,0,0,0,0,0,0,0,0,0,326.19,1094.76,2,0,0.12,0.12,169,8.33,0.12,0.12,20.5,FLYING,X10-F,0:/Integrated Flight Computer/aircraft/x10_f_cfg.ks (inferred preloaded)
20.86,APPROACH,ILS_TRACK,151.88,152,0.12,461.42,380.81,-0.32,9.8,9.91,269.99,-0.012,0.2907,0,20,1,0.6,4.5,0.75,0.35,0.0168,0.4,0,21.925,0,-0.119,0,270,0,0,1,-0.11,0,0,0,270,0.3311,0,0.9436,0,270,0.06,-55.63,8.449,-0.001,10.343,1,3,664,7.933,0,517.07,0,0,0,,0,0,0,0,0,0,270.02,0,0,0,0,0,0,0,0,0,0,0,0,0,3,3,0,0,VALID,0,0,0,0,0,1,0,0,0,0,0,0,0,0,0,0,0,0,0,0,325.39,1095,2,0,0.12,0.12,172,8.33,0.12,0.12,20.86,FLYING,X10-F,0:/Integrated Flight Computer/aircraft/x10_f_cfg.ks (inferred preloaded)
21.22,APPROACH,ILS_TRACK,151.93,152,0.07,461.31,380.7,-0.29,9.8,9.9,269.99,-0.013,0.291,0,20,1,0.6,4.5,0.75,0.35,0.0168,0.4,0,21.911,0,-0.071,0,270,0,0,1,-0.1,0,0,0,270,0.3312,0,0.9436,0,270,0.05,-52.75,8.392,-0.001,9.472,1,3,664,7.943,0,514.08,0,0,0,,0,0,0,0,0,0,270.02,0,0,0,0,0,0,0,0,0,0,0,0,0,3,3,0,0,VALID,0,0,0,0,0,1,0,0,0,0,0,0,0,0,0,0,0,0,0,0,324.44,1095.21,2,0,0.12,0.12,175,8.33,0.12,0.12,21.22,FLYING,X10-F,0:/Integrated Flight Computer/aircraft/x10_f_cfg.ks (inferred preloaded)
21.48,APPROACH,ILS_TRACK,151.97,152,0.03,461.24,380.62,-0.24,9.84,9.93,269.99,-0.013,0.2888,0,20,1,0.6,4.5,0.75,0.35,0.0168,0.4,0,21.9,0,-0.034,0,270,0,0,1,-0.1,0,0,0,270,0.3313,0,0.9435,0,270,0.05,-50.66,8.35,0.002,8.744,1,3,664,8.068,0,511.92,0,0,0,,0,0,0,0,0,0,270.02,0,0,0,0,0,0,0,0,0,0,0,0,0,3,3,0,0,VALID,0,0,0,0,0,1,0,0,0,0,0,0,0,0,0,0,0,0,0,0,323.89,1095.37,2,0,0.12,0.12,177,7.69,0.14,0.12,21.48,FLYING,X10-F,0:/Integrated Flight Computer/aircraft/x10_f_cfg.ks (inferred preloaded)
21.84,APPROACH,ILS_TRACK,152.01,152,-0.01,461.14,380.53,-0.23,9.81,9.88,269.99,-0.013,0.2889,0,19.999,1,0.6,4.5,0.75,0.35,0.0168,0.4,0,21.888,0,0.01,0,270,0,0,1,-0.09,0,0,0,270,0.3313,0,0.9435,0,270,0.05,-47.77,8.293,-0.001,7.899,1,3,664,8.041,0,508.92,0,0,0,,0,0,0,0,0,0,270.02,0,0,0,0,0,0,0,0,0,0,0,0,0,3,3,0,0,VALID,0,0,0,0,0,1,0,0,0,0,0,0,0,0,0,0,0,0,0,0,323.22,1095.57,2,0,0.12,0.12,180,8.33,0.12,0.12,21.84,FLYING,X10-F,0:/Integrated Flight Computer/aircraft/x10_f_cfg.ks (inferred preloaded)
22.2,APPROACH,ILS_TRACK,152.06,152,-0.06,461.04,380.44,-0.22,9.79,9.87,269.99,-0.013,0.287,0,19.984,1,0.6,4.5,0.75,0.35,0.0168,0.4,0,21.876,0,0.055,0,270,0,0,1,-0.08,0,0,0,270,0.3314,0,0.9435,0,270,0.05,-44.87,8.236,0.001,7.029,1,3,664,8.041,0,505.93,0,0,0,,0,0,0,0,0,0,270.02,0,0,0,0,0,0,0,0,0,0,0,0,0,3,3,0,0,VALID,0,0,0,0,0,1,0,0,0,0,0,0,0,0,0,0,0,0,0,0,322.39,1095.76,2,0,0.12,0.12,183,8.33,0.12,0.12,22.2,FLYING,X10-F,0:/Integrated Flight Computer/aircraft/x10_f_cfg.ks (inferred preloaded)
22.56,APPROACH,ILS_TRACK,152.09,152,-0.09,460.97,380.35,-0.14,9.89,9.94,269.99,-0.013,0.2892,0,19.955,1,0.6,4.5,0.75,0.35,0.0168,0.4,0,21.865,0,0.091,0,270,0,0,1,-0.07,0,0,0,270,0.3315,0,0.9434,0,270,0.04,-41.94,8.179,0.002,6.073,1,3,664,8.137,0,502.93,0,0,0,,0,0,0,0,0,0,270.02,0,0,0,0,0,0,0,0,0,0,0,0,0,3,3,0,0,VALID,0,0,0,0,0,1,0,0,0,0,0,0,0,0,0,0,0,0,0,0,321.38,1095.92,2,0,0.12,0.12,186,8.33,0.12,0.12,22.56,FLYING,X10-F,0:/Integrated Flight Computer/aircraft/x10_f_cfg.ks (inferred preloaded)
22.92,APPROACH,ILS_TRACK,152.12,152,-0.12,460.89,380.28,-0.22,9.79,9.89,269.99,-0.01,0.2917,0,19.918,1,0.6,4.5,0.75,0.35,0.0168,0.4,0,21.858,0,0.118,0,270,0,0,1,-0.09,0,0,0,270,0.3316,0,0.9434,0,270,0.04,-39.04,8.122,0,5.179,1,3,664,8.168,0,499.94,0,0,0,,0,0,0,0,0,0,270.02,0,0,0,0,0,0,0,0,0,0,0,0,0,3,3,0,0,VALID,0,0,0,0,0,1,0,0,0,0,0,0,0,0,0,0,0,0,0,0,321.35,1096.04,2,0,0.12,0.12,189,8.33,0.12,0.12,22.92,FLYING,X10-F,0:/Integrated Flight Computer/aircraft/x10_f_cfg.ks (inferred preloaded)
23.28,APPROACH,ILS_TRACK,152.16,152,-0.16,460.81,380.21,-0.17,9.8,9.86,269.99,-0.011,0.2872,0,19.867,1,0.6,4.5,0.75,0.35,0.0168,0.4,0,21.847,0,0.155,0,270,0,0,1,-0.06,0,0,0,270,0.3317,0,0.9434,0,270,0.04,-36.12,8.065,0.001,4.331,1,3,664,8.13,0,496.94,0,0,0,,0,0,0,0,0,0,270.02,0,0,0,0,0,0,0,0,0,0,0,0,0,3,3,0,0,VALID,0,0,0,0,0,1,0,0,0,0,0,0,0,0,0,0,0,0,0,0,321.11,1096.21,2,0,0.12,0.12,192,8.33,0.12,0.12,23.28,FLYING,X10-F,0:/Integrated Flight Computer/aircraft/x10_f_cfg.ks (inferred preloaded)
23.64,APPROACH,ILS_TRACK,152.19,152,-0.19,460.75,380.14,-0.15,9.78,9.83,269.99,-0.012,0.2854,0,19.802,1,0.6,4.5,0.75,0.35,0.0168,0.4,0,21.837,0,0.19,0,270,0,0,1,-0.05,0,0,0,270,0.3318,0,0.9434,0,270,0.03,-33.19,8.007,0.002,3.488,1,3,664,8.085,0,493.94,0,0,0,,0,0,0,0,0,0,270.02,0,0,0,0,0,0,0,0,0,0,0,0,0,3,3,0,0,VALID,0,0,0,0,0,1,0,0,0,0,0,0,0,0,0,0,0,0,0,0,320.22,1096.35,2,0,0.12,0.12,195,8.33,0.12,0.12,23.64,FLYING,X10-F,0:/Integrated Flight Computer/aircraft/x10_f_cfg.ks (inferred preloaded)
23.9,APPROACH,ILS_TRACK,152.22,152,-0.22,460.7,380.1,-0.13,9.78,9.82,269.99,-0.012,0.2821,0,19.747,1,0.6,4.5,0.75,0.35,0.0168,0.4,0,21.83,0,0.216,0,270,-0.214,0,1,-0.05,0,0,0,270,0.3354,0,0.9421,-0.21,270,0.03,-31.07,7.966,0.001,2.786,1,3,664,8.167,-0.214,491.78,0,0,0,,0,0,0,0,0,0,270.02,0,0,0,0,0,0,0,0,0,0,0,0,0,3,3,0,0,VALID,0,0,0,0,0,1,0,0,0,0,0,0,0,0,0,0,0,0,0,0,319.53,1096.47,2,0,0.12,0.12,197,7.69,0.14,0.12,23.9,FLYING,X10-F,0:/Integrated Flight Computer/aircraft/x10_f_cfg.ks (inferred preloaded)
24.26,APPROACH,ILS_TRACK,152.24,152,-0.24,460.54,380.1,0.13,9.36,9.26,269.99,-0.007,0.2855,0,19.663,1,0.6,4.5,0.75,0.35,0.0168,0.4,0,21.823,0,0.24,0,270,-0.734,0,1,0.04,0,0,-0.66,270,0.344,0,0.939,-0.73,270,0.03,-28.2,7.909,0.001,2.266,1,3,664,7.744,-0.734,488.78,0,0,0,,0,0,0,0,0,0,270.02,0,0,0,0,0,0,0,0,0,0,0,0,0,3,3,0,0,VALID,0,0,0,0,0,1,0,0,0,0,0,0,0,0,0,0,0,0,0,0,318.34,1096.55,2,0,0.12,0.12,200,8.33,0.12,0.12,24.26,FLYING,X10-F,0:/Integrated Flight Computer/aircraft/x10_f_cfg.ks (inferred preloaded)
24.62,APPROACH,ILS_TRACK,152.33,152,-0.33,460.2,380.13,-0.26,8.14,8.17,270,0.011,0.2458,0,19.563,1,0.6,4.5,0.75,0.35,0.0168,0.4,0,21.799,0,0.325,0,270,-1.238,0,1,-0.07,0,0,-0.94,270,0.3523,0,0.9359,-1.24,270,0.02,-25.54,7.852,0.001,1.762,1,3,664,7.377,-1.238,485.78,0,0,0,,0,0,0,0,0,0,270.02,0,0,0,0,0,0,0,0,0,0,0,0,0,3,3,0,0,VALID,0,0,0,0,0,1,0,0,0,0,0,0,0,0,0,0,0,0,0,0,317.53,1096.94,2,0,0.12,0.12,203,8.33,0.12,0.12,24.62,FLYING,X10-F,0:/Integrated Flight Computer/aircraft/x10_f_cfg.ks (inferred preloaded)
24.98,APPROACH,ILS_TRACK,152.54,152,-0.54,459.79,379.99,-0.64,7.29,7.45,270,0.013,0.1609,0,19.399,1,0.6,4.5,0.75,0.35,0.0168,0.4,0,21.743,0,0.526,0,270,-1.784,0,1,-0.21,0,0,-1.68,270,0.3613,0,0.9324,-1.78,270,0.02,-22.93,7.794,0.002,1.216,1,3,664,7.079,-1.784,482.77,0,0,0,,0,0,0,0,0,0,270.02,0,0,0,0,0,0,0,0,0,0,0,0,0,3,3,0,0,VALID,0,0,0,0,0,1,0,0,0,0,0,0,0,0,0,0,0,0,0,0,308.93,1097.81,2,0,0.12,0.12,206,8.33,0.12,0.12,24.98,FLYING,X10-F,0:/Integrated Flight Computer/aircraft/x10_f_cfg.ks (inferred preloaded)
25.34,APPROACH,ILS_TRACK,152.77,152,-0.77,459.29,379.62,-1.32,6.79,7.25,270,0.015,0.0948,0,19.153,1,0.6,4.5,0.75,0.35,0.0168,0.4,0,21.678,0,0.757,0,270,-2.449,0,1,-0.49,0,0,-2.21,270,0.3722,0,0.9281,-2.45,270,0.02,-20.42,7.737,0.002,0.551,1,3,664,6.968,-2.449,479.77,0,0,0,,0,0,0,0,0,0,270.02,0,0,0,0,0,0,0,0,0,0,0,0,0,3,3,0,0,VALID,0,0,0,0,0,1,0,0,0,0,0,0,0,0,0,0,0,0,0,0,290.48,1098.8,2,0,0.12,0.12,209,8.33,0.12,0.12,25.34,FLYING,X10-F,0:/Integrated Flight Computer/aircraft/x10_f_cfg.ks (inferred preloaded)
25.7,APPROACH,ILS_TRACK,152.94,152,-0.94,458.46,379.11,-1.81,5.86,6.43,270,0.016,0.0812,0,18.839,1,0.6,4.5,0.75,0.35,0.0168,0.4,0,21.629,0,0.929,0,270,-2.21,0,1,-0.64,0,0,-2.22,270,0.3684,0,0.9297,-2.21,270,0.01,-18.19,7.68,0,0.79,1,3,664,5.835,-2.21,476.76,0,0,0,,0,0,0,0,0,0,270.02,0,0,0,0,0,0,0,0,0,0,0,0,0,3,3,0,0,VALID,0,0,0,0,0,1,0,0,0,0,0,0,0,0,0,0,0,0,0,0,268.07,1099.56,2,0,0.12,0.12,212,8.33,0.12,0.12,25.7,FLYING,X10-F,0:/Integrated Flight Computer/aircraft/x10_f_cfg.ks (inferred preloaded)
26.06,APPROACH,ILS_TRACK,153.11,152,-1.11,457.5,378.25,-2.94,5.37,6.42,270,0.019,0.0675,0,18.461,1,0.6,4.5,0.75,0.35,0.0168,0.4,0,21.581,0,1.099,0,270,-2.718,0,1,-1.05,0,0,-2.5,270,0.3768,0,0.9263,-2.72,270,0.01,-16.14,7.622,0.001,0.282,1,3,664,5.7,-2.718,473.74,0,0,0,,0,0,0,0,0,0,270.02,0,0,0,0,0,0,0,0,0,0,0,0,0,3,3,0,0,VALID,0,0,0,0,0,1,0,0,0,0,0,0,0,0,0,0,0,0,0,0,245.85,1100.32,2,0,0.12,0.12,215,8.33,0.12,0.12,26.06,FLYING,X10-F,0:/Integrated Flight Computer/aircraft/x10_f_cfg.ks (inferred preloaded)
26.32,APPROACH,ILS_TRACK,153.17,152,-1.17,456.73,377.42,-3.28,5.6,6.77,270,0.015,0.0852,0,18.162,1,0.6,4.5,0.75,0.35,0.0168,0.4,0,21.562,0,1.166,0,270,-2.85,0,1,-1.22,0,0,-2.93,270,0.3789,0,0.9254,-2.85,270,0.01,-14.71,7.58,0,0.15,1,3,664,5.327,-2.85,471.57,0,0,0,,0,0,0,0,0,0,270.02,0,0,0,0,0,0,0,0,0,0,0,0,0,3,3,0,0,VALID,0,0,0,0,0,1,0,0,0,0,0,0,0,0,0,0,0,0,0,0,231.27,1100.67,2,0,0.12,0.12,217,7.69,0.14,0.12,26.32,FLYING,X10-F,0:/Integrated Flight Computer/aircraft/x10_f_cfg.ks (inferred preloaded)
26.68,APPROACH,ILS_TRACK,153.22,152,-1.22,455.33,376.12,-4.04,5.28,6.7,270,0.017,0.1165,0,17.73,1,0.6,4.5,0.75,0.35,0.0168,0.4,0,21.547,0,1.219,0,270,-2.582,0,1,-1.47,0,0,-2.53,270,0.3747,0,0.9271,-2.58,270,0.01,-13.06,7.523,0.001,0.418,1,3,664,4.375,-2.582,468.55,0,0,0,,0,0,0,0,0,0,270.02,0,0,0,0,0,0,0,0,0,0,0,0,0,3,3,0,0,VALID,0,0,0,0,0,1,0,0,0,0,0,0,0,0,0,0,0,0,0,0,216.49,1100.98,2,0,0.12,0.12,220,8.33,0.12,0.12,26.68,FLYING,X10-F,0:/Integrated Flight Computer/aircraft/x10_f_cfg.ks (inferred preloaded)
27.04,APPROACH,ILS_TRACK,153.2,152,-1.2,453.87,374.48,-4.79,5.78,7.54,270,0.015,0.1674,0,17.292,1,0.6,4.5,0.75,0.35,0.0168,0.4,0,21.552,0,1.203,0,270,-3.018,0,1,-1.78,0,0,-2.89,270,0.3818,0,0.9242,-3.02,270,0.01,-11.49,7.465,0,-0.018,1,3,664,4.333,-3.018,465.54,0,0,0,,0,0,0,0,0,0,270.02,0,0,0,0,0,0,0,0,0,0,0,0,0,3,3,0,0,VALID,0,0,0,0,0,1,0,0,0,0,0,0,0,0,0,0,0,0,0,0,207.65,1101.03,2,0,0.12,0.12,223,8.33,0.12,0.12,27.04,FLYING,X10-F,0:/Integrated Flight Computer/aircraft/x10_f_cfg.ks (inferred preloaded)
27.4,APPROACH,ILS_TRACK,153.11,152,-1.11,452.1,372.74,-5.06,5.8,7.59,270,0.013,0.2308,0,16.88,1,0.6,4.5,0.75,0.35,0.0168,0.4,0,21.578,0,1.11,0,270,-2.486,0,1,-1.87,0,0,-2.6,270,0.3733,0,0.9277,-2.49,270,0.01,-10.22,7.408,-0.001,0.514,1,3,664,3.189,-2.486,462.52,0,0,0,,0,0,0,0,0,0,270.02,0,0,0,0,0,0,0,0,0,0,0,0,0,3,3,0,0,VALID,0,0,0,0,0,1,0,0,0,0,0,0,0,0,0,0,0,0,0,0,206.89,1100.78,2,0,0.12,0.12,226,8.33,0.12,0.12,27.4,FLYING,X10-F,0:/Integrated Flight Computer/aircraft/x10_f_cfg.ks (inferred preloaded)
27.76,APPROACH,ILS_TRACK,153.04,152,-1.04,450.22,370.76,-5.82,5.97,8.09,270,0.012,0.2477,0,16.494,1,0.6,4.5,0.75,0.35,0.0168,0.4,0,21.596,0,1.047,0,270,-2.82,0,1,-2.15,0,0,-2.64,270,0.3788,0,0.9255,-2.82,270,0.01,-9.09,7.351,0.002,0.18,1,3,664,3.184,-2.82,459.51,0,0,0,,0,0,0,0,0,0,270.02,0,0,0,0,0,0,0,0,0,0,0,0,0,3,3,0,0,VALID,0,0,0,0,0,1,0,0,0,0,0,0,0,0,0,0,0,0,0,0,210.36,1100.66,2,0,0.12,0.12,229,8.33,0.12,0.12,27.76,FLYING,X10-F,0:/Integrated Flight Computer/aircraft/x10_f_cfg.ks (inferred preloaded)
28.12,APPROACH,ILS_TRACK,152.92,152,-0.92,448.26,368.64,-5.89,6.6,8.71,270,0.003,0.287,0,16.144,1,0.6,4.5,0.75,0.35,0.0168,0.4,0,21.63,0,0.927,0,270,-2.738,0,1,-2.2,0,0,-2.93,270,0.3776,-0.0001,0.926,-2.74,270,0.01,-8.01,7.293,-0.002,0.262,1,3,664,2.678,-2.738,456.51,0,0,0,,0,0,0,0,0,0,270.02,0,0,0,0,0,0,0,0,0,0,0,0,0,3,3,0,0,VALID,0,0,0,0,0,1,0,0,0,0,0,0,0,0,0,0,0,0,0,0,215.41,1100.32,2,0,0.12,0.12,232,8.33,0.12,0.12,28.12,FLYING,X10-F,0:/Integrated Flight Computer/aircraft/x10_f_cfg.ks (inferred preloaded)
28.48,APPROACH,ILS_TRACK,152.81,152,-0.81,446.17,366.45,-6.12,6.89,9.12,270,0,0.301,0,15.837,1,0.6,4.5,0.75,0.35,0.0168,0.4,0,21.66,0,0.819,0,270,-2.914,0,1,-2.3,0,0,-2.82,270,0.3805,-0.0001,0.9248,-2.91,270,0.01,-7.1,7.236,-0.001,0.086,1,3,664,2.554,-2.914,453.5,0,0,0,,0,0,0,0,0,0,270.02,0,0,0,0,0,0,0,0,0,0,0,0,0,3,3,0,0,VALID,0,0,0,0,0,1,0,0,0,0,0,0,0,0,0,0,0,0,0,0,222.71,1100.05,2,0,0.12,0.12,235,8.33,0.12,0.12,28.48,FLYING,X10-F,0:/Integrated Flight Computer/aircraft/x10_f_cfg.ks (inferred preloaded)
28.74,APPROACH,ILS_TRACK,152.71,152,-0.71,444.52,364.88,-6.08,6.72,8.86,270,-0.002,0.3239,0,15.644,1,0.6,4.5,0.75,0.35,0.0168,0.4,0,21.69,0,0.713,0,270,-2.552,0,1,-2.27,0,0,-2.76,270,0.3747,-0.0001,0.9271,-2.55,270,0.01,-6.56,7.194,-0.001,0.448,1,3,664,1.898,-2.552,451.33,0,0,0,,0,0,0,0,0,0,270.02,0,0,0,0,0,0,0,0,0,0,0,0,0,3,3,0,0,VALID,0,0,0,0,0,1,0,0,0,0,0,0,0,0,0,0,0,0,0,0,228.37,1099.73,2,0,0.12,0.12,237,7.69,0.14,0.12,28.74,FLYING,X10-F,0:/Integrated Flight Computer/aircraft/x10_f_cfg.ks (inferred preloaded)
29.1,APPROACH,ILS_TRACK,152.65,152,-0.65,442.2,362.6,-6.59,6.49,8.86,270,-0.001,0.2949,0,15.403,1,0.6,4.5,0.75,0.35,0.0168,0.4,0,21.706,0,0.656,0,270,-2.819,0,1,-2.45,0,0,-2.65,270,0.3791,-0.0001,0.9253,-2.82,270,0.01,-5.88,7.137,-0.003,0.181,1,3,664,1.978,-2.819,448.33,0,0,0,,0,0,0,0,0,0,270.02,0,0,0,0,0,0,0,0,0,0,0,0,0,3,3,0,0,VALID,0,0,0,0,0,1,0,0,0,0,0,0,0,0,0,0,0,0,0,0,236.67,1099.69,2,0,0.12,0.12,240,8.33,0.12,0.12,29.1,FLYING,X10-F,0:/Integrated Flight Computer/aircraft/x10_f_cfg.ks (inferred preloaded)
29.46,APPROACH,ILS_TRACK,152.59,152,-0.59,439.88,360.23,-6.48,6.76,9.06,270,-0.007,0.2873,0,15.18,1,0.6,4.5,0.75,0.35,0.0168,0.4,0,21.724,0,0.593,0,270,-2.788,0,1,-2.44,0,0,-3.01,270,0.3787,-0.0001,0.9255,-2.79,270,0.02,-5.18,7.08,-0.002,0.212,1,3,664,1.677,-2.788,445.33,0,0,0,,0,0,0,0,0,0,270.02,0,0,0,0,0,0,0,0,0,0,0,0,0,3,3,0,0,VALID,0,0,0,0,0,1,0,0,0,0,0,0,0,0,0,0,0,0,0,0,242.36,1099.6,2,0,0.12,0.12,243,8.33,0.12,0.12,29.46,FLYING,X10-F,0:/Integrated Flight Computer/aircraft/x10_f_cfg.ks (inferred preloaded)
29.82,APPROACH,ILS_TRACK,152.57,152,-0.57,437.35,357.85,-6.86,6.24,8.69,270,-0.006,0.2578,0,14.978,1,0.6,4.5,0.75,0.35,0.0168,0.4,0,21.731,0,0.567,0,270,-2.649,0,1,-2.55,0,0,-2.56,270,0.3766,0,0.9264,-2.65,270,0.02,-4.7,7.023,-0.001,0.351,1,3,664,1.324,-2.649,442.33,0,0,0,,0,0,0,0,0,0,270.02,0,0,0,0,0,0,0,0,0,0,0,0,0,3,3,0,0,VALID,0,0,0,0,0,1,0,0,0,0,0,0,0,0,0,0,0,0,0,0,247.4,1099.72,2,0,0.12,0.12,246,8.33,0.12,0.12,29.82,FLYING,X10-F,0:/Integrated Flight Computer/aircraft/x10_f_cfg.ks (inferred preloaded)
30.18,APPROACH,ILS_TRACK,152.58,152,-0.58,434.95,355.27,-7.25,6.7,9.36,270,-0.009,0.2274,0,14.77,1,0.6,4.5,0.75,0.35,0.0168,0.4,0,21.728,0,0.577,0,270,-3.171,0,1,-2.73,0,0,-2.99,270,0.3851,-0.0001,0.9229,-3.17,270,0.02,-4.12,6.965,-0.005,-0.171,1,3,664,1.76,-3.171,439.33,0,0,0,,0,0,0,0,0,0,270.02,0,0,0,0,0,0,0,0,0,0,0,0,0,3,3,0,0,VALID,0,0,0,0,0,1,0,0,0,0,0,0,0,0,0,0,0,0,0,0,249.06,1099.97,2,0,0.12,0.12,249,8.33,0.12,0.12,30.18,FLYING,X10-F,0:/Integrated Flight Computer/aircraft/x10_f_cfg.ks (inferred preloaded)
30.54,APPROACH,ILS_TRACK,152.51,152,-0.51,432.37,352.72,-7.04,6.74,9.24,270,-0.015,0.2531,0,14.576,1,0.6,4.5,0.75,0.35,0.0168,0.4,0,21.747,0,0.51,0,270,-2.647,0,1,-2.63,0,0,-2.84,270,0.3767,-0.0001,0.9263,-2.65,270,0.02,-3.67,6.908,-0.003,0.353,1,3,664,0.936,-2.647,436.34,0,0,0,,0,0,0,0,0,0,270.02,0,0,0,0,0,0,0,0,0,0,0,0,0,3,3,0,0,VALID,0,0,0,0,0,1,0,0,0,0,0,0,0,0,0,0,0,0,0,0,249.47,1099.89,2,0,0.12,0.12,252,8.33,0.12,0.12,30.54,FLYING,X10-F,0:/Integrated Flight Computer/aircraft/x10_f_cfg.ks (inferred preloaded)
30.9,APPROACH,ILS_TRACK,152.52,152,-0.52,429.74,350.12,-7.47,6.56,9.26,270,-0.014,0.2235,0,14.391,1,0.6,4.5,0.75,0.35,0.0168,0.4,0,21.745,0,0.518,0,270,-2.893,0,1,-2.78,0,0,-2.73,270,0.3808,-0.0001,0.9247,-2.89,270,0.02,-3.32,6.851,-0.002,0.107,1,3,664,1.11,-2.893,433.34,0,0,0,,0,0,0,0,0,0,270.02,0,0,0,0,0,0,0,0,0,0,0,0,0,3,3,0,0,VALID,0,0,0,0,0,1,0,0,0,0,0,0,0,0,0,0,0,0,0,0,250.84,1100.14,2,0,0.12,0.12,255,8.33,0.12,0.12,30.9,FLYING,X10-F,0:/Integrated Flight Computer/aircraft/x10_f_cfg.ks (inferred preloaded)
31.16,APPROACH,ILS_TRACK,152.5,152,-0.5,427.9,348.16,-7.39,6.96,9.65,270,-0.019,0.2227,0,14.259,1,0.6,4.5,0.75,0.35,0.0168,0.4,0,21.749,0,0.505,0,270,-3.085,0,1,-2.79,0,0,-3.1,270,0.3839,-0.0001,0.9234,-3.09,270,0.02,-2.99,6.81,-0.002,-0.085,1,3,664,1.227,-3.085,431.18,0,0,0,,0,0,0,0,0,0,270.02,0,0,0,0,0,0,0,0,0,0,0,0,0,3,3,0,0,VALID,0,0,0,0,0,1,0,0,0,0,0,0,0,0,0,0,0,0,0,0,250.38,1100.24,2,0,0.12,0.12,257,7.69,0.14,0.12,31.16,FLYING,X10-F,0:/Integrated Flight Computer/aircraft/x10_f_cfg.ks (inferred preloaded)
31.52,APPROACH,ILS_TRACK,152.45,152,-0.45,425.15,345.53,-7.41,6.63,9.28,270,-0.017,0.2391,0,14.093,1,0.6,4.5,0.75,0.35,0.0168,0.4,0,21.764,0,0.449,0,270,-2.679,0,1,-2.77,0,0,-2.68,270,0.3775,-0.0001,0.926,-2.68,270,0.02,-2.73,6.753,-0.002,0.321,1,3,664,0.622,-2.679,428.19,0,0,0,,0,0,0,0,0,0,270.02,0,0,0,0,0,0,0,0,0,0,0,0,0,3,3,0,0,VALID,0,0,0,0,0,1,0,0,0,0,0,0,0,0,0,0,0,0,0,0,250.72,1100.23,2,0,0.12,0.12,260,8.33,0.12,0.12,31.52,FLYING,X10-F,0:/Integrated Flight Computer/aircraft/x10_f_cfg.ks (inferred preloaded)
31.88,APPROACH,ILS_TRACK,152.45,152,-0.45,422.49,342.78,-7.72,6.83,9.65,270,-0.018,0.2196,0,13.93,1,0.6,4.5,0.75,0.35,0.0168,0.4,0,21.764,0,0.451,0,270,-3.119,0,1,-2.91,0,0,-2.94,270,0.3847,-0.0001,0.9231,-3.12,270,0.03,-2.41,6.696,-0.002,-0.119,1,3,664,1.053,-3.119,425.19,0,0,0,,0,0,0,0,0,0,270.02,0,0,0,0,0,0,0,0,0,0,0,0,0,3,3,0,0,VALID,0,0,0,0,0,1,0,0,0,0,0,0,0,0,0,0,0,0,0,0,250.96,1100.46,2,0,0.12,0.12,263,8.33,0.12,0.12,31.88,FLYING,X10-F,0:/Integrated Flight Computer/aircraft/x10_f_cfg.ks (inferred preloaded)
32.24,APPROACH,ILS_TRACK,152.4,152,-0.4,419.73,340.06,-7.58,6.81,9.52,270,-0.021,0.239,0,13.78,1,0.6,4.5,0.75,0.35,0.0168,0.4,0,21.779,0,0.396,0,270,-2.767,0,1,-2.84,0,0,-2.85,270,0.3791,-0.0001,0.9254,-2.77,270,0.03,-2.16,6.639,-0.003,0.233,1,3,664,0.517,-2.767,422.2,0,0,0,,0,0,0,0,0,0,270.02,0,0,0,0,0,0,0,0,0,0,0,0,0,3,3,0,0,VALID,0,0,0,0,0,1,0,0,0,0,0,0,0,0,0,0,0,0,0,0,250.43,1100.45,2,0,0.12,0.12,266,8.33,0.12,0.12,32.24,FLYING,X10-F,0:/Integrated Flight Computer/aircraft/x10_f_cfg.ks (inferred preloaded)
32.6,APPROACH,ILS_TRACK,152.38,152,-0.38,417.01,337.26,-7.78,6.96,9.8,270,-0.021,0.226,0,13.639,1,0.6,4.5,0.75,0.35,0.0168,0.4,0,21.782,0,0.386,0,270,-3.121,0,1,-2.94,0,0,-2.97,270,0.3849,-0.0001,0.923,-3.12,270,0.03,-1.9,6.581,-0.001,-0.121,1,3,664,0.864,-3.121,419.21,0,0,0,,0,0,0,0,0,0,270.02,0,0,0,0,0,0,0,0,0,0,0,0,0,3,3,0,0,VALID,0,0,0,0,0,1,0,0,0,0,0,0,0,0,0,0,0,0,0,0,250.85,1100.64,2,0,0.12,0.12,269,8.33,0.12,0.12,32.6,FLYING,X10-F,0:/Integrated Flight Computer/aircraft/x10_f_cfg.ks (inferred preloaded)
32.96,APPROACH,ILS_TRACK,152.32,152,-0.32,414.18,334.52,-7.67,6.79,9.53,270,-0.021,0.2455,0,13.515,1,0.6,4.5,0.75,0.35,0.0168,0.4,0,21.8,0,0.324,0,270,-2.765,0,1,-2.87,0,0,-2.81,270,0.3792,-0.0001,0.9253,-2.77,270,0.03,-1.72,6.524,-0.002,0.235,1,3,664,0.351,-2.765,416.22,0,0,0,,0,0,0,0,0,0,270.02,0,0,0,0,0,0,0,0,0,0,0,0,0,3,3,0,0,VALID,0,0,0,0,0,1,0,0,0,0,0,0,0,0,0,0,0,0,0,0,251.21,1100.61,2,0,0.12,0.12,272,8.33,0.12,0.12,32.96,FLYING,X10-F,0:/Integrated Flight Computer/aircraft/x10_f_cfg.ks (inferred preloaded)
33.32,APPROACH,ILS_TRACK,152.32,152,-0.32,411.42,331.69,-7.9,6.91,9.79,270,-0.02,0.2278,0,13.399,1,0.6,4.5,0.75,0.35,0.0168,0.4,0,21.801,0,0.317,0,270,-3.142,0,1,-2.98,0,0,-2.99,270,0.3854,0,0.9228,-3.14,270,0.03,-1.51,6.467,0,-0.142,1,3,664,0.743,-3.142,413.23,0,0,0,,0,0,0,0,0,0,270.02,0,0,0,0,0,0,0,0,0,0,0,0,0,3,3,0,0,VALID,0,0,0,0,0,1,0,0,0,0,0,0,0,0,0,0,0,0,0,0,252,1100.81,2,0,0.12,0.12,275,8.33,0.12,0.12,33.32,FLYING,X10-F,0:/Integrated Flight Computer/aircraft/x10_f_cfg.ks (inferred preloaded)
33.58,APPROACH,ILS_TRACK,152.28,152,-0.28,409.37,329.67,-7.74,6.9,9.68,270,-0.02,0.2393,0,13.324,1,0.6,4.5,0.75,0.35,0.0168,0.4,0,21.812,0,0.28,0,270,-2.856,0,1,-2.9,0,0,-3.06,270,0.3808,-0.0001,0.9246,-2.86,270,0.03,-1.38,6.426,-0.001,0.144,1,3,664,0.339,-2.856,411.08,0,0,0,,0,0,0,0,0,0,270.02,0,0,0,0,0,0,0,0,0,0,0,0,0,3,3,0,0,VALID,0,0,0,0,0,1,0,0,0,0,0,0,0,0,0,0,0,0,0,0,251.98,1100.81,2,0,0.12,0.12,277,7.69,0.14,0.12,33.58,FLYING,X10-F,0:/Integrated Flight Computer/aircraft/x10_f_cfg.ks (inferred preloaded)
33.94,APPROACH,ILS_TRACK,152.27,152,-0.27,406.55,326.83,-8.02,6.86,9.78,270,-0.017,0.2261,0,13.226,1,0.6,4.5,0.75,0.35,0.0168,0.4,0,21.815,0,0.268,0,270,-3.077,0,1,-3.01,0,0,-2.92,270,0.3845,0,0.9231,-3.08,270,0.03,-1.23,6.369,0.001,-0.077,1,3,664,0.559,-3.077,408.09,0,0,0,,0,0,0,0,0,0,270.02,0,0,0,0,0,0,0,0,0,0,0,0,0,3,3,0,0,VALID,0,0,0,0,0,1,0,0,0,0,0,0,0,0,0,0,0,0,0,0,252.56,1101.01,2,0,0.12,0.12,280,8.33,0.12,0.12,33.94,FLYING,X10-F,0:/Integrated Flight Computer/aircraft/x10_f_cfg.ks (inferred preloaded)
34.3,APPROACH,ILS_TRACK,152.21,152,-0.21,403.69,324,-7.8,6.86,9.66,270,-0.018,0.2438,0,13.14,1,0.6,4.5,0.75,0.35,0.0168,0.4,0,21.83,0,0.216,0,270,-2.818,0,1,-2.93,0,0,-2.99,270,0.3804,0,0.9248,-2.82,270,0.03,-1.09,6.312,0,0.182,1,3,664,0.181,-2.818,405.1,0,0,0,,0,0,0,0,0,0,270.02,0,0,0,0,0,0,0,0,0,0,0,0,0,3,3,0,0,VALID,0,0,0,0,0,1,0,0,0,0,0,0,0,0,0,0,0,0,0,0,252.39,1101.01,2,0,0.12,0.12,283,8.33,0.12,0.12,34.3,FLYING,X10-F,0:/Integrated Flight Computer/aircraft/x10_f_cfg.ks (inferred preloaded)
34.66,APPROACH,ILS_TRACK,152.21,152,-0.21,400.83,321.14,-8.12,6.78,9.74,270,-0.015,0.2247,0,13.064,1,0.6,4.5,0.75,0.35,0.0168,0.4,0,21.831,0,0.214,0,270,-3.069,0,1,-3.04,0,0,-2.91,270,0.3845,-0.0001,0.9231,-3.07,270,0.02,-0.98,6.255,-0.001,-0.069,1,3,664,0.454,-3.069,402.12,0,0,0,,0,0,0,0,0,0,270.02,0,0,0,0,0,0,0,0,0,0,0,0,0,3,3,0,0,VALID,0,0,0,0,0,1,0,0,0,0,0,0,0,0,0,0,0,0,0,0,253.1,1101.25,2,0,0.12,0.12,286,8.33,0.12,0.12,34.66,FLYING,X10-F,0:/Integrated Flight Computer/aircraft/x10_f_cfg.ks (inferred preloaded)
35.02,APPROACH,ILS_TRACK,152.17,152,-0.17,397.96,318.26,-7.9,6.91,9.74,270,-0.017,0.2368,0,12.994,1,0.6,4.5,0.75,0.35,0.0168,0.4,0,21.842,0,0.174,0,270,-2.877,0,1,-2.97,0,0,-3.07,270,0.3815,0,0.9244,-2.88,270,0.02,-0.84,6.198,0,0.123,1,3,664,0.162,-2.877,399.13,0,0,0,,0,0,0,0,0,0,270.02,0,0,0,0,0,0,0,0,0,0,0,0,0,3,3,0,0,VALID,0,0,0,0,0,1,0,0,0,0,0,0,0,0,0,0,0,0,0,0,252.55,1101.31,2,0,0.12,0.12,289,8.33,0.12,0.12,35.02,FLYING,X10-F,0:/Integrated Flight Computer/aircraft/x10_f_cfg.ks (inferred preloaded)
35.38,APPROACH,ILS_TRACK,152.16,152,-0.16,395.08,315.37,-8.16,6.84,9.82,270,-0.014,0.2254,0,12.935,1,0.6,4.5,0.75,0.35,0.0168,0.4,0,21.845,0,0.164,0,270,-3.07,0,1,-3.07,0,0,-2.92,270,0.3847,0,0.923,-3.07,270,0.02,-0.76,6.141,0,-0.07,1,3,664,0.373,-3.07,396.15,0,0,0,,0,0,0,0,0,0,270.02,0,0,0,0,0,0,0,0,0,0,0,0,0,3,3,0,0,VALID,0,0,0,0,0,1,0,0,0,0,0,0,0,0,0,0,0,0,0,0,252.96,1101.52,2,0,0.12,0.12,292,8.33,0.12,0.12,35.38,FLYING,X10-F,0:/Integrated Flight Computer/aircraft/x10_f_cfg.ks (inferred preloaded)
35.74,APPROACH,ILS_TRACK,152.12,152,-0.12,392.18,312.47,-8,6.89,9.77,270,-0.016,0.2371,0,12.884,1,0.6,4.5,0.75,0.35,0.0168,0.4,0,21.856,0,0.126,0,270,-2.876,0,1,-3,0,0,-3,270,0.3817,0,0.9243,-2.88,270,0.02,-0.67,6.085,0,0.124,1,3,664,0.094,-2.876,393.17,0,0,0,,0,0,0,0,0,0,270.02,0,0,0,0,0,0,0,0,0,0,0,0,0,3,3,0,0,VALID,0,0,0,0,0,1,0,0,0,0,0,0,0,0,0,0,0,0,0,0,252.65,1101.59,2,0,0.12,0.12,295,8.33,0.12,0.12,35.74,FLYING,X10-F,0:/Integrated Flight Computer/aircraft/x10_f_cfg.ks (inferred preloaded)
36,APPROACH,ILS_TRACK,152.12,152,-0.12,390.09,310.37,-8.18,6.9,9.88,270,-0.015,0.2291,0,12.852,1,0.6,4.5,0.75,0.35,0.0168,0.4,0,21.857,0,0.12,0,270,-3.054,0,1,-3.08,0,0,-2.91,270,0.3846,0,0.9231,-3.05,270,0.02,-0.61,6.044,0,-0.054,1,3,664,0.297,-3.054,391.02,0,0,0,,0,0,0,0,0,0,270.02,0,0,0,0,0,0,0,0,0,0,0,0,0,3,3,0,0,VALID,0,0,0,0,0,1,0,0,0,0,0,0,0,0,0,0,0,0,0,0,253.01,1101.75,2,0,0.12,0.12,297,7.69,0.14,0.12,36,FLYING,X10-F,0:/Integrated Flight Computer/aircraft/x10_f_cfg.ks (inferred preloaded)
36.36,APPROACH,ILS_TRACK,152.08,152,-0.08,387.18,307.46,-8.05,6.92,9.83,269.99,-0.016,0.2378,0,12.817,1,0.6,4.5,0.75,0.35,0.0168,0.4,0,21.867,0,0.085,0,270,-2.904,0,1,-3.02,0,0,-2.99,270,0.3823,0,0.9241,-2.9,270,0.02,-0.53,5.987,0.001,0.096,1,3,664,0.079,-2.904,388.04,0,0,0,,0,0,0,0,0,0,270.02,0,0,0,0,0,0,0,0,0,0,0,0,0,3,3,0,0,VALID,0,0,0,0,0,1,0,0,0,0,0,0,0,0,0,0,0,0,0,0,253.1,1101.84,2,0,0.12,0.12,300,8.33,0.12,0.12,36.36,FLYING,X10-F,0:/Integrated Flight Computer/aircraft/x10_f_cfg.ks (inferred preloaded)
36.72,APPROACH,ILS_TRACK,152.07,152,-0.07,384.28,304.54,-8.06,7.02,9.94,269.99,-0.018,0.2327,0,12.789,1,0.6,4.5,0.75,0.35,0.0168,0.4,0,21.871,0,0.069,0,270,-3.077,0,1,-3.04,0,0,-3.08,270,0.3851,0,0.9229,-3.08,270,0.01,-0.45,5.93,0.001,-0.077,1,3,664,0.265,-3.077,385.06,0,0,0,,0,0,0,0,0,0,270.02,0,0,0,0,0,0,0,0,0,0,0,0,0,3,3,0,0,VALID,0,0,0,0,0,1,0,0,0,0,0,0,0,0,0,0,0,0,0,0,253.51,1102.01,2,0,0.12,0.12,303,8.33,0.12,0.12,36.72,FLYING,X10-F,0:/Integrated Flight Computer/aircraft/x10_f_cfg.ks (inferred preloaded)
37.08,APPROACH,ILS_TRACK,152.05,152,-0.05,381.37,301.62,-8.11,7.02,9.98,269.99,-0.014,0.2328,0,12.771,1,0.6,4.5,0.75,0.35,0.0168,0.4,0,21.878,0,0.046,0,270,-3.091,0,1,-3.06,0,0,-3,270,0.3855,0,0.9227,-3.09,270,0.01,-0.38,5.873,0.001,-0.091,1,3,664,0.258,-3.091,382.08,0,0,0,,0,0,0,0,0,0,270.02,0,0,0,0,0,0,0,0,0,0,0,0,0,3,3,0,0,VALID,0,0,0,0,0,1,0,0,0,0,0,0,0,0,0,0,0,0,0,0,253.88,1102.17,2,0,0.12,0.12,306,8.33,0.12,0.12,37.08,FLYING,X10-F,0:/Integrated Flight Computer/aircraft/x10_f_cfg.ks (inferred preloaded)
37.44,APPROACH,ILS_TRACK,152.02,152,-0.02,378.45,298.71,-8.16,6.97,9.93,269.99,-0.013,0.2331,0,12.76,1,0.6,4.5,0.75,0.35,0.0168,0.4,0,21.884,0,0.025,0,270,-3.034,0,1,-3.06,0,0,-2.97,270,0.3846,0,0.9231,-3.03,270,0.01,-0.33,5.816,0.002,-0.034,1,3,664,0.167,-3.034,379.1,0,0,0,,0,0,0,0,0,0,270.02,0,0,0,0,0,0,0,0,0,0,0,0,0,3,3,0,0,VALID,0,0,0,0,0,1,0,0,0,0,0,0,0,0,0,0,0,0,0,0,254.2,1102.32,2,0,0.12,0.12,309,8.33,0.12,0.12,37.44,FLYING,X10-F,0:/Integrated Flight Computer/aircraft/x10_f_cfg.ks (inferred preloaded)
37.8,APPROACH,ILS_TRACK,151.99,152,0.01,375.52,295.8,-8.06,6.94,9.85,269.99,-0.012,0.2401,0,12.757,1,0.6,4.5,0.75,0.35,0.0168,0.4,0,21.892,0,-0.005,0,270,-2.951,0,1,-3.03,0,0,-3.03,270,0.3834,0,0.9236,-2.95,270,0.01,-0.28,5.759,0.002,0.049,1,3,664,0.042,-2.951,376.13,0,0,0,,0,0,0,0,0,0,270.02,0,0,0,0,0,0,0,0,0,0,0,0,0,3,3,0,0,VALID,0,0,0,0,0,1,0,0,0,0,0,0,0,0,0,0,0,0,0,0,254.48,1102.44,2,0,0.12,0.12,312,8.33,0.12,0.12,37.8,FLYING,X10-F,0:/Integrated Flight Computer/aircraft/x10_f_cfg.ks (inferred preloaded)
38.16,APPROACH,ILS_TRACK,151.98,152,0.02,372.62,292.88,-8.06,7.03,9.95,269.99,-0.013,0.2347,0,12.761,1,0.6,4.5,0.75,0.35,0.0168,0.4,0,21.896,0,-0.016,0,270,-3.135,0,1,-3.05,0,0,-3.14,270,0.3864,0,0.9223,-3.14,270,0,-0.2,5.703,0.001,-0.135,1,3,664,0.245,-3.135,373.15,0,0,0,,0,0,0,0,0,0,270.02,0,0,0,0,0,0,0,0,0,0,0,0,0,3,3,0,0,VALID,0,0,0,0,0,1,0,0,0,0,0,0,0,0,0,0,0,0,0,0,254.97,1102.63,2,0,0.12,0.12,315,8.33,0.12,0.12,38.16,FLYING,X10-F,0:/Integrated Flight Computer/aircraft/x10_f_cfg.ks (inferred preloaded)
38.42,APPROACH,ILS_TRACK,151.96,152,0.04,370.49,290.78,-8.13,6.89,9.84,269.99,-0.011,0.2378,0,12.77,1,0.6,4.5,0.75,0.35,0.0168,0.4,0,21.901,0,-0.036,0,270,-2.993,0,1,-3.05,0,0,-2.98,270,0.3842,0,0.9232,-2.99,270,0,-0.19,5.662,0.002,0.007,1,3,664,0.062,-2.993,371,0,0,0,,0,0,0,0,0,0,270.02,0,0,0,0,0,0,0,0,0,0,0,0,0,3,3,0,0,VALID,0,0,0,0,0,1,0,0,0,0,0,0,0,0,0,0,0,0,0,0,255.3,1102.73,2,0,0.12,0.12,317,7.69,0.14,0.12,38.42,FLYING,X10-F,0:/Integrated Flight Computer/aircraft/x10_f_cfg.ks (inferred preloaded)
38.78,APPROACH,ILS_TRACK,151.95,152,0.05,367.58,287.85,-8.03,7,9.9,269.99,-0.012,0.2376,0,12.785,1,0.6,4.5,0.75,0.35,0.0168,0.4,0,21.905,0,-0.051,0,270,-3.05,0,1,-3.03,0,0,-3.19,270,0.3852,0,0.9228,-3.05,270,0,-0.12,5.605,0.002,-0.05,1,3,664,0.106,-3.05,368.03,0,0,0,,0,0,0,0,0,0,270.02,0,0,0,0,0,0,0,0,0,0,0,0,0,3,3,0,0,VALID,0,0,0,0,0,1,0,0,0,0,0,0,0,0,0,0,0,0,0,0,255.62,1102.9,2,0,0.12,0.12,320,8.33,0.12,0.12,38.78,FLYING,X10-F,0:/Integrated Flight Computer/aircraft/x10_f_cfg.ks (inferred preloaded)
39.14,APPROACH,ILS_TRACK,151.94,152,0.06,364.63,284.93,-8.25,6.81,9.81,270,-0.008,0.231,0,12.808,1,0.6,4.5,0.75,0.35,0.0168,0.4,0,21.908,0,-0.059,0,270,-3.066,0,1,-3.09,0,0,-2.95,270,0.3856,0,0.9227,-3.07,270,0,-0.11,5.548,0.003,-0.066,1,3,664,0.123,-3.066,365.06,0,0,0,,0,0,0,0,0,0,270.02,0,0,0,0,0,0,0,0,0,0,0,0,0,3,3,0,0,VALID,0,0,0,0,0,1,0,0,0,0,0,0,0,0,0,0,0,0,0,0,256.2,1103.12,2,0,0.12,0.12,323,8.33,0.12,0.12,39.14,FLYING,X10-F,0:/Integrated Flight Computer/aircraft/x10_f_cfg.ks (inferred preloaded)
39.5,APPROACH,ILS_TRACK,151.92,152,0.08,361.69,281.99,-8.1,6.89,9.82,269.99,-0.01,0.2362,0,12.832,1,0.6,4.5,0.75,0.35,0.0168,0.4,0,21.912,0,-0.076,0,270,-2.963,0,1,-3.05,0,0,-3.12,270,0.384,0,0.9233,-2.96,270,-0.01,-0.06,5.491,0.003,0.037,1,3,664,-0.025,-2.963,362.08,0,0,0,,0,0,0,0,0,0,270.02,0,0,0,0,0,0,0,0,0,0,0,0,0,3,3,0,0,VALID,0,0,0,0,0,1,0,0,0,0,0,0,0,0,0,0,0,0,0,0,255.98,1103.29,2,0,0.12,0.12,326,8.33,0.12,0.12,39.5,FLYING,X10-F,0:/Integrated Flight Computer/aircraft/x10_f_cfg.ks (inferred preloaded)
