t_s,phase,subphase,ias_ms,vapp_ms,spd_err_ms,agl_m,vs_ms,pitch_deg,aoa_deg,hdg_deg,bank_deg,thr_cmd,thr_intg,aa_hdg_cmd_deg,aa_fpa_cmd_deg,ils_loc_m,ils_gs_m,ils_dist_km,loc_corr_deg,gs_corr_deg,flare_fpa_cmd,flare_tgt_vs,flare_frac,steer_hdg_deg,steer_blend,ro_loc_corr_deg,ro_hdg_err_deg,ro_yaw_tgt,ro_yaw_scale,ro_yaw_gate,yaw_cmd,roll_cmd,pitch_cmd,ro_pitch_tgt_deg,ro_pitch_err_deg,ro_pitch_ff,ro_roll_assist,flaps_cur,flaps_tgt,phase_el_s,status
0.26,APPROACH,FLY_TO_FIX,198.1,150.16,-47.94,2479.54,-23.27,1.87,7.87,269.66,-1.925,0.04,-4.792,9.92,-4.908,0,0,0,0,0,0,0,0,269.67,0,0,0,0,0,0,0,0,0,0,0,0,0,0,3,0.3,FLYING
0.54,APPROACH,ILS_TRACK,198.38,150.58,-47.81,2472.47,-23.8,0.31,6.39,269.82,-2.242,0,-17.216,107.67,-6,0,0,0,0,0,0,0,0,269.67,0,0,0,0,0,0,0,0,0,0,0,0,0,1,3,0.56,FLYING
0.8,APPROACH,ILS_TRACK,198.72,151.02,-47.7,2465.94,-24.68,-0.44,5.79,269.82,-2.947,0,-20,245.4,0,33.65,-22.39,46.192,-31.391,70.704,0,0,0,269.67,0,0,0,0,0,0,0,0,0,0,0,0,0,1,3,0.84,FLYING
1.06,APPROACH,ILS_TRACK,198.99,151.44,-47.55,2458.99,-25.49,-0.14,6.22,269.79,0.057,0,-20,270.02,0,32.69,-26.07,46.129,-0.384,19.124,0,0,0,269.67,0,0,0,0,0,0,0,0,0,0,0,0,0,2,3,1.1,FLYING
1.38,APPROACH,ILS_TRACK,199.23,151.95,-47.28,2451.34,-25.81,0.03,6.51,269.39,4.472,0,-20,269.9,0,31.71,-30.07,46.062,-0.503,19.034,0,0,0,269.67,0,0,0,0,0,0,0,0,0,0,0,0,0,2,3,1.42,FLYING
1.64,APPROACH,ILS_TRACK,199.37,152.37,-47,2444.06,-26.09,0.02,6.61,269.09,3.541,0,-20,270.05,0,30.79,-34.01,45.999,-0.35,22.325,0,0,0,269.67,0,0,0,0,0,0,0,0,0,0,0,0,0,3,3,1.68,FLYING
1.9,APPROACH,ILS_TRACK,199.41,151.95,-47.46,2437.54,-26.1,-0.84,5.85,269.16,1.57,0,-20,270.03,0,29.94,-37.55,45.945,-0.375,22.162,0,0,0,269.67,0,0,0,0,0,0,0,0,0,0,0,0,0,3,3,1.94,FLYING
2.16,APPROACH,ILS_TRACK,199.5,151.54,-47.96,2430.12,-26.69,-2.81,4.05,269.33,1.285,0,-20,270.19,0,28.95,-41.77,45.886,-0.21,25.505,0,0,0,269.67,0,0,0,0,0,0,0,0,0,0,0,0,0,3,3,2.2,FLYING
2.46,APPROACH,ILS_TRACK,199.72,151.06,-48.67,2421.26,-28.42,-4.85,2.35,269.4,1.081,0,-20,270.23,0,27.82,-47.02,45.818,-0.167,28.099,0,0,0,269.67,0,0,0,0,0,0,0,0,0,0,0,0,0,3,3,2.5,FLYING
2.72,APPROACH,ILS_TRACK,199.85,150.64,-49.21,2413.5,-30.25,-5.23,2.32,269.41,0.89,0,-20,270.26,0,26.84,-51.69,45.76,-0.135,29.877,0,0,0,269.67,0,0,0,0,0,0,0,0,0,0,0,0,0,3,3,2.76,FLYING
2.98,APPROACH,ILS_TRACK,199.92,150.22,-49.69,2405.73,-31.79,-4.13,3.71,269.4,0.518,0,-20,270.31,0,25.85,-56.4,45.701,-0.085,31.405,0,0,0,269.67,0,0,0,0,0,0,0,0,0,0,0,0,0,3,3,3.02,FLYING
3.24,APPROACH,ILS_TRACK,199.91,150,-49.91,2397.99,-32.55,-1.86,6.15,269.41,0.17,0,-20,270.36,0,24.86,-61.08,45.643,-0.042,32.75,0,0,0,269.67,0,0,0,0,0,0,0,0,0,0,0,0,0,3,3,3.28,FLYING
3.54,APPROACH,ILS_TRACK,199.79,150,-49.79,2388.91,-32.11,0.3,8.3,269.45,-0.257,0,-20,270.41,0,23.72,-66.56,45.576,0.008,34.584,0,0,0,269.67,0,0,0,0,0,0,0,0,0,0,0,0,0,3,3,3.58,FLYING
3.8,APPROACH,ILS_TRACK,199.48,150,-49.48,2381.03,-31.54,1.63,9.5,269.53,-0.896,0,-20,270.44,0,22.73,-71.43,45.517,0.043,36.408,0,0,0,269.67,0,0,0,0,0,0,0,0,0,0,0,0,0,3,3,3.84,FLYING
4.06,APPROACH,ILS_TRACK,198.97,150,-48.97,2373.41,-30.74,3.28,10.94,269.7,-1.743,0,-20,270.48,0,21.73,-76.13,45.459,0.084,37.277,0,0,0,269.67,0,0,0,0,0,0,0,0,0,0,0,0,0,3,3,4.1,FLYING
4.32,APPROACH,ILS_TRACK,198.22,150,-48.22,2366.21,-29.51,5.46,12.82,269.93,-2.38,0,-20,270.51,0,20.75,-80.46,45.401,0.113,37.468,0,0,0,269.67,0,0,0,0,0,0,0,0,0,0,0,0,0,3,3,4.36,FLYING
4.62,APPROACH,ILS_TRACK,197.01,150,-47.01,2358.41,-27.09,7.8,14.67,270.21,-2.897,0,-20,270.51,0,19.67,-84.93,45.335,0.114,37.398,0,0,0,269.67,0,0,0,0,0,0,0,0,0,0,0,0,0,3,3,4.66,FLYING
4.88,APPROACH,ILS_TRACK,195.68,150,-45.68,2352.05,-24.73,9.02,15.38,270.41,-3.18,0,-20,270.49,0,18.8,-88.43,45.277,0.088,37.313,0,0,0,269.67,0,0,0,0,0,0,0,0,0,0,0,0,0,3,3,4.92,FLYING
5.14,APPROACH,ILS_TRACK,194.22,150,-44.22,2346.15,-22.4,9.72,15.56,270.55,-3.326,0.104,-20,270.45,0,17.99,-91.52,45.22,0.054,36.97,0,0,0,269.67,0,0,0,0,0,0,0,0,0,0,0,0,0,3,3,5.18,FLYING
5.4,APPROACH,ILS_TRACK,192.71,150,-42.71,2340.78,-20.22,10.21,15.52,270.65,-3.359,0.208,-20,270.41,0,17.27,-94.13,45.163,0.007,36.266,0,0,0,269.67,0,0,0,0,0,0,0,0,0,0,0,0,0,3,3,5.44,FLYING
5.7,APPROACH,ILS_TRACK,190.95,150,-40.95,2335.28,-17.78,10.86,15.58,270.72,-3.276,0.328,-20,270.36,0,16.52,-96.47,45.098,-0.039,35.163,0,0,0,269.67,0,0,0,0,0,0,0,0,0,0,0,0,0,3,3,5.74,FLYING
5.96,APPROACH,ILS_TRACK,189.43,150,-39.43,2331.08,-15.7,11.29,15.49,270.75,-3.125,0.432,-20,270.31,0,15.96,-97.93,45.042,-0.095,33.895,0,0,0,269.67,0,0,0,0,0,0,0,0,0,0,0,0,0,3,3,6,FLYING
6.22,APPROACH,ILS_TRACK,187.95,150,-37.95,2327.4,-13.6,11.7,15.39,270.76,-2.874,0.536,-20,270.26,0,15.46,-98.89,44.987,-0.143,32.61,0,0,0,269.67,0,0,0,0,0,0,0,0,0,0,0,0,0,3,3,6.26,FLYING
6.48,APPROACH,ILS_TRACK,186.53,150,-36.53,2324.1,-11.6,11.54,14.74,270.71,-2.509,0.5841,-20,270.2,0,15.04,-99.44,44.931,-0.197,31.513,0,0,0,269.67,0,0,0,0,0,0,0,0,0,0,0,0,0,3,3,6.52,FLYING
6.78,APPROACH,ILS_TRACK,185.11,150,-35.11,2320.81,-9.66,11.06,13.75,270.61,-1.993,0.5846,-20,270.17,0,14.62,-99.6,44.868,-0.234,30.304,0,0,0,269.67,0,0,0,0,0,0,0,0,0,0,0,0,0,3,3,6.82,FLYING
7.04,APPROACH,ILS_TRACK,184.05,150,-34.05,2318.36,-8.22,10.57,12.89,270.51,-1.529,0.5497,-20,270.13,0,14.3,-99.32,44.814,-0.266,28.956,0,0,0,269.67,0,0,0,0,0,0,0,0,0,0,0,0,0,3,3,7.08,FLYING
7.3,APPROACH,ILS_TRACK,183.16,150,-33.16,2316.24,-7.02,10.05,12.03,270.4,-1.079,0.4907,-20,270.11,0,14.02,-98.72,44.759,-0.29,27.751,0,0,0,269.67,0,0,0,0,0,0,0,0,0,0,0,0,0,3,3,7.34,FLYING
7.56,APPROACH,ILS_TRACK,182.4,150,-32.4,2314.44,-6,9.62,11.32,270.31,-0.672,0.4168,-20,270.1,0,13.76,-97.8,44.705,-0.303,26.521,0,0,0,269.67,0,0,0,0,0,0,0,0,0,0,0,0,0,3,3,7.6,FLYING
7.86,APPROACH,ILS_TRACK,181.66,150,-31.66,2312.67,-4.99,9.14,10.56,270.23,-0.297,0.3349,-20,270.1,0,13.47,-96.42,44.643,-0.3,25.241,0,0,0,269.67,0,0,0,0,0,0,0,0,0,0,0,0,0,3,3,7.9,FLYING
8.12,APPROACH,ILS_TRACK,181.11,150,-31.11,2311.36,-4.26,8.73,9.95,270.17,-0.079,0.2523,-20,270.1,0,13.24,-94.99,44.589,-0.299,24.099,0,0,0,269.67,0,0,0,0,0,0,0,0,0,0,0,0,0,3,3,8.16,FLYING
8.38,APPROACH,ILS_TRACK,180.62,150,-30.62,2310.22,-3.67,8.34,9.39,270.14,0.06,0.1748,-20,270.11,0,12.99,-93.38,44.536,-0.286,23.063,0,0,0,269.67,0,0,0,0,0,0,0,0,0,0,0,0,0,3,3,8.42,FLYING
8.64,APPROACH,ILS_TRACK,180.15,150,-30.15,2309.24,-3.18,7.99,8.9,270.12,0.117,0.1064,-20,270.12,0,12.75,-91.61,44.482,-0.276,22.046,0,0,0,269.67,0,0,0,0,0,0,0,0,0,0,0,0,0,3,3,8.68,FLYING
8.94,APPROACH,ILS_TRACK,179.62,150,-29.62,2308.33,-2.83,7.95,8.74,270.12,0.112,0.0506,-20,270.14,0,12.46,-89.39,44.421,-0.261,20.875,0,0,0,269.67,0,0,0,0,0,0,0,0,0,0,0,0,0,3,3,8.98,FLYING
9.21,APPROACH,ILS_TRACK,179.15,150,-29.15,2307.6,-2.32,7.73,8.41,270.12,0.06,0.0079,-20,270.15,0,12.21,-87.3,44.367,-0.248,19.796,0,0,0,269.67,0,0,0,0,0,0,0,0,0,0,0,0,0,3,3,9.25,FLYING
9.49,APPROACH,ILS_TRACK,178.64,150,-28.64,2306.92,-2.15,7.55,8.15,270.13,-0.021,0,-20,270.16,0,11.95,-85.06,44.311,-0.237,18.945,0,0,0,269.67,0,0,0,0,0,0,0,0,0,0,0,0,0,3,3,9.53,FLYING
9.79,APPROACH,ILS_TRACK,178.02,150,-28.02,2306.38,-1.89,7.83,8.36,270.15,-0.12,0,-20,270.18,0,11.66,-82.51,44.251,-0.216,17.716,0,0,0,269.67,0,0,0,0,0,0,0,0,0,0,0,0,0,3,3,9.84,FLYING
10.16,APPROACH,ILS_TRACK,177.21,150,-27.21,2305.68,-1.47,7.48,7.92,270.17,-0.229,0,-20,270.19,0,11.3,-79.3,44.177,-0.205,16.646,0,0,0,269.67,0,0,0,0,0,0,0,0,0,0,0,0,0,3,3,10.21,FLYING
10.49,APPROACH,ILS_TRACK,176.43,150,-26.43,2305.19,-1.48,7.4,7.8,270.18,-0.289,0,-20,270.2,0,11,-76.42,44.111,-0.203,15.833,0,0,0,269.67,0,0,0,0,0,0,0,0,0,0,0,0,0,3,3,10.54,FLYING
10.81,APPROACH,ILS_TRACK,175.59,150,-25.59,2304.83,-1.28,7.77,8.14,270.19,-0.322,0,-20,270.2,0,10.7,-73.38,44.046,-0.197,14.542,0,0,0,269.67,0,0,0,0,0,0,0,0,0,0,0,0,0,3,3,10.86,FLYING
11.19,APPROACH,ILS_TRACK,174.59,150,-24.59,2304.37,-1.12,7.66,7.98,270.2,-0.325,0,-20,270.21,0,10.36,-69.91,43.971,-0.191,13.567,0,0,0,269.67,0,0,0,0,0,0,0,0,0,0,0,0,0,3,3,11.24,FLYING
11.51,APPROACH,ILS_TRACK,173.66,150,-23.66,2304.08,-1.06,7.93,8.22,270.2,-0.33,0.0064,-20,270.23,0,10.06,-66.85,43.906,-0.175,12.528,0,0,0,269.67,0,0,0,0,0,0,0,0,0,0,0,0,0,3,3,11.56,FLYING
11.84,APPROACH,ILS_TRACK,172.71,150,-22.71,2303.77,-0.93,7.96,8.22,270.21,-0.331,0.0277,-20,270.22,0,9.79,-63.77,43.842,-0.181,11.558,0,0,0,269.67,0,0,0,0,0,0,0,0,0,0,0,0,0,3,3,11.89,FLYING
12.21,APPROACH,ILS_TRACK,171.57,150,-21.57,2303.49,-0.81,8.15,8.39,270.21,-0.314,0.0512,-20,270.23,0,9.47,-60.21,43.768,-0.166,10.448,0,0,0,269.67,0,0,0,0,0,0,0,0,0,0,0,0,0,3,3,12.26,FLYING
12.54,APPROACH,ILS_TRACK,170.57,150,-20.57,2303.25,-0.81,8.22,8.43,270.22,-0.306,0.0708,-20,270.23,0,9.21,-57.12,43.705,-0.166,9.554,0,0,0,269.67,0,0,0,0,0,0,0,0,0,0,0,0,0,3,3,12.59,FLYING
12.86,APPROACH,ILS_TRACK,169.56,150,-19.56,2303.06,-0.68,8.38,8.58,270.22,-0.292,0.0898,-20,270.24,0,8.95,-54.01,43.641,-0.156,8.523,0,0,0,269.67,0,0,0,0,0,0,0,0,0,0,0,0,0,3,3,12.91,FLYING
13.24,APPROACH,ILS_TRACK,168.4,150,-18.4,2302.85,-0.65,8.55,8.73,270.22,-0.283,0.103,-20,270.25,0,8.65,-50.43,43.569,-0.151,7.493,0,0,0,269.67,0,0,0,0,0,0,0,0,0,0,0,0,0,3,3,13.29,FLYING
13.56,APPROACH,ILS_TRACK,167.41,150,-17.41,2302.69,-0.58,8.66,8.82,270.23,-0.271,0.1125,-20,270.25,0,8.41,-47.32,43.506,-0.148,6.537,0,0,0,269.67,0,0,0,0,0,0,0,0,0,0,0,0,0,3,3,13.61,FLYING
13.87,APPROACH,ILS_TRACK,166.49,150,-16.49,2302.55,-0.54,8.8,8.96,270.23,-0.259,0.1192,-20,270.25,0,8.19,-44.41,43.448,-0.146,5.616,0,0,0,269.67,0,0,0,0,0,0,0,0,0,0,0,0,0,3,3,13.93,FLYING
14.29,APPROACH,ILS_TRACK,165.31,150,-15.31,2302.39,-0.52,9.01,9.15,270.23,-0.245,0.1233,-20,270.27,0,7.9,-40.65,43.373,-0.125,4.251,0,0,0,269.67,0,0,0,0,0,0,0,0,0,0,0,0,0,3,3,14.36,FLYING
14.68,APPROACH,ILS_TRACK,164.18,150,-14.18,2302.26,-0.44,9.2,9.33,270.24,-0.246,0.1246,-20,270.28,0,7.63,-36.99,43.301,-0.123,3.322,0,0,0,269.67,0,0,0,0,0,0,0,0,0,0,0,0,0,3,3,14.75,FLYING
15.1,APPROACH,ILS_TRACK,163,150,-13,2302.12,-0.34,9.35,9.48,270.24,-0.284,0.1239,-20,270.27,-0.785,7.36,-33.13,43.225,-0.127,2.215,0,0,0,269.67,0,0,0,0,0,0,0,0,0,0,0,0,0,3,3,15.17,FLYING
15.59,APPROACH,ILS_TRACK,161.62,150,-11.62,2301.51,-0.25,7.54,7.78,270.27,-0.464,0.119,-20,270.29,-1.549,7.03,-28.75,43.133,-0.114,1.451,0,0,0,269.67,0,0,0,0,0,0,0,0,0,0,0,0,0,3,3,15.66,FLYING
16.01,APPROACH,ILS_TRACK,160.68,150,-10.68,2300.63,-1.14,5.46,5.92,270.28,-0.58,0.089,-20,270.29,-1.698,6.76,-25.43,43.056,-0.107,1.302,0,0,0,269.67,0,0,0,0,0,0,0,0,0,0,0,0,0,3,3,16.08,FLYING
16.43,APPROACH,ILS_TRACK,159.86,150,-9.86,2299.55,-2.61,4.5,5.29,270.28,-0.616,0.0464,-20,270.29,-2.096,6.51,-22.38,42.978,-0.11,0.904,0,0,0,269.67,0,0,0,0,0,0,0,0,0,0,0,0,0,3,3,16.5,FLYING
16.92,APPROACH,ILS_TRACK,158.95,150,-8.95,2298.04,-4.15,5.25,6.44,270.31,-0.584,0.0071,-20,270.29,-2.661,6.24,-19.08,42.889,-0.112,0.339,0,0,0,269.67,0,0,0,0,0,0,0,0,0,0,0,0,0,3,3,16.99,FLYING
17.34,APPROACH,ILS_TRACK,158.18,150,-8.18,2296.34,-4.84,5.96,7.43,270.32,-0.532,0,-20,270.29,-2.789,6.01,-16.58,42.812,-0.105,0.211,0,0,0,269.67,0,0,0,0,0,0,0,0,0,0,0,0,0,3,3,17.41,FLYING
17.76,APPROACH,ILS_TRACK,157.34,150,-7.34,2294.25,-5.54,6.28,7.96,270.33,-0.474,0,-20,270.29,-2.505,5.8,-14.55,42.736,-0.11,0.495,0,0,0,269.67,0,0,0,0,0,0,0,0,0,0,0,0,0,3,3,17.83,FLYING
18.25,APPROACH,ILS_TRACK,156.2,150,-6.2,2291.61,-6.01,7.11,9,270.33,-0.374,0.0116,-20,270.3,-2.67,5.57,-12.46,42.647,-0.104,0.33,0,0,0,269.67,0,0,0,0,0,0,0,0,0,0,0,0,0,3,3,18.32,FLYING
18.67,APPROACH,ILS_TRACK,155.17,150,-5.17,2289.02,-6.36,7.09,9.1,270.32,-0.306,0.0703,-20,270.29,-2.478,5.39,-11,42.572,-0.108,0.522,0,0,0,269.67,0,0,0,0,0,0,0,0,0,0,0,0,0,3,3,18.74,FLYING
19.09,APPROACH,ILS_TRACK,154.08,150,-4.08,2286.39,-6.81,7.6,9.71,270.32,-0.22,0.1371,-20,270.29,-2.521,5.22,-9.72,42.498,-0.108,0.479,0,0,0,269.67,0,0,0,0,0,0,0,0,0,0,0,0,0,3,3,19.16,FLYING
19.58,APPROACH,ILS_TRACK,152.78,150,-2.78,2283.24,-6.82,8.38,10.6,270.31,-0.153,0.217,-20,270.3,-2.891,5.03,-8.27,42.411,-0.102,0.109,0,0,0,269.67,0,0,0,0,0,0,0,0,0,0,0,0,0,3,3,19.65,FLYING
20,APPROACH,ILS_TRACK,151.67,150,-1.67,2280.16,-6.84,7.53,9.83,270.31,-0.136,0.2855,-20,270.3,-2.57,4.87,-7.34,42.337,-0.101,0.43,0,0,0,269.67,0,0,0,0,0,0,0,0,0,0,0,0,0,3,3,20.07,FLYING
20.42,APPROACH,ILS_TRACK,150.71,150,-0.71,2277,-7.44,6.97,9.41,270.31,-0.104,0.3286,-20,270.3,-2.282,4.71,-6.67,42.264,-0.096,0.718,0,0,0,269.67,0,0,0,0,0,0,0,0,0,0,0,0,0,3,3,20.49,FLYING
20.91,APPROACH,ILS_TRACK,149.71,150,0.29,2273.36,-8.15,7.69,10.27,270.3,-0.086,0.3612,-19.925,270.3,-2.504,4.55,-5.89,42.18,-0.096,0.496,0,0,0,269.67,0,0,0,0,0,0,0,0,0,0,0,0,0,3,3,20.98,FLYING
21.33,APPROACH,ILS_TRACK,148.89,150,1.11,2270.24,-8.14,8.85,11.51,270.3,-0.071,0.3861,-19.516,270.32,-2.79,4.39,-5.18,42.107,-0.083,0.21,0,0,0,269.67,0,0,0,0,0,0,0,0,0,0,0,0,0,3,3,21.4,FLYING
21.75,APPROACH,ILS_TRACK,148.1,150,1.9,2266.93,-8.05,9.11,11.78,270.3,-0.066,0.4154,-18.773,270.32,-2.573,4.25,-4.67,42.036,-0.085,0.427,0,0,0,269.67,0,0,0,0,0,0,0,0,0,0,0,0,0,3,3,21.82,FLYING
22.24,APPROACH,ILS_TRACK,147.26,150,2.74,2263.07,-7.95,9.36,12.03,270.31,-0.065,0.4503,-17.487,270.32,-2.58,4.08,-4.16,41.952,-0.08,0.42,0,0,0,269.67,0,0,0,0,0,0,0,0,0,0,0,0,0,3,3,22.31,FLYING
22.66,APPROACH,ILS_TRACK,146.63,150,3.37,2259.76,-7.87,9.4,12.07,270.31,-0.061,0.4698,-16.114,270.32,-2.661,3.95,-3.75,41.881,-0.077,0.339,0,0,0,269.67,0,0,0,0,0,0,0,0,0,0,0,0,0,3,3,22.73,FLYING
23.08,APPROACH,ILS_TRACK,146.11,150,3.89,2256.45,-7.82,9.4,12.06,270.31,-0.054,0.4812,-14.513,270.33,-2.757,3.8,-3.35,41.81,-0.066,0.243,0,0,0,269.67,0,0,0,0,0,0,0,0,0,0,0,0,0,3,3,23.15,FLYING
23.57,APPROACH,ILS_TRACK,145.62,150,4.38,2252.61,-7.74,9.35,12.02,270.31,-0.065,0.4904,-12.397,270.34,-2.904,3.64,-2.88,41.728,-0.064,0.096,0,0,0,269.67,0,0,0,0,0,0,0,0,0,0,0,0,0,3,3,23.64,FLYING
23.99,APPROACH,ILS_TRACK,145.32,150,4.68,2249.26,-7.89,9.07,11.74,270.31,-0.099,0.4838,-10.447,270.34,-2.892,3.51,-2.54,41.657,-0.058,0.108,0,0,0,269.67,0,0,0,0,0,0,0,0,0,0,0,0,0,3,3,24.06,FLYING
24.41,APPROACH,ILS_TRACK,145.12,150,4.88,2245.96,-7.77,9.16,11.87,270.32,-0.118,0.4685,-8.409,270.34,-3.119,3.38,-2.14,41.587,-0.061,-0.119,0,0,0,269.67,0,0,0,0,0,0,0,0,0,0,0,0,0,3,3,24.48,FLYING
24.9,APPROACH,ILS_TRACK,145,150,5,2241.89,-8,8.3,11.04,270.33,-0.174,0.4551,-5.959,270.35,-2.892,3.22,-1.86,41.505,-0.047,0.108,0,0,0,269.67,0,0,0,0,0,0,0,0,0,0,0,0,0,3,3,24.97,FLYING
25.32,APPROACH,ILS_TRACK,145.03,150,4.97,2238.52,-8.46,8.65,11.46,270.34,-0.147,0.4208,-3.869,270.36,-2.961,3.09,-1.63,41.435,-0.044,0.039,0,0,0,269.67,0,0,0,0,0,0,0,0,0,0,0,0,0,3,3,25.39,FLYING
25.74,APPROACH,ILS_TRACK,145.08,150,4.92,2235.1,-8.2,8.98,11.82,270.34,-0.14,0.3937,-1.799,270.35,-3.243,2.97,-1.29,41.365,-0.051,-0.243,0,0,0,269.67,0,0,0,0,0,0,0,0,0,0,0,0,0,3,3,25.81,FLYING
26.23,APPROACH,ILS_TRACK,145.17,150,4.83,2230.84,-8.39,8.13,11,270.34,-0.172,0.3781,0.582,270.36,-2.794,2.83,-1.2,41.283,-0.041,0.206,0,0,0,269.67,0,0,0,0,0,0,0,0,0,0,0,0,0,3,3,26.3,FLYING
26.65,APPROACH,ILS_TRACK,145.34,150,4.66,2227.3,-8.85,8.47,11.4,270.35,-0.15,0.3474,2.552,270.36,-2.798,2.71,-1.13,41.213,-0.04,0.202,0,0,0,269.67,0,0,0,0,0,0,0,0,0,0,0,0,0,3,3,26.72,FLYING
27.07,APPROACH,ILS_TRACK,145.49,150,4.51,2223.74,-8.61,8.84,11.79,270.35,-0.143,0.3276,4.456,270.36,-3.06,2.61,-0.95,41.143,-0.04,-0.06,0,0,0,269.67,0,0,0,0,0,0,0,0,0,0,0,0,0,3,3,27.14,FLYING
27.56,APPROACH,ILS_TRACK,145.64,150,4.36,2219.47,-8.82,8.8,11.74,270.35,-0.123,0.3203,6.602,270.36,-2.764,2.48,-0.92,41.061,-0.036,0.236,0,0,0,269.67,0,0,0,0,0,0,0,0,0,0,0,0,0,3,3,27.63,FLYING
27.98,APPROACH,ILS_TRACK,145.76,150,4.24,2215.86,-8.58,8.95,11.89,270.35,-0.118,0.3161,8.389,270.37,-2.942,2.38,-0.82,40.99,-0.034,0.058,0,0,0,269.67,0,0,0,0,0,0,0,0,0,0,0,0,0,3,3,28.05,FLYING
28.4,APPROACH,ILS_TRACK,145.87,150,4.13,2212.21,-8.72,8.89,11.82,270.35,-0.098,0.3185,10.131,270.37,-2.795,2.28,-0.8,40.92,-0.032,0.205,0,0,0,269.67,0,0,0,0,0,0,0,0,0,0,0,0,0,3,3,28.47,FLYING
28.89,APPROACH,ILS_TRACK,145.99,150,4.01,2207.99,-8.54,8.89,11.81,270.35,-0.095,0.326,12.104,270.37,-2.952,2.17,-0.7,40.838,-0.028,0.048,0,0,0,269.67,0,0,0,0,0,0,0,0,0,0,0,0,0,3,3,28.96,FLYING
29.31,APPROACH,ILS_TRACK,146.09,150,3.91,2204.37,-8.58,8.84,11.75,270.35,-0.083,0.3332,13.754,270.37,-2.915,2.08,-0.65,40.767,-0.031,0.085,0,0,0,269.67,0,0,0,0,0,0,0,0,0,0,0,0,0,3,3,29.38,FLYING
29.73,APPROACH,ILS_TRACK,146.19,150,3.81,2200.75,-8.52,8.78,11.69,270.35,-0.076,0.341,15.362,270.38,-3.01,1.98,-0.55,40.697,-0.019,-0.01,0,0,0,269.67,0,0,0,0,0,0,0,0,0,0,0,0,0,3,3,29.8,FLYING
30.22,APPROACH,ILS_TRACK,146.32,150,3.68,2196.54,-8.54,8.72,11.62,270.35,-0.083,0.3501,17.174,270.37,-3.024,1.88,-0.46,40.614,-0.025,-0.024,0,0,0,269.67,0,0,0,0,0,0,0,0,0,0,0,0,0,3,3,30.29,FLYING
30.64,APPROACH,ILS_TRACK,146.44,150,3.56,2192.93,-8.52,8.66,11.56,270.35,-0.089,0.3558,18.676,270.38,-3.064,1.79,-0.36,40.544,-0.019,-0.064,0,0,0,269.67,0,0,0,0,0,0,0,0,0,0,0,0,0,3,3,30.71,FLYING
31.06,APPROACH,ILS_TRACK,146.58,150,3.42,2189.31,-8.55,8.59,11.5,270.36,-0.1,0.3584,20,270.38,-3.078,1.7,-0.28,40.473,-0.016,-0.078,0,0,0,269.67,0,0,0,0,0,0,0,0,0,0,0,0,0,3,3,31.13,FLYING
31.55,APPROACH,ILS_TRACK,146.76,150,3.24,2185.08,-8.55,8.5,11.41,270.36,-0.113,0.3429,20,270.39,-3.118,1.61,-0.17,40.39,-0.014,-0.118,0,0,0,269.67,0,0,0,0,0,0,0,0,0,0,0,0,0,3,3,31.62,FLYING
31.97,APPROACH,ILS_TRACK,146.92,150,3.08,2181.45,-8.65,8.47,11.39,270.37,-0.126,0.327,20,270.39,-3.099,1.52,-0.11,40.32,-0.011,-0.099,0,0,0,269.67,0,0,0,0,0,0,0,0,0,0,0,0,0,3,3,32.04,FLYING
32.39,APPROACH,ILS_TRACK,147.1,150,2.9,2177.8,-8.61,8.41,11.34,270.37,-0.127,0.3109,20,270.39,-3.144,1.44,-0.03,40.249,-0.011,-0.144,0,0,0,269.67,0,0,0,0,0,0,0,0,0,0,0,0,0,3,3,32.46,FLYING
32.88,APPROACH,ILS_TRACK,147.3,150,2.7,2173.54,-8.73,8.38,11.31,270.37,-0.132,0.295,20,270.39,-3.118,1.36,0.04,40.166,-0.011,-0.118,0,0,0,269.67,0,0,0,0,0,0,0,0,0,0,0,0,0,3,3,32.95,FLYING
33.3,APPROACH,ILS_TRACK,147.46,150,2.54,2169.87,-8.68,8.35,11.29,270.38,-0.13,0.2839,20,270.39,-3.152,1.28,0.1,40.095,-0.007,-0.152,0,0,0,269.67,0,0,0,0,0,0,0,0,0,0,0,0,0,3,3,33.37,FLYING
33.72,APPROACH,ILS_TRACK,147.6,150,2.4,2166.19,-8.8,8.37,11.32,270.38,-0.132,0.2766,20,270.39,-3.109,1.21,0.14,40.024,-0.007,-0.109,0,0,0,269.67,0,0,0,0,0,0,0,0,0,0,0,0,0,3,3,33.79,FLYING
34.21,APPROACH,ILS_TRACK,147.73,150,2.27,2161.89,-8.73,8.34,11.3,270.38,-0.124,0.2731,20,270.39,-3.161,1.14,0.2,39.941,-0.006,-0.161,0,0,0,269.67,0,0,0,0,0,0,0,0,0,0,0,0,0,3,3,34.28,FLYING
34.63,APPROACH,ILS_TRACK,147.81,150,2.19,2158.19,-8.86,8.36,11.33,270.38,-0.122,0.2747,20,270.39,-3.089,1.08,0.21,39.87,-0.009,-0.089,0,0,0,269.67,0,0,0,0,0,0,0,0,0,0,0,0,0,3,3,34.7,FLYING
35.05,APPROACH,ILS_TRACK,147.87,150,2.13,2154.49,-8.75,8.35,11.32,270.38,-0.106,0.2798,20,270.39,-3.172,1.03,0.26,39.799,-0.012,-0.172,0,0,0,269.67,0,0,0,0,0,0,0,0,0,0,0,0,0,3,3,35.12,FLYING
35.54,APPROACH,ILS_TRACK,147.91,150,2.09,2150.16,-8.89,8.37,11.35,270.38,-0.099,0.2866,20,270.4,-3.071,0.96,0.26,39.716,-0.003,-0.071,0,0,0,269.67,0,0,0,0,0,0,0,0,0,0,0,0,0,3,3,35.61,FLYING
35.96,APPROACH,ILS_TRACK,147.92,150,2.08,2146.44,-8.78,8.37,11.35,270.38,-0.088,0.2953,20,270.39,-3.165,0.91,0.3,39.645,-0.005,-0.165,0,0,0,269.67,0,0,0,0,0,0,0,0,0,0,0,0,0,3,3,36.03,FLYING
36.38,APPROACH,ILS_TRACK,147.93,150,2.07,2142.72,-8.94,8.37,11.35,270.38,-0.086,0.3035,20,270.4,-3.046,0.86,0.28,39.574,-0.005,-0.046,0,0,0,269.67,0,0,0,0,0,0,0,0,0,0,0,0,0,3,3,36.45,FLYING
36.87,APPROACH,ILS_TRACK,147.93,150,2.07,2138.38,-8.8,8.39,11.38,270.38,-0.071,0.3111,20,270.4,-3.147,0.8,0.31,39.491,-0.003,-0.147,0,0,0,269.67,0,0,0,0,0,0,0,0,0,0,0,0,0,3,3,36.94,FLYING
37.29,APPROACH,ILS_TRACK,147.94,150,2.06,2134.66,-8.91,8.39,11.38,270.38,-0.069,0.3165,20,270.4,-3.049,0.75,0.29,39.42,0,-0.049,0,0,0,269.67,0,0,0,0,0,0,0,0,0,0,0,0,0,3,3,37.36,FLYING
37.71,APPROACH,ILS_TRACK,147.95,150,2.05,2130.93,-8.8,8.38,11.37,270.38,-0.068,0.3203,20,270.39,-3.134,0.71,0.31,39.349,-0.006,-0.134,0,0,0,269.67,0,0,0,0,0,0,0,0,0,0,0,0,0,3,3,37.78,FLYING
38.2,APPROACH,ILS_TRACK,147.97,150,2.03,2126.58,-8.88,8.35,11.33,270.38,-0.066,0.3216,20,270.4,-3.068,0.67,0.3,39.266,-0.003,-0.068,0,0,0,269.67,0,0,0,0,0,0,0,0,0,0,0,0,0,3,3,38.27,FLYING
38.62,APPROACH,ILS_TRACK,148,150,2,2122.86,-8.83,8.36,11.34,270.39,-0.061,0.3211,20,270.4,-3.109,0.62,0.31,39.195,0.004,-0.109,0,0,0,269.67,0,0,0,0,0,0,0,0,0,0,0,0,0,3,3,38.69,FLYING
39.04,APPROACH,ILS_TRACK,148.04,150,1.96,2119.14,-8.89,8.36,11.34,270.39,-0.063,0.3192,20,270.4,-3.081,0.58,0.3,39.124,-0.002,-0.081,0,0,0,269.67,0,0,0,0,0,0,0,0,0,0,0,0,0,3,3,39.11,FLYING
39.53,APPROACH,ILS_TRACK,148.08,150,1.92,2114.79,-8.82,8.34,11.32,270.39,-0.06,0.3158,20,270.4,-3.102,0.54,0.31,39.041,0.001,-0.102,0,0,0,269.67,0,0,0,0,0,0,0,0,0,0,0,0,0,3,3,39.6,FLYING
39.95,APPROACH,ILS_TRACK,148.13,150,1.87,2111.07,-8.85,8.33,11.31,270.39,-0.06,0.3116,20,270.4,-3.091,0.5,0.31,38.97,0.004,-0.091,0,0,0,269.67,0,0,0,0,0,0,0,0,0,0,0,0,0,3,3,40.02,FLYING
40.37,APPROACH,ILS_TRACK,148.19,150,1.81,2107.35,-8.82,8.3,11.28,270.39,-0.059,0.3067,20,270.4,-3.107,0.47,0.31,38.899,-0.001,-0.107,0,0,0,269.67,0,0,0,0,0,0,0,0,0,0,0,0,0,3,3,40.44,FLYING
40.86,APPROACH,ILS_TRACK,148.26,150,1.74,2103.01,-8.85,8.29,11.27,270.39,-0.06,0.3011,20,270.4,-3.102,0.43,0.32,38.816,0.005,-0.102,0,0,0,269.67,0,0,0,0,0,0,0,0,0,0,0,0,0,3,3,40.93,FLYING
41.28,APPROACH,ILS_TRACK,148.32,150,1.68,2099.29,-8.84,8.28,11.25,270.39,-0.059,0.2962,20,270.4,-3.111,0.4,0.33,38.745,0.002,-0.111,0,0,0,269.67,0,0,0,0,0,0,0,0,0,0,0,0,0,3,3,41.35,FLYING
41.7,APPROACH,ILS_TRACK,148.38,150,1.62,2095.57,-8.85,8.27,11.24,270.39,-0.057,0.2921,20,270.4,-3.111,0.36,0.33,38.673,0.005,-0.111,0,0,0,269.67,0,0,0,0,0,0,0,0,0,0,0,0,0,3,3,41.77,FLYING
42.19,APPROACH,ILS_TRACK,148.44,150,1.56,2091.23,-8.85,8.25,11.23,270.39,-0.058,0.2886,20,270.41,-3.116,0.33,0.34,38.59,0.006,-0.116,0,0,0,269.67,0,0,0,0,0,0,0,0,0,0,0,0,0,3,3,42.26,FLYING
42.61,APPROACH,ILS_TRACK,148.48,150,1.52,2087.51,-8.86,8.25,11.23,270.39,-0.059,0.2871,20,270.41,-3.116,0.3,0.35,38.519,0.006,-0.116,0,0,0,269.67,0,0,0,0,0,0,0,0,0,0,0,0,0,3,3,42.68,FLYING
43.03,APPROACH,ILS_TRACK,148.52,150,1.48,2083.78,-8.86,8.24,11.22,270.39,-0.06,0.2867,20,270.41,-3.119,0.27,0.35,38.448,0.006,-0.119,0,0,0,269.67,0,0,0,0,0,0,0,0,0,0,0,0,0,3,3,43.1,FLYING
43.52,APPROACH,ILS_TRACK,148.55,150,1.45,2079.44,-8.86,8.24,11.22,270.4,-0.06,0.2874,20,270.4,-3.119,0.24,0.36,38.365,0.005,-0.119,0,0,0,269.67,0,0,0,0,0,0,0,0,0,0,0,0,0,3,3,43.59,FLYING
43.94,APPROACH,ILS_TRACK,148.56,150,1.44,2075.72,-8.86,8.24,11.22,270.4,-0.058,0.2893,20,270.41,-3.119,0.21,0.36,38.294,0.007,-0.119,0,0,0,269.67,0,0,0,0,0,0,0,0,0,0,0,0,0,3,3,44.01,FLYING
44.36,APPROACH,ILS_TRACK,148.58,150,1.42,2071.99,-8.87,8.24,11.22,270.4,-0.058,0.2916,20,270.41,-3.118,0.19,0.37,38.223,0.01,-0.118,0,0,0,269.67,0,0,0,0,0,0,0,0,0,0,0,0,0,3,3,44.43,FLYING
44.85,APPROACH,ILS_TRACK,148.59,150,1.41,2067.65,-8.87,8.24,11.22,270.4,-0.057,0.2941,20,270.41,-3.118,0.16,0.37,38.14,0.006,-0.118,0,0,0,269.67,0,0,0,0,0,0,0,0,0,0,0,0,0,3,3,44.92,FLYING
45.27,APPROACH,ILS_TRACK,148.59,150,1.41,2063.93,-8.87,8.24,11.22,270.4,-0.057,0.2965,20,270.41,-3.117,0.14,0.37,38.069,0.008,-0.117,0,0,0,269.67,0,0,0,0,0,0,0,0,0,0,0,0,0,3,3,45.34,FLYING
45.69,APPROACH,ILS_TRACK,148.6,150,1.4,2060.2,-8.87,8.24,11.22,270.4,-0.057,0.2984,20,270.41,-3.116,0.12,0.38,37.998,0.009,-0.116,0,0,0,269.67,0,0,0,0,0,0,0,0,0,0,0,0,0,3,3,45.76,FLYING
46.18,APPROACH,ILS_TRACK,148.6,150,1.4,2055.86,-8.86,8.24,11.22,270.4,-0.052,0.2996,20,270.4,-3.115,0.1,0.38,37.915,0.002,-0.115,0,0,0,269.67,0,0,0,0,0,0,0,0,0,0,0,0,0,3,3,46.25,FLYING
46.6,APPROACH,ILS_TRACK,148.61,150,1.39,2052.13,-8.86,8.23,11.22,270.4,-0.046,0.3004,20,270.41,-3.114,0.08,0.38,37.844,0.013,-0.114,0,0,0,269.67,0,0,0,0,0,0,0,0,0,0,0,0,0,3,3,46.67,FLYING
47.02,APPROACH,ILS_TRACK,148.62,150,1.38,2048.41,-8.86,8.23,11.21,270.4,-0.047,0.3005,20,270.4,-3.114,0.06,0.38,37.773,0.004,-0.114,0,0,0,269.67,0,0,0,0,0,0,0,0,0,0,0,0,0,3,3,47.09,FLYING
47.51,APPROACH,ILS_TRACK,148.64,150,1.36,2044.06,-8.86,8.23,11.21,270.4,-0.047,0.3,20,270.41,-3.114,0.05,0.38,37.69,0.007,-0.114,0,0,0,269.67,0,0,0,0,0,0,0,0,0,0,0,0,0,3,3,47.58,FLYING
47.93,APPROACH,ILS_TRACK,148.65,150,1.35,2040.34,-8.86,8.22,11.2,270.4,-0.045,0.2992,20,270.41,-3.114,0.03,0.38,37.619,0.007,-0.114,0,0,0,269.67,0,0,0,0,0,0,0,0,0,0,0,0,0,3,3,48,FLYING
48.35,APPROACH,ILS_TRACK,148.67,150,1.33,2036.62,-8.86,8.22,11.2,270.4,-0.043,0.298,20,270.41,-3.114,0.02,0.38,37.548,0.01,-0.114,0,0,0,269.67,0,0,0,0,0,0,0,0,0,0,0,0,0,3,3,48.42,FLYING
48.84,APPROACH,ILS_TRACK,148.69,150,1.31,2032.28,-8.86,8.21,11.19,270.4,-0.042,0.2964,20,270.41,-3.114,0,0.38,37.465,0.007,-0.114,0,0,0,269.67,0,0,0,0,0,0,0,0,0,0,0,0,0,3,3,48.91,FLYING
49.26,APPROACH,ILS_TRACK,148.71,150,1.29,2028.56,-8.86,8.2,11.19,270.4,-0.041,0.2949,20,270.41,-3.115,-0.01,0.38,37.394,0.006,-0.115,0,0,0,269.67,0,0,0,0,0,0,0,0,0,0,0,0,0,3,3,49.33,FLYING
49.68,APPROACH,ILS_TRACK,148.73,150,1.27,2024.83,-8.86,8.2,11.18,270.4,-0.04,0.2935,20,270.41,-3.114,-0.02,0.38,37.323,0.007,-0.114,0,0,0,269.67,0,0,0,0,0,0,0,0,0,0,0,0,0,3,3,49.75,FLYING
50.17,APPROACH,ILS_TRACK,148.75,150,1.25,2020.49,-8.85,8.2,11.18,270.4,-0.04,0.292,20,270.41,-3.116,-0.03,0.38,37.24,0.01,-0.116,0,0,0,269.67,0,0,0,0,0,0,0,0,0,0,0,0,0,3,3,50.24,FLYING
50.59,APPROACH,ILS_TRACK,148.77,150,1.23,2016.77,-8.85,8.19,11.17,270.4,-0.039,0.2911,20,270.41,-3.115,-0.05,0.38,37.169,0.009,-0.115,0,0,0,269.67,0,0,0,0,0,0,0,0,0,0,0,0,0,3,3,50.66,FLYING
51.01,APPROACH,ILS_TRACK,148.79,150,1.21,2013.05,-8.85,8.19,11.17,270.4,-0.038,0.2905,20,270.41,-3.116,-0.06,0.38,37.098,0.008,-0.116,0,0,0,269.67,0,0,0,0,0,0,0,0,0,0,0,0,0,3,3,51.08,FLYING
51.5,APPROACH,ILS_TRACK,148.8,150,1.2,2008.71,-8.85,8.19,11.17,270.4,-0.035,0.2902,20,270.41,-3.116,-0.07,0.38,37.015,0.011,-0.116,0,0,0,269.67,0,0,0,0,0,0,0,0,0,0,0,0,0,3,3,51.57,FLYING
51.92,APPROACH,ILS_TRACK,148.81,150,1.19,2004.99,-8.85,8.18,11.17,270.4,-0.035,0.2903,20,270.4,-3.116,-0.07,0.38,36.944,0.004,-0.116,0,0,0,269.67,0,0,0,0,0,0,0,0,0,0,0,0,0,3,3,51.99,FLYING
52.34,APPROACH,ILS_TRACK,148.82,150,1.18,2001.28,-8.85,8.18,11.17,270.4,-0.029,0.2907,20,270.41,-3.116,-0.08,0.38,36.873,0.008,-0.116,0,0,0,269.67,0,0,0,0,0,0,0,0,0,0,0,0,0,3,3,52.41,FLYING
52.83,APPROACH,ILS_TRACK,148.83,150,1.17,1996.94,-8.85,8.18,11.17,270.4,-0.027,0.2912,20,270.41,-3.116,-0.09,0.38,36.79,0.009,-0.116,0,0,0,269.67,0,0,0,0,0,0,0,0,0,0,0,0,0,3,3,52.9,FLYING
53.25,APPROACH,ILS_TRACK,148.83,150,1.17,1993.22,-8.85,8.18,11.16,270.4,-0.024,0.2919,20,270.41,-3.115,-0.1,0.38,36.719,0.007,-0.115,0,0,0,269.67,0,0,0,0,0,0,0,0,0,0,0,0,0,3,3,53.32,FLYING
53.67,APPROACH,ILS_TRACK,148.84,150,1.16,1989.5,-8.85,8.18,11.16,270.4,-0.023,0.2925,20,270.41,-3.115,-0.11,0.38,36.649,0.008,-0.115,0,0,0,269.67,0,0,0,0,0,0,0,0,0,0,0,0,0,3,3,53.74,FLYING
54.16,APPROACH,ILS_TRACK,148.84,150,1.16,1985.17,-8.84,8.18,11.16,270.4,-0.024,0.293,20,270.41,-3.115,-0.12,0.38,36.566,0.011,-0.115,0,0,0,269.67,0,0,0,0,0,0,0,0,0,0,0,0,0,3,3,54.23,FLYING
54.58,APPROACH,ILS_TRACK,148.85,150,1.15,1981.45,-8.84,8.18,11.16,270.4,-0.023,0.2933,20,270.41,-3.115,-0.12,0.38,36.495,0.01,-0.115,0,0,0,269.67,0,0,0,0,0,0,0,0,0,0,0,0,0,3,3,54.65,FLYING
55,APPROACH,ILS_TRACK,148.85,150,1.15,1977.74,-8.84,8.17,11.16,270.4,-0.021,0.2934,20,270.41,-3.115,-0.13,0.38,36.424,0.005,-0.115,0,0,0,269.67,0,0,0,0,0,0,0,0,0,0,0,0,0,3,3,55.07,FLYING
55.49,APPROACH,ILS_TRACK,148.86,150,1.14,1973.4,-8.84,8.17,11.15,270.4,-0.022,0.2933,20,270.41,-3.115,-0.13,0.38,36.341,0.01,-0.115,0,0,0,269.67,0,0,0,0,0,0,0,0,0,0,0,0,0,3,3,55.56,FLYING
55.91,APPROACH,ILS_TRACK,148.86,150,1.14,1969.69,-8.84,8.17,11.15,270.4,-0.022,0.2931,20,270.41,-3.114,-0.14,0.38,36.27,0.009,-0.114,0,0,0,269.67,0,0,0,0,0,0,0,0,0,0,0,0,0,3,3,55.98,FLYING
56.33,APPROACH,ILS_TRACK,148.87,150,1.13,1965.97,-8.84,8.17,11.15,270.4,-0.022,0.2927,20,270.41,-3.115,-0.15,0.38,36.2,0.009,-0.115,0,0,0,269.67,0,0,0,0,0,0,0,0,0,0,0,0,0,3,3,56.4,FLYING
56.82,APPROACH,ILS_TRACK,148.88,150,1.12,1961.64,-8.83,8.16,11.15,270.4,-0.021,0.2922,20,270.41,-3.115,-0.15,0.38,36.117,0.009,-0.115,0,0,0,269.67,0,0,0,0,0,0,0,0,0,0,0,0,0,3,3,56.89,FLYING
57.24,APPROACH,ILS_TRACK,148.88,150,1.12,1957.93,-8.83,8.16,11.14,270.4,-0.022,0.2918,20,270.41,-3.115,-0.16,0.38,36.046,0.011,-0.115,0,0,0,269.67,0,0,0,0,0,0,0,0,0,0,0,0,0,3,3,57.31,FLYING
57.66,APPROACH,ILS_TRACK,148.89,150,1.11,1954.22,-8.83,8.16,11.14,270.4,-0.023,0.2914,20,270.41,-3.115,-0.16,0.38,35.975,0.008,-0.115,0,0,0,269.67,0,0,0,0,0,0,0,0,0,0,0,0,0,3,3,57.73,FLYING
58.15,APPROACH,ILS_TRACK,148.9,150,1.1,1949.89,-8.83,8.16,11.14,270.4,-0.021,0.2909,20,270.41,-3.116,-0.17,0.38,35.893,0.012,-0.116,0,0,0,269.67,0,0,0,0,0,0,0,0,0,0,0,0,0,3,3,58.22,FLYING
58.57,APPROACH,ILS_TRACK,148.91,150,1.09,1946.18,-8.83,8.15,11.14,270.4,-0.021,0.2906,20,270.41,-3.115,-0.18,0.38,35.822,0.012,-0.115,0,0,0,269.67,0,0,0,0,0,0,0,0,0,0,0,0,0,3,3,58.64,FLYING
58.99,APPROACH,ILS_TRACK,148.91,150,1.09,1942.47,-8.83,8.15,11.14,270.4,-0.021,0.2903,20,270.41,-3.116,-0.18,0.38,35.751,0.01,-0.116,0,0,0,269.67,0,0,0,0,0,0,0,0,0,0,0,0,0,3,3,59.06,FLYING
59.48,APPROACH,ILS_TRACK,148.92,150,1.08,1938.15,-8.83,8.15,11.13,270.4,-0.021,0.2902,20,270.41,-3.115,-0.19,0.38,35.669,0.009,-0.115,0,0,0,269.67,0,0,0,0,0,0,0,0,0,0,0,0,0,3,3,59.55,FLYING
59.9,APPROACH,ILS_TRACK,148.92,150,1.08,1934.44,-8.83,8.15,11.13,270.4,-0.022,0.2901,20,270.41,-3.116,-0.19,0.38,35.598,0.011,-0.116,0,0,0,269.67,0,0,0,0,0,0,0,0,0,0,0,0,0,3,3,59.97,FLYING
60.32,APPROACH,ILS_TRACK,148.93,150,1.07,1930.73,-8.82,8.15,11.13,270.4,-0.024,0.2902,20,270.41,-3.115,-0.2,0.38,35.527,0.013,-0.115,0,0,0,269.67,0,0,0,0,0,0,0,0,0,0,0,0,0,3,3,60.39,FLYING
60.81,APPROACH,ILS_TRACK,148.93,150,1.07,1926.41,-8.82,8.15,11.13,270.4,-0.024,0.2903,20,270.41,-3.116,-0.21,0.38,35.444,0.01,-0.116,0,0,0,269.67,0,0,0,0,0,0,0,0,0,0,0,0,0,3,3,60.88,FLYING
61.23,APPROACH,ILS_TRACK,148.94,150,1.06,1922.7,-8.82,8.14,11.13,270.41,-0.024,0.2904,20,270.41,-3.116,-0.21,0.38,35.374,0.013,-0.116,0,0,0,269.67,0,0,0,0,0,0,0,0,0,0,0,0,0,3,3,61.3,FLYING
61.65,APPROACH,ILS_TRACK,148.94,150,1.06,1918.99,-8.82,8.14,11.13,270.41,-0.025,0.2905,20,270.41,-3.115,-0.22,0.38,35.303,0.012,-0.115,0,0,0,269.67,0,0,0,0,0,0,0,0,0,0,0,0,0,3,3,61.72,FLYING
62.14,APPROACH,ILS_TRACK,148.94,150,1.06,1914.67,-8.82,8.14,11.13,270.41,-0.027,0.2906,20,270.41,-3.116,-0.22,0.38,35.221,0.012,-0.116,0,0,0,269.67,0,0,0,0,0,0,0,0,0,0,0,0,0,3,3,62.21,FLYING
62.56,APPROACH,ILS_TRACK,148.94,150,1.06,1910.97,-8.82,8.14,11.12,270.41,-0.024,0.2906,20,270.41,-3.115,-0.23,0.38,35.15,0.011,-0.115,0,0,0,269.67,0,0,0,0,0,0,0,0,0,0,0,0,0,3,3,62.63,FLYING
62.98,APPROACH,ILS_TRACK,148.95,150,1.05,1907.26,-8.81,8.14,11.12,270.41,-0.025,0.2906,20,270.41,-3.115,-0.23,0.38,35.079,0.011,-0.115,0,0,0,269.67,0,0,0,0,0,0,0,0,0,0,0,0,0,3,3,63.05,FLYING
63.47,APPROACH,ILS_TRACK,148.95,150,1.05,1902.95,-8.81,8.14,11.12,270.41,-0.023,0.2905,20,270.41,-3.115,-0.24,0.38,34.997,0.013,-0.115,0,0,0,269.67,0,0,0,0,0,0,0,0,0,0,0,0,0,3,3,63.54,FLYING
63.89,APPROACH,ILS_TRACK,148.95,150,1.05,1899.24,-8.81,8.14,11.12,270.41,-0.022,0.2904,20,270.41,-3.115,-0.24,0.38,34.926,0.011,-0.115,0,0,0,269.67,0,0,0,0,0,0,0,0,0,0,0,0,0,3,3,63.96,FLYING
64.31,APPROACH,ILS_TRACK,148.96,150,1.04,1895.54,-8.81,8.13,11.12,270.41,-0.023,0.2902,20,270.42,-3.116,-0.25,0.38,34.856,0.015,-0.116,0,0,0,269.67,0,0,0,0,0,0,0,0,0,0,0,0,0,3,3,64.38,FLYING
64.8,APPROACH,ILS_TRACK,148.96,150,1.04,1891.23,-8.81,8.13,11.12,270.41,-0.023,0.29,20,270.41,-3.115,-0.25,0.38,34.773,0.011,-0.115,0,0,0,269.67,0,0,0,0,0,0,0,0,0,0,0,0,0,3,3,64.87,FLYING
65.22,APPROACH,ILS_TRACK,148.96,150,1.04,1887.53,-8.81,8.13,11.11,270.41,-0.024,0.2899,20,270.41,-3.115,-0.25,0.38,34.703,0.009,-0.115,0,0,0,269.67,0,0,0,0,0,0,0,0,0,0,0,0,0,3,3,65.29,FLYING
65.64,APPROACH,ILS_TRACK,148.97,150,1.03,1883.83,-8.8,8.13,11.11,270.41,-0.025,0.2897,20,270.41,-3.115,-0.25,0.38,34.632,0.014,-0.115,0,0,0,269.67,0,0,0,0,0,0,0,0,0,0,0,0,0,3,3,65.71,FLYING
66.13,APPROACH,ILS_TRACK,148.97,150,1.03,1879.51,-8.8,8.13,11.11,270.41,-0.024,0.2895,20,270.41,-3.116,-0.25,0.38,34.55,0.01,-0.116,0,0,0,269.67,0,0,0,0,0,0,0,0,0,0,0,0,0,3,3,66.2,FLYING
66.55,APPROACH,ILS_TRACK,148.97,150,1.03,1875.81,-8.8,8.13,11.11,270.41,-0.022,0.2894,20,270.41,-3.115,-0.26,0.38,34.479,0.012,-0.115,0,0,0,269.67,0,0,0,0,0,0,0,0,0,0,0,0,0,3,3,66.62,FLYING
66.97,APPROACH,ILS_TRACK,148.98,150,1.02,1872.12,-8.8,8.12,11.11,270.41,-0.023,0.2893,20,270.41,-3.116,-0.26,0.38,34.409,0.012,-0.116,0,0,0,269.67,0,0,0,0,0,0,0,0,0,0,0,0,0,3,3,67.04,FLYING
67.46,APPROACH,ILS_TRACK,148.98,150,1.02,1867.81,-8.8,8.12,11.11,270.41,-0.023,0.2892,20,270.41,-3.116,-0.26,0.39,34.326,0.013,-0.116,0,0,0,269.67,0,0,0,0,0,0,0,0,0,0,0,0,0,3,3,67.53,FLYING
67.88,APPROACH,ILS_TRACK,148.98,150,1.02,1864.11,-8.8,8.12,11.11,270.41,-0.022,0.2892,20,270.41,-3.115,-0.27,0.38,34.256,0.013,-0.115,0,0,0,269.67,0,0,0,0,0,0,0,0,0,0,0,0,0,3,3,67.95,FLYING
68.3,APPROACH,ILS_TRACK,148.98,150,1.02,1860.42,-8.79,8.12,11.1,270.41,-0.023,0.2892,20,270.41,-3.116,-0.27,0.39,34.185,0.013,-0.116,0,0,0,269.67,0,0,0,0,0,0,0,0,0,0,0,0,0,3,3,68.37,FLYING
68.79,APPROACH,ILS_TRACK,148.99,150,1.01,1856.11,-8.79,8.12,11.1,270.41,-0.022,0.2891,20,270.41,-3.116,-0.27,0.39,34.103,0.011,-0.116,0,0,0,269.67,0,0,0,0,0,0,0,0,0,0,0,0,0,3,3,68.86,FLYING
69.21,APPROACH,ILS_TRACK,148.99,150,1.01,1852.41,-8.79,8.12,11.1,270.41,-0.022,0.2891,20,270.41,-3.116,-0.27,0.39,34.032,0.012,-0.116,0,0,0,269.67,0,0,0,0,0,0,0,0,0,0,0,0,0,3,3,69.28,FLYING
69.63,APPROACH,ILS_TRACK,148.99,150,1.01,1848.72,-8.79,8.12,11.1,270.41,-0.02,0.2891,20,270.41,-3.116,-0.27,0.39,33.962,0.01,-0.116,0,0,0,269.67,0,0,0,0,0,0,0,0,0,0,0,0,0,3,3,69.7,FLYING
70.12,APPROACH,ILS_TRACK,148.99,150,1.01,1844.41,-8.79,8.11,11.1,270.41,-0.02,0.2891,20,270.41,-3.116,-0.28,0.39,33.88,0.014,-0.116,0,0,0,269.67,0,0,0,0,0,0,0,0,0,0,0,0,0,3,3,70.19,FLYING
70.54,APPROACH,ILS_TRACK,148.99,150,1.01,1840.72,-8.79,8.11,11.1,270.41,-0.02,0.289,20,270.41,-3.115,-0.28,0.39,33.809,0.013,-0.115,0,0,0,269.67,0,0,0,0,0,0,0,0,0,0,0,0,0,3,3,70.61,FLYING
70.96,APPROACH,ILS_TRACK,149,150,1,1837.03,-8.78,8.11,11.1,270.41,-0.022,0.289,20,270.41,-3.116,-0.28,0.39,33.739,0.012,-0.116,0,0,0,269.67,0,0,0,0,0,0,0,0,0,0,0,0,0,3,3,71.03,FLYING
71.45,APPROACH,ILS_TRACK,149,150,1,1832.73,-8.78,8.11,11.09,270.41,-0.021,0.2889,20,270.41,-3.116,-0.28,0.39,33.657,0.011,-0.116,0,0,0,269.67,0,0,0,0,0,0,0,0,0,0,0,0,0,3,3,71.52,FLYING
71.87,APPROACH,ILS_TRACK,149,150,1,1829.04,-8.78,8.11,11.09,270.41,-0.021,0.2888,20,270.41,-3.116,-0.29,0.39,33.586,0.014,-0.116,0,0,0,269.67,0,0,0,0,0,0,0,0,0,0,0,0,0,3,3,71.94,FLYING
72.29,APPROACH,ILS_TRACK,149,150,1,1825.35,-8.78,8.11,11.09,270.41,-0.021,0.2887,20,270.41,-3.116,-0.28,0.39,33.516,0.01,-0.116,0,0,0,269.67,0,0,0,0,0,0,0,0,0,0,0,0,0,3,3,72.36,FLYING
72.78,APPROACH,ILS_TRACK,149,150,1,1821.05,-8.78,8.11,11.09,270.41,-0.021,0.2886,20,270.41,-3.116,-0.29,0.39,33.434,0.013,-0.116,0,0,0,269.67,0,0,0,0,0,0,0,0,0,0,0,0,0,3,3,72.85,FLYING
73.2,APPROACH,ILS_TRACK,149.01,150,0.99,1817.36,-8.77,8.1,11.09,270.41,-0.021,0.2885,20,270.41,-3.116,-0.28,0.39,33.364,0.01,-0.116,0,0,0,269.67,0,0,0,0,0,0,0,0,0,0,0,0,0,3,3,73.27,FLYING
73.62,APPROACH,ILS_TRACK,149.01,150,0.99,1813.68,-8.77,8.1,11.09,270.41,-0.021,0.2884,20,270.41,-3.116,-0.29,0.39,33.293,0.012,-0.116,0,0,0,269.67,0,0,0,0,0,0,0,0,0,0,0,0,0,3,3,73.69,FLYING
74.11,APPROACH,ILS_TRACK,149.01,150,0.99,1809.38,-8.77,8.1,11.09,270.41,-0.021,0.2883,20,270.41,-3.116,-0.29,0.39,33.211,0.012,-0.116,0,0,0,269.67,0,0,0,0,0,0,0,0,0,0,0,0,0,3,3,74.18,FLYING
74.53,APPROACH,ILS_TRACK,149.01,150,0.99,1805.69,-8.77,8.1,11.09,270.41,-0.022,0.2882,20,270.41,-3.116,-0.29,0.39,33.141,0.012,-0.116,0,0,0,269.67,0,0,0,0,0,0,0,0,0,0,0,0,0,3,3,74.6,FLYING
74.95,APPROACH,ILS_TRACK,149.01,150,0.99,1802.01,-8.77,8.1,11.08,270.41,-0.022,0.2881,20,270.41,-3.116,-0.29,0.39,33.071,0.011,-0.116,0,0,0,269.67,0,0,0,0,0,0,0,0,0,0,0,0,0,3,3,75.02,FLYING
75.44,APPROACH,ILS_TRACK,149.02,150,0.98,1797.71,-8.76,8.1,11.08,270.41,-0.022,0.2881,20,270.41,-3.116,-0.29,0.39,32.989,0.014,-0.116,0,0,0,269.67,0,0,0,0,0,0,0,0,0,0,0,0,0,3,3,75.51,FLYING
75.86,APPROACH,ILS_TRACK,149.02,150,0.98,1794.03,-8.76,8.1,11.08,270.41,-0.022,0.288,20,270.41,-3.116,-0.29,0.39,32.918,0.012,-0.116,0,0,0,269.67,0,0,0,0,0,0,0,0,0,0,0,0,0,3,3,75.93,FLYING
76.28,APPROACH,ILS_TRACK,149.02,150,0.98,1790.35,-8.76,8.1,11.08,270.41,-0.021,0.288,20,270.41,-3.116,-0.29,0.39,32.848,0.012,-0.116,0,0,0,269.67,0,0,0,0,0,0,0,0,0,0,0,0,0,3,3,76.35,FLYING
76.77,APPROACH,ILS_TRACK,149.02,150,0.98,1786.05,-8.76,8.09,11.08,270.41,-0.022,0.2879,20,270.41,-3.116,-0.3,0.39,32.766,0.014,-0.116,0,0,0,269.67,0,0,0,0,0,0,0,0,0,0,0,0,0,3,3,76.84,FLYING
77.19,APPROACH,ILS_TRACK,149.02,150,0.98,1782.37,-8.76,8.09,11.08,270.41,-0.022,0.2879,20,270.41,-3.116,-0.29,0.39,32.696,0.01,-0.116,0,0,0,269.67,0,0,0,0,0,0,0,0,0,0,0,0,0,3,3,77.26,FLYING
77.61,APPROACH,ILS_TRACK,149.02,150,0.98,1778.69,-8.76,8.09,11.08,270.41,-0.021,0.2878,20,270.41,-3.116,-0.29,0.39,32.626,0.011,-0.116,0,0,0,269.67,0,0,0,0,0,0,0,0,0,0,0,0,0,3,3,77.68,FLYING
78.1,APPROACH,ILS_TRACK,149.03,150,0.97,1774.4,-8.75,8.09,11.07,270.41,-0.022,0.2877,20,270.41,-3.116,-0.3,0.39,32.544,0.013,-0.116,0,0,0,269.67,0,0,0,0,0,0,0,0,0,0,0,0,0,3,3,78.17,FLYING
78.52,APPROACH,ILS_TRACK,149.03,150,0.97,1770.72,-8.75,8.09,11.07,270.41,-0.02,0.2877,20,270.41,-3.116,-0.3,0.39,32.474,0.012,-0.116,0,0,0,269.67,0,0,0,0,0,0,0,0,0,0,0,0,0,3,3,78.59,FLYING
78.94,APPROACH,ILS_TRACK,149.03,150,0.97,1767.05,-8.75,8.09,11.07,270.41,-0.019,0.2876,20,270.41,-3.116,-0.3,0.39,32.403,0.012,-0.116,0,0,0,269.67,0,0,0,0,0,0,0,0,0,0,0,0,0,3,3,79.01,FLYING
79.43,APPROACH,ILS_TRACK,149.03,150,0.97,1762.76,-8.75,8.09,11.07,270.41,-0.017,0.2875,20,270.41,-3.116,-0.29,0.39,32.322,0.009,-0.116,0,0,0,269.67,0,0,0,0,0,0,0,0,0,0,0,0,0,3,3,79.5,FLYING
79.85,APPROACH,ILS_TRACK,149.03,150,0.97,1759.08,-8.75,8.08,11.07,270.41,-0.018,0.2875,20,270.41,-3.116,-0.29,0.39,32.251,0.012,-0.116,0,0,0,269.67,0,0,0,0,0,0,0,0,0,0,0,0,0,3,3,79.92,FLYING
80.27,APPROACH,ILS_TRACK,149.03,150,0.97,1755.41,-8.75,8.08,11.07,270.41,-0.018,0.2874,20,270.41,-3.116,-0.29,0.39,32.181,0.012,-0.116,0,0,0,269.67,0,0,0,0,0,0,0,0,0,0,0,0,0,3,3,80.34,FLYING
80.76,APPROACH,ILS_TRACK,149.04,150,0.96,1751.12,-8.74,8.08,11.07,270.41,-0.02,0.2873,20,270.41,-3.116,-0.29,0.39,32.1,0.013,-0.116,0,0,0,269.67,0,0,0,0,0,0,0,0,0,0,0,0,0,3,3,80.83,FLYING
81.18,APPROACH,ILS_TRACK,149.04,150,0.96,1747.45,-8.74,8.08,11.07,270.41,-0.019,0.2872,20,270.41,-3.116,-0.29,0.39,32.029,0.011,-0.116,0,0,0,269.67,0,0,0,0,0,0,0,0,0,0,0,0,0,3,3,81.25,FLYING
81.6,APPROACH,ILS_TRACK,149.04,150,0.96,1743.78,-8.74,8.08,11.07,270.41,-0.019,0.2871,20,270.41,-3.116,-0.3,0.39,31.959,0.012,-0.116,0,0,0,269.67,0,0,0,0,0,0,0,0,0,0,0,0,0,3,3,81.67,FLYING
82.09,APPROACH,ILS_TRACK,149.04,150,0.96,1739.49,-8.74,8.08,11.06,270.41,-0.019,0.2871,20,270.41,-3.116,-0.3,0.39,31.878,0.014,-0.116,0,0,0,269.67,0,0,0,0,0,0,0,0,0,0,0,0,0,3,3,82.16,FLYING
82.51,APPROACH,ILS_TRACK,149.04,150,0.96,1735.82,-8.74,8.08,11.06,270.41,-0.018,0.287,20,270.41,-3.116,-0.29,0.39,31.808,0.008,-0.116,0,0,0,269.67,0,0,0,0,0,0,0,0,0,0,0,0,0,3,3,82.58,FLYING
82.93,APPROACH,ILS_TRACK,149.04,150,0.96,1732.15,-8.74,8.08,11.06,270.41,-0.02,0.2869,20,270.41,-3.116,-0.29,0.39,31.737,0.012,-0.116,0,0,0,269.67,0,0,0,0,0,0,0,0,0,0,0,0,0,3,3,83,FLYING
83.42,APPROACH,ILS_TRACK,149.05,150,0.95,1727.87,-8.73,8.07,11.06,270.41,-0.019,0.2869,20,270.41,-3.116,-0.3,0.39,31.656,0.012,-0.116,0,0,0,269.67,0,0,0,0,0,0,0,0,0,0,0,0,0,3,3,83.49,FLYING
83.84,APPROACH,ILS_TRACK,149.05,150,0.95,1724.2,-8.73,8.07,11.06,270.41,-0.019,0.2868,20,270.41,-3.117,-0.29,0.39,31.586,0.011,-0.117,0,0,0,269.67,0,0,0,0,0,0,0,0,0,0,0,0,0,3,3,83.91,FLYING
84.26,APPROACH,ILS_TRACK,149.05,150,0.95,1720.53,-8.73,8.07,11.06,270.41,-0.017,0.2867,20,270.41,-3.116,-0.29,0.39,31.516,0.012,-0.116,0,0,0,269.67,0,0,0,0,0,0,0,0,0,0,0,0,0,3,3,84.33,FLYING
84.75,APPROACH,ILS_TRACK,149.05,150,0.95,1716.25,-8.73,8.07,11.06,270.41,-0.017,0.2867,20,270.41,-3.117,-0.3,0.39,31.434,0.013,-0.117,0,0,0,269.67,0,0,0,0,0,0,0,0,0,0,0,0,0,3,3,84.82,FLYING
85.17,APPROACH,ILS_TRACK,149.05,150,0.95,1712.59,-8.73,8.07,11.06,270.41,-0.019,0.2866,20,270.41,-3.116,-0.29,0.39,31.364,0.011,-0.116,0,0,0,269.67,0,0,0,0,0,0,0,0,0,0,0,0,0,3,3,85.24,FLYING
85.59,APPROACH,ILS_TRACK,149.05,150,0.95,1708.92,-8.73,8.07,11.05,270.41,-0.016,0.2866,20,270.41,-3.116,-0.29,0.39,31.294,0.012,-0.116,0,0,0,269.67,0,0,0,0,0,0,0,0,0,0,0,0,0,3,3,85.66,FLYING
86.08,APPROACH,ILS_TRACK,149.05,150,0.95,1704.64,-8.72,8.07,11.05,270.41,-0.018,0.2865,20,270.41,-3.117,-0.29,0.39,31.213,0.011,-0.117,0,0,0,269.67,0,0,0,0,0,0,0,0,0,0,0,0,0,3,3,86.15,FLYING
86.5,APPROACH,ILS_TRACK,149.06,150,0.94,1700.98,-8.72,8.07,11.05,270.41,-0.018,0.2864,20,270.41,-3.116,-0.3,0.39,31.143,0.013,-0.116,0,0,0,269.67,0,0,0,0,0,0,0,0,0,0,0,0,0,3,3,86.57,FLYING
86.92,APPROACH,ILS_TRACK,149.06,150,0.94,1697.31,-8.72,8.06,11.05,270.41,-0.018,0.2864,20,270.41,-3.117,-0.29,0.39,31.073,0.01,-0.117,0,0,0,269.67,0,0,0,0,0,0,0,0,0,0,0,0,0,3,3,86.99,FLYING
87.41,APPROACH,ILS_TRACK,149.06,150,0.94,1693.04,-8.72,8.06,11.05,270.41,-0.018,0.2863,20,270.41,-3.117,-0.3,0.39,30.991,0.013,-0.117,0,0,0,269.67,0,0,0,0,0,0,0,0,0,0,0,0,0,3,3,87.48,FLYING
87.83,APPROACH,ILS_TRACK,149.06,150,0.94,1689.38,-8.72,8.06,11.05,270.41,-0.018,0.2862,20,270.41,-3.117,-0.3,0.39,30.921,0.013,-0.117,0,0,0,269.67,0,0,0,0,0,0,0,0,0,0,0,0,0,3,3,87.9,FLYING
88.25,APPROACH,ILS_TRACK,149.06,150,0.94,1685.72,-8.72,8.06,11.05,270.41,-0.018,0.2861,20,270.41,-3.117,-0.29,0.39,30.851,0.01,-0.117,0,0,0,269.67,0,0,0,0,0,0,0,0,0,0,0,0,0,3,3,88.32,FLYING
88.74,APPROACH,ILS_TRACK,149.06,150,0.94,1681.45,-8.71,8.06,11.05,270.41,-0.019,0.2861,20,270.41,-3.117,-0.3,0.39,30.77,0.012,-0.117,0,0,0,269.67,0,0,0,0,0,0,0,0,0,0,0,0,0,3,3,88.81,FLYING
89.16,APPROACH,ILS_TRACK,149.06,150,0.94,1677.79,-8.71,8.06,11.04,270.41,-0.018,0.286,20,270.41,-3.116,-0.3,0.39,30.7,0.013,-0.116,0,0,0,269.67,0,0,0,0,0,0,0,0,0,0,0,0,0,3,3,89.23,FLYING
89.58,APPROACH,ILS_TRACK,149.07,150,0.93,1674.13,-8.71,8.06,11.04,270.41,-0.019,0.2859,20,270.41,-3.117,-0.3,0.39,30.63,0.011,-0.117,0,0,0,269.67,0,0,0,0,0,0,0,0,0,0,0,0,0,3,3,89.65,FLYING
90.07,APPROACH,ILS_TRACK,149.07,150,0.93,1669.86,-8.71,8.05,11.04,270.41,-0.019,0.2858,20,270.41,-3.117,-0.3,0.39,30.549,0.014,-0.117,0,0,0,269.67,0,0,0,0,0,0,0,0,0,0,0,0,0,3,3,90.14,FLYING
90.49,APPROACH,ILS_TRACK,149.07,150,0.93,1666.2,-8.71,8.05,11.04,270.41,-0.02,0.2858,20,270.41,-3.116,-0.3,0.39,30.479,0.011,-0.116,0,0,0,269.67,0,0,0,0,0,0,0,0,0,0,0,0,0,3,3,90.56,FLYING
90.91,APPROACH,ILS_TRACK,149.07,150,0.93,1662.54,-8.7,8.05,11.04,270.41,-0.022,0.2857,20,270.41,-3.117,-0.3,0.39,30.409,0.011,-0.117,0,0,0,269.67,0,0,0,0,0,0,0,0,0,0,0,0,0,3,3,90.98,FLYING
91.4,APPROACH,ILS_TRACK,149.07,150,0.93,1658.28,-8.7,8.05,11.04,270.41,-0.021,0.2856,20,270.41,-3.117,-0.3,0.39,30.328,0.012,-0.117,0,0,0,269.67,0,0,0,0,0,0,0,0,0,0,0,0,0,3,3,91.47,FLYING
91.82,APPROACH,ILS_TRACK,149.07,150,0.93,1654.62,-8.7,8.05,11.04,270.41,-0.021,0.2856,20,270.41,-3.117,-0.3,0.39,30.258,0.013,-0.117,0,0,0,269.67,0,0,0,0,0,0,0,0,0,0,0,0,0,3,3,91.89,FLYING
92.24,APPROACH,ILS_TRACK,149.07,150,0.93,1650.96,-8.7,8.05,11.04,270.41,-0.021,0.2855,20,270.41,-3.117,-0.3,0.39,30.188,0.01,-0.117,0,0,0,269.67,0,0,0,0,0,0,0,0,0,0,0,0,0,3,3,92.31,FLYING
92.73,APPROACH,ILS_TRACK,149.08,150,0.92,1646.7,-8.7,8.05,11.03,270.41,-0.022,0.2854,20,270.41,-3.117,-0.3,0.39,30.107,0.013,-0.117,0,0,0,269.67,0,0,0,0,0,0,0,0,0,0,0,0,0,3,3,92.8,FLYING
93.15,APPROACH,ILS_TRACK,149.08,150,0.92,1643.05,-8.7,8.05,11.03,270.41,-0.022,0.2854,20,270.41,-3.117,-0.3,0.39,30.037,0.01,-0.117,0,0,0,269.67,0,0,0,0,0,0,0,0,0,0,0,0,0,3,3,93.22,FLYING
93.57,APPROACH,ILS_TRACK,149.08,150,0.92,1639.39,-8.69,8.05,11.03,270.41,-0.021,0.2853,20,270.41,-3.117,-0.3,0.39,29.967,0.013,-0.117,0,0,0,269.67,0,0,0,0,0,0,0,0,0,0,0,0,0,3,3,93.64,FLYING
94.06,APPROACH,ILS_TRACK,149.08,150,0.92,1635.13,-8.69,8.04,11.03,270.41,-0.02,0.2852,20,270.41,-3.117,-0.3,0.39,29.886,0.011,-0.117,0,0,0,269.67,0,0,0,0,0,0,0,0,0,0,0,0,0,3,3,94.13,FLYING
94.48,APPROACH,ILS_TRACK,149.08,150,0.92,1631.48,-8.69,8.04,11.03,270.41,-0.02,0.2852,20,270.41,-3.117,-0.3,0.39,29.816,0.014,-0.117,0,0,0,269.67,0,0,0,0,0,0,0,0,0,0,0,0,0,3,3,94.55,FLYING
94.9,APPROACH,ILS_TRACK,149.08,150,0.92,1627.83,-8.69,8.04,11.03,270.41,-0.021,0.2851,20,270.41,-3.117,-0.3,0.39,29.747,0.011,-0.117,0,0,0,269.67,0,0,0,0,0,0,0,0,0,0,0,0,0,3,3,94.97,FLYING
95.39,APPROACH,ILS_TRACK,149.08,150,0.92,1623.57,-8.69,8.04,11.03,270.41,-0.02,0.285,20,270.41,-3.117,-0.29,0.39,29.666,0.009,-0.117,0,0,0,269.67,0,0,0,0,0,0,0,0,0,0,0,0,0,3,3,95.46,FLYING
95.81,APPROACH,ILS_TRACK,149.08,150,0.92,1619.92,-8.69,8.04,11.03,270.41,-0.019,0.285,20,270.41,-3.117,-0.29,0.39,29.596,0.012,-0.117,0,0,0,269.67,0,0,0,0,0,0,0,0,0,0,0,0,0,3,3,95.88,FLYING
96.23,APPROACH,ILS_TRACK,149.09,150,0.91,1616.28,-8.68,8.04,11.02,270.41,-0.019,0.2849,20,270.41,-3.117,-0.3,0.39,29.526,0.014,-0.117,0,0,0,269.67,0,0,0,0,0,0,0,0,0,0,0,0,0,3,3,96.3,FLYING
96.72,APPROACH,ILS_TRACK,149.09,150,0.91,1612.02,-8.68,8.04,11.02,270.41,-0.018,0.2848,20,270.41,-3.117,-0.29,0.39,29.445,0.011,-0.117,0,0,0,269.67,0,0,0,0,0,0,0,0,0,0,0,0,0,3,3,96.79,FLYING
97.14,APPROACH,ILS_TRACK,149.09,150,0.91,1608.37,-8.68,8.04,11.02,270.41,-0.017,0.2848,20,270.41,-3.117,-0.29,0.39,29.375,0.009,-0.117,0,0,0,269.67,0,0,0,0,0,0,0,0,0,0,0,0,0,3,3,97.21,FLYING
97.56,APPROACH,ILS_TRACK,149.09,150,0.91,1604.73,-8.68,8.03,11.02,270.41,-0.017,0.2847,20,270.41,-3.117,-0.29,0.39,29.306,0.013,-0.117,0,0,0,269.67,0,0,0,0,0,0,0,0,0,0,0,0,0,3,3,97.63,FLYING
98.05,APPROACH,ILS_TRACK,149.09,150,0.91,1600.47,-8.68,8.03,11.02,270.41,-0.018,0.2846,20,270.41,-3.117,-0.29,0.39,29.225,0.01,-0.117,0,0,0,269.67,0,0,0,0,0,0,0,0,0,0,0,0,0,3,3,98.12,FLYING
98.47,APPROACH,ILS_TRACK,149.09,150,0.91,1596.83,-8.68,8.03,11.02,270.41,-0.017,0.2846,20,270.41,-3.117,-0.29,0.39,29.155,0.012,-0.117,0,0,0,269.67,0,0,0,0,0,0,0,0,0,0,0,0,0,3,3,98.54,FLYING
98.89,APPROACH,ILS_TRACK,149.09,150,0.91,1593.18,-8.67,8.03,11.02,270.41,-0.017,0.2845,20,270.41,-3.117,-0.29,0.39,29.086,0.012,-0.117,0,0,0,269.67,0,0,0,0,0,0,0,0,0,0,0,0,0,3,3,98.96,FLYING
99.38,APPROACH,ILS_TRACK,149.1,150,0.9,1588.93,-8.67,8.03,11.02,270.41,-0.018,0.2844,20,270.41,-3.117,-0.29,0.39,29.005,0.011,-0.117,0,0,0,269.67,0,0,0,0,0,0,0,0,0,0,0,0,0,3,3,99.45,FLYING
99.8,APPROACH,ILS_TRACK,149.1,150,0.9,1585.29,-8.67,8.03,11.02,270.41,-0.017,0.2844,20,270.41,-3.117,-0.29,0.39,28.935,0.012,-0.117,0,0,0,269.67,0,0,0,0,0,0,0,0,0,0,0,0,0,3,3,99.87,FLYING
100.22,APPROACH,ILS_TRACK,149.1,150,0.9,1581.65,-8.67,8.03,11.01,270.41,-0.018,0.2843,20,270.41,-3.117,-0.29,0.39,28.865,0.009,-0.117,0,0,0,269.67,0,0,0,0,0,0,0,0,0,0,0,0,0,3,3,100.29,FLYING
100.71,APPROACH,ILS_TRACK,149.1,150,0.9,1577.4,-8.67,8.03,11.01,270.41,-0.018,0.2842,20,270.41,-3.117,-0.29,0.39,28.784,0.013,-0.117,0,0,0,269.67,0,0,0,0,0,0,0,0,0,0,0,0,0,3,3,100.78,FLYING
101.13,APPROACH,ILS_TRACK,149.1,150,0.9,1573.76,-8.67,8.02,11.01,270.41,-0.018,0.2842,20,270.41,-3.117,-0.29,0.39,28.715,0.01,-0.117,0,0,0,269.67,0,0,0,0,0,0,0,0,0,0,0,0,0,3,3,101.2,FLYING
101.55,APPROACH,ILS_TRACK,149.1,150,0.9,1570.12,-8.66,8.02,11.01,270.41,-0.018,0.2841,20,270.41,-3.117,-0.29,0.39,28.646,0.014,-0.117,0,0,0,269.67,0,0,0,0,0,0,0,0,0,0,0,0,0,3,3,101.62,FLYING
102.04,APPROACH,ILS_TRACK,149.1,150,0.9,1565.87,-8.66,8.02,11.01,270.41,-0.019,0.284,20,270.41,-3.117,-0.29,0.39,28.564,0.011,-0.117,0,0,0,269.67,0,0,0,0,0,0,0,0,0,0,0,0,0,3,3,102.11,FLYING
102.46,APPROACH,ILS_TRACK,149.11,150,0.89,1562.24,-8.66,8.02,11.01,270.41,-0.017,0.2839,20,270.41,-3.117,-0.29,0.39,28.495,0.011,-0.117,0,0,0,269.67,0,0,0,0,0,0,0,0,0,0,0,0,0,3,3,102.53,FLYING
102.88,APPROACH,ILS_TRACK,149.11,150,0.89,1558.6,-8.66,8.02,11.01,270.41,-0.018,0.2839,20,270.41,-3.117,-0.29,0.39,28.426,0.011,-0.117,0,0,0,269.67,0,0,0,0,0,0,0,0,0,0,0,0,0,3,3,102.95,FLYING
103.37,APPROACH,ILS_TRACK,149.11,150,0.89,1554.36,-8.66,8.02,11.01,270.41,-0.018,0.2838,20,270.41,-3.117,-0.29,0.39,28.345,0.011,-0.117,0,0,0,269.67,0,0,0,0,0,0,0,0,0,0,0,0,0,3,3,103.44,FLYING
103.79,APPROACH,ILS_TRACK,149.11,150,0.89,1550.72,-8.65,8.02,11,270.41,-0.018,0.2838,20,270.41,-3.117,-0.29,0.39,28.275,0.011,-0.117,0,0,0,269.67,0,0,0,0,0,0,0,0,0,0,0,0,0,3,3,103.86,FLYING
104.21,APPROACH,ILS_TRACK,149.11,150,0.89,1547.08,-8.65,8.02,11,270.41,-0.017,0.2837,20,270.41,-3.117,-0.29,0.39,28.206,0.011,-0.117,0,0,0,269.67,0,0,0,0,0,0,0,0,0,0,0,0,0,3,3,104.28,FLYING
104.7,APPROACH,ILS_TRACK,149.11,150,0.89,1542.84,-8.65,8.01,11,270.41,-0.019,0.2836,20,270.41,-3.117,-0.29,0.39,28.125,0.014,-0.117,0,0,0,269.67,0,0,0,0,0,0,0,0,0,0,0,0,0,3,3,104.77,FLYING
105.12,APPROACH,ILS_TRACK,149.11,150,0.89,1539.21,-8.65,8.01,11,270.41,-0.018,0.2835,20,270.41,-3.117,-0.29,0.39,28.056,0.009,-0.117,0,0,0,269.67,0,0,0,0,0,0,0,0,0,0,0,0,0,3,3,105.19,FLYING
105.54,APPROACH,ILS_TRACK,149.12,150,0.88,1535.58,-8.65,8.01,11,270.41,-0.017,0.2835,20,270.41,-3.117,-0.29,0.39,27.986,0.013,-0.117,0,0,0,269.67,0,0,0,0,0,0,0,0,0,0,0,0,0,3,3,105.61,FLYING
106.03,APPROACH,ILS_TRACK,149.12,150,0.88,1531.34,-8.64,8.01,11,270.41,-0.018,0.2834,20,270.41,-3.118,-0.29,0.39,27.905,0.012,-0.118,0,0,0,269.67,0,0,0,0,0,0,0,0,0,0,0,0,0,3,3,106.1,FLYING
106.45,APPROACH,ILS_TRACK,149.12,150,0.88,1527.71,-8.64,8.01,11,270.41,-0.017,0.2833,20,270.41,-3.117,-0.29,0.39,27.836,0.012,-0.117,0,0,0,269.67,0,0,0,0,0,0,0,0,0,0,0,0,0,3,3,106.52,FLYING
106.87,APPROACH,ILS_TRACK,149.12,150,0.88,1524.08,-8.64,8.01,11,270.41,-0.019,0.2833,20,270.41,-3.117,-0.29,0.39,27.767,0.01,-0.117,0,0,0,269.67,0,0,0,0,0,0,0,0,0,0,0,0,0,3,3,106.94,FLYING
107.36,APPROACH,ILS_TRACK,149.12,150,0.88,1519.84,-8.64,8.01,10.99,270.41,-0.016,0.2832,20,270.41,-3.118,-0.29,0.39,27.686,0.013,-0.118,0,0,0,269.67,0,0,0,0,0,0,0,0,0,0,0,0,0,3,3,107.43,FLYING
107.78,APPROACH,ILS_TRACK,149.12,150,0.88,1516.21,-8.64,8.01,10.99,270.41,-0.017,0.2831,20,270.41,-3.117,-0.29,0.39,27.617,0.01,-0.117,0,0,0,269.67,0,0,0,0,0,0,0,0,0,0,0,0,0,3,3,107.85,FLYING
108.2,APPROACH,ILS_TRACK,149.12,150,0.88,1512.58,-8.64,8,10.99,270.41,-0.017,0.2831,20,270.41,-3.118,-0.29,0.39,27.548,0.014,-0.118,0,0,0,269.67,0,0,0,0,0,0,0,0,0,0,0,0,0,3,3,108.27,FLYING
108.69,APPROACH,ILS_TRACK,149.13,150,0.87,1508.35,-8.63,8,10.99,270.41,-0.016,0.283,20,270.41,-3.117,-0.29,0.39,27.467,0.01,-0.117,0,0,0,269.67,0,0,0,0,0,0,0,0,0,0,0,0,0,3,3,108.76,FLYING
109.11,APPROACH,ILS_TRACK,149.13,150,0.87,1504.72,-8.63,8,10.99,270.41,-0.016,0.2829,20,270.41,-3.117,-0.29,0.39,27.398,0.013,-0.117,0,0,0,269.67,0,0,0,0,0,0,0,0,0,0,0,0,0,3,3,109.18,FLYING
109.53,APPROACH,ILS_TRACK,149.13,150,0.87,1501.1,-8.63,8,10.99,270.41,-0.017,0.2828,20,270.41,-3.118,-0.29,0.39,27.328,0.012,-0.118,0,0,0,269.67,0,0,0,0,0,0,0,0,0,0,0,0,0,3,3,109.6,FLYING
110.02,APPROACH,ILS_TRACK,149.13,150,0.87,1496.86,-8.63,8,10.99,270.41,-0.018,0.2828,20,270.41,-3.118,-0.29,0.39,27.248,0.011,-0.118,0,0,0,269.67,0,0,0,0,0,0,0,0,0,0,0,0,0,3,3,110.09,FLYING
110.44,APPROACH,ILS_TRACK,149.13,150,0.87,1493.24,-8.63,8,10.99,270.41,-0.019,0.2827,20,270.41,-3.117,-0.3,0.39,27.178,0.015,-0.117,0,0,0,269.67,0,0,0,0,0,0,0,0,0,0,0,0,0,3,3,110.51,FLYING
110.86,APPROACH,ILS_TRACK,149.13,150,0.87,1489.62,-8.63,8,10.99,270.41,-0.02,0.2826,20,270.41,-3.118,-0.3,0.39,27.109,0.01,-0.118,0,0,0,269.67,0,0,0,0,0,0,0,0,0,0,0,0,0,3,3,110.93,FLYING
111.35,APPROACH,ILS_TRACK,149.13,150,0.87,1485.39,-8.62,8,10.98,270.41,-0.02,0.2826,20,270.41,-3.118,-0.3,0.39,27.029,0.012,-0.118,0,0,0,269.67,0,0,0,0,0,0,0,0,0,0,0,0,0,3,3,111.42,FLYING
111.77,APPROACH,ILS_TRACK,149.13,150,0.87,1481.76,-8.62,7.99,10.98,270.41,-0.019,0.2825,20,270.41,-3.117,-0.3,0.39,26.959,0.013,-0.117,0,0,0,269.67,0,0,0,0,0,0,0,0,0,0,0,0,0,3,3,111.84,FLYING
112.19,APPROACH,ILS_TRACK,149.14,150,0.86,1478.14,-8.62,7.99,10.98,270.41,-0.022,0.2824,20,270.41,-3.118,-0.3,0.39,26.89,0.013,-0.118,0,0,0,269.67,0,0,0,0,0,0,0,0,0,0,0,0,0,3,3,112.26,FLYING
112.68,APPROACH,ILS_TRACK,149.14,150,0.86,1473.92,-8.62,7.99,10.98,270.41,-0.023,0.2824,20,270.41,-3.118,-0.3,0.39,26.81,0.012,-0.118,0,0,0,269.67,0,0,0,0,0,0,0,0,0,0,0,0,0,3,3,112.75,FLYING
113.1,APPROACH,ILS_TRACK,149.14,150,0.86,1470.3,-8.62,7.99,10.98,270.41,-0.023,0.2823,20,270.41,-3.118,-0.3,0.39,26.741,0.009,-0.118,0,0,0,269.67,0,0,0,0,0,0,0,0,0,0,0,0,0,3,3,113.17,FLYING
113.52,APPROACH,ILS_TRACK,149.14,150,0.86,1466.68,-8.62,7.99,10.98,270.41,-0.022,0.2822,20,270.41,-3.118,-0.3,0.39,26.671,0.014,-0.118,0,0,0,269.67,0,0,0,0,0,0,0,0,0,0,0,0,0,3,3,113.59,FLYING
114.01,APPROACH,ILS_TRACK,149.14,150,0.86,1462.45,-8.61,7.99,10.98,270.41,-0.023,0.2822,20,270.41,-3.118,-0.3,0.39,26.591,0.013,-0.118,0,0,0,269.67,0,0,0,0,0,0,0,0,0,0,0,0,0,3,3,114.08,FLYING
114.43,APPROACH,ILS_TRACK,149.14,150,0.86,1458.83,-8.61,7.99,10.98,270.41,-0.023,0.2821,20,270.41,-3.118,-0.3,0.39,26.522,0.012,-0.118,0,0,0,269.67,0,0,0,0,0,0,0,0,0,0,0,0,0,3,3,114.5,FLYING
114.85,APPROACH,ILS_TRACK,149.14,150,0.86,1455.22,-8.61,7.99,10.97,270.41,-0.022,0.282,20,270.41,-3.117,-0.3,0.39,26.453,0.012,-0.117,0,0,0,269.67,0,0,0,0,0,0,0,0,0,0,0,0,0,3,3,114.92,FLYING
115.34,APPROACH,ILS_TRACK,149.15,150,0.85,1451,-8.61,7.98,10.97,270.41,-0.02,0.2819,20,270.41,-3.118,-0.3,0.39,26.372,0.01,-0.118,0,0,0,269.67,0,0,0,0,0,0,0,0,0,0,0,0,0,3,3,115.41,FLYING
115.76,APPROACH,ILS_TRACK,149.15,150,0.85,1447.38,-8.61,7.98,10.97,270.41,-0.021,0.2819,20,270.41,-3.118,-0.3,0.39,26.303,0.011,-0.118,0,0,0,269.67,0,0,0,0,0,0,0,0,0,0,0,0,0,3,3,115.83,FLYING
116.18,APPROACH,ILS_TRACK,149.15,150,0.85,1443.76,-8.61,7.98,10.97,270.41,-0.018,0.2818,20,270.41,-3.118,-0.3,0.39,26.234,0.014,-0.118,0,0,0,269.67,0,0,0,0,0,0,0,0,0,0,0,0,0,3,3,116.25,FLYING
116.67,APPROACH,ILS_TRACK,149.15,150,0.85,1439.55,-8.6,7.98,10.97,270.41,-0.021,0.2817,20,270.41,-3.118,-0.3,0.39,26.154,0.013,-0.118,0,0,0,269.67,0,0,0,0,0,0,0,0,0,0,0,0,0,3,3,116.74,FLYING
117.09,APPROACH,ILS_TRACK,149.15,150,0.85,1435.93,-8.6,7.98,10.97,270.41,-0.021,0.2817,20,270.41,-3.118,-0.3,0.39,26.085,0.013,-0.118,0,0,0,269.67,0,0,0,0,0,0,0,0,0,0,0,0,0,3,3,117.16,FLYING
117.51,APPROACH,ILS_TRACK,149.15,150,0.85,1432.32,-8.6,7.98,10.97,270.41,-0.021,0.2816,20,270.41,-3.118,-0.3,0.39,26.016,0.01,-0.118,0,0,0,269.67,0,0,0,0,0,0,0,0,0,0,0,0,0,3,3,117.58,FLYING
118,APPROACH,ILS_TRACK,149.15,150,0.85,1428.1,-8.6,7.98,10.97,270.41,-0.021,0.2815,20,270.41,-3.118,-0.3,0.39,25.935,0.012,-0.118,0,0,0,269.67,0,0,0,0,0,0,0,0,0,0,0,0,0,3,3,118.07,FLYING
118.42,APPROACH,ILS_TRACK,149.16,150,0.84,1424.49,-8.6,7.98,10.97,270.41,-0.019,0.2815,20,270.41,-3.118,-0.3,0.39,25.866,0.01,-0.118,0,0,0,269.67,0,0,0,0,0,0,0,0,0,0,0,0,0,3,3,118.49,FLYING
118.84,APPROACH,ILS_TRACK,149.16,150,0.84,1420.88,-8.6,7.98,10.96,270.41,-0.018,0.2814,20,270.41,-3.118,-0.3,0.39,25.798,0.011,-0.118,0,0,0,269.67,0,0,0,0,0,0,0,0,0,0,0,0,0,3,3,118.91,FLYING
119.33,APPROACH,ILS_TRACK,149.16,150,0.84,1416.67,-8.59,7.97,10.96,270.41,-0.019,0.2813,20,270.41,-3.118,-0.3,0.39,25.717,0.013,-0.118,0,0,0,269.67,0,0,0,0,0,0,0,0,0,0,0,0,0,3,3,119.4,FLYING
119.75,APPROACH,ILS_TRACK,149.16,150,0.84,1413.06,-8.59,7.97,10.96,270.41,-0.018,0.2813,20,270.41,-3.118,-0.3,0.39,25.648,0.012,-0.118,0,0,0,269.67,0,0,0,0,0,0,0,0,0,0,0,0,0,3,3,119.82,FLYING
120.17,APPROACH,ILS_TRACK,149.16,150,0.84,1409.45,-8.59,7.97,10.96,270.41,-0.019,0.2812,20,270.41,-3.118,-0.3,0.39,25.579,0.01,-0.118,0,0,0,269.67,0,0,0,0,0,0,0,0,0,0,0,0,0,3,3,120.24,FLYING
120.66,APPROACH,ILS_TRACK,149.16,150,0.84,1405.24,-8.59,7.97,10.96,270.41,-0.017,0.2811,20,270.41,-3.118,-0.3,0.39,25.499,0.012,-0.118,0,0,0,269.67,0,0,0,0,0,0,0,0,0,0,0,0,0,3,3,120.73,FLYING
121.08,APPROACH,ILS_TRACK,149.16,150,0.84,1401.63,-8.59,7.97,10.96,270.41,-0.018,0.2811,20,270.41,-3.118,-0.29,0.39,25.43,0.011,-0.118,0,0,0,269.67,0,0,0,0,0,0,0,0,0,0,0,0,0,3,3,121.15,FLYING
121.5,APPROACH,ILS_TRACK,149.16,150,0.84,1398.02,-8.59,7.97,10.96,270.41,-0.019,0.281,20,270.41,-3.118,-0.29,0.39,25.361,0.011,-0.118,0,0,0,269.67,0,0,0,0,0,0,0,0,0,0,0,0,0,3,3,121.57,FLYING
121.99,APPROACH,ILS_TRACK,149.17,150,0.83,1393.81,-8.58,7.97,10.96,270.41,-0.018,0.2809,20,270.41,-3.118,-0.29,0.39,25.281,0.012,-0.118,0,0,0,269.67,0,0,0,0,0,0,0,0,0,0,0,0,0,3,3,122.06,FLYING
122.41,APPROACH,ILS_TRACK,149.17,150,0.83,1390.21,-8.58,7.97,10.95,270.41,-0.018,0.2808,20,270.41,-3.118,-0.3,0.39,25.212,0.013,-0.118,0,0,0,269.67,0,0,0,0,0,0,0,0,0,0,0,0,0,3,3,122.48,FLYING
122.83,APPROACH,ILS_TRACK,149.17,150,0.83,1386.6,-8.58,7.96,10.95,270.41,-0.018,0.2808,20,270.41,-3.118,-0.29,0.39,25.143,0.011,-0.118,0,0,0,269.67,0,0,0,0,0,0,0,0,0,0,0,0,0,3,3,122.9,FLYING
123.32,APPROACH,ILS_TRACK,149.17,150,0.83,1382.4,-8.58,7.96,10.95,270.41,-0.018,0.2807,20,270.41,-3.119,-0.29,0.39,25.063,0.012,-0.119,0,0,0,269.67,0,0,0,0,0,0,0,0,0,0,0,0,0,3,3,123.39,FLYING
123.74,APPROACH,ILS_TRACK,149.17,150,0.83,1378.79,-8.58,7.96,10.95,270.41,-0.018,0.2806,20,270.41,-3.118,-0.29,0.39,24.994,0.011,-0.118,0,0,0,269.67,0,0,0,0,0,0,0,0,0,0,0,0,0,3,3,123.81,FLYING
124.16,APPROACH,ILS_TRACK,149.17,150,0.83,1375.19,-8.58,7.96,10.95,270.41,-0.02,0.2806,20,270.41,-3.118,-0.29,0.39,24.926,0.01,-0.118,0,0,0,269.67,0,0,0,0,0,0,0,0,0,0,0,0,0,3,3,124.23,FLYING
124.65,APPROACH,ILS_TRACK,149.17,150,0.83,1370.99,-8.57,7.96,10.95,270.41,-0.018,0.2805,20,270.41,-3.118,-0.29,0.39,24.845,0.013,-0.118,0,0,0,269.67,0,0,0,0,0,0,0,0,0,0,0,0,0,3,3,124.72,FLYING
125.07,APPROACH,ILS_TRACK,149.18,150,0.82,1367.39,-8.57,7.96,10.95,270.41,-0.018,0.2804,20,270.41,-3.118,-0.29,0.39,24.777,0.012,-0.118,0,0,0,269.67,0,0,0,0,0,0,0,0,0,0,0,0,0,3,3,125.14,FLYING
125.49,APPROACH,ILS_TRACK,149.18,150,0.82,1363.79,-8.57,7.96,10.95,270.41,-0.019,0.2803,20,270.41,-3.119,-0.29,0.39,24.708,0.012,-0.119,0,0,0,269.67,0,0,0,0,0,0,0,0,0,0,0,0,0,3,3,125.56,FLYING
125.98,APPROACH,ILS_TRACK,149.18,150,0.82,1359.59,-8.57,7.96,10.94,270.41,-0.019,0.2803,20,270.41,-3.118,-0.29,0.39,24.628,0.012,-0.118,0,0,0,269.67,0,0,0,0,0,0,0,0,0,0,0,0,0,3,3,126.05,FLYING
126.4,APPROACH,ILS_TRACK,149.18,150,0.82,1355.99,-8.57,7.95,10.94,270.41,-0.019,0.2802,20,270.41,-3.118,-0.29,0.39,24.559,0.01,-0.118,0,0,0,269.67,0,0,0,0,0,0,0,0,0,0,0,0,0,3,3,126.47,FLYING
126.82,APPROACH,ILS_TRACK,149.18,150,0.82,1352.39,-8.57,7.95,10.94,270.41,-0.021,0.2801,20,270.41,-3.118,-0.29,0.39,24.491,0.011,-0.118,0,0,0,269.67,0,0,0,0,0,0,0,0,0,0,0,0,0,3,3,126.89,FLYING
127.31,APPROACH,ILS_TRACK,149.18,150,0.82,1348.19,-8.56,7.95,10.94,270.41,-0.02,0.2801,20,270.41,-3.118,-0.29,0.39,24.41,0.012,-0.118,0,0,0,269.67,0,0,0,0,0,0,0,0,0,0,0,0,0,3,3,127.38,FLYING
127.73,APPROACH,ILS_TRACK,149.18,150,0.82,1344.59,-8.56,7.95,10.94,270.41,-0.02,0.28,20,270.41,-3.118,-0.29,0.39,24.342,0.012,-0.118,0,0,0,269.67,0,0,0,0,0,0,0,0,0,0,0,0,0,3,3,127.8,FLYING
128.15,APPROACH,ILS_TRACK,149.19,150,0.81,1341,-8.56,7.95,10.94,270.41,-0.019,0.2799,20,270.41,-3.118,-0.29,0.39,24.273,0.012,-0.118,0,0,0,269.67,0,0,0,0,0,0,0,0,0,0,0,0,0,3,3,128.22,FLYING
128.64,APPROACH,ILS_TRACK,149.19,150,0.81,1336.8,-8.56,7.95,10.94,270.41,-0.022,0.2799,20,270.41,-3.118,-0.29,0.39,24.193,0.011,-0.118,0,0,0,269.67,0,0,0,0,0,0,0,0,0,0,0,0,0,3,3,128.71,FLYING
129.06,APPROACH,ILS_TRACK,149.19,150,0.81,1333.21,-8.56,7.95,10.94,270.41,-0.022,0.2798,20,270.41,-3.118,-0.29,0.39,24.124,0.012,-0.118,0,0,0,269.67,0,0,0,0,0,0,0,0,0,0,0,0,0,3,3,129.13,FLYING
129.48,APPROACH,ILS_TRACK,149.19,150,0.81,1329.61,-8.56,7.95,10.94,270.41,-0.022,0.2797,20,270.41,-3.118,-0.29,0.39,24.056,0.01,-0.118,0,0,0,269.67,0,0,0,0,0,0,0,0,0,0,0,0,0,3,3,129.55,FLYING
129.97,APPROACH,ILS_TRACK,149.19,150,0.81,1325.42,-8.55,7.95,10.93,270.41,-0.021,0.2797,20,270.41,-3.119,-0.29,0.39,23.976,0.013,-0.119,0,0,0,269.67,0,0,0,0,0,0,0,0,0,0,0,0,0,3,3,130.04,FLYING
130.39,APPROACH,ILS_TRACK,149.19,150,0.81,1321.83,-8.55,7.94,10.93,270.41,-0.021,0.2796,20,270.41,-3.118,-0.29,0.39,23.907,0.01,-0.118,0,0,0,269.67,0,0,0,0,0,0,0,0,0,0,0,0,0,3,3,130.46,FLYING
130.81,APPROACH,ILS_TRACK,149.19,150,0.81,1318.23,-8.55,7.94,10.93,270.41,-0.019,0.2795,20,270.41,-3.119,-0.29,0.39,23.839,0.012,-0.119,0,0,0,269.67,0,0,0,0,0,0,0,0,0,0,0,0,0,3,3,130.88,FLYING
131.3,APPROACH,ILS_TRACK,149.2,150,0.8,1314.04,-8.55,7.94,10.93,270.41,-0.019,0.2794,20,270.41,-3.118,-0.29,0.39,23.759,0.01,-0.118,0,0,0,269.67,0,0,0,0,0,0,0,0,0,0,0,0,0,3,3,131.37,FLYING
131.72,APPROACH,ILS_TRACK,149.2,150,0.8,1310.45,-8.55,7.94,10.93,270.41,-0.019,0.2794,20,270.41,-3.119,-0.29,0.39,23.69,0.011,-0.119,0,0,0,269.67,0,0,0,0,0,0,0,0,0,0,0,0,0,3,3,131.79,FLYING
