t_s,phase,subphase,ias_ms,vapp_ms,spd_err_ms,agl_m,vs_ms,pitch_deg,aoa_deg,hdg_deg,bank_deg,thr_cmd,thr_cur,thr_intg,at_gain,at_tau_s,at_a_up,at_a_dn,at_kp_thr,at_ki_spd,at_thr_slew,aa_hdg_cmd_deg,aa_fpa_cmd_deg,aa_fbw,aa_dir,actual_fpa_deg,ftf_hdg_err_deg,ftf_fix_idx,kos_steer_pit_deg,kos_steer_hdg_deg,aa_dir_vx,aa_dir_vy,aa_dir_vz,aa_dir_pitch_deg,aa_dir_hdg_deg,ils_loc_m,ils_gs_m,ils_dist_km,loc_corr_deg,gs_corr_deg,flare_fpa_cmd,flare_tgt_vs,flare_frac,steer_hdg_deg,steer_blend,ro_loc_corr_deg,ro_hdg_err_deg,ro_yaw_tgt,ro_yaw_scale,ro_yaw_gate,yaw_cmd,roll_cmd,pitch_cmd,ro_pitch_tgt_deg,ro_pitch_err_deg,ro_pitch_ff,ro_roll_assist,flaps_cur,flaps_tgt,asc_j_ab,asc_j_rk,asc_validity,asc_q_pa,asc_q_raw_pa,asc_mach,asc_apo_m,asc_drag_n,asc_w_prop,asc_edot_aero,asc_edot_orb,asc_pitch_bias,asc_blend,asc_spooling,asc_ab_thr_ratio,asc_ab_t_now,asc_ab_t_avail,asc_ab_ign_on,asc_ab_flameouts,asc_rk_t_now,asc_rk_t_avail,asc_rk_ign_on,asc_rk_flameouts,ship_thrust,ship_avail_thrust,ship_ign_on,ship_flameouts,ifc_raw_dt_s,ifc_dt_s,ifc_loop_n,ifc_hz_est,ifc_raw_dt_max_s,ifc_raw_dt_min_s,phase_el_s,status,craft_name,cfg_file
0.1,APPROACH,ILS_TRACK,68.76,73,4.24,2265.93,-3.05,3.47,5.74,271.35,1.492,0,0,0,0,0,0,0,0,0,0,0,0,1,0,-2.54,0,0,0,90,0,0,0,0,0,0,0,33.956,0,0,0,0,0,271.29,0,0,0,0,0,0,0,0,0,0,0,0,0,0,0,0,0,VALID,0,0,0,0,0,1,0,0,0,0,0,0,0,0,0,0,0,0,0,0,209.65,365.7,2,0,0.1,0.1,1,3.7,0.1,0.02,0.1,FLYING,CF1-F,0:/Integrated Flight Computer/aircraft/cf1_f_cfg.ks (inferred preloaded)
0.4,APPROACH,ILS_TRACK,69.5,73,3.5,2264.45,-4.42,1.55,4.58,271.47,1.682,0,0,1.044,1,0.6,1.026,0.75,0.35,0.0168,0.4,270.36,-5.081,0,1,-3.56,0,0,-0.22,270.39,0.914,0.0063,0.4058,-0.45,270.36,-1.12,416.17,33.934,-0.04,0,0,0,0,271.29,0,0,0,0,0,0,0,0,0,0,0,0,0,1,1,0,0,VALID,0,0,0,0,0,1,0,0,0,0,0,0,0,0,0,0,0,0,0,0,194.59,365.27,2,0,0.08,0.08,4,10,0.1,0.08,0.4,FLYING,CF1-F,0:/Integrated Flight Computer/aircraft/cf1_f_cfg.ks (inferred preloaded)
0.66,APPROACH,ILS_TRACK,70.15,73,2.85,2262.94,-5.72,0.41,4.3,271.42,1.514,0,0,1.84,1,0.6,1.824,0.75,0.35,0.0168,0.4,270.35,-5.079,0,1,-4.58,0,0,-0.76,270.36,0.9164,0.0061,0.4003,-0.8,270.35,-1.03,415.8,33.912,-0.05,0,0,0,0,271.29,0,0,0,0,0,0,0,0,0,0,0,0,0,1,1,0,0,VALID,0,0,0,0,0,1,0,0,0,0,0,0,0,0,0,0,0,0,0,0,182.13,364.91,2,0,0.1,0.1,7,11.54,0.1,0.06,0.66,FLYING,CF1-F,0:/Integrated Flight Computer/aircraft/cf1_f_cfg.ks (inferred preloaded)
1,APPROACH,ILS_TRACK,70.97,73,2.03,2260.75,-7.38,0.66,5.65,271.14,1.122,0,0,2.633,1,0.6,2.619,0.75,0.35,0.0168,0.4,270.32,-5.075,0,1,-5.88,0,0,-0.13,270.31,0.9075,0.0056,0.4201,0.45,270.32,-0.88,415.09,33.884,-0.08,0,0,0,0,271.29,0,0,0,0,0,0,0,0,0,0,0,0,0,1,1,0,0,VALID,0,0,0,0,0,1,0,0,0,0,0,0,0,0,0,0,0,0,0,0,167.06,364.47,2,0,0.1,0.1,11,11.76,0.1,0.06,1,FLYING,CF1-F,0:/Integrated Flight Computer/aircraft/cf1_f_cfg.ks (inferred preloaded)
1.32,APPROACH,ILS_TRACK,71.68,73,1.32,2258.38,-8.22,1.62,7.17,270.94,1.006,0,0,3.136,1,0.6,3.187,0.75,0.35,0.0168,0.4,270.31,-5.071,0,1,-6.52,0,0,1.7,270.31,0.8954,0.0053,0.4452,2.05,270.31,-0.72,414.16,33.857,-0.094,0,0,0,0,271.29,0,0,0,0,0,0,0,0,0,0,0,0,0,1,1,0,0,VALID,0,0,0,0,0,1,0,0,0,0,0,0,0,0,0,0,0,0,0,0,154.03,364.12,2,0,0.1,0.1,15,12.5,0.1,0.06,1.32,FLYING,CF1-F,0:/Integrated Flight Computer/aircraft/cf1_f_cfg.ks (inferred preloaded)
1.66,APPROACH,ILS_TRACK,72.33,73,0.67,2255.41,-8.93,1.36,7.32,270.88,0.927,0,0,3.445,1,0.6,3.593,0.75,0.35,0.0168,0.4,270.29,-5.064,0,1,-7,0,0,2.26,270.29,0.8939,0.005,0.4483,2.25,270.29,-0.55,412.71,33.829,-0.108,0,0,0,0,271.29,0,0,0,0,0,0,0,0,0,0,0,0,0,1,1,0,0,VALID,0,0,0,0,0,1,0,0,0,0,0,0,0,0,0,0,0,0,0,0,141.33,363.83,2,0,0.1,0.1,19,11.76,0.1,0.06,1.66,FLYING,CF1-F,0:/Integrated Flight Computer/aircraft/cf1_f_cfg.ks (inferred preloaded)
2,APPROACH,ILS_TRACK,72.94,73,0.06,2252.28,-9.76,1.57,8.04,270.87,0.655,0,0,3.541,1,0.6,3.882,0.75,0.35,0.0168,0.4,270.27,-5.055,0,1,-7.59,0,0,2.55,270.27,0.8888,0.0047,0.4583,2.9,270.27,-0.36,411.09,33.8,-0.129,0,0,0,0,271.29,0,0,0,0,0,0,0,0,0,0,0,0,0,1,1,0,0,VALID,0,0,0,0,0,1,0,0,0,0,0,0,0,0,0,0,0,0,0,0,129.7,363.57,2,0,0.1,0.1,23,11.76,0.1,0.06,2,FLYING,CF1-F,0:/Integrated Flight Computer/aircraft/cf1_f_cfg.ks (inferred preloaded)
2.32,APPROACH,ILS_TRACK,73.43,73,-0.43,2249.38,-10.21,3.33,10.09,270.87,0.412,0,0,3.471,1,0.6,4.089,0.75,0.35,0.0168,0.4,270.26,-5.048,0,1,-7.91,0,0,4.13,270.26,0.8724,0.0044,0.4887,4.88,270.26,-0.18,409.62,33.772,-0.139,0,0,0,0,271.29,0,0,0,0,0,0,0,0,0,0,0,0,0,1,1,0,0,VALID,0,0,0,0,0,1,0,0,0,0,0,0,0,0,0,0,0,0,0,0,119.64,363.4,2,0,0.1,0.1,27,12.5,0.1,0.06,2.32,FLYING,CF1-F,0:/Integrated Flight Computer/aircraft/cf1_f_cfg.ks (inferred preloaded)
2.66,APPROACH,ILS_TRACK,73.77,73,-0.77,2246.43,-9.88,6.22,12.78,270.86,0.202,0,0,3.402,1,0.6,4.237,0.75,0.35,0.0168,0.4,270.25,-6,0,1,-7.67,0,0,6,270.24,0.8569,0.0042,0.5155,6.65,270.25,0.02,408.2,33.743,-0.147,0,0,0,0,271.29,0,0,0,0,0,0,0,0,0,0,0,0,0,1,1,0,0,VALID,0,0,0,0,0,1,0,0,0,0,0,0,0,0,0,0,0,0,0,0,109.84,363.33,2,0,0.1,0.1,31,11.76,0.1,0.06,2.66,FLYING,CF1-F,0:/Integrated Flight Computer/aircraft/cf1_f_cfg.ks (inferred preloaded)
2.98,APPROACH,ILS_TRACK,73.89,73,-0.89,2243.7,-9.04,7.97,13.96,270.83,0.061,0,0,3.334,1,0.6,4.343,0.75,0.35,0.0168,0.4,270.23,-6,0,1,-7.02,0,0,7.65,270.24,0.8453,0.0038,0.5342,7.92,270.23,0.22,406.9,33.716,-0.172,0,0,0,0,271.29,0,0,0,0,0,0,0,0,0,0,0,0,0,1,1,0,0,VALID,0,0,0,0,0,1,0,0,0,0,0,0,0,0,0,0,0,0,0,0,101.39,363.38,2,0,0.1,0.1,35,12.5,0.1,0.06,2.98,FLYING,CF1-F,0:/Integrated Flight Computer/aircraft/cf1_f_cfg.ks (inferred preloaded)
3.32,APPROACH,ILS_TRACK,73.86,73,-0.86,2241.02,-8.03,9.27,14.61,270.8,-0.067,0,0,3.268,1,0.6,4.419,0.75,0.35,0.0168,0.4,270.23,-6,0,1,-6.26,0,0,8.42,270.23,0.8391,0.0038,0.544,8.59,270.23,0.43,405.75,33.686,-0.172,0,0,0,0,271.29,0,0,0,0,0,0,0,0,0,0,0,0,0,1,1,0,0,VALID,0,0,0,0,0,1,0,0,0,0,0,0,0,0,0,0,0,0,0,0,93.15,363.53,2,0,0.1,0.1,39,11.76,0.1,0.06,3.32,FLYING,CF1-F,0:/Integrated Flight Computer/aircraft/cf1_f_cfg.ks (inferred preloaded)
3.66,APPROACH,ILS_TRACK,73.72,73,-0.72,2238.64,-6.94,10.15,14.78,270.77,-0.17,0.0556,0,3.117,1,0.6,4.475,0.75,0.35,0.0168,0.4,270.23,-6,0,1,-5.43,0,0,8.76,270.23,0.8372,0.0038,0.5468,8.78,270.23,0.64,404.88,33.657,-0.168,0,0,0,0,271.29,0,0,0,0,0,0,0,0,0,0,0,0,0,1,1,0,0,VALID,0,0,0,0,0,1,0,0,0,0,0,0,0,0,0,0,0,0,0,0,85.71,363.73,2,0,0.1,0.1,43,11.76,0.1,0.06,3.66,FLYING,CF1-F,0:/Integrated Flight Computer/aircraft/cf1_f_cfg.ks (inferred preloaded)
3.98,APPROACH,ILS_TRACK,73.52,73,-0.52,2236.67,-5.93,10.65,14.62,270.73,-0.25,0.1667,0,2.926,1,0.6,4.5,0.75,0.35,0.0168,0.4,270.22,-6,0,1,-4.66,0,0,8.71,270.21,0.8387,0.0035,0.5446,8.63,270.22,0.84,404.33,33.63,-0.185,0,0,0,0,271.29,0,0,0,0,0,0,0,0,0,0,0,0,0,1,1,0,0,VALID,0,0,0,0,0,1,0,0,0,0,0,0,0,0,0,0,0,0,0,0,81.58,363.96,2,0,0.1,0.1,47,12.5,0.1,0.06,3.98,FLYING,CF1-F,0:/Integrated Flight Computer/aircraft/cf1_f_cfg.ks (inferred preloaded)
4.3,APPROACH,ILS_TRACK,73.28,73,-0.28,2234.99,-5.02,10.97,14.35,270.71,-0.313,0.243,0,2.806,1,0.6,4.5,0.75,0.35,0.0168,0.4,270.2,-6,0,1,-3.96,0,0,8.45,270.23,0.8413,0.0033,0.5406,8.36,270.2,1.03,404.07,33.602,-0.201,0,0,0,0,271.29,0,0,0,0,0,0,0,0,0,0,0,0,0,1,1,0,0,VALID,0,0,0,0,0,1,0,0,0,0,0,0,0,0,0,0,0,0,0,0,80.65,364.19,2,0,0.1,0.1,51,12.5,0.1,0.06,4.3,FLYING,CF1-F,0:/Integrated Flight Computer/aircraft/cf1_f_cfg.ks (inferred preloaded)
4.64,APPROACH,ILS_TRACK,73.02,73,-0.02,2233.49,-4.15,11.28,14.08,270.68,-0.366,0.2914,0,2.765,1,0.6,4.5,0.75,0.35,0.0168,0.4,270.21,-6,0,1,-3.29,0,0,8.17,270.2,0.8438,0.0035,0.5366,8.09,270.21,1.21,404.08,33.573,-0.187,0,0,0,0,271.29,0,0,0,0,0,0,0,0,0,0,0,0,0,1,1,0,0,VALID,0,0,0,0,0,1,0,0,0,0,0,0,0,0,0,0,0,0,0,0,80.96,364.43,2,0,0.1,0.1,55,11.76,0.1,0.06,4.64,FLYING,CF1-F,0:/Integrated Flight Computer/aircraft/cf1_f_cfg.ks (inferred preloaded)
4.98,APPROACH,ILS_TRACK,72.76,73,0.24,2232.28,-3.35,11.59,13.86,270.65,-0.405,0.3255,0,2.814,1,0.6,4.5,0.75,0.35,0.0168,0.4,270.22,-6,0,1,-2.67,0,0,7.93,270.23,0.8459,0.0036,0.5333,7.87,270.22,1.39,404.37,33.544,-0.18,0,0,0,0,271.29,0,0,0,0,0,0,0,0,0,0,0,0,0,1,1,0,0,VALID,0,0,0,0,0,1,0,0,0,0,0,0,0,0,0,0,0,0,0,0,81.59,364.66,2,0,0.1,0.1,59,11.76,0.1,0.06,4.98,FLYING,CF1-F,0:/Integrated Flight Computer/aircraft/cf1_f_cfg.ks (inferred preloaded)
5.3,APPROACH,ILS_TRACK,72.51,73,0.49,2231.37,-2.65,11.83,13.64,270.62,-0.431,0.3532,0,2.941,1,0.6,4.5,0.75,0.35,0.0168,0.4,270.2,-6,0,1,-2.13,0,0,7.75,270.22,0.8479,0.0033,0.5302,7.66,270.2,1.55,404.87,33.517,-0.201,0,0,0,0,271.29,0,0,0,0,0,0,0,0,0,0,0,0,0,1,1,0,0,VALID,0,0,0,0,0,1,0,0,0,0,0,0,0,0,0,0,0,0,0,0,82.39,364.87,2,0,0.1,0.1,63,12.5,0.1,0.06,5.3,FLYING,CF1-F,0:/Integrated Flight Computer/aircraft/cf1_f_cfg.ks (inferred preloaded)
5.64,APPROACH,ILS_TRACK,72.25,73,0.75,2230.6,-2.03,11.94,13.33,270.6,-0.445,0.3763,0,3.165,1,0.6,4.5,0.75,0.35,0.0168,0.4,270.22,-6,0,1,-1.63,0,0,7.42,270.22,0.8508,0.0037,0.5254,7.34,270.22,1.7,405.6,33.488,-0.179,0,0,0,0,271.29,0,0,0,0,0,0,0,0,0,0,0,0,0,1,1,0,0,VALID,0,0,0,0,0,1,0,0,0,0,0,0,0,0,0,0,0,0,0,0,83.43,365.08,2,0,0.1,0.1,67,11.76,0.1,0.06,5.64,FLYING,CF1-F,0:/Integrated Flight Computer/aircraft/cf1_f_cfg.ks (inferred preloaded)
5.98,APPROACH,ILS_TRACK,71.99,73,1.01,2230.05,-1.47,12.16,13.18,270.58,-0.452,0.3964,0,3.476,1,0.6,4.5,0.75,0.35,0.0168,0.4,270.23,-6,0,1,-1.19,0,0,7.22,270.22,0.8523,0.0038,0.523,7.18,270.23,1.85,406.55,33.459,-0.171,0,0,0,0,271.29,0,0,0,0,0,0,0,0,0,0,0,0,0,1,1,0,0,VALID,0,0,0,0,0,1,0,0,0,0,0,0,0,0,0,0,0,0,0,0,84.6,365.27,2,0,0.1,0.1,71,11.76,0.1,0.06,5.98,FLYING,CF1-F,0:/Integrated Flight Computer/aircraft/cf1_f_cfg.ks (inferred preloaded)
6.32,APPROACH,ILS_TRACK,71.73,73,1.27,2229.67,-0.97,12.27,12.95,270.56,-0.452,0.4181,0,3.875,1,0.6,4.5,0.75,0.35,0.0168,0.4,270.22,-6,0,1,-0.79,0,0,7.02,270.25,0.8544,0.0037,0.5195,6.95,270.22,1.98,407.65,33.431,-0.177,0,0,0,0,271.29,0,0,0,0,0,0,0,0,0,0,0,0,0,1,1,0,0,VALID,0,0,0,0,0,1,0,0,0,0,0,0,0,0,0,0,0,0,0,0,85.9,365.46,2,0,0.1,0.1,75,11.76,0.1,0.06,6.32,FLYING,CF1-F,0:/Integrated Flight Computer/aircraft/cf1_f_cfg.ks (inferred preloaded)
6.66,APPROACH,ILS_TRACK,71.48,73,1.52,2229.47,-0.53,12.59,12.96,270.54,-0.447,0.4405,0,4.36,1,0.6,4.5,0.75,0.35,0.0168,0.4,270.23,-6,0,1,-0.44,0,0,6.96,270.22,0.8544,0.0038,0.5197,6.97,270.23,2.11,408.94,33.402,-0.174,0,0,0,0,271.29,0,0,0,0,0,0,0,0,0,0,0,0,0,1,1,0,0,VALID,0,0,0,0,0,1,0,0,0,0,0,0,0,0,0,0,0,0,0,0,87.33,365.63,2,0,0.1,0.1,79,11.76,0.1,0.06,6.66,FLYING,CF1-F,0:/Integrated Flight Computer/aircraft/cf1_f_cfg.ks (inferred preloaded)
6.92,APPROACH,ILS_TRACK,71.29,73,1.71,2229.42,-0.21,12.85,13.01,270.52,-0.442,0.4623,0,4.789,1,0.6,4.5,0.75,0.35,0.0168,0.4,270.22,-6,0,1,-0.19,0,0,6.98,270.23,0.8541,0.0037,0.5202,7,270.22,2.2,410.02,33.381,-0.177,0,0,0,0,271.29,0,0,0,0,0,0,0,0,0,0,0,0,0,1,1,0,0,VALID,0,0,0,0,0,1,0,0,0,0,0,0,0,0,0,0,0,0,0,0,88.53,365.76,2,0,0.08,0.08,82,11.54,0.1,0.08,6.92,FLYING,CF1-F,0:/Integrated Flight Computer/aircraft/cf1_f_cfg.ks (inferred preloaded)
7.18,APPROACH,ILS_TRACK,71.09,73,1.91,2229.46,0.12,13.1,13.03,270.51,-0.436,0.4874,0,5.269,1,0.6,4.5,0.75,0.35,0.0168,0.4,270.23,-6,0,1,0.08,0,0,7.03,270.26,0.8538,0.0039,0.5206,7.03,270.23,2.28,411.19,33.359,-0.167,0,0,0,0,271.29,0,0,0,0,0,0,0,0,0,0,0,0,0,1,1,0,0,VALID,0,0,0,0,0,1,0,0,0,0,0,0,0,0,0,0,0,0,0,0,89.83,365.89,2,0,0.1,0.1,85,11.54,0.1,0.06,7.18,FLYING,CF1-F,0:/Integrated Flight Computer/aircraft/cf1_f_cfg.ks (inferred preloaded)
7.44,APPROACH,ILS_TRACK,70.89,73,2.11,2229.57,0.43,13.35,13.07,270.49,-0.428,0.5141,0,5.801,1,0.6,4.5,0.75,0.35,0.0168,0.4,270.23,-6,0,1,0.33,0,0,7.05,270.24,0.8535,0.0039,0.5211,7.07,270.23,2.35,412.43,33.337,-0.168,0,0,0,0,271.29,0,0,0,0,0,0,0,0,0,0,0,0,0,1,1,0,0,VALID,0,0,0,0,0,1,0,0,0,0,0,0,0,0,0,0,0,0,0,0,91.26,366.02,2,0,0.08,0.08,88,11.54,0.1,0.08,7.44,FLYING,CF1-F,0:/Integrated Flight Computer/aircraft/cf1_f_cfg.ks (inferred preloaded)
7.7,APPROACH,ILS_TRACK,70.68,73,2.32,2229.78,0.73,13.66,13.17,270.48,-0.42,0.5424,0,6.387,1,0.6,4.5,0.75,0.35,0.0168,0.4,270.24,-6,0,1,0.57,0,0,7.13,270.25,0.8526,0.0039,0.5225,7.16,270.24,2.42,413.76,33.316,-0.165,0,0,0,0,271.29,0,0,0,0,0,0,0,0,0,0,0,0,0,1,1,0,0,VALID,0,0,0,0,0,1,0,0,0,0,0,0,0,0,0,0,0,0,0,0,92.82,366.15,2,0,0.1,0.1,91,11.54,0.1,0.06,7.7,FLYING,CF1-F,0:/Integrated Flight Computer/aircraft/cf1_f_cfg.ks (inferred preloaded)
7.96,APPROACH,ILS_TRACK,70.47,73,2.53,2230.06,1.04,13.93,13.23,270.47,-0.411,0.5728,0,7.027,1,0.6,4.5,0.75,0.35,0.0168,0.4,270.25,-6,0,1,0.83,0,0,7.21,270.24,0.8521,0.0041,0.5233,7.22,270.25,2.48,415.16,33.294,-0.154,0,0,0,0,271.29,0,0,0,0,0,0,0,0,0,0,0,0,0,1,1,0,0,VALID,0,0,0,0,0,1,0,0,0,0,0,0,0,0,0,0,0,0,0,0,94.52,366.28,2,0,0.08,0.08,94,11.54,0.1,0.08,7.96,FLYING,CF1-F,0:/Integrated Flight Computer/aircraft/cf1_f_cfg.ks (inferred preloaded)
8.22,APPROACH,ILS_TRACK,70.26,73,2.74,2230.41,1.34,14.18,13.26,270.45,-0.401,0.6035,0,7.722,1,0.6,4.5,0.75,0.35,0.0168,0.4,270.25,-6,0,1,1.07,0,0,7.25,270.24,0.8518,0.0041,0.5239,7.26,270.25,2.54,416.63,33.273,-0.155,0,0,0,0,271.29,0,0,0,0,0,0,0,0,0,0,0,0,0,1,1,0,0,VALID,0,0,0,0,0,1,0,0,0,0,0,0,0,0,0,0,0,0,0,0,96.37,366.4,2,0,0.1,0.1,97,11.54,0.1,0.06,8.22,FLYING,CF1-F,0:/Integrated Flight Computer/aircraft/cf1_f_cfg.ks (inferred preloaded)
8.48,APPROACH,ILS_TRACK,70.04,73,2.96,2230.84,1.62,14.41,13.29,270.44,-0.39,0.6338,0,8.472,1,0.6,4.5,0.75,0.35,0.0168,0.4,270.26,-6,0,1,1.31,0,0,7.28,270.24,0.8515,0.0043,0.5243,7.29,270.26,2.59,418.17,33.251,-0.141,0,0,0,0,271.29,0,0,0,0,0,0,0,0,0,0,0,0,0,1,1,0,0,VALID,0,0,0,0,0,1,0,0,0,0,0,0,0,0,0,0,0,0,0,0,98.37,366.52,2,0,0.08,0.08,100,11.54,0.1,0.08,8.48,FLYING,CF1-F,0:/Integrated Flight Computer/aircraft/cf1_f_cfg.ks (inferred preloaded)
8.74,APPROACH,ILS_TRACK,69.83,73,3.17,2231.34,1.9,14.62,13.31,270.43,-0.377,0.6634,0,9.278,1,0.6,4.5,0.75,0.35,0.0168,0.4,270.25,-6,0,1,1.54,0,0,7.3,270.25,0.8514,0.0042,0.5245,7.31,270.25,2.63,419.78,33.23,-0.146,0,0,0,0,271.29,0,0,0,0,0,0,0,0,0,0,0,0,0,1,1,0,0,VALID,0,0,0,0,0,1,0,0,0,0,0,0,0,0,0,0,0,0,0,0,100.5,366.64,2,0,0.1,0.1,103,11.54,0.1,0.06,8.74,FLYING,CF1-F,0:/Integrated Flight Computer/aircraft/cf1_f_cfg.ks (inferred preloaded)
9,APPROACH,ILS_TRACK,69.62,73,3.38,2231.9,2.16,14.84,13.34,270.42,-0.364,0.6923,0,10.139,1,0.6,4.5,0.75,0.35,0.0168,0.4,270.26,-6,0,1,1.76,0,0,7.33,270.25,0.8511,0.0044,0.5249,7.34,270.26,2.67,421.45,33.209,-0.137,0,0,0,0,271.29,0,0,0,0,0,0,0,0,0,0,0,0,0,1,1,0,0,VALID,0,0,0,0,0,1,0,0,0,0,0,0,0,0,0,0,0,0,0,0,102.77,366.75,2,0,0.08,0.08,106,11.54,0.1,0.08,9,FLYING,CF1-F,0:/Integrated Flight Computer/aircraft/cf1_f_cfg.ks (inferred preloaded)
9.26,APPROACH,ILS_TRACK,69.41,73,3.59,2232.54,2.41,15.06,13.38,270.41,-0.35,0.7212,0,11.055,1,0.6,4.5,0.75,0.35,0.0168,0.4,270.26,-6,0,1,1.98,0,0,7.36,270.26,0.8508,0.0043,0.5254,7.37,270.26,2.71,423.19,33.188,-0.141,0,0,0,0,271.29,0,0,0,0,0,0,0,0,0,0,0,0,0,1,1,0,0,VALID,0,0,0,0,0,1,0,0,0,0,0,0,0,0,0,0,0,0,0,0,105.18,366.86,2,0,0.1,0.1,109,11.54,0.1,0.06,9.26,FLYING,CF1-F,0:/Integrated Flight Computer/aircraft/cf1_f_cfg.ks (inferred preloaded)
9.52,APPROACH,ILS_TRACK,69.2,73,3.8,2233.25,2.64,15.33,13.48,270.4,-0.337,0.7506,0,12.025,1,0.6,4.5,0.75,0.35,0.0168,0.4,270.27,-6,0,1,2.17,0,0,7.42,270.27,0.85,0.0045,0.5268,7.47,270.27,2.74,425,33.167,-0.131,0,0,0,0,271.29,0,0,0,0,0,0,0,0,0,0,0,0,0,1,1,0,0,VALID,0,0,0,0,0,1,0,0,0,0,0,0,0,0,0,0,0,0,0,0,107.7,366.97,2,0,0.08,0.08,112,11.54,0.1,0.08,9.52,FLYING,CF1-F,0:/Integrated Flight Computer/aircraft/cf1_f_cfg.ks (inferred preloaded)
9.78,APPROACH,ILS_TRACK,68.99,73,4.01,2234.03,2.9,15.7,13.67,270.39,-0.326,0.783,0,13.05,1,0.6,4.5,0.75,0.35,0.0168,0.4,270.27,-6,0,1,2.39,0,0,7.59,270.25,0.8483,0.0045,0.5295,7.66,270.27,2.76,426.88,33.146,-0.129,0,0,0,0,271.29,0,0,0,0,0,0,0,0,0,0,0,0,0,1,1,0,0,VALID,0,0,0,0,0,1,0,0,0,0,0,0,0,0,0,0,0,0,0,0,110.37,367.07,2,0,0.1,0.1,115,11.54,0.1,0.06,9.78,FLYING,CF1-F,0:/Integrated Flight Computer/aircraft/cf1_f_cfg.ks (inferred preloaded)
10.04,APPROACH,ILS_TRACK,68.78,73,4.22,2234.87,3.18,16,13.77,270.38,-0.313,0.8183,0,14.13,1,0.6,4.5,0.75,0.35,0.0168,0.4,270.26,-6,0,1,2.62,0,0,7.74,270.27,0.8473,0.0044,0.5311,7.76,270.26,2.78,428.82,33.125,-0.138,0,0,0,0,271.29,0,0,0,0,0,0,0,0,0,0,0,0,0,1,1,0,0,VALID,0,0,0,0,0,1,0,0,0,0,0,0,0,0,0,0,0,0,0,0,113.17,367.18,2,0,0.08,0.08,118,11.54,0.1,0.08,10.04,FLYING,CF1-F,0:/Integrated Flight Computer/aircraft/cf1_f_cfg.ks (inferred preloaded)
10.3,APPROACH,ILS_TRACK,68.56,73,4.44,2235.78,3.44,16.24,13.82,270.37,-0.3,0.8534,0,15.265,1,0.6,4.5,0.75,0.35,0.0168,0.4,270.26,-6,0,1,2.86,0,0,7.8,270.27,0.8468,0.0043,0.5319,7.82,270.26,2.8,430.81,33.104,-0.139,0,0,0,0,271.29,0,0,0,0,0,0,0,0,0,0,0,0,0,1,1,0,0,VALID,0,0,0,0,0,1,0,0,0,0,0,0,0,0,0,0,0,0,0,0,116.14,367.28,2,0,0.1,0.1,121,11.54,0.1,0.06,10.3,FLYING,CF1-F,0:/Integrated Flight Computer/aircraft/cf1_f_cfg.ks (inferred preloaded)
10.56,APPROACH,ILS_TRACK,68.35,73,4.65,2236.75,3.68,16.49,13.88,270.36,-0.287,0.887,0,16.456,1,0.6,4.5,0.75,0.35,0.0168,0.4,270.27,-6,0,1,3.07,0,0,7.84,270.29,0.8464,0.0045,0.5326,7.87,270.27,2.81,432.87,33.083,-0.131,0,0,0,0,271.29,0,0,0,0,0,0,0,0,0,0,0,0,0,1,1,0,0,VALID,0,0,0,0,0,1,0,0,0,0,0,0,0,0,0,0,0,0,0,0,119.26,367.37,2,0,0.08,0.08,124,11.54,0.1,0.08,10.56,FLYING,CF1-F,0:/Integrated Flight Computer/aircraft/cf1_f_cfg.ks (inferred preloaded)
10.82,APPROACH,ILS_TRACK,68.14,73,4.86,2237.79,3.94,16.81,14.01,270.35,-0.276,0.9206,0,17.701,1,0.6,4.5,0.75,0.35,0.0168,0.4,270.29,-6,0,1,3.29,0,0,7.95,270.26,0.8451,0.0048,0.5345,8,270.29,2.82,435,33.062,-0.112,0,0,0,0,271.29,0,0,0,0,0,0,0,0,0,0,0,0,0,1,1,0,0,VALID,0,0,0,0,0,1,0,0,0,0,0,0,0,0,0,0,0,0,0,0,122.53,367.46,2,0,0.1,0.1,127,11.54,0.1,0.06,10.82,FLYING,CF1-F,0:/Integrated Flight Computer/aircraft/cf1_f_cfg.ks (inferred preloaded)
11.08,APPROACH,ILS_TRACK,67.93,73,5.07,2238.9,4.2,17.08,14.08,270.34,-0.262,0.9553,0,19,1,0.6,4.5,0.75,0.35,0.0168,0.4,270.28,-6,0,1,3.52,0,0,8.06,270.28,0.8444,0.0046,0.5357,8.08,270.28,2.83,437.18,33.041,-0.123,0,0,0,0,271.29,0,0,0,0,0,0,0,0,0,0,0,0,0,1,1,0,0,VALID,0,0,0,0,0,1,0,0,0,0,0,0,0,0,0,0,0,0,0,0,125.93,367.55,2,0,0.08,0.08,130,11.54,0.1,0.08,11.08,FLYING,CF1-F,0:/Integrated Flight Computer/aircraft/cf1_f_cfg.ks (inferred preloaded)
11.34,APPROACH,ILS_TRACK,67.73,73,5.27,2240.07,4.46,17.3,14.11,270.34,-0.249,0.9835,0,20,1,0.6,4.5,0.75,0.35,0.0168,0.4,270.29,-6,0,1,3.75,0,0,8.11,270.28,0.8441,0.0048,0.5361,8.11,270.29,2.83,439.43,33.021,-0.113,0,0,0,0,271.29,0,0,0,0,0,0,0,0,0,0,0,0,0,1,1,0,0,VALID,0,0,0,0,0,1,0,0,0,0,0,0,0,0,0,0,0,0,0,0,129.49,367.63,2,0,0.1,0.1,133,11.54,0.1,0.06,11.34,FLYING,CF1-F,0:/Integrated Flight Computer/aircraft/cf1_f_cfg.ks (inferred preloaded)
11.6,APPROACH,ILS_TRACK,67.53,73,5.47,2241.29,4.71,17.49,14.12,270.33,-0.236,0.992,0,20,1,0.6,4.5,0.75,0.35,0.0168,0.4,270.28,-6,0,1,3.97,0,0,8.12,270.3,0.8441,0.0047,0.5362,8.12,270.28,2.82,441.73,33,-0.119,0,0,0,0,271.29,0,0,0,0,0,0,0,0,0,0,0,0,0,1,1,0,0,VALID,0,0,0,0,0,1,0,0,0,0,0,0,0,0,0,0,0,0,0,0,133.11,367.71,2,0,0.08,0.08,136,11.54,0.1,0.08,11.6,FLYING,CF1-F,0:/Integrated Flight Computer/aircraft/cf1_f_cfg.ks (inferred preloaded)
11.86,APPROACH,ILS_TRACK,67.34,73,5.66,2242.58,4.94,17.67,14.12,270.32,-0.222,0.998,0,20,1,0.6,4.5,0.75,0.35,0.0168,0.4,270.28,-6,0,1,4.18,0,0,8.12,270.3,0.8441,0.0046,0.5361,8.12,270.28,2.82,444.09,32.98,-0.121,0,0,0,0,271.29,0,0,0,0,0,0,0,0,0,0,0,0,0,1,1,0,0,VALID,0,0,0,0,0,1,0,0,0,0,0,0,0,0,0,0,0,0,0,0,136.73,367.78,2,0,0.1,0.1,139,11.54,0.1,0.06,11.86,FLYING,CF1-F,0:/Integrated Flight Computer/aircraft/cf1_f_cfg.ks (inferred preloaded)
12.12,APPROACH,ILS_TRACK,67.15,73,5.85,2243.92,5.17,17.85,14.12,270.32,-0.208,0.9987,0,19.8,1,0.6,4.5,0.75,0.35,0.0168,0.4,270.3,-6,0,1,4.38,0,0,8.12,270.3,0.8441,0.005,0.5361,8.12,270.3,2.81,446.5,32.959,-0.103,0,0,0,0,271.29,0,0,0,0,0,0,0,0,0,0,0,0,0,1,1,0,0,VALID,0,0,0,0,0,1,0,0,0,0,0,0,0,0,0,0,0,0,0,0,140.32,367.84,2,0,0.08,0.08,142,11.54,0.1,0.08,12.12,FLYING,CF1-F,0:/Integrated Flight Computer/aircraft/cf1_f_cfg.ks (inferred preloaded)
12.38,APPROACH,ILS_TRACK,66.98,73,6.02,2245.33,5.38,18.01,14.12,270.32,-0.194,1,0,19.9,1,0.6,4.5,0.75,0.35,0.0168,0.4,270.32,-6,0,1,4.58,0,0,8.12,270.29,0.8442,0.0053,0.536,8.11,270.32,2.79,448.97,32.939,-0.082,0,0,0,0,271.29,0,0,0,0,0,0,0,0,0,0,0,0,0,1,1,0,0,VALID,0,0,0,0,0,1,0,0,0,0,0,0,0,0,0,0,0,0,0,0,143.86,367.89,2,0,0.1,0.1,145,11.54,0.1,0.06,12.38,FLYING,CF1-F,0:/Integrated Flight Computer/aircraft/cf1_f_cfg.ks (inferred preloaded)
12.64,APPROACH,ILS_TRACK,66.81,73,6.19,2246.78,5.59,18.16,14.1,270.31,-0.18,1,0,19.603,1,0.6,4.5,0.75,0.35,0.0168,0.4,270.3,-6,0,1,4.77,0,0,8.11,270.31,0.8443,0.005,0.5358,8.1,270.3,2.78,451.48,32.918,-0.099,0,0,0,0,271.29,0,0,0,0,0,0,0,0,0,0,0,0,0,1,1,0,0,VALID,0,0,0,0,0,1,0,0,0,0,0,0,0,0,0,0,0,0,0,0,147.35,367.94,2,0,0.08,0.08,148,11.54,0.1,0.08,12.64,FLYING,CF1-F,0:/Integrated Flight Computer/aircraft/cf1_f_cfg.ks (inferred preloaded)
12.9,APPROACH,ILS_TRACK,66.65,73,6.35,2248.28,5.79,18.3,14.09,270.31,-0.167,1,0,19.783,1,0.6,4.5,0.75,0.35,0.0168,0.4,270.32,-6,0,1,4.95,0,0,8.09,270.29,0.8445,0.0053,0.5356,8.09,270.32,2.76,454.05,32.898,-0.083,0,0,0,0,271.29,0,0,0,0,0,0,0,0,0,0,0,0,0,1,1,0,0,VALID,0,0,0,0,0,1,0,0,0,0,0,0,0,0,0,0,0,0,0,0,150.78,367.97,2,0,0.1,0.1,151,11.54,0.1,0.06,12.9,FLYING,CF1-F,0:/Integrated Flight Computer/aircraft/cf1_f_cfg.ks (inferred preloaded)
13.16,APPROACH,ILS_TRACK,66.49,73,6.51,2249.84,5.98,18.42,14.06,270.3,-0.154,0.9993,0,19.488,1,0.6,4.5,0.75,0.35,0.0168,0.4,270.31,-6,0,1,5.13,0,0,8.08,270.31,0.8447,0.0052,0.5352,8.07,270.31,2.74,456.66,32.878,-0.086,0,0,0,0,271.29,0,0,0,0,0,0,0,0,0,0,0,0,0,1,1,0,0,VALID,0,0,0,0,0,1,0,0,0,0,0,0,0,0,0,0,0,0,0,0,154.16,368,2,0,0.08,0.08,154,11.54,0.1,0.08,13.16,FLYING,CF1-F,0:/Integrated Flight Computer/aircraft/cf1_f_cfg.ks (inferred preloaded)
13.42,APPROACH,ILS_TRACK,66.35,73,6.65,2251.43,6.15,18.54,14.04,270.3,-0.141,1,0,19.8,1,0.6,4.5,0.75,0.35,0.0168,0.4,270.33,-6,0,1,5.29,0,0,8.05,270.32,0.8449,0.0055,0.5349,8.04,270.33,2.71,459.31,32.858,-0.072,0,0,0,0,271.29,0,0,0,0,0,0,0,0,0,0,0,0,0,1,1,0,0,VALID,0,0,0,0,0,1,0,0,0,0,0,0,0,0,0,0,0,0,0,0,157.48,368.03,2,0,0.1,0.1,157,11.54,0.1,0.06,13.42,FLYING,CF1-F,0:/Integrated Flight Computer/aircraft/cf1_f_cfg.ks (inferred preloaded)
13.68,APPROACH,ILS_TRACK,66.21,73,6.79,2253.08,6.32,18.66,14.03,270.3,-0.127,1,0,20,1,0.6,4.5,0.75,0.35,0.0168,0.4,270.31,-6,0,1,5.44,0,0,8.04,270.32,0.8451,0.0052,0.5347,8.03,270.31,2.69,462.01,32.837,-0.086,0,0,0,0,271.29,0,0,0,0,0,0,0,0,0,0,0,0,0,1,1,0,0,VALID,0,0,0,0,0,1,0,0,0,0,0,0,0,0,0,0,0,0,0,0,160.75,368.04,2,0,0.08,0.08,160,11.54,0.1,0.08,13.68,FLYING,CF1-F,0:/Integrated Flight Computer/aircraft/cf1_f_cfg.ks (inferred preloaded)
13.94,APPROACH,ILS_TRACK,66.09,73,6.91,2254.76,6.49,18.76,14,270.3,-0.115,0.9985,0,19.701,1,0.6,4.5,0.75,0.35,0.0168,0.4,270.33,-6,0,1,5.6,0,0,8.02,270.3,0.8453,0.0056,0.5342,8,270.33,2.66,464.75,32.817,-0.067,0,0,0,0,271.29,0,0,0,0,0,0,0,0,0,0,0,0,0,1,1,0,0,VALID,0,0,0,0,0,1,0,0,0,0,0,0,0,0,0,0,0,0,0,0,163.96,368.05,2,0,0.1,0.1,163,11.54,0.1,0.06,13.94,FLYING,CF1-F,0:/Integrated Flight Computer/aircraft/cf1_f_cfg.ks (inferred preloaded)
14.2,APPROACH,ILS_TRACK,65.97,73,7.03,2256.49,6.64,18.86,13.97,270.29,-0.104,1,0,20,1,0.6,4.5,0.75,0.35,0.0168,0.4,270.31,-6,0,1,5.74,0,0,7.99,270.33,0.8456,0.0052,0.5338,7.98,270.31,2.64,467.52,32.797,-0.087,0,0,0,0,271.29,0,0,0,0,0,0,0,0,0,0,0,0,0,1,1,0,0,VALID,0,0,0,0,0,1,0,0,0,0,0,0,0,0,0,0,0,0,0,0,167.12,368.05,2,0,0.08,0.08,166,11.54,0.1,0.08,14.2,FLYING,CF1-F,0:/Integrated Flight Computer/aircraft/cf1_f_cfg.ks (inferred preloaded)
14.46,APPROACH,ILS_TRACK,65.85,73,7.15,2258.25,6.79,18.94,13.94,270.29,-0.093,0.9974,0,20,1,0.6,4.5,0.75,0.35,0.0168,0.4,270.33,-6,0,1,5.88,0,0,7.96,270.31,0.8459,0.0055,0.5333,7.94,270.33,2.6,470.33,32.777,-0.069,0,0,0,0,271.29,0,0,0,0,0,0,0,0,0,0,0,0,0,1,1,0,0,VALID,0,0,0,0,0,1,0,0,0,0,0,0,0,0,0,0,0,0,0,0,170.23,368.04,2,0,0.1,0.1,169,11.54,0.1,0.06,14.46,FLYING,CF1-F,0:/Integrated Flight Computer/aircraft/cf1_f_cfg.ks (inferred preloaded)
14.72,APPROACH,ILS_TRACK,65.75,73,7.25,2260.05,6.93,19.03,13.92,270.29,-0.081,0.9934,0,20,1,0.6,4.5,0.75,0.35,0.0168,0.4,270.32,-6,0,1,6.01,0,0,7.93,270.34,0.8462,0.0054,0.5329,7.92,270.32,2.57,473.18,32.757,-0.075,0,0,0,0,271.29,0,0,0,0,0,0,0,0,0,0,0,0,0,1,1,0,0,VALID,0,0,0,0,0,1,0,0,0,0,0,0,0,0,0,0,0,0,0,0,173.26,368.03,2,0,0.08,0.08,172,11.54,0.1,0.08,14.72,FLYING,CF1-F,0:/Integrated Flight Computer/aircraft/cf1_f_cfg.ks (inferred preloaded)
14.98,APPROACH,ILS_TRACK,65.66,73,7.34,2261.88,7.06,19.1,13.88,270.29,-0.07,0.9889,0,20,1,0.6,4.5,0.75,0.35,0.0168,0.4,270.33,-6,0,1,6.13,0,0,7.9,270.32,0.8465,0.0055,0.5324,7.89,270.33,2.54,476.05,32.737,-0.072,0,0,0,0,271.29,0,0,0,0,0,0,0,0,0,0,0,0,0,1,1,0,0,VALID,0,0,0,0,0,1,0,0,0,0,0,0,0,0,0,0,0,0,0,0,176.23,368.01,2,0,0.1,0.1,175,11.54,0.1,0.06,14.98,FLYING,CF1-F,0:/Integrated Flight Computer/aircraft/cf1_f_cfg.ks (inferred preloaded)
15.24,APPROACH,ILS_TRACK,65.57,73,7.43,2263.75,7.19,19.17,13.86,270.29,-0.06,0.9839,0,20,1,0.6,4.5,0.75,0.35,0.0168,0.4,270.35,-6,0,1,6.25,0,0,7.87,270.32,0.8468,0.0058,0.5319,7.86,270.35,2.5,478.96,32.717,-0.052,0,0,0,0,271.29,0,0,0,0,0,0,0,0,0,0,0,0,0,1,1,0,0,VALID,0,0,0,0,0,1,0,0,0,0,0,0,0,0,0,0,0,0,0,0,179.12,367.98,2,0,0.08,0.08,178,11.54,0.1,0.08,15.24,FLYING,CF1-F,0:/Integrated Flight Computer/aircraft/cf1_f_cfg.ks (inferred preloaded)
15.5,APPROACH,ILS_TRACK,65.49,73,7.51,2265.64,7.31,19.23,13.82,270.29,-0.049,0.9785,0,20,1,0.6,4.5,0.75,0.35,0.0168,0.4,270.33,-6,0,1,6.36,0,0,7.84,270.35,0.8471,0.0055,0.5314,7.82,270.33,2.47,481.9,32.697,-0.073,0,0,0,0,271.29,0,0,0,0,0,0,0,0,0,0,0,0,0,1,1,0,0,VALID,0,0,0,0,0,1,0,0,0,0,0,0,0,0,0,0,0,0,0,0,181.93,367.95,2,0,0.1,0.1,181,11.54,0.1,0.06,15.5,FLYING,CF1-F,0:/Integrated Flight Computer/aircraft/cf1_f_cfg.ks (inferred preloaded)
15.76,APPROACH,ILS_TRACK,65.42,73,7.58,2267.57,7.43,19.29,13.78,270.29,-0.039,0.9726,0,20,1,0.6,4.5,0.75,0.35,0.0168,0.4,270.34,-6,0,1,6.47,0,0,7.8,270.34,0.8475,0.0057,0.5308,7.79,270.34,2.43,484.87,32.677,-0.062,0,0,0,0,271.29,0,0,0,0,0,0,0,0,0,0,0,0,0,1,1,0,0,VALID,0,0,0,0,0,1,0,0,0,0,0,0,0,0,0,0,0,0,0,0,184.66,367.91,2,0,0.08,0.08,184,11.54,0.1,0.08,15.76,FLYING,CF1-F,0:/Integrated Flight Computer/aircraft/cf1_f_cfg.ks (inferred preloaded)
16.02,APPROACH,ILS_TRACK,65.36,73,7.64,2269.52,7.54,19.34,13.74,270.29,-0.03,0.9664,0,20,1,0.6,4.5,0.75,0.35,0.0168,0.4,270.35,-6,0,1,6.57,0,0,7.76,270.34,0.8478,0.006,0.5302,7.75,270.35,2.39,487.87,32.657,-0.046,0,0,0,0,271.29,0,0,0,0,0,0,0,0,0,0,0,0,0,1,1,0,0,VALID,0,0,0,0,0,1,0,0,0,0,0,0,0,0,0,0,0,0,0,0,187.31,367.86,2,0,0.1,0.1,187,11.54,0.1,0.06,16.02,FLYING,CF1-F,0:/Integrated Flight Computer/aircraft/cf1_f_cfg.ks (inferred preloaded)
16.28,APPROACH,ILS_TRACK,65.3,73,7.7,2271.51,7.64,19.38,13.7,270.29,-0.022,0.9597,0,20,1,0.6,4.5,0.75,0.35,0.0168,0.4,270.33,-6,0,1,6.67,0,0,7.72,270.35,0.8483,0.0056,0.5296,7.71,270.33,2.36,490.89,32.638,-0.067,0,0,0,0,271.29,0,0,0,0,0,0,0,0,0,0,0,0,0,1,1,0,0,VALID,0,0,0,0,0,1,0,0,0,0,0,0,0,0,0,0,0,0,0,0,189.88,367.81,2,0,0.08,0.08,190,11.54,0.1,0.08,16.28,FLYING,CF1-F,0:/Integrated Flight Computer/aircraft/cf1_f_cfg.ks (inferred preloaded)
16.54,APPROACH,ILS_TRACK,65.25,73,7.75,2273.51,7.74,19.41,13.66,270.29,-0.014,0.9525,0,20,1,0.6,4.5,0.75,0.35,0.0168,0.4,270.33,-6,0,1,6.76,0,0,7.68,270.35,0.8487,0.0056,0.5288,7.66,270.33,2.32,493.93,32.618,-0.066,0,0,0,0,271.29,0,0,0,0,0,0,0,0,0,0,0,0,0,1,1,0,0,VALID,0,0,0,0,0,1,0,0,0,0,0,0,0,0,0,0,0,0,0,0,192.37,367.75,2,0,0.1,0.1,193,11.54,0.1,0.06,16.54,FLYING,CF1-F,0:/Integrated Flight Computer/aircraft/cf1_f_cfg.ks (inferred preloaded)
16.8,APPROACH,ILS_TRACK,65.21,73,7.79,2275.54,7.84,19.43,13.61,270.29,-0.006,0.9449,0,20,1,0.6,4.5,0.75,0.35,0.0168,0.4,270.34,-6,0,1,6.85,0,0,7.63,270.34,0.8492,0.0058,0.5281,7.61,270.34,2.28,497,32.598,-0.057,0,0,0,0,271.29,0,0,0,0,0,0,0,0,0,0,0,0,0,1,1,0,0,VALID,0,0,0,0,0,1,0,0,0,0,0,0,0,0,0,0,0,0,0,0,194.78,367.68,2,0,0.08,0.08,196,11.54,0.1,0.08,16.8,FLYING,CF1-F,0:/Integrated Flight Computer/aircraft/cf1_f_cfg.ks (inferred preloaded)
17.06,APPROACH,ILS_TRACK,65.18,73,7.82,2277.6,7.93,19.45,13.56,270.29,0.001,0.9369,0,20,1,0.6,4.5,0.75,0.35,0.0168,0.4,270.34,-6,0,1,6.93,0,0,7.58,270.34,0.8496,0.0058,0.5273,7.56,270.34,2.24,500.1,32.578,-0.055,0,0,0,0,271.29,0,0,0,0,0,0,0,0,0,0,0,0,0,1,1,0,0,VALID,0,0,0,0,0,1,0,0,0,0,0,0,0,0,0,0,0,0,0,0,197.09,367.61,2,0,0.1,0.1,199,11.54,0.1,0.06,17.06,FLYING,CF1-F,0:/Integrated Flight Computer/aircraft/cf1_f_cfg.ks (inferred preloaded)
17.32,APPROACH,ILS_TRACK,65.16,73,7.84,2279.67,8.01,19.47,13.51,270.29,0.007,0.9285,0,20,1,0.6,4.5,0.75,0.35,0.0168,0.4,270.33,-6,0,1,7.01,0,0,7.53,270.36,0.8501,0.0055,0.5266,7.51,270.33,2.21,503.21,32.558,-0.073,0,0,0,0,271.29,0,0,0,0,0,0,0,0,0,0,0,0,0,1,1,0,0,VALID,0,0,0,0,0,1,0,0,0,0,0,0,0,0,0,0,0,0,0,0,199.33,367.54,2,0,0.08,0.08,202,11.54,0.1,0.08,17.32,FLYING,CF1-F,0:/Integrated Flight Computer/aircraft/cf1_f_cfg.ks (inferred preloaded)
17.58,APPROACH,ILS_TRACK,65.14,73,7.86,2281.77,8.09,19.48,13.45,270.29,0.013,0.9199,0,20,1,0.6,4.5,0.75,0.35,0.0168,0.4,270.35,-6,0,1,7.08,0,0,7.48,270.36,0.8506,0.0059,0.5258,7.46,270.35,2.17,506.34,32.538,-0.05,0,0,0,0,271.29,0,0,0,0,0,0,0,0,0,0,0,0,0,1,1,0,0,VALID,0,0,0,0,0,1,0,0,0,0,0,0,0,0,0,0,0,0,0,0,201.47,367.45,2,0,0.1,0.1,205,11.54,0.1,0.06,17.58,FLYING,CF1-F,0:/Integrated Flight Computer/aircraft/cf1_f_cfg.ks (inferred preloaded)
17.84,APPROACH,ILS_TRACK,65.13,73,7.87,2283.89,8.17,19.48,13.4,270.29,0.02,0.911,0,20,1,0.6,4.5,0.75,0.35,0.0168,0.4,270.35,-6,0,1,7.15,0,0,7.42,270.35,0.8511,0.0058,0.525,7.41,270.35,2.13,509.5,32.519,-0.054,0,0,0,0,271.29,0,0,0,0,0,0,0,0,0,0,0,0,0,1,1,0,0,VALID,0,0,0,0,0,1,0,0,0,0,0,0,0,0,0,0,0,0,0,0,203.53,367.36,2,0,0.08,0.08,208,11.54,0.1,0.08,17.84,FLYING,CF1-F,0:/Integrated Flight Computer/aircraft/cf1_f_cfg.ks (inferred preloaded)
18.1,APPROACH,ILS_TRACK,65.13,73,7.87,2286.02,8.24,19.48,13.34,270.29,0.025,0.9018,0,20,1,0.6,4.5,0.75,0.35,0.0168,0.4,270.34,-6,0,1,7.21,0,0,7.37,270.35,0.8517,0.0058,0.5241,7.35,270.34,2.09,512.67,32.499,-0.058,0,0,0,0,271.29,0,0,0,0,0,0,0,0,0,0,0,0,0,1,1,0,0,VALID,0,0,0,0,0,1,0,0,0,0,0,0,0,0,0,0,0,0,0,0,205.5,367.27,2,0,0.1,0.1,211,11.54,0.1,0.06,18.1,FLYING,CF1-F,0:/Integrated Flight Computer/aircraft/cf1_f_cfg.ks (inferred preloaded)
18.36,APPROACH,ILS_TRACK,65.13,73,7.87,2288.17,8.31,19.47,13.29,270.3,0.03,0.8923,0,20,1,0.6,4.5,0.75,0.35,0.0168,0.4,270.35,-6,0,1,7.27,0,0,7.31,270.35,0.8522,0.006,0.5232,7.29,270.35,2.05,515.86,32.479,-0.047,0,0,0,0,271.29,0,0,0,0,0,0,0,0,0,0,0,0,0,1,1,0,0,VALID,0,0,0,0,0,1,0,0,0,0,0,0,0,0,0,0,0,0,0,0,207.38,367.17,2,0,0.08,0.08,214,11.54,0.1,0.08,18.36,FLYING,CF1-F,0:/Integrated Flight Computer/aircraft/cf1_f_cfg.ks (inferred preloaded)
18.62,APPROACH,ILS_TRACK,65.14,73,7.86,2290.34,8.37,19.46,13.23,270.3,0.034,0.8826,0,20,1,0.6,4.5,0.75,0.35,0.0168,0.4,270.37,-6,0,1,7.32,0,0,7.26,270.36,0.8528,0.0062,0.5223,7.23,270.37,2,519.07,32.459,-0.033,0,0,0,0,271.29,0,0,0,0,0,0,0,0,0,0,0,0,0,1,1,0,0,VALID,0,0,0,0,0,1,0,0,0,0,0,0,0,0,0,0,0,0,0,0,209.17,367.07,2,0,0.1,0.1,217,11.54,0.1,0.06,18.62,FLYING,CF1-F,0:/Integrated Flight Computer/aircraft/cf1_f_cfg.ks (inferred preloaded)
18.88,APPROACH,ILS_TRACK,65.15,73,7.85,2292.52,8.43,19.44,13.17,270.3,0.038,0.8726,0,20,1,0.6,4.5,0.75,0.35,0.0168,0.4,270.37,-6,0,1,7.37,0,0,7.19,270.36,0.8533,0.0062,0.5214,7.17,270.37,1.97,522.29,32.439,-0.03,0,0,0,0,271.29,0,0,0,0,0,0,0,0,0,0,0,0,0,1,1,0,0,VALID,0,0,0,0,0,1,0,0,0,0,0,0,0,0,0,0,0,0,0,0,210.88,366.96,2,0,0.08,0.08,220,11.54,0.1,0.08,18.88,FLYING,CF1-F,0:/Integrated Flight Computer/aircraft/cf1_f_cfg.ks (inferred preloaded)
19.14,APPROACH,ILS_TRACK,65.18,73,7.82,2294.72,8.49,19.41,13.1,270.3,0.043,0.8624,0,20,1,0.6,4.5,0.75,0.35,0.0168,0.4,270.36,-6,0,1,7.42,0,0,7.13,270.37,0.8539,0.0061,0.5204,7.11,270.36,1.92,525.52,32.419,-0.038,0,0,0,0,271.29,0,0,0,0,0,0,0,0,0,0,0,0,0,1,1,0,0,VALID,0,0,0,0,0,1,0,0,0,0,0,0,0,0,0,0,0,0,0,0,212.5,366.85,2,0,0.1,0.1,223,11.54,0.1,0.06,19.14,FLYING,CF1-F,0:/Integrated Flight Computer/aircraft/cf1_f_cfg.ks (inferred preloaded)
19.4,APPROACH,ILS_TRACK,65.2,73,7.8,2296.93,8.54,19.39,13.04,270.3,0.046,0.852,0,20,1,0.6,4.5,0.75,0.35,0.0168,0.4,270.37,-6,0,1,7.46,0,0,7.07,270.35,0.8545,0.0063,0.5194,7.05,270.37,1.89,528.77,32.399,-0.025,0,0,0,0,271.29,0,0,0,0,0,0,0,0,0,0,0,0,0,1,1,0,0,VALID,0,0,0,0,0,1,0,0,0,0,0,0,0,0,0,0,0,0,0,0,214.03,366.73,2,0,0.08,0.08,226,11.54,0.1,0.08,19.4,FLYING,CF1-F,0:/Integrated Flight Computer/aircraft/cf1_f_cfg.ks (inferred preloaded)
19.66,APPROACH,ILS_TRACK,65.24,73,7.76,2299.15,8.59,19.35,12.98,270.3,0.05,0.8414,0,20,1,0.6,4.5,0.75,0.35,0.0168,0.4,270.36,-6,0,1,7.5,0,0,7.01,270.36,0.8551,0.0061,0.5184,6.98,270.36,1.85,532.03,32.38,-0.036,0,0,0,0,271.29,0,0,0,0,0,0,0,0,0,0,0,0,0,1,1,0,0,VALID,0,0,0,0,0,1,0,0,0,0,0,0,0,0,0,0,0,0,0,0,215.47,366.61,2,0,0.1,0.1,229,11.54,0.1,0.06,19.66,FLYING,CF1-F,0:/Integrated Flight Computer/aircraft/cf1_f_cfg.ks (inferred preloaded)
19.92,APPROACH,ILS_TRACK,65.28,73,7.72,2301.38,8.64,19.31,12.9,270.3,0.052,0.8307,0,20,1,0.6,4.5,0.75,0.35,0.0168,0.4,270.38,-6,0,1,7.53,0,0,6.93,270.35,0.8557,0.0064,0.5174,6.91,270.38,1.81,535.31,32.36,-0.024,0,0,0,0,271.29,0,0,0,0,0,0,0,0,0,0,0,0,0,1,1,0,0,VALID,0,0,0,0,0,1,0,0,0,0,0,0,0,0,0,0,0,0,0,0,216.83,366.48,2,0,0.08,0.08,232,11.54,0.1,0.08,19.92,FLYING,CF1-F,0:/Integrated Flight Computer/aircraft/cf1_f_cfg.ks (inferred preloaded)
20.18,APPROACH,ILS_TRACK,65.32,73,7.68,2303.62,8.68,19.25,12.82,270.3,0.053,0.8197,0,20,1,0.6,4.5,0.75,0.35,0.0168,0.4,270.37,-6,0,1,7.56,0,0,6.86,270.38,0.8566,0.0063,0.516,6.82,270.37,1.76,538.59,32.34,-0.026,0,0,0,0,271.29,0,0,0,0,0,0,0,0,0,0,0,0,0,1,1,0,0,VALID,0,0,0,0,0,1,0,0,0,0,0,0,0,0,0,0,0,0,0,0,218.09,366.35,2,0,0.1,0.1,235,11.54,0.1,0.06,20.18,FLYING,CF1-F,0:/Integrated Flight Computer/aircraft/cf1_f_cfg.ks (inferred preloaded)
20.44,APPROACH,ILS_TRACK,65.38,73,7.62,2305.87,8.71,19.17,12.72,270.31,0.053,0.8077,0,20,1,0.6,4.5,0.75,0.35,0.0168,0.4,270.36,-6,0,1,7.59,0,0,6.76,270.37,0.8574,0.0061,0.5146,6.73,270.36,1.73,541.88,32.32,-0.038,0,0,0,0,271.29,0,0,0,0,0,0,0,0,0,0,0,0,0,1,1,0,0,VALID,0,0,0,0,0,1,0,0,0,0,0,0,0,0,0,0,0,0,0,0,219.27,366.22,2,0,0.08,0.08,238,11.54,0.1,0.08,20.44,FLYING,CF1-F,0:/Integrated Flight Computer/aircraft/cf1_f_cfg.ks (inferred preloaded)
20.7,APPROACH,ILS_TRACK,65.44,73,7.56,2308.13,8.73,19.11,12.64,270.31,0.053,0.7953,0,20,1,0.6,4.5,0.75,0.35,0.0168,0.4,270.37,-6,0,1,7.6,0,0,6.68,270.38,0.8581,0.0062,0.5134,6.65,270.37,1.7,545.18,32.3,-0.033,0,0,0,0,271.29,0,0,0,0,0,0,0,0,0,0,0,0,0,1,1,0,0,VALID,0,0,0,0,0,1,0,0,0,0,0,0,0,0,0,0,0,0,0,0,220.36,366.08,2,0,0.1,0.1,241,11.54,0.1,0.06,20.7,FLYING,CF1-F,0:/Integrated Flight Computer/aircraft/cf1_f_cfg.ks (inferred preloaded)
20.96,APPROACH,ILS_TRACK,65.5,73,7.5,2310.39,8.75,19.05,12.58,270.31,0.052,0.7828,0,20,1,0.6,4.5,0.75,0.35,0.0168,0.4,270.37,-6,0,1,7.61,0,0,6.6,270.36,0.8588,0.0063,0.5123,6.58,270.37,1.66,548.49,32.28,-0.029,0,0,0,0,271.29,0,0,0,0,0,0,0,0,0,0,0,0,0,1,1,0,0,VALID,0,0,0,0,0,1,0,0,0,0,0,0,0,0,0,0,0,0,0,0,221.36,365.94,2,0,0.08,0.08,244,11.54,0.1,0.08,20.96,FLYING,CF1-F,0:/Integrated Flight Computer/aircraft/cf1_f_cfg.ks (inferred preloaded)
21.22,APPROACH,ILS_TRACK,65.57,73,7.43,2312.66,8.77,18.99,12.52,270.31,0.05,0.7707,0,20,1,0.6,4.5,0.75,0.35,0.0168,0.4,270.36,-6,0,1,7.62,0,0,6.54,270.38,0.8593,0.0061,0.5114,6.52,270.36,1.62,551.81,32.26,-0.037,0,0,0,0,271.29,0,0,0,0,0,0,0,0,0,0,0,0,0,1,1,0,0,VALID,0,0,0,0,0,1,0,0,0,0,0,0,0,0,0,0,0,0,0,0,222.27,365.79,2,0,0.1,0.1,247,11.54,0.1,0.06,21.22,FLYING,CF1-F,0:/Integrated Flight Computer/aircraft/cf1_f_cfg.ks (inferred preloaded)
21.48,APPROACH,ILS_TRACK,65.64,73,7.36,2314.94,8.79,18.95,12.47,270.31,0.047,0.759,0,20,1,0.6,4.5,0.75,0.35,0.0168,0.4,270.37,-6,0,1,7.63,0,0,6.49,270.37,0.8598,0.0062,0.5106,6.47,270.37,1.58,555.13,32.24,-0.035,0,0,0,0,271.29,0,0,0,0,0,0,0,0,0,0,0,0,0,1,1,0,0,VALID,0,0,0,0,0,1,0,0,0,0,0,0,0,0,0,0,0,0,0,0,223.09,365.64,2,0,0.08,0.08,250,11.54,0.1,0.08,21.48,FLYING,CF1-F,0:/Integrated Flight Computer/aircraft/cf1_f_cfg.ks (inferred preloaded)
21.74,APPROACH,ILS_TRACK,65.72,73,7.28,2317.22,8.81,18.9,12.42,270.31,0.044,0.748,0,20,1,0.6,4.5,0.75,0.35,0.0168,0.4,270.38,-6,0,1,7.64,0,0,6.44,270.39,0.8603,0.0065,0.5098,6.42,270.38,1.54,558.46,32.22,-0.016,0,0,0,0,271.29,0,0,0,0,0,0,0,0,0,0,0,0,0,1,1,0,0,VALID,0,0,0,0,0,1,0,0,0,0,0,0,0,0,0,0,0,0,0,0,223.83,365.49,2,0,0.1,0.1,253,11.54,0.1,0.06,21.74,FLYING,CF1-F,0:/Integrated Flight Computer/aircraft/cf1_f_cfg.ks (inferred preloaded)
22,APPROACH,ILS_TRACK,65.8,73,7.2,2319.51,8.83,18.86,12.37,270.31,0.043,0.7373,0,20,1,0.6,4.5,0.75,0.35,0.0168,0.4,270.39,-6,0,1,7.64,0,0,6.39,270.37,0.8607,0.0066,0.509,6.37,270.39,1.5,561.8,32.2,-0.009,0,0,0,0,271.29,0,0,0,0,0,0,0,0,0,0,0,0,0,1,1,0,0,VALID,0,0,0,0,0,1,0,0,0,0,0,0,0,0,0,0,0,0,0,0,224.49,365.34,2,0,0.08,0.08,256,11.54,0.1,0.08,22,FLYING,CF1-F,0:/Integrated Flight Computer/aircraft/cf1_f_cfg.ks (inferred preloaded)
22.26,APPROACH,ILS_TRACK,65.88,73,7.12,2321.8,8.85,18.81,12.31,270.31,0.043,0.7269,0,20,1,0.6,4.5,0.75,0.35,0.0168,0.4,270.38,-6,0,1,7.65,0,0,6.34,270.39,0.8612,0.0065,0.5082,6.32,270.38,1.47,565.14,32.18,-0.017,0,0,0,0,271.29,0,0,0,0,0,0,0,0,0,0,0,0,0,1,1,0,0,VALID,0,0,0,0,0,1,0,0,0,0,0,0,0,0,0,0,0,0,0,0,225.08,365.18,2,0,0.1,0.1,259,11.54,0.1,0.06,22.26,FLYING,CF1-F,0:/Integrated Flight Computer/aircraft/cf1_f_cfg.ks (inferred preloaded)
22.52,APPROACH,ILS_TRACK,65.97,73,7.03,2324.09,8.87,18.75,12.25,270.31,0.042,0.7165,0,20,1,0.6,4.5,0.75,0.35,0.0168,0.4,270.38,-6,0,1,7.65,0,0,6.28,270.38,0.8618,0.0065,0.5073,6.26,270.38,1.43,568.49,32.16,-0.018,0,0,0,0,271.29,0,0,0,0,0,0,0,0,0,0,0,0,0,1,1,0,0,VALID,0,0,0,0,0,1,0,0,0,0,0,0,0,0,0,0,0,0,0,0,225.6,365.02,2,0,0.08,0.08,262,11.54,0.1,0.08,22.52,FLYING,CF1-F,0:/Integrated Flight Computer/aircraft/cf1_f_cfg.ks (inferred preloaded)
22.78,APPROACH,ILS_TRACK,66.06,73,6.94,2326.39,8.88,18.69,12.19,270.31,0.042,0.7062,0,20,1,0.6,4.5,0.75,0.35,0.0168,0.4,270.38,-6,0,1,7.66,0,0,6.22,270.39,0.8623,0.0065,0.5063,6.19,270.38,1.39,571.84,32.14,-0.02,0,0,0,0,271.29,0,0,0,0,0,0,0,0,0,0,0,0,0,1,1,0,0,VALID,0,0,0,0,0,1,0,0,0,0,0,0,0,0,0,0,0,0,0,0,226.04,364.86,2,0,0.1,0.1,265,11.54,0.1,0.06,22.78,FLYING,CF1-F,0:/Integrated Flight Computer/aircraft/cf1_f_cfg.ks (inferred preloaded)
23.04,APPROACH,ILS_TRACK,66.15,73,6.85,2328.69,8.9,18.62,12.12,270.31,0.043,0.6956,0,20,1,0.6,4.5,0.75,0.35,0.0168,0.4,270.39,-6,0,1,7.66,0,0,6.15,270.39,0.863,0.0066,0.5052,6.13,270.39,1.35,575.2,32.12,-0.013,0,0,0,0,271.29,0,0,0,0,0,0,0,0,0,0,0,0,0,1,1,0,0,VALID,0,0,0,0,0,1,0,0,0,0,0,0,0,0,0,0,0,0,0,0,226.42,364.7,2,0,0.08,0.08,268,11.54,0.1,0.08,23.04,FLYING,CF1-F,0:/Integrated Flight Computer/aircraft/cf1_f_cfg.ks (inferred preloaded)
23.3,APPROACH,ILS_TRACK,66.24,73,6.76,2330.99,8.91,18.54,12.04,270.31,0.045,0.685,0,20,1,0.6,4.5,0.75,0.35,0.0168,0.4,270.36,-6,0,1,7.66,0,0,6.08,270.38,0.8637,0.0062,0.504,6.05,270.36,1.33,578.56,32.099,-0.036,0,0,0,0,271.29,0,0,0,0,0,0,0,0,0,0,0,0,0,1,1,0,0,VALID,0,0,0,0,0,1,0,0,0,0,0,0,0,0,0,0,0,0,0,0,226.73,364.54,2,0,0.1,0.1,271,11.54,0.1,0.06,23.3,FLYING,CF1-F,0:/Integrated Flight Computer/aircraft/cf1_f_cfg.ks (inferred preloaded)
23.56,APPROACH,ILS_TRACK,66.34,73,6.66,2333.29,8.91,18.45,11.96,270.31,0.047,0.6738,0,20,1,0.6,4.5,0.75,0.35,0.0168,0.4,270.38,-5.964,0,1,7.65,0,0,6,270.39,0.8641,0.0065,0.5033,6,270.38,1.29,581.92,32.079,-0.016,0,0,0,0,271.29,0,0,0,0,0,0,0,0,0,0,0,0,0,1,1,0,0,VALID,0,0,0,0,0,1,0,0,0,0,0,0,0,0,0,0,0,0,0,0,226.97,364.37,2,0,0.08,0.08,274,11.54,0.1,0.08,23.56,FLYING,CF1-F,0:/Integrated Flight Computer/aircraft/cf1_f_cfg.ks (inferred preloaded)
23.82,APPROACH,ILS_TRACK,66.44,73,6.56,2335.59,8.91,18.38,11.89,270.31,0.051,0.6622,0,20,1,0.6,4.5,0.75,0.35,0.0168,0.4,270.38,-5.926,0,1,7.64,0,0,6,270.38,0.8644,0.0065,0.5028,5.97,270.38,1.25,585.29,32.059,-0.016,0,0,0,0,271.29,0,0,0,0,0,0,0,0,0,0,0,0,0,1,1,0,0,VALID,0,0,0,0,0,1,0,0,0,0,0,0,0,0,0,0,0,0,0,0,227.14,364.2,2,0,0.1,0.1,277,11.54,0.1,0.06,23.82,FLYING,CF1-F,0:/Integrated Flight Computer/aircraft/cf1_f_cfg.ks (inferred preloaded)
24.08,APPROACH,ILS_TRACK,66.55,73,6.45,2337.9,8.92,18.29,11.82,270.31,0.055,0.6511,0,20,1,0.6,4.5,0.75,0.35,0.0168,0.4,270.39,-5.943,0,1,7.63,0,0,5.91,270.39,0.8652,0.0066,0.5014,5.88,270.39,1.21,588.65,32.039,-0.012,0,0,0,0,271.29,0,0,0,0,0,0,0,0,0,0,0,0,0,1,1,0,0,VALID,0,0,0,0,0,1,0,0,0,0,0,0,0,0,0,0,0,0,0,0,227.24,364.03,2,0,0.08,0.08,280,11.54,0.1,0.08,24.08,FLYING,CF1-F,0:/Integrated Flight Computer/aircraft/cf1_f_cfg.ks (inferred preloaded)
24.34,APPROACH,ILS_TRACK,66.66,73,6.34,2340.2,8.91,18.19,11.73,270.32,0.061,0.6399,0,20,1,0.6,4.5,0.75,0.35,0.0168,0.4,270.39,-5.96,0,1,7.62,0,0,5.82,270.39,0.8661,0.0067,0.4999,5.78,270.39,1.17,592.02,32.018,-0.008,0,0,0,0,271.29,0,0,0,0,0,0,0,0,0,0,0,0,0,1,1,0,0,VALID,0,0,0,0,0,1,0,0,0,0,0,0,0,0,0,0,0,0,0,0,227.28,363.86,2,0,0.1,0.1,283,11.54,0.1,0.06,24.34,FLYING,CF1-F,0:/Integrated Flight Computer/aircraft/cf1_f_cfg.ks (inferred preloaded)
24.6,APPROACH,ILS_TRACK,66.77,73,6.23,2342.5,8.9,18.09,11.65,270.32,0.065,0.6283,0,20,1,0.6,4.5,0.75,0.35,0.0168,0.4,270.39,-5.977,0,1,7.6,0,0,5.71,270.38,0.867,0.0067,0.4983,5.68,270.39,1.14,595.39,31.998,-0.009,0,0,0,0,271.29,0,0,0,0,0,0,0,0,0,0,0,0,0,1,1,0,0,VALID,0,0,0,0,0,1,0,0,0,0,0,0,0,0,0,0,0,0,0,0,227.24,363.68,2,0,0.08,0.08,286,11.54,0.1,0.08,24.6,FLYING,CF1-F,0:/Integrated Flight Computer/aircraft/cf1_f_cfg.ks (inferred preloaded)
24.86,APPROACH,ILS_TRACK,66.88,73,6.12,2344.79,8.89,17.99,11.56,270.32,0.069,0.6165,0,20,1,0.6,4.5,0.75,0.35,0.0168,0.4,270.38,-5.994,0,1,7.57,0,0,5.62,270.38,0.8679,0.0066,0.4967,5.58,270.38,1.11,598.75,31.977,-0.016,0,0,0,0,271.29,0,0,0,0,0,0,0,0,0,0,0,0,0,1,1,0,0,VALID,0,0,0,0,0,1,0,0,0,0,0,0,0,0,0,0,0,0,0,0,227.12,363.51,2,0,0.1,0.1,289,11.54,0.1,0.06,24.86,FLYING,CF1-F,0:/Integrated Flight Computer/aircraft/cf1_f_cfg.ks (inferred preloaded)
25.12,APPROACH,ILS_TRACK,66.99,73,6.01,2347.08,8.87,17.88,11.48,270.32,0.072,0.6049,0,20,1,0.6,4.5,0.75,0.35,0.0168,0.4,270.38,-6,0,1,7.55,0,0,5.51,270.39,0.8687,0.0064,0.4953,5.48,270.38,1.08,602.12,31.957,-0.023,0,0,0,0,271.29,0,0,0,0,0,0,0,0,0,0,0,0,0,1,1,0,0,VALID,0,0,0,0,0,1,0,0,0,0,0,0,0,0,0,0,0,0,0,0,226.77,363.33,2,0,0.08,0.08,292,11.54,0.1,0.08,25.12,FLYING,CF1-F,0:/Integrated Flight Computer/aircraft/cf1_f_cfg.ks (inferred preloaded)
25.38,APPROACH,ILS_TRACK,67.11,73,5.89,2349.37,8.85,17.76,11.39,270.32,0.076,0.5933,0,20,1,0.6,4.5,0.75,0.35,0.0168,0.4,270.38,-6,0,1,7.51,0,0,5.43,270.4,0.8694,0.0065,0.494,5.4,270.38,1.04,605.48,31.936,-0.019,0,0,0,0,271.29,0,0,0,0,0,0,0,0,0,0,0,0,0,1,1,0,0,VALID,0,0,0,0,0,1,0,0,0,0,0,0,0,0,0,0,0,0,0,0,226.17,363.15,2,0,0.1,0.1,295,11.54,0.1,0.06,25.38,FLYING,CF1-F,0:/Integrated Flight Computer/aircraft/cf1_f_cfg.ks (inferred preloaded)
25.64,APPROACH,ILS_TRACK,67.23,73,5.77,2351.65,8.82,17.66,11.32,270.33,0.077,0.5825,0,20,1,0.6,4.5,0.75,0.35,0.0168,0.4,270.41,-6,0,1,7.48,0,0,5.35,270.39,0.8701,0.0069,0.4929,5.33,270.41,1,608.83,31.916,0.005,0,0,0,0,271.29,0,0,0,0,0,0,0,0,0,0,0,0,0,1,1,0,0,VALID,0,0,0,0,0,1,0,0,0,0,0,0,0,0,0,0,0,0,0,0,225.34,362.97,2,0,0.08,0.08,298,11.54,0.1,0.08,25.64,FLYING,CF1-F,0:/Integrated Flight Computer/aircraft/cf1_f_cfg.ks (inferred preloaded)
25.9,APPROACH,ILS_TRACK,67.35,73,5.65,2353.92,8.78,17.56,11.27,270.33,0.08,0.5728,0,20,1,0.6,4.5,0.75,0.35,0.0168,0.4,270.4,-6,0,1,7.43,0,0,5.29,270.4,0.8706,0.0068,0.4919,5.27,270.4,0.97,612.18,31.895,-0.004,0,0,0,0,271.29,0,0,0,0,0,0,0,0,0,0,0,0,0,1,1,0,0,VALID,0,0,0,0,0,1,0,0,0,0,0,0,0,0,0,0,0,0,0,0,224.31,362.8,2,0,0.1,0.1,301,11.54,0.1,0.06,25.9,FLYING,CF1-F,0:/Integrated Flight Computer/aircraft/cf1_f_cfg.ks (inferred preloaded)
26.16,APPROACH,ILS_TRACK,67.47,73,5.53,2356.19,8.75,17.48,11.21,270.33,0.082,0.5645,0,20,1,0.6,4.5,0.75,0.35,0.0168,0.4,270.4,-6,0,1,7.39,0,0,5.23,270.39,0.8711,0.0068,0.4911,5.22,270.4,0.94,615.53,31.875,0,0,0,0,0,271.29,0,0,0,0,0,0,0,0,0,0,0,0,0,1,1,0,0,VALID,0,0,0,0,0,1,0,0,0,0,0,0,0,0,0,0,0,0,0,0,223.13,362.62,2,0,0.08,0.08,304,11.54,0.1,0.08,26.16,FLYING,CF1-F,0:/Integrated Flight Computer/aircraft/cf1_f_cfg.ks (inferred preloaded)
26.42,APPROACH,ILS_TRACK,67.58,73,5.42,2358.44,8.72,17.39,11.17,270.33,0.086,0.5574,0,20,1,0.6,4.5,0.75,0.35,0.0168,0.4,270.37,-6,0,1,7.35,0,0,5.19,270.42,0.8715,0.0064,0.4904,5.17,270.37,0.91,618.87,31.854,-0.027,0,0,0,0,271.29,0,0,0,0,0,0,0,0,0,0,0,0,0,1,1,0,0,VALID,0,0,0,0,0,1,0,0,0,0,0,0,0,0,0,0,0,0,0,0,221.83,362.44,2,0,0.1,0.1,307,11.54,0.1,0.06,26.42,FLYING,CF1-F,0:/Integrated Flight Computer/aircraft/cf1_f_cfg.ks (inferred preloaded)
26.68,APPROACH,ILS_TRACK,67.7,73,5.3,2360.69,8.68,17.31,11.12,270.34,0.089,0.5513,0,20,1,0.6,4.5,0.75,0.35,0.0168,0.4,270.39,-6,0,1,7.31,0,0,5.14,270.4,0.8719,0.0066,0.4896,5.12,270.39,0.87,622.2,31.833,-0.015,0,0,0,0,271.29,0,0,0,0,0,0,0,0,0,0,0,0,0,1,1,0,0,VALID,0,0,0,0,0,1,0,0,0,0,0,0,0,0,0,0,0,0,0,0,220.45,362.27,2,0,0.08,0.08,310,11.54,0.1,0.08,26.68,FLYING,CF1-F,0:/Integrated Flight Computer/aircraft/cf1_f_cfg.ks (inferred preloaded)
26.94,APPROACH,ILS_TRACK,67.81,73,5.19,2362.93,8.64,17.22,11.07,270.34,0.089,0.5459,0,20,1,0.6,4.5,0.75,0.35,0.0168,0.4,270.39,-6,0,1,7.26,0,0,5.09,270.38,0.8723,0.0067,0.4889,5.07,270.39,0.85,625.52,31.813,-0.01,0,0,0,0,271.29,0,0,0,0,0,0,0,0,0,0,0,0,0,1,1,0,0,VALID,0,0,0,0,0,1,0,0,0,0,0,0,0,0,0,0,0,0,0,0,219.01,362.1,2,0,0.1,0.1,313,11.54,0.1,0.06,26.94,FLYING,CF1-F,0:/Integrated Flight Computer/aircraft/cf1_f_cfg.ks (inferred preloaded)
27.2,APPROACH,ILS_TRACK,67.92,73,5.08,2365.16,8.6,17.14,11.03,270.34,0.089,0.5411,0,20,1,0.6,4.5,0.75,0.35,0.0168,0.4,270.42,-6,0,1,7.22,0,0,5.04,270.38,0.8727,0.0072,0.4882,5.03,270.42,0.81,628.84,31.792,0.023,0,0,0,0,271.29,0,0,0,0,0,0,0,0,0,0,0,0,0,1,1,0,0,VALID,0,0,0,0,0,1,0,0,0,0,0,0,0,0,0,0,0,0,0,0,217.55,361.93,2,0,0.08,0.08,316,11.54,0.1,0.08,27.2,FLYING,CF1-F,0:/Integrated Flight Computer/aircraft/cf1_f_cfg.ks (inferred preloaded)
27.46,APPROACH,ILS_TRACK,68.03,73,4.97,2367.37,8.56,17.07,10.99,270.34,0.091,0.5369,0,20,1,0.6,4.5,0.75,0.35,0.0168,0.4,270.4,-6,0,1,7.17,0,0,5.01,270.39,0.873,0.0068,0.4876,4.99,270.4,0.78,632.15,31.771,-0.001,0,0,0,0,271.29,0,0,0,0,0,0,0,0,0,0,0,0,0,1,1,0,0,VALID,0,0,0,0,0,1,0,0,0,0,0,0,0,0,0,0,0,0,0,0,216.06,361.76,2,0,0.1,0.1,319,11.54,0.1,0.06,27.46,FLYING,CF1-F,0:/Integrated Flight Computer/aircraft/cf1_f_cfg.ks (inferred preloaded)
27.72,APPROACH,ILS_TRACK,68.13,73,4.87,2369.58,8.52,16.99,10.95,270.34,0.092,0.5334,0,20,1,0.6,4.5,0.75,0.35,0.0168,0.4,270.4,-6,0,1,7.13,0,0,4.97,270.4,0.8734,0.0069,0.487,4.96,270.4,0.76,635.45,31.75,0.004,0,0,0,0,271.29,0,0,0,0,0,0,0,0,0,0,0,0,0,1,1,0,0,VALID,0,0,0,0,0,1,0,0,0,0,0,0,0,0,0,0,0,0,0,0,214.57,361.59,2,0,0.08,0.08,322,11.54,0.1,0.08,27.72,FLYING,CF1-F,0:/Integrated Flight Computer/aircraft/cf1_f_cfg.ks (inferred preloaded)
27.98,APPROACH,ILS_TRACK,68.23,73,4.77,2371.78,8.48,16.92,10.92,270.35,0.092,0.5301,0,20,1,0.6,4.5,0.75,0.35,0.0168,0.4,270.4,-6,0,1,7.09,0,0,4.94,270.37,0.8737,0.0069,0.4865,4.93,270.4,0.73,638.74,31.729,0.001,0,0,0,0,271.29,0,0,0,0,0,0,0,0,0,0,0,0,0,1,1,0,0,VALID,0,0,0,0,0,1,0,0,0,0,0,0,0,0,0,0,0,0,0,0,213.09,361.43,2,0,0.1,0.1,325,11.54,0.1,0.06,27.98,FLYING,CF1-F,0:/Integrated Flight Computer/aircraft/cf1_f_cfg.ks (inferred preloaded)
28.24,APPROACH,ILS_TRACK,68.33,73,4.67,2373.96,8.43,16.84,10.88,270.35,0.092,0.5271,0,20,1,0.6,4.5,0.75,0.35,0.0168,0.4,270.41,-6,0,1,7.04,0,0,4.9,270.4,0.874,0.0069,0.4858,4.89,270.41,0.7,642.02,31.709,0.005,0,0,0,0,271.29,0,0,0,0,0,0,0,0,0,0,0,0,0,1,1,0,0,VALID,0,0,0,0,0,1,0,0,0,0,0,0,0,0,0,0,0,0,0,0,211.63,361.27,2,0,0.08,0.08,328,11.54,0.1,0.08,28.24,FLYING,CF1-F,0:/Integrated Flight Computer/aircraft/cf1_f_cfg.ks (inferred preloaded)
28.5,APPROACH,ILS_TRACK,68.43,73,4.57,2376.14,8.39,16.77,10.86,270.35,0.093,0.524,0,20,1,0.6,4.5,0.75,0.35,0.0168,0.4,270.4,-6,0,1,6.99,0,0,4.88,270.41,0.8743,0.0069,0.4854,4.86,270.4,0.67,645.29,31.688,0.003,0,0,0,0,271.29,0,0,0,0,0,0,0,0,0,0,0,0,0,1,1,0,0,VALID,0,0,0,0,0,1,0,0,0,0,0,0,0,0,0,0,0,0,0,0,210.19,361.11,2,0,0.1,0.1,331,11.54,0.1,0.06,28.5,FLYING,CF1-F,0:/Integrated Flight Computer/aircraft/cf1_f_cfg.ks (inferred preloaded)
28.76,APPROACH,ILS_TRACK,68.52,73,4.48,2378.3,8.34,16.71,10.83,270.35,0.092,0.5216,0,20,1,0.6,4.5,0.75,0.35,0.0168,0.4,270.42,-6,0,1,6.95,0,0,4.85,270.4,0.8745,0.0072,0.485,4.83,270.42,0.64,648.56,31.667,0.018,0,0,0,0,271.29,0,0,0,0,0,0,0,0,0,0,0,0,0,1,1,0,0,VALID,0,0,0,0,0,1,0,0,0,0,0,0,0,0,0,0,0,0,0,0,208.77,360.95,2,0,0.08,0.08,334,11.54,0.1,0.08,28.76,FLYING,CF1-F,0:/Integrated Flight Computer/aircraft/cf1_f_cfg.ks (inferred preloaded)
29.02,APPROACH,ILS_TRACK,68.61,73,4.39,2380.45,8.3,16.64,10.8,270.35,0.093,0.5193,0,20,1,0.6,4.5,0.75,0.35,0.0168,0.4,270.39,-6,0,1,6.91,0,0,4.83,270.41,0.8748,0.0067,0.4845,4.81,270.39,0.63,651.81,31.646,-0.011,0,0,0,0,271.29,0,0,0,0,0,0,0,0,0,0,0,0,0,1,1,0,0,VALID,0,0,0,0,0,1,0,0,0,0,0,0,0,0,0,0,0,0,0,0,207.37,360.8,2,0,0.1,0.1,337,11.54,0.1,0.06,29.02,FLYING,CF1-F,0:/Integrated Flight Computer/aircraft/cf1_f_cfg.ks (inferred preloaded)
29.28,APPROACH,ILS_TRACK,68.69,73,4.31,2382.6,8.26,16.57,10.78,270.36,0.094,0.5171,0,20,1,0.6,4.5,0.75,0.35,0.0168,0.4,270.39,-6,0,1,6.86,0,0,4.79,270.4,0.875,0.0067,0.4841,4.78,270.39,0.6,655.06,31.625,-0.009,0,0,0,0,271.29,0,0,0,0,0,0,0,0,0,0,0,0,0,1,1,0,0,VALID,0,0,0,0,0,1,0,0,0,0,0,0,0,0,0,0,0,0,0,0,206.02,360.65,2,0,0.08,0.08,340,11.54,0.1,0.08,29.28,FLYING,CF1-F,0:/Integrated Flight Computer/aircraft/cf1_f_cfg.ks (inferred preloaded)
29.54,APPROACH,ILS_TRACK,68.78,73,4.22,2384.73,8.21,16.51,10.75,270.36,0.093,0.5148,0,20,1,0.6,4.5,0.75,0.35,0.0168,0.4,270.39,-6,0,1,6.81,0,0,4.76,270.4,0.8752,0.0067,0.4836,4.75,270.39,0.58,658.29,31.604,-0.011,0,0,0,0,271.29,0,0,0,0,0,0,0,0,0,0,0,0,0,1,1,0,0,VALID,0,0,0,0,0,1,0,0,0,0,0,0,0,0,0,0,0,0,0,0,204.69,360.5,2,0,0.1,0.1,343,11.54,0.1,0.06,29.54,FLYING,CF1-F,0:/Integrated Flight Computer/aircraft/cf1_f_cfg.ks (inferred preloaded)
29.8,APPROACH,ILS_TRACK,68.86,73,4.14,2386.84,8.17,16.45,10.73,270.36,0.093,0.5126,0,20,1,0.6,4.5,0.75,0.35,0.0168,0.4,270.39,-6,0,1,6.77,0,0,4.74,270.39,0.8754,0.0067,0.4834,4.74,270.39,0.55,661.52,31.582,-0.011,0,0,0,0,271.29,0,0,0,0,0,0,0,0,0,0,0,0,0,1,1,0,0,VALID,0,0,0,0,0,1,0,0,0,0,0,0,0,0,0,0,0,0,0,0,203.4,360.35,2,0,0.08,0.08,346,11.54,0.1,0.08,29.8,FLYING,CF1-F,0:/Integrated Flight Computer/aircraft/cf1_f_cfg.ks (inferred preloaded)
30.06,APPROACH,ILS_TRACK,68.94,73,4.06,2388.95,8.12,16.39,10.72,270.36,0.092,0.5106,0,20,1,0.6,4.5,0.75,0.35,0.0168,0.4,270.4,-6,0,1,6.72,0,0,4.72,270.39,0.8756,0.0069,0.483,4.71,270.4,0.53,664.73,31.561,0.002,0,0,0,0,271.29,0,0,0,0,0,0,0,0,0,0,0,0,0,1,1,0,0,VALID,0,0,0,0,0,1,0,0,0,0,0,0,0,0,0,0,0,0,0,0,202.13,360.21,2,0,0.1,0.1,349,11.54,0.1,0.06,30.06,FLYING,CF1-F,0:/Integrated Flight Computer/aircraft/cf1_f_cfg.ks (inferred preloaded)
30.32,APPROACH,ILS_TRACK,69.01,73,3.99,2391.05,8.08,16.34,10.7,270.36,0.092,0.5089,0,20,1,0.6,4.5,0.75,0.35,0.0168,0.4,270.4,-6,0,1,6.68,0,0,4.7,270.4,0.8757,0.0068,0.4828,4.7,270.4,0.51,667.94,31.54,-0.002,0,0,0,0,271.29,0,0,0,0,0,0,0,0,0,0,0,0,0,1,1,0,0,VALID,0,0,0,0,0,1,0,0,0,0,0,0,0,0,0,0,0,0,0,0,200.89,360.07,2,0,0.08,0.08,352,11.54,0.1,0.08,30.32,FLYING,CF1-F,0:/Integrated Flight Computer/aircraft/cf1_f_cfg.ks (inferred preloaded)
30.58,APPROACH,ILS_TRACK,69.09,73,3.91,2393.14,8.04,16.29,10.68,270.37,0.091,0.5074,0,20,1,0.6,4.5,0.75,0.35,0.0168,0.4,270.4,-6,0,1,6.64,0,0,4.69,270.39,0.8758,0.0068,0.4825,4.69,270.4,0.49,671.13,31.519,-0.001,0,0,0,0,271.29,0,0,0,0,0,0,0,0,0,0,0,0,0,1,1,0,0,VALID,0,0,0,0,0,1,0,0,0,0,0,0,0,0,0,0,0,0,0,0,199.7,359.93,2,0,0.1,0.1,355,11.54,0.1,0.06,30.58,FLYING,CF1-F,0:/Integrated Flight Computer/aircraft/cf1_f_cfg.ks (inferred preloaded)
30.84,APPROACH,ILS_TRACK,69.16,73,3.84,2395.21,7.99,16.24,10.67,270.37,0.09,0.5061,0,20,1,0.6,4.5,0.75,0.35,0.0168,0.4,270.41,-6,0,1,6.6,0,0,4.68,270.39,0.876,0.007,0.4822,4.67,270.41,0.47,674.32,31.498,0.009,0,0,0,0,271.29,0,0,0,0,0,0,0,0,0,0,0,0,0,1,1,0,0,VALID,0,0,0,0,0,1,0,0,0,0,0,0,0,0,0,0,0,0,0,0,198.54,359.79,2,0,0.08,0.08,358,11.54,0.1,0.08,30.84,FLYING,CF1-F,0:/Integrated Flight Computer/aircraft/cf1_f_cfg.ks (inferred preloaded)
31.1,APPROACH,ILS_TRACK,69.23,73,3.77,2397.27,7.95,16.19,10.66,270.37,0.087,0.5047,0,20,1,0.6,4.5,0.75,0.35,0.0168,0.4,270.4,-6,0,1,6.56,0,0,4.67,270.38,0.8762,0.0069,0.482,4.66,270.4,0.45,677.5,31.477,0,0,0,0,0,271.29,0,0,0,0,0,0,0,0,0,0,0,0,0,1,1,0,0,VALID,0,0,0,0,0,1,0,0,0,0,0,0,0,0,0,0,0,0,0,0,197.42,359.65,2,0,0.1,0.1,361,11.54,0.1,0.06,31.1,FLYING,CF1-F,0:/Integrated Flight Computer/aircraft/cf1_f_cfg.ks (inferred preloaded)
31.36,APPROACH,ILS_TRACK,69.29,73,3.71,2399.33,7.91,16.15,10.65,270.37,0.085,0.5036,0,20,1,0.6,4.5,0.75,0.35,0.0168,0.4,270.4,-6,0,1,6.52,0,0,4.65,270.4,0.8762,0.0068,0.4819,4.65,270.4,0.43,680.67,31.455,-0.005,0,0,0,0,271.29,0,0,0,0,0,0,0,0,0,0,0,0,0,1,1,0,0,VALID,0,0,0,0,0,1,0,0,0,0,0,0,0,0,0,0,0,0,0,0,196.34,359.52,2,0,0.08,0.08,364,11.54,0.1,0.08,31.36,FLYING,CF1-F,0:/Integrated Flight Computer/aircraft/cf1_f_cfg.ks (inferred preloaded)
31.62,APPROACH,ILS_TRACK,69.36,73,3.64,2401.37,7.87,16.1,10.63,270.37,0.084,0.5023,0,20,1,0.6,4.5,0.75,0.35,0.0168,0.4,270.39,-6,0,1,6.48,0,0,4.64,270.43,0.8764,0.0067,0.4816,4.63,270.39,0.41,683.83,31.434,-0.007,0,0,0,0,271.29,0,0,0,0,0,0,0,0,0,0,0,0,0,1,1,0,0,VALID,0,0,0,0,0,1,0,0,0,0,0,0,0,0,0,0,0,0,0,0,195.3,359.39,2,0,0.1,0.1,367,11.54,0.1,0.06,31.62,FLYING,CF1-F,0:/Integrated Flight Computer/aircraft/cf1_f_cfg.ks (inferred preloaded)
31.88,APPROACH,ILS_TRACK,69.42,73,3.58,2403.41,7.83,16.05,10.62,270.37,0.082,0.501,0,20,1,0.6,4.5,0.75,0.35,0.0168,0.4,270.39,-6,0,1,6.44,0,0,4.62,270.41,0.8765,0.0067,0.4813,4.62,270.39,0.4,686.98,31.413,-0.009,0,0,0,0,271.29,0,0,0,0,0,0,0,0,0,0,0,0,0,1,1,0,0,VALID,0,0,0,0,0,1,0,0,0,0,0,0,0,0,0,0,0,0,0,0,194.29,359.26,2,0,0.08,0.08,370,11.54,0.1,0.08,31.88,FLYING,CF1-F,0:/Integrated Flight Computer/aircraft/cf1_f_cfg.ks (inferred preloaded)
32.14,APPROACH,ILS_TRACK,69.48,73,3.52,2405.43,7.79,16.01,10.61,270.38,0.079,0.4997,0,20,1,0.6,4.5,0.75,0.35,0.0168,0.4,270.4,-6,0,1,6.4,0,0,4.61,270.39,0.8766,0.0069,0.4811,4.61,270.4,0.38,690.12,31.391,0.001,0,0,0,0,271.29,0,0,0,0,0,0,0,0,0,0,0,0,0,1,1,0,0,VALID,0,0,0,0,0,1,0,0,0,0,0,0,0,0,0,0,0,0,0,0,193.32,359.13,2,0,0.1,0.1,373,11.54,0.1,0.06,32.14,FLYING,CF1-F,0:/Integrated Flight Computer/aircraft/cf1_f_cfg.ks (inferred preloaded)
32.4,APPROACH,ILS_TRACK,69.53,73,3.47,2407.44,7.76,15.97,10.6,270.38,0.079,0.4985,0,20,1,0.6,4.5,0.75,0.35,0.0168,0.4,270.39,-6,0,1,6.37,0,0,4.6,270.41,0.8767,0.0067,0.481,4.6,270.39,0.36,693.25,31.37,-0.007,0,0,0,0,271.29,0,0,0,0,0,0,0,0,0,0,0,0,0,1,1,0,0,VALID,0,0,0,0,0,1,0,0,0,0,0,0,0,0,0,0,0,0,0,0,192.37,359,2,0,0.08,0.08,376,11.54,0.1,0.08,32.4,FLYING,CF1-F,0:/Integrated Flight Computer/aircraft/cf1_f_cfg.ks (inferred preloaded)
32.66,APPROACH,ILS_TRACK,69.59,73,3.41,2409.45,7.72,15.93,10.59,270.38,0.076,0.4975,0,20,1,0.6,4.5,0.75,0.35,0.0168,0.4,270.4,-6,0,1,6.33,0,0,4.6,270.41,0.8768,0.0068,0.4808,4.59,270.4,0.35,696.37,31.349,-0.003,0,0,0,0,271.29,0,0,0,0,0,0,0,0,0,0,0,0,0,1,1,0,0,VALID,0,0,0,0,0,1,0,0,0,0,0,0,0,0,0,0,0,0,0,0,191.45,358.88,2,0,0.1,0.1,379,11.54,0.1,0.06,32.66,FLYING,CF1-F,0:/Integrated Flight Computer/aircraft/cf1_f_cfg.ks (inferred preloaded)
32.92,APPROACH,ILS_TRACK,69.64,73,3.36,2411.44,7.68,15.89,10.58,270.38,0.075,0.4966,0,20,1,0.6,4.5,0.75,0.35,0.0168,0.4,270.39,-6,0,1,6.3,0,0,4.59,270.41,0.8769,0.0067,0.4806,4.58,270.39,0.33,699.49,31.327,-0.009,0,0,0,0,271.29,0,0,0,0,0,0,0,0,0,0,0,0,0,1,1,0,0,VALID,0,0,0,0,0,1,0,0,0,0,0,0,0,0,0,0,0,0,0,0,190.57,358.76,2,0,0.08,0.08,382,11.54,0.1,0.08,32.92,FLYING,CF1-F,0:/Integrated Flight Computer/aircraft/cf1_f_cfg.ks (inferred preloaded)
33.18,APPROACH,ILS_TRACK,69.69,73,3.31,2413.43,7.65,15.85,10.57,270.38,0.073,0.4956,0,20,1,0.6,4.5,0.75,0.35,0.0168,0.4,270.42,-6,0,1,6.27,0,0,4.58,270.39,0.877,0.0072,0.4804,4.57,270.42,0.31,702.6,31.306,0.022,0,0,0,0,271.29,0,0,0,0,0,0,0,0,0,0,0,0,0,1,1,0,0,VALID,0,0,0,0,0,1,0,0,0,0,0,0,0,0,0,0,0,0,0,0,189.72,358.64,2,0,0.1,0.1,385,11.54,0.1,0.06,33.18,FLYING,CF1-F,0:/Integrated Flight Computer/aircraft/cf1_f_cfg.ks (inferred preloaded)
33.44,APPROACH,ILS_TRACK,69.74,73,3.26,2415.41,7.61,15.82,10.56,270.38,0.07,0.4947,0,20,1,0.6,4.5,0.75,0.35,0.0168,0.4,270.4,-6,0,1,6.23,0,0,4.57,270.4,0.8771,0.0068,0.4803,4.56,270.4,0.31,705.7,31.285,-0.004,0,0,0,0,271.29,0,0,0,0,0,0,0,0,0,0,0,0,0,1,1,0,0,VALID,0,0,0,0,0,1,0,0,0,0,0,0,0,0,0,0,0,0,0,0,188.9,358.52,2,0,0.08,0.08,388,11.54,0.1,0.08,33.44,FLYING,CF1-F,0:/Integrated Flight Computer/aircraft/cf1_f_cfg.ks (inferred preloaded)
33.7,APPROACH,ILS_TRACK,69.79,73,3.21,2417.38,7.58,15.79,10.56,270.38,0.068,0.4939,0,20,1,0.6,4.5,0.75,0.35,0.0168,0.4,270.4,-6,0,1,6.2,0,0,4.56,270.39,0.8771,0.0069,0.4802,4.56,270.4,0.29,708.79,31.263,0,0,0,0,0,271.29,0,0,0,0,0,0,0,0,0,0,0,0,0,1,1,0,0,VALID,0,0,0,0,0,1,0,0,0,0,0,0,0,0,0,0,0,0,0,0,188.1,358.4,2,0,0.1,0.1,391,11.54,0.1,0.06,33.7,FLYING,CF1-F,0:/Integrated Flight Computer/aircraft/cf1_f_cfg.ks (inferred preloaded)
33.96,APPROACH,ILS_TRACK,69.84,73,3.16,2419.34,7.55,15.76,10.55,270.38,0.065,0.493,0,20,1,0.6,4.5,0.75,0.35,0.0168,0.4,270.41,-6,0,1,6.17,0,0,4.55,270.41,0.8772,0.007,0.4801,4.55,270.41,0.28,711.88,31.242,0.009,0,0,0,0,271.29,0,0,0,0,0,0,0,0,0,0,0,0,0,1,1,0,0,VALID,0,0,0,0,0,1,0,0,0,0,0,0,0,0,0,0,0,0,0,0,187.34,358.28,2,0,0.08,0.08,394,11.54,0.1,0.08,33.96,FLYING,CF1-F,0:/Integrated Flight Computer/aircraft/cf1_f_cfg.ks (inferred preloaded)
34.22,APPROACH,ILS_TRACK,69.88,73,3.12,2421.29,7.52,15.72,10.55,270.38,0.064,0.4922,0,20,1,0.6,4.5,0.75,0.35,0.0168,0.4,270.4,-6,0,1,6.14,0,0,4.55,270.41,0.8773,0.0068,0.48,4.55,270.4,0.27,714.96,31.22,-0.003,0,0,0,0,271.29,0,0,0,0,0,0,0,0,0,0,0,0,0,1,1,0,0,VALID,0,0,0,0,0,1,0,0,0,0,0,0,0,0,0,0,0,0,0,0,186.6,358.17,2,0,0.1,0.1,397,11.54,0.1,0.06,34.22,FLYING,CF1-F,0:/Integrated Flight Computer/aircraft/cf1_f_cfg.ks (inferred preloaded)
34.48,APPROACH,ILS_TRACK,69.92,73,3.08,2423.24,7.49,15.69,10.54,270.38,0.064,0.4914,0,20,1,0.6,4.5,0.75,0.35,0.0168,0.4,270.4,-6,0,1,6.11,0,0,4.54,270.4,0.8773,0.0069,0.4798,4.54,270.4,0.25,718.03,31.199,0.003,0,0,0,0,271.29,0,0,0,0,0,0,0,0,0,0,0,0,0,1,1,0,0,VALID,0,0,0,0,0,1,0,0,0,0,0,0,0,0,0,0,0,0,0,0,185.89,358.06,2,0,0.08,0.08,400,11.54,0.1,0.08,34.48,FLYING,CF1-F,0:/Integrated Flight Computer/aircraft/cf1_f_cfg.ks (inferred preloaded)
34.74,APPROACH,ILS_TRACK,69.97,73,3.03,2425.18,7.46,15.66,10.53,270.39,0.062,0.4906,0,20,1,0.6,4.5,0.75,0.35,0.0168,0.4,270.4,-6,0,1,6.09,0,0,4.53,270.42,0.8774,0.0069,0.4797,4.53,270.4,0.24,721.1,31.177,0.001,0,0,0,0,271.29,0,0,0,0,0,0,0,0,0,0,0,0,0,1,1,0,0,VALID,0,0,0,0,0,1,0,0,0,0,0,0,0,0,0,0,0,0,0,0,185.21,357.94,2,0,0.1,0.1,403,11.54,0.1,0.06,34.74,FLYING,CF1-F,0:/Integrated Flight Computer/aircraft/cf1_f_cfg.ks (inferred preloaded)
35,APPROACH,ILS_TRACK,70.01,73,2.99,2427.11,7.43,15.63,10.53,270.39,0.06,0.4899,0,20,1,0.6,4.5,0.75,0.35,0.0168,0.4,270.39,-6,0,1,6.06,0,0,4.53,270.4,0.8775,0.0068,0.4796,4.53,270.39,0.24,724.15,31.156,-0.005,0,0,0,0,271.29,0,0,0,0,0,0,0,0,0,0,0,0,0,1,1,0,0,VALID,0,0,0,0,0,1,0,0,0,0,0,0,0,0,0,0,0,0,0,0,184.54,357.83,2,0,0.08,0.08,406,11.54,0.1,0.08,35,FLYING,CF1-F,0:/Integrated Flight Computer/aircraft/cf1_f_cfg.ks (inferred preloaded)
35.26,APPROACH,ILS_TRACK,70.04,73,2.96,2429.03,7.4,15.61,10.53,270.39,0.058,0.4893,0,20,1,0.6,4.5,0.75,0.35,0.0168,0.4,270.39,-6,0,1,6.03,0,0,4.53,270.42,0.8775,0.0066,0.4795,4.53,270.39,0.22,727.21,31.134,-0.015,0,0,0,0,271.29,0,0,0,0,0,0,0,0,0,0,0,0,0,1,1,0,0,VALID,0,0,0,0,0,1,0,0,0,0,0,0,0,0,0,0,0,0,0,0,183.9,357.72,2,0,0.1,0.1,409,11.54,0.1,0.06,35.26,FLYING,CF1-F,0:/Integrated Flight Computer/aircraft/cf1_f_cfg.ks (inferred preloaded)
35.52,APPROACH,ILS_TRACK,70.08,73,2.92,2430.95,7.38,15.6,10.54,270.39,0.056,0.4887,0,20,1,0.6,4.5,0.75,0.35,0.0168,0.4,270.39,-6,0,1,6.01,0,0,4.53,270.41,0.8774,0.0067,0.4796,4.54,270.39,0.21,730.25,31.113,-0.011,0,0,0,0,271.29,0,0,0,0,0,0,0,0,0,0,0,0,0,1,1,0,0,VALID,0,0,0,0,0,1,0,0,0,0,0,0,0,0,0,0,0,0,0,0,183.28,357.62,2,0,0.08,0.08,412,11.54,0.1,0.08,35.52,FLYING,CF1-F,0:/Integrated Flight Computer/aircraft/cf1_f_cfg.ks (inferred preloaded)
