t_s,phase,subphase,ias_ms,vapp_ms,spd_err_ms,agl_m,vs_ms,pitch_deg,aoa_deg,hdg_deg,bank_deg,thr_cmd,thr_cur,thr_intg,at_gain,at_tau_s,at_a_up,at_a_dn,at_kp_thr,at_ki_spd,at_thr_slew,aa_hdg_cmd_deg,aa_fpa_cmd_deg,ils_loc_m,ils_gs_m,ils_dist_km,loc_corr_deg,gs_corr_deg,flare_fpa_cmd,flare_tgt_vs,flare_frac,steer_hdg_deg,steer_blend,ro_loc_corr_deg,ro_hdg_err_deg,ro_yaw_tgt,ro_yaw_scale,ro_yaw_gate,yaw_cmd,roll_cmd,pitch_cmd,ro_pitch_tgt_deg,ro_pitch_err_deg,ro_pitch_ff,ro_roll_assist,flaps_cur,flaps_tgt,phase_el_s,status
0.86,TAKEOFF,TO_PREFLIGHT,0.01,80,79.99,3.63,0,0.25,3.97,273.49,-0.035,0.2,0,0,0,0,0,0,0,0,0,270.4,0,0,0,0,0,0,0,0,0,270.4,1,0,3.093,0,0,1,0,0,0,0,0,0,0,0,2,0.14,LANDED
1.54,TAKEOFF,TO_PREFLIGHT,0,80,80,3.63,0,0.25,-66.93,273.51,-0.035,0.2,0,0,0,0,0,0,0,0,0,270.4,0,0,0,0,0,0,0,0,0,270.4,1,0,3.113,0,0,1,0,0,0,0,0,0,0,0,2,0.82,LANDED
2.16,TAKEOFF,TO_PREFLIGHT,0,80,80,3.63,0,0.24,2.17,273.54,-0.036,0.4,0,0,0,0,0,0,0,0,0,270.4,0,0,0,0,0,0,0,0,0,270.4,1,0,3.113,0,0,1,0,0,0,0,0,0,0,0,2,1.44,LANDED
2.82,TAKEOFF,TO_PREFLIGHT,0.01,80,79.99,3.63,0,0.24,0.53,273.57,-0.036,0.6,0,0,0,0,0,0,0,0,0,270.4,0,0,0,0,0,0,0,0,0,270.4,1,0,3.113,0,0,1,0,0,0,0,0,0,0,0,2,2.1,LANDED
3.48,TAKEOFF,TO_PREFLIGHT,0.01,80,79.99,3.63,0,0.23,-1.99,273.62,-0.036,0.8,0,0,0,0,0,0,0,0,0,270.4,0,0,0,0,0,0,0,0,0,270.4,1,0,3.113,0,0,1,0,0,0,0,0,0,0,0,2,2.76,LANDED
4.14,TAKEOFF,TO_PREFLIGHT,0.02,80,79.98,3.63,0,0.22,-1.45,273.66,-0.035,1,0,0,0,0,0,0,0,0,0,270.4,0,0,0,0,0,0,0,0,0,270.4,1,0,3.113,0,0,1,0,0,0,0,0,0,0,0,2,3.42,LANDED
4.8,TAKEOFF,TO_GROUND_ROLL,0.03,80,79.97,3.63,0,0.21,-0.17,273.69,-0.035,1,0,0,0,0,0,0,0,0,0,270.4,0,0,0,0,0,0,0,0,0,270.4,1,0,3.113,0,0,1,0,0,0,0,0,0,0,0,2,4.08,LANDED
5.54,TAKEOFF,TO_GROUND_ROLL,0.46,80,79.54,3.64,0,0.32,0.52,273.74,-0.035,1,0,0,0,0,0,0,0,0,0,272.71,0,0,0,0,2.4,0,0,0,0,272.71,1,2.4,1.019,-0.0115,0.25,1,-0.0115,0,0,0,0,0,0,0,2,4.82,LANDED
6.24,TAKEOFF,TO_GROUND_ROLL,1.17,80,78.83,3.65,0,0.34,0.29,273.82,-0.039,1,0,0,0,0,0,0,0,0,0,272.77,0,0,0,0,2.4,0,0,0,0,272.77,1,2.4,1.031,-0.0116,0.25,1,-0.0116,0,0,0,0,0,0,0,2,5.52,LANDED
6.94,TAKEOFF,TO_GROUND_ROLL,2.03,80,77.97,3.67,0.12,0.43,-1.8,273.91,-0.037,1,0,0,0,0,0,0,0,0,0,272.76,0,0,0,0,2.4,0,0,0,0,272.76,1,2.4,1.129,-0.0127,0.25,1,-0.0127,0,0,0,0,0,0,0,2,6.22,LANDED
7.64,TAKEOFF,TO_GROUND_ROLL,3.02,80,76.98,3.7,-0.03,0.58,1.11,274.02,-0.036,1,0,0,0,0,0,0,0,0,0,272.76,0,0,0,0,2.4,0,0,0,0,272.76,1,2.4,1.244,-0.014,0.25,1,-0.014,0,0,0,0,0,0,0,2,6.92,LANDED
8.34,TAKEOFF,TO_GROUND_ROLL,4.15,80,75.85,3.72,0.01,0.71,0.59,274.15,-0.035,1,0,0,0,0,0,0,0,0,0,272.75,0,0,0,0,2.4,0,0,0,0,272.75,1,2.4,1.376,-0.0155,0.25,1,-0.0155,0,0,0,0,0,0,0,2,7.62,LANDED
9.04,TAKEOFF,TO_GROUND_ROLL,5.41,80,74.59,3.73,0,0.79,0.74,274.3,-0.034,1,0,0,0,0,0,0,0,0,0,272.74,0,0,0,0,2.4,0,0,0,0,272.74,1,2.4,1.524,-0.0171,0.25,1,-0.0171,0,0,0,0,0,0,0,2,8.32,LANDED
9.74,TAKEOFF,TO_GROUND_ROLL,6.78,80,73.22,3.74,0.01,0.83,0.79,274.46,-0.033,1,0,0,0,0,0,0,0,0,0,272.74,0,0,0,0,2.4,0,0,0,0,272.74,1,2.4,1.685,-0.019,0.25,1,-0.019,0,0,0,0,0,0,0,2,9.02,LANDED
10.46,TAKEOFF,TO_GROUND_ROLL,8.32,80,71.68,3.77,0.01,0.92,0.87,274.63,-0.031,1,0,0,0,0,0,0,0,0,0,272.73,0,0,0,0,2.4,0,0,0,0,272.73,1,2.4,1.862,-0.0209,0.25,1,-0.0209,0,0,0,0,0,0,0,2,9.74,LANDED
11.18,TAKEOFF,TO_GROUND_ROLL,9.98,80,70.02,3.78,-0.01,0.98,1.02,274.81,-0.018,1,0,0,0,0,0,0,0,0,0,272.73,0,0,0,0,2.4,0,0,0,0,272.73,1,2.4,2.046,-0.023,0.25,1,-0.023,0,0,0,0,0,0,0,2,10.46,LANDED
11.9,TAKEOFF,TO_GROUND_ROLL,11.76,80,68.24,3.78,-0.01,0.96,1,275,-0.023,1,0,0,0,0,0,0,0,0,0,272.72,0,0,0,0,2.4,0,0,0,0,272.72,1,2.4,2.24,-0.0252,0.25,1,-0.0252,0,0,0,0,0,0,0,2,11.18,LANDED
12.62,TAKEOFF,TO_GROUND_ROLL,13.64,80,66.36,3.79,-0.01,1.03,1.06,275.2,-0.017,1,0,0,0,0,0,0,0,0,0,272.72,0,0,0,0,2.4,0,0,0,0,272.72,1,2.4,2.435,-0.0274,0.25,1,-0.0274,0,0,0,0,0,0,0,2,11.9,LANDED
13.34,TAKEOFF,TO_GROUND_ROLL,15.63,80,64.37,3.81,-0.01,1.17,1.2,275.39,-0.017,1,0,0,0,0,0,0,0,0,0,272.72,0,0,0,0,2.4,0,0,0,0,272.72,1,2.4,2.633,-0.0296,0.25,1,-0.0296,0,0,0,0,0,0,0,2,12.62,LANDED
14.06,TAKEOFF,TO_GROUND_ROLL,17.71,80,62.29,3.82,-0.01,1.24,1.28,275.59,-0.013,1,0,0,0,0,0,0,0,0,0,272.72,0,0,0,0,2.4,0,0,0,0,272.72,1,2.4,2.831,-0.0318,0.25,1,-0.0318,0,0,0,0,0,0,0,2,13.34,LANDED
14.78,TAKEOFF,TO_GROUND_ROLL,19.88,80,60.12,3.82,-0.01,1.25,1.28,275.79,-0.011,1,0,0,0,0,0,0,0,0,0,272.72,0,0,0,0,2.4,0,0,0,0,272.72,1,2.4,3.029,-0.0341,0.25,1,-0.0341,0,0,0,0,0,0,0,2,14.06,LANDED
15.5,TAKEOFF,TO_GROUND_ROLL,22.13,80,57.87,3.83,0.01,1.35,1.32,275.98,0.046,1,0,0,0,0,0,0,0,0,0,272.72,0,0,0,0,2.4,0,0,0,0,272.72,1,2.4,3.216,-0.0392,0.271,0,-0.0392,0,0,0,0,0,0,0,2,14.78,LANDED
16.22,TAKEOFF,TO_GROUND_ROLL,24.45,80,55.55,3.86,0.01,1.49,1.46,276.16,0.018,1,0,0,0,0,0,0,0,0,0,272.73,0,0,0,0,2.4,0,0,0,0,272.73,1,2.4,3.401,-0.0452,0.296,0,-0.0452,0,0,0,0,0,0,0,2,15.5,LANDED
16.94,TAKEOFF,TO_GROUND_ROLL,26.86,80,53.14,3.87,-0.02,1.5,1.55,276.33,0.001,1,0,0,0,0,0,0,0,0,0,272.73,0,0,0,0,2.4,0,0,0,0,272.73,1,2.4,3.571,-0.0516,0.321,0,-0.0516,0,0,0,0,0,0,0,2,16.22,LANDED
17.66,TAKEOFF,TO_GROUND_ROLL,29.33,80,50.67,3.85,0,1.44,1.45,276.49,0.056,1,0,0,0,0,0,0,0,0,0,272.74,0,0,0,0,2.4,0,0,0,0,272.74,1,2.4,3.724,-0.0583,0.348,0,-0.0583,0,0,0,0,0,0,0,2,16.94,LANDED
18.38,TAKEOFF,TO_GROUND_ROLL,31.87,80,48.13,3.86,0,1.51,1.51,276.63,0.018,1,0,0,0,0,0,0,0,0,0,272.74,0,0,0,0,2.4,0,0,0,0,272.74,1,2.4,3.862,-0.0652,0.375,0,-0.0652,0,0,0,0,0,0,0,2,17.66,LANDED
19.1,TAKEOFF,TO_GROUND_ROLL,34.47,80,45.53,3.89,0.03,1.69,1.64,276.75,0.043,1,0,0,0,0,0,0,0,0,0,272.75,0,0,0,0,2.4,0,0,0,0,272.75,1,2.4,3.981,-0.0721,0.403,0,-0.0721,0,0,0,0,0,0,0,2,18.38,LANDED
19.82,TAKEOFF,TO_GROUND_ROLL,37.13,80,42.87,3.92,0.02,1.75,1.74,276.85,0.018,1,0,0,0,0,0,0,0,0,0,272.76,0,0,0,0,2.4,0,0,0,0,272.76,1,2.4,4.077,-0.0791,0.431,0,-0.0791,0,0,0,0,0,0,0,2,19.1,LANDED
20.54,TAKEOFF,TO_GROUND_ROLL,39.84,80,40.16,3.88,-0.08,1.54,1.65,276.92,0.051,1,0,0,0,0,0,0,0,0,0,272.77,0,0,0,0,2.4,0,0,0,0,272.77,1,2.4,4.135,-0.0856,0.46,0,-0.0856,0,0,0,0,0,0,0,2,19.82,LANDED
21.26,TAKEOFF,TO_GROUND_ROLL,42.6,80,37.4,3.87,0.1,1.6,1.48,276.95,0.109,1,0,0,0,0,0,0,0,0,0,272.78,0,0,0,0,2.4,0,0,0,0,272.78,1,2.4,4.165,-0.0918,0.49,0,-0.0918,0,0,0,0,0,0,0,2,20.54,LANDED
21.98,TAKEOFF,TO_GROUND_ROLL,45.4,80,34.6,3.94,-0.03,1.89,1.94,276.97,-0.018,1,0,0,0,0,0,0,0,0,0,272.79,0,0,0,0,2.4,0,0,0,0,272.79,1,2.4,4.184,-0.0978,0.52,0,-0.0978,0,0,0,0,0,0,0,2,21.26,LANDED
22.7,TAKEOFF,TO_GROUND_ROLL,48.24,80,31.76,3.91,-0.01,1.78,1.8,276.95,0.018,1,0,0,0,0,0,0,0,0,0,272.81,0,0,0,0,2.4,0,0,0,0,272.81,1,2.4,4.153,-0.1028,0.55,0,-0.1028,0,0,0,0,0,0,0,2,21.98,LANDED
23.42,TAKEOFF,TO_GROUND_ROLL,51.12,80,28.88,3.89,-0.01,1.7,1.71,276.9,-0.014,1,0,0,0,0,0,0,0,0,0,272.82,0,0,0,0,2.4,0,0,0,0,272.82,1,2.4,4.093,-0.107,0.581,0,-0.107,0,0,0,0,0,0,0,2,22.7,LANDED
24.14,TAKEOFF,TO_GROUND_ROLL,54.03,80,25.97,3.93,0.1,1.91,1.81,276.82,0.073,1,0,0,0,0,0,0,0,0,0,272.83,0,0,0,0,2.4,0,0,0,0,272.83,1,2.4,4.011,-0.1105,0.612,0,-0.1105,0,0,0,0,0,0,0,2,23.42,LANDED
24.86,TAKEOFF,TO_GROUND_ROLL,56.96,80,23.04,3.95,-0.01,1.95,1.96,276.72,-0.054,1,0,0,0,0,0,0,0,0,0,272.84,0,0,0,0,2.4,0,0,0,0,272.84,1,2.4,3.9,-0.1129,0.643,0,-0.1129,0,0,0,0,0,0,0,2,24.14,LANDED
25.58,TAKEOFF,TO_GROUND_ROLL,59.93,80,20.07,3.92,-0.08,1.72,1.8,276.57,-0.084,1,0,0,0,0,0,0,0,0,0,272.85,0,0,0,0,2.4,0,0,0,0,272.85,1,2.4,3.748,-0.1139,0.675,0,-0.1139,0,0,0,0,0,0,0,2,24.86,LANDED
26.3,TAKEOFF,TO_GROUND_ROLL,62.93,80,17.07,3.9,0,1.72,1.72,276.41,0.033,1,0,0,0,0,0,0,0,0,0,272.87,0,0,0,0,2.4,0,0,0,0,272.87,1,2.4,3.575,-0.1138,0.707,0,-0.1138,0,0,0,0,0,0,0,2,25.58,LANDED
27.02,TAKEOFF,TO_GROUND_ROLL,65.93,80,14.07,3.94,0.13,1.98,1.88,276.23,-0.017,1,0,0,0,0,0,0,0,0,0,272.87,0,0,0,0,2.4,0,0,0,0,272.87,1,2.4,3.397,-0.1131,0.739,0,-0.1131,0,0,0,0,0,0,0,2,26.3,LANDED
27.74,TAKEOFF,TO_GROUND_ROLL,68.95,80,11.05,4,-0.01,2.13,2.16,276.04,-0.172,1,0,0,0,0,0,0,0,0,0,272.87,0,0,0,0,2.4,0,0,0,0,272.87,1,2.4,3.205,-0.1113,0.772,0,-0.1113,0,0,0,0,0,0,0,2,27.02,LANDED
28.48,TAKEOFF,TO_ROTATE,72.05,80,7.95,4.02,-0.19,2.23,2.33,275.82,-0.099,1,0,0,0,0,0,0,0,0,0,272.88,0,0,0,0,2.4,0,0,0,0,272.88,1,2.4,2.99,-0.1082,0.804,0,0,0,0,0,0,0,0,0,2,27.76,LANDED
29.16,TAKEOFF,TO_ROTATE,74.82,80,5.18,4.09,0.02,2.53,2.5,275.65,0.053,1,0,0,0,0,0,0,0,0,0,270.4,3.714,0,0,0,0,0,0,0,0,270.4,1,0,5.253,0,0,3,0,0,0,3.714,1.202,0,0,0,2,28.42,LANDED
29.82,TAKEOFF,TO_ROTATE,77.57,80,2.43,4.21,-0.07,3.09,3.11,275.58,-0.085,1,0,0,0,0,0,0,0,0,0,270.4,5.214,0,0,0,0,0,0,0,0,270.4,1,0,5.182,0,0,3,0,0,0,5.214,2.143,0,0,0,2,29.08,LANDED
30.46,TAKEOFF,TO_ROTATE,80.19,80,-0.19,4.29,0.18,3.73,3.62,275.55,-0.001,1,0,0,0,0,0,0,0,0,0,270.4,6.714,0,0,0,0,0,0,0,0,270.4,1,0,5.15,0,0,3,0,0,0,6.714,3.001,0,0,0,2,29.72,LANDED
31.1,TAKEOFF,TO_ROTATE,82.76,80,-2.76,4.45,-0.09,4.31,4.31,275.53,-0.002,1,0,0,0,0,0,0,0,0,0,270.4,8.214,0,0,0,0,0,0,0,0,270.4,1,0,5.134,0,0,3,0,0,0,8.214,3.928,0,0,0,2,30.36,LANDED
31.74,TAKEOFF,TO_ROTATE,85.26,80,-5.26,4.57,-0.12,5.03,5.08,275.52,0.016,1,0,0,0,0,0,0,0,0,0,270.4,9.714,0,0,0,0,0,0,0,0,270.4,1,0,5.126,0,0,3,0,0,0,9.714,4.709,0,0,0,2,31,LANDED
32.4,TAKEOFF,TO_ROTATE,87.73,80,-7.73,4.65,0.25,5.56,5.41,275.52,0.025,1,0,0,0,0,0,0,0,0,0,270.4,11.214,0,0,0,0,0,0,0,0,270.4,1,0,5.118,0,0,3,0,0,0,11.214,5.658,0,0,0,2,31.66,LANDED
33.04,TAKEOFF,TO_ROTATE,90.06,80,-10.06,4.78,-0.05,5.97,5.98,275.51,0.042,1,0,0,0,0,0,0,0,0,0,270.4,12,0,0,0,0,0,0,0,0,270.4,1,0,5.11,0,0,3,0,0,0,12,6.048,0,0,0,2,32.3,FLYING
33.7,TAKEOFF,TO_ROTATE,92.39,80,-12.39,4.6,-0.03,4.91,4.98,275.63,1.816,1,0,0,0,0,0,0,0,0,0,270.4,12,0,0,0,0,0,0,0,0,270.4,1,0,5.227,0,0,3,0,0,0,12,7.043,0,0,0,2,32.96,LANDED
34.36,TAKEOFF,TO_ROTATE,94.9,80,-14.9,4.49,-0.01,4.15,4.17,275.43,3.031,1,0,0,0,0,0,0,0,0,0,270.4,12,0,0,0,0,0,0,0,0,270.4,1,0,5.045,0,0,3,0,0,0,12,7.85,0,0,0,2,33.62,LANDED
35.02,TAKEOFF,TO_ROTATE,97.43,80,-17.43,4.62,-0.06,4.8,4.82,275.14,2.777,1,0,0,0,0,0,0,0,0,0,270.4,12,0,0,0,0,0,0,0,0,270.4,1,0,4.757,0,0,3,0,0,0,12,7.229,0,0,0,2,34.28,LANDED
35.68,TAKEOFF,TO_ROTATE,99.81,80,-19.81,4.96,0.36,6.46,6.15,275.01,2.657,1,0,0,0,0,0,0,0,0,0,270.4,12,0,0,0,0,0,0,0,0,270.4,1,0,4.621,0,0,3,0,0,0,12,5.672,0,0,0,2,34.94,FLYING
36.34,TAKEOFF,TO_ROTATE,101.4,80,-21.4,7.54,4.07,15.42,13.09,274.4,4.082,1,0,0,0,0,0,0,0,0,0,270.4,12,0,0,0,0,0,0,0,0,270.4,1,0,4.053,0,0,3,0,0,0,12,-3.117,0,0,0,2,35.6,FLYING
37.02,TAKEOFF,TO_CLIMB,101.37,80,-21.37,13.18,11.71,15.11,9.18,274.28,5.546,1,0,0,0,0,0,0,0,0,0,270.4,12,0,0,0,0,0,0,0,0,270.4,1,0,3.829,0,0,3,0,0,0,12,-3.568,0,0,0,2,36.28,FLYING
37.68,TAKEOFF,TO_CLIMB,102.75,80,-22.75,20.33,12.05,6.76,0.55,274.68,5.493,0.8,0,0,0,0,0,0,0,0,0,270.4,11.2,0,0,0,0,0,0,0,0,270.4,1,0,4.262,0,0,3,0,0,0,12,-3.568,0,0,0,2,36.96,FLYING
38.32,TAKEOFF,TO_CLIMB,104.96,80,-24.96,26.18,8.23,3.72,-0.54,274.59,2.021,0.78,0,0,0,0,0,0,0,0,0,270.4,10.4,0,0,0,0,0,0,0,0,270.4,1,0,4.22,0,0,3,0,0,0,12,-3.568,0,0,0,2,37.6,FLYING
38.94,TAKEOFF,TO_CLIMB,107.25,80,-27.25,30.61,5.61,4.8,1.9,274.09,1.559,0.78,0,0,0,0,0,0,0,0,0,270.4,9.6,0,0,0,0,0,0,0,0,270.4,1,0,3.707,0,0,3,0,0,0,12,-3.568,0,0,0,2,38.22,FLYING
39.58,TAKEOFF,TO_CLIMB,109.28,80,-29.28,35.46,6.7,10.68,7.3,274.14,-2.674,0.78,0,0,0,0,0,0,0,0,0,270.4,8.8,0,0,0,0,0,0,0,0,270.4,1,0,3.739,0,0,3,0,0,0,12,-3.568,0,0,0,2,38.86,FLYING
40.2,TAKEOFF,TO_CLIMB,110.35,80,-30.35,41.57,11.05,10.19,5.01,273.95,0.333,0.78,0,0,0,0,0,0,0,0,0,270.4,8,0,0,0,0,0,0,0,0,270.4,1,0,3.549,0,0,3,0,0,0,12,-3.568,0,0,0,2,39.48,FLYING
40.82,TAKEOFF,TO_CLIMB,111.86,80,-31.86,48.65,10.83,5,-0.07,273.89,6.48,0.78,0,0,0,0,0,0,0,0,0,270.4,8,0,0,0,0,0,0,0,0,270.4,1,0,3.517,0,0,3,0,0,0,12,-3.568,0,0,0,2,40.1,FLYING
41.44,TAKEOFF,TO_CLIMB,113.88,80,-33.88,54.91,7.22,2.57,-0.87,273.91,7.467,0.78,0,0,0,0,0,0,0,0,0,270.4,8,0,0,0,0,0,0,0,0,270.4,1,0,3.501,0,0,3,0,0,0,12,-3.568,0,0,0,2,40.72,FLYING
42.06,TAKEOFF,TO_CLIMB,116.05,80,-36.05,59.89,4.53,3.84,1.66,273.08,8.601,0.78,0,0,0,0,0,0,0,0,0,270.4,8,0,0,0,0,0,0,0,0,270.4,1,0,2.773,0,0,3,0,0,0,12,-3.568,0,0,0,2,41.34,FLYING
42.7,TAKEOFF,TO_CLIMB,117.98,80,-37.98,64.91,5.41,5.11,2.73,273.11,3.934,0.78,0,0,0,0,0,0,0,0,0,270.4,8,0,0,0,0,0,0,0,0,270.4,1,0,2.637,0,0,3,0,0,0,12,-3.568,0,0,0,2,41.98,FLYING
43.34,TAKEOFF,TO_CLIMB,119.95,80,-39.95,69.64,4.47,2.32,0.36,273.55,-3.316,0.78,0,0,0,0,0,0,0,0,0,270.4,8,0,0,0,0,0,0,0,0,270.4,1,0,3.19,0,0,3,0,0,0,12,-3.568,0,0,0,2,42.62,FLYING
43.98,TAKEOFF,TO_CLIMB,122.04,80,-42.04,75.27,3.6,5.29,3.65,273.28,1.542,0.78,0,0,0,0,0,0,0,0,0,270.4,8,0,0,0,0,0,0,0,0,270.4,1,0,2.921,0,0,3,0,0,0,12,-3.568,0,0,0,2,43.26,FLYING
44.62,TAKEOFF,TO_CLIMB,123.79,80,-43.79,80.99,5.46,4.07,1.84,272.66,6.095,0.78,0,0,0,0,0,0,0,0,0,270.4,8,0,0,0,0,0,0,0,0,270.4,1,0,2.247,0,0,3,0,0,0,12,-3.568,0,0,0,2,43.9,FLYING
45.26,TAKEOFF,TO_CLIMB,125.79,80,-45.79,86.82,4.05,2.22,0.44,272.93,1.963,0.78,0,0,0,0,0,0,0,0,0,270.4,8,0,0,0,0,0,0,0,0,270.4,1,0,2.543,0,0,3,0,0,0,12,-3.568,0,0,0,2,44.54,FLYING
45.9,TAKEOFF,TO_CLIMB,127.75,80,-47.75,93.58,4.95,5.54,3.51,272.58,3.348,0.78,0,0,0,0,0,0,0,0,0,270.4,8,0,0,0,0,0,0,0,0,270.4,1,0,2.231,0,0,3,0,0,0,12,-3.568,0,0,0,2,45.18,FLYING
46.54,TAKEOFF,TO_CLIMB,129.48,80,-49.48,100.87,5.87,2.7,0.35,272.56,2.891,0.78,0,0,0,0,0,0,0,0,0,270.4,8,0,0,0,0,0,0,0,0,270.4,1,0,2.139,0,0,3,0,0,0,12,-3.568,0,0,0,2,45.82,FLYING
47.18,TAKEOFF,TO_CLIMB,131.55,80,-51.55,109.11,3.54,1.36,-0.13,272.49,1.852,0.78,0,0,0,0,0,0,0,0,0,270.4,8,0,0,0,0,0,0,0,0,270.4,1,0,2.124,0,0,3,0,0,0,12,-3.568,0,0,0,2,46.46,FLYING
47.82,TAKEOFF,TO_CLIMB,133.6,80,-53.6,119.02,3.81,4.39,2.89,272.08,3.854,0.78,0,0,0,0,0,0,0,0,0,270.4,8,0,0,0,0,0,0,0,0,270.4,1,0,1.681,0,0,3,0,0,0,12,-3.568,0,0,0,2,47.1,FLYING
48.46,TAKEOFF,TO_CLIMB,135.38,80,-55.38,127.57,4.71,1.56,-0.22,272.22,2.395,0.78,0,0,0,0,0,0,0,0,0,270.4,8,0,0,0,0,0,0,0,0,270.4,1,0,1.82,0,0,3,0,0,0,12,-3.568,0,0,0,2,47.74,FLYING
49.1,TAKEOFF,TO_CLIMB,137.47,80,-57.47,136.6,1.82,0.08,-0.66,271.88,7.629,0.78,0,0,0,0,0,0,0,0,0,270.4,8,0,0,0,0,0,0,0,0,270.4,1,0,1.503,0,0,3,0,0,0,12,-3.568,0,0,0,2,48.38,FLYING
49.74,TAKEOFF,TO_CLIMB,139.59,80,-59.59,149.61,1.49,2.36,1.79,271.73,4.541,0.78,0,0,0,0,0,0,0,0,0,270.4,8,0,0,0,0,0,0,0,0,270.4,1,0,1.313,0,0,3,0,0,0,12,-3.568,0,0,0,2,49.02,FLYING
50.38,TAKEOFF,TO_CLIMB,141.53,80,-61.53,162.27,2.25,1.76,0.85,271.66,2.891,0.78,0,0,0,0,0,0,0,0,0,270.4,8,0,0,0,0,0,0,0,0,270.4,1,0,1.293,0,0,3,0,0,0,12,-3.568,0,0,0,2,49.66,FLYING
51.02,TAKEOFF,TO_CLIMB,143.4,80,-63.4,169.8,4.19,2.92,1.43,271.46,2.871,0.78,0,0,0,0,0,0,0,0,0,270.4,8,0,0,0,0,0,0,0,0,270.4,1,0,1.05,0,0,3,0,0,0,12,-3.568,0,0,0,2,50.3,FLYING
51.66,TAKEOFF,TO_CLIMB,145.31,80,-65.31,179.39,3.93,1.62,0.12,271.38,3.005,0.78,0,0,0,0,0,0,0,0,0,270.4,8,0,0,0,0,0,0,0,0,270.4,1,0,0.983,0,0,3,0,0,0,12,-3.568,0,0,0,2,50.94,FLYING
52.3,TAKEOFF,TO_CLIMB,147.13,80,-67.13,191.14,5.84,3.63,1.6,271.17,2.551,0.78,0,0,0,0,0,0,0,0,0,270.4,8,0,0,0,0,0,0,0,0,270.4,1,0,0.769,0,0,3,0,0,0,12,-3.568,0,0,0,2,51.58,FLYING
52.94,TAKEOFF,TO_CLIMB,148.94,80,-68.94,200.54,4.86,0.12,-1.61,271.24,2.045,0.78,0,0,0,0,0,0,0,0,0,270.4,8,0,0,0,0,0,0,0,0,270.4,1,0,0.833,0,0,3,0,0,0,12,-3.568,0,0,0,2,52.22,FLYING
53.58,TAKEOFF,TO_CLIMB,151.06,80,-71.06,214.67,1.75,-0.01,-0.7,271.09,1.756,0.78,0,0,0,0,0,0,0,0,0,270.4,8,0,0,0,0,0,0,0,0,270.4,1,0,0.676,0,0,3,0,0,0,12,-3.568,0,0,0,2,52.86,FLYING
54.22,TAKEOFF,TO_CLIMB,153.13,80,-73.13,226.67,1.84,1.46,0.8,271.07,1.43,0.78,0,0,0,0,0,0,0,0,0,270.4,8,0,0,0,0,0,0,0,0,270.4,1,0,0.682,0,0,3,0,0,0,12,-3.568,0,0,0,2,53.5,FLYING
54.86,TAKEOFF,TO_CLIMB,155.06,80,-75.06,240.5,2.87,1.13,0.16,271,1.351,0.78,0,0,0,0,0,0,0,0,0,270.4,8,0,0,0,0,0,0,0,0,270.4,1,0,0.603,0,0,3,0,0,0,12,-3.568,0,0,0,2,54.14,FLYING
55.5,TAKEOFF,TO_CLIMB,157.03,80,-77.03,250.7,3,1.47,0.41,270.95,1.209,0.78,0,0,0,0,0,0,0,0,0,270.4,8,0,0,0,0,0,0,0,0,270.4,1,0,0.55,0,0,3,0,0,0,12,-3.568,0,0,0,2,54.78,FLYING
56.14,TAKEOFF,TO_CLIMB,158.91,80,-78.91,258.29,4.33,1.78,0.34,270.9,1.004,0.78,0,0,0,0,0,0,0,0,0,270.4,8,0,0,0,0,0,0,0,0,270.4,1,0,0.504,0,0,3,0,0,0,12,-3.568,0,0,0,2,55.42,FLYING
56.78,TAKEOFF,TO_CLIMB,160.77,80,-80.77,269.31,4.82,1.84,0.19,270.86,0.897,0.78,0,0,0,0,0,0,0,0,0,270.4,8,0,0,0,0,0,0,0,0,270.4,1,0,0.468,0,0,3,0,0,0,12,-3.568,0,0,0,2,56.06,FLYING
57.42,TAKEOFF,TO_CLIMB,162.56,80,-82.56,282.21,6.03,2.13,0.14,270.83,0.751,0.78,0,0,0,0,0,0,0,0,0,270.4,8,0,0,0,0,0,0,0,0,270.4,1,0,0.432,0,0,3,0,0,0,12,-3.568,0,0,0,2,56.7,FLYING
58.06,TAKEOFF,TO_CLIMB,164.34,80,-84.34,291.54,6.5,2.22,0.05,270.8,0.69,0.78,0,0,0,0,0,0,0,0,0,270.4,8,0,0,0,0,0,0,0,0,270.4,1,0,0.405,0,0,3,0,0,0,12,-3.568,0,0,0,2,57.34,FLYING
58.7,TAKEOFF,TO_CLIMB,166.05,80,-86.05,298.78,7.66,2.38,-0.1,270.77,0.701,0.78,0,0,0,0,0,0,0,0,0,270.4,8,0,0,0,0,0,0,0,0,270.4,1,0,0.373,0,0,3,0,0,0,12,-3.568,0,0,0,2,57.98,FLYING
59.38,CRUISE,,167.87,80,-87.87,311.32,8.04,2.55,-0.07,270.75,0.553,0.78,0,0,0,0,0,0,0,0,0,270.4,8,0,0,0,0,0,0,0,0,270.4,1,0,0.358,0,0,3,0,0,0,12,-3.568,0,0,0,2,0.06,FLYING
60.04,APPROACH,,169.56,75,-94.56,318.91,9.08,2.5,-0.38,270.73,0.518,0.78,0,0,0,0,0,0,0,0,0,270.4,8,0,0,0,0,0,0,0,0,270.4,1,0,0.358,0,0,3,0,0,0,12,-3.568,0,0,0,2,0.06,FLYING
60.76,APPROACH,,171.4,75,-96.4,333.19,9.6,2.96,-0.08,270.71,0.463,0.78,0,0,0,0,0,0,0,0,0,270.4,8,0,0,0,0,0,0,0,0,270.4,1,0,0.358,0,0,3,0,0,0,12,-3.568,0,0,0,2,0.76,FLYING
61.42,APPROACH,,173.03,75,-98.03,347.51,10.14,2.45,-0.73,270.7,0.321,0.78,0,0,0,0,0,0,0,0,0,270.4,8,0,0,0,0,0,0,0,0,270.4,1,0,0.358,0,0,3,0,0,0,12,-3.568,0,0,0,2,1.42,FLYING
62.08,APPROACH,,174.65,75,-99.65,355.47,10.88,2.83,-0.56,270.68,0.384,0.78,0,0,0,0,0,0,0,0,0,270.4,8,0,0,0,0,0,0,0,0,270.4,1,0,0.358,0,0,3,0,0,0,12,-3.568,0,0,0,2,2.08,FLYING
62.74,APPROACH,,176.29,75,-101.29,368.12,10.16,2.87,-0.26,270.67,0.272,0.78,0,0,0,0,0,0,0,0,0,270.4,8,0,0,0,0,0,0,0,0,270.4,1,0,0.358,0,0,3,0,0,0,12,-3.568,0,0,0,2,2.74,FLYING
63.4,APPROACH,,177.86,75,-102.86,377.05,9.84,0.68,-2.33,270.67,0.568,0.78,0,0,0,0,0,0,0,0,0,270.4,8,0,0,0,0,0,0,0,0,270.4,1,0,0.358,0,0,3,0,0,0,12,-3.568,0,0,0,2,3.4,FLYING
64.06,APPROACH,,179.7,75,-104.7,379.36,6.08,0.77,-1.06,270.66,0.532,0.78,0,0,0,0,0,0,0,0,0,270.4,8,0,0,0,0,0,0,0,0,270.4,1,0,0.358,0,0,3,0,0,0,12,-3.568,0,0,0,2,4.06,FLYING
64.72,APPROACH,,181.42,75,-106.42,377.39,7.74,1.9,-0.42,270.63,0.509,0.78,0,0,0,0,0,0,0,0,0,270.4,8,0,0,0,0,0,0,0,0,270.4,1,0,0.358,0,0,3,0,0,0,12,-3.568,0,0,0,2,4.72,FLYING
65.38,APPROACH,,183.13,75,-108.13,385.06,7.5,1.45,-0.78,270.61,0.575,0.78,0,0,0,0,0,0,0,0,0,270.4,8,0,0,0,0,0,0,0,0,270.4,1,0,0.358,0,0,3,0,0,0,12,-3.568,0,0,0,2,5.38,FLYING
66.06,APPROACH,,184.81,75,-109.81,398.03,8.94,1.73,-0.9,270.59,0.768,0.78,0,0,0,0,0,0,0,0,0,270.4,8,0,0,0,0,0,0,0,0,270.4,1,0,0.358,0,0,3,0,0,0,12,-3.568,0,0,0,2,6.06,FLYING
66.74,APPROACH,,186.54,75,-111.54,413.03,8.72,2.04,-0.51,270.57,0.657,0.78,0,0,0,0,0,0,0,0,0,270.4,8,0,0,0,0,0,0,0,0,270.4,1,0,0.358,0,0,3,0,0,0,12,-3.568,0,0,0,2,6.74,FLYING
67.42,APPROACH,,188.15,75,-113.15,428.45,9.77,1.6,-1.23,270.56,0.435,0.78,0,0,0,0,0,0,0,0,0,270.4,8,0,0,0,0,0,0,0,0,270.4,1,0,0.358,0,0,3,0,0,0,12,-3.568,0,0,0,2,7.42,FLYING
68.1,APPROACH,,189.8,75,-114.8,440.03,9.95,1.92,-0.94,270.54,0.411,0.78,0,0,0,0,0,0,0,0,0,270.4,8,0,0,0,0,0,0,0,0,270.4,1,0,0.358,0,0,3,0,0,0,12,-3.568,0,0,0,2,8.1,FLYING
68.76,APPROACH,,191.36,75,-116.36,453.07,10.51,2.05,-0.95,270.53,0.311,0.78,0,0,0,0,0,0,0,0,0,270.4,8,0,0,0,0,0,0,0,0,270.4,1,0,0.358,0,0,3,0,0,0,12,-3.568,0,0,0,2,8.76,FLYING
69.42,APPROACH,,192.9,75,-117.9,464.52,11.05,2.15,-0.97,270.51,0.339,0.78,0,0,0,0,0,0,0,0,0,270.4,8,0,0,0,0,0,0,0,0,270.4,1,0,0.358,0,0,3,0,0,0,12,-3.568,0,0,0,2,9.42,FLYING
70.08,APPROACH,,194.39,75,-119.39,479.79,12.03,3.67,0.29,270.48,0.44,0.78,0,0,0,0,0,0,0,0,0,270.4,8,0,0,0,0,0,0,0,0,270.4,1,0,0.358,0,0,3,0,0,0,12,-3.568,0,0,0,2,10.08,FLYING
70.74,APPROACH,,195.66,75,-120.66,493.2,14.39,3.05,-0.96,270.52,0.333,0.78,0,0,0,0,0,0,0,0,0,270.4,8,0,0,0,0,0,0,0,0,270.4,1,0,0.358,0,0,3,0,0,0,12,-3.568,0,0,0,2,10.74,FLYING
71.4,APPROACH,,197.01,75,-122.01,502.37,15.18,3.67,-0.53,270.47,0.304,0.78,0,0,0,0,0,0,0,0,0,270.4,8,0,0,0,0,0,0,0,0,270.4,1,0,0.358,0,0,3,0,0,0,12,-3.568,0,0,0,2,11.4,FLYING
72.06,APPROACH,,198.19,75,-123.19,509.92,18.34,4.92,-0.13,270.46,0.233,0.78,0,0,0,0,0,0,0,0,0,270.4,8,0,0,0,0,0,0,0,0,270.4,1,0,0.358,0,0,3,0,0,0,12,-3.568,0,0,0,2,12.06,FLYING
72.72,APPROACH,,199.17,75,-124.17,517.76,22.09,5.89,-0.16,270.45,0.145,0.78,0,0,0,0,0,0,0,0,0,270.4,8,0,0,0,0,0,0,0,0,270.4,1,0,0.358,0,0,3,0,0,0,12,-3.568,0,0,0,2,12.72,FLYING
73.38,APPROACH,,200,75,-125,525.71,25.76,6.82,-0.22,270.45,0.047,0.78,0,0,0,0,0,0,0,0,0,270.4,8,0,0,0,0,0,0,0,0,270.4,1,0,0.358,0,0,3,0,0,0,12,-3.568,0,0,0,2,13.38,FLYING
74.06,APPROACH,,200.71,75,-125.71,542.86,29.46,7.84,-0.18,270.44,0.027,0.78,0,0,0,0,0,0,0,0,0,270.4,8,0,0,0,0,0,0,0,0,270.4,1,0,0.358,0,0,3,0,0,0,12,-3.568,0,0,0,2,14.06,FLYING
74.72,APPROACH,,201.23,75,-126.23,554.21,33.24,8.84,-0.18,270.44,0.025,0.78,0,0,0,0,0,0,0,0,0,270.4,8,0,0,0,0,0,0,0,0,270.4,1,0,0.358,0,0,3,0,0,0,12,-3.568,0,0,0,2,14.72,FLYING
75.38,APPROACH,,201.6,75,-126.6,564.45,36.85,9.68,-0.3,270.44,0.048,0.78,0,0,0,0,0,0,0,0,0,270.4,8,0,0,0,0,0,0,0,0,270.4,1,0,0.358,0,0,3,0,0,0,12,-3.568,0,0,0,2,15.38,FLYING
76.04,APPROACH,,201.86,75,-126.86,572.61,39.73,9.85,-0.89,270.43,0.08,0.78,0,0,0,0,0,0,0,0,0,270.4,8,0,0,0,0,0,0,0,0,270.4,1,0,0.358,0,0,3,0,0,0,12,-3.568,0,0,0,2,16.04,FLYING
76.72,APPROACH,,201.94,75,-126.94,595.07,43.85,11.13,-0.72,270.43,0.067,0.78,0,0,0,0,0,0,0,0,0,270.4,8,0,0,0,0,0,0,0,0,270.4,1,0,0.358,0,0,3,0,0,0,12,-3.568,0,0,0,2,16.72,FLYING
77.38,APPROACH,,202.09,75,-127.09,617.7,42.27,9.29,-2.1,270.45,0.064,0.78,0,0,0,0,0,0,0,0,0,270.4,8,0,0,0,0,0,0,0,0,270.4,1,0,0.358,0,0,3,0,0,0,12,-3.568,0,0,0,2,17.38,FLYING
78.04,APPROACH,,202.21,75,-127.21,644.65,42.15,9.9,-1.35,270.93,-10.137,0.78,0,0,0,0,0,0,0,0,0,270.4,8,0,0,0,0,0,0,0,0,270.4,1,0,0.358,0,0,3,0,0,0,12,-3.568,0,0,0,2,18.04,FLYING
78.7,APPROACH,,202.23,75,-127.23,676.54,41.7,9.42,-1.47,271.41,-25.652,0.78,0,0,0,0,0,0,0,0,0,270.4,8,0,0,0,0,0,0,0,0,270.4,1,0,0.358,0,0,3,0,0,0,12,-3.568,0,0,0,2,18.7,FLYING
79.4,APPROACH,,202.19,75,-127.19,710.58,39.52,8.35,-1.81,271.68,-46.052,0.78,0,0,0,0,0,0,0,0,0,270.4,8,0,0,0,0,0,0,0,0,270.4,1,0,0.358,0,0,3,0,0,0,12,-3.568,0,0,0,2,19.41,FLYING
80.31,APPROACH,,202.15,75,-127.15,752.04,36.09,8.57,0.98,276.57,-72.44,0.78,0,0,0,0,0,0,0,0,0,270.4,8,0,0,0,0,0,0,0,0,270.4,1,0,0.358,0,0,3,0,0,0,12,-3.568,0,0,0,2,20.33,FLYING
81.3,APPROACH,,202.18,75,-127.18,788.21,29.93,7.73,1.37,282.58,-79.049,0.78,0,0,0,0,0,0,0,0,0,270.4,8,0,0,0,0,0,0,0,0,270.4,1,0,0.358,0,0,3,0,0,0,12,-3.568,0,0,0,2,21.32,FLYING
82.26,APPROACH,,202.65,75,-127.65,814.46,24.19,6.64,1.41,288.45,-78.339,0.78,0,0,0,0,0,0,0,0,0,270.4,8,0,0,0,0,0,0,0,0,270.4,1,0,0.358,0,0,3,0,0,0,12,-3.568,0,0,0,2,22.28,FLYING
83.22,APPROACH,,203.44,75,-128.44,829.11,19.31,5.48,1.4,294.29,-76.808,0.78,0,0,0,0,0,0,0,0,0,270.4,8,0,0,0,0,0,0,0,0,270.4,1,0,0.358,0,0,3,0,0,0,12,-3.568,0,0,0,2,23.24,FLYING
84.18,APPROACH,,204.5,75,-129.5,838.67,15.35,4.46,1.37,300.06,-75.039,0.78,0,0,0,0,0,0,0,0,0,270.4,8,0,0,0,0,0,0,0,0,270.4,1,0,0.358,0,0,3,0,0,0,12,-3.568,0,0,0,2,24.2,FLYING
85.17,APPROACH,,205.84,75,-130.84,845.92,12.1,3.61,1.32,305.92,-73.336,0.78,0,0,0,0,0,0,0,0,0,270.4,8,0,0,0,0,0,0,0,0,270.4,1,0,0.358,0,0,3,0,0,0,12,-3.568,0,0,0,2,25.19,FLYING
86.13,APPROACH,,207.34,75,-132.34,847.48,9.62,2.94,1.25,311.52,-71.945,0.78,0,0,0,0,0,0,0,0,0,270.4,8,0,0,0,0,0,0,0,0,270.4,1,0,0.358,0,0,3,0,0,0,12,-3.568,0,0,0,2,26.15,FLYING
87.09,APPROACH,,208.99,75,-133.99,859.93,7.65,2.4,1.18,317.03,-70.82,0.78,0,0,0,0,0,0,0,0,0,270.4,8,0,0,0,0,0,0,0,0,270.4,1,0,0.358,0,0,3,0,0,0,12,-3.568,0,0,0,2,27.11,FLYING
88.08,APPROACH,,210.84,75,-135.84,877.94,6.05,1.96,1.1,322.64,-69.905,0.78,0,0,0,0,0,0,0,0,0,270.4,8,0,0,0,0,0,0,0,0,270.4,1,0,0.358,0,0,3,0,0,0,12,-3.568,0,0,0,2,28.1,FLYING
89.04,APPROACH,,212.75,75,-137.75,882.7,4.81,1.61,1.03,328,-69.205,0.78,0,0,0,0,0,0,0,0,0,270.4,8,0,0,0,0,0,0,0,0,270.4,1,0,0.358,0,0,3,0,0,0,12,-3.568,0,0,0,2,29.06,FLYING
90,APPROACH,,214.75,75,-139.75,884.83,3.83,1.32,0.94,333.3,-68.661,0.78,0,0,0,0,0,0,0,0,0,270.4,8,0,0,0,0,0,0,0,0,270.4,1,0,0.358,0,0,3,0,0,0,12,-3.568,0,0,0,2,30.02,FLYING
90.96,APPROACH,,216.84,75,-141.84,892.08,3.04,1.09,0.86,338.54,-68.233,0.78,0,0,0,0,0,0,0,0,0,270.4,8,0,0,0,0,0,0,0,0,270.4,1,0,0.358,0,0,3,0,0,0,12,-3.568,0,0,0,2,30.98,FLYING
91.92,APPROACH,,218.99,75,-143.99,889.85,2.4,0.9,0.78,343.72,-67.9,0.78,0,0,0,0,0,0,0,0,0,270.4,8,0,0,0,0,0,0,0,0,270.4,1,0,0.358,0,0,3,0,0,0,12,-3.568,0,0,0,2,31.94,FLYING
92.88,APPROACH,,221.21,75,-146.21,897.2,1.89,0.74,0.69,348.84,-67.641,0.78,0,0,0,0,0,0,0,0,0,270.4,8,0,0,0,0,0,0,0,0,270.4,1,0,0.358,0,0,3,0,0,0,12,-3.568,0,0,0,2,32.9,FLYING
93.87,APPROACH,,223.55,75,-148.55,899.86,1.47,0.59,0.61,354.07,-67.437,0.78,0,0,0,0,0,0,0,0,0,270.4,8,0,0,0,0,0,0,0,0,270.4,1,0,0.358,0,0,3,0,0,0,12,-3.568,0,0,0,2,33.89,FLYING
94.83,APPROACH,,225.87,75,-150.87,907.7,1.13,0.48,0.52,359.08,-67.285,0.78,0,0,0,0,0,0,0,0,0,270.4,8,0,0,0,0,0,0,0,0,270.4,1,0,0.358,0,0,3,0,0,0,12,-3.568,0,0,0,2,34.85,FLYING
95.82,APPROACH,,228.31,75,-153.31,911.13,0.86,0.38,0.44,4.2,-67.167,0.78,0,0,0,0,0,0,0,0,0,270.4,8,0,0,0,0,0,0,0,0,270.4,1,0,0.358,0,0,3,0,0,0,12,-3.568,0,0,0,2,35.84,FLYING
96.81,APPROACH,,230.77,75,-155.77,910.87,0.63,0.29,0.35,9.27,-67.081,0.78,0,0,0,0,0,0,0,0,0,270.4,8,0,0,0,0,0,0,0,0,270.4,1,0,0.358,0,0,3,0,0,0,12,-3.568,0,0,0,2,36.83,FLYING
97.8,APPROACH,,233.27,75,-158.27,915.3,0.44,0.22,0.27,14.29,-67.018,0.78,0,0,0,0,0,0,0,0,0,270.4,8,0,0,0,0,0,0,0,0,270.4,1,0,0.358,0,0,3,0,0,0,12,-3.568,0,0,0,2,37.82,FLYING
98.79,APPROACH,,235.79,75,-160.79,917.18,0.3,0.15,0.19,19.26,-66.972,0.78,0,0,0,0,0,0,0,0,0,270.4,8,0,0,0,0,0,0,0,0,270.4,1,0,0.358,0,0,3,0,0,0,12,-3.568,0,0,0,2,38.81,FLYING
99.78,APPROACH,,238.33,75,-163.33,929.75,0.18,0.09,0.11,24.18,-66.945,0.78,0,0,0,0,0,0,0,0,0,270.4,8,0,0,0,0,0,0,0,0,270.4,1,0,0.358,0,0,3,0,0,0,12,-3.568,0,0,0,2,39.8,FLYING
100.77,APPROACH,,240.89,75,-165.89,932.53,0.08,0.04,0.03,29.05,-66.929,0.78,0,0,0,0,0,0,0,0,0,270.4,8,0,0,0,0,0,0,0,0,270.4,1,0,0.358,0,0,3,0,0,0,12,-3.568,0,0,0,2,40.79,FLYING
101.76,APPROACH,,243.46,75,-168.46,929.3,0,-0.01,-0.04,33.88,-66.919,0.78,0,0,0,0,0,0,0,0,0,270.4,8,0,0,0,0,0,0,0,0,270.4,1,0,0.358,0,0,3,0,0,0,12,-3.568,0,0,0,2,41.78,FLYING
102.75,APPROACH,,246.04,75,-171.04,941.02,-0.07,-0.05,-0.12,38.67,-66.92,0.78,0,0,0,0,0,0,0,0,0,270.4,8,0,0,0,0,0,0,0,0,270.4,1,0,0.358,0,0,3,0,0,0,12,-3.568,0,0,0,2,42.77,FLYING
103.71,APPROACH,,248.55,75,-173.55,946.99,-0.08,-0.03,-0.15,43.29,-66.251,0.78,0,0,0,0,0,0,0,0,0,270.4,8,0,0,0,0,0,0,0,0,270.4,1,0,0.358,0,0,3,0,0,0,12,-3.568,0,0,0,2,43.73,FLYING
104.7,APPROACH,,251.06,75,-176.06,945.93,1.29,0.4,-0.15,47.98,-61.342,0.78,0,0,0,0,0,0,0,0,0,270.4,8,0,0,0,0,0,0,0,0,270.4,1,0,0.358,0,0,3,0,0,0,12,-3.568,0,0,0,2,44.72,FLYING
105.69,APPROACH,,253.42,75,-178.42,942.65,4.81,1.14,-0.18,52.5,-56.488,0.78,0,0,0,0,0,0,0,0,0,270.4,8,0,0,0,0,0,0,0,0,270.4,1,0,0.358,0,0,3,0,0,0,12,-3.568,0,0,0,2,45.71,FLYING
106.68,APPROACH,,255.54,75,-180.54,944.89,10.11,2.19,-0.22,56.83,-52.459,0.78,0,0,0,0,0,0,0,0,0,270.4,8,0,0,0,0,0,0,0,0,270.4,1,0,0.358,0,0,3,0,0,0,12,-3.568,0,0,0,2,46.7,FLYING
107.64,APPROACH,,257.28,75,-182.28,963.16,16.53,3.49,-0.24,60.85,-49.244,0.78,0,0,0,0,0,0,0,0,0,270.4,8,0,0,0,0,0,0,0,0,270.4,1,0,0.358,0,0,3,0,0,0,12,-3.568,0,0,0,2,47.66,FLYING
108.6,APPROACH,,258.63,75,-183.63,991.73,24.23,5.09,-0.25,64.66,-45.438,0.78,0,0,0,0,0,0,0,0,0,270.4,8,0,0,0,0,0,0,0,0,270.4,1,0,0.358,0,0,3,0,0,0,12,-3.568,0,0,0,2,48.62,FLYING
109.59,APPROACH,,259.54,75,-184.54,1018.2,33.51,7,-0.26,68.4,-41.66,0.78,0,0,0,0,0,0,0,0,0,270.4,8,0,0,0,0,0,0,0,0,270.4,1,0,0.358,0,0,3,0,0,0,12,-3.568,0,0,0,2,49.61,FLYING
110.55,APPROACH,,259.89,75,-184.89,1051.13,43.55,9.07,-0.26,71.83,-38.497,0.78,0,0,0,0,0,0,0,0,0,270.4,8,0,0,0,0,0,0,0,0,270.4,1,0,0.358,0,0,3,0,0,0,12,-3.568,0,0,0,2,50.57,FLYING
111.54,APPROACH,,259.68,75,-184.68,1092.84,54.66,11.39,-0.25,75.21,-35.928,0.78,0,0,0,0,0,0,0,0,0,270.4,8,0,0,0,0,0,0,0,0,270.4,1,0,0.358,0,0,3,0,0,0,12,-3.568,0,0,0,2,51.56,FLYING
112.5,APPROACH,,258.91,75,-183.91,1146.29,65.18,13.38,-0.58,78,-33.366,0.78,0,0,0,0,0,0,0,0,0,270.4,8,0,0,0,0,0,0,0,0,270.4,1,0,0.358,0,0,3,0,0,0,12,-3.568,0,0,0,2,52.52,FLYING
113.46,APPROACH,,257.84,75,-182.84,1196.45,73.43,14.85,-0.95,80.13,-29.27,0.78,0,0,0,0,0,0,0,0,0,270.4,8,0,0,0,0,0,0,0,0,270.4,1,0,0.358,0,0,3,0,0,0,12,-3.568,0,0,0,2,53.48,FLYING
114.42,APPROACH,,256.52,75,-181.52,1262.46,80.01,16,-1.23,81.84,-25.033,0.78,0,0,0,0,0,0,0,0,0,270.4,8,0,0,0,0,0,0,0,0,270.4,1,0,0.358,0,0,3,0,0,0,12,-3.568,0,0,0,2,54.44,FLYING
115.41,APPROACH,,254.95,75,-179.95,1345.98,85.26,16.91,-1.45,83.24,-20.947,0.78,0,0,0,0,0,0,0,0,0,270.4,8,0,0,0,0,0,0,0,0,270.4,1,0,0.358,0,0,3,0,0,0,12,-3.568,0,0,0,2,55.43,FLYING
116.37,APPROACH,,253.26,75,-178.26,1449.75,89.09,17.56,-1.63,84.29,-17.36,0.78,0,0,0,0,0,0,0,0,0,270.4,8,0,0,0,0,0,0,0,0,270.4,1,0,0.358,0,0,3,0,0,0,12,-3.568,0,0,0,2,56.39,FLYING
117.33,APPROACH,,251.44,75,-176.44,1543.04,91.82,18.02,-1.77,85.12,-14.199,0.78,0,0,0,0,0,0,0,0,0,270.4,8,0,0,0,0,0,0,0,0,270.4,1,0,0.358,0,0,3,0,0,0,12,-3.568,0,0,0,2,57.35,FLYING
118.29,APPROACH,,249.54,75,-174.54,1643.85,93.63,18.33,-1.88,85.76,-11.468,0.78,0,0,0,0,0,0,0,0,0,270.4,8,0,0,0,0,0,0,0,0,270.4,1,0,0.358,0,0,3,0,0,0,12,-3.568,0,0,0,2,58.31,FLYING
119.25,APPROACH,,247.57,75,-172.57,1736.29,94.69,18.5,-1.97,86.26,-9.148,0.78,0,0,0,0,0,0,0,0,0,270.4,8,0,0,0,0,0,0,0,0,270.4,1,0,0.358,0,0,3,0,0,0,12,-3.568,0,0,0,2,59.27,FLYING
120.21,APPROACH,,245.58,75,-170.58,1834.08,95.13,18.56,-2.03,86.65,-7.211,0.78,0,0,0,0,0,0,0,0,0,270.4,8,0,0,0,0,0,0,0,0,270.4,1,0,0.358,0,0,3,0,0,0,12,-3.568,0,0,0,2,60.23,FLYING
121.17,APPROACH,,243.58,75,-168.58,1935.16,95.09,18.54,-2.08,86.94,-5.612,0.78,0,0,0,0,0,0,0,0,0,270.4,8,0,0,0,0,0,0,0,0,270.4,1,0,0.358,0,0,3,0,0,0,12,-3.568,0,0,0,2,61.19,FLYING
122.16,APPROACH,,241.53,75,-166.53,2033.76,94.66,18.46,-2.11,87.18,-4.074,0.78,0,0,0,0,0,0,0,0,0,270.4,8,0,0,0,0,0,0,0,0,270.4,1,0,0.358,0,0,3,0,0,0,12,-3.568,0,0,0,2,62.18,FLYING
123.12,APPROACH,,239.57,75,-164.57,2125.66,93.96,18.32,-2.13,87.35,-3.263,0.78,0,0,0,0,0,0,0,0,0,270.4,8,0,0,0,0,0,0,0,0,270.4,1,0,0.358,0,0,3,0,0,0,12,-3.568,0,0,0,2,63.14,FLYING
124.08,APPROACH,,237.63,75,-162.63,2206.52,93.04,18.15,-2.14,87.47,-2.526,0.78,0,0,0,0,0,0,0,0,0,270.4,8,0,0,0,0,0,0,0,0,270.4,1,0,0.358,0,0,3,0,0,0,12,-3.568,0,0,0,2,64.1,FLYING
125.04,APPROACH,,235.74,75,-160.74,2278.92,91.99,17.96,-2.14,87.56,-1.918,0.78,0,0,0,0,0,0,0,0,0,270.4,8,0,0,0,0,0,0,0,0,270.4,1,0,0.358,0,0,3,0,0,0,12,-3.568,0,0,0,2,65.06,FLYING
126.03,APPROACH,,233.83,75,-158.83,2356.44,90.83,17.75,-2.13,87.64,-1.434,0.78,0,0,0,0,0,0,0,0,0,270.4,8,0,0,0,0,0,0,0,0,270.4,1,0,0.358,0,0,3,0,0,0,12,-3.568,0,0,0,2,66.05,FLYING
126.99,APPROACH,,232.02,75,-157.02,2439.02,89.67,17.54,-2.12,87.69,-1.082,0.78,0,0,0,0,0,0,0,0,0,270.4,8,0,0,0,0,0,0,0,0,270.4,1,0,0.358,0,0,3,0,0,0,12,-3.568,0,0,0,2,67.01,FLYING
127.95,APPROACH,,230.25,75,-155.25,2526.36,88.49,17.33,-2.1,87.73,-0.821,0.78,0,0,0,0,0,0,0,0,0,270.4,8,0,0,0,0,0,0,0,0,270.4,1,0,0.358,0,0,3,0,0,0,12,-3.568,0,0,0,2,67.97,FLYING
128.91,APPROACH,,228.53,75,-153.53,2622.87,87.35,17.13,-2.08,87.76,-0.632,0.78,0,0,0,0,0,0,0,0,0,270.4,8,0,0,0,0,0,0,0,0,270.4,1,0,0.358,0,0,3,0,0,0,12,-3.568,0,0,0,2,68.93,FLYING
129.87,APPROACH,,226.85,75,-151.85,2709.45,86.23,16.93,-2.05,87.78,-0.489,0.78,0,0,0,0,0,0,0,0,0,270.4,8,0,0,0,0,0,0,0,0,270.4,1,0,0.358,0,0,3,0,0,0,12,-3.568,0,0,0,2,69.89,FLYING
130.83,APPROACH,,225.2,75,-150.2,2797.11,85.16,16.75,-2.03,87.79,-0.391,0.78,0,0,0,0,0,0,0,0,0,270.4,8,0,0,0,0,0,0,0,0,270.4,1,0,0.358,0,0,3,0,0,0,12,-3.568,0,0,0,2,70.85,FLYING
131.79,APPROACH,,223.6,75,-148.6,2878.84,84.13,16.58,-2.01,87.8,-0.319,0.78,0,0,0,0,0,0,0,0,0,270.4,8,0,0,0,0,0,0,0,0,270.4,1,0,0.358,0,0,3,0,0,0,12,-3.568,0,0,0,2,71.81,FLYING
132.78,APPROACH,,221.97,75,-146.97,2974.33,83.14,16.41,-1.98,87.81,-0.262,0.78,0,0,0,0,0,0,0,0,0,270.4,8,0,0,0,0,0,0,0,0,270.4,1,0,0.358,0,0,3,0,0,0,12,-3.568,0,0,0,2,72.8,FLYING
133.74,APPROACH,,220.42,75,-145.42,3052.7,82.22,16.26,-1.96,87.81,-0.231,0.78,0,0,0,0,0,0,0,0,0,270.4,8,0,0,0,0,0,0,0,0,270.4,1,0,0.358,0,0,3,0,0,0,12,-3.568,0,0,0,2,73.76,FLYING
134.7,APPROACH,,218.91,75,-143.91,3116.39,81.35,16.12,-1.93,87.81,-0.205,0.78,0,0,0,0,0,0,0,0,0,270.4,8,0,0,0,0,0,0,0,0,270.4,1,0,0.358,0,0,3,0,0,0,12,-3.568,0,0,0,2,74.72,FLYING
135.69,APPROACH,,217.37,75,-142.37,3194.18,80.5,15.99,-1.9,87.81,-0.183,0.78,0,0,0,0,0,0,0,0,0,270.4,8,0,0,0,0,0,0,0,0,270.4,1,0,0.358,0,0,3,0,0,0,12,-3.568,0,0,0,2,75.71,FLYING
136.65,APPROACH,,215.9,75,-140.9,3269.02,79.71,15.86,-1.88,87.81,-0.165,0.78,0,0,0,0,0,0,0,0,0,270.4,8,0,0,0,0,0,0,0,0,270.4,1,0,0.358,0,0,3,0,0,0,12,-3.568,0,0,0,2,76.67,FLYING
137.61,APPROACH,,214.45,75,-139.45,3337.62,78.98,15.75,-1.85,87.81,-0.15,0.78,0,0,0,0,0,0,0,0,0,270.4,8,0,0,0,0,0,0,0,0,270.4,1,0,0.358,0,0,3,0,0,0,12,-3.568,0,0,0,2,77.63,FLYING
138.6,APPROACH,,212.98,75,-137.98,3429.12,78.26,15.64,-1.83,87.81,-0.134,0.78,0,0,0,0,0,0,0,0,0,270.4,8,0,0,0,0,0,0,0,0,270.4,1,0,0.358,0,0,3,0,0,0,12,-3.568,0,0,0,2,78.62,FLYING
139.59,APPROACH,,211.52,75,-136.52,3503.59,77.56,15.53,-1.81,87.81,-0.125,0.78,0,0,0,0,0,0,0,0,0,270.4,8,0,0,0,0,0,0,0,0,270.4,1,0,0.358,0,0,3,0,0,0,12,-3.568,0,0,0,2,79.61,FLYING
140.58,APPROACH,,210.09,75,-135.09,3576.79,76.89,15.43,-1.79,87.81,-0.117,0.78,0,0,0,0,0,0,0,0,0,270.4,8,0,0,0,0,0,0,0,0,270.4,1,0,0.358,0,0,3,0,0,0,12,-3.568,0,0,0,2,80.6,FLYING
141.54,APPROACH,,208.71,75,-133.71,3650.31,76.24,15.33,-1.77,87.8,-0.118,0.78,0,0,0,0,0,0,0,0,0,270.4,8,0,0,0,0,0,0,0,0,270.4,1,0,0.358,0,0,3,0,0,0,12,-3.568,0,0,0,2,81.56,FLYING
142.53,APPROACH,,207.32,75,-132.32,3726.09,75.58,15.23,-1.74,87.8,-0.121,0.78,0,0,0,0,0,0,0,0,0,270.4,8,0,0,0,0,0,0,0,0,270.4,1,0,0.358,0,0,3,0,0,0,12,-3.568,0,0,0,2,82.55,FLYING
143.49,APPROACH,,205.97,75,-130.97,3805.53,74.95,15.13,-1.72,87.8,-0.122,0.78,0,0,0,0,0,0,0,0,0,270.4,8,0,0,0,0,0,0,0,0,270.4,1,0,0.358,0,0,3,0,0,0,12,-3.568,0,0,0,2,83.51,FLYING
144.45,APPROACH,,204.65,75,-129.65,3871.94,74.33,15.04,-1.7,87.8,-0.124,0.78,0,0,0,0,0,0,0,0,0,270.4,8,0,0,0,0,0,0,0,0,270.4,1,0,0.358,0,0,3,0,0,0,12,-3.568,0,0,0,2,84.47,FLYING
145.41,APPROACH,,203.34,75,-128.34,3943.74,73.71,14.94,-1.69,87.79,-0.128,0.78,0,0,0,0,0,0,0,0,0,270.4,8,0,0,0,0,0,0,0,0,270.4,1,0,0.358,0,0,3,0,0,0,12,-3.568,0,0,0,2,85.43,FLYING
146.37,APPROACH,,202.05,75,-127.05,4011.59,73.09,14.85,-1.67,87.79,-0.128,0.78,0,0,0,0,0,0,0,0,0,270.4,8,0,0,0,0,0,0,0,0,270.4,1,0,0.358,0,0,3,0,0,0,12,-3.568,0,0,0,2,86.39,FLYING
147.33,APPROACH,,200.77,75,-125.77,4071.15,72.47,14.75,-1.64,87.79,-0.128,0.78,0,0,0,0,0,0,0,0,0,270.4,8,0,0,0,0,0,0,0,0,270.4,1,0,0.358,0,0,3,0,0,0,12,-3.568,0,0,0,2,87.35,FLYING
148.29,APPROACH,,199.51,75,-124.51,4121.5,71.87,14.66,-1.62,87.79,-0.127,0.78,0,0,0,0,0,0,0,0,0,270.4,8,0,0,0,0,0,0,0,0,270.4,1,0,0.358,0,0,3,0,0,0,12,-3.568,0,0,0,2,88.31,FLYING
149.25,APPROACH,,198.26,75,-123.26,4175.99,71.26,14.57,-1.6,87.78,-0.127,0.78,0,0,0,0,0,0,0,0,0,270.4,8,0,0,0,0,0,0,0,0,270.4,1,0,0.358,0,0,3,0,0,0,12,-3.568,0,0,0,2,89.27,FLYING
150.24,APPROACH,,197,75,-122,4249.58,70.64,14.47,-1.58,87.78,-0.125,0.78,0,0,0,0,0,0,0,0,0,270.4,8,0,0,0,0,0,0,0,0,270.4,1,0,0.358,0,0,3,0,0,0,12,-3.568,0,0,0,2,90.26,FLYING
151.2,APPROACH,,195.78,75,-120.78,4299.21,70.04,14.38,-1.56,87.78,-0.128,0.78,0,0,0,0,0,0,0,0,0,270.4,8,0,0,0,0,0,0,0,0,270.4,1,0,0.358,0,0,3,0,0,0,12,-3.568,0,0,0,2,91.22,FLYING
152.16,APPROACH,,194.58,75,-119.58,4358.25,69.44,14.29,-1.54,87.78,-0.13,0.78,0,0,0,0,0,0,0,0,0,270.4,8,0,0,0,0,0,0,0,0,270.4,1,0,0.358,0,0,3,0,0,0,12,-3.568,0,0,0,2,92.18,FLYING
153.12,APPROACH,,193.39,75,-118.39,4414.94,68.85,14.2,-1.52,87.77,-0.128,0.78,0,0,0,0,0,0,0,0,0,270.4,8,0,0,0,0,0,0,0,0,270.4,1,0,0.358,0,0,3,0,0,0,12,-3.568,0,0,0,2,93.14,FLYING
154.11,APPROACH,,192.18,75,-117.18,4463.03,68.25,14.1,-1.5,87.77,-0.127,0.78,0,0,0,0,0,0,0,0,0,270.4,8,0,0,0,0,0,0,0,0,270.4,1,0,0.358,0,0,3,0,0,0,12,-3.568,0,0,0,2,94.13,FLYING
155.1,APPROACH,,190.99,75,-115.99,4500.91,67.65,14.01,-1.47,87.77,-0.127,0.78,0,0,0,0,0,0,0,0,0,270.4,8,0,0,0,0,0,0,0,0,270.4,1,0,0.358,0,0,3,0,0,0,12,-3.568,0,0,0,2,95.12,FLYING
156.06,APPROACH,,189.85,75,-114.85,4547.14,67.07,13.92,-1.45,87.77,-0.127,0.78,0,0,0,0,0,0,0,0,0,270.4,8,0,0,0,0,0,0,0,0,270.4,1,0,0.358,0,0,3,0,0,0,12,-3.568,0,0,0,2,96.08,FLYING
157.02,APPROACH,,188.72,75,-113.72,4591.95,66.5,13.84,-1.43,87.76,-0.127,0.78,0,0,0,0,0,0,0,0,0,270.4,8,0,0,0,0,0,0,0,0,270.4,1,0,0.358,0,0,3,0,0,0,12,-3.568,0,0,0,2,97.04,FLYING
157.98,APPROACH,,187.61,75,-112.61,4625.52,65.93,13.75,-1.41,87.76,-0.126,0.78,0,0,0,0,0,0,0,0,0,270.4,8,0,0,0,0,0,0,0,0,270.4,1,0,0.358,0,0,3,0,0,0,12,-3.568,0,0,0,2,98,FLYING
158.94,APPROACH,,186.5,75,-111.5,4675.05,65.37,13.66,-1.38,87.76,-0.124,0.78,0,0,0,0,0,0,0,0,0,270.4,8,0,0,0,0,0,0,0,0,270.4,1,0,0.358,0,0,3,0,0,0,12,-3.568,0,0,0,2,98.96,FLYING
159.9,APPROACH,,185.42,75,-110.42,4722.16,64.81,13.58,-1.36,87.76,-0.126,0.78,0,0,0,0,0,0,0,0,0,270.4,8,0,0,0,0,0,0,0,0,270.4,1,0,0.358,0,0,3,0,0,0,12,-3.568,0,0,0,2,99.92,FLYING
160.89,APPROACH,,184.31,75,-109.31,4762.87,64.23,13.49,-1.34,87.76,-0.124,0.78,0,0,0,0,0,0,0,0,0,270.4,8,0,0,0,0,0,0,0,0,270.4,1,0,0.358,0,0,3,0,0,0,12,-3.568,0,0,0,2,100.91,FLYING
161.88,APPROACH,,183.21,75,-108.21,4838.27,63.66,13.4,-1.31,87.75,-0.124,0.78,0,0,0,0,0,0,0,0,0,270.4,8,0,0,0,0,0,0,0,0,270.4,1,0,0.358,0,0,3,0,0,0,12,-3.568,0,0,0,2,101.9,FLYING
162.84,APPROACH,,182.17,75,-107.17,4915.05,63.11,13.32,-1.29,87.75,-0.128,0.78,0,0,0,0,0,0,0,0,0,270.4,8,0,0,0,0,0,0,0,0,270.4,1,0,0.358,0,0,3,0,0,0,12,-3.568,0,0,0,2,102.86,FLYING
163.8,APPROACH,,181.13,75,-106.13,4963.51,62.57,13.24,-1.27,87.75,-0.126,0.78,0,0,0,0,0,0,0,0,0,270.4,8,0,0,0,0,0,0,0,0,270.4,1,0,0.358,0,0,3,0,0,0,12,-3.568,0,0,0,2,103.82,FLYING
164.76,APPROACH,,180.11,75,-105.11,4984.32,62.03,13.16,-1.24,87.75,-0.123,0.78,0,0,0,0,0,0,0,0,0,270.4,8,0,0,0,0,0,0,0,0,270.4,1,0,0.358,0,0,3,0,0,0,12,-3.568,0,0,0,2,104.78,FLYING
165.72,APPROACH,,179.1,75,-104.1,5052.04,61.5,13.07,-1.22,87.74,-0.128,0.78,0,0,0,0,0,0,0,0,0,270.4,8,0,0,0,0,0,0,0,0,270.4,1,0,0.358,0,0,3,0,0,0,12,-3.568,0,0,0,2,105.74,FLYING
166.68,APPROACH,,178.1,75,-103.1,5134.97,60.97,12.99,-1.2,87.74,-0.127,0.78,0,0,0,0,0,0,0,0,0,270.4,8,0,0,0,0,0,0,0,0,270.4,1,0,0.358,0,0,3,0,0,0,12,-3.568,0,0,0,2,106.7,FLYING
167.64,APPROACH,,177.11,75,-102.11,5198.05,60.45,12.91,-1.17,87.74,-0.126,0.78,0,0,0,0,0,0,0,0,0,270.4,8,0,0,0,0,0,0,0,0,270.4,1,0,0.358,0,0,3,0,0,0,12,-3.568,0,0,0,2,107.66,FLYING
168.6,APPROACH,,176.14,75,-101.14,5240.24,59.93,12.84,-1.15,87.74,-0.127,0.78,0,0,0,0,0,0,0,0,0,270.4,8,0,0,0,0,0,0,0,0,270.4,1,0,0.358,0,0,3,0,0,0,12,-3.568,0,0,0,2,108.62,FLYING
169.56,APPROACH,,175.17,75,-100.17,5280.33,59.41,12.76,-1.12,87.73,-0.122,0.78,0,0,0,0,0,0,0,0,0,270.4,8,0,0,0,0,0,0,0,0,270.4,1,0,0.358,0,0,3,0,0,0,12,-3.568,0,0,0,2,109.58,FLYING
170.52,APPROACH,,174.22,75,-99.22,5301.11,58.9,12.68,-1.1,87.73,-0.122,0.78,0,0,0,0,0,0,0,0,0,270.4,8,0,0,0,0,0,0,0,0,270.4,1,0,0.358,0,0,3,0,0,0,12,-3.568,0,0,0,2,110.54,FLYING
171.48,APPROACH,,173.28,75,-98.28,5344.66,58.39,12.6,-1.08,87.73,-0.129,0.78,0,0,0,0,0,0,0,0,0,270.4,8,0,0,0,0,0,0,0,0,270.4,1,0,0.358,0,0,3,0,0,0,12,-3.568,0,0,0,2,111.5,FLYING
172.47,APPROACH,,172.32,75,-97.32,5420.49,57.87,12.53,-1.05,87.73,-0.125,0.78,0,0,0,0,0,0,0,0,0,270.4,8,0,0,0,0,0,0,0,0,270.4,1,0,0.358,0,0,3,0,0,0,12,-3.568,0,0,0,2,112.49,FLYING
173.46,APPROACH,,171.38,75,-96.38,5495.19,57.36,12.45,-1.03,87.73,-0.125,0.78,0,0,0,0,0,0,0,0,0,270.4,8,0,0,0,0,0,0,0,0,270.4,1,0,0.358,0,0,3,0,0,0,12,-3.568,0,0,0,2,113.48,FLYING
174.42,APPROACH,,170.47,75,-95.47,5566.9,56.86,12.37,-1,87.72,-0.126,0.78,0,0,0,0,0,0,0,0,0,270.4,8,0,0,0,0,0,0,0,0,270.4,1,0,0.358,0,0,3,0,0,0,12,-3.568,0,0,0,2,114.44,FLYING
175.38,APPROACH,,169.57,75,-94.57,5631.14,56.37,12.3,-0.98,87.72,-0.126,0.78,0,0,0,0,0,0,0,0,0,270.4,8,0,0,0,0,0,0,0,0,270.4,1,0,0.358,0,0,3,0,0,0,12,-3.568,0,0,0,2,115.4,FLYING
176.34,APPROACH,,168.69,75,-93.69,5697.71,55.88,12.23,-0.95,87.72,-0.128,0.78,0,0,0,0,0,0,0,0,0,270.4,8,0,0,0,0,0,0,0,0,270.4,1,0,0.358,0,0,3,0,0,0,12,-3.568,0,0,0,2,116.36,FLYING
177.3,APPROACH,,167.81,75,-92.81,5756.27,55.4,12.15,-0.93,87.72,-0.129,0.78,0,0,0,0,0,0,0,0,0,270.4,8,0,0,0,0,0,0,0,0,270.4,1,0,0.358,0,0,3,0,0,0,12,-3.568,0,0,0,2,117.32,FLYING
178.41,APPROACH,,166.82,75,-91.82,5797.74,54.84,12.07,-0.89,87.71,-0.128,0.78,0,0,0,0,0,0,0,0,0,270.4,8,0,0,0,0,0,0,0,0,270.4,1,0,0.358,0,0,3,0,0,0,12,-3.568,0,0,0,2,118.44,FLYING
179.53,APPROACH,,165.82,75,-90.82,5832.43,54.28,11.99,-0.86,87.71,-0.122,0.78,0,0,0,0,0,0,0,0,0,270.4,8,0,0,0,0,0,0,0,0,270.4,1,0,0.358,0,0,3,0,0,0,12,-3.568,0,0,0,2,119.56,FLYING
180.65,APPROACH,,164.84,75,-89.84,5875.54,53.73,11.91,-0.83,87.71,-0.121,0.78,0,0,0,0,0,0,0,0,0,270.4,8,0,0,0,0,0,0,0,0,270.4,1,0,0.358,0,0,3,0,0,0,12,-3.568,0,0,0,2,120.68,FLYING
181.77,APPROACH,,163.88,75,-88.88,5896.15,53.19,11.83,-0.8,87.71,-0.123,0.78,0,0,0,0,0,0,0,0,0,270.4,8,0,0,0,0,0,0,0,0,270.4,1,0,0.358,0,0,3,0,0,0,12,-3.568,0,0,0,2,121.8,FLYING
182.94,APPROACH,,162.89,75,-87.89,5913.31,52.63,11.74,-0.77,87.7,-0.127,0.78,0,0,0,0,0,0,0,0,0,270.4,8,0,0,0,0,0,0,0,0,270.4,1,0,0.358,0,0,3,0,0,0,12,-3.568,0,0,0,2,122.98,FLYING
185.3,APPROACH,,160.99,75,-85.99,5933.63,51.45,11.62,-0.65,87.69,-0.111,0.78,0,0,0,0,0,0,0,0,0,270.4,8,0,0,0,0,0,0,0,0,270.4,1,0,0.358,0,0,3,0,0,0,12,-3.568,0,0,0,2,125.42,FLYING
187.86,APPROACH,,158.92,75,-83.92,5959.33,50.38,11.46,-0.6,87.69,-0.109,0.78,0,0,0,0,0,0,0,0,0,270.4,8,0,0,0,0,0,0,0,0,270.4,1,0,0.358,0,0,3,0,0,0,12,-3.568,0,0,0,2,127.98,FLYING
190.5,APPROACH,,156.85,75,-81.85,5973.36,49.23,11.29,-0.53,87.68,-0.123,0.78,0,0,0,0,0,0,0,0,0,270.4,8,0,0,0,0,0,0,0,0,270.4,1,0,0.358,0,0,3,0,0,0,12,-3.568,0,0,0,2,130.62,FLYING
193.06,APPROACH,,154.91,75,-79.91,7385.9,48.11,11.12,-0.46,87.67,-0.127,0.78,0,0,0,0,0,0,0,0,0,270.4,8,0,0,0,0,0,0,0,0,270.4,1,0,0.358,0,0,3,0,0,0,12,-3.568,0,0,0,2,133.18,FLYING
195.62,APPROACH,,153.02,75,-78.02,7507.57,47.01,10.96,-0.39,87.67,-0.13,0.78,0,0,0,0,0,0,0,0,0,270.4,8,0,0,0,0,0,0,0,0,270.4,1,0,0.358,0,0,3,0,0,0,12,-3.568,0,0,0,2,135.74,FLYING
198.18,APPROACH,,151.18,75,-76.18,7626.46,45.93,10.8,-0.32,87.66,-0.133,0.78,0,0,0,0,0,0,0,0,0,270.4,8,0,0,0,0,0,0,0,0,270.4,1,0,0.358,0,0,3,0,0,0,12,-3.568,0,0,0,2,138.3,FLYING
200.74,APPROACH,,149.41,75,-74.41,7742.59,44.86,10.65,-0.25,87.65,-0.128,0.78,0,0,0,0,0,0,0,0,0,270.4,8,0,0,0,0,0,0,0,0,270.4,1,0,0.358,0,0,3,0,0,0,12,-3.568,0,0,0,2,140.86,FLYING
203.3,APPROACH,,147.68,75,-72.68,7856.03,43.82,10.5,-0.17,87.65,-0.133,0.78,0,0,0,0,0,0,0,0,0,270.4,8,0,0,0,0,0,0,0,0,270.4,1,0,0.358,0,0,3,0,0,0,12,-3.568,0,0,0,2,143.42,FLYING
205.86,APPROACH,,146.01,75,-71.01,7966.85,42.81,10.36,-0.1,87.64,-0.133,0.78,0,0,0,0,0,0,0,0,0,270.4,8,0,0,0,0,0,0,0,0,270.4,1,0,0.358,0,0,3,0,0,0,12,-3.568,0,0,0,2,145.98,FLYING
208.42,APPROACH,,144.39,75,-69.39,8075.09,41.82,10.21,-0.03,87.63,-0.135,0.78,0,0,0,0,0,0,0,0,0,270.4,8,0,0,0,0,0,0,0,0,270.4,1,0,0.358,0,0,3,0,0,0,12,-3.568,0,0,0,2,148.54,FLYING
210.98,APPROACH,,142.81,75,-67.81,8180.83,40.85,10.08,0.05,87.63,-0.13,0.78,0,0,0,0,0,0,0,0,0,270.4,8,0,0,0,0,0,0,0,0,270.4,1,0,0.358,0,0,3,0,0,0,12,-3.568,0,0,0,2,151.1,FLYING
213.54,APPROACH,,141.29,75,-66.29,8284.11,39.9,9.94,0.12,87.62,-0.138,0.78,0,0,0,0,0,0,0,0,0,270.4,8,0,0,0,0,0,0,0,0,270.4,1,0,0.358,0,0,3,0,0,0,12,-3.568,0,0,0,2,153.66,FLYING
216.1,APPROACH,,139.81,75,-64.81,8384.98,38.97,9.82,0.2,87.62,-0.135,0.78,0,0,0,0,0,0,0,0,0,270.4,8,0,0,0,0,0,0,0,0,270.4,1,0,0.358,0,0,3,0,0,0,12,-3.568,0,0,0,2,156.22,FLYING
218.66,APPROACH,,138.37,75,-63.37,8483.51,38.06,9.69,0.27,87.61,-0.135,0.78,0,0,0,0,0,0,0,0,0,270.4,8,0,0,0,0,0,0,0,0,270.4,1,0,0.358,0,0,3,0,0,0,12,-3.568,0,0,0,2,158.78,FLYING
221.22,APPROACH,,136.97,75,-61.97,8579.75,37.18,9.57,0.34,87.6,-0.13,0.78,0,0,0,0,0,0,0,0,0,270.4,8,0,0,0,0,0,0,0,0,270.4,1,0,0.358,0,0,3,0,0,0,12,-3.568,0,0,0,2,161.34,FLYING
223.78,APPROACH,,135.62,75,-60.62,8673.76,36.32,9.45,0.42,87.6,-0.135,0.78,0,0,0,0,0,0,0,0,0,270.4,8,0,0,0,0,0,0,0,0,270.4,1,0,0.358,0,0,3,0,0,0,12,-3.568,0,0,0,2,163.9,FLYING
226.42,APPROACH,,134.26,75,-59.26,8768.42,35.45,9.33,0.5,87.59,-0.135,0.78,0,0,0,0,0,0,0,0,0,270.4,8,0,0,0,0,0,0,0,0,270.4,1,0,0.358,0,0,3,0,0,0,12,-3.568,0,0,0,2,166.54,FLYING
228.98,APPROACH,,132.85,75,-57.85,8858.6,35.86,10.52,1.55,87.59,-0.123,0.78,0,0,0,0,0,0,0,0,0,270.4,8,0,0,0,0,0,0,0,0,270.4,1,0,0.358,0,0,3,0,0,0,12,-3.568,0,0,0,2,169.1,FLYING
231.54,APPROACH,,131.17,75,-56.17,8947.64,29.03,2.5,-4.76,87.54,0.282,0.78,0,0,0,0,0,0,0,0,0,270.4,8,0,0,0,0,0,0,0,0,270.4,1,0,0.358,0,0,3,0,0,0,12,-3.568,0,0,0,2,171.66,FLYING
234.1,APPROACH,,131.67,75,-56.67,8991.43,9.09,0.98,-1.27,87.59,-0.73,0.78,0,0,0,0,0,0,0,0,0,270.4,8,0,0,0,0,0,0,0,0,270.4,1,0,0.358,0,0,3,0,0,0,12,-3.568,0,0,0,2,174.22,FLYING
236.66,APPROACH,,133.34,75,-58.34,9003.88,2.76,0.98,0.31,87.58,-0.203,0.78,0,0,0,0,0,0,0,0,0,270.4,8,0,0,0,0,0,0,0,0,270.4,1,0,0.358,0,0,3,0,0,0,12,-3.568,0,0,0,2,176.78,FLYING
239.3,APPROACH,,135.18,75,-60.18,9008.13,0.67,0.43,0.27,87.57,-0.116,0.78,0,0,0,0,0,0,0,0,0,270.4,8,0,0,0,0,0,0,0,0,270.4,1,0,0.358,0,0,3,0,0,0,12,-3.568,0,0,0,2,179.42,FLYING
241.94,APPROACH,,137.18,75,-62.18,9007.82,-0.58,0.23,0.37,87.57,-0.097,0.78,0,0,0,0,0,0,0,0,0,270.4,8,0,0,0,0,0,0,0,0,270.4,1,0,0.358,0,0,3,0,0,0,12,-3.568,0,0,0,2,182.06,FLYING
244.5,APPROACH,,139.12,75,-64.12,9006.22,-0.59,0.19,0.33,87.56,-0.095,0.78,0,0,0,0,0,0,0,0,0,270.4,8,0,0,0,0,0,0,0,0,270.4,1,0,0.358,0,0,3,0,0,0,12,-3.568,0,0,0,2,184.62,FLYING
247.06,APPROACH,,140.21,75,-65.21,9004.86,-0.46,0.19,0.29,87.55,-0.097,0.78,0,0,0,0,0,0,0,0,0,270.4,8,0,0,0,0,0,0,0,0,270.4,1,0,0.358,0,0,3,0,0,0,12,-3.568,0,0,0,2,187.18,FLYING
249.62,APPROACH,,140.5,75,-65.5,9003.83,-0.34,0.2,0.28,87.54,-0.093,0.78,0,0,0,0,0,0,0,0,0,270.4,8,0,0,0,0,0,0,0,0,270.4,1,0,0.358,0,0,3,0,0,0,12,-3.568,0,0,0,2,189.74,FLYING
252.18,APPROACH,,140.58,75,-65.58,9003.09,-0.24,0.22,0.27,87.53,-0.101,0.78,0,0,0,0,0,0,0,0,0,270.4,8,0,0,0,0,0,0,0,0,270.4,1,0,0.358,0,0,3,0,0,0,12,-3.568,0,0,0,2,192.3,FLYING
254.74,APPROACH,,140.61,75,-65.61,9002.57,-0.17,0.23,0.27,87.52,-0.098,0.78,0,0,0,0,0,0,0,0,0,270.4,8,0,0,0,0,0,0,0,0,270.4,1,0,0.358,0,0,3,0,0,0,12,-3.568,0,0,0,2,194.86,FLYING
257.3,APPROACH,,140.62,75,-65.62,9002.2,-0.12,0.24,0.26,87.51,-0.095,0.78,0,0,0,0,0,0,0,0,0,270.4,8,0,0,0,0,0,0,0,0,270.4,1,0,0.358,0,0,3,0,0,0,12,-3.568,0,0,0,2,197.42,FLYING
259.86,APPROACH,,140.63,75,-65.63,9001.93,-0.09,0.24,0.26,87.5,-0.107,0.78,0,0,0,0,0,0,0,0,0,270.4,8,0,0,0,0,0,0,0,0,270.4,1,0,0.358,0,0,3,0,0,0,12,-3.568,0,0,0,2,199.98,FLYING
262.42,APPROACH,,140.63,75,-65.63,9001.72,-0.06,0.25,0.26,87.49,-0.102,0.78,0,0,0,0,0,0,0,0,0,270.4,8,0,0,0,0,0,0,0,0,270.4,1,0,0.358,0,0,3,0,0,0,12,-3.568,0,0,0,2,202.54,FLYING
264.98,APPROACH,,140.63,75,-65.63,9001.57,-0.05,0.25,0.26,87.49,-0.11,0.78,0,0,0,0,0,0,0,0,0,270.4,8,0,0,0,0,0,0,0,0,270.4,1,0,0.358,0,0,3,0,0,0,12,-3.568,0,0,0,2,205.1,FLYING
267.62,APPROACH,,140.63,75,-65.63,9001.45,-0.04,0.25,0.26,87.48,-0.11,0.78,0,0,0,0,0,0,0,0,0,270.4,8,0,0,0,0,0,0,0,0,270.4,1,0,0.358,0,0,3,0,0,0,12,-3.568,0,0,0,2,207.74,FLYING
270.26,APPROACH,,140.64,75,-65.64,9001.36,-0.03,0.25,0.26,87.47,-0.113,0.78,0,0,0,0,0,0,0,0,0,270.4,8,0,0,0,0,0,0,0,0,270.4,1,0,0.358,0,0,3,0,0,0,12,-3.568,0,0,0,2,210.38,FLYING
272.9,APPROACH,,140.64,75,-65.64,9001.29,-0.02,0.25,0.26,87.46,-0.112,0.78,0,0,0,0,0,0,0,0,0,270.4,8,0,0,0,0,0,0,0,0,270.4,1,0,0.358,0,0,3,0,0,0,12,-3.568,0,0,0,2,213.02,FLYING
274.06,APPROACH,,140.63,75,-65.63,7393.69,0.02,0.18,0.17,87.45,-0.102,0.78,0,0,0,0,0,0,0,0,0,270.4,8,0,0,0,0,0,0,0,0,270.4,1,0,0.358,0,0,3,0,0,0,12,-3.568,0,0,0,2,214.06,FLYING
274.74,APPROACH,,140.63,75,-65.63,7418.83,-0.01,0.18,0.18,87.46,-0.135,0.78,0,0,0,0,0,0,0,0,0,270.4,8,0,0,0,0,0,0,0,0,270.4,1,0,0.358,0,0,3,0,0,0,12,-3.568,0,0,0,2,214.74,FLYING
275.42,APPROACH,,140.63,75,-65.63,7446.2,-0.02,0.18,0.19,87.46,-0.151,0.78,0,0,0,0,0,0,0,0,0,270.4,8,0,0,0,0,0,0,0,0,270.4,1,0,0.358,0,0,3,0,0,0,12,-3.568,0,0,0,2,215.42,FLYING
276.1,APPROACH,,140.64,75,-65.64,7468.18,-0.03,0.18,0.19,87.46,-0.155,0.78,0,0,0,0,0,0,0,0,0,270.4,8,0,0,0,0,0,0,0,0,270.4,1,0,0.358,0,0,3,0,0,0,12,-3.568,0,0,0,2,216.1,FLYING
276.78,APPROACH,,140.64,75,-65.64,7498.58,-0.03,0.18,0.19,87.45,-0.154,0.78,0,0,0,0,0,0,0,0,0,270.4,8,0,0,0,0,0,0,0,0,270.4,1,0,0.358,0,0,3,0,0,0,12,-3.568,0,0,0,2,216.78,FLYING
277.46,APPROACH,,140.64,75,-65.64,7527.8,-0.03,0.18,0.19,87.45,-0.152,0.78,0,0,0,0,0,0,0,0,0,270.4,8,0,0,0,0,0,0,0,0,270.4,1,0,0.358,0,0,3,0,0,0,12,-3.568,0,0,0,2,217.46,FLYING
278.14,APPROACH,,140.64,75,-65.64,7544.14,-0.04,0.18,0.19,87.45,-0.151,0.78,0,0,0,0,0,0,0,0,0,270.4,8,0,0,0,0,0,0,0,0,270.4,1,0,0.358,0,0,3,0,0,0,12,-3.568,0,0,0,2,218.14,FLYING
278.82,APPROACH,,140.64,75,-65.64,7554.33,-0.04,0.18,0.19,87.45,-0.151,0.78,0,0,0,0,0,0,0,0,0,270.4,8,0,0,0,0,0,0,0,0,270.4,1,0,0.358,0,0,3,0,0,0,12,-3.568,0,0,0,2,218.82,FLYING
279.5,APPROACH,,140.64,75,-65.64,7563.53,-1.18,-4.09,-3.82,87.44,-0.002,0.78,0,0,0,0,0,0,0,0,0,270.4,8,0,0,0,0,0,0,0,0,270.4,1,0,0.358,0,0,3,0,0,0,12,-3.568,0,0,0,2,219.5,FLYING
280.16,APPROACH,,140.84,75,-65.84,7566.5,-12.82,-10.71,-7.71,87.45,0.078,0.78,0,0,0,0,0,0,0,0,0,270.4,8,0,0,0,0,0,0,0,0,270.4,1,0,0.358,0,0,3,0,0,0,12,-3.568,0,0,0,2,220.16,FLYING
280.82,APPROACH,,141.03,75,-66.03,7551.26,-28.77,-15.18,-8.44,87.46,0.136,0.78,0,0,0,0,0,0,0,0,0,270.4,8,0,0,0,0,0,0,0,0,270.4,1,0,0.358,0,0,3,0,0,0,12,-3.568,0,0,0,2,220.82,FLYING
281.48,APPROACH,,141.65,75,-66.65,7520.78,-42.72,-16.5,-6.48,87.46,0.205,0.78,0,0,0,0,0,0,0,0,0,270.4,8,0,0,0,0,0,0,0,0,270.4,1,0,0.358,0,0,3,0,0,0,12,-3.568,0,0,0,2,221.48,FLYING
282.16,APPROACH,,142.75,75,-67.75,7472.28,-54.31,-18.45,-5.72,87.47,0.281,0.78,0,0,0,0,0,0,0,0,0,270.4,8,0,0,0,0,0,0,0,0,270.4,1,0,0.358,0,0,3,0,0,0,12,-3.568,0,0,0,2,222.16,FLYING
282.82,APPROACH,,144.08,75,-69.08,7425.82,-65.02,-20.6,-5.39,87.47,0.336,0.78,0,0,0,0,0,0,0,0,0,270.4,8,0,0,0,0,0,0,0,0,270.4,1,0,0.358,0,0,3,0,0,0,12,-3.568,0,0,0,2,222.82,FLYING
283.48,APPROACH,,145.67,75,-70.67,7391,-74.45,-22.04,-4.65,87.48,0.433,0.78,0,0,0,0,0,0,0,0,0,270.4,8,0,0,0,0,0,0,0,0,270.4,1,0,0.358,0,0,3,0,0,0,12,-3.568,0,0,0,2,223.48,FLYING
284.14,APPROACH,,147.41,75,-72.41,7363.52,-81.91,-22.58,-3.51,87.47,1.043,0.78,0,0,0,0,0,0,0,0,0,270.4,8,0,0,0,0,0,0,0,0,270.4,1,0,0.358,0,0,3,0,0,0,12,-3.568,0,0,0,2,224.14,FLYING
284.8,APPROACH,,149.15,75,-74.15,7321.77,-87.58,-22.62,-2.3,87.37,4.916,0.78,0,0,0,0,0,0,0,0,0,270.4,8,0,0,0,0,0,0,0,0,270.4,1,0,0.358,0,0,3,0,0,0,12,-3.568,0,0,0,2,224.8,FLYING
285.46,APPROACH,,150.92,75,-75.92,7266.95,-92.43,-23.86,-2.51,87.7,-0.549,0.78,0,0,0,0,0,0,0,0,0,270.4,8,0,0,0,0,0,0,0,0,270.4,1,0,0.358,0,0,3,0,0,0,12,-3.568,0,0,0,2,225.46,FLYING
286.12,APPROACH,,152.82,75,-77.82,7207.4,-96.43,-24.17,-2.01,87.44,-0.939,0.78,0,0,0,0,0,0,0,0,0,270.4,8,0,0,0,0,0,0,0,0,270.4,1,0,0.358,0,0,3,0,0,0,12,-3.568,0,0,0,2,226.12,FLYING
286.78,APPROACH,,154.76,75,-79.76,7140.75,-99.48,-24.37,-1.63,87.4,-0.813,0.78,0,0,0,0,0,0,0,0,0,270.4,8,0,0,0,0,0,0,0,0,270.4,1,0,0.358,0,0,3,0,0,0,12,-3.568,0,0,0,2,226.78,FLYING
287.44,APPROACH,,156.7,75,-81.7,7078.84,-101.69,-24.41,-1.3,87.4,-0.632,0.78,0,0,0,0,0,0,0,0,0,270.4,8,0,0,0,0,0,0,0,0,270.4,1,0,0.358,0,0,3,0,0,0,12,-3.568,0,0,0,2,227.44,FLYING
288.1,APPROACH,,158.63,75,-83.63,7035.92,-103.11,-24.32,-1.03,87.42,-0.467,0.78,0,0,0,0,0,0,0,0,0,270.4,8,0,0,0,0,0,0,0,0,270.4,1,0,0.358,0,0,3,0,0,0,12,-3.568,0,0,0,2,228.1,FLYING
288.76,APPROACH,,160.52,75,-85.52,6964.65,-103.85,-24.14,-0.81,87.44,-0.339,0.78,0,0,0,0,0,0,0,0,0,270.4,8,0,0,0,0,0,0,0,0,270.4,1,0,0.358,0,0,3,0,0,0,12,-3.568,0,0,0,2,228.76,FLYING
289.42,APPROACH,,162.36,75,-87.36,6922.48,-103.99,-23.85,-0.62,87.44,-0.247,0.78,0,0,0,0,0,0,0,0,0,270.4,8,0,0,0,0,0,0,0,0,270.4,1,0,0.358,0,0,3,0,0,0,12,-3.568,0,0,0,2,229.42,FLYING
290.08,APPROACH,,164.14,75,-89.14,6878.12,-103.57,-23.48,-0.47,87.45,-0.183,0.78,0,0,0,0,0,0,0,0,0,270.4,8,0,0,0,0,0,0,0,0,270.4,1,0,0.358,0,0,3,0,0,0,12,-3.568,0,0,0,2,230.08,FLYING
290.74,APPROACH,,165.86,75,-90.86,6858.69,-102.65,-23.04,-0.36,87.45,-0.141,0.78,0,0,0,0,0,0,0,0,0,270.4,8,0,0,0,0,0,0,0,0,270.4,1,0,0.358,0,0,3,0,0,0,12,-3.568,0,0,0,2,230.74,FLYING
291.4,APPROACH,,167.5,75,-92.5,6819.65,-101.29,-22.53,-0.26,87.45,-0.114,0.78,0,0,0,0,0,0,0,0,0,270.4,8,0,0,0,0,0,0,0,0,270.4,1,0,0.358,0,0,3,0,0,0,12,-3.568,0,0,0,2,231.4,FLYING
292.06,APPROACH,,169.05,75,-94.05,6774.25,-99.56,-21.97,-0.19,87.46,-0.096,0.78,0,0,0,0,0,0,0,0,0,270.4,8,0,0,0,0,0,0,0,0,270.4,1,0,0.358,0,0,3,0,0,0,12,-3.568,0,0,0,2,232.06,FLYING
292.72,APPROACH,,170.51,75,-95.51,6711.72,-97.43,-21.32,-0.11,87.46,-0.084,0.78,0,0,0,0,0,0,0,0,0,270.4,8,0,0,0,0,0,0,0,0,270.4,1,0,0.358,0,0,3,0,0,0,12,-3.568,0,0,0,2,232.72,FLYING
293.38,APPROACH,,171.88,75,-96.88,6655.68,-94.99,-20.68,-0.08,87.45,-0.073,0.78,0,0,0,0,0,0,0,0,0,270.4,8,0,0,0,0,0,0,0,0,270.4,1,0,0.358,0,0,3,0,0,0,12,-3.568,0,0,0,2,233.38,FLYING
294.04,APPROACH,,173.15,75,-98.15,6628.75,-92.36,-20.04,-0.08,87.45,-0.063,0.78,0,0,0,0,0,0,0,0,0,270.4,8,0,0,0,0,0,0,0,0,270.4,1,0,0.358,0,0,3,0,0,0,12,-3.568,0,0,0,2,234.04,FLYING
294.7,APPROACH,,174.34,75,-99.34,6592.01,-89.6,-19.39,-0.1,87.45,-0.055,0.78,0,0,0,0,0,0,0,0,0,270.4,8,0,0,0,0,0,0,0,0,270.4,1,0,0.358,0,0,3,0,0,0,12,-3.568,0,0,0,2,234.7,FLYING
295.36,APPROACH,,175.43,75,-100.43,6559.29,-86.73,-18.71,-0.1,87.45,-0.049,0.78,0,0,0,0,0,0,0,0,0,270.4,8,0,0,0,0,0,0,0,0,270.4,1,0,0.358,0,0,3,0,0,0,12,-3.568,0,0,0,2,235.36,FLYING
296.02,APPROACH,,176.43,75,-101.43,6535.93,-83.73,-18.02,-0.1,87.45,-0.045,0.78,0,0,0,0,0,0,0,0,0,270.4,8,0,0,0,0,0,0,0,0,270.4,1,0,0.358,0,0,3,0,0,0,12,-3.568,0,0,0,2,236.02,FLYING
296.68,APPROACH,,177.33,75,-102.33,6499.94,-80.62,-17.32,-0.1,87.45,-0.041,0.78,0,0,0,0,0,0,0,0,0,270.4,8,0,0,0,0,0,0,0,0,270.4,1,0,0.358,0,0,3,0,0,0,12,-3.568,0,0,0,2,236.68,FLYING
297.34,APPROACH,,178.14,75,-103.14,6463.08,-77.41,-16.6,-0.1,87.44,-0.041,0.78,0,0,0,0,0,0,0,0,0,270.4,8,0,0,0,0,0,0,0,0,270.4,1,0,0.358,0,0,3,0,0,0,12,-3.568,0,0,0,2,237.34,FLYING
298,APPROACH,,178.86,75,-103.86,6412.37,-74.12,-15.87,-0.11,87.44,-0.042,0.78,0,0,0,0,0,0,0,0,0,270.4,8,0,0,0,0,0,0,0,0,270.4,1,0,0.358,0,0,3,0,0,0,12,-3.568,0,0,0,2,238,FLYING
298.66,APPROACH,,179.48,75,-104.48,6392.76,-70.76,-15.15,-0.11,87.44,-0.042,0.78,0,0,0,0,0,0,0,0,0,270.4,8,0,0,0,0,0,0,0,0,270.4,1,0,0.358,0,0,3,0,0,0,12,-3.568,0,0,0,2,238.66,FLYING
299.32,APPROACH,,180.01,75,-105.01,6376.32,-67.36,-14.42,-0.12,87.44,-0.046,0.78,0,0,0,0,0,0,0,0,0,270.4,8,0,0,0,0,0,0,0,0,270.4,1,0,0.358,0,0,3,0,0,0,12,-3.568,0,0,0,2,239.32,FLYING
299.98,APPROACH,,180.46,75,-105.46,6348.8,-63.92,-13.68,-0.12,87.43,-0.047,0.78,0,0,0,0,0,0,0,0,0,270.4,8,0,0,0,0,0,0,0,0,270.4,1,0,0.358,0,0,3,0,0,0,12,-3.568,0,0,0,2,239.98,FLYING
300.64,APPROACH,,180.81,75,-105.81,6328.79,-60.47,-12.95,-0.13,87.43,-0.05,0.78,0,0,0,0,0,0,0,0,0,270.4,8,0,0,0,0,0,0,0,0,270.4,1,0,0.358,0,0,3,0,0,0,12,-3.568,0,0,0,2,240.64,FLYING
301.3,APPROACH,,181.07,75,-106.07,6297.91,-57,-12.22,-0.13,87.43,-0.053,0.78,0,0,0,0,0,0,0,0,0,270.4,8,0,0,0,0,0,0,0,0,270.4,1,0,0.358,0,0,3,0,0,0,12,-3.568,0,0,0,2,241.3,FLYING
301.96,APPROACH,,181.25,75,-106.25,6263.81,-53.52,-11.49,-0.13,87.43,-0.051,0.78,0,0,0,0,0,0,0,0,0,270.4,8,0,0,0,0,0,0,0,0,270.4,1,0,0.358,0,0,3,0,0,0,12,-3.568,0,0,0,2,241.96,FLYING
302.62,APPROACH,,181.35,75,-106.35,6240.33,-50.05,-10.76,-0.13,87.43,-0.052,0.78,0,0,0,0,0,0,0,0,0,270.4,8,0,0,0,0,0,0,0,0,270.4,1,0,0.358,0,0,3,0,0,0,12,-3.568,0,0,0,2,242.62,FLYING
303.28,APPROACH,,181.36,75,-106.36,6213.83,-46.57,-10.03,-0.12,87.42,-0.054,0.78,0,0,0,0,0,0,0,0,0,270.4,8,0,0,0,0,0,0,0,0,270.4,1,0,0.358,0,0,3,0,0,0,12,-3.568,0,0,0,2,243.28,FLYING
303.94,APPROACH,,181.29,75,-106.29,6186.34,-43.11,-9.29,-0.12,87.42,-0.054,0.78,0,0,0,0,0,0,0,0,0,270.4,8,0,0,0,0,0,0,0,0,270.4,1,0,0.358,0,0,3,0,0,0,12,-3.568,0,0,0,2,243.94,FLYING
304.6,APPROACH,,181.09,75,-106.09,6158.02,-38.61,-7.32,0.92,87.42,-0.048,0.78,0,0,0,0,0,0,0,0,0,270.4,8,0,0,0,0,0,0,0,0,270.4,1,0,0.358,0,0,3,0,0,0,12,-3.568,0,0,0,2,244.6,FLYING
305.26,APPROACH,,180.61,75,-105.61,6127.52,-32.66,-6.39,0.59,87.42,-0.048,0.78,0,0,0,0,0,0,0,0,0,270.4,8,0,0,0,0,0,0,0,0,270.4,1,0,0.358,0,0,3,0,0,0,12,-3.568,0,0,0,2,245.26,FLYING
305.92,APPROACH,,180.08,75,-105.08,6098.18,-27.61,-5.57,0.35,87.42,-0.056,0.78,0,0,0,0,0,0,0,0,0,270.4,8,0,0,0,0,0,0,0,0,270.4,1,0,0.358,0,0,3,0,0,0,12,-3.568,0,0,0,2,245.92,FLYING
306.6,APPROACH,,179.48,75,-104.48,6072.04,-23.22,-4.86,0.14,87.41,-0.066,0.78,0,0,0,0,0,0,0,0,0,270.4,8,0,0,0,0,0,0,0,0,270.4,1,0,0.358,0,0,3,0,0,0,12,-3.568,0,0,0,2,246.6,FLYING
307.26,APPROACH,,178.84,75,-103.84,6069.21,-19.64,-4.27,-0.03,87.41,-0.073,0.78,0,0,0,0,0,0,0,0,0,270.4,8,0,0,0,0,0,0,0,0,270.4,1,0,0.358,0,0,3,0,0,0,12,-3.568,0,0,0,2,247.26,FLYING
307.92,APPROACH,,178.17,75,-103.17,6061.19,-16.6,-3.76,-0.17,87.41,-0.079,0.78,0,0,0,0,0,0,0,0,0,270.4,8,0,0,0,0,0,0,0,0,270.4,1,0,0.358,0,0,3,0,0,0,12,-3.568,0,0,0,2,247.92,FLYING
308.66,APPROACH,,177.48,75,-102.48,6043.71,-13.78,-3.27,-0.28,87.43,-0.105,0.78,0,0,0,0,0,0,0,0,0,270.4,8,0,0,0,0,0,0,0,0,270.4,1,0,0.358,0,0,3,0,0,0,12,-3.568,0,0,0,2,248.72,FLYING
311.05,APPROACH,,175.08,75,-100.08,6031.14,-7.37,-2.03,-0.4,87.4,-0.064,0.78,0,0,0,0,0,0,0,0,0,270.4,8,0,0,0,0,0,0,0,0,270.4,1,0,0.358,0,0,3,0,0,0,12,-3.568,0,0,0,2,251.17,FLYING
313.69,APPROACH,,171.92,75,-96.92,6078.43,-3.64,-1.4,-0.59,87.39,-0.072,0.78,0,0,0,0,0,0,0,0,0,270.4,8,0,0,0,0,0,0,0,0,270.4,1,0,0.358,0,0,3,0,0,0,12,-3.568,0,0,0,2,253.81,FLYING
316.33,APPROACH,,169.65,75,-94.65,6116.59,-1.94,-1.07,-0.63,87.38,-0.096,0.78,0,0,0,0,0,0,0,0,0,270.4,8,0,0,0,0,0,0,0,0,270.4,1,0,0.358,0,0,3,0,0,0,12,-3.568,0,0,0,2,256.45,FLYING
318.89,APPROACH,,168.41,75,-93.41,6960.84,-1.08,-0.9,-0.65,87.37,-0.098,0.78,0,0,0,0,0,0,0,0,0,270.4,8,0,0,0,0,0,0,0,0,270.4,1,0,0.358,0,0,3,0,0,0,12,-3.568,0,0,0,2,259.01,FLYING
321.45,APPROACH,,167.98,75,-92.98,6958.76,-0.61,-0.82,-0.68,87.36,-0.1,0.78,0,0,0,0,0,0,0,0,0,270.4,8,0,0,0,0,0,0,0,0,270.4,1,0,0.358,0,0,3,0,0,0,12,-3.568,0,0,0,2,261.57,FLYING
324.09,APPROACH,,168.27,75,-93.27,6957.55,-0.34,-0.79,-0.71,87.35,-0.107,0.78,0,0,0,0,0,0,0,0,0,270.4,8,0,0,0,0,0,0,0,0,270.4,1,0,0.358,0,0,3,0,0,0,12,-3.568,0,0,0,2,264.21,FLYING
326.65,APPROACH,,169.08,75,-94.08,6956.89,-0.19,-0.8,-0.75,87.34,-0.114,0.78,0,0,0,0,0,0,0,0,0,270.4,8,0,0,0,0,0,0,0,0,270.4,1,0,0.358,0,0,3,0,0,0,12,-3.568,0,0,0,2,266.77,FLYING
329.21,APPROACH,,170.17,75,-95.17,6956.51,-0.11,-0.82,-0.79,87.34,-0.116,0.78,0,0,0,0,0,0,0,0,0,270.4,8,0,0,0,0,0,0,0,0,270.4,1,0,0.358,0,0,3,0,0,0,12,-3.568,0,0,0,2,269.33,FLYING
331.77,APPROACH,,170.69,75,-95.69,6956.23,-0.1,-0.83,-0.81,87.33,-0.112,0.78,0,0,0,0,0,0,0,0,0,270.4,8,0,0,0,0,0,0,0,0,270.4,1,0,0.358,0,0,3,0,0,0,12,-3.568,0,0,0,2,271.89,FLYING
334.33,APPROACH,,170.84,75,-95.84,6955.98,-0.09,-0.83,-0.81,87.32,-0.114,0.78,0,0,0,0,0,0,0,0,0,270.4,8,0,0,0,0,0,0,0,0,270.4,1,0,0.358,0,0,3,0,0,0,12,-3.568,0,0,0,2,274.45,FLYING
336.89,APPROACH,,170.88,75,-95.88,6955.76,-0.07,-0.83,-0.81,87.31,-0.108,0.78,0,0,0,0,0,0,0,0,0,270.4,8,0,0,0,0,0,0,0,0,270.4,1,0,0.358,0,0,3,0,0,0,12,-3.568,0,0,0,2,277.01,FLYING
339.45,APPROACH,,170.9,75,-95.9,6955.59,-0.06,-0.83,-0.81,87.31,-0.111,0.78,0,0,0,0,0,0,0,0,0,270.4,8,0,0,0,0,0,0,0,0,270.4,1,0,0.358,0,0,3,0,0,0,12,-3.568,0,0,0,2,279.57,FLYING
342.09,APPROACH,,170.9,75,-95.9,6955.45,-0.04,-0.82,-0.81,87.3,-0.11,0.78,0,0,0,0,0,0,0,0,0,270.4,8,0,0,0,0,0,0,0,0,270.4,1,0,0.358,0,0,3,0,0,0,12,-3.568,0,0,0,2,282.21,FLYING
344.73,APPROACH,,170.9,75,-95.9,6955.35,-0.03,-0.82,-0.81,87.29,-0.107,0.78,0,0,0,0,0,0,0,0,0,270.4,8,0,0,0,0,0,0,0,0,270.4,1,0,0.358,0,0,3,0,0,0,12,-3.568,0,0,0,2,284.85,FLYING
347.37,APPROACH,,170.91,75,-95.91,6955.27,-0.02,-0.82,-0.81,87.28,-0.111,0.78,0,0,0,0,0,0,0,0,0,270.4,8,0,0,0,0,0,0,0,0,270.4,1,0,0.358,0,0,3,0,0,0,12,-3.568,0,0,0,2,287.49,FLYING
350.01,APPROACH,,170.91,75,-95.91,6955.21,-0.02,-0.82,-0.81,87.28,-0.114,0.78,0,0,0,0,0,0,0,0,0,270.4,8,0,0,0,0,0,0,0,0,270.4,1,0,0.358,0,0,3,0,0,0,12,-3.568,0,0,0,2,290.13,FLYING
352.65,APPROACH,,170.91,75,-95.91,6955.17,-0.01,-0.81,-0.81,87.27,-0.108,0.78,0,0,0,0,0,0,0,0,0,270.4,8,0,0,0,0,0,0,0,0,270.4,1,0,0.358,0,0,3,0,0,0,12,-3.568,0,0,0,2,292.77,FLYING
355.29,APPROACH,,170.91,75,-95.91,6955.13,-0.01,-0.82,-0.81,87.26,-0.111,0.78,0,0,0,0,0,0,0,0,0,270.4,8,0,0,0,0,0,0,0,0,270.4,1,0,0.358,0,0,3,0,0,0,12,-3.568,0,0,0,2,295.41,FLYING
