t_s,phase,subphase,ias_ms,vapp_ms,spd_err_ms,agl_m,gear_h_m,vs_ms,pitch_deg,aoa_deg,hdg_deg,bank_deg,thr_cmd,thr_cur,thr_intg,at_gain,at_tau_s,at_a_up,at_a_dn,at_kp_thr,at_ki_spd,at_thr_slew,as_cmd_deg,as_cap_deg,as_raw_deg,as_spd_err_ms,as_active,aa_hdg_cmd_deg,aa_fpa_cmd_deg,aa_fbw,aa_dir,actual_fpa_deg,ftf_hdg_err_deg,ftf_fix_idx,kos_steer_pit_deg,kos_steer_hdg_deg,aa_dir_vx,aa_dir_vy,aa_dir_vz,aa_dir_pitch_deg,aa_dir_hdg_deg,ils_loc_m,ils_gs_m,ils_dist_km,loc_corr_deg,gs_corr_deg,gs_latched,active_gs_ang_deg,ils_intercept_alt_m,d_gs_ms,fpa_preclamped_deg,gs_nom_alt_m,flare_fpa_cmd,flare_tgt_vs,flare_frac,flare_mode,flare_auth_limited,flare_auth_reason,flare_vs_err,flare_fpa_err,flare_pitch_err,flare_theta_cmd_raw,flare_theta_cmd_clamped,flare_theta_clamp_active,flare_aoa_clamp_active,flare_pitch_in_cmd,elev_defl_avg_deg,elev_defl_max_deg,elev_defl_n,flare_ctrl_h_m,flare_req_up_a,flare_thr_floor,flare_tecs_et_err,flare_tecs_eb_err,flare_tecs_h_ref,flare_tecs_v_ref,flare_gamma_ref,flare_gamma_eb_term,flare_gamma_unsat,steer_hdg_deg,steer_blend,ro_loc_corr_deg,ro_hdg_err_deg,ro_yaw_tgt,ro_yaw_scale,ro_yaw_gate,yaw_cmd,roll_cmd,pitch_cmd,ro_pitch_tgt_deg,ro_pitch_err_deg,ro_pitch_ff,ro_roll_assist,flaps_cur,flaps_tgt,asc_j_ab,asc_j_rk,asc_validity,asc_q_pa,asc_q_raw_pa,asc_mach,asc_apo_m,asc_drag_n,asc_w_prop,asc_edot_aero,asc_edot_orb,asc_pitch_bias,asc_blend,asc_spooling,asc_ab_thr_ratio,asc_ab_t_now,asc_ab_t_avail,asc_ab_ign_on,asc_ab_flameouts,asc_rk_t_now,asc_rk_t_avail,asc_rk_ign_on,asc_rk_flameouts,ship_thrust,ship_avail_thrust,ship_ign_on,ship_flameouts,ifc_raw_dt_s,ifc_dt_s,ifc_loop_n,ifc_hz_est,ifc_raw_dt_max_s,ifc_raw_dt_min_s,phase_el_s,status,craft_name,cfg_file
0.16,APPROACH,ILS_TRACK,154.29,152,-2.29,741.88,662.89,-12.05,10.89,15.12,269.83,0.437,0,0,0,0,0,0,0,0,0,0,0,0,0,0,0,0,0,1,0,-4.48,0,0,0,90,0,0,0,0,0,7.04,-488.01,22.055,0,0,0,3,741.88,0,0,1230.12,0,0,0,,0,NONE,0,0,0,0,0,0,0,0,0,0,0,662.89,0,0,0,0,0,0,0,0,0,269.82,0,0,0,0,0,0,0,0,0,0,0,0,0,0,0,0,0,VALID,0,0,0,0,0,1,0,0,0,0,0,0,0,0,0,0,0,0,0,0,298.91,1081.32,2,0,0.14,0.14,1,3.7,0.14,0.02,0.16,FLYING,X10-H,0:/Integrated Flight Computer/aircraft/x10_h_cfg.ks (inferred preloaded)
0.48,APPROACH,ILS_TRACK,154.38,152,-2.38,738.22,659.17,-11.42,11.22,15.23,269.84,0.298,0,0,0,1,0.6,2.105,0.75,0.35,0.0168,0.4,1.004,21.221,1.004,2.376,1,269.91,0,0,1,-4.25,0,0,0,269.91,0.7394,-0.0016,-0.6733,0,269.91,6.81,-488.88,22.006,-0.091,0,0,3,741.88,-2.907,0,1227.56,0,0,0,,0,NONE,0,0,0,0,0,0,0,0,0,0,0,659.17,0,0,0,0,0,0,0,0,0,269.82,0,0,0,0,0,0,0,0,0,0,0,0,0,1,3,0,0,VALID,0,0,0,0,0,1,0,0,0,0,0,0,0,0,0,0,0,0,0,0,267.31,1081.97,2,0,0.08,0.08,4,9.38,0.14,0.08,0.48,FLYING,X10-H,0:/Integrated Flight Computer/aircraft/x10_h_cfg.ks (inferred preloaded)
0.78,APPROACH,ILS_TRACK,154.37,152,-2.37,734.89,655.81,-11.05,11.28,15.17,269.78,0.167,0,0,0,1,0.6,3.745,0.75,0.35,0.0168,0.4,1.005,21.221,1.005,2.376,1,269.92,0,0,1,-4.11,0,0,0,269.91,0.7393,-0.0015,-0.6733,0,269.92,6.6,-489.67,21.957,-0.084,0,0,3,741.88,-2.386,0,1224.99,0,0,0,,0,NONE,0,0,0,0,0,0,0,0,0,0,0,655.81,0,0,0,0,0,0,0,0,0,269.82,0,0,0,0,0,0,0,0,0,0,0,0,0,2,3,0,0,VALID,0,0,0,0,0,1,0,0,0,0,0,0,0,0,0,0,0,0,0,0,240.63,1082.22,2,0,0.08,0.08,7,10,0.12,0.08,0.78,FLYING,X10-H,0:/Integrated Flight Computer/aircraft/x10_h_cfg.ks (inferred preloaded)
1.08,APPROACH,ILS_TRACK,154.28,152,-2.28,731.78,652.55,-10.56,11.76,15.5,269.83,0.4,0,0,0,1,0.6,4.5,0.75,0.35,0.0168,0.4,0.91,21.245,0.91,2.292,1,269.93,0,0,1,-3.95,0,0,0,269.93,0.7393,-0.0013,-0.6734,0,269.93,6.38,-490.23,21.908,-0.073,0,0,3,741.88,-1.683,0,1222.42,0,0,0,,0,NONE,0,0,0,0,0,0,0,0,0,0,0,652.55,0,0,0,0,0,0,0,0,0,269.82,0,0,0,0,0,0,0,0,0,0,0,0,0,2,3,0,0,VALID,0,0,0,0,0,1,0,0,0,0,0,0,0,0,0,0,0,0,0,0,216.54,1082.07,2,0,0.08,0.08,10,10,0.12,0.08,1.08,FLYING,X10-H,0:/Integrated Flight Computer/aircraft/x10_h_cfg.ks (inferred preloaded)
1.44,APPROACH,ILS_TRACK,153.86,152,-1.86,728.01,648.94,-9.6,11.43,14.73,269.85,0.335,0.048,0,-0.475,1,0.6,4.5,0.75,0.35,0.0168,0.4,0.451,21.358,0.451,1.891,1,269.93,0,0,1,-3.6,0,0,0,269.93,0.7392,-0.0012,-0.6735,0,269.93,6.12,-490.91,21.849,-0.067,0,0,3,741.88,-2.153,0,1219.35,0,0,0,,0,NONE,0,0,0,0,0,0,0,0,0,0,0,648.94,0,0,0,0,0,0,0,0,0,269.82,0,0,0,0,0,0,0,0,0,0,0,0,0,3,3,0,0,VALID,0,0,0,0,0,1,0,0,0,0,0,0,0,0,0,0,0,0,0,0,190.57,1080.54,2,0,0.12,0.12,13,8.33,0.12,0.08,1.44,FLYING,X10-H,0:/Integrated Flight Computer/aircraft/x10_h_cfg.ks (inferred preloaded)
1.78,APPROACH,ILS_TRACK,153.57,152,-1.57,724.4,645.69,-9.37,10.01,13.24,269.87,0.497,0.1308,0,-1.037,1,0.6,4.5,0.75,0.35,0.0168,0.4,0,21.446,0,1.577,0,269.93,0,0,1,-3.51,0,0,0,269.93,0.7391,-0.0012,-0.6735,0,269.93,5.89,-491.64,21.794,-0.07,0,0,3,741.88,-1.977,0,1216.46,0,0,0,,0,NONE,0,0,0,0,0,0,0,0,0,0,0,645.69,0,0,0,0,0,0,0,0,0,269.82,0,0,0,0,0,0,0,0,0,0,0,0,0,3,3,0,0,VALID,0,0,0,0,0,1,0,0,0,0,0,0,0,0,0,0,0,0,0,0,179.4,1079.51,2,0,0.1,0.1,16,8.82,0.12,0.1,1.78,FLYING,X10-H,0:/Integrated Flight Computer/aircraft/x10_h_cfg.ks (inferred preloaded)
2.06,APPROACH,ILS_TRACK,153.4,152,-1.4,721.34,643.1,-9.17,8.53,11.61,269.87,0.414,0.1141,0,-1.448,1,0.6,4.5,0.75,0.35,0.0168,0.4,0,21.493,0,1.41,0,269.93,0,0,1,-3.42,0,0,0,269.94,0.7391,-0.0013,-0.6736,0,269.93,5.71,-492.28,21.748,-0.075,0,0,3,741.88,-2.618,0,1214.07,0,0,0,,0,NONE,0,0,0,0,0,0,0,0,0,0,0,643.1,0,0,0,0,0,0,0,0,0,269.82,0,0,0,0,0,0,0,0,0,0,0,0,0,3,3,0,0,VALID,0,0,0,0,0,1,0,0,0,0,0,0,0,0,0,0,0,0,0,0,174.88,1078.96,2,0,0.08,0.08,19,10.71,0.1,0.08,2.06,FLYING,X10-H,0:/Integrated Flight Computer/aircraft/x10_h_cfg.ks (inferred preloaded)
2.36,APPROACH,ILS_TRACK,153.41,152,-1.41,717.96,640.27,-9.72,6.52,9.82,269.84,0.337,0.0211,0,-1.741,1,0.6,4.5,0.75,0.35,0.0168,0.4,0,21.497,0,1.399,0,269.93,0,0,1,-3.59,0,0,0,269.93,0.739,-0.0012,-0.6737,0,269.93,5.53,-493.11,21.7,-0.069,0,0,3,741.88,-2.741,0,1211.53,0,0,0,,0,NONE,0,0,0,0,0,0,0,0,0,0,0,640.27,0,0,0,0,0,0,0,0,0,269.82,0,0,0,0,0,0,0,0,0,0,0,0,0,3,3,0,0,VALID,0,0,0,0,0,1,0,0,0,0,0,0,0,0,0,0,0,0,0,0,167.58,1079.18,2,0,0.08,0.08,22,10,0.12,0.08,2.36,FLYING,X10-H,0:/Integrated Flight Computer/aircraft/x10_h_cfg.ks (inferred preloaded)
2.66,APPROACH,ILS_TRACK,153.53,152,-1.53,714.69,637.21,-10.59,5.57,9.26,269.83,0.273,0,0,-1.715,1,0.6,4.5,0.75,0.35,0.0168,0.4,0.023,21.463,0.023,1.52,0,269.94,0,0,1,-3.9,0,0,0,269.94,0.739,-0.0011,-0.6737,0,269.94,5.34,-493.86,21.651,-0.064,0,0,3,741.88,-2.316,0,1208.97,0,0,0,,0,NONE,0,0,0,0,0,0,0,0,0,0,0,637.21,0,0,0,0,0,0,0,0,0,269.82,0,0,0,0,0,0,0,0,0,0,0,0,0,3,3,0,0,VALID,0,0,0,0,0,1,0,0,0,0,0,0,0,0,0,0,0,0,0,0,152.18,1079.91,2,0,0.08,0.08,25,10,0.12,0.08,2.66,FLYING,X10-H,0:/Integrated Flight Computer/aircraft/x10_h_cfg.ks (inferred preloaded)
2.96,APPROACH,ILS_TRACK,153.59,152,-1.59,711.57,633.91,-11.41,6.05,10.14,269.82,0.203,0,0,-1.69,1,0.6,4.5,0.75,0.35,0.0168,0.4,0.106,21.442,0.106,1.592,1,269.95,0,0,1,-4.21,0,0,0,269.94,0.7389,-0.0009,-0.6738,0,269.95,5.16,-494.45,21.602,-0.049,0,0,3,741.88,-1.747,0,1206.42,0,0,0,,0,NONE,0,0,0,0,0,0,0,0,0,0,0,633.91,0,0,0,0,0,0,0,0,0,269.82,0,0,0,0,0,0,0,0,0,0,0,0,0,3,3,0,0,VALID,0,0,0,0,0,1,0,0,0,0,0,0,0,0,0,0,0,0,0,0,137.03,1080.45,2,0,0.08,0.08,28,10,0.12,0.08,2.96,FLYING,X10-H,0:/Integrated Flight Computer/aircraft/x10_h_cfg.ks (inferred preloaded)
3.26,APPROACH,ILS_TRACK,153.51,152,-1.51,708.64,630.43,-11.75,7.92,12.22,269.82,0.161,0,0,-1.664,1,0.6,4.5,0.75,0.35,0.0168,0.4,0.025,21.462,0.025,1.522,0,269.95,0,0,1,-4.38,0,0,0,269.95,0.7389,-0.0009,-0.6738,0,269.95,4.99,-494.85,21.554,-0.053,0,0,3,741.88,-1.11,0,1203.88,0,0,0,,0,NONE,0,0,0,0,0,0,0,0,0,0,0,630.43,0,0,0,0,0,0,0,0,0,269.82,0,0,0,0,0,0,0,0,0,0,0,0,0,3,3,0,0,VALID,0,0,0,0,0,1,0,0,0,0,0,0,0,0,0,0,0,0,0,0,123.33,1080.39,2,0,0.08,0.08,31,10,0.12,0.08,3.26,FLYING,X10-H,0:/Integrated Flight Computer/aircraft/x10_h_cfg.ks (inferred preloaded)
3.56,APPROACH,ILS_TRACK,153.21,152,-1.21,705.76,626.96,-11.48,10.01,14.22,269.84,0.21,0.0354,0,-1.889,1,0.6,4.5,0.75,0.35,0.0168,0.4,0,21.542,0,1.239,0,269.96,0,0,1,-4.31,0,0,0,269.95,0.7388,-0.0007,-0.6739,0,269.96,4.81,-495.2,21.505,-0.042,0,0,3,741.88,-1.085,0,1201.33,0,0,0,,0,NONE,0,0,0,0,0,0,0,0,0,0,0,626.96,0,0,0,0,0,0,0,0,0,269.82,0,0,0,0,0,0,0,0,0,0,0,0,0,3,3,0,0,VALID,0,0,0,0,0,1,0,0,0,0,0,0,0,0,0,0,0,0,0,0,110.98,1079.42,2,0,0.08,0.08,34,10,0.12,0.08,3.56,FLYING,X10-H,0:/Integrated Flight Computer/aircraft/x10_h_cfg.ks (inferred preloaded)
3.86,APPROACH,ILS_TRACK,152.64,152,-0.64,702.97,623.63,-10.77,12,15.96,269.87,0.32,0.1554,0,-2.158,1,0.6,4.5,0.75,0.35,0.0168,0.4,0,21.696,0,0.692,0,269.96,0,0,1,-4.08,0,0,0,269.96,0.7388,-0.0008,-0.674,0,269.96,4.63,-495.46,21.457,-0.043,0,0,3,741.88,-0.76,0,1198.79,0,0,0,,0,NONE,0,0,0,0,0,0,0,0,0,0,0,623.63,0,0,0,0,0,0,0,0,0,269.82,0,0,0,0,0,0,0,0,0,0,0,0,0,3,3,0,0,VALID,0,0,0,0,0,1,0,0,0,0,0,0,0,0,0,0,0,0,0,0,106.78,1077.29,2,0,0.08,0.08,37,10,0.12,0.08,3.86,FLYING,X10-H,0:/Integrated Flight Computer/aircraft/x10_h_cfg.ks (inferred preloaded)
4.16,APPROACH,ILS_TRACK,151.83,152,0.17,700.31,620.56,-9.76,13.52,17.11,269.92,0.432,0.2754,0,-2.208,1,0.6,4.5,0.75,0.35,0.0168,0.4,0,21.922,0,-0.112,0,269.96,0,0,1,-3.73,0,0,0,269.95,0.7387,-0.0007,-0.674,0,269.96,4.46,-495.61,21.409,-0.04,0,0,3,741.88,-0.38,0,1196.27,0,0,0,,0,NONE,0,0,0,0,0,0,0,0,0,0,0,620.56,0,0,0,0,0,0,0,0,0,269.82,0,0,0,0,0,0,0,0,0,0,0,0,0,3,3,0,0,VALID,0,0,0,0,0,1,0,0,0,0,0,0,0,0,0,0,0,0,0,0,112.01,1074.08,2,0,0.08,0.08,40,10,0.12,0.08,4.16,FLYING,X10-H,0:/Integrated Flight Computer/aircraft/x10_h_cfg.ks (inferred preloaded)
4.46,APPROACH,ILS_TRACK,150.87,152,1.13,697.8,617.82,-8.64,14.44,17.61,269.97,0.518,0.3954,0,-1.984,1,0.6,4.5,0.75,0.35,0.0168,0.4,0,22.192,0,-1.069,0,269.95,0,0,1,-3.33,0,0,0,269.97,0.7387,-0.0008,-0.6741,0,269.95,4.3,-495.64,21.361,-0.048,0,0,3,741.88,0.129,0,1193.76,0,0,0,,0,NONE,0,0,0,0,0,0,0,0,0,0,0,617.82,0,0,0,0,0,0,0,0,0,269.82,0,0,0,0,0,0,0,0,0,0,0,0,0,3,3,0,0,VALID,0,0,0,0,0,1,0,0,0,0,0,0,0,0,0,0,0,0,0,0,124.31,1070.25,2,0,0.08,0.08,43,10,0.12,0.08,4.46,FLYING,X10-H,0:/Integrated Flight Computer/aircraft/x10_h_cfg.ks (inferred preloaded)
4.76,APPROACH,ILS_TRACK,149.88,152,2.12,695.51,615.4,-7.51,14.93,17.69,270,0.573,0.5154,0,-1.955,1,0.6,4.5,0.75,0.35,0.0168,0.4,0,22.471,0,-2.059,0,269.96,0,0,1,-2.93,0,0,0,269.96,0.7386,-0.0007,-0.6741,0,269.96,4.15,-495.46,21.313,-0.041,0,0,3,741.88,0.864,0,1191.26,0,0,0,,0,NONE,0,0,0,0,0,0,0,0,0,0,0,615.4,0,0,0,0,0,0,0,0,0,269.82,0,0,0,0,0,0,0,0,0,0,0,0,0,3,3,0,0,VALID,0,0,0,0,0,1,0,0,0,0,0,0,0,0,0,0,0,0,0,0,143.23,1066.28,2,0,0.08,0.08,46,10,0.12,0.08,4.76,FLYING,X10-H,0:/Integrated Flight Computer/aircraft/x10_h_cfg.ks (inferred preloaded)
5.06,APPROACH,ILS_TRACK,148.9,152,3.1,693.4,613.33,-6.41,14.87,17.21,270.02,0.595,0.6354,0,-1.926,1,0.6,4.5,0.75,0.35,0.0168,0.4,0,22.747,0,-3.039,0,269.94,0,0,1,-2.51,0,0,0,269.95,0.7385,-0.0011,-0.6742,0,269.94,4.02,-495.11,21.266,-0.064,0,0,3,741.88,1.384,0,1188.78,0,0,0,,0,NONE,0,0,0,0,0,0,0,0,0,0,0,613.33,0,0,0,0,0,0,0,0,0,269.82,0,0,0,0,0,0,0,0,0,0,0,0,0,3,3,0,0,VALID,0,0,0,0,0,1,0,0,0,0,0,0,0,0,0,0,0,0,0,0,168.32,1062.37,2,0,0.08,0.08,49,10,0.12,0.08,5.06,FLYING,X10-H,0:/Integrated Flight Computer/aircraft/x10_h_cfg.ks (inferred preloaded)
5.36,APPROACH,ILS_TRACK,148.08,152,3.92,691.54,611.55,-5.51,14.57,16.58,270.03,0.569,0.7554,0,-1.897,1,0.6,4.5,0.75,0.35,0.0168,0.4,0,22.981,0,-3.869,0,269.95,0,0,1,-2.18,0,0,0,269.94,0.7385,-0.001,-0.6743,0,269.95,3.89,-494.54,21.219,-0.055,0,0,3,741.88,2.205,0,1186.31,0,0,0,,0,NONE,0,0,0,0,0,0,0,0,0,0,0,611.55,0,0,0,0,0,0,0,0,0,269.82,0,0,0,0,0,0,0,0,0,0,0,0,0,3,3,0,0,VALID,0,0,0,0,0,1,0,0,0,0,0,0,0,0,0,0,0,0,0,0,199.26,1059.1,2,0,0.08,0.08,52,10,0.12,0.08,5.36,FLYING,X10-H,0:/Integrated Flight Computer/aircraft/x10_h_cfg.ks (inferred preloaded)
5.66,APPROACH,ILS_TRACK,147.41,152,4.59,689.9,610.03,-4.69,14.17,15.87,270.02,0.522,0.8754,0,-1.869,1,0.6,4.5,0.75,0.35,0.0168,0.4,0,23.174,0,-4.551,0,269.94,0,0,1,-1.86,0,0,0,269.93,0.7384,-0.0011,-0.6743,0,269.94,3.79,-493.75,21.172,-0.065,0,0,3,741.88,2.877,0,1183.86,0,0,0,,0,NONE,0,0,0,0,0,0,0,0,0,0,0,610.03,0,0,0,0,0,0,0,0,0,269.82,0,0,0,0,0,0,0,0,0,0,0,0,0,3,3,0,0,VALID,0,0,0,0,0,1,0,0,0,0,0,0,0,0,0,0,0,0,0,0,235.71,1056.43,2,0,0.08,0.08,55,10,0.12,0.08,5.66,FLYING,X10-H,0:/Integrated Flight Computer/aircraft/x10_h_cfg.ks (inferred preloaded)
5.96,APPROACH,ILS_TRACK,146.92,152,5.08,688.5,608.74,-4.04,13.76,15.25,270.01,0.46,0.9954,0,-1.841,1,0.6,4.5,0.75,0.35,0.0168,0.4,0,23.316,0,-5.058,0,269.94,0,0,1,-1.61,0,0,0,269.93,0.7384,-0.0011,-0.6744,0,269.94,3.69,-492.74,21.125,-0.065,0,0,3,741.88,3.657,0,1181.41,0,0,0,,0,NONE,0,0,0,0,0,0,0,0,0,0,0,608.74,0,0,0,0,0,0,0,0,0,269.82,0,0,0,0,0,0,0,0,0,0,0,0,0,3,3,0,0,VALID,0,0,0,0,0,1,0,0,0,0,0,0,0,0,0,0,0,0,0,0,277.38,1054.49,2,0,0.08,0.08,58,10,0.12,0.08,5.96,FLYING,X10-H,0:/Integrated Flight Computer/aircraft/x10_h_cfg.ks (inferred preloaded)
6.26,APPROACH,ILS_TRACK,146.58,152,5.42,687.28,607.64,-3.33,13.39,14.6,270,0.395,0.9414,0,-0.867,1,0.6,4.5,0.75,0.35,0.0168,0.4,0,23.413,0,-5.402,0,269.93,0,0,1,-1.33,0,0,0,269.93,0.7383,-0.0013,-0.6744,0,269.93,3.6,-491.53,21.078,-0.075,0,0,3,741.88,4.179,0,1178.97,0,0,0,,0,NONE,0,0,0,0,0,0,0,0,0,0,0,607.64,0,0,0,0,0,0,0,0,0,269.82,0,0,0,0,0,0,0,0,0,0,0,0,0,3,3,0,0,VALID,0,0,0,0,0,1,0,0,0,0,0,0,0,0,0,0,0,0,0,0,321.73,1053.19,2,0,0.08,0.08,61,10,0.12,0.08,6.26,FLYING,X10-H,0:/Integrated Flight Computer/aircraft/x10_h_cfg.ks (inferred preloaded)
6.56,APPROACH,ILS_TRACK,146.42,152,5.58,686.22,606.73,-2.78,12.85,13.85,269.98,0.327,0.8214,0,0.793,1,0.6,4.5,0.75,0.35,0.0168,0.4,0,23.462,0,-5.574,0,269.91,0,0,1,-1.12,0,0,0,269.92,0.7383,-0.0015,-0.6745,0,269.91,3.52,-490.18,21.032,-0.086,0,0,3,741.88,4.712,0,1176.53,0,0,0,,0,NONE,0,0,0,0,0,0,0,0,0,0,0,606.73,0,0,0,0,0,0,0,0,0,269.82,0,0,0,0,0,0,0,0,0,0,0,0,0,3,3,0,0,VALID,0,0,0,0,0,1,0,0,0,0,0,0,0,0,0,0,0,0,0,0,358.62,1052.6,2,0,0.08,0.08,64,10,0.12,0.08,6.56,FLYING,X10-H,0:/Integrated Flight Computer/aircraft/x10_h_cfg.ks (inferred preloaded)
6.92,APPROACH,ILS_TRACK,146.44,152,5.56,685.12,605.84,-2.22,12.16,12.94,269.97,0.247,0.6774,0,2.804,1,0.6,4.5,0.75,0.35,0.0168,0.4,0,23.46,0,-5.569,0,269.93,0,0,1,-0.89,0,0,0,269.92,0.7382,-0.0013,-0.6746,0,269.93,3.43,-488.36,20.976,-0.072,0,0,3,741.88,5.225,0,1173.6,0,0,0,,0,NONE,0,0,0,0,0,0,0,0,0,0,0,605.84,0,0,0,0,0,0,0,0,0,269.82,0,0,0,0,0,0,0,0,0,0,0,0,0,3,3,0,0,VALID,0,0,0,0,0,1,0,0,0,0,0,0,0,0,0,0,0,0,0,0,390.81,1052.72,2,0,0.12,0.12,67,8.33,0.12,0.08,6.92,FLYING,X10-H,0:/Integrated Flight Computer/aircraft/x10_h_cfg.ks (inferred preloaded)
7.26,APPROACH,ILS_TRACK,146.61,152,5.39,684.25,605.15,-1.82,11.49,12.12,269.96,0.189,0.5414,0,4.663,1,0.6,4.5,0.75,0.35,0.0168,0.4,0,23.414,0,-5.403,0,269.93,0,0,1,-0.73,0,0,0,269.92,0.7382,-0.0012,-0.6746,0,269.93,3.35,-486.49,20.923,-0.07,0,0,3,741.88,5.628,0,1170.83,0,0,0,,0,NONE,0,0,0,0,0,0,0,0,0,0,0,605.15,0,0,0,0,0,0,0,0,0,269.82,0,0,0,0,0,0,0,0,0,0,0,0,0,3,3,0,0,VALID,0,0,0,0,0,1,0,0,0,0,0,0,0,0,0,0,0,0,0,0,409.72,1053.48,2,0,0.1,0.1,70,8.82,0.12,0.1,7.26,FLYING,X10-H,0:/Integrated Flight Computer/aircraft/x10_h_cfg.ks (inferred preloaded)
7.54,APPROACH,ILS_TRACK,146.83,152,5.17,683.62,604.67,-1.56,10.96,11.5,269.95,0.153,0.4294,0,6.136,1,0.6,4.5,0.75,0.35,0.0168,0.4,0,23.352,0,-5.184,0,269.93,0,0,1,-0.62,0,0,0,269.93,0.7381,-0.0013,-0.6747,0,269.93,3.28,-484.85,20.88,-0.072,0,0,3,741.88,5.96,0,1168.55,0,0,0,,0,NONE,0,0,0,0,0,0,0,0,0,0,0,604.67,0,0,0,0,0,0,0,0,0,269.82,0,0,0,0,0,0,0,0,0,0,0,0,0,3,3,0,0,VALID,0,0,0,0,0,1,0,0,0,0,0,0,0,0,0,0,0,0,0,0,417.18,1054.43,2,0,0.08,0.08,73,10.71,0.1,0.08,7.54,FLYING,X10-H,0:/Integrated Flight Computer/aircraft/x10_h_cfg.ks (inferred preloaded)
7.84,APPROACH,ILS_TRACK,147.13,152,4.87,683.05,604.2,-1.6,10.53,11.12,269.94,0.13,0.3094,0,7.634,1,0.6,4.5,0.75,0.35,0.0168,0.4,0,23.27,0,-4.893,0,269.92,0,0,1,-0.62,0,0,0,269.93,0.7381,-0.0013,-0.6747,0,269.92,3.22,-482.99,20.833,-0.076,0,0,3,741.88,6.458,0,1166.1,0,0,0,,0,NONE,0,0,0,0,0,0,0,0,0,0,0,604.2,0,0,0,0,0,0,0,0,0,269.82,0,0,0,0,0,0,0,0,0,0,0,0,0,3,3,0,0,VALID,0,0,0,0,0,1,0,0,0,0,0,0,0,0,0,0,0,0,0,0,417.02,1055.68,2,0,0.08,0.08,76,10,0.12,0.08,7.84,FLYING,X10-H,0:/Integrated Flight Computer/aircraft/x10_h_cfg.ks (inferred preloaded)
8.14,APPROACH,ILS_TRACK,147.41,152,4.59,682.66,603.75,-1.26,10.76,11.23,269.94,0.104,0.1939,0,9.042,1,0.6,4.5,0.75,0.35,0.0168,0.4,0,23.189,0,-4.605,0,269.93,0,0,1,-0.53,0,0,0,269.93,0.738,-0.0012,-0.6748,0,269.93,3.15,-480.93,20.786,-0.067,0,0,3,741.88,6.858,0,1163.65,0,0,0,,0,NONE,0,0,0,0,0,0,0,0,0,0,0,603.75,0,0,0,0,0,0,0,0,0,269.82,0,0,0,0,0,0,0,0,0,0,0,0,0,3,3,0,0,VALID,0,0,0,0,0,1,0,0,0,0,0,0,0,0,0,0,0,0,0,0,405.01,1056.88,2,0,0.08,0.08,79,10,0.12,0.08,8.14,FLYING,X10-H,0:/Integrated Flight Computer/aircraft/x10_h_cfg.ks (inferred preloaded)
8.44,APPROACH,ILS_TRACK,147.61,152,4.39,682.18,603.41,-1.14,10.3,10.69,269.94,0.089,0.2203,0,10.385,1,0.6,4.5,0.75,0.35,0.0168,0.4,0,23.132,0,-4.405,0,269.92,0,0,1,-0.44,0,0,0,269.93,0.738,-0.0014,-0.6748,0,269.92,3.09,-478.95,20.739,-0.081,0,0,3,741.88,6.626,0,1161.19,0,0,0,,0,NONE,0,0,0,0,0,0,0,0,0,0,0,603.41,0,0,0,0,0,0,0,0,0,269.82,0,0,0,0,0,0,0,0,0,0,0,0,0,3,3,0,0,VALID,0,0,0,0,0,1,0,0,0,0,0,0,0,0,0,0,0,0,0,0,386.81,1057.74,2,0,0.08,0.08,82,10,0.12,0.08,8.44,FLYING,X10-H,0:/Integrated Flight Computer/aircraft/x10_h_cfg.ks (inferred preloaded)
8.74,APPROACH,ILS_TRACK,147.85,152,4.15,681.87,603.04,-1.28,10.38,10.89,269.94,0.073,0.2206,0,11.657,1,0.6,4.5,0.75,0.35,0.0168,0.4,0,23.065,0,-4.166,0,269.93,0,0,1,-0.5,0,0,0,269.93,0.7379,-0.0012,-0.6749,0,269.93,3.02,-476.83,20.692,-0.068,0,0,3,741.88,7.373,0,1158.73,0,0,0,,0,NONE,0,0,0,0,0,0,0,0,0,0,0,603.04,0,0,0,0,0,0,0,0,0,269.82,0,0,0,0,0,0,0,0,0,0,0,0,0,3,3,0,0,VALID,0,0,0,0,0,1,0,0,0,0,0,0,0,0,0,0,0,0,0,0,371.48,1058.74,2,0,0.08,0.08,85,10,0.12,0.08,8.74,FLYING,X10-H,0:/Integrated Flight Computer/aircraft/x10_h_cfg.ks (inferred preloaded)
9.04,APPROACH,ILS_TRACK,147.95,152,4.05,681.57,602.73,-0.77,10.57,10.82,269.94,0.069,0.2971,0,12.878,1,0.6,4.5,0.75,0.35,0.0168,0.4,0,23.032,0,-4.048,0,269.94,0,0,1,-0.32,0,0,0,269.94,0.7379,-0.0011,-0.675,0,269.94,2.96,-474.64,20.645,-0.063,0,0,3,741.88,7.018,0,1156.27,0,0,0,,0,NONE,0,0,0,0,0,0,0,0,0,0,0,602.73,0,0,0,0,0,0,0,0,0,269.82,0,0,0,0,0,0,0,0,0,0,0,0,0,3,3,0,0,VALID,0,0,0,0,0,1,0,0,0,0,0,0,0,0,0,0,0,0,0,0,359.34,1059.2,2,0,0.08,0.08,88,10,0.12,0.08,9.04,FLYING,X10-H,0:/Integrated Flight Computer/aircraft/x10_h_cfg.ks (inferred preloaded)
9.34,APPROACH,ILS_TRACK,148.07,152,3.93,681.18,602.5,-0.85,9.97,10.25,269.94,0.064,0.3461,0,14.077,1,0.6,4.5,0.75,0.35,0.0168,0.4,0,23.003,0,-3.947,0,269.93,0,0,1,-0.32,0,0,0,269.94,0.7378,-0.0011,-0.675,0,269.93,2.9,-472.58,20.598,-0.066,0,0,3,741.88,6.976,0,1153.8,0,0,0,,0,NONE,0,0,0,0,0,0,0,0,0,0,0,602.5,0,0,0,0,0,0,0,0,0,269.82,0,0,0,0,0,0,0,0,0,0,0,0,0,3,3,0,0,VALID,0,0,0,0,0,1,0,0,0,0,0,0,0,0,0,0,0,0,0,0,357.44,1059.68,2,0,0.08,0.08,91,10,0.12,0.08,9.34,FLYING,X10-H,0:/Integrated Flight Computer/aircraft/x10_h_cfg.ks (inferred preloaded)
9.64,APPROACH,ILS_TRACK,148.24,152,3.76,680.96,602.21,-0.98,10.12,10.52,269.94,0.064,0.337,0,15.226,1,0.6,4.5,0.75,0.35,0.0168,0.4,0,22.954,0,-3.774,0,269.94,0,0,1,-0.39,0,0,0,269.93,0.7377,-0.0011,-0.6751,0,269.94,2.84,-470.36,20.551,-0.06,0,0,3,741.88,7.675,0,1151.34,0,0,0,,0,NONE,0,0,0,0,0,0,0,0,0,0,0,602.21,0,0,0,0,0,0,0,0,0,269.82,0,0,0,0,0,0,0,0,0,0,0,0,0,3,3,0,0,VALID,0,0,0,0,0,1,0,0,0,0,0,0,0,0,0,0,0,0,0,0,358,1060.42,2,0,0.08,0.08,94,10,0.12,0.08,9.64,FLYING,X10-H,0:/Integrated Flight Computer/aircraft/x10_h_cfg.ks (inferred preloaded)
9.94,APPROACH,ILS_TRACK,148.36,152,3.64,680.72,601.97,-0.74,10.2,10.45,269.94,0.061,0.3692,0,16.332,1,0.6,4.5,0.75,0.35,0.0168,0.4,0,22.92,0,-3.651,0,269.94,0,0,1,-0.28,0,0,0,269.94,0.7377,-0.0011,-0.6751,0,269.94,2.78,-468.12,20.504,-0.063,0,0,3,741.88,7.315,0,1148.87,0,0,0,,0,NONE,0,0,0,0,0,0,0,0,0,0,0,601.97,0,0,0,0,0,0,0,0,0,269.82,0,0,0,0,0,0,0,0,0,0,0,0,0,3,3,0,0,VALID,0,0,0,0,0,1,0,0,0,0,0,0,0,0,0,0,0,0,0,0,358.55,1060.94,2,0,0.08,0.08,97,10,0.12,0.08,9.94,FLYING,X10-H,0:/Integrated Flight Computer/aircraft/x10_h_cfg.ks (inferred preloaded)
10.24,APPROACH,ILS_TRACK,148.52,152,3.48,680.46,601.75,-0.71,10.05,10.3,269.94,0.06,0.3611,0,17.395,1,0.6,4.5,0.75,0.35,0.0168,0.4,0,22.874,0,-3.49,0,269.95,0,0,1,-0.27,0,0,0,269.93,0.7376,-0.0009,-0.6752,0,269.95,2.72,-465.9,20.457,-0.054,0,0,3,741.88,7.399,0,1146.4,0,0,0,,0,NONE,0,0,0,0,0,0,0,0,0,0,0,601.75,0,0,0,0,0,0,0,0,0,269.82,0,0,0,0,0,0,0,0,0,0,0,0,0,3,3,0,0,VALID,0,0,0,0,0,1,0,0,0,0,0,0,0,0,0,0,0,0,0,0,360.6,1061.63,2,0,0.08,0.08,100,10,0.12,0.08,10.24,FLYING,X10-H,0:/Integrated Flight Computer/aircraft/x10_h_cfg.ks (inferred preloaded)
10.54,APPROACH,ILS_TRACK,148.7,152,3.3,680.25,601.55,-0.63,10.04,10.25,269.94,0.058,0.3522,0,18.406,1,0.6,4.5,0.75,0.35,0.0168,0.4,0,22.825,0,-3.313,0,269.94,0,0,1,-0.24,0,0,0,269.94,0.7376,-0.001,-0.6753,0,269.94,2.66,-463.64,20.41,-0.056,0,0,3,741.88,7.5,0,1143.92,0,0,0,,0,NONE,0,0,0,0,0,0,0,0,0,0,0,601.55,0,0,0,0,0,0,0,0,0,269.82,0,0,0,0,0,0,0,0,0,0,0,0,0,3,3,0,0,VALID,0,0,0,0,0,1,0,0,0,0,0,0,0,0,0,0,0,0,0,0,361.97,1062.38,2,0,0.08,0.08,103,10,0.12,0.08,10.54,FLYING,X10-H,0:/Integrated Flight Computer/aircraft/x10_h_cfg.ks (inferred preloaded)
10.84,APPROACH,ILS_TRACK,148.88,152,3.12,680.09,601.34,-0.65,10.14,10.4,269.94,0.058,0.3442,0,19.365,1,0.6,4.5,0.75,0.35,0.0168,0.4,0,22.774,0,-3.133,0,269.94,0,0,1,-0.27,0,0,0,269.95,0.7375,-0.001,-0.6753,0,269.94,2.6,-461.34,20.363,-0.059,0,0,3,741.88,7.841,0,1141.45,0,0,0,,0,NONE,0,0,0,0,0,0,0,0,0,0,0,601.34,0,0,0,0,0,0,0,0,0,269.82,0,0,0,0,0,0,0,0,0,0,0,0,0,3,3,0,0,VALID,0,0,0,0,0,1,0,0,0,0,0,0,0,0,0,0,0,0,0,0,362.86,1063.15,2,0,0.08,0.08,106,10,0.12,0.08,10.84,FLYING,X10-H,0:/Integrated Flight Computer/aircraft/x10_h_cfg.ks (inferred preloaded)
11.14,APPROACH,ILS_TRACK,149.02,152,2.98,679.86,601.19,-0.47,9.94,10.08,269.94,0.057,0.3653,0,20,1,0.6,4.5,0.75,0.35,0.0168,0.4,0,22.735,0,-2.995,0,269.95,0,0,1,-0.17,0,0,0,269.95,0.7375,-0.0009,-0.6754,0,269.95,2.54,-459.07,20.315,-0.054,0,0,3,741.88,7.434,0,1138.97,0,0,0,,0,NONE,0,0,0,0,0,0,0,0,0,0,0,601.19,0,0,0,0,0,0,0,0,0,269.82,0,0,0,0,0,0,0,0,0,0,0,0,0,3,3,0,0,VALID,0,0,0,0,0,1,0,0,0,0,0,0,0,0,0,0,0,0,0,0,363.65,1063.73,2,0,0.08,0.08,109,10,0.12,0.08,11.14,FLYING,X10-H,0:/Integrated Flight Computer/aircraft/x10_h_cfg.ks (inferred preloaded)
11.44,APPROACH,ILS_TRACK,149.21,152,2.79,679.72,601.02,-0.58,9.94,10.18,269.94,0.056,0.327,0,20,1,0.6,4.5,0.75,0.35,0.0168,0.4,0,22.68,0,-2.799,0,269.95,0,0,1,-0.24,0,0,0,269.95,0.7374,-0.0009,-0.6754,0,269.95,2.49,-456.76,20.268,-0.05,0,0,3,741.88,7.939,0,1136.49,0,0,0,,0,NONE,0,0,0,0,0,0,0,0,0,0,0,601.02,0,0,0,0,0,0,0,0,0,269.82,0,0,0,0,0,0,0,0,0,0,0,0,0,3,3,0,0,VALID,0,0,0,0,0,1,0,0,0,0,0,0,0,0,0,0,0,0,0,0,364.68,1064.57,2,0,0.08,0.08,112,10,0.12,0.08,11.44,FLYING,X10-H,0:/Integrated Flight Computer/aircraft/x10_h_cfg.ks (inferred preloaded)
11.74,APPROACH,ILS_TRACK,149.38,152,2.62,679.54,600.88,-0.46,9.87,10.03,269.94,0.056,0.3214,0,20,1,0.6,4.5,0.75,0.35,0.0168,0.4,0,22.633,0,-2.633,0,269.95,0,0,1,-0.17,0,0,0,269.95,0.7374,-0.0008,-0.6755,0,269.95,2.43,-454.43,20.22,-0.046,0,0,3,741.88,7.676,0,1134,0,0,0,,0,NONE,0,0,0,0,0,0,0,0,0,0,0,600.88,0,0,0,0,0,0,0,0,0,269.82,0,0,0,0,0,0,0,0,0,0,0,0,0,3,3,0,0,VALID,0,0,0,0,0,1,0,0,0,0,0,0,0,0,0,0,0,0,0,0,363.14,1065.27,2,0,0.08,0.08,115,10,0.12,0.08,11.74,FLYING,X10-H,0:/Integrated Flight Computer/aircraft/x10_h_cfg.ks (inferred preloaded)
12.04,APPROACH,ILS_TRACK,149.58,152,2.42,679.4,600.74,-0.43,9.84,9.99,269.94,0.056,0.2913,0,20,1,0.6,4.5,0.75,0.35,0.0168,0.4,0,22.577,0,-2.434,0,269.95,0,0,1,-0.17,0,0,0,269.95,0.7373,-0.0008,-0.6755,0,269.95,2.37,-452.09,20.173,-0.047,0,0,3,741.88,7.859,0,1131.51,0,0,0,,0,NONE,0,0,0,0,0,0,0,0,0,0,0,600.74,0,0,0,0,0,0,0,0,0,269.82,0,0,0,0,0,0,0,0,0,0,0,0,0,3,3,0,0,VALID,0,0,0,0,0,1,0,0,0,0,0,0,0,0,0,0,0,0,0,0,360.41,1066.11,2,0,0.08,0.08,118,10,0.12,0.08,12.04,FLYING,X10-H,0:/Integrated Flight Computer/aircraft/x10_h_cfg.ks (inferred preloaded)
12.34,APPROACH,ILS_TRACK,149.76,152,2.24,679.26,600.62,-0.42,9.81,9.95,269.94,0.056,0.2781,0,20,1,0.6,4.5,0.75,0.35,0.0168,0.4,0,22.525,0,-2.248,0,269.95,0,0,1,-0.15,0,0,0,269.95,0.7373,-0.001,-0.6756,0,269.95,2.32,-449.74,20.125,-0.055,0,0,3,741.88,7.843,0,1129.02,0,0,0,,0,NONE,0,0,0,0,0,0,0,0,0,0,0,600.62,0,0,0,0,0,0,0,0,0,269.82,0,0,0,0,0,0,0,0,0,0,0,0,0,3,3,0,0,VALID,0,0,0,0,0,1,0,0,0,0,0,0,0,0,0,0,0,0,0,0,355.27,1066.89,2,0,0.08,0.08,121,10,0.12,0.08,12.34,FLYING,X10-H,0:/Integrated Flight Computer/aircraft/x10_h_cfg.ks (inferred preloaded)
12.64,APPROACH,ILS_TRACK,149.93,152,2.07,679.14,600.5,-0.38,9.78,9.92,269.94,0.055,0.2769,0,20,1,0.6,4.5,0.75,0.35,0.0168,0.4,0,22.477,0,-2.08,0,269.96,0,0,1,-0.15,0,0,0,269.95,0.7372,-0.0008,-0.6757,0,269.96,2.26,-447.37,20.078,-0.044,0,0,3,741.88,7.881,0,1126.53,0,0,0,,0,NONE,0,0,0,0,0,0,0,0,0,0,0,600.5,0,0,0,0,0,0,0,0,0,269.82,0,0,0,0,0,0,0,0,0,0,0,0,0,3,3,0,0,VALID,0,0,0,0,0,1,0,0,0,0,0,0,0,0,0,0,0,0,0,0,349.49,1067.6,2,0,0.08,0.08,124,10,0.12,0.08,12.64,FLYING,X10-H,0:/Integrated Flight Computer/aircraft/x10_h_cfg.ks (inferred preloaded)
12.94,APPROACH,ILS_TRACK,150.09,152,1.91,679.03,600.39,-0.38,9.78,9.91,269.94,0.055,0.2786,0,20,1,0.6,4.5,0.75,0.35,0.0168,0.4,0,22.433,0,-1.924,0,269.96,0,0,1,-0.14,0,0,0,269.96,0.7372,-0.0008,-0.6757,0,269.96,2.2,-444.99,20.03,-0.045,0,0,3,741.88,7.936,0,1124.03,0,0,0,,0,NONE,0,0,0,0,0,0,0,0,0,0,0,600.39,0,0,0,0,0,0,0,0,0,269.82,0,0,0,0,0,0,0,0,0,0,0,0,0,3,3,0,0,VALID,0,0,0,0,0,1,0,0,0,0,0,0,0,0,0,0,0,0,0,0,344.23,1068.26,2,0,0.08,0.08,127,10,0.12,0.08,12.94,FLYING,X10-H,0:/Integrated Flight Computer/aircraft/x10_h_cfg.ks (inferred preloaded)
13.24,APPROACH,ILS_TRACK,150.22,152,1.78,678.92,600.28,-0.32,9.78,9.89,269.94,0.054,0.285,0,20,1,0.6,4.5,0.75,0.35,0.0168,0.4,0,22.394,0,-1.787,0,269.96,0,0,1,-0.13,0,0,0,269.96,0.7371,-0.0007,-0.6758,0,269.96,2.15,-442.6,19.983,-0.042,0,0,3,741.88,8.009,0,1121.53,0,0,0,,0,NONE,0,0,0,0,0,0,0,0,0,0,0,600.28,0,0,0,0,0,0,0,0,0,269.82,0,0,0,0,0,0,0,0,0,0,0,0,0,3,3,0,0,VALID,0,0,0,0,0,1,0,0,0,0,0,0,0,0,0,0,0,0,0,0,339.85,1068.84,2,0,0.08,0.08,130,10,0.12,0.08,13.24,FLYING,X10-H,0:/Integrated Flight Computer/aircraft/x10_h_cfg.ks (inferred preloaded)
13.54,APPROACH,ILS_TRACK,150.35,152,1.65,678.82,600.19,-0.32,9.75,9.87,269.94,0.055,0.2909,0,20,1,0.6,4.5,0.75,0.35,0.0168,0.4,0,22.359,0,-1.661,0,269.96,0,0,1,-0.13,0,0,0,269.95,0.7371,-0.0007,-0.6758,0,269.96,2.09,-440.2,19.935,-0.038,0,0,3,741.88,8.016,0,1119.03,0,0,0,,0,NONE,0,0,0,0,0,0,0,0,0,0,0,600.19,0,0,0,0,0,0,0,0,0,269.82,0,0,0,0,0,0,0,0,0,0,0,0,0,3,3,0,0,VALID,0,0,0,0,0,1,0,0,0,0,0,0,0,0,0,0,0,0,0,0,336.65,1069.37,2,0,0.08,0.08,133,10,0.12,0.08,13.54,FLYING,X10-H,0:/Integrated Flight Computer/aircraft/x10_h_cfg.ks (inferred preloaded)
13.84,APPROACH,ILS_TRACK,150.46,152,1.54,678.72,600.1,-0.27,9.75,9.84,269.94,0.054,0.2962,0,20,1,0.6,4.5,0.75,0.35,0.0168,0.4,0,22.326,0,-1.545,0,269.96,0,0,1,-0.1,0,0,0,269.96,0.737,-0.0007,-0.6759,0,269.96,2.04,-437.79,19.887,-0.041,0,0,3,741.88,8.042,0,1116.53,0,0,0,,0,NONE,0,0,0,0,0,0,0,0,0,0,0,600.1,0,0,0,0,0,0,0,0,0,269.82,0,0,0,0,0,0,0,0,0,0,0,0,0,3,3,0,0,VALID,0,0,0,0,0,1,0,0,0,0,0,0,0,0,0,0,0,0,0,0,334.34,1069.86,2,0,0.08,0.08,136,10,0.12,0.08,13.84,FLYING,X10-H,0:/Integrated Flight Computer/aircraft/x10_h_cfg.ks (inferred preloaded)
14.14,APPROACH,ILS_TRACK,150.57,152,1.43,678.64,600.01,-0.27,9.72,9.82,269.94,0.054,0.2995,0,20,1,0.6,4.5,0.75,0.35,0.0168,0.4,0,22.296,0,-1.438,0,269.96,0,0,1,-0.1,0,0,0,269.97,0.7369,-0.0007,-0.676,0,269.96,1.99,-435.38,19.839,-0.04,0,0,3,741.88,8.045,0,1114.03,0,0,0,,0,NONE,0,0,0,0,0,0,0,0,0,0,0,600.01,0,0,0,0,0,0,0,0,0,269.82,0,0,0,0,0,0,0,0,0,0,0,0,0,3,3,0,0,VALID,0,0,0,0,0,1,0,0,0,0,0,0,0,0,0,0,0,0,0,0,332.85,1070.32,2,0,0.08,0.08,139,10,0.12,0.08,14.14,FLYING,X10-H,0:/Integrated Flight Computer/aircraft/x10_h_cfg.ks (inferred preloaded)
14.44,APPROACH,ILS_TRACK,150.68,152,1.32,678.56,599.94,-0.23,9.71,9.79,269.94,0.053,0.2979,0,20,1,0.6,4.5,0.75,0.35,0.0168,0.4,0,22.266,0,-1.33,0,269.97,0,0,1,-0.09,0,0,0,269.98,0.7369,-0.0005,-0.676,0,269.97,1.93,-432.95,19.792,-0.03,0,0,3,741.88,8.084,0,1111.52,0,0,0,,0,NONE,0,0,0,0,0,0,0,0,0,0,0,599.94,0,0,0,0,0,0,0,0,0,269.82,0,0,0,0,0,0,0,0,0,0,0,0,0,3,3,0,0,VALID,0,0,0,0,0,1,0,0,0,0,0,0,0,0,0,0,0,0,0,0,331.69,1070.77,2,0,0.08,0.08,142,10,0.12,0.08,14.44,FLYING,X10-H,0:/Integrated Flight Computer/aircraft/x10_h_cfg.ks (inferred preloaded)
14.74,APPROACH,ILS_TRACK,150.78,152,1.22,678.48,599.87,-0.23,9.69,9.77,269.95,0.053,0.2961,0,20,1,0.6,4.5,0.75,0.35,0.0168,0.4,0,22.237,0,-1.227,0,269.97,0,0,1,-0.09,0,0,0,269.97,0.7368,-0.0005,-0.6761,0,269.97,1.88,-430.52,19.744,-0.031,0,0,3,741.88,8.1,0,1109.01,0,0,0,,0,NONE,0,0,0,0,0,0,0,0,0,0,0,599.87,0,0,0,0,0,0,0,0,0,269.82,0,0,0,0,0,0,0,0,0,0,0,0,0,3,3,0,0,VALID,0,0,0,0,0,1,0,0,0,0,0,0,0,0,0,0,0,0,0,0,330.48,1071.21,2,0,0.08,0.08,145,10,0.12,0.08,14.74,FLYING,X10-H,0:/Integrated Flight Computer/aircraft/x10_h_cfg.ks (inferred preloaded)
15.04,APPROACH,ILS_TRACK,150.88,152,1.12,678.41,599.8,-0.21,9.68,9.75,269.95,0.053,0.2928,0,20,1,0.6,4.5,0.75,0.35,0.0168,0.4,0,22.208,0,-1.125,0,269.97,0,0,1,-0.08,0,0,0,269.97,0.7368,-0.0005,-0.6761,0,269.97,1.83,-428.08,19.696,-0.028,0,0,3,741.88,8.134,0,1106.51,0,0,0,,0,NONE,0,0,0,0,0,0,0,0,0,0,0,599.8,0,0,0,0,0,0,0,0,0,269.82,0,0,0,0,0,0,0,0,0,0,0,0,0,3,3,0,0,VALID,0,0,0,0,0,1,0,0,0,0,0,0,0,0,0,0,0,0,0,0,329.16,1071.64,2,0,0.08,0.08,148,10,0.12,0.08,15.04,FLYING,X10-H,0:/Integrated Flight Computer/aircraft/x10_h_cfg.ks (inferred preloaded)
15.34,APPROACH,ILS_TRACK,150.98,152,1.02,678.35,599.74,-0.17,9.68,9.74,269.95,0.054,0.2911,0,20,1,0.6,4.5,0.75,0.35,0.0168,0.4,0,22.181,0,-1.029,0,269.97,0,0,1,-0.07,0,0,0,269.97,0.7367,-0.0005,-0.6762,0,269.97,1.78,-425.63,19.648,-0.029,0,0,3,741.88,8.187,0,1103.99,0,0,0,,0,NONE,0,0,0,0,0,0,0,0,0,0,0,599.74,0,0,0,0,0,0,0,0,0,269.82,0,0,0,0,0,0,0,0,0,0,0,0,0,3,3,0,0,VALID,0,0,0,0,0,1,0,0,0,0,0,0,0,0,0,0,0,0,0,0,327.65,1072.05,2,0,0.08,0.08,151,10,0.12,0.08,15.34,FLYING,X10-H,0:/Integrated Flight Computer/aircraft/x10_h_cfg.ks (inferred preloaded)
15.64,APPROACH,ILS_TRACK,151.07,152,0.93,678.29,599.69,-0.16,9.66,9.72,269.95,0.053,0.2898,0,20,1,0.6,4.5,0.75,0.35,0.0168,0.4,0,22.155,0,-0.938,0,269.97,0,0,1,-0.07,0,0,0,269.98,0.7367,-0.0006,-0.6762,0,269.97,1.73,-423.18,19.6,-0.034,0,0,3,741.88,8.196,0,1101.48,0,0,0,,0,NONE,0,0,0,0,0,0,0,0,0,0,0,599.69,0,0,0,0,0,0,0,0,0,269.82,0,0,0,0,0,0,0,0,0,0,0,0,0,3,3,0,0,VALID,0,0,0,0,0,1,0,0,0,0,0,0,0,0,0,0,0,0,0,0,326.18,1072.44,2,0,0.08,0.08,154,10,0.12,0.08,15.64,FLYING,X10-H,0:/Integrated Flight Computer/aircraft/x10_h_cfg.ks (inferred preloaded)
15.94,APPROACH,ILS_TRACK,151.16,152,0.84,678.24,599.64,-0.15,9.66,9.71,269.95,0.054,0.2884,0,20,1,0.6,4.5,0.75,0.35,0.0168,0.4,0,22.131,0,-0.85,0,269.97,0,0,1,-0.07,0,0,0,269.98,0.7366,-0.0005,-0.6763,0,269.97,1.68,-420.72,19.552,-0.031,0,0,3,741.88,8.228,0,1098.97,0,0,0,,0,NONE,0,0,0,0,0,0,0,0,0,0,0,599.64,0,0,0,0,0,0,0,0,0,269.82,0,0,0,0,0,0,0,0,0,0,0,0,0,3,3,0,0,VALID,0,0,0,0,0,1,0,0,0,0,0,0,0,0,0,0,0,0,0,0,324.71,1072.81,2,0,0.08,0.08,157,10,0.12,0.08,15.94,FLYING,X10-H,0:/Integrated Flight Computer/aircraft/x10_h_cfg.ks (inferred preloaded)
16.24,APPROACH,ILS_TRACK,151.24,152,0.76,678.2,599.59,-0.14,9.65,9.7,269.95,0.052,0.2887,0,20,1,0.6,4.5,0.75,0.35,0.0168,0.4,0,22.108,0,-0.769,0,269.97,0,0,1,-0.05,0,0,0,269.98,0.7366,-0.0005,-0.6764,0,269.97,1.63,-418.25,19.504,-0.031,0,0,3,741.88,8.227,0,1096.46,0,0,0,,0,NONE,0,0,0,0,0,0,0,0,0,0,0,599.59,0,0,0,0,0,0,0,0,0,269.82,0,0,0,0,0,0,0,0,0,0,0,0,0,3,3,0,0,VALID,0,0,0,0,0,1,0,0,0,0,0,0,0,0,0,0,0,0,0,0,323.27,1073.15,2,0,0.08,0.08,160,10,0.12,0.08,16.24,FLYING,X10-H,0:/Integrated Flight Computer/aircraft/x10_h_cfg.ks (inferred preloaded)
16.54,APPROACH,ILS_TRACK,151.31,152,0.69,678.15,599.55,-0.13,9.63,9.68,269.95,0.052,0.2884,0,20,1,0.6,4.5,0.75,0.35,0.0168,0.4,0,22.086,0,-0.691,0,269.98,0,0,1,-0.04,0,0,0,269.98,0.7365,-0.0003,-0.6764,0,269.98,1.58,-415.78,19.456,-0.016,0,0,3,741.88,8.237,0,1093.94,0,0,0,,0,NONE,0,0,0,0,0,0,0,0,0,0,0,599.55,0,0,0,0,0,0,0,0,0,269.82,0,0,0,0,0,0,0,0,0,0,0,0,0,3,3,0,0,VALID,0,0,0,0,0,1,0,0,0,0,0,0,0,0,0,0,0,0,0,0,322.01,1073.48,2,0,0.08,0.08,163,10,0.12,0.08,16.54,FLYING,X10-H,0:/Integrated Flight Computer/aircraft/x10_h_cfg.ks (inferred preloaded)
16.84,APPROACH,ILS_TRACK,151.39,152,0.61,678.12,599.52,-0.12,9.63,9.68,269.95,0.053,0.2899,0,20,1,0.6,4.5,0.75,0.35,0.0168,0.4,0,22.065,0,-0.619,0,269.98,0,0,1,-0.05,0,0,0,269.98,0.7365,-0.0003,-0.6765,0,269.98,1.53,-413.3,19.408,-0.017,0,0,3,741.88,8.274,0,1091.42,0,0,0,,0,NONE,0,0,0,0,0,0,0,0,0,0,0,599.52,0,0,0,0,0,0,0,0,0,269.82,0,0,0,0,0,0,0,0,0,0,0,0,0,3,3,0,0,VALID,0,0,0,0,0,1,0,0,0,0,0,0,0,0,0,0,0,0,0,0,320.84,1073.79,2,0,0.08,0.08,166,10,0.12,0.08,16.84,FLYING,X10-H,0:/Integrated Flight Computer/aircraft/x10_h_cfg.ks (inferred preloaded)
17.14,APPROACH,ILS_TRACK,151.45,152,0.55,678.08,599.49,-0.1,9.62,9.65,269.95,0.053,0.2894,0,20,1,0.6,4.5,0.75,0.35,0.0168,0.4,0,22.046,0,-0.55,0,269.99,0,0,1,-0.03,0,0,0,269.98,0.7364,-0.0002,-0.6765,0,269.99,1.48,-410.82,19.36,-0.013,0,0,3,741.88,8.268,0,1088.9,0,0,0,,0,NONE,0,0,0,0,0,0,0,0,0,0,0,599.49,0,0,0,0,0,0,0,0,0,269.82,0,0,0,0,0,0,0,0,0,0,0,0,0,3,3,0,0,VALID,0,0,0,0,0,1,0,0,0,0,0,0,0,0,0,0,0,0,0,0,319.93,1074.08,2,0,0.08,0.08,169,10,0.12,0.08,17.14,FLYING,X10-H,0:/Integrated Flight Computer/aircraft/x10_h_cfg.ks (inferred preloaded)
17.44,APPROACH,ILS_TRACK,151.52,152,0.48,678.05,599.46,-0.09,9.61,9.64,269.95,0.052,0.287,0,20,1,0.6,4.5,0.75,0.35,0.0168,0.4,0,22.027,0,-0.481,0,269.98,0,0,1,-0.03,0,0,0,269.98,0.7363,-0.0003,-0.6766,0,269.98,1.43,-408.33,19.312,-0.018,0,0,3,741.88,8.32,0,1086.39,0,0,0,,0,NONE,0,0,0,0,0,0,0,0,0,0,0,599.46,0,0,0,0,0,0,0,0,0,269.82,0,0,0,0,0,0,0,0,0,0,0,0,0,3,3,0,0,VALID,0,0,0,0,0,1,0,0,0,0,0,0,0,0,0,0,0,0,0,0,319.05,1074.37,2,0,0.08,0.08,172,10,0.12,0.08,17.44,FLYING,X10-H,0:/Integrated Flight Computer/aircraft/x10_h_cfg.ks (inferred preloaded)
17.74,APPROACH,ILS_TRACK,151.59,152,0.41,678.03,599.44,-0.07,9.6,9.63,269.95,0.052,0.2845,0,20,1,0.6,4.5,0.75,0.35,0.0168,0.4,0,22.008,0,-0.414,0,269.99,0,0,1,-0.03,0,0,0,269.98,0.7363,-0.0002,-0.6767,0,269.99,1.38,-405.83,19.264,-0.012,0,0,3,741.88,8.339,0,1083.87,0,0,0,,0,NONE,0,0,0,0,0,0,0,0,0,0,0,599.44,0,0,0,0,0,0,0,0,0,269.82,0,0,0,0,0,0,0,0,0,0,0,0,0,3,3,0,0,VALID,0,0,0,0,0,1,0,0,0,0,0,0,0,0,0,0,0,0,0,0,317.98,1074.66,2,0,0.08,0.08,175,10,0.12,0.08,17.74,FLYING,X10-H,0:/Integrated Flight Computer/aircraft/x10_h_cfg.ks (inferred preloaded)
18.04,APPROACH,ILS_TRACK,151.65,152,0.35,678.01,599.42,-0.05,9.6,9.62,269.95,0.052,0.2828,0,20,1,0.6,4.5,0.75,0.35,0.0168,0.4,0,21.989,0,-0.35,0,269.99,0,0,1,-0.02,0,0,0,269.98,0.7362,-0.0003,-0.6767,0,269.99,1.34,-403.33,19.216,-0.015,0,0,3,741.88,8.343,0,1081.34,0,0,0,,0,NONE,0,0,0,0,0,0,0,0,0,0,0,599.42,0,0,0,0,0,0,0,0,0,269.82,0,0,0,0,0,0,0,0,0,0,0,0,0,3,3,0,0,VALID,0,0,0,0,0,1,0,0,0,0,0,0,0,0,0,0,0,0,0,0,316.77,1074.93,2,0,0.08,0.08,178,10,0.12,0.08,18.04,FLYING,X10-H,0:/Integrated Flight Computer/aircraft/x10_h_cfg.ks (inferred preloaded)
18.34,APPROACH,ILS_TRACK,151.72,152,0.28,678,599.41,-0.04,9.6,9.61,269.95,0.051,0.2819,0,20,1,0.6,4.5,0.75,0.35,0.0168,0.4,0,21.972,0,-0.289,0,269.98,0,0,1,-0.02,0,0,0,269.99,0.7362,-0.0003,-0.6768,0,269.98,1.29,-400.82,19.168,-0.015,0,0,3,741.88,8.363,0,1078.82,0,0,0,,0,NONE,0,0,0,0,0,0,0,0,0,0,0,599.41,0,0,0,0,0,0,0,0,0,269.82,0,0,0,0,0,0,0,0,0,0,0,0,0,3,3,0,0,VALID,0,0,0,0,0,1,0,0,0,0,0,0,0,0,0,0,0,0,0,0,315.52,1075.19,2,0,0.08,0.08,181,10,0.12,0.08,18.34,FLYING,X10-H,0:/Integrated Flight Computer/aircraft/x10_h_cfg.ks (inferred preloaded)
18.64,APPROACH,ILS_TRACK,151.77,152,0.23,677.99,599.4,-0.02,9.59,9.6,269.95,0.052,0.282,0,20,1,0.6,4.5,0.75,0.35,0.0168,0.4,0,21.956,0,-0.232,0,269.98,0,0,1,-0.01,0,0,0,269.99,0.7361,-0.0003,-0.6768,0,269.98,1.25,-398.31,19.119,-0.017,0,0,3,741.88,8.375,0,1076.3,0,0,0,,0,NONE,0,0,0,0,0,0,0,0,0,0,0,599.4,0,0,0,0,0,0,0,0,0,269.82,0,0,0,0,0,0,0,0,0,0,0,0,0,3,3,0,0,VALID,0,0,0,0,0,1,0,0,0,0,0,0,0,0,0,0,0,0,0,0,314.33,1075.43,2,0,0.08,0.08,184,10,0.12,0.08,18.64,FLYING,X10-H,0:/Integrated Flight Computer/aircraft/x10_h_cfg.ks (inferred preloaded)
18.94,APPROACH,ILS_TRACK,151.82,152,0.18,677.98,599.39,-0.01,9.58,9.58,269.95,0.053,0.2842,0,20,1,0.6,4.5,0.75,0.35,0.0168,0.4,0,21.942,0,-0.181,0,269.99,0,0,1,0,0,0,0,269.99,0.7361,-0.0001,-0.6769,0,269.99,1.2,-395.8,19.071,-0.008,0,0,3,741.88,8.37,0,1073.77,0,0,0,,0,NONE,0,0,0,0,0,0,0,0,0,0,0,599.39,0,0,0,0,0,0,0,0,0,269.82,0,0,0,0,0,0,0,0,0,0,0,0,0,3,3,0,0,VALID,0,0,0,0,0,1,0,0,0,0,0,0,0,0,0,0,0,0,0,0,313.3,1075.64,2,0,0.08,0.08,187,10,0.12,0.08,18.94,FLYING,X10-H,0:/Integrated Flight Computer/aircraft/x10_h_cfg.ks (inferred preloaded)
19.24,APPROACH,ILS_TRACK,151.87,152,0.13,677.98,599.39,0.03,9.6,9.59,269.95,0.053,0.2862,0,20,1,0.6,4.5,0.75,0.35,0.0168,0.4,0,21.929,0,-0.134,0,270,0,0,1,0,0,0,0,269.99,0.736,0,-0.677,0,270,1.15,-393.27,19.023,-0.001,0,0,3,741.88,8.438,0,1071.25,0,0,0,,0,NONE,0,0,0,0,0,0,0,0,0,0,0,599.39,0,0,0,0,0,0,0,0,0,269.82,0,0,0,0,0,0,0,0,0,0,0,0,0,3,3,0,0,VALID,0,0,0,0,0,1,0,0,0,0,0,0,0,0,0,0,0,0,0,0,312.64,1075.83,2,0,0.08,0.08,190,10,0.12,0.08,19.24,FLYING,X10-H,0:/Integrated Flight Computer/aircraft/x10_h_cfg.ks (inferred preloaded)
19.54,APPROACH,ILS_TRACK,151.91,152,0.09,677.98,599.4,0.02,9.58,9.57,269.95,0.053,0.2869,0,20,1,0.6,4.5,0.75,0.35,0.0168,0.4,0,21.916,0,-0.091,0,270,0,0,1,0.01,0,0,0,269.99,0.736,0,-0.677,0,270,1.11,-390.75,18.975,0.001,0,0,3,741.88,8.429,0,1068.72,0,0,0,,0,NONE,0,0,0,0,0,0,0,0,0,0,0,599.4,0,0,0,0,0,0,0,0,0,269.82,0,0,0,0,0,0,0,0,0,0,0,0,0,3,3,0,0,VALID,0,0,0,0,0,1,0,0,0,0,0,0,0,0,0,0,0,0,0,0,312.26,1076.02,2,0,0.08,0.08,193,10,0.12,0.08,19.54,FLYING,X10-H,0:/Integrated Flight Computer/aircraft/x10_h_cfg.ks (inferred preloaded)
19.84,APPROACH,ILS_TRACK,151.96,152,0.04,677.98,599.4,0.03,9.57,9.56,269.96,0.054,0.2846,0,20,1,0.6,4.5,0.75,0.35,0.0168,0.4,0,21.904,0,-0.045,0,269.99,0,0,1,0.01,0,0,0,270,0.7359,-0.0002,-0.6771,0,269.99,1.07,-388.22,18.927,-0.012,0,0,3,741.88,8.438,0,1066.2,0,0,0,,0,NONE,0,0,0,0,0,0,0,0,0,0,0,599.4,0,0,0,0,0,0,0,0,0,269.82,0,0,0,0,0,0,0,0,0,0,0,0,0,3,3,0,0,VALID,0,0,0,0,0,1,0,0,0,0,0,0,0,0,0,0,0,0,0,0,311.91,1076.21,2,0,0.08,0.08,196,10,0.12,0.08,19.84,FLYING,X10-H,0:/Integrated Flight Computer/aircraft/x10_h_cfg.ks (inferred preloaded)
20.14,APPROACH,ILS_TRACK,152,152,0,677.99,599.41,0.04,9.57,9.56,269.96,0.055,0.2829,0,20,1,0.6,4.5,0.75,0.35,0.0168,0.4,0,21.891,0,0,0,270,0,0,1,0.01,0,0,0,269.99,0.7359,0,-0.6771,0,270,1.02,-385.68,18.879,-0.003,0,0,3,741.88,8.453,0,1063.67,0,0,0,,0,NONE,0,0,0,0,0,0,0,0,0,0,0,599.41,0,0,0,0,0,0,0,0,0,269.82,0,0,0,0,0,0,0,0,0,0,0,0,0,3,3,0,0,VALID,0,0,0,0,0,1,0,0,0,0,0,0,0,0,0,0,0,0,0,0,311.33,1076.4,2,0,0.08,0.08,199,10,0.12,0.08,20.14,FLYING,X10-H,0:/Integrated Flight Computer/aircraft/x10_h_cfg.ks (inferred preloaded)
20.44,APPROACH,ILS_TRACK,152.05,152,-0.05,678.01,599.42,0.05,9.57,9.55,269.96,0.056,0.2807,0,19.991,1,0.6,4.5,0.75,0.35,0.0168,0.4,0,21.879,0,0.043,0,269.99,0,0,1,0.02,0,0,0,269.99,0.7358,-0.0001,-0.6772,0,269.99,0.98,-383.14,18.83,-0.005,0,0,3,741.88,8.467,0,1061.14,0,0,0,,0,NONE,0,0,0,0,0,0,0,0,0,0,0,599.42,0,0,0,0,0,0,0,0,0,269.82,0,0,0,0,0,0,0,0,0,0,0,0,0,3,3,0,0,VALID,0,0,0,0,0,1,0,0,0,0,0,0,0,0,0,0,0,0,0,0,310.62,1076.58,2,0,0.08,0.08,202,10,0.12,0.08,20.44,FLYING,X10-H,0:/Integrated Flight Computer/aircraft/x10_h_cfg.ks (inferred preloaded)
20.74,APPROACH,ILS_TRACK,152.09,152,-0.09,678.02,599.44,0.06,9.56,9.54,269.96,0.058,0.2792,0,19.97,1,0.6,4.5,0.75,0.35,0.0168,0.4,0,21.867,0,0.085,0,270,0,0,1,0.02,0,0,0,270,0.7358,0,-0.6773,0,270,0.93,-380.6,18.782,-0.003,0,0,3,741.88,8.48,0,1058.62,0,0,0,,0,NONE,0,0,0,0,0,0,0,0,0,0,0,599.44,0,0,0,0,0,0,0,0,0,269.82,0,0,0,0,0,0,0,0,0,0,0,0,0,3,3,0,0,VALID,0,0,0,0,0,1,0,0,0,0,0,0,0,0,0,0,0,0,0,0,309.77,1076.76,2,0,0.08,0.08,205,10,0.12,0.08,20.74,FLYING,X10-H,0:/Integrated Flight Computer/aircraft/x10_h_cfg.ks (inferred preloaded)
21.04,APPROACH,ILS_TRACK,152.13,152,-0.13,678.04,599.46,0.07,9.56,9.54,269.96,0.059,0.2782,0,19.936,1,0.6,4.5,0.75,0.35,0.0168,0.4,0,21.856,0,0.125,0,270,0,0,1,0.03,0,0,0,270,0.7357,-0.0001,-0.6773,0,270,0.89,-378.05,18.734,-0.004,0,0,3,741.88,8.498,0,1056.09,0,0,0,,0,NONE,0,0,0,0,0,0,0,0,0,0,0,599.46,0,0,0,0,0,0,0,0,0,269.82,0,0,0,0,0,0,0,0,0,0,0,0,0,3,3,0,0,VALID,0,0,0,0,0,1,0,0,0,0,0,0,0,0,0,0,0,0,0,0,308.86,1076.92,2,0,0.08,0.08,208,10,0.12,0.08,21.04,FLYING,X10-H,0:/Integrated Flight Computer/aircraft/x10_h_cfg.ks (inferred preloaded)
21.34,APPROACH,ILS_TRACK,152.16,152,-0.16,678.06,599.49,0.08,9.56,9.53,269.96,0.059,0.2778,0,19.891,1,0.6,4.5,0.75,0.35,0.0168,0.4,0,21.846,0,0.161,0,270,0,0,1,0.03,0,0,0,270,0.7356,0.0001,-0.6774,0,270,0.85,-375.5,18.686,0.004,0,0,3,741.88,8.511,0,1053.56,0,0,0,,0,NONE,0,0,0,0,0,0,0,0,0,0,0,599.49,0,0,0,0,0,0,0,0,0,269.82,0,0,0,0,0,0,0,0,0,0,0,0,0,3,3,0,0,VALID,0,0,0,0,0,1,0,0,0,0,0,0,0,0,0,0,0,0,0,0,307.95,1077.07,2,0,0.08,0.08,211,10,0.12,0.08,21.34,FLYING,X10-H,0:/Integrated Flight Computer/aircraft/x10_h_cfg.ks (inferred preloaded)
21.64,APPROACH,ILS_TRACK,152.2,152,-0.2,678.09,599.51,0.1,9.56,9.53,269.96,0.06,0.2778,0,19.836,1,0.6,4.5,0.75,0.35,0.0168,0.4,0,21.836,0,0.194,0,270.01,0,0,1,0.04,0,0,0,270,0.7356,0.0001,-0.6774,0,270.01,0.81,-372.94,18.637,0.007,0,0,3,741.88,8.524,0,1051.03,0,0,0,,0,NONE,0,0,0,0,0,0,0,0,0,0,0,599.51,0,0,0,0,0,0,0,0,0,269.82,0,0,0,0,0,0,0,0,0,0,0,0,0,3,3,0,0,VALID,0,0,0,0,0,1,0,0,0,0,0,0,0,0,0,0,0,0,0,0,307.1,1077.21,2,0,0.08,0.08,214,10,0.12,0.08,21.64,FLYING,X10-H,0:/Integrated Flight Computer/aircraft/x10_h_cfg.ks (inferred preloaded)
21.94,APPROACH,ILS_TRACK,152.23,152,-0.23,678.12,599.54,0.1,9.56,9.52,269.96,0.061,0.2777,0,19.772,1,0.6,4.5,0.75,0.35,0.0168,0.4,0,21.828,0,0.225,0,270,0,0,1,0.04,0,0,0,270.01,0.7355,0,-0.6775,0,270,0.77,-370.38,18.589,0.001,0,0,3,741.88,8.533,0,1048.5,0,0,0,,0,NONE,0,0,0,0,0,0,0,0,0,0,0,599.54,0,0,0,0,0,0,0,0,0,269.82,0,0,0,0,0,0,0,0,0,0,0,0,0,3,3,0,0,VALID,0,0,0,0,0,1,0,0,0,0,0,0,0,0,0,0,0,0,0,0,306.34,1077.34,2,0,0.08,0.08,217,10,0.12,0.08,21.94,FLYING,X10-H,0:/Integrated Flight Computer/aircraft/x10_h_cfg.ks (inferred preloaded)
22.24,APPROACH,ILS_TRACK,152.25,152,-0.25,678.15,599.58,0.11,9.55,9.52,269.96,0.062,0.278,0,19.699,1,0.6,4.5,0.75,0.35,0.0168,0.4,0,21.82,0,0.252,0,270.01,0,0,1,0.04,0,0,0,270.01,0.7355,0.0001,-0.6775,0,270.01,0.73,-367.82,18.541,0.006,0,0,3,741.88,8.543,0,1045.97,0,0,0,,0,NONE,0,0,0,0,0,0,0,0,0,0,0,599.58,0,0,0,0,0,0,0,0,0,269.82,0,0,0,0,0,0,0,0,0,0,0,0,0,3,3,0,0,VALID,0,0,0,0,0,1,0,0,0,0,0,0,0,0,0,0,0,0,0,0,305.65,1077.45,2,0,0.08,0.08,220,10,0.12,0.08,22.24,FLYING,X10-H,0:/Integrated Flight Computer/aircraft/x10_h_cfg.ks (inferred preloaded)
22.54,APPROACH,ILS_TRACK,152.28,152,-0.28,678.19,599.61,0.13,9.55,9.51,269.96,0.063,0.2774,0,19.618,1,0.6,4.5,0.75,0.35,0.0168,0.4,0,21.813,0,0.278,0,270.01,0,0,1,0.05,0,0,0,270,0.7354,0.0002,-0.6776,0,270.01,0.69,-365.25,18.492,0.013,0,0,3,741.88,8.561,0,1043.44,0,0,0,,0,NONE,0,0,0,0,0,0,0,0,0,0,0,599.61,0,0,0,0,0,0,0,0,0,269.82,0,0,0,0,0,0,0,0,0,0,0,0,0,3,3,0,0,VALID,0,0,0,0,0,1,0,0,0,0,0,0,0,0,0,0,0,0,0,0,305.04,1077.56,2,0,0.08,0.08,223,10,0.12,0.08,22.54,FLYING,X10-H,0:/Integrated Flight Computer/aircraft/x10_h_cfg.ks (inferred preloaded)
22.84,APPROACH,ILS_TRACK,152.3,152,-0.3,678.23,599.65,0.13,9.55,9.5,269.96,0.067,0.2766,0,19.53,1,0.6,4.5,0.75,0.35,0.0168,0.4,0,21.806,0,0.302,0,270.01,0,0,1,0.05,0,0,0,270.01,0.7354,0.0001,-0.6777,0,270.01,0.65,-362.68,18.444,0.006,0,0,3,741.88,8.57,0,1040.9,0,0,0,,0,NONE,0,0,0,0,0,0,0,0,0,0,0,599.65,0,0,0,0,0,0,0,0,0,269.82,0,0,0,0,0,0,0,0,0,0,0,0,0,3,3,0,0,VALID,0,0,0,0,0,1,0,0,0,0,0,0,0,0,0,0,0,0,0,0,304.43,1077.66,2,0,0.08,0.08,226,10,0.12,0.08,22.84,FLYING,X10-H,0:/Integrated Flight Computer/aircraft/x10_h_cfg.ks (inferred preloaded)
23.14,APPROACH,ILS_TRACK,152.33,152,-0.33,678.27,599.69,0.14,9.55,9.5,269.97,0.069,0.2757,0,19.435,1,0.6,4.5,0.75,0.35,0.0168,0.4,0,21.8,0,0.324,0,270.01,0,0,1,0.05,0,0,0,270,0.7353,0.0002,-0.6777,0,270.01,0.61,-360.11,18.396,0.01,0,0,3,741.88,8.584,0,1038.37,0,0,0,,0,NONE,0,0,0,0,0,0,0,0,0,0,0,599.69,0,0,0,0,0,0,0,0,0,269.82,0,0,0,0,0,0,0,0,0,0,0,0,0,3,3,0,0,VALID,0,0,0,0,0,1,0,0,0,0,0,0,0,0,0,0,0,0,0,0,303.79,1077.75,2,0,0.08,0.08,229,10,0.12,0.08,23.14,FLYING,X10-H,0:/Integrated Flight Computer/aircraft/x10_h_cfg.ks (inferred preloaded)
23.44,APPROACH,ILS_TRACK,152.35,152,-0.35,678.31,599.74,0.15,9.55,9.49,269.97,0.071,0.2749,0,19.333,1,0.6,4.5,0.75,0.35,0.0168,0.4,0,21.794,0,0.344,0,270.01,0,0,1,0.06,0,0,0,270.01,0.7353,0.0001,-0.6778,0,270.01,0.58,-357.53,18.347,0.007,0,0,3,741.88,8.592,0,1035.84,0,0,0,,0,NONE,0,0,0,0,0,0,0,0,0,0,0,599.74,0,0,0,0,0,0,0,0,0,269.82,0,0,0,0,0,0,0,0,0,0,0,0,0,3,3,0,0,VALID,0,0,0,0,0,1,0,0,0,0,0,0,0,0,0,0,0,0,0,0,303.11,1077.83,2,0,0.08,0.08,232,10,0.12,0.08,23.44,FLYING,X10-H,0:/Integrated Flight Computer/aircraft/x10_h_cfg.ks (inferred preloaded)
23.74,APPROACH,ILS_TRACK,152.36,152,-0.36,678.36,599.78,0.16,9.55,9.49,269.97,0.072,0.2743,0,19.226,1,0.6,4.5,0.75,0.35,0.0168,0.4,0,21.789,0,0.362,0,270.01,0,0,1,0.06,0,0,0,270.01,0.7352,0.0002,-0.6778,0,270.01,0.54,-354.95,18.299,0.013,0,0,3,741.88,8.603,0,1033.31,0,0,0,,0,NONE,0,0,0,0,0,0,0,0,0,0,0,599.78,0,0,0,0,0,0,0,0,0,269.82,0,0,0,0,0,0,0,0,0,0,0,0,0,3,3,0,0,VALID,0,0,0,0,0,1,0,0,0,0,0,0,0,0,0,0,0,0,0,0,302.42,1077.9,2,0,0.08,0.08,235,10,0.12,0.08,23.74,FLYING,X10-H,0:/Integrated Flight Computer/aircraft/x10_h_cfg.ks (inferred preloaded)
24.04,APPROACH,ILS_TRACK,152.38,152,-0.38,678.41,599.83,0.17,9.55,9.49,269.97,0.073,0.2745,0,19.114,1,0.6,4.5,0.75,0.35,0.0168,0.4,0,21.785,0,0.377,0,270.01,0,0,1,0.06,0,0,0,270.01,0.7352,0.0001,-0.6779,0,270.01,0.5,-352.37,18.251,0.008,0,0,3,741.88,8.647,0,1030.77,0,0,0,,0,NONE,0,0,0,0,0,0,0,0,0,0,0,599.83,0,0,0,0,0,0,0,0,0,269.82,0,0,0,0,0,0,0,0,0,0,0,0,0,3,3,0,0,VALID,0,0,0,0,0,1,0,0,0,0,0,0,0,0,0,0,0,0,0,0,301.75,1077.96,2,0,0.08,0.08,238,10,0.12,0.08,24.04,FLYING,X10-H,0:/Integrated Flight Computer/aircraft/x10_h_cfg.ks (inferred preloaded)
24.34,APPROACH,ILS_TRACK,152.39,152,-0.39,678.46,599.88,0.17,9.54,9.48,269.97,0.074,0.2749,0,18.999,1,0.6,4.5,0.75,0.35,0.0168,0.4,0,21.781,0,0.389,0,270,0,0,1,0.06,0,0,0,270.01,0.7351,0.0001,-0.678,0,270,0.47,-349.79,18.202,0.005,0,0,3,741.88,8.624,0,1028.24,0,0,0,,0,NONE,0,0,0,0,0,0,0,0,0,0,0,599.88,0,0,0,0,0,0,0,0,0,269.82,0,0,0,0,0,0,0,0,0,0,0,0,0,3,3,0,0,VALID,0,0,0,0,0,1,0,0,0,0,0,0,0,0,0,0,0,0,0,0,301.22,1078,2,0,0.08,0.08,241,10,0.12,0.08,24.34,FLYING,X10-H,0:/Integrated Flight Computer/aircraft/x10_h_cfg.ks (inferred preloaded)
24.64,APPROACH,ILS_TRACK,152.4,152,-0.4,678.51,599.94,0.19,9.55,9.48,269.97,0.074,0.2742,0,18.88,1,0.6,4.5,0.75,0.35,0.0168,0.4,0,21.778,0,0.4,0,270.02,0,0,1,0.07,0,0,0,270.01,0.735,0.0003,-0.678,0,270.02,0.43,-347.2,18.154,0.016,0,0,3,741.88,8.635,0,1025.71,0,0,0,,0,NONE,0,0,0,0,0,0,0,0,0,0,0,599.94,0,0,0,0,0,0,0,0,0,269.82,0,0,0,0,0,0,0,0,0,0,0,0,0,3,3,0,0,VALID,0,0,0,0,0,1,0,0,0,0,0,0,0,0,0,0,0,0,0,0,300.71,1078.04,2,0,0.08,0.08,244,10,0.12,0.08,24.64,FLYING,X10-H,0:/Integrated Flight Computer/aircraft/x10_h_cfg.ks (inferred preloaded)
24.94,APPROACH,ILS_TRACK,152.41,152,-0.41,678.57,599.99,0.2,9.55,9.47,269.97,0.076,0.2738,0,18.758,1,0.6,4.5,0.75,0.35,0.0168,0.4,0,21.776,0,0.409,0,270.02,0,0,1,0.08,0,0,0,270,0.735,0.0004,-0.6781,0,270.02,0.4,-344.61,18.106,0.023,0,0,3,741.88,8.636,0,1023.17,0,0,0,,0,NONE,0,0,0,0,0,0,0,0,0,0,0,599.99,0,0,0,0,0,0,0,0,0,269.82,0,0,0,0,0,0,0,0,0,0,0,0,0,3,3,0,0,VALID,0,0,0,0,0,1,0,0,0,0,0,0,0,0,0,0,0,0,0,0,300.17,1078.08,2,0,0.08,0.08,247,10,0.12,0.08,24.94,FLYING,X10-H,0:/Integrated Flight Computer/aircraft/x10_h_cfg.ks (inferred preloaded)
25.24,APPROACH,ILS_TRACK,152.42,152,-0.42,678.63,600.05,0.2,9.54,9.47,269.97,0.078,0.2731,0,18.634,1,0.6,4.5,0.75,0.35,0.0168,0.4,0,21.773,0,0.417,0,270.02,0,0,1,0.08,0,0,0,270.01,0.7349,0.0004,-0.6781,0,270.02,0.37,-342.02,18.057,0.023,0,0,3,741.88,8.644,0,1020.64,0,0,0,,0,NONE,0,0,0,0,0,0,0,0,0,0,0,600.05,0,0,0,0,0,0,0,0,0,269.82,0,0,0,0,0,0,0,0,0,0,0,0,0,3,3,0,0,VALID,0,0,0,0,0,1,0,0,0,0,0,0,0,0,0,0,0,0,0,0,299.65,1078.11,2,0,0.08,0.08,250,10,0.12,0.08,25.24,FLYING,X10-H,0:/Integrated Flight Computer/aircraft/x10_h_cfg.ks (inferred preloaded)
25.54,APPROACH,ILS_TRACK,152.42,152,-0.42,678.69,600.11,0.2,9.55,9.48,269.97,0.079,0.2726,0,18.507,1,0.6,4.5,0.75,0.35,0.0168,0.4,0,21.772,0,0.423,0,270.02,0,0,1,0.08,0,0,0,270.02,0.7349,0.0003,-0.6782,0,270.02,0.33,-339.42,18.009,0.016,0,0,3,741.88,8.652,0,1018.11,0,0,0,,0,NONE,0,0,0,0,0,0,0,0,0,0,0,600.11,0,0,0,0,0,0,0,0,0,269.82,0,0,0,0,0,0,0,0,0,0,0,0,0,3,3,0,0,VALID,0,0,0,0,0,1,0,0,0,0,0,0,0,0,0,0,0,0,0,0,299.11,1078.13,2,0,0.08,0.08,253,10,0.12,0.08,25.54,FLYING,X10-H,0:/Integrated Flight Computer/aircraft/x10_h_cfg.ks (inferred preloaded)
25.84,APPROACH,ILS_TRACK,152.43,152,-0.43,678.75,600.17,0.21,9.55,9.48,269.98,0.079,0.2717,0,18.38,1,0.6,4.5,0.75,0.35,0.0168,0.4,0,21.77,0,0.427,0,270.02,0,0,1,0.08,0,0,0,270.01,0.7348,0.0003,-0.6783,0,270.02,0.3,-336.83,17.961,0.019,0,0,3,741.88,8.657,0,1015.57,0,0,0,,0,NONE,0,0,0,0,0,0,0,0,0,0,0,600.17,0,0,0,0,0,0,0,0,0,269.82,0,0,0,0,0,0,0,0,0,0,0,0,0,3,3,0,0,VALID,0,0,0,0,0,1,0,0,0,0,0,0,0,0,0,0,0,0,0,0,298.55,1078.14,2,0,0.08,0.08,256,10,0.12,0.08,25.84,FLYING,X10-H,0:/Integrated Flight Computer/aircraft/x10_h_cfg.ks (inferred preloaded)
26.14,APPROACH,ILS_TRACK,152.43,152,-0.43,678.82,600.24,0.22,9.56,9.48,269.98,0.081,0.2711,0,18.251,1,0.6,4.5,0.75,0.35,0.0168,0.4,0,21.77,0,0.431,0,270.02,0,0,1,0.08,0,0,0,270.01,0.7348,0.0004,-0.6783,0,270.02,0.27,-334.23,17.912,0.021,0,0,3,741.88,8.674,0,1013.04,0,0,0,,0,NONE,0,0,0,0,0,0,0,0,0,0,0,600.24,0,0,0,0,0,0,0,0,0,269.82,0,0,0,0,0,0,0,0,0,0,0,0,0,3,3,0,0,VALID,0,0,0,0,0,1,0,0,0,0,0,0,0,0,0,0,0,0,0,0,297.96,1078.15,2,0,0.08,0.08,259,10,0.12,0.08,26.14,FLYING,X10-H,0:/Integrated Flight Computer/aircraft/x10_h_cfg.ks (inferred preloaded)
26.44,APPROACH,ILS_TRACK,152.43,152,-0.43,678.88,600.31,0.23,9.55,9.48,269.98,0.082,0.2708,0,18.121,1,0.6,4.5,0.75,0.35,0.0168,0.4,0,21.769,0,0.432,0,270.02,0,0,1,0.08,0,0,0,270.01,0.7347,0.0004,-0.6784,0,270.02,0.24,-331.63,17.864,0.022,0,0,3,741.88,8.674,0,1010.5,0,0,0,,0,NONE,0,0,0,0,0,0,0,0,0,0,0,600.31,0,0,0,0,0,0,0,0,0,269.82,0,0,0,0,0,0,0,0,0,0,0,0,0,3,3,0,0,VALID,0,0,0,0,0,1,0,0,0,0,0,0,0,0,0,0,0,0,0,0,297.38,1078.15,2,0,0.08,0.08,262,10,0.12,0.08,26.44,FLYING,X10-H,0:/Integrated Flight Computer/aircraft/x10_h_cfg.ks (inferred preloaded)
26.74,APPROACH,ILS_TRACK,152.43,152,-0.43,678.95,600.37,0.23,9.56,9.48,269.98,0.084,0.2709,0,17.992,1,0.6,4.5,0.75,0.35,0.0168,0.4,0,21.769,0,0.431,0,270.02,0,0,1,0.09,0,0,0,270.01,0.7347,0.0003,-0.6784,0,270.02,0.22,-329.02,17.816,0.018,0,0,3,741.88,8.685,0,1007.97,0,0,0,,0,NONE,0,0,0,0,0,0,0,0,0,0,0,600.37,0,0,0,0,0,0,0,0,0,269.82,0,0,0,0,0,0,0,0,0,0,0,0,0,3,3,0,0,VALID,0,0,0,0,0,1,0,0,0,0,0,0,0,0,0,0,0,0,0,0,296.83,1078.14,2,0,0.08,0.08,265,10,0.12,0.08,26.74,FLYING,X10-H,0:/Integrated Flight Computer/aircraft/x10_h_cfg.ks (inferred preloaded)
27.04,APPROACH,ILS_TRACK,152.43,152,-0.43,679.03,600.44,0.24,9.57,9.48,269.98,0.085,0.2711,0,17.863,1,0.6,4.5,0.75,0.35,0.0168,0.4,0,21.77,0,0.429,0,270.02,0,0,1,0.08,0,0,0,270.01,0.7346,0.0003,-0.6785,0,270.02,0.19,-326.42,17.767,0.018,0,0,3,741.88,8.702,0,1005.44,0,0,0,,0,NONE,0,0,0,0,0,0,0,0,0,0,0,600.44,0,0,0,0,0,0,0,0,0,269.82,0,0,0,0,0,0,0,0,0,0,0,0,0,3,3,0,0,VALID,0,0,0,0,0,1,0,0,0,0,0,0,0,0,0,0,0,0,0,0,296.34,1078.12,2,0,0.08,0.08,268,10,0.12,0.08,27.04,FLYING,X10-H,0:/Integrated Flight Computer/aircraft/x10_h_cfg.ks (inferred preloaded)
27.34,APPROACH,ILS_TRACK,152.42,152,-0.42,679.1,600.51,0.24,9.56,9.48,269.98,0.085,0.2722,0,17.736,1,0.6,4.5,0.75,0.35,0.0168,0.4,0,21.772,0,0.423,0,270.01,0,0,1,0.09,0,0,0,270.02,0.7345,0.0002,-0.6786,0,270.01,0.16,-323.82,17.719,0.009,0,0,3,741.88,8.68,0,1002.9,0,0,0,,0,NONE,0,0,0,0,0,0,0,0,0,0,0,600.51,0,0,0,0,0,0,0,0,0,269.82,0,0,0,0,0,0,0,0,0,0,0,0,0,3,3,0,0,VALID,0,0,0,0,0,1,0,0,0,0,0,0,0,0,0,0,0,0,0,0,295.96,1078.09,2,0,0.08,0.08,271,10,0.12,0.08,27.34,FLYING,X10-H,0:/Integrated Flight Computer/aircraft/x10_h_cfg.ks (inferred preloaded)
27.64,APPROACH,ILS_TRACK,152.42,152,-0.42,679.17,600.59,0.25,9.56,9.48,269.98,0.086,0.2717,0,17.61,1,0.6,4.5,0.75,0.35,0.0168,0.4,0,21.773,0,0.417,0,270.02,0,0,1,0.09,0,0,0,270.02,0.7345,0.0003,-0.6786,0,270.02,0.13,-321.21,17.671,0.015,0,0,3,741.88,8.694,0,1000.37,0,0,0,,0,NONE,0,0,0,0,0,0,0,0,0,0,0,600.59,0,0,0,0,0,0,0,0,0,269.82,0,0,0,0,0,0,0,0,0,0,0,0,0,3,3,0,0,VALID,0,0,0,0,0,1,0,0,0,0,0,0,0,0,0,0,0,0,0,0,295.7,1078.06,2,0,0.08,0.08,274,10,0.12,0.08,27.64,FLYING,X10-H,0:/Integrated Flight Computer/aircraft/x10_h_cfg.ks (inferred preloaded)
27.94,APPROACH,ILS_TRACK,152.41,152,-0.41,679.24,600.66,0.25,9.56,9.48,269.98,0.086,0.2708,0,17.486,1,0.6,4.5,0.75,0.35,0.0168,0.4,0,21.775,0,0.411,0,270.01,0,0,1,0.09,0,0,0,270.02,0.7344,0.0002,-0.6787,0,270.01,0.11,-318.6,17.622,0.011,0,0,3,741.88,8.692,0,997.83,0,0,0,,0,NONE,0,0,0,0,0,0,0,0,0,0,0,600.66,0,0,0,0,0,0,0,0,0,269.82,0,0,0,0,0,0,0,0,0,0,0,0,0,3,3,0,0,VALID,0,0,0,0,0,1,0,0,0,0,0,0,0,0,0,0,0,0,0,0,295.38,1078.03,2,0,0.08,0.08,277,10,0.12,0.08,27.94,FLYING,X10-H,0:/Integrated Flight Computer/aircraft/x10_h_cfg.ks (inferred preloaded)
28.24,APPROACH,ILS_TRACK,152.4,152,-0.4,679.32,600.74,0.26,9.57,9.48,269.99,0.084,0.2704,0,17.364,1,0.6,4.5,0.75,0.35,0.0168,0.4,0,21.777,0,0.405,0,270.03,0,0,1,0.1,0,0,0,270.01,0.7344,0.0005,-0.6787,0,270.03,0.09,-315.99,17.574,0.027,0,0,3,741.88,8.714,0,995.3,0,0,0,,0,NONE,0,0,0,0,0,0,0,0,0,0,0,600.74,0,0,0,0,0,0,0,0,0,269.82,0,0,0,0,0,0,0,0,0,0,0,0,0,3,3,0,0,VALID,0,0,0,0,0,1,0,0,0,0,0,0,0,0,0,0,0,0,0,0,295,1078,2,0,0.08,0.08,280,10,0.12,0.08,28.24,FLYING,X10-H,0:/Integrated Flight Computer/aircraft/x10_h_cfg.ks (inferred preloaded)
28.54,APPROACH,ILS_TRACK,152.4,152,-0.4,679.4,600.81,0.26,9.57,9.48,269.99,0.082,0.2705,0,17.244,1,0.6,4.5,0.75,0.35,0.0168,0.4,0,21.779,0,0.396,0,270.02,0,0,1,0.1,0,0,0,270.02,0.7343,0.0003,-0.6788,0,270.02,0.07,-313.38,17.526,0.018,0,0,3,741.88,8.703,0,992.77,0,0,0,,0,NONE,0,0,0,0,0,0,0,0,0,0,0,600.81,0,0,0,0,0,0,0,0,0,269.82,0,0,0,0,0,0,0,0,0,0,0,0,0,3,3,0,0,VALID,0,0,0,0,0,1,0,0,0,0,0,0,0,0,0,0,0,0,0,0,294.64,1077.95,2,0,0.08,0.08,283,10,0.12,0.08,28.54,FLYING,X10-H,0:/Integrated Flight Computer/aircraft/x10_h_cfg.ks (inferred preloaded)
28.84,APPROACH,ILS_TRACK,152.39,152,-0.39,679.48,600.89,0.27,9.58,9.48,269.99,0.082,0.2708,0,17.127,1,0.6,4.5,0.75,0.35,0.0168,0.4,0,21.782,0,0.386,0,270.02,0,0,1,0.1,0,0,0,270.01,0.7343,0.0004,-0.6789,0,270.02,0.04,-310.77,17.477,0.023,0,0,3,741.88,8.713,0,990.23,0,0,0,,0,NONE,0,0,0,0,0,0,0,0,0,0,0,600.89,0,0,0,0,0,0,0,0,0,269.82,0,0,0,0,0,0,0,0,0,0,0,0,0,3,3,0,0,VALID,0,0,0,0,0,1,0,0,0,0,0,0,0,0,0,0,0,0,0,0,294.31,1077.91,2,0,0.08,0.08,286,10,0.12,0.08,28.84,FLYING,X10-H,0:/Integrated Flight Computer/aircraft/x10_h_cfg.ks (inferred preloaded)
29.14,APPROACH,ILS_TRACK,152.37,152,-0.37,679.56,600.97,0.27,9.58,9.48,269.99,0.081,0.2712,0,17.014,1,0.6,4.5,0.75,0.35,0.0168,0.4,0,21.785,0,0.375,0,270.01,0,0,1,0.1,0,0,0,270.02,0.7342,0.0002,-0.6789,0,270.01,0.02,-308.15,17.429,0.012,0,0,3,741.88,8.713,0,987.7,0,0,0,,0,NONE,0,0,0,0,0,0,0,0,0,0,0,600.97,0,0,0,0,0,0,0,0,0,269.82,0,0,0,0,0,0,0,0,0,0,0,0,0,3,3,0,0,VALID,0,0,0,0,0,1,0,0,0,0,0,0,0,0,0,0,0,0,0,0,294.05,1077.85,2,0,0.08,0.08,289,10,0.12,0.08,29.14,FLYING,X10-H,0:/Integrated Flight Computer/aircraft/x10_h_cfg.ks (inferred preloaded)
29.44,APPROACH,ILS_TRACK,152.36,152,-0.36,679.64,601.05,0.28,9.58,9.48,269.99,0.08,0.2715,0,16.903,1,0.6,4.5,0.75,0.35,0.0168,0.4,0,21.789,0,0.363,0,270.02,0,0,1,0.1,0,0,0,270.01,0.7342,0.0003,-0.679,0,270.02,0,-305.54,17.381,0.017,0,0,3,741.88,8.711,0,985.17,0,0,0,,0,NONE,0,0,0,0,0,0,0,0,0,0,0,601.05,0,0,0,0,0,0,0,0,0,269.82,0,0,0,0,0,0,0,0,0,0,0,0,0,3,3,0,0,VALID,0,0,0,0,0,1,0,0,0,0,0,0,0,0,0,0,0,0,0,0,293.86,1077.79,2,0,0.08,0.08,292,10,0.12,0.08,29.44,FLYING,X10-H,0:/Integrated Flight Computer/aircraft/x10_h_cfg.ks (inferred preloaded)
29.74,APPROACH,ILS_TRACK,152.35,152,-0.35,679.72,601.13,0.28,9.59,9.49,269.99,0.08,0.272,0,16.797,1,0.6,4.5,0.75,0.35,0.0168,0.4,0,21.792,0,0.35,0,270.02,0,0,1,0.1,0,0,0,270.02,0.7341,0.0004,-0.679,0,270.02,-0.02,-302.92,17.332,0.022,0,0,3,741.88,8.73,0,982.63,0,0,0,,0,NONE,0,0,0,0,0,0,0,0,0,0,0,601.13,0,0,0,0,0,0,0,0,0,269.82,0,0,0,0,0,0,0,0,0,0,0,0,0,3,3,0,0,VALID,0,0,0,0,0,1,0,0,0,0,0,0,0,0,0,0,0,0,0,0,293.73,1077.73,2,0,0.08,0.08,295,10,0.12,0.08,29.74,FLYING,X10-H,0:/Integrated Flight Computer/aircraft/x10_h_cfg.ks (inferred preloaded)
30.04,APPROACH,ILS_TRACK,152.33,152,-0.33,679.81,601.22,0.28,9.59,9.48,269.99,0.078,0.273,0,16.695,1,0.6,4.5,0.75,0.35,0.0168,0.4,0,21.797,0,0.335,0,270.02,0,0,1,0.11,0,0,0,270.01,0.7341,0.0004,-0.6791,0,270.02,-0.03,-300.31,17.284,0.023,0,0,3,741.88,8.7,0,980.1,0,0,0,,0,NONE,0,0,0,0,0,0,0,0,0,0,0,601.22,0,0,0,0,0,0,0,0,0,269.82,0,0,0,0,0,0,0,0,0,0,0,0,0,3,3,0,0,VALID,0,0,0,0,0,1,0,0,0,0,0,0,0,0,0,0,0,0,0,0,293.76,1077.66,2,0,0.08,0.08,298,10,0.12,0.08,30.04,FLYING,X10-H,0:/Integrated Flight Computer/aircraft/x10_h_cfg.ks (inferred preloaded)
30.34,APPROACH,ILS_TRACK,152.32,152,-0.32,679.89,601.3,0.29,9.59,9.49,269.99,0.077,0.2723,0,16.598,1,0.6,4.5,0.75,0.35,0.0168,0.4,0,21.8,0,0.321,0,270.02,0,0,1,0.11,0,0,0,270.02,0.734,0.0003,-0.6791,0,270.02,-0.05,-297.69,17.236,0.019,0,0,3,741.88,8.751,0,977.57,0,0,0,,0,NONE,0,0,0,0,0,0,0,0,0,0,0,601.3,0,0,0,0,0,0,0,0,0,269.82,0,0,0,0,0,0,0,0,0,0,0,0,0,3,3,0,0,VALID,0,0,0,0,0,1,0,0,0,0,0,0,0,0,0,0,0,0,0,0,293.76,1077.6,2,0,0.08,0.08,301,10,0.12,0.08,30.34,FLYING,X10-H,0:/Integrated Flight Computer/aircraft/x10_h_cfg.ks (inferred preloaded)
30.64,APPROACH,ILS_TRACK,152.3,152,-0.3,679.97,601.39,0.29,9.59,9.48,269.99,0.076,0.2739,0,16.505,1,0.6,4.5,0.75,0.35,0.0168,0.4,0,21.805,0,0.304,0,270.02,0,0,1,0.11,0,0,0,270.01,0.7339,0.0003,-0.6792,0,270.02,-0.07,-295.07,17.187,0.017,0,0,3,741.88,8.679,0,975.04,0,0,0,,0,NONE,0,0,0,0,0,0,0,0,0,0,0,601.39,0,0,0,0,0,0,0,0,0,269.82,0,0,0,0,0,0,0,0,0,0,0,0,0,3,3,0,0,VALID,0,0,0,0,0,1,0,0,0,0,0,0,0,0,0,0,0,0,0,0,293.74,1077.52,2,0,0.08,0.08,304,10,0.12,0.08,30.64,FLYING,X10-H,0:/Integrated Flight Computer/aircraft/x10_h_cfg.ks (inferred preloaded)
30.94,APPROACH,ILS_TRACK,152.29,152,-0.29,680.06,601.47,0.29,9.59,9.49,269.99,0.076,0.2734,0,16.417,1,0.6,4.5,0.75,0.35,0.0168,0.4,0,21.81,0,0.289,0,270.01,0,0,1,0.11,0,0,0,270.02,0.7339,0.0002,-0.6793,0,270.01,-0.08,-292.45,17.139,0.009,0,0,3,741.88,8.72,0,972.5,0,0,0,,0,NONE,0,0,0,0,0,0,0,0,0,0,0,601.47,0,0,0,0,0,0,0,0,0,269.82,0,0,0,0,0,0,0,0,0,0,0,0,0,3,3,0,0,VALID,0,0,0,0,0,1,0,0,0,0,0,0,0,0,0,0,0,0,0,0,293.79,1077.45,2,0,0.08,0.08,307,10,0.12,0.08,30.94,FLYING,X10-H,0:/Integrated Flight Computer/aircraft/x10_h_cfg.ks (inferred preloaded)
31.24,APPROACH,ILS_TRACK,152.28,152,-0.28,680.15,601.56,0.29,9.6,9.49,269.99,0.074,0.2713,0,16.333,1,0.6,4.5,0.75,0.35,0.0168,0.4,0,21.813,0,0.276,0,270.01,0,0,1,0.11,0,0,0,270.02,0.7338,0.0002,-0.6793,0,270.01,-0.1,-289.83,17.091,0.013,0,0,3,741.88,8.731,0,969.97,0,0,0,,0,NONE,0,0,0,0,0,0,0,0,0,0,0,601.56,0,0,0,0,0,0,0,0,0,269.82,0,0,0,0,0,0,0,0,0,0,0,0,0,3,3,0,0,VALID,0,0,0,0,0,1,0,0,0,0,0,0,0,0,0,0,0,0,0,0,293.77,1077.39,2,0,0.08,0.08,310,10,0.12,0.08,31.24,FLYING,X10-H,0:/Integrated Flight Computer/aircraft/x10_h_cfg.ks (inferred preloaded)
31.54,APPROACH,ILS_TRACK,152.26,152,-0.26,680.24,601.65,0.31,9.6,9.5,269.99,0.072,0.2703,0,16.252,1,0.6,4.5,0.75,0.35,0.0168,0.4,0,21.817,0,0.264,0,270.02,0,0,1,0.11,0,0,0,270.01,0.7338,0.0004,-0.6794,0,270.02,-0.11,-287.21,17.042,0.021,0,0,3,741.88,8.746,0,967.44,0,0,0,,0,NONE,0,0,0,0,0,0,0,0,0,0,0,601.65,0,0,0,0,0,0,0,0,0,269.82,0,0,0,0,0,0,0,0,0,0,0,0,0,3,3,0,0,VALID,0,0,0,0,0,1,0,0,0,0,0,0,0,0,0,0,0,0,0,0,293.57,1077.33,2,0,0.08,0.08,313,10,0.12,0.08,31.54,FLYING,X10-H,0:/Integrated Flight Computer/aircraft/x10_h_cfg.ks (inferred preloaded)
31.84,APPROACH,ILS_TRACK,152.25,152,-0.25,680.33,601.74,0.29,9.6,9.5,270,0.072,0.2711,0,16.176,1,0.6,4.5,0.75,0.35,0.0168,0.4,0,21.821,0,0.248,0,270.02,0,0,1,0.11,0,0,0,270.01,0.7337,0.0004,-0.6794,0,270.02,-0.13,-284.59,16.994,0.022,0,0,3,741.88,8.726,0,964.91,0,0,0,,0,NONE,0,0,0,0,0,0,0,0,0,0,0,601.74,0,0,0,0,0,0,0,0,0,269.82,0,0,0,0,0,0,0,0,0,0,0,0,0,3,3,0,0,VALID,0,0,0,0,0,1,0,0,0,0,0,0,0,0,0,0,0,0,0,0,293.33,1077.26,2,0,0.08,0.08,316,10,0.12,0.08,31.84,FLYING,X10-H,0:/Integrated Flight Computer/aircraft/x10_h_cfg.ks (inferred preloaded)
