t_s,phase,subphase,ias_ms,vapp_ms,spd_err_ms,agl_m,vs_ms,pitch_deg,aoa_deg,hdg_deg,bank_deg,thr_cmd,thr_intg,aa_hdg_cmd_deg,aa_fpa_cmd_deg,ils_loc_m,ils_gs_m,ils_dist_km,loc_corr_deg,gs_corr_deg,flare_fpa_cmd,flare_tgt_vs,flare_frac,steer_hdg_deg,steer_blend,ro_loc_corr_deg,ro_hdg_err_deg,ro_yaw_tgt,ro_yaw_scale,ro_yaw_gate,yaw_cmd,roll_cmd,pitch_cmd,ro_pitch_tgt_deg,ro_pitch_err_deg,ro_pitch_ff,ro_roll_assist,flaps_cur,flaps_tgt,phase_el_s,status
1.02,APPROACH,FLY_TO_FIX,144.52,80.4,-64.12,1498.54,0.13,1.01,0.96,269.82,-0.211,0,-20,173.44,0.007,0,0,0,0,0,0,0,0,269.81,0,0,0,0,0,0,0,0,0,0,0,0,0,1,1,1.04,FLYING
1.76,APPROACH,FLY_TO_FIX,144.26,80.8,-63.46,1498.66,0.2,0.93,0.89,269.41,7.244,0,-20,171.87,0.007,0,0,0,0,0,0,0,0,269.81,0,0,0,0,0,0,0,0,0,0,0,0,0,1,1,1.8,FLYING
2.46,APPROACH,FLY_TO_FIX,143.76,81.2,-62.56,1498.66,-0.09,0.36,0.61,268.54,21.482,0,-20,170.44,0.007,0,0,0,0,0,0,0,0,269.81,0,0,0,0,0,0,0,0,0,0,0,0,0,1,1,2.5,FLYING
3.16,APPROACH,FLY_TO_FIX,143.18,81.6,-61.58,1497.98,-1.61,-0.9,0.07,267.62,37.075,0,-20,169.02,0.009,0,0,0,0,0,0,0,0,269.81,0,0,0,0,0,0,0,0,0,0,0,0,0,1,1,3.2,FLYING
3.86,APPROACH,FLY_TO_FIX,142.25,82,-60.25,1497.01,-1.6,2.57,5.54,261.03,52.769,0,-20,167.61,0.014,0,0,0,0,0,0,0,0,269.81,0,0,0,0,0,0,0,0,0,0,0,0,0,1,1,3.9,FLYING
4.56,APPROACH,FLY_TO_FIX,139.95,82.4,-57.55,1486.84,0.16,3.93,9.89,250.98,67.788,0,-20,166.22,0.016,0,0,0,0,0,0,0,0,269.81,0,0,0,0,0,0,0,0,0,0,0,0,0,1,1,4.6,FLYING
5.26,APPROACH,FLY_TO_FIX,136.62,82.8,-53.82,1473.7,0.26,3.03,9.66,243.55,72.053,0.008,-20,164.85,0.015,0,0,0,0,0,0,0,0,269.81,0,0,0,0,0,0,0,0,0,0,0,0,0,1,1,5.3,FLYING
5.96,APPROACH,FLY_TO_FIX,133.2,83.2,-50,1462.02,-0.31,3.04,10.6,235.09,72.387,0.208,-20,163.51,0.015,0,0,0,0,0,0,0,0,269.81,0,0,0,0,0,0,0,0,0,0,0,0,0,1,1,6,FLYING
6.68,APPROACH,FLY_TO_FIX,129.81,83.6,-46.21,1453.57,-1.18,2.98,11.34,226.77,72.246,0.3953,-20,162.18,0.017,0,0,0,0,0,0,0,0,269.81,0,0,0,0,0,0,0,0,0,0,0,0,0,1,1,6.72,FLYING
7.38,APPROACH,FLY_TO_FIX,126.69,84,-42.69,1449.71,-2.08,2.66,10.98,219.85,71.557,0.5078,-20,160.95,0.023,0,0,0,0,0,0,0,0,269.81,0,0,0,0,0,0,0,0,0,0,0,0,0,1,1,7.42,FLYING
8.08,APPROACH,FLY_TO_FIX,123.75,84,-39.75,1449.27,-2.82,2.51,10.85,212.85,70.238,0.5783,-20,159.78,0.031,0,0,0,0,0,0,0,0,269.81,0,0,0,0,0,0,0,0,0,0,0,0,0,1,1,8.12,FLYING
8.8,APPROACH,FLY_TO_FIX,121.11,84,-37.11,1444.1,-3.49,2.46,10.96,205.62,68.635,0.6024,-20,158.69,0.042,0,0,0,0,0,0,0,0,269.81,0,0,0,0,0,0,0,0,0,0,0,0,0,1,1,8.86,FLYING
9.92,APPROACH,FLY_TO_FIX,117.91,84,-33.91,1437.85,-4.11,2.44,9.28,197.69,62.847,0.6787,-20,157.15,0.063,0,0,0,0,0,0,0,0,269.81,0,0,0,0,0,0,0,0,0,0,0,0,0,1,1,9.99,FLYING
11.11,APPROACH,FLY_TO_FIX,115.54,84,-31.54,1472.88,-4.35,2.45,8.06,190.26,57.463,0.6629,-20,155.63,0.088,0,0,0,0,0,0,0,0,269.81,0,0,0,0,0,0,0,0,0,0,0,0,0,1,1,11.18,FLYING
12.3,APPROACH,FLY_TO_FIX,114.08,84,-30.08,1476.63,-4.35,2.42,7.08,183.85,52.82,0.5582,-20,154.28,0.114,0,0,0,0,0,0,0,0,269.81,0,0,0,0,0,0,0,0,0,0,0,0,0,1,1,12.37,FLYING
13.49,APPROACH,FLY_TO_FIX,113.26,84,-29.26,1471.52,-4.21,2.37,6.25,178.34,48.159,0.4089,-20,153.09,0.139,0,0,0,0,0,0,0,0,269.81,0,0,0,0,0,0,0,0,0,0,0,0,0,1,1,13.56,FLYING
14.68,APPROACH,FLY_TO_FIX,112.87,84,-28.87,1466.64,-3.97,2.34,5.57,173.59,43.608,0.2447,-20,152.03,0.164,0,0,0,0,0,0,0,0,269.81,0,0,0,0,0,0,0,0,0,0,0,0,0,1,1,14.75,FLYING
15.87,APPROACH,FLY_TO_FIX,112.74,84,-28.74,1462.09,-3.67,2.33,5.03,169.45,39.224,0.0868,-20,151.09,0.187,0,0,0,0,0,0,0,0,269.81,0,0,0,0,0,0,0,0,0,0,0,0,0,1,1,15.94,FLYING
17.06,APPROACH,FLY_TO_FIX,112.64,84,-28.64,1457.93,-3.32,2.36,4.6,165.89,34.743,0,-20,150.26,0.208,0,0,0,0,0,0,0,0,269.81,0,0,0,0,0,0,0,0,0,0,0,0,0,1,1,17.13,FLYING
18.29,APPROACH,FLY_TO_FIX,112.29,84,-28.29,1454.12,-2.93,2.45,4.3,162.74,30.332,0,-20,149.5,0.227,0,0,0,0,0,0,0,0,269.81,0,0,0,0,0,0,0,0,0,0,0,0,0,1,1,18.36,FLYING
19.48,APPROACH,FLY_TO_FIX,111.68,84,-27.68,1450.88,-2.55,2.59,4.12,160.11,26.276,0,-20,148.85,0.244,0,0,0,0,0,0,0,0,269.81,0,0,0,0,0,0,0,0,0,0,0,0,0,1,1,19.55,FLYING
20.67,APPROACH,FLY_TO_FIX,110.86,84,-26.86,1448.11,-2.19,2.75,4.02,157.84,22.394,0,-20,148.28,0.258,0,0,0,0,0,0,0,0,269.81,0,0,0,0,0,0,0,0,0,0,0,0,0,1,1,20.74,FLYING
21.89,APPROACH,FLY_TO_FIX,109.85,84,-25.85,1445.7,-1.84,2.92,3.96,155.79,19.437,0,-20,147.76,0.27,0,0,0,0,0,0,0,0,269.81,0,0,0,0,0,0,0,0,0,0,0,0,0,1,1,21.96,FLYING
23.08,APPROACH,FLY_TO_FIX,108.74,84,-24.74,1443.75,-1.53,3.11,3.98,154.08,17.156,0,-20,147.31,0.28,0,0,0,0,0,0,0,0,269.81,0,0,0,0,0,0,0,0,0,0,0,0,0,1,1,23.15,FLYING
24.31,APPROACH,FLY_TO_FIX,107.51,84,-23.51,1442.09,-1.27,3.33,4.05,152.56,14.718,0,-20,146.9,0.289,0,0,0,0,0,0,0,0,269.81,0,0,0,0,0,0,0,0,0,0,0,0,0,1,1,24.38,FLYING
25.5,APPROACH,FLY_TO_FIX,106.24,84,-22.24,1440.76,-1.04,3.57,4.15,151.31,12.491,0,-20,146.55,0.295,0,0,0,0,0,0,0,0,269.81,0,0,0,0,0,0,0,0,0,0,0,0,0,1,1,25.57,FLYING
26.72,APPROACH,FLY_TO_FIX,104.86,84,-20.86,1439.66,-0.83,3.83,4.29,150.22,10.444,0,-20,146.24,0.301,0,0,0,0,0,0,0,0,269.81,0,0,0,0,0,0,0,0,0,0,0,0,0,1,1,26.79,FLYING
27.95,APPROACH,FLY_TO_FIX,103.43,84,-19.43,1438.81,-0.64,4.1,4.45,149.3,8.695,0,-20,145.96,0.306,0,0,0,0,0,0,0,0,269.81,0,0,0,0,0,0,0,0,0,0,0,0,0,1,1,28.02,FLYING
29.14,APPROACH,FLY_TO_FIX,102,84,-18,1438.2,-0.48,4.37,4.64,148.55,7.266,0,-20,145.71,0.309,0,0,0,0,0,0,0,0,269.81,0,0,0,0,0,0,0,0,0,0,0,0,0,1,1,29.21,FLYING
30.36,APPROACH,FLY_TO_FIX,100.49,84,-16.49,1437.76,-0.33,4.67,4.86,147.9,6.041,0.0277,-20,145.49,0.311,0,0,0,0,0,0,0,0,269.81,0,0,0,0,0,0,0,0,0,0,0,0,0,1,1,30.43,FLYING
31.55,APPROACH,FLY_TO_FIX,99,84,-15,1437.49,-0.21,4.96,5.08,147.37,5.071,0.0481,-20,145.29,0.312,0,0,0,0,0,0,0,0,269.81,0,0,0,0,0,0,0,0,0,0,0,0,0,1,1,31.62,FLYING
32.74,APPROACH,FLY_TO_FIX,97.51,84,-13.51,1437.35,-0.11,5.26,5.33,146.91,4.274,0.0651,-20,145.11,0.313,0,0,0,0,0,0,0,0,269.81,0,0,0,0,0,0,0,0,0,0,0,0,0,1,1,32.81,FLYING
33.93,APPROACH,FLY_TO_FIX,96.01,84,-12.01,1437.32,-0.03,5.57,5.59,146.52,3.626,0.0785,-20,144.94,0.313,0,0,0,0,0,0,0,0,269.81,0,0,0,0,0,0,0,0,0,0,0,0,0,1,1,34,FLYING
35.16,APPROACH,FLY_TO_FIX,94.48,84,-10.48,1437.39,0.04,5.89,5.87,146.17,3.084,0.093,-20,144.77,0.313,0,0,0,0,0,0,0,0,269.81,0,0,0,0,0,0,0,0,0,0,0,0,0,1,1,35.23,FLYING
36.42,APPROACH,FLY_TO_FIX,92.92,84,-8.92,1437.53,0.12,6.18,6.14,145.86,2.662,0.1079,-20,93.82,-2.588,0,0,0,0,0,0,0,0,269.81,0,0,0,0,0,0,0,0,0,0,0,0,0,1,1,36.49,FLYING
37.61,APPROACH,FLY_TO_FIX,91.38,84,-7.38,1437.59,-0.02,6.12,6.26,144.36,11.575,0.1181,-20,93.46,-2.588,0,0,0,0,0,0,0,0,269.81,0,0,0,0,0,0,0,0,0,0,0,0,0,1,1,37.68,FLYING
38.8,APPROACH,FLY_TO_FIX,89.86,84,-5.86,1437.28,-0.73,7.3,8.56,139.62,27.668,0.199,-20,93.12,-2.587,0,0,0,0,0,0,0,0,269.81,0,0,0,0,0,0,0,0,0,0,0,0,0,1,1,38.87,FLYING
39.99,APPROACH,FLY_TO_FIX,87.83,84,-3.83,1436.78,-0.45,7.96,10.8,131.92,42.397,0.3507,-20,92.79,-2.584,0,0,0,0,0,0,0,0,269.81,0,0,0,0,0,0,0,0,0,0,0,0,0,1,1,40.06,FLYING
41.21,APPROACH,FLY_TO_FIX,85.63,84,-1.63,1435.43,-1.4,6.93,11.26,124.54,45.575,0.5234,-20,92.48,-2.578,0,0,0,0,0,0,0,0,269.81,0,0,0,0,0,0,0,0,0,0,0,0,0,1,1,41.28,FLYING
42.44,APPROACH,FLY_TO_FIX,83.86,84,0.14,1432.51,-2.91,6.35,10.57,119.91,38.484,0.6264,-19.97,92.22,-2.565,0,0,0,0,0,0,0,0,269.81,0,0,0,0,0,0,0,0,0,0,0,0,0,1,1,42.51,FLYING
43.63,APPROACH,FLY_TO_FIX,82.68,84,1.32,1428.64,-3.51,6.4,10.28,116.2,33.657,0.6418,-19.338,91.99,-2.546,0,0,0,0,0,0,0,0,269.81,0,0,0,0,0,0,0,0,0,0,0,0,0,1,1,43.7,FLYING
44.82,APPROACH,FLY_TO_FIX,81.9,84,2.1,1424.14,-3.97,6.31,10.1,112.64,29.774,0.6121,-18.306,91.8,-2.523,0,0,0,0,0,0,0,0,269.81,0,0,0,0,0,0,0,0,0,0,0,0,0,1,1,44.89,FLYING
46.01,APPROACH,FLY_TO_FIX,81.48,84,2.52,1419.18,-4.29,6.23,9.89,109.65,25.808,0.5472,-17.055,91.63,-2.499,0,0,0,0,0,0,0,0,269.81,0,0,0,0,0,0,0,0,0,0,0,0,0,1,1,46.08,FLYING
47.23,APPROACH,FLY_TO_FIX,81.36,84,2.64,1413.76,-4.5,6.07,9.63,106.92,22.766,0.4586,-15.735,91.48,-2.473,0,0,0,0,0,0,0,0,269.81,0,0,0,0,0,0,0,0,0,0,0,0,0,2,2,47.3,FLYING
48.49,APPROACH,FLY_TO_FIX,81.44,84,2.56,1407.96,-4.62,5.76,9.21,104.48,19.744,0.3589,-14.454,91.34,-2.443,0,0,0,0,0,0,0,0,269.81,0,0,0,0,0,0,0,0,0,0,0,0,0,2,2,48.56,FLYING
49.68,APPROACH,FLY_TO_FIX,81.62,84,2.38,1402.39,-4.66,5.46,8.8,102.45,17.979,0.2661,-13.261,91.23,-2.415,0,0,0,0,0,0,0,0,269.81,0,0,0,0,0,0,0,0,0,0,0,0,0,2,2,49.75,FLYING
50.87,APPROACH,FLY_TO_FIX,81.81,84,2.19,1396.78,-4.7,5.26,8.49,100.72,15.581,0.19,-12.161,91.13,-2.387,0,0,0,0,0,0,0,0,269.81,0,0,0,0,0,0,0,0,0,0,0,0,0,2,2,50.94,FLYING
52.06,APPROACH,FLY_TO_FIX,81.99,84,2.01,1391.16,-4.72,5.2,8.38,99.08,13.787,0.1295,-11.153,91.05,-2.359,0,0,0,0,0,0,0,0,269.81,0,0,0,0,0,0,0,0,0,0,0,0,0,2,2,52.13,FLYING
53.32,APPROACH,FLY_TO_FIX,82.05,84,1.95,1385.21,-4.71,5.24,8.35,97.6,11.894,0.0986,-10.179,90.97,-2.329,0,0,0,0,0,0,0,0,269.81,0,0,0,0,0,0,0,0,0,0,0,0,0,2,2,53.39,FLYING
54.55,APPROACH,FLY_TO_FIX,81.92,84,2.08,1379.48,-4.67,5.35,8.39,96.38,10.119,0.1053,-9.141,90.91,-2.301,0,0,0,0,0,0,0,0,269.81,0,0,0,0,0,0,0,0,0,0,0,0,0,2,2,54.62,FLYING
55.77,APPROACH,FLY_TO_FIX,81.61,84,2.39,1373.84,-4.59,5.51,8.48,95.36,8.491,0.1435,-7.95,90.86,-2.272,0,0,0,0,0,0,0,0,269.81,0,0,0,0,0,0,0,0,0,0,0,0,0,2,2,55.84,FLYING
57,APPROACH,FLY_TO_FIX,81.19,84,2.81,1368.31,-4.48,5.7,8.59,94.52,7.05,0.199,-6.549,90.82,-2.245,0,0,0,0,0,0,0,0,269.81,0,0,0,0,0,0,0,0,0,0,0,0,0,2,2,57.07,FLYING
58.22,APPROACH,FLY_TO_FIX,80.74,84,3.26,1362.92,-4.37,5.89,8.71,93.82,5.812,0.2578,-4.926,90.78,-2.218,0,0,0,0,0,0,0,0,269.81,0,0,0,0,0,0,0,0,0,0,0,0,0,2,2,58.29,FLYING
59.45,APPROACH,FLY_TO_FIX,80.31,84,3.69,1357.67,-4.25,6.07,8.82,93.25,4.77,0.3137,-3.088,90.76,-2.191,0,0,0,0,0,0,0,0,269.81,0,0,0,0,0,0,0,0,0,0,0,0,0,2,2,59.52,FLYING
60.67,APPROACH,FLY_TO_FIX,79.92,84,4.08,1352.57,-4.14,6.24,8.91,92.78,3.903,0.3633,-1.053,90.73,-2.166,0,0,0,0,0,0,0,0,269.81,0,0,0,0,0,0,0,0,0,0,0,0,0,2,2,60.74,FLYING
61.9,APPROACH,FLY_TO_FIX,79.6,84,4.4,1347.6,-4.02,6.38,8.98,92.4,3.193,0.4042,1.144,90.71,-2.141,0,0,0,0,0,0,0,0,269.81,0,0,0,0,0,0,0,0,0,0,0,0,0,2,2,61.97,FLYING
63.12,APPROACH,FLY_TO_FIX,79.36,84,4.64,1342.76,-3.91,6.49,9.03,92.09,2.612,0.4343,3.463,90.7,-2.117,0,0,0,0,0,0,0,0,269.81,0,0,0,0,0,0,0,0,0,0,0,0,0,2,2,63.19,FLYING
64.8,APPROACH,FLY_TO_FIX,79.21,84,4.79,1336.31,-3.79,6.59,9.05,91.74,2.016,0.4534,5.857,90.68,-2.088,0,0,0,0,0,0,0,0,269.81,0,0,0,0,0,0,0,0,0,0,0,0,0,2,2,64.96,FLYING
67.6,APPROACH,FLY_TO_FIX,79.32,84,4.68,1326.01,-3.58,6.61,8.94,91.36,1.285,0.4385,8.204,90.66,-2.036,0,0,0,0,0,0,0,0,269.81,0,0,0,0,0,0,0,0,0,0,0,0,0,2,2,67.76,FLYING
70.4,APPROACH,FLY_TO_FIX,79.93,84,4.07,1316.24,-3.4,6.48,8.67,91.1,0.831,0.3524,10.251,90.64,-1.987,0,0,0,0,0,0,0,0,269.81,0,0,0,0,0,0,0,0,0,0,0,0,0,2,2,70.56,FLYING
73.2,APPROACH,FLY_TO_FIX,80.89,84,3.11,1306.92,-3.25,6.25,8.33,90.95,0.475,0.2237,11.824,90.63,-1.94,0,0,0,0,0,0,0,0,269.81,0,0,0,0,0,0,0,0,0,0,0,0,0,2,2,73.36,FLYING
75.95,APPROACH,FLY_TO_FIX,81.72,84,2.28,1298.1,-3.16,6.14,8.12,90.87,0.243,0.1259,12.974,90.62,-1.895,0,0,0,0,0,0,0,0,269.81,0,0,0,0,0,0,0,0,0,0,0,0,0,2,2,76.07,FLYING
77.52,APPROACH,FLY_TO_FIX,81.86,84,2.14,1293.17,-3.12,6.15,8.11,90.84,0.167,0.1432,14.042,90.62,-1.868,0,0,0,0,0,0,0,0,269.81,0,0,0,0,0,0,0,0,0,0,0,0,0,2,2,77.6,FLYING
78.58,APPROACH,FLY_TO_FIX,81.72,84,2.28,1289.91,-3.1,6.23,8.18,90.82,0.142,0.2044,15.181,90.62,-1.851,0,0,0,0,0,0,0,0,269.81,0,0,0,0,0,0,0,0,0,0,0,0,0,2,2,78.62,FLYING
80.72,APPROACH,FLY_TO_FIX,81.38,84,2.62,1283.36,-3.06,6.41,8.34,90.79,0.138,0.2876,16.484,90.62,-1.822,0,0,0,0,0,0,0,0,269.81,0,0,0,0,0,0,0,0,0,0,0,0,0,2,2,80.88,FLYING
83.52,APPROACH,FLY_TO_FIX,80.89,84,3.11,1274.94,-2.98,6.57,8.46,90.76,0.089,0.3888,18.035,90.61,-1.779,0,0,0,0,0,0,0,0,269.81,0,0,0,0,0,0,0,0,0,0,0,0,0,2,2,83.68,FLYING
86.32,APPROACH,FLY_TO_FIX,80.66,84,3.34,1266.71,-2.9,6.63,8.49,90.74,0.066,0.4411,19.705,90.61,-1.738,0,0,0,0,0,0,0,0,269.81,0,0,0,0,0,0,0,0,0,0,0,0,0,2,2,86.48,FLYING
89.12,APPROACH,FLY_TO_FIX,80.88,84,3.12,1258.7,-2.82,6.56,8.36,90.72,0.051,0.4064,20,90.6,-1.698,0,0,0,0,0,0,0,0,269.81,0,0,0,0,0,0,0,0,0,0,0,0,0,2,2,89.28,FLYING
91.92,APPROACH,FLY_TO_FIX,81.54,84,2.46,1250.9,-2.73,6.39,8.12,90.71,0.041,0.306,20,90.6,-1.659,0,0,0,0,0,0,0,0,269.81,0,0,0,0,0,0,0,0,0,0,0,0,0,2,2,92.08,FLYING
94.72,APPROACH,FLY_TO_FIX,82.46,84,1.54,1243.34,-2.64,6.19,7.85,90.69,0.03,0.181,20,90.6,-1.621,0,0,0,0,0,0,0,0,269.81,0,0,0,0,0,0,0,0,0,0,0,0,0,2,2,94.88,FLYING
97.52,APPROACH,FLY_TO_FIX,83.03,84,0.97,1236.01,-2.59,6.16,7.77,90.69,0.023,0.1192,20,90.59,-1.584,0,0,0,0,0,0,0,0,269.81,0,0,0,0,0,0,0,0,0,0,0,0,0,2,2,97.68,FLYING
100.32,APPROACH,FLY_TO_FIX,82.64,84,1.36,1228.84,-2.56,6.38,7.98,90.68,0.019,0.2071,20,90.59,-1.548,0,0,0,0,0,0,0,0,269.81,0,0,0,0,0,0,0,0,0,0,0,0,0,2,2,100.48,FLYING
103.12,APPROACH,FLY_TO_FIX,81.65,84,2.35,1221.76,-2.53,6.68,8.28,90.67,0.018,0.3751,20,90.59,-1.513,0,0,0,0,0,0,0,0,269.81,0,0,0,0,0,0,0,0,0,0,0,0,0,2,2,103.28,FLYING
105.92,APPROACH,FLY_TO_FIX,80.82,84,3.18,1214.79,-2.48,6.91,8.49,90.66,0.016,0.4971,20,90.59,-1.478,0,0,0,0,0,0,0,0,269.81,0,0,0,0,0,0,0,0,0,0,0,0,0,2,2,106.08,FLYING
108.72,APPROACH,FLY_TO_FIX,80.53,84,3.47,1207.96,-2.4,6.95,8.5,90.66,0.014,0.524,20,90.58,-1.444,0,0,0,0,0,0,0,0,269.81,0,0,0,0,0,0,0,0,0,0,0,0,0,2,2,108.88,FLYING
111.12,APPROACH,FLY_TO_FIX,80.86,84,3.14,1202.26,-2.33,6.82,8.31,90.66,-0.005,0.4546,20,90.58,-1.414,0,0,0,0,0,0,0,0,269.81,0,0,0,0,0,0,0,0,0,0,0,0,0,2,2,111.24,FLYING
113.22,APPROACH,FLY_TO_FIX,81.52,84,2.48,1197.39,-2.27,6.63,8.08,90.65,-0.002,0.345,20,90.58,-1.39,0,0,0,0,0,0,0,0,269.81,0,0,0,0,0,0,0,0,0,0,0,0,0,2,2,113.34,FLYING
115.32,APPROACH,FLY_TO_FIX,82.37,84,1.63,1192.65,-2.21,6.43,7.82,90.65,0.001,0.2217,20,90.58,-1.366,0,0,0,0,0,0,0,0,269.81,0,0,0,0,0,0,0,0,0,0,0,0,0,2,2,115.44,FLYING
116.95,APPROACH,FLY_TO_FIX,83,84,1,1189.05,-2.18,6.31,7.67,90.65,-0.009,0.1458,20,90.57,-1.347,0,0,0,0,0,0,0,0,269.81,0,0,0,0,0,0,0,0,0,0,0,0,0,2,2,117.03,FLYING
118.62,APPROACH,FLY_TO_FIX,83.23,84,0.77,1185.44,-2.17,6.34,7.69,90.64,0.025,0.1391,20,90.57,-1.33,0,0,0,0,0,0,0,0,269.81,0,0,0,0,0,0,0,0,0,0,0,0,0,2,2,118.78,FLYING
121.42,APPROACH,FLY_TO_FIX,82.8,84,1.2,1179.43,-2.15,6.58,7.91,90.63,0.02,0.2271,20,90.57,-1.301,0,0,0,0,0,0,0,0,269.81,0,0,0,0,0,0,0,0,0,0,0,0,0,2,2,121.58,FLYING
124.22,APPROACH,FLY_TO_FIX,81.88,84,2.12,1173.5,-2.12,6.85,8.19,90.63,0.01,0.3795,20,90.57,-1.271,0,0,0,0,0,0,0,0,269.81,0,0,0,0,0,0,0,0,0,0,0,0,0,2,2,124.38,FLYING
127.02,APPROACH,FLY_TO_FIX,81.14,84,2.86,1167.66,-2.07,7.05,8.37,90.62,0.005,0.4849,20,90.56,-1.242,0,0,0,0,0,0,0,0,269.81,0,0,0,0,0,0,0,0,0,0,0,0,0,2,2,127.18,FLYING
129.82,APPROACH,FLY_TO_FIX,80.92,84,3.08,1161.95,-2.01,7.08,8.36,90.62,0.001,0.5008,20,90.56,-1.213,0,0,0,0,0,0,0,0,269.81,0,0,0,0,0,0,0,0,0,0,0,0,0,2,2,129.98,FLYING
132.62,APPROACH,FLY_TO_FIX,81.34,84,2.66,1156.42,-1.92,6.94,8.17,90.62,-0.004,0.4193,20,90.56,-1.185,0,0,0,0,0,0,0,0,269.81,0,0,0,0,0,0,0,0,0,0,0,0,0,2,2,132.78,FLYING
135.42,APPROACH,FLY_TO_FIX,82.27,84,1.73,1151.14,-1.83,6.7,7.86,90.62,-0.005,0.2715,20,90.56,-1.159,0,0,0,0,0,0,0,0,269.81,0,0,0,0,0,0,0,0,0,0,0,0,0,2,2,135.58,FLYING
138.22,APPROACH,FLY_TO_FIX,83.27,84,0.73,1146.11,-1.74,6.52,7.61,90.62,-0.004,0.1317,20,90.55,-1.133,0,0,0,0,0,0,0,0,269.81,0,0,0,0,0,0,0,0,0,0,0,0,0,2,2,138.38,FLYING
141.02,APPROACH,FLY_TO_FIX,83.5,84,0.5,1141.3,-1.71,6.6,7.66,90.62,0.001,0.121,20,90.55,-1.109,0,0,0,0,0,0,0,0,269.81,0,0,0,0,0,0,0,0,0,0,0,0,0,2,2,141.18,FLYING
143.82,APPROACH,FLY_TO_FIX,82.59,84,1.41,1136.55,-1.72,6.94,8.01,90.62,-0.002,0.2831,20,90.55,-1.085,0,0,0,0,0,0,0,0,269.81,0,0,0,0,0,0,0,0,0,0,0,0,0,2,2,143.98,FLYING
146.62,APPROACH,FLY_TO_FIX,81.26,84,2.74,1131.8,-1.71,7.31,8.39,90.61,0,0.4831,20,90.54,-1.062,0,0,0,0,0,0,0,0,269.81,0,0,0,0,0,0,0,0,0,0,0,0,0,2,2,146.78,FLYING
149.42,APPROACH,FLY_TO_FIX,80.34,84,3.66,1127.09,-1.68,7.52,8.6,90.61,0,0.606,20,90.54,-1.038,0,0,0,0,0,0,0,0,269.81,0,0,0,0,0,0,0,0,0,0,0,0,0,2,2,149.58,FLYING
152.22,APPROACH,FLY_TO_FIX,80.23,84,3.77,1122.48,-1.61,7.48,8.53,90.61,0.002,0.59,20,90.54,-1.015,0,0,0,0,0,0,0,0,269.81,0,0,0,0,0,0,0,0,0,0,0,0,0,2,2,152.38,FLYING
155.02,APPROACH,FLY_TO_FIX,81.02,84,2.98,1118.07,-1.51,7.22,8.2,90.61,-0.001,0.4421,20,90.53,-0.993,0,0,0,0,0,0,0,0,269.81,0,0,0,0,0,0,0,0,0,0,0,0,0,2,2,155.18,FLYING
157.82,APPROACH,FLY_TO_FIX,82.45,84,1.55,1113.93,-1.4,6.85,7.75,90.61,0.001,0.2421,20,90.53,-0.972,0,0,0,0,0,0,0,0,269.81,0,0,0,0,0,0,0,0,0,0,0,0,0,2,2,157.98,FLYING
160.62,APPROACH,FLY_TO_FIX,83.73,84,0.27,1110.08,-1.33,6.63,7.47,90.6,0.004,0.0445,20,90.52,-0.953,0,0,0,0,0,0,0,0,269.81,0,0,0,0,0,0,0,0,0,0,0,0,0,2,2,160.78,FLYING
163.42,APPROACH,FLY_TO_FIX,83.62,84,0.38,1106.38,-1.35,6.86,7.69,90.6,0.009,0.0951,20,90.52,-0.934,0,0,0,0,0,0,0,0,269.81,0,0,0,0,0,0,0,0,0,0,0,0,0,2,2,163.58,FLYING
166.22,APPROACH,FLY_TO_FIX,81.94,84,2.06,1102.64,-1.38,7.4,8.26,90.59,0.011,0.2951,20,90.51,-0.915,0,0,0,0,0,0,0,0,269.81,0,0,0,0,0,0,0,0,0,0,0,0,0,2,2,166.38,FLYING
169.02,APPROACH,FLY_TO_FIX,79.94,84,4.06,1098.8,-1.42,7.94,8.86,90.59,0.009,0.4951,20,90.51,-0.896,0,0,0,0,0,0,0,0,269.81,0,0,0,0,0,0,0,0,0,0,0,0,0,2,2,169.18,FLYING
171.82,APPROACH,FLY_TO_FIX,78.45,84,5.55,1094.85,-1.43,8.32,9.26,90.58,0.008,0.6951,20,90.5,-0.877,0,0,0,0,0,0,0,0,269.81,0,0,0,0,0,0,0,0,0,0,0,0,0,2,2,171.98,FLYING
174.62,APPROACH,FLY_TO_FIX,77.92,84,6.08,1090.92,-1.37,8.38,9.31,90.58,0.007,0.8673,20,90.49,-0.857,0,0,0,0,0,0,0,0,269.81,0,0,0,0,0,0,0,0,0,0,0,0,0,2,2,174.78,FLYING
177.42,APPROACH,FLY_TO_FIX,78.73,84,5.27,1087.2,-1.23,8.03,8.86,90.58,0.004,0.6874,20,90.49,-0.838,0,0,0,0,0,0,0,0,269.81,0,0,0,0,0,0,0,0,0,0,0,0,0,2,2,177.58,FLYING
179.22,APPROACH,FLY_TO_FIX,80.22,84,3.78,1085,-1.13,7.54,8.29,90.58,-0.024,0.4874,20,90.48,-0.826,0,0,0,0,0,0,0,0,269.81,0,0,0,0,0,0,0,0,0,0,0,0,0,2,2,179.28,FLYING
180.01,APPROACH,FLY_TO_FIX,80.96,84,3.04,1084.08,-1.12,7.34,8.06,90.58,-0.017,0.3135,20,90.48,-0.821,0,0,0,0,0,0,0,0,269.81,0,0,0,0,0,0,0,0,0,0,0,0,0,2,2,180.05,FLYING
180.73,APPROACH,FLY_TO_FIX,81.59,84,2.41,1083.25,-1.11,7.18,7.9,90.57,-0.01,0.2349,20,90.48,-0.817,0,0,0,0,0,0,0,0,269.81,0,0,0,0,0,0,0,0,0,0,0,0,0,2,2,180.77,FLYING
181.45,APPROACH,FLY_TO_FIX,82.14,84,1.86,1082.43,-1.11,7.07,7.78,90.57,-0.005,0.1773,20,90.47,-0.813,0,0,0,0,0,0,0,0,269.81,0,0,0,0,0,0,0,0,0,0,0,0,0,2,2,181.49,FLYING
182.67,APPROACH,FLY_TO_FIX,82.69,84,1.31,1081.06,-1.11,7,7.7,90.57,0.03,0.1286,20,90.47,-0.807,0,0,0,0,0,0,0,0,269.81,0,0,0,0,0,0,0,0,0,0,0,0,0,2,2,182.82,FLYING
185.46,APPROACH,FLY_TO_FIX,83.02,84,0.98,1078.02,-1.09,7.09,7.77,90.55,0.035,0.1081,20,90.46,-0.792,0,0,0,0,0,0,0,0,269.81,0,0,0,0,0,0,0,0,0,0,0,0,0,2,2,185.62,FLYING
188.26,APPROACH,FLY_TO_FIX,82.02,84,1.98,1074.97,-1.14,7.45,8.16,90.54,0.028,0.2896,20,90.45,-0.777,0,0,0,0,0,0,0,0,269.81,0,0,0,0,0,0,0,0,0,0,0,0,0,2,2,188.42,FLYING
191.06,APPROACH,FLY_TO_FIX,80.5,84,3.5,1071.79,-1.18,7.86,8.62,90.53,0.022,0.4896,20,90.44,-0.761,0,0,0,0,0,0,0,0,269.81,0,0,0,0,0,0,0,0,0,0,0,0,0,2,2,191.22,FLYING
193.86,APPROACH,FLY_TO_FIX,79.41,84,4.59,1068.53,-1.18,8.12,8.89,90.52,0.016,0.6711,20,90.43,-0.745,0,0,0,0,0,0,0,0,269.81,0,0,0,0,0,0,0,0,0,0,0,0,0,2,2,194.02,FLYING
196.66,APPROACH,FLY_TO_FIX,79.2,84,4.8,1065.31,-1.11,8.11,8.84,90.52,0.012,0.6665,20,90.41,-0.728,0,0,0,0,0,0,0,0,269.81,0,0,0,0,0,0,0,0,0,0,0,0,0,2,2,196.82,FLYING
199.46,APPROACH,ILS_TRACK,80.07,84,3.93,1062.26,-0.97,7.8,8.44,90.51,0.013,0.5034,20,90.39,-0.713,0,0,0,0,0,0,0,0,269.81,0,0,0,0,0,0,0,0,0,0,0,0,0,2,2,199.62,FLYING
202.74,APPROACH,ILS_TRACK,82.05,84,1.95,1059.25,-0.72,6.48,7.22,90.54,-0.54,0.3034,20,114,-7,-297.71,83.94,16.063,160.763,-159.484,0,0,0,269.81,0,0,0,0,0,0,0,0,0,0,0,0,0,2,2,202.9,FLYING
204.52,APPROACH,ILS_TRACK,83.66,84,0.34,1056.15,-2.28,5.28,7,93.64,-16.779,0.1034,20,97.69,-7,-291.74,90.81,15.868,8.688,-38.241,0,0,0,269.81,0,0,0,0,0,0,0,0,0,0,0,0,0,2,2,204.56,FLYING
205.32,APPROACH,ILS_TRACK,84.22,84,-0.22,1053.67,-3.41,3.47,5.92,95.08,-18.82,0,19.904,98.45,-7,-287.64,92.31,15.795,9.452,-30.096,0,0,0,269.81,0,0,0,0,0,0,0,0,0,0,0,0,0,2,2,205.36,FLYING
206.12,APPROACH,ILS_TRACK,84.66,84,-0.66,1050.41,-4.57,3.35,6.32,95.69,-12.108,0,19.581,97.31,-7,-281.72,93.04,15.721,8.309,-29.081,0,0,0,269.81,0,0,0,0,0,0,0,0,0,0,0,0,0,2,2,206.16,FLYING
207.47,APPROACH,ILS_TRACK,84.99,84,-0.99,1043.34,-5.74,2.98,6.51,95.55,-4.145,0,19.098,95.04,-7,-272.03,92.85,15.624,6.036,-27.555,0,0,0,269.81,0,0,0,0,0,0,0,0,0,0,0,0,0,2,2,207.62,FLYING
210.57,APPROACH,ILS_TRACK,84.64,84,-0.64,1022.23,-7.53,2.28,6.94,95.29,0.886,0.0205,18.755,82.87,-7,-240.52,87.64,15.345,-6.13,-17.953,0,0,0,269.81,0,0,0,0,0,0,0,0,0,0,0,0,0,2,2,210.73,FLYING
213.69,APPROACH,ILS_TRACK,83.1,84,0.9,996.66,-8.78,2.09,7.81,90.56,10.917,0.2205,19.16,83.42,-7,-212.38,77.53,15.061,-5.577,-7.071,0,0,0,269.81,0,0,0,0,0,0,0,0,0,0,0,0,0,2,2,213.85,FLYING
216.81,APPROACH,ILS_TRACK,81.74,84,2.26,968.17,-9.51,2.61,8.58,88.17,6.878,0.4205,20,92.02,-0.384,-202.24,63.91,14.782,3.021,2.616,0,0,0,269.81,0,0,0,0,0,0,0,0,0,0,0,0,0,2,2,216.97,FLYING
219.93,APPROACH,ILS_TRACK,80.22,84,3.78,942.67,-7.14,5.15,9.85,89.56,-2.746,0.6205,20,97.43,0,-202.88,51.76,14.508,8.435,3.906,0,0,0,269.81,0,0,0,0,0,0,0,0,0,0,0,0,0,2,2,220.09,FLYING
222.96,APPROACH,ILS_TRACK,79.14,84,4.86,924.5,-5.01,5.89,9.5,92.13,-6.454,0.8097,20,95.38,-7,-199.67,46.34,14.24,6.38,-5.222,0,0,0,269.81,0,0,0,0,0,0,0,0,0,0,0,0,0,2,2,223.07,FLYING
224.25,APPROACH,ILS_TRACK,79.49,83.6,4.11,917.21,-5.86,4.07,8,92.63,-5.624,0.6791,20,94.02,-7,-194.17,44.7,14.105,5.02,-10.783,0,0,0,269.81,0,0,0,0,0,0,0,0,0,0,0,0,0,2,2,224.29,FLYING
225.09,APPROACH,ILS_TRACK,80.03,83.2,3.17,911.98,-6.39,3.64,7.86,92.87,-4.305,0.5332,20,94.67,-7,-190.29,43.33,14.033,5.671,-10.81,0,0,0,269.81,0,0,0,0,0,0,0,0,0,0,0,0,0,2,2,225.13,FLYING
226.11,APPROACH,ILS_TRACK,80.79,82.8,2.01,905.05,-6.95,3.11,7.65,93.16,-3.496,0.3766,20,93.96,-7,-185.38,41.37,13.952,4.96,-9.271,0,0,0,269.81,0,0,0,0,0,0,0,0,0,0,0,0,0,2,2,226.19,FLYING
227.63,APPROACH,ILS_TRACK,82.22,82.4,0.18,893.78,-7.69,2.36,7.3,93.38,-2.072,0.1766,20,91.55,-7,-176.38,37.34,13.82,2.553,-4.752,0,0,0,269.81,0,0,0,0,0,0,0,0,0,0,0,0,0,2,2,227.71,FLYING
229.15,APPROACH,ILS_TRACK,83.66,82,-1.66,881.45,-8.41,1.87,7.12,92.91,1.31,0,19.205,90.64,-4.584,-166.34,32.27,13.685,1.637,-1.584,0,0,0,269.81,0,0,0,0,0,0,0,0,0,0,0,0,0,2,2,229.23,FLYING
230.75,APPROACH,ILS_TRACK,84.52,81.6,-2.92,868.2,-8.27,2.48,7.61,92.45,2.335,0,17.755,90.11,-1.88,-156.08,26.59,13.54,1.112,1.12,0,0,0,269.81,0,0,0,0,0,0,0,0,0,0,0,0,0,2,2,230.83,FLYING
232.31,APPROACH,ILS_TRACK,84.35,81.2,-3.15,856.23,-7.27,3.49,8.09,91.94,2.616,0,16.165,90.35,-1.992,-147.01,21.86,13.398,1.345,1.008,0,0,0,269.81,0,0,0,0,0,0,0,0,0,0,0,0,0,2,2,232.39,FLYING
233.87,APPROACH,ILS_TRACK,83.59,80.8,-2.79,845.48,-6.58,3.98,8.2,91.61,2.025,0,14.746,90.64,-2.867,-139.15,18.34,13.256,1.635,0.133,0,0,0,269.81,0,0,0,0,0,0,0,0,0,0,0,0,0,2,2,233.95,FLYING
235.43,APPROACH,ILS_TRACK,82.45,80.4,-2.05,835.53,-6.21,4.36,8.38,91.37,1.429,0.0941,13.687,90.88,-3.323,-132.32,15.61,13.117,1.878,-0.323,0,0,0,269.81,0,0,0,0,0,0,0,0,0,0,0,0,0,2,2,235.51,FLYING
237.16,APPROACH,ILS_TRACK,81.07,80,-1.07,825.09,-5.97,4.93,8.83,91.2,0.87,0.2644,13.11,90.88,-3.094,-125.99,13.2,12.972,1.876,-0.094,0,0,0,269.81,0,0,0,0,0,0,0,0,0,0,0,0,0,2,2,237.28,FLYING
239.85,APPROACH,ILS_TRACK,79,80,1,809.74,-5.64,6.12,9.75,91.02,0.666,0.4644,13.549,89.34,-0.902,-117.28,10.01,12.753,0.335,2.098,0,0,0,269.81,0,0,0,0,0,0,0,0,0,0,0,0,0,2,2,240.01,FLYING
242.97,APPROACH,ILS_TRACK,76.62,80,3.38,795,-4.12,7.28,10.2,90.31,1.515,0.6644,15.185,88.81,-2.97,-108.24,8.41,12.491,-0.191,0.03,0,0,0,269.81,0,0,0,0,0,0,0,0,0,0,0,0,0,2,2,243.13,FLYING
246.09,APPROACH,ILS_TRACK,75.67,80,4.33,782.03,-4.09,6.84,9.86,89.75,1.225,0.8644,17.348,89.98,-6.333,-102.03,8.84,12.236,0.975,-3.333,0,0,0,269.81,0,0,0,0,0,0,0,0,0,0,0,0,0,2,2,246.25,FLYING
249.21,APPROACH,ILS_TRACK,77.17,80,2.83,766.92,-5.37,5.61,9.2,89.75,-0.045,0.6644,18.834,90.95,-3.331,-98.08,7.62,11.979,1.95,-0.331,0,0,0,269.81,0,0,0,0,0,0,0,0,0,0,0,0,0,2,2,249.37,FLYING
252.33,APPROACH,ILS_TRACK,80.47,80,-0.47,750.52,-5.17,5.32,8.63,90.06,-0.876,0.4644,18.696,90.91,-0.28,-94.35,4.98,11.715,1.911,2.72,0,0,0,269.81,0,0,0,0,0,0,0,0,0,0,0,0,0,2,2,252.49,FLYING
254.6,APPROACH,ILS_TRACK,83.53,80,-3.53,740.2,-4.04,5.38,7.96,90.26,-0.941,0.2644,16.968,90.54,-4.219,-90.21,4.84,11.484,1.536,-1.219,0,0,0,269.81,0,0,0,0,0,0,0,0,0,0,0,0,0,2,2,254.64,FLYING
255.4,APPROACH,ILS_TRACK,84.51,80,-4.51,736.83,-4.06,4.16,6.74,90.28,-0.789,0.0644,14.739,91.8,-5.28,-88.72,5.27,11.412,2.802,-2.28,0,0,0,269.81,0,0,0,0,0,0,0,0,0,0,0,0,0,2,2,255.44,FLYING
256.2,APPROACH,ILS_TRACK,85.4,80,-5.4,733.34,-4.45,3.67,6.45,90.4,-1.166,0,12.059,91.69,-5.289,-87.13,5.65,11.339,2.691,-2.289,0,0,0,269.81,0,0,0,0,0,0,0,0,0,0,0,0,0,2,2,256.24,FLYING
257.1,APPROACH,ILS_TRACK,86.05,80,-6.05,729.12,-4.88,3.44,6.45,90.52,-1.337,0,9.049,91.54,-4.964,-85.37,5.79,11.263,2.537,-1.964,0,0,0,269.81,0,0,0,0,0,0,0,0,0,0,0,0,0,2,2,257.17,FLYING
258.46,APPROACH,ILS_TRACK,86.54,80,-6.54,722.07,-5.41,3.19,6.49,90.69,-1.305,0,5.787,90.7,-4.125,-82.19,5.47,11.138,1.698,-1.125,0,0,0,269.81,0,0,0,0,0,0,0,0,0,0,0,0,0,2,2,258.53,FLYING
259.83,APPROACH,ILS_TRACK,86.44,80,-6.44,714.58,-5.64,3.41,6.84,90.73,-0.599,0,2.559,90.35,-3.082,-78.61,4.65,11.012,1.352,-0.082,0,0,0,269.81,0,0,0,0,0,0,0,0,0,0,0,0,0,2,2,259.9,FLYING
261.19,APPROACH,ILS_TRACK,85.85,80,-5.85,707.06,-5.52,3.89,7.29,90.69,-0.016,0,-0.386,90.11,-2.62,-74.85,3.71,10.886,1.113,0.38,0,0,0,269.81,0,0,0,0,0,0,0,0,0,0,0,0,0,2,2,261.26,FLYING
262.56,APPROACH,ILS_TRACK,84.89,80,-4.89,699.82,-5.23,4.34,7.63,90.59,0.406,0,-2.857,89.98,-2.692,-71.12,2.96,10.761,0.978,0.308,0,0,0,269.81,0,0,0,0,0,0,0,0,0,0,0,0,0,2,2,262.63,FLYING
263.92,APPROACH,ILS_TRACK,83.67,80,-3.67,692.9,-5.01,4.74,7.95,90.47,0.615,0,-4.724,89.93,-2.915,-67.57,2.45,10.638,0.931,0.085,0,0,0,269.81,0,0,0,0,0,0,0,0,0,0,0,0,0,2,2,263.99,FLYING
265.29,APPROACH,ILS_TRACK,82.26,80,-2.26,686.2,-4.89,5.15,8.33,90.35,0.621,0.0173,-5.894,89.94,-3.038,-64.3,2.09,10.516,0.936,-0.038,0,0,0,269.81,0,0,0,0,0,0,0,0,0,0,0,0,0,2,2,265.36,FLYING
266.65,APPROACH,ILS_TRACK,80.74,80,-0.74,679.67,-4.8,5.65,8.82,90.27,0.478,0.1995,-6.303,89.96,-3.026,-61.31,1.77,10.397,0.96,-0.026,0,0,0,269.81,0,0,0,0,0,0,0,0,0,0,0,0,0,2,2,266.72,FLYING
268.02,APPROACH,ILS_TRACK,79.18,80,0.82,673.26,-4.72,6.16,9.34,90.21,0.334,0.3743,-5.934,89.98,-2.946,-58.58,1.46,10.28,0.975,0.054,0,0,0,269.81,0,0,0,0,0,0,0,0,0,0,0,0,0,2,2,268.09,FLYING
269.38,APPROACH,ILS_TRACK,77.73,80,2.27,666.97,-4.63,6.65,9.82,90.16,0.233,0.5242,-4.836,89.98,-2.86,-56.05,1.16,10.166,0.976,0.14,0,0,0,269.81,0,0,0,0,0,0,0,0,0,0,0,0,0,2,2,269.45,FLYING
270.75,APPROACH,ILS_TRACK,76.5,80,3.5,660.79,-4.53,7.06,10.22,90.12,0.17,0.6378,-3.114,89.96,-2.799,-53.67,0.87,10.053,0.961,0.201,0,0,0,269.81,0,0,0,0,0,0,0,0,0,0,0,0,0,2,2,270.82,FLYING
272.11,APPROACH,ILS_TRACK,75.56,80,4.44,654.73,-4.43,7.36,10.49,90.08,0.132,0.707,-0.914,89.94,-2.767,-51.43,0.61,9.942,0.937,0.233,0,0,0,269.81,0,0,0,0,0,0,0,0,0,0,0,0,0,2,2,272.18,FLYING
273.48,APPROACH,ILS_TRACK,74.97,80,5.03,648.76,-4.35,7.51,10.61,90.04,0.107,0.7284,1.59,89.9,-2.766,-49.3,0.39,9.832,0.904,0.234,0,0,0,269.81,0,0,0,0,0,0,0,0,0,0,0,0,0,2,2,273.55,FLYING
274.84,APPROACH,ILS_TRACK,74.76,80,5.24,642.88,-4.28,7.52,10.58,90.01,0.09,0.7028,4.209,89.86,-2.797,-47.25,0.22,9.723,0.865,0.203,0,0,0,269.81,0,0,0,0,0,0,0,0,0,0,0,0,0,2,2,274.91,FLYING
276.21,APPROACH,ILS_TRACK,74.91,80,5.09,637.05,-4.23,7.38,10.41,89.98,0.076,0.6354,6.762,89.82,-2.856,-45.27,0.11,9.614,0.822,0.144,0,0,0,269.81,0,0,0,0,0,0,0,0,0,0,0,0,0,2,2,276.28,FLYING
277.57,APPROACH,ILS_TRACK,75.38,80,4.62,631.26,-4.2,7.15,10.14,89.95,0.067,0.5346,9.085,89.77,-2.933,-43.35,0.06,9.504,0.773,0.067,0,0,0,269.81,0,0,0,0,0,0,0,0,0,0,0,0,0,2,2,277.64,FLYING
278.94,APPROACH,ILS_TRACK,76.11,80,3.89,625.47,-4.2,6.86,9.81,89.92,0.063,0.4123,11.051,89.72,-3.026,-41.47,0.06,9.394,0.721,-0.026,0,0,0,269.81,0,0,0,0,0,0,0,0,0,0,0,0,0,2,2,279.01,FLYING
280.3,APPROACH,ILS_TRACK,77,80,3,619.68,-4.21,6.53,9.46,89.89,0.071,0.2814,12.575,89.67,-3.13,-39.63,0.12,9.282,0.666,-0.13,0,0,0,269.81,0,0,0,0,0,0,0,0,0,0,0,0,0,2,2,280.37,FLYING
281.67,APPROACH,ILS_TRACK,77.93,80,2.07,613.86,-4.24,6.21,9.14,89.85,0.101,0.1591,13.634,89.61,-3.229,-37.83,0.22,9.169,0.614,-0.229,0,0,0,269.81,0,0,0,0,0,0,0,0,0,0,0,0,0,2,2,281.74,FLYING
283.03,APPROACH,ILS_TRACK,78.67,80,1.33,607.99,-4.3,6.01,8.94,89.81,0.141,0.0757,14.314,89.57,-3.295,-36.08,0.34,9.055,0.566,-0.295,0,0,0,269.81,0,0,0,0,0,0,0,0,0,0,0,0,0,2,2,283.1,FLYING
284.4,APPROACH,ILS_TRACK,79,80,1,602.06,-4.37,5.99,8.95,89.76,0.17,0.0617,14.818,89.53,-3.293,-34.39,0.44,8.94,0.532,-0.293,0,0,0,269.81,0,0,0,0,0,0,0,0,0,0,0,0,0,2,2,284.47,FLYING
285.76,APPROACH,ILS_TRACK,78.87,80,1.13,596.09,-4.41,6.12,9.11,89.72,0.17,0.1174,15.375,89.51,-3.237,-32.79,0.5,8.825,0.51,-0.237,0,0,0,269.81,0,0,0,0,0,0,0,0,0,0,0,0,0,2,2,285.83,FLYING
287.13,APPROACH,ILS_TRACK,78.43,80,1.57,590.1,-4.41,6.3,9.31,89.68,0.135,0.2152,16.145,89.5,-3.168,-31.29,0.51,8.711,0.5,-0.168,0,0,0,269.81,0,0,0,0,0,0,0,0,0,0,0,0,0,2,2,287.2,FLYING
288.49,APPROACH,ILS_TRACK,77.91,80,2.09,584.12,-4.39,6.48,9.5,89.65,0.1,0.3172,17.177,89.49,-3.111,-29.87,0.49,8.597,0.488,-0.111,0,0,0,269.81,0,0,0,0,0,0,0,0,0,0,0,0,0,2,2,288.56,FLYING
289.86,APPROACH,ILS_TRACK,77.44,80,2.56,578.16,-4.37,6.62,9.65,89.62,0.073,0.4026,18.448,89.47,-3.07,-28.54,0.45,8.484,0.474,-0.07,0,0,0,269.81,0,0,0,0,0,0,0,0,0,0,0,0,0,2,2,289.93,FLYING
291.22,APPROACH,ILS_TRACK,77.08,80,2.92,572.23,-4.34,6.72,9.75,89.6,0.056,0.4638,19.9,89.46,-3.044,-27.27,0.4,8.372,0.458,-0.044,0,0,0,269.81,0,0,0,0,0,0,0,0,0,0,0,0,0,2,2,291.29,FLYING
292.59,APPROACH,ILS_TRACK,76.89,80,3.11,566.33,-4.32,6.75,9.77,89.57,0.048,0.4787,20,89.44,-3.035,-26.07,0.35,8.26,0.441,-0.035,0,0,0,269.81,0,0,0,0,0,0,0,0,0,0,0,0,0,2,2,292.66,FLYING
293.95,APPROACH,ILS_TRACK,76.9,80,3.1,560.45,-4.29,6.72,9.72,89.54,0.04,0.463,20,89.42,-3.047,-24.92,0.32,8.148,0.422,-0.047,0,0,0,269.81,0,0,0,0,0,0,0,0,0,0,0,0,0,2,2,294.02,FLYING
295.32,APPROACH,ILS_TRACK,77.09,80,2.91,554.58,-4.28,6.63,9.61,89.52,0.037,0.4222,20,89.4,-3.083,-23.82,0.32,8.036,0.404,-0.083,0,0,0,269.81,0,0,0,0,0,0,0,0,0,0,0,0,0,2,2,295.39,FLYING
296.68,APPROACH,ILS_TRACK,77.44,80,2.56,548.58,-4.26,6.49,9.46,89.5,0.036,0.3619,20,89.38,-2.853,-22.77,0.19,7.924,0.384,0.147,0,0,0,269.81,0,0,0,0,0,0,0,0,0,0,0,0,0,3,3,296.75,FLYING
298.15,APPROACH,ILS_TRACK,77.86,80,2.14,542.45,-4.17,6.1,9.02,89.47,0.039,0.3007,20,89.32,-3.502,-21.68,0.42,7.803,0.324,-0.502,0,0,0,269.81,0,0,0,0,0,0,0,0,0,0,0,0,0,3,3,298.22,FLYING
299.52,APPROACH,ILS_TRACK,78.24,80,1.76,536.58,-4.32,5.67,8.62,89.44,0.086,0.253,20,89.35,-3.263,-20.72,0.49,7.69,0.347,-0.263,0,0,0,269.81,0,0,0,0,0,0,0,0,0,0,0,0,0,3,3,299.59,FLYING
300.88,APPROACH,ILS_TRACK,78.51,80,1.49,530.68,-4.32,5.58,8.55,89.41,0.062,0.2266,20,89.34,-3.268,-19.81,0.56,7.576,0.337,-0.268,0,0,0,269.81,0,0,0,0,0,0,0,0,0,0,0,0,0,3,3,300.95,FLYING
302.25,APPROACH,ILS_TRACK,78.71,80,1.29,524.75,-4.35,5.53,8.51,89.39,0.047,0.2138,20,89.33,-3.258,-18.95,0.61,7.462,0.328,-0.258,0,0,0,269.81,0,0,0,0,0,0,0,0,0,0,0,0,0,3,3,302.32,FLYING
303.48,APPROACH,ILS_TRACK,78.8,80,1.2,519.37,-4.36,5.52,8.51,89.37,0.037,0.2178,20,89.35,-3.245,-18.19,0.64,7.355,0.346,-0.245,0,0,0,269.81,0,0,0,0,0,0,0,0,0,0,0,0,0,3,3,303.53,FLYING
304.67,APPROACH,ILS_TRACK,78.81,80,1.19,514.19,-4.37,5.54,8.52,89.35,0.022,0.2325,20,89.38,-3.234,-17.54,0.66,7.259,0.378,-0.234,0,0,0,269.81,0,0,0,0,0,0,0,0,0,0,0,0,0,3,3,304.74,FLYING
306.03,APPROACH,ILS_TRACK,78.77,80,1.23,508.23,-4.37,5.55,8.54,89.34,0.005,0.251,20,89.31,-3.234,-16.81,0.68,7.145,0.307,-0.234,0,0,0,269.81,0,0,0,0,0,0,0,0,0,0,0,0,0,3,3,306.1,FLYING
307.4,APPROACH,ILS_TRACK,78.73,80,1.27,502.27,-4.37,5.56,8.55,89.32,0.007,0.2671,20,89.3,-3.226,-16.11,0.69,7.031,0.295,-0.226,0,0,0,269.81,0,0,0,0,0,0,0,0,0,0,0,0,0,3,3,307.47,FLYING
308.76,APPROACH,ILS_TRACK,78.71,80,1.29,496.3,-4.37,5.56,8.56,89.3,0.009,0.2781,20,89.29,-3.218,-15.44,0.7,6.917,0.286,-0.218,0,0,0,269.81,0,0,0,0,0,0,0,0,0,0,0,0,0,3,3,308.83,FLYING
310.13,APPROACH,ILS_TRACK,78.71,80,1.29,490.34,-4.37,5.55,8.55,89.28,0.008,0.2835,20,89.28,-3.213,-14.82,0.7,6.803,0.28,-0.213,0,0,0,269.81,0,0,0,0,0,0,0,0,0,0,0,0,0,3,3,310.2,FLYING
311.49,APPROACH,ILS_TRACK,78.74,80,1.26,484.37,-4.37,5.54,8.53,89.27,0.004,0.2832,20,89.27,-3.209,-14.23,0.7,6.69,0.273,-0.209,0,0,0,269.81,0,0,0,0,0,0,0,0,0,0,0,0,0,3,3,311.56,FLYING
312.84,APPROACH,ILS_TRACK,78.81,80,1.19,478.48,-4.37,5.51,8.51,89.25,0.001,0.278,20,89.27,-3.208,-13.67,0.7,6.576,0.269,-0.208,0,0,0,269.81,0,0,0,0,0,0,0,0,0,0,0,0,0,3,3,312.9,FLYING
313.74,APPROACH,ILS_TRACK,78.87,80,1.13,474.54,-4.37,5.48,8.48,89.24,-0.005,0.2731,20,89.34,-3.207,-13.3,0.7,6.495,0.345,-0.207,0,0,0,269.81,0,0,0,0,0,0,0,0,0,0,0,0,0,3,3,313.78,FLYING
314.54,APPROACH,ILS_TRACK,78.93,80,1.07,471.02,-4.38,5.45,8.45,89.24,-0.022,0.2686,20,89.37,-3.205,-13,0.69,6.428,0.369,-0.205,0,0,0,269.81,0,0,0,0,0,0,0,0,0,0,0,0,0,3,3,314.58,FLYING
315.65,APPROACH,ILS_TRACK,79.02,80,0.98,466.17,-4.38,5.43,8.43,89.23,-0.04,0.2605,20,89.32,-3.2,-12.63,0.69,6.343,0.323,-0.2,0,0,0,269.81,0,0,0,0,0,0,0,0,0,0,0,0,0,3,3,315.72,FLYING
317.01,APPROACH,ILS_TRACK,79.15,80,0.85,460.18,-4.39,5.39,8.38,89.22,-0.038,0.2469,20,89.25,-3.195,-12.16,0.68,6.228,0.251,-0.195,0,0,0,269.81,0,0,0,0,0,0,0,0,0,0,0,0,0,3,3,317.08,FLYING
318.38,APPROACH,ILS_TRACK,79.28,80,0.72,454.18,-4.39,5.34,8.34,89.21,-0.036,0.2342,20,89.24,-3.197,-11.71,0.68,6.114,0.242,-0.197,0,0,0,269.81,0,0,0,0,0,0,0,0,0,0,0,0,0,3,3,318.45,FLYING
319.74,APPROACH,ILS_TRACK,79.39,80,0.61,448.17,-4.4,5.31,8.31,89.2,-0.033,0.226,20,89.24,-3.197,-11.28,0.68,6,0.235,-0.197,0,0,0,269.81,0,0,0,0,0,0,0,0,0,0,0,0,0,3,3,319.81,FLYING
321.11,APPROACH,ILS_TRACK,79.45,80,0.55,442.17,-4.4,5.31,8.31,89.19,-0.031,0.2252,20,89.23,-3.197,-10.87,0.67,5.885,0.23,-0.197,0,0,0,269.81,0,0,0,0,0,0,0,0,0,0,0,0,0,3,3,321.18,FLYING
322.47,APPROACH,ILS_TRACK,79.47,80,0.53,436.16,-4.4,5.32,8.31,89.18,-0.03,0.2313,20,89.23,-3.202,-10.48,0.67,5.77,0.225,-0.202,0,0,0,269.81,0,0,0,0,0,0,0,0,0,0,0,0,0,3,3,322.54,FLYING
323.84,APPROACH,ILS_TRACK,79.45,80,0.55,430.16,-4.4,5.32,8.32,89.16,-0.03,0.2406,20,89.22,-3.206,-10.11,0.67,5.656,0.222,-0.206,0,0,0,269.81,0,0,0,0,0,0,0,0,0,0,0,0,0,3,3,323.91,FLYING
325.2,APPROACH,ILS_TRACK,79.43,80,0.57,424.16,-4.39,5.33,8.33,89.15,-0.031,0.2492,20,89.22,-3.207,-9.77,0.68,5.541,0.22,-0.207,0,0,0,269.81,0,0,0,0,0,0,0,0,0,0,0,0,0,3,3,325.27,FLYING
326.57,APPROACH,ILS_TRACK,79.42,80,0.58,418.17,-4.39,5.33,8.33,89.14,-0.033,0.2551,20,89.22,-3.207,-9.45,0.68,5.427,0.219,-0.207,0,0,0,269.81,0,0,0,0,0,0,0,0,0,0,0,0,0,3,3,326.64,FLYING
327.93,APPROACH,ILS_TRACK,79.42,80,0.58,412.17,-4.39,5.33,8.32,89.13,-0.034,0.2581,20,89.22,-3.207,-9.16,0.68,5.312,0.218,-0.207,0,0,0,269.81,0,0,0,0,0,0,0,0,0,0,0,0,0,3,3,328,FLYING
329.3,APPROACH,ILS_TRACK,79.43,80,0.57,406.18,-4.39,5.32,8.31,89.12,-0.034,0.258,20,89.22,-3.205,-8.88,0.68,5.198,0.218,-0.205,0,0,0,269.81,0,0,0,0,0,0,0,0,0,0,0,0,0,3,3,329.37,FLYING
330.66,APPROACH,ILS_TRACK,79.46,80,0.54,400.19,-4.39,5.3,8.3,89.11,-0.038,0.2552,20,89.22,-3.204,-8.63,0.68,5.084,0.22,-0.204,0,0,0,269.81,0,0,0,0,0,0,0,0,0,0,0,0,0,3,3,330.73,FLYING
332.03,APPROACH,ILS_TRACK,79.51,80,0.49,394.19,-4.39,5.28,8.28,89.1,-0.044,0.2503,20,89.22,-3.203,-8.4,0.68,4.969,0.22,-0.203,0,0,0,269.81,0,0,0,0,0,0,0,0,0,0,0,0,0,3,3,332.1,FLYING
333.39,APPROACH,ILS_TRACK,79.57,80,0.43,388.2,-4.39,5.26,8.26,89.09,-0.048,0.244,20,89.22,-3.202,-8.19,0.68,4.855,0.221,-0.202,0,0,0,269.81,0,0,0,0,0,0,0,0,0,0,0,0,0,3,3,333.46,FLYING
334.76,APPROACH,ILS_TRACK,79.64,80,0.36,382.2,-4.39,5.24,8.24,89.09,-0.053,0.2372,20,89.22,-3.201,-7.99,0.68,4.741,0.222,-0.201,0,0,0,269.81,0,0,0,0,0,0,0,0,0,0,0,0,0,3,3,334.83,FLYING
336.12,APPROACH,ILS_TRACK,79.71,80,0.29,376.19,-4.4,5.22,8.22,89.08,-0.059,0.2312,20,89.22,-3.2,-7.81,0.68,4.626,0.223,-0.2,0,0,0,269.81,0,0,0,0,0,0,0,0,0,0,0,0,0,3,3,336.19,FLYING
337.49,APPROACH,ILS_TRACK,79.76,80,0.24,370.19,-4.4,5.21,8.21,89.08,-0.063,0.2281,20,89.22,-3.2,-7.65,0.67,4.511,0.223,-0.2,0,0,0,269.81,0,0,0,0,0,0,0,0,0,0,0,0,0,3,3,337.56,FLYING
338.85,APPROACH,ILS_TRACK,79.79,80,0.21,364.18,-4.4,5.2,8.2,89.07,-0.064,0.2288,20,89.22,-3.199,-7.49,0.67,4.397,0.223,-0.199,0,0,0,269.81,0,0,0,0,0,0,0,0,0,0,0,0,0,3,3,338.92,FLYING
340.22,APPROACH,ILS_TRACK,79.79,80,0.21,358.17,-4.4,5.21,8.21,89.07,-0.069,0.2325,20,89.22,-3.197,-7.35,0.67,4.282,0.223,-0.197,0,0,0,269.81,0,0,0,0,0,0,0,0,0,0,0,0,0,3,3,340.29,FLYING
341.58,APPROACH,ILS_TRACK,79.78,80,0.22,352.17,-4.4,5.21,8.21,89.06,-0.072,0.237,20,89.22,-3.194,-7.22,0.67,4.168,0.224,-0.194,0,0,0,269.81,0,0,0,0,0,0,0,0,0,0,0,0,0,3,3,341.65,FLYING
342.95,APPROACH,ILS_TRACK,79.78,80,0.22,346.17,-4.4,5.21,8.21,89.06,-0.076,0.2407,20,89.22,-3.19,-7.1,0.66,4.053,0.223,-0.19,0,0,0,269.81,0,0,0,0,0,0,0,0,0,0,0,0,0,3,3,343.02,FLYING
344.31,APPROACH,ILS_TRACK,79.78,80,0.22,340.16,-4.4,5.21,8.21,89.05,-0.078,0.2429,20,89.22,-3.188,-6.99,0.66,3.939,0.223,-0.188,0,0,0,269.81,0,0,0,0,0,0,0,0,0,0,0,0,0,3,3,344.38,FLYING
345.68,APPROACH,ILS_TRACK,79.79,80,0.21,334.16,-4.39,5.2,8.21,89.05,-0.079,0.2435,20,89.22,-3.186,-6.88,0.65,3.825,0.223,-0.186,0,0,0,269.81,0,0,0,0,0,0,0,0,0,0,0,0,0,3,3,345.75,FLYING
347.04,APPROACH,ILS_TRACK,79.8,80,0.2,328.16,-4.39,5.2,8.2,89.05,-0.082,0.2427,20,89.22,-3.184,-6.79,0.64,3.71,0.223,-0.184,0,0,0,269.81,0,0,0,0,0,0,0,0,0,0,0,0,0,3,3,347.11,FLYING
348.41,APPROACH,ILS_TRACK,79.83,80,0.17,322.17,-4.39,5.19,8.19,89.05,-0.083,0.2406,20,89.22,-3.183,-6.7,0.64,3.596,0.222,-0.183,0,0,0,269.81,0,0,0,0,0,0,0,0,0,0,0,0,0,3,3,348.48,FLYING
349.77,APPROACH,ILS_TRACK,79.86,80,0.14,316.17,-4.39,5.18,8.18,89.04,-0.085,0.2377,20,89.22,-3.183,-6.61,0.63,3.481,0.222,-0.183,0,0,0,269.81,0,0,0,0,0,0,0,0,0,0,0,0,0,3,3,349.84,FLYING
350.97,APPROACH,ILS_TRACK,79.89,80,0.11,310.91,-4.39,5.16,8.16,89.04,-0.088,0.2348,20,89.23,-3.183,-6.54,0.63,3.377,0.225,-0.183,0,0,0,269.81,0,0,0,0,0,0,0,0,0,0,0,0,0,3,3,351.02,FLYING
351.95,APPROACH,ILS_TRACK,79.92,80,0.08,306.58,-4.39,5.16,8.16,89.04,-0.09,0.2329,20,89.23,-3.183,-6.48,0.63,3.294,0.231,-0.183,0,0,0,269.81,0,0,0,0,0,0,0,0,0,0,0,0,0,3,3,352,FLYING
352.93,APPROACH,ILS_TRACK,79.94,80,0.06,302.29,-4.39,5.15,8.15,89.04,-0.092,0.2314,20,89.23,-3.181,-6.43,0.62,3.212,0.231,-0.181,0,0,0,269.81,0,0,0,0,0,0,0,0,0,0,0,0,0,3,3,352.98,FLYING
353.9,APPROACH,ILS_TRACK,79.96,80,0.04,298,-4.4,5.14,8.14,89.04,-0.094,0.2305,20,89.23,-3.179,-6.38,0.62,3.13,0.23,-0.179,0,0,0,269.81,0,0,0,0,0,0,0,0,0,0,0,0,0,3,3,353.95,FLYING
354.88,APPROACH,ILS_TRACK,79.98,80,0.02,293.72,-4.39,5.14,8.14,89.04,-0.096,0.2303,20,89.23,-3.178,-6.33,0.61,3.048,0.229,-0.178,0,0,0,269.81,0,0,0,0,0,0,0,0,0,0,0,0,0,3,3,354.93,FLYING
355.85,APPROACH,ILS_TRACK,79.99,80,0.01,289.43,-4.39,5.14,8.14,89.04,-0.097,0.2307,20,89.23,-3.176,-6.29,0.61,2.967,0.228,-0.176,0,0,0,269.81,0,0,0,0,0,0,0,0,0,0,0,0,0,3,3,355.9,FLYING
356.83,APPROACH,ILS_TRACK,80,80,0,285.15,-4.39,5.14,8.14,89.04,-0.099,0.2315,20,89.23,-3.175,-6.24,0.61,2.885,0.226,-0.175,0,0,0,269.81,0,0,0,0,0,0,0,0,0,0,0,0,0,3,3,356.88,FLYING
357.8,APPROACH,ILS_TRACK,80,80,0,280.86,-4.39,5.13,8.14,89.04,-0.1,0.2322,19.998,89.23,-3.174,-6.19,0.6,2.803,0.225,-0.174,0,0,0,269.81,0,0,0,0,0,0,0,0,0,0,0,0,0,3,3,357.85,FLYING
358.8,APPROACH,ILS_TRACK,80.01,80,-0.01,276.47,-4.39,5.13,8.13,89.04,-0.102,0.2327,19.994,89.22,-3.172,-6.15,0.6,2.72,0.223,-0.172,0,0,0,269.81,0,0,0,0,0,0,0,0,0,0,0,0,0,3,3,358.85,FLYING
359.78,APPROACH,ILS_TRACK,80.02,80,-0.02,272.19,-4.39,5.13,8.13,89.04,-0.103,0.2328,19.985,89.22,-3.17,-6.1,0.59,2.638,0.222,-0.17,0,0,0,269.81,0,0,0,0,0,0,0,0,0,0,0,0,0,3,3,359.83,FLYING
360.78,APPROACH,ILS_TRACK,80.03,80,-0.03,267.79,-4.39,5.13,8.13,89.04,-0.104,0.2326,19.972,89.22,-3.167,-6.06,0.59,2.554,0.219,-0.167,0,0,0,269.81,0,0,0,0,0,0,0,0,0,0,0,0,0,3,3,360.83,FLYING
361.78,APPROACH,ILS_TRACK,80.04,80,-0.04,263.4,-4.39,5.12,8.12,89.04,-0.105,0.232,19.954,89.22,-3.165,-6.01,0.58,2.471,0.218,-0.165,0,0,0,269.81,0,0,0,0,0,0,0,0,0,0,0,0,0,3,3,361.83,FLYING
362.78,APPROACH,ILS_TRACK,80.05,80,-0.05,259.01,-4.39,5.12,8.12,89.04,-0.106,0.2311,19.93,89.22,-3.162,-5.96,0.57,2.387,0.215,-0.162,0,0,0,269.81,0,0,0,0,0,0,0,0,0,0,0,0,0,3,3,362.83,FLYING
363.78,APPROACH,ILS_TRACK,80.06,80,-0.06,254.61,-4.39,5.11,8.12,89.04,-0.107,0.2302,19.901,89.21,-3.16,-5.92,0.57,2.303,0.213,-0.16,0,0,0,269.81,0,0,0,0,0,0,0,0,0,0,0,0,0,3,3,363.83,FLYING
364.75,APPROACH,ILS_TRACK,80.07,80,-0.07,250.33,-4.39,5.11,8.11,89.04,-0.108,0.2294,19.866,89.21,-3.159,-5.87,0.56,2.222,0.212,-0.159,0,0,0,269.81,0,0,0,0,0,0,0,0,0,0,0,0,0,3,3,364.8,FLYING
365.73,APPROACH,ILS_TRACK,80.08,80,-0.08,246.05,-4.39,5.11,8.11,89.04,-0.108,0.2288,19.827,89.21,-3.157,-5.82,0.56,2.14,0.209,-0.157,0,0,0,269.81,0,0,0,0,0,0,0,0,0,0,0,0,0,3,3,365.78,FLYING
366.7,APPROACH,ILS_TRACK,80.08,80,-0.08,241.77,-4.39,5.11,8.11,89.04,-0.108,0.2284,19.785,89.21,-3.155,-5.77,0.55,2.058,0.207,-0.155,0,0,0,269.81,0,0,0,0,0,0,0,0,0,0,0,0,0,3,3,366.75,FLYING
367.68,APPROACH,ILS_TRACK,80.09,80,-0.09,237.49,-4.39,5.11,8.11,89.04,-0.108,0.2283,19.742,89.2,-3.154,-5.73,0.54,1.977,0.204,-0.154,0,0,0,269.81,0,0,0,0,0,0,0,0,0,0,0,0,0,3,3,367.73,FLYING
368.65,APPROACH,ILS_TRACK,80.09,80,-0.09,233.21,-4.39,5.11,8.11,89.05,-0.108,0.2285,19.698,89.2,-3.153,-5.68,0.54,1.895,0.202,-0.153,0,0,0,269.81,0,0,0,0,0,0,0,0,0,0,0,0,0,3,3,368.7,FLYING
369.63,APPROACH,ILS_TRACK,80.09,80,-0.09,228.93,-4.39,5.11,8.11,89.05,-0.106,0.2288,19.654,89.2,-3.152,-5.62,0.53,1.814,0.199,-0.152,0,0,0,269.81,0,0,0,0,0,0,0,0,0,0,0,0,0,3,3,369.68,FLYING
370.6,APPROACH,ILS_TRACK,80.09,80,-0.09,224.66,-4.38,5.11,8.11,89.05,-0.105,0.229,19.611,89.2,-3.152,-5.57,0.53,1.732,0.197,-0.152,0,0,0,269.81,0,0,0,0,0,0,0,0,0,0,0,0,0,3,3,370.65,FLYING
371.58,APPROACH,ILS_TRACK,80.08,80,-0.08,220.39,-4.38,5.11,8.12,89.05,-0.104,0.2292,19.569,89.19,-3.152,-5.52,0.53,1.651,0.195,-0.152,0,0,0,269.81,0,0,0,0,0,0,0,0,0,0,0,0,0,3,3,371.63,FLYING
372.55,APPROACH,ILS_TRACK,80.08,80,-0.08,216.11,-4.38,5.11,8.11,89.05,-0.104,0.2292,19.528,89.19,-3.153,-5.47,0.52,1.569,0.193,-0.153,0,0,0,269.81,0,0,0,0,0,0,0,0,0,0,0,0,0,3,3,372.6,FLYING
373.53,APPROACH,ILS_TRACK,80.08,80,-0.08,211.85,-4.38,5.11,8.11,89.05,-0.102,0.229,19.487,89.19,-3.154,-5.42,0.52,1.488,0.19,-0.154,0,0,0,269.81,0,0,0,0,0,0,0,0,0,0,0,0,0,3,3,373.58,FLYING
374.5,APPROACH,ILS_TRACK,80.08,80,-0.08,207.58,-4.38,5.11,8.12,89.05,-0.1,0.2287,19.446,89.19,-3.154,-5.36,0.52,1.407,0.188,-0.154,0,0,0,269.81,0,0,0,0,0,0,0,0,0,0,0,0,0,3,3,374.55,FLYING
375.48,APPROACH,ILS_TRACK,80.08,80,-0.08,203.31,-4.37,5.12,8.12,89.05,-0.098,0.2282,19.405,89.19,-3.155,-5.31,0.52,1.325,0.187,-0.155,0,0,0,269.81,0,0,0,0,0,0,0,0,0,0,0,0,0,3,3,375.53,FLYING
376.45,APPROACH,ILS_TRACK,80.08,80,-0.08,199.05,-4.37,5.12,8.11,89.05,-0.096,0.2278,19.363,89.18,-3.157,-5.26,0.52,1.244,0.185,-0.157,0,0,0,269.81,0,0,0,0,0,0,0,0,0,0,0,0,0,3,3,376.5,FLYING
377.43,APPROACH,ILS_TRACK,80.08,80,-0.08,194.79,-4.37,5.12,8.11,89.05,-0.095,0.2274,19.322,89.18,-3.158,-5.21,0.52,1.162,0.183,-0.158,0,0,0,269.81,0,0,0,0,0,0,0,0,0,0,0,0,0,3,3,377.48,FLYING
378.4,APPROACH,ILS_TRACK,80.08,80,-0.08,190.53,-4.37,5.12,8.12,89.04,-0.095,0.2272,19.282,89.18,-3.158,-5.16,0.52,1.081,0.182,-0.158,0,0,0,269.81,0,0,0,0,0,0,0,0,0,0,0,0,0,3,3,378.45,FLYING
379.38,APPROACH,ILS_TRACK,80.08,80,-0.08,186.27,-4.37,5.12,8.12,89.04,-0.094,0.227,19.242,89.18,-3.159,-5.11,0.52,1,0.18,-0.159,0,0,0,269.81,0,0,0,0,0,0,0,0,0,0,0,0,0,3,3,379.43,FLYING
380.38,APPROACH,ILS_TRACK,80.08,80,-0.08,181.9,-4.37,5.12,8.12,89.04,-0.094,0.2271,19.204,89.18,-3.16,-5.06,0.53,0.916,0.178,-0.16,0,0,0,269.81,0,0,0,0,0,0,0,0,0,0,0,0,0,3,3,380.43,FLYING
381.35,APPROACH,ILS_TRACK,80.07,80,-0.07,176.92,-4.37,5.12,8.12,89.04,-0.093,0.2271,19.168,89.18,-3.161,-5.02,0.53,0.835,0.178,-0.161,0,0,0,269.81,0,0,0,0,0,0,0,0,0,0,0,0,0,3,3,381.4,FLYING
382.33,APPROACH,ILS_TRACK,80.07,80,-0.07,148.02,-4.36,5.12,8.12,89.04,-0.093,0.2272,19.134,89.18,-3.162,-4.97,0.53,0.754,0.177,-0.162,0,0,0,269.81,0,0,0,0,0,0,0,0,0,0,0,0,0,3,3,382.38,FLYING
383.3,APPROACH,ILS_TRACK,80.06,80,-0.06,138.03,-4.36,5.12,8.12,89.04,-0.092,0.2272,19.102,89.18,-3.162,-4.93,0.53,0.673,0.176,-0.162,0,0,0,269.81,0,0,0,0,0,0,0,0,0,0,0,0,0,3,3,383.35,FLYING
384.28,APPROACH,ILS_TRACK,80.06,80,-0.06,117.28,-4.36,5.12,8.12,89.04,-0.092,0.2272,19.072,89.18,-3.162,-4.89,0.53,0.592,0.175,-0.162,0,0,0,269.81,0,0,0,0,0,0,0,0,0,0,0,0,0,3,3,384.33,FLYING
385.25,APPROACH,ILS_TRACK,80.06,80,-0.06,97.99,-4.36,5.12,8.12,89.04,-0.092,0.2271,19.044,89.17,-3.163,-4.85,0.53,0.51,0.175,-0.163,0,0,0,269.81,0,0,0,0,0,0,0,0,0,0,0,0,0,3,3,385.3,FLYING
386.23,APPROACH,ILS_TRACK,80.05,80,-0.05,84.5,-4.36,5.13,8.12,89.04,-0.091,0.2269,19.017,89.17,-3.163,-4.81,0.54,0.429,0.174,-0.163,0,0,0,269.81,0,0,0,0,0,0,0,0,0,0,0,0,0,3,3,386.28,FLYING
387.2,APPROACH,ILS_TRACK,80.05,80,-0.05,71.28,-4.36,5.13,8.13,89.04,-0.091,0.2267,18.992,89.17,-3.163,-4.78,0.54,0.348,0.173,-0.163,0,0,0,269.81,0,0,0,0,0,0,0,0,0,0,0,0,0,3,3,387.25,FLYING
388.18,APPROACH,ILS_TRACK,80.05,79.6,-0.45,32.21,-4.36,5.13,8.13,89.03,-0.091,0.2041,18.767,89.17,-3.163,-4.75,0.54,0.267,0.173,-0.163,0,0,0,269.81,0,0,0,0,0,0,0,0,0,0,0,0,0,3,3,388.23,FLYING
389.15,APPROACH,ILS_TRACK,80.03,79.2,-0.83,10.44,-4.36,5.14,8.14,89.03,-0.091,0.1809,18.35,89.17,-3.165,-4.71,0.54,0.186,0.173,-0.165,0,0,0,269.81,0,0,0,0,0,0,0,0,0,0,0,0,0,3,3,389.2,FLYING
390.15,FLARE,,79.97,80,0.03,6.17,-4.36,5.18,8.18,89.03,-0.091,0.162,17.761,89.17,-3.169,-4.68,0.54,0.105,0.172,-0.169,-3.116,0,0,269.81,0,0,0,0,0,0,0,0,0,0,0,0,0,3,3,0.07,FLYING
391,FLARE,,79.43,80,0.57,4.37,0.74,2.12,1.63,89.01,-0.054,0.1379,16.546,89,-3.137,-4.68,0.54,0.105,0.172,-0.169,-3.137,-2.5,0.305,269.81,0,0,0,0,0,0,0,0,0,0,0,0,0,3,3,0.92,FLYING
391.78,FLARE,,79.59,80,0.41,4.34,1.39,4.03,2.99,89.01,-0.042,0.0856,15.249,89,-3.131,-4.68,0.54,0.105,0.172,-0.169,-3.131,-2.5,0.341,269.81,0,0,0,0,0,0,0,0,0,0,0,0,0,3,3,1.7,LANDED
392.55,FLARE,,79.45,80,0.55,4.95,-0.53,7,7.28,88.99,-0.014,0.0773,13.996,89,-2.4,-4.68,0.54,0.105,0.172,-0.169,-2.4,-2.5,0.213,269.81,0,0,0,0,0,0,0,0,0,0,0,0,0,3,3,2.47,FLYING
393.33,FLARE,,78.89,80,1.11,4.98,-0.14,7.23,7.29,88.97,0.029,0.1367,13.004,89,-1.813,-4.68,0.54,0.105,0.172,-0.169,-1.813,-2.5,0.206,269.81,0,0,0,0,0,0,0,0,0,0,0,0,0,3,3,3.25,FLYING
394.1,FLARE,,78.23,80,1.77,5.05,-0.03,7.75,7.77,88.96,0.05,0.2095,12.334,89,-1.828,-4.68,0.54,0.105,0.172,-0.169,-1.828,-2.5,0.193,269.81,0,0,0,0,0,0,0,0,0,0,0,0,0,3,3,4.02,FLYING
394.88,FLARE,,77.53,80,2.47,5.14,0.05,8.27,8.24,88.95,0.085,0.284,12.011,89,-1.844,-4.68,0.54,0.105,0.172,-0.169,-1.844,-2.5,0.181,269.81,0,0,0,0,0,0,0,0,0,0,0,0,0,3,3,4.8,FLYING
395.65,FLARE,,76.82,80,3.18,5.22,0.09,8.77,8.71,88.93,0.043,0.3569,12.045,89,-2.547,-4.68,0.54,0.105,0.172,-0.169,-2.547,-2.5,0.171,269.81,0,0,0,0,0,0,0,0,0,0,0,0,0,3,3,5.57,LANDED
396.45,TOUCHDOWN,,76.1,80,3.9,5.22,0.14,8.88,8.79,88.92,0.026,0.4282,12.44,89,-1.879,-4.68,0.54,0.105,0.172,-0.169,-1.879,-2.5,0.171,269.81,0,0,0,0,0,0,0,0,0,0,0,0,0,3,3,0.05,LANDED
397.4,ROLLOUT,,75.42,80,4.58,4.93,-0.08,7.3,7.4,88.9,-0.046,0,12.44,89,-1.879,-4.68,0.54,0.105,0.172,-0.169,-1.879,-2.5,0.171,269.81,0,0,0,0,0,0,0,0,0.1157,8.888,1.446,0,0,3,3,0.07,LANDED
398.45,ROLLOUT,,74.31,80,5.69,4,-0.15,2.43,2.68,88.89,-0.01,1,12.44,89,-1.879,-4.68,0.54,0.105,0.172,-0.169,-1.879,-2.5,0.171,88.98,0.407,0.102,-0.09,0.0018,0.407,0,0.0018,0,0.35,8.888,6.315,0,0,3,3,1.12,LANDED
399.45,ROLLOUT,,72.77,80,7.23,3.85,0.07,1.76,1.61,89.11,0.179,1,12.44,89,-1.879,-4.68,0.54,0.105,0.172,-0.169,-1.879,-2.5,0.171,88.99,0.435,0.105,0.101,-0.0022,0.435,0,-0.0022,0,0.35,8.888,7.195,0,0,3,3,2.12,LANDED
400.45,ROLLOUT,,70.47,80,9.53,4.13,0.02,3.15,3.11,89.21,-0.107,1,12.44,89,-1.879,-4.68,0.54,0.105,0.172,-0.169,-1.879,-2.5,0.171,89,0.478,0.101,0.209,-0.005,0.478,0,-0.005,0,0.35,8.888,5.751,0,0,3,3,3.12,LANDED
401.45,ROLLOUT,,67.96,80,12.04,4.05,0.01,2.72,2.73,89.22,0.034,1,12.44,89,-1.879,-4.68,0.54,0.105,0.172,-0.169,-1.879,-2.5,0.171,89,0.528,0.095,0.222,-0.0059,0.528,0,-0.0059,0,0.35,8.888,6.137,0,0,3,3,4.12,LANDED
402.45,ROLLOUT,,65.04,80,14.96,3.59,0.04,0.31,0.21,89.14,-0.073,1,12.44,89,-1.879,-4.68,0.54,0.105,0.172,-0.169,-1.879,-2.5,0.171,89.01,0.581,0.09,0.183,-0.0053,0.581,0,-0.0053,0,0.35,8.888,8.609,0,0,3,3,5.12,LANDED
403.48,ROLLOUT,,61.25,80,18.75,3.62,0.08,0.57,0.47,88.34,-0.185,1,12.44,89,-1.879,-4.68,0.54,0.105,0.172,-0.169,-1.879,-2.5,0.171,89.03,0.657,0.095,-0.684,0.0225,0.657,0,0.0225,0,0.35,8.888,8.342,0,0,3,3,6.15,LANDED
404.5,ROLLOUT,,57.54,80,22.46,3.63,0.06,0.66,0.61,89.2,0.376,1,12.44,89,-1.879,-4.68,0.54,0.105,0.172,-0.169,-1.879,-2.5,0.171,89.05,0.733,0.105,0.074,-0.0027,0.733,0,-0.0027,0,0.35,8.888,8.226,0,0,3,3,7.17,LANDED
405.53,ROLLOUT,,53.78,80,26.22,3.62,0.06,0.6,0.54,89.3,-0.245,1,12.44,89,-1.879,-4.68,0.54,0.105,0.172,-0.169,-1.879,-2.5,0.171,89.06,0.808,0.096,0.301,-0.0122,0.808,0,-0.0122,0,0.35,8.888,8.287,0,0,3,3,8.2,LANDED
