t_s,phase,subphase,ias_ms,vapp_ms,spd_err_ms,agl_m,vs_ms,pitch_deg,aoa_deg,hdg_deg,bank_deg,thr_cmd,thr_cur,thr_intg,at_gain,at_tau_s,at_a_up,at_a_dn,at_kp_thr,at_ki_spd,at_thr_slew,aa_hdg_cmd_deg,aa_fpa_cmd_deg,aa_fbw,aa_dir,actual_fpa_deg,ftf_hdg_err_deg,ftf_fix_idx,kos_steer_pit_deg,kos_steer_hdg_deg,aa_dir_vx,aa_dir_vy,aa_dir_vz,aa_dir_pitch_deg,aa_dir_hdg_deg,ils_loc_m,ils_gs_m,ils_dist_km,loc_corr_deg,gs_corr_deg,flare_fpa_cmd,flare_tgt_vs,flare_frac,steer_hdg_deg,steer_blend,ro_loc_corr_deg,ro_hdg_err_deg,ro_yaw_tgt,ro_yaw_scale,ro_yaw_gate,yaw_cmd,roll_cmd,pitch_cmd,ro_pitch_tgt_deg,ro_pitch_err_deg,ro_pitch_ff,ro_roll_assist,flaps_cur,flaps_tgt,asc_j_ab,asc_j_rk,asc_validity,asc_q_pa,asc_q_raw_pa,asc_mach,asc_apo_m,asc_drag_n,asc_w_prop,asc_edot_aero,asc_edot_orb,asc_pitch_bias,asc_blend,asc_spooling,asc_ab_thr_ratio,asc_ab_t_now,asc_ab_t_avail,asc_ab_ign_on,asc_ab_flameouts,asc_rk_t_now,asc_rk_t_avail,asc_rk_ign_on,asc_rk_flameouts,ship_thrust,ship_avail_thrust,ship_ign_on,ship_flameouts,ifc_raw_dt_s,ifc_dt_s,ifc_loop_n,ifc_hz_est,ifc_raw_dt_max_s,ifc_raw_dt_min_s,phase_el_s,status,craft_name,cfg_file
0.12,TAKEOFF,TO_PREFLIGHT,0.31,80,79.69,3.75,0.06,0.82,-0.06,90.23,0.091,0.04,0,0,0,0,0,0,0,0,0,90.4,0,1,0,0.26,0,0,0,90,0,0,0,0,0,0,0,0,0,0,0,0,0,90.4,1,0,-0.168,0,0,1,0,0,0,0,0,0,0,0,1,0,0,VALID,0,0,0,0,0,1,0,0,0,0,0,0,0,0,0,0,0,0,0,0,0,521.94,2,0,0.1,0.1,1,3.45,0.1,0.02,0.02,PRELAUNCH,CF1-F,0:/Integrated Flight Computer/aircraft/cf1_f_cfg.ks (inferred preloaded)
0.38,TAKEOFF,TO_PREFLIGHT,0.3,80,79.7,3.56,0.03,-0.5,-3.54,90.25,0.089,0.112,0,0,0,0,0,0,0,0,0,90.4,0,1,0,2,0,0,0,90,0,0,0,0,0,0,0,0,0,0,0,0,0,90.4,1,0,-0.163,0,0,1,0,0,0,0,0,0,0,1,1,0,0,VALID,0,0,0,0,0,1,0,0,0,0,0,0,0,0,0,0,0,0,0,0,0.35,521.94,2,0,0.04,0.04,6,19.23,0.1,0.04,0.28,PRELAUNCH,CF1-F,0:/Integrated Flight Computer/aircraft/cf1_f_cfg.ks (inferred preloaded)
0.64,TAKEOFF,TO_PREFLIGHT,0.3,80,79.7,3.71,0.02,0.55,30.05,90.26,0.103,0.216,0,0,0,0,0,0,0,0,0,90.4,0,1,0,1.26,0,0,0,90,0,0,0,0,0,0,0,0,0,0,0,0,0,90.4,1,0,-0.163,0,0,1,0,0,0,0,0,0,0,1,1,0,0,VALID,0,0,0,0,0,1,0,0,0,0,0,0,0,0,0,0,0,0,0,0,1.45,521.94,2,0,0.04,0.04,11,19.23,0.08,0.04,0.54,PRELAUNCH,CF1-F,0:/Integrated Flight Computer/aircraft/cf1_f_cfg.ks (inferred preloaded)
0.9,TAKEOFF,TO_PREFLIGHT,0.11,80,79.89,3.82,-0.22,1.04,83.78,90.27,0.113,0.32,0,0,0,0,0,0,0,0,0,90.4,0,1,0,-12.35,0,0,0,90,0,0,0,0,0,0,0,0,0,0,0,0,0,90.4,1,0,-0.163,0,0,1,0,0,0,0,0,0,0,1,1,0,0,VALID,0,0,0,0,0,1,0,0,0,0,0,0,0,0,0,0,0,0,0,0,3.38,521.98,2,0,0.04,0.04,16,19.23,0.08,0.04,0.8,PRELAUNCH,CF1-F,0:/Integrated Flight Computer/aircraft/cf1_f_cfg.ks (inferred preloaded)
1.16,TAKEOFF,TO_PREFLIGHT,0.05,80,79.95,3.79,0.1,0.86,-59.26,90.28,0.091,0.424,0,0,0,0,0,0,0,0,0,90.4,0,1,0,5.75,0,0,0,90,0,0,0,0,0,0,0,0,0,0,0,0,0,90.4,1,0,-0.163,0,0,1,0,0,0,0,0,0,0,1,1,0,0,VALID,0,0,0,0,0,1,0,0,0,0,0,0,0,0,0,0,0,0,0,0,6.11,522,2,0,0.04,0.04,21,19.23,0.08,0.04,1.06,PRELAUNCH,CF1-F,0:/Integrated Flight Computer/aircraft/cf1_f_cfg.ks (inferred preloaded)
1.42,TAKEOFF,TO_PREFLIGHT,0.15,80,79.85,3.69,0.03,0.36,1.73,90.3,0.08,0.528,0,0,0,0,0,0,0,0,0,90.4,0,1,0,1.72,0,0,0,90,0,0,0,0,0,0,0,0,0,0,0,0,0,90.4,1,0,-0.163,0,0,1,0,0,0,0,0,0,0,1,1,0,0,VALID,0,0,0,0,0,1,0,0,0,0,0,0,0,0,0,0,0,0,0,0,9.65,521.97,2,0,0.04,0.04,26,19.23,0.08,0.04,1.32,PRELAUNCH,CF1-F,0:/Integrated Flight Computer/aircraft/cf1_f_cfg.ks (inferred preloaded)
1.68,TAKEOFF,TO_PREFLIGHT,0.17,80,79.83,3.6,-0.07,-0.19,25.42,90.32,0.095,0.632,0,0,0,0,0,0,0,0,0,90.4,0,1,0,-4.28,0,0,0,90,0,0,0,0,0,0,0,0,0,0,0,0,0,90.4,1,0,-0.163,0,0,1,0,0,0,0,0,0,0,1,1,0,0,VALID,0,0,0,0,0,1,0,0,0,0,0,0,0,0,0,0,0,0,0,0,13.96,521.97,2,0,0.04,0.04,31,19.23,0.08,0.04,1.58,PRELAUNCH,CF1-F,0:/Integrated Flight Computer/aircraft/cf1_f_cfg.ks (inferred preloaded)
1.94,TAKEOFF,TO_PREFLIGHT,0.03,80,79.97,3.64,-0.09,0.11,39.41,90.33,0.112,0.736,0,0,0,0,0,0,0,0,0,90.4,0,1,0,-5.2,0,0,0,90,0,0,0,0,0,0,0,0,0,0,0,0,0,90.4,1,0,-0.163,0,0,1,0,0,0,0,0,0,0,1,1,0,0,VALID,0,0,0,0,0,1,0,0,0,0,0,0,0,0,0,0,0,0,0,0,19.06,522,2,0,0.04,0.04,36,19.23,0.08,0.04,1.84,PRELAUNCH,CF1-F,0:/Integrated Flight Computer/aircraft/cf1_f_cfg.ks (inferred preloaded)
2.26,TAKEOFF,TO_PREFLIGHT,0.07,80,79.93,3.69,0.16,0.34,-82.5,90.34,0.097,0.864,0,0,0,0,0,0,0,0,0,90.4,0,1,0,8.96,0,0,0,90,0,0,0,0,0,0,0,0,0,0,0,0,0,90.4,1,0,-0.163,0,0,1,0,0,0,0,0,0,0,1,1,0,0,VALID,0,0,0,0,0,1,0,0,0,0,0,0,0,0,0,0,0,0,0,0,26.37,521.99,2,0,0.08,0.08,41,15.63,0.08,0.04,2.16,PRELAUNCH,CF1-F,0:/Integrated Flight Computer/aircraft/cf1_f_cfg.ks (inferred preloaded)
2.54,TAKEOFF,TO_PREFLIGHT,0.06,80,79.94,3.67,-0.03,0.29,44.16,90.35,0.083,0.976,0,0,0,0,0,0,0,0,0,90.4,0,1,0,-1.52,0,0,0,90,0,0,0,0,0,0,0,0,0,0,0,0,0,90.4,1,0,-0.163,0,0,1,0,0,0,0,0,0,0,1,1,0,0,VALID,0,0,0,0,0,1,0,0,0,0,0,0,0,0,0,0,0,0,0,0,33.67,521.99,2,0,0.08,0.08,45,14.29,0.08,0.06,2.44,PRELAUNCH,CF1-F,0:/Integrated Flight Computer/aircraft/cf1_f_cfg.ks (inferred preloaded)
2.82,TAKEOFF,TO_PREFLIGHT,0.08,80,79.92,3.63,-0.1,0.01,34.46,90.37,0.092,1,0,0,0,0,0,0,0,0,0,90.4,0,1,0,-5.83,0,0,0,90,0,0,0,0,0,0,0,0,0,0,0,0,0,90.4,1,0,-0.163,0,0,1,0,0,0,0,0,0,0,1,1,0,0,VALID,0,0,0,0,0,1,0,0,0,0,0,0,0,0,0,0,0,0,0,0,41.7,521.98,2,0,0.08,0.08,49,14.29,0.08,0.06,2.72,PRELAUNCH,CF1-F,0:/Integrated Flight Computer/aircraft/cf1_f_cfg.ks (inferred preloaded)
3.1,TAKEOFF,TO_PREFLIGHT,0.05,80,79.95,3.63,0,0.06,-66.96,90.39,0.11,1,0,0,0,0,0,0,0,0,0,90.4,0,1,0,0.12,0,0,0,90,0,0,0,0,0,0,0,0,0,0,0,0,0,90.4,1,0,-0.163,0,0,1,0,0,0,0,0,0,0,1,1,0,0,VALID,0,0,0,0,0,1,0,0,0,0,0,0,0,0,0,0,0,0,0,0,49.71,521.99,2,0,0.08,0.08,53,14.29,0.08,0.06,3,PRELAUNCH,CF1-F,0:/Integrated Flight Computer/aircraft/cf1_f_cfg.ks (inferred preloaded)
3.38,TAKEOFF,TO_GROUND_ROLL,0.04,80,79.96,3.64,0.01,0.14,-3.94,90.4,0.116,1,0,0,0,0,0,0,0,0,0,90.39,0,1,0,0.55,0,0,0,90,0,0,0,0,0,0,0,0,0,0,0,0,0,90.39,1,0,0.009,0,0,3,0,0,0,0,0,0,0,1,1,0,0,VALID,0,0,0,0,0,1,0,0,0,0,0,0,0,0,0,0,0,0,0,0,57.58,522,2,0,0.08,0.08,57,14.29,0.08,0.06,3.3,PRELAUNCH,CF1-F,0:/Integrated Flight Computer/aircraft/cf1_f_cfg.ks (inferred preloaded)
3.66,TAKEOFF,TO_GROUND_ROLL,0.24,80,79.76,3.65,-0.01,0.19,1.31,90.42,0.106,1,0,0,0,0,0,0,0,0,0,90.39,0,1,0,-0.44,0,0,0,90,0,0,0,0,0,0,0,0,0,0,0,0,0,90.39,1,0,0.028,0,0,3,0,0,0,0,0,0,0,1,1,0,0,VALID,0,0,0,0,0,1,0,0,0,0,0,0,0,0,0,0,0,0,0,0,65.32,521.95,2,0,0.08,0.08,61,14.29,0.08,0.06,3.58,PRELAUNCH,CF1-F,0:/Integrated Flight Computer/aircraft/cf1_f_cfg.ks (inferred preloaded)
3.94,TAKEOFF,TO_GROUND_ROLL,0.52,80,79.48,3.65,0,0.21,0.22,90.44,0.093,1,0,0,0,0,0,0,0,0,0,90.38,0,1,0,-0.02,0,0,0,90,0,0,0,0,0,0,0,0,0,0,0,0,0,90.38,1,0,0.053,0,0,3,0,0,0,0,0,0,0,1,1,0,0,VALID,0,0,0,0,0,1,0,0,0,0,0,0,0,0,0,0,0,0,0,0,72.92,521.88,2,0,0.08,0.08,65,14.29,0.08,0.06,3.86,PRELAUNCH,CF1-F,0:/Integrated Flight Computer/aircraft/cf1_f_cfg.ks (inferred preloaded)
4.22,TAKEOFF,TO_GROUND_ROLL,0.82,80,79.18,3.65,-0.01,0.22,0.61,90.46,0.091,1,0,0,0,0,0,0,0,0,0,90.38,0,1,0,-0.37,0,0,0,90,0,0,0,0,0,0,0,0,0,0,0,0,0,90.38,1,0,0.084,0,0,3,0,0,0,0,0,0,0,1,1,0,0,VALID,0,0,0,0,0,1,0,0,0,0,0,0,0,0,0,0,0,0,0,0,80.39,521.8,2,0,0.08,0.08,69,14.29,0.08,0.06,4.14,PRELAUNCH,CF1-F,0:/Integrated Flight Computer/aircraft/cf1_f_cfg.ks (inferred preloaded)
4.5,TAKEOFF,TO_GROUND_ROLL,1.16,80,78.84,3.66,-0.01,0.23,0.54,90.5,0.098,1,0,0,0,0,0,0,0,0,0,90.38,0,1,0,-0.37,0,0,0,90,0,0,0,0,0,0,0,0,0,0,0,0,0,90.38,1,0,0.119,0,0,3,0,0,0,0,0,0,0,1,1,0,0,VALID,0,0,0,0,0,1,0,0,0,0,0,0,0,0,0,0,0,0,0,0,87.74,521.72,2,0,0.08,0.08,73,14.29,0.08,0.06,4.42,PRELAUNCH,CF1-F,0:/Integrated Flight Computer/aircraft/cf1_f_cfg.ks (inferred preloaded)
4.78,TAKEOFF,TO_GROUND_ROLL,1.53,80,78.47,3.66,-0.01,0.25,0.56,90.53,0.107,1,0,0,0,0,0,0,0,0,0,90.37,0,1,0,-0.35,0,0,0,90,0,0,0,0,0,0,0,0,0,0,0,0,0,90.37,1,0,0.157,0,0,3,0,0,0,0,0,0,0,1,1,0,0,VALID,0,0,0,0,0,1,0,0,0,0,0,0,0,0,0,0,0,0,0,0,94.95,521.62,2,0,0.08,0.08,77,14.29,0.08,0.06,4.7,PRELAUNCH,CF1-F,0:/Integrated Flight Computer/aircraft/cf1_f_cfg.ks (inferred preloaded)
5.06,TAKEOFF,TO_GROUND_ROLL,1.93,80,78.07,3.68,0.1,0.28,-2.89,90.57,0.106,1,0,0,0,0,0,0,0,0,0,90.37,0,1,0,2.98,0,0,0,90,0,0,0,0,0,0,0,0,0,0,0,0,0,90.37,1,0,0.198,0,0,3,0,0,0,0,0,0,0,1,1,0,0,VALID,0,0,0,0,0,1,0,0,0,0,0,0,0,0,0,0,0,0,0,0,102.05,521.52,2,0,0.08,0.08,81,14.29,0.08,0.06,4.98,PRELAUNCH,CF1-F,0:/Integrated Flight Computer/aircraft/cf1_f_cfg.ks (inferred preloaded)
5.34,TAKEOFF,TO_GROUND_ROLL,2.35,80,77.65,3.67,-0.02,0.29,1.24,90.61,0.096,1,0,0,0,0,0,0,0,0,0,90.37,0,1,0,-0.56,0,0,0,90,0,0,0,0,0,0,0,0,0,0,0,0,0,90.37,1,0,0.24,-0.0022,0.25,1,-0.0022,0,0,0,0,0,0,1,1,0,0,VALID,0,0,0,0,0,1,0,0,0,0,0,0,0,0,0,0,0,0,0,0,109.02,521.41,2,0,0.08,0.08,85,14.29,0.08,0.06,5.26,LANDED,CF1-F,0:/Integrated Flight Computer/aircraft/cf1_f_cfg.ks (inferred preloaded)
5.6,TAKEOFF,TO_GROUND_ROLL,2.77,80,77.23,3.68,-0.03,0.28,0.76,90.65,0.09,1,0,0,0,0,0,0,0,0,0,90.37,0,1,0,-0.72,0,0,0,90,0,0,0,0,0,0,0,0,0,0,0,0,0,90.37,1,0,0.282,-0.0028,0.25,1,-0.0028,0,0,0,0,0,0,1,1,0,0,VALID,0,0,0,0,0,1,0,0,0,0,0,0,0,0,0,0,0,0,0,0,115.38,521.3,2,0,0.06,0.06,89,15.38,0.08,0.06,5.52,LANDED,CF1-F,0:/Integrated Flight Computer/aircraft/cf1_f_cfg.ks (inferred preloaded)
5.92,TAKEOFF,TO_GROUND_ROLL,3.3,80,76.7,3.68,0,0.28,0.28,90.7,0.094,1,0,0,0,0,0,0,0,0,0,90.36,0,1,0,-0.06,0,0,0,90,0,0,0,0,0,0,0,0,0,0,0,0,0,90.36,1,0,0.339,-0.0035,0.25,1,-0.0035,0,0,0,0,0,0,1,1,0,0,VALID,0,0,0,0,0,1,0,0,0,0,0,0,0,0,0,0,0,0,0,0,123.05,521.16,2,0,0.072,0.072,95,18.8,0.072,0.04,5.84,LANDED,CF1-F,0:/Integrated Flight Computer/aircraft/cf1_f_cfg.ks (inferred preloaded)
6.18,TAKEOFF,TO_GROUND_ROLL,3.73,80,76.27,3.68,-0.03,0.29,0.69,90.75,0.1,1,0,0,0,0,0,0,0,0,0,90.36,0,1,0,-0.39,0,0,0,90,0,0,0,0,0,0,0,0,-0.001,0,0,0,0,90.36,1,-0.001,0.386,-0.0043,0.25,1,-0.0043,0,0,0,0,0,0,1,1,0,0,VALID,0,0,0,0,0,1,0,0,0,0,0,0,0,0,0,0,0,0,0,0,129.16,521.04,2,0,0.079,0.079,99,15.45,0.079,0.051,6.1,LANDED,CF1-F,0:/Integrated Flight Computer/aircraft/cf1_f_cfg.ks (inferred preloaded)
6.48,TAKEOFF,TO_GROUND_ROLL,4.28,80,75.72,3.68,-0.03,0.32,0.65,90.81,0.098,1,0,0,0,0,0,0,0,0,0,90.36,0,1,0,-0.39,0,0,0,90,0,0,0,0,0,0,0,0,-0.001,0,0,0,0,90.36,1,-0.001,0.444,-0.005,0.25,1,-0.005,0,0,0,0,0,0,1,1,0,0,VALID,0,0,0,0,0,1,0,0,0,0,0,0,0,0,0,0,0,0,0,0,136.12,520.88,2,0,0.056,0.056,103,13.33,0.107,0.054,6.41,LANDED,CF1-F,0:/Integrated Flight Computer/aircraft/cf1_f_cfg.ks (inferred preloaded)
6.77,TAKEOFF,TO_GROUND_ROLL,4.84,80,75.16,3.69,-0.03,0.38,0.65,90.86,0.09,1,0,0,0,0,0,0,0,0,0,90.36,0,1,0,-0.32,0,0,0,90,0,0,0,0,0,0,0,0,-0.001,0,0,0,0,90.36,1,-0.001,0.504,-0.0057,0.25,1,-0.0057,0,0,0,0,0,0,1,1,0,0,VALID,0,0,0,0,0,1,0,0,0,0,0,0,0,0,0,0,0,0,0,0,142.74,520.72,2,0,0.061,0.061,107,13.76,0.088,0.056,6.7,LANDED,CF1-F,0:/Integrated Flight Computer/aircraft/cf1_f_cfg.ks (inferred preloaded)
7.08,TAKEOFF,TO_GROUND_ROLL,5.47,80,74.53,3.7,-0.03,0.45,0.75,90.93,0.086,1,0,0,0,0,0,0,0,0,0,90.36,0,1,0,-0.33,0,0,0,90,0,0,0,0,0,0,0,0,-0.002,0,0,0,0,90.36,1,-0.002,0.571,-0.0064,0.25,1,-0.0064,0,0,0,0,0,0,1,1,0,0,VALID,0,0,0,0,0,1,0,0,0,0,0,0,0,0,0,0,0,0,0,0,149.72,520.54,2,0,0.064,0.064,111,12.79,0.095,0.061,7.01,LANDED,CF1-F,0:/Integrated Flight Computer/aircraft/cf1_f_cfg.ks (inferred preloaded)
7.34,TAKEOFF,TO_GROUND_ROLL,6.02,80,73.98,3.71,-0.04,0.51,0.81,90.98,0.088,1,0,0,0,0,0,0,0,0,0,90.35,0,1,0,-0.35,0,0,0,90,0,0,0,0,0,0,0,0,-0.002,0,0,0,0,90.35,1,-0.002,0.63,-0.0071,0.25,1,-0.0071,0,0,0,0,0,0,1,1,0,0,VALID,0,0,0,0,0,1,0,0,0,0,0,0,0,0,0,0,0,0,0,0,155.46,520.37,2,0,0.099,0.099,114,11.46,0.099,0.064,7.28,LANDED,CF1-F,0:/Integrated Flight Computer/aircraft/cf1_f_cfg.ks (inferred preloaded)
7.62,TAKEOFF,TO_GROUND_ROLL,6.62,80,73.38,3.72,-0.04,0.55,0.85,91.04,0.09,1,0,0,0,0,0,0,0,0,0,90.35,0,1,0,-0.34,0,0,0,90,0,0,0,0,0,0,0,0,-0.003,0,0,0,0,90.35,1,-0.003,0.693,-0.0078,0.25,1,-0.0078,0,0,0,0,0,0,1,1,0,0,VALID,0,0,0,0,0,1,0,0,0,0,0,0,0,0,0,0,0,0,0,0,161.32,520.19,2,0,0.103,0.103,117,11.01,0.103,0.068,7.55,LANDED,CF1-F,0:/Integrated Flight Computer/aircraft/cf1_f_cfg.ks (inferred preloaded)
7.9,TAKEOFF,TO_GROUND_ROLL,7.26,80,72.74,3.72,-0.04,0.57,0.87,91.11,0.088,1,0,0,0,0,0,0,0,0,0,90.35,0,1,0,-0.34,0,0,0,90,0,0,0,0,0,0,0,0,-0.004,0,0,0,0,90.35,1,-0.004,0.758,-0.0085,0.25,1,-0.0085,0,0,0,0,0,0,1,1,0,0,VALID,0,0,0,0,0,1,0,0,0,0,0,0,0,0,0,0,0,0,0,0,167.24,519.99,2,0,0.105,0.105,120,10.72,0.105,0.07,7.83,LANDED,CF1-F,0:/Integrated Flight Computer/aircraft/cf1_f_cfg.ks (inferred preloaded)
8.18,TAKEOFF,TO_GROUND_ROLL,7.94,80,72.06,3.73,-0.05,0.57,0.88,91.17,0.083,1,0,0,0,0,0,0,0,0,0,90.35,0,1,0,-0.33,0,0,0,90,0,0,0,0,0,0,0,0,-0.005,0,0,0,0,90.35,1,-0.005,0.824,-0.0093,0.25,1,-0.0093,0,0,0,0,0,0,1,1,0,0,VALID,0,0,0,0,0,1,0,0,0,0,0,0,0,0,0,0,0,0,0,0,173.05,519.78,2,0,0.105,0.105,123,10.71,0.105,0.07,8.11,LANDED,CF1-F,0:/Integrated Flight Computer/aircraft/cf1_f_cfg.ks (inferred preloaded)
8.46,TAKEOFF,TO_GROUND_ROLL,8.64,80,71.36,3.72,-0.05,0.57,0.88,91.24,0.081,1,0,0,0,0,0,0,0,0,0,90.35,0,1,0,-0.34,0,0,0,90,0,0,0,0,0,0,0,0,-0.006,0,0,0,0,90.35,1,-0.006,0.892,-0.01,0.25,1,-0.01,0,0,0,0,0,0,1,1,0,0,VALID,0,0,0,0,0,1,0,0,0,0,0,0,0,0,0,0,0,0,0,0,178.76,519.55,2,0,0.105,0.105,126,10.71,0.105,0.07,8.39,LANDED,CF1-F,0:/Integrated Flight Computer/aircraft/cf1_f_cfg.ks (inferred preloaded)
8.74,TAKEOFF,TO_GROUND_ROLL,9.37,80,70.63,3.72,-0.05,0.57,0.87,91.31,0.081,1,0,0,0,0,0,0,0,0,0,90.35,0,1,0,-0.33,0,0,0,90,0,0,0,0,0,0,0,0,-0.007,0,0,0,0,90.35,1,-0.007,0.961,-0.0108,0.25,1,-0.0108,0,0,0,0,0,0,1,1,0,0,VALID,0,0,0,0,0,1,0,0,0,0,0,0,0,0,0,0,0,0,0,0,184.36,519.31,2,0,0.105,0.105,129,10.71,0.105,0.07,8.67,LANDED,CF1-F,0:/Integrated Flight Computer/aircraft/cf1_f_cfg.ks (inferred preloaded)
9.02,TAKEOFF,TO_GROUND_ROLL,10.11,80,69.89,3.73,-0.06,0.58,0.88,91.37,0.081,1,0,0,0,0,0,0,0,0,0,90.34,0,1,0,-0.33,0,0,0,90,0,0,0,0,0,0,0,0,-0.008,0,0,0,0,90.34,1,-0.008,1.03,-0.0116,0.25,1,-0.0116,0,0,0,0,0,0,1,1,0,0,VALID,0,0,0,0,0,1,0,0,0,0,0,0,0,0,0,0,0,0,0,0,189.85,519.06,2,0,0.105,0.105,132,10.71,0.105,0.07,8.95,LANDED,CF1-F,0:/Integrated Flight Computer/aircraft/cf1_f_cfg.ks (inferred preloaded)
9.3,TAKEOFF,TO_GROUND_ROLL,10.88,80,69.12,3.73,-0.06,0.62,0.92,91.44,0.08,1,0,0,0,0,0,0,0,0,0,90.34,0,1,0,-0.33,0,0,0,90,0,0,0,0,0,0,0,0,-0.01,0,0,0,0,90.34,1,-0.01,1.1,-0.0124,0.25,1,-0.0124,0,0,0,0,0,0,1,1,0,0,VALID,0,0,0,0,0,1,0,0,0,0,0,0,0,0,0,0,0,0,0,0,195.24,518.79,2,0,0.105,0.105,135,10.71,0.105,0.07,9.23,LANDED,CF1-F,0:/Integrated Flight Computer/aircraft/cf1_f_cfg.ks (inferred preloaded)
9.58,TAKEOFF,TO_GROUND_ROLL,11.67,80,68.33,3.74,-0.07,0.67,0.97,91.51,0.077,1,0,0,0,0,0,0,0,0,0,90.34,0,1,0,-0.33,0,0,0,90,0,0,0,0,0,0,0,0,-0.012,0,0,0,0,90.34,1,-0.012,1.17,-0.0132,0.25,1,-0.0132,0,0,0,0,0,0,1,1,0,0,VALID,0,0,0,0,0,1,0,0,0,0,0,0,0,0,0,0,0,0,0,0,200.53,518.52,2,0,0.105,0.105,138,10.71,0.105,0.07,9.51,LANDED,CF1-F,0:/Integrated Flight Computer/aircraft/cf1_f_cfg.ks (inferred preloaded)
9.86,TAKEOFF,TO_GROUND_ROLL,12.48,80,67.52,3.75,-0.07,0.72,1.02,91.58,0.076,1,0,0,0,0,0,0,0,0,0,90.34,0,1,0,-0.33,0,0,0,90,0,0,0,0,0,0,0,0,-0.013,0,0,0,0,90.34,1,-0.013,1.239,-0.0139,0.25,1,-0.0139,0,0,0,0,0,0,1,1,0,0,VALID,0,0,0,0,0,1,0,0,0,0,0,0,0,0,0,0,0,0,0,0,205.72,518.23,2,0,0.105,0.105,141,10.71,0.105,0.07,9.79,LANDED,CF1-F,0:/Integrated Flight Computer/aircraft/cf1_f_cfg.ks (inferred preloaded)
10.14,TAKEOFF,TO_GROUND_ROLL,13.31,80,66.69,3.76,-0.08,0.76,1.06,91.65,0.075,1,0,0,0,0,0,0,0,0,0,90.34,0,1,0,-0.33,0,0,0,90,0,0,0,0,0,0,0,0,-0.016,0,0,0,0,90.34,1,-0.016,1.309,-0.0147,0.25,1,-0.0147,0,0,0,0,0,0,1,1,0,0,VALID,0,0,0,0,0,1,0,0,0,0,0,0,0,0,0,0,0,0,0,0,210.81,517.92,2,0,0.105,0.105,144,10.71,0.105,0.07,10.07,LANDED,CF1-F,0:/Integrated Flight Computer/aircraft/cf1_f_cfg.ks (inferred preloaded)
10.42,TAKEOFF,TO_GROUND_ROLL,14.16,80,65.84,3.76,-0.08,0.79,1.1,91.71,0.074,1,0,0,0,0,0,0,0,0,0,90.33,0,1,0,-0.33,0,0,0,90,0,0,0,0,0,0,0,0,-0.018,0,0,0,0,90.33,1,-0.018,1.378,-0.0155,0.25,1,-0.0155,0,0,0,0,0,0,1,1,0,0,VALID,0,0,0,0,0,1,0,0,0,0,0,0,0,0,0,0,0,0,0,0,215.8,517.6,2,0,0.105,0.105,147,10.71,0.105,0.07,10.35,LANDED,CF1-F,0:/Integrated Flight Computer/aircraft/cf1_f_cfg.ks (inferred preloaded)
10.7,TAKEOFF,TO_GROUND_ROLL,15.03,80,64.97,3.77,-0.09,0.81,1.11,91.78,0.073,1,0,0,0,0,0,0,0,0,0,90.33,0,1,0,-0.33,0,0,0,90,0,0,0,0,0,0,0,0,-0.021,0,0,0,0,90.33,1,-0.021,1.447,-0.0163,0.25,1,-0.0163,0,0,0,0,0,0,1,1,0,0,VALID,0,0,0,0,0,1,0,0,0,0,0,0,0,0,0,0,0,0,0,0,220.69,517.27,2,0,0.105,0.105,150,10.71,0.105,0.07,10.63,LANDED,CF1-F,0:/Integrated Flight Computer/aircraft/cf1_f_cfg.ks (inferred preloaded)
10.98,TAKEOFF,TO_GROUND_ROLL,15.92,80,64.08,3.77,-0.09,0.81,1.12,91.84,0.071,1,0,0,0,0,0,0,0,0,0,90.33,0,1,0,-0.33,0,0,0.01,90,0,0,0,0,0,0,0,0,-0.024,0,0,0,0,90.33,1,-0.024,1.514,-0.017,0.25,1,-0.017,0,0,0,0,0,0,1,1,0,0,VALID,0,0,0,0,0,1,0,0,0,0,0,0,0,0,0,0,0,0,0,0,225.49,516.92,2,0,0.105,0.105,153,10.71,0.105,0.07,10.91,LANDED,CF1-F,0:/Integrated Flight Computer/aircraft/cf1_f_cfg.ks (inferred preloaded)
11.26,TAKEOFF,TO_GROUND_ROLL,16.83,80,63.17,3.77,-0.1,0.82,1.12,91.91,0.069,1,0,0,0,0,0,0,0,0,0,90.33,0,1,0,-0.33,0,0,0.01,90,0,0,0,0,0,0,0,0,-0.027,0,0,0,0,90.33,1,-0.027,1.581,-0.0178,0.25,1,-0.0178,0,0,0,0,0,0,1,1,0,0,VALID,0,0,0,0,0,1,0,0,0,0,0,0,0,0,0,0,0,0,0,0,230.19,516.56,2,0,0.105,0.105,156,10.71,0.105,0.07,11.19,LANDED,CF1-F,0:/Integrated Flight Computer/aircraft/cf1_f_cfg.ks (inferred preloaded)
11.54,TAKEOFF,TO_GROUND_ROLL,17.76,80,62.24,3.77,-0.1,0.83,1.13,91.97,0.068,1,0,0,0,0,0,0,0,0,0,90.32,0,1,0,-0.33,0,0,0.01,90,0,0,0,0,0,0,0,0,-0.03,0,0,0,0,90.32,1,-0.03,1.647,-0.0185,0.25,1,-0.0185,0,0,0,0,0,0,1,1,0,0,VALID,0,0,0,0,0,1,0,0,0,0,0,0,0,0,0,0,0,0,0,0,234.8,516.18,2,0,0.105,0.105,159,10.71,0.105,0.07,11.47,LANDED,CF1-F,0:/Integrated Flight Computer/aircraft/cf1_f_cfg.ks (inferred preloaded)
11.82,TAKEOFF,TO_GROUND_ROLL,18.7,80,61.3,3.77,-0.11,0.85,1.15,92.03,0.068,1,0,0,0,0,0,0,0,0,0,90.32,0,1,0,-0.33,0,0,0.01,90,0,0,0,0,0,0,0,0,-0.034,0,0,0,0,90.32,1,-0.034,1.712,-0.0193,0.25,1,-0.0193,0,0,0,0,0,0,1,1,0,0,VALID,0,0,0,0,0,1,0,0,0,0,0,0,0,0,0,0,0,0,0,0,239.31,515.79,2,0,0.105,0.105,162,10.71,0.105,0.07,11.75,LANDED,CF1-F,0:/Integrated Flight Computer/aircraft/cf1_f_cfg.ks (inferred preloaded)
12.1,TAKEOFF,TO_GROUND_ROLL,19.67,80,60.33,3.78,-0.11,0.89,1.18,92.09,0.068,1,0,0,0,0,0,0,0,0,0,90.32,0,1,0,-0.32,0,0,0.01,90,0,0,0,0,0,0,0,0,-0.038,0,0,0,0,90.32,1,-0.038,1.775,-0.02,0.25,1,-0.02,0,0,0,0,0,0,1,1,0,0,VALID,0,0,0,0,0,1,0,0,0,0,0,0,0,0,0,0,0,0,0,0,243.73,515.38,2,0,0.105,0.105,165,10.71,0.105,0.07,12.03,LANDED,CF1-F,0:/Integrated Flight Computer/aircraft/cf1_f_cfg.ks (inferred preloaded)
12.38,TAKEOFF,TO_GROUND_ROLL,20.65,80,59.35,3.79,-0.12,0.93,1.23,92.15,0.067,1,0,0,0,0,0,0,0,0,0,90.32,0,1,0,-0.32,0,0,0.01,90,0,0,0,0,0,0,0,0,-0.042,0,0,0,0,90.32,1,-0.042,1.837,-0.0212,0.257,0,-0.0212,0,0,0,0,0,0,1,1,0,0,VALID,0,0,0,0,0,1,0,0,0,0,0,0,0,0,0,0,0,0,0,0,248.06,514.96,2,0,0.105,0.105,168,10.71,0.105,0.07,12.31,LANDED,CF1-F,0:/Integrated Flight Computer/aircraft/cf1_f_cfg.ks (inferred preloaded)
12.66,TAKEOFF,TO_GROUND_ROLL,21.64,80,58.36,3.79,-0.12,0.97,1.27,92.21,0.066,1,0,0,0,0,0,0,0,0,0,90.31,0,1,0,-0.32,0,0,0.01,90,0,0,0,0,0,0,0,0,-0.047,0,0,0,0,90.31,1,-0.047,1.898,-0.0229,0.268,0,-0.0229,0,0,0,0,0,0,1,1,0,0,VALID,0,0,0,0,0,1,0,0,0,0,0,0,0,0,0,0,0,0,0,0,252.3,514.52,2,0,0.105,0.105,171,10.71,0.105,0.07,12.59,LANDED,CF1-F,0:/Integrated Flight Computer/aircraft/cf1_f_cfg.ks (inferred preloaded)
12.94,TAKEOFF,TO_GROUND_ROLL,22.66,80,57.34,3.8,-0.13,1.01,1.3,92.26,0.065,1,0,0,0,0,0,0,0,0,0,90.31,0,1,0,-0.32,0,0,0.01,90,0,0,0,0,0,0,0,0,-0.052,0,0,0,0,90.31,1,-0.052,1.956,-0.0245,0.278,0,-0.0245,0,0,0,0,0,0,1,1,0,0,VALID,0,0,0,0,0,1,0,0,0,0,0,0,0,0,0,0,0,0,0,0,256.45,514.07,2,0,0.105,0.105,174,10.71,0.105,0.07,12.87,LANDED,CF1-F,0:/Integrated Flight Computer/aircraft/cf1_f_cfg.ks (inferred preloaded)
13.22,TAKEOFF,TO_GROUND_ROLL,23.69,80,56.31,3.81,-0.13,1.03,1.33,92.32,0.065,1,0,0,0,0,0,0,0,0,0,90.31,0,1,0,-0.32,0,0,0.01,90,0,0,0,0,0,0,0,0,-0.058,0,0,0,0,90.31,1,-0.058,2.013,-0.0262,0.29,0,-0.0262,0,0,0,0,0,0,1,1,0,0,VALID,0,0,0,0,0,1,0,0,0,0,0,0,0,0,0,0,0,0,0,0,260.51,513.6,2,0,0.105,0.105,177,10.71,0.105,0.07,13.15,LANDED,CF1-F,0:/Integrated Flight Computer/aircraft/cf1_f_cfg.ks (inferred preloaded)
13.5,TAKEOFF,TO_GROUND_ROLL,24.73,80,55.27,3.81,-0.14,1.05,1.35,92.37,0.065,1,0,0,0,0,0,0,0,0,0,90.3,0,1,0,-0.32,0,0,0.01,90,0,0,0,0,0,0,0,0,-0.064,0,0,0,0,90.3,1,-0.064,2.067,-0.028,0.301,0,-0.028,0,0,0,0,0,0,1,1,0,0,VALID,0,0,0,0,0,1,0,0,0,0,0,0,0,0,0,0,0,0,0,0,264.48,513.12,2,0,0.105,0.105,180,10.71,0.105,0.07,13.43,LANDED,CF1-F,0:/Integrated Flight Computer/aircraft/cf1_f_cfg.ks (inferred preloaded)
13.78,TAKEOFF,TO_GROUND_ROLL,25.79,80,54.21,3.81,-0.14,1.06,1.36,92.42,0.066,1,0,0,0,0,0,0,0,0,0,90.3,0,1,0,-0.32,0,0,0.01,90,0,0,0,0,0,0,0,0,-0.07,0,0,0,0,90.3,1,-0.07,2.119,-0.0298,0.312,0,-0.0298,0,0,0,0,0,0,1,1,0,0,VALID,0,0,0,0,0,1,0,0,0,0,0,0,0,0,0,0,0,0,0,0,268.37,512.62,2,0,0.105,0.105,183,10.71,0.105,0.07,13.71,LANDED,CF1-F,0:/Integrated Flight Computer/aircraft/cf1_f_cfg.ks (inferred preloaded)
14.06,TAKEOFF,TO_GROUND_ROLL,26.87,80,53.13,3.81,-0.15,1.07,1.37,92.46,0.065,1,0,0,0,0,0,0,0,0,0,90.29,0,1,0,-0.32,0,0,0.01,90,0,0,0,0,0,0,0,0,-0.077,0,0,0,0,90.29,1,-0.077,2.169,-0.0316,0.324,0,-0.0316,0,0,0,0,0,0,1,1,0,0,VALID,0,0,0,0,0,1,0,0,0,0,0,0,0,0,0,0,0,0,0,0,272.17,512.1,2,0,0.105,0.105,186,10.71,0.105,0.07,13.99,LANDED,CF1-F,0:/Integrated Flight Computer/aircraft/cf1_f_cfg.ks (inferred preloaded)
14.34,TAKEOFF,TO_GROUND_ROLL,27.96,80,52.04,3.81,-0.15,1.08,1.38,92.5,0.065,1,0,0,0,0,0,0,0,0,0,90.29,0,1,0,-0.32,0,0,0.01,90,0,0,0,0,0,0,0,0,-0.084,0,0,0,0,90.29,1,-0.084,2.217,-0.0335,0.335,0,-0.0335,0,0,0,0,0,0,1,1,0,0,VALID,0,0,0,0,0,1,0,0,0,0,0,0,0,0,0,0,0,0,0,0,275.88,511.57,2,0,0.105,0.105,189,10.71,0.105,0.07,14.27,LANDED,CF1-F,0:/Integrated Flight Computer/aircraft/cf1_f_cfg.ks (inferred preloaded)
14.61,TAKEOFF,TO_GROUND_ROLL,29.06,80,50.94,3.82,-0.16,1.1,1.39,92.54,0.066,1,0,0,0,0,0,0,0,0,0,90.28,0,1,0,-0.32,0,0,0.01,90,0,0,0,0,0,0,0,0,-0.091,0,0,0,0,90.28,1,-0.091,2.261,-0.0353,0.347,0,-0.0353,0,0,0,0,0,0,1,1,0,0,VALID,0,0,0,0,0,1,0,0,0,0,0,0,0,0,0,0,0,0,0,0,279.45,511.02,2,0,0.102,0.102,192,10.91,0.105,0.069,14.54,LANDED,CF1-F,0:/Integrated Flight Computer/aircraft/cf1_f_cfg.ks (inferred preloaded)
14.9,TAKEOFF,TO_GROUND_ROLL,30.37,80,49.63,3.82,-0.17,1.12,1.42,92.58,0.067,1,0,0,0,0,0,0,0,0,0,90.28,0,1,0,-0.31,0,0,0.01,90,0,0,0,0,0,0,0,0,-0.099,0,0,0,0,90.28,1,-0.099,2.304,-0.0374,0.361,0,-0.0374,0,0,0,0,0,0,1,1,0,0,VALID,0,0,0,0,0,1,0,0,0,0,0,0,0,0,0,0,0,0,0,0,283.13,510.36,2,0,0.05,0.05,196,13.6,0.102,0.05,14.83,LANDED,CF1-F,0:/Integrated Flight Computer/aircraft/cf1_f_cfg.ks (inferred preloaded)
15.17,TAKEOFF,TO_GROUND_ROLL,31.61,80,48.39,3.83,-0.17,1.15,1.44,92.61,0.065,1,0,0,0,0,0,0,0,0,0,90.27,0,1,0,-0.31,0,0,0.02,90,0,0,0,0,0,0,0,0,-0.107,0,0,0,0,90.27,1,-0.107,2.345,-0.0395,0.374,0,-0.0395,0,0,0,0,0,0,1,1,0,0,VALID,0,0,0,0,0,1,0,0,0,0,0,0,0,0,0,0,0,0,0,0,286.37,509.72,2,0,0.08,0.08,200,15.02,0.08,0.049,15.09,LANDED,CF1-F,0:/Integrated Flight Computer/aircraft/cf1_f_cfg.ks (inferred preloaded)
15.45,TAKEOFF,TO_GROUND_ROLL,32.78,80,47.22,3.83,-0.18,1.18,1.47,92.65,0.066,1,0,0,0,0,0,0,0,0,0,90.26,0,1,0,-0.31,0,0,0.02,90,0,0,0,0,0,0,0,0,-0.116,0,0,0,0,90.26,1,-0.116,2.383,-0.0415,0.387,0,-0.0415,0,0,0,0,0,0,1,1,0,0,VALID,0,0,0,0,0,1,0,0,0,0,0,0,0,0,0,0,0,0,0,0,289.75,509.11,2,0,0.08,0.08,204,14.29,0.08,0.06,15.37,LANDED,CF1-F,0:/Integrated Flight Computer/aircraft/cf1_f_cfg.ks (inferred preloaded)
15.73,TAKEOFF,TO_GROUND_ROLL,33.94,80,46.06,3.84,-0.18,1.2,1.49,92.67,0.072,1,0,0,0,0,0,0,0,0,0,90.26,0,1,0,-0.31,0,0,0.02,90,0,0,0,0,0,0,0,0,-0.125,0,0,0,0,90.26,1,-0.125,2.419,-0.0435,0.399,0,-0.0435,0,0,0,0,0,0,1,1,0,0,VALID,0,0,0,0,0,1,0,0,0,0,0,0,0,0,0,0,0,0,0,0,293.05,508.5,2,0,0.08,0.08,208,14.29,0.08,0.06,15.65,LANDED,CF1-F,0:/Integrated Flight Computer/aircraft/cf1_f_cfg.ks (inferred preloaded)
16.01,TAKEOFF,TO_GROUND_ROLL,35.11,80,44.89,3.84,-0.19,1.22,1.52,92.7,0.075,1,0,0,0,0,0,0,0,0,0,90.25,0,1,0,-0.31,0,0,0.02,90,0,0,0,0,0,0,0,0,-0.134,0,0,0,0,90.25,1,-0.134,2.452,-0.0454,0.412,0,-0.0454,0,0,0,0,0,0,1,1,0,0,VALID,0,0,0,0,0,1,0,0,0,0,0,0,0,0,0,0,0,0,0,0,296.27,507.87,2,0,0.08,0.08,212,14.29,0.08,0.06,15.93,LANDED,CF1-F,0:/Integrated Flight Computer/aircraft/cf1_f_cfg.ks (inferred preloaded)
16.29,TAKEOFF,TO_GROUND_ROLL,36.3,80,43.7,3.84,-0.19,1.24,1.53,92.72,0.075,1,0,0,0,0,0,0,0,0,0,90.24,0,1,0,-0.31,0,0,0.02,90,0,0,0,0,0,0,0,0,-0.144,0,0,0,0,90.24,1,-0.144,2.481,-0.0474,0.425,0,-0.0474,0,0,0,0,0,0,1,1,0,0,VALID,0,0,0,0,0,1,0,0,0,0,0,0,0,0,0,0,0,0,0,0,299.42,507.22,2,0,0.08,0.08,216,14.29,0.08,0.06,16.21,LANDED,CF1-F,0:/Integrated Flight Computer/aircraft/cf1_f_cfg.ks (inferred preloaded)
16.57,TAKEOFF,TO_GROUND_ROLL,37.49,80,42.51,3.85,-0.2,1.26,1.55,92.74,0.074,1,0,0,0,0,0,0,0,0,0,90.23,0,1,0,-0.3,0,0,0.02,90,0,0,0,0,0,0,0,0,-0.154,0,0,0,0,90.23,1,-0.154,2.508,-0.0494,0.437,0,-0.0494,0,0,0,0,0,0,1,1,0,0,VALID,0,0,0,0,0,1,0,0,0,0,0,0,0,0,0,0,0,0,0,0,302.49,506.56,2,0,0.08,0.08,220,14.29,0.08,0.06,16.49,LANDED,CF1-F,0:/Integrated Flight Computer/aircraft/cf1_f_cfg.ks (inferred preloaded)
16.85,TAKEOFF,TO_GROUND_ROLL,38.7,80,41.3,3.85,-0.2,1.28,1.57,92.76,0.075,1,0,0,0,0,0,0,0,0,0,90.22,0,1,0,-0.3,0,0,0.02,90,0,0,0,0,0,0,0,0,-0.165,0,0,0,0,90.22,1,-0.165,2.532,-0.0513,0.45,0,-0.0513,0,0,0,0,0,0,1,1,0,0,VALID,0,0,0,0,0,1,0,0,0,0,0,0,0,0,0,0,0,0,0,0,305.49,505.88,2,0,0.08,0.08,224,14.29,0.08,0.06,16.77,LANDED,CF1-F,0:/Integrated Flight Computer/aircraft/cf1_f_cfg.ks (inferred preloaded)
17.13,TAKEOFF,TO_GROUND_ROLL,39.92,80,40.08,3.85,-0.21,1.3,1.59,92.77,0.08,1,0,0,0,0,0,0,0,0,0,90.22,0,1,0,-0.3,0,0,0.02,90,0,0,0,0,0,0,0,0,-0.176,0,0,0,0,90.22,1,-0.176,2.554,-0.0532,0.463,0,-0.0532,0,0,0,0,0,0,1,1,0,0,VALID,0,0,0,0,0,1,0,0,0,0,0,0,0,0,0,0,0,0,0,0,308.41,505.19,2,0,0.08,0.08,228,14.29,0.08,0.06,17.05,LANDED,CF1-F,0:/Integrated Flight Computer/aircraft/cf1_f_cfg.ks (inferred preloaded)
17.41,TAKEOFF,TO_GROUND_ROLL,41.15,80,38.85,3.86,-0.22,1.32,1.61,92.78,0.083,1,0,0,0,0,0,0,0,0,0,90.21,0,1,0,-0.3,0,0,0.02,90,0,0,0,0,0,0,0,0,-0.188,0,0,0,0,90.21,1,-0.188,2.572,-0.0552,0.477,0,-0.0552,0,0,0,0,0,0,1,1,0,0,VALID,0,0,0,0,0,1,0,0,0,0,0,0,0,0,0,0,0,0,0,0,311.25,504.48,2,0,0.08,0.08,232,14.29,0.08,0.06,17.33,LANDED,CF1-F,0:/Integrated Flight Computer/aircraft/cf1_f_cfg.ks (inferred preloaded)
17.69,TAKEOFF,TO_GROUND_ROLL,42.38,80,37.62,3.86,-0.22,1.34,1.63,92.78,0.084,1,0,0,0,0,0,0,0,0,0,90.2,0,1,0,-0.3,0,0,0.02,90,0,0,0,0,0,0,0,0,-0.199,0,0,0,0,90.2,1,-0.199,2.587,-0.057,0.49,0,-0.057,0,0,0,0,0,0,1,1,0,0,VALID,0,0,0,0,0,1,0,0,0,0,0,0,0,0,0,0,0,0,0,0,314.02,503.76,2,0,0.08,0.08,236,14.29,0.08,0.06,17.61,LANDED,CF1-F,0:/Integrated Flight Computer/aircraft/cf1_f_cfg.ks (inferred preloaded)
17.97,TAKEOFF,TO_GROUND_ROLL,43.63,80,36.37,3.86,-0.23,1.37,1.65,92.79,0.086,1,0,0,0,0,0,0,0,0,0,90.19,0,1,0,-0.3,0,0,0.03,90,0,0,0,0,0,0,0,0,-0.212,0,0,0,0,90.19,1,-0.212,2.599,-0.0589,0.503,0,-0.0589,0,0,0,0,0,0,1,1,0,0,VALID,0,0,0,0,0,1,0,0,0,0,0,0,0,0,0,0,0,0,0,0,316.72,503.02,2,0,0.08,0.08,240,14.29,0.08,0.06,17.89,LANDED,CF1-F,0:/Integrated Flight Computer/aircraft/cf1_f_cfg.ks (inferred preloaded)
18.25,TAKEOFF,TO_GROUND_ROLL,44.89,80,35.11,3.87,-0.23,1.39,1.67,92.79,0.088,1,0,0,0,0,0,0,0,0,0,90.18,0,1,0,-0.3,0,0,0.03,90,0,0,0,0,0,0,0,0,-0.224,0,0,0,0,90.18,1,-0.224,2.609,-0.0607,0.517,0,-0.0607,0,0,0,0,0,0,1,1,0,0,VALID,0,0,0,0,0,1,0,0,0,0,0,0,0,0,0,0,0,0,0,0,319.35,502.27,2,0,0.08,0.08,244,14.29,0.08,0.06,18.17,LANDED,CF1-F,0:/Integrated Flight Computer/aircraft/cf1_f_cfg.ks (inferred preloaded)
18.53,TAKEOFF,TO_GROUND_ROLL,46.16,80,33.84,3.87,-0.24,1.41,1.69,92.78,0.092,1,0,0,0,0,0,0,0,0,0,90.17,0,1,0,-0.29,0,0,0.03,90,0,0,0,0,0,0,0,0,-0.237,0,0,0,0,90.17,1,-0.237,2.615,-0.0624,0.53,0,-0.0624,0,0,0,0,0,0,1,1,0,0,VALID,0,0,0,0,0,1,0,0,0,0,0,0,0,0,0,0,0,0,0,0,321.91,501.51,2,0,0.08,0.08,248,14.29,0.08,0.06,18.45,LANDED,CF1-F,0:/Integrated Flight Computer/aircraft/cf1_f_cfg.ks (inferred preloaded)
18.81,TAKEOFF,TO_GROUND_ROLL,47.43,80,32.57,3.88,-0.24,1.43,1.71,92.77,0.096,1,0,0,0,0,0,0,0,0,0,90.16,0,1,0,-0.29,0,0,0.03,90,0,0,0,0,0,0,0,0,-0.25,0,0,0,0,90.16,1,-0.25,2.618,-0.0641,0.544,0,-0.0641,0,0,0,0,0,0,1,1,0,0,VALID,0,0,0,0,0,1,0,0,0,0,0,0,0,0,0,0,0,0,0,0,324.41,500.73,2,0,0.08,0.08,252,14.29,0.08,0.06,18.73,LANDED,CF1-F,0:/Integrated Flight Computer/aircraft/cf1_f_cfg.ks (inferred preloaded)
19.09,TAKEOFF,TO_GROUND_ROLL,48.72,80,31.28,3.88,-0.25,1.45,1.72,92.76,0.099,1,0,0,0,0,0,0,0,0,0,90.14,0,1,0,-0.29,0,0,0.03,90,0,0,0,0,0,0,0,0,-0.264,0,0,0,0,90.14,1,-0.264,2.619,-0.0657,0.558,0,-0.0657,0,0,0,0,0,0,1,1,0,0,VALID,0,0,0,0,0,1,0,0,0,0,0,0,0,0,0,0,0,0,0,0,326.83,499.94,2,0,0.08,0.08,256,14.29,0.08,0.06,19.01,LANDED,CF1-F,0:/Integrated Flight Computer/aircraft/cf1_f_cfg.ks (inferred preloaded)
19.37,TAKEOFF,TO_GROUND_ROLL,50.01,80,29.99,3.88,-0.25,1.46,1.74,92.75,0.102,1,0,0,0,0,0,0,0,0,0,90.13,0,1,0,-0.29,0,0,0.03,90,0,0,0,0,0,0,0,0,-0.278,0,0,0,0,90.13,1,-0.278,2.615,-0.0673,0.572,0,-0.0673,0,0,0,0,0,0,1,1,0,0,VALID,0,0,0,0,0,1,0,0,0,0,0,0,0,0,0,0,0,0,0,0,329.19,499.14,2,0,0.08,0.08,260,14.29,0.08,0.06,19.29,LANDED,CF1-F,0:/Integrated Flight Computer/aircraft/cf1_f_cfg.ks (inferred preloaded)
19.65,TAKEOFF,TO_GROUND_ROLL,51.31,80,28.69,3.89,-0.26,1.48,1.76,92.73,0.105,1,0,0,0,0,0,0,0,0,0,90.12,0,1,0,-0.29,0,0,0.03,90,0,0,0,0,0,0,0,0,-0.292,0,0,0,0,90.12,1,-0.292,2.609,-0.0687,0.585,0,-0.0687,0,0,0,0,0,0,1,1,0,0,VALID,0,0,0,0,0,1,0,0,0,0,0,0,0,0,0,0,0,0,0,0,331.48,498.32,2,0,0.08,0.08,264,14.29,0.08,0.06,19.57,LANDED,CF1-F,0:/Integrated Flight Computer/aircraft/cf1_f_cfg.ks (inferred preloaded)
19.93,TAKEOFF,TO_GROUND_ROLL,52.62,80,27.38,3.89,-0.26,1.5,1.77,92.71,0.109,1,0,0,0,0,0,0,0,0,0,90.11,0,1,0,-0.29,0,0,0.04,90,0,0,0,0,0,0,0,0,-0.306,0,0,0,0,90.11,1,-0.306,2.601,-0.0702,0.599,0,-0.0702,0,0,0,0,0,0,1,1,0,0,VALID,0,0,0,0,0,1,0,0,0,0,0,0,0,0,0,0,0,0,0,0,333.7,497.49,2,0,0.08,0.08,268,14.29,0.08,0.06,19.85,LANDED,CF1-F,0:/Integrated Flight Computer/aircraft/cf1_f_cfg.ks (inferred preloaded)
20.21,TAKEOFF,TO_GROUND_ROLL,53.93,80,26.07,3.89,-0.27,1.52,1.79,92.69,0.113,1,0,0,0,0,0,0,0,0,0,90.1,0,1,0,-0.28,0,0,0.04,90,0,0,0,0,0,0,0,0,-0.321,0,0,0,0,90.1,1,-0.321,2.588,-0.0715,0.614,0,-0.0715,0,0,0,0,0,0,1,1,0,0,VALID,0,0,0,0,0,1,0,0,0,0,0,0,0,0,0,0,0,0,0,0,335.87,496.65,2,0,0.08,0.08,272,14.29,0.08,0.06,20.13,LANDED,CF1-F,0:/Integrated Flight Computer/aircraft/cf1_f_cfg.ks (inferred preloaded)
20.49,TAKEOFF,TO_GROUND_ROLL,55.26,80,24.74,3.9,-0.27,1.54,1.81,92.66,0.117,1,0,0,0,0,0,0,0,0,0,90.08,0,1,0,-0.28,0,0,0.04,90,0,0,0,0,0,0,0,0,-0.336,0,0,0,0,90.08,1,-0.336,2.575,-0.0727,0.628,0,-0.0727,0,0,0,0,0,0,1,1,0,0,VALID,0,0,0,0,0,1,0,0,0,0,0,0,0,0,0,0,0,0,0,0,337.97,495.79,2,0,0.08,0.08,276,14.29,0.08,0.06,20.41,LANDED,CF1-F,0:/Integrated Flight Computer/aircraft/cf1_f_cfg.ks (inferred preloaded)
20.77,TAKEOFF,TO_GROUND_ROLL,56.58,80,23.42,3.9,-0.28,1.56,1.83,92.63,0.121,1,0,0,0,0,0,0,0,0,0,90.07,0,1,0,-0.28,0,0,0.04,90,0,0,0,0,0,0,0,0,-0.351,0,0,0,0,90.07,1,-0.351,2.557,-0.0739,0.642,0,-0.0739,0,0,0,0,0,0,1,1,0,0,VALID,0,0,0,0,0,1,0,0,0,0,0,0,0,0,0,0,0,0,0,0,340,494.93,2,0,0.08,0.08,280,14.29,0.08,0.06,20.69,LANDED,CF1-F,0:/Integrated Flight Computer/aircraft/cf1_f_cfg.ks (inferred preloaded)
21.05,TAKEOFF,TO_GROUND_ROLL,57.92,80,22.08,3.9,-0.28,1.58,1.84,92.6,0.125,1,0,0,0,0,0,0,0,0,0,90.06,0,1,0,-0.28,0,0,0.04,90,0,0,0,0,0,0,0,0,-0.366,0,0,0,0,90.06,1,-0.366,2.538,-0.0749,0.656,0,-0.0749,0,0,0,0,0,0,1,1,0,0,VALID,0,0,0,0,0,1,0,0,0,0,0,0,0,0,0,0,0,0,0,0,341.98,494.05,2,0,0.08,0.08,284,14.29,0.08,0.06,20.97,LANDED,CF1-F,0:/Integrated Flight Computer/aircraft/cf1_f_cfg.ks (inferred preloaded)
21.33,TAKEOFF,TO_GROUND_ROLL,59.26,80,20.74,3.91,-0.29,1.59,1.86,92.56,0.128,1,0,0,0,0,0,0,0,0,0,90.04,0,1,0,-0.28,0,0,0.04,90,0,0,0,0,0,0,0,0,-0.382,0,0,0,0,90.04,1,-0.382,2.515,-0.0759,0.671,0,-0.0759,0,0,0,0,0,0,1,1,0,0,VALID,0,0,0,0,0,1,0,0,0,0,0,0,0,0,0,0,0,0,0,0,343.9,493.16,2,0,0.08,0.08,288,14.29,0.08,0.06,21.25,LANDED,CF1-F,0:/Integrated Flight Computer/aircraft/cf1_f_cfg.ks (inferred preloaded)
21.61,TAKEOFF,TO_GROUND_ROLL,60.61,80,19.39,3.91,-0.29,1.61,1.88,92.52,0.137,1,0,0,0,0,0,0,0,0,0,90.03,0,1,0,-0.27,0,0,0.04,90,0,0,0,0,0,0,0,0,-0.397,0,0,0,0,90.03,1,-0.397,2.491,-0.0768,0.685,0,-0.0768,0,0,0,0,0,0,1,1,0,0,VALID,0,0,0,0,0,1,0,0,0,0,0,0,0,0,0,0,0,0,0,0,345.76,492.27,2,0,0.08,0.08,292,14.29,0.08,0.06,21.53,LANDED,CF1-F,0:/Integrated Flight Computer/aircraft/cf1_f_cfg.ks (inferred preloaded)
21.89,TAKEOFF,TO_GROUND_ROLL,61.96,80,18.04,3.92,-0.29,1.64,1.9,92.48,0.156,1,0,0,0,0,0,0,0,0,0,90.02,0,1,0,-0.27,0,0,0.05,90,0,0,0,0,0,0,0,0,-0.413,0,0,0,0,90.02,1,-0.413,2.467,-0.0777,0.7,0,-0.0777,0,0,0,0,0,0,1,1,0,0,VALID,0,0,0,0,0,1,0,0,0,0,0,0,0,0,0,0,0,0,0,0,347.56,491.36,2,0,0.08,0.08,296,14.29,0.08,0.06,21.81,LANDED,CF1-F,0:/Integrated Flight Computer/aircraft/cf1_f_cfg.ks (inferred preloaded)
22.17,TAKEOFF,TO_GROUND_ROLL,63.31,80,16.69,3.91,0.16,1.7,1.59,92.44,0.181,1,0,0,0,0,0,0,0,0,0,90,0,1,0,0.15,0,0,0.05,90,0,0,0,0,0,0,0,0,-0.428,0,0,0,0,90,1,-0.428,2.442,-0.0785,0.714,0,-0.0785,0,0,0,0,0,0,1,1,0,0,VALID,0,0,0,0,0,1,0,0,0,0,0,0,0,0,0,0,0,0,0,0,349.31,490.44,2,0,0.08,0.08,300,14.29,0.08,0.06,22.09,LANDED,CF1-F,0:/Integrated Flight Computer/aircraft/cf1_f_cfg.ks (inferred preloaded)
22.45,TAKEOFF,TO_GROUND_ROLL,64.67,80,15.33,3.99,-0.36,1.87,2.14,92.4,0.182,1,0,0,0,0,0,0,0,0,0,89.99,0,1,0,-0.32,0,0,0.05,90,0,0,0,0,0,0,0,0,-0.444,0,0,0,0,89.99,1,-0.444,2.406,-0.0789,0.729,0,-0.0789,0,0,0,0,0,0,1,1,0,0,VALID,0,0,0,0,0,1,0,0,0,0,0,0,0,0,0,0,0,0,0,0,350.99,489.51,2,0,0.08,0.08,304,14.29,0.08,0.06,22.37,LANDED,CF1-F,0:/Integrated Flight Computer/aircraft/cf1_f_cfg.ks (inferred preloaded)
22.73,TAKEOFF,TO_GROUND_ROLL,66.04,80,13.96,4.03,-0.22,2.14,2.31,92.35,0.166,1,0,0,0,0,0,0,0,0,0,89.97,0,1,0,-0.19,0,0,0.05,90,0,0,0,0,0,0,0,0,-0.46,0,0,0,0,89.97,1,-0.46,2.381,-0.0796,0.743,0,-0.0796,0,0,0,0,0,0,1,1,0,0,VALID,0,0,0,0,0,1,0,0,0,0,0,0,0,0,0,0,0,0,0,0,352.63,488.58,2,0,0.08,0.08,308,14.29,0.08,0.06,22.65,LANDED,CF1-F,0:/Integrated Flight Computer/aircraft/cf1_f_cfg.ks (inferred preloaded)
23.01,TAKEOFF,TO_GROUND_ROLL,67.4,80,12.6,4.1,-0.33,2.46,2.7,92.3,0.147,1,0,0,0,0,0,0,0,0,0,89.96,0,1,0,-0.28,0,0,0.05,90,0,0,0,0,0,0,0,0,-0.476,0,0,0,0,89.96,1,-0.476,2.347,-0.08,0.758,0,-0.08,0,0,0,0,0,0,1,1,0,0,VALID,0,0,0,0,0,1,0,0,0,0,0,0,0,0,0,0,0,0,0,0,354.22,487.64,2,0,0.08,0.08,312,14.29,0.08,0.06,22.93,LANDED,CF1-F,0:/Integrated Flight Computer/aircraft/cf1_f_cfg.ks (inferred preloaded)
23.29,TAKEOFF,TO_GROUND_ROLL,68.76,80,11.24,4.17,-0.27,2.84,3.02,92.26,0.154,1,0,0,0,0,0,0,0,0,0,89.94,0,1,0,-0.22,0,0,0.06,90,0,0,0,0,0,0,0,0,-0.492,0,0,0,0,89.94,1,-0.492,2.314,-0.0804,0.772,0,-0.0804,0,0,0,0,0,0,1,1,0,0,VALID,0,0,0,0,0,1,0,0,0,0,0,0,0,0,0,0,0,0,0,0,355.76,486.7,2,0,0.08,0.08,316,14.29,0.08,0.06,23.21,LANDED,CF1-F,0:/Integrated Flight Computer/aircraft/cf1_f_cfg.ks (inferred preloaded)
23.57,TAKEOFF,TO_ROTATE,70.11,80,9.89,4.26,-0.29,3.31,3.51,92.21,0.166,1,0,0,0,0,0,0,0,0,0,89.93,0,1,0,-0.24,0,0,0.06,90,0,0,0,0,0,0,0,0,-0.507,0,0,0,0,89.93,1,-0.507,2.279,-0.0807,0.787,0,0,0,0,0,0,0,0,1,1,0,0,VALID,0,0,0,0,0,1,0,0,0,0,0,0,0,0,0,0,0,0,0,0,357.25,485.76,2,0,0.08,0.08,320,14.29,0.08,0.06,23.49,LANDED,CF1-F,0:/Integrated Flight Computer/aircraft/cf1_f_cfg.ks (inferred preloaded)
23.87,TAKEOFF,TO_ROTATE,71.55,80,8.45,4.38,-0.29,3.87,4.09,92.16,0.179,1,0,0,0,0,0,0,0,0,0,89.91,4.152,1,0,-0.23,0,0,0.06,90,0,0,0,0,0,0,0,0,-0.523,0,0,0,0,89.91,1,-0.523,2.245,-0.0809,0.801,0,-0.0809,0,0.12,4.152,0.281,0.08,0,1,1,0,0,VALID,0,0,0,0,0,1,0,0,0,0,0,0,0,0,0,0,0,0,0,0,358.8,484.76,2,0,0.08,0.08,324,13.33,0.08,0.06,23.77,LANDED,CF1-F,0:/Integrated Flight Computer/aircraft/cf1_f_cfg.ks (inferred preloaded)
24.15,TAKEOFF,TO_ROTATE,72.87,80,7.13,4.52,-0.27,4.59,4.79,92.11,0.177,1,0,0,0,0,0,0,0,0,0,89.9,4.992,1,0,-0.21,0,0,0.06,90,0,0,0,0,0,0,0,0,-0.539,0,0,0,0,89.9,1,-0.539,2.208,-0.081,0.816,0,-0.081,0,0.12,4.992,0.404,0.08,0,1,1,0,0,VALID,0,0,0,0,0,1,0,0,0,0,0,0,0,0,0,0,0,0,0,0,360.21,483.83,2,0,0.08,0.08,328,14.29,0.08,0.06,24.05,LANDED,CF1-F,0:/Integrated Flight Computer/aircraft/cf1_f_cfg.ks (inferred preloaded)
24.43,TAKEOFF,TO_ROTATE,74.18,80,5.82,4.69,-0.28,5.48,5.68,92.05,0.171,1,0,0,0,0,0,0,0,0,0,89.89,5.832,1,0,-0.22,0,0,0.06,90,0,0,0,0,0,0,0,0,-0.554,0,0,0,0,89.89,1,-0.554,2.165,-0.0808,0.829,0,-0.0808,0,0.12,5.832,0.356,0.08,0,1,1,0,0,VALID,0,0,0,0,0,1,0,0,0,0,0,0,0,0,0,0,0,0,0,0,361.58,482.91,2,0,0.08,0.08,332,14.29,0.08,0.06,24.33,LANDED,CF1-F,0:/Integrated Flight Computer/aircraft/cf1_f_cfg.ks (inferred preloaded)
24.71,TAKEOFF,TO_ROTATE,75.44,80,4.56,4.88,-0.27,6.5,6.7,91.99,0.165,1,0,0,0,0,0,0,0,0,0,89.87,6.672,1,0,-0.2,0,0,0.07,90,0,0,0,0,0,0,0,0,-0.57,0,0,0,0,89.87,1,-0.57,2.116,-0.0803,0.843,0,-0.0803,0,0.12,6.672,0.167,0.08,0,1,1,0,0,VALID,0,0,0,0,0,1,0,0,0,0,0,0,0,0,0,0,0,0,0,0,362.93,482.02,2,0,0.08,0.08,336,14.29,0.08,0.06,24.61,LANDED,CF1-F,0:/Integrated Flight Computer/aircraft/cf1_f_cfg.ks (inferred preloaded)
24.99,TAKEOFF,TO_ROTATE,76.65,80,3.35,5.09,-0.28,7.61,7.81,91.92,0.15,1,0,0,0,0,0,0,0,0,0,89.87,7.512,1,0,-0.21,0,0,0.07,90,0,0,0,0,0,0,0,0,-0.585,0,0,0,0,89.87,1,-0.585,2.056,-0.0792,0.856,0,-0.0792,0,0.0725,7.512,-0.094,0.08,0,1,1,0,0,VALID,0,0,0,0,0,1,0,0,0,0,0,0,0,0,0,0,0,0,0,0,364.27,481.16,2,0,0.08,0.08,340,14.29,0.08,0.06,24.89,LANDED,CF1-F,0:/Integrated Flight Computer/aircraft/cf1_f_cfg.ks (inferred preloaded)
25.27,TAKEOFF,TO_ROTATE,77.81,80,2.19,5.29,-0.2,8.67,8.82,91.84,0.113,1,0,0,0,0,0,0,0,0,0,89.86,8.352,1,0,-0.16,0,0,0.07,90,0,0,0,0,0,0,0,0,-0.6,0,0,0,0,89.86,1,-0.6,1.98,-0.0774,0.869,0,-0.0774,0,0.0549,8.352,-0.314,0.08,0,1,1,0,0,VALID,0,0,0,0,0,1,0,0,0,0,0,0,0,0,0,0,0,0,0,0,365.59,480.34,2,0,0.08,0.08,344,14.29,0.08,0.06,25.17,LANDED,CF1-F,0:/Integrated Flight Computer/aircraft/cf1_f_cfg.ks (inferred preloaded)
25.55,TAKEOFF,TO_ROTATE,78.9,80,1.1,5.52,0.19,9.55,9.41,91.75,0.054,1,0,0,0,0,0,0,0,0,0,90.4,9.252,0,1,0.14,0,0,18.32,90.4,-0.8188,-0.0064,0.574,18.66,90.4,0,0,0,0,0,0,0,0,90.4,1,0,1.348,0,0,3,0,0,0,9.252,-0.297,0,0,1,1,0,0,VALID,0,0,0,0,0,1,0,0,0,0,0,0,0,0,0,0,0,0,0,0,366.91,479.56,2,0,0.08,0.08,349,17.86,0.08,0.04,25.45,FLYING,CF1-F,0:/Integrated Flight Computer/aircraft/cf1_f_cfg.ks (inferred preloaded)
25.83,TAKEOFF,TO_ROTATE,79.93,80,0.07,5.82,0.68,10.01,9.53,91.8,-0.104,1,0,0,0,0,0,0,0,0,0,90.4,10,0,1,0.49,0,0,19.32,90.4,-0.8101,-0.0063,0.5863,19.53,90.4,0,0,0,0,0,0,0,0,90.4,1,0,1.404,0,0,3,0,0,0,10,-0.013,0,0,1,1,0,0,VALID,0,0,0,0,0,1,0,0,0,0,0,0,0,0,0,0,0,0,0,0,368.21,478.81,2,0,0.08,0.08,353,14.29,0.08,0.06,25.73,FLYING,CF1-F,0:/Integrated Flight Computer/aircraft/cf1_f_cfg.ks (inferred preloaded)
26.09,TAKEOFF,TO_ROTATE,80.87,80,-0.87,6.3,1.18,10.87,10,91.88,-0.26,1,0,0,0,0,0,0,0,0,0,90.4,10,0,1,0.84,0,0,19.78,90.4,-0.8052,-0.0063,0.593,20,90.4,0,0,0,0,0,0,0,0,90.4,1,0,1.481,0,0,3,0,0,0,10,-0.873,0,0,1,1,0,0,VALID,0,0,0,0,0,1,0,0,0,0,0,0,0,0,0,0,0,0,0,0,369.39,478.12,2,0,0.08,0.08,357,15.38,0.08,0.04,25.99,FLYING,CF1-F,0:/Integrated Flight Computer/aircraft/cf1_f_cfg.ks (inferred preloaded)
26.37,TAKEOFF,TO_CLIMB,81.81,80,-1.81,7.04,2.14,11.9,10.47,91.85,-0.351,0.9819,0,0,0,0,0,0,0,0,0,90.4,11.59,0,1,1.5,0,0,20.47,90.4,-0.7834,-0.0062,0.6215,22.06,90.4,0,0,0,0,0,0,0,0,90.4,1,0,1.45,0,0,3,0,0,0,10,-1.718,0,0,1,1,0,0,VALID,0,0,0,0,0,1,0,0,0,0,0,0,0,0,0,0,0,0,0,0,370.65,477.41,2,0,0.08,0.08,361,14.29,0.08,0.06,26.27,FLYING,CF1-F,0:/Integrated Flight Computer/aircraft/cf1_f_cfg.ks (inferred preloaded)
26.63,TAKEOFF,TO_CLIMB,82.63,80,-2.63,7.86,3.05,12.19,10.16,91.85,-0.32,0.9737,0,0,0,0,0,0,0,0,0,90.4,11.174,0,1,2.12,0,0,21.57,90.4,-0.7912,-0.0063,0.6115,21.34,90.4,0,0,0,0,0,0,0,0,90.4,1,0,1.446,0,0,3,0,0,0,10,-1.718,0,0,1,1,0,0,VALID,0,0,0,0,0,1,0,0,0,0,0,0,0,0,0,0,0,0,0,0,371.68,476.77,2,0,0.08,0.08,365,15.38,0.08,0.04,26.53,FLYING,CF1-F,0:/Integrated Flight Computer/aircraft/cf1_f_cfg.ks (inferred preloaded)
26.91,TAKEOFF,TO_CLIMB,83.5,80,-3.5,9,4,12.48,9.85,91.82,-0.444,0.965,0,0,0,0,0,0,0,0,0,90.4,10.726,0,1,2.74,0,0,20.8,90.4,-0.7993,-0.0063,0.6009,20.58,90.4,0,0,0,0,0,0,0,0,90.4,1,0,1.417,0,0,3,0,0,0,10,-1.718,0,0,1,1,0,0,VALID,0,0,0,0,0,1,0,0,0,0,0,0,0,0,0,0,0,0,0,0,372.66,476.08,2,0,0.08,0.08,369,14.29,0.08,0.06,26.81,FLYING,CF1-F,0:/Integrated Flight Computer/aircraft/cf1_f_cfg.ks (inferred preloaded)
27.17,TAKEOFF,TO_CLIMB,84.31,80,-4.31,10.29,4.88,12.73,9.55,91.78,-0.555,0.9569,0,0,0,0,0,0,0,0,0,90.4,10.31,0,1,3.31,0,0,20.1,90.4,-0.8067,-0.0063,0.5909,19.86,90.4,0,0,0,0,0,0,0,0,90.4,1,0,1.381,0,0,3,0,0,0,10,-1.718,0,0,1,1,0,0,VALID,0,0,0,0,0,1,0,0,0,0,0,0,0,0,0,0,0,0,0,0,373.47,475.42,2,0,0.08,0.08,373,15.38,0.08,0.04,27.07,FLYING,CF1-F,0:/Integrated Flight Computer/aircraft/cf1_f_cfg.ks (inferred preloaded)
27.45,TAKEOFF,TO_CLIMB,85.16,80,-5.16,11.92,5.81,12.88,9.13,91.74,-0.662,0.9484,0,0,0,0,0,0,0,0,0,90.4,9.862,0,1,3.91,0,0,19.26,90.4,-0.8156,-0.0064,0.5786,19,90.4,0,0,0,0,0,0,0,0,90.4,1,0,1.341,0,0,3,0,0,0,10,-1.718,0,0,1,1,0,0,VALID,0,0,0,0,0,1,0,0,0,0,0,0,0,0,0,0,0,0,0,0,374.25,474.7,2,0,0.08,0.08,377,14.29,0.08,0.06,27.35,FLYING,CF1-F,0:/Integrated Flight Computer/aircraft/cf1_f_cfg.ks (inferred preloaded)
27.71,TAKEOFF,TO_CLIMB,85.95,80,-5.95,13.65,6.62,12.98,8.74,91.71,-0.695,0.9405,0,0,0,0,0,0,0,0,0,90.4,9.446,0,1,4.4,0,0,18.41,90.4,-0.8237,-0.0064,0.5669,18.18,90.4,0,0,0,0,0,0,0,0,90.4,1,0,1.31,0,0,3,0,0,0,10,-1.718,0,0,1,1,0,0,VALID,0,0,0,0,0,1,0,0,0,0,0,0,0,0,0,0,0,0,0,0,374.88,474.02,2,0,0.08,0.08,381,15.38,0.08,0.04,27.61,FLYING,CF1-F,0:/Integrated Flight Computer/aircraft/cf1_f_cfg.ks (inferred preloaded)
27.99,TAKEOFF,TO_CLIMB,86.79,80,-6.79,15.75,7.48,13.09,8.34,91.69,-0.706,0.9321,0,0,0,0,0,0,0,0,0,90.4,8.998,0,1,4.93,0,0,17.6,90.4,-0.832,-0.0065,0.5547,17.34,90.4,0,0,0,0,0,0,0,0,90.4,1,0,1.292,0,0,3,0,0,0,10,-1.718,0,0,1,1,0,0,VALID,0,0,0,0,0,1,0,0,0,0,0,0,0,0,0,0,0,0,0,0,375.46,473.28,2,0,0.08,0.08,385,14.29,0.08,0.06,27.89,FLYING,CF1-F,0:/Integrated Flight Computer/aircraft/cf1_f_cfg.ks (inferred preloaded)
28.25,TAKEOFF,TO_CLIMB,87.57,80,-7.57,17.89,8.23,13.09,7.91,91.66,-0.798,0.9243,0,0,0,0,0,0,0,0,0,90.4,8.582,0,1,5.37,0,0,16.76,90.4,-0.8402,-0.0065,0.5423,16.49,90.4,0,0,0,0,0,0,0,0,90.4,1,0,1.257,0,0,3,0,0,0,10,-1.718,0,0,1,1,0,0,VALID,0,0,0,0,0,1,0,0,0,0,0,0,0,0,0,0,0,0,0,0,375.91,472.58,2,0,0.08,0.08,389,15.38,0.08,0.04,28.15,FLYING,CF1-F,0:/Integrated Flight Computer/aircraft/cf1_f_cfg.ks (inferred preloaded)
28.53,TAKEOFF,TO_CLIMB,88.42,80,-8.42,20.43,8.97,13.04,7.45,91.62,-0.881,0.9158,0,0,0,0,0,0,0,0,0,90.4,8.134,0,1,5.79,0,0,15.85,90.4,-0.8487,-0.0065,0.5289,15.58,90.4,0,0,0,0,0,0,0,0,90.4,1,0,1.219,0,0,3,0,0,0,10,-1.718,0,0,1,1,0,0,VALID,0,0,0,0,0,1,0,0,0,0,0,0,0,0,0,0,0,0,0,0,376.29,471.8,2,0,0.08,0.08,393,14.29,0.08,0.06,28.43,FLYING,CF1-F,0:/Integrated Flight Computer/aircraft/cf1_f_cfg.ks (inferred preloaded)
28.79,TAKEOFF,TO_CLIMB,89.2,80,-9.2,22.94,9.73,12.94,6.95,91.59,-0.947,0.908,0,0,0,0,0,0,0,0,0,90.4,8,0,1,6.22,0,0,15.15,90.4,-0.8545,-0.0066,0.5194,14.95,90.4,0,0,0,0,0,0,0,0,90.4,1,0,1.187,0,0,3,0,0,0,10,-1.718,0,0,1,1,0,0,VALID,0,0,0,0,0,1,0,0,0,0,0,0,0,0,0,0,0,0,0,0,376.56,471.07,2,0,0.08,0.08,397,15.38,0.08,0.04,28.69,FLYING,CF1-F,0:/Integrated Flight Computer/aircraft/cf1_f_cfg.ks (inferred preloaded)
29.07,TAKEOFF,TO_CLIMB,90.04,80,-10.04,25.85,10.35,12.94,6.56,91.56,-0.972,0.8996,0,0,0,0,0,0,0,0,0,90.4,8,0,1,6.56,0,0,14.57,90.4,-0.8581,-0.0066,0.5135,14.56,90.4,0,0,0,0,0,0,0,0,90.4,1,0,1.155,0,0,3,0,0,0,10,-1.718,0,0,1,1,0,0,VALID,0,0,0,0,0,1,0,0,0,0,0,0,0,0,0,0,0,0,0,0,376.77,470.28,2,0,0.08,0.08,401,14.29,0.08,0.06,28.97,FLYING,CF1-F,0:/Integrated Flight Computer/aircraft/cf1_f_cfg.ks (inferred preloaded)
29.33,TAKEOFF,TO_CLIMB,90.81,80,-10.81,28.77,11.08,13.17,6.44,91.52,-1.003,0.8919,0,0,0,0,0,0,0,0,0,90.4,8,0,1,6.95,0,0,14.52,90.4,-0.8592,-0.0066,0.5117,14.44,90.4,0,0,0,0,0,0,0,0,90.4,1,0,1.122,0,0,3,0,0,0,10,-1.718,0,0,1,1,0,0,VALID,0,0,0,0,0,1,0,0,0,0,0,0,0,0,0,0,0,0,0,0,376.87,469.53,2,0,0.08,0.08,405,15.38,0.08,0.04,29.23,FLYING,CF1-F,0:/Integrated Flight Computer/aircraft/cf1_f_cfg.ks (inferred preloaded)
29.61,TAKEOFF,TO_CLIMB,91.62,80,-11.62,32.01,11.77,12.76,5.67,91.49,-1.047,0.8838,0,0,0,0,0,0,0,0,0,90.4,8,0,1,7.32,0,0,13.89,90.4,-0.8659,-0.0066,0.5001,13.67,90.4,0,0,0,0,0,0,0,0,90.4,1,0,1.095,0,0,3,0,0,0,10,-1.718,0,0,1,1,0,0,VALID,0,0,0,0,0,1,0,0,0,0,0,0,0,0,0,0,0,0,0,0,376.92,468.74,2,0,0.08,0.08,409,14.29,0.08,0.06,29.51,FLYING,CF1-F,0:/Integrated Flight Computer/aircraft/cf1_f_cfg.ks (inferred preloaded)
29.87,TAKEOFF,TO_CLIMB,92.41,80,-12.41,35.21,12.18,12.78,5.47,91.46,-1.082,0.8759,0,0,0,0,0,0,0,0,0,90.4,8,0,1,7.51,0,0,13.49,90.4,-0.8677,-0.0066,0.4971,13.47,90.4,0,0,0,0,0,0,0,0,90.4,1,0,1.062,0,0,3,0,0,0,10,-1.718,0,0,1,1,0,0,VALID,0,0,0,0,0,1,0,0,0,0,0,0,0,0,0,0,0,0,0,0,376.86,467.96,2,0,0.08,0.08,413,15.38,0.08,0.04,29.77,FLYING,CF1-F,0:/Integrated Flight Computer/aircraft/cf1_f_cfg.ks (inferred preloaded)
30.15,TAKEOFF,TO_CLIMB,93.24,80,-13.24,38.78,12.71,12.7,5.15,91.43,-1.113,0.8676,0,0,0,0,0,0,0,0,0,90.4,8,0,1,7.76,0,0,13.24,90.4,-0.8705,-0.0066,0.4921,13.15,90.4,0,0,0,0,0,0,0,0,90.4,1,0,1.03,0,0,3,0,0,0,10,-1.718,0,0,1,1,0,0,VALID,0,0,0,0,0,1,0,0,0,0,0,0,0,0,0,0,0,0,0,0,376.72,467.12,2,0,0.08,0.08,417,14.29,0.08,0.06,30.05,FLYING,CF1-F,0:/Integrated Flight Computer/aircraft/cf1_f_cfg.ks (inferred preloaded)
30.41,TAKEOFF,TO_CLIMB,94.04,80,-14.04,42.23,13,12.72,5.02,91.4,-1.139,0.8596,0,0,0,0,0,0,0,0,0,90.4,8,0,1,7.87,0,0,13,90.4,-0.8716,-0.0067,0.4902,13.02,90.4,0,0,0,0,0,0,0,0,90.4,1,0,0.997,0,0,3,0,0,0,10,-1.718,0,0,1,1,0,0,VALID,0,0,0,0,0,1,0,0,0,0,0,0,0,0,0,0,0,0,0,0,376.51,466.32,2,0,0.08,0.08,421,15.38,0.08,0.04,30.31,FLYING,CF1-F,0:/Integrated Flight Computer/aircraft/cf1_f_cfg.ks (inferred preloaded)
30.69,TAKEOFF,TO_CLIMB,94.9,80,-14.9,46.07,13.39,13.05,5.2,91.36,-1.161,0.851,0,0,0,0,0,0,0,0,0,90.4,8,0,1,8.03,0,0,13.18,90.4,-0.8701,-0.0066,0.4928,13.2,90.4,0,0,0,0,0,0,0,0,90.4,1,0,0.956,0,0,3,0,0,0,10,-1.718,0,0,1,1,0,0,VALID,0,0,0,0,0,1,0,0,0,0,0,0,0,0,0,0,0,0,0,0,376.2,465.45,2,0,0.08,0.08,425,14.29,0.08,0.06,30.59,FLYING,CF1-F,0:/Integrated Flight Computer/aircraft/cf1_f_cfg.ks (inferred preloaded)
30.95,TAKEOFF,TO_CLIMB,95.67,80,-15.67,49.73,13.87,13.23,5.19,91.32,-1.174,0.8433,0,0,0,0,0,0,0,0,0,90.4,8,0,1,8.25,0,0,13.25,90.4,-0.8702,-0.0066,0.4927,13.19,90.4,0,0,0,0,0,0,0,0,90.4,1,0,0.921,0,0,3,0,0,0,10,-1.718,0,0,1,1,0,0,VALID,0,0,0,0,0,1,0,0,0,0,0,0,0,0,0,0,0,0,0,0,375.85,464.66,2,0,0.08,0.08,429,15.38,0.08,0.04,30.85,FLYING,CF1-F,0:/Integrated Flight Computer/aircraft/cf1_f_cfg.ks (inferred preloaded)
31.23,TAKEOFF,TO_CLIMB,96.49,80,-16.49,53.78,14.35,13.23,4.98,91.29,-1.186,0.8351,0,0,0,0,0,0,0,0,0,90.4,8,0,1,8.46,0,0,13.05,90.4,-0.872,-0.0067,0.4895,12.98,90.4,0,0,0,0,0,0,0,0,90.4,1,0,0.887,0,0,3,0,0,0,10,-1.718,0,0,1,1,0,0,VALID,0,0,0,0,0,1,0,0,0,0,0,0,0,0,0,0,0,0,0,0,375.41,463.8,2,0,0.08,0.08,433,14.29,0.08,0.06,31.13,FLYING,CF1-F,0:/Integrated Flight Computer/aircraft/cf1_f_cfg.ks (inferred preloaded)
31.51,TAKEOFF,TO_CLIMB,97.31,80,-17.31,57.95,14.8,13.22,4.78,91.25,-1.197,0.8269,0,0,0,0,0,0,0,0,0,90.4,8,0,1,8.65,0,0,12.84,90.4,-0.8737,-0.0067,0.4863,12.78,90.4,0,0,0,0,0,0,0,0,90.4,1,0,0.854,0,0,3,0,0,0,10,-1.718,0,0,1,1,0,0,VALID,0,0,0,0,0,1,0,0,0,0,0,0,0,0,0,0,0,0,0,0,374.9,462.94,2,0,0.08,0.08,437,14.29,0.08,0.06,31.41,FLYING,CF1-F,0:/Integrated Flight Computer/aircraft/cf1_f_cfg.ks (inferred preloaded)
31.79,TAKEOFF,TO_CLIMB,98.13,80,-18.13,62.25,15.23,13.19,4.57,91.22,-1.197,0.8187,0,0,0,0,0,0,0,0,0,90.4,8,0,1,8.82,0,0,12.63,90.4,-0.8755,-0.0067,0.4831,12.57,90.4,0,0,0,0,0,0,0,0,90.4,1,0,0.822,0,0,3,0,0,0,10,-1.718,0,0,1,1,0,0,VALID,0,0,0,0,0,1,0,0,0,0,0,0,0,0,0,0,0,0,0,0,374.32,462.08,2,0,0.08,0.08,441,14.29,0.08,0.06,31.69,FLYING,CF1-F,0:/Integrated Flight Computer/aircraft/cf1_f_cfg.ks (inferred preloaded)
32.05,TAKEOFF,TO_CLIMB,98.88,80,-18.88,66.34,15.61,13.17,4.41,91.19,-1.198,0.8112,0,0,0,0,0,0,0,0,0,90.4,8,0,1,8.97,0,0,12.46,90.4,-0.8769,-0.0067,0.4806,12.41,90.4,0,0,0,0,0,0,0,0,90.4,1,0,0.792,0,0,3,0,0,0,10,-1.718,0,0,1,1,0,0,VALID,0,0,0,0,0,1,0,0,0,0,0,0,0,0,0,0,0,0,0,0,373.71,461.27,2,0,0.08,0.08,445,15.38,0.08,0.04,31.95,FLYING,CF1-F,0:/Integrated Flight Computer/aircraft/cf1_f_cfg.ks (inferred preloaded)
32.33,TAKEOFF,TO_CLIMB,99.6,80,-19.6,70.76,16,13.16,4.25,91.16,-1.196,0.804,0,0,0,0,0,0,0,0,0,90.4,8,0,1,9.13,0,0,12.27,90.4,-0.8783,-0.0067,0.4781,12.25,90.4,0,0,0,0,0,0,0,0,90.4,1,0,0.761,0,0,3,0,0,0,10,-1.718,0,0,1,1,0,0,VALID,0,0,0,0,0,1,0,0,0,0,0,0,0,0,0,0,0,0,0,0,373.03,460.47,2,0,0.051,0.051,450,18.22,0.08,0.04,32.23,FLYING,CF1-F,0:/Integrated Flight Computer/aircraft/cf1_f_cfg.ks (inferred preloaded)
32.6,TAKEOFF,TO_CLIMB,100.28,80,-20.28,75.23,16.37,13.14,4.1,91.13,-1.191,0.7972,0,0,0,0,0,0,0,0,0,90.4,8,0,1,9.27,0,0,12.13,90.4,-0.8796,-0.0067,0.4757,12.1,90.4,0,0,0,0,0,0,0,0,90.4,1,0,0.731,0,0,3,0,0,0,10,-1.718,0,0,1,1,0,0,VALID,0,0,0,0,0,1,0,0,0,0,0,0,0,0,0,0,0,0,0,0,372.21,459.7,2,0,0.062,0.062,454,14.77,0.092,0.03,32.5,FLYING,CF1-F,0:/Integrated Flight Computer/aircraft/cf1_f_cfg.ks (inferred preloaded)
32.85,TAKEOFF,TO_CLIMB,100.98,80,-20.98,79.53,16.71,13.13,3.96,91.1,-1.186,0.7902,0,0,0,0,0,0,0,0,0,90.4,8,0,1,9.39,0,0,12.01,90.4,-0.8807,-0.0067,0.4736,11.96,90.4,0,0,0,0,0,0,0,0,90.4,1,0,0.703,0,0,3,0,0,0,10,-1.718,0,0,1,1,0,0,VALID,0,0,0,0,0,1,0,0,0,0,0,0,0,0,0,0,0,0,0,0,371.21,458.93,2,0,0.097,0.097,457,11.77,0.097,0.062,32.75,FLYING,CF1-F,0:/Integrated Flight Computer/aircraft/cf1_f_cfg.ks (inferred preloaded)
33.18,TAKEOFF,TO_CLIMB,101.89,80,-21.89,85.27,17.13,13.1,3.79,91.07,-1.175,0.7811,0,0,0,0,0,0,0,0,0,90.4,8,0,1,9.54,0,0,11.84,90.4,-0.8822,-0.0067,0.4708,11.79,90.4,0,0,0,0,0,0,0,0,90.4,1,0,0.668,0,0,3,0,0,0,10,-1.718,0,0,1,1,0,0,VALID,0,0,0,0,0,1,0,0,0,0,0,0,0,0,0,0,0,0,0,0,369.65,457.9,2,0,0.102,0.102,461,12,0.102,0.065,33.08,FLYING,CF1-F,0:/Integrated Flight Computer/aircraft/cf1_f_cfg.ks (inferred preloaded)
33.5,TAKEOFF,TO_CLIMB,102.74,80,-22.74,90.77,17.51,13.06,3.63,91.04,-1.158,0.78,0,0,0,0,0,0,0,0,0,90.4,8,0,1,9.67,0,0,11.68,90.4,-0.8835,-0.0067,0.4683,11.63,90.4,0,0,0,0,0,0,0,0,90.4,1,0,0.637,0,0,3,0,0,0,10,-1.718,0,0,1,1,0,0,VALID,0,0,0,0,0,1,0,0,0,0,0,0,0,0,0,0,0,0,0,0,367.98,456.94,2,0,0.105,0.105,464,9.59,0.105,0.102,33.4,FLYING,CF1-F,0:/Integrated Flight Computer/aircraft/cf1_f_cfg.ks (inferred preloaded)
33.81,TAKEOFF,TO_CLIMB,103.61,80,-23.61,96.43,17.87,13.02,3.47,91.01,-1.14,0.78,0,0,0,0,0,0,0,0,0,90.4,8,0,1,9.78,0,0,11.52,90.4,-0.8848,-0.0067,0.4659,11.47,90.4,0,0,0,0,0,0,0,0,90.4,1,0,0.606,0,0,3,0,0,0,10,-1.718,0,0,1,1,0,0,VALID,0,0,0,0,0,1,0,0,0,0,0,0,0,0,0,0,0,0,0,0,366.32,455.96,2,0,0.105,0.105,467,9.52,0.105,0.105,33.71,FLYING,CF1-F,0:/Integrated Flight Computer/aircraft/cf1_f_cfg.ks (inferred preloaded)
34.13,TAKEOFF,TO_CLIMB,104.47,80,-24.47,102.21,18.21,12.99,3.33,90.98,-1.123,0.78,0,0,0,0,0,0,0,0,0,90.4,8,0,1,9.89,0,0,11.38,90.4,-0.886,-0.0067,0.4637,11.33,90.4,0,0,0,0,0,0,0,0,90.4,1,0,0.576,0,0,3,0,0,0,10,-1.718,0,0,1,1,0,0,VALID,0,0,0,0,0,1,0,0,0,0,0,0,0,0,0,0,0,0,0,0,364.73,454.98,2,0,0.105,0.105,470,9.52,0.105,0.105,34.03,FLYING,CF1-F,0:/Integrated Flight Computer/aircraft/cf1_f_cfg.ks (inferred preloaded)
34.44,TAKEOFF,TO_CLIMB,105.32,80,-25.32,108.09,18.53,12.94,3.19,90.95,-1.105,0.78,0,0,0,0,0,0,0,0,0,90.4,8,0,1,9.98,0,0,11.25,90.4,-0.8871,-0.0067,0.4615,11.19,90.4,0,0,0,0,0,0,0,0,90.4,1,0,0.546,0,0,3,0,0,0,10,-1.718,0,0,1,1,0,0,VALID,0,0,0,0,0,1,0,0,0,0,0,0,0,0,0,0,0,0,0,0,363.2,454,2,0,0.105,0.105,473,9.52,0.105,0.105,34.34,FLYING,CF1-F,0:/Integrated Flight Computer/aircraft/cf1_f_cfg.ks (inferred preloaded)
34.76,TAKEOFF,TO_CLIMB,106.16,80,-26.16,114.06,18.85,12.89,3.06,90.92,-1.085,0.78,0,0,0,0,0,0,0,0,0,90.4,8,0,1,10.07,0,0,11.1,90.4,-0.8882,-0.0067,0.4594,11.06,90.4,0,0,0,0,0,0,0,0,90.4,1,0,0.517,0,0,3,0,0,0,10,-1.718,0,0,1,1,0,0,VALID,0,0,0,0,0,1,0,0,0,0,0,0,0,0,0,0,0,0,0,0,361.74,453.02,2,0,0.105,0.105,476,9.52,0.105,0.105,34.66,FLYING,CF1-F,0:/Integrated Flight Computer/aircraft/cf1_f_cfg.ks (inferred preloaded)
35.07,TAKEOFF,TO_CLIMB,107,80,-27,120.13,19.14,12.83,2.92,90.89,-1.066,0.78,0,0,0,0,0,0,0,0,0,90.4,8,0,1,10.14,0,0,10.97,90.4,-0.8894,-0.0067,0.4572,10.92,90.4,0,0,0,0,0,0,0,0,90.4,1,0,0.49,0,0,3,0,0,0,10,-1.718,0,0,1,1,0,0,VALID,0,0,0,0,0,1,0,0,0,0,0,0,0,0,0,0,0,0,0,0,360.33,452.04,2,0,0.105,0.105,479,9.52,0.105,0.105,34.97,FLYING,CF1-F,0:/Integrated Flight Computer/aircraft/cf1_f_cfg.ks (inferred preloaded)
35.39,TAKEOFF,TO_CLIMB,107.82,80,-27.82,126.28,19.41,12.77,2.8,90.86,-1.045,0.78,0,0,0,0,0,0,0,0,0,90.4,8,0,1,10.21,0,0,10.84,90.4,-0.8904,-0.0067,0.4552,10.8,90.4,0,0,0,0,0,0,0,0,90.4,1,0,0.463,0,0,3,0,0,0,10,-1.718,0,0,1,1,0,0,VALID,0,0,0,0,0,1,0,0,0,0,0,0,0,0,0,0,0,0,0,0,358.97,451.07,2,0,0.105,0.105,482,9.52,0.105,0.105,35.29,FLYING,CF1-F,0:/Integrated Flight Computer/aircraft/cf1_f_cfg.ks (inferred preloaded)
35.7,TAKEOFF,TO_CLIMB,108.64,80,-28.64,132.52,19.66,12.7,2.67,90.84,-1.022,0.78,0,0,0,0,0,0,0,0,0,90.4,8,0,1,10.26,0,0,10.72,90.4,-0.8914,-0.0067,0.4531,10.67,90.4,0,0,0,0,0,0,0,0,90.4,1,0,0.437,0,0,3,0,0,0,10,-1.718,0,0,1,1,0,0,VALID,0,0,0,0,0,1,0,0,0,0,0,0,0,0,0,0,0,0,0,0,357.66,450.1,2,0,0.105,0.105,485,9.52,0.105,0.105,35.6,FLYING,CF1-F,0:/Integrated Flight Computer/aircraft/cf1_f_cfg.ks (inferred preloaded)
36.02,TAKEOFF,TO_CLIMB,109.46,80,-29.46,138.83,19.91,12.63,2.56,90.81,-0.997,0.78,0,0,0,0,0,0,0,0,0,90.4,8,0,1,10.31,0,0,10.6,90.4,-0.8923,-0.0067,0.4514,10.56,90.4,0,0,0,0,0,0,0,0,90.4,1,0,0.411,0,0,3,0,0,0,10,-1.718,0,0,1,1,0,0,VALID,0,0,0,0,0,1,0,0,0,0,0,0,0,0,0,0,0,0,0,0,356.4,449.12,2,0,0.105,0.105,488,9.52,0.105,0.105,35.92,FLYING,CF1-F,0:/Integrated Flight Computer/aircraft/cf1_f_cfg.ks (inferred preloaded)
36.33,TAKEOFF,TO_CLIMB,110.27,80,-30.27,145.21,20.13,12.56,2.45,90.79,-0.971,0.78,0,0,0,0,0,0,0,0,0,90.4,8,0,1,10.35,0,0,10.49,90.4,-0.8932,-0.0067,0.4496,10.45,90.4,0,0,0,0,0,0,0,0,90.4,1,0,0.387,0,0,3,0,0,0,10,-1.718,0,0,1,1,0,0,VALID,0,0,0,0,0,1,0,0,0,0,0,0,0,0,0,0,0,0,0,0,355.17,448.16,2,0,0.105,0.105,491,9.52,0.105,0.105,36.23,FLYING,CF1-F,0:/Integrated Flight Computer/aircraft/cf1_f_cfg.ks (inferred preloaded)
36.65,TAKEOFF,TO_CLIMB,111.07,80,-31.07,151.63,20.34,12.48,2.33,90.77,-0.921,0.78,0,0,0,0,0,0,0,0,0,90.4,8,0,1,10.38,0,0,10.37,90.4,-0.8941,-0.0068,0.4477,10.33,90.4,0,0,0,0,0,0,0,0,90.4,1,0,0.366,0,0,3,0,0,0,10,-1.718,0,0,1,1,0,0,VALID,0,0,0,0,0,1,0,0,0,0,0,0,0,0,0,0,0,0,0,0,353.99,447.19,2,0,0.105,0.105,494,9.52,0.105,0.105,36.55,FLYING,CF1-F,0:/Integrated Flight Computer/aircraft/cf1_f_cfg.ks (inferred preloaded)
36.96,TAKEOFF,TO_CLIMB,111.87,80,-31.87,158.17,20.53,12.4,2.23,90.75,-0.849,0.78,0,0,0,0,0,0,0,0,0,90.4,8,0,1,10.4,0,0,10.27,90.4,-0.8949,-0.0068,0.4462,10.23,90.4,0,0,0,0,0,0,0,0,90.4,1,0,0.348,0,0,3,0,0,0,10,-1.718,0,0,1,1,0,0,VALID,0,0,0,0,0,1,0,0,0,0,0,0,0,0,0,0,0,0,0,0,352.84,446.22,2,0,0.105,0.105,497,9.52,0.105,0.105,36.86,FLYING,CF1-F,0:/Integrated Flight Computer/aircraft/cf1_f_cfg.ks (inferred preloaded)
37.28,TAKEOFF,TO_CLIMB,112.66,80,-32.66,164.75,20.71,12.32,2.14,90.73,-0.776,0.78,0,0,0,0,0,0,0,0,0,90.4,8,0,1,10.41,0,0,10.17,90.4,-0.8957,-0.0068,0.4447,10.14,90.4,0,0,0,0,0,0,0,0,90.4,1,0,0.331,0,0,3,0,0,0,10,-1.718,0,0,1,1,0,0,VALID,0,0,0,0,0,1,0,0,0,0,0,0,0,0,0,0,0,0,0,0,351.72,445.26,2,0,0.105,0.105,500,9.52,0.105,0.105,37.18,FLYING,CF1-F,0:/Integrated Flight Computer/aircraft/cf1_f_cfg.ks (inferred preloaded)
37.59,TAKEOFF,TO_CLIMB,113.45,80,-33.45,171.33,20.88,12.25,2.06,90.72,-0.712,0.78,0,0,0,0,0,0,0,0,0,90.4,8,0,1,10.43,0,0,10.09,90.4,-0.8964,-0.0068,0.4433,10.06,90.4,0,0,0,0,0,0,0,0,90.4,1,0,0.315,0,0,3,0,0,0,10,-1.718,0,0,1,1,0,0,VALID,0,0,0,0,0,1,0,0,0,0,0,0,0,0,0,0,0,0,0,0,350.63,444.3,2,0,0.105,0.105,503,9.52,0.105,0.105,37.49,FLYING,CF1-F,0:/Integrated Flight Computer/aircraft/cf1_f_cfg.ks (inferred preloaded)
37.91,TAKEOFF,TO_CLIMB,114.24,80,-34.24,178.03,21.04,12.17,1.97,90.7,-0.664,0.78,0,0,0,0,0,0,0,0,0,90.4,8,0,1,10.44,0,0,10,90.4,-0.897,-0.0068,0.4419,9.97,90.4,0,0,0,0,0,0,0,0,90.4,1,0,0.3,0,0,3,0,0,0,10,-1.718,0,0,1,1,0,0,VALID,0,0,0,0,0,1,0,0,0,0,0,0,0,0,0,0,0,0,0,0,349.57,443.34,2,0,0.105,0.105,506,9.52,0.105,0.105,37.81,FLYING,CF1-F,0:/Integrated Flight Computer/aircraft/cf1_f_cfg.ks (inferred preloaded)
38.22,TAKEOFF,TO_CLIMB,115.02,80,-35.02,184.72,21.2,12.09,1.89,90.68,-0.632,0.78,0,0,0,0,0,0,0,0,0,90.4,8,0,1,10.44,0,0,9.92,90.4,-0.8977,-0.0068,0.4405,9.89,90.4,0,0,0,0,0,0,0,0,90.4,1,0,0.284,0,0,3,0,0,0,10,-1.718,0,0,1,1,0,0,VALID,0,0,0,0,0,1,0,0,0,0,0,0,0,0,0,0,0,0,0,0,348.54,442.38,2,0,0.105,0.105,509,9.52,0.105,0.105,38.12,FLYING,CF1-F,0:/Integrated Flight Computer/aircraft/cf1_f_cfg.ks (inferred preloaded)
38.54,TAKEOFF,TO_CLIMB,115.8,80,-35.8,191.46,21.34,12,1.8,90.67,-0.616,0.78,0,0,0,0,0,0,0,0,0,90.4,8,0,1,10.44,0,0,9.83,90.4,-0.8984,-0.0068,0.4391,9.8,90.4,0,0,0,0,0,0,0,0,90.4,1,0,0.268,0,0,3,0,0,0,10,-1.718,0,0,1,1,0,0,VALID,0,0,0,0,0,1,0,0,0,0,0,0,0,0,0,0,0,0,0,0,347.53,441.43,2,0,0.105,0.105,512,9.52,0.105,0.105,38.44,FLYING,CF1-F,0:/Integrated Flight Computer/aircraft/cf1_f_cfg.ks (inferred preloaded)
38.85,TAKEOFF,TO_CLIMB,116.57,80,-36.57,198.27,21.47,11.91,1.71,90.65,-0.617,0.78,0,0,0,0,0,0,0,0,0,90.4,8,0,1,10.44,0,0,9.74,90.4,-0.8991,-0.0068,0.4376,9.71,90.4,0,0,0,0,0,0,0,0,90.4,1,0,0.252,0,0,3,0,0,0,10,-1.718,0,0,1,1,0,0,VALID,0,0,0,0,0,1,0,0,0,0,0,0,0,0,0,0,0,0,0,0,346.54,440.48,2,0,0.105,0.105,515,9.52,0.105,0.105,38.75,FLYING,CF1-F,0:/Integrated Flight Computer/aircraft/cf1_f_cfg.ks (inferred preloaded)
39.17,TAKEOFF,TO_CLIMB,117.34,80,-37.34,205.12,21.59,11.81,1.62,90.64,-0.622,0.78,0,0,0,0,0,0,0,0,0,90.4,8,0,1,10.42,0,0,9.65,90.4,-0.8998,-0.0068,0.4362,9.62,90.4,0,0,0,0,0,0,0,0,90.4,1,0,0.236,0,0,3,0,0,0,10,-1.718,0,0,1,1,0,0,VALID,0,0,0,0,0,1,0,0,0,0,0,0,0,0,0,0,0,0,0,0,345.57,439.53,2,0,0.105,0.105,518,9.52,0.105,0.105,39.07,FLYING,CF1-F,0:/Integrated Flight Computer/aircraft/cf1_f_cfg.ks (inferred preloaded)
39.48,TAKEOFF,TO_CLIMB,118.11,80,-38.11,211.97,21.69,11.71,1.55,90.62,-0.615,0.78,0,0,0,0,0,0,0,0,0,90.4,8,0,1,10.41,0,0,9.57,90.4,-0.9004,-0.0068,0.435,9.55,90.4,0,0,0,0,0,0,0,0,90.4,1,0,0.221,0,0,3,0,0,0,10,-1.718,0,0,1,1,0,0,VALID,0,0,0,0,0,1,0,0,0,0,0,0,0,0,0,0,0,0,0,0,344.63,438.58,2,0,0.105,0.105,521,9.52,0.105,0.105,39.38,FLYING,CF1-F,0:/Integrated Flight Computer/aircraft/cf1_f_cfg.ks (inferred preloaded)
39.8,TAKEOFF,TO_CLIMB,118.88,80,-38.88,218.87,21.79,11.61,1.47,90.61,-0.606,0.78,0,0,0,0,0,0,0,0,0,90.4,8,0,1,10.39,0,0,9.5,90.4,-0.901,-0.0068,0.4337,9.47,90.4,0,0,0,0,0,0,0,0,90.4,1,0,0.207,0,0,3,0,0,0,10,-1.718,0,0,1,1,0,0,VALID,0,0,0,0,0,1,0,0,0,0,0,0,0,0,0,0,0,0,0,0,343.7,437.64,2,0,0.105,0.105,524,9.52,0.105,0.105,39.7,FLYING,CF1-F,0:/Integrated Flight Computer/aircraft/cf1_f_cfg.ks (inferred preloaded)
40.11,TAKEOFF,TO_CLIMB,119.64,80,-39.64,225.82,21.87,11.51,1.4,90.59,-0.595,0.78,0,0,0,0,0,0,0,0,0,90.4,8,0,1,10.36,0,0,9.43,90.4,-0.9016,-0.0068,0.4325,9.4,90.4,0,0,0,0,0,0,0,0,90.4,1,0,0.194,0,0,3,0,0,0,10,-1.718,0,0,1,1,0,0,VALID,0,0,0,0,0,1,0,0,0,0,0,0,0,0,0,0,0,0,0,0,342.79,436.7,2,0,0.105,0.105,527,9.52,0.105,0.105,40.01,FLYING,CF1-F,0:/Integrated Flight Computer/aircraft/cf1_f_cfg.ks (inferred preloaded)
40.43,TAKEOFF,TO_CLIMB,120.41,80,-40.41,232.77,21.95,11.41,1.32,90.58,-0.585,0.78,0,0,0,0,0,0,0,0,0,90.4,8,0,1,10.33,0,0,9.35,90.4,-0.9022,-0.0068,0.4312,9.32,90.4,0,0,0,0,0,0,0,0,90.4,1,0,0.181,0,0,3,0,0,0,10,-1.718,0,0,1,1,0,0,VALID,0,0,0,0,0,1,0,0,0,0,0,0,0,0,0,0,0,0,0,0,341.9,435.76,2,0,0.105,0.105,530,9.52,0.105,0.105,40.33,FLYING,CF1-F,0:/Integrated Flight Computer/aircraft/cf1_f_cfg.ks (inferred preloaded)
40.74,TAKEOFF,TO_CLIMB,121.17,80,-41.17,239.71,22.01,11.29,1.25,90.57,-0.579,0.78,0,0,0,0,0,0,0,0,0,90.4,8,0,1,10.29,0,0,9.27,90.4,-0.9028,-0.0068,0.43,9.25,90.4,0,0,0,0,0,0,0,0,90.4,1,0,0.168,0,0,3,0,0,0,10,-1.718,0,0,1,1,0,0,VALID,0,0,0,0,0,1,0,0,0,0,0,0,0,0,0,0,0,0,0,0,341.02,434.82,2,0,0.105,0.105,533,9.52,0.105,0.105,40.64,FLYING,CF1-F,0:/Integrated Flight Computer/aircraft/cf1_f_cfg.ks (inferred preloaded)
41.06,TAKEOFF,TO_CLIMB,121.93,80,-41.93,246.71,22.06,11.19,1.18,90.56,-0.565,0.78,0,0,0,0,0,0,0,0,0,90.4,8,0,1,10.25,0,0,9.2,90.4,-0.9033,-0.0068,0.4289,9.18,90.4,0,0,0,0,0,0,0,0,90.4,1,0,0.155,0,0,3,0,0,0,10,-1.718,0,0,1,1,0,0,VALID,0,0,0,0,0,1,0,0,0,0,0,0,0,0,0,0,0,0,0,0,340.15,433.89,2,0,0.105,0.105,536,9.52,0.105,0.105,40.96,FLYING,CF1-F,0:/Integrated Flight Computer/aircraft/cf1_f_cfg.ks (inferred preloaded)
