t_s,phase,subphase,ias_ms,vapp_ms,spd_err_ms,agl_m,vs_ms,pitch_deg,aoa_deg,hdg_deg,bank_deg,thr_cmd,thr_cur,thr_intg,at_gain,at_tau_s,at_a_up,at_a_dn,at_kp_thr,at_ki_spd,at_thr_slew,aa_hdg_cmd_deg,aa_fpa_cmd_deg,ils_loc_m,ils_gs_m,ils_dist_km,loc_corr_deg,gs_corr_deg,flare_fpa_cmd,flare_tgt_vs,flare_frac,steer_hdg_deg,steer_blend,ro_loc_corr_deg,ro_hdg_err_deg,ro_yaw_tgt,ro_yaw_scale,ro_yaw_gate,yaw_cmd,roll_cmd,pitch_cmd,ro_pitch_tgt_deg,ro_pitch_err_deg,ro_pitch_ff,ro_roll_assist,flaps_cur,flaps_tgt,phase_el_s,status
1.08,APPROACH,FLY_TO_FIX,79.87,76.4,-3.47,2213.57,76.74,59.9,5.83,260.15,5.513,0,0,0,1,0.6,0.9,0.762,0.35,0.0168,0.4,66.38,-4.649,0,0,0,0,0,0,0,0,262.06,0,0,0,0,0,0,0,0,0,0,0,0,0,1,1,1.12,FLYING
1.9,APPROACH,FLY_TO_FIX,74.87,76.8,1.93,2268.94,72.67,57.14,2.58,259.88,4.389,0.2,0,0.727,1,0.6,0.9,0.839,0.35,0.0168,0.4,66.44,-4.958,0,0,0,0,0,0,0,0,262.06,0,0,0,0,0,0,0,0,0,0,0,0,0,1,1,1.94,FLYING
2.66,APPROACH,FLY_TO_FIX,70.18,77.2,7.02,2320.45,68.44,62.1,7.27,260.1,0.876,0.4,0,0.723,1,0.6,0.944,0.839,0.35,0.0168,0.4,66.48,-5.23,0,0,0,0,0,0,0,0,262.06,0,0,0,0,0,0,0,0,0,0,0,0,0,1,1,2.7,FLYING
3.42,APPROACH,FLY_TO_FIX,65.25,77.6,12.35,2369.05,64.6,63.74,7.98,260.51,-0.002,0.6,0,0.719,1,0.6,1.211,0.839,0.35,0.0168,0.4,66.52,-5.486,0,0,0,0,0,0,0,0,262.06,0,0,0,0,0,0,0,0,0,0,0,0,0,1,1,3.46,FLYING
4.18,APPROACH,FLY_TO_FIX,60.3,78,17.7,2416.43,60.51,69.22,12.48,262.15,-1.718,0.8,0,0.716,1,0.6,1.458,0.839,0.35,0.0168,0.4,66.56,-5.728,0,0,0,0,0,0,0,0,262.06,0,0,0,0,0,0,0,0,0,0,0,0,0,1,1,4.22,FLYING
4.94,APPROACH,FLY_TO_FIX,55.18,78.4,23.22,2460.49,56.59,72.97,14.72,266.36,-3.254,1,0,0.712,1,0.6,1.686,0.839,0.35,0.0168,0.4,66.59,-5.955,0,0,0,0,0,0,0,0,262.06,0,0,0,0,0,0,0,0,0,0,0,0,0,1,1,4.98,FLYING
5.7,APPROACH,FLY_TO_FIX,50.19,78.8,28.61,2501.44,52.32,74.36,14.92,269.63,-3.717,1,0,0.709,1,0.6,1.898,0.839,0.35,0.0168,0.4,66.63,-6,0,0,0,0,0,0,0,0,262.06,0,0,0,0,0,0,0,0,0,0,0,0,0,1,1,5.74,FLYING
6.46,APPROACH,FLY_TO_FIX,45.43,79.2,33.77,2539.66,47.82,75.15,14.98,271.44,-3.593,1,0,0.705,1,0.6,2.094,0.839,0.35,0.0168,0.4,66.66,-6,0,0,0,0,0,0,0,0,262.06,0,0,0,0,0,0,0,0,0,0,0,0,0,1,1,6.5,FLYING
7.26,APPROACH,FLY_TO_FIX,40.64,79.6,38.96,2575.95,42.91,75.31,14.98,272.03,-2.981,1,0,0.702,1,0.6,2.275,0.839,0.35,0.0168,0.4,66.69,-6,0,0,0,0,0,0,0,0,262.06,0,0,0,0,0,0,0,0,0,0,0,0,0,1,1,7.3,FLYING
8.04,APPROACH,FLY_TO_FIX,36.23,80,43.77,2606.24,38.07,74.7,14.94,271.23,-2.082,1,0,0.698,1,0.6,2.443,0.839,0.35,0.0168,0.4,66.71,-6,0,0,0,0,0,0,0,0,262.06,0,0,0,0,0,0,0,0,0,0,0,0,0,1,1,8.08,FLYING
8.82,APPROACH,FLY_TO_FIX,32.08,80,47.92,2632.76,33.19,73.05,14.81,269.93,-1.069,1,0,0.695,1,0.6,2.598,0.839,0.35,0.0168,0.4,66.74,-6,0,0,0,0,0,0,0,0,262.06,0,0,0,0,0,0,0,0,0,0,0,0,0,1,1,8.86,FLYING
9.6,APPROACH,FLY_TO_FIX,28.24,80,51.76,2655.48,28.31,70.48,15,268.58,0.097,1,0,0.691,1,0.6,2.742,0.839,0.35,0.0168,0.4,66.76,-6,0,0,0,0,0,0,0,0,262.06,0,0,0,0,0,0,0,0,0,0,0,0,0,1,1,9.64,FLYING
10.38,APPROACH,FLY_TO_FIX,24.76,80,55.24,2674.39,23.45,67.47,16.35,267.38,1.372,1,0,0.688,1,0.6,2.875,0.839,0.35,0.0168,0.4,66.79,-6,0,0,0,0,0,0,0,0,262.06,0,0,0,0,0,0,0,0,0,0,0,0,0,1,1,10.42,FLYING
11.16,APPROACH,FLY_TO_FIX,21.72,80,58.28,2689.8,18.59,64.75,20.01,265.77,2.519,1,0,0.684,1,0.6,2.999,0.839,0.35,0.0168,0.4,66.81,-6,0,0,0,0,0,0,0,0,262.06,0,0,0,0,0,0,0,0,0,0,0,0,0,1,1,11.2,FLYING
11.94,APPROACH,FLY_TO_FIX,19.15,80,60.85,2702.54,13.61,63.47,27.66,262.84,3.883,1,0,0.681,1,0.6,3.113,0.839,0.35,0.0168,0.4,66.83,-6,0,0,0,0,0,0,0,0,262.06,0,0,0,0,0,0,0,0,0,0,0,0,0,1,1,11.98,FLYING
12.72,APPROACH,FLY_TO_FIX,17.05,80,62.95,2709.64,8.35,64.45,40.81,257.62,5.814,1,0,0.677,1,0.6,3.218,0.839,0.35,0.0168,0.4,66.86,-6,0,0,0,0,0,0,0,0,262.06,0,0,0,0,0,0,0,0,0,0,0,0,0,1,1,12.76,FLYING
13.5,APPROACH,FLY_TO_FIX,15.9,80,64.1,2712.39,3.18,66.82,57.77,250.3,7.989,1,0,0.674,1,0.6,3.315,0.839,0.35,0.0168,0.4,66.88,-6,0,0,0,0,0,0,0,0,262.06,0,0,0,0,0,0,0,0,0,0,0,0,0,1,1,13.54,FLYING
14.28,APPROACH,FLY_TO_FIX,15.76,80,64.24,2711.36,-1.77,70.31,76.59,239.26,10.077,1,0,0.671,1,0.6,3.404,0.839,0.35,0.0168,0.4,66.9,-6,0,0,0,0,0,0,0,0,262.06,0,0,0,0,0,0,0,0,0,0,0,0,0,1,1,14.32,FLYING
15.06,APPROACH,FLY_TO_FIX,16.35,80,63.65,2706.8,-6.52,74.12,83.86,219.52,12.086,1,0,0.667,1,0.6,3.487,0.839,0.35,0.0168,0.4,66.92,-6,0,0,0,0,0,0,0,0,262.06,0,0,0,0,0,0,0,0,0,0,0,0,0,1,1,15.1,FLYING
15.84,APPROACH,FLY_TO_FIX,17.51,80,62.49,2698.89,-11.16,75.49,64.68,187.97,14.276,1,0,0.664,1,0.6,3.562,0.839,0.35,0.0168,0.4,66.94,-6,0,0,0,0,0,0,0,0,262.06,0,0,0,0,0,0,0,0,0,0,0,0,0,1,1,15.88,FLYING
16.62,APPROACH,FLY_TO_FIX,19.14,80,60.86,2687.56,-15.83,71.8,45.97,156.16,17.218,1,0,0.661,1,0.6,3.631,0.839,0.35,0.0168,0.4,66.95,-6,0,0,0,0,0,0,0,0,262.06,0,0,0,0,0,0,0,0,0,0,0,0,0,1,1,16.66,FLYING
17.4,APPROACH,FLY_TO_FIX,21.33,80,58.67,2673.22,-20.87,64.04,27.48,136.75,21.23,1,0,0.657,1,0.6,3.695,0.839,0.35,0.0168,0.4,66.96,-6,0,0,0,0,0,0,0,0,262.06,0,0,0,0,0,0,0,0,0,0,0,0,0,1,1,17.44,FLYING
18.18,APPROACH,FLY_TO_FIX,24.05,80,55.95,2654.76,-26,54.27,10.16,125.78,26.149,1,0,0.654,1,0.6,3.753,0.839,0.35,0.0168,0.4,66.97,-6,0,0,0,0,0,0,0,0,262.06,0,0,0,0,0,0,0,0,0,0,0,0,0,1,1,18.22,FLYING
18.96,APPROACH,FLY_TO_FIX,27.22,80,52.78,2631.98,-31.13,42.12,-6.87,118.28,32.584,0.9716,0,20,1,0.6,3.806,0.839,0.35,0.0168,0.4,66.97,-6,0,0,0,0,0,0,0,0,262.06,0,0,0,0,0,0,0,0,0,0,0,0,0,1,1,19,FLYING
19.74,APPROACH,FLY_TO_FIX,30.75,80,49.25,2603.49,-36.23,26.5,-25.53,111.45,41.484,0.7716,0,20,1,0.6,3.854,0.839,0.35,0.0168,0.4,66.97,-6,0,0,0,0,0,0,0,0,262.06,0,0,0,0,0,0,0,0,0,0,0,0,0,1,1,19.78,FLYING
20.52,APPROACH,FLY_TO_FIX,34.55,80,45.45,2570.27,-41.41,7,-52.88,103.88,51.664,0.5716,0,20,1,0.6,3.897,0.839,0.35,0.0168,0.4,66.96,-6,0,0,0,0,0,0,0,0,262.06,0,0,0,0,0,0,0,0,0,0,0,0,0,1,1,20.56,FLYING
21.3,APPROACH,FLY_TO_FIX,38.86,80,41.14,2532.28,-47.19,-15.97,-64.13,94.48,56.616,0.3716,0,20,1,0.6,3.936,0.839,0.35,0.0168,0.4,66.94,-6,0,0,0,0,0,0,0,0,262.06,0,0,0,0,0,0,0,0,0,0,0,0,0,1,1,21.34,FLYING
22.08,APPROACH,FLY_TO_FIX,44.37,80,35.63,2489.54,-54.43,-40.38,-4.28,79.78,47.651,0.1716,0,20,1,0.6,3.971,0.839,0.35,0.0168,0.4,66.92,-6,0,0,0,0,0,0,0,0,262.06,0,0,0,0,0,0,0,0,0,0,0,0,0,1,1,22.12,FLYING
22.86,APPROACH,FLY_TO_FIX,50.99,80,29.01,2441.82,-62.87,-61.24,18.24,48.54,26.455,0,0,20,1,0.6,4.001,0.839,0.35,0.0168,0.4,66.89,-5.997,0,0,0,0,0,0,0,0,262.06,0,0,0,0,0,0,0,0,0,0,0,0,0,1,1,22.9,FLYING
23.64,APPROACH,FLY_TO_FIX,56.65,80,23.35,2389.15,-69.41,-65.67,24.87,346.88,-0.622,0,0,20,1,0.6,4.027,0.805,0.35,0.0168,0.4,66.87,-5.738,0,0,0,0,0,0,0,0,262.06,0,0,0,0,0,0,0,0,0,0,0,0,0,1,1,23.68,FLYING
24.42,APPROACH,FLY_TO_FIX,59.86,80,20.14,2333.54,-72.6,-50.02,29.39,314.11,-21.032,0,0,20,1,0.6,4.051,0.773,0.35,0.0168,0.4,66.88,-5.469,0,0,0,0,0,0,0,0,262.06,0,0,0,0,0,0,0,0,0,0,0,0,0,1,1,24.46,FLYING
25.2,APPROACH,FLY_TO_FIX,62.58,80,17.42,2274.6,-74.78,-42.4,32.32,310.2,-24.348,0,0,20,1,0.6,4.074,0.75,0.35,0.0168,0.4,66.91,-5.188,0,0,0,0,0,0,0,0,262.06,0,0,0,0,0,0,0,0,0,0,0,0,0,1,1,25.24,FLYING
25.98,APPROACH,FLY_TO_FIX,64.65,80,15.35,2212.22,-75.98,-47.34,26.72,320.78,-17.488,0,0,20,1,0.6,4.097,0.75,0.35,0.0168,0.4,66.96,-4.893,0,0,0,0,0,0,0,0,262.06,0,0,0,0,0,0,0,0,0,0,0,0,0,1,1,26.02,FLYING
26.76,APPROACH,FLY_TO_FIX,66.61,80,13.39,2148.19,-76.68,-53.48,20.8,352.84,-6.827,0,0,20,1,0.6,4.119,0.75,0.35,0.0168,0.4,67.03,-4.592,0,0,0,0,0,0,0,0,262.06,0,0,0,0,0,0,0,0,0,0,0,0,0,1,1,26.8,FLYING
27.54,APPROACH,FLY_TO_FIX,68.91,80,11.09,2084.02,-77.09,-47.06,27.01,30.03,-1.09,0,0,20,1,0.6,4.14,0.75,0.35,0.0168,0.4,67.12,-4.294,0,0,0,0,0,0,0,0,262.06,0,0,0,0,0,0,0,0,0,0,0,0,0,1,1,27.58,FLYING
28.32,APPROACH,FLY_TO_FIX,68.12,80,11.88,2020.3,-74.13,-37.94,35.14,36.4,-9.433,0,0,20,1,0.6,4.162,0.75,0.35,0.0168,0.4,67.22,-4.002,0,0,0,0,0,0,0,0,262.06,0,0,0,0,0,0,0,0,0,0,0,0,0,1,1,28.36,FLYING
29.1,APPROACH,FLY_TO_FIX,64.94,80,15.06,1957.64,-69.71,-38.76,28.19,22.59,-13.571,0.2,0,20,1,0.6,4.187,0.75,0.35,0.0168,0.4,67.32,-3.719,0,0,0,0,0,0,0,0,262.06,0,0,0,0,0,0,0,0,0,0,0,0,0,1,1,29.14,FLYING
29.88,APPROACH,FLY_TO_FIX,65.3,80,14.7,1896.06,-68.88,-41.02,20.04,9.14,-16.763,0.4,0,20,1,0.6,4.212,0.75,0.35,0.0168,0.4,67.42,-3.448,0,0,0,0,0,0,0,0,262.06,0,0,0,0,0,0,0,0,0,0,0,0,0,1,1,29.92,FLYING
30.66,APPROACH,FLY_TO_FIX,69.27,80,10.73,1832.72,-71.16,-46.39,10.9,0.26,-15.399,0.2,0,20,1,0.6,4.236,0.75,0.35,0.0168,0.4,67.52,-3.174,0,0,0,0,0,0,0,0,262.06,0,0,0,0,0,0,0,0,0,0,0,0,0,1,1,30.7,FLYING
31.44,APPROACH,FLY_TO_FIX,74.3,80,5.7,1764.9,-75.03,-50.69,6.44,358.82,-10.526,0,0,20,1,0.6,4.257,0.75,0.35,0.0168,0.4,67.65,-2.889,0,0,0,0,0,0,0,0,262.06,0,0,0,0,0,0,0,0,0,0,0,0,0,1,1,31.48,FLYING
32.22,APPROACH,FLY_TO_FIX,79.52,80,0.48,1693.03,-78.77,-53.26,3.71,4.72,-6.795,0,0,20,1,0.6,4.275,0.75,0.35,0.0168,0.4,67.78,-2.59,0,0,0,0,0,0,0,0,262.06,0,0,0,0,0,0,0,0,0,0,0,0,0,1,1,32.26,FLYING
33,APPROACH,FLY_TO_FIX,84.92,80,-4.92,1626.44,-83.41,-53.21,3.9,13.6,-4.389,0,0,19.9,1,0.6,4.291,0.75,0.35,0.0168,0.4,67.93,-2.276,0,0,0,0,0,0,0,0,262.06,0,0,0,0,0,0,0,0,0,0,0,0,0,1,1,33.04,FLYING
33.78,APPROACH,FLY_TO_FIX,90,80,-10,1562.29,-86.29,-51.94,3.96,17.66,-5.711,0,0,19.8,1,0.6,4.306,0.75,0.35,0.0168,0.4,68.09,-1.948,0,0,0,0,0,0,0,0,262.06,0,0,0,0,0,0,0,0,0,0,0,0,0,1,1,33.82,FLYING
34.56,APPROACH,FLY_TO_FIX,95.05,80,-15.05,1499.99,-89.67,-53.67,1.26,18.12,-6.718,0,0,19.701,1,0.6,4.32,0.75,0.35,0.0168,0.4,68.27,-1.607,0,0,0,0,0,0,0,0,262.06,0,0,0,0,0,0,0,0,0,0,0,0,0,1,1,34.6,FLYING
35.34,APPROACH,FLY_TO_FIX,99.81,80,-19.81,1438.02,-91.58,-45.98,7.49,22.07,-9.375,0,0,19.603,1,0.6,4.332,0.75,0.35,0.0168,0.4,68.45,-1.256,0,0,0,0,0,0,0,0,262.06,0,0,0,0,0,0,0,0,0,0,0,0,0,1,1,35.38,FLYING
36.12,APPROACH,FLY_TO_FIX,103.55,80,-23.55,1379.62,-90.25,-43.02,7.39,25.83,-13.83,0,0,19.505,1,0.6,4.345,0.75,0.35,0.0168,0.4,68.64,-0.903,0,0,0,0,0,0,0,0,262.06,0,0,0,0,0,0,0,0,0,0,0,0,0,1,1,36.16,FLYING
36.9,APPROACH,FLY_TO_FIX,106.99,80,-26.99,1318.26,-88.45,-40.79,6.66,29.49,-17.061,0,0,19.407,1,0.6,4.358,0.75,0.35,0.0168,0.4,68.85,-0.555,0,0,0,0,0,0,0,0,262.06,0,0,0,0,0,0,0,0,0,0,0,0,0,1,1,36.94,FLYING
37.68,APPROACH,FLY_TO_FIX,110.07,80,-30.07,1250.67,-85.87,-38.38,6.11,33.16,-19.211,0,0,19.31,1,0.6,4.371,0.75,0.35,0.0168,0.4,69.06,-0.215,0,0,0,0,0,0,0,0,262.06,0,0,0,0,0,0,0,0,0,0,0,0,0,1,1,37.72,FLYING
38.46,APPROACH,FLY_TO_FIX,112.28,80,-32.28,1200.17,-80.82,-29.96,11.54,41.03,-23.554,0,0,19.214,1,0.6,4.384,0.75,0.35,0.0168,0.4,69.27,0.11,0,0,0,0,0,0,0,0,262.06,0,0,0,0,0,0,0,0,0,0,0,0,0,1,1,38.5,FLYING
39.24,APPROACH,FLY_TO_FIX,113.14,80,-33.14,1154.04,-73.08,-25.17,11.71,46.57,-24.969,0,0,19.118,1,0.6,4.399,0.75,0.35,0.0168,0.4,69.48,0.412,0,0,0,0,0,0,0,0,262.06,0,0,0,0,0,0,0,0,0,0,0,0,0,1,1,39.28,FLYING
40.02,APPROACH,FLY_TO_FIX,112.87,80,-32.87,1122.99,-62.59,-18.89,12.63,52.11,-24.994,0,0,19.022,1,0.6,4.416,0.75,0.35,0.0168,0.4,69.66,0.679,0,0,0,0,0,0,0,0,262.06,0,0,0,0,0,0,0,0,0,0,0,0,0,1,1,40.06,FLYING
40.8,APPROACH,FLY_TO_FIX,112.19,80,-32.19,1101.32,-52.51,-14.99,11.23,55.76,-24.32,0,0,18.927,1,0.6,4.433,0.75,0.35,0.0168,0.4,69.82,0.906,0,0,0,0,0,0,0,0,262.06,0,0,0,0,0,0,0,0,0,0,0,0,0,1,1,40.84,FLYING
41.58,APPROACH,FLY_TO_FIX,111.55,80,-31.55,1092.22,-43.78,-11.97,9.73,58.53,-22.831,0,0,18.832,1,0.6,4.452,0.75,0.35,0.0168,0.4,69.95,1.097,0,0,0,0,0,0,0,0,262.06,0,0,0,0,0,0,0,0,0,0,0,0,0,1,1,41.62,FLYING
42.36,APPROACH,FLY_TO_FIX,110.91,80,-30.91,1085.56,-36.35,-9.48,8.42,60.66,-20.574,0,0,18.738,1,0.6,4.471,0.75,0.35,0.0168,0.4,70.07,1.256,0,0,0,0,0,0,0,0,262.06,0,0,0,0,0,0,0,0,0,0,0,0,0,1,1,42.4,FLYING
43.14,APPROACH,FLY_TO_FIX,110.26,80,-30.26,1078.71,-30.22,-8.03,6.73,62,-17.583,0,0,18.645,1,0.6,4.49,0.75,0.35,0.0168,0.4,70.16,1.388,0,0,0,0,0,0,0,0,262.06,0,0,0,0,0,0,0,0,0,0,0,0,0,1,1,43.18,FLYING
43.92,APPROACH,FLY_TO_FIX,109.64,80,-29.64,1070.16,-25.28,-6.17,6.18,63.48,-15.872,0,0,18.551,1,0.6,4.5,0.75,0.35,0.0168,0.4,70.24,1.498,0,0,0,0,0,0,0,0,262.06,0,0,0,0,0,0,0,0,0,0,0,0,0,1,1,43.96,FLYING
44.7,APPROACH,FLY_TO_FIX,108.87,80,-28.87,1058.42,-20.85,-4.56,5.66,64.75,-14.308,0,0,18.459,1,0.6,4.5,0.75,0.35,0.0168,0.4,70.3,1.589,0,0,0,0,0,0,0,0,262.06,0,0,0,0,0,0,0,0,0,0,0,0,0,1,1,44.74,FLYING
45.48,APPROACH,FLY_TO_FIX,107.98,80,-27.98,1046.4,-17.06,-3.2,5.21,65.81,-12.707,0,0,4.422,1,0.6,4.5,0.75,0.35,0.0168,0.4,70.35,1.664,0,0,0,0,0,0,0,0,262.06,0,0,0,0,0,0,0,0,0,0,0,0,0,1,1,45.52,FLYING
46.26,APPROACH,FLY_TO_FIX,106.99,80,-26.99,1033.96,-13.85,-2.01,4.87,66.71,-11.122,0,0,4.4,1,0.6,4.5,0.75,0.35,0.0168,0.4,70.4,1.725,0,0,0,0,0,0,0,0,262.06,0,0,0,0,0,0,0,0,0,0,0,0,0,1,1,46.3,FLYING
47.04,APPROACH,FLY_TO_FIX,105.91,80,-25.91,1023.34,-11.13,-0.94,4.62,67.46,-9.635,0,0,-8.612,1,0.6,4.5,0.75,0.35,0.0168,0.4,70.43,1.775,0,0,0,0,0,0,0,0,262.06,0,0,0,0,0,0,0,0,0,0,0,0,0,1,1,47.08,FLYING
47.82,APPROACH,FLY_TO_FIX,104.73,80,-24.73,1009.11,-8.75,0.11,4.53,68.13,-8.333,0,0,-8.569,1,0.6,4.5,0.75,0.35,0.0168,0.4,70.46,1.814,0,0,0,0,0,0,0,0,262.06,0,0,0,0,0,0,0,0,0,0,0,0,0,1,1,47.86,FLYING
48.6,APPROACH,FLY_TO_FIX,103.48,80,-23.48,990.65,-6.73,0.97,4.4,68.67,-7.128,0,0,-20,1,0.6,4.5,0.75,0.35,0.0168,0.4,70.48,1.845,0,0,0,0,0,0,0,0,262.06,0,0,0,0,0,0,0,0,0,0,0,0,0,1,1,48.64,FLYING
49.38,APPROACH,FLY_TO_FIX,102.17,80,-22.17,966.45,-5.04,1.72,4.33,69.12,-6.031,0,0,-19.9,1,0.6,4.5,0.75,0.35,0.0168,0.4,70.5,1.868,0,0,0,0,0,0,0,0,262.06,0,0,0,0,0,0,0,0,0,0,0,0,0,1,1,49.42,FLYING
50.16,APPROACH,FLY_TO_FIX,100.8,80,-20.8,934.04,-3.64,2.4,4.3,69.49,-5.013,0.0549,0,-20,1,0.6,4.5,0.75,0.35,0.0168,0.4,70.51,1.885,0,0,0,0,0,0,0,0,262.06,0,0,0,0,0,0,0,0,0,0,0,0,0,1,1,50.2,FLYING
50.94,APPROACH,FLY_TO_FIX,99.4,80,-19.4,904.3,-2.48,3.01,4.32,69.79,-4.081,0.1196,0,-20,1,0.6,4.5,0.75,0.35,0.0168,0.4,70.52,1.897,0,0,0,0,0,0,0,0,262.06,0,0,0,0,0,0,0,0,0,0,0,0,0,1,1,50.98,FLYING
51.72,APPROACH,FLY_TO_FIX,97.99,80,-17.99,887.06,-1.53,3.58,4.39,70.02,-3.257,0.174,0,-20,1,0.6,4.5,0.75,0.35,0.0168,0.4,70.53,1.905,0,0,0,0,0,0,0,0,262.06,0,0,0,0,0,0,0,0,0,0,0,0,0,1,1,51.76,FLYING
52.5,APPROACH,FLY_TO_FIX,96.57,80,-16.57,883.55,-0.74,4.09,4.49,70.2,-2.54,0.2177,0,-20,1,0.6,4.5,0.75,0.35,0.0168,0.4,70.54,1.91,0,0,0,0,0,0,0,0,262.06,0,0,0,0,0,0,0,0,0,0,0,0,0,1,1,52.54,FLYING
53.28,APPROACH,FLY_TO_FIX,95.17,80,-15.17,920.53,-0.1,4.57,4.62,70.34,-1.949,0.2508,0,-20,1,0.6,4.5,0.75,0.35,0.0168,0.4,70.54,1.911,0,0,0,0,0,0,0,0,262.06,0,0,0,0,0,0,0,0,0,0,0,0,0,1,1,53.32,FLYING
54.06,APPROACH,FLY_TO_FIX,93.8,80,-13.8,966.6,0.43,5.01,4.76,70.44,-1.465,0.2738,0,-20,1,0.6,4.5,0.75,0.35,0.0168,0.4,70.54,1.911,0,0,0,0,0,0,0,0,262.06,0,0,0,0,0,0,0,0,0,0,0,0,0,1,1,54.1,FLYING
54.84,APPROACH,FLY_TO_FIX,92.46,80,-12.46,1004.79,0.86,5.43,4.94,70.51,-1.068,0.2877,0,-20,1,0.6,4.5,0.75,0.35,0.0168,0.4,70.54,1.908,0,0,0,0,0,0,0,0,262.06,0,0,0,0,0,0,0,0,0,0,0,0,0,1,1,54.88,FLYING
55.62,APPROACH,FLY_TO_FIX,91.15,80,-11.15,1038.64,1.21,5.81,5.12,70.56,-0.757,0.2937,0,-20,1,0.6,4.5,0.75,0.35,0.0168,0.4,70.54,1.904,0,0,0,0,0,0,0,0,262.06,0,0,0,0,0,0,0,0,0,0,0,0,0,1,1,55.66,FLYING
56.4,APPROACH,FLY_TO_FIX,89.89,80,-9.89,1068.18,1.49,6.19,5.32,70.59,-0.508,0.2931,0,-20,1,0.6,4.5,0.75,0.35,0.0168,0.4,70.54,1.899,0,0,0,0,0,0,0,0,262.06,0,0,0,0,0,0,0,0,0,0,0,0,0,1,1,56.44,FLYING
57.18,APPROACH,FLY_TO_FIX,88.66,80,-8.66,1092.99,1.71,6.54,5.52,70.6,-0.319,0.2872,0,-20,1,0.6,4.5,0.75,0.35,0.0168,0.4,70.54,1.892,0,0,0,0,0,0,0,0,262.06,0,0,0,0,0,0,0,0,0,0,0,0,0,1,1,57.22,FLYING
57.96,APPROACH,FLY_TO_FIX,87.47,80,-7.47,1112.23,1.89,6.88,5.74,70.61,-0.183,0.2773,0,-20,1,0.6,4.5,0.75,0.35,0.0168,0.4,70.54,1.885,0,0,0,0,0,0,0,0,262.06,0,0,0,0,0,0,0,0,0,0,0,0,0,1,1,58,FLYING
58.74,APPROACH,FLY_TO_FIX,86.31,80,-6.31,1124.89,2.04,7.21,5.97,70.61,-0.089,0.2646,0,-20,1,0.6,4.5,0.75,0.35,0.0168,0.4,70.54,1.877,0,0,0,0,0,0,0,0,262.06,0,0,0,0,0,0,0,0,0,0,0,0,0,1,1,58.78,FLYING
59.52,APPROACH,FLY_TO_FIX,85.18,80,-5.18,1126.57,2.14,7.52,6.21,70.61,-0.023,0.2501,0,-20,1,0.6,4.5,0.75,0.35,0.0168,0.4,70.54,1.869,0,0,0,0,0,0,0,0,262.06,0,0,0,0,0,0,0,0,0,0,0,0,0,1,1,59.56,FLYING
60.3,APPROACH,FLY_TO_FIX,84.08,80,-4.08,1128.33,2.22,7.82,6.44,70.6,0.019,0.2347,0,-20,1,0.6,4.5,0.75,0.35,0.0168,0.4,70.54,1.86,0,0,0,0,0,0,0,0,262.06,0,0,0,0,0,0,0,0,0,0,0,0,0,1,1,60.34,FLYING
61.08,APPROACH,FLY_TO_FIX,83.01,80,-3.01,1130.13,2.27,8.12,6.69,70.59,0.043,0.2632,0,-20,1,0.6,4.5,0.75,0.35,0.0168,0.4,70.54,1.851,0,0,0,0,0,0,0,0,262.06,0,0,0,0,0,0,0,0,0,0,0,0,0,1,1,61.12,FLYING
61.86,APPROACH,FLY_TO_FIX,81.95,80,-1.95,1131.96,2.29,8.42,6.96,70.58,0.051,0.3215,0,-20,1,0.6,4.5,0.75,0.35,0.0168,0.4,70.54,1.842,0,0,0,0,0,0,0,0,262.06,0,0,0,0,0,0,0,0,0,0,0,0,0,1,1,61.9,FLYING
62.64,APPROACH,FLY_TO_FIX,80.93,80,-0.93,1133.8,2.31,8.72,7.23,70.58,0.055,0.3771,0,-20,1,0.6,4.5,0.75,0.35,0.0168,0.4,70.54,1.833,0,0,0,0,0,0,0,0,262.06,0,0,0,0,0,0,0,0,0,0,0,0,0,1,1,62.68,FLYING
63.42,APPROACH,FLY_TO_FIX,79.94,80,0.06,1135.65,2.31,9.02,7.51,70.57,0.056,0.4281,0,-20,1,0.6,4.5,0.75,0.35,0.0168,0.4,70.54,1.823,0,0,0,0,0,0,0,0,262.06,0,0,0,0,0,0,0,0,0,0,0,0,0,1,1,63.46,FLYING
64.2,APPROACH,FLY_TO_FIX,79,80,1,1137.5,2.31,9.3,7.78,70.56,0.053,0.4806,0,-19.549,1,0.6,4.5,0.75,0.35,0.0168,0.4,70.54,1.814,0,0,0,0,0,0,0,0,262.06,0,0,0,0,0,0,0,0,0,0,0,0,0,1,1,64.24,FLYING
64.98,APPROACH,FLY_TO_FIX,78.12,80,1.88,1139.34,2.3,9.58,8.04,70.55,0.047,0.5331,0,-18.654,1,0.6,4.5,0.75,0.35,0.0168,0.4,70.54,1.805,0,0,0,0,0,0,0,0,262.06,0,0,0,0,0,0,0,0,0,0,0,0,0,1,1,65.02,FLYING
65.76,APPROACH,FLY_TO_FIX,77.3,80,2.7,1141.18,2.3,9.82,8.28,70.55,0.042,0.5842,0,-17.346,1,0.6,4.5,0.75,0.35,0.0168,0.4,70.54,1.796,0,0,0,0,0,0,0,0,262.06,0,0,0,0,0,0,0,0,0,0,0,0,0,1,1,65.8,FLYING
66.54,APPROACH,FLY_TO_FIX,76.56,80,3.44,1143.01,2.29,10.07,8.52,70.54,0.035,0.6322,0,-15.661,1,0.6,4.5,0.75,0.35,0.0168,0.4,70.54,1.787,0,0,0,0,0,0,0,0,262.06,0,0,0,0,0,0,0,0,0,0,0,0,0,1,1,66.58,FLYING
67.32,APPROACH,FLY_TO_FIX,75.89,80,4.11,1144.82,2.28,10.27,8.71,70.54,0.034,0.6763,0,-13.638,1,0.6,4.5,0.75,0.35,0.0168,0.4,70.54,1.778,0,0,0,0,0,0,0,0,262.06,0,0,0,0,0,0,0,0,0,0,0,0,0,1,1,67.36,FLYING
68.1,APPROACH,FLY_TO_FIX,75.31,80,4.69,1146.63,2.28,10.45,8.87,70.53,0.028,0.7147,0,-11.32,1,0.6,4.5,0.75,0.35,0.0168,0.4,70.54,1.768,0,0,0,0,0,0,0,0,262.06,0,0,0,0,0,0,0,0,0,0,0,0,0,1,1,68.14,FLYING
68.88,APPROACH,FLY_TO_FIX,74.82,80,5.18,1148.44,2.29,10.61,9.02,70.52,0.02,0.7466,0,-8.753,1,0.6,4.5,0.75,0.35,0.0168,0.4,70.54,1.759,0,0,0,0,0,0,0,0,262.06,0,0,0,0,0,0,0,0,0,0,0,0,0,1,1,68.92,FLYING
69.66,APPROACH,FLY_TO_FIX,74.42,80,5.58,1150.25,2.29,10.73,9.13,70.52,0.025,0.7714,0,-5.983,1,0.6,4.5,0.75,0.35,0.0168,0.4,70.53,1.75,0,0,0,0,0,0,0,0,262.06,0,0,0,0,0,0,0,0,0,0,0,0,0,1,1,69.7,FLYING
70.44,APPROACH,FLY_TO_FIX,74.13,80,5.87,1152.05,2.3,10.8,9.19,70.52,0.018,0.7884,0,-3.059,1,0.6,4.5,0.75,0.35,0.0168,0.4,70.53,1.741,0,0,0,0,0,0,0,0,262.06,0,0,0,0,0,0,0,0,0,0,0,0,0,1,1,70.48,FLYING
71.22,APPROACH,FLY_TO_FIX,73.93,80,6.07,1153.86,2.32,10.83,9.21,70.51,0.02,0.797,0,-0.03,1,0.6,4.5,0.75,0.35,0.0168,0.4,70.53,1.732,0,0,0,0,0,0,0,0,262.06,0,0,0,0,0,0,0,0,0,0,0,0,0,1,1,71.26,FLYING
72,APPROACH,FLY_TO_FIX,73.83,80,6.17,1155.67,2.34,10.85,9.21,70.51,0.01,0.7972,0,3.053,1,0.6,4.5,0.75,0.35,0.0168,0.4,70.53,1.723,0,0,0,0,0,0,0,0,262.06,0,0,0,0,0,0,0,0,0,0,0,0,0,1,1,72.04,FLYING
72.78,APPROACH,FLY_TO_FIX,73.82,80,6.18,1157.5,2.36,10.83,9.18,70.5,0.012,0.7892,0,6.143,1,0.6,4.5,0.75,0.35,0.0168,0.4,70.53,1.714,0,0,0,0,0,0,0,0,262.06,0,0,0,0,0,0,0,0,0,0,0,0,0,1,1,72.82,FLYING
73.56,APPROACH,FLY_TO_FIX,73.91,80,6.09,1159.33,2.38,10.76,9.09,70.5,0.01,0.7734,0,9.195,1,0.6,4.5,0.75,0.35,0.0168,0.4,70.53,1.705,0,0,0,0,0,0,0,0,262.06,0,0,0,0,0,0,0,0,0,0,0,0,0,1,1,73.6,FLYING
74.34,APPROACH,FLY_TO_FIX,74.09,80,5.91,1161.19,2.41,10.67,8.99,70.49,0.012,0.75,0,12.163,1,0.6,4.5,0.75,0.35,0.0168,0.4,70.54,1.696,0,0,0,0,0,0,0,0,262.06,0,0,0,0,0,0,0,0,0,0,0,0,0,1,1,74.38,FLYING
75.12,APPROACH,FLY_TO_FIX,74.34,80,5.66,1163.06,2.44,10.57,8.87,70.49,0.015,0.72,0,15.008,1,0.6,4.5,0.75,0.35,0.0168,0.4,70.54,1.686,0,0,0,0,0,0,0,0,262.06,0,0,0,0,0,0,0,0,0,0,0,0,0,1,1,75.16,FLYING
75.9,APPROACH,FLY_TO_FIX,74.66,80,5.34,1164.96,2.48,10.44,8.72,70.49,0.008,0.6846,0,17.694,1,0.6,4.5,0.75,0.35,0.0168,0.4,70.54,1.677,0,0,0,0,0,0,0,0,262.06,0,0,0,0,0,0,0,0,0,0,0,0,0,1,1,75.94,FLYING
76.68,APPROACH,FLY_TO_FIX,75.05,80,4.95,1166.89,2.51,10.3,8.57,70.48,0.009,0.6414,0,20,1,0.6,4.5,0.75,0.35,0.0168,0.4,70.54,1.667,0,0,0,0,0,0,0,0,262.06,0,0,0,0,0,0,0,0,0,0,0,0,0,1,1,76.72,FLYING
77.46,APPROACH,FLY_TO_FIX,75.48,80,4.52,1168.84,2.55,10.14,8.4,70.48,0.013,0.5597,0,20,1,0.6,4.5,0.75,0.35,0.0168,0.4,70.54,1.658,0,0,0,0,0,0,0,0,262.06,0,0,0,0,0,0,0,0,0,0,0,0,0,1,1,77.5,FLYING
78.24,APPROACH,FLY_TO_FIX,75.96,80,4.04,1170.82,2.59,9.99,8.23,70.47,0.006,0.4804,0,20,1,0.6,4.5,0.75,0.35,0.0168,0.4,70.54,1.648,0,0,0,0,0,0,0,0,262.06,0,0,0,0,0,0,0,0,0,0,0,0,0,1,1,78.28,FLYING
79.02,APPROACH,FLY_TO_FIX,76.45,80,3.55,1172.83,2.63,9.83,8.06,70.47,-0.006,0.4061,0,20,1,0.6,4.5,0.75,0.35,0.0168,0.4,70.54,1.638,0,0,0,0,0,0,0,0,262.06,0,0,0,0,0,0,0,0,0,0,0,0,0,1,1,79.06,FLYING
79.8,APPROACH,FLY_TO_FIX,76.92,80,3.08,1174.87,2.66,9.7,7.91,70.47,-0.009,0.3416,0,20,1,0.6,4.5,0.75,0.35,0.0168,0.4,70.54,1.628,0,0,0,0,0,0,0,0,262.06,0,0,0,0,0,0,0,0,0,0,0,0,0,1,1,79.84,FLYING
80.58,APPROACH,FLY_TO_FIX,77.34,80,2.66,1176.93,2.68,9.6,7.81,70.47,-0.014,0.2952,0,20,1,0.6,4.5,0.75,0.35,0.0168,0.4,70.54,1.617,0,0,0,0,0,0,0,0,262.06,0,0,0,0,0,0,0,0,0,0,0,0,0,1,1,80.62,FLYING
81.36,APPROACH,FLY_TO_FIX,77.65,80,2.35,1179.02,2.7,9.54,7.74,70.47,-0.013,0.2724,0,20,1,0.6,4.5,0.75,0.35,0.0168,0.4,70.54,1.607,0,0,0,0,0,0,0,0,262.06,0,0,0,0,0,0,0,0,0,0,0,0,0,1,1,81.4,FLYING
82.14,APPROACH,FLY_TO_FIX,77.86,80,2.14,1181.12,2.71,9.51,7.71,70.47,-0.017,0.2734,0,20,1,0.6,4.5,0.75,0.35,0.0168,0.4,70.54,1.596,0,0,0,0,0,0,0,0,262.06,0,0,0,0,0,0,0,0,0,0,0,0,0,1,1,82.18,FLYING
82.92,APPROACH,FLY_TO_FIX,77.95,80,2.05,1183.24,2.71,9.51,7.71,70.47,-0.018,0.2937,0,20,1,0.6,4.5,0.75,0.35,0.0168,0.4,70.54,1.586,0,0,0,0,0,0,0,0,262.06,0,0,0,0,0,0,0,0,0,0,0,0,0,1,1,82.96,FLYING
83.7,APPROACH,FLY_TO_FIX,77.97,80,2.03,1185.35,2.71,9.52,7.72,70.46,-0.019,0.3259,0,20,1,0.6,4.5,0.75,0.35,0.0168,0.4,70.54,1.575,0,0,0,0,0,0,0,0,262.06,0,0,0,0,0,0,0,0,0,0,0,0,0,1,1,83.74,FLYING
84.48,APPROACH,FLY_TO_FIX,77.94,80,2.06,1187.47,2.71,9.54,7.74,70.46,-0.019,0.3619,0,20,1,0.6,4.5,0.75,0.35,0.0168,0.4,70.54,1.565,0,0,0,0,0,0,0,0,262.06,0,0,0,0,0,0,0,0,0,0,0,0,0,1,1,84.52,FLYING
85.26,APPROACH,FLY_TO_FIX,77.9,80,2.1,1189.58,2.7,9.53,7.74,70.46,-0.021,0.3946,0,20,1,0.6,4.5,0.75,0.35,0.0168,0.4,70.54,1.554,0,0,0,0,0,0,0,0,262.06,0,0,0,0,0,0,0,0,0,0,0,0,0,1,1,85.3,FLYING
86.04,APPROACH,FLY_TO_FIX,77.86,80,2.14,1191.68,2.69,9.53,7.74,70.46,-0.03,0.4202,0,20,1,0.6,4.5,0.75,0.35,0.0168,0.4,70.54,1.543,0,0,0,0,0,0,0,0,262.06,0,0,0,0,0,0,0,0,0,0,0,0,0,1,1,86.08,FLYING
86.82,APPROACH,FLY_TO_FIX,77.84,80,2.16,1193.78,2.68,9.53,7.75,70.46,-0.041,0.4388,0,20,1,0.6,4.5,0.75,0.35,0.0168,0.4,70.54,1.533,0,0,0,0,0,0,0,0,262.06,0,0,0,0,0,0,0,0,0,0,0,0,0,1,1,86.86,FLYING
87.6,APPROACH,FLY_TO_FIX,77.83,80,2.17,1195.86,2.67,9.52,7.74,70.46,-0.04,0.4507,0,20,1,0.6,4.5,0.75,0.35,0.0168,0.4,70.54,1.523,0,0,0,0,0,0,0,0,262.06,0,0,0,0,0,0,0,0,0,0,0,0,0,1,1,87.64,FLYING
88.38,APPROACH,FLY_TO_FIX,77.84,80,2.16,1197.93,2.66,9.51,7.74,70.47,-0.042,0.4563,0,20,1,0.6,4.5,0.75,0.35,0.0168,0.4,70.54,1.512,0,0,0,0,0,0,0,0,262.06,0,0,0,0,0,0,0,0,0,0,0,0,0,1,1,88.42,FLYING
89.16,APPROACH,FLY_TO_FIX,77.87,80,2.13,1200.01,2.66,9.49,7.73,70.47,-0.04,0.4568,0,20,1,0.6,4.5,0.75,0.35,0.0168,0.4,70.54,1.502,0,0,0,0,0,0,0,0,262.06,0,0,0,0,0,0,0,0,0,0,0,0,0,1,1,89.2,FLYING
89.94,APPROACH,FLY_TO_FIX,77.92,80,2.08,1202.07,2.66,9.47,7.71,70.47,-0.035,0.4526,0,20,1,0.6,4.5,0.75,0.35,0.0168,0.4,70.54,1.491,0,0,0,0,0,0,0,0,262.06,0,0,0,0,0,0,0,0,0,0,0,0,0,1,1,89.98,FLYING
90.72,APPROACH,FLY_TO_FIX,77.99,80,2.01,1204.14,2.66,9.43,7.68,70.47,-0.036,0.4445,0,20,1,0.6,4.5,0.75,0.35,0.0168,0.4,70.54,1.481,0,0,0,0,0,0,0,0,262.06,0,0,0,0,0,0,0,0,0,0,0,0,0,1,1,90.76,FLYING
91.5,APPROACH,FLY_TO_FIX,78.07,80,1.93,1206.2,2.65,9.4,7.64,70.47,-0.033,0.4334,0,20,1,0.6,4.5,0.75,0.35,0.0168,0.4,70.54,1.471,0,0,0,0,0,0,0,0,262.06,0,0,0,0,0,0,0,0,0,0,0,0,0,1,1,91.54,FLYING
92.28,APPROACH,FLY_TO_FIX,78.17,80,1.83,1208.27,2.65,9.36,7.61,70.47,-0.035,0.4202,0,20,1,0.6,4.5,0.75,0.35,0.0168,0.4,70.55,1.461,0,0,0,0,0,0,0,0,262.06,0,0,0,0,0,0,0,0,0,0,0,0,0,1,1,92.32,FLYING
93.06,APPROACH,FLY_TO_FIX,78.28,80,1.72,1210.33,2.65,9.32,7.57,70.47,-0.032,0.4057,0,20,1,0.6,4.5,0.75,0.35,0.0168,0.4,70.55,1.45,0,0,0,0,0,0,0,0,262.06,0,0,0,0,0,0,0,0,0,0,0,0,0,1,1,93.1,FLYING
93.84,APPROACH,FLY_TO_FIX,78.41,80,1.59,1212.39,2.65,9.27,7.53,70.47,-0.031,0.3907,0,20,1,0.6,4.5,0.75,0.35,0.0168,0.4,70.55,1.44,0,0,0,0,0,0,0,0,262.06,0,0,0,0,0,0,0,0,0,0,0,0,0,1,1,93.88,FLYING
94.62,APPROACH,FLY_TO_FIX,78.53,80,1.47,1214.44,2.65,9.23,7.49,70.47,-0.031,0.3759,0,20,1,0.6,4.5,0.75,0.35,0.0168,0.4,70.55,1.43,0,0,0,0,0,0,0,0,262.06,0,0,0,0,0,0,0,0,0,0,0,0,0,1,1,94.66,FLYING
95.4,APPROACH,FLY_TO_FIX,78.66,80,1.34,1216.5,2.64,9.18,7.45,70.47,-0.031,0.3622,0,20,1,0.6,4.5,0.75,0.35,0.0168,0.4,70.55,1.419,0,0,0,0,0,0,0,0,262.06,0,0,0,0,0,0,0,0,0,0,0,0,0,1,1,95.44,FLYING
96.18,APPROACH,FLY_TO_FIX,78.78,80,1.22,1218.55,2.64,9.14,7.41,70.47,-0.038,0.3508,0,20,1,0.6,4.5,0.75,0.35,0.0168,0.4,70.55,1.409,0,0,0,0,0,0,0,0,262.06,0,0,0,0,0,0,0,0,0,0,0,0,0,1,1,96.22,FLYING
96.96,APPROACH,FLY_TO_FIX,78.88,80,1.12,1220.6,2.63,9.11,7.4,70.47,-0.042,0.3436,0,20,1,0.6,4.5,0.75,0.35,0.0168,0.4,70.55,1.399,0,0,0,0,0,0,0,0,262.06,0,0,0,0,0,0,0,0,0,0,0,0,0,1,1,97,FLYING
97.74,APPROACH,FLY_TO_FIX,78.95,80,1.05,1222.64,2.62,9.09,7.38,70.47,-0.044,0.341,0,20,1,0.6,4.5,0.75,0.35,0.0168,0.4,70.55,1.389,0,0,0,0,0,0,0,0,262.06,0,0,0,0,0,0,0,0,0,0,0,0,0,1,1,97.78,FLYING
98.52,APPROACH,FLY_TO_FIX,79.01,80,0.99,1224.68,2.61,9.07,7.37,70.47,-0.039,0.3426,0,20,1,0.6,4.5,0.75,0.35,0.0168,0.4,70.55,1.378,0,0,0,0,0,0,0,0,262.06,0,0,0,0,0,0,0,0,0,0,0,0,0,1,1,98.56,FLYING
99.3,APPROACH,FLY_TO_FIX,79.05,80,0.95,1226.71,2.6,9.06,7.36,70.47,-0.041,0.3473,0,20,1,0.6,4.5,0.75,0.35,0.0168,0.4,70.55,1.368,0,0,0,0,0,0,0,0,262.06,0,0,0,0,0,0,0,0,0,0,0,0,0,1,1,99.34,FLYING
100.08,APPROACH,FLY_TO_FIX,79.07,80,0.93,1228.73,2.6,9.06,7.37,70.47,-0.036,0.3535,0,20,1,0.6,4.5,0.75,0.35,0.0168,0.4,70.55,1.358,0,0,0,0,0,0,0,0,262.06,0,0,0,0,0,0,0,0,0,0,0,0,0,1,1,100.12,FLYING
100.86,APPROACH,FLY_TO_FIX,79.08,80,0.92,1230.74,2.58,9.03,7.35,70.47,-0.034,0.36,0,20,1,0.6,4.5,0.75,0.35,0.0168,0.4,70.55,1.348,0,0,0,0,0,0,0,0,262.06,0,0,0,0,0,0,0,0,0,0,0,0,0,1,1,100.9,FLYING
101.64,APPROACH,FLY_TO_FIX,79.1,80,0.9,1232.75,2.57,9.02,7.35,70.47,-0.034,0.3652,0,20,1,0.6,4.5,0.75,0.35,0.0168,0.4,70.55,1.338,0,0,0,0,0,0,0,0,262.06,0,0,0,0,0,0,0,0,0,0,0,0,0,1,1,101.68,FLYING
102.42,APPROACH,FLY_TO_FIX,79.11,80,0.89,1234.75,2.56,9.01,7.34,70.47,-0.038,0.3687,0,20,1,0.6,4.5,0.75,0.35,0.0168,0.4,70.55,1.328,0,0,0,0,0,0,0,0,262.06,0,0,0,0,0,0,0,0,0,0,0,0,0,1,1,102.46,FLYING
103.2,APPROACH,FLY_TO_FIX,79.13,80,0.87,1236.73,2.54,8.99,7.34,70.47,-0.038,0.3707,0,20,1,0.6,4.5,0.75,0.35,0.0168,0.4,70.56,1.318,0,0,0,0,0,0,0,0,262.06,0,0,0,0,0,0,0,0,0,0,0,0,0,1,1,103.24,FLYING
103.98,APPROACH,FLY_TO_FIX,79.15,80,0.85,1238.71,2.53,8.98,7.33,70.47,-0.036,0.3714,0,20,1,0.6,4.5,0.75,0.35,0.0168,0.4,70.56,1.308,0,0,0,0,0,0,0,0,262.06,0,0,0,0,0,0,0,0,0,0,0,0,0,1,1,104.02,FLYING
104.76,APPROACH,FLY_TO_FIX,79.18,80,0.82,1240.68,2.52,8.97,7.33,70.47,-0.034,0.3709,0,20,1,0.6,4.5,0.75,0.35,0.0168,0.4,70.56,1.298,0,0,0,0,0,0,0,0,262.06,0,0,0,0,0,0,0,0,0,0,0,0,0,1,1,104.8,FLYING
105.54,APPROACH,FLY_TO_FIX,79.21,80,0.79,1242.63,2.51,8.93,7.3,70.47,-0.039,0.3695,0,20,1,0.6,4.5,0.75,0.35,0.0168,0.4,70.56,1.289,0,0,0,0,0,0,0,0,262.06,0,0,0,0,0,0,0,0,0,0,0,0,0,1,1,105.58,FLYING
106.32,APPROACH,FLY_TO_FIX,79.24,80,0.76,1244.58,2.49,8.91,7.29,70.47,-0.042,0.367,0,20,1,0.6,4.5,0.75,0.35,0.0168,0.4,70.56,1.279,0,0,0,0,0,0,0,0,262.06,0,0,0,0,0,0,0,0,0,0,0,0,0,1,1,106.36,FLYING
107.1,APPROACH,FLY_TO_FIX,79.28,80,0.72,1246.51,2.48,8.9,7.29,70.48,-0.042,0.3639,0,20,1,0.6,4.5,0.75,0.35,0.0168,0.4,70.56,1.269,0,0,0,0,0,0,0,0,262.06,0,0,0,0,0,0,0,0,0,0,0,0,0,1,1,107.14,FLYING
107.88,APPROACH,FLY_TO_FIX,79.32,80,0.68,1248.44,2.47,8.87,7.27,70.48,-0.042,0.3604,0,20,1,0.6,4.5,0.75,0.35,0.0168,0.4,70.56,1.26,0,0,0,0,0,0,0,0,262.06,0,0,0,0,0,0,0,0,0,0,0,0,0,1,1,107.92,FLYING
108.66,APPROACH,FLY_TO_FIX,79.36,80,0.64,1250.35,2.45,8.85,7.26,70.48,-0.045,0.3569,0,20,1,0.6,4.5,0.75,0.35,0.0168,0.4,70.56,1.25,0,0,0,0,0,0,0,0,262.06,0,0,0,0,0,0,0,0,0,0,0,0,0,1,1,108.7,FLYING
109.44,APPROACH,FLY_TO_FIX,79.4,80,0.6,1252.26,2.44,8.84,7.25,70.48,-0.043,0.3534,0,20,1,0.6,4.5,0.75,0.35,0.0168,0.4,70.56,1.24,0,0,0,0,0,0,0,0,262.06,0,0,0,0,0,0,0,0,0,0,0,0,0,1,1,109.48,FLYING
110.22,APPROACH,FLY_TO_FIX,79.43,80,0.57,1254.15,2.43,8.82,7.24,70.48,-0.042,0.3506,0,20,1,0.6,4.5,0.75,0.35,0.0168,0.4,70.56,1.231,0,0,0,0,0,0,0,0,262.06,0,0,0,0,0,0,0,0,0,0,0,0,0,1,1,110.26,FLYING
111,APPROACH,FLY_TO_FIX,79.46,80,0.54,1256.04,2.42,8.8,7.24,70.48,-0.04,0.3489,0,20,1,0.6,4.5,0.75,0.35,0.0168,0.4,70.56,1.222,0,0,0,0,0,0,0,0,262.06,0,0,0,0,0,0,0,0,0,0,0,0,0,1,1,111.04,FLYING
111.78,APPROACH,FLY_TO_FIX,79.49,80,0.51,1257.91,2.4,8.78,7.23,70.48,-0.044,0.3482,0,20,1,0.6,4.5,0.75,0.35,0.0168,0.4,70.57,1.212,0,0,0,0,0,0,0,0,262.06,0,0,0,0,0,0,0,0,0,0,0,0,0,1,1,111.82,FLYING
112.56,APPROACH,FLY_TO_FIX,79.51,80,0.49,1259.78,2.39,8.77,7.22,70.48,-0.045,0.3483,0,20,1,0.6,4.5,0.75,0.35,0.0168,0.4,70.57,1.203,0,0,0,0,0,0,0,0,262.06,0,0,0,0,0,0,0,0,0,0,0,0,0,1,1,112.6,FLYING
113.34,APPROACH,FLY_TO_FIX,79.53,80,0.47,1261.63,2.37,8.74,7.21,70.48,-0.047,0.3491,0,20,1,0.6,4.5,0.75,0.35,0.0168,0.4,70.57,1.194,0,0,0,0,0,0,0,0,262.06,0,0,0,0,0,0,0,0,0,0,0,0,0,1,1,113.38,FLYING
114.12,APPROACH,FLY_TO_FIX,79.54,80,0.46,1263.47,2.36,8.73,7.2,70.48,-0.044,0.3504,0,20,1,0.6,4.5,0.75,0.35,0.0168,0.4,70.57,1.184,0,0,0,0,0,0,0,0,262.06,0,0,0,0,0,0,0,0,0,0,0,0,0,1,1,114.16,FLYING
114.9,APPROACH,FLY_TO_FIX,79.55,80,0.45,1265.29,2.33,8.7,7.19,70.49,-0.06,0.3512,0,20,1,0.6,4.5,0.75,0.35,0.0168,0.4,70.57,1.175,0,0,0,0,0,0,0,0,262.06,0,0,0,0,0,0,0,0,0,0,0,0,0,1,1,114.94,FLYING
115.68,APPROACH,FLY_TO_FIX,79.57,80,0.43,1267.1,2.31,8.71,7.21,70.49,-0.062,0.3515,0,20,1,0.6,4.5,0.75,0.35,0.0168,0.4,70.57,1.166,0,0,0,0,0,0,0,0,262.06,0,0,0,0,0,0,0,0,0,0,0,0,0,1,1,115.72,FLYING
116.46,APPROACH,FLY_TO_FIX,79.58,80,0.42,1268.9,2.3,8.69,7.21,70.49,-0.056,0.3521,0,20,1,0.6,4.5,0.75,0.35,0.0168,0.4,70.57,1.157,0,0,0,0,0,0,0,0,262.06,0,0,0,0,0,0,0,0,0,0,0,0,0,1,1,116.5,FLYING
117.86,APPROACH,FLY_TO_FIX,79.6,80,0.4,1272.08,2.27,8.65,7.18,70.49,-0.046,0.3516,0,20,1,0.6,4.5,0.75,0.35,0.0168,0.4,70.57,1.144,0,0,0,0,0,0,0,0,262.06,0,0,0,0,0,0,0,0,0,0,0,0,0,1,1,117.98,FLYING
120.57,APPROACH,FLY_TO_FIX,79.65,80,0.35,1278.15,2.22,8.64,7.21,70.5,-0.035,0.3433,0,20,1,0.6,4.5,0.75,0.35,0.0168,0.4,70.58,1.115,0,0,0,0,0,0,0,0,262.06,0,0,0,0,0,0,0,0,0,0,0,0,0,1,1,120.73,FLYING
123.61,APPROACH,FLY_TO_FIX,79.69,80,0.31,1284.81,2.18,8.61,7.2,70.51,-0.032,0.338,0,20,1,0.6,4.5,0.75,0.35,0.0168,0.4,70.58,1.082,0,0,0,0,0,0,0,0,262.06,0,0,0,0,0,0,0,0,0,0,0,0,0,1,1,123.77,FLYING
126.65,APPROACH,FLY_TO_FIX,79.65,80,0.35,1291.33,2.12,8.59,7.22,70.51,-0.036,0.3478,0,20,1,0.6,4.5,0.75,0.35,0.0168,0.4,70.59,1.049,0,0,0,0,0,0,0,0,262.06,0,0,0,0,0,0,0,0,0,0,0,0,0,1,1,126.81,FLYING
129.69,APPROACH,FLY_TO_FIX,79.58,80,0.42,1297.68,2.07,8.58,7.24,70.52,-0.032,0.3652,0,20,1,0.6,4.5,0.75,0.35,0.0168,0.4,70.59,1.017,0,0,0,0,0,0,0,0,262.06,0,0,0,0,0,0,0,0,0,0,0,0,0,1,1,129.85,FLYING
132.73,APPROACH,FLY_TO_FIX,79.55,80,0.45,1303.89,2.02,8.55,7.24,70.53,-0.027,0.3725,0,20,1,0.6,4.5,0.75,0.35,0.0168,0.4,70.59,0.986,0,0,0,0,0,0,0,0,262.06,0,0,0,0,0,0,0,0,0,0,0,0,0,1,1,132.89,FLYING
135.77,APPROACH,FLY_TO_FIX,79.6,80,0.4,1309.96,1.98,8.5,7.22,70.54,-0.025,0.3628,0,20,1,0.6,4.5,0.75,0.35,0.0168,0.4,70.6,0.956,0,0,0,0,0,0,0,0,262.06,0,0,0,0,0,0,0,0,0,0,0,0,0,1,1,135.93,FLYING
138.81,APPROACH,FLY_TO_FIX,79.72,80,0.28,1315.91,1.95,8.43,7.18,70.54,-0.02,0.3388,0,20,1,0.6,4.5,0.75,0.35,0.0168,0.4,70.6,0.926,0,0,0,0,0,0,0,0,262.06,0,0,0,0,0,0,0,0,0,0,0,0,0,1,1,138.97,FLYING
141.85,APPROACH,FLY_TO_FIX,79.83,80,0.17,1321.75,1.9,8.38,7.16,70.55,-0.024,0.319,0,20,1,0.6,4.5,0.75,0.35,0.0168,0.4,70.61,0.897,0,0,0,0,0,0,0,0,262.06,0,0,0,0,0,0,0,0,0,0,0,0,0,1,1,142.01,FLYING
144.33,APPROACH,ILS_TRACK,79.79,80,0.21,1326.4,1.85,8.39,7.2,70.55,-0.018,0.319,0,20,1,0.6,4.5,0.75,0.35,0.0168,0.4,70.61,0.897,0,0,0,0,0,0,0,0,262.06,0,0,0,0,0,0,0,0,0,0,0,0,0,1,1,144.49,FLYING
147.93,APPROACH,ILS_TRACK,79.51,79.6,0.09,1332.91,1.75,8.12,6.99,70.44,0.866,0.3568,0,20,1,0.6,4.5,0.75,0.35,0.0168,0.4,64,0,67.08,-473.82,31.894,-36.222,900.25,0,0,0,262.06,0,0,0,0,0,0,0,0,0,0,0,0,0,2,2,148.09,FLYING
150.88,APPROACH,ILS_TRACK,79.31,79.2,-0.11,1337.17,1.19,8.02,7.3,67.75,6.408,0.3724,0,19.946,1,0.6,4.5,0.75,0.35,0.0168,0.4,114,0,-28.96,-454.08,31.613,49.178,104.649,0,0,0,262.06,0,0,0,0,0,0,0,0,0,0,0,0,0,1,1,150.98,FLYING
151.86,APPROACH,ILS_TRACK,79.3,78.8,-0.5,1338.28,1.1,8.27,7.55,67.94,0.525,0.3331,0,19.696,1,0.6,4.5,0.75,0.35,0.0168,0.4,110.05,0,-65.8,-447.54,31.515,21.053,123.8,0,0,0,262.06,0,0,0,0,0,0,0,0,0,0,0,0,0,1,1,151.9,FLYING
152.7,APPROACH,ILS_TRACK,79.33,78.4,-0.93,1339.19,1.07,8.22,7.57,69.24,-7.945,0.2848,0,19.234,1,0.6,4.5,0.75,0.35,0.0168,0.4,105.86,0,-92.16,-442.97,31.445,16.864,125.578,0,0,0,262.06,0,0,0,0,0,0,0,0,0,0,0,0,0,1,1,152.74,FLYING
153.56,APPROACH,ILS_TRACK,79.3,78,-1.3,1340.34,1.34,9.5,8.97,71.91,-17.261,0.2435,0,18.579,1,0.6,4.5,0.75,0.35,0.0168,0.4,106.94,0,-118.56,-438.12,31.374,17.943,123.677,0,0,0,262.06,0,0,0,0,0,0,0,0,0,0,0,0,0,1,1,153.6,FLYING
155.74,APPROACH,ILS_TRACK,78.55,77.6,-0.95,1343.9,1.61,8.4,9.06,81.56,-32.607,0.3302,0,18.031,1,0.6,4.5,0.75,0.35,0.0168,0.4,95.77,0,-163.1,-428.04,31.235,6.775,112.272,0,0,0,262.06,0,0,0,0,0,0,0,0,0,0,0,0,0,1,1,155.9,FLYING
159.18,APPROACH,ILS_TRACK,78.17,78,-0.17,1344.79,-0.09,9.25,9.43,87.06,-15.779,0.4475,0,17.947,1,0.6,4.5,0.75,0.35,0.0168,0.4,114,0,-211.48,-410.77,30.94,32.649,95.603,0,0,0,262.06,0,0,0,0,0,0,0,0,0,0,0,0,0,1,1,159.34,FLYING
162.54,APPROACH,ILS_TRACK,77.75,78.4,0.65,1345.57,0.02,7.73,8.51,97.3,-21.933,0.5343,0,18.266,1,0.6,4.5,0.75,0.35,0.0168,0.4,100.53,0,-219.6,-394.59,30.649,11.535,92.5,0,0,0,262.06,0,0,0,0,0,0,0,0,0,0,0,0,0,1,1,162.7,FLYING
165.9,APPROACH,ILS_TRACK,78.85,78,-0.85,1343.81,-0.49,7.45,7.77,98.02,-3.312,0.3343,0,17.918,1,0.6,4.5,0.75,0.35,0.0168,0.4,79.41,0,-185.58,-380.78,30.358,-9.589,92.124,0,0,0,262.06,0,0,0,0,0,0,0,0,0,0,0,0,0,1,1,166.06,FLYING
169.26,APPROACH,ILS_TRACK,80.13,77.6,-2.53,1342.88,-0.12,8,8.65,90.75,19.579,0.1343,0,17.828,1,0.6,4.5,0.75,0.35,0.0168,0.4,72.93,0,-142.08,-366.62,30.064,-16.068,87.339,0,0,0,262.06,0,0,0,0,0,0,0,0,0,0,0,0,0,1,1,169.42,FLYING
172.41,APPROACH,ILS_TRACK,80.11,77.2,-2.91,1342.21,-0.26,7.14,7.75,84.64,17.089,0,0,17.739,1,0.6,4.5,0.75,0.35,0.0168,0.4,87.22,0,-128.25,-351.5,29.766,-1.782,81.253,0,0,0,262.06,0,0,0,0,0,0,0,0,0,0,0,0,0,2,2,172.57,FLYING
174.29,APPROACH,ILS_TRACK,79.08,76.8,-2.28,1340.84,-0.87,7.3,7.88,84.49,1.344,0.1151,0,16.532,1,0.6,4.5,0.75,0.35,0.0168,0.4,98.88,0,-137.04,-343.23,29.583,9.877,89.748,0,0,0,262.06,0,0,0,0,0,0,0,0,0,0,0,0,0,2,2,174.37,FLYING
175.97,APPROACH,ILS_TRACK,77.4,76.4,-1,1339.63,-0.69,8.07,8.75,87.9,-12.884,0.3151,0,15.949,1,0.6,4.5,0.75,0.35,0.0168,0.4,100.12,0,-147.49,-336.85,29.437,11.122,90.837,0,0,0,262.06,0,0,0,0,0,0,0,0,0,0,0,0,0,2,2,176.05,FLYING
177.65,APPROACH,ILS_TRACK,75.64,76,0.36,1338.58,-0.66,8.45,9.14,90.56,-12.849,0.5151,0,16.046,1,0.6,4.5,0.75,0.35,0.0168,0.4,97.97,0,-153.18,-330.38,29.293,8.975,88.757,0,0,0,262.06,0,0,0,0,0,0,0,0,0,0,0,0,0,2,2,177.73,FLYING
179.37,APPROACH,ILS_TRACK,74.09,76,1.91,1337.44,-0.7,8.92,9.52,92.02,-8.877,0.7151,0,16.937,1,0.6,4.5,0.75,0.35,0.0168,0.4,94.79,0,-152.56,-323.97,29.15,5.793,86.933,0,0,0,262.06,0,0,0,0,0,0,0,0,0,0,0,0,0,2,2,179.45,FLYING
181.05,APPROACH,ILS_TRACK,72.97,76,3.03,1336.3,-0.68,9.36,9.86,92.46,-4.118,0.9151,0,16.852,1,0.6,4.5,0.75,0.35,0.0168,0.4,92.37,0,-147.51,-317.9,29.012,3.373,85.656,0,0,0,262.06,0,0,0,0,0,0,0,0,0,0,0,0,0,2,2,181.13,FLYING
182.68,APPROACH,ILS_TRACK,72.39,76,3.61,1335.3,-0.58,9.55,9.97,92.43,-1.204,1,0,16.768,1,0.6,4.5,0.75,0.35,0.0168,0.4,90.99,0,-140.26,-311.85,28.876,1.987,83.879,0,0,0,262.06,0,0,0,0,0,0,0,0,0,0,0,0,0,2,2,182.74,FLYING
183.65,APPROACH,ILS_TRACK,72.34,76,3.66,1334.77,-0.5,9.53,9.89,92.36,-0.208,1,0,16.684,1,0.6,4.5,0.75,0.35,0.0168,0.4,91.78,0,-135.03,-307.79,28.787,2.785,85.849,0,0,0,262.06,0,0,0,0,0,0,0,0,0,0,0,0,0,2,2,183.69,FLYING
184.51,APPROACH,ILS_TRACK,72.49,76,3.51,1334.35,-0.43,9.43,9.74,92.33,0.05,0.9216,0,18.449,1,0.6,4.5,0.75,0.35,0.0168,0.4,92.17,0,-130.89,-304.58,28.717,3.166,86.243,0,0,0,262.06,0,0,0,0,0,0,0,0,0,0,0,0,0,2,2,184.55,FLYING
185.37,APPROACH,ILS_TRACK,72.8,76,3.2,1333.97,-0.38,9.28,9.55,92.32,0.068,0.813,0,20,1,0.6,4.5,0.75,0.35,0.0168,0.4,92,0,-126.74,-301.32,28.648,2.996,85.179,0,0,0,262.06,0,0,0,0,0,0,0,0,0,0,0,0,0,2,2,185.41,FLYING
186.23,APPROACH,ILS_TRACK,73.23,76,2.77,1333.65,-0.32,9.11,9.34,92.3,0.141,0.6736,0,20,1,0.6,4.5,0.75,0.35,0.0168,0.4,91.82,0,-122.58,-298,28.578,2.824,84.078,0,0,0,262.06,0,0,0,0,0,0,0,0,0,0,0,0,0,2,2,186.27,FLYING
187.09,APPROACH,ILS_TRACK,73.76,76,2.24,1333.37,-0.26,8.92,9.11,92.25,0.265,0.5364,0,20,1,0.6,4.5,0.75,0.35,0.0168,0.4,91.65,0,-118.42,-294.6,28.508,2.653,82.943,0,0,0,262.06,0,0,0,0,0,0,0,0,0,0,0,0,0,2,2,187.13,FLYING
187.95,APPROACH,ILS_TRACK,74.34,76,1.66,1333.14,-0.2,8.73,8.87,92.2,0.41,0.4075,0,20,1,0.6,4.5,0.75,0.35,0.0168,0.4,91.49,0,-114.25,-291.13,28.437,2.488,81.779,0,0,0,262.06,0,0,0,0,0,0,0,0,0,0,0,0,0,2,2,187.99,FLYING
188.81,APPROACH,ILS_TRACK,74.93,76,1.07,1332.95,-0.15,8.55,8.66,92.13,0.553,0.2934,0,20,1,0.6,4.5,0.75,0.35,0.0168,0.4,91.33,0,-110.11,-287.57,28.365,2.331,80.589,0,0,0,262.06,0,0,0,0,0,0,0,0,0,0,0,0,0,2,2,188.85,FLYING
189.67,APPROACH,ILS_TRACK,75.45,76,0.55,1332.82,-0.12,8.43,8.51,92.05,0.685,0.2058,0,20,1,0.6,4.5,0.75,0.35,0.0168,0.4,91.19,0,-106,-283.95,28.293,2.186,79.383,0,0,0,262.06,0,0,0,0,0,0,0,0,0,0,0,0,0,2,2,189.71,FLYING
190.53,APPROACH,ILS_TRACK,75.82,76,0.18,1332.72,-0.09,8.38,8.44,91.95,0.802,0.1593,0,20,1,0.6,4.5,0.75,0.35,0.0168,0.4,91.05,0,-101.94,-280.26,28.221,2.051,78.172,0,0,0,262.06,0,0,0,0,0,0,0,0,0,0,0,0,0,2,2,190.57,FLYING
191.39,APPROACH,ILS_TRACK,75.99,76,0.01,1332.65,-0.07,8.4,8.44,91.85,0.898,0.1575,0,20,1,0.6,4.5,0.75,0.35,0.0168,0.4,90.94,0,-97.98,-276.52,28.148,1.937,76.975,0,0,0,262.06,0,0,0,0,0,0,0,0,0,0,0,0,0,2,2,191.43,FLYING
192.25,APPROACH,ILS_TRACK,75.97,76,0.03,1332.61,-0.06,8.47,8.51,91.75,0.966,0.1935,0,20,1,0.6,4.5,0.75,0.35,0.0168,0.4,90.84,0,-94.12,-272.75,28.075,1.836,75.796,0,0,0,262.06,0,0,0,0,0,0,0,0,0,0,0,0,0,2,2,192.29,FLYING
193.11,APPROACH,ILS_TRACK,75.81,76,0.19,1332.59,-0.04,8.57,8.6,91.64,1.002,0.2533,0,20,1,0.6,4.5,0.75,0.35,0.0168,0.4,90.75,0,-90.39,-268.97,28.003,1.75,74.639,0,0,0,262.06,0,0,0,0,0,0,0,0,0,0,0,0,0,2,2,193.15,FLYING
193.99,APPROACH,ILS_TRACK,75.58,76,0.42,1332.57,-0.03,8.67,8.69,91.54,1.017,0.3212,0,20,1,0.6,4.5,0.75,0.35,0.0168,0.4,90.63,0,-86.72,-265.1,27.928,1.631,73.336,0,0,0,262.06,0,0,0,0,0,0,0,0,0,0,0,0,0,2,2,194.03,FLYING
194.85,APPROACH,ILS_TRACK,75.33,76,0.67,1332.56,-0.02,8.76,8.77,91.43,1.021,0.3811,0,20,1,0.6,4.5,0.75,0.35,0.0168,0.4,90.61,0,-83.27,-261.32,27.856,1.606,72.347,0,0,0,262.06,0,0,0,0,0,0,0,0,0,0,0,0,0,2,2,194.89,FLYING
195.71,APPROACH,ILS_TRACK,75.1,76,0.9,1332.56,-0.01,8.84,8.84,91.33,0.989,0.4297,0,20,1,0.6,4.5,0.75,0.35,0.0168,0.4,90.54,0,-79.96,-257.54,27.784,1.544,71.222,0,0,0,262.06,0,0,0,0,0,0,0,0,0,0,0,0,0,2,2,195.75,FLYING
196.59,APPROACH,ILS_TRACK,74.9,76,1.1,1332.56,0,8.9,8.91,91.23,0.953,0.4672,0,20,1,0.6,4.5,0.75,0.35,0.0168,0.4,90.45,0,-76.72,-253.68,27.711,1.449,69.931,0,0,0,262.06,0,0,0,0,0,0,0,0,0,0,0,0,0,2,2,196.63,FLYING
197.45,APPROACH,ILS_TRACK,74.73,76,1.27,1332.57,0.01,8.95,8.95,91.14,0.924,0.4912,0,20,1,0.6,4.5,0.75,0.35,0.0168,0.4,90.43,0,-73.68,-249.92,27.639,1.429,68.946,0,0,0,262.06,0,0,0,0,0,0,0,0,0,0,0,0,0,2,2,197.49,FLYING
198.31,APPROACH,ILS_TRACK,74.62,76,1.38,1332.59,0.02,8.98,8.97,91.05,0.879,0.5036,0,20,1,0.6,4.5,0.75,0.35,0.0168,0.4,90.38,0,-70.77,-246.15,27.567,1.377,67.816,0,0,0,262.06,0,0,0,0,0,0,0,0,0,0,0,0,0,2,2,198.35,FLYING
199.19,APPROACH,ILS_TRACK,74.54,76,1.46,1332.62,0.03,9,8.98,90.97,0.836,0.5054,0,20,1,0.6,4.5,0.75,0.35,0.0168,0.4,90.29,0,-67.92,-242.29,27.494,1.289,66.515,0,0,0,262.06,0,0,0,0,0,0,0,0,0,0,0,0,0,2,2,199.23,FLYING
200.05,APPROACH,ILS_TRACK,74.52,76,1.48,1332.65,0.04,9,8.97,90.89,0.807,0.4973,0,20,1,0.6,4.5,0.75,0.35,0.0168,0.4,90.27,0,-65.24,-238.52,27.423,1.271,65.515,0,0,0,262.06,0,0,0,0,0,0,0,0,0,0,0,0,0,2,2,200.09,FLYING
200.91,APPROACH,ILS_TRACK,74.55,76,1.45,1332.69,0.06,8.98,8.94,90.81,0.765,0.4816,0,20,1,0.6,4.5,0.75,0.35,0.0168,0.4,90.22,0,-62.67,-234.73,27.351,1.222,64.367,0,0,0,262.06,0,0,0,0,0,0,0,0,0,0,0,0,0,2,2,200.95,FLYING
201.77,APPROACH,ILS_TRACK,74.61,76,1.39,1332.74,0.07,8.94,8.9,90.74,0.728,0.46,0,20,1,0.6,4.5,0.75,0.35,0.0168,0.4,90.17,0,-60.2,-230.94,27.28,1.172,63.211,0,0,0,262.06,0,0,0,0,0,0,0,0,0,0,0,0,0,2,2,201.81,FLYING
202.63,APPROACH,ILS_TRACK,74.71,76,1.29,1332.79,0.08,8.9,8.85,90.67,0.696,0.4344,0,20,1,0.6,4.5,0.75,0.35,0.0168,0.4,90.12,0,-57.82,-227.13,27.208,1.124,62.048,0,0,0,262.06,0,0,0,0,0,0,0,0,0,0,0,0,0,2,2,202.67,FLYING
203.49,APPROACH,ILS_TRACK,74.84,76,1.16,1332.86,0.09,8.85,8.79,90.61,0.667,0.4065,0,20,1,0.6,4.5,0.75,0.35,0.0168,0.4,90.08,0,-55.53,-223.31,27.136,1.075,60.878,0,0,0,262.06,0,0,0,0,0,0,0,0,0,0,0,0,0,2,2,203.53,FLYING
204.35,APPROACH,ILS_TRACK,74.99,76,1.01,1332.94,0.1,8.8,8.73,90.54,0.643,0.3781,0,20,1,0.6,4.5,0.75,0.35,0.0168,0.4,90.03,0,-53.32,-219.47,27.065,1.029,59.702,0,0,0,262.06,0,0,0,0,0,0,0,0,0,0,0,0,0,2,2,204.39,FLYING
205.21,APPROACH,ILS_TRACK,75.15,76,0.85,1333.02,0.11,8.74,8.67,90.48,0.619,0.3505,0,20,1,0.6,4.5,0.75,0.35,0.0168,0.4,89.99,0,-51.2,-215.62,26.993,0.986,58.52,0,0,0,262.06,0,0,0,0,0,0,0,0,0,0,0,0,0,2,2,205.25,FLYING
206.07,APPROACH,ILS_TRACK,75.31,76,0.69,1333.11,0.12,8.69,8.61,90.42,0.595,0.3253,0,20,1,0.6,4.5,0.75,0.35,0.0168,0.4,89.94,0,-49.15,-211.75,26.92,0.941,57.332,0,0,0,262.06,0,0,0,0,0,0,0,0,0,0,0,0,0,2,2,206.11,FLYING
206.93,APPROACH,ILS_TRACK,75.46,76,0.54,1333.21,0.13,8.65,8.56,90.37,0.571,0.305,0,20,1,0.6,4.5,0.75,0.35,0.0168,0.4,89.9,0,-47.18,-207.86,26.848,0.9,56.14,0,0,0,262.06,0,0,0,0,0,0,0,0,0,0,0,0,0,2,2,206.97,FLYING
207.79,APPROACH,ILS_TRACK,75.58,76,0.42,1333.32,0.13,8.62,8.53,90.31,0.543,0.293,0,20,1,0.6,4.5,0.75,0.35,0.0168,0.4,89.86,0,-45.27,-203.96,26.776,0.86,54.944,0,0,0,262.06,0,0,0,0,0,0,0,0,0,0,0,0,0,2,2,207.83,FLYING
208.65,APPROACH,ILS_TRACK,75.66,76,0.34,1333.43,0.14,8.61,8.52,90.26,0.516,0.2906,0,20,1,0.6,4.5,0.75,0.35,0.0168,0.4,89.82,0,-43.44,-200.05,26.703,0.823,53.751,0,0,0,262.06,0,0,0,0,0,0,0,0,0,0,0,0,0,2,2,208.69,FLYING
209.51,APPROACH,ILS_TRACK,75.69,76,0.31,1333.55,0.14,8.62,8.52,90.21,0.488,0.2967,0,20,1,0.6,4.5,0.75,0.35,0.0168,0.4,89.79,0,-41.68,-196.12,26.631,0.786,52.562,0,0,0,262.06,0,0,0,0,0,0,0,0,0,0,0,0,0,2,2,209.55,FLYING
210.37,APPROACH,ILS_TRACK,75.69,76,0.31,1333.68,0.14,8.63,8.53,90.17,0.461,0.3085,0,20,1,0.6,4.5,0.75,0.35,0.0168,0.4,89.75,0,-39.98,-192.2,26.558,0.75,51.377,0,0,0,262.06,0,0,0,0,0,0,0,0,0,0,0,0,0,2,2,210.41,FLYING
211.23,APPROACH,ILS_TRACK,75.67,76,0.33,1333.8,0.14,8.64,8.54,90.12,0.437,0.3224,0,20,1,0.6,4.5,0.75,0.35,0.0168,0.4,89.72,0,-38.35,-188.27,26.485,0.716,50.195,0,0,0,262.06,0,0,0,0,0,0,0,0,0,0,0,0,0,2,2,211.27,FLYING
212.09,APPROACH,ILS_TRACK,75.64,76,0.36,1333.93,0.15,8.65,8.55,90.08,0.415,0.3353,0,20,1,0.6,4.5,0.75,0.35,0.0168,0.4,89.68,0,-36.77,-184.34,26.413,0.683,49.016,0,0,0,262.06,0,0,0,0,0,0,0,0,0,0,0,0,0,2,2,212.13,FLYING
212.95,APPROACH,ILS_TRACK,75.62,76,0.38,1334.06,0.15,8.66,8.56,90.04,0.395,0.3457,0,20,1,0.6,4.5,0.75,0.35,0.0168,0.4,89.65,0,-35.25,-180.41,26.34,0.65,47.835,0,0,0,262.06,0,0,0,0,0,0,0,0,0,0,0,0,0,2,2,212.99,FLYING
213.81,APPROACH,ILS_TRACK,75.6,76,0.4,1334.19,0.15,8.67,8.57,90,0.378,0.3533,0,20,1,0.6,4.5,0.75,0.35,0.0168,0.4,89.62,0,-33.79,-176.48,26.268,0.62,46.655,0,0,0,262.06,0,0,0,0,0,0,0,0,0,0,0,0,0,2,2,213.85,FLYING
214.67,APPROACH,ILS_TRACK,75.59,76,0.41,1334.32,0.15,8.67,8.57,89.97,0.362,0.3582,0,20,1,0.6,4.5,0.75,0.35,0.0168,0.4,89.59,0,-32.37,-172.55,26.195,0.588,45.473,0,0,0,262.06,0,0,0,0,0,0,0,0,0,0,0,0,0,2,2,214.71,FLYING
215.53,APPROACH,ILS_TRACK,75.58,76,0.42,1334.45,0.16,8.67,8.57,89.93,0.348,0.3606,0,20,1,0.6,4.5,0.75,0.35,0.0168,0.4,89.56,0,-31.01,-168.61,26.123,0.56,44.289,0,0,0,262.06,0,0,0,0,0,0,0,0,0,0,0,0,0,2,2,215.57,FLYING
216.39,APPROACH,ILS_TRACK,75.59,76,0.41,1334.59,0.16,8.67,8.56,89.9,0.335,0.3606,0,20,1,0.6,4.5,0.75,0.35,0.0168,0.4,89.53,0,-29.7,-164.68,26.05,0.531,43.104,0,0,0,262.06,0,0,0,0,0,0,0,0,0,0,0,0,0,2,2,216.43,FLYING
217.25,APPROACH,ILS_TRACK,75.6,76,0.4,1334.73,0.17,8.66,8.55,89.86,0.323,0.3586,0,20,1,0.6,4.5,0.75,0.35,0.0168,0.4,89.5,0,-28.43,-160.74,25.978,0.503,41.917,0,0,0,262.06,0,0,0,0,0,0,0,0,0,0,0,0,0,2,2,217.29,FLYING
218.11,APPROACH,ILS_TRACK,75.63,76,0.37,1334.87,0.17,8.65,8.54,89.83,0.312,0.355,0,20,1,0.6,4.5,0.75,0.35,0.0168,0.4,89.48,0,-27.21,-156.79,25.905,0.476,40.728,0,0,0,262.06,0,0,0,0,0,0,0,0,0,0,0,0,0,2,2,218.15,FLYING
218.97,APPROACH,ILS_TRACK,75.66,76,0.34,1335.02,0.17,8.64,8.53,89.8,0.302,0.3501,0,20,1,0.6,4.5,0.75,0.35,0.0168,0.4,89.45,0,-26.02,-152.84,25.833,0.449,39.536,0,0,0,262.06,0,0,0,0,0,0,0,0,0,0,0,0,0,2,2,219.01,FLYING
219.83,APPROACH,ILS_TRACK,75.69,76,0.31,1335.17,0.18,8.63,8.51,89.77,0.294,0.3445,0,20,1,0.6,4.5,0.75,0.35,0.0168,0.4,89.43,0,-24.88,-148.89,25.76,0.425,38.341,0,0,0,262.06,0,0,0,0,0,0,0,0,0,0,0,0,0,2,2,219.87,FLYING
220.69,APPROACH,ILS_TRACK,75.74,76,0.26,1335.32,0.18,8.62,8.49,89.74,0.284,0.3384,0,20,1,0.6,4.5,0.75,0.35,0.0168,0.4,89.4,0,-23.78,-144.93,25.687,0.401,37.146,0,0,0,262.06,0,0,0,0,0,0,0,0,0,0,0,0,0,2,2,220.73,FLYING
221.55,APPROACH,ILS_TRACK,75.78,76,0.22,1335.48,0.19,8.6,8.48,89.71,0.276,0.3323,0,20,1,0.6,4.5,0.75,0.35,0.0168,0.4,89.38,0,-22.72,-140.97,25.615,0.378,35.947,0,0,0,262.06,0,0,0,0,0,0,0,0,0,0,0,0,0,2,2,221.59,FLYING
222.41,APPROACH,ILS_TRACK,75.83,76,0.17,1335.64,0.19,8.59,8.46,89.68,0.267,0.3264,0,20,1,0.6,4.5,0.75,0.35,0.0168,0.4,89.36,0,-21.7,-137,25.542,0.357,34.747,0,0,0,262.06,0,0,0,0,0,0,0,0,0,0,0,0,0,2,2,222.45,FLYING
223.27,APPROACH,ILS_TRACK,75.87,76,0.13,1335.8,0.19,8.58,8.45,89.65,0.259,0.3213,0,20,1,0.6,4.5,0.75,0.35,0.0168,0.4,89.33,0,-20.71,-133.02,25.469,0.334,33.544,0,0,0,262.06,0,0,0,0,0,0,0,0,0,0,0,0,0,2,2,223.31,FLYING
224.13,APPROACH,ILS_TRACK,75.91,76,0.09,1335.97,0.2,8.57,8.43,89.63,0.251,0.3177,0,20,1,0.6,4.5,0.75,0.35,0.0168,0.4,89.32,0,-19.76,-129.04,25.396,0.315,32.341,0,0,0,262.06,0,0,0,0,0,0,0,0,0,0,0,0,0,2,2,224.17,FLYING
224.99,APPROACH,ILS_TRACK,75.94,76,0.06,1336.14,0.2,8.56,8.43,89.6,0.243,0.3163,0,20,1,0.6,4.5,0.75,0.35,0.0168,0.4,89.3,0,-18.84,-125.05,25.324,0.297,31.137,0,0,0,262.06,0,0,0,0,0,0,0,0,0,0,0,0,0,2,2,225.03,FLYING
225.85,APPROACH,ILS_TRACK,75.96,76,0.04,1336.31,0.2,8.56,8.42,89.57,0.233,0.3169,0,20,1,0.6,4.5,0.75,0.35,0.0168,0.4,89.28,0,-17.96,-121.06,25.251,0.279,29.933,0,0,0,262.06,0,0,0,0,0,0,0,0,0,0,0,0,0,2,2,225.89,FLYING
226.73,APPROACH,ILS_TRACK,75.97,76,0.03,1336.49,0.2,8.56,8.42,89.55,0.224,0.319,0,20,1,0.6,4.5,0.75,0.35,0.0168,0.4,89.25,0,-17.09,-116.97,25.176,0.249,28.553,0,0,0,262.06,0,0,0,0,0,0,0,0,0,0,0,0,0,2,2,226.77,FLYING
227.61,APPROACH,ILS_TRACK,75.97,76,0.03,1336.67,0.21,8.56,8.42,89.52,0.222,0.322,0,20,1,0.6,4.5,0.75,0.35,0.0168,0.4,89.23,0,-16.26,-112.88,25.102,0.233,27.322,0,0,0,262.06,0,0,0,0,0,0,0,0,0,0,0,0,0,2,2,227.65,FLYING
228.47,APPROACH,ILS_TRACK,75.97,76,0.03,1336.85,0.21,8.56,8.42,89.5,0.215,0.325,0,20,1,0.6,4.5,0.75,0.35,0.0168,0.4,89.23,0,-15.48,-108.89,25.029,0.228,26.268,0,0,0,262.06,0,0,0,0,0,0,0,0,0,0,0,0,0,2,2,228.51,FLYING
229.33,APPROACH,ILS_TRACK,75.97,76,0.03,1337.03,0.21,8.57,8.42,89.48,0.203,0.3274,0,20,1,0.6,4.5,0.75,0.35,0.0168,0.4,89.21,0,-14.72,-104.88,24.956,0.212,25.063,0,0,0,262.06,0,0,0,0,0,0,0,0,0,0,0,0,0,2,2,229.37,FLYING
230.19,APPROACH,ILS_TRACK,75.98,76,0.02,1337.21,0.21,8.57,8.42,89.46,0.193,0.3293,0,20,1,0.6,4.5,0.75,0.35,0.0168,0.4,89.2,0,-14,-100.88,24.883,0.199,23.859,0,0,0,262.06,0,0,0,0,0,0,0,0,0,0,0,0,0,2,2,230.23,FLYING
231.07,APPROACH,ILS_TRACK,75.98,76,0.02,1337.4,0.22,8.57,8.42,89.44,0.185,0.3305,0,20,1,0.6,4.5,0.75,0.35,0.0168,0.4,89.18,0,-13.29,-96.78,24.808,0.177,22.477,0,0,0,262.06,0,0,0,0,0,0,0,0,0,0,0,0,0,2,2,231.11,FLYING
231.93,APPROACH,ILS_TRACK,75.98,76,0.02,1337.59,0.22,8.57,8.42,89.42,0.179,0.3311,0,20,1,0.6,4.5,0.75,0.35,0.0168,0.4,89.17,0,-12.62,-92.78,24.735,0.172,21.42,0,0,0,262.06,0,0,0,0,0,0,0,0,0,0,0,0,0,2,2,231.97,FLYING
232.79,APPROACH,ILS_TRACK,75.99,76,0.01,1337.78,0.22,8.57,8.42,89.4,0.171,0.3312,0,20,1,0.6,4.5,0.75,0.35,0.0168,0.4,89.16,0,-11.98,-88.76,24.662,0.158,20.212,0,0,0,262.06,0,0,0,0,0,0,0,0,0,0,0,0,0,2,2,232.83,FLYING
233.67,APPROACH,ILS_TRACK,76,76,0,1337.97,0.23,8.56,8.41,89.38,0.163,0.3308,0,20,1,0.6,4.5,0.75,0.35,0.0168,0.4,89.14,0,-11.35,-84.66,24.588,0.139,18.826,0,0,0,262.06,0,0,0,0,0,0,0,0,0,0,0,0,0,2,2,233.71,FLYING
234.53,APPROACH,ILS_TRACK,76,76,0,1338.17,0.23,8.56,8.41,89.36,0.158,0.33,0,19.998,1,0.6,4.5,0.75,0.35,0.0168,0.4,89.14,0,-10.77,-80.64,24.515,0.137,17.766,0,0,0,262.06,0,0,0,0,0,0,0,0,0,0,0,0,0,2,2,234.57,FLYING
235.39,APPROACH,ILS_TRACK,76.01,76,-0.01,1338.37,0.23,8.56,8.4,89.35,0.15,0.3289,0,19.991,1,0.6,4.5,0.75,0.35,0.0168,0.4,89.12,0,-10.2,-76.62,24.442,0.124,16.555,0,0,0,262.06,0,0,0,0,0,0,0,0,0,0,0,0,0,2,2,235.43,FLYING
236.25,APPROACH,ILS_TRACK,75.88,76,0.12,1338.57,0.23,8.57,8.41,89.33,0.143,0.3552,0,20,1,0.6,4.5,0.75,0.35,0.0168,0.4,89.12,0,-9.66,-72.6,24.369,0.115,15.34,0,0,0,262.06,0,0,0,0,0,0,0,0,0,0,0,0,0,2,2,236.29,FLYING
237.11,APPROACH,ILS_TRACK,75.72,76,0.28,1338.78,0.23,8.62,8.46,89.31,0.136,0.3874,0,20,1,0.6,4.5,0.75,0.35,0.0168,0.4,89.1,0,-9.13,-68.57,24.296,0.105,14.135,0,0,0,262.06,0,0,0,0,0,0,0,0,0,0,0,0,0,2,2,237.15,FLYING
238.01,APPROACH,ILS_TRACK,75.56,76,0.44,1339,0.23,8.68,8.53,89.3,0.129,0.4155,0,20,1,0.6,4.5,0.75,0.35,0.0168,0.4,89.08,0,-8.61,-64.37,24.22,0.084,12.593,0,0,0,262.06,0,0,0,0,0,0,0,0,0,0,0,0,0,2,2,238.05,FLYING
238.87,APPROACH,ILS_TRACK,75.41,76,0.59,1339.2,0.22,8.73,8.58,89.28,0.126,0.4357,0,20,1,0.6,4.5,0.75,0.35,0.0168,0.4,89.09,0,-8.14,-60.37,24.148,0.087,11.708,0,0,0,262.06,0,0,0,0,0,0,0,0,0,0,0,0,0,2,2,238.91,FLYING
239.73,APPROACH,ILS_TRACK,75.29,76,0.71,1339.41,0.23,8.78,8.62,89.27,0.119,0.4497,0,20,1,0.6,4.5,0.75,0.35,0.0168,0.4,89.08,0,-7.68,-56.38,24.075,0.08,10.522,0,0,0,262.06,0,0,0,0,0,0,0,0,0,0,0,0,0,2,2,239.77,FLYING
240.59,APPROACH,ILS_TRACK,75.19,76,0.81,1339.61,0.23,8.81,8.65,89.26,0.113,0.4578,0,20,1,0.6,4.5,0.75,0.35,0.0168,0.4,89.07,0,-7.24,-52.39,24.003,0.072,9.34,0,0,0,262.06,0,0,0,0,0,0,0,0,0,0,0,0,0,2,2,240.63,FLYING
241.45,APPROACH,ILS_TRACK,75.12,76,0.88,1339.81,0.23,8.83,8.67,89.24,0.107,0.4606,0,20,1,0.6,4.5,0.75,0.35,0.0168,0.4,89.06,0,-6.83,-48.41,23.931,0.065,8.152,0,0,0,262.06,0,0,0,0,0,0,0,0,0,0,0,0,0,2,2,241.49,FLYING
242.31,APPROACH,ILS_TRACK,75.07,76,0.93,1340.01,0.23,8.84,8.68,89.23,0.102,0.4582,0,20,1,0.6,4.5,0.75,0.35,0.0168,0.4,89.06,0,-6.43,-44.43,23.859,0.057,6.963,0,0,0,262.06,0,0,0,0,0,0,0,0,0,0,0,0,0,2,2,242.35,FLYING
243.19,APPROACH,ILS_TRACK,75.05,76,0.95,1340.22,0.24,8.84,8.68,89.22,0.098,0.4514,0,20,1,0.6,4.5,0.75,0.35,0.0168,0.4,89.04,0,-6.03,-40.36,23.785,0.045,5.592,0,0,0,262.06,0,0,0,0,0,0,0,0,0,0,0,0,0,2,2,243.23,FLYING
244.07,APPROACH,ILS_TRACK,75.06,76,0.94,1340.43,0.24,8.83,8.67,89.21,0.097,0.4409,0,20,1,0.6,4.5,0.75,0.35,0.0168,0.4,89.04,0,-5.66,-36.28,23.712,0.037,4.366,0,0,0,262.06,0,0,0,0,0,0,0,0,0,0,0,0,0,2,2,244.11,FLYING
244.93,APPROACH,ILS_TRACK,75.08,76,0.92,1340.64,0.25,8.82,8.65,89.2,0.093,0.4278,0,20,1,0.6,4.5,0.75,0.35,0.0168,0.4,89.04,0,-5.3,-32.3,23.639,0.035,3.311,0,0,0,262.06,0,0,0,0,0,0,0,0,0,0,0,0,0,2,2,244.97,FLYING
245.79,APPROACH,ILS_TRACK,75.13,76,0.87,1340.85,0.28,8.76,8.58,89.19,0.094,0.4133,0,20,1,0.6,4.5,0.75,0.35,0.0168,0.4,89.03,-0.895,-4.97,-28.31,23.567,0.03,2.105,0,0,0,262.06,0,0,0,0,0,0,0,0,0,0,0,0,0,2,2,245.83,FLYING
246.67,APPROACH,ILS_TRACK,75.22,76,0.78,1340.98,0.17,8.42,8.32,89.17,0.119,0.3919,0,20,1,0.6,4.5,0.75,0.35,0.0168,0.4,89.02,-2.154,-4.63,-24.28,23.493,0.018,0.846,0,0,0,262.06,0,0,0,0,0,0,0,0,0,0,0,0,0,2,2,246.71,FLYING
247.53,APPROACH,ILS_TRACK,75.38,76,0.62,1340.92,-0.1,7.92,8,89.15,0.133,0.3595,0,20,1,0.6,4.5,0.75,0.35,0.0168,0.4,89.02,-2.892,-4.32,-20.5,23.421,0.019,0.108,0,0,0,262.06,0,0,0,0,0,0,0,0,0,0,0,0,0,2,2,247.57,FLYING
248.39,APPROACH,ILS_TRACK,75.6,76,0.4,1340.59,-0.46,7.48,7.81,89.14,0.138,0.3184,0,20,1,0.6,4.5,0.75,0.35,0.0168,0.4,89.02,-3.56,-4.03,-16.97,23.349,0.016,-0.56,0,0,0,262.06,0,0,0,0,0,0,0,0,0,0,0,0,0,2,2,248.43,FLYING
249.27,APPROACH,ILS_TRACK,75.85,76,0.15,1339.9,-0.89,7.05,7.67,89.12,0.141,0.2754,0,20,1,0.6,4.5,0.75,0.35,0.0168,0.4,89.01,-4.151,-3.75,-13.69,23.274,0.009,-1.151,0,0,0,262.06,0,0,0,0,0,0,0,0,0,0,0,0,0,2,2,249.31,FLYING
250.15,APPROACH,ILS_TRACK,76.09,76,-0.09,1338.81,-1.38,6.62,7.56,89.11,0.141,0.2382,0,19.964,1,0.6,4.5,0.75,0.35,0.0168,0.4,89.01,-4.412,-3.49,-10.78,23.2,0.009,-1.412,0,0,0,262.06,0,0,0,0,0,0,0,0,0,0,0,0,0,2,2,250.19,FLYING
251.01,APPROACH,ILS_TRACK,76.28,76,-0.28,1337.35,-1.86,6.31,7.56,89.1,0.133,0.2131,0,19.829,1,0.6,4.5,0.75,0.35,0.0168,0.4,89.01,-4.427,-3.26,-8.33,23.127,0.013,-1.427,0,0,0,262.06,0,0,0,0,0,0,0,0,0,0,0,0,0,2,2,251.05,FLYING
251.89,APPROACH,ILS_TRACK,76.41,76,-0.41,1335.47,-2.29,6.06,7.6,89.08,0.118,0.2025,0,19.629,1,0.6,4.5,0.75,0.35,0.0168,0.4,89.01,-4.545,-3.03,-6.2,23.052,0.01,-1.545,0,0,0,262.06,0,0,0,0,0,0,0,0,0,0,0,0,0,2,2,251.93,FLYING
252.77,APPROACH,ILS_TRACK,76.46,76,-0.46,1333.23,-2.72,5.87,7.68,89.07,0.106,0.2068,0,19.401,1,0.6,4.5,0.75,0.35,0.0168,0.4,89.01,-4.475,-2.83,-4.45,22.977,0.01,-1.475,0,0,0,262.06,0,0,0,0,0,0,0,0,0,0,0,0,0,2,2,252.81,FLYING
253.63,APPROACH,ILS_TRACK,76.44,76,-0.44,1330.71,-3.08,5.74,7.79,89.06,0.092,0.2228,0,19.178,1,0.6,4.5,0.75,0.35,0.0168,0.4,89.01,-4.305,-2.64,-3.06,22.903,0.014,-1.305,0,0,0,262.06,0,0,0,0,0,0,0,0,0,0,0,0,0,2,2,253.67,FLYING
254.49,APPROACH,ILS_TRACK,76.38,76,-0.38,1327.92,-3.37,5.66,7.92,89.06,0.078,0.2458,0,18.986,1,0.6,4.5,0.75,0.35,0.0168,0.4,89.01,-4.182,-2.47,-1.95,22.83,0.013,-1.182,0,0,0,262.06,0,0,0,0,0,0,0,0,0,0,0,0,0,2,2,254.53,FLYING
255.35,APPROACH,ILS_TRACK,76.3,76,-0.3,1324.9,-3.62,5.59,8.02,89.05,0.065,0.2698,0,18.834,1,0.6,4.5,0.75,0.35,0.0168,0.4,89.01,-4.048,-2.31,-1.09,22.757,0.014,-1.048,0,0,0,262.06,0,0,0,0,0,0,0,0,0,0,0,0,0,2,2,255.39,FLYING
256.21,APPROACH,ILS_TRACK,76.22,76,-0.22,1321.69,-3.83,5.54,8.11,89.04,0.055,0.2901,0,18.724,1,0.6,4.5,0.75,0.35,0.0168,0.4,89.01,-3.916,-2.17,-0.44,22.684,0.014,-0.916,0,0,0,262.06,0,0,0,0,0,0,0,0,0,0,0,0,0,2,2,256.25,FLYING
257.07,APPROACH,ILS_TRACK,76.15,76,-0.15,1318.32,-4,5.5,8.19,89.04,0.046,0.3054,0,18.648,1,0.6,4.5,0.75,0.35,0.0168,0.4,89.01,-3.789,-2.03,0.05,22.611,0.013,-0.789,0,0,0,262.06,0,0,0,0,0,0,0,0,0,0,0,0,0,2,2,257.11,FLYING
257.95,APPROACH,ILS_TRACK,76.09,76,-0.09,1314.74,-4.13,5.48,8.26,89.03,0.039,0.3161,0,18.602,1,0.6,4.5,0.75,0.35,0.0168,0.4,89.01,-3.684,-1.9,0.4,22.536,0.011,-0.684,0,0,0,262.06,0,0,0,0,0,0,0,0,0,0,0,0,0,2,2,257.99,FLYING
258.83,APPROACH,ILS_TRACK,76.05,76,-0.05,1311.05,-4.24,5.45,8.31,89.03,0.034,0.3221,0,18.575,1,0.6,4.5,0.75,0.35,0.0168,0.4,89.01,-3.569,-1.78,0.64,22.462,0.009,-0.569,0,0,0,262.06,0,0,0,0,0,0,0,0,0,0,0,0,0,2,2,258.87,FLYING
259.71,APPROACH,ILS_TRACK,76.03,76,-0.03,1307.28,-4.33,5.44,8.36,89.02,0.028,0.324,0,18.56,1,0.6,4.5,0.75,0.35,0.0168,0.4,89.01,-3.468,-1.67,0.78,22.387,0.009,-0.468,0,0,0,262.06,0,0,0,0,0,0,0,0,0,0,0,0,0,2,2,259.75,FLYING
260.59,APPROACH,ILS_TRACK,76.02,76,-0.02,1303.45,-4.39,5.44,8.4,89.02,0.023,0.3226,0,18.549,1,0.6,4.5,0.75,0.35,0.0168,0.4,89.01,-3.387,-1.56,0.86,22.313,0.009,-0.387,0,0,0,262.06,0,0,0,0,0,0,0,0,0,0,0,0,0,2,2,260.63,FLYING
261.47,APPROACH,ILS_TRACK,76.03,76,-0.03,1299.58,-4.41,5.44,8.42,89.01,0.018,0.3189,0,18.535,1,0.6,4.5,0.75,0.35,0.0168,0.4,89.01,-3.331,-1.46,0.9,22.238,0.008,-0.331,0,0,0,262.06,0,0,0,0,0,0,0,0,0,0,0,0,0,2,2,261.51,FLYING
262.35,APPROACH,ILS_TRACK,76.05,76,-0.05,1295.69,-4.43,5.44,8.43,89.01,0.013,0.3131,0,18.513,1,0.6,4.5,0.75,0.35,0.0168,0.4,89.01,-3.295,-1.36,0.91,22.164,0.006,-0.295,0,0,0,262.06,0,0,0,0,0,0,0,0,0,0,0,0,0,2,2,262.39,FLYING
263.23,APPROACH,ILS_TRACK,76.08,76,-0.08,1291.79,-4.44,5.42,8.42,89.01,0.01,0.3054,0,18.477,1,0.6,4.5,0.75,0.35,0.0168,0.4,89.01,-3.273,-1.27,0.91,22.09,0.005,-0.273,0,0,0,262.06,0,0,0,0,0,0,0,0,0,0,0,0,0,2,2,263.27,FLYING
264.11,APPROACH,ILS_TRACK,76.11,76,-0.11,1287.87,-4.44,5.41,8.41,89.01,0.006,0.2962,0,18.421,1,0.6,4.5,0.75,0.35,0.0168,0.4,89,-3.259,-1.18,0.9,22.015,0.004,-0.259,0,0,0,262.06,0,0,0,0,0,0,0,0,0,0,0,0,0,2,2,264.15,FLYING
264.99,APPROACH,ILS_TRACK,76.16,76,-0.16,1283.96,-4.45,5.39,8.39,89,0.005,0.2861,0,18.341,1,0.6,4.5,0.75,0.35,0.0168,0.4,89,-3.248,-1.1,0.89,21.941,0.003,-0.248,0,0,0,262.06,0,0,0,0,0,0,0,0,0,0,0,0,0,2,2,265.03,FLYING
265.87,APPROACH,ILS_TRACK,76.22,76,-0.22,1280.04,-4.45,5.37,8.37,89,0.003,0.2755,0,18.236,1,0.6,4.5,0.75,0.35,0.0168,0.4,89,-3.241,-1.02,0.88,21.866,0.002,-0.241,0,0,0,262.06,0,0,0,0,0,0,0,0,0,0,0,0,0,2,2,265.91,FLYING
266.75,APPROACH,ILS_TRACK,76.27,76,-0.27,1276.12,-4.45,5.36,8.36,89,0.003,0.2652,0,18.103,1,0.6,4.5,0.75,0.35,0.0168,0.4,89,-3.236,-0.95,0.86,21.792,0,-0.236,0,0,0,262.06,0,0,0,0,0,0,0,0,0,0,0,0,0,2,2,266.79,FLYING
267.63,APPROACH,ILS_TRACK,76.32,76,-0.32,1272.2,-4.45,5.34,8.35,89,0.002,0.2566,0,17.947,1,0.6,4.5,0.75,0.35,0.0168,0.4,89,-3.232,-0.88,0.85,21.717,-0.001,-0.232,0,0,0,262.06,0,0,0,0,0,0,0,0,0,0,0,0,0,2,2,267.67,FLYING
268.67,APPROACH,ILS_TRACK,76.35,76,-0.35,1267.57,-4.46,5.34,8.34,89,0.003,0.251,0,17.773,1,0.6,4.5,0.75,0.35,0.0168,0.4,89,-3.228,-0.81,0.84,21.64,-0.003,-0.228,0,0,0,262.06,0,0,0,0,0,0,0,0,0,0,0,0,0,2,2,268.74,FLYING
269.75,APPROACH,ILS_TRACK,76.36,76,-0.36,1262.77,-4.45,5.35,8.35,88.99,0.003,0.2503,0,17.594,1,0.6,4.5,0.75,0.35,0.0168,0.4,88.98,-3.221,-0.72,0.82,21.538,-0.017,-0.221,0,0,0,262.06,0,0,0,0,0,0,0,0,0,0,0,0,0,2,2,269.79,FLYING
270.84,APPROACH,ILS_TRACK,76.34,76,-0.34,1257.92,-4.45,5.36,8.36,88.99,0.004,0.2545,0,17.422,1,0.6,4.5,0.75,0.35,0.0168,0.4,88.99,-3.223,-0.65,0.81,21.456,-0.006,-0.223,0,0,0,262.06,0,0,0,0,0,0,0,0,0,0,0,0,0,2,2,270.91,FLYING
272.35,APPROACH,ILS_TRACK,76.28,76,-0.28,1251.23,-4.45,5.39,8.39,88.98,0.004,0.2666,0,17.277,1,0.6,4.5,0.75,0.35,0.0168,0.4,88.97,-3.21,-0.55,0.79,21.33,-0.027,-0.21,0,0,0,262.06,0,0,0,0,0,0,0,0,0,0,0,0,0,2,2,272.42,FLYING
273.85,APPROACH,ILS_TRACK,76.21,76,-0.21,1244.54,-4.44,5.41,8.41,88.98,0.006,0.2806,0,17.169,1,0.6,4.5,0.75,0.35,0.0168,0.4,88.98,-3.206,-0.47,0.77,21.202,-0.025,-0.206,0,0,0,262.06,0,0,0,0,0,0,0,0,0,0,0,0,0,2,2,273.92,FLYING
275.36,APPROACH,ILS_TRACK,76.15,76,-0.15,1237.87,-4.43,5.43,8.43,88.98,0.005,0.2916,0,17.094,1,0.6,4.5,0.75,0.35,0.0168,0.4,88.98,-3.206,-0.39,0.76,21.075,-0.023,-0.206,0,0,0,262.06,0,0,0,0,0,0,0,0,0,0,0,0,0,2,2,275.43,FLYING
276.86,APPROACH,ILS_TRACK,76.1,76,-0.1,1231.21,-4.42,5.45,8.44,88.97,0.001,0.2979,0,17.042,1,0.6,4.5,0.75,0.35,0.0168,0.4,88.98,-3.207,-0.33,0.75,20.948,-0.019,-0.207,0,0,0,262.06,0,0,0,0,0,0,0,0,0,0,0,0,0,2,2,276.93,FLYING
278.37,APPROACH,ILS_TRACK,76.08,76,-0.08,1224.56,-4.42,5.45,8.45,88.97,0.002,0.2987,0,17.004,1,0.6,4.5,0.75,0.35,0.0168,0.4,88.98,-3.212,-0.27,0.74,20.821,-0.019,-0.212,0,0,0,262.06,0,0,0,0,0,0,0,0,0,0,0,0,0,2,2,278.44,FLYING
279.87,APPROACH,ILS_TRACK,76.08,76,-0.08,1217.92,-4.41,5.45,8.44,88.97,-0.001,0.294,0,16.964,1,0.6,4.5,0.75,0.35,0.0168,0.4,88.98,-3.22,-0.22,0.74,20.695,-0.015,-0.22,0,0,0,262.06,0,0,0,0,0,0,0,0,0,0,0,0,0,2,2,279.94,FLYING
281.38,APPROACH,ILS_TRACK,76.11,76,-0.11,1211.28,-4.41,5.43,8.42,88.96,-0.002,0.2848,0,16.911,1,0.6,4.5,0.75,0.35,0.0168,0.4,88.99,-3.228,-0.18,0.74,20.568,-0.014,-0.228,0,0,0,262.06,0,0,0,0,0,0,0,0,0,0,0,0,0,2,2,281.45,FLYING
282.88,APPROACH,ILS_TRACK,76.15,76,-0.15,1204.64,-4.41,5.41,8.4,88.96,-0.006,0.2724,0,16.836,1,0.6,4.5,0.75,0.35,0.0168,0.4,88.99,-3.235,-0.14,0.75,20.441,-0.011,-0.235,0,0,0,262.06,0,0,0,0,0,0,0,0,0,0,0,0,0,2,2,282.95,FLYING
284.39,APPROACH,ILS_TRACK,76.21,76,-0.21,1198,-4.41,5.39,8.38,88.96,-0.01,0.2592,0,16.734,1,0.6,4.5,0.75,0.35,0.0168,0.4,88.99,-3.24,-0.12,0.76,20.314,-0.008,-0.24,0,0,0,262.06,0,0,0,0,0,0,0,0,0,0,0,0,0,2,2,284.46,FLYING
