t_s,phase,subphase,ias_ms,vapp_ms,spd_err_ms,agl_m,vs_ms,pitch_deg,aoa_deg,hdg_deg,bank_deg,thr_cmd,thr_cur,thr_intg,at_gain,at_tau_s,at_a_up,at_a_dn,at_kp_thr,at_ki_spd,at_thr_slew,aa_hdg_cmd_deg,aa_fpa_cmd_deg,ils_loc_m,ils_gs_m,ils_dist_km,loc_corr_deg,gs_corr_deg,flare_fpa_cmd,flare_tgt_vs,flare_frac,steer_hdg_deg,steer_blend,ro_loc_corr_deg,ro_hdg_err_deg,ro_yaw_tgt,ro_yaw_scale,ro_yaw_gate,yaw_cmd,roll_cmd,pitch_cmd,ro_pitch_tgt_deg,ro_pitch_err_deg,ro_pitch_ff,ro_roll_assist,flaps_cur,flaps_tgt,asc_j_ab,asc_j_rk,asc_validity,asc_q_pa,asc_q_raw_pa,asc_mach,asc_apo_m,asc_drag_n,asc_w_prop,asc_edot_aero,asc_edot_orb,asc_pitch_bias,asc_blend,asc_spooling,asc_ab_thr_ratio,asc_ab_t_now,asc_ab_t_avail,asc_ab_ign_on,asc_ab_flameouts,asc_rk_t_now,asc_rk_t_avail,asc_rk_ign_on,asc_rk_flameouts,ship_thrust,ship_avail_thrust,ship_ign_on,ship_flameouts,ifc_raw_dt_s,ifc_dt_s,phase_el_s,status
0.94,TAKEOFF,TO_PREFLIGHT,0.12,80,79.88,4.54,-0.4,2.55,75.01,89.44,-0.048,0.2,0,0,0,0,0,0,0,0,0,90.4,0,0,0,0,0,0,0,0,0,90.4,1,0,-0.962,0,0,1,0,0,0,0,0,0,0,1,2,0,0,VALID,0,0,0,0,0,1,0,0,0,0,0,0,0,0,0,0,0,0,0,0,0,888.42,2,0,0.78,0.5,0.22,LANDED
3.48,TAKEOFF,TO_PREFLIGHT,0.16,80,79.84,3.59,-0.01,-0.24,-1.54,89.5,-0.037,1,0,0,0,0,0,0,0,0,0,90.4,0,0,0,0,0,0,0,0,0,90.4,1,0,-0.962,0,0,1,0,0,0,0,0,0,0,2,2,0,0,VALID,0,0,0,0,0,1,0,0,0,0,0,0,0,0,0,0,0,0,0,0,181.38,888.42,2,0,0.6,0.5,2.74,LANDED
6.04,TAKEOFF,TO_PREFLIGHT,0.15,80,79.85,3.59,0.01,-0.22,-3.01,89.84,-0.043,1,0,0,0,0,0,0,0,0,0,90.4,0,0,0,0,0,0,0,0,0,90.4,1,0,-0.962,0,0,1,0,0,0,0,0,0,0,2,2,0,0,VALID,0,0,0,0,0,1,0,0,0,0,0,0,0,0,0,0,0,0,0,0,465.12,888.41,2,0,0.62,0.5,5.3,LANDED
8.62,TAKEOFF,TO_PREFLIGHT,0.39,80,79.61,3.58,0,-0.23,-0.09,89.87,-0.049,1,0,0,0,0,0,0,0,0,0,90.4,0,0,0,0,0,0,0,0,0,90.4,1,0,-0.962,0,0,1,0,0,0,0,0,0,0,2,2,0,0,VALID,0,0,0,0,0,1,0,0,0,0,0,0,0,0,0,0,0,0,0,0,636,888.4,2,0,0.62,0.5,7.88,LANDED
10.66,TAKEOFF,TO_GROUND_ROLL,3.18,80,76.82,3.62,0.02,-0.12,-0.42,89.88,-0.048,1,0,0,0,0,0,0,0,0,0,90.25,0,0,0,0,0.01,0,0,0,0,90.25,1,0.01,-0.38,-0.0009,0.578,0,-0.0009,0,0,0,0,0,0,2,2,0,0,VALID,0,0,0,0,0,1,0,0,0,0,0,0,0,0,0,0,0,0,0,0,721.32,888.34,2,0,0.64,0.5,9.94,LANDED
12.74,TAKEOFF,TO_GROUND_ROLL,12.77,80,67.23,3.62,-0.03,-0.1,0.03,90.08,-0.045,1,0,0,0,0,0,0,0,0,0,90.39,0,0,0,0,0.019,0,0,0,0,90.39,1,0.019,-0.327,0.0079,0.675,0,0.0079,0,0,0,0,0,0,2,2,0,0,VALID,0,0,0,0,0,1,0,0,0,0,0,0,0,0,0,0,0,0,0,0,777.57,887.55,2,0,0.66,0.5,12.02,LANDED
14.82,TAKEOFF,TO_GROUND_ROLL,23.06,80,56.94,3.62,-0.05,-0.09,0.03,90.41,-0.04,1,0,0,0,0,0,0,0,0,0,90.39,0,0,0,0,0.029,0,0,0,0,90.39,1,0.029,-0.003,-0.003,0.778,0,-0.003,0,0,0,0,0,0,2,2,0,0,VALID,0,0,0,0,0,1,0,0,0,0,0,0,0,0,0,0,0,0,0,0,813.63,885.99,2,0,0.66,0.5,14.1,LANDED
16.94,TAKEOFF,TO_GROUND_ROLL,33.94,80,46.06,3.62,-0.07,-0.09,0.02,90.82,-0.035,1,0,0,0,0,0,0,0,0,0,90.37,0,0,0,0,0.023,0,0,0,0,90.37,1,0.023,0.413,-0.0227,0.886,0,-0.0227,0,0,0,0,0,0,2,2,0,0,VALID,0,0,0,0,0,1,0,0,0,0,0,0,0,0,0,0,0,0,0,0,836.73,883.92,2,0,0.68,0.5,16.22,LANDED
19.06,TAKEOFF,TO_GROUND_ROLL,45.07,80,34.93,3.62,-0.09,-0.08,0.02,91.26,-0.032,1,0,0,0,0,0,0,0,0,0,90.33,0,0,0,0,-0.018,0,0,0,0,90.33,1,-0.018,0.893,-0.0486,0.998,0,-0.0486,0,0,0,0,0,0,2,2,0,0,VALID,0,0,0,0,0,1,0,0,0,0,0,0,0,0,0,0,0,0,0,0,851.06,881.83,2,0,0.68,0.5,18.34,LANDED
21.18,TAKEOFF,TO_GROUND_ROLL,56.35,80,23.65,3.62,-0.1,-0.08,0.02,91.68,-0.032,1,0,0,0,0,0,0,0,0,0,90.24,0,0,0,0,-0.112,0,0,0,0,90.24,1,-0.112,1.409,-0.0729,1,0,-0.0729,0,0,0,0,0,0,2,2,0,0,VALID,0,0,0,0,0,1,0,0,0,0,0,0,0,0,0,0,0,0,0,0,860.12,880.21,2,0,0.68,0.5,20.46,LANDED
23.3,TAKEOFF,TO_GROUND_ROLL,67.73,80,12.27,3.62,-0.1,-0.07,0.01,92.07,-0.033,1,0,0,0,0,0,0,0,0,0,90.08,0,0,0,0,-0.277,0,0,0,0,90.08,1,-0.277,1.964,-0.0987,1,0,-0.0987,0,0,0,0,0,0,2,2,0,0,VALID,0,0,0,0,0,1,0,0,0,0,0,0,0,0,0,0,0,0,0,0,866.42,879.55,2,0,0.68,0.5,22.58,LANDED
25.42,TAKEOFF,TO_GROUND_ROLL,79.2,80,0.8,3.62,-0.09,-0.06,0,92.31,-0.006,1,0,0,0,0,0,0,0,0,0,89.86,0,0,0,0,-0.52,0,0,0,0,89.86,1,-0.52,2.435,-0.1182,1,0,-0.1182,0,0,0,0,0,0,2,2,0,0,VALID,0,0,0,0,0,1,0,0,0,0,0,0,0,0,0,0,0,0,0,0,880.19,889.04,2,0,0.68,0.5,24.7,LANDED
27.54,TAKEOFF,TO_GROUND_ROLL,90.95,80,-10.95,3.62,-0.1,-0.06,0,92.42,-0.068,1,0,0,0,0,0,0,0,0,0,89.57,0,0,0,0,-0.833,0,0,0,0,89.57,1,-0.833,2.857,-0.1359,1,0,-0.1359,0,0,0,0,0,0,2,2,0,0,VALID,0,0,0,0,0,1,0,0,0,0,0,0,0,0,0,0,0,0,0,0,909.43,915.59,2,0,0.68,0.5,26.82,LANDED
29.64,TAKEOFF,TO_GROUND_ROLL,103.05,80,-23.05,3.62,-0.05,-0.03,0,92.04,-0.097,1,0,0,0,0,0,0,0,0,0,89.29,0,0,0,0,-1.173,0,0,0,0,89.29,1,-1.173,2.8,-0.1255,1,0,-0.1255,0,0,0,0,0,0,2,2,0,0,VALID,0,0,0,0,0,1,0,0,0,0,0,0,0,0,0,0,0,0,0,0,950.62,955.05,2,0,0.66,0.5,28.92,LANDED
31.76,TAKEOFF,TO_GROUND_ROLL,115.88,80,-35.88,3.63,0.02,0.01,0.01,90.8,-0.158,1,0,0,0,0,0,0,0,0,0,89.16,0,0,0,0,-1.416,0,0,0,0,89.16,1,-1.416,1.732,-0.0598,1,0,-0.0598,0,0,0,0,0,0,2,2,0,0,VALID,0,0,0,0,0,1,0,0,0,0,0,0,0,0,0,0,0,0,0,0,1000.74,1003.98,2,0,0.68,0.5,31.04,LANDED
33.88,TAKEOFF,TO_GROUND_ROLL,129.43,80,-49.43,3.62,0.05,0.01,-0.02,90.32,-0.08,1,0,0,0,0,0,0,0,0,0,88.97,0,0,0,0,-1.432,0,0,0,0,88.97,1,-1.432,1.387,-0.0651,1,0,-0.0651,0,0,0,0,0,0,2,2,0,0,VALID,0,0,0,0,0,1,0,0,0,0,0,0,0,0,0,0,0,0,0,0,1054.07,1056.46,2,0,0.68,0.5,33.16,LANDED
36,TAKEOFF,TO_GROUND_ROLL,143.74,80,-63.74,3.62,0.13,0.02,-0.03,89.92,-0.08,1,0,0,0,0,0,0,0,0,0,89.08,0,0,0,0,-1.349,0,0,0,0,89.08,1,-1.349,0.885,-0.0387,1,0,-0.0387,0,0,0,0,0,0,2,2,0,0,VALID,0,0,0,0,0,1,0,0,0,0,0,0,0,0,0,0,0,0,0,0,1110.7,1112.57,2,0,0.68,0.5,35.28,LANDED
38.1,TAKEOFF,TO_GROUND_ROLL,158.77,80,-78.77,3.62,0.23,0.06,-0.02,89.58,-0.094,1,0,0,0,0,0,0,0,0,0,89.29,0,0,0,0,-1.166,0,0,0,0,89.29,1,-1.166,0.308,-0.0075,1,0,-0.0075,0,0,0,0,0,0,2,2,0,0,VALID,0,0,0,0,0,1,0,0,0,0,0,0,0,0,0,0,0,0,0,0,1174.95,1176.51,2,0,0.68,0.5,37.38,LANDED
40.22,TAKEOFF,TO_ROTATE,175.08,80,-95.08,7.61,-0.86,0.42,0.66,89.27,-0.055,1,0,0,0,0,0,0,0,0,0,90.4,3.66,0,0,0,0,0,0,0,0,90.4,1,0,-1.122,0,0,3,0,0,0,3.66,3.309,0,0,2,2,0,0,VALID,0,0,0,0,0,1,0,0,0,0,0,0,0,0,0,0,0,0,0,0,1249.06,1250.43,2,0,0.72,0.5,39.5,FLYING
42.72,TAKEOFF,TO_ROTATE,185.72,80,-105.72,31.57,4.43,20.87,19.53,90.5,-2.522,1,0,0,0,0,0,0,0,0,0,90.4,10.86,0,0,0,0,0,0,0,0,90.4,1,0,0.095,0,0,3,0,0,0,10.86,-9.94,0,0,2,2,0,0,VALID,0,0,0,0,0,1,0,0,0,0,0,0,0,0,0,0,0,0,0,0,1302.06,1302.69,2,0,0.6,0.5,42,FLYING
45.32,TAKEOFF,TO_CLIMB,189.62,80,-109.62,107.64,21.59,21.38,14.99,90.67,-2.165,0.8655,0,0,0,0,0,0,0,0,0,90.4,7.3,0,0,0,0,0,0,0,0,90.4,1,0,0.274,0,0,3,0,0,0,11.5,-10.712,0,0,1,1,0,0,VALID,0,0,0,0,0,1,0,0,0,0,0,0,0,0,0,0,0,0,0,0,1260.13,1318.93,2,0,0.6,0.5,44.58,FLYING
47.72,TAKEOFF,TO_CLIMB,200.15,80,-120.15,162.48,24.28,17.02,10.1,90.4,-0.71,0.82,0,0,0,0,0,0,0,0,0,90.4,7,0,0,0,0,0,0,0,0,90.4,1,0,0.005,0,0,3,0,0,0,11.5,-10.712,0,0,1,1,0,0,VALID,0,0,0,0,0,1,0,0,0,0,0,0,0,0,0,0,0,0,0,0,1211.02,1367,2,0,0.58,0.5,46.98,FLYING
50.2,TAKEOFF,TO_CLIMB,211.98,80,-131.98,224.56,25.99,16.14,9.14,90.36,-0.241,0.82,0,0,0,0,0,0,0,0,0,90.4,7,0,0,0,0,0,0,0,0,90.4,1,0,-0.04,0,0,3,0,0,0,11.5,-10.712,0,0,1,1,0,0,VALID,0,0,0,0,0,1,0,0,0,0,0,0,0,0,0,0,0,0,0,0,1205.97,1423.11,2,0,0.6,0.5,49.46,FLYING
52.68,TAKEOFF,TO_CLIMB,224.38,80,-144.38,290.89,27.72,15.27,8.21,90.37,-0.18,0.82,0,0,0,0,0,0,0,0,0,90.4,7,0,0,0,0,0,0,0,0,90.4,1,0,-0.032,0,0,3,0,0,0,11.5,-10.712,0,0,1,1,0,0,VALID,0,0,0,0,0,1,0,0,0,0,0,0,0,0,0,0,0,0,0,0,1233.49,1483.81,2,0,0.6,0.5,51.94,FLYING
55.24,ASCENT,AB_CORRIDOR,238.44,80,-158.44,364.01,29.59,14.41,7.29,90.38,-0.162,1,0,0,0,0,0,0,0,0,0,90.4,7.123,0,0,0,0,0,0,0,0,90.4,1,0,-0.028,0,0,3,0,0,0,11.5,-10.712,0,0,1,1,24.41,6.255,DEGRADED,29894.8,30676.9,0.675,372,0,1.1163,928.58,675.98,0.001,0,0,0.8452,1305.94,1545.15,2,0,1308.13,386.36,2,0,1329.07,1554.89,2,0,0.98,0.5,1.94,FLYING
57.78,ASCENT,AB_CORRIDOR,255.22,80,-175.22,442.38,32.37,14.08,6.76,90.4,-0.222,0.9613,0,0,0,0,0,0,0,0,0,90.4,7.929,0,0,0,0,0,0,0,0,90.4,1,0,-0.028,0,0,3,0,0,0,11.5,-10.712,0,0,1,1,20.254,3.561,VALID,32581,34544.7,0.721,414,0,1.1167,2056.35,2301.49,0.616,0,0,0.9031,1472.81,1630.79,2,0,1474.54,407.79,2,0,1491,1642.86,2,0,0.82,0.5,4.5,FLYING
60.34,ASCENT,AB_CORRIDOR,273.54,80,-193.54,533.8,39.36,15.35,7.02,90.41,-0.095,0.903,0,0,0,0,0,0,0,0,0,90.4,9.628,0,0,0,0,0,0,0,0,90.4,1,0,-0.028,0,0,3,0,0,0,11.5,-10.712,0,0,1,1,11.972,3.04,DEGRADED,36464.7,38996.4,0.771,487,0,1.1172,2949.86,3536.52,1.346,0,0,0.9204,1590.61,1728.21,2,0,1591.66,432.15,2,0,1601.88,1740.71,2,0,0.84,0.5,7.06,FLYING
62.9,ASCENT,AB_CORRIDOR,291.25,80,-211.25,649.53,51.18,17.52,7.31,90.4,-0.012,0.8378,0,0,0,0,0,0,0,0,0,90.4,12.13,0,0,0,0,0,0,0,0,90.4,1,0,-0.028,0,0,3,0,0,0,11.5,-10.712,0,0,1,1,11.059,2.89,DEGRADED,40811.5,43474.8,0.821,597,0,1.1177,3637.97,4350.75,2.009,0,0,0.8987,1638.61,1823.36,2,0,1638.71,455.92,2,0,1640.24,1834.47,2,0,0.82,0.5,9.62,FLYING
65.46,ASCENT,AB_CORRIDOR,306.06,80,-226.06,801.36,67.39,20.39,7.56,90.4,0.002,0.7759,0,0,0,0,0,0,0,0,0,90.4,15.211,0,0,0,0,0,0,0,0,90.4,1,0,-0.028,0,0,3,0,0,0,11.5,-10.712,0,0,1,1,15.009,2.838,VALID,44939.7,47332.7,0.866,761,0,1.1182,4111.81,4712.79,2.493,0,0,0.8516,1619.11,1901.32,2,0,1618.49,475.38,2,0,1613.47,1908.89,2,0,0.82,0.5,12.18,FLYING
68.06,ASCENT,AB_CORRIDOR,316.13,80,-236.13,1002.78,87.14,23.73,7.67,90.4,0.005,0.727,0,0,0,0,0,0,0,0,0,90.4,18.773,0,0,0,0,0,0,0,0,90.4,1,0,-0.028,0,0,3,0,0,0,11.5,-10.712,0,0,1,1,14.42,2.803,VALID,48201.3,49960.4,0.903,1001,0,1.1186,4375.76,4642.47,2.827,0,0,0.7971,1553.4,1948.85,2,0,1552.35,487.22,2,0,1543.46,1951.6,2,0,0.84,0.5,14.78,FLYING
70.62,ASCENT,AB_CORRIDOR,320.25,80,-240.25,1253.44,107.96,27.56,7.99,90.4,0.005,0.6986,0,0,0,0,0,0,0,0,0,90.4,22.446,0,0,0,0,0,0,0,0,90.4,1,0,-0.028,0,0,3,0,0,0,11.5,-10.712,0,0,1,1,13.956,2.754,VALID,50094.8,50952.7,0.929,1334,0,1.1191,4456.96,4168.29,2.998,0,0,0.75,1469,1958.62,2,0,1467.87,489.63,2,0,1457.67,1956.24,2,0,0.82,0.5,17.34,FLYING
73.18,ASCENT,AB_CORRIDOR,319.33,80,-239.33,1556.75,128.07,31.25,8.13,90.4,0.007,0.6928,0,0,0,0,0,0,0,0,0,90.4,25,0,0,0,0,0,0,0,0,90.4,1,0,-0.028,0,0,3,0,0,0,11.5,-10.712,0,0,1,1,9.565,2.718,DEGRADED,50480.4,50445.1,0.945,1759,0,1.1195,4408.32,3512.12,3.011,0,0,0.718,1389.29,1934.89,2,0,1388.36,483.67,2,0,1380.11,1929.47,2,0,0.82,0.5,19.9,FLYING
75.78,ASCENT,AB_CORRIDOR,319.81,80,-239.81,1905.93,138.63,29.15,4.47,90.4,0.011,0.6983,0,0,0,0,0,0,0,0,0,90.4,25,0,0,0,0,0,0,0,0,90.4,1,0,-0.028,0,0,3,0,0,0,11.5,-10.712,0,0,1,1,9.884,2.883,DEGRADED,50116.3,49927.2,0.966,2240,0,1.1199,4341.08,3547.12,2.975,0,0,0.704,1345.82,1911.68,2,0,1345.58,477.91,2,0,1343.41,1910.29,2,0,0.84,0.5,22.5,FLYING
78.38,ASCENT,AB_CORRIDOR,321.46,80,-241.46,2272.08,142.83,28.99,4.09,90.4,0.008,0.7011,0,0,0,0,0,0,0,0,0,90.4,25,0,0,0,0,0,0,0,0,90.4,1,0,-0.028,0,0,3,0,0,0,11.5,-10.712,0,0,1,1,14.611,3.052,VALID,49926.4,49823.1,0.993,2704,0,1.1203,4309,3990.96,2.958,0,0,0.7011,1333.08,1901.39,2,0,1332.98,475.34,2,0,1332.08,1900.17,2,0,0.84,0.5,25.1,FLYING
80.98,ASCENT,AB_CORRIDOR,322.35,80,-242.35,2647.98,146.24,29.05,4.05,90.4,0.006,0.7048,0,0,0,0,0,0,0,0,0,90.4,25,0,0,0,0,0,0,0,0,90.4,1,0,-0.028,0,0,3,0,0,0,11.5,-10.712,0,0,1,1,14.999,3.22,VALID,49682.6,49499.6,1.02,3152,0,1.1207,4304.32,4269.64,2.943,0,0,0.7015,1326.26,1890.62,2,0,1326.2,472.64,2,0,1325.63,1889.38,2,0,0.84,0.5,27.7,FLYING
83.56,ASCENT,AB_CORRIDOR,322.82,80,-242.82,3029.51,149.48,29.1,4.03,90.4,0.007,0.7106,0,0,0,0,0,0,0,0,0,90.4,25,0,0,0,0,0,0,0,0,90.4,1,0,-0.028,0,0,3,0,0,0,11.5,-10.712,0,0,1,1,15.334,3.392,VALID,49292.2,49028.5,1.046,3593,0,1.1211,4319.6,4444.9,2.903,0,0,0.7034,1323.78,1881.97,2,0,1323.78,470.48,2,0,1323.81,1881.12,2,0,0.84,0.5,30.28,FLYING
86.14,ASCENT,AB_CORRIDOR,323.04,80,-243.04,3419.24,152.61,29.12,4,90.4,0.011,0.7181,0,0,0,0,0,0,0,0,0,90.4,25,0,0,0,0,0,0,0,0,90.4,1,0,-0.028,0,0,3,0,0,0,11.5,-10.712,0,0,1,1,15.659,3.572,VALID,48793.3,48470.1,1.074,4034,0,1.1215,4354.33,4592.83,2.855,0,0,0.7071,1327.13,1876.91,2,0,1327.2,469.23,2,0,1327.91,1876.58,2,0,0.84,0.5,32.86,FLYING
88.72,ASCENT,AB_CORRIDOR,323.1,80,-243.1,3816.96,155.7,29.14,3.99,90.4,0.022,0.7267,0,0,0,0,0,0,0,0,0,90.4,25,0,0,0,0,0,0,0,0,90.4,1,0,-0.028,0,0,3,0,0,0,11.5,-10.712,0,0,1,1,15.985,3.759,VALID,48218.9,47855.7,1.102,4479,0,1.1219,4409.57,4738.68,2.852,0,0,0.7124,1336.72,1876.33,2,0,1336.87,469.09,2,0,1338.29,1876.61,2,0,0.84,0.5,35.44,FLYING
91.32,ASCENT,AB_CORRIDOR,323.07,80,-243.07,4225.84,158.85,29.16,4,90.4,0.029,0.7361,0,0,0,0,0,0,0,0,0,90.4,25,0,0,0,0,0,0,0,0,90.4,1,0,-0.028,0,0,3,0,0,0,11.5,-10.712,0,0,1,1,16.322,3.956,VALID,47593.4,47202.8,1.133,4931,0,1.1223,4487.1,4911.19,2.739,0,0,0.7192,1352.82,1881.02,2,0,1353.04,470.26,2,0,1355.17,1882,2,0,0.84,0.5,38.04,FLYING
93.92,ASCENT,AB_CORRIDOR,322.97,80,-242.97,4643.04,162.12,29.2,4.03,90.4,0.028,0.746,0,0,0,0,0,0,0,0,0,90.4,25,0,0,0,0,0,0,0,0,90.4,1,0,-0.028,0,0,3,0,0,0,11.5,-10.712,0,0,1,1,16.668,4.161,VALID,46935.4,46528.7,1.165,5394,0,1.1227,4588.54,5096.96,2.67,0,0,0.7271,1375.34,1891.59,2,0,1375.63,472.91,2,0,1378.48,1893.34,2,0,0.84,0.5,40.64,FLYING
96.5,ASCENT,AB_CORRIDOR,322.87,80,-242.87,5065.64,165.54,29.23,4.06,90.4,0.023,0.756,0,0,0,0,0,0,0,0,0,90.4,25,0,0,0,0,0,0,0,0,90.4,1,0,-0.028,0,0,3,0,0,0,11.5,-10.712,0,0,1,1,17.024,4.375,VALID,46265.9,45855.3,1.199,5867,0,1.1231,4715.45,5291.07,2.599,0,0,0.7357,1404.25,1908.65,2,0,1404.62,477.18,2,0,1408.22,1911.26,2,0,0.84,0.5,43.22,FLYING
99.1,ASCENT,AB_CORRIDOR,322.92,80,-242.92,5500.81,169.46,28.5,3.32,90.4,0.023,0.766,0,0,0,0,0,0,0,0,0,90.4,25,0,0,0,0,0,0,0,0,90.4,1,0,-0.028,0,0,3,0,0,0,11.5,-10.712,0,0,1,1,17.451,4.618,VALID,45600.1,45197.4,1.236,6355,0,1.1236,4873.46,5550.38,2.526,0,0,0.745,1440.49,1933.6,2,0,1440.97,483.43,2,0,1445.65,1937.6,2,0,0.84,0.5,45.82,FLYING
101.66,ASCENT,AB_CORRIDOR,322.93,80,-242.93,5929.93,170.01,28.17,3.5,90.4,0.049,0.7756,0,0,0,0,0,0,0,0,0,90.4,25,0,0,0,0,0,0,0,0,90.4,1,0,-0.028,0,0,3,0,0,0,11.5,-10.712,0,0,1,1,17.824,4.847,VALID,44959.9,44567.3,1.274,6818,0,1.124,5069.48,5820.31,2.455,0,0,0.7543,1482.47,1965.28,2,0,1483.03,491.36,2,0,1488.47,1970.26,2,0,0.82,0.5,48.38,FLYING
104.24,ASCENT,AB_CORRIDOR,323.88,80,-243.88,6376.33,175.94,28,3.09,90.4,0.036,0.7835,0,0,0,0,0,0,0,0,0,90.4,25,0,0,0,0,0,0,0,0,90.4,1,0,-0.028,0,0,3,0,0,0,11.5,-10.712,0,0,1,1,12.838,5.123,DEGRADED,44432.9,44138.7,1.319,7325,0,1.1245,5297.39,6208.2,2.393,0,0,0.7637,1536.39,2011.75,2,0,1537.06,502.99,2,0,1543.6,2018.31,2,0,0.84,0.5,50.96,FLYING
106.8,ASCENT,AB_CORRIDOR,324.87,80,-244.87,6833.98,181.57,28.09,3.07,90.4,0.013,0.79,0,0,0,0,0,0,0,0,0,90.4,25,0,0,0,0,0,0,0,0,90.4,1,0,-0.028,0,0,3,0,0,0,11.5,-10.712,0,0,1,1,13.175,5.406,DEGRADED,43998.6,43741,1.369,7863,0,1.1249,5569.51,6660.23,2.341,0,0,0.7722,1597.19,2068.23,2,0,1597.94,517.12,2,0,1605.2,2075.97,2,0,0.82,0.5,53.52,FLYING
109.4,ASCENT,AB_CORRIDOR,325.77,80,-245.77,7313.88,187.56,28.23,3.12,90.4,0.009,0.7963,0,0,0,0,0,0,0,0,0,90.4,25,0,0,0,0,0,0,0,0,90.4,1,0,-0.028,0,0,3,0,0,0,11.5,-10.712,0,0,1,1,13.529,5.708,DEGRADED,43579.1,43319.2,1.423,8430,0,1.1254,5885.67,7207.32,2.285,0,0,0.78,1665.6,2135.28,2,0,1666.42,533.89,2,0,1674.45,2144.2,2,0,0.84,0.5,56.12,FLYING
111.96,ASCENT,AB_CORRIDOR,326.55,80,-246.55,7801.9,193.75,28.43,3.28,90.4,0.008,0.8028,0,0,0,0,0,0,0,0,0,90.4,25,0,0,0,0,0,0,0,0,90.4,1,0,-0.028,0,0,3,0,0,0,11.5,-10.712,0,0,1,1,13.885,6.019,DEGRADED,43148.2,42885.5,1.482,9023,0,1.1259,6247.46,7743.97,2.23,0,0,0.7871,1739.97,2210.48,2,0,1740.86,552.7,2,0,1749.45,2220.15,2,0,0.82,0.5,58.68,FLYING
114.54,ASCENT,AB_CORRIDOR,327.22,80,-247.22,8310.17,200.32,28.67,3.51,90.4,0.016,0.8093,0,0,0,0,0,0,0,0,0,90.4,25,0,0,0,0,0,0,0,0,90.4,1,0,-0.028,0,0,3,0,0,0,11.5,-10.712,0,0,1,1,14.242,6.337,DEGRADED,42711,42439.8,1.547,9644,0,1.1265,6652.73,8397.35,2.253,0,0,0.7941,1816.06,2287.06,2,0,1816.93,571.84,2,0,1825.35,2296.39,2,0,0.82,0.5,61.26,FLYING
117.1,ASCENT,AB_CORRIDOR,327.58,80,-247.58,8831.91,207.43,28.87,3.71,90.4,0.015,0.8163,0,0,0,0,0,0,0,0,0,90.4,25,0,0,0,0,0,0,0,0,90.4,1,0,-0.028,0,0,3,0,0,0,11.5,-10.712,0,0,1,1,14.589,6.657,DEGRADED,42246,41951.8,1.618,10295,0,1.127,7093.26,9080.35,2.109,0,0,0.8008,1889.14,2358.96,2,0,1889.97,589.81,2,0,1897.89,2367.44,2,0,0.82,0.5,63.82,FLYING
119.66,ASCENT,AB_CORRIDOR,323.76,80,-243.76,9372.13,214.7,29.02,3.82,90.4,0.012,0.8301,0,0,0,0,0,0,0,0,0,90.4,25,0,0,0,0,0,0,0,0,90.4,1,0,-0.028,0,0,3,0,0,0,11.5,-10.712,0,0,1,1,14.778,6.898,DEGRADED,41329.8,40656.9,1.679,10978,0,1.1276,7525.38,9770.95,1.985,0,0,0.8084,1926.54,2383.2,2,0,1926.89,595.81,2,0,1930.2,2384.63,2,0,0.82,0.5,66.38,FLYING
122.26,ASCENT,AB_CORRIDOR,319.27,80,-239.27,9940.55,222.57,29.33,4.14,90.4,0.005,0.8498,0,0,0,0,0,0,0,0,0,90.4,25,0,0,0,0,0,0,0,0,90.4,1,0,-0.028,0,0,3,0,0,0,11.5,-10.712,0,0,1,1,15.054,7.177,DEGRADED,40011.4,39157.1,1.742,11699,0,1.1282,7930.47,10506.24,1.801,0,0,0.8192,1958.15,2390.18,2,0,1958.5,597.54,2,0,1961.83,2390.2,2,0,0.84,0.5,68.98,FLYING
124.82,ASCENT,AB_CORRIDOR,314.14,80,-234.14,10520.26,230.47,29.68,4.49,90.4,0.002,0.8722,0,0,0,0,0,0,0,0,0,90.4,25,0,0,0,0,0,0,0,0,90.4,1,0,-0.028,0,0,3,0,0,0,11.5,-10.712,0,0,1,1,15.385,7.475,DEGRADED,38516.8,37579.8,1.806,12456,0,1.1288,8323.07,11108.79,1.57,0,0,0.8338,1988.6,2384.86,2,0,1988.93,596.2,2,0,1992.11,2383.4,2,0,0.82,0.5,71.54,FLYING
127.4,ASCENT,AB_CORRIDOR,308.27,80,-228.27,11125.15,238.64,29.98,4.78,90.4,-0.006,0.8964,0,0,0,0,0,0,0,0,0,90.4,25,0,0,0,0,0,0,0,0,90.4,1,0,-0.028,0,0,3,0,0,0,11.5,-10.712,0,0,1,1,15.752,7.792,DEGRADED,36904.9,35896.7,1.872,13247,0,1.1294,8709.69,11756.61,1.306,0,0,0.8519,2017.1,2367.72,2,0,2017.4,591.91,2,0,2020.15,2364.81,2,0,0.84,0.5,74.12,FLYING
129.98,ASCENT,AB_CORRIDOR,301.66,80,-221.66,11751.37,247,30.37,5.17,90.4,-0.012,0.9221,0,0,0,0,0,0,0,0,0,90.4,25,0,0,0,0,0,0,0,0,90.4,1,0,-0.028,0,0,3,0,0,0,11.5,-10.712,0,0,1,1,16.126,8.124,DEGRADED,35190.4,34122.2,1.941,14077,0,1.13,9091.39,12386.37,1.001,0,0,0.8726,2041.08,2338.96,2,0,2041.3,584.71,2,0,2043.41,2334.63,2,0,0.84,0.5,76.7,FLYING
132.54,ASCENT,AB_CORRIDOR,294.41,80,-214.41,12394.31,255.49,30.74,5.53,90.4,-0.018,0.9491,0,0,0,0,0,0,0,0,0,90.4,25,0,0,0,0,0,0,0,0,90.4,1,0,-0.028,0,0,3,0,0,0,11.5,-10.712,0,0,1,1,16.496,8.466,DEGRADED,33394.4,32285.9,2.01,14946,0,1.1306,9463.42,12959.92,0.65,0,0,0.8954,2058.96,2299.6,2,0,2059.12,574.86,2,0,2060.62,2294.12,2,0,0.82,0.5,79.26,FLYING
135.1,ASCENT,AB_CORRIDOR,286.45,80,-206.45,13059.2,264.14,31.14,5.92,90.4,-0.018,0.977,0,0,0,0,0,0,0,0,0,90.4,25,0,0,0,0,0,0,0,0,90.4,1,0,-0.028,0,0,3,0,0,0,11.5,-10.712,0,0,1,1,16.884,8.832,DEGRADED,31530,30380.3,2.081,15852,0,1.1312,9824.21,13532.87,0.23,0,0,0.9199,2073.95,2254.62,2,0,2074.11,563.61,2,0,2075.55,2248.88,2,0,0.82,0.5,81.82,FLYING
137.66,ASCENT,AB_CORRIDOR,277.81,80,-197.81,13746.39,272.94,31.57,6.35,90.4,-0.017,1,0,0,0,0,0,0,0,0,0,90.4,24.992,0,0,0,0,0,0,0,0,90.4,1,0,-0.028,0,0,3,0,0,0,11.5,-10.712,0,0,1,1,17.293,9.223,DEGRADED,29605.1,28421,2.152,16796,0,1.1318,10179.14,14100.17,-0.249,0,0,0.9459,2088.54,2208.08,2,0,2088.69,551.97,2,0,2089.99,2202.21,2,0,0.82,0.5,84.36,FLYING
140.2,ASCENT,AB_CORRIDOR,268.63,80,-188.63,14448.71,279.81,30.08,5.07,90.4,-0.042,1,0,0,0,0,0,0,0,0,0,90.4,24.457,0,0,0,0,0,0,0,0,90.4,1,0,-0.028,0,0,3,0,0,0,11.5,-10.712,0,0,1,1,17.787,9.699,DEGRADED,27643,26437.4,2.223,17760,0,1.1324,10538.5,14649.84,-0.607,0,0,0.9674,2090.86,2161.33,2,0,2090.77,540.29,2,0,2089.77,2155.65,2,0,0.82,0.5,86.9,FLYING
142.76,ASCENT,AB_CORRIDOR,259.33,80,-179.33,15167.78,281.21,27.45,3.02,90.4,-0.031,1,0,0,0,0,0,0,0,0,0,90.4,22.975,0,0,0,0,0,0,0,0,90.4,1,0,-0.028,0,0,3,0,0,0,11.5,-10.712,0,0,1,1,18.258,10.24,DEGRADED,25689.1,24509,2.297,18693,0,1.133,10881.96,15425.38,-1.427,0,0,0.9805,2075.84,2117.05,2,0,2075.62,529.22,2,0,2073.35,2111.89,2,0,0.82,0.5,89.46,FLYING
145.32,ASCENT,AB_CORRIDOR,250.41,80,-170.41,15883.65,277.52,24.69,1.45,90.4,0.151,1,0,0,0,0,0,0,0,0,0,90.4,21.171,0,0,0,0,0,0,0,0,90.4,1,0,-0.028,0,0,3,0,0,0,11.5,-10.712,0,0,1,1,18.72,10.749,DEGRADED,23831.1,22728.8,2.373,19517,0,1.1337,11197.01,16350.54,-2.115,0,0,0.9884,2053.31,2077.41,2,0,2053.01,519.31,2,0,2050.01,2072.53,2,0,0.82,0.5,92.02,FLYING
147.86,ASCENT,AB_CORRIDOR,241.67,80,-161.67,16574.72,267.24,16.72,-4.83,90.39,-0.074,1,0,0,0,0,0,0,0,0,0,90.4,18.875,0,0,0,0,0,0,0,0,90.4,1,0,-0.028,0,0,3,0,0,0,11.5,-10.712,0,0,1,1,19.174,11.22,DEGRADED,22110.5,21079.6,2.446,20182,0,1.1342,11467.94,17090.29,-2.847,0,0,0.9932,2015.02,2028.88,2,0,2014.42,507.16,2,0,2008.32,2021.21,2,0,0.82,0.5,94.56,FLYING
150.4,ASCENT,AB_ZOOM,233.48,80,-153.48,17229.61,250.41,12.72,-6.73,90.4,0.053,1,0,0,0,0,0,0,0,0,0,90.4,16.165,0,0,0,0,0,0,0,0,90.4,1,0,-0.028,0,0,3,0,0,0,11.5,-10.712,0,0,1,1,19.46,11.526,DEGRADED,20522.7,19591.7,2.516,20627,0,1.1348,11634.68,17587.23,-3.537,0,0,0.9961,1952.8,1960.52,2,0,1951.95,490.05,2,0,1942.88,1949.97,2,0,0.82,0.5,97.12,FLYING
152.9,ASCENT,AB_ZOOM,226.23,80,-146.23,17826.44,227.11,12.73,-4.58,90.4,0.058,1,0,0,0,0,0,0,0,0,0,90.4,14.878,0,0,0,0,0,0,0,0,90.4,1,0,-0.028,0,0,3,0,0,0,11.5,-10.712,0,0,1,1,19.635,11.744,DEGRADED,19112.6,18291.6,2.58,20872,0,1.1354,11665.23,17515.37,-2.412,0,0,0.9978,1871.66,1875.77,2,0,1870.65,468.86,2,0,1861.6,1865.41,2,0,0.8,0.5,99.6,FLYING
155.38,ASCENT,AB_ZOOM,220.29,80,-140.29,18378.32,218.7,19.58,3.57,90.41,-0.113,1,0,0,0,0,0,0,0,0,0,90.4,14.841,0,0,0,0,0,0,0,0,90.4,1,0,-0.028,0,0,3,0,0,0,11.5,-10.712,0,0,1,1,8.48,11.892,INVALID,17960.2,17297.1,2.647,21075,0,1.1359,11577.48,17487.65,-1.287,0,0,0.9989,1783.62,1785.64,2,0,1782.48,446.31,2,0,1772,1773.8,2,0,0.8,0.5,102.08,FLYING
157.88,ASCENT,AB_ZOOM,213.93,80,-133.93,18920.87,216.42,25.63,10.08,90.41,-0.07,1,0,0,0,0,0,0,0,0,0,90.4,15.398,0,0,0,0,0,0,0,0,90.4,1,0,-0.028,0,0,3,0,0,0,11.5,-10.712,0,0,1,1,8.387,11.844,INVALID,16921.7,16295.2,2.707,21396,0,1.1364,11325.13,16861.11,-0.162,0,0,0.9996,1681.49,1682.18,2,0,1680.16,420.43,2,0,1668.02,1668.61,2,0,0.8,0.5,104.58,FLYING
160.38,ASCENT,AB_ZOOM,206.43,80,-126.43,19469.73,222.54,29.25,13.53,90.41,-0.027,1,0,0,0,0,0,0,0,0,0,90.4,15.916,0,0,0,0,0,0,0,0,90.4,1,0,-0.028,0,0,3,0,0,0,11.5,-10.712,0,0,1,1,19.265,11.76,DEGRADED,15840.5,15163,2.752,21891,0,1.1369,10869.78,15297.79,0.213,0,0,1.0001,1563.78,1563.67,2,0,1562.28,390.79,2,0,1548.74,1548.56,2,0,0.8,0.5,107.08,FLYING
162.72,ASCENT,RKT_SUSTAIN,197.63,80,-117.63,19995.81,226.96,28.91,13.05,90.39,0.048,1,0,0,0,0,0,0,0,0,0,90.38,16.19,0,0,0,0,0,0,0,0,90.4,1,0,-0.028,0,0,3,0,0,0,11.5,-10.712,0,0,1,1,0,25.956,DEGRADED,14630.6,13870.7,2.771,22499,0,1.1329,7724.21,12303.48,1.213,0.33,0,0,0,0,0,0,1426.24,1593.42,2,0,1477.6,1593.47,2,0,0.7,0.5,109.44,FLYING
164.86,ASCENT,RKT_SUSTAIN,190.99,80,-110.99,20487.51,232.51,31.01,14.9,90.25,0.462,1,0,0,0,0,0,0,0,0,0,90.33,16.345,0,0,0,0,0,0,0,0,90.4,1,0,-0.028,0,0,3,0,0,0,11.5,-10.712,0,0,1,1,0,18.824,DEGRADED,13553.8,12935.8,2.804,23132,0,1.1225,4743.63,11519.26,2.713,0.865,0,0,0,0,0,0,1590.68,1594.01,2,0,1591.75,1594.05,2,0,0.68,0.5,111.58,FLYING
166.98,ASCENT,RKT_SUSTAIN,184.4,80,-104.4,20988.49,239.09,35.64,19.18,89.95,0.989,1,0,0,0,0,0,0,0,0,0,90.31,17.674,0,0,0,0,0,0,0,0,90.4,1,0,-0.028,0,0,3,0,0,0,11.5,-10.712,0,0,1,1,0,16.628,DEGRADED,12613.2,12052.8,2.837,23802,0,1.1119,2913.18,11141.13,4.213,1,0,0,0,0,0,0,1594.53,1594.55,2,0,1594.58,1594.58,2,0,0.68,0.5,113.7,FLYING
169.18,ASCENT,RKT_SUSTAIN,177.25,80,-97.25,21524.02,245.51,36.23,19.49,90.12,0.526,1,0,0,0,0,0,0,0,0,0,90.29,19.401,0,0,0,0,0,0,0,0,90.4,1,0,-0.028,0,0,3,0,0,0,11.5,-10.712,0,0,1,1,0,16.19,INVALID,11676.9,11129.7,2.868,24530,0,1.101,1789.06,10988.84,5.713,1,0,0,0,0,0,0,1595.06,1595.07,2,0,1595.1,1595.11,2,0,0.7,0.5,115.9,FLYING
171.36,ASCENT,RKT_SUSTAIN,169.63,80,-89.63,22072.54,256.75,37.02,19.84,90.23,0.237,1,0,0,0,0,0,0,0,0,0,90.28,21.441,0,0,0,0,0,0,0,0,90.4,1,0,-0.028,0,0,3,0,0,0,11.5,-10.712,0,0,1,1,0,16.098,DEGRADED,10754.2,10194.3,2.891,25323,0,1.0901,1098.7,10148.2,7.213,1,0,0,0,0,0,0,1595.55,1595.56,2,0,1595.59,1595.59,2,0,0.7,0.5,118.08,FLYING
173.54,ASCENT,RKT_SUSTAIN,162.22,80,-82.22,22643.42,266.69,37.54,19.87,90.27,0.142,1,0,0,0,0,0,0,0,0,0,90.27,23.373,0,0,0,0,0,0,0,0,90.4,1,0,-0.028,0,0,3,0,0,0,11.5,-10.712,0,0,1,1,0,16.471,DEGRADED,9857.5,9317.8,2.918,26188,0,1.0793,674.74,10036.37,8.713,1,0,0,0,0,0,0,1596,1596.02,2,0,1596.04,1596.05,2,0,0.7,0.5,120.26,FLYING
175.72,ASCENT,RKT_SUSTAIN,154.92,80,-74.92,23235.18,275.93,37.99,19.9,90.28,0.095,1,0,0,0,0,0,0,0,0,0,90.27,25,0,0,0,0,0,0,0,0,90.4,1,0,-0.028,0,0,3,0,0,0,11.5,-10.712,0,0,1,1,0,17.004,DEGRADED,9003.7,8492.4,2.947,27097,0,1.0684,414.38,10198.3,10.213,1,0,0,0,0,0,0,1596.43,1596.44,2,0,1596.46,1596.47,2,0,0.7,0.5,122.44,FLYING
177.92,ASCENT,RKT_SUSTAIN,147.73,80,-67.73,23852.05,284.62,38.38,19.93,90.29,0.074,1,0,0,0,0,0,0,0,0,0,90.27,25,0,0,0,0,0,0,0,0,90.4,1,0,-0.028,0,0,3,0,0,0,11.5,-10.712,0,0,1,1,0,17.645,DEGRADED,8196.8,7716.7,2.977,28041,0,1.0575,254.48,10564.54,10.838,1,0,0,0,0,0,0,1596.82,1596.83,2,0,1596.85,1596.86,2,0,0.7,0.5,124.62,FLYING
180.12,ASCENT,RKT_SUSTAIN,140.77,80,-60.77,24487.39,292.74,38.72,19.96,90.29,0.06,1,0,0,0,0,0,0,0,0,0,90.27,25,0,0,0,0,0,0,0,0,90.4,1,0,-0.028,0,0,3,0,0,0,11.5,-10.712,0,0,1,1,0,18.361,DEGRADED,7446.1,7001.2,3.009,29009,0,1.0466,156.28,11025.39,11.228,1,0,0,0,0,0,0,1597.18,1597.19,2,0,1597.21,1597.21,2,0,0.7,0.5,126.84,FLYING
182.32,ASCENT,RKT_SUSTAIN,134.08,80,-54.08,25140,300.35,39,19.99,90.3,0.041,1,0,0,0,0,0,0,0,0,0,90.27,25,0,0,0,0,0,0,0,0,90.4,1,0,-0.028,0,0,3,0,0,0,11.5,-10.712,0,0,1,1,0,19.23,DEGRADED,6754.5,6345.7,3.042,29995,0,1.0356,95.98,11539.96,11.609,1,0,0,0,0,0,0,1597.5,1597.51,2,0,1597.52,1597.53,2,0,0.7,0.5,129.04,FLYING
184.52,ASCENT,RKT_SUSTAIN,127.63,80,-47.63,25808.84,307.52,39.22,20.01,90.31,0.025,1,0,0,0,0,0,0,0,0,0,90.26,25,0,0,0,0,0,0,0,0,90.4,1,0,-0.028,0,0,3,0,0,0,11.5,-10.712,0,0,1,1,0,20.056,DEGRADED,6121.3,5747.4,3.077,30998,0,1.0247,58.94,12084.92,11.983,1,0,0,0,0,0,0,1597.78,1597.79,2,0,1597.81,1597.81,2,0,0.7,0.5,131.24,FLYING
186.72,ASCENT,RKT_SUSTAIN,121.04,80,-41.04,26493,314.3,39.39,20.01,90.31,0.008,1,0,0,0,0,0,0,0,0,0,90.26,25,0,0,0,0,0,0,0,0,90.4,1,0,-0.028,0,0,3,0,0,0,11.5,-10.712,0,0,1,1,0,20.94,VALID,5523.4,5166.6,3.103,32015,0,1.0137,36.2,12656.91,12.349,1,0,0,0,0,0,0,1598.04,1598.05,2,0,1598.06,1598.06,2,0,0.7,0.5,133.42,FLYING
188.92,ASCENT,RKT_SUSTAIN,114.65,80,-34.65,27191.65,320.72,39.51,20.01,90.32,-0.011,1,0,0,0,0,0,0,0,0,0,90.26,25,0,0,0,0,0,0,0,0,90.4,1,0,-0.028,0,0,3,0,0,0,11.5,-10.712,0,0,1,1,0,21.879,VALID,4965,4633.7,3.13,33046,0,1.0028,22.23,13250.52,12.717,1,0,0,0,0,0,0,1598.27,1598.28,2,0,1598.29,1598.29,2,0,0.7,0.5,135.62,FLYING
191.12,ASCENT,RKT_SUSTAIN,108.46,80,-28.46,27904.08,326.85,39.6,20.01,90.33,-0.028,1,0,0,0,0,0,0,0,0,0,90.26,25,0,0,0,0,0,0,0,0,90.4,1,0,-0.028,0,0,3,0,0,0,11.5,-10.712,0,0,1,1,0,22.688,VALID,4449.7,4145.1,3.158,34092,0,1,13.65,13856.57,13.084,1,0,0,0,0,0,0,1598.48,1598.49,2,0,1598.5,1598.5,2,0,0.7,0.5,137.82,FLYING
193.32,ASCENT,RKT_SUSTAIN,102.53,80,-22.53,28629.71,332.74,39.67,20.01,90.34,-0.045,1,0,0,0,0,0,0,0,0,0,90.27,25,0,0,0,0,0,0,0,0,90.4,1,0,-0.028,0,0,3,0,0,0,11.5,-10.712,0,0,1,1,0,23.473,VALID,3979.1,3701.8,3.186,35153,0,1,8.38,14468.85,13.454,1,0,0,0,0,0,0,1598.67,1598.67,2,0,1598.68,1598.69,2,0,0.7,0.5,140.02,FLYING
195.5,ASCENT,RKT_SUSTAIN,96.89,80,-16.89,29368.07,338.44,39.7,20.01,90.35,-0.064,1,0,0,0,0,0,0,0,0,0,90.27,25,0,0,0,0,0,0,0,0,90.4,1,0,-0.028,0,0,3,0,0,0,11.5,-10.712,0,0,1,1,0,24.298,VALID,3552.2,3299.9,3.216,36233,0,1,5.15,15150.7,13.829,1,0,0,0,0,0,0,1598.83,1598.84,2,0,1598.85,1598.85,2,0,0.72,0.5,142.22,FLYING
197.62,ASCENT,RKT_SUSTAIN,91.76,80,-11.76,30091.29,343.8,39.73,20.01,90.36,-0.078,1,0,0,0,0,0,0,0,0,0,90.27,25,0,0,0,0,0,0,0,0,90.4,1,0,-0.028,0,0,3,0,0,0,11.5,-10.712,0,0,1,1,0,25.136,VALID,3176.5,2957.2,3.244,37318,0,1,3.16,15509.74,14.199,1,0,0,0,0,0,0,1598.97,1598.98,2,0,1598.98,1598.99,2,0,0.68,0.5,144.34,FLYING
199.74,ASCENT,RKT_SUSTAIN,86.94,80,-6.94,30825.78,349.09,39.73,20.01,90.36,-0.092,1,0,0,0,0,0,0,0,0,0,90.27,25,0,0,0,0,0,0,0,0,90.4,1,0,-0.028,0,0,3,0,0,0,11.5,-10.712,0,0,1,1,0,26.007,VALID,2845.8,2652.1,3.274,38409,0,1,1.94,15948.11,14.578,1,0,0,0,0,0,0,1599.1,1599.1,2,0,1599.11,1599.11,2,0,0.68,0.5,146.46,FLYING
201.86,ASCENT,RKT_SUSTAIN,82.42,80,-2.42,31571.44,354.34,39.73,20.01,90.37,-0.101,1,0,0,0,0,0,0,0,0,0,90.27,25,0,0,0,0,0,0,0,0,90.4,1,0,-0.028,0,0,3,0,0,0,11.5,-10.712,0,0,1,1,0,26.915,VALID,2553,2381.4,3.304,39515,0,1,1.19,16433.52,14.97,1,0,0,0,0,0,0,1599.2,1599.21,2,0,1599.21,1599.21,2,0,0.68,0.5,148.58,FLYING
203.98,ASCENT,RKT_SUSTAIN,78.17,80,1.83,32328.24,359.6,39.72,20.01,90.37,-0.111,1,0,0,0,0,0,0,0,0,0,90.27,25,0,0,0,0,0,0,0,0,90.4,1,0,-0.028,0,0,3,0,0,0,11.5,-10.712,0,0,1,1,0,27.863,VALID,2293.3,2140.8,3.335,40643,0,1,0.73,16946.73,15.376,1,0,0,0,0,0,0,1599.3,1599.3,2,0,1599.3,1599.31,2,0,0.68,0.5,150.7,FLYING
206.1,ASCENT,RKT_SUSTAIN,74.15,80,5.85,33096.22,364.9,39.7,20.01,90.38,-0.122,1,0,0,0,0,0,0,0,0,0,90.27,25,0,0,0,0,0,0,0,0,90.4,1,0,-0.028,0,0,3,0,0,0,11.5,-10.712,0,0,1,1,0,28.853,VALID,2061.4,1924.9,3.366,41795,0,1,0.45,17476.63,15.8,1,0,0,0,0,0,0,1599.38,1599.38,2,0,1599.39,1599.39,2,0,0.68,0.5,152.82,FLYING
208.22,ASCENT,RKT_SUSTAIN,70.25,80,9.75,33875.51,370.27,39.68,20.01,90.38,-0.128,1,0,0,0,0,0,0,0,0,0,90.28,25,0,0,0,0,0,0,0,0,90.4,1,0,-0.028,0,0,3,0,0,0,11.5,-10.712,0,0,1,1,0,29.889,VALID,1851.6,1727.2,3.399,42977,0,1,0.28,18017.86,16.244,1,0,0,0,0,0,0,1599.45,1599.46,2,0,1599.46,1599.46,2,0,0.68,0.5,154.94,FLYING
210.36,ASCENT,RKT_SUSTAIN,66.44,80,13.56,34673.79,375.79,39.66,20.01,90.39,-0.135,1,0,0,0,0,0,0,0,0,0,90.28,25,0,0,0,0,0,0,0,0,90.4,1,0,-0.028,0,0,3,0,0,0,11.5,-10.712,0,0,1,1,0,30.981,VALID,1658.2,1544,3.432,44197,0,1,0.17,18629.48,16.714,1,0,0,0,0,0,0,1599.52,1599.52,2,0,1599.53,1599.53,2,0,0.68,0.5,157.08,FLYING
212.5,ASCENT,RKT_SUSTAIN,62.78,80,17.22,35484.01,381.43,39.65,20.01,90.39,-0.141,1,0,0,0,0,0,0,0,0,0,90.28,25,0,0,0,0,0,0,0,0,90.4,1,0,-0.028,0,0,3,0,0,0,11.5,-10.712,0,0,1,1,0,31.963,VALID,1481.8,1378,3.466,45457,0,1,0.1,19229.28,17.21,1,0,0,0,0,0,0,1599.58,1599.58,2,0,1599.59,1599.59,2,0,0.68,0.5,159.22,FLYING
214.64,ASCENT,RKT_SUSTAIN,59.3,80,20.7,36306.44,387.21,39.63,20.01,90.4,-0.147,1,0,0,0,0,0,0,0,0,0,90.28,25,0,0,0,0,0,0,0,0,90.4,1,0,-0.028,0,0,3,0,0,0,11.5,-10.712,0,0,1,1,0,32.687,VALID,1322.4,1228.7,3.502,46759,0,1,0.06,19823.98,17.733,1,0,0,0,0,0,0,1599.63,1599.64,2,0,1599.64,1599.64,2,0,0.68,0.5,161.36,FLYING
216.76,ASCENT,RKT_SUSTAIN,56.05,80,23.95,37133.57,393.12,39.62,20.01,90.4,-0.151,1,0,0,0,0,0,0,0,0,0,90.28,25,0,0,0,0,0,0,0,0,90.4,1,0,-0.028,0,0,3,0,0,0,11.5,-10.712,0,0,1,1,0,33.425,VALID,1180.2,1096.7,3.538,48100,0,1,0.04,20351.07,18.281,1,0,0,0,0,0,0,1599.68,1599.68,2,0,1599.68,1599.68,2,0,0.68,0.5,163.48,FLYING
218.88,ASCENT,RKT_SUSTAIN,53.02,80,26.98,37973.42,399.21,39.61,20.01,90.4,-0.152,1,0,0,0,0,0,0,0,0,0,90.28,25,0,0,0,0,0,0,0,0,90.4,1,0,-0.028,0,0,3,0,0,0,11.5,-10.712,0,0,1,1,0,34.183,VALID,1053.7,979.6,3.575,49487,0,1,0.02,20901.29,18.863,1,0,0,0,0,0,0,1599.72,1599.72,2,0,1599.72,1599.72,2,0,0.68,0.5,165.6,FLYING
221,ASCENT,RKT_SUSTAIN,50.43,80,29.57,38826.44,405.54,39.61,20.01,90.4,-0.151,1,0,0,0,0,0,0,0,0,0,90.29,25,0,0,0,0,0,0,0,0,90.4,1,0,-0.028,0,0,3,0,0,0,11.5,-10.712,0,0,1,1,0,34.987,VALID,946.8,885.2,3.631,50925,0,1,0.01,21467.95,19.482,1,0,0,0,0,0,0,1599.75,1599.76,2,0,1599.76,1599.76,2,0,0.68,0.5,167.72,FLYING
223.14,ASCENT,RKT_SUSTAIN,47.97,80,32.03,39701.4,412.2,39.61,20.01,90.4,-0.15,1,0,0,0,0,0,0,0,0,0,90.29,25,0,0,0,0,0,0,0,0,90.4,1,0,-0.028,0,0,3,0,0,0,11.5,-10.712,0,0,1,1,0,35.795,VALID,854.1,800,3.69,52429,0,1,0.01,22119.59,20.15,1,0,0,0,0,0,0,1599.79,1599.79,2,0,1599.79,1599.79,2,0,0.68,0.5,169.86,FLYING
225.26,ASCENT,RKT_SUSTAIN,45.65,80,34.35,40582.52,419.06,39.63,20.01,90.4,-0.148,1,0,0,0,0,0,0,0,0,0,90.29,25,0,0,0,0,0,0,0,0,90.4,1,0,-0.028,0,0,3,0,0,0,11.5,-10.712,0,0,1,1,0,36.616,VALID,772.1,723.8,3.749,53995,0,1,0.01,22681.08,20.855,1,0,0,0,0,0,0,1599.81,1599.81,2,0,1599.81,1599.81,2,0,0.68,0.5,171.98,FLYING
227.4,ASCENT,RKT_SUSTAIN,43.46,80,36.54,41487.03,426.29,39.65,20.01,90.4,-0.147,1,0,0,0,0,0,0,0,0,0,90.29,25,0,0,0,0,0,0,0,0,90.4,1,0,-0.028,0,0,3,0,0,0,11.5,-10.712,0,0,1,1,0,37.467,VALID,697.9,654.9,3.815,55638,0,1,0,23337.09,21.617,1,0,0,0,0,0,0,1599.84,1599.84,2,0,1599.84,1599.84,2,0,0.68,0.5,174.12,FLYING
229.52,ASCENT,RKT_SUSTAIN,41.39,80,38.61,42398.66,433.76,39.68,20.01,90.41,-0.147,1,0,0,0,0,0,0,0,0,0,90.29,25,0,0,0,0,0,0,0,0,90.4,1,0,-0.028,0,0,3,0,0,0,11.5,-10.712,0,0,1,1,0,38.332,VALID,632.7,594,3.898,57355,0,1,0,23904.8,22.426,1,0,0,0,0,0,0,1599.86,1599.86,2,0,1599.86,1599.86,2,0,0.68,0.5,176.24,FLYING
231.64,ASCENT,RKT_SUSTAIN,39.31,80,40.69,43326.48,441.56,39.72,20.01,90.41,-0.144,1,0,0,0,0,0,0,0,0,0,90.29,25,0,0,0,0,0,0,0,0,90.4,1,0,-0.028,0,0,3,0,0,0,11.5,-10.712,0,0,1,1,0,39.219,VALID,571.8,535.4,3.984,59155,0,1,0,24498.68,23.292,1,0,0,0,0,0,0,1599.88,1599.88,2,0,1599.88,1599.88,2,0,0.68,0.5,178.36,FLYING
233.76,ASCENT,RKT_SUSTAIN,37.25,80,42.75,44271.18,449.69,39.78,20.01,90.4,-0.14,1,0,0,0,0,0,0,0,0,0,90.29,25,0,0,0,0,0,0,0,0,90.4,1,0,-0.028,0,0,3,0,0,0,11.5,-10.712,0,0,1,1,0,40.129,VALID,514.5,480.3,4.072,61048,0,1,0,25114.81,24.222,1,0,0,0,0,0,0,1599.89,1599.89,2,0,1599.9,1599.9,2,0,0.68,0.5,180.48,FLYING
235.9,ASCENT,RKT_SUSTAIN,35.19,80,44.81,45242.66,458.25,39.84,20.01,90.4,-0.138,1,0,0,0,0,0,0,0,0,0,90.3,25,0,0,0,0,0,0,0,0,90.4,1,0,-0.028,0,0,3,0,0,0,11.5,-10.712,0,0,1,1,0,41.072,VALID,460.6,428.6,4.163,63053,0,1,0,25836.07,25,1,0,0,0,0,0,0,1599.91,1599.91,2,0,1599.91,1599.91,2,0,0.68,0.5,182.62,FLYING
238.04,ASCENT,RKT_SUSTAIN,33.19,80,46.81,46232.87,467.19,39.91,20.01,90.41,-0.138,1,0,0,0,0,0,0,0,0,0,90.3,25,0,0,0,0,0,0,0,0,90.4,1,0,-0.028,0,0,3,0,0,0,11.5,-10.712,0,0,1,1,0,42.04,VALID,410.5,380.8,4.257,65179,0,1,0,26547.88,25,1,0,0,0,0,0,0,1599.92,1599.92,2,0,1599.92,1599.92,2,0,0.68,0.5,184.76,FLYING
240.18,ASCENT,RKT_SUSTAIN,31.23,80,48.77,47242.63,476.53,39.99,20.01,90.4,-0.134,1,0,0,0,0,0,0,0,0,0,90.3,25,0,0,0,0,0,0,0,0,90.4,1,0,-0.028,0,0,3,0,0,0,11.5,-10.712,0,0,1,1,0,43.033,VALID,364.3,337,4.355,67434,0,1,0,27258.56,25,1,0,0,0,0,0,0,1599.94,1599.94,2,0,1599.94,1599.94,2,0,0.68,0.5,186.9,FLYING
242.32,ASCENT,RKT_SUSTAIN,29.32,80,50.68,48272.82,486.27,40.09,20.01,90.4,-0.13,1,0,0,0,0,0,0,0,0,0,90.3,25,0,0,0,0,0,0,0,0,90.4,1,0,-0.028,0,0,3,0,0,0,11.5,-10.712,0,0,1,1,0,44.052,VALID,322,297,4.455,69832,0,1,0,27973.29,25,1,0,0,0,0,0,0,1599.95,1599.95,2,0,1599.95,1599.95,2,0,0.68,0.5,189.04,FLYING
244.48,ASCENT,RKT_SUSTAIN,27.1,80,52.9,49324.28,482.91,40.02,20.13,90.44,-0.179,1,0,0,0,0,0,0,0,0,0,90.3,25,0,0,0,0,0,0,0,0,90.4,1,0,-0.028,0,0,3,0,0,0,11.5,-10.712,0,0,1,1,0,0,VALID,280.5,254.3,4.51,71948,0,1,0,21579.07,25,1,0,0,0,0,0,0,0,0,2,2,0,0,2,2,0.7,0.5,191.2,FLYING
246.66,ASCENT,RKT_SUSTAIN,24.81,80,55.19,50365.86,472.72,40.5,20.95,90.41,-0.138,1,0,0,0,0,0,0,0,0,0,90.3,25,0,0,0,0,0,0,0,0,90.4,1,0,-0.028,0,0,3,0,0,0,11.5,-10.712,0,0,1,1,0,0,VALID,238.2,213.1,4.522,73059,0,1,0,13136.09,25,1,0,0,0,0,0,0,0,0,2,2,0,0,2,2,0.7,0.5,193.38,FLYING
248.84,ASCENT,RKT_SUSTAIN,22.72,80,57.28,51385.26,462.51,41.17,21.97,90.4,-0.113,1,0,0,0,0,0,0,0,0,0,90.3,25,0,0,0,0,0,0,0,0,90.4,1,0,-0.028,0,0,3,0,0,0,11.5,-10.712,0,0,1,1,0,0,VALID,200.6,178.7,4.535,73636,0,1,0,7957.68,25,1,0,0,0,0,0,0,0,0,2,2,0,0,2,2,0.7,0.5,195.56,FLYING
251.02,ASCENT,RKT_SUSTAIN,20.82,80,59.18,52382.39,452.3,41.84,23,90.39,-0.097,1,0,0,0,0,0,0,0,0,0,90.3,25,0,0,0,0,0,0,0,0,90.4,1,0,-0.028,0,0,3,0,0,0,11.5,-10.712,0,0,1,1,0,0,VALID,168.5,150.1,4.548,73938,0,1,0,4784.84,25,1,0,0,0,0,0,0,0,0,2,2,0,0,2,2,0.7,0.5,197.74,FLYING
253.2,ASCENT,RKT_SUSTAIN,19.11,80,60.89,53357.25,442.07,42.48,24,90.39,-0.085,1,0,0,0,0,0,0,0,0,0,90.3,25,0,0,0,0,0,0,0,0,90.4,1,0,-0.028,0,0,3,0,0,0,11.5,-10.712,0,0,1,1,0,0,VALID,141.7,126.3,4.561,74098,0,1,0,2843.54,25,1,0,0,0,0,0,0,0,0,2,2,0,0,2,2,0.7,0.5,199.92,FLYING
255.36,ASCENT,RKT_SUSTAIN,17.57,80,62.43,54301.16,431.94,43.06,24.94,90.39,-0.077,1,0,0,0,0,0,0,0,0,0,90.3,25,0,0,0,0,0,0,0,0,90.4,1,0,-0.028,0,0,3,0,0,0,11.5,-10.712,0,0,1,1,0,0,VALID,119.5,106.8,4.574,74185,0,1,0,1659.24,25,1,0,0,0,0,0,0,0,0,2,2,0,0,2,2,0.7,0.5,202.08,FLYING
257.52,ASCENT,RKT_SUSTAIN,16.18,80,63.82,55223.17,421.81,43.59,25.83,90.38,-0.072,1,0,0,0,0,0,0,0,0,0,90.3,25,0,0,0,0,0,0,0,0,90.4,1,0,-0.028,0,0,3,0,0,0,11.5,-10.712,0,0,1,1,0,0,VALID,101.1,90.5,4.587,74233,0,1,0,938.87,25,1,0,0,0,0,0,0,0,0,2,2,0,0,2,2,0.7,0.5,204.24,FLYING
259.68,ASCENT,RKT_SUSTAIN,14.92,80,65.08,56123.18,411.67,43.62,26.24,90.38,-0.068,1,0,0,0,0,0,0,0,0,0,90.29,25,0,0,0,0,0,0,0,0,90.4,1,0,-0.028,0,0,3,0,0,0,11.5,-10.712,0,0,1,1,0,0,VALID,85.7,76.9,4.6,74262,0,1,0,498.03,24.704,1,0,0,0,0,0,0,0,0,2,2,0,0,2,2,0.68,0.5,206.4,FLYING
261.84,ASCENT,RKT_SUSTAIN,13.76,80,66.24,57001.1,401.54,42.76,25.77,90.38,-0.065,1,0,0,0,0,0,0,0,0,0,90.29,25,0,0,0,0,0,0,0,0,90.4,1,0,-0.028,0,0,3,0,0,0,11.5,-10.712,0,0,1,1,0,0,VALID,72.9,65.4,4.613,74279,0,1,0,236.88,24.106,1,0,0,0,0,0,0,0,0,2,2,0,0,2,2,0.7,0.5,208.56,FLYING
264,ASCENT,RKT_SUSTAIN,12.68,80,67.32,57856.92,391.4,41.05,24.44,90.37,-0.064,1,0,0,0,0,0,0,0,0,0,90.29,25,0,0,0,0,0,0,0,0,90.4,1,0,-0.028,0,0,3,0,0,0,11.5,-10.712,0,0,1,1,0,0,VALID,61.9,55.6,4.622,74290,0,1,0,88.33,23.508,1,0,0,0,0,0,0,0,0,2,2,0,0,2,2,0.7,0.5,210.72,FLYING
266.14,ASCENT,RKT_SUSTAIN,11.67,80,68.33,58683.1,381.35,38.92,22.68,90.37,-0.058,1,0,0,0,0,0,0,0,0,0,90.29,25,0,0,0,0,0,0,0,0,90.4,1,0,-0.028,0,0,3,0,0,0,11.5,-10.712,0,0,1,1,0,0,VALID,52.5,47.1,4.616,74298,0,1,0,13.69,22.915,1,0,0,0,0,0,0,0,0,2,2,0,0,2,2,0.68,0.5,212.86,FLYING
268.3,ASCENT,RKT_SUSTAIN,10.73,80,69.27,59495.36,371.21,37.52,21.66,90.36,-0.047,1,0,0,0,0,0,0,0,0,0,90.29,25,0,0,0,0,0,0,0,0,90.4,1,0,-0.028,0,0,3,0,0,0,11.5,-10.712,0,0,1,1,0,0,VALID,44.4,39.8,4.602,74303,0,1,0,-20.26,22.316,1,0,0,0,0,0,0,0,0,2,2,0,0,2,2,0.68,0.5,215.02,FLYING
270.44,ASCENT,RKT_SUSTAIN,9.87,80,70.13,60278.72,361.16,37.05,21.57,90.35,-0.039,1,0,0,0,0,0,0,0,0,0,90.29,25,0,0,0,0,0,0,0,0,90.4,1,0,-0.028,0,0,3,0,0,0,11.5,-10.712,0,0,1,1,0,0,VALID,37.6,33.7,4.582,74307,0,1,0,-35.86,21.722,1,0,0,0,0,0,0,0,0,2,2,0,0,2,2,0.68,0.5,217.16,FLYING
272.58,ASCENT,RKT_SUSTAIN,9.1,80,70.9,61040.79,351.13,37.33,22.24,90.35,-0.033,1,0,0,0,0,0,0,0,0,0,90.29,25,0,0,0,0,0,0,0,0,90.4,1,0,-0.028,0,0,3,0,0,0,11.5,-10.712,0,0,1,1,0,0,VALID,31.9,28.6,4.559,74309,0,1,0,-43.38,21.129,1,0,0,0,0,0,0,0,0,2,2,0,0,2,2,0.68,0.5,219.3,FLYING
274.72,ASCENT,RKT_SUSTAIN,8.4,80,71.6,61781.3,341.11,37.21,22.51,90.35,-0.03,1,0,0,0,0,0,0,0,0,0,90.29,25,0,0,0,0,0,0,0,0,90.4,1,0,-0.028,0,0,3,0,0,0,11.5,-10.712,0,0,1,1,0,0,VALID,27.1,24.4,4.535,74312,0,1,0,-50.34,20.535,1,0,0,0,0,0,0,0,0,2,2,0,0,2,2,0.68,0.5,221.44,FLYING
276.86,ASCENT,RKT_SUSTAIN,7.76,80,72.24,62500.19,331.1,36.35,22.05,90.35,-0.028,1,0,0,0,0,0,0,0,0,0,90.29,25,0,0,0,0,0,0,0,0,90.4,1,0,-0.028,0,0,3,0,0,0,11.5,-10.712,0,0,1,1,0,0,VALID,23.1,20.8,4.513,74313,0,1,0,-52.21,19.941,1,0,0,0,0,0,0,0,0,2,2,0,0,2,2,0.68,0.5,223.58,FLYING
278.92,ASCENT,RKT_SUSTAIN,7.16,80,72.84,63171.81,321.47,34.85,20.94,90.34,-0.028,1,0,0,0,0,0,0,0,0,0,90.29,25,0,0,0,0,0,0,0,0,90.4,1,0,-0.028,0,0,3,0,0,0,11.5,-10.712,0,0,1,1,0,0,VALID,19.7,17.7,4.494,74315,0,1,0,-50.33,19.37,1,0,0,0,0,0,0,0,0,2,2,0,0,2,2,0.64,0.5,225.64,FLYING
280.94,ASCENT,RKT_SUSTAIN,6.58,80,73.42,63810.95,312.03,32.74,19.21,90.34,-0.028,1,0,0,0,0,0,0,0,0,0,90.29,25,0,0,0,0,0,0,0,0,90.4,1,0,-0.028,0,0,3,0,0,0,11.5,-10.712,0,0,1,1,0,0,VALID,16.7,15,4.48,74316,0,1,0,-46.07,18.809,1,0,0,0,0,0,0,0,0,2,2,0,0,2,2,0.64,0.5,227.66,FLYING
282.96,ASCENT,RKT_SUSTAIN,6,80,74,64430.86,302.61,30.01,16.86,90.34,-0.027,1,0,0,0,0,0,0,0,0,0,90.29,25,0,0,0,0,0,0,0,0,90.4,1,0,-0.028,0,0,3,0,0,0,11.5,-10.712,0,0,1,1,0,0,VALID,14,12.5,4.469,74317,0,1,0,-41.31,18.248,1,0,0,0,0,0,0,0,0,2,2,0,0,2,2,0.64,0.5,229.68,FLYING
284.98,ASCENT,RKT_SUSTAIN,5.42,80,74.58,65031.54,293.18,26.66,13.9,90.34,-0.028,1,0,0,0,0,0,0,0,0,0,90.29,25,0,0,0,0,0,0,0,0,90.4,1,0,-0.028,0,0,3,0,0,0,11.5,-10.712,0,0,1,1,0,0,VALID,11.6,10.2,4.462,74317,0,1,0,-36.12,17.687,1,0,0,0,0,0,0,0,0,2,2,0,0,2,2,0.64,0.5,231.7,FLYING
287.02,ASCENT,RKT_SUSTAIN,4.84,80,75.16,65618.68,283.68,22.74,10.38,90.33,-0.029,1,0,0,0,0,0,0,0,0,0,90.29,25,0,0,0,0,0,0,0,0,90.4,1,0,-0.028,0,0,3,0,0,0,11.5,-10.712,0,0,1,1,0,0,VALID,9.4,8.1,4.456,74318,0,1,0,-31.2,17.121,1,0,0,0,0,0,0,0,0,2,2,0,0,2,2,0.66,0.5,233.74,FLYING
289.04,ASCENT,RKT_SUSTAIN,4.27,80,75.73,66181,274.27,19.12,7.14,90.33,-0.029,1,0,0,0,0,0,0,0,0,0,90.28,25,0,0,0,0,0,0,0,0,90.4,1,0,-0.028,0,0,3,0,0,0,11.5,-10.712,0,0,1,1,0,0,VALID,7.5,6.4,4.453,74318,0,1,0,-26.37,16.559,1,0,0,0,0,0,0,0,0,2,2,0,0,2,2,0.64,0.5,235.76,FLYING
291.08,ASCENT,RKT_SUSTAIN,3.7,80,76.3,66729.76,264.78,16.03,4.44,90.33,-0.029,1,0,0,0,0,0,0,0,0,0,90.28,25,0,0,0,0,0,0,0,0,90.4,1,0,-0.028,0,0,3,0,0,0,11.5,-10.712,0,0,1,1,0,0,VALID,5.8,4.8,4.451,74318,0,1,0,-22.54,15.993,1,0,0,0,0,0,0,0,0,2,2,0,0,2,2,0.64,0.5,237.8,FLYING
293.1,ASCENT,RKT_SUSTAIN,3.14,80,76.86,67254.23,255.39,13.56,2.34,90.33,-0.029,1,0,0,0,0,0,0,0,0,0,90.28,25,0,0,0,0,0,0,0,0,90.4,1,0,-0.028,0,0,3,0,0,0,11.5,-10.712,0,0,1,1,0,0,VALID,4.3,3.5,4.451,74318,0,1,0,-19.32,15.431,1,0,0,0,0,0,0,0,0,2,2,0,0,2,2,0.64,0.5,239.82,FLYING
295.12,ASCENT,RKT_SUSTAIN,2.59,80,77.41,67759.91,246,11.66,0.83,90.33,-0.029,1,0,0,0,0,0,0,0,0,0,90.28,24.323,0,0,0,0,0,0,0,0,90.4,1,0,-0.028,0,0,3,0,0,0,11.5,-10.712,0,0,1,1,0,0,VALID,3.1,2.4,4.451,74317,0,1,0,-16.61,14.87,1,0,0,0,0,0,0,0,0,2,2,0,0,2,2,0.64,0.5,241.84,FLYING
297.14,ASCENT,RKT_SUSTAIN,2.05,80,77.95,68246.81,236.63,10.33,-0.11,90.32,-0.029,1,0,0,0,0,0,0,0,0,0,90.28,23.415,0,0,0,0,0,0,0,0,90.4,1,0,-0.028,0,0,3,0,0,0,11.5,-10.712,0,0,1,1,0,0,VALID,2.1,1.5,4.452,74317,0,1,0,-14.2,14.309,1,0,0,0,0,0,0,0,0,2,2,0,0,2,2,0.64,0.5,243.86,FLYING
299.16,ASCENT,RKT_SUSTAIN,1.52,80,78.48,68714.98,227.27,9.57,-0.48,90.32,-0.029,1,0,0,0,0,0,0,0,0,0,90.28,22.506,0,0,0,0,0,0,0,0,90.4,1,0,-0.028,0,0,3,0,0,0,11.5,-10.712,0,0,1,1,0,0,VALID,1.3,0.8,4.453,74317,0,1,0,-11.98,13.748,1,0,0,0,0,0,0,0,0,2,2,0,0,2,2,0.64,0.5,245.88,FLYING
301.18,ASCENT,RKT_SUSTAIN,1,80,79,69164.4,217.91,9.37,-0.28,90.32,-0.028,1,0,0,0,0,0,0,0,0,0,90.28,21.596,0,0,0,0,0,0,0,0,90.4,1,0,-0.028,0,0,3,0,0,0,11.5,-10.712,0,0,1,1,0,0,VALID,0.7,0.4,4.447,74317,0,1,0,-9.84,13.186,1,0,0,0,0,0,0,0,0,2,2,0,0,2,2,0.64,0.5,247.9,FLYING
303.2,ASCENT,RKT_SUSTAIN,0.49,80,79.51,69595,208.57,9.35,0.1,90.32,-0.027,1,0,0,0,0,0,0,0,0,0,90.28,20.684,0,0,0,0,0,0,0,0,90.4,1,0,-0.028,0,0,3,0,0,0,11.5,-10.712,0,0,1,1,0,0,VALID,0.3,0.1,4.437,74317,0,1,0,-7.97,12.625,1,0,0,0,0,0,0,0,0,2,2,0,0,2,2,0.64,0.5,249.92,FLYING
305.22,ASCENT,RKT_SUSTAIN,0,80,80,70006.58,199.23,8.89,0.04,90.32,-0.027,1,0,0,0,0,0,0,0,0,0,90.28,19.772,0,0,0,0,0,0,0,0,90.4,1,0,-0.028,0,0,3,0,0,0,11.5,-10.712,0,0,1,1,0,0,VALID,0.1,0,4.429,74316,0,1,0,-6.73,12.064,1,0,0,0,0,0,0,0,0,2,2,0,0,2,2,0.64,0.5,251.94,SUB_ORBITAL
307.28,ASCENT,RKT_SUSTAIN,0,80,80,70407.05,189.71,8.46,0.02,90.32,-0.027,1,0,0,0,0,0,0,0,0,0,90.28,18.841,0,0,0,0,0,0,0,0,90.4,1,0,-0.028,0,0,3,0,0,0,11.5,-10.712,0,0,1,1,0,0,VALID,0,0,0,74316,0,1,0,-5.61,11.492,1,0,0,0,0,0,0,0,0,2,2,0,0,2,2,0.66,0.5,254,SUB_ORBITAL
309.34,ASCENT,RKT_SUSTAIN,0,80,80,70787.89,180.2,8.05,0.02,90.32,-0.027,1,0,0,0,0,0,0,0,0,0,90.28,17.909,0,0,0,0,0,0,0,0,90.4,1,0,-0.028,0,0,3,0,0,0,11.5,-10.712,0,0,1,1,0,0,VALID,0,0,0,74316,0,1,0,-4.95,10.92,1,0,0,0,0,0,0,0,0,2,2,0,0,2,2,0.66,0.5,256.06,SUB_ORBITAL
311.4,ASCENT,RKT_SUSTAIN,0,80,80,71149.16,170.7,7.64,0.02,90.32,-0.027,1,0,0,0,0,0,0,0,0,0,90.28,16.975,0,0,0,0,0,0,0,0,90.4,1,0,-0.028,0,0,3,0,0,0,11.5,-10.712,0,0,1,1,0,0,VALID,0,0,0,74316,0,1,0,-4.5,10.347,1,0,0,0,0,0,0,0,0,2,2,0,0,2,2,0.66,0.5,258.12,SUB_ORBITAL
313.46,ASCENT,RKT_SUSTAIN,0,80,80,71490.86,161.2,7.22,0.02,90.32,-0.027,1,0,0,0,0,0,0,0,0,0,90.28,16.042,0,0,0,0,0,0,0,0,90.4,1,0,-0.028,0,0,3,0,0,0,11.5,-10.712,0,0,1,1,0,0,VALID,0,0,0,74316,0,1,0,-4.26,9.775,1,0,0,0,0,0,0,0,0,2,2,0,0,2,2,0.66,0.5,260.18,SUB_ORBITAL
315.52,ASCENT,RKT_SUSTAIN,0,80,80,71813.03,151.71,6.81,0.02,90.32,-0.027,1,0,0,0,0,0,0,0,0,0,90.27,15.107,0,0,0,0,0,0,0,0,90.4,1,0,-0.028,0,0,3,0,0,0,11.5,-10.712,0,0,1,1,0,0,VALID,0,0,0,74316,0,1,0,-4.03,9.203,1,0,0,0,0,0,0,0,0,2,2,0,0,2,2,0.66,0.5,262.24,SUB_ORBITAL
317.58,ASCENT,RKT_SUSTAIN,0,80,80,72115.62,142.23,6.39,0.02,90.32,-0.026,1,0,0,0,0,0,0,0,0,0,90.27,14.171,0,0,0,0,0,0,0,0,90.4,1,0,-0.028,0,0,3,0,0,0,11.5,-10.712,0,0,1,1,0,0,VALID,0,0,0,74316,0,1,0,-3.94,8.631,1,0,0,0,0,0,0,0,0,2,2,0,0,2,2,0.66,0.5,264.3,SUB_ORBITAL
319.64,ASCENT,RKT_SUSTAIN,0,80,80,72398.59,132.75,5.97,0.02,90.32,-0.026,1,0,0,0,0,0,0,0,0,0,90.27,13.235,0,0,0,0,0,0,0,0,90.4,1,0,-0.028,0,0,3,0,0,0,11.5,-10.712,0,0,1,1,0,0,VALID,0,0,0,74316,0,1,0,-4.05,8.059,1,0,0,0,0,0,0,0,0,2,2,0,0,2,2,0.66,0.5,266.36,SUB_ORBITAL
321.7,ASCENT,RKT_SUSTAIN,0,80,80,72662.06,123.28,5.55,0.02,90.31,-0.026,1,0,0,0,0,0,0,0,0,0,90.27,12.298,0,0,0,0,0,0,0,0,90.4,1,0,-0.028,0,0,3,0,0,0,11.5,-10.712,0,0,1,1,0,0,VALID,0,0,0,74316,0,1,0,-4.06,7.486,1,0,0,0,0,0,0,0,0,2,2,0,0,2,2,0.66,0.5,268.42,SUB_ORBITAL
323.76,ASCENT,RKT_SUSTAIN,0,80,80,72906.05,113.81,5.13,0.02,90.31,-0.027,1,0,0,0,0,0,0,0,0,0,90.27,11.36,0,0,0,0,0,0,0,0,90.4,1,0,-0.028,0,0,3,0,0,0,11.5,-10.712,0,0,1,1,0,0,VALID,0,0,0,74316,0,1,0,-4.02,6.914,1,0,0,0,0,0,0,0,0,2,2,0,0,2,2,0.66,0.5,270.48,SUB_ORBITAL
325.82,ASCENT,RKT_SUSTAIN,0,80,80,73130.55,104.35,4.71,0.02,90.31,-0.027,1,0,0,0,0,0,0,0,0,0,90.27,10.422,0,0,0,0,0,0,0,0,90.4,1,0,-0.028,0,0,3,0,0,0,11.5,-10.712,0,0,1,1,0,0,VALID,0,0,0,74316,0,1,0,-4,6.342,1,0,0,0,0,0,0,0,0,2,2,0,0,2,2,0.66,0.5,272.54,SUB_ORBITAL
327.88,ASCENT,RKT_SUSTAIN,0,80,80,73335.54,94.88,4.29,0.02,90.31,-0.027,1,0,0,0,0,0,0,0,0,0,90.27,9.484,0,0,0,0,0,0,0,0,90.4,1,0,-0.028,0,0,3,0,0,0,11.5,-10.712,0,0,1,1,0,0,VALID,0,0,0,74316,0,1,0,-3.98,5.77,1,0,0,0,0,0,0,0,0,2,2,0,0,2,2,0.66,0.5,274.6,SUB_ORBITAL
329.94,ASCENT,RKT_SUSTAIN,0,80,80,73521.06,85.43,3.87,0.02,90.31,-0.026,1,0,0,0,0,0,0,0,0,0,90.27,8.544,0,0,0,0,0,0,0,0,90.4,1,0,-0.028,0,0,3,0,0,0,11.5,-10.712,0,0,1,1,0,0,VALID,0,0,0,74316,0,1,0,-3.94,5.197,1,0,0,0,0,0,0,0,0,2,2,0,0,2,2,0.66,0.5,276.66,SUB_ORBITAL
332,ASCENT,RKT_SUSTAIN,0,80,80,73687.09,75.97,3.45,0.02,90.31,-0.026,1,0,0,0,0,0,0,0,0,0,90.27,7.605,0,0,0,0,0,0,0,0,90.4,1,0,-0.028,0,0,3,0,0,0,11.5,-10.712,0,0,1,1,0,0,VALID,0,0,0,74316,0,1,0,-3.95,4.625,1,0,0,0,0,0,0,0,0,2,2,0,0,2,2,0.66,0.5,278.72,SUB_ORBITAL
334.06,ASCENT,RKT_SUSTAIN,0,80,80,73833.69,66.52,3.02,0.02,90.31,-0.026,1,0,0,0,0,0,0,0,0,0,90.27,6.665,0,0,0,0,0,0,0,0,90.4,1,0,-0.028,0,0,3,0,0,0,11.5,-10.712,0,0,1,1,0,0,VALID,0,0,0,74315,0,1,0,-3.88,4.053,1,0,0,0,0,0,0,0,0,2,2,0,0,2,2,0.66,0.5,280.78,SUB_ORBITAL
336.12,ASCENT,RKT_SUSTAIN,0,80,80,73960.85,57.07,2.6,0.02,90.31,-0.026,1,0,0,0,0,0,0,0,0,0,90.27,5.725,0,0,0,0,0,0,0,0,90.4,1,0,-0.028,0,0,3,0,0,0,11.5,-10.712,0,0,1,1,0,0,VALID,0,0,0,74315,0,1,0,-3.79,3.481,1,0,0,0,0,0,0,0,0,2,2,0,0,2,2,0.66,0.5,282.84,SUB_ORBITAL
338.18,ASCENT,RKT_SUSTAIN,0,80,80,74068.47,47.63,2.17,0.02,90.31,-0.026,1,0,0,0,0,0,0,0,0,0,90.27,4.784,0,0,0,0,0,0,0,0,90.4,1,0,-0.028,0,0,3,0,0,0,11.5,-10.712,0,0,1,1,0,0,VALID,0,0,0,74315,0,1,0,-3.86,2.909,1,0,0,0,0,0,0,0,0,2,2,0,0,2,2,0.66,0.5,284.9,SUB_ORBITAL
340.24,ASCENT,RKT_SUSTAIN,0,80,80,74156.63,38.18,1.75,0.02,90.31,-0.026,1,0,0,0,0,0,0,0,0,0,90.27,3.843,0,0,0,0,0,0,0,0,90.4,1,0,-0.028,0,0,3,0,0,0,11.5,-10.712,0,0,1,1,0,0,VALID,0,0,0,74315,0,1,0,-3.89,2.336,1,0,0,0,0,0,0,0,0,2,2,0,0,2,2,0.66,0.5,286.96,SUB_ORBITAL
342.3,ASCENT,RKT_SUSTAIN,0,80,80,74225.32,28.74,1.32,0.02,90.31,-0.026,1,0,0,0,0,0,0,0,0,0,90.26,2.902,0,0,0,0,0,0,0,0,90.4,1,0,-0.028,0,0,3,0,0,0,11.5,-10.712,0,0,1,1,0,0,VALID,0,0,0,74315,0,1,0,-3.95,1.764,1,0,0,0,0,0,0,0,0,2,2,0,0,2,2,0.66,0.5,289.02,SUB_ORBITAL
344.36,ASCENT,RKT_SUSTAIN,0,80,80,74274.54,19.3,0.89,0.02,90.3,-0.027,1,0,0,0,0,0,0,0,0,0,90.26,1.961,0,0,0,0,0,0,0,0,90.4,1,0,-0.028,0,0,3,0,0,0,11.5,-10.712,0,0,1,1,0,0,VALID,0,0,0,74315,0,1,0,-4.01,1.192,1,0,0,0,0,0,0,0,0,2,2,0,0,2,2,0.66,0.5,291.08,SUB_ORBITAL
346.42,ASCENT,RKT_SUSTAIN,0,80,80,74304.43,9.86,0.47,0.02,90.3,-0.027,1,0,0,0,0,0,0,0,0,0,90.26,1.019,0,0,0,0,0,0,0,0,90.4,1,0,-0.028,0,0,3,0,0,0,11.5,-10.712,0,0,1,1,0,0,VALID,0,0,0,74315,0,1,0,-3.87,0.62,1,0,0,0,0,0,0,0,0,2,2,0,0,2,2,0.66,0.5,293.14,SUB_ORBITAL
348.48,ASCENT,RKT_SUSTAIN,0,80,80,74314.81,0.42,0.04,0.02,90.3,-0.027,1,0,0,0,0,0,0,0,0,0,90.26,0.078,0,0,0,0,0,0,0,0,90.4,1,0,-0.028,0,0,3,0,0,0,11.5,-10.712,0,0,1,1,0,0,VALID,0,0,0,74315,0,1,0,-3.86,0.047,1,0,0,0,0,0,0,0,0,2,2,0,0,2,2,0.66,0.5,295.2,SUB_ORBITAL
350.54,ASCENT,RKT_SUSTAIN,0,80,80,74305.75,-9.02,-0.39,0.02,90.3,-0.027,1,0,0,0,0,0,0,0,0,0,90.26,1.209,0,0,0,0,0,0,0,0,90.4,1,0,-0.028,0,0,3,0,0,0,11.5,-10.712,0,0,1,1,0,0,VALID,0,0,0,74315,0,1,0,-3.87,1.547,1,0,0,0,0,0,0,0,0,2,2,0,0,2,2,0.66,0.5,297.26,SUB_ORBITAL
352.6,ASCENT,RKT_SUSTAIN,0,80,80,74277.23,-18.47,-0.81,0.02,90.3,-0.027,1,0,0,0,0,0,0,0,0,0,90.26,2.34,0,0,0,0,0,0,0,0,90.4,1,0,-0.028,0,0,3,0,0,0,11.5,-10.712,0,0,1,1,0,0,VALID,0,0,0,74315,0,1,0,-3.88,3.047,1,0,0,0,0,0,0,0,0,2,2,0,0,2,2,0.66,0.5,299.32,SUB_ORBITAL
354.66,ASCENT,RKT_SUSTAIN,0,80,80,74229.33,-27.91,-1.24,0.02,90.3,-0.027,1,0,0,0,0,0,0,0,0,0,90.26,3.471,0,0,0,0,0,0,0,0,90.4,1,0,-0.028,0,0,3,0,0,0,11.5,-10.712,0,0,1,1,0,0,VALID,0,0,0,74315,0,1,0,-3.78,4.547,1,0,0,0,0,0,0,0,0,2,2,0,0,2,2,0.66,0.5,301.38,SUB_ORBITAL
356.72,ASCENT,RKT_SUSTAIN,0,80,80,74161.98,-37.35,-1.66,0.02,90.3,-0.027,1,0,0,0,0,0,0,0,0,0,90.26,4.602,0,0,0,0,0,0,0,0,90.4,1,0,-0.028,0,0,3,0,0,0,11.5,-10.712,0,0,1,1,0,0,VALID,0,0,0,74315,0,1,0,-3.71,6.047,1,0,0,0,0,0,0,0,0,2,2,0,0,2,2,0.66,0.5,303.44,SUB_ORBITAL
358.78,ASCENT,RKT_SUSTAIN,0,80,80,74075.13,-46.8,-2.09,0.02,90.3,-0.027,1,0,0,0,0,0,0,0,0,0,90.26,5.733,0,0,0,0,0,0,0,0,90.4,1,0,-0.028,0,0,3,0,0,0,11.5,-10.712,0,0,1,1,0,0,VALID,0,0,0,74315,0,1,0,-3.74,7.547,1,0,0,0,0,0,0,0,0,2,2,0,0,2,2,0.66,0.5,305.5,SUB_ORBITAL
360.84,ASCENT,RKT_SUSTAIN,0,80,80,73968.82,-56.24,-2.51,0.02,90.3,-0.027,1,0,0,0,0,0,0,0,0,0,90.26,6.865,0,0,0,0,0,0,0,0,90.4,1,0,-0.028,0,0,3,0,0,0,11.5,-10.712,0,0,1,1,0,0,VALID,0,0,0,74315,0,1,0,-3.78,9.047,1,0,0,0,0,0,0,0,0,2,2,0,0,2,2,0.66,0.5,307.56,SUB_ORBITAL
362.9,ASCENT,RKT_SUSTAIN,0,80,80,73843.09,-65.69,-2.94,0.02,90.3,-0.027,1,0,0,0,0,0,0,0,0,0,90.26,7.997,0,0,0,0,0,0,0,0,90.4,1,0,-0.028,0,0,3,0,0,0,11.5,-10.712,0,0,1,1,0,0,VALID,0,0,0,74315,0,1,0,-3.73,10.547,1,0,0,0,0,0,0,0,0,2,2,0,0,2,2,0.66,0.5,309.62,SUB_ORBITAL
364.96,ASCENT,RKT_SUSTAIN,0,80,80,73697.8,-75.14,-3.36,0.02,90.29,-0.027,1,0,0,0,0,0,0,0,0,0,90.25,9.129,0,0,0,0,0,0,0,0,90.4,1,0,-0.028,0,0,3,0,0,0,11.5,-10.712,0,0,1,1,0,0,VALID,0,0,0,74315,0,1,0,-3.83,12.047,1,0,0,0,0,0,0,0,0,2,2,0,0,2,2,0.66,0.5,311.68,SUB_ORBITAL
367.02,ASCENT,RKT_SUSTAIN,0,80,80,73533.08,-84.59,-3.79,0.02,90.29,-0.027,1,0,0,0,0,0,0,0,0,0,90.25,10.261,0,0,0,0,0,0,0,0,90.4,1,0,-0.028,0,0,3,0,0,0,11.5,-10.712,0,0,1,1,0,0,VALID,0,0,0,74315,0,1,0,-3.85,13.547,1,0,0,0,0,0,0,0,0,2,2,0,0,2,2,0.66,0.5,313.74,SUB_ORBITAL
369.08,ASCENT,RKT_SUSTAIN,0,80,80,73348.87,-94.05,-4.21,0.02,90.29,-0.027,1,0,0,0,0,0,0,0,0,0,90.25,11.394,0,0,0,0,0,0,0,0,90.4,1,0,-0.028,0,0,3,0,0,0,11.5,-10.712,0,0,1,1,0,0,VALID,0,0,0,74314,0,1,0,-3.87,15.047,1,0,0,0,0,0,0,0,0,2,2,0,0,2,2,0.66,0.5,315.8,SUB_ORBITAL
371.14,ASCENT,RKT_SUSTAIN,0,80,80,73145.12,-103.51,-4.63,0.02,90.29,-0.027,1,0,0,0,0,0,0,0,0,0,90.25,12.528,0,0,0,0,0,0,0,0,90.4,1,0,-0.028,0,0,3,0,0,0,11.5,-10.712,0,0,1,1,0,0,VALID,0,0,0,74314,0,1,0,-3.98,16.547,1,0,0,0,0,0,0,0,0,2,2,0,0,2,2,0.66,0.5,317.86,SUB_ORBITAL
373.2,ASCENT,RKT_SUSTAIN,0,80,80,72921.97,-112.98,-5.05,0.02,90.29,-0.027,1,0,0,0,0,0,0,0,0,0,90.25,13.662,0,0,0,0,0,0,0,0,90.4,1,0,-0.028,0,0,3,0,0,0,11.5,-10.712,0,0,1,1,0,0,VALID,0,0,0,74314,0,1,0,-3.9,18.047,1,0,0,0,0,0,0,0,0,2,2,0,0,2,2,0.66,0.5,319.92,SUB_ORBITAL
375.26,ASCENT,RKT_SUSTAIN,0,80,80,72679.34,-122.44,-5.47,0.02,90.29,-0.027,1,0,0,0,0,0,0,0,0,0,90.25,14.796,0,0,0,0,0,0,0,0,90.4,1,0,-0.028,0,0,3,0,0,0,11.5,-10.712,0,0,1,1,0,0,VALID,0,0,0,74314,0,1,0,-3.83,19.547,1,0,0,0,0,0,0,0,0,2,2,0,0,2,2,0.66,0.5,321.98,SUB_ORBITAL
377.32,ASCENT,RKT_SUSTAIN,0,80,80,72417.12,-131.92,-5.89,0.02,90.29,-0.027,1,0,0,0,0,0,0,0,0,0,90.25,15.932,0,0,0,0,0,0,0,0,90.4,1,0,-0.028,0,0,3,0,0,0,11.5,-10.712,0,0,1,1,0,0,VALID,0,0,0,74314,0,1,0,-3.9,21.047,1,0,0,0,0,0,0,0,0,2,2,0,0,2,2,0.66,0.5,324.04,SUB_ORBITAL
379.38,ASCENT,RKT_SUSTAIN,0,80,80,72135.39,-141.4,-6.31,0.02,90.29,-0.028,1,0,0,0,0,0,0,0,0,0,90.25,17.067,0,0,0,0,0,0,0,0,90.4,1,0,-0.028,0,0,3,0,0,0,11.5,-10.712,0,0,1,1,0,0,VALID,0,0,0,74314,0,1,0,-3.97,22.547,1,0,0,0,0,0,0,0,0,2,2,0,0,2,2,0.66,0.5,326.1,SUB_ORBITAL
381.44,ASCENT,RKT_SUSTAIN,0,80,80,71834.14,-150.88,-6.73,0.02,90.29,-0.028,1,0,0,0,0,0,0,0,0,0,90.25,18.204,0,0,0,0,0,0,0,0,90.4,1,0,-0.028,0,0,3,0,0,0,11.5,-10.712,0,0,1,1,0,0,VALID,0,0,0,74314,0,1,0,-3.97,24.047,1,0,0,0,0,0,0,0,0,2,2,0,0,2,2,0.66,0.5,328.16,SUB_ORBITAL
383.5,ASCENT,RKT_SUSTAIN,0,80,80,71513.35,-160.37,-7.14,0.02,90.28,-0.028,1,0,0,0,0,0,0,0,0,0,90.25,18.794,0,0,0,0,0,0,0,0,90.4,1,0,-0.028,0,0,3,0,0,0,11.5,-10.712,0,0,1,1,0,0,VALID,0,0,0,74314,0,1,0,-3.98,25,1,0,0,0,0,0,0,0,0,2,2,0,0,2,2,0.66,0.5,330.22,SUB_ORBITAL
385.56,ASCENT,RKT_SUSTAIN,0,80,80,71173.05,-169.86,-7.56,0.02,90.28,-0.028,1,0,0,0,0,0,0,0,0,0,90.25,18.432,0,0,0,0,0,0,0,0,90.4,1,0,-0.028,0,0,3,0,0,0,11.5,-10.712,0,0,1,1,0,0,VALID,0,0,0,74314,0,1,0,-3.92,25,1,0,0,0,0,0,0,0,0,2,2,0,0,2,2,0.66,0.5,332.28,SUB_ORBITAL
387.62,ASCENT,RKT_SUSTAIN,0,80,80,70813.18,-179.36,-7.97,0.02,90.28,-0.029,1,0,0,0,0,0,0,0,0,0,90.24,18.071,0,0,0,0,0,0,0,0,90.4,1,0,-0.028,0,0,3,0,0,0,11.5,-10.712,0,0,1,1,0,0,VALID,0,0,0,74314,0,1,0,-3.88,25,1,0,0,0,0,0,0,0,0,2,2,0,0,2,2,0.66,0.5,334.34,SUB_ORBITAL
389.68,ASCENT,RKT_SUSTAIN,0,80,80,70433.75,-188.87,-8.38,0.02,90.28,-0.029,1,0,0,0,0,0,0,0,0,0,90.24,17.711,0,0,0,0,0,0,0,0,90.4,1,0,-0.028,0,0,3,0,0,0,11.5,-10.712,0,0,1,1,0,0,VALID,0,0,0,74314,0,1,0,-3.85,25,1,0,0,0,0,0,0,0,0,2,2,0,0,2,2,0.66,0.5,336.4,SUB_ORBITAL
391.74,ASCENT,RKT_SUSTAIN,0,80,80,70034.72,-198.39,-8.79,0.02,90.28,-0.029,1,0,0,0,0,0,0,0,0,0,90.24,17.352,0,0,0,0,0,0,0,0,90.4,1,0,-0.028,0,0,3,0,0,0,11.5,-10.712,0,0,1,1,0,0,VALID,0,0,0,74314,0,1,0,-3.85,25,1,0,0,0,0,0,0,0,0,2,2,0,0,2,2,0.66,0.5,338.46,SUB_ORBITAL
393.76,ASCENT,RKT_SUSTAIN,0.44,80,79.56,69624.29,-207.73,-9.19,0.02,90.28,-0.03,1,0,0,0,0,0,0,0,0,0,90.24,17,0,0,0,0,0,0,0,0,90.4,1,0,-0.028,0,0,3,0,0,0,11.5,-10.712,0,0,1,1,0,0,VALID,0,0.1,4.424,74314,0,1,0,-4.07,25,1,0,0,0,0,0,0,0,0,2,2,0,0,2,2,0.64,0.5,340.48,FLYING
395.78,ASCENT,RKT_SUSTAIN,0.95,80,79.05,69194.98,-217.07,-9.59,0.02,90.28,-0.03,1,0,0,0,0,0,0,0,0,0,90.24,16.65,0,0,0,0,0,0,0,0,90.4,1,0,-0.028,0,0,3,0,0,0,11.5,-10.712,0,0,1,1,0,0,VALID,0.2,0.3,4.432,74314,0,1,0,-4.58,25,1,0,0,0,0,0,0,0,0,2,2,0,0,2,2,0.64,0.5,342.5,FLYING
397.8,ASCENT,RKT_SUSTAIN,1.47,80,78.53,68746.78,-226.43,-9.99,0.02,90.28,-0.03,1,0,0,0,0,0,0,0,0,0,90.24,16.301,0,0,0,0,0,0,0,0,90.4,1,0,-0.028,0,0,3,0,0,0,11.5,-10.712,0,0,1,1,0,0,VALID,0.5,0.7,4.441,74313,0,1,0,-5.32,25,1,0,0,0,0,0,0,0,0,2,2,0,0,2,2,0.64,0.5,344.52,FLYING
399.82,ASCENT,RKT_SUSTAIN,2,80,78,68279.69,-235.79,-10.39,0.02,90.27,-0.031,1,0,0,0,0,0,0,0,0,0,90.24,15.953,0,0,0,0,0,0,0,0,90.4,1,0,-0.028,0,0,3,0,0,0,11.5,-10.712,0,0,1,1,0,0,VALID,1,1.3,4.439,74313,0,1,0,-6.19,25,1,0,0,0,0,0,0,0,0,2,2,0,0,2,2,0.64,0.5,346.54,FLYING
401.84,ASCENT,RKT_SUSTAIN,2.54,80,77.46,67793.67,-245.16,-10.78,0.02,90.27,-0.031,1,0,0,0,0,0,0,0,0,0,90.24,15.605,0,0,0,0,0,0,0,0,90.4,1,0,-0.028,0,0,3,0,0,0,11.5,-10.712,0,0,1,1,0,0,VALID,1.7,2.1,4.438,74313,0,1,0,-7.12,25,1,0,0,0,0,0,0,0,0,2,2,0,0,2,2,0.64,0.5,348.56,FLYING
403.88,ASCENT,RKT_SUSTAIN,3.09,80,76.91,67283.62,-254.63,-11.18,0.02,90.27,-0.031,1,0,0,0,0,0,0,0,0,0,90.24,15.256,0,0,0,0,0,0,0,0,90.4,1,0,-0.028,0,0,3,0,0,0,11.5,-10.712,0,0,1,1,0,0,VALID,2.6,3.2,4.437,74313,0,1,0,-8.1,25,1,0,0,0,0,0,0,0,0,2,2,0,0,2,2,0.66,0.5,350.6,FLYING
405.9,ASCENT,RKT_SUSTAIN,3.65,80,76.35,66759.53,-264.02,-11.57,0.02,90.27,-0.032,1,0,0,0,0,0,0,0,0,0,90.24,14.911,0,0,0,0,0,0,0,0,90.4,1,0,-0.028,0,0,3,0,0,0,11.5,-10.712,0,0,1,1,0,0,VALID,3.7,4.4,4.437,74313,0,1,0,-9.03,25,1,0,0,0,0,0,0,0,0,2,2,0,0,2,2,0.64,0.5,352.62,FLYING
407.92,ASCENT,RKT_SUSTAIN,4.21,80,75.79,66216.47,-273.41,-11.96,0.02,90.27,-0.032,1,0,0,0,0,0,0,0,0,0,90.23,14.568,0,0,0,0,0,0,0,0,90.4,1,0,-0.028,0,0,3,0,0,0,11.5,-10.712,0,0,1,1,0,0,VALID,5,5.9,4.438,74312,0,1,0,-9.98,25,1,0,0,0,0,0,0,0,0,2,2,0,0,2,2,0.64,0.5,354.64,FLYING
409.94,ASCENT,RKT_SUSTAIN,4.78,80,75.22,65654.41,-282.82,-12.34,0.02,90.27,-0.032,1,0,0,0,0,0,0,0,0,0,90.23,14.225,0,0,0,0,0,0,0,0,90.4,1,0,-0.028,0,0,3,0,0,0,11.5,-10.712,0,0,1,1,0,0,VALID,6.6,7.6,4.441,74312,0,1,0,-10.97,25,1,0,0,0,0,0,0,0,0,2,2,0,0,2,2,0.64,0.5,356.66,FLYING
412,ASCENT,RKT_SUSTAIN,5.36,80,74.64,65061.65,-292.42,-12.73,0.02,90.27,-0.032,1,0,0,0,0,0,0,0,0,0,90.23,13.878,0,0,0,0,0,0,0,0,90.4,1,0,-0.028,0,0,3,0,0,0,11.5,-10.712,0,0,1,1,0,0,VALID,8.4,9.6,4.445,74312,0,1,0,-12.1,25,1,0,0,0,0,0,0,0,0,2,2,0,0,2,2,0.66,0.5,358.72,FLYING
414.02,ASCENT,RKT_SUSTAIN,5.94,80,74.06,64461.18,-301.85,-13.12,0.02,90.27,-0.033,1,0,0,0,0,0,0,0,0,0,90.23,13.538,0,0,0,0,0,0,0,0,90.4,1,0,-0.028,0,0,3,0,0,0,11.5,-10.712,0,0,1,1,0,0,VALID,10.5,11.8,4.452,74311,0,1,0,-13.09,25,1,0,0,0,0,0,0,0,0,2,2,0,0,2,2,0.64,0.5,360.74,FLYING
416.04,ASCENT,RKT_SUSTAIN,6.52,80,73.48,63841.65,-311.29,-13.5,0.02,90.26,-0.033,1,0,0,0,0,0,0,0,0,0,90.23,13.2,0,0,0,0,0,0,0,0,90.4,1,0,-0.028,0,0,3,0,0,0,11.5,-10.712,0,0,1,1,0,0,VALID,12.8,14.2,4.462,74311,0,1,0,-14.1,25,1,0,0,0,0,0,0,0,0,2,2,0,0,2,2,0.64,0.5,362.76,FLYING
418.06,ASCENT,RKT_SUSTAIN,7.1,80,72.9,63203.04,-320.74,-13.87,0.02,90.26,-0.033,1,0,0,0,0,0,0,0,0,0,90.23,12.863,0,0,0,0,0,0,0,0,90.4,1,0,-0.028,0,0,3,0,0,0,11.5,-10.712,0,0,1,1,0,0,VALID,15.3,16.9,4.476,74310,0,1,0,-15.12,25,1,0,0,0,0,0,0,0,0,2,2,0,0,2,2,0.64,0.5,364.78,FLYING
420.08,ASCENT,RKT_SUSTAIN,7.69,80,72.31,62545.34,-330.2,-14.25,0.02,90.26,-0.033,1,0,0,0,0,0,0,0,0,0,90.23,12.527,0,0,0,0,0,0,0,0,90.4,1,0,-0.028,0,0,3,0,0,0,11.5,-10.712,0,0,1,1,0,0,VALID,18.1,19.8,4.494,74310,0,1,0,-16.15,25,1,0,0,0,0,0,0,0,0,2,2,0,0,2,2,0.64,0.5,366.8,FLYING
422.12,ASCENT,RKT_SUSTAIN,8.29,80,71.71,61861.71,-339.77,-14.63,0.02,90.26,-0.034,1,0,0,0,0,0,0,0,0,0,90.23,12.19,0,0,0,0,0,0,0,0,90.4,1,0,-0.028,0,0,3,0,0,0,11.5,-10.712,0,0,1,1,0,0,VALID,21.1,23.1,4.515,74309,0,1,0,-17.26,25,1,0,0,0,0,0,0,0,0,2,2,0,0,2,2,0.64,0.5,368.84,FLYING
424.14,ASCENT,RKT_SUSTAIN,8.94,80,71.06,61165.55,-349.25,-15,0.02,90.26,-0.034,1,0,0,0,0,0,0,0,0,0,90.23,11.858,0,0,0,0,0,0,0,0,90.4,1,0,-0.028,0,0,3,0,0,0,11.5,-10.712,0,0,1,1,0,0,VALID,24.6,26.8,4.538,74309,0,1,0,-18.29,25,1,0,0,0,0,0,0,0,0,2,2,0,0,2,2,0.64,0.5,370.86,FLYING
426.16,ASCENT,RKT_SUSTAIN,9.66,80,70.34,60450.23,-358.75,-15.33,0.06,90.26,-0.034,1,0,0,0,0,0,0,0,0,0,90.22,11.527,0,0,0,0,0,0,0,0,90.4,1,0,-0.028,0,0,3,0,0,0,11.5,-10.712,0,0,1,1,0,0,VALID,28.7,31.3,4.562,74308,0,1,0,-19.45,25,1,0,0,0,0,0,0,0,0,2,2,0,0,2,2,0.64,0.5,372.88,FLYING
428.18,ASCENT,RKT_SUSTAIN,10.44,80,69.56,59715.86,-368.26,-15.15,0.6,90.26,-0.034,1,0,0,0,0,0,0,0,0,0,90.22,11.197,0,0,0,0,0,0,0,0,90.4,1,0,-0.028,0,0,3,0,0,0,11.5,-10.712,0,0,1,1,0,0,VALID,33.5,36.5,4.583,74307,0,1,0,-21.14,25,1,0,0,0,0,0,0,0,0,2,2,0,0,2,2,0.64,0.5,374.9,FLYING
430.2,ASCENT,RKT_SUSTAIN,11.3,80,68.7,58962.46,-377.79,-14.27,1.83,90.26,-0.034,1,0,0,0,0,0,0,0,0,0,90.22,10.869,0,0,0,0,0,0,0,0,90.4,1,0,-0.028,0,0,3,0,0,0,11.5,-10.712,0,0,1,1,0,0,VALID,39.2,42.8,4.601,74306,0,1,0,-22.37,25,1,0,0,0,0,0,0,0,0,2,2,0,0,2,2,0.64,0.5,376.92,FLYING
432.24,ASCENT,RKT_SUSTAIN,12.24,80,67.76,58182.29,-387.42,-12.69,3.78,90.26,-0.035,1,0,0,0,0,0,0,0,0,0,90.22,10.54,0,0,0,0,0,0,0,0,90.4,1,0,-0.028,0,0,3,0,0,0,11.5,-10.712,0,0,1,1,0,0,VALID,45.9,50.2,4.612,74305,0,1,0,-23.45,25,1,0,0,0,0,0,0,0,0,2,2,0,0,2,2,0.66,0.5,378.96,FLYING
434.26,ASCENT,RKT_SUSTAIN,13.23,80,66.77,57390.55,-396.95,-10.63,6.19,90.26,-0.05,1,0,0,0,0,0,0,0,0,0,90.22,10.216,0,0,0,0,0,0,0,0,90.4,1,0,-0.028,0,0,3,0,0,0,11.5,-10.712,0,0,1,1,0,0,VALID,53.7,58.7,4.614,74304,0,1,0,-24.41,25,1,0,0,0,0,0,0,0,0,2,2,0,0,2,2,0.64,0.5,380.98,FLYING
436.3,ASCENT,RKT_SUSTAIN,14.27,80,65.73,56571.39,-406.58,-8.72,8.46,90.26,-0.063,1,0,0,0,0,0,0,0,0,0,90.22,9.891,0,0,0,0,0,0,0,0,90.4,1,0,-0.028,0,0,3,0,0,0,11.5,-10.712,0,0,1,1,0,0,VALID,62.6,68.3,4.601,74301,0,1,0,-26.69,25,1,0,0,0,0,0,0,0,0,2,2,0,0,2,2,0.66,0.5,383.02,FLYING
438.32,ASCENT,RKT_SUSTAIN,15.39,80,64.61,55740.84,-416.12,-6.99,10.55,90.26,-0.075,1,0,0,0,0,0,0,0,0,0,90.22,9.572,0,0,0,0,0,0,0,0,90.4,1,0,-0.028,0,0,3,0,0,0,11.5,-10.712,0,0,1,1,0,0,VALID,72.9,79.5,4.588,74298,0,1,0,-30.91,25,1,0,0,0,0,0,0,0,0,2,2,0,0,2,2,0.64,0.5,385.04,FLYING
