t_s,phase,subphase,ias_ms,vapp_ms,spd_err_ms,agl_m,vs_ms,pitch_deg,aoa_deg,hdg_deg,bank_deg,thr_cmd,thr_cur,thr_intg,at_gain,at_tau_s,at_a_up,at_a_dn,at_kp_thr,at_ki_spd,at_thr_slew,aa_hdg_cmd_deg,aa_fpa_cmd_deg,aa_fbw,aa_dir,actual_fpa_deg,ftf_hdg_err_deg,ftf_fix_idx,kos_steer_pit_deg,kos_steer_hdg_deg,aa_dir_vx,aa_dir_vy,aa_dir_vz,aa_dir_pitch_deg,aa_dir_hdg_deg,ils_loc_m,ils_gs_m,ils_dist_km,loc_corr_deg,gs_corr_deg,flare_fpa_cmd,flare_tgt_vs,flare_frac,steer_hdg_deg,steer_blend,ro_loc_corr_deg,ro_hdg_err_deg,ro_yaw_tgt,ro_yaw_scale,ro_yaw_gate,yaw_cmd,roll_cmd,pitch_cmd,ro_pitch_tgt_deg,ro_pitch_err_deg,ro_pitch_ff,ro_roll_assist,flaps_cur,flaps_tgt,asc_j_ab,asc_j_rk,asc_validity,asc_q_pa,asc_q_raw_pa,asc_mach,asc_apo_m,asc_drag_n,asc_w_prop,asc_edot_aero,asc_edot_orb,asc_pitch_bias,asc_blend,asc_spooling,asc_ab_thr_ratio,asc_ab_t_now,asc_ab_t_avail,asc_ab_ign_on,asc_ab_flameouts,asc_rk_t_now,asc_rk_t_avail,asc_rk_ign_on,asc_rk_flameouts,ship_thrust,ship_avail_thrust,ship_ign_on,ship_flameouts,ifc_raw_dt_s,ifc_dt_s,ifc_loop_n,ifc_hz_est,ifc_raw_dt_max_s,ifc_raw_dt_min_s,phase_el_s,status,craft_name,cfg_file
0.12,APPROACH,FLY_TO_FIX,77.83,73.08,-4.75,1342.3,0,8.21,8.21,89.94,0.008,0,0,0,1,0.6,0.9,0.75,0.35,0.0168,0.4,179.94,0,1,0,0,159.76,0,0,90,0,0,0,0,0,0,0,40.661,0,0,0,0,0,89.94,0,0,0,0,0,0,0,0,0,0,0,0,0,0,0,0,0,VALID,0,0,0,0,0,1,0,0,0,0,0,0,0,0,0,0,0,0,0,0,102.4,402.12,2,0,0.1,0.1,1,3.45,0.1,0.02,0.12,FLYING,CF1-F,0:/Integrated Flight Computer/aircraft/cf1_f_cfg.ks (inferred preloaded)
0.42,APPROACH,FLY_TO_FIX,77.83,73.32,-4.51,1342.3,0,8.21,8.21,89.96,0.225,0,0,0,1,0.6,1.747,0.75,0.35,0.0168,0.4,179.96,0,0,0,0,159.79,0,0,179.95,0,0,0,0,0,0,0,40.687,0,0,0,0,0,89.94,0,0,0,0,0,0,0,0,0,0,0,0,0,1,1,0,0,VALID,0,0,0,0,0,1,0,0,0,0,0,0,0,0,0,0,0,0,0,0,102.5,402.12,2,0,0.06,0.06,5,13.33,0.1,0.06,0.42,FLYING,CF1-F,0:/Integrated Flight Computer/aircraft/cf1_f_cfg.ks (inferred preloaded)
0.72,APPROACH,FLY_TO_FIX,77.81,73.56,-4.25,1342.31,0,8.27,8.27,90.07,1.222,0,0,0,1,0.6,2.705,0.75,0.35,0.0168,0.4,180.07,0,0,0,0,159.72,0,0,180.04,0,0,0,0,0,0,0,40.713,0,0,0,0,0,89.94,0,0,0,0,0,0,0,0,0,0,0,0,0,1,1,0,0,VALID,0,0,0,0,0,1,0,0,0,0,0,0,0,0,0,0,0,0,0,0,102.89,402.13,2,0,0.06,0.06,9,13.33,0.1,0.06,0.72,FLYING,CF1-F,0:/Integrated Flight Computer/aircraft/cf1_f_cfg.ks (inferred preloaded)
1,APPROACH,FLY_TO_FIX,77.78,73.78,-3.99,1342.33,0.03,8.36,8.35,90.31,2.844,0,0,0,1,0.6,3.392,0.75,0.35,0.0168,0.4,180.31,0,0,0,0.02,159.52,0,0,180.25,0,0,0,0,0,0,0,40.737,0,0,0,0,0,89.94,0,0,0,0,0,0,0,0,0,0,0,0,0,1,1,0,0,VALID,0,0,0,0,0,1,0,0,0,0,0,0,0,0,0,0,0,0,0,0,103.54,402.15,2,0,0.06,0.06,13,14.29,0.08,0.06,1,FLYING,CF1-F,0:/Integrated Flight Computer/aircraft/cf1_f_cfg.ks (inferred preloaded)
1.28,APPROACH,FLY_TO_FIX,77.73,74.01,-3.73,1342.36,0.08,8.48,8.45,90.68,4.957,0,0,0,1,0.6,3.883,0.75,0.35,0.0168,0.4,180.68,0,0,0,0.05,159.19,0,0,180.59,0,0,0,0,0,0,0,40.761,0,0,0,0,0,89.94,0,0,0,0,0,0,0,0,0,0,0,0,0,1,1,0,0,VALID,0,0,0,0,0,1,0,0,0,0,0,0,0,0,0,0,0,0,0,0,104.46,402.18,2,0,0.06,0.06,17,14.29,0.08,0.06,1.28,FLYING,CF1-F,0:/Integrated Flight Computer/aircraft/cf1_f_cfg.ks (inferred preloaded)
1.56,APPROACH,FLY_TO_FIX,77.68,74.23,-3.45,1342.42,0.15,8.6,8.56,91.18,7.406,0,0,0,1,0.6,4.236,0.75,0.35,0.0168,0.4,181.18,0,0,0,0.11,158.73,0,0,181.07,0,0,0,0,0,0,0,40.786,0,0,0,0,0,89.94,0,0,0,0,0,0,0,0,0,0,0,0,0,1,1,0,0,VALID,0,0,0,0,0,1,0,0,0,0,0,0,0,0,0,0,0,0,0,0,105.69,402.21,2,0,0.06,0.06,21,14.29,0.08,0.06,1.56,FLYING,CF1-F,0:/Integrated Flight Computer/aircraft/cf1_f_cfg.ks (inferred preloaded)
1.84,APPROACH,FLY_TO_FIX,77.61,74.46,-3.16,1342.49,0.24,8.71,8.66,91.81,10.082,0,0,0,1,0.6,4.488,0.75,0.35,0.0168,0.4,181.81,0,0,0,0.17,158.14,0,0,181.67,0,0,0,0,0,0,0,40.81,0,0,0,0,0,89.94,0,0,0,0,0,0,0,0,0,0,0,0,0,1,1,0,0,VALID,0,0,0,0,0,1,0,0,0,0,0,0,0,0,0,0,0,0,0,0,107.24,402.25,2,0,0.06,0.06,25,14.29,0.08,0.06,1.84,FLYING,CF1-F,0:/Integrated Flight Computer/aircraft/cf1_f_cfg.ks (inferred preloaded)
2.12,APPROACH,FLY_TO_FIX,77.54,74.68,-2.86,1342.59,0.33,8.79,8.74,92.54,12.917,0,0,0,1,0.6,4.5,0.75,0.35,0.0168,0.4,182.54,0,0,0,0.24,157.46,0,0,182.38,0,0,0,0,0,0,0,40.834,0,0,0,0,0,89.94,0,0,0,0,0,0,0,0,0,0,0,0,0,1,1,0,0,VALID,0,0,0,0,0,1,0,0,0,0,0,0,0,0,0,0,0,0,0,0,109.13,402.3,2,0,0.06,0.06,29,14.29,0.08,0.06,2.12,FLYING,CF1-F,0:/Integrated Flight Computer/aircraft/cf1_f_cfg.ks (inferred preloaded)
2.4,APPROACH,FLY_TO_FIX,77.47,74.9,-2.56,1342.7,0.41,8.81,8.79,93.35,15.719,0,0,0,1,0.6,4.5,0.75,0.35,0.0168,0.4,183.35,0,0,0,0.3,156.69,0,0,183.17,0,0,0,0,0,0,0,40.858,0,0,0,0,0,89.94,0,0,0,0,0,0,0,0,0,0,0,0,0,1,1,0,0,VALID,0,0,0,0,0,1,0,0,0,0,0,0,0,0,0,0,0,0,0,0,111.17,402.34,2,0,0.06,0.06,33,14.29,0.08,0.06,2.4,FLYING,CF1-F,0:/Integrated Flight Computer/aircraft/cf1_f_cfg.ks (inferred preloaded)
2.68,APPROACH,FLY_TO_FIX,77.4,75.13,-2.28,1342.82,0.47,8.78,8.8,94.21,17.97,0,0,0,1,0.6,4.5,0.75,0.35,0.0168,0.4,184.21,0,0,0,0.35,155.87,0,0,184.02,0,0,0,0,0,0,0,40.882,0,0,0,0,0,89.94,0,0,0,0,0,0,0,0,0,0,0,0,0,1,1,0,0,VALID,0,0,0,0,0,1,0,0,0,0,0,0,0,0,0,0,0,0,0,0,113.34,402.38,2,0,0.06,0.06,37,14.29,0.08,0.06,2.68,FLYING,CF1-F,0:/Integrated Flight Computer/aircraft/cf1_f_cfg.ks (inferred preloaded)
2.96,APPROACH,FLY_TO_FIX,77.34,75.35,-1.99,1342.95,0.5,8.68,8.79,95.15,19.402,0,0,0,1,0.6,4.5,0.75,0.35,0.0168,0.4,185.15,0,0,0,0.37,154.98,0,0,184.95,0,0,0,0,0,0,0,40.906,0,0,0,0,0,89.94,0,0,0,0,0,0,0,0,0,0,0,0,0,1,1,0,0,VALID,0,0,0,0,0,1,0,0,0,0,0,0,0,0,0,0,0,0,0,0,115.76,402.41,2,0,0.06,0.06,41,14.29,0.08,0.06,2.96,FLYING,CF1-F,0:/Integrated Flight Computer/aircraft/cf1_f_cfg.ks (inferred preloaded)
3.24,APPROACH,FLY_TO_FIX,77.28,75.58,-1.71,1343.08,0.5,8.61,8.79,96,19.941,0,0,0,1,0.6,4.5,0.75,0.35,0.0168,0.4,186,0,0,0,0.37,154.18,0,0,185.83,0,0,0,0,0,0,0,40.93,0,0,0,0,0,89.94,0,0,0,0,0,0,0,0,0,0,0,0,0,1,1,0,0,VALID,0,0,0,0,0,1,0,0,0,0,0,0,0,0,0,0,0,0,0,0,118.36,402.44,2,0,0.06,0.06,45,14.29,0.08,0.06,3.24,FLYING,CF1-F,0:/Integrated Flight Computer/aircraft/cf1_f_cfg.ks (inferred preloaded)
3.52,APPROACH,FLY_TO_FIX,77.23,75.8,-1.43,1343.21,0.5,8.56,8.77,96.75,20.278,0,0,0,1,0.6,4.5,0.75,0.35,0.0168,0.4,186.75,0,0,0,0.37,153.47,0,0,186.6,0,0,0,0,0,0,0,40.954,0,0,0,0,0,89.94,0,0,0,0,0,0,0,0,0,0,0,0,0,1,1,0,0,VALID,0,0,0,0,0,1,0,0,0,0,0,0,0,0,0,0,0,0,0,0,121.11,402.47,2,0,0.06,0.06,49,14.29,0.08,0.06,3.52,FLYING,CF1-F,0:/Integrated Flight Computer/aircraft/cf1_f_cfg.ks (inferred preloaded)
3.8,APPROACH,FLY_TO_FIX,77.18,76.02,-1.16,1343.34,0.51,8.52,8.74,97.46,20.567,0,0,0,1,0.6,4.5,0.75,0.35,0.0168,0.4,187.46,0,0,0,0.38,152.81,0,0,187.31,0,0,0,0,0,0,0,40.978,0,0,0,0,0,89.94,0,0,0,0,0,0,0,0,0,0,0,0,0,1,1,0,0,VALID,0,0,0,0,0,1,0,0,0,0,0,0,0,0,0,0,0,0,0,0,124.04,402.5,2,0,0.06,0.06,53,14.29,0.08,0.06,3.8,FLYING,CF1-F,0:/Integrated Flight Computer/aircraft/cf1_f_cfg.ks (inferred preloaded)
4.08,APPROACH,FLY_TO_FIX,77.14,76.25,-0.89,1343.48,0.5,8.49,8.73,98.16,20.811,0,0,0,1,0.6,4.5,0.75,0.35,0.0168,0.4,188.16,0,0,0,0.37,152.16,0,0,188.01,0,0,0,0,0,0,0,41.002,0,0,0,0,0,89.94,0,0,0,0,0,0,0,0,0,0,0,0,0,1,1,0,0,VALID,0,0,0,0,0,1,0,0,0,0,0,0,0,0,0,0,0,0,0,0,127.04,402.52,2,0,0.06,0.06,57,14.29,0.08,0.06,4.08,FLYING,CF1-F,0:/Integrated Flight Computer/aircraft/cf1_f_cfg.ks (inferred preloaded)
4.36,APPROACH,FLY_TO_FIX,77.11,76.47,-0.64,1343.61,0.5,8.46,8.71,98.86,21.003,0,0,0,1,0.6,4.5,0.75,0.35,0.0168,0.4,188.86,0,0,0,0.37,151.51,0,0,188.71,0,0,0,0,0,0,0,41.026,0,0,0,0,0,89.94,0,0,0,0,0,0,0,0,0,0,0,0,0,1,1,0,0,VALID,0,0,0,0,0,1,0,0,0,0,0,0,0,0,0,0,0,0,0,0,130.05,402.53,2,0,0.06,0.06,61,14.29,0.08,0.06,4.36,FLYING,CF1-F,0:/Integrated Flight Computer/aircraft/cf1_f_cfg.ks (inferred preloaded)
4.64,APPROACH,FLY_TO_FIX,77.1,76.7,-0.4,1343.74,0.47,8.4,8.66,99.54,21.093,0,0,-0.081,1,0.6,4.5,0.75,0.35,0.0168,0.4,189.54,0,0,0,0.35,150.88,0,0,189.39,0,0,0,0,0,0,0,41.05,0,0,0,0,0,89.94,0,0,0,0,0,0,0,0,0,0,0,0,0,1,1,0,0,VALID,0,0,0,0,0,1,0,0,0,0,0,0,0,0,0,0,0,0,0,0,133.02,402.53,2,0,0.06,0.06,65,14.29,0.08,0.06,4.64,FLYING,CF1-F,0:/Integrated Flight Computer/aircraft/cf1_f_cfg.ks (inferred preloaded)
4.92,APPROACH,FLY_TO_FIX,77.09,76.92,-0.17,1343.86,0.44,8.36,8.65,100.23,21.163,0,0,-0.079,1,0.6,4.5,0.75,0.35,0.0168,0.4,190.23,0,0,0,0.33,150.24,0,0,190.08,0,0,0,0,0,0,0,41.074,0,0,0,0,0,89.94,0,0,0,0,0,0,0,0,0,0,0,0,0,1,1,0,0,VALID,0,0,0,0,0,1,0,0,0,0,0,0,0,0,0,0,0,0,0,0,135.92,402.52,2,0,0.06,0.06,69,14.29,0.08,0.06,4.92,FLYING,CF1-F,0:/Integrated Flight Computer/aircraft/cf1_f_cfg.ks (inferred preloaded)
5.2,APPROACH,FLY_TO_FIX,77.11,77,-0.11,1343.97,0.42,8.33,8.63,100.92,21.221,0,0,-0.078,1,0.6,4.5,0.75,0.35,0.0168,0.4,190.92,0,0,0,0.31,149.61,0,0,190.77,0,0,0,0,0,0,0,41.098,0,0,0,0,0,89.94,0,0,0,0,0,0,0,0,0,0,0,0,0,1,1,0,0,VALID,0,0,0,0,0,1,0,0,0,0,0,0,0,0,0,0,0,0,0,0,138.73,402.51,2,0,0.06,0.06,73,14.29,0.08,0.06,5.2,FLYING,CF1-F,0:/Integrated Flight Computer/aircraft/cf1_f_cfg.ks (inferred preloaded)
5.48,APPROACH,FLY_TO_FIX,77.13,77,-0.13,1344.08,0.4,8.3,8.62,101.61,21.272,0,0,-0.076,1,0.6,4.5,0.75,0.35,0.0168,0.4,191.61,0,0,0,0.29,148.97,0,0,191.46,0,0,0,0,0,0,0,41.122,0,0,0,0,0,89.94,0,0,0,0,0,0,0,0,0,0,0,0,0,1,1,0,0,VALID,0,0,0,0,0,1,0,0,0,0,0,0,0,0,0,0,0,0,0,0,141.41,402.49,2,0,0.06,0.06,77,14.29,0.08,0.06,5.48,FLYING,CF1-F,0:/Integrated Flight Computer/aircraft/cf1_f_cfg.ks (inferred preloaded)
5.78,APPROACH,FLY_TO_FIX,77.17,77,-0.17,1344.19,0.37,8.26,8.6,102.35,21.32,0,0,-0.075,1,0.6,4.5,0.75,0.35,0.0168,0.4,192.35,0,0,0,0.28,148.29,0,0,192.2,0,0,0,0,0,0,0,41.147,0,0,0,0,0,89.94,0,0,0,0,0,0,0,0,0,0,0,0,0,1,1,0,0,VALID,0,0,0,0,0,1,0,0,0,0,0,0,0,0,0,0,0,0,0,0,144.13,402.45,2,0,0.06,0.06,81,13.33,0.08,0.06,5.78,FLYING,CF1-F,0:/Integrated Flight Computer/aircraft/cf1_f_cfg.ks (inferred preloaded)
6.1,APPROACH,FLY_TO_FIX,77.22,77,-0.22,1344.3,0.34,8.22,8.57,103.14,21.367,0,0,-0.073,1,0.6,4.5,0.75,0.35,0.0168,0.4,193.14,0,0,0,0.25,147.56,0,0,192.94,0,0,0,0,0,0,0,41.174,0,0,0,0,0,89.94,0,0,0,0,0,0,0,0,0,0,0,0,0,1,1,0,0,VALID,0,0,0,0,0,1,0,0,0,0,0,0,0,0,0,0,0,0,0,0,146.8,402.41,2,0,0.08,0.08,85,12.5,0.1,0.06,6.1,FLYING,CF1-F,0:/Integrated Flight Computer/aircraft/cf1_f_cfg.ks (inferred preloaded)
6.38,APPROACH,FLY_TO_FIX,77.28,77,-0.28,1344.38,0.32,8.18,8.55,103.83,21.404,0,0,-0.072,1,0.6,4.5,0.75,0.35,0.0168,0.4,193.83,0,0,0,0.24,146.93,0,0,193.68,0,0,0,0,0,0,0,41.198,0,0,0,0,0,89.94,0,0,0,0,0,0,0,0,0,0,0,0,0,1,1,0,0,VALID,0,0,0,0,0,1,0,0,0,0,0,0,0,0,0,0,0,0,0,0,148.91,402.37,2,0,0.06,0.06,89,14.29,0.08,0.06,6.38,FLYING,CF1-F,0:/Integrated Flight Computer/aircraft/cf1_f_cfg.ks (inferred preloaded)
6.68,APPROACH,FLY_TO_FIX,77.35,77,-0.35,1344.47,0.29,8.13,8.53,104.57,21.443,0,0,-0.07,1,0.6,4.5,0.75,0.35,0.0168,0.4,194.57,0,0,0,0.22,146.25,0,0,194.42,0,0,0,0,0,0,0,41.223,0,0,0,0,0,89.94,0,0,0,0,0,0,0,0,0,0,0,0,0,1,1,0,0,VALID,0,0,0,0,0,1,0,0,0,0,0,0,0,0,0,0,0,0,0,0,150.9,402.32,2,0,0.06,0.06,93,13.33,0.08,0.06,6.68,FLYING,CF1-F,0:/Integrated Flight Computer/aircraft/cf1_f_cfg.ks (inferred preloaded)
7,APPROACH,FLY_TO_FIX,77.43,77,-0.43,1344.55,0.27,8.09,8.5,105.36,21.483,0,0,-0.069,1,0.6,4.5,0.75,0.35,0.0168,0.4,195.36,0,0,0,0.2,145.53,0,0,195.16,0,0,0,0,0,0,0,41.251,0,0,0,0,0,89.94,0,0,0,0,0,0,0,0,0,0,0,0,0,1,1,0,0,VALID,0,0,0,0,0,1,0,0,0,0,0,0,0,0,0,0,0,0,0,0,152.71,402.25,2,0,0.08,0.08,97,12.5,0.1,0.06,7,FLYING,CF1-F,0:/Integrated Flight Computer/aircraft/cf1_f_cfg.ks (inferred preloaded)
7.28,APPROACH,FLY_TO_FIX,77.51,77,-0.51,1344.61,0.24,8.04,8.46,106.05,21.516,0,0,-0.068,1,0.6,4.5,0.75,0.35,0.0168,0.4,196.05,0,0,0,0.18,144.9,0,0,195.9,0,0,0,0,0,0,0,41.274,0,0,0,0,0,89.94,0,0,0,0,0,0,0,0,0,0,0,0,0,1,1,0,0,VALID,0,0,0,0,0,1,0,0,0,0,0,0,0,0,0,0,0,0,0,0,153.99,402.19,2,0,0.06,0.06,101,14.29,0.08,0.06,7.28,FLYING,CF1-F,0:/Integrated Flight Computer/aircraft/cf1_f_cfg.ks (inferred preloaded)
7.58,APPROACH,FLY_TO_FIX,77.61,77,-0.61,1344.67,0.22,8,8.44,106.79,21.553,0,0,-0.066,1,0.6,4.5,0.75,0.35,0.0168,0.4,196.79,0,0,0,0.16,144.23,0,0,196.64,0,0,0,0,0,0,0,41.299,0,0,0,0,0,89.94,0,0,0,0,0,0,0,0,0,0,0,0,0,1,1,0,0,VALID,0,0,0,0,0,1,0,0,0,0,0,0,0,0,0,0,0,0,0,0,155.02,402.13,2,0,0.06,0.06,105,13.33,0.08,0.06,7.58,FLYING,CF1-F,0:/Integrated Flight Computer/aircraft/cf1_f_cfg.ks (inferred preloaded)
7.9,APPROACH,FLY_TO_FIX,77.71,77,-0.71,1344.73,0.19,7.95,8.4,107.58,21.594,0,0,-0.065,1,0.6,4.5,0.75,0.35,0.0168,0.4,197.58,0,0,0,0.14,143.51,0,0,197.38,0,0,0,0,0,0,0,41.326,0,0,0,0,0,89.94,0,0,0,0,0,0,0,0,0,0,0,0,0,1,1,0,0,VALID,0,0,0,0,0,1,0,0,0,0,0,0,0,0,0,0,0,0,0,0,155.74,402.05,2,0,0.08,0.08,109,12.5,0.1,0.06,7.9,FLYING,CF1-F,0:/Integrated Flight Computer/aircraft/cf1_f_cfg.ks (inferred preloaded)
8.2,APPROACH,FLY_TO_FIX,77.82,77,-0.82,1344.77,0.17,7.9,8.37,108.33,21.633,0,0,-0.064,1,0.6,4.5,0.75,0.35,0.0168,0.4,198.33,0,0,0,0.13,142.83,0,0,198.18,0,0,0,0,0,0,0,41.351,0,0,0,0,0,89.94,0,0,0,0,0,0,0,0,0,0,0,0,0,1,1,0,0,VALID,0,0,0,0,0,1,0,0,0,0,0,0,0,0,0,0,0,0,0,0,156.04,401.98,2,0,0.06,0.06,113,13.33,0.1,0.06,8.2,FLYING,CF1-F,0:/Integrated Flight Computer/aircraft/cf1_f_cfg.ks (inferred preloaded)
8.5,APPROACH,FLY_TO_FIX,77.92,77,-0.92,1344.81,0.15,7.86,8.35,109.07,21.673,0,0,-0.062,1,0.6,4.5,0.75,0.35,0.0168,0.4,199.07,0,0,0,0.11,142.16,0,0,198.92,0,0,0,0,0,0,0,41.376,0,0,0,0,0,89.94,0,0,0,0,0,0,0,0,0,0,0,0,0,1,1,0,0,VALID,0,0,0,0,0,1,0,0,0,0,0,0,0,0,0,0,0,0,0,0,155.77,401.9,2,0,0.06,0.06,117,13.33,0.08,0.06,8.5,FLYING,CF1-F,0:/Integrated Flight Computer/aircraft/cf1_f_cfg.ks (inferred preloaded)
8.82,APPROACH,FLY_TO_FIX,78.04,77,-1.04,1344.85,0.12,7.82,8.32,109.87,21.716,0,0,-0.061,1,0.6,4.5,0.75,0.35,0.0168,0.4,199.87,0,0,0,0.09,141.44,0,0,199.67,0,0,0,0,0,0,0,41.403,0,0,0,0,0,89.94,0,0,0,0,0,0,0,0,0,0,0,0,0,1,1,0,0,VALID,0,0,0,0,0,1,0,0,0,0,0,0,0,0,0,0,0,0,0,0,154.12,401.82,2,0,0.08,0.08,121,12.5,0.1,0.06,8.82,FLYING,CF1-F,0:/Integrated Flight Computer/aircraft/cf1_f_cfg.ks (inferred preloaded)
9.12,APPROACH,FLY_TO_FIX,78.13,77,-1.13,1344.88,0.1,7.79,8.31,110.62,21.757,0,0,-0.06,1,0.6,4.5,0.75,0.35,0.0168,0.4,200.62,0,0,0,0.07,140.76,0,0,200.47,0,0,0,0,0,0,0,41.428,0,0,0,0,0,89.94,0,0,0,0,0,0,0,0,0,0,0,0,0,1,1,0,0,VALID,0,0,0,0,0,1,0,0,0,0,0,0,0,0,0,0,0,0,0,0,151.57,401.75,2,0,0.06,0.06,125,13.33,0.1,0.06,9.12,FLYING,CF1-F,0:/Integrated Flight Computer/aircraft/cf1_f_cfg.ks (inferred preloaded)
9.42,APPROACH,FLY_TO_FIX,78.22,77,-1.22,1344.9,0.08,7.76,8.29,111.37,21.797,0,0,-0.059,1,0.6,4.5,0.75,0.35,0.0168,0.4,201.37,0,0,0,0.06,140.08,0,0,201.22,0,0,0,0,0,0,0,41.453,0,0,0,0,0,89.94,0,0,0,0,0,0,0,0,0,0,0,0,0,1,1,0,0,VALID,0,0,0,0,0,1,0,0,0,0,0,0,0,0,0,0,0,0,0,0,148.34,401.69,2,0,0.06,0.06,129,13.33,0.08,0.06,9.42,FLYING,CF1-F,0:/Integrated Flight Computer/aircraft/cf1_f_cfg.ks (inferred preloaded)
9.74,APPROACH,FLY_TO_FIX,78.3,77,-1.3,1344.92,0.05,7.74,8.29,112.17,21.84,0,0,-0.058,1,0.6,4.5,0.75,0.35,0.0168,0.4,202.17,0,0,0,0.04,139.36,0,0,201.97,0,0,0,0,0,0,0,41.48,0,0,0,0,0,89.94,0,0,0,0,0,0,0,0,0,0,0,0,0,1,1,0,0,VALID,0,0,0,0,0,1,0,0,0,0,0,0,0,0,0,0,0,0,0,0,144.43,401.64,2,0,0.08,0.08,133,12.5,0.1,0.06,9.74,FLYING,CF1-F,0:/Integrated Flight Computer/aircraft/cf1_f_cfg.ks (inferred preloaded)
10.02,APPROACH,FLY_TO_FIX,78.35,77,-1.35,1344.93,0.03,7.72,8.29,112.88,21.875,0,0,-0.056,1,0.6,4.5,0.75,0.35,0.0168,0.4,202.88,0,0,0,0.02,138.72,0,0,202.73,0,0,0,0,0,0,0,41.503,0,0,0,0,0,89.94,0,0,0,0,0,0,0,0,0,0,0,0,0,1,1,0,0,VALID,0,0,0,0,0,1,0,0,0,0,0,0,0,0,0,0,0,0,0,0,140.83,401.6,2,0,0.06,0.06,137,14.29,0.08,0.06,10.02,FLYING,CF1-F,0:/Integrated Flight Computer/aircraft/cf1_f_cfg.ks (inferred preloaded)
10.32,APPROACH,FLY_TO_FIX,78.4,77,-1.4,1344.93,0.01,7.71,8.3,113.64,21.911,0,0,-0.055,1,0.6,4.5,0.75,0.35,0.0168,0.4,203.64,0,0,0,0.01,138.03,0,0,203.49,0,0,0,0,0,0,0,41.527,0,0,0,0,0,89.94,0,0,0,0,0,0,0,0,0,0,0,0,0,1,1,0,0,VALID,0,0,0,0,0,1,0,0,0,0,0,0,0,0,0,0,0,0,0,0,136.98,401.57,2,0,0.06,0.06,141,13.33,0.08,0.06,10.32,FLYING,CF1-F,0:/Integrated Flight Computer/aircraft/cf1_f_cfg.ks (inferred preloaded)
10.64,APPROACH,FLY_TO_FIX,78.43,77,-1.43,1344.93,-0.01,7.7,8.31,114.46,21.947,0,0,-0.054,1,0.6,4.5,0.75,0.35,0.0168,0.4,204.46,0,0,0,-0.01,137.3,0,0,204.25,0,0,0,0,0,0,0,41.553,0,0,0,0,0,89.94,0,0,0,0,0,0,0,0,0,0,0,0,0,1,1,0,0,VALID,0,0,0,0,0,1,0,0,0,0,0,0,0,0,0,0,0,0,0,0,133.03,401.55,2,0,0.08,0.08,145,12.5,0.1,0.06,10.64,FLYING,CF1-F,0:/Integrated Flight Computer/aircraft/cf1_f_cfg.ks (inferred preloaded)
10.94,APPROACH,FLY_TO_FIX,78.44,77,-1.44,1344.92,-0.04,7.7,8.32,115.22,21.976,0,0,-0.053,1,0.6,4.5,0.75,0.35,0.0168,0.4,205.22,0,0,0,-0.03,136.62,0,0,205.07,0,0,0,0,0,0,0,41.578,0,0,0,0,0,89.94,0,0,0,0,0,0,0,0,0,0,0,0,0,1,1,0,0,VALID,0,0,0,0,0,1,0,0,0,0,0,0,0,0,0,0,0,0,0,0,129.6,401.54,2,0,0.06,0.06,149,13.33,0.1,0.06,10.94,FLYING,CF1-F,0:/Integrated Flight Computer/aircraft/cf1_f_cfg.ks (inferred preloaded)
11.24,APPROACH,FLY_TO_FIX,78.44,77,-1.44,1344.9,-0.06,7.7,8.33,115.99,22.002,0,0,-0.052,1,0.6,4.5,0.75,0.35,0.0168,0.4,205.99,0,0,0,-0.04,135.93,0,0,205.84,0,0,0,0,0,0,0,41.602,0,0,0,0,0,89.94,0,0,0,0,0,0,0,0,0,0,0,0,0,1,1,0,0,VALID,0,0,0,0,0,1,0,0,0,0,0,0,0,0,0,0,0,0,0,0,126.51,401.54,2,0,0.06,0.06,153,13.33,0.08,0.06,11.24,FLYING,CF1-F,0:/Integrated Flight Computer/aircraft/cf1_f_cfg.ks (inferred preloaded)
11.56,APPROACH,FLY_TO_FIX,78.43,77,-1.43,1344.88,-0.08,7.7,8.35,116.81,22.025,0,0,-0.051,1,0.6,4.5,0.75,0.35,0.0168,0.4,206.81,0,0,0,-0.06,135.2,0,0,206.6,0,0,0,0,0,0,0,41.628,0,0,0,0,0,89.94,0,0,0,0,0,0,0,0,0,0,0,0,0,1,1,0,0,VALID,0,0,0,0,0,1,0,0,0,0,0,0,0,0,0,0,0,0,0,0,123.68,401.55,2,0,0.08,0.08,157,12.5,0.1,0.06,11.56,FLYING,CF1-F,0:/Integrated Flight Computer/aircraft/cf1_f_cfg.ks (inferred preloaded)
11.84,APPROACH,FLY_TO_FIX,78.4,77,-1.4,1344.86,-0.1,7.7,8.37,117.53,22.041,0,0,-0.05,1,0.6,4.5,0.75,0.35,0.0168,0.4,207.53,0,0,0,-0.07,134.56,0,0,207.37,0,0,0,0,0,0,0,41.65,0,0,0,0,0,89.94,0,0,0,0,0,0,0,0,0,0,0,0,0,1,1,0,0,VALID,0,0,0,0,0,1,0,0,0,0,0,0,0,0,0,0,0,0,0,0,121.61,401.56,2,0,0.06,0.06,161,14.29,0.08,0.06,11.84,FLYING,CF1-F,0:/Integrated Flight Computer/aircraft/cf1_f_cfg.ks (inferred preloaded)
12.14,APPROACH,FLY_TO_FIX,78.37,77,-1.37,1344.82,-0.13,7.7,8.39,118.29,22.053,0,0,-0.049,1,0.6,4.5,0.75,0.35,0.0168,0.4,208.29,0,0,0,-0.09,133.87,0,0,208.14,0,0,0,0,0,0,0,41.674,0,0,0,0,0,89.94,0,0,0,0,0,0,0,0,0,0,0,0,0,1,1,0,0,VALID,0,0,0,0,0,1,0,0,0,0,0,0,0,0,0,0,0,0,0,0,119.82,401.59,2,0,0.06,0.06,165,13.33,0.08,0.06,12.14,FLYING,CF1-F,0:/Integrated Flight Computer/aircraft/cf1_f_cfg.ks (inferred preloaded)
12.46,APPROACH,FLY_TO_FIX,78.33,77,-1.33,1344.78,-0.15,7.7,8.41,119.11,22.059,0,0,-0.048,1,0.6,4.5,0.75,0.35,0.0168,0.4,209.11,0,0,0,-0.11,133.14,0,0,208.91,0,0,0,0,0,0,0,41.699,0,0,0,0,0,89.94,0,0,0,0,0,0,0,0,0,0,0,0,0,1,1,0,0,VALID,0,0,0,0,0,1,0,0,0,0,0,0,0,0,0,0,0,0,0,0,118.39,401.62,2,0,0.08,0.08,169,12.5,0.1,0.06,12.46,FLYING,CF1-F,0:/Integrated Flight Computer/aircraft/cf1_f_cfg.ks (inferred preloaded)
12.74,APPROACH,FLY_TO_FIX,78.29,77,-1.29,1344.73,-0.17,7.71,8.43,119.83,22.06,0,0,-0.047,1,0.6,4.5,0.75,0.35,0.0168,0.4,209.83,0,0,0,-0.13,132.5,0,0,209.68,0,0,0,0,0,0,0,41.721,0,0,0,0,0,89.94,0,0,0,0,0,0,0,0,0,0,0,0,0,1,1,0,0,VALID,0,0,0,0,0,1,0,0,0,0,0,0,0,0,0,0,0,0,0,0,117.54,401.65,2,0,0.06,0.06,173,14.29,0.08,0.06,12.74,FLYING,CF1-F,0:/Integrated Flight Computer/aircraft/cf1_f_cfg.ks (inferred preloaded)
13.04,APPROACH,FLY_TO_FIX,78.24,77,-1.24,1344.68,-0.2,7.71,8.45,120.6,22.058,0,0,-0.046,1,0.6,4.5,0.75,0.35,0.0168,0.4,210.6,0,0,0,-0.14,131.82,0,0,210.45,0,0,0,0,0,0,0,41.744,0,0,0,0,0,89.94,0,0,0,0,0,0,0,0,0,0,0,0,0,1,1,0,0,VALID,0,0,0,0,0,1,0,0,0,0,0,0,0,0,0,0,0,0,0,0,116.99,401.68,2,0,0.06,0.06,177,13.33,0.08,0.06,13.04,FLYING,CF1-F,0:/Integrated Flight Computer/aircraft/cf1_f_cfg.ks (inferred preloaded)
13.36,APPROACH,FLY_TO_FIX,78.18,77,-1.18,1344.61,-0.22,7.71,8.47,121.42,22.052,0,0,-0.045,1,0.6,4.5,0.75,0.35,0.0168,0.4,211.42,0,0,0,-0.16,131.09,0,0,211.22,0,0,0,0,0,0,0,41.769,0,0,0,0,0,89.94,0,0,0,0,0,0,0,0,0,0,0,0,0,1,1,0,0,VALID,0,0,0,0,0,1,0,0,0,0,0,0,0,0,0,0,0,0,0,0,116.8,401.72,2,0,0.08,0.08,181,12.5,0.1,0.06,13.36,FLYING,CF1-F,0:/Integrated Flight Computer/aircraft/cf1_f_cfg.ks (inferred preloaded)
13.66,APPROACH,FLY_TO_FIX,78.14,77,-1.14,1344.54,-0.24,7.71,8.49,122.19,22.046,0,0,-0.044,1,0.6,4.5,0.75,0.35,0.0168,0.4,212.19,0,0,0,-0.18,130.41,0,0,212.04,0,0,0,0,0,0,0,41.792,0,0,0,0,0,89.94,0,0,0,0,0,0,0,0,0,0,0,0,0,1,1,0,0,VALID,0,0,0,0,0,1,0,0,0,0,0,0,0,0,0,0,0,0,0,0,116.84,401.75,2,0,0.06,0.06,185,13.33,0.1,0.06,13.66,FLYING,CF1-F,0:/Integrated Flight Computer/aircraft/cf1_f_cfg.ks (inferred preloaded)
13.96,APPROACH,FLY_TO_FIX,78.09,77,-1.09,1344.46,-0.27,7.71,8.5,122.96,22.035,0,0,-0.043,1,0.6,4.5,0.75,0.35,0.0168,0.4,212.96,0,0,0,-0.19,129.73,0,0,212.8,0,0,0,0,0,0,0,41.815,0,0,0,0,0,89.94,0,0,0,0,0,0,0,0,0,0,0,0,0,1,1,0,0,VALID,0,0,0,0,0,1,0,0,0,0,0,0,0,0,0,0,0,0,0,0,116.96,401.79,2,0,0.06,0.06,189,13.33,0.08,0.06,13.96,FLYING,CF1-F,0:/Integrated Flight Computer/aircraft/cf1_f_cfg.ks (inferred preloaded)
14.28,APPROACH,FLY_TO_FIX,78.03,77,-1.03,1344.37,-0.29,7.71,8.52,123.77,22.019,0,0,-0.043,1,0.6,4.5,0.75,0.35,0.0168,0.4,213.77,0,0,0,-0.21,129.01,0,0,213.57,0,0,0,0,0,0,0,41.839,0,0,0,0,0,89.94,0,0,0,0,0,0,0,0,0,0,0,0,0,1,1,0,0,VALID,0,0,0,0,0,1,0,0,0,0,0,0,0,0,0,0,0,0,0,0,117.17,401.83,2,0,0.08,0.08,193,12.5,0.1,0.06,14.28,FLYING,CF1-F,0:/Integrated Flight Computer/aircraft/cf1_f_cfg.ks (inferred preloaded)
14.56,APPROACH,FLY_TO_FIX,77.99,77,-0.99,1344.29,-0.31,7.71,8.53,124.49,22.003,0,0,-0.042,1,0.6,4.5,0.75,0.35,0.0168,0.4,214.49,0,0,0,-0.23,128.37,0,0,214.34,0,0,0,0,0,0,0,41.86,0,0,0,0,0,89.94,0,0,0,0,0,0,0,0,0,0,0,0,0,1,1,0,0,VALID,0,0,0,0,0,1,0,0,0,0,0,0,0,0,0,0,0,0,0,0,117.42,401.86,2,0,0.06,0.06,197,14.29,0.08,0.06,14.56,FLYING,CF1-F,0:/Integrated Flight Computer/aircraft/cf1_f_cfg.ks (inferred preloaded)
14.86,APPROACH,FLY_TO_FIX,77.95,77,-0.95,1344.19,-0.33,7.71,8.54,125.25,21.985,0,0,-0.041,1,0.6,4.5,0.75,0.35,0.0168,0.4,215.25,0,0,0,-0.24,127.7,0,0,215.1,0,0,0,0,0,0,0,41.882,0,0,0,0,0,89.94,0,0,0,0,0,0,0,0,0,0,0,0,0,1,1,0,0,VALID,0,0,0,0,0,1,0,0,0,0,0,0,0,0,0,0,0,0,0,0,117.78,401.89,2,0,0.06,0.06,201,13.33,0.08,0.06,14.86,FLYING,CF1-F,0:/Integrated Flight Computer/aircraft/cf1_f_cfg.ks (inferred preloaded)
15.18,APPROACH,FLY_TO_FIX,77.9,77,-0.9,1344.08,-0.36,7.71,8.56,126.07,21.962,0,0,-0.04,1,0.6,4.5,0.75,0.35,0.0168,0.4,216.07,0,0,0,-0.26,126.98,0,0,215.87,0,0,0,0,0,0,0,41.906,0,0,0,0,0,89.94,0,0,0,0,0,0,0,0,0,0,0,0,0,1,1,0,0,VALID,0,0,0,0,0,1,0,0,0,0,0,0,0,0,0,0,0,0,0,0,118.24,401.93,2,0,0.08,0.08,205,12.5,0.1,0.06,15.18,FLYING,CF1-F,0:/Integrated Flight Computer/aircraft/cf1_f_cfg.ks (inferred preloaded)
15.46,APPROACH,FLY_TO_FIX,77.86,77,-0.86,1343.98,-0.38,7.71,8.57,126.78,21.943,0,0,-0.039,1,0.6,4.5,0.75,0.35,0.0168,0.4,216.78,0,0,0,-0.28,126.35,0,0,216.63,0,0,0,0,0,0,0,41.926,0,0,0,0,0,89.94,0,0,0,0,0,0,0,0,0,0,0,0,0,1,1,0,0,VALID,0,0,0,0,0,1,0,0,0,0,0,0,0,0,0,0,0,0,0,0,118.71,401.96,2,0,0.06,0.06,209,14.29,0.08,0.06,15.46,FLYING,CF1-F,0:/Integrated Flight Computer/aircraft/cf1_f_cfg.ks (inferred preloaded)
15.76,APPROACH,FLY_TO_FIX,77.82,77,-0.82,1343.86,-0.4,7.71,8.58,127.55,21.923,0,0,-0.039,1,0.6,4.5,0.75,0.35,0.0168,0.4,217.55,0,0,0,-0.29,125.68,0,0,217.39,0,0,0,0,0,0,0,41.948,0,0,0,0,0,89.94,0,0,0,0,0,0,0,0,0,0,0,0,0,1,1,0,0,VALID,0,0,0,0,0,1,0,0,0,0,0,0,0,0,0,0,0,0,0,0,119.29,401.99,2,0,0.06,0.06,213,13.33,0.08,0.06,15.76,FLYING,CF1-F,0:/Integrated Flight Computer/aircraft/cf1_f_cfg.ks (inferred preloaded)
16.08,APPROACH,FLY_TO_FIX,77.79,77,-0.79,1343.73,-0.42,7.7,8.59,128.36,21.9,0,0,-0.038,1,0.6,4.5,0.75,0.35,0.0168,0.4,218.36,0,0,0,-0.31,124.97,0,0,218.16,0,0,0,0,0,0,0,41.971,0,0,0,0,0,89.94,0,0,0,0,0,0,0,0,0,0,0,0,0,1,1,0,0,VALID,0,0,0,0,0,1,0,0,0,0,0,0,0,0,0,0,0,0,0,0,119.98,402.02,2,0,0.08,0.08,217,12.5,0.1,0.06,16.08,FLYING,CF1-F,0:/Integrated Flight Computer/aircraft/cf1_f_cfg.ks (inferred preloaded)
16.38,APPROACH,FLY_TO_FIX,77.75,77,-0.75,1343.6,-0.44,7.7,8.6,129.12,21.879,0,0,-0.037,1,0.6,4.5,0.75,0.35,0.0168,0.4,219.12,0,0,0,-0.32,124.3,0,0,218.97,0,0,0,0,0,0,0,41.992,0,0,0,0,0,89.94,0,0,0,0,0,0,0,0,0,0,0,0,0,1,1,0,0,VALID,0,0,0,0,0,1,0,0,0,0,0,0,0,0,0,0,0,0,0,0,120.69,402.05,2,0,0.06,0.06,221,13.33,0.1,0.06,16.38,FLYING,CF1-F,0:/Integrated Flight Computer/aircraft/cf1_f_cfg.ks (inferred preloaded)
16.68,APPROACH,FLY_TO_FIX,77.73,77,-0.73,1343.47,-0.46,7.7,8.61,129.88,21.859,0,0,-0.036,1,0.6,4.5,0.75,0.35,0.0168,0.4,219.88,0,0,0,-0.33,123.63,0,0,219.73,0,0,0,0,0,0,0,42.013,0,0,0,0,0,89.94,0,0,0,0,0,0,0,0,0,0,0,0,0,1,1,0,0,VALID,0,0,0,0,0,1,0,0,0,0,0,0,0,0,0,0,0,0,0,0,121.45,402.07,2,0,0.06,0.06,225,13.33,0.08,0.06,16.68,FLYING,CF1-F,0:/Integrated Flight Computer/aircraft/cf1_f_cfg.ks (inferred preloaded)
17,APPROACH,FLY_TO_FIX,77.7,77,-0.7,1343.32,-0.47,7.69,8.61,130.69,21.837,0,0,-0.036,1,0.6,4.5,0.75,0.35,0.0168,0.4,220.69,0,0,0,-0.35,122.92,0,0,220.49,0,0,0,0,0,0,0,42.035,0,0,0,0,0,89.94,0,0,0,0,0,0,0,0,0,0,0,0,0,1,1,0,0,VALID,0,0,0,0,0,1,0,0,0,0,0,0,0,0,0,0,0,0,0,0,122.32,402.1,2,0,0.08,0.08,229,12.5,0.1,0.06,17,FLYING,CF1-F,0:/Integrated Flight Computer/aircraft/cf1_f_cfg.ks (inferred preloaded)
17.28,APPROACH,FLY_TO_FIX,77.68,77,-0.68,1343.18,-0.49,7.68,8.62,131.4,21.819,0,0,-0.035,1,0.6,4.5,0.75,0.35,0.0168,0.4,221.4,0,0,0,-0.36,122.3,0,0,221.25,0,0,0,0,0,0,0,42.054,0,0,0,0,0,89.94,0,0,0,0,0,0,0,0,0,0,0,0,0,1,1,0,0,VALID,0,0,0,0,0,1,0,0,0,0,0,0,0,0,0,0,0,0,0,0,123.1,402.12,2,0,0.06,0.06,233,14.29,0.08,0.06,17.28,FLYING,CF1-F,0:/Integrated Flight Computer/aircraft/cf1_f_cfg.ks (inferred preloaded)
17.58,APPROACH,FLY_TO_FIX,77.66,77,-0.66,1343.03,-0.51,7.68,8.62,132.16,21.801,0,0,-0.034,1,0.6,4.5,0.75,0.35,0.0168,0.4,222.16,0,0,0,-0.37,121.64,0,0,222.01,0,0,0,0,0,0,0,42.075,0,0,0,0,0,89.94,0,0,0,0,0,0,0,0,0,0,0,0,0,1,1,0,0,VALID,0,0,0,0,0,1,0,0,0,0,0,0,0,0,0,0,0,0,0,0,123.97,402.13,2,0,0.06,0.06,237,13.33,0.08,0.06,17.58,FLYING,CF1-F,0:/Integrated Flight Computer/aircraft/cf1_f_cfg.ks (inferred preloaded)
17.9,APPROACH,FLY_TO_FIX,77.65,77,-0.65,1342.86,-0.53,7.67,8.62,132.97,21.782,0,0,-0.033,1,0.6,4.5,0.75,0.35,0.0168,0.4,222.97,0,0,0,-0.39,120.93,0,0,222.77,0,0,0,0,0,0,0,42.096,0,0,0,0,0,89.94,0,0,0,0,0,0,0,0,0,0,0,0,0,1,1,0,0,VALID,0,0,0,0,0,1,0,0,0,0,0,0,0,0,0,0,0,0,0,0,124.91,402.15,2,0,0.08,0.08,241,12.5,0.1,0.06,17.9,FLYING,CF1-F,0:/Integrated Flight Computer/aircraft/cf1_f_cfg.ks (inferred preloaded)
18.18,APPROACH,FLY_TO_FIX,77.64,77,-0.64,1342.71,-0.54,7.66,8.62,133.68,21.766,0,0,-0.033,1,0.6,4.5,0.75,0.35,0.0168,0.4,223.68,0,0,0,-0.4,120.32,0,0,223.53,0,0,0,0,0,0,0,42.115,0,0,0,0,0,89.94,0,0,0,0,0,0,0,0,0,0,0,0,0,1,1,0,0,VALID,0,0,0,0,0,1,0,0,0,0,0,0,0,0,0,0,0,0,0,0,125.73,402.16,2,0,0.06,0.06,245,14.29,0.08,0.06,18.18,FLYING,CF1-F,0:/Integrated Flight Computer/aircraft/cf1_f_cfg.ks (inferred preloaded)
18.48,APPROACH,FLY_TO_FIX,77.64,77,-0.64,1342.54,-0.56,7.65,8.62,134.43,21.75,0,0,-0.032,1,0.6,4.5,0.75,0.35,0.0168,0.4,224.43,0,0,0,-0.41,119.66,0,0,224.28,0,0,0,0,0,0,0,42.134,0,0,0,0,0,89.94,0,0,0,0,0,0,0,0,0,0,0,0,0,1,1,0,0,VALID,0,0,0,0,0,1,0,0,0,0,0,0,0,0,0,0,0,0,0,0,126.61,402.17,2,0,0.06,0.06,249,13.33,0.08,0.06,18.48,FLYING,CF1-F,0:/Integrated Flight Computer/aircraft/cf1_f_cfg.ks (inferred preloaded)
18.8,APPROACH,FLY_TO_FIX,77.64,77,-0.64,1342.36,-0.57,7.64,8.62,135.24,21.734,0,0,-0.032,1,0.6,4.5,0.75,0.35,0.0168,0.4,225.24,0,0,0,-0.42,118.96,0,0,225.04,0,0,0,0,0,0,0,42.155,0,0,0,0,0,89.94,0,0,0,0,0,0,0,0,0,0,0,0,0,1,1,0,0,VALID,0,0,0,0,0,1,0,0,0,0,0,0,0,0,0,0,0,0,0,0,127.52,402.18,2,0,0.08,0.08,253,12.5,0.1,0.06,18.8,FLYING,CF1-F,0:/Integrated Flight Computer/aircraft/cf1_f_cfg.ks (inferred preloaded)
19.1,APPROACH,FLY_TO_FIX,77.64,77,-0.64,1342.18,-0.59,7.63,8.62,136,21.721,0,0,-0.031,1,0.6,4.5,0.75,0.35,0.0168,0.4,226,0,0,0,-0.43,118.3,0,0,225.85,0,0,0,0,0,0,0,42.174,0,0,0,0,0,89.94,0,0,0,0,0,0,0,0,0,0,0,0,0,1,1,0,0,VALID,0,0,0,0,0,1,0,0,0,0,0,0,0,0,0,0,0,0,0,0,128.35,402.19,2,0,0.06,0.06,257,13.33,0.1,0.06,19.1,FLYING,CF1-F,0:/Integrated Flight Computer/aircraft/cf1_f_cfg.ks (inferred preloaded)
19.4,APPROACH,FLY_TO_FIX,77.65,77,-0.65,1342,-0.6,7.61,8.62,136.75,21.71,0,0,-0.03,1,0.6,4.5,0.75,0.35,0.0168,0.4,226.75,0,0,0,-0.44,117.65,0,0,226.6,0,0,0,0,0,0,0,42.193,0,0,0,0,0,89.94,0,0,0,0,0,0,0,0,0,0,0,0,0,1,1,0,0,VALID,0,0,0,0,0,1,0,0,0,0,0,0,0,0,0,0,0,0,0,0,129.13,402.19,2,0,0.06,0.06,261,13.33,0.08,0.06,19.4,FLYING,CF1-F,0:/Integrated Flight Computer/aircraft/cf1_f_cfg.ks (inferred preloaded)
19.72,APPROACH,FLY_TO_FIX,77.66,77,-0.66,1341.81,-0.61,7.6,8.61,137.56,21.701,0,0,-0.03,1,0.6,4.5,0.75,0.35,0.0168,0.4,227.56,0,0,0,-0.45,116.95,0,0,227.36,0,0,0,0,0,0,0,42.213,0,0,0,0,0,89.94,0,0,0,0,0,0,0,0,0,0,0,0,0,1,1,0,0,VALID,0,0,0,0,0,1,0,0,0,0,0,0,0,0,0,0,0,0,0,0,129.92,402.19,2,0,0.08,0.08,265,12.5,0.1,0.06,19.72,FLYING,CF1-F,0:/Integrated Flight Computer/aircraft/cf1_f_cfg.ks (inferred preloaded)
20,APPROACH,FLY_TO_FIX,77.67,77,-0.67,1341.63,-0.63,7.59,8.61,138.26,21.694,0,0,-0.029,1,0.6,4.5,0.75,0.35,0.0168,0.4,228.26,0,0,0,-0.46,116.34,0,0,228.11,0,0,0,0,0,0,0,42.231,0,0,0,0,0,89.94,0,0,0,0,0,0,0,0,0,0,0,0,0,1,1,0,0,VALID,0,0,0,0,0,1,0,0,0,0,0,0,0,0,0,0,0,0,0,0,130.54,402.19,2,0,0.06,0.06,269,14.29,0.08,0.06,20,FLYING,CF1-F,0:/Integrated Flight Computer/aircraft/cf1_f_cfg.ks (inferred preloaded)
20.3,APPROACH,FLY_TO_FIX,77.69,77,-0.69,1341.44,-0.64,7.58,8.6,139.01,21.688,0,0,-0.029,1,0.6,4.5,0.75,0.35,0.0168,0.4,229.01,0,0,0,-0.47,115.69,0,0,228.86,0,0,0,0,0,0,0,42.249,0,0,0,0,0,89.94,0,0,0,0,0,0,0,0,0,0,0,0,0,1,1,0,0,VALID,0,0,0,0,0,1,0,0,0,0,0,0,0,0,0,0,0,0,0,0,131.15,402.19,2,0,0.06,0.06,273,13.33,0.08,0.06,20.3,FLYING,CF1-F,0:/Integrated Flight Computer/aircraft/cf1_f_cfg.ks (inferred preloaded)
20.62,APPROACH,FLY_TO_FIX,77.71,77,-0.71,1341.23,-0.65,7.56,8.59,139.82,21.684,0,0,-0.028,1,0.6,4.5,0.75,0.35,0.0168,0.4,229.82,0,0,0,-0.48,115,0,0,229.62,0,0,0,0,0,0,0,42.268,0,0,0,0,0,89.94,0,0,0,0,0,0,0,0,0,0,0,0,0,1,1,0,0,VALID,0,0,0,0,0,1,0,0,0,0,0,0,0,0,0,0,0,0,0,0,131.71,402.18,2,0,0.08,0.08,277,12.5,0.1,0.06,20.62,FLYING,CF1-F,0:/Integrated Flight Computer/aircraft/cf1_f_cfg.ks (inferred preloaded)
20.9,APPROACH,FLY_TO_FIX,77.74,77,-0.74,1341.05,-0.66,7.55,8.58,140.52,21.682,0,0,-0.027,1,0.6,4.5,0.75,0.35,0.0168,0.4,230.52,0,0,0,-0.49,114.39,0,0,230.37,0,0,0,0,0,0,0,42.285,0,0,0,0,0,89.94,0,0,0,0,0,0,0,0,0,0,0,0,0,1,1,0,0,VALID,0,0,0,0,0,1,0,0,0,0,0,0,0,0,0,0,0,0,0,0,132.12,402.17,2,0,0.06,0.06,281,14.29,0.08,0.06,20.9,FLYING,CF1-F,0:/Integrated Flight Computer/aircraft/cf1_f_cfg.ks (inferred preloaded)
21.2,APPROACH,FLY_TO_FIX,77.76,77,-0.76,1340.84,-0.67,7.54,8.58,141.28,21.681,0,0,-0.027,1,0.6,4.5,0.75,0.35,0.0168,0.4,231.28,0,0,0,-0.49,113.74,0,0,231.13,0,0,0,0,0,0,0,42.303,0,0,0,0,0,89.94,0,0,0,0,0,0,0,0,0,0,0,0,0,1,1,0,0,VALID,0,0,0,0,0,1,0,0,0,0,0,0,0,0,0,0,0,0,0,0,132.47,402.17,2,0,0.06,0.06,285,13.33,0.08,0.06,21.2,FLYING,CF1-F,0:/Integrated Flight Computer/aircraft/cf1_f_cfg.ks (inferred preloaded)
21.52,APPROACH,FLY_TO_FIX,77.79,77,-0.79,1340.62,-0.68,7.52,8.57,142.08,21.682,0,0,-0.026,1,0.6,4.5,0.75,0.35,0.0168,0.4,232.08,0,0,0,-0.5,113.05,0,0,231.88,0,0,0,0,0,0,0,42.321,0,0,0,0,0,89.94,0,0,0,0,0,0,0,0,0,0,0,0,0,1,1,0,0,VALID,0,0,0,0,0,1,0,0,0,0,0,0,0,0,0,0,0,0,0,0,132.74,402.16,2,0,0.08,0.08,289,12.5,0.1,0.06,21.52,FLYING,CF1-F,0:/Integrated Flight Computer/aircraft/cf1_f_cfg.ks (inferred preloaded)
21.82,APPROACH,FLY_TO_FIX,77.82,77,-0.82,1340.42,-0.69,7.51,8.56,142.83,21.683,0,0,-0.026,1,0.6,4.5,0.75,0.35,0.0168,0.4,232.83,0,0,0,-0.51,112.4,0,0,232.68,0,0,0,0,0,0,0,42.338,0,0,0,0,0,89.94,0,0,0,0,0,0,0,0,0,0,0,0,0,1,1,0,0,VALID,0,0,0,0,0,1,0,0,0,0,0,0,0,0,0,0,0,0,0,0,132.9,402.15,2,0,0.06,0.06,293,13.33,0.1,0.06,21.82,FLYING,CF1-F,0:/Integrated Flight Computer/aircraft/cf1_f_cfg.ks (inferred preloaded)
22.12,APPROACH,FLY_TO_FIX,77.85,77,-0.85,1340.21,-0.7,7.49,8.55,143.59,21.686,0,0,-0.025,1,0.6,4.5,0.75,0.35,0.0168,0.4,233.59,0,0,0,-0.51,111.75,0,0,233.44,0,0,0,0,0,0,0,42.355,0,0,0,0,0,89.94,0,0,0,0,0,0,0,0,0,0,0,0,0,1,1,0,0,VALID,0,0,0,0,0,1,0,0,0,0,0,0,0,0,0,0,0,0,0,0,132.95,402.14,2,0,0.06,0.06,297,13.33,0.08,0.06,22.12,FLYING,CF1-F,0:/Integrated Flight Computer/aircraft/cf1_f_cfg.ks (inferred preloaded)
22.44,APPROACH,FLY_TO_FIX,77.88,77,-0.88,1339.98,-0.71,7.48,8.55,144.39,21.69,0,0,-0.025,1,0.6,4.5,0.75,0.35,0.0168,0.4,234.39,0,0,0,-0.52,111.06,0,0,234.19,0,0,0,0,0,0,0,42.373,0,0,0,0,0,89.94,0,0,0,0,0,0,0,0,0,0,0,0,0,1,1,0,0,VALID,0,0,0,0,0,1,0,0,0,0,0,0,0,0,0,0,0,0,0,0,132.74,402.12,2,0,0.08,0.08,301,12.5,0.1,0.06,22.44,FLYING,CF1-F,0:/Integrated Flight Computer/aircraft/cf1_f_cfg.ks (inferred preloaded)
22.72,APPROACH,FLY_TO_FIX,77.91,77,-0.91,1339.78,-0.72,7.47,8.54,145.1,21.695,0,0,-0.024,1,0.6,4.5,0.75,0.35,0.0168,0.4,235.1,0,0,0,-0.53,110.45,0,0,234.95,0,0,0,0,0,0,0,42.388,0,0,0,0,0,89.94,0,0,0,0,0,0,0,0,0,0,0,0,0,1,1,0,0,VALID,0,0,0,0,0,1,0,0,0,0,0,0,0,0,0,0,0,0,0,0,132.25,402.12,2,0,0.06,0.06,305,14.29,0.08,0.06,22.72,FLYING,CF1-F,0:/Integrated Flight Computer/aircraft/cf1_f_cfg.ks (inferred preloaded)
23.02,APPROACH,FLY_TO_FIX,77.93,77,-0.93,1339.56,-0.73,7.46,8.54,145.85,21.7,0,0,-0.024,1,0.6,4.5,0.75,0.35,0.0168,0.4,235.85,0,0,0,-0.53,109.8,0,0,235.7,0,0,0,0,0,0,0,42.404,0,0,0,0,0,89.94,0,0,0,0,0,0,0,0,0,0,0,0,0,1,1,0,0,VALID,0,0,0,0,0,1,0,0,0,0,0,0,0,0,0,0,0,0,0,0,131.49,402.11,2,0,0.06,0.06,309,13.33,0.08,0.06,23.02,FLYING,CF1-F,0:/Integrated Flight Computer/aircraft/cf1_f_cfg.ks (inferred preloaded)
23.34,APPROACH,FLY_TO_FIX,77.96,77,-0.96,1339.32,-0.74,7.45,8.54,146.66,21.707,0,0,-0.023,1,0.6,4.5,0.75,0.35,0.0168,0.4,236.66,0,0,0,-0.54,109.11,0,0,236.46,0,0,0,0,0,0,0,42.421,0,0,0,0,0,89.94,0,0,0,0,0,0,0,0,0,0,0,0,0,1,1,0,0,VALID,0,0,0,0,0,1,0,0,0,0,0,0,0,0,0,0,0,0,0,0,130.49,402.1,2,0,0.08,0.08,313,12.5,0.1,0.06,23.34,FLYING,CF1-F,0:/Integrated Flight Computer/aircraft/cf1_f_cfg.ks (inferred preloaded)
23.62,APPROACH,FLY_TO_FIX,77.98,77,-0.98,1339.11,-0.74,7.45,8.54,147.37,21.713,0,0,-0.023,1,0.6,4.5,0.75,0.35,0.0168,0.4,237.37,0,0,0,-0.55,108.5,0,0,237.22,0,0,0,0,0,0,0,42.435,0,0,0,0,0,89.94,0,0,0,0,0,0,0,0,0,0,0,0,0,1,1,0,0,VALID,0,0,0,0,0,1,0,0,0,0,0,0,0,0,0,0,0,0,0,0,129.53,402.1,2,0,0.06,0.06,317,14.29,0.08,0.06,23.62,FLYING,CF1-F,0:/Integrated Flight Computer/aircraft/cf1_f_cfg.ks (inferred preloaded)
23.92,APPROACH,FLY_TO_FIX,77.99,77,-0.99,1338.89,-0.75,7.44,8.54,148.13,21.72,0,0,-0.022,1,0.6,4.5,0.75,0.35,0.0168,0.4,238.13,0,0,0,-0.55,107.85,0,0,237.97,0,0,0,0,0,0,0,42.45,0,0,0,0,0,89.94,0,0,0,0,0,0,0,0,0,0,0,0,0,1,1,0,0,VALID,0,0,0,0,0,1,0,0,0,0,0,0,0,0,0,0,0,0,0,0,128.47,402.1,2,0,0.06,0.06,321,13.33,0.08,0.06,23.92,FLYING,CF1-F,0:/Integrated Flight Computer/aircraft/cf1_f_cfg.ks (inferred preloaded)
24.24,APPROACH,FLY_TO_FIX,78.01,77,-1.01,1338.65,-0.76,7.44,8.54,148.94,21.727,0,0,-0.022,1,0.6,4.5,0.75,0.35,0.0168,0.4,238.94,0,0,0,-0.56,107.16,0,0,238.73,0,0,0,0,0,0,0,42.466,0,0,0,0,0,89.94,0,0,0,0,0,0,0,0,0,0,0,0,0,1,1,0,0,VALID,0,0,0,0,0,1,0,0,0,0,0,0,0,0,0,0,0,0,0,0,127.35,402.1,2,0,0.08,0.08,325,12.5,0.1,0.06,24.24,FLYING,CF1-F,0:/Integrated Flight Computer/aircraft/cf1_f_cfg.ks (inferred preloaded)
24.54,APPROACH,FLY_TO_FIX,78.01,77,-1.01,1338.42,-0.77,7.44,8.54,149.69,21.733,0,0,-0.022,1,0.6,4.5,0.75,0.35,0.0168,0.4,239.69,0,0,0,-0.56,106.51,0,0,239.54,0,0,0,0,0,0,0,42.481,0,0,0,0,0,89.94,0,0,0,0,0,0,0,0,0,0,0,0,0,1,1,0,0,VALID,0,0,0,0,0,1,0,0,0,0,0,0,0,0,0,0,0,0,0,0,126.35,402.11,2,0,0.06,0.06,329,13.33,0.1,0.06,24.54,FLYING,CF1-F,0:/Integrated Flight Computer/aircraft/cf1_f_cfg.ks (inferred preloaded)
24.84,APPROACH,FLY_TO_FIX,78.02,77,-1.02,1338.18,-0.78,7.44,8.55,150.45,21.738,0,0,-0.021,1,0.6,4.5,0.75,0.35,0.0168,0.4,240.45,0,0,0,-0.57,105.86,0,0,240.3,0,0,0,0,0,0,0,42.495,0,0,0,0,0,89.94,0,0,0,0,0,0,0,0,0,0,0,0,0,1,1,0,0,VALID,0,0,0,0,0,1,0,0,0,0,0,0,0,0,0,0,0,0,0,0,125.43,402.11,2,0,0.06,0.06,333,13.33,0.08,0.06,24.84,FLYING,CF1-F,0:/Integrated Flight Computer/aircraft/cf1_f_cfg.ks (inferred preloaded)
25.16,APPROACH,FLY_TO_FIX,78.02,77,-1.02,1337.93,-0.78,7.44,8.55,151.27,21.742,0,0,-0.021,1,0.6,4.5,0.75,0.35,0.0168,0.4,241.27,0,0,0,-0.58,105.16,0,0,241.06,0,0,0,0,0,0,0,42.51,0,0,0,0,0,89.94,0,0,0,0,0,0,0,0,0,0,0,0,0,1,1,0,0,VALID,0,0,0,0,0,1,0,0,0,0,0,0,0,0,0,0,0,0,0,0,124.56,402.13,2,0,0.08,0.08,337,12.5,0.1,0.06,25.16,FLYING,CF1-F,0:/Integrated Flight Computer/aircraft/cf1_f_cfg.ks (inferred preloaded)
25.46,APPROACH,FLY_TO_FIX,78.01,77,-1.01,1337.7,-0.79,7.43,8.56,152.02,21.745,0,0,-0.02,1,0.6,4.5,0.75,0.35,0.0168,0.4,242.02,0,0,0,-0.58,104.51,0,0,241.87,0,0,0,0,0,0,0,42.524,0,0,0,0,0,89.94,0,0,0,0,0,0,0,0,0,0,0,0,0,1,1,0,0,VALID,0,0,0,0,0,1,0,0,0,0,0,0,0,0,0,0,0,0,0,0,123.87,402.14,2,0,0.06,0.06,341,13.33,0.1,0.06,25.46,FLYING,CF1-F,0:/Integrated Flight Computer/aircraft/cf1_f_cfg.ks (inferred preloaded)
25.76,APPROACH,FLY_TO_FIX,78.01,77,-1.01,1337.46,-0.8,7.43,8.56,152.79,21.747,0,0,-0.02,1,0.6,4.5,0.75,0.35,0.0168,0.4,242.79,0,0,0,-0.59,103.86,0,0,242.63,0,0,0,0,0,0,0,42.537,0,0,0,0,0,89.94,0,0,0,0,0,0,0,0,0,0,0,0,0,1,1,0,0,VALID,0,0,0,0,0,1,0,0,0,0,0,0,0,0,0,0,0,0,0,0,123.29,402.15,2,0,0.06,0.06,345,13.33,0.08,0.06,25.76,FLYING,CF1-F,0:/Integrated Flight Computer/aircraft/cf1_f_cfg.ks (inferred preloaded)
26.08,APPROACH,FLY_TO_FIX,78,77,-1,1337.2,-0.81,7.44,8.57,153.6,21.747,0,0,-0.019,1,0.6,4.5,0.75,0.35,0.0168,0.4,243.6,0,0,0,-0.59,103.17,0,0,243.39,0,0,0,0,0,0,0,42.551,0,0,0,0,0,89.94,0,0,0,0,0,0,0,0,0,0,0,0,0,1,1,0,0,VALID,0,0,0,0,0,1,0,0,0,0,0,0,0,0,0,0,0,0,0,0,122.82,402.17,2,0,0.08,0.08,349,12.5,0.1,0.06,26.08,FLYING,CF1-F,0:/Integrated Flight Computer/aircraft/cf1_f_cfg.ks (inferred preloaded)
26.36,APPROACH,FLY_TO_FIX,77.99,77,-0.99,1336.97,-0.82,7.44,8.58,154.31,21.747,0,0,-0.019,1,0.6,4.5,0.75,0.35,0.0168,0.4,244.31,0,0,0,-0.6,102.56,0,0,244.15,0,0,0,0,0,0,0,42.563,0,0,0,0,0,89.94,0,0,0,0,0,0,0,0,0,0,0,0,0,1,1,0,0,VALID,0,0,0,0,0,1,0,0,0,0,0,0,0,0,0,0,0,0,0,0,122.51,402.19,2,0,0.06,0.06,353,14.29,0.08,0.06,26.36,FLYING,CF1-F,0:/Integrated Flight Computer/aircraft/cf1_f_cfg.ks (inferred preloaded)
26.66,APPROACH,FLY_TO_FIX,77.98,77,-0.98,1336.73,-0.82,7.44,8.58,155.07,21.746,0,0,-0.019,1,0.6,4.5,0.75,0.35,0.0168,0.4,245.07,0,0,0,-0.6,101.91,0,0,244.92,0,0,0,0,0,0,0,42.576,0,0,0,0,0,89.94,0,0,0,0,0,0,0,0,0,0,0,0,0,1,1,0,0,VALID,0,0,0,0,0,1,0,0,0,0,0,0,0,0,0,0,0,0,0,0,122.3,402.21,2,0,0.06,0.06,357,13.33,0.08,0.06,26.66,FLYING,CF1-F,0:/Integrated Flight Computer/aircraft/cf1_f_cfg.ks (inferred preloaded)
26.98,APPROACH,FLY_TO_FIX,77.96,77,-0.96,1336.46,-0.83,7.44,8.59,155.88,21.744,0,0,-0.018,1,0.6,4.5,0.75,0.35,0.0168,0.4,245.88,0,0,0,-0.61,101.22,0,0,245.68,0,0,0,0,0,0,0,42.589,0,0,0,0,0,89.94,0,0,0,0,0,0,0,0,0,0,0,0,0,1,1,0,0,VALID,0,0,0,0,0,1,0,0,0,0,0,0,0,0,0,0,0,0,0,0,122.18,402.23,2,0,0.08,0.08,361,12.5,0.1,0.06,26.98,FLYING,CF1-F,0:/Integrated Flight Computer/aircraft/cf1_f_cfg.ks (inferred preloaded)
27.28,APPROACH,FLY_TO_FIX,77.95,77,-0.95,1336.21,-0.84,7.44,8.59,156.64,21.741,0,0,-0.018,1,0.6,4.5,0.75,0.35,0.0168,0.4,246.64,0,0,0,-0.62,100.57,0,0,246.49,0,0,0,0,0,0,0,42.601,0,0,0,0,0,89.94,0,0,0,0,0,0,0,0,0,0,0,0,0,1,1,0,0,VALID,0,0,0,0,0,1,0,0,0,0,0,0,0,0,0,0,0,0,0,0,122.19,402.25,2,0,0.06,0.06,365,13.33,0.1,0.06,27.28,FLYING,CF1-F,0:/Integrated Flight Computer/aircraft/cf1_f_cfg.ks (inferred preloaded)
27.58,APPROACH,FLY_TO_FIX,77.94,77,-0.94,1335.96,-0.85,7.44,8.6,157.4,21.738,0,0,-0.018,1,0.6,4.5,0.75,0.35,0.0168,0.4,247.4,0,0,0,-0.62,99.92,0,0,247.25,0,0,0,0,0,0,0,42.613,0,0,0,0,0,89.94,0,0,0,0,0,0,0,0,0,0,0,0,0,1,1,0,0,VALID,0,0,0,0,0,1,0,0,0,0,0,0,0,0,0,0,0,0,0,0,122.21,402.27,2,0,0.06,0.06,369,13.33,0.08,0.06,27.58,FLYING,CF1-F,0:/Integrated Flight Computer/aircraft/cf1_f_cfg.ks (inferred preloaded)
27.9,APPROACH,FLY_TO_FIX,77.92,77,-0.92,1335.69,-0.85,7.44,8.6,158.21,21.733,0,0,-0.017,1,0.6,4.5,0.75,0.35,0.0168,0.4,248.21,0,0,0,-0.63,99.23,0,0,248.01,0,0,0,0,0,0,0,42.625,0,0,0,0,0,89.94,0,0,0,0,0,0,0,0,0,0,0,0,0,1,1,0,0,VALID,0,0,0,0,0,1,0,0,0,0,0,0,0,0,0,0,0,0,0,0,122.25,402.29,2,0,0.08,0.08,373,12.5,0.1,0.06,27.9,FLYING,CF1-F,0:/Integrated Flight Computer/aircraft/cf1_f_cfg.ks (inferred preloaded)
28.18,APPROACH,FLY_TO_FIX,77.91,77,-0.91,1335.45,-0.86,7.43,8.61,158.92,21.728,0,0,-0.017,1,0.6,4.5,0.75,0.35,0.0168,0.4,248.92,0,0,0,-0.63,98.63,0,0,248.77,0,0,0,0,0,0,0,42.635,0,0,0,0,0,89.94,0,0,0,0,0,0,0,0,0,0,0,0,0,1,1,0,0,VALID,0,0,0,0,0,1,0,0,0,0,0,0,0,0,0,0,0,0,0,0,122.31,402.31,2,0,0.06,0.06,377,14.29,0.08,0.06,28.18,FLYING,CF1-F,0:/Integrated Flight Computer/aircraft/cf1_f_cfg.ks (inferred preloaded)
28.48,APPROACH,FLY_TO_FIX,77.9,77,-0.9,1335.19,-0.87,7.43,8.61,159.68,21.722,0,0,-0.017,1,0.6,4.5,0.75,0.35,0.0168,0.4,249.68,0,0,0,-0.64,97.98,0,0,249.53,0,0,0,0,0,0,0,42.646,0,0,0,0,0,89.94,0,0,0,0,0,0,0,0,0,0,0,0,0,1,1,0,0,VALID,0,0,0,0,0,1,0,0,0,0,0,0,0,0,0,0,0,0,0,0,122.39,402.33,2,0,0.06,0.06,381,13.33,0.08,0.06,28.48,FLYING,CF1-F,0:/Integrated Flight Computer/aircraft/cf1_f_cfg.ks (inferred preloaded)
28.8,APPROACH,FLY_TO_FIX,77.89,77,-0.89,1334.91,-0.87,7.43,8.62,160.49,21.715,0,0,-0.016,1,0.6,4.5,0.75,0.35,0.0168,0.4,250.49,0,0,0,-0.64,97.29,0,0,250.29,0,0,0,0,0,0,0,42.657,0,0,0,0,0,89.94,0,0,0,0,0,0,0,0,0,0,0,0,0,1,1,0,0,VALID,0,0,0,0,0,1,0,0,0,0,0,0,0,0,0,0,0,0,0,0,122.5,402.35,2,0,0.08,0.08,385,12.5,0.1,0.06,28.8,FLYING,CF1-F,0:/Integrated Flight Computer/aircraft/cf1_f_cfg.ks (inferred preloaded)
29.08,APPROACH,FLY_TO_FIX,77.88,77,-0.88,1334.66,-0.88,7.43,8.62,161.2,21.709,0,0,-0.016,1,0.6,4.5,0.75,0.35,0.0168,0.4,251.2,0,0,0,-0.65,96.69,0,0,251.05,0,0,0,0,0,0,0,42.666,0,0,0,0,0,89.94,0,0,0,0,0,0,0,0,0,0,0,0,0,1,1,0,0,VALID,0,0,0,0,0,1,0,0,0,0,0,0,0,0,0,0,0,0,0,0,122.62,402.37,2,0,0.06,0.06,389,14.29,0.08,0.06,29.08,FLYING,CF1-F,0:/Integrated Flight Computer/aircraft/cf1_f_cfg.ks (inferred preloaded)
29.38,APPROACH,FLY_TO_FIX,77.87,77,-0.87,1334.4,-0.89,7.43,8.62,161.96,21.702,0,0,-0.016,1,0.6,4.5,0.75,0.35,0.0168,0.4,251.96,0,0,0,-0.65,96.04,0,0,251.81,0,0,0,0,0,0,0,42.676,0,0,0,0,0,89.94,0,0,0,0,0,0,0,0,0,0,0,0,0,1,1,0,0,VALID,0,0,0,0,0,1,0,0,0,0,0,0,0,0,0,0,0,0,0,0,122.77,402.39,2,0,0.06,0.06,393,13.33,0.08,0.06,29.38,FLYING,CF1-F,0:/Integrated Flight Computer/aircraft/cf1_f_cfg.ks (inferred preloaded)
29.7,APPROACH,FLY_TO_FIX,77.86,77,-0.86,1334.11,-0.89,7.43,8.63,162.77,21.696,0,0,-0.015,1,0.6,4.5,0.75,0.35,0.0168,0.4,252.77,0,0,0,-0.66,95.35,0,0,252.57,0,0,0,0,0,0,0,42.686,0,0,0,0,0,89.94,0,0,0,0,0,0,0,0,0,0,0,0,0,1,1,0,0,VALID,0,0,0,0,0,1,0,0,0,0,0,0,0,0,0,0,0,0,0,0,122.94,402.41,2,0,0.08,0.08,397,12.5,0.1,0.06,29.7,FLYING,CF1-F,0:/Integrated Flight Computer/aircraft/cf1_f_cfg.ks (inferred preloaded)
30,APPROACH,FLY_TO_FIX,77.85,77,-0.85,1333.84,-0.9,7.43,8.63,163.53,21.689,0,0,-0.015,1,0.6,4.5,0.75,0.35,0.0168,0.4,253.53,0,0,0,-0.66,94.71,0,0,253.38,0,0,0,0,0,0,0,42.695,0,0,0,0,0,89.94,0,0,0,0,0,0,0,0,0,0,0,0,0,1,1,0,0,VALID,0,0,0,0,0,1,0,0,0,0,0,0,0,0,0,0,0,0,0,0,123.13,402.43,2,0,0.06,0.06,401,13.33,0.1,0.06,30,FLYING,CF1-F,0:/Integrated Flight Computer/aircraft/cf1_f_cfg.ks (inferred preloaded)
30.3,APPROACH,FLY_TO_FIX,77.84,77,-0.84,1333.57,-0.91,7.43,8.63,164.29,21.682,0,0,-0.015,1,0.6,4.5,0.75,0.35,0.0168,0.4,254.29,0,0,0,-0.67,94.06,0,0,254.13,0,0,0,0,0,0,0,42.704,0,0,0,0,0,89.94,0,0,0,0,0,0,0,0,0,0,0,0,0,1,1,0,0,VALID,0,0,0,0,0,1,0,0,0,0,0,0,0,0,0,0,0,0,0,0,123.33,402.44,2,0,0.06,0.06,405,13.33,0.08,0.06,30.3,FLYING,CF1-F,0:/Integrated Flight Computer/aircraft/cf1_f_cfg.ks (inferred preloaded)
30.62,APPROACH,FLY_TO_FIX,77.84,77,-0.84,1333.28,-0.91,7.43,8.63,165.09,21.675,0,0,-0.014,1,0.6,4.5,0.75,0.35,0.0168,0.4,255.09,0,0,0,-0.67,93.37,0,0,254.89,0,0,0,0,0,0,0,42.712,0,0,0,0,0,89.94,0,0,0,0,0,0,0,0,0,0,0,0,0,1,1,0,0,VALID,0,0,0,0,0,1,0,0,0,0,0,0,0,0,0,0,0,0,0,0,123.55,402.46,2,0,0.08,0.08,409,12.5,0.1,0.06,30.62,FLYING,CF1-F,0:/Integrated Flight Computer/aircraft/cf1_f_cfg.ks (inferred preloaded)
30.9,APPROACH,FLY_TO_FIX,77.83,77,-0.83,1333.02,-0.92,7.43,8.64,165.8,21.668,0,0,-0.014,1,0.6,4.5,0.75,0.35,0.0168,0.4,255.8,0,0,0,-0.68,92.77,0,0,255.65,0,0,0,0,0,0,0,42.72,0,0,0,0,0,89.94,0,0,0,0,0,0,0,0,0,0,0,0,0,1,1,0,0,VALID,0,0,0,0,0,1,0,0,0,0,0,0,0,0,0,0,0,0,0,0,123.76,402.48,2,0,0.06,0.06,413,14.29,0.08,0.06,30.9,FLYING,CF1-F,0:/Integrated Flight Computer/aircraft/cf1_f_cfg.ks (inferred preloaded)
31.2,APPROACH,FLY_TO_FIX,77.83,77,-0.83,1332.74,-0.93,7.42,8.64,166.56,21.661,0,0,-0.014,1,0.6,4.5,0.75,0.35,0.0168,0.4,256.56,0,0,0,-0.68,92.13,0,0,256.41,0,0,0,0,0,0,0,42.728,0,0,0,0,0,89.94,0,0,0,0,0,0,0,0,0,0,0,0,0,1,1,0,0,VALID,0,0,0,0,0,1,0,0,0,0,0,0,0,0,0,0,0,0,0,0,123.99,402.49,2,0,0.06,0.06,417,13.33,0.08,0.06,31.2,FLYING,CF1-F,0:/Integrated Flight Computer/aircraft/cf1_f_cfg.ks (inferred preloaded)
31.52,APPROACH,FLY_TO_FIX,77.82,77,-0.82,1332.45,-0.93,7.42,8.64,167.37,21.655,0,0,-0.014,1,0.6,4.5,0.75,0.35,0.0168,0.4,257.37,0,0,0,-0.69,91.44,0,0,257.17,0,0,0,0,0,0,0,42.736,0,0,0,0,0,89.94,0,0,0,0,0,0,0,0,0,0,0,0,0,1,1,0,0,VALID,0,0,0,0,0,1,0,0,0,0,0,0,0,0,0,0,0,0,0,0,124.25,402.51,2,0,0.08,0.08,421,12.5,0.1,0.06,31.52,FLYING,CF1-F,0:/Integrated Flight Computer/aircraft/cf1_f_cfg.ks (inferred preloaded)
31.8,APPROACH,FLY_TO_FIX,77.82,77,-0.82,1332.19,-0.94,7.42,8.64,168.08,21.649,0,0,-0.013,1,0.6,4.5,0.75,0.35,0.0168,0.4,258.08,0,0,0,-0.69,90.84,0,0,257.92,0,0,0,0,0,0,0,42.742,0,0,0,0,0,89.94,0,0,0,0,0,0,0,0,0,0,0,0,0,1,1,0,0,VALID,0,0,0,0,0,1,0,0,0,0,0,0,0,0,0,0,0,0,0,0,124.47,402.52,2,0,0.06,0.06,425,14.29,0.08,0.06,31.8,FLYING,CF1-F,0:/Integrated Flight Computer/aircraft/cf1_f_cfg.ks (inferred preloaded)
32.1,APPROACH,FLY_TO_FIX,77.82,77,-0.82,1331.9,-0.94,7.42,8.64,168.83,21.644,0,0,-0.013,1,0.6,4.5,0.75,0.35,0.0168,0.4,258.83,0,0,0,-0.69,90.2,0,0,258.68,0,0,0,0,0,0,0,42.749,0,0,0,0,0,89.94,0,0,0,0,0,0,0,0,0,0,0,0,0,1,1,0,0,VALID,0,0,0,0,0,1,0,0,0,0,0,0,0,0,0,0,0,0,0,0,124.71,402.54,2,0,0.06,0.06,429,13.33,0.08,0.06,32.1,FLYING,CF1-F,0:/Integrated Flight Computer/aircraft/cf1_f_cfg.ks (inferred preloaded)
32.42,APPROACH,FLY_TO_FIX,77.82,77,-0.82,1331.61,-0.95,7.47,8.7,169.66,21.631,0,0,-0.013,1,0.6,4.5,0.75,0.35,0.0168,0.4,259.15,0.338,0,0,-0.7,89.49,0,0.34,259.12,0,0,0,0,0,0,0,42.756,0,0,0,0,0,89.94,0,0,0,0,0,0,0,0,0,0,0,0,0,1,1,0,0,VALID,0,0,0,0,0,1,0,0,0,0,0,0,0,0,0,0,0,0,0,0,124.98,402.55,2,0,0.08,0.08,433,12.5,0.1,0.06,32.42,FLYING,CF1-F,0:/Integrated Flight Computer/aircraft/cf1_f_cfg.ks (inferred preloaded)
32.72,APPROACH,FLY_TO_FIX,77.82,77,-0.82,1331.33,-0.94,7.47,8.7,170.42,21.617,0,0,-0.013,1,0.6,4.5,0.75,0.35,0.0168,0.4,259.27,0.335,0,0,-0.69,88.85,0,0.33,259.24,0,0,0,0,0,0,0,42.762,0,0,0,0,0,89.94,0,0,0,0,0,0,0,0,0,0,0,0,0,1,1,0,0,VALID,0,0,0,0,0,1,0,0,0,0,0,0,0,0,0,0,0,0,0,0,125.28,402.57,2,0,0.06,0.06,437,13.33,0.1,0.06,32.72,FLYING,CF1-F,0:/Integrated Flight Computer/aircraft/cf1_f_cfg.ks (inferred preloaded)
33.02,APPROACH,FLY_TO_FIX,77.82,77,-0.82,1331.05,-0.93,7.48,8.7,171.18,21.605,0,0,-0.012,1,0.6,4.5,0.75,0.35,0.0168,0.4,259.38,0.334,0,0,-0.69,88.2,0,0.33,259.36,0,0,0,0,0,0,0,42.768,0,0,0,0,0,89.94,0,0,0,0,0,0,0,0,0,0,0,0,0,1,1,0,0,VALID,0,0,0,0,0,1,0,0,0,0,0,0,0,0,0,0,0,0,0,0,125.57,402.58,2,0,0.06,0.06,441,13.33,0.08,0.06,33.02,FLYING,CF1-F,0:/Integrated Flight Computer/aircraft/cf1_f_cfg.ks (inferred preloaded)
33.34,APPROACH,FLY_TO_FIX,77.82,77,-0.82,1330.75,-0.92,7.48,8.69,171.99,21.593,0,0,-0.012,1,0.6,4.5,0.75,0.35,0.0168,0.4,259.5,0.333,0,0,-0.68,87.52,0,0.33,259.47,0,0,0,0,0,0,0,42.773,0,0,0,0,0,89.94,0,0,0,0,0,0,0,0,0,0,0,0,0,1,1,0,0,VALID,0,0,0,0,0,1,0,0,0,0,0,0,0,0,0,0,0,0,0,0,125.88,402.6,2,0,0.08,0.08,445,12.5,0.1,0.06,33.34,FLYING,CF1-F,0:/Integrated Flight Computer/aircraft/cf1_f_cfg.ks (inferred preloaded)
33.62,APPROACH,FLY_TO_FIX,77.82,77,-0.82,1330.49,-0.92,7.48,8.69,172.69,21.583,0,0,-0.012,1,0.6,4.5,0.75,0.35,0.0168,0.4,259.61,0.332,0,0,-0.67,86.92,0,0.33,259.59,0,0,0,0,0,0,0,42.778,0,0,0,0,0,89.94,0,0,0,0,0,0,0,0,0,0,0,0,0,1,1,0,0,VALID,0,0,0,0,0,1,0,0,0,0,0,0,0,0,0,0,0,0,0,0,126.14,402.61,2,0,0.06,0.06,449,14.29,0.08,0.06,33.62,FLYING,CF1-F,0:/Integrated Flight Computer/aircraft/cf1_f_cfg.ks (inferred preloaded)
33.92,APPROACH,FLY_TO_FIX,77.82,77,-0.82,1330.22,-0.91,7.49,8.69,173.45,21.575,0,0,-0.012,1,0.6,4.5,0.75,0.35,0.0168,0.4,259.72,0.332,0,0,-0.67,86.27,0,0.33,259.7,0,0,0,0,0,0,0,42.783,0,0,0,0,0,89.94,0,0,0,0,0,0,0,0,0,0,0,0,0,1,1,0,0,VALID,0,0,0,0,0,1,0,0,0,0,0,0,0,0,0,0,0,0,0,0,126.42,402.62,2,0,0.06,0.06,453,13.33,0.08,0.06,33.92,FLYING,CF1-F,0:/Integrated Flight Computer/aircraft/cf1_f_cfg.ks (inferred preloaded)
34.24,APPROACH,FLY_TO_FIX,77.82,77,-0.82,1329.93,-0.9,7.49,8.69,174.26,21.567,0,0,-0.011,1,0.6,4.5,0.75,0.35,0.0168,0.4,259.85,0.331,0,0,-0.66,85.59,0,0.33,259.82,0,0,0,0,0,0,0,42.788,0,0,0,0,0,89.94,0,0,0,0,0,0,0,0,0,0,0,0,0,1,1,0,0,VALID,0,0,0,0,0,1,0,0,0,0,0,0,0,0,0,0,0,0,0,0,126.7,402.63,2,0,0.08,0.08,457,12.5,0.1,0.06,34.24,FLYING,CF1-F,0:/Integrated Flight Computer/aircraft/cf1_f_cfg.ks (inferred preloaded)
34.52,APPROACH,FLY_TO_FIX,77.83,77,-0.83,1329.68,-0.9,7.49,8.68,174.96,21.561,0,0,-0.011,1,0.6,4.5,0.75,0.35,0.0168,0.4,259.95,0.33,0,0,-0.66,84.99,0,0.33,259.93,0,0,0,0,0,0,0,42.791,0,0,0,0,0,89.94,0,0,0,0,0,0,0,0,0,0,0,0,0,1,1,0,0,VALID,0,0,0,0,0,1,0,0,0,0,0,0,0,0,0,0,0,0,0,0,126.94,402.64,2,0,0.06,0.06,461,14.29,0.08,0.06,34.52,FLYING,CF1-F,0:/Integrated Flight Computer/aircraft/cf1_f_cfg.ks (inferred preloaded)
34.82,APPROACH,FLY_TO_FIX,77.83,77,-0.83,1329.41,-0.89,7.49,8.68,175.72,21.556,0,0,-0.011,1,0.6,4.5,0.75,0.35,0.0168,0.4,260.07,0.33,0,0,-0.65,84.35,0,0.33,260.04,0,0,0,0,0,0,0,42.795,0,0,0,0,0,89.94,0,0,0,0,0,0,0,0,0,0,0,0,0,1,1,0,0,VALID,0,0,0,0,0,1,0,0,0,0,0,0,0,0,0,0,0,0,0,0,127.18,402.65,2,0,0.06,0.06,465,13.33,0.08,0.06,34.82,FLYING,CF1-F,0:/Integrated Flight Computer/aircraft/cf1_f_cfg.ks (inferred preloaded)
35.14,APPROACH,FLY_TO_FIX,77.84,77,-0.84,1329.13,-0.88,7.5,8.68,176.53,21.552,0,0,-0.011,1,0.6,4.5,0.75,0.35,0.0168,0.4,260.19,0.329,0,0,-0.65,83.66,0,0.33,260.16,0,0,0,0,0,0,0,42.799,0,0,0,0,0,89.94,0,0,0,0,0,0,0,0,0,0,0,0,0,1,1,0,0,VALID,0,0,0,0,0,1,0,0,0,0,0,0,0,0,0,0,0,0,0,0,127.41,402.66,2,0,0.08,0.08,469,12.5,0.1,0.06,35.14,FLYING,CF1-F,0:/Integrated Flight Computer/aircraft/cf1_f_cfg.ks (inferred preloaded)
35.44,APPROACH,FLY_TO_FIX,77.84,77,-0.84,1328.87,-0.87,7.5,8.68,177.28,21.549,0,0,-0.01,1,0.6,4.5,0.75,0.35,0.0168,0.4,260.3,0.328,0,0,-0.64,83.02,0,0.33,260.28,0,0,0,0,0,0,0,42.802,0,0,0,0,0,89.94,0,0,0,0,0,0,0,0,0,0,0,0,0,1,1,0,0,VALID,0,0,0,0,0,1,0,0,0,0,0,0,0,0,0,0,0,0,0,0,127.62,402.67,2,0,0.06,0.06,473,13.33,0.1,0.06,35.44,FLYING,CF1-F,0:/Integrated Flight Computer/aircraft/cf1_f_cfg.ks (inferred preloaded)
35.74,APPROACH,FLY_TO_FIX,77.85,77,-0.85,1328.61,-0.87,7.5,8.67,178.04,21.547,0,0,-0.01,1,0.6,4.5,0.75,0.35,0.0168,0.4,260.42,0.327,0,0,-0.64,82.38,0,0.33,260.39,0,0,0,0,0,0,0,42.804,0,0,0,0,0,89.94,0,0,0,0,0,0,0,0,0,0,0,0,0,1,1,0,0,VALID,0,0,0,0,0,1,0,0,0,0,0,0,0,0,0,0,0,0,0,0,127.8,402.67,2,0,0.06,0.06,477,13.33,0.08,0.06,35.74,FLYING,CF1-F,0:/Integrated Flight Computer/aircraft/cf1_f_cfg.ks (inferred preloaded)
36.06,APPROACH,FLY_TO_FIX,77.86,77,-0.86,1328.33,-0.86,7.5,8.67,178.85,21.544,0,0,-0.01,1,0.6,4.5,0.75,0.35,0.0168,0.4,260.54,0.327,0,0,-0.63,81.69,0,0.33,260.51,0,0,0,0,0,0,0,42.807,0,0,0,0,0,89.94,0,0,0,0,0,0,0,0,0,0,0,0,0,1,1,0,0,VALID,0,0,0,0,0,1,0,0,0,0,0,0,0,0,0,0,0,0,0,0,127.96,402.68,2,0,0.08,0.08,481,12.5,0.1,0.06,36.06,FLYING,CF1-F,0:/Integrated Flight Computer/aircraft/cf1_f_cfg.ks (inferred preloaded)
36.34,APPROACH,FLY_TO_FIX,77.87,77,-0.87,1328.09,-0.86,7.5,8.67,179.55,21.544,0,0,-0.01,1,0.6,4.5,0.75,0.35,0.0168,0.4,260.65,0.326,0,0,-0.63,81.09,0,0.33,260.62,0,0,0,0,0,0,0,42.809,0,0,0,0,0,89.94,0,0,0,0,0,0,0,0,0,0,0,0,0,1,1,0,0,VALID,0,0,0,0,0,1,0,0,0,0,0,0,0,0,0,0,0,0,0,0,128.08,402.69,2,0,0.06,0.06,485,14.29,0.08,0.06,36.34,FLYING,CF1-F,0:/Integrated Flight Computer/aircraft/cf1_f_cfg.ks (inferred preloaded)
36.64,APPROACH,FLY_TO_FIX,77.88,77,-0.88,1327.83,-0.85,7.51,8.67,180.31,21.544,0,0,-0.01,1,0.6,4.5,0.75,0.35,0.0168,0.4,260.76,0.326,0,0,-0.62,80.45,0,0.33,260.74,0,0,0,0,0,0,0,42.81,0,0,0,0,0,89.94,0,0,0,0,0,0,0,0,0,0,0,0,0,1,1,0,0,VALID,0,0,0,0,0,1,0,0,0,0,0,0,0,0,0,0,0,0,0,0,128.19,402.69,2,0,0.06,0.06,489,13.33,0.08,0.06,36.64,FLYING,CF1-F,0:/Integrated Flight Computer/aircraft/cf1_f_cfg.ks (inferred preloaded)
36.96,APPROACH,FLY_TO_FIX,77.89,77,-0.89,1327.56,-0.84,7.51,8.66,181.12,21.545,0,0,-0.009,1,0.6,4.5,0.75,0.35,0.0168,0.4,260.88,0.325,0,0,-0.62,79.76,0,0.33,260.85,0,0,0,0,0,0,0,42.812,0,0,0,0,0,89.94,0,0,0,0,0,0,0,0,0,0,0,0,0,1,1,0,0,VALID,0,0,0,0,0,1,0,0,0,0,0,0,0,0,0,0,0,0,0,0,128.27,402.7,2,0,0.08,0.08,493,12.5,0.1,0.06,36.96,FLYING,CF1-F,0:/Integrated Flight Computer/aircraft/cf1_f_cfg.ks (inferred preloaded)
37.24,APPROACH,FLY_TO_FIX,77.89,77,-0.89,1327.33,-0.84,7.51,8.66,181.82,21.545,0,0,-0.009,1,0.6,4.5,0.75,0.35,0.0168,0.4,260.99,0.324,0,0,-0.62,79.16,0,0.32,260.96,0,0,0,0,0,0,0,42.813,0,0,0,0,0,89.94,0,0,0,0,0,0,0,0,0,0,0,0,0,1,1,0,0,VALID,0,0,0,0,0,1,0,0,0,0,0,0,0,0,0,0,0,0,0,0,128.32,402.7,2,0,0.06,0.06,497,14.29,0.08,0.06,37.24,FLYING,CF1-F,0:/Integrated Flight Computer/aircraft/cf1_f_cfg.ks (inferred preloaded)
37.54,APPROACH,FLY_TO_FIX,77.9,77,-0.9,1327.08,-0.83,7.51,8.66,182.58,21.546,0,0,-0.009,1,0.6,4.5,0.75,0.35,0.0168,0.4,261.1,0.324,0,0,-0.61,78.52,0,0.32,261.08,0,0,0,0,0,0,0,42.813,0,0,0,0,0,89.94,0,0,0,0,0,0,0,0,0,0,0,0,0,1,1,0,0,VALID,0,0,0,0,0,1,0,0,0,0,0,0,0,0,0,0,0,0,0,0,128.34,402.71,2,0,0.06,0.06,501,13.33,0.08,0.06,37.54,FLYING,CF1-F,0:/Integrated Flight Computer/aircraft/cf1_f_cfg.ks (inferred preloaded)
37.86,APPROACH,FLY_TO_FIX,77.91,77,-0.91,1326.82,-0.82,7.51,8.65,183.39,21.548,0,0,-0.009,1,0.6,4.5,0.75,0.35,0.0168,0.4,261.22,0.323,0,0,-0.61,77.83,0,0.32,261.19,0,0,0,0,0,0,0,42.813,0,0,0,0,0,89.94,0,0,0,0,0,0,0,0,0,0,0,0,0,1,1,0,0,VALID,0,0,0,0,0,1,0,0,0,0,0,0,0,0,0,0,0,0,0,0,128.32,402.72,2,0,0.08,0.08,505,12.5,0.1,0.06,37.86,FLYING,CF1-F,0:/Integrated Flight Computer/aircraft/cf1_f_cfg.ks (inferred preloaded)
38.16,APPROACH,FLY_TO_FIX,77.92,77,-0.92,1326.57,-0.82,7.51,8.65,184.14,21.55,0,0,-0.009,1,0.6,4.5,0.75,0.35,0.0168,0.4,261.33,0.323,0,0,-0.6,77.19,0,0.32,261.31,0,0,0,0,0,0,0,42.813,0,0,0,0,0,89.94,0,0,0,0,0,0,0,0,0,0,0,0,0,1,1,0,0,VALID,0,0,0,0,0,1,0,0,0,0,0,0,0,0,0,0,0,0,0,0,128.21,402.72,2,0,0.06,0.06,509,13.33,0.1,0.06,38.16,FLYING,CF1-F,0:/Integrated Flight Computer/aircraft/cf1_f_cfg.ks (inferred preloaded)
38.46,APPROACH,FLY_TO_FIX,77.93,77,-0.93,1326.32,-0.81,7.51,8.65,184.9,21.551,0,0,-0.009,1,0.6,4.5,0.75,0.35,0.0168,0.4,261.45,0.322,0,0,-0.6,76.55,0,0.32,261.42,0,0,0,0,0,0,0,42.813,0,0,0,0,0,89.94,0,0,0,0,0,0,0,0,0,0,0,0,0,1,1,0,0,VALID,0,0,0,0,0,1,0,0,0,0,0,0,0,0,0,0,0,0,0,0,128.03,402.73,2,0,0.06,0.06,513,13.33,0.08,0.06,38.46,FLYING,CF1-F,0:/Integrated Flight Computer/aircraft/cf1_f_cfg.ks (inferred preloaded)
38.78,APPROACH,FLY_TO_FIX,77.94,77,-0.94,1326.07,-0.81,7.52,8.65,185.71,21.552,0,0,-0.008,1,0.6,4.5,0.75,0.35,0.0168,0.4,261.57,0.322,0,0,-0.59,75.86,0,0.32,261.54,0,0,0,0,0,0,0,42.812,0,0,0,0,0,89.94,0,0,0,0,0,0,0,0,0,0,0,0,0,1,1,0,0,VALID,0,0,0,0,0,1,0,0,0,0,0,0,0,0,0,0,0,0,0,0,127.79,402.73,2,0,0.08,0.08,517,12.5,0.1,0.06,38.78,FLYING,CF1-F,0:/Integrated Flight Computer/aircraft/cf1_f_cfg.ks (inferred preloaded)
39.06,APPROACH,FLY_TO_FIX,77.94,77,-0.94,1325.84,-0.8,7.52,8.65,186.42,21.554,0,0,-0.008,1,0.6,4.5,0.75,0.35,0.0168,0.4,261.67,0.322,0,0,-0.59,75.26,0,0.32,261.65,0,0,0,0,0,0,0,42.811,0,0,0,0,0,89.94,0,0,0,0,0,0,0,0,0,0,0,0,0,1,1,0,0,VALID,0,0,0,0,0,1,0,0,0,0,0,0,0,0,0,0,0,0,0,0,127.55,402.74,2,0,0.06,0.06,521,14.29,0.08,0.06,39.06,FLYING,CF1-F,0:/Integrated Flight Computer/aircraft/cf1_f_cfg.ks (inferred preloaded)
39.36,APPROACH,FLY_TO_FIX,77.95,77,-0.95,1325.6,-0.8,7.52,8.65,187.17,21.557,0,0,-0.008,1,0.6,4.5,0.75,0.35,0.0168,0.4,261.79,0.321,0,0,-0.59,74.61,0,0.32,261.76,0,0,0,0,0,0,0,42.809,0,0,0,0,0,89.94,0,0,0,0,0,0,0,0,0,0,0,0,0,1,1,0,0,VALID,0,0,0,0,0,1,0,0,0,0,0,0,0,0,0,0,0,0,0,0,127.3,402.75,2,0,0.06,0.06,525,13.33,0.08,0.06,39.36,FLYING,CF1-F,0:/Integrated Flight Computer/aircraft/cf1_f_cfg.ks (inferred preloaded)
39.68,APPROACH,FLY_TO_FIX,77.95,77,-0.95,1325.35,-0.79,7.53,8.65,187.98,21.559,0,0,-0.008,1,0.6,4.5,0.75,0.35,0.0168,0.4,261.9,0.321,0,0,-0.58,73.92,0,0.32,261.88,0,0,0,0,0,0,0,42.808,0,0,0,0,0,89.94,0,0,0,0,0,0,0,0,0,0,0,0,0,1,1,0,0,VALID,0,0,0,0,0,1,0,0,0,0,0,0,0,0,0,0,0,0,0,0,127.04,402.76,2,0,0.08,0.08,529,12.5,0.1,0.06,39.68,FLYING,CF1-F,0:/Integrated Flight Computer/aircraft/cf1_f_cfg.ks (inferred preloaded)
39.96,APPROACH,FLY_TO_FIX,77.95,77,-0.95,1325.13,-0.79,7.53,8.65,188.69,21.561,0,0,-0.008,1,0.6,4.5,0.75,0.35,0.0168,0.4,262.01,0.321,0,0,-0.58,73.32,0,0.32,261.99,0,0,0,0,0,0,0,42.806,0,0,0,0,0,89.94,0,0,0,0,0,0,0,0,0,0,0,0,0,1,1,0,0,VALID,0,0,0,0,0,1,0,0,0,0,0,0,0,0,0,0,0,0,0,0,126.82,402.77,2,0,0.06,0.06,533,14.29,0.08,0.06,39.96,FLYING,CF1-F,0:/Integrated Flight Computer/aircraft/cf1_f_cfg.ks (inferred preloaded)
40.26,APPROACH,FLY_TO_FIX,77.95,77,-0.95,1324.89,-0.78,7.53,8.65,189.45,21.563,0,0,-0.008,1,0.6,4.5,0.75,0.35,0.0168,0.4,262.12,0.321,0,0,-0.58,72.67,0,0.32,262.1,0,0,0,0,0,0,0,42.803,0,0,0,0,0,89.94,0,0,0,0,0,0,0,0,0,0,0,0,0,1,1,0,0,VALID,0,0,0,0,0,1,0,0,0,0,0,0,0,0,0,0,0,0,0,0,126.61,402.78,2,0,0.06,0.06,537,13.33,0.08,0.06,40.26,FLYING,CF1-F,0:/Integrated Flight Computer/aircraft/cf1_f_cfg.ks (inferred preloaded)
40.58,APPROACH,FLY_TO_FIX,77.95,77,-0.95,1324.64,-0.78,7.54,8.65,190.26,21.565,0,0,-0.007,1,0.6,4.5,0.75,0.35,0.0168,0.4,262.24,0.32,0,0,-0.57,71.98,0,0.32,262.21,0,0,0,0,0,0,0,42.8,0,0,0,0,0,89.94,0,0,0,0,0,0,0,0,0,0,0,0,0,1,1,0,0,VALID,0,0,0,0,0,1,0,0,0,0,0,0,0,0,0,0,0,0,0,0,126.43,402.79,2,0,0.08,0.08,541,12.5,0.1,0.06,40.58,FLYING,CF1-F,0:/Integrated Flight Computer/aircraft/cf1_f_cfg.ks (inferred preloaded)
40.88,APPROACH,FLY_TO_FIX,77.95,77,-0.95,1324.41,-0.77,7.54,8.65,191.02,21.565,0,0,-0.007,1,0.6,4.5,0.75,0.35,0.0168,0.4,262.35,0.32,0,0,-0.57,71.34,0,0.32,262.33,0,0,0,0,0,0,0,42.797,0,0,0,0,0,89.94,0,0,0,0,0,0,0,0,0,0,0,0,0,1,1,0,0,VALID,0,0,0,0,0,1,0,0,0,0,0,0,0,0,0,0,0,0,0,0,126.28,402.8,2,0,0.06,0.06,545,13.33,0.1,0.06,40.88,FLYING,CF1-F,0:/Integrated Flight Computer/aircraft/cf1_f_cfg.ks (inferred preloaded)
41.18,APPROACH,FLY_TO_FIX,77.95,77,-0.95,1324.18,-0.77,7.54,8.65,191.77,21.564,0,0,-0.007,1,0.6,4.5,0.75,0.35,0.0168,0.4,262.46,0.32,0,0,-0.57,70.69,0,0.32,262.44,0,0,0,0,0,0,0,42.793,0,0,0,0,0,89.94,0,0,0,0,0,0,0,0,0,0,0,0,0,1,1,0,0,VALID,0,0,0,0,0,1,0,0,0,0,0,0,0,0,0,0,0,0,0,0,126.17,402.81,2,0,0.06,0.06,549,13.33,0.08,0.06,41.18,FLYING,CF1-F,0:/Integrated Flight Computer/aircraft/cf1_f_cfg.ks (inferred preloaded)
41.5,APPROACH,FLY_TO_FIX,77.95,77,-0.95,1323.93,-0.77,7.55,8.65,192.58,21.564,0,0,-0.007,1,0.6,4.5,0.75,0.35,0.0168,0.4,262.58,0.32,0,0,-0.56,70,0,0.32,262.55,0,0,0,0,0,0,0,42.789,0,0,0,0,0,89.94,0,0,0,0,0,0,0,0,0,0,0,0,0,1,1,0,0,VALID,0,0,0,0,0,1,0,0,0,0,0,0,0,0,0,0,0,0,0,0,126.1,402.83,2,0,0.08,0.08,553,12.5,0.1,0.06,41.5,FLYING,CF1-F,0:/Integrated Flight Computer/aircraft/cf1_f_cfg.ks (inferred preloaded)
41.78,APPROACH,FLY_TO_FIX,77.94,77,-0.94,1323.72,-0.76,7.55,8.66,193.29,21.563,0,0,-0.007,1,0.6,4.5,0.75,0.35,0.0168,0.4,262.68,0.32,0,0,-0.56,69.39,0,0.32,262.66,0,0,0,0,0,0,0,42.785,0,0,0,0,0,89.94,0,0,0,0,0,0,0,0,0,0,0,0,0,1,1,0,0,VALID,0,0,0,0,0,1,0,0,0,0,0,0,0,0,0,0,0,0,0,0,126.06,402.84,2,0,0.06,0.06,557,14.29,0.08,0.06,41.78,FLYING,CF1-F,0:/Integrated Flight Computer/aircraft/cf1_f_cfg.ks (inferred preloaded)
42.08,APPROACH,FLY_TO_FIX,77.94,77,-0.94,1323.49,-0.76,7.56,8.66,194.05,21.563,0,0,-0.007,1,0.6,4.5,0.75,0.35,0.0168,0.4,262.79,0.32,0,0,-0.56,68.74,0,0.32,262.77,0,0,0,0,0,0,0,42.781,0,0,0,0,0,89.94,0,0,0,0,0,0,0,0,0,0,0,0,0,1,1,0,0,VALID,0,0,0,0,0,1,0,0,0,0,0,0,0,0,0,0,0,0,0,0,126.09,402.85,2,0,0.06,0.06,561,13.33,0.08,0.06,42.08,FLYING,CF1-F,0:/Integrated Flight Computer/aircraft/cf1_f_cfg.ks (inferred preloaded)
42.4,APPROACH,FLY_TO_FIX,77.94,77,-0.94,1323.25,-0.76,7.56,8.66,194.86,21.562,0,0,-0.007,1,0.6,4.5,0.75,0.35,0.0168,0.4,262.91,0.32,0,0,-0.56,68.05,0,0.32,262.88,0,0,0,0,0,0,0,42.775,0,0,0,0,0,89.94,0,0,0,0,0,0,0,0,0,0,0,0,0,1,1,0,0,VALID,0,0,0,0,0,1,0,0,0,0,0,0,0,0,0,0,0,0,0,0,126.14,402.86,2,0,0.08,0.08,565,12.5,0.1,0.06,42.4,FLYING,CF1-F,0:/Integrated Flight Computer/aircraft/cf1_f_cfg.ks (inferred preloaded)
