t_s,phase,subphase,ias_ms,vapp_ms,spd_err_ms,agl_m,gear_h_m,vs_ms,pitch_deg,aoa_deg,hdg_deg,bank_deg,thr_cmd,thr_cur,thr_intg,at_gain,at_tau_s,at_a_up,at_a_dn,at_kp_thr,at_ki_spd,at_thr_slew,as_cmd_deg,as_cap_deg,as_raw_deg,as_spd_err_ms,as_active,aa_hdg_cmd_deg,aa_fpa_cmd_deg,aa_fbw,aa_dir,actual_fpa_deg,ftf_hdg_err_deg,ftf_fix_idx,kos_steer_pit_deg,kos_steer_hdg_deg,aa_dir_vx,aa_dir_vy,aa_dir_vz,aa_dir_pitch_deg,aa_dir_hdg_deg,ils_loc_m,ils_gs_m,ils_dist_km,loc_corr_deg,gs_corr_deg,gs_latched,active_gs_ang_deg,ils_intercept_alt_m,d_gs_ms,fpa_preclamped_deg,gs_nom_alt_m,flare_fpa_cmd,flare_tgt_vs,flare_frac,flare_mode,flare_auth_limited,flare_vs_err,flare_fpa_err,flare_pitch_err,flare_req_up_a,flare_thr_floor,flare_tecs_et_err,flare_tecs_eb_err,flare_tecs_h_ref,flare_tecs_v_ref,flare_gamma_ref,flare_gamma_eb_term,flare_gamma_unsat,steer_hdg_deg,steer_blend,ro_loc_corr_deg,ro_hdg_err_deg,ro_yaw_tgt,ro_yaw_scale,ro_yaw_gate,yaw_cmd,roll_cmd,pitch_cmd,ro_pitch_tgt_deg,ro_pitch_err_deg,ro_pitch_ff,ro_roll_assist,flaps_cur,flaps_tgt,asc_j_ab,asc_j_rk,asc_validity,asc_q_pa,asc_q_raw_pa,asc_mach,asc_apo_m,asc_drag_n,asc_w_prop,asc_edot_aero,asc_edot_orb,asc_pitch_bias,asc_blend,asc_spooling,asc_ab_thr_ratio,asc_ab_t_now,asc_ab_t_avail,asc_ab_ign_on,asc_ab_flameouts,asc_rk_t_now,asc_rk_t_avail,asc_rk_ign_on,asc_rk_flameouts,ship_thrust,ship_avail_thrust,ship_ign_on,ship_flameouts,ifc_raw_dt_s,ifc_dt_s,ifc_loop_n,ifc_hz_est,ifc_raw_dt_max_s,ifc_raw_dt_min_s,phase_el_s,status,craft_name,cfg_file
0.23,APPROACH,ILS_TRACK,154.73,152,-2.73,674.12,599.36,-21.32,6.56,14.04,270.02,0.095,0,0,0,0,0,0,0,0,0,0,0,0,0,0,0,0,0,1,0,-7.85,0,0,0,90,0,0,0,0,0,-0.01,-18.03,11.789,0,0,0,3,674.12,0,0,692.15,0,0,0,,0,0,0,0,0,0,0,0,0,0,0,0,0,270.01,0,0,0,0,0,0,0,0,0,0,0,0,0,0,0,0,0,VALID,0,0,0,0,0,1,0,0,0,0,0,0,0,0,0,0,0,0,0,0,257.79,1090.06,2,0,0.203,0.203,1,3.56,0.203,0.02,0.23,FLYING,X10-F,0:/Integrated Flight Computer/aircraft/x10_f_cfg.ks (inferred preloaded)
0.62,APPROACH,ILS_TRACK,155.16,152,-3.16,665.88,591.17,-21.28,6.43,13.85,270.04,0.118,0,0,0,1,0.6,1.484,0.75,0.35,0.0168,0.4,1.847,21.01,1.847,3.126,1,270,0,0,1,-7.8,0,0,0,270.02,0.8321,0,0.5546,0,270,-0.01,-22.09,11.738,-0.002,16.978,1,3,674.12,-12.937,0,689.47,0,0,0,,0,0,0,0,0,0,0,0,0,0,0,0,0,270.01,0,0,0,0,0,0,0,0,0,0,0,0,0,1,3,0,0,VALID,0,0,0,0,0,1,0,0,0,0,0,0,0,0,0,0,0,0,0,0,225.62,1092.54,2,0,0.175,0.175,3,5.19,0.203,0.171,0.62,FLYING,X10-F,0:/Integrated Flight Computer/aircraft/x10_f_cfg.ks (inferred preloaded)
0.97,APPROACH,ILS_TRACK,155.49,152,-3.49,658.53,583.66,-21.5,6.66,14.27,270.03,0.095,0,0,0,1,0.6,2.743,0.75,0.35,0.0168,0.4,2.218,20.915,2.218,3.461,1,269.99,0,0,1,-7.86,0,0,0,269.99,0.8322,-0.0001,0.5545,0,269.99,0,-26.52,11.681,-0.007,17.925,1,3,674.12,-12.462,0,686.49,0,0,0,,0,0,0,0,0,0,0,0,0,0,0,0,0,270.01,0,0,0,0,0,0,0,0,0,0,0,0,0,2,3,0,0,VALID,0,0,0,0,0,1,0,0,0,0,0,0,0,0,0,0,0,0,0,0,199.82,1094.53,2,0,0.175,0.175,5,5.71,0.175,0.175,0.97,FLYING,X10-F,0:/Integrated Flight Computer/aircraft/x10_f_cfg.ks (inferred preloaded)
1.32,APPROACH,ILS_TRACK,155.63,152,-3.63,651.41,576.16,-21.08,7.96,15.47,270.03,0.067,0,0,0,1,0.6,3.81,0.75,0.35,0.0168,0.4,2.401,20.868,2.401,3.628,1,269.99,0,0,1,-7.77,0,0,0,269.99,0.8322,-0.0001,0.5544,0,269.99,0.01,-30.67,11.625,-0.008,18.587,1,3,674.12,-11.733,0,683.51,0,0,0,,0,0,0,0,0,0,0,0,0,0,0,0,0,270.01,0,0,0,0,0,0,0,0,0,0,0,0,0,3,3,0,0,VALID,0,0,0,0,0,1,0,0,0,0,0,0,0,0,0,0,0,0,0,0,176.86,1095.71,2,0,0.175,0.175,7,5.71,0.175,0.175,1.32,FLYING,X10-F,0:/Integrated Flight Computer/aircraft/x10_f_cfg.ks (inferred preloaded)
1.67,APPROACH,ILS_TRACK,155.47,152,-3.47,644.41,568.86,-20.59,8.86,16.2,270.02,0.022,0,0,0,1,0.6,4.5,0.75,0.35,0.0168,0.4,2.252,20.907,2.252,3.492,1,269.99,0,0,1,-7.58,0,0,0,269.99,0.8323,-0.0002,0.5543,0,269.99,0.02,-34.74,11.568,-0.01,19.62,1,3,674.12,-11.496,0,680.53,0,0,0,,0,0,0,0,0,0,0,0,0,0,0,0,0,270.01,0,0,0,0,0,0,0,0,0,0,0,0,0,3,3,0,0,VALID,0,0,0,0,0,1,0,0,0,0,0,0,0,0,0,0,0,0,0,0,156.35,1095.62,2,0,0.175,0.175,9,5.71,0.175,0.175,1.67,FLYING,X10-F,0:/Integrated Flight Computer/aircraft/x10_f_cfg.ks (inferred preloaded)
2.02,APPROACH,ILS_TRACK,155.14,152,-3.14,637.8,561.73,-20,10.38,17.64,270.01,-0.014,0,0,0,1,0.6,4.5,0.75,0.35,0.0168,0.4,1.91,20.994,1.91,3.183,1,269.99,0,0,1,-7.39,0,0,0,269.99,0.8323,-0.0002,0.5543,0,269.99,0.03,-38.47,11.511,-0.009,19.804,1,3,674.12,-10.328,0,677.55,0,0,0,,0,0,0,0,0,0,0,0,0,0,0,0,0,270.01,0,0,0,0,0,0,0,0,0,0,0,0,0,3,3,0,0,VALID,0,0,0,0,0,1,0,0,0,0,0,0,0,0,0,0,0,0,0,0,138.13,1094.77,2,0,0.175,0.175,11,5.71,0.175,0.175,2.02,FLYING,X10-F,0:/Integrated Flight Computer/aircraft/x10_f_cfg.ks (inferred preloaded)
2.37,APPROACH,ILS_TRACK,154.48,152,-2.48,631.66,554.86,-19.06,12.72,19.75,270,-0.035,0.07,0,-0.449,1,0.6,4.5,0.75,0.35,0.0168,0.4,1.218,21.168,1.218,2.565,1,269.99,0,0,1,-7.11,0,0,0,269.99,0.8324,-0.0001,0.5542,0,269.99,0.04,-41.74,11.454,-0.009,19.719,1,3,674.12,-8.998,0,674.59,0,0,0,,0,0,0,0,0,0,0,0,0,0,0,0,0,270.01,0,0,0,0,0,0,0,0,0,0,0,0,0,3,3,0,0,VALID,0,0,0,0,0,1,0,0,0,0,0,0,0,0,0,0,0,0,0,0,121.88,1092.52,2,0,0.175,0.175,13,5.71,0.175,0.175,2.37,FLYING,X10-F,0:/Integrated Flight Computer/aircraft/x10_f_cfg.ks (inferred preloaded)
2.72,APPROACH,ILS_TRACK,153.34,152,-1.34,625.84,548.52,-17.11,14.79,21.06,269.99,-0.021,0.21,0,-1.076,1,0.6,4.5,0.75,0.35,0.0168,0.4,0,21.473,0,1.483,0,269.99,0,0,1,-6.5,0,0,0,269.99,0.8324,-0.0001,0.5541,0,269.99,0.05,-44.65,11.398,-0.007,19.966,1,3,674.12,-8.213,0,671.64,0,0,0,,0,0,0,0,0,0,0,0,0,0,0,0,0,270.01,0,0,0,0,0,0,0,0,0,0,0,0,0,3,3,0,0,VALID,0,0,0,0,0,1,0,0,0,0,0,0,0,0,0,0,0,0,0,0,118.29,1088.17,2,0,0.175,0.175,15,5.71,0.175,0.175,2.72,FLYING,X10-F,0:/Integrated Flight Computer/aircraft/x10_f_cfg.ks (inferred preloaded)
3.07,APPROACH,ILS_TRACK,151.87,152,0.13,620.32,542.86,-15.47,15.39,21.03,269.99,-0.025,0.35,0,-1.208,1,0.6,4.5,0.75,0.35,0.0168,0.4,0,21.888,0,0.011,0,270,0,0,1,-5.91,0,0,0,270,0.8325,-0.0001,0.554,0,270,0.05,-47.33,11.342,-0.004,20.106,1,3,674.12,-7.383,0,668.72,0,0,0,,0,0,0,0,0,0,0,0,0,0,0,0,0,270.01,0,0,0,0,0,0,0,0,0,0,0,0,0,3,3,0,0,VALID,0,0,0,0,0,1,0,0,0,0,0,0,0,0,0,0,0,0,0,0,126.71,1082.38,2,0,0.175,0.175,17,5.71,0.175,0.175,3.07,FLYING,X10-F,0:/Integrated Flight Computer/aircraft/x10_f_cfg.ks (inferred preloaded)
3.42,APPROACH,ILS_TRACK,150.51,152,1.49,615.18,537.69,-14.24,15.56,20.77,269.99,-0.028,0.49,0,-1.196,1,0.6,4.5,0.75,0.35,0.0168,0.4,0,22.273,0,-1.354,0,270,0,0,1,-5.48,0,0,0,270,0.8325,0,0.554,0,270,0.05,-49.64,11.287,0,19.973,1,3,674.12,-6.35,0,665.82,0,0,0,,0,0,0,0,0,0,0,0,0,0,0,0,0,270.01,0,0,0,0,0,0,0,0,0,0,0,0,0,3,3,0,0,VALID,0,0,0,0,0,1,0,0,0,0,0,0,0,0,0,0,0,0,0,0,144.71,1077.07,2,0,0.175,0.175,19,5.71,0.175,0.175,3.42,FLYING,X10-F,0:/Integrated Flight Computer/aircraft/x10_f_cfg.ks (inferred preloaded)
3.77,APPROACH,ILS_TRACK,149.22,152,2.78,610.41,532.91,-13.19,15.57,20.43,269.99,-0.027,0.63,0,-1.184,1,0.6,4.5,0.75,0.35,0.0168,0.4,0,22.64,0,-2.659,0,270,0,0,1,-5.12,0,0,0,270,0.8326,0,0.5539,0,270,0.05,-51.62,11.232,0,19.8,1,3,674.12,-5.394,0,662.95,0,0,0,,0,0,0,0,0,0,0,0,0,0,0,0,0,270.01,0,0,0,0,0,0,0,0,0,0,0,0,0,3,3,0,0,VALID,0,0,0,0,0,1,0,0,0,0,0,0,0,0,0,0,0,0,0,0,171.49,1072.02,2,0,0.175,0.175,21,5.71,0.175,0.175,3.77,FLYING,X10-F,0:/Integrated Flight Computer/aircraft/x10_f_cfg.ks (inferred preloaded)
4.12,APPROACH,ILS_TRACK,148.04,152,3.96,605.98,528.48,-12.24,15.59,20.13,269.98,-0.029,0.77,0,-1.172,1,0.6,4.5,0.75,0.35,0.0168,0.4,0,22.974,0,-3.844,0,270,0,0,1,-4.79,0,0,0,270,0.8326,0.0001,0.5538,0,270,0.05,-53.25,11.178,0.003,19.531,1,3,674.12,-4.444,0,660.09,0,0,0,,0,0,0,0,0,0,0,0,0,0,0,0,0,270.01,0,0,0,0,0,0,0,0,0,0,0,0,0,3,3,0,0,VALID,0,0,0,0,0,1,0,0,0,0,0,0,0,0,0,0,0,0,0,0,206.4,1067.5,2,0,0.175,0.175,23,5.71,0.175,0.175,4.12,FLYING,X10-F,0:/Integrated Flight Computer/aircraft/x10_f_cfg.ks (inferred preloaded)
4.47,APPROACH,ILS_TRACK,147.02,152,4.98,601.9,524.37,-11.3,15.66,19.9,269.98,-0.031,0.91,0,-1.16,1,0.6,4.5,0.75,0.35,0.0168,0.4,0,23.267,0,-4.883,0,270,0,0,1,-4.46,0,0,0,270,0.8327,0.0001,0.5537,0,270,0.04,-54.57,11.124,0.003,19.192,1,3,674.12,-3.527,0,657.26,0,0,0,,0,0,0,0,0,0,0,0,0,0,0,0,0,270.01,0,0,0,0,0,0,0,0,0,0,0,0,0,3,3,0,0,VALID,0,0,0,0,0,1,0,0,0,0,0,0,0,0,0,0,0,0,0,0,248.83,1063.59,2,0,0.175,0.175,25,5.71,0.175,0.175,4.47,FLYING,X10-F,0:/Integrated Flight Computer/aircraft/x10_f_cfg.ks (inferred preloaded)
4.82,APPROACH,ILS_TRACK,146.16,152,5.84,598.13,520.59,-10.41,15.69,19.6,269.98,-0.041,1,0,-1.149,1,0.6,4.5,0.75,0.35,0.0168,0.4,0,23.514,0,-5.761,0,270,0,0,1,-4.14,0,0,0,270.01,0.8327,0.0001,0.5537,0,270,0.03,-55.58,11.07,0.004,18.827,1,3,674.12,-2.69,0,654.44,0,0,0,,0,0,0,0,0,0,0,0,0,0,0,0,0,270.01,0,0,0,0,0,0,0,0,0,0,0,0,0,3,3,0,0,VALID,0,0,0,0,0,1,0,0,0,0,0,0,0,0,0,0,0,0,0,0,298.27,1060.35,2,0,0.175,0.175,27,5.71,0.175,0.175,4.82,FLYING,X10-F,0:/Integrated Flight Computer/aircraft/x10_f_cfg.ks (inferred preloaded)
5.17,APPROACH,ILS_TRACK,145.49,152,6.51,594.69,517.11,-9.56,15.82,19.45,269.97,-0.044,1,0,-1.137,1,0.6,4.5,0.75,0.35,0.0168,0.4,0,23.709,0,-6.452,0,270.01,0,0,1,-3.82,0,0,0,270.01,0.8328,0.0002,0.5536,0,270.01,0.02,-56.28,11.016,0.011,18.289,1,3,674.12,-1.757,0,651.63,0,0,0,,0,0,0,0,0,0,0,0,0,0,0,0,0,270.01,0,0,0,0,0,0,0,0,0,0,0,0,0,3,3,0,0,VALID,0,0,0,0,0,1,0,0,0,0,0,0,0,0,0,0,0,0,0,0,349.01,1057.87,2,0,0.175,0.175,29,5.71,0.175,0.175,5.17,FLYING,X10-F,0:/Integrated Flight Computer/aircraft/x10_f_cfg.ks (inferred preloaded)
5.52,APPROACH,ILS_TRACK,144.98,152,7.02,591.58,513.93,-8.65,16.03,19.33,269.97,-0.049,1,0,-1.126,1,0.6,4.5,0.75,0.35,0.0168,0.4,0,23.856,0,-6.973,0,270.01,0,0,1,-3.48,0,0,0,270.01,0.8328,0.0002,0.5535,0,270.01,0,-56.66,10.963,0.01,17.682,1,3,674.12,-0.856,0,648.83,0,0,0,,0,0,0,0,0,0,0,0,0,0,0,0,0,270.01,0,0,0,0,0,0,0,0,0,0,0,0,0,3,3,0,0,VALID,0,0,0,0,0,1,0,0,0,0,0,0,0,0,0,0,0,0,0,0,396.4,1056.06,2,0,0.175,0.175,31,5.71,0.175,0.175,5.52,FLYING,X10-F,0:/Integrated Flight Computer/aircraft/x10_f_cfg.ks (inferred preloaded)
5.87,APPROACH,ILS_TRACK,144.62,152,7.38,588.8,511.08,-7.73,16.29,19.26,269.96,-0.054,1,0,-1.115,1,0.6,4.5,0.75,0.35,0.0168,0.4,0,23.961,0,-7.347,0,270.01,0,0,1,-3.13,0,0,0,270.01,0.8329,0.0002,0.5534,0,270.01,-0.02,-56.71,10.91,0.014,16.935,1,3,674.12,0.096,0,646.04,0,0,0,,0,0,0,0,0,0,0,0,0,0,0,0,0,270.01,0,0,0,0,0,0,0,0,0,0,0,0,0,3,3,0,0,VALID,0,0,0,0,0,1,0,0,0,0,0,0,0,0,0,0,0,0,0,0,440.62,1054.83,2,0,0.175,0.175,33,5.71,0.175,0.175,5.87,FLYING,X10-F,0:/Integrated Flight Computer/aircraft/x10_f_cfg.ks (inferred preloaded)
6.22,APPROACH,ILS_TRACK,144.38,152,7.62,586.38,508.56,-6.76,16.61,19.23,269.96,-0.056,1,0,-1.104,1,0.6,4.5,0.75,0.35,0.0168,0.4,0,24.032,0,-7.597,0,270.02,0,0,1,-2.76,0,0,0,270.02,0.8329,0.0003,0.5534,0,270.02,-0.04,-56.42,10.856,0.017,16.065,1,3,674.12,1.075,0,643.25,0,0,0,,0,0,0,0,0,0,0,0,0,0,0,0,0,270.01,0,0,0,0,0,0,0,0,0,0,0,0,0,3,3,0,0,VALID,0,0,0,0,0,1,0,0,0,0,0,0,0,0,0,0,0,0,0,0,481.93,1054.06,2,0,0.175,0.175,35,5.71,0.175,0.175,6.22,FLYING,X10-F,0:/Integrated Flight Computer/aircraft/x10_f_cfg.ks (inferred preloaded)
6.57,APPROACH,ILS_TRACK,144.22,152,7.78,584.26,506.45,-5.28,16.78,18.79,269.96,-0.025,0.9434,0,1.6,1,0.6,4.5,0.75,0.35,0.0168,0.4,0,24.08,0,-7.766,0,270.02,0,0,1,-2.22,0,0,0,270.02,0.833,0.0004,0.5533,0,270.02,-0.06,-55.79,10.803,0.022,15.188,1,3,674.12,1.938,0,640.46,0,0,0,,0,0,0,0,0,0,0,0,0,0,0,0,0,270.01,0,0,0,0,0,0,0,0,0,0,0,0,0,3,3,0,0,VALID,0,0,0,0,0,1,0,0,0,0,0,0,0,0,0,0,0,0,0,0,519.49,1053.55,2,0,0.175,0.175,37,5.71,0.175,0.175,6.57,FLYING,X10-F,0:/Integrated Flight Computer/aircraft/x10_f_cfg.ks (inferred preloaded)
6.92,APPROACH,ILS_TRACK,144.03,152,7.97,582.24,505.01,-3.31,15.29,16.3,269.99,0.08,0.934,0,4.366,1,0.6,4.5,0.75,0.35,0.0168,0.4,0,24.131,0,-7.948,0,270.03,0,0,1,-1.46,0,0,0,270.02,0.833,0.0005,0.5532,0,270.03,-0.09,-55.03,10.75,0.026,14.769,1,3,674.12,2.175,0,637.68,0,0,0,,0,0,0,0,0,0,0,0,0,0,0,0,0,270.01,0,0,0,0,0,0,0,0,0,0,0,0,0,3,3,0,0,VALID,0,0,0,0,0,1,0,0,0,0,0,0,0,0,0,0,0,0,0,0,551.25,1052.91,2,0,0.175,0.175,39,5.71,0.175,0.175,6.92,FLYING,X10-F,0:/Integrated Flight Computer/aircraft/x10_f_cfg.ks (inferred preloaded)
7.27,APPROACH,ILS_TRACK,144.22,152,7.78,580.24,504.03,-2.85,11.88,12.63,270,0.145,0.8489,0,7.137,1,0.6,4.5,0.75,0.35,0.0168,0.4,0,24.101,0,-7.843,0,270.02,0,0,1,-1.13,0,0,0,270.02,0.8331,0.0004,0.5531,0,270.02,-0.12,-54.28,10.697,0.024,14.449,1,3,674.12,2.293,0,634.9,0,0,0,,0,0,0,0,0,0,0,0,0,0,0,0,0,270.01,0,0,0,0,0,0,0,0,0,0,0,0,0,3,3,0,0,VALID,0,0,0,0,0,1,0,0,0,0,0,0,0,0,0,0,0,0,0,0,580.4,1053.7,2,0,0.175,0.175,41,5.71,0.175,0.175,7.27,FLYING,X10-F,0:/Integrated Flight Computer/aircraft/x10_f_cfg.ks (inferred preloaded)
7.62,APPROACH,ILS_TRACK,145.15,152,6.85,578.57,502.99,-3.33,9.45,10.52,270.01,0.194,0.7089,0,9.662,1,0.6,4.5,0.75,0.35,0.0168,0.4,0,23.853,0,-6.963,0,270.02,0,0,1,-1.27,0,0,0,270.02,0.8331,0.0004,0.5531,0,270.02,-0.14,-53.22,10.644,0.022,13.339,1,3,674.12,3.283,0,632.1,0,0,0,,0,0,0,0,0,0,0,0,0,0,0,0,0,270.01,0,0,0,0,0,0,0,0,0,0,0,0,0,3,3,0,0,VALID,0,0,0,0,0,1,0,0,0,0,0,0,0,0,0,0,0,0,0,0,602.2,1057.54,2,0,0.175,0.175,43,5.71,0.175,0.175,7.62,FLYING,X10-F,0:/Integrated Flight Computer/aircraft/x10_f_cfg.ks (inferred preloaded)
7.97,APPROACH,ILS_TRACK,146.31,152,5.69,577.21,501.69,-4.01,8.85,10.36,270.01,0.197,0.5689,0,11.799,1,0.6,4.5,0.75,0.35,0.0168,0.4,0,23.528,0,-5.809,0,270.02,0,0,1,-1.52,0,0,0,270.02,0.8332,0.0004,0.553,0,270.02,-0.16,-51.82,10.59,0.023,12.158,1,3,674.12,4.234,0,629.27,0,0,0,,0,0,0,0,0,0,0,0,0,0,0,0,0,270.01,0,0,0,0,0,0,0,0,0,0,0,0,0,3,3,0,0,VALID,0,0,0,0,0,1,0,0,0,0,0,0,0,0,0,0,0,0,0,0,613.4,1062.41,2,0,0.175,0.175,45,5.71,0.175,0.175,7.97,FLYING,X10-F,0:/Integrated Flight Computer/aircraft/x10_f_cfg.ks (inferred preloaded)
8.32,APPROACH,ILS_TRACK,147.48,152,4.52,576.13,500.19,-4.2,10.04,11.76,270.02,0.193,0.4289,0,13.521,1,0.6,4.5,0.75,0.35,0.0168,0.4,0,23.195,0,-4.629,0,270.02,0,0,1,-1.68,0,0,0,270.02,0.8332,0.0004,0.5529,0,270.02,-0.18,-50.1,10.535,0.021,10.92,1,3,674.12,5.136,0,626.43,0,0,0,,0,0,0,0,0,0,0,0,0,0,0,0,0,270.01,0,0,0,0,0,0,0,0,0,0,0,0,0,3,3,0,0,VALID,0,0,0,0,0,1,0,0,0,0,0,0,0,0,0,0,0,0,0,0,612.12,1067.38,2,0,0.175,0.175,47,5.71,0.175,0.175,8.32,FLYING,X10-F,0:/Integrated Flight Computer/aircraft/x10_f_cfg.ks (inferred preloaded)
8.67,APPROACH,ILS_TRACK,148.48,152,3.52,575.1,498.86,-3.27,11.26,12.54,270.03,0.192,0.2889,0,14.868,1,0.6,4.5,0.75,0.35,0.0168,0.4,0,22.908,0,-3.61,0,270.02,0,0,1,-1.36,0,0,0,270.02,0.8333,0.0003,0.5528,0,270.02,-0.2,-48.26,10.481,0.018,10.285,1,3,674.12,5.24,0,623.57,0,0,0,,0,0,0,0,0,0,0,0,0,0,0,0,0,270.01,0,0,0,0,0,0,0,0,0,0,0,0,0,3,3,0,0,VALID,0,0,0,0,0,1,0,0,0,0,0,0,0,0,0,0,0,0,0,0,593.83,1071.62,2,0,0.175,0.175,49,5.71,0.175,0.175,8.67,FLYING,X10-F,0:/Integrated Flight Computer/aircraft/x10_f_cfg.ks (inferred preloaded)
9.02,APPROACH,ILS_TRACK,149.26,152,2.74,574.03,497.85,-2.66,11.17,12.15,270.03,0.187,0.1489,0,15.92,1,0.6,4.5,0.75,0.35,0.0168,0.4,0,22.684,0,-2.814,0,270.02,0,0,1,-1.07,0,0,0,270.02,0.8333,0.0003,0.5528,0,270.02,-0.21,-46.46,10.426,0.016,9.789,1,3,674.12,5.187,0,620.69,0,0,0,,0,0,0,0,0,0,0,0,0,0,0,0,0,270.01,0,0,0,0,0,0,0,0,0,0,0,0,0,3,3,0,0,VALID,0,0,0,0,0,1,0,0,0,0,0,0,0,0,0,0,0,0,0,0,559.84,1074.97,2,0,0.175,0.175,51,5.71,0.175,0.175,9.02,FLYING,X10-F,0:/Integrated Flight Computer/aircraft/x10_f_cfg.ks (inferred preloaded)
9.37,APPROACH,ILS_TRACK,150.01,152,1.99,573.07,497.02,-2.27,10.76,11.55,270.03,0.17,0.0089,0,16.706,1,0.6,4.5,0.75,0.35,0.0168,0.4,0,22.472,0,-2.062,0,270.02,0,0,1,-0.87,0,0,0,270.01,0.8334,0.0003,0.5527,0,270.02,-0.22,-44.55,10.371,0.016,8.953,1,3,674.12,5.516,0,617.8,0,0,0,,0,0,0,0,0,0,0,0,0,0,0,0,0,270.01,0,0,0,0,0,0,0,0,0,0,0,0,0,3,3,0,0,VALID,0,0,0,0,0,1,0,0,0,0,0,0,0,0,0,0,0,0,0,0,512.2,1078.15,2,0,0.175,0.175,53,5.71,0.175,0.175,9.37,FLYING,X10-F,0:/Integrated Flight Computer/aircraft/x10_f_cfg.ks (inferred preloaded)
9.72,APPROACH,ILS_TRACK,150.63,152,1.37,572.27,496.29,-1.99,10.53,11.23,270.03,0.152,0,0,17.256,1,0.6,4.5,0.75,0.35,0.0168,0.4,0,22.292,0,-1.422,0,270.01,0,0,1,-0.78,0,0,0,270.01,0.8334,0.0002,0.5526,0,270.01,-0.22,-42.48,10.315,0.013,7.92,1,3,674.12,6.03,0,614.9,0,0,0,,0,0,0,0,0,0,0,0,0,0,0,0,0,270.01,0,0,0,0,0,0,0,0,0,0,0,0,0,3,3,0,0,VALID,0,0,0,0,0,1,0,0,0,0,0,0,0,0,0,0,0,0,0,0,455.44,1080.83,2,0,0.175,0.175,55,5.71,0.175,0.175,9.72,FLYING,X10-F,0:/Integrated Flight Computer/aircraft/x10_f_cfg.ks (inferred preloaded)
10.07,APPROACH,ILS_TRACK,151.08,152,0.92,571.62,495.61,-1.78,10.58,11.24,270.02,0.128,0,0,17.628,1,0.6,4.5,0.75,0.35,0.0168,0.4,0,22.161,0,-0.958,0,270.01,0,0,1,-0.72,0,0,0,270.01,0.8335,0.0002,0.5525,0,270.01,-0.22,-40.24,10.26,0.01,6.84,1,3,674.12,6.541,0,611.99,0,0,0,,0,0,0,0,0,0,0,0,0,0,0,0,0,270.01,0,0,0,0,0,0,0,0,0,0,0,0,0,3,3,0,0,VALID,0,0,0,0,0,1,0,0,0,0,0,0,0,0,0,0,0,0,0,0,403.37,1082.75,2,0,0.175,0.175,57,5.71,0.175,0.175,10.07,FLYING,X10-F,0:/Integrated Flight Computer/aircraft/x10_f_cfg.ks (inferred preloaded)
10.42,APPROACH,ILS_TRACK,151.32,152,0.68,571.05,495.01,-1.7,10.6,11.25,270.02,0.105,0,0,17.892,1,0.6,4.5,0.75,0.35,0.0168,0.4,0,22.088,0,-0.7,0,270.01,0,0,1,-0.64,0,0,0,270.01,0.8335,0.0002,0.5525,0,270.01,-0.22,-37.92,10.204,0.011,5.994,1,3,674.12,6.729,0,609.07,0,0,0,,0,0,0,0,0,0,0,0,0,0,0,0,0,270.01,0,0,0,0,0,0,0,0,0,0,0,0,0,3,3,0,0,VALID,0,0,0,0,0,1,0,0,0,0,0,0,0,0,0,0,0,0,0,0,356.97,1083.82,2,0,0.175,0.175,59,5.71,0.175,0.175,10.42,FLYING,X10-F,0:/Integrated Flight Computer/aircraft/x10_f_cfg.ks (inferred preloaded)
10.77,APPROACH,ILS_TRACK,151.37,152,0.63,570.53,494.52,-1.26,10.66,11.07,270.02,0.089,0.003,0,18.112,1,0.6,4.5,0.75,0.35,0.0168,0.4,0,22.068,0,-0.627,0,270.01,0,0,1,-0.48,0,0,0,270.01,0.8336,0.0002,0.5524,0,270.01,-0.22,-35.52,10.149,0.009,5.229,1,3,674.12,6.781,0,606.15,0,0,0,,0,0,0,0,0,0,0,0,0,0,0,0,0,270.01,0,0,0,0,0,0,0,0,0,0,0,0,0,3,3,0,0,VALID,0,0,0,0,0,1,0,0,0,0,0,0,0,0,0,0,0,0,0,0,315.68,1084.07,2,0,0.175,0.175,61,5.71,0.175,0.175,10.77,FLYING,X10-F,0:/Integrated Flight Computer/aircraft/x10_f_cfg.ks (inferred preloaded)
11.12,APPROACH,ILS_TRACK,151.29,152,0.71,570.09,494.07,-1.35,10.55,11.07,270.01,0.069,0.143,0,18.349,1,0.6,4.5,0.75,0.35,0.0168,0.4,0,22.088,0,-0.698,0,270.01,0,0,1,-0.51,0,0,0,270.01,0.8336,0.0001,0.5523,0,270.01,-0.22,-33.08,10.093,0.008,4.249,1,3,674.12,7.094,0,603.24,0,0,0,,0,0,0,0,0,0,0,0,0,0,0,0,0,270.01,0,0,0,0,0,0,0,0,0,0,0,0,0,3,3,0,0,VALID,0,0,0,0,0,1,0,0,0,0,0,0,0,0,0,0,0,0,0,0,283,1083.78,2,0,0.175,0.175,63,5.71,0.175,0.175,11.12,FLYING,X10-F,0:/Integrated Flight Computer/aircraft/x10_f_cfg.ks (inferred preloaded)
11.47,APPROACH,ILS_TRACK,151.1,152,0.9,569.7,493.66,-1.08,10.7,11.09,270.01,0.06,0.283,0,18.638,1,0.6,4.5,0.75,0.35,0.0168,0.4,0,22.139,0,-0.879,0,270.01,0,0,1,-0.41,0,0,0,270.01,0.8337,0.0001,0.5522,0,270.01,-0.22,-30.55,10.037,0.008,3.431,1,3,674.12,7.167,0,600.32,0,0,0,,0,0,0,0,0,0,0,0,0,0,0,0,0,270.01,0,0,0,0,0,0,0,0,0,0,0,0,0,3,3,0,0,VALID,0,0,0,0,0,1,0,0,0,0,0,0,0,0,0,0,0,0,0,0,270.79,1083,2,0,0.175,0.175,65,5.71,0.175,0.175,11.47,FLYING,X10-F,0:/Integrated Flight Computer/aircraft/x10_f_cfg.ks (inferred preloaded)
11.82,APPROACH,ILS_TRACK,150.86,152,1.14,569.31,493.32,-0.84,10.64,10.9,270.01,0.052,0.423,0,19.008,1,0.6,4.5,0.75,0.35,0.0168,0.4,0,22.205,0,-1.115,0,270.01,-0.357,0,1,-0.33,0,0,-0.03,270.01,0.8372,0.0001,0.5469,-0.36,270.01,-0.22,-28.02,9.982,0.006,2.643,1,3,674.12,7.202,-0.357,597.42,0,0,0,,0,0,0,0,0,0,0,0,0,0,0,0,0,270.01,0,0,0,0,0,0,0,0,0,0,0,0,0,3,3,0,0,VALID,0,0,0,0,0,1,0,0,0,0,0,0,0,0,0,0,0,0,0,0,274.38,1082.03,2,0,0.175,0.175,67,5.71,0.175,0.175,11.82,FLYING,X10-F,0:/Integrated Flight Computer/aircraft/x10_f_cfg.ks (inferred preloaded)
12.17,APPROACH,ILS_TRACK,150.66,152,1.34,568.89,493.05,-0.84,10.13,10.4,270.01,0.041,0.5247,0,19.455,1,0.6,4.5,0.75,0.35,0.0168,0.4,0,22.264,0,-1.325,0,270.01,-1.009,0,1,-0.31,0,0,-0.62,270.01,0.8434,0.0001,0.5373,-1.01,270.01,-0.22,-25.54,9.926,0.008,1.991,1,3,674.12,7.089,-1.009,594.51,0,0,0,,0,0,0,0,0,0,0,0,0,0,0,0,0,270.01,0,0,0,0,0,0,0,0,0,0,0,0,0,3,3,0,0,VALID,0,0,0,0,0,1,0,0,0,0,0,0,0,0,0,0,0,0,0,0,288.19,1081.2,2,0,0.175,0.175,69,5.71,0.175,0.175,12.17,FLYING,X10-F,0:/Integrated Flight Computer/aircraft/x10_f_cfg.ks (inferred preloaded)
12.52,APPROACH,ILS_TRACK,150.55,152,1.45,568.36,492.82,-0.64,9.33,9.41,270.01,0.04,0.5439,0,19.95,1,0.6,4.5,0.75,0.35,0.0168,0.4,0,22.297,0,-1.44,0,270.01,-1.425,0,1,-0.23,0,0,-1.38,270.01,0.8473,0.0001,0.5311,-1.43,270.01,-0.22,-23.13,9.871,0.008,1.575,1,3,674.12,6.704,-1.425,591.61,0,0,0,,0,0,0,0,0,0,0,0,0,0,0,0,0,270.01,0,0,0,0,0,0,0,0,0,0,0,0,0,3,3,0,0,VALID,0,0,0,0,0,1,0,0,0,0,0,0,0,0,0,0,0,0,0,0,307.17,1080.76,2,0,0.175,0.175,71,5.71,0.175,0.175,12.52,FLYING,X10-F,0:/Integrated Flight Computer/aircraft/x10_f_cfg.ks (inferred preloaded)
12.87,APPROACH,ILS_TRACK,150.61,152,1.39,567.73,492.52,-1.18,8.13,8.46,270.01,0.043,0.4874,0,20,1,0.6,4.5,0.75,0.35,0.0168,0.4,0,22.286,0,-1.402,0,270.01,-1.957,0,1,-0.4,0,0,-1.58,270.01,0.8523,0.0001,0.5231,-1.96,270.01,-0.22,-20.85,9.816,0.007,1.043,1,3,674.12,6.516,-1.957,588.71,0,0,0,,0,0,0,0,0,0,0,0,0,0,0,0,0,270.01,0,0,0,0,0,0,0,0,0,0,0,0,0,3,3,0,0,VALID,0,0,0,0,0,1,0,0,0,0,0,0,0,0,0,0,0,0,0,0,325.77,1081.02,2,0,0.175,0.175,73,5.71,0.175,0.175,12.87,FLYING,X10-F,0:/Integrated Flight Computer/aircraft/x10_f_cfg.ks (inferred preloaded)
13.22,APPROACH,ILS_TRACK,150.85,152,1.15,566.98,492.09,-1.5,7.22,7.61,270.01,0.047,0.3731,0,20,1,0.6,4.5,0.75,0.35,0.0168,0.4,0,22.225,0,-1.184,0,270.01,-2.291,0,1,-0.52,0,0,-2.27,270.01,0.8553,0.0001,0.5181,-2.29,270.01,-0.22,-18.65,9.76,0.01,0.709,1,3,674.12,6.107,-2.291,585.8,0,0,0,,0,0,0,0,0,0,0,0,0,0,0,0,0,270.01,0,0,0,0,0,0,0,0,0,0,0,0,0,3,3,0,0,VALID,0,0,0,0,0,1,0,0,0,0,0,0,0,0,0,0,0,0,0,0,338.36,1082.01,2,0,0.175,0.175,75,5.71,0.175,0.175,13.22,FLYING,X10-F,0:/Integrated Flight Computer/aircraft/x10_f_cfg.ks (inferred preloaded)
13.57,APPROACH,ILS_TRACK,151.2,152,0.8,566.1,491.4,-2.42,6.37,7.19,270.01,0.052,0.2385,0,20,1,0.6,4.5,0.75,0.35,0.0168,0.4,0,22.126,0,-0.835,0,270.01,-2.663,0,1,-0.84,0,0,-2.38,270.01,0.8587,0.0001,0.5124,-2.66,270.01,-0.22,-16.61,9.705,0.008,0.337,1,3,674.12,5.808,-2.663,582.89,0,0,0,,0,0,0,0,0,0,0,0,0,0,0,0,0,270.01,0,0,0,0,0,0,0,0,0,0,0,0,0,3,3,0,0,VALID,0,0,0,0,0,1,0,0,0,0,0,0,0,0,0,0,0,0,0,0,341.51,1083.56,2,0,0.175,0.175,77,5.71,0.175,0.175,13.57,FLYING,X10-F,0:/Integrated Flight Computer/aircraft/x10_f_cfg.ks (inferred preloaded)
13.92,APPROACH,ILS_TRACK,151.6,152,0.4,565.02,490.5,-2.8,5.96,6.84,270.01,0.053,0.1252,0,20,1,0.6,4.5,0.75,0.35,0.0168,0.4,0,22.015,0,-0.441,0,270.01,-2.72,0,1,-1.01,0,0,-2.92,270.01,0.8593,0.0001,0.5115,-2.72,270.01,-0.22,-14.7,9.649,0.007,0.28,1,3,674.12,5.163,-2.72,579.97,0,0,0,,0,0,0,0,0,0,0,0,0,0,0,0,0,270.01,0,0,0,0,0,0,0,0,0,0,0,0,0,3,3,0,0,VALID,0,0,0,0,0,1,0,0,0,0,0,0,0,0,0,0,0,0,0,0,330.01,1085.29,2,0,0.175,0.175,79,5.71,0.175,0.175,13.92,FLYING,X10-F,0:/Integrated Flight Computer/aircraft/x10_f_cfg.ks (inferred preloaded)
14.27,APPROACH,ILS_TRACK,152.01,152,-0.01,563.69,489.34,-3.84,5.24,6.57,270.01,0.051,0.0353,0,20,1,0.6,4.5,0.75,0.35,0.0168,0.4,0,21.899,0,-0.03,0,270.01,-2.724,0,1,-1.36,0,0,-2.59,270.01,0.8594,0.0001,0.5113,-2.72,270.01,-0.22,-13.08,9.593,0.006,0.276,1,3,674.12,4.561,-2.724,577.04,0,0,0,,0,0,0,0,0,0,0,0,0,0,0,0,0,270.01,0,0,0,0,0,0,0,0,0,0,0,0,0,3,3,0,0,VALID,0,0,0,0,0,1,0,0,0,0,0,0,0,0,0,0,0,0,0,0,306.16,1087.11,2,0,0.175,0.175,81,5.71,0.175,0.175,14.27,FLYING,X10-F,0:/Integrated Flight Computer/aircraft/x10_f_cfg.ks (inferred preloaded)
14.62,APPROACH,ILS_TRACK,152.33,152,-0.33,562.33,487.8,-4.61,5.69,7.39,270.01,0.051,0.0011,0,19.92,1,0.6,4.5,0.75,0.35,0.0168,0.4,0,21.805,0,0.303,0,270.01,-3.184,0,1,-1.71,0,0,-2.96,270.01,0.8635,0.0001,0.5043,-3.18,270.01,-0.22,-11.49,9.537,0.01,-0.184,1,3,674.12,4.538,-3.184,574.11,0,0,0,,0,0,0,0,0,0,0,0,0,0,0,0,0,270.01,0,0,0,0,0,0,0,0,0,0,0,0,0,3,3,0,0,VALID,0,0,0,0,0,1,0,0,0,0,0,0,0,0,0,0,0,0,0,0,274.58,1088.59,2,0,0.175,0.175,83,5.71,0.175,0.175,14.62,FLYING,X10-F,0:/Integrated Flight Computer/aircraft/x10_f_cfg.ks (inferred preloaded)
14.97,APPROACH,ILS_TRACK,152.52,152,-0.52,560.63,486.14,-4.99,5.72,7.45,270.01,0.052,0.0238,0,19.757,1,0.6,4.5,0.75,0.35,0.0168,0.4,0,21.748,0,0.508,0,270.01,-2.674,0,1,-1.82,0,0,-2.99,270.01,0.859,0.0001,0.5119,-2.67,270.01,-0.22,-10.18,9.481,0.008,0.326,1,3,674.12,3.412,-2.674,571.18,0,0,0,,0,0,0,0,0,0,0,0,0,0,0,0,0,270.01,0,0,0,0,0,0,0,0,0,0,0,0,0,3,3,0,0,VALID,0,0,0,0,0,1,0,0,0,0,0,0,0,0,0,0,0,0,0,0,243.49,1089.54,2,0,0.175,0.175,85,5.71,0.175,0.175,14.97,FLYING,X10-F,0:/Integrated Flight Computer/aircraft/x10_f_cfg.ks (inferred preloaded)
15.32,APPROACH,ILS_TRACK,152.61,152,-0.61,558.8,484.23,-5.81,5.79,7.91,270.01,0.049,0.0762,0,19.551,1,0.6,4.5,0.75,0.35,0.0168,0.4,0,21.719,0,0.609,0,270.01,-2.812,0,1,-2.12,0,0,-2.66,270.01,0.8603,0.0001,0.5098,-2.81,270.01,-0.21,-9.07,9.425,0.008,0.188,1,3,674.12,3.168,-2.812,568.24,0,0,0,,0,0,0,0,0,0,0,0,0,0,0,0,0,270.01,0,0,0,0,0,0,0,0,0,0,0,0,0,3,3,0,0,VALID,0,0,0,0,0,1,0,0,0,0,0,0,0,0,0,0,0,0,0,0,219.39,1090.06,2,0,0.175,0.175,87,5.71,0.175,0.175,15.32,FLYING,X10-F,0:/Integrated Flight Computer/aircraft/x10_f_cfg.ks (inferred preloaded)
15.67,APPROACH,ILS_TRACK,152.56,152,-0.56,556.9,482.13,-5.96,6.56,8.72,270.01,0.05,0.1657,0,19.345,1,0.6,4.5,0.75,0.35,0.0168,0.4,0,21.73,0,0.571,0,270.01,-2.947,0,1,-2.25,0,0,-3.03,270.01,0.8616,0.0001,0.5077,-2.95,270.01,-0.21,-8,9.369,0.008,0.053,1,3,674.12,2.932,-2.947,565.3,0,0,0,,0,0,0,0,0,0,0,0,0,0,0,0,0,270.01,0,0,0,0,0,0,0,0,0,0,0,0,0,3,3,0,0,VALID,0,0,0,0,0,1,0,0,0,0,0,0,0,0,0,0,0,0,0,0,205.42,1090.02,2,0,0.175,0.175,89,5.71,0.175,0.175,15.67,FLYING,X10-F,0:/Integrated Flight Computer/aircraft/x10_f_cfg.ks (inferred preloaded)
16.02,APPROACH,ILS_TRACK,152.43,152,-0.43,554.73,479.98,-6.35,6.49,8.75,270.01,0.046,0.2626,0,19.178,1,0.6,4.5,0.75,0.35,0.0168,0.4,0,21.767,0,0.44,0,270.01,-2.558,0,1,-2.34,0,0,-2.61,270.01,0.8581,0.0001,0.5134,-2.56,270.01,-0.21,-7.21,9.313,0.008,0.442,1,3,674.12,2.149,-2.558,562.37,0,0,0,,0,0,0,0,0,0,0,0,0,0,0,0,0,270.01,0,0,0,0,0,0,0,0,0,0,0,0,0,3,3,0,0,VALID,0,0,0,0,0,1,0,0,0,0,0,0,0,0,0,0,0,0,0,0,203.9,1089.62,2,0,0.175,0.175,91,5.71,0.175,0.175,16.02,FLYING,X10-F,0:/Integrated Flight Computer/aircraft/x10_f_cfg.ks (inferred preloaded)
16.37,APPROACH,ILS_TRACK,152.28,152,-0.28,552.61,477.65,-6.75,7.01,9.52,270.01,0.041,0.3338,0,19.061,1,0.6,4.5,0.75,0.35,0.0168,0.4,0,21.808,0,0.295,0,270.01,-2.942,0,1,-2.54,0,0,-2.7,270.01,0.8616,0.0001,0.5076,-2.94,270.01,-0.21,-6.41,9.257,0.007,0.058,1,3,674.12,2.333,-2.942,559.44,0,0,0,,0,0,0,0,0,0,0,0,0,0,0,0,0,270.01,0,0,0,0,0,0,0,0,0,0,0,0,0,3,3,0,0,VALID,0,0,0,0,0,1,0,0,0,0,0,0,0,0,0,0,0,0,0,0,210.15,1089.19,2,0,0.175,0.175,93,5.71,0.175,0.175,16.37,FLYING,X10-F,0:/Integrated Flight Computer/aircraft/x10_f_cfg.ks (inferred preloaded)
16.72,APPROACH,ILS_TRACK,152.08,152,-0.08,550.28,475.34,-6.52,7.23,9.51,270.01,0.039,0.4065,0,19.009,1,0.6,4.5,0.75,0.35,0.0168,0.4,0,21.864,0,0.097,0,270.01,-2.567,0,1,-2.45,0,0,-2.93,270.01,0.8583,0.0001,0.5131,-2.57,270.01,-0.21,-5.75,9.201,0.007,0.433,1,3,674.12,1.615,-2.567,556.52,0,0,0,,0,0,0,0,0,0,0,0,0,0,0,0,0,270.01,0,0,0,0,0,0,0,0,0,0,0,0,0,3,3,0,0,VALID,0,0,0,0,0,1,0,0,0,0,0,0,0,0,0,0,0,0,0,0,221.23,1088.51,2,0,0.175,0.175,95,5.71,0.175,0.175,16.72,FLYING,X10-F,0:/Integrated Flight Computer/aircraft/x10_f_cfg.ks (inferred preloaded)
17.07,APPROACH,ILS_TRACK,151.93,152,0.07,547.83,473,-6.92,6.78,9.25,270.01,0.033,0.4377,0,19.019,1,0.6,4.5,0.75,0.35,0.0168,0.4,0,21.907,0,-0.058,0,270.01,-2.499,0,1,-2.57,0,0,-2.4,270.01,0.8577,0.0001,0.5141,-2.5,270.01,-0.21,-5.28,9.146,0.007,0.501,1,3,674.12,1.354,-2.499,553.6,0,0,0,,0,0,0,0,0,0,0,0,0,0,0,0,0,270.01,0,0,0,0,0,0,0,0,0,0,0,0,0,3,3,0,0,VALID,0,0,0,0,0,1,0,0,0,0,0,0,0,0,0,0,0,0,0,0,236.69,1088.1,2,0,0.175,0.175,97,5.71,0.175,0.175,17.07,FLYING,X10-F,0:/Integrated Flight Computer/aircraft/x10_f_cfg.ks (inferred preloaded)
17.42,APPROACH,ILS_TRACK,151.86,152,0.14,545.5,470.48,-7.21,7.24,9.92,270.01,0.028,0.4283,0,19.058,1,0.6,4.5,0.75,0.35,0.0168,0.4,0,21.928,0,-0.13,0,270.01,-2.977,0,1,-2.73,0,0,-2.71,270.01,0.8621,0.0001,0.5068,-2.98,270.01,-0.21,-4.71,9.09,0.009,0.023,1,3,674.12,1.738,-2.977,550.68,0,0,0,,0,0,0,0,0,0,0,0,0,0,0,0,0,270.01,0,0,0,0,0,0,0,0,0,0,0,0,0,3,3,0,0,VALID,0,0,0,0,0,1,0,0,0,0,0,0,0,0,0,0,0,0,0,0,252.75,1088,2,0,0.175,0.175,99,5.71,0.175,0.175,17.42,FLYING,X10-F,0:/Integrated Flight Computer/aircraft/x10_f_cfg.ks (inferred preloaded)
17.77,APPROACH,ILS_TRACK,151.79,152,0.21,543,468.02,-7.01,7.33,9.8,270,0.028,0.424,0,19.122,1,0.6,4.5,0.75,0.35,0.0168,0.4,0,21.947,0,-0.2,0,270.01,-2.601,0,1,-2.63,0,0,-2.91,270.01,0.8588,0.0001,0.5124,-2.6,270.01,-0.21,-4.25,9.034,0.009,0.399,1,3,674.12,1.094,-2.601,547.76,0,0,0,,0,0,0,0,0,0,0,0,0,0,0,0,0,270.01,0,0,0,0,0,0,0,0,0,0,0,0,0,3,3,0,0,VALID,0,0,0,0,0,1,0,0,0,0,0,0,0,0,0,0,0,0,0,0,267.11,1087.91,2,0,0.175,0.175,101,5.71,0.175,0.175,17.77,FLYING,X10-F,0:/Integrated Flight Computer/aircraft/x10_f_cfg.ks (inferred preloaded)
18.12,APPROACH,ILS_TRACK,151.81,152,0.19,540.49,465.5,-7.37,7.18,9.85,270,0.023,0.3915,0,19.195,1,0.6,4.5,0.75,0.35,0.0168,0.4,0,21.947,0,-0.199,0,270.01,-2.775,0,1,-2.75,0,0,-2.59,270.01,0.8604,0.0001,0.5097,-2.78,270.01,-0.21,-3.87,8.979,0.008,0.225,1,3,674.12,1.169,-2.775,544.84,0,0,0,,0,0,0,0,0,0,0,0,0,0,0,0,0,270.01,0,0,0,0,0,0,0,0,0,0,0,0,0,3,3,0,0,VALID,0,0,0,0,0,1,0,0,0,0,0,0,0,0,0,0,0,0,0,0,280.05,1088.15,2,0,0.175,0.175,103,5.71,0.175,0.175,18.12,FLYING,X10-F,0:/Integrated Flight Computer/aircraft/x10_f_cfg.ks (inferred preloaded)
18.47,APPROACH,ILS_TRACK,151.85,152,0.15,537.98,462.95,-7.11,7.49,10.02,270,0.023,0.3528,0,19.252,1,0.6,4.5,0.75,0.35,0.0168,0.4,0,21.934,0,-0.153,0,270.01,-2.907,0,1,-2.71,0,0,-3,270.01,0.8616,0.0001,0.5076,-2.91,270.01,-0.21,-3.42,8.923,0.01,0.093,1,3,674.12,1.168,-2.907,541.93,0,0,0,,0,0,0,0,0,0,0,0,0,0,0,0,0,270.01,0,0,0,0,0,0,0,0,0,0,0,0,0,3,3,0,0,VALID,0,0,0,0,0,1,0,0,0,0,0,0,0,0,0,0,0,0,0,0,289.58,1088.55,2,0,0.175,0.175,105,5.71,0.175,0.175,18.47,FLYING,X10-F,0:/Integrated Flight Computer/aircraft/x10_f_cfg.ks (inferred preloaded)
18.82,APPROACH,ILS_TRACK,151.92,152,0.08,535.33,460.45,-7.34,6.99,9.58,270,0.024,0.3193,0,19.291,1,0.6,4.5,0.75,0.35,0.0168,0.4,0,21.917,0,-0.091,0,270.01,-2.666,0,1,-2.73,0,0,-2.64,270.01,0.8595,0.0002,0.5112,-2.67,270.01,-0.21,-3.15,8.867,0.011,0.334,1,3,674.12,0.764,-2.666,539.01,0,0,0,,0,0,0,0,0,0,0,0,0,0,0,0,0,270.01,0,0,0,0,0,0,0,0,0,0,0,0,0,3,3,0,0,VALID,0,0,0,0,0,1,0,0,0,0,0,0,0,0,0,0,0,0,0,0,295.83,1089.04,2,0,0.175,0.175,107,5.71,0.175,0.175,18.82,FLYING,X10-F,0:/Integrated Flight Computer/aircraft/x10_f_cfg.ks (inferred preloaded)
19.17,APPROACH,ILS_TRACK,152.05,152,-0.05,532.8,457.81,-7.53,7.22,9.97,270,0.022,0.266,0,19.288,1,0.6,4.5,0.75,0.35,0.0168,0.4,0,21.879,0,0.042,0,270.01,-3.105,0,1,-2.85,0,0,-2.86,270.01,0.8634,0.0001,0.5045,-3.11,270.01,-0.21,-2.78,8.812,0.011,-0.105,1,3,674.12,1.174,-3.105,536.09,0,0,0,,0,0,0,0,0,0,0,0,0,0,0,0,0,270.01,0,0,0,0,0,0,0,0,0,0,0,0,0,3,3,0,0,VALID,0,0,0,0,0,1,0,0,0,0,0,0,0,0,0,0,0,0,0,0,298.83,1089.82,2,0,0.175,0.175,109,5.71,0.175,0.175,19.17,FLYING,X10-F,0:/Integrated Flight Computer/aircraft/x10_f_cfg.ks (inferred preloaded)
19.52,APPROACH,ILS_TRACK,152.16,152,-0.16,530.11,455.24,-7.36,7.02,9.59,270,0.032,0.2398,0,19.244,1,0.6,4.5,0.75,0.35,0.0168,0.4,0,21.849,0,0.148,0,270.01,-2.71,0,1,-2.75,0,0,-3.01,270.01,0.86,0.0001,0.5103,-2.71,270.01,-0.21,-2.51,8.756,0.009,0.29,1,3,674.12,0.577,-2.71,533.16,0,0,0,,0,0,0,0,0,0,0,0,0,0,0,0,0,270.01,0,0,0,0,0,0,0,0,0,0,0,0,0,3,3,0,0,VALID,0,0,0,0,0,1,0,0,0,0,0,0,0,0,0,0,0,0,0,0,297.29,1090.47,2,0,0.175,0.175,111,5.71,0.175,0.175,19.52,FLYING,X10-F,0:/Integrated Flight Computer/aircraft/x10_f_cfg.ks (inferred preloaded)
19.87,APPROACH,ILS_TRACK,152.3,152,-0.3,527.43,452.59,-7.78,6.73,9.53,270,0.03,0.2034,0,19.157,1,0.6,4.5,0.75,0.35,0.0168,0.4,0,21.809,0,0.289,0,270.01,-2.883,0,1,-2.89,0,0,-2.71,270.01,0.8616,0.0002,0.5077,-2.88,270.01,-0.22,-2.29,8.7,0.012,0.117,1,3,674.12,0.712,-2.883,530.24,0,0,0,,0,0,0,0,0,0,0,0,0,0,0,0,0,270.01,0,0,0,0,0,0,0,0,0,0,0,0,0,3,3,0,0,VALID,0,0,0,0,0,1,0,0,0,0,0,0,0,0,0,0,0,0,0,0,292.71,1091.29,2,0,0.175,0.175,113,5.71,0.175,0.175,19.87,FLYING,X10-F,0:/Integrated Flight Computer/aircraft/x10_f_cfg.ks (inferred preloaded)
20.22,APPROACH,ILS_TRACK,152.42,152,-0.42,524.8,449.86,-7.63,7.17,9.9,270,0.03,0.1838,0,19.022,1,0.6,4.5,0.75,0.35,0.0168,0.4,0,21.774,0,0.413,0,270.01,-3.105,0,1,-2.89,0,0,-3.14,270.01,0.8636,0.0002,0.5042,-3.11,270.01,-0.22,-1.97,8.644,0.011,-0.105,1,3,674.12,0.869,-3.105,527.32,0,0,0,,0,0,0,0,0,0,0,0,0,0,0,0,0,270.01,0,0,0,0,0,0,0,0,0,0,0,0,0,3,3,0,0,VALID,0,0,0,0,0,1,0,0,0,0,0,0,0,0,0,0,0,0,0,0,284.19,1092,2,0,0.175,0.175,115,5.71,0.175,0.175,20.22,FLYING,X10-F,0:/Integrated Flight Computer/aircraft/x10_f_cfg.ks (inferred preloaded)
20.57,APPROACH,ILS_TRACK,152.49,152,-0.49,522.04,447.17,-7.83,6.9,9.69,270,0.035,0.1911,0,18.86,1,0.6,4.5,0.75,0.35,0.0168,0.4,0,21.756,0,0.479,0,270.01,-2.829,0,1,-2.91,0,0,-2.82,270.01,0.8612,0.0002,0.5083,-2.83,270.01,-0.23,-1.8,8.588,0.012,0.171,1,3,674.12,0.462,-2.829,524.39,0,0,0,,0,0,0,0,0,0,0,0,0,0,0,0,0,270.01,0,0,0,0,0,0,0,0,0,0,0,0,0,3,3,0,0,VALID,0,0,0,0,0,1,0,0,0,0,0,0,0,0,0,0,0,0,0,0,274.94,1092.5,2,0,0.175,0.175,117,5.71,0.175,0.175,20.57,FLYING,X10-F,0:/Integrated Flight Computer/aircraft/x10_f_cfg.ks (inferred preloaded)
20.92,APPROACH,ILS_TRACK,152.54,152,-0.54,519.37,444.39,-7.86,7.22,10.06,270,0.029,0.1957,0,18.675,1,0.6,4.5,0.75,0.35,0.0168,0.4,0,21.739,0,0.54,0,270.01,-3.157,0,1,-2.97,0,0,-3.01,270.01,0.8641,0.0002,0.5033,-3.16,270.01,-0.23,-1.55,8.533,0.013,-0.157,1,3,674.12,0.778,-3.157,521.46,0,0,0,,0,0,0,0,0,0,0,0,0,0,0,0,0,270.01,0,0,0,0,0,0,0,0,0,0,0,0,0,3,3,0,0,VALID,0,0,0,0,0,1,0,0,0,0,0,0,0,0,0,0,0,0,0,0,267.29,1092.96,2,0,0.175,0.175,119,5.71,0.175,0.175,20.92,FLYING,X10-F,0:/Integrated Flight Computer/aircraft/x10_f_cfg.ks (inferred preloaded)
21.27,APPROACH,ILS_TRACK,152.54,152,-0.54,516.55,441.68,-7.83,6.95,9.71,270,0.036,0.2221,0,18.486,1,0.6,4.5,0.75,0.35,0.0168,0.4,0,21.739,0,0.539,0,270.01,-2.771,0,1,-2.92,0,0,-2.94,270.01,0.8607,0.0002,0.509,-2.77,270.01,-0.24,-1.42,8.477,0.014,0.229,1,3,674.12,0.248,-2.771,518.54,0,0,0,,0,0,0,0,0,0,0,0,0,0,0,0,0,270.01,0,0,0,0,0,0,0,0,0,0,0,0,0,3,3,0,0,VALID,0,0,0,0,0,1,0,0,0,0,0,0,0,0,0,0,0,0,0,0,261.77,1093.16,2,0,0.175,0.175,121,5.71,0.175,0.175,21.27,FLYING,X10-F,0:/Integrated Flight Computer/aircraft/x10_f_cfg.ks (inferred preloaded)
21.62,APPROACH,ILS_TRACK,152.55,152,-0.55,513.81,438.87,-8.12,7,9.97,270,0.033,0.2321,0,18.294,1,0.6,4.5,0.75,0.35,0.0168,0.4,0,21.736,0,0.551,0,270.01,-3.073,0,1,-3.05,0,0,-2.86,270.01,0.8635,0.0002,0.5044,-3.07,270.01,-0.24,-1.27,8.421,0.014,-0.073,1,3,674.12,0.566,-3.073,515.61,0,0,0,,0,0,0,0,0,0,0,0,0,0,0,0,0,270.01,0,0,0,0,0,0,0,0,0,0,0,0,0,3,3,0,0,VALID,0,0,0,0,0,1,0,0,0,0,0,0,0,0,0,0,0,0,0,0,259.78,1093.44,2,0,0.175,0.175,123,5.71,0.175,0.175,21.62,FLYING,X10-F,0:/Integrated Flight Computer/aircraft/x10_f_cfg.ks (inferred preloaded)
21.97,APPROACH,ILS_TRACK,152.53,152,-0.53,511.02,436.07,-7.94,7.19,10.02,270,0.034,0.2504,0,18.105,1,0.6,4.5,0.75,0.35,0.0168,0.4,0,21.741,0,0.532,0,270.01,-2.957,0,1,-2.98,0,0,-3.14,270.01,0.8625,0.0002,0.5061,-2.96,270.01,-0.25,-1.1,8.365,0.014,0.043,1,3,674.12,0.357,-2.957,512.68,0,0,0,,0,0,0,0,0,0,0,0,0,0,0,0,0,270.01,0,0,0,0,0,0,0,0,0,0,0,0,0,3,3,0,0,VALID,0,0,0,0,0,1,0,0,0,0,0,0,0,0,0,0,0,0,0,0,259.44,1093.57,2,0,0.175,0.175,125,5.71,0.175,0.175,21.97,FLYING,X10-F,0:/Integrated Flight Computer/aircraft/x10_f_cfg.ks (inferred preloaded)
22.32,APPROACH,ILS_TRACK,152.51,152,-0.51,508.24,433.25,-8.07,7.22,10.15,270,0.028,0.2601,0,17.924,1,0.6,4.5,0.75,0.35,0.0168,0.4,0,21.745,0,0.516,0,270.02,-3.068,0,1,-3.04,0,0,-2.91,270.01,0.8635,0.0002,0.5043,-3.07,270.02,-0.25,-0.97,8.309,0.016,-0.068,1,3,674.12,0.449,-3.068,509.76,0,0,0,,0,0,0,0,0,0,0,0,0,0,0,0,0,270.01,0,0,0,0,0,0,0,0,0,0,0,0,0,3,3,0,0,VALID,0,0,0,0,0,1,0,0,0,0,0,0,0,0,0,0,0,0,0,0,260.58,1093.74,2,0,0.175,0.175,127,5.71,0.175,0.175,22.32,FLYING,X10-F,0:/Integrated Flight Computer/aircraft/x10_f_cfg.ks (inferred preloaded)
22.67,APPROACH,ILS_TRACK,152.49,152,-0.49,505.42,430.46,-8.04,7.19,10.07,270,0.03,0.2687,0,17.749,1,0.6,4.5,0.75,0.35,0.0168,0.4,0,21.752,0,0.493,0,270.02,-2.946,0,1,-3,0,0,-3.04,270.01,0.8625,0.0002,0.5061,-2.95,270.02,-0.26,-0.86,8.253,0.015,0.054,1,3,674.12,0.254,-2.946,506.84,0,0,0,,0,0,0,0,0,0,0,0,0,0,0,0,0,270.01,0,0,0,0,0,0,0,0,0,0,0,0,0,3,3,0,0,VALID,0,0,0,0,0,1,0,0,0,0,0,0,0,0,0,0,0,0,0,0,262.35,1093.87,2,0,0.175,0.175,129,5.71,0.175,0.175,22.67,FLYING,X10-F,0:/Integrated Flight Computer/aircraft/x10_f_cfg.ks (inferred preloaded)
23.02,APPROACH,ILS_TRACK,152.48,152,-0.48,502.61,427.65,-7.96,7.26,10.09,270,0.031,0.2696,0,17.579,1,0.6,4.5,0.75,0.35,0.0168,0.4,0,21.756,0,0.48,0,270.02,-3.052,0,1,-2.99,0,0,-3.07,270.02,0.8635,0.0002,0.5044,-3.05,270.02,-0.27,-0.73,8.198,0.016,-0.052,1,3,674.12,0.338,-3.052,503.91,0,0,0,,0,0,0,0,0,0,0,0,0,0,0,0,0,270.01,0,0,0,0,0,0,0,0,0,0,0,0,0,3,3,0,0,VALID,0,0,0,0,0,1,0,0,0,0,0,0,0,0,0,0,0,0,0,0,264.52,1094.04,2,0,0.175,0.175,131,5.71,0.175,0.175,23.02,FLYING,X10-F,0:/Integrated Flight Computer/aircraft/x10_f_cfg.ks (inferred preloaded)
23.37,APPROACH,ILS_TRACK,152.47,152,-0.47,499.81,424.83,-8.09,7.2,10.14,270,0.033,0.2664,0,17.414,1,0.6,4.5,0.75,0.35,0.0168,0.4,0,21.757,0,0.474,0,270.02,-3.098,0,1,-3.05,0,0,-2.96,270.02,0.8639,0.0003,0.5036,-3.1,270.02,-0.27,-0.63,8.142,0.017,-0.098,1,3,674.12,0.359,-3.098,500.99,0,0,0,,0,0,0,0,0,0,0,0,0,0,0,0,0,270.01,0,0,0,0,0,0,0,0,0,0,0,0,0,3,3,0,0,VALID,0,0,0,0,0,1,0,0,0,0,0,0,0,0,0,0,0,0,0,0,266.63,1094.25,2,0,0.175,0.175,133,5.71,0.175,0.175,23.37,FLYING,X10-F,0:/Integrated Flight Computer/aircraft/x10_f_cfg.ks (inferred preloaded)
23.72,APPROACH,ILS_TRACK,152.47,152,-0.47,496.96,422.03,-8.05,7.12,9.99,270,0.04,0.2615,0,17.248,1,0.6,4.5,0.75,0.35,0.0168,0.4,0,21.758,0,0.473,0,270.02,-2.98,0,1,-3,0,0,-3.1,270.02,0.8629,0.0003,0.5053,-2.98,270.02,-0.28,-0.54,8.086,0.018,0.02,1,3,674.12,0.177,-2.98,498.07,0,0,0,,0,0,0,0,0,0,0,0,0,0,0,0,0,270.01,0,0,0,0,0,0,0,0,0,0,0,0,0,3,3,0,0,VALID,0,0,0,0,0,1,0,0,0,0,0,0,0,0,0,0,0,0,0,0,268.31,1094.47,2,0,0.175,0.175,135,5.71,0.175,0.175,23.72,FLYING,X10-F,0:/Integrated Flight Computer/aircraft/x10_f_cfg.ks (inferred preloaded)
24.07,APPROACH,ILS_TRACK,152.49,152,-0.49,494.15,419.2,-8.01,7.21,10.07,270,0.042,0.2509,0,17.078,1,0.6,4.5,0.75,0.35,0.0168,0.4,0,21.754,0,0.487,0,270.02,-3.156,0,1,-3.02,0,0,-3.1,270.02,0.8645,0.0003,0.5026,-3.16,270.02,-0.29,-0.42,8.03,0.018,-0.156,1,3,674.12,0.354,-3.156,495.15,0,0,0,,0,0,0,0,0,0,0,0,0,0,0,0,0,270.01,0,0,0,0,0,0,0,0,0,0,0,0,0,3,3,0,0,VALID,0,0,0,0,0,1,0,0,0,0,0,0,0,0,0,0,0,0,0,0,269.44,1094.76,2,0,0.175,0.175,137,5.71,0.175,0.175,24.07,FLYING,X10-F,0:/Integrated Flight Computer/aircraft/x10_f_cfg.ks (inferred preloaded)
24.42,APPROACH,ILS_TRACK,152.51,152,-0.51,491.29,416.39,-8.16,6.99,9.91,270,0.051,0.2414,0,16.904,1,0.6,4.5,0.75,0.35,0.0168,0.4,0,21.749,0,0.503,0,270.02,-3.014,0,1,-3.04,0,0,-2.99,270.02,0.8633,0.0003,0.5047,-3.01,270.02,-0.3,-0.37,7.975,0.017,-0.014,1,3,674.12,0.157,-3.014,492.23,0,0,0,,0,0,0,0,0,0,0,0,0,0,0,0,0,270.01,0,0,0,0,0,0,0,0,0,0,0,0,0,3,3,0,0,VALID,0,0,0,0,0,1,0,0,0,0,0,0,0,0,0,0,0,0,0,0,269.82,1095.06,2,0,0.175,0.175,139,5.71,0.175,0.175,24.42,FLYING,X10-F,0:/Integrated Flight Computer/aircraft/x10_f_cfg.ks (inferred preloaded)
24.77,APPROACH,ILS_TRACK,152.53,152,-0.53,488.47,413.53,-8.03,7.18,10.04,270,0.054,0.2317,0,16.721,1,0.6,4.5,0.75,0.35,0.0168,0.4,0,21.743,0,0.526,0,270.02,-3.16,0,1,-3.03,0,0,-3.2,270.02,0.8647,0.0003,0.5024,-3.16,270.02,-0.31,-0.26,7.919,0.02,-0.16,1,3,674.12,0.296,-3.16,489.31,0,0,0,,0,0,0,0,0,0,0,0,0,0,0,0,0,270.01,0,0,0,0,0,0,0,0,0,0,0,0,0,3,3,0,0,VALID,0,0,0,0,0,1,0,0,0,0,0,0,0,0,0,0,0,0,0,0,268.93,1095.38,2,0,0.175,0.175,141,5.71,0.175,0.175,24.77,FLYING,X10-F,0:/Integrated Flight Computer/aircraft/x10_f_cfg.ks (inferred preloaded)
25.12,APPROACH,ILS_TRACK,152.54,152,-0.54,485.6,410.69,-8.25,6.97,9.94,270,0.053,0.2282,0,16.536,1,0.6,4.5,0.75,0.35,0.0168,0.4,0,21.74,0,0.536,0,270.02,-3.047,0,1,-3.07,0,0,-2.97,270.02,0.8637,0.0003,0.504,-3.05,270.02,-0.32,-0.22,7.863,0.019,-0.047,1,3,674.12,0.141,-3.047,486.38,0,0,0,,0,0,0,0,0,0,0,0,0,0,0,0,0,270.01,0,0,0,0,0,0,0,0,0,0,0,0,0,3,3,0,0,VALID,0,0,0,0,0,1,0,0,0,0,0,0,0,0,0,0,0,0,0,0,267.3,1095.66,2,0,0.175,0.175,143,5.71,0.175,0.175,25.12,FLYING,X10-F,0:/Integrated Flight Computer/aircraft/x10_f_cfg.ks (inferred preloaded)
25.47,APPROACH,ILS_TRACK,152.56,152,-0.56,482.75,407.82,-8.11,7.13,10.02,270,0.051,0.2215,0,16.342,1,0.6,4.5,0.75,0.35,0.0168,0.4,0,21.734,0,0.555,0,270.02,-3.121,0,1,-3.05,0,0,-3.21,270.02,0.8644,0.0003,0.5028,-3.12,270.02,-0.32,-0.13,7.808,0.02,-0.121,1,3,674.12,0.2,-3.121,483.46,0,0,0,,0,0,0,0,0,0,0,0,0,0,0,0,0,270.01,0,0,0,0,0,0,0,0,0,0,0,0,0,3,3,0,0,VALID,0,0,0,0,0,1,0,0,0,0,0,0,0,0,0,0,0,0,0,0,265.14,1095.97,2,0,0.175,0.175,145,5.71,0.175,0.175,25.47,FLYING,X10-F,0:/Integrated Flight Computer/aircraft/x10_f_cfg.ks (inferred preloaded)
25.82,APPROACH,ILS_TRACK,152.57,152,-0.57,479.89,404.95,-8.29,7.06,10.07,270,0.051,0.2192,0,16.146,1,0.6,4.5,0.75,0.35,0.0168,0.4,0,21.732,0,0.564,0,270.02,-3.114,0,1,-3.11,0,0,-3,270.02,0.8644,0.0003,0.5028,-3.11,270.02,-0.33,-0.09,7.752,0.02,-0.114,1,3,674.12,0.177,-3.114,480.54,0,0,0,,0,0,0,0,0,0,0,0,0,0,0,0,0,270.01,0,0,0,0,0,0,0,0,0,0,0,0,0,3,3,0,0,VALID,0,0,0,0,0,1,0,0,0,0,0,0,0,0,0,0,0,0,0,0,262.6,1096.24,2,0,0.175,0.175,147,5.71,0.175,0.175,25.82,FLYING,X10-F,0:/Integrated Flight Computer/aircraft/x10_f_cfg.ks (inferred preloaded)
26.17,APPROACH,ILS_TRACK,152.56,152,-0.56,477,402.08,-8.18,7.09,10,270,0.053,0.2221,0,15.949,1,0.6,4.5,0.75,0.35,0.0168,0.4,0,21.733,0,0.561,0,270.02,-3.041,0,1,-3.06,0,0,-3.17,270.02,0.8638,0.0003,0.5039,-3.04,270.02,-0.34,-0.04,7.696,0.02,-0.041,1,3,674.12,0.065,-3.041,477.62,0,0,0,,0,0,0,0,0,0,0,0,0,0,0,0,0,270.01,0,0,0,0,0,0,0,0,0,0,0,0,0,3,3,0,0,VALID,0,0,0,0,0,1,0,0,0,0,0,0,0,0,0,0,0,0,0,0,260.1,1096.45,2,0,0.175,0.175,149,5.71,0.175,0.175,26.17,FLYING,X10-F,0:/Integrated Flight Computer/aircraft/x10_f_cfg.ks (inferred preloaded)
26.52,APPROACH,ILS_TRACK,152.55,152,-0.55,474.15,399.19,-8.27,7.15,10.14,270,0.053,0.2237,0,15.754,1,0.6,4.5,0.75,0.35,0.0168,0.4,0,21.734,0,0.555,0,270.02,-3.182,0,1,-3.11,0,0,-3.04,270.02,0.8651,0.0003,0.5016,-3.18,270.02,-0.35,0.01,7.64,0.022,-0.182,1,3,674.12,0.223,-3.182,474.7,0,0,0,,0,0,0,0,0,0,0,0,0,0,0,0,0,270.01,0,0,0,0,0,0,0,0,0,0,0,0,0,3,3,0,0,VALID,0,0,0,0,0,1,0,0,0,0,0,0,0,0,0,0,0,0,0,0,258.23,1096.66,2,0,0.175,0.175,151,5.71,0.175,0.175,26.52,FLYING,X10-F,0:/Integrated Flight Computer/aircraft/x10_f_cfg.ks (inferred preloaded)
26.87,APPROACH,ILS_TRACK,152.53,152,-0.53,471.24,396.32,-8.27,7.06,10.02,270,0.054,0.231,0,15.565,1,0.6,4.5,0.75,0.35,0.0168,0.4,0,21.741,0,0.533,0,270.02,-3.005,0,1,-3.08,0,0,-3.09,270.02,0.8636,0.0003,0.5042,-3.01,270.02,-0.36,0.03,7.585,0.02,-0.005,1,3,674.12,-0.005,-3.005,471.79,0,0,0,,0,0,0,0,0,0,0,0,0,0,0,0,0,270.01,0,0,0,0,0,0,0,0,0,0,0,0,0,3,3,0,0,VALID,0,0,0,0,0,1,0,0,0,0,0,0,0,0,0,0,0,0,0,0,256.95,1096.79,2,0,0.175,0.175,153,5.71,0.175,0.175,26.87,FLYING,X10-F,0:/Integrated Flight Computer/aircraft/x10_f_cfg.ks (inferred preloaded)
27.22,APPROACH,ILS_TRACK,152.51,152,-0.51,468.37,393.42,-8.23,7.17,10.12,270,0.051,0.2354,0,15.384,1,0.6,4.5,0.75,0.35,0.0168,0.4,0,21.747,0,0.51,0,270.02,-3.134,0,1,-3.09,0,0,-3.13,270.02,0.8647,0.0003,0.5022,-3.13,270.02,-0.37,0.08,7.529,0.02,-0.134,1,3,674.12,0.137,-3.134,468.87,0,0,0,,0,0,0,0,0,0,0,0,0,0,0,0,0,270.01,0,0,0,0,0,0,0,0,0,0,0,0,0,3,3,0,0,VALID,0,0,0,0,0,1,0,0,0,0,0,0,0,0,0,0,0,0,0,0,256.61,1096.93,2,0,0.175,0.175,155,5.71,0.175,0.175,27.22,FLYING,X10-F,0:/Integrated Flight Computer/aircraft/x10_f_cfg.ks (inferred preloaded)
27.57,APPROACH,ILS_TRACK,152.48,152,-0.48,465.48,390.52,-8.28,7.18,10.17,270,0.051,0.2395,0,15.213,1,0.6,4.5,0.75,0.35,0.0168,0.4,0,21.755,0,0.483,0,270.02,-3.12,0,1,-3.12,0,0,-3.06,270.02,0.8647,0.0003,0.5023,-3.12,270.02,-0.38,0.11,7.473,0.02,-0.12,1,3,674.12,0.109,-3.12,465.95,0,0,0,,0,0,0,0,0,0,0,0,0,0,0,0,0,270.01,0,0,0,0,0,0,0,0,0,0,0,0,0,3,3,0,0,VALID,0,0,0,0,0,1,0,0,0,0,0,0,0,0,0,0,0,0,0,0,256.82,1097.06,2,0,0.175,0.175,157,5.71,0.175,0.175,27.57,FLYING,X10-F,0:/Integrated Flight Computer/aircraft/x10_f_cfg.ks (inferred preloaded)
27.92,APPROACH,ILS_TRACK,152.45,152,-0.45,462.59,387.63,-8.27,7.17,10.17,270,0.051,0.2415,0,15.051,1,0.6,4.5,0.75,0.35,0.0168,0.4,0,21.762,0,0.457,0,270.02,-3.093,0,1,-3.11,0,0,-3.09,270.02,0.8645,0.0003,0.5027,-3.09,270.02,-0.39,0.13,7.418,0.02,-0.093,1,3,674.12,0.067,-3.093,463.04,0,0,0,,0,0,0,0,0,0,0,0,0,0,0,0,0,270.01,0,0,0,0,0,0,0,0,0,0,0,0,0,3,3,0,0,VALID,0,0,0,0,0,1,0,0,0,0,0,0,0,0,0,0,0,0,0,0,257.28,1097.18,2,0,0.175,0.175,159,5.71,0.175,0.175,27.92,FLYING,X10-F,0:/Integrated Flight Computer/aircraft/x10_f_cfg.ks (inferred preloaded)
28.27,APPROACH,ILS_TRACK,152.43,152,-0.43,459.7,384.74,-8.26,7.18,10.15,270,0.051,0.2414,0,14.897,1,0.6,4.5,0.75,0.35,0.0168,0.4,0,21.769,0,0.434,0,270.02,-3.092,0,1,-3.1,0,0,-3.11,270.02,0.8645,0.0003,0.5026,-3.09,270.02,-0.39,0.16,7.362,0.02,-0.092,1,3,674.12,0.056,-3.092,460.12,0,0,0,,0,0,0,0,0,0,0,0,0,0,0,0,0,270.01,0,0,0,0,0,0,0,0,0,0,0,0,0,3,3,0,0,VALID,0,0,0,0,0,1,0,0,0,0,0,0,0,0,0,0,0,0,0,0,257.83,1097.32,2,0,0.175,0.175,161,5.71,0.175,0.175,28.27,FLYING,X10-F,0:/Integrated Flight Computer/aircraft/x10_f_cfg.ks (inferred preloaded)
28.62,APPROACH,ILS_TRACK,152.41,152,-0.41,456.8,381.85,-8.25,7.17,10.13,270,0.051,0.2394,0,14.75,1,0.6,4.5,0.75,0.35,0.0168,0.4,0,21.774,0,0.415,0,270.02,-3.085,0,1,-3.09,0,0,-3.12,270.02,0.8645,0.0004,0.5026,-3.09,270.02,-0.41,0.18,7.306,0.024,-0.085,1,3,674.12,0.039,-3.085,457.21,0,0,0,,0,0,0,0,0,0,0,0,0,0,0,0,0,270.01,0,0,0,0,0,0,0,0,0,0,0,0,0,3,3,0,0,VALID,0,0,0,0,0,1,0,0,0,0,0,0,0,0,0,0,0,0,0,0,258.31,1097.48,2,0,0.175,0.175,163,5.71,0.175,0.175,28.62,FLYING,X10-F,0:/Integrated Flight Computer/aircraft/x10_f_cfg.ks (inferred preloaded)
28.97,APPROACH,ILS_TRACK,152.39,152,-0.39,453.92,378.96,-8.25,7.19,10.15,270,0.052,0.2381,0,14.61,1,0.6,4.5,0.75,0.35,0.0168,0.4,0,21.779,0,0.395,0,270.02,-3.112,0,1,-3.09,0,0,-3.12,270.02,0.8648,0.0003,0.5021,-3.11,270.02,-0.41,0.2,7.251,0.022,-0.112,1,3,674.12,0.064,-3.112,454.29,0,0,0,,0,0,0,0,0,0,0,0,0,0,0,0,0,270.01,0,0,0,0,0,0,0,0,0,0,0,0,0,3,3,0,0,VALID,0,0,0,0,0,1,0,0,0,0,0,0,0,0,0,0,0,0,0,0,258.63,1097.63,2,0,0.175,0.175,165,5.71,0.175,0.175,28.97,FLYING,X10-F,0:/Integrated Flight Computer/aircraft/x10_f_cfg.ks (inferred preloaded)
29.32,APPROACH,ILS_TRACK,152.38,152,-0.38,451.03,376.07,-8.26,7.18,10.15,270,0.05,0.2358,0,14.476,1,0.6,4.5,0.75,0.35,0.0168,0.4,0,21.784,0,0.378,0,270.02,-3.115,0,1,-3.1,0,0,-3.11,270.02,0.8649,0.0004,0.502,-3.12,270.02,-0.42,0.22,7.195,0.024,-0.115,1,3,674.12,0.06,-3.115,451.38,0,0,0,,0,0,0,0,0,0,0,0,0,0,0,0,0,270.01,0,0,0,0,0,0,0,0,0,0,0,0,0,3,3,0,0,VALID,0,0,0,0,0,1,0,0,0,0,0,0,0,0,0,0,0,0,0,0,258.84,1097.8,2,0,0.175,0.175,167,5.71,0.175,0.175,29.32,FLYING,X10-F,0:/Integrated Flight Computer/aircraft/x10_f_cfg.ks (inferred preloaded)
29.67,APPROACH,ILS_TRACK,152.36,152,-0.36,448.14,373.18,-8.26,7.17,10.15,270,0.052,0.2322,0,14.347,1,0.6,4.5,0.75,0.35,0.0168,0.4,0,21.788,0,0.366,0,270.02,-3.121,0,1,-3.1,0,0,-3.11,270.02,0.865,0.0004,0.5018,-3.12,270.02,-0.43,0.24,7.14,0.024,-0.121,1,3,674.12,0.059,-3.121,448.47,0,0,0,,0,0,0,0,0,0,0,0,0,0,0,0,0,270.01,0,0,0,0,0,0,0,0,0,0,0,0,0,3,3,0,0,VALID,0,0,0,0,0,1,0,0,0,0,0,0,0,0,0,0,0,0,0,0,258.84,1097.98,2,0,0.175,0.175,169,5.71,0.175,0.175,29.67,FLYING,X10-F,0:/Integrated Flight Computer/aircraft/x10_f_cfg.ks (inferred preloaded)
30.02,APPROACH,ILS_TRACK,152.35,152,-0.35,445.24,370.29,-8.26,7.17,10.15,270,0.055,0.2291,0,14.222,1,0.6,4.5,0.75,0.35,0.0168,0.4,0,21.791,0,0.354,0,270.02,-3.124,0,1,-3.1,0,0,-3.12,270.02,0.865,0.0003,0.5017,-3.12,270.02,-0.44,0.26,7.084,0.022,-0.124,1,3,674.12,0.056,-3.124,445.56,0,0,0,,0,0,0,0,0,0,0,0,0,0,0,0,0,270.01,0,0,0,0,0,0,0,0,0,0,0,0,0,3,3,0,0,VALID,0,0,0,0,0,1,0,0,0,0,0,0,0,0,0,0,0,0,0,0,258.36,1098.17,2,0,0.175,0.175,171,5.71,0.175,0.175,30.02,FLYING,X10-F,0:/Integrated Flight Computer/aircraft/x10_f_cfg.ks (inferred preloaded)
30.37,APPROACH,ILS_TRACK,152.34,152,-0.34,442.35,367.4,-8.27,7.17,10.15,270,0.056,0.2273,0,14.102,1,0.6,4.5,0.75,0.35,0.0168,0.4,0,21.795,0,0.341,0,270.03,-3.126,0,1,-3.11,0,0,-3.12,270.03,0.8651,0.0004,0.5016,-3.13,270.03,-0.45,0.28,7.029,0.025,-0.126,1,3,674.12,0.052,-3.126,442.65,0,0,0,,0,0,0,0,0,0,0,0,0,0,0,0,0,270.01,0,0,0,0,0,0,0,0,0,0,0,0,0,3,3,0,0,VALID,0,0,0,0,0,1,0,0,0,0,0,0,0,0,0,0,0,0,0,0,257.58,1098.35,2,0,0.175,0.175,173,5.71,0.175,0.175,30.37,FLYING,X10-F,0:/Integrated Flight Computer/aircraft/x10_f_cfg.ks (inferred preloaded)
30.72,APPROACH,ILS_TRACK,152.32,152,-0.32,439.46,364.5,-8.27,7.17,10.15,270,0.055,0.2269,0,13.987,1,0.6,4.5,0.75,0.35,0.0168,0.4,0,21.799,0,0.325,0,270.02,-3.128,0,1,-3.11,0,0,-3.12,270.02,0.8652,0.0004,0.5015,-3.13,270.02,-0.46,0.3,6.973,0.024,-0.128,1,3,674.12,0.048,-3.128,439.74,0,0,0,,0,0,0,0,0,0,0,0,0,0,0,0,0,270.01,0,0,0,0,0,0,0,0,0,0,0,0,0,3,3,0,0,VALID,0,0,0,0,0,1,0,0,0,0,0,0,0,0,0,0,0,0,0,0,256.69,1098.52,2,0,0.175,0.175,175,5.71,0.175,0.175,30.72,FLYING,X10-F,0:/Integrated Flight Computer/aircraft/x10_f_cfg.ks (inferred preloaded)
31.07,APPROACH,ILS_TRACK,152.3,152,-0.3,436.56,361.61,-8.27,7.17,10.16,270,0.056,0.2279,0,13.878,1,0.6,4.5,0.75,0.35,0.0168,0.4,0,21.804,0,0.307,0,270.03,-3.129,0,1,-3.11,0,0,-3.12,270.02,0.8652,0.0004,0.5014,-3.13,270.03,-0.47,0.31,6.918,0.027,-0.129,1,3,674.12,0.043,-3.129,436.83,0,0,0,,0,0,0,0,0,0,0,0,0,0,0,0,0,270.01,0,0,0,0,0,0,0,0,0,0,0,0,0,3,3,0,0,VALID,0,0,0,0,0,1,0,0,0,0,0,0,0,0,0,0,0,0,0,0,255.88,1098.68,2,0,0.175,0.175,177,5.71,0.175,0.175,31.07,FLYING,X10-F,0:/Integrated Flight Computer/aircraft/x10_f_cfg.ks (inferred preloaded)
31.42,APPROACH,ILS_TRACK,152.28,152,-0.28,433.67,358.71,-8.28,7.18,10.17,270,0.056,0.2298,0,13.776,1,0.6,4.5,0.75,0.35,0.0168,0.4,0,21.811,0,0.285,0,270.03,-3.131,0,1,-3.11,0,0,-3.12,270.03,0.8653,0.0004,0.5013,-3.13,270.03,-0.48,0.33,6.862,0.025,-0.131,1,3,674.12,0.041,-3.131,433.92,0,0,0,,0,0,0,0,0,0,0,0,0,0,0,0,0,270.01,0,0,0,0,0,0,0,0,0,0,0,0,0,3,3,0,0,VALID,0,0,0,0,0,1,0,0,0,0,0,0,0,0,0,0,0,0,0,0,255.31,1098.82,2,0,0.175,0.175,179,5.71,0.175,0.175,31.42,FLYING,X10-F,0:/Integrated Flight Computer/aircraft/x10_f_cfg.ks (inferred preloaded)
31.77,APPROACH,ILS_TRACK,152.26,152,-0.26,430.78,355.81,-8.28,7.19,10.18,270,0.056,0.2322,0,13.683,1,0.6,4.5,0.75,0.35,0.0168,0.4,0,21.818,0,0.26,0,270.03,-3.131,0,1,-3.11,0,0,-3.12,270.02,0.8653,0.0004,0.5012,-3.13,270.03,-0.49,0.34,6.807,0.027,-0.131,1,3,674.12,0.036,-3.131,431.02,0,0,0,,0,0,0,0,0,0,0,0,0,0,0,0,0,270.01,0,0,0,0,0,0,0,0,0,0,0,0,0,3,3,0,0,VALID,0,0,0,0,0,1,0,0,0,0,0,0,0,0,0,0,0,0,0,0,255.07,1098.96,2,0,0.175,0.175,181,5.71,0.175,0.175,31.77,FLYING,X10-F,0:/Integrated Flight Computer/aircraft/x10_f_cfg.ks (inferred preloaded)
32.12,APPROACH,ILS_TRACK,152.23,152,-0.23,427.88,352.92,-8.28,7.19,10.18,270,0.056,0.2344,0,13.598,1,0.6,4.5,0.75,0.35,0.0168,0.4,0,21.825,0,0.235,0,270.03,-3.13,0,1,-3.11,0,0,-3.12,270.03,0.8654,0.0004,0.5011,-3.13,270.03,-0.5,0.35,6.751,0.027,-0.13,1,3,674.12,0.031,-3.13,428.11,0,0,0,,0,0,0,0,0,0,0,0,0,0,0,0,0,270.01,0,0,0,0,0,0,0,0,0,0,0,0,0,3,3,0,0,VALID,0,0,0,0,0,1,0,0,0,0,0,0,0,0,0,0,0,0,0,0,255.2,1099.09,2,0,0.175,0.175,183,5.71,0.175,0.175,32.12,FLYING,X10-F,0:/Integrated Flight Computer/aircraft/x10_f_cfg.ks (inferred preloaded)
32.47,APPROACH,ILS_TRACK,152.21,152,-0.21,424.98,350.02,-8.28,7.19,10.18,270,0.058,0.2362,0,13.523,1,0.6,4.5,0.75,0.35,0.0168,0.4,0,21.832,0,0.209,0,270.03,-3.125,0,1,-3.11,0,0,-3.13,270.03,0.8654,0.0004,0.5011,-3.13,270.03,-0.51,0.36,6.696,0.026,-0.125,1,3,674.12,0.022,-3.125,425.2,0,0,0,,0,0,0,0,0,0,0,0,0,0,0,0,0,270.01,0,0,0,0,0,0,0,0,0,0,0,0,0,3,3,0,0,VALID,0,0,0,0,0,1,0,0,0,0,0,0,0,0,0,0,0,0,0,0,255.42,1099.22,2,0,0.175,0.175,185,5.71,0.175,0.175,32.47,FLYING,X10-F,0:/Integrated Flight Computer/aircraft/x10_f_cfg.ks (inferred preloaded)
32.82,APPROACH,ILS_TRACK,152.18,152,-0.18,422.09,347.12,-8.28,7.2,10.19,270,0.059,0.2374,0,13.457,1,0.6,4.5,0.75,0.35,0.0168,0.4,0,21.839,0,0.184,0,270.03,-3.125,0,1,-3.11,0,0,-3.12,270.03,0.8654,0.0004,0.5011,-3.13,270.03,-0.52,0.36,6.64,0.028,-0.125,1,3,674.12,0.02,-3.125,422.3,0,0,0,,0,0,0,0,0,0,0,0,0,0,0,0,0,270.01,0,0,0,0,0,0,0,0,0,0,0,0,0,3,3,0,0,VALID,0,0,0,0,0,1,0,0,0,0,0,0,0,0,0,0,0,0,0,0,255.75,1099.35,2,0,0.175,0.175,187,5.71,0.175,0.175,32.82,FLYING,X10-F,0:/Integrated Flight Computer/aircraft/x10_f_cfg.ks (inferred preloaded)
33.17,APPROACH,ILS_TRACK,152.16,152,-0.16,419.19,344.22,-8.28,7.2,10.19,270,0.059,0.238,0,13.399,1,0.6,4.5,0.75,0.35,0.0168,0.4,0,21.846,0,0.16,0,270.03,-3.124,0,1,-3.11,0,0,-3.12,270.03,0.8655,0.0004,0.501,-3.12,270.03,-0.53,0.37,6.585,0.026,-0.124,1,3,674.12,0.016,-3.124,419.4,0,0,0,,0,0,0,0,0,0,0,0,0,0,0,0,0,270.01,0,0,0,0,0,0,0,0,0,0,0,0,0,3,3,0,0,VALID,0,0,0,0,0,1,0,0,0,0,0,0,0,0,0,0,0,0,0,0,256.15,1099.49,2,0,0.175,0.175,189,5.71,0.175,0.175,33.17,FLYING,X10-F,0:/Integrated Flight Computer/aircraft/x10_f_cfg.ks (inferred preloaded)
33.52,APPROACH,ILS_TRACK,152.13,152,-0.13,416.29,341.32,-8.28,7.2,10.2,270,0.061,0.2383,0,13.349,1,0.6,4.5,0.75,0.35,0.0168,0.4,0,21.852,0,0.137,0,270.03,-3.124,0,1,-3.11,0,0,-3.12,270.03,0.8655,0.0004,0.5009,-3.12,270.03,-0.53,0.38,6.53,0.027,-0.124,1,3,674.12,0.014,-3.124,416.49,0,0,0,,0,0,0,0,0,0,0,0,0,0,0,0,0,270.01,0,0,0,0,0,0,0,0,0,0,0,0,0,3,3,0,0,VALID,0,0,0,0,0,1,0,0,0,0,0,0,0,0,0,0,0,0,0,0,256.56,1099.63,2,0,0.175,0.175,191,5.71,0.175,0.175,33.52,FLYING,X10-F,0:/Integrated Flight Computer/aircraft/x10_f_cfg.ks (inferred preloaded)
33.87,APPROACH,ILS_TRACK,152.11,152,-0.11,413.39,338.43,-8.28,7.21,10.2,270,0.06,0.2382,0,13.307,1,0.6,4.5,0.75,0.35,0.0168,0.4,0,21.858,0,0.116,0,270.03,-3.123,0,1,-3.12,0,0,-3.12,270.03,0.8655,0.0005,0.5008,-3.12,270.03,-0.54,0.38,6.474,0.028,-0.123,1,3,674.12,0.011,-3.123,413.59,0,0,0,,0,0,0,0,0,0,0,0,0,0,0,0,0,270.01,0,0,0,0,0,0,0,0,0,0,0,0,0,3,3,0,0,VALID,0,0,0,0,0,1,0,0,0,0,0,0,0,0,0,0,0,0,0,0,256.96,1099.78,2,0,0.175,0.175,193,5.71,0.175,0.175,33.87,FLYING,X10-F,0:/Integrated Flight Computer/aircraft/x10_f_cfg.ks (inferred preloaded)
34.22,APPROACH,ILS_TRACK,152.09,152,-0.09,410.5,335.53,-8.28,7.21,10.2,270,0.061,0.2379,0,13.271,1,0.6,4.5,0.75,0.35,0.0168,0.4,0,21.864,0,0.096,0,270.03,-3.122,0,1,-3.11,0,0,-3.12,270.03,0.8656,0.0004,0.5008,-3.12,270.03,-0.55,0.38,6.419,0.028,-0.122,1,3,674.12,0.008,-3.122,410.69,0,0,0,,0,0,0,0,0,0,0,0,0,0,0,0,0,270.01,0,0,0,0,0,0,0,0,0,0,0,0,0,3,3,0,0,VALID,0,0,0,0,0,1,0,0,0,0,0,0,0,0,0,0,0,0,0,0,257.33,1099.94,2,0,0.175,0.175,195,5.71,0.175,0.175,34.22,FLYING,X10-F,0:/Integrated Flight Computer/aircraft/x10_f_cfg.ks (inferred preloaded)
34.57,APPROACH,ILS_TRACK,152.08,152,-0.08,407.6,332.63,-8.28,7.21,10.21,270,0.061,0.2376,0,13.243,1,0.6,4.5,0.75,0.35,0.0168,0.4,0,21.869,0,0.077,0,270.03,-3.122,0,1,-3.12,0,0,-3.12,270.03,0.8656,0.0005,0.5007,-3.12,270.03,-0.56,0.39,6.364,0.029,-0.122,1,3,674.12,0.007,-3.122,407.79,0,0,0,,0,0,0,0,0,0,0,0,0,0,0,0,0,270.01,0,0,0,0,0,0,0,0,0,0,0,0,0,3,3,0,0,VALID,0,0,0,0,0,1,0,0,0,0,0,0,0,0,0,0,0,0,0,0,257.67,1100.1,2,0,0.175,0.175,197,5.71,0.175,0.175,34.57,FLYING,X10-F,0:/Integrated Flight Computer/aircraft/x10_f_cfg.ks (inferred preloaded)
34.92,APPROACH,ILS_TRACK,152.06,152,-0.06,404.7,329.73,-8.28,7.22,10.21,270,0.059,0.2373,0,13.22,1,0.6,4.5,0.75,0.35,0.0168,0.4,0,21.874,0,0.06,0,270.03,-3.124,0,1,-3.12,0,0,-3.12,270.03,0.8657,0.0005,0.5006,-3.12,270.03,-0.57,0.39,6.308,0.028,-0.124,1,3,674.12,0.008,-3.124,404.89,0,0,0,,0,0,0,0,0,0,0,0,0,0,0,0,0,270.01,0,0,0,0,0,0,0,0,0,0,0,0,0,3,3,0,0,VALID,0,0,0,0,0,1,0,0,0,0,0,0,0,0,0,0,0,0,0,0,257.96,1100.27,2,0,0.175,0.175,199,5.71,0.175,0.175,34.92,FLYING,X10-F,0:/Integrated Flight Computer/aircraft/x10_f_cfg.ks (inferred preloaded)
35.27,APPROACH,ILS_TRACK,152.04,152,-0.04,401.81,326.84,-8.28,7.22,10.21,270,0.06,0.2371,0,13.204,1,0.6,4.5,0.75,0.35,0.0168,0.4,0,21.879,0,0.043,0,270.03,-3.121,0,1,-3.12,0,0,-3.12,270.03,0.8657,0.0004,0.5006,-3.12,270.03,-0.58,0.39,6.253,0.028,-0.121,1,3,674.12,0.004,-3.121,402,0,0,0,,0,0,0,0,0,0,0,0,0,0,0,0,0,270.01,0,0,0,0,0,0,0,0,0,0,0,0,0,3,3,0,0,VALID,0,0,0,0,0,1,0,0,0,0,0,0,0,0,0,0,0,0,0,0,258.21,1100.44,2,0,0.175,0.175,201,5.71,0.175,0.175,35.27,FLYING,X10-F,0:/Integrated Flight Computer/aircraft/x10_f_cfg.ks (inferred preloaded)
35.62,APPROACH,ILS_TRACK,152.03,152,-0.03,398.91,323.94,-8.28,7.22,10.22,270,0.057,0.237,0,13.193,1,0.6,4.5,0.75,0.35,0.0168,0.4,0,21.883,0,0.028,0,270.03,-3.122,0,1,-3.12,0,0,-3.12,270.03,0.8658,0.0005,0.5005,-3.12,270.03,-0.59,0.39,6.198,0.03,-0.122,1,3,674.12,0.005,-3.122,399.1,0,0,0,,0,0,0,0,0,0,0,0,0,0,0,0,0,270.01,0,0,0,0,0,0,0,0,0,0,0,0,0,3,3,0,0,VALID,0,0,0,0,0,1,0,0,0,0,0,0,0,0,0,0,0,0,0,0,258.43,1100.62,2,0,0.175,0.175,203,5.71,0.175,0.175,35.62,FLYING,X10-F,0:/Integrated Flight Computer/aircraft/x10_f_cfg.ks (inferred preloaded)
35.97,APPROACH,ILS_TRACK,152.01,152,-0.01,396.02,321.04,-8.27,7.22,10.22,270,0.057,0.2371,0,13.187,1,0.6,4.5,0.75,0.35,0.0168,0.4,0,21.887,0,0.013,0,270.03,-3.119,0,1,-3.11,0,0,-3.12,270.03,0.8658,0.0005,0.5004,-3.12,270.03,-0.59,0.39,6.142,0.03,-0.119,1,3,674.12,0.001,-3.119,396.2,0,0,0,,0,0,0,0,0,0,0,0,0,0,0,0,0,270.01,0,0,0,0,0,0,0,0,0,0,0,0,0,3,3,0,0,VALID,0,0,0,0,0,1,0,0,0,0,0,0,0,0,0,0,0,0,0,0,258.64,1100.79,2,0,0.175,0.175,205,5.71,0.175,0.175,35.97,FLYING,X10-F,0:/Integrated Flight Computer/aircraft/x10_f_cfg.ks (inferred preloaded)
36.32,APPROACH,ILS_TRACK,152,152,0,393.12,318.15,-8.27,7.22,10.22,270,0.056,0.2373,0,13.186,1,0.6,4.5,0.75,0.35,0.0168,0.4,0,21.891,0,-0.001,0,270.03,-3.121,0,1,-3.11,0,0,-3.12,270.03,0.8658,0.0005,0.5003,-3.12,270.03,-0.6,0.4,6.087,0.029,-0.121,1,3,674.12,0.003,-3.121,393.3,0,0,0,,0,0,0,0,0,0,0,0,0,0,0,0,0,270.01,0,0,0,0,0,0,0,0,0,0,0,0,0,3,3,0,0,VALID,0,0,0,0,0,1,0,0,0,0,0,0,0,0,0,0,0,0,0,0,258.85,1100.98,2,0,0.175,0.175,207,5.71,0.175,0.175,36.32,FLYING,X10-F,0:/Integrated Flight Computer/aircraft/x10_f_cfg.ks (inferred preloaded)
36.67,APPROACH,ILS_TRACK,151.98,152,0.02,390.23,315.25,-8.27,7.22,10.22,270,0.06,0.2374,0,13.19,1,0.6,4.5,0.75,0.35,0.0168,0.4,0,21.895,0,-0.015,0,270.03,-3.121,0,1,-3.11,0,0,-3.12,270.03,0.8659,0.0005,0.5002,-3.12,270.03,-0.61,0.4,6.032,0.029,-0.121,1,3,674.12,0.002,-3.121,390.41,0,0,0,,0,0,0,0,0,0,0,0,0,0,0,0,0,270.01,0,0,0,0,0,0,0,0,0,0,0,0,0,3,3,0,0,VALID,0,0,0,0,0,1,0,0,0,0,0,0,0,0,0,0,0,0,0,0,259.05,1101.16,2,0,0.175,0.175,209,5.71,0.175,0.175,36.67,FLYING,X10-F,0:/Integrated Flight Computer/aircraft/x10_f_cfg.ks (inferred preloaded)
37.02,APPROACH,ILS_TRACK,151.97,152,0.03,387.33,312.36,-8.27,7.22,10.22,270,0.059,0.2376,0,13.199,1,0.6,4.5,0.75,0.35,0.0168,0.4,0,21.899,0,-0.027,0,270.03,-3.119,0,1,-3.11,0,0,-3.12,270.03,0.8659,0.0005,0.5002,-3.12,270.03,-0.62,0.4,5.977,0.03,-0.119,1,3,674.12,0,-3.119,387.51,0,0,0,,0,0,0,0,0,0,0,0,0,0,0,0,0,270.01,0,0,0,0,0,0,0,0,0,0,0,0,0,3,3,0,0,VALID,0,0,0,0,0,1,0,0,0,0,0,0,0,0,0,0,0,0,0,0,259.26,1101.35,2,0,0.175,0.175,211,5.71,0.175,0.175,37.02,FLYING,X10-F,0:/Integrated Flight Computer/aircraft/x10_f_cfg.ks (inferred preloaded)
37.37,APPROACH,ILS_TRACK,151.96,152,0.04,384.44,309.47,-8.27,7.23,10.22,270,0.058,0.2378,0,13.211,1,0.6,4.5,0.75,0.35,0.0168,0.4,0,21.902,0,-0.039,0,270.03,-3.119,0,1,-3.11,0,0,-3.12,270.03,0.866,0.0005,0.5001,-3.12,270.03,-0.62,0.4,5.921,0.029,-0.119,1,3,674.12,0.001,-3.119,384.62,0,0,0,,0,0,0,0,0,0,0,0,0,0,0,0,0,270.01,0,0,0,0,0,0,0,0,0,0,0,0,0,3,3,0,0,VALID,0,0,0,0,0,1,0,0,0,0,0,0,0,0,0,0,0,0,0,0,259.47,1101.54,2,0,0.175,0.175,213,5.71,0.175,0.175,37.37,FLYING,X10-F,0:/Integrated Flight Computer/aircraft/x10_f_cfg.ks (inferred preloaded)
37.72,APPROACH,ILS_TRACK,151.95,152,0.05,381.55,306.57,-8.27,7.23,10.23,270,0.06,0.2381,0,13.228,1,0.6,4.5,0.75,0.35,0.0168,0.4,0,21.905,0,-0.05,0,270.03,-3.119,0,1,-3.11,0,0,-3.12,270.03,0.866,0.0005,0.5,-3.12,270.03,-0.63,0.4,5.866,0.032,-0.119,1,3,674.12,0,-3.119,381.73,0,0,0,,0,0,0,0,0,0,0,0,0,0,0,0,0,270.01,0,0,0,0,0,0,0,0,0,0,0,0,0,3,3,0,0,VALID,0,0,0,0,0,1,0,0,0,0,0,0,0,0,0,0,0,0,0,0,259.69,1101.74,2,0,0.175,0.175,215,5.71,0.175,0.175,37.72,FLYING,X10-F,0:/Integrated Flight Computer/aircraft/x10_f_cfg.ks (inferred preloaded)
