t_s,phase,subphase,ias_ms,vapp_ms,spd_err_ms,agl_m,vs_ms,pitch_deg,aoa_deg,hdg_deg,bank_deg,thr_cmd,thr_cur,thr_intg,at_gain,at_tau_s,at_a_up,at_a_dn,at_kp_thr,at_ki_spd,at_thr_slew,aa_hdg_cmd_deg,aa_fpa_cmd_deg,aa_fbw,aa_dir,actual_fpa_deg,ftf_hdg_err_deg,ftf_fix_idx,kos_steer_pit_deg,kos_steer_hdg_deg,aa_dir_vx,aa_dir_vy,aa_dir_vz,aa_dir_pitch_deg,aa_dir_hdg_deg,ils_loc_m,ils_gs_m,ils_dist_km,loc_corr_deg,gs_corr_deg,gs_latched,active_gs_ang_deg,ils_intercept_alt_m,d_gs_ms,fpa_preclamped_deg,gs_nom_alt_m,flare_fpa_cmd,flare_tgt_vs,flare_frac,steer_hdg_deg,steer_blend,ro_loc_corr_deg,ro_hdg_err_deg,ro_yaw_tgt,ro_yaw_scale,ro_yaw_gate,yaw_cmd,roll_cmd,pitch_cmd,ro_pitch_tgt_deg,ro_pitch_err_deg,ro_pitch_ff,ro_roll_assist,flaps_cur,flaps_tgt,asc_j_ab,asc_j_rk,asc_validity,asc_q_pa,asc_q_raw_pa,asc_mach,asc_apo_m,asc_drag_n,asc_w_prop,asc_edot_aero,asc_edot_orb,asc_pitch_bias,asc_blend,asc_spooling,asc_ab_thr_ratio,asc_ab_t_now,asc_ab_t_avail,asc_ab_ign_on,asc_ab_flameouts,asc_rk_t_now,asc_rk_t_avail,asc_rk_ign_on,asc_rk_flameouts,ship_thrust,ship_avail_thrust,ship_ign_on,ship_flameouts,ifc_raw_dt_s,ifc_dt_s,ifc_loop_n,ifc_hz_est,ifc_raw_dt_max_s,ifc_raw_dt_min_s,phase_el_s,status,craft_name,cfg_file
0.12,TAKEOFF,TO_PREFLIGHT,1.01,80,78.99,3.62,-0.01,-0.17,0.18,90.94,0.103,0.04,0,0,0,0,0,0,0,0,0,90.4,0,1,0,-0.37,0,0,0,90,0,0,0,0,0,0,0,0,0,0,0,3,0,0,0,69,0,0,0,90.4,1,0,0.538,0,0,1,0,0,0,0,0,0,0,0,1,0,0,VALID,0,0,0,0,0,1,0,0,0,0,0,0,0,0,0,0,0,0,0,0,0,517.84,2,0,0.1,0.1,1,3.45,0.1,0.02,0.02,PRELAUNCH,CF1-H,0:/Integrated Flight Computer/aircraft/cf1_h_cfg.ks (inferred preloaded)
0.38,TAKEOFF,TO_PREFLIGHT,1.01,80,78.99,3.61,0,-0.19,0.02,90.95,0.104,0.112,0,0,0,0,0,0,0,0,0,90.4,0,1,0,-0.17,0,0,0,90,0,0,0,0,0,0,0,0,0,0,0,3,0,0,0,69,0,0,0,90.4,1,0,0.543,0,0,1,0,0,0,0,0,0,0,1,1,0,0,VALID,0,0,0,0,0,1,0,0,0,0,0,0,0,0,0,0,0,0,0,0,0.35,517.84,2,0,0.04,0.04,6,19.23,0.1,0.04,0.28,PRELAUNCH,CF1-H,0:/Integrated Flight Computer/aircraft/cf1_h_cfg.ks (inferred preloaded)
0.64,TAKEOFF,TO_PREFLIGHT,0.88,80,79.12,3.6,0,-0.26,-0.38,90.95,0.104,0.216,0,0,0,0,0,0,0,0,0,90.4,0,1,0,0.11,0,0,0,90,0,0,0,0,0,0,0,0,0,0,0,3,0,0,0,69,0,0,0,90.4,1,0,0.543,0,0,1,0,0,0,0,0,0,0,1,1,0,0,VALID,0,0,0,0,0,1,0,0,0,0,0,0,0,0,0,0,0,0,0,0,1.44,517.87,2,0,0.04,0.04,11,19.23,0.08,0.04,0.54,PRELAUNCH,CF1-H,0:/Integrated Flight Computer/aircraft/cf1_h_cfg.ks (inferred preloaded)
0.9,TAKEOFF,TO_PREFLIGHT,0.58,80,79.42,3.59,0,-0.32,-0.13,90.95,0.103,0.32,0,0,0,0,0,0,0,0,0,90.4,0,1,0,-0.05,0,0,0,90,0,0,0,0,0,0,0,0,0,0,0,3,0,0,0,69,0,0,0,90.4,1,0,0.543,0,0,1,0,0,0,0,0,0,0,1,1,0,0,VALID,0,0,0,0,0,1,0,0,0,0,0,0,0,0,0,0,0,0,0,0,3.35,517.94,2,0,0.04,0.04,16,19.23,0.08,0.04,0.8,PRELAUNCH,CF1-H,0:/Integrated Flight Computer/aircraft/cf1_h_cfg.ks (inferred preloaded)
1.16,TAKEOFF,TO_PREFLIGHT,0.12,80,79.88,3.59,0,-0.33,-1.88,90.96,0.102,0.424,0,0,0,0,0,0,0,0,0,90.4,0,1,0,0.05,0,0,0,90,0,0,0,0,0,0,0,0,0,0,0,3,0,0,0,69,0,0,0,90.4,1,0,0.543,0,0,1,0,0,0,0,0,0,0,1,1,0,0,VALID,0,0,0,0,0,1,0,0,0,0,0,0,0,0,0,0,0,0,0,0,6.07,518.05,2,0,0.04,0.04,21,19.23,0.08,0.04,1.06,PRELAUNCH,CF1-H,0:/Integrated Flight Computer/aircraft/cf1_h_cfg.ks (inferred preloaded)
1.42,TAKEOFF,TO_PREFLIGHT,0.06,80,79.94,3.62,-0.03,-0.11,26.2,90.96,0.101,0.528,0,0,0,0,0,0,0,0,0,90.4,0,1,0,-1.56,0,0,0,90,0,0,0,0,0,0,0,0,0,0,0,3,0,0,0,69,0,0,0,90.4,1,0,0.543,0,0,1,0,0,0,0,0,0,0,1,1,0,0,VALID,0,0,0,0,0,1,0,0,0,0,0,0,0,0,0,0,0,0,0,0,9.57,518.07,2,0,0.04,0.04,26,19.23,0.08,0.04,1.32,PRELAUNCH,CF1-H,0:/Integrated Flight Computer/aircraft/cf1_h_cfg.ks (inferred preloaded)
1.68,TAKEOFF,TO_PREFLIGHT,0.01,80,79.99,3.62,0.02,-0.13,-23.31,90.97,0.104,0.632,0,0,0,0,0,0,0,0,0,90.4,0,1,0,1.04,0,0,0,90,0,0,0,0,0,0,0,0,0,0,0,3,0,0,0,69,0,0,0,90.4,1,0,0.543,0,0,1,0,0,0,0,0,0,0,1,1,0,0,VALID,0,0,0,0,0,1,0,0,0,0,0,0,0,0,0,0,0,0,0,0,13.86,518.08,2,0,0.04,0.04,31,19.23,0.08,0.04,1.58,PRELAUNCH,CF1-H,0:/Integrated Flight Computer/aircraft/cf1_h_cfg.ks (inferred preloaded)
1.94,TAKEOFF,TO_PREFLIGHT,0.06,80,79.94,3.6,0,-0.25,-4.16,90.97,0.104,0.736,0,0,0,0,0,0,0,0,0,90.4,0,1,0,0.16,0,0,0,90,0,0,0,0,0,0,0,0,0,0,0,3,0,0,0,69,0,0,0,90.4,1,0,0.543,0,0,1,0,0,0,0,0,0,0,1,1,0,0,VALID,0,0,0,0,0,1,0,0,0,0,0,0,0,0,0,0,0,0,0,0,18.92,518.07,2,0,0.04,0.04,36,19.23,0.08,0.04,1.84,PRELAUNCH,CF1-H,0:/Integrated Flight Computer/aircraft/cf1_h_cfg.ks (inferred preloaded)
2.26,TAKEOFF,TO_PREFLIGHT,0.01,80,79.99,3.61,-0.01,-0.18,43.1,90.98,0.102,0.864,0,0,0,0,0,0,0,0,0,90.4,0,1,0,-0.44,0,0,0,90,0,0,0,0,0,0,0,0,0,0,0,3,0,0,0,69,0,0,0,90.4,1,0,0.543,0,0,1,0,0,0,0,0,0,0,1,1,0,0,VALID,0,0,0,0,0,1,0,0,0,0,0,0,0,0,0,0,0,0,0,0,26.17,518.08,2,0,0.08,0.08,41,15.63,0.08,0.04,2.16,PRELAUNCH,CF1-H,0:/Integrated Flight Computer/aircraft/cf1_h_cfg.ks (inferred preloaded)
2.54,TAKEOFF,TO_PREFLIGHT,0.02,80,79.98,3.61,0,-0.18,-7.23,90.99,0.102,0.976,0,0,0,0,0,0,0,0,0,90.4,0,1,0,0.27,0,0,0,90,0,0,0,0,0,0,0,0,0,0,0,3,0,0,0,69,0,0,0,90.4,1,0,0.543,0,0,1,0,0,0,0,0,0,0,1,1,0,0,VALID,0,0,0,0,0,1,0,0,0,0,0,0,0,0,0,0,0,0,0,0,33.42,518.08,2,0,0.08,0.08,45,14.29,0.08,0.06,2.44,PRELAUNCH,CF1-H,0:/Integrated Flight Computer/aircraft/cf1_h_cfg.ks (inferred preloaded)
2.82,TAKEOFF,TO_PREFLIGHT,0.05,80,79.95,3.61,0,-0.23,-3,90.99,0.101,1,0,0,0,0,0,0,0,0,0,90.4,0,1,0,0.13,0,0,0,90,0,0,0,0,0,0,0,0,0,0,0,3,0,0,0,69,0,0,0,90.4,1,0,0.543,0,0,1,0,0,0,0,0,0,0,1,1,0,0,VALID,0,0,0,0,0,1,0,0,0,0,0,0,0,0,0,0,0,0,0,0,41.39,518.07,2,0,0.08,0.08,49,14.29,0.08,0.06,2.72,PRELAUNCH,CF1-H,0:/Integrated Flight Computer/aircraft/cf1_h_cfg.ks (inferred preloaded)
3.1,TAKEOFF,TO_PREFLIGHT,0.03,80,79.97,3.61,0,-0.22,5.66,91,0.102,1,0,0,0,0,0,0,0,0,0,90.4,0,1,0,-0.12,0,0,0,90,0,0,0,0,0,0,0,0,0,0,0,3,0,0,0,69,0,0,0,90.4,1,0,0.543,0,0,1,0,0,0,0,0,0,0,1,1,0,0,VALID,0,0,0,0,0,1,0,0,0,0,0,0,0,0,0,0,0,0,0,0,49.33,518.07,2,0,0.08,0.08,53,14.29,0.08,0.06,3,PRELAUNCH,CF1-H,0:/Integrated Flight Computer/aircraft/cf1_h_cfg.ks (inferred preloaded)
3.38,TAKEOFF,TO_GROUND_ROLL,0.05,80,79.95,3.61,0,-0.2,0.03,91,0.103,1,0,0,0,0,0,0,0,0,0,90.4,0,1,0,-0.04,0,0,0,90,0,0,0,0,0,0,0,0,0,0,0,3,0,0,0,69,0,0,0,90.4,1,0,0.606,0,0,3,0,0,0,0,0,0,0,1,1,0,0,VALID,0,0,0,0,0,1,0,0,0,0,0,0,0,0,0,0,0,0,0,0,57.15,518.07,2,0,0.08,0.08,57,14.29,0.08,0.06,3.3,PRELAUNCH,CF1-H,0:/Integrated Flight Computer/aircraft/cf1_h_cfg.ks (inferred preloaded)
3.66,TAKEOFF,TO_GROUND_ROLL,0.27,80,79.73,3.62,-0.01,-0.12,1.19,91.01,0.104,1,0,0,0,0,0,0,0,0,0,90.39,0,1,0,-0.44,0,0,0,90,0,0,0,0,0,0,0,0,0,0,0,3,0,0,0,69,0,0,0,90.39,1,0,0.615,0,0,3,0,0,0,0,0,0,0,1,1,0,0,VALID,0,0,0,0,0,1,0,0,0,0,0,0,0,0,0,0,0,0,0,0,64.82,518.01,2,0,0.08,0.08,61,14.29,0.08,0.06,3.58,PRELAUNCH,CF1-H,0:/Integrated Flight Computer/aircraft/cf1_h_cfg.ks (inferred preloaded)
3.94,TAKEOFF,TO_GROUND_ROLL,0.61,80,79.39,3.62,0,-0.15,-0.32,91.02,0.104,1,0,0,0,0,0,0,0,0,0,90.39,0,1,0,0.13,0,0,0,90,0,0,0,0,0,0,0,0,0,0,0,3,0,0,0,69,0,0,0,90.39,1,0,0.623,0,0,3,0,0,0,0,0,0,0,1,1,0,0,VALID,0,0,0,0,0,1,0,0,0,0,0,0,0,0,0,0,0,0,0,0,72.37,517.93,2,0,0.08,0.08,65,14.29,0.08,0.06,3.86,PRELAUNCH,CF1-H,0:/Integrated Flight Computer/aircraft/cf1_h_cfg.ks (inferred preloaded)
4.22,TAKEOFF,TO_GROUND_ROLL,0.98,80,79.02,3.62,-0.01,-0.15,0.38,91.02,0.102,1,0,0,0,0,0,0,0,0,0,90.4,0,1,0,-0.63,0,0,0,90,0,0,0,0,0,0,0,0,0,0,0,3,0,0,0,69,0,0,0,90.4,1,0,0.624,0,0,3,0,0,0,0,0,0,0,1,1,0,0,VALID,0,0,0,0,0,1,0,0,0,0,0,0,0,0,0,0,0,0,0,0,79.78,517.84,2,0,0.08,0.08,69,14.29,0.08,0.06,4.14,PRELAUNCH,CF1-H,0:/Integrated Flight Computer/aircraft/cf1_h_cfg.ks (inferred preloaded)
4.5,TAKEOFF,TO_GROUND_ROLL,1.39,80,78.61,3.62,-0.01,-0.13,0.15,91.02,0.101,1,0,0,0,0,0,0,0,0,0,90.4,0,1,0,-0.31,0,0,0,90,0,0,0,0,0,0,0,0,0,0,0,3,0,0,0,69,0,0,0,90.4,1,0,0.62,0,0,3,0,0,0,0,0,0,0,1,1,0,0,VALID,0,0,0,0,0,1,0,0,0,0,0,0,0,0,0,0,0,0,0,0,87.07,517.74,2,0,0.08,0.08,73,14.29,0.08,0.06,4.42,PRELAUNCH,CF1-H,0:/Integrated Flight Computer/aircraft/cf1_h_cfg.ks (inferred preloaded)
4.78,TAKEOFF,TO_GROUND_ROLL,1.83,80,78.17,3.62,-0.01,-0.14,0.15,91.02,0.101,1,0,0,0,0,0,0,0,0,0,90.4,0,1,0,-0.36,0,0,0,90,0,0,0,0,0,0,0,0,-0.001,0,0,3,0,0,0,69,0,0,0,90.4,1,-0.001,0.611,0,0,3,0,0,0,0,0,0,0,1,1,0,0,VALID,0,0,0,0,0,1,0,0,0,0,0,0,0,0,0,0,0,0,0,0,94.23,517.62,2,0,0.08,0.08,77,14.29,0.08,0.06,4.7,PRELAUNCH,CF1-H,0:/Integrated Flight Computer/aircraft/cf1_h_cfg.ks (inferred preloaded)
5.06,TAKEOFF,TO_GROUND_ROLL,2.31,80,77.69,3.62,-0.01,-0.13,0.19,91,0.104,1,0,0,0,0,0,0,0,0,0,90.41,0,1,0,-0.37,0,0,0,90,0,0,0,0,0,0,0,0,-0.001,0,0,3,0,0,0,69,0,0,0,90.41,1,-0.001,0.595,-0.0067,0.25,1,-0.0067,0,0,0,0,0,0,1,1,0,0,VALID,0,0,0,0,0,1,0,0,0,0,0,0,0,0,0,0,0,0,0,0,101.26,517.5,2,0,0.08,0.08,81,14.29,0.08,0.06,4.98,LANDED,CF1-H,0:/Integrated Flight Computer/aircraft/cf1_h_cfg.ks (inferred preloaded)
5.34,TAKEOFF,TO_GROUND_ROLL,2.82,80,77.18,3.62,-0.02,-0.13,0.17,90.99,0.105,1,0,0,0,0,0,0,0,0,0,90.41,0,1,0,-0.33,0,0,0,90,0,0,0,0,0,0,0,0,-0.001,0,0,3,0,0,0,69,0,0,0,90.41,1,-0.001,0.573,-0.0064,0.25,1,-0.0064,0,0,0,0,0,0,1,1,0,0,VALID,0,0,0,0,0,1,0,0,0,0,0,0,0,0,0,0,0,0,0,0,108.17,517.37,2,0,0.08,0.08,85,14.29,0.08,0.06,5.26,LANDED,CF1-H,0:/Integrated Flight Computer/aircraft/cf1_h_cfg.ks (inferred preloaded)
5.62,TAKEOFF,TO_GROUND_ROLL,3.36,80,76.64,3.62,-0.02,-0.13,0.19,90.96,0.105,1,0,0,0,0,0,0,0,0,0,90.42,0,1,0,-0.36,0,0,0,90,0,0,0,0,0,0,0,0,-0.001,0,0,3,0,0,0,69,0,0,0,90.42,1,-0.001,0.546,-0.0061,0.25,1,-0.0061,0,0,0,0,0,0,1,1,0,0,VALID,0,0,0,0,0,1,0,0,0,0,0,0,0,0,0,0,0,0,0,0,114.96,517.22,2,0,0.08,0.08,89,14.29,0.08,0.06,5.54,LANDED,CF1-H,0:/Integrated Flight Computer/aircraft/cf1_h_cfg.ks (inferred preloaded)
5.9,TAKEOFF,TO_GROUND_ROLL,3.94,80,76.06,3.62,-0.02,-0.12,0.18,90.93,0.105,1,0,0,0,0,0,0,0,0,0,90.42,0,1,0,-0.34,0,0,0,90,0,0,0,0,0,0,0,0,-0.002,0,0,3,0,0,0,69,0,0,0,90.42,1,-0.002,0.513,-0.0058,0.25,1,-0.0058,0,0,0,0,0,0,1,1,0,0,VALID,0,0,0,0,0,1,0,0,0,0,0,0,0,0,0,0,0,0,0,0,121.63,517.06,2,0,0.08,0.08,93,14.29,0.08,0.06,5.82,LANDED,CF1-H,0:/Integrated Flight Computer/aircraft/cf1_h_cfg.ks (inferred preloaded)
6.18,TAKEOFF,TO_GROUND_ROLL,4.55,80,75.45,3.62,-0.03,-0.13,0.19,90.9,0.105,1,0,0,0,0,0,0,0,0,0,90.42,0,1,0,-0.34,0,0,0,90,0,0,0,0,0,0,0,0,-0.002,0,0,3,0,0,0,69,0,0,0,90.42,1,-0.002,0.477,-0.0054,0.25,1,-0.0054,0,0,0,0,0,0,1,1,0,0,VALID,0,0,0,0,0,1,0,0,0,0,0,0,0,0,0,0,0,0,0,0,128.18,516.89,2,0,0.08,0.08,97,14.29,0.08,0.06,6.1,LANDED,CF1-H,0:/Integrated Flight Computer/aircraft/cf1_h_cfg.ks (inferred preloaded)
6.46,TAKEOFF,TO_GROUND_ROLL,5.2,80,74.8,3.62,-0.03,-0.12,0.19,90.86,0.107,1,0,0,0,0,0,0,0,0,0,90.43,0,1,0,-0.34,0,0,0,90,0,0,0,0,0,0,0,0,-0.002,0,0,3,0,0,0,69,0,0,0,90.43,1,-0.002,0.437,-0.0049,0.25,1,-0.0049,0,0,0,0,0,0,1,1,0,0,VALID,0,0,0,0,0,1,0,0,0,0,0,0,0,0,0,0,0,0,0,0,134.61,516.7,2,0,0.08,0.08,101,14.29,0.08,0.06,6.38,LANDED,CF1-H,0:/Integrated Flight Computer/aircraft/cf1_h_cfg.ks (inferred preloaded)
6.74,TAKEOFF,TO_GROUND_ROLL,5.87,80,74.13,3.62,-0.03,-0.12,0.19,90.82,0.109,1,0,0,0,0,0,0,0,0,0,90.43,0,1,0,-0.33,0,0,0,90,0,0,0,0,0,0,0,0,-0.003,0,0,3,0,0,0,69,0,0,0,90.43,1,-0.003,0.396,-0.0044,0.25,1,-0.0044,0,0,0,0,0,0,1,1,0,0,VALID,0,0,0,0,0,1,0,0,0,0,0,0,0,0,0,0,0,0,0,0,140.92,516.5,2,0,0.08,0.08,105,14.29,0.08,0.06,6.66,LANDED,CF1-H,0:/Integrated Flight Computer/aircraft/cf1_h_cfg.ks (inferred preloaded)
7.02,TAKEOFF,TO_GROUND_ROLL,6.58,80,73.42,3.62,-0.04,-0.12,0.18,90.78,0.111,1,0,0,0,0,0,0,0,0,0,90.43,0,1,0,-0.34,0,0,0,90,0,0,0,0,0,0,0,0,-0.003,0,0,3,0,0,0,69,0,0,0,90.43,1,-0.003,0.354,-0.0038,0.25,1,-0.0038,0,0,0,0,0,0,1,1,0,0,VALID,0,0,0,0,0,1,0,0,0,0,0,0,0,0,0,0,0,0,0,0,147.13,516.29,2,0,0.08,0.08,109,14.29,0.08,0.06,6.94,LANDED,CF1-H,0:/Integrated Flight Computer/aircraft/cf1_h_cfg.ks (inferred preloaded)
7.3,TAKEOFF,TO_GROUND_ROLL,7.31,80,72.69,3.62,-0.04,-0.11,0.19,90.74,0.111,1,0,0,0,0,0,0,0,0,0,90.43,0,1,0,-0.32,0,0,0,90,0,0,0,0,0,0,0,0,-0.004,0,0,3,0,0,0,69,0,0,0,90.43,1,-0.004,0.311,-0.0032,0.25,1,-0.0032,0,0,0,0,0,0,1,1,0,0,VALID,0,0,0,0,0,1,0,0,0,0,0,0,0,0,0,0,0,0,0,0,153.21,516.07,2,0,0.08,0.08,113,14.29,0.08,0.06,7.22,LANDED,CF1-H,0:/Integrated Flight Computer/aircraft/cf1_h_cfg.ks (inferred preloaded)
7.58,TAKEOFF,TO_GROUND_ROLL,8.07,80,71.93,3.62,-0.05,-0.11,0.19,90.7,0.111,1,0,0,0,0,0,0,0,0,0,90.43,0,1,0,-0.34,0,0,0,90,0,0,0,0,0,0,0,0,-0.005,0,0,3,0,0,0,69,0,0,0,90.43,1,-0.005,0.27,-0.0026,0.25,1,-0.0026,0,0,0,0,0,0,1,1,0,0,VALID,0,0,0,0,0,1,0,0,0,0,0,0,0,0,0,0,0,0,0,0,159.19,515.82,2,0,0.08,0.08,117,14.29,0.08,0.06,7.5,LANDED,CF1-H,0:/Integrated Flight Computer/aircraft/cf1_h_cfg.ks (inferred preloaded)
7.86,TAKEOFF,TO_GROUND_ROLL,8.87,80,71.13,3.62,-0.05,-0.11,0.19,90.65,0.112,1,0,0,0,0,0,0,0,0,0,90.42,0,1,0,-0.33,0,0,0,90,0,0,0,0,0,0,0,0,-0.005,0,0,3,0,0,0,69,0,0,0,90.42,1,-0.005,0.231,-0.0021,0.25,1,-0.0021,0,0,0,0,0,0,1,1,0,0,VALID,0,0,0,0,0,1,0,0,0,0,0,0,0,0,0,0,0,0,0,0,165.05,515.57,2,0,0.08,0.08,121,14.29,0.08,0.06,7.78,LANDED,CF1-H,0:/Integrated Flight Computer/aircraft/cf1_h_cfg.ks (inferred preloaded)
8.14,TAKEOFF,TO_GROUND_ROLL,9.69,80,70.31,3.62,-0.06,-0.11,0.2,90.62,0.113,1,0,0,0,0,0,0,0,0,0,90.42,0,1,0,-0.33,0,0,0,90,0,0,0,0,0,0,0,0,-0.006,0,0,3,0,0,0,69,0,0,0,90.42,1,-0.006,0.195,-0.0017,0.25,1,-0.0017,0,0,0,0,0,0,1,1,0,0,VALID,0,0,0,0,0,1,0,0,0,0,0,0,0,0,0,0,0,0,0,0,170.8,515.3,2,0,0.08,0.08,125,14.29,0.08,0.06,8.06,LANDED,CF1-H,0:/Integrated Flight Computer/aircraft/cf1_h_cfg.ks (inferred preloaded)
8.42,TAKEOFF,TO_GROUND_ROLL,10.54,80,69.46,3.62,-0.06,-0.11,0.2,90.58,0.114,1,0,0,0,0,0,0,0,0,0,90.42,0,1,0,-0.33,0,0,0,90,0,0,0,0,0,0,0,0,-0.006,0,0,3,0,0,0,69,0,0,0,90.42,1,-0.006,0.163,-0.0013,0.25,1,-0.0013,0,0,0,0,0,0,1,1,0,0,VALID,0,0,0,0,0,1,0,0,0,0,0,0,0,0,0,0,0,0,0,0,176.45,515.01,2,0,0.08,0.08,129,14.29,0.08,0.06,8.34,LANDED,CF1-H,0:/Integrated Flight Computer/aircraft/cf1_h_cfg.ks (inferred preloaded)
8.7,TAKEOFF,TO_GROUND_ROLL,11.41,80,68.59,3.62,-0.06,-0.1,0.19,90.55,0.112,1,0,0,0,0,0,0,0,0,0,90.41,0,1,0,-0.32,0,0,0,90,0,0,0,0,0,0,0,0,-0.007,0,0,3,0,0,0,69,0,0,0,90.41,1,-0.007,0.135,-0.0011,0.25,1,-0.0011,0,0,0,0,0,0,1,1,0,0,VALID,0,0,0,0,0,1,0,0,0,0,0,0,0,0,0,0,0,0,0,0,181.99,514.71,2,0,0.08,0.08,133,14.29,0.08,0.06,8.62,LANDED,CF1-H,0:/Integrated Flight Computer/aircraft/cf1_h_cfg.ks (inferred preloaded)
8.98,TAKEOFF,TO_GROUND_ROLL,12.32,80,67.68,3.62,-0.07,-0.1,0.2,90.52,0.111,1,0,0,0,0,0,0,0,0,0,90.41,0,1,0,-0.32,0,0,0,90,0,0,0,0,0,0,0,0,-0.008,0,0,3,0,0,0,69,0,0,0,90.41,1,-0.008,0.111,-0.0008,0.25,1,-0.0008,0,0,0,0,0,0,1,1,0,0,VALID,0,0,0,0,0,1,0,0,0,0,0,0,0,0,0,0,0,0,0,0,187.42,514.39,2,0,0.08,0.08,137,14.29,0.08,0.06,8.9,LANDED,CF1-H,0:/Integrated Flight Computer/aircraft/cf1_h_cfg.ks (inferred preloaded)
9.26,TAKEOFF,TO_GROUND_ROLL,13.25,80,66.75,3.62,-0.08,-0.1,0.21,90.5,0.111,1,0,0,0,0,0,0,0,0,0,90.41,0,1,0,-0.33,0,0,0,90,0,0,0,0,0,0,0,0,-0.008,0,0,3,0,0,0,69,0,0,0,90.41,1,-0.008,0.092,-0.0007,0.25,1,-0.0007,0,0,0,0,0,0,1,1,0,0,VALID,0,0,0,0,0,1,0,0,0,0,0,0,0,0,0,0,0,0,0,0,192.74,514.05,2,0,0.08,0.08,141,14.29,0.08,0.06,9.18,LANDED,CF1-H,0:/Integrated Flight Computer/aircraft/cf1_h_cfg.ks (inferred preloaded)
9.54,TAKEOFF,TO_GROUND_ROLL,14.2,80,65.8,3.63,-0.08,-0.1,0.2,90.48,0.111,1,0,0,0,0,0,0,0,0,0,90.4,0,1,0,-0.32,0,0,0,90,0,0,0,0,0,0,0,0,-0.009,0,0,3,0,0,0,69,0,0,0,90.4,1,-0.009,0.076,-0.0006,0.25,1,-0.0006,0,0,0,0,0,0,1,1,0,0,VALID,0,0,0,0,0,1,0,0,0,0,0,0,0,0,0,0,0,0,0,0,197.96,513.69,2,0,0.08,0.08,145,14.29,0.08,0.06,9.46,LANDED,CF1-H,0:/Integrated Flight Computer/aircraft/cf1_h_cfg.ks (inferred preloaded)
9.82,TAKEOFF,TO_GROUND_ROLL,15.18,80,64.82,3.63,-0.09,-0.1,0.21,90.46,0.111,1,0,0,0,0,0,0,0,0,0,90.4,0,1,0,-0.32,0,0,0,90,0,0,0,0,0,0,0,0,-0.01,0,0,3,0,0,0,69,0,0,0,90.4,1,-0.01,0.064,-0.0005,0.25,1,-0.0005,0,0,0,0,0,0,1,1,0,0,VALID,0,0,0,0,0,1,0,0,0,0,0,0,0,0,0,0,0,0,0,0,203.08,513.32,2,0,0.08,0.08,149,14.29,0.08,0.06,9.74,LANDED,CF1-H,0:/Integrated Flight Computer/aircraft/cf1_h_cfg.ks (inferred preloaded)
10.1,TAKEOFF,TO_GROUND_ROLL,16.19,80,63.81,3.63,-0.09,-0.09,0.21,90.45,0.11,1,0,0,0,0,0,0,0,0,0,90.4,0,1,0,-0.32,0,0,0,90,0,0,0,0,0,0,0,0,-0.01,0,0,3,0,0,0,69,0,0,0,90.4,1,-0.01,0.055,-0.0004,0.25,1,-0.0004,0,0,0,0,0,0,1,1,0,0,VALID,0,0,0,0,0,1,0,0,0,0,0,0,0,0,0,0,0,0,0,0,208.09,512.93,2,0,0.08,0.08,153,14.29,0.08,0.06,10.02,LANDED,CF1-H,0:/Integrated Flight Computer/aircraft/cf1_h_cfg.ks (inferred preloaded)
10.38,TAKEOFF,TO_GROUND_ROLL,17.21,80,62.79,3.63,-0.1,-0.09,0.21,90.44,0.109,1,0,0,0,0,0,0,0,0,0,90.4,0,1,0,-0.32,0,0,0.01,90,0,0,0,0,0,0,0,0,-0.011,0,0,3,0,0,0,69,0,0,0,90.4,1,-0.011,0.048,-0.0003,0.25,1,-0.0003,0,0,0,0,0,0,1,1,0,0,VALID,0,0,0,0,0,1,0,0,0,0,0,0,0,0,0,0,0,0,0,0,213,512.52,2,0,0.08,0.08,157,14.29,0.08,0.06,10.3,LANDED,CF1-H,0:/Integrated Flight Computer/aircraft/cf1_h_cfg.ks (inferred preloaded)
10.66,TAKEOFF,TO_GROUND_ROLL,18.27,80,61.73,3.63,-0.1,-0.09,0.21,90.44,0.108,1,0,0,0,0,0,0,0,0,0,90.39,0,1,0,-0.32,0,0,0.01,90,0,0,0,0,0,0,0,0,-0.012,0,0,3,0,0,0,69,0,0,0,90.39,1,-0.012,0.044,-0.0003,0.25,1,-0.0003,0,0,0,0,0,0,1,1,0,0,VALID,0,0,0,0,0,1,0,0,0,0,0,0,0,0,0,0,0,0,0,0,217.82,512.09,2,0,0.08,0.08,161,14.29,0.08,0.06,10.58,LANDED,CF1-H,0:/Integrated Flight Computer/aircraft/cf1_h_cfg.ks (inferred preloaded)
10.94,TAKEOFF,TO_GROUND_ROLL,19.34,80,60.66,3.63,-0.11,-0.09,0.21,90.43,0.107,1,0,0,0,0,0,0,0,0,0,90.39,0,1,0,-0.32,0,0,0.01,90,0,0,0,0,0,0,0,0,-0.013,0,0,3,0,0,0,69,0,0,0,90.39,1,-0.013,0.041,-0.0003,0.25,1,-0.0003,0,0,0,0,0,0,1,1,0,0,VALID,0,0,0,0,0,1,0,0,0,0,0,0,0,0,0,0,0,0,0,0,222.53,511.64,2,0,0.08,0.08,165,14.29,0.08,0.06,10.86,LANDED,CF1-H,0:/Integrated Flight Computer/aircraft/cf1_h_cfg.ks (inferred preloaded)
11.22,TAKEOFF,TO_GROUND_ROLL,20.44,80,59.56,3.63,-0.11,-0.09,0.21,90.43,0.107,1,0,0,0,0,0,0,0,0,0,90.39,0,1,0,-0.32,0,0,0.01,90,0,0,0,0,0,0,0,0,-0.014,0,0,3,0,0,0,69,0,0,0,90.39,1,-0.014,0.038,-0.0003,0.255,0,-0.0003,0,0,0,0,0,0,1,1,0,0,VALID,0,0,0,0,0,1,0,0,0,0,0,0,0,0,0,0,0,0,0,0,227.14,511.18,2,0,0.08,0.08,169,14.29,0.08,0.06,11.14,LANDED,CF1-H,0:/Integrated Flight Computer/aircraft/cf1_h_cfg.ks (inferred preloaded)
11.5,TAKEOFF,TO_GROUND_ROLL,21.56,80,58.44,3.63,-0.12,-0.08,0.21,90.42,0.107,1,0,0,0,0,0,0,0,0,0,90.39,0,1,0,-0.32,0,0,0.01,90,0,0,0,0,0,0,0,0,-0.014,0,0,3,0,0,0,69,0,0,0,90.39,1,-0.014,0.036,-0.0003,0.267,0,-0.0003,0,0,0,0,0,0,1,1,0,0,VALID,0,0,0,0,0,1,0,0,0,0,0,0,0,0,0,0,0,0,0,0,231.66,510.69,2,0,0.08,0.08,173,14.29,0.08,0.06,11.42,LANDED,CF1-H,0:/Integrated Flight Computer/aircraft/cf1_h_cfg.ks (inferred preloaded)
11.78,TAKEOFF,TO_GROUND_ROLL,22.7,80,57.3,3.63,-0.12,-0.08,0.22,90.42,0.107,1,0,0,0,0,0,0,0,0,0,90.39,0,1,0,-0.31,0,0,0.01,90,0,0,0,0,0,0,0,0,-0.015,0,0,3,0,0,0,69,0,0,0,90.39,1,-0.015,0.036,-0.0003,0.279,0,-0.0003,0,0,0,0,0,0,1,1,0,0,VALID,0,0,0,0,0,1,0,0,0,0,0,0,0,0,0,0,0,0,0,0,236.07,510.18,2,0,0.08,0.08,177,14.29,0.08,0.06,11.7,LANDED,CF1-H,0:/Integrated Flight Computer/aircraft/cf1_h_cfg.ks (inferred preloaded)
12.06,TAKEOFF,TO_GROUND_ROLL,23.86,80,56.14,3.63,-0.13,-0.08,0.22,90.42,0.107,1,0,0,0,0,0,0,0,0,0,90.38,0,1,0,-0.32,0,0,0.01,90,0,0,0,0,0,0,0,0,-0.016,0,0,3,0,0,0,69,0,0,0,90.38,1,-0.016,0.035,-0.0003,0.291,0,-0.0003,0,0,0,0,0,0,1,1,0,0,VALID,0,0,0,0,0,1,0,0,0,0,0,0,0,0,0,0,0,0,0,0,240.4,509.66,2,0,0.08,0.08,181,14.29,0.08,0.06,11.98,LANDED,CF1-H,0:/Integrated Flight Computer/aircraft/cf1_h_cfg.ks (inferred preloaded)
12.34,TAKEOFF,TO_GROUND_ROLL,25.04,80,54.96,3.63,-0.14,-0.08,0.22,90.42,0.107,1,0,0,0,0,0,0,0,0,0,90.38,0,1,0,-0.31,0,0,0.01,90,0,0,0,0,0,0,0,0,-0.017,0,0,3,0,0,0,69,0,0,0,90.38,1,-0.017,0.034,-0.0003,0.304,0,-0.0003,0,0,0,0,0,0,1,1,0,0,VALID,0,0,0,0,0,1,0,0,0,0,0,0,0,0,0,0,0,0,0,0,244.62,509.11,2,0,0.08,0.08,185,14.29,0.08,0.06,12.26,LANDED,CF1-H,0:/Integrated Flight Computer/aircraft/cf1_h_cfg.ks (inferred preloaded)
12.62,TAKEOFF,TO_GROUND_ROLL,26.25,80,53.75,3.63,-0.14,-0.08,0.22,90.42,0.107,1,0,0,0,0,0,0,0,0,0,90.38,0,1,0,-0.31,0,0,0.01,90,0,0,0,0,0,0,0,0,-0.019,0,0,3,0,0,0,69,0,0,0,90.38,1,-0.019,0.033,-0.0003,0.317,0,-0.0003,0,0,0,0,0,0,1,1,0,0,VALID,0,0,0,0,0,1,0,0,0,0,0,0,0,0,0,0,0,0,0,0,248.76,508.54,2,0,0.08,0.08,189,14.29,0.08,0.06,12.54,LANDED,CF1-H,0:/Integrated Flight Computer/aircraft/cf1_h_cfg.ks (inferred preloaded)
12.9,TAKEOFF,TO_GROUND_ROLL,27.47,80,52.53,3.63,-0.15,-0.07,0.22,90.41,0.107,1,0,0,0,0,0,0,0,0,0,90.38,0,1,0,-0.31,0,0,0.01,90,0,0,0,0,0,0,0,0,-0.02,0,0,3,0,0,0,69,0,0,0,90.38,1,-0.02,0.031,-0.0003,0.33,0,-0.0003,0,0,0,0,0,0,1,1,0,0,VALID,0,0,0,0,0,1,0,0,0,0,0,0,0,0,0,0,0,0,0,0,252.8,507.95,2,0,0.08,0.08,193,14.29,0.08,0.06,12.82,LANDED,CF1-H,0:/Integrated Flight Computer/aircraft/cf1_h_cfg.ks (inferred preloaded)
13.18,TAKEOFF,TO_GROUND_ROLL,28.71,80,51.29,3.63,-0.16,-0.07,0.22,90.41,0.107,1,0,0,0,0,0,0,0,0,0,90.38,0,1,0,-0.31,0,0,0.01,90,0,0,0,0,0,0,0,0,-0.021,0,0,3,0,0,0,69,0,0,0,90.38,1,-0.021,0.029,-0.0003,0.343,0,-0.0003,0,0,0,0,0,0,1,1,0,0,VALID,0,0,0,0,0,1,0,0,0,0,0,0,0,0,0,0,0,0,0,0,256.74,507.35,2,0,0.08,0.08,197,14.29,0.08,0.06,13.1,LANDED,CF1-H,0:/Integrated Flight Computer/aircraft/cf1_h_cfg.ks (inferred preloaded)
13.46,TAKEOFF,TO_GROUND_ROLL,29.97,80,50.03,3.63,-0.16,-0.07,0.22,90.41,0.107,1,0,0,0,0,0,0,0,0,0,90.38,0,1,0,-0.31,0,0,0.01,90,0,0,0,0,0,0,0,0,-0.022,0,0,3,0,0,0,69,0,0,0,90.38,1,-0.022,0.028,-0.0003,0.357,0,-0.0003,0,0,0,0,0,0,1,1,0,0,VALID,0,0,0,0,0,1,0,0,0,0,0,0,0,0,0,0,0,0,0,0,260.6,506.72,2,0,0.08,0.08,201,14.29,0.08,0.06,13.38,LANDED,CF1-H,0:/Integrated Flight Computer/aircraft/cf1_h_cfg.ks (inferred preloaded)
13.74,TAKEOFF,TO_GROUND_ROLL,31.25,80,48.75,3.63,-0.17,-0.07,0.22,90.41,0.107,1,0,0,0,0,0,0,0,0,0,90.38,0,1,0,-0.31,0,0,0.01,90,0,0,0,0,0,0,0,0,-0.023,0,0,3,0,0,0,69,0,0,0,90.38,1,-0.023,0.026,-0.0003,0.371,0,-0.0003,0,0,0,0,0,0,1,1,0,0,VALID,0,0,0,0,0,1,0,0,0,0,0,0,0,0,0,0,0,0,0,0,264.36,506.07,2,0,0.08,0.08,205,14.29,0.08,0.06,13.66,LANDED,CF1-H,0:/Integrated Flight Computer/aircraft/cf1_h_cfg.ks (inferred preloaded)
14.02,TAKEOFF,TO_GROUND_ROLL,32.54,80,47.46,3.63,-0.18,-0.07,0.22,90.4,0.108,1,0,0,0,0,0,0,0,0,0,90.38,0,1,0,-0.31,0,0,0.01,90,0,0,0,0,0,0,0,0,-0.025,0,0,3,0,0,0,69,0,0,0,90.38,1,-0.025,0.026,-0.0003,0.384,0,-0.0003,0,0,0,0,0,0,1,1,0,0,VALID,0,0,0,0,0,1,0,0,0,0,0,0,0,0,0,0,0,0,0,0,268.04,505.4,2,0,0.08,0.08,209,14.29,0.08,0.06,13.94,LANDED,CF1-H,0:/Integrated Flight Computer/aircraft/cf1_h_cfg.ks (inferred preloaded)
14.3,TAKEOFF,TO_GROUND_ROLL,33.86,80,46.14,3.63,-0.18,-0.07,0.22,90.4,0.107,1,0,0,0,0,0,0,0,0,0,90.37,0,1,0,-0.31,0,0,0.02,90,0,0,0,0,0,0,0,0,-0.026,0,0,3,0,0,0,69,0,0,0,90.37,1,-0.026,0.026,-0.0003,0.398,0,-0.0003,0,0,0,0,0,0,1,1,0,0,VALID,0,0,0,0,0,1,0,0,0,0,0,0,0,0,0,0,0,0,0,0,271.63,504.71,2,0,0.08,0.08,213,14.29,0.08,0.06,14.22,LANDED,CF1-H,0:/Integrated Flight Computer/aircraft/cf1_h_cfg.ks (inferred preloaded)
14.58,TAKEOFF,TO_GROUND_ROLL,35.19,80,44.81,3.63,-0.19,-0.06,0.22,90.4,0.106,1,0,0,0,0,0,0,0,0,0,90.37,0,1,0,-0.31,0,0,0.02,90,0,0,0,0,0,0,0,0,-0.027,0,0,3,0,0,0,69,0,0,0,90.37,1,-0.027,0.026,-0.0003,0.413,0,-0.0003,0,0,0,0,0,0,1,1,0,0,VALID,0,0,0,0,0,1,0,0,0,0,0,0,0,0,0,0,0,0,0,0,275.13,504,2,0,0.08,0.08,217,14.29,0.08,0.06,14.5,LANDED,CF1-H,0:/Integrated Flight Computer/aircraft/cf1_h_cfg.ks (inferred preloaded)
14.86,TAKEOFF,TO_GROUND_ROLL,36.53,80,43.47,3.63,-0.19,-0.06,0.23,90.4,0.106,1,0,0,0,0,0,0,0,0,0,90.37,0,1,0,-0.3,0,0,0.02,90,0,0,0,0,0,0,0,0,-0.029,0,0,3,0,0,0,69,0,0,0,90.37,1,-0.029,0.027,-0.0003,0.427,0,-0.0003,0,0,0,0,0,0,1,1,0,0,VALID,0,0,0,0,0,1,0,0,0,0,0,0,0,0,0,0,0,0,0,0,278.54,503.27,2,0,0.08,0.08,221,14.29,0.08,0.06,14.78,LANDED,CF1-H,0:/Integrated Flight Computer/aircraft/cf1_h_cfg.ks (inferred preloaded)
15.14,TAKEOFF,TO_GROUND_ROLL,37.89,80,42.11,3.63,-0.2,-0.06,0.23,90.4,0.106,1,0,0,0,0,0,0,0,0,0,90.37,0,1,0,-0.3,0,0,0.02,90,0,0,0,0,0,0,0,0,-0.03,0,0,3,0,0,0,69,0,0,0,90.37,1,-0.03,0.027,-0.0003,0.442,0,-0.0003,0,0,0,0,0,0,1,1,0,0,VALID,0,0,0,0,0,1,0,0,0,0,0,0,0,0,0,0,0,0,0,0,281.87,502.52,2,0,0.08,0.08,225,14.29,0.08,0.06,15.06,LANDED,CF1-H,0:/Integrated Flight Computer/aircraft/cf1_h_cfg.ks (inferred preloaded)
15.42,TAKEOFF,TO_GROUND_ROLL,39.27,80,40.73,3.63,-0.21,-0.06,0.23,90.4,0.107,1,0,0,0,0,0,0,0,0,0,90.37,0,1,0,-0.3,0,0,0.02,90,0,0,0,0,0,0,0,0,-0.032,0,0,3,0,0,0,69,0,0,0,90.37,1,-0.032,0.027,-0.0003,0.456,0,-0.0003,0,0,0,0,0,0,1,1,0,0,VALID,0,0,0,0,0,1,0,0,0,0,0,0,0,0,0,0,0,0,0,0,285.11,501.75,2,0,0.08,0.08,229,14.29,0.08,0.06,15.34,LANDED,CF1-H,0:/Integrated Flight Computer/aircraft/cf1_h_cfg.ks (inferred preloaded)
15.7,TAKEOFF,TO_GROUND_ROLL,40.66,80,39.34,3.63,-0.21,-0.06,0.23,90.39,0.107,1,0,0,0,0,0,0,0,0,0,90.37,0,1,0,-0.3,0,0,0.02,90,0,0,0,0,0,0,0,0,-0.033,0,0,3,0,0,0,69,0,0,0,90.37,1,-0.033,0.025,-0.0003,0.471,0,-0.0003,0,0,0,0,0,0,1,1,0,0,VALID,0,0,0,0,0,1,0,0,0,0,0,0,0,0,0,0,0,0,0,0,288.27,500.96,2,0,0.08,0.08,233,14.29,0.08,0.06,15.62,LANDED,CF1-H,0:/Integrated Flight Computer/aircraft/cf1_h_cfg.ks (inferred preloaded)
15.98,TAKEOFF,TO_GROUND_ROLL,42.07,80,37.93,3.63,-0.22,-0.06,0.23,90.39,0.108,1,0,0,0,0,0,0,0,0,0,90.37,0,1,0,-0.3,0,0,0.02,90,0,0,0,0,0,0,0,0,-0.035,0,0,3,0,0,0,69,0,0,0,90.37,1,-0.035,0.024,-0.0003,0.486,0,-0.0003,0,0,0,0,0,0,1,1,0,0,VALID,0,0,0,0,0,1,0,0,0,0,0,0,0,0,0,0,0,0,0,0,291.34,500.15,2,0,0.08,0.08,237,14.29,0.08,0.06,15.9,LANDED,CF1-H,0:/Integrated Flight Computer/aircraft/cf1_h_cfg.ks (inferred preloaded)
16.26,TAKEOFF,TO_GROUND_ROLL,43.49,80,36.51,3.63,-0.23,-0.06,0.23,90.39,0.108,1,0,0,0,0,0,0,0,0,0,90.36,0,1,0,-0.3,0,0,0.02,90,0,0,0,0,0,0,0,0,-0.037,0,0,3,0,0,0,69,0,0,0,90.36,1,-0.037,0.024,-0.0003,0.502,0,-0.0003,0,0,0,0,0,0,1,1,0,0,VALID,0,0,0,0,0,1,0,0,0,0,0,0,0,0,0,0,0,0,0,0,294.33,499.32,2,0,0.08,0.08,241,14.29,0.08,0.06,16.18,LANDED,CF1-H,0:/Integrated Flight Computer/aircraft/cf1_h_cfg.ks (inferred preloaded)
16.54,TAKEOFF,TO_GROUND_ROLL,44.92,80,35.08,3.63,-0.23,-0.05,0.23,90.39,0.107,1,0,0,0,0,0,0,0,0,0,90.36,0,1,0,-0.3,0,0,0.02,90,0,0,0,0,0,0,0,0,-0.038,0,0,3,0,0,0,69,0,0,0,90.36,1,-0.038,0.023,-0.0003,0.517,0,-0.0003,0,0,0,0,0,0,1,1,0,0,VALID,0,0,0,0,0,1,0,0,0,0,0,0,0,0,0,0,0,0,0,0,297.25,498.47,2,0,0.08,0.08,245,14.29,0.08,0.06,16.46,LANDED,CF1-H,0:/Integrated Flight Computer/aircraft/cf1_h_cfg.ks (inferred preloaded)
16.82,TAKEOFF,TO_GROUND_ROLL,46.37,80,33.63,3.63,-0.24,-0.05,0.23,90.39,0.107,1,0,0,0,0,0,0,0,0,0,90.36,0,1,0,-0.29,0,0,0.03,90,0,0,0,0,0,0,0,0,-0.04,0,0,3,0,0,0,69,0,0,0,90.36,1,-0.04,0.025,-0.0003,0.533,0,-0.0003,0,0,0,0,0,0,1,1,0,0,VALID,0,0,0,0,0,1,0,0,0,0,0,0,0,0,0,0,0,0,0,0,300.08,497.6,2,0,0.08,0.08,249,14.29,0.08,0.06,16.74,LANDED,CF1-H,0:/Integrated Flight Computer/aircraft/cf1_h_cfg.ks (inferred preloaded)
17.1,TAKEOFF,TO_GROUND_ROLL,47.83,80,32.17,3.63,-0.24,-0.05,0.23,90.38,0.106,1,0,0,0,0,0,0,0,0,0,90.36,0,1,0,-0.29,0,0,0.03,90,0,0,0,0,0,0,0,0,-0.042,0,0,3,0,0,0,69,0,0,0,90.36,1,-0.042,0.025,-0.0004,0.548,0,-0.0004,0,0,0,0,0,0,1,1,0,0,VALID,0,0,0,0,0,1,0,0,0,0,0,0,0,0,0,0,0,0,0,0,302.83,496.71,2,0,0.08,0.08,253,14.29,0.08,0.06,17.02,LANDED,CF1-H,0:/Integrated Flight Computer/aircraft/cf1_h_cfg.ks (inferred preloaded)
17.38,TAKEOFF,TO_GROUND_ROLL,49.3,80,30.7,3.63,-0.25,-0.05,0.23,90.38,0.106,1,0,0,0,0,0,0,0,0,0,90.36,0,1,0,-0.29,0,0,0.03,90,0,0,0,0,0,0,0,0,-0.044,0,0,3,0,0,0,69,0,0,0,90.36,1,-0.044,0.025,-0.0004,0.564,0,-0.0004,0,0,0,0,0,0,1,1,0,0,VALID,0,0,0,0,0,1,0,0,0,0,0,0,0,0,0,0,0,0,0,0,305.51,495.81,2,0,0.08,0.08,257,14.29,0.08,0.06,17.3,LANDED,CF1-H,0:/Integrated Flight Computer/aircraft/cf1_h_cfg.ks (inferred preloaded)
17.66,TAKEOFF,TO_GROUND_ROLL,50.78,80,29.22,3.63,-0.26,-0.05,0.23,90.38,0.106,1,0,0,0,0,0,0,0,0,0,90.35,0,1,0,-0.29,0,0,0.03,90,0,0,0,0,0,0,0,0,-0.046,0,0,3,0,0,0,69,0,0,0,90.35,1,-0.046,0.026,-0.0004,0.58,0,-0.0004,0,0,0,0,0,0,1,1,0,0,VALID,0,0,0,0,0,1,0,0,0,0,0,0,0,0,0,0,0,0,0,0,308.11,494.89,2,0,0.08,0.08,261,14.29,0.08,0.06,17.58,LANDED,CF1-H,0:/Integrated Flight Computer/aircraft/cf1_h_cfg.ks (inferred preloaded)
17.94,TAKEOFF,TO_GROUND_ROLL,52.28,80,27.72,3.64,-0.26,-0.05,0.23,90.38,0.106,1,0,0,0,0,0,0,0,0,0,90.35,0,1,0,-0.29,0,0,0.03,90,0,0,0,0,0,0,0,0,-0.048,0,0,3,0,0,0,69,0,0,0,90.35,1,-0.048,0.027,-0.0004,0.596,0,-0.0004,0,0,0,0,0,0,1,1,0,0,VALID,0,0,0,0,0,1,0,0,0,0,0,0,0,0,0,0,0,0,0,0,310.64,493.95,2,0,0.08,0.08,265,14.29,0.08,0.06,17.86,LANDED,CF1-H,0:/Integrated Flight Computer/aircraft/cf1_h_cfg.ks (inferred preloaded)
18.22,TAKEOFF,TO_GROUND_ROLL,53.79,80,26.21,3.64,-0.27,-0.04,0.23,90.38,0.106,1,0,0,0,0,0,0,0,0,0,90.35,0,1,0,-0.29,0,0,0.03,90,0,0,0,0,0,0,0,0,-0.05,0,0,3,0,0,0,69,0,0,0,90.35,1,-0.05,0.028,-0.0004,0.612,0,-0.0004,0,0,0,0,0,0,1,1,0,0,VALID,0,0,0,0,0,1,0,0,0,0,0,0,0,0,0,0,0,0,0,0,313.09,492.99,2,0,0.08,0.08,269,14.29,0.08,0.06,18.14,LANDED,CF1-H,0:/Integrated Flight Computer/aircraft/cf1_h_cfg.ks (inferred preloaded)
18.5,TAKEOFF,TO_GROUND_ROLL,55.3,80,24.7,3.64,-0.27,-0.04,0.23,90.38,0.107,1,0,0,0,0,0,0,0,0,0,90.35,0,1,0,-0.28,0,0,0.03,90,0,0,0,0,0,0,0,0,-0.052,0,0,3,0,0,0,69,0,0,0,90.35,1,-0.052,0.028,-0.0005,0.628,0,-0.0005,0,0,0,0,0,0,1,1,0,0,VALID,0,0,0,0,0,1,0,0,0,0,0,0,0,0,0,0,0,0,0,0,315.46,492.02,2,0,0.08,0.08,273,14.29,0.08,0.06,18.42,LANDED,CF1-H,0:/Integrated Flight Computer/aircraft/cf1_h_cfg.ks (inferred preloaded)
18.78,TAKEOFF,TO_GROUND_ROLL,56.83,80,23.17,3.64,-0.28,-0.04,0.23,90.38,0.107,1,0,0,0,0,0,0,0,0,0,90.35,0,1,0,-0.28,0,0,0.04,90,0,0,0,0,0,0,0,0,-0.054,0,0,3,0,0,0,69,0,0,0,90.35,1,-0.054,0.03,-0.0005,0.645,0,-0.0005,0,0,0,0,0,0,1,1,0,0,VALID,0,0,0,0,0,1,0,0,0,0,0,0,0,0,0,0,0,0,0,0,317.77,491.03,2,0,0.08,0.08,277,14.29,0.08,0.06,18.7,LANDED,CF1-H,0:/Integrated Flight Computer/aircraft/cf1_h_cfg.ks (inferred preloaded)
19.06,TAKEOFF,TO_GROUND_ROLL,58.37,80,21.63,3.64,-0.29,-0.03,0.23,90.38,0.106,1,0,0,0,0,0,0,0,0,0,90.34,0,1,0,-0.28,0,0,0.04,90,0,0,0,0,0,0,0,0,-0.056,0,0,3,0,0,0,69,0,0,0,90.34,1,-0.056,0.031,-0.0005,0.661,0,-0.0005,0,0,0,0,0,0,1,1,0,0,VALID,0,0,0,0,0,1,0,0,0,0,0,0,0,0,0,0,0,0,0,0,320,490.02,2,0,0.08,0.08,281,14.29,0.08,0.06,18.98,LANDED,CF1-H,0:/Integrated Flight Computer/aircraft/cf1_h_cfg.ks (inferred preloaded)
19.34,TAKEOFF,TO_GROUND_ROLL,59.91,80,20.09,3.64,-0.29,-0.01,0.25,90.38,0.104,1,0,0,0,0,0,0,0,0,0,90.34,0,1,0,-0.28,0,0,0.04,90,0,0,0,0,0,0,0,0,-0.059,0,0,3,0,0,0,69,0,0,0,90.34,1,-0.059,0.034,-0.0006,0.678,0,-0.0006,0,0,0,0,0,0,1,1,0,0,VALID,0,0,0,0,0,1,0,0,0,0,0,0,0,0,0,0,0,0,0,0,322.17,489.01,2,0,0.08,0.08,285,14.29,0.08,0.06,19.26,LANDED,CF1-H,0:/Integrated Flight Computer/aircraft/cf1_h_cfg.ks (inferred preloaded)
19.62,TAKEOFF,TO_GROUND_ROLL,61.47,80,18.53,3.65,-0.29,0.02,0.28,90.38,0.104,1,0,0,0,0,0,0,0,0,0,90.34,0,1,0,-0.27,0,0,0.04,90,0,0,0,0,0,0,0,0,-0.061,0,0,3,0,0,0,69,0,0,0,90.34,1,-0.061,0.037,-0.0007,0.694,0,-0.0007,0,0,0,0,0,0,1,1,0,0,VALID,0,0,0,0,0,1,0,0,0,0,0,0,0,0,0,0,0,0,0,0,324.26,487.97,2,0,0.08,0.08,289,14.29,0.08,0.06,19.54,LANDED,CF1-H,0:/Integrated Flight Computer/aircraft/cf1_h_cfg.ks (inferred preloaded)
19.9,TAKEOFF,TO_GROUND_ROLL,63.03,80,16.97,3.66,-0.3,0.06,0.32,90.38,0.104,1,0,0,0,0,0,0,0,0,0,90.34,0,1,0,-0.27,0,0,0.04,90,0,0,0,0,0,0,0,0,-0.063,0,0,3,0,0,0,69,0,0,0,90.34,1,-0.063,0.039,-0.0007,0.711,0,-0.0007,0,0,0,0,0,0,1,1,0,0,VALID,0,0,0,0,0,1,0,0,0,0,0,0,0,0,0,0,0,0,0,0,326.29,486.92,2,0,0.08,0.08,293,14.29,0.08,0.06,19.82,LANDED,CF1-H,0:/Integrated Flight Computer/aircraft/cf1_h_cfg.ks (inferred preloaded)
20.18,TAKEOFF,TO_GROUND_ROLL,64.61,80,15.39,3.67,-0.21,0.1,0.27,90.38,0.104,1,0,0,0,0,0,0,0,0,0,90.33,0,1,0,-0.18,0,0,0.04,90,0,0,0,0,0,0,0,0,-0.066,0,0,3,0,0,0,69,0,0,0,90.33,1,-0.066,0.042,-0.0008,0.728,0,-0.0008,0,0,0,0,0,0,1,1,0,0,VALID,0,0,0,0,0,1,0,0,0,0,0,0,0,0,0,0,0,0,0,0,328.25,485.86,2,0,0.08,0.08,297,14.29,0.08,0.06,20.1,LANDED,CF1-H,0:/Integrated Flight Computer/aircraft/cf1_h_cfg.ks (inferred preloaded)
20.46,TAKEOFF,TO_GROUND_ROLL,66.19,80,13.81,3.68,-0.35,0.17,0.45,90.38,0.102,1,0,0,0,0,0,0,0,0,0,90.33,0,1,0,-0.3,0,0,0.05,90,0,0,0,0,0,0,0,0,-0.068,0,0,3,0,0,0,69,0,0,0,90.33,1,-0.068,0.044,-0.0009,0.745,0,-0.0009,0,0,0,0,0,0,1,1,0,0,VALID,0,0,0,0,0,1,0,0,0,0,0,0,0,0,0,0,0,0,0,0,330.15,484.79,2,0,0.08,0.08,301,14.29,0.08,0.06,20.38,LANDED,CF1-H,0:/Integrated Flight Computer/aircraft/cf1_h_cfg.ks (inferred preloaded)
20.74,TAKEOFF,TO_GROUND_ROLL,67.77,80,12.23,3.7,-0.31,0.24,0.48,90.38,0.102,1,0,0,0,0,0,0,0,0,0,90.33,0,1,0,-0.26,0,0,0.05,90,0,0,0,0,0,0,0,0,-0.071,0,0,3,0,0,0,69,0,0,0,90.33,1,-0.071,0.048,-0.001,0.762,0,-0.001,0,0,0,0,0,0,1,1,0,0,VALID,0,0,0,0,0,1,0,0,0,0,0,0,0,0,0,0,0,0,0,0,331.99,483.7,2,0,0.08,0.08,305,14.29,0.08,0.06,20.66,LANDED,CF1-H,0:/Integrated Flight Computer/aircraft/cf1_h_cfg.ks (inferred preloaded)
21.02,TAKEOFF,TO_GROUND_ROLL,69.37,80,10.63,3.71,-0.32,0.29,0.53,90.38,0.101,1,0,0,0,0,0,0,0,0,0,90.33,0,1,0,-0.26,0,0,0.05,90,0,0,0,0,0,0,0,0,-0.073,0,0,3,0,0,0,69,0,0,0,90.33,1,-0.073,0.053,-0.0011,0.779,0,-0.0011,0,0,0,0,0,0,1,1,0,0,VALID,0,0,0,0,0,1,0,0,0,0,0,0,0,0,0,0,0,0,0,0,333.76,482.61,2,0,0.08,0.08,309,14.29,0.08,0.06,20.94,LANDED,CF1-H,0:/Integrated Flight Computer/aircraft/cf1_h_cfg.ks (inferred preloaded)
21.32,TAKEOFF,TO_ROTATE,71.08,80,8.92,3.71,-0.33,0.32,0.57,90.38,0.1,1,0,0,0,0,0,0,0,0,0,90.32,0.723,1,0,-0.27,0,0,0.05,90,0,0,0,0,0,0,0,0,-0.076,0,0,3,0,0,0,69,0,0,0,90.32,1,-0.076,0.058,-0.0013,0.796,0,-0.0013,0,0.12,0.723,0.406,0.08,0,1,1,0,0,VALID,0,0,0,0,0,1,0,0,0,0,0,0,0,0,0,0,0,0,0,0,335.59,481.42,2,0,0.08,0.08,313,13.33,0.08,0.06,21.22,LANDED,CF1-H,0:/Integrated Flight Computer/aircraft/cf1_h_cfg.ks (inferred preloaded)
21.6,TAKEOFF,TO_ROTATE,72.69,80,7.31,3.72,-0.33,0.37,0.62,90.38,0.1,1,0,0,0,0,0,0,0,0,0,90.32,1.563,1,0,-0.26,0,0,0.05,90,0,0,0,0,0,0,0,0,-0.079,0,0,3,0,0,0,69,0,0,0,90.32,1,-0.079,0.063,-0.0014,0.813,0,-0.0014,0,0.1753,1.563,1.192,0.08,0,1,1,0,0,VALID,0,0,0,0,0,1,0,0,0,0,0,0,0,0,0,0,0,0,0,0,337.24,480.31,2,0,0.08,0.08,317,14.29,0.08,0.06,21.5,LANDED,CF1-H,0:/Integrated Flight Computer/aircraft/cf1_h_cfg.ks (inferred preloaded)
21.88,TAKEOFF,TO_ROTATE,74.3,80,5.7,3.75,-0.32,0.52,0.76,90.39,0.099,1,0,0,0,0,0,0,0,0,0,90.32,2.403,1,0,-0.25,0,0,0.06,90,0,0,0,0,0,0,0,0,-0.081,0,0,3,0,0,0,69,0,0,0,90.32,1,-0.081,0.07,-0.0016,0.831,0,-0.0016,0,0.2305,2.403,1.881,0.08,0,1,1,0,0,VALID,0,0,0,0,0,1,0,0,0,0,0,0,0,0,0,0,0,0,0,0,338.83,479.18,2,0,0.08,0.08,321,14.29,0.08,0.06,21.78,LANDED,CF1-H,0:/Integrated Flight Computer/aircraft/cf1_h_cfg.ks (inferred preloaded)
22.18,TAKEOFF,TO_ROTATE,76.03,80,3.97,3.8,-0.32,0.8,1.03,90.39,0.099,1,0,0,0,0,0,0,0,0,0,90.31,3.303,1,0,-0.24,0,0,0.06,90,0,0,0,0,0,0,0,0,-0.085,0,0,3,0,0,0,69,0,0,0,90.31,1,-0.085,0.077,-0.0019,0.849,0,-0.0019,0,0.2805,3.303,2.506,0.08,0,1,1,0,0,VALID,0,0,0,0,0,1,0,0,0,0,0,0,0,0,0,0,0,0,0,0,340.48,477.97,2,0,0.08,0.08,325,13.33,0.08,0.06,22.08,LANDED,CF1-H,0:/Integrated Flight Computer/aircraft/cf1_h_cfg.ks (inferred preloaded)
22.46,TAKEOFF,TO_ROTATE,77.64,80,2.36,3.86,-0.33,1.1,1.33,90.39,0.097,1,0,0,0,0,0,0,0,0,0,90.31,4.143,1,0,-0.24,0,0,0.06,90,0,0,0,0,0,0,0,0,-0.088,0,0,3,0,0,0,69,0,0,0,90.31,1,-0.088,0.085,-0.0022,0.866,0,-0.0022,0,0.3233,4.143,3.041,0.08,0,1,1,0,0,VALID,0,0,0,0,0,1,0,0,0,0,0,0,0,0,0,0,0,0,0,0,341.96,476.83,2,0,0.08,0.08,329,14.29,0.08,0.06,22.36,LANDED,CF1-H,0:/Integrated Flight Computer/aircraft/cf1_h_cfg.ks (inferred preloaded)
22.74,TAKEOFF,TO_ROTATE,79.25,80,0.75,3.91,-0.31,1.38,1.6,90.4,0.096,1,0,0,0,0,0,0,0,0,0,90.31,4.983,1,0,-0.23,0,0,0.06,90,0,0,0,0,0,0,0,0,-0.091,0,0,3,0,0,0,69,0,0,0,90.31,1,-0.091,0.093,-0.0024,0.884,0,-0.0024,0,0.3682,4.983,3.603,0.08,0,1,1,0,0,VALID,0,0,0,0,0,1,0,0,0,0,0,0,0,0,0,0,0,0,0,0,343.39,475.7,2,0,0.08,0.08,333,14.29,0.08,0.06,22.64,LANDED,CF1-H,0:/Integrated Flight Computer/aircraft/cf1_h_cfg.ks (inferred preloaded)
23.02,TAKEOFF,TO_ROTATE,80.85,80,-0.85,3.96,-0.31,1.65,1.85,90.4,0.093,1,0,0,0,0,0,0,0,0,0,90.3,5.823,1,0,-0.22,0,0,0.06,90,0,0,0,0,0,0,0,0,-0.094,0,0,3,0,0,0,69,0,0,0,90.3,1,-0.094,0.101,-0.0027,0.901,0,-0.0027,0,0.4141,5.823,4.176,0.08,0,1,1,0,0,VALID,0,0,0,0,0,1,0,0,0,0,0,0,0,0,0,0,0,0,0,0,344.77,474.56,2,0,0.08,0.08,337,14.29,0.08,0.06,22.92,LANDED,CF1-H,0:/Integrated Flight Computer/aircraft/cf1_h_cfg.ks (inferred preloaded)
23.3,TAKEOFF,TO_ROTATE,82.45,80,-2.45,4.06,-0.25,1.97,2.11,90.41,0.093,1,0,0,0,0,0,0,0,0,0,90.3,6.663,1,0,-0.14,0,0,0.07,90,0,0,0,0,0,0,0,0,-0.097,0,0,3,0,0,0,69,0,0,0,90.3,1,-0.097,0.11,-0.0031,0.918,0,-0.0031,0,0.45,6.663,4.689,0.08,0,1,1,0,0,VALID,0,0,0,0,0,1,0,0,0,0,0,0,0,0,0,0,0,0,0,0,346.1,473.42,2,0,0.08,0.08,341,14.29,0.08,0.06,23.2,LANDED,CF1-H,0:/Integrated Flight Computer/aircraft/cf1_h_cfg.ks (inferred preloaded)
23.58,TAKEOFF,TO_ROTATE,84.03,80,-4.03,4.18,-0.21,2.64,2.79,90.41,0.092,1,0,0,0,0,0,0,0,0,0,90.3,7.503,1,0,-0.16,0,0,0.07,90,0,0,0,0,0,0,0,0,-0.101,0,0,3,0,0,0,69,0,0,0,90.3,1,-0.101,0.114,-0.0033,0.935,0,-0.0033,0,0.45,7.503,4.862,0.08,0,1,1,0,0,VALID,0,0,0,0,0,1,0,0,0,0,0,0,0,0,0,0,0,0,0,0,347.39,472.29,2,0,0.08,0.08,345,14.29,0.08,0.06,23.48,LANDED,CF1-H,0:/Integrated Flight Computer/aircraft/cf1_h_cfg.ks (inferred preloaded)
23.86,TAKEOFF,TO_ROTATE,85.6,80,-5.6,4.36,-0.3,3.47,3.67,90.42,0.094,1,0,0,0,0,0,0,0,0,0,90.29,8.343,1,0,-0.2,0,0,0.07,90,0,0,0,0,0,0,0,0,-0.104,0,0,3,0,0,0,69,0,0,0,90.29,1,-0.104,0.122,-0.0036,0.952,0,-0.0036,0,0.45,8.343,4.87,0.08,0,1,1,0,0,VALID,0,0,0,0,0,1,0,0,0,0,0,0,0,0,0,0,0,0,0,0,348.65,471.18,2,0,0.08,0.08,349,14.29,0.08,0.06,23.76,LANDED,CF1-H,0:/Integrated Flight Computer/aircraft/cf1_h_cfg.ks (inferred preloaded)
24.14,TAKEOFF,TO_ROTATE,87.12,80,-7.12,4.56,-0.2,4.5,4.63,90.42,0.088,1,0,0,0,0,0,0,0,0,0,90.29,9.183,1,0,-0.13,0,0,0.07,90,0,0,0,0,0,0,0,0,-0.108,0,0,3,0,0,0,69,0,0,0,90.29,1,-0.108,0.128,-0.0039,0.968,0,-0.0039,0,0.45,9.183,4.68,0.08,0,1,1,0,0,VALID,0,0,0,0,0,1,0,0,0,0,0,0,0,0,0,0,0,0,0,0,349.88,470.09,2,0,0.08,0.08,353,14.29,0.08,0.06,24.04,LANDED,CF1-H,0:/Integrated Flight Computer/aircraft/cf1_h_cfg.ks (inferred preloaded)
24.4,TAKEOFF,TO_ROTATE,88.47,80,-8.47,4.78,0.05,5.55,5.47,90.42,0.068,1,0,0,0,0,0,0,0,0,0,90.4,10,1,0,0.03,0,0,0.08,90,-0.933,-0.0067,-0.3598,10,90.4,0,0,0,0,0,0,3,0,0,0,69,0,0,0,90.4,1,0,0.018,0,0,3,0,0,0,10,4.452,0,0,1,1,0,0,VALID,0,0,0,0,0,1,0,0,0,0,0,0,0,0,0,0,0,0,0,0,351.01,469.12,2,0,0.08,0.08,357,15.38,0.08,0.06,24.3,FLYING,CF1-H,0:/Integrated Flight Computer/aircraft/cf1_h_cfg.ks (inferred preloaded)
24.68,TAKEOFF,TO_ROTATE,89.87,80,-9.87,5.08,0.72,6.07,5.64,90.42,0.061,1,0,0,0,0,0,0,0,0,0,90.4,10,0,1,0.46,0,0,10,90.4,-0.933,-0.0067,-0.3599,10,90.4,0,0,0,0,0,0,3,0,0,0,69,0,0,0,90.4,1,0,0.022,0,0,3,0,0,0,10,3.935,0,0,1,1,0,0,VALID,0,0,0,0,0,1,0,0,0,0,0,0,0,0,0,0,0,0,0,0,352.22,468.1,2,0,0.08,0.08,361,14.29,0.08,0.06,24.58,FLYING,CF1-H,0:/Integrated Flight Computer/aircraft/cf1_h_cfg.ks (inferred preloaded)
24.96,TAKEOFF,TO_ROTATE,91.25,80,-11.25,5.52,1.37,6.29,5.48,90.42,0.049,1,0,0,0,0,0,0,0,0,0,90.4,10,0,1,0.86,0,0,10,90.4,-0.933,-0.0067,-0.3599,10,90.4,0,0,0,0,0,0,3,0,0,0,69,0,0,0,90.4,1,0,0.023,0,0,3,0,0,0,10,3.706,0,0,1,1,0,0,VALID,0,0,0,0,0,1,0,0,0,0,0,0,0,0,0,0,0,0,0,0,353.39,467.1,2,0,0.08,0.08,365,14.29,0.08,0.06,24.86,FLYING,CF1-H,0:/Integrated Flight Computer/aircraft/cf1_h_cfg.ks (inferred preloaded)
25.24,TAKEOFF,TO_CLIMB,92.61,80,-12.61,6.13,2.04,6.38,5.17,90.42,0.039,0.968,0,0,0,0,0,0,0,0,0,90.4,6.471,0,1,1.26,0,0,10,90.4,-0.909,-0.0069,-0.4167,6.47,90.4,0,0,0,0,0,0,3,0,0,0,69,0,0,0,90.4,1,0,0.024,0,0,3,0,0,0,10,3.657,0,0,1,1,0,0,VALID,0,0,0,0,0,1,0,0,0,0,0,0,0,0,0,0,0,0,0,0,354.52,466.09,2,0,0.08,0.08,369,14.29,0.08,0.06,25.14,FLYING,CF1-H,0:/Integrated Flight Computer/aircraft/cf1_h_cfg.ks (inferred preloaded)
25.52,TAKEOFF,TO_CLIMB,93.97,80,-13.97,6.92,2.75,6.45,4.88,90.42,0.029,0.8603,0,0,0,0,0,0,0,0,0,90.4,6.919,0,1,1.68,0,0,6.79,90.4,-0.9122,-0.0068,-0.4096,6.92,90.4,0,0,0,0,0,0,3,0,0,0,69,0,0,0,90.4,1,0,0.025,0,0,3,0,0,0,10,3.657,0,0,1,1,0,0,VALID,0,0,0,0,0,1,0,0,0,0,0,0,0,0,0,0,0,0,0,0,355.15,465.07,2,0,0.08,0.08,373,14.29,0.08,0.06,25.42,FLYING,CF1-H,0:/Integrated Flight Computer/aircraft/cf1_h_cfg.ks (inferred preloaded)
25.8,TAKEOFF,TO_CLIMB,95.33,80,-15.33,7.84,3.28,6.2,4.32,90.42,0.018,0.8467,0,0,0,0,0,0,0,0,0,90.4,7.367,0,1,1.97,0,0,7.24,90.4,-0.9154,-0.0068,-0.4025,7.37,90.4,0,0,0,0,0,0,3,0,0,0,69,0,0,0,90.4,1,0,0.025,0,0,3,0,0,0,10,3.657,0,0,1,1,0,0,VALID,0,0,0,0,0,1,0,0,0,0,0,0,0,0,0,0,0,0,0,0,355.12,464.03,2,0,0.08,0.08,377,14.29,0.08,0.06,25.7,FLYING,CF1-H,0:/Integrated Flight Computer/aircraft/cf1_h_cfg.ks (inferred preloaded)
26.08,TAKEOFF,TO_CLIMB,96.71,80,-16.71,8.95,3.76,6.29,4.16,90.42,0.01,0.8329,0,0,0,0,0,0,0,0,0,90.4,7.815,0,1,2.23,0,0,7.69,90.4,-0.9185,-0.0068,-0.3954,7.82,90.4,0,0,0,0,0,0,3,0,0,0,69,0,0,0,90.4,1,0,0.025,0,0,3,0,0,0,10,3.657,0,0,1,1,0,0,VALID,0,0,0,0,0,1,0,0,0,0,0,0,0,0,0,0,0,0,0,0,354.92,462.98,2,0,0.08,0.08,381,14.29,0.08,0.06,25.98,FLYING,CF1-H,0:/Integrated Flight Computer/aircraft/cf1_h_cfg.ks (inferred preloaded)
26.36,TAKEOFF,TO_CLIMB,98.07,80,-18.07,10.19,4.29,6.4,3.99,90.42,0.003,0.8193,0,0,0,0,0,0,0,0,0,90.4,8,0,1,2.5,0,0,8,90.4,-0.9197,-0.0068,-0.3925,8,90.4,0,0,0,0,0,0,3,0,0,0,69,0,0,0,90.4,1,0,0.025,0,0,3,0,0,0,10,3.657,0,0,1,1,0,0,VALID,0,0,0,0,0,1,0,0,0,0,0,0,0,0,0,0,0,0,0,0,354.6,461.93,2,0,0.08,0.08,385,14.29,0.08,0.06,26.26,FLYING,CF1-H,0:/Integrated Flight Computer/aircraft/cf1_h_cfg.ks (inferred preloaded)
26.64,TAKEOFF,TO_CLIMB,99.43,80,-19.43,11.59,4.83,6.48,3.81,90.42,-0.004,0.8057,0,0,0,0,0,0,0,0,0,90.4,8,0,1,2.78,0,0,8,90.4,-0.9197,-0.0068,-0.3925,8,90.4,0,0,0,0,0,0,3,0,0,0,69,0,0,0,90.4,1,0,0.025,0,0,3,0,0,0,10,3.657,0,0,1,1,0,0,VALID,0,0,0,0,0,1,0,0,0,0,0,0,0,0,0,0,0,0,0,0,354.17,460.88,2,0,0.08,0.08,389,14.29,0.08,0.06,26.54,FLYING,CF1-H,0:/Integrated Flight Computer/aircraft/cf1_h_cfg.ks (inferred preloaded)
26.92,TAKEOFF,TO_CLIMB,100.77,80,-20.77,13.14,5.38,6.56,3.62,90.42,-0.009,0.7923,0,0,0,0,0,0,0,0,0,90.4,8,0,1,3.05,0,0,8,90.4,-0.9197,-0.0068,-0.3926,8,90.4,0,0,0,0,0,0,3,0,0,0,69,0,0,0,90.4,1,0,0.025,0,0,3,0,0,0,10,3.657,0,0,1,1,0,0,VALID,0,0,0,0,0,1,0,0,0,0,0,0,0,0,0,0,0,0,0,0,353.62,459.83,2,0,0.08,0.08,393,14.29,0.08,0.06,26.82,FLYING,CF1-H,0:/Integrated Flight Computer/aircraft/cf1_h_cfg.ks (inferred preloaded)
27.2,TAKEOFF,TO_CLIMB,102.1,80,-22.1,14.84,5.92,6.63,3.43,90.42,-0.012,0.78,0,0,0,0,0,0,0,0,0,90.4,8,0,1,3.32,0,0,8,90.4,-0.9197,-0.0068,-0.3926,8,90.4,0,0,0,0,0,0,3,0,0,0,69,0,0,0,90.4,1,0,0.024,0,0,3,0,0,0,10,3.657,0,0,1,1,0,0,VALID,0,0,0,0,0,1,0,0,0,0,0,0,0,0,0,0,0,0,0,0,352.97,458.77,2,0,0.08,0.08,397,14.29,0.08,0.06,27.1,FLYING,CF1-H,0:/Integrated Flight Computer/aircraft/cf1_h_cfg.ks (inferred preloaded)
27.48,TAKEOFF,TO_CLIMB,103.42,80,-23.42,16.7,6.45,6.71,3.27,90.42,-0.014,0.78,0,0,0,0,0,0,0,0,0,90.4,8,0,1,3.57,0,0,8,90.4,-0.9197,-0.0068,-0.3926,8,90.4,0,0,0,0,0,0,3,0,0,0,69,0,0,0,90.4,1,0,0.024,0,0,3,0,0,0,10,3.657,0,0,1,1,0,0,VALID,0,0,0,0,0,1,0,0,0,0,0,0,0,0,0,0,0,0,0,0,352.24,457.72,2,0,0.08,0.08,401,14.29,0.08,0.06,27.38,FLYING,CF1-H,0:/Integrated Flight Computer/aircraft/cf1_h_cfg.ks (inferred preloaded)
27.76,TAKEOFF,TO_CLIMB,104.73,80,-24.73,18.7,6.99,6.79,3.11,90.42,-0.017,0.78,0,0,0,0,0,0,0,0,0,90.4,8,0,1,3.82,0,0,8,90.4,-0.9196,-0.0068,-0.3927,8,90.4,0,0,0,0,0,0,3,0,0,0,69,0,0,0,90.4,1,0,0.023,0,0,3,0,0,0,10,3.657,0,0,1,1,0,0,VALID,0,0,0,0,0,1,0,0,0,0,0,0,0,0,0,0,0,0,0,0,351.51,456.67,2,0,0.08,0.08,405,14.29,0.08,0.06,27.66,FLYING,CF1-H,0:/Integrated Flight Computer/aircraft/cf1_h_cfg.ks (inferred preloaded)
28.04,TAKEOFF,TO_CLIMB,106.03,80,-26.03,20.85,7.52,6.86,2.94,90.42,-0.019,0.78,0,0,0,0,0,0,0,0,0,90.4,8,0,1,4.06,0,0,8,90.4,-0.9196,-0.0068,-0.3927,8,90.4,0,0,0,0,0,0,3,0,0,0,69,0,0,0,90.4,1,0,0.023,0,0,3,0,0,0,10,3.657,0,0,1,1,0,0,VALID,0,0,0,0,0,1,0,0,0,0,0,0,0,0,0,0,0,0,0,0,350.78,455.62,2,0,0.08,0.08,409,14.29,0.08,0.06,27.94,FLYING,CF1-H,0:/Integrated Flight Computer/aircraft/cf1_h_cfg.ks (inferred preloaded)
28.32,TAKEOFF,TO_CLIMB,107.32,80,-27.32,23.15,8.05,6.92,2.78,90.42,-0.021,0.78,0,0,0,0,0,0,0,0,0,90.4,8,0,1,4.29,0,0,8,90.4,-0.9196,-0.0068,-0.3928,8,90.4,0,0,0,0,0,0,3,0,0,0,69,0,0,0,90.4,1,0,0.022,0,0,3,0,0,0,10,3.657,0,0,1,1,0,0,VALID,0,0,0,0,0,1,0,0,0,0,0,0,0,0,0,0,0,0,0,0,350.05,454.57,2,0,0.08,0.08,413,14.29,0.08,0.06,28.22,FLYING,CF1-H,0:/Integrated Flight Computer/aircraft/cf1_h_cfg.ks (inferred preloaded)
28.6,TAKEOFF,TO_CLIMB,108.6,80,-28.6,25.6,8.57,6.98,2.62,90.42,-0.023,0.78,0,0,0,0,0,0,0,0,0,90.4,8,0,1,4.51,0,0,8,90.4,-0.9196,-0.0068,-0.3928,8,90.4,0,0,0,0,0,0,3,0,0,0,69,0,0,0,90.4,1,0,0.021,0,0,3,0,0,0,10,3.657,0,0,1,1,0,0,VALID,0,0,0,0,0,1,0,0,0,0,0,0,0,0,0,0,0,0,0,0,349.32,453.52,2,0,0.08,0.08,417,14.29,0.08,0.06,28.5,FLYING,CF1-H,0:/Integrated Flight Computer/aircraft/cf1_h_cfg.ks (inferred preloaded)
28.88,TAKEOFF,TO_CLIMB,109.87,80,-29.87,28.19,9.09,7.04,2.46,90.42,-0.024,0.78,0,0,0,0,0,0,0,0,0,90.4,8,0,1,4.73,0,0,8,90.4,-0.9196,-0.0068,-0.3929,8,90.4,0,0,0,0,0,0,3,0,0,0,69,0,0,0,90.4,1,0,0.021,0,0,3,0,0,0,10,3.657,0,0,1,1,0,0,VALID,0,0,0,0,0,1,0,0,0,0,0,0,0,0,0,0,0,0,0,0,348.59,452.47,2,0,0.08,0.08,421,14.29,0.08,0.06,28.78,FLYING,CF1-H,0:/Integrated Flight Computer/aircraft/cf1_h_cfg.ks (inferred preloaded)
29.16,TAKEOFF,TO_CLIMB,111.13,80,-31.13,30.92,9.61,7.08,2.3,90.42,-0.025,0.78,0,0,0,0,0,0,0,0,0,90.4,8,0,1,4.94,0,0,8,90.4,-0.9195,-0.0068,-0.3929,8,90.4,0,0,0,0,0,0,3,0,0,0,69,0,0,0,90.4,1,0,0.019,0,0,3,0,0,0,10,3.657,0,0,1,1,0,0,VALID,0,0,0,0,0,1,0,0,0,0,0,0,0,0,0,0,0,0,0,0,347.86,451.43,2,0,0.08,0.08,425,14.29,0.08,0.06,29.06,FLYING,CF1-H,0:/Integrated Flight Computer/aircraft/cf1_h_cfg.ks (inferred preloaded)
29.44,TAKEOFF,TO_CLIMB,112.37,80,-32.37,33.79,10.1,7.12,2.15,90.42,-0.025,0.78,0,0,0,0,0,0,0,0,0,90.4,8,0,1,5.14,0,0,8,90.4,-0.9195,-0.0068,-0.393,8,90.4,0,0,0,0,0,0,3,0,0,0,69,0,0,0,90.4,1,0,0.017,0,0,3,0,0,0,10,3.657,0,0,1,1,0,0,VALID,0,0,0,0,0,1,0,0,0,0,0,0,0,0,0,0,0,0,0,0,347.13,450.39,2,0,0.08,0.08,429,14.29,0.08,0.06,29.34,FLYING,CF1-H,0:/Integrated Flight Computer/aircraft/cf1_h_cfg.ks (inferred preloaded)
29.72,TAKEOFF,TO_CLIMB,113.61,80,-33.61,36.8,10.59,7.18,2.01,90.42,-0.026,0.78,0,0,0,0,0,0,0,0,0,90.4,8,0,1,5.33,0,0,8,90.4,-0.9195,-0.0068,-0.393,8,90.4,0,0,0,0,0,0,3,0,0,0,69,0,0,0,90.4,1,0,0.015,0,0,3,0,0,0,10,3.657,0,0,1,1,0,0,VALID,0,0,0,0,0,1,0,0,0,0,0,0,0,0,0,0,0,0,0,0,346.4,449.35,2,0,0.08,0.08,433,14.29,0.08,0.06,29.62,FLYING,CF1-H,0:/Integrated Flight Computer/aircraft/cf1_h_cfg.ks (inferred preloaded)
30,TAKEOFF,TO_CLIMB,114.83,80,-34.83,39.95,11.07,7.22,1.88,90.41,-0.026,0.78,0,0,0,0,0,0,0,0,0,90.4,8,0,1,5.51,0,0,8,90.4,-0.9195,-0.0068,-0.3931,8,90.4,0,0,0,0,0,0,3,0,0,0,69,0,0,0,90.4,1,0,0.013,0,0,3,0,0,0,10,3.657,0,0,1,1,0,0,VALID,0,0,0,0,0,1,0,0,0,0,0,0,0,0,0,0,0,0,0,0,345.66,448.31,2,0,0.08,0.08,437,14.29,0.08,0.06,29.9,FLYING,CF1-H,0:/Integrated Flight Computer/aircraft/cf1_h_cfg.ks (inferred preloaded)
30.28,TAKEOFF,TO_CLIMB,116.05,80,-36.05,43.23,11.54,7.27,1.76,90.41,-0.027,0.78,0,0,0,0,0,0,0,0,0,90.4,8,0,1,5.68,0,0,8,90.4,-0.9195,-0.0068,-0.3931,8,90.4,0,0,0,0,0,0,3,0,0,0,69,0,0,0,90.4,1,0,0.011,0,0,3,0,0,0,10,3.657,0,0,1,1,0,0,VALID,0,0,0,0,0,1,0,0,0,0,0,0,0,0,0,0,0,0,0,0,344.93,447.27,2,0,0.08,0.08,441,14.29,0.08,0.06,30.18,FLYING,CF1-H,0:/Integrated Flight Computer/aircraft/cf1_h_cfg.ks (inferred preloaded)
30.56,TAKEOFF,TO_CLIMB,117.26,80,-37.26,46.63,12,7.31,1.63,90.41,-0.028,0.78,0,0,0,0,0,0,0,0,0,90.4,8,0,1,5.84,0,0,8,90.4,-0.9194,-0.0068,-0.3932,8,90.4,0,0,0,0,0,0,3,0,0,0,69,0,0,0,90.4,1,0,0.009,0,0,3,0,0,0,10,3.657,0,0,1,1,0,0,VALID,0,0,0,0,0,1,0,0,0,0,0,0,0,0,0,0,0,0,0,0,344.2,446.24,2,0,0.08,0.08,445,14.29,0.08,0.06,30.46,FLYING,CF1-H,0:/Integrated Flight Computer/aircraft/cf1_h_cfg.ks (inferred preloaded)
30.84,TAKEOFF,TO_CLIMB,118.46,80,-38.46,50.16,12.46,7.32,1.49,90.41,-0.027,0.78,0,0,0,0,0,0,0,0,0,90.4,8,0,1,6,0,0,8,90.4,-0.9194,-0.0068,-0.3932,8,90.4,0,0,0,0,0,0,3,0,0,0,69,0,0,0,90.4,1,0,0.009,0,0,3,0,0,0,10,3.657,0,0,1,1,0,0,VALID,0,0,0,0,0,1,0,0,0,0,0,0,0,0,0,0,0,0,0,0,343.47,445.21,2,0,0.08,0.08,449,14.29,0.08,0.06,30.74,FLYING,CF1-H,0:/Integrated Flight Computer/aircraft/cf1_h_cfg.ks (inferred preloaded)
31.12,TAKEOFF,TO_CLIMB,119.65,80,-39.65,53.82,12.89,7.36,1.38,90.41,-0.027,0.78,0,0,0,0,0,0,0,0,0,90.4,8,0,1,6.15,0,0,8,90.4,-0.9194,-0.0068,-0.3933,8,90.4,0,0,0,0,0,0,3,0,0,0,69,0,0,0,90.4,1,0,0.009,0,0,3,0,0,0,10,3.657,0,0,1,1,0,0,VALID,0,0,0,0,0,1,0,0,0,0,0,0,0,0,0,0,0,0,0,0,342.74,444.18,2,0,0.08,0.08,453,14.29,0.08,0.06,31.02,FLYING,CF1-H,0:/Integrated Flight Computer/aircraft/cf1_h_cfg.ks (inferred preloaded)
31.4,TAKEOFF,TO_CLIMB,120.83,80,-40.83,57.59,13.32,7.39,1.27,90.41,-0.026,0.78,0,0,0,0,0,0,0,0,0,90.4,8,0,1,6.29,0,0,8,90.4,-0.9194,-0.0068,-0.3933,8,90.4,0,0,0,0,0,0,3,0,0,0,69,0,0,0,90.4,1,0,0.008,0,0,3,0,0,0,10,3.657,0,0,1,1,0,0,VALID,0,0,0,0,0,1,0,0,0,0,0,0,0,0,0,0,0,0,0,0,342.01,443.15,2,0,0.08,0.08,457,14.29,0.08,0.06,31.3,FLYING,CF1-H,0:/Integrated Flight Computer/aircraft/cf1_h_cfg.ks (inferred preloaded)
31.68,TAKEOFF,TO_CLIMB,122.01,80,-42.01,61.48,13.73,7.41,1.17,90.41,-0.026,0.78,0,0,0,0,0,0,0,0,0,90.4,8,0,1,6.42,0,0,8,90.4,-0.9193,-0.0068,-0.3934,8,90.4,0,0,0,0,0,0,3,0,0,0,69,0,0,0,90.4,1,0,0.008,0,0,3,0,0,0,10,3.657,0,0,1,1,0,0,VALID,0,0,0,0,0,1,0,0,0,0,0,0,0,0,0,0,0,0,0,0,341.29,442.13,2,0,0.08,0.08,461,14.29,0.08,0.06,31.58,FLYING,CF1-H,0:/Integrated Flight Computer/aircraft/cf1_h_cfg.ks (inferred preloaded)
31.96,TAKEOFF,TO_CLIMB,123.17,80,-43.17,65.48,14.13,7.44,1.07,90.41,-0.026,0.78,0,0,0,0,0,0,0,0,0,90.4,8,0,1,6.55,0,0,8,90.4,-0.9193,-0.0068,-0.3935,8,90.4,0,0,0,0,0,0,3,0,0,0,69,0,0,0,90.4,1,0,0.008,0,0,3,0,0,0,10,3.657,0,0,1,1,0,0,VALID,0,0,0,0,0,1,0,0,0,0,0,0,0,0,0,0,0,0,0,0,340.56,441.11,2,0,0.08,0.08,465,14.29,0.08,0.06,31.86,FLYING,CF1-H,0:/Integrated Flight Computer/aircraft/cf1_h_cfg.ks (inferred preloaded)
32.24,TAKEOFF,TO_CLIMB,124.33,80,-44.33,69.6,14.53,7.46,0.97,90.41,-0.025,0.78,0,0,0,0,0,0,0,0,0,90.4,8,0,1,6.66,0,0,8,90.4,-0.9193,-0.0068,-0.3935,8,90.4,0,0,0,0,0,0,3,0,0,0,69,0,0,0,90.4,1,0,0.007,0,0,3,0,0,0,10,3.657,0,0,1,1,0,0,VALID,0,0,0,0,0,1,0,0,0,0,0,0,0,0,0,0,0,0,0,0,339.84,440.1,2,0,0.08,0.08,469,14.29,0.08,0.06,32.14,FLYING,CF1-H,0:/Integrated Flight Computer/aircraft/cf1_h_cfg.ks (inferred preloaded)
32.52,TAKEOFF,TO_CLIMB,125.48,80,-45.48,73.81,14.91,7.48,0.87,90.41,-0.023,0.78,0,0,0,0,0,0,0,0,0,90.4,8,0,1,6.78,0,0,8,90.4,-0.9193,-0.0068,-0.3936,8,90.4,0,0,0,0,0,0,3,0,0,0,69,0,0,0,90.4,1,0,0.007,0,0,3,0,0,0,10,3.657,0,0,1,1,0,0,VALID,0,0,0,0,0,1,0,0,0,0,0,0,0,0,0,0,0,0,0,0,339.11,439.09,2,0,0.08,0.08,473,14.29,0.08,0.06,32.42,FLYING,CF1-H,0:/Integrated Flight Computer/aircraft/cf1_h_cfg.ks (inferred preloaded)
32.8,TAKEOFF,TO_CLIMB,126.62,80,-46.62,78.14,15.28,7.49,0.78,90.41,-0.022,0.78,0,0,0,0,0,0,0,0,0,90.4,8,0,1,6.88,0,0,8,90.4,-0.9192,-0.0068,-0.3936,8,90.4,0,0,0,0,0,0,3,0,0,0,69,0,0,0,90.4,1,0,0.007,0,0,3,0,0,0,10,3.657,0,0,1,1,0,0,VALID,0,0,0,0,0,1,0,0,0,0,0,0,0,0,0,0,0,0,0,0,338.39,438.08,2,0,0.08,0.08,477,14.29,0.08,0.06,32.7,FLYING,CF1-H,0:/Integrated Flight Computer/aircraft/cf1_h_cfg.ks (inferred preloaded)
33.08,TAKEOFF,TO_CLIMB,127.76,80,-47.76,82.56,15.64,7.5,0.7,90.41,-0.022,0.78,0,0,0,0,0,0,0,0,0,90.4,8,0,1,6.98,0,0,8,90.4,-0.9192,-0.0068,-0.3937,8,90.4,0,0,0,0,0,0,3,0,0,0,69,0,0,0,90.4,1,0,0.007,0,0,3,0,0,0,10,3.657,0,0,1,1,0,0,VALID,0,0,0,0,0,1,0,0,0,0,0,0,0,0,0,0,0,0,0,0,337.67,437.08,2,0,0.08,0.08,481,14.29,0.08,0.06,32.98,FLYING,CF1-H,0:/Integrated Flight Computer/aircraft/cf1_h_cfg.ks (inferred preloaded)
33.36,TAKEOFF,TO_CLIMB,128.88,80,-48.88,87.08,15.99,7.51,0.61,90.41,-0.022,0.78,0,0,0,0,0,0,0,0,0,90.4,8,0,1,7.07,0,0,8,90.4,-0.9192,-0.0068,-0.3937,8,90.4,0,0,0,0,0,0,3,0,0,0,69,0,0,0,90.4,1,0,0.007,0,0,3,0,0,0,10,3.657,0,0,1,1,0,0,VALID,0,0,0,0,0,1,0,0,0,0,0,0,0,0,0,0,0,0,0,0,336.96,436.08,2,0,0.08,0.08,485,14.29,0.08,0.06,33.26,FLYING,CF1-H,0:/Integrated Flight Computer/aircraft/cf1_h_cfg.ks (inferred preloaded)
33.64,TAKEOFF,TO_CLIMB,130,80,-50,91.7,16.34,7.52,0.53,90.41,-0.021,0.78,0,0,0,0,0,0,0,0,0,90.4,8,0,1,7.16,0,0,8,90.4,-0.9192,-0.0068,-0.3938,8,90.4,0,0,0,0,0,0,3,0,0,0,69,0,0,0,90.4,1,0,0.006,0,0,3,0,0,0,10,3.657,0,0,1,1,0,0,VALID,0,0,0,0,0,1,0,0,0,0,0,0,0,0,0,0,0,0,0,0,336.24,435.08,2,0,0.08,0.08,489,14.29,0.08,0.06,33.54,FLYING,CF1-H,0:/Integrated Flight Computer/aircraft/cf1_h_cfg.ks (inferred preloaded)
33.92,TAKEOFF,TO_CLIMB,131.11,80,-51.11,96.4,16.67,7.52,0.46,90.41,-0.021,0.78,0,0,0,0,0,0,0,0,0,90.4,8,0,1,7.24,0,0,8,90.4,-0.9192,-0.0068,-0.3938,8,90.4,0,0,0,0,0,0,3,0,0,0,69,0,0,0,90.4,1,0,0.006,0,0,3,0,0,0,10,3.657,0,0,1,1,0,0,VALID,0,0,0,0,0,1,0,0,0,0,0,0,0,0,0,0,0,0,0,0,335.53,434.1,2,0,0.08,0.08,493,14.29,0.08,0.06,33.82,FLYING,CF1-H,0:/Integrated Flight Computer/aircraft/cf1_h_cfg.ks (inferred preloaded)
34.2,TAKEOFF,TO_CLIMB,132.22,80,-52.22,101.2,16.99,7.52,0.38,90.41,-0.022,0.78,0,0,0,0,0,0,0,0,0,90.4,8,0,1,7.32,0,0,8,90.4,-0.9191,-0.0068,-0.3939,8,90.4,0,0,0,0,0,0,3,0,0,0,69,0,0,0,90.4,1,0,0.006,0,0,3,0,0,0,10,3.657,0,0,1,1,0,0,VALID,0,0,0,0,0,1,0,0,0,0,0,0,0,0,0,0,0,0,0,0,334.82,433.11,2,0,0.08,0.08,497,14.29,0.08,0.06,34.1,FLYING,CF1-H,0:/Integrated Flight Computer/aircraft/cf1_h_cfg.ks (inferred preloaded)
34.48,TAKEOFF,TO_CLIMB,133.32,80,-53.32,106.08,17.29,7.52,0.31,90.41,-0.022,0.78,0,0,0,0,0,0,0,0,0,90.4,8,0,1,7.39,0,0,8,90.4,-0.9191,-0.0068,-0.394,8,90.4,0,0,0,0,0,0,3,0,0,0,69,0,0,0,90.4,1,0,0.006,0,0,3,0,0,0,10,3.657,0,0,1,1,0,0,VALID,0,0,0,0,0,1,0,0,0,0,0,0,0,0,0,0,0,0,0,0,334.12,432.14,2,0,0.08,0.08,501,14.29,0.08,0.06,34.38,FLYING,CF1-H,0:/Integrated Flight Computer/aircraft/cf1_h_cfg.ks (inferred preloaded)
34.76,TAKEOFF,TO_CLIMB,134.4,80,-54.4,111.05,17.59,7.52,0.24,90.41,-0.022,0.78,0,0,0,0,0,0,0,0,0,90.4,8,0,1,7.46,0,0,8,90.4,-0.9191,-0.0068,-0.394,8,90.4,0,0,0,0,0,0,3,0,0,0,69,0,0,0,90.4,1,0,0.006,0,0,3,0,0,0,10,3.657,0,0,1,1,0,0,VALID,0,0,0,0,0,1,0,0,0,0,0,0,0,0,0,0,0,0,0,0,333.42,431.17,2,0,0.08,0.08,505,14.29,0.08,0.06,34.66,FLYING,CF1-H,0:/Integrated Flight Computer/aircraft/cf1_h_cfg.ks (inferred preloaded)
35.04,TAKEOFF,TO_CLIMB,135.48,80,-55.48,116.1,17.89,7.52,0.17,90.41,-0.022,0.78,0,0,0,0,0,0,0,0,0,90.4,8,0,1,7.52,0,0,8,90.4,-0.9191,-0.0068,-0.3941,8,90.4,0,0,0,0,0,0,3,0,0,0,69,0,0,0,90.4,1,0,0.006,0,0,3,0,0,0,10,3.657,0,0,1,1,0,0,VALID,0,0,0,0,0,1,0,0,0,0,0,0,0,0,0,0,0,0,0,0,332.72,430.2,2,0,0.08,0.08,509,14.29,0.08,0.06,34.94,FLYING,CF1-H,0:/Integrated Flight Computer/aircraft/cf1_h_cfg.ks (inferred preloaded)
35.32,TAKEOFF,TO_CLIMB,136.56,80,-56.56,121.22,18.17,7.51,0.11,90.41,-0.022,0.78,0,0,0,0,0,0,0,0,0,90.4,8,0,1,7.58,0,0,8,90.4,-0.919,-0.0068,-0.3941,8,90.4,0,0,0,0,0,0,3,0,0,0,69,0,0,0,90.4,1,0,0.006,0,0,3,0,0,0,10,3.657,0,0,1,1,0,0,VALID,0,0,0,0,0,1,0,0,0,0,0,0,0,0,0,0,0,0,0,0,332.03,429.24,2,0,0.08,0.08,513,14.29,0.08,0.06,35.22,FLYING,CF1-H,0:/Integrated Flight Computer/aircraft/cf1_h_cfg.ks (inferred preloaded)
35.6,TAKEOFF,TO_CLIMB,137.62,80,-57.62,126.42,18.44,7.5,0.04,90.41,-0.022,0.78,0,0,0,0,0,0,0,0,0,90.4,8,0,1,7.63,0,0,8,90.4,-0.919,-0.0068,-0.3942,8,90.4,0,0,0,0,0,0,3,0,0,0,69,0,0,0,90.4,1,0,0.006,0,0,3,0,0,0,10,3.657,0,0,1,1,0,0,VALID,0,0,0,0,0,1,0,0,0,0,0,0,0,0,0,0,0,0,0,0,331.34,428.29,2,0,0.08,0.08,517,14.29,0.08,0.06,35.5,FLYING,CF1-H,0:/Integrated Flight Computer/aircraft/cf1_h_cfg.ks (inferred preloaded)
35.88,TAKEOFF,TO_CLIMB,138.68,80,-58.68,131.69,18.7,7.48,-0.03,90.41,-0.021,0.78,0,0,0,0,0,0,0,0,0,90.4,8,0,1,7.68,0,0,8,90.4,-0.919,-0.0068,-0.3943,8,90.4,0,0,0,0,0,0,3,0,0,0,69,0,0,0,90.4,1,0,0.005,0,0,3,0,0,0,10,3.657,0,0,1,1,0,0,VALID,0,0,0,0,0,1,0,0,0,0,0,0,0,0,0,0,0,0,0,0,330.65,427.34,2,0,0.08,0.08,521,14.29,0.08,0.06,35.78,FLYING,CF1-H,0:/Integrated Flight Computer/aircraft/cf1_h_cfg.ks (inferred preloaded)
36.16,TAKEOFF,TO_CLIMB,139.74,80,-59.74,137.03,18.95,7.46,-0.09,90.41,-0.021,0.78,0,0,0,0,0,0,0,0,0,90.4,8,0,1,7.72,0,0,8,90.4,-0.9189,-0.0068,-0.3943,8,90.4,0,0,0,0,0,0,3,0,0,0,69,0,0,0,90.4,1,0,0.005,0,0,3,0,0,0,10,3.657,0,0,1,1,0,0,VALID,0,0,0,0,0,1,0,0,0,0,0,0,0,0,0,0,0,0,0,0,329.97,426.4,2,0,0.08,0.08,525,14.29,0.08,0.06,36.06,FLYING,CF1-H,0:/Integrated Flight Computer/aircraft/cf1_h_cfg.ks (inferred preloaded)
36.44,TAKEOFF,TO_CLIMB,140.78,80,-60.78,142.43,19.18,7.43,-0.15,90.41,-0.021,0.78,0,0,0,0,0,0,0,0,0,90.4,8,0,1,7.76,0,0,8,90.4,-0.9189,-0.0068,-0.3944,8,90.4,0,0,0,0,0,0,3,0,0,0,69,0,0,0,90.4,1,0,0.005,0,0,3,0,0,0,10,3.657,0,0,1,1,0,0,VALID,0,0,0,0,0,1,0,0,0,0,0,0,0,0,0,0,0,0,0,0,329.29,425.47,2,0,0.08,0.08,529,14.29,0.08,0.06,36.34,FLYING,CF1-H,0:/Integrated Flight Computer/aircraft/cf1_h_cfg.ks (inferred preloaded)
36.72,TAKEOFF,TO_CLIMB,141.82,80,-61.82,147.9,19.4,7.41,-0.2,90.41,-0.02,0.78,0,0,0,0,0,0,0,0,0,90.4,8,0,1,7.79,0,0,8,90.4,-0.9189,-0.0068,-0.3944,8,90.4,0,0,0,0,0,0,3,0,0,0,69,0,0,0,90.4,1,0,0.006,0,0,3,0,0,0,10,3.657,0,0,1,1,0,0,VALID,0,0,0,0,0,1,0,0,0,0,0,0,0,0,0,0,0,0,0,0,328.62,424.54,2,0,0.08,0.08,533,14.29,0.08,0.06,36.62,FLYING,CF1-H,0:/Integrated Flight Computer/aircraft/cf1_h_cfg.ks (inferred preloaded)
37,TAKEOFF,TO_CLIMB,142.86,80,-62.86,153.41,19.62,7.39,-0.25,90.41,-0.019,0.78,0,0,0,0,0,0,0,0,0,90.4,8,0,1,7.82,0,0,8,90.4,-0.9189,-0.0068,-0.3945,8,90.4,0,0,0,0,0,0,3,0,0,0,69,0,0,0,90.4,1,0,0.006,0,0,3,0,0,0,10,3.657,0,0,1,1,0,0,VALID,0,0,0,0,0,1,0,0,0,0,0,0,0,0,0,0,0,0,0,0,327.95,423.62,2,0,0.08,0.08,537,14.29,0.08,0.06,36.9,FLYING,CF1-H,0:/Integrated Flight Computer/aircraft/cf1_h_cfg.ks (inferred preloaded)
37.28,TAKEOFF,TO_CLIMB,143.88,80,-63.88,159,19.83,7.37,-0.3,90.41,-0.018,0.78,0,0,0,0,0,0,0,0,0,90.4,8,0,1,7.85,0,0,8,90.4,-0.9188,-0.0068,-0.3946,8,90.4,0,0,0,0,0,0,3,0,0,0,69,0,0,0,90.4,1,0,0.006,0,0,3,0,0,0,10,3.657,0,0,1,1,0,0,VALID,0,0,0,0,0,1,0,0,0,0,0,0,0,0,0,0,0,0,0,0,327.28,422.71,2,0,0.08,0.08,541,14.29,0.08,0.06,37.18,FLYING,CF1-H,0:/Integrated Flight Computer/aircraft/cf1_h_cfg.ks (inferred preloaded)
37.56,TAKEOFF,TO_CLIMB,144.91,80,-64.91,164.63,20.03,7.35,-0.35,90.41,-0.018,0.78,0,0,0,0,0,0,0,0,0,90.4,8,0,1,7.87,0,0,8,90.4,-0.9188,-0.0068,-0.3946,8,90.4,0,0,0,0,0,0,3,0,0,0,69,0,0,0,90.4,1,0,0.006,0,0,3,0,0,0,10,3.657,0,0,1,1,0,0,VALID,0,0,0,0,0,1,0,0,0,0,0,0,0,0,0,0,0,0,0,0,326.62,421.8,2,0,0.08,0.08,545,14.29,0.08,0.06,37.46,FLYING,CF1-H,0:/Integrated Flight Computer/aircraft/cf1_h_cfg.ks (inferred preloaded)
37.84,TAKEOFF,TO_CLIMB,145.92,80,-65.92,170.32,20.23,7.32,-0.4,90.41,-0.017,0.78,0,0,0,0,0,0,0,0,0,90.4,8,0,1,7.89,0,0,8,90.4,-0.9188,-0.0068,-0.3947,8,90.4,0,0,0,0,0,0,3,0,0,0,69,0,0,0,90.4,1,0,0.006,0,0,3,0,0,0,10,3.657,0,0,1,1,0,0,VALID,0,0,0,0,0,1,0,0,0,0,0,0,0,0,0,0,0,0,0,0,325.96,420.9,2,0,0.08,0.08,549,14.29,0.08,0.06,37.74,FLYING,CF1-H,0:/Integrated Flight Computer/aircraft/cf1_h_cfg.ks (inferred preloaded)
38.12,TAKEOFF,TO_CLIMB,146.93,80,-66.93,176.06,20.42,7.3,-0.44,90.41,-0.016,0.78,0,0,0,0,0,0,0,0,0,90.4,8,0,1,7.91,0,0,8,90.4,-0.9188,-0.0068,-0.3948,8,90.4,0,0,0,0,0,0,3,0,0,0,69,0,0,0,90.4,1,0,0.006,0,0,3,0,0,0,10,3.657,0,0,1,1,0,0,VALID,0,0,0,0,0,1,0,0,0,0,0,0,0,0,0,0,0,0,0,0,325.31,420.01,2,0,0.08,0.08,553,14.29,0.08,0.06,38.02,FLYING,CF1-H,0:/Integrated Flight Computer/aircraft/cf1_h_cfg.ks (inferred preloaded)
38.4,TAKEOFF,TO_CLIMB,147.93,80,-67.93,181.85,20.61,7.28,-0.48,90.41,-0.015,0.78,0,0,0,0,0,0,0,0,0,90.4,8,0,1,7.93,0,0,8,90.4,-0.9187,-0.0068,-0.3948,8,90.4,0,0,0,0,0,0,3,0,0,0,69,0,0,0,90.4,1,0,0.006,0,0,3,0,0,0,10,3.657,0,0,1,1,0,0,VALID,0,0,0,0,0,1,0,0,0,0,0,0,0,0,0,0,0,0,0,0,324.67,419.13,2,0,0.08,0.08,557,14.29,0.08,0.06,38.3,FLYING,CF1-H,0:/Integrated Flight Computer/aircraft/cf1_h_cfg.ks (inferred preloaded)
38.68,TAKEOFF,TO_CLIMB,148.93,80,-68.93,187.7,20.8,7.26,-0.52,90.41,-0.014,0.78,0,0,0,0,0,0,0,0,0,90.4,8,0,1,7.95,0,0,8,90.4,-0.9187,-0.0068,-0.3949,8,90.4,0,0,0,0,0,0,3,0,0,0,69,0,0,0,90.4,1,0,0.006,0,0,3,0,0,0,10,3.657,0,0,1,1,0,0,VALID,0,0,0,0,0,1,0,0,0,0,0,0,0,0,0,0,0,0,0,0,324.03,418.25,2,0,0.08,0.08,561,14.29,0.08,0.06,38.58,FLYING,CF1-H,0:/Integrated Flight Computer/aircraft/cf1_h_cfg.ks (inferred preloaded)
38.96,TAKEOFF,TO_CLIMB,149.92,80,-69.92,193.6,20.98,7.24,-0.56,90.41,-0.014,0.78,0,0,0,0,0,0,0,0,0,90.4,8,0,1,7.97,0,0,8,90.4,-0.9187,-0.0068,-0.395,8,90.4,0,0,0,0,0,0,3,0,0,0,69,0,0,0,90.4,1,0,0.006,0,0,3,0,0,0,10,3.657,0,0,1,1,0,0,VALID,0,0,0,0,0,1,0,0,0,0,0,0,0,0,0,0,0,0,0,0,323.39,417.38,2,0,0.08,0.08,565,14.29,0.08,0.06,38.86,FLYING,CF1-H,0:/Integrated Flight Computer/aircraft/cf1_h_cfg.ks (inferred preloaded)
39.24,TAKEOFF,TO_CLIMB,150.91,80,-70.91,199.52,21.16,7.21,-0.6,90.41,-0.013,0.78,0,0,0,0,0,0,0,0,0,90.4,8,0,1,7.98,0,0,8,90.4,-0.9186,-0.0068,-0.395,8,90.4,0,0,0,0,0,0,3,0,0,0,69,0,0,0,90.4,1,0,0.006,0,0,3,0,0,0,10,3.657,0,0,1,1,0,0,VALID,0,0,0,0,0,1,0,0,0,0,0,0,0,0,0,0,0,0,0,0,322.76,416.52,2,0,0.08,0.08,569,14.29,0.08,0.06,39.14,FLYING,CF1-H,0:/Integrated Flight Computer/aircraft/cf1_h_cfg.ks (inferred preloaded)
