t_s,phase,subphase,ias_ms,vapp_ms,spd_err_ms,agl_m,gear_h_m,vs_ms,pitch_deg,aoa_deg,hdg_deg,bank_deg,thr_cmd,thr_cur,thr_intg,at_gain,at_tau_s,at_a_up,at_a_dn,at_kp_thr,at_ki_spd,at_thr_slew,as_cmd_deg,as_cap_deg,as_raw_deg,as_spd_err_ms,as_active,aa_hdg_cmd_deg,aa_fpa_cmd_deg,aa_fbw,aa_dir,actual_fpa_deg,ftf_hdg_err_deg,ftf_fix_idx,kos_steer_pit_deg,kos_steer_hdg_deg,aa_dir_vx,aa_dir_vy,aa_dir_vz,aa_dir_pitch_deg,aa_dir_hdg_deg,ils_loc_m,ils_gs_m,ils_dist_km,loc_corr_deg,gs_corr_deg,gs_latched,active_gs_ang_deg,ils_intercept_alt_m,d_gs_ms,fpa_preclamped_deg,gs_nom_alt_m,flare_fpa_cmd,flare_tgt_vs,flare_frac,steer_hdg_deg,steer_blend,ro_loc_corr_deg,ro_hdg_err_deg,ro_yaw_tgt,ro_yaw_scale,ro_yaw_gate,yaw_cmd,roll_cmd,pitch_cmd,ro_pitch_tgt_deg,ro_pitch_err_deg,ro_pitch_ff,ro_roll_assist,flaps_cur,flaps_tgt,asc_j_ab,asc_j_rk,asc_validity,asc_q_pa,asc_q_raw_pa,asc_mach,asc_apo_m,asc_drag_n,asc_w_prop,asc_edot_aero,asc_edot_orb,asc_pitch_bias,asc_blend,asc_spooling,asc_ab_thr_ratio,asc_ab_t_now,asc_ab_t_avail,asc_ab_ign_on,asc_ab_flameouts,asc_rk_t_now,asc_rk_t_avail,asc_rk_ign_on,asc_rk_flameouts,ship_thrust,ship_avail_thrust,ship_ign_on,ship_flameouts,ifc_raw_dt_s,ifc_dt_s,ifc_loop_n,ifc_hz_est,ifc_raw_dt_max_s,ifc_raw_dt_min_s,phase_el_s,status,craft_name,cfg_file
0.16,APPROACH,ILS_TRACK,156.7,152,-4.7,1344.95,1264.29,-14.69,11.99,17.56,268.47,-16.826,0,0,0,0,0,0,0,0,0,0,0,0,0,0,0,0,0,1,0,-5.38,0,0,0,90,0,0,0,0,0,-109.34,-269.71,29.392,0,0,0,3,1344.95,0,0,1614.66,0,0,0,268.48,0,0,0,0,0,0,0,0,0,0,0,0,0,0,0,0,0,VALID,0,0,0,0,0,1,0,0,0,0,0,0,0,0,0,0,0,0,0,0,325.04,1052.3,2,0,0.14,0.14,1,3.7,0.14,0.02,0.16,FLYING,X10-F,0:/Integrated Flight Computer/aircraft/x10_f_cfg.ks (inferred preloaded)
0.42,APPROACH,ILS_TRACK,156.63,152,-4.63,1341.15,1260.65,-13.88,11.78,17.01,268.42,-15.765,0,0,0,1,0.6,1.421,0.75,0.35,0.0168,0.4,3.496,20.583,3.496,4.643,1,272.02,0,0,1,-5.11,0,0,0,295,-0.0244,0.0353,0.9991,0,272.02,-107.31,-270.96,29.355,2.021,0,0,3,1344.95,-5.647,0,1612.69,0,0,0,268.48,0,0,0,0,0,0,0,0,0,0,0,0,0,1,3,0,0,VALID,0,0,0,0,0,1,0,0,0,0,0,0,0,0,0,0,0,0,0,0,296.66,1052.22,2,0,0.12,0.12,3,7.69,0.14,0.12,0.42,FLYING,X10-F,0:/Integrated Flight Computer/aircraft/x10_f_cfg.ks (inferred preloaded)
0.74,APPROACH,ILS_TRACK,156.5,152,-4.5,1336.53,1256.52,-13.28,10.77,15.72,268.34,-13.664,0,0,0,1,0.6,3.153,0.75,0.35,0.0168,0.4,3.345,20.623,3.345,4.501,1,272.19,0,0,1,-4.87,0,0,0,272.14,-0.0243,0.0381,0.999,0,272.19,-104.62,-272.74,29.3,2.186,0,0,3,1344.95,-5.412,0,1609.84,0,0,0,268.48,0,0,0,0,0,0,0,0,0,0,0,0,0,1,3,0,0,VALID,0,0,0,0,0,1,0,0,0,0,0,0,0,0,0,0,0,0,0,0,265.03,1051.88,2,0,0.08,0.08,6,9.38,0.14,0.08,0.74,FLYING,X10-F,0:/Integrated Flight Computer/aircraft/x10_f_cfg.ks (inferred preloaded)
1.1,APPROACH,ILS_TRACK,156.42,152,-4.42,1331.59,1252.27,-13.07,9.94,14.63,268.73,-7.871,0,0,0,1,0.6,4.5,0.75,0.35,0.0168,0.4,3.262,20.644,3.262,4.423,1,272.34,0,0,1,-4.78,0,0,0,272.3,-0.0242,0.0409,0.9989,0,272.34,-102,-274.5,29.239,2.344,0,0,3,1344.95,-4.613,0,1606.62,0,0,0,268.48,0,0,0,0,0,0,0,0,0,0,0,0,0,2,3,0,0,VALID,0,0,0,0,0,1,0,0,0,0,0,0,0,0,0,0,0,0,0,0,233.54,1051.83,2,0,0.12,0.12,9,8.33,0.12,0.08,1.1,FLYING,X10-F,0:/Integrated Flight Computer/aircraft/x10_f_cfg.ks (inferred preloaded)
1.46,APPROACH,ILS_TRACK,156.35,152,-4.35,1326.97,1247.97,-12.89,10.1,14.56,269.57,-3.243,0,0,0,1,0.6,4.5,0.75,0.35,0.0168,0.4,3.19,20.663,3.19,4.356,1,272.41,0,0,1,-4.73,0,0,0,272.41,-0.0241,0.0421,0.9988,0,272.41,-99.67,-275.94,29.177,2.414,0,0,3,1344.95,-3.727,0,1603.41,0,0,0,268.48,0,0,0,0,0,0,0,0,0,0,0,0,0,3,3,0,0,VALID,0,0,0,0,0,1,0,0,0,0,0,0,0,0,0,0,0,0,0,0,205.8,1051.82,2,0,0.12,0.12,12,8.33,0.12,0.12,1.46,FLYING,X10-F,0:/Integrated Flight Computer/aircraft/x10_f_cfg.ks (inferred preloaded)
1.76,APPROACH,ILS_TRACK,156.2,152,-4.2,1323.22,1244.34,-12.49,10.33,14.55,270.3,-1.15,0,0,0,1,0.6,4.5,0.75,0.35,0.0168,0.4,3.036,20.704,3.036,4.213,1,272.39,0,0,1,-4.58,0,0,0,272.4,-0.024,0.0417,0.9988,0,272.39,-97.83,-277.02,29.126,2.392,0,0,3,1344.95,-3.557,0,1600.73,0,0,0,268.48,0,0,0,0,0,0,0,0,0,0,0,0,0,3,3,0,0,VALID,0,0,0,0,0,1,0,0,0,0,0,0,0,0,0,0,0,0,0,0,185.15,1051.41,2,0,0.08,0.08,15,10,0.12,0.08,1.76,FLYING,X10-F,0:/Integrated Flight Computer/aircraft/x10_f_cfg.ks (inferred preloaded)
2.12,APPROACH,ILS_TRACK,155.92,152,-3.92,1318.9,1239.96,-12.25,10.69,14.86,271.04,-0.365,0,0,0,1,0.6,4.5,0.75,0.35,0.0168,0.4,2.744,20.78,2.744,3.943,1,272.33,0,0,1,-4.5,0,0,0,272.34,-0.0239,0.0407,0.9989,0,272.33,-95.66,-278.16,29.065,2.33,0,0,3,1344.95,-2.915,0,1597.53,0,0,0,268.48,0,0,0,0,0,0,0,0,0,0,0,0,0,3,3,0,0,VALID,0,0,0,0,0,1,0,0,0,0,0,0,0,0,0,0,0,0,0,0,163.02,1050.49,2,0,0.12,0.12,18,8.33,0.12,0.08,2.12,FLYING,X10-F,0:/Integrated Flight Computer/aircraft/x10_f_cfg.ks (inferred preloaded)
2.48,APPROACH,ILS_TRACK,155.47,152,-3.47,1314.95,1235.64,-11.9,11.99,16.1,271.69,0.111,0.0505,0,-0.861,1,0.6,4.5,0.75,0.35,0.0168,0.4,2.258,20.905,2.258,3.498,1,272.25,0,0,1,-4.39,0,0,0,272.28,-0.0238,0.0393,0.9989,0,272.25,-93.51,-278.96,29.004,2.254,0,0,3,1344.95,-1.836,0,1594.33,0,0,0,268.48,0,0,0,0,0,0,0,0,0,0,0,0,0,3,3,0,0,VALID,0,0,0,0,0,1,0,0,0,0,0,0,0,0,0,0,0,0,0,0,143.53,1048.79,2,0,0.12,0.12,21,8.33,0.12,0.12,2.48,FLYING,X10-F,0:/Integrated Flight Computer/aircraft/x10_f_cfg.ks (inferred preloaded)
2.78,APPROACH,ILS_TRACK,154.85,152,-2.85,1311.97,1232.16,-11.24,13.7,17.65,272.01,0.274,0.1705,0,-1.795,1,0.6,4.5,0.75,0.35,0.0168,0.4,0,21.074,0,2.9,0,272.14,0,0,1,-4.21,0,0,0,272.17,-0.0237,0.0373,0.999,0,272.14,-91.69,-279.32,28.953,2.139,0,0,3,1344.95,-0.919,0,1591.68,0,0,0,268.48,0,0,0,0,0,0,0,0,0,0,0,0,0,3,3,0,0,VALID,0,0,0,0,0,1,0,0,0,0,0,0,0,0,0,0,0,0,0,0,137.4,1046.37,2,0,0.08,0.08,24,10,0.12,0.08,2.78,FLYING,X10-F,0:/Integrated Flight Computer/aircraft/x10_f_cfg.ks (inferred preloaded)
3.1,APPROACH,ILS_TRACK,153.84,152,-1.84,1308.87,1228.83,-9.73,14.8,18.14,272.15,0.284,0.2985,0,-2.525,1,0.6,4.5,0.75,0.35,0.0168,0.4,0,21.351,0,1.917,0,272.07,0,0,1,-3.68,0,0,0,272.09,-0.0236,0.0361,0.9991,0,272.07,-89.75,-279.6,28.9,2.067,0,0,3,1344.95,-0.965,0,1588.86,0,0,0,268.48,0,0,0,0,0,0,0,0,0,0,0,0,0,3,3,0,0,VALID,0,0,0,0,0,1,0,0,0,0,0,0,0,0,0,0,0,0,0,0,141.72,1042.22,2,0,0.1,0.1,27,9.38,0.12,0.08,3.1,FLYING,X10-F,0:/Integrated Flight Computer/aircraft/x10_f_cfg.ks (inferred preloaded)
3.44,APPROACH,ILS_TRACK,152.77,152,-0.77,1305.65,1225.74,-8.55,14.42,17.33,272.17,0.214,0.4345,0,-2.919,1,0.6,4.5,0.75,0.35,0.0168,0.4,0,21.658,0,0.826,0,271.98,0,0,1,-3.25,0,0,0,272,-0.0235,0.0346,0.9991,0,271.98,-87.66,-279.87,28.843,1.981,0,0,3,1344.95,-0.552,0,1585.89,0,0,0,268.48,0,0,0,0,0,0,0,0,0,0,0,0,0,3,3,0,0,VALID,0,0,0,0,0,1,0,0,0,0,0,0,0,0,0,0,0,0,0,0,154.82,1037.79,2,0,0.1,0.1,30,8.82,0.12,0.1,3.44,FLYING,X10-F,0:/Integrated Flight Computer/aircraft/x10_f_cfg.ks (inferred preloaded)
3.78,APPROACH,ILS_TRACK,151.94,152,0.06,1302.68,1223,-7.79,13.65,16.31,272.13,0.044,0.5705,0,-3.003,1,0.6,4.5,0.75,0.35,0.0168,0.4,0,21.895,0,-0.014,0,271.89,0,0,1,-2.96,0,0,0,271.92,-0.0234,0.033,0.9992,0,271.89,-85.58,-279.91,28.787,1.89,0,0,3,1344.95,0.143,0,1582.93,0,0,0,268.48,0,0,0,0,0,0,0,0,0,0,0,0,0,3,3,0,0,VALID,0,0,0,0,0,1,0,0,0,0,0,0,0,0,0,0,0,0,0,0,176.37,1034.41,2,0,0.12,0.12,33,8.82,0.12,0.1,3.78,FLYING,X10-F,0:/Integrated Flight Computer/aircraft/x10_f_cfg.ks (inferred preloaded)
4.12,APPROACH,ILS_TRACK,151.31,152,0.69,1300,1220.41,-7.4,13.21,15.77,272.08,-0.142,0.7065,0,-2.848,1,0.6,4.5,0.75,0.35,0.0168,0.4,0,22.077,0,-0.661,0,271.81,0,0,1,-2.81,0,0,0,271.83,-0.0234,0.0316,0.9992,0,271.81,-83.5,-279.68,28.73,1.811,0,0,3,1344.95,0.955,0,1579.98,0,0,0,268.48,0,0,0,0,0,0,0,0,0,0,0,0,0,3,3,0,0,VALID,0,0,0,0,0,1,0,0,0,0,0,0,0,0,0,0,0,0,0,0,205.66,1031.83,2,0,0.1,0.1,36,8.82,0.12,0.1,4.12,FLYING,X10-F,0:/Integrated Flight Computer/aircraft/x10_f_cfg.ks (inferred preloaded)
4.4,APPROACH,ILS_TRACK,150.87,152,1.13,1297.99,1218.36,-7.15,13.25,15.75,272.04,-0.309,0.6966,0,-2.58,1,0.6,4.5,0.75,0.35,0.0168,0.4,0,22.2,0,-1.097,0,271.76,0,0,1,-2.72,0,0,0,271.78,-0.0233,0.0307,0.9993,0,271.76,-81.8,-279.3,28.684,1.762,0,0,3,1344.95,1.59,0,1577.56,0,0,0,268.48,0,0,0,0,0,0,0,0,0,0,0,0,0,3,3,0,0,VALID,0,0,0,0,0,1,0,0,0,0,0,0,0,0,0,0,0,0,0,0,234.71,1030.13,2,0,0.08,0.08,39,10.71,0.1,0.08,4.4,FLYING,X10-F,0:/Integrated Flight Computer/aircraft/x10_f_cfg.ks (inferred preloaded)
4.7,APPROACH,ILS_TRACK,150.47,152,1.53,1296.02,1216.27,-6.66,13.62,15.97,271.98,-0.495,0.6406,0,-2.168,1,0.6,4.5,0.75,0.35,0.0168,0.4,0,22.315,0,-1.506,0,271.7,0,0,1,-2.58,0,0,0,271.71,-0.0232,0.0297,0.9993,0,271.7,-79.99,-278.71,28.635,1.7,0,0,3,1344.95,2.108,0,1574.98,0,0,0,268.48,0,0,0,0,0,0,0,0,0,0,0,0,0,3,3,0,0,VALID,0,0,0,0,0,1,0,0,0,0,0,0,0,0,0,0,0,0,0,0,261.68,1028.53,2,0,0.08,0.08,42,10,0.12,0.08,4.7,FLYING,X10-F,0:/Integrated Flight Computer/aircraft/x10_f_cfg.ks (inferred preloaded)
5,APPROACH,ILS_TRACK,150.03,152,1.97,1294.08,1214.41,-5.74,13.41,15.38,271.92,-0.694,0.6496,0,-1.63,1,0.6,4.5,0.75,0.35,0.0168,0.4,0,22.437,0,-1.939,0,271.63,0,0,1,-2.22,0,0,0,271.65,-0.0231,0.0284,0.9993,0,271.63,-78.18,-278.07,28.586,1.627,0,0,3,1344.95,2.118,0,1572.4,0,0,0,268.48,0,0,0,0,0,0,0,0,0,0,0,0,0,3,3,0,0,VALID,0,0,0,0,0,1,0,0,0,0,0,0,0,0,0,0,0,0,0,0,284.43,1026.8,2,0,0.08,0.08,45,10,0.12,0.08,5,FLYING,X10-F,0:/Integrated Flight Computer/aircraft/x10_f_cfg.ks (inferred preloaded)
5.32,APPROACH,ILS_TRACK,149.7,152,2.3,1292.02,1212.68,-4.98,12.21,13.86,271.86,-0.903,0.6001,0,-0.933,1,0.6,4.5,0.75,0.35,0.0168,0.4,0,22.534,0,-2.282,0,271.56,0,0,1,-1.92,0,0,0,271.59,-0.023,0.0273,0.9994,0,271.56,-76.28,-277.38,28.533,1.564,0,0,3,1344.95,2.071,0,1569.66,0,0,0,268.48,0,0,0,0,0,0,0,0,0,0,0,0,0,3,3,0,0,VALID,0,0,0,0,0,1,0,0,0,0,0,0,0,0,0,0,0,0,0,0,307.09,1025.49,2,0,0.1,0.1,48,9.38,0.12,0.08,5.32,FLYING,X10-F,0:/Integrated Flight Computer/aircraft/x10_f_cfg.ks (inferred preloaded)
5.66,APPROACH,ILS_TRACK,149.67,152,2.33,1289.95,1210.98,-4.97,10.74,12.41,271.82,-1.086,0.4641,0,-0.137,1,0.6,4.5,0.75,0.35,0.0168,0.4,0,22.55,0,-2.337,0,271.5,0,0,1,-1.89,0,0,0,271.52,-0.0229,0.0263,0.9994,0,271.5,-74.28,-276.57,28.478,1.505,0,0,3,1344.95,2.631,0,1566.75,0,0,0,268.48,0,0,0,0,0,0,0,0,0,0,0,0,0,3,3,0,0,VALID,0,0,0,0,0,1,0,0,0,0,0,0,0,0,0,0,0,0,0,0,324.71,1025.43,2,0,0.1,0.1,51,8.82,0.12,0.1,5.66,FLYING,X10-F,0:/Integrated Flight Computer/aircraft/x10_f_cfg.ks (inferred preloaded)
6,APPROACH,ILS_TRACK,149.78,152,2.22,1288.12,1209.23,-5.22,10.29,12.12,271.77,-1.251,0.3281,0,0.634,1,0.6,4.5,0.75,0.35,0.0168,0.4,0,22.519,0,-2.228,0,271.44,0,0,1,-1.99,0,0,0,271.46,-0.0228,0.0251,0.9994,0,271.44,-72.3,-275.51,28.422,1.44,0,0,3,1344.95,3.365,0,1563.83,0,0,0,268.48,0,0,0,0,0,0,0,0,0,0,0,0,0,3,3,0,0,VALID,0,0,0,0,0,1,0,0,0,0,0,0,0,0,0,0,0,0,0,0,332.26,1026.01,2,0,0.12,0.12,54,8.82,0.12,0.1,6,FLYING,X10-F,0:/Integrated Flight Computer/aircraft/x10_f_cfg.ks (inferred preloaded)
6.36,APPROACH,ILS_TRACK,149.88,152,2.12,1286.45,1207.3,-5.4,11.05,13.01,271.68,-1.416,0.1841,0,1.409,1,0.6,4.5,0.75,0.35,0.0168,0.4,0,22.49,0,-2.125,0,271.38,0,0,1,-2.07,0,0,0,271.4,-0.0228,0.024,0.9995,0,271.38,-70.22,-274.12,28.363,1.378,0,0,3,1344.95,4.1,0,1560.75,0,0,0,268.48,0,0,0,0,0,0,0,0,0,0,0,0,0,3,3,0,0,VALID,0,0,0,0,0,1,0,0,0,0,0,0,0,0,0,0,0,0,0,0,327.69,1026.56,2,0,0.12,0.12,57,8.33,0.12,0.12,6.36,FLYING,X10-F,0:/Integrated Flight Computer/aircraft/x10_f_cfg.ks (inferred preloaded)
6.72,APPROACH,ILS_TRACK,149.77,152,2.23,1284.88,1205.49,-4.63,11.95,13.6,271.59,-1.573,0.2374,0,2.188,1,0.6,4.5,0.75,0.35,0.0168,0.4,0,22.515,0,-2.216,0,271.32,0,0,1,-1.8,0,0,0,271.34,-0.0227,0.0231,0.9995,0,271.32,-68.18,-272.61,28.304,1.323,0,0,3,1344.95,4.119,0,1557.66,0,0,0,268.48,0,0,0,0,0,0,0,0,0,0,0,0,0,3,3,0,0,VALID,0,0,0,0,0,1,0,0,0,0,0,0,0,0,0,0,0,0,0,0,311.07,1026.24,2,0,0.12,0.12,60,8.33,0.12,0.12,6.72,FLYING,X10-F,0:/Integrated Flight Computer/aircraft/x10_f_cfg.ks (inferred preloaded)
7.08,APPROACH,ILS_TRACK,149.54,152,2.46,1283.27,1203.95,-3.93,11.74,13.1,271.53,-1.705,0.356,0,3.041,1,0.6,4.5,0.75,0.35,0.0168,0.4,0,22.581,0,-2.447,0,271.27,0,0,1,-1.53,0,0,0,271.28,-0.0226,0.0221,0.9995,0,271.27,-66.18,-271.13,28.246,1.269,0,0,3,1344.95,4.101,0,1554.58,0,0,0,268.48,0,0,0,0,0,0,0,0,0,0,0,0,0,3,3,0,0,VALID,0,0,0,0,0,1,0,0,0,0,0,0,0,0,0,0,0,0,0,0,306.89,1025.36,2,0,0.12,0.12,63,8.33,0.12,0.12,7.08,FLYING,X10-F,0:/Integrated Flight Computer/aircraft/x10_f_cfg.ks (inferred preloaded)
7.44,APPROACH,ILS_TRACK,149.38,152,2.62,1281.73,1202.61,-3.6,11.01,12.24,271.49,-1.803,0.3938,0,3.964,1,0.6,4.5,0.75,0.35,0.0168,0.4,0,22.627,0,-2.613,0,271.23,0,0,1,-1.39,0,0,0,271.24,-0.0225,0.0214,0.9995,0,271.23,-64.23,-269.61,28.187,1.227,0,0,3,1344.95,4.367,0,1551.5,0,0,0,268.48,0,0,0,0,0,0,0,0,0,0,0,0,0,3,3,0,0,VALID,0,0,0,0,0,1,0,0,0,0,0,0,0,0,0,0,0,0,0,0,311.86,1024.76,2,0,0.12,0.12,66,8.33,0.12,0.12,7.44,FLYING,X10-F,0:/Integrated Flight Computer/aircraft/x10_f_cfg.ks (inferred preloaded)
7.8,APPROACH,ILS_TRACK,149.3,152,2.7,1280.38,1201.31,-3.59,10.7,11.97,271.44,-1.899,0.3837,0,4.926,1,0.6,4.5,0.75,0.35,0.0168,0.4,0,22.651,0,-2.695,0,271.18,0,0,1,-1.37,0,0,0,271.19,-0.0224,0.0206,0.9995,0,271.18,-62.33,-267.91,28.128,1.18,0,0,3,1344.95,4.928,0,1548.42,0,0,0,268.48,0,0,0,0,0,0,0,0,0,0,0,0,0,3,3,0,0,VALID,0,0,0,0,0,1,0,0,0,0,0,0,0,0,0,0,0,0,0,0,317.95,1024.5,2,0,0.12,0.12,69,8.33,0.12,0.12,7.8,FLYING,X10-F,0:/Integrated Flight Computer/aircraft/x10_f_cfg.ks (inferred preloaded)
8.16,APPROACH,ILS_TRACK,149.22,152,2.78,1279.22,1200,-3.65,11.15,12.48,271.37,-1.936,0.3907,0,5.915,1,0.6,4.5,0.75,0.35,0.0168,0.4,0,22.674,0,-2.777,0,271.14,0,0,1,-1.41,0,0,0,271.15,-0.0223,0.0198,0.9996,0,271.14,-60.46,-266.01,28.069,1.137,0,0,3,1344.95,5.41,0,1545.35,0,0,0,268.48,0,0,0,0,0,0,0,0,0,0,0,0,0,3,3,0,0,VALID,0,0,0,0,0,1,0,0,0,0,0,0,0,0,0,0,0,0,0,0,323.11,1024.23,2,0,0.12,0.12,72,8.33,0.12,0.12,8.16,FLYING,X10-F,0:/Integrated Flight Computer/aircraft/x10_f_cfg.ks (inferred preloaded)
8.52,APPROACH,ILS_TRACK,149.09,152,2.91,1278.15,1198.74,-3.29,11.87,13.08,271.3,-1.967,0.432,0,6.944,1,0.6,4.5,0.75,0.35,0.0168,0.4,0,22.71,0,-2.906,0,271.09,0,0,1,-1.29,0,0,0,271.11,-0.0222,0.019,0.9996,0,271.09,-58.64,-264.01,28.011,1.089,0,0,3,1344.95,5.601,0,1542.28,0,0,0,268.48,0,0,0,0,0,0,0,0,0,0,0,0,0,3,3,0,0,VALID,0,0,0,0,0,1,0,0,0,0,0,0,0,0,0,0,0,0,0,0,329.04,1023.77,2,0,0.12,0.12,75,8.33,0.12,0.12,8.52,FLYING,X10-F,0:/Integrated Flight Computer/aircraft/x10_f_cfg.ks (inferred preloaded)
8.88,APPROACH,ILS_TRACK,148.86,152,3.14,1277.03,1197.73,-2.52,11.62,12.48,271.26,-1.984,0.5214,0,8.042,1,0.6,4.5,0.75,0.35,0.0168,0.4,0,22.774,0,-3.133,0,271.07,0,0,1,-0.98,0,0,0,271.07,-0.0221,0.0186,0.9996,0,271.07,-56.88,-262.06,27.952,1.066,0,0,3,1344.95,5.305,0,1539.21,0,0,0,268.48,0,0,0,0,0,0,0,0,0,0,0,0,0,3,3,0,0,VALID,0,0,0,0,0,1,0,0,0,0,0,0,0,0,0,0,0,0,0,0,338.36,1022.87,2,0,0.12,0.12,78,8.33,0.12,0.12,8.88,FLYING,X10-F,0:/Integrated Flight Computer/aircraft/x10_f_cfg.ks (inferred preloaded)
9.24,APPROACH,ILS_TRACK,148.81,152,3.19,1275.89,1196.89,-2.17,10.58,11.27,271.26,-1.976,0.4892,0,9.188,1,0.6,4.5,0.75,0.35,0.0168,0.4,0,22.791,0,-3.193,0,271.03,0,0,1,-0.83,0,0,0,271.04,-0.022,0.0179,0.9996,0,271.03,-55.16,-260.13,27.894,1.028,0,0,3,1344.95,5.308,0,1536.14,0,0,0,268.48,0,0,0,0,0,0,0,0,0,0,0,0,0,3,3,0,0,VALID,0,0,0,0,0,1,0,0,0,0,0,0,0,0,0,0,0,0,0,0,351.31,1022.7,2,0,0.12,0.12,81,8.33,0.12,0.12,9.24,FLYING,X10-F,0:/Integrated Flight Computer/aircraft/x10_f_cfg.ks (inferred preloaded)
9.6,APPROACH,ILS_TRACK,148.95,152,3.05,1274.87,1196.06,-2.48,9.78,10.64,271.24,-1.96,0.3792,0,10.309,1,0.6,4.5,0.75,0.35,0.0168,0.4,0,22.754,0,-3.062,0,270.99,0,0,1,-0.93,0,0,0,271,-0.0219,0.0173,0.9996,0,270.99,-53.5,-258.1,27.835,0.993,0,0,3,1344.95,5.819,0,1533.07,0,0,0,268.48,0,0,0,0,0,0,0,0,0,0,0,0,0,3,3,0,0,VALID,0,0,0,0,0,1,0,0,0,0,0,0,0,0,0,0,0,0,0,0,359.66,1023.33,2,0,0.12,0.12,84,8.33,0.12,0.12,9.6,FLYING,X10-F,0:/Integrated Flight Computer/aircraft/x10_f_cfg.ks (inferred preloaded)
9.96,APPROACH,ILS_TRACK,149.12,152,2.88,1274.05,1195.09,-2.87,10.19,11.26,271.19,-1.95,0.3082,0,11.37,1,0.6,4.5,0.75,0.35,0.0168,0.4,0,22.705,0,-2.89,0,270.96,0,0,1,-1.09,0,0,0,270.96,-0.0218,0.0167,0.9996,0,270.96,-51.87,-255.87,27.777,0.959,0,0,3,1344.95,6.401,0,1530,0,0,0,268.48,0,0,0,0,0,0,0,0,0,0,0,0,0,3,3,0,0,VALID,0,0,0,0,0,1,0,0,0,0,0,0,0,0,0,0,0,0,0,0,359.67,1024.12,2,0,0.12,0.12,87,8.33,0.12,0.12,9.96,FLYING,X10-F,0:/Integrated Flight Computer/aircraft/x10_f_cfg.ks (inferred preloaded)
10.32,APPROACH,ILS_TRACK,149.2,152,2.8,1273.33,1194.12,-2.45,11.16,12.07,271.11,-1.991,0.3205,0,12.385,1,0.6,4.5,0.75,0.35,0.0168,0.4,0,22.68,0,-2.8,0,270.91,0,0,1,-0.97,0,0,0,270.93,-0.0217,0.0159,0.9996,0,270.91,-50.27,-253.51,27.718,0.911,0,0,3,1344.95,6.505,0,1526.93,0,0,0,268.48,0,0,0,0,0,0,0,0,0,0,0,0,0,3,3,0,0,VALID,0,0,0,0,0,1,0,0,0,0,0,0,0,0,0,0,0,0,0,0,354.38,1024.55,2,0,0.12,0.12,90,8.33,0.12,0.12,10.32,FLYING,X10-F,0:/Integrated Flight Computer/aircraft/x10_f_cfg.ks (inferred preloaded)
10.68,APPROACH,ILS_TRACK,149.19,152,2.81,1272.53,1193.34,-1.98,11.17,11.86,271.06,-2.014,0.3832,0,13.395,1,0.6,4.5,0.75,0.35,0.0168,0.4,0,22.682,0,-2.808,0,270.9,0,0,1,-0.77,0,0,0,270.9,-0.0216,0.0156,0.9996,0,270.9,-48.73,-251.23,27.659,0.896,0,0,3,1344.95,6.271,0,1523.85,0,0,0,268.48,0,0,0,0,0,0,0,0,0,0,0,0,0,3,3,0,0,VALID,0,0,0,0,0,1,0,0,0,0,0,0,0,0,0,0,0,0,0,0,353.4,1024.56,2,0,0.12,0.12,93,8.33,0.12,0.12,10.68,FLYING,X10-F,0:/Integrated Flight Computer/aircraft/x10_f_cfg.ks (inferred preloaded)
11.04,APPROACH,ILS_TRACK,149.25,152,2.75,1271.75,1192.68,-1.78,10.72,11.34,271.04,-1.975,0.3907,0,14.396,1,0.6,4.5,0.75,0.35,0.0168,0.4,0,22.669,0,-2.76,0,270.86,0,0,1,-0.69,0,0,0,270.88,-0.0215,0.015,0.9997,0,270.86,-47.24,-248.95,27.601,0.861,0,0,3,1344.95,6.41,0,1520.78,0,0,0,268.48,0,0,0,0,0,0,0,0,0,0,0,0,0,3,3,0,0,VALID,0,0,0,0,0,1,0,0,0,0,0,0,0,0,0,0,0,0,0,0,356.55,1024.82,2,0,0.12,0.12,96,8.33,0.12,0.12,11.04,FLYING,X10-F,0:/Integrated Flight Computer/aircraft/x10_f_cfg.ks (inferred preloaded)
11.4,APPROACH,ILS_TRACK,149.36,152,2.64,1271.06,1192.06,-1.73,10.47,11.08,271.01,-1.935,0.3663,0,15.363,1,0.6,4.5,0.75,0.35,0.0168,0.4,0,22.637,0,-2.647,0,270.84,0,0,1,-0.66,0,0,0,270.85,-0.0214,0.0146,0.9997,0,270.84,-45.79,-246.57,27.542,0.837,0,0,3,1344.95,6.679,0,1517.7,0,0,0,268.48,0,0,0,0,0,0,0,0,0,0,0,0,0,3,3,0,0,VALID,0,0,0,0,0,1,0,0,0,0,0,0,0,0,0,0,0,0,0,0,359.29,1025.34,2,0,0.12,0.12,99,8.33,0.12,0.12,11.4,FLYING,X10-F,0:/Integrated Flight Computer/aircraft/x10_f_cfg.ks (inferred preloaded)
11.76,APPROACH,ILS_TRACK,149.49,152,2.51,1270.47,1191.45,-1.62,10.55,11.12,270.97,-1.901,0.3486,0,16.284,1,0.6,4.5,0.75,0.35,0.0168,0.4,0,22.6,0,-2.516,0,270.81,0,0,1,-0.62,0,0,0,270.82,-0.0213,0.0141,0.9997,0,270.81,-44.38,-244.09,27.483,0.808,0,0,3,1344.95,6.923,0,1514.62,0,0,0,268.48,0,0,0,0,0,0,0,0,0,0,0,0,0,3,3,0,0,VALID,0,0,0,0,0,1,0,0,0,0,0,0,0,0,0,0,0,0,0,0,360.11,1025.94,2,0,0.12,0.12,102,8.33,0.12,0.12,11.76,FLYING,X10-F,0:/Integrated Flight Computer/aircraft/x10_f_cfg.ks (inferred preloaded)
12.12,APPROACH,ILS_TRACK,149.61,152,2.39,1269.99,1190.87,-1.66,10.83,11.45,270.93,-1.848,0.3451,0,17.159,1,0.6,4.5,0.75,0.35,0.0168,0.4,0,22.565,0,-2.391,0,270.79,0,0,1,-0.63,0,0,0,270.78,-0.0212,0.0137,0.9997,0,270.79,-43.02,-241.51,27.424,0.785,0,0,3,1344.95,7.309,0,1511.54,0,0,0,268.48,0,0,0,0,0,0,0,0,0,0,0,0,0,3,3,0,0,VALID,0,0,0,0,0,1,0,0,0,0,0,0,0,0,0,0,0,0,0,0,359.71,1026.5,2,0,0.12,0.12,105,8.33,0.12,0.12,12.12,FLYING,X10-F,0:/Integrated Flight Computer/aircraft/x10_f_cfg.ks (inferred preloaded)
12.48,APPROACH,ILS_TRACK,149.67,152,2.33,1269.63,1190.3,-1.44,11.64,12.2,270.88,-1.797,0.3827,0,18.003,1,0.6,4.5,0.75,0.35,0.0168,0.4,0,22.548,0,-2.331,0,270.76,0,0,1,-0.58,0,0,0,270.77,-0.0211,0.0133,0.9997,0,270.76,-41.7,-238.79,27.366,0.764,0,0,3,1344.95,7.625,0,1508.46,0,0,0,268.48,0,0,0,0,0,0,0,0,0,0,0,0,0,3,3,0,0,VALID,0,0,0,0,0,1,0,0,0,0,0,0,0,0,0,0,0,0,0,0,359.88,1026.78,2,0,0.12,0.12,108,8.33,0.12,0.12,12.48,FLYING,X10-F,0:/Integrated Flight Computer/aircraft/x10_f_cfg.ks (inferred preloaded)
12.84,APPROACH,ILS_TRACK,149.6,152,2.4,1269.15,1189.93,-0.78,11.42,11.65,270.86,-1.754,0.4778,0,18.857,1,0.6,4.5,0.75,0.35,0.0168,0.4,0,22.568,0,-2.402,0,270.74,0,0,1,-0.31,0,0,0,270.75,-0.021,0.0129,0.9997,0,270.74,-40.42,-236.17,27.307,0.738,0,0,3,1344.95,7.096,0,1505.38,0,0,0,268.48,0,0,0,0,0,0,0,0,0,0,0,0,0,3,3,0,0,VALID,0,0,0,0,0,1,0,0,0,0,0,0,0,0,0,0,0,0,0,0,364.06,1026.5,2,0,0.12,0.12,111,8.33,0.12,0.12,12.84,FLYING,X10-F,0:/Integrated Flight Computer/aircraft/x10_f_cfg.ks (inferred preloaded)
13.18,APPROACH,ILS_TRACK,149.68,152,2.32,1268.73,1189.67,-0.83,10.82,11.09,270.85,-1.691,0.4493,0,19.642,1,0.6,4.5,0.75,0.35,0.0168,0.4,0,22.548,0,-2.33,0,270.73,0,0,1,-0.3,0,0,0,270.74,-0.0209,0.0127,0.9997,0,270.73,-39.29,-233.75,27.252,0.727,0,0,3,1344.95,7.439,0,1502.53,0,0,0,268.48,0,0,0,0,0,0,0,0,0,0,0,0,0,3,3,0,0,VALID,0,0,0,0,0,1,0,0,0,0,0,0,0,0,0,0,0,0,0,0,372.15,1026.85,2,0,0.112,0.112,114,8.74,0.12,0.101,13.18,FLYING,X10-F,0:/Integrated Flight Computer/aircraft/x10_f_cfg.ks (inferred preloaded)
13.44,APPROACH,ILS_TRACK,149.77,152,2.23,1268.53,1189.44,-0.94,10.85,11.21,270.84,-1.639,0.4181,0,20,1,0.6,4.5,0.75,0.35,0.0168,0.4,0,22.521,0,-2.236,0,270.7,0,0,1,-0.35,0,0,0,270.71,-0.0208,0.0122,0.9997,0,270.7,-38.41,-231.74,27.21,0.7,0,0,3,1344.95,7.82,0,1500.31,0,0,0,268.48,0,0,0,0,0,0,0,0,0,0,0,0,0,3,3,0,0,VALID,0,0,0,0,0,1,0,0,0,0,0,0,0,0,0,0,0,0,0,0,376.65,1027.28,2,0,0.131,0.131,116,7.64,0.131,0.112,13.44,FLYING,X10-F,0:/Integrated Flight Computer/aircraft/x10_f_cfg.ks (inferred preloaded)
13.72,APPROACH,ILS_TRACK,149.87,152,2.13,1268.35,1189.22,-0.61,11.1,11.32,270.81,-1.612,0.3933,0,20,1,0.6,4.5,0.75,0.35,0.0168,0.4,0,22.493,0,-2.138,0,270.69,0,0,1,-0.27,0,0,0,270.7,-0.0208,0.012,0.9997,0,270.69,-37.52,-229.58,27.166,0.686,0,0,3,1344.95,7.933,0,1497.98,0,0,0,268.48,0,0,0,0,0,0,0,0,0,0,0,0,0,3,3,0,0,VALID,0,0,0,0,0,1,0,0,0,0,0,0,0,0,0,0,0,0,0,0,379.37,1027.69,2,0,0.138,0.138,118,7.27,0.138,0.131,13.72,FLYING,X10-F,0:/Integrated Flight Computer/aircraft/x10_f_cfg.ks (inferred preloaded)
14.01,APPROACH,ILS_TRACK,149.96,152,2.04,1268.1,1189.08,-0.47,10.76,10.89,270.8,-1.559,0.3843,0,20,1,0.6,4.5,0.75,0.35,0.0168,0.4,0,22.47,0,-2.056,0,270.67,0,0,1,-0.17,0,0,0,270.68,-0.0207,0.0117,0.9997,0,270.67,-36.61,-227.37,27.119,0.668,0,0,3,1344.95,7.694,0,1495.52,0,0,0,268.48,0,0,0,0,0,0,0,0,0,0,0,0,0,3,3,0,0,VALID,0,0,0,0,0,1,0,0,0,0,0,0,0,0,0,0,0,0,0,0,380.93,1028.07,2,0,0.145,0.145,120,6.92,0.145,0.138,14.01,FLYING,X10-F,0:/Integrated Flight Computer/aircraft/x10_f_cfg.ks (inferred preloaded)
14.31,APPROACH,ILS_TRACK,150.12,152,1.88,1267.89,1188.94,-0.48,10.47,10.63,270.79,-1.505,0.3398,0,20,1,0.6,4.5,0.75,0.35,0.0168,0.4,0,22.426,0,-1.897,0,270.65,0,0,1,-0.18,0,0,0,270.66,-0.0206,0.0114,0.9997,0,270.65,-35.68,-225.03,27.07,0.655,0,0,3,1344.95,7.902,0,1492.96,0,0,0,268.48,0,0,0,0,0,0,0,0,0,0,0,0,0,3,3,0,0,VALID,0,0,0,0,0,1,0,0,0,0,0,0,0,0,0,0,0,0,0,0,381.43,1028.77,2,0,0.15,0.15,122,6.68,0.15,0.145,14.31,FLYING,X10-F,0:/Integrated Flight Computer/aircraft/x10_f_cfg.ks (inferred preloaded)
14.61,APPROACH,ILS_TRACK,150.31,152,1.69,1267.73,1188.8,-0.47,10.39,10.55,270.77,-1.463,0.2947,0,20,1,0.6,4.5,0.75,0.35,0.0168,0.4,0,22.373,0,-1.711,0,270.64,0,0,1,-0.18,0,0,0,270.64,-0.0205,0.0111,0.9997,0,270.64,-34.76,-222.62,27.021,0.638,0,0,3,1344.95,8.072,0,1490.38,0,0,0,268.48,0,0,0,0,0,0,0,0,0,0,0,0,0,3,3,0,0,VALID,0,0,0,0,0,1,0,0,0,0,0,0,0,0,0,0,0,0,0,0,377.76,1029.58,2,0,0.15,0.15,124,6.67,0.15,0.15,14.61,FLYING,X10-F,0:/Integrated Flight Computer/aircraft/x10_f_cfg.ks (inferred preloaded)
14.91,APPROACH,ILS_TRACK,150.49,152,1.51,1267.59,1188.67,-0.44,10.37,10.53,270.76,-1.419,0.2633,0,20,1,0.6,4.5,0.75,0.35,0.0168,0.4,0,22.321,0,-1.528,0,270.62,0,0,1,-0.17,0,0,0,270.62,-0.0204,0.0107,0.9997,0,270.62,-33.87,-220.17,26.971,0.615,0,0,3,1344.95,8.162,0,1487.79,0,0,0,268.48,0,0,0,0,0,0,0,0,0,0,0,0,0,3,3,0,0,VALID,0,0,0,0,0,1,0,0,0,0,0,0,0,0,0,0,0,0,0,0,370.04,1030.35,2,0,0.15,0.15,126,6.67,0.15,0.15,14.91,FLYING,X10-F,0:/Integrated Flight Computer/aircraft/x10_f_cfg.ks (inferred preloaded)
15.21,APPROACH,ILS_TRACK,150.65,152,1.35,1267.47,1188.55,-0.39,10.38,10.52,270.74,-1.375,0.2491,0,20,1,0.6,4.5,0.75,0.35,0.0168,0.4,0,22.276,0,-1.366,0,270.6,0,0,1,-0.15,0,0,0,270.61,-0.0204,0.0105,0.9997,0,270.6,-33,-217.71,26.922,0.6,0,0,3,1344.95,8.206,0,1485.21,0,0,0,268.48,0,0,0,0,0,0,0,0,0,0,0,0,0,3,3,0,0,VALID,0,0,0,0,0,1,0,0,0,0,0,0,0,0,0,0,0,0,0,0,360.13,1031.04,2,0,0.15,0.15,128,6.67,0.15,0.15,15.21,FLYING,X10-F,0:/Integrated Flight Computer/aircraft/x10_f_cfg.ks (inferred preloaded)
15.51,APPROACH,ILS_TRACK,150.78,152,1.22,1267.36,1188.44,-0.36,10.38,10.51,270.72,-1.322,0.2502,0,20,1,0.6,4.5,0.75,0.35,0.0168,0.4,0,22.239,0,-1.234,0,270.58,0,0,1,-0.14,0,0,0,270.59,-0.0203,0.0102,0.9997,0,270.58,-32.15,-215.24,26.873,0.583,0,0,3,1344.95,8.248,0,1482.62,0,0,0,268.48,0,0,0,0,0,0,0,0,0,0,0,0,0,3,3,0,0,VALID,0,0,0,0,0,1,0,0,0,0,0,0,0,0,0,0,0,0,0,0,349.98,1031.6,2,0,0.15,0.15,130,6.67,0.15,0.15,15.51,FLYING,X10-F,0:/Integrated Flight Computer/aircraft/x10_f_cfg.ks (inferred preloaded)
15.81,APPROACH,ILS_TRACK,150.88,152,1.12,1267.25,1188.34,-0.34,10.38,10.5,270.71,-1.266,0.2628,0,20,1,0.6,4.5,0.75,0.35,0.0168,0.4,0,22.21,0,-1.132,0,270.57,0,0,1,-0.13,0,0,0,270.57,-0.0202,0.0099,0.9997,0,270.57,-31.32,-212.76,26.823,0.565,0,0,3,1344.95,8.289,0,1480.03,0,0,0,268.48,0,0,0,0,0,0,0,0,0,0,0,0,0,3,3,0,0,VALID,0,0,0,0,0,1,0,0,0,0,0,0,0,0,0,0,0,0,0,0,341.12,1032.02,2,0,0.15,0.15,132,6.67,0.15,0.15,15.81,FLYING,X10-F,0:/Integrated Flight Computer/aircraft/x10_f_cfg.ks (inferred preloaded)
16.11,APPROACH,ILS_TRACK,150.95,152,1.05,1267.16,1188.25,-0.31,10.39,10.5,270.7,-1.213,0.2819,0,20,1,0.6,4.5,0.75,0.35,0.0168,0.4,0,22.189,0,-1.058,0,270.55,0,0,1,-0.12,0,0,0,270.56,-0.0201,0.0096,0.9998,0,270.55,-30.51,-210.27,26.774,0.551,0,0,3,1344.95,8.323,0,1477.44,0,0,0,268.48,0,0,0,0,0,0,0,0,0,0,0,0,0,3,3,0,0,VALID,0,0,0,0,0,1,0,0,0,0,0,0,0,0,0,0,0,0,0,0,334.54,1032.33,2,0,0.15,0.15,134,6.67,0.15,0.15,16.11,FLYING,X10-F,0:/Integrated Flight Computer/aircraft/x10_f_cfg.ks (inferred preloaded)
16.41,APPROACH,ILS_TRACK,151,152,1,1267.07,1188.17,-0.28,10.39,10.49,270.69,-1.158,0.3025,0,20,1,0.6,4.5,0.75,0.35,0.0168,0.4,0,22.174,0,-1.006,0,270.53,0,0,1,-0.11,0,0,0,270.55,-0.02,0.0092,0.9998,0,270.53,-29.72,-207.76,26.724,0.529,0,0,3,1344.95,8.351,0,1474.85,0,0,0,268.48,0,0,0,0,0,0,0,0,0,0,0,0,0,3,3,0,0,VALID,0,0,0,0,0,1,0,0,0,0,0,0,0,0,0,0,0,0,0,0,330.59,1032.56,2,0,0.15,0.15,136,6.67,0.15,0.15,16.41,FLYING,X10-F,0:/Integrated Flight Computer/aircraft/x10_f_cfg.ks (inferred preloaded)
16.71,APPROACH,ILS_TRACK,151.04,152,0.96,1266.99,1188.09,-0.25,10.39,10.48,270.68,-1.112,0.3207,0,20,1,0.6,4.5,0.75,0.35,0.0168,0.4,0,22.163,0,-0.966,0,270.52,0,0,1,-0.1,0,0,0,270.53,-0.0199,0.009,0.9998,0,270.52,-28.95,-205.25,26.675,0.515,0,0,3,1344.95,8.377,0,1472.26,0,0,0,268.48,0,0,0,0,0,0,0,0,0,0,0,0,0,3,3,0,0,VALID,0,0,0,0,0,1,0,0,0,0,0,0,0,0,0,0,0,0,0,0,329.12,1032.73,2,0,0.15,0.15,138,6.67,0.15,0.15,16.71,FLYING,X10-F,0:/Integrated Flight Computer/aircraft/x10_f_cfg.ks (inferred preloaded)
17.01,APPROACH,ILS_TRACK,151.07,152,0.93,1266.92,1188.02,-0.22,10.39,10.47,270.66,-1.071,0.3339,0,20,1,0.6,4.5,0.75,0.35,0.0168,0.4,0,22.154,0,-0.932,0,270.5,0,0,1,-0.09,0,0,0,270.51,-0.0199,0.0087,0.9998,0,270.5,-28.19,-202.73,26.625,0.498,0,0,3,1344.95,8.403,0,1469.67,0,0,0,268.48,0,0,0,0,0,0,0,0,0,0,0,0,0,3,3,0,0,VALID,0,0,0,0,0,1,0,0,0,0,0,0,0,0,0,0,0,0,0,0,329.39,1032.87,2,0,0.15,0.15,140,6.67,0.15,0.15,17.01,FLYING,X10-F,0:/Integrated Flight Computer/aircraft/x10_f_cfg.ks (inferred preloaded)
17.31,APPROACH,ILS_TRACK,151.11,152,0.89,1266.86,1187.97,-0.2,10.38,10.45,270.65,-1.036,0.3413,0,20,1,0.6,4.5,0.75,0.35,0.0168,0.4,0,22.144,0,-0.898,0,270.49,0,0,1,-0.08,0,0,0,270.5,-0.0198,0.0085,0.9998,0,270.49,-27.46,-200.2,26.576,0.486,0,0,3,1344.95,8.427,0,1467.07,0,0,0,268.48,0,0,0,0,0,0,0,0,0,0,0,0,0,3,3,0,0,VALID,0,0,0,0,0,1,0,0,0,0,0,0,0,0,0,0,0,0,0,0,330.42,1033.03,2,0,0.15,0.15,142,6.67,0.15,0.15,17.31,FLYING,X10-F,0:/Integrated Flight Computer/aircraft/x10_f_cfg.ks (inferred preloaded)
17.61,APPROACH,ILS_TRACK,151.14,152,0.86,1266.8,1187.91,-0.17,10.37,10.43,270.64,-1.003,0.3434,0,20,1,0.6,4.5,0.75,0.35,0.0168,0.4,0,22.133,0,-0.86,0,270.47,0,0,1,-0.07,0,0,0,270.48,-0.0197,0.0082,0.9998,0,270.47,-26.73,-197.67,26.526,0.471,0,0,3,1344.95,8.454,0,1464.48,0,0,0,268.48,0,0,0,0,0,0,0,0,0,0,0,0,0,3,3,0,0,VALID,0,0,0,0,0,1,0,0,0,0,0,0,0,0,0,0,0,0,0,0,331.79,1033.19,2,0,0.15,0.15,144,6.67,0.15,0.15,17.61,FLYING,X10-F,0:/Integrated Flight Computer/aircraft/x10_f_cfg.ks (inferred preloaded)
17.91,APPROACH,ILS_TRACK,151.19,152,0.81,1266.75,1187.87,-0.15,10.36,10.42,270.63,-0.976,0.3416,0,20,1,0.6,4.5,0.75,0.35,0.0168,0.4,0,22.121,0,-0.818,0,270.45,0,0,1,-0.06,0,0,0,270.46,-0.0196,0.0079,0.9998,0,270.45,-26.03,-195.13,26.477,0.45,0,0,3,1344.95,8.477,0,1461.89,0,0,0,268.48,0,0,0,0,0,0,0,0,0,0,0,0,0,3,3,0,0,VALID,0,0,0,0,0,1,0,0,0,0,0,0,0,0,0,0,0,0,0,0,333.18,1033.38,2,0,0.15,0.15,146,6.67,0.15,0.15,17.91,FLYING,X10-F,0:/Integrated Flight Computer/aircraft/x10_f_cfg.ks (inferred preloaded)
18.21,APPROACH,ILS_TRACK,151.23,152,0.77,1266.7,1187.83,-0.13,10.35,10.4,270.61,-0.956,0.3371,0,20,1,0.6,4.5,0.75,0.35,0.0168,0.4,0,22.108,0,-0.771,0,270.44,0,0,1,-0.05,0,0,0,270.45,-0.0195,0.0077,0.9998,0,270.44,-25.34,-192.58,26.427,0.443,0,0,3,1344.95,8.501,0,1459.29,0,0,0,268.48,0,0,0,0,0,0,0,0,0,0,0,0,0,3,3,0,0,VALID,0,0,0,0,0,1,0,0,0,0,0,0,0,0,0,0,0,0,0,0,334.36,1033.58,2,0,0.15,0.15,148,6.67,0.15,0.15,18.21,FLYING,X10-F,0:/Integrated Flight Computer/aircraft/x10_f_cfg.ks (inferred preloaded)
18.51,APPROACH,ILS_TRACK,151.29,152,0.71,1266.67,1187.79,-0.11,10.34,10.38,270.6,-0.934,0.3309,0,20,1,0.6,4.5,0.75,0.35,0.0168,0.4,0,22.094,0,-0.72,0,270.42,0,0,1,-0.04,0,0,0,270.43,-0.0195,0.0073,0.9998,0,270.42,-24.65,-190.02,26.378,0.419,0,0,3,1344.95,8.525,0,1456.7,0,0,0,268.48,0,0,0,0,0,0,0,0,0,0,0,0,0,3,3,0,0,VALID,0,0,0,0,0,1,0,0,0,0,0,0,0,0,0,0,0,0,0,0,335.2,1033.81,2,0,0.15,0.15,150,6.67,0.15,0.15,18.51,FLYING,X10-F,0:/Integrated Flight Computer/aircraft/x10_f_cfg.ks (inferred preloaded)
18.81,APPROACH,ILS_TRACK,151.34,152,0.66,1266.63,1187.76,-0.09,10.33,10.36,270.59,-0.923,0.3242,0,20,1,0.6,4.5,0.75,0.35,0.0168,0.4,0,22.078,0,-0.665,0,270.41,0,0,1,-0.04,0,0,0,270.42,-0.0194,0.0071,0.9998,0,270.41,-23.99,-187.46,26.328,0.406,0,0,3,1344.95,8.548,0,1454.1,0,0,0,268.48,0,0,0,0,0,0,0,0,0,0,0,0,0,3,3,0,0,VALID,0,0,0,0,0,1,0,0,0,0,0,0,0,0,0,0,0,0,0,0,335.61,1034.04,2,0,0.15,0.15,152,6.67,0.15,0.15,18.81,FLYING,X10-F,0:/Integrated Flight Computer/aircraft/x10_f_cfg.ks (inferred preloaded)
19.11,APPROACH,ILS_TRACK,151.4,152,0.6,1266.61,1187.74,-0.07,10.32,10.35,270.57,-0.911,0.3176,0,20,1,0.6,4.5,0.75,0.35,0.0168,0.4,0,22.062,0,-0.609,0,270.4,0,0,1,-0.03,0,0,0,270.4,-0.0193,0.007,0.9998,0,270.4,-23.34,-184.89,26.279,0.401,0,0,3,1344.95,8.57,0,1451.5,0,0,0,268.48,0,0,0,0,0,0,0,0,0,0,0,0,0,3,3,0,0,VALID,0,0,0,0,0,1,0,0,0,0,0,0,0,0,0,0,0,0,0,0,335.53,1034.28,2,0,0.15,0.15,154,6.67,0.15,0.15,19.11,FLYING,X10-F,0:/Integrated Flight Computer/aircraft/x10_f_cfg.ks (inferred preloaded)
19.41,APPROACH,ILS_TRACK,151.45,152,0.55,1266.59,1187.72,-0.06,10.31,10.33,270.56,-0.896,0.3119,0,20,1,0.6,4.5,0.75,0.35,0.0168,0.4,0,22.047,0,-0.552,0,270.39,0,0,1,-0.02,0,0,0,270.38,-0.0192,0.0067,0.9998,0,270.39,-22.71,-182.32,26.229,0.386,0,0,3,1344.95,8.593,0,1448.9,0,0,0,268.48,0,0,0,0,0,0,0,0,0,0,0,0,0,3,3,0,0,VALID,0,0,0,0,0,1,0,0,0,0,0,0,0,0,0,0,0,0,0,0,334.8,1034.53,2,0,0.15,0.15,156,6.67,0.15,0.15,19.41,FLYING,X10-F,0:/Integrated Flight Computer/aircraft/x10_f_cfg.ks (inferred preloaded)
19.71,APPROACH,ILS_TRACK,151.51,152,0.49,1266.57,1187.71,-0.04,10.31,10.32,270.55,-0.882,0.3077,0,20,1,0.6,4.5,0.75,0.35,0.0168,0.4,0,22.031,0,-0.497,0,270.37,0,0,1,-0.02,0,0,0,270.37,-0.0191,0.0064,0.9998,0,270.37,-22.09,-179.73,26.18,0.369,0,0,3,1344.95,8.614,0,1446.3,0,0,0,268.48,0,0,0,0,0,0,0,0,0,0,0,0,0,3,3,0,0,VALID,0,0,0,0,0,1,0,0,0,0,0,0,0,0,0,0,0,0,0,0,333.59,1034.76,2,0,0.15,0.15,158,6.67,0.15,0.15,19.71,FLYING,X10-F,0:/Integrated Flight Computer/aircraft/x10_f_cfg.ks (inferred preloaded)
20.01,APPROACH,ILS_TRACK,151.56,152,0.44,1266.56,1187.7,-0.03,10.3,10.31,270.53,-0.869,0.3052,0,20,1,0.6,4.5,0.75,0.35,0.0168,0.4,0,22.017,0,-0.446,0,270.35,0,0,1,-0.01,0,0,0,270.36,-0.019,0.0061,0.9998,0,270.35,-21.47,-177.14,26.13,0.352,0,0,3,1344.95,8.632,0,1443.7,0,0,0,268.48,0,0,0,0,0,0,0,0,0,0,0,0,0,3,3,0,0,VALID,0,0,0,0,0,1,0,0,0,0,0,0,0,0,0,0,0,0,0,0,332.09,1034.98,2,0,0.15,0.15,160,6.67,0.15,0.15,20.01,FLYING,X10-F,0:/Integrated Flight Computer/aircraft/x10_f_cfg.ks (inferred preloaded)
20.31,APPROACH,ILS_TRACK,151.61,152,0.39,1266.55,1187.7,-0.01,10.3,10.3,270.52,-0.858,0.3045,0,20,1,0.6,4.5,0.75,0.35,0.0168,0.4,0,22.003,0,-0.399,0,270.34,0,0,1,0,0,0,0,270.35,-0.019,0.006,0.9998,0,270.34,-20.88,-174.55,26.08,0.344,0,0,3,1344.95,8.651,0,1441.1,0,0,0,268.48,0,0,0,0,0,0,0,0,0,0,0,0,0,3,3,0,0,VALID,0,0,0,0,0,1,0,0,0,0,0,0,0,0,0,0,0,0,0,0,330.52,1035.18,2,0,0.15,0.15,162,6.67,0.15,0.15,20.31,FLYING,X10-F,0:/Integrated Flight Computer/aircraft/x10_f_cfg.ks (inferred preloaded)
20.61,APPROACH,ILS_TRACK,151.65,152,0.35,1266.55,1187.7,0,10.29,10.3,270.51,-0.844,0.3052,0,20,1,0.6,4.5,0.75,0.35,0.0168,0.4,0,21.991,0,-0.357,0,270.33,0,0,1,0,0,0,0,270.33,-0.0189,0.0057,0.9998,0,270.33,-20.29,-171.95,26.031,0.325,0,0,3,1344.95,8.668,0,1438.5,0,0,0,268.48,0,0,0,0,0,0,0,0,0,0,0,0,0,3,3,0,0,VALID,0,0,0,0,0,1,0,0,0,0,0,0,0,0,0,0,0,0,0,0,329.05,1035.36,2,0,0.15,0.15,164,6.67,0.15,0.15,20.61,FLYING,X10-F,0:/Integrated Flight Computer/aircraft/x10_f_cfg.ks (inferred preloaded)
20.91,APPROACH,ILS_TRACK,151.68,152,0.32,1266.55,1187.7,0.02,10.29,10.29,270.5,-0.832,0.3068,0,20,1,0.6,4.5,0.75,0.35,0.0168,0.4,0,21.981,0,-0.319,0,270.31,0,0,1,0.01,0,0,0,270.33,-0.0188,0.0054,0.9998,0,270.31,-19.73,-169.35,25.981,0.311,0,0,3,1344.95,8.684,0,1435.9,0,0,0,268.48,0,0,0,0,0,0,0,0,0,0,0,0,0,3,3,0,0,VALID,0,0,0,0,0,1,0,0,0,0,0,0,0,0,0,0,0,0,0,0,327.82,1035.52,2,0,0.15,0.15,166,6.67,0.15,0.15,20.91,FLYING,X10-F,0:/Integrated Flight Computer/aircraft/x10_f_cfg.ks (inferred preloaded)
21.21,APPROACH,ILS_TRACK,151.72,152,0.28,1266.56,1187.71,0.03,10.29,10.28,270.48,-0.82,0.3087,0,20,1,0.6,4.5,0.75,0.35,0.0168,0.4,0,21.971,0,-0.285,0,270.31,0,0,1,0.01,0,0,0,270.31,-0.0187,0.0054,0.9998,0,270.31,-19.17,-166.74,25.931,0.307,0,0,3,1344.95,8.699,0,1433.3,0,0,0,268.48,0,0,0,0,0,0,0,0,0,0,0,0,0,3,3,0,0,VALID,0,0,0,0,0,1,0,0,0,0,0,0,0,0,0,0,0,0,0,0,326.88,1035.66,2,0,0.15,0.15,168,6.67,0.15,0.15,21.21,FLYING,X10-F,0:/Integrated Flight Computer/aircraft/x10_f_cfg.ks (inferred preloaded)
21.51,APPROACH,ILS_TRACK,151.75,152,0.25,1266.57,1187.72,0.04,10.29,10.28,270.47,-0.804,0.3105,0,20,1,0.6,4.5,0.75,0.35,0.0168,0.4,0,21.962,0,-0.254,0,270.29,0,0,1,0.02,0,0,0,270.3,-0.0186,0.0051,0.9998,0,270.29,-18.62,-164.13,25.882,0.29,0,0,3,1344.95,8.713,0,1430.69,0,0,0,268.48,0,0,0,0,0,0,0,0,0,0,0,0,0,3,3,0,0,VALID,0,0,0,0,0,1,0,0,0,0,0,0,0,0,0,0,0,0,0,0,326.24,1035.79,2,0,0.15,0.15,170,6.67,0.15,0.15,21.51,FLYING,X10-F,0:/Integrated Flight Computer/aircraft/x10_f_cfg.ks (inferred preloaded)
21.81,APPROACH,ILS_TRACK,151.78,152,0.22,1266.58,1187.74,0.05,10.29,10.27,270.46,-0.791,0.3119,0,20,1,0.6,4.5,0.75,0.35,0.0168,0.4,0,21.954,0,-0.225,0,270.28,0,0,1,0.02,0,0,0,270.29,-0.0185,0.0049,0.9998,0,270.28,-18.09,-161.51,25.832,0.281,0,0,3,1344.95,8.727,0,1428.09,0,0,0,268.48,0,0,0,0,0,0,0,0,0,0,0,0,0,3,3,0,0,VALID,0,0,0,0,0,1,0,0,0,0,0,0,0,0,0,0,0,0,0,0,325.84,1035.91,2,0,0.15,0.15,172,6.67,0.15,0.15,21.81,FLYING,X10-F,0:/Integrated Flight Computer/aircraft/x10_f_cfg.ks (inferred preloaded)
22.11,APPROACH,ILS_TRACK,151.81,152,0.19,1266.6,1187.76,0.07,10.28,10.26,270.45,-0.778,0.3126,0,20,1,0.6,4.5,0.75,0.35,0.0168,0.4,0,21.946,0,-0.197,0,270.27,0,0,1,0.02,0,0,0,270.28,-0.0185,0.0048,0.9998,0,270.27,-17.58,-158.89,25.782,0.274,0,0,3,1344.95,8.74,0,1425.48,0,0,0,268.48,0,0,0,0,0,0,0,0,0,0,0,0,0,3,3,0,0,VALID,0,0,0,0,0,1,0,0,0,0,0,0,0,0,0,0,0,0,0,0,325.61,1036.03,2,0,0.15,0.15,174,6.67,0.15,0.15,22.11,FLYING,X10-F,0:/Integrated Flight Computer/aircraft/x10_f_cfg.ks (inferred preloaded)
22.41,APPROACH,ILS_TRACK,151.83,152,0.17,1266.62,1187.78,0.08,10.28,10.25,270.44,-0.764,0.3127,0,20,1,0.6,4.5,0.75,0.35,0.0168,0.4,0,21.939,0,-0.17,0,270.27,0,0,1,0.03,0,0,0,270.27,-0.0184,0.0046,0.9998,0,270.27,-17.07,-156.26,25.733,0.265,0,0,3,1344.95,8.752,0,1422.88,0,0,0,268.48,0,0,0,0,0,0,0,0,0,0,0,0,0,3,3,0,0,VALID,0,0,0,0,0,1,0,0,0,0,0,0,0,0,0,0,0,0,0,0,325.48,1036.15,2,0,0.15,0.15,176,6.67,0.15,0.15,22.41,FLYING,X10-F,0:/Integrated Flight Computer/aircraft/x10_f_cfg.ks (inferred preloaded)
22.71,APPROACH,ILS_TRACK,151.86,152,0.14,1266.65,1187.81,0.09,10.28,10.25,270.43,-0.752,0.3122,0,20,1,0.6,4.5,0.75,0.35,0.0168,0.4,0,21.931,0,-0.143,0,270.25,0,0,1,0.03,0,0,0,270.25,-0.0183,0.0044,0.9998,0,270.25,-16.57,-153.63,25.683,0.25,0,0,3,1344.95,8.764,0,1420.27,0,0,0,268.48,0,0,0,0,0,0,0,0,0,0,0,0,0,3,3,0,0,VALID,0,0,0,0,0,1,0,0,0,0,0,0,0,0,0,0,0,0,0,0,325.36,1036.26,2,0,0.15,0.15,178,6.67,0.15,0.15,22.71,FLYING,X10-F,0:/Integrated Flight Computer/aircraft/x10_f_cfg.ks (inferred preloaded)
23.01,APPROACH,ILS_TRACK,151.89,152,0.11,1266.67,1187.84,0.1,10.27,10.24,270.41,-0.738,0.3114,0,20,1,0.6,4.5,0.75,0.35,0.0168,0.4,0,21.924,0,-0.116,0,270.24,0,0,1,0.04,0,0,0,270.25,-0.0182,0.0042,0.9998,0,270.24,-16.09,-151,25.633,0.243,0,0,3,1344.95,8.777,0,1417.67,0,0,0,268.48,0,0,0,0,0,0,0,0,0,0,0,0,0,3,3,0,0,VALID,0,0,0,0,0,1,0,0,0,0,0,0,0,0,0,0,0,0,0,0,325.2,1036.37,2,0,0.15,0.15,180,6.67,0.15,0.15,23.01,FLYING,X10-F,0:/Integrated Flight Computer/aircraft/x10_f_cfg.ks (inferred preloaded)
23.31,APPROACH,ILS_TRACK,151.91,152,0.09,1266.7,1187.87,0.11,10.27,10.23,270.4,-0.723,0.3104,0,20,1,0.6,4.5,0.75,0.35,0.0168,0.4,0,21.916,0,-0.09,0,270.23,0,0,1,0.04,0,0,0,270.24,-0.0181,0.004,0.9998,0,270.23,-15.61,-148.37,25.583,0.23,0,0,3,1344.95,8.788,0,1415.06,0,0,0,268.48,0,0,0,0,0,0,0,0,0,0,0,0,0,3,3,0,0,VALID,0,0,0,0,0,1,0,0,0,0,0,0,0,0,0,0,0,0,0,0,324.97,1036.48,2,0,0.15,0.15,182,6.67,0.15,0.15,23.31,FLYING,X10-F,0:/Integrated Flight Computer/aircraft/x10_f_cfg.ks (inferred preloaded)
23.61,APPROACH,ILS_TRACK,151.94,152,0.06,1266.74,1187.9,0.12,10.27,10.23,270.39,-0.709,0.3093,0,20,1,0.6,4.5,0.75,0.35,0.0168,0.4,0,21.909,0,-0.065,0,270.23,0,0,1,0.04,0,0,0,270.23,-0.018,0.004,0.9998,0,270.23,-15.15,-145.73,25.534,0.228,0,0,3,1344.95,8.8,0,1412.46,0,0,0,268.48,0,0,0,0,0,0,0,0,0,0,0,0,0,3,3,0,0,VALID,0,0,0,0,0,1,0,0,0,0,0,0,0,0,0,0,0,0,0,0,324.66,1036.59,2,0,0.15,0.15,184,6.67,0.15,0.15,23.61,FLYING,X10-F,0:/Integrated Flight Computer/aircraft/x10_f_cfg.ks (inferred preloaded)
23.91,APPROACH,ILS_TRACK,151.96,152,0.04,1266.77,1187.94,0.13,10.26,10.22,270.38,-0.693,0.3085,0,20,1,0.6,4.5,0.75,0.35,0.0168,0.4,0,21.902,0,-0.04,0,270.21,0,0,1,0.05,0,0,0,270.22,-0.018,0.0037,0.9998,0,270.21,-14.7,-143.09,25.484,0.211,0,0,3,1344.95,8.811,0,1409.85,0,0,0,268.48,0,0,0,0,0,0,0,0,0,0,0,0,0,3,3,0,0,VALID,0,0,0,0,0,1,0,0,0,0,0,0,0,0,0,0,0,0,0,0,324.28,1036.69,2,0,0.15,0.15,186,6.67,0.15,0.15,23.91,FLYING,X10-F,0:/Integrated Flight Computer/aircraft/x10_f_cfg.ks (inferred preloaded)
24.21,APPROACH,ILS_TRACK,151.99,152,0.01,1266.81,1187.98,0.13,10.26,10.22,270.37,-0.679,0.3078,0,20,1,0.6,4.5,0.75,0.35,0.0168,0.4,0,21.895,0,-0.016,0,270.21,0,0,1,0.05,0,0,0,270.21,-0.0179,0.0036,0.9998,0,270.21,-14.26,-140.44,25.434,0.205,0,0,3,1344.95,8.822,0,1407.24,0,0,0,268.48,0,0,0,0,0,0,0,0,0,0,0,0,0,3,3,0,0,VALID,0,0,0,0,0,1,0,0,0,0,0,0,0,0,0,0,0,0,0,0,323.85,1036.79,2,0,0.15,0.15,188,6.67,0.15,0.15,24.21,FLYING,X10-F,0:/Integrated Flight Computer/aircraft/x10_f_cfg.ks (inferred preloaded)
24.51,APPROACH,ILS_TRACK,152.01,152,-0.01,1266.85,1188.02,0.14,10.26,10.21,270.37,-0.664,0.3074,0,19.999,1,0.6,4.5,0.75,0.35,0.0168,0.4,0,21.889,0,0.006,0,270.2,0,0,1,0.05,0,0,0,270.2,-0.0178,0.0034,0.9998,0,270.2,-13.83,-137.79,25.384,0.196,0,0,3,1344.95,8.831,0,1404.63,0,0,0,268.48,0,0,0,0,0,0,0,0,0,0,0,0,0,3,3,0,0,VALID,0,0,0,0,0,1,0,0,0,0,0,0,0,0,0,0,0,0,0,0,323.39,1036.88,2,0,0.15,0.15,190,6.67,0.15,0.15,24.51,FLYING,X10-F,0:/Integrated Flight Computer/aircraft/x10_f_cfg.ks (inferred preloaded)
24.81,APPROACH,ILS_TRACK,152.03,152,-0.03,1266.9,1188.07,0.15,10.26,10.21,270.36,-0.651,0.3071,0,19.992,1,0.6,4.5,0.75,0.35,0.0168,0.4,0,21.883,0,0.027,0,270.19,0,0,1,0.06,0,0,0,270.19,-0.0177,0.0034,0.9998,0,270.19,-13.42,-135.14,25.335,0.193,0,0,3,1344.95,8.841,0,1402.03,0,0,0,268.48,0,0,0,0,0,0,0,0,0,0,0,0,0,3,3,0,0,VALID,0,0,0,0,0,1,0,0,0,0,0,0,0,0,0,0,0,0,0,0,322.95,1036.97,2,0,0.15,0.15,192,6.67,0.15,0.15,24.81,FLYING,X10-F,0:/Integrated Flight Computer/aircraft/x10_f_cfg.ks (inferred preloaded)
25.11,APPROACH,ILS_TRACK,152.05,152,-0.05,1266.94,1188.12,0.16,10.26,10.2,270.35,-0.64,0.3069,0,19.98,1,0.6,4.5,0.75,0.35,0.0168,0.4,0,21.878,0,0.047,0,270.18,0,0,1,0.06,0,0,0,270.18,-0.0176,0.0032,0.9998,0,270.18,-13,-132.48,25.285,0.182,0,0,3,1344.95,8.85,0,1399.42,0,0,0,268.48,0,0,0,0,0,0,0,0,0,0,0,0,0,3,3,0,0,VALID,0,0,0,0,0,1,0,0,0,0,0,0,0,0,0,0,0,0,0,0,322.52,1037.05,2,0,0.15,0.15,194,6.67,0.15,0.15,25.11,FLYING,X10-F,0:/Integrated Flight Computer/aircraft/x10_f_cfg.ks (inferred preloaded)
25.41,APPROACH,ILS_TRACK,152.07,152,-0.07,1266.99,1188.17,0.17,10.26,10.2,270.34,-0.628,0.3068,0,19.962,1,0.6,4.5,0.75,0.35,0.0168,0.4,0,21.872,0,0.065,0,270.17,0,0,1,0.06,0,0,0,270.18,-0.0176,0.003,0.9998,0,270.17,-12.61,-129.83,25.235,0.174,0,0,3,1344.95,8.859,0,1396.81,0,0,0,268.48,0,0,0,0,0,0,0,0,0,0,0,0,0,3,3,0,0,VALID,0,0,0,0,0,1,0,0,0,0,0,0,0,0,0,0,0,0,0,0,322.12,1037.12,2,0,0.15,0.15,196,6.67,0.15,0.15,25.41,FLYING,X10-F,0:/Integrated Flight Computer/aircraft/x10_f_cfg.ks (inferred preloaded)
25.71,APPROACH,ILS_TRACK,152.08,152,-0.08,1267.04,1188.22,0.17,10.25,10.2,270.33,-0.613,0.3066,0,19.938,1,0.6,4.5,0.75,0.35,0.0168,0.4,0,21.868,0,0.083,0,270.17,0,0,1,0.07,0,0,0,270.17,-0.0175,0.0029,0.9998,0,270.17,-12.22,-127.17,25.185,0.167,0,0,3,1344.95,8.868,0,1394.2,0,0,0,268.48,0,0,0,0,0,0,0,0,0,0,0,0,0,3,3,0,0,VALID,0,0,0,0,0,1,0,0,0,0,0,0,0,0,0,0,0,0,0,0,321.74,1037.19,2,0,0.15,0.15,198,6.67,0.15,0.15,25.71,FLYING,X10-F,0:/Integrated Flight Computer/aircraft/x10_f_cfg.ks (inferred preloaded)
26.01,APPROACH,ILS_TRACK,152.1,152,-0.1,1267.09,1188.28,0.18,10.25,10.19,270.32,-0.599,0.3064,0,19.91,1,0.6,4.5,0.75,0.35,0.0168,0.4,0,21.863,0,0.099,0,270.15,0,0,1,0.07,0,0,0,270.16,-0.0174,0.0027,0.9998,0,270.15,-11.84,-124.51,25.136,0.154,0,0,3,1344.95,8.876,0,1391.59,0,0,0,268.48,0,0,0,0,0,0,0,0,0,0,0,0,0,3,3,0,0,VALID,0,0,0,0,0,1,0,0,0,0,0,0,0,0,0,0,0,0,0,0,321.39,1037.26,2,0,0.15,0.15,200,6.67,0.15,0.15,26.01,FLYING,X10-F,0:/Integrated Flight Computer/aircraft/x10_f_cfg.ks (inferred preloaded)
26.31,APPROACH,ILS_TRACK,152.11,152,-0.11,1267.15,1188.33,0.19,10.25,10.19,270.31,-0.587,0.3062,0,19.877,1,0.6,4.5,0.75,0.35,0.0168,0.4,0,21.859,0,0.114,0,270.15,0,0,1,0.07,0,0,0,270.16,-0.0173,0.0026,0.9998,0,270.15,-11.47,-121.84,25.086,0.151,0,0,3,1344.95,8.885,0,1388.98,0,0,0,268.48,0,0,0,0,0,0,0,0,0,0,0,0,0,3,3,0,0,VALID,0,0,0,0,0,1,0,0,0,0,0,0,0,0,0,0,0,0,0,0,321.04,1037.32,2,0,0.15,0.15,202,6.67,0.15,0.15,26.31,FLYING,X10-F,0:/Integrated Flight Computer/aircraft/x10_f_cfg.ks (inferred preloaded)
26.61,APPROACH,ILS_TRACK,152.13,152,-0.13,1267.21,1188.39,0.19,10.25,10.19,270.3,-0.575,0.3059,0,19.84,1,0.6,4.5,0.75,0.35,0.0168,0.4,0,21.855,0,0.127,0,270.14,0,0,1,0.07,0,0,0,270.15,-0.0172,0.0025,0.9998,0,270.14,-11.1,-119.17,25.036,0.142,0,0,3,1344.95,8.892,0,1386.37,0,0,0,268.48,0,0,0,0,0,0,0,0,0,0,0,0,0,3,3,0,0,VALID,0,0,0,0,0,1,0,0,0,0,0,0,0,0,0,0,0,0,0,0,320.71,1037.37,2,0,0.15,0.15,204,6.67,0.15,0.15,26.61,FLYING,X10-F,0:/Integrated Flight Computer/aircraft/x10_f_cfg.ks (inferred preloaded)
26.91,APPROACH,ILS_TRACK,152.14,152,-0.14,1267.27,1188.45,0.2,10.25,10.18,270.3,-0.564,0.3056,0,19.798,1,0.6,4.5,0.75,0.35,0.0168,0.4,0,21.851,0,0.14,0,270.13,0,0,1,0.08,0,0,0,270.14,-0.0171,0.0023,0.9999,0,270.13,-10.75,-116.51,24.986,0.133,0,0,3,1344.95,8.9,0,1383.76,0,0,0,268.48,0,0,0,0,0,0,0,0,0,0,0,0,0,3,3,0,0,VALID,0,0,0,0,0,1,0,0,0,0,0,0,0,0,0,0,0,0,0,0,320.38,1037.42,2,0,0.15,0.15,206,6.67,0.15,0.15,26.91,FLYING,X10-F,0:/Integrated Flight Computer/aircraft/x10_f_cfg.ks (inferred preloaded)
27.21,APPROACH,ILS_TRACK,152.15,152,-0.15,1267.33,1188.51,0.21,10.25,10.18,270.29,-0.551,0.3052,0,19.754,1,0.6,4.5,0.75,0.35,0.0168,0.4,0,21.848,0,0.152,0,270.13,0,0,1,0.08,0,0,0,270.14,-0.0171,0.0023,0.9999,0,270.13,-10.41,-113.83,24.936,0.133,0,0,3,1344.95,8.907,0,1381.15,0,0,0,268.48,0,0,0,0,0,0,0,0,0,0,0,0,0,3,3,0,0,VALID,0,0,0,0,0,1,0,0,0,0,0,0,0,0,0,0,0,0,0,0,320.05,1037.47,2,0,0.15,0.15,208,6.67,0.15,0.15,27.21,FLYING,X10-F,0:/Integrated Flight Computer/aircraft/x10_f_cfg.ks (inferred preloaded)
27.51,APPROACH,ILS_TRACK,152.16,152,-0.16,1267.39,1188.58,0.21,10.25,10.18,270.28,-0.536,0.3049,0,19.706,1,0.6,4.5,0.75,0.35,0.0168,0.4,0,21.845,0,0.163,0,270.12,0,0,1,0.08,0,0,0,270.13,-0.017,0.0022,0.9999,0,270.12,-10.07,-111.16,24.887,0.124,0,0,3,1344.95,8.914,0,1378.54,0,0,0,268.48,0,0,0,0,0,0,0,0,0,0,0,0,0,3,3,0,0,VALID,0,0,0,0,0,1,0,0,0,0,0,0,0,0,0,0,0,0,0,0,319.72,1037.51,2,0,0.15,0.15,210,6.67,0.15,0.15,27.51,FLYING,X10-F,0:/Integrated Flight Computer/aircraft/x10_f_cfg.ks (inferred preloaded)
27.81,APPROACH,ILS_TRACK,152.17,152,-0.17,1267.46,1188.64,0.22,10.25,10.18,270.27,-0.525,0.3046,0,19.655,1,0.6,4.5,0.75,0.35,0.0168,0.4,0,21.842,0,0.173,0,270.12,0,0,1,0.08,0,0,0,270.13,-0.0169,0.002,0.9999,0,270.12,-9.75,-108.48,24.837,0.117,0,0,3,1344.95,8.921,0,1375.93,0,0,0,268.48,0,0,0,0,0,0,0,0,0,0,0,0,0,3,3,0,0,VALID,0,0,0,0,0,1,0,0,0,0,0,0,0,0,0,0,0,0,0,0,319.39,1037.55,2,0,0.15,0.15,212,6.67,0.15,0.15,27.81,FLYING,X10-F,0:/Integrated Flight Computer/aircraft/x10_f_cfg.ks (inferred preloaded)
28.11,APPROACH,ILS_TRACK,152.18,152,-0.18,1267.52,1188.71,0.23,10.25,10.17,270.27,-0.516,0.3043,0,19.601,1,0.6,4.5,0.75,0.35,0.0168,0.4,0,21.84,0,0.181,0,270.11,0,0,1,0.08,0,0,0,270.11,-0.0168,0.002,0.9999,0,270.11,-9.43,-105.81,24.787,0.114,0,0,3,1344.95,8.927,0,1373.32,0,0,0,268.48,0,0,0,0,0,0,0,0,0,0,0,0,0,3,3,0,0,VALID,0,0,0,0,0,1,0,0,0,0,0,0,0,0,0,0,0,0,0,0,319.05,1037.58,2,0,0.15,0.15,214,6.67,0.15,0.15,28.11,FLYING,X10-F,0:/Integrated Flight Computer/aircraft/x10_f_cfg.ks (inferred preloaded)
28.41,APPROACH,ILS_TRACK,152.19,152,-0.19,1267.59,1188.78,0.23,10.25,10.17,270.26,-0.504,0.304,0,19.545,1,0.6,4.5,0.75,0.35,0.0168,0.4,0,21.838,0,0.189,0,270.11,0,0,1,0.09,0,0,0,270.11,-0.0167,0.0019,0.9999,0,270.11,-9.12,-103.13,24.737,0.109,0,0,3,1344.95,8.934,0,1370.71,0,0,0,268.48,0,0,0,0,0,0,0,0,0,0,0,0,0,3,3,0,0,VALID,0,0,0,0,0,1,0,0,0,0,0,0,0,0,0,0,0,0,0,0,318.72,1037.61,2,0,0.15,0.15,216,6.67,0.15,0.15,28.41,FLYING,X10-F,0:/Integrated Flight Computer/aircraft/x10_f_cfg.ks (inferred preloaded)
28.71,APPROACH,ILS_TRACK,152.2,152,-0.2,1267.66,1188.85,0.24,10.25,10.17,270.25,-0.493,0.3038,0,19.486,1,0.6,4.5,0.75,0.35,0.0168,0.4,0,21.836,0,0.196,0,270.1,0,0,1,0.09,0,0,0,270.1,-0.0166,0.0018,0.9999,0,270.1,-8.81,-100.45,24.687,0.103,0,0,3,1344.95,8.939,0,1368.09,0,0,0,268.48,0,0,0,0,0,0,0,0,0,0,0,0,0,3,3,0,0,VALID,0,0,0,0,0,1,0,0,0,0,0,0,0,0,0,0,0,0,0,0,318.4,1037.63,2,0,0.15,0.15,218,6.67,0.15,0.15,28.71,FLYING,X10-F,0:/Integrated Flight Computer/aircraft/x10_f_cfg.ks (inferred preloaded)
29.01,APPROACH,ILS_TRACK,152.2,152,-0.2,1267.74,1188.93,0.24,10.25,10.17,270.25,-0.484,0.3036,0,19.426,1,0.6,4.5,0.75,0.35,0.0168,0.4,0,21.834,0,0.201,0,270.1,0,0,1,0.09,0,0,0,270.1,-0.0166,0.0018,0.9999,0,270.1,-8.52,-97.76,24.637,0.104,0,0,3,1344.95,8.946,0,1365.48,0,0,0,268.48,0,0,0,0,0,0,0,0,0,0,0,0,0,3,3,0,0,VALID,0,0,0,0,0,1,0,0,0,0,0,0,0,0,0,0,0,0,0,0,318.08,1037.65,2,0,0.15,0.15,220,6.67,0.15,0.15,29.01,FLYING,X10-F,0:/Integrated Flight Computer/aircraft/x10_f_cfg.ks (inferred preloaded)
29.31,APPROACH,ILS_TRACK,152.21,152,-0.21,1267.81,1189,0.25,10.25,10.17,270.24,-0.471,0.3034,0,19.365,1,0.6,4.5,0.75,0.35,0.0168,0.4,0,21.833,0,0.206,0,270.08,0,0,1,0.09,0,0,0,270.09,-0.0165,0.0015,0.9999,0,270.08,-8.23,-95.08,24.588,0.085,0,0,3,1344.95,8.951,0,1362.87,0,0,0,268.48,0,0,0,0,0,0,0,0,0,0,0,0,0,3,3,0,0,VALID,0,0,0,0,0,1,0,0,0,0,0,0,0,0,0,0,0,0,0,0,317.77,1037.67,2,0,0.15,0.15,222,6.67,0.15,0.15,29.31,FLYING,X10-F,0:/Integrated Flight Computer/aircraft/x10_f_cfg.ks (inferred preloaded)
29.61,APPROACH,ILS_TRACK,152.21,152,-0.21,1267.89,1189.08,0.25,10.25,10.17,270.23,-0.465,0.3033,0,19.302,1,0.6,4.5,0.75,0.35,0.0168,0.4,0,21.832,0,0.21,0,270.09,0,0,1,0.09,0,0,0,270.09,-0.0164,0.0016,0.9999,0,270.09,-7.95,-92.39,24.538,0.092,0,0,3,1344.95,8.958,0,1360.26,0,0,0,268.48,0,0,0,0,0,0,0,0,0,0,0,0,0,3,3,0,0,VALID,0,0,0,0,0,1,0,0,0,0,0,0,0,0,0,0,0,0,0,0,317.48,1037.68,2,0,0.15,0.15,224,6.67,0.15,0.15,29.61,FLYING,X10-F,0:/Integrated Flight Computer/aircraft/x10_f_cfg.ks (inferred preloaded)
29.91,APPROACH,ILS_TRACK,152.21,152,-0.21,1267.96,1189.16,0.26,10.26,10.17,270.23,-0.451,0.3032,0,19.239,1,0.6,4.5,0.75,0.35,0.0168,0.4,0,21.831,0,0.212,0,270.08,0,0,1,0.1,0,0,0,270.08,-0.0163,0.0014,0.9999,0,270.08,-7.68,-89.7,24.488,0.082,0,0,3,1344.95,8.962,0,1357.65,0,0,0,268.48,0,0,0,0,0,0,0,0,0,0,0,0,0,3,3,0,0,VALID,0,0,0,0,0,1,0,0,0,0,0,0,0,0,0,0,0,0,0,0,317.21,1037.68,2,0,0.15,0.15,226,6.67,0.15,0.15,29.91,FLYING,X10-F,0:/Integrated Flight Computer/aircraft/x10_f_cfg.ks (inferred preloaded)
30.21,APPROACH,ILS_TRACK,152.21,152,-0.21,1268.04,1189.23,0.26,10.26,10.17,270.22,-0.441,0.3031,0,19.175,1,0.6,4.5,0.75,0.35,0.0168,0.4,0,21.831,0,0.214,0,270.08,0,0,1,0.1,0,0,0,270.08,-0.0162,0.0013,0.9999,0,270.08,-7.41,-87.01,24.438,0.076,0,0,3,1344.95,8.968,0,1355.04,0,0,0,268.48,0,0,0,0,0,0,0,0,0,0,0,0,0,3,3,0,0,VALID,0,0,0,0,0,1,0,0,0,0,0,0,0,0,0,0,0,0,0,0,316.95,1037.69,2,0,0.15,0.15,228,6.67,0.15,0.15,30.21,FLYING,X10-F,0:/Integrated Flight Computer/aircraft/x10_f_cfg.ks (inferred preloaded)
30.51,APPROACH,ILS_TRACK,152.21,152,-0.21,1268.12,1189.32,0.27,10.26,10.17,270.21,-0.431,0.3031,0,19.11,1,0.6,4.5,0.75,0.35,0.0168,0.4,0,21.83,0,0.215,0,270.07,0,0,1,0.1,0,0,0,270.07,-0.0161,0.0013,0.9999,0,270.07,-7.15,-84.32,24.388,0.073,0,0,3,1344.95,8.973,0,1352.43,0,0,0,268.48,0,0,0,0,0,0,0,0,0,0,0,0,0,3,3,0,0,VALID,0,0,0,0,0,1,0,0,0,0,0,0,0,0,0,0,0,0,0,0,316.71,1037.68,2,0,0.15,0.15,230,6.67,0.15,0.15,30.51,FLYING,X10-F,0:/Integrated Flight Computer/aircraft/x10_f_cfg.ks (inferred preloaded)
30.81,APPROACH,ILS_TRACK,152.22,152,-0.22,1268.2,1189.4,0.27,10.26,10.17,270.21,-0.421,0.303,0,19.046,1,0.6,4.5,0.75,0.35,0.0168,0.4,0,21.83,0,0.215,0,270.07,0,0,1,0.1,0,0,0,270.07,-0.0161,0.0012,0.9999,0,270.07,-6.9,-81.63,24.338,0.069,0,0,3,1344.95,8.978,0,1349.81,0,0,0,268.48,0,0,0,0,0,0,0,0,0,0,0,0,0,3,3,0,0,VALID,0,0,0,0,0,1,0,0,0,0,0,0,0,0,0,0,0,0,0,0,316.49,1037.68,2,0,0.15,0.15,232,6.67,0.15,0.15,30.81,FLYING,X10-F,0:/Integrated Flight Computer/aircraft/x10_f_cfg.ks (inferred preloaded)
31.11,APPROACH,ILS_TRACK,152.21,152,-0.21,1268.29,1189.48,0.28,10.26,10.17,270.2,-0.413,0.3029,0,18.981,1,0.6,4.5,0.75,0.35,0.0168,0.4,0,21.83,0,0.214,0,270.06,0,0,1,0.1,0,0,0,270.06,-0.016,0.0011,0.9999,0,270.06,-6.65,-78.93,24.289,0.063,16.494,1,3,1344.95,8.982,0,1347.2,0,0,0,268.48,0,0,0,0,0,0,0,0,0,0,0,0,0,3,3,0,0,VALID,0,0,0,0,0,1,0,0,0,0,0,0,0,0,0,0,0,0,0,0,316.27,1037.67,2,0,0.15,0.15,234,6.67,0.15,0.15,31.11,FLYING,X10-F,0:/Integrated Flight Computer/aircraft/x10_f_cfg.ks (inferred preloaded)
31.41,APPROACH,ILS_TRACK,152.21,152,-0.21,1268.37,1189.56,0.25,10.26,10.17,270.2,-0.403,0.3027,0,18.917,1,0.6,4.5,0.75,0.35,0.0168,0.4,0,21.831,0,0.213,0,270.06,0,0,1,0.1,0,0,0,270.06,-0.0159,0.001,0.9999,0,270.06,-6.42,-76.24,24.239,0.059,15.688,1,3,1344.95,8.979,0,1344.59,0,0,0,268.48,0,0,0,0,0,0,0,0,0,0,0,0,0,3,3,0,0,VALID,0,0,0,0,0,1,0,0,0,0,0,0,0,0,0,0,0,0,0,0,316.07,1037.66,2,0,0.15,0.15,236,6.67,0.15,0.15,31.41,FLYING,X10-F,0:/Integrated Flight Computer/aircraft/x10_f_cfg.ks (inferred preloaded)
31.71,APPROACH,ILS_TRACK,152.21,152,-0.21,1268.47,1189.61,0.24,10.37,10.3,270.19,-0.391,0.3033,0,18.854,1,0.6,4.5,0.75,0.35,0.0168,0.4,0,21.832,0,0.21,0,270.06,0,0,1,0.08,0,0,0,270.06,-0.0158,0.001,0.9999,0,270.06,-6.18,-73.53,24.189,0.056,14.801,1,3,1344.95,9.072,0,1341.98,0,0,0,268.48,0,0,0,0,0,0,0,0,0,0,0,0,0,3,3,0,0,VALID,0,0,0,0,0,1,0,0,0,0,0,0,0,0,0,0,0,0,0,0,315.85,1037.64,2,0,0.15,0.15,238,6.67,0.15,0.15,31.71,FLYING,X10-F,0:/Integrated Flight Computer/aircraft/x10_f_cfg.ks (inferred preloaded)
32.01,APPROACH,ILS_TRACK,152.19,152,-0.19,1268.54,1189.65,0.27,10.31,10.2,270.19,-0.383,0.3111,0,18.795,1,0.6,4.5,0.75,0.35,0.0168,0.4,0,21.837,0,0.192,0,270.05,0,0,1,0.12,0,0,0,270.05,-0.0157,0.0008,0.9999,0,270.05,-5.95,-70.85,24.139,0.047,14.138,1,3,1344.95,8.895,0,1339.37,0,0,0,268.48,0,0,0,0,0,0,0,0,0,0,0,0,0,3,3,0,0,VALID,0,0,0,0,0,1,0,0,0,0,0,0,0,0,0,0,0,0,0,0,315.81,1037.55,2,0,0.15,0.15,240,6.67,0.15,0.15,32.01,FLYING,X10-F,0:/Integrated Flight Computer/aircraft/x10_f_cfg.ks (inferred preloaded)
32.31,APPROACH,ILS_TRACK,152.18,152,-0.18,1268.62,1189.66,0.29,10.31,10.22,270.18,-0.375,0.3126,0,18.74,1,0.6,4.5,0.75,0.35,0.0168,0.4,0,21.84,0,0.18,0,270.05,0,0,1,0.11,0,0,0,270.05,-0.0156,0.0008,0.9999,0,270.05,-5.73,-68.15,24.089,0.048,13.257,1,3,1344.95,8.985,0,1336.76,0,0,0,268.48,0,0,0,0,0,0,0,0,0,0,0,0,0,3,3,0,0,VALID,0,0,0,0,0,1,0,0,0,0,0,0,0,0,0,0,0,0,0,0,316.21,1037.5,2,0,0.15,0.15,242,6.67,0.15,0.15,32.31,FLYING,X10-F,0:/Integrated Flight Computer/aircraft/x10_f_cfg.ks (inferred preloaded)
32.61,APPROACH,ILS_TRACK,152.17,152,-0.17,1268.71,1189.64,0.29,10.31,10.22,270.18,-0.366,0.3113,0,18.687,1,0.6,4.5,0.75,0.35,0.0168,0.4,0,21.842,0,0.173,0,270.04,0,0,1,0.11,0,0,0,270.05,-0.0156,0.0007,0.9999,0,270.04,-5.52,-65.45,24.039,0.042,12.442,1,3,1344.95,8.992,0,1334.14,0,0,0,268.48,0,0,0,0,0,0,0,0,0,0,0,0,0,3,3,0,0,VALID,0,0,0,0,0,1,0,0,0,0,0,0,0,0,0,0,0,0,0,0,316.67,1037.47,2,0,0.15,0.15,244,6.67,0.15,0.15,32.61,FLYING,X10-F,0:/Integrated Flight Computer/aircraft/x10_f_cfg.ks (inferred preloaded)
32.91,APPROACH,ILS_TRACK,152.17,152,-0.17,1268.8,1189.6,0.29,10.31,10.21,270.17,-0.36,0.3093,0,18.637,1,0.6,4.5,0.75,0.35,0.0168,0.4,0,21.843,0,0.169,0,270.04,0,0,1,0.11,0,0,0,270.04,-0.0155,0.0007,0.9999,0,270.04,-5.31,-62.75,23.99,0.041,11.63,1,3,1344.95,8.995,0,1331.53,0,0,0,268.48,0,0,0,0,0,0,0,0,0,0,0,0,0,3,3,0,0,VALID,0,0,0,0,0,1,0,0,0,0,0,0,0,0,0,0,0,0,0,0,317.01,1037.44,2,0,0.15,0.15,246,6.67,0.15,0.15,32.91,FLYING,X10-F,0:/Integrated Flight Computer/aircraft/x10_f_cfg.ks (inferred preloaded)
33.21,APPROACH,ILS_TRACK,152.16,152,-0.16,1268.89,1189.55,0.3,10.31,10.21,270.16,-0.352,0.3072,0,18.587,1,0.6,4.5,0.75,0.35,0.0168,0.4,0,21.844,0,0.165,0,270.04,0,0,1,0.11,0,0,0,270.04,-0.0154,0.0007,0.9999,0,270.04,-5.11,-60.05,23.94,0.037,10.816,1,3,1344.95,9.001,0,1328.92,0,0,0,268.48,0,0,0,0,0,0,0,0,0,0,0,0,0,3,3,0,0,VALID,0,0,0,0,0,1,0,0,0,0,0,0,0,0,0,0,0,0,0,0,317.21,1037.42,2,0,0.15,0.15,248,6.67,0.15,0.15,33.21,FLYING,X10-F,0:/Integrated Flight Computer/aircraft/x10_f_cfg.ks (inferred preloaded)
33.51,APPROACH,ILS_TRACK,152.16,152,-0.16,1268.98,1189.49,0.3,10.32,10.21,270.16,-0.343,0.3054,0,18.538,1,0.6,4.5,0.75,0.35,0.0168,0.4,0,21.845,0,0.162,0,270.03,0,0,1,0.11,0,0,0,270.03,-0.0153,0.0006,0.9999,0,270.03,-4.91,-57.35,23.89,0.034,10.002,1,3,1344.95,9.005,0,1326.31,0,0,0,268.48,0,0,0,0,0,0,0,0,0,0,0,0,0,3,3,0,0,VALID,0,0,0,0,0,1,0,0,0,0,0,0,0,0,0,0,0,0,0,0,317.27,1037.41,2,0,0.15,0.15,250,6.67,0.15,0.15,33.51,FLYING,X10-F,0:/Integrated Flight Computer/aircraft/x10_f_cfg.ks (inferred preloaded)
33.81,APPROACH,ILS_TRACK,152.16,152,-0.16,1269.07,1189.43,0.3,10.32,10.21,270.16,-0.336,0.3039,0,18.49,1,0.6,4.5,0.75,0.35,0.0168,0.4,0,21.846,0,0.16,0,270.03,0,0,1,0.12,0,0,0,270.03,-0.0152,0.0005,0.9999,0,270.03,-4.71,-54.65,23.84,0.026,9.188,1,3,1344.95,9.01,0,1323.7,0,0,0,268.48,0,0,0,0,0,0,0,0,0,0,0,0,0,3,3,0,0,VALID,0,0,0,0,0,1,0,0,0,0,0,0,0,0,0,0,0,0,0,0,317.19,1037.39,2,0,0.15,0.15,252,6.67,0.15,0.15,33.81,FLYING,X10-F,0:/Integrated Flight Computer/aircraft/x10_f_cfg.ks (inferred preloaded)
34.11,APPROACH,ILS_TRACK,152.16,152,-0.16,1269.17,1189.36,0.3,10.38,10.29,270.15,-0.325,0.3032,0,18.442,1,0.6,4.5,0.75,0.35,0.0168,0.4,0,21.847,0,0.157,0,270.03,0,0,1,0.1,0,0,0,270.03,-0.0151,0.0005,0.9999,0,270.03,-4.53,-51.94,23.79,0.028,8.324,1,3,1344.95,9.073,0,1321.09,0,0,0,268.48,0,0,0,0,0,0,0,0,0,0,0,0,0,3,3,0,0,VALID,0,0,0,0,0,1,0,0,0,0,0,0,0,0,0,0,0,0,0,0,316.96,1037.37,2,0,0.15,0.15,254,6.67,0.15,0.15,34.11,FLYING,X10-F,0:/Integrated Flight Computer/aircraft/x10_f_cfg.ks (inferred preloaded)
34.41,APPROACH,ILS_TRACK,152.14,152,-0.14,1269.24,1189.31,0.33,10.29,10.16,270.15,-0.314,0.309,0,18.399,1,0.6,4.5,0.75,0.35,0.0168,0.4,0,21.851,0,0.14,0,270.02,0,0,1,0.14,0,0,0,270.02,-0.0151,0.0004,0.9999,0,270.02,-4.34,-49.25,23.741,0.021,7.638,1,3,1344.95,8.921,0,1318.48,0,0,0,268.48,0,0,0,0,0,0,0,0,0,0,0,0,0,3,3,0,0,VALID,0,0,0,0,0,1,0,0,0,0,0,0,0,0,0,0,0,0,0,0,316.8,1037.29,2,0,0.15,0.15,256,6.67,0.15,0.15,34.41,FLYING,X10-F,0:/Integrated Flight Computer/aircraft/x10_f_cfg.ks (inferred preloaded)
34.71,APPROACH,ILS_TRACK,152.13,152,-0.13,1269.34,1189.28,0.35,10.28,10.14,270.15,-0.305,0.3107,0,18.359,1,0.6,4.5,0.75,0.35,0.0168,0.4,0,21.855,0,0.128,0,270.01,0,0,1,0.14,0,0,0,270.02,-0.015,0.0001,0.9999,0,270.01,-4.15,-46.54,23.691,0.007,6.757,1,3,1344.95,9.008,0,1315.87,0,0,0,268.48,0,0,0,0,0,0,0,0,0,0,0,0,0,3,3,0,0,VALID,0,0,0,0,0,1,0,0,0,0,0,0,0,0,0,0,0,0,0,0,316.99,1037.23,2,0,0.15,0.15,258,6.67,0.15,0.15,34.71,FLYING,X10-F,0:/Integrated Flight Computer/aircraft/x10_f_cfg.ks (inferred preloaded)
35.01,APPROACH,ILS_TRACK,152.12,152,-0.12,1269.44,1189.26,0.34,10.27,10.15,270.15,-0.299,0.3098,0,18.323,1,0.6,4.5,0.75,0.35,0.0168,0.4,0,21.857,0,0.12,0,270,0,0,1,0.13,0,0,0,270.02,-0.0149,0.0001,0.9999,0,270,-3.97,-43.84,23.641,0.005,5.915,1,3,1344.95,9.045,0,1313.26,0,0,0,268.48,0,0,0,0,0,0,0,0,0,0,0,0,0,3,3,0,0,VALID,0,0,0,0,0,1,0,0,0,0,0,0,0,0,0,0,0,0,0,0,317.3,1037.19,2,0,0.15,0.15,260,6.67,0.15,0.15,35.01,FLYING,X10-F,0:/Integrated Flight Computer/aircraft/x10_f_cfg.ks (inferred preloaded)
35.31,APPROACH,ILS_TRACK,152.12,152,-0.12,1269.54,1189.26,0.34,10.26,10.14,270.15,-0.305,0.3064,0,18.287,1,0.6,4.5,0.75,0.35,0.0168,0.4,0,21.858,0,0.118,0,270,0,0,1,0.13,0,0,0,270,-0.0148,0.0001,0.9999,0,270,-3.79,-41.12,23.591,0.005,5.107,1,3,1344.95,9.038,0,1310.65,0,0,0,268.48,0,0,0,0,0,0,0,0,0,0,0,0,0,3,3,0,0,VALID,0,0,0,0,0,1,0,0,0,0,0,0,0,0,0,0,0,0,0,0,317.5,1037.18,2,0,0.15,0.15,262,6.67,0.15,0.15,35.31,FLYING,X10-F,0:/Integrated Flight Computer/aircraft/x10_f_cfg.ks (inferred preloaded)
35.61,APPROACH,ILS_TRACK,152.12,152,-0.12,1269.65,1189.26,0.34,10.26,10.14,270.15,-0.315,0.3029,0,18.252,1,0.6,4.5,0.75,0.35,0.0168,0.4,0,21.857,0,0.119,0,269.99,0,0,1,0.13,0,0,0,270,-0.0147,-0.0001,0.9999,0,269.99,-3.61,-38.41,23.541,-0.005,4.289,1,3,1344.95,9.043,0,1308.04,0,0,0,268.48,0,0,0,0,0,0,0,0,0,0,0,0,0,3,3,0,0,VALID,0,0,0,0,0,1,0,0,0,0,0,0,0,0,0,0,0,0,0,0,317.45,1037.17,2,0,0.15,0.15,264,6.67,0.15,0.15,35.61,FLYING,X10-F,0:/Integrated Flight Computer/aircraft/x10_f_cfg.ks (inferred preloaded)
35.91,APPROACH,ILS_TRACK,152.12,152,-0.12,1269.75,1189.24,0.35,10.26,10.14,270.14,-0.327,0.3003,0,18.216,1,0.6,4.5,0.75,0.35,0.0168,0.4,0,21.857,0,0.119,0,269.99,0,0,1,0.13,0,0,0,269.99,-0.0146,-0.0001,0.9999,0,269.99,-3.44,-35.7,23.491,-0.007,3.471,1,3,1344.95,9.048,0,1305.43,0,0,0,268.48,0,0,0,0,0,0,0,0,0,0,0,0,0,3,3,0,0,VALID,0,0,0,0,0,1,0,0,0,0,0,0,0,0,0,0,0,0,0,0,317.08,1037.17,2,0,0.15,0.15,266,6.67,0.15,0.15,35.91,FLYING,X10-F,0:/Integrated Flight Computer/aircraft/x10_f_cfg.ks (inferred preloaded)
36.21,APPROACH,ILS_TRACK,152.12,152,-0.12,1269.85,1189.23,0.35,10.26,10.14,270.14,-0.337,0.2989,0,18.18,1,0.6,4.5,0.75,0.35,0.0168,0.4,0,21.857,0,0.119,0,269.99,-0.345,0,1,0.13,0,0,0,269.99,-0.0085,-0.0002,1,-0.35,269.99,-3.26,-32.98,23.442,-0.013,2.655,1,3,1344.95,9.05,-0.345,1302.82,0,0,0,268.48,0,0,0,0,0,0,0,0,0,0,0,0,0,3,3,0,0,VALID,0,0,0,0,0,1,0,0,0,0,0,0,0,0,0,0,0,0,0,0,316.49,1037.16,2,0,0.15,0.15,268,6.67,0.15,0.15,36.21,FLYING,X10-F,0:/Integrated Flight Computer/aircraft/x10_f_cfg.ks (inferred preloaded)
