t_s,phase,subphase,ias_ms,vapp_ms,spd_err_ms,agl_m,vs_ms,pitch_deg,aoa_deg,hdg_deg,bank_deg,thr_cmd,thr_cur,thr_intg,at_gain,at_tau_s,at_a_up,at_a_dn,at_kp_thr,at_ki_spd,at_thr_slew,as_cmd_deg,as_cap_deg,as_raw_deg,as_spd_err_ms,as_active,aa_hdg_cmd_deg,aa_fpa_cmd_deg,aa_fbw,aa_dir,actual_fpa_deg,ftf_hdg_err_deg,ftf_fix_idx,kos_steer_pit_deg,kos_steer_hdg_deg,aa_dir_vx,aa_dir_vy,aa_dir_vz,aa_dir_pitch_deg,aa_dir_hdg_deg,ils_loc_m,ils_gs_m,ils_dist_km,loc_corr_deg,gs_corr_deg,gs_latched,active_gs_ang_deg,ils_intercept_alt_m,d_gs_ms,fpa_preclamped_deg,gs_nom_alt_m,flare_fpa_cmd,flare_tgt_vs,flare_frac,steer_hdg_deg,steer_blend,ro_loc_corr_deg,ro_hdg_err_deg,ro_yaw_tgt,ro_yaw_scale,ro_yaw_gate,yaw_cmd,roll_cmd,pitch_cmd,ro_pitch_tgt_deg,ro_pitch_err_deg,ro_pitch_ff,ro_roll_assist,flaps_cur,flaps_tgt,asc_j_ab,asc_j_rk,asc_validity,asc_q_pa,asc_q_raw_pa,asc_mach,asc_apo_m,asc_drag_n,asc_w_prop,asc_edot_aero,asc_edot_orb,asc_pitch_bias,asc_blend,asc_spooling,asc_ab_thr_ratio,asc_ab_t_now,asc_ab_t_avail,asc_ab_ign_on,asc_ab_flameouts,asc_rk_t_now,asc_rk_t_avail,asc_rk_ign_on,asc_rk_flameouts,ship_thrust,ship_avail_thrust,ship_ign_on,ship_flameouts,ifc_raw_dt_s,ifc_dt_s,ifc_loop_n,ifc_hz_est,ifc_raw_dt_max_s,ifc_raw_dt_min_s,phase_el_s,status,craft_name,cfg_file
0.24,APPROACH,FLY_TO_FIX,143.84,70.14,-73.69,1426.3,-28.03,-11.49,-1.42,269.11,2.735,0,0,0,1,0.6,0.9,0.75,0.35,0.0168,0.4,4.5,32.861,32.861,73.652,1,280.81,5,1,0,-10.9,11.7,0,0,90,0,0,0,0,0,0,0,50.144,0,0,0,3,0,0,0,2702.21,0,0,0,269.09,0,0,0,0,0,0,0,0,0,0,0,0,0,0,0,0,0,VALID,0,0,0,0,0,1,0,0,0,0,0,0,0,0,0,0,0,0,0,0,35.09,338.34,2,0,0.18,0.18,1,3.23,0.18,0.02,0.24,FLYING,CF1-J,0:/Integrated Flight Computer/aircraft/cf1_j_cfg.ks (inferred preloaded)
0.56,APPROACH,FLY_TO_FIX,144.47,70.42,-74.06,1417.36,-29.3,-10.03,0.79,269.37,3.067,0,0,0,1,0.6,1.549,0.75,0.35,0.0168,0.4,13,32.658,32.658,74.057,1,280.84,5,0,0,-11.47,11.47,0,5,280.84,0,0,0,0,0,0,0,50.091,0,0,0,3,0,0,0,2699.43,0,0,0,269.09,0,0,0,0,0,0,0,0,0,0,0,0,0,0,0,0,0,VALID,0,0,0,0,0,1,0,0,0,0,0,0,0,0,0,0,0,0,0,0,32.4,338.48,2,0,0.1,0.1,4,9.38,0.18,0.1,0.58,FLYING,CF1-J,0:/Integrated Flight Computer/aircraft/cf1_j_cfg.ks (inferred preloaded)
0.88,APPROACH,FLY_TO_FIX,144.87,70.67,-74.2,1408.74,-26.78,-7.1,2.68,269.88,6.067,0,0,0,1,0.6,2.416,0.75,0.35,0.0168,0.4,21,32.54,32.54,74.196,1,280.87,5,0,0,-10.62,10.99,0,5,280.86,0,0,0,0,0,0,0,50.041,0,0,0,3,0,0,0,2696.81,0,0,0,269.09,0,0,0,0,0,0,0,0,0,0,0,0,0,0,0,0,0,VALID,0,0,0,0,0,1,0,0,0,0,0,0,0,0,0,0,0,0,0,0,29.92,338.72,2,0,0.1,0.1,7,9.38,0.12,0.1,0.9,FLYING,CF1-J,0:/Integrated Flight Computer/aircraft/cf1_j_cfg.ks (inferred preloaded)
1.18,APPROACH,FLY_TO_FIX,145.04,70.91,-74.13,1401.1,-24.8,-6.9,2.23,270.39,10.648,0,0,0,1,0.6,3.092,0.75,0.35,0.0168,0.4,28.5,32.488,32.488,74.129,1,280.9,5,0,0,-9.8,10.51,0,5,280.89,0,0,0,0,0,0,0,49.994,0,0,0,3,0,0,0,2694.35,0,0,0,269.09,0,0,0,0,0,0,0,0,0,0,0,0,0,0,0,0,0,VALID,0,0,0,0,0,1,0,0,0,0,0,0,0,0,0,0,0,0,0,0,27.78,338.99,2,0,0.1,0.1,10,10,0.12,0.08,1.2,FLYING,CF1-J,0:/Integrated Flight Computer/aircraft/cf1_j_cfg.ks (inferred preloaded)
1.5,APPROACH,FLY_TO_FIX,145.25,71.17,-74.08,1393.64,-22.65,-6.22,2.14,270.99,14.514,0,0,0,1,0.6,3.619,0.75,0.35,0.0168,0.4,32.425,32.425,32.425,74.083,1,280.92,5,0,0,-8.95,9.93,0,5,280.92,0,0,0,0,0,0,0,49.943,0,0,0,3,0,0,0,2691.71,0,0,0,269.09,0,0,0,0,0,0,0,0,0,0,0,0,0,0,0,0,0,VALID,0,0,0,0,0,1,0,0,0,0,0,0,0,0,0,0,0,0,0,0,25.65,339.24,2,0,0.1,0.1,13,9.38,0.12,0.1,1.52,FLYING,CF1-J,0:/Integrated Flight Computer/aircraft/cf1_j_cfg.ks (inferred preloaded)
1.8,APPROACH,FLY_TO_FIX,145.29,71.41,-73.89,1387.22,-20.84,-5.63,2.08,271.43,15.769,0,0,0,1,0.6,4.031,0.75,0.35,0.0168,0.4,32.412,32.412,32.412,73.886,1,280.95,5,0,0,-8.25,9.52,0,5,280.94,0,0,0,0,0,0,0,49.896,0,0,0,3,0,0,0,2689.23,0,0,0,269.09,0,0,0,0,0,0,0,0,0,0,0,0,0,0,0,0,0,VALID,0,0,0,0,0,1,0,0,0,0,0,0,0,0,0,0,0,0,0,0,23.81,339.51,2,0,0.1,0.1,16,10,0.12,0.08,1.82,FLYING,CF1-J,0:/Integrated Flight Computer/aircraft/cf1_j_cfg.ks (inferred preloaded)
2.1,APPROACH,FLY_TO_FIX,144.98,71.65,-73.33,1381.34,-19.11,-5.08,2,271.79,16.005,0,0,0,1,0.6,4.352,0.75,0.35,0.0168,0.4,32.507,32.507,32.507,73.327,1,280.97,5,0,0,-7.6,9.18,0,5,280.96,0,0,0,0,0,0,0,49.849,0,0,0,3,0,0,0,2686.76,0,0,0,269.09,0,0,0,0,0,0,0,0,0,0,0,0,0,0,0,0,0,VALID,0,0,0,0,0,1,0,0,0,0,0,0,0,0,0,0,0,0,0,0,22.11,339.91,2,0,0.1,0.1,19,10,0.12,0.08,2.12,FLYING,CF1-J,0:/Integrated Flight Computer/aircraft/cf1_j_cfg.ks (inferred preloaded)
2.4,APPROACH,FLY_TO_FIX,144.54,71.89,-72.65,1375.95,-17.51,-4.6,1.9,272.16,16.059,0,0,-7.268,1,0.6,4.5,0.75,0.35,0.0168,0.4,32.639,32.639,32.639,72.65,1,280.99,5,0,0,-6.98,8.83,0,5,280.99,0,0,0,0,0,0,0,49.802,0,0,0,3,0,0,0,2684.29,0,0,0,269.09,0,0,0,0,0,0,0,0,0,0,0,0,0,0,0,0,0,VALID,0,0,0,0,0,1,0,0,0,0,0,0,0,0,0,0,0,0,0,0,20.54,340.34,2,0,0.1,0.1,22,10,0.12,0.08,2.42,FLYING,CF1-J,0:/Integrated Flight Computer/aircraft/cf1_j_cfg.ks (inferred preloaded)
2.7,APPROACH,FLY_TO_FIX,144.06,72.13,-71.94,1371.05,-15.83,-4.02,1.86,272.6,16.057,0,0,-12.944,1,0.6,4.5,0.75,0.35,0.0168,0.4,32.781,32.781,32.781,71.935,1,281.02,4.655,0,0,-6.35,8.41,0,4.81,281.01,0,0,0,0,0,0,0,49.755,0,0,0,3,0,0,0,2681.82,0,0,0,269.09,0,0,0,0,0,0,0,0,0,0,0,0,0,0,0,0,0,VALID,0,0,0,0,0,1,0,0,0,0,0,0,0,0,0,0,0,0,0,0,19.08,340.76,2,0,0.1,0.1,25,10,0.12,0.08,2.72,FLYING,CF1-J,0:/Integrated Flight Computer/aircraft/cf1_j_cfg.ks (inferred preloaded)
3,APPROACH,FLY_TO_FIX,143.56,72.37,-71.19,1366.61,-14.38,-3.54,1.82,273.03,16.008,0,0,-18.504,1,0.6,4.5,0.75,0.35,0.0168,0.4,32.933,32.933,32.933,71.189,1,281.04,4.24,0,0,-5.8,8.01,0,4.39,281.03,0,0,0,0,0,0,0,49.708,0,0,0,3,0,0,0,2679.37,0,0,0,269.09,0,0,0,0,0,0,0,0,0,0,0,0,0,0,0,0,0,VALID,0,0,0,0,0,1,0,0,0,0,0,0,0,0,0,0,0,0,0,0,17.72,341.18,2,0,0.1,0.1,28,10,0.12,0.08,3.02,FLYING,CF1-J,0:/Integrated Flight Computer/aircraft/cf1_j_cfg.ks (inferred preloaded)
3.3,APPROACH,FLY_TO_FIX,143.03,72.61,-70.42,1362.56,-13.08,-3.24,1.67,273.4,15.875,0,0,-18.228,1,0.6,4.5,0.75,0.35,0.0168,0.4,33.092,33.092,33.092,70.418,1,281.06,3.866,0,0,-5.29,7.65,0,3.98,281.05,0,0,0,0,0,0,0,49.661,0,0,0,3,0,0,0,2676.92,0,0,0,269.09,0,0,0,0,0,0,0,0,0,0,0,0,0,0,0,0,0,VALID,0,0,0,0,0,1,0,0,0,0,0,0,0,0,0,0,0,0,0,0,16.45,341.6,2,0,0.1,0.1,31,10,0.12,0.08,3.32,FLYING,CF1-J,0:/Integrated Flight Computer/aircraft/cf1_j_cfg.ks (inferred preloaded)
3.6,APPROACH,FLY_TO_FIX,142.47,72.85,-69.63,1358.9,-11.82,-2.91,1.52,273.78,15.665,0,0,-17.956,1,0.6,4.5,0.876,0.35,0.0168,0.4,33.258,33.258,33.258,69.626,1,281.07,3.503,0,0,-4.8,7.29,0,3.61,281.07,0,0,0,0,0,0,0,49.615,0,0,0,3,0,0,0,2674.48,0,0,0,269.09,0,0,0,0,0,0,0,0,0,0,0,0,0,0,0,0,0,VALID,0,0,0,0,0,1,0,0,0,0,0,0,0,0,0,0,0,0,0,0,15.28,342.01,2,0,0.1,0.1,34,10,0.12,0.08,3.62,FLYING,CF1-J,0:/Integrated Flight Computer/aircraft/cf1_j_cfg.ks (inferred preloaded)
3.9,APPROACH,FLY_TO_FIX,141.9,73.09,-68.82,1355.58,-10.71,-2.55,1.48,274.17,15.392,0,0,-17.688,1,0.6,4.5,1.001,0.35,0.0168,0.4,33.429,33.429,33.429,68.817,1,281.09,3.189,0,0,-4.37,6.92,0,3.3,281.09,0,0,0,0,0,0,0,49.568,0,0,0,3,0,0,0,2672.05,0,0,0,269.09,0,0,0,0,0,0,0,0,0,0,0,0,0,0,0,0,0,VALID,0,0,0,0,0,1,0,0,0,0,0,0,0,0,0,0,0,0,0,0,14.19,342.41,2,0,0.1,0.1,37,10,0.12,0.08,3.92,FLYING,CF1-J,0:/Integrated Flight Computer/aircraft/cf1_j_cfg.ks (inferred preloaded)
4.2,APPROACH,FLY_TO_FIX,141.32,73.33,-67.99,1352.56,-9.78,-2.29,1.42,274.52,15.063,0,0,-17.424,1,0.6,4.5,1.121,0.35,0.0168,0.4,33.605,33.605,33.605,67.99,1,281.11,2.922,0,0,-4.01,6.59,0,3.01,281.1,0,0,0,0,0,0,0,49.522,0,0,0,3,0,0,0,2669.62,0,0,0,269.09,0,0,0,0,0,0,0,0,0,0,0,0,0,0,0,0,0,VALID,0,0,0,0,0,1,0,0,0,0,0,0,0,0,0,0,0,0,0,0,13.18,342.81,2,0,0.1,0.1,40,10,0.12,0.08,4.22,FLYING,CF1-J,0:/Integrated Flight Computer/aircraft/cf1_j_cfg.ks (inferred preloaded)
4.5,APPROACH,FLY_TO_FIX,140.71,73.57,-67.14,1349.81,-8.9,-2.09,1.28,274.84,14.686,0,0,-17.164,1,0.6,4.5,1.236,0.35,0.0168,0.4,33.787,33.787,33.787,67.143,1,281.12,2.664,0,0,-3.65,6.28,0,2.74,281.12,0,0,0,0,0,0,0,49.476,0,0,0,3,0,0,0,2667.21,0,0,0,269.09,0,0,0,0,0,0,0,0,0,0,0,0,0,0,0,0,0,VALID,0,0,0,0,0,1,0,0,0,0,0,0,0,0,0,0,0,0,0,0,12.24,343.21,2,0,0.1,0.1,43,10,0.12,0.08,4.52,FLYING,CF1-J,0:/Integrated Flight Computer/aircraft/cf1_j_cfg.ks (inferred preloaded)
4.8,APPROACH,FLY_TO_FIX,140.09,73.81,-66.28,1347.31,-8.07,-1.83,1.23,275.18,14.274,0,0,-16.907,1,0.6,4.5,1.346,0.35,0.0168,0.4,33.974,33.974,33.974,66.279,1,281.14,2.427,0,0,-3.33,5.96,0,2.51,281.13,0,0,0,0,0,0,0,49.43,0,0,0,3,0,0,0,2664.81,0,0,0,269.09,0,0,0,0,0,0,0,0,0,0,0,0,0,0,0,0,0,VALID,0,0,0,0,0,1,0,0,0,0,0,0,0,0,0,0,0,0,0,0,11.36,343.6,2,0,0.1,0.1,46,10,0.12,0.08,4.82,FLYING,CF1-J,0:/Integrated Flight Computer/aircraft/cf1_j_cfg.ks (inferred preloaded)
5.1,APPROACH,FLY_TO_FIX,139.45,74.05,-65.4,1345.04,-7.36,-1.58,1.23,275.5,13.833,0,0,-16.655,1,0.6,4.5,1.451,0.35,0.0168,0.4,34.166,34.166,34.166,65.398,1,281.15,2.228,0,0,-3.06,5.65,0,2.31,281.15,0,0,0,0,0,0,0,49.385,0,0,0,3,0,0,0,2662.43,0,0,0,269.09,0,0,0,0,0,0,0,0,0,0,0,0,0,0,0,0,0,VALID,0,0,0,0,0,1,0,0,0,0,0,0,0,0,0,0,0,0,0,0,10.55,344,2,0,0.1,0.1,49,10,0.12,0.08,5.12,FLYING,CF1-J,0:/Integrated Flight Computer/aircraft/cf1_j_cfg.ks (inferred preloaded)
5.4,APPROACH,FLY_TO_FIX,138.78,74.29,-64.5,1342.96,-6.73,-1.42,1.16,275.79,13.369,0,0,-16.406,1,0.6,4.5,1.553,0.35,0.0168,0.4,34.365,34.365,34.365,64.496,1,281.17,2.048,0,0,-2.81,5.37,0,2.11,281.16,0,0,0,0,0,0,0,49.339,0,0,0,3,0,0,0,2660.05,0,0,0,269.09,0,0,0,0,0,0,0,0,0,0,0,0,0,0,0,0,0,VALID,0,0,0,0,0,1,0,0,0,0,0,0,0,0,0,0,0,0,0,0,9.8,344.4,2,0,0.1,0.1,52,10,0.12,0.08,5.42,FLYING,CF1-J,0:/Integrated Flight Computer/aircraft/cf1_j_cfg.ks (inferred preloaded)
5.72,APPROACH,FLY_TO_FIX,138.06,74.54,-63.52,1340.95,-6.11,-1.23,1.12,276.1,12.853,0,0,-16.162,1,0.6,4.5,1.65,0.35,0.0168,0.4,34.582,34.582,34.582,63.516,1,281.18,1.869,0,0,-2.56,5.08,0,1.92,281.17,0,0,0,0,0,0,0,49.291,0,0,0,3,0,0,0,2657.53,0,0,0,269.09,0,0,0,0,0,0,0,0,0,0,0,0,0,0,0,0,0,VALID,0,0,0,0,0,1,0,0,0,0,0,0,0,0,0,0,0,0,0,0,9.06,344.83,2,0,0.1,0.1,55,9.38,0.12,0.1,5.74,FLYING,CF1-J,0:/Integrated Flight Computer/aircraft/cf1_j_cfg.ks (inferred preloaded)
6.06,APPROACH,FLY_TO_FIX,137.27,74.82,-62.45,1339.01,-5.52,-1.04,1.09,276.41,12.29,0,0,-15.92,1,0.6,4.5,1.744,0.35,0.0168,0.4,34.82,34.82,34.82,62.451,1,281.19,1.702,0,0,-2.33,4.78,0,1.76,281.19,0,0,0,0,0,0,0,49.24,0,0,0,3,0,0,0,2654.86,0,0,0,269.09,0,0,0,0,0,0,0,0,0,0,0,0,0,0,0,0,0,VALID,0,0,0,0,0,1,0,0,0,0,0,0,0,0,0,0,0,0,0,0,8.33,345.29,2,0,0.12,0.12,58,8.82,0.12,0.1,6.08,FLYING,CF1-J,0:/Integrated Flight Computer/aircraft/cf1_j_cfg.ks (inferred preloaded)
6.38,APPROACH,FLY_TO_FIX,136.5,75.07,-61.43,1337.35,-5.02,-0.88,1.08,276.69,11.752,0,0,-15.683,1,0.6,4.5,1.836,0.35,0.0168,0.4,35.049,35.049,35.049,61.43,1,281.2,1.56,0,0,-2.13,4.52,0,1.6,281.2,0,0,0,0,0,0,0,49.193,0,0,0,3,0,0,0,2652.37,0,0,0,269.09,0,0,0,0,0,0,0,0,0,0,0,0,0,0,0,0,0,VALID,0,0,0,0,0,1,0,0,0,0,0,0,0,0,0,0,0,0,0,0,7.69,345.73,2,0,0.1,0.1,61,9.38,0.12,0.1,6.4,FLYING,CF1-J,0:/Integrated Flight Computer/aircraft/cf1_j_cfg.ks (inferred preloaded)
6.7,APPROACH,FLY_TO_FIX,135.72,75.33,-60.39,1335.85,-4.57,-0.72,1.07,276.95,11.211,0,0,-15.449,1,0.6,4.5,1.924,0.35,0.0168,0.4,35.285,35.285,35.285,60.388,1,281.21,1.432,0,0,-1.95,4.26,0,1.47,281.21,0,0,0,0,0,0,0,49.145,0,0,0,3,0,0,0,2649.89,0,0,0,269.09,0,0,0,0,0,0,0,0,0,0,0,0,0,0,0,0,0,VALID,0,0,0,0,0,1,0,0,0,0,0,0,0,0,0,0,0,0,0,0,7.11,346.17,2,0,0.1,0.1,64,9.38,0.12,0.1,6.72,FLYING,CF1-J,0:/Integrated Flight Computer/aircraft/cf1_j_cfg.ks (inferred preloaded)
7.02,APPROACH,FLY_TO_FIX,134.91,75.58,-59.32,1334.48,-4.17,-0.58,1.06,277.2,10.674,0,0,-15.218,1,0.6,4.5,2.011,0.35,0.0168,0.4,35.528,35.528,35.528,59.324,1,281.23,1.316,0,0,-1.79,4.02,0,1.35,281.22,0,0,0,0,0,0,0,49.098,0,0,0,3,0,0,0,2647.43,0,0,0,269.09,0,0,0,0,0,0,0,0,0,0,0,0,0,0,0,0,0,VALID,0,0,0,0,0,1,0,0,0,0,0,0,0,0,0,0,0,0,0,0,6.57,346.63,2,0,0.1,0.1,67,9.38,0.12,0.1,7.04,FLYING,CF1-J,0:/Integrated Flight Computer/aircraft/cf1_j_cfg.ks (inferred preloaded)
7.34,APPROACH,FLY_TO_FIX,134.08,75.84,-58.24,1333.23,-3.8,-0.44,1.07,277.44,10.145,0,0,-14.991,1,0.6,4.5,2.096,0.35,0.0168,0.4,35.776,35.776,35.776,58.24,1,281.23,1.212,0,0,-1.64,3.79,0,1.25,281.23,0,0,0,0,0,0,0,49.052,0,0,0,3,0,0,0,2644.99,0,0,0,269.09,0,0,0,0,0,0,0,0,0,0,0,0,0,0,0,0,0,VALID,0,0,0,0,0,1,0,0,0,0,0,0,0,0,0,0,0,0,0,0,6.07,347.09,2,0,0.1,0.1,70,9.38,0.12,0.1,7.36,FLYING,CF1-J,0:/Integrated Flight Computer/aircraft/cf1_j_cfg.ks (inferred preloaded)
7.66,APPROACH,FLY_TO_FIX,133.23,76.1,-57.14,1332.09,-3.47,-0.31,1.07,277.67,9.625,0,0,-14.767,1,0.6,4.5,2.18,0.35,0.0168,0.4,36.03,36.03,36.03,57.137,1,281.24,1.118,0,0,-1.51,3.58,0,1.15,281.24,0,0,0,0,0,0,0,49.005,0,0,0,3,0,0,0,2642.56,0,0,0,269.09,0,0,0,0,0,0,0,0,0,0,0,0,0,0,0,0,0,VALID,0,0,0,0,0,1,0,0,0,0,0,0,0,0,0,0,0,0,0,0,5.61,347.56,2,0,0.1,0.1,73,9.38,0.12,0.1,7.68,FLYING,CF1-J,0:/Integrated Flight Computer/aircraft/cf1_j_cfg.ks (inferred preloaded)
7.98,APPROACH,FLY_TO_FIX,132.37,76.35,-56.02,1331.05,-3.17,-0.18,1.09,277.88,9.117,0,0,-14.547,1,0.6,4.5,2.261,0.35,0.0168,0.4,36.289,36.289,36.289,56.017,1,281.25,1.032,0,0,-1.39,3.37,0,1.06,281.25,0,0,0,0,0,0,0,48.959,0,0,0,3,0,0,0,2640.14,0,0,0,269.09,0,0,0,0,0,0,0,0,0,0,0,0,0,0,0,0,0,VALID,0,0,0,0,0,1,0,0,0,0,0,0,0,0,0,0,0,0,0,0,5.19,348.03,2,0,0.1,0.1,76,9.38,0.12,0.1,8,FLYING,CF1-J,0:/Integrated Flight Computer/aircraft/cf1_j_cfg.ks (inferred preloaded)
8.3,APPROACH,FLY_TO_FIX,131.48,76.61,-54.88,1330.1,-2.9,-0.06,1.1,278.08,8.622,0,0,-14.33,1,0.6,4.5,2.34,0.35,0.0168,0.4,36.555,36.555,36.555,54.877,1,281.26,0.954,0,0,-1.27,3.18,0,0.98,281.26,0,0,0,0,0,0,0,48.914,0,0,0,3,0,0,0,2637.75,0,0,0,269.09,0,0,0,0,0,0,0,0,0,0,0,0,0,0,0,0,0,VALID,0,0,0,0,0,1,0,0,0,0,0,0,0,0,0,0,0,0,0,0,4.79,348.52,2,0,0.1,0.1,79,9.38,0.12,0.1,8.32,FLYING,CF1-J,0:/Integrated Flight Computer/aircraft/cf1_j_cfg.ks (inferred preloaded)
8.62,APPROACH,FLY_TO_FIX,130.58,76.86,-53.72,1329.24,-2.65,0.05,1.13,278.28,8.142,0,0,-14.116,1,0.6,4.5,2.418,0.35,0.0168,0.4,36.826,36.826,36.826,53.716,1,281.27,0.884,0,0,-1.17,2.99,0,0.91,281.27,0,0,0,0,0,0,0,48.868,0,0,0,3,0,0,0,2635.37,0,0,0,269.09,0,0,0,0,0,0,0,0,0,0,0,0,0,0,0,0,0,VALID,0,0,0,0,0,1,0,0,0,0,0,0,0,0,0,0,0,0,0,0,4.43,349.02,2,0,0.1,0.1,82,9.38,0.12,0.1,8.64,FLYING,CF1-J,0:/Integrated Flight Computer/aircraft/cf1_j_cfg.ks (inferred preloaded)
8.94,APPROACH,FLY_TO_FIX,129.66,77.12,-52.54,1328.44,-2.43,0.16,1.16,278.46,7.68,0,0,-13.905,1,0.6,4.5,2.494,0.35,0.0168,0.4,37.101,37.101,37.101,52.544,1,281.28,0.821,0,0,-1.08,2.82,0,0.84,281.27,0,0,0,0,0,0,0,48.823,0,0,0,3,0,0,0,2633,0,0,0,269.09,0,0,0,0,0,0,0,0,0,0,0,0,0,0,0,0,0,VALID,0,0,0,0,0,1,0,0,0,0,0,0,0,0,0,0,0,0,0,0,4.1,349.52,2,0,0.1,0.1,85,9.38,0.12,0.1,8.96,FLYING,CF1-J,0:/Integrated Flight Computer/aircraft/cf1_j_cfg.ks (inferred preloaded)
9.26,APPROACH,FLY_TO_FIX,128.73,77.38,-51.35,1327.72,-2.22,0.27,1.19,278.63,7.236,0,0,-13.698,1,0.6,4.5,2.567,0.35,0.0168,0.4,37.381,37.381,37.381,51.354,1,281.28,0.763,0,0,-1,2.65,0,0.78,281.28,0,0,0,0,0,0,0,48.778,0,0,0,3,0,0,0,2630.66,0,0,0,269.09,0,0,0,0,0,0,0,0,0,0,0,0,0,0,0,0,0,VALID,0,0,0,0,0,1,0,0,0,0,0,0,0,0,0,0,0,0,0,0,3.79,350.04,2,0,0.1,0.1,88,9.38,0.12,0.1,9.28,FLYING,CF1-J,0:/Integrated Flight Computer/aircraft/cf1_j_cfg.ks (inferred preloaded)
9.58,APPROACH,FLY_TO_FIX,127.78,77.63,-50.15,1327.06,-2.04,0.38,1.22,278.79,6.81,0,0,-13.493,1,0.6,4.5,2.639,0.35,0.0168,0.4,37.666,37.666,37.666,50.147,1,281.29,0.711,0,0,-0.92,2.5,0,0.73,281.29,0,0,0,0,0,0,0,48.734,0,0,0,3,0,0,0,2628.33,0,0,0,269.09,0,0,0,0,0,0,0,0,0,0,0,0,0,0,0,0,0,VALID,0,0,0,0,0,1,0,0,0,0,0,0,0,0,0,0,0,0,0,0,3.5,350.56,2,0,0.1,0.1,91,9.38,0.12,0.1,9.6,FLYING,CF1-J,0:/Integrated Flight Computer/aircraft/cf1_j_cfg.ks (inferred preloaded)
9.9,APPROACH,FLY_TO_FIX,126.81,77.89,-48.92,1326.45,-1.87,0.48,1.27,278.95,6.404,0,0,-13.292,1,0.6,4.5,2.709,0.35,0.0168,0.4,37.956,37.956,37.956,48.925,1,281.29,0.664,0,0,-0.85,2.35,0,0.68,281.29,0,0,0,0,0,0,0,48.69,0,0,0,3,0,0,0,2626.02,0,0,0,269.09,0,0,0,0,0,0,0,0,0,0,0,0,0,0,0,0,0,VALID,0,0,0,0,0,1,0,0,0,0,0,0,0,0,0,0,0,0,0,0,3.23,351.1,2,0,0.1,0.1,94,9.38,0.12,0.1,9.92,FLYING,CF1-J,0:/Integrated Flight Computer/aircraft/cf1_j_cfg.ks (inferred preloaded)
10.22,APPROACH,FLY_TO_FIX,125.83,78.14,-47.69,1325.89,-1.72,0.58,1.31,279.09,6.016,0,0,-13.093,1,0.6,4.5,2.777,0.35,0.0168,0.4,38.25,38.25,38.25,47.689,1,281.3,0.621,0,0,-0.79,2.21,0,0.63,281.3,0,0,0,0,0,0,0,48.646,0,0,0,3,0,0,0,2623.73,0,0,0,269.09,0,0,0,0,0,0,0,0,0,0,0,0,0,0,0,0,0,VALID,0,0,0,0,0,1,0,0,0,0,0,0,0,0,0,0,0,0,0,0,2.99,351.64,2,0,0.1,0.1,97,9.38,0.12,0.1,10.24,FLYING,CF1-J,0:/Integrated Flight Computer/aircraft/cf1_j_cfg.ks (inferred preloaded)
10.54,APPROACH,FLY_TO_FIX,124.84,78.4,-46.44,1325.38,-1.58,0.69,1.36,279.23,5.647,0,0,-12.898,1,0.6,4.5,2.842,0.35,0.0168,0.4,38.547,38.547,38.547,46.443,1,281.31,0.582,0,0,-0.73,2.08,0,0.59,281.3,0,0,0,0,0,0,0,48.603,0,0,0,3,0,0,0,2621.45,0,0,0,269.09,0,0,0,0,0,0,0,0,0,0,0,0,0,0,0,0,0,VALID,0,0,0,0,0,1,0,0,0,0,0,0,0,0,0,0,0,0,0,0,2.76,352.19,2,0,0.1,0.1,100,9.38,0.12,0.1,10.56,FLYING,CF1-J,0:/Integrated Flight Computer/aircraft/cf1_j_cfg.ks (inferred preloaded)
10.86,APPROACH,FLY_TO_FIX,123.84,78.66,-45.19,1324.91,-1.46,0.79,1.41,279.35,5.296,0,0,-12.706,1,0.6,4.5,2.905,0.35,0.0168,0.4,38.847,38.847,38.847,45.186,1,281.31,0.546,0,0,-0.68,1.96,0,0.56,281.31,0,0,0,0,0,0,0,48.56,0,0,0,3,0,0,0,2619.2,0,0,0,269.09,0,0,0,0,0,0,0,0,0,0,0,0,0,0,0,0,0,VALID,0,0,0,0,0,1,0,0,0,0,0,0,0,0,0,0,0,0,0,0,2.55,352.75,2,0,0.1,0.1,103,9.38,0.12,0.1,10.88,FLYING,CF1-J,0:/Integrated Flight Computer/aircraft/cf1_j_cfg.ks (inferred preloaded)
11.18,APPROACH,FLY_TO_FIX,122.83,78.91,-43.92,1324.48,-1.34,0.89,1.47,279.47,4.964,0,0,-12.516,1,0.6,4.5,2.965,0.35,0.0168,0.4,39.151,39.151,39.151,43.919,1,281.31,0.514,0,0,-0.63,1.84,0,0.53,281.31,0,0,0,0,0,0,0,48.517,0,0,0,3,0,0,0,2616.96,0,0,0,269.09,0,0,0,0,0,0,0,0,0,0,0,0,0,0,0,0,0,VALID,0,0,0,0,0,1,0,0,0,0,0,0,0,0,0,0,0,0,0,0,2.36,353.32,2,0,0.1,0.1,106,9.38,0.12,0.1,11.2,FLYING,CF1-J,0:/Integrated Flight Computer/aircraft/cf1_j_cfg.ks (inferred preloaded)
11.5,APPROACH,FLY_TO_FIX,121.81,79.17,-42.64,1324.09,-1.24,0.98,1.53,279.59,4.648,0,0,-12.329,1,0.6,4.5,3.022,0.35,0.0168,0.4,39.457,39.457,39.457,42.642,1,281.32,0.485,0,0,-0.59,1.73,0,0.5,281.32,0,0,0,0,0,0,0,48.475,0,0,0,3,0,0,0,2614.74,0,0,0,269.09,0,0,0,0,0,0,0,0,0,0,0,0,0,0,0,0,0,VALID,0,0,0,0,0,1,0,0,0,0,0,0,0,0,0,0,0,0,0,0,2.18,353.9,2,0,0.1,0.1,109,9.38,0.12,0.1,11.52,FLYING,CF1-J,0:/Integrated Flight Computer/aircraft/cf1_j_cfg.ks (inferred preloaded)
11.82,APPROACH,FLY_TO_FIX,120.78,79.42,-41.36,1323.72,-1.15,1.08,1.59,279.69,4.35,0,0,-12.145,1,0.6,4.5,3.076,0.35,0.0168,0.4,39.766,39.766,39.766,41.357,1,281.32,0.458,0,0,-0.55,1.63,0,0.47,281.32,0,0,0,0,0,0,0,48.433,0,0,0,3,0,0,0,2612.54,0,0,0,269.09,0,0,0,0,0,0,0,0,0,0,0,0,0,0,0,0,0,VALID,0,0,0,0,0,1,0,0,0,0,0,0,0,0,0,0,0,0,0,0,2.02,354.49,2,0,0.1,0.1,112,9.38,0.12,0.1,11.84,FLYING,CF1-J,0:/Integrated Flight Computer/aircraft/cf1_j_cfg.ks (inferred preloaded)
12.14,APPROACH,FLY_TO_FIX,119.75,79.68,-40.07,1323.38,-1.06,1.18,1.65,279.8,4.068,0,0,-11.964,1,0.6,4.5,3.127,0.35,0.0168,0.4,40.076,40.076,40.076,40.068,1,281.33,0.434,0,0,-0.51,1.53,0,0.44,281.33,0,0,0,0,0,0,0,48.391,0,0,0,3,0,0,0,2610.36,0,0,0,269.09,0,0,0,0,0,0,0,0,0,0,0,0,0,0,0,0,0,VALID,0,0,0,0,0,1,0,0,0,0,0,0,0,0,0,0,0,0,0,0,1.87,355.08,2,0,0.1,0.1,115,9.38,0.12,0.1,12.16,FLYING,CF1-J,0:/Integrated Flight Computer/aircraft/cf1_j_cfg.ks (inferred preloaded)
12.48,APPROACH,FLY_TO_FIX,118.64,79.95,-38.69,1323.06,-0.98,1.29,1.73,279.9,3.788,0,0,-11.785,1,0.6,4.5,3.175,0.35,0.0168,0.4,40.407,40.407,40.407,38.693,1,281.33,0.411,0,0,-0.48,1.43,0,0.42,281.33,0,0,0,0,0,0,0,48.347,0,0,0,3,0,0,0,2608.07,0,0,0,269.09,0,0,0,0,0,0,0,0,0,0,0,0,0,0,0,0,0,VALID,0,0,0,0,0,1,0,0,0,0,0,0,0,0,0,0,0,0,0,0,1.72,355.71,2,0,0.12,0.12,118,8.82,0.12,0.1,12.5,FLYING,CF1-J,0:/Integrated Flight Computer/aircraft/cf1_j_cfg.ks (inferred preloaded)
12.8,APPROACH,FLY_TO_FIX,117.6,80.21,-37.4,1322.77,-0.91,1.39,1.8,279.98,3.539,0,0,-11.609,1,0.6,4.5,3.219,0.35,0.0168,0.4,40.719,40.719,40.719,37.397,1,281.33,0.391,0,0,-0.45,1.35,0,0.4,281.33,0,0,0,0,0,0,0,48.306,0,0,0,3,0,0,0,2605.92,0,0,0,269.09,0,0,0,0,0,0,0,0,0,0,0,0,0,0,0,0,0,VALID,0,0,0,0,0,1,0,0,0,0,0,0,0,0,0,0,0,0,0,0,1.59,356.31,2,0,0.1,0.1,121,9.38,0.12,0.1,12.82,FLYING,CF1-J,0:/Integrated Flight Computer/aircraft/cf1_j_cfg.ks (inferred preloaded)
13.12,APPROACH,FLY_TO_FIX,116.56,80.46,-36.1,1322.51,-0.84,1.49,1.88,280.07,3.305,0,0,-11.436,1,0.6,4.5,3.259,0.35,0.0168,0.4,41.031,41.031,41.031,36.1,1,281.34,0.373,0,0,-0.42,1.27,0,0.38,281.34,0,0,0,0,0,0,0,48.266,0,0,0,3,0,0,0,2603.8,0,0,0,269.09,0,0,0,0,0,0,0,0,0,0,0,0,0,0,0,0,0,VALID,0,0,0,0,0,1,0,0,0,0,0,0,0,0,0,0,0,0,0,0,1.47,356.92,2,0,0.1,0.1,124,9.38,0.12,0.1,13.14,FLYING,CF1-J,0:/Integrated Flight Computer/aircraft/cf1_j_cfg.ks (inferred preloaded)
13.44,APPROACH,FLY_TO_FIX,115.52,80.72,-34.8,1322.26,-0.79,1.6,1.96,280.15,3.087,0,0,-11.265,1,0.6,4.5,3.295,0.35,0.0168,0.4,41.343,41.343,41.343,34.803,1,281.34,0.357,0,0,-0.39,1.19,0,0.36,281.34,0,0,0,0,0,0,0,48.226,0,0,0,3,0,0,0,2601.7,0,0,0,269.09,0,0,0,0,0,0,0,0,0,0,0,0,0,0,0,0,0,VALID,0,0,0,0,0,1,0,0,0,0,0,0,0,0,0,0,0,0,0,0,1.36,357.52,2,0,0.1,0.1,127,9.38,0.12,0.1,13.46,FLYING,CF1-J,0:/Integrated Flight Computer/aircraft/cf1_j_cfg.ks (inferred preloaded)
13.76,APPROACH,FLY_TO_FIX,114.48,80.98,-33.51,1322.04,-0.73,1.7,2.04,280.22,2.881,0,0,-11.097,1,0.6,4.5,3.328,0.35,0.0168,0.4,41.656,41.656,41.656,33.506,1,281.34,0.342,0,0,-0.37,1.12,0,0.35,281.34,0,0,0,0,0,0,0,48.186,0,0,0,3,0,0,0,2599.61,0,0,0,269.09,0,0,0,0,0,0,0,0,0,0,0,0,0,0,0,0,0,VALID,0,0,0,0,0,1,0,0,0,0,0,0,0,0,0,0,0,0,0,0,1.25,358.14,2,0,0.1,0.1,130,9.38,0.12,0.1,13.78,FLYING,CF1-J,0:/Integrated Flight Computer/aircraft/cf1_j_cfg.ks (inferred preloaded)
14.08,APPROACH,FLY_TO_FIX,113.44,81.23,-32.21,1321.83,-0.68,1.81,2.13,280.29,2.69,0,0,-10.932,1,0.6,4.5,3.356,0.35,0.0168,0.4,41.968,41.968,41.968,32.209,1,281.34,0.329,0,0,-0.35,1.06,0,0.33,281.34,0,0,0,0,0,0,0,48.147,0,0,0,3,0,0,0,2597.55,0,0,0,269.09,0,0,0,0,0,0,0,0,0,0,0,0,0,0,0,0,0,VALID,0,0,0,0,0,1,0,0,0,0,0,0,0,0,0,0,0,0,0,0,1.16,358.75,2,0,0.1,0.1,133,9.38,0.12,0.1,14.1,FLYING,CF1-J,0:/Integrated Flight Computer/aircraft/cf1_j_cfg.ks (inferred preloaded)
14.4,APPROACH,FLY_TO_FIX,112.4,81.49,-30.92,1321.63,-0.64,1.91,2.22,280.35,2.51,0,0,-10.768,1,0.6,4.5,3.381,0.35,0.0168,0.4,42.279,42.279,42.279,30.916,1,281.35,0.316,0,0,-0.33,1,0,0.32,281.35,0,0,0,0,0,0,0,48.108,0,0,0,3,0,0,0,2595.5,0,0,0,269.09,0,0,0,0,0,0,0,0,0,0,0,0,0,0,0,0,0,VALID,0,0,0,0,0,1,0,0,0,0,0,0,0,0,0,0,0,0,0,0,1.07,359.36,2,0,0.1,0.1,136,9.38,0.12,0.1,14.42,FLYING,CF1-J,0:/Integrated Flight Computer/aircraft/cf1_j_cfg.ks (inferred preloaded)
14.72,APPROACH,FLY_TO_FIX,111.37,81.74,-29.63,1321.45,-0.6,2.02,2.31,280.41,2.343,0,0,-10.608,1,0.6,4.5,3.402,0.35,0.0168,0.4,42.588,42.588,42.588,29.628,1,281.35,0.305,0,0,-0.31,0.94,0,0.31,281.35,0,0,0,0,0,0,0,48.069,0,0,0,3,0,0,0,2593.47,0,0,0,269.09,0,0,0,0,0,0,0,0,0,0,0,0,0,0,0,0,0,VALID,0,0,0,0,0,1,0,0,0,0,0,0,0,0,0,0,0,0,0,0,0.99,359.98,2,0,0.1,0.1,139,9.38,0.12,0.1,14.74,FLYING,CF1-J,0:/Integrated Flight Computer/aircraft/cf1_j_cfg.ks (inferred preloaded)
15.04,APPROACH,FLY_TO_FIX,110.35,82,-28.35,1321.29,-0.56,2.13,2.4,280.47,2.186,0,0,-10.449,1,0.6,4.5,3.419,0.35,0.0168,0.4,42.896,42.896,42.896,28.347,1,281.35,0.294,0,0,-0.29,0.88,0,0.3,281.35,0,0,0,0,0,0,0,48.03,0,0,0,3,0,0,0,2591.46,0,0,0,269.09,0,0,0,0,0,0,0,0,0,0,0,0,0,0,0,0,0,VALID,0,0,0,0,0,1,0,0,0,0,0,0,0,0,0,0,0,0,0,0,0.92,360.59,2,0,0.1,0.1,142,9.38,0.12,0.1,15.06,FLYING,CF1-J,0:/Integrated Flight Computer/aircraft/cf1_j_cfg.ks (inferred preloaded)
15.36,APPROACH,FLY_TO_FIX,109.33,82.26,-27.07,1321.13,-0.53,2.24,2.5,280.52,2.04,0,0,-10.293,1,0.6,4.5,3.432,0.35,0.0168,0.4,43.202,43.202,43.202,27.072,1,281.35,0.285,0,0,-0.28,0.83,0,0.29,281.35,0,0,0,0,0,0,0,47.992,0,0,0,3,0,0,0,2589.47,0,0,0,269.09,0,0,0,0,0,0,0,0,0,0,0,0,0,0,0,0,0,VALID,0,0,0,0,0,1,0,0,0,0,0,0,0,0,0,0,0,0,0,0,0.85,361.21,2,0,0.1,0.1,145,9.38,0.12,0.1,15.38,FLYING,CF1-J,0:/Integrated Flight Computer/aircraft/cf1_j_cfg.ks (inferred preloaded)
15.68,APPROACH,FLY_TO_FIX,108.32,82.51,-25.8,1320.98,-0.5,2.35,2.6,280.57,1.903,0,0,-10.14,1,0.6,4.5,3.441,0.35,0.0168,0.4,43.505,43.505,43.505,25.803,1,281.36,0.275,0,0,-0.26,0.78,0,0.28,281.35,0,0,0,0,0,0,0,47.955,0,0,0,3,0,0,0,2587.49,0,0,0,269.09,0,0,0,0,0,0,0,0,0,0,0,0,0,0,0,0,0,VALID,0,0,0,0,0,1,0,0,0,0,0,0,0,0,0,0,0,0,0,0,0.78,361.82,2,0,0.1,0.1,148,9.38,0.12,0.1,15.7,FLYING,CF1-J,0:/Integrated Flight Computer/aircraft/cf1_j_cfg.ks (inferred preloaded)
16,APPROACH,FLY_TO_FIX,107.31,82.77,-24.54,1320.85,-0.46,2.47,2.7,280.62,1.776,0,0,-9.989,1,0.6,4.5,3.446,0.35,0.0168,0.4,43.807,43.807,43.807,24.541,1,281.36,0.266,0,0,-0.25,0.74,0,0.27,281.36,0,0,0,0,0,0,0,47.917,0,0,0,3,0,0,0,2585.54,0,0,0,269.09,0,0,0,0,0,0,0,0,0,0,0,0,0,0,0,0,0,VALID,0,0,0,0,0,1,0,0,0,0,0,0,0,0,0,0,0,0,0,0,0.72,362.43,2,0,0.1,0.1,151,9.38,0.12,0.1,16.02,FLYING,CF1-J,0:/Integrated Flight Computer/aircraft/cf1_j_cfg.ks (inferred preloaded)
16.32,APPROACH,FLY_TO_FIX,106.31,83.02,-23.29,1320.73,-0.43,2.58,2.8,280.66,1.657,0,0,-9.839,1,0.6,4.5,3.448,0.35,0.0168,0.4,44.107,44.107,44.107,23.286,1,281.36,0.258,0,0,-0.23,0.7,0,0.26,281.36,0,0,0,0,0,0,0,47.88,0,0,0,3,0,0,0,2583.6,0,0,0,269.09,0,0,0,0,0,0,0,0,0,0,0,0,0,0,0,0,0,VALID,0,0,0,0,0,1,0,0,0,0,0,0,0,0,0,0,0,0,0,0,0.67,363.04,2,0,0.1,0.1,154,9.38,0.12,0.1,16.34,FLYING,CF1-J,0:/Integrated Flight Computer/aircraft/cf1_j_cfg.ks (inferred preloaded)
16.64,APPROACH,FLY_TO_FIX,105.32,83.28,-22.04,1320.61,-0.41,2.7,2.91,280.7,1.546,0,0,-9.693,1,0.6,4.5,3.448,0.35,0.0168,0.4,44.405,44.405,44.405,22.037,1,281.36,0.251,0,0,-0.22,0.66,0,0.25,281.36,0,0,0,0,0,0,0,47.844,0,0,0,3,0,0,0,2581.68,0,0,0,269.09,0,0,0,0,0,0,0,0,0,0,0,0,0,0,0,0,0,VALID,0,0,0,0,0,1,0,0,0,0,0,0,0,0,0,0,0,0,0,0,0.62,363.64,2,0,0.1,0.1,157,9.38,0.12,0.1,16.66,FLYING,CF1-J,0:/Integrated Flight Computer/aircraft/cf1_j_cfg.ks (inferred preloaded)
16.96,APPROACH,FLY_TO_FIX,104.33,83.54,-20.79,1320.5,-0.38,2.82,3.02,280.74,1.443,0,0,-9.548,1,0.6,4.5,3.445,0.35,0.0168,0.4,44.701,44.701,44.701,20.795,1,281.36,0.244,0,0,-0.21,0.62,0,0.25,281.36,0,0,0,0,0,0,0,47.808,0,0,0,3,0,0,0,2579.78,0,0,0,269.09,0,0,0,0,0,0,0,0,0,0,0,0,0,0,0,0,0,VALID,0,0,0,0,0,1,0,0,0,0,0,0,0,0,0,0,0,0,0,0,0.57,364.25,2,0,0.1,0.1,160,9.38,0.12,0.1,16.98,FLYING,CF1-J,0:/Integrated Flight Computer/aircraft/cf1_j_cfg.ks (inferred preloaded)
17.28,APPROACH,FLY_TO_FIX,103.35,83.79,-19.56,1320.41,-0.36,2.94,3.13,280.78,1.347,0,0,-9.405,1,0.6,4.5,3.439,0.35,0.0168,0.4,44.995,44.995,44.995,19.559,1,281.36,0.238,0,0,-0.2,0.58,0,0.24,281.36,0,0,0,0,0,0,0,47.772,0,0,0,3,0,0,0,2577.89,0,0,0,269.09,0,0,0,0,0,0,0,0,0,0,0,0,0,0,0,0,0,VALID,0,0,0,0,0,1,0,0,0,0,0,0,0,0,0,0,0,0,0,0,0.53,364.85,2,0,0.1,0.1,163,9.38,0.12,0.1,17.3,FLYING,CF1-J,0:/Integrated Flight Computer/aircraft/cf1_j_cfg.ks (inferred preloaded)
17.6,APPROACH,FLY_TO_FIX,102.38,84.05,-18.33,1320.31,-0.34,3.06,3.24,280.81,1.258,0,0,-9.265,1,0.6,4.5,3.432,0.35,0.0168,0.4,45.287,45.287,45.287,18.329,1,281.36,0.233,0,0,-0.19,0.55,0,0.24,281.36,0,0,0,0,0,0,0,47.736,0,0,0,3,0,0,0,2576.02,0,0,0,269.09,0,0,0,0,0,0,0,0,0,0,0,0,0,0,0,0,0,VALID,0,0,0,0,0,1,0,0,0,0,0,0,0,0,0,0,0,0,0,0,0.49,365.45,2,0,0.1,0.1,166,9.38,0.12,0.1,17.62,FLYING,CF1-J,0:/Integrated Flight Computer/aircraft/cf1_j_cfg.ks (inferred preloaded)
17.92,APPROACH,FLY_TO_FIX,101.41,84.3,-17.11,1320.23,-0.32,3.19,3.36,280.84,1.174,0,0,-9.127,1,0.6,4.5,3.423,0.35,0.0168,0.4,43.114,45.576,43.114,17.109,1,281.37,0.228,0,0,-0.18,0.52,0,0.23,281.37,0,0,0,0,0,0,0,47.701,0,0,0,3,0,0,0,2574.17,0,0,0,269.09,0,0,0,0,0,0,0,0,0,0,0,0,0,0,0,0,0,VALID,0,0,0,0,0,1,0,0,0,0,0,0,0,0,0,0,0,0,0,0,0.45,366.05,2,0,0.1,0.1,169,9.38,0.12,0.1,17.94,FLYING,CF1-J,0:/Integrated Flight Computer/aircraft/cf1_j_cfg.ks (inferred preloaded)
18.21,APPROACH,FLY_TO_FIX,100.64,84.53,-16.11,1320.15,-0.31,3.29,3.46,280.87,1.106,0,0,-8.991,1,0.6,4.5,3.405,0.35,0.0168,0.4,40.56,45.809,40.56,16.109,1,281.37,0.225,0,0,-0.18,0.5,0,0.23,281.37,0,0,0,0,0,0,0,47.67,0,0,0,3,0,0,0,2572.55,0,0,0,269.09,0,0,0,0,0,0,0,0,0,0,0,0,0,0,0,0,0,VALID,0,0,0,0,0,1,0,0,0,0,0,0,0,0,0,0,0,0,0,0,0.42,366.54,2,0,0.096,0.096,172,10.4,0.1,0.081,18.23,FLYING,CF1-J,0:/Integrated Flight Computer/aircraft/cf1_j_cfg.ks (inferred preloaded)
18.47,APPROACH,FLY_TO_FIX,99.99,84.73,-15.27,1320.09,-0.3,3.38,3.55,280.89,1.05,0,0,-8.901,1,0.6,4.5,3.38,0.35,0.0168,0.4,38.387,46.002,38.387,15.269,1,281.37,0.222,0,0,-0.17,0.48,0,0.23,281.37,0,0,0,0,0,0,0,47.642,0,0,0,3,0,0,0,2571.1,0,0,0,269.09,0,0,0,0,0,0,0,0,0,0,0,0,0,0,0,0,0,VALID,0,0,0,0,0,1,0,0,0,0,0,0,0,0,0,0,0,0,0,0,0.39,366.94,2,0,0.121,0.121,174,7.68,0.129,0.096,18.5,FLYING,CF1-J,0:/Integrated Flight Computer/aircraft/cf1_j_cfg.ks (inferred preloaded)
18.77,APPROACH,FLY_TO_FIX,99.26,84.96,-14.3,1320.01,-0.3,3.48,3.65,280.92,0.987,0,0,-8.812,1,0.6,4.5,3.346,0.35,0.0168,0.4,35.847,46.222,35.847,14.296,1,281.37,0.222,0,0,-0.17,0.45,0,0.22,281.37,0,0,0,0,0,0,0,47.61,0,0,0,3,0,0,0,2569.41,0,0,0,269.09,0,0,0,0,0,0,0,0,0,0,0,0,0,0,0,0,0,VALID,0,0,0,0,0,1,0,0,0,0,0,0,0,0,0,0,0,0,0,0,0.37,367.4,2,0,0.14,0.14,176,6.59,0.155,0.121,18.81,FLYING,CF1-J,0:/Integrated Flight Computer/aircraft/cf1_j_cfg.ks (inferred preloaded)
19.09,APPROACH,FLY_TO_FIX,98.51,85,-13.51,1319.94,-0.3,3.6,3.77,280.94,0.924,0,0,-8.724,1,0.6,4.5,3.306,0.35,0.0168,0.4,33.804,46.447,33.804,13.508,1,281.37,0.222,0,0,-0.18,0.43,0,0.22,281.37,0,0,0,0,0,0,0,47.576,0,0,0,3,0,0,0,2567.64,0,0,0,269.09,0,0,0,0,0,0,0,0,0,0,0,0,0,0,0,0,0,VALID,0,0,0,0,0,1,0,0,0,0,0,0,0,0,0,0,0,0,0,0,0.34,367.87,2,0,0.14,0.14,178,6.35,0.175,0.14,19.12,FLYING,CF1-J,0:/Integrated Flight Computer/aircraft/cf1_j_cfg.ks (inferred preloaded)
19.4,APPROACH,FLY_TO_FIX,97.83,85,-12.83,1319.86,-0.3,3.7,3.87,280.96,0.865,0,0,-8.637,1,0.6,4.5,3.258,0.35,0.0168,0.4,32.043,46.65,32.043,12.834,1,281.37,0.222,0,0,-0.17,0.41,0,0.22,281.37,0,0,0,0,0,0,0,47.543,0,0,0,3,0,0,0,2565.89,0,0,0,269.09,0,0,0,0,0,0,0,0,0,0,0,0,0,0,0,0,0,VALID,0,0,0,0,0,1,0,0,0,0,0,0,0,0,0,0,0,0,0,0,0.31,368.29,2,0,0.14,0.14,180,6.35,0.175,0.14,19.44,FLYING,CF1-J,0:/Integrated Flight Computer/aircraft/cf1_j_cfg.ks (inferred preloaded)
19.71,APPROACH,FLY_TO_FIX,97.24,85,-12.24,1319.78,-0.29,3.8,3.97,280.98,0.812,0,0,-8.551,1,0.6,4.5,3.199,0.35,0.0168,0.4,30.472,46.829,30.472,12.237,1,281.37,0.221,0,0,-0.17,0.39,0,0.22,281.37,0,0,0,0,0,0,0,47.51,0,0,0,3,0,0,0,2564.16,0,0,0,269.09,0,0,0,0,0,0,0,0,0,0,0,0,0,0,0,0,0,VALID,0,0,0,0,0,1,0,0,0,0,0,0,0,0,0,0,0,0,0,0,0.29,368.67,2,0,0.138,0.138,182,6.52,0.175,0.138,19.74,FLYING,CF1-J,0:/Integrated Flight Computer/aircraft/cf1_j_cfg.ks (inferred preloaded)
20.06,APPROACH,FLY_TO_FIX,96.55,85,-11.55,1319.7,-0.28,3.93,4.08,281.01,0.75,0,0,-8.423,1,0.6,4.5,3.099,0.35,0.0168,0.4,28.644,47.035,28.644,11.548,1,281.37,0.217,0,0,-0.17,0.37,0,0.22,281.37,0,0,0,0,0,0,0,47.472,0,0,0,3,0,0,0,2562.17,0,0,0,269.09,0,0,0,0,0,0,0,0,0,0,0,0,0,0,0,0,0,VALID,0,0,0,0,0,1,0,0,0,0,0,0,0,0,0,0,0,0,0,0,0.27,369.1,2,0,0.114,0.114,185,8.54,0.153,0.108,20.08,FLYING,CF1-J,0:/Integrated Flight Computer/aircraft/cf1_j_cfg.ks (inferred preloaded)
20.38,APPROACH,FLY_TO_FIX,96.08,85,-11.08,1319.63,-0.26,4.01,4.15,281.03,0.699,0,0,-8.298,1,0.6,4.5,2.98,0.35,0.0168,0.4,27.394,47.176,27.394,11.081,1,281.37,0.212,0,0,-0.16,0.35,0,0.21,281.37,0,0,0,0,0,0,0,47.438,0,0,0,3,0,0,0,2560.42,0,0,0,269.09,0,0,0,0,0,0,0,0,0,0,0,0,0,0,0,0,0,VALID,0,0,0,0,0,1,0,0,0,0,0,0,0,0,0,0,0,0,0,0,0.25,369.4,2,0,0.1,0.1,188,9.38,0.12,0.1,20.4,FLYING,CF1-J,0:/Integrated Flight Computer/aircraft/cf1_j_cfg.ks (inferred preloaded)
20.7,APPROACH,FLY_TO_FIX,95.67,85,-10.67,1319.56,-0.25,4.08,4.22,281.04,0.649,0,0,-8.174,1,0.6,4.5,2.839,0.35,0.0168,0.4,26.296,47.298,26.296,10.673,1,281.37,0.208,0,0,-0.15,0.33,0,0.21,281.37,0,0,0,0,0,0,0,47.405,0,0,0,3,0,0,0,2558.68,0,0,0,269.09,0,0,0,0,0,0,0,0,0,0,0,0,0,0,0,0,0,VALID,0,0,0,0,0,1,0,0,0,0,0,0,0,0,0,0,0,0,0,0,0.23,369.66,2,0,0.1,0.1,191,9.38,0.12,0.1,20.72,FLYING,CF1-J,0:/Integrated Flight Computer/aircraft/cf1_j_cfg.ks (inferred preloaded)
21.02,APPROACH,FLY_TO_FIX,95.3,85,-10.3,1319.49,-0.23,4.14,4.27,281.06,0.602,0,0,-8.052,1,0.6,4.5,2.69,0.35,0.0168,0.4,25.277,47.411,25.277,10.297,1,281.37,0.204,0,0,-0.14,0.31,0,0.21,281.37,0,0,0,0,0,0,0,47.372,0,0,0,3,0,0,0,2556.94,0,0,0,269.09,0,0,0,0,0,0,0,0,0,0,0,0,0,0,0,0,0,VALID,0,0,0,0,0,1,0,0,0,0,0,0,0,0,0,0,0,0,0,0,0.21,369.9,2,0,0.1,0.1,194,9.38,0.12,0.1,21.04,FLYING,CF1-J,0:/Integrated Flight Computer/aircraft/cf1_j_cfg.ks (inferred preloaded)
21.34,APPROACH,FLY_TO_FIX,94.94,85,-9.94,1319.43,-0.22,4.21,4.33,281.07,0.557,0,0,-7.932,1,0.6,4.5,2.541,0.35,0.0168,0.4,24.316,47.517,24.316,9.944,1,281.37,0.201,0,0,-0.13,0.3,0,0.2,281.37,0,0,0,0,0,0,0,47.339,0,0,0,3,0,0,0,2555.21,0,0,0,269.09,0,0,0,0,0,0,0,0,0,0,0,0,0,0,0,0,0,VALID,0,0,0,0,0,1,0,0,0,0,0,0,0,0,0,0,0,0,0,0,0.19,370.12,2,0,0.1,0.1,197,9.38,0.12,0.1,21.36,FLYING,CF1-J,0:/Integrated Flight Computer/aircraft/cf1_j_cfg.ks (inferred preloaded)
21.68,APPROACH,FLY_TO_FIX,94.59,85,-9.59,1319.36,-0.21,4.27,4.39,281.09,0.513,0,0,-7.813,1,0.6,4.5,2.397,0.35,0.0168,0.4,23.337,47.624,23.337,9.586,1,281.38,0.197,0,0,-0.13,0.29,0,0.2,281.38,0,0,0,0,0,0,0,47.304,0,0,0,3,0,0,0,2553.38,0,0,0,269.09,0,0,0,0,0,0,0,0,0,0,0,0,0,0,0,0,0,VALID,0,0,0,0,0,1,0,0,0,0,0,0,0,0,0,0,0,0,0,0,0.18,370.35,2,0,0.12,0.12,200,8.82,0.12,0.1,21.7,FLYING,CF1-J,0:/Integrated Flight Computer/aircraft/cf1_j_cfg.ks (inferred preloaded)
22,APPROACH,FLY_TO_FIX,94.26,85,-9.26,1319.31,-0.2,4.32,4.44,281.1,0.474,0,0,-7.697,1,0.6,4.5,2.26,0.35,0.0168,0.4,22.441,47.722,22.441,9.259,1,281.38,0.195,0,0,-0.12,0.28,0,0.2,281.38,0,0,0,0,0,0,0,47.271,0,0,0,3,0,0,0,2551.66,0,0,0,269.09,0,0,0,0,0,0,0,0,0,0,0,0,0,0,0,0,0,VALID,0,0,0,0,0,1,0,0,0,0,0,0,0,0,0,0,0,0,0,0,0.16,370.56,2,0,0.1,0.1,203,9.38,0.12,0.1,22.02,FLYING,CF1-J,0:/Integrated Flight Computer/aircraft/cf1_j_cfg.ks (inferred preloaded)
22.32,APPROACH,FLY_TO_FIX,93.94,85,-8.94,1319.26,-0.19,4.38,4.49,281.11,0.438,0,0,-7.582,1,0.6,4.5,2.134,0.35,0.0168,0.4,21.564,47.818,21.564,8.941,1,281.38,0.192,0,0,-0.12,0.27,0,0.19,281.38,0,0,0,0,0,0,0,47.238,0,0,0,3,0,0,0,2549.94,0,0,0,269.09,0,0,0,0,0,0,0,0,0,0,0,0,0,0,0,0,0,VALID,0,0,0,0,0,1,0,0,0,0,0,0,0,0,0,0,0,0,0,0,0.15,370.76,2,0,0.1,0.1,206,9.37,0.12,0.1,22.34,FLYING,CF1-J,0:/Integrated Flight Computer/aircraft/cf1_j_cfg.ks (inferred preloaded)
22.64,APPROACH,FLY_TO_FIX,93.67,85,-8.67,1319.21,-0.18,4.42,4.53,281.12,0.409,0,0,-7.469,1,0.6,4.5,2.014,0.35,0.0168,0.4,20.817,47.899,20.817,8.671,1,281.38,0.19,0,0,-0.11,0.26,0,0.19,281.38,0,0,0,0,0,0,0,47.207,0,0,0,3,0,0,0,2548.32,0,0,0,269.09,0,0,0,0,0,0,0,0,0,0,0,0,0,0,0,0,0,VALID,0,0,0,0,0,1,0,0,0,0,0,0,0,0,0,0,0,0,0,0,0.14,370.93,2,0,0.102,0.102,209,9.55,0.102,0.091,22.67,FLYING,CF1-J,0:/Integrated Flight Computer/aircraft/cf1_j_cfg.ks (inferred preloaded)
22.93,APPROACH,FLY_TO_FIX,93.42,85,-8.42,1319.16,-0.18,4.46,4.57,281.13,0.383,0,0,-7.394,1,0.6,4.5,1.937,0.35,0.0168,0.4,20.127,47.973,20.127,8.422,1,281.38,0.189,0,0,-0.11,0.25,0,0.19,281.38,0,0,0,0,0,0,0,47.178,0,0,0,3,0,0,0,2546.76,0,0,0,269.09,0,0,0,0,0,0,0,0,0,0,0,0,0,0,0,0,0,VALID,0,0,0,0,0,1,0,0,0,0,0,0,0,0,0,0,0,0,0,0,0.13,371.09,2,0,0.136,0.136,211,6.72,0.152,0.102,22.97,FLYING,CF1-J,0:/Integrated Flight Computer/aircraft/cf1_j_cfg.ks (inferred preloaded)
23.25,APPROACH,FLY_TO_FIX,93.13,85,-8.13,1319.11,-0.18,4.51,4.62,281.14,0.356,0,0,-7.32,1,0.6,4.5,1.864,0.35,0.0168,0.4,19.312,48.061,19.312,8.13,1,281.38,0.189,0,0,-0.11,0.24,0,0.19,281.38,0,0,0,0,0,0,0,47.146,0,0,0,3,0,0,0,2545.09,0,0,0,269.09,0,0,0,0,0,0,0,0,0,0,0,0,0,0,0,0,0,VALID,0,0,0,0,0,1,0,0,0,0,0,0,0,0,0,0,0,0,0,0,0.12,371.28,2,0,0.14,0.14,213,6.35,0.175,0.136,23.28,FLYING,CF1-J,0:/Integrated Flight Computer/aircraft/cf1_j_cfg.ks (inferred preloaded)
23.56,APPROACH,FLY_TO_FIX,92.83,85,-7.83,1319.06,-0.17,4.57,4.67,281.14,0.331,0,0,-7.247,1,0.6,4.5,1.798,0.35,0.0168,0.4,18.486,48.15,18.486,7.835,1,281.38,0.188,0,0,-0.11,0.24,0,0.19,281.38,0,0,0,0,0,0,0,47.114,0,0,0,3,0,0,0,2543.43,0,0,0,269.09,0,0,0,0,0,0,0,0,0,0,0,0,0,0,0,0,0,VALID,0,0,0,0,0,1,0,0,0,0,0,0,0,0,0,0,0,0,0,0,0.11,371.47,2,0,0.14,0.14,215,6.35,0.175,0.14,23.6,FLYING,CF1-J,0:/Integrated Flight Computer/aircraft/cf1_j_cfg.ks (inferred preloaded)
23.88,APPROACH,FLY_TO_FIX,92.54,85,-7.54,1319.02,-0.17,4.62,4.72,281.15,0.309,0,0,-7.175,1,0.6,4.5,1.737,0.35,0.0168,0.4,17.667,48.237,17.667,7.543,1,281.38,0.187,0,0,-0.11,0.23,0,0.19,281.38,0,0,0,0,0,0,0,47.082,0,0,0,3,0,0,0,2541.77,0,0,0,269.09,0,0,0,0,0,0,0,0,0,0,0,0,0,0,0,0,0,VALID,0,0,0,0,0,1,0,0,0,0,0,0,0,0,0,0,0,0,0,0,0.1,371.65,2,0,0.14,0.14,217,6.35,0.175,0.14,23.91,FLYING,CF1-J,0:/Integrated Flight Computer/aircraft/cf1_j_cfg.ks (inferred preloaded)
24.19,APPROACH,FLY_TO_FIX,92.25,85,-7.25,1318.97,-0.17,4.67,4.77,281.16,0.289,0,0,-7.103,1,0.6,4.5,1.681,0.35,0.0168,0.4,16.852,48.324,16.852,7.254,1,281.38,0.187,0,0,-0.1,0.22,0,0.19,281.38,0,0,0,0,0,0,0,47.051,0,0,0,3,0,0,0,2540.11,0,0,0,269.09,0,0,0,0,0,0,0,0,0,0,0,0,0,0,0,0,0,VALID,0,0,0,0,0,1,0,0,0,0,0,0,0,0,0,0,0,0,0,0,0.1,371.84,2,0,0.14,0.14,219,6.35,0.175,0.14,24.23,FLYING,CF1-J,0:/Integrated Flight Computer/aircraft/cf1_j_cfg.ks (inferred preloaded)
24.51,APPROACH,FLY_TO_FIX,91.97,85,-6.97,1318.93,-0.16,4.72,4.81,281.16,0.271,0,0,-7.033,1,0.6,4.5,1.628,0.35,0.0168,0.4,16.04,48.41,16.04,6.967,1,281.38,0.186,0,0,-0.1,0.22,0,0.19,281.38,0,0,0,0,0,0,0,47.019,0,0,0,3,0,0,0,2538.46,0,0,0,269.09,0,0,0,0,0,0,0,0,0,0,0,0,0,0,0,0,0,VALID,0,0,0,0,0,1,0,0,0,0,0,0,0,0,0,0,0,0,0,0,0.09,372.02,2,0,0.14,0.14,221,6.35,0.175,0.14,24.54,FLYING,CF1-J,0:/Integrated Flight Computer/aircraft/cf1_j_cfg.ks (inferred preloaded)
24.82,APPROACH,FLY_TO_FIX,91.68,85,-6.68,1318.89,-0.16,4.77,4.86,281.17,0.255,0,0,-6.962,1,0.6,4.5,1.58,0.35,0.0168,0.4,15.229,48.496,15.229,6.681,1,281.38,0.186,0,0,-0.1,0.21,0,0.19,281.38,0,0,0,0,0,0,0,46.988,0,0,0,3,0,0,0,2536.82,0,0,0,269.09,0,0,0,0,0,0,0,0,0,0,0,0,0,0,0,0,0,VALID,0,0,0,0,0,1,0,0,0,0,0,0,0,0,0,0,0,0,0,0,0.08,372.2,2,0,0.14,0.14,223,6.35,0.175,0.14,24.86,FLYING,CF1-J,0:/Integrated Flight Computer/aircraft/cf1_j_cfg.ks (inferred preloaded)
25.14,APPROACH,FLY_TO_FIX,91.4,85,-6.4,1318.84,-0.16,4.82,4.91,281.18,0.24,0,0,-6.893,1,0.6,4.5,1.535,0.35,0.0168,0.4,14.417,48.581,14.417,6.397,1,281.38,0.185,0,0,-0.1,0.21,0,0.19,281.38,0,0,0,0,0,0,0,46.957,0,0,0,3,0,0,0,2535.18,0,0,0,269.09,0,0,0,0,0,0,0,0,0,0,0,0,0,0,0,0,0,VALID,0,0,0,0,0,1,0,0,0,0,0,0,0,0,0,0,0,0,0,0,0.08,372.39,2,0,0.14,0.14,225,6.35,0.175,0.14,25.17,FLYING,CF1-J,0:/Integrated Flight Computer/aircraft/cf1_j_cfg.ks (inferred preloaded)
25.45,APPROACH,FLY_TO_FIX,91.11,85,-6.11,1318.8,-0.16,4.87,4.96,281.18,0.226,0,0,-6.824,1,0.6,4.5,1.493,0.35,0.0168,0.4,13.604,48.666,13.604,6.112,1,281.38,0.185,0,0,-0.1,0.2,0,0.19,281.38,0,0,0,0,0,0,0,46.925,0,0,0,3,0,0,0,2533.54,0,0,0,269.09,0,0,0,0,0,0,0,0,0,0,0,0,0,0,0,0,0,VALID,0,0,0,0,0,1,0,0,0,0,0,0,0,0,0,0,0,0,0,0,0.07,372.57,2,0,0.14,0.14,227,6.35,0.175,0.14,25.49,FLYING,CF1-J,0:/Integrated Flight Computer/aircraft/cf1_j_cfg.ks (inferred preloaded)
25.77,APPROACH,FLY_TO_FIX,90.83,85,-5.83,1318.76,-0.16,4.92,5.01,281.19,0.214,0,0,-6.756,1,0.6,4.5,1.454,0.35,0.0168,0.4,12.787,48.752,12.787,5.828,1,281.38,0.185,0,0,-0.1,0.2,0,0.19,281.38,0,0,0,0,0,0,0,46.894,0,0,0,3,0,0,0,2531.91,0,0,0,269.09,0,0,0,0,0,0,0,0,0,0,0,0,0,0,0,0,0,VALID,0,0,0,0,0,1,0,0,0,0,0,0,0,0,0,0,0,0,0,0,0.06,372.75,2,0,0.14,0.14,229,6.35,0.175,0.14,25.8,FLYING,CF1-J,0:/Integrated Flight Computer/aircraft/cf1_j_cfg.ks (inferred preloaded)
26.08,APPROACH,FLY_TO_FIX,90.54,85,-5.54,1318.72,-0.16,4.97,5.06,281.19,0.203,0,0,-6.689,1,0.6,4.5,1.418,0.35,0.0168,0.4,11.966,48.837,11.966,5.543,1,281.38,0.185,0,0,-0.1,0.19,0,0.19,281.38,0,0,0,0,0,0,0,46.863,0,0,0,3,0,0,0,2530.29,0,0,0,269.09,0,0,0,0,0,0,0,0,0,0,0,0,0,0,0,0,0,VALID,0,0,0,0,0,1,0,0,0,0,0,0,0,0,0,0,0,0,0,0,0.06,372.93,2,0,0.14,0.14,231,6.35,0.175,0.14,26.12,FLYING,CF1-J,0:/Integrated Flight Computer/aircraft/cf1_j_cfg.ks (inferred preloaded)
26.4,APPROACH,FLY_TO_FIX,90.26,85,-5.26,1318.68,-0.16,5.02,5.11,281.2,0.193,0,0,-6.622,1,0.6,4.5,1.385,0.35,0.0168,0.4,11.14,48.923,11.14,5.257,1,281.38,0.185,0,0,-0.1,0.19,0,0.19,281.38,0,0,0,0,0,0,0,46.832,0,0,0,3,0,0,0,2528.67,0,0,0,269.09,0,0,0,0,0,0,0,0,0,0,0,0,0,0,0,0,0,VALID,0,0,0,0,0,1,0,0,0,0,0,0,0,0,0,0,0,0,0,0,0.05,373.12,2,0,0.14,0.14,233,6.35,0.175,0.14,26.43,FLYING,CF1-J,0:/Integrated Flight Computer/aircraft/cf1_j_cfg.ks (inferred preloaded)
26.71,APPROACH,FLY_TO_FIX,89.97,85,-4.97,1318.64,-0.15,5.07,5.17,281.2,0.184,0,0,-6.556,1,0.6,4.5,1.355,0.35,0.0168,0.4,10.309,49.009,10.309,4.971,1,281.38,0.185,0,0,-0.1,0.18,0,0.19,281.38,0,0,0,0,0,0,0,46.802,0,0,0,3,0,0,0,2527.06,0,0,0,269.09,0,0,0,0,0,0,0,0,0,0,0,0,0,0,0,0,0,VALID,0,0,0,0,0,1,0,0,0,0,0,0,0,0,0,0,0,0,0,0,0.05,373.3,2,0,0.14,0.14,235,6.37,0.175,0.14,26.75,FLYING,CF1-J,0:/Integrated Flight Computer/aircraft/cf1_j_cfg.ks (inferred preloaded)
26.98,APPROACH,FLY_TO_FIX,89.7,85,-4.7,1318.6,-0.15,5.12,5.22,281.2,0.176,0,0,-6.491,1,0.6,4.5,1.328,0.35,0.0168,0.4,9.509,49.091,9.509,4.696,1,281.38,0.184,0,0,-0.1,0.18,0,0.19,281.38,0,0,0,0,0,0,0,46.775,0,0,0,3,0,0,0,2525.65,0,0,0,269.09,0,0,0,0,0,0,0,0,0,0,0,0,0,0,0,0,0,VALID,0,0,0,0,0,1,0,0,0,0,0,0,0,0,0,0,0,0,0,0,0.05,373.47,2,0,0.118,0.118,237,7.51,0.167,0.118,27,FLYING,CF1-J,0:/Integrated Flight Computer/aircraft/cf1_j_cfg.ks (inferred preloaded)
27.27,APPROACH,FLY_TO_FIX,89.39,85,-4.39,1318.57,-0.15,5.18,5.27,281.21,0.168,0,0,-6.394,1,0.6,4.5,1.299,0.35,0.0168,0.4,8.624,49.182,8.624,4.393,1,281.38,0.183,0,0,-0.09,0.18,0,0.18,281.38,0,0,0,0,0,0,0,46.746,0,0,0,3,0,0,0,2524.16,0,0,0,269.09,0,0,0,0,0,0,0,0,0,0,0,0,0,0,0,0,0,VALID,0,0,0,0,0,1,0,0,0,0,0,0,0,0,0,0,0,0,0,0,0.04,373.67,2,0,0.081,0.081,240,10.4,0.123,0.081,27.29,FLYING,CF1-J,0:/Integrated Flight Computer/aircraft/cf1_j_cfg.ks (inferred preloaded)
27.65,APPROACH,FLY_TO_FIX,89.09,85,-4.09,1318.52,-0.15,5.23,5.33,281.21,0.162,0,0,-6.298,1,0.6,4.5,1.267,0.35,0.0168,0.4,7.72,49.274,7.72,4.085,1,281.38,0.183,0,0,-0.09,0.17,0,0.18,281.38,0,0,0,0,0,0,0,46.71,0,0,0,3,0,0,0,2522.24,0,0,0,269.09,0,0,0,0,0,0,0,0,0,0,0,0,0,0,0,0,0,VALID,0,0,0,0,0,1,0,0,0,0,0,0,0,0,0,0,0,0,0,0,0.04,373.87,2,0,0.152,0.152,243,7.76,0.152,0.081,27.68,FLYING,CF1-J,0:/Integrated Flight Computer/aircraft/cf1_j_cfg.ks (inferred preloaded)
27.97,APPROACH,FLY_TO_FIX,88.8,85,-3.8,1318.48,-0.15,5.29,5.38,281.22,0.156,0,0,-6.235,1,0.6,4.5,1.246,0.35,0.0168,0.4,6.888,49.359,6.888,3.803,1,281.38,0.183,0,0,-0.09,0.17,0,0.18,281.38,0,0,0,0,0,0,0,46.679,0,0,0,3,0,0,0,2520.64,0,0,0,269.09,0,0,0,0,0,0,0,0,0,0,0,0,0,0,0,0,0,VALID,0,0,0,0,0,1,0,0,0,0,0,0,0,0,0,0,0,0,0,0,0,374.05,2,0,0.16,0.16,245,6.28,0.16,0.152,28,FLYING,CF1-J,0:/Integrated Flight Computer/aircraft/cf1_j_cfg.ks (inferred preloaded)
28.31,APPROACH,FLY_TO_FIX,88.5,85,-3.5,1318.44,-0.15,5.35,5.44,281.22,0.151,0,0,-6.173,1,0.6,4.5,1.226,0.35,0.0168,0.4,6,49.449,6,3.502,1,281.39,0.183,0,0,-0.1,0.17,0,0.18,281.38,0,0,0,0,0,0,0,46.647,0,0,0,3,0,0,0,2518.96,0,0,0,269.09,0,0,0,0,0,0,0,0,0,0,0,0,0,0,0,0,0,VALID,0,0,0,0,0,1,0,0,0,0,0,0,0,0,0,0,0,0,0,0,0,374.24,2,0,0.168,0.168,247,5.97,0.168,0.16,28.34,FLYING,CF1-J,0:/Integrated Flight Computer/aircraft/cf1_j_cfg.ks (inferred preloaded)
28.62,APPROACH,FLY_TO_FIX,88.22,85,-3.22,1318.4,-0.15,5.4,5.5,281.22,0.146,0,0,-6.112,1,0.6,4.5,1.207,0.35,0.0168,0.4,5.158,49.535,5.158,3.218,1,281.39,0.184,0,0,-0.1,0.16,0,0.18,281.39,0,0,0,0,0,0,0,46.617,0,0,0,3,0,0,0,2517.39,0,0,0,269.09,0,0,0,0,0,0,0,0,0,0,0,0,0,0,0,0,0,VALID,0,0,0,0,0,1,0,0,0,0,0,0,0,0,0,0,0,0,0,0,0,374.42,2,0,0.14,0.14,249,6.38,0.172,0.14,28.66,FLYING,CF1-J,0:/Integrated Flight Computer/aircraft/cf1_j_cfg.ks (inferred preloaded)
28.94,APPROACH,FLY_TO_FIX,87.93,85,-2.93,1318.37,-0.15,5.46,5.55,281.23,0.14,0.0026,0,-6.495,1,0.6,4.5,1.191,0.35,0.0168,0.4,4.289,49.622,4.289,2.926,1,281.39,0.184,0,0,-0.1,0.16,0,0.19,281.39,0,0,0,0,0,0,0,46.587,0,0,0,3,0,0,0,2515.81,0,0,0,269.09,0,0,0,0,0,0,0,0,0,0,0,0,0,0,0,0,0,VALID,0,0,0,0,0,1,0,0,0,0,0,0,0,0,0,0,0,0,0,0,0,374.61,2,0,0.14,0.14,251,6.35,0.175,0.14,28.97,FLYING,CF1-J,0:/Integrated Flight Computer/aircraft/cf1_j_cfg.ks (inferred preloaded)
29.25,APPROACH,FLY_TO_FIX,87.63,85,-2.63,1318.33,-0.15,5.52,5.61,281.23,0.137,0.011,0,-7.358,1,0.6,4.5,1.177,0.35,0.0168,0.4,3.414,49.71,3.414,2.633,1,281.39,0.185,0,0,-0.1,0.16,0,0.19,281.39,0,0,0,0,0,0,0,46.557,0,0,0,3,0,0,0,2514.23,0,0,0,269.09,0,0,0,0,0,0,0,0,0,0,0,0,0,0,0,0,0,VALID,0,0,0,0,0,1,0,0,0,0,0,0,0,0,0,0,0,0,0,0,0.02,374.8,2,0,0.14,0.14,253,6.35,0.175,0.14,29.29,FLYING,CF1-J,0:/Integrated Flight Computer/aircraft/cf1_j_cfg.ks (inferred preloaded)
29.57,APPROACH,FLY_TO_FIX,87.34,85,-2.34,1318.29,-0.15,5.57,5.67,281.23,0.133,0.0205,0,-8.128,1,0.6,4.5,1.164,0.35,0.0168,0.4,2.534,49.798,2.534,2.339,1,281.39,0.185,0,0,-0.1,0.16,0,0.19,281.39,0,0,0,0,0,0,0,46.527,0,0,0,3,0,0,0,2512.67,0,0,0,269.09,0,0,0,0,0,0,0,0,0,0,0,0,0,0,0,0,0,VALID,0,0,0,0,0,1,0,0,0,0,0,0,0,0,0,0,0,0,0,0,0.1,374.99,2,0,0.14,0.14,255,6.35,0.175,0.14,29.6,FLYING,CF1-J,0:/Integrated Flight Computer/aircraft/cf1_j_cfg.ks (inferred preloaded)
29.88,APPROACH,FLY_TO_FIX,87.05,85,-2.05,1318.25,-0.15,5.63,5.73,281.23,0.129,0.0311,0,-8.805,1,0.6,4.5,1.153,0.35,0.0168,0.4,1.648,49.886,1.648,2.045,1,281.39,0.186,0,0,-0.1,0.15,0,0.19,281.39,0,0,0,0,0,0,0,46.497,0,0,0,3,0,0,0,2511.1,0,0,0,269.09,0,0,0,0,0,0,0,0,0,0,0,0,0,0,0,0,0,VALID,0,0,0,0,0,1,0,0,0,0,0,0,0,0,0,0,0,0,0,0,0.24,375.18,2,0,0.14,0.14,257,6.35,0.175,0.14,29.92,FLYING,CF1-J,0:/Integrated Flight Computer/aircraft/cf1_j_cfg.ks (inferred preloaded)
30.2,APPROACH,FLY_TO_FIX,86.75,85,-1.75,1318.21,-0.15,5.69,5.79,281.24,0.126,0.0429,0,-9.39,1,0.6,4.5,1.142,0.35,0.0168,0.4,0.759,49.975,0.759,1.751,1,281.39,0.186,0,0,-0.1,0.15,0,0.19,281.39,0,0,0,0,0,0,0,46.467,0,0,0,3,0,0,0,2509.54,0,0,0,269.09,0,0,0,0,0,0,0,0,0,0,0,0,0,0,0,0,0,VALID,0,0,0,0,0,1,0,0,0,0,0,0,0,0,0,0,0,0,0,0,0.46,375.36,2,0,0.14,0.14,259,6.35,0.175,0.14,30.23,FLYING,CF1-J,0:/Integrated Flight Computer/aircraft/cf1_j_cfg.ks (inferred preloaded)
30.51,APPROACH,FLY_TO_FIX,86.46,85,-1.46,1318.17,-0.15,5.75,5.85,281.24,0.122,0.0558,0,-9.882,1,0.6,4.5,1.133,0.35,0.0168,0.4,0,50.063,0,1.456,0,281.39,0.187,0,0,-0.1,0.15,0,0.19,281.39,0,0,0,0,0,0,0,46.438,0,0,0,3,0,0,0,2507.99,0,0,0,269.09,0,0,0,0,0,0,0,0,0,0,0,0,0,0,0,0,0,VALID,0,0,0,0,0,1,0,0,0,0,0,0,0,0,0,0,0,0,0,0,0.76,375.55,2,0,0.14,0.14,261,6.35,0.175,0.14,30.55,FLYING,CF1-J,0:/Integrated Flight Computer/aircraft/cf1_j_cfg.ks (inferred preloaded)
30.83,APPROACH,FLY_TO_FIX,86.16,85,-1.16,1318.13,-0.16,5.81,5.91,281.24,0.119,0.0699,0,-10.281,1,0.6,4.5,1.125,0.35,0.0168,0.4,0,50.151,0,1.162,0,281.39,0.187,0,0,-0.1,0.15,0,0.19,281.39,0,0,0,0,0,0,0,46.408,0,0,0,3,0,0,0,2506.44,0,0,0,269.09,0,0,0,0,0,0,0,0,0,0,0,0,0,0,0,0,0,VALID,0,0,0,0,0,1,0,0,0,0,0,0,0,0,0,0,0,0,0,0,1.14,375.74,2,0,0.14,0.14,263,6.35,0.175,0.14,30.86,FLYING,CF1-J,0:/Integrated Flight Computer/aircraft/cf1_j_cfg.ks (inferred preloaded)
31.14,APPROACH,FLY_TO_FIX,85.87,85,-0.87,1318.09,-0.16,5.87,5.97,281.24,0.116,0.0852,0,-10.588,1,0.6,4.5,1.117,0.35,0.0168,0.4,0,50.239,0,0.869,0,281.39,0.188,0,0,-0.1,0.14,0,0.19,281.39,0,0,0,0,0,0,0,46.379,0,0,0,3,0,0,0,2504.9,0,0,0,269.09,0,0,0,0,0,0,0,0,0,0,0,0,0,0,0,0,0,VALID,0,0,0,0,0,1,0,0,0,0,0,0,0,0,0,0,0,0,0,0,1.61,375.93,2,0,0.14,0.14,265,6.35,0.175,0.14,31.18,FLYING,CF1-J,0:/Integrated Flight Computer/aircraft/cf1_j_cfg.ks (inferred preloaded)
31.46,APPROACH,FLY_TO_FIX,85.58,85,-0.58,1318.05,-0.16,5.93,6.03,281.25,0.115,0.1018,0,-10.803,1,0.6,4.5,1.117,0.35,0.0168,0.4,0,50.327,0,0.576,0,281.39,0.188,0,0,-0.11,0.14,0,0.19,281.39,0,0,0,0,0,0,0,46.35,0,0,0,3,0,0,0,2503.36,0,0,0,269.09,0,0,0,0,0,0,0,0,0,0,0,0,0,0,0,0,0,VALID,0,0,0,0,0,1,0,0,0,0,0,0,0,0,0,0,0,0,0,0,2.19,376.12,2,0,0.14,0.14,267,6.35,0.175,0.14,31.49,FLYING,CF1-J,0:/Integrated Flight Computer/aircraft/cf1_j_cfg.ks (inferred preloaded)
31.77,APPROACH,FLY_TO_FIX,85.28,85,-0.28,1318.01,-0.16,5.99,6.09,281.25,0.112,0.1194,0,-10.925,1,0.6,4.5,1.117,0.35,0.0168,0.4,0,50.415,0,0.285,0,281.39,0.189,0,0,-0.11,0.14,0,0.19,281.39,0,0,0,0,0,0,0,46.32,0,0,0,3,0,0,0,2501.83,0,0,0,269.09,0,0,0,0,0,0,0,0,0,0,0,0,0,0,0,0,0,VALID,0,0,0,0,0,1,0,0,0,0,0,0,0,0,0,0,0,0,0,0,2.87,376.31,2,0,0.14,0.14,269,6.35,0.175,0.14,31.81,FLYING,CF1-J,0:/Integrated Flight Computer/aircraft/cf1_j_cfg.ks (inferred preloaded)
32.09,APPROACH,FLY_TO_FIX,85,85,0,1317.97,-0.16,6.05,6.15,281.25,0.109,0.1379,0,-10.956,1,0.6,4.5,1.117,0.35,0.0168,0.4,0,50.501,0,-0.005,0,281.39,0.189,0,0,-0.11,0.14,0,0.19,281.39,0,0,0,0,0,0,0,46.291,0,0,0,3,0,0,0,2500.31,0,0,0,269.09,0,0,0,0,0,0,0,0,0,0,0,0,0,0,0,0,0,VALID,0,0,0,0,0,1,0,0,0,0,0,0,0,0,0,0,0,0,0,0,3.66,376.49,2,0,0.14,0.14,271,6.35,0.175,0.14,32.12,FLYING,CF1-J,0:/Integrated Flight Computer/aircraft/cf1_j_cfg.ks (inferred preloaded)
32.4,APPROACH,FLY_TO_FIX,84.71,85,0.29,1317.93,-0.16,6.11,6.21,281.25,0.107,0.1573,0,-10.897,1,0.6,4.5,1.117,0.35,0.0168,0.4,0,50.587,0,-0.292,0,281.39,0.19,0,0,-0.11,0.14,0,0.19,281.39,0,0,0,0,0,0,0,46.262,0,0,0,3,0,0,0,2498.78,0,0,0,269.09,0,0,0,0,0,0,0,0,0,0,0,0,0,0,0,0,0,VALID,0,0,0,0,0,1,0,0,0,0,0,0,0,0,0,0,0,0,0,0,4.57,376.68,2,0,0.14,0.14,273,6.35,0.175,0.14,32.44,FLYING,CF1-J,0:/Integrated Flight Computer/aircraft/cf1_j_cfg.ks (inferred preloaded)
32.72,APPROACH,FLY_TO_FIX,84.42,85,0.58,1317.89,-0.16,6.17,6.27,281.26,0.104,0.1773,0,-10.747,1,0.6,4.5,1.117,0.35,0.0168,0.4,0,50.673,0,-0.575,0,281.39,0.19,0,0,-0.11,0.13,0,0.19,281.39,0,0,0,0,0,0,0,46.233,0,0,0,3,0,0,0,2497.27,0,0,0,269.09,0,0,0,0,0,0,0,0,0,0,0,0,0,0,0,0,0,VALID,0,0,0,0,0,1,0,0,0,0,0,0,0,0,0,0,0,0,0,0,5.61,376.86,2,0,0.14,0.14,275,6.35,0.175,0.14,32.75,FLYING,CF1-J,0:/Integrated Flight Computer/aircraft/cf1_j_cfg.ks (inferred preloaded)
33.03,APPROACH,FLY_TO_FIX,84.14,85,0.86,1317.85,-0.16,6.23,6.33,281.26,0.103,0.198,0,-10.509,1,0.6,4.5,1.117,0.35,0.0168,0.4,0,50.757,0,-0.855,0,281.39,0.19,0,0,-0.11,0.13,0,0.19,281.39,0,0,0,0,0,0,0,46.204,0,0,0,3,0,0,0,2495.76,0,0,0,269.09,0,0,0,0,0,0,0,0,0,0,0,0,0,0,0,0,0,VALID,0,0,0,0,0,1,0,0,0,0,0,0,0,0,0,0,0,0,0,0,6.76,377.04,2,0,0.14,0.14,277,6.35,0.175,0.14,33.07,FLYING,CF1-J,0:/Integrated Flight Computer/aircraft/cf1_j_cfg.ks (inferred preloaded)
33.35,APPROACH,FLY_TO_FIX,83.87,85,1.13,1317.81,-0.16,6.29,6.39,281.26,0.1,0.2191,0,-10.184,1,0.6,4.5,1.117,0.35,0.0168,0.4,0,50.839,0,-1.131,0,281.39,0.191,0,0,-0.11,0.13,0,0.19,281.39,0,0,0,0,0,0,0,46.176,0,0,0,3,0,0,0,2494.25,0,0,0,269.09,0,0,0,0,0,0,0,0,0,0,0,0,0,0,0,0,0,VALID,0,0,0,0,0,1,0,0,0,0,0,0,0,0,0,0,0,0,0,0,8.04,377.22,2,0,0.14,0.14,279,6.35,0.175,0.14,33.38,FLYING,CF1-J,0:/Integrated Flight Computer/aircraft/cf1_j_cfg.ks (inferred preloaded)
33.66,APPROACH,FLY_TO_FIX,83.6,85,1.4,1317.77,-0.16,6.35,6.45,281.26,0.1,0.2405,0,-9.773,1,0.6,4.5,1.117,0.35,0.0168,0.4,0,50.92,0,-1.402,0,281.39,0.191,0,0,-0.11,0.13,0,0.19,281.39,0,0,0,0,0,0,0,46.147,0,0,0,3,0,0,0,2492.75,0,0,0,269.09,0,0,0,0,0,0,0,0,0,0,0,0,0,0,0,0,0,VALID,0,0,0,0,0,1,0,0,0,0,0,0,0,0,0,0,0,0,0,0,9.45,377.39,2,0,0.14,0.14,281,6.35,0.175,0.14,33.7,FLYING,CF1-J,0:/Integrated Flight Computer/aircraft/cf1_j_cfg.ks (inferred preloaded)
33.98,APPROACH,FLY_TO_FIX,83.33,85,1.67,1317.73,-0.16,6.4,6.51,281.26,0.097,0.2622,0,-9.278,1,0.6,4.5,1.117,0.35,0.0168,0.4,0,51,0,-1.666,0,281.39,0.191,0,0,-0.11,0.13,0,0.19,281.39,0,0,0,0,0,0,0,46.118,0,0,0,3,0,0,0,2491.25,0,0,0,269.09,0,0,0,0,0,0,0,0,0,0,0,0,0,0,0,0,0,VALID,0,0,0,0,0,1,0,0,0,0,0,0,0,0,0,0,0,0,0,0,10.98,377.57,2,0,0.14,0.14,283,6.35,0.175,0.14,34.01,FLYING,CF1-J,0:/Integrated Flight Computer/aircraft/cf1_j_cfg.ks (inferred preloaded)
34.29,APPROACH,FLY_TO_FIX,83.08,85,1.92,1317.68,-0.16,6.46,6.56,281.27,0.096,0.2841,0,-8.701,1,0.6,4.5,1.117,0.35,0.0168,0.4,0,51.077,0,-1.924,0,281.39,0.191,0,0,-0.11,0.13,0,0.19,281.39,0,0,0,0,0,0,0,46.09,0,0,0,3,0,0,0,2489.76,0,0,0,269.09,0,0,0,0,0,0,0,0,0,0,0,0,0,0,0,0,0,VALID,0,0,0,0,0,1,0,0,0,0,0,0,0,0,0,0,0,0,0,0,12.64,377.73,2,0,0.14,0.14,285,6.35,0.175,0.14,34.33,FLYING,CF1-J,0:/Integrated Flight Computer/aircraft/cf1_j_cfg.ks (inferred preloaded)
34.61,APPROACH,FLY_TO_FIX,82.83,85,2.17,1317.64,-0.16,6.51,6.62,281.27,0.094,0.306,0,-8.044,1,0.6,4.5,1.117,0.35,0.0168,0.4,0,51.152,0,-2.174,0,281.39,0.191,0,0,-0.11,0.12,0,0.19,281.39,0,0,0,0,0,0,0,46.061,0,0,0,3,0,0,0,2488.27,0,0,0,269.09,0,0,0,0,0,0,0,0,0,0,0,0,0,0,0,0,0,VALID,0,0,0,0,0,1,0,0,0,0,0,0,0,0,0,0,0,0,0,0,14.43,377.89,2,0,0.14,0.14,287,6.35,0.175,0.14,34.64,FLYING,CF1-J,0:/Integrated Flight Computer/aircraft/cf1_j_cfg.ks (inferred preloaded)
34.92,APPROACH,FLY_TO_FIX,82.58,85,2.42,1317.6,-0.16,6.56,6.67,281.27,0.093,0.3278,0,-7.31,1,0.6,4.5,1.117,0.35,0.0168,0.4,0,51.225,0,-2.417,0,281.39,0.191,0,0,-0.11,0.12,0,0.19,281.39,0,0,0,0,0,0,0,46.033,0,0,0,3,0,0,0,2486.78,0,0,0,269.09,0,0,0,0,0,0,0,0,0,0,0,0,0,0,0,0,0,VALID,0,0,0,0,0,1,0,0,0,0,0,0,0,0,0,0,0,0,0,0,16.34,378.05,2,0,0.14,0.14,289,6.35,0.175,0.14,34.96,FLYING,CF1-J,0:/Integrated Flight Computer/aircraft/cf1_j_cfg.ks (inferred preloaded)
35.24,APPROACH,FLY_TO_FIX,82.35,85,2.65,1317.56,-0.16,6.61,6.72,281.27,0.091,0.3494,0,-6.501,1,0.6,4.5,1.117,0.35,0.0168,0.4,0,51.295,0,-2.65,0,281.39,0.191,0,0,-0.11,0.12,0,0.19,281.39,0,0,0,0,0,0,0,46.005,0,0,0,3,0,0,0,2485.3,0,0,0,269.09,0,0,0,0,0,0,0,0,0,0,0,0,0,0,0,0,0,VALID,0,0,0,0,0,1,0,0,0,0,0,0,0,0,0,0,0,0,0,0,18.37,378.2,2,0,0.14,0.14,291,6.35,0.175,0.14,35.27,FLYING,CF1-J,0:/Integrated Flight Computer/aircraft/cf1_j_cfg.ks (inferred preloaded)
35.55,APPROACH,FLY_TO_FIX,82.13,85,2.87,1317.52,-0.16,6.66,6.76,281.27,0.09,0.3708,0,-5.62,1,0.6,4.5,1.117,0.35,0.0168,0.4,0,51.362,0,-2.874,0,281.39,0.191,0,0,-0.11,0.12,0,0.19,281.39,0,0,0,0,0,0,0,45.977,0,0,0,3,0,0,0,2483.83,0,0,0,269.09,0,0,0,0,0,0,0,0,0,0,0,0,0,0,0,0,0,VALID,0,0,0,0,0,1,0,0,0,0,0,0,0,0,0,0,0,0,0,0,20.51,378.35,2,0,0.14,0.14,293,6.35,0.175,0.14,35.59,FLYING,CF1-J,0:/Integrated Flight Computer/aircraft/cf1_j_cfg.ks (inferred preloaded)
35.87,APPROACH,FLY_TO_FIX,81.91,85,3.09,1317.47,-0.15,6.7,6.81,281.27,0.089,0.3918,0,-4.672,1,0.6,4.5,1.117,0.35,0.0168,0.4,0,51.426,0,-3.088,0,281.39,0.19,0,0,-0.11,0.12,0,0.19,281.39,0,0,0,0,0,0,0,45.949,0,0,0,3,0,0,0,2482.36,0,0,0,269.09,0,0,0,0,0,0,0,0,0,0,0,0,0,0,0,0,0,VALID,0,0,0,0,0,1,0,0,0,0,0,0,0,0,0,0,0,0,0,0,22.77,378.48,2,0,0.14,0.14,295,6.35,0.175,0.14,35.9,FLYING,CF1-J,0:/Integrated Flight Computer/aircraft/cf1_j_cfg.ks (inferred preloaded)
36.18,APPROACH,FLY_TO_FIX,81.71,85,3.29,1317.43,-0.15,6.75,6.85,281.27,0.087,0.4123,0,-3.658,1,0.6,4.5,1.117,0.35,0.0168,0.4,0,51.487,0,-3.29,0,281.39,0.19,0,0,-0.11,0.12,0,0.19,281.39,0,0,0,0,0,0,0,45.921,0,0,0,3,0,0,0,2480.89,0,0,0,269.09,0,0,0,0,0,0,0,0,0,0,0,0,0,0,0,0,0,VALID,0,0,0,0,0,1,0,0,0,0,0,0,0,0,0,0,0,0,0,0,25.14,378.61,2,0,0.14,0.14,297,6.35,0.175,0.14,36.22,FLYING,CF1-J,0:/Integrated Flight Computer/aircraft/cf1_j_cfg.ks (inferred preloaded)
36.5,APPROACH,FLY_TO_FIX,81.52,85,3.48,1317.39,-0.15,6.79,6.89,281.28,0.085,0.4323,0,-2.582,1,0.6,4.5,1.117,0.35,0.0168,0.4,0,51.544,0,-3.481,0,281.39,0.189,0,0,-0.11,0.12,0,0.19,281.39,0,0,0,0,0,0,0,45.893,0,0,0,3,0,0,0,2479.42,0,0,0,269.09,0,0,0,0,0,0,0,0,0,0,0,0,0,0,0,0,0,VALID,0,0,0,0,0,1,0,0,0,0,0,0,0,0,0,0,0,0,0,0,27.61,378.74,2,0,0.14,0.14,299,6.35,0.175,0.14,36.53,FLYING,CF1-J,0:/Integrated Flight Computer/aircraft/cf1_j_cfg.ks (inferred preloaded)
36.81,APPROACH,FLY_TO_FIX,81.34,85,3.66,1317.35,-0.15,6.82,6.92,281.28,0.084,0.4516,0,-1.449,1,0.6,4.5,1.117,0.35,0.0168,0.4,0,51.598,0,-3.66,0,281.39,0.189,0,0,-0.1,0.11,0,0.19,281.39,0,0,0,0,0,0,0,45.865,0,0,0,3,0,0,0,2477.96,0,0,0,269.09,0,0,0,0,0,0,0,0,0,0,0,0,0,0,0,0,0,VALID,0,0,0,0,0,1,0,0,0,0,0,0,0,0,0,0,0,0,0,0,30.17,378.85,2,0,0.14,0.14,301,6.35,0.175,0.14,36.85,FLYING,CF1-J,0:/Integrated Flight Computer/aircraft/cf1_j_cfg.ks (inferred preloaded)
37.13,APPROACH,FLY_TO_FIX,81.17,85,3.83,1317.31,-0.14,6.86,6.95,281.28,0.082,0.4702,0,-0.262,1,0.6,4.5,1.117,0.35,0.0168,0.4,0,51.648,0,-3.826,0,281.39,0.188,0,0,-0.1,0.11,0,0.19,281.39,0,0,0,0,0,0,0,45.837,0,0,0,3,0,0,0,2476.5,0,0,0,269.09,0,0,0,0,0,0,0,0,0,0,0,0,0,0,0,0,0,VALID,0,0,0,0,0,1,0,0,0,0,0,0,0,0,0,0,0,0,0,0,32.83,378.96,2,0,0.14,0.14,303,6.35,0.175,0.14,37.16,FLYING,CF1-J,0:/Integrated Flight Computer/aircraft/cf1_j_cfg.ks (inferred preloaded)
37.44,APPROACH,FLY_TO_FIX,81.02,85,3.98,1317.27,-0.14,6.89,6.98,281.28,0.08,0.488,0,0.974,1,0.6,4.5,1.117,0.35,0.0168,0.4,0,51.693,0,-3.978,0,281.39,0.187,0,0,-0.1,0.11,0,0.19,281.39,0,0,0,0,0,0,0,45.809,0,0,0,3,0,0,0,2475.04,0,0,0,269.09,0,0,0,0,0,0,0,0,0,0,0,0,0,0,0,0,0,VALID,0,0,0,0,0,1,0,0,0,0,0,0,0,0,0,0,0,0,0,0,35.57,379.06,2,0,0.14,0.14,305,6.35,0.175,0.14,37.48,FLYING,CF1-J,0:/Integrated Flight Computer/aircraft/cf1_j_cfg.ks (inferred preloaded)
37.76,APPROACH,FLY_TO_FIX,80.88,85,4.12,1317.23,-0.14,6.92,7.01,281.28,0.079,0.5048,0,2.255,1,0.6,4.5,1.117,0.35,0.0168,0.4,0,51.735,0,-4.116,0,281.39,0.186,0,0,-0.1,0.11,0,0.19,281.39,0,0,0,0,0,0,0,45.781,0,0,0,3,0,0,0,2473.59,0,0,0,269.09,0,0,0,0,0,0,0,0,0,0,0,0,0,0,0,0,0,VALID,0,0,0,0,0,1,0,0,0,0,0,0,0,0,0,0,0,0,0,0,38.38,379.15,2,0,0.14,0.14,307,6.35,0.175,0.14,37.79,FLYING,CF1-J,0:/Integrated Flight Computer/aircraft/cf1_j_cfg.ks (inferred preloaded)
38.07,APPROACH,FLY_TO_FIX,80.76,85,4.24,1317.19,-0.13,6.94,7.03,281.28,0.077,0.5207,0,3.577,1,0.6,4.5,1.117,0.35,0.0168,0.4,0,51.772,0,-4.239,0,281.39,0.185,0,0,-0.09,0.11,0,0.19,281.39,0,0,0,0,0,0,0,45.754,0,0,0,3,0,0,0,2472.14,0,0,0,269.09,0,0,0,0,0,0,0,0,0,0,0,0,0,0,0,0,0,VALID,0,0,0,0,0,1,0,0,0,0,0,0,0,0,0,0,0,0,0,0,41.26,379.23,2,0,0.14,0.14,309,6.35,0.175,0.14,38.11,FLYING,CF1-J,0:/Integrated Flight Computer/aircraft/cf1_j_cfg.ks (inferred preloaded)
38.39,APPROACH,FLY_TO_FIX,80.65,85,4.35,1317.15,-0.13,6.96,7.04,281.28,0.075,0.5355,0,4.935,1,0.6,4.5,1.117,0.35,0.0168,0.4,0,51.804,0,-4.347,0,281.39,0.184,0,0,-0.09,0.11,0,0.19,281.39,0,0,0,0,0,0,0,45.726,0,0,0,3,0,0,0,2470.69,0,0,0,269.09,0,0,0,0,0,0,0,0,0,0,0,0,0,0,0,0,0,VALID,0,0,0,0,0,1,0,0,0,0,0,0,0,0,0,0,0,0,0,0,44.2,379.3,2,0,0.14,0.14,311,6.35,0.175,0.14,38.42,FLYING,CF1-J,0:/Integrated Flight Computer/aircraft/cf1_j_cfg.ks (inferred preloaded)
38.7,APPROACH,FLY_TO_FIX,80.56,85,4.44,1317.12,-0.12,6.98,7.06,281.28,0.075,0.5492,0,6.323,1,0.6,4.5,1.117,0.35,0.0168,0.4,0,51.832,0,-4.44,0,281.39,0.182,0,0,-0.09,0.11,0,0.18,281.39,0,0,0,0,0,0,0,45.698,0,0,0,3,0,0,0,2469.24,0,0,0,269.09,0,0,0,0,0,0,0,0,0,0,0,0,0,0,0,0,0,VALID,0,0,0,0,0,1,0,0,0,0,0,0,0,0,0,0,0,0,0,0,47.2,379.36,2,0,0.14,0.14,313,6.35,0.175,0.14,38.74,FLYING,CF1-J,0:/Integrated Flight Computer/aircraft/cf1_j_cfg.ks (inferred preloaded)
39.02,APPROACH,FLY_TO_FIX,80.48,85,4.52,1317.08,-0.12,6.99,7.06,281.29,0.073,0.5616,0,7.738,1,0.6,4.5,1.117,0.35,0.0168,0.4,0,51.855,0,-4.517,0,281.39,0.181,0,0,-0.08,0.11,0,0.18,281.39,0,0,0,0,0,0,0,45.671,0,0,0,3,0,0,0,2467.79,0,0,0,269.09,0,0,0,0,0,0,0,0,0,0,0,0,0,0,0,0,0,VALID,0,0,0,0,0,1,0,0,0,0,0,0,0,0,0,0,0,0,0,0,50.23,379.41,2,0,0.14,0.14,315,6.35,0.175,0.14,39.05,FLYING,CF1-J,0:/Integrated Flight Computer/aircraft/cf1_j_cfg.ks (inferred preloaded)
39.33,APPROACH,FLY_TO_FIX,80.42,85,4.58,1317.05,-0.11,7,7.07,281.29,0.071,0.5728,0,9.173,1,0.6,4.5,1.117,0.35,0.0168,0.4,0,51.873,0,-4.577,0,281.39,0.179,0,0,-0.08,0.11,0,0.18,281.39,0,0,0,0,0,0,0,45.643,0,0,0,3,0,0,0,2466.34,0,0,0,269.09,0,0,0,0,0,0,0,0,0,0,0,0,0,0,0,0,0,VALID,0,0,0,0,0,1,0,0,0,0,0,0,0,0,0,0,0,0,0,0,53.29,379.45,2,0,0.14,0.14,317,6.35,0.175,0.14,39.37,FLYING,CF1-J,0:/Integrated Flight Computer/aircraft/cf1_j_cfg.ks (inferred preloaded)
39.65,APPROACH,FLY_TO_FIX,80.38,85,4.62,1317.02,-0.1,7,7.07,281.29,0.068,0.5827,0,10.624,1,0.6,4.5,1.117,0.35,0.0168,0.4,0,51.886,0,-4.621,0,281.39,0.178,0,0,-0.07,0.11,0,0.18,281.39,0,0,0,0,0,0,0,45.616,0,0,0,3,0,0,0,2464.9,0,0,0,269.09,0,0,0,0,0,0,0,0,0,0,0,0,0,0,0,0,0,VALID,0,0,0,0,0,1,0,0,0,0,0,0,0,0,0,0,0,0,0,0,56.37,379.48,2,0,0.14,0.14,319,6.35,0.175,0.14,39.68,FLYING,CF1-J,0:/Integrated Flight Computer/aircraft/cf1_j_cfg.ks (inferred preloaded)
