t_s,phase,subphase,ias_ms,vapp_ms,spd_err_ms,agl_m,vs_ms,pitch_deg,aoa_deg,hdg_deg,bank_deg,thr_cmd,thr_intg,aa_hdg_cmd_deg,aa_fpa_cmd_deg,ils_loc_m,ils_gs_m,ils_dist_km,loc_corr_deg,gs_corr_deg,flare_fpa_cmd,flare_tgt_vs,flare_frac,steer_hdg_deg,steer_blend,ro_loc_corr_deg,ro_hdg_err_deg,ro_yaw_tgt,yaw_cmd,roll_cmd,flaps_cur,flaps_tgt,phase_el_s,status
114.68,APPROACH,ILS_TRACK,75.4,76,0.6,19.19,-4.13,3.65,6.66,270.4,0.01,0.199,13.834,270.38,-3.038,0.5,0.17,0.327,-0.02,-0.038,0,0,0,270.41,0,0,0,0,0,0,1,1,114.72,FLYING
114.88,APPROACH,ILS_TRACK,75.37,76,0.63,17.47,-4.13,3.65,6.66,270.4,0.01,0.2021,13.96,270.38,-3.037,0.5,0.16,0.312,-0.02,-0.037,0,0,0,270.41,0,0,0,0,0,0,1,1,114.92,FLYING
115.08,APPROACH,ILS_TRACK,75.34,76,0.66,16.68,-4.13,3.65,6.67,270.4,0.01,0.2052,14.091,270.38,-3.037,0.5,0.16,0.296,-0.02,-0.037,0,0,0,270.41,0,0,0,0,0,0,1,1,115.12,FLYING
115.3,FLARE,ILS_TRACK,75.31,76,0.69,15.8,-4.12,3.66,6.67,270.4,0.01,0.2082,14.227,270.38,-3.037,0.5,0.16,0.28,-0.02,-0.037,-3.135,0,0,270.41,0,0,0,0,0,0,1,1,0.04,FLYING
115.48,FLARE,ILS_TRACK,75.29,76,0.71,15.09,-4.12,3.66,6.67,270.4,0.011,0,14.227,270.4,-2.758,0.5,0.16,0.28,-0.02,-0.037,-2.758,-2.5,0.035,270.41,0,0,0,0,0,0,1,1,0.22,FLYING
115.62,FLARE,ILS_TRACK,75.28,76,0.72,14.53,-4.12,3.7,6.71,270.4,0.01,0,14.227,270.4,-2.538,0.5,0.16,0.28,-0.02,-0.037,-2.538,-2.5,0.07,270.41,0,0,0,0,0,0,1,1,0.36,FLYING
115.76,FLARE,ILS_TRACK,75.25,76,0.75,13.98,-4.1,3.8,6.8,270.4,0.011,0,14.227,270.4,-2.318,0.5,0.16,0.28,-0.02,-0.037,-2.318,-2.5,0.105,270.41,0,0,0,0,0,0,1,1,0.5,FLYING
115.9,FLARE,ILS_TRACK,75.22,76,0.78,13.44,-4.08,3.92,6.89,270.4,0.01,0,14.227,270.4,-2.099,0.5,0.16,0.28,-0.02,-0.037,-2.099,-2.5,0.139,270.41,0,0,0,0,0,0,1,1,0.64,FLYING
116.02,FLARE,ILS_TRACK,75.18,76,0.82,12.9,-4,4.05,6.99,270.4,0.009,0,14.227,270.4,-1.904,0.5,0.16,0.28,-0.02,-0.037,-1.904,-2.5,0.173,270.41,0,0,0,0,0,0,1,1,0.78,FLYING
116.16,FLARE,ILS_TRACK,75.13,76,0.87,12.37,-3.93,4.16,7.04,270.4,0.01,0,14.227,270.4,-1.905,0.5,0.16,0.28,-0.02,-0.037,-1.905,-2.5,0.207,270.41,0,0,0,0,0,0,1,1,0.92,FLYING
116.3,FLARE,ILS_TRACK,75.07,76,0.93,11.85,-3.85,4.22,7.04,270.4,0.01,0,14.227,270.4,-1.907,0.5,0.16,0.28,-0.02,-0.037,-1.907,-2.5,0.24,270.41,0,0,0,0,0,0,1,1,1.06,FLYING
116.48,FLARE,ILS_TRACK,74.98,76,1.02,11.2,-3.75,4.28,7.04,270.4,0.009,0,14.227,270.4,-1.909,0.5,0.16,0.28,-0.02,-0.037,-1.909,-2.5,0.281,270.41,0,0,0,0,0,0,1,1,1.24,FLYING
116.62,FLARE,ILS_TRACK,74.9,76,1.1,10.7,-3.68,4.33,7.04,270.4,0.009,0,14.227,270.4,-1.911,0.5,0.16,0.28,-0.02,-0.037,-1.911,-2.5,0.313,270.41,0,0,0,0,0,0,1,1,1.38,FLYING
116.76,FLARE,ILS_TRACK,74.82,76,1.18,10.21,-3.62,4.38,7.04,270.4,0.009,0,14.227,270.4,-1.913,0.5,0.16,0.28,-0.02,-0.037,-1.913,-2.5,0.344,270.41,0,0,0,0,0,0,1,1,1.52,FLYING
116.9,FLARE,ILS_TRACK,74.73,76,1.27,9.73,-3.55,4.42,7.04,270.4,0.008,0,14.227,270.4,-1.915,0.5,0.16,0.28,-0.02,-0.037,-1.915,-2.5,0.375,270.41,0,0,0,0,0,0,1,1,1.66,FLYING
117.04,FLARE,ILS_TRACK,74.64,76,1.36,9.26,-3.5,4.46,7.04,270.4,0.009,0,14.227,270.4,-1.918,0.5,0.16,0.28,-0.02,-0.037,-1.918,-2.5,0.405,270.41,0,0,0,0,0,0,1,1,1.8,FLYING
117.2,FLARE,ILS_TRACK,74.54,76,1.46,8.79,-3.44,4.51,7.05,270.4,0.009,0,14.227,270.4,-1.868,0.5,0.16,0.28,-0.02,-0.037,-1.868,-2.432,0.434,270.41,0,0,0,0,0,0,1,1,1.94,FLYING
117.34,FLARE,ILS_TRACK,74.44,76,1.56,8.34,-3.39,4.56,7.07,270.4,0.009,0,14.227,270.4,-1.779,0.5,0.16,0.28,-0.02,-0.037,-1.779,-2.312,0.463,270.41,0,0,0,0,0,0,1,1,2.08,FLYING
117.52,FLARE,ILS_TRACK,74.31,76,1.69,7.76,-3.32,4.65,7.1,270.4,0.009,0,14.227,270.4,-1.665,0.5,0.16,0.28,-0.02,-0.037,-1.665,-2.161,0.499,270.41,0,0,0,0,0,0,1,1,2.26,FLYING
117.66,FLARE,ILS_TRACK,74.2,76,1.8,7.32,-3.25,4.73,7.14,270.4,0.009,0,14.227,270.4,-1.579,0.5,0.16,0.28,-0.02,-0.037,-1.579,-2.047,0.527,270.41,0,0,0,0,0,0,1,1,2.4,FLYING
117.8,FLARE,ILS_TRACK,74.08,76,1.92,6.89,-3.19,4.81,7.18,270.4,0.009,0,14.227,270.4,-1.495,0.5,0.16,0.28,-0.02,-0.037,-1.495,-1.934,0.554,270.41,0,0,0,0,0,0,1,1,2.54,FLYING
117.94,FLARE,ILS_TRACK,73.96,76,2.04,6.47,-3.12,4.89,7.21,270.4,0.01,0,14.227,270.4,-1.412,0.5,0.16,0.28,-0.02,-0.037,-1.412,-1.824,0.581,270.41,0,0,0,0,0,0,1,1,2.68,FLYING
118.08,FLARE,ILS_TRACK,73.84,76,2.16,6.06,-3.05,4.97,7.25,270.4,0.009,0,14.227,270.4,-1.331,0.5,0.16,0.28,-0.02,-0.037,-1.331,-1.716,0.607,270.41,0,0,0,0,0,0,1,1,2.82,FLYING
118.22,FLARE,ILS_TRACK,73.71,76,2.29,5.66,-2.98,5.06,7.28,270.4,0.009,0,14.227,270.4,-1.251,0.5,0.16,0.28,-0.02,-0.037,-1.251,-1.611,0.633,270.41,0,0,0,0,0,0,1,1,2.96,FLYING
118.36,FLARE,ILS_TRACK,73.58,76,2.42,5.27,-2.9,5.14,7.32,270.4,0.01,0,14.227,270.4,-1.173,0.5,0.16,0.28,-0.02,-0.037,-1.173,-1.508,0.657,270.41,0,0,0,0,0,0,1,1,3.1,FLYING
118.54,FLARE,ILS_TRACK,73.4,76,2.6,4.79,-2.81,5.25,7.35,270.41,0.009,0,14.227,270.4,-1.076,0.5,0.16,0.28,-0.02,-0.037,-1.076,-1.38,0.688,270.41,0,0,0,0,0,0,1,1,3.28,FLYING
118.68,FLARE,ILS_TRACK,73.26,76,2.74,4.43,-2.73,5.34,7.39,270.41,0.01,0,14.227,270.4,-1.006,0.5,0.16,0.28,-0.02,-0.037,-1.006,-1.287,0.711,270.41,0,0,0,0,0,0,1,1,3.42,FLYING
118.82,FLARE,ILS_TRACK,73.12,76,2.88,4.08,-2.65,5.43,7.42,270.41,0.01,0,14.227,270.4,-0.934,0.5,0.16,0.28,-0.02,-0.037,-0.934,-1.193,0.734,270.41,0,0,0,0,0,0,1,1,3.56,FLYING
118.96,FLARE,ILS_TRACK,72.97,76,3.03,3.73,-2.57,5.52,7.46,270.41,0.011,0,14.227,270.4,-0.865,0.5,0.16,0.28,-0.02,-0.037,-0.865,-1.103,0.756,270.41,0,0,0,0,0,0,1,1,3.7,FLYING
119.1,FLARE,ILS_TRACK,72.82,76,3.18,3.4,-2.49,5.61,7.49,270.41,0.012,0,14.227,270.4,-0.798,0.5,0.16,0.28,-0.02,-0.037,-0.798,-1.015,0.777,270.41,0,0,0,0,0,0,1,1,3.84,FLYING
119.24,FLARE,ILS_TRACK,72.67,76,3.33,3.08,-2.41,5.7,7.52,270.41,0.012,0,14.227,270.4,-0.733,0.5,0.16,0.28,-0.02,-0.037,-0.733,-0.93,0.798,270.41,0,0,0,0,0,0,1,1,3.98,FLYING
119.38,FLARE,ILS_TRACK,72.51,76,3.49,2.77,-2.33,5.79,7.56,270.41,0.012,0,14.227,270.4,-0.67,0.5,0.16,0.28,-0.02,-0.037,-0.67,-0.848,0.817,270.41,0,0,0,0,0,0,1,1,4.12,FLYING
119.56,FLARE,ILS_TRACK,72.31,76,3.69,2.38,-2.22,5.89,7.59,270.41,0.013,0,14.227,270.4,-0.592,0.5,0.16,0.28,-0.02,-0.037,-0.592,-0.747,0.842,270.41,0,0,0,0,0,0,1,1,4.3,FLYING
119.7,FLARE,ILS_TRACK,72.15,76,3.85,2.1,-2.13,5.98,7.62,270.41,0.014,0,14.227,270.4,-0.534,0.5,0.16,0.28,-0.02,-0.037,-0.534,-0.672,0.86,270.41,0,0,0,0,0,0,1,1,4.44,LANDED
119.84,TOUCHDOWN,ILS_TRACK,71.72,76,4.28,1.99,0.98,3.86,3.65,270.45,-1.5,0,14.227,270.4,-0.487,0.5,0.16,0.28,-0.02,-0.037,-0.487,-0.612,0.875,270.41,0,0,0,0,0,0,1,1,0.02,LANDED
119.96,TOUCHDOWN,ILS_TRACK,71.03,76,4.97,1.77,-0.53,0.55,1.35,270.21,-3.09,0,14.227,270.4,-0.487,0.5,0.16,0.28,-0.02,-0.037,-0.487,-0.612,0.875,270.41,0,0,0,0,0,0,1,1,0.16,LANDED
120.08,ROLLOUT,ILS_TRACK,70.73,76,5.27,1.57,-0.51,-1.92,-1,270.03,-3.382,0,14.227,270.4,-0.487,0.5,0.16,0.28,-0.02,-0.037,-0.487,-0.612,0.875,270.41,0,0,0,0,0,0,1,1,0.04,LANDED
120.26,ROLLOUT,ILS_TRACK,70.45,76,5.55,1.52,0.05,-2.44,-2.54,270.27,-2.953,0,14.227,270.4,-0.487,0.5,0.16,0.28,-0.02,-0.037,-0.487,-0.612,0.875,270.34,0.488,-0.01,-0.152,0.0037,0.0037,0.2039,1,1,0.24,LANDED
120.44,ROLLOUT,ILS_TRACK,70.18,76,5.82,1.63,-0.19,-0.84,-0.77,270.63,-0.9,0,14.227,270.4,-0.487,0.5,0.16,0.28,-0.02,-0.037,-0.487,-0.612,0.875,270.34,0.494,-0.009,0.228,-0.0056,-0.0056,0.0631,1,1,0.42,LANDED
120.64,ROLLOUT,ILS_TRACK,70.04,76,5.96,1.64,-0.06,-0.97,-0.94,270.68,1.169,0,14.227,270.4,-0.487,0.5,0.16,0.28,-0.02,-0.037,-0.487,-0.612,0.875,270.34,0.498,-0.008,0.374,-0.0093,-0.0093,-0.0827,1,1,0.62,LANDED
120.82,ROLLOUT,ILS_TRACK,69.95,76,6.05,1.65,-0.08,-0.66,-0.64,270.17,1.167,0,14.227,270.4,-0.487,0.5,0.16,0.28,-0.02,-0.037,-0.487,-0.612,0.875,270.34,0.5,-0.009,-0.011,0.0003,0.0003,-0.083,1,1,0.8,LANDED
121,ROLLOUT,ILS_TRACK,69.86,76,6.14,1.68,-0.06,-0.34,-0.29,269.45,-0.338,0,14.227,270.4,-0.487,0.5,0.16,0.28,-0.02,-0.037,-0.487,-0.612,0.875,270.34,0.502,-0.008,-0.759,0.019,0.019,0.0241,1,1,0.98,LANDED
121.18,ROLLOUT,ILS_TRACK,69.77,76,6.23,1.67,-0.07,-0.67,-0.59,269.15,-1.595,0,14.227,270.4,-0.487,0.5,0.16,0.28,-0.02,-0.037,-0.487,-0.612,0.875,270.34,0.504,-0.006,-1.175,0.0296,0.0296,0.1145,1,1,1.16,LANDED
121.36,ROLLOUT,ILS_TRACK,69.67,76,6.33,1.66,-0.1,-0.67,-0.61,269.52,-1.182,0,14.227,270.4,-0.487,0.5,0.16,0.28,-0.02,-0.037,-0.487,-0.612,0.875,270.35,0.506,-0.001,-0.961,0.0243,0.0243,0.0852,1,1,1.34,LANDED
121.54,ROLLOUT,ILS_TRACK,69.58,76,6.42,1.67,-0.13,-0.49,-0.4,270.34,0.779,0,14.227,270.4,-0.487,0.5,0.16,0.28,-0.02,-0.037,-0.487,-0.612,0.875,270.35,0.508,0.004,-0.205,0.0052,0.0052,-0.0564,1,1,1.52,LANDED
121.76,ROLLOUT,ILS_TRACK,69.45,76,6.55,1.67,-0.06,-0.44,-0.39,271.47,2.986,0,14.227,270.4,-0.487,0.5,0.16,0.28,-0.02,-0.037,-0.487,-0.612,0.875,270.35,0.51,0.007,0.912,-0.0233,-0.0233,-0.2176,1,1,1.74,LANDED
121.94,ROLLOUT,ILS_TRACK,69.35,76,6.65,1.67,-0.02,-0.56,-0.57,272.38,3.369,0,14.227,270.4,-0.487,0.5,0.16,0.28,-0.02,-0.037,-0.487,-0.612,0.875,270.35,0.512,0.005,1.84,-0.0471,-0.0471,-0.2468,1,1,1.92,LANDED
122.12,ROLLOUT,ILS_TRACK,69.25,76,6.75,1.67,0.17,-0.79,-0.91,273.18,3.163,0,14.227,270.4,-0.487,0.5,0.16,0.28,-0.02,-0.037,-0.487,-0.612,0.875,270.35,0.514,-0.002,2.664,-0.0685,-0.0685,-0.2329,1,1,2.1,LANDED
122.3,ROLLOUT,ILS_TRACK,69.14,76,6.86,1.67,-0.08,-1.15,-1.08,273.73,2.638,0,14.227,270.4,-0.487,0.5,0.16,0.28,-0.02,-0.037,-0.487,-0.612,0.875,270.34,0.516,-0.013,3.318,-0.0856,-0.0856,-0.1952,1,1,2.28,LANDED
122.48,ROLLOUT,ILS_TRACK,69.04,76,6.96,1.67,-0.14,-0.98,-0.91,273.53,1.697,0,14.227,270.4,-0.487,0.5,0.16,0.28,-0.02,-0.037,-0.487,-0.612,0.875,270.33,0.518,-0.027,3.314,-0.0859,-0.0859,-0.1262,1,1,2.46,LANDED
122.66,ROLLOUT,ILS_TRACK,68.95,76,7.05,1.66,-0.17,-0.61,-0.5,272.7,-0.404,0,14.227,270.4,-0.487,0.5,0.16,0.28,-0.02,-0.037,-0.487,-0.612,0.875,270.33,0.52,-0.043,2.587,-0.0673,-0.0673,0.0302,1,1,2.64,LANDED
122.88,ROLLOUT,ILS_TRACK,68.82,76,7.18,1.67,-0.06,-0.5,-0.48,271.3,-2.792,0,14.227,270.4,-0.487,0.5,0.16,0.28,-0.02,-0.037,-0.487,-0.612,0.875,270.32,0.523,-0.058,1.272,-0.0332,-0.0332,0.2098,1,1,2.86,LANDED
123.06,ROLLOUT,ILS_TRACK,68.7,76,7.3,1.67,0.08,-0.7,-0.79,269.73,-3.449,0,14.227,270.4,-0.487,0.5,0.16,0.28,-0.02,-0.037,-0.487,-0.612,0.875,270.31,0.525,-0.065,-0.205,0.0054,0.0054,0.2605,1,1,3.04,LANDED
123.24,ROLLOUT,ILS_TRACK,68.57,76,7.43,1.68,0.1,-1.38,-1.47,267.94,-3.709,0,14.227,270.4,-0.487,0.5,0.16,0.28,-0.02,-0.037,-0.487,-0.612,0.875,270.31,0.527,-0.066,-1.988,0.0524,0.0524,0.2818,1,1,3.22,LANDED
123.42,ROLLOUT,ILS_TRACK,68.44,76,7.56,1.66,-0.01,-1.86,-1.92,266.34,-4.417,0,14.227,270.4,-0.487,0.5,0.16,0.28,-0.02,-0.037,-0.487,-0.612,0.875,270.32,0.53,-0.059,-3.627,0.0961,0.0961,0.3376,1,1,3.4,LANDED
123.6,ROLLOUT,ILS_TRACK,68.31,76,7.69,1.67,0,-1.93,-2.01,264.81,-5.335,0,14.227,270.4,-0.487,0.5,0.16,0.28,-0.02,-0.037,-0.487,-0.612,0.875,270.32,0.533,-0.046,-5.193,0.1383,0.1383,0.4103,1,1,3.58,LANDED
123.78,ROLLOUT,ILS_TRACK,68.18,76,7.82,1.67,-0.02,-2.17,-2.21,263.62,-6.01,0,14.227,270.4,-0.487,0.5,0.16,0.28,-0.02,-0.037,-0.487,-0.612,0.875,270.34,0.535,-0.025,-6.491,0.1737,0.1737,0.4651,1,1,3.76,LANDED
124,ROLLOUT,ILS_TRACK,68.04,76,7.96,1.66,-0.05,-2.4,-2.38,262.82,-6.448,0,14.227,270.4,-0.487,0.5,0.16,0.28,-0.02,-0.037,-0.487,-0.612,0.875,270.35,0.538,0.008,-7.458,0.2007,0.2007,0.5024,1,1,3.98,LANDED
124.18,ROLLOUT,ILS_TRACK,67.93,76,8.07,1.65,-0.17,-2.45,-2.33,263.01,-5.77,0,14.227,270.4,-0.487,0.5,0.16,0.28,-0.02,-0.037,-0.487,-0.612,0.875,270.37,0.54,0.04,-7.475,0.202,0.202,0.4518,1,1,4.16,LANDED
124.36,ROLLOUT,ILS_TRACK,67.82,76,8.18,1.65,-0.46,-1.63,-1.41,264.03,-2.829,0,14.227,270.4,-0.487,0.5,0.16,0.28,-0.02,-0.037,-0.487,-0.612,0.875,270.39,0.543,0.074,-6.654,0.1805,0.1805,0.2226,1,1,4.34,LANDED
124.54,ROLLOUT,ILS_TRACK,67.71,76,8.29,1.67,-0.22,-0.3,-0.19,265.58,1.856,0,14.227,270.4,-0.487,0.5,0.16,0.28,-0.02,-0.037,-0.487,-0.612,0.875,270.41,0.545,0.105,-5.196,0.1415,0.1415,-0.1468,1,1,4.52,LANDED
124.72,ROLLOUT,ILS_TRACK,67.59,76,8.41,1.68,0.07,-0.24,-0.33,267.22,4.059,0,14.227,270.4,-0.487,0.5,0.16,0.28,-0.02,-0.037,-0.487,-0.612,0.875,270.42,0.547,0.132,-3.553,0.0972,0.0972,-0.3225,1,1,4.7,LANDED
124.9,ROLLOUT,ILS_TRACK,67.44,76,8.56,1.69,0.27,-1.16,-1.34,268.59,4.666,0,14.227,270.4,-0.487,0.5,0.16,0.28,-0.02,-0.037,-0.487,-0.612,0.875,270.43,0.55,0.152,-2.117,0.0582,0.0582,-0.3732,1,1,4.88,LANDED
125.12,ROLLOUT,ILS_TRACK,67.3,76,8.7,1.65,0,-2.22,-2.24,270.02,5.501,0,14.227,270.4,-0.487,0.5,0.16,0.28,-0.02,-0.037,-0.487,-0.612,0.875,270.44,0.553,0.165,-0.705,0.0195,0.0195,-0.4431,1,1,5.1,LANDED
125.3,ROLLOUT,ILS_TRACK,67.18,76,8.82,1.66,0.02,-2.26,-2.37,271.52,6.584,0,14.227,270.4,-0.487,0.5,0.16,0.28,-0.02,-0.037,-0.487,-0.612,0.875,270.45,0.555,0.169,0.72,-0.02,-0.02,-0.533,1,1,5.28,LANDED
125.48,ROLLOUT,ILS_TRACK,67.06,76,8.94,1.66,0.01,-2.44,-2.57,273.08,7.527,0,14.227,270.4,-0.487,0.5,0.16,0.28,-0.02,-0.037,-0.487,-0.612,0.875,270.45,0.558,0.168,2.299,-0.0641,-0.0641,-0.6125,1,1,5.46,LANDED
125.66,ROLLOUT,ILS_TRACK,66.93,76,9.07,1.64,0.05,-2.8,-2.96,274.44,8.745,0,14.227,270.4,-0.487,0.5,0.16,0.28,-0.02,-0.037,-0.487,-0.612,0.875,270.44,0.56,0.161,3.714,-0.104,-0.104,-0.7155,1,1,5.64,LANDED
125.84,ROLLOUT,ILS_TRACK,66.8,76,9.2,1.65,0.05,-3.05,-3.16,275.56,9.795,0,14.227,270.4,-0.487,0.5,0.16,0.28,-0.02,-0.037,-0.487,-0.612,0.875,270.44,0.563,0.148,4.912,-0.1382,-0.1382,-0.8059,1,1,5.82,LANDED
126.02,ROLLOUT,ILS_TRACK,66.68,76,9.32,1.63,0,-3.58,-3.58,276.13,10.595,0,14.227,270.4,-0.487,0.5,0.16,0.28,-0.02,-0.037,-0.487,-0.612,0.875,270.42,0.565,0.128,5.645,-0.1595,-0.1595,-0.8765,1,1,6,LANDED
126.24,ROLLOUT,ILS_TRACK,66.54,76,9.46,1.61,-0.14,-3.74,-3.68,275.62,9.747,0,14.227,270.4,-0.487,0.5,0.16,0.28,-0.02,-0.037,-0.487,-0.612,0.875,270.41,0.568,0.101,5.415,-0.1538,-0.1538,-0.8113,1,1,6.22,LANDED
126.42,ROLLOUT,ILS_TRACK,66.41,76,9.59,1.62,-0.37,-2.74,-2.54,274.21,6.491,0,14.227,270.4,-0.487,0.5,0.16,0.28,-0.02,-0.037,-0.487,-0.612,0.875,270.4,0.571,0.08,4.179,-0.1193,-0.1193,-0.5432,1,1,6.4,LANDED
126.6,ROLLOUT,ILS_TRACK,66.28,76,9.72,1.65,-0.43,-0.88,-0.63,272.36,0.512,0,14.227,270.4,-0.487,0.5,0.16,0.28,-0.02,-0.037,-0.487,-0.612,0.875,270.39,0.573,0.061,2.394,-0.0686,-0.0686,-0.0431,1,1,6.58,LANDED
126.78,ROLLOUT,ILS_TRACK,66.15,76,9.85,1.69,0.12,0,-0.22,270.5,-3.913,0,14.227,270.4,-0.487,0.5,0.16,0.28,-0.02,-0.037,-0.487,-0.612,0.875,270.38,0.576,0.046,0.508,-0.0146,-0.0146,0.331,1,1,6.76,LANDED
126.96,ROLLOUT,ILS_TRACK,65.99,76,10.01,1.73,0.94,-0.84,-1.46,269.16,-4.919,0,14.227,270.4,-0.487,0.5,0.16,0.28,-0.02,-0.037,-0.487,-0.612,0.875,270.38,0.579,0.039,-0.981,0.0284,0.0284,0.4187,1,1,6.94,LANDED
127.14,ROLLOUT,ILS_TRACK,65.87,76,10.13,1.71,-0.45,-2.28,-1.8,268.51,-5.339,0,14.227,270.4,-0.487,0.5,0.16,0.28,-0.02,-0.037,-0.487,-0.612,0.875,270.38,0.582,0.042,-1.766,0.0514,0.0514,0.4572,1,1,7.12,LANDED
127.34,ROLLOUT,ILS_TRACK,65.76,76,10.24,1.61,-0.16,-2.62,-2.56,267.98,-5.258,0,14.227,270.4,-0.487,0.5,0.16,0.28,-0.02,-0.037,-0.487,-0.612,0.875,270.38,0.584,0.05,-2.262,0.066,0.066,0.4524,1,1,7.32,LANDED
127.52,ROLLOUT,ILS_TRACK,65.65,76,10.35,1.66,-0.06,-1.77,-1.8,267.32,-4.68,0,14.227,270.4,-0.487,0.5,0.16,0.28,-0.02,-0.037,-0.487,-0.612,0.875,270.39,0.586,0.06,-2.947,0.0863,0.0863,0.4043,1,1,7.5,LANDED
127.7,ROLLOUT,ILS_TRACK,65.56,76,10.44,1.66,-0.13,-1.53,-1.42,267.08,-3.631,0,14.227,270.4,-0.487,0.5,0.16,0.28,-0.02,-0.037,-0.487,-0.612,0.875,270.4,0.588,0.073,-3.317,0.0975,0.0975,0.3151,1,1,7.68,LANDED
127.88,ROLLOUT,ILS_TRACK,65.47,76,10.53,1.65,-0.21,-1.17,-1.01,267.48,-1.355,0,14.227,270.4,-0.487,0.5,0.16,0.28,-0.02,-0.037,-0.487,-0.612,0.875,270.41,0.59,0.088,-3.074,0.0907,0.0907,0.118,1,1,7.86,LANDED
128.06,ROLLOUT,ILS_TRACK,65.37,76,10.63,1.65,-0.07,-0.66,-0.6,268.38,1.406,0,14.227,270.4,-0.487,0.5,0.16,0.28,-0.02,-0.037,-0.487,-0.612,0.875,270.42,0.592,0.103,-2.259,0.0668,0.0668,-0.1229,1,1,8.04,LANDED
128.24,ROLLOUT,ILS_TRACK,65.27,76,10.73,1.65,0,-0.67,-0.7,269.46,2.911,0,14.227,270.4,-0.487,0.5,0.16,0.28,-0.02,-0.037,-0.487,-0.612,0.875,270.42,0.594,0.114,-1.223,0.0363,0.0363,-0.2555,1,1,8.22,LANDED
128.44,ROLLOUT,ILS_TRACK,65.15,76,10.85,1.65,0.02,-0.79,-0.86,270.95,3.433,0,14.227,270.4,-0.487,0.5,0.16,0.28,-0.02,-0.037,-0.487,-0.612,0.875,270.43,0.596,0.122,0.194,-0.0058,-0.0058,-0.3027,1,1,8.42,LANDED
128.62,ROLLOUT,ILS_TRACK,65.04,76,10.96,1.67,0.25,-1.02,-1.26,272.51,3.58,0,14.227,270.4,-0.487,0.5,0.16,0.28,-0.02,-0.037,-0.487,-0.612,0.875,270.43,0.598,0.123,1.728,-0.0517,-0.0517,-0.3171,1,1,8.6,LANDED
128.8,ROLLOUT,ILS_TRACK,64.92,76,11.08,1.67,0.02,-1.52,-1.57,273.93,3.875,0,14.227,270.4,-0.487,0.5,0.16,0.28,-0.02,-0.037,-0.487,-0.612,0.875,270.43,0.601,0.118,3.211,-0.0964,-0.0964,-0.3449,1,1,8.78,LANDED
128.98,ROLLOUT,ILS_TRACK,64.81,76,11.19,1.66,0.02,-1.67,-1.74,275.11,4.361,0,14.227,270.4,-0.487,0.5,0.16,0.28,-0.02,-0.037,-0.487,-0.612,0.875,270.42,0.603,0.107,4.445,-0.134,-0.134,-0.3899,1,1,8.96,LANDED
129.16,ROLLOUT,ILS_TRACK,64.69,76,11.31,1.66,0.02,-1.71,-1.77,276.05,4.745,0,14.227,270.4,-0.487,0.5,0.16,0.28,-0.02,-0.037,-0.487,-0.612,0.875,270.41,0.605,0.09,5.456,-0.1651,-0.1651,-0.4261,1,1,9.14,LANDED
129.34,ROLLOUT,ILS_TRACK,64.59,76,11.41,1.66,-0.01,-1.79,-1.8,276.57,4.838,0,14.227,270.4,-0.487,0.5,0.16,0.28,-0.02,-0.037,-0.487,-0.612,0.875,270.4,0.607,0.069,6.119,-0.1858,-0.1858,-0.4363,1,1,9.32,LANDED
129.54,ROLLOUT,ILS_TRACK,64.48,76,11.52,1.65,-0.17,-1.75,-1.64,276.21,3.757,0,14.227,270.4,-0.487,0.5,0.16,0.28,-0.02,-0.037,-0.487,-0.612,0.875,270.38,0.609,0.041,5.974,-0.1821,-0.1821,-0.3403,1,1,9.52,LANDED
129.72,ROLLOUT,ILS_TRACK,64.39,76,11.61,1.65,-0.26,-0.95,-0.86,275.17,0.45,0,14.227,270.4,-0.487,0.5,0.16,0.28,-0.02,-0.037,-0.487,-0.612,0.875,270.37,0.611,0.015,5.09,-0.1556,-0.1556,-0.0409,1,1,9.7,LANDED
129.9,ROLLOUT,ILS_TRACK,64.29,76,11.71,1.66,0.02,-0.47,-0.55,273.68,-2.552,0,14.227,270.4,-0.487,0.5,0.16,0.28,-0.02,-0.037,-0.487,-0.612,0.875,270.35,0.613,-0.009,3.689,-0.1131,-0.1131,0.2329,1,1,9.88,LANDED
130.08,ROLLOUT,ILS_TRACK,64.16,76,11.84,1.67,0.18,-0.61,-0.8,271.89,-3.682,0,14.227,270.4,-0.487,0.5,0.16,0.28,-0.02,-0.037,-0.487,-0.612,0.875,270.34,0.616,-0.028,1.973,-0.0607,-0.0607,0.3375,1,1,10.06,LANDED
130.26,ROLLOUT,ILS_TRACK,64.03,76,11.97,1.68,0.21,-1.48,-1.66,270.03,-4.218,0,14.227,270.4,-0.487,0.5,0.16,0.28,-0.02,-0.037,-0.487,-0.612,0.875,270.33,0.618,-0.039,0.089,-0.0028,-0.0028,0.3886,1,1,10.24,LANDED
130.44,ROLLOUT,ILS_TRACK,63.9,76,12.1,1.65,0.06,-2.2,-2.32,268.35,-5.195,0,14.227,270.4,-0.487,0.5,0.16,0.28,-0.02,-0.037,-0.487,-0.612,0.875,270.33,0.621,-0.041,-1.599,0.0496,0.0496,0.4811,1,1,10.42,LANDED
130.64,ROLLOUT,ILS_TRACK,63.76,76,12.24,1.66,0.1,-2.43,-2.64,266.33,-6.717,0,14.227,270.4,-0.487,0.5,0.16,0.28,-0.02,-0.037,-0.487,-0.612,0.875,270.34,0.624,-0.037,-3.609,0.1125,0.1125,0.6253,1,1,10.62,LANDED
130.82,ROLLOUT,ILS_TRACK,63.63,76,12.37,1.66,0.09,-2.77,-2.97,264.73,-8.067,0,14.227,270.4,-0.487,0.5,0.16,0.28,-0.02,-0.037,-0.487,-0.612,0.875,270.34,0.626,-0.025,-5.297,0.1658,0.1658,0.7547,1,1,10.8,LANDED
131,ROLLOUT,ILS_TRACK,63.5,76,12.5,1.65,0.07,-3.22,-3.36,263.66,-9.32,0,14.227,270.4,-0.487,0.5,0.16,0.28,-0.02,-0.037,-0.487,-0.612,0.875,270.36,0.629,-0.006,-6.507,0.2046,0.2046,0.8762,1,1,10.98,LANDED
131.18,ROLLOUT,ILS_TRACK,63.39,76,12.61,1.63,0.04,-3.73,-3.77,263.23,-10.27,0,14.227,270.4,-0.487,0.5,0.16,0.28,-0.02,-0.037,-0.487,-0.612,0.875,270.37,0.631,0.018,-7.113,0.2245,0.2245,0.97,1,1,11.16,LANDED
131.36,ROLLOUT,ILS_TRACK,63.27,76,12.73,1.61,-0.11,-3.9,-3.85,263.77,-9.585,0,14.227,270.4,-0.487,0.5,0.16,0.28,-0.02,-0.037,-0.487,-0.612,0.875,270.39,0.633,0.045,-6.835,0.2165,0.2165,0.9091,1,1,11.34,LANDED
131.54,ROLLOUT,ILS_TRACK,63.15,76,12.85,1.62,-0.34,-2.95,-2.76,265.33,-6.462,0,14.227,270.4,-0.487,0.5,0.16,0.28,-0.02,-0.037,-0.487,-0.612,0.875,270.41,0.636,0.071,-5.486,0.1744,0.1744,0.6156,1,1,11.52,LANDED
131.74,ROLLOUT,ILS_TRACK,63.01,76,12.99,1.65,-0.43,-0.73,-0.52,267.65,0.236,0,14.227,270.4,-0.487,0.5,0.16,0.28,-0.02,-0.037,-0.487,-0.612,0.875,270.42,0.639,0.097,-3.26,0.1041,0.1041,-0.0226,1,1,11.72,LANDED
131.92,ROLLOUT,ILS_TRACK,62.88,76,13.12,1.7,0.41,0.11,-0.38,269.78,4.413,0,14.227,270.4,-0.487,0.5,0.16,0.28,-0.02,-0.037,-0.487,-0.612,0.875,270.43,0.641,0.116,-1.103,0.0354,0.0354,-0.4246,1,1,11.9,LANDED
132.1,ROLLOUT,ILS_TRACK,62.7,76,13.3,1.8,0.7,-0.72,-1.46,271.35,5.341,0,14.227,270.4,-0.487,0.5,0.16,0.28,-0.02,-0.037,-0.487,-0.612,0.875,270.44,0.644,0.125,0.632,-0.0204,-0.0204,-0.5169,1,1,12.08,LANDED
132.28,ROLLOUT,ILS_TRACK,62.58,76,13.42,1.74,-0.21,-2.01,-1.65,272.27,7.214,0,14.227,270.4,-0.487,0.5,0.16,0.28,-0.02,-0.037,-0.487,-0.612,0.875,270.44,0.647,0.124,1.658,-0.0537,-0.0537,-0.7022,1,1,12.26,LANDED
132.46,ROLLOUT,ILS_TRACK,62.49,76,13.51,1.62,-0.12,-3.54,-3.41,272.77,7.951,0,14.227,270.4,-0.487,0.5,0.16,0.28,-0.02,-0.037,-0.487,-0.612,0.875,270.44,0.649,0.118,2.249,-0.073,-0.073,-0.7766,1,1,12.44,LANDED
132.64,ROLLOUT,ILS_TRACK,62.38,76,13.62,1.61,-0.06,-3.1,-3.18,273.29,8.001,0,14.227,270.4,-0.487,0.5,0.16,0.28,-0.02,-0.037,-0.487,-0.612,0.875,270.43,0.651,0.11,2.717,-0.0885,-0.0885,-0.7843,1,1,12.62,LANDED
132.84,ROLLOUT,ILS_TRACK,62.27,76,13.73,1.65,0.01,-2.45,-2.49,273.83,7.778,0,14.227,270.4,-0.487,0.5,0.16,0.28,-0.02,-0.037,-0.487,-0.612,0.875,270.43,0.654,0.099,3.339,-0.1092,-0.1092,-0.7657,1,1,12.82,LANDED
133.02,ROLLOUT,ILS_TRACK,62.17,76,13.83,1.64,-0.05,-2.47,-2.44,273.71,6.913,0,14.227,270.4,-0.487,0.5,0.16,0.28,-0.02,-0.037,-0.487,-0.612,0.875,270.42,0.656,0.086,3.384,-0.111,-0.111,-0.683,1,1,13,LANDED
133.2,ROLLOUT,ILS_TRACK,62.07,76,13.93,1.64,-0.26,-1.98,-1.83,272.87,4.5,0,14.227,270.4,-0.487,0.5,0.16,0.28,-0.02,-0.037,-0.487,-0.612,0.875,270.41,0.658,0.073,2.706,-0.089,-0.089,-0.4462,1,1,13.18,LANDED
133.38,ROLLOUT,ILS_TRACK,61.97,76,14.03,1.65,-0.24,-0.69,-0.63,271.51,0.034,0,14.227,270.4,-0.487,0.5,0.16,0.28,-0.02,-0.037,-0.487,-0.612,0.875,270.4,0.66,0.06,1.437,-0.0474,-0.0474,-0.0034,1,1,13.36,LANDED
133.56,ROLLOUT,ILS_TRACK,61.86,76,14.14,1.68,0.1,-0.3,-0.46,270.01,-3.022,0,14.227,270.4,-0.487,0.5,0.16,0.28,-0.02,-0.037,-0.487,-0.612,0.875,270.4,0.662,0.051,-0.061,0.002,0.002,0.3018,1,1,13.54,LANDED
133.74,ROLLOUT,ILS_TRACK,61.74,76,14.26,1.68,0.37,-0.77,-1.06,268.73,-3.579,0,14.227,270.4,-0.487,0.5,0.16,0.28,-0.02,-0.037,-0.487,-0.612,0.875,270.39,0.664,0.048,-1.407,0.0467,0.0467,0.3588,1,1,13.72,LANDED
133.94,ROLLOUT,ILS_TRACK,61.62,76,14.38,1.66,0.04,-1.69,-1.71,267.66,-3.629,0,14.227,270.4,-0.487,0.5,0.16,0.28,-0.02,-0.037,-0.487,-0.612,0.875,270.4,0.667,0.052,-2.551,0.085,0.085,0.3656,1,1,13.92,LANDED
134.12,ROLLOUT,ILS_TRACK,61.53,76,14.47,1.65,0.02,-1.8,-1.85,266.93,-3.896,0,14.227,270.4,-0.487,0.5,0.16,0.28,-0.02,-0.037,-0.487,-0.612,0.875,270.4,0.669,0.062,-3.328,0.1112,0.1112,0.3938,1,1,14.1,LANDED
134.3,ROLLOUT,ILS_TRACK,61.44,76,14.56,1.66,-0.04,-1.68,-1.66,266.66,-3.633,0,14.227,270.4,-0.487,0.5,0.16,0.28,-0.02,-0.037,-0.487,-0.612,0.875,270.41,0.67,0.075,-3.76,0.126,0.126,0.3684,1,1,14.28,LANDED
134.48,ROLLOUT,ILS_TRACK,61.36,76,14.64,1.65,-0.24,-1.31,-1.18,267.13,-1.907,0,14.227,270.4,-0.487,0.5,0.16,0.28,-0.02,-0.037,-0.487,-0.612,0.875,270.42,0.672,0.09,-3.455,0.1161,0.1161,0.194,1,1,14.46,LANDED
134.66,ROLLOUT,ILS_TRACK,61.27,76,14.73,1.65,-0.14,-0.63,-0.53,268.14,1.098,0,14.227,270.4,-0.487,0.5,0.16,0.28,-0.02,-0.037,-0.487,-0.612,0.875,270.44,0.674,0.105,-2.541,0.0856,0.0856,-0.112,1,1,14.64,LANDED
134.84,ROLLOUT,ILS_TRACK,61.18,76,14.82,1.66,0.06,-0.5,-0.58,269.34,3.068,0,14.227,270.4,-0.487,0.5,0.16,0.28,-0.02,-0.037,-0.487,-0.612,0.875,270.44,0.676,0.117,-1.386,0.0468,0.0468,-0.3139,1,1,14.82,LANDED
135.04,ROLLOUT,ILS_TRACK,61.06,76,14.94,1.66,0.13,-0.69,-0.85,270.9,3.709,0,14.227,270.4,-0.487,0.5,0.16,0.28,-0.02,-0.037,-0.487,-0.612,0.875,270.45,0.678,0.126,0.118,-0.004,-0.004,-0.381,1,1,15.02,LANDED
135.22,ROLLOUT,ILS_TRACK,60.96,76,15.04,1.68,0.2,-1.25,-1.45,272.41,3.848,0,14.227,270.4,-0.487,0.5,0.16,0.28,-0.02,-0.037,-0.487,-0.612,0.875,270.45,0.68,0.127,1.631,-0.0555,-0.0555,-0.3967,1,1,15.2,LANDED
135.4,ROLLOUT,ILS_TRACK,60.85,76,15.15,1.66,0.07,-1.74,-1.85,273.72,4.336,0,14.227,270.4,-0.487,0.5,0.16,0.28,-0.02,-0.037,-0.487,-0.612,0.875,270.45,0.682,0.123,2.991,-0.102,-0.102,-0.4487,1,1,15.38,LANDED
135.58,ROLLOUT,ILS_TRACK,60.75,76,15.25,1.66,0.08,-1.82,-1.96,274.87,4.986,0,14.227,270.4,-0.487,0.5,0.16,0.28,-0.02,-0.037,-0.487,-0.612,0.875,270.44,0.684,0.113,4.19,-0.1433,-0.1433,-0.5178,1,1,15.56,LANDED
135.76,ROLLOUT,ILS_TRACK,60.65,76,15.35,1.66,0.08,-1.93,-2.03,275.78,5.527,0,14.227,270.4,-0.487,0.5,0.16,0.28,-0.02,-0.037,-0.487,-0.612,0.875,270.43,0.686,0.099,5.178,-0.1776,-0.1776,-0.5759,1,1,15.74,LANDED
135.94,ROLLOUT,ILS_TRACK,60.55,76,15.45,1.66,0.04,-2.09,-2.12,276.15,5.775,0,14.227,270.4,-0.487,0.5,0.16,0.28,-0.02,-0.037,-0.487,-0.612,0.875,270.42,0.688,0.079,5.721,-0.1968,-0.1968,-0.6038,1,1,15.92,LANDED
136.14,ROLLOUT,ILS_TRACK,60.45,76,15.55,1.64,-0.15,-2.04,-1.95,275.62,4.472,0,14.227,270.4,-0.487,0.5,0.16,0.28,-0.02,-0.037,-0.487,-0.612,0.875,270.4,0.69,0.055,5.395,-0.1862,-0.1862,-0.4691,1,1,16.12,LANDED
136.32,ROLLOUT,ILS_TRACK,60.36,76,15.64,1.65,-0.25,-1.01,-0.86,274.38,0.939,0,14.227,270.4,-0.487,0.5,0.16,0.28,-0.02,-0.037,-0.487,-0.612,0.875,270.39,0.692,0.033,4.319,-0.1494,-0.1494,-0.0988,1,1,16.3,LANDED
136.5,ROLLOUT,ILS_TRACK,60.26,76,15.74,1.67,0.07,-0.3,-0.44,272.74,-2.633,0,14.227,270.4,-0.487,0.5,0.16,0.28,-0.02,-0.037,-0.487,-0.612,0.875,270.38,0.694,0.013,2.746,-0.0953,-0.0953,0.278,1,1,16.48,LANDED
136.68,ROLLOUT,ILS_TRACK,60.15,76,15.85,1.68,0.37,-0.53,-0.77,271,-3.81,0,14.227,270.4,-0.487,0.5,0.16,0.28,-0.02,-0.037,-0.487,-0.612,0.875,270.37,0.696,-0.001,1.015,-0.0353,-0.0353,0.4037,1,1,16.66,LANDED
136.86,ROLLOUT,ILS_TRACK,60.02,76,15.98,1.68,0.19,-1.56,-1.73,269.43,-4.225,0,14.227,270.4,-0.487,0.5,0.16,0.28,-0.02,-0.037,-0.487,-0.612,0.875,270.36,0.699,-0.008,-0.613,0.0214,0.0214,0.4496,1,1,16.84,LANDED
137.04,ROLLOUT,ILS_TRACK,59.91,76,16.09,1.65,0.1,-2.18,-2.32,268.04,-5.112,0,14.227,270.4,-0.487,0.5,0.16,0.28,-0.02,-0.037,-0.487,-0.612,0.875,270.36,0.701,-0.008,-2.004,0.0702,0.0702,0.546,1,1,17.02,LANDED
137.24,ROLLOUT,ILS_TRACK,59.8,76,16.2,1.66,0.12,-2.32,-2.53,266.4,-6.349,0,14.227,270.4,-0.487,0.5,0.16,0.28,-0.02,-0.037,-0.487,-0.612,0.875,270.37,0.703,-0.001,-3.644,0.1281,0.1281,0.6808,1,1,17.22,LANDED
137.42,ROLLOUT,ILS_TRACK,59.69,76,16.31,1.66,0.11,-2.58,-2.76,265.17,-7.343,0,14.227,270.4,-0.487,0.5,0.16,0.28,-0.02,-0.037,-0.487,-0.612,0.875,270.38,0.705,0.011,-4.966,0.1751,0.1751,0.7902,1,1,17.4,LANDED
137.6,ROLLOUT,ILS_TRACK,59.59,76,16.41,1.65,0.11,-2.91,-3.04,264.36,-8.282,0,14.227,270.4,-0.487,0.5,0.16,0.28,-0.02,-0.037,-0.487,-0.612,0.875,270.39,0.707,0.027,-5.892,0.2084,0.2084,0.8943,1,1,17.58,LANDED
137.78,ROLLOUT,ILS_TRACK,59.49,76,16.51,1.63,0.03,-3.32,-3.36,264.27,-8.651,0,14.227,270.4,-0.487,0.5,0.16,0.28,-0.02,-0.037,-0.487,-0.612,0.875,270.4,0.709,0.049,-6.189,0.2195,0.2195,0.9372,1,1,17.76,LANDED
137.96,ROLLOUT,ILS_TRACK,59.39,76,16.61,1.62,-0.14,-3.11,-3.04,265.11,-7.261,0,14.227,270.4,-0.487,0.5,0.16,0.28,-0.02,-0.037,-0.487,-0.612,0.875,270.42,0.711,0.071,-5.577,0.1983,0.1983,0.7891,1,1,17.94,LANDED
138.14,ROLLOUT,ILS_TRACK,59.28,76,16.72,1.64,-0.44,-1.86,-1.62,266.75,-3.368,0,14.227,270.4,-0.487,0.5,0.16,0.28,-0.02,-0.037,-0.487,-0.612,0.875,270.43,0.713,0.092,-4.092,0.146,0.146,0.3673,1,1,18.12,LANDED
138.34,ROLLOUT,ILS_TRACK,59.16,76,16.84,1.67,-0.01,-0.1,-0.2,268.94,2.702,0,14.227,270.4,-0.487,0.5,0.16,0.28,-0.02,-0.037,-0.487,-0.612,0.875,270.45,0.716,0.112,-1.963,0.0702,0.0702,-0.2958,1,1,18.32,LANDED
138.52,ROLLOUT,ILS_TRACK,59.03,76,16.97,1.7,0.53,-0.18,-0.64,270.77,4.729,0,14.227,270.4,-0.487,0.5,0.16,0.28,-0.02,-0.037,-0.487,-0.612,0.875,270.46,0.718,0.125,-0.052,0.0019,0.0019,-0.5197,1,1,18.5,LANDED
138.7,ROLLOUT,ILS_TRACK,58.89,76,17.11,1.74,0.48,-1.49,-1.98,271.96,5.028,0,14.227,270.4,-0.487,0.5,0.16,0.28,-0.02,-0.037,-0.487,-0.612,0.875,270.46,0.721,0.128,1.301,-0.0469,-0.0469,-0.5552,1,1,18.68,LANDED
138.88,ROLLOUT,ILS_TRACK,58.8,76,17.2,1.64,-0.26,-2.85,-2.57,272.57,5.976,0,14.227,270.4,-0.487,0.5,0.16,0.28,-0.02,-0.037,-0.487,-0.612,0.875,270.46,0.723,0.124,1.998,-0.0722,-0.0722,-0.6622,1,1,18.86,LANDED
139.06,ROLLOUT,ILS_TRACK,58.71,76,17.29,1.63,0.07,-2.44,-2.6,273.25,6.371,0,14.227,270.4,-0.487,0.5,0.16,0.28,-0.02,-0.037,-0.487,-0.612,0.875,270.45,0.725,0.117,2.611,-0.0946,-0.0946,-0.7078,1,1,19.04,LANDED
139.24,ROLLOUT,ILS_TRACK,58.62,76,17.38,1.66,0.08,-2.08,-2.19,274.05,6.595,0,14.227,270.4,-0.487,0.5,0.16,0.28,-0.02,-0.037,-0.487,-0.612,0.875,270.45,0.727,0.107,3.449,-0.1253,-0.1253,-0.7349,1,1,19.22,LANDED
139.44,ROLLOUT,ILS_TRACK,58.53,76,17.47,1.65,0.03,-2.27,-2.29,274.31,6.38,0,14.227,270.4,-0.487,0.5,0.16,0.28,-0.02,-0.037,-0.487,-0.612,0.875,270.44,0.729,0.093,3.897,-0.142,-0.142,-0.7131,1,1,19.42,LANDED
139.62,ROLLOUT,ILS_TRACK,58.44,76,17.56,1.64,-0.13,-2.05,-1.98,273.72,4.857,0,14.227,270.4,-0.487,0.5,0.16,0.28,-0.02,-0.037,-0.487,-0.612,0.875,270.43,0.73,0.078,3.493,-0.1276,-0.1276,-0.5444,1,1,19.6,LANDED
139.8,ROLLOUT,ILS_TRACK,58.35,76,17.65,1.65,-0.23,-0.97,-0.79,272.47,1.232,0,14.227,270.4,-0.487,0.5,0.16,0.28,-0.02,-0.037,-0.487,-0.612,0.875,270.42,0.732,0.064,2.372,-0.0868,-0.0868,-0.1385,1,1,19.78,LANDED
139.98,ROLLOUT,ILS_TRACK,58.25,76,17.75,1.67,0.11,-0.28,-0.43,270.95,-2.453,0,14.227,270.4,-0.487,0.5,0.16,0.28,-0.02,-0.037,-0.487,-0.612,0.875,270.41,0.734,0.052,0.888,-0.0326,-0.0326,0.2765,1,1,19.96,LANDED
140.16,ROLLOUT,ILS_TRACK,58.15,76,17.85,1.68,0.21,-0.52,-0.73,269.49,-3.509,0,14.227,270.4,-0.487,0.5,0.16,0.28,-0.02,-0.037,-0.487,-0.612,0.875,270.4,0.736,0.045,-0.609,0.0224,0.0224,0.3968,1,1,20.14,LANDED
140.34,ROLLOUT,ILS_TRACK,58.04,76,17.96,1.68,0.21,-1.35,-1.53,268.25,-3.61,0,14.227,270.4,-0.487,0.5,0.16,0.28,-0.02,-0.037,-0.487,-0.612,0.875,270.4,0.738,0.045,-1.912,0.0706,0.0706,0.4096,1,1,20.32,LANDED
140.54,ROLLOUT,ILS_TRACK,57.94,76,18.06,1.66,0.09,-1.84,-2,267.19,-4.019,0,14.227,270.4,-0.487,0.5,0.16,0.28,-0.02,-0.037,-0.487,-0.612,0.875,270.41,0.74,0.051,-3.021,0.1119,0.1119,0.4576,1,1,20.52,LANDED
140.72,ROLLOUT,ILS_TRACK,57.85,76,18.15,1.65,0.05,-1.88,-1.95,266.47,-4.435,0,14.227,270.4,-0.487,0.5,0.16,0.28,-0.02,-0.037,-0.487,-0.612,0.875,270.42,0.742,0.062,-3.835,0.1423,0.1423,0.5064,1,1,20.7,LANDED
140.9,ROLLOUT,ILS_TRACK,57.77,76,18.23,1.66,0,-1.74,-1.75,266.46,-4.033,0,14.227,270.4,-0.487,0.5,0.16,0.28,-0.02,-0.037,-0.487,-0.612,0.875,270.43,0.744,0.076,-4.033,0.15,0.15,0.4616,1,1,20.88,LANDED
141.08,ROLLOUT,ILS_TRACK,57.7,76,18.3,1.66,-0.23,-1.22,-1.14,267.17,-1.731,0,14.227,270.4,-0.487,0.5,0.16,0.28,-0.02,-0.037,-0.487,-0.612,0.875,270.44,0.745,0.091,-3.484,0.1299,0.1299,0.1986,1,1,21.06,LANDED
141.26,ROLLOUT,ILS_TRACK,57.61,76,18.39,1.65,-0.07,-0.5,-0.46,268.37,1.448,0,14.227,270.4,-0.487,0.5,0.16,0.28,-0.02,-0.037,-0.487,-0.612,0.875,270.45,0.747,0.106,-2.369,0.0885,0.0885,-0.1666,1,1,21.24,LANDED
141.44,ROLLOUT,ILS_TRACK,57.52,76,18.48,1.66,0.13,-0.39,-0.57,269.76,3.316,0,14.227,270.4,-0.487,0.5,0.16,0.28,-0.02,-0.037,-0.487,-0.612,0.875,270.46,0.749,0.118,-1.028,0.0385,0.0385,-0.3824,1,1,21.42,LANDED
141.64,ROLLOUT,ILS_TRACK,57.41,76,18.59,1.68,0.44,-0.77,-1.19,271.49,3.891,0,14.227,270.4,-0.487,0.5,0.16,0.28,-0.02,-0.037,-0.487,-0.612,0.875,270.47,0.751,0.125,0.673,-0.0253,-0.0253,-0.4503,1,1,21.62,LANDED
141.82,ROLLOUT,ILS_TRACK,57.3,76,18.7,1.67,0.15,-1.6,-1.75,272.9,4.216,0,14.227,270.4,-0.487,0.5,0.16,0.28,-0.02,-0.037,-0.487,-0.612,0.875,270.47,0.753,0.124,2.145,-0.0808,-0.0808,-0.4894,1,1,21.8,LANDED
142,ROLLOUT,ILS_TRACK,57.21,76,18.79,1.65,0.12,-1.94,-2.11,274.08,4.93,0,14.227,270.4,-0.487,0.5,0.16,0.28,-0.02,-0.037,-0.487,-0.612,0.875,270.46,0.755,0.118,3.366,-0.1271,-0.1271,-0.5741,1,1,21.98,LANDED
142.18,ROLLOUT,ILS_TRACK,57.11,76,18.89,1.66,0.13,-2.02,-2.19,275.1,5.712,0,14.227,270.4,-0.487,0.5,0.16,0.28,-0.02,-0.037,-0.487,-0.612,0.875,270.45,0.757,0.108,4.438,-0.168,-0.168,-0.667,1,1,22.16,LANDED
142.36,ROLLOUT,ILS_TRACK,57.03,76,18.97,1.66,0.11,-2.2,-2.31,275.71,6.305,0,14.227,270.4,-0.487,0.5,0.16,0.28,-0.02,-0.037,-0.487,-0.612,0.875,270.44,0.759,0.092,5.195,-0.1971,-0.1971,-0.7384,1,1,22.34,LANDED
142.54,ROLLOUT,ILS_TRACK,56.94,76,19.06,1.64,0,-2.4,-2.42,275.54,6.004,0,14.227,270.4,-0.487,0.5,0.16,0.28,-0.02,-0.037,-0.487,-0.612,0.875,270.43,0.76,0.074,5.217,-0.1983,-0.1983,-0.7048,1,1,22.52,LANDED
142.74,ROLLOUT,ILS_TRACK,56.85,76,19.15,1.64,-0.26,-1.73,-1.6,274.42,3.367,0,14.227,270.4,-0.487,0.5,0.16,0.28,-0.02,-0.037,-0.487,-0.612,0.875,270.41,0.762,0.053,4.301,-0.1639,-0.1639,-0.3963,1,1,22.72,LANDED
142.92,ROLLOUT,ILS_TRACK,56.75,76,19.25,1.66,-0.13,-0.43,-0.39,272.82,-1.063,0,14.227,270.4,-0.487,0.5,0.16,0.28,-0.02,-0.037,-0.487,-0.612,0.875,270.4,0.764,0.035,2.804,-0.1071,-0.1071,0.1255,1,1,22.9,LANDED
143.1,ROLLOUT,ILS_TRACK,56.65,76,19.35,1.68,0.2,-0.22,-0.47,271.05,-3.496,0,14.227,270.4,-0.487,0.5,0.16,0.28,-0.02,-0.037,-0.487,-0.612,0.875,270.39,0.766,0.021,1.051,-0.0402,-0.0402,0.414,1,1,23.08,LANDED
143.28,ROLLOUT,ILS_TRACK,56.52,76,19.48,1.69,0.41,-1,-1.37,269.49,-3.982,0,14.227,270.4,-0.487,0.5,0.16,0.28,-0.02,-0.037,-0.487,-0.612,0.875,270.38,0.768,0.013,-0.585,0.0225,0.0225,0.4732,1,1,23.26,LANDED
143.46,ROLLOUT,ILS_TRACK,56.42,76,19.58,1.66,0.12,-1.99,-2.11,268.31,-4.494,0,14.227,270.4,-0.487,0.5,0.16,0.28,-0.02,-0.037,-0.487,-0.612,0.875,270.39,0.771,0.014,-1.83,0.0705,0.0705,0.5359,1,1,23.44,LANDED
143.64,ROLLOUT,ILS_TRACK,56.33,76,19.67,1.65,0.14,-2.18,-2.36,267.21,-5.386,0,14.227,270.4,-0.487,0.5,0.16,0.28,-0.02,-0.037,-0.487,-0.612,0.875,270.39,0.773,0.019,-2.935,0.1134,0.1134,0.644,1,1,23.62,LANDED
143.84,ROLLOUT,ILS_TRACK,56.23,76,19.77,1.66,0.14,-2.3,-2.45,266.14,-6.328,0,14.227,270.4,-0.487,0.5,0.16,0.28,-0.02,-0.037,-0.487,-0.612,0.875,270.4,0.775,0.03,-4.074,0.1578,0.1578,0.7589,1,1,23.82,LANDED
144.02,ROLLOUT,ILS_TRACK,56.15,76,19.85,1.65,0.08,-2.63,-2.71,265.73,-6.688,0,14.227,270.4,-0.487,0.5,0.16,0.28,-0.02,-0.037,-0.487,-0.612,0.875,270.41,0.776,0.044,-4.658,0.1808,0.1808,0.804,1,1,24,LANDED
144.2,ROLLOUT,ILS_TRACK,56.07,76,19.93,1.64,-0.05,-2.57,-2.56,266.18,-5.867,0,14.227,270.4,-0.487,0.5,0.16,0.28,-0.02,-0.037,-0.487,-0.612,0.875,270.42,0.778,0.06,-4.417,0.1718,0.1718,0.7069,1,1,24.18,LANDED
144.38,ROLLOUT,ILS_TRACK,55.99,76,20.01,1.64,-0.33,-1.67,-1.49,267.42,-2.953,0,14.227,270.4,-0.487,0.5,0.16,0.28,-0.02,-0.037,-0.487,-0.612,0.875,270.44,0.779,0.076,-3.341,0.1302,0.1302,0.3567,1,1,24.36,LANDED
144.56,ROLLOUT,ILS_TRACK,55.9,76,20.1,1.66,-0.1,-0.3,-0.28,269.05,1.742,0,14.227,270.4,-0.487,0.5,0.16,0.28,-0.02,-0.037,-0.487,-0.612,0.875,270.45,0.781,0.09,-1.773,0.0693,0.0693,-0.2109,1,1,24.54,LANDED
144.74,ROLLOUT,ILS_TRACK,55.79,76,20.21,1.68,0.21,-0.13,-0.37,270.69,3.937,0,14.227,270.4,-0.487,0.5,0.16,0.28,-0.02,-0.037,-0.487,-0.612,0.875,270.45,0.783,0.1,-0.111,0.0043,0.0043,-0.4782,1,1,24.72,LANDED
144.94,ROLLOUT,ILS_TRACK,55.67,76,20.33,1.69,0.35,-1.12,-1.43,272.09,4.339,0,14.227,270.4,-0.487,0.5,0.16,0.28,-0.02,-0.037,-0.487,-0.612,0.875,270.46,0.786,0.104,1.398,-0.0549,-0.0549,-0.5289,1,1,24.92,LANDED
145.12,ROLLOUT,ILS_TRACK,55.58,76,20.42,1.65,0.13,-2,-2.12,272.91,4.78,0,14.227,270.4,-0.487,0.5,0.16,0.28,-0.02,-0.037,-0.487,-0.612,0.875,270.46,0.788,0.1,2.291,-0.0902,-0.0902,-0.5844,1,1,25.1,LANDED
145.3,ROLLOUT,ILS_TRACK,55.5,76,20.5,1.65,0.11,-2.16,-2.29,273.58,5.361,0,14.227,270.4,-0.487,0.5,0.16,0.28,-0.02,-0.037,-0.487,-0.612,0.875,270.45,0.789,0.093,2.995,-0.1182,-0.1182,-0.657,1,1,25.28,LANDED
145.48,ROLLOUT,ILS_TRACK,55.42,76,20.58,1.65,0.06,-2.09,-2.17,273.85,5.313,0,14.227,270.4,-0.487,0.5,0.16,0.28,-0.02,-0.037,-0.487,-0.612,0.875,270.44,0.791,0.082,3.403,-0.1346,-0.1346,-0.6526,1,1,25.46,LANDED
145.66,ROLLOUT,ILS_TRACK,55.35,76,20.65,1.65,-0.08,-1.78,-1.76,273.41,4.093,0,14.227,270.4,-0.487,0.5,0.16,0.28,-0.02,-0.037,-0.487,-0.612,0.875,270.43,0.792,0.07,3.138,-0.1243,-0.1243,-0.5038,1,1,25.64,LANDED
145.84,ROLLOUT,ILS_TRACK,55.27,76,20.73,1.65,-0.16,-0.89,-0.79,272.36,0.927,0,14.227,270.4,-0.487,0.5,0.16,0.28,-0.02,-0.037,-0.487,-0.612,0.875,270.42,0.794,0.058,2.209,-0.0877,-0.0877,-0.1144,1,1,25.82,LANDED
146.04,ROLLOUT,ILS_TRACK,55.18,76,20.82,1.67,0.15,-0.33,-0.52,270.86,-2.421,0,14.227,270.4,-0.487,0.5,0.16,0.28,-0.02,-0.037,-0.487,-0.612,0.875,270.41,0.796,0.047,0.75,-0.0298,-0.0298,0.2995,1,1,26.02,LANDED
146.22,ROLLOUT,ILS_TRACK,55.08,76,20.92,1.67,0.18,-0.57,-0.76,269.49,-3.194,0,14.227,270.4,-0.487,0.5,0.16,0.28,-0.02,-0.037,-0.487,-0.612,0.875,270.41,0.798,0.041,-0.62,0.0247,0.0247,0.3961,1,1,26.2,LANDED
146.4,ROLLOUT,ILS_TRACK,54.99,76,21.01,1.68,0.29,-1.09,-1.39,268.22,-3.17,0,14.227,270.4,-0.487,0.5,0.16,0.28,-0.02,-0.037,-0.487,-0.612,0.875,270.41,0.799,0.041,-1.926,0.077,0.077,0.3941,1,1,26.38,LANDED
146.58,ROLLOUT,ILS_TRACK,54.9,76,21.1,1.66,0.09,-1.57,-1.68,267.16,-3.318,0,14.227,270.4,-0.487,0.5,0.16,0.28,-0.02,-0.037,-0.487,-0.612,0.875,270.42,0.801,0.046,-3.04,0.1218,0.1218,0.4136,1,1,26.56,LANDED
146.76,ROLLOUT,ILS_TRACK,54.82,76,21.18,1.66,0.11,-1.55,-1.7,266.29,-3.61,0,14.227,270.4,-0.487,0.5,0.16,0.28,-0.02,-0.037,-0.487,-0.612,0.875,270.42,0.803,0.056,-3.971,0.1594,0.1594,0.451,1,1,26.74,LANDED
146.94,ROLLOUT,ILS_TRACK,54.74,76,21.26,1.66,0.05,-1.48,-1.55,265.96,-3.454,0,14.227,270.4,-0.487,0.5,0.16,0.28,-0.02,-0.037,-0.487,-0.612,0.875,270.43,0.804,0.069,-4.469,0.1798,0.1798,0.4326,1,1,26.92,LANDED
147.14,ROLLOUT,ILS_TRACK,54.67,76,21.33,1.65,-0.17,-1.23,-1.14,266.47,-1.815,0,14.227,270.4,-0.487,0.5,0.16,0.28,-0.02,-0.037,-0.487,-0.612,0.875,270.45,0.806,0.087,-4.144,0.167,0.167,0.2278,1,1,27.12,LANDED
147.32,ROLLOUT,ILS_TRACK,54.59,76,21.41,1.65,-0.06,-0.55,-0.52,267.52,1.041,0,14.227,270.4,-0.487,0.5,0.16,0.28,-0.02,-0.037,-0.487,-0.612,0.875,270.46,0.807,0.103,-3.206,0.1294,0.1294,-0.1309,1,1,27.3,LANDED
147.5,ROLLOUT,ILS_TRACK,54.51,76,21.49,1.66,0.11,-0.43,-0.6,268.89,2.941,0,14.227,270.4,-0.487,0.5,0.16,0.28,-0.02,-0.037,-0.487,-0.612,0.875,270.47,0.809,0.116,-1.911,0.0773,0.0773,-0.3707,1,1,27.48,LANDED
147.68,ROLLOUT,ILS_TRACK,54.42,76,21.58,1.66,0.21,-0.61,-0.86,270.56,3.673,0,14.227,270.4,-0.487,0.5,0.16,0.28,-0.02,-0.037,-0.487,-0.612,0.875,270.48,0.811,0.125,-0.322,0.0131,0.0131,-0.4641,1,1,27.66,LANDED
147.86,ROLLOUT,ILS_TRACK,54.31,76,21.69,1.68,0.31,-1.2,-1.55,272.42,4.084,0,14.227,270.4,-0.487,0.5,0.16,0.28,-0.02,-0.037,-0.487,-0.612,0.875,270.48,0.813,0.128,1.533,-0.0623,-0.0623,-0.5175,1,1,27.84,LANDED
148.04,ROLLOUT,ILS_TRACK,54.21,76,21.79,1.66,0.18,-1.85,-2.1,274.09,4.944,0,14.227,270.4,-0.487,0.5,0.16,0.28,-0.02,-0.037,-0.487,-0.612,0.875,270.48,0.815,0.125,3.255,-0.1326,-0.1326,-0.6283,1,1,28.02,LANDED
148.24,ROLLOUT,ILS_TRACK,54.1,76,21.9,1.66,0.2,-2.15,-2.46,275.76,6.338,0,14.227,270.4,-0.487,0.5,0.16,0.28,-0.02,-0.037,-0.487,-0.612,0.875,270.47,0.817,0.115,4.974,-0.2032,-0.2032,-0.8079,1,1,28.22,LANDED
148.42,ROLLOUT,ILS_TRACK,54,76,22,1.66,0.2,-2.52,-2.8,276.92,7.641,0,14.227,270.4,-0.487,0.5,0.16,0.28,-0.02,-0.037,-0.487,-0.612,0.875,270.46,0.819,0.1,6.237,-0.2554,-0.2554,-0.9768,1,1,28.4,LANDED
148.6,ROLLOUT,ILS_TRACK,53.91,76,22.09,1.65,0.19,-3.01,-3.21,277.52,8.904,0,14.227,270.4,-0.487,0.5,0.16,0.28,-0.02,-0.037,-0.487,-0.612,0.875,270.45,0.821,0.081,7.011,-0.2878,-0.2878,-1,1,1,28.58,LANDED
148.78,ROLLOUT,ILS_TRACK,53.83,76,22.17,1.62,0.07,-3.45,-3.55,277.27,9.075,0,14.227,270.4,-0.487,0.5,0.16,0.28,-0.02,-0.037,-0.487,-0.612,0.875,270.43,0.823,0.058,6.986,-0.2874,-0.2874,-1,1,1,28.76,LANDED
148.96,ROLLOUT,ILS_TRACK,53.74,76,22.26,1.62,-0.12,-2.98,-2.92,276.03,7.23,0,14.227,270.4,-0.487,0.5,0.16,0.28,-0.02,-0.037,-0.487,-0.612,0.875,270.41,0.824,0.035,5.972,-0.2462,-0.2462,-0.9312,1,1,28.94,LANDED
149.14,ROLLOUT,ILS_TRACK,53.64,76,22.36,1.64,-0.47,-1.47,-1.19,274.08,2.691,0,14.227,270.4,-0.487,0.5,0.16,0.28,-0.02,-0.037,-0.487,-0.612,0.875,270.39,0.826,0.014,4.157,-0.1718,-0.1718,-0.3475,1,1,29.12,LANDED
149.34,ROLLOUT,ILS_TRACK,53.52,76,22.48,1.68,0.16,0.14,-0.17,271.56,-3.192,0,14.227,270.4,-0.487,0.5,0.16,0.28,-0.02,-0.037,-0.487,-0.612,0.875,270.38,0.829,-0.006,1.696,-0.0703,-0.0703,0.4135,1,1,29.32,LANDED
149.52,ROLLOUT,ILS_TRACK,53.37,76,22.63,1.74,1.37,-0.22,-1.42,269.53,-4.757,0,14.227,270.4,-0.487,0.5,0.16,0.28,-0.02,-0.037,-0.487,-0.612,0.875,270.37,0.831,-0.017,-0.431,0.0179,0.0179,0.6182,1,1,29.5,LANDED
149.71,ROLLOUT,ILS_TRACK,53.25,76,22.75,1.78,-0.15,-1.41,-1.22,268.17,-5.86,0,14.227,270.4,-0.487,0.5,0.16,0.28,-0.02,-0.037,-0.487,-0.612,0.875,270.37,0.834,-0.017,-1.942,0.081,0.081,0.7648,1,1,29.69,LANDED
149.91,ROLLOUT,ILS_TRACK,53.17,76,22.83,1.63,0.05,-3.28,-3.32,267.21,-7.233,0,14.227,270.4,-0.487,0.5,0.16,0.28,-0.02,-0.037,-0.487,-0.612,0.875,270.37,0.836,-0.01,-2.973,0.1243,0.1243,0.9464,1,1,29.9,LANDED
150.12,ROLLOUT,ILS_TRACK,53.09,76,22.91,1.62,0.13,-3.13,-3.39,266.4,-8.065,0,14.227,270.4,-0.487,0.5,0.16,0.28,-0.02,-0.037,-0.487,-0.612,0.875,270.38,0.837,0,-3.767,0.1577,0.1577,1,1,1,30.11,LANDED
150.33,ROLLOUT,ILS_TRACK,52.99,76,23.01,1.65,0.09,-2.78,-2.92,265.77,-8.167,0,14.227,270.4,-0.487,0.5,0.16,0.28,-0.02,-0.037,-0.487,-0.612,0.875,270.39,0.839,0.014,-4.523,0.1898,0.1898,1,1,1,30.33,LANDED
150.58,ROLLOUT,ILS_TRACK,52.88,76,23.12,1.64,-0.03,-2.71,-2.72,266.17,-6.795,0,14.227,270.4,-0.487,0.5,0.16,0.28,-0.02,-0.037,-0.487,-0.612,0.875,270.41,0.841,0.034,-4.462,0.1877,0.1877,0.8958,1,1,30.58,LANDED
150.82,ROLLOUT,ILS_TRACK,52.77,76,23.23,1.64,-0.35,-1.38,-1.28,267.87,-2.599,0,14.227,270.4,-0.487,0.5,0.16,0.28,-0.02,-0.037,-0.487,-0.612,0.875,270.43,0.844,0.053,-3.087,0.1302,0.1302,0.3435,1,1,30.82,LANDED
151.07,ROLLOUT,ILS_TRACK,52.65,76,23.35,1.68,0.17,0.16,-0.14,270.36,3.379,0,14.227,270.4,-0.487,0.5,0.16,0.28,-0.02,-0.037,-0.487,-0.612,0.875,270.44,0.846,0.07,-0.744,0.0315,0.0315,-0.4481,1,1,31.07,LANDED
151.33,ROLLOUT,ILS_TRACK,52.49,76,23.51,1.69,0.41,-0.52,-0.84,272.6,3.655,0,14.227,270.4,-0.487,0.5,0.16,0.28,-0.02,-0.037,-0.487,-0.612,0.875,270.45,0.849,0.079,1.663,-0.0706,-0.0706,-0.4864,1,1,31.33,LANDED
151.63,ROLLOUT,ILS_TRACK,52.34,76,23.66,1.66,0.01,-1.04,-1.17,274.52,2.144,0,14.227,270.4,-0.487,0.5,0.16,0.28,-0.02,-0.037,-0.487,-0.612,0.875,270.44,0.852,0.07,3.636,-0.1549,-0.1549,-0.2866,1,1,31.64,LANDED
151.91,ROLLOUT,ILS_TRACK,52.23,76,23.77,1.66,0.05,-0.47,-0.52,276.25,1.298,0,14.227,270.4,-0.487,0.5,0.16,0.28,-0.02,-0.037,-0.487,-0.612,0.875,270.43,0.854,0.05,5.446,-0.2326,-0.2326,-0.1741,1,1,31.92,LANDED
152.19,ROLLOUT,ILS_TRACK,52.12,76,23.88,1.66,0.11,-0.56,-0.64,276.79,1.433,0,14.227,270.4,-0.487,0.5,0.16,0.28,-0.02,-0.037,-0.487,-0.612,0.875,270.4,0.857,0.022,6.414,-0.2747,-0.2747,-0.1927,1,1,32.2,LANDED
152.47,ROLLOUT,ILS_TRACK,52.02,76,23.98,1.64,0.1,-0.68,-0.79,275.7,-0.324,0,14.227,270.4,-0.487,0.5,0.16,0.28,-0.02,-0.037,-0.487,-0.612,0.875,270.37,0.859,-0.012,5.742,-0.2465,-0.2465,0.0436,1,1,32.48,LANDED
152.79,ROLLOUT,ILS_TRACK,51.89,76,24.11,1.66,0.11,-0.33,-0.56,272.61,-2.852,0,14.227,270.4,-0.487,0.5,0.16,0.28,-0.02,-0.037,-0.487,-0.612,0.875,270.35,0.861,-0.046,3.159,-0.136,-0.136,0.3859,1,1,32.8,LANDED
153.07,ROLLOUT,ILS_TRACK,51.72,76,24.28,1.68,0.18,-0.47,-0.69,268.4,-2.98,0,14.227,270.4,-0.487,0.5,0.16,0.28,-0.02,-0.037,-0.487,-0.612,0.875,270.33,0.864,-0.065,-0.863,0.0373,0.0373,0.4045,1,1,33.08,LANDED
153.35,ROLLOUT,ILS_TRACK,51.52,76,24.48,1.68,0.17,-1.11,-1.32,264.3,-2.858,0,14.227,270.4,-0.487,0.5,0.16,0.28,-0.02,-0.037,-0.487,-0.612,0.875,270.33,0.868,-0.062,-5.059,0.2194,0.2194,0.39,1,1,33.36,LANDED
153.63,ROLLOUT,ILS_TRACK,51.34,76,24.66,1.67,0.11,-1.15,-1.38,260.75,-3.045,0,14.227,270.4,-0.487,0.5,0.16,0.28,-0.02,-0.037,-0.487,-0.612,0.875,270.35,0.871,-0.037,-8.754,0.3814,0.3814,0.4176,1,1,33.64,LANDED
153.94,ROLLOUT,ILS_TRACK,51.15,76,24.85,2.04,-0.85,-1.19,-1.19,257.82,-2.492,0,14.227,270.4,-0.487,0.5,0.16,0.28,-0.02,-0.037,-0.487,-0.612,0.875,270.4,0.875,0.012,-12.093,0.5293,0.5293,0.3435,1,1,33.95,LANDED
154.22,ROLLOUT,ILS_TRACK,51.02,76,24.98,2.63,-3.56,-1.33,2.03,256.96,-4.833,0,14.227,270.4,-0.487,0.5,0.16,0.28,-0.02,-0.037,-0.487,-0.612,0.875,270.45,0.879,0.072,-13.437,0.5903,0.5903,0.6689,1,1,34.23,FLYING
154.5,ROLLOUT,ILS_TRACK,51.03,76,24.97,2.55,-5.65,-1.35,4.35,257.93,-8.234,0,14.227,270.4,-0.487,0.5,0.16,0.28,-0.02,-0.037,-0.487,-0.612,0.875,270.5,0.88,0.134,-13,0.5719,0.5719,1,1,1,34.51,FLYING
154.78,ROLLOUT,ILS_TRACK,51.12,76,24.88,2.08,-4.2,-2.06,3.2,260.33,-11.117,0,14.227,270.4,-0.487,0.5,0.16,0.28,-0.02,-0.037,-0.487,-0.612,0.875,270.56,0.879,0.196,-10.769,0.4731,0.4731,1,1,1,34.79,LANDED
155.1,ROLLOUT,ILS_TRACK,51.05,76,24.95,1.43,-0.11,-2.72,-2.24,264.65,-0.659,0,14.227,270.4,-0.487,0.5,0.16,0.28,-0.02,-0.037,-0.487,-0.612,0.875,270.62,0.877,0.262,-7.838,0.3438,0.3438,0.0911,1,1,35.11,LANDED
155.38,ROLLOUT,ILS_TRACK,50.04,76,25.96,2.57,1.67,9.96,5.57,270.89,10.464,0,14.227,270.4,-0.487,0.5,0.16,0.28,-0.02,-0.037,-0.487,-0.612,0.875,270.66,0.889,0.306,-1.034,0.046,0.046,-1,1,1,35.39,LANDED
155.66,ROLLOUT,ILS_TRACK,49.45,76,26.55,3.4,1.06,16.66,11.88,275.07,22.246,0,14.227,270.4,-0.487,0.5,0.16,0.28,-0.02,-0.037,-0.487,-0.612,0.875,270.68,0.906,0.322,3.284,-0.1487,-0.1487,-1,1,1,35.67,FLYING
155.94,ROLLOUT,ILS_TRACK,48.84,76,27.16,3.6,0.06,16.11,8.51,278.76,28.4,0,14.227,270.4,-0.487,0.5,0.16,0.28,-0.02,-0.037,-0.487,-0.612,0.875,270.7,0.917,0.334,7.306,-0.3351,-0.3351,-1,1,1,35.95,FLYING
156.25,ROLLOUT,ILS_TRACK,48.35,76,27.65,3.37,-1.2,14.69,6.92,279.65,31.51,0,14.227,270.4,-0.487,0.5,0.16,0.28,-0.02,-0.037,-0.487,-0.612,0.875,270.72,0.929,0.35,8.575,-0.3984,-0.3984,-1,1,1,36.26,FLYING
156.51,ROLLOUT,ILS_TRACK,47.82,76,28.18,2.94,0.28,11.92,6.73,276.57,30.616,0,14.227,270.4,-0.487,0.5,0.16,0.28,-0.02,-0.037,-0.487,-0.612,0.875,270.72,0.938,0.352,6.822,-0.3198,-0.3198,-1,1,1,36.5,LANDED
156.73,ROLLOUT,ILS_TRACK,46.63,76,29.37,2.77,0.29,7.24,9.53,268.67,44.784,0,14.227,270.4,-0.487,0.5,0.16,0.28,-0.02,-0.037,-0.487,-0.612,0.875,270.73,0.956,0.348,0.009,-0.0004,-0.0004,-1,1,1,36.71,LANDED
156.94,ROLLOUT,ILS_TRACK,46.13,76,29.87,2.25,0.51,0.44,13.96,260.38,72.292,0,14.227,270.4,-0.487,0.5,0.16,0.28,-0.02,-0.037,-0.487,-0.612,0.875,270.72,0.975,0.327,-8.725,0.4254,0.4254,-1,1,1,36.92,FLYING
157.14,ROLLOUT,ILS_TRACK,45.57,76,30.43,1.87,-1.49,-6.43,19.73,254.15,84.336,0,14.227,270.4,-0.487,0.5,0.16,0.28,-0.02,-0.037,-0.487,-0.612,0.875,270.7,0.983,0.31,-15.363,0.7554,0.7554,-1,1,1,37.12,FLYING
157.35,ROLLOUT,ILS_TRACK,45.22,76,30.78,1.11,-4.09,-14,22.59,251.41,59.932,0,14.227,270.4,-0.487,0.5,0.16,0.28,-0.02,-0.037,-0.487,-0.612,0.875,270.69,0.993,0.297,-19.219,0.9542,0.9542,-1,1,1,37.33,FLYING
