t_s,phase,subphase,ias_ms,vapp_ms,spd_err_ms,agl_m,gear_h_m,vs_ms,pitch_deg,aoa_deg,hdg_deg,bank_deg,thr_cmd,thr_cur,thr_intg,at_gain,at_tau_s,at_a_up,at_a_dn,at_kp_thr,at_ki_spd,at_thr_slew,as_cmd_deg,as_cap_deg,as_raw_deg,as_spd_err_ms,as_active,aa_hdg_cmd_deg,aa_fpa_cmd_deg,aa_fbw,aa_dir,actual_fpa_deg,ftf_hdg_err_deg,ftf_fix_idx,kos_steer_pit_deg,kos_steer_hdg_deg,aa_dir_vx,aa_dir_vy,aa_dir_vz,aa_dir_pitch_deg,aa_dir_hdg_deg,ils_loc_m,ils_gs_m,ils_dist_km,loc_corr_deg,gs_corr_deg,gs_latched,active_gs_ang_deg,ils_intercept_alt_m,d_gs_ms,fpa_preclamped_deg,gs_nom_alt_m,flare_fpa_cmd,flare_tgt_vs,flare_frac,flare_round_blend_h,flare_round_blend_ttg,flare_round_blend,flare_mode,flare_auth_limited,flare_auth_reason,flare_vs_err,flare_fpa_err,flare_pitch_err,flare_theta_cmd_raw,flare_theta_cmd_clamped,flare_theta_clamp_active,flare_aoa_clamp_active,flare_pitch_in_cmd,elev_defl_avg_deg,elev_defl_max_deg,elev_defl_n,flare_ctrl_h_m,flare_req_up_a,flare_thr_floor,flare_tecs_et_err,flare_tecs_eb_err,flare_tecs_h_ref,flare_tecs_v_ref,flare_gamma_ref,flare_gamma_eb_term,flare_gamma_unsat,steer_hdg_deg,steer_blend,ro_loc_corr_deg,ro_hdg_err_deg,ro_yaw_tgt,ro_yaw_scale,ro_yaw_gate,yaw_cmd,roll_cmd,pitch_cmd,ro_pitch_tgt_deg,ro_pitch_err_deg,ro_pitch_ff,ro_roll_assist,flaps_cur,flaps_tgt,asc_j_ab,asc_j_rk,asc_validity,asc_q_pa,asc_q_raw_pa,asc_mach,asc_apo_m,asc_drag_n,asc_w_prop,asc_edot_aero,asc_edot_orb,asc_pitch_bias,asc_blend,asc_spooling,asc_ab_thr_ratio,asc_ab_t_now,asc_ab_t_avail,asc_ab_ign_on,asc_ab_flameouts,asc_rk_t_now,asc_rk_t_avail,asc_rk_ign_on,asc_rk_flameouts,ship_thrust,ship_avail_thrust,ship_ign_on,ship_flameouts,ifc_raw_dt_s,ifc_dt_s,ifc_loop_n,ifc_hz_est,ifc_raw_dt_max_s,ifc_raw_dt_min_s,phase_el_s,status,craft_name,cfg_file
2.92,TAKEOFF,TO_PREFLIGHT,0.06,80,79.94,4.79,-3.12,-0.07,-0.34,61.93,89.72,0.097,0.08,0,0,0,0,0,0,0,0,0,0,0,0,0,0,90,0,1,0,14.09,0,0,0,90,0,0,0,0,0,0,0,0,0,0,0,3,0,0,0,69,0,0,0,0,0,0,,0,NONE,0,0,0,0,0,0,0,0,0,0,0,0,0,0,0,0,0,0,0,0,0,90,1,0,-0.283,0,0,1,0,0,0,0,0,0,0,0,1,0,0,VALID,0,0,0,0,0,1,0,0,0,0,0,0,0,0,0,0,0,0,0,0,0,1939.58,6,0,0.2,0.2,1,0.34,0.2,0.02,2.72,LANDED,C-1000G,0:/Integrated Flight Computer/aircraft/c_1000g_cfg.ks (inferred preloaded)
3.22,TAKEOFF,TO_PREFLIGHT,0.04,80,79.96,4.78,-3.11,0.06,-0.48,-64.14,89.51,0.1,0.36,0,0,0,0,0,0,0,0,0,0,0,0,0,0,90,0,1,0,3.25,0,0,0,90,0,0,0,0,0,0,0,0,0,0,0,3,0,0,0,69,0,0,0,0,0,0,,0,NONE,0,0,0,0,0,0,0,0,0,0,0,0,0,0,0,0,0,0,0,0,0,90,1,0,-0.283,0,0,1,0,0,0,0,0,0,0,1,1,0,0,VALID,0,0,0,0,0,1,0,0,0,0,0,0,0,0,0,0,0,0,0,0,6.48,1939.6,6,0,0.08,0.08,5,13.33,2.82,0.04,3.04,LANDED,C-1000G,0:/Integrated Flight Computer/aircraft/c_1000g_cfg.ks (inferred preloaded)
3.48,TAKEOFF,TO_PREFLIGHT,0.04,80,79.96,4.79,-3.12,-0.05,-0.46,52.53,89.49,0.1,0.464,0,0,0,0,0,0,0,0,0,0,0,0,0,0,90,0,1,0,-2.78,0,0,0,90,0,0,0,0,0,0,0,0,0,0,0,3,0,0,0,69,0,0,0,0,0,0,,0,NONE,0,0,0,0,0,0,0,0,0,0,0,0,0,0,0,0,0,0,0,0,0,90,1,0,-0.283,0,0,1,0,0,0,0,0,0,0,1,1,0,0,VALID,0,0,0,0,0,1,0,0,0,0,0,0,0,0,0,0,0,0,0,0,17.83,1939.6,6,0,0.06,0.06,9,15.38,0.08,0.04,3.3,LANDED,C-1000G,0:/Integrated Flight Computer/aircraft/c_1000g_cfg.ks (inferred preloaded)
3.74,TAKEOFF,TO_PREFLIGHT,0.04,80,79.96,4.78,-3.11,0.03,-0.48,-38.74,89.47,0.098,0.568,0,0,0,0,0,0,0,0,0,0,0,0,0,0,90,0,1,0,1.89,0,0,0,90,0,0,0,0,0,0,0,0,0,0,0,3,0,0,0,69,0,0,0,0,0,0,,0,NONE,0,0,0,0,0,0,0,0,0,0,0,0,0,0,0,0,0,0,0,0,0,90,1,0,-0.283,0,0,1,0,0,0,0,0,0,0,1,1,0,0,VALID,0,0,0,0,0,1,0,0,0,0,0,0,0,0,0,0,0,0,0,0,32.13,1939.6,6,0,0.04,0.04,13,15.38,0.08,0.04,3.56,LANDED,C-1000G,0:/Integrated Flight Computer/aircraft/c_1000g_cfg.ks (inferred preloaded)
4,TAKEOFF,TO_PREFLIGHT,0.05,80,79.95,4.79,-3.11,-0.02,-0.47,12.84,89.45,0.097,0.672,0,0,0,0,0,0,0,0,0,0,0,0,0,0,90,0,1,0,-1.03,0,0,0,90,0,0,0,0,0,0,0,0,0,0,0,3,0,0,0,69,0,0,0,0,0,0,,0,NONE,0,0,0,0,0,0,0,0,0,0,0,0,0,0,0,0,0,0,0,0,0,90,1,0,-0.283,0,0,1,0,0,0,0,0,0,0,1,1,0,0,VALID,0,0,0,0,0,1,0,0,0,0,0,0,0,0,0,0,0,0,0,0,49.4,1939.59,6,0,0.06,0.06,17,15.38,0.08,0.04,3.82,LANDED,C-1000G,0:/Integrated Flight Computer/aircraft/c_1000g_cfg.ks (inferred preloaded)
4.32,TAKEOFF,TO_PREFLIGHT,0.06,80,79.94,4.78,-3.12,0.02,-0.48,-11.58,89.42,0.099,0.8,0,0,0,0,0,0,0,0,0,0,0,0,0,0,90,0,1,0,1.01,0,0,0,90,0,0,0,0,0,0,0,0,0,0,0,3,0,0,0,69,0,0,0,0,0,0,,0,NONE,0,0,0,0,0,0,0,0,0,0,0,0,0,0,0,0,0,0,0,0,0,90,1,0,-0.283,0,0,1,0,0,0,0,0,0,0,1,1,0,0,VALID,0,0,0,0,0,1,0,0,0,0,0,0,0,0,0,0,0,0,0,0,74.56,1939.58,6,0,0.08,0.08,22,15.62,0.08,0.04,4.14,LANDED,C-1000G,0:/Integrated Flight Computer/aircraft/c_1000g_cfg.ks (inferred preloaded)
4.64,TAKEOFF,TO_PREFLIGHT,0.1,80,79.9,4.79,-3.12,-0.02,-0.46,6.7,89.4,0.102,0.928,0,0,0,0,0,0,0,0,0,0,0,0,0,0,90,0,1,0,-0.96,0,0,0,90,0,0,0,0,0,0,0,0,0,0,0,3,0,0,0,69,0,0,0,0,0,0,,0,NONE,0,0,0,0,0,0,0,0,0,0,0,0,0,0,0,0,0,0,0,0,0,90,1,0,-0.283,0,0,1,0,0,0,0,0,0,0,1,1,0,0,VALID,0,0,0,0,0,1,0,0,0,0,0,0,0,0,0,0,0,0,0,0,103.93,1939.54,6,0,0.08,0.08,27,15.62,0.08,0.04,4.46,LANDED,C-1000G,0:/Integrated Flight Computer/aircraft/c_1000g_cfg.ks (inferred preloaded)
4.96,TAKEOFF,TO_PREFLIGHT,0.16,80,79.84,4.78,-3.12,0.01,-0.48,-3.77,89.37,0.102,1,0,0,0,0,0,0,0,0,0,0,0,0,0,0,90,0,1,0,0.7,0,0,0,90,0,0,0,0,0,0,0,0,0,0,0,3,0,0,0,69,0,0,0,0,0,0,,0,NONE,0,0,0,0,0,0,0,0,0,0,0,0,0,0,0,0,0,0,0,0,0,90,1,0,-0.283,0,0,1,0,0,0,0,0,0,0,1,1,0,0,VALID,0,0,0,0,0,1,0,0,0,0,0,0,0,0,0,0,0,0,0,0,137.31,1939.49,6,0,0.08,0.08,32,15.62,0.08,0.04,4.78,LANDED,C-1000G,0:/Integrated Flight Computer/aircraft/c_1000g_cfg.ks (inferred preloaded)
5.28,TAKEOFF,TO_PREFLIGHT,0.26,80,79.74,4.79,-3.12,-0.01,-0.46,1.63,89.35,0.103,1,0,0,0,0,0,0,0,0,0,0,0,0,0,0,90,0,1,0,-0.68,0,0,0,90,0,0,0,0,0,0,0,0,0,0,0,3,0,0,0,69,0,0,0,0,0,0,,0,NONE,0,0,0,0,0,0,0,0,0,0,0,0,0,0,0,0,0,0,0,0,0,90,1,0,-0.283,0,0,1,0,0,0,0,0,0,0,1,1,0,0,VALID,0,0,0,0,0,1,0,0,0,0,0,0,0,0,0,0,0,0,0,0,171.59,1939.4,6,0,0.08,0.08,37,15.62,0.08,0.04,5.1,LANDED,C-1000G,0:/Integrated Flight Computer/aircraft/c_1000g_cfg.ks (inferred preloaded)
5.56,TAKEOFF,TO_GROUND_ROLL,0.37,80,79.63,4.78,-3.12,0,-0.47,-0.98,89.34,0.104,1,0,0,0,0,0,0,0,0,0,0,0,0,0,0,91.27,0,1,0,0.23,0,0,0,90,0,0,0,0,0,0,0,0,-0.002,0,0,3,0,0,0,69,0,0,0,0,0,0,,0,NONE,0,0,0,0,0,0,0,0,0,0,0,0,0,0,0,0,0,0,0,0,0,91.27,1,-0.002,-1.931,0.0217,0.25,1,0.0217,0,0,0,0,0,0,1,1,0,0,VALID,0,0,0,0,0,1,0,0,0,0,0,0,0,0,0,0,0,0,0,0,201.05,1939.29,6,0,0.06,0.06,41,15.38,0.08,0.04,5.36,LANDED,C-1000G,0:/Integrated Flight Computer/aircraft/c_1000g_cfg.ks (inferred preloaded)
5.86,TAKEOFF,TO_GROUND_ROLL,0.56,80,79.44,4.79,-3.12,-0.01,-0.45,0.09,89.32,0.102,1,0,0,0,0,0,0,0,0,0,0,0,0,0,0,90.01,0,1,0,-0.36,0,0,0,90,0,0,0,0,0,0,0,0,-0.002,0,0,3,0,0,0,69,0,0,0,0,0,0,,0,NONE,0,0,0,0,0,0,0,0,0,0,0,0,0,0,0,0,0,0,0,0,0,90.01,1,-0.002,-0.681,0.0077,0.25,1,0.0077,0,0,0,0,0,0,1,1,0,0,VALID,0,0,0,0,0,1,0,0,0,0,0,0,0,0,0,0,0,0,0,0,232.06,1939.11,6,0,0.06,0.06,45,13.33,0.1,0.06,5.66,LANDED,C-1000G,0:/Integrated Flight Computer/aircraft/c_1000g_cfg.ks (inferred preloaded)
6.14,TAKEOFF,TO_GROUND_ROLL,0.8,80,79.2,4.79,-3.12,-0.01,-0.46,-0.14,89.31,0.096,1,0,0,0,0,0,0,0,0,0,0,0,0,0,0,90.01,0,1,0,-0.3,0,0,0,90,0,0,0,0,0,0,0,0,-0.002,0,0,3,0,0,0,69,0,0,0,0,0,0,,0,NONE,0,0,0,0,0,0,0,0,0,0,0,0,0,0,0,0,0,0,0,0,0,90.01,1,-0.002,-0.692,0.0078,0.25,1,0.0078,0,0,0,0,0,0,1,1,0,0,VALID,0,0,0,0,0,1,0,0,0,0,0,0,0,0,0,0,0,0,0,0,260.48,1938.89,6,0,0.06,0.06,49,14.29,0.08,0.06,5.94,LANDED,C-1000G,0:/Integrated Flight Computer/aircraft/c_1000g_cfg.ks (inferred preloaded)
6.42,TAKEOFF,TO_GROUND_ROLL,1.06,80,78.94,4.79,-3.12,0,-0.45,-0.23,89.3,0.095,1,0,0,0,0,0,0,0,0,0,0,0,0,0,0,90.01,0,1,0,-0.26,0,0,0,90,0,0,0,0,0,0,0,0,-0.002,0,0,3,0,0,0,69,0,0,0,0,0,0,,0,NONE,0,0,0,0,0,0,0,0,0,0,0,0,0,0,0,0,0,0,0,0,0,90.01,1,-0.002,-0.704,0.0079,0.25,1,0.0079,0,0,0,0,0,0,1,1,0,0,VALID,0,0,0,0,0,1,0,0,0,0,0,0,0,0,0,0,0,0,0,0,288.43,1938.65,6,0,0.06,0.06,53,14.29,0.08,0.06,6.22,LANDED,C-1000G,0:/Integrated Flight Computer/aircraft/c_1000g_cfg.ks (inferred preloaded)
6.72,TAKEOFF,TO_GROUND_ROLL,1.37,80,78.63,4.79,-3.12,-0.01,-0.46,-0.06,89.29,0.099,1,0,0,0,0,0,0,0,0,0,0,0,0,0,0,90.01,0,1,0,-0.45,0,0,0,90,0,0,0,0,0,0,0,0,-0.002,0,0,3,0,0,0,69,0,0,0,0,0,0,,0,NONE,0,0,0,0,0,0,0,0,0,0,0,0,0,0,0,0,0,0,0,0,0,90.01,1,-0.002,-0.718,0.0081,0.25,1,0.0081,0,0,0,0,0,0,1,1,0,0,VALID,0,0,0,0,0,1,0,0,0,0,0,0,0,0,0,0,0,0,0,0,317.83,1938.36,6,0,0.06,0.06,57,13.33,0.1,0.06,6.52,LANDED,C-1000G,0:/Integrated Flight Computer/aircraft/c_1000g_cfg.ks (inferred preloaded)
7,TAKEOFF,TO_GROUND_ROLL,1.69,80,78.31,4.79,-3.12,-0.01,-0.45,-0.22,89.28,0.104,1,0,0,0,0,0,0,0,0,0,0,0,0,0,0,90.01,0,1,0,-0.26,0,0,0,90,0,0,0,0,0,0,0,0,-0.002,0,0,3,0,0,0,69,0,0,0,0,0,0,,0,NONE,0,0,0,0,0,0,0,0,0,0,0,0,0,0,0,0,0,0,0,0,0,90.01,1,-0.002,-0.732,0.0082,0.25,1,0.0082,0,0,0,0,0,0,1,1,0,0,VALID,0,0,0,0,0,1,0,0,0,0,0,0,0,0,0,0,0,0,0,0,344.79,1938.05,6,0,0.06,0.06,61,14.29,0.08,0.06,6.8,LANDED,C-1000G,0:/Integrated Flight Computer/aircraft/c_1000g_cfg.ks (inferred preloaded)
7.3,TAKEOFF,TO_GROUND_ROLL,2.06,80,77.94,4.79,-3.13,-0.01,-0.45,-0.08,89.26,0.106,1,0,0,0,0,0,0,0,0,0,0,0,0,0,0,90.01,0,1,0,-0.41,0,0,0,90,0,0,0,0,0,0,0,0,-0.002,0,0,3,0,0,0,69,0,0,0,0,0,0,,0,NONE,0,0,0,0,0,0,0,0,0,0,0,0,0,0,0,0,0,0,0,0,0,90.01,1,-0.002,-0.748,0.0084,0.25,1,0.0084,0,0,0,0,0,0,1,1,0,0,VALID,0,0,0,0,0,1,0,0,0,0,0,0,0,0,0,0,0,0,0,0,373.17,1937.7,6,0,0.06,0.06,65,13.33,0.1,0.06,7.1,LANDED,C-1000G,0:/Integrated Flight Computer/aircraft/c_1000g_cfg.ks (inferred preloaded)
7.6,TAKEOFF,TO_GROUND_ROLL,2.46,80,77.54,4.79,-3.13,-0.01,-0.45,-0.21,89.25,0.102,1,0,0,0,0,0,0,0,0,0,0,0,0,0,0,90.01,0,1,0,-0.26,0,0,0,90,0,0,0,0,0,0,0,0,-0.002,0,0,3,0,0,0,69,0,0,0,0,0,0,,0,NONE,0,0,0,0,0,0,0,0,0,0,0,0,0,0,0,0,0,0,0,0,0,90.01,1,-0.002,-0.761,0.0086,0.25,1,0.0086,0,0,0,0,0,0,1,1,0,0,VALID,0,0,0,0,0,1,0,0,0,0,0,0,0,0,0,0,0,0,0,0,401.01,1937.31,6,0,0.06,0.06,69,13.33,0.1,0.06,7.4,LANDED,C-1000G,0:/Integrated Flight Computer/aircraft/c_1000g_cfg.ks (inferred preloaded)
7.88,TAKEOFF,TO_GROUND_ROLL,2.85,80,77.15,4.79,-3.14,-0.02,-0.45,-0.1,89.23,0.098,1,0,0,0,0,0,0,0,0,0,0,0,0,0,0,90.01,0,1,0,-0.39,0,0,0,90,0,0,0,0,0,0,0,0,-0.002,0,0,3,0,0,0,69,0,0,0,0,0,0,,0,NONE,0,0,0,0,0,0,0,0,0,0,0,0,0,0,0,0,0,0,0,0,0,90.01,1,-0.002,-0.774,0.0087,0.25,1,0.0087,0,0,0,0,0,0,1,1,0,0,VALID,0,0,0,0,0,1,0,0,0,0,0,0,0,0,0,0,0,0,0,0,426.53,1936.91,6,0,0.06,0.06,73,14.29,0.08,0.06,7.68,LANDED,C-1000G,0:/Integrated Flight Computer/aircraft/c_1000g_cfg.ks (inferred preloaded)
8.16,TAKEOFF,TO_GROUND_ROLL,3.27,80,76.73,4.79,-3.14,-0.02,-0.45,-0.16,89.22,0.097,1,0,0,0,0,0,0,0,0,0,0,0,0,0,0,90.01,0,1,0,-0.32,0,0,0,90,0,0,0,0,0,0,0,0,-0.002,0,0,3,0,0,0,69,0,0,0,0,0,0,,0,NONE,0,0,0,0,0,0,0,0,0,0,0,0,0,0,0,0,0,0,0,0,0,90.01,1,-0.002,-0.788,0.0089,0.25,1,0.0089,0,0,0,0,0,0,1,1,0,0,VALID,0,0,0,0,0,1,0,0,0,0,0,0,0,0,0,0,0,0,0,0,451.61,1936.49,6,0,0.06,0.06,77,14.29,0.08,0.06,7.96,LANDED,C-1000G,0:/Integrated Flight Computer/aircraft/c_1000g_cfg.ks (inferred preloaded)
8.46,TAKEOFF,TO_GROUND_ROLL,3.75,80,76.25,4.79,-3.15,-0.02,-0.44,-0.13,89.21,0.101,1,0,0,0,0,0,0,0,0,0,0,0,0,0,0,90.01,0,1,0,-0.34,0,0,0,90,0,0,0,0,0,0,0,0,-0.002,0,0,3,0,0,0,69,0,0,0,0,0,0,,0,NONE,0,0,0,0,0,0,0,0,0,0,0,0,0,0,0,0,0,0,0,0,0,90.01,1,-0.002,-0.802,0.009,0.25,1,0.009,0,0,0,0,0,0,1,1,0,0,VALID,0,0,0,0,0,1,0,0,0,0,0,0,0,0,0,0,0,0,0,0,478,1935.99,6,0,0.06,0.06,81,13.33,0.1,0.06,8.26,LANDED,C-1000G,0:/Integrated Flight Computer/aircraft/c_1000g_cfg.ks (inferred preloaded)
8.74,TAKEOFF,TO_GROUND_ROLL,4.22,80,75.78,4.79,-3.16,-0.03,-0.44,-0.13,89.19,0.105,1,0,0,0,0,0,0,0,0,0,0,0,0,0,0,90.01,0,1,0,-0.34,0,0,0,90,0,0,0,0,0,0,0,0,-0.002,0,0,3,0,0,0,69,0,0,0,0,0,0,,0,NONE,0,0,0,0,0,0,0,0,0,0,0,0,0,0,0,0,0,0,0,0,0,90.01,1,-0.002,-0.813,0.0092,0.25,1,0.0092,0,0,0,0,0,0,1,1,0,0,VALID,0,0,0,0,0,1,0,0,0,0,0,0,0,0,0,0,0,0,0,0,502.18,1935.5,6,0,0.06,0.06,85,14.29,0.08,0.06,8.54,LANDED,C-1000G,0:/Integrated Flight Computer/aircraft/c_1000g_cfg.ks (inferred preloaded)
9.02,TAKEOFF,TO_GROUND_ROLL,4.72,80,75.28,4.79,-3.16,-0.03,-0.44,-0.15,89.18,0.105,1,0,0,0,0,0,0,0,0,0,0,0,0,0,0,90.01,0,1,0,-0.32,0,0,0,90,0,0,0,0,0,0,0,0,-0.001,0,0,3,0,0,0,69,0,0,0,0,0,0,,0,NONE,0,0,0,0,0,0,0,0,0,0,0,0,0,0,0,0,0,0,0,0,0,90.01,1,-0.001,-0.824,0.0093,0.25,1,0.0093,0,0,0,0,0,0,1,1,0,0,VALID,0,0,0,0,0,1,0,0,0,0,0,0,0,0,0,0,0,0,0,0,525.93,1934.98,6,0,0.06,0.06,89,14.29,0.08,0.06,8.82,LANDED,C-1000G,0:/Integrated Flight Computer/aircraft/c_1000g_cfg.ks (inferred preloaded)
9.32,TAKEOFF,TO_GROUND_ROLL,5.27,80,74.73,4.79,-3.17,-0.03,-0.44,-0.12,89.17,0.102,1,0,0,0,0,0,0,0,0,0,0,0,0,0,0,90.01,0,1,0,-0.35,0,0,0,90,0,0,0,0,0,0,0,0,-0.001,0,0,3,0,0,0,69,0,0,0,0,0,0,,0,NONE,0,0,0,0,0,0,0,0,0,0,0,0,0,0,0,0,0,0,0,0,0,90.01,1,-0.001,-0.834,0.0094,0.25,1,0.0094,0,0,0,0,0,0,1,1,0,0,VALID,0,0,0,0,0,1,0,0,0,0,0,0,0,0,0,0,0,0,0,0,550.91,1934.38,6,0,0.06,0.06,93,13.33,0.1,0.06,9.12,LANDED,C-1000G,0:/Integrated Flight Computer/aircraft/c_1000g_cfg.ks (inferred preloaded)
9.6,TAKEOFF,TO_GROUND_ROLL,5.81,80,74.19,4.79,-3.18,-0.03,-0.44,-0.15,89.16,0.099,1,0,0,0,0,0,0,0,0,0,0,0,0,0,0,90.01,0,1,0,-0.31,0,0,0,90,0,0,0,0,0,0,0,0,-0.001,0,0,3,0,0,0,69,0,0,0,0,0,0,,0,NONE,0,0,0,0,0,0,0,0,0,0,0,0,0,0,0,0,0,0,0,0,0,90.01,1,-0.001,-0.842,0.0095,0.25,1,0.0095,0,0,0,0,0,0,1,1,0,0,VALID,0,0,0,0,0,1,0,0,0,0,0,0,0,0,0,0,0,0,0,0,573.8,1933.79,6,0,0.06,0.06,97,14.29,0.08,0.06,9.4,LANDED,C-1000G,0:/Integrated Flight Computer/aircraft/c_1000g_cfg.ks (inferred preloaded)
9.9,TAKEOFF,TO_GROUND_ROLL,6.41,80,73.59,4.79,-3.19,-0.04,-0.44,-0.12,89.15,0.099,1,0,0,0,0,0,0,0,0,0,0,0,0,0,0,90.01,0,1,0,-0.35,0,0,0,90,0,0,0,0,0,0,0,0,0,0,0,3,0,0,0,69,0,0,0,0,0,0,,0,NONE,0,0,0,0,0,0,0,0,0,0,0,0,0,0,0,0,0,0,0,0,0,90.01,1,0,-0.851,0.0096,0.25,1,0.0096,0,0,0,0,0,0,1,1,0,0,VALID,0,0,0,0,0,1,0,0,0,0,0,0,0,0,0,0,0,0,0,0,597.86,1933.11,6,0,0.06,0.06,101,13.33,0.1,0.06,9.7,LANDED,C-1000G,0:/Integrated Flight Computer/aircraft/c_1000g_cfg.ks (inferred preloaded)
10.2,TAKEOFF,TO_GROUND_ROLL,7.04,80,72.96,4.79,-3.2,-0.04,-0.44,-0.14,89.15,0.102,1,0,0,0,0,0,0,0,0,0,0,0,0,0,0,90,0,1,0,-0.32,0,0,0,90,0,0,0,0,0,0,0,0,0,0,0,3,0,0,0,69,0,0,0,0,0,0,,0,NONE,0,0,0,0,0,0,0,0,0,0,0,0,0,0,0,0,0,0,0,0,0,90,1,0,-0.857,0.0096,0.25,1,0.0096,0,0,0,0,0,0,1,1,0,0,VALID,0,0,0,0,0,1,0,0,0,0,0,0,0,0,0,0,0,0,0,0,621.47,1932.39,6,0,0.06,0.06,105,13.33,0.1,0.06,10,LANDED,C-1000G,0:/Integrated Flight Computer/aircraft/c_1000g_cfg.ks (inferred preloaded)
10.48,TAKEOFF,TO_GROUND_ROLL,7.64,80,72.36,4.79,-3.21,-0.05,-0.44,-0.12,89.14,0.104,1,0,0,0,0,0,0,0,0,0,0,0,0,0,0,90,0,1,0,-0.34,0,0,0,90,0,0,0,0,0,0,0,0,0.001,0,0,3,0,0,0,69,0,0,0,0,0,0,,0,NONE,0,0,0,0,0,0,0,0,0,0,0,0,0,0,0,0,0,0,0,0,0,90,1,0.001,-0.863,0.0097,0.25,1,0.0097,0,0,0,0,0,0,1,1,0,0,VALID,0,0,0,0,0,1,0,0,0,0,0,0,0,0,0,0,0,0,0,0,643.09,1931.68,6,0,0.06,0.06,109,14.29,0.08,0.06,10.28,LANDED,C-1000G,0:/Integrated Flight Computer/aircraft/c_1000g_cfg.ks (inferred preloaded)
10.78,TAKEOFF,TO_GROUND_ROLL,8.31,80,71.69,4.79,-3.23,-0.05,-0.43,-0.14,89.14,0.104,1,0,0,0,0,0,0,0,0,0,0,0,0,0,0,90,0,1,0,-0.32,0,0,0,90,0,0,0,0,0,0,0,0,0.002,0,0,3,0,0,0,69,0,0,0,0,0,0,,0,NONE,0,0,0,0,0,0,0,0,0,0,0,0,0,0,0,0,0,0,0,0,0,90,1,0.002,-0.867,0.0098,0.25,1,0.0098,0,0,0,0,0,0,1,1,0,0,VALID,0,0,0,0,0,1,0,0,0,0,0,0,0,0,0,0,0,0,0,0,665.81,1930.88,6,0,0.06,0.06,113,13.33,0.1,0.06,10.58,LANDED,C-1000G,0:/Integrated Flight Computer/aircraft/c_1000g_cfg.ks (inferred preloaded)
11.08,TAKEOFF,TO_GROUND_ROLL,9.01,80,70.99,4.79,-3.24,-0.05,-0.43,-0.12,89.13,0.102,1,0,0,0,0,0,0,0,0,0,0,0,0,0,0,90,0,1,0,-0.33,0,0,0,90,0,0,0,0,0,0,0,0,0.003,0,0,3,0,0,0,69,0,0,0,0,0,0,,0,NONE,0,0,0,0,0,0,0,0,0,0,0,0,0,0,0,0,0,0,0,0,0,90,1,0.003,-0.871,0.0098,0.25,1,0.0098,0,0,0,0,0,0,1,1,0,0,VALID,0,0,0,0,0,1,0,0,0,0,0,0,0,0,0,0,0,0,0,0,688.1,1930.04,6,0,0.06,0.06,117,13.33,0.1,0.06,10.88,LANDED,C-1000G,0:/Integrated Flight Computer/aircraft/c_1000g_cfg.ks (inferred preloaded)
11.36,TAKEOFF,TO_GROUND_ROLL,9.68,80,70.32,4.79,-3.26,-0.06,-0.43,-0.13,89.13,0.101,1,0,0,0,0,0,0,0,0,0,0,0,0,0,0,90.01,0,1,0,-0.33,0,0,0,90,0,0,0,0,0,0,0,0,0.003,0,0,3,0,0,0,69,0,0,0,0,0,0,,0,NONE,0,0,0,0,0,0,0,0,0,0,0,0,0,0,0,0,0,0,0,0,0,90.01,1,0.003,-0.874,0.0098,0.25,1,0.0098,0,0,0,0,0,0,1,1,0,0,VALID,0,0,0,0,0,1,0,0,0,0,0,0,0,0,0,0,0,0,0,0,708.5,1929.21,6,0,0.06,0.06,121,14.29,0.08,0.06,11.16,LANDED,C-1000G,0:/Integrated Flight Computer/aircraft/c_1000g_cfg.ks (inferred preloaded)
11.64,TAKEOFF,TO_GROUND_ROLL,10.36,80,69.64,4.79,-3.27,-0.06,-0.43,-0.12,89.13,0.102,1,0,0,0,0,0,0,0,0,0,0,0,0,0,0,90.01,0,1,0,-0.33,0,0,0,90,0,0,0,0,0,0,0,0,0.004,0,0,3,0,0,0,69,0,0,0,0,0,0,,0,NONE,0,0,0,0,0,0,0,0,0,0,0,0,0,0,0,0,0,0,0,0,0,90.01,1,0.004,-0.878,0.0099,0.25,1,0.0099,0,0,0,0,0,0,1,1,0,0,VALID,0,0,0,0,0,1,0,0,0,0,0,0,0,0,0,0,0,0,0,0,728.52,1928.34,6,0,0.06,0.06,125,14.29,0.08,0.06,11.44,LANDED,C-1000G,0:/Integrated Flight Computer/aircraft/c_1000g_cfg.ks (inferred preloaded)
11.94,TAKEOFF,TO_GROUND_ROLL,11.12,80,68.88,4.79,-3.3,-0.06,-0.43,-0.13,89.13,0.103,1,0,0,0,0,0,0,0,0,0,0,0,0,0,0,90.01,0,1,0,-0.32,0,0,0,90,0,0,0,0,0,0,0,0,0.005,0,0,3,0,0,0,69,0,0,0,0,0,0,,0,NONE,0,0,0,0,0,0,0,0,0,0,0,0,0,0,0,0,0,0,0,0,0,90.01,1,0.005,-0.882,0.0099,0.25,1,0.0099,0,0,0,0,0,0,1,1,0,0,VALID,0,0,0,0,0,1,0,0,0,0,0,0,0,0,0,0,0,0,0,0,749.55,1927.36,6,0,0.06,0.06,129,13.33,0.1,0.06,11.74,LANDED,C-1000G,0:/Integrated Flight Computer/aircraft/c_1000g_cfg.ks (inferred preloaded)
12.22,TAKEOFF,TO_GROUND_ROLL,11.85,80,68.15,4.8,-3.32,-0.07,-0.43,-0.13,89.12,0.104,1,0,0,0,0,0,0,0,0,0,0,0,0,0,0,90.01,0,1,0,-0.32,0,0,0,90,0,0,0,0,0,0,0,0,0.006,0,0,3,0,0,0,69,0,0,0,0,0,0,,0,NONE,0,0,0,0,0,0,0,0,0,0,0,0,0,0,0,0,0,0,0,0,0,90.01,1,0.006,-0.885,0.01,0.25,1,0.01,0,0,0,0,0,0,1,1,0,0,VALID,0,0,0,0,0,1,0,0,0,0,0,0,0,0,0,0,0,0,0,0,768.81,1926.4,6,0,0.06,0.06,133,14.29,0.08,0.06,12.02,LANDED,C-1000G,0:/Integrated Flight Computer/aircraft/c_1000g_cfg.ks (inferred preloaded)
12.5,TAKEOFF,TO_GROUND_ROLL,12.6,80,67.4,4.8,-3.33,-0.07,-0.43,-0.12,89.12,0.103,1,0,0,0,0,0,0,0,0,0,0,0,0,0,0,90.01,0,1,0,-0.32,0,0,0,90,0,0,0,0,0,0,0,0,0.007,0,0,3,0,0,0,69,0,0,0,0,0,0,,0,NONE,0,0,0,0,0,0,0,0,0,0,0,0,0,0,0,0,0,0,0,0,0,90.01,1,0.007,-0.889,0.01,0.25,1,0.01,0,0,0,0,0,0,1,1,0,0,VALID,0,0,0,0,0,1,0,0,0,0,0,0,0,0,0,0,0,0,0,0,787.7,1925.4,6,0,0.06,0.06,137,14.29,0.08,0.06,12.3,LANDED,C-1000G,0:/Integrated Flight Computer/aircraft/c_1000g_cfg.ks (inferred preloaded)
12.8,TAKEOFF,TO_GROUND_ROLL,13.41,80,66.59,4.8,-3.35,-0.08,-0.42,-0.12,89.12,0.102,1,0,0,0,0,0,0,0,0,0,0,0,0,0,0,90.01,0,1,0,-0.32,0,0,0,90,0,0,0,0,0,0,0,0,0.008,0,0,3,0,0,0,69,0,0,0,0,0,0,,0,NONE,0,0,0,0,0,0,0,0,0,0,0,0,0,0,0,0,0,0,0,0,0,90.01,1,0.008,-0.892,0.01,0.25,1,0.01,0,0,0,0,0,0,1,1,0,0,VALID,0,0,0,0,0,1,0,0,0,0,0,0,0,0,0,0,0,0,0,0,807.54,1924.28,6,0,0.06,0.06,141,13.33,0.1,0.06,12.6,LANDED,C-1000G,0:/Integrated Flight Computer/aircraft/c_1000g_cfg.ks (inferred preloaded)
13.08,TAKEOFF,TO_GROUND_ROLL,14.19,80,65.81,4.8,-3.37,-0.08,-0.42,-0.12,89.12,0.102,1,0,0,0,0,0,0,0,0,0,0,0,0,0,0,90.01,0,1,0,-0.33,0,0,0,90,0,0,0,0,0,0,0,0,0.01,0,0,3,0,0,0,69,0,0,0,0,0,0,,0,NONE,0,0,0,0,0,0,0,0,0,0,0,0,0,0,0,0,0,0,0,0,0,90.01,1,0.01,-0.895,0.0101,0.25,1,0.0101,0,0,0,0,0,0,1,1,0,0,VALID,0,0,0,0,0,1,0,0,0,0,0,0,0,0,0,0,0,0,0,0,825.69,1923.19,6,0,0.06,0.06,145,14.29,0.08,0.06,12.88,LANDED,C-1000G,0:/Integrated Flight Computer/aircraft/c_1000g_cfg.ks (inferred preloaded)
13.36,TAKEOFF,TO_GROUND_ROLL,14.99,80,65.01,4.8,-3.4,-0.08,-0.42,-0.12,89.11,0.103,1,0,0,0,0,0,0,0,0,0,0,0,0,0,0,90.01,0,1,0,-0.32,0,0,0.01,90,0,0,0,0,0,0,0,0,0.011,0,0,3,0,0,0,69,0,0,0,0,0,0,,0,NONE,0,0,0,0,0,0,0,0,0,0,0,0,0,0,0,0,0,0,0,0,0,90.01,1,0.011,-0.898,0.0101,0.25,1,0.0101,0,0,0,0,0,0,1,1,0,0,VALID,0,0,0,0,0,1,0,0,0,0,0,0,0,0,0,0,0,0,0,0,843.49,1922.05,6,0,0.06,0.06,149,14.29,0.08,0.06,13.16,LANDED,C-1000G,0:/Integrated Flight Computer/aircraft/c_1000g_cfg.ks (inferred preloaded)
13.66,TAKEOFF,TO_GROUND_ROLL,15.87,80,64.13,4.8,-3.43,-0.09,-0.42,-0.12,89.11,0.103,1,0,0,0,0,0,0,0,0,0,0,0,0,0,0,90.01,0,1,0,-0.32,0,0,0.01,90,0,0,0,0,0,0,0,0,0.012,0,0,3,0,0,0,69,0,0,0,0,0,0,,0,NONE,0,0,0,0,0,0,0,0,0,0,0,0,0,0,0,0,0,0,0,0,0,90.01,1,0.012,-0.901,0.0101,0.25,1,0.0101,0,0,0,0,0,0,1,1,0,0,VALID,0,0,0,0,0,1,0,0,0,0,0,0,0,0,0,0,0,0,0,0,862.17,1920.78,6,0,0.06,0.06,153,13.33,0.1,0.06,13.46,LANDED,C-1000G,0:/Integrated Flight Computer/aircraft/c_1000g_cfg.ks (inferred preloaded)
13.96,TAKEOFF,TO_GROUND_ROLL,16.76,80,63.24,4.8,-3.45,-0.09,-0.42,-0.12,89.11,0.103,1,0,0,0,0,0,0,0,0,0,0,0,0,0,0,90.01,0,1,0,-0.32,0,0,0.01,90,0,0,0,0,0,0,0,0,0.014,0,0,3,0,0,0,69,0,0,0,0,0,0,,0,NONE,0,0,0,0,0,0,0,0,0,0,0,0,0,0,0,0,0,0,0,0,0,90.01,1,0.014,-0.903,0.0102,0.25,1,0.0102,0,0,0,0,0,0,1,1,0,0,VALID,0,0,0,0,0,1,0,0,0,0,0,0,0,0,0,0,0,0,0,0,880.46,1919.46,6,0,0.06,0.06,157,13.33,0.1,0.06,13.76,LANDED,C-1000G,0:/Integrated Flight Computer/aircraft/c_1000g_cfg.ks (inferred preloaded)
14.24,TAKEOFF,TO_GROUND_ROLL,17.61,80,62.39,4.8,-3.48,-0.1,-0.42,-0.12,89.11,0.102,1,0,0,0,0,0,0,0,0,0,0,0,0,0,0,90.02,0,1,0,-0.32,0,0,0.01,90,0,0,0,0,0,0,0,0,0.015,0,0,3,0,0,0,69,0,0,0,0,0,0,,0,NONE,0,0,0,0,0,0,0,0,0,0,0,0,0,0,0,0,0,0,0,0,0,90.02,1,0.015,-0.904,0.0102,0.25,1,0.0102,0,0,0,0,0,0,1,1,0,0,VALID,0,0,0,0,0,1,0,0,0,0,0,0,0,0,0,0,0,0,0,0,897.19,1918.18,6,0,0.06,0.06,161,14.29,0.08,0.06,14.04,LANDED,C-1000G,0:/Integrated Flight Computer/aircraft/c_1000g_cfg.ks (inferred preloaded)
14.54,TAKEOFF,TO_GROUND_ROLL,18.54,80,61.46,4.8,-3.51,-0.1,-0.42,-0.12,89.11,0.103,1,0,0,0,0,0,0,0,0,0,0,0,0,0,0,90.02,0,1,0,-0.32,0,0,0.01,90,0,0,0,0,0,0,0,0,0.017,0,0,3,0,0,0,69,0,0,0,0,0,0,,0,NONE,0,0,0,0,0,0,0,0,0,0,0,0,0,0,0,0,0,0,0,0,0,90.02,1,0.017,-0.907,0.0102,0.25,1,0.0102,0,0,0,0,0,0,1,1,0,0,VALID,0,0,0,0,0,1,0,0,0,0,0,0,0,0,0,0,0,0,0,0,914.73,1916.75,6,0,0.06,0.06,165,13.33,0.1,0.06,14.34,LANDED,C-1000G,0:/Integrated Flight Computer/aircraft/c_1000g_cfg.ks (inferred preloaded)
14.82,TAKEOFF,TO_GROUND_ROLL,19.42,80,60.58,4.8,-3.54,-0.11,-0.42,-0.12,89.11,0.103,1,0,0,0,0,0,0,0,0,0,0,0,0,0,0,90.02,0,1,0,-0.32,0,0,0.01,90,0,0,0,0,0,0,0,0,0.019,0,0,3,0,0,0,69,0,0,0,0,0,0,,0,NONE,0,0,0,0,0,0,0,0,0,0,0,0,0,0,0,0,0,0,0,0,0,90.02,1,0.019,-0.908,0.0102,0.25,1,0.0102,0,0,0,0,0,0,1,1,0,0,VALID,0,0,0,0,0,1,0,0,0,0,0,0,0,0,0,0,0,0,0,0,930.77,1915.37,6,0,0.06,0.06,169,14.29,0.08,0.06,14.62,LANDED,C-1000G,0:/Integrated Flight Computer/aircraft/c_1000g_cfg.ks (inferred preloaded)
15.1,TAKEOFF,TO_GROUND_ROLL,20.32,80,59.68,4.8,-3.57,-0.11,-0.41,-0.12,89.11,0.103,1,0,0,0,0,0,0,0,0,0,0,0,0,0,0,90.02,0,1,0,-0.32,0,0,0.01,90,0,0,0,0,0,0,0,0,0.021,0,0,3,0,0,0,69,0,0,0,0,0,0,,0,NONE,0,0,0,0,0,0,0,0,0,0,0,0,0,0,0,0,0,0,0,0,0,90.02,1,0.021,-0.908,0.0103,0.253,0,0.0103,0,0,0,0,0,0,1,1,0,0,VALID,0,0,0,0,0,1,0,0,0,0,0,0,0,0,0,0,0,0,0,0,946.48,1913.94,6,0,0.06,0.06,173,14.29,0.08,0.06,14.9,LANDED,C-1000G,0:/Integrated Flight Computer/aircraft/c_1000g_cfg.ks (inferred preloaded)
15.4,TAKEOFF,TO_GROUND_ROLL,21.3,80,58.7,4.8,-3.6,-0.12,-0.41,-0.11,89.11,0.103,1,0,0,0,0,0,0,0,0,0,0,0,0,0,0,90.02,0,1,0,-0.32,0,0,0.01,90,0,0,0,0,0,0,0,0,0.023,0,0,3,0,0,0,69,0,0,0,0,0,0,,0,NONE,0,0,0,0,0,0,0,0,0,0,0,0,0,0,0,0,0,0,0,0,0,90.02,1,0.023,-0.906,0.0108,0.264,0,0.0108,0,0,0,0,0,0,1,1,0,0,VALID,0,0,0,0,0,1,0,0,0,0,0,0,0,0,0,0,0,0,0,0,962.95,1912.35,6,0,0.06,0.06,177,13.33,0.1,0.06,15.2,LANDED,C-1000G,0:/Integrated Flight Computer/aircraft/c_1000g_cfg.ks (inferred preloaded)
15.68,TAKEOFF,TO_GROUND_ROLL,22.23,80,57.77,4.8,-3.63,-0.12,-0.41,-0.11,89.12,0.103,1,0,0,0,0,0,0,0,0,0,0,0,0,0,0,90.02,0,1,0,-0.32,0,0,0.01,90,0,0,0,0,0,0,0,0,0.025,0,0,3,0,0,0,69,0,0,0,0,0,0,,0,NONE,0,0,0,0,0,0,0,0,0,0,0,0,0,0,0,0,0,0,0,0,0,90.02,1,0.025,-0.904,0.0111,0.274,0,0.0111,0,0,0,0,0,0,1,1,0,0,VALID,0,0,0,0,0,1,0,0,0,0,0,0,0,0,0,0,0,0,0,0,978,1910.82,6,0,0.06,0.06,181,14.29,0.08,0.06,15.48,LANDED,C-1000G,0:/Integrated Flight Computer/aircraft/c_1000g_cfg.ks (inferred preloaded)
15.98,TAKEOFF,TO_GROUND_ROLL,23.23,80,56.77,4.8,-3.68,-0.13,-0.41,-0.12,89.12,0.103,1,0,0,0,0,0,0,0,0,0,0,0,0,0,0,90.02,0,1,0,-0.31,0,0,0.01,90,0,0,0,0,0,0,0,0,0.027,0,0,3,0,0,0,69,0,0,0,0,0,0,,0,NONE,0,0,0,0,0,0,0,0,0,0,0,0,0,0,0,0,0,0,0,0,0,90.02,1,0.027,-0.901,0.0115,0.285,0,0.0115,0,0,0,0,0,0,1,1,0,0,VALID,0,0,0,0,0,1,0,0,0,0,0,0,0,0,0,0,0,0,0,0,993.77,1909.12,6,0,0.06,0.06,185,13.33,0.1,0.06,15.78,LANDED,C-1000G,0:/Integrated Flight Computer/aircraft/c_1000g_cfg.ks (inferred preloaded)
16.28,TAKEOFF,TO_GROUND_ROLL,24.26,80,55.74,4.8,-3.71,-0.13,-0.41,-0.11,89.13,0.101,1,0,0,0,0,0,0,0,0,0,0,0,0,0,0,90.02,0,1,0,-0.32,0,0,0.01,90,0,0,0,0,0,0,0,0,0.029,0,0,3,0,0,0,69,0,0,0,0,0,0,,0,NONE,0,0,0,0,0,0,0,0,0,0,0,0,0,0,0,0,0,0,0,0,0,90.02,1,0.029,-0.896,0.0119,0.296,0,0.0119,0,0,0,0,0,0,1,1,0,0,VALID,0,0,0,0,0,1,0,0,0,0,0,0,0,0,0,0,0,0,0,0,1009.18,1907.37,6,0,0.06,0.06,189,13.33,0.1,0.06,16.08,LANDED,C-1000G,0:/Integrated Flight Computer/aircraft/c_1000g_cfg.ks (inferred preloaded)
16.56,TAKEOFF,TO_GROUND_ROLL,25.23,80,54.77,4.8,-3.75,-0.14,-0.41,-0.11,89.14,0.101,1,0,0,0,0,0,0,0,0,0,0,0,0,0,0,90.03,0,1,0,-0.31,0,0,0.01,90,0,0,0,0,0,0,0,0,0.031,0,0,3,0,0,0,69,0,0,0,0,0,0,,0,NONE,0,0,0,0,0,0,0,0,0,0,0,0,0,0,0,0,0,0,0,0,0,90.03,1,0.031,-0.89,0.0123,0.306,0,0.0123,0,0,0,0,0,0,1,1,0,0,VALID,0,0,0,0,0,1,0,0,0,0,0,0,0,0,0,0,0,0,0,0,1023.25,1905.68,6,0,0.06,0.06,193,14.29,0.08,0.06,16.36,LANDED,C-1000G,0:/Integrated Flight Computer/aircraft/c_1000g_cfg.ks (inferred preloaded)
16.84,TAKEOFF,TO_GROUND_ROLL,26.22,80,53.78,4.8,-3.79,-0.14,-0.4,-0.11,89.14,0.101,1,0,0,0,0,0,0,0,0,0,0,0,0,0,0,90.03,0,1,0,-0.31,0,0,0.01,90,0,0,0,0,0,0,0,0,0.034,0,0,3,0,0,0,69,0,0,0,0,0,0,,0,NONE,0,0,0,0,0,0,0,0,0,0,0,0,0,0,0,0,0,0,0,0,0,90.03,1,0.034,-0.884,0.0126,0.317,0,0.0126,0,0,0,0,0,0,1,1,0,0,VALID,0,0,0,0,0,1,0,0,0,0,0,0,0,0,0,0,0,0,0,0,1037.02,1903.94,6,0,0.06,0.06,197,14.29,0.08,0.06,16.64,LANDED,C-1000G,0:/Integrated Flight Computer/aircraft/c_1000g_cfg.ks (inferred preloaded)
17.14,TAKEOFF,TO_GROUND_ROLL,27.28,80,52.72,4.8,-3.84,-0.15,-0.4,-0.11,89.15,0.101,1,0,0,0,0,0,0,0,0,0,0,0,0,0,0,90.03,0,1,0,-0.31,0,0,0.01,90,0,0,0,0,0,0,0,0,0.036,0,0,3,0,0,0,69,0,0,0,0,0,0,,0,NONE,0,0,0,0,0,0,0,0,0,0,0,0,0,0,0,0,0,0,0,0,0,90.03,1,0.036,-0.875,0.0129,0.328,0,0.0129,0,0,0,0,0,0,1,1,0,0,VALID,0,0,0,0,0,1,0,0,0,0,0,0,0,0,0,0,0,0,0,0,1051.44,1902.02,6,0,0.06,0.06,201,13.33,0.1,0.06,16.94,LANDED,C-1000G,0:/Integrated Flight Computer/aircraft/c_1000g_cfg.ks (inferred preloaded)
17.42,TAKEOFF,TO_GROUND_ROLL,28.29,80,51.71,4.8,-3.88,-0.15,-0.4,-0.11,89.17,0.101,1,0,0,0,0,0,0,0,0,0,0,0,0,0,0,90.03,0,1,0,-0.31,0,0,0.01,90,0,0,0,0,0,0,0,0,0.039,0,0,3,0,0,0,69,0,0,0,0,0,0,,0,NONE,0,0,0,0,0,0,0,0,0,0,0,0,0,0,0,0,0,0,0,0,0,90.03,1,0.039,-0.865,0.0132,0.339,0,0.0132,0,0,0,0,0,0,1,1,0,0,VALID,0,0,0,0,0,1,0,0,0,0,0,0,0,0,0,0,0,0,0,0,1064.59,1900.18,6,0,0.06,0.06,205,14.29,0.08,0.06,17.22,LANDED,C-1000G,0:/Integrated Flight Computer/aircraft/c_1000g_cfg.ks (inferred preloaded)
17.7,TAKEOFF,TO_GROUND_ROLL,29.32,80,50.68,4.8,-3.92,-0.16,-0.4,-0.11,89.18,0.1,1,0,0,0,0,0,0,0,0,0,0,0,0,0,0,90.03,0,1,0,-0.31,0,0,0.01,90,0,0,0,0,0,0,0,0,0.041,0,0,3,0,0,0,69,0,0,0,0,0,0,,0,NONE,0,0,0,0,0,0,0,0,0,0,0,0,0,0,0,0,0,0,0,0,0,90.03,1,0.041,-0.852,0.0134,0.35,0,0.0134,0,0,0,0,0,0,1,1,0,0,VALID,0,0,0,0,0,1,0,0,0,0,0,0,0,0,0,0,0,0,0,0,1077.45,1898.28,6,0,0.06,0.06,209,14.29,0.08,0.06,17.5,LANDED,C-1000G,0:/Integrated Flight Computer/aircraft/c_1000g_cfg.ks (inferred preloaded)
18,TAKEOFF,TO_GROUND_ROLL,30.43,80,49.57,4.8,-3.97,-0.16,-0.4,-0.11,89.2,0.099,1,0,0,0,0,0,0,0,0,0,0,0,0,0,0,90.03,0,1,0,-0.31,0,0,0.02,90,0,0,0,0,0,0,0,0,0.044,0,0,3,0,0,0,69,0,0,0,0,0,0,,0,NONE,0,0,0,0,0,0,0,0,0,0,0,0,0,0,0,0,0,0,0,0,0,90.03,1,0.044,-0.835,0.0136,0.362,0,0.0136,0,0,0,0,0,0,1,1,0,0,VALID,0,0,0,0,0,1,0,0,0,0,0,0,0,0,0,0,0,0,0,0,1090.9,1896.2,6,0,0.06,0.06,213,13.33,0.1,0.06,17.8,LANDED,C-1000G,0:/Integrated Flight Computer/aircraft/c_1000g_cfg.ks (inferred preloaded)
18.28,TAKEOFF,TO_GROUND_ROLL,31.47,80,48.53,4.8,-4.01,-0.17,-0.4,-0.11,89.21,0.098,1,0,0,0,0,0,0,0,0,0,0,0,0,0,0,90.03,0,1,0,-0.31,0,0,0.02,90,0,0,0,0,0,0,0,0,0.047,0,0,3,0,0,0,69,0,0,0,0,0,0,,0,NONE,0,0,0,0,0,0,0,0,0,0,0,0,0,0,0,0,0,0,0,0,0,90.03,1,0.047,-0.818,0.0137,0.373,0,0.0137,0,0,0,0,0,0,1,1,0,0,VALID,0,0,0,0,0,1,0,0,0,0,0,0,0,0,0,0,0,0,0,0,1103.17,1894.2,6,0,0.06,0.06,217,14.29,0.08,0.06,18.08,LANDED,C-1000G,0:/Integrated Flight Computer/aircraft/c_1000g_cfg.ks (inferred preloaded)
18.58,TAKEOFF,TO_GROUND_ROLL,32.61,80,47.39,4.8,-4.07,-0.17,-0.4,-0.11,89.24,0.097,1,0,0,0,0,0,0,0,0,0,0,0,0,0,0,90.03,0,1,0,-0.3,0,0,0.02,90,0,0,0,0,0,0,0,0,0.05,0,0,3,0,0,0,69,0,0,0,0,0,0,,0,NONE,0,0,0,0,0,0,0,0,0,0,0,0,0,0,0,0,0,0,0,0,0,90.03,1,0.05,-0.798,0.0138,0.385,0,0.0138,0,0,0,0,0,0,1,1,0,0,VALID,0,0,0,0,0,1,0,0,0,0,0,0,0,0,0,0,0,0,0,0,1115.99,1892,6,0,0.06,0.06,221,13.33,0.1,0.06,18.38,LANDED,C-1000G,0:/Integrated Flight Computer/aircraft/c_1000g_cfg.ks (inferred preloaded)
18.88,TAKEOFF,TO_GROUND_ROLL,33.75,80,46.25,4.8,-4.11,-0.18,-0.39,-0.11,89.25,0.092,1,0,0,0,0,0,0,0,0,0,0,0,0,0,0,90.05,0,1,0,-0.3,0,0,0.02,90,0,0,0,0,0,0,0,0,0.052,0,0,3,0,0,0,69,0,0,0,0,0,0,,0,NONE,0,0,0,0,0,0,0,0,0,0,0,0,0,0,0,0,0,0,0,0,0,90.05,1,0.052,-0.798,0.0143,0.397,0,0.0143,0,0,0,0,0,0,1,1,0,0,VALID,0,0,0,0,0,1,0,0,0,0,0,0,0,0,0,0,0,0,0,0,1128.5,1889.74,6,0,0.06,0.06,225,13.33,0.1,0.06,18.68,LANDED,C-1000G,0:/Integrated Flight Computer/aircraft/c_1000g_cfg.ks (inferred preloaded)
19.16,TAKEOFF,TO_GROUND_ROLL,34.83,80,45.17,4.81,-4.16,-0.18,-0.38,-0.1,89.18,0.054,1,0,0,0,0,0,0,0,0,0,0,0,0,0,0,90.1,0,1,0,-0.3,0,0,0.02,90,0,0,0,0,0,0,0,0,0.054,0,0,3,0,0,0,69,0,0,0,0,0,0,,0,NONE,0,0,0,0,0,0,0,0,0,0,0,0,0,0,0,0,0,0,0,0,0,90.1,1,0.054,-0.92,0.0169,0.409,0,0.0169,0,0,0,0,0,0,1,1,0,0,VALID,0,0,0,0,0,1,0,0,0,0,0,0,0,0,0,0,0,0,0,0,1139.9,1887.59,6,0,0.06,0.06,229,14.29,0.08,0.06,18.96,LANDED,C-1000G,0:/Integrated Flight Computer/aircraft/c_1000g_cfg.ks (inferred preloaded)
19.44,TAKEOFF,TO_GROUND_ROLL,35.92,80,44.08,4.8,-4.22,-0.19,-0.39,-0.1,89.15,0.09,1,0,0,0,0,0,0,0,0,0,0,0,0,0,0,90.07,0,1,0,-0.31,0,0,0.02,90,0,0,0,0,0,0,0,0,0.057,0,0,3,0,0,0,69,0,0,0,0,0,0,,0,NONE,0,0,0,0,0,0,0,0,0,0,0,0,0,0,0,0,0,0,0,0,0,90.07,1,0.057,-0.919,0.0174,0.421,0,0.0174,0,0,0,0,0,0,1,1,0,0,VALID,0,0,0,0,0,1,0,0,0,0,0,0,0,0,0,0,0,0,0,0,1151.02,1885.39,6,0,0.06,0.06,233,14.29,0.08,0.06,19.24,LANDED,C-1000G,0:/Integrated Flight Computer/aircraft/c_1000g_cfg.ks (inferred preloaded)
19.74,TAKEOFF,TO_GROUND_ROLL,37.09,80,42.91,4.81,-4.28,-0.19,-0.38,-0.1,89.13,0.138,1,0,0,0,0,0,0,0,0,0,0,0,0,0,0,90.08,0,1,0,-0.3,0,0,0.02,90,0,0,0,0,0,0,0,0,0.06,0,0,3,0,0,0,69,0,0,0,0,0,0,,0,NONE,0,0,0,0,0,0,0,0,0,0,0,0,0,0,0,0,0,0,0,0,0,90.08,1,0.06,-0.946,0.0184,0.433,0,0.0184,0,0,0,0,0,0,1,1,0,0,VALID,0,0,0,0,0,1,0,0,0,0,0,0,0,0,0,0,0,0,0,0,1162.65,1882.99,6,0,0.06,0.06,237,13.33,0.1,0.06,19.54,LANDED,C-1000G,0:/Integrated Flight Computer/aircraft/c_1000g_cfg.ks (inferred preloaded)
20.02,TAKEOFF,TO_GROUND_ROLL,38.2,80,41.8,4.81,-4.33,-0.2,-0.38,-0.09,89.09,0.134,1,0,0,0,0,0,0,0,0,0,0,0,0,0,0,90.1,0,1,0,-0.3,0,0,0.02,90,0,0,0,0,0,0,0,0,0.063,0,0,3,0,0,0,69,0,0,0,0,0,0,,0,NONE,0,0,0,0,0,0,0,0,0,0,0,0,0,0,0,0,0,0,0,0,0,90.1,1,0.063,-1.006,0.0201,0.445,0,0.0201,0,0,0,0,0,0,1,1,0,0,VALID,0,0,0,0,0,1,0,0,0,0,0,0,0,0,0,0,0,0,0,0,1173.23,1880.69,6,0,0.06,0.06,241,14.29,0.08,0.06,19.82,LANDED,C-1000G,0:/Integrated Flight Computer/aircraft/c_1000g_cfg.ks (inferred preloaded)
20.3,TAKEOFF,TO_GROUND_ROLL,39.32,80,40.68,4.81,-4.39,-0.2,-0.38,-0.1,89.03,0.099,1,0,0,0,0,0,0,0,0,0,0,0,0,0,0,90.11,0,1,0,-0.29,0,0,0.02,90,0,0,0,0,0,0,0,0,0.066,0,0,3,0,0,0,69,0,0,0,0,0,0,,0,NONE,0,0,0,0,0,0,0,0,0,0,0,0,0,0,0,0,0,0,0,0,0,90.11,1,0.066,-1.072,0.022,0.457,0,0.022,0,0,0,0,0,0,1,1,0,0,VALID,0,0,0,0,0,1,0,0,0,0,0,0,0,0,0,0,0,0,0,0,1183.55,1878.35,6,0,0.06,0.06,245,14.29,0.08,0.06,20.1,LANDED,C-1000G,0:/Integrated Flight Computer/aircraft/c_1000g_cfg.ks (inferred preloaded)
20.6,TAKEOFF,TO_GROUND_ROLL,40.52,80,39.48,4.81,-4.45,-0.21,-0.37,-0.09,88.98,0.085,1,0,0,0,0,0,0,0,0,0,0,0,0,0,0,90.11,0,1,0,-0.3,0,0,0.03,90,0,0,0,0,0,0,0,0,0.07,0,0,3,0,0,0,69,0,0,0,0,0,0,,0,NONE,0,0,0,0,0,0,0,0,0,0,0,0,0,0,0,0,0,0,0,0,0,90.11,1,0.07,-1.127,0.0238,0.47,0,0.0238,0,0,0,0,0,0,1,1,0,0,VALID,0,0,0,0,0,1,0,0,0,0,0,0,0,0,0,0,0,0,0,0,1194.33,1875.78,6,0,0.06,0.06,249,13.33,0.1,0.06,20.4,LANDED,C-1000G,0:/Integrated Flight Computer/aircraft/c_1000g_cfg.ks (inferred preloaded)
20.88,TAKEOFF,TO_GROUND_ROLL,41.66,80,38.34,4.81,-4.51,-0.21,-0.37,-0.1,88.92,0.098,1,0,0,0,0,0,0,0,0,0,0,0,0,0,0,90.11,0,1,0,-0.29,0,0,0.03,90,0,0,0,0,0,0,0,0,0.074,0,0,3,0,0,0,69,0,0,0,0,0,0,,0,NONE,0,0,0,0,0,0,0,0,0,0,0,0,0,0,0,0,0,0,0,0,0,90.11,1,0.074,-1.19,0.0258,0.482,0,0.0258,0,0,0,0,0,0,1,1,0,0,VALID,0,0,0,0,0,1,0,0,0,0,0,0,0,0,0,0,0,0,0,0,1204.12,1873.34,6,0,0.06,0.06,253,14.29,0.08,0.06,20.68,LANDED,C-1000G,0:/Integrated Flight Computer/aircraft/c_1000g_cfg.ks (inferred preloaded)
21.18,TAKEOFF,TO_GROUND_ROLL,42.89,80,37.11,4.81,-4.58,-0.22,-0.37,-0.09,88.86,0.12,1,0,0,0,0,0,0,0,0,0,0,0,0,0,0,90.12,0,1,0,-0.29,0,0,0.03,90,0,0,0,0,0,0,0,0,0.078,0,0,3,0,0,0,69,0,0,0,0,0,0,,0,NONE,0,0,0,0,0,0,0,0,0,0,0,0,0,0,0,0,0,0,0,0,0,90.12,1,0.078,-1.26,0.0281,0.495,0,0.0281,0,0,0,0,0,0,1,1,0,0,VALID,0,0,0,0,0,1,0,0,0,0,0,0,0,0,0,0,0,0,0,0,1214.34,1870.67,6,0,0.06,0.06,257,13.33,0.1,0.06,20.98,LANDED,C-1000G,0:/Integrated Flight Computer/aircraft/c_1000g_cfg.ks (inferred preloaded)
21.48,TAKEOFF,TO_GROUND_ROLL,44.12,80,35.88,4.81,-4.64,-0.22,-0.37,-0.09,88.8,0.128,1,0,0,0,0,0,0,0,0,0,0,0,0,0,0,90.12,0,1,0,-0.29,0,0,0.03,90,0,0,0,0,0,0,0,0,0.082,0,0,3,0,0,0,69,0,0,0,0,0,0,,0,NONE,0,0,0,0,0,0,0,0,0,0,0,0,0,0,0,0,0,0,0,0,0,90.12,1,0.082,-1.324,0.0303,0.508,0,0.0303,0,0,0,0,0,0,1,1,0,0,VALID,0,0,0,0,0,1,0,0,0,0,0,0,0,0,0,0,0,0,0,0,1224.27,1867.94,6,0,0.06,0.06,261,13.33,0.1,0.06,21.28,LANDED,C-1000G,0:/Integrated Flight Computer/aircraft/c_1000g_cfg.ks (inferred preloaded)
21.76,TAKEOFF,TO_GROUND_ROLL,45.29,80,34.71,4.81,-4.71,-0.23,-0.37,-0.09,88.74,0.121,1,0,0,0,0,0,0,0,0,0,0,0,0,0,0,90.13,0,1,0,-0.29,0,0,0.03,90,0,0,0,0,0,0,0,0,0.087,0,0,3,0,0,0,69,0,0,0,0,0,0,,0,NONE,0,0,0,0,0,0,0,0,0,0,0,0,0,0,0,0,0,0,0,0,0,90.13,1,0.087,-1.381,0.0324,0.521,0,0.0324,0,0,0,0,0,0,1,1,0,0,VALID,0,0,0,0,0,1,0,0,0,0,0,0,0,0,0,0,0,0,0,0,1233.3,1865.35,6,0,0.06,0.06,265,14.29,0.08,0.06,21.56,LANDED,C-1000G,0:/Integrated Flight Computer/aircraft/c_1000g_cfg.ks (inferred preloaded)
22.04,TAKEOFF,TO_GROUND_ROLL,46.46,80,33.54,4.81,-4.77,-0.23,-0.37,-0.09,88.69,0.11,1,0,0,0,0,0,0,0,0,0,0,0,0,0,0,90.13,0,1,0,-0.29,0,0,0.03,90,0,0,0,0,0,0,0,0,0.092,0,0,3,0,0,0,69,0,0,0,0,0,0,,0,NONE,0,0,0,0,0,0,0,0,0,0,0,0,0,0,0,0,0,0,0,0,0,90.13,1,0.092,-1.436,0.0345,0.533,0,0.0345,0,0,0,0,0,0,1,1,0,0,VALID,0,0,0,0,0,1,0,0,0,0,0,0,0,0,0,0,0,0,0,0,1242.08,1862.72,6,0,0.06,0.06,269,14.29,0.08,0.06,21.84,LANDED,C-1000G,0:/Integrated Flight Computer/aircraft/c_1000g_cfg.ks (inferred preloaded)
22.34,TAKEOFF,TO_GROUND_ROLL,47.72,80,32.28,4.81,-4.84,-0.24,-0.36,-0.09,88.64,0.106,1,0,0,0,0,0,0,0,0,0,0,0,0,0,0,90.14,0,1,0,-0.29,0,0,0.03,90,0,0,0,0,0,0,0,0,0.098,0,0,3,0,0,0,69,0,0,0,0,0,0,,0,NONE,0,0,0,0,0,0,0,0,0,0,0,0,0,0,0,0,0,0,0,0,0,90.14,1,0.098,-1.499,0.0369,0.547,0,0.0369,0,0,0,0,0,0,1,1,0,0,VALID,0,0,0,0,0,1,0,0,0,0,0,0,0,0,0,0,0,0,0,0,1251.23,1859.85,6,0,0.06,0.06,273,13.33,0.1,0.06,22.14,LANDED,C-1000G,0:/Integrated Flight Computer/aircraft/c_1000g_cfg.ks (inferred preloaded)
22.62,TAKEOFF,TO_GROUND_ROLL,48.91,80,31.09,4.81,-4.91,-0.24,-0.36,-0.09,88.58,0.135,1,0,0,0,0,0,0,0,0,0,0,0,0,0,0,90.14,0,1,0,-0.28,0,0,0.03,90,0,0,0,0,0,0,0,0,0.104,0,0,3,0,0,0,69,0,0,0,0,0,0,,0,NONE,0,0,0,0,0,0,0,0,0,0,0,0,0,0,0,0,0,0,0,0,0,90.14,1,0.104,-1.559,0.0393,0.56,0,0.0393,0,0,0,0,0,0,1,1,0,0,VALID,0,0,0,0,0,1,0,0,0,0,0,0,0,0,0,0,0,0,0,0,1259.54,1857.13,6,0,0.06,0.06,277,14.29,0.08,0.06,22.42,LANDED,C-1000G,0:/Integrated Flight Computer/aircraft/c_1000g_cfg.ks (inferred preloaded)
22.9,TAKEOFF,TO_GROUND_ROLL,50.1,80,29.9,4.81,-5,-0.25,-0.36,-0.09,88.51,0.458,1,0,0,0,0,0,0,0,0,0,0,0,0,0,0,90.18,0,1,0,-0.28,0,0,0.04,90,0,0,0,0,0,0,0,0,0.11,0,0,3,0,0,0,69,0,0,0,0,0,0,,0,NONE,0,0,0,0,0,0,0,0,0,0,0,0,0,0,0,0,0,0,0,0,0,90.18,1,0.11,-1.675,0.0432,0.572,0,0.0432,0,0,0,0,0,0,1,1,0,0,VALID,0,0,0,0,0,1,0,0,0,0,0,0,0,0,0,0,0,0,0,0,1267.62,1854.37,6,0,0.06,0.06,281,14.29,0.08,0.06,22.7,LANDED,C-1000G,0:/Integrated Flight Computer/aircraft/c_1000g_cfg.ks (inferred preloaded)
23.2,TAKEOFF,TO_GROUND_ROLL,51.37,80,28.63,4.81,-5.12,-0.26,-0.36,-0.09,88.33,1.01,1,0,0,0,0,0,0,0,0,0,0,0,0,0,0,90.24,0,1,0,-0.29,0,0,0.04,90,0,0,0,0,0,0,0,0,0.116,0,0,3,0,0,0,69,0,0,0,0,0,0,,0,NONE,0,0,0,0,0,0,0,0,0,0,0,0,0,0,0,0,0,0,0,0,0,90.24,1,0.116,-1.913,0.0505,0.586,0,0.0505,0,0,0,0,0,0,1,1,0,0,VALID,0,0,0,0,0,1,0,0,0,0,0,0,0,0,0,0,0,0,0,0,1276.04,1851.39,6,0,0.06,0.06,285,13.33,0.1,0.06,23,LANDED,C-1000G,0:/Integrated Flight Computer/aircraft/c_1000g_cfg.ks (inferred preloaded)
23.48,TAKEOFF,TO_GROUND_ROLL,52.58,80,27.42,4.81,-5.21,-0.26,-0.36,-0.1,88.16,1.116,1,0,0,0,0,0,0,0,0,0,0,0,0,0,0,90.29,0,1,0,-0.28,0,0,0.04,90,0,0,0,0,0,0,0,0,0.123,0,0,3,0,0,0,69,0,0,0,0,0,0,,0,NONE,0,0,0,0,0,0,0,0,0,0,0,0,0,0,0,0,0,0,0,0,0,90.29,1,0.123,-2.13,0.0574,0.599,0,0.0574,0,0,0,0,0,0,1,1,0,0,VALID,0,0,0,0,0,1,0,0,0,0,0,0,0,0,0,0,0,0,0,0,1283.67,1848.54,6,0,0.06,0.06,289,14.29,0.08,0.06,23.28,LANDED,C-1000G,0:/Integrated Flight Computer/aircraft/c_1000g_cfg.ks (inferred preloaded)
23.78,TAKEOFF,TO_GROUND_ROLL,53.88,80,26.12,4.81,-5.25,-0.25,-0.35,-0.1,87.71,0.628,1,0,0,0,0,0,0,0,0,0,0,0,0,0,0,90.47,0,1,0,-0.27,0,0,0.04,90,0,0,0,0,0,0,0,0,0.133,0,0,3,0,0,0,69,0,0,0,0,0,0,,0,NONE,0,0,0,0,0,0,0,0,0,0,0,0,0,0,0,0,0,0,0,0,0,90.47,1,0.133,-2.758,0.0761,0.613,0,0.0761,0,0,0,0,0,0,1,1,0,0,VALID,0,0,0,0,0,1,0,0,0,0,0,0,0,0,0,0,0,0,0,0,1291.58,1845.44,6,0,0.06,0.06,293,13.33,0.1,0.06,23.58,LANDED,C-1000G,0:/Integrated Flight Computer/aircraft/c_1000g_cfg.ks (inferred preloaded)
24.08,TAKEOFF,TO_GROUND_ROLL,55.2,80,24.8,4.81,-5.3,-0.27,-0.36,-0.09,87.35,0.3,1,0,0,0,0,0,0,0,0,0,0,0,0,0,0,90.31,0,1,0,-0.28,0,0,0.04,90,0,0,0,0,0,0,0,0,0.147,0,0,3,0,0,0,69,0,0,0,0,0,0,,0,NONE,0,0,0,0,0,0,0,0,0,0,0,0,0,0,0,0,0,0,0,0,0,90.31,1,0.147,-2.958,0.0835,0.627,0,0.0835,0,0,0,0,0,0,1,1,0,0,VALID,0,0,0,0,0,1,0,0,0,0,0,0,0,0,0,0,0,0,0,0,1299.25,1842.29,6,0,0.06,0.06,297,13.33,0.1,0.06,23.88,LANDED,C-1000G,0:/Integrated Flight Computer/aircraft/c_1000g_cfg.ks (inferred preloaded)
24.36,TAKEOFF,TO_GROUND_ROLL,56.43,80,23.57,4.81,-5.36,-0.26,-0.34,-0.1,87.28,0.15,1,0,0,0,0,0,0,0,0,0,0,0,0,0,0,90.16,0,1,0,-0.26,0,0,0.04,90,0,0,0,0,0,0,0,0,0.163,0,0,3,0,0,0,69,0,0,0,0,0,0,,0,NONE,0,0,0,0,0,0,0,0,0,0,0,0,0,0,0,0,0,0,0,0,0,90.16,1,0.163,-2.889,0.0833,0.64,0,0.0833,0,0,0,0,0,0,1,1,0,0,VALID,0,0,0,0,0,1,0,0,0,0,0,0,0,0,0,0,0,0,0,0,1306.19,1839.3,6,0,0.06,0.06,301,14.29,0.08,0.06,24.16,LANDED,C-1000G,0:/Integrated Flight Computer/aircraft/c_1000g_cfg.ks (inferred preloaded)
24.64,TAKEOFF,TO_GROUND_ROLL,57.67,80,22.33,4.81,-5.43,-0.28,-0.34,-0.08,87.3,-0.08,1,0,0,0,0,0,0,0,0,0,0,0,0,0,0,90.15,0,1,0,-0.28,0,0,0.04,90,0,0,0,0,0,0,0,0,0.179,0,0,3,0,0,0,69,0,0,0,0,0,0,,0,NONE,0,0,0,0,0,0,0,0,0,0,0,0,0,0,0,0,0,0,0,0,0,90.15,1,0.179,-2.848,0.0838,0.654,0,0.0838,0,0,0,0,0,0,1,1,0,0,VALID,0,0,0,0,0,1,0,0,0,0,0,0,0,0,0,0,0,0,0,0,1312.93,1836.29,6,0,0.06,0.06,305,14.29,0.08,0.06,24.44,LANDED,C-1000G,0:/Integrated Flight Computer/aircraft/c_1000g_cfg.ks (inferred preloaded)
24.94,TAKEOFF,TO_GROUND_ROLL,58.99,80,21.01,4.81,-5.55,-0.27,-0.34,-0.09,87.43,-0.523,1,0,0,0,0,0,0,0,0,0,0,0,0,0,0,90.06,0,1,0,-0.27,0,0,0.05,90,0,0,0,0,0,0,0,0,0.198,0,0,3,0,0,0,69,0,0,0,0,0,0,,0,NONE,0,0,0,0,0,0,0,0,0,0,0,0,0,0,0,0,0,0,0,0,0,90.06,1,0.198,-2.629,0.079,0.668,0,0.079,0,0,0,0,0,0,1,1,0,0,VALID,0,0,0,0,0,1,0,0,0,0,0,0,0,0,0,0,0,0,0,0,1319.93,1833.04,6,0,0.06,0.06,309,13.33,0.1,0.06,24.74,LANDED,C-1000G,0:/Integrated Flight Computer/aircraft/c_1000g_cfg.ks (inferred preloaded)
25.22,TAKEOFF,TO_GROUND_ROLL,60.24,80,19.76,4.81,-5.66,-0.45,-0.34,0.06,87.66,-0.728,1,0,0,0,0,0,0,0,0,0,0,0,0,0,0,90.04,0,1,0,-0.43,0,0,0.05,90,0,0,0,0,0,0,0,0,0.216,0,0,3,0,0,0,69,0,0,0,0,0,0,,0,NONE,0,0,0,0,0,0,0,0,0,0,0,0,0,0,0,0,0,0,0,0,0,90.04,1,0.216,-2.374,0.0728,0.681,0,0.0728,0,0,0,0,0,0,1,1,0,0,VALID,0,0,0,0,0,1,0,0,0,0,0,0,0,0,0,0,0,0,0,0,1326.27,1829.97,6,0,0.06,0.06,313,14.29,0.08,0.06,25.02,LANDED,C-1000G,0:/Integrated Flight Computer/aircraft/c_1000g_cfg.ks (inferred preloaded)
25.5,TAKEOFF,TO_GROUND_ROLL,61.49,80,18.51,4.81,-5.74,-0.15,-0.35,-0.22,88.08,-0.62,1,0,0,0,0,0,0,0,0,0,0,0,0,0,0,89.85,0,1,0,-0.14,0,0,0.05,90,0,0,0,0,0,0,0,0,0.232,0,0,3,0,0,0,69,0,0,0,0,0,0,,0,NONE,0,0,0,0,0,0,0,0,0,0,0,0,0,0,0,0,0,0,0,0,0,89.85,1,0.232,-1.777,0.0555,0.695,0,0.0555,0,0,0,0,0,0,1,1,0,0,VALID,0,0,0,0,0,1,0,0,0,0,0,0,0,0,0,0,0,0,0,0,1332.4,1826.85,6,0,0.06,0.06,317,14.29,0.08,0.06,25.3,LANDED,C-1000G,0:/Integrated Flight Computer/aircraft/c_1000g_cfg.ks (inferred preloaded)
25.8,TAKEOFF,TO_GROUND_ROLL,62.84,80,17.16,4.82,-5.79,-0.39,-0.32,0.02,88.71,-0.274,1,0,0,0,0,0,0,0,0,0,0,0,0,0,0,89.84,0,1,0,-0.36,0,0,0.05,90,0,0,0,0,0,0,0,0,0.245,0,0,3,0,0,0,69,0,0,0,0,0,0,,0,NONE,0,0,0,0,0,0,0,0,0,0,0,0,0,0,0,0,0,0,0,0,0,89.84,1,0.245,-1.13,0.036,0.709,0,0.036,0,0,0,0,0,0,1,1,0,0,VALID,0,0,0,0,0,1,0,0,0,0,0,0,0,0,0,0,0,0,0,0,1338.75,1823.47,6,0,0.06,0.06,321,13.33,0.1,0.06,25.6,LANDED,C-1000G,0:/Integrated Flight Computer/aircraft/c_1000g_cfg.ks (inferred preloaded)
26.08,TAKEOFF,TO_GROUND_ROLL,64.1,80,15.9,4.81,-5.86,-0.23,-0.36,-0.16,89.13,-0.036,1,0,0,0,0,0,0,0,0,0,0,0,0,0,0,90,0,1,0,-0.2,0,0,0.05,90,0,0,0,0,0,0,0,0,0.254,0,0,3,0,0,0,69,0,0,0,0,0,0,,0,NONE,0,0,0,0,0,0,0,0,0,0,0,0,0,0,0,0,0,0,0,0,0,90,1,0.254,-0.873,0.0284,0.723,0,0.0284,0,0,0,0,0,0,1,1,0,0,VALID,0,0,0,0,0,1,0,0,0,0,0,0,0,0,0,0,0,0,0,0,1344.48,1820.28,6,0,0.06,0.06,325,14.29,0.08,0.06,25.88,LANDED,C-1000G,0:/Integrated Flight Computer/aircraft/c_1000g_cfg.ks (inferred preloaded)
26.38,TAKEOFF,TO_GROUND_ROLL,65.46,80,14.54,4.82,-5.96,-0.35,-0.32,-0.03,89.39,0.248,1,0,0,0,0,0,0,0,0,0,0,0,0,0,0,90.14,0,1,0,-0.3,0,0,0.06,90,0,0,0,0,0,0,0,0,0.259,0,0,3,0,0,0,69,0,0,0,0,0,0,,0,NONE,0,0,0,0,0,0,0,0,0,0,0,0,0,0,0,0,0,0,0,0,0,90.14,1,0.259,-0.759,0.0252,0.737,0,0.0252,0,0,0,0,0,0,1,1,0,0,VALID,0,0,0,0,0,1,0,0,0,0,0,0,0,0,0,0,0,0,0,0,1350.41,1816.83,6,0,0.06,0.06,329,13.33,0.1,0.06,26.18,LANDED,C-1000G,0:/Integrated Flight Computer/aircraft/c_1000g_cfg.ks (inferred preloaded)
26.68,TAKEOFF,TO_GROUND_ROLL,66.83,80,13.17,4.81,-6.07,-0.27,-0.35,-0.12,89.47,0.504,1,0,0,0,0,0,0,0,0,0,0,0,0,0,0,90.24,0,1,0,-0.23,0,0,0.06,90,0,0,0,0,0,0,0,0,0.263,0,0,3,0,0,0,69,0,0,0,0,0,0,,0,NONE,0,0,0,0,0,0,0,0,0,0,0,0,0,0,0,0,0,0,0,0,0,90.24,1,0.263,-0.77,0.026,0.752,0,0.026,0,0,0,0,0,0,1,1,0,0,VALID,0,0,0,0,0,1,0,0,0,0,0,0,0,0,0,0,0,0,0,0,1356.14,1813.35,6,0,0.06,0.06,333,13.33,0.1,0.06,26.48,LANDED,C-1000G,0:/Integrated Flight Computer/aircraft/c_1000g_cfg.ks (inferred preloaded)
26.96,TAKEOFF,TO_GROUND_ROLL,68.11,80,11.89,4.82,-6.15,-0.32,-0.31,-0.06,89.39,0.451,1,0,0,0,0,0,0,0,0,0,0,0,0,0,0,90.37,0,1,0,-0.27,0,0,0.06,90,0,0,0,0,0,0,0,0,0.265,0,0,3,0,0,0,69,0,0,0,0,0,0,,0,NONE,0,0,0,0,0,0,0,0,0,0,0,0,0,0,0,0,0,0,0,0,0,90.37,1,0.265,-0.979,0.0337,0.765,0,0.0337,0,0,0,0,0,0,1,1,0,0,VALID,0,0,0,0,0,1,0,0,0,0,0,0,0,0,0,0,0,0,0,0,1361.31,1810.08,6,0,0.06,0.06,337,14.29,0.08,0.06,26.76,LANDED,C-1000G,0:/Integrated Flight Computer/aircraft/c_1000g_cfg.ks (inferred preloaded)
27.24,TAKEOFF,TO_GROUND_ROLL,69.39,80,10.61,4.81,-6.22,-0.3,-0.33,-0.09,89.21,0.2,1,0,0,0,0,0,0,0,0,0,0,0,0,0,0,90.44,0,1,0,-0.25,0,0,0.06,90,0,0,0,0,0,0,0,0,0.268,0,0,3,0,0,0,69,0,0,0,0,0,0,,0,NONE,0,0,0,0,0,0,0,0,0,0,0,0,0,0,0,0,0,0,0,0,0,90.44,1,0.268,-1.225,0.043,0.779,0,0.043,0,0,0,0,0,0,1,1,0,0,VALID,0,0,0,0,0,1,0,0,0,0,0,0,0,0,0,0,0,0,0,0,1366.29,1806.77,6,0,0.06,0.06,341,14.29,0.08,0.06,27.04,LANDED,C-1000G,0:/Integrated Flight Computer/aircraft/c_1000g_cfg.ks (inferred preloaded)
27.54,TAKEOFF,TO_GROUND_ROLL,70.77,80,9.23,4.82,-6.3,-0.31,-0.31,-0.07,88.83,0.011,1,0,0,0,0,0,0,0,0,0,0,0,0,0,0,90.54,0,1,0,-0.25,0,0,0.06,90,0,0,0,0,0,0,0,0,0.274,0,0,3,0,0,0,69,0,0,0,0,0,0,,0,NONE,0,0,0,0,0,0,0,0,0,0,0,0,0,0,0,0,0,0,0,0,0,90.54,1,0.274,-1.707,0.061,0.794,0,0.061,0,0,0,0,0,0,1,1,0,0,VALID,0,0,0,0,0,1,0,0,0,0,0,0,0,0,0,0,0,0,0,0,1371.45,1803.21,6,0,0.06,0.06,345,13.33,0.1,0.06,27.34,LANDED,C-1000G,0:/Integrated Flight Computer/aircraft/c_1000g_cfg.ks (inferred preloaded)
27.82,TAKEOFF,TO_GROUND_ROLL,72.05,80,7.95,4.82,-6.41,-0.32,-0.32,-0.08,88.51,-0.276,1,0,0,0,0,0,0,0,0,0,0,0,0,0,0,90.49,0,1,0,-0.26,0,0,0.07,90,0,0,0,0,0,0,0,0,0.283,0,0,3,0,0,0,69,0,0,0,0,0,0,,0,NONE,0,0,0,0,0,0,0,0,0,0,0,0,0,0,0,0,0,0,0,0,0,90.49,1,0.283,-1.982,0.072,0.808,0,0.072,0,0,0,0,0,0,1,1,0,0,VALID,0,0,0,0,0,1,0,0,0,0,0,0,0,0,0,0,0,0,0,0,1376.1,1799.87,6,0,0.06,0.06,349,14.29,0.08,0.06,27.62,LANDED,C-1000G,0:/Integrated Flight Computer/aircraft/c_1000g_cfg.ks (inferred preloaded)
28.1,TAKEOFF,TO_GROUND_ROLL,73.34,80,6.66,4.82,-6.51,-0.31,-0.31,-0.09,88.36,-0.571,1,0,0,0,0,0,0,0,0,0,0,0,0,0,0,90.33,0,1,0,-0.24,0,0,0.07,90,0,0,0,0,0,0,0,0,0.295,0,0,3,0,0,0,69,0,0,0,0,0,0,,0,NONE,0,0,0,0,0,0,0,0,0,0,0,0,0,0,0,0,0,0,0,0,0,90.33,1,0.295,-1.973,0.0729,0.822,0,0.0729,0,0,0,0,0,0,1,1,0,0,VALID,0,0,0,0,0,1,0,0,0,0,0,0,0,0,0,0,0,0,0,0,1380.59,1796.52,6,0,0.06,0.06,353,14.29,0.08,0.06,27.9,LANDED,C-1000G,0:/Integrated Flight Computer/aircraft/c_1000g_cfg.ks (inferred preloaded)
28.4,TAKEOFF,TO_GROUND_ROLL,74.73,80,5.27,4.82,-6.63,-0.33,-0.32,-0.08,88.52,-0.663,1,0,0,0,0,0,0,0,0,0,0,0,0,0,0,90.12,0,1,0,-0.25,0,0,0.07,90,0,0,0,0,0,0,0,0,0.31,0,0,3,0,0,0,69,0,0,0,0,0,0,,0,NONE,0,0,0,0,0,0,0,0,0,0,0,0,0,0,0,0,0,0,0,0,0,90.12,1,0.31,-1.607,0.0605,0.836,0,0.0605,0,0,0,0,0,0,1,1,0,0,VALID,0,0,0,0,0,1,0,0,0,0,0,0,0,0,0,0,0,0,0,0,1385.22,1792.89,6,0,0.06,0.06,357,13.33,0.1,0.06,28.2,LANDED,C-1000G,0:/Integrated Flight Computer/aircraft/c_1000g_cfg.ks (inferred preloaded)
28.68,TAKEOFF,TO_GROUND_ROLL,76.03,80,3.97,4.82,-6.69,-0.31,-0.32,-0.09,88.88,-0.329,1,0,0,0,0,0,0,0,0,0,0,0,0,0,0,90.02,0,1,0,-0.23,0,0,0.07,90,0,0,0,0,0,0,0,0,0.324,0,0,3,0,0,0,69,0,0,0,0,0,0,,0,NONE,0,0,0,0,0,0,0,0,0,0,0,0,0,0,0,0,0,0,0,0,0,90.02,1,0.324,-1.143,0.0437,0.85,0,0.0437,0,0,0,0,0,0,1,1,0,0,VALID,0,0,0,0,0,1,0,0,0,0,0,0,0,0,0,0,0,0,0,0,1389.37,1789.47,6,0,0.06,0.06,361,14.29,0.08,0.06,28.48,LANDED,C-1000G,0:/Integrated Flight Computer/aircraft/c_1000g_cfg.ks (inferred preloaded)
28.98,TAKEOFF,TO_GROUND_ROLL,77.43,80,2.57,4.82,-6.78,-0.34,-0.31,-0.07,89.37,0.279,1,0,0,0,0,0,0,0,0,0,0,0,0,0,0,90.02,0,1,0,-0.25,0,0,0.07,90,0,0,0,0,0,0,0,0,0.333,0,0,3,0,0,0,69,0,0,0,0,0,0,,0,NONE,0,0,0,0,0,0,0,0,0,0,0,0,0,0,0,0,0,0,0,0,0,90.02,1,0.333,-0.652,0.0254,0.865,0,0.0254,0,0,0,0,0,0,1,1,0,0,VALID,0,0,0,0,0,1,0,0,0,0,0,0,0,0,0,0,0,0,0,0,1393.64,1785.79,6,0,0.06,0.06,365,13.33,0.1,0.06,28.78,LANDED,C-1000G,0:/Integrated Flight Computer/aircraft/c_1000g_cfg.ks (inferred preloaded)
29.28,TAKEOFF,TO_GROUND_ROLL,78.83,80,1.17,4.82,-6.89,-0.32,-0.31,-0.08,89.66,0.442,1,0,0,0,0,0,0,0,0,0,0,0,0,0,0,90.24,0,1,0,-0.23,0,0,0.08,90,0,0,0,0,0,0,0,0,0.338,0,0,3,0,0,0,69,0,0,0,0,0,0,,0,NONE,0,0,0,0,0,0,0,0,0,0,0,0,0,0,0,0,0,0,0,0,0,90.24,1,0.338,-0.579,0.0229,0.88,0,0.0229,0,0,0,0,0,0,1,1,0,0,VALID,0,0,0,0,0,1,0,0,0,0,0,0,0,0,0,0,0,0,0,0,1397.75,1782.09,6,0,0.06,0.06,369,13.33,0.1,0.06,29.08,LANDED,C-1000G,0:/Integrated Flight Computer/aircraft/c_1000g_cfg.ks (inferred preloaded)
29.56,TAKEOFF,TO_GROUND_ROLL,80.14,80,-0.14,4.83,-6.97,-0.34,-0.3,-0.07,89.69,0.201,1,0,0,0,0,0,0,0,0,0,0,0,0,0,0,90.36,0,1,0,-0.24,0,0,0.08,90,0,0,0,0,0,0,0,0,0.34,0,0,3,0,0,0,69,0,0,0,0,0,0,,0,NONE,0,0,0,0,0,0,0,0,0,0,0,0,0,0,0,0,0,0,0,0,0,90.36,1,0.34,-0.669,0.0269,0.894,0,0.0269,0,0,0,0,0,0,1,1,0,0,VALID,0,0,0,0,0,1,0,0,0,0,0,0,0,0,0,0,0,0,0,0,1401.42,1778.61,6,0,0.06,0.06,373,14.29,0.08,0.06,29.36,LANDED,C-1000G,0:/Integrated Flight Computer/aircraft/c_1000g_cfg.ks (inferred preloaded)
29.84,TAKEOFF,TO_GROUND_ROLL,81.46,80,-1.46,4.82,-7.05,-0.33,-0.3,-0.08,89.66,-0.027,1,0,0,0,0,0,0,0,0,0,0,0,0,0,0,90.34,0,1,0,-0.24,0,0,0.08,90,0,0,0,0,0,0,0,0,0.341,0,0,3,0,0,0,69,0,0,0,0,0,0,,0,NONE,0,0,0,0,0,0,0,0,0,0,0,0,0,0,0,0,0,0,0,0,0,90.34,1,0.341,-0.678,0.0277,0.908,0,0.0277,0,0,0,0,0,0,1,1,0,0,VALID,0,0,0,0,0,1,0,0,0,0,0,0,0,0,0,0,0,0,0,0,1404.95,1775.13,6,0,0.06,0.06,377,14.29,0.08,0.06,29.64,LANDED,C-1000G,0:/Integrated Flight Computer/aircraft/c_1000g_cfg.ks (inferred preloaded)
30.14,TAKEOFF,TO_GROUND_ROLL,82.87,80,-2.87,4.83,-7.15,-0.34,-0.3,-0.07,89.73,-0.014,1,0,0,0,0,0,0,0,0,0,0,0,0,0,0,90.27,0,1,0,-0.23,0,0,0.08,90,0,0,0,0,0,0,0,0,0.344,0,0,3,0,0,0,69,0,0,0,0,0,0,,0,NONE,0,0,0,0,0,0,0,0,0,0,0,0,0,0,0,0,0,0,0,0,0,90.27,1,0.344,-0.545,0.0227,0.924,0,0.0227,0,0,0,0,0,0,1,1,0,0,VALID,0,0,0,0,0,1,0,0,0,0,0,0,0,0,0,0,0,0,0,0,1408.58,1771.38,6,0,0.06,0.06,381,13.33,0.1,0.06,29.94,LANDED,C-1000G,0:/Integrated Flight Computer/aircraft/c_1000g_cfg.ks (inferred preloaded)
30.42,TAKEOFF,TO_GROUND_ROLL,84.19,80,-4.19,4.83,-7.25,-0.34,-0.3,-0.08,89.84,0.111,1,0,0,0,0,0,0,0,0,0,0,0,0,0,0,90.27,0,1,0,-0.23,0,0,0.09,90,0,0,0,0,0,0,0,0,0.347,0,0,3,0,0,0,69,0,0,0,0,0,0,,0,NONE,0,0,0,0,0,0,0,0,0,0,0,0,0,0,0,0,0,0,0,0,0,90.27,1,0.347,-0.433,0.0183,0.938,0,0.0183,0,0,0,0,0,0,1,1,0,0,VALID,0,0,0,0,0,1,0,0,0,0,0,0,0,0,0,0,0,0,0,0,1411.83,1767.86,6,0,0.06,0.06,385,14.29,0.08,0.06,30.22,LANDED,C-1000G,0:/Integrated Flight Computer/aircraft/c_1000g_cfg.ks (inferred preloaded)
30.7,TAKEOFF,TO_ROTATE,85.6,80,-5.6,4.83,-7.35,-0.34,-0.29,-0.07,89.9,0.151,1,0,0,0,0,0,0,0,0,0,0,0,0,0,0,90.33,-0.231,1,0,-0.23,0,0,0.09,90,0,0,0,0,0,0,0,0,0.349,0,0,3,0,0,0,69,0,0,0,0,0,0,,0,NONE,0,0,0,0,0,0,0,0.096,0,0,0,0,0,0,0,0,0,0,0,0,0,90.33,1,0.349,-0.43,0.0184,0.952,0,0.0184,0,0.096,-0.231,0.059,0.08,0,1,1,0,0,VALID,0,0,0,0,0,1,0,0,0,0,0,0,0,0,0,0,0,0,0,0,1414.94,1764.34,6,0,0.06,0.06,389,13.33,0.08,0.06,30.5,LANDED,C-1000G,0:/Integrated Flight Computer/aircraft/c_1000g_cfg.ks (inferred preloaded)
31.02,TAKEOFF,TO_ROTATE,87.12,80,-7.12,4.83,-7.46,-0.34,-0.28,-0.06,89.88,0.083,1,0,0,0,0,0,0,0,0,0,0,0,0,0,0,90.37,0.089,1,0,-0.23,0,0,0.09,90,0,0,0,0,0,0,0,0,0.351,0,0,3,0,0,0,69,0,0,0,0,0,0,,0,NONE,0,0,0,0,0,0,0,0.12,0,0,0,0,0,0,0,0,0,0,0,0,0,90.37,1,0.351,-0.491,0.0214,0.968,0,0.0214,0,0.12,0.089,0.367,0.08,0,1,1,0,0,VALID,0,0,0,0,0,1,0,0,0,0,0,0,0,0,0,0,0,0,0,0,1418.34,1760.3,6,0,0.08,0.08,393,12.5,0.1,0.06,30.82,LANDED,C-1000G,0:/Integrated Flight Computer/aircraft/c_1000g_cfg.ks (inferred preloaded)
31.3,TAKEOFF,TO_ROTATE,88.44,80,-8.44,4.83,-7.55,-0.34,-0.27,-0.06,89.86,0.042,1,0,0,0,0,0,0,0,0,0,0,0,0,0,0,90.36,0.369,1,0,-0.22,0,0,0.09,90,0,0,0,0,0,0,0,0,0.352,0,0,3,0,0,0,69,0,0,0,0,0,0,,0,NONE,0,0,0,0,0,0,0,0.1313,0,0,0,0,0,0,0,0,0,0,0,0,0,90.36,1,0.352,-0.501,0.0222,0.982,0,0.0222,0,0.1313,0.369,0.641,0.08,0,1,1,0,0,VALID,0,0,0,0,0,1,0,0,0,0,0,0,0,0,0,0,0,0,0,0,1421.18,1756.76,6,0,0.08,0.08,397,14.29,0.08,0.06,31.1,LANDED,C-1000G,0:/Integrated Flight Computer/aircraft/c_1000g_cfg.ks (inferred preloaded)
31.6,TAKEOFF,TO_ROTATE,89.87,80,-9.87,4.83,-7.65,-0.23,-0.27,-0.12,89.87,0.068,1,0,0,0,0,0,0,0,0,0,0,0,0,0,0,90.34,0.669,1,0,-0.15,0,0,0.1,90,0,0,0,0,0,0,0,0,0.354,0,0,3,0,0,0,69,0,0,0,0,0,0,,0,NONE,0,0,0,0,0,0,0,0.155,0,0,0,0,0,0,0,0,0,0,0,0,0,90.34,1,0.354,-0.464,0.0208,0.998,0,0.0208,0,0.155,0.669,0.937,0.08,0,1,1,0,0,VALID,0,0,0,0,0,1,0,0,0,0,0,0,0,0,0,0,0,0,0,0,1424.09,1752.96,6,0,0.08,0.08,401,13.33,0.08,0.06,31.4,LANDED,C-1000G,0:/Integrated Flight Computer/aircraft/c_1000g_cfg.ks (inferred preloaded)
31.92,TAKEOFF,TO_ROTATE,91.39,80,-11.39,4.84,-7.76,-0.43,-0.25,0.01,89.9,0.105,1,0,0,0,0,0,0,0,0,0,0,0,0,0,0,90.34,0.989,1,0,-0.27,0,0,0.1,90,0,0,0,0,0,0,0,0,0.356,0,0,3,0,0,0,69,0,0,0,0,0,0,,0,NONE,0,0,0,0,0,0,0,0.1792,0,0,0,0,0,0,0,0,0,0,0,0,0,90.34,1,0.356,-0.434,0.0195,1,0,0.0195,0,0.1792,0.989,1.24,0.08,0,1,1,0,0,VALID,0,0,0,0,0,1,0,0,0,0,0,0,0,0,0,0,0,0,0,0,1427.04,1748.89,6,0,0.1,0.1,405,12.5,0.1,0.06,31.72,LANDED,C-1000G,0:/Integrated Flight Computer/aircraft/c_1000g_cfg.ks (inferred preloaded)
32.24,TAKEOFF,TO_ROTATE,92.91,80,-12.91,4.83,-7.87,-0.28,-0.26,-0.09,89.91,0.102,1,0,0,0,0,0,0,0,0,0,0,0,0,0,0,90.36,1.309,1,0,-0.17,0,0,0.1,90,0,0,0,0,0,0,0,0,0.357,0,0,3,0,0,0,69,0,0,0,0,0,0,,0,NONE,0,0,0,0,0,0,0,0.2055,0,0,0,0,0,0,0,0,0,0,0,0,0,90.36,1,0.357,-0.443,0.0199,1,0,0.0199,0,0.2055,1.309,1.568,0.08,0,1,1,0,0,VALID,0,0,0,0,0,1,0,0,0,0,0,0,0,0,0,0,0,0,0,0,1429.84,1744.83,6,0,0.08,0.08,409,12.5,0.1,0.06,32.04,LANDED,C-1000G,0:/Integrated Flight Computer/aircraft/c_1000g_cfg.ks (inferred preloaded)
32.54,TAKEOFF,TO_ROTATE,94.34,80,-14.34,4.84,-7.98,-0.4,-0.23,0,89.91,0.083,1,0,0,0,0,0,0,0,0,0,0,0,0,0,0,90.36,1.609,1,0,-0.24,0,0,0.1,90,0,0,0,0,0,0,0,0,0.358,0,0,3,0,0,0,69,0,0,0,0,0,0,,0,NONE,0,0,0,0,0,0,0,0.2274,0,0,0,0,0,0,0,0,0,0,0,0,0,90.36,1,0.358,-0.445,0.02,1,0,0.02,0,0.2274,1.609,1.842,0.08,0,1,1,0,0,VALID,0,0,0,0,0,1,0,0,0,0,0,0,0,0,0,0,0,0,0,0,1432.33,1741.02,6,0,0.08,0.08,413,13.33,0.08,0.06,32.34,LANDED,C-1000G,0:/Integrated Flight Computer/aircraft/c_1000g_cfg.ks (inferred preloaded)
32.82,TAKEOFF,TO_ROTATE,95.67,80,-15.67,4.84,-8.07,-0.31,-0.25,-0.07,89.92,0.082,1,0,0,0,0,0,0,0,0,0,0,0,0,0,0,90.35,1.889,1,0,-0.19,0,0,0.11,90,0,0,0,0,0,0,0,0,0.359,0,0,3,0,0,0,69,0,0,0,0,0,0,,0,NONE,0,0,0,0,0,0,0,0.251,0,0,0,0,0,0,0,0,0,0,0,0,0,90.35,1,0.359,-0.43,0.0194,1,0,0.0194,0,0.251,1.889,2.137,0.08,0,1,1,0,0,VALID,0,0,0,0,0,1,0,0,0,0,0,0,0,0,0,0,0,0,0,0,1434.54,1737.46,6,0,0.08,0.08,417,14.29,0.08,0.06,32.62,LANDED,C-1000G,0:/Integrated Flight Computer/aircraft/c_1000g_cfg.ks (inferred preloaded)
33.12,TAKEOFF,TO_ROTATE,97.1,80,-17.1,4.84,-8.18,-0.37,-0.22,-0.01,89.94,0.091,1,0,0,0,0,0,0,0,0,0,0,0,0,0,0,90.35,2.189,1,0,-0.22,0,0,0.11,90,0,0,0,0,0,0,0,0,0.36,0,0,3,0,0,0,69,0,0,0,0,0,0,,0,NONE,0,0,0,0,0,0,0,0.2726,0,0,0,0,0,0,0,0,0,0,0,0,0,90.35,1,0.36,-0.414,0.0186,1,0,0.0186,0,0.2726,2.189,2.407,0.08,0,1,1,0,0,VALID,0,0,0,0,0,1,0,0,0,0,0,0,0,0,0,0,0,0,0,0,1436.8,1733.65,6,0,0.08,0.08,421,13.33,0.08,0.06,32.92,LANDED,C-1000G,0:/Integrated Flight Computer/aircraft/c_1000g_cfg.ks (inferred preloaded)
33.44,TAKEOFF,TO_ROTATE,98.63,80,-18.63,4.84,-8.29,-0.33,-0.23,-0.05,89.95,0.095,1,0,0,0,0,0,0,0,0,0,0,0,0,0,0,90.36,2.509,1,0,-0.19,0,0,0.11,90,0,0,0,0,0,0,0,0,0.361,0,0,3,0,0,0,69,0,0,0,0,0,0,,0,NONE,0,0,0,0,0,0,0,0.299,0,0,0,0,0,0,0,0,0,0,0,0,0,90.36,1,0.361,-0.412,0.0185,1,0,0.0185,0,0.299,2.509,2.738,0.08,0,1,1,0,0,VALID,0,0,0,0,0,1,0,0,0,0,0,0,0,0,0,0,0,0,0,0,1439.07,1729.59,6,0,0.1,0.1,425,12.5,0.1,0.06,33.24,LANDED,C-1000G,0:/Integrated Flight Computer/aircraft/c_1000g_cfg.ks (inferred preloaded)
33.76,TAKEOFF,TO_ROTATE,100.16,80,-20.16,4.85,-8.4,-0.36,-0.2,-0.01,89.95,0.091,1,0,0,0,0,0,0,0,0,0,0,0,0,0,0,90.36,2.829,1,0,-0.2,0,0,0.12,90,0,0,0,0,0,0,0,0,0.362,0,0,3,0,0,0,69,0,0,0,0,0,0,,0,NONE,0,0,0,0,0,0,0,0.3224,0,0,0,0,0,0,0,0,0,0,0,0,0,90.36,1,0.362,-0.413,0.0186,1,0,0.0186,0,0.3224,2.829,3.03,0.08,0,1,1,0,0,VALID,0,0,0,0,0,1,0,0,0,0,0,0,0,0,0,0,0,0,0,0,1441.22,1725.54,6,0,0.08,0.08,429,12.5,0.1,0.06,33.56,LANDED,C-1000G,0:/Integrated Flight Computer/aircraft/c_1000g_cfg.ks (inferred preloaded)
34.06,TAKEOFF,TO_ROTATE,101.59,80,-21.59,4.85,-8.5,-0.34,-0.21,-0.03,89.95,0.09,1,0,0,0,0,0,0,0,0,0,0,0,0,0,0,90.36,3.129,1,0,-0.19,0,0,0.12,90,0,0,0,0,0,0,0,0,0.363,0,0,3,0,0,0,69,0,0,0,0,0,0,,0,NONE,0,0,0,0,0,0,0,0.347,0,0,0,0,0,0,0,0,0,0,0,0,0,90.36,1,0.363,-0.405,0.0182,1,0,0.0182,0,0.347,3.129,3.338,0.08,0,1,1,0,0,VALID,0,0,0,0,0,1,0,0,0,0,0,0,0,0,0,0,0,0,0,0,1443.13,1721.75,6,0,0.08,0.08,433,13.33,0.08,0.06,33.86,LANDED,C-1000G,0:/Integrated Flight Computer/aircraft/c_1000g_cfg.ks (inferred preloaded)
34.34,TAKEOFF,TO_ROTATE,102.92,80,-22.92,4.85,-8.6,-0.35,-0.19,0,89.96,0.092,1,0,0,0,0,0,0,0,0,0,0,0,0,0,0,90.36,3.409,1,0,-0.19,0,0,0.12,90,0,0,0,0,0,0,0,0,0.363,0,0,3,0,0,0,69,0,0,0,0,0,0,,0,NONE,0,0,0,0,0,0,0,0.3679,0,0,0,0,0,0,0,0,0,0,0,0,0,90.36,1,0.363,-0.397,0.0178,1,0,0.0178,0,0.3679,3.409,3.598,0.08,0,1,1,0,0,VALID,0,0,0,0,0,1,0,0,0,0,0,0,0,0,0,0,0,0,0,0,1444.81,1718.22,6,0,0.08,0.08,437,14.29,0.08,0.06,34.14,LANDED,C-1000G,0:/Integrated Flight Computer/aircraft/c_1000g_cfg.ks (inferred preloaded)
34.64,TAKEOFF,TO_ROTATE,104.35,80,-24.35,4.85,-8.71,-0.34,-0.19,-0.01,89.97,0.092,1,0,0,0,0,0,0,0,0,0,0,0,0,0,0,90.36,3.709,1,0,-0.19,0,0,0.13,90,0,0,0,0,0,0,0,0,0.364,0,0,3,0,0,0,69,0,0,0,0,0,0,,0,NONE,0,0,0,0,0,0,0,0.3918,0,0,0,0,0,0,0,0,0,0,0,0,0,90.36,1,0.364,-0.39,0.0174,1,0,0.0174,0,0.3918,3.709,3.897,0.08,0,1,1,0,0,VALID,0,0,0,0,0,1,0,0,0,0,0,0,0,0,0,0,0,0,0,0,1446.51,1714.45,6,0,0.08,0.08,441,13.33,0.08,0.06,34.44,LANDED,C-1000G,0:/Integrated Flight Computer/aircraft/c_1000g_cfg.ks (inferred preloaded)
34.94,TAKEOFF,TO_ROTATE,105.78,80,-25.78,4.85,-8.81,-0.34,-0.17,0.01,89.98,0.091,1,0,0,0,0,0,0,0,0,0,0,0,0,0,0,90.36,4.009,1,0,-0.18,0,0,0.13,90,0,0,0,0,0,0,0,0,0.365,0,0,3,0,0,0,69,0,0,0,0,0,0,,0,NONE,0,0,0,0,0,0,0,0.4144,0,0,0,0,0,0,0,0,0,0,0,0,0,90.36,1,0.365,-0.384,0.017,1,0,0.017,0,0.4144,4.009,4.18,0.08,0,1,1,0,0,VALID,0,0,0,0,0,1,0,0,0,0,0,0,0,0,0,0,0,0,0,0,1448.12,1710.69,6,0,0.08,0.08,445,13.33,0.08,0.06,34.74,LANDED,C-1000G,0:/Integrated Flight Computer/aircraft/c_1000g_cfg.ks (inferred preloaded)
35.22,TAKEOFF,TO_ROTATE,107.12,80,-27.12,4.85,-8.9,-0.34,-0.17,0.01,89.98,0.09,1,0,0,0,0,0,0,0,0,0,0,0,0,0,0,90.36,4.289,1,0,-0.18,0,0,0.13,90,0,0,0,0,0,0,0,0,0.365,0,0,3,0,0,0,69,0,0,0,0,0,0,,0,NONE,0,0,0,0,0,0,0,0.4367,0,0,0,0,0,0,0,0,0,0,0,0,0,90.36,1,0.365,-0.378,0.0166,1,0,0.0166,0,0.4367,4.289,4.459,0.08,0,1,1,0,0,VALID,0,0,0,0,0,1,0,0,0,0,0,0,0,0,0,0,0,0,0,0,1449.53,1707.2,6,0,0.08,0.08,449,14.29,0.08,0.06,35.02,LANDED,C-1000G,0:/Integrated Flight Computer/aircraft/c_1000g_cfg.ks (inferred preloaded)
35.5,TAKEOFF,TO_ROTATE,108.45,80,-28.45,4.86,-9,-0.34,-0.16,0.01,89.99,0.091,1,0,0,0,0,0,0,0,0,0,0,0,0,0,0,90.36,4.569,1,0,-0.18,0,0,0.13,90,0,0,0,0,0,0,0,0,0.365,0,0,3,0,0,0,69,0,0,0,0,0,0,,0,NONE,0,0,0,0,0,0,0,0.45,0,0,0,0,0,0,0,0,0,0,0,0,0,90.36,1,0.365,-0.372,0.0162,1,0,0.0162,0,0.45,4.569,4.725,0.08,0,1,1,0,0,VALID,0,0,0,0,0,1,0,0,0,0,0,0,0,0,0,0,0,0,0,0,1450.86,1703.72,6,0,0.08,0.08,453,14.29,0.08,0.06,35.3,LANDED,C-1000G,0:/Integrated Flight Computer/aircraft/c_1000g_cfg.ks (inferred preloaded)
35.8,TAKEOFF,TO_ROTATE,109.88,80,-29.88,4.86,-9.1,-0.34,-0.15,0.02,90,0.091,1,0,0,0,0,0,0,0,0,0,0,0,0,0,0,90.36,4.869,1,0,-0.18,0,0,0.14,90,0,0,0,0,0,0,0,0,0.366,0,0,3,0,0,0,69,0,0,0,0,0,0,,0,NONE,0,0,0,0,0,0,0,0.45,0,0,0,0,0,0,0,0,0,0,0,0,0,90.36,1,0.366,-0.365,0.0158,1,0,0.0158,0,0.45,4.869,5.017,0.08,0,1,1,0,0,VALID,0,0,0,0,0,1,0,0,0,0,0,0,0,0,0,0,0,0,0,0,1452.21,1700,6,0,0.08,0.08,457,13.33,0.08,0.06,35.6,LANDED,C-1000G,0:/Integrated Flight Computer/aircraft/c_1000g_cfg.ks (inferred preloaded)
36.1,TAKEOFF,TO_ROTATE,111.31,80,-31.31,4.86,-9.2,-0.33,-0.14,0.02,90,0.091,1,0,0,0,0,0,0,0,0,0,0,0,0,0,0,90.36,5.169,1,0,-0.17,0,0,0.14,90,0,0,0,0,0,0,0,0,0.366,0,0,3,0,0,0,69,0,0,0,0,0,0,,0,NONE,0,0,0,0,0,0,0,0.45,0,0,0,0,0,0,0,0,0,0,0,0,0,90.36,1,0.366,-0.359,0.0154,1,0,0.0154,0,0.45,5.169,5.31,0.08,0,1,1,0,0,VALID,0,0,0,0,0,1,0,0,0,0,0,0,0,0,0,0,0,0,0,0,1453.47,1696.31,6,0,0.08,0.08,461,13.33,0.08,0.06,35.9,LANDED,C-1000G,0:/Integrated Flight Computer/aircraft/c_1000g_cfg.ks (inferred preloaded)
36.4,TAKEOFF,TO_ROTATE,112.73,80,-32.73,4.86,-9.31,-0.35,-0.13,0.04,90.01,0.091,1,0,0,0,0,0,0,0,0,0,0,0,0,0,0,90.36,5.469,1,0,-0.18,0,0,0.14,90,0,0,0,0,0,0,0,0,0.366,0,0,3,0,0,0,69,0,0,0,0,0,0,,0,NONE,0,0,0,0,0,0,0,0.45,0,0,0,0,0,0,0,0,0,0,0,0,0,90.36,1,0.366,-0.352,0.015,1,0,0.015,0,0.45,5.469,5.603,0.08,0,1,1,0,0,VALID,0,0,0,0,0,1,0,0,0,0,0,0,0,0,0,0,0,0,0,0,1454.65,1692.63,6,0,0.08,0.08,465,13.33,0.08,0.06,36.2,LANDED,C-1000G,0:/Integrated Flight Computer/aircraft/c_1000g_cfg.ks (inferred preloaded)
36.7,TAKEOFF,TO_ROTATE,114.16,80,-34.16,4.86,-9.4,-0.31,-0.13,0.02,90.02,0.091,1,0,0,0,0,0,0,0,0,0,0,0,0,0,0,90.36,5.769,1,0,-0.16,0,0,0.15,90,0,0,0,0,0,0,0,0,0.366,0,0,3,0,0,0,69,0,0,0,0,0,0,,0,NONE,0,0,0,0,0,0,0,0.45,0,0,0,0,0,0,0,0,0,0,0,0,0,90.36,1,0.366,-0.344,0.0145,1,0,0.0145,0,0.45,5.769,5.899,0.08,0,1,1,0,0,VALID,0,0,0,0,0,1,0,0,0,0,0,0,0,0,0,0,0,0,0,0,1455.75,1688.98,6,0,0.08,0.08,469,13.33,0.08,0.06,36.5,LANDED,C-1000G,0:/Integrated Flight Computer/aircraft/c_1000g_cfg.ks (inferred preloaded)
