t_s,phase,subphase,ias_ms,vapp_ms,spd_err_ms,agl_m,vs_ms,pitch_deg,aoa_deg,hdg_deg,bank_deg,thr_cmd,thr_cur,thr_intg,aa_hdg_cmd_deg,aa_fpa_cmd_deg,ils_loc_m,ils_gs_m,ils_dist_km,loc_corr_deg,gs_corr_deg,flare_fpa_cmd,flare_tgt_vs,flare_frac,steer_hdg_deg,steer_blend,ro_loc_corr_deg,ro_hdg_err_deg,ro_yaw_tgt,ro_yaw_scale,ro_yaw_gate,yaw_cmd,roll_cmd,pitch_cmd,ro_pitch_tgt_deg,ro_pitch_err_deg,ro_pitch_ff,ro_roll_assist,flaps_cur,flaps_tgt,phase_el_s,status
1.02,APPROACH,FLY_TO_FIX,144.41,80.4,-64.01,1499.52,0.01,-0.81,-0.82,270.02,-0.017,0,0,-20,63.99,0.002,0,0,0,0,0,0,0,0,270.02,0,0,0,0,0,0,0,0,0,0,0,0,0,1,1,1.06,FLYING
1.8,APPROACH,FLY_TO_FIX,144.03,80.8,-63.23,1499.54,0.02,-0.84,-0.81,270.34,-8.153,0,0,-20,64.27,0.002,0,0,0,0,0,0,0,0,270.02,0,0,0,0,0,0,0,0,0,0,0,0,0,1,1,1.84,FLYING
2.52,APPROACH,FLY_TO_FIX,143.29,81.2,-62.09,1417.28,-0.42,-1.32,-0.98,270.99,-23.031,0,0,-20,64.54,0.003,0,0,0,0,0,0,0,0,270.02,0,0,0,0,0,0,0,0,0,0,0,0,0,1,1,2.56,FLYING
3.22,APPROACH,FLY_TO_FIX,142.43,81.6,-60.83,1376.82,-2.09,-2.37,-1.38,271.66,-38.608,0,0,-20,64.79,0.007,0,0,0,0,0,0,0,0,270.02,0,0,0,0,0,0,0,0,0,0,0,0,0,1,1,3.26,FLYING
3.94,APPROACH,FLY_TO_FIX,141.55,82,-59.55,1355.83,-5.75,-3.55,-1.31,272.75,-54.54,0,0,-20,65.07,0.019,0,0,0,0,0,0,0,0,270.02,0,0,0,0,0,0,0,0,0,0,0,0,0,1,1,3.98,FLYING
4.66,APPROACH,FLY_TO_FIX,139.5,82.4,-57.1,1325.96,-5.75,0.71,8.42,286.14,-69.627,0,0,-20,65.35,0.038,0,0,0,0,0,0,0,0,270.02,0,0,0,0,0,0,0,0,0,0,0,0,0,1,1,4.7,FLYING
5.36,APPROACH,FLY_TO_FIX,135.52,82.8,-52.72,1314.52,-6.49,-0.27,10.36,296.3,-77.792,0.0811,0,-20,65.66,0.059,0,0,0,0,0,0,0,0,270.02,0,0,0,0,0,0,0,0,0,0,0,0,0,1,1,5.4,FLYING
6.06,APPROACH,FLY_TO_FIX,130.24,83.2,-47.04,1310.83,-7.98,-0.8,11.52,306.91,-77.684,0.2811,0,-20,66.02,0.084,0,0,0,0,0,0,0,0,270.02,0,0,0,0,0,0,0,0,0,0,0,0,0,1,1,6.1,FLYING
6.8,APPROACH,FLY_TO_FIX,125.25,83.6,-41.65,1287.16,-9.81,-1.14,13.17,318.1,-77.007,0.4811,0,-20,66.44,0.117,0,0,0,0,0,0,0,0,270.02,0,0,0,0,0,0,0,0,0,0,0,0,0,1,1,6.84,FLYING
7.52,APPROACH,FLY_TO_FIX,120.55,84,-36.55,1261.11,-11.32,-1.91,12,326.2,-75.482,0.6811,0,-20,66.87,0.155,0,0,0,0,0,0,0,0,270.02,0,0,0,0,0,0,0,0,0,0,0,0,0,1,1,7.56,FLYING
8.24,APPROACH,FLY_TO_FIX,116.43,84,-32.43,1247.85,-12.55,-2.03,13.02,336.13,-73.606,0.8811,0,-20,67.32,0.197,0,0,0,0,0,0,0,0,270.02,0,0,0,0,0,0,0,0,0,0,0,0,0,1,1,8.28,FLYING
8.96,APPROACH,FLY_TO_FIX,112.84,84,-28.84,1254.39,-13.57,-2.18,13.12,344.75,-71.765,1,0,-20,67.77,0.244,0,0,0,0,0,0,0,0,270.02,0,0,0,0,0,0,0,0,0,0,0,0,0,1,1,9,FLYING
9.68,APPROACH,FLY_TO_FIX,109.53,84,-25.53,1257.55,-14.08,-2.12,13.34,353.41,-69.643,1,0,-20,68.21,0.294,0,0,0,0,0,0,0,0,270.02,0,0,0,0,0,0,0,0,0,0,0,0,0,1,1,9.72,FLYING
10.4,APPROACH,FLY_TO_FIX,106.65,84,-22.65,1259.06,-14.28,-1.93,13.28,1.45,-67.528,1,0,-20,68.64,0.345,0,0,0,0,0,0,0,0,270.02,0,0,0,0,0,0,0,0,0,0,0,0,0,1,1,10.44,FLYING
11.12,APPROACH,FLY_TO_FIX,104.19,84,-20.19,1260.61,-14.2,-1.61,13.23,9.17,-65.438,0.9371,0,-20,69.04,0.396,0,0,0,0,0,0,0,0,270.02,0,0,0,0,0,0,0,0,0,0,0,0,0,1,1,11.16,FLYING
11.84,APPROACH,FLY_TO_FIX,102.07,84,-18.07,1259.95,-13.88,-1.37,12.54,15.89,-62.168,0.8395,0,-20,69.43,0.447,0,0,0,0,0,0,0,0,270.02,0,0,0,0,0,0,0,0,0,0,0,0,0,1,1,11.88,FLYING
12.56,APPROACH,FLY_TO_FIX,100.55,84,-16.55,1258.74,-13.36,-1.19,11.29,21.31,-59.322,0.7021,0,-20,69.79,0.496,0,0,0,0,0,0,0,0,270.02,0,0,0,0,0,0,0,0,0,0,0,0,0,1,1,12.6,FLYING
13.28,APPROACH,FLY_TO_FIX,99.54,84,-15.54,1259.93,-12.77,-0.87,10.26,26.14,-55.399,0.5409,0,-20,70.12,0.543,0,0,0,0,0,0,0,0,270.02,0,0,0,0,0,0,0,0,0,0,0,0,0,1,1,13.32,FLYING
14,APPROACH,FLY_TO_FIX,98.89,84,-14.89,1256.47,-12.18,-0.65,9.35,30.57,-51.902,0.3755,0,-20,70.43,0.588,0,0,0,0,0,0,0,0,270.02,0,0,0,0,0,0,0,0,0,0,0,0,0,1,1,14.04,FLYING
14.72,APPROACH,FLY_TO_FIX,98.51,84,-14.51,1252.69,-11.45,-0.43,8.57,34.61,-49.374,0.2166,0,-20,70.71,0.631,0,0,0,0,0,0,0,0,270.02,0,0,0,0,0,0,0,0,0,0,0,0,0,1,1,14.76,FLYING
15.44,APPROACH,FLY_TO_FIX,98.25,84,-14.25,1251.59,-10.7,-0.16,7.91,38.29,-46.545,0.0764,0,-20,70.98,0.671,0,0,0,0,0,0,0,0,270.02,0,0,0,0,0,0,0,0,0,0,0,0,0,1,1,15.48,FLYING
16.16,APPROACH,FLY_TO_FIX,97.98,84,-13.98,1247.86,-9.94,0.15,7.37,41.65,-43.314,0,0,-20,71.22,0.708,0,0,0,0,0,0,0,0,270.02,0,0,0,0,0,0,0,0,0,0,0,0,0,1,1,16.2,FLYING
16.88,APPROACH,FLY_TO_FIX,97.61,84,-13.61,1243.19,-9.23,0.44,6.94,44.76,-40.083,0,0,-20,71.44,0.743,0,0,0,0,0,0,0,0,270.02,0,0,0,0,0,0,0,0,0,0,0,0,0,1,1,16.92,FLYING
17.62,APPROACH,FLY_TO_FIX,97.11,84,-13.11,1241.55,-8.46,0.71,6.54,47.66,-37.523,0,0,-20,71.65,0.776,0,0,0,0,0,0,0,0,270.02,0,0,0,0,0,0,0,0,0,0,0,0,0,1,1,17.66,FLYING
18.34,APPROACH,FLY_TO_FIX,96.51,84,-12.51,1234.25,-7.72,1.02,6.24,50.21,-34.91,0,0,-20,71.83,0.805,0,0,0,0,0,0,0,0,270.02,0,0,0,0,0,0,0,0,0,0,0,0,0,1,1,18.38,FLYING
19.06,APPROACH,FLY_TO_FIX,95.81,84,-11.81,1222.63,-7.02,1.38,6.03,52.49,-31.923,0,0,-20,72,0.831,0,0,0,0,0,0,0,0,270.02,0,0,0,0,0,0,0,0,0,0,0,0,0,1,1,19.1,FLYING
19.78,APPROACH,FLY_TO_FIX,95.02,84,-11.02,1203.77,-6.39,1.72,5.9,54.61,-28.747,0,0,-20,72.15,0.856,0,0,0,0,0,0,0,0,270.02,0,0,0,0,0,0,0,0,0,0,0,0,0,1,1,19.82,FLYING
20.5,APPROACH,FLY_TO_FIX,94.18,84,-10.18,1179.25,-5.76,2.02,5.77,56.55,-26.853,0,0,-20,72.28,0.877,0,0,0,0,0,0,0,0,270.02,0,0,0,0,0,0,0,0,0,0,0,0,0,1,1,20.54,FLYING
21.24,APPROACH,FLY_TO_FIX,93.23,84,-9.23,1152.2,-5.15,2.4,5.74,58.32,-24.437,0,0,-20,72.41,0.898,0,0,0,0,0,0,0,0,270.02,0,0,0,0,0,0,0,0,0,0,0,0,0,1,1,21.28,FLYING
21.98,APPROACH,FLY_TO_FIX,92.22,84,-8.22,1118.93,-4.61,2.8,5.76,59.89,-21.462,0,0,-20,72.52,0.916,0,0,0,0,0,0,0,0,270.02,0,0,0,0,0,0,0,0,0,0,0,0,0,1,1,22.02,FLYING
22.7,APPROACH,FLY_TO_FIX,91.19,84,-7.19,1088.89,-4.1,3.14,5.79,61.37,-20.022,0,0,-20,72.62,0.931,0,0,0,0,0,0,0,0,270.02,0,0,0,0,0,0,0,0,0,0,0,0,0,1,1,22.74,FLYING
23.44,APPROACH,FLY_TO_FIX,90.08,84,-6.08,1054.48,-3.64,3.53,5.88,62.69,-18.024,0,0,-20,72.71,0.945,0,0,0,0,0,0,0,0,270.02,0,0,0,0,0,0,0,0,0,0,0,0,0,1,1,23.48,FLYING
24.18,APPROACH,FLY_TO_FIX,88.92,84,-4.92,1041.44,-3.22,3.94,6.03,63.87,-15.863,0.007,0,-20,72.79,0.958,0,0,0,0,0,0,0,0,270.02,0,0,0,0,0,0,0,0,0,0,0,0,0,1,1,24.22,FLYING
24.9,APPROACH,FLY_TO_FIX,87.76,84,-3.76,1046.14,-2.83,4.34,6.19,64.94,-14.609,0.0818,0,-20,72.86,0.969,0,0,0,0,0,0,0,0,270.02,0,0,0,0,0,0,0,0,0,0,0,0,0,1,1,24.94,FLYING
25.62,APPROACH,FLY_TO_FIX,86.57,84,-2.57,1060.12,-2.49,4.74,6.37,65.91,-13.122,0.1573,0,-20,72.92,0.978,0,0,0,0,0,0,0,0,270.02,0,0,0,0,0,0,0,0,0,0,0,0,0,1,1,25.66,FLYING
26.34,APPROACH,FLY_TO_FIX,85.39,84,-1.39,1085.72,-2.18,5.14,6.59,66.78,-11.88,0.2292,0,-20,72.97,0.986,0,0,0,0,0,0,0,0,270.02,0,0,0,0,0,0,0,0,0,0,0,0,0,1,1,26.38,FLYING
27.08,APPROACH,FLY_TO_FIX,84.19,84,-0.19,1114.64,-1.89,5.56,6.82,67.59,-10.624,0.3017,0,-20,73.02,0.994,0,0,0,0,0,0,0,0,270.02,0,0,0,0,0,0,0,0,0,0,0,0,0,1,1,27.12,FLYING
27.82,APPROACH,FLY_TO_FIX,82.97,84,1.03,1141.61,-1.63,5.97,7.07,68.31,-9.431,0.3741,0,-19.519,73.06,1,0,0,0,0,0,0,0,0,270.02,0,0,0,0,0,0,0,0,0,0,0,0,0,1,1,27.86,FLYING
28.54,APPROACH,FLY_TO_FIX,81.86,84,2.14,1166.13,-1.39,6.37,7.32,68.92,-8.354,0.4421,0,-18.479,73.1,1.005,0,0,0,0,0,0,0,0,270.02,0,0,0,0,0,0,0,0,0,0,0,0,0,1,1,28.58,FLYING
29.26,APPROACH,FLY_TO_FIX,80.79,84,3.21,1189.78,-1.18,6.76,7.57,69.46,-7.372,0.5104,0,-16.901,73.13,1.009,0,0,0,0,0,0,0,0,270.02,0,0,0,0,0,0,0,0,0,0,0,0,0,1,1,29.3,FLYING
29.98,APPROACH,FLY_TO_FIX,79.76,84,4.24,1209.15,-0.98,7.14,7.82,69.93,-6.486,0.5781,0,-14.811,73.16,1.013,0,0,0,0,0,0,0,0,270.02,0,0,0,0,0,0,0,0,0,0,0,0,0,1,1,30.02,FLYING
30.7,APPROACH,FLY_TO_FIX,78.8,84,5.2,1227.34,-0.8,7.5,8.05,70.35,-5.696,0.6442,0,-12.239,73.19,1.016,0,0,0,0,0,0,0,0,270.02,0,0,0,0,0,0,0,0,0,0,0,0,0,1,1,30.74,FLYING
31.42,APPROACH,FLY_TO_FIX,77.91,84,6.09,1245.05,-0.63,7.84,8.28,70.71,-4.995,0.708,0,-9.219,73.21,1.018,0,0,0,0,0,0,0,0,270.02,0,0,0,0,0,0,0,0,0,0,0,0,0,1,1,31.46,FLYING
32.14,APPROACH,FLY_TO_FIX,77.1,84,6.9,1257.81,-0.48,8.16,8.49,71.03,-4.377,0.7685,0,-5.79,73.23,1.02,0,0,0,0,0,0,0,0,270.02,0,0,0,0,0,0,0,0,0,0,0,0,0,1,1,32.18,FLYING
32.86,APPROACH,FLY_TO_FIX,76.37,84,7.63,1271.53,-0.33,8.44,8.68,71.31,-3.835,0.8204,0,-1.995,73.25,1.022,0,0,0,0,0,0,0,0,270.02,0,0,0,0,0,0,0,0,0,0,0,0,0,1,1,32.9,FLYING
33.58,APPROACH,FLY_TO_FIX,75.74,84,8.26,1283.39,-0.2,8.7,8.85,71.55,-3.362,0.84,0,2.12,73.26,1.022,0,0,0,0,0,0,0,0,270.02,0,0,0,0,0,0,0,0,0,0,0,0,0,1,1,33.62,FLYING
34.3,APPROACH,FLY_TO_FIX,75.2,84,8.8,1292.26,-0.06,8.88,8.93,71.75,-2.95,0.8593,0,6.508,73.28,1.023,0,0,0,0,0,0,0,0,270.02,0,0,0,0,0,0,0,0,0,0,0,0,0,1,1,34.34,FLYING
35.02,APPROACH,FLY_TO_FIX,74.75,84,9.25,1295.48,0.05,9.09,9.07,71.94,-2.592,0.8781,0,11.12,73.29,1.023,0,0,0,0,0,0,0,0,270.02,0,0,0,0,0,0,0,0,0,0,0,0,0,1,1,35.06,FLYING
35.74,APPROACH,FLY_TO_FIX,74.41,84,9.59,1295.58,0.17,9.23,9.12,72.1,-2.28,0.8966,0,15.906,73.3,1.022,0,0,0,0,0,0,0,0,270.02,0,0,0,0,0,0,0,0,0,0,0,0,0,1,1,35.78,FLYING
36.46,APPROACH,FLY_TO_FIX,74.16,84,9.84,1295.76,0.27,9.33,9.15,72.24,-2.01,0.9047,0,20,73.31,1.021,0,0,0,0,0,0,0,0,270.02,0,0,0,0,0,0,0,0,0,0,0,0,0,1,1,36.5,FLYING
37.2,APPROACH,FLY_TO_FIX,74.01,84,9.99,1296.01,0.38,9.39,9.13,72.37,-1.769,0.8624,0,20,73.32,1.02,0,0,0,0,0,0,0,0,270.02,0,0,0,0,0,0,0,0,0,0,0,0,0,1,1,37.24,FLYING
37.94,APPROACH,FLY_TO_FIX,73.96,84,10.04,1296.33,0.48,9.42,9.09,72.48,-1.561,0.8186,0,20,73.33,1.019,0,0,0,0,0,0,0,0,270.02,0,0,0,0,0,0,0,0,0,0,0,0,0,1,1,37.98,FLYING
38.68,APPROACH,FLY_TO_FIX,74,84,10,1296.72,0.57,9.42,9.03,72.57,-1.381,0.7748,0,20,73.33,1.017,0,0,0,0,0,0,0,0,270.02,0,0,0,0,0,0,0,0,0,0,0,0,0,1,1,38.72,FLYING
39.42,APPROACH,FLY_TO_FIX,74.11,84,9.89,1297.17,0.66,9.39,8.94,72.66,-1.225,0.7319,0,20,73.34,1.014,0,0,0,0,0,0,0,0,270.02,0,0,0,0,0,0,0,0,0,0,0,0,0,1,1,39.46,FLYING
40.16,APPROACH,FLY_TO_FIX,74.29,84,9.71,1297.68,0.74,9.34,8.83,72.74,-1.089,0.6909,0,20,73.34,1.012,0,0,0,0,0,0,0,0,270.02,0,0,0,0,0,0,0,0,0,0,0,0,0,1,1,40.2,FLYING
40.88,APPROACH,FLY_TO_FIX,74.52,84,9.48,1298.23,0.82,9.28,8.72,72.8,-0.974,0.6531,0,20,73.35,1.009,0,0,0,0,0,0,0,0,270.02,0,0,0,0,0,0,0,0,0,0,0,0,0,1,1,40.92,FLYING
41.6,APPROACH,FLY_TO_FIX,74.79,84,9.21,1298.84,0.89,9.2,8.6,72.86,-0.874,0.6184,0,20,73.35,1.006,0,0,0,0,0,0,0,0,270.02,0,0,0,0,0,0,0,0,0,0,0,0,0,1,1,41.64,FLYING
42.32,APPROACH,FLY_TO_FIX,75.1,84,8.9,1299.49,0.96,9.12,8.47,72.91,-0.787,0.5868,0,20,73.36,1.003,0,0,0,0,0,0,0,0,270.02,0,0,0,0,0,0,0,0,0,0,0,0,0,1,1,42.36,FLYING
43.06,APPROACH,FLY_TO_FIX,75.45,84,8.55,1300.21,1.03,9.02,8.33,72.96,-0.708,0.5576,0,20,73.36,0.999,0,0,0,0,0,0,0,0,270.02,0,0,0,0,0,0,0,0,0,0,0,0,0,1,1,43.1,FLYING
43.8,APPROACH,FLY_TO_FIX,75.83,84,8.17,1300.98,1.09,8.91,8.18,73.01,-0.631,0.5317,0,20,73.36,0.996,0,0,0,0,0,0,0,0,270.02,0,0,0,0,0,0,0,0,0,0,0,0,0,1,1,43.84,FLYING
44.54,APPROACH,FLY_TO_FIX,76.22,84,7.78,1301.79,1.15,8.8,8.03,73.04,-0.549,0.509,0,20,73.37,0.992,0,0,0,0,0,0,0,0,270.02,0,0,0,0,0,0,0,0,0,0,0,0,0,1,1,44.58,FLYING
45.28,APPROACH,FLY_TO_FIX,76.63,84,7.37,1302.64,1.2,8.69,7.89,73.07,-0.472,0.4839,0,20,73.37,0.987,0,0,0,0,0,0,0,0,270.02,0,0,0,0,0,0,0,0,0,0,0,0,0,1,1,45.32,FLYING
46,APPROACH,FLY_TO_FIX,77.04,84,6.96,1303.5,1.24,8.57,7.75,73.09,-0.405,0.448,0,20,73.37,0.983,0,0,0,0,0,0,0,0,270.02,0,0,0,0,0,0,0,0,0,0,0,0,0,1,1,46.04,FLYING
46.72,APPROACH,FLY_TO_FIX,77.45,84,6.55,1304.39,1.28,8.47,7.62,73.11,-0.346,0.4151,0,20,73.37,0.979,0,0,0,0,0,0,0,0,270.02,0,0,0,0,0,0,0,0,0,0,0,0,0,1,1,46.76,FLYING
47.44,APPROACH,FLY_TO_FIX,77.83,84,6.17,1305.31,1.32,8.37,7.51,73.13,-0.298,0.3872,0,20,73.38,0.974,0,0,0,0,0,0,0,0,270.02,0,0,0,0,0,0,0,0,0,0,0,0,0,1,1,47.48,FLYING
48.16,APPROACH,FLY_TO_FIX,78.19,84,5.81,1306.26,1.35,8.29,7.41,73.14,-0.257,0.3664,0,20,73.38,0.969,0,0,0,0,0,0,0,0,270.02,0,0,0,0,0,0,0,0,0,0,0,0,0,1,1,48.2,FLYING
48.88,APPROACH,FLY_TO_FIX,78.49,84,5.51,1307.23,1.38,8.23,7.33,73.16,-0.225,0.3534,0,20,73.38,0.965,0,0,0,0,0,0,0,0,270.02,0,0,0,0,0,0,0,0,0,0,0,0,0,1,1,48.92,FLYING
49.6,APPROACH,FLY_TO_FIX,78.74,84,5.26,1308.22,1.4,8.18,7.27,73.17,-0.198,0.3478,0,20,73.38,0.96,0,0,0,0,0,0,0,0,270.02,0,0,0,0,0,0,0,0,0,0,0,0,0,1,1,49.64,FLYING
50.32,APPROACH,FLY_TO_FIX,78.94,84,5.06,1309.23,1.42,8.15,7.23,73.18,-0.177,0.3487,0,20,73.38,0.955,0,0,0,0,0,0,0,0,270.02,0,0,0,0,0,0,0,0,0,0,0,0,0,1,1,50.36,FLYING
51.06,APPROACH,FLY_TO_FIX,79.1,84,4.9,1310.29,1.44,8.13,7.19,73.19,-0.16,0.3537,0,20,73.38,0.949,0,0,0,0,0,0,0,0,270.02,0,0,0,0,0,0,0,0,0,0,0,0,0,1,1,51.1,FLYING
51.8,APPROACH,FLY_TO_FIX,79.22,84,4.78,1311.36,1.46,8.11,7.17,73.19,-0.149,0.3621,0,20,73.39,0.944,0,0,0,0,0,0,0,0,270.02,0,0,0,0,0,0,0,0,0,0,0,0,0,1,1,51.84,FLYING
52.52,APPROACH,FLY_TO_FIX,79.3,84,4.7,1312.41,1.47,8.1,7.14,73.2,-0.139,0.3723,0,20,73.39,0.939,0,0,0,0,0,0,0,0,270.02,0,0,0,0,0,0,0,0,0,0,0,0,0,1,1,52.56,FLYING
53.24,APPROACH,FLY_TO_FIX,79.38,84,4.62,1313.47,1.49,8.09,7.13,73.21,-0.131,0.382,0,20,73.39,0.933,0,0,0,0,0,0,0,0,270.02,0,0,0,0,0,0,0,0,0,0,0,0,0,1,1,53.28,FLYING
53.96,APPROACH,FLY_TO_FIX,79.44,84,4.56,1314.55,1.5,8.07,7.11,73.22,-0.126,0.3901,0,20,73.39,0.928,0,0,0,0,0,0,0,0,270.02,0,0,0,0,0,0,0,0,0,0,0,0,0,1,1,54,FLYING
54.68,APPROACH,FLY_TO_FIX,79.5,84,4.5,1315.63,1.51,8.06,7.09,73.22,-0.12,0.3961,0,20,73.39,0.923,0,0,0,0,0,0,0,0,270.02,0,0,0,0,0,0,0,0,0,0,0,0,0,1,1,54.72,FLYING
55.42,APPROACH,FLY_TO_FIX,79.57,84,4.43,1316.75,1.53,8.05,7.06,73.23,-0.114,0.3997,0,20,73.39,0.917,0,0,0,0,0,0,0,0,270.02,0,0,0,0,0,0,0,0,0,0,0,0,0,1,1,55.46,FLYING
56.16,APPROACH,FLY_TO_FIX,79.64,84,4.36,1317.88,1.54,8.03,7.04,73.23,-0.112,0.4016,0,20,73.39,0.911,0,0,0,0,0,0,0,0,270.02,0,0,0,0,0,0,0,0,0,0,0,0,0,1,1,56.2,FLYING
56.9,APPROACH,FLY_TO_FIX,79.72,84,4.28,1319.02,1.55,8.01,7.02,73.24,-0.107,0.402,0,20,73.4,0.906,0,0,0,0,0,0,0,0,270.02,0,0,0,0,0,0,0,0,0,0,0,0,0,1,1,56.94,FLYING
57.64,APPROACH,FLY_TO_FIX,79.79,84,4.21,1320.17,1.56,8,6.99,73.25,-0.103,0.4011,0,20,73.4,0.9,0,0,0,0,0,0,0,0,270.02,0,0,0,0,0,0,0,0,0,0,0,0,0,1,1,57.68,FLYING
58.38,APPROACH,FLY_TO_FIX,79.87,84,4.13,1321.32,1.57,7.98,6.97,73.25,-0.1,0.3991,0,20,73.4,0.894,0,0,0,0,0,0,0,0,270.02,0,0,0,0,0,0,0,0,0,0,0,0,0,1,1,58.42,FLYING
59.12,APPROACH,FLY_TO_FIX,79.95,84,4.05,1322.48,1.58,7.96,6.94,73.26,-0.097,0.3963,0,20,73.4,0.888,0,0,0,0,0,0,0,0,270.02,0,0,0,0,0,0,0,0,0,0,0,0,0,1,1,59.16,FLYING
59.86,APPROACH,FLY_TO_FIX,80.04,84,3.96,1323.65,1.59,7.94,6.92,73.26,-0.093,0.393,0,20,73.4,0.883,0,0,0,0,0,0,0,0,270.02,0,0,0,0,0,0,0,0,0,0,0,0,0,1,1,59.9,FLYING
60.6,APPROACH,FLY_TO_FIX,80.12,84,3.88,1324.83,1.6,7.91,6.89,73.27,-0.09,0.3891,0,20,73.4,0.877,0,0,0,0,0,0,0,0,270.02,0,0,0,0,0,0,0,0,0,0,0,0,0,1,1,60.64,FLYING
61.34,APPROACH,FLY_TO_FIX,80.21,84,3.79,1326.01,1.61,7.89,6.87,73.27,-0.086,0.3851,0,20,73.4,0.871,0,0,0,0,0,0,0,0,270.02,0,0,0,0,0,0,0,0,0,0,0,0,0,1,1,61.38,FLYING
62.08,APPROACH,FLY_TO_FIX,80.3,84,3.7,1327.19,1.61,7.87,6.84,73.27,-0.083,0.3809,0,20,73.4,0.865,0,0,0,0,0,0,0,0,270.02,0,0,0,0,0,0,0,0,0,0,0,0,0,1,1,62.12,FLYING
62.82,APPROACH,FLY_TO_FIX,80.38,84,3.62,1328.38,1.62,7.85,6.82,73.28,-0.081,0.3772,0,20,73.41,0.859,0,0,0,0,0,0,0,0,270.02,0,0,0,0,0,0,0,0,0,0,0,0,0,1,1,62.86,FLYING
63.56,APPROACH,FLY_TO_FIX,80.46,84,3.54,1329.58,1.62,7.83,6.79,73.28,-0.079,0.374,0,20,73.41,0.853,0,0,0,0,0,0,0,0,270.02,0,0,0,0,0,0,0,0,0,0,0,0,0,1,1,63.6,FLYING
64.3,APPROACH,FLY_TO_FIX,80.53,84,3.47,1330.78,1.63,7.81,6.78,73.28,-0.078,0.3717,0,20,73.41,0.847,0,0,0,0,0,0,0,0,270.02,0,0,0,0,0,0,0,0,0,0,0,0,0,1,1,64.34,FLYING
65.04,APPROACH,FLY_TO_FIX,80.6,84,3.4,1331.99,1.63,7.8,6.76,73.29,-0.076,0.3703,0,20,73.41,0.841,0,0,0,0,0,0,0,0,270.02,0,0,0,0,0,0,0,0,0,0,0,0,0,1,1,65.08,FLYING
65.78,APPROACH,FLY_TO_FIX,80.66,84,3.34,1333.19,1.63,7.78,6.74,73.29,-0.074,0.3696,0,20,73.41,0.835,0,0,0,0,0,0,0,0,270.02,0,0,0,0,0,0,0,0,0,0,0,0,0,1,1,65.82,FLYING
66.52,APPROACH,FLY_TO_FIX,80.71,84,3.29,1334.4,1.64,7.77,6.73,73.29,-0.073,0.3696,0,20,73.41,0.829,0,0,0,0,0,0,0,0,270.02,0,0,0,0,0,0,0,0,0,0,0,0,0,1,1,66.56,FLYING
67.26,APPROACH,FLY_TO_FIX,80.75,84,3.25,1335.61,1.64,7.76,6.72,73.3,-0.071,0.37,0,20,73.41,0.823,0,0,0,0,0,0,0,0,270.02,0,0,0,0,0,0,0,0,0,0,0,0,0,1,1,67.3,FLYING
68,APPROACH,FLY_TO_FIX,80.79,84,3.21,1336.82,1.64,7.75,6.71,73.3,-0.069,0.3707,0,20,73.41,0.817,0,0,0,0,0,0,0,0,270.02,0,0,0,0,0,0,0,0,0,0,0,0,0,1,1,68.04,FLYING
68.74,APPROACH,FLY_TO_FIX,80.82,84,3.18,1338.03,1.64,7.74,6.7,73.3,-0.067,0.3715,0,20,73.41,0.811,0,0,0,0,0,0,0,0,270.02,0,0,0,0,0,0,0,0,0,0,0,0,0,1,1,68.78,FLYING
69.48,APPROACH,FLY_TO_FIX,80.86,84,3.14,1339.24,1.64,7.73,6.69,73.31,-0.065,0.3721,0,20,73.42,0.805,0,0,0,0,0,0,0,0,270.02,0,0,0,0,0,0,0,0,0,0,0,0,0,1,1,69.52,FLYING
70.2,APPROACH,FLY_TO_FIX,80.89,84,3.11,1340.41,1.63,7.72,6.68,73.31,-0.063,0.3726,0,20,73.42,0.799,0,0,0,0,0,0,0,0,270.02,0,0,0,0,0,0,0,0,0,0,0,0,0,1,1,70.24,FLYING
70.92,APPROACH,FLY_TO_FIX,80.91,84,3.09,1341.58,1.63,7.71,6.67,73.31,-0.061,0.3729,0,20,73.42,0.793,0,0,0,0,0,0,0,0,270.02,0,0,0,0,0,0,0,0,0,0,0,0,0,1,1,70.96,FLYING
71.64,APPROACH,FLY_TO_FIX,80.94,84,3.06,1342.76,1.63,7.69,6.66,73.31,-0.059,0.3728,0,20,73.42,0.787,0,0,0,0,0,0,0,0,270.02,0,0,0,0,0,0,0,0,0,0,0,0,0,1,1,71.68,FLYING
72.38,APPROACH,FLY_TO_FIX,80.97,84,3.03,1343.96,1.63,7.68,6.66,73.31,-0.059,0.3723,0,20,73.42,0.781,0,0,0,0,0,0,0,0,270.02,0,0,0,0,0,0,0,0,0,0,0,0,0,1,1,72.42,FLYING
73.12,APPROACH,FLY_TO_FIX,81,84,3,1345.16,1.62,7.67,6.65,73.32,-0.059,0.3717,0,20,73.42,0.775,0,0,0,0,0,0,0,0,270.02,0,0,0,0,0,0,0,0,0,0,0,0,0,1,1,73.16,FLYING
73.86,APPROACH,FLY_TO_FIX,81.03,84,2.97,1346.36,1.62,7.66,6.64,73.32,-0.06,0.3709,0,20,73.42,0.769,0,0,0,0,0,0,0,0,270.02,0,0,0,0,0,0,0,0,0,0,0,0,0,1,1,73.9,FLYING
74.6,APPROACH,FLY_TO_FIX,81.06,84,2.94,1347.55,1.61,7.65,6.63,73.32,-0.059,0.3701,0,20,73.42,0.763,0,0,0,0,0,0,0,0,270.02,0,0,0,0,0,0,0,0,0,0,0,0,0,1,1,74.64,FLYING
75.32,APPROACH,FLY_TO_FIX,81.09,84,2.91,1348.71,1.61,7.64,6.62,73.32,-0.058,0.3694,0,20,73.42,0.757,0,0,0,0,0,0,0,0,270.02,0,0,0,0,0,0,0,0,0,0,0,0,0,1,1,75.36,FLYING
76.04,APPROACH,FLY_TO_FIX,81.11,84,2.89,1349.86,1.61,7.63,6.61,73.32,-0.057,0.3688,0,20,73.42,0.751,0,0,0,0,0,0,0,0,270.02,0,0,0,0,0,0,0,0,0,0,0,0,0,1,1,76.08,FLYING
76.76,APPROACH,FLY_TO_FIX,81.14,84,2.86,1351.01,1.6,7.62,6.61,73.33,-0.056,0.3682,0,20,73.43,0.746,0,0,0,0,0,0,0,0,270.02,0,0,0,0,0,0,0,0,0,0,0,0,0,1,1,76.8,FLYING
77.48,APPROACH,FLY_TO_FIX,81.16,84,2.84,1352.16,1.59,7.61,6.6,73.33,-0.056,0.3678,0,20,73.43,0.74,0,0,0,0,0,0,0,0,270.02,0,0,0,0,0,0,0,0,0,0,0,0,0,1,1,77.52,FLYING
78.2,APPROACH,FLY_TO_FIX,81.18,84,2.82,1353.31,1.59,7.6,6.6,73.33,-0.056,0.3674,0,20,73.43,0.734,0,0,0,0,0,0,0,0,270.02,0,0,0,0,0,0,0,0,0,0,0,0,0,1,1,78.24,FLYING
78.92,APPROACH,FLY_TO_FIX,81.2,84,2.8,1354.44,1.58,7.59,6.59,73.33,-0.056,0.3671,0,20,73.43,0.729,0,0,0,0,0,0,0,0,270.02,0,0,0,0,0,0,0,0,0,0,0,0,0,1,1,78.96,FLYING
79.64,APPROACH,FLY_TO_FIX,81.22,84,2.78,1355.58,1.58,7.58,6.59,73.33,-0.056,0.3669,0,20,73.43,0.723,0,0,0,0,0,0,0,0,270.02,0,0,0,0,0,0,0,0,0,0,0,0,0,1,1,79.68,FLYING
80.36,APPROACH,FLY_TO_FIX,81.24,84,2.76,1356.71,1.57,7.57,6.58,73.34,-0.056,0.3668,0,20,73.43,0.717,0,0,0,0,0,0,0,0,270.02,0,0,0,0,0,0,0,0,0,0,0,0,0,1,1,80.4,FLYING
81.08,APPROACH,FLY_TO_FIX,81.25,84,2.75,1357.84,1.56,7.56,6.58,73.34,-0.056,0.3666,0,20,73.43,0.712,0,0,0,0,0,0,0,0,270.02,0,0,0,0,0,0,0,0,0,0,0,0,0,1,1,81.12,FLYING
81.8,APPROACH,FLY_TO_FIX,81.27,84,2.73,1358.96,1.56,7.55,6.57,73.34,-0.055,0.3665,0,20,73.43,0.706,0,0,0,0,0,0,0,0,270.02,0,0,0,0,0,0,0,0,0,0,0,0,0,1,1,81.84,FLYING
82.52,APPROACH,FLY_TO_FIX,81.28,84,2.72,1360.07,1.55,7.54,6.57,73.34,-0.054,0.3664,0,20,73.43,0.7,0,0,0,0,0,0,0,0,270.02,0,0,0,0,0,0,0,0,0,0,0,0,0,1,1,82.56,FLYING
83.24,APPROACH,FLY_TO_FIX,81.3,84,2.7,1361.18,1.54,7.53,6.56,73.34,-0.053,0.3662,0,20,73.43,0.695,0,0,0,0,0,0,0,0,270.02,0,0,0,0,0,0,0,0,0,0,0,0,0,1,1,83.28,FLYING
83.96,APPROACH,FLY_TO_FIX,81.31,84,2.69,1362.29,1.53,7.53,6.56,73.35,-0.054,0.366,0,20,73.44,0.689,0,0,0,0,0,0,0,0,270.02,0,0,0,0,0,0,0,0,0,0,0,0,0,1,1,84,FLYING
84.7,APPROACH,FLY_TO_FIX,81.32,84,2.68,1363.42,1.53,7.52,6.56,73.35,-0.053,0.3658,0,20,73.44,0.684,0,0,0,0,0,0,0,0,270.02,0,0,0,0,0,0,0,0,0,0,0,0,0,1,1,84.74,FLYING
85.44,APPROACH,FLY_TO_FIX,81.34,84,2.66,1364.54,1.52,7.51,6.56,73.35,-0.053,0.3655,0,20,73.44,0.678,0,0,0,0,0,0,0,0,270.02,0,0,0,0,0,0,0,0,0,0,0,0,0,1,1,85.48,FLYING
86.16,APPROACH,FLY_TO_FIX,81.35,84,2.65,1365.63,1.51,7.5,6.55,73.35,-0.054,0.3653,0,20,73.44,0.673,0,0,0,0,0,0,0,0,270.02,0,0,0,0,0,0,0,0,0,0,0,0,0,1,1,86.2,FLYING
86.88,APPROACH,FLY_TO_FIX,81.36,84,2.64,1366.71,1.5,7.49,6.55,73.35,-0.053,0.3651,0,20,73.44,0.667,0,0,0,0,0,0,0,0,270.02,0,0,0,0,0,0,0,0,0,0,0,0,0,1,1,86.92,FLYING
87.6,APPROACH,FLY_TO_FIX,81.37,84,2.63,1367.79,1.5,7.49,6.55,73.35,-0.053,0.3649,0,20,73.44,0.662,0,0,0,0,0,0,0,0,270.02,0,0,0,0,0,0,0,0,0,0,0,0,0,1,1,87.64,FLYING
88.32,APPROACH,FLY_TO_FIX,81.38,84,2.62,1368.86,1.49,7.48,6.54,73.36,-0.052,0.3647,0,20,73.44,0.656,0,0,0,0,0,0,0,0,270.02,0,0,0,0,0,0,0,0,0,0,0,0,0,1,1,88.36,FLYING
89.04,APPROACH,FLY_TO_FIX,81.39,84,2.61,1369.93,1.48,7.47,6.54,73.36,-0.053,0.3645,0,20,73.44,0.651,0,0,0,0,0,0,0,0,270.02,0,0,0,0,0,0,0,0,0,0,0,0,0,1,1,89.08,FLYING
89.76,APPROACH,FLY_TO_FIX,81.4,84,2.6,1370.99,1.47,7.46,6.54,73.36,-0.052,0.3643,0,20,73.44,0.646,0,0,0,0,0,0,0,0,270.02,0,0,0,0,0,0,0,0,0,0,0,0,0,1,1,89.8,FLYING
90.48,APPROACH,FLY_TO_FIX,81.41,84,2.59,1372.05,1.47,7.46,6.54,73.36,-0.052,0.3641,0,20,73.45,0.641,0,0,0,0,0,0,0,0,270.02,0,0,0,0,0,0,0,0,0,0,0,0,0,1,1,90.52,FLYING
91.2,APPROACH,FLY_TO_FIX,81.42,84,2.58,1373.1,1.46,7.45,6.53,73.36,-0.05,0.3639,0,20,73.45,0.635,0,0,0,0,0,0,0,0,270.02,0,0,0,0,0,0,0,0,0,0,0,0,0,1,1,91.24,FLYING
91.92,APPROACH,FLY_TO_FIX,81.42,84,2.58,1374.14,1.45,7.44,6.53,73.36,-0.049,0.3638,0,20,73.45,0.63,0,0,0,0,0,0,0,0,270.02,0,0,0,0,0,0,0,0,0,0,0,0,0,1,1,91.96,FLYING
92.64,APPROACH,FLY_TO_FIX,81.43,84,2.57,1375.18,1.44,7.43,6.53,73.37,-0.05,0.3636,0,20,73.45,0.625,0,0,0,0,0,0,0,0,270.02,0,0,0,0,0,0,0,0,0,0,0,0,0,1,1,92.68,FLYING
93.36,APPROACH,FLY_TO_FIX,81.44,84,2.56,1376.21,1.43,7.43,6.53,73.37,-0.049,0.3634,0,20,73.45,0.62,0,0,0,0,0,0,0,0,270.02,0,0,0,0,0,0,0,0,0,0,0,0,0,1,1,93.4,FLYING
94.08,APPROACH,FLY_TO_FIX,81.45,84,2.55,1377.24,1.43,7.42,6.53,73.37,-0.05,0.3633,0,20,73.45,0.615,0,0,0,0,0,0,0,0,270.02,0,0,0,0,0,0,0,0,0,0,0,0,0,1,1,94.12,FLYING
94.8,APPROACH,FLY_TO_FIX,81.45,84,2.55,1378.26,1.42,7.41,6.52,73.37,-0.05,0.3631,0,20,73.45,0.609,0,0,0,0,0,0,0,0,270.02,0,0,0,0,0,0,0,0,0,0,0,0,0,1,1,94.84,FLYING
95.54,APPROACH,FLY_TO_FIX,81.46,84,2.54,1379.3,1.41,7.41,6.52,73.37,-0.05,0.3629,0,20,73.45,0.604,0,0,0,0,0,0,0,0,270.02,0,0,0,0,0,0,0,0,0,0,0,0,0,1,1,95.58,FLYING
96.28,APPROACH,FLY_TO_FIX,81.47,84,2.53,1380.34,1.4,7.4,6.52,73.37,-0.05,0.3628,0,20,73.46,0.599,0,0,0,0,0,0,0,0,270.02,0,0,0,0,0,0,0,0,0,0,0,0,0,1,1,96.32,FLYING
97,APPROACH,FLY_TO_FIX,81.47,84,2.53,1381.34,1.39,7.39,6.52,73.37,-0.048,0.3626,0,20,73.46,0.594,0,0,0,0,0,0,0,0,270.02,0,0,0,0,0,0,0,0,0,0,0,0,0,1,1,97.04,FLYING
97.72,APPROACH,FLY_TO_FIX,81.48,84,2.52,1382.34,1.38,7.39,6.52,73.38,-0.047,0.3625,0,20,73.46,0.589,0,0,0,0,0,0,0,0,270.02,0,0,0,0,0,0,0,0,0,0,0,0,0,1,1,97.76,FLYING
98.44,APPROACH,FLY_TO_FIX,81.48,84,2.52,1383.33,1.38,7.38,6.51,73.38,-0.047,0.3624,0,20,73.46,0.584,0,0,0,0,0,0,0,0,270.02,0,0,0,0,0,0,0,0,0,0,0,0,0,1,1,98.48,FLYING
99.16,APPROACH,FLY_TO_FIX,81.49,84,2.51,1384.32,1.37,7.37,6.51,73.38,-0.047,0.3623,0,20,73.46,0.579,0,0,0,0,0,0,0,0,270.02,0,0,0,0,0,0,0,0,0,0,0,0,0,1,1,99.2,FLYING
99.88,APPROACH,FLY_TO_FIX,81.49,84,2.51,1385.3,1.36,7.36,6.51,73.38,-0.047,0.3621,0,20,73.46,0.574,0,0,0,0,0,0,0,0,270.02,0,0,0,0,0,0,0,0,0,0,0,0,0,1,1,99.92,FLYING
100.6,APPROACH,FLY_TO_FIX,81.5,84,2.5,1386.27,1.35,7.36,6.51,73.38,-0.047,0.362,0,20,73.46,0.569,0,0,0,0,0,0,0,0,270.02,0,0,0,0,0,0,0,0,0,0,0,0,0,1,1,100.64,FLYING
101.32,APPROACH,FLY_TO_FIX,81.51,84,2.49,1387.24,1.34,7.35,6.51,73.38,-0.047,0.3619,0,20,73.47,0.564,0,0,0,0,0,0,0,0,270.02,0,0,0,0,0,0,0,0,0,0,0,0,0,1,1,101.36,FLYING
102.04,APPROACH,FLY_TO_FIX,81.51,84,2.49,1388.21,1.34,7.35,6.51,73.38,-0.046,0.3617,0,20,73.47,0.56,0,0,0,0,0,0,0,0,270.02,0,0,0,0,0,0,0,0,0,0,0,0,0,1,1,102.08,FLYING
102.76,APPROACH,FLY_TO_FIX,81.51,84,2.49,1389.16,1.33,7.34,6.51,73.38,-0.045,0.3616,0,20,73.47,0.555,0,0,0,0,0,0,0,0,270.02,0,0,0,0,0,0,0,0,0,0,0,0,0,1,1,102.8,FLYING
103.48,APPROACH,FLY_TO_FIX,81.52,84,2.48,1390.12,1.32,7.34,6.51,73.39,-0.045,0.3615,0,20,73.47,0.55,0,0,0,0,0,0,0,0,270.02,0,0,0,0,0,0,0,0,0,0,0,0,0,1,1,103.52,FLYING
104.2,APPROACH,FLY_TO_FIX,81.52,84,2.48,1391.06,1.31,7.33,6.51,73.39,-0.046,0.3613,0,20,73.47,0.545,0,0,0,0,0,0,0,0,270.02,0,0,0,0,0,0,0,0,0,0,0,0,0,1,1,104.24,FLYING
104.92,APPROACH,FLY_TO_FIX,81.53,84,2.47,1392,1.3,7.32,6.5,73.39,-0.047,0.3612,0,20,73.47,0.541,0,0,0,0,0,0,0,0,270.02,0,0,0,0,0,0,0,0,0,0,0,0,0,1,1,104.96,FLYING
105.64,APPROACH,FLY_TO_FIX,81.53,84,2.47,1392.94,1.3,7.31,6.5,73.39,-0.046,0.3611,0,20,73.48,0.536,0,0,0,0,0,0,0,0,270.02,0,0,0,0,0,0,0,0,0,0,0,0,0,1,1,105.68,FLYING
106.38,APPROACH,FLY_TO_FIX,81.54,84,2.46,1393.89,1.29,7.31,6.5,73.39,-0.048,0.3609,0,20,73.48,0.531,0,0,0,0,0,0,0,0,270.02,0,0,0,0,0,0,0,0,0,0,0,0,0,1,1,106.42,FLYING
107.12,APPROACH,FLY_TO_FIX,81.54,84,2.46,1394.84,1.28,7.3,6.5,73.39,-0.048,0.3608,0,20,73.48,0.526,0,0,0,0,0,0,0,0,270.02,0,0,0,0,0,0,0,0,0,0,0,0,0,1,1,107.16,FLYING
107.84,APPROACH,FLY_TO_FIX,81.54,84,2.46,1395.76,1.27,7.3,6.5,73.39,-0.048,0.3606,0,20,73.48,0.522,0,0,0,0,0,0,0,0,270.02,0,0,0,0,0,0,0,0,0,0,0,0,0,1,1,107.88,FLYING
108.46,APPROACH,ILS_TRACK,81.55,84,2.45,1396.55,1.27,7.29,6.5,73.4,-0.047,0.3606,0,20,73.48,0.522,0,0,0,0,0,0,0,0,270.02,0,0,0,0,0,0,0,0,0,0,0,0,0,1,1,108.5,FLYING
109.32,APPROACH,ILS_TRACK,81.55,83.6,2.05,1397.65,1.27,7.28,6.49,73.4,-0.042,0.34,0,20,64,0,169.21,-447.1,32.64,-91.376,849.495,0,0,0,270.02,0,0,0,0,0,0,0,0,0,0,0,0,0,2,2,109.36,FLYING
110.18,APPROACH,ILS_TRACK,81.52,83.2,1.68,1398.69,1.18,7.19,6.47,72.93,3.736,0.3253,0,20,93.56,0,148.24,-442.1,32.564,4.555,124.633,0,0,0,270.02,0,0,0,0,0,0,0,0,0,0,0,0,0,1,1,110.22,FLYING
111.04,APPROACH,ILS_TRACK,81.56,82.8,1.24,1399.44,0.76,6.45,6,72.24,5.124,0.299,0,20,94.54,0,127,-437.35,32.489,5.544,123.594,0,0,0,270.02,0,0,0,0,0,0,0,0,0,0,0,0,0,1,1,111.08,FLYING
111.84,APPROACH,ILS_TRACK,81.63,82.4,0.77,1399.97,0.43,6.96,6.67,72.65,-1.173,0.2687,0,20,94.91,0,106.64,-433.12,32.419,5.911,123.18,0,0,0,270.02,0,0,0,0,0,0,0,0,0,0,0,0,0,1,1,111.88,FLYING
112.64,APPROACH,ILS_TRACK,81.6,82,0.4,1400.46,0.54,7.75,7.48,74.12,-9.945,0.2546,0,20,95.77,0,86.21,-428.97,32.349,6.769,122.041,0,0,0,270.02,0,0,0,0,0,0,0,0,0,0,0,0,0,1,1,112.68,FLYING
113.44,APPROACH,ILS_TRACK,81.44,81.6,0.16,1401.08,0.8,8.12,7.99,76.63,-19.234,0.2598,0,20,96.14,0,66.6,-424.69,32.279,7.14,120.561,0,0,0,270.02,0,0,0,0,0,0,0,0,0,0,0,0,0,1,1,113.48,FLYING
114.24,APPROACH,ILS_TRACK,81.25,81.2,-0.05,1401.72,0.8,7.92,8.05,79.27,-22.85,0.2656,0,19.973,95.91,0,48.87,-420.35,32.208,6.908,119.166,0,0,0,270.02,0,0,0,0,0,0,0,0,0,0,0,0,0,1,1,114.28,FLYING
115.04,APPROACH,ILS_TRACK,81.04,80.8,-0.24,1402.27,0.66,7.68,7.88,81.19,-22.573,0.2695,0,19.85,95.26,0,33.66,-416.06,32.137,6.261,117.958,0,0,0,270.02,0,0,0,0,0,0,0,0,0,0,0,0,0,1,1,115.08,FLYING
115.86,APPROACH,ILS_TRACK,80.83,80.4,-0.43,1402.67,0.44,7.62,7.8,82.67,-19.354,0.2702,0,19.633,94.67,0,20.66,-411.8,32.064,5.672,116.72,0,0,0,270.02,0,0,0,0,0,0,0,0,0,0,0,0,0,1,1,115.9,FLYING
116.68,APPROACH,ILS_TRACK,80.65,80,-0.65,1402.94,0.29,7.55,7.72,83.96,-17.338,0.2615,0,19.305,93.93,0,9.99,-407.68,31.991,4.935,115.701,0,0,0,270.02,0,0,0,0,0,0,0,0,0,0,0,0,0,1,1,116.72,FLYING
117.5,APPROACH,ILS_TRACK,80.47,80,-0.47,1403.09,0.15,7.54,7.69,85.01,-14.125,0.2741,0,19.07,93.27,0,1.35,-403.66,31.918,4.269,114.677,0,0,0,270.02,0,0,0,0,0,0,0,0,0,0,0,0,0,1,1,117.54,FLYING
118.32,APPROACH,ILS_TRACK,80.31,80,-0.31,1403.16,0.06,7.5,7.66,85.99,-12.887,0.2823,0,18.914,92.69,0,-5.58,-399.73,31.844,3.686,113.635,0,0,0,270.02,0,0,0,0,0,0,0,0,0,0,0,0,0,1,1,118.36,FLYING
119.14,APPROACH,ILS_TRACK,80.14,80,-0.14,1403.17,-0.01,7.53,7.66,86.7,-10.248,0.2923,0,18.842,92.16,0,-11.01,-395.87,31.771,3.157,112.587,0,0,0,270.02,0,0,0,0,0,0,0,0,0,0,0,0,0,1,1,119.18,FLYING
119.96,APPROACH,ILS_TRACK,80,80,0,1403.13,-0.05,7.53,7.66,87.4,-9.134,0.2982,0,18.839,91.71,0,-15.21,-392.06,31.698,2.705,111.52,0,0,0,270.02,0,0,0,0,0,0,0,0,0,0,0,0,0,1,1,120,FLYING
120.78,APPROACH,ILS_TRACK,79.88,80,0.12,1403.07,-0.09,7.54,7.67,88,-7.879,0.3035,0,18.899,91.3,0,-18.34,-388.29,31.624,2.298,110.446,0,0,0,270.02,0,0,0,0,0,0,0,0,0,0,0,0,0,1,1,120.82,FLYING
121.6,APPROACH,ILS_TRACK,79.76,80,0.24,1402.98,-0.12,7.57,7.69,88.48,-6.597,0.3086,0,19.019,90.92,0,-20.54,-384.54,31.551,1.923,109.368,0,0,0,270.02,0,0,0,0,0,0,0,0,0,0,0,0,0,1,1,121.64,FLYING
122.42,APPROACH,ILS_TRACK,79.65,80,0.35,1402.87,-0.13,7.6,7.72,88.86,-5.39,0.3136,0,19.194,90.59,0,-21.97,-380.81,31.478,1.593,108.28,0,0,0,270.02,0,0,0,0,0,0,0,0,0,0,0,0,0,1,1,122.46,FLYING
123.24,APPROACH,ILS_TRACK,79.54,80,0.46,1402.76,-0.13,7.63,7.74,89.15,-4.283,0.3189,0,19.421,90.3,0,-22.75,-377.1,31.405,1.301,107.182,0,0,0,270.02,0,0,0,0,0,0,0,0,0,0,0,0,0,1,1,123.28,FLYING
124.06,APPROACH,ILS_TRACK,79.44,80,0.56,1402.66,-0.13,7.67,7.76,89.35,-3.303,0.3244,0,19.697,90.06,0,-23.02,-373.38,31.332,1.059,106.071,0,0,0,270.02,0,0,0,0,0,0,0,0,0,0,0,0,0,1,1,124.1,FLYING
124.88,APPROACH,ILS_TRACK,79.35,80,0.65,1402.56,-0.12,7.71,7.79,89.5,-2.462,0.3298,0,20,89.86,0,-22.9,-369.66,31.26,0.856,104.949,0,0,0,270.02,0,0,0,0,0,0,0,0,0,0,0,0,0,1,1,124.92,FLYING
125.7,APPROACH,ILS_TRACK,79.27,80,0.73,1402.48,-0.1,7.73,7.8,89.6,-1.75,0.3312,0,20,89.69,0,-22.49,-365.94,31.187,0.692,103.821,0,0,0,270.02,0,0,0,0,0,0,0,0,0,0,0,0,0,1,1,125.74,FLYING
126.52,APPROACH,ILS_TRACK,79.19,80,0.81,1402.41,-0.08,7.76,7.81,89.64,-1.127,0.3319,0,20,89.56,0,-21.86,-362.21,31.114,0.559,102.689,0,0,0,270.02,0,0,0,0,0,0,0,0,0,0,0,0,0,1,1,126.56,FLYING
127.34,APPROACH,ILS_TRACK,79.12,80,0.88,1402.34,-0.08,7.79,7.84,89.66,-0.693,0.3322,0,20,89.46,0,-21.09,-358.47,31.042,0.461,101.557,0,0,0,270.02,0,0,0,0,0,0,0,0,0,0,0,0,0,1,1,127.38,FLYING
128.16,APPROACH,ILS_TRACK,79.05,80,0.95,1402.29,-0.06,7.81,7.85,89.67,-0.405,0.3322,0,20,89.38,0,-20.24,-354.72,30.969,0.383,100.418,0,0,0,270.02,0,0,0,0,0,0,0,0,0,0,0,0,0,1,1,128.2,FLYING
128.98,APPROACH,ILS_TRACK,79,80,1,1402.25,-0.05,7.84,7.87,89.67,-0.193,0.3319,0,20,89.32,0,-19.34,-350.96,30.897,0.324,99.278,0,0,0,270.02,0,0,0,0,0,0,0,0,0,0,0,0,0,1,1,129.02,FLYING
129.8,APPROACH,ILS_TRACK,78.94,80,1.06,1402.22,-0.03,7.86,7.88,89.65,-0.031,0.3314,0,20,89.28,0,-18.42,-347.2,30.824,0.276,98.133,0,0,0,270.02,0,0,0,0,0,0,0,0,0,0,0,0,0,1,1,129.84,FLYING
130.62,APPROACH,ILS_TRACK,78.9,80,1.1,1402.21,-0.02,7.88,7.89,89.63,0.094,0.3308,0,20,89.24,0,-17.49,-343.42,30.752,0.235,96.985,0,0,0,270.02,0,0,0,0,0,0,0,0,0,0,0,0,0,1,1,130.66,FLYING
131.44,APPROACH,ILS_TRACK,78.86,80,1.14,1402.2,0,7.9,7.9,89.61,0.188,0.33,0,20,89.21,0,-16.58,-339.63,30.679,0.206,95.835,0,0,0,270.02,0,0,0,0,0,0,0,0,0,0,0,0,0,1,1,131.48,FLYING
132.26,APPROACH,ILS_TRACK,78.82,80,1.18,1402.21,0.01,7.92,7.91,89.57,0.252,0.329,0,20,89.18,0,-15.69,-335.84,30.607,0.183,94.682,0,0,0,270.02,0,0,0,0,0,0,0,0,0,0,0,0,0,1,1,132.3,FLYING
133.08,APPROACH,ILS_TRACK,78.79,80,1.21,1402.22,0.02,7.93,7.91,89.54,0.286,0.3279,0,20,89.16,0,-14.83,-332.04,30.535,0.163,93.529,0,0,0,270.02,0,0,0,0,0,0,0,0,0,0,0,0,0,1,1,133.12,FLYING
133.9,APPROACH,ILS_TRACK,78.76,80,1.24,1402.25,0.03,7.94,7.92,89.51,0.303,0.3267,0,20,89.15,0,-14,-328.23,30.463,0.148,92.372,0,0,0,270.02,0,0,0,0,0,0,0,0,0,0,0,0,0,1,1,133.94,FLYING
134.72,APPROACH,ILS_TRACK,78.73,80,1.27,1402.28,0.04,7.96,7.93,89.48,0.305,0.3255,0,20,89.14,0,-13.22,-324.41,30.39,0.137,91.216,0,0,0,270.02,0,0,0,0,0,0,0,0,0,0,0,0,0,1,1,134.76,FLYING
135.54,APPROACH,ILS_TRACK,78.71,80,1.29,1402.32,0.05,7.97,7.93,89.45,0.295,0.3242,0,20,89.12,0,-12.46,-320.59,30.318,0.121,90.056,0,0,0,270.02,0,0,0,0,0,0,0,0,0,0,0,0,0,1,1,135.58,FLYING
136.36,APPROACH,ILS_TRACK,78.69,80,1.31,1402.37,0.06,7.98,7.93,89.43,0.281,0.323,0,20,89.12,0,-11.76,-316.76,30.246,0.116,88.896,0,0,0,270.02,0,0,0,0,0,0,0,0,0,0,0,0,0,1,1,136.4,FLYING
137.18,APPROACH,ILS_TRACK,78.68,80,1.32,1402.43,0.07,7.98,7.94,89.4,0.259,0.3219,0,20,89.11,0,-11.09,-312.92,30.174,0.108,87.733,0,0,0,270.02,0,0,0,0,0,0,0,0,0,0,0,0,0,1,1,137.22,FLYING
138,APPROACH,ILS_TRACK,78.66,80,1.34,1402.49,0.08,7.99,7.94,89.38,0.238,0.3208,0,20,89.1,0,-10.44,-309.07,30.102,0.096,86.569,0,0,0,270.02,0,0,0,0,0,0,0,0,0,0,0,0,0,1,1,138.04,FLYING
138.82,APPROACH,ILS_TRACK,78.65,80,1.35,1402.56,0.09,8,7.94,89.36,0.219,0.3199,0,20,89.09,0,-9.84,-305.22,30.029,0.09,85.405,0,0,0,270.02,0,0,0,0,0,0,0,0,0,0,0,0,0,1,1,138.86,FLYING
139.64,APPROACH,ILS_TRACK,78.64,80,1.36,1402.64,0.1,8.01,7.94,89.34,0.201,0.319,0,20,89.08,0,-9.26,-301.36,29.957,0.081,84.234,0,0,0,270.02,0,0,0,0,0,0,0,0,0,0,0,0,0,2,2,139.68,FLYING
140.5,APPROACH,ILS_TRACK,78.6,80,1.4,1402.72,0.13,7.89,7.81,89.32,0.186,0.3219,0,20,89.06,0,-8.68,-297.32,29.882,0.059,82.727,0,0,0,270.02,0,0,0,0,0,0,0,0,0,0,0,0,0,2,2,140.54,FLYING
141.3,APPROACH,ILS_TRACK,78.53,80,1.47,1402.82,0.15,7.81,7.71,89.3,0.179,0.3299,0,20,89.07,0,-8.17,-293.54,29.811,0.071,82.018,0,0,0,270.02,0,0,0,0,0,0,0,0,0,0,0,0,0,2,2,141.34,FLYING
142.1,APPROACH,ILS_TRACK,78.43,80,1.57,1402.93,0.17,7.73,7.62,89.29,0.161,0.3428,0,20,89.06,0,-7.68,-289.75,29.741,0.063,80.858,0,0,0,270.02,0,0,0,0,0,0,0,0,0,0,0,0,0,2,2,142.14,FLYING
142.9,APPROACH,ILS_TRACK,78.28,80,1.72,1403.06,0.19,7.66,7.54,89.27,0.149,0.3602,0,20,89.05,0,-7.21,-285.95,29.671,0.055,79.697,0,0,0,270.02,0,0,0,0,0,0,0,0,0,0,0,0,0,2,2,142.94,FLYING
143.7,APPROACH,ILS_TRACK,78.11,80,1.89,1403.21,0.18,7.69,7.57,89.26,0.139,0.378,0,20,89.05,0,-6.77,-282.13,29.601,0.047,78.53,0,0,0,270.02,0,0,0,0,0,0,0,0,0,0,0,0,0,2,2,143.74,FLYING
144.5,APPROACH,ILS_TRACK,77.96,80,2.04,1403.37,0.18,7.73,7.61,89.25,0.131,0.3924,0,20,89.04,0,-6.34,-278.31,29.531,0.041,77.389,0,0,0,270.02,0,0,0,0,0,0,0,0,0,0,0,0,0,2,2,144.54,FLYING
145.32,APPROACH,ILS_TRACK,77.81,80,2.19,1403.52,0.18,7.77,7.65,89.23,0.124,0.4042,0,20,89.03,0,-5.92,-274.41,29.46,0.028,76.079,0,0,0,270.02,0,0,0,0,0,0,0,0,0,0,0,0,0,2,2,145.36,FLYING
146.14,APPROACH,ILS_TRACK,77.68,80,2.32,1403.68,0.18,7.81,7.69,89.22,0.121,0.4127,0,20,89.02,0,-5.52,-270.51,29.388,0.021,74.922,0,0,0,270.02,0,0,0,0,0,0,0,0,0,0,0,0,0,2,2,146.18,FLYING
146.96,APPROACH,ILS_TRACK,77.57,80,2.43,1403.84,0.18,7.84,7.72,89.21,0.114,0.4184,0,20,89.01,0,-5.14,-266.62,29.317,0.013,73.764,0,0,0,270.02,0,0,0,0,0,0,0,0,0,0,0,0,0,2,2,147,FLYING
147.78,APPROACH,ILS_TRACK,77.47,80,2.53,1403.99,0.19,7.87,7.74,89.19,0.109,0.4213,0,20,89.01,0,-4.77,-262.74,29.246,0.009,72.605,0,0,0,270.02,0,0,0,0,0,0,0,0,0,0,0,0,0,2,2,147.82,FLYING
148.6,APPROACH,ILS_TRACK,77.4,80,2.6,1404.15,0.19,7.89,7.76,89.18,0.105,0.4219,0,20,89,0,-4.43,-258.86,29.175,0.003,71.446,0,0,0,270.02,0,0,0,0,0,0,0,0,0,0,0,0,0,2,2,148.64,FLYING
149.42,APPROACH,ILS_TRACK,77.34,80,2.66,1404.31,0.19,7.9,7.77,89.17,0.098,0.4204,0,20,89,0,-4.1,-254.98,29.104,-0.001,70.284,0,0,0,270.02,0,0,0,0,0,0,0,0,0,0,0,0,0,2,2,149.46,FLYING
150.24,APPROACH,ILS_TRACK,77.3,80,2.7,1404.47,0.2,7.91,7.78,89.16,0.094,0.4172,0,20,88.99,0,-3.78,-251.1,29.033,-0.009,69.118,0,0,0,270.02,0,0,0,0,0,0,0,0,0,0,0,0,0,2,2,150.28,FLYING
151.06,APPROACH,ILS_TRACK,77.27,80,2.73,1404.64,0.2,7.92,7.78,89.15,0.089,0.4126,0,20,88.99,0,-3.47,-247.21,28.962,-0.014,67.952,0,0,0,270.02,0,0,0,0,0,0,0,0,0,0,0,0,0,2,2,151.1,FLYING
151.88,APPROACH,ILS_TRACK,77.26,80,2.74,1404.81,0.21,7.92,7.78,89.14,0.086,0.407,0,20,88.98,0,-3.18,-243.33,28.891,-0.017,66.783,0,0,0,270.02,0,0,0,0,0,0,0,0,0,0,0,0,0,2,2,151.92,FLYING
152.7,APPROACH,ILS_TRACK,77.26,80,2.74,1404.98,0.21,7.92,7.78,89.13,0.082,0.4006,0,20,88.98,0,-2.91,-239.44,28.82,-0.022,65.611,0,0,0,270.02,0,0,0,0,0,0,0,0,0,0,0,0,0,2,2,152.74,FLYING
153.52,APPROACH,ILS_TRACK,77.28,80,2.72,1405.16,0.22,7.91,7.77,89.12,0.078,0.3938,0,20,88.98,0,-2.65,-235.55,28.749,-0.024,64.435,0,0,0,270.02,0,0,0,0,0,0,0,0,0,0,0,0,0,2,2,153.56,FLYING
154.34,APPROACH,ILS_TRACK,77.3,80,2.7,1405.34,0.22,7.91,7.76,89.11,0.074,0.3869,0,20,88.97,0,-2.4,-231.65,28.678,-0.029,63.258,0,0,0,270.02,0,0,0,0,0,0,0,0,0,0,0,0,0,2,2,154.38,FLYING
155.16,APPROACH,ILS_TRACK,77.33,80,2.67,1405.52,0.23,7.9,7.75,89.1,0.071,0.38,0,20,88.97,0,-2.16,-227.75,28.607,-0.034,62.077,0,0,0,270.02,0,0,0,0,0,0,0,0,0,0,0,0,0,2,2,155.2,FLYING
155.98,APPROACH,ILS_TRACK,77.37,80,2.63,1405.71,0.24,7.89,7.73,89.09,0.068,0.3733,0,20,88.96,0,-1.93,-223.83,28.536,-0.037,60.894,0,0,0,270.02,0,0,0,0,0,0,0,0,0,0,0,0,0,2,2,156.02,FLYING
156.8,APPROACH,ILS_TRACK,77.41,80,2.59,1405.91,0.24,7.88,7.72,89.08,0.067,0.3671,0,20,88.96,0,-1.71,-219.92,28.465,-0.038,59.709,0,0,0,270.02,0,0,0,0,0,0,0,0,0,0,0,0,0,2,2,156.84,FLYING
157.62,APPROACH,ILS_TRACK,77.45,80,2.55,1406.1,0.25,7.87,7.71,89.08,0.064,0.3613,0,20,88.96,0,-1.51,-216,28.394,-0.042,58.522,0,0,0,270.02,0,0,0,0,0,0,0,0,0,0,0,0,0,2,2,157.66,FLYING
158.44,APPROACH,ILS_TRACK,77.49,80,2.51,1406.31,0.25,7.86,7.69,89.07,0.061,0.3563,0,20,88.96,0,-1.32,-212.07,28.323,-0.044,57.332,0,0,0,270.02,0,0,0,0,0,0,0,0,0,0,0,0,0,2,2,158.48,FLYING
159.26,APPROACH,ILS_TRACK,77.53,80,2.47,1406.52,0.26,7.85,7.68,89.06,0.058,0.3522,0,20,88.95,0,-1.13,-208.13,28.252,-0.048,56.141,0,0,0,270.02,0,0,0,0,0,0,0,0,0,0,0,0,0,2,2,159.3,FLYING
160.08,APPROACH,ILS_TRACK,77.56,80,2.44,1406.73,0.26,7.85,7.67,89.05,0.056,0.3494,0,20,88.95,0,-0.96,-204.19,28.181,-0.048,54.949,0,0,0,270.02,0,0,0,0,0,0,0,0,0,0,0,0,0,2,2,160.12,FLYING
160.9,APPROACH,ILS_TRACK,77.59,80,2.41,1406.94,0.26,7.84,7.67,89.05,0.053,0.3481,0,20,88.95,0,-0.79,-200.24,28.109,-0.05,53.756,0,0,0,270.02,0,0,0,0,0,0,0,0,0,0,0,0,0,2,2,160.94,FLYING
161.72,APPROACH,ILS_TRACK,77.6,80,2.4,1407.16,0.27,7.84,7.67,89.04,0.049,0.3482,0,20,88.95,0,-0.64,-196.29,28.038,-0.05,52.564,0,0,0,270.02,0,0,0,0,0,0,0,0,0,0,0,0,0,2,2,161.76,FLYING
162.54,APPROACH,ILS_TRACK,77.61,80,2.39,1407.38,0.27,7.84,7.66,89.03,0.045,0.3492,0,20,88.95,0,-0.5,-192.33,27.967,-0.052,51.372,0,0,0,270.02,0,0,0,0,0,0,0,0,0,0,0,0,0,2,2,162.58,FLYING
163.36,APPROACH,ILS_TRACK,77.61,80,2.39,1407.61,0.27,7.84,7.66,89.03,0.043,0.351,0,20,88.95,0,-0.36,-188.37,27.896,-0.054,50.179,0,0,0,270.02,0,0,0,0,0,0,0,0,0,0,0,0,0,2,2,163.4,FLYING
164.18,APPROACH,ILS_TRACK,77.61,80,2.39,1407.83,0.28,7.85,7.67,89.02,0.04,0.3529,0,20,88.94,0,-0.23,-184.41,27.824,-0.056,48.988,0,0,0,270.02,0,0,0,0,0,0,0,0,0,0,0,0,0,2,2,164.22,FLYING
165,APPROACH,ILS_TRACK,77.61,80,2.39,1408.06,0.28,7.85,7.67,89.01,0.038,0.3548,0,20,88.95,0,-0.11,-180.45,27.753,-0.054,47.796,0,0,0,270.02,0,0,0,0,0,0,0,0,0,0,0,0,0,2,2,165.04,FLYING
165.82,APPROACH,ILS_TRACK,77.6,80,2.4,1408.29,0.28,7.85,7.67,89.01,0.036,0.3565,0,20,88.94,0,0,-176.49,27.682,-0.056,46.603,0,0,0,270.02,0,0,0,0,0,0,0,0,0,0,0,0,0,2,2,165.86,FLYING
166.64,APPROACH,ILS_TRACK,77.6,80,2.4,1408.53,0.28,7.86,7.67,89,0.033,0.3578,0,20,88.94,0,0.1,-172.52,27.611,-0.056,45.41,0,0,0,270.02,0,0,0,0,0,0,0,0,0,0,0,0,0,2,2,166.68,FLYING
167.46,APPROACH,ILS_TRACK,77.6,80,2.4,1408.76,0.29,7.86,7.67,89,0.03,0.3588,0,20,88.94,0,0.2,-168.55,27.539,-0.056,44.217,0,0,0,270.02,0,0,0,0,0,0,0,0,0,0,0,0,0,2,2,167.5,FLYING
168.28,APPROACH,ILS_TRACK,77.59,80,2.41,1409,0.29,7.86,7.67,88.99,0.029,0.3596,0,20,88.94,0,0.29,-164.58,27.468,-0.057,43.023,0,0,0,270.02,0,0,0,0,0,0,0,0,0,0,0,0,0,2,2,168.32,FLYING
169.1,APPROACH,ILS_TRACK,77.59,80,2.41,1409.23,0.29,7.86,7.67,88.99,0.027,0.36,0,20,88.94,0,0.37,-160.61,27.397,-0.056,41.828,0,0,0,270.02,0,0,0,0,0,0,0,0,0,0,0,0,0,2,2,169.14,FLYING
169.92,APPROACH,ILS_TRACK,77.59,80,2.41,1409.47,0.29,7.86,7.67,88.98,0.022,0.3602,0,20,88.95,0,0.44,-156.64,27.326,-0.055,40.634,0,0,0,270.02,0,0,0,0,0,0,0,0,0,0,0,0,0,2,2,169.96,FLYING
170.74,APPROACH,ILS_TRACK,77.59,80,2.41,1409.72,0.3,7.86,7.67,88.98,0.02,0.3602,0,20,88.94,0,0.51,-152.66,27.254,-0.056,39.438,0,0,0,270.02,0,0,0,0,0,0,0,0,0,0,0,0,0,2,2,170.78,FLYING
171.56,APPROACH,ILS_TRACK,77.59,80,2.41,1409.96,0.3,7.86,7.67,88.97,0.017,0.3601,0,20,88.94,0,0.58,-148.69,27.183,-0.056,38.242,0,0,0,270.02,0,0,0,0,0,0,0,0,0,0,0,0,0,2,2,171.6,FLYING
172.38,APPROACH,ILS_TRACK,77.59,80,2.41,1410.2,0.3,7.86,7.67,88.97,0.015,0.3597,0,20,88.95,0,0.64,-144.71,27.112,-0.055,37.045,0,0,0,270.02,0,0,0,0,0,0,0,0,0,0,0,0,0,2,2,172.42,FLYING
173.2,APPROACH,ILS_TRACK,77.6,80,2.4,1410.45,0.3,7.86,7.66,88.97,0.012,0.3593,0,20,88.95,0,0.69,-140.72,27.041,-0.055,35.848,0,0,0,270.02,0,0,0,0,0,0,0,0,0,0,0,0,0,2,2,173.24,FLYING
174.02,APPROACH,ILS_TRACK,77.6,80,2.4,1410.7,0.3,7.86,7.66,88.96,0.01,0.3588,0,20,88.95,0,0.74,-136.74,26.969,-0.052,34.651,0,0,0,270.02,0,0,0,0,0,0,0,0,0,0,0,0,0,2,2,174.06,FLYING
174.84,APPROACH,ILS_TRACK,77.61,80,2.39,1410.95,0.31,7.86,7.66,88.96,0.01,0.3582,0,20,88.95,0,0.78,-132.76,26.898,-0.054,33.452,0,0,0,270.02,0,0,0,0,0,0,0,0,0,0,0,0,0,2,2,174.88,FLYING
