t_s,phase,subphase,ias_ms,vapp_ms,spd_err_ms,agl_m,vs_ms,pitch_deg,aoa_deg,hdg_deg,bank_deg,thr_cmd,thr_cur,thr_intg,at_gain,at_tau_s,at_a_up,at_a_dn,at_kp_thr,at_ki_spd,at_thr_slew,aa_hdg_cmd_deg,aa_fpa_cmd_deg,aa_fbw,aa_dir,actual_fpa_deg,ftf_hdg_err_deg,ftf_fix_idx,kos_steer_pit_deg,kos_steer_hdg_deg,aa_dir_vx,aa_dir_vy,aa_dir_vz,aa_dir_pitch_deg,aa_dir_hdg_deg,ils_loc_m,ils_gs_m,ils_dist_km,loc_corr_deg,gs_corr_deg,gs_latched,active_gs_ang_deg,ils_intercept_alt_m,d_gs_ms,fpa_preclamped_deg,gs_nom_alt_m,flare_fpa_cmd,flare_tgt_vs,flare_frac,steer_hdg_deg,steer_blend,ro_loc_corr_deg,ro_hdg_err_deg,ro_yaw_tgt,ro_yaw_scale,ro_yaw_gate,yaw_cmd,roll_cmd,pitch_cmd,ro_pitch_tgt_deg,ro_pitch_err_deg,ro_pitch_ff,ro_roll_assist,flaps_cur,flaps_tgt,asc_j_ab,asc_j_rk,asc_validity,asc_q_pa,asc_q_raw_pa,asc_mach,asc_apo_m,asc_drag_n,asc_w_prop,asc_edot_aero,asc_edot_orb,asc_pitch_bias,asc_blend,asc_spooling,asc_ab_thr_ratio,asc_ab_t_now,asc_ab_t_avail,asc_ab_ign_on,asc_ab_flameouts,asc_rk_t_now,asc_rk_t_avail,asc_rk_ign_on,asc_rk_flameouts,ship_thrust,ship_avail_thrust,ship_ign_on,ship_flameouts,ifc_raw_dt_s,ifc_dt_s,ifc_loop_n,ifc_hz_est,ifc_raw_dt_max_s,ifc_raw_dt_min_s,phase_el_s,status,craft_name,cfg_file
0.1,APPROACH,ILS_TRACK,72.94,73,0.06,1166.29,-4.11,5.43,8.34,270.38,0.004,0,0,0,0,0,0,0,0,0,0,0,0,1,0,-3.22,0,0,0,90,0,0,0,0,0,-0.64,1.19,20.896,0,0,0,3,1166.29,0,0,1165.1,0,0,0,270.38,0,0,0,0,0,0,0,0,0,0,0,0,0,0,0,0,0,VALID,0,0,0,0,0,1,0,0,0,0,0,0,0,0,0,0,0,0,0,0,58.39,413.83,2,0,0.1,0.1,1,3.7,0.1,0.02,0.1,FLYING,CF1-H,0:/Integrated Flight Computer/aircraft/cf1_h_cfg.ks (inferred preloaded)
0.38,APPROACH,ILS_TRACK,72.91,73,0.09,1165.12,-4.04,5.31,8.18,270.39,0.035,0.0242,0,0.02,1,0.6,1.427,0.75,0.35,0.0168,0.4,270.44,-3.303,0,1,-3.18,0,0,-3.42,270.44,0.8897,0.0077,0.4564,-3.3,270.44,-0.64,1.21,20.875,0.039,-0.303,1,3,1166.29,-0.073,-3.303,1164,0,0,0,270.38,0,0,0,0,0,0,0,0,0,0,0,0,0,1,2,0,0,VALID,0,0,0,0,0,1,0,0,0,0,0,0,0,0,0,0,0,0,0,0,54.88,413.9,2,0,0.06,0.06,4,10.71,0.1,0.06,0.38,FLYING,CF1-H,0:/Integrated Flight Computer/aircraft/cf1_h_cfg.ks (inferred preloaded)
0.64,APPROACH,ILS_TRACK,72.89,73,0.11,1163.96,-4.13,4.7,7.62,270.39,0.066,0.0341,0,0.047,1,0.6,2.538,0.75,0.35,0.0168,0.4,270.44,-3.146,0,1,-3.23,0,0,-3.16,270.43,0.8885,0.0077,0.4588,-3.15,270.44,-0.65,1.15,20.854,0.037,-0.146,1,3,1166.29,-0.249,-3.146,1162.91,0,0,0,270.38,0,0,0,0,0,0,0,0,0,0,0,0,0,1,2,0,0,VALID,0,0,0,0,0,1,0,0,0,0,0,0,0,0,0,0,0,0,0,0,52.12,413.98,2,0,0.1,0.1,7,11.54,0.1,0.06,0.64,FLYING,CF1-H,0:/Integrated Flight Computer/aircraft/cf1_h_cfg.ks (inferred preloaded)
0.9,APPROACH,ILS_TRACK,72.87,73,0.13,1162.83,-4.38,4.46,7.56,270.4,0.06,0.0397,0,0.079,1,0.6,3.404,0.75,0.35,0.0168,0.4,270.43,-3.235,0,1,-3.42,0,0,-3.19,270.42,0.8892,0.0076,0.4574,-3.24,270.43,-0.66,1.1,20.833,0.033,-0.235,1,3,1166.29,-0.12,-3.235,1161.81,0,0,0,270.38,0,0,0,0,0,0,0,0,0,0,0,0,0,2,2,0,0,VALID,0,0,0,0,0,1,0,0,0,0,0,0,0,0,0,0,0,0,0,0,49.75,414.05,2,0,0.08,0.08,10,11.54,0.1,0.08,0.9,FLYING,CF1-H,0:/Integrated Flight Computer/aircraft/cf1_h_cfg.ks (inferred preloaded)
1.16,APPROACH,ILS_TRACK,72.82,73,0.18,1161.73,-4.52,4.88,8.09,270.4,0.054,0.0574,0,0.121,1,0.6,4.078,0.75,0.35,0.0168,0.4,270.43,-3.362,0,1,-3.55,0,0,-3.34,270.44,0.8902,0.0076,0.4554,-3.36,270.43,-0.66,1.1,20.812,0.032,-0.362,1,3,1166.29,0.039,-3.362,1160.71,0,0,0,270.38,0,0,0,0,0,0,0,0,0,0,0,0,0,2,2,0,0,VALID,0,0,0,0,0,1,0,0,0,0,0,0,0,0,0,0,0,0,0,0,47.73,414.14,2,0,0.1,0.1,13,11.54,0.1,0.06,1.16,FLYING,CF1-H,0:/Integrated Flight Computer/aircraft/cf1_h_cfg.ks (inferred preloaded)
1.5,APPROACH,ILS_TRACK,72.73,73,0.27,1160.25,-4.45,5.21,8.38,270.4,0.047,0.0969,0,0.199,1,0.6,4.5,0.75,0.35,0.0168,0.4,270.43,-3.153,0,1,-3.51,0,0,-3.19,270.42,0.8886,0.0076,0.4586,-3.15,270.43,-0.67,1.06,20.785,0.035,-0.153,1,3,1166.29,-0.205,-3.153,1159.28,0,0,0,270.38,0,0,0,0,0,0,0,0,0,0,0,0,0,2,2,0,0,VALID,0,0,0,0,0,1,0,0,0,0,0,0,0,0,0,0,0,0,0,0,46.13,414.28,2,0,0.1,0.1,17,11.76,0.1,0.06,1.5,FLYING,CF1-H,0:/Integrated Flight Computer/aircraft/cf1_h_cfg.ks (inferred preloaded)
1.82,APPROACH,ILS_TRACK,72.62,73,0.38,1158.83,-4.43,5.17,8.33,270.4,0.041,0.1371,0,0.308,1,0.6,4.5,0.75,0.35,0.0168,0.4,270.43,-3.103,0,1,-3.49,0,0,-3.09,270.43,0.8882,0.0076,0.4594,-3.1,270.43,-0.68,0.98,20.759,0.031,-0.103,1,3,1166.29,-0.237,-3.103,1157.94,0,0,0,270.38,0,0,0,0,0,0,0,0,0,0,0,0,0,2,2,0,0,VALID,0,0,0,0,0,1,0,0,0,0,0,0,0,0,0,0,0,0,0,0,45.95,414.44,2,0,0.1,0.1,21,12.5,0.1,0.06,1.82,FLYING,CF1-H,0:/Integrated Flight Computer/aircraft/cf1_h_cfg.ks (inferred preloaded)
2.16,APPROACH,ILS_TRACK,72.49,73,0.51,1157.32,-4.42,5.17,8.33,270.4,0.037,0.1678,0,0.466,1,0.6,4.5,0.75,0.35,0.0168,0.4,270.43,-3.084,0,1,-3.49,0,0,-3.09,270.43,0.8881,0.0076,0.4596,-3.08,270.43,-0.68,0.9,20.732,0.031,-0.084,1,3,1166.29,-0.231,-3.084,1156.51,0,0,0,270.38,0,0,0,0,0,0,0,0,0,0,0,0,0,2,2,0,0,VALID,0,0,0,0,0,1,0,0,0,0,0,0,0,0,0,0,0,0,0,0,46.26,414.61,2,0,0.1,0.1,25,11.76,0.1,0.06,2.16,FLYING,CF1-H,0:/Integrated Flight Computer/aircraft/cf1_h_cfg.ks (inferred preloaded)
2.5,APPROACH,ILS_TRACK,72.34,73,0.66,1155.82,-4.4,5.17,8.33,270.4,0.034,0.1933,0,0.671,1,0.6,4.5,0.75,0.35,0.0168,0.4,270.43,-3.07,0,1,-3.48,0,0,-3.07,270.42,0.888,0.0076,0.4598,-3.07,270.43,-0.68,0.82,20.705,0.03,-0.07,1,3,1166.29,-0.22,-3.07,1155.09,0,0,0,270.38,0,0,0,0,0,0,0,0,0,0,0,0,0,2,2,0,0,VALID,0,0,0,0,0,1,0,0,0,0,0,0,0,0,0,0,0,0,0,0,46.81,414.78,2,0,0.1,0.1,29,11.76,0.1,0.06,2.5,FLYING,CF1-H,0:/Integrated Flight Computer/aircraft/cf1_h_cfg.ks (inferred preloaded)
2.82,APPROACH,ILS_TRACK,72.21,73,0.79,1154.42,-4.38,5.18,8.32,270.4,0.032,0.216,0,0.908,1,0.6,4.5,0.75,0.35,0.0168,0.4,270.43,-3.056,0,1,-3.47,0,0,-3.06,270.44,0.8879,0.0076,0.46,-3.06,270.43,-0.69,0.75,20.679,0.031,-0.056,1,3,1166.29,-0.212,-3.056,1153.76,0,0,0,270.38,0,0,0,0,0,0,0,0,0,0,0,0,0,2,2,0,0,VALID,0,0,0,0,0,1,0,0,0,0,0,0,0,0,0,0,0,0,0,0,47.51,414.95,2,0,0.1,0.1,33,12.5,0.1,0.06,2.82,FLYING,CF1-H,0:/Integrated Flight Computer/aircraft/cf1_h_cfg.ks (inferred preloaded)
3.16,APPROACH,ILS_TRACK,72.05,73,0.95,1152.93,-4.37,5.19,8.33,270.4,0.03,0.239,0,1.211,1,0.6,4.5,0.75,0.35,0.0168,0.4,270.42,-3.04,0,1,-3.47,0,0,-3.05,270.43,0.8878,0.0074,0.4602,-3.04,270.42,-0.69,0.68,20.652,0.024,-0.04,1,3,1166.29,-0.206,-3.04,1152.34,0,0,0,270.38,0,0,0,0,0,0,0,0,0,0,0,0,0,2,2,0,0,VALID,0,0,0,0,0,1,0,0,0,0,0,0,0,0,0,0,0,0,0,0,48.43,415.13,2,0,0.1,0.1,37,11.76,0.1,0.06,3.16,FLYING,CF1-H,0:/Integrated Flight Computer/aircraft/cf1_h_cfg.ks (inferred preloaded)
3.48,APPROACH,ILS_TRACK,71.91,73,1.09,1151.54,-4.35,5.19,8.33,270.4,0.028,0.2608,0,1.543,1,0.6,4.5,0.75,0.35,0.0168,0.4,270.43,-3.032,0,1,-3.46,0,0,-3.03,270.42,0.8877,0.0076,0.4603,-3.03,270.43,-0.7,0.62,20.627,0.033,-0.032,1,3,1166.29,-0.191,-3.032,1151.01,0,0,0,270.38,0,0,0,0,0,0,0,0,0,0,0,0,0,2,2,0,0,VALID,0,0,0,0,0,1,0,0,0,0,0,0,0,0,0,0,0,0,0,0,49.46,415.3,2,0,0.1,0.1,41,12.5,0.1,0.06,3.48,FLYING,CF1-H,0:/Integrated Flight Computer/aircraft/cf1_h_cfg.ks (inferred preloaded)
3.82,APPROACH,ILS_TRACK,71.74,73,1.26,1150.06,-4.33,5.2,8.33,270.4,0.027,0.2838,0,1.95,1,0.6,4.5,0.75,0.35,0.0168,0.4,270.44,-3.021,0,1,-3.46,0,0,-3.01,270.42,0.8877,0.0077,0.4604,-3.02,270.44,-0.7,0.55,20.6,0.036,-0.021,1,3,1166.29,-0.182,-3.021,1149.6,0,0,0,270.38,0,0,0,0,0,0,0,0,0,0,0,0,0,2,2,0,0,VALID,0,0,0,0,0,1,0,0,0,0,0,0,0,0,0,0,0,0,0,0,50.72,415.49,2,0,0.1,0.1,45,11.76,0.1,0.06,3.82,FLYING,CF1-H,0:/Integrated Flight Computer/aircraft/cf1_h_cfg.ks (inferred preloaded)
4.16,APPROACH,ILS_TRACK,71.59,73,1.41,1148.6,-4.33,5.25,8.38,270.4,0.026,0.3022,0,2.411,1,0.6,4.5,0.75,0.35,0.0168,0.4,270.42,-3.01,0,1,-3.46,0,0,-3.02,270.44,0.8876,0.0074,0.4605,-3.01,270.42,-0.7,0.49,20.573,0.024,-0.01,1,3,1166.29,-0.173,-3.01,1148.19,0,0,0,270.38,0,0,0,0,0,0,0,0,0,0,0,0,0,2,2,0,0,VALID,0,0,0,0,0,1,0,0,0,0,0,0,0,0,0,0,0,0,0,0,52.15,415.67,2,0,0.1,0.1,49,11.76,0.1,0.06,4.16,FLYING,CF1-H,0:/Integrated Flight Computer/aircraft/cf1_h_cfg.ks (inferred preloaded)
4.48,APPROACH,ILS_TRACK,71.44,73,1.56,1147.22,-4.32,5.3,8.43,270.4,0.024,0.3156,0,2.893,1,0.6,4.5,0.75,0.35,0.0168,0.4,270.44,-3.005,0,1,-3.46,0,0,-3,270.42,0.8876,0.0077,0.4606,-3.01,270.44,-0.7,0.44,20.548,0.037,-0.005,1,3,1166.29,-0.159,-3.005,1146.87,0,0,0,270.38,0,0,0,0,0,0,0,0,0,0,0,0,0,2,2,0,0,VALID,0,0,0,0,0,1,0,0,0,0,0,0,0,0,0,0,0,0,0,0,53.59,415.84,2,0,0.1,0.1,53,12.5,0.1,0.06,4.48,FLYING,CF1-H,0:/Integrated Flight Computer/aircraft/cf1_h_cfg.ks (inferred preloaded)
4.8,APPROACH,ILS_TRACK,71.31,73,1.69,1145.85,-4.3,5.34,8.46,270.4,0.023,0.3273,0,3.418,1,0.6,4.5,0.75,0.35,0.0168,0.4,270.43,-2.985,0,1,-3.45,0,0,-3,270.42,0.8874,0.0075,0.4608,-2.98,270.43,-0.7,0.39,20.523,0.028,0.015,1,3,1166.29,-0.165,-2.985,1145.55,0,0,0,270.38,0,0,0,0,0,0,0,0,0,0,0,0,0,2,2,0,0,VALID,0,0,0,0,0,1,0,0,0,0,0,0,0,0,0,0,0,0,0,0,55.11,416,2,0,0.1,0.1,57,12.5,0.1,0.06,4.8,FLYING,CF1-H,0:/Integrated Flight Computer/aircraft/cf1_h_cfg.ks (inferred preloaded)
5.14,APPROACH,ILS_TRACK,71.18,73,1.82,1144.4,-4.3,5.37,8.5,270.4,0.023,0.3388,0,4.022,1,0.6,4.5,0.75,0.35,0.0168,0.4,270.43,-2.964,0,1,-3.45,0,0,-2.99,270.43,0.8873,0.0075,0.4611,-2.96,270.43,-0.7,0.33,20.496,0.027,0.036,1,3,1166.29,-0.169,-2.964,1144.15,0,0,0,270.38,0,0,0,0,0,0,0,0,0,0,0,0,0,2,2,0,0,VALID,0,0,0,0,0,1,0,0,0,0,0,0,0,0,0,0,0,0,0,0,56.79,416.17,2,0,0.1,0.1,61,11.76,0.1,0.06,5.14,FLYING,CF1-H,0:/Integrated Flight Computer/aircraft/cf1_h_cfg.ks (inferred preloaded)
5.48,APPROACH,ILS_TRACK,71.05,73,1.95,1142.94,-4.29,5.42,8.55,270.4,0.022,0.3494,0,4.669,1,0.6,4.5,0.75,0.35,0.0168,0.4,270.43,-2.953,0,1,-3.46,0,0,-2.94,270.44,0.8872,0.0075,0.4613,-2.95,270.43,-0.7,0.28,20.469,0.028,0.047,1,3,1166.29,-0.162,-2.953,1142.75,0,0,0,270.38,0,0,0,0,0,0,0,0,0,0,0,0,0,2,2,0,0,VALID,0,0,0,0,0,1,0,0,0,0,0,0,0,0,0,0,0,0,0,0,58.54,416.33,2,0,0.1,0.1,65,11.76,0.1,0.06,5.48,FLYING,CF1-H,0:/Integrated Flight Computer/aircraft/cf1_h_cfg.ks (inferred preloaded)
5.8,APPROACH,ILS_TRACK,70.94,73,2.06,1141.58,-4.27,5.46,8.58,270.4,0.021,0.3591,0,5.316,1,0.6,4.5,0.75,0.35,0.0168,0.4,270.43,-2.938,0,1,-3.45,0,0,-2.94,270.42,0.8871,0.0075,0.4614,-2.94,270.43,-0.7,0.22,20.444,0.027,0.062,1,3,1166.29,-0.161,-2.938,1141.44,0,0,0,270.38,0,0,0,0,0,0,0,0,0,0,0,0,0,2,2,0,0,VALID,0,0,0,0,0,1,0,0,0,0,0,0,0,0,0,0,0,0,0,0,60.23,416.48,2,0,0.1,0.1,69,12.5,0.1,0.06,5.8,FLYING,CF1-H,0:/Integrated Flight Computer/aircraft/cf1_h_cfg.ks (inferred preloaded)
6.14,APPROACH,ILS_TRACK,70.83,73,2.17,1140.13,-4.27,5.49,8.61,270.41,0.021,0.3692,0,6.039,1,0.6,4.5,0.75,0.35,0.0168,0.4,270.42,-2.925,0,1,-3.45,0,0,-2.92,270.44,0.887,0.0074,0.4616,-2.92,270.42,-0.7,0.17,20.418,0.02,0.075,1,3,1166.29,-0.158,-2.925,1140.05,0,0,0,270.38,0,0,0,0,0,0,0,0,0,0,0,0,0,2,2,0,0,VALID,0,0,0,0,0,1,0,0,0,0,0,0,0,0,0,0,0,0,0,0,62.08,416.63,2,0,0.1,0.1,73,11.76,0.1,0.06,6.14,FLYING,CF1-H,0:/Integrated Flight Computer/aircraft/cf1_h_cfg.ks (inferred preloaded)
6.48,APPROACH,ILS_TRACK,70.74,73,2.26,1138.69,-4.25,5.52,8.64,270.41,0.02,0.3789,0,6.797,1,0.6,4.5,0.75,0.35,0.0168,0.4,270.42,-2.909,0,1,-3.44,0,0,-2.92,270.43,0.8869,0.0074,0.4618,-2.91,270.42,-0.7,0.12,20.391,0.024,0.091,1,3,1166.29,-0.158,-2.909,1138.66,0,0,0,270.38,0,0,0,0,0,0,0,0,0,0,0,0,0,2,2,0,0,VALID,0,0,0,0,0,1,0,0,0,0,0,0,0,0,0,0,0,0,0,0,63.97,416.77,2,0,0.1,0.1,77,11.76,0.1,0.06,6.48,FLYING,CF1-H,0:/Integrated Flight Computer/aircraft/cf1_h_cfg.ks (inferred preloaded)
6.82,APPROACH,ILS_TRACK,70.65,73,2.35,1137.25,-4.24,5.55,8.67,270.41,0.02,0.3877,0,7.585,1,0.6,4.5,0.75,0.35,0.0168,0.4,270.43,-2.898,0,1,-3.44,0,0,-2.9,270.42,0.8869,0.0075,0.462,-2.9,270.43,-0.7,0.06,20.365,0.03,0.102,1,3,1166.29,-0.152,-2.898,1137.27,0,0,0,270.38,0,0,0,0,0,0,0,0,0,0,0,0,0,2,2,0,0,VALID,0,0,0,0,0,1,0,0,0,0,0,0,0,0,0,0,0,0,0,0,65.91,416.9,2,0,0.1,0.1,81,11.76,0.1,0.06,6.82,FLYING,CF1-H,0:/Integrated Flight Computer/aircraft/cf1_h_cfg.ks (inferred preloaded)
7.16,APPROACH,ILS_TRACK,70.57,73,2.43,1135.81,-4.23,5.58,8.69,270.41,0.019,0.3959,0,8.401,1,0.6,4.5,0.75,0.35,0.0168,0.4,270.42,-2.886,0,1,-3.43,0,0,-2.89,270.44,0.8868,0.0074,0.4621,-2.89,270.42,-0.7,0.01,20.338,0.023,0.114,1,3,1166.29,-0.147,-2.886,1135.89,0,0,0,270.38,0,0,0,0,0,0,0,0,0,0,0,0,0,2,2,0,0,VALID,0,0,0,0,0,1,0,0,0,0,0,0,0,0,0,0,0,0,0,0,67.88,417.03,2,0,0.1,0.1,85,11.76,0.1,0.06,7.16,FLYING,CF1-H,0:/Integrated Flight Computer/aircraft/cf1_h_cfg.ks (inferred preloaded)
7.42,APPROACH,ILS_TRACK,70.52,73,2.48,1134.72,-4.22,5.59,8.7,270.41,0.019,0.4019,0,9.04,1,0.6,4.5,0.75,0.35,0.0168,0.4,270.43,-2.879,0,1,-3.43,0,0,-2.88,270.43,0.8868,0.0075,0.4622,-2.88,270.43,-0.7,-0.02,20.318,0.03,0.121,1,3,1166.29,-0.142,-2.879,1134.83,0,0,0,270.38,0,0,0,0,0,0,0,0,0,0,0,0,0,2,2,0,0,VALID,0,0,0,0,0,1,0,0,0,0,0,0,0,0,0,0,0,0,0,0,69.41,417.12,2,0,0.08,0.08,88,11.54,0.1,0.08,7.42,FLYING,CF1-H,0:/Integrated Flight Computer/aircraft/cf1_h_cfg.ks (inferred preloaded)
7.68,APPROACH,ILS_TRACK,70.48,73,2.52,1133.62,-4.22,5.61,8.71,270.41,0.019,0.4074,0,9.692,1,0.6,4.5,0.75,0.35,0.0168,0.4,270.43,-2.871,0,1,-3.42,0,0,-2.87,270.42,0.8867,0.0075,0.4623,-2.87,270.43,-0.7,-0.06,20.298,0.026,0.129,1,3,1166.29,-0.139,-2.871,1133.77,0,0,0,270.38,0,0,0,0,0,0,0,0,0,0,0,0,0,2,2,0,0,VALID,0,0,0,0,0,1,0,0,0,0,0,0,0,0,0,0,0,0,0,0,70.95,417.21,2,0,0.1,0.1,91,11.54,0.1,0.06,7.68,FLYING,CF1-H,0:/Integrated Flight Computer/aircraft/cf1_h_cfg.ks (inferred preloaded)
7.94,APPROACH,ILS_TRACK,70.44,73,2.56,1132.53,-4.21,5.62,8.72,270.41,0.018,0.4124,0,10.354,1,0.6,4.5,0.75,0.35,0.0168,0.4,270.43,-2.863,0,1,-3.42,0,0,-2.87,270.42,0.8867,0.0075,0.4624,-2.86,270.43,-0.7,-0.1,20.278,0.028,0.137,1,3,1166.29,-0.135,-2.863,1132.71,0,0,0,270.38,0,0,0,0,0,0,0,0,0,0,0,0,0,2,2,0,0,VALID,0,0,0,0,0,1,0,0,0,0,0,0,0,0,0,0,0,0,0,0,72.51,417.3,2,0,0.08,0.08,94,11.54,0.1,0.08,7.94,FLYING,CF1-H,0:/Integrated Flight Computer/aircraft/cf1_h_cfg.ks (inferred preloaded)
8.2,APPROACH,ILS_TRACK,70.41,73,2.59,1131.44,-4.2,5.63,8.72,270.41,0.018,0.417,0,11.025,1,0.6,4.5,0.75,0.35,0.0168,0.4,270.43,-2.858,0,1,-3.41,0,0,-2.86,270.43,0.8866,0.0075,0.4624,-2.86,270.43,-0.7,-0.13,20.258,0.028,0.142,1,3,1166.29,-0.129,-2.858,1131.65,0,0,0,270.38,0,0,0,0,0,0,0,0,0,0,0,0,0,2,2,0,0,VALID,0,0,0,0,0,1,0,0,0,0,0,0,0,0,0,0,0,0,0,0,74.07,417.37,2,0,0.1,0.1,97,11.54,0.1,0.06,8.2,FLYING,CF1-H,0:/Integrated Flight Computer/aircraft/cf1_h_cfg.ks (inferred preloaded)
8.46,APPROACH,ILS_TRACK,70.39,73,2.61,1130.35,-4.19,5.63,8.72,270.41,0.017,0.4211,0,11.703,1,0.6,4.5,0.75,0.35,0.0168,0.4,270.43,-2.853,0,1,-3.41,0,0,-2.85,270.43,0.8866,0.0076,0.4625,-2.85,270.43,-0.69,-0.16,20.237,0.032,0.147,1,3,1166.29,-0.122,-2.853,1130.6,0,0,0,270.38,0,0,0,0,0,0,0,0,0,0,0,0,0,2,2,0,0,VALID,0,0,0,0,0,1,0,0,0,0,0,0,0,0,0,0,0,0,0,0,75.63,417.45,2,0,0.08,0.08,100,11.54,0.1,0.08,8.46,FLYING,CF1-H,0:/Integrated Flight Computer/aircraft/cf1_h_cfg.ks (inferred preloaded)
8.72,APPROACH,ILS_TRACK,70.37,73,2.63,1129.26,-4.18,5.64,8.72,270.41,0.017,0.4247,0,12.386,1,0.6,4.5,0.75,0.35,0.0168,0.4,270.43,-2.846,0,1,-3.4,0,0,-2.85,270.42,0.8866,0.0075,0.4625,-2.85,270.43,-0.69,-0.19,20.217,0.026,0.154,1,3,1166.29,-0.119,-2.846,1129.54,0,0,0,270.38,0,0,0,0,0,0,0,0,0,0,0,0,0,2,2,0,0,VALID,0,0,0,0,0,1,0,0,0,0,0,0,0,0,0,0,0,0,0,0,77.2,417.52,2,0,0.1,0.1,103,11.54,0.1,0.06,8.72,FLYING,CF1-H,0:/Integrated Flight Computer/aircraft/cf1_h_cfg.ks (inferred preloaded)
8.98,APPROACH,ILS_TRACK,70.36,73,2.64,1128.17,-4.18,5.64,8.72,270.41,0.016,0.4277,0,13.072,1,0.6,4.5,0.75,0.35,0.0168,0.4,270.43,-2.841,0,1,-3.4,0,0,-2.84,270.43,0.8865,0.0075,0.4626,-2.84,270.43,-0.69,-0.22,20.197,0.025,0.159,1,3,1166.29,-0.114,-2.841,1128.48,0,0,0,270.38,0,0,0,0,0,0,0,0,0,0,0,0,0,2,2,0,0,VALID,0,0,0,0,0,1,0,0,0,0,0,0,0,0,0,0,0,0,0,0,78.77,417.58,2,0,0.08,0.08,106,11.54,0.1,0.08,8.98,FLYING,CF1-H,0:/Integrated Flight Computer/aircraft/cf1_h_cfg.ks (inferred preloaded)
9.24,APPROACH,ILS_TRACK,70.35,73,2.65,1127.09,-4.17,5.64,8.71,270.41,0.016,0.4303,0,13.759,1,0.6,4.5,0.75,0.35,0.0168,0.4,270.42,-2.834,0,1,-3.39,0,0,-2.84,270.43,0.8865,0.0074,0.4627,-2.83,270.42,-0.69,-0.25,20.177,0.023,0.166,1,3,1166.29,-0.112,-2.834,1127.43,0,0,0,270.38,0,0,0,0,0,0,0,0,0,0,0,0,0,2,2,0,0,VALID,0,0,0,0,0,1,0,0,0,0,0,0,0,0,0,0,0,0,0,0,80.33,417.64,2,0,0.1,0.1,109,11.54,0.1,0.06,9.24,FLYING,CF1-H,0:/Integrated Flight Computer/aircraft/cf1_h_cfg.ks (inferred preloaded)
9.5,APPROACH,ILS_TRACK,70.36,73,2.64,1126.01,-4.16,5.63,8.7,270.41,0.016,0.4323,0,14.447,1,0.6,4.5,0.75,0.35,0.0168,0.4,270.43,-2.834,0,1,-3.39,0,0,-2.83,270.43,0.8865,0.0075,0.4626,-2.83,270.43,-0.69,-0.28,20.157,0.025,0.166,1,3,1166.29,-0.102,-2.834,1126.37,0,0,0,270.38,0,0,0,0,0,0,0,0,0,0,0,0,0,2,2,0,0,VALID,0,0,0,0,0,1,0,0,0,0,0,0,0,0,0,0,0,0,0,0,81.88,417.7,2,0,0.08,0.08,112,11.54,0.1,0.08,9.5,FLYING,CF1-H,0:/Integrated Flight Computer/aircraft/cf1_h_cfg.ks (inferred preloaded)
9.76,APPROACH,ILS_TRACK,70.37,73,2.63,1124.92,-4.15,5.62,8.69,270.41,0.016,0.4338,0,15.132,1,0.6,4.5,0.75,0.35,0.0168,0.4,270.43,-2.83,0,1,-3.38,0,0,-2.83,270.42,0.8865,0.0075,0.4627,-2.83,270.43,-0.69,-0.31,20.137,0.027,0.17,1,3,1166.29,-0.098,-2.83,1125.31,0,0,0,270.38,0,0,0,0,0,0,0,0,0,0,0,0,0,2,2,0,0,VALID,0,0,0,0,0,1,0,0,0,0,0,0,0,0,0,0,0,0,0,0,83.42,417.75,2,0,0.1,0.1,115,11.54,0.1,0.06,9.76,FLYING,CF1-H,0:/Integrated Flight Computer/aircraft/cf1_h_cfg.ks (inferred preloaded)
10.02,APPROACH,ILS_TRACK,70.39,73,2.61,1123.84,-4.15,5.61,8.67,270.41,0.015,0.4346,0,15.813,1,0.6,4.5,0.75,0.35,0.0168,0.4,270.41,-2.826,0,1,-3.37,0,0,-2.83,270.43,0.8865,0.0073,0.4627,-2.83,270.41,-0.68,-0.33,20.116,0.015,0.174,1,3,1166.29,-0.093,-2.826,1124.26,0,0,0,270.38,0,0,0,0,0,0,0,0,0,0,0,0,0,2,2,0,0,VALID,0,0,0,0,0,1,0,0,0,0,0,0,0,0,0,0,0,0,0,0,84.95,417.8,2,0,0.08,0.08,118,11.54,0.1,0.08,10.02,FLYING,CF1-H,0:/Integrated Flight Computer/aircraft/cf1_h_cfg.ks (inferred preloaded)
10.28,APPROACH,ILS_TRACK,70.41,73,2.59,1122.76,-4.14,5.6,8.65,270.41,0.015,0.435,0,16.488,1,0.6,4.5,0.75,0.35,0.0168,0.4,270.42,-2.825,0,1,-3.37,0,0,-2.82,270.43,0.8865,0.0074,0.4627,-2.83,270.42,-0.68,-0.35,20.096,0.019,0.175,1,3,1166.29,-0.086,-2.825,1123.2,0,0,0,270.38,0,0,0,0,0,0,0,0,0,0,0,0,0,2,2,0,0,VALID,0,0,0,0,0,1,0,0,0,0,0,0,0,0,0,0,0,0,0,0,86.45,417.84,2,0,0.1,0.1,121,11.54,0.1,0.06,10.28,FLYING,CF1-H,0:/Integrated Flight Computer/aircraft/cf1_h_cfg.ks (inferred preloaded)
10.54,APPROACH,ILS_TRACK,70.44,73,2.56,1121.69,-4.14,5.59,8.63,270.41,0.014,0.4347,0,17.156,1,0.6,4.5,0.75,0.35,0.0168,0.4,270.42,-2.822,0,1,-3.36,0,0,-2.82,270.43,0.8865,0.0075,0.4627,-2.82,270.42,-0.68,-0.38,20.076,0.024,0.178,1,3,1166.29,-0.081,-2.822,1122.14,0,0,0,270.38,0,0,0,0,0,0,0,0,0,0,0,0,0,2,2,0,0,VALID,0,0,0,0,0,1,0,0,0,0,0,0,0,0,0,0,0,0,0,0,87.93,417.87,2,0,0.08,0.08,124,11.54,0.1,0.08,10.54,FLYING,CF1-H,0:/Integrated Flight Computer/aircraft/cf1_h_cfg.ks (inferred preloaded)
10.8,APPROACH,ILS_TRACK,70.48,73,2.52,1120.61,-4.13,5.57,8.61,270.41,0.013,0.4339,0,17.815,1,0.6,4.5,0.75,0.35,0.0168,0.4,270.42,-2.82,0,1,-3.35,0,0,-2.83,270.43,0.8865,0.0074,0.4627,-2.82,270.42,-0.68,-0.39,20.056,0.019,0.18,1,3,1166.29,-0.077,-2.82,1121.09,0,0,0,270.38,0,0,0,0,0,0,0,0,0,0,0,0,0,2,2,0,0,VALID,0,0,0,0,0,1,0,0,0,0,0,0,0,0,0,0,0,0,0,0,89.39,417.91,2,0,0.1,0.1,127,11.54,0.1,0.06,10.8,FLYING,CF1-H,0:/Integrated Flight Computer/aircraft/cf1_h_cfg.ks (inferred preloaded)
11.06,APPROACH,ILS_TRACK,70.52,73,2.48,1119.53,-4.13,5.55,8.59,270.41,0.012,0.4326,0,18.463,1,0.6,4.5,0.75,0.35,0.0168,0.4,270.42,-2.822,0,1,-3.35,0,0,-2.82,270.42,0.8865,0.0074,0.4626,-2.82,270.42,-0.67,-0.41,20.036,0.023,0.178,1,3,1166.29,-0.068,-2.822,1120.03,0,0,0,270.38,0,0,0,0,0,0,0,0,0,0,0,0,0,2,2,0,0,VALID,0,0,0,0,0,1,0,0,0,0,0,0,0,0,0,0,0,0,0,0,90.82,417.93,2,0,0.08,0.08,130,11.54,0.1,0.08,11.06,FLYING,CF1-H,0:/Integrated Flight Computer/aircraft/cf1_h_cfg.ks (inferred preloaded)
11.32,APPROACH,ILS_TRACK,70.58,73,2.42,1118.46,-4.12,5.53,8.56,270.41,0.011,0.4308,0,19.098,1,0.6,4.5,0.75,0.35,0.0168,0.4,270.43,-2.824,0,1,-3.34,0,0,-2.82,270.41,0.8865,0.0076,0.4626,-2.82,270.43,-0.67,-0.43,20.016,0.03,0.176,1,3,1166.29,-0.059,-2.824,1118.97,0,0,0,270.38,0,0,0,0,0,0,0,0,0,0,0,0,0,2,2,0,0,VALID,0,0,0,0,0,1,0,0,0,0,0,0,0,0,0,0,0,0,0,0,92.22,417.96,2,0,0.1,0.1,133,11.54,0.1,0.06,11.32,FLYING,CF1-H,0:/Integrated Flight Computer/aircraft/cf1_h_cfg.ks (inferred preloaded)
11.58,APPROACH,ILS_TRACK,70.63,73,2.37,1117.38,-4.11,5.51,8.53,270.41,0.011,0.4283,0,19.718,1,0.6,4.5,0.75,0.35,0.0168,0.4,270.42,-2.823,0,1,-3.33,0,0,-2.83,270.43,0.8866,0.0073,0.4626,-2.82,270.42,-0.67,-0.44,19.995,0.016,0.177,1,3,1166.29,-0.055,-2.823,1117.91,0,0,0,270.38,0,0,0,0,0,0,0,0,0,0,0,0,0,2,2,0,0,VALID,0,0,0,0,0,1,0,0,0,0,0,0,0,0,0,0,0,0,0,0,93.58,417.98,2,0,0.08,0.08,136,11.54,0.1,0.08,11.58,FLYING,CF1-H,0:/Integrated Flight Computer/aircraft/cf1_h_cfg.ks (inferred preloaded)
11.84,APPROACH,ILS_TRACK,70.7,73,2.3,1116.31,-4.11,5.48,8.49,270.41,0.011,0.4198,0,20,1,0.6,4.5,0.75,0.35,0.0168,0.4,270.42,-2.816,0,1,-3.32,0,0,-2.83,270.43,0.8865,0.0074,0.4626,-2.82,270.42,-0.67,-0.46,19.975,0.022,0.184,1,3,1166.29,-0.058,-2.816,1116.85,0,0,0,270.38,0,0,0,0,0,0,0,0,0,0,0,0,0,2,2,0,0,VALID,0,0,0,0,0,1,0,0,0,0,0,0,0,0,0,0,0,0,0,0,94.9,417.99,2,0,0.1,0.1,139,11.54,0.1,0.06,11.84,FLYING,CF1-H,0:/Integrated Flight Computer/aircraft/cf1_h_cfg.ks (inferred preloaded)
12.1,APPROACH,ILS_TRACK,70.77,73,2.23,1115.24,-4.11,5.45,8.46,270.41,0.01,0.4064,0,20,1,0.6,4.5,0.75,0.35,0.0168,0.4,270.43,-2.829,0,1,-3.32,0,0,-2.83,270.42,0.8866,0.0076,0.4624,-2.83,270.43,-0.67,-0.47,19.955,0.032,0.171,1,3,1166.29,-0.038,-2.829,1115.79,0,0,0,270.38,0,0,0,0,0,0,0,0,0,0,0,0,0,2,2,0,0,VALID,0,0,0,0,0,1,0,0,0,0,0,0,0,0,0,0,0,0,0,0,96.14,418,2,0,0.08,0.08,142,11.54,0.1,0.08,12.1,FLYING,CF1-H,0:/Integrated Flight Computer/aircraft/cf1_h_cfg.ks (inferred preloaded)
12.36,APPROACH,ILS_TRACK,70.84,73,2.16,1114.16,-4.11,5.42,8.43,270.41,0.009,0.3927,0,20,1,0.6,4.5,0.75,0.35,0.0168,0.4,270.42,-2.827,0,1,-3.32,0,0,-2.82,270.43,0.8866,0.0074,0.4624,-2.83,270.42,-0.67,-0.48,19.935,0.022,0.173,1,3,1166.29,-0.037,-2.827,1114.72,0,0,0,270.38,0,0,0,0,0,0,0,0,0,0,0,0,0,2,2,0,0,VALID,0,0,0,0,0,1,0,0,0,0,0,0,0,0,0,0,0,0,0,0,97.26,418.01,2,0,0.1,0.1,145,11.54,0.1,0.06,12.36,FLYING,CF1-H,0:/Integrated Flight Computer/aircraft/cf1_h_cfg.ks (inferred preloaded)
12.62,APPROACH,ILS_TRACK,70.92,73,2.08,1113.09,-4.1,5.39,8.39,270.41,0.008,0.3793,0,20,1,0.6,4.5,0.75,0.35,0.0168,0.4,270.42,-2.834,0,1,-3.31,0,0,-2.83,270.43,0.8867,0.0073,0.4623,-2.83,270.42,-0.66,-0.48,19.914,0.018,0.166,1,3,1166.29,-0.025,-2.834,1113.66,0,0,0,270.38,0,0,0,0,0,0,0,0,0,0,0,0,0,2,2,0,0,VALID,0,0,0,0,0,1,0,0,0,0,0,0,0,0,0,0,0,0,0,0,98.28,418.01,2,0,0.08,0.08,148,11.54,0.1,0.08,12.62,FLYING,CF1-H,0:/Integrated Flight Computer/aircraft/cf1_h_cfg.ks (inferred preloaded)
12.88,APPROACH,ILS_TRACK,71.01,73,1.99,1112.02,-4.1,5.37,8.36,270.41,0.008,0.3661,0,20,1,0.6,4.5,0.75,0.35,0.0168,0.4,270.42,-2.837,0,1,-3.3,0,0,-2.84,270.42,0.8867,0.0074,0.4622,-2.84,270.42,-0.66,-0.49,19.894,0.02,0.163,1,3,1166.29,-0.02,-2.837,1112.6,0,0,0,270.38,0,0,0,0,0,0,0,0,0,0,0,0,0,2,2,0,0,VALID,0,0,0,0,0,1,0,0,0,0,0,0,0,0,0,0,0,0,0,0,99.2,418.01,2,0,0.1,0.1,151,11.54,0.1,0.06,12.88,FLYING,CF1-H,0:/Integrated Flight Computer/aircraft/cf1_h_cfg.ks (inferred preloaded)
13.14,APPROACH,ILS_TRACK,71.1,73,1.9,1110.95,-4.1,5.33,8.32,270.41,0.008,0.3532,0,20,1,0.6,4.5,0.75,0.35,0.0168,0.4,270.43,-2.836,0,1,-3.3,0,0,-2.84,270.43,0.8868,0.0075,0.4622,-2.84,270.43,-0.66,-0.49,19.874,0.028,0.164,1,3,1166.29,-0.019,-2.836,1111.53,0,0,0,270.38,0,0,0,0,0,0,0,0,0,0,0,0,0,2,2,0,0,VALID,0,0,0,0,0,1,0,0,0,0,0,0,0,0,0,0,0,0,0,0,100.02,418,2,0,0.08,0.08,154,11.54,0.1,0.08,13.14,FLYING,CF1-H,0:/Integrated Flight Computer/aircraft/cf1_h_cfg.ks (inferred preloaded)
13.4,APPROACH,ILS_TRACK,71.2,73,1.8,1109.88,-4.09,5.29,8.27,270.41,0.007,0.3406,0,20,1,0.6,4.5,0.75,0.35,0.0168,0.4,270.43,-2.839,0,1,-3.29,0,0,-2.84,270.42,0.8868,0.0075,0.4621,-2.84,270.43,-0.66,-0.5,19.853,0.029,0.161,1,3,1166.29,-0.014,-2.839,1110.46,0,0,0,270.38,0,0,0,0,0,0,0,0,0,0,0,0,0,2,2,0,0,VALID,0,0,0,0,0,1,0,0,0,0,0,0,0,0,0,0,0,0,0,0,100.74,418,2,0,0.1,0.1,157,11.54,0.1,0.06,13.4,FLYING,CF1-H,0:/Integrated Flight Computer/aircraft/cf1_h_cfg.ks (inferred preloaded)
13.66,APPROACH,ILS_TRACK,71.3,73,1.7,1108.81,-4.09,5.26,8.24,270.41,0.007,0.3282,0,20,1,0.6,4.5,0.75,0.35,0.0168,0.4,270.43,-2.855,0,1,-3.29,0,0,-2.84,270.42,0.8869,0.0075,0.4618,-2.85,270.43,-0.65,-0.5,19.833,0.028,0.145,1,3,1166.29,0.005,-2.855,1109.39,0,0,0,270.38,0,0,0,0,0,0,0,0,0,0,0,0,0,2,2,0,0,VALID,0,0,0,0,0,1,0,0,0,0,0,0,0,0,0,0,0,0,0,0,101.37,417.99,2,0,0.08,0.08,160,11.54,0.1,0.08,13.66,FLYING,CF1-H,0:/Integrated Flight Computer/aircraft/cf1_h_cfg.ks (inferred preloaded)
13.92,APPROACH,ILS_TRACK,71.4,73,1.6,1107.74,-4.09,5.22,8.2,270.41,0.007,0.316,0,20,1,0.6,4.5,0.75,0.35,0.0168,0.4,270.43,-2.858,0,1,-3.28,0,0,-2.84,270.42,0.887,0.0075,0.4618,-2.86,270.43,-0.65,-0.5,19.812,0.029,0.142,1,3,1166.29,0.009,-2.858,1108.32,0,0,0,270.38,0,0,0,0,0,0,0,0,0,0,0,0,0,2,2,0,0,VALID,0,0,0,0,0,1,0,0,0,0,0,0,0,0,0,0,0,0,0,0,101.91,417.98,2,0,0.1,0.1,163,11.54,0.1,0.06,13.92,FLYING,CF1-H,0:/Integrated Flight Computer/aircraft/cf1_h_cfg.ks (inferred preloaded)
14.18,APPROACH,ILS_TRACK,71.5,73,1.5,1106.68,-4.09,5.19,8.16,270.41,0.006,0.3042,0,20,1,0.6,4.5,0.75,0.35,0.0168,0.4,270.43,-2.872,0,1,-3.28,0,0,-2.86,270.41,0.8871,0.0075,0.4615,-2.87,270.43,-0.65,-0.49,19.792,0.029,0.128,1,3,1166.29,0.025,-2.872,1107.25,0,0,0,270.38,0,0,0,0,0,0,0,0,0,0,0,0,0,2,2,0,0,VALID,0,0,0,0,0,1,0,0,0,0,0,0,0,0,0,0,0,0,0,0,102.36,417.96,2,0,0.08,0.08,166,11.54,0.1,0.08,14.18,FLYING,CF1-H,0:/Integrated Flight Computer/aircraft/cf1_h_cfg.ks (inferred preloaded)
14.44,APPROACH,ILS_TRACK,71.61,73,1.39,1105.61,-4.09,5.16,8.12,270.41,0.006,0.2929,0,20,1,0.6,4.5,0.75,0.35,0.0168,0.4,270.42,-2.872,0,1,-3.27,0,0,-2.87,270.43,0.8871,0.0074,0.4615,-2.87,270.42,-0.65,-0.49,19.771,0.022,0.128,1,3,1166.29,0.023,-2.872,1106.18,0,0,0,270.38,0,0,0,0,0,0,0,0,0,0,0,0,0,2,2,0,0,VALID,0,0,0,0,0,1,0,0,0,0,0,0,0,0,0,0,0,0,0,0,102.72,417.95,2,0,0.1,0.1,169,11.54,0.1,0.06,14.44,FLYING,CF1-H,0:/Integrated Flight Computer/aircraft/cf1_h_cfg.ks (inferred preloaded)
14.7,APPROACH,ILS_TRACK,71.72,73,1.28,1104.54,-4.09,5.12,8.08,270.41,0.006,0.2821,0,20,1,0.6,4.5,0.75,0.35,0.0168,0.4,270.43,-2.871,0,1,-3.26,0,0,-2.88,270.42,0.8871,0.0075,0.4615,-2.87,270.43,-0.64,-0.48,19.751,0.028,0.129,1,3,1166.29,0.02,-2.871,1105.1,0,0,0,270.38,0,0,0,0,0,0,0,0,0,0,0,0,0,2,2,0,0,VALID,0,0,0,0,0,1,0,0,0,0,0,0,0,0,0,0,0,0,0,0,103.01,417.93,2,0,0.08,0.08,172,11.54,0.1,0.08,14.7,FLYING,CF1-H,0:/Integrated Flight Computer/aircraft/cf1_h_cfg.ks (inferred preloaded)
14.96,APPROACH,ILS_TRACK,71.83,73,1.17,1103.47,-4.09,5.08,8.03,270.41,0.005,0.2716,0,20,1,0.6,4.5,0.75,0.35,0.0168,0.4,270.42,-2.878,0,1,-3.26,0,0,-2.88,270.42,0.8872,0.0073,0.4613,-2.88,270.42,-0.64,-0.47,19.73,0.017,0.122,1,3,1166.29,0.026,-2.878,1104.03,0,0,0,270.38,0,0,0,0,0,0,0,0,0,0,0,0,0,2,2,0,0,VALID,0,0,0,0,0,1,0,0,0,0,0,0,0,0,0,0,0,0,0,0,103.23,417.92,2,0,0.1,0.1,175,11.54,0.1,0.06,14.96,FLYING,CF1-H,0:/Integrated Flight Computer/aircraft/cf1_h_cfg.ks (inferred preloaded)
15.22,APPROACH,ILS_TRACK,71.94,73,1.06,1102.4,-4.09,5.05,7.99,270.41,0.005,0.2613,0,20,1,0.6,4.5,0.75,0.35,0.0168,0.4,270.43,-2.895,0,1,-3.25,0,0,-2.89,270.42,0.8874,0.0075,0.461,-2.9,270.43,-0.64,-0.46,19.71,0.029,0.105,1,3,1166.29,0.043,-2.895,1102.95,0,0,0,270.38,0,0,0,0,0,0,0,0,0,0,0,0,0,2,2,0,0,VALID,0,0,0,0,0,1,0,0,0,0,0,0,0,0,0,0,0,0,0,0,103.37,417.9,2,0,0.08,0.08,178,11.54,0.1,0.08,15.22,FLYING,CF1-H,0:/Integrated Flight Computer/aircraft/cf1_h_cfg.ks (inferred preloaded)
15.48,APPROACH,ILS_TRACK,72.05,73,0.95,1101.33,-4.08,5.01,7.95,270.41,0.005,0.2513,0,20,1,0.6,4.5,0.75,0.35,0.0168,0.4,270.43,-2.905,0,1,-3.24,0,0,-2.89,270.42,0.8875,0.0075,0.4608,-2.91,270.43,-0.63,-0.45,19.689,0.027,0.095,1,3,1166.29,0.052,-2.905,1101.87,0,0,0,270.38,0,0,0,0,0,0,0,0,0,0,0,0,0,2,2,0,0,VALID,0,0,0,0,0,1,0,0,0,0,0,0,0,0,0,0,0,0,0,0,103.44,417.88,2,0,0.1,0.1,181,11.54,0.1,0.06,15.48,FLYING,CF1-H,0:/Integrated Flight Computer/aircraft/cf1_h_cfg.ks (inferred preloaded)
15.74,APPROACH,ILS_TRACK,72.17,73,0.83,1100.26,-4.08,4.97,7.91,270.41,0.004,0.2418,0,20,1,0.6,4.5,0.75,0.35,0.0168,0.4,270.41,-2.906,0,1,-3.24,0,0,-2.91,270.42,0.8875,0.0073,0.4608,-2.91,270.41,-0.63,-0.44,19.669,0.014,0.094,1,3,1166.29,0.048,-2.906,1100.79,0,0,0,270.38,0,0,0,0,0,0,0,0,0,0,0,0,0,2,2,0,0,VALID,0,0,0,0,0,1,0,0,0,0,0,0,0,0,0,0,0,0,0,0,103.44,417.86,2,0,0.08,0.08,184,11.54,0.1,0.08,15.74,FLYING,CF1-H,0:/Integrated Flight Computer/aircraft/cf1_h_cfg.ks (inferred preloaded)
16,APPROACH,ILS_TRACK,72.28,73,0.72,1099.19,-4.09,4.93,7.86,270.41,0.004,0.2326,0,20,1,0.6,4.5,0.75,0.35,0.0168,0.4,270.42,-2.91,0,1,-3.24,0,0,-2.92,270.44,0.8875,0.0074,0.4607,-2.91,270.42,-0.63,-0.43,19.648,0.022,0.09,1,3,1166.29,0.048,-2.91,1099.7,0,0,0,270.38,0,0,0,0,0,0,0,0,0,0,0,0,0,2,2,0,0,VALID,0,0,0,0,0,1,0,0,0,0,0,0,0,0,0,0,0,0,0,0,103.24,417.84,2,0,0.1,0.1,187,11.54,0.1,0.06,16,FLYING,CF1-H,0:/Integrated Flight Computer/aircraft/cf1_h_cfg.ks (inferred preloaded)
16.26,APPROACH,ILS_TRACK,72.4,73,0.6,1098.12,-4.1,4.89,7.83,270.41,0.003,0.2243,0,20,1,0.6,4.5,0.75,0.35,0.0168,0.4,270.42,-2.921,0,1,-3.24,0,0,-2.92,270.42,0.8876,0.0074,0.4605,-2.92,270.42,-0.62,-0.41,19.627,0.022,0.079,1,3,1166.29,0.056,-2.921,1098.62,0,0,0,270.38,0,0,0,0,0,0,0,0,0,0,0,0,0,2,2,0,0,VALID,0,0,0,0,0,1,0,0,0,0,0,0,0,0,0,0,0,0,0,0,102.81,417.82,2,0,0.08,0.08,190,11.54,0.1,0.08,16.26,FLYING,CF1-H,0:/Integrated Flight Computer/aircraft/cf1_h_cfg.ks (inferred preloaded)
16.52,APPROACH,ILS_TRACK,72.51,73,0.49,1097.06,-4.1,4.86,7.8,270.41,0.003,0.2174,0,20,1,0.6,4.5,0.75,0.35,0.0168,0.4,270.42,-2.935,0,1,-3.23,0,0,-2.93,270.41,0.8878,0.0074,0.4603,-2.93,270.42,-0.62,-0.39,19.606,0.021,0.065,1,3,1166.29,0.067,-2.935,1097.53,0,0,0,270.38,0,0,0,0,0,0,0,0,0,0,0,0,0,2,2,0,0,VALID,0,0,0,0,0,1,0,0,0,0,0,0,0,0,0,0,0,0,0,0,102.2,417.8,2,0,0.1,0.1,193,11.54,0.1,0.06,16.52,FLYING,CF1-H,0:/Integrated Flight Computer/aircraft/cf1_h_cfg.ks (inferred preloaded)
16.78,APPROACH,ILS_TRACK,72.62,73,0.38,1095.99,-4.1,4.83,7.76,270.41,0.003,0.2117,0,20,1,0.6,4.5,0.75,0.35,0.0168,0.4,270.41,-2.942,0,1,-3.23,0,0,-2.94,270.42,0.8878,0.0073,0.4601,-2.94,270.41,-0.62,-0.38,19.586,0.014,0.058,1,3,1166.29,0.069,-2.942,1096.44,0,0,0,270.38,0,0,0,0,0,0,0,0,0,0,0,0,0,2,2,0,0,VALID,0,0,0,0,0,1,0,0,0,0,0,0,0,0,0,0,0,0,0,0,101.46,417.78,2,0,0.08,0.08,196,11.54,0.1,0.08,16.78,FLYING,CF1-H,0:/Integrated Flight Computer/aircraft/cf1_h_cfg.ks (inferred preloaded)
17.04,APPROACH,ILS_TRACK,72.73,73,0.27,1094.91,-4.1,4.8,7.72,270.41,0.002,0.2072,0,20,1,0.6,4.5,0.75,0.35,0.0168,0.4,270.41,-2.954,0,1,-3.23,0,0,-2.95,270.42,0.8879,0.0073,0.4599,-2.95,270.41,-0.62,-0.36,19.565,0.015,0.046,1,3,1166.29,0.077,-2.954,1095.36,0,0,0,270.38,0,0,0,0,0,0,0,0,0,0,0,0,0,2,2,0,0,VALID,0,0,0,0,0,1,0,0,0,0,0,0,0,0,0,0,0,0,0,0,100.61,417.77,2,0,0.1,0.1,199,11.54,0.1,0.06,17.04,FLYING,CF1-H,0:/Integrated Flight Computer/aircraft/cf1_h_cfg.ks (inferred preloaded)
17.3,APPROACH,ILS_TRACK,72.83,73,0.17,1093.84,-4.1,4.76,7.69,270.41,0.002,0.2036,0,20,1,0.6,4.5,0.75,0.35,0.0168,0.4,270.42,-2.953,0,1,-3.22,0,0,-2.96,270.42,0.8879,0.0074,0.4599,-2.95,270.42,-0.61,-0.34,19.544,0.024,0.047,1,3,1166.29,0.068,-2.953,1094.26,0,0,0,270.38,0,0,0,0,0,0,0,0,0,0,0,0,0,2,2,0,0,VALID,0,0,0,0,0,1,0,0,0,0,0,0,0,0,0,0,0,0,0,0,99.7,417.75,2,0,0.08,0.08,202,11.54,0.1,0.08,17.3,FLYING,CF1-H,0:/Integrated Flight Computer/aircraft/cf1_h_cfg.ks (inferred preloaded)
17.56,APPROACH,ILS_TRACK,72.93,73,0.07,1092.77,-4.1,4.74,7.66,270.41,0.002,0.201,0,20,1,0.6,4.5,0.75,0.35,0.0168,0.4,270.42,-2.97,0,1,-3.22,0,0,-2.97,270.43,0.8881,0.0073,0.4596,-2.97,270.42,-0.61,-0.32,19.523,0.017,0.03,1,3,1166.29,0.082,-2.97,1093.17,0,0,0,270.38,0,0,0,0,0,0,0,0,0,0,0,0,0,2,2,0,0,VALID,0,0,0,0,0,1,0,0,0,0,0,0,0,0,0,0,0,0,0,0,98.76,417.74,2,0,0.1,0.1,205,11.54,0.1,0.06,17.56,FLYING,CF1-H,0:/Integrated Flight Computer/aircraft/cf1_h_cfg.ks (inferred preloaded)
17.82,APPROACH,ILS_TRACK,73.03,73,-0.03,1091.7,-4.11,4.71,7.63,270.41,0.001,0.1989,0,19.997,1,0.6,4.5,0.75,0.35,0.0168,0.4,270.42,-2.978,0,1,-3.22,0,0,-2.97,270.42,0.8882,0.0073,0.4594,-2.98,270.42,-0.61,-0.3,19.502,0.015,0.022,1,3,1166.29,0.084,-2.978,1092.08,0,0,0,270.38,0,0,0,0,0,0,0,0,0,0,0,0,0,2,2,0,0,VALID,0,0,0,0,0,1,0,0,0,0,0,0,0,0,0,0,0,0,0,0,97.82,417.74,2,0,0.08,0.08,208,11.54,0.1,0.08,17.82,FLYING,CF1-H,0:/Integrated Flight Computer/aircraft/cf1_h_cfg.ks (inferred preloaded)
18.08,APPROACH,ILS_TRACK,73.12,73,-0.12,1090.63,-4.11,4.68,7.6,270.41,0.001,0.1969,0,19.973,1,0.6,4.5,0.75,0.35,0.0168,0.4,270.42,-2.985,0,1,-3.22,0,0,-2.98,270.41,0.8883,0.0074,0.4593,-2.99,270.42,-0.61,-0.27,19.482,0.022,0.015,1,3,1166.29,0.084,-2.985,1090.98,0,0,0,270.38,0,0,0,0,0,0,0,0,0,0,0,0,0,2,2,0,0,VALID,0,0,0,0,0,1,0,0,0,0,0,0,0,0,0,0,0,0,0,0,96.88,417.73,2,0,0.1,0.1,211,11.54,0.1,0.06,18.08,FLYING,CF1-H,0:/Integrated Flight Computer/aircraft/cf1_h_cfg.ks (inferred preloaded)
18.34,APPROACH,ILS_TRACK,73.21,73,-0.21,1089.56,-4.11,4.67,7.58,270.41,0.001,0.195,0,19.925,1,0.6,4.5,0.75,0.35,0.0168,0.4,270.42,-3.001,0,1,-3.22,0,0,-3,270.42,0.8884,0.0075,0.459,-3,270.42,-0.61,-0.25,19.461,0.024,-0.001,1,3,1166.29,0.094,-3.001,1089.89,0,0,0,270.38,0,0,0,0,0,0,0,0,0,0,0,0,0,2,2,0,0,VALID,0,0,0,0,0,1,0,0,0,0,0,0,0,0,0,0,0,0,0,0,95.95,417.73,2,0,0.08,0.08,214,11.54,0.1,0.08,18.34,FLYING,CF1-H,0:/Integrated Flight Computer/aircraft/cf1_h_cfg.ks (inferred preloaded)
18.6,APPROACH,ILS_TRACK,73.3,73,-0.3,1088.48,-4.11,4.64,7.56,270.41,0.001,0.1931,0,19.855,1,0.6,4.5,0.75,0.35,0.0168,0.4,270.42,-3.01,0,1,-3.21,0,0,-3.01,270.42,0.8885,0.0074,0.4589,-3.01,270.42,-0.6,-0.22,19.44,0.02,-0.01,1,3,1166.29,0.096,-3.01,1088.79,0,0,0,270.38,0,0,0,0,0,0,0,0,0,0,0,0,0,2,2,0,0,VALID,0,0,0,0,0,1,0,0,0,0,0,0,0,0,0,0,0,0,0,0,95.03,417.73,2,0,0.1,0.1,217,11.54,0.1,0.06,18.6,FLYING,CF1-H,0:/Integrated Flight Computer/aircraft/cf1_h_cfg.ks (inferred preloaded)
18.86,APPROACH,ILS_TRACK,73.38,73,-0.38,1087.41,-4.11,4.62,7.54,270.41,0,0.1911,0,19.763,1,0.6,4.5,0.75,0.35,0.0168,0.4,270.43,-3.021,0,1,-3.21,0,0,-3.02,270.42,0.8886,0.0075,0.4586,-3.02,270.43,-0.6,-0.2,19.419,0.026,-0.021,1,3,1166.29,0.101,-3.021,1087.69,0,0,0,270.38,0,0,0,0,0,0,0,0,0,0,0,0,0,2,2,0,0,VALID,0,0,0,0,0,1,0,0,0,0,0,0,0,0,0,0,0,0,0,0,94.11,417.73,2,0,0.08,0.08,220,11.54,0.1,0.08,18.86,FLYING,CF1-H,0:/Integrated Flight Computer/aircraft/cf1_h_cfg.ks (inferred preloaded)
19.12,APPROACH,ILS_TRACK,73.46,73,-0.46,1086.34,-4.12,4.6,7.51,270.41,0.001,0.1889,0,19.651,1,0.6,4.5,0.75,0.35,0.0168,0.4,270.42,-3.031,0,1,-3.21,0,0,-3.02,270.42,0.8887,0.0074,0.4585,-3.03,270.42,-0.59,-0.17,19.398,0.022,-0.031,1,3,1166.29,0.103,-3.031,1086.59,0,0,0,270.38,0,0,0,0,0,0,0,0,0,0,0,0,0,2,2,0,0,VALID,0,0,0,0,0,1,0,0,0,0,0,0,0,0,0,0,0,0,0,0,93.2,417.74,2,0,0.1,0.1,223,11.54,0.1,0.06,19.12,FLYING,CF1-H,0:/Integrated Flight Computer/aircraft/cf1_h_cfg.ks (inferred preloaded)
19.38,APPROACH,ILS_TRACK,73.53,73,-0.53,1085.26,-4.12,4.58,7.49,270.41,0.001,0.1867,0,19.52,1,0.6,4.5,0.75,0.35,0.0168,0.4,270.43,-3.041,0,1,-3.2,0,0,-3.04,270.42,0.8888,0.0075,0.4583,-3.04,270.43,-0.59,-0.15,19.377,0.025,-0.041,1,3,1166.29,0.105,-3.041,1085.49,0,0,0,270.38,0,0,0,0,0,0,0,0,0,0,0,0,0,2,2,0,0,VALID,0,0,0,0,0,1,0,0,0,0,0,0,0,0,0,0,0,0,0,0,92.29,417.74,2,0,0.08,0.08,226,11.54,0.1,0.08,19.38,FLYING,CF1-H,0:/Integrated Flight Computer/aircraft/cf1_h_cfg.ks (inferred preloaded)
19.64,APPROACH,ILS_TRACK,73.6,73,-0.6,1084.19,-4.12,4.56,7.47,270.41,0.001,0.1844,0,19.369,1,0.6,4.5,0.75,0.35,0.0168,0.4,270.43,-3.05,0,1,-3.2,0,0,-3.04,270.42,0.8889,0.0075,0.4581,-3.05,270.43,-0.59,-0.12,19.356,0.026,-0.05,1,3,1166.29,0.107,-3.05,1084.39,0,0,0,270.38,0,0,0,0,0,0,0,0,0,0,0,0,0,2,2,0,0,VALID,0,0,0,0,0,1,0,0,0,0,0,0,0,0,0,0,0,0,0,0,91.38,417.75,2,0,0.1,0.1,229,11.54,0.1,0.06,19.64,FLYING,CF1-H,0:/Integrated Flight Computer/aircraft/cf1_h_cfg.ks (inferred preloaded)
19.9,APPROACH,ILS_TRACK,73.67,73,-0.67,1083.11,-4.12,4.54,7.45,270.41,0.001,0.1821,0,19.202,1,0.6,4.5,0.75,0.35,0.0168,0.4,270.43,-3.058,0,1,-3.2,0,0,-3.06,270.42,0.8889,0.0075,0.4579,-3.06,270.43,-0.59,-0.09,19.335,0.028,-0.058,1,3,1166.29,0.107,-3.058,1083.29,0,0,0,270.38,0,0,0,0,0,0,0,0,0,0,0,0,0,2,2,0,0,VALID,0,0,0,0,0,1,0,0,0,0,0,0,0,0,0,0,0,0,0,0,90.47,417.77,2,0,0.08,0.08,232,11.54,0.1,0.08,19.9,FLYING,CF1-H,0:/Integrated Flight Computer/aircraft/cf1_h_cfg.ks (inferred preloaded)
20.16,APPROACH,ILS_TRACK,73.73,73,-0.73,1082.04,-4.13,4.53,7.44,270.41,0.001,0.1798,0,19.018,1,0.6,4.5,0.75,0.35,0.0168,0.4,270.42,-3.069,0,1,-3.2,0,0,-3.07,270.43,0.889,0.0073,0.4578,-3.07,270.42,-0.58,-0.06,19.314,0.018,-0.069,1,3,1166.29,0.109,-3.069,1082.18,0,0,0,270.38,0,0,0,0,0,0,0,0,0,0,0,0,0,2,2,0,0,VALID,0,0,0,0,0,1,0,0,0,0,0,0,0,0,0,0,0,0,0,0,89.55,417.78,2,0,0.1,0.1,235,11.54,0.1,0.06,20.16,FLYING,CF1-H,0:/Integrated Flight Computer/aircraft/cf1_h_cfg.ks (inferred preloaded)
20.42,APPROACH,ILS_TRACK,73.79,73,-0.79,1080.96,-4.13,4.51,7.42,270.41,0.001,0.1776,0,18.819,1,0.6,4.5,0.75,0.35,0.0168,0.4,270.42,-3.08,0,1,-3.2,0,0,-3.08,270.42,0.8892,0.0074,0.4575,-3.08,270.42,-0.58,-0.03,19.293,0.022,-0.08,1,3,1166.29,0.113,-3.08,1081.08,0,0,0,270.38,0,0,0,0,0,0,0,0,0,0,0,0,0,2,2,0,0,VALID,0,0,0,0,0,1,0,0,0,0,0,0,0,0,0,0,0,0,0,0,88.64,417.8,2,0,0.08,0.08,238,11.54,0.1,0.08,20.42,FLYING,CF1-H,0:/Integrated Flight Computer/aircraft/cf1_h_cfg.ks (inferred preloaded)
20.68,APPROACH,ILS_TRACK,73.84,73,-0.84,1079.89,-4.13,4.5,7.4,270.41,0.001,0.1754,0,18.605,1,0.6,4.5,0.75,0.35,0.0168,0.4,270.42,-3.088,0,1,-3.2,0,0,-3.09,270.44,0.8892,0.0073,0.4574,-3.09,270.42,-0.58,0,19.271,0.016,-0.088,1,3,1166.29,0.111,-3.088,1079.97,0,0,0,270.38,0,0,0,0,0,0,0,0,0,0,0,0,0,2,2,0,0,VALID,0,0,0,0,0,1,0,0,0,0,0,0,0,0,0,0,0,0,0,0,87.72,417.82,2,0,0.1,0.1,241,11.54,0.1,0.06,20.68,FLYING,CF1-H,0:/Integrated Flight Computer/aircraft/cf1_h_cfg.ks (inferred preloaded)
20.94,APPROACH,ILS_TRACK,73.89,73,-0.89,1078.81,-4.13,4.48,7.39,270.41,0.002,0.1732,0,18.377,1,0.6,4.5,0.75,0.35,0.0168,0.4,270.42,-3.1,0,1,-3.2,0,0,-3.09,270.42,0.8893,0.0073,0.4572,-3.1,270.42,-0.58,0.03,19.25,0.016,-0.1,1,3,1166.29,0.115,-3.1,1078.87,0,0,0,270.38,0,0,0,0,0,0,0,0,0,0,0,0,0,2,2,0,0,VALID,0,0,0,0,0,1,0,0,0,0,0,0,0,0,0,0,0,0,0,0,86.8,417.85,2,0,0.08,0.08,244,11.54,0.1,0.08,20.94,FLYING,CF1-H,0:/Integrated Flight Computer/aircraft/cf1_h_cfg.ks (inferred preloaded)
21.2,APPROACH,ILS_TRACK,73.94,73,-0.94,1077.73,-4.14,4.47,7.38,270.41,0.001,0.1711,0,18.137,1,0.6,4.5,0.75,0.35,0.0168,0.4,270.42,-3.107,0,1,-3.2,0,0,-3.1,270.43,0.8894,0.0074,0.457,-3.11,270.42,-0.57,0.05,19.229,0.02,-0.107,1,3,1166.29,0.113,-3.107,1077.76,0,0,0,270.38,0,0,0,0,0,0,0,0,0,0,0,0,0,2,2,0,0,VALID,0,0,0,0,0,1,0,0,0,0,0,0,0,0,0,0,0,0,0,0,85.89,417.87,2,0,0.1,0.1,247,11.54,0.1,0.06,21.2,FLYING,CF1-H,0:/Integrated Flight Computer/aircraft/cf1_h_cfg.ks (inferred preloaded)
21.46,APPROACH,ILS_TRACK,73.98,73,-0.98,1076.66,-4.14,4.46,7.37,270.41,0.001,0.1691,0,17.886,1,0.6,4.5,0.75,0.35,0.0168,0.4,270.42,-3.113,0,1,-3.2,0,0,-3.11,270.41,0.8895,0.0073,0.4569,-3.11,270.42,-0.57,0.08,19.208,0.017,-0.113,1,3,1166.29,0.109,-3.113,1076.66,0,0,0,270.38,0,0,0,0,0,0,0,0,0,0,0,0,0,2,2,0,0,VALID,0,0,0,0,0,1,0,0,0,0,0,0,0,0,0,0,0,0,0,0,84.98,417.9,2,0,0.08,0.08,250,11.54,0.1,0.08,21.46,FLYING,CF1-H,0:/Integrated Flight Computer/aircraft/cf1_h_cfg.ks (inferred preloaded)
21.72,APPROACH,ILS_TRACK,74.02,73,-1.02,1075.58,-4.14,4.45,7.36,270.41,0.001,0.1672,0,17.624,1,0.6,4.5,0.75,0.35,0.0168,0.4,270.42,-3.124,0,1,-3.2,0,0,-3.12,270.41,0.8896,0.0074,0.4567,-3.12,270.42,-0.57,0.11,19.187,0.022,-0.124,1,3,1166.29,0.113,-3.124,1075.55,0,0,0,270.38,0,0,0,0,0,0,0,0,0,0,0,0,0,2,2,0,0,VALID,0,0,0,0,0,1,0,0,0,0,0,0,0,0,0,0,0,0,0,0,84.07,417.93,2,0,0.1,0.1,253,11.54,0.1,0.06,21.72,FLYING,CF1-H,0:/Integrated Flight Computer/aircraft/cf1_h_cfg.ks (inferred preloaded)
21.98,APPROACH,ILS_TRACK,74.05,73,-1.05,1074.5,-4.14,4.44,7.35,270.41,0.001,0.1655,0,17.353,1,0.6,4.5,0.75,0.35,0.0168,0.4,270.42,-3.132,0,1,-3.2,0,0,-3.13,270.42,0.8897,0.0074,0.4566,-3.13,270.42,-0.57,0.14,19.166,0.019,-0.132,1,3,1166.29,0.111,-3.132,1074.44,0,0,0,270.38,0,0,0,0,0,0,0,0,0,0,0,0,0,2,2,0,0,VALID,0,0,0,0,0,1,0,0,0,0,0,0,0,0,0,0,0,0,0,0,83.18,417.97,2,0,0.08,0.08,256,11.54,0.1,0.08,21.98,FLYING,CF1-H,0:/Integrated Flight Computer/aircraft/cf1_h_cfg.ks (inferred preloaded)
22.24,APPROACH,ILS_TRACK,74.09,73,-1.09,1073.42,-4.15,4.43,7.34,270.41,0.001,0.1637,0,17.074,1,0.6,4.5,0.75,0.35,0.0168,0.4,270.42,-3.14,0,1,-3.2,0,0,-3.14,270.43,0.8897,0.0074,0.4564,-3.14,270.42,-0.56,0.17,19.145,0.02,-0.14,1,3,1166.29,0.111,-3.14,1073.33,0,0,0,270.38,0,0,0,0,0,0,0,0,0,0,0,0,0,2,2,0,0,VALID,0,0,0,0,0,1,0,0,0,0,0,0,0,0,0,0,0,0,0,0,82.29,418.01,2,0,0.1,0.1,259,11.54,0.1,0.06,22.24,FLYING,CF1-H,0:/Integrated Flight Computer/aircraft/cf1_h_cfg.ks (inferred preloaded)
22.5,APPROACH,ILS_TRACK,74.11,73,-1.11,1072.34,-4.15,4.42,7.34,270.41,0.001,0.1622,0,16.787,1,0.6,4.5,0.75,0.35,0.0168,0.4,270.43,-3.148,0,1,-3.21,0,0,-3.15,270.42,0.8898,0.0075,0.4562,-3.15,270.43,-0.56,0.2,19.124,0.025,-0.148,1,3,1166.29,0.11,-3.148,1072.22,0,0,0,270.38,0,0,0,0,0,0,0,0,0,0,0,0,0,2,2,0,0,VALID,0,0,0,0,0,1,0,0,0,0,0,0,0,0,0,0,0,0,0,0,81.42,418.05,2,0,0.08,0.08,262,11.54,0.1,0.08,22.5,FLYING,CF1-H,0:/Integrated Flight Computer/aircraft/cf1_h_cfg.ks (inferred preloaded)
22.76,APPROACH,ILS_TRACK,74.14,73,-1.14,1071.26,-4.15,4.42,7.33,270.41,0.001,0.1607,0,16.493,1,0.6,4.5,0.75,0.35,0.0168,0.4,270.42,-3.156,0,1,-3.21,0,0,-3.15,270.42,0.8899,0.0074,0.4561,-3.16,270.42,-0.56,0.23,19.102,0.019,-0.156,1,3,1166.29,0.109,-3.156,1071.12,0,0,0,270.38,0,0,0,0,0,0,0,0,0,0,0,0,0,2,2,0,0,VALID,0,0,0,0,0,1,0,0,0,0,0,0,0,0,0,0,0,0,0,0,80.56,418.09,2,0,0.1,0.1,265,11.54,0.1,0.06,22.76,FLYING,CF1-H,0:/Integrated Flight Computer/aircraft/cf1_h_cfg.ks (inferred preloaded)
23.02,APPROACH,ILS_TRACK,74.16,73,-1.16,1070.18,-4.16,4.41,7.33,270.41,0.001,0.1594,0,16.194,1,0.6,4.5,0.75,0.35,0.0168,0.4,270.42,-3.166,0,1,-3.21,0,0,-3.16,270.42,0.89,0.0074,0.4559,-3.17,270.42,-0.56,0.26,19.081,0.023,-0.166,1,3,1166.29,0.111,-3.166,1070.01,0,0,0,270.38,0,0,0,0,0,0,0,0,0,0,0,0,0,2,2,0,0,VALID,0,0,0,0,0,1,0,0,0,0,0,0,0,0,0,0,0,0,0,0,79.72,418.13,2,0,0.08,0.08,268,11.54,0.1,0.08,23.02,FLYING,CF1-H,0:/Integrated Flight Computer/aircraft/cf1_h_cfg.ks (inferred preloaded)
23.28,APPROACH,ILS_TRACK,74.17,73,-1.17,1069.1,-4.16,4.41,7.33,270.41,0,0.158,0,15.891,1,0.6,4.5,0.75,0.35,0.0168,0.4,270.42,-3.172,0,1,-3.21,0,0,-3.16,270.41,0.8901,0.0074,0.4558,-3.17,270.42,-0.56,0.28,19.06,0.022,-0.172,1,3,1166.29,0.108,-3.172,1068.9,0,0,0,270.38,0,0,0,0,0,0,0,0,0,0,0,0,0,2,2,0,0,VALID,0,0,0,0,0,1,0,0,0,0,0,0,0,0,0,0,0,0,0,0,78.9,418.18,2,0,0.1,0.1,271,11.54,0.1,0.06,23.28,FLYING,CF1-H,0:/Integrated Flight Computer/aircraft/cf1_h_cfg.ks (inferred preloaded)
23.54,APPROACH,ILS_TRACK,74.18,73,-1.18,1068.02,-4.16,4.4,7.32,270.41,0,0.1568,0,15.584,1,0.6,4.5,0.75,0.35,0.0168,0.4,270.42,-3.175,0,1,-3.21,0,0,-3.18,270.43,0.8901,0.0074,0.4557,-3.17,270.42,-0.55,0.31,19.039,0.018,-0.175,1,3,1166.29,0.102,-3.175,1067.79,0,0,0,270.38,0,0,0,0,0,0,0,0,0,0,0,0,0,2,2,0,0,VALID,0,0,0,0,0,1,0,0,0,0,0,0,0,0,0,0,0,0,0,0,78.1,418.23,2,0,0.08,0.08,274,11.54,0.1,0.08,23.54,FLYING,CF1-H,0:/Integrated Flight Computer/aircraft/cf1_h_cfg.ks (inferred preloaded)
23.8,APPROACH,ILS_TRACK,74.19,73,-1.19,1066.93,-4.17,4.4,7.32,270.41,0,0.1558,0,15.274,1,0.6,4.5,0.75,0.35,0.0168,0.4,270.42,-3.181,0,1,-3.21,0,0,-3.18,270.42,0.8902,0.0073,0.4556,-3.18,270.42,-0.55,0.34,19.018,0.016,-0.181,1,3,1166.29,0.1,-3.181,1066.68,0,0,0,270.38,0,0,0,0,0,0,0,0,0,0,0,0,0,2,2,0,0,VALID,0,0,0,0,0,1,0,0,0,0,0,0,0,0,0,0,0,0,0,0,77.31,418.28,2,0,0.1,0.1,277,11.54,0.1,0.06,23.8,FLYING,CF1-H,0:/Integrated Flight Computer/aircraft/cf1_h_cfg.ks (inferred preloaded)
24.06,APPROACH,ILS_TRACK,74.2,73,-1.2,1065.85,-4.17,4.4,7.32,270.41,0,0.1549,0,14.963,1,0.6,4.5,0.75,0.35,0.0168,0.4,270.41,-3.188,0,1,-3.21,0,0,-3.19,270.43,0.8902,0.0072,0.4554,-3.19,270.41,-0.55,0.36,18.997,0.01,-0.188,1,3,1166.29,0.098,-3.188,1065.57,0,0,0,270.38,0,0,0,0,0,0,0,0,0,0,0,0,0,2,2,0,0,VALID,0,0,0,0,0,1,0,0,0,0,0,0,0,0,0,0,0,0,0,0,76.55,418.34,2,0,0.08,0.08,280,11.54,0.1,0.08,24.06,FLYING,CF1-H,0:/Integrated Flight Computer/aircraft/cf1_h_cfg.ks (inferred preloaded)
24.32,APPROACH,ILS_TRACK,74.2,73,-1.2,1064.76,-4.17,4.4,7.33,270.41,0.001,0.154,0,14.65,1,0.6,4.5,0.75,0.35,0.0168,0.4,270.41,-3.194,0,1,-3.22,0,0,-3.19,270.42,0.8903,0.0073,0.4553,-3.19,270.41,-0.54,0.39,18.975,0.013,-0.194,1,3,1166.29,0.097,-3.194,1064.46,0,0,0,270.38,0,0,0,0,0,0,0,0,0,0,0,0,0,2,2,0,0,VALID,0,0,0,0,0,1,0,0,0,0,0,0,0,0,0,0,0,0,0,0,75.82,418.39,2,0,0.1,0.1,283,11.54,0.1,0.06,24.32,FLYING,CF1-H,0:/Integrated Flight Computer/aircraft/cf1_h_cfg.ks (inferred preloaded)
24.58,APPROACH,ILS_TRACK,74.2,73,-1.2,1063.68,-4.18,4.4,7.33,270.41,0.001,0.1533,0,14.338,1,0.6,4.5,0.75,0.35,0.0168,0.4,270.42,-3.197,0,1,-3.22,0,0,-3.2,270.42,0.8903,0.0073,0.4552,-3.2,270.42,-0.54,0.41,18.954,0.016,-0.197,1,3,1166.29,0.091,-3.197,1063.35,0,0,0,270.38,0,0,0,0,0,0,0,0,0,0,0,0,0,2,2,0,0,VALID,0,0,0,0,0,1,0,0,0,0,0,0,0,0,0,0,0,0,0,0,75.11,418.45,2,0,0.08,0.08,286,11.54,0.1,0.08,24.58,FLYING,CF1-H,0:/Integrated Flight Computer/aircraft/cf1_h_cfg.ks (inferred preloaded)
24.84,APPROACH,ILS_TRACK,74.2,73,-1.2,1062.59,-4.18,4.4,7.33,270.41,0.001,0.1527,0,14.026,1,0.6,4.5,0.75,0.35,0.0168,0.4,270.42,-3.202,0,1,-3.22,0,0,-3.2,270.43,0.8904,0.0074,0.4551,-3.2,270.42,-0.54,0.44,18.933,0.021,-0.202,1,3,1166.29,0.089,-3.202,1062.24,0,0,0,270.38,0,0,0,0,0,0,0,0,0,0,0,0,0,2,2,0,0,VALID,0,0,0,0,0,1,0,0,0,0,0,0,0,0,0,0,0,0,0,0,74.43,418.51,2,0,0.1,0.1,289,11.54,0.1,0.06,24.84,FLYING,CF1-H,0:/Integrated Flight Computer/aircraft/cf1_h_cfg.ks (inferred preloaded)
25.1,APPROACH,ILS_TRACK,74.19,73,-1.19,1061.51,-4.18,4.4,7.34,270.41,0.001,0.1522,0,13.715,1,0.6,4.5,0.75,0.35,0.0168,0.4,270.42,-3.205,0,1,-3.23,0,0,-3.21,270.42,0.8904,0.0074,0.455,-3.2,270.42,-0.54,0.46,18.912,0.02,-0.205,1,3,1166.29,0.084,-3.205,1061.13,0,0,0,270.38,0,0,0,0,0,0,0,0,0,0,0,0,0,2,2,0,0,VALID,0,0,0,0,0,1,0,0,0,0,0,0,0,0,0,0,0,0,0,0,73.77,418.58,2,0,0.08,0.08,292,11.54,0.1,0.08,25.1,FLYING,CF1-H,0:/Integrated Flight Computer/aircraft/cf1_h_cfg.ks (inferred preloaded)
25.36,APPROACH,ILS_TRACK,74.18,73,-1.18,1060.42,-4.19,4.41,7.34,270.41,0.001,0.1517,0,13.408,1,0.6,4.5,0.75,0.35,0.0168,0.4,270.42,-3.209,0,1,-3.23,0,0,-3.21,270.42,0.8905,0.0073,0.455,-3.21,270.42,-0.53,0.48,18.891,0.015,-0.209,1,3,1166.29,0.08,-3.209,1060.02,0,0,0,270.38,0,0,0,0,0,0,0,0,0,0,0,0,0,2,2,0,0,VALID,0,0,0,0,0,1,0,0,0,0,0,0,0,0,0,0,0,0,0,0,73.14,418.64,2,0,0.1,0.1,295,11.54,0.1,0.06,25.36,FLYING,CF1-H,0:/Integrated Flight Computer/aircraft/cf1_h_cfg.ks (inferred preloaded)
25.62,APPROACH,ILS_TRACK,74.17,73,-1.17,1059.33,-4.19,4.41,7.35,270.41,0.001,0.1514,0,13.103,1,0.6,4.5,0.75,0.35,0.0168,0.4,270.43,-3.217,0,1,-3.23,0,0,-3.21,270.42,0.8906,0.0075,0.4548,-3.22,270.43,-0.54,0.5,18.87,0.029,-0.217,1,3,1166.29,0.082,-3.217,1058.91,0,0,0,270.38,0,0,0,0,0,0,0,0,0,0,0,0,0,2,2,0,0,VALID,0,0,0,0,0,1,0,0,0,0,0,0,0,0,0,0,0,0,0,0,72.55,418.71,2,0,0.08,0.08,298,11.54,0.1,0.08,25.62,FLYING,CF1-H,0:/Integrated Flight Computer/aircraft/cf1_h_cfg.ks (inferred preloaded)
25.88,APPROACH,ILS_TRACK,74.15,73,-1.15,1058.24,-4.19,4.42,7.36,270.41,0.001,0.1511,0,12.801,1,0.6,4.5,0.75,0.35,0.0168,0.4,270.42,-3.218,0,1,-3.23,0,0,-3.22,270.43,0.8906,0.0073,0.4547,-3.22,270.42,-0.53,0.52,18.848,0.018,-0.218,1,3,1166.29,0.077,-3.218,1057.81,0,0,0,270.38,0,0,0,0,0,0,0,0,0,0,0,0,0,2,2,0,0,VALID,0,0,0,0,0,1,0,0,0,0,0,0,0,0,0,0,0,0,0,0,71.98,418.78,2,0,0.1,0.1,301,11.54,0.1,0.06,25.88,FLYING,CF1-H,0:/Integrated Flight Computer/aircraft/cf1_h_cfg.ks (inferred preloaded)
26.14,APPROACH,ILS_TRACK,74.14,73,-1.14,1057.16,-4.19,4.42,7.37,270.41,0.001,0.151,0,12.505,1,0.6,4.5,0.75,0.35,0.0168,0.4,270.41,-3.22,0,1,-3.24,0,0,-3.22,270.42,0.8906,0.0073,0.4547,-3.22,270.41,-0.53,0.54,18.827,0.014,-0.22,1,3,1166.29,0.072,-3.22,1056.7,0,0,0,270.38,0,0,0,0,0,0,0,0,0,0,0,0,0,2,2,0,0,VALID,0,0,0,0,0,1,0,0,0,0,0,0,0,0,0,0,0,0,0,0,71.44,418.85,2,0,0.08,0.08,304,11.54,0.1,0.08,26.14,FLYING,CF1-H,0:/Integrated Flight Computer/aircraft/cf1_h_cfg.ks (inferred preloaded)
26.4,APPROACH,ILS_TRACK,74.12,73,-1.12,1056.07,-4.2,4.43,7.38,270.41,0,0.1509,0,12.213,1,0.6,4.5,0.75,0.35,0.0168,0.4,270.43,-3.224,0,1,-3.24,0,0,-3.22,270.42,0.8907,0.0075,0.4546,-3.22,270.43,-0.53,0.56,18.806,0.028,-0.224,1,3,1166.29,0.069,-3.224,1055.59,0,0,0,270.38,0,0,0,0,0,0,0,0,0,0,0,0,0,2,2,0,0,VALID,0,0,0,0,0,1,0,0,0,0,0,0,0,0,0,0,0,0,0,0,70.94,418.92,2,0,0.1,0.1,307,11.54,0.1,0.06,26.4,FLYING,CF1-H,0:/Integrated Flight Computer/aircraft/cf1_h_cfg.ks (inferred preloaded)
26.66,APPROACH,ILS_TRACK,74.09,73,-1.09,1054.98,-4.2,4.43,7.39,270.41,0,0.1509,0,11.927,1,0.6,4.5,0.75,0.35,0.0168,0.4,270.42,-3.226,0,1,-3.24,0,0,-3.22,270.42,0.8907,0.0073,0.4545,-3.23,270.42,-0.53,0.58,18.785,0.018,-0.226,1,3,1166.29,0.066,-3.226,1054.48,0,0,0,270.38,0,0,0,0,0,0,0,0,0,0,0,0,0,2,2,0,0,VALID,0,0,0,0,0,1,0,0,0,0,0,0,0,0,0,0,0,0,0,0,70.46,419,2,0,0.08,0.08,310,11.54,0.1,0.08,26.66,FLYING,CF1-H,0:/Integrated Flight Computer/aircraft/cf1_h_cfg.ks (inferred preloaded)
26.92,APPROACH,ILS_TRACK,74.07,73,-1.07,1053.89,-4.2,4.44,7.39,270.41,0,0.151,0,11.647,1,0.6,4.5,0.75,0.35,0.0168,0.4,270.42,-3.228,0,1,-3.24,0,0,-3.22,270.42,0.8907,0.0073,0.4545,-3.23,270.42,-0.52,0.59,18.764,0.017,-0.228,1,3,1166.29,0.063,-3.228,1053.38,0,0,0,270.38,0,0,0,0,0,0,0,0,0,0,0,0,0,2,2,0,0,VALID,0,0,0,0,0,1,0,0,0,0,0,0,0,0,0,0,0,0,0,0,70.02,419.07,2,0,0.1,0.1,313,11.54,0.1,0.06,26.92,FLYING,CF1-H,0:/Integrated Flight Computer/aircraft/cf1_h_cfg.ks (inferred preloaded)
27.18,APPROACH,ILS_TRACK,74.04,73,-1.04,1052.8,-4.2,4.45,7.4,270.41,0,0.1512,0,11.374,1,0.6,4.5,0.75,0.35,0.0168,0.4,270.42,-3.229,0,1,-3.25,0,0,-3.23,270.41,0.8908,0.0074,0.4544,-3.23,270.42,-0.52,0.61,18.743,0.021,-0.229,1,3,1166.29,0.058,-3.229,1052.27,0,0,0,270.38,0,0,0,0,0,0,0,0,0,0,0,0,0,2,2,0,0,VALID,0,0,0,0,0,1,0,0,0,0,0,0,0,0,0,0,0,0,0,0,69.61,419.15,2,0,0.08,0.08,316,11.54,0.1,0.08,27.18,FLYING,CF1-H,0:/Integrated Flight Computer/aircraft/cf1_h_cfg.ks (inferred preloaded)
27.44,APPROACH,ILS_TRACK,74.01,73,-1.01,1051.7,-4.2,4.46,7.42,270.41,-0.001,0.1515,0,11.108,1,0.6,4.5,0.75,0.35,0.0168,0.4,270.42,-3.234,0,1,-3.25,0,0,-3.22,270.42,0.8908,0.0073,0.4543,-3.23,270.42,-0.52,0.62,18.722,0.017,-0.234,1,3,1166.29,0.059,-3.234,1051.16,0,0,0,270.38,0,0,0,0,0,0,0,0,0,0,0,0,0,2,2,0,0,VALID,0,0,0,0,0,1,0,0,0,0,0,0,0,0,0,0,0,0,0,0,69.23,419.23,2,0,0.1,0.1,319,11.54,0.1,0.06,27.44,FLYING,CF1-H,0:/Integrated Flight Computer/aircraft/cf1_h_cfg.ks (inferred preloaded)
27.7,APPROACH,ILS_TRACK,73.98,73,-0.98,1050.61,-4.21,4.47,7.43,270.41,-0.001,0.1518,0,10.85,1,0.6,4.5,0.75,0.35,0.0168,0.4,270.43,-3.232,0,1,-3.25,0,0,-3.23,270.41,0.8908,0.0075,0.4543,-3.23,270.43,-0.52,0.64,18.701,0.028,-0.232,1,3,1166.29,0.051,-3.232,1050.06,0,0,0,270.38,0,0,0,0,0,0,0,0,0,0,0,0,0,2,2,0,0,VALID,0,0,0,0,0,1,0,0,0,0,0,0,0,0,0,0,0,0,0,0,68.89,419.31,2,0,0.08,0.08,322,11.54,0.1,0.08,27.7,FLYING,CF1-H,0:/Integrated Flight Computer/aircraft/cf1_h_cfg.ks (inferred preloaded)
27.96,APPROACH,ILS_TRACK,73.95,73,-0.95,1049.52,-4.21,4.47,7.44,270.41,0,0.1523,0,10.6,1,0.6,4.5,0.75,0.35,0.0168,0.4,270.42,-3.23,0,1,-3.26,0,0,-3.23,270.42,0.8908,0.0074,0.4543,-3.23,270.42,-0.52,0.65,18.68,0.022,-0.23,1,3,1166.29,0.043,-3.23,1048.95,0,0,0,270.38,0,0,0,0,0,0,0,0,0,0,0,0,0,2,2,0,0,VALID,0,0,0,0,0,1,0,0,0,0,0,0,0,0,0,0,0,0,0,0,68.57,419.39,2,0,0.1,0.1,325,11.54,0.1,0.06,27.96,FLYING,CF1-H,0:/Integrated Flight Computer/aircraft/cf1_h_cfg.ks (inferred preloaded)
28.22,APPROACH,ILS_TRACK,73.92,73,-0.92,1048.43,-4.21,4.49,7.45,270.41,0,0.1528,0,10.359,1,0.6,4.5,0.75,0.35,0.0168,0.4,270.41,-3.234,0,1,-3.26,0,0,-3.23,270.42,0.8909,0.0073,0.4542,-3.23,270.41,-0.51,0.66,18.658,0.013,-0.234,1,3,1166.29,0.044,-3.234,1047.85,0,0,0,270.38,0,0,0,0,0,0,0,0,0,0,0,0,0,2,2,0,0,VALID,0,0,0,0,0,1,0,0,0,0,0,0,0,0,0,0,0,0,0,0,68.29,419.47,2,0,0.08,0.08,328,11.54,0.1,0.08,28.22,FLYING,CF1-H,0:/Integrated Flight Computer/aircraft/cf1_h_cfg.ks (inferred preloaded)
28.48,APPROACH,ILS_TRACK,73.88,73,-0.88,1047.33,-4.21,4.5,7.47,270.41,0,0.1533,0,10.127,1,0.6,4.5,0.75,0.35,0.0168,0.4,270.43,-3.235,0,1,-3.26,0,0,-3.23,270.42,0.8909,0.0075,0.4542,-3.24,270.43,-0.52,0.67,18.637,0.027,-0.235,1,3,1166.29,0.042,-3.235,1046.75,0,0,0,270.38,0,0,0,0,0,0,0,0,0,0,0,0,0,2,2,0,0,VALID,0,0,0,0,0,1,0,0,0,0,0,0,0,0,0,0,0,0,0,0,68.04,419.55,2,0,0.1,0.1,331,11.54,0.1,0.06,28.48,FLYING,CF1-H,0:/Integrated Flight Computer/aircraft/cf1_h_cfg.ks (inferred preloaded)
28.74,APPROACH,ILS_TRACK,73.85,73,-0.85,1046.24,-4.21,4.51,7.48,270.41,-0.001,0.1539,0,9.904,1,0.6,4.5,0.75,0.35,0.0168,0.4,270.41,-3.233,0,1,-3.26,0,0,-3.24,270.42,0.8909,0.0072,0.4542,-3.23,270.41,-0.51,0.68,18.616,0.012,-0.233,1,3,1166.29,0.035,-3.233,1045.64,0,0,0,270.38,0,0,0,0,0,0,0,0,0,0,0,0,0,2,2,0,0,VALID,0,0,0,0,0,1,0,0,0,0,0,0,0,0,0,0,0,0,0,0,67.82,419.63,2,0,0.08,0.08,334,11.54,0.1,0.08,28.74,FLYING,CF1-H,0:/Integrated Flight Computer/aircraft/cf1_h_cfg.ks (inferred preloaded)
29,APPROACH,ILS_TRACK,73.81,73,-0.81,1045.15,-4.21,4.52,7.49,270.41,-0.001,0.1546,0,9.69,1,0.6,4.5,0.75,0.35,0.0168,0.4,270.41,-3.232,0,1,-3.27,0,0,-3.23,270.43,0.8909,0.0072,0.4542,-3.23,270.41,-0.51,0.69,18.595,0.01,-0.232,1,3,1166.29,0.031,-3.232,1044.54,0,0,0,270.38,0,0,0,0,0,0,0,0,0,0,0,0,0,2,2,0,0,VALID,0,0,0,0,0,1,0,0,0,0,0,0,0,0,0,0,0,0,0,0,67.64,419.72,2,0,0.1,0.1,337,11.54,0.1,0.06,29,FLYING,CF1-H,0:/Integrated Flight Computer/aircraft/cf1_h_cfg.ks (inferred preloaded)
29.26,APPROACH,ILS_TRACK,73.77,73,-0.77,1044.05,-4.21,4.53,7.5,270.41,-0.001,0.1552,0,9.487,1,0.6,4.5,0.75,0.35,0.0168,0.4,270.41,-3.229,0,1,-3.27,0,0,-3.23,270.42,0.8909,0.0073,0.4542,-3.23,270.41,-0.51,0.7,18.574,0.015,-0.229,1,3,1166.29,0.024,-3.229,1043.44,0,0,0,270.38,0,0,0,0,0,0,0,0,0,0,0,0,0,2,2,0,0,VALID,0,0,0,0,0,1,0,0,0,0,0,0,0,0,0,0,0,0,0,0,67.48,419.8,2,0,0.08,0.08,340,11.54,0.1,0.08,29.26,FLYING,CF1-H,0:/Integrated Flight Computer/aircraft/cf1_h_cfg.ks (inferred preloaded)
29.52,APPROACH,ILS_TRACK,73.73,73,-0.73,1042.96,-4.22,4.54,7.52,270.41,-0.001,0.156,0,9.293,1,0.6,4.5,0.75,0.35,0.0168,0.4,270.42,-3.234,0,1,-3.27,0,0,-3.23,270.42,0.8909,0.0074,0.4541,-3.23,270.42,-0.51,0.71,18.553,0.022,-0.234,1,3,1166.29,0.028,-3.234,1042.34,0,0,0,270.38,0,0,0,0,0,0,0,0,0,0,0,0,0,2,2,0,0,VALID,0,0,0,0,0,1,0,0,0,0,0,0,0,0,0,0,0,0,0,0,67.35,419.89,2,0,0.1,0.1,343,11.54,0.1,0.06,29.52,FLYING,CF1-H,0:/Integrated Flight Computer/aircraft/cf1_h_cfg.ks (inferred preloaded)
29.78,APPROACH,ILS_TRACK,73.69,73,-0.69,1041.87,-4.22,4.55,7.54,270.41,-0.001,0.1568,0,9.11,1,0.6,4.5,0.75,0.35,0.0168,0.4,270.43,-3.233,0,1,-3.27,0,0,-3.23,270.42,0.8909,0.0075,0.454,-3.23,270.43,-0.51,0.71,18.532,0.026,-0.233,1,3,1166.29,0.024,-3.233,1041.24,0,0,0,270.38,0,0,0,0,0,0,0,0,0,0,0,0,0,2,2,0,0,VALID,0,0,0,0,0,1,0,0,0,0,0,0,0,0,0,0,0,0,0,0,67.25,419.98,2,0,0.08,0.08,346,11.54,0.1,0.08,29.78,FLYING,CF1-H,0:/Integrated Flight Computer/aircraft/cf1_h_cfg.ks (inferred preloaded)
30.04,APPROACH,ILS_TRACK,73.65,73,-0.65,1040.77,-4.21,4.57,7.55,270.41,-0.001,0.1577,0,8.937,1,0.6,4.5,0.75,0.35,0.0168,0.4,270.42,-3.233,0,1,-3.28,0,0,-3.23,270.41,0.891,0.0074,0.454,-3.23,270.42,-0.5,0.72,18.511,0.024,-0.233,1,3,1166.29,0.022,-3.233,1040.14,0,0,0,270.38,0,0,0,0,0,0,0,0,0,0,0,0,0,2,2,0,0,VALID,0,0,0,0,0,1,0,0,0,0,0,0,0,0,0,0,0,0,0,0,67.18,420.06,2,0,0.1,0.1,349,11.54,0.1,0.06,30.04,FLYING,CF1-H,0:/Integrated Flight Computer/aircraft/cf1_h_cfg.ks (inferred preloaded)
30.3,APPROACH,ILS_TRACK,73.61,73,-0.61,1039.68,-4.22,4.58,7.56,270.41,-0.001,0.1586,0,8.775,1,0.6,4.5,0.75,0.35,0.0168,0.4,270.42,-3.234,0,1,-3.28,0,0,-3.23,270.42,0.891,0.0074,0.454,-3.23,270.42,-0.5,0.72,18.49,0.022,-0.234,1,3,1166.29,0.022,-3.234,1039.04,0,0,0,270.38,0,0,0,0,0,0,0,0,0,0,0,0,0,2,2,0,0,VALID,0,0,0,0,0,1,0,0,0,0,0,0,0,0,0,0,0,0,0,0,67.14,420.15,2,0,0.08,0.08,352,11.54,0.1,0.08,30.3,FLYING,CF1-H,0:/Integrated Flight Computer/aircraft/cf1_h_cfg.ks (inferred preloaded)
30.56,APPROACH,ILS_TRACK,73.57,73,-0.57,1038.58,-4.22,4.59,7.58,270.41,-0.002,0.1595,0,8.623,1,0.6,4.5,0.75,0.35,0.0168,0.4,270.42,-3.23,0,1,-3.28,0,0,-3.23,270.42,0.891,0.0074,0.454,-3.23,270.42,-0.5,0.73,18.469,0.021,-0.23,1,3,1166.29,0.015,-3.23,1037.94,0,0,0,270.38,0,0,0,0,0,0,0,0,0,0,0,0,0,2,2,0,0,VALID,0,0,0,0,0,1,0,0,0,0,0,0,0,0,0,0,0,0,0,0,67.13,420.24,2,0,0.1,0.1,355,11.54,0.1,0.06,30.56,FLYING,CF1-H,0:/Integrated Flight Computer/aircraft/cf1_h_cfg.ks (inferred preloaded)
30.82,APPROACH,ILS_TRACK,73.53,73,-0.53,1037.49,-4.22,4.6,7.59,270.41,-0.002,0.1604,0,8.482,1,0.6,4.5,0.75,0.35,0.0168,0.4,270.42,-3.226,0,1,-3.28,0,0,-3.23,270.42,0.891,0.0073,0.454,-3.23,270.42,-0.5,0.73,18.448,0.018,-0.226,1,3,1166.29,0.008,-3.226,1036.84,0,0,0,270.38,0,0,0,0,0,0,0,0,0,0,0,0,0,2,2,0,0,VALID,0,0,0,0,0,1,0,0,0,0,0,0,0,0,0,0,0,0,0,0,67.17,420.32,2,0,0.08,0.08,358,11.54,0.1,0.08,30.82,FLYING,CF1-H,0:/Integrated Flight Computer/aircraft/cf1_h_cfg.ks (inferred preloaded)
31.08,APPROACH,ILS_TRACK,73.49,73,-0.49,1036.39,-4.22,4.61,7.61,270.41,-0.002,0.1613,0,8.352,1,0.6,4.5,0.75,0.35,0.0168,0.4,270.42,-3.227,0,1,-3.28,0,0,-3.23,270.42,0.891,0.0074,0.454,-3.23,270.42,-0.5,0.73,18.428,0.023,-0.227,1,3,1166.29,0.01,-3.227,1035.75,0,0,0,270.38,0,0,0,0,0,0,0,0,0,0,0,0,0,2,2,0,0,VALID,0,0,0,0,0,1,0,0,0,0,0,0,0,0,0,0,0,0,0,0,67.19,420.41,2,0,0.1,0.1,361,11.54,0.1,0.06,31.08,FLYING,CF1-H,0:/Integrated Flight Computer/aircraft/cf1_h_cfg.ks (inferred preloaded)
31.34,APPROACH,ILS_TRACK,73.45,73,-0.45,1035.3,-4.22,4.62,7.62,270.41,-0.002,0.1624,0,8.232,1,0.6,4.5,0.75,0.35,0.0168,0.4,270.42,-3.223,0,1,-3.29,0,0,-3.23,270.42,0.891,0.0074,0.454,-3.22,270.42,-0.5,0.73,18.407,0.022,-0.223,1,3,1166.29,0.004,-3.223,1034.65,0,0,0,270.38,0,0,0,0,0,0,0,0,0,0,0,0,0,2,2,0,0,VALID,0,0,0,0,0,1,0,0,0,0,0,0,0,0,0,0,0,0,0,0,67.21,420.5,2,0,0.08,0.08,364,11.54,0.1,0.08,31.34,FLYING,CF1-H,0:/Integrated Flight Computer/aircraft/cf1_h_cfg.ks (inferred preloaded)
31.6,APPROACH,ILS_TRACK,73.41,73,-0.41,1034.21,-4.22,4.64,7.64,270.41,-0.002,0.1636,0,8.123,1,0.6,4.5,0.75,0.35,0.0168,0.4,270.42,-3.226,0,1,-3.29,0,0,-3.22,270.42,0.891,0.0075,0.4539,-3.23,270.42,-0.5,0.74,18.386,0.024,-0.226,1,3,1166.29,0.006,-3.226,1033.55,0,0,0,270.38,0,0,0,0,0,0,0,0,0,0,0,0,0,2,2,0,0,VALID,0,0,0,0,0,1,0,0,0,0,0,0,0,0,0,0,0,0,0,0,67.24,420.59,2,0,0.1,0.1,367,11.54,0.1,0.06,31.6,FLYING,CF1-H,0:/Integrated Flight Computer/aircraft/cf1_h_cfg.ks (inferred preloaded)
31.86,APPROACH,ILS_TRACK,73.36,73,-0.36,1033.11,-4.22,4.65,7.65,270.4,-0.003,0.1648,0,8.025,1,0.6,4.5,0.75,0.35,0.0168,0.4,270.42,-3.223,0,1,-3.29,0,0,-3.22,270.42,0.891,0.0073,0.4539,-3.22,270.42,-0.49,0.74,18.365,0.018,-0.223,1,3,1166.29,0.003,-3.223,1032.46,0,0,0,270.38,0,0,0,0,0,0,0,0,0,0,0,0,0,2,2,0,0,VALID,0,0,0,0,0,1,0,0,0,0,0,0,0,0,0,0,0,0,0,0,67.28,420.67,2,0,0.08,0.08,370,11.54,0.1,0.08,31.86,FLYING,CF1-H,0:/Integrated Flight Computer/aircraft/cf1_h_cfg.ks (inferred preloaded)
32.12,APPROACH,ILS_TRACK,73.32,73,-0.32,1032.02,-4.22,4.66,7.66,270.4,-0.003,0.1663,0,7.937,1,0.6,4.5,0.75,0.35,0.0168,0.4,270.42,-3.224,0,1,-3.29,0,0,-3.22,270.42,0.891,0.0074,0.4539,-3.22,270.42,-0.49,0.74,18.344,0.021,-0.224,1,3,1166.29,0.003,-3.224,1031.36,0,0,0,270.38,0,0,0,0,0,0,0,0,0,0,0,0,0,2,2,0,0,VALID,0,0,0,0,0,1,0,0,0,0,0,0,0,0,0,0,0,0,0,0,67.33,420.76,2,0,0.1,0.1,373,11.54,0.1,0.06,32.12,FLYING,CF1-H,0:/Integrated Flight Computer/aircraft/cf1_h_cfg.ks (inferred preloaded)
32.38,APPROACH,ILS_TRACK,73.28,73,-0.28,1030.92,-4.22,4.68,7.68,270.4,-0.003,0.1679,0,7.861,1,0.6,4.5,0.75,0.35,0.0168,0.4,270.43,-3.219,0,1,-3.29,0,0,-3.22,270.42,0.891,0.0075,0.4539,-3.22,270.43,-0.49,0.74,18.323,0.026,-0.219,1,3,1166.29,-0.002,-3.219,1030.27,0,0,0,270.38,0,0,0,0,0,0,0,0,0,0,0,0,0,2,2,0,0,VALID,0,0,0,0,0,1,0,0,0,0,0,0,0,0,0,0,0,0,0,0,67.39,420.85,2,0,0.08,0.08,376,11.54,0.1,0.08,32.38,FLYING,CF1-H,0:/Integrated Flight Computer/aircraft/cf1_h_cfg.ks (inferred preloaded)
