t_s,phase,subphase,ias_ms,vapp_ms,spd_err_ms,agl_m,vs_ms,pitch_deg,aoa_deg,hdg_deg,bank_deg,thr_cmd,thr_cur,thr_intg,at_gain,at_tau_s,at_a_up,at_a_dn,at_kp_thr,at_ki_spd,at_thr_slew,aa_hdg_cmd_deg,aa_fpa_cmd_deg,aa_fbw,aa_dir,actual_fpa_deg,ftf_hdg_err_deg,ftf_fix_idx,kos_steer_pit_deg,kos_steer_hdg_deg,aa_dir_vx,aa_dir_vy,aa_dir_vz,aa_dir_pitch_deg,aa_dir_hdg_deg,ils_loc_m,ils_gs_m,ils_dist_km,loc_corr_deg,gs_corr_deg,flare_fpa_cmd,flare_tgt_vs,flare_frac,steer_hdg_deg,steer_blend,ro_loc_corr_deg,ro_hdg_err_deg,ro_yaw_tgt,ro_yaw_scale,ro_yaw_gate,yaw_cmd,roll_cmd,pitch_cmd,ro_pitch_tgt_deg,ro_pitch_err_deg,ro_pitch_ff,ro_roll_assist,flaps_cur,flaps_tgt,asc_j_ab,asc_j_rk,asc_validity,asc_q_pa,asc_q_raw_pa,asc_mach,asc_apo_m,asc_drag_n,asc_w_prop,asc_edot_aero,asc_edot_orb,asc_pitch_bias,asc_blend,asc_spooling,asc_ab_thr_ratio,asc_ab_t_now,asc_ab_t_avail,asc_ab_ign_on,asc_ab_flameouts,asc_rk_t_now,asc_rk_t_avail,asc_rk_ign_on,asc_rk_flameouts,ship_thrust,ship_avail_thrust,ship_ign_on,ship_flameouts,ifc_raw_dt_s,ifc_dt_s,ifc_loop_n,ifc_hz_est,ifc_raw_dt_max_s,ifc_raw_dt_min_s,phase_el_s,status,craft_name,cfg_file
0.12,TAKEOFF,TO_PREFLIGHT,0.23,80,79.77,3.88,0.62,1.12,-73.99,90.46,0.154,0.04,0,0,0,0,0,0,0,0,0,90.4,0,1,0,37.05,0,0,0,90,0,0,0,0,0,0,0,0,0,0,0,0,0,90.4,1,0,0.062,0,0,1,0,0,0,0,0,0,0,0,1,0,0,VALID,0,0,0,0,0,1,0,0,0,0,0,0,0,0,0,0,0,0,0,0,0,521.96,2,0,0.1,0.1,1,3.45,0.1,0.02,0.02,PRELAUNCH,CF1-F,0:/Integrated Flight Computer/aircraft/cf1_f_cfg.ks (inferred preloaded)
0.38,TAKEOFF,TO_PREFLIGHT,0.33,80,79.67,3.98,-0.27,2.03,64.02,90.46,0.089,0.112,0,0,0,0,0,0,0,0,0,90.4,0,1,0,-15.01,0,0,0,90,0,0,0,0,0,0,0,0,0,0,0,0,0,90.4,1,0,0.06,0,0,1,0,0,0,0,0,0,0,1,1,0,0,VALID,0,0,0,0,0,1,0,0,0,0,0,0,0,0,0,0,0,0,0,0,0.35,521.94,2,0,0.04,0.04,6,19.23,0.1,0.04,0.28,PRELAUNCH,CF1-F,0:/Integrated Flight Computer/aircraft/cf1_f_cfg.ks (inferred preloaded)
0.64,TAKEOFF,TO_PREFLIGHT,0.27,80,79.73,3.97,0.09,1.75,-49.62,90.45,0.053,0.216,0,0,0,0,0,0,0,0,0,90.4,0,1,0,5.03,0,0,0,90,0,0,0,0,0,0,0,0,0,0,0,0,0,90.4,1,0,0.06,0,0,1,0,0,0,0,0,0,0,1,1,0,0,VALID,0,0,0,0,0,1,0,0,0,0,0,0,0,0,0,0,0,0,0,0,1.45,521.95,2,0,0.04,0.04,11,19.23,0.08,0.04,0.54,PRELAUNCH,CF1-F,0:/Integrated Flight Computer/aircraft/cf1_f_cfg.ks (inferred preloaded)
0.9,TAKEOFF,TO_PREFLIGHT,0.29,80,79.71,3.75,-0.02,0.73,22.79,90.45,0.076,0.32,0,0,0,0,0,0,0,0,0,90.4,0,1,0,-0.93,0,0,0,90,0,0,0,0,0,0,0,0,0,0,0,0,0,90.4,1,0,0.06,0,0,1,0,0,0,0,0,0,0,1,1,0,0,VALID,0,0,0,0,0,1,0,0,0,0,0,0,0,0,0,0,0,0,0,0,3.38,521.95,2,0,0.04,0.04,16,19.23,0.08,0.04,0.8,PRELAUNCH,CF1-F,0:/Integrated Flight Computer/aircraft/cf1_f_cfg.ks (inferred preloaded)
1.16,TAKEOFF,TO_PREFLIGHT,0.34,80,79.66,3.57,-0.11,-0.41,16.89,90.44,0.132,0.424,0,0,0,0,0,0,0,0,0,90.4,0,1,0,-6.36,0,0,0,90,0,0,0,0,0,0,0,0,0,0,0,0,0,90.4,1,0,0.06,0,0,1,0,0,0,0,0,0,0,1,1,0,0,VALID,0,0,0,0,0,1,0,0,0,0,0,0,0,0,0,0,0,0,0,0,6.11,521.93,2,0,0.04,0.04,21,19.23,0.08,0.04,1.06,PRELAUNCH,CF1-F,0:/Integrated Flight Computer/aircraft/cf1_f_cfg.ks (inferred preloaded)
1.42,TAKEOFF,TO_PREFLIGHT,0.16,80,79.84,3.67,-0.21,0.24,82.58,90.44,0.145,0.528,0,0,0,0,0,0,0,0,0,90.4,0,1,0,-11.9,0,0,0,90,0,0,0,0,0,0,0,0,0,0,0,0,0,90.4,1,0,0.06,0,0,1,0,0,0,0,0,0,0,1,1,0,0,VALID,0,0,0,0,0,1,0,0,0,0,0,0,0,0,0,0,0,0,0,0,9.65,521.98,2,0,0.04,0.04,26,19.23,0.08,0.04,1.32,PRELAUNCH,CF1-F,0:/Integrated Flight Computer/aircraft/cf1_f_cfg.ks (inferred preloaded)
1.68,TAKEOFF,TO_PREFLIGHT,0.19,80,79.81,3.74,-0.07,0.54,-9.53,90.43,0.1,0.632,0,0,0,0,0,0,0,0,0,90.4,0,1,0,-3.74,0,0,0,90,0,0,0,0,0,0,0,0,0,0,0,0,0,90.4,1,0,0.06,0,0,1,0,0,0,0,0,0,0,1,1,0,0,VALID,0,0,0,0,0,1,0,0,0,0,0,0,0,0,0,0,0,0,0,0,13.96,521.97,2,0,0.04,0.04,31,19.23,0.08,0.04,1.58,PRELAUNCH,CF1-F,0:/Integrated Flight Computer/aircraft/cf1_f_cfg.ks (inferred preloaded)
1.94,TAKEOFF,TO_PREFLIGHT,0.06,80,79.94,3.73,0.15,0.56,-77.65,90.42,0.064,0.736,0,0,0,0,0,0,0,0,0,90.4,0,1,0,8.74,0,0,0,90,0,0,0,0,0,0,0,0,0,0,0,0,0,90.4,1,0,0.06,0,0,1,0,0,0,0,0,0,0,1,1,0,0,VALID,0,0,0,0,0,1,0,0,0,0,0,0,0,0,0,0,0,0,0,0,19.06,522,2,0,0.04,0.04,36,19.23,0.08,0.04,1.84,PRELAUNCH,CF1-F,0:/Integrated Flight Computer/aircraft/cf1_f_cfg.ks (inferred preloaded)
2.26,TAKEOFF,TO_PREFLIGHT,0.12,80,79.88,3.66,0.02,0.16,1.74,90.42,0.098,0.864,0,0,0,0,0,0,0,0,0,90.4,0,1,0,1.16,0,0,0,90,0,0,0,0,0,0,0,0,0,0,0,0,0,90.4,1,0,0.06,0,0,1,0,0,0,0,0,0,0,1,1,0,0,VALID,0,0,0,0,0,1,0,0,0,0,0,0,0,0,0,0,0,0,0,0,26.37,521.98,2,0,0.08,0.08,41,15.63,0.08,0.04,2.16,PRELAUNCH,CF1-F,0:/Integrated Flight Computer/aircraft/cf1_f_cfg.ks (inferred preloaded)
2.54,TAKEOFF,TO_PREFLIGHT,0.13,80,79.87,3.61,0.01,-0.1,2.05,90.41,0.139,0.976,0,0,0,0,0,0,0,0,0,90.4,0,1,0,0.44,0,0,0,90,0,0,0,0,0,0,0,0,0,0,0,0,0,90.4,1,0,0.06,0,0,1,0,0,0,0,0,0,0,1,1,0,0,VALID,0,0,0,0,0,1,0,0,0,0,0,0,0,0,0,0,0,0,0,0,33.67,521.98,2,0,0.08,0.08,45,14.29,0.08,0.06,2.44,PRELAUNCH,CF1-F,0:/Integrated Flight Computer/aircraft/cf1_f_cfg.ks (inferred preloaded)
2.82,TAKEOFF,TO_PREFLIGHT,0.06,80,79.94,3.64,-0.02,0.12,37.68,90.41,0.135,1,0,0,0,0,0,0,0,0,0,90.4,0,1,0,-1.09,0,0,0,90,0,0,0,0,0,0,0,0,0,0,0,0,0,90.4,1,0,0.06,0,0,1,0,0,0,0,0,0,0,1,1,0,0,VALID,0,0,0,0,0,1,0,0,0,0,0,0,0,0,0,0,0,0,0,0,41.7,522,2,0,0.08,0.08,49,14.29,0.08,0.06,2.72,PRELAUNCH,CF1-F,0:/Integrated Flight Computer/aircraft/cf1_f_cfg.ks (inferred preloaded)
3.1,TAKEOFF,TO_PREFLIGHT,0.04,80,79.96,3.64,-0.02,0.11,11.47,90.41,0.097,1,0,0,0,0,0,0,0,0,0,90.4,0,1,0,-0.99,0,0,0,90,0,0,0,0,0,0,0,0,0,0,0,0,0,90.4,1,0,0.06,0,0,1,0,0,0,0,0,0,0,1,1,0,0,VALID,0,0,0,0,0,1,0,0,0,0,0,0,0,0,0,0,0,0,0,0,49.71,522,2,0,0.08,0.08,53,14.29,0.08,0.06,3,PRELAUNCH,CF1-F,0:/Integrated Flight Computer/aircraft/cf1_f_cfg.ks (inferred preloaded)
3.38,TAKEOFF,TO_GROUND_ROLL,0.09,80,79.91,3.63,0,0.03,-5.37,90.41,0.062,1,0,0,0,0,0,0,0,0,0,90.4,0,1,0,0.23,0,0,0,90,0,0,0,0,0,0,0,0,0,0,0,0,0,90.4,1,0,0.012,0,0,3,0,0,0,0,0,0,0,1,1,0,0,VALID,0,0,0,0,0,1,0,0,0,0,0,0,0,0,0,0,0,0,0,0,57.58,521.99,2,0,0.08,0.08,57,14.29,0.08,0.06,3.3,PRELAUNCH,CF1-F,0:/Integrated Flight Computer/aircraft/cf1_f_cfg.ks (inferred preloaded)
3.66,TAKEOFF,TO_GROUND_ROLL,0.27,80,79.73,3.65,0,0.21,2.06,90.41,0.073,1,0,0,0,0,0,0,0,0,0,90.4,0,1,0,-0.17,0,0,0,90,0,0,0,0,0,0,0,0,0,0,0,0,0,90.4,1,0,0.017,0,0,3,0,0,0,0,0,0,0,1,1,0,0,VALID,0,0,0,0,0,1,0,0,0,0,0,0,0,0,0,0,0,0,0,0,65.32,521.95,2,0,0.08,0.08,61,14.29,0.08,0.06,3.58,PRELAUNCH,CF1-F,0:/Integrated Flight Computer/aircraft/cf1_f_cfg.ks (inferred preloaded)
3.94,TAKEOFF,TO_GROUND_ROLL,0.55,80,79.45,3.69,0.07,0.35,-7.94,90.42,0.102,1,0,0,0,0,0,0,0,0,0,90.4,0,1,0,4.25,0,0,0,90,0,0,0,0,0,0,0,0,0,0,0,0,0,90.4,1,0,0.019,0,0,3,0,0,0,0,0,0,0,1,1,0,0,VALID,0,0,0,0,0,1,0,0,0,0,0,0,0,0,0,0,0,0,0,0,72.92,521.88,2,0,0.08,0.08,65,14.29,0.08,0.06,3.86,PRELAUNCH,CF1-F,0:/Integrated Flight Computer/aircraft/cf1_f_cfg.ks (inferred preloaded)
4.22,TAKEOFF,TO_GROUND_ROLL,0.86,80,79.14,3.7,0,0.41,1.31,90.42,0.102,1,0,0,0,0,0,0,0,0,0,90.4,0,1,0,0.06,0,0,0,90,0,0,0,0,0,0,0,0,0,0,0,0,0,90.4,1,0,0.016,0,0,3,0,0,0,0,0,0,0,1,1,0,0,VALID,0,0,0,0,0,1,0,0,0,0,0,0,0,0,0,0,0,0,0,0,80.39,521.8,2,0,0.08,0.08,69,14.29,0.08,0.06,4.14,PRELAUNCH,CF1-F,0:/Integrated Flight Computer/aircraft/cf1_f_cfg.ks (inferred preloaded)
4.5,TAKEOFF,TO_GROUND_ROLL,1.19,80,78.81,3.69,-0.03,0.37,1.56,90.41,0.081,1,0,0,0,0,0,0,0,0,0,90.4,0,1,0,-1.55,0,0,0,90,0,0,0,0,0,0,0,0,0,0,0,0,0,90.4,1,0,0.011,0,0,3,0,0,0,0,0,0,0,1,1,0,0,VALID,0,0,0,0,0,1,0,0,0,0,0,0,0,0,0,0,0,0,0,0,87.74,521.72,2,0,0.08,0.08,73,14.29,0.08,0.06,4.42,PRELAUNCH,CF1-F,0:/Integrated Flight Computer/aircraft/cf1_f_cfg.ks (inferred preloaded)
4.78,TAKEOFF,TO_GROUND_ROLL,1.56,80,78.44,3.67,0.01,0.27,0.05,90.41,0.071,1,0,0,0,0,0,0,0,0,0,90.4,0,1,0,0.18,0,0,0,90,0,0,0,0,0,0,0,0,0,0,0,0,0,90.4,1,0,0.007,0,0,3,0,0,0,0,0,0,0,1,1,0,0,VALID,0,0,0,0,0,1,0,0,0,0,0,0,0,0,0,0,0,0,0,0,94.95,521.62,2,0,0.08,0.08,77,14.29,0.08,0.06,4.7,PRELAUNCH,CF1-F,0:/Integrated Flight Computer/aircraft/cf1_f_cfg.ks (inferred preloaded)
5.06,TAKEOFF,TO_GROUND_ROLL,1.96,80,78.04,3.65,-0.05,0.16,0.49,90.41,0.082,1,0,0,0,0,0,0,0,0,0,90.4,0,1,0,-1.44,0,0,0,90,0,0,0,0,0,0,0,0,0,0,0,0,0,90.4,1,0,0.002,0,0,3,0,0,0,0,0,0,0,1,1,0,0,VALID,0,0,0,0,0,1,0,0,0,0,0,0,0,0,0,0,0,0,0,0,102.05,521.52,2,0,0.08,0.08,81,14.29,0.08,0.06,4.98,PRELAUNCH,CF1-F,0:/Integrated Flight Computer/aircraft/cf1_f_cfg.ks (inferred preloaded)
5.34,TAKEOFF,TO_GROUND_ROLL,2.38,80,77.62,3.64,0.01,0.19,0.07,90.4,0.099,1,0,0,0,0,0,0,0,0,0,90.4,0,1,0,0.3,0,0,0,90,0,0,0,0,0,0,0,0,0,0,0,0,0,90.4,1,0,-0.004,0,0.25,1,0,0,0,0,0,0,0,1,1,0,0,VALID,0,0,0,0,0,1,0,0,0,0,0,0,0,0,0,0,0,0,0,0,109.01,521.41,2,0,0.08,0.08,85,14.29,0.08,0.06,5.26,LANDED,CF1-F,0:/Integrated Flight Computer/aircraft/cf1_f_cfg.ks (inferred preloaded)
5.62,TAKEOFF,TO_GROUND_ROLL,2.84,80,77.16,3.67,-0.03,0.3,0.85,90.39,0.115,1,0,0,0,0,0,0,0,0,0,90.41,0,1,0,-0.63,0,0,0,90,0,0,0,0,0,0,0,0,0,0,0,0,0,90.41,1,0,-0.012,0.0001,0.25,1,0.0001,0,0,0,0,0,0,1,1,0,0,VALID,0,0,0,0,0,1,0,0,0,0,0,0,0,0,0,0,0,0,0,0,115.86,521.29,2,0,0.08,0.08,89,14.29,0.08,0.06,5.54,LANDED,CF1-F,0:/Integrated Flight Computer/aircraft/cf1_f_cfg.ks (inferred preloaded)
5.9,TAKEOFF,TO_GROUND_ROLL,3.32,80,76.68,3.71,-0.1,0.42,1.66,90.38,0.118,1,0,0,0,0,0,0,0,0,0,90.41,0,1,0,-1.73,0,0,0,90,0,0,0,0,0,0,0,0,0,0,0,0,0,90.41,1,0,-0.022,0.0001,0.25,1,0.0001,0,0,0,0,0,0,1,1,0,0,VALID,0,0,0,0,0,1,0,0,0,0,0,0,0,0,0,0,0,0,0,0,122.59,521.16,2,0,0.08,0.08,93,14.29,0.08,0.06,5.82,LANDED,CF1-F,0:/Integrated Flight Computer/aircraft/cf1_f_cfg.ks (inferred preloaded)
6.18,TAKEOFF,TO_GROUND_ROLL,3.82,80,76.18,3.71,0.03,0.5,-0.01,90.37,0.107,1,0,0,0,0,0,0,0,0,0,90.41,0,1,0,0.49,0,0,0,90,0,0,0,0,0,0,0,0,-0.001,0,0,0,0,90.41,1,-0.001,-0.032,0.0002,0.25,1,0.0002,0,0,0,0,0,0,1,1,0,0,VALID,0,0,0,0,0,1,0,0,0,0,0,0,0,0,0,0,0,0,0,0,129.2,521.02,2,0,0.08,0.08,97,14.29,0.08,0.06,6.1,LANDED,CF1-F,0:/Integrated Flight Computer/aircraft/cf1_f_cfg.ks (inferred preloaded)
6.46,TAKEOFF,TO_GROUND_ROLL,4.36,80,75.64,3.71,-0.04,0.51,1.05,90.36,0.097,1,0,0,0,0,0,0,0,0,0,90.41,0,1,0,-0.48,0,0,0,90,0,0,0,0,0,0,0,0,-0.001,0,0,0,0,90.41,1,-0.001,-0.043,0.0003,0.25,1,0.0003,0,0,0,0,0,0,1,1,0,0,VALID,0,0,0,0,0,1,0,0,0,0,0,0,0,0,0,0,0,0,0,0,135.69,520.87,2,0,0.08,0.08,101,14.29,0.08,0.06,6.38,LANDED,CF1-F,0:/Integrated Flight Computer/aircraft/cf1_f_cfg.ks (inferred preloaded)
6.74,TAKEOFF,TO_GROUND_ROLL,4.91,80,75.09,3.71,-0.04,0.46,0.82,90.35,0.102,1,0,0,0,0,0,0,0,0,0,90.41,0,1,0,-0.43,0,0,0,90,0,0,0,0,0,0,0,0,-0.001,0,0,0,0,90.41,1,-0.001,-0.054,0.0004,0.25,1,0.0004,0,0,0,0,0,0,1,1,0,0,VALID,0,0,0,0,0,1,0,0,0,0,0,0,0,0,0,0,0,0,0,0,142.07,520.71,2,0,0.08,0.08,105,14.29,0.08,0.06,6.66,LANDED,CF1-F,0:/Integrated Flight Computer/aircraft/cf1_f_cfg.ks (inferred preloaded)
7.02,TAKEOFF,TO_GROUND_ROLL,5.5,80,74.5,3.7,-0.02,0.4,0.62,90.34,0.112,1,0,0,0,0,0,0,0,0,0,90.41,0,1,0,-0.24,0,0,0,90,0,0,0,0,0,0,0,0,-0.001,0,0,0,0,90.41,1,-0.001,-0.065,0.0005,0.25,1,0.0005,0,0,0,0,0,0,1,1,0,0,VALID,0,0,0,0,0,1,0,0,0,0,0,0,0,0,0,0,0,0,0,0,148.33,520.54,2,0,0.08,0.08,109,14.29,0.08,0.06,6.94,LANDED,CF1-F,0:/Integrated Flight Computer/aircraft/cf1_f_cfg.ks (inferred preloaded)
7.3,TAKEOFF,TO_GROUND_ROLL,6.11,80,73.89,3.69,-0.04,0.35,0.69,90.33,0.114,1,0,0,0,0,0,0,0,0,0,90.41,0,1,0,-0.36,0,0,0,90,0,0,0,0,0,0,0,0,-0.001,0,0,0,0,90.41,1,-0.001,-0.076,0.0005,0.25,1,0.0005,0,0,0,0,0,0,1,1,0,0,VALID,0,0,0,0,0,1,0,0,0,0,0,0,0,0,0,0,0,0,0,0,154.48,520.35,2,0,0.08,0.08,113,14.29,0.08,0.06,7.22,LANDED,CF1-F,0:/Integrated Flight Computer/aircraft/cf1_f_cfg.ks (inferred preloaded)
7.58,TAKEOFF,TO_GROUND_ROLL,6.74,80,73.26,3.69,-0.04,0.35,0.65,90.32,0.108,1,0,0,0,0,0,0,0,0,0,90.41,0,1,0,-0.34,0,0,0,90,0,0,0,0,0,0,0,0,-0.001,0,0,0,0,90.41,1,-0.001,-0.088,0.0006,0.25,1,0.0006,0,0,0,0,0,0,1,1,0,0,VALID,0,0,0,0,0,1,0,0,0,0,0,0,0,0,0,0,0,0,0,0,160.52,520.16,2,0,0.08,0.08,117,14.29,0.08,0.06,7.5,LANDED,CF1-F,0:/Integrated Flight Computer/aircraft/cf1_f_cfg.ks (inferred preloaded)
7.86,TAKEOFF,TO_GROUND_ROLL,7.4,80,72.6,3.7,-0.04,0.4,0.69,90.31,0.103,1,0,0,0,0,0,0,0,0,0,90.41,0,1,0,-0.32,0,0,0,90,0,0,0,0,0,0,0,0,-0.002,0,0,0,0,90.41,1,-0.002,-0.1,0.0007,0.25,1,0.0007,0,0,0,0,0,0,1,1,0,0,VALID,0,0,0,0,0,1,0,0,0,0,0,0,0,0,0,0,0,0,0,0,166.45,519.95,2,0,0.08,0.08,121,14.29,0.08,0.06,7.78,LANDED,CF1-F,0:/Integrated Flight Computer/aircraft/cf1_f_cfg.ks (inferred preloaded)
8.14,TAKEOFF,TO_GROUND_ROLL,8.08,80,71.92,3.71,-0.05,0.49,0.8,90.3,0.105,1,0,0,0,0,0,0,0,0,0,90.41,0,1,0,-0.33,0,0,0,90,0,0,0,0,0,0,0,0,-0.002,0,0,0,0,90.41,1,-0.002,-0.111,0.0008,0.25,1,0.0008,0,0,0,0,0,0,1,1,0,0,VALID,0,0,0,0,0,1,0,0,0,0,0,0,0,0,0,0,0,0,0,0,172.28,519.74,2,0,0.08,0.08,125,14.29,0.08,0.06,8.06,LANDED,CF1-F,0:/Integrated Flight Computer/aircraft/cf1_f_cfg.ks (inferred preloaded)
8.42,TAKEOFF,TO_GROUND_ROLL,8.78,80,71.22,3.73,-0.05,0.6,0.9,90.28,0.11,1,0,0,0,0,0,0,0,0,0,90.41,0,1,0,-0.33,0,0,0,90,0,0,0,0,0,0,0,0,-0.002,0,0,0,0,90.41,1,-0.002,-0.122,0.001,0.25,1,0.001,0,0,0,0,0,0,1,1,0,0,VALID,0,0,0,0,0,1,0,0,0,0,0,0,0,0,0,0,0,0,0,0,177.99,519.51,2,0,0.08,0.08,129,14.29,0.08,0.06,8.34,LANDED,CF1-F,0:/Integrated Flight Computer/aircraft/cf1_f_cfg.ks (inferred preloaded)
8.7,TAKEOFF,TO_GROUND_ROLL,9.51,80,70.49,3.75,-0.05,0.69,0.99,90.27,0.112,1,0,0,0,0,0,0,0,0,0,90.41,0,1,0,-0.33,0,0,0,90,0,0,0,0,0,0,0,0,-0.002,0,0,0,0,90.41,1,-0.002,-0.134,0.0011,0.25,1,0.0011,0,0,0,0,0,0,1,1,0,0,VALID,0,0,0,0,0,1,0,0,0,0,0,0,0,0,0,0,0,0,0,0,183.6,519.27,2,0,0.08,0.08,133,14.29,0.08,0.06,8.62,LANDED,CF1-F,0:/Integrated Flight Computer/aircraft/cf1_f_cfg.ks (inferred preloaded)
8.98,TAKEOFF,TO_GROUND_ROLL,10.26,80,69.74,3.75,-0.06,0.74,1.04,90.26,0.109,1,0,0,0,0,0,0,0,0,0,90.41,0,1,0,-0.33,0,0,0,90,0,0,0,0,0,0,0,0,-0.003,0,0,0,0,90.41,1,-0.003,-0.146,0.0012,0.25,1,0.0012,0,0,0,0,0,0,1,1,0,0,VALID,0,0,0,0,0,1,0,0,0,0,0,0,0,0,0,0,0,0,0,0,189.1,519.01,2,0,0.08,0.08,137,14.29,0.08,0.06,8.9,LANDED,CF1-F,0:/Integrated Flight Computer/aircraft/cf1_f_cfg.ks (inferred preloaded)
9.26,TAKEOFF,TO_GROUND_ROLL,11.03,80,68.97,3.75,-0.06,0.73,1.04,90.25,0.107,1,0,0,0,0,0,0,0,0,0,90.41,0,1,0,-0.32,0,0,0,90,0,0,0,0,0,0,0,0,-0.003,0,0,0,0,90.41,1,-0.003,-0.158,0.0013,0.25,1,0.0013,0,0,0,0,0,0,1,1,0,0,VALID,0,0,0,0,0,1,0,0,0,0,0,0,0,0,0,0,0,0,0,0,194.5,518.75,2,0,0.08,0.08,141,14.29,0.08,0.06,9.18,LANDED,CF1-F,0:/Integrated Flight Computer/aircraft/cf1_f_cfg.ks (inferred preloaded)
9.54,TAKEOFF,TO_GROUND_ROLL,11.82,80,68.18,3.75,-0.07,0.7,1,90.24,0.107,1,0,0,0,0,0,0,0,0,0,90.41,0,1,0,-0.32,0,0,0,90,0,0,0,0,0,0,0,0,-0.003,0,0,0,0,90.41,1,-0.003,-0.169,0.0014,0.25,1,0.0014,0,0,0,0,0,0,1,1,0,0,VALID,0,0,0,0,0,1,0,0,0,0,0,0,0,0,0,0,0,0,0,0,199.8,518.47,2,0,0.08,0.08,145,14.29,0.08,0.06,9.46,LANDED,CF1-F,0:/Integrated Flight Computer/aircraft/cf1_f_cfg.ks (inferred preloaded)
9.82,TAKEOFF,TO_GROUND_ROLL,12.64,80,67.36,3.74,-0.07,0.66,0.96,90.22,0.11,1,0,0,0,0,0,0,0,0,0,90.4,0,1,0,-0.32,0,0,0,90,0,0,0,0,0,0,0,0,-0.004,0,0,0,0,90.4,1,-0.004,-0.181,0.0015,0.25,1,0.0015,0,0,0,0,0,0,1,1,0,0,VALID,0,0,0,0,0,1,0,0,0,0,0,0,0,0,0,0,0,0,0,0,205,518.17,2,0,0.08,0.08,149,14.29,0.08,0.06,9.74,LANDED,CF1-F,0:/Integrated Flight Computer/aircraft/cf1_f_cfg.ks (inferred preloaded)
10.1,TAKEOFF,TO_GROUND_ROLL,13.47,80,66.53,3.74,-0.08,0.63,0.94,90.21,0.111,1,0,0,0,0,0,0,0,0,0,90.4,0,1,0,-0.32,0,0,0,90,0,0,0,0,0,0,0,0,-0.004,0,0,0,0,90.4,1,-0.004,-0.192,0.0017,0.25,1,0.0017,0,0,0,0,0,0,1,1,0,0,VALID,0,0,0,0,0,1,0,0,0,0,0,0,0,0,0,0,0,0,0,0,210.09,517.87,2,0,0.08,0.08,153,14.29,0.08,0.06,10.02,LANDED,CF1-F,0:/Integrated Flight Computer/aircraft/cf1_f_cfg.ks (inferred preloaded)
10.38,TAKEOFF,TO_GROUND_ROLL,14.32,80,65.68,3.74,-0.08,0.65,0.95,90.2,0.11,1,0,0,0,0,0,0,0,0,0,90.4,0,1,0,-0.32,0,0,0,90,0,0,0,0,0,0,0,0,-0.004,0,0,0,0,90.4,1,-0.004,-0.203,0.0018,0.25,1,0.0018,0,0,0,0,0,0,1,1,0,0,VALID,0,0,0,0,0,1,0,0,0,0,0,0,0,0,0,0,0,0,0,0,215.09,517.55,2,0,0.08,0.08,157,14.29,0.08,0.06,10.3,LANDED,CF1-F,0:/Integrated Flight Computer/aircraft/cf1_f_cfg.ks (inferred preloaded)
10.66,TAKEOFF,TO_GROUND_ROLL,15.19,80,64.81,3.75,-0.09,0.71,1,90.19,0.109,1,0,0,0,0,0,0,0,0,0,90.4,0,1,0,-0.32,0,0,0,90,0,0,0,0,0,0,0,0,-0.004,0,0,0,0,90.4,1,-0.004,-0.213,0.0019,0.25,1,0.0019,0,0,0,0,0,0,1,1,0,0,VALID,0,0,0,0,0,1,0,0,0,0,0,0,0,0,0,0,0,0,0,0,219.99,517.21,2,0,0.08,0.08,161,14.29,0.08,0.06,10.58,LANDED,CF1-F,0:/Integrated Flight Computer/aircraft/cf1_f_cfg.ks (inferred preloaded)
10.94,TAKEOFF,TO_GROUND_ROLL,16.09,80,63.91,3.76,-0.09,0.79,1.08,90.18,0.109,1,0,0,0,0,0,0,0,0,0,90.4,0,1,0,-0.32,0,0,0.01,90,0,0,0,0,0,0,0,0,-0.005,0,0,0,0,90.4,1,-0.005,-0.224,0.002,0.25,1,0.002,0,0,0,0,0,0,1,1,0,0,VALID,0,0,0,0,0,1,0,0,0,0,0,0,0,0,0,0,0,0,0,0,224.79,516.86,2,0,0.08,0.08,165,14.29,0.08,0.06,10.86,LANDED,CF1-F,0:/Integrated Flight Computer/aircraft/cf1_f_cfg.ks (inferred preloaded)
11.22,TAKEOFF,TO_GROUND_ROLL,17,80,63,3.78,-0.09,0.86,1.16,90.17,0.11,1,0,0,0,0,0,0,0,0,0,90.4,0,1,0,-0.32,0,0,0.01,90,0,0,0,0,0,0,0,0,-0.005,0,0,0,0,90.4,1,-0.005,-0.233,0.0021,0.25,1,0.0021,0,0,0,0,0,0,1,1,0,0,VALID,0,0,0,0,0,1,0,0,0,0,0,0,0,0,0,0,0,0,0,0,229.5,516.5,2,0,0.08,0.08,169,14.29,0.08,0.06,11.14,LANDED,CF1-F,0:/Integrated Flight Computer/aircraft/cf1_f_cfg.ks (inferred preloaded)
11.5,TAKEOFF,TO_GROUND_ROLL,17.93,80,62.07,3.79,-0.1,0.92,1.22,90.16,0.111,1,0,0,0,0,0,0,0,0,0,90.4,0,1,0,-0.32,0,0,0.01,90,0,0,0,0,0,0,0,0,-0.005,0,0,0,0,90.4,1,-0.005,-0.243,0.0023,0.25,1,0.0023,0,0,0,0,0,0,1,1,0,0,VALID,0,0,0,0,0,1,0,0,0,0,0,0,0,0,0,0,0,0,0,0,234.12,516.12,2,0,0.08,0.08,173,14.29,0.08,0.06,11.42,LANDED,CF1-F,0:/Integrated Flight Computer/aircraft/cf1_f_cfg.ks (inferred preloaded)
11.78,TAKEOFF,TO_GROUND_ROLL,18.87,80,61.13,3.79,-0.1,0.95,1.24,90.15,0.11,1,0,0,0,0,0,0,0,0,0,90.4,0,1,0,-0.32,0,0,0.01,90,0,0,0,0,0,0,0,0,-0.006,0,0,0,0,90.4,1,-0.006,-0.252,0.0024,0.25,1,0.0024,0,0,0,0,0,0,1,1,0,0,VALID,0,0,0,0,0,1,0,0,0,0,0,0,0,0,0,0,0,0,0,0,238.63,515.72,2,0,0.08,0.08,177,14.29,0.08,0.06,11.7,LANDED,CF1-F,0:/Integrated Flight Computer/aircraft/cf1_f_cfg.ks (inferred preloaded)
12.06,TAKEOFF,TO_GROUND_ROLL,19.84,80,60.16,3.79,-0.11,0.94,1.24,90.14,0.11,1,0,0,0,0,0,0,0,0,0,90.4,0,1,0,-0.32,0,0,0.01,90,0,0,0,0,0,0,0,0,-0.006,0,0,0,0,90.4,1,-0.006,-0.261,0.0025,0.25,1,0.0025,0,0,0,0,0,0,1,1,0,0,VALID,0,0,0,0,0,1,0,0,0,0,0,0,0,0,0,0,0,0,0,0,243.06,515.32,2,0,0.08,0.08,181,14.29,0.08,0.06,11.98,LANDED,CF1-F,0:/Integrated Flight Computer/aircraft/cf1_f_cfg.ks (inferred preloaded)
12.34,TAKEOFF,TO_GROUND_ROLL,20.82,80,59.18,3.79,-0.11,0.92,1.22,90.13,0.11,1,0,0,0,0,0,0,0,0,0,90.4,0,1,0,-0.31,0,0,0.01,90,0,0,0,0,0,0,0,0,-0.006,0,0,0,0,90.4,1,-0.006,-0.269,0.0027,0.259,0,0.0027,0,0,0,0,0,0,1,1,0,0,VALID,0,0,0,0,0,1,0,0,0,0,0,0,0,0,0,0,0,0,0,0,247.4,514.89,2,0,0.08,0.08,185,14.29,0.08,0.06,12.26,LANDED,CF1-F,0:/Integrated Flight Computer/aircraft/cf1_f_cfg.ks (inferred preloaded)
12.62,TAKEOFF,TO_GROUND_ROLL,21.82,80,58.18,3.78,-0.12,0.9,1.2,90.12,0.11,1,0,0,0,0,0,0,0,0,0,90.4,0,1,0,-0.31,0,0,0.01,90,0,0,0,0,0,0,0,0,-0.006,0,0,0,0,90.4,1,-0.006,-0.277,0.0029,0.269,0,0.0029,0,0,0,0,0,0,1,1,0,0,VALID,0,0,0,0,0,1,0,0,0,0,0,0,0,0,0,0,0,0,0,0,251.64,514.45,2,0,0.08,0.08,189,14.29,0.08,0.06,12.54,LANDED,CF1-F,0:/Integrated Flight Computer/aircraft/cf1_f_cfg.ks (inferred preloaded)
12.9,TAKEOFF,TO_GROUND_ROLL,22.84,80,57.16,3.78,-0.13,0.91,1.2,90.11,0.11,1,0,0,0,0,0,0,0,0,0,90.4,0,1,0,-0.31,0,0,0.01,90,0,0,0,0,0,0,0,0,-0.007,0,0,0,0,90.4,1,-0.007,-0.284,0.0031,0.28,0,0.0031,0,0,0,0,0,0,1,1,0,0,VALID,0,0,0,0,0,1,0,0,0,0,0,0,0,0,0,0,0,0,0,0,255.8,514,2,0,0.08,0.08,193,14.29,0.08,0.06,12.82,LANDED,CF1-F,0:/Integrated Flight Computer/aircraft/cf1_f_cfg.ks (inferred preloaded)
13.18,TAKEOFF,TO_GROUND_ROLL,23.87,80,56.13,3.79,-0.13,0.93,1.23,90.11,0.11,1,0,0,0,0,0,0,0,0,0,90.4,0,1,0,-0.31,0,0,0.01,90,0,0,0,0,0,0,0,0,-0.007,0,0,0,0,90.4,1,-0.007,-0.291,0.0034,0.291,0,0.0034,0,0,0,0,0,0,1,1,0,0,VALID,0,0,0,0,0,1,0,0,0,0,0,0,0,0,0,0,0,0,0,0,259.86,513.52,2,0,0.08,0.08,197,14.29,0.08,0.06,13.1,LANDED,CF1-F,0:/Integrated Flight Computer/aircraft/cf1_f_cfg.ks (inferred preloaded)
13.46,TAKEOFF,TO_GROUND_ROLL,24.91,80,55.09,3.8,-0.14,0.99,1.28,90.1,0.11,1,0,0,0,0,0,0,0,0,0,90.4,0,1,0,-0.31,0,0,0.01,90,0,0,0,0,0,0,0,0,-0.007,0,0,0,0,90.4,1,-0.007,-0.297,0.0036,0.303,0,0.0036,0,0,0,0,0,0,1,1,0,0,VALID,0,0,0,0,0,1,0,0,0,0,0,0,0,0,0,0,0,0,0,0,263.84,513.04,2,0,0.08,0.08,201,14.29,0.08,0.06,13.38,LANDED,CF1-F,0:/Integrated Flight Computer/aircraft/cf1_f_cfg.ks (inferred preloaded)
13.74,TAKEOFF,TO_GROUND_ROLL,25.98,80,54.02,3.81,-0.14,1.04,1.33,90.09,0.109,1,0,0,0,0,0,0,0,0,0,90.4,0,1,0,-0.31,0,0,0.01,90,0,0,0,0,0,0,0,0,-0.007,0,0,0,0,90.4,1,-0.007,-0.303,0.0038,0.314,0,0.0038,0,0,0,0,0,0,1,1,0,0,VALID,0,0,0,0,0,1,0,0,0,0,0,0,0,0,0,0,0,0,0,0,267.74,512.54,2,0,0.08,0.08,205,14.29,0.08,0.06,13.66,LANDED,CF1-F,0:/Integrated Flight Computer/aircraft/cf1_f_cfg.ks (inferred preloaded)
14.02,TAKEOFF,TO_GROUND_ROLL,27.05,80,52.95,3.82,-0.15,1.09,1.39,90.09,0.109,1,0,0,0,0,0,0,0,0,0,90.4,0,1,0,-0.31,0,0,0.01,90,0,0,0,0,0,0,0,0,-0.008,0,0,0,0,90.4,1,-0.008,-0.308,0.004,0.326,0,0.004,0,0,0,0,0,0,1,1,0,0,VALID,0,0,0,0,0,1,0,0,0,0,0,0,0,0,0,0,0,0,0,0,271.54,512.02,2,0,0.08,0.08,209,14.29,0.08,0.06,13.94,LANDED,CF1-F,0:/Integrated Flight Computer/aircraft/cf1_f_cfg.ks (inferred preloaded)
14.3,TAKEOFF,TO_GROUND_ROLL,28.14,80,51.86,3.82,-0.15,1.13,1.42,90.08,0.109,1,0,0,0,0,0,0,0,0,0,90.4,0,1,0,-0.31,0,0,0.01,90,0,0,0,0,0,0,0,0,-0.008,0,0,0,0,90.4,1,-0.008,-0.312,0.0043,0.337,0,0.0043,0,0,0,0,0,0,1,1,0,0,VALID,0,0,0,0,0,1,0,0,0,0,0,0,0,0,0,0,0,0,0,0,275.27,511.48,2,0,0.08,0.08,213,14.29,0.08,0.06,14.22,LANDED,CF1-F,0:/Integrated Flight Computer/aircraft/cf1_f_cfg.ks (inferred preloaded)
14.58,TAKEOFF,TO_GROUND_ROLL,29.25,80,50.75,3.82,-0.16,1.14,1.43,90.08,0.109,1,0,0,0,0,0,0,0,0,0,90.39,0,1,0,-0.31,0,0,0.01,90,0,0,0,0,0,0,0,0,-0.008,0,0,0,0,90.39,1,-0.008,-0.316,0.0045,0.349,0,0.0045,0,0,0,0,0,0,1,1,0,0,VALID,0,0,0,0,0,1,0,0,0,0,0,0,0,0,0,0,0,0,0,0,278.9,510.93,2,0,0.08,0.08,217,14.29,0.08,0.06,14.5,LANDED,CF1-F,0:/Integrated Flight Computer/aircraft/cf1_f_cfg.ks (inferred preloaded)
14.86,TAKEOFF,TO_GROUND_ROLL,30.37,80,49.63,3.82,-0.16,1.14,1.43,90.08,0.108,1,0,0,0,0,0,0,0,0,0,90.39,0,1,0,-0.31,0,0,0.01,90,0,0,0,0,0,0,0,0,-0.008,0,0,0,0,90.39,1,-0.008,-0.319,0.0047,0.361,0,0.0047,0,0,0,0,0,0,1,1,0,0,VALID,0,0,0,0,0,1,0,0,0,0,0,0,0,0,0,0,0,0,0,0,282.46,510.37,2,0,0.08,0.08,221,14.29,0.08,0.06,14.78,LANDED,CF1-F,0:/Integrated Flight Computer/aircraft/cf1_f_cfg.ks (inferred preloaded)
15.14,TAKEOFF,TO_GROUND_ROLL,31.5,80,48.5,3.82,-0.17,1.14,1.43,90.07,0.108,1,0,0,0,0,0,0,0,0,0,90.39,0,1,0,-0.31,0,0,0.02,90,0,0,0,0,0,0,0,0,-0.008,0,0,0,0,90.39,1,-0.008,-0.321,0.0049,0.373,0,0.0049,0,0,0,0,0,0,1,1,0,0,VALID,0,0,0,0,0,1,0,0,0,0,0,0,0,0,0,0,0,0,0,0,285.93,509.79,2,0,0.08,0.08,225,14.29,0.08,0.06,15.06,LANDED,CF1-F,0:/Integrated Flight Computer/aircraft/cf1_f_cfg.ks (inferred preloaded)
15.42,TAKEOFF,TO_GROUND_ROLL,32.65,80,47.35,3.82,-0.17,1.14,1.43,90.07,0.108,1,0,0,0,0,0,0,0,0,0,90.39,0,1,0,-0.3,0,0,0.02,90,0,0,0,0,0,0,0,0,-0.009,0,0,0,0,90.39,1,-0.009,-0.323,0.0051,0.386,0,0.0051,0,0,0,0,0,0,1,1,0,0,VALID,0,0,0,0,0,1,0,0,0,0,0,0,0,0,0,0,0,0,0,0,289.33,509.19,2,0,0.08,0.08,229,14.29,0.08,0.06,15.34,LANDED,CF1-F,0:/Integrated Flight Computer/aircraft/cf1_f_cfg.ks (inferred preloaded)
15.7,TAKEOFF,TO_GROUND_ROLL,33.81,80,46.19,3.83,-0.18,1.16,1.45,90.07,0.107,1,0,0,0,0,0,0,0,0,0,90.39,0,1,0,-0.3,0,0,0.02,90,0,0,0,0,0,0,0,0,-0.009,0,0,0,0,90.39,1,-0.009,-0.324,0.0053,0.398,0,0.0053,0,0,0,0,0,0,1,1,0,0,VALID,0,0,0,0,0,1,0,0,0,0,0,0,0,0,0,0,0,0,0,0,292.64,508.57,2,0,0.08,0.08,233,14.29,0.08,0.06,15.62,LANDED,CF1-F,0:/Integrated Flight Computer/aircraft/cf1_f_cfg.ks (inferred preloaded)
15.98,TAKEOFF,TO_GROUND_ROLL,34.98,80,45.02,3.83,-0.18,1.19,1.48,90.07,0.107,1,0,0,0,0,0,0,0,0,0,90.39,0,1,0,-0.3,0,0,0.02,90,0,0,0,0,0,0,0,0,-0.009,0,0,0,0,90.39,1,-0.009,-0.325,0.0055,0.41,0,0.0055,0,0,0,0,0,0,1,1,0,0,VALID,0,0,0,0,0,1,0,0,0,0,0,0,0,0,0,0,0,0,0,0,295.88,507.95,2,0,0.08,0.08,237,14.29,0.08,0.06,15.9,LANDED,CF1-F,0:/Integrated Flight Computer/aircraft/cf1_f_cfg.ks (inferred preloaded)
16.26,TAKEOFF,TO_GROUND_ROLL,36.16,80,43.84,3.84,-0.19,1.23,1.52,90.07,0.106,1,0,0,0,0,0,0,0,0,0,90.39,0,1,0,-0.3,0,0,0.02,90,0,0,0,0,0,0,0,0,-0.009,0,0,0,0,90.39,1,-0.009,-0.325,0.0057,0.423,0,0.0057,0,0,0,0,0,0,1,1,0,0,VALID,0,0,0,0,0,1,0,0,0,0,0,0,0,0,0,0,0,0,0,0,299.03,507.3,2,0,0.08,0.08,241,14.29,0.08,0.06,16.18,LANDED,CF1-F,0:/Integrated Flight Computer/aircraft/cf1_f_cfg.ks (inferred preloaded)
16.54,TAKEOFF,TO_GROUND_ROLL,37.35,80,42.65,3.85,-0.2,1.27,1.55,90.07,0.106,1,0,0,0,0,0,0,0,0,0,90.39,0,1,0,-0.3,0,0,0.02,90,0,0,0,0,0,0,0,0,-0.01,0,0,0,0,90.39,1,-0.01,-0.324,0.0058,0.436,0,0.0058,0,0,0,0,0,0,1,1,0,0,VALID,0,0,0,0,0,1,0,0,0,0,0,0,0,0,0,0,0,0,0,0,302.11,506.64,2,0,0.08,0.08,245,14.29,0.08,0.06,16.46,LANDED,CF1-F,0:/Integrated Flight Computer/aircraft/cf1_f_cfg.ks (inferred preloaded)
16.82,TAKEOFF,TO_GROUND_ROLL,38.56,80,41.44,3.85,-0.2,1.3,1.58,90.07,0.105,1,0,0,0,0,0,0,0,0,0,90.39,0,1,0,-0.3,0,0,0.02,90,0,0,0,0,0,0,0,0,-0.01,0,0,0,0,90.39,1,-0.01,-0.322,0.006,0.449,0,0.006,0,0,0,0,0,0,1,1,0,0,VALID,0,0,0,0,0,1,0,0,0,0,0,0,0,0,0,0,0,0,0,0,305.12,505.97,2,0,0.08,0.08,249,14.29,0.08,0.06,16.74,LANDED,CF1-F,0:/Integrated Flight Computer/aircraft/cf1_f_cfg.ks (inferred preloaded)
17.1,TAKEOFF,TO_GROUND_ROLL,39.78,80,40.22,3.86,-0.21,1.32,1.6,90.07,0.105,1,0,0,0,0,0,0,0,0,0,90.39,0,1,0,-0.3,0,0,0.02,90,0,0,0,0,0,0,0,0,-0.01,0,0,0,0,90.39,1,-0.01,-0.32,0.0061,0.462,0,0.0061,0,0,0,0,0,0,1,1,0,0,VALID,0,0,0,0,0,1,0,0,0,0,0,0,0,0,0,0,0,0,0,0,308.04,505.28,2,0,0.08,0.08,253,14.29,0.08,0.06,17.02,LANDED,CF1-F,0:/Integrated Flight Computer/aircraft/cf1_f_cfg.ks (inferred preloaded)
17.38,TAKEOFF,TO_GROUND_ROLL,41,80,39,3.86,-0.21,1.33,1.61,90.07,0.104,1,0,0,0,0,0,0,0,0,0,90.39,0,1,0,-0.3,0,0,0.02,90,0,0,0,0,0,0,0,0,-0.01,0,0,0,0,90.39,1,-0.01,-0.318,0.0062,0.475,0,0.0062,0,0,0,0,0,0,1,1,0,0,VALID,0,0,0,0,0,1,0,0,0,0,0,0,0,0,0,0,0,0,0,0,310.9,504.57,2,0,0.08,0.08,257,14.29,0.08,0.06,17.3,LANDED,CF1-F,0:/Integrated Flight Computer/aircraft/cf1_f_cfg.ks (inferred preloaded)
17.66,TAKEOFF,TO_GROUND_ROLL,42.24,80,37.76,3.86,-0.22,1.34,1.62,90.07,0.104,1,0,0,0,0,0,0,0,0,0,90.39,0,1,0,-0.29,0,0,0.02,90,0,0,0,0,0,0,0,0,-0.011,0,0,0,0,90.39,1,-0.011,-0.314,0.0063,0.488,0,0.0063,0,0,0,0,0,0,1,1,0,0,VALID,0,0,0,0,0,1,0,0,0,0,0,0,0,0,0,0,0,0,0,0,313.68,503.85,2,0,0.08,0.08,261,14.29,0.08,0.06,17.58,LANDED,CF1-F,0:/Integrated Flight Computer/aircraft/cf1_f_cfg.ks (inferred preloaded)
17.94,TAKEOFF,TO_GROUND_ROLL,43.49,80,36.51,3.86,-0.22,1.35,1.63,90.08,0.103,1,0,0,0,0,0,0,0,0,0,90.39,0,1,0,-0.29,0,0,0.03,90,0,0,0,0,0,0,0,0,-0.011,0,0,0,0,90.39,1,-0.011,-0.311,0.0063,0.502,0,0.0063,0,0,0,0,0,0,1,1,0,0,VALID,0,0,0,0,0,1,0,0,0,0,0,0,0,0,0,0,0,0,0,0,316.39,503.12,2,0,0.08,0.08,265,14.29,0.08,0.06,17.86,LANDED,CF1-F,0:/Integrated Flight Computer/aircraft/cf1_f_cfg.ks (inferred preloaded)
18.22,TAKEOFF,TO_GROUND_ROLL,44.74,80,35.26,3.86,-0.23,1.36,1.64,90.08,0.103,1,0,0,0,0,0,0,0,0,0,90.39,0,1,0,-0.29,0,0,0.03,90,0,0,0,0,0,0,0,0,-0.011,0,0,0,0,90.39,1,-0.011,-0.306,0.0063,0.515,0,0.0063,0,0,0,0,0,0,1,1,0,0,VALID,0,0,0,0,0,1,0,0,0,0,0,0,0,0,0,0,0,0,0,0,319.03,502.37,2,0,0.08,0.08,269,14.29,0.08,0.06,18.14,LANDED,CF1-F,0:/Integrated Flight Computer/aircraft/cf1_f_cfg.ks (inferred preloaded)
18.5,TAKEOFF,TO_GROUND_ROLL,46.01,80,33.99,3.87,-0.23,1.39,1.66,90.08,0.102,1,0,0,0,0,0,0,0,0,0,90.39,0,1,0,-0.29,0,0,0.03,90,0,0,0,0,0,0,0,0,-0.011,0,0,0,0,90.39,1,-0.011,-0.301,0.0064,0.529,0,0.0064,0,0,0,0,0,0,1,1,0,0,VALID,0,0,0,0,0,1,0,0,0,0,0,0,0,0,0,0,0,0,0,0,321.6,501.61,2,0,0.08,0.08,273,14.29,0.08,0.06,18.42,LANDED,CF1-F,0:/Integrated Flight Computer/aircraft/cf1_f_cfg.ks (inferred preloaded)
18.78,TAKEOFF,TO_GROUND_ROLL,47.28,80,32.72,3.87,-0.24,1.42,1.69,90.09,0.101,1,0,0,0,0,0,0,0,0,0,90.39,0,1,0,-0.29,0,0,0.03,90,0,0,0,0,0,0,0,0,-0.012,0,0,0,0,90.39,1,-0.012,-0.297,0.0064,0.542,0,0.0064,0,0,0,0,0,0,1,1,0,0,VALID,0,0,0,0,0,1,0,0,0,0,0,0,0,0,0,0,0,0,0,0,324.1,500.83,2,0,0.08,0.08,277,14.29,0.08,0.06,18.7,LANDED,CF1-F,0:/Integrated Flight Computer/aircraft/cf1_f_cfg.ks (inferred preloaded)
19.06,TAKEOFF,TO_GROUND_ROLL,48.57,80,31.43,3.88,-0.24,1.44,1.72,90.09,0.1,1,0,0,0,0,0,0,0,0,0,90.38,0,1,0,-0.29,0,0,0.03,90,0,0,0,0,0,0,0,0,-0.012,0,0,0,0,90.38,1,-0.012,-0.291,0.0064,0.556,0,0.0064,0,0,0,0,0,0,1,1,0,0,VALID,0,0,0,0,0,1,0,0,0,0,0,0,0,0,0,0,0,0,0,0,326.53,500.04,2,0,0.08,0.08,281,14.29,0.08,0.06,18.98,LANDED,CF1-F,0:/Integrated Flight Computer/aircraft/cf1_f_cfg.ks (inferred preloaded)
19.34,TAKEOFF,TO_GROUND_ROLL,49.86,80,30.14,3.88,-0.25,1.47,1.74,90.1,0.1,1,0,0,0,0,0,0,0,0,0,90.38,0,1,0,-0.29,0,0,0.03,90,0,0,0,0,0,0,0,0,-0.013,0,0,0,0,90.38,1,-0.013,-0.284,0.0063,0.57,0,0.0063,0,0,0,0,0,0,1,1,0,0,VALID,0,0,0,0,0,1,0,0,0,0,0,0,0,0,0,0,0,0,0,0,328.9,499.24,2,0,0.08,0.08,285,14.29,0.08,0.06,19.26,LANDED,CF1-F,0:/Integrated Flight Computer/aircraft/cf1_f_cfg.ks (inferred preloaded)
19.62,TAKEOFF,TO_GROUND_ROLL,51.16,80,28.84,3.89,-0.25,1.49,1.76,90.11,0.099,1,0,0,0,0,0,0,0,0,0,90.38,0,1,0,-0.28,0,0,0.03,90,0,0,0,0,0,0,0,0,-0.013,0,0,0,0,90.38,1,-0.013,-0.277,0.0063,0.584,0,0.0063,0,0,0,0,0,0,1,1,0,0,VALID,0,0,0,0,0,1,0,0,0,0,0,0,0,0,0,0,0,0,0,0,331.2,498.42,2,0,0.08,0.08,289,14.29,0.08,0.06,19.54,LANDED,CF1-F,0:/Integrated Flight Computer/aircraft/cf1_f_cfg.ks (inferred preloaded)
19.9,TAKEOFF,TO_GROUND_ROLL,52.46,80,27.54,3.89,-0.26,1.5,1.77,90.11,0.099,1,0,0,0,0,0,0,0,0,0,90.38,0,1,0,-0.28,0,0,0.04,90,0,0,0,0,0,0,0,0,-0.014,0,0,0,0,90.38,1,-0.014,-0.271,0.0063,0.598,0,0.0063,0,0,0,0,0,0,1,1,0,0,VALID,0,0,0,0,0,1,0,0,0,0,0,0,0,0,0,0,0,0,0,0,333.43,497.59,2,0,0.08,0.08,293,14.29,0.08,0.06,19.82,LANDED,CF1-F,0:/Integrated Flight Computer/aircraft/cf1_f_cfg.ks (inferred preloaded)
20.18,TAKEOFF,TO_GROUND_ROLL,53.78,80,26.22,3.89,-0.26,1.51,1.78,90.12,0.098,1,0,0,0,0,0,0,0,0,0,90.38,0,1,0,-0.28,0,0,0.04,90,0,0,0,0,0,0,0,0,-0.014,0,0,0,0,90.38,1,-0.014,-0.264,0.0062,0.612,0,0.0062,0,0,0,0,0,0,1,1,0,0,VALID,0,0,0,0,0,1,0,0,0,0,0,0,0,0,0,0,0,0,0,0,335.6,496.75,2,0,0.08,0.08,297,14.29,0.08,0.06,20.1,LANDED,CF1-F,0:/Integrated Flight Computer/aircraft/cf1_f_cfg.ks (inferred preloaded)
20.46,TAKEOFF,TO_GROUND_ROLL,55.1,80,24.9,3.89,-0.27,1.53,1.79,90.12,0.098,1,0,0,0,0,0,0,0,0,0,90.38,0,1,0,-0.28,0,0,0.04,90,0,0,0,0,0,0,0,0,-0.015,0,0,0,0,90.38,1,-0.015,-0.257,0.0061,0.626,0,0.0061,0,0,0,0,0,0,1,1,0,0,VALID,0,0,0,0,0,1,0,0,0,0,0,0,0,0,0,0,0,0,0,0,337.71,495.9,2,0,0.08,0.08,301,14.29,0.08,0.06,20.38,LANDED,CF1-F,0:/Integrated Flight Computer/aircraft/cf1_f_cfg.ks (inferred preloaded)
20.74,TAKEOFF,TO_GROUND_ROLL,56.42,80,23.58,3.9,-0.27,1.54,1.81,90.13,0.097,1,0,0,0,0,0,0,0,0,0,90.38,0,1,0,-0.28,0,0,0.04,90,0,0,0,0,0,0,0,0,-0.016,0,0,0,0,90.38,1,-0.016,-0.249,0.006,0.64,0,0.006,0,0,0,0,0,0,1,1,0,0,VALID,0,0,0,0,0,1,0,0,0,0,0,0,0,0,0,0,0,0,0,0,339.75,495.04,2,0,0.08,0.08,305,14.29,0.08,0.06,20.66,LANDED,CF1-F,0:/Integrated Flight Computer/aircraft/cf1_f_cfg.ks (inferred preloaded)
21.02,TAKEOFF,TO_GROUND_ROLL,57.76,80,22.24,3.9,-0.28,1.56,1.83,90.14,0.096,1,0,0,0,0,0,0,0,0,0,90.38,0,1,0,-0.28,0,0,0.04,90,0,0,0,0,0,0,0,0,-0.016,0,0,0,0,90.38,1,-0.016,-0.241,0.0058,0.655,0,0.0058,0,0,0,0,0,0,1,1,0,0,VALID,0,0,0,0,0,1,0,0,0,0,0,0,0,0,0,0,0,0,0,0,341.74,494.16,2,0,0.08,0.08,309,14.29,0.08,0.06,20.94,LANDED,CF1-F,0:/Integrated Flight Computer/aircraft/cf1_f_cfg.ks (inferred preloaded)
21.3,TAKEOFF,TO_GROUND_ROLL,59.1,80,20.9,3.9,-0.28,1.58,1.85,90.14,0.096,1,0,0,0,0,0,0,0,0,0,90.38,0,1,0,-0.27,0,0,0.04,90,0,0,0,0,0,0,0,0,-0.017,0,0,0,0,90.38,1,-0.017,-0.233,0.0057,0.669,0,0.0057,0,0,0,0,0,0,1,1,0,0,VALID,0,0,0,0,0,1,0,0,0,0,0,0,0,0,0,0,0,0,0,0,343.66,493.28,2,0,0.08,0.08,313,14.29,0.08,0.06,21.22,LANDED,CF1-F,0:/Integrated Flight Computer/aircraft/cf1_f_cfg.ks (inferred preloaded)
21.58,TAKEOFF,TO_GROUND_ROLL,60.44,80,19.56,3.91,-0.29,1.61,1.86,90.15,0.096,1,0,0,0,0,0,0,0,0,0,90.38,0,1,0,-0.27,0,0,0.04,90,0,0,0,0,0,0,0,0,-0.018,0,0,0,0,90.38,1,-0.018,-0.226,0.0056,0.683,0,0.0056,0,0,0,0,0,0,1,1,0,0,VALID,0,0,0,0,0,1,0,0,0,0,0,0,0,0,0,0,0,0,0,0,345.53,492.38,2,0,0.08,0.08,317,14.29,0.08,0.06,21.5,LANDED,CF1-F,0:/Integrated Flight Computer/aircraft/cf1_f_cfg.ks (inferred preloaded)
21.86,TAKEOFF,TO_GROUND_ROLL,61.79,80,18.21,3.91,-0.29,1.62,1.88,90.16,0.095,1,0,0,0,0,0,0,0,0,0,90.38,0,1,0,-0.27,0,0,0.05,90,0,0,0,0,0,0,0,0,-0.019,0,0,0,0,90.38,1,-0.019,-0.219,0.0055,0.698,0,0.0055,0,0,0,0,0,0,1,1,0,0,VALID,0,0,0,0,0,1,0,0,0,0,0,0,0,0,0,0,0,0,0,0,347.34,491.48,2,0,0.08,0.08,321,14.29,0.08,0.06,21.78,LANDED,CF1-F,0:/Integrated Flight Computer/aircraft/cf1_f_cfg.ks (inferred preloaded)
22.14,TAKEOFF,TO_GROUND_ROLL,63.15,80,16.85,3.9,-0.09,1.65,1.9,90.16,0.092,1,0,0,0,0,0,0,0,0,0,90.38,0,1,0,-0.08,0,0,0.05,90,0,0,0,0,0,0,0,0,-0.02,0,0,0,0,90.38,1,-0.02,-0.211,0.0053,0.712,0,0.0053,0,0,0,0,0,0,1,1,0,0,VALID,0,0,0,0,0,1,0,0,0,0,0,0,0,0,0,0,0,0,0,0,349.09,490.56,2,0,0.08,0.08,325,14.29,0.08,0.06,22.06,LANDED,CF1-F,0:/Integrated Flight Computer/aircraft/cf1_f_cfg.ks (inferred preloaded)
22.42,TAKEOFF,TO_GROUND_ROLL,64.51,80,15.49,3.96,-0.25,1.74,1.96,90.17,0.09,1,0,0,0,0,0,0,0,0,0,90.37,0,1,0,-0.22,0,0,0.05,90,0,0,0,0,0,0,0,0,-0.021,0,0,0,0,90.37,1,-0.021,-0.203,0.0052,0.727,0,0.0052,0,0,0,0,0,0,1,1,0,0,VALID,0,0,0,0,0,1,0,0,0,0,0,0,0,0,0,0,0,0,0,0,350.79,489.63,2,0,0.08,0.08,329,14.29,0.08,0.06,22.34,LANDED,CF1-F,0:/Integrated Flight Computer/aircraft/cf1_f_cfg.ks (inferred preloaded)
22.7,TAKEOFF,TO_GROUND_ROLL,65.87,80,14.13,3.99,-0.33,1.91,2.17,90.18,0.091,1,0,0,0,0,0,0,0,0,0,90.37,0,1,0,-0.29,0,0,0.05,90,0,0,0,0,0,0,0,0,-0.022,0,0,0,0,90.37,1,-0.022,-0.196,0.0051,0.741,0,0.0051,0,0,0,0,0,0,1,1,0,0,VALID,0,0,0,0,0,1,0,0,0,0,0,0,0,0,0,0,0,0,0,0,352.43,488.7,2,0,0.08,0.08,333,14.29,0.08,0.06,22.62,LANDED,CF1-F,0:/Integrated Flight Computer/aircraft/cf1_f_cfg.ks (inferred preloaded)
22.98,TAKEOFF,TO_GROUND_ROLL,67.24,80,12.76,4.04,-0.26,2.15,2.34,90.18,0.094,1,0,0,0,0,0,0,0,0,0,90.37,0,1,0,-0.22,0,0,0.05,90,0,0,0,0,0,0,0,0,-0.023,0,0,0,0,90.37,1,-0.023,-0.188,0.0049,0.756,0,0.0049,0,0,0,0,0,0,1,1,0,0,VALID,0,0,0,0,0,1,0,0,0,0,0,0,0,0,0,0,0,0,0,0,354.02,487.76,2,0,0.08,0.08,337,14.29,0.08,0.06,22.9,LANDED,CF1-F,0:/Integrated Flight Computer/aircraft/cf1_f_cfg.ks (inferred preloaded)
23.26,TAKEOFF,TO_GROUND_ROLL,68.6,80,11.4,4.1,-0.3,2.46,2.68,90.19,0.094,1,0,0,0,0,0,0,0,0,0,90.37,0,1,0,-0.25,0,0,0.06,90,0,0,0,0,0,0,0,0,-0.024,0,0,0,0,90.37,1,-0.024,-0.181,0.0047,0.771,0,0.0047,0,0,0,0,0,0,1,1,0,0,VALID,0,0,0,0,0,1,0,0,0,0,0,0,0,0,0,0,0,0,0,0,355.57,486.82,2,0,0.08,0.08,341,14.29,0.08,0.06,23.18,LANDED,CF1-F,0:/Integrated Flight Computer/aircraft/cf1_f_cfg.ks (inferred preloaded)
23.54,TAKEOFF,TO_GROUND_ROLL,69.96,80,10.04,4.17,-0.28,2.84,3.03,90.2,0.092,1,0,0,0,0,0,0,0,0,0,90.37,0,1,0,-0.23,0,0,0.06,90,0,0,0,0,0,0,0,0,-0.026,0,0,0,0,90.37,1,-0.026,-0.173,0.0046,0.785,0,0.0046,0,0,0,0,0,0,1,1,0,0,VALID,0,0,0,0,0,1,0,0,0,0,0,0,0,0,0,0,0,0,0,0,357.06,485.87,2,0,0.08,0.08,345,14.29,0.08,0.06,23.46,LANDED,CF1-F,0:/Integrated Flight Computer/aircraft/cf1_f_cfg.ks (inferred preloaded)
23.84,TAKEOFF,TO_ROTATE,71.41,80,8.59,4.27,-0.28,3.33,3.55,90.2,0.089,1,0,0,0,0,0,0,0,0,0,90.37,3.601,1,0,-0.23,0,0,0.06,90,0,0,0,0,0,0,0,0,-0.027,0,0,0,0,90.37,1,-0.027,-0.166,0.0044,0.8,0,0.0044,0,0.12,3.601,0.267,0.08,0,1,1,0,0,VALID,0,0,0,0,0,1,0,0,0,0,0,0,0,0,0,0,0,0,0,0,358.61,484.86,2,0,0.08,0.08,349,13.33,0.08,0.06,23.74,LANDED,CF1-F,0:/Integrated Flight Computer/aircraft/cf1_f_cfg.ks (inferred preloaded)
24.12,TAKEOFF,TO_ROTATE,72.76,80,7.24,4.4,-0.28,3.97,4.18,90.21,0.088,1,0,0,0,0,0,0,0,0,0,90.37,4.441,1,0,-0.22,0,0,0.06,90,0,0,0,0,0,0,0,0,-0.029,0,0,0,0,90.37,1,-0.029,-0.159,0.0043,0.814,0,0.0043,0,0.12,4.441,0.474,0.08,0,1,1,0,0,VALID,0,0,0,0,0,1,0,0,0,0,0,0,0,0,0,0,0,0,0,0,360.02,483.92,2,0,0.08,0.08,353,14.29,0.08,0.06,24.02,LANDED,CF1-F,0:/Integrated Flight Computer/aircraft/cf1_f_cfg.ks (inferred preloaded)
24.4,TAKEOFF,TO_ROTATE,74.08,80,5.92,4.56,-0.27,4.79,4.99,90.21,0.087,1,0,0,0,0,0,0,0,0,0,90.37,5.281,1,0,-0.21,0,0,0.06,90,0,0,0,0,0,0,0,0,-0.03,0,0,0,0,90.37,1,-0.03,-0.151,0.0041,0.828,0,0.0041,0,0.12,5.281,0.491,0.08,0,1,1,0,0,VALID,0,0,0,0,0,1,0,0,0,0,0,0,0,0,0,0,0,0,0,0,361.39,482.99,2,0,0.08,0.08,357,14.29,0.08,0.06,24.3,LANDED,CF1-F,0:/Integrated Flight Computer/aircraft/cf1_f_cfg.ks (inferred preloaded)
24.68,TAKEOFF,TO_ROTATE,75.37,80,4.63,4.75,-0.27,5.78,5.98,90.22,0.086,1,0,0,0,0,0,0,0,0,0,90.36,6.121,1,0,-0.2,0,0,0.07,90,0,0,0,0,0,0,0,0,-0.032,0,0,0,0,90.36,1,-0.032,-0.144,0.0039,0.842,0,0.0039,0,0.12,6.121,0.339,0.08,0,1,1,0,0,VALID,0,0,0,0,0,1,0,0,0,0,0,0,0,0,0,0,0,0,0,0,362.73,482.07,2,0,0.08,0.08,361,14.29,0.08,0.06,24.58,LANDED,CF1-F,0:/Integrated Flight Computer/aircraft/cf1_f_cfg.ks (inferred preloaded)
24.96,TAKEOFF,TO_ROTATE,76.62,80,3.38,4.96,-0.27,6.89,7.08,90.23,0.083,1,0,0,0,0,0,0,0,0,0,90.36,6.961,1,0,-0.2,0,0,0.07,90,0,0,0,0,0,0,0,0,-0.033,0,0,0,0,90.36,1,-0.033,-0.136,0.0037,0.856,0,0.0037,0,0.12,6.961,0.072,0.08,0,1,1,0,0,VALID,0,0,0,0,0,1,0,0,0,0,0,0,0,0,0,0,0,0,0,0,364.05,481.19,2,0,0.08,0.08,365,14.29,0.08,0.06,24.86,LANDED,CF1-F,0:/Integrated Flight Computer/aircraft/cf1_f_cfg.ks (inferred preloaded)
25.24,TAKEOFF,TO_ROTATE,77.81,80,2.19,5.17,-0.26,8.03,8.22,90.23,0.081,1,0,0,0,0,0,0,0,0,0,90.36,7.801,1,0,-0.2,0,0,0.07,90,0,0,0,0,0,0,0,0,-0.035,0,0,0,0,90.36,1,-0.035,-0.129,0.0035,0.868,0,0.0035,0,0.0618,7.801,-0.228,0.08,0,1,1,0,0,VALID,0,0,0,0,0,1,0,0,0,0,0,0,0,0,0,0,0,0,0,0,365.35,480.34,2,0,0.08,0.08,369,14.29,0.08,0.06,25.14,LANDED,CF1-F,0:/Integrated Flight Computer/aircraft/cf1_f_cfg.ks (inferred preloaded)
25.5,TAKEOFF,TO_ROTATE,78.85,80,1.15,5.37,-0.07,9.05,9.05,90.23,0.056,1,0,0,0,0,0,0,0,0,0,90.4,8.641,1,0,-0.05,0,0,0.07,90,-0.8746,-0.0064,0.4847,17.69,90.4,0,0,0,0,0,0,0,0,90.4,1,0,-0.165,0,0,3,0,0,0,8.641,-0.413,0,0,1,1,0,0,VALID,0,0,0,0,0,1,0,0,0,0,0,0,0,0,0,0,0,0,0,0,366.56,479.6,2,0,0.08,0.08,373,15.38,0.08,0.06,25.4,FLYING,CF1-F,0:/Integrated Flight Computer/aircraft/cf1_f_cfg.ks (inferred preloaded)
25.78,TAKEOFF,TO_ROTATE,79.92,80,0.08,5.63,0.43,9.74,9.43,90.23,0.058,1,0,0,0,0,0,0,0,0,0,90.4,9.481,0,1,0.31,0,0,18.61,90.4,-0.8642,-0.0064,0.5031,18.91,90.4,0,0,0,0,0,0,0,0,90.4,1,0,-0.168,0,0,3,0,0,0,9.481,-0.258,0,0,1,1,0,0,VALID,0,0,0,0,0,1,0,0,0,0,0,0,0,0,0,0,0,0,0,0,367.86,478.83,2,0,0.08,0.08,377,14.29,0.08,0.06,25.68,FLYING,CF1-F,0:/Integrated Flight Computer/aircraft/cf1_f_cfg.ks (inferred preloaded)
26.06,TAKEOFF,TO_ROTATE,80.94,80,-0.94,6.09,0.93,10.72,10.01,90.24,0.075,1,0,0,0,0,0,0,0,0,0,90.4,10,0,1,0.66,0,0,19.75,90.4,-0.8544,-0.0063,0.5196,20.01,90.4,0,0,0,0,0,0,0,0,90.4,1,0,-0.164,0,0,3,0,0,0,10,-0.725,0,0,1,1,0,0,VALID,0,0,0,0,0,1,0,0,0,0,0,0,0,0,0,0,0,0,0,0,369.13,478.08,2,0,0.08,0.08,381,14.29,0.08,0.06,25.96,FLYING,CF1-F,0:/Integrated Flight Computer/aircraft/cf1_f_cfg.ks (inferred preloaded)
26.34,TAKEOFF,TO_ROTATE,81.88,80,-1.88,6.83,1.89,12.23,10.93,90.24,0.083,1,0,0,0,0,0,0,0,0,0,90.4,10,0,1,1.32,0,0,20.77,90.4,-0.846,-0.0063,0.5332,20.93,90.4,0,0,0,0,0,0,0,0,90.4,1,0,-0.159,0,0,3,0,0,0,10,-2.226,0,0,1,1,0,0,VALID,0,0,0,0,0,1,0,0,0,0,0,0,0,0,0,0,0,0,0,0,370.4,477.38,2,0,0.08,0.08,385,14.29,0.08,0.06,26.24,FLYING,CF1-F,0:/Integrated Flight Computer/aircraft/cf1_f_cfg.ks (inferred preloaded)
26.62,TAKEOFF,TO_CLIMB,82.73,80,-2.73,7.73,3.06,12.79,10.76,90.24,0.075,0.9727,0,0,0,0,0,0,0,0,0,90.4,12.06,0,1,2.12,0,0,23.05,90.4,-0.8279,-0.0061,0.5608,22.82,90.4,0,0,0,0,0,0,0,0,90.4,1,0,-0.158,0,0,3,0,0,0,10,-2.412,0,0,1,1,0,0,VALID,0,0,0,0,0,1,0,0,0,0,0,0,0,0,0,0,0,0,0,0,371.6,476.72,2,0,0.08,0.08,389,14.29,0.08,0.06,26.52,FLYING,CF1-F,0:/Integrated Flight Computer/aircraft/cf1_f_cfg.ks (inferred preloaded)
26.9,TAKEOFF,TO_CLIMB,83.56,80,-3.56,8.92,4.17,13.26,10.52,90.24,0.083,0.9644,0,0,0,0,0,0,0,0,0,90.4,11.612,0,1,2.85,0,0,22.34,90.4,-0.8346,-0.0062,0.5508,22.13,90.4,0,0,0,0,0,0,0,0,90.4,1,0,-0.155,0,0,3,0,0,0,10,-2.412,0,0,1,1,0,0,VALID,0,0,0,0,0,1,0,0,0,0,0,0,0,0,0,0,0,0,0,0,372.6,476.05,2,0,0.08,0.08,393,14.29,0.08,0.06,26.8,FLYING,CF1-F,0:/Integrated Flight Computer/aircraft/cf1_f_cfg.ks (inferred preloaded)
27.18,TAKEOFF,TO_CLIMB,84.37,80,-4.37,10.41,5.3,13.56,10.12,90.25,0.09,0.9563,0,0,0,0,0,0,0,0,0,90.4,11.164,0,1,3.59,0,0,21.55,90.4,-0.8427,-0.0062,0.5383,21.28,90.4,0,0,0,0,0,0,0,0,90.4,1,0,-0.152,0,0,3,0,0,0,10,-2.412,0,0,1,1,0,0,VALID,0,0,0,0,0,1,0,0,0,0,0,0,0,0,0,0,0,0,0,0,373.5,475.38,2,0,0.08,0.08,397,14.29,0.08,0.06,27.08,FLYING,CF1-F,0:/Integrated Flight Computer/aircraft/cf1_f_cfg.ks (inferred preloaded)
27.46,TAKEOFF,TO_CLIMB,85.16,80,-5.16,12.17,6.38,13.73,9.61,90.25,0.096,0.9484,0,0,0,0,0,0,0,0,0,90.4,10.716,0,1,4.28,0,0,20.61,90.4,-0.8516,-0.0063,0.5242,20.33,90.4,0,0,0,0,0,0,0,0,90.4,1,0,-0.148,0,0,3,0,0,0,10,-2.412,0,0,1,1,0,0,VALID,0,0,0,0,0,1,0,0,0,0,0,0,0,0,0,0,0,0,0,0,374.3,474.7,2,0,0.08,0.08,401,14.29,0.08,0.06,27.36,FLYING,CF1-F,0:/Integrated Flight Computer/aircraft/cf1_f_cfg.ks (inferred preloaded)
27.74,TAKEOFF,TO_CLIMB,85.96,80,-5.96,14.23,7.39,13.85,9.12,90.26,0.103,0.9404,0,0,0,0,0,0,0,0,0,90.4,10.268,0,1,4.91,0,0,19.66,90.4,-0.8601,-0.0063,0.5101,19.39,90.4,0,0,0,0,0,0,0,0,90.4,1,0,-0.145,0,0,3,0,0,0,10,-2.412,0,0,1,1,0,0,VALID,0,0,0,0,0,1,0,0,0,0,0,0,0,0,0,0,0,0,0,0,374.99,473.99,2,0,0.08,0.08,405,14.29,0.08,0.06,27.64,FLYING,CF1-F,0:/Integrated Flight Computer/aircraft/cf1_f_cfg.ks (inferred preloaded)
28.02,TAKEOFF,TO_CLIMB,86.75,80,-6.75,16.55,8.34,13.94,8.65,90.26,0.109,0.9325,0,0,0,0,0,0,0,0,0,90.4,9.82,0,1,5.49,0,0,18.74,90.4,-0.8682,-0.0064,0.4962,18.47,90.4,0,0,0,0,0,0,0,0,90.4,1,0,-0.141,0,0,3,0,0,0,10,-2.412,0,0,1,1,0,0,VALID,0,0,0,0,0,1,0,0,0,0,0,0,0,0,0,0,0,0,0,0,375.59,473.27,2,0,0.08,0.08,409,14.29,0.08,0.06,27.92,FLYING,CF1-F,0:/Integrated Flight Computer/aircraft/cf1_f_cfg.ks (inferred preloaded)
28.3,TAKEOFF,TO_CLIMB,87.55,80,-7.55,19.12,9.23,13.99,8.17,90.26,0.115,0.9245,0,0,0,0,0,0,0,0,0,90.4,9.372,0,1,6.02,0,0,17.81,90.4,-0.8761,-0.0064,0.4821,17.55,90.4,0,0,0,0,0,0,0,0,90.4,1,0,-0.138,0,0,3,0,0,0,10,-2.412,0,0,1,1,0,0,VALID,0,0,0,0,0,1,0,0,0,0,0,0,0,0,0,0,0,0,0,0,376.08,472.53,2,0,0.08,0.08,413,14.29,0.08,0.06,28.2,FLYING,CF1-F,0:/Integrated Flight Computer/aircraft/cf1_f_cfg.ks (inferred preloaded)
28.58,TAKEOFF,TO_CLIMB,88.35,80,-8.35,21.92,10.06,13.99,7.71,90.27,0.119,0.9165,0,0,0,0,0,0,0,0,0,90.4,8.924,0,1,6.49,0,0,16.91,90.4,-0.8836,-0.0065,0.4681,16.64,90.4,0,0,0,0,0,0,0,0,90.4,1,0,-0.134,0,0,3,0,0,0,10,-2.412,0,0,1,1,0,0,VALID,0,0,0,0,0,1,0,0,0,0,0,0,0,0,0,0,0,0,0,0,376.47,471.77,2,0,0.08,0.08,417,14.29,0.08,0.06,28.48,FLYING,CF1-F,0:/Integrated Flight Computer/aircraft/cf1_f_cfg.ks (inferred preloaded)
28.86,TAKEOFF,TO_CLIMB,89.13,80,-9.13,24.97,10.9,14,7.22,90.27,0.121,0.9087,0,0,0,0,0,0,0,0,0,90.4,8.476,0,1,6.97,0,0,15.93,90.4,-0.8912,-0.0065,0.4535,15.7,90.4,0,0,0,0,0,0,0,0,90.4,1,0,-0.132,0,0,3,0,0,0,10,-2.412,0,0,1,1,0,0,VALID,0,0,0,0,0,1,0,0,0,0,0,0,0,0,0,0,0,0,0,0,376.78,471,2,0,0.08,0.08,421,14.29,0.08,0.06,28.76,FLYING,CF1-F,0:/Integrated Flight Computer/aircraft/cf1_f_cfg.ks (inferred preloaded)
29.14,TAKEOFF,TO_CLIMB,89.91,80,-9.91,28.29,11.73,14.32,7.09,90.27,0.121,0.9009,0,0,0,0,0,0,0,0,0,90.4,8.028,0,1,7.43,0,0,15.29,90.4,-0.8958,-0.0065,0.4444,15.12,90.4,0,0,0,0,0,0,0,0,90.4,1,0,-0.129,0,0,3,0,0,0,10,-2.412,0,0,1,1,0,0,VALID,0,0,0,0,0,1,0,0,0,0,0,0,0,0,0,0,0,0,0,0,377,470.23,2,0,0.08,0.08,425,14.29,0.08,0.06,29.04,FLYING,CF1-F,0:/Integrated Flight Computer/aircraft/cf1_f_cfg.ks (inferred preloaded)
29.42,TAKEOFF,TO_CLIMB,90.66,80,-10.66,31.84,12.61,14.6,6.91,90.27,0.122,0.8934,0,0,0,0,0,0,0,0,0,90.4,8,0,1,7.92,0,0,14.98,90.4,-0.8974,-0.0066,0.4411,14.91,90.4,0,0,0,0,0,0,0,0,90.4,1,0,-0.126,0,0,3,0,0,0,10,-2.412,0,0,1,1,0,0,VALID,0,0,0,0,0,1,0,0,0,0,0,0,0,0,0,0,0,0,0,0,377.14,469.45,2,0,0.08,0.08,429,14.29,0.08,0.06,29.32,FLYING,CF1-F,0:/Integrated Flight Computer/aircraft/cf1_f_cfg.ks (inferred preloaded)
29.7,TAKEOFF,TO_CLIMB,91.39,80,-11.39,35.52,13.51,14.09,5.96,90.28,0.124,0.8861,0,0,0,0,0,0,0,0,0,90.4,8,0,1,8.41,0,0,14.31,90.4,-0.9046,-0.0066,0.4261,13.96,90.4,0,0,0,0,0,0,0,0,90.4,1,0,-0.124,0,0,3,0,0,0,10,-2.412,0,0,1,1,0,0,VALID,0,0,0,0,0,1,0,0,0,0,0,0,0,0,0,0,0,0,0,0,377.21,468.68,2,0,0.08,0.08,433,14.29,0.08,0.06,29.6,FLYING,CF1-F,0:/Integrated Flight Computer/aircraft/cf1_f_cfg.ks (inferred preloaded)
29.98,TAKEOFF,TO_CLIMB,92.17,80,-12.17,39.4,13.89,13.76,5.38,90.28,0.126,0.8783,0,0,0,0,0,0,0,0,0,90.4,8,0,1,8.57,0,0,13.41,90.4,-0.9089,-0.0066,0.417,13.38,90.4,0,0,0,0,0,0,0,0,90.4,1,0,-0.122,0,0,3,0,0,0,10,-2.412,0,0,1,1,0,0,VALID,0,0,0,0,0,1,0,0,0,0,0,0,0,0,0,0,0,0,0,0,377.18,467.86,2,0,0.08,0.08,437,14.29,0.08,0.06,29.88,FLYING,CF1-F,0:/Integrated Flight Computer/aircraft/cf1_f_cfg.ks (inferred preloaded)
30.26,TAKEOFF,TO_CLIMB,92.97,80,-12.97,43.46,14.43,13.76,5.17,90.28,0.127,0.8703,0,0,0,0,0,0,0,0,0,90.4,8,0,1,8.82,0,0,13.31,90.4,-0.9104,-0.0066,0.4136,13.17,90.4,0,0,0,0,0,0,0,0,90.4,1,0,-0.119,0,0,3,0,0,0,10,-2.412,0,0,1,1,0,0,VALID,0,0,0,0,0,1,0,0,0,0,0,0,0,0,0,0,0,0,0,0,377.05,467.02,2,0,0.08,0.08,441,14.29,0.08,0.06,30.16,FLYING,CF1-F,0:/Integrated Flight Computer/aircraft/cf1_f_cfg.ks (inferred preloaded)
30.54,TAKEOFF,TO_CLIMB,93.78,80,-13.78,47.63,14.66,13.8,5.1,90.28,0.128,0.8622,0,0,0,0,0,0,0,0,0,90.4,8,0,1,8.89,0,0,13.03,90.4,-0.911,-0.0066,0.4124,13.1,90.4,0,0,0,0,0,0,0,0,90.4,1,0,-0.116,0,0,3,0,0,0,10,-2.412,0,0,1,1,0,0,VALID,0,0,0,0,0,1,0,0,0,0,0,0,0,0,0,0,0,0,0,0,376.83,466.16,2,0,0.08,0.08,445,14.29,0.08,0.06,30.44,FLYING,CF1-F,0:/Integrated Flight Computer/aircraft/cf1_f_cfg.ks (inferred preloaded)
30.82,TAKEOFF,TO_CLIMB,94.59,80,-14.59,51.92,15.08,13.94,5.09,90.29,0.13,0.8541,0,0,0,0,0,0,0,0,0,90.4,8,0,1,9.06,0,0,13.09,90.4,-0.9111,-0.0066,0.4122,13.09,90.4,0,0,0,0,0,0,0,0,90.4,1,0,-0.112,0,0,3,0,0,0,10,-2.412,0,0,1,1,0,0,VALID,0,0,0,0,0,1,0,0,0,0,0,0,0,0,0,0,0,0,0,0,376.54,465.3,2,0,0.08,0.08,449,14.29,0.08,0.06,30.72,FLYING,CF1-F,0:/Integrated Flight Computer/aircraft/cf1_f_cfg.ks (inferred preloaded)
31.1,TAKEOFF,TO_CLIMB,95.39,80,-15.39,56.28,15.49,13.91,4.9,90.29,0.131,0.8461,0,0,0,0,0,0,0,0,0,90.4,8,0,1,9.22,0,0,12.96,90.4,-0.9124,-0.0066,0.4092,12.9,90.4,0,0,0,0,0,0,0,0,90.4,1,0,-0.109,0,0,3,0,0,0,10,-2.412,0,0,1,1,0,0,VALID,0,0,0,0,0,1,0,0,0,0,0,0,0,0,0,0,0,0,0,0,376.17,464.44,2,0,0.08,0.08,453,14.29,0.08,0.06,31,FLYING,CF1-F,0:/Integrated Flight Computer/aircraft/cf1_f_cfg.ks (inferred preloaded)
31.38,TAKEOFF,TO_CLIMB,96.19,80,-16.19,60.76,15.86,13.87,4.72,90.29,0.132,0.8381,0,0,0,0,0,0,0,0,0,90.4,8,0,1,9.36,0,0,12.76,90.4,-0.9138,-0.0066,0.4062,12.72,90.4,0,0,0,0,0,0,0,0,90.4,1,0,-0.106,0,0,3,0,0,0,10,-2.412,0,0,1,1,0,0,VALID,0,0,0,0,0,1,0,0,0,0,0,0,0,0,0,0,0,0,0,0,375.74,463.57,2,0,0.08,0.08,457,14.29,0.08,0.06,31.28,FLYING,CF1-F,0:/Integrated Flight Computer/aircraft/cf1_f_cfg.ks (inferred preloaded)
31.66,TAKEOFF,TO_CLIMB,96.98,80,-16.98,65.34,16.22,13.84,4.55,90.3,0.133,0.8302,0,0,0,0,0,0,0,0,0,90.4,8,0,1,9.5,0,0,12.6,90.4,-0.915,-0.0067,0.4035,12.55,90.4,0,0,0,0,0,0,0,0,90.4,1,0,-0.103,0,0,3,0,0,0,10,-2.412,0,0,1,1,0,0,VALID,0,0,0,0,0,1,0,0,0,0,0,0,0,0,0,0,0,0,0,0,375.23,462.7,2,0,0.08,0.08,461,14.29,0.08,0.06,31.56,FLYING,CF1-F,0:/Integrated Flight Computer/aircraft/cf1_f_cfg.ks (inferred preloaded)
31.94,TAKEOFF,TO_CLIMB,97.77,80,-17.77,70.01,16.57,13.79,4.38,90.3,0.134,0.8223,0,0,0,0,0,0,0,0,0,90.4,8,0,1,9.62,0,0,12.43,90.4,-0.9162,-0.0067,0.4007,12.38,90.4,0,0,0,0,0,0,0,0,90.4,1,0,-0.099,0,0,3,0,0,0,10,-2.412,0,0,1,1,0,0,VALID,0,0,0,0,0,1,0,0,0,0,0,0,0,0,0,0,0,0,0,0,374.66,461.83,2,0,0.08,0.08,465,14.29,0.08,0.06,31.84,FLYING,CF1-F,0:/Integrated Flight Computer/aircraft/cf1_f_cfg.ks (inferred preloaded)
32.22,TAKEOFF,TO_CLIMB,98.55,80,-18.55,74.78,16.91,13.73,4.2,90.3,0.135,0.8145,0,0,0,0,0,0,0,0,0,90.4,8,0,1,9.73,0,0,12.26,90.4,-0.9174,-0.0067,0.3979,12.2,90.4,0,0,0,0,0,0,0,0,90.4,1,0,-0.096,0,0,3,0,0,0,10,-2.412,0,0,1,1,0,0,VALID,0,0,0,0,0,1,0,0,0,0,0,0,0,0,0,0,0,0,0,0,374.03,460.96,2,0,0.08,0.08,469,14.29,0.08,0.06,32.12,FLYING,CF1-F,0:/Integrated Flight Computer/aircraft/cf1_f_cfg.ks (inferred preloaded)
32.5,TAKEOFF,TO_CLIMB,99.34,80,-19.34,79.64,17.22,13.67,4.04,90.31,0.135,0.8066,0,0,0,0,0,0,0,0,0,90.4,8,0,1,9.83,0,0,12.09,90.4,-0.9185,-0.0067,0.3953,12.04,90.4,0,0,0,0,0,0,0,0,90.4,1,0,-0.093,0,0,3,0,0,0,10,-2.412,0,0,1,1,0,0,VALID,0,0,0,0,0,1,0,0,0,0,0,0,0,0,0,0,0,0,0,0,373.31,460.08,2,0,0.08,0.08,473,14.29,0.08,0.06,32.4,FLYING,CF1-F,0:/Integrated Flight Computer/aircraft/cf1_f_cfg.ks (inferred preloaded)
32.78,TAKEOFF,TO_CLIMB,100.12,80,-20.12,84.58,17.52,13.61,3.89,90.31,0.135,0.7988,0,0,0,0,0,0,0,0,0,90.4,8,0,1,9.92,0,0,11.93,90.4,-0.9196,-0.0067,0.3928,11.89,90.4,0,0,0,0,0,0,0,0,90.4,1,0,-0.089,0,0,3,0,0,0,10,-2.412,0,0,1,1,0,0,VALID,0,0,0,0,0,1,0,0,0,0,0,0,0,0,0,0,0,0,0,0,372.4,459.2,2,0,0.08,0.08,477,14.29,0.08,0.06,32.68,FLYING,CF1-F,0:/Integrated Flight Computer/aircraft/cf1_f_cfg.ks (inferred preloaded)
33.06,TAKEOFF,TO_CLIMB,100.89,80,-20.89,89.6,17.8,13.55,3.75,90.31,0.134,0.7911,0,0,0,0,0,0,0,0,0,90.4,8,0,1,10.01,0,0,11.79,90.4,-0.9206,-0.0067,0.3904,11.75,90.4,0,0,0,0,0,0,0,0,90.4,1,0,-0.086,0,0,3,0,0,0,10,-2.412,0,0,1,1,0,0,VALID,0,0,0,0,0,1,0,0,0,0,0,0,0,0,0,0,0,0,0,0,371.25,458.32,2,0,0.08,0.08,481,14.29,0.08,0.06,32.96,FLYING,CF1-F,0:/Integrated Flight Computer/aircraft/cf1_f_cfg.ks (inferred preloaded)
33.34,TAKEOFF,TO_CLIMB,101.66,80,-21.66,94.7,18.07,13.48,3.6,90.32,0.13,0.7834,0,0,0,0,0,0,0,0,0,90.4,8,0,1,10.08,0,0,11.64,90.4,-0.9216,-0.0067,0.3881,11.6,90.4,0,0,0,0,0,0,0,0,90.4,1,0,-0.083,0,0,3,0,0,0,10,-2.412,0,0,1,1,0,0,VALID,0,0,0,0,0,1,0,0,0,0,0,0,0,0,0,0,0,0,0,0,369.9,457.44,2,0,0.08,0.08,485,14.29,0.08,0.06,33.24,FLYING,CF1-F,0:/Integrated Flight Computer/aircraft/cf1_f_cfg.ks (inferred preloaded)
33.62,TAKEOFF,TO_CLIMB,102.43,80,-22.43,99.9,18.32,13.43,3.49,90.32,0.13,0.78,0,0,0,0,0,0,0,0,0,90.4,8,0,1,10.14,0,0,11.52,90.4,-0.9224,-0.0067,0.3862,11.49,90.4,0,0,0,0,0,0,0,0,90.4,1,0,-0.08,0,0,3,0,0,0,10,-2.412,0,0,1,1,0,0,VALID,0,0,0,0,0,1,0,0,0,0,0,0,0,0,0,0,0,0,0,0,368.36,456.56,2,0,0.08,0.08,489,14.29,0.08,0.06,33.52,FLYING,CF1-F,0:/Integrated Flight Computer/aircraft/cf1_f_cfg.ks (inferred preloaded)
33.9,TAKEOFF,TO_CLIMB,103.19,80,-23.19,105.14,18.58,13.41,3.41,90.32,0.13,0.78,0,0,0,0,0,0,0,0,0,90.4,8,0,1,10.21,0,0,11.43,90.4,-0.923,-0.0067,0.3848,11.41,90.4,0,0,0,0,0,0,0,0,90.4,1,0,-0.077,0,0,3,0,0,0,10,-2.412,0,0,1,1,0,0,VALID,0,0,0,0,0,1,0,0,0,0,0,0,0,0,0,0,0,0,0,0,366.83,455.68,2,0,0.08,0.08,493,14.29,0.08,0.06,33.8,FLYING,CF1-F,0:/Integrated Flight Computer/aircraft/cf1_f_cfg.ks (inferred preloaded)
34.18,TAKEOFF,TO_CLIMB,103.94,80,-23.94,110.46,18.84,13.37,3.31,90.33,0.13,0.78,0,0,0,0,0,0,0,0,0,90.4,8,0,1,10.27,0,0,11.34,90.4,-0.9237,-0.0067,0.3831,11.31,90.4,0,0,0,0,0,0,0,0,90.4,1,0,-0.073,0,0,3,0,0,0,10,-2.412,0,0,1,1,0,0,VALID,0,0,0,0,0,1,0,0,0,0,0,0,0,0,0,0,0,0,0,0,365.36,454.81,2,0,0.08,0.08,497,14.29,0.08,0.06,34.08,FLYING,CF1-F,0:/Integrated Flight Computer/aircraft/cf1_f_cfg.ks (inferred preloaded)
34.46,TAKEOFF,TO_CLIMB,104.68,80,-24.68,115.84,19.08,13.31,3.18,90.33,0.131,0.78,0,0,0,0,0,0,0,0,0,90.4,8,0,1,10.33,0,0,11.22,90.4,-0.9245,-0.0067,0.3811,11.18,90.4,0,0,0,0,0,0,0,0,90.4,1,0,-0.07,0,0,3,0,0,0,10,-2.412,0,0,1,1,0,0,VALID,0,0,0,0,0,1,0,0,0,0,0,0,0,0,0,0,0,0,0,0,363.95,453.94,2,0,0.08,0.08,501,14.29,0.08,0.06,34.36,FLYING,CF1-F,0:/Integrated Flight Computer/aircraft/cf1_f_cfg.ks (inferred preloaded)
34.74,TAKEOFF,TO_CLIMB,105.42,80,-25.42,121.29,19.32,13.24,3.06,90.33,0.131,0.78,0,0,0,0,0,0,0,0,0,90.4,8,0,1,10.38,0,0,11.1,90.4,-0.9253,-0.0067,0.3792,11.06,90.4,0,0,0,0,0,0,0,0,90.4,1,0,-0.067,0,0,3,0,0,0,10,-2.412,0,0,1,1,0,0,VALID,0,0,0,0,0,1,0,0,0,0,0,0,0,0,0,0,0,0,0,0,362.58,453.07,2,0,0.08,0.08,505,14.29,0.08,0.06,34.64,FLYING,CF1-F,0:/Integrated Flight Computer/aircraft/cf1_f_cfg.ks (inferred preloaded)
35.02,TAKEOFF,TO_CLIMB,106.15,80,-26.15,126.8,19.54,13.18,2.95,90.34,0.13,0.78,0,0,0,0,0,0,0,0,0,90.4,8,0,1,10.43,0,0,10.98,90.4,-0.9261,-0.0067,0.3773,10.95,90.4,0,0,0,0,0,0,0,0,90.4,1,0,-0.064,0,0,3,0,0,0,10,-2.412,0,0,1,1,0,0,VALID,0,0,0,0,0,1,0,0,0,0,0,0,0,0,0,0,0,0,0,0,361.27,452.2,2,0,0.08,0.08,509,14.29,0.08,0.06,34.92,FLYING,CF1-F,0:/Integrated Flight Computer/aircraft/cf1_f_cfg.ks (inferred preloaded)
35.3,TAKEOFF,TO_CLIMB,106.87,80,-26.87,132.37,19.75,13.1,2.84,90.34,0.129,0.78,0,0,0,0,0,0,0,0,0,90.4,8,0,1,10.47,0,0,10.87,90.4,-0.9268,-0.0067,0.3754,10.84,90.4,0,0,0,0,0,0,0,0,90.4,1,0,-0.061,0,0,3,0,0,0,10,-2.412,0,0,1,1,0,0,VALID,0,0,0,0,0,1,0,0,0,0,0,0,0,0,0,0,0,0,0,0,360,451.33,2,0,0.08,0.08,513,14.29,0.08,0.06,35.2,FLYING,CF1-F,0:/Integrated Flight Computer/aircraft/cf1_f_cfg.ks (inferred preloaded)
35.58,TAKEOFF,TO_CLIMB,107.59,80,-27.59,137.99,19.94,13.01,2.72,90.34,0.123,0.78,0,0,0,0,0,0,0,0,0,90.4,8,0,1,10.5,0,0,10.76,90.4,-0.9276,-0.0067,0.3735,10.72,90.4,0,0,0,0,0,0,0,0,90.4,1,0,-0.058,0,0,3,0,0,0,10,-2.412,0,0,1,1,0,0,VALID,0,0,0,0,0,1,0,0,0,0,0,0,0,0,0,0,0,0,0,0,358.77,450.46,2,0,0.08,0.08,517,14.29,0.08,0.06,35.48,FLYING,CF1-F,0:/Integrated Flight Computer/aircraft/cf1_f_cfg.ks (inferred preloaded)
35.86,TAKEOFF,TO_CLIMB,108.31,80,-28.31,143.66,20.11,12.92,2.61,90.34,0.111,0.78,0,0,0,0,0,0,0,0,0,90.4,8,0,1,10.52,0,0,10.64,90.4,-0.9284,-0.0067,0.3716,10.61,90.4,0,0,0,0,0,0,0,0,90.4,1,0,-0.056,0,0,3,0,0,0,10,-2.412,0,0,1,1,0,0,VALID,0,0,0,0,0,1,0,0,0,0,0,0,0,0,0,0,0,0,0,0,357.59,449.6,2,0,0.08,0.08,521,14.29,0.08,0.06,35.76,FLYING,CF1-F,0:/Integrated Flight Computer/aircraft/cf1_f_cfg.ks (inferred preloaded)
36.14,TAKEOFF,TO_CLIMB,109.02,80,-29.02,149.37,20.27,12.84,2.51,90.35,0.098,0.78,0,0,0,0,0,0,0,0,0,90.4,8,0,1,10.53,0,0,10.54,90.4,-0.929,-0.0067,0.37,10.51,90.4,0,0,0,0,0,0,0,0,90.4,1,0,-0.055,0,0,3,0,0,0,10,-2.412,0,0,1,1,0,0,VALID,0,0,0,0,0,1,0,0,0,0,0,0,0,0,0,0,0,0,0,0,356.44,448.73,2,0,0.08,0.08,525,14.29,0.08,0.06,36.04,FLYING,CF1-F,0:/Integrated Flight Computer/aircraft/cf1_f_cfg.ks (inferred preloaded)
36.42,TAKEOFF,TO_CLIMB,109.74,80,-29.74,155.12,20.42,12.77,2.43,90.35,0.085,0.78,0,0,0,0,0,0,0,0,0,90.4,8,0,1,10.54,0,0,10.46,90.4,-0.9295,-0.0067,0.3687,10.43,90.4,0,0,0,0,0,0,0,0,90.4,1,0,-0.053,0,0,3,0,0,0,10,-2.412,0,0,1,1,0,0,VALID,0,0,0,0,0,1,0,0,0,0,0,0,0,0,0,0,0,0,0,0,355.32,447.87,2,0,0.08,0.08,529,14.29,0.08,0.06,36.32,FLYING,CF1-F,0:/Integrated Flight Computer/aircraft/cf1_f_cfg.ks (inferred preloaded)
36.7,TAKEOFF,TO_CLIMB,110.44,80,-30.44,160.94,20.57,12.7,2.36,90.35,0.073,0.78,0,0,0,0,0,0,0,0,0,90.4,8,0,1,10.55,0,0,10.38,90.4,-0.93,-0.0067,0.3674,10.36,90.4,0,0,0,0,0,0,0,0,90.4,1,0,-0.052,0,0,3,0,0,0,10,-2.412,0,0,1,1,0,0,VALID,0,0,0,0,0,1,0,0,0,0,0,0,0,0,0,0,0,0,0,0,354.24,447.01,2,0,0.08,0.08,533,14.29,0.08,0.06,36.6,FLYING,CF1-F,0:/Integrated Flight Computer/aircraft/cf1_f_cfg.ks (inferred preloaded)
36.98,TAKEOFF,TO_CLIMB,111.15,80,-31.15,166.79,20.72,12.64,2.29,90.35,0.063,0.78,0,0,0,0,0,0,0,0,0,90.4,8,0,1,10.56,0,0,10.31,90.4,-0.9305,-0.0067,0.3663,10.29,90.4,0,0,0,0,0,0,0,0,90.4,1,0,-0.051,0,0,3,0,0,0,10,-2.412,0,0,1,1,0,0,VALID,0,0,0,0,0,1,0,0,0,0,0,0,0,0,0,0,0,0,0,0,353.18,446.15,2,0,0.08,0.08,537,14.29,0.08,0.06,36.88,FLYING,CF1-F,0:/Integrated Flight Computer/aircraft/cf1_f_cfg.ks (inferred preloaded)
37.26,TAKEOFF,TO_CLIMB,111.84,80,-31.84,172.66,20.87,12.58,2.22,90.35,0.055,0.78,0,0,0,0,0,0,0,0,0,90.4,8,0,1,10.57,0,0,10.24,90.4,-0.931,-0.0067,0.3651,10.22,90.4,0,0,0,0,0,0,0,0,90.4,1,0,-0.049,0,0,3,0,0,0,10,-2.412,0,0,1,1,0,0,VALID,0,0,0,0,0,1,0,0,0,0,0,0,0,0,0,0,0,0,0,0,352.16,445.3,2,0,0.08,0.08,541,14.29,0.08,0.06,37.16,FLYING,CF1-F,0:/Integrated Flight Computer/aircraft/cf1_f_cfg.ks (inferred preloaded)
37.54,TAKEOFF,TO_CLIMB,112.54,80,-32.54,178.56,21.02,12.52,2.15,90.35,0.051,0.78,0,0,0,0,0,0,0,0,0,90.4,8,0,1,10.58,0,0,10.18,90.4,-0.9314,-0.0067,0.3639,10.15,90.4,0,0,0,0,0,0,0,0,90.4,1,0,-0.048,0,0,3,0,0,0,10,-2.412,0,0,1,1,0,0,VALID,0,0,0,0,0,1,0,0,0,0,0,0,0,0,0,0,0,0,0,0,351.16,444.45,2,0,0.08,0.08,545,14.29,0.08,0.06,37.44,FLYING,CF1-F,0:/Integrated Flight Computer/aircraft/cf1_f_cfg.ks (inferred preloaded)
37.82,TAKEOFF,TO_CLIMB,113.23,80,-33.23,184.54,21.16,12.45,2.08,90.35,0.05,0.78,0,0,0,0,0,0,0,0,0,90.4,8,0,1,10.59,0,0,10.1,90.4,-0.9319,-0.0067,0.3626,10.08,90.4,0,0,0,0,0,0,0,0,90.4,1,0,-0.047,0,0,3,0,0,0,10,-2.412,0,0,1,1,0,0,VALID,0,0,0,0,0,1,0,0,0,0,0,0,0,0,0,0,0,0,0,0,350.19,443.6,2,0,0.08,0.08,549,14.29,0.08,0.06,37.72,FLYING,CF1-F,0:/Integrated Flight Computer/aircraft/cf1_f_cfg.ks (inferred preloaded)
38.1,TAKEOFF,TO_CLIMB,113.91,80,-33.91,190.54,21.3,12.37,1.99,90.35,0.051,0.78,0,0,0,0,0,0,0,0,0,90.4,8,0,1,10.59,0,0,10.02,90.4,-0.9324,-0.0067,0.3612,9.99,90.4,0,0,0,0,0,0,0,0,90.4,1,0,-0.045,0,0,3,0,0,0,10,-2.412,0,0,1,1,0,0,VALID,0,0,0,0,0,1,0,0,0,0,0,0,0,0,0,0,0,0,0,0,349.24,442.75,2,0,0.08,0.08,553,14.29,0.08,0.06,38,FLYING,CF1-F,0:/Integrated Flight Computer/aircraft/cf1_f_cfg.ks (inferred preloaded)
38.38,TAKEOFF,TO_CLIMB,114.6,80,-34.6,196.57,21.42,12.28,1.91,90.36,0.053,0.78,0,0,0,0,0,0,0,0,0,90.4,8,0,1,10.59,0,0,9.94,90.4,-0.933,-0.0068,0.3598,9.91,90.4,0,0,0,0,0,0,0,0,90.4,1,0,-0.044,0,0,3,0,0,0,10,-2.412,0,0,1,1,0,0,VALID,0,0,0,0,0,1,0,0,0,0,0,0,0,0,0,0,0,0,0,0,348.31,441.9,2,0,0.08,0.08,557,14.29,0.08,0.06,38.28,FLYING,CF1-F,0:/Integrated Flight Computer/aircraft/cf1_f_cfg.ks (inferred preloaded)
38.66,TAKEOFF,TO_CLIMB,115.28,80,-35.28,202.63,21.53,12.18,1.82,90.36,0.056,0.78,0,0,0,0,0,0,0,0,0,90.4,8,0,1,10.58,0,0,9.85,90.4,-0.9336,-0.0068,0.3583,9.82,90.4,0,0,0,0,0,0,0,0,90.4,1,0,-0.042,0,0,3,0,0,0,10,-2.412,0,0,1,1,0,0,VALID,0,0,0,0,0,1,0,0,0,0,0,0,0,0,0,0,0,0,0,0,347.4,441.06,2,0,0.08,0.08,561,14.29,0.08,0.06,38.56,FLYING,CF1-F,0:/Integrated Flight Computer/aircraft/cf1_f_cfg.ks (inferred preloaded)
38.94,TAKEOFF,TO_CLIMB,115.96,80,-35.96,208.71,21.63,12.04,1.7,90.36,0.068,0.78,0,0,0,0,0,0,0,0,0,90.4,8,0,1,10.57,0,0,9.75,90.4,-0.9343,-0.0068,0.3563,9.7,90.4,0,0,0,0,0,0,0,0,90.4,1,0,-0.04,0,0,3,0,0,0,10,-2.412,0,0,1,1,0,0,VALID,0,0,0,0,0,1,0,0,0,0,0,0,0,0,0,0,0,0,0,0,346.51,440.21,2,0,0.08,0.08,565,14.29,0.08,0.06,38.84,FLYING,CF1-F,0:/Integrated Flight Computer/aircraft/cf1_f_cfg.ks (inferred preloaded)
39.22,TAKEOFF,TO_CLIMB,116.64,80,-36.64,214.81,21.65,11.92,1.62,90.36,0.084,0.78,0,0,0,0,0,0,0,0,0,90.4,8,0,1,10.51,0,0,9.6,90.4,-0.9349,-0.0068,0.355,9.62,90.4,0,0,0,0,0,0,0,0,90.4,1,0,-0.038,0,0,3,0,0,0,10,-2.412,0,0,1,1,0,0,VALID,0,0,0,0,0,1,0,0,0,0,0,0,0,0,0,0,0,0,0,0,345.64,439.37,2,0,0.08,0.08,569,14.29,0.08,0.06,39.12,FLYING,CF1-F,0:/Integrated Flight Computer/aircraft/cf1_f_cfg.ks (inferred preloaded)
39.5,TAKEOFF,TO_CLIMB,117.32,80,-37.32,220.94,21.72,11.76,1.5,90.36,0.097,0.78,0,0,0,0,0,0,0,0,0,90.4,8,0,1,10.49,0,0,9.54,90.4,-0.9356,-0.0068,0.353,9.5,90.4,0,0,0,0,0,0,0,0,90.4,1,0,-0.036,0,0,3,0,0,0,10,-2.412,0,0,1,1,0,0,VALID,0,0,0,0,0,1,0,0,0,0,0,0,0,0,0,0,0,0,0,0,344.78,438.53,2,0,0.08,0.08,573,14.29,0.08,0.06,39.4,FLYING,CF1-F,0:/Integrated Flight Computer/aircraft/cf1_f_cfg.ks (inferred preloaded)
39.78,TAKEOFF,TO_CLIMB,118.01,80,-38.01,227.02,21.73,11.66,1.45,90.37,0.106,0.78,0,0,0,0,0,0,0,0,0,90.4,8,0,1,10.44,0,0,9.46,90.4,-0.936,-0.0068,0.352,9.45,90.4,0,0,0,0,0,0,0,0,90.4,1,0,-0.033,0,0,3,0,0,0,10,-2.412,0,0,1,1,0,0,VALID,0,0,0,0,0,1,0,0,0,0,0,0,0,0,0,0,0,0,0,0,343.94,437.69,2,0,0.08,0.08,577,14.29,0.08,0.06,39.68,FLYING,CF1-F,0:/Integrated Flight Computer/aircraft/cf1_f_cfg.ks (inferred preloaded)
40.06,TAKEOFF,TO_CLIMB,118.69,80,-38.69,233.2,21.75,11.57,1.41,90.37,0.109,0.78,0,0,0,0,0,0,0,0,0,90.4,8,0,1,10.38,0,0,9.42,90.4,-0.9362,-0.0068,0.3514,9.41,90.4,0,0,0,0,0,0,0,0,90.4,1,0,-0.031,0,0,3,0,0,0,10,-2.412,0,0,1,1,0,0,VALID,0,0,0,0,0,1,0,0,0,0,0,0,0,0,0,0,0,0,0,0,343.11,436.85,2,0,0.08,0.08,581,14.29,0.08,0.06,39.96,FLYING,CF1-F,0:/Integrated Flight Computer/aircraft/cf1_f_cfg.ks (inferred preloaded)
40.34,TAKEOFF,TO_CLIMB,119.37,80,-39.37,239.33,21.79,11.54,1.42,90.37,0.107,0.78,0,0,0,0,0,0,0,0,0,90.4,8,0,1,10.35,0,0,9.42,90.4,-0.9362,-0.0068,0.3515,9.42,90.4,0,0,0,0,0,0,0,0,90.4,1,0,-0.029,0,0,3,0,0,0,10,-2.412,0,0,1,1,0,0,VALID,0,0,0,0,0,1,0,0,0,0,0,0,0,0,0,0,0,0,0,0,342.3,436.02,2,0,0.08,0.08,585,14.29,0.08,0.06,40.24,FLYING,CF1-F,0:/Integrated Flight Computer/aircraft/cf1_f_cfg.ks (inferred preloaded)
