t_s,phase,subphase,ias_ms,vapp_ms,spd_err_ms,agl_m,vs_ms,pitch_deg,aoa_deg,hdg_deg,bank_deg,thr_cmd,thr_intg,aa_hdg_cmd_deg,aa_fpa_cmd_deg,ils_loc_m,ils_gs_m,ils_dist_km,loc_corr_deg,gs_corr_deg,flare_fpa_cmd,flare_tgt_vs,flare_frac,steer_hdg_deg,steer_blend,ro_loc_corr_deg,ro_hdg_err_deg,ro_yaw_tgt,ro_yaw_scale,ro_yaw_gate,yaw_cmd,roll_cmd,pitch_cmd,ro_pitch_tgt_deg,ro_pitch_err_deg,ro_pitch_ff,ro_roll_assist,flaps_cur,flaps_tgt,phase_el_s,status
1,APPROACH,FLY_TO_FIX,150.69,76.45,-74.24,1265.59,43.52,17.5,1.95,89.75,0.044,0,-20,269.93,1.194,0,0,0,0,0,0,0,0,89.76,0,0,0,0,0,0,0,0,0,0,0,0,0,1,1,1.04,FLYING
1.74,APPROACH,FLY_TO_FIX,148.64,76.9,-71.74,1302.63,56.7,25.88,5.32,89.67,0.359,0,-20,269.93,1.015,0,0,0,0,0,0,0,0,89.76,0,0,0,0,0,0,0,0,0,0,0,0,0,1,1,1.78,FLYING
2.34,APPROACH,FLY_TO_FIX,145.43,77.35,-68.08,1340.69,68.54,31.32,5.66,89.6,0.4,0,-20,269.93,0.831,0,0,0,0,0,0,0,0,89.76,0,0,0,0,0,0,0,0,0,0,0,0,0,1,1,2.38,FLYING
3.04,APPROACH,FLY_TO_FIX,140.35,77.8,-62.55,1393.59,80.92,37.98,6.1,89.5,0.419,0.2,-20,269.93,0.572,0,0,0,0,0,0,0,0,89.76,0,0,0,0,0,0,0,0,0,0,0,0,0,1,1,3.08,FLYING
3.68,APPROACH,FLY_TO_FIX,134.73,78.25,-56.48,1449.02,90.66,44.48,6.62,89.38,0.437,0.4,-20,269.93,0.3,0,0,0,0,0,0,0,0,89.76,0,0,0,0,0,0,0,0,0,0,0,0,0,1,1,3.72,FLYING
4.38,APPROACH,FLY_TO_FIX,127.83,78.7,-49.13,1516.09,99.33,52.16,7.31,89.2,0.462,0.6,-20,269.93,-0.031,0,0,0,0,0,0,0,0,89.76,0,0,0,0,0,0,0,0,0,0,0,0,0,1,1,4.42,FLYING
4.98,APPROACH,FLY_TO_FIX,121.45,79.15,-42.3,1577.81,104.95,59.32,8.02,88.97,0.486,0.8,-20,269.93,-0.337,0,0,0,0,0,0,0,0,89.76,0,0,0,0,0,0,0,0,0,0,0,0,0,1,1,5.02,FLYING
5.68,APPROACH,FLY_TO_FIX,113.62,79.6,-34.02,1653.22,109.02,68.59,9.07,88.46,0.517,1,-20,269.93,-0.711,0,0,0,0,0,0,0,0,89.76,0,0,0,0,0,0,0,0,0,0,0,0,0,1,1,5.72,FLYING
6.32,APPROACH,FLY_TO_FIX,106.15,80.05,-26.1,1723.71,110,78.07,10.26,87.17,0.549,1,-20,269.92,-1.063,0,0,0,0,0,0,0,0,89.76,0,0,0,0,0,0,0,0,0,0,0,0,0,1,1,6.36,FLYING
7.06,APPROACH,FLY_TO_FIX,97.24,80.5,-16.74,1804.52,107.29,89.37,11.34,20.22,0.591,1,-20,269.92,-1.469,0,0,0,0,0,0,0,0,89.76,0,0,0,0,0,0,0,0,0,0,0,0,0,1,1,7.1,FLYING
7.62,APPROACH,FLY_TO_FIX,90.69,80.95,-9.74,1863.32,102.41,82.23,11.39,274.13,0.62,1,-20,269.92,-1.775,0,0,0,0,0,0,0,0,89.76,0,0,0,0,0,0,0,0,0,0,0,0,0,1,1,7.66,FLYING
8.28,APPROACH,FLY_TO_FIX,83.48,81.4,-2.08,1928.3,94.59,73.24,11.39,271.88,0.662,1,-20,269.92,-2.104,0,0,0,0,0,0,0,0,89.76,0,0,0,0,0,0,0,0,0,0,0,0,0,1,1,8.32,FLYING
8.88,APPROACH,FLY_TO_FIX,77.5,81.85,4.35,1982.39,86.2,65.2,11.33,271.21,0.711,1,-17.922,269.92,-2.377,0,0,0,0,0,0,0,0,89.76,0,0,0,0,0,0,0,0,0,0,0,0,0,1,1,8.92,FLYING
9.54,APPROACH,FLY_TO_FIX,71.6,82.3,10.7,2035.68,76.09,56.37,11.25,270.82,0.779,1,-12.656,269.92,-2.648,0,0,0,0,0,0,0,0,89.76,0,0,0,0,0,0,0,0,0,0,0,0,0,1,1,9.58,FLYING
10.1,APPROACH,FLY_TO_FIX,67.18,82.6,15.42,2075.45,67.09,48.78,11.15,270.6,0.85,1,-5.018,269.92,-2.85,0,0,0,0,0,0,0,0,89.76,0,0,0,0,0,0,0,0,0,0,0,0,0,1,1,10.14,FLYING
10.76,APPROACH,FLY_TO_FIX,62.7,82.6,19.9,2115.68,56.18,39.6,11.02,270.41,0.95,1,4.869,269.92,-3.056,0,0,0,0,0,0,0,0,89.76,0,0,0,0,0,0,0,0,0,0,0,0,0,1,1,10.8,FLYING
11.36,APPROACH,FLY_TO_FIX,59.39,82.6,23.21,2145.88,46.07,31.08,10.78,270.27,1.057,1,16.426,269.92,-3.211,0,0,0,0,0,0,0,0,89.76,0,0,0,0,0,0,0,0,0,0,0,0,0,1,1,11.4,FLYING
12.02,APPROACH,FLY_TO_FIX,56.8,82.6,25.8,2172.47,36.04,25.89,7.07,270.22,1.338,1,20,269.92,-3.348,0,0,0,0,0,0,0,0,89.76,0,0,0,0,0,0,0,0,0,0,0,0,0,1,1,12.06,FLYING
12.58,APPROACH,FLY_TO_FIX,55.51,82.6,27.09,2190.45,29.22,22.92,3.82,270.18,2.086,1,20,269.92,-3.441,0,0,0,0,0,0,0,0,89.76,0,0,0,0,0,0,0,0,0,0,0,0,0,1,1,12.62,FLYING
13.24,APPROACH,FLY_TO_FIX,54.77,82.6,27.83,2207.32,22.84,19.95,0.94,270.03,8.403,1,20,269.92,-3.527,0,0,0,0,0,0,0,0,89.76,0,0,0,0,0,0,0,0,0,0,0,0,0,1,1,13.28,FLYING
13.84,APPROACH,FLY_TO_FIX,54.52,82.6,28.08,2219.96,19.55,24.94,-7.32,273.22,23.003,1,20,269.92,-3.592,0,0,0,0,0,0,0,0,89.76,0,0,0,0,0,0,0,0,0,0,0,0,0,1,1,13.88,FLYING
14.5,APPROACH,FLY_TO_FIX,54.28,82.6,28.32,2232.17,18,22.25,-5.94,276.15,43.873,1,20,269.91,-3.654,0,0,0,0,0,0,0,0,89.76,0,0,0,0,0,0,0,0,0,0,0,0,0,1,1,14.54,FLYING
15.06,APPROACH,FLY_TO_FIX,54.46,82.6,28.14,2240.92,14.73,16.72,-2.66,277.12,65.631,1,20,269.91,-3.699,0,0,0,0,0,0,0,0,89.76,0,0,0,0,0,0,0,0,0,0,0,0,0,1,1,15.1,FLYING
15.72,APPROACH,FLY_TO_FIX,55.21,82.6,27.39,2248.13,9.04,9.66,1.65,274.67,76.634,1,20,269.9,-3.737,0,0,0,0,0,0,0,0,89.76,0,0,0,0,0,0,0,0,0,0,0,0,0,1,1,15.76,FLYING
16.32,APPROACH,FLY_TO_FIX,56.32,82.6,26.28,2251.54,3.94,6.33,5,270.66,56.317,0.9378,20,269.9,-3.756,0,0,0,0,0,0,0,0,89.76,0,0,0,0,0,0,0,0,0,0,0,0,0,1,1,16.36,FLYING
16.98,APPROACH,FLY_TO_FIX,57.78,82.6,24.82,2252.67,0.45,6.3,7.17,268.35,30.463,0.7378,20,269.89,-3.763,0,0,0,0,0,0,0,0,89.76,0,0,0,0,0,0,0,0,0,0,0,0,0,1,1,17.02,FLYING
17.54,APPROACH,FLY_TO_FIX,59.11,82.6,23.49,2252.41,-1.05,6.84,8.05,268.54,14.489,0.5724,20,269.89,-3.762,0,0,0,0,0,0,0,0,89.76,0,0,0,0,0,0,0,0,0,0,0,0,0,1,1,17.58,FLYING
18.2,APPROACH,FLY_TO_FIX,60.59,82.6,22.01,2251.37,-1.92,6.68,8.25,269.55,4.075,0.4325,20,269.89,-3.758,0,0,0,0,0,0,0,0,89.76,0,0,0,0,0,0,0,0,0,0,0,0,0,1,1,18.24,FLYING
18.8,APPROACH,FLY_TO_FIX,61.79,82.6,20.81,2250.01,-2.49,6.21,8.16,269.85,1.942,0.3483,20,269.89,-3.751,0,0,0,0,0,0,0,0,89.76,0,0,0,0,0,0,0,0,0,0,0,0,0,1,1,18.84,FLYING
19.46,APPROACH,FLY_TO_FIX,62.92,82.6,19.68,2248.16,-3,5.78,8.1,269.8,1.114,0.2876,20,269.89,-3.742,0,0,0,0,0,0,0,0,89.76,0,0,0,0,0,0,0,0,0,0,0,0,0,1,1,19.5,FLYING
20.02,APPROACH,FLY_TO_FIX,63.73,82.6,18.87,2246.35,-3.36,5.47,8.03,269.8,0.63,0.2717,20,269.89,-3.733,0,0,0,0,0,0,0,0,89.76,0,0,0,0,0,0,0,0,0,0,0,0,0,1,1,20.06,FLYING
20.68,APPROACH,FLY_TO_FIX,64.52,82.6,18.08,2244,-3.71,5.18,7.97,269.81,0.252,0.2613,20,269.89,-3.721,0,0,0,0,0,0,0,0,89.76,0,0,0,0,0,0,0,0,0,0,0,0,0,1,1,20.72,FLYING
21.28,APPROACH,FLY_TO_FIX,65.1,82.6,17.5,2241.68,-3.97,4.96,7.92,269.82,0.045,0.2733,20,269.89,-3.71,0,0,0,0,0,0,0,0,89.76,0,0,0,0,0,0,0,0,0,0,0,0,0,1,1,21.32,FLYING
21.94,APPROACH,FLY_TO_FIX,65.64,82.6,16.96,2238.97,-4.2,4.77,7.87,269.84,-0.08,0.2878,20,269.89,-3.697,0,0,0,0,0,0,0,0,89.76,0,0,0,0,0,0,0,0,0,0,0,0,0,1,1,21.98,FLYING
22.5,APPROACH,FLY_TO_FIX,66.03,82.6,16.57,2236.56,-4.35,4.65,7.85,269.85,-0.124,0.3134,20,269.89,-3.685,0,0,0,0,0,0,0,0,89.76,0,0,0,0,0,0,0,0,0,0,0,0,0,1,1,22.54,FLYING
23.16,APPROACH,FLY_TO_FIX,66.47,82.6,16.13,2233.64,-4.48,4.54,7.82,269.85,-0.127,0.3305,20,269.89,-3.67,0,0,0,0,0,0,0,0,89.76,0,0,0,0,0,0,0,0,0,0,0,0,0,1,1,23.2,FLYING
23.76,APPROACH,FLY_TO_FIX,66.85,82.6,15.75,2230.92,-4.57,4.44,7.77,269.86,-0.122,0.3492,20,269.89,-3.656,0,0,0,0,0,0,0,0,89.76,0,0,0,0,0,0,0,0,0,0,0,0,0,1,1,23.8,FLYING
24.42,APPROACH,FLY_TO_FIX,67.27,82.6,15.33,2227.87,-4.64,4.34,7.7,269.86,-0.106,0.3602,20,269.89,-3.641,0,0,0,0,0,0,0,0,89.76,0,0,0,0,0,0,0,0,0,0,0,0,0,1,1,24.46,FLYING
24.98,APPROACH,FLY_TO_FIX,67.63,82.6,14.97,2225.25,-4.69,4.26,7.64,269.86,-0.089,0.3748,20,269.89,-3.628,0,0,0,0,0,0,0,0,89.76,0,0,0,0,0,0,0,0,0,0,0,0,0,1,1,25.02,FLYING
25.64,APPROACH,FLY_TO_FIX,68.07,82.6,14.53,2222.13,-4.74,4.17,7.56,269.87,-0.075,0.3791,20,269.89,-3.613,0,0,0,0,0,0,0,0,89.76,0,0,0,0,0,0,0,0,0,0,0,0,0,1,1,25.68,FLYING
26.24,APPROACH,FLY_TO_FIX,68.48,82.6,14.12,2219.26,-4.79,4.08,7.49,269.87,-0.068,0.3856,20,269.89,-3.598,0,0,0,0,0,0,0,0,89.76,0,0,0,0,0,0,0,0,0,0,0,0,0,1,1,26.28,FLYING
26.9,APPROACH,FLY_TO_FIX,68.94,82.6,13.66,2216.09,-4.82,3.99,7.4,269.87,-0.06,0.3857,20,269.89,-3.582,0,0,0,0,0,0,0,0,89.76,0,0,0,0,0,0,0,0,0,0,0,0,0,1,1,26.94,FLYING
27.46,APPROACH,FLY_TO_FIX,69.33,82.6,13.27,2213.37,-4.85,3.92,7.33,269.87,-0.055,0.3918,20,269.89,-3.569,0,0,0,0,0,0,0,0,89.76,0,0,0,0,0,0,0,0,0,0,0,0,0,1,1,27.5,FLYING
28.12,APPROACH,FLY_TO_FIX,69.81,82.6,12.79,2210.15,-4.89,3.83,7.24,269.87,-0.048,0.3886,20,269.89,-3.553,0,0,0,0,0,0,0,0,89.76,0,0,0,0,0,0,0,0,0,0,0,0,0,1,1,28.16,FLYING
28.72,APPROACH,FLY_TO_FIX,70.26,82.6,12.34,2207.21,-4.91,3.76,7.17,269.87,-0.042,0.3894,20,269.89,-3.538,0,0,0,0,0,0,0,0,89.76,0,0,0,0,0,0,0,0,0,0,0,0,0,1,1,28.76,FLYING
29.38,APPROACH,FLY_TO_FIX,70.76,82.6,11.84,2203.95,-4.94,3.67,7.08,269.87,-0.039,0.3847,20,269.89,-3.522,0,0,0,0,0,0,0,0,89.76,0,0,0,0,0,0,0,0,0,0,0,0,0,1,1,29.42,FLYING
29.94,APPROACH,FLY_TO_FIX,71.19,82.6,11.41,2201.17,-4.96,3.6,7.01,269.87,-0.038,0.3878,20,269.89,-3.508,0,0,0,0,0,0,0,0,89.76,0,0,0,0,0,0,0,0,0,0,0,0,0,1,1,29.98,FLYING
30.6,APPROACH,FLY_TO_FIX,71.7,82.6,10.9,2197.88,-4.99,3.52,6.92,269.87,-0.034,0.382,20,269.89,-3.491,0,0,0,0,0,0,0,0,89.76,0,0,0,0,0,0,0,0,0,0,0,0,0,1,1,30.64,FLYING
31.2,APPROACH,FLY_TO_FIX,72.17,82.6,10.43,2194.88,-5.01,3.45,6.84,269.87,-0.032,0.3814,20,269.89,-3.476,0,0,0,0,0,0,0,0,89.76,0,0,0,0,0,0,0,0,0,0,0,0,0,1,1,31.24,FLYING
31.86,APPROACH,FLY_TO_FIX,72.7,82.6,9.9,2191.56,-5.03,3.38,6.76,269.87,-0.03,0.3756,20,269.89,-3.46,0,0,0,0,0,0,0,0,89.76,0,0,0,0,0,0,0,0,0,0,0,0,0,1,1,31.9,FLYING
32.42,APPROACH,FLY_TO_FIX,73.14,82.6,9.46,2188.73,-5.05,3.31,6.68,269.87,-0.029,0.3786,20,269.89,-3.446,0,0,0,0,0,0,0,0,89.76,0,0,0,0,0,0,0,0,0,0,0,0,0,1,1,32.46,FLYING
33.08,APPROACH,FLY_TO_FIX,73.68,82.6,8.92,2185.39,-5.07,3.24,6.6,269.87,-0.026,0.3727,20,269.89,-3.429,0,0,0,0,0,0,0,0,89.76,0,0,0,0,0,0,0,0,0,0,0,0,0,1,1,33.12,FLYING
33.68,APPROACH,FLY_TO_FIX,74.16,82.6,8.44,2182.33,-5.09,3.17,6.53,269.87,-0.025,0.3726,20,269.89,-3.414,0,0,0,0,0,0,0,0,89.76,0,0,0,0,0,0,0,0,0,0,0,0,0,1,1,33.72,FLYING
34.34,APPROACH,FLY_TO_FIX,74.7,82.6,7.9,2178.96,-5.11,3.1,6.45,269.87,-0.025,0.3674,20,269.89,-3.397,0,0,0,0,0,0,0,0,89.76,0,0,0,0,0,0,0,0,0,0,0,0,0,1,1,34.38,FLYING
34.9,APPROACH,FLY_TO_FIX,75.16,82.6,7.44,2176.09,-5.13,3.05,6.38,269.87,-0.024,0.3694,20,269.89,-3.383,0,0,0,0,0,0,0,0,89.76,0,0,0,0,0,0,0,0,0,0,0,0,0,1,1,34.94,FLYING
35.56,APPROACH,FLY_TO_FIX,75.69,82.6,6.91,2172.7,-5.15,2.98,6.3,269.87,-0.023,0.3374,20,269.89,-3.366,0,0,0,0,0,0,0,0,89.76,0,0,0,0,0,0,0,0,0,0,0,0,0,1,1,35.6,FLYING
36.16,APPROACH,FLY_TO_FIX,76.18,82.6,6.42,2169.6,-5.16,2.92,6.24,269.86,-0.021,0.3147,20,269.89,-3.35,0,0,0,0,0,0,0,0,89.76,0,0,0,0,0,0,0,0,0,0,0,0,0,1,1,36.2,FLYING
36.82,APPROACH,FLY_TO_FIX,76.68,82.6,5.92,2166.19,-5.18,2.86,6.17,269.86,-0.02,0.2885,20,269.89,-3.333,0,0,0,0,0,0,0,0,89.76,0,0,0,0,0,0,0,0,0,0,0,0,0,1,1,36.86,FLYING
37.38,APPROACH,FLY_TO_FIX,77.07,82.6,5.53,2163.28,-5.19,2.82,6.12,269.86,-0.019,0.2786,20,269.89,-3.318,0,0,0,0,0,0,0,0,89.76,0,0,0,0,0,0,0,0,0,0,0,0,0,1,1,37.42,FLYING
38.07,APPROACH,FLY_TO_FIX,77.51,82.6,5.09,2159.67,-5.2,2.78,6.06,269.86,-0.019,0.2608,20,269.89,-3.301,0,0,0,0,0,0,0,0,89.76,0,0,0,0,0,0,0,0,0,0,0,0,0,1,1,38.12,FLYING
38.8,APPROACH,FLY_TO_FIX,77.92,82.6,4.68,2155.89,-5.21,2.74,6.01,269.86,-0.019,0.2469,20,269.89,-3.282,0,0,0,0,0,0,0,0,89.76,0,0,0,0,0,0,0,0,0,0,0,0,0,1,1,38.85,FLYING
39.63,APPROACH,FLY_TO_FIX,78.32,82.6,4.28,2151.59,-5.21,2.7,5.96,269.86,-0.019,0.2316,20,269.89,-3.261,0,0,0,0,0,0,0,0,89.76,0,0,0,0,0,0,0,0,0,0,0,0,0,1,1,39.68,FLYING
40.33,APPROACH,FLY_TO_FIX,78.61,82.6,3.99,2147.93,-5.21,2.68,5.93,269.86,-0.021,0.2322,20,269.89,-3.242,0,0,0,0,0,0,0,0,89.76,0,0,0,0,0,0,0,0,0,0,0,0,0,1,1,40.38,FLYING
41.16,APPROACH,FLY_TO_FIX,78.91,82.6,3.69,2143.61,-5.21,2.65,5.89,269.86,-0.022,0.2289,20,269.89,-3.22,0,0,0,0,0,0,0,0,89.76,0,0,0,0,0,0,0,0,0,0,0,0,0,1,1,41.2,FLYING
41.73,APPROACH,FLY_TO_FIX,79.09,82.6,3.51,2140.61,-5.21,2.64,5.87,269.86,-0.023,0.2408,20,269.89,-3.205,0,0,0,0,0,0,0,0,89.76,0,0,0,0,0,0,0,0,0,0,0,0,0,1,1,41.77,FLYING
42.39,APPROACH,FLY_TO_FIX,79.28,82.6,3.32,2137.17,-5.21,2.62,5.84,269.85,-0.024,0.2477,20,269.89,-3.188,0,0,0,0,0,0,0,0,89.76,0,0,0,0,0,0,0,0,0,0,0,0,0,1,1,42.43,FLYING
42.99,APPROACH,FLY_TO_FIX,79.44,82.6,3.16,2134.05,-5.2,2.61,5.82,269.85,-0.025,0.2546,20,269.89,-3.172,0,0,0,0,0,0,0,0,89.76,0,0,0,0,0,0,0,0,0,0,0,0,0,1,1,43.03,FLYING
43.65,APPROACH,FLY_TO_FIX,79.62,82.6,2.98,2130.62,-5.2,2.6,5.8,269.85,-0.027,0.256,20,269.89,-3.155,0,0,0,0,0,0,0,0,89.76,0,0,0,0,0,0,0,0,0,0,0,0,0,1,1,43.69,FLYING
44.21,APPROACH,FLY_TO_FIX,79.78,82.6,2.82,2127.71,-5.19,2.59,5.78,269.85,-0.029,0.2594,20,269.89,-3.141,0,0,0,0,0,0,0,0,89.76,0,0,0,0,0,0,0,0,0,0,0,0,0,1,1,44.25,FLYING
44.87,APPROACH,FLY_TO_FIX,79.96,82.6,2.64,2124.28,-5.19,2.58,5.76,269.85,-0.029,0.2563,20,269.89,-3.123,0,0,0,0,0,0,0,0,89.76,0,0,0,0,0,0,0,0,0,0,0,0,0,1,1,44.91,FLYING
45.47,APPROACH,FLY_TO_FIX,80.13,82.6,2.47,2121.17,-5.18,2.57,5.74,269.85,-0.032,0.2544,20,269.89,-3.108,0,0,0,0,0,0,0,0,89.76,0,0,0,0,0,0,0,0,0,0,0,0,0,1,1,45.51,FLYING
46.14,APPROACH,FLY_TO_FIX,80.31,82.6,2.29,2117.72,-5.17,2.56,5.72,269.85,-0.033,0.2485,20,269.89,-3.091,0,0,0,0,0,0,0,0,89.76,0,0,0,0,0,0,0,0,0,0,0,0,0,1,1,46.18,FLYING
46.86,APPROACH,FLY_TO_FIX,80.5,82.6,2.1,2113.95,-5.17,2.54,5.69,269.85,-0.036,0.2418,20,269.89,-3.073,0,0,0,0,0,0,0,0,89.76,0,0,0,0,0,0,0,0,0,0,0,0,0,1,1,46.93,FLYING
48.02,APPROACH,FLY_TO_FIX,80.81,82.6,1.79,2108.02,-5.15,2.53,5.66,269.85,-0.036,0.217,20,269.89,-3.044,0,0,0,0,0,0,0,0,89.76,0,0,0,0,0,0,0,0,0,0,0,0,0,1,1,48.09,FLYING
49.14,APPROACH,FLY_TO_FIX,81.07,82.6,1.53,2102.26,-5.12,2.53,5.63,269.85,-0.042,0.1999,20,269.89,-3.015,0,0,0,0,0,0,0,0,89.76,0,0,0,0,0,0,0,0,0,0,0,0,0,1,1,49.21,FLYING
50.33,APPROACH,FLY_TO_FIX,81.27,82.6,1.33,2096.18,-5.1,2.53,5.61,269.85,-0.043,0.1924,20,269.89,-2.984,0,0,0,0,0,0,0,0,89.76,0,0,0,0,0,0,0,0,0,0,0,0,0,1,1,50.4,FLYING
51.45,APPROACH,FLY_TO_FIX,81.39,82.6,1.21,2090.49,-5.07,2.54,5.6,269.85,-0.045,0.1969,20,269.89,-2.956,0,0,0,0,0,0,0,0,89.76,0,0,0,0,0,0,0,0,0,0,0,0,0,1,1,51.52,FLYING
52.64,APPROACH,FLY_TO_FIX,81.47,82.6,1.13,2084.48,-5.03,2.56,5.6,269.86,-0.046,0.206,20,269.89,-2.926,0,0,0,0,0,0,0,0,89.76,0,0,0,0,0,0,0,0,0,0,0,0,0,1,1,52.71,FLYING
53.76,APPROACH,FLY_TO_FIX,81.52,82.6,1.08,2078.87,-5,2.57,5.59,269.86,-0.046,0.2159,20,269.89,-2.898,0,0,0,0,0,0,0,0,89.76,0,0,0,0,0,0,0,0,0,0,0,0,0,1,1,53.83,FLYING
54.95,APPROACH,FLY_TO_FIX,81.58,82.6,1.02,2072.95,-4.95,2.59,5.59,269.86,-0.046,0.2229,20,269.89,-2.868,0,0,0,0,0,0,0,0,89.76,0,0,0,0,0,0,0,0,0,0,0,0,0,1,1,55.02,FLYING
56.07,APPROACH,FLY_TO_FIX,81.64,82.6,0.96,2067.43,-4.92,2.61,5.58,269.86,-0.046,0.2277,20,269.89,-2.841,0,0,0,0,0,0,0,0,89.76,0,0,0,0,0,0,0,0,0,0,0,0,0,1,1,56.14,FLYING
57.26,APPROACH,FLY_TO_FIX,81.71,82.6,0.89,2061.6,-4.88,2.63,5.57,269.86,-0.045,0.2292,20,269.89,-2.811,0,0,0,0,0,0,0,0,89.76,0,0,0,0,0,0,0,0,0,0,0,0,0,1,1,57.33,FLYING
58.38,APPROACH,FLY_TO_FIX,81.79,82.6,0.81,2056.17,-4.83,2.65,5.56,269.86,-0.044,0.2289,20,269.89,-2.784,0,0,0,0,0,0,0,0,89.76,0,0,0,0,0,0,0,0,0,0,0,0,0,1,1,58.45,FLYING
59.57,APPROACH,FLY_TO_FIX,81.88,82.6,0.72,2050.44,-4.79,2.67,5.55,269.86,-0.046,0.2262,20,269.89,-2.756,0,0,0,0,0,0,0,0,89.76,0,0,0,0,0,0,0,0,0,0,0,0,0,1,1,59.64,FLYING
60.69,APPROACH,FLY_TO_FIX,81.96,82.6,0.64,2045.1,-4.75,2.68,5.54,269.86,-0.046,0.2231,20,269.89,-2.729,0,0,0,0,0,0,0,0,89.76,0,0,0,0,0,0,0,0,0,0,0,0,0,1,1,60.76,FLYING
61.88,APPROACH,FLY_TO_FIX,82.06,82.6,0.54,2039.48,-4.71,2.7,5.53,269.86,-0.046,0.2186,20,269.89,-2.701,0,0,0,0,0,0,0,0,89.76,0,0,0,0,0,0,0,0,0,0,0,0,0,1,1,61.95,FLYING
63,APPROACH,FLY_TO_FIX,82.15,82.6,0.45,2034.23,-4.67,2.71,5.52,269.86,-0.045,0.2151,20,269.89,-2.674,0,0,0,0,0,0,0,0,89.76,0,0,0,0,0,0,0,0,0,0,0,0,0,1,1,63.07,FLYING
64.19,APPROACH,FLY_TO_FIX,82.23,82.6,0.37,2028.71,-4.62,2.73,5.51,269.86,-0.043,0.2115,20,269.89,-2.647,0,0,0,0,0,0,0,0,89.76,0,0,0,0,0,0,0,0,0,0,0,0,0,1,1,64.26,FLYING
65.31,APPROACH,FLY_TO_FIX,82.3,82.6,0.3,2023.56,-4.58,2.75,5.5,269.86,-0.04,0.2101,20,269.89,-2.621,0,0,0,0,0,0,0,0,89.76,0,0,0,0,0,0,0,0,0,0,0,0,0,1,1,65.38,FLYING
66.5,APPROACH,FLY_TO_FIX,82.36,82.6,0.24,2018.13,-4.54,2.77,5.49,269.86,-0.039,0.21,20,269.89,-2.594,0,0,0,0,0,0,0,0,89.76,0,0,0,0,0,0,0,0,0,0,0,0,0,1,1,66.57,FLYING
67.62,APPROACH,FLY_TO_FIX,82.41,82.6,0.19,2013.08,-4.5,2.79,5.49,269.86,-0.041,0.2116,20,269.89,-2.569,0,0,0,0,0,0,0,0,89.76,0,0,0,0,0,0,0,0,0,0,0,0,0,1,1,67.69,FLYING
68.81,APPROACH,FLY_TO_FIX,82.45,82.6,0.15,2007.76,-4.45,2.81,5.48,269.87,-0.039,0.2133,20,269.89,-2.542,0,0,0,0,0,0,0,0,89.76,0,0,0,0,0,0,0,0,0,0,0,0,0,1,1,68.88,FLYING
69.93,APPROACH,FLY_TO_FIX,82.48,82.6,0.12,2002.8,-4.41,2.83,5.48,269.87,-0.04,0.2152,20,269.89,-2.517,0,0,0,0,0,0,0,0,89.76,0,0,0,0,0,0,0,0,0,0,0,0,0,1,1,70,FLYING
71.12,APPROACH,FLY_TO_FIX,82.51,82.6,0.09,1997.58,-4.37,2.86,5.48,269.86,-0.039,0.2165,20,269.89,-2.491,0,0,0,0,0,0,0,0,89.76,0,0,0,0,0,0,0,0,0,0,0,0,0,1,1,71.19,FLYING
72.24,APPROACH,FLY_TO_FIX,82.54,82.6,0.06,1992.71,-4.33,2.88,5.47,269.87,-0.038,0.2177,20,269.89,-2.467,0,0,0,0,0,0,0,0,89.76,0,0,0,0,0,0,0,0,0,0,0,0,0,1,1,72.31,FLYING
73.43,APPROACH,FLY_TO_FIX,82.57,82.6,0.03,1987.59,-4.28,2.9,5.47,269.87,-0.038,0.2184,20,269.89,-2.441,0,0,0,0,0,0,0,0,89.76,0,0,0,0,0,0,0,0,0,0,0,0,0,1,1,73.5,FLYING
74.44,APPROACH,FLY_TO_FIX,82.6,82.6,0,1983.28,-4.24,2.92,5.47,269.87,-0.039,0.2194,20,269.89,-2.419,0,0,0,0,0,0,0,0,89.76,0,0,0,0,0,0,0,0,0,0,0,0,0,1,1,74.49,FLYING
75.12,APPROACH,FLY_TO_FIX,82.61,82.6,-0.01,1980.4,-4.22,2.94,5.47,269.87,-0.04,0.2211,19.994,269.89,-2.404,0,0,0,0,0,0,0,0,89.76,0,0,0,0,0,0,0,0,0,0,0,0,0,1,1,75.16,FLYING
75.79,APPROACH,FLY_TO_FIX,82.63,82.6,-0.03,1977.6,-4.19,2.95,5.47,269.87,-0.039,0.2224,19.981,269.89,-2.39,0,0,0,0,0,0,0,0,89.76,0,0,0,0,0,0,0,0,0,0,0,0,0,1,1,75.83,FLYING
76.35,APPROACH,FLY_TO_FIX,82.64,82.6,-0.04,1975.26,-4.17,2.96,5.46,269.87,-0.039,0.2235,19.962,269.89,-2.378,0,0,0,0,0,0,0,0,89.76,0,0,0,0,0,0,0,0,0,0,0,0,0,1,1,76.39,FLYING
77.01,APPROACH,FLY_TO_FIX,82.65,82.6,-0.05,1972.52,-4.14,2.98,5.46,269.87,-0.039,0.2237,19.935,269.89,-2.364,0,0,0,0,0,0,0,0,89.76,0,0,0,0,0,0,0,0,0,0,0,0,0,1,1,77.05,FLYING
77.61,APPROACH,FLY_TO_FIX,82.67,82.6,-0.07,1970.04,-4.12,2.99,5.46,269.87,-0.039,0.2238,19.901,269.89,-2.352,0,0,0,0,0,0,0,0,89.76,0,0,0,0,0,0,0,0,0,0,0,0,0,1,1,77.65,FLYING
78.32,APPROACH,FLY_TO_FIX,82.69,82.6,-0.09,1967.11,-4.1,3,5.46,269.87,-0.039,0.2231,19.859,269.89,-2.338,0,0,0,0,0,0,0,0,89.76,0,0,0,0,0,0,0,0,0,0,0,0,0,1,1,78.39,FLYING
80,APPROACH,FLY_TO_FIX,82.73,82.6,-0.13,1960.27,-4.05,3.02,5.45,269.87,-0.038,0.2184,19.796,269.9,-2.308,0,0,0,0,0,0,0,0,89.76,0,0,0,0,0,0,0,0,0,0,0,0,0,1,1,80.16,FLYING
82.64,APPROACH,FLY_TO_FIX,82.79,82.6,-0.19,1949.67,-3.98,3.06,5.45,269.87,-0.04,0.2102,19.701,269.9,-2.255,0,0,0,0,0,0,0,0,89.76,0,0,0,0,0,0,0,0,0,0,0,0,0,1,1,82.8,FLYING
85.28,APPROACH,FLY_TO_FIX,82.8,82.6,-0.2,1939.28,-3.9,3.11,5.45,269.87,-0.04,0.2099,19.599,269.9,-2.203,0,0,0,0,0,0,0,0,89.76,0,0,0,0,0,0,0,0,0,0,0,0,0,1,1,85.44,FLYING
87.92,APPROACH,FLY_TO_FIX,82.75,82.6,-0.15,1917.56,-3.81,3.17,5.45,269.87,-0.036,0.2199,19.522,269.9,-2.152,0,0,0,0,0,0,0,0,89.76,0,0,0,0,0,0,0,0,0,0,0,0,0,1,1,88.08,FLYING
90.56,APPROACH,FLY_TO_FIX,82.68,82.6,-0.08,1875.78,-3.72,3.22,5.46,269.87,-0.041,0.2317,19.482,269.9,-2.102,0,0,0,0,0,0,0,0,89.76,0,0,0,0,0,0,0,0,0,0,0,0,0,1,1,90.72,FLYING
93.2,APPROACH,FLY_TO_FIX,82.63,82.6,-0.03,1852.35,-3.63,3.28,5.46,269.87,-0.037,0.2388,19.468,269.9,-2.053,0,0,0,0,0,0,0,0,89.76,0,0,0,0,0,0,0,0,0,0,0,0,0,1,1,93.36,FLYING
95.84,APPROACH,FLY_TO_FIX,82.62,82.6,-0.02,1839.38,-3.55,3.33,5.46,269.87,-0.037,0.2384,19.457,269.9,-2.006,0,0,0,0,0,0,0,0,89.76,0,0,0,0,0,0,0,0,0,0,0,0,0,1,1,96,FLYING
98.48,APPROACH,FLY_TO_FIX,82.66,82.6,-0.06,1828.39,-3.46,3.37,5.46,269.87,-0.036,0.2317,19.429,269.9,-1.96,0,0,0,0,0,0,0,0,89.76,0,0,0,0,0,0,0,0,0,0,0,0,0,1,1,98.64,FLYING
101.12,APPROACH,FLY_TO_FIX,82.71,82.6,-0.11,1819.03,-3.38,3.42,5.46,269.87,-0.037,0.2231,19.375,269.9,-1.914,0,0,0,0,0,0,0,0,89.76,0,0,0,0,0,0,0,0,0,0,0,0,0,1,1,101.28,FLYING
103.76,APPROACH,FLY_TO_FIX,82.73,82.6,-0.13,1809.42,-3.3,3.46,5.45,269.87,-0.041,0.22,19.311,269.9,-1.87,0,0,0,0,0,0,0,0,89.76,0,0,0,0,0,0,0,0,0,0,0,0,0,1,1,103.92,FLYING
106.4,APPROACH,FLY_TO_FIX,82.68,82.6,-0.08,1800.46,-3.22,3.51,5.46,269.87,-0.039,0.2269,19.268,269.9,-1.827,0,0,0,0,0,0,0,0,89.76,0,0,0,0,0,0,0,0,0,0,0,0,0,1,1,106.56,FLYING
109.04,APPROACH,FLY_TO_FIX,82.61,82.6,-0.01,1791.12,-3.15,3.56,5.46,269.87,-0.038,0.238,19.262,269.9,-1.785,0,0,0,0,0,0,0,0,89.76,0,0,0,0,0,0,0,0,0,0,0,0,0,1,1,109.2,FLYING
111.68,APPROACH,FLY_TO_FIX,82.55,82.6,0.05,1782.93,-3.08,3.61,5.47,269.87,-0.04,0.2461,19.287,269.9,-1.744,0,0,0,0,0,0,0,0,89.76,0,0,0,0,0,0,0,0,0,0,0,0,0,1,1,111.84,FLYING
114.32,APPROACH,FLY_TO_FIX,82.53,82.6,0.07,1774.84,-3,3.66,5.47,269.87,-0.039,0.2475,19.324,269.9,-1.703,0,0,0,0,0,0,0,0,89.76,0,0,0,0,0,0,0,0,0,0,0,0,0,1,1,114.48,FLYING
116.96,APPROACH,FLY_TO_FIX,82.55,82.6,0.05,1766.85,-2.93,3.69,5.47,269.87,-0.039,0.2425,19.35,269.9,-1.664,0,0,0,0,0,0,0,0,89.76,0,0,0,0,0,0,0,0,0,0,0,0,0,1,1,117.12,FLYING
119.6,APPROACH,FLY_TO_FIX,82.59,82.6,0.01,1755.53,-2.86,3.73,5.46,269.87,-0.037,0.2345,19.355,269.9,-1.626,0,0,0,0,0,0,0,0,89.76,0,0,0,0,0,0,0,0,0,0,0,0,0,1,1,119.76,FLYING
122.24,APPROACH,FLY_TO_FIX,82.62,82.6,-0.02,1750.09,-2.79,3.77,5.46,269.87,-0.035,0.2298,19.346,269.9,-1.589,0,0,0,0,0,0,0,0,89.76,0,0,0,0,0,0,0,0,0,0,0,0,0,1,1,122.4,FLYING
124.88,APPROACH,FLY_TO_FIX,82.59,82.6,0.01,1744.72,-2.73,3.81,5.46,269.87,-0.036,0.2338,19.349,269.9,-1.552,0,0,0,0,0,0,0,0,89.76,0,0,0,0,0,0,0,0,0,0,0,0,0,1,1,125.04,FLYING
127.52,APPROACH,FLY_TO_FIX,82.53,82.6,0.07,1737.6,-2.67,3.85,5.47,269.87,-0.039,0.2436,19.384,269.9,-1.516,0,0,0,0,0,0,0,0,89.76,0,0,0,0,0,0,0,0,0,0,0,0,0,1,1,127.68,FLYING
130.16,APPROACH,FLY_TO_FIX,82.47,82.6,0.13,1730.58,-2.61,3.89,5.47,269.87,-0.036,0.2517,19.449,269.9,-1.481,0,0,0,0,0,0,0,0,89.76,0,0,0,0,0,0,0,0,0,0,0,0,0,1,1,130.32,FLYING
132.8,APPROACH,FLY_TO_FIX,82.44,82.6,0.16,1723.78,-2.54,3.93,5.48,269.87,-0.035,0.2544,19.527,269.9,-1.447,0,0,0,0,0,0,0,0,89.76,0,0,0,0,0,0,0,0,0,0,0,0,0,1,1,132.96,FLYING
135.44,APPROACH,FLY_TO_FIX,82.45,82.6,0.15,1717.24,-2.48,3.97,5.48,269.87,-0.039,0.2512,19.6,269.9,-1.414,0,0,0,0,0,0,0,0,89.76,0,0,0,0,0,0,0,0,0,0,0,0,0,1,1,135.6,FLYING
138.08,APPROACH,FLY_TO_FIX,82.49,82.6,0.11,1710.75,-2.42,4,5.47,269.87,-0.035,0.2445,19.655,269.9,-1.382,0,0,0,0,0,0,0,0,89.76,0,0,0,0,0,0,0,0,0,0,0,0,0,1,1,138.24,FLYING
140.72,APPROACH,FLY_TO_FIX,82.53,82.6,0.07,1704.4,-2.37,4.03,5.47,269.87,-0.041,0.2388,19.691,269.9,-1.35,0,0,0,0,0,0,0,0,89.76,0,0,0,0,0,0,0,0,0,0,0,0,0,1,1,140.88,FLYING
143.36,APPROACH,FLY_TO_FIX,82.52,82.6,0.08,1698.24,-2.31,4.06,5.47,269.87,-0.037,0.2403,19.729,269.9,-1.319,0,0,0,0,0,0,0,0,89.76,0,0,0,0,0,0,0,0,0,0,0,0,0,1,1,143.52,FLYING
146,APPROACH,FLY_TO_FIX,82.47,82.6,0.13,1692.17,-2.26,4.1,5.47,269.87,-0.036,0.2484,19.792,269.9,-1.289,0,0,0,0,0,0,0,0,89.76,0,0,0,0,0,0,0,0,0,0,0,0,0,1,1,146.16,FLYING
148.64,APPROACH,FLY_TO_FIX,82.42,82.6,0.18,1685.96,-2.21,4.13,5.48,269.87,-0.039,0.2561,19.88,269.9,-1.259,0,0,0,0,0,0,0,0,89.76,0,0,0,0,0,0,0,0,0,0,0,0,0,1,1,148.8,FLYING
151.28,APPROACH,FLY_TO_FIX,82.39,82.6,0.21,1677.51,-2.15,4.17,5.48,269.87,-0.036,0.2599,19.983,269.9,-1.231,0,0,0,0,0,0,0,0,89.76,0,0,0,0,0,0,0,0,0,0,0,0,0,1,1,151.44,FLYING
153.92,APPROACH,FLY_TO_FIX,82.4,82.6,0.2,1634.38,-2.1,4.2,5.48,269.87,-0.039,0.2573,20,269.9,-1.202,0,0,0,0,0,0,0,0,89.76,0,0,0,0,0,0,0,0,0,0,0,0,0,1,1,154.08,FLYING
156.56,APPROACH,FLY_TO_FIX,82.43,82.6,0.17,1585.98,-2.05,4.22,5.48,269.87,-0.039,0.2511,20,269.9,-1.175,0,0,0,0,0,0,0,0,89.76,0,0,0,0,0,0,0,0,0,0,0,0,0,1,1,156.72,FLYING
159.2,APPROACH,FLY_TO_FIX,82.47,82.6,0.13,1563,-2,4.25,5.47,269.87,-0.039,0.2456,20,269.9,-1.148,0,0,0,0,0,0,0,0,89.76,0,0,0,0,0,0,0,0,0,0,0,0,0,1,1,159.36,FLYING
161.84,APPROACH,FLY_TO_FIX,82.46,82.6,0.14,1569.66,-1.96,4.28,5.47,269.87,-0.041,0.2463,20,269.9,-1.122,0,0,0,0,0,0,0,0,89.76,0,0,0,0,0,0,0,0,0,0,0,0,0,1,1,162,FLYING
164.48,APPROACH,FLY_TO_FIX,82.41,82.6,0.19,1560.68,-1.91,4.31,5.48,269.87,-0.039,0.2533,20,269.91,-1.096,0,0,0,0,0,0,0,0,89.76,0,0,0,0,0,0,0,0,0,0,0,0,0,1,1,164.64,FLYING
167.12,APPROACH,FLY_TO_FIX,82.36,82.6,0.24,1558.92,-1.87,4.34,5.48,269.87,-0.038,0.2601,20,269.91,-1.071,0,0,0,0,0,0,0,0,89.76,0,0,0,0,0,0,0,0,0,0,0,0,0,1,1,167.28,FLYING
169.76,APPROACH,FLY_TO_FIX,82.33,82.6,0.27,1548.65,-1.82,4.37,5.49,269.87,-0.039,0.2632,20,269.91,-1.047,0,0,0,0,0,0,0,0,89.76,0,0,0,0,0,0,0,0,0,0,0,0,0,1,1,169.92,FLYING
172.4,APPROACH,FLY_TO_FIX,82.33,82.6,0.27,1526.17,-1.78,4.39,5.48,269.87,-0.038,0.2616,20,269.91,-1.023,0,0,0,0,0,0,0,0,89.76,0,0,0,0,0,0,0,0,0,0,0,0,0,1,1,172.56,FLYING
175.04,APPROACH,FLY_TO_FIX,82.35,82.6,0.25,1533.18,-1.74,4.42,5.48,269.87,-0.038,0.2568,20,269.91,-1,0,0,0,0,0,0,0,0,89.76,0,0,0,0,0,0,0,0,0,0,0,0,0,1,1,175.2,FLYING
177.68,APPROACH,FLY_TO_FIX,82.38,82.6,0.22,1537.62,-1.7,4.44,5.48,269.87,-0.033,0.2519,20,269.91,-0.977,0,0,0,0,0,0,0,0,89.76,0,0,0,0,0,0,0,0,0,0,0,0,0,1,1,177.84,FLYING
180.32,APPROACH,FLY_TO_FIX,82.38,82.6,0.22,1533.88,-1.66,4.47,5.48,269.87,-0.039,0.2517,20,269.91,-0.955,0,0,0,0,0,0,0,0,89.76,0,0,0,0,0,0,0,0,0,0,0,0,0,1,1,180.48,FLYING
182.96,APPROACH,FLY_TO_FIX,82.34,82.6,0.26,1516.38,-1.62,4.49,5.48,269.87,-0.036,0.2574,20,269.91,-0.933,0,0,0,0,0,0,0,0,89.76,0,0,0,0,0,0,0,0,0,0,0,0,0,1,1,183.12,FLYING
185.6,APPROACH,FLY_TO_FIX,82.29,82.6,0.31,1482.83,-1.58,4.52,5.49,269.87,-0.041,0.2637,20,269.91,-0.912,0,0,0,0,0,0,0,0,89.76,0,0,0,0,0,0,0,0,0,0,0,0,0,1,1,185.76,FLYING
188.24,APPROACH,FLY_TO_FIX,82.26,82.6,0.34,1454.84,-1.54,4.54,5.49,269.87,-0.039,0.2668,20,269.91,-0.891,0,0,0,0,0,0,0,0,89.76,0,0,0,0,0,0,0,0,0,0,0,0,0,1,1,188.4,FLYING
190.88,APPROACH,FLY_TO_FIX,82.25,82.6,0.35,1443.82,-1.51,4.56,5.49,269.87,-0.034,0.2658,20,269.91,-0.871,0,0,0,0,0,0,0,0,89.76,0,0,0,0,0,0,0,0,0,0,0,0,0,1,1,191.04,FLYING
193.52,APPROACH,FLY_TO_FIX,82.27,82.6,0.33,1439.27,-1.47,4.59,5.49,269.87,-0.039,0.2616,20,269.91,-0.851,0,0,0,0,0,0,0,0,89.76,0,0,0,0,0,0,0,0,0,0,0,0,0,1,1,193.68,FLYING
196.16,APPROACH,FLY_TO_FIX,82.29,82.6,0.31,1440.72,-1.43,4.61,5.49,269.87,-0.037,0.2571,20,269.91,-0.832,0,0,0,0,0,0,0,0,89.76,0,0,0,0,0,0,0,0,0,0,0,0,0,1,1,196.32,FLYING
198.8,APPROACH,FLY_TO_FIX,82.29,82.6,0.31,1443.86,-1.4,4.63,5.49,269.87,-0.042,0.2565,20,269.91,-0.813,0,0,0,0,0,0,0,0,89.76,0,0,0,0,0,0,0,0,0,0,0,0,0,1,1,198.96,FLYING
201.44,APPROACH,FLY_TO_FIX,82.26,82.6,0.34,1426.62,-1.37,4.65,5.49,269.87,-0.04,0.2613,20,269.91,-0.795,0,0,0,0,0,0,0,0,89.76,0,0,0,0,0,0,0,0,0,0,0,0,0,1,1,201.6,FLYING
204.08,APPROACH,FLY_TO_FIX,82.22,82.6,0.38,1412.29,-1.34,4.67,5.49,269.87,-0.036,0.2669,20,269.91,-0.777,0,0,0,0,0,0,0,0,89.76,0,0,0,0,0,0,0,0,0,0,0,0,0,1,1,204.24,FLYING
206.72,APPROACH,FLY_TO_FIX,82.19,82.6,0.41,1412.57,-1.31,4.69,5.5,269.87,-0.04,0.2698,20,269.91,-0.76,0,0,0,0,0,0,0,0,89.76,0,0,0,0,0,0,0,0,0,0,0,0,0,1,1,206.88,FLYING
209.36,APPROACH,FLY_TO_FIX,82.18,82.6,0.42,1417.87,-1.27,4.71,5.5,269.87,-0.04,0.269,20,269.91,-0.743,0,0,0,0,0,0,0,0,89.76,0,0,0,0,0,0,0,0,0,0,0,0,0,1,1,209.52,FLYING
212,APPROACH,FLY_TO_FIX,82.2,82.6,0.4,1434.61,-1.24,4.73,5.49,269.87,-0.04,0.2654,20,269.91,-0.726,0,0,0,0,0,0,0,0,89.76,0,0,0,0,0,0,0,0,0,0,0,0,0,1,1,212.16,FLYING
214.64,APPROACH,FLY_TO_FIX,82.22,82.6,0.38,1439.35,-1.21,4.75,5.49,269.87,-0.04,0.2613,20,269.92,-0.71,0,0,0,0,0,0,0,0,89.76,0,0,0,0,0,0,0,0,0,0,0,0,0,1,1,214.8,FLYING
217.28,APPROACH,FLY_TO_FIX,82.22,82.6,0.38,1448.63,-1.18,4.76,5.49,269.87,-0.038,0.2607,20,269.92,-0.694,0,0,0,0,0,0,0,0,89.76,0,0,0,0,0,0,0,0,0,0,0,0,0,1,1,217.44,FLYING
219.92,APPROACH,FLY_TO_FIX,82.19,82.6,0.41,1455.84,-1.16,4.78,5.49,269.87,-0.039,0.2647,20,269.92,-0.678,0,0,0,0,0,0,0,0,89.76,0,0,0,0,0,0,0,0,0,0,0,0,0,1,1,220.08,FLYING
222.56,APPROACH,FLY_TO_FIX,82.15,82.6,0.45,1459.01,-1.13,4.8,5.5,269.87,-0.039,0.2697,20,269.92,-0.663,0,0,0,0,0,0,0,0,89.76,0,0,0,0,0,0,0,0,0,0,0,0,0,1,1,222.72,FLYING
225.2,APPROACH,FLY_TO_FIX,82.12,82.6,0.48,1458.39,-1.1,4.82,5.5,269.87,-0.04,0.2724,20,269.92,-0.649,0,0,0,0,0,0,0,0,89.76,0,0,0,0,0,0,0,0,0,0,0,0,0,1,1,225.36,FLYING
227.84,APPROACH,FLY_TO_FIX,82.11,82.6,0.49,1451,-1.08,4.84,5.5,269.87,-0.038,0.2717,20,269.92,-0.634,0,0,0,0,0,0,0,0,89.76,0,0,0,0,0,0,0,0,0,0,0,0,0,1,1,228,FLYING
230.48,APPROACH,FLY_TO_FIX,82.13,82.6,0.47,1446.18,-1.05,4.85,5.5,269.87,-0.041,0.2684,20,269.92,-0.62,0,0,0,0,0,0,0,0,89.76,0,0,0,0,0,0,0,0,0,0,0,0,0,1,1,230.64,FLYING
233.12,APPROACH,FLY_TO_FIX,82.15,82.6,0.45,1417.37,-1.02,4.87,5.5,269.87,-0.042,0.2648,20,269.92,-0.606,0,0,0,0,0,0,0,0,89.76,0,0,0,0,0,0,0,0,0,0,0,0,0,1,1,233.28,FLYING
235.76,APPROACH,FLY_TO_FIX,82.15,82.6,0.45,1402.33,-1,4.88,5.5,269.87,-0.039,0.2641,20,269.92,-0.593,0,0,0,0,0,0,0,0,89.76,0,0,0,0,0,0,0,0,0,0,0,0,0,1,1,235.92,FLYING
238.4,APPROACH,FLY_TO_FIX,82.12,82.6,0.48,1383.99,-0.97,4.9,5.5,269.87,-0.041,0.2679,20,269.92,-0.58,0,0,0,0,0,0,0,0,89.76,0,0,0,0,0,0,0,0,0,0,0,0,0,1,1,238.56,FLYING
241.04,APPROACH,FLY_TO_FIX,82.08,82.6,0.52,1379.46,-0.95,4.92,5.5,269.87,-0.04,0.2724,20,269.92,-0.567,0,0,0,0,0,0,0,0,89.76,0,0,0,0,0,0,0,0,0,0,0,0,0,1,1,241.2,FLYING
243.68,APPROACH,FLY_TO_FIX,82.06,82.6,0.54,1362.57,-0.93,4.93,5.5,269.87,-0.041,0.2747,20,269.92,-0.555,0,0,0,0,0,0,0,0,89.76,0,0,0,0,0,0,0,0,0,0,0,0,0,1,1,243.84,FLYING
246.32,APPROACH,FLY_TO_FIX,82.05,82.6,0.55,1355.04,-0.91,4.94,5.51,269.87,-0.038,0.274,20,269.92,-0.542,0,0,0,0,0,0,0,0,89.76,0,0,0,0,0,0,0,0,0,0,0,0,0,1,1,246.48,FLYING
248.96,APPROACH,FLY_TO_FIX,82.07,82.6,0.53,1340.22,-0.88,4.96,5.5,269.87,-0.04,0.2709,20,269.92,-0.531,0,0,0,0,0,0,0,0,89.76,0,0,0,0,0,0,0,0,0,0,0,0,0,1,1,249.12,FLYING
251.6,APPROACH,FLY_TO_FIX,82.08,82.6,0.52,1328,-0.86,4.97,5.5,269.87,-0.039,0.2676,20,269.92,-0.519,0,0,0,0,0,0,0,0,89.76,0,0,0,0,0,0,0,0,0,0,0,0,0,1,1,251.76,FLYING
254.24,APPROACH,FLY_TO_FIX,82.08,82.6,0.52,1320.75,-0.84,4.98,5.5,269.87,-0.039,0.2671,20,269.93,-0.508,0,0,0,0,0,0,0,0,89.76,0,0,0,0,0,0,0,0,0,0,0,0,0,1,1,254.4,FLYING
256.88,APPROACH,FLY_TO_FIX,82.06,82.6,0.54,1308.19,-0.82,5,5.5,269.88,-0.04,0.2705,20,269.93,-0.497,0,0,0,0,0,0,0,0,89.76,0,0,0,0,0,0,0,0,0,0,0,0,0,1,1,257.04,FLYING
259.52,APPROACH,FLY_TO_FIX,82.03,82.6,0.57,1298.72,-0.8,5.01,5.51,269.88,-0.044,0.2746,20,269.93,-0.486,0,0,0,0,0,0,0,0,89.76,0,0,0,0,0,0,0,0,0,0,0,0,0,1,1,259.68,FLYING
262.16,APPROACH,FLY_TO_FIX,82.01,82.6,0.59,1288.27,-0.78,5.02,5.51,269.88,-0.037,0.2767,20,269.93,-0.475,0,0,0,0,0,0,0,0,89.76,0,0,0,0,0,0,0,0,0,0,0,0,0,1,1,262.32,FLYING
264.8,APPROACH,FLY_TO_FIX,82,82.6,0.6,1295.4,-0.77,5.03,5.51,269.88,-0.042,0.2759,20,269.93,-0.465,0,0,0,0,0,0,0,0,89.76,0,0,0,0,0,0,0,0,0,0,0,0,0,1,1,264.96,FLYING
267.44,APPROACH,FLY_TO_FIX,82.01,82.6,0.59,1310.26,-0.74,5.04,5.51,269.88,-0.038,0.273,20,269.93,-0.455,0,0,0,0,0,0,0,0,89.76,0,0,0,0,0,0,0,0,0,0,0,0,0,1,1,267.6,FLYING
270.08,APPROACH,FLY_TO_FIX,82.03,82.6,0.57,1304.5,-0.72,5.06,5.51,269.88,-0.04,0.2698,20,269.93,-0.445,0,0,0,0,0,0,0,0,89.76,0,0,0,0,0,0,0,0,0,0,0,0,0,1,1,270.24,FLYING
272.72,APPROACH,FLY_TO_FIX,82.03,82.6,0.57,1312.59,-0.71,5.07,5.5,269.88,-0.039,0.2696,20,269.93,-0.436,0,0,0,0,0,0,0,0,89.76,0,0,0,0,0,0,0,0,0,0,0,0,0,1,1,272.88,FLYING
275.36,APPROACH,FLY_TO_FIX,82,82.6,0.6,1325.98,-0.69,5.08,5.51,269.88,-0.037,0.2731,20,269.93,-0.427,0,0,0,0,0,0,0,0,89.76,0,0,0,0,0,0,0,0,0,0,0,0,0,1,1,275.52,FLYING
278,APPROACH,FLY_TO_FIX,81.97,82.6,0.63,1337.72,-0.68,5.09,5.51,269.88,-0.042,0.2769,20,269.93,-0.418,0,0,0,0,0,0,0,0,89.76,0,0,0,0,0,0,0,0,0,0,0,0,0,1,1,278.16,FLYING
280.64,APPROACH,FLY_TO_FIX,81.96,82.6,0.64,1329.37,-0.66,5.1,5.51,269.88,-0.042,0.2785,20,269.93,-0.409,0,0,0,0,0,0,0,0,89.76,0,0,0,0,0,0,0,0,0,0,0,0,0,1,1,280.8,FLYING
283.28,APPROACH,FLY_TO_FIX,81.95,82.6,0.65,1327.34,-0.64,5.11,5.51,269.88,-0.046,0.2774,20,269.93,-0.4,0,0,0,0,0,0,0,0,89.76,0,0,0,0,0,0,0,0,0,0,0,0,0,1,1,283.44,FLYING
285.92,APPROACH,FLY_TO_FIX,81.97,82.6,0.63,1315.51,-0.63,5.12,5.51,269.88,-0.042,0.2745,20,269.94,-0.392,0,0,0,0,0,0,0,0,89.76,0,0,0,0,0,0,0,0,0,0,0,0,0,1,1,286.08,FLYING
288.56,APPROACH,FLY_TO_FIX,81.98,82.6,0.62,1303.68,-0.61,5.13,5.51,269.88,-0.041,0.2718,20,269.94,-0.384,0,0,0,0,0,0,0,0,89.76,0,0,0,0,0,0,0,0,0,0,0,0,0,1,1,288.72,FLYING
291.2,APPROACH,FLY_TO_FIX,81.98,82.6,0.62,1294.27,-0.6,5.14,5.51,269.89,-0.041,0.272,20,269.94,-0.376,0,0,0,0,0,0,0,0,89.76,0,0,0,0,0,0,0,0,0,0,0,0,0,1,1,291.36,FLYING
293.84,APPROACH,FLY_TO_FIX,81.96,82.6,0.64,1280.17,-0.58,5.15,5.51,269.89,-0.045,0.2752,20,269.94,-0.368,0,0,0,0,0,0,0,0,89.76,0,0,0,0,0,0,0,0,0,0,0,0,0,1,1,294,FLYING
296.48,APPROACH,FLY_TO_FIX,81.93,82.6,0.67,1275.25,-0.57,5.16,5.51,269.89,-0.041,0.2783,20,269.94,-0.36,0,0,0,0,0,0,0,0,89.76,0,0,0,0,0,0,0,0,0,0,0,0,0,1,1,296.64,FLYING
299.12,APPROACH,FLY_TO_FIX,81.92,82.6,0.68,1282.13,-0.56,5.17,5.51,269.89,-0.04,0.2795,20,269.94,-0.353,0,0,0,0,0,0,0,0,89.76,0,0,0,0,0,0,0,0,0,0,0,0,0,1,1,299.28,FLYING
301.76,APPROACH,FLY_TO_FIX,81.92,82.6,0.68,1283.98,-0.54,5.18,5.51,269.89,-0.041,0.2783,20,269.94,-0.345,0,0,0,0,0,0,0,0,89.76,0,0,0,0,0,0,0,0,0,0,0,0,0,1,1,301.92,FLYING
304.4,APPROACH,FLY_TO_FIX,81.93,82.6,0.67,1272.75,-0.53,5.19,5.51,269.89,-0.04,0.2757,20,269.94,-0.338,0,0,0,0,0,0,0,0,89.76,0,0,0,0,0,0,0,0,0,0,0,0,0,1,1,304.56,FLYING
307.04,APPROACH,FLY_TO_FIX,81.94,82.6,0.66,1261.25,-0.51,5.19,5.51,269.89,-0.043,0.2736,20,269.94,-0.331,0,0,0,0,0,0,0,0,89.76,0,0,0,0,0,0,0,0,0,0,0,0,0,1,1,307.2,FLYING
309.68,APPROACH,FLY_TO_FIX,81.94,82.6,0.66,1255.43,-0.5,5.2,5.51,269.89,-0.042,0.2742,20,269.95,-0.325,0,0,0,0,0,0,0,0,89.76,0,0,0,0,0,0,0,0,0,0,0,0,0,1,1,309.84,FLYING
312.32,APPROACH,FLY_TO_FIX,81.92,82.6,0.68,1268.91,-0.49,5.21,5.51,269.89,-0.04,0.277,20,269.95,-0.318,0,0,0,0,0,0,0,0,89.76,0,0,0,0,0,0,0,0,0,0,0,0,0,1,1,312.48,FLYING
314.96,APPROACH,FLY_TO_FIX,81.9,82.6,0.7,1271.13,-0.48,5.22,5.51,269.89,-0.043,0.2792,20,269.95,-0.312,0,0,0,0,0,0,0,0,89.76,0,0,0,0,0,0,0,0,0,0,0,0,0,1,1,315.12,FLYING
317.6,APPROACH,FLY_TO_FIX,81.89,82.6,0.71,1271.73,-0.47,5.23,5.52,269.9,-0.041,0.2799,20,269.95,-0.305,0,0,0,0,0,0,0,0,89.76,0,0,0,0,0,0,0,0,0,0,0,0,0,1,1,317.76,FLYING
320.24,APPROACH,FLY_TO_FIX,81.89,82.6,0.71,1283.39,-0.45,5.23,5.51,269.9,-0.045,0.2789,20,269.95,-0.299,0,0,0,0,0,0,0,0,89.76,0,0,0,0,0,0,0,0,0,0,0,0,0,1,1,320.4,FLYING
322.88,APPROACH,FLY_TO_FIX,81.9,82.6,0.7,1283.93,-0.44,5.24,5.51,269.9,-0.042,0.2769,20,269.95,-0.293,0,0,0,0,0,0,0,0,89.76,0,0,0,0,0,0,0,0,0,0,0,0,0,1,1,323.04,FLYING
325.52,APPROACH,FLY_TO_FIX,81.9,82.6,0.7,1293.13,-0.43,5.24,5.51,269.9,-0.041,0.2754,20,269.95,-0.288,0,0,0,0,0,0,0,0,89.76,0,0,0,0,0,0,0,0,0,0,0,0,0,1,1,325.68,FLYING
328.16,APPROACH,FLY_TO_FIX,81.9,82.6,0.7,1297.32,-0.42,5.25,5.51,269.9,-0.044,0.2761,20,269.95,-0.282,0,0,0,0,0,0,0,0,89.76,0,0,0,0,0,0,0,0,0,0,0,0,0,1,1,328.32,FLYING
330.8,APPROACH,FLY_TO_FIX,81.88,82.6,0.72,1284.68,-0.41,5.26,5.51,269.9,-0.043,0.2783,20,269.96,-0.276,0,0,0,0,0,0,0,0,89.76,0,0,0,0,0,0,0,0,0,0,0,0,0,1,1,330.96,FLYING
333.44,APPROACH,FLY_TO_FIX,81.87,82.6,0.73,1281.71,-0.4,5.27,5.51,269.9,-0.042,0.28,20,269.96,-0.271,0,0,0,0,0,0,0,0,89.76,0,0,0,0,0,0,0,0,0,0,0,0,0,1,1,333.6,FLYING
336.08,APPROACH,FLY_TO_FIX,81.86,82.6,0.74,1286.34,-0.39,5.27,5.52,269.9,-0.041,0.2803,20,269.96,-0.266,0,0,0,0,0,0,0,0,89.76,0,0,0,0,0,0,0,0,0,0,0,0,0,1,1,336.24,FLYING
338.72,APPROACH,FLY_TO_FIX,81.86,82.6,0.74,1278.72,-0.38,5.28,5.51,269.91,-0.042,0.2793,20,269.96,-0.26,0,0,0,0,0,0,0,0,89.76,0,0,0,0,0,0,0,0,0,0,0,0,0,1,1,338.88,FLYING
341.36,APPROACH,FLY_TO_FIX,81.87,82.6,0.73,1267.65,-0.37,5.28,5.51,269.91,-0.044,0.2777,20,269.96,-0.255,0,0,0,0,0,0,0,0,89.76,0,0,0,0,0,0,0,0,0,0,0,0,0,1,1,341.52,FLYING
344,APPROACH,FLY_TO_FIX,81.88,82.6,0.72,1253.87,-0.36,5.29,5.51,269.91,-0.042,0.2768,20,269.96,-0.251,0,0,0,0,0,0,0,0,89.76,0,0,0,0,0,0,0,0,0,0,0,0,0,1,1,344.16,FLYING
346.64,APPROACH,FLY_TO_FIX,81.87,82.6,0.73,1238.08,-0.36,5.29,5.51,269.91,-0.044,0.2776,20,269.96,-0.246,0,0,0,0,0,0,0,0,89.76,0,0,0,0,0,0,0,0,0,0,0,0,0,1,1,346.8,FLYING
349.28,APPROACH,FLY_TO_FIX,81.86,82.6,0.74,1210.01,-0.35,5.3,5.52,269.91,-0.046,0.2794,20,269.97,-0.241,0,0,0,0,0,0,0,0,89.76,0,0,0,0,0,0,0,0,0,0,0,0,0,1,1,349.44,FLYING
351.92,APPROACH,FLY_TO_FIX,81.84,82.6,0.76,1185.21,-0.34,5.3,5.52,269.91,-0.041,0.2807,20,269.97,-0.237,0,0,0,0,0,0,0,0,89.76,0,0,0,0,0,0,0,0,0,0,0,0,0,1,1,352.08,FLYING
354.56,APPROACH,FLY_TO_FIX,81.84,82.6,0.76,1156.09,-0.33,5.31,5.51,269.92,-0.043,0.2808,20,269.97,-0.232,0,0,0,0,0,0,0,0,89.76,0,0,0,0,0,0,0,0,0,0,0,0,0,1,1,354.72,FLYING
357.2,APPROACH,FLY_TO_FIX,81.84,82.6,0.76,1134.04,-0.32,5.31,5.51,269.92,-0.046,0.2799,20,269.97,-0.228,0,0,0,0,0,0,0,0,89.76,0,0,0,0,0,0,0,0,0,0,0,0,0,1,1,357.36,FLYING
359.84,APPROACH,FLY_TO_FIX,81.85,82.6,0.75,1117.97,-0.32,5.32,5.51,269.92,-0.042,0.2785,20,269.97,-0.224,0,0,0,0,0,0,0,0,89.76,0,0,0,0,0,0,0,0,0,0,0,0,0,1,1,360,FLYING
362.48,APPROACH,FLY_TO_FIX,81.85,82.6,0.75,1099.7,-0.31,5.33,5.52,269.92,-0.044,0.2779,20,269.98,-0.219,0,0,0,0,0,0,0,0,89.76,0,0,0,0,0,0,0,0,0,0,0,0,0,1,1,362.64,FLYING
365.12,APPROACH,FLY_TO_FIX,81.84,82.6,0.76,1090.84,-0.3,5.33,5.51,269.92,-0.043,0.2789,20,269.98,-0.215,0,0,0,0,0,0,0,0,89.76,0,0,0,0,0,0,0,0,0,0,0,0,0,1,1,365.28,FLYING
367.76,APPROACH,FLY_TO_FIX,81.83,82.6,0.77,1072.36,-0.29,5.33,5.51,269.92,-0.045,0.2804,20,269.98,-0.211,0,0,0,0,0,0,0,0,89.76,0,0,0,0,0,0,0,0,0,0,0,0,0,1,1,367.92,FLYING
370.88,APPROACH,FLY_TO_FIX,81.82,82.6,0.78,1066.14,-0.28,5.34,5.52,269.93,-0.044,0.2815,20,269.98,-0.207,0,0,0,0,0,0,0,0,89.76,0,0,0,0,0,0,0,0,0,0,0,0,0,1,1,371.04,FLYING
374,APPROACH,FLY_TO_FIX,81.82,82.6,0.78,1070.87,-0.28,5.34,5.52,269.93,-0.043,0.2812,20,269.98,-0.203,0,0,0,0,0,0,0,0,89.76,0,0,0,0,0,0,0,0,0,0,0,0,0,1,1,374.16,FLYING
377.28,APPROACH,FLY_TO_FIX,81.83,82.6,0.77,1060.1,-0.27,5.35,5.51,269.93,-0.045,0.2798,20,269.99,-0.198,0,0,0,0,0,0,0,0,89.76,0,0,0,0,0,0,0,0,0,0,0,0,0,1,1,377.44,FLYING
380.16,APPROACH,FLY_TO_FIX,81.83,82.6,0.77,1023.26,-0.26,5.35,5.51,269.93,-0.044,0.2788,20,269.99,-0.194,0,0,0,0,0,0,0,0,89.76,0,0,0,0,0,0,0,0,0,0,0,0,0,1,1,380.32,FLYING
383.04,APPROACH,FLY_TO_FIX,81.83,82.6,0.77,986.43,-0.25,5.36,5.51,269.93,-0.048,0.2793,20,269.99,-0.191,0,0,0,0,0,0,0,0,89.76,0,0,0,0,0,0,0,0,0,0,0,0,0,1,1,383.2,FLYING
385.92,APPROACH,FLY_TO_FIX,81.82,82.6,0.78,951.17,-0.25,5.36,5.52,269.94,-0.046,0.2808,20,270,-0.187,0,0,0,0,0,0,0,0,89.76,0,0,0,0,0,0,0,0,0,0,0,0,0,1,1,386.08,FLYING
388.8,APPROACH,FLY_TO_FIX,81.81,82.6,0.79,926.26,-0.24,5.36,5.51,269.94,-0.049,0.2819,20,270,-0.183,0,0,0,0,0,0,0,0,89.76,0,0,0,0,0,0,0,0,0,0,0,0,0,1,1,388.96,FLYING
391.68,APPROACH,FLY_TO_FIX,81.81,82.6,0.79,897.99,-0.23,5.37,5.52,269.94,-0.05,0.2819,20,270,-0.18,0,0,0,0,0,0,0,0,89.76,0,0,0,0,0,0,0,0,0,0,0,0,0,1,1,391.84,FLYING
394.56,APPROACH,FLY_TO_FIX,81.81,82.6,0.79,867.14,-0.23,5.37,5.52,269.95,-0.05,0.2809,20,270.01,-0.177,0,0,0,0,0,0,0,0,89.76,0,0,0,0,0,0,0,0,0,0,0,0,0,1,1,394.72,FLYING
397.44,APPROACH,FLY_TO_FIX,81.82,82.6,0.78,825.79,-0.22,5.38,5.51,269.95,-0.052,0.2797,20,270.01,-0.173,0,0,0,0,0,0,0,0,89.76,0,0,0,0,0,0,0,0,0,0,0,0,0,1,1,397.6,FLYING
400.32,APPROACH,FLY_TO_FIX,81.82,82.6,0.78,807.64,-0.22,5.38,5.52,269.95,-0.047,0.2795,20,270.02,-0.17,0,0,0,0,0,0,0,0,89.76,0,0,0,0,0,0,0,0,0,0,0,0,0,1,1,400.48,FLYING
403.2,APPROACH,FLY_TO_FIX,81.81,82.6,0.79,809.51,-0.21,5.38,5.51,269.96,-0.048,0.2809,20,270.02,-0.167,0,0,0,0,0,0,0,0,89.76,0,0,0,0,0,0,0,0,0,0,0,0,0,1,1,403.36,FLYING
406.08,APPROACH,FLY_TO_FIX,81.79,82.6,0.81,803.27,-0.2,5.39,5.52,269.96,-0.052,0.2824,20,270.03,-0.164,0,0,0,0,0,0,0,0,89.76,0,0,0,0,0,0,0,0,0,0,0,0,0,1,1,406.24,FLYING
408.96,APPROACH,FLY_TO_FIX,81.79,82.6,0.81,782.67,-0.2,5.39,5.52,269.97,-0.05,0.2829,20,270.03,-0.161,0,0,0,0,0,0,0,0,89.76,0,0,0,0,0,0,0,0,0,0,0,0,0,1,1,409.12,FLYING
411.92,APPROACH,FLY_TO_FIX,81.79,82.6,0.81,774.66,-0.2,5.39,5.51,269.97,-0.053,0.282,20,270.04,-0.158,0,0,0,0,0,0,0,0,89.76,0,0,0,0,0,0,0,0,0,0,0,0,0,1,1,412.08,FLYING
414.8,APPROACH,FLY_TO_FIX,81.8,82.6,0.8,766.94,-0.19,5.39,5.51,269.98,-0.056,0.2804,20,270.04,-0.155,0,0,0,0,0,0,0,0,89.76,0,0,0,0,0,0,0,0,0,0,0,0,0,1,1,414.96,FLYING
417.68,APPROACH,FLY_TO_FIX,81.8,82.6,0.8,789.13,-0.19,5.4,5.51,269.98,-0.053,0.2798,20,270.05,-0.153,0,0,0,0,0,0,0,0,89.76,0,0,0,0,0,0,0,0,0,0,0,0,0,1,1,417.84,FLYING
420.56,APPROACH,FLY_TO_FIX,81.8,82.6,0.8,800.2,-0.18,5.4,5.51,269.99,-0.06,0.281,20,270.06,-0.15,0,0,0,0,0,0,0,0,89.76,0,0,0,0,0,0,0,0,0,0,0,0,0,1,1,420.72,FLYING
423.44,APPROACH,FLY_TO_FIX,81.78,82.6,0.82,803.98,-0.18,5.4,5.51,270,-0.06,0.2827,20,270.07,-0.147,0,0,0,0,0,0,0,0,89.76,0,0,0,0,0,0,0,0,0,0,0,0,0,1,1,423.6,FLYING
426.32,APPROACH,FLY_TO_FIX,81.78,82.6,0.82,818.07,-0.17,5.41,5.51,270,-0.061,0.2833,20,270.08,-0.145,0,0,0,0,0,0,0,0,89.76,0,0,0,0,0,0,0,0,0,0,0,0,0,1,1,426.48,FLYING
429.2,APPROACH,FLY_TO_FIX,81.78,82.6,0.82,817.29,-0.17,5.41,5.51,270.01,-0.072,0.2826,20,270.1,-0.142,0,0,0,0,0,0,0,0,89.76,0,0,0,0,0,0,0,0,0,0,0,0,0,1,1,429.36,FLYING
432.32,APPROACH,FLY_TO_FIX,81.79,82.6,0.81,800.7,-0.23,1.25,3.18,270.02,0.037,0.2808,20,90,-5.195,0,0,0,0,0,0,0,0,89.76,0,0,0,0,0,0,0,0,0,0,0,0,0,1,1,432.48,FLYING
434.15,APPROACH,FLY_TO_FIX,83.81,82.6,-1.21,739.83,-48.89,-39.14,-7.95,270.11,0.157,0.0808,19.434,90,-4.995,0,0,0,0,0,0,0,0,89.76,0,0,0,0,0,0,0,0,0,0,0,0,0,1,1,434.19,FLYING
434.99,APPROACH,FLY_TO_FIX,88.01,82.6,-5.41,684.28,-69.47,-51.41,-6.92,270.16,0.15,0,16.786,90,-4.752,0,0,0,0,0,0,0,0,89.76,0,0,0,0,0,0,0,0,0,0,0,0,0,1,1,435.03,FLYING
435.63,APPROACH,FLY_TO_FIX,92.01,82.6,-9.41,632.82,-83.32,-60.41,-6.58,270.21,0.142,0,12.148,90,-4.512,0,0,0,0,0,0,0,0,89.76,0,0,0,0,0,0,0,0,0,0,0,0,0,1,1,435.67,FLYING
436.39,APPROACH,FLY_TO_FIX,97.3,82.6,-14.7,563.6,-97.97,-70.87,-6.4,270.34,0.132,0,4.871,90,-4.173,0,0,0,0,0,0,0,0,89.76,0,0,0,0,0,0,0,0,0,0,0,0,0,1,1,436.43,FLYING
436.97,APPROACH,FLY_TO_FIX,101.64,82.6,-19.04,504.97,-107.55,-78.03,-5.8,270.54,0.123,0,-4.569,90,-3.878,0,0,0,0,0,0,0,0,89.76,0,0,0,0,0,0,0,0,0,0,0,0,0,1,1,437.01,FLYING
437.73,APPROACH,FLY_TO_FIX,107.92,82.6,-25.32,420.03,-117.18,-83.78,-3.95,271,0.115,0,-17.145,90,-3.455,0,0,0,0,0,0,0,0,89.76,0,0,0,0,0,0,0,0,0,0,0,0,0,1,1,437.77,FLYING
438.35,APPROACH,FLY_TO_FIX,113.13,82.6,-30.53,345.37,-123.76,-88.73,-4.93,85.12,0.107,0,-20,90,-3.084,0,0,0,0,0,0,0,0,89.76,0,0,0,0,0,0,0,0,0,0,0,0,0,1,1,438.39,FLYING
439.11,APPROACH,FLY_TO_FIX,119.23,82.6,-36.63,249,-129.51,-87.17,0.57,93.2,-0.526,0,-20,90,-2.605,0,0,0,0,0,0,0,0,89.76,0,0,0,0,0,0,0,0,0,0,0,0,0,1,1,439.15,FLYING
439.69,APPROACH,FLY_TO_FIX,124.13,82.6,-41.53,172.44,-133.94,-86.65,0.77,104.45,-2.654,0,-20,90,-2.225,0,0,0,0,0,0,0,0,89.76,0,0,0,0,0,0,0,0,0,0,0,0,0,1,1,439.73,FLYING
440.45,APPROACH,FLY_TO_FIX,130.37,82.6,-47.77,68.3,-139.51,-85.51,0.98,100.55,-4.361,0,-20,90,-1.708,0,0,0,0,0,0,0,0,89.76,0,0,0,0,0,0,0,0,0,0,0,0,0,1,1,440.49,FLYING
