t_s,phase,subphase,ias_ms,vapp_ms,spd_err_ms,agl_m,vs_ms,pitch_deg,aoa_deg,hdg_deg,bank_deg,thr_cmd,thr_cur,thr_intg,at_gain,at_tau_s,at_a_up,at_a_dn,at_kp_thr,at_ki_spd,at_thr_slew,as_cmd_deg,as_cap_deg,as_raw_deg,as_spd_err_ms,as_active,aa_hdg_cmd_deg,aa_fpa_cmd_deg,aa_fbw,aa_dir,actual_fpa_deg,ftf_hdg_err_deg,ftf_fix_idx,kos_steer_pit_deg,kos_steer_hdg_deg,aa_dir_vx,aa_dir_vy,aa_dir_vz,aa_dir_pitch_deg,aa_dir_hdg_deg,ils_loc_m,ils_gs_m,ils_dist_km,loc_corr_deg,gs_corr_deg,gs_latched,active_gs_ang_deg,ils_intercept_alt_m,d_gs_ms,fpa_preclamped_deg,gs_nom_alt_m,flare_fpa_cmd,flare_tgt_vs,flare_frac,steer_hdg_deg,steer_blend,ro_loc_corr_deg,ro_hdg_err_deg,ro_yaw_tgt,ro_yaw_scale,ro_yaw_gate,yaw_cmd,roll_cmd,pitch_cmd,ro_pitch_tgt_deg,ro_pitch_err_deg,ro_pitch_ff,ro_roll_assist,flaps_cur,flaps_tgt,asc_j_ab,asc_j_rk,asc_validity,asc_q_pa,asc_q_raw_pa,asc_mach,asc_apo_m,asc_drag_n,asc_w_prop,asc_edot_aero,asc_edot_orb,asc_pitch_bias,asc_blend,asc_spooling,asc_ab_thr_ratio,asc_ab_t_now,asc_ab_t_avail,asc_ab_ign_on,asc_ab_flameouts,asc_rk_t_now,asc_rk_t_avail,asc_rk_ign_on,asc_rk_flameouts,ship_thrust,ship_avail_thrust,ship_ign_on,ship_flameouts,ifc_raw_dt_s,ifc_dt_s,ifc_loop_n,ifc_hz_est,ifc_raw_dt_max_s,ifc_raw_dt_min_s,phase_el_s,status,craft_name,cfg_file
0.22,APPROACH,FLY_TO_FIX,142.16,70.14,-72.01,1449.48,-22.99,-9.87,-1.55,269.16,2.966,0,0,0,1,0.6,0.9,0.75,0.35,0.0168,0.4,4.5,33.363,33.363,71.979,1,280.74,5,1,0,-9.09,11.58,0,0,90,0,0,0,0,0,0,0,50.28,0,0,0,3,0,0,0,2709.37,0,0,0,269.2,0,0,0,0,0,0,0,0,0,0,0,0,0,0,0,0,0,VALID,0,0,0,0,0,1,0,0,0,0,0,0,0,0,0,0,0,0,0,0,35.55,338.04,2,0,0.18,0.18,1,3.45,0.18,0.02,0.22,FLYING,CF1-J,0:/Integrated Flight Computer/aircraft/cf1_j_cfg.ks (inferred preloaded)
0.52,APPROACH,FLY_TO_FIX,142.66,70.38,-72.28,1442.58,-24.43,-8.59,0.54,269.32,3.274,0,0,0,1,0.6,1.548,0.75,0.35,0.0168,0.4,12,33.21,33.21,72.249,1,280.76,5,0,0,-9.72,11.44,0,5,280.76,0,0,0,0,0,0,0,50.237,0,0,0,3,0,0,0,2707.1,0,0,0,269.2,0,0,0,0,0,0,0,0,0,0,0,0,0,0,0,0,0,VALID,0,0,0,0,0,1,0,0,0,0,0,0,0,0,0,0,0,0,0,0,32.99,338.14,2,0,0.08,0.08,4,10,0.18,0.08,0.52,FLYING,CF1-J,0:/Integrated Flight Computer/aircraft/cf1_j_cfg.ks (inferred preloaded)
0.8,APPROACH,FLY_TO_FIX,142.99,70.61,-72.38,1436.24,-22.79,-6.31,2.1,269.69,5.625,0,0,0,1,0.6,2.413,0.75,0.35,0.0168,0.4,19,33.109,33.109,72.363,1,280.79,5,0,0,-9.17,11.1,0,5,280.78,0,0,0,0,0,0,0,50.193,0,0,0,3,0,0,0,2704.82,0,0,0,269.2,0,0,0,0,0,0,0,0,0,0,0,0,0,0,0,0,0,VALID,0,0,0,0,0,1,0,0,0,0,0,0,0,0,0,0,0,0,0,0,30.76,338.3,2,0,0.1,0.1,7,10.71,0.1,0.08,0.8,FLYING,CF1-J,0:/Integrated Flight Computer/aircraft/cf1_j_cfg.ks (inferred preloaded)
1.06,APPROACH,FLY_TO_FIX,143.13,70.82,-72.32,1430.57,-21.51,-6.07,1.91,270.08,9.353,0,0,0,1,0.6,3.088,0.75,0.35,0.0168,0.4,25.5,33.063,33.063,72.307,1,280.81,5,0,0,-8.62,10.73,0,5,280.8,0,0,0,0,0,0,0,50.153,0,0,0,3,0,0,0,2702.7,0,0,0,269.2,0,0,0,0,0,0,0,0,0,0,0,0,0,0,0,0,0,VALID,0,0,0,0,0,1,0,0,0,0,0,0,0,0,0,0,0,0,0,0,28.84,338.49,2,0,0.08,0.08,10,11.54,0.1,0.08,1.06,FLYING,CF1-J,0:/Integrated Flight Computer/aircraft/cf1_j_cfg.ks (inferred preloaded)
1.34,APPROACH,FLY_TO_FIX,143.29,71.04,-72.25,1424.91,-19.8,-5.25,2.13,270.66,13.413,0,0,0,1,0.6,3.614,0.75,0.35,0.0168,0.4,32.5,33.017,33.017,72.237,1,280.83,5,0,0,-7.96,10.17,0,5,280.82,0,0,0,0,0,0,0,50.109,0,0,0,3,0,0,0,2700.41,0,0,0,269.2,0,0,0,0,0,0,0,0,0,0,0,0,0,0,0,0,0,VALID,0,0,0,0,0,1,0,0,0,0,0,0,0,0,0,0,0,0,0,0,26.9,338.68,2,0,0.1,0.1,13,10.71,0.1,0.08,1.34,FLYING,CF1-J,0:/Integrated Flight Computer/aircraft/cf1_j_cfg.ks (inferred preloaded)
1.6,APPROACH,FLY_TO_FIX,143.38,71.25,-72.13,1420.03,-18.44,-4.84,2.11,271.09,15.702,0,0,0,1,0.6,4.025,0.75,0.35,0.0168,0.4,32.987,32.987,32.987,72.129,1,280.85,5,0,0,-7.42,9.77,0,5,280.85,0,0,0,0,0,0,0,50.069,0,0,0,3,0,0,0,2698.28,0,0,0,269.2,0,0,0,0,0,0,0,0,0,0,0,0,0,0,0,0,0,VALID,0,0,0,0,0,1,0,0,0,0,0,0,0,0,0,0,0,0,0,0,25.22,338.86,2,0,0.08,0.08,16,11.54,0.1,0.08,1.6,FLYING,CF1-J,0:/Integrated Flight Computer/aircraft/cf1_j_cfg.ks (inferred preloaded)
1.88,APPROACH,FLY_TO_FIX,143.27,71.47,-71.8,1415.16,-16.92,-4.4,1.95,271.42,16.281,0,0,0,1,0.6,4.345,0.75,0.35,0.0168,0.4,33.013,33.013,33.013,71.818,1,280.88,4.788,0,0,-6.81,9.45,0,4.94,280.87,0,0,0,0,0,0,0,50.025,0,0,0,3,0,0,0,2695.99,0,0,0,269.2,0,0,0,0,0,0,0,0,0,0,0,0,0,0,0,0,0,VALID,0,0,0,0,0,1,0,0,0,0,0,0,0,0,0,0,0,0,0,0,23.53,339.13,2,0,0.1,0.1,19,10.71,0.1,0.08,1.88,FLYING,CF1-J,0:/Integrated Flight Computer/aircraft/cf1_j_cfg.ks (inferred preloaded)
2.14,APPROACH,FLY_TO_FIX,142.88,71.68,-71.2,1411.02,-15.57,-3.97,1.87,271.75,16.472,0,0,0,1,0.6,4.5,0.75,0.35,0.0168,0.4,33.126,33.126,33.126,71.234,1,280.9,4.405,0,0,-6.3,9.15,0,4.53,280.89,0,0,0,0,0,0,0,49.984,0,0,0,3,0,0,0,2693.86,0,0,0,269.2,0,0,0,0,0,0,0,0,0,0,0,0,0,0,0,0,0,VALID,0,0,0,0,0,1,0,0,0,0,0,0,0,0,0,0,0,0,0,0,22.06,339.49,2,0,0.08,0.08,22,11.54,0.1,0.08,2.14,FLYING,CF1-J,0:/Integrated Flight Computer/aircraft/cf1_j_cfg.ks (inferred preloaded)
2.42,APPROACH,FLY_TO_FIX,142.41,71.9,-70.5,1406.91,-14.33,-3.61,1.8,272.1,16.567,0,0,-14.117,1,0.6,4.5,0.75,0.35,0.0168,0.4,33.268,33.268,33.268,70.537,1,280.92,4.051,0,0,-5.82,8.82,0,4.17,280.91,0,0,0,0,0,0,0,49.941,0,0,0,3,0,0,0,2691.58,0,0,0,269.2,0,0,0,0,0,0,0,0,0,0,0,0,0,0,0,0,0,VALID,0,0,0,0,0,1,0,0,0,0,0,0,0,0,0,0,0,0,0,0,20.59,339.88,2,0,0.1,0.1,25,10.71,0.1,0.08,2.42,FLYING,CF1-J,0:/Integrated Flight Computer/aircraft/cf1_j_cfg.ks (inferred preloaded)
2.68,APPROACH,FLY_TO_FIX,141.95,72.11,-69.83,1403.38,-13.19,-3.32,1.64,272.43,16.586,0,0,-19.566,1,0.6,4.5,0.75,0.35,0.0168,0.4,33.405,33.405,33.405,69.87,1,280.93,3.715,0,0,-5.37,8.5,0,3.81,280.93,0,0,0,0,0,0,0,49.901,0,0,0,3,0,0,0,2689.47,0,0,0,269.2,0,0,0,0,0,0,0,0,0,0,0,0,0,0,0,0,0,VALID,0,0,0,0,0,1,0,0,0,0,0,0,0,0,0,0,0,0,0,0,19.31,340.24,2,0,0.08,0.08,28,11.54,0.1,0.08,2.68,FLYING,CF1-J,0:/Integrated Flight Computer/aircraft/cf1_j_cfg.ks (inferred preloaded)
2.96,APPROACH,FLY_TO_FIX,141.43,72.34,-69.1,1399.92,-12.09,-2.88,1.69,272.84,16.588,0,0,-19.274,1,0.6,4.5,0.75,0.35,0.0168,0.4,33.559,33.559,33.559,69.135,1,280.95,3.41,0,0,-4.95,8.11,0,3.54,280.95,0,0,0,0,0,0,0,49.857,0,0,0,3,0,0,0,2687.2,0,0,0,269.2,0,0,0,0,0,0,0,0,0,0,0,0,0,0,0,0,0,VALID,0,0,0,0,0,1,0,0,0,0,0,0,0,0,0,0,0,0,0,0,18.03,340.62,2,0,0.1,0.1,31,10.71,0.1,0.08,2.96,FLYING,CF1-J,0:/Integrated Flight Computer/aircraft/cf1_j_cfg.ks (inferred preloaded)
3.22,APPROACH,FLY_TO_FIX,140.93,72.54,-68.39,1396.94,-11.2,-2.73,1.53,273.16,16.52,0,0,-19.8,1,0.6,4.5,0.851,0.35,0.0168,0.4,33.709,33.709,33.709,68.426,1,280.97,3.14,0,0,-4.59,7.81,0,3.21,280.96,0,0,0,0,0,0,0,49.817,0,0,0,3,0,0,0,2685.1,0,0,0,269.2,0,0,0,0,0,0,0,0,0,0,0,0,0,0,0,0,0,VALID,0,0,0,0,0,1,0,0,0,0,0,0,0,0,0,0,0,0,0,0,16.91,340.98,2,0,0.08,0.08,34,11.54,0.1,0.08,3.22,FLYING,CF1-J,0:/Integrated Flight Computer/aircraft/cf1_j_cfg.ks (inferred preloaded)
3.5,APPROACH,FLY_TO_FIX,140.38,72.77,-67.61,1394,-10.17,-2.39,1.46,273.54,16.349,0,0,-19.505,1,0.6,4.5,0.987,0.35,0.0168,0.4,33.875,33.875,33.875,67.648,1,280.99,2.849,0,0,-4.19,7.45,0,2.96,280.98,0,0,0,0,0,0,0,49.774,0,0,0,3,0,0,0,2682.85,0,0,0,269.2,0,0,0,0,0,0,0,0,0,0,0,0,0,0,0,0,0,VALID,0,0,0,0,0,1,0,0,0,0,0,0,0,0,0,0,0,0,0,0,15.78,341.36,2,0,0.1,0.1,37,10.71,0.1,0.08,3.5,FLYING,CF1-J,0:/Integrated Flight Computer/aircraft/cf1_j_cfg.ks (inferred preloaded)
3.76,APPROACH,FLY_TO_FIX,139.85,72.98,-66.87,1391.5,-9.46,-2.15,1.48,273.87,16.118,0,0,-19.214,1,0.6,4.5,1.119,0.35,0.0168,0.4,34.034,34.034,34.034,66.912,1,281,2.651,0,0,-3.92,7.13,0,2.72,281,0,0,0,0,0,0,0,49.734,0,0,0,3,0,0,0,2680.76,0,0,0,269.2,0,0,0,0,0,0,0,0,0,0,0,0,0,0,0,0,0,VALID,0,0,0,0,0,1,0,0,0,0,0,0,0,0,0,0,0,0,0,0,14.8,341.71,2,0,0.08,0.08,40,11.54,0.1,0.08,3.76,FLYING,CF1-J,0:/Integrated Flight Computer/aircraft/cf1_j_cfg.ks (inferred preloaded)
4.04,APPROACH,FLY_TO_FIX,139.26,73.2,-66.06,1388.99,-8.68,-2.02,1.29,274.18,15.8,0,0,-18.927,1,0.6,4.5,1.244,0.35,0.0168,0.4,34.21,34.21,34.21,66.101,1,281.02,2.411,0,0,-3.6,6.84,0,2.48,281.01,0,0,0,0,0,0,0,49.692,0,0,0,3,0,0,0,2678.53,0,0,0,269.2,0,0,0,0,0,0,0,0,0,0,0,0,0,0,0,0,0,VALID,0,0,0,0,0,1,0,0,0,0,0,0,0,0,0,0,0,0,0,0,13.81,342.09,2,0,0.1,0.1,43,10.71,0.1,0.08,4.04,FLYING,CF1-J,0:/Integrated Flight Computer/aircraft/cf1_j_cfg.ks (inferred preloaded)
4.3,APPROACH,FLY_TO_FIX,138.7,73.41,-65.3,1386.87,-7.98,-1.72,1.34,274.52,15.455,0,0,-18.645,1,0.6,4.5,1.361,0.35,0.0168,0.4,34.376,34.376,34.376,65.34,1,281.03,2.225,0,0,-3.34,6.51,0,2.3,281.03,0,0,0,0,0,0,0,49.652,0,0,0,3,0,0,0,2676.46,0,0,0,269.2,0,0,0,0,0,0,0,0,0,0,0,0,0,0,0,0,0,VALID,0,0,0,0,0,1,0,0,0,0,0,0,0,0,0,0,0,0,0,0,12.95,342.44,2,0,0.08,0.08,46,11.54,0.1,0.08,4.3,FLYING,CF1-J,0:/Integrated Flight Computer/aircraft/cf1_j_cfg.ks (inferred preloaded)
4.58,APPROACH,FLY_TO_FIX,138.09,73.63,-64.45,1384.75,-7.42,-1.58,1.3,274.82,15.047,0,0,-18.366,1,0.6,4.5,1.474,0.35,0.0168,0.4,34.561,34.561,34.561,64.498,1,281.05,2.06,0,0,-3.11,6.23,0,2.11,281.04,0,0,0,0,0,0,0,49.61,0,0,0,3,0,0,0,2674.24,0,0,0,269.2,0,0,0,0,0,0,0,0,0,0,0,0,0,0,0,0,0,VALID,0,0,0,0,0,1,0,0,0,0,0,0,0,0,0,0,0,0,0,0,12.09,342.83,2,0,0.1,0.1,49,10.71,0.1,0.08,4.58,FLYING,CF1-J,0:/Integrated Flight Computer/aircraft/cf1_j_cfg.ks (inferred preloaded)
4.84,APPROACH,FLY_TO_FIX,137.5,73.84,-63.66,1382.93,-6.82,-1.45,1.18,275.1,14.638,0,0,-18.092,1,0.6,4.5,1.58,0.35,0.0168,0.4,34.738,34.738,34.738,63.701,1,281.06,1.882,0,0,-2.87,5.96,0,1.93,281.05,0,0,0,0,0,0,0,49.571,0,0,0,3,0,0,0,2672.2,0,0,0,269.2,0,0,0,0,0,0,0,0,0,0,0,0,0,0,0,0,0,VALID,0,0,0,0,0,1,0,0,0,0,0,0,0,0,0,0,0,0,0,0,11.34,343.18,2,0,0.08,0.08,52,11.54,0.1,0.08,4.84,FLYING,CF1-J,0:/Integrated Flight Computer/aircraft/cf1_j_cfg.ks (inferred preloaded)
5.12,APPROACH,FLY_TO_FIX,136.85,74.06,-62.79,1381.13,-6.3,-1.2,1.25,275.41,14.177,0,0,-17.822,1,0.6,4.5,1.682,0.35,0.0168,0.4,34.931,34.931,34.931,62.834,1,281.07,1.743,0,0,-2.67,5.66,0,1.81,281.07,0,0,0,0,0,0,0,49.529,0,0,0,3,0,0,0,2670,0,0,0,269.2,0,0,0,0,0,0,0,0,0,0,0,0,0,0,0,0,0,VALID,0,0,0,0,0,1,0,0,0,0,0,0,0,0,0,0,0,0,0,0,10.58,343.57,2,0,0.1,0.1,55,10.71,0.1,0.08,5.12,FLYING,CF1-J,0:/Integrated Flight Computer/aircraft/cf1_j_cfg.ks (inferred preloaded)
5.38,APPROACH,FLY_TO_FIX,136.23,74.27,-61.96,1379.56,-5.87,-1.12,1.17,275.66,13.732,0,0,-17.556,1,0.6,4.5,1.779,0.35,0.0168,0.4,35.116,35.116,35.116,62.008,1,281.08,1.615,0,0,-2.5,5.42,0,1.65,281.08,0,0,0,0,0,0,0,49.49,0,0,0,3,0,0,0,2667.97,0,0,0,269.2,0,0,0,0,0,0,0,0,0,0,0,0,0,0,0,0,0,VALID,0,0,0,0,0,1,0,0,0,0,0,0,0,0,0,0,0,0,0,0,9.92,343.93,2,0,0.08,0.08,58,11.54,0.1,0.08,5.38,FLYING,CF1-J,0:/Integrated Flight Computer/aircraft/cf1_j_cfg.ks (inferred preloaded)
5.66,APPROACH,FLY_TO_FIX,135.56,74.5,-61.06,1378.01,-5.43,-0.97,1.16,275.94,13.239,0,0,-17.294,1,0.6,4.5,1.871,0.35,0.0168,0.4,35.319,35.319,35.319,61.108,1,281.09,1.488,0,0,-2.32,5.16,0,1.53,281.09,0,0,0,0,0,0,0,49.449,0,0,0,3,0,0,0,2665.8,0,0,0,269.2,0,0,0,0,0,0,0,0,0,0,0,0,0,0,0,0,0,VALID,0,0,0,0,0,1,0,0,0,0,0,0,0,0,0,0,0,0,0,0,9.26,344.32,2,0,0.1,0.1,61,10.71,0.1,0.08,5.66,FLYING,CF1-J,0:/Integrated Flight Computer/aircraft/cf1_j_cfg.ks (inferred preloaded)
5.94,APPROACH,FLY_TO_FIX,134.86,74.72,-60.14,1376.57,-5.03,-0.83,1.15,276.2,12.736,0,0,-17.036,1,0.6,4.5,1.96,0.35,0.0168,0.4,35.526,35.526,35.526,60.194,1,281.1,1.373,0,0,-2.16,4.9,0,1.41,281.1,0,0,0,0,0,0,0,49.408,0,0,0,3,0,0,0,2663.64,0,0,0,269.2,0,0,0,0,0,0,0,0,0,0,0,0,0,0,0,0,0,VALID,0,0,0,0,0,1,0,0,0,0,0,0,0,0,0,0,0,0,0,0,8.64,344.72,2,0,0.08,0.08,64,10.71,0.1,0.08,5.94,FLYING,CF1-J,0:/Integrated Flight Computer/aircraft/cf1_j_cfg.ks (inferred preloaded)
6.22,APPROACH,FLY_TO_FIX,134.16,74.94,-59.21,1375.24,-4.66,-0.7,1.14,276.45,12.227,0,0,-16.782,1,0.6,4.5,2.045,0.35,0.0168,0.4,35.738,35.738,35.738,59.262,1,281.12,1.269,0,0,-2.01,4.66,0,1.31,281.11,0,0,0,0,0,0,0,49.367,0,0,0,3,0,0,0,2661.48,0,0,0,269.2,0,0,0,0,0,0,0,0,0,0,0,0,0,0,0,0,0,VALID,0,0,0,0,0,1,0,0,0,0,0,0,0,0,0,0,0,0,0,0,8.07,345.12,2,0,0.1,0.1,67,10.71,0.1,0.08,6.22,FLYING,CF1-J,0:/Integrated Flight Computer/aircraft/cf1_j_cfg.ks (inferred preloaded)
6.5,APPROACH,FLY_TO_FIX,133.43,75.17,-58.26,1374,-4.33,-0.58,1.14,276.69,11.715,0,0,-16.531,1,0.6,4.5,2.127,0.35,0.0168,0.4,35.954,35.954,35.954,58.317,1,281.13,1.173,0,0,-1.88,4.43,0,1.2,281.12,0,0,0,0,0,0,0,49.326,0,0,0,3,0,0,0,2659.35,0,0,0,269.2,0,0,0,0,0,0,0,0,0,0,0,0,0,0,0,0,0,VALID,0,0,0,0,0,1,0,0,0,0,0,0,0,0,0,0,0,0,0,0,7.53,345.53,2,0,0.08,0.08,70,10.71,0.1,0.08,6.5,FLYING,CF1-J,0:/Integrated Flight Computer/aircraft/cf1_j_cfg.ks (inferred preloaded)
6.78,APPROACH,FLY_TO_FIX,132.69,75.39,-57.3,1372.86,-4.02,-0.46,1.15,276.92,11.207,0,0,-16.285,1,0.6,4.5,2.206,0.35,0.0168,0.4,36.176,36.176,36.176,57.356,1,281.13,1.085,0,0,-1.75,4.21,0,1.12,281.13,0,0,0,0,0,0,0,49.285,0,0,0,3,0,0,0,2657.22,0,0,0,269.2,0,0,0,0,0,0,0,0,0,0,0,0,0,0,0,0,0,VALID,0,0,0,0,0,1,0,0,0,0,0,0,0,0,0,0,0,0,0,0,7.03,345.95,2,0,0.1,0.1,73,10.71,0.1,0.08,6.78,FLYING,CF1-J,0:/Integrated Flight Computer/aircraft/cf1_j_cfg.ks (inferred preloaded)
7.06,APPROACH,FLY_TO_FIX,131.94,75.62,-56.33,1371.79,-3.74,-0.34,1.16,277.14,10.705,0,0,-16.042,1,0.6,4.5,2.284,0.35,0.0168,0.4,36.401,36.401,36.401,56.38,1,281.14,1.005,0,0,-1.64,4,0,1.03,281.14,0,0,0,0,0,0,0,49.245,0,0,0,3,0,0,0,2655.11,0,0,0,269.2,0,0,0,0,0,0,0,0,0,0,0,0,0,0,0,0,0,VALID,0,0,0,0,0,1,0,0,0,0,0,0,0,0,0,0,0,0,0,0,6.56,346.37,2,0,0.08,0.08,76,10.71,0.1,0.08,7.06,FLYING,CF1-J,0:/Integrated Flight Computer/aircraft/cf1_j_cfg.ks (inferred preloaded)
7.34,APPROACH,FLY_TO_FIX,131.18,75.84,-55.34,1370.8,-3.48,-0.23,1.17,277.35,10.213,0,0,-15.802,1,0.6,4.5,2.358,0.35,0.0168,0.4,36.631,36.631,36.631,55.391,1,281.15,0.931,0,0,-1.53,3.8,0,0.96,281.15,0,0,0,0,0,0,0,49.205,0,0,0,3,0,0,0,2653.01,0,0,0,269.2,0,0,0,0,0,0,0,0,0,0,0,0,0,0,0,0,0,VALID,0,0,0,0,0,1,0,0,0,0,0,0,0,0,0,0,0,0,0,0,6.12,346.8,2,0,0.1,0.1,79,10.71,0.1,0.08,7.34,FLYING,CF1-J,0:/Integrated Flight Computer/aircraft/cf1_j_cfg.ks (inferred preloaded)
7.62,APPROACH,FLY_TO_FIX,130.4,76.06,-54.33,1369.88,-3.24,-0.13,1.19,277.56,9.732,0,0,-15.566,1,0.6,4.5,2.431,0.35,0.0168,0.4,36.864,36.864,36.864,54.39,1,281.16,0.863,0,0,-1.44,3.6,0,0.88,281.16,0,0,0,0,0,0,0,49.165,0,0,0,3,0,0,0,2650.92,0,0,0,269.2,0,0,0,0,0,0,0,0,0,0,0,0,0,0,0,0,0,VALID,0,0,0,0,0,1,0,0,0,0,0,0,0,0,0,0,0,0,0,0,5.72,347.23,2,0,0.08,0.08,82,10.71,0.1,0.08,7.62,FLYING,CF1-J,0:/Integrated Flight Computer/aircraft/cf1_j_cfg.ks (inferred preloaded)
7.9,APPROACH,FLY_TO_FIX,129.61,76.29,-53.32,1369.02,-3.02,-0.03,1.21,277.75,9.263,0,0,-15.334,1,0.6,4.5,2.501,0.35,0.0168,0.4,37.101,37.101,37.101,53.375,1,281.17,0.8,0,0,-1.35,3.42,0,0.82,281.16,0,0,0,0,0,0,0,49.125,0,0,0,3,0,0,0,2648.84,0,0,0,269.2,0,0,0,0,0,0,0,0,0,0,0,0,0,0,0,0,0,VALID,0,0,0,0,0,1,0,0,0,0,0,0,0,0,0,0,0,0,0,0,5.33,347.68,2,0,0.1,0.1,85,10.71,0.1,0.08,7.9,FLYING,CF1-J,0:/Integrated Flight Computer/aircraft/cf1_j_cfg.ks (inferred preloaded)
8.18,APPROACH,FLY_TO_FIX,128.8,76.51,-52.29,1368.23,-2.81,0.07,1.23,277.93,8.806,0,0,-15.105,1,0.6,4.5,2.569,0.35,0.0168,0.4,37.342,37.342,37.342,52.347,1,281.17,0.742,0,0,-1.26,3.24,0,0.76,281.17,0,0,0,0,0,0,0,49.086,0,0,0,3,0,0,0,2646.78,0,0,0,269.2,0,0,0,0,0,0,0,0,0,0,0,0,0,0,0,0,0,VALID,0,0,0,0,0,1,0,0,0,0,0,0,0,0,0,0,0,0,0,0,4.98,348.13,2,0,0.08,0.08,88,10.71,0.1,0.08,8.18,FLYING,CF1-J,0:/Integrated Flight Computer/aircraft/cf1_j_cfg.ks (inferred preloaded)
8.46,APPROACH,FLY_TO_FIX,127.99,76.74,-51.25,1367.48,-2.63,0.17,1.26,278.1,8.362,0,0,-14.88,1,0.6,4.5,2.635,0.35,0.0168,0.4,37.587,37.587,37.587,51.308,1,281.18,0.689,0,0,-1.19,3.08,0,0.71,281.18,0,0,0,0,0,0,0,49.047,0,0,0,3,0,0,0,2644.73,0,0,0,269.2,0,0,0,0,0,0,0,0,0,0,0,0,0,0,0,0,0,VALID,0,0,0,0,0,1,0,0,0,0,0,0,0,0,0,0,0,0,0,0,4.65,348.58,2,0,0.1,0.1,91,10.71,0.1,0.08,8.46,FLYING,CF1-J,0:/Integrated Flight Computer/aircraft/cf1_j_cfg.ks (inferred preloaded)
8.74,APPROACH,FLY_TO_FIX,127.16,76.96,-50.2,1366.79,-2.45,0.27,1.29,278.27,7.933,0,0,-14.658,1,0.6,4.5,2.698,0.35,0.0168,0.4,37.835,37.835,37.835,50.256,1,281.19,0.64,0,0,-1.12,2.92,0,0.66,281.19,0,0,0,0,0,0,0,49.008,0,0,0,3,0,0,0,2642.7,0,0,0,269.2,0,0,0,0,0,0,0,0,0,0,0,0,0,0,0,0,0,VALID,0,0,0,0,0,1,0,0,0,0,0,0,0,0,0,0,0,0,0,0,4.34,349.04,2,0,0.08,0.08,94,10.71,0.1,0.08,8.74,FLYING,CF1-J,0:/Integrated Flight Computer/aircraft/cf1_j_cfg.ks (inferred preloaded)
9.02,APPROACH,FLY_TO_FIX,126.32,77.18,-49.13,1366.14,-2.29,0.36,1.32,278.43,7.522,0,0,-14.439,1,0.6,4.5,2.76,0.35,0.0168,0.4,38.087,38.087,38.087,49.194,1,281.19,0.595,0,0,-1.05,2.77,0,0.61,281.19,0,0,0,0,0,0,0,48.97,0,0,0,3,0,0,0,2640.68,0,0,0,269.2,0,0,0,0,0,0,0,0,0,0,0,0,0,0,0,0,0,VALID,0,0,0,0,0,1,0,0,0,0,0,0,0,0,0,0,0,0,0,0,4.05,349.51,2,0,0.1,0.1,97,10.71,0.1,0.08,9.02,FLYING,CF1-J,0:/Integrated Flight Computer/aircraft/cf1_j_cfg.ks (inferred preloaded)
9.33,APPROACH,FLY_TO_FIX,125.56,77.4,-48.16,1365.47,-2.13,0.44,1.35,278.57,7.144,0,0,-14.223,1,0.6,4.5,2.811,0.35,0.0168,0.4,38.309,38.309,38.309,48.24,1,281.2,0.556,0,0,-0.99,2.63,0,0.57,281.2,0,0,0,0,0,0,0,48.933,0,0,0,3,0,0,0,2638.76,0,0,0,269.2,0,0,0,0,0,0,0,0,0,0,0,0,0,0,0,0,0,VALID,0,0,0,0,0,1,0,0,0,0,0,0,0,0,0,0,0,0,0,0,3.75,349.94,2,0,0.084,0.084,100,9.66,0.1,0.083,9.33,FLYING,CF1-J,0:/Integrated Flight Computer/aircraft/cf1_j_cfg.ks (inferred preloaded)
9.75,APPROACH,FLY_TO_FIX,124.68,77.7,-46.97,1364.62,-1.96,0.54,1.39,278.75,6.623,0,0,-14.081,1,0.6,4.5,2.817,0.35,0.0168,0.4,38.553,38.553,38.553,47.121,1,281.21,0.509,0,0,-0.92,2.45,0,0.54,281.2,0,0,0,0,0,0,0,48.881,0,0,0,3,0,0,0,2636.05,0,0,0,269.2,0,0,0,0,0,0,0,0,0,0,0,0,0,0,0,0,0,VALID,0,0,0,0,0,1,0,0,0,0,0,0,0,0,0,0,0,0,0,0,3.38,350.45,2,0,0.211,0.211,102,4.72,0.211,0.084,9.75,FLYING,CF1-J,0:/Integrated Flight Computer/aircraft/cf1_j_cfg.ks (inferred preloaded)
10.02,APPROACH,FLY_TO_FIX,124.01,77.91,-46.1,1364.13,-1.87,0.62,1.44,278.86,6.29,0,0,-14.011,1,0.6,4.5,2.817,0.35,0.0168,0.4,38.743,38.743,38.743,46.281,1,281.21,0.484,0,0,-0.88,2.35,0,0.51,281.21,0,0,0,0,0,0,0,48.847,0,0,0,3,0,0,0,2634.23,0,0,0,269.2,0,0,0,0,0,0,0,0,0,0,0,0,0,0,0,0,0,VALID,0,0,0,0,0,1,0,0,0,0,0,0,0,0,0,0,0,0,0,0,3.16,350.83,2,0,0.258,0.258,103,3.72,0.258,0.211,10.02,FLYING,CF1-J,0:/Integrated Flight Computer/aircraft/cf1_j_cfg.ks (inferred preloaded)
10.31,APPROACH,FLY_TO_FIX,123.22,78.13,-45.09,1363.62,-1.77,0.71,1.49,278.98,5.948,0,0,-13.941,1,0.6,4.5,2.818,0.35,0.0168,0.4,38.971,38.971,38.971,45.298,1,281.22,0.458,0,0,-0.84,2.23,0,0.49,281.21,0,0,0,0,0,0,0,48.809,0,0,0,3,0,0,0,2632.28,0,0,0,269.2,0,0,0,0,0,0,0,0,0,0,0,0,0,0,0,0,0,VALID,0,0,0,0,0,1,0,0,0,0,0,0,0,0,0,0,0,0,0,0,2.94,351.28,2,0,0.279,0.279,104,3.44,0.279,0.258,10.31,FLYING,CF1-J,0:/Integrated Flight Computer/aircraft/cf1_j_cfg.ks (inferred preloaded)
10.63,APPROACH,FLY_TO_FIX,122.35,78.38,-43.97,1363.09,-1.67,0.81,1.56,279.11,5.59,0,0,-13.871,1,0.6,4.5,2.821,0.35,0.0168,0.4,39.227,39.227,39.227,44.197,1,281.22,0.43,0,0,-0.8,2.11,0,0.46,281.22,0,0,0,0,0,0,0,48.768,0,0,0,3,0,0,0,2630.13,0,0,0,269.2,0,0,0,0,0,0,0,0,0,0,0,0,0,0,0,0,0,VALID,0,0,0,0,0,1,0,0,0,0,0,0,0,0,0,0,0,0,0,0,2.71,351.78,2,0,0.308,0.308,105,3.12,0.308,0.279,10.63,FLYING,CF1-J,0:/Integrated Flight Computer/aircraft/cf1_j_cfg.ks (inferred preloaded)
10.95,APPROACH,FLY_TO_FIX,121.4,78.63,-42.77,1362.59,-1.56,0.92,1.64,279.23,5.249,0,0,-13.802,1,0.6,4.5,2.826,0.35,0.0168,0.4,39.507,39.507,39.507,43.009,1,281.22,0.402,0,0,-0.76,2,0,0.43,281.22,0,0,0,0,0,0,0,48.726,0,0,0,3,0,0,0,2627.93,0,0,0,269.2,0,0,0,0,0,0,0,0,0,0,0,0,0,0,0,0,0,VALID,0,0,0,0,0,1,0,0,0,0,0,0,0,0,0,0,0,0,0,0,2.51,352.32,2,0,0.32,0.32,106,3.12,0.32,0.308,10.95,FLYING,CF1-J,0:/Integrated Flight Computer/aircraft/cf1_j_cfg.ks (inferred preloaded)
11.27,APPROACH,FLY_TO_FIX,120.41,78.89,-41.52,1362.13,-1.46,1.03,1.7,279.34,4.928,0,0,-13.733,1,0.6,4.5,2.835,0.35,0.0168,0.4,39.802,39.802,39.802,41.768,1,281.23,0.372,0,0,-0.71,1.89,0,0.41,281.22,0,0,0,0,0,0,0,48.685,0,0,0,3,0,0,0,2625.74,0,0,0,269.2,0,0,0,0,0,0,0,0,0,0,0,0,0,0,0,0,0,VALID,0,0,0,0,0,1,0,0,0,0,0,0,0,0,0,0,0,0,0,0,2.32,352.89,2,0,0.32,0.32,107,3.12,0.32,0.32,11.27,FLYING,CF1-J,0:/Integrated Flight Computer/aircraft/cf1_j_cfg.ks (inferred preloaded)
11.59,APPROACH,FLY_TO_FIX,119.4,79.15,-40.26,1361.69,-1.38,1.12,1.75,279.45,4.625,0,0,-13.664,1,0.6,4.5,2.846,0.35,0.0168,0.4,40.103,40.103,40.103,40.509,1,281.23,0.347,0,0,-0.68,1.78,0,0.38,281.23,0,0,0,0,0,0,0,48.643,0,0,0,3,0,0,0,2623.57,0,0,0,269.2,0,0,0,0,0,0,0,0,0,0,0,0,0,0,0,0,0,VALID,0,0,0,0,0,1,0,0,0,0,0,0,0,0,0,0,0,0,0,0,2.14,353.47,2,0,0.32,0.32,108,3.12,0.32,0.32,11.59,FLYING,CF1-J,0:/Integrated Flight Computer/aircraft/cf1_j_cfg.ks (inferred preloaded)
11.91,APPROACH,FLY_TO_FIX,118.39,79.4,-38.99,1361.28,-1.31,1.2,1.81,279.55,4.337,0,0,-13.596,1,0.6,4.5,2.86,0.35,0.0168,0.4,40.406,40.406,40.406,39.244,1,281.24,0.326,0,0,-0.65,1.68,0,0.35,281.23,0,0,0,0,0,0,0,48.602,0,0,0,3,0,0,0,2621.42,0,0,0,269.2,0,0,0,0,0,0,0,0,0,0,0,0,0,0,0,0,0,VALID,0,0,0,0,0,1,0,0,0,0,0,0,0,0,0,0,0,0,0,0,1.98,354.05,2,0,0.32,0.32,109,3.12,0.32,0.32,11.91,FLYING,CF1-J,0:/Integrated Flight Computer/aircraft/cf1_j_cfg.ks (inferred preloaded)
12.23,APPROACH,FLY_TO_FIX,117.38,79.66,-37.72,1360.89,-1.25,1.29,1.88,279.65,4.055,0,0,-13.528,1,0.6,4.5,2.875,0.35,0.0168,0.4,40.71,40.71,40.71,37.976,1,281.24,0.31,0,0,-0.62,1.59,0,0.33,281.24,0,0,0,0,0,0,0,48.561,0,0,0,3,0,0,0,2619.29,0,0,0,269.2,0,0,0,0,0,0,0,0,0,0,0,0,0,0,0,0,0,VALID,0,0,0,0,0,1,0,0,0,0,0,0,0,0,0,0,0,0,0,0,1.83,354.64,2,0,0.32,0.32,110,3.12,0.32,0.32,12.23,FLYING,CF1-J,0:/Integrated Flight Computer/aircraft/cf1_j_cfg.ks (inferred preloaded)
12.55,APPROACH,FLY_TO_FIX,116.37,79.91,-36.45,1360.51,-1.2,1.38,1.95,279.74,3.785,0,0,-13.46,1,0.6,4.5,2.892,0.35,0.0168,0.4,41.014,41.014,41.014,36.705,1,281.24,0.295,0,0,-0.6,1.5,0,0.31,281.24,0,0,0,0,0,0,0,48.521,0,0,0,3,0,0,0,2617.18,0,0,0,269.2,0,0,0,0,0,0,0,0,0,0,0,0,0,0,0,0,0,VALID,0,0,0,0,0,1,0,0,0,0,0,0,0,0,0,0,0,0,0,0,1.69,355.24,2,0,0.32,0.32,111,3.12,0.32,0.32,12.55,FLYING,CF1-J,0:/Integrated Flight Computer/aircraft/cf1_j_cfg.ks (inferred preloaded)
12.87,APPROACH,FLY_TO_FIX,115.35,80.17,-35.18,1360.15,-1.16,1.47,2.02,279.83,3.533,0,0,-13.393,1,0.6,4.5,2.91,0.35,0.0168,0.4,41.319,41.319,41.319,35.433,1,281.25,0.284,0,0,-0.58,1.42,0,0.3,281.24,0,0,0,0,0,0,0,48.481,0,0,0,3,0,0,0,2615.08,0,0,0,269.2,0,0,0,0,0,0,0,0,0,0,0,0,0,0,0,0,0,VALID,0,0,0,0,0,1,0,0,0,0,0,0,0,0,0,0,0,0,0,0,1.56,355.83,2,0,0.32,0.32,112,3.12,0.32,0.32,12.87,FLYING,CF1-J,0:/Integrated Flight Computer/aircraft/cf1_j_cfg.ks (inferred preloaded)
13.19,APPROACH,FLY_TO_FIX,114.34,80.43,-33.91,1359.79,-1.13,1.56,2.1,279.91,3.291,0,0,-13.326,1,0.6,4.5,2.928,0.35,0.0168,0.4,41.623,41.623,41.623,34.162,1,281.25,0.276,0,0,-0.57,1.34,0,0.29,281.25,0,0,0,0,0,0,0,48.442,0,0,0,3,0,0,0,2613,0,0,0,269.2,0,0,0,0,0,0,0,0,0,0,0,0,0,0,0,0,0,VALID,0,0,0,0,0,1,0,0,0,0,0,0,0,0,0,0,0,0,0,0,1.44,356.43,2,0,0.32,0.32,113,3.12,0.32,0.32,13.19,FLYING,CF1-J,0:/Integrated Flight Computer/aircraft/cf1_j_cfg.ks (inferred preloaded)
13.51,APPROACH,FLY_TO_FIX,113.32,80.68,-32.64,1359.45,-1.11,1.65,2.18,279.99,3.064,0,0,-13.259,1,0.6,4.5,2.946,0.35,0.0168,0.4,41.928,41.928,41.928,32.892,1,281.25,0.269,0,0,-0.56,1.26,0,0.28,281.25,0,0,0,0,0,0,0,48.402,0,0,0,3,0,0,0,2610.95,0,0,0,269.2,0,0,0,0,0,0,0,0,0,0,0,0,0,0,0,0,0,VALID,0,0,0,0,0,1,0,0,0,0,0,0,0,0,0,0,0,0,0,0,1.33,357.04,2,0,0.32,0.32,114,3.12,0.32,0.32,13.51,FLYING,CF1-J,0:/Integrated Flight Computer/aircraft/cf1_j_cfg.ks (inferred preloaded)
13.83,APPROACH,FLY_TO_FIX,112.31,80.94,-31.37,1359.12,-1.09,1.74,2.27,280.07,2.846,0,0,-13.193,1,0.6,4.5,2.965,0.35,0.0168,0.4,42.231,42.231,42.231,31.624,1,281.26,0.264,0,0,-0.56,1.19,0,0.27,281.25,0,0,0,0,0,0,0,48.363,0,0,0,3,0,0,0,2608.91,0,0,0,269.2,0,0,0,0,0,0,0,0,0,0,0,0,0,0,0,0,0,VALID,0,0,0,0,0,1,0,0,0,0,0,0,0,0,0,0,0,0,0,0,1.23,357.64,2,0,0.32,0.32,115,3.12,0.32,0.32,13.83,FLYING,CF1-J,0:/Integrated Flight Computer/aircraft/cf1_j_cfg.ks (inferred preloaded)
14.15,APPROACH,FLY_TO_FIX,111.3,81.19,-30.11,1358.79,-1.07,1.84,2.36,280.14,2.642,0,0,-13.127,1,0.6,4.5,2.983,0.35,0.0168,0.4,42.533,42.533,42.533,30.36,1,281.26,0.26,0,0,-0.55,1.12,0,0.27,281.26,0,0,0,0,0,0,0,48.325,0,0,0,3,0,0,0,2606.89,0,0,0,269.2,0,0,0,0,0,0,0,0,0,0,0,0,0,0,0,0,0,VALID,0,0,0,0,0,1,0,0,0,0,0,0,0,0,0,0,0,0,0,0,1.14,358.25,2,0,0.32,0.32,116,3.12,0.32,0.32,14.15,FLYING,CF1-J,0:/Integrated Flight Computer/aircraft/cf1_j_cfg.ks (inferred preloaded)
14.47,APPROACH,FLY_TO_FIX,110.3,81.45,-28.85,1358.47,-1.05,1.94,2.46,280.2,2.458,0,0,-13.061,1,0.6,4.5,3.001,0.35,0.0168,0.4,42.834,42.834,42.834,29.101,1,281.26,0.256,0,0,-0.55,1.06,0,0.26,281.26,0,0,0,0,0,0,0,48.287,0,0,0,3,0,0,0,2604.88,0,0,0,269.2,0,0,0,0,0,0,0,0,0,0,0,0,0,0,0,0,0,VALID,0,0,0,0,0,1,0,0,0,0,0,0,0,0,0,0,0,0,0,0,1.05,358.85,2,0,0.32,0.32,117,3.12,0.32,0.32,14.47,FLYING,CF1-J,0:/Integrated Flight Computer/aircraft/cf1_j_cfg.ks (inferred preloaded)
14.79,APPROACH,FLY_TO_FIX,109.31,81.71,-27.6,1358.15,-1.03,2.04,2.55,280.26,2.29,0,0,-12.996,1,0.6,4.5,3.018,0.35,0.0168,0.4,43.134,43.134,43.134,27.847,1,281.26,0.251,0,0,-0.54,1,0,0.26,281.26,0,0,0,0,0,0,0,48.249,0,0,0,3,0,0,0,2602.9,0,0,0,269.2,0,0,0,0,0,0,0,0,0,0,0,0,0,0,0,0,0,VALID,0,0,0,0,0,1,0,0,0,0,0,0,0,0,0,0,0,0,0,0,0.97,359.46,2,0,0.32,0.32,118,3.12,0.32,0.32,14.79,FLYING,CF1-J,0:/Integrated Flight Computer/aircraft/cf1_j_cfg.ks (inferred preloaded)
15.11,APPROACH,FLY_TO_FIX,108.32,81.96,-26.35,1357.84,-1.02,2.13,2.65,280.32,2.136,0,0,-12.931,1,0.6,4.5,3.034,0.35,0.0168,0.4,43.431,43.431,43.431,26.599,1,281.27,0.248,0,0,-0.54,0.94,0,0.25,281.26,0,0,0,0,0,0,0,48.211,0,0,0,3,0,0,0,2600.93,0,0,0,269.2,0,0,0,0,0,0,0,0,0,0,0,0,0,0,0,0,0,VALID,0,0,0,0,0,1,0,0,0,0,0,0,0,0,0,0,0,0,0,0,0.9,360.06,2,0,0.32,0.32,119,3.12,0.32,0.32,15.11,FLYING,CF1-J,0:/Integrated Flight Computer/aircraft/cf1_j_cfg.ks (inferred preloaded)
15.43,APPROACH,FLY_TO_FIX,107.33,82.22,-25.11,1357.53,-1.01,2.23,2.75,280.38,1.994,0,0,-12.867,1,0.6,4.5,3.049,0.35,0.0168,0.4,43.727,43.727,43.727,25.358,1,281.27,0.246,0,0,-0.54,0.89,0,0.25,281.27,0,0,0,0,0,0,0,48.174,0,0,0,3,0,0,0,2598.98,0,0,0,269.2,0,0,0,0,0,0,0,0,0,0,0,0,0,0,0,0,0,VALID,0,0,0,0,0,1,0,0,0,0,0,0,0,0,0,0,0,0,0,0,0.83,360.67,2,0,0.32,0.32,120,3.12,0.32,0.32,15.43,FLYING,CF1-J,0:/Integrated Flight Computer/aircraft/cf1_j_cfg.ks (inferred preloaded)
15.75,APPROACH,FLY_TO_FIX,106.36,82.47,-23.88,1357.23,-1,2.33,2.85,280.43,1.856,0,0,-12.802,1,0.6,4.5,3.063,0.35,0.0168,0.4,44.02,44.02,44.02,24.124,1,281.27,0.245,0,0,-0.54,0.84,0,0.25,281.27,0,0,0,0,0,0,0,48.137,0,0,0,3,0,0,0,2597.05,0,0,0,269.2,0,0,0,0,0,0,0,0,0,0,0,0,0,0,0,0,0,VALID,0,0,0,0,0,1,0,0,0,0,0,0,0,0,0,0,0,0,0,0,0.76,361.27,2,0,0.32,0.32,121,3.12,0.32,0.32,15.75,FLYING,CF1-J,0:/Integrated Flight Computer/aircraft/cf1_j_cfg.ks (inferred preloaded)
16.07,APPROACH,FLY_TO_FIX,105.39,82.73,-22.65,1356.92,-0.99,2.44,2.96,280.48,1.725,0,0,-12.738,1,0.6,4.5,3.077,0.35,0.0168,0.4,44.312,44.312,44.312,22.896,1,281.27,0.245,0,0,-0.54,0.79,0,0.25,281.27,0,0,0,0,0,0,0,48.101,0,0,0,3,0,0,0,2595.13,0,0,0,269.2,0,0,0,0,0,0,0,0,0,0,0,0,0,0,0,0,0,VALID,0,0,0,0,0,1,0,0,0,0,0,0,0,0,0,0,0,0,0,0,0.71,361.87,2,0,0.32,0.32,122,3.12,0.32,0.32,16.07,FLYING,CF1-J,0:/Integrated Flight Computer/aircraft/cf1_j_cfg.ks (inferred preloaded)
16.39,APPROACH,FLY_TO_FIX,104.42,82.99,-21.44,1356.63,-0.99,2.55,3.06,280.52,1.609,0,0,-12.674,1,0.6,4.5,3.089,0.35,0.0168,0.4,44.601,44.601,44.601,21.675,1,281.27,0.244,0,0,-0.54,0.75,0,0.25,281.27,0,0,0,0,0,0,0,48.064,0,0,0,3,0,0,0,2593.24,0,0,0,269.2,0,0,0,0,0,0,0,0,0,0,0,0,0,0,0,0,0,VALID,0,0,0,0,0,1,0,0,0,0,0,0,0,0,0,0,0,0,0,0,0.65,362.47,2,0,0.32,0.32,123,3.12,0.32,0.32,16.39,FLYING,CF1-J,0:/Integrated Flight Computer/aircraft/cf1_j_cfg.ks (inferred preloaded)
16.71,APPROACH,FLY_TO_FIX,103.47,83.24,-20.22,1356.33,-0.98,2.66,3.18,280.56,1.506,0,0,-12.611,1,0.6,4.5,3.099,0.35,0.0168,0.4,44.889,44.889,44.889,20.461,1,281.27,0.244,0,0,-0.54,0.71,0,0.25,281.27,0,0,0,0,0,0,0,48.029,0,0,0,3,0,0,0,2591.36,0,0,0,269.2,0,0,0,0,0,0,0,0,0,0,0,0,0,0,0,0,0,VALID,0,0,0,0,0,1,0,0,0,0,0,0,0,0,0,0,0,0,0,0,0.6,363.06,2,0,0.32,0.32,124,3.12,0.32,0.32,16.71,FLYING,CF1-J,0:/Integrated Flight Computer/aircraft/cf1_j_cfg.ks (inferred preloaded)
17.03,APPROACH,FLY_TO_FIX,102.51,83.5,-19.02,1356.03,-0.98,2.77,3.29,280.61,1.413,0,0,-12.548,1,0.6,4.5,3.109,0.35,0.0168,0.4,45.175,45.175,45.175,19.253,1,281.28,0.244,0,0,-0.54,0.67,0,0.25,281.27,0,0,0,0,0,0,0,47.993,0,0,0,3,0,0,0,2589.49,0,0,0,269.2,0,0,0,0,0,0,0,0,0,0,0,0,0,0,0,0,0,VALID,0,0,0,0,0,1,0,0,0,0,0,0,0,0,0,0,0,0,0,0,0.56,363.66,2,0,0.32,0.32,125,3.12,0.32,0.32,17.03,FLYING,CF1-J,0:/Integrated Flight Computer/aircraft/cf1_j_cfg.ks (inferred preloaded)
17.35,APPROACH,FLY_TO_FIX,101.57,83.75,-17.82,1355.74,-0.97,2.88,3.41,280.64,1.327,0,0,-12.485,1,0.6,4.5,3.118,0.35,0.0168,0.4,45.458,45.458,45.458,18.051,1,281.28,0.244,0,0,-0.55,0.63,0,0.25,281.28,0,0,0,0,0,0,0,47.958,0,0,0,3,0,0,0,2587.65,0,0,0,269.2,0,0,0,0,0,0,0,0,0,0,0,0,0,0,0,0,0,VALID,0,0,0,0,0,1,0,0,0,0,0,0,0,0,0,0,0,0,0,0,0.51,364.25,2,0,0.32,0.32,126,3.12,0.32,0.32,17.35,FLYING,CF1-J,0:/Integrated Flight Computer/aircraft/cf1_j_cfg.ks (inferred preloaded)
17.67,APPROACH,FLY_TO_FIX,100.63,84.01,-16.62,1355.45,-0.97,3,3.53,280.68,1.246,0,0,-12.423,1,0.6,4.5,3.125,0.35,0.0168,0.4,42.567,45.74,42.567,16.855,1,281.28,0.244,0,0,-0.55,0.6,0,0.25,281.28,0,0,0,0,0,0,0,47.923,0,0,0,3,0,0,0,2585.82,0,0,0,269.2,0,0,0,0,0,0,0,0,0,0,0,0,0,0,0,0,0,VALID,0,0,0,0,0,1,0,0,0,0,0,0,0,0,0,0,0,0,0,0,0.48,364.84,2,0,0.32,0.32,127,3.12,0.32,0.32,17.67,FLYING,CF1-J,0:/Integrated Flight Computer/aircraft/cf1_j_cfg.ks (inferred preloaded)
17.99,APPROACH,FLY_TO_FIX,99.71,84.27,-15.44,1355.16,-0.97,3.12,3.65,280.72,1.168,0,0,-12.361,1,0.6,4.5,3.132,0.35,0.0168,0.4,39.521,46.019,39.521,15.67,1,281.28,0.245,0,0,-0.55,0.56,0,0.25,281.28,0,0,0,0,0,0,0,47.888,0,0,0,3,0,0,0,2584.01,0,0,0,269.2,0,0,0,0,0,0,0,0,0,0,0,0,0,0,0,0,0,VALID,0,0,0,0,0,1,0,0,0,0,0,0,0,0,0,0,0,0,0,0,0.44,365.43,2,0,0.32,0.32,128,3.12,0.32,0.32,17.99,FLYING,CF1-J,0:/Integrated Flight Computer/aircraft/cf1_j_cfg.ks (inferred preloaded)
18.31,APPROACH,FLY_TO_FIX,98.82,84.52,-14.29,1354.87,-0.97,3.23,3.77,280.75,1.096,0,0,-12.299,1,0.6,4.5,3.136,0.35,0.0168,0.4,36.503,46.29,36.503,14.512,1,281.28,0.247,0,0,-0.56,0.53,0,0.25,281.28,0,0,0,0,0,0,0,47.854,0,0,0,3,0,0,0,2582.21,0,0,0,269.2,0,0,0,0,0,0,0,0,0,0,0,0,0,0,0,0,0,VALID,0,0,0,0,0,1,0,0,0,0,0,0,0,0,0,0,0,0,0,0,0.41,366,2,0,0.32,0.32,129,3.12,0.32,0.32,18.31,FLYING,CF1-J,0:/Integrated Flight Computer/aircraft/cf1_j_cfg.ks (inferred preloaded)
18.63,APPROACH,FLY_TO_FIX,97.98,84.78,-13.2,1354.57,-0.98,3.34,3.88,280.78,1.027,0,0,-12.237,1,0.6,4.5,3.138,0.35,0.0168,0.4,33.578,46.545,33.578,13.403,1,281.28,0.25,0,0,-0.57,0.5,0,0.25,281.28,0,0,0,0,0,0,0,47.82,0,0,0,3,0,0,0,2580.43,0,0,0,269.2,0,0,0,0,0,0,0,0,0,0,0,0,0,0,0,0,0,VALID,0,0,0,0,0,1,0,0,0,0,0,0,0,0,0,0,0,0,0,0,0.38,366.53,2,0,0.32,0.32,130,3.12,0.32,0.32,18.63,FLYING,CF1-J,0:/Integrated Flight Computer/aircraft/cf1_j_cfg.ks (inferred preloaded)
18.95,APPROACH,FLY_TO_FIX,97.22,85,-12.22,1354.27,-0.99,3.45,3.99,280.81,0.96,0,0,-12.176,1,0.6,4.5,3.136,0.35,0.0168,0.4,30.913,46.779,30.913,12.404,1,281.28,0.254,0,0,-0.58,0.47,0,0.25,281.28,0,0,0,0,0,0,0,47.786,0,0,0,3,0,0,0,2578.66,0,0,0,269.2,0,0,0,0,0,0,0,0,0,0,0,0,0,0,0,0,0,VALID,0,0,0,0,0,1,0,0,0,0,0,0,0,0,0,0,0,0,0,0,0.35,367.01,2,0,0.32,0.32,131,3.12,0.32,0.32,18.95,FLYING,CF1-J,0:/Integrated Flight Computer/aircraft/cf1_j_cfg.ks (inferred preloaded)
19.27,APPROACH,FLY_TO_FIX,96.57,85,-11.57,1353.97,-0.99,3.54,4.1,280.83,0.898,0,0,-12.115,1,0.6,4.5,3.128,0.35,0.0168,0.4,29.109,46.983,29.109,11.723,1,281.28,0.258,0,0,-0.59,0.45,0,0.26,281.28,0,0,0,0,0,0,0,47.753,0,0,0,3,0,0,0,2576.9,0,0,0,269.2,0,0,0,0,0,0,0,0,0,0,0,0,0,0,0,0,0,VALID,0,0,0,0,0,1,0,0,0,0,0,0,0,0,0,0,0,0,0,0,0.32,367.44,2,0,0.32,0.32,132,3.12,0.32,0.32,19.27,FLYING,CF1-J,0:/Integrated Flight Computer/aircraft/cf1_j_cfg.ks (inferred preloaded)
19.67,APPROACH,FLY_TO_FIX,95.89,85,-10.89,1353.59,-0.99,3.66,4.23,280.86,0.827,0,0,-12.055,1,0.6,4.5,3.112,0.35,0.0168,0.4,27.226,47.194,27.226,11.019,1,281.28,0.261,0,0,-0.59,0.42,0,0.26,281.28,0,0,0,0,0,0,0,47.711,0,0,0,3,0,0,0,2574.72,0,0,0,269.2,0,0,0,0,0,0,0,0,0,0,0,0,0,0,0,0,0,VALID,0,0,0,0,0,1,0,0,0,0,0,0,0,0,0,0,0,0,0,0,0.29,367.88,2,0,0.4,0.4,133,2.5,0.4,0.32,19.67,FLYING,CF1-J,0:/Integrated Flight Computer/aircraft/cf1_j_cfg.ks (inferred preloaded)
19.99,APPROACH,FLY_TO_FIX,95.44,85,-10.44,1353.29,-0.98,3.76,4.31,280.89,0.775,0,0,-11.995,1,0.6,4.5,3.088,0.35,0.0168,0.4,25.962,47.335,25.962,10.55,1,281.29,0.26,0,0,-0.59,0.4,0,0.26,281.28,0,0,0,0,0,0,0,47.678,0,0,0,3,0,0,0,2572.98,0,0,0,269.2,0,0,0,0,0,0,0,0,0,0,0,0,0,0,0,0,0,VALID,0,0,0,0,0,1,0,0,0,0,0,0,0,0,0,0,0,0,0,0,0.27,368.17,2,0,0.32,0.32,134,3.12,0.4,0.32,19.99,FLYING,CF1-J,0:/Integrated Flight Computer/aircraft/cf1_j_cfg.ks (inferred preloaded)
20.39,APPROACH,FLY_TO_FIX,94.95,85,-9.95,1352.93,-0.95,3.87,4.41,280.91,0.716,0,0,-11.935,1,0.6,4.5,3.056,0.35,0.0168,0.4,24.587,47.487,24.587,10.043,1,281.29,0.255,0,0,-0.58,0.37,0,0.26,281.29,0,0,0,0,0,0,0,47.636,0,0,0,3,0,0,0,2570.81,0,0,0,269.2,0,0,0,0,0,0,0,0,0,0,0,0,0,0,0,0,0,VALID,0,0,0,0,0,1,0,0,0,0,0,0,0,0,0,0,0,0,0,0,0.24,368.5,2,0,0.4,0.4,135,2.5,0.4,0.32,20.39,FLYING,CF1-J,0:/Integrated Flight Computer/aircraft/cf1_j_cfg.ks (inferred preloaded)
20.71,APPROACH,FLY_TO_FIX,94.59,85,-9.59,1352.64,-0.92,3.94,4.47,280.93,0.671,0,0,-11.875,1,0.6,4.5,3.017,0.35,0.0168,0.4,23.599,47.596,23.599,9.681,1,281.29,0.248,0,0,-0.57,0.35,0,0.26,281.29,0,0,0,0,0,0,0,47.604,0,0,0,3,0,0,0,2569.09,0,0,0,269.2,0,0,0,0,0,0,0,0,0,0,0,0,0,0,0,0,0,VALID,0,0,0,0,0,1,0,0,0,0,0,0,0,0,0,0,0,0,0,0,0.22,368.74,2,0,0.32,0.32,136,3.12,0.4,0.32,20.71,FLYING,CF1-J,0:/Integrated Flight Computer/aircraft/cf1_j_cfg.ks (inferred preloaded)
21.11,APPROACH,FLY_TO_FIX,94.18,85,-9.18,1352.29,-0.89,4.03,4.54,280.96,0.621,0,0,-11.816,1,0.6,4.5,2.972,0.35,0.0168,0.4,22.45,47.721,22.45,9.262,1,281.29,0.24,0,0,-0.55,0.33,0,0.25,281.29,0,0,0,0,0,0,0,47.563,0,0,0,3,0,0,0,2566.94,0,0,0,269.2,0,0,0,0,0,0,0,0,0,0,0,0,0,0,0,0,0,VALID,0,0,0,0,0,1,0,0,0,0,0,0,0,0,0,0,0,0,0,0,0.2,369.01,2,0,0.4,0.4,137,2.5,0.4,0.32,21.11,FLYING,CF1-J,0:/Integrated Flight Computer/aircraft/cf1_j_cfg.ks (inferred preloaded)
21.43,APPROACH,FLY_TO_FIX,93.87,85,-8.87,1352.02,-0.86,4.09,4.59,280.98,0.584,0,0,-11.756,1,0.6,4.5,2.922,0.35,0.0168,0.4,21.575,47.817,21.575,8.945,1,281.29,0.233,0,0,-0.53,0.31,0,0.24,281.29,0,0,0,0,0,0,0,47.53,0,0,0,3,0,0,0,2565.23,0,0,0,269.2,0,0,0,0,0,0,0,0,0,0,0,0,0,0,0,0,0,VALID,0,0,0,0,0,1,0,0,0,0,0,0,0,0,0,0,0,0,0,0,0.19,369.22,2,0,0.32,0.32,138,3.12,0.4,0.32,21.43,FLYING,CF1-J,0:/Integrated Flight Computer/aircraft/cf1_j_cfg.ks (inferred preloaded)
21.83,APPROACH,FLY_TO_FIX,93.49,85,-8.49,1351.7,-0.83,4.17,4.65,281,0.543,0,0,-11.698,1,0.6,4.5,2.869,0.35,0.0168,0.4,20.512,47.932,20.512,8.561,1,281.29,0.225,0,0,-0.51,0.29,0,0.24,281.29,0,0,0,0,0,0,0,47.489,0,0,0,3,0,0,0,2563.1,0,0,0,269.2,0,0,0,0,0,0,0,0,0,0,0,0,0,0,0,0,0,VALID,0,0,0,0,0,1,0,0,0,0,0,0,0,0,0,0,0,0,0,0,0.17,369.48,2,0,0.4,0.4,139,2.5,0.4,0.32,21.83,FLYING,CF1-J,0:/Integrated Flight Computer/aircraft/cf1_j_cfg.ks (inferred preloaded)
22.15,APPROACH,FLY_TO_FIX,93.19,85,-8.19,1351.45,-0.8,4.23,4.7,281.01,0.513,0,0,-11.639,1,0.6,4.5,2.814,0.35,0.0168,0.4,19.679,48.022,19.679,8.262,1,281.29,0.218,0,0,-0.5,0.28,0,0.23,281.29,0,0,0,0,0,0,0,47.457,0,0,0,3,0,0,0,2561.4,0,0,0,269.2,0,0,0,0,0,0,0,0,0,0,0,0,0,0,0,0,0,VALID,0,0,0,0,0,1,0,0,0,0,0,0,0,0,0,0,0,0,0,0,0.16,369.68,2,0,0.32,0.32,140,3.12,0.4,0.32,22.15,FLYING,CF1-J,0:/Integrated Flight Computer/aircraft/cf1_j_cfg.ks (inferred preloaded)
22.55,APPROACH,FLY_TO_FIX,92.82,85,-7.82,1351.14,-0.77,4.3,4.75,281.03,0.478,0,0,-11.581,1,0.6,4.5,2.757,0.35,0.0168,0.4,18.656,48.131,18.656,7.896,1,281.29,0.211,0,0,-0.48,0.26,0,0.22,281.29,0,0,0,0,0,0,0,47.416,0,0,0,3,0,0,0,2559.28,0,0,0,269.2,0,0,0,0,0,0,0,0,0,0,0,0,0,0,0,0,0,VALID,0,0,0,0,0,1,0,0,0,0,0,0,0,0,0,0,0,0,0,0,0.14,369.92,2,0,0.4,0.4,141,2.5,0.4,0.32,22.55,FLYING,CF1-J,0:/Integrated Flight Computer/aircraft/cf1_j_cfg.ks (inferred preloaded)
22.87,APPROACH,FLY_TO_FIX,92.54,85,-7.54,1350.91,-0.75,4.36,4.8,281.04,0.452,0,0,-11.523,1,0.6,4.5,2.699,0.35,0.0168,0.4,17.848,48.218,17.848,7.608,1,281.29,0.205,0,0,-0.47,0.25,0,0.21,281.29,0,0,0,0,0,0,0,47.384,0,0,0,3,0,0,0,2557.59,0,0,0,269.2,0,0,0,0,0,0,0,0,0,0,0,0,0,0,0,0,0,VALID,0,0,0,0,0,1,0,0,0,0,0,0,0,0,0,0,0,0,0,0,0.13,370.12,2,0,0.32,0.32,142,3.12,0.4,0.32,22.87,FLYING,CF1-J,0:/Integrated Flight Computer/aircraft/cf1_j_cfg.ks (inferred preloaded)
23.27,APPROACH,FLY_TO_FIX,92.18,85,-7.18,1350.62,-0.73,4.43,4.86,281.06,0.42,0,0,-11.465,1,0.6,4.5,2.641,0.35,0.0168,0.4,16.848,48.324,16.848,7.253,1,281.29,0.199,0,0,-0.46,0.23,0,0.21,281.29,0,0,0,0,0,0,0,47.344,0,0,0,3,0,0,0,2555.49,0,0,0,269.2,0,0,0,0,0,0,0,0,0,0,0,0,0,0,0,0,0,VALID,0,0,0,0,0,1,0,0,0,0,0,0,0,0,0,0,0,0,0,0,0.12,370.35,2,0,0.4,0.4,143,2.5,0.4,0.32,23.27,FLYING,CF1-J,0:/Integrated Flight Computer/aircraft/cf1_j_cfg.ks (inferred preloaded)
23.59,APPROACH,FLY_TO_FIX,91.9,85,-6.9,1350.41,-0.71,4.49,4.9,281.07,0.395,0,0,-11.408,1,0.6,4.5,2.582,0.35,0.0168,0.4,16.053,48.409,16.053,6.971,1,281.29,0.194,0,0,-0.45,0.22,0,0.2,281.29,0,0,0,0,0,0,0,47.312,0,0,0,3,0,0,0,2553.81,0,0,0,269.2,0,0,0,0,0,0,0,0,0,0,0,0,0,0,0,0,0,VALID,0,0,0,0,0,1,0,0,0,0,0,0,0,0,0,0,0,0,0,0,0.11,370.54,2,0,0.32,0.32,144,3.12,0.4,0.32,23.59,FLYING,CF1-J,0:/Integrated Flight Computer/aircraft/cf1_j_cfg.ks (inferred preloaded)
23.91,APPROACH,FLY_TO_FIX,91.62,85,-6.62,1350.19,-0.69,4.55,4.95,281.08,0.373,0,0,-11.351,1,0.6,4.5,2.525,0.35,0.0168,0.4,15.26,48.492,15.26,6.692,1,281.29,0.189,0,0,-0.43,0.21,0,0.2,281.29,0,0,0,0,0,0,0,47.28,0,0,0,3,0,0,0,2552.14,0,0,0,269.2,0,0,0,0,0,0,0,0,0,0,0,0,0,0,0,0,0,VALID,0,0,0,0,0,1,0,0,0,0,0,0,0,0,0,0,0,0,0,0,0.1,370.73,2,0,0.32,0.32,145,3.12,0.32,0.32,23.91,FLYING,CF1-J,0:/Integrated Flight Computer/aircraft/cf1_j_cfg.ks (inferred preloaded)
24.23,APPROACH,FLY_TO_FIX,91.34,85,-6.34,1349.98,-0.67,4.6,5,281.09,0.353,0,0,-11.294,1,0.6,4.5,2.468,0.35,0.0168,0.4,14.467,48.576,14.467,6.414,1,281.29,0.184,0,0,-0.42,0.2,0,0.19,281.29,0,0,0,0,0,0,0,47.248,0,0,0,3,0,0,0,2550.47,0,0,0,269.2,0,0,0,0,0,0,0,0,0,0,0,0,0,0,0,0,0,VALID,0,0,0,0,0,1,0,0,0,0,0,0,0,0,0,0,0,0,0,0,0.09,370.91,2,0,0.32,0.32,146,3.12,0.32,0.32,24.23,FLYING,CF1-J,0:/Integrated Flight Computer/aircraft/cf1_j_cfg.ks (inferred preloaded)
24.55,APPROACH,FLY_TO_FIX,91.07,85,-6.07,1349.78,-0.65,4.66,5.04,281.1,0.336,0,0,-11.238,1,0.6,4.5,2.412,0.35,0.0168,0.4,13.674,48.659,13.674,6.137,1,281.29,0.18,0,0,-0.42,0.19,0,0.19,281.29,0,0,0,0,0,0,0,47.217,0,0,0,3,0,0,0,2548.81,0,0,0,269.2,0,0,0,0,0,0,0,0,0,0,0,0,0,0,0,0,0,VALID,0,0,0,0,0,1,0,0,0,0,0,0,0,0,0,0,0,0,0,0,0.09,371.1,2,0,0.32,0.32,147,3.12,0.32,0.32,24.55,FLYING,CF1-J,0:/Integrated Flight Computer/aircraft/cf1_j_cfg.ks (inferred preloaded)
24.87,APPROACH,FLY_TO_FIX,90.79,85,-5.79,1349.58,-0.64,4.71,5.09,281.11,0.318,0,0,-11.182,1,0.6,4.5,2.358,0.35,0.0168,0.4,12.878,48.742,12.878,5.859,1,281.29,0.176,0,0,-0.41,0.19,0,0.18,281.29,0,0,0,0,0,0,0,47.185,0,0,0,3,0,0,0,2547.16,0,0,0,269.2,0,0,0,0,0,0,0,0,0,0,0,0,0,0,0,0,0,VALID,0,0,0,0,0,1,0,0,0,0,0,0,0,0,0,0,0,0,0,0,0.08,371.28,2,0,0.32,0.32,148,3.12,0.32,0.32,24.87,FLYING,CF1-J,0:/Integrated Flight Computer/aircraft/cf1_j_cfg.ks (inferred preloaded)
25.19,APPROACH,FLY_TO_FIX,90.51,85,-5.51,1349.39,-0.62,4.77,5.14,281.12,0.301,0,0,-11.126,1,0.6,4.5,2.305,0.35,0.0168,0.4,12.079,48.825,12.079,5.582,1,281.29,0.173,0,0,-0.4,0.18,0,0.18,281.29,0,0,0,0,0,0,0,47.154,0,0,0,3,0,0,0,2545.51,0,0,0,269.2,0,0,0,0,0,0,0,0,0,0,0,0,0,0,0,0,0,VALID,0,0,0,0,0,1,0,0,0,0,0,0,0,0,0,0,0,0,0,0,0.07,371.47,2,0,0.32,0.32,149,3.12,0.32,0.32,25.19,FLYING,CF1-J,0:/Integrated Flight Computer/aircraft/cf1_j_cfg.ks (inferred preloaded)
25.51,APPROACH,FLY_TO_FIX,90.23,85,-5.23,1349.2,-0.61,4.82,5.19,281.12,0.286,0,0,-11.07,1,0.6,4.5,2.253,0.35,0.0168,0.4,11.275,48.909,11.275,5.304,1,281.29,0.169,0,0,-0.39,0.17,0,0.18,281.29,0,0,0,0,0,0,0,47.122,0,0,0,3,0,0,0,2543.86,0,0,0,269.2,0,0,0,0,0,0,0,0,0,0,0,0,0,0,0,0,0,VALID,0,0,0,0,0,1,0,0,0,0,0,0,0,0,0,0,0,0,0,0,0.07,371.65,2,0,0.32,0.32,150,3.12,0.32,0.32,25.51,FLYING,CF1-J,0:/Integrated Flight Computer/aircraft/cf1_j_cfg.ks (inferred preloaded)
25.91,APPROACH,FLY_TO_FIX,89.88,85,-4.88,1348.98,-0.59,4.89,5.25,281.13,0.266,0,0,-11.015,1,0.6,4.5,2.203,0.35,0.0168,0.4,10.263,49.014,10.263,4.955,1,281.29,0.166,0,0,-0.38,0.16,0,0.17,281.29,0,0,0,0,0,0,0,47.083,0,0,0,3,0,0,0,2541.81,0,0,0,269.2,0,0,0,0,0,0,0,0,0,0,0,0,0,0,0,0,0,VALID,0,0,0,0,0,1,0,0,0,0,0,0,0,0,0,0,0,0,0,0,0.06,371.89,2,0,0.4,0.4,151,2.5,0.4,0.32,25.91,FLYING,CF1-J,0:/Integrated Flight Computer/aircraft/cf1_j_cfg.ks (inferred preloaded)
26.23,APPROACH,FLY_TO_FIX,89.6,85,-4.6,1348.8,-0.58,4.95,5.3,281.14,0.251,0,0,-10.96,1,0.6,4.5,2.155,0.35,0.0168,0.4,9.447,49.098,9.447,4.675,1,281.3,0.164,0,0,-0.38,0.16,0,0.17,281.29,0,0,0,0,0,0,0,47.052,0,0,0,3,0,0,0,2540.18,0,0,0,269.2,0,0,0,0,0,0,0,0,0,0,0,0,0,0,0,0,0,VALID,0,0,0,0,0,1,0,0,0,0,0,0,0,0,0,0,0,0,0,0,0.06,372.07,2,0,0.32,0.32,152,3.12,0.4,0.32,26.23,FLYING,CF1-J,0:/Integrated Flight Computer/aircraft/cf1_j_cfg.ks (inferred preloaded)
26.63,APPROACH,FLY_TO_FIX,89.25,85,-4.25,1348.58,-0.57,5.01,5.36,281.15,0.233,0,0,-10.905,1,0.6,4.5,2.108,0.35,0.0168,0.4,8.419,49.203,8.419,4.323,1,281.3,0.161,0,0,-0.37,0.15,0,0.17,281.3,0,0,0,0,0,0,0,47.013,0,0,0,3,0,0,0,2538.14,0,0,0,269.2,0,0,0,0,0,0,0,0,0,0,0,0,0,0,0,0,0,VALID,0,0,0,0,0,1,0,0,0,0,0,0,0,0,0,0,0,0,0,0,0.05,372.3,2,0,0.4,0.4,153,2.5,0.4,0.32,26.63,FLYING,CF1-J,0:/Integrated Flight Computer/aircraft/cf1_j_cfg.ks (inferred preloaded)
26.95,APPROACH,FLY_TO_FIX,88.97,85,-3.97,1348.4,-0.57,5.07,5.41,281.15,0.22,0,0,-10.85,1,0.6,4.5,2.063,0.35,0.0168,0.4,7.591,49.288,7.591,4.041,1,281.3,0.16,0,0,-0.37,0.14,0,0.16,281.3,0,0,0,0,0,0,0,46.982,0,0,0,3,0,0,0,2536.52,0,0,0,269.2,0,0,0,0,0,0,0,0,0,0,0,0,0,0,0,0,0,VALID,0,0,0,0,0,1,0,0,0,0,0,0,0,0,0,0,0,0,0,0,0.05,372.49,2,0,0.32,0.32,154,3.12,0.4,0.32,26.95,FLYING,CF1-J,0:/Integrated Flight Computer/aircraft/cf1_j_cfg.ks (inferred preloaded)
27.35,APPROACH,FLY_TO_FIX,88.62,85,-3.62,1348.19,-0.56,5.14,5.48,281.16,0.204,0,0,-10.796,1,0.6,4.5,2.02,0.35,0.0168,0.4,6.549,49.394,6.549,3.688,1,281.3,0.159,0,0,-0.36,0.14,0,0.16,281.3,0,0,0,0,0,0,0,46.943,0,0,0,3,0,0,0,2534.49,0,0,0,269.2,0,0,0,0,0,0,0,0,0,0,0,0,0,0,0,0,0,VALID,0,0,0,0,0,1,0,0,0,0,0,0,0,0,0,0,0,0,0,0,0.04,372.73,2,0,0.4,0.4,155,2.5,0.4,0.32,27.35,FLYING,CF1-J,0:/Integrated Flight Computer/aircraft/cf1_j_cfg.ks (inferred preloaded)
27.67,APPROACH,FLY_TO_FIX,88.33,85,-3.33,1348.02,-0.55,5.19,5.53,281.17,0.193,0,0,-10.742,1,0.6,4.5,1.979,0.35,0.0168,0.4,5.708,49.479,5.708,3.404,1,281.3,0.158,0,0,-0.36,0.13,0,0.16,281.3,0,0,0,0,0,0,0,46.913,0,0,0,3,0,0,0,2532.88,0,0,0,269.2,0,0,0,0,0,0,0,0,0,0,0,0,0,0,0,0,0,VALID,0,0,0,0,0,1,0,0,0,0,0,0,0,0,0,0,0,0,0,0,0.04,372.92,2,0,0.32,0.32,156,3.12,0.4,0.32,27.67,FLYING,CF1-J,0:/Integrated Flight Computer/aircraft/cf1_j_cfg.ks (inferred preloaded)
27.99,APPROACH,FLY_TO_FIX,88.05,85,-3.05,1347.85,-0.55,5.25,5.59,281.17,0.182,0,0,-10.688,1,0.6,4.5,1.939,0.35,0.0168,0.4,4.863,49.564,4.863,3.119,1,281.3,0.157,0,0,-0.36,0.13,0,0.16,281.3,0,0,0,0,0,0,0,46.882,0,0,0,3,0,0,0,2531.28,0,0,0,269.2,0,0,0,0,0,0,0,0,0,0,0,0,0,0,0,0,0,VALID,0,0,0,0,0,1,0,0,0,0,0,0,0,0,0,0,0,0,0,0,0,373.1,2,0,0.32,0.32,157,3.12,0.32,0.32,27.99,FLYING,CF1-J,0:/Integrated Flight Computer/aircraft/cf1_j_cfg.ks (inferred preloaded)
28.31,APPROACH,FLY_TO_FIX,87.76,85,-2.76,1347.69,-0.54,5.31,5.64,281.17,0.171,0,0,-10.635,1,0.6,4.5,1.901,0.35,0.0168,0.4,4.011,49.65,4.011,2.833,1,281.3,0.156,0,0,-0.36,0.12,0,0.16,281.3,0,0,0,0,0,0,0,46.852,0,0,0,3,0,0,0,2529.67,0,0,0,269.2,0,0,0,0,0,0,0,0,0,0,0,0,0,0,0,0,0,VALID,0,0,0,0,0,1,0,0,0,0,0,0,0,0,0,0,0,0,0,0,0,373.29,2,0,0.32,0.32,158,3.12,0.32,0.32,28.31,FLYING,CF1-J,0:/Integrated Flight Computer/aircraft/cf1_j_cfg.ks (inferred preloaded)
28.63,APPROACH,FLY_TO_FIX,87.47,85,-2.47,1347.52,-0.54,5.36,5.7,281.18,0.162,0,0,-10.582,1,0.6,4.5,1.864,0.35,0.0168,0.4,3.154,49.736,3.154,2.546,1,281.3,0.156,0,0,-0.35,0.12,0,0.16,281.3,0,0,0,0,0,0,0,46.821,0,0,0,3,0,0,0,2528.08,0,0,0,269.2,0,0,0,0,0,0,0,0,0,0,0,0,0,0,0,0,0,VALID,0,0,0,0,0,1,0,0,0,0,0,0,0,0,0,0,0,0,0,0,0,373.48,2,0,0.32,0.32,159,3.12,0.32,0.32,28.63,FLYING,CF1-J,0:/Integrated Flight Computer/aircraft/cf1_j_cfg.ks (inferred preloaded)
28.95,APPROACH,FLY_TO_FIX,87.19,85,-2.19,1347.36,-0.54,5.42,5.76,281.18,0.154,0,0,-10.529,1,0.6,4.5,1.829,0.35,0.0168,0.4,2.291,49.822,2.291,2.259,1,281.3,0.156,0,0,-0.35,0.11,0,0.16,281.3,0,0,0,0,0,0,0,46.791,0,0,0,3,0,0,0,2526.49,0,0,0,269.2,0,0,0,0,0,0,0,0,0,0,0,0,0,0,0,0,0,VALID,0,0,0,0,0,1,0,0,0,0,0,0,0,0,0,0,0,0,0,0,0,373.67,2,0,0.32,0.32,160,3.12,0.32,0.32,28.95,FLYING,CF1-J,0:/Integrated Flight Computer/aircraft/cf1_j_cfg.ks (inferred preloaded)
29.27,APPROACH,FLY_TO_FIX,86.9,85,-1.9,1347.2,-0.53,5.48,5.81,281.19,0.147,0,0,-10.476,1,0.6,4.5,1.795,0.35,0.0168,0.4,1.421,49.909,1.421,1.97,1,281.3,0.156,0,0,-0.35,0.11,0,0.16,281.3,0,0,0,0,0,0,0,46.76,0,0,0,3,0,0,0,2524.9,0,0,0,269.2,0,0,0,0,0,0,0,0,0,0,0,0,0,0,0,0,0,VALID,0,0,0,0,0,1,0,0,0,0,0,0,0,0,0,0,0,0,0,0,0,373.87,2,0,0.32,0.32,161,3.12,0.32,0.32,29.27,FLYING,CF1-J,0:/Integrated Flight Computer/aircraft/cf1_j_cfg.ks (inferred preloaded)
29.59,APPROACH,FLY_TO_FIX,86.61,85,-1.61,1347.04,-0.53,5.54,5.87,281.19,0.14,0.0116,0,-11.014,1,0.6,4.5,1.763,0.35,0.0168,0.4,0.546,49.996,0.546,1.68,1,281.3,0.156,0,0,-0.35,0.11,0,0.16,281.3,0,0,0,0,0,0,0,46.73,0,0,0,3,0,0,0,2523.32,0,0,0,269.2,0,0,0,0,0,0,0,0,0,0,0,0,0,0,0,0,0,VALID,0,0,0,0,0,1,0,0,0,0,0,0,0,0,0,0,0,0,0,0,0,374.06,2,0,0.32,0.32,162,3.12,0.32,0.32,29.59,FLYING,CF1-J,0:/Integrated Flight Computer/aircraft/cf1_j_cfg.ks (inferred preloaded)
29.91,APPROACH,FLY_TO_FIX,86.32,85,-1.32,1346.88,-0.53,5.6,5.93,281.19,0.133,0.0252,0,-11.458,1,0.6,4.5,1.732,0.35,0.0168,0.4,0,50.083,0,1.389,0,281.3,0.156,0,0,-0.35,0.1,0,0.16,281.3,0,0,0,0,0,0,0,46.7,0,0,0,3,0,0,0,2521.75,0,0,0,269.2,0,0,0,0,0,0,0,0,0,0,0,0,0,0,0,0,0,VALID,0,0,0,0,0,1,0,0,0,0,0,0,0,0,0,0,0,0,0,0,0.06,374.25,2,0,0.32,0.32,163,3.12,0.32,0.32,29.91,FLYING,CF1-J,0:/Integrated Flight Computer/aircraft/cf1_j_cfg.ks (inferred preloaded)
30.23,APPROACH,FLY_TO_FIX,86.02,85,-1.02,1346.72,-0.53,5.66,5.99,281.2,0.127,0.0406,0,-11.81,1,0.6,4.5,1.702,0.35,0.0168,0.4,0,50.171,0,1.097,0,281.3,0.156,0,0,-0.35,0.1,0,0.16,281.3,0,0,0,0,0,0,0,46.67,0,0,0,3,0,0,0,2520.18,0,0,0,269.2,0,0,0,0,0,0,0,0,0,0,0,0,0,0,0,0,0,VALID,0,0,0,0,0,1,0,0,0,0,0,0,0,0,0,0,0,0,0,0,0.22,374.44,2,0,0.32,0.32,164,3.12,0.32,0.32,30.23,FLYING,CF1-J,0:/Integrated Flight Computer/aircraft/cf1_j_cfg.ks (inferred preloaded)
30.55,APPROACH,FLY_TO_FIX,85.73,85,-0.73,1346.56,-0.53,5.72,6.06,281.2,0.122,0.0577,0,-12.067,1,0.6,4.5,1.674,0.35,0.0168,0.4,0,50.259,0,0.805,0,281.3,0.157,0,0,-0.35,0.1,0,0.16,281.3,0,0,0,0,0,0,0,46.64,0,0,0,3,0,0,0,2518.61,0,0,0,269.2,0,0,0,0,0,0,0,0,0,0,0,0,0,0,0,0,0,VALID,0,0,0,0,0,1,0,0,0,0,0,0,0,0,0,0,0,0,0,0,0.48,374.64,2,0,0.32,0.32,165,3.12,0.32,0.32,30.55,FLYING,CF1-J,0:/Integrated Flight Computer/aircraft/cf1_j_cfg.ks (inferred preloaded)
30.87,APPROACH,FLY_TO_FIX,85.44,85,-0.44,1346.4,-0.53,5.79,6.12,281.2,0.118,0.0763,0,-12.231,1,0.6,4.5,1.647,0.35,0.0168,0.4,0,50.347,0,0.511,0,281.3,0.157,0,0,-0.35,0.1,0,0.16,281.3,0,0,0,0,0,0,0,46.611,0,0,0,3,0,0,0,2517.05,0,0,0,269.2,0,0,0,0,0,0,0,0,0,0,0,0,0,0,0,0,0,VALID,0,0,0,0,0,1,0,0,0,0,0,0,0,0,0,0,0,0,0,0,0.85,374.83,2,0,0.32,0.32,166,3.12,0.32,0.32,30.87,FLYING,CF1-J,0:/Integrated Flight Computer/aircraft/cf1_j_cfg.ks (inferred preloaded)
31.19,APPROACH,FLY_TO_FIX,85.14,85,-0.14,1346.24,-0.52,5.85,6.18,281.21,0.115,0.0966,0,-12.3,1,0.6,4.5,1.621,0.35,0.0168,0.4,0,50.435,0,0.217,0,281.3,0.157,0,0,-0.35,0.09,0,0.16,281.3,0,0,0,0,0,0,0,46.581,0,0,0,3,0,0,0,2515.5,0,0,0,269.2,0,0,0,0,0,0,0,0,0,0,0,0,0,0,0,0,0,VALID,0,0,0,0,0,1,0,0,0,0,0,0,0,0,0,0,0,0,0,0,1.35,375.03,2,0,0.32,0.32,167,3.12,0.32,0.32,31.19,FLYING,CF1-J,0:/Integrated Flight Computer/aircraft/cf1_j_cfg.ks (inferred preloaded)
31.51,APPROACH,FLY_TO_FIX,84.85,85,0.15,1346.08,-0.52,5.91,6.24,281.21,0.11,0.1182,0,-12.276,1,0.6,4.5,1.621,0.35,0.0168,0.4,0,50.523,0,-0.077,0,281.3,0.158,0,0,-0.35,0.09,0,0.16,281.3,0,0,0,0,0,0,0,46.551,0,0,0,3,0,0,0,2513.95,0,0,0,269.2,0,0,0,0,0,0,0,0,0,0,0,0,0,0,0,0,0,VALID,0,0,0,0,0,1,0,0,0,0,0,0,0,0,0,0,0,0,0,0,1.98,375.22,2,0,0.32,0.32,168,3.12,0.32,0.32,31.51,FLYING,CF1-J,0:/Integrated Flight Computer/aircraft/cf1_j_cfg.ks (inferred preloaded)
31.83,APPROACH,FLY_TO_FIX,84.56,85,0.44,1345.92,-0.52,5.97,6.31,281.21,0.104,0.141,0,-12.157,1,0.6,4.5,1.621,0.35,0.0168,0.4,0,50.611,0,-0.37,0,281.3,0.158,0,0,-0.35,0.09,0,0.16,281.3,0,0,0,0,0,0,0,46.522,0,0,0,3,0,0,0,2512.41,0,0,0,269.2,0,0,0,0,0,0,0,0,0,0,0,0,0,0,0,0,0,VALID,0,0,0,0,0,1,0,0,0,0,0,0,0,0,0,0,0,0,0,0,2.75,375.42,2,0,0.32,0.32,169,3.12,0.32,0.32,31.83,FLYING,CF1-J,0:/Integrated Flight Computer/aircraft/cf1_j_cfg.ks (inferred preloaded)
32.15,APPROACH,FLY_TO_FIX,84.27,85,0.73,1345.77,-0.52,6.04,6.37,281.21,0.102,0.1649,0,-11.945,1,0.6,4.5,1.621,0.35,0.0168,0.4,0,50.698,0,-0.662,0,281.3,0.158,0,0,-0.35,0.09,0,0.16,281.3,0,0,0,0,0,0,0,46.493,0,0,0,3,0,0,0,2510.87,0,0,0,269.2,0,0,0,0,0,0,0,0,0,0,0,0,0,0,0,0,0,VALID,0,0,0,0,0,1,0,0,0,0,0,0,0,0,0,0,0,0,0,0,3.66,375.61,2,0,0.32,0.32,170,3.12,0.32,0.32,32.15,FLYING,CF1-J,0:/Integrated Flight Computer/aircraft/cf1_j_cfg.ks (inferred preloaded)
32.47,APPROACH,FLY_TO_FIX,83.98,85,1.02,1345.61,-0.52,6.1,6.43,281.22,0.1,0.1897,0,-11.641,1,0.6,4.5,1.621,0.35,0.0168,0.4,0,50.785,0,-0.951,0,281.3,0.159,0,0,-0.35,0.08,0,0.16,281.3,0,0,0,0,0,0,0,46.463,0,0,0,3,0,0,0,2509.33,0,0,0,269.2,0,0,0,0,0,0,0,0,0,0,0,0,0,0,0,0,0,VALID,0,0,0,0,0,1,0,0,0,0,0,0,0,0,0,0,0,0,0,0,4.73,375.8,2,0,0.32,0.32,171,3.12,0.32,0.32,32.47,FLYING,CF1-J,0:/Integrated Flight Computer/aircraft/cf1_j_cfg.ks (inferred preloaded)
32.79,APPROACH,FLY_TO_FIX,83.69,85,1.31,1345.46,-0.52,6.16,6.5,281.22,0.097,0.2153,0,-11.245,1,0.6,4.5,1.621,0.35,0.0168,0.4,0,50.871,0,-1.237,0,281.3,0.159,0,0,-0.35,0.08,0,0.16,281.3,0,0,0,0,0,0,0,46.434,0,0,0,3,0,0,0,2507.81,0,0,0,269.2,0,0,0,0,0,0,0,0,0,0,0,0,0,0,0,0,0,VALID,0,0,0,0,0,1,0,0,0,0,0,0,0,0,0,0,0,0,0,0,5.96,375.99,2,0,0.32,0.32,172,3.12,0.32,0.32,32.79,FLYING,CF1-J,0:/Integrated Flight Computer/aircraft/cf1_j_cfg.ks (inferred preloaded)
33.11,APPROACH,FLY_TO_FIX,83.41,85,1.59,1345.3,-0.51,6.22,6.56,281.22,0.096,0.2414,0,-10.759,1,0.6,4.5,1.621,0.35,0.0168,0.4,0,50.956,0,-1.52,0,281.3,0.159,0,0,-0.35,0.08,0,0.16,281.3,0,0,0,0,0,0,0,46.405,0,0,0,3,0,0,0,2506.28,0,0,0,269.2,0,0,0,0,0,0,0,0,0,0,0,0,0,0,0,0,0,VALID,0,0,0,0,0,1,0,0,0,0,0,0,0,0,0,0,0,0,0,0,7.35,376.18,2,0,0.32,0.32,173,3.12,0.32,0.32,33.11,FLYING,CF1-J,0:/Integrated Flight Computer/aircraft/cf1_j_cfg.ks (inferred preloaded)
33.43,APPROACH,FLY_TO_FIX,83.13,85,1.87,1345.15,-0.51,6.28,6.62,281.22,0.092,0.268,0,-10.184,1,0.6,4.5,1.621,0.35,0.0168,0.4,0,51.039,0,-1.797,0,281.3,0.159,0,0,-0.35,0.08,0,0.16,281.3,0,0,0,0,0,0,0,46.376,0,0,0,3,0,0,0,2504.76,0,0,0,269.2,0,0,0,0,0,0,0,0,0,0,0,0,0,0,0,0,0,VALID,0,0,0,0,0,1,0,0,0,0,0,0,0,0,0,0,0,0,0,0,8.9,376.36,2,0,0.32,0.32,174,3.12,0.32,0.32,33.43,FLYING,CF1-J,0:/Integrated Flight Computer/aircraft/cf1_j_cfg.ks (inferred preloaded)
33.75,APPROACH,FLY_TO_FIX,82.86,85,2.14,1344.99,-0.51,6.34,6.67,281.22,0.087,0.2949,0,-9.522,1,0.6,4.5,1.621,0.35,0.0168,0.4,0,51.121,0,-2.069,0,281.3,0.159,0,0,-0.35,0.08,0,0.16,281.3,0,0,0,0,0,0,0,46.347,0,0,0,3,0,0,0,2503.25,0,0,0,269.2,0,0,0,0,0,0,0,0,0,0,0,0,0,0,0,0,0,VALID,0,0,0,0,0,1,0,0,0,0,0,0,0,0,0,0,0,0,0,0,10.61,376.54,2,0,0.32,0.32,175,3.12,0.32,0.32,33.75,FLYING,CF1-J,0:/Integrated Flight Computer/aircraft/cf1_j_cfg.ks (inferred preloaded)
34.07,APPROACH,FLY_TO_FIX,82.6,85,2.4,1344.84,-0.51,6.4,6.73,281.23,0.083,0.322,0,-8.775,1,0.6,4.5,1.621,0.35,0.0168,0.4,0,51.2,0,-2.334,0,281.3,0.159,0,0,-0.35,0.07,0,0.16,281.3,0,0,0,0,0,0,0,46.319,0,0,0,3,0,0,0,2501.74,0,0,0,269.2,0,0,0,0,0,0,0,0,0,0,0,0,0,0,0,0,0,VALID,0,0,0,0,0,1,0,0,0,0,0,0,0,0,0,0,0,0,0,0,12.48,376.71,2,0,0.32,0.32,176,3.12,0.32,0.32,34.07,FLYING,CF1-J,0:/Integrated Flight Computer/aircraft/cf1_j_cfg.ks (inferred preloaded)
34.39,APPROACH,FLY_TO_FIX,82.35,85,2.65,1344.69,-0.5,6.46,6.79,281.23,0.079,0.349,0,-7.946,1,0.6,4.5,1.621,0.35,0.0168,0.4,0,51.277,0,-2.591,0,281.3,0.159,0,0,-0.35,0.07,0,0.16,281.3,0,0,0,0,0,0,0,46.29,0,0,0,3,0,0,0,2500.24,0,0,0,269.2,0,0,0,0,0,0,0,0,0,0,0,0,0,0,0,0,0,VALID,0,0,0,0,0,1,0,0,0,0,0,0,0,0,0,0,0,0,0,0,14.51,376.88,2,0,0.32,0.32,177,3.12,0.32,0.32,34.39,FLYING,CF1-J,0:/Integrated Flight Computer/aircraft/cf1_j_cfg.ks (inferred preloaded)
34.71,APPROACH,FLY_TO_FIX,82.1,85,2.9,1344.54,-0.5,6.51,6.84,281.23,0.077,0.3759,0,-7.037,1,0.6,4.5,1.621,0.35,0.0168,0.4,0,51.352,0,-2.84,0,281.3,0.158,0,0,-0.35,0.07,0,0.16,281.3,0,0,0,0,0,0,0,46.261,0,0,0,3,0,0,0,2498.74,0,0,0,269.2,0,0,0,0,0,0,0,0,0,0,0,0,0,0,0,0,0,VALID,0,0,0,0,0,1,0,0,0,0,0,0,0,0,0,0,0,0,0,0,16.7,377.05,2,0,0.32,0.32,178,3.12,0.32,0.32,34.71,FLYING,CF1-J,0:/Integrated Flight Computer/aircraft/cf1_j_cfg.ks (inferred preloaded)
35.03,APPROACH,FLY_TO_FIX,81.86,85,3.14,1344.39,-0.49,6.56,6.89,281.23,0.075,0.4024,0,-6.052,1,0.6,4.5,1.621,0.35,0.0168,0.4,0,51.424,0,-3.079,0,281.3,0.157,0,0,-0.35,0.07,0,0.16,281.3,0,0,0,0,0,0,0,46.233,0,0,0,3,0,0,0,2497.24,0,0,0,269.2,0,0,0,0,0,0,0,0,0,0,0,0,0,0,0,0,0,VALID,0,0,0,0,0,1,0,0,0,0,0,0,0,0,0,0,0,0,0,0,19.05,377.21,2,0,0.32,0.32,179,3.12,0.32,0.32,35.03,FLYING,CF1-J,0:/Integrated Flight Computer/aircraft/cf1_j_cfg.ks (inferred preloaded)
35.35,APPROACH,FLY_TO_FIX,81.64,85,3.36,1344.24,-0.49,6.61,6.93,281.23,0.075,0.4286,0,-4.994,1,0.6,4.5,1.621,0.35,0.0168,0.4,0,51.492,0,-3.308,0,281.3,0.157,0,0,-0.34,0.07,0,0.16,281.3,0,0,0,0,0,0,0,46.204,0,0,0,3,0,0,0,2495.75,0,0,0,269.2,0,0,0,0,0,0,0,0,0,0,0,0,0,0,0,0,0,VALID,0,0,0,0,0,1,0,0,0,0,0,0,0,0,0,0,0,0,0,0,21.54,377.36,2,0,0.32,0.32,180,3.12,0.32,0.32,35.35,FLYING,CF1-J,0:/Integrated Flight Computer/aircraft/cf1_j_cfg.ks (inferred preloaded)
35.67,APPROACH,FLY_TO_FIX,81.42,85,3.58,1344.09,-0.48,6.66,6.98,281.23,0.073,0.4541,0,-3.866,1,0.6,4.5,1.621,0.35,0.0168,0.4,0,51.558,0,-3.525,0,281.3,0.155,0,0,-0.34,0.07,0,0.16,281.3,0,0,0,0,0,0,0,46.176,0,0,0,3,0,0,0,2494.27,0,0,0,269.2,0,0,0,0,0,0,0,0,0,0,0,0,0,0,0,0,0,VALID,0,0,0,0,0,1,0,0,0,0,0,0,0,0,0,0,0,0,0,0,24.17,377.5,2,0,0.32,0.32,181,3.12,0.32,0.32,35.67,FLYING,CF1-J,0:/Integrated Flight Computer/aircraft/cf1_j_cfg.ks (inferred preloaded)
35.99,APPROACH,FLY_TO_FIX,81.22,85,3.78,1343.94,-0.47,6.71,7.02,281.23,0.068,0.479,0,-2.672,1,0.6,4.5,1.621,0.35,0.0168,0.4,0,51.619,0,-3.73,0,281.3,0.154,0,0,-0.34,0.07,0,0.16,281.3,0,0,0,0,0,0,0,46.148,0,0,0,3,0,0,0,2492.78,0,0,0,269.2,0,0,0,0,0,0,0,0,0,0,0,0,0,0,0,0,0,VALID,0,0,0,0,0,1,0,0,0,0,0,0,0,0,0,0,0,0,0,0,26.94,377.64,2,0,0.32,0.32,182,3.12,0.32,0.32,35.99,FLYING,CF1-J,0:/Integrated Flight Computer/aircraft/cf1_j_cfg.ks (inferred preloaded)
36.31,APPROACH,FLY_TO_FIX,81.03,85,3.97,1343.8,-0.46,6.75,7.05,281.24,0.068,0.5029,0,-1.417,1,0.6,4.5,1.621,0.35,0.0168,0.4,0,51.677,0,-3.922,0,281.3,0.153,0,0,-0.33,0.07,0,0.16,281.3,0,0,0,0,0,0,0,46.119,0,0,0,3,0,0,0,2491.3,0,0,0,269.2,0,0,0,0,0,0,0,0,0,0,0,0,0,0,0,0,0,VALID,0,0,0,0,0,1,0,0,0,0,0,0,0,0,0,0,0,0,0,0,29.84,377.76,2,0,0.32,0.32,183,3.12,0.32,0.32,36.31,FLYING,CF1-J,0:/Integrated Flight Computer/aircraft/cf1_j_cfg.ks (inferred preloaded)
36.63,APPROACH,FLY_TO_FIX,80.86,85,4.14,1343.66,-0.46,6.78,7.09,281.24,0.067,0.5259,0,-0.105,1,0.6,4.5,1.621,0.35,0.0168,0.4,0,51.73,0,-4.1,0,281.3,0.151,0,0,-0.33,0.06,0,0.16,281.3,0,0,0,0,0,0,0,46.091,0,0,0,3,0,0,0,2489.82,0,0,0,269.2,0,0,0,0,0,0,0,0,0,0,0,0,0,0,0,0,0,VALID,0,0,0,0,0,1,0,0,0,0,0,0,0,0,0,0,0,0,0,0,32.86,377.88,2,0,0.32,0.32,184,3.12,0.32,0.32,36.63,FLYING,CF1-J,0:/Integrated Flight Computer/aircraft/cf1_j_cfg.ks (inferred preloaded)
36.95,APPROACH,FLY_TO_FIX,80.7,85,4.3,1343.52,-0.45,6.82,7.11,281.24,0.066,0.5478,0,1.26,1,0.6,4.5,1.621,0.35,0.0168,0.4,0,51.779,0,-4.263,0,281.3,0.149,0,0,-0.32,0.06,0,0.15,281.3,0,0,0,0,0,0,0,46.063,0,0,0,3,0,0,0,2488.35,0,0,0,269.2,0,0,0,0,0,0,0,0,0,0,0,0,0,0,0,0,0,VALID,0,0,0,0,0,1,0,0,0,0,0,0,0,0,0,0,0,0,0,0,35.99,377.99,2,0,0.32,0.32,185,3.12,0.32,0.32,36.95,FLYING,CF1-J,0:/Integrated Flight Computer/aircraft/cf1_j_cfg.ks (inferred preloaded)
37.27,APPROACH,FLY_TO_FIX,80.55,85,4.45,1343.38,-0.44,6.85,7.14,281.24,0.064,0.5685,0,2.671,1,0.6,4.5,1.621,0.35,0.0168,0.4,0,51.823,0,-4.411,0,281.3,0.147,0,0,-0.31,0.06,0,0.15,281.3,0,0,0,0,0,0,0,46.035,0,0,0,3,0,0,0,2486.87,0,0,0,269.2,0,0,0,0,0,0,0,0,0,0,0,0,0,0,0,0,0,VALID,0,0,0,0,0,1,0,0,0,0,0,0,0,0,0,0,0,0,0,0,39.23,378.09,2,0,0.32,0.32,186,3.12,0.32,0.32,37.27,FLYING,CF1-J,0:/Integrated Flight Computer/aircraft/cf1_j_cfg.ks (inferred preloaded)
37.59,APPROACH,FLY_TO_FIX,80.43,85,4.57,1343.25,-0.43,6.87,7.15,281.24,0.064,0.5878,0,4.125,1,0.6,4.5,1.621,0.35,0.0168,0.4,0,51.863,0,-4.542,0,281.3,0.145,0,0,-0.31,0.06,0,0.15,281.3,0,0,0,0,0,0,0,46.007,0,0,0,3,0,0,0,2485.4,0,0,0,269.2,0,0,0,0,0,0,0,0,0,0,0,0,0,0,0,0,0,VALID,0,0,0,0,0,1,0,0,0,0,0,0,0,0,0,0,0,0,0,0,42.55,378.17,2,0,0.32,0.32,187,3.12,0.32,0.32,37.59,FLYING,CF1-J,0:/Integrated Flight Computer/aircraft/cf1_j_cfg.ks (inferred preloaded)
37.91,APPROACH,FLY_TO_FIX,80.32,85,4.68,1343.12,-0.42,6.9,7.17,281.24,0.062,0.6057,0,5.615,1,0.6,4.5,1.621,0.35,0.0168,0.4,0,51.897,0,-4.656,0,281.3,0.142,0,0,-0.3,0.06,0,0.15,281.3,0,0,0,0,0,0,0,45.979,0,0,0,3,0,0,0,2483.94,0,0,0,269.2,0,0,0,0,0,0,0,0,0,0,0,0,0,0,0,0,0,VALID,0,0,0,0,0,1,0,0,0,0,0,0,0,0,0,0,0,0,0,0,45.95,378.25,2,0,0.32,0.32,188,3.12,0.32,0.32,37.91,FLYING,CF1-J,0:/Integrated Flight Computer/aircraft/cf1_j_cfg.ks (inferred preloaded)
38.23,APPROACH,FLY_TO_FIX,80.23,85,4.77,1342.99,-0.4,6.91,7.18,281.24,0.057,0.622,0,7.135,1,0.6,4.5,1.621,0.35,0.0168,0.4,0,51.926,0,-4.753,0,281.3,0.139,0,0,-0.29,0.06,0,0.14,281.3,0,0,0,0,0,0,0,45.951,0,0,0,3,0,0,0,2482.47,0,0,0,269.2,0,0,0,0,0,0,0,0,0,0,0,0,0,0,0,0,0,VALID,0,0,0,0,0,1,0,0,0,0,0,0,0,0,0,0,0,0,0,0,49.42,378.32,2,0,0.32,0.32,189,3.12,0.32,0.32,38.23,FLYING,CF1-J,0:/Integrated Flight Computer/aircraft/cf1_j_cfg.ks (inferred preloaded)
38.55,APPROACH,FLY_TO_FIX,80.15,85,4.85,1342.86,-0.39,6.93,7.18,281.24,0.054,0.6366,0,8.681,1,0.6,4.5,1.621,0.35,0.0168,0.4,0,51.949,0,-4.831,0,281.3,0.136,0,0,-0.28,0.06,0,0.14,281.3,0,0,0,0,0,0,0,45.923,0,0,0,3,0,0,0,2481,0,0,0,269.2,0,0,0,0,0,0,0,0,0,0,0,0,0,0,0,0,0,VALID,0,0,0,0,0,1,0,0,0,0,0,0,0,0,0,0,0,0,0,0,52.94,378.37,2,0,0.32,0.32,190,3.12,0.32,0.32,38.55,FLYING,CF1-J,0:/Integrated Flight Computer/aircraft/cf1_j_cfg.ks (inferred preloaded)
38.87,APPROACH,FLY_TO_FIX,80.1,85,4.9,1342.74,-0.38,6.94,7.18,281.24,0.054,0.6496,0,10.246,1,0.6,4.5,1.621,0.35,0.0168,0.4,0,51.967,0,-4.89,0,281.3,0.133,0,0,-0.28,0.06,0,0.14,281.3,0,0,0,0,0,0,0,45.895,0,0,0,3,0,0,0,2479.54,0,0,0,269.2,0,0,0,0,0,0,0,0,0,0,0,0,0,0,0,0,0,VALID,0,0,0,0,0,1,0,0,0,0,0,0,0,0,0,0,0,0,0,0,56.5,378.41,2,0,0.32,0.32,191,3.12,0.32,0.32,38.87,FLYING,CF1-J,0:/Integrated Flight Computer/aircraft/cf1_j_cfg.ks (inferred preloaded)
39.19,APPROACH,FLY_TO_FIX,80.06,85,4.94,1342.62,-0.36,6.94,7.17,281.24,0.052,0.6607,0,11.824,1,0.6,4.5,1.621,0.35,0.0168,0.4,0,51.979,0,-4.93,0,281.3,0.129,0,0,-0.27,0.06,0,0.14,281.3,0,0,0,0,0,0,0,45.867,0,0,0,3,0,0,0,2478.07,0,0,0,269.2,0,0,0,0,0,0,0,0,0,0,0,0,0,0,0,0,0,VALID,0,0,0,0,0,1,0,0,0,0,0,0,0,0,0,0,0,0,0,0,60.09,378.44,2,0,0.32,0.32,192,3.12,0.32,0.32,39.19,FLYING,CF1-J,0:/Integrated Flight Computer/aircraft/cf1_j_cfg.ks (inferred preloaded)
39.51,APPROACH,FLY_TO_FIX,80.05,85,4.95,1342.51,-0.35,6.94,7.16,281.24,0.051,0.6699,0,13.408,1,0.6,4.5,1.621,0.35,0.0168,0.4,0,51.985,0,-4.951,0,281.3,0.126,0,0,-0.26,0.06,0,0.13,281.3,0,0,0,0,0,0,0,45.839,0,0,0,3,0,0,0,2476.61,0,0,0,269.2,0,0,0,0,0,0,0,0,0,0,0,0,0,0,0,0,0,VALID,0,0,0,0,0,1,0,0,0,0,0,0,0,0,0,0,0,0,0,0,63.7,378.45,2,0,0.32,0.32,193,3.12,0.32,0.32,39.51,FLYING,CF1-J,0:/Integrated Flight Computer/aircraft/cf1_j_cfg.ks (inferred preloaded)
39.83,APPROACH,FLY_TO_FIX,80.05,85,4.95,1342.4,-0.33,6.93,7.15,281.25,0.05,0.6771,0,14.993,1,0.6,4.5,1.621,0.35,0.0168,0.4,0,51.986,0,-4.952,0,281.3,0.122,0,0,-0.24,0.06,0,0.13,281.3,0,0,0,0,0,0,0,45.811,0,0,0,3,0,0,0,2475.14,0,0,0,269.2,0,0,0,0,0,0,0,0,0,0,0,0,0,0,0,0,0,VALID,0,0,0,0,0,1,0,0,0,0,0,0,0,0,0,0,0,0,0,0,67.3,378.45,2,0,0.32,0.32,194,3.12,0.32,0.32,39.83,FLYING,CF1-J,0:/Integrated Flight Computer/aircraft/cf1_j_cfg.ks (inferred preloaded)
