t_s,phase,subphase,ias_ms,vapp_ms,spd_err_ms,agl_m,vs_ms,pitch_deg,aoa_deg,hdg_deg,bank_deg,thr_cmd,thr_cur,thr_intg,at_gain,at_tau_s,at_a_up,at_a_dn,at_kp_thr,at_ki_spd,at_thr_slew,as_cmd_deg,as_cap_deg,as_raw_deg,as_spd_err_ms,as_active,aa_hdg_cmd_deg,aa_fpa_cmd_deg,aa_fbw,aa_dir,actual_fpa_deg,ftf_hdg_err_deg,ftf_fix_idx,kos_steer_pit_deg,kos_steer_hdg_deg,aa_dir_vx,aa_dir_vy,aa_dir_vz,aa_dir_pitch_deg,aa_dir_hdg_deg,ils_loc_m,ils_gs_m,ils_dist_km,loc_corr_deg,gs_corr_deg,gs_latched,active_gs_ang_deg,ils_intercept_alt_m,d_gs_ms,fpa_preclamped_deg,gs_nom_alt_m,flare_fpa_cmd,flare_tgt_vs,flare_frac,steer_hdg_deg,steer_blend,ro_loc_corr_deg,ro_hdg_err_deg,ro_yaw_tgt,ro_yaw_scale,ro_yaw_gate,yaw_cmd,roll_cmd,pitch_cmd,ro_pitch_tgt_deg,ro_pitch_err_deg,ro_pitch_ff,ro_roll_assist,flaps_cur,flaps_tgt,asc_j_ab,asc_j_rk,asc_validity,asc_q_pa,asc_q_raw_pa,asc_mach,asc_apo_m,asc_drag_n,asc_w_prop,asc_edot_aero,asc_edot_orb,asc_pitch_bias,asc_blend,asc_spooling,asc_ab_thr_ratio,asc_ab_t_now,asc_ab_t_avail,asc_ab_ign_on,asc_ab_flameouts,asc_rk_t_now,asc_rk_t_avail,asc_rk_ign_on,asc_rk_flameouts,ship_thrust,ship_avail_thrust,ship_ign_on,ship_flameouts,ifc_raw_dt_s,ifc_dt_s,ifc_loop_n,ifc_hz_est,ifc_raw_dt_max_s,ifc_raw_dt_min_s,phase_el_s,status,craft_name,cfg_file
0.18,TAKEOFF,TO_PREFLIGHT,0.26,80,79.74,3.62,0,-0.15,0.83,90.09,0.134,0.056,0,0,0,0,0,0,0,0,0,0,0,0,0,0,90.4,0,1,0,-0.75,0,0,0,90,0,0,0,0,0,0,0,0,0,0,0,3,0,0,0,69,0,0,0,90.4,1,0,-0.306,0,0,1,0,0,0,0,0,0,0,0,1,0,0,VALID,0,0,0,0,0,1,0,0,0,0,0,0,0,0,0,0,0,0,0,0,0,518.07,2,0,0.14,0.14,1,3.45,0.14,0.02,0.04,LANDED,CF1-J,0:/Integrated Flight Computer/aircraft/cf1_j_cfg.ks (inferred preloaded)
0.44,TAKEOFF,TO_PREFLIGHT,0.25,80,79.75,3.61,0,-0.2,-0.38,90.09,0.143,0.12,0,0,0,0,0,0,0,0,0,0,0,0,0,0,90.4,0,1,0,0,0,0,0,90,0,0,0,0,0,0,0,0,0,0,0,3,0,0,0,69,0,0,0,90.4,1,0,-0.307,0,0,1,0,0,0,0,0,0,0,1,1,0,0,VALID,0,0,0,0,0,1,0,0,0,0,0,0,0,0,0,0,0,0,0,0,0.43,518.07,2,0,0.04,0.04,6,19.23,0.14,0.04,0.3,LANDED,CF1-J,0:/Integrated Flight Computer/aircraft/cf1_j_cfg.ks (inferred preloaded)
0.7,TAKEOFF,TO_PREFLIGHT,0.12,80,79.88,3.6,0,-0.27,-7.96,90.09,0.115,0.224,0,0,0,0,0,0,0,0,0,0,0,0,0,0,90.4,0,1,0,0.27,0,0,0,90,0,0,0,0,0,0,0,0,0,0,0,3,0,0,0,69,0,0,0,90.4,1,0,-0.307,0,0,1,0,0,0,0,0,0,0,1,1,0,0,VALID,0,0,0,0,0,1,0,0,0,0,0,0,0,0,0,0,0,0,0,0,1.58,518.1,2,0,0.04,0.04,11,19.23,0.08,0.04,0.56,LANDED,CF1-J,0:/Integrated Flight Computer/aircraft/cf1_j_cfg.ks (inferred preloaded)
0.96,TAKEOFF,TO_PREFLIGHT,0.04,80,79.96,3.61,-0.02,-0.17,31.33,90.09,0.084,0.328,0,0,0,0,0,0,0,0,0,0,0,0,0,0,90.4,0,1,0,-1.29,0,0,0,90,0,0,0,0,0,0,0,0,0,0,0,3,0,0,0,69,0,0,0,90.4,1,0,-0.307,0,0,1,0,0,0,0,0,0,0,1,1,0,0,VALID,0,0,0,0,0,1,0,0,0,0,0,0,0,0,0,0,0,0,0,0,3.55,518.12,2,0,0.04,0.04,16,19.23,0.08,0.04,0.82,LANDED,CF1-J,0:/Integrated Flight Computer/aircraft/cf1_j_cfg.ks (inferred preloaded)
1.22,TAKEOFF,TO_PREFLIGHT,0.01,80,79.99,3.62,0.01,-0.15,-43.39,90.09,0.079,0.432,0,0,0,0,0,0,0,0,0,0,0,0,0,0,90.4,0,1,0,0.56,0,0,0,90,0,0,0,0,0,0,0,0,0,0,0,3,0,0,0,69,0,0,0,90.4,1,0,-0.307,0,0,1,0,0,0,0,0,0,0,1,1,0,0,VALID,0,0,0,0,0,1,0,0,0,0,0,0,0,0,0,0,0,0,0,0,6.33,518.12,2,0,0.04,0.04,21,19.23,0.08,0.04,1.08,LANDED,CF1-J,0:/Integrated Flight Computer/aircraft/cf1_j_cfg.ks (inferred preloaded)
1.48,TAKEOFF,TO_PREFLIGHT,0.03,80,79.97,3.61,0,-0.23,-8.52,90.09,0.098,0.536,0,0,0,0,0,0,0,0,0,0,0,0,0,0,90.4,0,1,0,0.16,0,0,0,90,0,0,0,0,0,0,0,0,0,0,0,3,0,0,0,69,0,0,0,90.4,1,0,-0.307,0,0,1,0,0,0,0,0,0,0,1,1,0,0,VALID,0,0,0,0,0,1,0,0,0,0,0,0,0,0,0,0,0,0,0,0,9.89,518.12,2,0,0.04,0.04,26,19.23,0.08,0.04,1.34,LANDED,CF1-J,0:/Integrated Flight Computer/aircraft/cf1_j_cfg.ks (inferred preloaded)
1.74,TAKEOFF,TO_PREFLIGHT,0.01,80,79.99,3.61,0,-0.21,69.45,90.08,0.122,0.64,0,0,0,0,0,0,0,0,0,0,0,0,0,0,90.4,0,1,0,-0.26,0,0,0,90,0,0,0,0,0,0,0,0,0,0,0,3,0,0,0,69,0,0,0,90.4,1,0,-0.307,0,0,1,0,0,0,0,0,0,0,1,1,0,0,VALID,0,0,0,0,0,1,0,0,0,0,0,0,0,0,0,0,0,0,0,0,14.24,518.12,2,0,0.04,0.04,31,19.23,0.08,0.04,1.6,LANDED,CF1-J,0:/Integrated Flight Computer/aircraft/cf1_j_cfg.ks (inferred preloaded)
2,TAKEOFF,TO_PREFLIGHT,0,80,80,3.61,0,-0.19,0.15,90.08,0.127,0.744,0,0,0,0,0,0,0,0,0,0,0,0,0,0,90.4,0,1,0,0.01,0,0,0,90,0,0,0,0,0,0,0,0,0,0,0,3,0,0,0,69,0,0,0,90.4,1,0,-0.307,0,0,1,0,0,0,0,0,0,0,1,1,0,0,VALID,0,0,0,0,0,1,0,0,0,0,0,0,0,0,0,0,0,0,0,0,19.36,518.12,2,0,0.04,0.04,36,19.23,0.08,0.04,1.86,LANDED,CF1-J,0:/Integrated Flight Computer/aircraft/cf1_j_cfg.ks (inferred preloaded)
2.32,TAKEOFF,TO_PREFLIGHT,0.03,80,79.97,3.61,0,-0.22,-4.7,90.08,0.109,0.872,0,0,0,0,0,0,0,0,0,0,0,0,0,0,90.4,0,1,0,0.15,0,0,0,90,0,0,0,0,0,0,0,0,0,0,0,3,0,0,0,69,0,0,0,90.4,1,0,-0.307,0,0,1,0,0,0,0,0,0,0,1,1,0,0,VALID,0,0,0,0,0,1,0,0,0,0,0,0,0,0,0,0,0,0,0,0,26.68,518.11,2,0,0.08,0.08,41,15.63,0.08,0.04,2.18,LANDED,CF1-J,0:/Integrated Flight Computer/aircraft/cf1_j_cfg.ks (inferred preloaded)
2.6,TAKEOFF,TO_PREFLIGHT,0.02,80,79.98,3.61,0,-0.23,3.88,90.08,0.093,0.984,0,0,0,0,0,0,0,0,0,0,0,0,0,0,90.4,0,1,0,-0.1,0,0,0,90,0,0,0,0,0,0,0,0,0,0,0,3,0,0,0,69,0,0,0,90.4,1,0,-0.307,0,0,1,0,0,0,0,0,0,0,1,1,0,0,VALID,0,0,0,0,0,1,0,0,0,0,0,0,0,0,0,0,0,0,0,0,33.99,518.11,2,0,0.08,0.08,45,14.29,0.08,0.06,2.46,LANDED,CF1-J,0:/Integrated Flight Computer/aircraft/cf1_j_cfg.ks (inferred preloaded)
2.88,TAKEOFF,TO_PREFLIGHT,0.03,80,79.97,3.61,0,-0.22,-0.05,90.07,0.094,1,0,0,0,0,0,0,0,0,0,0,0,0,0,0,90.4,0,1,0,0,0,0,0,90,0,0,0,0,0,0,0,0,0,0,0,3,0,0,0,69,0,0,0,90.4,1,0,-0.307,0,0,1,0,0,0,0,0,0,0,1,1,0,0,VALID,0,0,0,0,0,1,0,0,0,0,0,0,0,0,0,0,0,0,0,0,41.98,518.11,2,0,0.08,0.08,49,14.29,0.08,0.06,2.74,LANDED,CF1-J,0:/Integrated Flight Computer/aircraft/cf1_j_cfg.ks (inferred preloaded)
3.16,TAKEOFF,TO_PREFLIGHT,0.04,80,79.96,3.6,0,-0.24,-2.11,90.07,0.108,1,0,0,0,0,0,0,0,0,0,0,0,0,0,0,90.4,0,1,0,0.09,0,0,0,90,0,0,0,0,0,0,0,0,0,0,0,3,0,0,0,69,0,0,0,90.4,1,0,-0.307,0,0,1,0,0,0,0,0,0,0,1,1,0,0,VALID,0,0,0,0,0,1,0,0,0,0,0,0,0,0,0,0,0,0,0,0,49.91,518.11,2,0,0.08,0.08,53,14.29,0.08,0.06,3.02,LANDED,CF1-J,0:/Integrated Flight Computer/aircraft/cf1_j_cfg.ks (inferred preloaded)
3.44,TAKEOFF,TO_GROUND_ROLL,0.05,80,79.95,3.61,0,-0.23,0.54,90.07,0.118,1,0,0,0,0,0,0,0,0,0,0,0,0,0,0,90.4,0,1,0,-0.1,0,0,0,90,0,0,0,0,0,0,0,0,0,0,0,3,0,0,0,69,0,0,0,90.4,1,0,-0.332,0.0035,0.25,1,0.0035,0,0,0,0,0,0,1,1,0,0,VALID,0,0,0,0,0,1,0,0,0,0,0,0,0,0,0,0,0,0,0,0,57.72,518.11,2,0,0.08,0.08,57,14.29,0.08,0.06,3.32,LANDED,CF1-J,0:/Integrated Flight Computer/aircraft/cf1_j_cfg.ks (inferred preloaded)
3.72,TAKEOFF,TO_GROUND_ROLL,0.28,80,79.72,3.62,-0.01,-0.13,1.24,90.07,0.114,1,0,0,0,0,0,0,0,0,0,0,0,0,0,0,90.4,0,1,0,-0.47,0,0,0,90,0,0,0,0,0,0,0,0,0,0,0,3,0,0,0,69,0,0,0,90.4,1,0,-0.334,0.0035,0.25,1,0.0035,0,0,0,0,0,0,1,1,0,0,VALID,0,0,0,0,0,1,0,0,0,0,0,0,0,0,0,0,0,0,0,0,65.38,518.05,2,0,0.08,0.08,61,14.29,0.08,0.06,3.6,LANDED,CF1-J,0:/Integrated Flight Computer/aircraft/cf1_j_cfg.ks (inferred preloaded)
4,TAKEOFF,TO_GROUND_ROLL,0.63,80,79.37,3.61,0,-0.18,-0.41,90.07,0.104,1,0,0,0,0,0,0,0,0,0,0,0,0,0,0,90.4,0,1,0,0.13,0,0,0,90,0,0,0,0,0,0,0,0,0,0,0,3,0,0,0,69,0,0,0,90.4,1,0,-0.331,0.0034,0.25,1,0.0034,0,0,0,0,0,0,1,1,0,0,VALID,0,0,0,0,0,1,0,0,0,0,0,0,0,0,0,0,0,0,0,0,72.92,517.97,2,0,0.08,0.08,65,14.29,0.08,0.06,3.88,LANDED,CF1-J,0:/Integrated Flight Computer/aircraft/cf1_j_cfg.ks (inferred preloaded)
4.28,TAKEOFF,TO_GROUND_ROLL,1.01,80,78.99,3.62,-0.01,-0.16,0.41,90.07,0.097,1,0,0,0,0,0,0,0,0,0,0,0,0,0,0,90.4,0,1,0,-0.67,0,0,0,90,0,0,0,0,0,0,0,0,0,0,0,3,0,0,0,69,0,0,0,90.4,1,0,-0.324,0.0033,0.25,1,0.0033,0,0,0,0,0,0,1,1,0,0,VALID,0,0,0,0,0,1,0,0,0,0,0,0,0,0,0,0,0,0,0,0,80.32,517.87,2,0,0.08,0.08,69,14.29,0.08,0.06,4.16,LANDED,CF1-J,0:/Integrated Flight Computer/aircraft/cf1_j_cfg.ks (inferred preloaded)
4.56,TAKEOFF,TO_GROUND_ROLL,1.44,80,78.56,3.62,-0.01,-0.15,0.11,90.08,0.101,1,0,0,0,0,0,0,0,0,0,0,0,0,0,0,90.39,0,1,0,-0.26,0,0,0,90,0,0,0,0,0,0,0,0,0,0,0,3,0,0,0,69,0,0,0,90.39,1,0,-0.314,0.0032,0.25,1,0.0032,0,0,0,0,0,0,1,1,0,0,VALID,0,0,0,0,0,1,0,0,0,0,0,0,0,0,0,0,0,0,0,0,87.6,517.77,2,0,0.08,0.08,73,14.29,0.08,0.06,4.44,LANDED,CF1-J,0:/Integrated Flight Computer/aircraft/cf1_j_cfg.ks (inferred preloaded)
4.84,TAKEOFF,TO_GROUND_ROLL,1.9,80,78.1,3.62,-0.01,-0.17,0.12,90.09,0.109,1,0,0,0,0,0,0,0,0,0,0,0,0,0,0,90.39,0,1,0,-0.35,0,0,0,90,0,0,0,0,0,0,0,0,0,0,0,3,0,0,0,69,0,0,0,90.39,1,0,-0.302,0.003,0.25,1,0.003,0,0,0,0,0,0,1,1,0,0,VALID,0,0,0,0,0,1,0,0,0,0,0,0,0,0,0,0,0,0,0,0,94.75,517.65,2,0,0.08,0.08,77,14.29,0.08,0.06,4.72,LANDED,CF1-J,0:/Integrated Flight Computer/aircraft/cf1_j_cfg.ks (inferred preloaded)
5.12,TAKEOFF,TO_GROUND_ROLL,2.39,80,77.61,3.62,-0.02,-0.15,0.19,90.1,0.112,1,0,0,0,0,0,0,0,0,0,0,0,0,0,0,90.39,0,1,0,-0.37,0,0,0,90,0,0,0,0,0,0,0,0,0,0,0,3,0,0,0,69,0,0,0,90.39,1,0,-0.286,0.0028,0.25,1,0.0028,0,0,0,0,0,0,1,1,0,0,VALID,0,0,0,0,0,1,0,0,0,0,0,0,0,0,0,0,0,0,0,0,101.77,517.52,2,0,0.08,0.08,81,14.29,0.08,0.06,5,LANDED,CF1-J,0:/Integrated Flight Computer/aircraft/cf1_j_cfg.ks (inferred preloaded)
5.4,TAKEOFF,TO_GROUND_ROLL,2.92,80,77.08,3.62,-0.02,-0.15,0.13,90.12,0.108,1,0,0,0,0,0,0,0,0,0,0,0,0,0,0,90.39,0,1,0,-0.32,0,0,0,90,0,0,0,0,0,0,0,0,0,0,0,3,0,0,0,69,0,0,0,90.39,1,0,-0.268,0.0026,0.25,1,0.0026,0,0,0,0,0,0,1,1,0,0,VALID,0,0,0,0,0,1,0,0,0,0,0,0,0,0,0,0,0,0,0,0,108.67,517.38,2,0,0.08,0.08,85,14.29,0.08,0.06,5.28,LANDED,CF1-J,0:/Integrated Flight Computer/aircraft/cf1_j_cfg.ks (inferred preloaded)
5.68,TAKEOFF,TO_GROUND_ROLL,3.49,80,76.51,3.62,-0.02,-0.15,0.18,90.14,0.102,1,0,0,0,0,0,0,0,0,0,0,0,0,0,0,90.39,0,1,0,-0.36,0,0,0,90,0,0,0,0,0,0,0,0,0,0,0,3,0,0,0,69,0,0,0,90.39,1,0,-0.248,0.0023,0.25,1,0.0023,0,0,0,0,0,0,1,1,0,0,VALID,0,0,0,0,0,1,0,0,0,0,0,0,0,0,0,0,0,0,0,0,115.45,517.23,2,0,0.08,0.08,89,14.29,0.08,0.06,5.56,LANDED,CF1-J,0:/Integrated Flight Computer/aircraft/cf1_j_cfg.ks (inferred preloaded)
5.96,TAKEOFF,TO_GROUND_ROLL,4.09,80,75.91,3.62,-0.02,-0.14,0.16,90.16,0.099,1,0,0,0,0,0,0,0,0,0,0,0,0,0,0,90.38,0,1,0,-0.34,0,0,0,90,0,0,0,0,0,0,0,0,0,0,0,3,0,0,0,69,0,0,0,90.38,1,0,-0.225,0.002,0.25,1,0.002,0,0,0,0,0,0,1,1,0,0,VALID,0,0,0,0,0,1,0,0,0,0,0,0,0,0,0,0,0,0,0,0,122.11,517.06,2,0,0.08,0.08,93,14.29,0.08,0.06,5.84,LANDED,CF1-J,0:/Integrated Flight Computer/aircraft/cf1_j_cfg.ks (inferred preloaded)
6.24,TAKEOFF,TO_GROUND_ROLL,4.72,80,75.28,3.62,-0.03,-0.15,0.16,90.18,0.102,1,0,0,0,0,0,0,0,0,0,0,0,0,0,0,90.38,0,1,0,-0.34,0,0,0,90,0,0,0,0,0,0,0,0,0,0,0,3,0,0,0,69,0,0,0,90.38,1,0,-0.2,0.0018,0.25,1,0.0018,0,0,0,0,0,0,1,1,0,0,VALID,0,0,0,0,0,1,0,0,0,0,0,0,0,0,0,0,0,0,0,0,128.65,516.88,2,0,0.08,0.08,97,14.29,0.08,0.06,6.12,LANDED,CF1-J,0:/Integrated Flight Computer/aircraft/cf1_j_cfg.ks (inferred preloaded)
6.52,TAKEOFF,TO_GROUND_ROLL,5.38,80,74.62,3.62,-0.03,-0.14,0.17,90.21,0.106,1,0,0,0,0,0,0,0,0,0,0,0,0,0,0,90.38,0,1,0,-0.34,0,0,0,90,0,0,0,0,0,0,0,0,-0.001,0,0,3,0,0,0,69,0,0,0,90.38,1,-0.001,-0.176,0.0015,0.25,1,0.0015,0,0,0,0,0,0,1,1,0,0,VALID,0,0,0,0,0,1,0,0,0,0,0,0,0,0,0,0,0,0,0,0,135.07,516.69,2,0,0.08,0.08,101,14.29,0.08,0.06,6.4,LANDED,CF1-J,0:/Integrated Flight Computer/aircraft/cf1_j_cfg.ks (inferred preloaded)
6.8,TAKEOFF,TO_GROUND_ROLL,6.08,80,73.92,3.62,-0.03,-0.14,0.17,90.23,0.106,1,0,0,0,0,0,0,0,0,0,0,0,0,0,0,90.38,0,1,0,-0.32,0,0,0,90,0,0,0,0,0,0,0,0,-0.001,0,0,3,0,0,0,69,0,0,0,90.38,1,-0.001,-0.152,0.0012,0.25,1,0.0012,0,0,0,0,0,0,1,1,0,0,VALID,0,0,0,0,0,1,0,0,0,0,0,0,0,0,0,0,0,0,0,0,141.38,516.48,2,0,0.08,0.08,105,14.29,0.08,0.06,6.68,LANDED,CF1-J,0:/Integrated Flight Computer/aircraft/cf1_j_cfg.ks (inferred preloaded)
7.08,TAKEOFF,TO_GROUND_ROLL,6.81,80,73.19,3.62,-0.04,-0.14,0.17,90.25,0.102,1,0,0,0,0,0,0,0,0,0,0,0,0,0,0,90.38,0,1,0,-0.34,0,0,0,90,0,0,0,0,0,0,0,0,-0.001,0,0,3,0,0,0,69,0,0,0,90.38,1,-0.001,-0.128,0.001,0.25,1,0.001,0,0,0,0,0,0,1,1,0,0,VALID,0,0,0,0,0,1,0,0,0,0,0,0,0,0,0,0,0,0,0,0,147.57,516.26,2,0,0.08,0.08,109,14.29,0.08,0.06,6.96,LANDED,CF1-J,0:/Integrated Flight Computer/aircraft/cf1_j_cfg.ks (inferred preloaded)
7.36,TAKEOFF,TO_GROUND_ROLL,7.57,80,72.43,3.62,-0.04,-0.13,0.17,90.28,0.099,1,0,0,0,0,0,0,0,0,0,0,0,0,0,0,90.38,0,1,0,-0.33,0,0,0,90,0,0,0,0,0,0,0,0,-0.001,0,0,3,0,0,0,69,0,0,0,90.38,1,-0.001,-0.106,0.0008,0.25,1,0.0008,0,0,0,0,0,0,1,1,0,0,VALID,0,0,0,0,0,1,0,0,0,0,0,0,0,0,0,0,0,0,0,0,153.65,516.03,2,0,0.08,0.08,113,14.29,0.08,0.06,7.24,LANDED,CF1-J,0:/Integrated Flight Computer/aircraft/cf1_j_cfg.ks (inferred preloaded)
7.64,TAKEOFF,TO_GROUND_ROLL,8.36,80,71.64,3.62,-0.05,-0.13,0.17,90.3,0.099,1,0,0,0,0,0,0,0,0,0,0,0,0,0,0,90.38,0,1,0,-0.33,0,0,0,90,0,0,0,0,0,0,0,0,-0.001,0,0,3,0,0,0,69,0,0,0,90.38,1,-0.001,-0.084,0.0006,0.25,1,0.0006,0,0,0,0,0,0,1,1,0,0,VALID,0,0,0,0,0,1,0,0,0,0,0,0,0,0,0,0,0,0,0,0,159.61,515.78,2,0,0.08,0.08,117,14.29,0.08,0.06,7.52,LANDED,CF1-J,0:/Integrated Flight Computer/aircraft/cf1_j_cfg.ks (inferred preloaded)
7.92,TAKEOFF,TO_GROUND_ROLL,9.18,80,70.82,3.62,-0.05,-0.13,0.18,90.32,0.102,1,0,0,0,0,0,0,0,0,0,0,0,0,0,0,90.38,0,1,0,-0.33,0,0,0,90,0,0,0,0,0,0,0,0,-0.002,0,0,3,0,0,0,69,0,0,0,90.38,1,-0.002,-0.065,0.0005,0.25,1,0.0005,0,0,0,0,0,0,1,1,0,0,VALID,0,0,0,0,0,1,0,0,0,0,0,0,0,0,0,0,0,0,0,0,165.46,515.51,2,0,0.08,0.08,121,14.29,0.08,0.06,7.8,LANDED,CF1-J,0:/Integrated Flight Computer/aircraft/cf1_j_cfg.ks (inferred preloaded)
8.2,TAKEOFF,TO_GROUND_ROLL,10.02,80,69.98,3.62,-0.06,-0.13,0.17,90.34,0.104,1,0,0,0,0,0,0,0,0,0,0,0,0,0,0,90.39,0,1,0,-0.33,0,0,0,90,0,0,0,0,0,0,0,0,-0.002,0,0,3,0,0,0,69,0,0,0,90.39,1,-0.002,-0.049,0.0003,0.25,1,0.0003,0,0,0,0,0,0,1,1,0,0,VALID,0,0,0,0,0,1,0,0,0,0,0,0,0,0,0,0,0,0,0,0,171.2,515.23,2,0,0.08,0.08,125,14.29,0.08,0.06,8.08,LANDED,CF1-J,0:/Integrated Flight Computer/aircraft/cf1_j_cfg.ks (inferred preloaded)
8.48,TAKEOFF,TO_GROUND_ROLL,10.9,80,69.1,3.62,-0.06,-0.13,0.18,90.35,0.103,1,0,0,0,0,0,0,0,0,0,0,0,0,0,0,90.39,0,1,0,-0.33,0,0,0,90,0,0,0,0,0,0,0,0,-0.002,0,0,3,0,0,0,69,0,0,0,90.39,1,-0.002,-0.035,0.0002,0.25,1,0.0002,0,0,0,0,0,0,1,1,0,0,VALID,0,0,0,0,0,1,0,0,0,0,0,0,0,0,0,0,0,0,0,0,176.84,514.93,2,0,0.08,0.08,129,14.29,0.08,0.06,8.36,LANDED,CF1-J,0:/Integrated Flight Computer/aircraft/cf1_j_cfg.ks (inferred preloaded)
8.76,TAKEOFF,TO_GROUND_ROLL,11.8,80,68.2,3.62,-0.07,-0.12,0.18,90.36,0.101,1,0,0,0,0,0,0,0,0,0,0,0,0,0,0,90.39,0,1,0,-0.33,0,0,0,90,0,0,0,0,0,0,0,0,-0.003,0,0,3,0,0,0,69,0,0,0,90.39,1,-0.003,-0.024,0.0002,0.25,1,0.0002,0,0,0,0,0,0,1,1,0,0,VALID,0,0,0,0,0,1,0,0,0,0,0,0,0,0,0,0,0,0,0,0,182.36,514.61,2,0,0.08,0.08,133,14.29,0.08,0.06,8.64,LANDED,CF1-J,0:/Integrated Flight Computer/aircraft/cf1_j_cfg.ks (inferred preloaded)
9.04,TAKEOFF,TO_GROUND_ROLL,12.74,80,67.26,3.62,-0.07,-0.12,0.18,90.37,0.099,1,0,0,0,0,0,0,0,0,0,0,0,0,0,0,90.39,0,1,0,-0.33,0,0,0,90,0,0,0,0,0,0,0,0,-0.003,0,0,3,0,0,0,69,0,0,0,90.39,1,-0.003,-0.016,0.0001,0.25,1,0.0001,0,0,0,0,0,0,1,1,0,0,VALID,0,0,0,0,0,1,0,0,0,0,0,0,0,0,0,0,0,0,0,0,187.78,514.27,2,0,0.08,0.08,137,14.29,0.08,0.06,8.92,LANDED,CF1-J,0:/Integrated Flight Computer/aircraft/cf1_j_cfg.ks (inferred preloaded)
9.32,TAKEOFF,TO_GROUND_ROLL,13.69,80,66.31,3.62,-0.08,-0.12,0.18,90.38,0.101,1,0,0,0,0,0,0,0,0,0,0,0,0,0,0,90.39,0,1,0,-0.33,0,0,0,90,0,0,0,0,0,0,0,0,-0.004,0,0,3,0,0,0,69,0,0,0,90.39,1,-0.004,-0.012,0.0001,0.25,1,0.0001,0,0,0,0,0,0,1,1,0,0,VALID,0,0,0,0,0,1,0,0,0,0,0,0,0,0,0,0,0,0,0,0,193.09,513.92,2,0,0.08,0.08,141,14.29,0.08,0.06,9.2,LANDED,CF1-J,0:/Integrated Flight Computer/aircraft/cf1_j_cfg.ks (inferred preloaded)
9.6,TAKEOFF,TO_GROUND_ROLL,14.68,80,65.32,3.62,-0.08,-0.12,0.18,90.38,0.104,1,0,0,0,0,0,0,0,0,0,0,0,0,0,0,90.4,0,1,0,-0.32,0,0,0,90,0,0,0,0,0,0,0,0,-0.004,0,0,3,0,0,0,69,0,0,0,90.4,1,-0.004,-0.015,0.0001,0.25,1,0.0001,0,0,0,0,0,0,1,1,0,0,VALID,0,0,0,0,0,1,0,0,0,0,0,0,0,0,0,0,0,0,0,0,198.29,513.55,2,0,0.08,0.08,145,14.29,0.08,0.06,9.48,LANDED,CF1-J,0:/Integrated Flight Computer/aircraft/cf1_j_cfg.ks (inferred preloaded)
9.88,TAKEOFF,TO_GROUND_ROLL,15.69,80,64.31,3.62,-0.09,-0.12,0.19,90.38,0.106,1,0,0,0,0,0,0,0,0,0,0,0,0,0,0,90.39,0,1,0,-0.32,0,0,0,90,0,0,0,0,0,0,0,0,-0.005,0,0,3,0,0,0,69,0,0,0,90.39,1,-0.005,-0.012,0.0001,0.25,1,0.0001,0,0,0,0,0,0,1,1,0,0,VALID,0,0,0,0,0,1,0,0,0,0,0,0,0,0,0,0,0,0,0,0,203.4,513.16,2,0,0.08,0.08,149,14.29,0.08,0.06,9.76,LANDED,CF1-J,0:/Integrated Flight Computer/aircraft/cf1_j_cfg.ks (inferred preloaded)
10.16,TAKEOFF,TO_GROUND_ROLL,16.72,80,63.28,3.62,-0.09,-0.11,0.19,90.38,0.106,1,0,0,0,0,0,0,0,0,0,0,0,0,0,0,90.39,0,1,0,-0.32,0,0,0,90,0,0,0,0,0,0,0,0,-0.006,0,0,3,0,0,0,69,0,0,0,90.39,1,-0.006,-0.012,0.0001,0.25,1,0.0001,0,0,0,0,0,0,1,1,0,0,VALID,0,0,0,0,0,1,0,0,0,0,0,0,0,0,0,0,0,0,0,0,208.4,512.76,2,0,0.08,0.08,153,14.29,0.08,0.06,10.04,LANDED,CF1-J,0:/Integrated Flight Computer/aircraft/cf1_j_cfg.ks (inferred preloaded)
10.44,TAKEOFF,TO_GROUND_ROLL,17.78,80,62.22,3.62,-0.1,-0.11,0.19,90.38,0.104,1,0,0,0,0,0,0,0,0,0,0,0,0,0,0,90.39,0,1,0,-0.32,0,0,0.01,90,0,0,0,0,0,0,0,0,-0.006,0,0,3,0,0,0,69,0,0,0,90.39,1,-0.006,-0.013,0.0001,0.25,1,0.0001,0,0,0,0,0,0,1,1,0,0,VALID,0,0,0,0,0,1,0,0,0,0,0,0,0,0,0,0,0,0,0,0,213.29,512.33,2,0,0.08,0.08,157,14.29,0.08,0.06,10.32,LANDED,CF1-J,0:/Integrated Flight Computer/aircraft/cf1_j_cfg.ks (inferred preloaded)
10.72,TAKEOFF,TO_GROUND_ROLL,18.87,80,61.13,3.62,-0.11,-0.11,0.19,90.38,0.103,1,0,0,0,0,0,0,0,0,0,0,0,0,0,0,90.39,0,1,0,-0.32,0,0,0.01,90,0,0,0,0,0,0,0,0,-0.007,0,0,3,0,0,0,69,0,0,0,90.39,1,-0.007,-0.015,0.0001,0.25,1,0.0001,0,0,0,0,0,0,1,1,0,0,VALID,0,0,0,0,0,1,0,0,0,0,0,0,0,0,0,0,0,0,0,0,218.09,511.88,2,0,0.08,0.08,161,14.29,0.08,0.06,10.6,LANDED,CF1-J,0:/Integrated Flight Computer/aircraft/cf1_j_cfg.ks (inferred preloaded)
11,TAKEOFF,TO_GROUND_ROLL,19.97,80,60.03,3.62,-0.11,-0.11,0.19,90.38,0.104,1,0,0,0,0,0,0,0,0,0,0,0,0,0,0,90.39,0,1,0,-0.32,0,0,0.01,90,0,0,0,0,0,0,0,0,-0.008,0,0,3,0,0,0,69,0,0,0,90.39,1,-0.008,-0.01,0.0001,0.25,1,0.0001,0,0,0,0,0,0,1,1,0,0,VALID,0,0,0,0,0,1,0,0,0,0,0,0,0,0,0,0,0,0,0,0,222.78,511.42,2,0,0.08,0.08,165,14.29,0.08,0.06,10.88,LANDED,CF1-J,0:/Integrated Flight Computer/aircraft/cf1_j_cfg.ks (inferred preloaded)
11.28,TAKEOFF,TO_GROUND_ROLL,21.1,80,58.9,3.63,-0.12,-0.1,0.19,90.38,0.104,1,0,0,0,0,0,0,0,0,0,0,0,0,0,0,90.39,0,1,0,-0.32,0,0,0.01,90,0,0,0,0,0,0,0,0,-0.009,0,0,3,0,0,0,69,0,0,0,90.39,1,-0.009,-0.007,0,0.262,0,0,0,0,0,0,0,0,1,1,0,0,VALID,0,0,0,0,0,1,0,0,0,0,0,0,0,0,0,0,0,0,0,0,227.38,510.93,2,0,0.08,0.08,169,14.29,0.08,0.06,11.16,LANDED,CF1-J,0:/Integrated Flight Computer/aircraft/cf1_j_cfg.ks (inferred preloaded)
11.56,TAKEOFF,TO_GROUND_ROLL,22.25,80,57.75,3.63,-0.12,-0.1,0.19,90.38,0.102,1,0,0,0,0,0,0,0,0,0,0,0,0,0,0,90.39,0,1,0,-0.32,0,0,0.01,90,0,0,0,0,0,0,0,0,-0.01,0,0,3,0,0,0,69,0,0,0,90.39,1,-0.01,-0.01,0.0001,0.274,0,0.0001,0,0,0,0,0,0,1,1,0,0,VALID,0,0,0,0,0,1,0,0,0,0,0,0,0,0,0,0,0,0,0,0,231.88,510.42,2,0,0.08,0.08,173,14.29,0.08,0.06,11.44,LANDED,CF1-J,0:/Integrated Flight Computer/aircraft/cf1_j_cfg.ks (inferred preloaded)
11.84,TAKEOFF,TO_GROUND_ROLL,23.42,80,56.58,3.63,-0.13,-0.1,0.2,90.38,0.103,1,0,0,0,0,0,0,0,0,0,0,0,0,0,0,90.39,0,1,0,-0.32,0,0,0.01,90,0,0,0,0,0,0,0,0,-0.011,0,0,3,0,0,0,69,0,0,0,90.39,1,-0.011,-0.007,0.0001,0.287,0,0.0001,0,0,0,0,0,0,1,1,0,0,VALID,0,0,0,0,0,1,0,0,0,0,0,0,0,0,0,0,0,0,0,0,236.28,509.9,2,0,0.08,0.08,177,14.29,0.08,0.06,11.72,LANDED,CF1-J,0:/Integrated Flight Computer/aircraft/cf1_j_cfg.ks (inferred preloaded)
12.12,TAKEOFF,TO_GROUND_ROLL,24.62,80,55.38,3.63,-0.13,-0.1,0.2,90.38,0.103,1,0,0,0,0,0,0,0,0,0,0,0,0,0,0,90.39,0,1,0,-0.31,0,0,0.01,90,0,0,0,0,0,0,0,0,-0.012,0,0,3,0,0,0,69,0,0,0,90.39,1,-0.012,-0.001,0,0.299,0,0,0,0,0,0,0,0,1,1,0,0,VALID,0,0,0,0,0,1,0,0,0,0,0,0,0,0,0,0,0,0,0,0,240.58,509.35,2,0,0.08,0.08,181,14.29,0.08,0.06,12,LANDED,CF1-J,0:/Integrated Flight Computer/aircraft/cf1_j_cfg.ks (inferred preloaded)
12.4,TAKEOFF,TO_GROUND_ROLL,25.83,80,54.17,3.63,-0.14,-0.1,0.2,90.39,0.102,1,0,0,0,0,0,0,0,0,0,0,0,0,0,0,90.39,0,1,0,-0.31,0,0,0.01,90,0,0,0,0,0,0,0,0,-0.013,0,0,3,0,0,0,69,0,0,0,90.39,1,-0.013,0.001,0,0.312,0,0,0,0,0,0,0,0,1,1,0,0,VALID,0,0,0,0,0,1,0,0,0,0,0,0,0,0,0,0,0,0,0,0,244.79,508.78,2,0,0.08,0.08,185,14.29,0.08,0.06,12.28,LANDED,CF1-J,0:/Integrated Flight Computer/aircraft/cf1_j_cfg.ks (inferred preloaded)
12.68,TAKEOFF,TO_GROUND_ROLL,27.07,80,52.93,3.63,-0.15,-0.09,0.2,90.38,0.103,1,0,0,0,0,0,0,0,0,0,0,0,0,0,0,90.39,0,1,0,-0.31,0,0,0.01,90,0,0,0,0,0,0,0,0,-0.014,0,0,3,0,0,0,69,0,0,0,90.39,1,-0.014,-0.006,0,0.326,0,0,0,0,0,0,0,0,1,1,0,0,VALID,0,0,0,0,0,1,0,0,0,0,0,0,0,0,0,0,0,0,0,0,248.9,508.19,2,0,0.08,0.08,189,14.29,0.08,0.06,12.56,LANDED,CF1-J,0:/Integrated Flight Computer/aircraft/cf1_j_cfg.ks (inferred preloaded)
12.96,TAKEOFF,TO_GROUND_ROLL,28.32,80,51.68,3.63,-0.15,-0.09,0.2,90.38,0.105,1,0,0,0,0,0,0,0,0,0,0,0,0,0,0,90.39,0,1,0,-0.31,0,0,0.01,90,0,0,0,0,0,0,0,0,-0.015,0,0,3,0,0,0,69,0,0,0,90.39,1,-0.015,-0.009,0.0001,0.339,0,0.0001,0,0,0,0,0,0,1,1,0,0,VALID,0,0,0,0,0,1,0,0,0,0,0,0,0,0,0,0,0,0,0,0,252.92,507.58,2,0,0.08,0.08,193,14.29,0.08,0.06,12.84,LANDED,CF1-J,0:/Integrated Flight Computer/aircraft/cf1_j_cfg.ks (inferred preloaded)
13.24,TAKEOFF,TO_GROUND_ROLL,29.59,80,50.41,3.63,-0.16,-0.09,0.2,90.38,0.107,1,0,0,0,0,0,0,0,0,0,0,0,0,0,0,90.39,0,1,0,-0.31,0,0,0.01,90,0,0,0,0,0,0,0,0,-0.016,0,0,3,0,0,0,69,0,0,0,90.39,1,-0.016,-0.008,0.0001,0.353,0,0.0001,0,0,0,0,0,0,1,1,0,0,VALID,0,0,0,0,0,1,0,0,0,0,0,0,0,0,0,0,0,0,0,0,256.85,506.95,2,0,0.08,0.08,197,14.29,0.08,0.06,13.12,LANDED,CF1-J,0:/Integrated Flight Computer/aircraft/cf1_j_cfg.ks (inferred preloaded)
13.52,TAKEOFF,TO_GROUND_ROLL,30.88,80,49.12,3.63,-0.17,-0.09,0.21,90.37,0.106,1,0,0,0,0,0,0,0,0,0,0,0,0,0,0,90.39,0,1,0,-0.31,0,0,0.01,90,0,0,0,0,0,0,0,0,-0.017,0,0,3,0,0,0,69,0,0,0,90.39,1,-0.017,-0.013,0.0001,0.367,0,0.0001,0,0,0,0,0,0,1,1,0,0,VALID,0,0,0,0,0,1,0,0,0,0,0,0,0,0,0,0,0,0,0,0,260.68,506.3,2,0,0.08,0.08,201,14.29,0.08,0.06,13.4,LANDED,CF1-J,0:/Integrated Flight Computer/aircraft/cf1_j_cfg.ks (inferred preloaded)
13.8,TAKEOFF,TO_GROUND_ROLL,32.19,80,47.81,3.63,-0.17,-0.09,0.21,90.37,0.105,1,0,0,0,0,0,0,0,0,0,0,0,0,0,0,90.38,0,1,0,-0.31,0,0,0.01,90,0,0,0,0,0,0,0,0,-0.018,0,0,3,0,0,0,69,0,0,0,90.38,1,-0.018,-0.013,0.0001,0.381,0,0.0001,0,0,0,0,0,0,1,1,0,0,VALID,0,0,0,0,0,1,0,0,0,0,0,0,0,0,0,0,0,0,0,0,264.43,505.62,2,0,0.08,0.08,205,14.29,0.08,0.06,13.68,LANDED,CF1-J,0:/Integrated Flight Computer/aircraft/cf1_j_cfg.ks (inferred preloaded)
14.08,TAKEOFF,TO_GROUND_ROLL,33.52,80,46.48,3.63,-0.18,-0.08,0.21,90.37,0.103,1,0,0,0,0,0,0,0,0,0,0,0,0,0,0,90.38,0,1,0,-0.31,0,0,0.01,90,0,0,0,0,0,0,0,0,-0.02,0,0,3,0,0,0,69,0,0,0,90.38,1,-0.02,-0.011,0.0001,0.395,0,0.0001,0,0,0,0,0,0,1,1,0,0,VALID,0,0,0,0,0,1,0,0,0,0,0,0,0,0,0,0,0,0,0,0,268.08,504.93,2,0,0.08,0.08,209,14.29,0.08,0.06,13.96,LANDED,CF1-J,0:/Integrated Flight Computer/aircraft/cf1_j_cfg.ks (inferred preloaded)
14.36,TAKEOFF,TO_GROUND_ROLL,34.86,80,45.14,3.63,-0.19,-0.08,0.21,90.37,0.101,1,0,0,0,0,0,0,0,0,0,0,0,0,0,0,90.38,0,1,0,-0.31,0,0,0.02,90,0,0,0,0,0,0,0,0,-0.021,0,0,3,0,0,0,69,0,0,0,90.38,1,-0.021,-0.005,0.0001,0.409,0,0.0001,0,0,0,0,0,0,1,1,0,0,VALID,0,0,0,0,0,1,0,0,0,0,0,0,0,0,0,0,0,0,0,0,271.65,504.22,2,0,0.08,0.08,213,14.29,0.08,0.06,14.24,LANDED,CF1-J,0:/Integrated Flight Computer/aircraft/cf1_j_cfg.ks (inferred preloaded)
14.64,TAKEOFF,TO_GROUND_ROLL,36.22,80,43.78,3.63,-0.19,-0.08,0.21,90.37,0.1,1,0,0,0,0,0,0,0,0,0,0,0,0,0,0,90.38,0,1,0,-0.31,0,0,0.02,90,0,0,0,0,0,0,0,0,-0.022,0,0,3,0,0,0,69,0,0,0,90.38,1,-0.022,-0.003,0,0.424,0,0,0,0,0,0,0,0,1,1,0,0,VALID,0,0,0,0,0,1,0,0,0,0,0,0,0,0,0,0,0,0,0,0,275.12,503.48,2,0,0.08,0.08,217,14.29,0.08,0.06,14.52,LANDED,CF1-J,0:/Integrated Flight Computer/aircraft/cf1_j_cfg.ks (inferred preloaded)
14.92,TAKEOFF,TO_GROUND_ROLL,37.59,80,42.41,3.63,-0.2,-0.08,0.21,90.38,0.1,1,0,0,0,0,0,0,0,0,0,0,0,0,0,0,90.37,0,1,0,-0.3,0,0,0.02,90,0,0,0,0,0,0,0,0,-0.024,0,0,3,0,0,0,69,0,0,0,90.37,1,-0.024,0.004,0,0.438,0,0,0,0,0,0,0,0,1,1,0,0,VALID,0,0,0,0,0,1,0,0,0,0,0,0,0,0,0,0,0,0,0,0,278.51,502.73,2,0,0.08,0.08,221,14.29,0.08,0.06,14.8,LANDED,CF1-J,0:/Integrated Flight Computer/aircraft/cf1_j_cfg.ks (inferred preloaded)
15.2,TAKEOFF,TO_GROUND_ROLL,38.98,80,41.02,3.63,-0.21,-0.07,0.21,90.38,0.1,1,0,0,0,0,0,0,0,0,0,0,0,0,0,0,90.37,0,1,0,-0.3,0,0,0.02,90,0,0,0,0,0,0,0,0,-0.025,0,0,3,0,0,0,69,0,0,0,90.37,1,-0.025,0.008,-0.0001,0.453,0,-0.0001,0,0,0,0,0,0,1,1,0,0,VALID,0,0,0,0,0,1,0,0,0,0,0,0,0,0,0,0,0,0,0,0,281.82,501.95,2,0,0.08,0.08,225,14.29,0.08,0.06,15.08,LANDED,CF1-J,0:/Integrated Flight Computer/aircraft/cf1_j_cfg.ks (inferred preloaded)
15.48,TAKEOFF,TO_GROUND_ROLL,40.39,80,39.61,3.63,-0.21,-0.07,0.22,90.38,0.1,1,0,0,0,0,0,0,0,0,0,0,0,0,0,0,90.37,0,1,0,-0.3,0,0,0.02,90,0,0,0,0,0,0,0,0,-0.027,0,0,3,0,0,0,69,0,0,0,90.37,1,-0.027,0.004,-0.0001,0.468,0,-0.0001,0,0,0,0,0,0,1,1,0,0,VALID,0,0,0,0,0,1,0,0,0,0,0,0,0,0,0,0,0,0,0,0,285.04,501.15,2,0,0.08,0.08,229,14.29,0.08,0.06,15.36,LANDED,CF1-J,0:/Integrated Flight Computer/aircraft/cf1_j_cfg.ks (inferred preloaded)
15.76,TAKEOFF,TO_GROUND_ROLL,41.8,80,38.2,3.63,-0.22,-0.07,0.22,90.37,0.104,1,0,0,0,0,0,0,0,0,0,0,0,0,0,0,90.38,0,1,0,-0.3,0,0,0.02,90,0,0,0,0,0,0,0,0,-0.028,0,0,3,0,0,0,69,0,0,0,90.38,1,-0.028,0,0,0.484,0,0,0,0,0,0,0,0,1,1,0,0,VALID,0,0,0,0,0,1,0,0,0,0,0,0,0,0,0,0,0,0,0,0,288.17,500.34,2,0,0.08,0.08,233,14.29,0.08,0.06,15.64,LANDED,CF1-J,0:/Integrated Flight Computer/aircraft/cf1_j_cfg.ks (inferred preloaded)
16.04,TAKEOFF,TO_GROUND_ROLL,43.23,80,36.77,3.63,-0.23,-0.07,0.22,90.37,0.107,1,0,0,0,0,0,0,0,0,0,0,0,0,0,0,90.37,0,1,0,-0.3,0,0,0.02,90,0,0,0,0,0,0,0,0,-0.03,0,0,3,0,0,0,69,0,0,0,90.37,1,-0.03,0.001,0,0.499,0,0,0,0,0,0,0,0,1,1,0,0,VALID,0,0,0,0,0,1,0,0,0,0,0,0,0,0,0,0,0,0,0,0,291.22,499.5,2,0,0.08,0.08,237,14.29,0.08,0.06,15.92,LANDED,CF1-J,0:/Integrated Flight Computer/aircraft/cf1_j_cfg.ks (inferred preloaded)
16.32,TAKEOFF,TO_GROUND_ROLL,44.68,80,35.32,3.63,-0.23,-0.06,0.22,90.37,0.105,1,0,0,0,0,0,0,0,0,0,0,0,0,0,0,90.37,0,1,0,-0.3,0,0,0.02,90,0,0,0,0,0,0,0,0,-0.032,0,0,3,0,0,0,69,0,0,0,90.37,1,-0.032,0.004,-0.0001,0.514,0,-0.0001,0,0,0,0,0,0,1,1,0,0,VALID,0,0,0,0,0,1,0,0,0,0,0,0,0,0,0,0,0,0,0,0,294.19,498.65,2,0,0.08,0.08,241,14.29,0.08,0.06,16.2,LANDED,CF1-J,0:/Integrated Flight Computer/aircraft/cf1_j_cfg.ks (inferred preloaded)
16.6,TAKEOFF,TO_GROUND_ROLL,46.14,80,33.86,3.63,-0.24,-0.06,0.22,90.37,0.1,1,0,0,0,0,0,0,0,0,0,0,0,0,0,0,90.37,0,1,0,-0.3,0,0,0.02,90,0,0,0,0,0,0,0,0,-0.034,0,0,3,0,0,0,69,0,0,0,90.37,1,-0.034,0.007,-0.0001,0.53,0,-0.0001,0,0,0,0,0,0,1,1,0,0,VALID,0,0,0,0,0,1,0,0,0,0,0,0,0,0,0,0,0,0,0,0,297.08,497.78,2,0,0.08,0.08,245,14.29,0.08,0.06,16.48,LANDED,CF1-J,0:/Integrated Flight Computer/aircraft/cf1_j_cfg.ks (inferred preloaded)
16.88,TAKEOFF,TO_GROUND_ROLL,47.61,80,32.39,3.63,-0.25,-0.06,0.22,90.37,0.096,1,0,0,0,0,0,0,0,0,0,0,0,0,0,0,90.36,0,1,0,-0.3,0,0,0.03,90,0,0,0,0,0,0,0,0,-0.035,0,0,3,0,0,0,69,0,0,0,90.36,1,-0.035,0.011,-0.0002,0.546,0,-0.0002,0,0,0,0,0,0,1,1,0,0,VALID,0,0,0,0,0,1,0,0,0,0,0,0,0,0,0,0,0,0,0,0,299.89,496.89,2,0,0.08,0.08,249,14.29,0.08,0.06,16.76,LANDED,CF1-J,0:/Integrated Flight Computer/aircraft/cf1_j_cfg.ks (inferred preloaded)
17.16,TAKEOFF,TO_GROUND_ROLL,49.09,80,30.91,3.64,-0.25,-0.05,0.22,90.38,0.096,1,0,0,0,0,0,0,0,0,0,0,0,0,0,0,90.36,0,1,0,-0.29,0,0,0.03,90,0,0,0,0,0,0,0,0,-0.037,0,0,3,0,0,0,69,0,0,0,90.36,1,-0.037,0.017,-0.0002,0.562,0,-0.0002,0,0,0,0,0,0,1,1,0,0,VALID,0,0,0,0,0,1,0,0,0,0,0,0,0,0,0,0,0,0,0,0,302.62,495.98,2,0,0.08,0.08,253,14.29,0.08,0.06,17.04,LANDED,CF1-J,0:/Integrated Flight Computer/aircraft/cf1_j_cfg.ks (inferred preloaded)
17.44,TAKEOFF,TO_GROUND_ROLL,50.58,80,29.42,3.64,-0.26,-0.05,0.22,90.38,0.097,1,0,0,0,0,0,0,0,0,0,0,0,0,0,0,90.36,0,1,0,-0.29,0,0,0.03,90,0,0,0,0,0,0,0,0,-0.039,0,0,3,0,0,0,69,0,0,0,90.36,1,-0.039,0.024,-0.0004,0.578,0,-0.0004,0,0,0,0,0,0,1,1,0,0,VALID,0,0,0,0,0,1,0,0,0,0,0,0,0,0,0,0,0,0,0,0,305.28,495.05,2,0,0.08,0.08,257,14.29,0.08,0.06,17.32,LANDED,CF1-J,0:/Integrated Flight Computer/aircraft/cf1_j_cfg.ks (inferred preloaded)
17.72,TAKEOFF,TO_GROUND_ROLL,52.08,80,27.92,3.64,-0.26,-0.04,0.23,90.39,0.096,1,0,0,0,0,0,0,0,0,0,0,0,0,0,0,90.35,0,1,0,-0.29,0,0,0.03,90,0,0,0,0,0,0,0,0,-0.041,0,0,3,0,0,0,69,0,0,0,90.35,1,-0.041,0.032,-0.0005,0.594,0,-0.0005,0,0,0,0,0,0,1,1,0,0,VALID,0,0,0,0,0,1,0,0,0,0,0,0,0,0,0,0,0,0,0,0,307.86,494.11,2,0,0.08,0.08,261,14.29,0.08,0.06,17.6,LANDED,CF1-J,0:/Integrated Flight Computer/aircraft/cf1_j_cfg.ks (inferred preloaded)
18,TAKEOFF,TO_GROUND_ROLL,53.6,80,26.4,3.64,-0.27,-0.02,0.25,90.39,0.094,1,0,0,0,0,0,0,0,0,0,0,0,0,0,0,90.35,0,1,0,-0.29,0,0,0.03,90,0,0,0,0,0,0,0,0,-0.043,0,0,3,0,0,0,69,0,0,0,90.35,1,-0.043,0.041,-0.0007,0.61,0,-0.0007,0,0,0,0,0,0,1,1,0,0,VALID,0,0,0,0,0,1,0,0,0,0,0,0,0,0,0,0,0,0,0,0,310.36,493.15,2,0,0.08,0.08,265,14.29,0.08,0.06,17.88,LANDED,CF1-J,0:/Integrated Flight Computer/aircraft/cf1_j_cfg.ks (inferred preloaded)
18.28,TAKEOFF,TO_GROUND_ROLL,55.12,80,24.88,3.65,-0.27,0.03,0.29,90.4,0.091,1,0,0,0,0,0,0,0,0,0,0,0,0,0,0,90.35,0,1,0,-0.28,0,0,0.03,90,0,0,0,0,0,0,0,0,-0.046,0,0,3,0,0,0,69,0,0,0,90.35,1,-0.046,0.05,-0.0009,0.626,0,-0.0009,0,0,0,0,0,0,1,1,0,0,VALID,0,0,0,0,0,1,0,0,0,0,0,0,0,0,0,0,0,0,0,0,312.79,492.18,2,0,0.08,0.08,269,14.29,0.08,0.06,18.16,LANDED,CF1-J,0:/Integrated Flight Computer/aircraft/cf1_j_cfg.ks (inferred preloaded)
18.56,TAKEOFF,TO_GROUND_ROLL,56.65,80,23.35,3.67,-0.21,0.09,0.31,90.41,0.09,1,0,0,0,0,0,0,0,0,0,0,0,0,0,0,90.35,0,1,0,-0.21,0,0,0.03,90,0,0,0,0,0,0,0,0,-0.048,0,0,3,0,0,0,69,0,0,0,90.35,1,-0.048,0.058,-0.001,0.643,0,-0.001,0,0,0,0,0,0,1,1,0,0,VALID,0,0,0,0,0,1,0,0,0,0,0,0,0,0,0,0,0,0,0,0,315.15,491.19,2,0,0.08,0.08,273,14.29,0.08,0.06,18.44,LANDED,CF1-J,0:/Integrated Flight Computer/aircraft/cf1_j_cfg.ks (inferred preloaded)
18.84,TAKEOFF,TO_GROUND_ROLL,58.19,80,21.81,3.69,-0.33,0.19,0.49,90.41,0.091,1,0,0,0,0,0,0,0,0,0,0,0,0,0,0,90.34,0,1,0,-0.32,0,0,0.04,90,0,0,0,0,0,0,0,0,-0.05,0,0,3,0,0,0,69,0,0,0,90.34,1,-0.05,0.069,-0.0013,0.659,0,-0.0013,0,0,0,0,0,0,1,1,0,0,VALID,0,0,0,0,0,1,0,0,0,0,0,0,0,0,0,0,0,0,0,0,317.43,490.18,2,0,0.08,0.08,277,14.29,0.08,0.06,18.72,LANDED,CF1-J,0:/Integrated Flight Computer/aircraft/cf1_j_cfg.ks (inferred preloaded)
19.12,TAKEOFF,TO_GROUND_ROLL,59.74,80,20.26,3.71,-0.27,0.31,0.54,90.42,0.092,1,0,0,0,0,0,0,0,0,0,0,0,0,0,0,90.34,0,1,0,-0.26,0,0,0.04,90,0,0,0,0,0,0,0,0,-0.053,0,0,3,0,0,0,69,0,0,0,90.34,1,-0.053,0.078,-0.0015,0.676,0,-0.0015,0,0,0,0,0,0,1,1,0,0,VALID,0,0,0,0,0,1,0,0,0,0,0,0,0,0,0,0,0,0,0,0,319.65,489.16,2,0,0.08,0.08,281,14.29,0.08,0.06,19,LANDED,CF1-J,0:/Integrated Flight Computer/aircraft/cf1_j_cfg.ks (inferred preloaded)
19.4,TAKEOFF,TO_GROUND_ROLL,61.29,80,18.71,3.73,-0.29,0.41,0.67,90.43,0.092,1,0,0,0,0,0,0,0,0,0,0,0,0,0,0,90.34,0,1,0,-0.27,0,0,0.04,90,0,0,0,0,0,0,0,0,-0.056,0,0,3,0,0,0,69,0,0,0,90.34,1,-0.056,0.088,-0.0018,0.692,0,-0.0018,0,0,0,0,0,0,1,1,0,0,VALID,0,0,0,0,0,1,0,0,0,0,0,0,0,0,0,0,0,0,0,0,321.79,488.13,2,0,0.08,0.08,285,14.29,0.08,0.06,19.28,LANDED,CF1-J,0:/Integrated Flight Computer/aircraft/cf1_j_cfg.ks (inferred preloaded)
19.68,TAKEOFF,TO_GROUND_ROLL,62.85,80,17.15,3.74,-0.3,0.49,0.75,90.43,0.09,1,0,0,0,0,0,0,0,0,0,0,0,0,0,0,90.34,0,1,0,-0.28,0,0,0.04,90,0,0,0,0,0,0,0,0,-0.058,0,0,3,0,0,0,69,0,0,0,90.34,1,-0.058,0.096,-0.002,0.709,0,-0.002,0,0,0,0,0,0,1,1,0,0,VALID,0,0,0,0,0,1,0,0,0,0,0,0,0,0,0,0,0,0,0,0,323.88,487.09,2,0,0.08,0.08,289,14.29,0.08,0.06,19.56,LANDED,CF1-J,0:/Integrated Flight Computer/aircraft/cf1_j_cfg.ks (inferred preloaded)
19.96,TAKEOFF,TO_GROUND_ROLL,64.41,80,15.59,3.75,-0.31,0.54,0.8,90.44,0.09,1,0,0,0,0,0,0,0,0,0,0,0,0,0,0,90.33,0,1,0,-0.27,0,0,0.04,90,0,0,0,0,0,0,0,0,-0.061,0,0,3,0,0,0,69,0,0,0,90.33,1,-0.061,0.105,-0.0023,0.726,0,-0.0023,0,0,0,0,0,0,1,1,0,0,VALID,0,0,0,0,0,1,0,0,0,0,0,0,0,0,0,0,0,0,0,0,325.89,486.03,2,0,0.08,0.08,293,14.29,0.08,0.06,19.84,LANDED,CF1-J,0:/Integrated Flight Computer/aircraft/cf1_j_cfg.ks (inferred preloaded)
20.24,TAKEOFF,TO_GROUND_ROLL,65.98,80,14.02,3.76,-0.31,0.57,0.82,90.45,0.09,1,0,0,0,0,0,0,0,0,0,0,0,0,0,0,90.33,0,1,0,-0.27,0,0,0.05,90,0,0,0,0,0,0,0,0,-0.064,0,0,3,0,0,0,69,0,0,0,90.33,1,-0.064,0.113,-0.0026,0.743,0,-0.0026,0,0,0,0,0,0,1,1,0,0,VALID,0,0,0,0,0,1,0,0,0,0,0,0,0,0,0,0,0,0,0,0,327.84,484.97,2,0,0.08,0.08,297,14.29,0.08,0.06,20.12,LANDED,CF1-J,0:/Integrated Flight Computer/aircraft/cf1_j_cfg.ks (inferred preloaded)
20.52,TAKEOFF,TO_GROUND_ROLL,67.55,80,12.45,3.77,-0.32,0.6,0.86,90.45,0.091,1,0,0,0,0,0,0,0,0,0,0,0,0,0,0,90.33,0,1,0,-0.27,0,0,0.05,90,0,0,0,0,0,0,0,0,-0.067,0,0,3,0,0,0,69,0,0,0,90.33,1,-0.067,0.121,-0.0028,0.76,0,-0.0028,0,0,0,0,0,0,1,1,0,0,VALID,0,0,0,0,0,1,0,0,0,0,0,0,0,0,0,0,0,0,0,0,329.73,483.89,2,0,0.08,0.08,301,14.29,0.08,0.06,20.4,LANDED,CF1-J,0:/Integrated Flight Computer/aircraft/cf1_j_cfg.ks (inferred preloaded)
20.8,TAKEOFF,TO_GROUND_ROLL,69.13,80,10.87,3.78,-0.3,0.62,0.81,90.45,0.091,1,0,0,0,0,0,0,0,0,0,0,0,0,0,0,90.33,0,1,0,-0.25,0,0,0.05,90,0,0,0,0,0,0,0,0,-0.07,0,0,3,0,0,0,69,0,0,0,90.33,1,-0.07,0.128,-0.0031,0.776,0,-0.0031,0,0,0,0,0,0,1,1,0,0,VALID,0,0,0,0,0,1,0,0,0,0,0,0,0,0,0,0,0,0,0,0,331.56,482.8,2,0,0.08,0.08,305,14.29,0.08,0.06,20.68,LANDED,CF1-J,0:/Integrated Flight Computer/aircraft/cf1_j_cfg.ks (inferred preloaded)
21.1,TAKEOFF,TO_ROTATE,70.83,80,9.17,3.79,-0.26,0.72,0.93,90.46,0.091,1,0,0,0,0,0,0,0,0,0,0,0,0,0,0,90.32,0.942,1,0,-0.22,0,0,0.05,90,0,0,0,0,0,0,0,0,-0.074,0,0,3,0,0,0,69,0,0,0,90.32,1,-0.074,0.133,-0.0034,0.793,0,-0.0034,0,0.12,0.942,0.219,0.08,0,1,1,0,0,VALID,0,0,0,0,0,1,0,0,0,0,0,0,0,0,0,0,0,0,0,0,333.45,481.63,2,0,0.08,0.08,309,13.33,0.08,0.06,20.96,LANDED,CF1-J,0:/Integrated Flight Computer/aircraft/cf1_j_cfg.ks (inferred preloaded)
21.38,TAKEOFF,TO_ROTATE,72.41,80,7.59,3.81,-0.35,0.83,1.1,90.46,0.091,1,0,0,0,0,0,0,0,0,0,0,0,0,0,0,90.32,1.782,1,0,-0.28,0,0,0.05,90,0,0,0,0,0,0,0,0,-0.077,0,0,3,0,0,0,69,0,0,0,90.32,1,-0.077,0.14,-0.0036,0.81,0,-0.0036,0,0.1564,1.782,0.955,0.08,0,1,1,0,0,VALID,0,0,0,0,0,1,0,0,0,0,0,0,0,0,0,0,0,0,0,0,335.15,480.53,2,0,0.08,0.08,313,14.29,0.08,0.06,21.24,LANDED,CF1-J,0:/Integrated Flight Computer/aircraft/cf1_j_cfg.ks (inferred preloaded)
21.68,TAKEOFF,TO_ROTATE,74.11,80,5.89,3.85,-0.33,1.03,1.26,90.46,0.09,1,0,0,0,0,0,0,0,0,0,0,0,0,0,0,90.32,2.682,1,0,-0.25,0,0,0.06,90,0,0,0,0,0,0,0,0,-0.081,0,0,3,0,0,0,69,0,0,0,90.32,1,-0.081,0.147,-0.0039,0.829,0,-0.0039,0,0.2125,2.682,1.656,0.08,0,1,1,0,0,VALID,0,0,0,0,0,1,0,0,0,0,0,0,0,0,0,0,0,0,0,0,336.91,479.35,2,0,0.08,0.08,317,13.33,0.08,0.06,21.54,LANDED,CF1-J,0:/Integrated Flight Computer/aircraft/cf1_j_cfg.ks (inferred preloaded)
21.96,TAKEOFF,TO_ROTATE,75.69,80,4.31,3.9,-0.3,1.29,1.52,90.47,0.088,1,0,0,0,0,0,0,0,0,0,0,0,0,0,0,90.31,3.522,1,0,-0.23,0,0,0.06,90,0,0,0,0,0,0,0,0,-0.084,0,0,3,0,0,0,69,0,0,0,90.31,1,-0.084,0.152,-0.0042,0.846,0,-0.0042,0,0.2582,3.522,2.227,0.08,0,1,1,0,0,VALID,0,0,0,0,0,1,0,0,0,0,0,0,0,0,0,0,0,0,0,0,338.51,478.24,2,0,0.08,0.08,321,14.29,0.08,0.06,21.82,LANDED,CF1-J,0:/Integrated Flight Computer/aircraft/cf1_j_cfg.ks (inferred preloaded)
22.24,TAKEOFF,TO_ROTATE,77.27,80,2.73,3.97,-0.27,1.65,1.84,90.47,0.082,1,0,0,0,0,0,0,0,0,0,0,0,0,0,0,90.31,4.362,1,0,-0.2,0,0,0.06,90,0,0,0,0,0,0,0,0,-0.088,0,0,3,0,0,0,69,0,0,0,90.31,1,-0.088,0.157,-0.0044,0.862,0,-0.0044,0,0.2971,4.362,2.714,0.08,0,1,1,0,0,VALID,0,0,0,0,0,1,0,0,0,0,0,0,0,0,0,0,0,0,0,0,340.05,477.13,2,0,0.08,0.08,325,14.29,0.08,0.06,22.1,LANDED,CF1-J,0:/Integrated Flight Computer/aircraft/cf1_j_cfg.ks (inferred preloaded)
22.52,TAKEOFF,TO_ROTATE,78.83,80,1.17,4.1,-0.36,2.16,2.39,90.47,0.082,1,0,0,0,0,0,0,0,0,0,0,0,0,0,0,90.31,5.202,1,0,-0.24,0,0,0.06,90,0,0,0,0,0,0,0,0,-0.092,0,0,3,0,0,0,69,0,0,0,90.31,1,-0.092,0.163,-0.0047,0.879,0,-0.0047,0,0.3233,5.202,3.042,0.08,0,1,1,0,0,VALID,0,0,0,0,0,1,0,0,0,0,0,0,0,0,0,0,0,0,0,0,341.54,476.02,2,0,0.08,0.08,329,14.29,0.08,0.06,22.38,LANDED,CF1-J,0:/Integrated Flight Computer/aircraft/cf1_j_cfg.ks (inferred preloaded)
22.8,TAKEOFF,TO_ROTATE,80.38,80,-0.38,4.27,-0.14,3.03,3.12,90.47,0.086,1,0,0,0,0,0,0,0,0,0,0,0,0,0,0,90.3,6.042,1,0,-0.1,0,0,0.06,90,0,0,0,0,0,0,0,0,-0.095,0,0,3,0,0,0,69,0,0,0,90.3,1,-0.095,0.167,-0.005,0.896,0,-0.005,0,0.321,6.042,3.013,0.08,0,1,1,0,0,VALID,0,0,0,0,0,1,0,0,0,0,0,0,0,0,0,0,0,0,0,0,342.99,474.93,2,0,0.08,0.08,333,14.29,0.08,0.06,22.66,LANDED,CF1-J,0:/Integrated Flight Computer/aircraft/cf1_j_cfg.ks (inferred preloaded)
23.08,TAKEOFF,TO_ROTATE,81.88,80,-1.88,4.49,-0.23,4.13,4.29,90.47,0.084,1,0,0,0,0,0,0,0,0,0,0,0,0,0,0,90.3,6.882,1,0,-0.17,0,0,0.07,90,0,0,0,0,0,0,0,0,-0.099,0,0,3,0,0,0,69,0,0,0,90.3,1,-0.099,0.17,-0.0052,0.912,0,-0.0052,0,0.3005,6.882,2.756,0.08,0,1,1,0,0,VALID,0,0,0,0,0,1,0,0,0,0,0,0,0,0,0,0,0,0,0,0,344.41,473.86,2,0,0.08,0.08,337,14.29,0.08,0.06,22.94,LANDED,CF1-J,0:/Integrated Flight Computer/aircraft/cf1_j_cfg.ks (inferred preloaded)
23.36,TAKEOFF,TO_ROTATE,83.32,80,-3.32,4.74,-0.04,5.33,5.37,90.47,0.064,1,0,0,0,0,0,0,0,0,0,0,0,0,0,0,90.3,7.722,1,0,-0.05,0,0,0.07,90,0,0,0,0,0,0,0,0,-0.103,0,0,3,0,0,0,69,0,0,0,90.3,1,-0.103,0.17,-0.0053,0.927,0,-0.0053,0,0.2714,7.722,2.392,0.08,0,1,1,0,0,VALID,0,0,0,0,0,1,0,0,0,0,0,0,0,0,0,0,0,0,0,0,345.82,472.83,2,0,0.08,0.08,341,14.29,0.08,0.06,23.22,LANDED,CF1-J,0:/Integrated Flight Computer/aircraft/cf1_j_cfg.ks (inferred preloaded)
23.62,TAKEOFF,TO_ROTATE,84.59,80,-4.59,5.03,0.57,6.22,5.86,90.47,-0.001,1,0,0,0,0,0,0,0,0,0,0,0,0,0,0,90.4,8.562,0,1,0.39,0,0,8.32,90.4,-0.4496,-0.0068,0.8932,8.56,90.4,0,0,0,0,0,0,3,0,0,0,69,0,0,0,90.4,1,0,0.071,0,0,3,0,0,0,8.562,2.339,0,0,1,1,0,0,VALID,0,0,0,0,0,1,0,0,0,0,0,0,0,0,0,0,0,0,0,0,347.11,471.91,2,0,0.08,0.08,345,15.38,0.08,0.06,23.48,FLYING,CF1-J,0:/Integrated Flight Computer/aircraft/cf1_j_cfg.ks (inferred preloaded)
23.9,TAKEOFF,TO_ROTATE,85.91,80,-5.91,5.44,1.24,6.53,5.74,90.47,-0.026,1,0,0,0,0,0,0,0,0,0,0,0,0,0,0,90.4,9.402,0,1,0.83,0,0,9.16,90.4,-0.4365,-0.0068,0.8997,9.4,90.4,0,0,0,0,0,0,3,0,0,0,69,0,0,0,90.4,1,0,0.065,0,0,3,0,0,0,9.402,2.869,0,0,1,1,0,0,VALID,0,0,0,0,0,1,0,0,0,0,0,0,0,0,0,0,0,0,0,0,348.48,470.95,2,0,0.08,0.08,349,14.29,0.08,0.06,23.76,FLYING,CF1-J,0:/Integrated Flight Computer/aircraft/cf1_j_cfg.ks (inferred preloaded)
24.18,TAKEOFF,TO_CLIMB,87.21,80,-7.21,6.08,2,7.02,5.76,90.46,-0.035,1,0,0,0,0,0,0,0,0,0,0,0,0,0,0,90.4,10,0,1,1.31,0,0,10,90.4,-0.4272,-0.0067,0.9042,10,90.4,0,0,0,0,0,0,3,0,0,0,69,0,0,0,90.4,1,0,0.063,0,0,3,0,0,0,10,2.977,0,0,1,1,0,0,VALID,0,0,0,0,0,1,0,0,0,0,0,0,0,0,0,0,0,0,0,0,349.8,469.99,2,0,0.08,0.08,353,14.29,0.08,0.06,24.04,FLYING,CF1-J,0:/Integrated Flight Computer/aircraft/cf1_j_cfg.ks (inferred preloaded)
24.46,TAKEOFF,TO_CLIMB,88.48,80,-8.48,6.92,2.99,7.27,5.49,90.46,-0.045,0.9152,0,0,0,0,0,0,0,0,0,0,0,0,0,0,90.4,7.471,0,1,1.93,0,0,7.34,90.4,-0.4667,-0.0068,0.8844,7.47,90.4,0,0,0,0,0,0,3,0,0,0,69,0,0,0,90.4,1,0,0.061,0,0,3,0,0,0,10,2.977,0,0,1,1,0,0,VALID,0,0,0,0,0,1,0,0,0,0,0,0,0,0,0,0,0,0,0,0,350.86,469.03,2,0,0.08,0.08,357,14.29,0.08,0.06,24.32,FLYING,CF1-J,0:/Integrated Flight Computer/aircraft/cf1_j_cfg.ks (inferred preloaded)
24.74,TAKEOFF,TO_CLIMB,89.73,80,-9.73,7.86,3.65,6.53,4.33,90.46,-0.051,0.9027,0,0,0,0,0,0,0,0,0,0,0,0,0,0,90.4,7.919,0,1,2.33,0,0,7.79,90.4,-0.4598,-0.0068,0.888,7.92,90.4,0,0,0,0,0,0,3,0,0,0,69,0,0,0,90.4,1,0,0.058,0,0,3,0,0,0,10,2.977,0,0,1,1,0,0,VALID,0,0,0,0,0,1,0,0,0,0,0,0,0,0,0,0,0,0,0,0,351.42,468.07,2,0,0.08,0.08,361,14.29,0.08,0.06,24.6,FLYING,CF1-J,0:/Integrated Flight Computer/aircraft/cf1_j_cfg.ks (inferred preloaded)
25.02,TAKEOFF,TO_CLIMB,91.04,80,-11.04,9.07,4.11,6.68,4.19,90.46,-0.052,0.8896,0,0,0,0,0,0,0,0,0,0,0,0,0,0,90.4,8,0,1,2.58,0,0,8,90.4,-0.4586,-0.0068,0.8886,8,90.4,0,0,0,0,0,0,3,0,0,0,69,0,0,0,90.4,1,0,0.056,0,0,3,0,0,0,10,2.977,0,0,1,1,0,0,VALID,0,0,0,0,0,1,0,0,0,0,0,0,0,0,0,0,0,0,0,0,351.82,467.06,2,0,0.08,0.08,365,14.29,0.08,0.06,24.88,FLYING,CF1-J,0:/Integrated Flight Computer/aircraft/cf1_j_cfg.ks (inferred preloaded)
25.3,TAKEOFF,TO_CLIMB,92.33,80,-12.33,10.5,4.76,7.24,4.41,90.45,-0.065,0.8767,0,0,0,0,0,0,0,0,0,0,0,0,0,0,90.4,8,0,1,2.95,0,0,8,90.4,-0.4586,-0.0068,0.8886,8,90.4,0,0,0,0,0,0,3,0,0,0,69,0,0,0,90.4,1,0,0.053,0,0,3,0,0,0,10,2.977,0,0,1,1,0,0,VALID,0,0,0,0,0,1,0,0,0,0,0,0,0,0,0,0,0,0,0,0,352.1,466.05,2,0,0.08,0.08,369,14.29,0.08,0.06,25.16,FLYING,CF1-J,0:/Integrated Flight Computer/aircraft/cf1_j_cfg.ks (inferred preloaded)
25.58,TAKEOFF,TO_CLIMB,93.59,80,-13.59,12.07,5.54,7.35,4.1,90.45,-0.075,0.8641,0,0,0,0,0,0,0,0,0,0,0,0,0,0,90.4,8,0,1,3.39,0,0,8,90.4,-0.4586,-0.0068,0.8886,8,90.4,0,0,0,0,0,0,3,0,0,0,69,0,0,0,90.4,1,0,0.049,0,0,3,0,0,0,10,2.977,0,0,1,1,0,0,VALID,0,0,0,0,0,1,0,0,0,0,0,0,0,0,0,0,0,0,0,0,352.26,465.05,2,0,0.08,0.08,373,14.29,0.08,0.06,25.44,FLYING,CF1-J,0:/Integrated Flight Computer/aircraft/cf1_j_cfg.ks (inferred preloaded)
25.86,TAKEOFF,TO_CLIMB,94.83,80,-14.83,13.84,6.26,7.36,3.74,90.45,-0.082,0.8517,0,0,0,0,0,0,0,0,0,0,0,0,0,0,90.4,8,0,1,3.78,0,0,8,90.4,-0.4587,-0.0068,0.8886,8,90.4,0,0,0,0,0,0,3,0,0,0,69,0,0,0,90.4,1,0,0.046,0,0,3,0,0,0,10,2.977,0,0,1,1,0,0,VALID,0,0,0,0,0,1,0,0,0,0,0,0,0,0,0,0,0,0,0,0,352.31,464.05,2,0,0.08,0.08,377,14.29,0.08,0.06,25.72,FLYING,CF1-J,0:/Integrated Flight Computer/aircraft/cf1_j_cfg.ks (inferred preloaded)
26.14,TAKEOFF,TO_CLIMB,96.08,80,-16.08,15.78,6.9,7.24,3.3,90.44,-0.084,0.8392,0,0,0,0,0,0,0,0,0,0,0,0,0,0,90.4,8,0,1,4.11,0,0,8,90.4,-0.4587,-0.0068,0.8885,8,90.4,0,0,0,0,0,0,3,0,0,0,69,0,0,0,90.4,1,0,0.043,0,0,3,0,0,0,10,2.977,0,0,1,1,0,0,VALID,0,0,0,0,0,1,0,0,0,0,0,0,0,0,0,0,0,0,0,0,352.23,463.03,2,0,0.08,0.08,381,14.29,0.08,0.06,26,FLYING,CF1-J,0:/Integrated Flight Computer/aircraft/cf1_j_cfg.ks (inferred preloaded)
26.42,TAKEOFF,TO_CLIMB,97.33,80,-17.33,17.87,7.45,7.08,2.88,90.44,-0.084,0.8267,0,0,0,0,0,0,0,0,0,0,0,0,0,0,90.4,8,0,1,4.38,0,0,8,90.4,-0.4588,-0.0068,0.8885,8,90.4,0,0,0,0,0,0,3,0,0,0,69,0,0,0,90.4,1,0,0.041,0,0,3,0,0,0,10,2.977,0,0,1,1,0,0,VALID,0,0,0,0,0,1,0,0,0,0,0,0,0,0,0,0,0,0,0,0,352.03,462,2,0,0.08,0.08,385,14.29,0.08,0.06,26.28,FLYING,CF1-J,0:/Integrated Flight Computer/aircraft/cf1_j_cfg.ks (inferred preloaded)
26.7,TAKEOFF,TO_CLIMB,98.58,80,-18.58,20.1,7.87,6.95,2.55,90.44,-0.084,0.8142,0,0,0,0,0,0,0,0,0,0,0,0,0,0,90.4,8,0,1,4.56,0,0,8,90.4,-0.4588,-0.0068,0.8885,8,90.4,0,0,0,0,0,0,3,0,0,0,69,0,0,0,90.4,1,0,0.038,0,0,3,0,0,0,10,2.977,0,0,1,1,0,0,VALID,0,0,0,0,0,1,0,0,0,0,0,0,0,0,0,0,0,0,0,0,351.72,460.97,2,0,0.08,0.08,389,14.29,0.08,0.06,26.56,FLYING,CF1-J,0:/Integrated Flight Computer/aircraft/cf1_j_cfg.ks (inferred preloaded)
26.98,TAKEOFF,TO_CLIMB,99.83,80,-19.83,22.47,8.28,6.94,2.36,90.44,-0.082,0.8017,0,0,0,0,0,0,0,0,0,0,0,0,0,0,90.4,8,0,1,4.74,0,0,8,90.4,-0.4589,-0.0068,0.8885,8,90.4,0,0,0,0,0,0,3,0,0,0,69,0,0,0,90.4,1,0,0.036,0,0,3,0,0,0,10,2.977,0,0,1,1,0,0,VALID,0,0,0,0,0,1,0,0,0,0,0,0,0,0,0,0,0,0,0,0,351.29,459.92,2,0,0.08,0.08,393,14.29,0.08,0.06,26.84,FLYING,CF1-J,0:/Integrated Flight Computer/aircraft/cf1_j_cfg.ks (inferred preloaded)
27.26,TAKEOFF,TO_CLIMB,101.08,80,-21.08,24.95,8.7,6.94,2.19,90.43,-0.083,0.7892,0,0,0,0,0,0,0,0,0,0,0,0,0,0,90.4,8,0,1,4.92,0,0,8,90.4,-0.4589,-0.0068,0.8885,8,90.4,0,0,0,0,0,0,3,0,0,0,69,0,0,0,90.4,1,0,0.033,0,0,3,0,0,0,10,2.977,0,0,1,1,0,0,VALID,0,0,0,0,0,1,0,0,0,0,0,0,0,0,0,0,0,0,0,0,350.76,458.88,2,0,0.08,0.08,397,14.29,0.08,0.06,27.12,FLYING,CF1-J,0:/Integrated Flight Computer/aircraft/cf1_j_cfg.ks (inferred preloaded)
27.54,TAKEOFF,TO_CLIMB,102.32,80,-22.32,27.55,9.11,6.94,2.03,90.43,-0.082,0.78,0,0,0,0,0,0,0,0,0,0,0,0,0,0,90.4,8,0,1,5.09,0,0,8,90.4,-0.4589,-0.0068,0.8884,8,90.4,0,0,0,0,0,0,3,0,0,0,69,0,0,0,90.4,1,0,0.031,0,0,3,0,0,0,10,2.977,0,0,1,1,0,0,VALID,0,0,0,0,0,1,0,0,0,0,0,0,0,0,0,0,0,0,0,0,350.14,457.84,2,0,0.08,0.08,401,14.29,0.08,0.06,27.4,FLYING,CF1-J,0:/Integrated Flight Computer/aircraft/cf1_j_cfg.ks (inferred preloaded)
27.82,TAKEOFF,TO_CLIMB,103.54,80,-23.54,30.27,9.52,6.95,1.87,90.43,-0.078,0.78,0,0,0,0,0,0,0,0,0,0,0,0,0,0,90.4,8,0,1,5.25,0,0,8,90.4,-0.459,-0.0068,0.8884,8,90.4,0,0,0,0,0,0,3,0,0,0,69,0,0,0,90.4,1,0,0.029,0,0,3,0,0,0,10,2.977,0,0,1,1,0,0,VALID,0,0,0,0,0,1,0,0,0,0,0,0,0,0,0,0,0,0,0,0,349.46,456.79,2,0,0.08,0.08,405,14.29,0.08,0.06,27.68,FLYING,CF1-J,0:/Integrated Flight Computer/aircraft/cf1_j_cfg.ks (inferred preloaded)
28.1,TAKEOFF,TO_CLIMB,104.76,80,-24.76,33.1,9.92,6.95,1.72,90.43,-0.076,0.78,0,0,0,0,0,0,0,0,0,0,0,0,0,0,90.4,8,0,1,5.41,0,0,8,90.4,-0.459,-0.0068,0.8884,8,90.4,0,0,0,0,0,0,3,0,0,0,69,0,0,0,90.4,1,0,0.027,0,0,3,0,0,0,10,2.977,0,0,1,1,0,0,VALID,0,0,0,0,0,1,0,0,0,0,0,0,0,0,0,0,0,0,0,0,348.78,455.76,2,0,0.08,0.08,409,14.29,0.08,0.06,27.96,FLYING,CF1-J,0:/Integrated Flight Computer/aircraft/cf1_j_cfg.ks (inferred preloaded)
28.38,TAKEOFF,TO_CLIMB,105.97,80,-25.97,36.04,10.33,6.94,1.55,90.42,-0.075,0.78,0,0,0,0,0,0,0,0,0,0,0,0,0,0,90.4,8,0,1,5.57,0,0,8,90.4,-0.4591,-0.0068,0.8884,8,90.4,0,0,0,0,0,0,3,0,0,0,69,0,0,0,90.4,1,0,0.025,0,0,3,0,0,0,10,2.977,0,0,1,1,0,0,VALID,0,0,0,0,0,1,0,0,0,0,0,0,0,0,0,0,0,0,0,0,348.1,454.72,2,0,0.08,0.08,413,14.29,0.08,0.06,28.24,FLYING,CF1-J,0:/Integrated Flight Computer/aircraft/cf1_j_cfg.ks (inferred preloaded)
28.66,TAKEOFF,TO_CLIMB,107.17,80,-27.17,39.09,10.72,6.94,1.41,90.42,-0.072,0.78,0,0,0,0,0,0,0,0,0,0,0,0,0,0,90.4,8,0,1,5.71,0,0,8,90.4,-0.4591,-0.0068,0.8883,8,90.4,0,0,0,0,0,0,3,0,0,0,69,0,0,0,90.4,1,0,0.023,0,0,3,0,0,0,10,2.977,0,0,1,1,0,0,VALID,0,0,0,0,0,1,0,0,0,0,0,0,0,0,0,0,0,0,0,0,347.41,453.68,2,0,0.08,0.08,417,14.29,0.08,0.06,28.52,FLYING,CF1-J,0:/Integrated Flight Computer/aircraft/cf1_j_cfg.ks (inferred preloaded)
28.94,TAKEOFF,TO_CLIMB,108.36,80,-28.36,42.25,11.11,6.94,1.27,90.42,-0.069,0.78,0,0,0,0,0,0,0,0,0,0,0,0,0,0,90.4,8,0,1,5.85,0,0,8,90.4,-0.4592,-0.0068,0.8883,8,90.4,0,0,0,0,0,0,3,0,0,0,69,0,0,0,90.4,1,0,0.021,0,0,3,0,0,0,10,2.977,0,0,1,1,0,0,VALID,0,0,0,0,0,1,0,0,0,0,0,0,0,0,0,0,0,0,0,0,346.73,452.65,2,0,0.08,0.08,421,14.29,0.08,0.06,28.8,FLYING,CF1-J,0:/Integrated Flight Computer/aircraft/cf1_j_cfg.ks (inferred preloaded)
29.22,TAKEOFF,TO_CLIMB,109.54,80,-29.54,45.52,11.49,6.95,1.14,90.42,-0.066,0.78,0,0,0,0,0,0,0,0,0,0,0,0,0,0,90.4,8,0,1,5.99,0,0,8,90.4,-0.4592,-0.0068,0.8883,8,90.4,0,0,0,0,0,0,3,0,0,0,69,0,0,0,90.4,1,0,0.019,0,0,3,0,0,0,10,2.977,0,0,1,1,0,0,VALID,0,0,0,0,0,1,0,0,0,0,0,0,0,0,0,0,0,0,0,0,346.05,451.62,2,0,0.08,0.08,425,14.29,0.08,0.06,29.08,FLYING,CF1-J,0:/Integrated Flight Computer/aircraft/cf1_j_cfg.ks (inferred preloaded)
29.5,TAKEOFF,TO_CLIMB,110.71,80,-30.71,48.89,11.86,6.95,1.02,90.42,-0.063,0.78,0,0,0,0,0,0,0,0,0,0,0,0,0,0,90.4,8,0,1,6.12,0,0,8,90.4,-0.4593,-0.0068,0.8883,8,90.4,0,0,0,0,0,0,3,0,0,0,69,0,0,0,90.4,1,0,0.017,0,0,3,0,0,0,10,2.977,0,0,1,1,0,0,VALID,0,0,0,0,0,1,0,0,0,0,0,0,0,0,0,0,0,0,0,0,345.37,450.59,2,0,0.08,0.08,429,14.29,0.08,0.06,29.36,FLYING,CF1-J,0:/Integrated Flight Computer/aircraft/cf1_j_cfg.ks (inferred preloaded)
29.78,TAKEOFF,TO_CLIMB,111.87,80,-31.87,52.37,12.23,6.95,0.89,90.42,-0.061,0.78,0,0,0,0,0,0,0,0,0,0,0,0,0,0,90.4,8,0,1,6.24,0,0,8,90.4,-0.4593,-0.0068,0.8882,8,90.4,0,0,0,0,0,0,3,0,0,0,69,0,0,0,90.4,1,0,0.015,0,0,3,0,0,0,10,2.977,0,0,1,1,0,0,VALID,0,0,0,0,0,1,0,0,0,0,0,0,0,0,0,0,0,0,0,0,344.68,449.57,2,0,0.08,0.08,433,14.29,0.08,0.06,29.64,FLYING,CF1-J,0:/Integrated Flight Computer/aircraft/cf1_j_cfg.ks (inferred preloaded)
30.06,TAKEOFF,TO_CLIMB,113.02,80,-33.02,55.95,12.6,6.94,0.77,90.41,-0.059,0.78,0,0,0,0,0,0,0,0,0,0,0,0,0,0,90.4,8,0,1,6.36,0,0,8,90.4,-0.4594,-0.0068,0.8882,8,90.4,0,0,0,0,0,0,3,0,0,0,69,0,0,0,90.4,1,0,0.014,0,0,3,0,0,0,10,2.977,0,0,1,1,0,0,VALID,0,0,0,0,0,1,0,0,0,0,0,0,0,0,0,0,0,0,0,0,344,448.55,2,0,0.08,0.08,437,14.29,0.08,0.06,29.92,FLYING,CF1-J,0:/Integrated Flight Computer/aircraft/cf1_j_cfg.ks (inferred preloaded)
30.34,TAKEOFF,TO_CLIMB,114.17,80,-34.17,59.63,12.96,6.94,0.65,90.41,-0.056,0.78,0,0,0,0,0,0,0,0,0,0,0,0,0,0,90.4,8,0,1,6.47,0,0,8,90.4,-0.4594,-0.0068,0.8882,8,90.4,0,0,0,0,0,0,3,0,0,0,69,0,0,0,90.4,1,0,0.012,0,0,3,0,0,0,10,2.977,0,0,1,1,0,0,VALID,0,0,0,0,0,1,0,0,0,0,0,0,0,0,0,0,0,0,0,0,343.32,447.53,2,0,0.08,0.08,441,14.29,0.08,0.06,30.2,FLYING,CF1-J,0:/Integrated Flight Computer/aircraft/cf1_j_cfg.ks (inferred preloaded)
30.62,TAKEOFF,TO_CLIMB,115.3,80,-35.3,63.41,13.3,6.94,0.54,90.41,-0.052,0.78,0,0,0,0,0,0,0,0,0,0,0,0,0,0,90.4,8,0,1,6.58,0,0,8,90.4,-0.4595,-0.0068,0.8882,8,90.4,0,0,0,0,0,0,3,0,0,0,69,0,0,0,90.4,1,0,0.011,0,0,3,0,0,0,10,2.977,0,0,1,1,0,0,VALID,0,0,0,0,0,1,0,0,0,0,0,0,0,0,0,0,0,0,0,0,342.64,446.52,2,0,0.08,0.08,445,14.29,0.08,0.06,30.48,FLYING,CF1-J,0:/Integrated Flight Computer/aircraft/cf1_j_cfg.ks (inferred preloaded)
30.9,TAKEOFF,TO_CLIMB,116.43,80,-36.43,67.28,13.65,6.94,0.44,90.41,-0.052,0.78,0,0,0,0,0,0,0,0,0,0,0,0,0,0,90.4,8,0,1,6.68,0,0,8,90.4,-0.4595,-0.0068,0.8881,8,90.4,0,0,0,0,0,0,3,0,0,0,69,0,0,0,90.4,1,0,0.01,0,0,3,0,0,0,10,2.977,0,0,1,1,0,0,VALID,0,0,0,0,0,1,0,0,0,0,0,0,0,0,0,0,0,0,0,0,341.96,445.51,2,0,0.08,0.08,449,14.29,0.08,0.06,30.76,FLYING,CF1-J,0:/Integrated Flight Computer/aircraft/cf1_j_cfg.ks (inferred preloaded)
31.18,TAKEOFF,TO_CLIMB,117.54,80,-37.54,71.25,13.98,6.93,0.34,90.41,-0.049,0.78,0,0,0,0,0,0,0,0,0,0,0,0,0,0,90.4,8,0,1,6.78,0,0,8,90.4,-0.4596,-0.0068,0.8881,8,90.4,0,0,0,0,0,0,3,0,0,0,69,0,0,0,90.4,1,0,0.009,0,0,3,0,0,0,10,2.977,0,0,1,1,0,0,VALID,0,0,0,0,0,1,0,0,0,0,0,0,0,0,0,0,0,0,0,0,341.28,444.51,2,0,0.08,0.08,453,14.29,0.08,0.06,31.04,FLYING,CF1-J,0:/Integrated Flight Computer/aircraft/cf1_j_cfg.ks (inferred preloaded)
31.46,TAKEOFF,TO_CLIMB,118.65,80,-38.65,75.31,14.31,6.93,0.24,90.41,-0.046,0.78,0,0,0,0,0,0,0,0,0,0,0,0,0,0,90.4,8,0,1,6.88,0,0,8,90.4,-0.4596,-0.0068,0.8881,8,90.4,0,0,0,0,0,0,3,0,0,0,69,0,0,0,90.4,1,0,0.008,0,0,3,0,0,0,10,2.977,0,0,1,1,0,0,VALID,0,0,0,0,0,1,0,0,0,0,0,0,0,0,0,0,0,0,0,0,340.61,443.51,2,0,0.08,0.08,457,14.29,0.08,0.06,31.32,FLYING,CF1-J,0:/Integrated Flight Computer/aircraft/cf1_j_cfg.ks (inferred preloaded)
31.74,TAKEOFF,TO_CLIMB,119.74,80,-39.74,79.46,14.63,6.93,0.15,90.41,-0.042,0.78,0,0,0,0,0,0,0,0,0,0,0,0,0,0,90.4,8,0,1,6.96,0,0,8,90.4,-0.4597,-0.0068,0.8881,8,90.4,0,0,0,0,0,0,3,0,0,0,69,0,0,0,90.4,1,0,0.007,0,0,3,0,0,0,10,2.977,0,0,1,1,0,0,VALID,0,0,0,0,0,1,0,0,0,0,0,0,0,0,0,0,0,0,0,0,339.93,442.52,2,0,0.08,0.08,461,14.29,0.08,0.06,31.6,FLYING,CF1-J,0:/Integrated Flight Computer/aircraft/cf1_j_cfg.ks (inferred preloaded)
32.02,TAKEOFF,TO_CLIMB,120.83,80,-40.83,83.69,14.94,6.92,0.06,90.41,-0.04,0.78,0,0,0,0,0,0,0,0,0,0,0,0,0,0,90.4,8,0,1,7.05,0,0,8,90.4,-0.4597,-0.0068,0.888,8,90.4,0,0,0,0,0,0,3,0,0,0,69,0,0,0,90.4,1,0,0.006,0,0,3,0,0,0,10,2.977,0,0,1,1,0,0,VALID,0,0,0,0,0,1,0,0,0,0,0,0,0,0,0,0,0,0,0,0,339.26,441.53,2,0,0.08,0.08,465,14.29,0.08,0.06,31.88,FLYING,CF1-J,0:/Integrated Flight Computer/aircraft/cf1_j_cfg.ks (inferred preloaded)
32.3,TAKEOFF,TO_CLIMB,121.9,80,-41.9,88.01,15.25,6.91,-0.03,90.4,-0.036,0.78,0,0,0,0,0,0,0,0,0,0,0,0,0,0,90.4,8,0,1,7.13,0,0,8,90.4,-0.4598,-0.0068,0.888,8,90.4,0,0,0,0,0,0,3,0,0,0,69,0,0,0,90.4,1,0,0.005,0,0,3,0,0,0,10,2.977,0,0,1,1,0,0,VALID,0,0,0,0,0,1,0,0,0,0,0,0,0,0,0,0,0,0,0,0,338.6,440.55,2,0,0.08,0.08,469,14.29,0.08,0.06,32.16,FLYING,CF1-J,0:/Integrated Flight Computer/aircraft/cf1_j_cfg.ks (inferred preloaded)
32.58,TAKEOFF,TO_CLIMB,122.97,80,-42.97,92.41,15.55,6.91,-0.11,90.4,-0.034,0.78,0,0,0,0,0,0,0,0,0,0,0,0,0,0,90.4,8,0,1,7.21,0,0,8,90.4,-0.4598,-0.0068,0.888,8,90.4,0,0,0,0,0,0,3,0,0,0,69,0,0,0,90.4,1,0,0.004,0,0,3,0,0,0,10,2.977,0,0,1,1,0,0,VALID,0,0,0,0,0,1,0,0,0,0,0,0,0,0,0,0,0,0,0,0,337.93,439.57,2,0,0.08,0.08,473,14.29,0.08,0.06,32.44,FLYING,CF1-J,0:/Integrated Flight Computer/aircraft/cf1_j_cfg.ks (inferred preloaded)
32.86,TAKEOFF,TO_CLIMB,124.03,80,-44.03,96.9,15.84,6.9,-0.19,90.4,-0.032,0.78,0,0,0,0,0,0,0,0,0,0,0,0,0,0,90.4,8,0,1,7.28,0,0,8,90.4,-0.4599,-0.0068,0.888,8,90.4,0,0,0,0,0,0,3,0,0,0,69,0,0,0,90.4,1,0,0.003,0,0,3,0,0,0,10,2.977,0,0,1,1,0,0,VALID,0,0,0,0,0,1,0,0,0,0,0,0,0,0,0,0,0,0,0,0,337.27,438.6,2,0,0.08,0.08,477,14.29,0.08,0.06,32.72,FLYING,CF1-J,0:/Integrated Flight Computer/aircraft/cf1_j_cfg.ks (inferred preloaded)
33.14,TAKEOFF,TO_CLIMB,125.07,80,-45.07,101.46,16.13,6.89,-0.27,90.4,-0.031,0.78,0,0,0,0,0,0,0,0,0,0,0,0,0,0,90.4,8,0,1,7.35,0,0,8,90.4,-0.4599,-0.0068,0.8879,8,90.4,0,0,0,0,0,0,3,0,0,0,69,0,0,0,90.4,1,0,0.002,0,0,3,0,0,0,10,2.977,0,0,1,1,0,0,VALID,0,0,0,0,0,1,0,0,0,0,0,0,0,0,0,0,0,0,0,0,336.6,437.63,2,0,0.08,0.08,481,14.29,0.08,0.06,33,FLYING,CF1-J,0:/Integrated Flight Computer/aircraft/cf1_j_cfg.ks (inferred preloaded)
33.42,TAKEOFF,TO_CLIMB,126.11,80,-46.11,106.1,16.4,6.88,-0.34,90.4,-0.028,0.78,0,0,0,0,0,0,0,0,0,0,0,0,0,0,90.4,8,0,1,7.41,0,0,8,90.4,-0.46,-0.0068,0.8879,8,90.4,0,0,0,0,0,0,3,0,0,0,69,0,0,0,90.4,1,0,0.002,0,0,3,0,0,0,10,2.977,0,0,1,1,0,0,VALID,0,0,0,0,0,1,0,0,0,0,0,0,0,0,0,0,0,0,0,0,335.95,436.67,2,0,0.08,0.08,485,14.29,0.08,0.06,33.28,FLYING,CF1-J,0:/Integrated Flight Computer/aircraft/cf1_j_cfg.ks (inferred preloaded)
33.7,TAKEOFF,TO_CLIMB,127.14,80,-47.14,110.82,16.67,6.87,-0.42,90.4,-0.025,0.78,0,0,0,0,0,0,0,0,0,0,0,0,0,0,90.4,8,0,1,7.47,0,0,8,90.4,-0.46,-0.0068,0.8879,8,90.4,0,0,0,0,0,0,3,0,0,0,69,0,0,0,90.4,1,0,0.001,0,0,3,0,0,0,10,2.977,0,0,1,1,0,0,VALID,0,0,0,0,0,1,0,0,0,0,0,0,0,0,0,0,0,0,0,0,335.29,435.72,2,0,0.08,0.08,489,14.29,0.08,0.06,33.56,FLYING,CF1-J,0:/Integrated Flight Computer/aircraft/cf1_j_cfg.ks (inferred preloaded)
33.98,TAKEOFF,TO_CLIMB,128.16,80,-48.16,115.6,16.94,6.85,-0.49,90.4,-0.023,0.78,0,0,0,0,0,0,0,0,0,0,0,0,0,0,90.4,8,0,1,7.53,0,0,8,90.4,-0.4601,-0.0068,0.8879,8,90.4,0,0,0,0,0,0,3,0,0,0,69,0,0,0,90.4,1,0,0.001,0,0,3,0,0,0,10,2.977,0,0,1,1,0,0,VALID,0,0,0,0,0,1,0,0,0,0,0,0,0,0,0,0,0,0,0,0,334.64,434.77,2,0,0.08,0.08,493,14.29,0.08,0.06,33.84,FLYING,CF1-J,0:/Integrated Flight Computer/aircraft/cf1_j_cfg.ks (inferred preloaded)
34.26,TAKEOFF,TO_CLIMB,129.17,80,-49.17,120.46,17.19,6.84,-0.55,90.4,-0.02,0.78,0,0,0,0,0,0,0,0,0,0,0,0,0,0,90.4,8,0,1,7.58,0,0,8,90.4,-0.4601,-0.0068,0.8878,8,90.4,0,0,0,0,0,0,3,0,0,0,69,0,0,0,90.4,1,0,0,0,0,3,0,0,0,10,2.977,0,0,1,1,0,0,VALID,0,0,0,0,0,1,0,0,0,0,0,0,0,0,0,0,0,0,0,0,333.99,433.83,2,0,0.08,0.08,497,14.29,0.08,0.06,34.12,FLYING,CF1-J,0:/Integrated Flight Computer/aircraft/cf1_j_cfg.ks (inferred preloaded)
34.54,TAKEOFF,TO_CLIMB,130.18,80,-50.18,125.39,17.44,6.82,-0.62,90.4,-0.019,0.78,0,0,0,0,0,0,0,0,0,0,0,0,0,0,90.4,8,0,1,7.63,0,0,8,90.4,-0.4602,-0.0068,0.8878,8,90.4,0,0,0,0,0,0,3,0,0,0,69,0,0,0,90.4,1,0,0,0,0,3,0,0,0,10,2.977,0,0,1,1,0,0,VALID,0,0,0,0,0,1,0,0,0,0,0,0,0,0,0,0,0,0,0,0,333.35,432.9,2,0,0.08,0.08,501,14.29,0.08,0.06,34.4,FLYING,CF1-J,0:/Integrated Flight Computer/aircraft/cf1_j_cfg.ks (inferred preloaded)
34.82,TAKEOFF,TO_CLIMB,131.17,80,-51.17,130.38,17.68,6.8,-0.69,90.4,-0.017,0.78,0,0,0,0,0,0,0,0,0,0,0,0,0,0,90.4,8,0,1,7.68,0,0,8,90.4,-0.4602,-0.0068,0.8878,8,90.4,0,0,0,0,0,0,3,0,0,0,69,0,0,0,90.4,1,0,-0.001,0,0,3,0,0,0,10,2.977,0,0,1,1,0,0,VALID,0,0,0,0,0,1,0,0,0,0,0,0,0,0,0,0,0,0,0,0,332.7,431.97,2,0,0.08,0.08,505,14.29,0.08,0.06,34.68,FLYING,CF1-J,0:/Integrated Flight Computer/aircraft/cf1_j_cfg.ks (inferred preloaded)
35.1,TAKEOFF,TO_CLIMB,132.16,80,-52.16,135.44,17.91,6.77,-0.76,90.4,-0.017,0.78,0,0,0,0,0,0,0,0,0,0,0,0,0,0,90.4,8,0,1,7.72,0,0,8,90.4,-0.4603,-0.0068,0.8877,8,90.4,0,0,0,0,0,0,3,0,0,0,69,0,0,0,90.4,1,0,-0.001,0,0,3,0,0,0,10,2.977,0,0,1,1,0,0,VALID,0,0,0,0,0,1,0,0,0,0,0,0,0,0,0,0,0,0,0,0,332.06,431.05,2,0,0.08,0.08,509,14.29,0.08,0.06,34.96,FLYING,CF1-J,0:/Integrated Flight Computer/aircraft/cf1_j_cfg.ks (inferred preloaded)
35.38,TAKEOFF,TO_CLIMB,133.14,80,-53.14,140.56,18.13,6.75,-0.82,90.4,-0.015,0.78,0,0,0,0,0,0,0,0,0,0,0,0,0,0,90.4,8,0,1,7.75,0,0,8,90.4,-0.4604,-0.0068,0.8877,8,90.4,0,0,0,0,0,0,3,0,0,0,69,0,0,0,90.4,1,0,-0.001,0,0,3,0,0,0,10,2.977,0,0,1,1,0,0,VALID,0,0,0,0,0,1,0,0,0,0,0,0,0,0,0,0,0,0,0,0,331.43,430.13,2,0,0.08,0.08,513,14.29,0.08,0.06,35.24,FLYING,CF1-J,0:/Integrated Flight Computer/aircraft/cf1_j_cfg.ks (inferred preloaded)
35.66,TAKEOFF,TO_CLIMB,134.11,80,-54.11,145.74,18.34,6.72,-0.88,90.4,-0.013,0.78,0,0,0,0,0,0,0,0,0,0,0,0,0,0,90.4,8,0,1,7.79,0,0,8,90.4,-0.4604,-0.0068,0.8877,8,90.4,0,0,0,0,0,0,3,0,0,0,69,0,0,0,90.4,1,0,-0.002,0,0,3,0,0,0,10,2.977,0,0,1,1,0,0,VALID,0,0,0,0,0,1,0,0,0,0,0,0,0,0,0,0,0,0,0,0,330.8,429.23,2,0,0.08,0.08,517,14.29,0.08,0.06,35.52,FLYING,CF1-J,0:/Integrated Flight Computer/aircraft/cf1_j_cfg.ks (inferred preloaded)
35.94,TAKEOFF,TO_CLIMB,135.07,80,-55.07,150.96,18.54,6.69,-0.93,90.4,-0.011,0.78,0,0,0,0,0,0,0,0,0,0,0,0,0,0,90.4,8,0,1,7.82,0,0,8,90.4,-0.4605,-0.0068,0.8876,8,90.4,0,0,0,0,0,0,3,0,0,0,69,0,0,0,90.4,1,0,-0.002,0,0,3,0,0,0,10,2.977,0,0,1,1,0,0,VALID,0,0,0,0,0,1,0,0,0,0,0,0,0,0,0,0,0,0,0,0,330.17,428.32,2,0,0.08,0.08,521,14.29,0.08,0.06,35.8,FLYING,CF1-J,0:/Integrated Flight Computer/aircraft/cf1_j_cfg.ks (inferred preloaded)
36.22,TAKEOFF,TO_CLIMB,136.02,80,-56.02,156.25,18.74,6.67,-0.99,90.4,-0.01,0.78,0,0,0,0,0,0,0,0,0,0,0,0,0,0,90.4,8,0,1,7.84,0,0,8,90.4,-0.4605,-0.0068,0.8876,8,90.4,0,0,0,0,0,0,3,0,0,0,69,0,0,0,90.4,1,0,-0.002,0,0,3,0,0,0,10,2.977,0,0,1,1,0,0,VALID,0,0,0,0,0,1,0,0,0,0,0,0,0,0,0,0,0,0,0,0,329.54,427.43,2,0,0.08,0.08,525,14.29,0.08,0.06,36.08,FLYING,CF1-J,0:/Integrated Flight Computer/aircraft/cf1_j_cfg.ks (inferred preloaded)
36.5,TAKEOFF,TO_CLIMB,136.97,80,-56.97,161.58,18.93,6.64,-1.04,90.4,-0.009,0.78,0,0,0,0,0,0,0,0,0,0,0,0,0,0,90.4,8,0,1,7.87,0,0,8,90.4,-0.4606,-0.0068,0.8876,8,90.4,0,0,0,0,0,0,3,0,0,0,69,0,0,0,90.4,1,0,-0.002,0,0,3,0,0,0,10,2.977,0,0,1,1,0,0,VALID,0,0,0,0,0,1,0,0,0,0,0,0,0,0,0,0,0,0,0,0,328.92,426.54,2,0,0.08,0.08,529,14.29,0.08,0.06,36.36,FLYING,CF1-J,0:/Integrated Flight Computer/aircraft/cf1_j_cfg.ks (inferred preloaded)
36.78,TAKEOFF,TO_CLIMB,137.91,80,-57.91,166.96,19.11,6.62,-1.08,90.4,-0.007,0.78,0,0,0,0,0,0,0,0,0,0,0,0,0,0,90.4,8,0,1,7.89,0,0,8,90.4,-0.4606,-0.0068,0.8876,8,90.4,0,0,0,0,0,0,3,0,0,0,69,0,0,0,90.4,1,0,-0.002,0,0,3,0,0,0,10,2.977,0,0,1,1,0,0,VALID,0,0,0,0,0,1,0,0,0,0,0,0,0,0,0,0,0,0,0,0,328.31,425.66,2,0,0.08,0.08,533,14.29,0.08,0.06,36.64,FLYING,CF1-J,0:/Integrated Flight Computer/aircraft/cf1_j_cfg.ks (inferred preloaded)
37.06,TAKEOFF,TO_CLIMB,138.84,80,-58.84,172.41,19.29,6.59,-1.13,90.4,-0.006,0.78,0,0,0,0,0,0,0,0,0,0,0,0,0,0,90.4,8,0,1,7.91,0,0,8,90.4,-0.4607,-0.0068,0.8875,8,90.4,0,0,0,0,0,0,3,0,0,0,69,0,0,0,90.4,1,0,-0.003,0,0,3,0,0,0,10,2.977,0,0,1,1,0,0,VALID,0,0,0,0,0,1,0,0,0,0,0,0,0,0,0,0,0,0,0,0,327.69,424.78,2,0,0.08,0.08,537,14.29,0.08,0.06,36.92,FLYING,CF1-J,0:/Integrated Flight Computer/aircraft/cf1_j_cfg.ks (inferred preloaded)
37.34,TAKEOFF,TO_CLIMB,139.76,80,-59.76,177.88,19.47,6.56,-1.18,90.4,-0.006,0.78,0,0,0,0,0,0,0,0,0,0,0,0,0,0,90.4,8,0,1,7.93,0,0,8,90.4,-0.4608,-0.0068,0.8875,8,90.4,0,0,0,0,0,0,3,0,0,0,69,0,0,0,90.4,1,0,-0.003,0,0,3,0,0,0,10,2.977,0,0,1,1,0,0,VALID,0,0,0,0,0,1,0,0,0,0,0,0,0,0,0,0,0,0,0,0,327.09,423.91,2,0,0.08,0.08,541,14.29,0.08,0.06,37.2,FLYING,CF1-J,0:/Integrated Flight Computer/aircraft/cf1_j_cfg.ks (inferred preloaded)
37.62,TAKEOFF,TO_CLIMB,140.68,80,-60.68,183.42,19.64,6.54,-1.22,90.4,-0.005,0.78,0,0,0,0,0,0,0,0,0,0,0,0,0,0,90.4,8,0,1,7.95,0,0,8,90.4,-0.4608,-0.0068,0.8875,8,90.4,0,0,0,0,0,0,3,0,0,0,69,0,0,0,90.4,1,0,-0.003,0,0,3,0,0,0,10,2.977,0,0,1,1,0,0,VALID,0,0,0,0,0,1,0,0,0,0,0,0,0,0,0,0,0,0,0,0,326.48,423.05,2,0,0.08,0.08,545,14.29,0.08,0.06,37.48,FLYING,CF1-J,0:/Integrated Flight Computer/aircraft/cf1_j_cfg.ks (inferred preloaded)
37.9,TAKEOFF,TO_CLIMB,141.59,80,-61.59,189.01,19.81,6.52,-1.26,90.4,-0.004,0.78,0,0,0,0,0,0,0,0,0,0,0,0,0,0,90.4,8,0,1,7.97,0,0,8,90.4,-0.4609,-0.0068,0.8874,8,90.4,0,0,0,0,0,0,3,0,0,0,69,0,0,0,90.4,1,0,-0.003,0,0,3,0,0,0,10,2.977,0,0,1,1,0,0,VALID,0,0,0,0,0,1,0,0,0,0,0,0,0,0,0,0,0,0,0,0,325.88,422.2,2,0,0.08,0.08,549,14.29,0.08,0.06,37.76,FLYING,CF1-J,0:/Integrated Flight Computer/aircraft/cf1_j_cfg.ks (inferred preloaded)
38.18,TAKEOFF,TO_CLIMB,142.49,80,-62.49,194.59,19.98,6.49,-1.3,90.4,-0.004,0.78,0,0,0,0,0,0,0,0,0,0,0,0,0,0,90.4,8,0,1,7.98,0,0,8,90.4,-0.4609,-0.0068,0.8874,8,90.4,0,0,0,0,0,0,3,0,0,0,69,0,0,0,90.4,1,0,-0.003,0,0,3,0,0,0,10,2.977,0,0,1,1,0,0,VALID,0,0,0,0,0,1,0,0,0,0,0,0,0,0,0,0,0,0,0,0,325.28,421.35,2,0,0.08,0.08,553,14.29,0.08,0.06,38.04,FLYING,CF1-J,0:/Integrated Flight Computer/aircraft/cf1_j_cfg.ks (inferred preloaded)
38.46,TAKEOFF,TO_CLIMB,143.39,80,-63.39,200.27,20.14,6.47,-1.34,90.4,-0.004,0.78,0,0,0,0,0,0,0,0,0,0,0,0,0,0,90.4,8,0,1,8,0,0,8,90.4,-0.461,-0.0068,0.8874,8,90.4,0,0,0,0,0,0,3,0,0,0,69,0,0,0,90.4,1,0,-0.003,0,0,3,0,0,0,10,2.977,0,0,1,1,0,0,VALID,0,0,0,0,0,1,0,0,0,0,0,0,0,0,0,0,0,0,0,0,324.69,420.51,2,0,0.08,0.08,557,14.29,0.08,0.06,38.32,FLYING,CF1-J,0:/Integrated Flight Computer/aircraft/cf1_j_cfg.ks (inferred preloaded)
