t_s,phase,subphase,ias_ms,vapp_ms,spd_err_ms,agl_m,vs_ms,pitch_deg,aoa_deg,hdg_deg,bank_deg,thr_cmd,thr_intg,aa_hdg_cmd_deg,aa_fpa_cmd_deg,ils_loc_m,ils_gs_m,ils_dist_km,loc_corr_deg,gs_corr_deg,flare_fpa_cmd,flare_tgt_vs,flare_frac,steer_hdg_deg,steer_blend,ro_loc_corr_deg,ro_hdg_err_deg,ro_yaw_tgt,ro_yaw_scale,ro_yaw_gate,yaw_cmd,roll_cmd,pitch_cmd,ro_pitch_tgt_deg,ro_pitch_err_deg,ro_pitch_ff,ro_roll_assist,flaps_cur,flaps_tgt,phase_el_s,status
0.26,APPROACH,FLY_TO_FIX,199.03,140.16,-58.87,2464.82,-24.86,-3.61,2.63,269.48,-2.357,0.04,-5.882,14.18,-4.835,0,0,0,0,0,0,0,0,269.52,0,0,0,0,0,0,0,0,0,0,0,0,0,0,3,0.3,FLYING
0.54,APPROACH,ILS_TRACK,199.6,140.58,-59.03,2457.04,-27.03,-5.34,1.48,269.7,-4.178,0,-20,109.32,-6,0,0,0,0,0,0,0,0,269.52,0,0,0,0,0,0,0,0,0,0,0,0,0,1,3,0.56,FLYING
0.8,APPROACH,ILS_TRACK,200.15,141.02,-59.13,2449.66,-29.16,-5.51,1.74,269.83,-7.292,0,-20,245.4,0,31.72,-31.7,46.066,-29.594,100.091,0,0,0,269.52,0,0,0,0,0,0,0,0,0,0,0,0,0,1,3,0.84,FLYING
1.06,APPROACH,ILS_TRACK,200.61,141.44,-59.17,2441.51,-30.84,-4.48,3.17,270.02,-6.381,0,-20,270.07,0,30.79,-36.44,46.003,-0.333,25.5,0,0,0,269.52,0,0,0,0,0,0,0,0,0,0,0,0,0,2,3,1.1,FLYING
1.38,APPROACH,ILS_TRACK,201.13,141.95,-59.18,2432.23,-31.83,-4.04,3.89,269.9,-0.39,0,-20,269.94,0,29.84,-41.95,45.935,-0.455,26.361,0,0,0,269.52,0,0,0,0,0,0,0,0,0,0,0,0,0,2,3,1.42,FLYING
1.64,APPROACH,ILS_TRACK,201.51,142.37,-59.14,2423.19,-32.87,-3.92,4.25,269.58,2.77,0,-20,270.03,0,29.03,-47.57,45.871,-0.374,31.581,0,0,0,269.52,0,0,0,0,0,0,0,0,0,0,0,0,0,3,3,1.68,FLYING
1.9,APPROACH,ILS_TRACK,201.82,141.95,-59.86,2415.31,-33.72,-3.53,4.81,269.41,1.975,0,-20,269.96,0,28.31,-52.57,45.817,-0.444,31.15,0,0,0,269.52,0,0,0,0,0,0,0,0,0,0,0,0,0,3,3,1.94,FLYING
2.16,APPROACH,ILS_TRACK,202,141.54,-60.46,2406.77,-34.4,-2.36,6.09,269.47,0.296,0,-20,270.08,0,27.49,-58.04,45.758,-0.316,34.225,0,0,0,269.52,0,0,0,0,0,0,0,0,0,0,0,0,0,3,3,2.2,FLYING
2.46,APPROACH,ILS_TRACK,202.02,141.06,-60.96,2397.13,-34.57,0.1,8.53,269.6,-0.461,0,-20,270.15,0,26.52,-64.22,45.69,-0.245,35.748,0,0,0,269.52,0,0,0,0,0,0,0,0,0,0,0,0,0,3,3,2.5,FLYING
2.72,APPROACH,ILS_TRACK,201.76,140.64,-61.12,2389.08,-33.76,3.04,11.28,269.74,-0.96,0,-20,270.19,0,25.67,-69.3,45.631,-0.215,36.428,0,0,0,269.52,0,0,0,0,0,0,0,0,0,0,0,0,0,3,3,2.76,FLYING
2.98,APPROACH,ILS_TRACK,201.16,140.22,-60.94,2381.31,-31.93,5.67,13.55,269.89,-1.316,0,-20,270.21,0,24.84,-74.1,45.573,-0.191,36.988,0,0,0,269.52,0,0,0,0,0,0,0,0,0,0,0,0,0,3,3,3.02,FLYING
3.24,APPROACH,ILS_TRACK,200.19,140,-60.19,2373.85,-29.6,7.48,14.88,270.02,-1.574,0,-20,270.22,0,24.03,-78.62,45.514,-0.185,37.501,0,0,0,269.52,0,0,0,0,0,0,0,0,0,0,0,0,0,3,3,3.28,FLYING
3.54,APPROACH,ILS_TRACK,198.77,140,-58.77,2365.78,-26.76,8.7,15.48,270.15,-1.772,0,-20,270.22,0,23.14,-83.37,45.447,-0.184,37.688,0,0,0,269.52,0,0,0,0,0,0,0,0,0,0,0,0,0,3,3,3.58,FLYING
3.8,APPROACH,ILS_TRACK,197.42,140,-57.42,2359.35,-24.36,9.35,15.59,270.23,-1.876,0,-20,270.2,0,22.41,-86.98,45.389,-0.198,37.188,0,0,0,269.52,0,0,0,0,0,0,0,0,0,0,0,0,0,3,3,3.84,FLYING
4.06,APPROACH,ILS_TRACK,196,140,-56,2353.49,-22.06,9.91,15.6,270.29,-1.919,0.104,-20,270.19,0,21.73,-90.04,45.331,-0.213,36.419,0,0,0,269.52,0,0,0,0,0,0,0,0,0,0,0,0,0,3,3,4.1,FLYING
4.37,APPROACH,ILS_TRACK,194.45,140,-54.45,2347.35,-19.44,10.53,15.58,270.34,-1.922,0.2091,-20,270.21,0,21.05,-92.68,45.27,-0.191,35.851,0,0,0,269.52,0,0,0,0,0,0,0,0,0,0,0,0,0,3,3,4.42,FLYING
4.77,APPROACH,ILS_TRACK,192.33,140,-52.33,2340.54,-16.1,11.34,15.57,270.41,-1.922,0.3539,-20,270.16,0,20.22,-95.21,45.188,-0.238,34.167,0,0,0,269.52,0,0,0,0,0,0,0,0,0,0,0,0,0,3,3,4.83,FLYING
5.15,APPROACH,ILS_TRACK,190.22,140,-50.22,2335.12,-12.83,11.67,15.17,270.42,-1.757,0.4707,-20,270.13,0,19.47,-96.65,45.107,-0.27,32.143,0,0,0,269.52,0,0,0,0,0,0,0,0,0,0,0,0,0,3,3,5.22,FLYING
5.56,APPROACH,ILS_TRACK,188.16,140,-48.16,2330.36,-9.98,11.03,13.82,270.36,-1.432,0.5185,-20,270.09,0,18.79,-97.25,45.022,-0.312,30.381,0,0,0,269.52,0,0,0,0,0,0,0,0,0,0,0,0,0,3,3,5.63,FLYING
6.05,APPROACH,ILS_TRACK,186.14,140,-46.14,2325.94,-7.35,10.19,12.28,270.26,-0.942,0.5039,-20,270.06,0,18.05,-96.68,44.918,-0.343,28.066,0,0,0,269.52,0,0,0,0,0,0,0,0,0,0,0,0,0,3,3,6.12,FLYING
6.47,APPROACH,ILS_TRACK,184.79,140,-44.79,2323.07,-5.67,9.54,11.16,270.18,-0.535,0.4433,-20,270.04,0,17.48,-95.24,44.83,-0.358,25.834,0,0,0,269.52,0,0,0,0,0,0,0,0,0,0,0,0,0,3,3,6.54,FLYING
6.89,APPROACH,ILS_TRACK,183.74,140,-43.74,2320.83,-4.28,8.87,10.12,270.11,-0.22,0.3593,-20,270.04,0,16.94,-93.1,44.741,-0.357,23.856,0,0,0,269.52,0,0,0,0,0,0,0,0,0,0,0,0,0,3,3,6.96,FLYING
7.38,APPROACH,ILS_TRACK,182.79,140,-42.79,2318.83,-3.19,8.14,9.08,270.07,-0.036,0.2632,-20,270.06,0,16.32,-89.97,44.639,-0.341,21.877,0,0,0,269.52,0,0,0,0,0,0,0,0,0,0,0,0,0,3,3,7.45,FLYING
7.8,APPROACH,ILS_TRACK,182.11,140,-42.11,2317.55,-2.58,7.86,8.58,270.06,-0.032,0.1692,-20,270.08,0,15.8,-86.84,44.552,-0.319,20.081,0,0,0,269.52,0,0,0,0,0,0,0,0,0,0,0,0,0,3,3,7.87,FLYING
8.22,APPROACH,ILS_TRACK,181.47,140,-41.47,2316.54,-1.98,7.56,8.14,270.07,-0.12,0.0892,-20,270.1,0,15.28,-83.37,44.465,-0.3,18.42,0,0,0,269.52,0,0,0,0,0,0,0,0,0,0,0,0,0,3,3,8.29,FLYING
8.71,APPROACH,ILS_TRACK,180.72,140,-40.72,2315.62,-1.56,7.35,7.81,270.09,-0.233,0.0189,-20,270.12,0,14.67,-79.09,44.364,-0.278,16.724,0,0,0,269.52,0,0,0,0,0,0,0,0,0,0,0,0,0,3,3,8.78,FLYING
9.13,APPROACH,ILS_TRACK,180.01,140,-40.01,2315,-1.3,7.33,7.71,270.11,-0.314,0,-20,270.14,0,14.16,-75.23,44.277,-0.263,15.233,0,0,0,269.52,0,0,0,0,0,0,0,0,0,0,0,0,0,3,3,9.2,FLYING
9.55,APPROACH,ILS_TRACK,179.2,140,-39.2,2314.5,-1.17,7.39,7.71,270.13,-0.362,0,-20,270.15,0,13.66,-71.29,44.191,-0.247,13.875,0,0,0,269.52,0,0,0,0,0,0,0,0,0,0,0,0,0,3,3,9.62,FLYING
10.04,APPROACH,ILS_TRACK,178.11,140,-38.11,2314,-0.96,7.45,7.72,270.14,-0.378,0,-20,270.16,0,13.09,-66.57,44.092,-0.236,12.269,0,0,0,269.52,0,0,0,0,0,0,0,0,0,0,0,0,0,3,3,10.11,FLYING
10.46,APPROACH,ILS_TRACK,177.07,140,-37.07,2313.64,-0.84,7.56,7.8,270.15,-0.378,0,-20,270.17,0,12.62,-62.49,44.006,-0.225,10.976,0,0,0,269.52,0,0,0,0,0,0,0,0,0,0,0,0,0,3,3,10.53,FLYING
10.88,APPROACH,ILS_TRACK,175.95,140,-35.95,2313.34,-0.75,7.68,7.89,270.16,-0.373,0,-20,270.19,0,12.17,-58.38,43.922,-0.214,9.678,0,0,0,269.52,0,0,0,0,0,0,0,0,0,0,0,0,0,3,3,10.95,FLYING
11.37,APPROACH,ILS_TRACK,174.54,140,-34.54,2313.04,-0.65,7.85,8.03,270.16,-0.355,0,-20,270.2,0,11.65,-53.55,43.824,-0.205,8.19,0,0,0,269.52,0,0,0,0,0,0,0,0,0,0,0,0,0,3,3,11.44,FLYING
11.79,APPROACH,ILS_TRACK,173.27,140,-33.27,2312.83,-0.59,8.03,8.18,270.17,-0.337,0.0264,-20,270.21,0,11.23,-49.41,43.74,-0.194,6.931,0,0,0,269.52,0,0,0,0,0,0,0,0,0,0,0,0,0,3,3,11.86,FLYING
12.21,APPROACH,ILS_TRACK,171.95,140,-31.95,2312.64,-0.53,8.19,8.33,270.18,-0.323,0.0545,-20,270.21,0,10.81,-45.26,43.657,-0.187,5.677,0,0,0,269.52,0,0,0,0,0,0,0,0,0,0,0,0,0,3,3,12.28,FLYING
12.7,APPROACH,ILS_TRACK,170.38,140,-30.38,2312.46,-0.46,8.4,8.52,270.18,-0.303,0.0806,-20,270.22,0,10.35,-40.43,43.561,-0.179,4.233,0,0,0,269.52,0,0,0,0,0,0,0,0,0,0,0,0,0,3,3,12.77,FLYING
13.12,APPROACH,ILS_TRACK,169.03,140,-29.03,2312.32,-0.41,8.55,8.66,270.19,-0.285,0.1018,-20,270.23,0,9.97,-36.29,43.48,-0.172,3.012,0,0,0,269.52,0,0,0,0,0,0,0,0,0,0,0,0,0,3,3,13.19,FLYING
13.54,APPROACH,ILS_TRACK,167.7,140,-27.7,2312.19,-0.29,8.66,8.78,270.19,-0.339,0.1176,-20,270.24,-1.199,9.59,-32.17,43.399,-0.159,1.801,0,0,0,269.52,0,0,0,0,0,0,0,0,0,0,0,0,0,3,3,13.61,FLYING
14.03,APPROACH,ILS_TRACK,166.22,140,-26.22,2311.53,-0.23,6.56,6.82,270.23,-0.651,0.1247,-20,270.25,-2.029,9.17,-27.68,43.305,-0.15,0.971,0,0,0,269.52,0,0,0,0,0,0,0,0,0,0,0,0,0,3,3,14.1,FLYING
14.45,APPROACH,ILS_TRACK,165.21,140,-25.21,2310.61,-1.35,4.51,5.01,270.24,-0.801,0.1017,-20,270.25,-2.13,8.82,-24.31,43.225,-0.147,0.87,0,0,0,269.52,0,0,0,0,0,0,0,0,0,0,0,0,0,3,3,14.52,FLYING
14.87,APPROACH,ILS_TRACK,164.31,140,-24.31,2309.51,-2.92,3.88,4.71,270.25,-0.824,0.067,-20,270.26,-2.618,8.49,-21.17,43.146,-0.144,0.382,0,0,0,269.52,0,0,0,0,0,0,0,0,0,0,0,0,0,3,3,14.94,FLYING
15.36,APPROACH,ILS_TRACK,163.32,140,-23.32,2307.92,-4.24,4.74,5.99,270.28,-0.79,0.0325,-20,270.26,-3.206,8.13,-17.78,43.053,-0.142,-0.206,0,0,0,269.52,0,0,0,0,0,0,0,0,0,0,0,0,0,3,3,15.43,FLYING
15.78,APPROACH,ILS_TRACK,162.53,140,-22.53,2305.79,-4.99,4.02,5.59,270.28,-0.716,0,-20,270.26,-2.772,7.85,-15.46,42.975,-0.143,0.228,0,0,0,269.52,0,0,0,0,0,0,0,0,0,0,0,0,0,3,3,15.85,FLYING
16.2,APPROACH,ILS_TRACK,161.74,140,-21.74,2303.29,-6.31,3.65,5.54,270.28,-0.572,0,-20,270.25,-2.124,7.58,-13.76,42.897,-0.146,0.876,0,0,0,269.52,0,0,0,0,0,0,0,0,0,0,0,0,0,3,3,16.27,FLYING
16.69,APPROACH,ILS_TRACK,160.74,140,-20.74,2300.16,-7.62,4.75,6.95,270.27,-0.344,0,-20,270.26,-2.146,7.29,-12.06,42.806,-0.142,0.854,0,0,0,269.52,0,0,0,0,0,0,0,0,0,0,0,0,0,3,3,16.76,FLYING
17.11,APPROACH,ILS_TRACK,159.76,140,-19.76,2297.36,-8.03,6.59,8.95,270.28,-0.252,0,-20,270.26,-2.246,7.05,-10.76,42.729,-0.14,0.754,0,0,0,269.52,0,0,0,0,0,0,0,0,0,0,0,0,0,3,3,17.18,FLYING
17.53,APPROACH,ILS_TRACK,158.65,140,-18.65,2294.29,-7.93,7.57,10,270.27,-0.187,0,-20,270.26,-2.126,6.82,-9.7,42.652,-0.137,0.874,0,0,0,269.52,0,0,0,0,0,0,0,0,0,0,0,0,0,3,3,17.6,FLYING
18.01,APPROACH,ILS_TRACK,157.2,140,-17.2,2290.73,-7.77,8.27,10.69,270.27,-0.164,0,-20,270.27,-2.06,6.57,-8.68,42.563,-0.133,0.94,0,0,0,269.52,0,0,0,0,0,0,0,0,0,0,0,0,0,3,3,18.07,FLYING
18.34,APPROACH,ILS_TRACK,156.03,140,-16.03,2288.26,-7.53,8.56,10.96,270.27,-0.162,0.0302,-20,270.27,-2.162,6.38,-7.93,42.496,-0.132,0.838,0,0,0,269.52,0,0,0,0,0,0,0,0,0,0,0,0,0,3,3,18.39,FLYING
18.63,APPROACH,ILS_TRACK,155.01,140,-15.01,2286.05,-7.37,8.34,10.71,270.27,-0.143,0.0587,-20,270.27,-2.159,6.22,-7.36,42.44,-0.13,0.841,0,0,0,269.52,0,0,0,0,0,0,0,0,0,0,0,0,0,3,3,18.67,FLYING
18.93,APPROACH,ILS_TRACK,154.07,140,-14.07,2283.81,-7.44,8.24,10.63,270.27,-0.122,0.0803,-20,270.28,-2.309,6.07,-6.83,42.386,-0.124,0.691,0,0,0,269.52,0,0,0,0,0,0,0,0,0,0,0,0,0,3,3,18.97,FLYING
19.19,APPROACH,ILS_TRACK,153.26,140,-13.26,2281.93,-7.5,8.5,10.9,270.27,-0.108,0.0964,-20,270.28,-2.672,5.95,-6.32,42.34,-0.118,0.328,0,0,0,269.52,0,0,0,0,0,0,0,0,0,0,0,0,0,3,3,19.23,FLYING
19.45,APPROACH,ILS_TRACK,152.47,140,-12.47,2280,-7.29,8.44,10.84,270.27,-0.113,0.107,-20,270.29,-2.813,5.82,-5.82,42.295,-0.113,0.187,0,0,0,269.52,0,0,0,0,0,0,0,0,0,0,0,0,0,3,3,19.49,FLYING
19.71,APPROACH,ILS_TRACK,151.72,140,-11.72,2277.98,-7.31,8,10.42,270.28,-0.132,0.109,-20,270.29,-2.56,5.7,-5.43,42.249,-0.11,0.44,0,0,0,269.52,0,0,0,0,0,0,0,0,0,0,0,0,0,3,3,19.75,FLYING
20.01,APPROACH,ILS_TRACK,150.89,140,-10.89,2275.65,-7.56,7.65,10.14,270.28,-0.119,0.102,-20,270.29,-2.559,5.57,-5.03,42.197,-0.111,0.441,0,0,0,269.52,0,0,0,0,0,0,0,0,0,0,0,0,0,3,3,20.05,FLYING
20.27,APPROACH,ILS_TRACK,150.2,140,-10.2,2273.67,-7.84,7.74,10.29,270.28,-0.103,0.0923,-20,270.3,-2.725,5.45,-4.66,42.152,-0.102,0.275,0,0,0,269.52,0,0,0,0,0,0,0,0,0,0,0,0,0,3,3,20.31,FLYING
20.53,APPROACH,ILS_TRACK,149.51,140,-9.51,2271.73,-8.04,8.21,10.82,270.28,-0.103,0.0839,-20,270.3,-2.948,5.33,-4.27,42.107,-0.1,0.052,0,0,0,269.52,0,0,0,0,0,0,0,0,0,0,0,0,0,3,3,20.57,FLYING
20.79,APPROACH,ILS_TRACK,148.82,140,-8.82,2269.76,-8,8.61,11.26,270.28,-0.122,0.0766,-20,270.3,-3.062,5.21,-3.87,42.062,-0.096,-0.062,0,0,0,269.52,0,0,0,0,0,0,0,0,0,0,0,0,0,3,3,20.83,FLYING
21.09,APPROACH,ILS_TRACK,148.02,140,-8.02,2267.36,-7.96,8.54,11.21,270.29,-0.147,0.0721,-20,270.3,-2.809,5.08,-3.54,42.011,-0.096,0.191,0,0,0,269.52,0,0,0,0,0,0,0,0,0,0,0,0,0,3,3,21.13,FLYING
21.35,APPROACH,ILS_TRACK,147.34,140,-7.34,2265.25,-8.1,8.48,11.19,270.29,-0.133,0.0685,-20,270.31,-2.641,4.97,-3.33,41.967,-0.09,0.359,0,0,0,269.52,0,0,0,0,0,0,0,0,0,0,0,0,0,3,3,21.39,FLYING
21.61,APPROACH,ILS_TRACK,146.66,140,-6.66,2263.18,-8.3,8.7,11.46,270.29,-0.121,0.0972,-20,270.31,-2.746,4.86,-3.11,41.923,-0.091,0.254,0,0,0,269.52,0,0,0,0,0,0,0,0,0,0,0,0,0,3,3,21.65,FLYING
21.87,APPROACH,ILS_TRACK,145.96,140,-5.96,2261.15,-8.37,9.22,12.02,270.29,-0.112,0.1301,-20,270.32,-2.943,4.75,-2.85,41.879,-0.08,0.057,0,0,0,269.52,0,0,0,0,0,0,0,0,0,0,0,0,0,3,3,21.91,FLYING
22.17,APPROACH,ILS_TRACK,145.16,140,-5.16,2258.76,-8.3,9.58,12.39,270.29,-0.109,0.1698,-20,270.31,-2.943,4.63,-2.58,41.829,-0.088,0.057,0,0,0,269.52,0,0,0,0,0,0,0,0,0,0,0,0,0,3,3,22.21,FLYING
22.43,APPROACH,ILS_TRACK,144.46,140,-4.46,2256.67,-8.27,9.8,12.62,270.29,-0.105,0.2048,-20,270.32,-2.852,4.52,-2.4,41.785,-0.076,0.148,0,0,0,269.52,0,0,0,0,0,0,0,0,0,0,0,0,0,3,3,22.47,FLYING
22.69,APPROACH,ILS_TRACK,143.76,140,-3.76,2254.58,-8.23,10.01,12.83,270.29,-0.098,0.2387,-20,270.32,-2.873,4.42,-2.22,41.742,-0.076,0.127,0,0,0,269.52,0,0,0,0,0,0,0,0,0,0,0,0,0,3,3,22.73,FLYING
22.95,APPROACH,ILS_TRACK,143.08,140,-3.08,2252.49,-8.19,10.17,12.99,270.29,-0.094,0.2698,-20,270.32,-2.885,4.31,-2.06,41.699,-0.075,0.115,0,0,0,269.52,0,0,0,0,0,0,0,0,0,0,0,0,0,3,3,22.99,FLYING
23.25,APPROACH,ILS_TRACK,142.32,140,-2.32,2250.09,-8.14,10.32,13.14,270.29,-0.091,0.3017,-20,270.33,-2.913,4.2,-1.88,41.65,-0.072,0.087,0,0,0,269.52,0,0,0,0,0,0,0,0,0,0,0,0,0,3,3,23.29,FLYING
23.51,APPROACH,ILS_TRACK,141.69,140,-1.69,2248,-8.11,10.43,13.26,270.29,-0.09,0.3238,-20,270.33,-2.936,4.1,-1.73,41.607,-0.07,0.064,0,0,0,269.52,0,0,0,0,0,0,0,0,0,0,0,0,0,3,3,23.55,FLYING
23.77,APPROACH,ILS_TRACK,141.08,140,-1.08,2245.93,-8.06,10.53,13.35,270.3,-0.093,0.3414,-20,270.34,-2.967,4,-1.59,41.565,-0.065,0.033,0,0,0,269.52,0,0,0,0,0,0,0,0,0,0,0,0,0,3,3,23.81,FLYING
24.03,APPROACH,ILS_TRACK,140.5,140,-0.5,2243.84,-8.06,10.54,13.37,270.3,-0.101,0.3547,-20,270.33,-2.952,3.91,-1.46,41.522,-0.068,0.048,0,0,0,269.52,0,0,0,0,0,0,0,0,0,0,0,0,0,3,3,24.07,FLYING
24.33,APPROACH,ILS_TRACK,139.87,140,0.13,2241.47,-8.02,10.71,13.55,270.3,-0.104,0.3669,-19.987,270.34,-3.041,3.79,-1.3,41.474,-0.056,-0.041,0,0,0,269.52,0,0,0,0,0,0,0,0,0,0,0,0,0,3,3,24.37,FLYING
24.59,APPROACH,ILS_TRACK,139.36,140,0.64,2239.36,-7.96,10.61,13.44,270.31,-0.122,0.3744,-19.84,270.34,-2.988,3.7,-1.19,41.432,-0.061,0.012,0,0,0,269.52,0,0,0,0,0,0,0,0,0,0,0,0,0,3,3,24.63,FLYING
24.85,APPROACH,ILS_TRACK,138.89,140,1.11,2237.28,-8.05,10.58,13.43,270.31,-0.122,0.3756,-19.569,270.35,-2.935,3.61,-1.1,41.39,-0.053,0.065,0,0,0,269.52,0,0,0,0,0,0,0,0,0,0,0,0,0,3,3,24.89,FLYING
25.11,APPROACH,ILS_TRACK,138.45,140,1.55,2235.24,-8.1,10.83,13.7,270.31,-0.122,0.376,-19.183,270.35,-3.093,3.52,-0.98,41.349,-0.053,-0.093,0,0,0,269.52,0,0,0,0,0,0,0,0,0,0,0,0,0,3,3,25.15,FLYING
25.41,APPROACH,ILS_TRACK,137.95,140,2.05,2232.83,-7.98,10.81,13.67,270.32,-0.141,0.3851,-18.588,270.35,-3.092,3.41,-0.85,41.301,-0.05,-0.092,0,0,0,269.52,0,0,0,0,0,0,0,0,0,0,0,0,0,3,3,25.45,FLYING
25.67,APPROACH,ILS_TRACK,137.58,140,2.42,2230.75,-8.08,10.82,13.71,270.32,-0.148,0.3838,-17.973,270.35,-2.981,3.33,-0.78,41.26,-0.05,0.019,0,0,0,269.52,0,0,0,0,0,0,0,0,0,0,0,0,0,3,3,25.71,FLYING
25.93,APPROACH,ILS_TRACK,137.22,140,2.78,2228.7,-8.06,11.05,13.95,270.32,-0.141,0.3834,-17.263,270.35,-3.138,3.24,-0.67,41.218,-0.046,-0.138,0,0,0,269.52,0,0,0,0,0,0,0,0,0,0,0,0,0,3,3,25.97,FLYING
26.19,APPROACH,ILS_TRACK,136.86,140,3.14,2226.59,-7.95,10.9,13.79,270.33,-0.154,0.3903,-16.459,270.36,-3.044,3.15,-0.59,41.177,-0.043,-0.044,0,0,0,269.52,0,0,0,0,0,0,0,0,0,0,0,0,0,3,3,26.23,FLYING
26.49,APPROACH,ILS_TRACK,136.51,140,3.49,2224.15,-8.09,10.79,13.7,270.33,-0.149,0.392,-15.427,270.35,-2.908,3.06,-0.57,41.13,-0.047,0.092,0,0,0,269.52,0,0,0,0,0,0,0,0,0,0,0,0,0,3,3,26.53,FLYING
26.75,APPROACH,ILS_TRACK,136.24,140,3.76,2222.1,-8.21,11.04,13.99,270.33,-0.133,0.3887,-14.461,270.36,-3.061,2.98,-0.5,41.089,-0.039,-0.061,0,0,0,269.52,0,0,0,0,0,0,0,0,0,0,0,0,0,3,3,26.79,FLYING
27.01,APPROACH,ILS_TRACK,135.97,140,4.03,2220.03,-8.06,11.19,14.12,270.33,-0.134,0.3915,-13.424,270.36,-3.158,2.9,-0.41,41.048,-0.038,-0.158,0,0,0,269.52,0,0,0,0,0,0,0,0,0,0,0,0,0,3,3,27.05,FLYING
27.27,APPROACH,ILS_TRACK,135.72,140,4.28,2217.89,-8.03,11.01,13.94,270.33,-0.144,0.3976,-12.32,270.36,-2.946,2.82,-0.39,41.007,-0.041,0.054,0,0,0,269.52,0,0,0,0,0,0,0,0,0,0,0,0,0,3,3,27.31,FLYING
27.57,APPROACH,ILS_TRACK,135.48,140,4.52,2215.46,-8.19,11,13.96,270.33,-0.125,0.4001,-10.972,270.36,-2.901,2.74,-0.38,40.96,-0.038,0.099,0,0,0,269.52,0,0,0,0,0,0,0,0,0,0,0,0,0,3,3,27.61,FLYING
27.83,APPROACH,ILS_TRACK,135.28,140,4.72,2213.4,-8.17,11.28,14.25,270.33,-0.122,0.4005,-9.753,270.36,-3.093,2.67,-0.32,40.92,-0.039,-0.093,0,0,0,269.52,0,0,0,0,0,0,0,0,0,0,0,0,0,3,3,27.87,FLYING
28.09,APPROACH,ILS_TRACK,135.07,140,4.93,2211.28,-8.09,11.24,14.2,270.33,-0.12,0.4099,-8.48,270.37,-3.018,2.6,-0.29,40.879,-0.033,-0.018,0,0,0,269.52,0,0,0,0,0,0,0,0,0,0,0,0,0,3,3,28.13,FLYING
28.35,APPROACH,ILS_TRACK,134.91,140,5.09,2209.18,-8.19,11.3,14.28,270.34,-0.113,0.4126,-7.164,270.37,-2.941,2.52,-0.28,40.839,-0.027,0.059,0,0,0,269.52,0,0,0,0,0,0,0,0,0,0,0,0,0,3,3,28.39,FLYING
28.65,APPROACH,ILS_TRACK,134.73,140,5.27,2206.77,-8.05,11.4,14.36,270.34,-0.11,0.4216,-5.591,270.37,-3.049,2.44,-0.23,40.792,-0.032,-0.049,0,0,0,269.52,0,0,0,0,0,0,0,0,0,0,0,0,0,3,3,28.69,FLYING
28.91,APPROACH,ILS_TRACK,134.59,140,5.41,2204.65,-8.08,11.3,14.26,270.34,-0.108,0.4279,-4.19,270.37,-2.928,2.37,-0.23,40.752,-0.029,0.072,0,0,0,269.52,0,0,0,0,0,0,0,0,0,0,0,0,0,3,3,28.95,FLYING
29.17,APPROACH,ILS_TRACK,134.49,140,5.51,2202.57,-8.09,11.4,14.36,270.34,-0.102,0.4299,-2.761,270.37,-2.991,2.3,-0.22,40.711,-0.027,0.009,0,0,0,269.52,0,0,0,0,0,0,0,0,0,0,0,0,0,3,3,29.21,FLYING
29.43,APPROACH,ILS_TRACK,134.38,140,5.62,2200.47,-8.04,11.37,14.33,270.34,-0.099,0.436,-1.303,270.37,-3.009,2.24,-0.19,40.671,-0.027,-0.009,0,0,0,269.52,0,0,0,0,0,0,0,0,0,0,0,0,0,3,3,29.47,FLYING
29.73,APPROACH,ILS_TRACK,134.29,140,5.71,2198.06,-8.04,11.42,14.38,270.34,-0.097,0.4415,0.405,270.38,-3.001,2.16,-0.17,40.624,-0.023,-0.001,0,0,0,269.52,0,0,0,0,0,0,0,0,0,0,0,0,0,3,3,29.77,FLYING
29.99,APPROACH,ILS_TRACK,134.22,140,5.78,2195.96,-8.04,11.37,14.32,270.34,-0.097,0.4468,1.905,270.38,-3.008,2.1,-0.16,40.584,-0.022,-0.008,0,0,0,269.52,0,0,0,0,0,0,0,0,0,0,0,0,0,3,3,30.03,FLYING
30.25,APPROACH,ILS_TRACK,134.18,140,5.82,2193.87,-8.01,11.36,14.31,270.34,-0.096,0.4484,3.416,270.38,-3.021,2.04,-0.14,40.544,-0.023,-0.021,0,0,0,269.52,0,0,0,0,0,0,0,0,0,0,0,0,0,3,3,30.29,FLYING
30.51,APPROACH,ILS_TRACK,134.16,140,5.84,2191.78,-8.03,11.34,14.29,270.34,-0.095,0.4499,4.934,270.38,-3.014,1.97,-0.12,40.504,-0.017,-0.014,0,0,0,269.52,0,0,0,0,0,0,0,0,0,0,0,0,0,3,3,30.55,FLYING
30.81,APPROACH,ILS_TRACK,134.15,140,5.85,2189.38,-8.04,11.34,14.29,270.34,-0.095,0.4534,6.688,270.38,-3.041,1.91,-0.09,40.457,-0.02,-0.041,0,0,0,269.52,0,0,0,0,0,0,0,0,0,0,0,0,0,3,3,30.85,FLYING
31.07,APPROACH,ILS_TRACK,134.15,140,5.85,2187.29,-7.93,11.28,14.21,270.35,-0.098,0.4548,8.208,270.39,-3.073,1.84,-0.06,40.417,-0.014,-0.073,0,0,0,269.52,0,0,0,0,0,0,0,0,0,0,0,0,0,3,3,31.11,FLYING
31.33,APPROACH,ILS_TRACK,134.18,140,5.82,2185.19,-8.03,11.2,14.14,270.35,-0.104,0.4546,9.722,270.39,-2.987,1.78,-0.06,40.377,-0.011,0.013,0,0,0,269.52,0,0,0,0,0,0,0,0,0,0,0,0,0,3,3,31.37,FLYING
31.59,APPROACH,ILS_TRACK,134.23,140,5.77,2183.12,-7.93,11.26,14.2,270.35,-0.104,0.4522,11.224,270.38,-3.127,1.73,-0.02,40.336,-0.019,-0.127,0,0,0,269.52,0,0,0,0,0,0,0,0,0,0,0,0,0,3,3,31.63,FLYING
31.89,APPROACH,ILS_TRACK,134.28,140,5.72,2180.67,-7.95,10.97,13.9,270.35,-0.116,0.4576,12.945,270.39,-2.978,1.66,-0.02,40.29,-0.007,0.022,0,0,0,269.52,0,0,0,0,0,0,0,0,0,0,0,0,0,3,3,31.93,FLYING
32.15,APPROACH,ILS_TRACK,134.38,140,5.62,2178.59,-8.13,11,13.96,270.36,-0.11,0.4494,14.411,270.38,-2.998,1.61,-0.02,40.25,-0.015,0.002,0,0,0,269.52,0,0,0,0,0,0,0,0,0,0,0,0,0,3,3,32.19,FLYING
32.41,APPROACH,ILS_TRACK,134.47,140,5.53,2176.52,-7.98,11.1,14.05,270.36,-0.104,0.4452,15.853,270.39,-3.171,1.56,0.03,40.21,-0.013,-0.171,0,0,0,269.52,0,0,0,0,0,0,0,0,0,0,0,0,0,3,3,32.45,FLYING
32.67,APPROACH,ILS_TRACK,134.55,140,5.45,2174.37,-7.96,10.81,13.75,270.36,-0.121,0.448,17.275,270.39,-2.974,1.5,0.02,40.169,-0.006,0.026,0,0,0,269.52,0,0,0,0,0,0,0,0,0,0,0,0,0,3,3,32.71,FLYING
32.97,APPROACH,ILS_TRACK,134.71,140,5.29,2171.93,-8.17,10.74,13.72,270.36,-0.112,0.4395,18.868,270.39,-2.935,1.44,0,40.123,-0.008,0.065,0,0,0,269.52,0,0,0,0,0,0,0,0,0,0,0,0,0,3,3,33.01,FLYING
33.23,APPROACH,ILS_TRACK,134.85,140,5.15,2169.87,-8.1,10.96,13.94,270.36,-0.11,0.4293,20,270.39,-3.157,1.39,0.04,40.082,-0.006,-0.157,0,0,0,269.52,0,0,0,0,0,0,0,0,0,0,0,0,0,3,3,33.27,FLYING
33.49,APPROACH,ILS_TRACK,134.96,140,5.04,2167.72,-8.04,10.76,13.72,270.36,-0.12,0.4179,20,270.4,-3.005,1.34,0.04,40.042,-0.003,-0.005,0,0,0,269.52,0,0,0,0,0,0,0,0,0,0,0,0,0,3,3,33.53,FLYING
33.75,APPROACH,ILS_TRACK,135.12,140,4.88,2165.6,-8.21,10.72,13.71,270.37,-0.112,0.3942,20,270.4,-2.931,1.29,0.02,40.001,-0.004,0.069,0,0,0,269.52,0,0,0,0,0,0,0,0,0,0,0,0,0,3,3,33.79,FLYING
34.05,APPROACH,ILS_TRACK,135.3,140,4.7,2163.23,-8.2,11.12,14.11,270.37,-0.109,0.3723,20,270.4,-3.178,1.23,0.07,39.955,-0.005,-0.178,0,0,0,269.52,0,0,0,0,0,0,0,0,0,0,0,0,0,3,3,34.09,FLYING
34.31,APPROACH,ILS_TRACK,135.37,140,4.63,2161.07,-7.91,10.86,13.78,270.37,-0.123,0.3745,20,270.4,-3.098,1.19,0.1,39.914,-0.002,-0.098,0,0,0,269.52,0,0,0,0,0,0,0,0,0,0,0,0,0,3,3,34.35,FLYING
34.57,APPROACH,ILS_TRACK,135.52,140,4.48,2158.88,-8.03,10.44,13.38,270.37,-0.126,0.3615,20,270.39,-2.79,1.14,0.03,39.874,-0.005,0.21,0,0,0,269.52,0,0,0,0,0,0,0,0,0,0,0,0,0,3,3,34.61,FLYING
34.83,APPROACH,ILS_TRACK,135.7,140,4.3,2156.75,-8.26,10.39,13.38,270.37,-0.124,0.3388,20,270.4,-2.892,1.1,-0.01,39.833,-0.003,0.108,0,0,0,269.52,0,0,0,0,0,0,0,0,0,0,0,0,0,3,3,34.87,FLYING
35.13,APPROACH,ILS_TRACK,135.88,140,4.12,2154.35,-8.21,10.73,13.72,270.38,-0.122,0.3211,20,270.4,-3.158,1.05,0.05,39.786,0.003,-0.158,0,0,0,269.52,0,0,0,0,0,0,0,0,0,0,0,0,0,3,3,35.17,FLYING
35.39,APPROACH,ILS_TRACK,135.98,140,4.02,2152.19,-8.12,10.53,13.5,270.38,-0.123,0.322,20,270.4,-3.006,1.01,0.04,39.746,-0.004,-0.006,0,0,0,269.52,0,0,0,0,0,0,0,0,0,0,0,0,0,3,3,35.43,FLYING
35.65,APPROACH,ILS_TRACK,136.12,140,3.88,2150.03,-8.28,10.45,13.45,270.38,-0.11,0.312,20,270.4,-2.881,0.97,0,39.705,0.002,0.119,0,0,0,269.52,0,0,0,0,0,0,0,0,0,0,0,0,0,3,3,35.69,FLYING
35.91,APPROACH,ILS_TRACK,136.25,140,3.75,2147.93,-8.27,10.68,13.69,270.38,-0.107,0.3048,20,270.4,-3.071,0.93,0.03,39.664,0,-0.071,0,0,0,269.52,0,0,0,0,0,0,0,0,0,0,0,0,0,3,3,35.95,FLYING
36.21,APPROACH,ILS_TRACK,136.34,140,3.66,2145.44,-8.21,10.57,13.56,270.38,-0.101,0.31,20,270.4,-2.996,0.88,0.02,39.617,0.001,0.004,0,0,0,269.52,0,0,0,0,0,0,0,0,0,0,0,0,0,3,3,36.25,FLYING
36.47,APPROACH,ILS_TRACK,136.43,140,3.57,2143.31,-8.28,10.64,13.64,270.38,-0.089,0.309,20,270.4,-2.964,0.85,0.01,39.576,0.001,0.036,0,0,0,269.52,0,0,0,0,0,0,0,0,0,0,0,0,0,3,3,36.51,FLYING
36.73,APPROACH,ILS_TRACK,136.5,140,3.5,2141.17,-8.2,10.65,13.63,270.38,-0.081,0.313,20,270.4,-3.034,0.81,0.02,39.536,0.003,-0.034,0,0,0,269.52,0,0,0,0,0,0,0,0,0,0,0,0,0,3,3,36.77,FLYING
36.99,APPROACH,ILS_TRACK,136.57,140,3.43,2139.02,-8.28,10.63,13.62,270.38,-0.077,0.3172,20,270.4,-2.96,0.78,0,39.495,-0.001,0.04,0,0,0,269.52,0,0,0,0,0,0,0,0,0,0,0,0,0,3,3,37.03,FLYING
37.29,APPROACH,ILS_TRACK,136.63,140,3.37,2136.56,-8.18,10.65,13.62,270.38,-0.07,0.323,20,270.4,-3.04,0.74,0.02,39.448,0.004,-0.04,0,0,0,269.52,0,0,0,0,0,0,0,0,0,0,0,0,0,3,3,37.33,FLYING
37.55,APPROACH,ILS_TRACK,136.68,140,3.32,2134.42,-8.25,10.65,13.64,270.38,-0.068,0.3285,20,270.4,-2.971,0.71,0.01,39.407,0.005,0.029,0,0,0,269.52,0,0,0,0,0,0,0,0,0,0,0,0,0,3,3,37.59,FLYING
37.81,APPROACH,ILS_TRACK,136.72,140,3.28,2132.29,-8.16,10.63,13.6,270.38,-0.067,0.3336,20,270.4,-3.039,0.67,0.02,39.366,0.005,-0.039,0,0,0,269.52,0,0,0,0,0,0,0,0,0,0,0,0,0,3,3,37.85,FLYING
38.07,APPROACH,ILS_TRACK,136.76,140,3.24,2130.15,-8.25,10.61,13.58,270.38,-0.066,0.3374,20,270.4,-2.98,0.64,0.01,39.325,0.002,0.02,0,0,0,269.52,0,0,0,0,0,0,0,0,0,0,0,0,0,3,3,38.11,FLYING
38.37,APPROACH,ILS_TRACK,136.81,140,3.19,2127.69,-8.14,10.62,13.58,270.38,-0.064,0.34,20,270.41,-3.061,0.61,0.03,39.278,0.008,-0.061,0,0,0,269.52,0,0,0,0,0,0,0,0,0,0,0,0,0,3,3,38.41,FLYING
38.63,APPROACH,ILS_TRACK,136.85,140,3.15,2125.54,-8.21,10.52,13.49,270.38,-0.065,0.3428,20,270.4,-2.977,0.58,0.02,39.237,0.002,0.023,0,0,0,269.52,0,0,0,0,0,0,0,0,0,0,0,0,0,3,3,38.67,FLYING
38.89,APPROACH,ILS_TRACK,136.89,140,3.11,2123.42,-8.17,10.61,13.58,270.38,-0.062,0.3422,20,270.41,-3.072,0.55,0.04,39.196,0.009,-0.072,0,0,0,269.52,0,0,0,0,0,0,0,0,0,0,0,0,0,3,3,38.93,FLYING
39.15,APPROACH,ILS_TRACK,136.93,140,3.07,2121.28,-8.19,10.52,13.48,270.38,-0.063,0.3456,20,270.41,-3.018,0.52,0.04,39.156,0.008,-0.018,0,0,0,269.52,0,0,0,0,0,0,0,0,0,0,0,0,0,3,3,39.19,FLYING
39.45,APPROACH,ILS_TRACK,136.98,140,3.02,2118.84,-8.16,10.65,13.61,270.38,-0.062,0.3431,20,270.41,-3.091,0.49,0.07,39.108,0.007,-0.091,0,0,0,269.52,0,0,0,0,0,0,0,0,0,0,0,0,0,3,3,39.49,FLYING
39.71,APPROACH,ILS_TRACK,137,140,3,2116.68,-8.14,10.48,13.43,270.38,-0.064,0.3484,20,270.41,-3.025,0.45,0.07,39.068,0.013,-0.025,0,0,0,269.52,0,0,0,0,0,0,0,0,0,0,0,0,0,3,3,39.75,FLYING
39.97,APPROACH,ILS_TRACK,137.06,140,2.94,2114.56,-8.26,10.53,13.5,270.38,-0.062,0.3436,20,270.41,-3.013,0.43,0.07,39.027,0.006,-0.013,0,0,0,269.52,0,0,0,0,0,0,0,0,0,0,0,0,0,3,3,40.01,FLYING
40.23,APPROACH,ILS_TRACK,137.1,140,2.9,2112.43,-8.12,10.53,13.48,270.38,-0.063,0.3423,20,270.41,-3.126,0.4,0.1,38.986,0.009,-0.126,0,0,0,269.52,0,0,0,0,0,0,0,0,0,0,0,0,0,3,3,40.27,FLYING
40.53,APPROACH,ILS_TRACK,137.15,140,2.85,2109.95,-8.2,10.37,13.33,270.39,-0.071,0.3395,20,270.41,-2.984,0.37,0.08,38.939,0.011,0.016,0,0,0,269.52,0,0,0,0,0,0,0,0,0,0,0,0,0,3,3,40.57,FLYING
40.79,APPROACH,ILS_TRACK,137.21,140,2.79,2107.84,-8.23,10.51,13.49,270.39,-0.068,0.3334,20,270.41,-3.094,0.35,0.1,38.898,0.011,-0.094,0,0,0,269.52,0,0,0,0,0,0,0,0,0,0,0,0,0,3,3,40.83,FLYING
41.05,APPROACH,ILS_TRACK,137.24,140,2.76,2105.69,-8.18,10.42,13.38,270.39,-0.07,0.3352,20,270.41,-3.082,0.32,0.12,38.857,0.008,-0.082,0,0,0,269.52,0,0,0,0,0,0,0,0,0,0,0,0,0,3,3,41.09,FLYING
41.31,APPROACH,ILS_TRACK,137.3,140,2.7,2103.57,-8.21,10.47,13.44,270.39,-0.069,0.3303,20,270.41,-3.063,0.3,0.13,38.816,0.015,-0.063,0,0,0,269.52,0,0,0,0,0,0,0,0,0,0,0,0,0,3,3,41.35,FLYING
41.61,APPROACH,ILS_TRACK,137.35,140,2.65,2101.11,-8.2,10.48,13.45,270.39,-0.069,0.3279,20,270.41,-3.089,0.27,0.14,38.769,0.011,-0.089,0,0,0,269.52,0,0,0,0,0,0,0,0,0,0,0,0,0,3,3,41.65,FLYING
41.87,APPROACH,ILS_TRACK,137.39,140,2.61,2098.96,-8.21,10.4,13.36,270.39,-0.069,0.3269,20,270.42,-3.06,0.24,0.15,38.728,0.017,-0.06,0,0,0,269.52,0,0,0,0,0,0,0,0,0,0,0,0,0,3,3,41.91,FLYING
42.13,APPROACH,ILS_TRACK,137.44,140,2.56,2096.83,-8.17,10.45,13.41,270.39,-0.069,0.3237,20,270.41,-3.103,0.22,0.17,38.687,0.01,-0.103,0,0,0,269.52,0,0,0,0,0,0,0,0,0,0,0,0,0,3,3,42.17,FLYING
42.39,APPROACH,ILS_TRACK,137.48,140,2.52,2094.68,-8.22,10.37,13.34,270.39,-0.069,0.3241,20,270.41,-3.055,0.21,0.17,38.646,0.008,-0.055,0,0,0,269.52,0,0,0,0,0,0,0,0,0,0,0,0,0,3,3,42.43,FLYING
42.69,APPROACH,ILS_TRACK,137.52,140,2.48,2092.23,-8.17,10.43,13.4,270.39,-0.066,0.3217,20,270.41,-3.12,0.18,0.19,38.599,0.014,-0.12,0,0,0,269.52,0,0,0,0,0,0,0,0,0,0,0,0,0,3,3,42.73,FLYING
42.95,APPROACH,ILS_TRACK,137.56,140,2.44,2090.07,-8.2,10.3,13.26,270.39,-0.068,0.323,20,270.41,-3.041,0.16,0.19,38.558,0.014,-0.041,0,0,0,269.52,0,0,0,0,0,0,0,0,0,0,0,0,0,3,3,42.99,FLYING
43.21,APPROACH,ILS_TRACK,137.6,140,2.4,2087.96,-8.28,10.42,13.4,270.39,-0.066,0.32,20,270.42,-3.087,0.14,0.2,38.517,0.018,-0.087,0,0,0,269.52,0,0,0,0,0,0,0,0,0,0,0,0,0,3,3,43.25,FLYING
43.47,APPROACH,ILS_TRACK,137.62,140,2.38,2085.81,-8.16,10.37,13.33,270.39,-0.066,0.3234,20,270.41,-3.141,0.12,0.22,38.476,0.011,-0.141,0,0,0,269.52,0,0,0,0,0,0,0,0,0,0,0,0,0,3,3,43.51,FLYING
43.77,APPROACH,ILS_TRACK,137.66,140,2.34,2083.33,-8.29,10.31,13.29,270.4,-0.065,0.3223,20,270.41,-3.026,0.1,0.21,38.428,0.009,-0.026,0,0,0,269.52,0,0,0,0,0,0,0,0,0,0,0,0,0,3,3,43.81,FLYING
44.03,APPROACH,ILS_TRACK,137.68,140,2.32,2081.21,-8.19,10.42,13.39,270.4,-0.059,0.3219,20,270.42,-3.165,0.08,0.24,38.387,0.017,-0.165,0,0,0,269.52,0,0,0,0,0,0,0,0,0,0,0,0,0,3,3,44.07,FLYING
44.29,APPROACH,ILS_TRACK,137.69,140,2.31,2079.03,-8.19,10.21,13.17,270.4,-0.065,0.3269,20,270.41,-3.017,0.07,0.22,38.346,0.013,-0.017,0,0,0,269.52,0,0,0,0,0,0,0,0,0,0,0,0,0,3,3,44.33,FLYING
44.55,APPROACH,ILS_TRACK,137.74,140,2.26,2076.88,-8.35,10.22,13.22,270.4,-0.061,0.3229,20,270.42,-2.999,0.05,0.2,38.305,0.015,0.001,0,0,0,269.52,0,0,0,0,0,0,0,0,0,0,0,0,0,3,3,44.59,FLYING
44.85,APPROACH,ILS_TRACK,137.76,140,2.24,2074.43,-8.23,10.38,13.37,270.4,-0.055,0.3225,20,270.41,-3.173,0.03,0.24,38.258,0.014,-0.173,0,0,0,269.52,0,0,0,0,0,0,0,0,0,0,0,0,0,3,3,44.89,FLYING
45.11,APPROACH,ILS_TRACK,137.77,140,2.23,2072.24,-8.22,10.19,13.17,270.4,-0.058,0.3266,20,270.41,-2.996,0.02,0.22,38.217,0.013,0.004,0,0,0,269.52,0,0,0,0,0,0,0,0,0,0,0,0,0,3,3,45.15,FLYING
45.37,APPROACH,ILS_TRACK,137.81,140,2.19,2070.09,-8.39,10.21,13.22,270.4,-0.053,0.3227,20,270.42,-2.978,0,0.19,38.176,0.016,0.022,0,0,0,269.52,0,0,0,0,0,0,0,0,0,0,0,0,0,3,3,45.41,FLYING
45.63,APPROACH,ILS_TRACK,137.83,140,2.17,2067.96,-8.27,10.37,13.37,270.4,-0.051,0.3216,20,270.41,-3.146,-0.01,0.22,38.135,0.013,-0.146,0,0,0,269.52,0,0,0,0,0,0,0,0,0,0,0,0,0,3,3,45.67,FLYING
45.93,APPROACH,ILS_TRACK,137.84,140,2.16,2065.44,-8.28,10.2,13.2,270.4,-0.052,0.3251,20,270.42,-2.984,-0.03,0.19,38.088,0.015,0.016,0,0,0,269.52,0,0,0,0,0,0,0,0,0,0,0,0,0,3,3,45.97,FLYING
46.19,APPROACH,ILS_TRACK,137.88,140,2.12,2063.3,-8.38,10.31,13.33,270.4,-0.049,0.3219,20,270.41,-3.007,-0.04,0.18,38.047,0.015,-0.007,0,0,0,269.52,0,0,0,0,0,0,0,0,0,0,0,0,0,3,3,46.23,FLYING
46.45,APPROACH,ILS_TRACK,137.89,140,2.11,2061.15,-8.27,10.35,13.35,270.4,-0.046,0.323,20,270.41,-3.094,-0.06,0.19,38.006,0.013,-0.094,0,0,0,269.52,0,0,0,0,0,0,0,0,0,0,0,0,0,3,3,46.49,FLYING
46.71,APPROACH,ILS_TRACK,137.91,140,2.09,2058.98,-8.33,10.29,13.29,270.4,-0.045,0.324,20,270.42,-2.974,-0.07,0.16,37.965,0.017,0.026,0,0,0,269.52,0,0,0,0,0,0,0,0,0,0,0,0,0,3,3,46.75,FLYING
47.01,APPROACH,ILS_TRACK,137.92,140,2.08,2056.5,-8.26,10.37,13.37,270.4,-0.043,0.3236,20,270.41,-3.063,-0.08,0.17,37.917,0.01,-0.063,0,0,0,269.52,0,0,0,0,0,0,0,0,0,0,0,0,0,3,3,47.05,FLYING
47.27,APPROACH,ILS_TRACK,137.93,140,2.07,2054.34,-8.33,10.33,13.33,270.4,-0.042,0.3257,20,270.42,-2.985,-0.09,0.15,37.876,0.017,0.015,0,0,0,269.52,0,0,0,0,0,0,0,0,0,0,0,0,0,3,3,47.31,FLYING
47.53,APPROACH,ILS_TRACK,137.94,140,2.06,2052.2,-8.22,10.39,13.38,270.4,-0.04,0.3257,20,270.41,-3.079,-0.1,0.16,37.835,0.013,-0.079,0,0,0,269.52,0,0,0,0,0,0,0,0,0,0,0,0,0,3,3,47.57,FLYING
47.79,APPROACH,ILS_TRACK,137.95,140,2.05,2050.02,-8.28,10.29,13.28,270.4,-0.039,0.3288,20,270.42,-2.967,-0.12,0.13,37.794,0.017,0.033,0,0,0,269.52,0,0,0,0,0,0,0,0,0,0,0,0,0,3,3,47.83,FLYING
48.09,APPROACH,ILS_TRACK,137.97,140,2.03,2047.57,-8.23,10.41,13.4,270.4,-0.038,0.3269,20,270.42,-3.079,-0.13,0.15,37.747,0.018,-0.079,0,0,0,269.52,0,0,0,0,0,0,0,0,0,0,0,0,0,3,3,48.13,FLYING
48.35,APPROACH,ILS_TRACK,137.97,140,2.03,2045.39,-8.24,10.29,13.26,270.4,-0.038,0.3311,20,270.41,-2.995,-0.14,0.13,37.706,0.013,0.005,0,0,0,269.52,0,0,0,0,0,0,0,0,0,0,0,0,0,3,3,48.39,FLYING
48.61,APPROACH,ILS_TRACK,137.99,140,2.01,2043.26,-8.27,10.37,13.36,270.4,-0.036,0.3275,20,270.41,-3.038,-0.15,0.13,37.665,0.015,-0.038,0,0,0,269.52,0,0,0,0,0,0,0,0,0,0,0,0,0,3,3,48.65,FLYING
48.87,APPROACH,ILS_TRACK,138,140,2,2041.11,-8.26,10.33,13.31,270.4,-0.036,0.3284,20,270.42,-3.056,-0.16,0.14,37.624,0.021,-0.056,0,0,0,269.52,0,0,0,0,0,0,0,0,0,0,0,0,0,3,3,48.91,FLYING
49.17,APPROACH,ILS_TRACK,138.02,140,1.98,2038.63,-8.24,10.33,13.31,270.4,-0.036,0.3259,20,270.41,-3.048,-0.17,0.14,37.577,0.013,-0.048,0,0,0,269.52,0,0,0,0,0,0,0,0,0,0,0,0,0,3,3,49.21,FLYING
49.43,APPROACH,ILS_TRACK,138.04,140,1.96,2036.49,-8.21,10.32,13.29,270.4,-0.035,0.3235,20,270.42,-3.065,-0.18,0.15,37.536,0.02,-0.065,0,0,0,269.52,0,0,0,0,0,0,0,0,0,0,0,0,0,3,3,49.47,FLYING
49.69,APPROACH,ILS_TRACK,138.06,140,1.94,2034.35,-8.25,10.33,13.31,270.4,-0.034,0.3216,20,270.42,-3.045,-0.19,0.15,37.495,0.016,-0.045,0,0,0,269.52,0,0,0,0,0,0,0,0,0,0,0,0,0,3,3,49.73,FLYING
49.95,APPROACH,ILS_TRACK,138.08,140,1.92,2032.21,-8.18,10.31,13.27,270.4,-0.034,0.3204,20,270.41,-3.09,-0.2,0.16,37.454,0.014,-0.09,0,0,0,269.52,0,0,0,0,0,0,0,0,0,0,0,0,0,3,3,49.99,FLYING
50.25,APPROACH,ILS_TRACK,138.1,140,1.9,2029.73,-8.29,10.29,13.26,270.4,-0.033,0.3188,20,270.42,-3.034,-0.21,0.16,37.407,0.017,-0.034,0,0,0,269.52,0,0,0,0,0,0,0,0,0,0,0,0,0,3,3,50.29,FLYING
50.51,APPROACH,ILS_TRACK,138.11,140,1.89,2027.6,-8.16,10.3,13.27,270.4,-0.033,0.318,20,270.42,-3.128,-0.22,0.18,37.366,0.017,-0.128,0,0,0,269.52,0,0,0,0,0,0,0,0,0,0,0,0,0,3,3,50.55,FLYING
50.77,APPROACH,ILS_TRACK,138.13,140,1.87,2025.43,-8.22,10.16,13.12,270.4,-0.034,0.3187,20,270.41,-3.004,-0.22,0.17,37.325,0.015,-0.004,0,0,0,269.52,0,0,0,0,0,0,0,0,0,0,0,0,0,3,3,50.81,FLYING
51.03,APPROACH,ILS_TRACK,138.15,140,1.85,2023.31,-8.31,10.29,13.28,270.4,-0.032,0.3151,20,270.42,-3.075,-0.23,0.17,37.284,0.018,-0.075,0,0,0,269.52,0,0,0,0,0,0,0,0,0,0,0,0,0,3,3,51.07,FLYING
51.33,APPROACH,ILS_TRACK,138.16,140,1.84,2020.84,-8.2,10.26,13.23,270.4,-0.032,0.3183,20,270.42,-3.123,-0.24,0.2,37.236,0.016,-0.123,0,0,0,269.52,0,0,0,0,0,0,0,0,0,0,0,0,0,3,3,51.37,FLYING
51.59,APPROACH,ILS_TRACK,138.17,140,1.83,2018.69,-8.29,10.24,13.22,270.4,-0.032,0.317,20,270.41,-3.039,-0.25,0.19,37.195,0.015,-0.039,0,0,0,269.52,0,0,0,0,0,0,0,0,0,0,0,0,0,3,3,51.63,FLYING
51.85,APPROACH,ILS_TRACK,138.18,140,1.82,2016.56,-8.18,10.29,13.26,270.4,-0.031,0.3171,20,270.42,-3.139,-0.25,0.21,37.154,0.017,-0.139,0,0,0,269.52,0,0,0,0,0,0,0,0,0,0,0,0,0,3,3,51.89,FLYING
52.11,APPROACH,ILS_TRACK,138.18,140,1.82,2014.39,-8.21,10.13,13.1,270.4,-0.033,0.3198,20,270.42,-3.006,-0.26,0.2,37.113,0.018,-0.006,0,0,0,269.52,0,0,0,0,0,0,0,0,0,0,0,0,0,3,3,52.15,FLYING
52.41,APPROACH,ILS_TRACK,138.21,140,1.79,2011.94,-8.32,10.28,13.27,270.4,-0.031,0.3167,20,270.41,-3.072,-0.26,0.2,37.066,0.014,-0.072,0,0,0,269.52,0,0,0,0,0,0,0,0,0,0,0,0,0,3,3,52.45,FLYING
52.67,APPROACH,ILS_TRACK,138.2,140,1.8,2009.79,-8.21,10.21,13.18,270.4,-0.031,0.3216,20,270.42,-3.118,-0.27,0.22,37.025,0.021,-0.118,0,0,0,269.52,0,0,0,0,0,0,0,0,0,0,0,0,0,3,3,52.71,FLYING
52.93,APPROACH,ILS_TRACK,138.21,140,1.79,2007.63,-8.28,10.17,13.15,270.4,-0.033,0.3201,20,270.42,-3.014,-0.28,0.2,36.984,0.017,-0.014,0,0,0,269.52,0,0,0,0,0,0,0,0,0,0,0,0,0,3,3,52.97,FLYING
53.19,APPROACH,ILS_TRACK,138.23,140,1.77,2005.5,-8.24,10.28,13.26,270.4,-0.031,0.3181,20,270.42,-3.11,-0.28,0.22,36.943,0.016,-0.11,0,0,0,269.52,0,0,0,0,0,0,0,0,0,0,0,0,0,3,3,53.23,FLYING
53.49,APPROACH,ILS_TRACK,138.23,140,1.77,2003.01,-8.28,10.2,13.19,270.4,-0.031,0.3201,20,270.42,-3.044,-0.29,0.21,36.896,0.015,-0.044,0,0,0,269.52,0,0,0,0,0,0,0,0,0,0,0,0,0,3,3,53.53,FLYING
53.75,APPROACH,ILS_TRACK,138.24,140,1.76,2000.88,-8.23,10.28,13.27,270.4,-0.03,0.3187,20,270.42,-3.103,-0.3,0.22,36.855,0.02,-0.103,0,0,0,269.52,0,0,0,0,0,0,0,0,0,0,0,0,0,3,3,53.79,FLYING
54.01,APPROACH,ILS_TRACK,138.24,140,1.76,1998.72,-8.27,10.21,13.19,270.4,-0.03,0.3206,20,270.41,-3.035,-0.3,0.21,36.814,0.015,-0.035,0,0,0,269.52,0,0,0,0,0,0,0,0,0,0,0,0,0,3,3,54.05,FLYING
54.27,APPROACH,ILS_TRACK,138.25,140,1.75,1996.59,-8.23,10.28,13.27,270.4,-0.028,0.3191,20,270.41,-3.094,-0.3,0.22,36.773,0.015,-0.094,0,0,0,269.52,0,0,0,0,0,0,0,0,0,0,0,0,0,3,3,54.31,FLYING
54.57,APPROACH,ILS_TRACK,138.26,140,1.74,1994.1,-8.28,10.21,13.19,270.41,-0.028,0.3205,20,270.42,-3.035,-0.31,0.21,36.726,0.017,-0.035,0,0,0,269.52,0,0,0,0,0,0,0,0,0,0,0,0,0,3,3,54.61,FLYING
54.83,APPROACH,ILS_TRACK,138.26,140,1.74,1991.97,-8.2,10.28,13.26,270.41,-0.027,0.3193,20,270.42,-3.113,-0.31,0.23,36.685,0.018,-0.113,0,0,0,269.52,0,0,0,0,0,0,0,0,0,0,0,0,0,3,3,54.87,FLYING
55.09,APPROACH,ILS_TRACK,138.26,140,1.74,1989.8,-8.25,10.17,13.15,270.41,-0.026,0.3219,20,270.42,-3.018,-0.32,0.21,36.644,0.021,-0.018,0,0,0,269.52,0,0,0,0,0,0,0,0,0,0,0,0,0,3,3,55.13,FLYING
55.35,APPROACH,ILS_TRACK,138.28,140,1.72,1987.68,-8.29,10.31,13.3,270.41,-0.024,0.3191,20,270.42,-3.084,-0.32,0.22,36.603,0.015,-0.084,0,0,0,269.52,0,0,0,0,0,0,0,0,0,0,0,0,0,3,3,55.39,FLYING
55.65,APPROACH,ILS_TRACK,138.26,140,1.74,1985.19,-8.23,10.22,13.2,270.41,-0.025,0.3232,20,270.42,-3.086,-0.33,0.22,36.556,0.017,-0.086,0,0,0,269.52,0,0,0,0,0,0,0,0,0,0,0,0,0,3,3,55.69,FLYING
55.91,APPROACH,ILS_TRACK,138.28,140,1.72,1983.06,-8.23,10.27,13.25,270.41,-0.024,0.321,20,270.42,-3.075,-0.33,0.23,36.515,0.018,-0.075,0,0,0,269.52,0,0,0,0,0,0,0,0,0,0,0,0,0,3,3,55.95,FLYING
56.17,APPROACH,ILS_TRACK,138.28,140,1.72,1980.91,-8.24,10.25,13.23,270.41,-0.024,0.3212,20,270.41,-3.075,-0.33,0.23,36.474,0.013,-0.075,0,0,0,269.52,0,0,0,0,0,0,0,0,0,0,0,0,0,3,3,56.21,FLYING
56.43,APPROACH,ILS_TRACK,138.29,140,1.71,1978.77,-8.21,10.24,13.21,270.41,-0.023,0.3198,20,270.42,-3.084,-0.34,0.23,36.433,0.018,-0.084,0,0,0,269.52,0,0,0,0,0,0,0,0,0,0,0,0,0,3,3,56.47,FLYING
56.73,APPROACH,ILS_TRACK,138.3,140,1.7,1976.3,-8.26,10.24,13.22,270.41,-0.023,0.3182,20,270.42,-3.068,-0.34,0.23,36.386,0.018,-0.068,0,0,0,269.52,0,0,0,0,0,0,0,0,0,0,0,0,0,3,3,56.77,FLYING
56.99,APPROACH,ILS_TRACK,138.31,140,1.69,1974.16,-8.2,10.25,13.23,270.41,-0.024,0.3174,20,270.42,-3.113,-0.35,0.25,36.345,0.017,-0.113,0,0,0,269.52,0,0,0,0,0,0,0,0,0,0,0,0,0,3,3,57.03,FLYING
57.25,APPROACH,ILS_TRACK,138.32,140,1.68,1972.01,-8.23,10.17,13.14,270.41,-0.025,0.3174,20,270.42,-3.057,-0.35,0.24,36.304,0.016,-0.057,0,0,0,269.52,0,0,0,0,0,0,0,0,0,0,0,0,0,3,3,57.29,FLYING
57.51,APPROACH,ILS_TRACK,138.33,140,1.67,1969.89,-8.21,10.28,13.26,270.41,-0.024,0.3153,20,270.42,-3.126,-0.35,0.26,36.263,0.02,-0.126,0,0,0,269.52,0,0,0,0,0,0,0,0,0,0,0,0,0,3,3,57.55,FLYING
57.81,APPROACH,ILS_TRACK,138.32,140,1.68,1967.4,-8.21,10.12,13.1,270.41,-0.027,0.3191,20,270.42,-3.06,-0.36,0.25,36.216,0.016,-0.06,0,0,0,269.52,0,0,0,0,0,0,0,0,0,0,0,0,0,3,3,57.85,FLYING
58.07,APPROACH,ILS_TRACK,138.34,140,1.66,1965.27,-8.27,10.22,13.21,270.41,-0.025,0.3159,20,270.42,-3.087,-0.36,0.25,36.175,0.019,-0.087,0,0,0,269.52,0,0,0,0,0,0,0,0,0,0,0,0,0,3,3,58.11,FLYING
58.33,APPROACH,ILS_TRACK,138.34,140,1.66,1963.13,-8.18,10.19,13.17,270.41,-0.026,0.3172,20,270.41,-3.131,-0.36,0.27,36.134,0.012,-0.131,0,0,0,269.52,0,0,0,0,0,0,0,0,0,0,0,0,0,3,3,58.37,FLYING
58.59,APPROACH,ILS_TRACK,138.35,140,1.65,1960.98,-8.27,10.15,13.13,270.41,-0.025,0.316,20,270.42,-3.039,-0.36,0.26,36.093,0.019,-0.039,0,0,0,269.52,0,0,0,0,0,0,0,0,0,0,0,0,0,3,3,58.63,FLYING
58.89,APPROACH,ILS_TRACK,138.36,140,1.64,1958.53,-8.18,10.24,13.22,270.41,-0.024,0.315,20,270.42,-3.148,-0.37,0.28,36.046,0.018,-0.148,0,0,0,269.52,0,0,0,0,0,0,0,0,0,0,0,0,0,3,3,58.93,FLYING
59.15,APPROACH,ILS_TRACK,138.36,140,1.64,1956.35,-8.21,10.07,13.05,270.41,-0.026,0.3177,20,270.42,-3.019,-0.37,0.26,36.005,0.019,-0.019,0,0,0,269.52,0,0,0,0,0,0,0,0,0,0,0,0,0,3,3,59.19,FLYING
59.41,APPROACH,ILS_TRACK,138.37,140,1.63,1954.23,-8.34,10.17,13.17,270.41,-0.024,0.3142,20,270.42,-3.049,-0.37,0.25,35.964,0.016,-0.049,0,0,0,269.52,0,0,0,0,0,0,0,0,0,0,0,0,0,3,3,59.45,FLYING
59.67,APPROACH,ILS_TRACK,138.37,140,1.63,1952.09,-8.2,10.22,13.2,270.41,-0.024,0.315,20,270.41,-3.163,-0.37,0.28,35.923,0.014,-0.163,0,0,0,269.52,0,0,0,0,0,0,0,0,0,0,0,0,0,3,3,59.71,FLYING
59.97,APPROACH,ILS_TRACK,138.38,140,1.62,1949.58,-8.25,10.03,13.02,270.41,-0.024,0.3165,20,270.42,-2.987,-0.38,0.25,35.876,0.019,0.013,0,0,0,269.52,0,0,0,0,0,0,0,0,0,0,0,0,0,3,3,60.01,FLYING
60.23,APPROACH,ILS_TRACK,138.39,140,1.61,1947.45,-8.35,10.17,13.18,270.41,-0.022,0.3131,20,270.41,-3.051,-0.38,0.24,35.835,0.014,-0.051,0,0,0,269.52,0,0,0,0,0,0,0,0,0,0,0,0,0,3,3,60.27,FLYING
60.49,APPROACH,ILS_TRACK,138.39,140,1.61,1945.31,-8.24,10.21,13.2,270.41,-0.021,0.3151,20,270.42,-3.132,-0.38,0.26,35.794,0.017,-0.132,0,0,0,269.52,0,0,0,0,0,0,0,0,0,0,0,0,0,3,3,60.53,FLYING
60.75,APPROACH,ILS_TRACK,138.39,140,1.61,1943.14,-8.24,10.09,13.09,270.41,-0.022,0.3162,20,270.42,-3,-0.38,0.23,35.753,0.016,0,0,0,0,269.52,0,0,0,0,0,0,0,0,0,0,0,0,0,3,3,60.79,FLYING
61.05,APPROACH,ILS_TRACK,138.4,140,1.6,1940.67,-8.34,10.18,13.2,270.41,-0.02,0.3139,20,270.42,-3.022,-0.38,0.22,35.706,0.018,-0.022,0,0,0,269.52,0,0,0,0,0,0,0,0,0,0,0,0,0,3,3,61.09,FLYING
61.31,APPROACH,ILS_TRACK,138.4,140,1.6,1938.52,-8.23,10.21,13.21,270.41,-0.02,0.3151,20,270.42,-3.105,-0.38,0.23,35.665,0.016,-0.105,0,0,0,269.52,0,0,0,0,0,0,0,0,0,0,0,0,0,3,3,61.35,FLYING
61.57,APPROACH,ILS_TRACK,138.4,140,1.6,1936.36,-8.29,10.13,13.13,270.41,-0.019,0.3163,20,270.42,-2.98,-0.38,0.2,35.624,0.015,0.02,0,0,0,269.52,0,0,0,0,0,0,0,0,0,0,0,0,0,3,3,61.61,FLYING
61.83,APPROACH,ILS_TRACK,138.41,140,1.59,1934.22,-8.26,10.23,13.23,270.41,-0.018,0.3153,20,270.41,-3.068,-0.38,0.21,35.583,0.013,-0.068,0,0,0,269.52,0,0,0,0,0,0,0,0,0,0,0,0,0,3,3,61.87,FLYING
62.13,APPROACH,ILS_TRACK,138.4,140,1.6,1931.74,-8.28,10.2,13.2,270.41,-0.017,0.3176,20,270.42,-3.027,-0.38,0.19,35.536,0.019,-0.027,0,0,0,269.52,0,0,0,0,0,0,0,0,0,0,0,0,0,3,3,62.17,FLYING
62.39,APPROACH,ILS_TRACK,138.4,140,1.6,1929.59,-8.23,10.23,13.22,270.41,-0.016,0.3174,20,270.42,-3.055,-0.38,0.19,35.495,0.016,-0.055,0,0,0,269.52,0,0,0,0,0,0,0,0,0,0,0,0,0,3,3,62.43,FLYING
62.65,APPROACH,ILS_TRACK,138.41,140,1.59,1927.45,-8.26,10.23,13.23,270.41,-0.015,0.3178,20,270.42,-3.028,-0.39,0.18,35.454,0.019,-0.028,0,0,0,269.52,0,0,0,0,0,0,0,0,0,0,0,0,0,3,3,62.69,FLYING
62.91,APPROACH,ILS_TRACK,138.41,140,1.59,1925.31,-8.21,10.22,13.21,270.41,-0.014,0.3181,20,270.41,-3.059,-0.39,0.19,35.414,0.014,-0.059,0,0,0,269.52,0,0,0,0,0,0,0,0,0,0,0,0,0,3,3,62.95,FLYING
63.21,APPROACH,ILS_TRACK,138.41,140,1.59,1922.84,-8.26,10.23,13.22,270.41,-0.014,0.3178,20,270.41,-3.031,-0.39,0.18,35.366,0.014,-0.031,0,0,0,269.52,0,0,0,0,0,0,0,0,0,0,0,0,0,3,3,63.25,FLYING
63.47,APPROACH,ILS_TRACK,138.41,140,1.59,1920.7,-8.21,10.24,13.22,270.41,-0.013,0.3182,20,270.42,-3.074,-0.39,0.18,35.326,0.016,-0.074,0,0,0,269.52,0,0,0,0,0,0,0,0,0,0,0,0,0,3,3,63.51,FLYING
63.73,APPROACH,ILS_TRACK,138.41,140,1.59,1918.55,-8.25,10.21,13.19,270.41,-0.012,0.3185,20,270.42,-3.038,-0.39,0.18,35.285,0.02,-0.038,0,0,0,269.52,0,0,0,0,0,0,0,0,0,0,0,0,0,3,3,63.77,FLYING
63.99,APPROACH,ILS_TRACK,138.41,140,1.59,1916.42,-8.17,10.22,13.2,270.41,-0.012,0.3181,20,270.41,-3.09,-0.39,0.19,35.244,0.013,-0.09,0,0,0,269.52,0,0,0,0,0,0,0,0,0,0,0,0,0,3,3,64.03,FLYING
64.29,APPROACH,ILS_TRACK,138.41,140,1.59,1913.95,-8.26,10.18,13.16,270.41,-0.012,0.318,20,270.42,-3.025,-0.39,0.18,35.197,0.017,-0.025,0,0,0,269.52,0,0,0,0,0,0,0,0,0,0,0,0,0,3,3,64.33,FLYING
64.55,APPROACH,ILS_TRACK,138.42,140,1.58,1911.82,-8.16,10.22,13.2,270.41,-0.011,0.3173,20,270.41,-3.119,-0.39,0.2,35.156,0.013,-0.119,0,0,0,269.52,0,0,0,0,0,0,0,0,0,0,0,0,0,3,3,64.59,FLYING
64.81,APPROACH,ILS_TRACK,138.42,140,1.58,1909.67,-8.2,10.1,13.08,270.41,-0.01,0.3185,20,270.42,-3.014,-0.39,0.18,35.115,0.02,-0.014,0,0,0,269.52,0,0,0,0,0,0,0,0,0,0,0,0,0,3,3,64.85,FLYING
65.07,APPROACH,ILS_TRACK,138.43,140,1.57,1907.55,-8.22,10.21,13.2,270.41,-0.01,0.3156,20,270.42,-3.085,-0.39,0.19,35.074,0.018,-0.085,0,0,0,269.52,0,0,0,0,0,0,0,0,0,0,0,0,0,3,3,65.11,FLYING
65.37,APPROACH,ILS_TRACK,138.42,140,1.58,1905.09,-8.22,10.19,13.17,270.41,-0.01,0.3172,20,270.42,-3.084,-0.39,0.2,35.027,0.015,-0.084,0,0,0,269.52,0,0,0,0,0,0,0,0,0,0,0,0,0,3,3,65.41,FLYING
65.63,APPROACH,ILS_TRACK,138.43,140,1.57,1902.95,-8.2,10.18,13.16,270.41,-0.01,0.3159,20,270.42,-3.083,-0.39,0.21,34.987,0.015,-0.083,0,0,0,269.52,0,0,0,0,0,0,0,0,0,0,0,0,0,3,3,65.67,FLYING
65.89,APPROACH,ILS_TRACK,138.44,140,1.56,1900.82,-8.2,10.19,13.17,270.41,-0.01,0.3149,20,270.42,-3.082,-0.39,0.21,34.946,0.017,-0.082,0,0,0,269.52,0,0,0,0,0,0,0,0,0,0,0,0,0,3,3,65.93,FLYING
66.15,APPROACH,ILS_TRACK,138.44,140,1.56,1898.69,-8.21,10.19,13.17,270.41,-0.011,0.3142,20,270.42,-3.076,-0.4,0.22,34.905,0.021,-0.076,0,0,0,269.52,0,0,0,0,0,0,0,0,0,0,0,0,0,3,3,66.19,FLYING
66.45,APPROACH,ILS_TRACK,138.45,140,1.55,1896.23,-8.17,10.18,13.15,270.41,-0.012,0.3136,20,270.41,-3.093,-0.4,0.23,34.858,0.015,-0.093,0,0,0,269.52,0,0,0,0,0,0,0,0,0,0,0,0,0,3,3,66.49,FLYING
66.71,APPROACH,ILS_TRACK,138.45,140,1.55,1894.1,-8.24,10.18,13.16,270.41,-0.012,0.3129,20,270.41,-3.071,-0.4,0.23,34.817,0.015,-0.071,0,0,0,269.52,0,0,0,0,0,0,0,0,0,0,0,0,0,3,3,66.75,FLYING
66.97,APPROACH,ILS_TRACK,138.46,140,1.54,1891.97,-8.14,10.18,13.15,270.41,-0.013,0.313,20,270.42,-3.126,-0.4,0.25,34.776,0.019,-0.126,0,0,0,269.52,0,0,0,0,0,0,0,0,0,0,0,0,0,3,3,67.01,FLYING
67.23,APPROACH,ILS_TRACK,138.46,140,1.54,1889.82,-8.2,10.09,13.06,270.41,-0.015,0.3134,20,270.42,-3.04,-0.4,0.24,34.735,0.018,-0.04,0,0,0,269.52,0,0,0,0,0,0,0,0,0,0,0,0,0,3,3,67.27,FLYING
67.53,APPROACH,ILS_TRACK,138.47,140,1.53,1887.38,-8.16,10.19,13.17,270.41,-0.014,0.3121,20,270.42,-3.137,-0.4,0.26,34.688,0.017,-0.137,0,0,0,269.52,0,0,0,0,0,0,0,0,0,0,0,0,0,3,3,67.57,FLYING
67.79,APPROACH,ILS_TRACK,138.46,140,1.54,1885.23,-8.18,10.07,13.04,270.41,-0.015,0.3154,20,270.41,-3.05,-0.4,0.25,34.648,0.013,-0.05,0,0,0,269.52,0,0,0,0,0,0,0,0,0,0,0,0,0,3,3,67.83,FLYING
68.05,APPROACH,ILS_TRACK,138.47,140,1.53,1883.11,-8.24,10.17,13.16,270.41,-0.014,0.3129,20,270.42,-3.09,-0.4,0.25,34.607,0.016,-0.09,0,0,0,269.52,0,0,0,0,0,0,0,0,0,0,0,0,0,3,3,68.09,FLYING
68.31,APPROACH,ILS_TRACK,138.46,140,1.54,1880.98,-8.18,10.14,13.12,270.41,-0.015,0.3152,20,270.42,-3.121,-0.4,0.27,34.566,0.02,-0.121,0,0,0,269.52,0,0,0,0,0,0,0,0,0,0,0,0,0,3,3,68.35,FLYING
68.61,APPROACH,ILS_TRACK,138.47,140,1.53,1878.52,-8.25,10.15,13.14,270.41,-0.016,0.314,20,270.42,-3.067,-0.4,0.26,34.519,0.015,-0.067,0,0,0,269.52,0,0,0,0,0,0,0,0,0,0,0,0,0,3,3,68.65,FLYING
68.87,APPROACH,ILS_TRACK,138.47,140,1.53,1876.39,-8.16,10.18,13.15,270.41,-0.015,0.3138,20,270.42,-3.128,-0.41,0.28,34.478,0.02,-0.128,0,0,0,269.52,0,0,0,0,0,0,0,0,0,0,0,0,0,3,3,68.91,FLYING
69.13,APPROACH,ILS_TRACK,138.47,140,1.53,1874.24,-8.21,10.08,13.06,270.41,-0.016,0.315,20,270.42,-3.041,-0.41,0.26,34.438,0.018,-0.041,0,0,0,269.52,0,0,0,0,0,0,0,0,0,0,0,0,0,3,3,69.17,FLYING
69.39,APPROACH,ILS_TRACK,138.48,140,1.52,1872.12,-8.2,10.19,13.18,270.41,-0.015,0.3132,20,270.42,-3.117,-0.41,0.28,34.397,0.016,-0.117,0,0,0,269.52,0,0,0,0,0,0,0,0,0,0,0,0,0,3,3,69.43,FLYING
69.69,APPROACH,ILS_TRACK,138.47,140,1.53,1869.64,-8.22,10.1,13.09,270.41,-0.017,0.3166,20,270.42,-3.071,-0.41,0.27,34.35,0.019,-0.071,0,0,0,269.52,0,0,0,0,0,0,0,0,0,0,0,0,0,3,3,69.73,FLYING
69.95,APPROACH,ILS_TRACK,138.47,140,1.53,1867.53,-8.19,10.21,13.19,270.41,-0.017,0.3149,20,270.41,-3.119,-0.41,0.28,34.309,0.014,-0.119,0,0,0,269.52,0,0,0,0,0,0,0,0,0,0,0,0,0,3,3,69.99,FLYING
70.21,APPROACH,ILS_TRACK,138.46,140,1.54,1865.38,-8.19,10.1,13.08,270.41,-0.017,0.3189,20,270.42,-3.063,-0.41,0.28,34.268,0.017,-0.063,0,0,0,269.52,0,0,0,0,0,0,0,0,0,0,0,0,0,3,3,70.25,FLYING
70.47,APPROACH,ILS_TRACK,138.47,140,1.53,1863.26,-8.22,10.18,13.17,270.41,-0.016,0.3165,20,270.42,-3.09,-0.41,0.28,34.228,0.021,-0.09,0,0,0,269.52,0,0,0,0,0,0,0,0,0,0,0,0,0,3,3,70.51,FLYING
70.77,APPROACH,ILS_TRACK,138.46,140,1.54,1860.79,-8.23,10.15,13.14,270.41,-0.018,0.3173,20,270.42,-3.088,-0.41,0.28,34.181,0.016,-0.088,0,0,0,269.52,0,0,0,0,0,0,0,0,0,0,0,0,0,3,3,70.81,FLYING
71.03,APPROACH,ILS_TRACK,138.46,140,1.54,1858.66,-8.12,10.18,13.16,270.41,-0.017,0.3168,20,270.42,-3.134,-0.42,0.29,34.14,0.02,-0.134,0,0,0,269.52,0,0,0,0,0,0,0,0,0,0,0,0,0,3,3,71.07,FLYING
71.29,APPROACH,ILS_TRACK,138.46,140,1.54,1856.5,-8.18,10,12.98,270.41,-0.017,0.3193,20,270.41,-2.989,-0.41,0.27,34.099,0.012,0.011,0,0,0,269.52,0,0,0,0,0,0,0,0,0,0,0,0,0,3,3,71.33,FLYING
71.55,APPROACH,ILS_TRACK,138.47,140,1.53,1854.38,-8.3,10.11,13.11,270.41,-0.015,0.3148,20,270.42,-3.051,-0.41,0.26,34.058,0.017,-0.051,0,0,0,269.52,0,0,0,0,0,0,0,0,0,0,0,0,0,3,3,71.59,FLYING
71.85,APPROACH,ILS_TRACK,138.47,140,1.53,1851.92,-8.16,10.15,13.14,270.41,-0.015,0.3148,20,270.42,-3.15,-0.42,0.28,34.012,0.019,-0.15,0,0,0,269.52,0,0,0,0,0,0,0,0,0,0,0,0,0,3,3,71.89,FLYING
72.11,APPROACH,ILS_TRACK,138.48,140,1.52,1849.76,-8.21,10.02,13.01,270.41,-0.016,0.3148,20,270.42,-2.998,-0.42,0.26,33.971,0.017,0.002,0,0,0,269.52,0,0,0,0,0,0,0,0,0,0,0,0,0,3,3,72.15,FLYING
72.37,APPROACH,ILS_TRACK,138.49,140,1.51,1847.65,-8.31,10.16,13.17,270.41,-0.014,0.3114,20,270.42,-3.062,-0.41,0.25,33.93,0.015,-0.062,0,0,0,269.52,0,0,0,0,0,0,0,0,0,0,0,0,0,3,3,72.41,FLYING
72.63,APPROACH,ILS_TRACK,138.48,140,1.52,1845.51,-8.18,10.15,13.14,270.41,-0.014,0.3145,20,270.42,-3.127,-0.42,0.27,33.889,0.017,-0.127,0,0,0,269.52,0,0,0,0,0,0,0,0,0,0,0,0,0,3,3,72.67,FLYING
72.93,APPROACH,ILS_TRACK,138.49,140,1.51,1843.03,-8.28,10.12,13.12,270.41,-0.014,0.3136,20,270.42,-3.007,-0.42,0.24,33.842,0.016,-0.007,0,0,0,269.52,0,0,0,0,0,0,0,0,0,0,0,0,0,3,3,72.97,FLYING
73.19,APPROACH,ILS_TRACK,138.49,140,1.51,1840.91,-8.18,10.18,13.17,270.41,-0.012,0.3131,20,270.42,-3.111,-0.42,0.25,33.802,0.018,-0.111,0,0,0,269.52,0,0,0,0,0,0,0,0,0,0,0,0,0,3,3,73.23,FLYING
73.45,APPROACH,ILS_TRACK,138.49,140,1.51,1838.75,-8.22,10.08,13.07,270.41,-0.012,0.3146,20,270.42,-3.01,-0.42,0.23,33.761,0.017,-0.01,0,0,0,269.52,0,0,0,0,0,0,0,0,0,0,0,0,0,3,3,73.49,FLYING
73.71,APPROACH,ILS_TRACK,138.49,140,1.51,1836.63,-8.22,10.18,13.18,270.41,-0.011,0.3125,20,270.42,-3.073,-0.42,0.23,33.72,0.018,-0.073,0,0,0,269.52,0,0,0,0,0,0,0,0,0,0,0,0,0,3,3,73.75,FLYING
74.01,APPROACH,ILS_TRACK,138.49,140,1.51,1834.16,-8.25,10.15,13.14,270.41,-0.012,0.3143,20,270.42,-3.053,-0.42,0.23,33.674,0.017,-0.053,0,0,0,269.52,0,0,0,0,0,0,0,0,0,0,0,0,0,3,3,74.05,FLYING
74.27,APPROACH,ILS_TRACK,138.49,140,1.51,1832.03,-8.17,10.16,13.15,270.41,-0.012,0.3143,20,270.41,-3.09,-0.42,0.24,33.633,0.014,-0.09,0,0,0,269.52,0,0,0,0,0,0,0,0,0,0,0,0,0,3,3,74.31,FLYING
74.53,APPROACH,ILS_TRACK,138.49,140,1.51,1829.9,-8.25,10.17,13.16,270.41,-0.011,0.3147,20,270.42,-3.026,-0.42,0.22,33.592,0.018,-0.026,0,0,0,269.52,0,0,0,0,0,0,0,0,0,0,0,0,0,3,3,74.57,FLYING
74.79,APPROACH,ILS_TRACK,138.49,140,1.51,1827.77,-8.19,10.19,13.18,270.41,-0.011,0.3149,20,270.42,-3.092,-0.42,0.23,33.552,0.02,-0.092,0,0,0,269.52,0,0,0,0,0,0,0,0,0,0,0,0,0,3,3,74.83,FLYING
75.09,APPROACH,ILS_TRACK,138.49,140,1.51,1825.3,-8.21,10.11,13.09,270.41,-0.011,0.3154,20,270.42,-3.031,-0.42,0.22,33.505,0.016,-0.031,0,0,0,269.52,0,0,0,0,0,0,0,0,0,0,0,0,0,3,3,75.13,FLYING
75.35,APPROACH,ILS_TRACK,138.49,140,1.51,1823.19,-8.15,10.22,13.2,270.41,-0.011,0.314,20,270.42,-3.119,-0.42,0.23,33.464,0.019,-0.119,0,0,0,269.52,0,0,0,0,0,0,0,0,0,0,0,0,0,3,3,75.39,FLYING
75.61,APPROACH,ILS_TRACK,138.48,140,1.52,1821.04,-8.16,10.08,13.05,270.41,-0.012,0.3189,20,270.42,-3.033,-0.42,0.22,33.423,0.015,-0.033,0,0,0,269.52,0,0,0,0,0,0,0,0,0,0,0,0,0,3,3,75.65,FLYING
75.87,APPROACH,ILS_TRACK,138.49,140,1.51,1818.92,-8.23,10.15,13.15,270.41,-0.011,0.3157,20,270.42,-3.048,-0.42,0.22,33.383,0.017,-0.048,0,0,0,269.52,0,0,0,0,0,0,0,0,0,0,0,0,0,3,3,75.91,FLYING
76.17,APPROACH,ILS_TRACK,138.49,140,1.51,1816.47,-8.15,10.16,13.15,270.41,-0.011,0.3157,20,270.42,-3.114,-0.42,0.23,33.336,0.017,-0.114,0,0,0,269.52,0,0,0,0,0,0,0,0,0,0,0,0,0,3,3,76.21,FLYING
76.43,APPROACH,ILS_TRACK,138.49,140,1.51,1814.33,-8.18,10.08,13.06,270.41,-0.011,0.3152,20,270.42,-3.031,-0.42,0.22,33.295,0.017,-0.031,0,0,0,269.52,0,0,0,0,0,0,0,0,0,0,0,0,0,3,3,76.47,FLYING
76.69,APPROACH,ILS_TRACK,138.5,140,1.5,1812.22,-8.17,10.17,13.15,270.41,-0.01,0.3127,20,270.42,-3.1,-0.42,0.23,33.255,0.018,-0.1,0,0,0,269.52,0,0,0,0,0,0,0,0,0,0,0,0,0,3,3,76.73,FLYING
76.95,APPROACH,ILS_TRACK,138.5,140,1.5,1810.08,-8.19,10.11,13.1,270.41,-0.011,0.3142,20,270.42,-3.063,-0.42,0.23,33.214,0.019,-0.063,0,0,0,269.52,0,0,0,0,0,0,0,0,0,0,0,0,0,3,3,76.99,FLYING
77.25,APPROACH,ILS_TRACK,138.5,140,1.5,1807.63,-8.13,10.14,13.11,270.41,-0.011,0.3128,20,270.42,-3.099,-0.42,0.24,33.167,0.016,-0.099,0,0,0,269.52,0,0,0,0,0,0,0,0,0,0,0,0,0,3,3,77.29,FLYING
77.51,APPROACH,ILS_TRACK,138.51,140,1.49,1805.5,-8.22,10.11,13.1,270.41,-0.01,0.3124,20,270.42,-3.037,-0.42,0.23,33.127,0.018,-0.037,0,0,0,269.52,0,0,0,0,0,0,0,0,0,0,0,0,0,3,3,77.55,FLYING
77.77,APPROACH,ILS_TRACK,138.51,140,1.49,1803.39,-8.12,10.16,13.14,270.41,-0.01,0.3116,20,270.42,-3.129,-0.42,0.25,33.086,0.017,-0.129,0,0,0,269.52,0,0,0,0,0,0,0,0,0,0,0,0,0,3,3,77.81,FLYING
78.03,APPROACH,ILS_TRACK,138.51,140,1.49,1801.24,-8.17,10.03,13.01,270.41,-0.011,0.313,20,270.42,-3.021,-0.43,0.23,33.045,0.018,-0.021,0,0,0,269.52,0,0,0,0,0,0,0,0,0,0,0,0,0,3,3,78.07,FLYING
78.33,APPROACH,ILS_TRACK,138.52,140,1.48,1798.81,-8.17,10.15,13.14,270.41,-0.01,0.3105,20,270.42,-3.101,-0.43,0.24,32.998,0.017,-0.101,0,0,0,269.52,0,0,0,0,0,0,0,0,0,0,0,0,0,3,3,78.37,FLYING
78.59,APPROACH,ILS_TRACK,138.51,140,1.49,1796.67,-8.19,10.1,13.08,270.41,-0.011,0.3129,20,270.42,-3.073,-0.43,0.24,32.958,0.017,-0.073,0,0,0,269.52,0,0,0,0,0,0,0,0,0,0,0,0,0,3,3,78.63,FLYING
78.85,APPROACH,ILS_TRACK,138.52,140,1.48,1794.55,-8.14,10.13,13.11,270.41,-0.011,0.3115,20,270.42,-3.094,-0.42,0.25,32.917,0.015,-0.094,0,0,0,269.52,0,0,0,0,0,0,0,0,0,0,0,0,0,3,3,78.89,FLYING
79.11,APPROACH,ILS_TRACK,138.52,140,1.48,1792.42,-8.2,10.07,13.06,270.41,-0.011,0.312,20,270.42,-3.04,-0.43,0.24,32.877,0.021,-0.04,0,0,0,269.52,0,0,0,0,0,0,0,0,0,0,0,0,0,3,3,79.15,FLYING
79.41,APPROACH,ILS_TRACK,138.52,140,1.48,1789.98,-8.12,10.14,13.12,270.41,-0.011,0.3113,20,270.42,-3.125,-0.43,0.26,32.83,0.017,-0.125,0,0,0,269.52,0,0,0,0,0,0,0,0,0,0,0,0,0,3,3,79.45,FLYING
79.67,APPROACH,ILS_TRACK,138.52,140,1.48,1787.83,-8.17,10.02,13,270.41,-0.012,0.3133,20,270.42,-3.011,-0.43,0.24,32.789,0.019,-0.011,0,0,0,269.52,0,0,0,0,0,0,0,0,0,0,0,0,0,3,3,79.71,FLYING
79.93,APPROACH,ILS_TRACK,138.53,140,1.47,1785.72,-8.2,10.14,13.13,270.41,-0.011,0.3108,20,270.42,-3.088,-0.43,0.24,32.749,0.017,-0.088,0,0,0,269.52,0,0,0,0,0,0,0,0,0,0,0,0,0,3,3,79.97,FLYING
80.19,APPROACH,ILS_TRACK,138.52,140,1.48,1783.6,-8.2,10.13,13.12,270.41,-0.011,0.313,20,270.42,-3.098,-0.43,0.25,32.708,0.017,-0.098,0,0,0,269.52,0,0,0,0,0,0,0,0,0,0,0,0,0,3,3,80.23,FLYING
80.49,APPROACH,ILS_TRACK,138.52,140,1.48,1781.14,-8.15,10.1,13.08,270.41,-0.012,0.3135,20,270.42,-3.08,-0.43,0.25,32.661,0.02,-0.08,0,0,0,269.52,0,0,0,0,0,0,0,0,0,0,0,0,0,3,3,80.53,FLYING
80.75,APPROACH,ILS_TRACK,138.53,140,1.47,1779.02,-8.18,10.15,13.14,270.41,-0.011,0.3126,20,270.42,-3.07,-0.43,0.25,32.621,0.015,-0.07,0,0,0,269.52,0,0,0,0,0,0,0,0,0,0,0,0,0,3,3,80.79,FLYING
81.01,APPROACH,ILS_TRACK,138.52,140,1.48,1776.9,-8.18,10.15,13.14,270.41,-0.012,0.3134,20,270.42,-3.091,-0.43,0.25,32.58,0.022,-0.091,0,0,0,269.52,0,0,0,0,0,0,0,0,0,0,0,0,0,3,3,81.05,FLYING
81.27,APPROACH,ILS_TRACK,138.52,140,1.48,1774.77,-8.14,10.09,13.07,270.41,-0.013,0.3137,20,270.42,-3.072,-0.43,0.25,32.54,0.018,-0.072,0,0,0,269.52,0,0,0,0,0,0,0,0,0,0,0,0,0,3,3,81.31,FLYING
81.57,APPROACH,ILS_TRACK,138.53,140,1.47,1772.33,-8.16,10.14,13.13,270.41,-0.012,0.312,20,270.42,-3.081,-0.43,0.25,32.493,0.017,-0.081,0,0,0,269.52,0,0,0,0,0,0,0,0,0,0,0,0,0,3,3,81.61,FLYING
81.83,APPROACH,ILS_TRACK,138.53,140,1.47,1770.21,-8.19,10.14,13.13,270.41,-0.013,0.3128,20,270.42,-3.093,-0.44,0.26,32.452,0.019,-0.093,0,0,0,269.52,0,0,0,0,0,0,0,0,0,0,0,0,0,3,3,81.87,FLYING
82.09,APPROACH,ILS_TRACK,138.53,140,1.47,1768.08,-8.14,10.1,13.07,270.41,-0.014,0.3133,20,270.42,-3.09,-0.44,0.26,32.412,0.017,-0.09,0,0,0,269.52,0,0,0,0,0,0,0,0,0,0,0,0,0,3,3,82.13,FLYING
82.35,APPROACH,ILS_TRACK,138.53,140,1.47,1765.96,-8.23,10.13,13.12,270.41,-0.014,0.3119,20,270.42,-3.069,-0.44,0.26,32.371,0.019,-0.069,0,0,0,269.52,0,0,0,0,0,0,0,0,0,0,0,0,0,3,3,82.39,FLYING
82.65,APPROACH,ILS_TRACK,138.52,140,1.48,1763.52,-8.06,10.13,13.09,270.41,-0.015,0.3144,20,270.42,-3.15,-0.44,0.28,32.325,0.018,-0.15,0,0,0,269.52,0,0,0,0,0,0,0,0,0,0,0,0,0,3,3,82.69,FLYING
82.91,APPROACH,ILS_TRACK,138.52,140,1.48,1761.37,-8.15,9.97,12.95,270.41,-0.016,0.3148,20,270.42,-2.991,-0.44,0.26,32.284,0.018,0.009,0,0,0,269.52,0,0,0,0,0,0,0,0,0,0,0,0,0,3,3,82.95,FLYING
83.17,APPROACH,ILS_TRACK,138.54,140,1.46,1759.28,-8.22,10.11,13.11,270.41,-0.015,0.3112,20,270.42,-3.097,-0.44,0.26,32.244,0.021,-0.097,0,0,0,269.52,0,0,0,0,0,0,0,0,0,0,0,0,0,3,3,83.21,FLYING
83.43,APPROACH,ILS_TRACK,138.52,140,1.48,1757.15,-8.12,10.08,13.06,270.41,-0.016,0.3139,20,270.42,-3.139,-0.44,0.28,32.203,0.016,-0.139,0,0,0,269.52,0,0,0,0,0,0,0,0,0,0,0,0,0,3,3,83.47,FLYING
83.73,APPROACH,ILS_TRACK,138.54,140,1.46,1754.7,-8.23,10.07,13.06,270.41,-0.017,0.312,20,270.42,-3.04,-0.44,0.27,32.156,0.019,-0.04,0,0,0,269.52,0,0,0,0,0,0,0,0,0,0,0,0,0,3,3,83.77,FLYING
83.99,APPROACH,ILS_TRACK,138.53,140,1.47,1752.58,-8.12,10.12,13.11,270.41,-0.016,0.3116,20,270.42,-3.144,-0.44,0.28,32.116,0.02,-0.144,0,0,0,269.52,0,0,0,0,0,0,0,0,0,0,0,0,0,3,3,84.03,FLYING
84.25,APPROACH,ILS_TRACK,138.53,140,1.47,1750.42,-8.11,9.91,12.89,270.41,-0.019,0.3137,20,270.42,-2.992,-0.44,0.26,32.075,0.017,0.008,0,0,0,269.52,0,0,0,0,0,0,0,0,0,0,0,0,0,3,3,84.29,FLYING
84.51,APPROACH,ILS_TRACK,138.55,140,1.45,1748.29,-8.29,9.93,12.94,270.41,-0.018,0.3088,20,270.42,-2.982,-0.44,0.23,32.035,0.017,0.018,0,0,0,269.52,0,0,0,0,0,0,0,0,0,0,0,0,0,3,3,84.55,FLYING
84.81,APPROACH,ILS_TRACK,138.56,140,1.44,1745.87,-8.17,10.12,13.12,270.41,-0.016,0.3075,20,270.42,-3.16,-0.44,0.26,31.988,0.017,-0.16,0,0,0,269.52,0,0,0,0,0,0,0,0,0,0,0,0,0,3,3,84.85,FLYING
85.07,APPROACH,ILS_TRACK,138.55,140,1.45,1743.71,-8.17,9.96,12.96,270.41,-0.016,0.3111,20,270.42,-2.995,-0.44,0.23,31.948,0.019,0.005,0,0,0,269.52,0,0,0,0,0,0,0,0,0,0,0,0,0,3,3,85.11,FLYING
85.33,APPROACH,ILS_TRACK,138.56,140,1.44,1741.59,-8.33,10.05,13.07,270.41,-0.016,0.308,20,270.42,-2.988,-0.45,0.21,31.907,0.021,0.012,0,0,0,269.52,0,0,0,0,0,0,0,0,0,0,0,0,0,3,3,85.37,FLYING
85.59,APPROACH,ILS_TRACK,138.55,140,1.45,1739.47,-8.16,10.13,13.13,270.41,-0.015,0.3097,20,270.42,-3.126,-0.44,0.23,31.867,0.016,-0.126,0,0,0,269.52,0,0,0,0,0,0,0,0,0,0,0,0,0,3,3,85.63,FLYING
85.89,APPROACH,ILS_TRACK,138.55,140,1.45,1736.98,-8.23,10.02,13.02,270.41,-0.015,0.3119,20,270.42,-2.955,-0.44,0.19,31.82,0.018,0.045,0,0,0,269.52,0,0,0,0,0,0,0,0,0,0,0,0,0,3,3,85.93,FLYING
86.15,APPROACH,ILS_TRACK,138.55,140,1.45,1734.87,-8.2,10.14,13.15,270.41,-0.014,0.3105,20,270.42,-3.055,-0.44,0.19,31.78,0.018,-0.055,0,0,0,269.52,0,0,0,0,0,0,0,0,0,0,0,0,0,3,3,86.19,FLYING
86.41,APPROACH,ILS_TRACK,138.54,140,1.46,1732.73,-8.22,10.09,13.09,270.41,-0.014,0.3142,20,270.42,-3.007,-0.44,0.18,31.739,0.017,-0.007,0,0,0,269.52,0,0,0,0,0,0,0,0,0,0,0,0,0,3,3,86.45,FLYING
86.67,APPROACH,ILS_TRACK,138.54,140,1.46,1730.6,-8.18,10.14,13.15,270.41,-0.013,0.3134,20,270.42,-3.034,-0.45,0.17,31.699,0.019,-0.034,0,0,0,269.52,0,0,0,0,0,0,0,0,0,0,0,0,0,3,3,86.71,FLYING
86.97,APPROACH,ILS_TRACK,138.54,140,1.46,1728.15,-8.18,10.14,13.14,270.41,-0.013,0.314,20,270.42,-3.018,-0.44,0.16,31.652,0.017,-0.018,0,0,0,269.52,0,0,0,0,0,0,0,0,0,0,0,0,0,3,3,87.01,FLYING
87.23,APPROACH,ILS_TRACK,138.54,140,1.46,1726.02,-8.17,10.15,13.14,270.41,-0.013,0.3142,20,270.42,-3.024,-0.45,0.15,31.611,0.02,-0.024,0,0,0,269.52,0,0,0,0,0,0,0,0,0,0,0,0,0,3,3,87.27,FLYING
87.49,APPROACH,ILS_TRACK,138.54,140,1.46,1723.9,-8.18,10.15,13.14,270.41,-0.012,0.3144,20,270.42,-3.021,-0.45,0.14,31.571,0.017,-0.021,0,0,0,269.52,0,0,0,0,0,0,0,0,0,0,0,0,0,3,3,87.53,FLYING
87.75,APPROACH,ILS_TRACK,138.53,140,1.47,1721.78,-8.15,10.15,13.13,270.41,-0.012,0.3147,20,270.42,-3.042,-0.45,0.14,31.531,0.017,-0.042,0,0,0,269.52,0,0,0,0,0,0,0,0,0,0,0,0,0,3,3,87.79,FLYING
88.05,APPROACH,ILS_TRACK,138.54,140,1.46,1719.33,-8.16,10.15,13.14,270.41,-0.012,0.3144,20,270.42,-3.021,-0.45,0.14,31.484,0.019,-0.021,0,0,0,269.52,0,0,0,0,0,0,0,0,0,0,0,0,0,3,3,88.09,FLYING
88.31,APPROACH,ILS_TRACK,138.54,140,1.46,1717.21,-8.1,10.14,13.11,270.41,-0.012,0.314,20,270.42,-3.064,-0.45,0.14,31.444,0.017,-0.064,0,0,0,269.52,0,0,0,0,0,0,0,0,0,0,0,0,0,3,3,88.35,FLYING
88.57,APPROACH,ILS_TRACK,138.54,140,1.46,1715.1,-8.18,10.13,13.12,270.41,-0.011,0.3135,20,270.42,-3.02,-0.45,0.14,31.403,0.02,-0.02,0,0,0,269.52,0,0,0,0,0,0,0,0,0,0,0,0,0,3,3,88.61,FLYING
88.83,APPROACH,ILS_TRACK,138.54,140,1.46,1712.99,-8.09,10.15,13.13,270.41,-0.012,0.3132,20,270.42,-3.086,-0.45,0.15,31.363,0.019,-0.086,0,0,0,269.52,0,0,0,0,0,0,0,0,0,0,0,0,0,3,3,88.87,FLYING
89.13,APPROACH,ILS_TRACK,138.54,140,1.46,1710.54,-8.15,10.07,13.05,270.41,-0.013,0.3131,20,270.42,-3.019,-0.45,0.14,31.316,0.016,-0.019,0,0,0,269.52,0,0,0,0,0,0,0,0,0,0,0,0,0,3,3,89.17,FLYING
89.39,APPROACH,ILS_TRACK,138.54,140,1.46,1708.44,-8.06,10.14,13.12,270.41,-0.013,0.3119,20,270.42,-3.119,-0.45,0.16,31.276,0.02,-0.119,0,0,0,269.52,0,0,0,0,0,0,0,0,0,0,0,0,0,3,3,89.43,FLYING
89.65,APPROACH,ILS_TRACK,138.54,140,1.46,1706.3,-8.1,10.01,12.98,270.41,-0.015,0.3144,20,270.42,-3.006,-0.45,0.15,31.235,0.02,-0.006,0,0,0,269.52,0,0,0,0,0,0,0,0,0,0,0,0,0,3,3,89.69,FLYING
89.91,APPROACH,ILS_TRACK,138.55,140,1.45,1704.22,-8.21,10.15,13.15,270.41,-0.013,0.3109,20,270.42,-3.066,-0.45,0.16,31.195,0.018,-0.066,0,0,0,269.52,0,0,0,0,0,0,0,0,0,0,0,0,0,3,3,89.95,FLYING
