t_s,phase,subphase,ias_ms,vapp_ms,spd_err_ms,agl_m,gear_h_m,vs_ms,pitch_deg,aoa_deg,hdg_deg,bank_deg,thr_cmd,thr_cur,thr_intg,at_gain,at_tau_s,at_a_up,at_a_dn,at_kp_thr,at_ki_spd,at_thr_slew,as_cmd_deg,as_cap_deg,as_raw_deg,as_spd_err_ms,as_active,aa_hdg_cmd_deg,aa_fpa_cmd_deg,aa_fbw,aa_dir,actual_fpa_deg,ftf_hdg_err_deg,ftf_fix_idx,kos_steer_pit_deg,kos_steer_hdg_deg,aa_dir_vx,aa_dir_vy,aa_dir_vz,aa_dir_pitch_deg,aa_dir_hdg_deg,ils_loc_m,ils_gs_m,ils_dist_km,loc_corr_deg,gs_corr_deg,gs_latched,active_gs_ang_deg,ils_intercept_alt_m,d_gs_ms,fpa_preclamped_deg,gs_nom_alt_m,flare_fpa_cmd,flare_tgt_vs,flare_frac,flare_mode,flare_auth_limited,flare_vs_err,flare_fpa_err,flare_pitch_err,flare_pitch_in_cmd,elev_defl_avg_deg,elev_defl_max_deg,elev_defl_n,flare_ctrl_h_m,flare_req_up_a,flare_thr_floor,flare_tecs_et_err,flare_tecs_eb_err,flare_tecs_h_ref,flare_tecs_v_ref,flare_gamma_ref,flare_gamma_eb_term,flare_gamma_unsat,steer_hdg_deg,steer_blend,ro_loc_corr_deg,ro_hdg_err_deg,ro_yaw_tgt,ro_yaw_scale,ro_yaw_gate,yaw_cmd,roll_cmd,pitch_cmd,ro_pitch_tgt_deg,ro_pitch_err_deg,ro_pitch_ff,ro_roll_assist,flaps_cur,flaps_tgt,asc_j_ab,asc_j_rk,asc_validity,asc_q_pa,asc_q_raw_pa,asc_mach,asc_apo_m,asc_drag_n,asc_w_prop,asc_edot_aero,asc_edot_orb,asc_pitch_bias,asc_blend,asc_spooling,asc_ab_thr_ratio,asc_ab_t_now,asc_ab_t_avail,asc_ab_ign_on,asc_ab_flameouts,asc_rk_t_now,asc_rk_t_avail,asc_rk_ign_on,asc_rk_flameouts,ship_thrust,ship_avail_thrust,ship_ign_on,ship_flameouts,ifc_raw_dt_s,ifc_dt_s,ifc_loop_n,ifc_hz_est,ifc_raw_dt_max_s,ifc_raw_dt_min_s,phase_el_s,status,craft_name,cfg_file
1.1,APPROACH,ILS_TRACK,154.2,152,-2.2,731.56,663.96,-12.57,10.29,14.41,269.81,0.414,0,0,0,0,0,0,0,0,0,0,0,0,0,0,0,0,0,1,0,-4.67,0,0,0,90,0,0,0,0,0,7.12,-488.2,22.071,0,0,0,3,742.78,0,0,1230.98,0,0,0,,0,0,0,0,0,0,0,0,663.96,0,0,0,0,0,0,0,0,0,269.8,0,0,0,0,0,0,0,0,0,0,0,0,0,0,0,0,0,VALID,0,0,0,0,0,1,0,0,0,0,0,0,0,0,0,0,0,0,0,0,215.1,1082.85,2,0,0.14,0.14,1,3.7,0.14,0.02,1.1,FLYING,X10-H,0:/Integrated Flight Computer/aircraft/x10_h_cfg.ks (inferred preloaded)
2.16,APPROACH,ILS_TRACK,154.45,152,-2.45,720.09,651.37,-11.36,10.39,14.35,269.78,0.135,0,0,0,1,0.6,0.9,0.75,0.35,0.0168,0.4,1.09,21.2,1.09,2.452,1,266.57,0,1,0,-4.22,0,0,-0.02,90,0.9938,-0.0597,0.0937,0,266.57,6.34,-491.67,21.901,-3.425,0,0,3,742.78,-983.335,0,1222.08,0,0,0,,0,0,0,0,0,0,0,0,651.37,0,0,0,0,0,0,0,0,0,269.8,0,0,0,0,0,0,0,0,0,0,0,0,0,1,3,0,0,VALID,0,0,0,0,0,1,0,0,0,0,0,0,0,0,0,0,0,0,0,0,147.94,1080.58,2,0,1.04,0.5,2,0.94,1.04,0.14,2.16,FLYING,X10-H,0:/Integrated Flight Computer/aircraft/x10_h_cfg.ks (inferred preloaded)
3.22,APPROACH,ILS_TRACK,153.59,152,-1.59,710.23,639.51,-10.12,10.66,15.29,268.55,-5.108,0,0,0,1,0.6,1.461,0.75,0.35,0.0168,0.4,0.101,21.444,0.101,1.587,1,270.17,0,0,1,-3.78,0,0,0.02,266.57,0.9956,0.003,0.0935,0,270.17,5.56,-493.98,21.729,0.171,0,0,3,742.78,-4.623,0,1213.04,0,0,0,,0,0,0,0,0,0,0,0,639.51,0,0,0,0,0,0,0,0,0,269.8,0,0,0,0,0,0,0,0,0,0,0,0,0,2,3,0,0,VALID,0,0,0,0,0,1,0,0,0,0,0,0,0,0,0,0,0,0,0,0,101.36,1074.2,2,0,1.06,0.5,3,0.94,1.06,1.04,3.22,FLYING,X10-H,0:/Integrated Flight Computer/aircraft/x10_h_cfg.ks (inferred preloaded)
4.28,APPROACH,ILS_TRACK,151.78,152,0.22,702.39,629.88,-8.77,12.36,16.2,268.5,-0.044,0.2,0,0.088,1,0.6,2.099,0.75,0.35,0.0168,0.4,0,21.954,0,-0.224,0,270.76,0,0,1,-3.34,0,0,0.02,270.17,0.9956,0.0133,0.0932,0,270.76,3.74,-494.66,21.558,0.759,0,0,3,742.78,-1.365,0,1204.08,0,0,0,,0,0,0,0,0,0,0,0,629.88,0,0,0,0,0,0,0,0,0,269.8,0,0,0,0,0,0,0,0,0,0,0,0,0,3,3,0,0,VALID,0,0,0,0,0,1,0,0,0,0,0,0,0,0,0,0,0,0,0,0,114.3,1063.3,2,0,1.06,0.5,4,0.94,1.06,1.06,4.28,FLYING,X10-H,0:/Integrated Flight Computer/aircraft/x10_h_cfg.ks (inferred preloaded)
5.34,APPROACH,ILS_TRACK,148.97,152,3.03,696.87,621.29,-6.51,13.93,16.28,270.74,6.571,0.4,0,1.574,1,0.6,2.678,0.75,0.35,0.0168,0.4,0,22.744,0,-3.027,0,270.99,0,0,1,-2.53,0,0,0.02,270.76,0.9955,0.0172,0.0929,0,270.99,1.63,-493.46,21.389,0.988,0,0,3,742.78,2.4,0,1195.25,0,0,0,,0,0,0,0,0,0,0,0,621.29,0,0,0,0,0,0,0,0,0,269.8,0,0,0,0,0,0,0,0,0,0,0,0,0,3,3,0,0,VALID,0,0,0,0,0,1,0,0,0,0,0,0,0,0,0,0,0,0,0,0,167.08,1051.58,2,0,1.06,0.5,5,0.94,1.06,1.06,5.34,FLYING,X10-H,0:/Integrated Flight Computer/aircraft/x10_h_cfg.ks (inferred preloaded)
6.4,APPROACH,ILS_TRACK,146.05,152,5.95,693.14,615.85,-3.92,14.56,14,272,6.545,0.6,0,1.567,1,0.6,3.203,0.75,0.35,0.0168,0.4,0,23.553,0,-5.897,0,270.28,0,0,1,-1.57,0,0,0.02,270.99,0.9957,0.0048,0.0927,0,270.28,1,-490.14,21.224,0.276,0,0,3,742.78,6.641,0,1186.59,0,0,0,,0,0,0,0,0,0,0,0,615.85,0,0,0,0,0,0,0,0,0,269.8,0,0,0,0,0,0,0,0,0,0,0,0,0,3,3,0,0,VALID,0,0,0,0,0,1,0,0,0,0,0,0,0,0,0,0,0,0,0,0,249,1043.15,2,0,1.06,0.5,6,0.94,1.06,1.06,6.4,FLYING,X10-H,0:/Integrated Flight Computer/aircraft/x10_h_cfg.ks (inferred preloaded)
7.46,APPROACH,ILS_TRACK,144.1,152,7.9,691.41,613.3,-2.18,12.93,14.69,270.79,0.322,0.8,0,1.559,1,0.6,3.68,0.75,0.35,0.0168,0.4,0,24.112,0,-7.88,0,269.44,0,0,1,-0.88,0,0,0.02,270.28,0.9957,-0.0098,0.0924,0,269.44,1.96,-485.2,21.061,-0.56,0,0,3,742.78,9.885,0,1178.06,0,0,0,,0,0,0,0,0,0,0,0,613.3,0,0,0,0,0,0,0,0,0,269.8,0,0,0,0,0,0,0,0,0,0,0,0,0,3,3,0,0,VALID,0,0,0,0,0,1,0,0,0,0,0,0,0,0,0,0,0,0,0,0,355.27,1040.25,2,0,1.06,0.5,7,0.94,1.06,1.06,7.46,FLYING,X10-H,0:/Integrated Flight Computer/aircraft/x10_h_cfg.ks (inferred preloaded)
8.52,APPROACH,ILS_TRACK,143.37,152,8.63,689.95,611.02,-0.89,14.31,9.79,269.15,-4.576,1,0,1.551,1,0.6,4.118,0.75,0.35,0.0168,0.4,0,24.316,0,-8.604,0,269.34,0,0,1,-0.41,0,0,0.02,269.44,0.9957,-0.0116,0.0922,0,269.34,3.04,-478.26,20.9,-0.662,0,0,3,742.78,13.878,0,1169.6,0,0,0,,0,0,0,0,0,0,0,0,611.02,0,0,0,0,0,0,0,0,0,269.8,0,0,0,0,0,0,0,0,0,0,0,0,0,3,3,0,0,VALID,0,0,0,0,0,1,0,0,0,0,0,0,0,0,0,0,0,0,0,0,481.62,1040.54,2,0,1.06,0.5,8,0.94,1.06,1.06,8.52,FLYING,X10-H,0:/Integrated Flight Computer/aircraft/x10_h_cfg.ks (inferred preloaded)
9.58,APPROACH,ILS_TRACK,143.8,152,8.2,689.48,610.93,-0.53,9.55,10.3,269.12,-4.229,1,0,1.543,1,0.6,4.5,0.75,0.35,0.0168,0.4,0,24.213,0,-8.241,0,269.87,0,0,1,-0.18,0,0,0.02,269.34,0.9958,-0.0023,0.0919,0,269.87,3.07,-471.26,20.739,-0.133,0,0,3,742.78,13.991,0,1161.15,0,0,0,,0,0,0,0,0,0,0,0,610.93,0,0,0,0,0,0,0,0,0,269.8,0,0,0,0,0,0,0,0,0,0,0,0,0,3,3,0,0,VALID,0,0,0,0,0,1,0,0,0,0,0,0,0,0,0,0,0,0,0,0,594.26,1050.72,2,0,1.06,0.5,9,0.94,1.06,1.06,9.58,FLYING,X10-H,0:/Integrated Flight Computer/aircraft/x10_h_cfg.ks (inferred preloaded)
10.64,APPROACH,ILS_TRACK,146.4,152,5.6,688.79,610.67,-0.42,10.14,9.5,269.61,-0.356,0.8,0,4.371,1,0.6,4.5,0.75,0.35,0.0168,0.4,0,23.468,0,-5.598,0,270.29,0,0,1,-0.2,0,0,0.02,269.87,0.9958,0.005,0.0916,0,270.29,2.3,-463.15,20.575,0.288,0,0,3,742.78,16.22,0,1152.6,0,0,0,,0,0,0,0,0,0,0,0,610.67,0,0,0,0,0,0,0,0,0,269.8,0,0,0,0,0,0,0,0,0,0,0,0,0,3,3,0,0,VALID,0,0,0,0,0,1,0,0,0,0,0,0,0,0,0,0,0,0,0,0,655.21,1065.43,2,0,1.06,0.5,10,0.94,1.06,1.06,10.64,FLYING,X10-H,0:/Integrated Flight Computer/aircraft/x10_h_cfg.ks (inferred preloaded)
11.7,APPROACH,ILS_TRACK,150.02,152,1.98,688.26,609.94,-0.5,9.4,8.73,270.35,3.19,0.6,0,5.394,1,0.6,4.5,0.75,0.35,0.0168,0.4,0,22.448,0,-1.976,0,270.35,0,0,1,-0.22,0,0,0.02,270.29,0.9958,0.0061,0.0913,0,270.35,1.48,-455.09,20.409,0.352,0,0,3,742.78,16.134,0,1143.86,0,0,0,,0,0,0,0,0,0,0,0,609.94,0,0,0,0,0,0,0,0,0,269.8,0,0,0,0,0,0,0,0,0,0,0,0,0,3,3,0,0,VALID,0,0,0,0,0,1,0,0,0,0,0,0,0,0,0,0,0,0,0,0,665.06,1082.32,2,0,1.06,0.5,11,0.94,1.06,1.06,11.7,FLYING,X10-H,0:/Integrated Flight Computer/aircraft/x10_h_cfg.ks (inferred preloaded)
12.76,APPROACH,ILS_TRACK,154.06,152,-2.06,687.88,609.7,-0.22,8.57,8.13,270.41,2.474,0.4,0,5.367,1,0.6,4.5,0.75,0.35,0.0168,0.4,0,21.332,0,1.984,0,270.04,0,0,1,-0.08,0,0,0.02,270.35,0.9958,0.0008,0.0911,0,270.04,1.29,-446.69,20.238,0.043,0,0,3,742.78,16.79,0,1134.91,0,0,0,,0,0,0,0,0,0,0,0,609.7,0,0,0,0,0,0,0,0,0,269.8,0,0,0,0,0,0,0,0,0,0,0,0,0,3,3,0,0,VALID,0,0,0,0,0,1,0,0,0,0,0,0,0,0,0,0,0,0,0,0,609.92,1099.49,2,0,1.06,0.5,12,0.94,1.06,1.06,12.76,FLYING,X10-H,0:/Integrated Flight Computer/aircraft/x10_h_cfg.ks (inferred preloaded)
13.82,APPROACH,ILS_TRACK,157.99,152,-5.99,687.68,609.66,-0.16,8.03,7.87,270.2,0.528,0.2,0,5.34,1,0.6,4.5,0.75,0.35,0.0168,0.4,0,20.221,0,5.925,0,269.79,0,0,1,-0.06,0,0,0.02,270.04,0.9959,-0.0037,0.0908,0,269.79,1.58,-437.87,20.063,-0.209,0,0,3,742.78,17.643,0,1125.73,0,0,0,,0,0,0,0,0,0,0,0,609.66,0,0,0,0,0,0,0,0,0,269.8,0,0,0,0,0,0,0,0,0,0,0,0,0,3,3,0,0,VALID,0,0,0,0,0,1,0,0,0,0,0,0,0,0,0,0,0,0,0,0,502.57,1113.28,2,0,1.06,0.5,13,0.94,1.06,1.06,13.82,FLYING,X10-H,0:/Integrated Flight Computer/aircraft/x10_h_cfg.ks (inferred preloaded)
14.88,APPROACH,ILS_TRACK,161.01,152,-9.01,687.61,609.48,-0.07,7.83,7.81,269.96,-0.996,0,0,5.313,1,0.6,4.5,0.75,0.35,0.0168,0.4,7.815,19.364,7.815,8.966,1,269.73,0,0,1,-0.02,0,0,0.02,269.79,0.9959,-0.0048,0.0905,0,269.73,1.97,-428.69,19.884,-0.273,0,0,3,742.78,18.367,0,1116.35,0,0,0,,0,0,0,0,0,0,0,0,609.48,0,0,0,0,0,0,0,0,0,269.8,0,0,0,0,0,0,0,0,0,0,0,0,0,3,3,0,0,VALID,0,0,0,0,0,1,0,0,0,0,0,0,0,0,0,0,0,0,0,0,356.57,1121,2,0,1.06,0.5,14,0.94,1.06,1.06,14.88,FLYING,X10-H,0:/Integrated Flight Computer/aircraft/x10_h_cfg.ks (inferred preloaded)
15.94,APPROACH,ILS_TRACK,162.57,152,-10.57,687.64,609.4,-0.04,7.81,7.96,269.83,-1.324,0,0,5.287,1,0.6,4.5,0.75,0.35,0.0168,0.4,9.271,18.912,9.271,10.569,1,269.82,0,0,1,-0.01,0,0,0.02,269.73,0.9959,-0.0032,0.0902,0,269.82,2.16,-419.25,19.703,-0.183,0,0,3,742.78,18.874,0,1106.86,0,0,0,,0,0,0,0,0,0,0,0,609.4,0,0,0,0,0,0,0,0,0,269.8,0,0,0,0,0,0,0,0,0,0,0,0,0,3,3,0,0,VALID,0,0,0,0,0,1,0,0,0,0,0,0,0,0,0,0,0,0,0,0,245.96,1121.96,2,0,1.06,0.5,15,0.94,1.06,1.06,15.94,FLYING,X10-H,0:/Integrated Flight Computer/aircraft/x10_h_cfg.ks (inferred preloaded)
17,APPROACH,ILS_TRACK,162.64,152,-10.64,687.73,609.45,0.01,7.98,8.22,269.86,-0.648,0,0,5.26,1,0.6,4.5,0.75,0.35,0.0168,0.4,9.333,18.893,9.333,10.639,1,269.95,0,0,1,0,0,0,0.02,269.82,0.996,-0.0009,0.0899,0,269.95,2.1,-409.69,19.521,-0.054,0,0,3,742.78,19.128,0,1097.33,0,0,0,,0,0,0,0,0,0,0,0,609.45,0,0,0,0,0,0,0,0,0,269.8,0,0,0,0,0,0,0,0,0,0,0,0,0,3,3,0,0,VALID,0,0,0,0,0,1,0,0,0,0,0,0,0,0,0,0,0,0,0,0,168.92,1118.03,2,0,1.06,0.5,16,0.94,1.06,1.06,17,FLYING,X10-H,0:/Integrated Flight Computer/aircraft/x10_h_cfg.ks (inferred preloaded)
18.06,APPROACH,ILS_TRACK,161.65,152,-9.65,687.86,609.51,0.02,8.25,8.57,269.91,-0.165,0,0,5.234,1,0.6,4.5,0.75,0.35,0.0168,0.4,8.446,19.171,8.446,9.65,1,270.02,0,0,1,0.01,0,0,0.02,269.95,0.996,0.0004,0.0896,0,270.02,1.91,-400.1,19.34,0.02,0,0,3,742.78,19.171,0,1087.84,0,0,0,,0,0,0,0,0,0,0,0,609.51,0,0,0,0,0,0,0,0,0,269.8,0,0,0,0,0,0,0,0,0,0,0,0,0,3,3,0,0,VALID,0,0,0,0,0,1,0,0,0,0,0,0,0,0,0,0,0,0,0,0,115.65,1110.71,2,0,1.06,0.5,17,0.94,1.06,1.06,18.06,FLYING,X10-H,0:/Integrated Flight Computer/aircraft/x10_h_cfg.ks (inferred preloaded)
19.12,APPROACH,ILS_TRACK,159.92,152,-7.92,688.03,609.55,0.04,8.62,9,269.94,0.079,0,0,5.208,1,0.6,4.5,0.75,0.35,0.0168,0.4,6.819,19.66,6.819,7.917,1,270.04,0,0,1,0.01,0,0,0.02,270.02,0.996,0.0008,0.0893,0,270.04,1.69,-390.55,19.16,0.045,0,0,3,742.78,19.11,0,1078.42,0,0,0,,0,0,0,0,0,0,0,0,609.55,0,0,0,0,0,0,0,0,0,269.8,0,0,0,0,0,0,0,0,0,0,0,0,0,3,3,0,0,VALID,0,0,0,0,0,1,0,0,0,0,0,0,0,0,0,0,0,0,0,0,79.01,1101.07,2,0,1.06,0.5,18,0.94,1.06,1.06,19.12,FLYING,X10-H,0:/Integrated Flight Computer/aircraft/x10_h_cfg.ks (inferred preloaded)
20.18,APPROACH,ILS_TRACK,157.66,152,-5.66,688.23,609.59,0.04,9.06,9.52,269.96,0.185,0,0,5.182,1,0.6,4.5,0.75,0.35,0.0168,0.4,4.565,20.296,4.565,5.661,1,270.05,0,0,1,0.02,0,0,0.02,270.04,0.996,0.0008,0.089,0,270.05,1.47,-381.07,18.982,0.047,0,0,3,742.78,18.951,0,1069.12,0,0,0,,0,0,0,0,0,0,0,0,609.59,0,0,0,0,0,0,0,0,0,269.8,0,0,0,0,0,0,0,0,0,0,0,0,0,3,3,0,0,VALID,0,0,0,0,0,1,0,0,0,0,0,0,0,0,0,0,0,0,0,0,53.9,1089.87,2,0,1.06,0.5,19,0.94,1.06,1.06,20.18,FLYING,X10-H,0:/Integrated Flight Computer/aircraft/x10_h_cfg.ks (inferred preloaded)
21.24,APPROACH,ILS_TRACK,155.03,152,-3.03,688.42,609.64,0.04,9.58,10,269.98,0.194,0.2,0,3.64,1,0.6,4.5,0.75,0.35,0.0168,0.4,0,21.037,0,3.031,0,270.04,0,0,1,0.02,0,0,0.02,270.05,0.9961,0.0007,0.0887,0,270.04,1.29,-371.71,18.808,0.04,0,0,3,742.78,18.721,0,1059.96,0,0,0,,0,0,0,0,0,0,0,0,609.64,0,0,0,0,0,0,0,0,0,269.8,0,0,0,0,0,0,0,0,0,0,0,0,0,3,3,0,0,VALID,0,0,0,0,0,1,0,0,0,0,0,0,0,0,0,0,0,0,0,0,78.54,1078.35,2,0,1.06,0.5,20,0.94,1.06,1.06,21.24,FLYING,X10-H,0:/Integrated Flight Computer/aircraft/x10_h_cfg.ks (inferred preloaded)
22.3,APPROACH,ILS_TRACK,152.36,152,-0.36,688.58,609.7,0.05,10.06,10.32,269.98,0.163,0.4,0,3.437,1,0.6,4.5,0.75,0.35,0.0168,0.4,0,21.79,0,0.358,0,270.03,0,0,1,0.02,0,0,0.02,270.04,0.9961,0.0005,0.0884,0,270.03,1.15,-362.51,18.636,0.027,0,0,3,742.78,18.399,0,1050.94,0,0,0,,0,0,0,0,0,0,0,0,609.7,0,0,0,0,0,0,0,0,0,269.8,0,0,0,0,0,0,0,0,0,0,0,0,0,3,3,0,0,VALID,0,0,0,0,0,1,0,0,0,0,0,0,0,0,0,0,0,0,0,0,139.85,1068.74,2,0,1.06,0.5,21,0.94,1.06,1.06,22.3,FLYING,X10-H,0:/Integrated Flight Computer/aircraft/x10_h_cfg.ks (inferred preloaded)
23.36,APPROACH,ILS_TRACK,150.16,152,1.84,688.72,609.79,0.09,10.37,10.37,269.98,0.118,0.6,0,3.42,1,0.6,4.5,0.75,0.35,0.0168,0.4,0,22.401,0,-1.809,0,270.02,0,0,1,0.03,0,0,0.02,270.03,0.9961,0.0003,0.0881,0,270.02,1.03,-353.47,18.466,0.017,0,0,3,742.78,18.082,0,1042.07,0,0,0,,0,0,0,0,0,0,0,0,609.79,0,0,0,0,0,0,0,0,0,269.8,0,0,0,0,0,0,0,0,0,0,0,0,0,3,3,0,0,VALID,0,0,0,0,0,1,0,0,0,0,0,0,0,0,0,0,0,0,0,0,229.56,1062.59,2,0,1.06,0.5,22,0.94,1.06,1.06,23.36,FLYING,X10-H,0:/Integrated Flight Computer/aircraft/x10_h_cfg.ks (inferred preloaded)
24.42,APPROACH,ILS_TRACK,148.8,152,3.2,688.84,609.91,0.14,10.42,10.15,269.98,0.088,0.8,0,3.403,1,0.6,4.5,0.75,0.35,0.0168,0.4,0,22.789,0,-3.186,0,270.01,0,0,1,0.05,0,0,0.02,270.02,0.9961,0.0002,0.0878,0,270.01,0.93,-344.55,18.299,0.01,0,0,3,742.78,17.832,0,1033.28,0,0,0,,0,0,0,0,0,0,0,0,609.91,0,0,0,0,0,0,0,0,0,269.8,0,0,0,0,0,0,0,0,0,0,0,0,0,3,3,0,0,VALID,0,0,0,0,0,1,0,0,0,0,0,0,0,0,0,0,0,0,0,0,342.94,1061.15,2,0,1.06,0.5,23,0.94,1.06,1.06,24.42,FLYING,X10-H,0:/Integrated Flight Computer/aircraft/x10_h_cfg.ks (inferred preloaded)
25.48,APPROACH,ILS_TRACK,148.6,152,3.4,688.95,610.1,0.21,10.2,9.63,269.99,0.076,1,0,3.386,1,0.6,4.5,0.75,0.35,0.0168,0.4,0,22.851,0,-3.405,0,270.01,0,0,1,0.08,0,0,0.02,270.01,0.9962,0.0001,0.0876,0,270.01,0.85,-335.69,18.132,0.008,0,0,3,742.78,17.721,0,1024.54,0,0,0,,0,0,0,0,0,0,0,0,610.1,0,0,0,0,0,0,0,0,0,269.8,0,0,0,0,0,0,0,0,0,0,0,0,0,3,3,0,0,VALID,0,0,0,0,0,1,0,0,0,0,0,0,0,0,0,0,0,0,0,0,477.43,1065.58,2,0,1.06,0.5,24,0.94,1.06,1.06,25.48,FLYING,X10-H,0:/Integrated Flight Computer/aircraft/x10_h_cfg.ks (inferred preloaded)
26.54,APPROACH,ILS_TRACK,149.85,152,2.15,689.11,610.36,0.29,9.67,9.01,269.99,0.071,0.8,0,4.481,1,0.6,4.5,0.75,0.35,0.0168,0.4,0,22.498,0,-2.153,0,270.01,0,0,1,0.11,0,0,0.02,270.01,0.9962,0.0001,0.0873,0,270.01,0.78,-326.8,17.964,0.005,0,0,3,742.78,17.786,0,1015.76,0,0,0,,0,0,0,0,0,0,0,0,610.36,0,0,0,0,0,0,0,0,0,269.8,0,0,0,0,0,0,0,0,0,0,0,0,0,3,3,0,0,VALID,0,0,0,0,0,1,0,0,0,0,0,0,0,0,0,0,0,0,0,0,559.36,1075.8,2,0,1.06,0.5,25,0.94,1.06,1.06,26.54,FLYING,X10-H,0:/Integrated Flight Computer/aircraft/x10_h_cfg.ks (inferred preloaded)
27.6,APPROACH,ILS_TRACK,152.4,152,-0.4,689.34,610.7,0.35,9.07,8.43,269.99,0.069,0.6,0,4.309,1,0.6,4.5,0.75,0.35,0.0168,0.4,0,21.778,0,0.4,0,270,0,0,1,0.13,0,0,0.02,270.01,0.9962,0.0001,0.087,0,270,0.71,-317.74,17.795,0.003,0,0,3,742.78,18.125,0,1006.87,0,0,0,,0,0,0,0,0,0,0,0,610.7,0,0,0,0,0,0,0,0,0,269.8,0,0,0,0,0,0,0,0,0,0,0,0,0,3,3,0,0,VALID,0,0,0,0,0,1,0,0,0,0,0,0,0,0,0,0,0,0,0,0,588.01,1089.26,2,0,1.06,0.5,26,0.94,1.06,1.06,27.6,FLYING,X10-H,0:/Integrated Flight Computer/aircraft/x10_h_cfg.ks (inferred preloaded)
28.66,APPROACH,ILS_TRACK,155.61,152,-3.61,689.64,611.09,0.4,8.52,7.99,269.99,0.067,0.4,0,4.288,1,0.6,4.5,0.75,0.35,0.0168,0.4,0,20.891,0,3.547,0,270,0,0,1,0.15,0,0,0.02,270,0.9962,0,0.0867,0,270,0.66,-308.44,17.622,0.002,0,0,3,742.78,18.597,0,997.81,0,0,0,,0,0,0,0,0,0,0,0,611.09,0,0,0,0,0,0,0,0,0,269.8,0,0,0,0,0,0,0,0,0,0,0,0,0,3,3,0,0,VALID,0,0,0,0,0,1,0,0,0,0,0,0,0,0,0,0,0,0,0,0,554.29,1103.28,2,0,1.06,0.5,27,0.94,1.06,1.06,28.66,FLYING,X10-H,0:/Integrated Flight Computer/aircraft/x10_h_cfg.ks (inferred preloaded)
29.72,APPROACH,ILS_TRACK,158.82,152,-6.82,690.01,611.51,0.41,8.1,7.76,269.99,0.06,0.2,0,4.266,1,0.6,4.5,0.75,0.35,0.0168,0.4,0,19.984,0,6.766,0,270,0,0,1,0.15,0,0,0.02,270,0.9963,0,0.0864,0,270,0.61,-298.89,17.445,-0.002,0,0,3,742.78,19.1,0,988.56,0,0,0,,0,0,0,0,0,0,0,0,611.51,0,0,0,0,0,0,0,0,0,269.8,0,0,0,0,0,0,0,0,0,0,0,0,0,3,3,0,0,VALID,0,0,0,0,0,1,0,0,0,0,0,0,0,0,0,0,0,0,0,0,463.01,1114.73,2,0,1.06,0.5,28,0.94,1.06,1.06,29.72,FLYING,X10-H,0:/Integrated Flight Computer/aircraft/x10_h_cfg.ks (inferred preloaded)
30.78,APPROACH,ILS_TRACK,161.33,152,-9.33,690.43,611.94,0.4,7.88,7.78,269.99,0.047,0,0,4.245,1,0.6,4.5,0.75,0.35,0.0168,0.4,8.117,19.272,8.117,9.292,1,270,0,0,1,0.15,0,0,0.02,270,0.9963,0,0.0861,0,270,0.57,-289.12,17.266,-0.002,0,0,3,742.78,19.545,0,979.16,0,0,0,,0,0,0,0,0,0,0,0,611.94,0,0,0,0,0,0,0,0,0,269.8,0,0,0,0,0,0,0,0,0,0,0,0,0,3,3,0,0,VALID,0,0,0,0,0,1,0,0,0,0,0,0,0,0,0,0,0,0,0,0,328.61,1120.7,2,0,1.06,0.5,29,0.94,1.06,1.06,30.78,FLYING,X10-H,0:/Integrated Flight Computer/aircraft/x10_h_cfg.ks (inferred preloaded)
31.84,APPROACH,ILS_TRACK,162.51,152,-10.51,690.89,612.36,0.39,7.92,7.96,269.99,0.039,0,0,4.224,1,0.6,4.5,0.75,0.35,0.0168,0.4,9.221,18.928,9.221,10.512,1,270,0,0,1,0.14,0,0,0.02,270,0.9963,-0.0001,0.0858,0,270,0.54,-279.19,17.085,-0.004,0,0,3,742.78,19.861,0,969.66,0,0,0,,0,0,0,0,0,0,0,0,612.36,0,0,0,0,0,0,0,0,0,269.8,0,0,0,0,0,0,0,0,0,0,0,0,0,3,3,0,0,VALID,0,0,0,0,0,1,0,0,0,0,0,0,0,0,0,0,0,0,0,0,226.42,1120.39,2,0,1.06,0.5,30,0.94,1.06,1.06,31.84,FLYING,X10-H,0:/Integrated Flight Computer/aircraft/x10_h_cfg.ks (inferred preloaded)
32.9,APPROACH,ILS_TRACK,162.31,152,-10.31,691.35,612.76,0.37,8.1,8.24,269.99,0.035,0,0,4.203,1,0.6,4.5,0.75,0.35,0.0168,0.4,9.044,18.984,9.044,10.314,1,270,0,0,1,0.13,0,0,0.02,270,0.9963,-0.0001,0.0855,0,270,0.5,-269.21,16.903,-0.004,0,0,3,742.78,19.948,0,960.14,0,0,0,,0,0,0,0,0,0,0,0,612.76,0,0,0,0,0,0,0,0,0,269.8,0,0,0,0,0,0,0,0,0,0,0,0,0,3,3,0,0,VALID,0,0,0,0,0,1,0,0,0,0,0,0,0,0,0,0,0,0,0,0,155.37,1115.56,2,0,1.06,0.5,31,0.94,1.06,1.06,32.9,FLYING,X10-H,0:/Integrated Flight Computer/aircraft/x10_h_cfg.ks (inferred preloaded)
33.96,APPROACH,ILS_TRACK,161.13,152,-9.13,691.81,613.14,0.35,8.39,8.62,269.99,0.029,0,0,4.182,1,0.6,4.5,0.75,0.35,0.0168,0.4,7.97,19.317,7.97,9.133,1,270,0,0,1,0.12,0,0,0.02,270,0.9964,-0.0001,0.0852,0,270,0.47,-259.27,16.722,-0.003,0,0,3,742.78,19.877,0,950.67,0,0,0,,0,0,0,0,0,0,0,0,613.14,0,0,0,0,0,0,0,0,0,269.8,0,0,0,0,0,0,0,0,0,0,0,0,0,3,3,0,0,VALID,0,0,0,0,0,1,0,0,0,0,0,0,0,0,0,0,0,0,0,0,106.32,1107.61,2,0,1.06,0.5,32,0.94,1.06,1.06,33.96,FLYING,X10-H,0:/Integrated Flight Computer/aircraft/x10_h_cfg.ks (inferred preloaded)
35.02,APPROACH,ILS_TRACK,159.26,152,-7.26,692.27,613.5,0.32,8.77,9.09,269.99,0.028,0,0,4.161,1,0.6,4.5,0.75,0.35,0.0168,0.4,6.183,19.844,6.183,7.264,1,270,0,0,1,0.11,0,0,0.02,270,0.9964,-0.0001,0.0849,0,270,0.45,-249.42,16.543,-0.004,0,0,3,742.78,19.697,0,941.28,0,0,0,,0,0,0,0,0,0,0,0,613.5,0,0,0,0,0,0,0,0,0,269.8,0,0,0,0,0,0,0,0,0,0,0,0,0,3,3,0,0,VALID,0,0,0,0,0,1,0,0,0,0,0,0,0,0,0,0,0,0,0,0,72.6,1097.54,2,0,1.06,0.5,33,0.94,1.06,1.06,35.02,FLYING,X10-H,0:/Integrated Flight Computer/aircraft/x10_h_cfg.ks (inferred preloaded)
36.08,APPROACH,ILS_TRACK,156.91,152,-4.91,692.71,613.83,0.29,9.23,9.61,269.99,0.025,0.0185,0,1.682,1,0.6,4.5,0.75,0.35,0.0168,0.4,3.781,20.507,3.781,4.911,1,270,0,0,1,0.1,0,0,0.02,270,0.9964,0,0.0846,0,270,0.42,-239.7,16.366,-0.002,0,0,3,742.78,19.44,0,932.02,0,0,0,,0,0,0,0,0,0,0,0,613.83,0,0,0,0,0,0,0,0,0,269.8,0,0,0,0,0,0,0,0,0,0,0,0,0,3,3,0,0,VALID,0,0,0,0,0,1,0,0,0,0,0,0,0,0,0,0,0,0,0,0,55.07,1086.14,2,0,1.06,0.5,34,0.94,1.06,1.06,36.08,FLYING,X10-H,0:/Integrated Flight Computer/aircraft/x10_h_cfg.ks (inferred preloaded)
37.14,APPROACH,ILS_TRACK,154.24,152,-2.24,693.11,614.12,0.25,9.75,10.09,269.99,0.025,0.2185,0,0.535,1,0.6,4.5,0.75,0.35,0.0168,0.4,0,21.259,0,2.241,0,270,0,0,1,0.09,0,0,0.02,270,0.9964,0,0.0843,0,270,0.39,-230.14,16.192,-0.001,0,0,3,742.78,19.121,0,922.89,0,0,0,,0,0,0,0,0,0,0,0,614.12,0,0,0,0,0,0,0,0,0,269.8,0,0,0,0,0,0,0,0,0,0,0,0,0,3,3,0,0,VALID,0,0,0,0,0,1,0,0,0,0,0,0,0,0,0,0,0,0,0,0,83.49,1074.73,2,0,1.06,0.5,35,0.94,1.06,1.06,37.14,FLYING,X10-H,0:/Integrated Flight Computer/aircraft/x10_h_cfg.ks (inferred preloaded)
38.2,APPROACH,ILS_TRACK,151.59,152,0.41,693.46,614.39,0.24,10.22,10.4,269.99,0.024,0.4185,0,0.715,1,0.6,4.5,0.75,0.35,0.0168,0.4,0,22.006,0,-0.407,0,270,0,0,1,0.09,0,0,0.02,270,0.9965,0,0.084,0,270,0.36,-220.77,16.021,-0.001,0,0,3,742.78,18.738,0,913.92,0,0,0,,0,0,0,0,0,0,0,0,614.39,0,0,0,0,0,0,0,0,0,269.8,0,0,0,0,0,0,0,0,0,0,0,0,0,3,3,0,0,VALID,0,0,0,0,0,1,0,0,0,0,0,0,0,0,0,0,0,0,0,0,147.36,1065.38,2,0,1.06,0.5,36,0.94,1.06,1.06,38.2,FLYING,X10-H,0:/Integrated Flight Computer/aircraft/x10_h_cfg.ks (inferred preloaded)
39.26,APPROACH,ILS_TRACK,149.45,152,2.55,693.76,614.65,0.26,10.51,10.43,269.99,0.025,0.6185,0,0.711,1,0.6,4.5,0.75,0.35,0.0168,0.4,0,22.6,0,-2.516,0,270,0,0,1,0.1,0,0,0.02,270,0.9965,0,0.0838,0,270,0.33,-211.59,15.852,0.002,0,0,3,742.78,18.372,0,905.08,0,0,0,,0,0,0,0,0,0,0,0,614.65,0,0,0,0,0,0,0,0,0,269.8,0,0,0,0,0,0,0,0,0,0,0,0,0,3,3,0,0,VALID,0,0,0,0,0,1,0,0,0,0,0,0,0,0,0,0,0,0,0,0,239.06,1059.59,2,0,1.06,0.5,37,0.94,1.06,1.06,39.26,FLYING,X10-H,0:/Integrated Flight Computer/aircraft/x10_h_cfg.ks (inferred preloaded)
40.32,APPROACH,ILS_TRACK,148.18,152,3.82,694.01,614.94,0.28,10.54,10.18,269.99,0.024,0.8185,0,0.708,1,0.6,4.5,0.75,0.35,0.0168,0.4,0,22.963,0,-3.805,0,270,0,0,1,0.11,0,0,0.02,270,0.9965,0,0.0835,0,270,0.3,-202.55,15.685,0.001,0,0,3,742.78,18.085,0,896.33,0,0,0,,0,0,0,0,0,0,0,0,614.94,0,0,0,0,0,0,0,0,0,269.8,0,0,0,0,0,0,0,0,0,0,0,0,0,3,3,0,0,VALID,0,0,0,0,0,1,0,0,0,0,0,0,0,0,0,0,0,0,0,0,354.06,1058.6,2,0,1.06,0.5,38,0.94,1.06,1.06,40.32,FLYING,X10-H,0:/Integrated Flight Computer/aircraft/x10_h_cfg.ks (inferred preloaded)
41.38,APPROACH,ILS_TRACK,148.1,152,3.9,694.25,615.27,0.33,10.26,9.63,269.99,0.024,1,0,0.704,1,0.6,4.5,0.75,0.35,0.0168,0.4,0,22.993,0,-3.912,0,270,0,0,1,0.13,0,0,0.02,270,0.9965,0,0.0832,0,270,0.28,-193.58,15.519,0.001,0,0,3,742.78,17.935,0,887.62,0,0,0,,0,0,0,0,0,0,0,0,615.27,0,0,0,0,0,0,0,0,0,269.8,0,0,0,0,0,0,0,0,0,0,0,0,0,3,3,0,0,VALID,0,0,0,0,0,1,0,0,0,0,0,0,0,0,0,0,0,0,0,0,486.66,1063.51,2,0,1.06,0.5,39,0.94,1.06,1.06,41.38,FLYING,X10-H,0:/Integrated Flight Computer/aircraft/x10_h_cfg.ks (inferred preloaded)
42.44,APPROACH,ILS_TRACK,149.46,152,2.54,694.51,615.66,0.4,9.71,8.99,269.99,0.025,0.8,0,1.994,1,0.6,4.5,0.75,0.35,0.0168,0.4,0,22.606,0,-2.538,0,270,0,0,1,0.15,0,0,0.02,270,0.9966,0,0.0829,0,270,0.26,-184.59,15.352,0,0,0,3,742.78,17.978,0,878.86,0,0,0,,0,0,0,0,0,0,0,0,615.66,0,0,0,0,0,0,0,0,0,269.8,0,0,0,0,0,0,0,0,0,0,0,0,0,3,3,0,0,VALID,0,0,0,0,0,1,0,0,0,0,0,0,0,0,0,0,0,0,0,0,566.78,1074.13,2,0,1.06,0.5,40,0.94,1.06,1.06,42.44,FLYING,X10-H,0:/Integrated Flight Computer/aircraft/x10_h_cfg.ks (inferred preloaded)
43.5,APPROACH,ILS_TRACK,152.11,152,-0.11,694.82,616.1,0.44,9.09,8.41,269.99,0.024,0.6,0,1.966,1,0.6,4.5,0.75,0.35,0.0168,0.4,0,21.859,0,0.113,0,270,0,0,1,0.17,0,0,0.02,270,0.9966,0.0001,0.0827,0,270,0.23,-175.44,15.183,0.004,0,0,3,742.78,18.292,0,869.98,0,0,0,,0,0,0,0,0,0,0,0,616.1,0,0,0,0,0,0,0,0,0,269.8,0,0,0,0,0,0,0,0,0,0,0,0,0,3,3,0,0,VALID,0,0,0,0,0,1,0,0,0,0,0,0,0,0,0,0,0,0,0,0,594.08,1087.93,2,0,1.06,0.5,41,0.94,1.06,1.06,43.5,FLYING,X10-H,0:/Integrated Flight Computer/aircraft/x10_h_cfg.ks (inferred preloaded)
44.56,APPROACH,ILS_TRACK,155.41,152,-3.41,695.18,616.57,0.46,8.52,7.98,270,0.027,0.4,0,1.956,1,0.6,4.5,0.75,0.35,0.0168,0.4,0,20.949,0,3.342,0,270,0,0,1,0.17,0,0,0.02,270,0.9966,0.0001,0.0824,0,270,0.21,-166.08,15.01,0.003,0,0,3,742.78,18.735,0,860.92,0,0,0,,0,0,0,0,0,0,0,0,616.57,0,0,0,0,0,0,0,0,0,269.8,0,0,0,0,0,0,0,0,0,0,0,0,0,3,3,0,0,VALID,0,0,0,0,0,1,0,0,0,0,0,0,0,0,0,0,0,0,0,0,558.6,1102.23,2,0,1.06,0.5,42,0.94,1.06,1.06,44.56,FLYING,X10-H,0:/Integrated Flight Computer/aircraft/x10_h_cfg.ks (inferred preloaded)
45.62,APPROACH,ILS_TRACK,158.68,152,-6.68,695.59,617.06,0.47,8.1,7.75,270,0.03,0.2,0,1.946,1,0.6,4.5,0.75,0.35,0.0168,0.4,0,20.023,0,6.627,0,270,0,0,1,0.17,0,0,0.02,270,0.9966,0,0.0821,0,270,0.19,-156.47,14.834,0.003,0,0,3,742.78,19.216,0,851.69,0,0,0,,0,0,0,0,0,0,0,0,617.06,0,0,0,0,0,0,0,0,0,269.8,0,0,0,0,0,0,0,0,0,0,0,0,0,3,3,0,0,VALID,0,0,0,0,0,1,0,0,0,0,0,0,0,0,0,0,0,0,0,0,466.04,1113.89,2,0,1.06,0.5,43,0.94,1.06,1.06,45.62,FLYING,X10-H,0:/Integrated Flight Computer/aircraft/x10_h_cfg.ks (inferred preloaded)
46.68,APPROACH,ILS_TRACK,161.24,152,-9.24,696.05,617.54,0.44,7.88,7.76,270,0.028,0,0,1.937,1,0.6,4.5,0.75,0.35,0.0168,0.4,8.034,19.298,8.034,9.202,1,270,0,0,1,0.16,0,0,0.02,270,0.9967,0.0001,0.0818,0,270,0.17,-146.65,14.654,0.004,0,0,3,742.78,19.637,0,842.28,0,0,0,,0,0,0,0,0,0,0,0,617.54,0,0,0,0,0,0,0,0,0,269.8,0,0,0,0,0,0,0,0,0,0,0,0,0,3,3,0,0,VALID,0,0,0,0,0,1,0,0,0,0,0,0,0,0,0,0,0,0,0,0,330.76,1120.07,2,0,1.06,0.5,44,0.94,1.06,1.06,46.68,FLYING,X10-H,0:/Integrated Flight Computer/aircraft/x10_h_cfg.ks (inferred preloaded)
47.74,APPROACH,ILS_TRACK,162.47,152,-10.47,696.54,617.99,0.43,7.91,7.94,270,0.029,0,0,1.927,1,0.6,4.5,0.75,0.35,0.0168,0.4,9.183,18.94,9.183,10.47,1,270,0,0,1,0.15,0,0,0.02,270,0.9967,0.0001,0.0815,0,270,0.15,-136.68,14.473,0.004,0,0,3,742.78,19.933,0,832.78,0,0,0,,0,0,0,0,0,0,0,0,617.99,0,0,0,0,0,0,0,0,0,269.8,0,0,0,0,0,0,0,0,0,0,0,0,0,3,3,0,0,VALID,0,0,0,0,0,1,0,0,0,0,0,0,0,0,0,0,0,0,0,0,227.92,1119.87,2,0,1.06,0.5,45,0.94,1.06,1.06,47.74,FLYING,X10-H,0:/Integrated Flight Computer/aircraft/x10_h_cfg.ks (inferred preloaded)
48.8,APPROACH,ILS_TRACK,162.3,152,-10.3,697.02,618.42,0.39,8.09,8.22,270,0.028,0,0,1.917,1,0.6,4.5,0.75,0.35,0.0168,0.4,9.029,18.989,9.029,10.296,1,270,0,0,1,0.14,0,0,0.02,270,0.9967,0.0001,0.0812,0,270,0.13,-126.68,14.291,0.003,0,0,3,742.78,20.006,0,823.26,0,0,0,,0,0,0,0,0,0,0,0,618.42,0,0,0,0,0,0,0,0,0,269.8,0,0,0,0,0,0,0,0,0,0,0,0,0,3,3,0,0,VALID,0,0,0,0,0,1,0,0,0,0,0,0,0,0,0,0,0,0,0,0,156.42,1115.12,2,0,1.06,0.5,46,0.94,1.06,1.06,48.8,FLYING,X10-H,0:/Integrated Flight Computer/aircraft/x10_h_cfg.ks (inferred preloaded)
49.86,APPROACH,ILS_TRACK,161.13,152,-9.13,697.5,618.82,0.36,8.38,8.6,270,0.028,0,0,1.908,1,0.6,4.5,0.75,0.35,0.0168,0.4,7.971,19.317,7.971,9.134,1,270,0,0,1,0.13,0,0,0.02,270,0.9967,0.0001,0.0809,0,270,0.11,-116.72,14.11,0.004,0,0,3,742.78,19.922,0,813.78,0,0,0,,0,0,0,0,0,0,0,0,618.82,0,0,0,0,0,0,0,0,0,269.8,0,0,0,0,0,0,0,0,0,0,0,0,0,3,3,0,0,VALID,0,0,0,0,0,1,0,0,0,0,0,0,0,0,0,0,0,0,0,0,107.04,1107.23,2,0,1.06,0.5,47,0.94,1.06,1.06,49.86,FLYING,X10-H,0:/Integrated Flight Computer/aircraft/x10_h_cfg.ks (inferred preloaded)
50.92,APPROACH,ILS_TRACK,159.28,152,-7.28,697.97,619.19,0.33,8.76,9.06,270,0.028,0,0,1.898,1,0.6,4.5,0.75,0.35,0.0168,0.4,6.197,19.84,6.197,7.279,1,270,0,0,1,0.12,0,0,0.02,270,0.9967,0.0001,0.0806,0,270,0.1,-106.85,13.931,0.004,0,0,3,742.78,19.736,0,804.39,0,0,0,,0,0,0,0,0,0,0,0,619.19,0,0,0,0,0,0,0,0,0,269.8,0,0,0,0,0,0,0,0,0,0,0,0,0,3,3,0,0,VALID,0,0,0,0,0,1,0,0,0,0,0,0,0,0,0,0,0,0,0,0,73.1,1097.21,2,0,1.06,0.5,48,0.94,1.06,1.06,50.92,FLYING,X10-H,0:/Integrated Flight Computer/aircraft/x10_h_cfg.ks (inferred preloaded)
51.98,APPROACH,ILS_TRACK,156.94,152,-4.94,698.42,619.53,0.3,9.22,9.6,270,0.029,0,0,-0.593,1,0.6,4.5,0.75,0.35,0.0168,0.4,3.807,20.5,3.807,4.935,1,270,0,0,1,0.11,0,0,0.02,270,0.9968,0.0001,0.0803,0,270,0.08,-97.11,13.754,0.004,0,0,3,742.78,19.474,0,795.12,0,0,0,,0,0,0,0,0,0,0,0,619.53,0,0,0,0,0,0,0,0,0,269.8,0,0,0,0,0,0,0,0,0,0,0,0,0,3,3,0,0,VALID,0,0,0,0,0,1,0,0,0,0,0,0,0,0,0,0,0,0,0,0,49.85,1085.74,2,0,1.06,0.5,49,0.94,1.06,1.06,51.98,FLYING,X10-H,0:/Integrated Flight Computer/aircraft/x10_h_cfg.ks (inferred preloaded)
53.04,APPROACH,ILS_TRACK,154.24,152,-2.24,698.83,619.83,0.26,9.75,10.1,270,0.028,0.2,0,-1.742,1,0.6,4.5,0.75,0.35,0.0168,0.4,0,21.259,0,2.243,0,270,0,0,1,0.1,0,0,0.02,270,0.9968,0.0001,0.08,0,270,0.07,-87.54,13.58,0.005,0,0,3,742.78,19.155,0,785.99,0,0,0,,0,0,0,0,0,0,0,0,619.83,0,0,0,0,0,0,0,0,0,269.8,0,0,0,0,0,0,0,0,0,0,0,0,0,3,3,0,0,VALID,0,0,0,0,0,1,0,0,0,0,0,0,0,0,0,0,0,0,0,0,75.21,1074.02,2,0,1.06,0.5,50,0.94,1.06,1.06,53.04,FLYING,X10-H,0:/Integrated Flight Computer/aircraft/x10_h_cfg.ks (inferred preloaded)
54.1,APPROACH,ILS_TRACK,151.52,152,0.48,699.19,620.1,0.24,10.23,10.46,270,0.029,0.4,0,-1.525,1,0.6,4.5,0.75,0.35,0.0168,0.4,0,22.027,0,-0.482,0,270.01,0,0,1,0.09,0,0,0.02,270,0.9968,0.0001,0.0797,0,270.01,0.05,-78.16,13.409,0.006,8.437,1,3,742.78,18.762,0,777.02,0,0,0,,0,0,0,0,0,0,0,0,620.1,0,0,0,0,0,0,0,0,0,269.8,0,0,0,0,0,0,0,0,0,0,0,0,0,3,3,0,0,VALID,0,0,0,0,0,1,0,0,0,0,0,0,0,0,0,0,0,0,0,0,136.84,1064.17,2,0,1.06,0.5,51,0.94,1.06,1.06,54.1,FLYING,X10-H,0:/Integrated Flight Computer/aircraft/x10_h_cfg.ks (inferred preloaded)
55.16,APPROACH,ILS_TRACK,149.25,152,2.75,699.49,620.26,0.23,10.55,10.56,270,0.028,0.6,0,-1.517,1,0.6,4.5,0.75,0.35,0.0168,0.4,0,22.667,0,-2.753,0,270,0,0,1,0.09,0,0,0.02,270.01,0.9968,0.0001,0.0794,0,270,0.04,-68.97,13.24,0.005,5.998,1,3,742.78,18.367,0,768.18,0,0,0,,0,0,0,0,0,0,0,0,620.26,0,0,0,0,0,0,0,0,0,269.8,0,0,0,0,0,0,0,0,0,0,0,0,0,3,3,0,0,VALID,0,0,0,0,0,1,0,0,0,0,0,0,0,0,0,0,0,0,0,0,226.58,1057.77,2,0,1.06,0.5,52,0.94,1.06,1.06,55.16,FLYING,X10-H,0:/Integrated Flight Computer/aircraft/x10_h_cfg.ks (inferred preloaded)
56.22,APPROACH,ILS_TRACK,147.83,152,4.17,699.73,620.11,0.26,10.65,10.26,270,0.027,0.8,0,-1.51,1,0.6,4.5,0.75,0.35,0.0168,0.4,0,23.066,0,-4.17,0,270,0,0,1,0.11,0,0,0.02,270,0.9969,0.0001,0.0792,0,270,0.03,-59.94,13.074,0.003,3.525,1,3,742.78,18.071,0,759.45,0,0,0,,0,0,0,0,0,0,0,0,620.11,0,0,0,0,0,0,0,0,0,269.8,0,0,0,0,0,0,0,0,0,0,0,0,0,3,3,0,0,VALID,0,0,0,0,0,1,0,0,0,0,0,0,0,0,0,0,0,0,0,0,339.72,1056.03,2,0,1.06,0.5,53,0.94,1.06,1.06,56.22,FLYING,X10-H,0:/Integrated Flight Computer/aircraft/x10_h_cfg.ks (inferred preloaded)
57.28,APPROACH,ILS_TRACK,147.56,152,4.44,698.76,619.9,0.34,10.35,5.89,270,0.026,1,0,-1.502,1,0.6,4.5,0.75,0.35,0.0168,0.4,0,23.141,0,-4.436,0,270,-2.005,0,1,0.13,0,0,0.02,270,0.999,0,0.044,-2.01,270,0.02,-51,12.908,0.004,0.995,1,3,742.78,17.88,-2.005,750.76,0,0,0,,0,0,0,0,0,0,0,0,619.9,0,0,0,0,0,0,0,0,0,269.8,0,0,0,0,0,0,0,0,0,0,0,0,0,3,3,0,0,VALID,0,0,0,0,0,1,0,0,0,0,0,0,0,0,0,0,0,0,0,0,473.99,1060.79,2,0,1.06,0.5,54,0.94,1.06,1.06,57.28,FLYING,X10-H,0:/Integrated Flight Computer/aircraft/x10_h_cfg.ks (inferred preloaded)
58.34,APPROACH,ILS_TRACK,149,152,3,696.77,619.67,-1.12,5.51,6.81,270,0.033,0.8,0,0.022,1,0.6,4.5,0.75,0.35,0.0168,0.4,0,22.735,0,-2.996,0,270,-2.141,0,1,-0.37,0,0,-1.99,270,0.9991,0,0.0413,-2.14,270,0.02,-43.4,12.741,0.001,0.859,1,3,742.78,15.2,-2.141,742.03,0,0,0,,0,0,0,0,0,0,0,0,619.67,0,0,0,0,0,0,0,0,0,269.8,0,0,0,0,0,0,0,0,0,0,0,0,0,3,3,0,0,VALID,0,0,0,0,0,1,0,0,0,0,0,0,0,0,0,0,0,0,0,0,557.67,1074.63,2,0,1.06,0.5,55,0.94,1.06,1.06,58.34,FLYING,X10-H,0:/Integrated Flight Computer/aircraft/x10_h_cfg.ks (inferred preloaded)
59.4,APPROACH,ILS_TRACK,152.38,152,-0.38,692.62,617.16,-2.93,5.79,6.23,270,0.03,0.6,0,0.022,1,0.6,4.5,0.75,0.35,0.0168,0.4,0,21.783,0,0.383,0,270,-2.754,0,1,-1.07,0,0,-2.13,270,0.9995,-0.0001,0.0303,-2.75,270,0.02,-36.67,12.572,-0.002,0.246,1,3,742.78,13.445,-2.754,733.15,0,0,0,,0,0,0,0,0,0,0,0,617.16,0,0,0,0,0,0,0,0,0,269.8,0,0,0,0,0,0,0,0,0,0,0,0,0,3,3,0,0,VALID,0,0,0,0,0,1,0,0,0,0,0,0,0,0,0,0,0,0,0,0,588.53,1091.89,2,0,1.06,0.5,56,0.94,1.06,1.06,59.4,FLYING,X10-H,0:/Integrated Flight Computer/aircraft/x10_h_cfg.ks (inferred preloaded)
60.46,APPROACH,ILS_TRACK,156.41,152,-4.41,687.76,612.99,-4.71,4.61,9.28,270,-0.001,0.4,0,0.022,1,0.6,4.5,0.75,0.35,0.0168,0.4,0,20.648,0,4.41,0,270,-1.034,0,1,-1.71,0,0,-2.74,270,0.9982,-0.0001,0.06,-1.03,270,0.02,-31.92,12.398,-0.002,1.966,1,3,742.78,9.512,-1.034,724.06,0,0,0,,0,0,0,0,0,0,0,0,612.99,0,0,0,0,0,0,0,0,0,269.8,0,0,0,0,0,0,0,0,0,0,0,0,0,3,3,0,0,VALID,0,0,0,0,0,1,0,0,0,0,0,0,0,0,0,0,0,0,0,0,556.44,1108.76,2,0,1.06,0.5,57,0.94,1.06,1.06,60.46,FLYING,X10-H,0:/Integrated Flight Computer/aircraft/x10_h_cfg.ks (inferred preloaded)
61.52,APPROACH,ILS_TRACK,160.01,152,-8.01,682.27,607.16,-4.87,7.52,7.42,270,-0.008,0.2,0,0.022,1,0.6,4.5,0.75,0.35,0.0168,0.4,0,19.634,0,8.008,0,269.99,-1.81,0,1,-1.77,0,0,-1.02,270,0.9989,-0.0001,0.0462,-1.81,269.99,0.03,-27.5,12.221,-0.005,1.19,1,3,742.78,8.827,-1.81,714.75,0,0,0,,0,0,0,0,0,0,0,0,607.16,0,0,0,0,0,0,0,0,0,269.8,0,0,0,0,0,0,0,0,0,0,0,0,0,3,3,0,0,VALID,0,0,0,0,0,1,0,0,0,0,0,0,0,0,0,0,0,0,0,0,465.12,1120.88,2,0,1.06,0.5,58,0.94,1.06,1.06,61.52,FLYING,X10-H,0:/Integrated Flight Computer/aircraft/x10_h_cfg.ks (inferred preloaded)
62.58,APPROACH,ILS_TRACK,162.65,152,-10.65,676.52,602.32,-4.84,5.78,6.24,270,-0.012,0,0,0.021,1,0.6,4.5,0.75,0.35,0.0168,0.4,9.347,18.888,9.347,10.655,1,269.99,-2.328,0,1,-1.7,0,0,-1.79,269.99,0.9993,-0.0001,0.0369,-2.33,269.99,0.04,-23.52,12.04,-0.005,0.672,1,3,742.78,7.979,-2.328,705.29,0,0,0,,0,0,0,0,0,0,0,0,602.32,0,0,0,0,0,0,0,0,0,269.8,0,0,0,0,0,0,0,0,0,0,0,0,0,3,3,0,0,VALID,0,0,0,0,0,1,0,0,0,0,0,0,0,0,0,0,0,0,0,0,330.94,1129.71,2,0,1.06,0.5,59,0.94,1.06,1.06,62.58,FLYING,X10-H,0:/Integrated Flight Computer/aircraft/x10_h_cfg.ks (inferred preloaded)
63.64,APPROACH,ILS_TRACK,164.41,152,-12.41,669.68,596.89,-5.91,4.6,5.26,270,-0.026,0,0,0.021,1,0.6,4.5,0.75,0.35,0.0168,0.4,10.845,18.394,10.845,12.408,1,270,-3.204,0,1,-2.06,0,0,-2.31,269.99,0.9998,-0.0001,0.0213,-3.2,270,0.04,-19.7,11.857,-0.004,-0.204,1,3,742.78,7.64,-3.204,695.71,0,0,0,,0,0,0,0,0,0,0,0,596.89,0,0,0,0,0,0,0,0,0,269.8,0,0,0,0,0,0,0,0,0,0,0,0,0,3,3,0,0,VALID,0,0,0,0,0,1,0,0,0,0,0,0,0,0,0,0,0,0,0,0,228.76,1133.09,2,0,1.06,0.5,60,0.94,1.06,1.06,63.64,FLYING,X10-H,0:/Integrated Flight Computer/aircraft/x10_h_cfg.ks (inferred preloaded)
64.7,APPROACH,ILS_TRACK,164.96,152,-12.96,662.45,590.32,-7.27,3.16,8.07,270,-0.024,0,0,0.021,1,0.6,4.5,0.75,0.35,0.0168,0.4,11.294,18.24,11.294,12.955,1,270,-2.113,0,1,-2.51,0,0,-3.19,270,0.9992,0,0.04,-2.11,270,0.04,-17.05,11.674,0,0.887,1,3,742.78,5.286,-2.113,686.08,0,0,0,,0,0,0,0,0,0,0,0,590.32,0,0,0,0,0,0,0,0,0,269.8,0,0,0,0,0,0,0,0,0,0,0,0,0,3,3,0,0,VALID,0,0,0,0,0,1,0,0,0,0,0,0,0,0,0,0,0,0,0,0,157.56,1132.29,2,0,1.06,0.5,61,0.94,1.06,1.06,64.7,FLYING,X10-H,0:/Integrated Flight Computer/aircraft/x10_h_cfg.ks (inferred preloaded)
65.76,APPROACH,ILS_TRACK,164.49,152,-12.49,654.75,582.25,-7.36,5.65,8.01,270,-0.004,0,0,0.021,1,0.6,4.5,0.75,0.35,0.0168,0.4,10.911,18.372,10.911,12.487,1,270,-2.302,0,1,-2.57,0,0,-2.1,270,0.9993,0,0.0364,-2.3,270,0.03,-14.73,11.49,0.002,0.698,1,3,742.78,4.65,-2.302,676.45,0,0,0,,0,0,0,0,0,0,0,0,582.25,0,0,0,0,0,0,0,0,0,269.8,0,0,0,0,0,0,0,0,0,0,0,0,0,3,3,0,0,VALID,0,0,0,0,0,1,0,0,0,0,0,0,0,0,0,0,0,0,0,0,108.08,1127.08,2,0,1.06,0.5,62,0.94,1.06,1.06,65.76,FLYING,X10-H,0:/Integrated Flight Computer/aircraft/x10_h_cfg.ks (inferred preloaded)
66.82,APPROACH,ILS_TRACK,163.13,152,-11.13,647.35,574.57,-7.2,5.63,8.49,270,0.004,0,0,0.021,1,0.6,4.5,0.75,0.35,0.0168,0.4,9.762,18.754,9.762,11.13,1,270,-2.142,0,1,-2.53,0,0,-2.28,270,0.9992,0,0.0389,-2.14,270,0.02,-12.85,11.307,0.003,0.858,1,3,742.78,3.747,-2.142,666.89,0,0,0,,0,0,0,0,0,0,0,0,574.57,0,0,0,0,0,0,0,0,0,269.8,0,0,0,0,0,0,0,0,0,0,0,0,0,3,3,0,0,VALID,0,0,0,0,0,1,0,0,0,0,0,0,0,0,0,0,0,0,0,0,74,1119.73,2,0,1.06,0.5,63,0.94,1.06,1.06,66.82,FLYING,X10-H,0:/Integrated Flight Computer/aircraft/x10_h_cfg.ks (inferred preloaded)
67.88,APPROACH,ILS_TRACK,161.29,152,-9.29,639.49,567.04,-6.96,6.17,7.01,270,0.015,0,0,0.021,1,0.6,4.5,0.75,0.35,0.0168,0.4,8.112,19.274,8.112,9.287,1,270,-3.124,0,1,-2.47,0,0,-2.13,270,0.9998,0,0.0215,-3.12,270,0.01,-10.76,11.127,0.004,-0.124,1,3,742.78,4.19,-3.124,657.42,0,0,0,,0,0,0,0,0,0,0,0,567.04,0,0,0,0,0,0,0,0,0,269.8,0,0,0,0,0,0,0,0,0,0,0,0,0,3,3,0,0,VALID,0,0,0,0,0,1,0,0,0,0,0,0,0,0,0,0,0,0,0,0,50.62,1111.4,2,0,1.06,0.5,64,0.94,1.06,1.06,67.88,FLYING,X10-H,0:/Integrated Flight Computer/aircraft/x10_h_cfg.ks (inferred preloaded)
68.94,APPROACH,ILS_TRACK,159.28,152,-7.28,631.8,559.61,-7.7,4.65,9.05,270,0.041,0,0,0.021,1,0.6,4.5,0.75,0.35,0.0168,0.4,6.195,19.84,6.195,7.276,1,270,-2.585,0,1,-2.75,0,0,-3.11,270,0.9995,0,0.0306,-2.59,270,0.01,-9.28,10.948,0.004,0.415,1,3,742.78,2.96,-2.585,648.07,0,0,0,,0,0,0,0,0,0,0,0,559.61,0,0,0,0,0,0,0,0,0,269.8,0,0,0,0,0,0,0,0,0,0,0,0,0,3,3,0,0,VALID,0,0,0,0,0,1,0,0,0,0,0,0,0,0,0,0,0,0,0,0,34.61,1102.81,2,0,1.06,0.5,65,0.94,1.06,1.06,68.94,FLYING,X10-H,0:/Integrated Flight Computer/aircraft/x10_h_cfg.ks (inferred preloaded)
70,APPROACH,ILS_TRACK,157.1,152,-5.1,623.6,551.31,-7.71,6.44,9.06,270,0.031,0.1698,0,-2.553,1,0.6,4.5,0.75,0.35,0.0168,0.4,0,20.453,0,5.103,0,270,-3.044,0,1,-2.81,0,0,-2.57,270,0.9998,0,0.0223,-3.04,270,0,-7.79,10.772,0.002,-0.044,1,3,742.78,2.977,-3.044,638.83,0,0,0,,0,0,0,0,0,0,0,0,551.31,0,0,0,0,0,0,0,0,0,269.8,0,0,0,0,0,0,0,0,0,0,0,0,0,3,3,0,0,VALID,0,0,0,0,0,1,0,0,0,0,0,0,0,0,0,0,0,0,0,0,57.75,1093.61,2,0,1.06,0.5,66,0.94,1.06,1.06,70,FLYING,X10-H,0:/Integrated Flight Computer/aircraft/x10_h_cfg.ks (inferred preloaded)
71.06,APPROACH,ILS_TRACK,154.86,152,-2.86,615.63,543.13,-7.86,6.37,10.13,270,0.025,0.3698,0,-4.004,1,0.6,4.5,0.75,0.35,0.0168,0.4,0,21.084,0,2.864,0,270,-2.365,0,1,-2.9,0,0,-3.03,270,0.9994,-0.0001,0.0338,-2.37,270,0.01,-6.89,10.598,-0.002,0.635,1,3,742.78,1.792,-2.365,629.73,0,0,0,,0,0,0,0,0,0,0,0,543.13,0,0,0,0,0,0,0,0,0,269.8,0,0,0,0,0,0,0,0,0,0,0,0,0,3,3,0,0,VALID,0,0,0,0,0,1,0,0,0,0,0,0,0,0,0,0,0,0,0,0,118.24,1085.99,2,0,1.06,0.5,67,0.94,1.06,1.06,71.06,FLYING,X10-H,0:/Integrated Flight Computer/aircraft/x10_h_cfg.ks (inferred preloaded)
72.12,APPROACH,ILS_TRACK,152.97,152,-0.97,607.56,534.84,-7.55,7.44,9.57,270,0.011,0.5698,0,-4.503,1,0.6,4.5,0.75,0.35,0.0168,0.4,0,21.619,0,0.966,0,270,-2.877,0,1,-2.83,0,0,-2.35,270,0.9997,-0.0001,0.0246,-2.88,270,0.01,-5.87,10.427,-0.003,0.123,1,3,742.78,2.047,-2.877,620.74,0,0,0,,0,0,0,0,0,0,0,0,534.84,0,0,0,0,0,0,0,0,0,269.8,0,0,0,0,0,0,0,0,0,0,0,0,0,3,3,0,0,VALID,0,0,0,0,0,1,0,0,0,0,0,0,0,0,0,0,0,0,0,0,208.2,1081.64,2,0,1.06,0.5,68,0.94,1.06,1.06,72.12,FLYING,X10-H,0:/Integrated Flight Computer/aircraft/x10_h_cfg.ks (inferred preloaded)
73.18,APPROACH,ILS_TRACK,151.93,152,0.07,599.58,526.95,-7.48,6.89,9.37,270,0.006,0.7358,0,-4.471,1,0.6,4.5,0.75,0.35,0.0168,0.4,0,21.911,0,-0.072,0,270,-2.831,0,1,-2.82,0,0,-2.86,270,0.9997,-0.0001,0.0251,-2.83,270,0.02,-5.03,10.257,-0.004,0.169,1,3,742.78,1.676,-2.831,611.84,0,0,0,,0,0,0,0,0,0,0,0,526.95,0,0,0,0,0,0,0,0,0,269.8,0,0,0,0,0,0,0,0,0,0,0,0,0,3,3,0,0,VALID,0,0,0,0,0,1,0,0,0,0,0,0,0,0,0,0,0,0,0,0,316.75,1082.47,2,0,1.06,0.5,69,0.94,1.06,1.06,73.18,FLYING,X10-H,0:/Integrated Flight Computer/aircraft/x10_h_cfg.ks (inferred preloaded)
74.24,APPROACH,ILS_TRACK,152.12,152,-0.12,591.29,519.03,-7.47,6.67,8.64,270,0.001,0.5381,0,-4.523,1,0.6,4.5,0.75,0.35,0.0168,0.4,0,21.857,0,0.121,0,270,-3.179,0,1,-2.81,0,0,-2.81,270,0.9998,-0.0001,0.0188,-3.18,270,0.02,-4.14,10.088,-0.004,-0.179,1,3,742.78,1.778,-3.179,602.96,0,0,0,,0,0,0,0,0,0,0,0,519.03,0,0,0,0,0,0,0,0,0,269.8,0,0,0,0,0,0,0,0,0,0,0,0,0,3,3,0,0,VALID,0,0,0,0,0,1,0,0,0,0,0,0,0,0,0,0,0,0,0,0,374.42,1088.05,2,0,1.06,0.5,70,0.94,1.06,1.06,74.24,FLYING,X10-H,0:/Integrated Flight Computer/aircraft/x10_h_cfg.ks (inferred preloaded)
75.3,APPROACH,ILS_TRACK,153.38,152,-1.38,582.86,510.97,-7.86,5.8,8.8,270,-0.011,0.3381,0,-5.197,1,0.6,4.5,0.75,0.35,0.0168,0.4,0,21.503,0,1.377,0,270,-2.885,0,1,-2.92,0,0,-3.16,270,0.9997,-0.0001,0.0236,-2.88,270,0.03,-3.55,9.917,-0.004,0.115,1,3,742.78,1.187,-2.885,594.04,0,0,0,,0,0,0,0,0,0,0,0,510.97,0,0,0,0,0,0,0,0,0,269.8,0,0,0,0,0,0,0,0,0,0,0,0,0,3,3,0,0,VALID,0,0,0,0,0,1,0,0,0,0,0,0,0,0,0,0,0,0,0,0,379.43,1095.54,2,0,1.06,0.5,71,0.94,1.06,1.06,75.3,FLYING,X10-H,0:/Integrated Flight Computer/aircraft/x10_h_cfg.ks (inferred preloaded)
76.36,APPROACH,ILS_TRACK,154.99,152,-2.99,574.27,502.47,-8,5.96,8.58,270,-0.007,0.1381,0,-5.171,1,0.6,4.5,0.75,0.35,0.0168,0.4,0,21.049,0,2.987,0,270,-3.015,0,1,-2.96,0,0,-2.87,270,0.9998,-0.0001,0.0211,-3.02,270,0.03,-2.98,9.746,-0.002,-0.015,1,3,742.78,1.137,-3.015,585.03,0,0,0,,0,0,0,0,0,0,0,0,502.47,0,0,0,0,0,0,0,0,0,269.8,0,0,0,0,0,0,0,0,0,0,0,0,0,3,3,0,0,VALID,0,0,0,0,0,1,0,0,0,0,0,0,0,0,0,0,0,0,0,0,318.01,1102.04,2,0,1.06,0.5,72,0.94,1.06,1.06,76.36,FLYING,X10-H,0:/Integrated Flight Computer/aircraft/x10_h_cfg.ks (inferred preloaded)
77.42,APPROACH,ILS_TRACK,156.27,152,-4.27,565.65,493.94,-8.11,5.75,8.68,270,-0.003,0,0,-5.145,1,0.6,4.5,0.75,0.35,0.0168,0.4,3.103,20.686,3.103,4.275,1,270,-3.029,0,1,-2.97,0,0,-3,270,0.9998,-0.0001,0.0205,-3.03,270,0.03,-2.5,9.572,-0.001,-0.029,1,3,742.78,0.973,-3.029,575.95,0,0,0,,0,0,0,0,0,0,0,0,493.94,0,0,0,0,0,0,0,0,0,269.8,0,0,0,0,0,0,0,0,0,0,0,0,0,3,3,0,0,VALID,0,0,0,0,0,1,0,0,0,0,0,0,0,0,0,0,0,0,0,0,225.05,1104.92,2,0,1.06,0.5,73,0.94,1.06,1.06,77.42,FLYING,X10-H,0:/Integrated Flight Computer/aircraft/x10_h_cfg.ks (inferred preloaded)
78.48,APPROACH,ILS_TRACK,156.66,152,-4.66,556.9,485.29,-8.19,5.85,8.73,270,0,0,0,-5.119,1,0.6,4.5,0.75,0.35,0.0168,0.4,3.518,20.577,3.518,4.663,1,270,-3.204,0,1,-2.99,0,0,-3.01,270,0.9999,-0.0001,0.0172,-3.2,270,0.03,-1.99,9.398,0,-0.204,1,3,742.78,1.003,-3.204,566.83,0,0,0,,0,0,0,0,0,0,0,0,485.29,0,0,0,0,0,0,0,0,0,269.8,0,0,0,0,0,0,0,0,0,0,0,0,0,3,3,0,0,VALID,0,0,0,0,0,1,0,0,0,0,0,0,0,0,0,0,0,0,0,0,154.92,1103.62,2,0,1.06,0.5,74,0.94,1.06,1.06,78.48,FLYING,X10-H,0:/Integrated Flight Computer/aircraft/x10_h_cfg.ks (inferred preloaded)
79.54,APPROACH,ILS_TRACK,156.12,152,-4.12,548.15,476.52,-8.38,5.84,9.28,270,0.004,0,0,-5.094,1,0.6,4.5,0.75,0.35,0.0168,0.4,2.932,20.731,2.932,4.117,1,270,-3.043,0,1,-3.07,0,0,-3.19,270,0.9998,0,0.0197,-3.04,270,0.03,-1.66,9.225,0,-0.043,1,3,742.78,0.675,-3.043,557.73,0,0,0,,0,0,0,0,0,0,0,0,476.52,0,0,0,0,0,0,0,0,0,269.8,0,0,0,0,0,0,0,0,0,0,0,0,0,3,3,0,0,VALID,0,0,0,0,0,1,0,0,0,0,0,0,0,0,0,0,0,0,0,0,106.34,1099.27,2,0,1.06,0.5,75,0.94,1.06,1.06,79.54,FLYING,X10-H,0:/Integrated Flight Computer/aircraft/x10_h_cfg.ks (inferred preloaded)
80.6,APPROACH,ILS_TRACK,154.86,152,-2.86,539.43,467.61,-8.35,6.37,9.65,270,0.004,0,0,-5.068,1,0.6,4.5,0.75,0.35,0.0168,0.4,1.553,21.084,1.553,2.862,1,270,-3.08,0,1,-3.09,0,0,-3.03,270,0.9998,0,0.0188,-3.08,270,0.02,-1.35,9.052,0.001,-0.08,1,3,742.78,0.607,-3.08,548.68,0,0,0,,0,0,0,0,0,0,0,0,467.61,0,0,0,0,0,0,0,0,0,269.8,0,0,0,0,0,0,0,0,0,0,0,0,0,3,3,0,0,VALID,0,0,0,0,0,1,0,0,0,0,0,0,0,0,0,0,0,0,0,0,72.85,1092.67,2,0,1.06,0.5,76,0.94,1.06,1.06,80.6,FLYING,X10-H,0:/Integrated Flight Computer/aircraft/x10_h_cfg.ks (inferred preloaded)
81.66,APPROACH,ILS_TRACK,153.1,152,-1.1,530.8,458.78,-8.29,6.74,10.04,270,0.007,0.1647,0,-5.638,1,0.6,4.5,0.75,0.35,0.0168,0.4,0,21.58,0,1.103,0,270,-3.054,0,1,-3.1,0,0,-3.06,270,0.9998,0,0.0189,-3.05,270,0.02,-1.11,8.881,0.001,-0.054,1,3,742.78,0.484,-3.054,539.73,0,0,0,,0,0,0,0,0,0,0,0,458.78,0,0,0,0,0,0,0,0,0,269.8,0,0,0,0,0,0,0,0,0,0,0,0,0,3,3,0,0,VALID,0,0,0,0,0,1,0,0,0,0,0,0,0,0,0,0,0,0,0,0,86.61,1085.21,2,0,1.06,0.5,77,0.94,1.06,1.06,81.66,FLYING,X10-H,0:/Integrated Flight Computer/aircraft/x10_h_cfg.ks (inferred preloaded)
82.72,APPROACH,ILS_TRACK,151.18,152,0.82,522.22,450.04,-8.19,7.11,10.22,270,0.008,0.3647,0,-5.247,1,0.6,4.5,0.75,0.35,0.0168,0.4,0,22.121,0,-0.817,0,270,-3.084,0,1,-3.1,0,0,-3.04,270,0.9998,0,0.0181,-3.08,270,0.01,-0.89,8.712,0.002,-0.084,1,3,742.78,0.439,-3.084,530.88,0,0,0,,0,0,0,0,0,0,0,0,450.04,0,0,0,0,0,0,0,0,0,269.8,0,0,0,0,0,0,0,0,0,0,0,0,0,3,3,0,0,VALID,0,0,0,0,0,1,0,0,0,0,0,0,0,0,0,0,0,0,0,0,140,1079.17,2,0,1.06,0.5,78,0.94,1.06,1.06,82.72,FLYING,X10-H,0:/Integrated Flight Computer/aircraft/x10_h_cfg.ks (inferred preloaded)
83.78,APPROACH,ILS_TRACK,149.64,152,2.36,513.66,441.41,-8.1,7.28,10.21,270,0.01,0.5647,0,-4.078,1,0.6,4.5,0.75,0.35,0.0168,0.4,0,22.556,0,-2.36,0,270,-3.044,0,1,-3.1,0,0,-3.07,270,0.9998,0,0.0186,-3.04,270,0.01,-0.73,8.545,0.002,-0.044,1,3,742.78,0.328,-3.044,522.14,0,0,0,,0,0,0,0,0,0,0,0,441.41,0,0,0,0,0,0,0,0,0,269.8,0,0,0,0,0,0,0,0,0,0,0,0,0,3,3,0,0,VALID,0,0,0,0,0,1,0,0,0,0,0,0,0,0,0,0,0,0,0,0,224.25,1076.25,2,0,1.06,0.5,79,0.94,1.06,1.06,83.78,FLYING,X10-H,0:/Integrated Flight Computer/aircraft/x10_h_cfg.ks (inferred preloaded)
84.84,APPROACH,ILS_TRACK,148.88,152,3.12,505.1,432.87,-8.02,7.25,9.89,270,0.009,0.7647,0,-2.521,1,0.6,4.5,0.75,0.35,0.0168,0.4,0,22.77,0,-3.12,0,270,-3.024,0,1,-3.08,0,0,-3.03,270,0.9998,0,0.0186,-3.02,270,0.01,-0.6,8.38,0.001,-0.024,1,3,742.78,0.255,-3.024,513.46,0,0,0,,0,0,0,0,0,0,0,0,432.87,0,0,0,0,0,0,0,0,0,269.8,0,0,0,0,0,0,0,0,0,0,0,0,0,3,3,0,0,VALID,0,0,0,0,0,1,0,0,0,0,0,0,0,0,0,0,0,0,0,0,334.36,1077.88,2,0,1.06,0.5,80,0.94,1.06,1.06,84.84,FLYING,X10-H,0:/Integrated Flight Computer/aircraft/x10_h_cfg.ks (inferred preloaded)
85.9,APPROACH,ILS_TRACK,149.26,152,2.74,496.5,424.4,-7.98,6.93,9.46,270,0.009,0.6283,0,-1.139,1,0.6,4.5,0.75,0.35,0.0168,0.4,0,22.664,0,-2.745,0,270,-3.007,0,1,-3.06,0,0,-3.01,270,0.9998,0,0.0187,-3.01,270,0,-0.5,8.214,0.001,-0.007,1,3,742.78,0.196,-3.007,504.79,0,0,0,,0,0,0,0,0,0,0,0,424.4,0,0,0,0,0,0,0,0,0,269.8,0,0,0,0,0,0,0,0,0,0,0,0,0,3,3,0,0,VALID,0,0,0,0,0,1,0,0,0,0,0,0,0,0,0,0,0,0,0,0,405.73,1084.33,2,0,1.06,0.5,81,0.94,1.06,1.06,85.9,FLYING,X10-H,0:/Integrated Flight Computer/aircraft/x10_h_cfg.ks (inferred preloaded)
86.96,APPROACH,ILS_TRACK,150.74,152,1.26,487.83,415.94,-8.01,6.51,8.97,270,0.01,0.4283,0,-0.49,1,0.6,4.5,0.75,0.35,0.0168,0.4,0,22.247,0,-1.262,0,270,-3.094,0,1,-3.04,0,0,-2.99,270,0.9999,0,0.0169,-3.09,270,0,-0.37,8.048,0.001,-0.094,1,3,742.78,0.258,-3.094,496.06,0,0,0,,0,0,0,0,0,0,0,0,415.94,0,0,0,0,0,0,0,0,0,269.8,0,0,0,0,0,0,0,0,0,0,0,0,0,3,3,0,0,VALID,0,0,0,0,0,1,0,0,0,0,0,0,0,0,0,0,0,0,0,0,425.49,1093.49,2,0,1.06,0.5,82,0.94,1.06,1.06,86.96,FLYING,X10-H,0:/Integrated Flight Computer/aircraft/x10_h_cfg.ks (inferred preloaded)
88.02,APPROACH,ILS_TRACK,152.79,152,-0.79,479.05,407.41,-8.13,6.03,8.66,270,0.012,0.2283,0,-0.487,1,0.6,4.5,0.75,0.35,0.0168,0.4,0,21.668,0,0.789,0,270,-3.158,0,1,-3.04,0,0,-3.08,270,0.9999,0,0.0155,-3.16,270,0,-0.23,7.88,0.001,-0.158,1,3,742.78,0.285,-3.158,487.24,0,0,0,,0,0,0,0,0,0,0,0,407.41,0,0,0,0,0,0,0,0,0,269.8,0,0,0,0,0,0,0,0,0,0,0,0,0,3,3,0,0,VALID,0,0,0,0,0,1,0,0,0,0,0,0,0,0,0,0,0,0,0,0,380.96,1102.69,2,0,1.06,0.5,83,0.94,1.06,1.06,88.02,FLYING,X10-H,0:/Integrated Flight Computer/aircraft/x10_h_cfg.ks (inferred preloaded)
89.08,APPROACH,ILS_TRACK,154.74,152,-2.74,470.16,398.7,-8.31,5.71,8.65,270,0.013,0.0283,0,-0.485,1,0.6,4.5,0.75,0.35,0.0168,0.4,1.416,21.119,1.416,2.74,1,270,-3.192,0,1,-3.07,0,0,-3.14,270,0.9999,0,0.0146,-3.19,270,0,-0.09,7.709,0,-0.192,1,3,742.78,0.275,-3.192,478.31,0,0,0,,0,0,0,0,0,0,0,0,398.7,0,0,0,0,0,0,0,0,0,269.8,0,0,0,0,0,0,0,0,0,0,0,0,0,3,3,0,0,VALID,0,0,0,0,0,1,0,0,0,0,0,0,0,0,0,0,0,0,0,0,281.45,1108.75,2,0,1.06,0.5,84,0.94,1.06,1.06,89.08,FLYING,X10-H,0:/Integrated Flight Computer/aircraft/x10_h_cfg.ks (inferred preloaded)
90.14,APPROACH,ILS_TRACK,155.86,152,-3.86,461.2,389.81,-8.46,5.69,8.83,270,0.012,0,0,-0.483,1,0.6,4.5,0.75,0.35,0.0168,0.4,2.657,20.802,2.657,3.863,1,270,-3.189,0,1,-3.11,0,0,-3.18,270,0.9999,-0.0001,0.0143,-3.19,270,0,0.02,7.537,-0.001,-0.189,1,3,742.78,0.229,-3.189,469.29,0,0,0,,0,0,0,0,0,0,0,0,389.81,0,0,0,0,0,0,0,0,0,269.8,0,0,0,0,0,0,0,0,0,0,0,0,0,3,3,0,0,VALID,0,0,0,0,0,1,0,0,0,0,0,0,0,0,0,0,0,0,0,0,195.29,1110.04,2,0,1.06,0.5,85,0.94,1.06,1.06,90.14,FLYING,X10-H,0:/Integrated Flight Computer/aircraft/x10_h_cfg.ks (inferred preloaded)
91.2,APPROACH,ILS_TRACK,155.88,152,-3.88,452.25,380.8,-8.53,5.85,9.16,270,0.01,0,0,-0.48,1,0.6,4.5,0.75,0.35,0.0168,0.4,2.672,20.798,2.672,3.877,1,270,-3.141,0,1,-3.13,0,0,-3.17,270,0.9999,-0.0001,0.0149,-3.14,270,0,0.09,7.365,-0.002,-0.141,1,3,742.78,0.142,-3.141,460.26,0,0,0,,0,0,0,0,0,0,0,0,380.8,0,0,0,0,0,0,0,0,0,269.8,0,0,0,0,0,0,0,0,0,0,0,0,0,3,3,0,0,VALID,0,0,0,0,0,1,0,0,0,0,0,0,0,0,0,0,0,0,0,0,134.28,1107.46,2,0,1.06,0.5,86,0.94,1.06,1.06,91.2,FLYING,X10-H,0:/Integrated Flight Computer/aircraft/x10_h_cfg.ks (inferred preloaded)
92.26,APPROACH,ILS_TRACK,155.02,152,-3.02,443.37,371.75,-8.5,6.17,9.52,270,0.008,0,0,-0.478,1,0.6,4.5,0.75,0.35,0.0168,0.4,1.726,21.04,1.726,3.018,1,270,-3.134,0,1,-3.14,0,0,-3.13,270,0.9999,-0.0001,0.0147,-3.13,270,0.01,0.15,7.193,-0.002,-0.134,1,3,742.78,0.112,-3.134,451.26,0,0,0,,0,0,0,0,0,0,0,0,371.75,0,0,0,0,0,0,0,0,0,269.8,0,0,0,0,0,0,0,0,0,0,0,0,0,3,3,0,0,VALID,0,0,0,0,0,1,0,0,0,0,0,0,0,0,0,0,0,0,0,0,92.1,1102.16,2,0,1.06,0.5,87,0.94,1.06,1.06,92.26,FLYING,X10-H,0:/Integrated Flight Computer/aircraft/x10_h_cfg.ks (inferred preloaded)
93.32,APPROACH,ILS_TRACK,153.54,152,-1.54,434.57,362.76,-8.44,6.53,9.95,270,0.006,0,0,-0.475,1,0.6,4.5,0.75,0.35,0.0168,0.4,0.05,21.456,0.05,1.543,1,270,-3.129,0,1,-3.15,0,0,-3.12,270,0.9999,-0.0001,0.0145,-3.13,270,0.01,0.19,7.023,-0.002,-0.129,1,3,742.78,0.089,-3.129,442.34,0,0,0,,0,0,0,0,0,0,0,0,362.76,0,0,0,0,0,0,0,0,0,269.8,0,0,0,0,0,0,0,0,0,0,0,0,0,3,3,0,0,VALID,0,0,0,0,0,1,0,0,0,0,0,0,0,0,0,0,0,0,0,0,63.06,1094.99,2,0,1.06,0.5,88,0.94,1.06,1.06,93.32,FLYING,X10-H,0:/Integrated Flight Computer/aircraft/x10_h_cfg.ks (inferred preloaded)
94.38,APPROACH,ILS_TRACK,151.63,152,0.37,425.87,353.84,-8.36,6.97,10.33,270,0.005,0.2,0,-0.31,1,0.6,4.5,0.75,0.35,0.0168,0.4,0,21.995,0,-0.369,0,270,-3.138,0,1,-3.16,0,0,-3.11,270,0.9999,-0.0001,0.0141,-3.14,270,0.02,0.24,6.854,-0.003,-0.138,1,3,742.78,0.084,-3.138,433.51,0,0,0,,0,0,0,0,0,0,0,0,353.84,0,0,0,0,0,0,0,0,0,269.8,0,0,0,0,0,0,0,0,0,0,0,0,0,3,3,0,0,VALID,0,0,0,0,0,1,0,0,0,0,0,0,0,0,0,0,0,0,0,0,85.31,1087.21,2,0,1.06,0.5,89,0.94,1.06,1.06,94.38,FLYING,X10-H,0:/Integrated Flight Computer/aircraft/x10_h_cfg.ks (inferred preloaded)
95.44,APPROACH,ILS_TRACK,149.62,152,2.38,417.23,345.03,-8.26,7.33,10.55,270,0.004,0.4,0,0.861,1,0.6,4.5,0.75,0.35,0.0168,0.4,0,22.561,0,-2.378,0,270,-3.085,0,1,-3.16,0,0,-3.12,270,0.9999,-0.0001,0.0148,-3.08,270,0.02,0.24,6.688,-0.002,-0.085,1,3,742.78,0.015,-3.085,424.81,0,0,0,,0,0,0,0,0,0,0,0,345.03,0,0,0,0,0,0,0,0,0,269.8,0,0,0,0,0,0,0,0,0,0,0,0,0,3,3,0,0,VALID,0,0,0,0,0,1,0,0,0,0,0,0,0,0,0,0,0,0,0,0,146.4,1081.21,2,0,1.06,0.5,90,0.94,1.06,1.06,95.44,FLYING,X10-H,0:/Integrated Flight Computer/aircraft/x10_h_cfg.ks (inferred preloaded)
96.5,APPROACH,ILS_TRACK,148.08,152,3.92,408.63,336.34,-8.14,7.54,10.49,270,0.004,0.6,0,2.811,1,0.6,4.5,0.75,0.35,0.0168,0.4,0,22.996,0,-3.923,0,270,-3.029,0,1,-3.15,0,0,-3.07,270,0.9999,-0.0001,0.0155,-3.03,270,0.02,0.22,6.524,-0.001,-0.029,1,3,742.78,-0.046,-3.029,416.2,0,0,0,,0,0,0,0,0,0,0,0,336.34,0,0,0,0,0,0,0,0,0,269.8,0,0,0,0,0,0,0,0,0,0,0,0,0,3,3,0,0,VALID,0,0,0,0,0,1,0,0,0,0,0,0,0,0,0,0,0,0,0,0,236.99,1078.64,2,0,1.06,0.5,91,0.94,1.06,1.06,96.5,FLYING,X10-H,0:/Integrated Flight Computer/aircraft/x10_h_cfg.ks (inferred preloaded)
97.56,APPROACH,ILS_TRACK,147.4,152,4.6,400.04,327.77,-8.04,7.47,10.13,270,0.005,0.8,0,5.11,1,0.6,4.5,0.75,0.35,0.0168,0.4,0,23.187,0,-4.601,0,270,-2.972,0,1,-3.12,0,0,-3.01,270,0.9999,-0.0001,0.0162,-2.97,270,0.02,0.17,6.361,-0.002,0.028,1,3,742.78,-0.099,-2.972,407.65,0,0,0,,0,0,0,0,0,0,0,0,327.77,0,0,0,0,0,0,0,0,0,269.8,0,0,0,0,0,0,0,0,0,0,0,0,0,3,3,0,0,VALID,0,0,0,0,0,1,0,0,0,0,0,0,0,0,0,0,0,0,0,0,352.52,1080.91,2,0,1.06,0.5,92,0.94,1.06,1.06,97.56,FLYING,X10-H,0:/Integrated Flight Computer/aircraft/x10_h_cfg.ks (inferred preloaded)
98.62,APPROACH,ILS_TRACK,147.93,152,4.07,391.43,319.3,-7.98,7.12,9.55,270,0.004,0.8233,0,7.156,1,0.6,4.5,0.75,0.35,0.0168,0.4,0,23.038,0,-4.069,0,270,-2.956,0,1,-3.09,0,0,-2.96,270,0.9999,-0.0001,0.0162,-2.96,270,0.02,0.12,6.198,-0.001,0.044,1,3,742.78,-0.1,-2.956,399.11,0,0,0,,0,0,0,0,0,0,0,0,319.3,0,0,0,0,0,0,0,0,0,269.8,0,0,0,0,0,0,0,0,0,0,0,0,0,3,3,0,0,VALID,0,0,0,0,0,1,0,0,0,0,0,0,0,0,0,0,0,0,0,0,458.03,1088.74,2,0,1.06,0.5,93,0.94,1.06,1.06,98.62,FLYING,X10-H,0:/Integrated Flight Computer/aircraft/x10_h_cfg.ks (inferred preloaded)
99.68,APPROACH,ILS_TRACK,149.8,152,2.2,382.76,310.85,-7.98,6.56,8.89,270,0.004,0.6233,0,8.28,1,0.6,4.5,0.75,0.35,0.0168,0.4,0,22.511,0,-2.202,0,270,-3.024,0,1,-3.05,0,0,-2.94,270,0.9999,-0.0001,0.0147,-3.02,270,0.02,0.11,6.034,-0.001,-0.024,1,3,742.78,-0.013,-3.024,390.5,0,0,0,,0,0,0,0,0,0,0,0,310.85,0,0,0,0,0,0,0,0,0,269.8,0,0,0,0,0,0,0,0,0,0,0,0,0,3,3,0,0,VALID,0,0,0,0,0,1,0,0,0,0,0,0,0,0,0,0,0,0,0,0,510.93,1101.06,2,0,1.06,0.5,94,0.94,1.06,1.06,99.68,FLYING,X10-H,0:/Integrated Flight Computer/aircraft/x10_h_cfg.ks (inferred preloaded)
100.74,APPROACH,ILS_TRACK,152.65,152,-0.65,373.93,302.37,-8.07,5.93,8.23,270,0.004,0.4233,0,8.239,1,0.6,4.5,0.75,0.35,0.0168,0.4,0,21.707,0,0.652,0,270,-3.158,0,1,-3.03,0,0,-3.01,270,0.9999,-0.0001,0.0121,-3.16,270,0.02,0.18,5.867,-0.001,-0.158,1,3,742.78,0.13,-3.158,381.76,0,0,0,,0,0,0,0,0,0,0,0,302.37,0,0,0,0,0,0,0,0,0,269.8,0,0,0,0,0,0,0,0,0,0,0,0,0,3,3,0,0,VALID,0,0,0,0,0,1,0,0,0,0,0,0,0,0,0,0,0,0,0,0,508.57,1115.38,2,0,1.06,0.5,95,0.94,1.06,1.06,100.74,FLYING,X10-H,0:/Integrated Flight Computer/aircraft/x10_h_cfg.ks (inferred preloaded)
101.8,APPROACH,ILS_TRACK,155.87,152,-3.87,364.94,293.73,-8.29,5.27,7.9,270,0.005,0.2233,0,8.197,1,0.6,4.5,0.75,0.35,0.0168,0.4,0,20.801,0,3.867,0,270,-3.189,0,1,-3.04,0,0,-3.14,270,0.9999,-0.0001,0.0113,-3.19,270,0.03,0.25,5.697,-0.001,-0.189,1,3,742.78,0.143,-3.189,372.84,0,0,0,,0,0,0,0,0,0,0,0,293.73,0,0,0,0,0,0,0,0,0,269.8,0,0,0,0,0,0,0,0,0,0,0,0,0,3,3,0,0,VALID,0,0,0,0,0,1,0,0,0,0,0,0,0,0,0,0,0,0,0,0,440.91,1128.82,2,0,1.06,0.5,96,0.94,1.06,1.06,101.8,FLYING,X10-H,0:/Integrated Flight Computer/aircraft/x10_h_cfg.ks (inferred preloaded)
102.86,APPROACH,ILS_TRACK,158.73,152,-6.73,355.79,284.82,-8.53,4.92,7.84,270,0.005,0.0233,0,8.156,1,0.6,4.5,0.75,0.35,0.0168,0.4,5.654,19.994,5.654,6.732,1,270,-3.192,0,1,-3.07,0,0,-3.17,270,0.9999,-0.0001,0.0109,-3.19,270,0.03,0.31,5.524,-0.002,-0.192,1,3,742.78,0.123,-3.192,363.77,0,0,0,,0,0,0,0,0,0,0,0,284.82,0,0,0,0,0,0,0,0,0,269.8,0,0,0,0,0,0,0,0,0,0,0,0,0,3,3,0,0,VALID,0,0,0,0,0,1,0,0,0,0,0,0,0,0,0,0,0,0,0,0,322.51,1137.97,2,0,1.06,0.5,97,0.94,1.06,1.06,102.86,FLYING,X10-H,0:/Integrated Flight Computer/aircraft/x10_h_cfg.ks (inferred preloaded)
103.92,APPROACH,ILS_TRACK,160.5,152,-8.5,346.58,275.68,-8.69,4.85,7.96,270,0.003,0,0,8.116,1,0.6,4.5,0.75,0.35,0.0168,0.4,7.378,19.495,7.378,8.501,1,270,-3.169,0,1,-3.1,0,0,-3.18,270,0.9999,-0.0001,0.0111,-3.17,270,0.03,0.35,5.348,-0.002,-0.169,1,3,742.78,0.079,-3.169,354.57,0,0,0,,0,0,0,0,0,0,0,0,275.68,0,0,0,0,0,0,0,0,0,269.8,0,0,0,0,0,0,0,0,0,0,0,0,0,3,3,0,0,VALID,0,0,0,0,0,1,0,0,0,0,0,0,0,0,0,0,0,0,0,0,223.86,1141.34,2,0,1.06,0.5,98,0.94,1.06,1.06,103.92,FLYING,X10-H,0:/Integrated Flight Computer/aircraft/x10_h_cfg.ks (inferred preloaded)
104.98,APPROACH,ILS_TRACK,160.96,152,-8.96,337.36,266.42,-8.75,4.97,8.17,270,0.003,0,0,8.075,1,0.6,4.5,0.75,0.35,0.0168,0.4,7.81,19.365,7.81,8.961,1,270,-3.15,0,1,-3.11,0,0,-3.15,270,0.9999,-0.0001,0.0111,-3.15,270,0.03,0.37,5.172,-0.001,-0.15,1,3,742.78,0.047,-3.15,345.33,0,0,0,,0,0,0,0,0,0,0,0,266.42,0,0,0,0,0,0,0,0,0,269.8,0,0,0,0,0,0,0,0,0,0,0,0,0,3,3,0,0,VALID,0,0,0,0,0,1,0,0,0,0,0,0,0,0,0,0,0,0,0,0,154.13,1140.23,2,0,1.06,0.5,99,0.94,1.06,1.06,104.98,FLYING,X10-H,0:/Integrated Flight Computer/aircraft/x10_h_cfg.ks (inferred preloaded)
106.04,APPROACH,ILS_TRACK,160.44,152,-8.44,328.19,257.14,-8.74,5.18,8.45,270,0.004,0,0,8.035,1,0.6,4.5,0.75,0.35,0.0168,0.4,7.316,19.514,7.316,8.436,1,270,-3.143,0,1,-3.12,0,0,-3.13,270,0.9999,-0.0001,0.0109,-3.14,270,0.03,0.39,4.996,-0.001,-0.143,1,3,742.78,0.032,-3.143,336.1,0,0,0,,0,0,0,0,0,0,0,0,257.14,0,0,0,0,0,0,0,0,0,269.8,0,0,0,0,0,0,0,0,0,0,0,0,0,3,3,0,0,VALID,0,0,0,0,0,1,0,0,0,0,0,0,0,0,0,0,0,0,0,0,105.83,1135.98,2,0,1.06,0.5,100,0.94,1.06,1.06,106.04,FLYING,X10-H,0:/Integrated Flight Computer/aircraft/x10_h_cfg.ks (inferred preloaded)
107.1,APPROACH,ILS_TRACK,159.22,152,-7.22,319.11,247.89,-8.69,5.46,8.8,270,0.004,0,0,7.995,1,0.6,4.5,0.75,0.35,0.0168,0.4,6.137,19.857,6.137,7.217,1,270,-3.145,0,1,-3.12,0,0,-3.13,270,0.9999,-0.0001,0.0106,-3.15,270,0.03,0.41,4.821,-0.001,-0.145,1,3,742.78,0.03,-3.145,326.93,0,0,0,,0,0,0,0,0,0,0,0,247.89,0,0,0,0,0,0,0,0,0,269.8,0,0,0,0,0,0,0,0,0,0,0,0,0,3,3,0,0,VALID,0,0,0,0,0,1,0,0,0,0,0,0,0,0,0,0,0,0,0,0,72.52,1129.56,2,0,1.06,0.5,101,0.94,1.06,1.06,107.1,FLYING,X10-H,0:/Integrated Flight Computer/aircraft/x10_h_cfg.ks (inferred preloaded)
108.16,APPROACH,ILS_TRACK,157.51,152,-5.51,310.14,238.72,-8.61,5.8,9.21,270,0.005,0,0,7.955,1,0.6,4.5,0.75,0.35,0.0168,0.4,4.41,20.338,4.41,5.512,1,270,-3.146,0,1,-3.13,0,0,-3.13,270,0.9999,0,0.0103,-3.15,270,0.03,0.42,4.647,0,-0.146,1,3,742.78,0.025,-3.146,317.84,0,0,0,,0,0,0,0,0,0,0,0,238.72,0,0,0,0,0,0,0,0,0,269.8,0,0,0,0,0,0,0,0,0,0,0,0,0,3,3,0,0,VALID,0,0,0,0,0,1,0,0,0,0,0,0,0,0,0,0,0,0,0,0,49.63,1121.64,2,0,1.06,0.5,102,0.94,1.06,1.06,108.16,FLYING,X10-H,0:/Integrated Flight Computer/aircraft/x10_h_cfg.ks (inferred preloaded)
109.22,APPROACH,ILS_TRACK,155.46,152,-3.46,301.26,229.62,-8.53,6.21,9.62,270,0.003,0.1142,0,6.205,1,0.6,4.5,0.75,0.35,0.0168,0.4,0,20.916,0,3.458,0,270,-3.14,0,1,-3.14,0,0,-3.13,270,0.9999,0,0.0101,-3.14,270,0.02,0.43,4.476,0,-0.14,1,3,742.78,0.016,-3.14,308.87,0,0,0,,0,0,0,0,0,0,0,0,229.62,0,0,0,0,0,0,0,0,0,269.8,0,0,0,0,0,0,0,0,0,0,0,0,0,3,3,0,0,VALID,0,0,0,0,0,1,0,0,0,0,0,0,0,0,0,0,0,0,0,0,59.86,1113.15,2,0,1.06,0.5,103,0.94,1.06,1.06,109.22,FLYING,X10-H,0:/Integrated Flight Computer/aircraft/x10_h_cfg.ks (inferred preloaded)
110.28,APPROACH,ILS_TRACK,153.3,152,-1.3,292.47,220.63,-8.42,6.61,9.91,270,0.005,0.3142,0,5.537,1,0.6,4.5,0.75,0.35,0.0168,0.4,0,21.526,0,1.295,0,270,-3.102,0,1,-3.14,0,0,-3.12,270,0.9999,0,0.0105,-3.1,270,0.02,0.41,4.307,0.001,-0.102,1,3,742.78,-0.027,-3.102,300.01,0,0,0,,0,0,0,0,0,0,0,0,220.63,0,0,0,0,0,0,0,0,0,269.8,0,0,0,0,0,0,0,0,0,0,0,0,0,3,3,0,0,VALID,0,0,0,0,0,1,0,0,0,0,0,0,0,0,0,0,0,0,0,0,109.5,1105.88,2,0,1.06,0.5,104,0.94,1.06,1.06,110.28,FLYING,X10-H,0:/Integrated Flight Computer/aircraft/x10_h_cfg.ks (inferred preloaded)
111.34,APPROACH,ILS_TRACK,151.45,152,0.55,283.75,211.77,-8.3,6.89,9.97,270,0.005,0.5142,0,5.797,1,0.6,4.5,0.75,0.35,0.0168,0.4,0,22.046,0,-0.549,0,270,-3.049,0,1,-3.14,0,0,-3.09,270,0.9999,0,0.0111,-3.05,270,0.02,0.37,4.14,0.002,-0.049,1,3,742.78,-0.078,-3.049,291.28,0,0,0,,0,0,0,0,0,0,0,0,211.77,0,0,0,0,0,0,0,0,0,269.8,0,0,0,0,0,0,0,0,0,0,0,0,0,3,3,0,0,VALID,0,0,0,0,0,1,0,0,0,0,0,0,0,0,0,0,0,0,0,0,191.53,1101.61,2,0,1.06,0.5,105,0.94,1.06,1.06,111.34,FLYING,X10-H,0:/Integrated Flight Computer/aircraft/x10_h_cfg.ks (inferred preloaded)
112.4,APPROACH,ILS_TRACK,150.36,152,1.64,275.05,203.04,-8.19,6.95,9.74,270,0.006,0.7142,0,6.613,1,0.6,4.5,0.75,0.35,0.0168,0.4,0,22.354,0,-1.643,0,270,-2.993,0,1,-3.12,0,0,-3.03,270,0.9999,0,0.0118,-2.99,270,0.01,0.31,3.975,0.002,0.007,1,3,742.78,-0.125,-2.993,282.62,0,0,0,,0,0,0,0,0,0,0,0,203.04,0,0,0,0,0,0,0,0,0,269.8,0,0,0,0,0,0,0,0,0,0,0,0,0,3,3,0,0,VALID,0,0,0,0,0,1,0,0,0,0,0,0,0,0,0,0,0,0,0,0,300.42,1101.84,2,0,1.06,0.5,106,0.94,1.06,1.06,112.4,FLYING,X10-H,0:/Integrated Flight Computer/aircraft/x10_h_cfg.ks (inferred preloaded)
113.46,APPROACH,ILS_TRACK,150.38,152,1.62,266.35,194.41,-8.11,6.72,9.29,270,0.008,0.7896,0,7.429,1,0.6,4.5,0.75,0.35,0.0168,0.4,0,22.348,0,-1.62,0,270,-2.958,0,1,-3.09,0,0,-2.98,270,0.9999,0,0.0122,-2.96,270,0.01,0.24,3.811,0.002,0.042,1,3,742.78,-0.142,-2.958,273.99,0,0,0,,0,0,0,0,0,0,0,0,194.41,0,0,0,0,0,0,0,0,0,269.8,0,0,0,0,0,0,0,0,0,0,0,0,0,3,3,0,0,VALID,0,0,0,0,0,1,0,0,0,0,0,0,0,0,0,0,0,0,0,0,409.57,1107.53,2,0,1.06,0.5,107,0.94,1.06,1.06,113.46,FLYING,X10-H,0:/Integrated Flight Computer/aircraft/x10_h_cfg.ks (inferred preloaded)
114.52,APPROACH,ILS_TRACK,151.71,152,0.29,257.61,185.84,-8.08,6.28,8.75,270,0.008,0.5896,0,7.592,1,0.6,4.5,0.75,0.35,0.0168,0.4,0,21.972,0,-0.289,0,270,-2.996,0,1,-3.05,0,0,-2.94,270,0.9999,0,0.0112,-3,270,0,0.2,3.645,0.002,0.004,1,3,742.78,-0.08,-2.996,265.32,0,0,0,,0,0,0,0,0,0,0,0,185.84,0,0,0,0,0,0,0,0,0,269.8,0,0,0,0,0,0,0,0,0,0,0,0,0,3,3,0,0,VALID,0,0,0,0,0,1,0,0,0,0,0,0,0,0,0,0,0,0,0,0,465.5,1117.85,2,0,1.06,0.5,108,0.94,1.06,1.06,114.52,FLYING,X10-H,0:/Integrated Flight Computer/aircraft/x10_h_cfg.ks (inferred preloaded)
