t_s,phase,subphase,ias_ms,vapp_ms,spd_err_ms,agl_m,vs_ms,pitch_deg,aoa_deg,hdg_deg,bank_deg,thr_cmd,thr_cur,thr_intg,at_gain,at_tau_s,at_a_up,at_a_dn,at_kp_thr,at_ki_spd,at_thr_slew,aa_hdg_cmd_deg,aa_fpa_cmd_deg,aa_fbw,aa_dir,actual_fpa_deg,ftf_hdg_err_deg,ftf_fix_idx,kos_steer_pit_deg,kos_steer_hdg_deg,aa_dir_vx,aa_dir_vy,aa_dir_vz,aa_dir_pitch_deg,aa_dir_hdg_deg,ils_loc_m,ils_gs_m,ils_dist_km,loc_corr_deg,gs_corr_deg,flare_fpa_cmd,flare_tgt_vs,flare_frac,steer_hdg_deg,steer_blend,ro_loc_corr_deg,ro_hdg_err_deg,ro_yaw_tgt,ro_yaw_scale,ro_yaw_gate,yaw_cmd,roll_cmd,pitch_cmd,ro_pitch_tgt_deg,ro_pitch_err_deg,ro_pitch_ff,ro_roll_assist,flaps_cur,flaps_tgt,asc_j_ab,asc_j_rk,asc_validity,asc_q_pa,asc_q_raw_pa,asc_mach,asc_apo_m,asc_drag_n,asc_w_prop,asc_edot_aero,asc_edot_orb,asc_pitch_bias,asc_blend,asc_spooling,asc_ab_thr_ratio,asc_ab_t_now,asc_ab_t_avail,asc_ab_ign_on,asc_ab_flameouts,asc_rk_t_now,asc_rk_t_avail,asc_rk_ign_on,asc_rk_flameouts,ship_thrust,ship_avail_thrust,ship_ign_on,ship_flameouts,ifc_raw_dt_s,ifc_dt_s,ifc_loop_n,ifc_hz_est,ifc_raw_dt_max_s,ifc_raw_dt_min_s,phase_el_s,status,craft_name,cfg_file
0.1,CRUISE,,224.66,80,-144.66,2251.44,0.03,9.81,9.8,90,0.002,0,0,0,1,0.6,0.9,0.75,0.35,0.0168,0.4,90,3.743,1,0,0.01,0,0,0,90,-0.9037,0.0002,-0.4282,13.54,90,0,0,0,0,0,0,0,0,90,0,0,0,0,0,0,0,0,0,0,0,0,0,0,0,0,0,VALID,0,0,0,0,0,1,0,0,0,0,0,0,0,0,0,0,0,0,0,0,324.53,1355.05,2,0,0.1,0.1,1,3.7,0.1,0.02,0,FLYING,X10-G,0:/Integrated Flight Computer/aircraft/x10_g_cfg.ks (inferred preloaded)
0.36,CRUISE,,224.64,80,-144.64,2251.51,-0.11,10.07,10.04,90,0.003,0,0,0,1,0.6,2.979,0.75,0.35,0.0168,0.4,90,3.742,0,1,-0.03,0,0,13.69,90,-0.9054,0.0002,-0.4246,13.78,90,0,0,0,0,0,0,0,0,90,0,0,0,0,0,0,0,0,0,0,0,0,0,0,0,0,0,VALID,0,0,0,0,0,1,0,0,0,0,0,0,0,0,0,0,0,0,0,0,298.28,1354.98,2,0,0.04,0.04,6,19.23,0.1,0.04,0.26,FLYING,X10-G,0:/Integrated Flight Computer/aircraft/x10_g_cfg.ks (inferred preloaded)
0.62,CRUISE,,224.52,80,-144.52,2251.84,-0.23,11.37,11.27,90,0.005,0,0,0,1,0.6,4.5,0.75,0.35,0.0168,0.4,90,3.741,0,1,-0.06,0,0,14.63,90,-0.9143,0.0002,-0.4051,15.02,90,0,0,0,0,0,0,0,0,90,0,0,0,0,0,0,0,0,0,0,0,0,0,0,0,0,0,VALID,0,0,0,0,0,1,0,0,0,0,0,0,0,0,0,0,0,0,0,0,272.14,1354.38,2,0,0.06,0.06,11,19.23,0.06,0.04,0.52,FLYING,X10-G,0:/Integrated Flight Computer/aircraft/x10_g_cfg.ks (inferred preloaded)
0.88,CRUISE,,224.2,80,-144.2,2252.56,0.03,13.92,13.68,90,0.005,0.04,0,-0.424,1,0.6,4.5,0.75,0.35,0.0168,0.4,90,3.737,0,1,0.01,0,0,16.77,90,-0.9304,0.0002,-0.3665,17.42,90,0,0,0,0,0,0,0,0,90,0,0,0,0,0,0,0,0,0,0,0,0,0,0,0,0,0,VALID,0,0,0,0,0,1,0,0,0,0,0,0,0,0,0,0,0,0,0,0,248.1,1352.68,2,0,0.06,0.06,16,19.23,0.06,0.04,0.78,FLYING,X10-G,0:/Integrated Flight Computer/aircraft/x10_g_cfg.ks (inferred preloaded)
1.14,CRUISE,,223.45,80,-143.45,2253.65,1.22,17.15,16.68,90,0.004,0.144,0,-1.41,1,0.6,4.5,0.75,0.35,0.0168,0.4,90,3.732,0,1,0.31,0,0,19.8,90,-0.9482,0.0003,-0.3175,20.41,90,0,0,0,0,0,0,0,0,90,0,0,0,0,0,0,0,0,0,0,0,0,0,0,0,0,0,VALID,0,0,0,0,0,1,0,0,0,0,0,0,0,0,0,0,0,0,0,0,225.83,1348.73,2,0,0.06,0.06,21,19.23,0.06,0.04,1.04,FLYING,X10-G,0:/Integrated Flight Computer/aircraft/x10_g_cfg.ks (inferred preloaded)
1.4,CRUISE,,221.92,80,-141.92,2254.85,3.03,19.35,18.55,90,0.005,0.248,0,-2.082,1,0.6,4.5,0.75,0.35,0.0168,0.4,90,3.726,0,1,0.78,0,0,21.95,90,-0.9581,0.0003,-0.2866,22.28,90,0,0,0,0,0,0,0,0,90,0,0,0,0,0,0,0,0,0,0,0,0,0,0,0,0,0,VALID,0,0,0,0,0,1,0,0,0,0,0,0,0,0,0,0,0,0,0,0,204.92,1340.56,2,0,0.06,0.06,26,19.23,0.06,0.04,1.3,FLYING,X10-G,0:/Integrated Flight Computer/aircraft/x10_g_cfg.ks (inferred preloaded)
1.66,CRUISE,,219.86,80,-139.86,2256.25,4.91,20.57,19.38,90,0.006,0.352,0,-2.262,1,0.6,4.5,0.75,0.35,0.0168,0.4,90,3.719,0,1,1.28,0,0,22.98,90,-0.962,0.0003,-0.2729,23.1,90,0,0,0,0,0,0,0,0,90,0,0,0,0,0,0,0,0,0,0,0,0,0,0,0,0,0,VALID,0,0,0,0,0,1,0,0,0,0,0,0,0,0,0,0,0,0,0,0,185.52,1329.54,2,0,0.06,0.06,31,19.23,0.06,0.04,1.56,FLYING,X10-G,0:/Integrated Flight Computer/aircraft/x10_g_cfg.ks (inferred preloaded)
1.92,CRUISE,,217.63,80,-137.63,2257.96,6.7,21.2,19.61,90,0.007,0.456,0,-2.206,1,0.6,4.5,0.75,0.35,0.0168,0.4,90,3.71,0,1,1.76,0,0,23.3,90,-0.9631,0.0003,-0.2692,23.32,90,0,0,0,0,0,0,0,0,90,0,0,0,0,0,0,0,0,0,0,0,0,0,0,0,0,0,VALID,0,0,0,0,0,1,0,0,0,0,0,0,0,0,0,0,0,0,0,0,167.81,1317.56,2,0,0.06,0.06,36,19.23,0.06,0.04,1.82,FLYING,X10-G,0:/Integrated Flight Computer/aircraft/x10_g_cfg.ks (inferred preloaded)
2.18,CRUISE,,215.33,80,-135.33,2260.06,8.33,21.64,19.65,90,0.008,0.56,0,-2.151,1,0.6,4.5,0.75,0.35,0.0168,0.4,90,3.7,0,1,2.22,0,0,23.35,90,-0.9632,0.0003,-0.269,23.35,90,0,0,0,0,0,0,0,0,90,0,0,0,0,0,0,0,0,0,0,0,0,0,0,0,0,0,VALID,0,0,0,0,0,1,0,0,0,0,0,0,0,0,0,0,0,0,0,0,151.74,1305.29,2,0,0.06,0.06,41,19.23,0.06,0.04,2.08,FLYING,X10-G,0:/Integrated Flight Computer/aircraft/x10_g_cfg.ks (inferred preloaded)
2.44,CRUISE,,213.02,80,-133.02,2262.56,9.87,22.05,19.67,90,0.008,0.664,0,-2.098,1,0.6,4.5,0.75,0.35,0.0168,0.4,90,3.687,0,1,2.65,0,0,23.36,90,-0.9632,0.0003,-0.2689,23.36,90,0,0,0,0,0,0,0,0,90,0,0,0,0,0,0,0,0,0,0,0,0,0,0,0,0,0,VALID,0,0,0,0,0,1,0,0,0,0,0,0,0,0,0,0,0,0,0,0,137.19,1292.95,2,0,0.06,0.06,46,19.23,0.06,0.04,2.34,FLYING,X10-G,0:/Integrated Flight Computer/aircraft/x10_g_cfg.ks (inferred preloaded)
2.7,CRUISE,,210.72,80,-130.72,2265.44,11.31,22.44,19.69,90,0.009,0.768,0,-2.046,1,0.6,4.5,0.75,0.35,0.0168,0.4,90,3.673,0,1,3.07,0,0,23.36,90,-0.9632,0.0003,-0.2689,23.36,90,0,0,0,0,0,0,0,0,90,0,0,0,0,0,0,0,0,0,0,0,0,0,0,0,0,0,VALID,0,0,0,0,0,1,0,0,0,0,0,0,0,0,0,0,0,0,0,0,124.03,1280.71,2,0,0.06,0.06,51,19.23,0.06,0.04,2.6,FLYING,X10-G,0:/Integrated Flight Computer/aircraft/x10_g_cfg.ks (inferred preloaded)
2.96,CRUISE,,208.44,80,-128.44,2268.67,12.65,22.82,19.71,90,0.009,0.872,0,-1.995,1,0.6,4.5,0.75,0.35,0.0168,0.4,90,3.657,0,1,3.47,0,0,23.37,90,-0.9632,0.0003,-0.2689,23.37,90,0,0,0,0,0,0,0,0,90,0,0,0,0,0,0,0,0,0,0,0,0,0,0,0,0,0,VALID,0,0,0,0,0,1,0,0,0,0,0,0,0,0,0,0,0,0,0,0,112.13,1268.6,2,0,0.06,0.06,56,19.23,0.06,0.04,2.86,FLYING,X10-G,0:/Integrated Flight Computer/aircraft/x10_g_cfg.ks (inferred preloaded)
3.22,CRUISE,,206.18,80,-126.18,2272.24,13.9,23.18,19.73,90,0.009,0.976,0,-1.946,1,0.6,4.5,0.75,0.35,0.0168,0.4,90,3.639,0,1,3.86,0,0,23.37,90,-0.9631,0.0003,-0.269,23.37,90,0,0,0,0,0,0,0,0,90,0,0,0,0,0,0,0,0,0,0,0,0,0,0,0,0,0,VALID,0,0,0,0,0,1,0,0,0,0,0,0,0,0,0,0,0,0,0,0,101.38,1256.63,2,0,0.06,0.06,61,19.23,0.06,0.04,3.12,FLYING,X10-G,0:/Integrated Flight Computer/aircraft/x10_g_cfg.ks (inferred preloaded)
3.48,CRUISE,,203.95,80,-123.95,2276.11,15.07,23.52,19.74,90,0.009,1,0,-1.898,1,0.6,4.5,0.75,0.35,0.0168,0.4,90,3.619,0,1,4.23,0,0,23.36,90,-0.9631,0.0003,-0.2692,23.36,90,0,0,0,0,0,0,0,0,90,0,0,0,0,0,0,0,0,0,0,0,0,0,0,0,0,0,VALID,0,0,0,0,0,1,0,0,0,0,0,0,0,0,0,0,0,0,0,0,91.66,1244.83,2,0,0.06,0.06,66,19.23,0.06,0.04,3.38,FLYING,X10-G,0:/Integrated Flight Computer/aircraft/x10_g_cfg.ks (inferred preloaded)
3.74,CRUISE,,201.74,80,-121.74,2280.27,16.15,23.85,19.76,90,0.01,1,0,-1.851,1,0.6,4.5,0.75,0.35,0.0168,0.4,90,3.599,0,1,4.58,0,0,23.36,90,-0.963,0.0003,-0.2694,23.36,90,0,0,0,0,0,0,0,0,90,0,0,0,0,0,0,0,0,0,0,0,0,0,0,0,0,0,VALID,0,0,0,0,0,1,0,0,0,0,0,0,0,0,0,0,0,0,0,0,82.88,1233.19,2,0,0.06,0.06,71,19.23,0.06,0.04,3.64,FLYING,X10-G,0:/Integrated Flight Computer/aircraft/x10_g_cfg.ks (inferred preloaded)
4,CRUISE,,199.55,80,-119.55,2284.7,17.14,24.16,19.77,90,0.009,1,0,-1.805,1,0.6,4.5,0.75,0.35,0.0168,0.4,90,3.577,0,1,4.91,0,0,23.35,90,-0.963,0.0003,-0.2696,23.35,90,0,0,0,0,0,0,0,0,90,0,0,0,0,0,0,0,0,0,0,0,0,0,0,0,0,0,VALID,0,0,0,0,0,1,0,0,0,0,0,0,0,0,0,0,0,0,0,0,74.94,1221.73,2,0,0.06,0.06,76,19.23,0.06,0.04,3.9,FLYING,X10-G,0:/Integrated Flight Computer/aircraft/x10_g_cfg.ks (inferred preloaded)
4.26,CRUISE,,197.39,80,-117.39,2289.37,18.06,24.45,19.79,90,0.009,1,0,-1.76,1,0.6,4.5,0.75,0.35,0.0168,0.4,90,3.553,0,1,5.23,0,0,23.35,90,-0.9629,0.0003,-0.2698,23.34,90,0,0,0,0,0,0,0,0,90,0,0,0,0,0,0,0,0,0,0,0,0,0,0,0,0,0,VALID,0,0,0,0,0,1,0,0,0,0,0,0,0,0,0,0,0,0,0,0,67.77,1210.44,2,0,0.06,0.06,81,19.23,0.06,0.04,4.16,FLYING,X10-G,0:/Integrated Flight Computer/aircraft/x10_g_cfg.ks (inferred preloaded)
4.52,CRUISE,,195.26,80,-115.26,2294.26,18.89,24.73,19.81,90,0.009,1,0,-1.717,1,0.6,4.5,0.75,0.35,0.0168,0.4,90,3.529,0,1,5.53,0,0,23.34,90,-0.9629,0.0003,-0.27,23.34,90,0,0,0,0,0,0,0,0,90,0,0,0,0,0,0,0,0,0,0,0,0,0,0,0,0,0,VALID,0,0,0,0,0,1,0,0,0,0,0,0,0,0,0,0,0,0,0,0,61.29,1199.32,2,0,0.06,0.06,86,19.23,0.06,0.04,4.42,FLYING,X10-G,0:/Integrated Flight Computer/aircraft/x10_g_cfg.ks (inferred preloaded)
4.78,CRUISE,,193.15,80,-113.15,2299.35,19.65,24.99,19.82,90,0.01,1,0,-1.674,1,0.6,4.5,0.75,0.35,0.0168,0.4,90,3.503,0,1,5.81,0,0,23.33,90,-0.9628,0.0003,-0.2703,23.33,90,0,0,0,0,0,0,0,0,90,0,0,0,0,0,0,0,0,0,0,0,0,0,0,0,0,0,VALID,0,0,0,0,0,1,0,0,0,0,0,0,0,0,0,0,0,0,0,0,55.43,1188.39,2,0,0.06,0.06,91,19.23,0.06,0.04,4.68,FLYING,X10-G,0:/Integrated Flight Computer/aircraft/x10_g_cfg.ks (inferred preloaded)
5.04,CRUISE,,191.07,80,-111.07,2304.62,20.34,25.25,19.84,90,0.01,1,0,-1.633,1,0.6,4.5,0.75,0.35,0.0168,0.4,90,3.477,0,1,6.08,0,0,23.32,90,-0.9627,0.0003,-0.2705,23.32,90,0,0,0,0,0,0,0,0,90,0,0,0,0,0,0,0,0,0,0,0,0,0,0,0,0,0,VALID,0,0,0,0,0,1,0,0,0,0,0,0,0,0,0,0,0,0,0,0,50.13,1177.64,2,0,0.06,0.06,96,19.23,0.06,0.04,4.94,FLYING,X10-G,0:/Integrated Flight Computer/aircraft/x10_g_cfg.ks (inferred preloaded)
5.3,CRUISE,,189.02,80,-109.02,2310.06,20.95,25.48,19.86,90.01,0.011,1,0,-1.592,1,0.6,4.5,0.75,0.35,0.0168,0.4,90,3.45,0,1,6.33,0,0,23.31,90,-0.9626,0.0003,-0.2708,23.31,90,0,0,0,0,0,0,0,0,90,0,0,0,0,0,0,0,0,0,0,0,0,0,0,0,0,0,VALID,0,0,0,0,0,1,0,0,0,0,0,0,0,0,0,0,0,0,0,0,45.35,1167.08,2,0,0.06,0.06,101,19.23,0.06,0.04,5.2,FLYING,X10-G,0:/Integrated Flight Computer/aircraft/x10_g_cfg.ks (inferred preloaded)
5.56,CRUISE,,187,80,-107,2315.65,21.5,25.7,19.87,90.01,0.011,1,0,-1.553,1,0.6,4.5,0.75,0.35,0.0168,0.4,90,3.422,0,1,6.56,0,0,23.3,90,-0.9626,0.0003,-0.271,23.29,90,0,0,0,0,0,0,0,0,90,0,0,0,0,0,0,0,0,0,0,0,0,0,0,0,0,0,VALID,0,0,0,0,0,1,0,0,0,0,0,0,0,0,0,0,0,0,0,0,41.02,1156.7,2,0,0.06,0.06,106,19.23,0.06,0.04,5.46,FLYING,X10-G,0:/Integrated Flight Computer/aircraft/x10_g_cfg.ks (inferred preloaded)
5.82,CRUISE,,185.01,80,-105.01,2321.36,21.98,25.9,19.89,90.01,0.011,1,0,-1.515,1,0.6,4.5,0.75,0.35,0.0168,0.4,90,3.393,0,1,6.78,0,0,23.29,90,-0.9625,0.0003,-0.2713,23.28,90,0,0,0,0,0,0,0,0,90,0,0,0,0,0,0,0,0,0,0,0,0,0,0,0,0,0,VALID,0,0,0,0,0,1,0,0,0,0,0,0,0,0,0,0,0,0,0,0,37.11,1146.51,2,0,0.06,0.06,111,19.23,0.06,0.04,5.72,FLYING,X10-G,0:/Integrated Flight Computer/aircraft/x10_g_cfg.ks (inferred preloaded)
6.08,CRUISE,,183.04,80,-103.04,2327.19,22.4,26.1,19.91,90.01,0.011,1,0,-1.477,1,0.6,4.5,0.75,0.35,0.0168,0.4,90,3.364,0,1,6.98,0,0,23.28,90,-0.9624,0.0003,-0.2716,23.27,90,0,0,0,0,0,0,0,0,90,0,0,0,0,0,0,0,0,0,0,0,0,0,0,0,0,0,VALID,0,0,0,0,0,1,0,0,0,0,0,0,0,0,0,0,0,0,0,0,33.58,1136.51,2,0,0.06,0.06,116,19.23,0.06,0.04,5.98,FLYING,X10-G,0:/Integrated Flight Computer/aircraft/x10_g_cfg.ks (inferred preloaded)
6.34,CRUISE,,181.1,80,-101.1,2333.12,22.76,26.27,19.93,90.01,0.011,1,0,-1.44,1,0.6,4.5,0.75,0.35,0.0168,0.4,90,3.334,0,1,7.16,0,0,23.27,90,-0.9623,0.0003,-0.2718,23.26,90,0,0,0,0,0,0,0,0,90,0,0,0,0,0,0,0,0,0,0,0,0,0,0,0,0,0,VALID,0,0,0,0,0,1,0,0,0,0,0,0,0,0,0,0,0,0,0,0,30.38,1126.69,2,0,0.06,0.06,121,19.23,0.06,0.04,6.24,FLYING,X10-G,0:/Integrated Flight Computer/aircraft/x10_g_cfg.ks (inferred preloaded)
6.6,CRUISE,,179.2,80,-99.2,2339.12,23.05,26.43,19.95,90.01,0.011,1,0,-1.405,1,0.6,4.5,0.75,0.35,0.0168,0.4,90,3.304,0,1,7.33,0,0,23.25,90,-0.9623,0.0003,-0.2721,23.25,90,0,0,0,0,0,0,0,0,90,0,0,0,0,0,0,0,0,0,0,0,0,0,0,0,0,0,VALID,0,0,0,0,0,1,0,0,0,0,0,0,0,0,0,0,0,0,0,0,27.49,1117.06,2,0,0.06,0.06,126,19.23,0.06,0.04,6.5,FLYING,X10-G,0:/Integrated Flight Computer/aircraft/x10_g_cfg.ks (inferred preloaded)
6.86,CRUISE,,177.32,80,-97.32,2345.19,23.29,26.58,19.96,90.01,0.011,1,0,-1.37,1,0.6,4.5,0.75,0.35,0.0168,0.4,90,3.274,0,1,7.48,0,0,23.24,90,-0.9622,0.0003,-0.2724,23.24,90,0,0,0,0,0,0,0,0,90,0,0,0,0,0,0,0,0,0,0,0,0,0,0,0,0,0,VALID,0,0,0,0,0,1,0,0,0,0,0,0,0,0,0,0,0,0,0,0,24.88,1107.62,2,0,0.06,0.06,131,19.23,0.06,0.04,6.76,FLYING,X10-G,0:/Integrated Flight Computer/aircraft/x10_g_cfg.ks (inferred preloaded)
7.12,CRUISE,,175.46,80,-95.46,2351.31,23.47,26.71,19.98,90.01,0.011,1,0,-1.336,1,0.6,4.5,0.75,0.35,0.0168,0.4,90,3.243,0,1,7.62,0,0,23.23,90,-0.9621,0.0003,-0.2727,23.23,90,0,0,0,0,0,0,0,0,90,0,0,0,0,0,0,0,0,0,0,0,0,0,0,0,0,0,VALID,0,0,0,0,0,1,0,0,0,0,0,0,0,0,0,0,0,0,0,0,22.52,1098.35,2,0,0.06,0.06,136,19.23,0.06,0.04,7.02,FLYING,X10-G,0:/Integrated Flight Computer/aircraft/x10_g_cfg.ks (inferred preloaded)
7.38,CRUISE,,173.64,80,-93.64,2357.46,23.6,26.84,20,90.01,0.01,1,0,-1.303,1,0.6,4.5,0.75,0.35,0.0168,0.4,90,3.213,0,1,7.74,0,0,23.22,90,-0.962,0.0003,-0.2729,23.22,90,0,0,0,0,0,0,0,0,90,0,0,0,0,0,0,0,0,0,0,0,0,0,0,0,0,0,VALID,0,0,0,0,0,1,0,0,0,0,0,0,0,0,0,0,0,0,0,0,20.38,1089.28,2,0,0.06,0.06,141,19.23,0.06,0.04,7.28,FLYING,X10-G,0:/Integrated Flight Computer/aircraft/x10_g_cfg.ks (inferred preloaded)
7.64,CRUISE,,171.84,80,-91.84,2363.63,23.68,26.93,20.01,90.01,0.01,1,0,-1.271,1,0.6,4.5,0.75,0.35,0.0168,0.4,90,3.182,0,1,7.85,0,0,23.2,90,-0.9619,0.0003,-0.2734,23.19,90,0,0,0,0,0,0,0,0,90,0,0,0,0,0,0,0,0,0,0,0,0,0,0,0,0,0,VALID,0,0,0,0,0,1,0,0,0,0,0,0,0,0,0,0,0,0,0,0,18.45,1080.38,2,0,0.06,0.06,146,19.23,0.06,0.04,7.54,FLYING,X10-G,0:/Integrated Flight Computer/aircraft/x10_g_cfg.ks (inferred preloaded)
7.9,CRUISE,,170.08,80,-90.08,2369.81,23.71,27,20.01,90.01,0.011,1,0,-1.239,1,0.6,4.5,0.75,0.35,0.0168,0.4,90,3.151,0,1,7.93,0,0,23.17,90,-0.9617,0.0003,-0.274,23.16,90,0,0,0,0,0,0,0,0,90,0,0,0,0,0,0,0,0,0,0,0,0,0,0,0,0,0,VALID,0,0,0,0,0,1,0,0,0,0,0,0,0,0,0,0,0,0,0,0,16.71,1071.67,2,0,0.06,0.06,151,19.23,0.06,0.04,7.8,FLYING,X10-G,0:/Integrated Flight Computer/aircraft/x10_g_cfg.ks (inferred preloaded)
8.16,CRUISE,,168.34,80,-88.34,2375.99,23.68,27.06,20.01,90.01,0.011,1,0,-1.209,1,0.6,4.5,0.75,0.35,0.0168,0.4,90,3.12,0,1,8.01,0,0,23.14,90,-0.9616,0.0003,-0.2746,23.13,90,0,0,0,0,0,0,0,0,90,0,0,0,0,0,0,0,0,0,0,0,0,0,0,0,0,0,VALID,0,0,0,0,0,1,0,0,0,0,0,0,0,0,0,0,0,0,0,0,15.13,1063.15,2,0,0.06,0.06,156,19.23,0.06,0.04,8.06,FLYING,X10-G,0:/Integrated Flight Computer/aircraft/x10_g_cfg.ks (inferred preloaded)
8.42,CRUISE,,166.64,80,-86.64,2382.15,23.6,27.1,20.01,90.01,0.01,1,0,-1.179,1,0.6,4.5,0.75,0.35,0.0168,0.4,90,3.089,0,1,8.06,0,0,23.11,90,-0.9614,0.0003,-0.2752,23.1,90,0,0,0,0,0,0,0,0,90,0,0,0,0,0,0,0,0,0,0,0,0,0,0,0,0,0,VALID,0,0,0,0,0,1,0,0,0,0,0,0,0,0,0,0,0,0,0,0,13.7,1054.82,2,0,0.06,0.06,161,19.23,0.06,0.04,8.32,FLYING,X10-G,0:/Integrated Flight Computer/aircraft/x10_g_cfg.ks (inferred preloaded)
8.68,CRUISE,,164.96,80,-84.96,2388.28,23.48,27.13,20.01,90.01,0.011,1,0,-1.15,1,0.6,4.5,0.75,0.35,0.0168,0.4,90,3.059,0,1,8.1,0,0,23.08,90,-0.9612,0.0003,-0.2758,23.07,90,0,0,0,0,0,0,0,0,90,0,0,0,0,0,0,0,0,0,0,0,0,0,0,0,0,0,VALID,0,0,0,0,0,1,0,0,0,0,0,0,0,0,0,0,0,0,0,0,12.41,1046.68,2,0,0.06,0.06,166,19.23,0.06,0.04,8.58,FLYING,X10-G,0:/Integrated Flight Computer/aircraft/x10_g_cfg.ks (inferred preloaded)
8.94,CRUISE,,163.31,80,-83.31,2394.36,23.31,27.14,20.01,90.01,0.011,1,0,-1.121,1,0.6,4.5,0.75,0.35,0.0168,0.4,90,3.028,0,1,8.12,0,0,23.05,90,-0.9611,0.0003,-0.2764,23.04,90,0,0,0,0,0,0,0,0,90,0,0,0,0,0,0,0,0,0,0,0,0,0,0,0,0,0,VALID,0,0,0,0,0,1,0,0,0,0,0,0,0,0,0,0,0,0,0,0,11.24,1038.71,2,0,0.06,0.06,171,19.23,0.06,0.04,8.84,FLYING,X10-G,0:/Integrated Flight Computer/aircraft/x10_g_cfg.ks (inferred preloaded)
9.2,CRUISE,,161.7,80,-81.7,2400.39,23.1,27.14,20.01,90.01,0.011,1,0,-1.093,1,0.6,4.5,0.75,0.35,0.0168,0.4,90,2.998,0,1,8.13,0,0,23.02,90,-0.9609,0.0003,-0.2769,23.01,90,0,0,0,0,0,0,0,0,90,0,0,0,0,0,0,0,0,0,0,0,0,0,0,0,0,0,VALID,0,0,0,0,0,1,0,0,0,0,0,0,0,0,0,0,0,0,0,0,10.18,1030.93,2,0,0.06,0.06,176,19.23,0.06,0.04,9.1,FLYING,X10-G,0:/Integrated Flight Computer/aircraft/x10_g_cfg.ks (inferred preloaded)
9.46,CRUISE,,160.11,80,-80.11,2406.36,22.85,27.12,20.01,90.01,0.011,1,0,-1.066,1,0.6,4.5,0.75,0.35,0.0168,0.4,90,2.968,0,1,8.12,0,0,22.99,90,-0.9607,0.0003,-0.2775,22.98,90,0,0,0,0,0,0,0,0,90,0,0,0,0,0,0,0,0,0,0,0,0,0,0,0,0,0,VALID,0,0,0,0,0,1,0,0,0,0,0,0,0,0,0,0,0,0,0,0,9.22,1023.33,2,0,0.06,0.06,181,19.23,0.06,0.04,9.36,FLYING,X10-G,0:/Integrated Flight Computer/aircraft/x10_g_cfg.ks (inferred preloaded)
9.72,CRUISE,,158.55,80,-78.55,2412.25,22.55,27.09,20.01,90.01,0.012,1,0,-1.04,1,0.6,4.5,0.75,0.35,0.0168,0.4,90,2.939,0,1,8.1,0,0,22.96,90,-0.9606,0.0003,-0.2781,22.95,90,0,0,0,0,0,0,0,0,90,0,0,0,0,0,0,0,0,0,0,0,0,0,0,0,0,0,VALID,0,0,0,0,0,1,0,0,0,0,0,0,0,0,0,0,0,0,0,0,8.36,1015.91,2,0,0.06,0.06,186,19.23,0.06,0.04,9.62,FLYING,X10-G,0:/Integrated Flight Computer/aircraft/x10_g_cfg.ks (inferred preloaded)
9.98,CRUISE,,157.02,80,-77.02,2418.06,22.22,27.05,20.01,90.01,0.012,1,0,-1.014,1,0.6,4.5,0.75,0.35,0.0168,0.4,90,2.91,0,1,8.05,0,0,22.93,90,-0.9604,0.0003,-0.2787,22.92,90,0,0,0,0,0,0,0,0,90,0,0,0,0,0,0,0,0,0,0,0,0,0,0,0,0,0,VALID,0,0,0,0,0,1,0,0,0,0,0,0,0,0,0,0,0,0,0,0,7.57,1008.66,2,0,0.06,0.06,191,19.23,0.06,0.04,9.88,FLYING,X10-G,0:/Integrated Flight Computer/aircraft/x10_g_cfg.ks (inferred preloaded)
10.24,CRUISE,,155.51,80,-75.51,2423.77,21.85,26.99,20.01,90.01,0.012,1,0,-0.989,1,0.6,4.5,0.75,0.35,0.0168,0.4,90,2.881,0,1,8,0,0,22.9,90,-0.9602,0.0003,-0.2792,22.89,90,0,0,0,0,0,0,0,0,90,0,0,0,0,0,0,0,0,0,0,0,0,0,0,0,0,0,VALID,0,0,0,0,0,1,0,0,0,0,0,0,0,0,0,0,0,0,0,0,6.86,1001.58,2,0,0.06,0.06,196,19.23,0.06,0.04,10.14,FLYING,X10-G,0:/Integrated Flight Computer/aircraft/x10_g_cfg.ks (inferred preloaded)
10.5,CRUISE,,154.04,80,-74.04,2429.37,21.44,26.92,20.01,90.01,0.012,1,0,-0.965,1,0.6,4.5,0.75,0.35,0.0168,0.4,90,2.853,0,1,7.92,0,0,22.87,90,-0.9601,0.0003,-0.2797,22.87,90,0,0,0,0,0,0,0,0,90,0,0,0,0,0,0,0,0,0,0,0,0,0,0,0,0,0,VALID,0,0,0,0,0,1,0,0,0,0,0,0,0,0,0,0,0,0,0,0,6.22,994.68,2,0,0.06,0.06,201,19.23,0.06,0.04,10.4,FLYING,X10-G,0:/Integrated Flight Computer/aircraft/x10_g_cfg.ks (inferred preloaded)
10.76,CRUISE,,152.59,80,-72.59,2434.86,21,26.83,20.01,90.01,0.012,1,0,-0.941,1,0.6,4.5,0.75,0.35,0.0168,0.4,90,2.826,0,1,7.83,0,0,22.85,90,-0.9599,0.0003,-0.2803,22.84,90,0,0,0,0,0,0,0,0,90,0,0,0,0,0,0,0,0,0,0,0,0,0,0,0,0,0,VALID,0,0,0,0,0,1,0,0,0,0,0,0,0,0,0,0,0,0,0,0,5.64,987.94,2,0,0.06,0.06,206,19.23,0.06,0.04,10.66,FLYING,X10-G,0:/Integrated Flight Computer/aircraft/x10_g_cfg.ks (inferred preloaded)
11.02,CRUISE,,151.17,80,-71.17,2440.23,20.52,26.73,20.01,90.01,0.013,1,0,-0.917,1,0.6,4.5,0.75,0.35,0.0168,0.4,90,2.799,0,1,7.73,0,0,22.82,90,-0.9598,0.0003,-0.2808,22.81,90,0,0,0,0,0,0,0,0,90,0,0,0,0,0,0,0,0,0,0,0,0,0,0,0,0,0,VALID,0,0,0,0,0,1,0,0,0,0,0,0,0,0,0,0,0,0,0,0,5.11,981.38,2,0,0.06,0.06,211,19.23,0.06,0.04,10.92,FLYING,X10-G,0:/Integrated Flight Computer/aircraft/x10_g_cfg.ks (inferred preloaded)
11.28,CRUISE,,149.78,80,-69.78,2445.46,20.01,26.62,20.01,90.01,0.013,1,0,-0.895,1,0.6,4.5,0.75,0.35,0.0168,0.4,90,2.773,0,1,7.61,0,0,22.79,90,-0.9596,0.0003,-0.2813,22.79,90,0,0,0,0,0,0,0,0,90,0,0,0,0,0,0,0,0,0,0,0,0,0,0,0,0,0,VALID,0,0,0,0,0,1,0,0,0,0,0,0,0,0,0,0,0,0,0,0,4.64,974.98,2,0,0.06,0.06,216,19.23,0.06,0.04,11.18,FLYING,X10-G,0:/Integrated Flight Computer/aircraft/x10_g_cfg.ks (inferred preloaded)
11.54,CRUISE,,148.42,80,-68.42,2450.56,19.47,26.49,20.01,90.01,0.013,1,0,-0.873,1,0.6,4.5,0.75,0.35,0.0168,0.4,90,2.747,0,1,7.47,0,0,22.77,90,-0.9595,0.0003,-0.2818,22.76,90,0,0,0,0,0,0,0,0,90,0,0,0,0,0,0,0,0,0,0,0,0,0,0,0,0,0,VALID,0,0,0,0,0,1,0,0,0,0,0,0,0,0,0,0,0,0,0,0,4.2,968.74,2,0,0.06,0.06,221,19.23,0.06,0.04,11.44,FLYING,X10-G,0:/Integrated Flight Computer/aircraft/x10_g_cfg.ks (inferred preloaded)
11.8,CRUISE,,147.09,80,-67.09,2455.5,18.9,26.36,20.01,90.01,0.013,1,0,-0.851,1,0.6,4.5,0.75,0.35,0.0168,0.4,90,2.722,0,1,7.32,0,0,22.74,90,-0.9593,0.0003,-0.2823,22.74,90,0,0,0,0,0,0,0,0,90,0,0,0,0,0,0,0,0,0,0,0,0,0,0,0,0,0,VALID,0,0,0,0,0,1,0,0,0,0,0,0,0,0,0,0,0,0,0,0,3.81,962.67,2,0,0.06,0.06,226,19.23,0.06,0.04,11.7,FLYING,X10-G,0:/Integrated Flight Computer/aircraft/x10_g_cfg.ks (inferred preloaded)
12.06,CRUISE,,145.78,80,-65.78,2460.29,18.3,26.2,20.01,90.01,0.013,1,0,-0.83,1,0.6,4.5,0.75,0.35,0.0168,0.4,90,2.699,0,1,7.15,0,0,22.72,90,-0.9592,0.0003,-0.2828,22.71,90,0,0,0,0,0,0,0,0,90,0,0,0,0,0,0,0,0,0,0,0,0,0,0,0,0,0,VALID,0,0,0,0,0,1,0,0,0,0,0,0,0,0,0,0,0,0,0,0,3.46,956.75,2,0,0.06,0.06,231,19.23,0.06,0.04,11.96,FLYING,X10-G,0:/Integrated Flight Computer/aircraft/x10_g_cfg.ks (inferred preloaded)
12.32,CRUISE,,144.5,80,-64.5,2464.91,17.67,26.04,20.01,90.01,0.013,1,0,-0.809,1,0.6,4.5,0.75,0.35,0.0168,0.4,90,2.675,0,1,6.97,0,0,22.69,90,-0.9591,0.0003,-0.2832,22.69,90,0,0,0,0,0,0,0,0,90,0,0,0,0,0,0,0,0,0,0,0,0,0,0,0,0,0,VALID,0,0,0,0,0,1,0,0,0,0,0,0,0,0,0,0,0,0,0,0,3.14,951,2,0,0.06,0.06,236,19.23,0.06,0.04,12.22,FLYING,X10-G,0:/Integrated Flight Computer/aircraft/x10_g_cfg.ks (inferred preloaded)
12.58,CRUISE,,143.25,80,-63.25,2469.37,17.01,25.86,20.01,90.01,0.014,1,0,-0.789,1,0.6,4.5,0.75,0.35,0.0168,0.4,90,2.653,0,1,6.77,0,0,22.67,90,-0.9589,0.0003,-0.2837,22.67,90,0,0,0,0,0,0,0,0,90,0,0,0,0,0,0,0,0,0,0,0,0,0,0,0,0,0,VALID,0,0,0,0,0,1,0,0,0,0,0,0,0,0,0,0,0,0,0,0,2.85,945.4,2,0,0.06,0.06,241,19.23,0.06,0.04,12.48,FLYING,X10-G,0:/Integrated Flight Computer/aircraft/x10_g_cfg.ks (inferred preloaded)
12.84,CRUISE,,142.02,80,-62.02,2473.64,16.33,25.67,20.01,90.01,0.014,1,0,-0.77,1,0.6,4.5,0.75,0.35,0.0168,0.4,90,2.632,0,1,6.56,0,0,22.65,90,-0.9588,0.0003,-0.2841,22.64,90,0,0,0,0,0,0,0,0,90,0,0,0,0,0,0,0,0,0,0,0,0,0,0,0,0,0,VALID,0,0,0,0,0,1,0,0,0,0,0,0,0,0,0,0,0,0,0,0,2.58,939.95,2,0,0.06,0.06,246,19.23,0.06,0.04,12.74,FLYING,X10-G,0:/Integrated Flight Computer/aircraft/x10_g_cfg.ks (inferred preloaded)
13.1,CRUISE,,140.83,80,-60.83,2477.74,15.62,25.47,20.01,90.01,0.015,1,0,-0.751,1,0.6,4.5,0.75,0.35,0.0168,0.4,90,2.611,0,1,6.33,0,0,22.63,90,-0.9587,0.0003,-0.2845,22.62,90,0,0,0,0,0,0,0,0,90,0,0,0,0,0,0,0,0,0,0,0,0,0,0,0,0,0,VALID,0,0,0,0,0,1,0,0,0,0,0,0,0,0,0,0,0,0,0,0,2.35,934.66,2,0,0.06,0.06,251,19.23,0.06,0.04,13,FLYING,X10-G,0:/Integrated Flight Computer/aircraft/x10_g_cfg.ks (inferred preloaded)
13.36,CRUISE,,139.66,80,-59.66,2481.64,14.89,25.25,20.01,90.01,0.015,1,0,-0.732,1,0.6,4.5,0.75,0.35,0.0168,0.4,90,2.592,0,1,6.09,0,0,22.61,90,-0.9586,0.0003,-0.2849,22.6,90,0,0,0,0,0,0,0,0,90,0,0,0,0,0,0,0,0,0,0,0,0,0,0,0,0,0,VALID,0,0,0,0,0,1,0,0,0,0,0,0,0,0,0,0,0,0,0,0,2.13,929.52,2,0,0.06,0.06,256,19.23,0.06,0.04,13.26,FLYING,X10-G,0:/Integrated Flight Computer/aircraft/x10_g_cfg.ks (inferred preloaded)
13.62,CRUISE,,138.51,80,-58.51,2485.34,14.14,25.02,20.01,90.02,0.015,1,0,-0.714,1,0.6,4.5,0.75,0.35,0.0168,0.4,90,2.573,0,1,5.83,0,0,22.59,90,-0.9584,0.0003,-0.2853,22.59,90,0,0,0,0,0,0,0,0,90,0,0,0,0,0,0,0,0,0,0,0,0,0,0,0,0,0,VALID,0,0,0,0,0,1,0,0,0,0,0,0,0,0,0,0,0,0,0,0,1.93,924.53,2,0,0.06,0.06,261,19.23,0.06,0.04,13.52,FLYING,X10-G,0:/Integrated Flight Computer/aircraft/x10_g_cfg.ks (inferred preloaded)
13.88,CRUISE,,137.4,80,-57.4,2488.84,13.36,24.78,20.01,90.02,0.015,1,0,-0.696,1,0.6,4.5,0.75,0.35,0.0168,0.4,90,2.556,0,1,5.55,0,0,22.57,90,-0.9583,0.0003,-0.2856,22.57,90,0,0,0,0,0,0,0,0,90,0,0,0,0,0,0,0,0,0,0,0,0,0,0,0,0,0,VALID,0,0,0,0,0,1,0,0,0,0,0,0,0,0,0,0,0,0,0,0,1.75,919.69,2,0,0.06,0.06,266,19.23,0.06,0.04,13.78,FLYING,X10-G,0:/Integrated Flight Computer/aircraft/x10_g_cfg.ks (inferred preloaded)
14.14,CRUISE,,136.31,80,-56.31,2492.14,12.57,24.53,20.01,90.02,0.015,1,0,-0.679,1,0.6,4.5,0.75,0.35,0.0168,0.4,90,2.539,0,1,5.27,0,0,22.56,90,-0.9582,0.0003,-0.286,22.55,90,0,0,0,0,0,0,0,0,90,0,0,0,0,0,0,0,0,0,0,0,0,0,0,0,0,0,VALID,0,0,0,0,0,1,0,0,0,0,0,0,0,0,0,0,0,0,0,0,1.59,914.99,2,0,0.06,0.06,271,19.23,0.06,0.04,14.04,FLYING,X10-G,0:/Integrated Flight Computer/aircraft/x10_g_cfg.ks (inferred preloaded)
14.4,CRUISE,,135.24,80,-55.24,2495.22,11.75,24.26,20.01,90.02,0.016,1,0,-0.662,1,0.6,4.5,0.75,0.35,0.0168,0.4,90,2.524,0,1,4.96,0,0,22.54,90,-0.9581,0.0003,-0.2863,22.54,90,0,0,0,0,0,0,0,0,90,0,0,0,0,0,0,0,0,0,0,0,0,0,0,0,0,0,VALID,0,0,0,0,0,1,0,0,0,0,0,0,0,0,0,0,0,0,0,0,1.45,910.45,2,0,0.06,0.06,276,19.23,0.06,0.04,14.3,FLYING,X10-G,0:/Integrated Flight Computer/aircraft/x10_g_cfg.ks (inferred preloaded)
14.66,CRUISE,,134.21,80,-54.21,2498.08,10.91,23.99,20.01,90.02,0.016,1,0,-0.646,1,0.6,4.5,0.75,0.35,0.0168,0.4,90,2.51,0,1,4.65,0,0,22.53,90,-0.9581,0.0003,-0.2866,22.52,90,0,0,0,0,0,0,0,0,90,0,0,0,0,0,0,0,0,0,0,0,0,0,0,0,0,0,VALID,0,0,0,0,0,1,0,0,0,0,0,0,0,0,0,0,0,0,0,0,1.31,906.04,2,0,0.06,0.06,281,19.23,0.06,0.04,14.56,FLYING,X10-G,0:/Integrated Flight Computer/aircraft/x10_g_cfg.ks (inferred preloaded)
14.92,CRUISE,,133.2,80,-53.2,2500.71,10.05,23.7,20.01,90.02,0.016,1,0,-0.63,1,0.6,4.5,0.75,0.35,0.0168,0.4,90,2.496,0,1,4.32,0,0,22.51,90,-0.958,0.0003,-0.2869,22.51,90,0,0,0,0,0,0,0,0,90,0,0,0,0,0,0,0,0,0,0,0,0,0,0,0,0,0,VALID,0,0,0,0,0,1,0,0,0,0,0,0,0,0,0,0,0,0,0,0,1.19,901.78,2,0,0.06,0.06,286,19.23,0.06,0.04,14.82,FLYING,X10-G,0:/Integrated Flight Computer/aircraft/x10_g_cfg.ks (inferred preloaded)
15.18,CRUISE,,132.22,80,-52.22,2503.12,9.18,23.4,20.01,90.02,0.016,1,0,-0.614,1,0.6,4.5,0.75,0.35,0.0168,0.4,90,2.484,0,1,3.97,0,0,22.5,90,-0.9579,0.0003,-0.2872,22.5,90,0,0,0,0,0,0,0,0,90,0,0,0,0,0,0,0,0,0,0,0,0,0,0,0,0,0,VALID,0,0,0,0,0,1,0,0,0,0,0,0,0,0,0,0,0,0,0,0,1.08,897.65,2,0,0.06,0.06,291,19.23,0.06,0.04,15.08,FLYING,X10-G,0:/Integrated Flight Computer/aircraft/x10_g_cfg.ks (inferred preloaded)
15.44,CRUISE,,131.26,80,-51.26,2505.3,8.29,23.09,20.01,90.02,0.016,1,0,-0.599,1,0.6,4.5,0.75,0.35,0.0168,0.4,90,2.474,0,1,3.61,0,0,22.49,90,-0.9578,0.0003,-0.2874,22.49,90,0,0,0,0,0,0,0,0,90,0,0,0,0,0,0,0,0,0,0,0,0,0,0,0,0,0,VALID,0,0,0,0,0,1,0,0,0,0,0,0,0,0,0,0,0,0,0,0,0.99,893.67,2,0,0.06,0.06,296,19.23,0.06,0.04,15.34,FLYING,X10-G,0:/Integrated Flight Computer/aircraft/x10_g_cfg.ks (inferred preloaded)
15.7,CRUISE,,130.33,80,-50.33,2507.24,7.38,22.77,20.01,90.02,0.017,1,0,-0.584,1,0.6,4.5,0.75,0.35,0.0168,0.4,90,2.464,0,1,3.24,0,0,22.48,90,-0.9577,0.0003,-0.2876,22.48,90,0,0,0,0,0,0,0,0,90,0,0,0,0,0,0,0,0,0,0,0,0,0,0,0,0,0,VALID,0,0,0,0,0,1,0,0,0,0,0,0,0,0,0,0,0,0,0,0,0.9,889.82,2,0,0.06,0.06,301,19.23,0.06,0.04,15.6,FLYING,X10-G,0:/Integrated Flight Computer/aircraft/x10_g_cfg.ks (inferred preloaded)
15.96,CRUISE,,129.43,80,-49.43,2508.93,6.45,22.44,20.01,90.02,0.017,1,0,-0.57,1,0.6,4.5,0.75,0.35,0.0168,0.4,90,2.455,0,1,2.85,0,0,22.47,90,-0.9577,0.0003,-0.2878,22.47,90,0,0,0,0,0,0,0,0,90,0,0,0,0,0,0,0,0,0,0,0,0,0,0,0,0,0,VALID,0,0,0,0,0,1,0,0,0,0,0,0,0,0,0,0,0,0,0,0,0.81,886.11,2,0,0.06,0.06,306,19.23,0.06,0.04,15.86,FLYING,X10-G,0:/Integrated Flight Computer/aircraft/x10_g_cfg.ks (inferred preloaded)
16.22,CRUISE,,128.55,80,-48.55,2510.38,5.51,22.1,20.01,90.02,0.017,1,0,-0.556,1,0.6,4.5,0.75,0.35,0.0168,0.4,90,2.448,0,1,2.46,0,0,22.46,90,-0.9576,0.0003,-0.288,22.46,90,0,0,0,0,0,0,0,0,90,0,0,0,0,0,0,0,0,0,0,0,0,0,0,0,0,0,VALID,0,0,0,0,0,1,0,0,0,0,0,0,0,0,0,0,0,0,0,0,0.74,882.54,2,0,0.06,0.06,311,19.23,0.06,0.04,16.12,FLYING,X10-G,0:/Integrated Flight Computer/aircraft/x10_g_cfg.ks (inferred preloaded)
16.48,CRUISE,,127.7,80,-47.7,2511.58,4.56,21.75,20.01,90.02,0.017,1,0,-0.542,1,0.6,4.5,0.75,0.35,0.0168,0.4,90,2.442,0,1,2.04,0,0,22.46,90,-0.9576,0.0003,-0.2882,22.46,90,0,0,0,0,0,0,0,0,90,0,0,0,0,0,0,0,0,0,0,0,0,0,0,0,0,0,VALID,0,0,0,0,0,1,0,0,0,0,0,0,0,0,0,0,0,0,0,0,0.67,879.1,2,0,0.06,0.06,316,19.23,0.06,0.04,16.38,FLYING,X10-G,0:/Integrated Flight Computer/aircraft/x10_g_cfg.ks (inferred preloaded)
16.74,CRUISE,,126.88,80,-46.88,2512.53,3.59,21.39,20.01,90.02,0.018,1,0,-0.529,1,0.6,4.5,0.75,0.35,0.0168,0.4,90,2.437,0,1,1.62,0,0,22.45,90,-0.9575,0.0003,-0.2883,22.45,90,0,0,0,0,0,0,0,0,90,0,0,0,0,0,0,0,0,0,0,0,0,0,0,0,0,0,VALID,0,0,0,0,0,1,0,0,0,0,0,0,0,0,0,0,0,0,0,0,0.61,875.79,2,0,0.06,0.06,321,19.23,0.06,0.04,16.64,FLYING,X10-G,0:/Integrated Flight Computer/aircraft/x10_g_cfg.ks (inferred preloaded)
17,CRUISE,,126.08,80,-46.08,2513.23,2.61,21.02,20.01,90.02,0.019,1,0,-0.516,1,0.6,4.5,0.75,0.35,0.0168,0.4,90,2.434,0,1,1.19,0,0,22.45,90,-0.9575,0.0003,-0.2884,22.45,90,0,0,0,0,0,0,0,0,90,0,0,0,0,0,0,0,0,0,0,0,0,0,0,0,0,0,VALID,0,0,0,0,0,1,0,0,0,0,0,0,0,0,0,0,0,0,0,0,0.56,872.61,2,0,0.06,0.06,326,19.23,0.06,0.04,16.9,FLYING,X10-G,0:/Integrated Flight Computer/aircraft/x10_g_cfg.ks (inferred preloaded)
17.26,CRUISE,,125.31,80,-45.31,2513.66,1.62,20.64,20.01,90.02,0.019,1,0,-0.503,1,0.6,4.5,0.75,0.35,0.0168,0.4,90,2.432,0,1,0.74,0,0,22.45,90,-0.9575,0.0003,-0.2885,22.45,90,0,0,0,0,0,0,0,0,90,0,0,0,0,0,0,0,0,0,0,0,0,0,0,0,0,0,VALID,0,0,0,0,0,1,0,0,0,0,0,0,0,0,0,0,0,0,0,0,0.51,869.56,2,0,0.06,0.06,331,19.23,0.06,0.04,17.16,FLYING,X10-G,0:/Integrated Flight Computer/aircraft/x10_g_cfg.ks (inferred preloaded)
17.52,CRUISE,,124.56,80,-44.56,2513.83,0.61,20.25,20.01,90.02,0.02,1,0,-0.49,1,0.6,4.5,0.75,0.35,0.0168,0.4,90,2.431,0,1,0.28,0,0,22.45,90,-0.9574,0.0003,-0.2886,22.44,90,0,0,0,0,0,0,0,0,90,0,0,0,0,0,0,0,0,0,0,0,0,0,0,0,0,0,VALID,0,0,0,0,0,1,0,0,0,0,0,0,0,0,0,0,0,0,0,0,0.46,866.64,2,0,0.06,0.06,336,19.23,0.06,0.04,17.42,FLYING,X10-G,0:/Integrated Flight Computer/aircraft/x10_g_cfg.ks (inferred preloaded)
17.78,CRUISE,,123.85,80,-43.85,2513.73,-0.4,19.85,20.01,90.02,0.021,1,0,-0.478,1,0.6,4.5,0.75,0.35,0.0168,0.4,90,2.431,0,1,-0.19,0,0,22.45,90,-0.9574,0.0003,-0.2887,22.44,90,0,0,0,0,0,0,0,0,90,0,0,0,0,0,0,0,0,0,0,0,0,0,0,0,0,0,VALID,0,0,0,0,0,1,0,0,0,0,0,0,0,0,0,0,0,0,0,0,0.42,863.84,2,0,0.06,0.06,341,19.23,0.06,0.04,17.68,FLYING,X10-G,0:/Integrated Flight Computer/aircraft/x10_g_cfg.ks (inferred preloaded)
18.04,CRUISE,,123.15,80,-43.15,2513.37,-1.43,19.45,20.01,90.02,0.021,1,0,-0.466,1,0.6,4.5,0.75,0.35,0.0168,0.4,90,2.433,0,1,-0.67,0,0,22.45,90,-0.9574,0.0003,-0.2887,22.45,90,0,0,0,0,0,0,0,0,90,0,0,0,0,0,0,0,0,0,0,0,0,0,0,0,0,0,VALID,0,0,0,0,0,1,0,0,0,0,0,0,0,0,0,0,0,0,0,0,0.38,861.17,2,0,0.06,0.06,346,19.23,0.06,0.04,17.94,FLYING,X10-G,0:/Integrated Flight Computer/aircraft/x10_g_cfg.ks (inferred preloaded)
18.3,CRUISE,,122.49,80,-42.49,2512.73,-2.47,19.03,20.01,90.02,0.022,1,0,-0.455,1,0.6,4.5,0.75,0.35,0.0168,0.4,90,2.436,0,1,-1.15,0,0,22.45,90,-0.9574,0.0003,-0.2887,22.45,90,0,0,0,0,0,0,0,0,90,0,0,0,0,0,0,0,0,0,0,0,0,0,0,0,0,0,VALID,0,0,0,0,0,1,0,0,0,0,0,0,0,0,0,0,0,0,0,0,0.35,858.62,2,0,0.06,0.06,351,19.23,0.06,0.04,18.2,FLYING,X10-G,0:/Integrated Flight Computer/aircraft/x10_g_cfg.ks (inferred preloaded)
18.56,CRUISE,,121.84,80,-41.84,2511.82,-3.51,18.61,20.01,90.02,0.023,1,0,-0.444,1,0.6,4.5,0.75,0.35,0.0168,0.4,90,2.441,0,1,-1.65,0,0,22.45,90,-0.9574,0.0003,-0.2887,22.45,90,0,0,0,0,0,0,0,0,90,0,0,0,0,0,0,0,0,0,0,0,0,0,0,0,0,0,VALID,0,0,0,0,0,1,0,0,0,0,0,0,0,0,0,0,0,0,0,0,0.32,856.2,2,0,0.06,0.06,356,19.23,0.06,0.04,18.46,FLYING,X10-G,0:/Integrated Flight Computer/aircraft/x10_g_cfg.ks (inferred preloaded)
18.82,CRUISE,,121.23,80,-41.23,2510.64,-4.57,18.18,20.01,90.02,0.023,1,0,-0.433,1,0.6,4.5,0.75,0.35,0.0168,0.4,90,2.447,0,1,-2.16,0,0,22.46,90,-0.9574,0.0003,-0.2886,22.46,90,0,0,0,0,0,0,0,0,90,0,0,0,0,0,0,0,0,0,0,0,0,0,0,0,0,0,VALID,0,0,0,0,0,1,0,0,0,0,0,0,0,0,0,0,0,0,0,0,0.29,853.89,2,0,0.06,0.06,361,19.23,0.06,0.04,18.72,FLYING,X10-G,0:/Integrated Flight Computer/aircraft/x10_g_cfg.ks (inferred preloaded)
19.08,CRUISE,,120.64,80,-40.64,2509.17,-5.63,17.75,20.01,90.02,0.024,1,0,-0.422,1,0.6,4.5,0.75,0.35,0.0168,0.4,90,2.454,0,1,-2.67,0,0,22.47,90,-0.9575,0.0003,-0.2886,22.47,90,0,0,0,0,0,0,0,0,90,0,0,0,0,0,0,0,0,0,0,0,0,0,0,0,0,0,VALID,0,0,0,0,0,1,0,0,0,0,0,0,0,0,0,0,0,0,0,0,0.26,851.71,2,0,0.06,0.06,366,19.23,0.06,0.04,18.98,FLYING,X10-G,0:/Integrated Flight Computer/aircraft/x10_g_cfg.ks (inferred preloaded)
19.34,CRUISE,,120.08,80,-40.08,2507.43,-6.71,17.3,20.01,90.02,0.024,1,0,-0.411,1,0.6,4.5,0.75,0.35,0.0168,0.4,90,2.463,0,1,-3.2,0,0,22.47,90,-0.9575,0.0003,-0.2885,22.48,90,0,0,0,0,0,0,0,0,90,0,0,0,0,0,0,0,0,0,0,0,0,0,0,0,0,0,VALID,0,0,0,0,0,1,0,0,0,0,0,0,0,0,0,0,0,0,0,0,0.24,849.65,2,0,0.06,0.06,371,19.23,0.06,0.04,19.24,FLYING,X10-G,0:/Integrated Flight Computer/aircraft/x10_g_cfg.ks (inferred preloaded)
19.6,CRUISE,,119.54,80,-39.54,2505.4,-7.78,16.85,20.01,90.02,0.025,1,0,-0.401,1,0.6,4.5,0.75,0.35,0.0168,0.4,90,2.473,0,1,-3.73,0,0,22.48,90,-0.9575,0.0003,-0.2884,22.49,90,0,0,0,0,0,0,0,0,90,0,0,0,0,0,0,0,0,0,0,0,0,0,0,0,0,0,VALID,0,0,0,0,0,1,0,0,0,0,0,0,0,0,0,0,0,0,0,0,0.22,847.7,2,0,0.06,0.06,376,19.23,0.06,0.04,19.5,FLYING,X10-G,0:/Integrated Flight Computer/aircraft/x10_g_cfg.ks (inferred preloaded)
19.86,CRUISE,,119.02,80,-39.02,2503.1,-8.87,16.39,20.01,90.03,0.025,1,0,-0.391,1,0.6,4.5,0.75,0.35,0.0168,0.4,90,2.485,0,1,-4.26,0,0,22.5,90,-0.9576,0.0003,-0.2882,22.5,90,0,0,0,0,0,0,0,0,90,0,0,0,0,0,0,0,0,0,0,0,0,0,0,0,0,0,VALID,0,0,0,0,0,1,0,0,0,0,0,0,0,0,0,0,0,0,0,0,0.2,845.87,2,0,0.06,0.06,381,19.23,0.06,0.04,19.76,FLYING,X10-G,0:/Integrated Flight Computer/aircraft/x10_g_cfg.ks (inferred preloaded)
20.12,CRUISE,,118.54,80,-38.54,2500.5,-9.96,15.93,20.01,90.03,0.026,1,0,-0.382,1,0.6,4.5,0.75,0.35,0.0168,0.4,90,2.497,0,1,-4.8,0,0,22.51,90,-0.9576,0.0003,-0.2881,22.51,90,0,0,0,0,0,0,0,0,90,0,0,0,0,0,0,0,0,0,0,0,0,0,0,0,0,0,VALID,0,0,0,0,0,1,0,0,0,0,0,0,0,0,0,0,0,0,0,0,0.18,844.16,2,0,0.06,0.06,386,19.23,0.06,0.04,20.02,FLYING,X10-G,0:/Integrated Flight Computer/aircraft/x10_g_cfg.ks (inferred preloaded)
20.38,CRUISE,,118.07,80,-38.07,2497.62,-11.06,15.46,20.01,90.03,0.026,1,0,-0.372,1,0.6,4.5,0.75,0.35,0.0168,0.4,90,2.512,0,1,-5.35,0,0,22.52,90,-0.9577,0.0003,-0.2879,22.53,90,0,0,0,0,0,0,0,0,90,0,0,0,0,0,0,0,0,0,0,0,0,0,0,0,0,0,VALID,0,0,0,0,0,1,0,0,0,0,0,0,0,0,0,0,0,0,0,0,0.16,842.55,2,0,0.06,0.06,391,19.23,0.06,0.04,20.28,FLYING,X10-G,0:/Integrated Flight Computer/aircraft/x10_g_cfg.ks (inferred preloaded)
20.64,CRUISE,,117.64,80,-37.64,2494.46,-12.16,14.99,20.01,90.03,0.027,1,0,-0.363,1,0.6,4.5,0.75,0.35,0.0168,0.4,90,2.528,0,1,-5.9,0,0,22.54,90,-0.9577,0.0003,-0.2877,22.54,90,0,0,0,0,0,0,0,0,90,0,0,0,0,0,0,0,0,0,0,0,0,0,0,0,0,0,VALID,0,0,0,0,0,1,0,0,0,0,0,0,0,0,0,0,0,0,0,0,0.15,841.07,2,0,0.06,0.06,396,19.23,0.06,0.04,20.54,FLYING,X10-G,0:/Integrated Flight Computer/aircraft/x10_g_cfg.ks (inferred preloaded)
