t_s,phase,subphase,ias_ms,vapp_ms,spd_err_ms,agl_m,vs_ms,pitch_deg,aoa_deg,hdg_deg,bank_deg,thr_cmd,thr_intg,aa_hdg_cmd_deg,aa_fpa_cmd_deg,ils_loc_m,ils_gs_m,ils_dist_km,loc_corr_deg,gs_corr_deg,flare_fpa_cmd,flare_tgt_vs,flare_frac,steer_hdg_deg,steer_blend,ro_loc_corr_deg,ro_hdg_err_deg,ro_yaw_tgt,ro_yaw_scale,ro_yaw_gate,yaw_cmd,roll_cmd,pitch_cmd,ro_pitch_tgt_deg,ro_pitch_err_deg,ro_pitch_ff,ro_roll_assist,flaps_cur,flaps_tgt,phase_el_s,status
0.2,APPROACH,FLY_TO_FIX,213.32,200,-13.32,2999,0.06,7.05,7.04,270.01,0.059,0,-1.066,177.24,-6,0,0,0,0,0,0,0,0,270.01,0,0,0,0,0,0,0,0,0,0,0,0,0,0,1,0.24,FLYING
0.42,APPROACH,ILS_TRACK,213.31,200,-13.31,2999.03,0.08,7.12,7.1,269.97,0.872,0,-3.993,200.18,-6,0,0,0,0,0,0,0,0,270.01,0,0,0,0,0,0,0,0,0,0,0,0,0,0,1,0.44,FLYING
0.64,APPROACH,ILS_TRACK,213.23,200,-13.23,2999.03,0.15,7.02,6.99,269.78,3.978,0,-6.903,245.4,-7,20209.79,289.69,50.362,-23774.065,-1140.316,0,0,0,270.01,0,0,0,0,0,0,0,0,0,0,0,0,0,1,1,0.66,FLYING
0.84,APPROACH,ILS_TRACK,213.07,200,-13.07,2999.03,0.26,6.88,6.82,269.36,10.414,0,-9.783,245.4,-7,20209.58,292.55,50.307,-808.136,-98.186,0,0,0,270.01,0,0,0,0,0,0,0,0,0,0,0,0,0,1,1,0.88,FLYING
1.04,APPROACH,ILS_TRACK,212.87,200,-12.87,2998.89,0.39,6.15,6.06,268.91,18.561,0,-12.361,245.4,-7,20209.36,295.05,50.258,-808.101,-98.49,0,0,0,270.01,0,0,0,0,0,0,0,0,0,0,0,0,0,1,1,1.08,FLYING
1.26,APPROACH,ILS_TRACK,212.69,200,-12.69,2998.6,-0.06,4.97,5,268.47,27.992,0,-15.156,245.4,-7,20209.01,297.62,50.203,-807.971,-98.647,0,0,0,270.01,0,0,0,0,0,0,0,0,0,0,0,0,0,1,1,1.3,FLYING
1.46,APPROACH,ILS_TRACK,212.53,200,-12.53,2998.27,-0.86,4.17,4.5,267.94,35.813,0,-17.665,245.4,-7,20208.58,299.9,50.154,-807.799,-99.074,0,0,0,270.01,0,0,0,0,0,0,0,0,0,0,0,0,0,1,1,1.5,FLYING
1.66,APPROACH,ILS_TRACK,212.28,200,-12.28,2997.91,-1.84,3.86,4.77,267,42.357,0,-20,245.4,-7,20208.02,302.13,50.104,-807.625,-99.572,0,0,0,270.01,0,0,0,0,0,0,0,0,0,0,0,0,0,1,1,1.7,FLYING
1.86,APPROACH,ILS_TRACK,211.81,200,-11.81,2997.49,-2.75,4.02,5.83,265.46,47.976,0,-20,245.4,-7,20207.32,304.31,50.055,-807.411,-100.004,0,0,0,270.01,0,0,0,0,0,0,0,0,0,0,0,0,0,1,1,1.9,FLYING
2.06,APPROACH,ILS_TRACK,211.03,200,-11.03,2996.97,-3.4,4.39,7.2,263.68,52.316,0,-20,245.4,-7,20206.41,306.4,50.006,-807.116,-100.269,0,0,0,270.01,0,0,0,0,0,0,0,0,0,0,0,0,0,1,1,2.1,FLYING
2.28,APPROACH,ILS_TRACK,209.87,200,-9.87,2996.19,-3.95,4.45,8.26,261.97,56.956,0,-20,245.4,-7,20205.03,308.47,49.952,-806.643,-100.07,0,0,0,270.01,0,0,0,0,0,0,0,0,0,0,0,0,0,1,1,2.32,FLYING
2.48,APPROACH,ILS_TRACK,208.64,200,-8.64,2995.3,-4.52,4.34,9.05,260.53,59.993,0,-20,245.4,-7,20203.4,310.16,49.903,-806.099,-99.829,0,0,0,270.01,0,0,0,0,0,0,0,0,0,0,0,0,0,1,1,2.52,FLYING
2.68,APPROACH,ILS_TRACK,207.31,200,-7.31,2994.24,-5.15,4.04,9.49,259.43,60.768,0,-20,245.4,-7,20201.35,311.67,49.855,-805.489,-99.531,0,0,0,270.01,0,0,0,0,0,0,0,0,0,0,0,0,0,1,1,2.72,FLYING
2.88,APPROACH,ILS_TRACK,205.95,200,-5.95,2993.03,-5.79,3.66,9.68,258.56,60.504,0,-20,245.4,-7,20198.86,313,49.807,-804.838,-99.241,0,0,0,270.01,0,0,0,0,0,0,0,0,0,0,0,0,0,1,1,2.92,FLYING
3.08,APPROACH,ILS_TRACK,204.57,200,-4.57,2991.7,-6.49,3.32,9.68,257.94,59.934,0,-20,245.4,-7,20195.92,314.19,49.759,-804.166,-99.016,0,0,0,270.01,0,0,0,0,0,0,0,0,0,0,0,0,0,1,1,3.12,FLYING
3.3,APPROACH,ILS_TRACK,203.05,200,-3.05,2990.12,-7.3,3.15,9.72,257.34,59.139,0,-20,245.4,-7,20192.2,315.36,49.707,-803.457,-98.866,0,0,0,270.01,0,0,0,0,0,0,0,0,0,0,0,0,0,1,1,3.34,FLYING
3.5,APPROACH,ILS_TRACK,201.67,200,-1.67,2988.56,-7.88,3.04,9.57,257.01,57.902,0,-20,245.4,-7,20188.37,316.3,49.66,-802.75,-98.625,0,0,0,270.01,0,0,0,0,0,0,0,0,0,0,0,0,0,1,1,3.54,FLYING
3.7,APPROACH,ILS_TRACK,200.31,200,-0.31,2986.89,-8.45,2.92,9.41,256.71,57.311,0,-20,245.4,-7,20184.14,317.09,49.614,-802.071,-98.307,0,0,0,270.01,0,0,0,0,0,0,0,0,0,0,0,0,0,1,1,3.74,FLYING
3.9,APPROACH,ILS_TRACK,198.97,200,1.03,2985.12,-9.07,2.9,9.5,256.19,56.84,0,-19.822,245.4,-7,20179.53,317.77,49.567,-801.422,-98.052,0,0,0,270.01,0,0,0,0,0,0,0,0,0,0,0,0,0,1,1,3.94,FLYING
4.1,APPROACH,ILS_TRACK,197.63,200,2.37,2983.26,-9.57,2.93,9.64,255.63,56.269,0,-19.375,245.4,-7,20174.56,318.35,49.521,-800.773,-97.798,0,0,0,270.01,0,0,0,0,0,0,0,0,0,0,0,0,0,1,1,4.14,FLYING
4.32,APPROACH,ILS_TRACK,196.19,200,3.81,2981.05,-10.12,2.79,9.53,255.23,55.797,0,-18.565,245.4,-7,20168.65,318.8,49.471,-800.035,-97.281,0,0,0,270.01,0,0,0,0,0,0,0,0,0,0,0,0,0,1,1,4.36,FLYING
4.52,APPROACH,ILS_TRACK,194.9,200,5.1,2978.94,-10.72,2.73,9.59,254.73,55.33,0.0626,-17.571,245.4,-7,20162.91,319.08,49.426,-799.335,-96.858,0,0,0,270.01,0,0,0,0,0,0,0,0,0,0,0,0,0,1,1,4.56,FLYING
4.72,APPROACH,ILS_TRACK,193.62,200,6.38,2976.75,-11.23,2.77,9.78,254.15,54.58,0.1483,-16.32,245.4,-7,20156.84,319.27,49.381,-798.68,-96.527,0,0,0,270.01,0,0,0,0,0,0,0,0,0,0,0,0,0,1,1,4.76,FLYING
4.92,APPROACH,ILS_TRACK,192.35,200,7.65,2974.43,-11.69,2.68,9.69,253.81,53.838,0.2358,-14.816,245.4,-7,20150.4,319.31,49.336,-797.978,-95.967,0,0,0,270.01,0,0,0,0,0,0,0,0,0,0,0,0,0,1,1,4.96,FLYING
5.12,APPROACH,ILS_TRACK,191.12,200,8.88,2972,-12.23,2.59,9.65,253.43,53.224,0.3249,-13.064,245.4,-7,20143.63,319.23,49.292,-797.282,-95.438,0,0,0,270.01,0,0,0,0,0,0,0,0,0,0,0,0,0,1,1,5.16,FLYING
5.34,APPROACH,ILS_TRACK,189.77,200,10.23,2969.26,-12.79,2.64,9.83,252.85,52.017,0.4256,-10.841,245.4,-7,20135.83,319.04,49.243,-796.563,-95.011,0,0,0,270.01,0,0,0,0,0,0,0,0,0,0,0,0,0,1,1,5.38,FLYING
5.54,APPROACH,ILS_TRACK,188.57,200,11.43,2966.65,-13.2,2.63,9.77,252.54,50.386,0.5191,-8.579,245.4,-7,20128.39,318.74,49.2,-795.843,-94.429,0,0,0,270.01,0,0,0,0,0,0,0,0,0,0,0,0,0,1,1,5.58,FLYING
5.74,APPROACH,ILS_TRACK,187.39,200,12.61,2963.95,-13.63,2.59,9.7,252.26,49.725,0.614,-6.081,245.4,-7,20120.65,318.32,49.156,-795.143,-93.842,0,0,0,270.01,0,0,0,0,0,0,0,0,0,0,0,0,0,1,1,5.78,FLYING
5.94,APPROACH,ILS_TRACK,186.23,200,13.77,2961.19,-14.11,2.65,9.84,251.81,49.1,0.7106,-3.351,245.4,-7,20112.62,317.83,49.113,-794.474,-93.363,0,0,0,270.01,0,0,0,0,0,0,0,0,0,0,0,0,0,1,1,5.98,FLYING
6.14,APPROACH,ILS_TRACK,185.09,200,14.91,2958.34,-14.49,2.72,9.94,251.4,47.766,0.8092,-0.391,245.4,-7,20104.33,317.24,49.071,-793.804,-92.827,0,0,0,270.01,0,0,0,0,0,0,0,0,0,0,0,0,0,1,1,6.18,FLYING
6.36,APPROACH,ILS_TRACK,183.85,200,16.15,2955.11,-14.91,2.75,9.93,251.09,45.832,0.92,3.138,245.4,-7,20094.87,316.47,49.024,-793.052,-92.129,0,0,0,270.01,0,0,0,0,0,0,0,0,0,0,0,0,0,1,1,6.4,FLYING
6.56,APPROACH,ILS_TRACK,182.74,200,17.26,2952.1,-15.23,2.8,9.92,250.85,44.254,1,6.569,245.4,-7,20086.01,315.68,48.982,-792.357,-91.563,0,0,0,270.01,0,0,0,0,0,0,0,0,0,0,0,0,0,1,1,6.6,FLYING
6.76,APPROACH,ILS_TRACK,181.65,200,18.35,2949.01,-15.54,2.77,9.8,250.69,43.425,1,10.217,245.4,-7,20076.89,314.8,48.94,-791.676,-90.887,0,0,0,270.01,0,0,0,0,0,0,0,0,0,0,0,0,0,1,1,6.8,FLYING
6.96,APPROACH,ILS_TRACK,180.59,200,19.41,2945.88,-15.92,2.81,9.86,250.39,42.755,1,14.078,245.4,-7,20067.54,313.84,48.899,-791.021,-90.32,0,0,0,270.01,0,0,0,0,0,0,0,0,0,0,0,0,0,1,1,7,FLYING
7.16,APPROACH,ILS_TRACK,179.53,200,20.47,2942.69,-16.22,2.93,10,250.04,41.488,1,18.151,245.4,-7,20057.98,312.82,48.857,-790.368,-89.796,0,0,0,270.01,0,0,0,0,0,0,0,0,0,0,0,0,0,1,1,7.2,FLYING
7.38,APPROACH,ILS_TRACK,178.39,200,21.61,2939.12,-16.52,3.04,10.08,249.74,40.185,1,20,245.4,-7,20047.21,311.62,48.813,-789.645,-89.091,0,0,0,270.01,0,0,0,0,0,0,0,0,0,0,0,0,0,1,1,7.42,FLYING
7.58,APPROACH,ILS_TRACK,177.37,200,22.63,2935.81,-16.74,3.11,10.14,249.46,39.781,1,20,245.4,-7,20037.19,310.44,48.772,-788.97,-88.441,0,0,0,270.01,0,0,0,0,0,0,0,0,0,0,0,0,0,1,1,7.62,FLYING
7.78,APPROACH,ILS_TRACK,176.35,200,23.65,2932.44,-16.97,3.13,10.19,249.16,39.456,1,20,245.4,-7,20026.98,309.2,48.732,-788.309,-87.774,0,0,0,270.01,0,0,0,0,0,0,0,0,0,0,0,0,0,1,1,7.82,FLYING
7.98,APPROACH,ILS_TRACK,175.35,200,24.65,2929.01,-17.19,3.09,10.16,248.9,38.851,1,20,245.4,-7,20016.56,307.88,48.692,-787.644,-87.076,0,0,0,270.01,0,0,0,0,0,0,0,0,0,0,0,0,0,1,1,8.02,FLYING
8.18,APPROACH,ILS_TRACK,174.37,200,25.63,2925.54,-17.47,3.09,10.19,248.62,38.068,1,20,245.4,-7,20005.96,306.49,48.652,-786.982,-86.406,0,0,0,270.01,0,0,0,0,0,0,0,0,0,0,0,0,0,1,1,8.22,FLYING
8.4,APPROACH,ILS_TRACK,173.3,200,26.7,2921.64,-17.72,2.99,10.05,248.45,36.095,1,20,245.4,-7,19994.07,304.88,48.609,-786.255,-85.593,0,0,0,270.01,0,0,0,0,0,0,0,0,0,0,0,0,0,1,1,8.44,FLYING
8.6,APPROACH,ILS_TRACK,172.36,200,27.64,2918.06,-18.02,2.99,10.01,248.33,33.789,1,20,245.4,-7,19983.08,303.35,48.57,-785.583,-84.894,0,0,0,270.01,0,0,0,0,0,0,0,0,0,0,0,0,0,1,1,8.64,FLYING
8.8,APPROACH,ILS_TRACK,171.43,200,28.57,2914.48,-18.26,3.17,10.12,248.2,31.706,1,20,245.4,-7,19971.92,301.8,48.531,-784.934,-84.356,0,0,0,270.01,0,0,0,0,0,0,0,0,0,0,0,0,0,1,1,8.84,FLYING
9,APPROACH,ILS_TRACK,170.51,200,29.49,2910.83,-18.33,3.2,10,248.23,29.366,1,20,245.4,-7,19960.62,300.19,48.492,-784.292,-83.605,0,0,0,270.01,0,0,0,0,0,0,0,0,0,0,0,0,0,1,1,9.04,FLYING
9.22,APPROACH,ILS_TRACK,169.52,200,30.48,2906.71,-18.45,2.97,9.62,248.42,26.221,1,20,245.4,-7,19948.02,298.29,48.45,-782.17,-81.908,0,0,0,270.01,0,0,0,0,0,0,0,0,0,0,0,0,0,2,2,9.26,FLYING
9.44,APPROACH,ILS_TRACK,168.58,200,31.42,2902.5,-18.6,2.52,8.92,248.81,22.879,1,20,245.4,-7,19935.27,296.3,48.408,-784.134,-82.227,0,0,0,270.01,0,0,0,0,0,0,0,0,0,0,0,0,0,2,2,9.48,FLYING
9.64,APPROACH,ILS_TRACK,167.77,200,32.23,2898.63,-18.85,2.1,8.38,249.15,20.401,1,20,245.4,-7,19923.58,294.41,48.371,-782.336,-80.783,0,0,0,270.01,0,0,0,0,0,0,0,0,0,0,0,0,0,2,2,9.68,FLYING
9.84,APPROACH,ILS_TRACK,166.99,200,33.01,2894.75,-19.18,1.82,8.08,249.39,19.381,1,20,245.4,-7,19911.84,292.5,48.333,-781.791,-80.087,0,0,0,270.01,0,0,0,0,0,0,0,0,0,0,0,0,0,2,2,9.88,FLYING
10.04,APPROACH,ILS_TRACK,166.22,200,33.78,2890.85,-19.52,1.76,8.03,249.52,18.202,1,20,245.4,-7,19900.04,290.56,48.296,-781.258,-79.434,0,0,0,270.01,0,0,0,0,0,0,0,0,0,0,0,0,0,2,2,10.08,FLYING
10.24,APPROACH,ILS_TRACK,165.46,200,34.54,2886.97,-19.88,1.97,8.26,249.58,16.273,1,20,245.4,-7,19888.21,288.62,48.259,-780.733,-78.822,0,0,0,270.01,0,0,0,0,0,0,0,0,0,0,0,0,0,2,2,10.28,FLYING
10.46,APPROACH,ILS_TRACK,164.61,200,35.39,2882.72,-20.19,2.53,8.86,249.57,14.429,1,20,245.4,-7,19875.15,286.49,48.218,-780.163,-78.217,0,0,0,270.01,0,0,0,0,0,0,0,0,0,0,0,0,0,2,2,10.5,FLYING
10.66,APPROACH,ILS_TRACK,163.81,200,36.19,2878.88,-20.29,3.25,9.6,249.5,13.931,1,20,245.4,-7,19863.24,284.58,48.181,-779.653,-77.7,0,0,0,270.01,0,0,0,0,0,0,0,0,0,0,0,0,0,2,2,10.7,FLYING
10.86,APPROACH,ILS_TRACK,162.97,200,37.03,2874.98,-20.15,3.76,10.09,249.39,15.19,1,20,245.4,-7,19851.32,282.61,48.145,-779.15,-76.926,0,0,0,270.01,0,0,0,0,0,0,0,0,0,0,0,0,0,2,2,10.9,FLYING
11.06,APPROACH,ILS_TRACK,162.09,200,37.91,2871.03,-20.02,3.96,10.26,249.21,18.109,1,20,245.4,-7,19839.38,280.57,48.108,-778.642,-75.987,0,0,0,270.01,0,0,0,0,0,0,0,0,0,0,0,0,0,2,2,11.1,FLYING
11.26,APPROACH,ILS_TRACK,161.2,200,38.8,2867.04,-19.99,4.01,10.36,248.85,21.08,1,20,245.4,-7,19827.4,278.48,48.072,-778.131,-75.182,0,0,0,270.01,0,0,0,0,0,0,0,0,0,0,0,0,0,2,2,11.3,FLYING
11.48,APPROACH,ILS_TRACK,160.23,200,39.77,2862.67,-20,4.1,10.59,248.23,23.343,1,20,245.4,-7,19814.19,276.17,48.033,-777.552,-74.458,0,0,0,270.01,0,0,0,0,0,0,0,0,0,0,0,0,0,2,2,11.52,FLYING
11.7,APPROACH,ILS_TRACK,159.26,200,40.74,2858.27,-19.99,4.08,10.73,247.64,24.05,1,20,245.4,-7,19800.9,273.82,47.994,-775.42,-72.758,0,0,0,270.01,0,0,0,0,0,0,0,0,0,0,0,0,0,3,3,11.74,FLYING
11.9,APPROACH,ILS_TRACK,158.38,200,41.62,2854.25,-20.03,4.02,10.87,247.02,24.35,1,20,245.4,-7,19788.72,271.66,47.958,-777.715,-73.62,0,0,0,270.01,0,0,0,0,0,0,0,0,0,0,0,0,0,3,3,11.94,FLYING
12.1,APPROACH,ILS_TRACK,157.5,200,42.5,2850.23,-20.05,3.98,10.97,246.51,24.382,1,20,245.4,-7,19776.46,269.48,47.923,-775.73,-72.129,0,0,0,270.01,0,0,0,0,0,0,0,0,0,0,0,0,0,3,3,12.14,FLYING
12.3,APPROACH,ILS_TRACK,156.62,200,43.38,2846.19,-20.07,3.86,10.96,246.12,24.387,1,20,245.4,-7,19764.11,267.26,47.889,-775.122,-71.321,0,0,0,270.01,0,0,0,0,0,0,0,0,0,0,0,0,0,3,3,12.34,FLYING
12.52,APPROACH,ILS_TRACK,155.66,200,44.34,2841.74,-20.16,3.8,10.99,245.75,24.283,1,20,245.4,-7,19750.41,264.8,47.851,-774.454,-70.499,0,0,0,270.01,0,0,0,0,0,0,0,0,0,0,0,0,0,3,3,12.56,FLYING
12.72,APPROACH,ILS_TRACK,154.78,200,45.22,2837.71,-20.27,3.88,11.14,245.42,23.818,1,20,245.4,-7,19737.88,262.57,47.816,-773.846,-69.844,0,0,0,270.01,0,0,0,0,0,0,0,0,0,0,0,0,0,3,3,12.76,FLYING
12.92,APPROACH,ILS_TRACK,153.9,200,46.1,2833.68,-20.28,3.96,11.24,245.21,22.717,1,20,245.4,-7,19725.25,260.33,47.782,-773.23,-69.148,0,0,0,270.01,0,0,0,0,0,0,0,0,0,0,0,0,0,3,3,12.96,FLYING
13.12,APPROACH,ILS_TRACK,153.04,200,46.96,2829.61,-20.27,3.9,11.16,245.14,21.557,1,20,245.4,-7,19712.55,258.04,47.748,-772.617,-68.247,0,0,0,270.01,0,0,0,0,0,0,0,0,0,0,0,0,0,3,3,13.16,FLYING
13.32,APPROACH,ILS_TRACK,152.2,200,47.8,2825.53,-20.32,3.8,11.05,245.09,21.211,1,20,245.4,-7,19699.76,255.72,47.715,-772.014,-67.408,0,0,0,270.01,0,0,0,0,0,0,0,0,0,0,0,0,0,3,3,13.36,FLYING
13.54,APPROACH,ILS_TRACK,151.3,200,48.7,2821.03,-20.44,3.77,11.03,244.99,20.608,1,20,245.4,-7,19685.64,253.14,47.678,-771.376,-66.569,0,0,0,270.01,0,0,0,0,0,0,0,0,0,0,0,0,0,3,3,13.58,FLYING
13.74,APPROACH,ILS_TRACK,150.49,200,49.51,2816.95,-20.56,3.86,11.13,244.87,19.314,1,20,245.4,-7,19672.75,250.79,47.645,-770.792,-65.846,0,0,0,270.01,0,0,0,0,0,0,0,0,0,0,0,0,0,3,3,13.78,FLYING
13.94,APPROACH,ILS_TRACK,149.68,200,50.32,2812.88,-20.68,4.07,11.35,244.79,17.423,1,20,245.4,-7,19659.8,248.44,47.612,-770.209,-65.138,0,0,0,270.01,0,0,0,0,0,0,0,0,0,0,0,0,0,3,3,13.98,FLYING
14.14,APPROACH,ILS_TRACK,148.88,200,51.12,2808.83,-20.72,4.37,11.62,244.77,15.283,1,20,245.4,-7,19646.81,246.1,47.58,-769.635,-64.447,0,0,0,270.01,0,0,0,0,0,0,0,0,0,0,0,0,0,3,3,14.18,FLYING
14.34,APPROACH,ILS_TRACK,148.08,200,51.92,2804.75,-20.72,4.61,11.8,244.83,12.976,1,20,245.4,-7,19633.78,243.73,47.547,-769.067,-63.635,0,0,0,270.01,0,0,0,0,0,0,0,0,0,0,0,0,0,3,3,14.38,FLYING
14.56,APPROACH,ILS_TRACK,147.2,200,52.8,2800.25,-20.68,4.79,11.9,245,9.821,1,20,245.4,-7,19619.43,241.09,47.512,-768.464,-62.733,0,0,0,270.01,0,0,0,0,0,0,0,0,0,0,0,0,0,3,3,14.6,FLYING
14.76,APPROACH,ILS_TRACK,146.41,200,53.59,2796.15,-20.65,4.9,11.92,245.25,6.52,1,20,245.4,-7,19606.38,238.66,47.48,-767.941,-61.91,0,0,0,270.01,0,0,0,0,0,0,0,0,0,0,0,0,0,3,3,14.8,FLYING
14.96,APPROACH,ILS_TRACK,145.63,200,54.37,2792.05,-20.63,4.98,11.94,245.55,4.441,1,20,245.4,-7,19593.33,236.23,47.448,-767.429,-61.125,0,0,0,270.01,0,0,0,0,0,0,0,0,0,0,0,0,0,3,3,15,FLYING
15.16,APPROACH,ILS_TRACK,144.86,200,55.14,2787.94,-20.61,5.02,11.98,245.87,4.235,1,20,245.4,-7,19580.32,233.78,47.416,-766.946,-60.321,0,0,0,270.01,0,0,0,0,0,0,0,0,0,0,0,0,0,3,3,15.2,FLYING
15.36,APPROACH,ILS_TRACK,144.09,200,55.91,2783.81,-20.6,4.99,11.99,246.12,5.864,1,20,245.4,-7,19567.35,231.3,47.385,-766.484,-59.489,0,0,0,270.01,0,0,0,0,0,0,0,0,0,0,0,0,0,3,3,15.4,FLYING
15.58,APPROACH,ILS_TRACK,143.24,200,56.76,2779.26,-20.65,4.96,11.99,246.25,8.819,1,20,245.4,-7,19553.14,228.55,47.351,-765.978,-58.582,0,0,0,270.01,0,0,0,0,0,0,0,0,0,0,0,0,0,3,3,15.62,FLYING
15.78,APPROACH,ILS_TRACK,142.5,200,57.5,2775.12,-20.71,4.92,11.98,246.19,11.028,1,20,245.4,-7,19540.27,226.04,47.319,-765.515,-57.755,0,0,0,270.01,0,0,0,0,0,0,0,0,0,0,0,0,0,3,3,15.82,FLYING
15.98,APPROACH,ILS_TRACK,141.76,200,58.24,2770.95,-20.79,4.85,11.98,245.95,12.474,1,20,245.4,-7,19527.42,223.49,47.289,-765.037,-56.866,0,0,0,270.01,0,0,0,0,0,0,0,0,0,0,0,0,0,3,3,16.02,FLYING
16.18,APPROACH,ILS_TRACK,141.04,200,58.96,2766.75,-20.89,4.73,11.98,245.58,12.94,1,20,245.4,-7,19514.58,220.91,47.258,-764.539,-55.929,0,0,0,270.01,0,0,0,0,0,0,0,0,0,0,0,0,0,3,3,16.22,FLYING
16.38,APPROACH,ILS_TRACK,140.35,200,59.65,2762.51,-21.04,4.58,11.99,245.18,12.976,1,20,245.4,-7,19501.76,218.28,47.227,-764.038,-54.963,0,0,0,270.01,0,0,0,0,0,0,0,0,0,0,0,0,0,3,3,16.42,FLYING
16.6,APPROACH,ILS_TRACK,139.6,200,60.4,2757.81,-21.23,4.43,11.99,244.81,12.766,1,20,245.4,-7,19487.64,215.34,47.194,-763.459,-53.91,0,0,0,270.01,0,0,0,0,0,0,0,0,0,0,0,0,0,3,3,16.64,FLYING
16.8,APPROACH,ILS_TRACK,138.93,200,61.07,2753.51,-21.42,4.3,11.99,244.55,12.386,1,20,245.4,-7,19474.79,212.62,47.164,-762.933,-52.915,0,0,0,270.01,0,0,0,0,0,0,0,0,0,0,0,0,0,3,3,16.84,FLYING
17,APPROACH,ILS_TRACK,138.27,200,61.73,2749.17,-21.61,4.19,11.99,244.39,11.767,1,20,245.4,-7,19461.92,209.86,47.134,-762.397,-51.915,0,0,0,270.01,0,0,0,0,0,0,0,0,0,0,0,0,0,3,3,17.04,FLYING
17.2,APPROACH,ILS_TRACK,137.61,200,62.39,2744.8,-21.81,4.1,11.98,244.35,10.356,1,20,245.4,-7,19449.05,207.06,47.104,-761.874,-50.898,0,0,0,270.01,0,0,0,0,0,0,0,0,0,0,0,0,0,3,3,17.24,FLYING
17.4,APPROACH,ILS_TRACK,136.96,200,63.04,2740.39,-22.01,4.03,11.96,244.44,7.83,1,20,245.4,-7,19436.17,204.21,47.075,-761.347,-49.868,0,0,0,270.01,0,0,0,0,0,0,0,0,0,0,0,0,0,3,3,17.44,FLYING
17.62,APPROACH,ILS_TRACK,136.26,200,63.74,2735.51,-22.24,3.99,11.95,244.66,3.792,1,20,245.4,-7,19422.01,201.03,47.042,-760.785,-48.75,0,0,0,270.01,0,0,0,0,0,0,0,0,0,0,0,0,0,3,3,17.66,FLYING
17.82,APPROACH,ILS_TRACK,135.64,200,64.36,2731.03,-22.44,3.96,11.93,244.98,0.118,1,20,245.4,-7,19409.16,198.09,47.013,-760.301,-47.68,0,0,0,270.01,0,0,0,0,0,0,0,0,0,0,0,0,0,3,3,17.86,FLYING
18.02,APPROACH,ILS_TRACK,135.04,200,64.96,2726.51,-22.65,3.92,11.93,245.38,-2.685,1,20,245.4,-7,19396.35,195.1,46.984,-759.841,-46.58,0,0,0,270.01,0,0,0,0,0,0,0,0,0,0,0,0,0,3,3,18.06,FLYING
18.22,APPROACH,ILS_TRACK,134.46,200,65.54,2721.94,-22.87,3.84,11.94,245.84,-4.699,1,20,245.4,-7,19383.59,192.06,46.955,-759.4,-45.431,0,0,0,270.01,0,0,0,0,0,0,0,0,0,0,0,0,0,3,3,18.26,FLYING
18.42,APPROACH,ILS_TRACK,133.89,200,66.11,2717.3,-23.11,3.73,11.96,246.29,-5.869,1,20,245.4,-7,19370.91,188.95,46.926,-758.983,-44.247,0,0,0,270.01,0,0,0,0,0,0,0,0,0,0,0,0,0,3,3,18.46,FLYING
18.64,APPROACH,ILS_TRACK,133.27,200,66.73,2712.14,-23.39,3.58,11.98,246.76,-6.413,1,20,245.4,-7,19357.06,185.45,46.894,-758.539,-42.933,0,0,0,270.01,0,0,0,0,0,0,0,0,0,0,0,0,0,3,3,18.68,FLYING
18.84,APPROACH,ILS_TRACK,132.73,200,67.27,2707.39,-23.67,3.42,11.98,247.15,-6.877,1,20,245.4,-7,19344.55,182.21,46.866,-758.149,-41.684,0,0,0,270.01,0,0,0,0,0,0,0,0,0,0,0,0,0,3,3,18.88,FLYING
19.04,APPROACH,ILS_TRACK,132.19,200,67.81,2702.57,-23.95,3.25,11.98,247.52,-7.356,1,20,245.4,-7,19332.13,178.9,46.837,-757.767,-40.434,0,0,0,270.01,0,0,0,0,0,0,0,0,0,0,0,0,0,3,3,19.08,FLYING
19.24,APPROACH,ILS_TRACK,131.67,200,68.33,2697.7,-24.26,3.07,11.98,247.86,-7.834,1,20,245.4,-7,19319.81,175.52,46.809,-757.388,-39.153,0,0,0,270.01,0,0,0,0,0,0,0,0,0,0,0,0,0,3,3,19.28,FLYING
19.44,APPROACH,ILS_TRACK,131.15,200,68.85,2692.76,-24.57,2.89,11.98,248.17,-8.321,1,20,245.4,-7,19307.58,172.08,46.781,-757.009,-37.85,0,0,0,270.01,0,0,0,0,0,0,0,0,0,0,0,0,0,3,3,19.48,FLYING
19.66,APPROACH,ILS_TRACK,130.6,200,69.4,2687.25,-24.93,2.69,11.98,248.49,-8.879,1,20,245.4,-7,19294.23,168.21,46.75,-756.602,-36.391,0,0,0,270.01,0,0,0,0,0,0,0,0,0,0,0,0,0,3,3,19.7,FLYING
19.86,APPROACH,ILS_TRACK,130.11,200,69.89,2682.17,-25.27,2.5,11.99,248.76,-9.414,1,20,245.4,-7,19282.19,164.62,46.722,-756.244,-35.006,0,0,0,270.01,0,0,0,0,0,0,0,0,0,0,0,0,0,3,3,19.9,FLYING
20.06,APPROACH,ILS_TRACK,129.64,200,70.36,2677.03,-25.62,2.31,11.99,249.01,-9.98,1,20,245.4,-7,19270.25,160.95,46.694,-755.882,-33.606,0,0,0,270.01,0,0,0,0,0,0,0,0,0,0,0,0,0,3,3,20.1,FLYING
20.26,APPROACH,ILS_TRACK,129.17,200,70.83,2671.8,-25.96,2.1,11.97,249.26,-10.629,1,20,245.4,-7,19258.41,157.2,46.666,-755.531,-32.168,0,0,0,270.01,0,0,0,0,0,0,0,0,0,0,0,0,0,3,3,20.3,FLYING
20.46,APPROACH,ILS_TRACK,128.71,200,71.29,2666.48,-26.3,1.77,11.83,249.5,-11.843,1,20,245.4,-7,19246.66,153.35,46.638,-755.183,-30.617,0,0,0,270.01,0,0,0,0,0,0,0,0,0,0,0,0,0,3,3,20.5,FLYING
20.68,APPROACH,ILS_TRACK,128.23,200,71.77,2660.52,-26.73,1.32,11.63,249.8,-13.4,1,20,245.4,-7,19233.85,149,46.608,-754.799,-28.882,0,0,0,270.01,0,0,0,0,0,0,0,0,0,0,0,0,0,3,3,20.72,FLYING
20.88,APPROACH,ILS_TRACK,127.81,200,72.19,2655,-27.15,0.89,11.43,250.09,-14.148,1,20,245.4,-7,19222.32,144.95,46.58,-754.471,-27.268,0,0,0,270.01,0,0,0,0,0,0,0,0,0,0,0,0,0,3,3,20.92,FLYING
21.08,APPROACH,ILS_TRACK,127.41,200,72.59,2649.37,-27.57,0.37,11.15,250.33,-14.916,1,20,245.4,-7,19210.89,140.79,46.553,-754.148,-25.587,0,0,0,270.01,0,0,0,0,0,0,0,0,0,0,0,0,0,3,3,21.12,FLYING
21.28,APPROACH,ILS_TRACK,127.03,200,72.97,2643.62,-28.03,-0.3,10.73,250.55,-16.357,1,20,245.4,-7,19199.57,136.49,46.525,-753.833,-23.777,0,0,0,270.01,0,0,0,0,0,0,0,0,0,0,0,0,0,3,3,21.32,FLYING
21.48,APPROACH,ILS_TRACK,126.68,200,73.32,2637.75,-28.59,-1,10.32,250.79,-17.858,1,20,245.4,-7,19188.36,132.08,46.498,-753.521,-21.956,0,0,0,270.01,0,0,0,0,0,0,0,0,0,0,0,0,0,3,3,21.52,FLYING
21.7,APPROACH,ILS_TRACK,126.33,200,73.67,2631.17,-29.28,-1.7,9.95,251.07,-18.423,1,20,245.4,-7,19176.15,127.09,46.468,-753.175,-20,0,0,0,270.01,0,0,0,0,0,0,0,0,0,0,0,0,0,3,3,21.74,FLYING
21.9,APPROACH,ILS_TRACK,126.02,200,73.98,2625.08,-29.94,-2.24,9.73,251.3,-17.63,1,20,245.4,-7,19165.17,122.45,46.441,-752.885,-18.16,0,0,0,270.01,0,0,0,0,0,0,0,0,0,0,0,0,0,3,3,21.94,FLYING
22.1,APPROACH,ILS_TRACK,125.73,200,74.27,2618.89,-30.61,-2.67,9.58,251.46,-15.667,1,20,245.4,-7,19154.32,117.7,46.414,-752.604,-16.311,0,0,0,270.01,0,0,0,0,0,0,0,0,0,0,0,0,0,3,3,22.14,FLYING
22.3,APPROACH,ILS_TRACK,125.45,200,74.55,2612.57,-31.25,-3.11,9.39,251.5,-13.558,1,20,245.4,-7,19143.57,112.82,46.387,-752.311,-14.341,0,0,0,270.01,0,0,0,0,0,0,0,0,0,0,0,0,0,3,3,22.34,FLYING
22.5,APPROACH,ILS_TRACK,125.2,200,74.8,2606.12,-31.93,-3.51,9.22,251.42,-12.556,1,20,245.4,-7,19132.93,107.82,46.36,-752.022,-12.328,0,0,0,270.01,0,0,0,0,0,0,0,0,0,0,0,0,0,3,3,22.54,FLYING
22.72,APPROACH,ILS_TRACK,124.95,200,75.05,2598.9,-32.68,-3.86,9.14,251.31,-13.084,1,20,245.4,-7,19121.34,102.17,46.33,-751.676,-10.133,0,0,0,270.01,0,0,0,0,0,0,0,0,0,0,0,0,0,3,3,22.76,FLYING
22.92,APPROACH,ILS_TRACK,124.73,200,75.27,2592.22,-33.37,-4.11,9.15,251.28,-14.871,1,20,245.4,-7,19110.88,96.92,46.303,-751.364,-8.056,0,0,0,270.01,0,0,0,0,0,0,0,0,0,0,0,0,0,3,3,22.96,FLYING
23.12,APPROACH,ILS_TRACK,124.52,200,75.48,2585.42,-34.08,-4.24,9.29,251.38,-17.156,1,20,245.4,-7,19100.5,91.55,46.276,-751.042,-5.99,0,0,0,270.01,0,0,0,0,0,0,0,0,0,0,0,0,0,3,3,23.16,FLYING
23.32,APPROACH,ILS_TRACK,124.32,200,75.68,2578.48,-34.7,-4.45,9.35,251.59,-19.7,1,20,245.4,-6.785,19090.2,86.04,46.25,-750.738,-3.785,0,0,0,270.01,0,0,0,0,0,0,0,0,0,0,0,0,0,3,3,23.36,FLYING
23.52,APPROACH,ILS_TRACK,124.13,200,75.87,2571.38,-35.36,-4.76,9.37,251.91,-21.573,1,20,245.4,-4.426,19079.99,80.37,46.223,-750.439,-1.426,0,0,0,270.01,0,0,0,0,0,0,0,0,0,0,0,0,0,3,3,23.56,FLYING
23.76,APPROACH,ILS_TRACK,123.91,200,76.09,2562.68,-36.2,-5.12,9.49,252.46,-21.936,1,20,245.4,-1.685,19067.87,73.37,46.191,-750.084,1.315,0,0,0,270.01,0,0,0,0,0,0,0,0,0,0,0,0,0,3,3,23.8,FLYING
23.96,APPROACH,ILS_TRACK,123.74,200,76.26,2555.29,-36.92,-5.37,9.67,252.94,-20.662,1,20,245.4,0,19057.88,67.4,46.165,-749.836,3.689,0,0,0,270.01,0,0,0,0,0,0,0,0,0,0,0,0,0,3,3,24,FLYING
24.16,APPROACH,ILS_TRACK,123.57,200,76.43,2547.78,-37.62,-5.52,9.9,253.39,-18.165,1,20,245.4,0,19048.01,61.3,46.138,-749.58,6.003,0,0,0,270.01,0,0,0,0,0,0,0,0,0,0,0,0,0,3,3,24.2,FLYING
24.36,APPROACH,ILS_TRACK,123.4,200,76.6,2540.17,-38.29,-5.55,10.17,253.75,-14.966,1,20,245.4,0,19038.26,55.09,46.112,-749.337,8.303,0,0,0,270.01,0,0,0,0,0,0,0,0,0,0,0,0,0,3,3,24.4,FLYING
24.56,APPROACH,ILS_TRACK,123.23,200,76.77,2532.47,-38.94,-5.44,10.52,254,-12.281,1,20,245.4,0,19028.61,48.79,46.085,-749.088,10.579,0,0,0,270.01,0,0,0,0,0,0,0,0,0,0,0,0,0,3,3,24.6,FLYING
24.8,APPROACH,ILS_TRACK,123.03,200,76.97,2523.12,-39.64,-5.11,11.08,254.13,-9.932,1,20,245.4,0,19017.17,41.11,46.054,-748.768,13.243,0,0,0,270.01,0,0,0,0,0,0,0,0,0,0,0,0,0,3,3,24.84,FLYING
25,APPROACH,ILS_TRACK,122.85,200,77.15,2515.2,-40.11,-4.91,11.44,254.05,-8.81,1,20,245.4,0,19007.74,34.6,46.027,-748.52,15.687,0,0,0,270.01,0,0,0,0,0,0,0,0,0,0,0,0,0,3,3,25.04,FLYING
25.2,APPROACH,ILS_TRACK,122.72,200,77.28,2507.15,-40.57,-4.81,11.69,253.86,-8.386,1,20,245.4,0,18998.39,27.95,46.001,-748.246,18.194,0,0,0,270.01,0,0,0,0,0,0,0,0,0,0,0,0,0,3,3,25.24,FLYING
25.4,APPROACH,ILS_TRACK,122.67,200,77.33,2498.99,-41.03,-4.81,11.84,253.63,-8.092,1,20,245.4,0,18989.11,21.19,45.975,-747.968,20.71,0,0,0,270.01,0,0,0,0,0,0,0,0,0,0,0,0,0,3,3,25.44,FLYING
25.6,APPROACH,ILS_TRACK,122.67,200,77.33,2490.72,-41.49,-4.89,11.92,253.41,-7.827,1,20,245.4,0,18979.88,14.3,45.949,-747.658,23.244,0,0,0,270.01,0,0,0,0,0,0,0,0,0,0,0,0,0,3,3,25.64,FLYING
25.84,APPROACH,ILS_TRACK,122.77,200,77.23,2480.64,-42.06,-5.04,11.95,253.18,-7.539,1,20,245.4,0,18968.87,5.9,45.918,-747.282,26.25,0,0,0,270.01,0,0,0,0,0,0,0,0,0,0,0,0,0,3,3,25.88,FLYING
26.04,APPROACH,ILS_TRACK,122.91,200,77.09,2472.13,-42.56,-5.18,11.95,252.99,-7.307,1,20,245.4,0,18959.73,-1.22,45.891,-746.971,28.84,0,0,0,270.01,0,0,0,0,0,0,0,0,0,0,0,0,0,3,3,26.08,FLYING
26.24,APPROACH,ILS_TRACK,123.11,200,76.89,2463.52,-43.03,-5.34,11.95,252.87,-7.076,1,20,245.4,0,18950.63,-8.44,45.865,-746.646,31.399,0,0,0,270.01,0,0,0,0,0,0,0,0,0,0,0,0,0,3,3,26.28,FLYING
26.44,APPROACH,ILS_TRACK,123.38,200,76.62,2454.82,-43.54,-5.48,11.96,252.79,-6.842,1,20,245.4,0,18941.55,-15.75,45.839,-746.311,33.992,0,0,0,270.01,0,0,0,0,0,0,0,0,0,0,0,0,0,3,3,26.48,FLYING
26.64,APPROACH,ILS_TRACK,123.69,200,76.31,2446.01,-44.06,-5.63,11.97,252.76,-6.598,1,20,245.4,0,18932.48,-23.17,45.813,-745.973,36.616,0,0,0,270.01,0,0,0,0,0,0,0,0,0,0,0,0,0,3,3,26.68,FLYING
26.88,APPROACH,ILS_TRACK,124.14,200,75.86,2435.31,-44.66,-5.8,11.97,252.74,-6.294,1,20,245.4,0,18921.63,-32.2,45.781,-745.561,39.744,0,0,0,270.01,0,0,0,0,0,0,0,0,0,0,0,0,0,3,3,26.92,FLYING
27.08,APPROACH,ILS_TRACK,124.57,200,75.43,2426.28,-45.16,-5.94,11.98,252.74,-6.029,1,20,245.4,0,18912.6,-39.82,45.755,-745.219,42.445,0,0,0,270.01,0,0,0,0,0,0,0,0,0,0,0,0,0,3,3,27.12,FLYING
27.28,APPROACH,ILS_TRACK,125.05,200,74.95,2417.16,-45.64,-6.07,11.98,252.74,-5.754,1,20,245.4,0,18903.59,-47.54,45.729,-744.873,45.139,0,0,0,270.01,0,0,0,0,0,0,0,0,0,0,0,0,0,3,3,27.32,FLYING
27.48,APPROACH,ILS_TRACK,125.58,200,74.42,2407.94,-46.14,-6.2,11.98,252.74,-5.47,1,20,245.4,0,18894.58,-55.35,45.702,-744.517,47.861,0,0,0,270.01,0,0,0,0,0,0,0,0,0,0,0,0,0,3,3,27.52,FLYING
27.68,APPROACH,ILS_TRACK,126.15,200,73.85,2398.62,-46.62,-6.32,11.97,252.74,-5.181,1,20,245.4,0,18885.56,-63.26,45.676,-744.157,50.6,0,0,0,270.01,0,0,0,0,0,0,0,0,0,0,0,0,0,3,3,27.72,FLYING
27.92,APPROACH,ILS_TRACK,126.89,200,73.11,2387.32,-47.22,-6.44,11.98,252.73,-4.829,1,20,245.4,0,18874.75,-72.87,45.644,-743.725,53.879,0,0,0,270.01,0,0,0,0,0,0,0,0,0,0,0,0,0,3,3,27.96,FLYING
28.12,APPROACH,ILS_TRACK,127.54,200,72.46,2377.79,-47.67,-6.55,11.97,252.72,-4.533,1,20,245.4,0,18865.73,-80.96,45.617,-743.355,56.684,0,0,0,270.01,0,0,0,0,0,0,0,0,0,0,0,0,0,3,3,28.16,FLYING
28.32,APPROACH,ILS_TRACK,128.24,200,71.76,2368.18,-48.14,-6.64,11.97,252.71,-4.234,1,20,245.4,0,18856.7,-89.15,45.59,-742.977,59.494,0,0,0,270.01,0,0,0,0,0,0,0,0,0,0,0,0,0,3,3,28.36,FLYING
28.52,APPROACH,ILS_TRACK,128.97,200,71.03,2358.47,-48.61,-6.72,11.97,252.7,-3.933,1,20,245.4,0,18847.65,-97.42,45.563,-742.601,62.313,0,0,0,270.01,0,0,0,0,0,0,0,0,0,0,0,0,0,3,3,28.56,FLYING
28.72,APPROACH,ILS_TRACK,129.74,200,70.26,2348.68,-49.07,-6.81,11.96,252.67,-3.631,1,20,245.4,0,18838.59,-105.78,45.536,-742.213,65.145,0,0,0,270.01,0,0,0,0,0,0,0,0,0,0,0,0,0,3,3,28.76,FLYING
28.96,APPROACH,ILS_TRACK,130.7,200,69.3,2336.81,-49.56,-6.89,11.94,252.64,-3.268,1,20,245.4,0,18827.68,-115.9,45.503,-741.744,68.519,0,0,0,270.01,0,0,0,0,0,0,0,0,0,0,0,0,0,3,3,29,FLYING
29.16,APPROACH,ILS_TRACK,131.53,200,68.47,2326.84,-49.99,-6.95,11.94,252.62,-2.964,1,20,245.4,0,18818.56,-124.42,45.475,-741.347,71.41,0,0,0,270.01,0,0,0,0,0,0,0,0,0,0,0,0,0,3,3,29.2,FLYING
29.36,APPROACH,ILS_TRACK,132.38,200,67.62,2316.78,-50.42,-6.99,11.94,252.59,-2.66,1,20,245.4,0,18809.42,-133.01,45.448,-740.943,74.278,0,0,0,270.01,0,0,0,0,0,0,0,0,0,0,0,0,0,3,3,29.4,FLYING
29.56,APPROACH,ILS_TRACK,133.27,200,66.73,2306.64,-50.78,-7.06,11.9,252.55,-2.359,1,20,245.4,0,18800.23,-141.68,45.42,-740.53,77.161,0,0,0,270.01,0,0,0,0,0,0,0,0,0,0,0,0,0,3,3,29.6,FLYING
29.76,APPROACH,ILS_TRACK,134.17,200,65.83,2296.44,-51.12,-7.1,11.88,252.51,-2.061,1,20,245.4,0,18791.02,-150.4,45.392,-740.119,80.021,0,0,0,270.01,0,0,0,0,0,0,0,0,0,0,0,0,0,3,3,29.8,FLYING
30,APPROACH,ILS_TRACK,135.29,200,64.71,2284.09,-51.53,-7.13,11.86,252.46,-1.705,1,20,245.4,0,18779.9,-160.96,45.358,-739.619,83.466,0,0,0,270.01,0,0,0,0,0,0,0,0,0,0,0,0,0,3,3,30.04,FLYING
30.2,APPROACH,ILS_TRACK,136.25,200,63.75,2273.74,-51.95,-7.14,11.87,252.42,-1.391,1,20,245.4,0,18770.59,-169.82,45.33,-739.184,86.407,0,0,0,270.01,0,0,0,0,0,0,0,0,0,0,0,0,0,3,3,30.24,FLYING
30.4,APPROACH,ILS_TRACK,137.23,200,62.77,2263.31,-52.25,-7.16,11.85,252.36,-1.078,1,20,245.4,0,18761.23,-178.74,45.301,-738.748,89.277,0,0,0,270.01,0,0,0,0,0,0,0,0,0,0,0,0,0,3,3,30.44,FLYING
30.6,APPROACH,ILS_TRACK,138.23,200,61.77,2252.83,-52.52,-7.16,11.82,252.31,-0.774,1,20,245.4,0,18751.82,-187.7,45.273,-738.31,92.158,0,0,0,270.01,0,0,0,0,0,0,0,0,0,0,0,0,0,3,3,30.64,FLYING
30.8,APPROACH,ILS_TRACK,139.25,200,60.75,2242.3,-52.78,-7.15,11.81,252.25,-0.479,1,20,245.4,0,18742.35,-196.71,45.244,-737.861,95.05,0,0,0,270.01,0,0,0,0,0,0,0,0,0,0,0,0,0,3,3,30.84,FLYING
31.04,APPROACH,ILS_TRACK,140.5,200,59.5,2229.59,-53.09,-7.14,11.78,252.18,-0.132,1,20,245.4,0,18730.91,-207.58,45.209,-737.323,98.502,0,0,0,270.01,0,0,0,0,0,0,0,0,0,0,0,0,0,3,3,31.08,FLYING
31.24,APPROACH,ILS_TRACK,141.55,200,58.45,2218.95,-53.34,-7.1,11.78,252.12,0.146,1,20,245.4,0,18721.32,-216.67,45.179,-736.853,101.394,0,0,0,270.01,0,0,0,0,0,0,0,0,0,0,0,0,0,3,3,31.28,FLYING
31.44,APPROACH,ILS_TRACK,142.63,200,57.37,2208.26,-53.59,-7.07,11.77,252.05,0.423,1,20,245.4,0,18711.65,-225.81,45.15,-736.385,104.275,0,0,0,270.01,0,0,0,0,0,0,0,0,0,0,0,0,0,3,3,31.48,FLYING
31.64,APPROACH,ILS_TRACK,143.72,200,56.28,2197.54,-53.79,-7.02,11.77,251.99,0.693,1,20,245.4,0,18701.91,-234.97,45.12,-735.907,107.12,0,0,0,270.01,0,0,0,0,0,0,0,0,0,0,0,0,0,3,3,31.68,FLYING
31.84,APPROACH,ILS_TRACK,144.82,200,55.18,2186.78,-53.96,-6.96,11.75,251.92,0.959,1,20,245.4,0,18692.11,-244.15,45.09,-735.424,109.968,0,0,0,270.01,0,0,0,0,0,0,0,0,0,0,0,0,0,3,3,31.88,FLYING
32.08,APPROACH,ILS_TRACK,146.16,200,53.84,2173.84,-54.11,-6.89,11.73,251.83,1.27,1,20,245.4,0,18680.24,-255.19,45.054,-734.848,113.361,0,0,0,270.01,0,0,0,0,0,0,0,0,0,0,0,0,0,3,3,32.12,FLYING
32.28,APPROACH,ILS_TRACK,147.29,200,52.71,2163.03,-54.23,-6.82,11.71,251.76,1.525,1,20,245.4,0,18670.26,-264.4,45.024,-734.334,116.189,0,0,0,270.01,0,0,0,0,0,0,0,0,0,0,0,0,0,3,3,32.32,FLYING
32.48,APPROACH,ILS_TRACK,148.44,200,51.56,2152.2,-54.32,-6.74,11.69,251.68,1.774,1,20,245.4,0,18660.19,-273.63,44.993,-733.829,118.977,0,0,0,270.01,0,0,0,0,0,0,0,0,0,0,0,0,0,3,3,32.52,FLYING
32.68,APPROACH,ILS_TRACK,149.59,200,50.41,2141.35,-54.4,-6.65,11.68,251.61,2.02,1,20,245.4,0,18650.05,-282.85,44.962,-733.316,121.758,0,0,0,270.01,0,0,0,0,0,0,0,0,0,0,0,0,0,3,3,32.72,FLYING
32.88,APPROACH,ILS_TRACK,150.76,200,49.24,2130.5,-54.43,-6.56,11.66,251.53,2.261,1,20,245.4,0,18639.81,-292.08,44.931,-732.797,124.516,0,0,0,270.01,0,0,0,0,0,0,0,0,0,0,0,0,0,3,3,32.92,FLYING
33.12,APPROACH,ILS_TRACK,152.16,200,47.84,2117.48,-54.39,-6.44,11.62,251.42,2.541,1,20,245.4,0,18627.4,-303.13,44.894,-732.172,127.776,0,0,0,270.01,0,0,0,0,0,0,0,0,0,0,0,0,0,3,3,33.16,FLYING
33.32,APPROACH,ILS_TRACK,153.35,200,46.65,2106.63,-54.36,-6.32,11.61,251.34,2.77,1,20,245.4,0,18616.95,-312.32,44.862,-731.619,130.475,0,0,0,270.01,0,0,0,0,0,0,0,0,0,0,0,0,0,3,3,33.36,FLYING
33.52,APPROACH,ILS_TRACK,154.54,200,45.46,2095.79,-54.32,-6.21,11.59,251.25,2.995,1,20,245.4,0,18606.41,-321.5,44.83,-731.077,133.159,0,0,0,270.01,0,0,0,0,0,0,0,0,0,0,0,0,0,3,3,33.56,FLYING
33.72,APPROACH,ILS_TRACK,155.73,200,44.27,2084.97,-54.28,-6.06,11.6,251.16,3.217,1,20,245.4,0,18595.77,-330.65,44.798,-730.523,135.787,0,0,0,270.01,0,0,0,0,0,0,0,0,0,0,0,0,0,3,3,33.76,FLYING
33.92,APPROACH,ILS_TRACK,156.93,200,43.07,2074.17,-54.2,-5.92,11.58,251.07,3.438,1,20,245.4,0,18585.01,-339.76,44.766,-729.961,138.399,0,0,0,270.01,0,0,0,0,0,0,0,0,0,0,0,0,0,3,3,33.96,FLYING
34.16,APPROACH,ILS_TRACK,158.37,200,41.63,2061.25,-54.01,-5.75,11.56,250.95,3.693,1,20,245.4,0,18571.97,-350.65,44.727,-729.288,141.486,0,0,0,270.01,0,0,0,0,0,0,0,0,0,0,0,0,0,3,3,34.2,FLYING
34.36,APPROACH,ILS_TRACK,159.58,200,40.42,2050.51,-53.81,-5.62,11.51,250.86,3.9,1,20,245.4,0,18560.98,-359.68,44.694,-728.699,143.998,0,0,0,270.01,0,0,0,0,0,0,0,0,0,0,0,0,0,3,3,34.4,FLYING
34.58,APPROACH,ILS_TRACK,160.92,200,39.08,2038.78,-53.63,-5.34,11.62,250.75,4.154,1,20,245.4,0,18548.75,-369.52,44.658,-726.671,150.249,0,0,0,270.01,0,0,0,0,0,0,0,0,0,0,0,0,0,2,2,34.62,FLYING
34.78,APPROACH,ILS_TRACK,162.13,200,37.87,2028.16,-53.28,-5.08,11.66,250.62,4.387,1,20,245.4,0,18537.52,-378.41,44.625,-728.733,145.829,0,0,0,270.01,0,0,0,0,0,0,0,0,0,0,0,0,0,2,2,34.82,FLYING
34.98,APPROACH,ILS_TRACK,163.35,200,36.65,2017.57,-52.97,-5,11.55,250.52,4.589,1,20,245.4,0,18526.16,-387.25,44.591,-726.85,151.55,0,0,0,270.01,0,0,0,0,0,0,0,0,0,0,0,0,0,2,2,35.02,FLYING
35.2,APPROACH,ILS_TRACK,164.71,200,35.29,2006,-52.74,-4.8,11.56,250.4,4.774,1,20,245.4,0,18513.52,-396.9,44.554,-726.179,154.147,0,0,0,270.01,0,0,0,0,0,0,0,0,0,0,0,0,0,2,2,35.24,FLYING
35.4,APPROACH,ILS_TRACK,165.96,200,34.04,1995.57,-52.45,-4.49,11.67,250.29,4.968,1,20,245.4,0,18501.9,-405.56,44.52,-725.55,156.338,0,0,0,270.01,0,0,0,0,0,0,0,0,0,0,0,0,0,2,2,35.44,FLYING
35.6,APPROACH,ILS_TRACK,167.2,200,32.8,1985.2,-52.02,-4.19,11.73,250.17,5.168,1,20,245.4,0,18490.15,-414.15,44.486,-724.915,158.575,0,0,0,270.01,0,0,0,0,0,0,0,0,0,0,0,0,0,2,2,35.64,FLYING
35.8,APPROACH,ILS_TRACK,168.43,200,31.57,1974.85,-51.47,-4.26,11.4,250.08,5.301,1,20,245.4,0,18478.26,-422.7,44.452,-724.266,161.002,0,0,0,270.01,0,0,0,0,0,0,0,0,0,0,0,0,0,2,2,35.84,FLYING
36,APPROACH,ILS_TRACK,169.71,200,30.29,1964.58,-51.37,-4.22,11.31,249.99,5.466,1,20,245.4,0,18466.23,-431.17,44.417,-723.614,163.265,0,0,0,270.01,0,0,0,0,0,0,0,0,0,0,0,0,0,2,2,36.04,FLYING
36.24,APPROACH,ILS_TRACK,171.27,200,28.73,1952.46,-51.01,-3.6,11.67,249.82,5.751,1,20,245.4,0,18451.62,-441.13,44.375,-721.467,168.537,0,0,0,270.01,0,0,0,0,0,0,0,0,0,0,0,0,0,1,1,36.28,FLYING
36.44,APPROACH,ILS_TRACK,172.54,200,27.46,1942.43,-50.43,-3.21,11.82,249.66,5.926,1,20,245.4,0,18439.3,-449.32,44.34,-723.566,164.571,0,0,0,270.01,0,0,0,0,0,0,0,0,0,0,0,0,0,1,1,36.48,FLYING
36.64,APPROACH,ILS_TRACK,173.79,200,26.21,1932.45,-49.74,-3.15,11.58,249.57,5.991,1,20,245.4,0,18426.81,-457.45,44.304,-721.47,169.764,0,0,0,270.01,0,0,0,0,0,0,0,0,0,0,0,0,0,1,1,36.68,FLYING
36.84,APPROACH,ILS_TRACK,175.08,200,24.92,1922.56,-49.49,-3.03,11.52,249.49,5.977,1,20,245.4,0,18414.18,-465.49,44.269,-720.777,171.824,0,0,0,270.01,0,0,0,0,0,0,0,0,0,0,0,0,0,1,1,36.88,FLYING
37.04,APPROACH,ILS_TRACK,176.39,200,23.61,1912.81,-48.8,-2.73,11.52,249.42,5.897,1,20,245.4,0,18401.4,-473.37,44.233,-720.079,173.526,0,0,0,270.01,0,0,0,0,0,0,0,0,0,0,0,0,0,1,1,37.08,FLYING
37.26,APPROACH,ILS_TRACK,177.81,200,22.19,1902.17,-48.39,-2.64,11.4,249.32,6.096,1,20,245.4,0,18387.17,-481.96,44.193,-719.314,175.815,0,0,0,270.01,0,0,0,0,0,0,0,0,0,0,0,0,0,1,1,37.3,FLYING
37.46,APPROACH,ILS_TRACK,179.16,200,20.84,1892.67,-47.95,-2.15,11.68,249.16,6.337,1,20,245.4,0,18374.08,-489.58,44.156,-718.6,177.348,0,0,0,270.01,0,0,0,0,0,0,0,0,0,0,0,0,0,1,1,37.5,FLYING
37.66,APPROACH,ILS_TRACK,180.47,200,19.53,1883.29,-47.19,-1.68,11.84,248.99,6.562,1,20,245.4,0,18360.84,-497.05,44.12,-717.883,179.009,0,0,0,270.01,0,0,0,0,0,0,0,0,0,0,0,0,0,1,1,37.7,FLYING
37.86,APPROACH,ILS_TRACK,181.74,200,18.26,1873.97,-46.39,-1.64,11.58,248.89,6.649,1,20,245.4,0,18347.43,-504.45,44.083,-717.133,180.93,0,0,0,270.01,0,0,0,0,0,0,0,0,0,0,0,0,0,1,1,37.9,FLYING
38.06,APPROACH,ILS_TRACK,183.06,200,16.94,1864.76,-45.83,-1.6,11.37,248.81,6.694,1,20,245.4,0,18333.85,-511.73,44.045,-716.384,182.648,0,0,0,270.01,0,0,0,0,0,0,0,0,0,0,0,0,0,1,1,38.1,FLYING
38.28,APPROACH,ILS_TRACK,184.56,200,15.44,1854.85,-45.35,-1.17,11.58,248.66,6.798,1,20,245.4,0,18318.73,-519.53,44.004,-715.57,184.199,0,0,0,270.01,0,0,0,0,0,0,0,0,0,0,0,0,0,1,1,38.32,FLYING
38.48,APPROACH,ILS_TRACK,185.9,200,14.1,1846.01,-44.55,-0.7,11.75,248.51,6.956,1,20,245.4,0,18304.82,-526.42,43.967,-714.804,185.499,0,0,0,270.01,0,0,0,0,0,0,0,0,0,0,0,0,0,1,1,38.52,FLYING
38.68,APPROACH,ILS_TRACK,187.21,200,12.79,1837.27,-43.66,-0.44,11.69,248.39,7.059,0.9504,20,245.4,0,18290.74,-533.19,43.929,-714.024,187.02,0,0,0,270.01,0,0,0,0,0,0,0,0,0,0,0,0,0,1,1,38.72,FLYING
38.88,APPROACH,ILS_TRACK,188.53,200,11.47,1828.65,-42.89,-0.38,11.46,248.3,7.118,0.8779,20,245.4,0,18276.48,-539.83,43.89,-713.235,188.527,0,0,0,270.01,0,0,0,0,0,0,0,0,0,0,0,0,0,1,1,38.92,FLYING
39.08,APPROACH,ILS_TRACK,189.89,200,10.11,1820.23,-42.27,-0.04,11.55,248.18,7.169,0.8033,20,245.4,0,18262.05,-546.28,43.852,-712.446,189.676,0,0,0,270.01,0,0,0,0,0,0,0,0,0,0,0,0,0,1,1,39.12,FLYING
39.3,APPROACH,ILS_TRACK,191.35,200,8.65,1811.14,-41.39,0.27,11.55,248.04,7.291,0.7232,20,245.4,0,18245.98,-553.17,43.809,-711.579,191.007,0,0,0,270.01,0,0,0,0,0,0,0,0,0,0,0,0,0,1,1,39.34,FLYING
39.5,APPROACH,ILS_TRACK,192.66,200,7.34,1803.1,-40.49,0.82,11.81,247.87,7.437,0.6508,20,245.4,0,18231.2,-559.2,43.77,-710.77,191.898,0,0,0,270.01,0,0,0,0,0,0,0,0,0,0,0,0,0,1,1,39.54,FLYING
39.7,APPROACH,ILS_TRACK,193.85,200,6.15,1795.15,-39.28,0.88,11.48,247.79,7.489,0.5846,20,245.4,0,18216.24,-565.11,43.731,-709.952,193.158,0,0,0,270.01,0,0,0,0,0,0,0,0,0,0,0,0,0,1,1,39.74,FLYING
39.9,APPROACH,ILS_TRACK,195.05,200,4.95,1787.32,-38.62,0.67,11.04,247.74,7.507,0.5192,20,245.4,0,18201.1,-570.91,43.692,-709.12,194.485,0,0,0,270.01,0,0,0,0,0,0,0,0,0,0,0,0,0,1,1,39.94,FLYING
40.1,APPROACH,ILS_TRACK,196.28,200,3.72,1779.75,-38.24,1.06,11.27,247.59,7.628,0.4511,20,245.4,0,18185.81,-576.46,43.652,-708.314,195.151,0,0,0,270.01,0,0,0,0,0,0,0,0,0,0,0,0,0,1,1,40.14,FLYING
40.32,APPROACH,ILS_TRACK,197.53,200,2.47,1771.7,-37.1,1.88,11.75,247.37,7.806,0.3817,20,245.4,0,18168.81,-582.25,43.608,-707.435,195.729,0,0,0,270.01,0,0,0,0,0,0,0,0,0,0,0,0,0,1,1,40.36,FLYING
40.52,APPROACH,ILS_TRACK,198.52,200,1.48,1764.54,-36.01,2.33,11.88,247.21,7.902,0.3267,20,245.4,0,18153.18,-587.36,43.568,-706.601,196.611,0,0,0,270.01,0,0,0,0,0,0,0,0,0,0,0,0,0,1,1,40.56,FLYING
40.72,APPROACH,ILS_TRACK,199.43,200,0.57,1757.53,-34.89,2.58,11.8,247.11,7.871,0.2762,20,245.4,0,18137.4,-592.29,43.528,-705.759,197.411,0,0,0,270.01,0,0,0,0,0,0,0,0,0,0,0,0,0,1,1,40.76,FLYING
40.92,APPROACH,ILS_TRACK,200.27,200,-0.27,1750.72,-33.97,2.79,11.73,247.02,7.792,0.2293,19.963,245.4,0,18121.46,-597.03,43.488,-704.935,198.083,0,0,0,270.01,0,0,0,0,0,0,0,0,0,0,0,0,0,1,1,40.96,FLYING
41.12,APPROACH,ILS_TRACK,201.03,200,-1.03,1744.12,-32.86,3.04,11.66,246.94,7.699,0.1844,19.771,245.4,0,18105.37,-601.55,43.447,-704.112,198.541,0,0,0,270.01,0,0,0,0,0,0,0,0,0,0,0,0,0,1,1,41.16,FLYING
41.34,APPROACH,ILS_TRACK,201.76,200,-1.76,1737.07,-31.75,3.27,11.58,246.86,7.593,0.1393,19.397,245.4,0,18087.53,-606.3,43.403,-703.227,199.15,0,0,0,270.01,0,0,0,0,0,0,0,0,0,0,0,0,0,1,1,41.38,FLYING
41.54,APPROACH,ILS_TRACK,202.32,200,-2.32,1730.85,-30.87,3.33,11.38,246.8,7.508,0.1028,18.944,245.4,0,18071.18,-610.43,43.362,-702.405,199.684,0,0,0,270.01,0,0,0,0,0,0,0,0,0,0,0,0,0,1,1,41.58,FLYING
41.74,APPROACH,ILS_TRACK,202.82,200,-2.82,1724.89,-30.03,3.79,11.62,246.68,7.452,0.0678,18.388,245.4,0,18054.72,-614.31,43.321,-701.612,199.798,0,0,0,270.01,0,0,0,0,0,0,0,0,0,0,0,0,0,1,1,41.78,FLYING
41.94,APPROACH,ILS_TRACK,203.19,200,-3.19,1719.13,-28.9,4.22,11.75,246.56,7.441,0.0394,17.757,245.4,0,18038.15,-617.97,43.28,-700.814,200.016,0,0,0,270.01,0,0,0,0,0,0,0,0,0,0,0,0,0,1,1,41.98,FLYING
42.14,APPROACH,ILS_TRACK,203.43,200,-3.43,1713.56,-27.83,4.54,11.78,246.46,7.424,0.0172,17.074,245.4,0,18021.48,-621.44,43.24,-700.022,200.32,0,0,0,270.01,0,0,0,0,0,0,0,0,0,0,0,0,0,1,1,42.18,FLYING
42.36,APPROACH,ILS_TRACK,203.58,200,-3.58,1707.66,-26.65,4.83,11.77,246.36,7.374,0,16.288,245.4,0,18003.04,-625.02,43.195,-699.166,200.547,0,0,0,270.01,0,0,0,0,0,0,0,0,0,0,0,0,0,1,1,42.4,FLYING
42.56,APPROACH,ILS_TRACK,203.61,200,-3.61,1702.52,-25.57,5.05,11.72,246.28,7.307,0,15.564,245.4,0,17986.19,-628.07,43.154,-698.383,200.602,0,0,0,270.01,0,0,0,0,0,0,0,0,0,0,0,0,0,1,1,42.6,FLYING
42.76,APPROACH,ILS_TRACK,203.54,200,-3.54,1697.59,-24.53,5.29,11.69,246.2,7.23,0,14.854,245.4,0,17969.27,-630.91,43.113,-697.62,200.629,0,0,0,270.01,0,0,0,0,0,0,0,0,0,0,0,0,0,1,1,42.8,FLYING
42.96,APPROACH,ILS_TRACK,203.36,200,-3.36,1692.85,-23.42,5.46,11.57,246.13,7.134,0,14.177,245.4,0,17952.28,-633.55,43.072,-696.862,200.617,0,0,0,270.01,0,0,0,0,0,0,0,0,0,0,0,0,0,1,1,43,FLYING
43.16,APPROACH,ILS_TRACK,203.09,200,-3.09,1688.27,-22.49,5.45,11.33,246.09,7.02,0,13.553,245.4,0,17935.24,-636.03,43.032,-696.104,200.739,0,0,0,270.01,0,0,0,0,0,0,0,0,0,0,0,0,0,1,1,43.2,FLYING
43.38,APPROACH,ILS_TRACK,202.74,200,-2.74,1683.54,-21.65,5.88,11.55,245.99,6.914,0.0028,12.943,245.4,0,17916.45,-638.48,42.987,-695.308,200.458,0,0,0,270.01,0,0,0,0,0,0,0,0,0,0,0,0,0,1,1,43.42,FLYING
43.58,APPROACH,ILS_TRACK,202.31,200,-2.31,1679.46,-20.59,6.33,11.75,245.88,6.867,0.0202,12.472,245.4,0,17899.33,-640.47,42.947,-694.573,200.113,0,0,0,270.01,0,0,0,0,0,0,0,0,0,0,0,0,0,1,1,43.62,FLYING
43.78,APPROACH,ILS_TRACK,201.78,200,-1.78,1675.55,-19.55,6.66,11.81,245.79,6.817,0.0443,12.105,245.4,0,17882.18,-642.3,42.906,-693.855,200.004,0,0,0,270.01,0,0,0,0,0,0,0,0,0,0,0,0,0,1,1,43.82,FLYING
43.98,APPROACH,ILS_TRACK,201.18,200,-1.18,1671.82,-18.55,6.89,11.8,245.72,6.736,0.0737,11.856,245.4,0,17865.01,-643.96,42.866,-693.137,199.818,0,0,0,270.01,0,0,0,0,0,0,0,0,0,0,0,0,0,1,1,44.02,FLYING
44.18,APPROACH,ILS_TRACK,200.54,200,-0.54,1668.28,-17.57,7.12,11.78,245.65,6.634,0.1076,11.735,245.4,0,17847.83,-645.43,42.826,-692.431,199.524,0,0,0,270.01,0,0,0,0,0,0,0,0,0,0,0,0,0,1,1,44.22,FLYING
44.4,APPROACH,ILS_TRACK,199.78,200,0.22,1664.6,-16.55,7.31,11.73,245.59,6.496,0.1495,11.768,245.4,0,17828.91,-646.85,42.782,-691.658,199.225,0,0,0,270.01,0,0,0,0,0,0,0,0,0,0,0,0,0,1,1,44.44,FLYING
44.6,APPROACH,ILS_TRACK,199.06,200,0.94,1661.42,-15.64,7.43,11.61,245.55,6.356,0.1909,11.941,245.4,0,17811.7,-647.97,42.742,-690.963,198.869,0,0,0,270.01,0,0,0,0,0,0,0,0,0,0,0,0,0,1,1,44.64,FLYING
44.8,APPROACH,ILS_TRACK,198.34,200,1.66,1658.43,-14.8,7.59,11.56,245.5,6.198,0.2346,12.26,245.4,0,17794.5,-648.92,42.702,-690.268,198.479,0,0,0,270.01,0,0,0,0,0,0,0,0,0,0,0,0,0,1,1,44.84,FLYING
45,APPROACH,ILS_TRACK,197.61,200,2.39,1655.62,-14.07,7.84,11.63,245.45,6.048,0.2804,12.724,245.4,0,17777.29,-649.7,42.663,-689.586,198.031,0,0,0,270.01,0,0,0,0,0,0,0,0,0,0,0,0,0,1,1,45.04,FLYING
45.2,APPROACH,ILS_TRACK,196.87,200,3.13,1652.99,-13.23,8.12,11.7,245.39,5.924,0.3282,13.335,245.4,0,17760.09,-650.31,42.624,-688.901,197.519,0,0,0,270.01,0,0,0,0,0,0,0,0,0,0,0,0,0,1,1,45.24,FLYING
45.42,APPROACH,ILS_TRACK,196.06,200,3.94,1650.26,-12.31,8.37,11.71,245.34,5.795,0.3831,14.187,245.4,0,17741.17,-650.81,42.581,-688.151,197.063,0,0,0,270.01,0,0,0,0,0,0,0,0,0,0,0,0,0,1,1,45.46,FLYING
45.62,APPROACH,ILS_TRACK,195.33,200,4.67,1647.94,-11.52,8.56,11.7,245.29,5.679,0.4341,15.106,245.4,0,17723.98,-651.12,42.542,-687.472,196.564,0,0,0,270.01,0,0,0,0,0,0,0,0,0,0,0,0,0,1,1,45.66,FLYING
45.82,APPROACH,ILS_TRACK,194.62,200,5.38,1645.77,-10.72,8.71,11.64,245.25,5.564,0.4859,16.167,245.4,0,17706.8,-651.28,42.503,-686.794,196.03,0,0,0,270.01,0,0,0,0,0,0,0,0,0,0,0,0,0,1,1,45.86,FLYING
46.02,APPROACH,ILS_TRACK,193.94,200,6.06,1643.73,-9.99,8.79,11.53,245.21,5.442,0.5381,17.366,245.4,0,17689.62,-651.32,42.464,-686.11,195.546,0,0,0,270.01,0,0,0,0,0,0,0,0,0,0,0,0,0,1,1,46.06,FLYING
46.22,APPROACH,ILS_TRACK,193.3,200,6.7,1641.86,-9.39,9.03,11.62,245.16,5.322,0.5897,18.695,245.4,0,17672.45,-651.2,42.425,-685.434,194.886,0,0,0,270.01,0,0,0,0,0,0,0,0,0,0,0,0,0,1,1,46.26,FLYING
46.44,APPROACH,ILS_TRACK,192.61,200,7.39,1639.98,-8.57,9.34,11.72,245.1,5.226,0.6429,20,245.4,0,17653.57,-650.89,42.383,-684.684,194.135,0,0,0,270.01,0,0,0,0,0,0,0,0,0,0,0,0,0,1,1,46.48,FLYING
46.64,APPROACH,ILS_TRACK,192.02,200,7.98,1638.41,-7.83,9.56,11.73,245.05,5.155,0.6757,20,245.4,0,17636.4,-650.48,42.345,-684.005,193.492,0,0,0,270.01,0,0,0,0,0,0,0,0,0,0,0,0,0,1,1,46.68,FLYING
46.84,APPROACH,ILS_TRACK,191.47,200,8.53,1636.98,-7.13,9.73,11.72,245,5.092,0.7065,20,245.4,0,17619.24,-649.94,42.307,-683.318,192.836,0,0,0,270.01,0,0,0,0,0,0,0,0,0,0,0,0,0,1,1,46.88,FLYING
47.04,APPROACH,ILS_TRACK,190.95,200,9.05,1635.66,-6.37,9.8,11.59,244.96,5.024,0.7351,20,245.4,0,17602.08,-649.28,42.268,-682.631,192.162,0,0,0,270.01,0,0,0,0,0,0,0,0,0,0,0,0,0,1,1,47.08,FLYING
47.24,APPROACH,ILS_TRACK,190.49,200,9.51,1634.48,-5.86,9.95,11.59,244.91,4.945,0.7609,20,245.4,0,17584.91,-648.5,42.23,-681.937,191.434,0,0,0,270.01,0,0,0,0,0,0,0,0,0,0,0,0,0,1,1,47.28,FLYING
47.46,APPROACH,ILS_TRACK,190.01,200,9.99,1633.33,-4.88,10.02,11.4,244.89,4.769,0.7869,20,245.4,0,17566.02,-647.48,42.189,-681.174,190.536,0,0,0,270.01,0,0,0,0,0,0,0,0,0,0,0,0,0,1,1,47.5,FLYING
47.66,APPROACH,ILS_TRACK,189.61,200,10.39,1632.33,-4.35,9.71,10.94,244.91,4.53,0.8095,20,245.4,0,17548.84,-646.52,42.151,-680.471,190.117,0,0,0,270.01,0,0,0,0,0,0,0,0,0,0,0,0,0,1,1,47.7,FLYING
47.86,APPROACH,ILS_TRACK,189.35,200,10.65,1631.49,-3.96,9.71,10.83,244.92,4.241,0.8245,20,245.4,0,17531.64,-645.41,42.113,-679.767,189.186,0,0,0,270.01,0,0,0,0,0,0,0,0,0,0,0,0,0,1,1,47.9,FLYING
48.06,APPROACH,ILS_TRACK,189.12,200,10.88,1630.74,-3.36,9.59,10.54,244.95,3.914,0.8371,20,245.4,0,17514.42,-644.21,42.076,-679.059,188.429,0,0,0,270.01,0,0,0,0,0,0,0,0,0,0,0,0,0,1,1,48.1,FLYING
48.26,APPROACH,ILS_TRACK,188.98,200,11.02,1630.06,-2.95,9.4,10.23,244.99,3.56,0.8456,20,245.4,0,17497.19,-642.93,42.038,-678.346,187.787,0,0,0,270.01,0,0,0,0,0,0,0,0,0,0,0,0,0,1,1,48.3,FLYING
48.48,APPROACH,ILS_TRACK,188.91,200,11.09,1629.4,-2.54,9.19,9.91,245.03,3.16,0.8499,20,245.4,0,17478.21,-641.44,41.997,-677.554,187.003,0,0,0,270.01,0,0,0,0,0,0,0,0,0,0,0,0,0,1,1,48.52,FLYING
48.68,APPROACH,ILS_TRACK,188.92,200,11.08,1628.87,-2.23,9.02,9.64,245.08,2.804,0.8498,20,245.4,0,17460.92,-640.01,41.959,-676.834,186.275,0,0,0,270.01,0,0,0,0,0,0,0,0,0,0,0,0,0,1,1,48.72,FLYING
48.88,APPROACH,ILS_TRACK,188.99,200,11.01,1628.41,-1.96,8.85,9.4,245.12,2.467,0.8462,20,245.4,0,17443.61,-638.51,41.921,-676.107,185.574,0,0,0,270.01,0,0,0,0,0,0,0,0,0,0,0,0,0,1,1,48.92,FLYING
49.08,APPROACH,ILS_TRACK,189.12,200,10.88,1627.99,-1.71,8.66,9.14,245.16,2.131,0.8394,20,245.4,0,17426.28,-636.97,41.884,-675.38,184.916,0,0,0,270.01,0,0,0,0,0,0,0,0,0,0,0,0,0,1,1,49.12,FLYING
49.28,APPROACH,ILS_TRACK,189.31,200,10.69,1627.62,-1.53,8.47,8.89,245.2,1.8,0.8294,20,245.4,0,17408.91,-635.38,41.846,-674.648,184.269,0,0,0,270.01,0,0,0,0,0,0,0,0,0,0,0,0,0,1,1,49.32,FLYING
49.5,APPROACH,ILS_TRACK,189.58,200,10.42,1627.25,-1.37,8.27,8.65,245.25,1.47,0.8148,20,245.4,0,17389.76,-633.59,41.805,-673.835,183.555,0,0,0,270.01,0,0,0,0,0,0,0,0,0,0,0,0,0,1,1,49.54,FLYING
49.7,APPROACH,ILS_TRACK,189.87,200,10.13,1626.94,-1.27,8.14,8.48,245.28,1.21,0.799,20,245.4,0,17372.33,-631.92,41.767,-673.095,182.906,0,0,0,270.01,0,0,0,0,0,0,0,0,0,0,0,0,0,1,1,49.74,FLYING
49.9,APPROACH,ILS_TRACK,190.2,200,9.8,1626.67,-1.18,8.03,8.36,245.31,0.993,0.781,20,245.4,0,17354.85,-630.22,41.729,-672.352,182.251,0,0,0,270.01,0,0,0,0,0,0,0,0,0,0,0,0,0,1,1,49.94,FLYING
50.1,APPROACH,ILS_TRACK,190.56,200,9.44,1626.43,-1.09,7.96,8.26,245.33,0.811,0.7611,20,245.4,0,17337.34,-628.49,41.692,-671.605,181.619,0,0,0,270.01,0,0,0,0,0,0,0,0,0,0,0,0,0,1,1,50.14,FLYING
50.3,APPROACH,ILS_TRACK,190.95,200,9.05,1626.2,-1,7.89,8.17,245.35,0.66,0.7397,20,245.4,0,17319.79,-626.73,41.654,-670.855,180.997,0,0,0,270.01,0,0,0,0,0,0,0,0,0,0,0,0,0,1,1,50.34,FLYING
50.52,APPROACH,ILS_TRACK,191.42,200,8.58,1625.97,-0.91,7.82,8.07,245.36,0.526,0.7144,20,245.4,0,17300.44,-624.78,41.612,-670.031,180.325,0,0,0,270.01,0,0,0,0,0,0,0,0,0,0,0,0,0,1,1,50.56,FLYING
50.72,APPROACH,ILS_TRACK,191.91,200,8.09,1625.77,-0.86,7.76,7.99,245.37,0.431,0.688,20,245.4,0,17282.81,-622.98,41.574,-669.266,179.708,0,0,0,270.01,0,0,0,0,0,0,0,0,0,0,0,0,0,1,1,50.76,FLYING
50.92,APPROACH,ILS_TRACK,192.49,200,7.51,1625.59,-0.85,7.7,7.93,245.38,0.351,0.6565,20,245.4,0,17265.12,-621.17,41.536,-668.498,179.1,0,0,0,270.01,0,0,0,0,0,0,0,0,0,0,0,0,0,1,1,50.96,FLYING
51.12,APPROACH,ILS_TRACK,193.23,200,6.77,1625.42,-0.79,7.66,7.87,245.38,0.292,0.6166,20,245.4,0,17247.37,-619.33,41.497,-667.705,178.445,0,0,0,270.01,0,0,0,0,0,0,0,0,0,0,0,0,0,1,1,51.16,FLYING
51.32,APPROACH,ILS_TRACK,194.14,200,5.86,1625.27,-0.72,7.64,7.83,245.39,0.243,0.5675,20,245.4,0,17229.54,-617.47,41.459,-666.898,177.809,0,0,0,270.01,0,0,0,0,0,0,0,0,0,0,0,0,0,1,1,51.36,FLYING
51.54,APPROACH,ILS_TRACK,195.28,200,4.72,1625.1,-0.65,7.57,7.75,245.39,0.199,0.5057,20,245.4,0,17209.83,-615.41,41.416,-665.994,177.141,0,0,0,270.01,0,0,0,0,0,0,0,0,0,0,0,0,0,1,1,51.58,FLYING
51.74,APPROACH,ILS_TRACK,196.36,200,3.64,1624.95,-0.61,7.5,7.66,245.39,0.167,0.4463,20,245.4,0,17191.82,-613.52,41.378,-665.153,176.504,0,0,0,270.01,0,0,0,0,0,0,0,0,0,0,0,0,0,1,1,51.78,FLYING
51.94,APPROACH,ILS_TRACK,197.45,200,2.55,1624.81,-0.57,7.43,7.58,245.4,0.141,0.3862,20,245.4,0,17173.71,-611.62,41.338,-664.314,175.859,0,0,0,270.01,0,0,0,0,0,0,0,0,0,0,0,0,0,1,1,51.98,FLYING
52.14,APPROACH,ILS_TRACK,198.54,200,1.46,1624.68,-0.53,7.36,7.5,245.4,0.121,0.3262,20,245.4,0,17155.51,-609.69,41.299,-663.47,175.202,0,0,0,270.01,0,0,0,0,0,0,0,0,0,0,0,0,0,1,1,52.18,FLYING
52.34,APPROACH,ILS_TRACK,199.61,200,0.39,1624.56,-0.48,7.3,7.42,245.4,0.103,0.2671,20,245.4,0,17137.22,-607.74,41.26,-662.625,174.538,0,0,0,270.01,0,0,0,0,0,0,0,0,0,0,0,0,0,1,1,52.38,FLYING
52.56,APPROACH,ILS_TRACK,200.76,200,-0.76,1624.44,-0.45,7.24,7.35,245.4,0.09,0.2019,19.854,245.4,0,17116.99,-605.58,41.216,-661.698,173.816,0,0,0,270.01,0,0,0,0,0,0,0,0,0,0,0,0,0,1,1,52.6,FLYING
52.76,APPROACH,ILS_TRACK,201.77,200,-1.77,1624.34,-0.41,7.18,7.29,245.4,0.084,0.1423,19.52,245.4,0,17098.52,-603.6,41.176,-660.848,173.141,0,0,0,270.01,0,0,0,0,0,0,0,0,0,0,0,0,0,1,1,52.8,FLYING
52.96,APPROACH,ILS_TRACK,202.73,200,-2.73,1624.25,-0.4,7.14,7.25,245.4,0.073,0.0831,18.994,245.4,0,17079.96,-601.6,41.136,-660.005,172.477,0,0,0,270.01,0,0,0,0,0,0,0,0,0,0,0,0,0,1,1,53,FLYING
53.16,APPROACH,ILS_TRACK,203.62,200,-3.62,1624.16,-0.37,7.1,7.19,245.4,0.069,0.0251,18.287,245.4,0,17061.33,-599.58,41.096,-659.165,171.808,0,0,0,270.01,0,0,0,0,0,0,0,0,0,0,0,0,0,1,1,53.2,FLYING
53.36,APPROACH,ILS_TRACK,204.44,200,-4.44,1624.08,-0.36,7.08,7.17,245.4,0.063,0,17.415,245.4,0,17042.63,-597.55,41.056,-658.332,171.135,0,0,0,270.01,0,0,0,0,0,0,0,0,0,0,0,0,0,1,1,53.4,FLYING
53.58,APPROACH,ILS_TRACK,205.24,200,-5.24,1624,-0.3,7.06,7.14,245.4,0.057,0,16.277,245.4,0,17021.99,-595.3,41.011,-657.423,170.393,0,0,0,270.01,0,0,0,0,0,0,0,0,0,0,0,0,0,1,1,53.62,FLYING
53.78,APPROACH,ILS_TRACK,205.88,200,-5.88,1623.94,-0.31,7.04,7.12,245.4,0.053,0,15.113,245.4,0,17003.17,-593.24,40.971,-656.598,169.737,0,0,0,270.01,0,0,0,0,0,0,0,0,0,0,0,0,0,1,1,53.82,FLYING
53.98,APPROACH,ILS_TRACK,206.44,200,-6.44,1623.88,-0.29,7.04,7.11,245.4,0.049,0,13.836,245.4,0,16984.3,-591.17,40.93,-655.785,169.066,0,0,0,270.01,0,0,0,0,0,0,0,0,0,0,0,0,0,1,1,54.02,FLYING
54.18,APPROACH,ILS_TRACK,206.92,200,-6.92,1623.83,-0.26,7.03,7.09,245.4,0.047,0,12.46,245.4,0,16965.39,-589.08,40.889,-654.977,168.396,0,0,0,270.01,0,0,0,0,0,0,0,0,0,0,0,0,0,1,1,54.22,FLYING
54.38,APPROACH,ILS_TRACK,207.33,200,-7.33,1623.78,-0.24,7.02,7.08,245.4,0.045,0,11.001,245.4,0,16946.44,-586.99,40.849,-654.175,167.74,0,0,0,270.01,0,0,0,0,0,0,0,0,0,0,0,0,0,1,1,54.42,FLYING
54.6,APPROACH,ILS_TRACK,207.7,200,-7.7,1623.73,-0.21,7.03,7.08,245.4,0.04,0,9.313,245.4,0,16925.57,-584.68,40.804,-653.301,167,0,0,0,270.01,0,0,0,0,0,0,0,0,0,0,0,0,0,1,1,54.64,FLYING
54.8,APPROACH,ILS_TRACK,207.98,200,-7.98,1623.69,-0.19,7.04,7.08,245.4,0.034,0,7.723,245.4,0,16906.56,-582.58,40.763,-652.509,166.346,0,0,0,270.01,0,0,0,0,0,0,0,0,0,0,0,0,0,1,1,54.84,FLYING
55,APPROACH,ILS_TRACK,208.19,200,-8.19,1623.66,-0.16,7.04,7.08,245.4,0.032,0,6.088,245.4,0,16887.54,-580.46,40.722,-651.726,165.682,0,0,0,270.01,0,0,0,0,0,0,0,0,0,0,0,0,0,1,1,55.04,FLYING
55.2,APPROACH,ILS_TRACK,208.35,200,-8.35,1623.63,-0.16,7.06,7.1,245.4,0.029,0,4.422,245.4,0,16868.51,-578.34,40.681,-650.948,165.023,0,0,0,270.01,0,0,0,0,0,0,0,0,0,0,0,0,0,1,1,55.24,FLYING
55.4,APPROACH,ILS_TRACK,208.45,200,-8.45,1623.6,-0.14,7.07,7.1,245.4,0.027,0,2.733,245.4,0,16849.47,-576.22,40.64,-650.174,164.37,0,0,0,270.01,0,0,0,0,0,0,0,0,0,0,0,0,0,1,1,55.44,FLYING
55.62,APPROACH,ILS_TRACK,208.51,200,-8.51,1623.58,-0.13,7.08,7.11,245.4,0.025,0,0.862,245.4,0,16828.51,-573.88,40.594,-649.328,163.643,0,0,0,270.01,0,0,0,0,0,0,0,0,0,0,0,0,0,1,1,55.66,FLYING
55.82,APPROACH,ILS_TRACK,208.51,200,-8.51,1623.57,-0.09,7.1,7.13,245.4,0.023,0,-0.841,245.4,0,16809.46,-571.74,40.553,-648.563,162.982,0,0,0,270.01,0,0,0,0,0,0,0,0,0,0,0,0,0,1,1,55.86,FLYING
56.02,APPROACH,ILS_TRACK,208.48,200,-8.48,1623.55,-0.08,7.11,7.13,245.4,0.02,0,-2.538,245.4,0,16790.41,-569.6,40.512,-647.806,162.333,0,0,0,270.01,0,0,0,0,0,0,0,0,0,0,0,0,0,1,1,56.06,FLYING
56.22,APPROACH,ILS_TRACK,208.4,200,-8.4,1623.54,-0.07,7.14,7.16,245.4,0.018,0,-4.219,245.4,0,16771.37,-567.46,40.471,-647.05,161.676,0,0,0,270.01,0,0,0,0,0,0,0,0,0,0,0,0,0,1,1,56.26,FLYING
56.42,APPROACH,ILS_TRACK,208.28,200,-8.28,1623.54,-0.05,7.16,7.18,245.4,0.017,0,-5.879,245.4,0,16752.33,-565.32,40.43,-646.299,161.017,0,0,0,270.01,0,0,0,0,0,0,0,0,0,0,0,0,0,1,1,56.46,FLYING
56.64,APPROACH,ILS_TRACK,208.12,200,-8.12,1623.54,-0.04,7.2,7.21,245.4,0.014,0,-7.669,245.4,0,16731.41,-562.96,40.385,-645.479,160.308,0,0,0,270.01,0,0,0,0,0,0,0,0,0,0,0,0,0,1,1,56.68,FLYING
56.84,APPROACH,ILS_TRACK,207.93,200,-7.93,1623.54,-0.02,7.22,7.22,245.4,0.013,0,-9.259,245.4,0,16712.4,-560.81,40.344,-644.735,159.655,0,0,0,270.01,0,0,0,0,0,0,0,0,0,0,0,0,0,1,1,56.88,FLYING
57.04,APPROACH,ILS_TRACK,207.72,200,-7.72,1623.54,-0.01,7.24,7.24,245.4,0.01,0,-10.808,245.4,0,16693.41,-558.66,40.303,-643.996,159.011,0,0,0,270.01,0,0,0,0,0,0,0,0,0,0,0,0,0,1,1,57.08,FLYING
57.24,APPROACH,ILS_TRACK,207.48,200,-7.48,1623.55,0.01,7.28,7.28,245.4,0.007,0,-12.308,245.4,0,16674.44,-556.51,40.262,-643.266,158.351,0,0,0,270.01,0,0,0,0,0,0,0,0,0,0,0,0,0,1,1,57.28,FLYING
57.44,APPROACH,ILS_TRACK,207.21,200,-7.21,1623.56,0.02,7.31,7.3,245.4,0.005,0,-13.755,245.4,0,16655.49,-554.36,40.222,-642.531,157.71,0,0,0,270.01,0,0,0,0,0,0,0,0,0,0,0,0,0,1,1,57.48,FLYING
57.66,APPROACH,ILS_TRACK,206.88,200,-6.88,1623.58,0.04,7.35,7.34,245.4,0.004,0,-15.276,245.4,0,16634.67,-552,40.177,-641.732,156.998,0,0,0,270.01,0,0,0,0,0,0,0,0,0,0,0,0,0,1,1,57.7,FLYING
57.86,APPROACH,ILS_TRACK,206.56,200,-6.56,1623.59,0.05,7.38,7.36,245.4,0.004,0,-16.595,245.4,0,16615.77,-549.85,40.136,-641.008,156.353,0,0,0,270.01,0,0,0,0,0,0,0,0,0,0,0,0,0,1,1,57.9,FLYING
58.06,APPROACH,ILS_TRACK,206.22,200,-6.22,1623.62,0.05,7.42,7.4,245.4,0.001,0,-17.847,245.4,0,16596.9,-547.7,40.095,-640.288,155.709,0,0,0,270.01,0,0,0,0,0,0,0,0,0,0,0,0,0,1,1,58.1,FLYING
58.26,APPROACH,ILS_TRACK,205.87,200,-5.87,1623.64,0.07,7.45,7.43,245.4,0,0,-19.027,245.4,0,16578.06,-545.55,40.055,-639.572,155.064,0,0,0,270.01,0,0,0,0,0,0,0,0,0,0,0,0,0,1,1,58.3,FLYING
58.46,APPROACH,ILS_TRACK,205.49,200,-5.49,1623.66,0.07,7.5,7.48,245.4,-0.002,0,-20,245.4,0,16559.25,-543.4,40.014,-638.856,154.42,0,0,0,270.01,0,0,0,0,0,0,0,0,0,0,0,0,0,1,1,58.5,FLYING
58.68,APPROACH,ILS_TRACK,205.05,200,-5.05,1623.7,0.09,7.54,7.52,245.4,-0.004,0,-20,245.4,0,16538.6,-541.04,39.97,-638.074,153.72,0,0,0,270.01,0,0,0,0,0,0,0,0,0,0,0,0,0,1,1,58.72,FLYING
58.88,APPROACH,ILS_TRACK,204.64,200,-4.64,1623.73,0.11,7.58,7.55,245.4,-0.005,0,-20,245.4,0,16519.86,-538.89,39.929,-637.368,153.08,0,0,0,270.01,0,0,0,0,0,0,0,0,0,0,0,0,0,1,1,58.92,FLYING
59.08,APPROACH,ILS_TRACK,204.22,200,-4.22,1623.76,0.11,7.62,7.59,245.4,-0.007,0,-20,245.4,0,16501.15,-536.74,39.889,-636.661,152.443,0,0,0,270.01,0,0,0,0,0,0,0,0,0,0,0,0,0,1,1,59.12,FLYING
59.28,APPROACH,ILS_TRACK,203.78,200,-3.78,1623.8,0.13,7.66,7.63,245.4,-0.007,0,-20,245.4,0,16482.48,-534.6,39.849,-635.964,151.812,0,0,0,270.01,0,0,0,0,0,0,0,0,0,0,0,0,0,1,1,59.32,FLYING
59.48,APPROACH,ILS_TRACK,203.32,200,-3.32,1623.84,0.13,7.7,7.67,245.4,-0.009,0,-20,245.4,0,16463.85,-532.46,39.809,-635.262,151.173,0,0,0,270.01,0,0,0,0,0,0,0,0,0,0,0,0,0,1,1,59.52,FLYING
59.7,APPROACH,ILS_TRACK,202.81,200,-2.81,1623.88,0.15,7.75,7.71,245.4,-0.009,0,-20,245.4,0,16443.39,-530.11,39.765,-634.494,150.469,0,0,0,270.01,0,0,0,0,0,0,0,0,0,0,0,0,0,1,1,59.74,FLYING
59.9,APPROACH,ILS_TRACK,202.33,200,-2.33,1623.92,0.15,7.8,7.76,245.4,-0.011,0,-20,245.4,0,16424.84,-527.97,39.725,-633.805,149.845,0,0,0,270.01,0,0,0,0,0,0,0,0,0,0,0,0,0,1,1,59.94,FLYING
60.1,APPROACH,ILS_TRACK,201.85,200,-1.85,1623.97,0.17,7.84,7.8,245.4,-0.012,0,-20,245.4,0,16406.33,-525.83,39.685,-633.112,149.213,0,0,0,270.01,0,0,0,0,0,0,0,0,0,0,0,0,0,1,1,60.14,FLYING
60.3,APPROACH,ILS_TRACK,201.35,200,-1.35,1624.02,0.16,7.89,7.85,245.4,-0.014,0,-20,245.4,0,16387.86,-523.7,39.645,-632.426,148.585,0,0,0,270.01,0,0,0,0,0,0,0,0,0,0,0,0,0,1,1,60.34,FLYING
60.5,APPROACH,ILS_TRACK,200.85,200,-0.85,1624.07,0.18,7.94,7.89,245.4,-0.015,0,-20,245.4,0,16369.43,-521.57,39.605,-631.74,147.953,0,0,0,270.01,0,0,0,0,0,0,0,0,0,0,0,0,0,1,1,60.54,FLYING
60.72,APPROACH,ILS_TRACK,200.28,200,-0.28,1624.12,0.19,7.99,7.94,245.4,-0.016,0,-20,245.4,0,16349.21,-519.24,39.562,-630.987,147.268,0,0,0,270.01,0,0,0,0,0,0,0,0,0,0,0,0,0,1,1,60.76,FLYING
60.92,APPROACH,ILS_TRACK,199.76,200,0.24,1624.17,0.2,8.04,7.99,245.4,-0.018,0,-19.962,245.4,0,16330.87,-517.11,39.522,-630.312,146.643,0,0,0,270.01,0,0,0,0,0,0,0,0,0,0,0,0,0,1,1,60.96,FLYING
61.12,APPROACH,ILS_TRACK,199.23,200,0.77,1624.23,0.21,8.09,8.04,245.4,-0.019,0,-19.819,245.4,0,16312.57,-514.99,39.483,-629.635,146.02,0,0,0,270.01,0,0,0,0,0,0,0,0,0,0,0,0,0,1,1,61.16,FLYING
61.32,APPROACH,ILS_TRACK,198.7,200,1.3,1624.28,0.22,8.14,8.08,245.4,-0.019,0,-19.569,245.4,0,16294.32,-512.88,39.444,-628.96,145.402,0,0,0,270.01,0,0,0,0,0,0,0,0,0,0,0,0,0,1,1,61.36,FLYING
61.52,APPROACH,ILS_TRACK,198.15,200,1.85,1624.34,0.21,8.19,8.13,245.4,-0.02,0,-19.211,245.4,0,16276.12,-510.77,39.404,-628.287,144.784,0,0,0,270.01,0,0,0,0,0,0,0,0,0,0,0,0,0,1,1,61.56,FLYING
61.74,APPROACH,ILS_TRACK,197.55,200,2.45,1624.41,0.22,8.24,8.19,245.4,-0.021,0,-18.685,245.4,0,16256.14,-508.45,39.361,-627.548,144.098,0,0,0,270.01,0,0,0,0,0,0,0,0,0,0,0,0,0,1,1,61.78,FLYING
61.94,APPROACH,ILS_TRACK,197,200,3,1624.47,0.23,8.3,8.24,245.4,-0.02,0,-18.096,245.4,0,16238.03,-506.34,39.322,-626.883,143.481,0,0,0,270.01,0,0,0,0,0,0,0,0,0,0,0,0,0,1,1,61.98,FLYING
62.14,APPROACH,ILS_TRACK,196.44,200,3.56,1624.53,0.23,8.35,8.29,245.4,-0.02,0,-17.395,245.4,0,16219.97,-504.24,39.283,-626.223,142.869,0,0,0,270.01,0,0,0,0,0,0,0,0,0,0,0,0,0,1,1,62.18,FLYING
62.34,APPROACH,ILS_TRACK,195.88,200,4.12,1624.6,0.24,8.41,8.34,245.4,-0.02,0.0245,-16.583,245.4,0,16201.96,-502.14,39.245,-625.557,142.256,0,0,0,270.01,0,0,0,0,0,0,0,0,0,0,0,0,0,1,1,62.38,FLYING
62.54,APPROACH,ILS_TRACK,195.31,200,4.69,1624.66,0.25,8.47,8.4,245.4,-0.019,0.0668,-15.657,245.4,0,16183.99,-500.05,39.206,-624.897,141.64,0,0,0,270.01,0,0,0,0,0,0,0,0,0,0,0,0,0,1,1,62.58,FLYING
62.76,APPROACH,ILS_TRACK,194.69,200,5.31,1624.73,0.25,8.53,8.46,245.4,-0.02,0.1149,-14.501,245.4,0,16164.27,-497.75,39.164,-624.172,140.976,0,0,0,270.01,0,0,0,0,0,0,0,0,0,0,0,0,0,1,1,62.8,FLYING
62.96,APPROACH,ILS_TRACK,194.13,200,5.87,1624.8,0.26,8.58,8.51,245.4,-0.022,0.1599,-13.337,245.4,0,16146.41,-495.67,39.125,-623.52,140.371,0,0,0,270.01,0,0,0,0,0,0,0,0,0,0,0,0,0,1,1,63,FLYING
63.16,APPROACH,ILS_TRACK,193.57,200,6.43,1624.87,0.27,8.62,8.55,245.4,-0.021,0.2056,-12.063,245.4,0,16128.58,-493.59,39.087,-622.861,139.764,0,0,0,270.01,0,0,0,0,0,0,0,0,0,0,0,0,0,1,1,63.2,FLYING
63.36,APPROACH,ILS_TRACK,193.04,200,6.96,1624.93,0.27,8.67,8.59,245.4,-0.021,0.2519,-10.681,245.4,0,16110.8,-491.52,39.048,-622.212,139.166,0,0,0,270.01,0,0,0,0,0,0,0,0,0,0,0,0,0,1,1,63.4,FLYING
63.56,APPROACH,ILS_TRACK,192.52,200,7.48,1625,0.29,8.7,8.62,245.4,-0.017,0.2984,-9.195,245.4,0,16093.07,-489.45,39.01,-621.556,138.559,0,0,0,270.01,0,0,0,0,0,0,0,0,0,0,0,0,0,1,1,63.6,FLYING
63.78,APPROACH,ILS_TRACK,191.97,200,8.03,1625.07,0.29,8.74,8.66,245.4,-0.017,0.3495,-7.44,245.4,0,16073.61,-487.18,38.968,-620.83,137.908,0,0,0,270.01,0,0,0,0,0,0,0,0,0,0,0,0,0,1,1,63.82,FLYING
63.98,APPROACH,ILS_TRACK,191.51,200,8.49,1625.14,0.29,8.76,8.69,245.4,-0.017,0.3954,-5.751,245.4,0,16055.96,-485.12,38.93,-620.177,137.304,0,0,0,270.01,0,0,0,0,0,0,0,0,0,0,0,0,0,1,1,64.02,FLYING
