t_s,phase,subphase,ias_ms,vapp_ms,spd_err_ms,agl_m,vs_ms,pitch_deg,aoa_deg,hdg_deg,bank_deg,thr_cmd,thr_cur,thr_intg,at_gain,at_tau_s,at_a_up,at_a_dn,at_kp_thr,at_ki_spd,at_thr_slew,aa_hdg_cmd_deg,aa_fpa_cmd_deg,ils_loc_m,ils_gs_m,ils_dist_km,loc_corr_deg,gs_corr_deg,flare_fpa_cmd,flare_tgt_vs,flare_frac,steer_hdg_deg,steer_blend,ro_loc_corr_deg,ro_hdg_err_deg,ro_yaw_tgt,ro_yaw_scale,ro_yaw_gate,yaw_cmd,roll_cmd,pitch_cmd,ro_pitch_tgt_deg,ro_pitch_err_deg,ro_pitch_ff,ro_roll_assist,flaps_cur,flaps_tgt,asc_j_ab,asc_j_rk,asc_validity,asc_q_pa,asc_mach,asc_apo_m,asc_drag_n,asc_w_prop,asc_edot_aero,asc_edot_orb,asc_pitch_bias,asc_blend,asc_spooling,phase_el_s,status
1.14,ASCENT,AB_ZOOM,248.5,80,-168.5,4994.65,0.94,8.44,8.26,90,0.014,1,0,0,0,0,0,0,0,0,0,0,0.68,0,0,0,0,0,0,0,0,90,0,0,0,0,0,0,0,0,0,0,0,0,0,0,0,10.546,0,DEGRADED,29.9,0.967,4992,0,1,471.38,14.12,0.5,0,0,0.42,FLYING
3.54,ASCENT,AB_ZOOM,258.55,80,-178.55,4994.35,-2.14,8.27,15.98,74.21,58.206,1,0,0,0,0,0,0,0,0,0,0,0.869,0,0,0,0,0,0,0,0,90,0,0,0,0,0,0,0,0,0,0,0,0,0,0,0,3.85,98220.568,DEGRADED,31,1.001,4992,0,1.1305,1642.5,1357.44,1.25,0,0,2.82,FLYING
5.92,ASCENT,RKT_SUSTAIN,248.15,80,-168.15,4989.98,-2.04,9.66,17.38,67.34,53.876,1,0,0,0,0,0,0,0,0,0,0,1.926,0,0,0,0,0,0,0,0,90,0,0,0,0,0,0,0,0,0,0,0,0,0,0,0,0,0,DEGRADED,31,0.972,4991,0,1.1306,1419.95,-668.78,2.25,0.375,0,5.2,FLYING
8.26,ASCENT,RKT_SUSTAIN,234.21,80,-154.21,4986.35,-1.3,10.95,17.64,62.53,49.912,1,0,0,0,0,0,0,0,0,0,0,3.586,0,0,0,0,0,0,0,0,90,0,0,0,0,0,0,0,0,0,0,0,0,0,0,0,0,0,DEGRADED,28.9,0.926,4988,0,1.1306,872.03,-2492.69,3.75,0.965,0,7.56,FLYING
10.56,ASCENT,RKT_SUSTAIN,221.3,80,-141.3,4985.43,0.14,12.25,18.23,57.49,46.473,1,0,0,0,0,0,0,0,0,0,0,4.267,0,0,0,0,0,0,0,0,90,0,0,0,0,0,0,0,0,0,0,0,0,0,0,0,0,0,DEGRADED,26.5,0.883,4985,0,1.1306,535.53,-3499.21,4.25,1,0,9.86,FLYING
12.92,ASCENT,RKT_SUSTAIN,210.23,80,-130.23,4987.41,1.12,13.25,17.65,54.51,41.541,1,0,0,0,0,0,0,0,0,0,0,2.895,0,0,0,0,0,0,0,0,90,0,0,0,0,0,0,0,0,0,0,0,0,0,0,0,0,0,DEGRADED,24.2,0.845,4984,0,1.1306,328.88,-3881.48,2.75,1,0,12.22,FLYING
15.28,ASCENT,RKT_SUSTAIN,200.66,80,-120.66,4990.84,1.46,14.25,17.78,51.39,37.616,1,0,0,0,0,0,0,0,0,0,0,1.446,0,0,0,0,0,0,0,0,90,0,0,0,0,0,0,0,0,0,0,0,0,0,0,0,0,0,DEGRADED,22.3,0.812,4985,0,1.1306,201.98,-3897.84,1.25,1,0,14.58,FLYING
17.64,ASCENT,RKT_SUSTAIN,191.87,80,-111.87,4994.49,1.31,15.15,18.08,48.57,33.929,1,0,0,0,0,0,0,0,0,0,0,0.216,0,0,0,0,0,0,0,0,90,0,0,0,0,0,0,0,0,0,0,0,0,0,0,0,0,0,DEGRADED,20.5,0.781,4987,0,1.1306,124.04,-3783.97,0.034,1,0,16.94,FLYING
20,ASCENT,RKT_SUSTAIN,183.62,80,-103.62,4997.4,0.91,16.08,18.09,47.13,26.948,1,0,0,0,0,0,0,0,0,0,0,0.154,0,0,0,0,0,0,0,0,90,0,0,0,0,0,0,0,0,0,0,0,0,0,0,0,0,0,DEGRADED,19,0.752,4989,0,1.1306,76.18,-3602.97,0.022,1,0,19.3,FLYING
22.36,ASCENT,RKT_SUSTAIN,175.94,80,-95.94,4999.57,0.56,17.75,18.83,46.9,19.12,1,0,0,0,0,0,0,0,0,0,0,0.094,0,0,0,0,0,0,0,0,90,0,0,0,0,0,0,0,0,0,0,0,0,0,0,0,0,0,VALID,17.6,0.724,4991,0,1.1306,46.78,-3334.85,0.011,1,0,21.64,FLYING
24.72,ASCENT,RKT_SUSTAIN,168.4,80,-88.4,5001.2,0.4,19.31,19.75,47.31,11.106,1,0,0,0,0,0,0,0,0,0,0,0.067,0,0,0,0,0,0,0,0,90,0,0,0,0,0,0,0,0,0,0,0,0,0,0,0,0,0,VALID,16.3,0.697,4993,0,1.1306,28.73,-3070.63,0.006,1,0,24,FLYING
27.08,ASCENT,RKT_SUSTAIN,160.92,80,-80.92,5002.17,0.04,20.48,20.4,49.88,10.577,1,0,0,0,0,0,0,0,0,0,0,0.006,0,0,0,0,0,0,0,0,90,0,0,0,0,0,0,0,0,0,0,0,0,0,0,0,0,0,VALID,15.1,0.669,4994,0,1.1306,17.64,-2770.95,0,1,0,26.36,FLYING
29.44,ASCENT,RKT_SUSTAIN,153.85,80,-73.85,4999.28,-2.32,19.01,20.22,45.25,11.669,1,0,0,0,0,0,0,0,0,0,0,1.141,0,0,0,0,0,0,0,0,90,0,0,0,0,0,0,0,0,0,0,0,0,0,0,0,0,0,VALID,13.9,0.642,4995,0,1.1306,10.84,-2625.74,1.5,1,0,28.72,FLYING
31.8,ASCENT,RKT_SUSTAIN,147.29,80,-67.29,4989.88,-5.43,18.49,20.73,43.47,12.2,1,0,0,0,0,0,0,0,0,0,0,2.128,0,0,0,0,0,0,0,0,90,0,0,0,0,0,0,0,0,0,0,0,0,0,0,0,0,0,VALID,12.8,0.616,4992,0,1.1306,6.65,-2482.06,3,1,0,31.08,FLYING
34.16,ASCENT,RKT_SUSTAIN,141.98,80,-61.98,4970.37,-10.44,16.87,20.79,40.27,8.149,1,0,0,0,0,0,0,0,0,0,0,2.773,0,0,0,0,0,0,0,0,90,0,0,0,0,0,0,0,0,0,0,0,0,0,0,0,0,0,VALID,11.9,0.595,4984,0,1.1306,4.09,-2314.48,4.5,1,0,33.44,FLYING
36.52,ASCENT,RKT_SUSTAIN,137.81,80,-57.81,4938.33,-16.44,16.13,22.35,38.46,15.764,1,0,0,0,0,0,0,0,0,0,0,3.211,0,0,0,0,0,0,0,0,90,0,0,0,0,0,0,0,0,0,0,0,0,0,0,0,0,0,VALID,11.2,0.577,4971,0,1.1306,2.51,-2129.19,6,1,0,35.8,FLYING
38.84,ASCENT,RKT_SUSTAIN,134.17,80,-54.17,4892.28,-22.5,12.31,20.04,38.07,27.439,1,0,0,0,0,0,0,0,0,0,0,3.606,0,0,0,0,0,0,0,0,90,0,0,0,0,0,0,0,0,0,0,0,0,0,0,0,0,0,VALID,10.6,0.56,4949,0,1.1306,1.54,-2013.17,7.5,1,0,38.14,FLYING
41.08,ASCENT,RKT_SUSTAIN,132.55,80,-52.55,4831.97,-30.25,8.83,20.18,34.26,20.519,1,0,0,0,0,0,0,0,0,0,0,3.667,0,0,0,0,0,0,0,0,90,0,0,0,0,0,0,0,0,0,0,0,0,0,0,0,0,0,VALID,10.2,0.551,4920,0,1.1306,0.95,-1826.61,9,1,0,40.38,FLYING
43.4,ASCENT,RKT_SUSTAIN,132.39,80,-52.39,4751.73,-38.09,6.18,19.99,32.77,17.789,1,0,0,0,0,0,0,0,0,0,0,3.693,0,0,0,0,0,0,0,0,90,0,0,0,0,0,0,0,0,0,0,0,0,0,0,0,5.844,0,VALID,10,0.547,4883,0,1.1306,38.44,-1625.35,10.5,1,0,42.7,FLYING
45.78,ASCENT,RKT_SUSTAIN,134.76,80,-54.76,4653.62,-44.47,5.69,20.05,37.07,0.934,1,0,0,0,0,0,0,0,0,0,0,4.031,0,0,0,0,0,0,0,0,90,0,0,0,0,0,0,0,0,0,0,0,0,0,0,0,2.12,0,DEGRADED,10.1,0.551,4833,0,1.1306,198.06,-1278.47,12,1,0,45.06,FLYING
48.14,ASCENT,RKT_SUSTAIN,140.49,80,-60.49,4541.09,-49.44,4.74,19.78,38.83,13.215,1,0,0,0,0,0,0,0,0,0,0,4.769,0,0,0,0,0,0,0,0,90,0,0,0,0,0,0,0,0,0,0,0,0,0,0,0,1.624,44422.75,DEGRADED,10.7,0.567,4768,0,1.1308,475.29,-634.8,13.5,1,0,47.42,FLYING
50.34,ASCENT,RKT_SUSTAIN,147.95,80,-67.95,4429.38,-52.61,4.21,20.01,41.17,-2.572,1,0,0,0,0,0,0,0,0,0,0,5.897,0,0,0,0,0,0,0,0,90,0,0,0,0,0,0,0,0,0,0,0,0,0,0,0,1.397,40143.187,DEGRADED,11.6,0.589,4690,0,1.131,774.55,-81.68,15,1,0,49.62,FLYING
52.56,ASCENT,RKT_SUSTAIN,156.66,80,-76.66,4309.83,-53.88,4.14,19.64,37.26,7.757,1,0,0,0,0,0,0,0,0,0,0,7.405,0,0,0,0,0,0,0,0,90,0,0,0,0,0,0,0,0,0,0,0,0,0,0,0,1.258,37662.981,DEGRADED,12.8,0.615,4598,0,1.1312,1064.3,380.42,16.5,1,0,51.84,FLYING
54.78,ASCENT,RKT_SUSTAIN,166.11,80,-86.11,4190.93,-53.21,4.82,20.01,32.78,15.205,1,0,0,0,0,0,0,0,0,0,0,9.199,0,0,0,0,0,0,0,0,90,0,0,0,0,0,0,0,0,0,0,0,0,0,0,0,1.165,36046.035,DEGRADED,14.2,0.643,4493,0,1.1314,1315.65,581.61,18,1,0,54.06,FLYING
56.96,ASCENT,RKT_SUSTAIN,175.56,80,-95.56,4077.73,-50.74,5.06,19.18,30.23,18.168,1,0,0,0,0,0,0,0,0,0,0,11.252,0,0,0,0,0,0,0,0,90,0,0,0,0,0,0,0,0,0,0,0,0,0,0,0,1.125,35663.22,DEGRADED,15.8,0.67,4377,0,1.1316,1537.17,613.85,19.5,1,0,56.24,FLYING
59.16,ASCENT,RKT_SUSTAIN,185.33,80,-105.33,3971.99,-46.59,6.23,18.99,27.13,20.168,1,0,0,0,0,0,0,0,0,0,0,13.534,0,0,0,0,0,0,0,0,90,0,0,0,0,0,0,0,0,0,0,0,0,0,0,0,1.096,35202.523,DEGRADED,17.4,0.699,4255,0,1.1319,1733.48,604.6,21,1,0,58.44,FLYING
61.36,ASCENT,RKT_SUSTAIN,194.54,80,-114.54,3876.67,-39.59,8.31,19,24.24,20.882,1,0,0,0,0,0,0,0,0,0,0,16.227,0,0,0,0,0,0,0,0,90,0,0,0,0,0,0,0,0,0,0,0,0,0,0,0,1.075,34753.815,DEGRADED,19.2,0.724,4131,0,1.1322,1905.7,512.81,22.5,1,0,60.64,FLYING
63.58,ASCENT,RKT_SUSTAIN,202.94,80,-122.94,3801.04,-29.61,11.35,19.53,21,21.415,1,0,0,0,0,0,0,0,0,0,0,19.323,0,0,0,0,0,0,0,0,90,0,0,0,0,0,0,0,0,0,0,0,0,0,0,0,1.05,33994.76,DEGRADED,20.8,0.748,4009,0,1.1325,2053.4,376.05,24,1,0,62.86,FLYING
65.8,ASCENT,RKT_SUSTAIN,209.71,80,-129.71,3750.01,-16.77,14.47,19.51,18.06,20.781,1,0,0,0,0,0,0,0,0,0,0,22.334,0,0,0,0,0,0,0,0,90,0,0,0,0,0,0,0,0,0,0,0,0,0,0,0,1.024,33204.252,DEGRADED,22.3,0.767,3900,0,1.1328,2171.23,146.08,25,1,0,65.08,FLYING
68.02,ASCENT,RKT_SUSTAIN,214.62,80,-134.62,3730.3,-1.35,17.54,19.09,15.27,20.319,1,0,0,0,0,0,0,0,0,0,0,24.745,0,0,0,0,0,0,0,0,90,0,0,0,0,0,0,0,0,0,0,0,0,0,0,0,1.324,32343.869,DEGRADED,23.6,0.782,3818,0,1.1331,2259.2,-101.2,25,1,0,67.3,FLYING
70.24,ASCENT,RKT_SUSTAIN,218.03,80,-138.03,3746.71,15.32,21.41,19.31,12.13,20.078,1,0,0,0,0,0,0,0,0,0,0,25,0,0,0,0,0,0,0,0,90,0,0,0,0,0,0,0,0,0,0,0,0,0,0,0,0.964,31409.468,DEGRADED,24.4,0.794,3779,0,1.1334,2316.52,-286.56,23.5,1,0,69.52,FLYING
72.46,ASCENT,RKT_SUSTAIN,219.25,80,-139.25,3801.02,33.12,25.17,19.3,8.85,19.92,1,0,0,0,0,0,0,0,0,0,0,25,0,0,0,0,0,0,0,0,90,0,0,0,0,0,0,0,0,0,0,0,0,0,0,0,0.922,30227.121,DEGRADED,25,0.802,3795,0,1.1337,2334.66,-493.2,22,1,0,71.74,FLYING
74.68,ASCENT,RKT_SUSTAIN,218.86,80,-138.86,3894.85,50.55,29.19,19.62,5.17,20.097,1,0,0,0,0,0,0,0,0,0,0,25,0,0,0,0,0,0,0,0,90,0,0,0,0,0,0,0,0,0,0,0,0,0,0,0,1.177,29103.129,DEGRADED,25.1,0.806,3874,0,1.1341,2319.22,-652.97,20.5,1,0,73.96,FLYING
76.9,ASCENT,RKT_SUSTAIN,216.38,80,-136.38,4026.83,67.36,32.48,19.27,1.61,20.389,1,0,0,0,0,0,0,0,0,0,0,25,0,0,0,0,0,0,0,0,90,0,0,0,0,0,0,0,0,0,0,0,0,0,0,0,1.116,27999.681,DEGRADED,24.8,0.806,4019,0,1.1344,2270.7,-823.12,19,1,0,76.18,FLYING
79.14,ASCENT,RKT_SUSTAIN,212.54,80,-132.54,4196.48,82.97,36.39,19.57,357.91,19.815,1,0,0,0,0,0,0,0,0,0,0,25,0,0,0,0,0,0,0,0,90,0,0,0,0,0,0,0,0,0,0,0,0,0,0,0,1.06,26903.231,DEGRADED,24.2,0.803,4227,0,1.1347,2194.1,-870.56,17.5,1,0,78.42,FLYING
81.36,ASCENT,RKT_SUSTAIN,207.35,80,-127.35,4397.11,96.79,39.95,19.76,354.22,19.385,1,0,0,0,0,0,0,0,0,0,0,25,0,0,0,0,0,0,0,0,90,0,0,0,0,0,0,0,0,0,0,0,0,0,0,0,1.002,25857.428,DEGRADED,23.3,0.798,4489,0,1.135,2097.05,-870.38,16,1,0,80.64,FLYING
83.58,ASCENT,RKT_SUSTAIN,204.75,80,-124.75,4621.81,105.15,36.35,13.02,357.94,10.524,1,0,0,0,0,0,0,0,0,0,0,25,0,0,0,0,0,0,0,0,90,0,0,0,0,0,0,0,0,0,0,0,0,0,0,0,1.072,28346.984,DEGRADED,22.4,0.801,4782,0,1.1354,2048.55,-367.51,14.5,1,0,82.86,FLYING
85.8,ASCENT,RKT_SUSTAIN,205.16,80,-125.16,4860.62,109.93,35.75,11.4,359.08,4.834,1,0,0,0,0,0,0,0,0,0,0,25,0,0,0,0,0,0,0,0,90,0,0,0,0,0,0,0,0,0,0,0,0,0,0,0,1.12,30173.703,DEGRADED,22.1,0.817,5077,0,1.1357,2051.93,463.85,13,1,0,85.08,FLYING
88,ASCENT,RKT_SUSTAIN,206.29,80,-126.29,5106.17,113.29,35.19,10.46,359.85,1.055,1,0,0,0,0,0,0,0,0,0,0,25,0,0,0,0,0,0,0,0,90,0,0,0,0,0,0,0,0,0,0,0,0,0,0,0,1.164,31906.272,DEGRADED,22,0.835,5369,0,1.136,2084.31,1166.85,11.5,1,0,87.28,FLYING
90.22,ASCENT,RKT_SUSTAIN,207.75,80,-127.75,5360.72,116.11,34.95,10.09,0.06,-0.011,1,0,0,0,0,0,0,0,0,0,0,25,0,0,0,0,0,0,0,0,90,0,0,0,0,0,0,0,0,0,0,0,0,0,0,0,1.199,33446.432,DEGRADED,22.1,0.856,5659,0,1.1363,2133.83,1713.7,10,1,0,89.5,FLYING
92.44,ASCENT,RKT_SUSTAIN,209.29,80,-129.29,5621.38,118.82,34.84,9.9,0.09,-0.231,1,0,0,0,0,0,0,0,0,0,0,25,0,0,0,0,0,0,0,0,90,0,0,0,0,0,0,0,0,0,0,0,0,0,0,0,1.757,34918.197,VALID,22.2,0.878,5950,0,1.1366,2193.42,2096.91,8.5,1,0,91.72,FLYING
94.66,ASCENT,RKT_SUSTAIN,210.88,80,-130.88,5888.14,121.55,34.74,9.74,0.09,-0.305,1,0,0,0,0,0,0,0,0,0,0,25,0,0,0,0,0,0,0,0,90,0,0,0,0,0,0,0,0,0,0,0,0,0,0,0,1.801,36408.177,VALID,22.3,0.902,6246,0,1.1369,2261.3,2375.38,7,1,0,93.94,FLYING
96.9,ASCENT,RKT_SUSTAIN,212.5,80,-132.5,6163.59,124.38,34.75,9.7,0.09,-0.326,1,0,0,0,0,0,0,0,0,0,0,25,0,0,0,0,0,0,0,0,90,0,0,0,0,0,0,0,0,0,0,0,0,0,0,0,1.845,37937.45,VALID,22.4,0.926,6549,0,1.1373,2336.92,2594.67,5.5,1,0,96.18,FLYING
99.12,ASCENT,RKT_SUSTAIN,214.11,80,-134.11,6442.91,127.24,34.75,9.66,0.09,-0.335,1,0,0,0,0,0,0,0,0,0,0,25,0,0,0,0,0,0,0,0,90,0,0,0,0,0,0,0,0,0,0,0,0,0,0,0,1.889,39499.41,VALID,22.5,0.951,6859,0,1.1376,2419.53,2760.04,4,1,0,98.4,FLYING
101.34,ASCENT,RKT_SUSTAIN,215.75,80,-135.75,6728.64,130.2,34.75,9.62,0.08,-0.352,1,0,0,0,0,0,0,0,0,0,0,25,0,0,0,0,0,0,0,0,90,0,0,0,0,0,0,0,0,0,0,0,0,0,0,0,1.354,41127.856,DEGRADED,22.6,0.978,7176,0,1.138,2509.52,2905.36,3.84,1,0,100.62,FLYING
103.56,ASCENT,RKT_SUSTAIN,217.39,80,-137.39,7020.93,133.17,34.74,9.6,0.08,-0.375,1,0,0,0,0,0,0,0,0,0,0,25,0,0,0,0,0,0,0,0,90,0,0,0,0,0,0,0,0,0,0,0,0,0,0,0,1.387,42823.534,DEGRADED,22.6,1.006,7500,0,1.1383,2607.6,3038.99,3.935,1,0,102.84,FLYING
105.78,ASCENT,RKT_SUSTAIN,218.95,80,-138.95,7319.81,136.17,34.75,9.59,0.09,-0.398,1,0,0,0,0,0,0,0,0,0,0,25,0,0,0,0,0,0,0,0,90,0,0,0,0,0,0,0,0,0,0,0,0,0,0,0,1.421,44579.28,DEGRADED,22.7,1.034,7832,0,1.1387,2713.65,3159.17,4.03,1,0,105.06,FLYING
108,ASCENT,RKT_SUSTAIN,220.7,80,-140.7,7625.56,139.37,34.75,9.58,0.09,-0.419,1,0,0,0,0,0,0,0,0,0,0,25,0,0,0,0,0,0,0,0,90,0,0,0,0,0,0,0,0,0,0,0,0,0,0,0,1.459,46496.929,DEGRADED,22.7,1.065,8174,0,1.139,2830.74,3303.74,4.133,1,0,107.28,FLYING
110.22,ASCENT,RKT_SUSTAIN,222.63,80,-142.63,7938.67,142.76,34.75,9.58,0.09,-0.439,1,0,0,0,0,0,0,0,0,0,0,25,0,0,0,0,0,0,0,0,90,0,0,0,0,0,0,0,0,0,0,0,0,0,0,0,1.499,48530.637,DEGRADED,22.7,1.098,8525,0,1.1394,2961.49,3473.32,4.243,1,0,109.5,FLYING
112.44,ASCENT,RKT_SUSTAIN,224.72,80,-144.72,8259.68,146.49,34.76,9.58,0.09,-0.45,1,0,0,0,0,0,0,0,0,0,0,25,0,0,0,0,0,0,0,0,90,0,0,0,0,0,0,0,0,0,0,0,0,0,0,0,1.541,50680.501,DEGRADED,22.8,1.133,8889,0,1.1398,3106.97,3666.3,4.361,1,0,111.72,FLYING
114.66,ASCENT,RKT_SUSTAIN,226.91,80,-146.91,8589.18,150.41,34.81,9.63,0.1,-0.465,1,0,0,0,0,0,0,0,0,0,0,25,0,0,0,0,0,0,0,0,90,0,0,0,0,0,0,0,0,0,0,0,0,0,0,0,1.586,52961.911,DEGRADED,22.8,1.172,9265,0,1.1402,3268.21,3881.93,4.489,1,0,113.94,FLYING
116.88,ASCENT,RKT_SUSTAIN,228.68,80,-148.68,8930.86,154.76,34.61,9.41,0.1,-0.48,1,0,0,0,0,0,0,0,0,0,0,25,0,0,0,0,0,0,0,0,90,0,0,0,0,0,0,0,0,0,0,0,0,0,0,0,1.631,55283.75,DEGRADED,22.9,1.211,9656,0,1.1406,3445.29,4124,4.629,1,0,116.16,FLYING
119.1,ASCENT,RKT_SUSTAIN,229.36,80,-149.36,9276.17,159.34,33.76,8.55,0.09,-0.49,1,0,0,0,0,0,0,0,0,0,0,25,0,0,0,0,0,0,0,0,90,0,0,0,0,0,0,0,0,0,0,0,0,0,0,0,1.674,57633.226,DEGRADED,22.8,1.248,10064,0,1.141,3628.08,4398.02,4.781,1,0,118.38,FLYING
121.32,ASCENT,RKT_SUSTAIN,229.83,80,-149.83,9635.44,164.92,32.55,7.28,0.08,-0.504,1,0,0,0,0,0,0,0,0,0,0,25,0,0,0,0,0,0,0,0,90,0,0,0,0,0,0,0,0,0,0,0,0,0,0,0,1.722,60215.839,DEGRADED,22.6,1.287,10491,0,1.1414,3817.79,4658.63,4.961,1,0,120.6,FLYING
123.54,ASCENT,RKT_SUSTAIN,230.84,80,-150.84,10006.53,170.08,32.12,6.89,0.08,-0.537,1,0,0,0,0,0,0,0,0,0,0,25,0,0,0,0,0,0,0,0,90,0,0,0,0,0,0,0,0,0,0,0,0,0,0,0,1.785,63280.612,DEGRADED,22.5,1.331,10935,0,1.1418,4020.31,5044.35,5.126,1,0,122.82,FLYING
125.76,ASCENT,RKT_SUSTAIN,231.57,80,-151.57,10389.67,175.21,32.19,6.95,0.08,-0.567,1,0,0,0,0,0,0,0,0,0,0,25,0,0,0,0,0,0,0,0,90,0,0,0,0,0,0,0,0,0,0,0,0,0,0,0,1.848,66433.359,DEGRADED,22.3,1.376,11396,0,1.1423,4237.93,5401.73,5.292,1,0,125.04,FLYING
127.98,ASCENT,RKT_SUSTAIN,232.02,80,-152.02,10784.4,180.78,31.7,6.56,0.07,-0.581,1,0,0,0,0,0,0,0,0,0,0,25,0,0,0,0,0,0,0,0,90,0,0,0,0,0,0,0,0,0,0,0,0,0,0,0,1.907,69667.276,DEGRADED,22.1,1.424,11878,0,1.1427,4465.51,5754.48,5.483,1,0,127.26,FLYING
130.2,ASCENT,RKT_SUSTAIN,232.19,80,-152.19,11192.72,187.04,32.08,6.9,0.08,-0.614,1,0,0,0,0,0,0,0,0,0,0,25,0,0,0,0,0,0,0,0,90,0,0,0,0,0,0,0,0,0,0,0,0,0,0,0,1.97,73016.296,DEGRADED,21.9,1.474,12385,0,1.1431,4701.1,6123.82,5.697,1,0,129.48,FLYING
132.42,ASCENT,RKT_SUSTAIN,231.8,80,-151.8,11615.12,193.53,32.43,7.25,0.09,-0.658,1,0,0,0,0,0,0,0,0,0,0,25,0,0,0,0,0,0,0,0,90,0,0,0,0,0,0,0,0,0,0,0,0,0,0,0,2.031,76395.51,DEGRADED,21.6,1.525,12916,0,1.1436,4942.25,6460.2,5.911,1,0,131.7,FLYING
134.6,ASCENT,RKT_SUSTAIN,230.93,80,-150.93,12043.78,199.86,32.74,7.55,0.1,-0.687,1,0,0,0,0,0,0,0,0,0,0,25,0,0,0,0,0,0,0,0,90,0,0,0,0,0,0,0,0,0,0,0,0,0,0,0,2.091,79804.052,DEGRADED,21.3,1.576,13466,0,1.1441,5184.84,6737.2,6.131,1,0,133.88,FLYING
136.78,ASCENT,RKT_SUSTAIN,229.51,80,-149.51,12486.41,206.28,33.19,7.98,0.12,-0.713,1,0,0,0,0,0,0,0,0,0,0,25,0,0,0,0,0,0,0,0,90,0,0,0,0,0,0,0,0,0,0,0,0,0,0,0,2.152,83288.208,DEGRADED,20.9,1.627,14034,0,1.1445,5426.26,7018.32,6.349,1,0,136.06,FLYING
139,ASCENT,RKT_SUSTAIN,227.5,80,-147.5,12951.48,212.74,33.27,8.04,0.12,-0.742,1,0,0,0,0,0,0,0,0,0,0,25,0,0,0,0,0,0,0,0,90,0,0,0,0,0,0,0,0,0,0,0,0,0,0,0,2.212,86926.333,DEGRADED,20.4,1.681,14627,0,1.145,5663.19,7356.25,6.582,1,0,138.28,FLYING
141.22,ASCENT,RKT_SUSTAIN,224.93,80,-144.93,13431.35,219.51,33.83,8.61,0.14,-0.758,1,0,0,0,0,0,0,0,0,0,0,25,0,0,0,0,0,0,0,0,90,0,0,0,0,0,0,0,0,0,0,0,0,0,0,0,2.273,90581.231,DEGRADED,19.8,1.734,15244,0,1.1455,5893.72,7676.08,6.815,1,0,140.5,FLYING
143.42,ASCENT,RKT_SUSTAIN,221.81,80,-141.81,13921.47,225.82,34.34,9.06,0.15,-0.788,1,0,0,0,0,0,0,0,0,0,0,25,0,0,0,0,0,0,0,0,90,0,0,0,0,0,0,0,0,0,0,0,0,0,0,0,2.332,94290.137,DEGRADED,19.2,1.787,15884,0,1.1459,6115.06,7937.34,7.047,1,0,142.7,FLYING
145.62,ASCENT,RKT_SUSTAIN,218.04,80,-138.04,14426.09,232.57,34.64,9.39,0.16,-0.812,1,0,0,0,0,0,0,0,0,0,0,25,0,0,0,0,0,0,0,0,90,0,0,0,0,0,0,0,0,0,0,0,0,0,0,0,2.388,97948.993,DEGRADED,18.5,1.84,16543,0,1.1464,6320.61,8170.35,7.291,1,0,144.9,FLYING
147.82,ASCENT,RKT_SUSTAIN,213.78,80,-133.78,14945.07,239.21,35.16,9.91,0.18,-0.821,1,0,0,0,0,0,0,0,0,0,0,25,0,0,0,0,0,0,0,0,90,0,0,0,0,0,0,0,0,0,0,0,0,0,0,0,2.443,101655.347,DEGRADED,17.7,1.892,17221,0,1.1469,6509.85,8406.97,7.532,1,0,147.1,FLYING
150.04,ASCENT,RKT_SUSTAIN,208.96,80,-128.96,15483.17,245.58,35.75,10.49,0.2,-0.851,1,0,0,0,0,0,0,0,0,0,0,25,0,0,0,0,0,0,0,0,90,0,0,0,0,0,0,0,0,0,0,0,0,0,0,0,2.5,105456.309,DEGRADED,16.9,1.944,17921,0,1.1474,6682.15,8639.31,7.767,1,0,149.32,FLYING
152.24,ASCENT,RKT_SUSTAIN,203.68,80,-123.68,16030.43,251.89,36.37,11.1,0.22,-0.866,1,0,0,0,0,0,0,0,0,0,0,25,0,0,0,0,0,0,0,0,90,0,0,0,0,0,0,0,0,0,0,0,0,0,0,0,2.549,109061.619,DEGRADED,16,1.994,18640,0,1.1478,6831.74,8793.8,8.004,1,0,151.52,FLYING
154.46,ASCENT,RKT_SUSTAIN,197.56,80,-117.56,16596.51,257.94,36.72,11.43,0.23,-0.89,1,0,0,0,0,0,0,0,0,0,0,25,0,0,0,0,0,0,0,0,90,0,0,0,0,0,0,0,0,0,0,0,0,0,0,0,2.588,112254.866,DEGRADED,15.1,2.039,19378,0,1.1483,6944.9,8934.54,8.242,1,0,153.74,FLYING
156.66,ASCENT,RKT_SUSTAIN,191.04,80,-111.04,17170.76,263.87,37.53,12.25,0.26,-0.913,1,0,0,0,0,0,0,0,0,0,0,25,0,0,0,0,0,0,0,0,90,0,0,0,0,0,0,0,0,0,0,0,0,0,0,0,2.612,114763.55,DEGRADED,14.1,2.082,20129,0,1.1487,7002.87,8972.76,8.468,1,0,155.94,FLYING
158.88,ASCENT,RKT_SUSTAIN,183.99,80,-103.99,17762.68,269.29,38.23,12.94,0.28,-0.918,1,0,0,0,0,0,0,0,0,0,0,25,0,0,0,0,0,0,0,0,90,0,0,0,0,0,0,0,0,0,0,0,0,0,0,0,2.619,116644.816,DEGRADED,13.1,2.121,20892,0,1.1492,6984.97,8926.91,8.688,1,0,158.16,FLYING
161.08,ASCENT,RKT_SUSTAIN,176.62,80,-96.62,18360.61,274.1,39.11,13.81,0.31,-0.941,1,0,0,0,0,0,0,0,0,0,0,25,0,0,0,0,0,0,0,0,90,0,0,0,0,0,0,0,0,0,0,0,0,0,0,0,2.612,117854.993,DEGRADED,12.1,2.155,21659,0,1.1496,6879.41,8718.87,8.883,1,0,160.36,FLYING
163.28,ASCENT,RKT_SUSTAIN,168.89,80,-88.89,18968.4,278.22,40.09,14.78,0.34,-0.944,1,0,0,0,0,0,0,0,0,0,0,25,0,0,0,0,0,0,0,0,90,0,0,0,0,0,0,0,0,0,0,0,0,0,0,0,2.591,118354,DEGRADED,11.1,2.184,22424,0,1.15,6675.93,8360.81,9.055,1,0,162.56,FLYING
165.48,ASCENT,RKT_SUSTAIN,160.92,80,-80.92,19589.99,281.48,41.46,16.14,0.38,-0.956,1,0,0,0,0,0,0,0,0,0,0,25,0,0,0,0,0,0,0,0,90,0,0,0,0,0,0,0,0,0,0,0,0,0,0,0,2.554,118028.278,DEGRADED,10.1,2.206,23180,0,1.1503,6374.77,7862.21,9.196,1,0,164.76,FLYING
167.68,ASCENT,RKT_SUSTAIN,152.73,80,-72.73,20206.56,283.89,43.08,17.76,0.43,-0.957,1,0,0,0,0,0,0,0,0,0,0,25,0,0,0,0,0,0,0,0,90,0,0,0,0,0,0,0,0,0,0,0,0,0,0,0,2.501,116855.356,DEGRADED,9.1,2.221,23920,0,1.1507,5984.3,7221.43,9.305,1,0,166.96,FLYING
169.9,ASCENT,RKT_SUSTAIN,144.3,80,-64.3,20838.64,285.27,44.81,19.46,0.48,-0.951,1,0,0,0,0,0,0,0,0,0,0,25,0,0,0,0,0,0,0,0,90,0,0,0,0,0,0,0,0,0,0,0,0,0,0,0,2.429,114797.124,DEGRADED,8.2,2.227,24642,0,1.1509,5515.61,6444.99,9.38,1,0,169.18,FLYING
172.12,ASCENT,RKT_SUSTAIN,135.85,80,-55.85,21472.27,285.21,45.3,20,0.51,-0.967,1,0,0,0,0,0,0,0,0,0,0,25,0,0,0,0,0,0,0,0,90,0,0,0,0,0,0,0,0,0,0,0,0,0,0,0,3.379,112953.586,VALID,7.3,2.227,25335,0,1.1512,4996.91,5627.05,9.401,1,0,171.4,FLYING
174.34,ASCENT,RKT_SUSTAIN,127.6,80,-47.6,22103.25,282.93,45.1,20,0.48,-0.925,1,0,0,0,0,0,0,0,0,0,0,25,0,0,0,0,0,0,0,0,90,0,0,0,0,0,0,0,0,0,0,0,0,0,0,0,3.288,110965.359,VALID,6.5,2.222,25980,0,1.1514,4457.09,4883.33,9.347,1,0,173.62,FLYING
176.56,ASCENT,RKT_SUSTAIN,119.7,80,-39.7,22726.62,278.44,44.74,20,0.39,-0.79,1,0,0,0,0,0,0,0,0,0,0,25,0,0,0,0,0,0,0,0,90,0,0,0,0,0,0,0,0,0,0,0,0,0,0,0,3.188,108485.18,VALID,5.7,2.214,26559,0,1.1516,3911.16,4187.08,9.217,1,0,175.84,FLYING
178.78,ASCENT,RKT_SUSTAIN,112.24,80,-32.24,23337.71,271.94,44.23,20,0.28,-0.616,1,0,0,0,0,0,0,0,0,0,0,25,0,0,0,0,0,0,0,0,90,0,0,0,0,0,0,0,0,0,0,0,0,0,0,0,3.082,105648.723,VALID,5,2.201,27066,0,1.1518,3374.75,3529.52,9.017,1,0,178.06,FLYING
181,ASCENT,RKT_SUSTAIN,105.28,80,-25.28,23932.32,263.69,43.59,20,0.2,-0.49,1,0,0,0,0,0,0,0,0,0,0,25,0,0,0,0,0,0,0,0,90,0,0,0,0,0,0,0,0,0,0,0,0,0,0,0,3,103525.805,VALID,4.4,2.185,27501,0,1.1519,2869.39,2921.45,8.756,1,0,180.28,FLYING
183.22,ASCENT,RKT_SUSTAIN,98.88,80,-18.88,24506.9,253.98,42.84,20,0.12,-0.382,1,0,0,0,0,0,0,0,0,0,0,25,0,0,0,0,0,0,0,0,90,0,0,0,0,0,0,0,0,0,0,0,0,0,0,0,2.944,102196.695,VALID,3.9,2.167,27870,0,1.152,2414.21,2381.93,8.444,1,0,182.5,FLYING
185.4,ASCENT,RKT_SUSTAIN,93.19,80,-13.19,25048.77,243.27,42,20,0.04,-0.277,1,0,0,0,0,0,0,0,0,0,0,25,0,0,0,0,0,0,0,0,90,0,0,0,0,0,0,0,0,0,0,0,0,0,0,0,2.914,0,VALID,3.5,2.148,28179,0,1.152,2017.92,1914.2,8.1,1,0,184.68,FLYING
187.56,ASCENT,RKT_SUSTAIN,88.03,80,-8.03,25561.58,231.73,41.08,20,359.97,-0.167,1,0,0,0,0,0,0,0,0,0,0,25,0,0,0,0,0,0,0,0,90,0,0,0,0,0,0,0,0,0,0,0,0,0,0,0,2.905,0,VALID,3.1,2.128,28435,0,1.152,1682.76,1519.69,7.723,1,0,186.84,FLYING
189.72,ASCENT,RKT_SUSTAIN,83.22,80,-3.22,26048.56,219.41,40.08,20,359.9,-0.064,1,0,0,0,0,0,0,0,0,0,0,25,0,0,0,0,0,0,0,0,90,0,0,0,0,0,0,0,0,0,0,0,0,0,0,0,2.893,0,VALID,2.8,2.106,28648,0,1.152,1402.48,1201.42,7.319,1,0,189,FLYING
191.86,ASCENT,RKT_SUSTAIN,78.86,80,1.14,26504.04,206.55,39.02,20,359.83,0.034,1,0,0,0,0,0,0,0,0,0,0,25,0,0,0,0,0,0,0,0,90,0,0,0,0,0,0,0,0,0,0,0,0,0,0,0,2.022,0,DEGRADED,2.5,2.081,28824,0,1.152,1168.76,942.32,6.895,1,0,191.14,FLYING
193.98,ASCENT,RKT_SUSTAIN,74.96,80,5.04,26927.54,193.3,37.9,20,359.78,0.12,1,0,0,0,0,0,0,0,0,0,0,23.665,0,0,0,0,0,0,0,0,90,0,0,0,0,0,0,0,0,0,0,0,0,0,0,0,2.028,0,DEGRADED,2.2,2.058,28971,0,1.152,976.52,734.77,6.457,1,0,193.26,FLYING
196.12,ASCENT,RKT_SUSTAIN,71.43,80,8.57,27326.04,179.49,36.72,20,359.73,0.189,1,0,0,0,0,0,0,0,0,0,0,22.066,0,0,0,0,0,0,0,0,90,0,0,0,0,0,0,0,0,0,0,0,0,0,0,0,2.035,0,DEGRADED,2,2.035,29093,0,1.152,819.22,572.16,6,1,0,195.4,FLYING
198.24,ASCENT,RKT_SUSTAIN,68.32,80,11.68,27691.28,165.46,35.5,20,359.7,0.24,1,0,0,0,0,0,0,0,0,0,0,20.424,0,0,0,0,0,0,0,0,90,0,0,0,0,0,0,0,0,0,0,0,0,0,0,0,2.051,0,DEGRADED,1.8,2.014,29195,0,1.152,691.28,442.82,5.534,1,0,197.52,FLYING
200.36,ASCENT,RKT_SUSTAIN,65.56,80,14.44,28026.48,151.18,34.23,20,359.67,0.286,1,0,0,0,0,0,0,0,0,0,0,18.732,0,0,0,0,0,0,0,0,90,0,0,0,0,0,0,0,0,0,0,0,0,0,0,0,2.07,0,DEGRADED,1.7,1.995,29280,0,1.152,587.67,340.89,5.059,1,0,199.64,FLYING
202.48,ASCENT,RKT_SUSTAIN,63.13,80,16.87,28331.16,136.68,32.93,20,359.64,0.33,1,0,0,0,0,0,0,0,0,0,0,16.997,0,0,0,0,0,0,0,0,90,0,0,0,0,0,0,0,0,0,0,0,0,0,0,0,2.093,0,DEGRADED,1.6,1.976,29352,0,1.152,503.97,260.28,4.576,1,0,201.76,FLYING
204.6,ASCENT,RKT_SUSTAIN,61.03,80,18.97,28604.84,121.95,31.59,20,359.62,0.371,1,0,0,0,0,0,0,0,0,0,0,15.217,0,0,0,0,0,0,0,0,90,0,0,0,0,0,0,0,0,0,0,0,0,0,0,0,2.119,0,DEGRADED,1.5,1.96,29412,0,1.152,436.48,199.46,4.086,1,0,203.88,FLYING
206.72,ASCENT,RKT_SUSTAIN,59.22,80,20.78,28847.06,107.03,30.21,20,359.59,0.412,1,0,0,0,0,0,0,0,0,0,0,13.397,0,0,0,0,0,0,0,0,90,0,0,0,0,0,0,0,0,0,0,0,0,0,0,0,2.148,0,DEGRADED,1.4,1.945,29463,0,1.152,382.18,153.44,3.588,1,0,206,FLYING
208.84,ASCENT,RKT_SUSTAIN,57.69,80,22.31,29057.48,91.96,28.8,20,359.57,0.454,1,0,0,0,0,0,0,0,0,0,0,11.544,0,0,0,0,0,0,0,0,90,0,0,0,0,0,0,0,0,0,0,0,0,0,0,0,2.179,0,DEGRADED,1.3,1.932,29505,0,1.152,338.61,118.53,3.085,1,0,208.12,FLYING
211.12,ASCENT,RKT_SUSTAIN,57.51,80,22.49,29252.79,81.98,27.67,20,358.31,3.748,1,0,0,0,0,0,0,0,0,0,0,10.154,0,0,0,0,0,0,0,0,90,0,0,0,0,0,0,0,0,0,0,0,0,0,0,0,6.592,19019.011,VALID,1.2,1.954,29556,0,1.1463,1903.64,1924.47,2.748,1,0,210.4,FLYING
213.3,ASCENT,RKT_SUSTAIN,58.47,80,21.53,29425.71,76.95,26.92,20,357.63,5.268,1,0,0,0,0,0,0,0,0,0,0,9.351,0,0,0,0,0,0,0,0,90,0,0,0,0,0,0,0,0,0,0,0,0,0,0,0,2.757,13186.03,DEGRADED,1.2,2.011,29643,0,1.1356,3602.38,4506.3,2.592,1,0,212.58,FLYING
215.48,ASCENT,RKT_SUSTAIN,59.51,80,20.49,29587.69,71.89,26.17,20,356.72,7.447,1,0,0,0,0,0,0,0,0,0,0,8.574,0,0,0,0,0,0,0,0,90,0,0,0,0,0,0,0,0,0,0,0,0,0,0,0,2.314,11758.825,DEGRADED,1.3,2.07,29747,0,1.1247,4741.67,6245.42,2.434,1,0,214.76,FLYING
217.68,ASCENT,RKT_SUSTAIN,60.6,80,19.4,29739.62,66.73,25.13,19.72,356.06,8.83,1,0,0,0,0,0,0,0,0,0,0,7.815,0,0,0,0,0,0,0,0,90,0,0,0,0,0,0,0,0,0,0,0,0,0,0,0,2.183,11451.77,DEGRADED,1.3,2.131,29855,0,1.1138,5532.67,7439.38,2.271,1,0,216.96,FLYING
219.9,ASCENT,RKT_SUSTAIN,61.84,80,18.16,29878.85,58.98,22.8,17.91,357.63,6.367,1,0,0,0,0,0,0,0,0,0,0,6.779,0,0,0,0,0,0,0,0,90,0,0,0,0,0,0,0,0,0,0,0,0,0,0,0,2.229,11884.015,DEGRADED,1.4,2.196,29956,0,1.1027,6202.94,8527.05,2.02,1,0,219.18,FLYING
222.12,ASCENT,RKT_SUSTAIN,63.09,80,16.91,30004.08,53.55,23.67,19.92,354.33,11.549,1,0,0,0,0,0,0,0,0,0,0,6.05,0,0,0,0,0,0,0,0,90,0,0,0,0,0,0,0,0,0,0,0,0,0,0,0,2.185,11883.238,DEGRADED,1.4,2.259,30049,0,1.0917,6615.12,9091.12,1.844,1,0,221.4,FLYING
224.3,ASCENT,RKT_SUSTAIN,64.37,80,15.63,30114.63,47.95,23.3,19.95,354.48,7.837,1,0,0,0,0,0,0,0,0,0,0,5.333,0,0,0,0,0,0,0,0,90,0,0,0,0,0,0,0,0,0,0,0,0,0,0,0,2.243,12359.144,DEGRADED,1.5,2.323,30135,0,1.0808,6980.1,9494.86,1.663,1,0,223.58,FLYING
226.48,ASCENT,RKT_SUSTAIN,65.72,80,14.28,30213.24,42.63,23.14,19.97,356.39,12.044,1,0,0,0,0,0,0,0,0,0,0,4.663,0,0,0,0,0,0,0,0,90,0,0,0,0,0,0,0,0,0,0,0,0,0,0,0,2.343,13035.652,DEGRADED,1.5,2.387,30215,0,1.07,7348.29,9974.97,1.487,1,0,225.76,FLYING
228.66,ASCENT,RKT_SUSTAIN,67.12,80,12.88,30300.14,37.38,22.78,20,359.73,0.663,1,0,0,0,0,0,0,0,0,0,0,4.025,0,0,0,0,0,0,0,0,90,0,0,0,0,0,0,0,0,0,0,0,0,0,0,0,2.447,13799.372,DEGRADED,1.6,2.452,30286,0,1.0592,7681.58,10321.24,1.312,1,0,227.94,FLYING
230.86,ASCENT,RKT_SUSTAIN,68.6,80,11.4,30376.57,32.33,22.39,20.01,359.21,3.59,1,0,0,0,0,0,0,0,0,0,0,3.429,0,0,0,0,0,0,0,0,90,0,0,0,0,0,0,0,0,0,0,0,0,0,0,0,2.529,14410.135,DEGRADED,1.6,2.518,30351,0,1.0482,8028.63,10825.97,1.142,1,0,230.14,FLYING
233.06,ASCENT,RKT_SUSTAIN,70.15,80,9.85,30441.89,27.21,21.77,19.95,2.37,-1.947,1,0,0,0,0,0,0,0,0,0,0,2.844,0,0,0,0,0,0,0,0,90,0,0,0,0,0,0,0,0,0,0,0,0,0,0,0,2.647,15261.628,DEGRADED,1.7,2.585,30408,0,1.0373,8375.79,11253.02,0.968,1,0,232.34,FLYING
235.26,ASCENT,RKT_SUSTAIN,71.77,80,8.23,30496.44,22.4,21.28,19.92,3.02,-3.214,1,0,0,0,0,0,0,0,0,0,0,2.31,0,0,0,0,0,0,0,0,90,0,0,0,0,0,0,0,0,0,0,0,0,0,0,0,2.739,15988.029,DEGRADED,1.8,2.653,30458,0,1.0263,8705.12,11658.53,0.803,1,0,234.54,FLYING
237.46,ASCENT,RKT_SUSTAIN,73.46,80,6.54,30540.71,18.18,20.85,19.99,3.01,-12.038,1,0,0,0,0,0,0,0,0,0,0,1.849,0,0,0,0,0,0,0,0,90,0,0,0,0,0,0,0,0,0,0,0,0,0,0,0,2.814,16668.662,DEGRADED,1.8,2.722,30500,0,1.0154,9016.1,11989.52,0.656,1,0,236.74,FLYING
239.64,ASCENT,RKT_SUSTAIN,75.2,80,4.8,30574.81,13.59,20.89,20.01,359.66,-2.093,1,0,0,0,0,0,0,0,0,0,0,1.365,0,0,0,0,0,0,0,0,90,0,0,0,0,0,0,0,0,0,0,0,0,0,0,0,2.898,17281.908,DEGRADED,1.9,2.791,30535,0,1.0045,9365.31,12451.45,0.494,1,0,238.92,FLYING
241.86,ASCENT,RKT_SUSTAIN,77.06,80,2.94,30600.3,9.45,20.29,19.99,3.04,-8.141,1,0,0,0,0,0,0,0,0,0,0,0.937,0,0,0,0,0,0,0,0,90,0,0,0,0,0,0,0,0,0,0,0,0,0,0,0,3.028,18162.749,DEGRADED,2,2.863,30564,0,1,9699.08,12944.53,0.346,1,0,241.14,FLYING
244.08,ASCENT,RKT_SUSTAIN,79,80,1,30616.94,5.65,20.06,20,3.01,-9.064,1,0,0,0,0,0,0,0,0,0,0,0.553,0,0,0,0,0,0,0,0,90,0,0,0,0,0,0,0,0,0,0,0,0,0,0,0,3.127,18766,DEGRADED,2.1,2.935,30586,0,1,10044.06,13437.34,0.207,1,0,243.36,FLYING
246.3,ASCENT,RKT_SUSTAIN,81.03,80,-1.03,30625.54,2.27,19.99,20,2.14,-6.715,1,0,0,0,0,0,0,0,0,0,0,0.218,0,0,0,0,0,0,0,0,90,0,0,0,0,0,0,0,0,0,0,0,0,0,0,0,3.223,19341.333,DEGRADED,2.2,3.009,30602,0,1,10392.14,13980.21,0.082,1,0,245.58,FLYING
248.52,ASCENT,RKT_SUSTAIN,83.13,80,-3.13,30627.16,-0.68,19.91,20,1.15,-3.75,1,0,0,0,0,0,0,0,0,0,0,0.469,0,0,0,0,0,0,0,0,90,0,0,0,0,0,0,0,0,0,0,0,0,0,0,0,3.319,19922.736,DEGRADED,2.3,3.084,30611,0,1,10734.68,14479.27,0.506,1,0,247.8,FLYING
250.72,ASCENT,RKT_SUSTAIN,85.23,80,-5.23,30622.63,-3.28,19.71,20,357.65,5.633,1,0,0,0,0,0,0,0,0,0,0,1.821,0,0,0,0,0,0,0,0,90,0,0,0,0,0,0,0,0,0,0,0,0,0,0,0,3.386,20331.727,DEGRADED,2.4,3.158,30615,0,1,11036.75,14675.79,2.006,1,0,250,FLYING
252.9,ASCENT,RKT_SUSTAIN,87.41,80,-7.41,30613.02,-5.39,19.66,20,358.48,3.293,1,0,0,0,0,0,0,0,0,0,0,3.208,0,0,0,0,0,0,0,0,90,0,0,0,0,0,0,0,0,0,0,0,0,0,0,0,3.505,21044.337,DEGRADED,2.6,3.233,30614,0,1,11369.57,15004.68,3.506,1,0,252.18,FLYING
255.08,ASCENT,RKT_SUSTAIN,89.63,80,-9.63,30599.28,-7.09,19.59,20,358.77,2.45,1,0,0,0,0,0,0,0,0,0,0,4.623,0,0,0,0,0,0,0,0,90,0,0,0,0,0,0,0,0,0,0,0,0,0,0,0,2.715,21731.354,DEGRADED,2.7,3.308,30608,0,1,11726.87,15378.17,5.006,1,0,254.36,FLYING
257.26,ASCENT,RKT_SUSTAIN,91.89,80,-11.89,30582.36,-8.32,19.54,20,358.9,2.041,1,0,0,0,0,0,0,0,0,0,0,6.066,0,0,0,0,0,0,0,0,90,0,0,0,0,0,0,0,0,0,0,0,0,0,0,0,2.802,22419.326,DEGRADED,2.8,3.384,30597,0,1,12098.33,15769.05,6.506,1,0,256.54,FLYING
259.44,ASCENT,RKT_SUSTAIN,94.18,80,-14.18,30563.27,-9.06,19.51,20,358.98,1.794,1,0,0,0,0,0,0,0,0,0,0,7.536,0,0,0,0,0,0,0,0,90,0,0,0,0,0,0,0,0,0,0,0,0,0,0,0,2.889,23115.262,DEGRADED,3,3.46,30584,0,1,12480.14,16167.09,8.006,1,0,258.72,FLYING
261.64,ASCENT,RKT_SUSTAIN,96.51,80,-16.51,30542.92,-9.31,19.51,20,359.03,1.629,1,0,0,0,0,0,0,0,0,0,0,9.033,0,0,0,0,0,0,0,0,90,0,0,0,0,0,0,0,0,0,0,0,0,0,0,0,2.979,23827.663,DEGRADED,3.1,3.537,30567,0,1,12871.21,16640.38,9.506,1,0,260.92,FLYING
263.84,ASCENT,RKT_SUSTAIN,98.85,80,-18.85,30522.63,-9.01,19.54,20,359.07,1.51,1,0,0,0,0,0,0,0,0,0,0,10.557,0,0,0,0,0,0,0,0,90,0,0,0,0,0,0,0,0,0,0,0,0,0,0,0,3.07,24551.109,DEGRADED,3.3,3.614,30549,0,1,13271.92,17076.64,11.006,1,0,263.12,FLYING
266.02,ASCENT,RKT_SUSTAIN,101.17,80,-21.17,30503.8,-8.14,19.59,20,359.09,1.423,1,0,0,0,0,0,0,0,0,0,0,12.108,0,0,0,0,0,0,0,0,90,0,0,0,0,0,0,0,0,0,0,0,0,0,0,0,3.162,25279.408,DEGRADED,3.4,3.69,30530,0,1,13679.7,17434.4,12.506,1,0,265.3,FLYING
268.2,ASCENT,RKT_SUSTAIN,103.46,80,-23.46,30487.5,-6.7,19.67,20,359.11,1.354,1,0,0,0,0,0,0,0,0,0,0,13.685,0,0,0,0,0,0,0,0,90,0,0,0,0,0,0,0,0,0,0,0,0,0,0,0,3.255,26019.743,DEGRADED,3.6,3.767,30511,0,1,14094.09,17803.11,14.006,1,0,267.48,FLYING
270.38,ASCENT,RKT_SUSTAIN,105.73,80,-25.73,30475.1,-4.84,20.21,20.4,359.15,1.194,1,0,0,0,0,0,0,0,0,0,0,15.277,0,0,0,0,0,0,0,0,90,0,0,0,0,0,0,0,0,0,0,0,0,0,0,0,3.349,26732.892,DEGRADED,3.7,3.843,30493,0,1,14514.14,18191.08,15.506,1,0,269.66,FLYING
272.56,ASCENT,RKT_SUSTAIN,107.84,80,-27.84,30469.03,-0.98,19.96,20.01,359.17,1.176,1,0,0,0,0,0,0,0,0,0,0,16.958,0,0,0,0,0,0,0,0,90,0,0,0,0,0,0,0,0,0,0,0,0,0,0,0,3.444,27517.817,DEGRADED,3.9,3.916,30479,0,1,14895.07,18256.55,17.006,1,0,271.84,FLYING
274.74,ASCENT,RKT_SUSTAIN,109.96,80,-29.96,30470.36,2.3,20.1,20,359.15,1.222,1,0,0,0,0,0,0,0,0,0,0,15.608,0,0,0,0,0,0,0,0,90,0,0,0,0,0,0,0,0,0,0,0,0,0,0,0,3.543,28299.786,DEGRADED,4,3.991,30472,0,1,15344.46,18759.28,15.506,1,0,274.02,FLYING
276.92,ASCENT,RKT_SUSTAIN,112,80,-32,30479.58,6.23,20.28,20,359.15,1.223,1,0,0,0,0,0,0,0,0,0,0,14.28,0,0,0,0,0,0,0,0,90,0,0,0,0,0,0,0,0,0,0,0,0,0,0,0,3.642,29097.473,DEGRADED,4.2,4.066,30472,0,1,15795.58,19224.63,14.006,1,0,276.2,FLYING
279.1,ASCENT,RKT_SUSTAIN,113.93,80,-33.93,30498.03,10.76,20.47,20,359.15,1.212,1,0,0,0,0,0,0,0,0,0,0,12.972,0,0,0,0,0,0,0,0,90,0,0,0,0,0,0,0,0,0,0,0,0,0,0,0,4.992,29914.722,DEGRADED,4.3,4.142,30481,0,1,16251.16,19685.27,12.506,1,0,278.38,FLYING
281.3,ASCENT,RKT_SUSTAIN,115.77,80,-35.77,30527.35,15.95,20.69,20,359.15,1.197,1,0,0,0,0,0,0,0,0,0,0,11.686,0,0,0,0,0,0,0,0,90,0,0,0,0,0,0,0,0,0,0,0,0,0,0,0,5.132,30760.901,DEGRADED,4.5,4.217,30504,0,1,16714.22,20223.19,11.006,1,0,280.58,FLYING
283.48,ASCENT,RKT_SUSTAIN,117.44,80,-37.44,30568.36,21.72,20.92,20,359.16,1.182,1,0,0,0,0,0,0,0,0,0,0,10.416,0,0,0,0,0,0,0,0,90,0,0,0,0,0,0,0,0,0,0,0,0,0,0,0,5.273,31622.849,DEGRADED,4.6,4.292,30541,0,1,17184.76,20665.89,9.506,1,0,282.76,FLYING
285.68,ASCENT,RKT_SUSTAIN,118.97,80,-38.97,30623.18,28.16,21.17,20,359.16,1.155,1,0,0,0,0,0,0,0,0,0,0,9.166,0,0,0,0,0,0,0,0,90,0,0,0,0,0,0,0,0,0,0,0,0,0,0,0,5.419,32519.402,DEGRADED,4.7,4.367,30597,0,1,17664.51,21204.55,8.006,1,0,284.96,FLYING
287.86,ASCENT,RKT_SUSTAIN,120.31,80,-40.31,30692.15,35.14,21.43,19.99,359.18,1.114,1,0,0,0,0,0,0,0,0,0,0,7.93,0,0,0,0,0,0,0,0,90,0,0,0,0,0,0,0,0,0,0,0,0,0,0,0,5.566,33437.736,DEGRADED,4.9,4.44,30674,0,1,18153.34,21655.64,6.506,1,0,287.14,FLYING
290.04,ASCENT,RKT_SUSTAIN,121.45,80,-41.45,30777.03,42.75,21.7,19.98,359.2,1.055,1,0,0,0,0,0,0,0,0,0,0,6.71,0,0,0,0,0,0,0,0,90,0,0,0,0,0,0,0,0,0,0,0,0,0,0,0,5.716,34389.217,DEGRADED,5,4.514,30776,0,1,18651.18,22140.54,5.006,1,0,289.32,FLYING
292.26,ASCENT,RKT_SUSTAIN,121.14,80,-41.14,30878.37,44.13,23.99,22.14,359.66,3.238,1,0,0,0,0,0,0,0,0,0,0,5.261,0,0,0,0,0,0,0,0,90,0,0,0,0,0,0,0,0,0,0,0,0,0,0,0,0,0,DEGRADED,5,4.547,30894,0,1,13597.78,17096.84,3.506,1,0,291.56,FLYING
294.54,ASCENT,RKT_SUSTAIN,119.31,80,-39.31,30974.59,40.81,24.81,23.12,358.03,8.15,1,0,0,0,0,0,0,0,0,0,0,3.65,0,0,0,0,0,0,0,0,90,0,0,0,0,0,0,0,0,0,0,0,0,0,0,0,0,0,VALID,4.9,4.516,30991,0,1,8350.74,7524.45,2.018,1,0,293.82,FLYING
296.84,ASCENT,RKT_SUSTAIN,117.53,80,-37.53,31066.21,37.76,27.8,26.48,355.82,7.458,1,0,0,0,0,0,0,0,0,0,0,3.374,0,0,0,0,0,0,0,0,90,0,0,0,0,0,0,0,0,0,0,0,0,0,0,0,0,0,DEGRADED,4.8,4.485,31074,0,1,5128.4,1410.84,1.853,1,0,296.12,FLYING
299.12,ASCENT,RKT_SUSTAIN,115.65,80,-35.65,31150.8,36.01,30.45,29.17,355.82,6.32,1,0,0,0,0,0,0,0,0,0,0,3.211,0,0,0,0,0,0,0,0,90,0,0,0,0,0,0,0,0,0,0,0,0,0,0,0,0,0,DEGRADED,4.7,4.446,31150,0,1,3149.48,-3156.39,1.75,1,0,298.42,FLYING
301.4,ASCENT,RKT_SUSTAIN,113.6,80,-33.6,31233.49,35.34,37.66,36.27,355.19,5.691,1,0,0,0,0,0,0,0,0,0,0,3.143,0,0,0,0,0,0,0,0,90,0,0,0,0,0,0,0,0,0,0,0,0,0,0,0,0,0,DEGRADED,4.5,4.4,31225,0,1,1934.17,-6796.61,1.696,1,0,300.68,FLYING
303.7,ASCENT,RKT_SUSTAIN,110.7,80,-30.7,31321.53,33.87,72.21,71.6,338.58,6.088,1,0,0,0,0,0,0,0,0,0,0,3.027,0,0,0,0,0,0,0,0,90,0,0,0,0,0,0,0,0,0,0,0,0,0,0,0,0,0,DEGRADED,4.3,4.324,31303,0,1,1187.82,-12420.92,1.609,1,0,302.98,FLYING
305.88,ASCENT,RKT_SUSTAIN,107.81,80,-27.81,31381.12,20.49,66.42,68.67,197.75,11.142,1,0,0,0,0,0,0,0,0,0,0,1.853,0,0,0,0,0,0,0,0,90,0,0,0,0,0,0,0,0,0,0,0,0,0,0,0,0,0,DEGRADED,4.1,4.233,31352,0,1,729.47,-17114.25,0.968,1,0,305.16,FLYING
308.06,ASCENT,RKT_SUSTAIN,106.17,80,-26.17,31395.16,-2.43,33.3,33.21,182.63,12.25,1,0,0,0,0,0,0,0,0,0,0,0.689,0,0,0,0,0,0,0,0,90,0,0,0,0,0,0,0,0,0,0,0,0,0,0,0,0,0,DEGRADED,3.9,4.172,31370,0,1,447.99,-16504.89,0.776,1,0,307.34,FLYING
310.26,ASCENT,RKT_SUSTAIN,106.06,80,-26.06,31361.98,-22.29,16.78,13.92,174.31,15.287,1,0,0,0,0,0,0,0,0,0,0,1.326,0,0,0,0,0,0,0,0,90,0,0,0,0,0,0,0,0,0,0,0,0,0,0,0,0,0,DEGRADED,3.9,4.154,31381,0,1,275.12,-11938.46,2.276,1,0,309.54,FLYING
312.44,ASCENT,RKT_SUSTAIN,106.59,80,-26.59,31293.2,-38.27,9.76,1.34,158.66,16.605,1,0,0,0,0,0,0,0,0,0,0,2.131,0,0,0,0,0,0,0,0,90,0,0,0,0,0,0,0,0,0,0,0,0,0,0,0,0,0,DEGRADED,3.9,4.151,31394,0,1,168.96,-8084.37,3.776,1,0,311.72,FLYING
314.62,ASCENT,RKT_SUSTAIN,107.09,80,-27.09,31192.56,-53.19,6.35,28.98,123.94,-21.807,1,0,0,0,0,0,0,0,0,0,0,2.974,0,0,0,0,0,0,0,0,90,0,0,0,0,0,0,0,0,0,0,0,0,0,0,0,0,0,DEGRADED,3.9,4.138,31405,0,1,103.76,-7446.46,5.276,1,0,313.9,FLYING
316.82,ASCENT,RKT_SUSTAIN,106.64,80,-26.64,31051.22,-68.31,-8.66,67.93,71.84,-47.649,1,0,0,0,0,0,0,0,0,0,0,3.756,0,0,0,0,0,0,0,0,90,0,0,0,0,0,0,0,0,0,0,0,0,0,0,0,0,0,DEGRADED,3.9,4.075,31421,0,1,63.72,-12309.23,6.776,1,0,316.1,FLYING
319,ASCENT,RKT_SUSTAIN,107.04,80,-27.04,30878.56,-85.58,-38.86,-39.74,34.13,9.129,1,0,0,0,0,0,0,0,0,0,0,4.465,0,0,0,0,0,0,0,0,90,0,0,0,0,0,0,0,0,0,0,0,0,0,0,0,0,0,VALID,3.9,4.03,31430,0,1,39.13,-12570.75,8.276,1,0,318.28,FLYING
321.2,ASCENT,RKT_SUSTAIN,107.78,80,-27.78,30658.62,-112.27,-47.42,-42.98,347.45,-4.774,1,0,0,0,0,0,0,0,0,0,0,4.702,0,0,0,0,0,0,0,0,90,0,0,0,0,0,0,0,0,0,0,0,0,0,0,0,0,0,VALID,3.9,3.985,31511,0,1,24.03,-13607.8,9.776,1,0,320.48,FLYING
323.38,ASCENT,RKT_SUSTAIN,109.05,80,-29.05,30386.42,-137.56,-41.86,-32.2,303.02,-0.935,1,0,0,0,0,0,0,0,0,0,0,4.962,0,0,0,0,0,0,0,0,90,0,0,0,0,0,0,0,0,0,0,0,0,0,0,0,0,0,VALID,4,3.939,31655,0,1,14.76,-14325.27,11.276,1,0,322.66,FLYING
325.56,ASCENT,RKT_SUSTAIN,110.48,80,-30.48,30076.16,-149.44,-23.95,88.08,263.76,65.899,1,0,0,0,0,0,0,0,0,0,0,5.789,0,0,0,0,0,0,0,0,90,0,0,0,0,0,0,0,0,0,0,0,0,0,0,0,0,0,VALID,4.1,3.888,31743,0,1,9.06,-15943.74,12.776,1,0,324.84,FLYING
327.74,ASCENT,RKT_SUSTAIN,112.27,80,-32.27,29736.78,-161.29,-20.18,-22.97,229.1,7.361,1,0,0,0,0,0,0,0,0,0,0,6.615,0,0,0,0,0,0,0,0,90,0,0,0,0,0,0,0,0,0,0,0,0,0,0,0,-21.211,0,VALID,4.2,3.833,31749,0,1,-25.89,-16195,14.276,1,0,327.02,FLYING
330.02,ASCENT,RKT_SUSTAIN,114.99,80,-34.99,29363.83,-162.01,-29.95,-45.92,212.26,-17.058,1,0,0,0,0,0,0,0,0,0,0,7.991,0,0,0,0,0,0,0,0,90,0,0,0,0,0,0,0,0,0,0,0,0,0,0,0,-8.212,0,DEGRADED,4.4,3.8,31618,0,1,-137.53,-14796.14,15.776,1,0,329.3,FLYING
332.14,ASCENT,RKT_SUSTAIN,116.93,80,-36.93,29012.01,-165.28,-58.38,-69.8,210.7,-23.93,1,0,0,0,0,0,0,0,0,0,0,9.207,0,0,0,0,0,0,0,0,90,0,0,0,0,0,0,0,0,0,0,0,0,0,0,0,-3.454,0,DEGRADED,4.6,3.748,31381,0,1,-213.56,-15711.33,17.276,1,0,331.42,FLYING
334.24,ASCENT,RKT_SUSTAIN,118.5,80,-38.5,28653.46,-175.13,-82.2,12.45,105.35,-2.44,1,0,0,0,0,0,0,0,0,0,0,10.06,0,0,0,0,0,0,0,0,90,0,0,0,0,0,0,0,0,0,0,0,0,0,0,0,0.741,0,DEGRADED,4.7,3.68,31166,0,1,-145.04,-17272.09,18.776,1,0,333.52,FLYING
336.36,ASCENT,RKT_SUSTAIN,120.66,80,-40.66,28264.15,-195.81,-55.25,45.4,33.43,-34.375,1,0,0,0,0,0,0,0,0,0,0,10.34,0,0,0,0,0,0,0,0,90,0,0,0,0,0,0,0,0,0,0,0,0,0,0,0,4.307,0,DEGRADED,4.9,3.619,31078,0,1,110.29,-17875.03,20.276,1,0,335.64,FLYING
338.48,ASCENT,RKT_SUSTAIN,125.29,80,-45.29,27831.04,-218.43,-27.04,-1.54,14.07,-39.513,1,0,0,0,0,0,0,0,0,0,0,10.637,0,0,0,0,0,0,0,0,90,0,0,0,0,0,0,0,0,0,0,0,0,0,0,0,6.306,0,DEGRADED,5.1,3.609,31132,0,1,511.1,-13176.65,21.776,1,0,337.76,FLYING
340.6,ASCENT,RKT_SUSTAIN,131.65,80,-51.65,27362.02,-230.25,6.55,21.51,13.44,-22.301,1,0,0,0,0,0,0,0,0,0,0,11.548,0,0,0,0,0,0,0,0,90,0,0,0,0,0,0,0,0,0,0,0,0,0,0,0,6.322,0,DEGRADED,5.6,3.634,31186,0,1,926.77,-7982.04,23.276,1,0,339.88,FLYING
342.7,ASCENT,RKT_SUSTAIN,136.79,80,-56.79,26888.56,-223.74,27.22,39.49,11.54,-5.33,1,0,0,0,0,0,0,0,0,0,0,13.278,0,0,0,0,0,0,0,0,90,0,0,0,0,0,0,0,0,0,0,0,0,0,0,0,5.163,0,DEGRADED,6.1,3.621,30962,0,1,1214.7,-8400.7,24.776,1,0,341.98,FLYING
344.84,ASCENT,RKT_SUSTAIN,139.72,80,-59.72,26429.96,-213.25,59.04,70.77,349.84,6.952,1,0,0,0,0,0,0,0,0,0,0,13.802,0,0,0,0,0,0,0,0,90,0,0,0,0,0,0,0,0,0,0,0,0,0,0,0,1.156,0,DEGRADED,6.5,3.554,30424,0,1,1193.12,-13278.71,25,1,0,344.12,FLYING
346.98,ASCENT,RKT_SUSTAIN,140.5,80,-60.5,25977.36,-212.31,69.07,80.85,280.34,14.578,1,0,0,0,0,0,0,0,0,0,0,13.437,0,0,0,0,0,0,0,0,90,0,0,0,0,0,0,0,0,0,0,0,0,0,0,0,-0.512,0,DEGRADED,6.7,3.436,29840,0,1,699.85,-20122.82,25,1,0,346.26,FLYING
349.18,ASCENT,RKT_SUSTAIN,141.58,80,-61.58,25499.57,-223.77,58.34,61.03,237.03,27.108,1,0,0,0,0,0,0,0,0,0,0,12.395,0,0,0,0,0,0,0,0,90,0,0,0,0,0,0,0,0,0,0,0,0,0,0,0,-0.162,0,DEGRADED,6.9,3.32,29378,0,1,314.72,-22871.77,25,1,0,348.46,FLYING
351.52,ASCENT,RKT_SUSTAIN,144.21,80,-64.21,24941.03,-251.01,45.4,61.84,248.52,41.875,1,0,0,0,0,0,0,0,0,0,0,10.372,0,0,0,0,0,0,0,0,90,0,0,0,0,0,0,0,0,0,0,0,0,0,0,0,-1.563,0,DEGRADED,7.1,3.217,29213,0,1,98.55,-23400.08,25,1,0,350.8,FLYING
353.84,ASCENT,RKT_SUSTAIN,146.1,80,-66.1,24341.37,-260.65,54.3,73.79,272.44,26.59,1,0,0,0,0,0,0,0,0,0,0,9.159,0,0,0,0,0,0,0,0,90,0,0,0,0,0,0,0,0,0,0,0,0,0,0,0,-1.923,0,VALID,7.3,3.09,29068,0,1,14.7,-25185.44,25,1,0,353.14,FLYING
356.22,ASCENT,RKT_SUSTAIN,146.73,80,-66.73,23723.67,-263.97,66.84,87.85,314.37,22.64,1,0,0,0,0,0,0,0,0,0,0,8.098,0,0,0,0,0,0,0,0,90,0,0,0,0,0,0,0,0,0,0,0,0,0,0,0,-1.139,0,VALID,7.5,2.937,28728,0,1,-31.25,-28031.94,25,1,0,355.5,FLYING
358.58,ASCENT,RKT_SUSTAIN,147.39,80,-67.39,23094.16,-262.97,68.19,87.28,347.45,10.373,1,0,0,0,0,0,0,0,0,0,0,7.172,0,0,0,0,0,0,0,0,90,0,0,0,0,0,0,0,0,0,0,0,0,0,0,0,0.293,10372.431,VALID,7.6,2.789,28227,0,1,-22.93,-29535.32,25,1,0,357.86,FLYING
360.78,ASCENT,RKT_SUSTAIN,147.07,80,-67.07,22530.92,-250.27,56.49,71.57,0.03,-17.904,1,0,0,0,0,0,0,0,0,0,0,7.133,0,0,0,0,0,0,0,0,90,0,0,0,0,0,0,0,0,0,0,0,0,0,0,0,0.717,84436.811,DEGRADED,7.6,2.644,27513,0,1,198.82,-28689.39,25,1,0,360.06,FLYING
363,ASCENT,RKT_SUSTAIN,147.58,80,-67.58,21991.88,-232.15,38.71,60.7,28.31,-11.717,1,0,0,0,0,0,0,0,0,0,0,7.752,0,0,0,0,0,0,0,0,90,0,0,0,0,0,0,0,0,0,0,0,0,0,0,0,1.429,172640.572,DEGRADED,7.7,2.526,26600,0,1,946.27,-25682.57,25,1,0,362.28,FLYING
365.22,ASCENT,RKT_SUSTAIN,150.14,80,-70.14,21498.05,-207.49,19.87,35.89,14.74,5.246,1,0,0,0,0,0,0,0,0,0,0,9.249,0,0,0,0,0,0,0,0,90,0,0,0,0,0,0,0,0,0,0,0,0,0,0,0,1.932,241339.642,DEGRADED,7.9,2.451,25575,0,1,2163.76,-20764.01,25,1,0,364.5,FLYING
367.44,ASCENT,RKT_SUSTAIN,159.88,80,-79.88,21033.27,-211.34,-20.91,-4.3,3.87,3.428,1,0,0,0,0,0,0,0,0,0,0,9.284,0,0,0,0,0,0,0,0,90,0,0,0,0,0,0,0,0,0,0,0,0,0,0,0,2.292,290393.439,DEGRADED,8.5,2.488,24678,0,1,3778.15,-11655.16,25,1,0,366.72,FLYING
369.66,ASCENT,RKT_SUSTAIN,173.49,80,-93.49,20542.9,-228.74,0.55,17.71,3.35,4.041,1,0,0,0,0,0,0,0,0,0,0,8.408,0,0,0,0,0,0,0,0,90,0,0,0,0,0,0,0,0,0,0,0,0,0,0,0,2.224,286119.204,DEGRADED,9.7,2.572,24269,0,1,5316.7,-3547.52,25,1,0,368.94,FLYING
371.88,ASCENT,RKT_SUSTAIN,187.1,80,-107.1,20044.35,-220.81,3.22,19.5,2.76,5.006,1,0,0,0,0,0,0,0,0,0,0,9.378,0,0,0,0,0,0,0,0,90,0,0,0,0,0,0,0,0,0,0,0,0,0,0,0,2.179,284299.414,DEGRADED,11.2,2.642,23786,0,1,6645.63,587.94,25,1,0,371.16,FLYING
374.06,ASCENT,RKT_SUSTAIN,201.28,80,-121.28,19575.46,-208.9,4.44,19.45,2.41,5.461,1,0,0,0,0,0,0,0,0,0,0,10.577,0,0,0,0,0,0,0,0,90,0,0,0,0,0,0,0,0,0,0,0,0,0,0,0,2.181,285095.527,DEGRADED,13,2.713,23177,0,1,7961.1,3381.59,25,1,0,373.34,FLYING
376.24,ASCENT,RKT_SUSTAIN,215.87,80,-135.87,19137.72,-192.05,5.98,19.42,2.11,5.692,1,0,0,0,0,0,0,0,0,0,0,12.064,0,0,0,0,0,0,0,0,90,0,0,0,0,0,0,0,0,0,0,0,0,0,0,0,2.19,285048.314,DEGRADED,15,2.787,22466,0,1,9264.18,5327.03,25,1,0,375.52,FLYING
378.42,ASCENT,RKT_SUSTAIN,230.35,80,-150.35,18742.83,-169.56,7.84,19.4,1.82,5.751,1,0,0,0,0,0,0,0,0,0,0,13.846,0,0,0,0,0,0,0,0,90,0,0,0,0,0,0,0,0,0,0,0,0,0,0,0,2.201,284088.941,DEGRADED,17.1,2.859,21675,0,1,10542.44,6654.21,25,1,0,377.7,FLYING
380.6,ASCENT,RKT_SUSTAIN,244.11,80,-164.11,18403.43,-141.19,9.96,19.36,1.57,5.624,1,0,0,0,0,0,0,0,0,0,0,15.912,0,0,0,0,0,0,0,0,90,0,0,0,0,0,0,0,0,0,0,0,0,0,0,0,2.212,282384.871,DEGRADED,19.3,2.929,20835,0,1,11771.25,7515.07,25,1,0,379.88,FLYING
382.78,ASCENT,RKT_SUSTAIN,256.47,80,-176.47,18132.1,-107.18,12.35,19.35,1.36,5.351,1,0,0,0,0,0,0,0,0,0,0,18.23,0,0,0,0,0,0,0,0,90,0,0,0,0,0,0,0,0,0,0,0,0,0,0,0,2.221,280099.433,DEGRADED,21.5,2.994,19998,0,1,12919.69,8029.04,25,1,0,382.06,FLYING
384.96,ASCENT,RKT_SUSTAIN,266.73,80,-186.73,17940.61,-68.01,14.96,19.34,1.17,4.984,1,0,0,0,0,0,0,0,0,0,0,20.763,0,0,0,0,0,0,0,0,90,0,0,0,0,0,0,0,0,0,0,0,0,0,0,0,2.227,277560.16,DEGRADED,23.5,3.054,19232,0,1,13953.86,8267.09,25,1,0,384.24,FLYING
387.16,ASCENT,RKT_SUSTAIN,274.36,80,-194.36,17838.48,-24.91,17.74,19.32,1.02,4.551,1,0,0,0,0,0,0,0,0,0,0,23.465,0,0,0,0,0,0,0,0,90,0,0,0,0,0,0,0,0,0,0,0,0,0,0,0,2.23,275435.504,DEGRADED,25.2,3.109,18616,0,1,14846.01,8343.89,25,1,0,386.44,FLYING
389.36,ASCENT,RKT_SUSTAIN,278.81,80,-198.81,17835.64,21.96,20.61,19.32,0.87,4.144,1,0,0,0,0,0,0,0,0,0,0,25,0,0,0,0,0,0,0,0,90,0,0,0,0,0,0,0,0,0,0,0,0,0,0,0,2.23,273755.074,DEGRADED,26.4,3.157,18235,0,1,15568.29,8293.93,24,1,0,388.64,FLYING
391.58,ASCENT,RKT_SUSTAIN,279.8,80,-199.8,17939.7,70.32,23.52,19.33,0.62,4.05,1,0,0,0,0,0,0,0,0,0,0,25,0,0,0,0,0,0,0,0,90,0,0,0,0,0,0,0,0,0,0,0,0,0,0,0,5.559,272796.047,DEGRADED,27,3.198,18161,0,1,16094.6,8197.48,22.5,1,0,390.86,FLYING
393.8,ASCENT,RKT_SUSTAIN,277.3,80,-197.3,18148.25,118.41,26.36,19.34,0.34,4.022,1,0,0,0,0,0,0,0,0,0,0,25,0,0,0,0,0,0,0,0,90,0,0,0,0,0,0,0,0,0,0,0,0,0,0,0,5.529,272673.876,DEGRADED,26.9,3.234,18445,0,1,16401.77,8054.27,21,1,0,393.08,FLYING
396.02,ASCENT,RKT_SUSTAIN,271.51,80,-191.51,18463.3,164.78,29.07,19.36,0.06,3.969,1,0,0,0,0,0,0,0,0,0,0,25,0,0,0,0,0,0,0,0,90,0,0,0,0,0,0,0,0,0,0,0,0,0,0,0,5.48,273270.7,DEGRADED,26.2,3.264,19102,0,1,16468.82,7901.45,19.5,1,0,395.3,FLYING
398.22,ASCENT,RKT_SUSTAIN,262.93,80,-182.93,18873.84,207.65,31.57,19.38,359.81,3.891,1,0,0,0,0,0,0,0,0,0,0,25,0,0,0,0,0,0,0,0,90,0,0,0,0,0,0,0,0,0,0,0,0,0,0,0,5.412,274320.443,DEGRADED,25,3.288,20106,0,1,16277.62,7704.32,18,1,0,397.5,FLYING
400.42,ASCENT,RKT_SUSTAIN,252.04,80,-172.04,19374.35,246.44,33.84,19.41,359.59,3.782,1,0,0,0,0,0,0,0,0,0,0,25,0,0,0,0,0,0,0,0,90,0,0,0,0,0,0,0,0,0,0,0,0,0,0,0,5.32,275184.602,DEGRADED,23.3,3.307,21398,0,1,15818.68,7478.12,16.5,1,0,399.7,FLYING
402.62,ASCENT,RKT_SUSTAIN,239.39,80,-159.39,19954.96,280.4,35.84,19.46,359.41,3.635,1,0,0,0,0,0,0,0,0,0,0,25,0,0,0,0,0,0,0,0,90,0,0,0,0,0,0,0,0,0,0,0,0,0,0,0,5.202,275406.693,DEGRADED,21.3,3.32,22909,0,1,15088.18,7163.44,15,1,0,401.9,FLYING
404.82,ASCENT,RKT_SUSTAIN,225.52,80,-145.52,20604.46,309.04,37.57,19.51,359.27,3.439,1,0,0,0,0,0,0,0,0,0,0,25,0,0,0,0,0,0,0,0,90,0,0,0,0,0,0,0,0,0,0,0,0,0,0,0,5.056,274290.132,DEGRADED,19.2,3.327,24544,0,1,14103.21,6719.57,13.5,1,0,404.1,FLYING
407.02,ASCENT,RKT_SUSTAIN,210.86,80,-130.86,21310.87,332.13,39.02,19.58,359.2,3.179,1,0,0,0,0,0,0,0,0,0,0,25,0,0,0,0,0,0,0,0,90,0,0,0,0,0,0,0,0,0,0,0,0,0,0,0,4.88,271253.867,DEGRADED,17,3.326,26225,0,1,12890.41,6115.65,12.156,1,0,406.3,FLYING
409.2,ASCENT,RKT_SUSTAIN,196.06,80,-116.06,22054.3,348.08,38.98,18.44,359.25,2.975,1,0,0,0,0,0,0,0,0,0,0,25,0,0,0,0,0,0,0,0,90,0,0,0,0,0,0,0,0,0,0,0,0,0,0,0,4.738,268765.569,DEGRADED,14.8,3.32,27851,0,1,11518.2,5439.74,12.77,1,0,408.48,FLYING
411.38,ASCENT,RKT_SUSTAIN,181.16,80,-101.16,22828.32,360.44,41.08,19.82,359.27,2.481,1,0,0,0,0,0,0,0,0,0,0,25,0,0,0,0,0,0,0,0,90,0,0,0,0,0,0,0,0,0,0,0,0,0,0,0,4.433,257176.181,DEGRADED,12.8,3.304,29360,0,1,10000.95,4404.97,13.238,1,0,410.66,FLYING
413.56,ASCENT,RKT_SUSTAIN,166.85,80,-86.85,23622.99,367.7,41.77,19.95,359.49,1.852,1,0,0,0,0,0,0,0,0,0,0,25,0,0,0,0,0,0,0,0,90,0,0,0,0,0,0,0,0,0,0,0,0,0,0,0,4.171,246478.014,DEGRADED,10.9,3.283,30722,0,1,8446.21,3376.1,13.512,1,0,412.84,FLYING
415.74,ASCENT,RKT_SUSTAIN,153.37,80,-73.37,24428.5,370.61,42.16,20,359.84,1.07,1,0,0,0,0,0,0,0,0,0,0,25,0,0,0,0,0,0,0,0,90,0,0,0,0,0,0,0,0,0,0,0,0,0,0,0,3.958,237786.522,DEGRADED,9.3,3.256,31913,0,1,6956.45,2390.93,13.624,1,0,415.02,FLYING
417.94,ASCENT,RKT_SUSTAIN,140.83,80,-60.83,25243.65,369.9,42.29,20,0.33,0.07,1,0,0,0,0,0,0,0,0,0,0,25,0,0,0,0,0,0,0,0,90,0,0,0,0,0,0,0,0,0,0,0,0,0,0,0,3.792,232111.918,DEGRADED,7.8,3.225,32931,0,1,5615.7,1537.7,13.6,1,0,417.22,FLYING
420.08,ASCENT,RKT_SUSTAIN,129.64,80,-49.64,26031.84,366.37,42.25,20,0.83,-0.932,1,0,0,0,0,0,0,0,0,0,0,25,0,0,0,0,0,0,0,0,90,0,0,0,0,0,0,0,0,0,0,0,0,0,0,0,3.674,0,DEGRADED,6.6,3.189,33781,0,1,4465.26,852.45,13.471,1,0,419.36,FLYING
422.24,ASCENT,RKT_SUSTAIN,118.96,80,-38.96,26817.05,360.44,42.06,20,1.25,-1.714,1,0,0,0,0,0,0,0,0,0,0,25,0,0,0,0,0,0,0,0,90,0,0,0,0,0,0,0,0,0,0,0,0,0,0,0,3.555,0,DEGRADED,5.6,3.143,34478,0,1,3504.41,327.94,13.253,1,0,421.52,FLYING
424.36,ASCENT,RKT_SUSTAIN,109.42,80,-29.42,27573.18,352.78,41.76,20,1.24,-1.625,1,0,0,0,0,0,0,0,0,0,0,25,0,0,0,0,0,0,0,0,90,0,0,0,0,0,0,0,0,0,0,0,0,0,0,0,3.48,0,DEGRADED,4.7,3.098,35045,0,1,2722.11,-52.54,12.971,1,0,423.64,FLYING
426.48,ASCENT,RKT_SUSTAIN,100.83,80,-20.83,28311.45,343.67,41.37,20,1.16,-1.428,1,0,0,0,0,0,0,0,0,0,0,25,0,0,0,0,0,0,0,0,90,0,0,0,0,0,0,0,0,0,0,0,0,0,0,0,3.427,0,DEGRADED,4,3.054,35503,0,1,2099.41,-320.16,12.635,1,0,425.76,FLYING
428.64,ASCENT,RKT_SUSTAIN,92.99,80,-12.99,29042.54,333.26,41.47,20.59,1,-1.028,1,0,0,0,0,0,0,0,0,0,0,25,0,0,0,0,0,0,0,0,90,0,0,0,0,0,0,0,0,0,0,0,0,0,0,0,3.37,0,DEGRADED,3.4,3.011,35875,0,1,1610.54,-516.53,12.251,1,0,427.92,FLYING
430.78,ASCENT,RKT_SUSTAIN,86.11,80,-6.11,29743.34,321.94,40.33,20,0.83,-0.706,1,0,0,0,0,0,0,0,0,0,0,25,0,0,0,0,0,0,0,0,90,0,0,0,0,0,0,0,0,0,0,0,0,0,0,0,3.377,0,DEGRADED,2.9,2.969,36178,0,1,1232.67,-635.01,11.836,1,0,430.06,FLYING
433.06,ASCENT,RKT_SUSTAIN,79.51,80,0.49,30468.06,308.33,39.96,20.33,0.76,-0.506,1,0,0,0,0,0,0,0,0,0,0,25,0,0,0,0,0,0,0,0,90,0,0,0,0,0,0,0,0,0,0,0,0,0,0,0,0,0,DEGRADED,2.5,2.923,36419,0,1,757.01,-985.49,11.332,1,0,432.36,FLYING
435.42,ASCENT,RKT_SUSTAIN,73.65,80,6.35,31178.04,293.66,38.87,20,0.69,-0.35,1,0,0,0,0,0,0,0,0,0,0,25,0,0,0,0,0,0,0,0,90,0,0,0,0,0,0,0,0,0,0,0,0,0,0,0,0,0,DEGRADED,2.1,2.879,36609,0,1,464.9,-1119.84,10.79,1,0,434.72,FLYING
437.78,ASCENT,RKT_SUSTAIN,68.56,80,11.44,31853.04,278.64,38.05,20,0.64,-0.214,1,0,0,0,0,0,0,0,0,0,0,25,0,0,0,0,0,0,0,0,90,0,0,0,0,0,0,0,0,0,0,0,0,0,0,0,0,0,DEGRADED,1.8,2.837,36763,0,1,285.51,-1131.64,10.237,1,0,437.08,FLYING
440.14,ASCENT,RKT_SUSTAIN,64.13,80,15.87,32492.18,263.3,37.18,20,0.61,-0.111,1,0,0,0,0,0,0,0,0,0,0,25,0,0,0,0,0,0,0,0,90,0,0,0,0,0,0,0,0,0,0,0,0,0,0,0,0,0,DEGRADED,1.6,2.799,36889,0,1,175.34,-1076.13,9.673,1,0,439.44,FLYING
442.5,ASCENT,RKT_SUSTAIN,60.24,80,19.76,33094.79,247.7,36.27,20,0.59,-0.033,1,0,0,0,0,0,0,0,0,0,0,25,0,0,0,0,0,0,0,0,90,0,0,0,0,0,0,0,0,0,0,0,0,0,0,0,0,0,DEGRADED,1.4,2.764,36994,0,1,107.68,-991.09,9.1,1,0,441.8,FLYING
444.86,ASCENT,RKT_SUSTAIN,56.8,80,23.2,33660.31,231.88,35.33,20,0.57,0.058,1,0,0,0,0,0,0,0,0,0,0,23.577,0,0,0,0,0,0,0,0,90,0,0,0,0,0,0,0,0,0,0,0,0,0,0,0,0,0,DEGRADED,1.2,2.731,37082,0,1,66.13,-897.16,8.52,1,0,444.16,FLYING
447.22,ASCENT,RKT_SUSTAIN,53.74,80,26.26,34183.96,215.89,34.36,20,0.54,0.166,1,0,0,0,0,0,0,0,0,0,0,22.032,0,0,0,0,0,0,0,0,90,0,0,0,0,0,0,0,0,0,0,0,0,0,0,0,0,0,VALID,1.1,2.701,37157,0,1,40.61,-805.07,7.933,1,0,446.52,FLYING
449.58,ASCENT,RKT_SUSTAIN,51.05,80,28.95,34674.32,199.74,33.36,20,0.52,0.283,1,0,0,0,0,0,0,0,0,0,0,20.456,0,0,0,0,0,0,0,0,90,0,0,0,0,0,0,0,0,0,0,0,0,0,0,0,0,0,VALID,1,2.673,37220,0,1,24.94,-720.18,7.341,1,0,448.88,FLYING
451.94,ASCENT,RKT_SUSTAIN,48.68,80,31.32,35126.4,183.47,32.33,20,0.49,0.401,1,0,0,0,0,0,0,0,0,0,0,18.851,0,0,0,0,0,0,0,0,90,0,0,0,0,0,0,0,0,0,0,0,0,0,0,0,0,0,VALID,0.9,2.648,37273,0,1,15.32,-644.78,6.745,1,0,451.24,FLYING
454.3,ASCENT,RKT_SUSTAIN,46.62,80,33.38,35539.95,167.1,31.28,20,0.47,0.528,1,0,0,0,0,0,0,0,0,0,0,17.221,0,0,0,0,0,0,0,0,90,0,0,0,0,0,0,0,0,0,0,0,0,0,0,0,0,0,VALID,0.8,2.624,37319,0,1,9.41,-579.35,6.144,1,0,453.6,FLYING
456.66,ASCENT,RKT_SUSTAIN,44.83,80,35.17,35914.74,150.64,30.21,20,0.44,0.662,1,0,0,0,0,0,0,0,0,0,0,15.569,0,0,0,0,0,0,0,0,90,0,0,0,0,0,0,0,0,0,0,0,0,0,0,0,0,0,VALID,0.8,2.604,37357,0,1,5.78,-523.48,5.54,1,0,455.96,FLYING
458.96,ASCENT,RKT_SUSTAIN,43.33,80,36.67,36242.54,134.67,29.17,20,0.42,0.789,1,0,0,0,0,0,0,0,0,0,0,13.954,0,0,0,0,0,0,0,0,90,0,0,0,0,0,0,0,0,0,0,0,0,0,0,0,0,0,VALID,0.7,2.585,37390,0,1,3.55,-473.31,4.954,1,0,458.24,FLYING
461.2,ASCENT,RKT_SUSTAIN,42.06,80,37.94,36526.11,118.93,28.12,20,0.41,0.907,1,0,0,0,0,0,0,0,0,0,0,12.352,0,0,0,0,0,0,0,0,90,0,0,0,0,0,0,0,0,0,0,0,0,0,0,0,0,0,VALID,0.7,2.57,37417,0,1,2.18,-427.9,4.377,1,0,460.48,FLYING
463.44,ASCENT,RKT_SUSTAIN,40.98,80,39.02,36774.38,103.15,27.06,20,0.39,1.019,1,0,0,0,0,0,0,0,0,0,0,10.737,0,0,0,0,0,0,0,0,90,0,0,0,0,0,0,0,0,0,0,0,0,0,0,0,0,0,VALID,0.6,2.556,37440,0,1,1.34,-392.12,3.797,1,0,462.72,FLYING
