t_s,phase,subphase,ias_ms,vapp_ms,spd_err_ms,agl_m,gear_h_m,vs_ms,pitch_deg,aoa_deg,hdg_deg,bank_deg,thr_cmd,thr_cur,thr_intg,at_gain,at_tau_s,at_a_up,at_a_dn,at_kp_thr,at_ki_spd,at_thr_slew,as_cmd_deg,as_cap_deg,as_raw_deg,as_spd_err_ms,as_active,aa_hdg_cmd_deg,aa_fpa_cmd_deg,aa_fbw,aa_dir,actual_fpa_deg,ftf_hdg_err_deg,ftf_fix_idx,kos_steer_pit_deg,kos_steer_hdg_deg,aa_dir_vx,aa_dir_vy,aa_dir_vz,aa_dir_pitch_deg,aa_dir_hdg_deg,ils_loc_m,ils_gs_m,ils_dist_km,loc_corr_deg,gs_corr_deg,gs_latched,active_gs_ang_deg,ils_intercept_alt_m,d_gs_ms,fpa_preclamped_deg,gs_nom_alt_m,flare_fpa_cmd,flare_tgt_vs,flare_frac,flare_vs_err,flare_fpa_err,flare_pitch_err,flare_req_up_a,flare_thr_floor,steer_hdg_deg,steer_blend,ro_loc_corr_deg,ro_hdg_err_deg,ro_yaw_tgt,ro_yaw_scale,ro_yaw_gate,yaw_cmd,roll_cmd,pitch_cmd,ro_pitch_tgt_deg,ro_pitch_err_deg,ro_pitch_ff,ro_roll_assist,flaps_cur,flaps_tgt,asc_j_ab,asc_j_rk,asc_validity,asc_q_pa,asc_q_raw_pa,asc_mach,asc_apo_m,asc_drag_n,asc_w_prop,asc_edot_aero,asc_edot_orb,asc_pitch_bias,asc_blend,asc_spooling,asc_ab_thr_ratio,asc_ab_t_now,asc_ab_t_avail,asc_ab_ign_on,asc_ab_flameouts,asc_rk_t_now,asc_rk_t_avail,asc_rk_ign_on,asc_rk_flameouts,ship_thrust,ship_avail_thrust,ship_ign_on,ship_flameouts,ifc_raw_dt_s,ifc_dt_s,ifc_loop_n,ifc_hz_est,ifc_raw_dt_max_s,ifc_raw_dt_min_s,phase_el_s,status,craft_name,cfg_file
0.16,APPROACH,ILS_TRACK,157.02,152,-5.02,1311.13,1230.23,7.38,16.28,13.91,266.85,-5.504,0,0,0,0,0,0,0,0,0,0,0,0,0,0,0,0,0,1,0,2.66,0,0,0,90,0,0,0,0,0,-104.17,-235.35,28.091,0,0,0,3,1311.13,0,0,1546.48,0,0,0,0,0,0,0,0,266.87,0,0,0,0,0,0,0,0,0,0,0,0,0,0,0,0,0,VALID,0,0,0,0,0,1,0,0,0,0,0,0,0,0,0,0,0,0,0,0,467.14,1055.99,2,0,0.14,0.14,1,3.7,0.14,0.02,0.16,FLYING,X10-F,0:/Integrated Flight Computer/aircraft/x10_f_cfg.ks (inferred preloaded)
0.42,APPROACH,ILS_TRACK,156.86,152,-4.86,1313.16,1232.28,8.22,16.28,13.62,266.7,-5.486,0,0,0,1,0.6,1.426,0.75,0.35,0.0168,0.4,3.747,20.516,3.747,4.879,1,275.67,-0.009,0,1,2.95,0,0,0,295,0.0888,0.0987,0.9911,-0.01,275.67,-105.44,-231.67,28.053,5.666,0,0,3,1311.13,16.842,-0.009,1544.51,0,0,0,0,0,0,0,0,266.87,0,0,0,0,0,0,0,0,0,0,0,0,0,1,3,0,0,VALID,0,0,0,0,0,1,0,0,0,0,0,0,0,0,0,0,0,0,0,0,426.05,1055.19,2,0,0.12,0.12,3,7.69,0.14,0.12,0.42,FLYING,X10-F,0:/Integrated Flight Computer/aircraft/x10_f_cfg.ks (inferred preloaded)
0.68,APPROACH,ILS_TRACK,156.6,152,-4.6,1315.29,1234.71,9.07,15.89,12.89,266.5,-3.898,0,0,0,1,0.6,2.632,0.75,0.35,0.0168,0.4,3.476,20.588,3.476,4.623,1,275.81,-0.02,0,1,3.28,0,0,-0.01,275.73,0.089,0.1012,0.9909,-0.02,275.81,-107,-227.22,28.009,5.808,0,0,3,1311.13,17.15,-0.02,1542.18,0,0,0,0,0,0,0,0,266.87,0,0,0,0,0,0,0,0,0,0,0,0,0,1,3,0,0,VALID,0,0,0,0,0,1,0,0,0,0,0,0,0,0,0,0,0,0,0,0,388.4,1053.88,2,0,0.12,0.12,5,7.69,0.14,0.12,0.68,FLYING,X10-F,0:/Integrated Flight Computer/aircraft/x10_f_cfg.ks (inferred preloaded)
1.04,APPROACH,ILS_TRACK,156.14,152,-4.14,1318.32,1238.07,10.02,14.61,11.07,266.89,3.006,0.029,0,-1.021,1,0.6,4.099,0.75,0.35,0.0168,0.4,2.989,20.716,2.989,4.169,1,276.04,-0.035,0,1,3.63,0,0,-0.03,275.97,0.0894,0.1052,0.9904,-0.04,276.04,-109.35,-220.97,27.948,6.037,0,0,3,1311.13,17.317,-0.035,1538.97,0,0,0,0,0,0,0,0,266.87,0,0,0,0,0,0,0,0,0,0,0,0,0,2,3,0,0,VALID,0,0,0,0,0,1,0,0,0,0,0,0,0,0,0,0,0,0,0,0,341.55,1051.64,2,0,0.12,0.12,8,8.33,0.12,0.12,1.04,FLYING,X10-F,0:/Integrated Flight Computer/aircraft/x10_f_cfg.ks (inferred preloaded)
1.4,APPROACH,ILS_TRACK,155.73,152,-3.73,1321.11,1240.67,10.17,11.56,7.64,267.82,14.994,0.0512,0,-2.408,1,0.6,4.5,0.768,0.35,0.0168,0.4,2.521,20.837,2.521,3.739,1,276.09,-0.049,0,1,3.76,0,0,-0.04,276.11,0.0897,0.1061,0.9903,-0.05,276.09,-111.74,-214.95,27.887,6.088,0,0,3,1311.13,16.497,-0.049,1535.76,0,0,0,0,0,0,0,0,266.87,0,0,0,0,0,0,0,0,0,0,0,0,0,3,3,0,0,VALID,0,0,0,0,0,1,0,0,0,0,0,0,0,0,0,0,0,0,0,0,306.98,1049.56,2,0,0.12,0.12,11,8.33,0.12,0.12,1.4,FLYING,X10-F,0:/Integrated Flight Computer/aircraft/x10_f_cfg.ks (inferred preloaded)
1.76,APPROACH,ILS_TRACK,155.67,152,-3.67,1323.75,1243.24,9.02,8.56,4.85,268.41,27.747,0,0,-2.822,1,0.6,4.5,0.773,0.35,0.0168,0.4,2.445,20.857,2.445,3.669,1,274.12,-0.062,0,1,3.38,0,0,-0.06,276.01,0.0903,0.0718,0.9933,-0.06,274.12,-113.87,-209.09,27.825,4.117,0,0,3,1311.13,16.143,-0.062,1532.56,0,0,0,0,0,0,0,0,266.87,0,0,0,0,0,0,0,0,0,0,0,0,0,3,3,0,0,VALID,0,0,0,0,0,1,0,0,0,0,0,0,0,0,0,0,0,0,0,0,273.07,1049.04,2,0,0.12,0.12,14,8.33,0.12,0.12,1.76,FLYING,X10-F,0:/Integrated Flight Computer/aircraft/x10_f_cfg.ks (inferred preloaded)
2.12,APPROACH,ILS_TRACK,155.67,152,-3.67,1326.15,1245.72,7.25,6.61,3.76,269.24,35.164,0,0,-2.78,1,0.6,4.5,0.75,0.35,0.0168,0.4,2.442,20.858,2.442,3.666,1,269.92,-0.074,0,1,2.75,0,0,-0.07,271.05,0.0908,-0.0014,0.9959,-0.07,269.92,-115.66,-203.45,27.764,-0.082,0,0,3,1311.13,15.374,-0.074,1529.35,0,0,0,0,0,0,0,0,266.87,0,0,0,0,0,0,0,0,0,0,0,0,0,3,3,0,0,VALID,0,0,0,0,0,1,0,0,0,0,0,0,0,0,0,0,0,0,0,0,240.58,1048.81,2,0,0.12,0.12,17,8.33,0.12,0.12,2.12,FLYING,X10-F,0:/Integrated Flight Computer/aircraft/x10_f_cfg.ks (inferred preloaded)
2.48,APPROACH,ILS_TRACK,155.65,152,-3.65,1328.08,1247.94,5.42,5.4,3.62,270.29,36.637,0,0,-2.739,1,0.6,4.5,0.75,0.35,0.0168,0.4,2.426,20.862,2.426,3.652,1,269.18,-0.084,0,1,2.07,0,0,-0.08,269.02,0.091,-0.0143,0.9957,-0.08,269.18,-117.02,-198.25,27.703,-0.818,0,0,3,1311.13,13.893,-0.084,1526.15,0,0,0,0,0,0,0,0,266.87,0,0,0,0,0,0,0,0,0,0,0,0,0,3,3,0,0,VALID,0,0,0,0,0,1,0,0,0,0,0,0,0,0,0,0,0,0,0,0,211.96,1048.58,2,0,0.12,0.12,20,8.33,0.12,0.12,2.48,FLYING,X10-F,0:/Integrated Flight Computer/aircraft/x10_f_cfg.ks (inferred preloaded)
2.82,APPROACH,ILS_TRACK,155.57,152,-3.57,1329.43,1249.8,3.6,4.77,4.04,271.27,31.741,0,0,-2.698,1,0.6,4.5,0.75,0.35,0.0168,0.4,2.343,20.883,2.343,3.576,1,271.63,-0.091,0,1,1.42,0,0,-0.09,270.36,0.0913,0.0285,0.9954,-0.09,271.63,-117.87,-193.97,27.647,1.634,0,0,3,1311.13,12.685,-0.091,1523.22,0,0,0,0,0,0,0,0,266.87,0,0,0,0,0,0,0,0,0,0,0,0,0,3,3,0,0,VALID,0,0,0,0,0,1,0,0,0,0,0,0,0,0,0,0,0,0,0,0,188,1048.11,2,0,0.127,0.127,23,8.82,0.127,0.1,2.82,FLYING,X10-F,0:/Integrated Flight Computer/aircraft/x10_f_cfg.ks (inferred preloaded)
3.09,APPROACH,ILS_TRACK,155.43,152,-3.43,1330.26,1250.97,2.29,4.91,4.81,272.06,25.398,0,0,-2.671,1,0.6,4.5,0.75,0.35,0.0168,0.4,2.202,20.919,2.202,3.448,1,274.62,-0.095,0,1,0.94,0,0,-0.09,273.19,0.0912,0.0806,0.9926,-0.1,274.62,-118.27,-190.77,27.602,4.621,0,0,3,1311.13,12.01,-0.095,1520.87,0,0,0,0,0,0,0,0,266.87,0,0,0,0,0,0,0,0,0,0,0,0,0,3,3,0,0,VALID,0,0,0,0,0,1,0,0,0,0,0,0,0,0,0,0,0,0,0,0,171.13,1047.48,2,0,0.133,0.133,25,7.53,0.133,0.127,3.09,FLYING,X10-F,0:/Integrated Flight Computer/aircraft/x10_f_cfg.ks (inferred preloaded)
3.37,APPROACH,ILS_TRACK,155.23,152,-3.23,1331,1251.61,1.17,5.74,6.07,272.68,21.969,0,0,-2.644,1,0.6,4.5,0.75,0.35,0.0168,0.4,1.986,20.975,1.986,3.252,1,274.83,-0.099,0,1,0.5,0,0,-0.1,274.95,0.0913,0.0841,0.9923,-0.1,274.83,-118.43,-187.55,27.556,4.826,0,0,3,1311.13,11.525,-0.099,1518.41,0,0,0,0,0,0,0,0,266.87,0,0,0,0,0,0,0,0,0,0,0,0,0,3,3,0,0,VALID,0,0,0,0,0,1,0,0,0,0,0,0,0,0,0,0,0,0,0,0,154.99,1046.56,2,0,0.14,0.14,27,7.16,0.14,0.133,3.37,FLYING,X10-F,0:/Integrated Flight Computer/aircraft/x10_f_cfg.ks (inferred preloaded)
3.66,APPROACH,ILS_TRACK,154.92,152,-2.92,1331.65,1251.66,0.38,7.16,7.79,273.23,23.533,0,0,-2.618,1,0.6,4.5,0.75,0.35,0.0168,0.4,1.658,21.058,1.658,2.957,1,274.61,-0.102,0,1,0.19,0,0,-0.1,274.71,0.0915,0.0805,0.9926,-0.1,274.61,-118.35,-184.31,27.506,4.615,0,0,3,1311.13,11.038,-0.102,1515.83,0,0,0,0,0,0,0,0,266.87,0,0,0,0,0,0,0,0,0,0,0,0,0,3,3,0,0,VALID,0,0,0,0,0,1,0,0,0,0,0,0,0,0,0,0,0,0,0,0,139.61,1045.25,2,0,0.147,0.147,29,6.81,0.147,0.14,3.66,FLYING,X10-F,0:/Integrated Flight Computer/aircraft/x10_f_cfg.ks (inferred preloaded)
3.96,APPROACH,ILS_TRACK,154.49,152,-2.49,1332.11,1251.54,0.07,8.66,9.45,274.14,26.776,0.0892,0,-3.414,1,0.6,4.5,0.75,0.35,0.0168,0.4,0,21.175,0,2.54,0,273.42,-0.105,0,1,0.04,0,0,-0.1,274.09,0.0917,0.0597,0.994,-0.11,273.42,-118,-181.14,27.456,3.424,0,0,3,1311.13,10.334,-0.105,1513.18,0,0,0,0,0,0,0,0,266.87,0,0,0,0,0,0,0,0,0,0,0,0,0,3,3,0,0,VALID,0,0,0,0,0,1,0,0,0,0,0,0,0,0,0,0,0,0,0,0,126.68,1043.39,2,0,0.15,0.15,31,6.67,0.15,0.147,3.96,FLYING,X10-F,0:/Integrated Flight Computer/aircraft/x10_f_cfg.ks (inferred preloaded)
4.23,APPROACH,ILS_TRACK,153.97,152,-1.97,1332.29,1251.66,-0.05,9.44,10.43,275.16,26.028,0.1972,0,-3.999,1,0.6,4.5,0.75,0.35,0.0168,0.4,0,21.317,0,2.035,0,273.49,-0.106,0,1,-0.01,0,0,-0.1,273.26,0.0918,0.0609,0.9939,-0.11,273.49,-117.42,-178.53,27.41,3.493,0,0,3,1311.13,9.451,-0.106,1510.79,0,0,0,0,0,0,0,0,266.87,0,0,0,0,0,0,0,0,0,0,0,0,0,3,3,0,0,VALID,0,0,0,0,0,1,0,0,0,0,0,0,0,0,0,0,0,0,0,0,124.3,1041.15,2,0,0.12,0.12,33,7.41,0.15,0.12,4.23,FLYING,X10-F,0:/Integrated Flight Computer/aircraft/x10_f_cfg.ks (inferred preloaded)
4.5,APPROACH,ILS_TRACK,153.39,152,-1.39,1332.34,1251.89,-0.26,9.78,10.99,276.11,22.275,0.3052,0,-4.43,1,0.6,4.5,0.75,0.35,0.0168,0.4,0,21.482,0,1.452,0,273.76,-0.106,0,1,-0.08,0,0,-0.1,273.93,0.0918,0.0655,0.9936,-0.11,273.76,-116.54,-176.09,27.365,3.756,0,0,3,1311.13,8.955,-0.106,1508.42,0,0,0,0,0,0,0,0,266.87,0,0,0,0,0,0,0,0,0,0,0,0,0,3,3,0,0,VALID,0,0,0,0,0,1,0,0,0,0,0,0,0,0,0,0,0,0,0,0,129.09,1038.63,2,0,0.12,0.12,35,7.41,0.15,0.12,4.5,FLYING,X10-F,0:/Integrated Flight Computer/aircraft/x10_f_cfg.ks (inferred preloaded)
4.77,APPROACH,ILS_TRACK,152.79,152,-0.79,1332.35,1252.05,-0.25,10.17,11.34,276.76,19.084,0.4132,0,-4.702,1,0.6,4.5,0.75,0.35,0.0168,0.4,0,21.649,0,0.857,0,273.42,-0.106,0,1,-0.11,0,0,-0.1,273.59,0.092,0.0596,0.994,-0.11,273.42,-115.33,-173.69,27.32,3.417,0,0,3,1311.13,8.812,-0.106,1506.05,0,0,0,0,0,0,0,0,266.87,0,0,0,0,0,0,0,0,0,0,0,0,0,3,3,0,0,VALID,0,0,0,0,0,1,0,0,0,0,0,0,0,0,0,0,0,0,0,0,139.49,1036.06,2,0,0.12,0.12,37,7.41,0.15,0.12,4.77,FLYING,X10-F,0:/Integrated Flight Computer/aircraft/x10_f_cfg.ks (inferred preloaded)
5.04,APPROACH,ILS_TRACK,152.17,152,-0.17,1332.25,1252.29,-0.23,10.1,11,276.8,15.361,0.5212,0,-4.806,1,0.6,4.5,0.75,0.35,0.0168,0.4,0,21.825,0,0.234,0,273.07,-0.106,0,1,-0.08,0,0,-0.1,273.24,0.092,0.0536,0.9943,-0.11,273.07,-113.82,-171.42,27.275,3.074,0,0,3,1311.13,8.317,-0.106,1503.69,0,0,0,0,0,0,0,0,266.87,0,0,0,0,0,0,0,0,0,0,0,0,0,3,3,0,0,VALID,0,0,0,0,0,1,0,0,0,0,0,0,0,0,0,0,0,0,0,0,155.14,1033.4,2,0,0.12,0.12,39,7.41,0.15,0.12,5.04,FLYING,X10-F,0:/Integrated Flight Computer/aircraft/x10_f_cfg.ks (inferred preloaded)
5.31,APPROACH,ILS_TRACK,151.64,152,0.36,1332.14,1252.55,-0.37,9.95,10.64,276.45,11.299,0.6292,0,-4.758,1,0.6,4.5,0.75,0.35,0.0168,0.4,0,21.977,0,-0.307,0,272.79,-0.105,0,1,-0.12,0,0,-0.1,272.93,0.0921,0.0486,0.9946,-0.11,272.79,-112.05,-169.18,27.23,2.788,0,0,3,1311.13,8.291,-0.105,1501.34,0,0,0,0,0,0,0,0,266.87,0,0,0,0,0,0,0,0,0,0,0,0,0,3,3,0,0,VALID,0,0,0,0,0,1,0,0,0,0,0,0,0,0,0,0,0,0,0,0,175.8,1031.13,2,0,0.12,0.12,41,7.41,0.15,0.12,5.31,FLYING,X10-F,0:/Integrated Flight Computer/aircraft/x10_f_cfg.ks (inferred preloaded)
5.58,APPROACH,ILS_TRACK,151.2,152,0.8,1332.06,1252.78,-0.55,10.06,10.57,275.86,7.069,0.6265,0,-4.582,1,0.6,4.5,0.75,0.35,0.0168,0.4,0,22.103,0,-0.753,0,272.56,-0.105,0,1,-0.19,0,0,-0.1,272.66,0.0922,0.0447,0.9947,-0.11,272.56,-110.1,-166.93,27.185,2.565,0,0,3,1311.13,8.369,-0.105,1499,0,0,0,0,0,0,0,0,266.87,0,0,0,0,0,0,0,0,0,0,0,0,0,3,3,0,0,VALID,0,0,0,0,0,1,0,0,0,0,0,0,0,0,0,0,0,0,0,0,200.27,1029.28,2,0,0.12,0.12,43,7.41,0.15,0.12,5.58,FLYING,X10-F,0:/Integrated Flight Computer/aircraft/x10_f_cfg.ks (inferred preloaded)
5.85,APPROACH,ILS_TRACK,150.85,152,1.15,1332.01,1252.91,-0.65,10.44,10.83,275.21,3.502,0.5873,0,-4.305,1,0.6,4.5,0.75,0.35,0.0168,0.4,0,22.204,0,-1.111,0,272.4,-0.104,0,1,-0.25,0,0,-0.1,272.46,0.0923,0.0419,0.9948,-0.1,272.4,-108.04,-164.65,27.141,2.404,0,0,3,1311.13,8.47,-0.104,1496.67,0,0,0,0,0,0,0,0,266.87,0,0,0,0,0,0,0,0,0,0,0,0,0,3,3,0,0,VALID,0,0,0,0,0,1,0,0,0,0,0,0,0,0,0,0,0,0,0,0,223.16,1027.81,2,0,0.12,0.12,45,7.41,0.15,0.12,5.85,FLYING,X10-F,0:/Integrated Flight Computer/aircraft/x10_f_cfg.ks (inferred preloaded)
6.12,APPROACH,ILS_TRACK,150.56,152,1.44,1331.92,1253,-0.42,10.75,10.91,274.52,0.746,0.5414,0,-3.944,1,0.6,4.5,0.75,0.35,0.0168,0.4,0,22.287,0,-1.407,0,272.26,-0.104,0,1,-0.18,0,0,-0.1,272.32,0.0924,0.0394,0.9949,-0.1,272.26,-105.92,-162.39,27.096,2.26,0,0,3,1311.13,8.286,-0.104,1494.33,0,0,0,0,0,0,0,0,266.87,0,0,0,0,0,0,0,0,0,0,0,0,0,3,3,0,0,VALID,0,0,0,0,0,1,0,0,0,0,0,0,0,0,0,0,0,0,0,0,242.66,1026.58,2,0,0.12,0.12,47,7.41,0.15,0.12,6.12,FLYING,X10-F,0:/Integrated Flight Computer/aircraft/x10_f_cfg.ks (inferred preloaded)
6.42,APPROACH,ILS_TRACK,150.29,152,1.71,1331.7,1252.77,-0.33,10.4,10.43,273.78,-1.401,0.5044,0,-3.457,1,0.6,4.5,0.75,0.35,0.0168,0.4,0,22.367,0,-1.69,0,272.16,-0.103,0,1,-0.11,0,0,-0.1,272.21,0.0924,0.0378,0.995,-0.1,272.16,-103.55,-160,27.047,2.165,0,0,3,1311.13,7.856,-0.103,1491.75,0,0,0,0,0,0,0,0,266.87,0,0,0,0,0,0,0,0,0,0,0,0,0,3,3,0,0,VALID,0,0,0,0,0,1,0,0,0,0,0,0,0,0,0,0,0,0,0,0,260.38,1025.4,2,0,0.15,0.15,49,6.67,0.15,0.12,6.42,FLYING,X10-F,0:/Integrated Flight Computer/aircraft/x10_f_cfg.ks (inferred preloaded)
6.75,APPROACH,ILS_TRACK,150.1,152,1.9,1331.5,1252.54,-0.59,10.1,10.28,273.06,-2.391,0.4393,0,-2.849,1,0.6,4.5,0.75,0.35,0.0168,0.4,0,22.421,0,-1.882,0,272.09,-0.102,0,1,-0.2,0,0,-0.1,272.12,0.0925,0.0364,0.995,-0.1,272.09,-100.96,-157.38,26.992,2.086,0,0,3,1311.13,8.026,-0.102,1488.91,0,0,0,0,0,0,0,0,266.87,0,0,0,0,0,0,0,0,0,0,0,0,0,3,3,0,0,VALID,0,0,0,0,0,1,0,0,0,0,0,0,0,0,0,0,0,0,0,0,276.02,1024.63,2,0,0.15,0.15,51,6.06,0.18,0.15,6.75,FLYING,X10-F,0:/Integrated Flight Computer/aircraft/x10_f_cfg.ks (inferred preloaded)
7.05,APPROACH,ILS_TRACK,149.98,152,2.02,1331.42,1252.26,-0.87,10.5,10.88,272.45,-3.089,0.3825,0,-2.256,1,0.6,4.5,0.75,0.35,0.0168,0.4,0,22.457,0,-2.007,0,272.02,-0.101,0,1,-0.32,0,0,-0.1,272.04,0.0926,0.0353,0.9951,-0.1,272.02,-98.64,-154.9,26.943,2.023,0,0,3,1311.13,8.366,-0.101,1486.32,0,0,0,0,0,0,0,0,266.87,0,0,0,0,0,0,0,0,0,0,0,0,0,3,3,0,0,VALID,0,0,0,0,0,1,0,0,0,0,0,0,0,0,0,0,0,0,0,0,285.48,1024.13,2,0,0.15,0.15,53,6.67,0.15,0.15,7.05,FLYING,X10-F,0:/Integrated Flight Computer/aircraft/x10_f_cfg.ks (inferred preloaded)
7.38,APPROACH,ILS_TRACK,149.82,152,2.18,1331.3,1252.01,-0.47,11.04,11.22,272,-3.516,0.3653,0,-1.556,1,0.6,4.5,0.75,0.35,0.0168,0.4,0,22.501,0,-2.164,0,272,-0.101,0,1,-0.2,0,0,-0.1,272.01,0.0927,0.035,0.9951,-0.1,272,-96.18,-152.15,26.889,2.003,0,0,3,1311.13,8.192,-0.101,1483.49,0,0,0,0,0,0,0,0,266.87,0,0,0,0,0,0,0,0,0,0,0,0,0,3,3,0,0,VALID,0,0,0,0,0,1,0,0,0,0,0,0,0,0,0,0,0,0,0,0,291.91,1023.46,2,0,0.15,0.15,55,6.06,0.18,0.15,7.38,FLYING,X10-F,0:/Integrated Flight Computer/aircraft/x10_f_cfg.ks (inferred preloaded)
7.68,APPROACH,ILS_TRACK,149.67,152,2.33,1331.11,1251.88,-0.46,10.82,10.98,271.81,-3.534,0.3668,0,-0.87,1,0.6,4.5,0.75,0.35,0.0168,0.4,0,22.545,0,-2.321,0,271.98,-0.1,0,1,-0.17,0,0,-0.1,271.99,0.0927,0.0346,0.9951,-0.1,271.98,-94.02,-149.77,26.84,1.983,0,0,3,1311.13,7.939,-0.1,1480.91,0,0,0,0,0,0,0,0,266.87,0,0,0,0,0,0,0,0,0,0,0,0,0,3,3,0,0,VALID,0,0,0,0,0,1,0,0,0,0,0,0,0,0,0,0,0,0,0,0,296.64,1022.83,2,0,0.15,0.15,57,6.67,0.15,0.15,7.68,FLYING,X10-F,0:/Integrated Flight Computer/aircraft/x10_f_cfg.ks (inferred preloaded)
8.01,APPROACH,ILS_TRACK,149.56,152,2.44,1331.02,1251.72,-0.68,11.02,11.33,271.74,-3.239,0.3508,0,-0.077,1,0.6,4.5,0.75,0.35,0.0168,0.4,0,22.576,0,-2.431,0,271.95,-0.099,0,1,-0.25,0,0,-0.1,271.96,0.0928,0.034,0.9951,-0.1,271.95,-91.73,-147.05,26.786,1.951,0,0,3,1311.13,8.351,-0.099,1478.08,0,0,0,0,0,0,0,0,266.87,0,0,0,0,0,0,0,0,0,0,0,0,0,3,3,0,0,VALID,0,0,0,0,0,1,0,0,0,0,0,0,0,0,0,0,0,0,0,0,301.34,1022.38,2,0,0.15,0.15,59,6.06,0.18,0.15,8.01,FLYING,X10-F,0:/Integrated Flight Computer/aircraft/x10_f_cfg.ks (inferred preloaded)
8.31,APPROACH,ILS_TRACK,149.43,152,2.57,1331.02,1251.56,-0.46,11.76,12.01,271.7,-2.949,0.3596,0,0.68,1,0.6,4.5,0.75,0.35,0.0168,0.4,0,22.611,0,-2.556,0,271.91,-0.099,0,1,-0.23,0,0,-0.1,271.93,0.0929,0.0334,0.9951,-0.1,271.91,-89.71,-144.48,26.737,1.914,0,0,3,1311.13,8.615,-0.099,1475.51,0,0,0,0,0,0,0,0,266.87,0,0,0,0,0,0,0,0,0,0,0,0,0,3,3,0,0,VALID,0,0,0,0,0,1,0,0,0,0,0,0,0,0,0,0,0,0,0,0,304.58,1021.85,2,0,0.15,0.15,61,6.67,0.15,0.15,8.31,FLYING,X10-F,0:/Integrated Flight Computer/aircraft/x10_f_cfg.ks (inferred preloaded)
8.64,APPROACH,ILS_TRACK,149.15,152,2.85,1330.8,1251.56,0.19,11.36,11.19,271.73,-2.619,0.4373,0,1.585,1,0.6,4.5,0.75,0.35,0.0168,0.4,0,22.686,0,-2.821,0,271.88,-0.098,0,1,0.06,0,0,-0.1,271.89,0.093,0.0329,0.9951,-0.1,271.88,-87.55,-141.82,26.683,1.883,0,0,3,1311.13,7.755,-0.098,1472.68,0,0,0,0,0,0,0,0,266.87,0,0,0,0,0,0,0,0,0,0,0,0,0,3,3,0,0,VALID,0,0,0,0,0,1,0,0,0,0,0,0,0,0,0,0,0,0,0,0,308.95,1020.68,2,0,0.15,0.15,63,6.06,0.18,0.15,8.64,FLYING,X10-F,0:/Integrated Flight Computer/aircraft/x10_f_cfg.ks (inferred preloaded)
8.94,APPROACH,ILS_TRACK,149.03,152,2.97,1330.51,1251.61,0.01,10.16,10.06,271.79,-2.37,0.444,0,2.47,1,0.6,4.5,0.75,0.35,0.0168,0.4,0,22.727,0,-2.968,0,271.83,-0.097,0,1,0.03,0,0,-0.1,271.87,0.093,0.032,0.9951,-0.1,271.83,-85.63,-139.55,26.634,1.834,0,0,3,1311.13,7.603,-0.097,1470.11,0,0,0,0,0,0,0,0,266.87,0,0,0,0,0,0,0,0,0,0,0,0,0,3,3,0,0,VALID,0,0,0,0,0,1,0,0,0,0,0,0,0,0,0,0,0,0,0,0,317.09,1020.14,2,0,0.15,0.15,65,6.67,0.15,0.15,8.94,FLYING,X10-F,0:/Integrated Flight Computer/aircraft/x10_f_cfg.ks (inferred preloaded)
9.27,APPROACH,ILS_TRACK,149.07,152,2.93,1330.31,1251.54,-0.49,9.56,9.72,271.81,-2.172,0.3731,0,3.442,1,0.6,4.5,0.75,0.35,0.0168,0.4,0,22.718,0,-2.934,0,271.78,-0.096,0,1,-0.15,0,0,-0.09,271.8,0.0931,0.0311,0.9952,-0.1,271.78,-83.56,-136.95,26.58,1.783,0,0,3,1311.13,7.994,-0.096,1467.29,0,0,0,0,0,0,0,0,266.87,0,0,0,0,0,0,0,0,0,0,0,0,0,3,3,0,0,VALID,0,0,0,0,0,1,0,0,0,0,0,0,0,0,0,0,0,0,0,0,325.12,1020.32,2,0,0.15,0.15,67,6.06,0.18,0.15,9.27,FLYING,X10-F,0:/Integrated Flight Computer/aircraft/x10_f_cfg.ks (inferred preloaded)
9.57,APPROACH,ILS_TRACK,149.14,152,2.86,1330.26,1251.33,-0.92,9.96,10.37,271.77,-2.12,0.3156,0,4.307,1,0.6,4.5,0.75,0.35,0.0168,0.4,0,22.699,0,-2.867,0,271.73,-0.096,0,1,-0.33,0,0,-0.09,271.75,0.0932,0.0302,0.9952,-0.1,271.73,-81.71,-134.46,26.531,1.728,0,0,3,1311.13,8.391,-0.096,1464.72,0,0,0,0,0,0,0,0,266.87,0,0,0,0,0,0,0,0,0,0,0,0,0,3,3,0,0,VALID,0,0,0,0,0,1,0,0,0,0,0,0,0,0,0,0,0,0,0,0,327.88,1020.62,2,0,0.15,0.15,69,6.67,0.15,0.15,9.57,FLYING,X10-F,0:/Integrated Flight Computer/aircraft/x10_f_cfg.ks (inferred preloaded)
9.9,APPROACH,ILS_TRACK,149.17,152,2.83,1330.18,1251.06,-0.68,10.74,11.03,271.69,-2.207,0.2986,0,5.242,1,0.6,4.5,0.75,0.35,0.0168,0.4,0,22.687,0,-2.826,0,271.68,-0.095,0,1,-0.28,0,0,-0.09,271.69,0.0933,0.0292,0.9952,-0.1,271.68,-79.7,-131.69,26.477,1.676,0,0,3,1311.13,8.295,-0.095,1461.9,0,0,0,0,0,0,0,0,266.87,0,0,0,0,0,0,0,0,0,0,0,0,0,3,3,0,0,VALID,0,0,0,0,0,1,0,0,0,0,0,0,0,0,0,0,0,0,0,0,326.91,1020.8,2,0,0.15,0.15,71,6.06,0.18,0.15,9.9,FLYING,X10-F,0:/Integrated Flight Computer/aircraft/x10_f_cfg.ks (inferred preloaded)
10.2,APPROACH,ILS_TRACK,149.17,152,2.83,1330.01,1250.89,-0.5,10.82,11,271.64,-2.262,0.3118,0,6.091,1,0.6,4.5,0.75,0.35,0.0168,0.4,0,22.689,0,-2.833,0,271.63,-0.094,0,1,-0.2,0,0,-0.09,271.65,0.0933,0.0284,0.9952,-0.09,271.63,-77.9,-129.28,26.428,1.63,0,0,3,1311.13,7.979,-0.094,1459.33,0,0,0,0,0,0,0,0,266.87,0,0,0,0,0,0,0,0,0,0,0,0,0,3,3,0,0,VALID,0,0,0,0,0,1,0,0,0,0,0,0,0,0,0,0,0,0,0,0,324.93,1020.77,2,0,0.15,0.15,73,6.67,0.15,0.15,10.2,FLYING,X10-F,0:/Integrated Flight Computer/aircraft/x10_f_cfg.ks (inferred preloaded)
10.53,APPROACH,ILS_TRACK,149.17,152,2.83,1329.82,1250.73,-0.46,10.7,10.86,271.59,-2.267,0.3242,0,7.027,1,0.6,4.5,0.75,0.35,0.0168,0.4,0,22.69,0,-2.835,0,271.59,-0.094,0,1,-0.17,0,0,-0.09,271.61,0.0934,0.0277,0.9952,-0.09,271.59,-75.98,-126.64,26.374,1.587,0,0,3,1311.13,7.987,-0.094,1456.5,0,0,0,0,0,0,0,0,266.87,0,0,0,0,0,0,0,0,0,0,0,0,0,3,3,0,0,VALID,0,0,0,0,0,1,0,0,0,0,0,0,0,0,0,0,0,0,0,0,324.41,1020.78,2,0,0.15,0.15,75,6.06,0.18,0.15,10.53,FLYING,X10-F,0:/Integrated Flight Computer/aircraft/x10_f_cfg.ks (inferred preloaded)
10.83,APPROACH,ILS_TRACK,149.17,152,2.83,1329.68,1250.59,-0.44,10.71,10.87,271.55,-2.276,0.3318,0,7.876,1,0.6,4.5,0.75,0.35,0.0168,0.4,0,22.688,0,-2.827,0,271.55,-0.093,0,1,-0.18,0,0,-0.09,271.57,0.0935,0.027,0.9953,-0.09,271.55,-74.26,-124.22,26.325,1.548,0,0,3,1311.13,8.127,-0.093,1453.93,0,0,0,0,0,0,0,0,266.87,0,0,0,0,0,0,0,0,0,0,0,0,0,3,3,0,0,VALID,0,0,0,0,0,1,0,0,0,0,0,0,0,0,0,0,0,0,0,0,324.88,1020.82,2,0,0.15,0.15,77,6.67,0.15,0.15,10.83,FLYING,X10-F,0:/Integrated Flight Computer/aircraft/x10_f_cfg.ks (inferred preloaded)
11.16,APPROACH,ILS_TRACK,149.18,152,2.82,1329.54,1250.44,-0.41,10.71,10.88,271.5,-2.269,0.3423,0,8.807,1,0.6,4.5,0.75,0.35,0.0168,0.4,0,22.685,0,-2.818,0,271.5,-0.092,0,1,-0.18,0,0,-0.09,271.52,0.0936,0.0263,0.9953,-0.09,271.5,-72.41,-121.54,26.271,1.504,0,0,3,1311.13,8.159,-0.092,1451.1,0,0,0,0,0,0,0,0,266.87,0,0,0,0,0,0,0,0,0,0,0,0,0,3,3,0,0,VALID,0,0,0,0,0,1,0,0,0,0,0,0,0,0,0,0,0,0,0,0,325.92,1020.87,2,0,0.15,0.15,79,6.06,0.18,0.15,11.16,FLYING,X10-F,0:/Integrated Flight Computer/aircraft/x10_f_cfg.ks (inferred preloaded)
11.46,APPROACH,ILS_TRACK,149.19,152,2.81,1329.41,1250.33,-0.42,10.67,10.82,271.47,-2.251,0.3532,0,9.65,1,0.6,4.5,0.75,0.35,0.0168,0.4,0,22.683,0,-2.809,0,271.47,-0.091,0,1,-0.15,0,0,-0.09,271.49,0.0936,0.0256,0.9953,-0.09,271.47,-70.77,-119.1,26.222,1.467,0,0,3,1311.13,8.136,-0.091,1448.54,0,0,0,0,0,0,0,0,266.87,0,0,0,0,0,0,0,0,0,0,0,0,0,3,3,0,0,VALID,0,0,0,0,0,1,0,0,0,0,0,0,0,0,0,0,0,0,0,0,327.41,1020.92,2,0,0.15,0.15,81,6.67,0.15,0.15,11.46,FLYING,X10-F,0:/Integrated Flight Computer/aircraft/x10_f_cfg.ks (inferred preloaded)
11.79,APPROACH,ILS_TRACK,149.21,152,2.79,1329.28,1250.2,-0.35,10.67,10.79,271.43,-2.215,0.3631,0,10.572,1,0.6,4.5,0.75,0.35,0.0168,0.4,0,22.678,0,-2.792,0,271.43,-0.091,0,1,-0.13,0,0,-0.09,271.45,0.0937,0.025,0.9953,-0.09,271.43,-69,-116.4,26.168,1.431,0,0,3,1311.13,8.133,-0.091,1445.71,0,0,0,0,0,0,0,0,266.87,0,0,0,0,0,0,0,0,0,0,0,0,0,3,3,0,0,VALID,0,0,0,0,0,1,0,0,0,0,0,0,0,0,0,0,0,0,0,0,329.64,1021,2,0,0.15,0.15,83,6.06,0.18,0.15,11.79,FLYING,X10-F,0:/Integrated Flight Computer/aircraft/x10_f_cfg.ks (inferred preloaded)
12.09,APPROACH,ILS_TRACK,149.23,152,2.77,1329.22,1250.08,-0.54,10.8,11.04,271.39,-2.173,0.3697,0,11.405,1,0.6,4.5,0.75,0.35,0.0168,0.4,0,22.671,0,-2.77,0,271.4,-0.09,0,1,-0.19,0,0,-0.09,271.41,0.0938,0.0244,0.9953,-0.09,271.4,-67.43,-113.92,26.119,1.399,0,0,3,1311.13,8.381,-0.09,1443.14,0,0,0,0,0,0,0,0,266.87,0,0,0,0,0,0,0,0,0,0,0,0,0,3,3,0,0,VALID,0,0,0,0,0,1,0,0,0,0,0,0,0,0,0,0,0,0,0,0,332.15,1021.11,2,0,0.15,0.15,85,6.67,0.15,0.15,12.09,FLYING,X10-F,0:/Integrated Flight Computer/aircraft/x10_f_cfg.ks (inferred preloaded)
12.42,APPROACH,ILS_TRACK,149.22,152,2.78,1329.18,1249.95,-0.14,11.27,11.32,271.34,-2.14,0.3966,0,12.319,1,0.6,4.5,0.75,0.35,0.0168,0.4,0,22.674,0,-2.778,0,271.36,-0.09,0,1,-0.09,0,0,-0.09,271.37,0.0939,0.0237,0.9953,-0.09,271.36,-65.74,-111.11,26.065,1.358,0,0,3,1311.13,8.422,-0.09,1440.31,0,0,0,0,0,0,0,0,266.87,0,0,0,0,0,0,0,0,0,0,0,0,0,3,3,0,0,VALID,0,0,0,0,0,1,0,0,0,0,0,0,0,0,0,0,0,0,0,0,335.24,1021.05,2,0,0.15,0.15,87,6.06,0.18,0.15,12.42,FLYING,X10-F,0:/Integrated Flight Computer/aircraft/x10_f_cfg.ks (inferred preloaded)
12.72,APPROACH,ILS_TRACK,149.17,152,2.83,1329.04,1249.93,-0.1,10.87,10.87,271.32,-2.096,0.4361,0,13.166,1,0.6,4.5,0.75,0.35,0.0168,0.4,0,22.688,0,-2.828,0,271.33,-0.09,0,1,-0.03,0,0,-0.09,271.35,0.0939,0.0232,0.9953,-0.09,271.33,-64.25,-108.68,26.016,1.327,0,0,3,1311.13,8.083,-0.09,1437.74,0,0,0,0,0,0,0,0,266.87,0,0,0,0,0,0,0,0,0,0,0,0,0,3,3,0,0,VALID,0,0,0,0,0,1,0,0,0,0,0,0,0,0,0,0,0,0,0,0,339.78,1020.86,2,0,0.15,0.15,89,6.67,0.15,0.15,12.72,FLYING,X10-F,0:/Integrated Flight Computer/aircraft/x10_f_cfg.ks (inferred preloaded)
13.05,APPROACH,ILS_TRACK,149.23,152,2.77,1328.94,1249.89,-0.14,10.64,10.68,271.3,-2.036,0.4221,0,14.088,1,0.6,4.5,0.75,0.35,0.0168,0.4,0,22.674,0,-2.779,0,271.29,-0.089,0,1,-0.05,0,0,-0.09,271.31,0.094,0.0226,0.9953,-0.09,271.29,-62.64,-105.96,25.962,1.293,0,0,3,1311.13,8.303,-0.089,1434.91,0,0,0,0,0,0,0,0,266.87,0,0,0,0,0,0,0,0,0,0,0,0,0,3,3,0,0,VALID,0,0,0,0,0,1,0,0,0,0,0,0,0,0,0,0,0,0,0,0,346.43,1021.1,2,0,0.15,0.15,91,6.06,0.18,0.15,13.05,FLYING,X10-F,0:/Integrated Flight Computer/aircraft/x10_f_cfg.ks (inferred preloaded)
13.35,APPROACH,ILS_TRACK,149.31,152,2.69,1328.89,1249.85,-0.16,10.57,10.63,271.28,-2.001,0.3988,0,14.904,1,0.6,4.5,0.75,0.35,0.0168,0.4,0,22.651,0,-2.697,0,271.27,-0.089,0,1,-0.06,0,0,-0.09,271.28,0.0941,0.0221,0.9953,-0.09,271.27,-61.21,-103.45,25.913,1.266,0,0,3,1311.13,8.378,-0.089,1432.34,0,0,0,0,0,0,0,0,266.87,0,0,0,0,0,0,0,0,0,0,0,0,0,3,3,0,0,VALID,0,0,0,0,0,1,0,0,0,0,0,0,0,0,0,0,0,0,0,0,351.27,1021.46,2,0,0.15,0.15,93,6.67,0.15,0.15,13.35,FLYING,X10-F,0:/Integrated Flight Computer/aircraft/x10_f_cfg.ks (inferred preloaded)
13.68,APPROACH,ILS_TRACK,149.43,152,2.57,1328.83,1249.81,-0.12,10.54,10.58,271.25,-1.951,0.3769,0,15.766,1,0.6,4.5,0.75,0.35,0.0168,0.4,0,22.619,0,-2.585,0,271.22,-0.088,0,1,-0.05,0,0,-0.09,271.24,0.0942,0.0214,0.9953,-0.09,271.22,-59.66,-100.67,25.859,1.224,0,0,3,1311.13,8.423,-0.088,1429.51,0,0,0,0,0,0,0,0,266.87,0,0,0,0,0,0,0,0,0,0,0,0,0,3,3,0,0,VALID,0,0,0,0,0,1,0,0,0,0,0,0,0,0,0,0,0,0,0,0,354.82,1021.94,2,0,0.15,0.15,95,6.06,0.18,0.15,13.68,FLYING,X10-F,0:/Integrated Flight Computer/aircraft/x10_f_cfg.ks (inferred preloaded)
13.98,APPROACH,ILS_TRACK,149.54,152,2.46,1328.78,1249.77,-0.12,10.51,10.56,271.22,-1.912,0.3592,0,16.517,1,0.6,4.5,0.75,0.35,0.0168,0.4,0,22.588,0,-2.473,0,271.2,-0.088,0,1,-0.06,0,0,-0.09,271.21,0.0943,0.0209,0.9953,-0.09,271.2,-58.29,-98.15,25.81,1.195,0,0,3,1311.13,8.436,-0.088,1426.94,0,0,0,0,0,0,0,0,266.87,0,0,0,0,0,0,0,0,0,0,0,0,0,3,3,0,0,VALID,0,0,0,0,0,1,0,0,0,0,0,0,0,0,0,0,0,0,0,0,356.6,1022.42,2,0,0.15,0.15,97,6.67,0.15,0.15,13.98,FLYING,X10-F,0:/Integrated Flight Computer/aircraft/x10_f_cfg.ks (inferred preloaded)
14.31,APPROACH,ILS_TRACK,149.67,152,2.33,1328.73,1249.73,-0.15,10.47,10.53,271.19,-1.879,0.3451,0,17.3,1,0.6,4.5,0.75,0.35,0.0168,0.4,0,22.55,0,-2.34,0,271.16,-0.088,0,1,-0.05,0,0,-0.09,271.18,0.0944,0.0203,0.9953,-0.09,271.16,-56.82,-95.37,25.756,1.163,0,0,3,1311.13,8.443,-0.088,1424.1,0,0,0,0,0,0,0,0,266.87,0,0,0,0,0,0,0,0,0,0,0,0,0,3,3,0,0,VALID,0,0,0,0,0,1,0,0,0,0,0,0,0,0,0,0,0,0,0,0,357.35,1022.99,2,0,0.15,0.15,99,6.06,0.18,0.15,14.31,FLYING,X10-F,0:/Integrated Flight Computer/aircraft/x10_f_cfg.ks (inferred preloaded)
14.61,APPROACH,ILS_TRACK,149.8,152,2.2,1328.68,1249.69,-0.11,10.46,10.51,271.17,-1.848,0.3347,0,17.974,1,0.6,4.5,0.75,0.35,0.0168,0.4,0,22.515,0,-2.215,0,271.13,-0.088,0,1,-0.06,0,0,-0.09,271.15,0.0944,0.0198,0.9953,-0.09,271.13,-55.51,-92.83,25.707,1.132,0,0,3,1311.13,8.466,-0.088,1421.52,0,0,0,0,0,0,0,0,266.87,0,0,0,0,0,0,0,0,0,0,0,0,0,3,3,0,0,VALID,0,0,0,0,0,1,0,0,0,0,0,0,0,0,0,0,0,0,0,0,356.9,1023.52,2,0,0.15,0.15,101,6.67,0.15,0.15,14.61,FLYING,X10-F,0:/Integrated Flight Computer/aircraft/x10_f_cfg.ks (inferred preloaded)
14.94,APPROACH,ILS_TRACK,149.93,152,2.07,1328.63,1249.65,-0.11,10.43,10.48,271.14,-1.806,0.3305,0,18.672,1,0.6,4.5,0.75,0.35,0.0168,0.4,0,22.478,0,-2.083,0,271.1,-0.088,0,1,-0.05,0,0,-0.09,271.12,0.0945,0.0192,0.9953,-0.09,271.1,-54.09,-90.04,25.653,1.1,0,0,3,1311.13,8.489,-0.088,1418.68,0,0,0,0,0,0,0,0,266.87,0,0,0,0,0,0,0,0,0,0,0,0,0,3,3,0,0,VALID,0,0,0,0,0,1,0,0,0,0,0,0,0,0,0,0,0,0,0,0,355.47,1024.09,2,0,0.15,0.15,103,6.06,0.18,0.15,14.94,FLYING,X10-F,0:/Integrated Flight Computer/aircraft/x10_f_cfg.ks (inferred preloaded)
15.24,APPROACH,ILS_TRACK,150.05,152,1.95,1328.59,1249.62,-0.13,10.41,10.46,271.11,-1.785,0.3281,0,19.27,1,0.6,4.5,0.75,0.35,0.0168,0.4,0,22.444,0,-1.962,0,271.07,-0.087,0,1,-0.05,0,0,-0.09,271.09,0.0946,0.0187,0.9953,-0.09,271.07,-52.84,-87.5,25.603,1.074,0,0,3,1311.13,8.484,-0.087,1416.1,0,0,0,0,0,0,0,0,266.87,0,0,0,0,0,0,0,0,0,0,0,0,0,3,3,0,0,VALID,0,0,0,0,0,1,0,0,0,0,0,0,0,0,0,0,0,0,0,0,353.89,1024.6,2,0,0.15,0.15,105,6.67,0.15,0.15,15.24,FLYING,X10-F,0:/Integrated Flight Computer/aircraft/x10_f_cfg.ks (inferred preloaded)
15.57,APPROACH,ILS_TRACK,150.18,152,1.82,1328.55,1249.58,-0.11,10.41,10.46,271.08,-1.758,0.3287,0,19.886,1,0.6,4.5,0.75,0.35,0.0168,0.4,0,22.408,0,-1.835,0,271.04,-0.087,0,1,-0.06,0,0,-0.09,271.05,0.0947,0.0182,0.9953,-0.09,271.04,-51.49,-84.7,25.549,1.041,0,0,3,1311.13,8.513,-0.087,1413.25,0,0,0,0,0,0,0,0,266.87,0,0,0,0,0,0,0,0,0,0,0,0,0,3,3,0,0,VALID,0,0,0,0,0,1,0,0,0,0,0,0,0,0,0,0,0,0,0,0,352.14,1025.14,2,0,0.15,0.15,107,6.06,0.18,0.15,15.57,FLYING,X10-F,0:/Integrated Flight Computer/aircraft/x10_f_cfg.ks (inferred preloaded)
15.87,APPROACH,ILS_TRACK,150.28,152,1.72,1328.51,1249.55,-0.11,10.39,10.43,271.06,-1.724,0.3265,0,20,1,0.6,4.5,0.75,0.35,0.0168,0.4,0,22.378,0,-1.728,0,271.01,-0.087,0,1,-0.05,0,0,-0.09,271.04,0.0948,0.0177,0.9953,-0.09,271.01,-50.29,-82.15,25.5,1.013,0,0,3,1311.13,8.508,-0.087,1410.66,0,0,0,0,0,0,0,0,266.87,0,0,0,0,0,0,0,0,0,0,0,0,0,3,3,0,0,VALID,0,0,0,0,0,1,0,0,0,0,0,0,0,0,0,0,0,0,0,0,350.76,1025.59,2,0,0.15,0.15,109,6.67,0.15,0.15,15.87,FLYING,X10-F,0:/Integrated Flight Computer/aircraft/x10_f_cfg.ks (inferred preloaded)
16.2,APPROACH,ILS_TRACK,150.4,152,1.6,1328.46,1249.51,-0.11,10.36,10.41,271.03,-1.693,0.3205,0,20,1,0.6,4.5,0.75,0.35,0.0168,0.4,0,22.345,0,-1.61,0,270.99,0,0,1,-0.05,0,0,-0.08,271,0.0933,0.0173,0.9955,0,270.99,-49,-79.35,25.445,0.99,16.997,1,3,1311.13,8.509,0,1407.82,0,0,0,0,0,0,0,0,266.87,0,0,0,0,0,0,0,0,0,0,0,0,0,3,3,0,0,VALID,0,0,0,0,0,1,0,0,0,0,0,0,0,0,0,0,0,0,0,0,349.06,1026.09,2,0,0.15,0.15,111,6.06,0.18,0.15,16.2,FLYING,X10-F,0:/Integrated Flight Computer/aircraft/x10_f_cfg.ks (inferred preloaded)
16.5,APPROACH,ILS_TRACK,150.5,152,1.5,1328.44,1249.48,-0.12,10.43,10.48,271.01,-1.646,0.317,0,20,1,0.6,4.5,0.75,0.35,0.0168,0.4,0,22.316,0,-1.509,0,270.96,0,0,1,-0.05,0,0,0,270.97,0.0934,0.0168,0.9955,0,270.96,-47.85,-76.78,25.396,0.962,16.157,1,3,1311.13,8.595,0,1405.22,0,0,0,0,0,0,0,0,266.87,0,0,0,0,0,0,0,0,0,0,0,0,0,3,3,0,0,VALID,0,0,0,0,0,1,0,0,0,0,0,0,0,0,0,0,0,0,0,0,347.11,1026.53,2,0,0.15,0.15,113,6.67,0.15,0.15,16.5,FLYING,X10-F,0:/Integrated Flight Computer/aircraft/x10_f_cfg.ks (inferred preloaded)
16.83,APPROACH,ILS_TRACK,150.6,152,1.4,1328.42,1249.42,-0.17,10.47,10.55,270.98,-1.605,0.3171,0,20,1,0.6,4.5,0.75,0.35,0.0168,0.4,0,22.288,0,-1.41,0,270.94,0,0,1,-0.06,0,0,0,270.95,0.0935,0.0164,0.9955,0,270.94,-46.62,-73.95,25.341,0.937,15.323,1,3,1311.13,8.578,0,1402.37,0,0,0,0,0,0,0,0,266.87,0,0,0,0,0,0,0,0,0,0,0,0,0,3,3,0,0,VALID,0,0,0,0,0,1,0,0,0,0,0,0,0,0,0,0,0,0,0,0,344.87,1026.95,2,0,0.15,0.15,115,6.06,0.18,0.15,16.83,FLYING,X10-F,0:/Integrated Flight Computer/aircraft/x10_f_cfg.ks (inferred preloaded)
17.13,APPROACH,ILS_TRACK,150.67,152,1.33,1328.39,1249.34,-0.01,10.54,10.53,270.96,-1.571,0.3244,0,20,1,0.6,4.5,0.75,0.35,0.0168,0.4,0,22.268,0,-1.337,0,270.92,0,0,1,-0.01,0,0,0,270.92,0.0936,0.0161,0.9955,0,270.92,-45.53,-71.38,25.292,0.92,14.582,1,3,1311.13,8.539,0,1399.78,0,0,0,0,0,0,0,0,266.87,0,0,0,0,0,0,0,0,0,0,0,0,0,3,3,0,0,VALID,0,0,0,0,0,1,0,0,0,0,0,0,0,0,0,0,0,0,0,0,343.12,1027.25,2,0,0.15,0.15,117,6.67,0.15,0.15,17.13,FLYING,X10-F,0:/Integrated Flight Computer/aircraft/x10_f_cfg.ks (inferred preloaded)
17.46,APPROACH,ILS_TRACK,150.74,152,1.26,1328.37,1249.22,-0.03,10.51,10.54,270.94,-1.51,0.3306,0,20,1,0.6,4.5,0.75,0.35,0.0168,0.4,0,22.248,0,-1.268,0,270.89,0,0,1,-0.03,0,0,0,270.9,0.0937,0.0155,0.9955,0,270.89,-44.35,-68.55,25.237,0.89,13.643,1,3,1311.13,8.652,0,1396.92,0,0,0,0,0,0,0,0,266.87,0,0,0,0,0,0,0,0,0,0,0,0,0,3,3,0,0,VALID,0,0,0,0,0,1,0,0,0,0,0,0,0,0,0,0,0,0,0,0,342.28,1027.55,2,0,0.15,0.15,119,6.06,0.18,0.15,17.46,FLYING,X10-F,0:/Integrated Flight Computer/aircraft/x10_f_cfg.ks (inferred preloaded)
17.76,APPROACH,ILS_TRACK,150.8,152,1.2,1328.34,1249.11,-0.04,10.41,10.42,270.92,-1.464,0.3362,0,20,1,0.6,4.5,0.75,0.35,0.0168,0.4,0,22.232,0,-1.21,0,270.87,0,0,1,-0.01,0,0,0,270.88,0.0938,0.0151,0.9955,0,270.87,-43.31,-65.99,25.188,0.866,12.961,1,3,1311.13,8.543,0,1394.33,0,0,0,0,0,0,0,0,266.87,0,0,0,0,0,0,0,0,0,0,0,0,0,3,3,0,0,VALID,0,0,0,0,0,1,0,0,0,0,0,0,0,0,0,0,0,0,0,0,342.22,1027.79,2,0,0.15,0.15,121,6.67,0.15,0.15,17.76,FLYING,X10-F,0:/Integrated Flight Computer/aircraft/x10_f_cfg.ks (inferred preloaded)
18.06,APPROACH,ILS_TRACK,150.87,152,1.13,1328.33,1248.97,-0.03,10.43,10.44,270.9,-1.426,0.3319,0,20,1,0.6,4.5,0.75,0.35,0.0168,0.4,0,22.212,0,-1.139,0,270.85,0,0,1,-0.01,0,0,0,270.85,0.0939,0.0148,0.9955,0,270.85,-42.29,-63.4,25.138,0.85,12.114,1,3,1311.13,8.631,0,1391.73,0,0,0,0,0,0,0,0,266.87,0,0,0,0,0,0,0,0,0,0,0,0,0,3,3,0,0,VALID,0,0,0,0,0,1,0,0,0,0,0,0,0,0,0,0,0,0,0,0,342.44,1028.1,2,0,0.15,0.15,123,6.67,0.15,0.15,18.06,FLYING,X10-F,0:/Integrated Flight Computer/aircraft/x10_f_cfg.ks (inferred preloaded)
18.36,APPROACH,ILS_TRACK,150.94,152,1.06,1328.33,1248.82,-0.01,10.42,10.43,270.88,-1.386,0.3267,0,20,1,0.6,4.5,0.75,0.35,0.0168,0.4,0,22.192,0,-1.067,0,270.82,0,0,1,0,0,0,0,270.84,0.0939,0.0143,0.9955,0,270.82,-41.29,-60.8,25.089,0.82,11.324,1,3,1311.13,8.647,0,1389.13,0,0,0,0,0,0,0,0,266.87,0,0,0,0,0,0,0,0,0,0,0,0,0,3,3,0,0,VALID,0,0,0,0,0,1,0,0,0,0,0,0,0,0,0,0,0,0,0,0,342.34,1028.41,2,0,0.15,0.15,125,6.67,0.15,0.15,18.36,FLYING,X10-F,0:/Integrated Flight Computer/aircraft/x10_f_cfg.ks (inferred preloaded)
18.66,APPROACH,ILS_TRACK,151.01,152,0.99,1328.32,1248.67,0.01,10.41,10.41,270.87,-1.36,0.3213,0,20,1,0.6,4.5,0.75,0.35,0.0168,0.4,0,22.171,0,-0.994,0,270.8,0,0,1,0,0,0,0,270.81,0.094,0.014,0.9955,0,270.8,-40.31,-58.21,25.039,0.802,10.535,1,3,1311.13,8.659,0,1386.53,0,0,0,0,0,0,0,0,266.87,0,0,0,0,0,0,0,0,0,0,0,0,0,3,3,0,0,VALID,0,0,0,0,0,1,0,0,0,0,0,0,0,0,0,0,0,0,0,0,341.73,1028.72,2,0,0.15,0.15,127,6.67,0.15,0.15,18.66,FLYING,X10-F,0:/Integrated Flight Computer/aircraft/x10_f_cfg.ks (inferred preloaded)
18.96,APPROACH,ILS_TRACK,151.08,152,0.92,1328.32,1248.52,0.02,10.4,10.4,270.85,-1.331,0.3165,0,20,1,0.6,4.5,0.75,0.35,0.0168,0.4,0,22.151,0,-0.923,0,270.78,0,0,1,0.01,0,0,0,270.8,0.0941,0.0136,0.9955,0,270.78,-39.35,-55.61,24.989,0.78,9.741,1,3,1311.13,8.676,0,1383.93,0,0,0,0,0,0,0,0,266.87,0,0,0,0,0,0,0,0,0,0,0,0,0,3,3,0,0,VALID,0,0,0,0,0,1,0,0,0,0,0,0,0,0,0,0,0,0,0,0,340.62,1029.02,2,0,0.15,0.15,129,6.67,0.15,0.15,18.96,FLYING,X10-F,0:/Integrated Flight Computer/aircraft/x10_f_cfg.ks (inferred preloaded)
19.26,APPROACH,ILS_TRACK,151.15,152,0.85,1328.34,1248.37,0,10.42,10.45,270.83,-1.306,0.3124,0,20,1,0.6,4.5,0.75,0.35,0.0168,0.4,0,22.131,0,-0.853,0,270.76,0,0,1,-0.01,0,0,0,270.77,0.0942,0.0133,0.9955,0,270.76,-38.42,-53,24.94,0.763,8.919,1,3,1311.13,8.725,0,1381.33,0,0,0,0,0,0,0,0,266.87,0,0,0,0,0,0,0,0,0,0,0,0,0,3,3,0,0,VALID,0,0,0,0,0,1,0,0,0,0,0,0,0,0,0,0,0,0,0,0,339.15,1029.32,2,0,0.15,0.15,131,6.67,0.15,0.15,19.26,FLYING,X10-F,0:/Integrated Flight Computer/aircraft/x10_f_cfg.ks (inferred preloaded)
19.56,APPROACH,ILS_TRACK,151.21,152,0.79,1328.33,1248.25,0.1,10.39,10.33,270.81,-1.283,0.3152,0,20,1,0.6,4.5,0.75,0.35,0.0168,0.4,0,22.115,0,-0.796,0,270.75,0,0,1,0.04,0,0,0,270.75,0.0943,0.013,0.9955,0,270.75,-37.5,-50.39,24.89,0.746,8.198,1,3,1311.13,8.648,0,1378.72,0,0,0,0,0,0,0,0,266.87,0,0,0,0,0,0,0,0,0,0,0,0,0,3,3,0,0,VALID,0,0,0,0,0,1,0,0,0,0,0,0,0,0,0,0,0,0,0,0,337.5,1029.55,2,0,0.15,0.15,133,6.67,0.15,0.15,19.56,FLYING,X10-F,0:/Integrated Flight Computer/aircraft/x10_f_cfg.ks (inferred preloaded)
19.86,APPROACH,ILS_TRACK,151.26,152,0.74,1328.34,1248.14,0.09,10.32,10.27,270.79,-1.247,0.3153,0,20,1,0.6,4.5,0.75,0.35,0.0168,0.4,0,22.1,0,-0.741,0,270.72,0,0,1,0.04,0,0,0,270.73,0.0944,0.0126,0.9955,0,270.72,-36.6,-47.78,24.84,0.72,7.361,1,3,1311.13,8.716,0,1376.12,0,0,0,0,0,0,0,0,266.87,0,0,0,0,0,0,0,0,0,0,0,0,0,3,3,0,0,VALID,0,0,0,0,0,1,0,0,0,0,0,0,0,0,0,0,0,0,0,0,336.28,1029.79,2,0,0.15,0.15,135,6.67,0.15,0.15,19.86,FLYING,X10-F,0:/Integrated Flight Computer/aircraft/x10_f_cfg.ks (inferred preloaded)
20.16,APPROACH,ILS_TRACK,151.32,152,0.68,1328.36,1248.05,0.09,10.29,10.27,270.78,-1.223,0.313,0,20,1,0.6,4.5,0.75,0.35,0.0168,0.4,0,22.083,0,-0.683,0,270.71,0,0,1,0.03,0,0,0,270.71,0.0944,0.0123,0.9955,0,270.71,-35.73,-45.16,24.791,0.705,6.543,1,3,1311.13,8.755,0,1373.51,0,0,0,0,0,0,0,0,266.87,0,0,0,0,0,0,0,0,0,0,0,0,0,3,3,0,0,VALID,0,0,0,0,0,1,0,0,0,0,0,0,0,0,0,0,0,0,0,0,335.18,1030.04,2,0,0.15,0.15,137,6.67,0.15,0.15,20.16,FLYING,X10-F,0:/Integrated Flight Computer/aircraft/x10_f_cfg.ks (inferred preloaded)
20.46,APPROACH,ILS_TRACK,151.38,152,0.62,1328.38,1247.98,0.08,10.28,10.26,270.76,-1.201,0.3104,0,20,1,0.6,4.5,0.75,0.35,0.0168,0.4,0,22.067,0,-0.625,0,270.68,0,0,1,0.03,0,0,0,270.69,0.0945,0.0119,0.9955,0,270.68,-34.87,-42.53,24.741,0.683,5.741,1,3,1311.13,8.773,0,1370.91,0,0,0,0,0,0,0,0,266.87,0,0,0,0,0,0,0,0,0,0,0,0,0,3,3,0,0,VALID,0,0,0,0,0,1,0,0,0,0,0,0,0,0,0,0,0,0,0,0,333.94,1030.28,2,0,0.15,0.15,139,6.67,0.15,0.15,20.46,FLYING,X10-F,0:/Integrated Flight Computer/aircraft/x10_f_cfg.ks (inferred preloaded)
20.76,APPROACH,ILS_TRACK,151.43,152,0.57,1328.4,1247.93,0.09,10.28,10.25,270.74,-1.19,0.3085,0,20,1,0.6,4.5,0.75,0.35,0.0168,0.4,0,22.052,0,-0.571,0,270.66,0,0,1,0.03,0,0,0,270.68,0.0946,0.0115,0.9954,0,270.66,-34.03,-39.9,24.691,0.659,4.948,1,3,1311.13,8.777,0,1368.3,0,0,0,0,0,0,0,0,266.87,0,0,0,0,0,0,0,0,0,0,0,0,0,3,3,0,0,VALID,0,0,0,0,0,1,0,0,0,0,0,0,0,0,0,0,0,0,0,0,332.56,1030.51,2,0,0.15,0.15,141,6.67,0.15,0.15,20.76,FLYING,X10-F,0:/Integrated Flight Computer/aircraft/x10_f_cfg.ks (inferred preloaded)
21.09,APPROACH,ILS_TRACK,151.49,152,0.51,1328.43,1247.84,0.1,10.28,10.24,270.72,-1.183,0.3074,0,20,1,0.6,4.5,0.75,0.35,0.0168,0.4,0,22.036,0,-0.514,0,270.64,0,0,1,0.04,0,0,0,270.65,0.0947,0.0112,0.9954,0,270.64,-33.12,-37,24.636,0.642,4.073,1,3,1311.13,8.785,0,1365.43,0,0,0,0,0,0,0,0,266.87,0,0,0,0,0,0,0,0,0,0,0,0,0,3,3,0,0,VALID,0,0,0,0,0,1,0,0,0,0,0,0,0,0,0,0,0,0,0,0,331,1030.75,2,0,0.15,0.15,143,6.06,0.18,0.15,21.09,FLYING,X10-F,0:/Integrated Flight Computer/aircraft/x10_f_cfg.ks (inferred preloaded)
21.39,APPROACH,ILS_TRACK,151.54,152,0.46,1328.46,1247.77,0.1,10.27,10.24,270.7,-1.172,0.3077,0,20,1,0.6,4.5,0.75,0.35,0.0168,0.4,0,22.023,0,-0.467,0,270.62,0,0,1,0.04,0,0,0,270.63,0.0948,0.0109,0.9954,0,270.62,-32.32,-34.37,24.587,0.624,3.274,1,3,1311.13,8.795,0,1362.82,0,0,0,0,0,0,0,0,266.87,0,0,0,0,0,0,0,0,0,0,0,0,0,3,3,0,0,VALID,0,0,0,0,0,1,0,0,0,0,0,0,0,0,0,0,0,0,0,0,329.65,1030.94,2,0,0.15,0.15,145,6.67,0.15,0.15,21.39,FLYING,X10-F,0:/Integrated Flight Computer/aircraft/x10_f_cfg.ks (inferred preloaded)
21.69,APPROACH,ILS_TRACK,151.58,152,0.42,1328.48,1247.72,0.1,10.25,10.21,270.68,-1.166,0.3082,0,20,1,0.6,4.5,0.75,0.35,0.0168,0.4,0,22.01,0,-0.423,0,270.61,-0.487,0,1,0.04,0,0,-0.12,270.62,0.1033,0.0106,0.9946,-0.49,270.61,-31.53,-31.73,24.537,0.609,2.513,1,3,1311.13,8.758,-0.487,1360.21,0,0,0,0,0,0,0,0,266.87,0,0,0,0,0,0,0,0,0,0,0,0,0,3,3,0,0,VALID,0,0,0,0,0,1,0,0,0,0,0,0,0,0,0,0,0,0,0,0,328.48,1031.13,2,0,0.15,0.15,147,6.67,0.15,0.15,21.69,FLYING,X10-F,0:/Integrated Flight Computer/aircraft/x10_f_cfg.ks (inferred preloaded)
21.99,APPROACH,ILS_TRACK,151.6,152,0.4,1328.39,1247.74,0.38,9.88,9.65,270.65,-1.415,0.317,0,20,1,0.6,4.5,0.75,0.35,0.0168,0.4,0,22.003,0,-0.398,0,270.59,-0.945,0,1,0.14,0,0,-0.84,270.6,0.1114,0.0103,0.9937,-0.95,270.59,-30.76,-29.17,24.487,0.59,2.055,1,3,1311.13,8.37,-0.945,1357.6,0,0,0,0,0,0,0,0,266.87,0,0,0,0,0,0,0,0,0,0,0,0,0,3,3,0,0,VALID,0,0,0,0,0,1,0,0,0,0,0,0,0,0,0,0,0,0,0,0,327.48,1031.21,2,0,0.15,0.15,149,6.67,0.15,0.15,21.99,FLYING,X10-F,0:/Integrated Flight Computer/aircraft/x10_f_cfg.ks (inferred preloaded)
22.29,APPROACH,ILS_TRACK,151.65,152,0.35,1328.17,1247.79,0.06,8.79,8.67,270.6,-1.705,0.3125,0,20,1,0.6,4.5,0.75,0.35,0.0168,0.4,0,21.992,0,-0.357,0,270.57,-1.321,0,1,0.06,0,0,-1.02,270.58,0.118,0.0099,0.993,-1.32,270.57,-30,-26.78,24.437,0.566,1.679,1,3,1311.13,7.942,-1.321,1354.99,0,0,0,0,0,0,0,0,266.87,0,0,0,0,0,0,0,0,0,0,0,0,0,3,3,0,0,VALID,0,0,0,0,0,1,0,0,0,0,0,0,0,0,0,0,0,0,0,0,327.58,1031.41,2,0,0.15,0.15,151,6.67,0.15,0.15,22.29,FLYING,X10-F,0:/Integrated Flight Computer/aircraft/x10_f_cfg.ks (inferred preloaded)
22.59,APPROACH,ILS_TRACK,151.81,152,0.19,1327.88,1247.76,-0.16,7.9,7.83,270.56,-1.9,0.2556,0,20,1,0.6,4.5,0.75,0.35,0.0168,0.4,0,21.949,0,-0.207,0,270.57,-1.852,0,1,-0.04,0,0,-1.69,270.58,0.1272,0.0098,0.9918,-1.85,270.57,-29.27,-24.42,24.387,0.565,1.148,1,3,1311.13,7.724,-1.852,1352.38,0,0,0,0,0,0,0,0,266.87,0,0,0,0,0,0,0,0,0,0,0,0,0,3,3,0,0,VALID,0,0,0,0,0,1,0,0,0,0,0,0,0,0,0,0,0,0,0,0,326.2,1032.07,2,0,0.15,0.15,153,6.67,0.15,0.15,22.59,FLYING,X10-F,0:/Integrated Flight Computer/aircraft/x10_f_cfg.ks (inferred preloaded)
22.92,APPROACH,ILS_TRACK,152.06,152,-0.06,1327.37,1247.6,-0.88,6.66,6.85,270.55,-2.017,0.1794,0,19.995,1,0.6,4.5,0.75,0.35,0.0168,0.4,0,21.882,0,0.033,0,270.56,-2.122,0,1,-0.27,0,0,-1.94,270.56,0.132,0.0097,0.9912,-2.12,270.56,-28.5,-22.03,24.332,0.56,0.878,1,3,1311.13,7.163,-2.122,1349.5,0,0,0,0,0,0,0,0,266.87,0,0,0,0,0,0,0,0,0,0,0,0,0,3,3,0,0,VALID,0,0,0,0,0,1,0,0,0,0,0,0,0,0,0,0,0,0,0,0,318.42,1033.12,2,0,0.15,0.15,155,6.06,0.18,0.15,22.92,FLYING,X10-F,0:/Integrated Flight Computer/aircraft/x10_f_cfg.ks (inferred preloaded)
23.22,APPROACH,ILS_TRACK,152.31,152,-0.31,1326.87,1247.2,-1.58,6.21,6.71,270.52,-2.016,0.1114,0,19.928,1,0.6,4.5,0.75,0.35,0.0168,0.4,0,21.811,0,0.284,0,270.55,-2.708,0,1,-0.57,0,0,-2.42,270.55,0.1422,0.0096,0.9898,-2.71,270.55,-27.82,-19.89,24.282,0.553,0.292,1,3,1311.13,7.095,-2.708,1346.88,0,0,0,0,0,0,0,0,266.87,0,0,0,0,0,0,0,0,0,0,0,0,0,3,3,0,0,VALID,0,0,0,0,0,1,0,0,0,0,0,0,0,0,0,0,0,0,0,0,304.18,1034.21,2,0,0.15,0.15,157,6.67,0.15,0.15,23.22,FLYING,X10-F,0:/Integrated Flight Computer/aircraft/x10_f_cfg.ks (inferred preloaded)
23.55,APPROACH,ILS_TRACK,152.57,152,-0.57,1326,1246.6,-2.28,5.43,6.11,270.52,-1.979,0.063,0,19.77,1,0.6,4.5,0.75,0.35,0.0168,0.4,0,21.737,0,0.547,0,270.55,-2.476,0,1,-0.79,0,0,-2.62,270.55,0.1383,0.0095,0.9903,-2.48,270.55,-27.1,-17.81,24.227,0.548,0.524,1,3,1311.13,6.024,-2.476,1343.99,0,0,0,0,0,0,0,0,266.87,0,0,0,0,0,0,0,0,0,0,0,0,0,3,3,0,0,VALID,0,0,0,0,0,1,0,0,0,0,0,0,0,0,0,0,0,0,0,0,282.96,1035.36,2,0,0.15,0.15,159,6.06,0.18,0.15,23.55,FLYING,X10-F,0:/Integrated Flight Computer/aircraft/x10_f_cfg.ks (inferred preloaded)
23.85,APPROACH,ILS_TRACK,152.79,152,-0.79,1325.11,1245.75,-3.29,5.09,6.2,270.5,-1.859,0.0319,0,19.553,1,0.6,4.5,0.75,0.35,0.0168,0.4,0,21.673,0,0.774,0,270.54,-2.784,0,1,-1.16,0,0,-2.58,270.54,0.1437,0.0094,0.9896,-2.78,270.54,-26.47,-16.07,24.177,0.539,0.216,1,3,1311.13,5.758,-2.784,1341.36,0,0,0,0,0,0,0,0,266.87,0,0,0,0,0,0,0,0,0,0,0,0,0,3,3,0,0,VALID,0,0,0,0,0,1,0,0,0,0,0,0,0,0,0,0,0,0,0,0,260.74,1036.36,2,0,0.15,0.15,161,6.67,0.15,0.15,23.85,FLYING,X10-F,0:/Integrated Flight Computer/aircraft/x10_f_cfg.ks (inferred preloaded)
24.18,APPROACH,ILS_TRACK,152.94,152,-0.94,1324,1244.62,-3.94,5.55,6.91,270.47,-1.709,0.0433,0,19.257,1,0.6,4.5,0.75,0.35,0.0168,0.4,0,21.628,0,0.934,0,270.53,-3.051,0,1,-1.46,0,0,-3.04,270.53,0.1484,0.0091,0.9889,-3.05,270.53,-25.8,-14.24,24.122,0.526,-0.051,1,3,1311.13,5.402,-3.051,1338.47,0,0,0,0,0,0,0,0,266.87,0,0,0,0,0,0,0,0,0,0,0,0,0,3,3,0,0,VALID,0,0,0,0,0,1,0,0,0,0,0,0,0,0,0,0,0,0,0,0,236.13,1037.1,2,0,0.15,0.15,163,6.06,0.18,0.15,24.18,FLYING,X10-F,0:/Integrated Flight Computer/aircraft/x10_f_cfg.ks (inferred preloaded)
24.48,APPROACH,ILS_TRACK,153.01,152,-1.01,1322.69,1243.39,-4.41,5.39,6.84,270.46,-1.57,0.0793,0,18.958,1,0.6,4.5,0.75,0.35,0.0168,0.4,0,21.606,0,1.01,0,270.53,-2.584,0,1,-1.6,0,0,-2.79,270.53,0.1404,0.0091,0.9901,-2.58,270.53,-25.21,-12.87,24.072,0.526,0.416,1,3,1311.13,4.306,-2.584,1335.84,0,0,0,0,0,0,0,0,266.87,0,0,0,0,0,0,0,0,0,0,0,0,0,3,3,0,0,VALID,0,0,0,0,0,1,0,0,0,0,0,0,0,0,0,0,0,0,0,0,217.63,1037.47,2,0,0.15,0.15,165,6.67,0.15,0.15,24.48,FLYING,X10-F,0:/Integrated Flight Computer/aircraft/x10_f_cfg.ks (inferred preloaded)
24.81,APPROACH,ILS_TRACK,153.04,152,-1.04,1321.12,1241.78,-5.3,5.37,7.2,270.46,-1.364,0.1213,0,18.616,1,0.6,4.5,0.75,0.35,0.0168,0.4,0,21.597,0,1.041,0,270.52,-2.735,0,1,-1.92,0,0,-2.61,270.52,0.1431,0.009,0.9897,-2.74,270.52,-24.59,-11.54,24.016,0.52,0.265,1,3,1311.13,3.996,-2.735,1332.94,0,0,0,0,0,0,0,0,266.87,0,0,0,0,0,0,0,0,0,0,0,0,0,3,3,0,0,VALID,0,0,0,0,0,1,0,0,0,0,0,0,0,0,0,0,0,0,0,0,203.43,1037.68,2,0,0.15,0.15,167,6.06,0.18,0.15,24.81,FLYING,X10-F,0:/Integrated Flight Computer/aircraft/x10_f_cfg.ks (inferred preloaded)
25.11,APPROACH,ILS_TRACK,152.98,152,-0.98,1319.67,1240.08,-5.76,6.18,8.24,270.44,-1.21,0.1871,0,18.314,1,0.6,4.5,0.75,0.35,0.0168,0.4,0,21.613,0,0.986,0,270.51,-3.105,0,1,-2.16,0,0,-2.94,270.51,0.1496,0.0089,0.9887,-3.11,270.51,-24.05,-10.33,23.966,0.513,-0.105,1,3,1311.13,4.006,-3.105,1330.31,0,0,0,0,0,0,0,0,266.87,0,0,0,0,0,0,0,0,0,0,0,0,0,3,3,0,0,VALID,0,0,0,0,0,1,0,0,0,0,0,0,0,0,0,0,0,0,0,0,196.73,1037.53,2,0,0.15,0.15,169,6.67,0.15,0.15,25.11,FLYING,X10-F,0:/Integrated Flight Computer/aircraft/x10_f_cfg.ks (inferred preloaded)
25.44,APPROACH,ILS_TRACK,152.82,152,-0.82,1317.75,1238.21,-5.77,6.32,8.23,270.44,-1.065,0.271,0,18.024,1,0.6,4.5,0.75,0.35,0.0168,0.4,0,21.656,0,0.835,0,270.5,-2.424,0,1,-2.14,0,0,-2.88,270.5,0.1379,0.0087,0.9904,-2.42,270.5,-23.47,-9.29,23.911,0.503,0.576,1,3,1311.13,2.764,-2.424,1327.42,0,0,0,0,0,0,0,0,266.87,0,0,0,0,0,0,0,0,0,0,0,0,0,3,3,0,0,VALID,0,0,0,0,0,1,0,0,0,0,0,0,0,0,0,0,0,0,0,0,196.98,1036.96,2,0,0.15,0.15,171,6.06,0.18,0.15,25.44,FLYING,X10-F,0:/Integrated Flight Computer/aircraft/x10_f_cfg.ks (inferred preloaded)
25.74,APPROACH,ILS_TRACK,152.71,152,-0.71,1315.84,1236.41,-6.3,5.89,8.01,270.45,-0.87,0.3147,0,17.802,1,0.6,4.5,0.75,0.35,0.0168,0.4,0,21.689,0,0.716,0,270.49,-2.306,0,1,-2.32,0,0,-2.27,270.5,0.136,0.0086,0.9907,-2.31,270.49,-22.95,-8.57,23.861,0.494,0.694,1,3,1311.13,2.348,-2.306,1324.79,0,0,0,0,0,0,0,0,266.87,0,0,0,0,0,0,0,0,0,0,0,0,0,3,3,0,0,VALID,0,0,0,0,0,1,0,0,0,0,0,0,0,0,0,0,0,0,0,0,202.35,1036.6,2,0,0.15,0.15,173,6.67,0.15,0.15,25.74,FLYING,X10-F,0:/Integrated Flight Computer/aircraft/x10_f_cfg.ks (inferred preloaded)
26.07,APPROACH,ILS_TRACK,152.62,152,-0.62,1313.77,1234.21,-6.99,6.18,8.63,270.46,-0.637,0.329,0,17.588,1,0.6,4.5,0.75,0.35,0.0168,0.4,0,21.715,0,0.625,0,270.49,-2.675,0,1,-2.58,0,0,-2.47,270.49,0.1424,0.0084,0.9898,-2.68,270.49,-22.41,-7.77,23.806,0.487,0.325,1,3,1311.13,2.507,-2.675,1321.91,0,0,0,0,0,0,0,0,266.87,0,0,0,0,0,0,0,0,0,0,0,0,0,3,3,0,0,VALID,0,0,0,0,0,1,0,0,0,0,0,0,0,0,0,0,0,0,0,0,210.33,1036.34,2,0,0.15,0.15,175,6.06,0.18,0.15,26.07,FLYING,X10-F,0:/Integrated Flight Computer/aircraft/x10_f_cfg.ks (inferred preloaded)
26.37,APPROACH,ILS_TRACK,152.5,152,-0.5,1311.94,1232.05,-7.09,7.26,9.79,270.47,-0.54,0.3533,0,17.425,1,0.6,4.5,0.75,0.35,0.0168,0.4,0,21.746,0,0.514,0,270.47,-3.053,0,1,-2.69,0,0,-2.92,270.47,0.149,0.0082,0.9888,-3.05,270.47,-21.92,-6.97,23.756,0.47,-0.053,1,3,1311.13,2.678,-3.053,1319.29,0,0,0,0,0,0,0,0,266.87,0,0,0,0,0,0,0,0,0,0,0,0,0,3,3,0,0,VALID,0,0,0,0,0,1,0,0,0,0,0,0,0,0,0,0,0,0,0,0,218.11,1036,2,0,0.15,0.15,177,6.67,0.15,0.15,26.37,FLYING,X10-F,0:/Integrated Flight Computer/aircraft/x10_f_cfg.ks (inferred preloaded)
26.7,APPROACH,ILS_TRACK,152.29,152,-0.29,1309.63,1229.78,-6.8,7.37,9.65,270.46,-0.555,0.4097,0,17.302,1,0.6,4.5,0.75,0.35,0.0168,0.4,0,21.803,0,0.313,0,270.45,-2.332,0,1,-2.55,0,0,-2.77,270.46,0.1367,0.0079,0.9906,-2.33,270.45,-21.39,-6.34,23.701,0.454,0.668,1,3,1311.13,1.544,-2.332,1316.41,0,0,0,0,0,0,0,0,266.87,0,0,0,0,0,0,0,0,0,0,0,0,0,3,3,0,0,VALID,0,0,0,0,0,1,0,0,0,0,0,0,0,0,0,0,0,0,0,0,227.91,1035.25,2,0,0.15,0.15,179,6.06,0.18,0.15,26.7,FLYING,X10-F,0:/Integrated Flight Computer/aircraft/x10_f_cfg.ks (inferred preloaded)
27,APPROACH,ILS_TRACK,152.18,152,-0.18,1307.42,1227.71,-7.08,6.87,9.27,270.46,-0.453,0.4168,0,17.24,1,0.6,4.5,0.75,0.35,0.0168,0.4,0,21.838,0,0.189,0,270.44,-2.313,0,1,-2.64,0,0,-2.23,270.45,0.1364,0.0077,0.9906,-2.31,270.44,-20.91,-5.94,23.651,0.442,0.687,1,3,1311.13,1.367,-2.313,1313.8,0,0,0,0,0,0,0,0,266.87,0,0,0,0,0,0,0,0,0,0,0,0,0,3,3,0,0,VALID,0,0,0,0,0,1,0,0,0,0,0,0,0,0,0,0,0,0,0,0,239.47,1034.9,2,0,0.15,0.15,181,6.67,0.15,0.15,27,FLYING,X10-F,0:/Integrated Flight Computer/aircraft/x10_f_cfg.ks (inferred preloaded)
27.33,APPROACH,ILS_TRACK,152.14,152,-0.14,1305.1,1225.3,-7.51,7.02,9.65,270.46,-0.375,0.386,0,17.189,1,0.6,4.5,0.75,0.35,0.0168,0.4,0,21.851,0,0.142,0,270.43,-2.74,0,1,-2.8,0,0,-2.51,270.44,0.1439,0.0075,0.9896,-2.74,270.43,-20.4,-5.41,23.596,0.431,0.26,1,3,1311.13,1.704,-2.74,1310.92,0,0,0,0,0,0,0,0,266.87,0,0,0,0,0,0,0,0,0,0,0,0,0,3,3,0,0,VALID,0,0,0,0,0,1,0,0,0,0,0,0,0,0,0,0,0,0,0,0,251.42,1034.87,2,0,0.15,0.15,183,6.06,0.18,0.15,27.33,FLYING,X10-F,0:/Integrated Flight Computer/aircraft/x10_f_cfg.ks (inferred preloaded)
27.63,APPROACH,ILS_TRACK,152.09,152,-0.09,1303.09,1222.99,-7.54,7.92,10.62,270.46,-0.356,0.3695,0,17.157,1,0.6,4.5,0.75,0.35,0.0168,0.4,0,21.864,0,0.097,0,270.42,-3.197,0,1,-2.87,0,0,-2.99,270.42,0.1519,0.0072,0.9884,-3.2,270.42,-19.94,-4.81,23.546,0.418,-0.197,1,3,1311.13,2.052,-3.197,1308.31,0,0,0,0,0,0,0,0,266.87,0,0,0,0,0,0,0,0,0,0,0,0,0,3,3,0,0,VALID,0,0,0,0,0,1,0,0,0,0,0,0,0,0,0,0,0,0,0,0,259.87,1034.82,2,0,0.15,0.15,185,6.67,0.15,0.15,27.63,FLYING,X10-F,0:/Integrated Flight Computer/aircraft/x10_f_cfg.ks (inferred preloaded)
27.96,APPROACH,ILS_TRACK,151.94,152,0.06,1300.65,1220.63,-6.9,8.03,10.32,270.44,-0.51,0.4045,0,17.155,1,0.6,4.5,0.75,0.35,0.0168,0.4,0,21.903,0,-0.044,0,270.4,-2.649,0,1,-2.63,0,0,-3.07,270.4,0.1425,0.007,0.9898,-2.65,270.4,-19.44,-4.32,23.492,0.401,0.351,1,3,1311.13,1.18,-2.649,1305.44,0,0,0,0,0,0,0,0,266.87,0,0,0,0,0,0,0,0,0,0,0,0,0,3,3,0,0,VALID,0,0,0,0,0,1,0,0,0,0,0,0,0,0,0,0,0,0,0,0,267.81,1034.31,2,0,0.15,0.15,187,6.06,0.18,0.15,27.96,FLYING,X10-F,0:/Integrated Flight Computer/aircraft/x10_f_cfg.ks (inferred preloaded)
28.26,APPROACH,ILS_TRACK,151.85,152,0.15,1298.23,1218.58,-7.02,6.87,9.16,270.42,-0.513,0.4167,0,17.198,1,0.6,4.5,0.75,0.35,0.0168,0.4,0,21.935,0,-0.156,0,270.39,-2.259,0,1,-2.62,0,0,-2.32,270.39,0.1358,0.0067,0.9907,-2.26,270.39,-18.99,-4.12,23.442,0.388,0.741,1,3,1311.13,0.618,-2.259,1302.83,0,0,0,0,0,0,0,0,266.87,0,0,0,0,0,0,0,0,0,0,0,0,0,3,3,0,0,VALID,0,0,0,0,0,1,0,0,0,0,0,0,0,0,0,0,0,0,0,0,276.94,1034.04,2,0,0.15,0.15,189,6.67,0.15,0.15,28.26,FLYING,X10-F,0:/Integrated Flight Computer/aircraft/x10_f_cfg.ks (inferred preloaded)
28.59,APPROACH,ILS_TRACK,151.95,152,0.05,1295.64,1216.17,-7.61,6.07,8.65,270.43,-0.453,0.3295,0,17.228,1,0.6,4.5,0.75,0.35,0.0168,0.4,0,21.908,0,-0.059,0,270.38,-2.536,0,1,-2.82,0,0,-2.36,270.38,0.1407,0.0066,0.99,-2.54,270.38,-18.51,-3.86,23.387,0.378,0.464,1,3,1311.13,0.868,-2.536,1299.96,0,0,0,0,0,0,0,0,266.87,0,0,0,0,0,0,0,0,0,0,0,0,0,3,3,0,0,VALID,0,0,0,0,0,1,0,0,0,0,0,0,0,0,0,0,0,0,0,0,286,1034.64,2,0,0.15,0.15,191,6.06,0.18,0.15,28.59,FLYING,X10-F,0:/Integrated Flight Computer/aircraft/x10_f_cfg.ks (inferred preloaded)
28.89,APPROACH,ILS_TRACK,152.08,152,-0.08,1293.41,1213.79,-8.15,6.36,9.24,270.42,-0.411,0.2524,0,17.217,1,0.6,4.5,0.75,0.35,0.0168,0.4,0,21.871,0,0.071,0,270.37,-2.974,0,1,-3.03,0,0,-2.74,270.37,0.1484,0.0063,0.9889,-2.97,270.37,-18.08,-3.51,23.337,0.366,0.026,1,3,1311.13,1.283,-2.974,1297.35,0,0,0,0,0,0,0,0,266.87,0,0,0,0,0,0,0,0,0,0,0,0,0,3,3,0,0,VALID,0,0,0,0,0,1,0,0,0,0,0,0,0,0,0,0,0,0,0,0,288.64,1035.35,2,0,0.15,0.15,193,6.67,0.15,0.15,28.89,FLYING,X10-F,0:/Integrated Flight Computer/aircraft/x10_f_cfg.ks (inferred preloaded)
29.22,APPROACH,ILS_TRACK,152.19,152,-0.19,1290.91,1211.12,-7.87,7.12,9.84,270.42,-0.436,0.2122,0,17.163,1,0.6,4.5,0.75,0.35,0.0168,0.4,0,21.838,0,0.186,0,270.35,-2.949,0,1,-2.99,0,0,-3.16,270.36,0.148,0.0061,0.989,-2.95,270.35,-17.61,-3.09,23.283,0.351,0.051,1,3,1311.13,1.094,-2.949,1294.48,0,0,0,0,0,0,0,0,266.87,0,0,0,0,0,0,0,0,0,0,0,0,0,3,3,0,0,VALID,0,0,0,0,0,1,0,0,0,0,0,0,0,0,0,0,0,0,0,0,285,1036,2,0,0.15,0.15,195,6.06,0.18,0.15,29.22,FLYING,X10-F,0:/Integrated Flight Computer/aircraft/x10_f_cfg.ks (inferred preloaded)
29.52,APPROACH,ILS_TRACK,152.24,152,-0.24,1288.45,1208.76,-7.95,6.82,9.51,270.4,-0.469,0.2117,0,17.097,1,0.6,4.5,0.75,0.35,0.0168,0.4,0,21.826,0,0.231,0,270.33,-2.507,0,1,-2.97,0,0,-2.61,270.34,0.1405,0.0058,0.9901,-2.51,270.33,-17.19,-2.92,23.233,0.332,0.493,1,3,1311.13,0.48,-2.507,1291.86,0,0,0,0,0,0,0,0,266.87,0,0,0,0,0,0,0,0,0,0,0,0,0,3,3,0,0,VALID,0,0,0,0,0,1,0,0,0,0,0,0,0,0,0,0,0,0,0,0,278.74,1036.34,2,0,0.15,0.15,197,6.67,0.15,0.15,29.52,FLYING,X10-F,0:/Integrated Flight Computer/aircraft/x10_f_cfg.ks (inferred preloaded)
29.85,APPROACH,ILS_TRACK,152.33,152,-0.33,1285.82,1206.07,-8.33,6.85,9.75,270.39,-0.475,0.1901,0,16.998,1,0.6,4.5,0.75,0.35,0.0168,0.4,0,21.8,0,0.323,0,270.32,-2.805,0,1,-3.1,0,0,-2.6,270.33,0.1457,0.0056,0.9893,-2.8,270.32,-16.73,-2.7,23.178,0.322,0.195,1,3,1311.13,0.77,-2.805,1288.99,0,0,0,0,0,0,0,0,266.87,0,0,0,0,0,0,0,0,0,0,0,0,0,3,3,0,0,VALID,0,0,0,0,0,1,0,0,0,0,0,0,0,0,0,0,0,0,0,0,271.83,1036.91,2,0,0.15,0.15,199,6.06,0.18,0.15,29.85,FLYING,X10-F,0:/Integrated Flight Computer/aircraft/x10_f_cfg.ks (inferred preloaded)
30.15,APPROACH,ILS_TRACK,152.35,152,-0.35,1283.47,1203.58,-8.11,7.42,10.23,270.38,-0.468,0.1993,0,16.892,1,0.6,4.5,0.75,0.35,0.0168,0.4,0,21.791,0,0.356,0,270.31,-2.986,0,1,-3.08,0,0,-3.02,270.32,0.1489,0.0054,0.9888,-2.99,270.31,-16.32,-2.42,23.128,0.314,0.014,1,3,1311.13,0.891,-2.986,1286.38,0,0,0,0,0,0,0,0,266.87,0,0,0,0,0,0,0,0,0,0,0,0,0,3,3,0,0,VALID,0,0,0,0,0,1,0,0,0,0,0,0,0,0,0,0,0,0,0,0,264.51,1037.18,2,0,0.15,0.15,201,6.67,0.15,0.15,30.15,FLYING,X10-F,0:/Integrated Flight Computer/aircraft/x10_f_cfg.ks (inferred preloaded)
30.48,APPROACH,ILS_TRACK,152.31,152,-0.31,1280.72,1200.93,-8.11,7.13,9.89,270.37,-0.477,0.2383,0,16.785,1,0.6,4.5,0.75,0.35,0.0168,0.4,0,21.803,0,0.313,0,270.31,-2.575,0,1,-3.03,0,0,-2.67,270.31,0.1419,0.0053,0.9899,-2.58,270.31,-15.88,-2.29,23.073,0.307,0.425,1,3,1311.13,0.327,-2.575,1283.5,0,0,0,0,0,0,0,0,266.87,0,0,0,0,0,0,0,0,0,0,0,0,0,3,3,0,0,VALID,0,0,0,0,0,1,0,0,0,0,0,0,0,0,0,0,0,0,0,0,259.03,1037.16,2,0,0.15,0.15,203,6.06,0.18,0.15,30.48,FLYING,X10-F,0:/Integrated Flight Computer/aircraft/x10_f_cfg.ks (inferred preloaded)
30.78,APPROACH,ILS_TRACK,152.31,152,-0.31,1278.29,1198.44,-8.39,7.18,10.1,270.36,-0.478,0.2458,0,16.692,1,0.6,4.5,0.75,0.35,0.0168,0.4,0,21.803,0,0.311,0,270.29,-2.881,0,1,-3.13,0,0,-2.68,270.3,0.1473,0.0051,0.9891,-2.88,270.29,-15.49,-2.13,23.023,0.293,0.119,1,3,1311.13,0.649,-2.881,1280.89,0,0,0,0,0,0,0,0,266.87,0,0,0,0,0,0,0,0,0,0,0,0,0,3,3,0,0,VALID,0,0,0,0,0,1,0,0,0,0,0,0,0,0,0,0,0,0,0,0,257.86,1037.31,2,0,0.15,0.15,205,6.67,0.15,0.15,30.78,FLYING,X10-F,0:/Integrated Flight Computer/aircraft/x10_f_cfg.ks (inferred preloaded)
31.11,APPROACH,ILS_TRACK,152.26,152,-0.26,1275.64,1195.71,-8.06,7.59,10.35,270.35,-0.476,0.2714,0,16.599,1,0.6,4.5,0.75,0.35,0.0168,0.4,0,21.816,0,0.264,0,270.28,-2.927,0,1,-3.06,0,0,-3.09,270.29,0.1482,0.0049,0.989,-2.93,270.28,-15.07,-1.88,22.969,0.285,0.073,1,3,1311.13,0.614,-2.927,1278.02,0,0,0,0,0,0,0,0,266.87,0,0,0,0,0,0,0,0,0,0,0,0,0,3,3,0,0,VALID,0,0,0,0,0,1,0,0,0,0,0,0,0,0,0,0,0,0,0,0,257.77,1037.26,2,0,0.15,0.15,207,6.06,0.18,0.15,31.11,FLYING,X10-F,0:/Integrated Flight Computer/aircraft/x10_f_cfg.ks (inferred preloaded)
31.41,APPROACH,ILS_TRACK,152.19,152,-0.19,1273.1,1193.31,-8.12,7.16,9.91,270.35,-0.486,0.3002,0,16.537,1,0.6,4.5,0.75,0.35,0.0168,0.4,0,21.836,0,0.194,0,270.27,-2.629,0,1,-3.03,0,0,-2.66,270.28,0.1431,0.0047,0.9897,-2.63,270.27,-14.69,-1.81,22.919,0.274,0.371,1,3,1311.13,0.214,-2.629,1275.41,0,0,0,0,0,0,0,0,266.87,0,0,0,0,0,0,0,0,0,0,0,0,0,3,3,0,0,VALID,0,0,0,0,0,1,0,0,0,0,0,0,0,0,0,0,0,0,0,0,259.53,1037.13,2,0,0.15,0.15,209,6.67,0.15,0.15,31.41,FLYING,X10-F,0:/Integrated Flight Computer/aircraft/x10_f_cfg.ks (inferred preloaded)
31.74,APPROACH,ILS_TRACK,152.19,152,-0.19,1270.42,1190.57,-8.4,7.18,10.12,270.34,-0.478,0.2888,0,16.474,1,0.6,4.5,0.75,0.35,0.0168,0.4,0,21.838,0,0.188,0,270.26,-3,0,1,-3.15,0,0,-2.77,270.27,0.1496,0.0045,0.9887,-3,270.26,-14.28,-1.65,22.864,0.261,0,1,3,1311.13,0.618,-3,1272.54,0,0,0,0,0,0,0,0,266.87,0,0,0,0,0,0,0,0,0,0,0,0,0,3,3,0,0,VALID,0,0,0,0,0,1,0,0,0,0,0,0,0,0,0,0,0,0,0,0,262.69,1037.29,2,0,0.15,0.15,211,6.06,0.18,0.15,31.74,FLYING,X10-F,0:/Integrated Flight Computer/aircraft/x10_f_cfg.ks (inferred preloaded)
32.04,APPROACH,ILS_TRACK,152.16,152,-0.16,1267.94,1188.1,-8.12,7.33,10.09,270.33,-0.497,0.2913,0,16.423,1,0.6,4.5,0.75,0.35,0.0168,0.4,0,21.845,0,0.163,0,270.26,-2.87,0,1,-3.06,0,0,-3.1,270.26,0.1474,0.0044,0.9891,-2.87,270.26,-13.92,-1.48,22.814,0.255,0.13,1,3,1311.13,0.393,-2.87,1269.93,0,0,0,0,0,0,0,0,266.87,0,0,0,0,0,0,0,0,0,0,0,0,0,3,3,0,0,VALID,0,0,0,0,0,1,0,0,0,0,0,0,0,0,0,0,0,0,0,0,264.84,1037.33,2,0,0.15,0.15,213,6.67,0.15,0.15,32.04,FLYING,X10-F,0:/Integrated Flight Computer/aircraft/x10_f_cfg.ks (inferred preloaded)
32.37,APPROACH,ILS_TRACK,152.16,152,-0.16,1265.17,1185.4,-8.33,7.03,9.89,270.32,-0.485,0.2825,0,16.373,1,0.6,4.5,0.75,0.35,0.0168,0.4,0,21.847,0,0.156,0,270.24,-2.825,0,1,-3.11,0,0,-2.73,270.25,0.1467,0.0042,0.9892,-2.83,270.24,-13.52,-1.4,22.76,0.242,0.175,1,3,1311.13,0.306,-2.825,1267.07,0,0,0,0,0,0,0,0,266.87,0,0,0,0,0,0,0,0,0,0,0,0,0,3,3,0,0,VALID,0,0,0,0,0,1,0,0,0,0,0,0,0,0,0,0,0,0,0,0,267.28,1037.49,2,0,0.15,0.15,215,6.06,0.18,0.15,32.37,FLYING,X10-F,0:/Integrated Flight Computer/aircraft/x10_f_cfg.ks (inferred preloaded)
32.67,APPROACH,ILS_TRACK,152.17,152,-0.17,1262.73,1182.87,-8.28,7.3,10.18,270.31,-0.47,0.2663,0,16.322,1,0.6,4.5,0.75,0.35,0.0168,0.4,0,21.842,0,0.174,0,270.24,-3.118,0,1,-3.15,0,0,-3.01,270.24,0.1519,0.0042,0.9884,-3.12,270.24,-13.18,-1.23,22.71,0.24,-0.118,1,3,1311.13,0.61,-3.118,1264.46,0,0,0,0,0,0,0,0,266.87,0,0,0,0,0,0,0,0,0,0,0,0,0,3,3,0,0,VALID,0,0,0,0,0,1,0,0,0,0,0,0,0,0,0,0,0,0,0,0,268.66,1037.73,2,0,0.15,0.15,217,6.67,0.15,0.15,32.67,FLYING,X10-F,0:/Integrated Flight Computer/aircraft/x10_f_cfg.ks (inferred preloaded)
33,APPROACH,ILS_TRACK,152.17,152,-0.17,1259.92,1180.17,-8.28,7.02,9.84,270.3,-0.506,0.2667,0,16.267,1,0.6,4.5,0.75,0.35,0.0168,0.4,0,21.844,0,0.167,0,270.23,-2.766,0,1,-3.1,0,0,-2.87,270.23,0.1459,0.004,0.9893,-2.77,270.23,-12.8,-1.16,22.655,0.233,0.234,1,3,1311.13,0.143,-2.766,1261.59,0,0,0,0,0,0,0,0,266.87,0,0,0,0,0,0,0,0,0,0,0,0,0,3,3,0,0,VALID,0,0,0,0,0,1,0,0,0,0,0,0,0,0,0,0,0,0,0,0,269.26,1037.88,2,0,0.15,0.15,219,6.06,0.18,0.15,33,FLYING,X10-F,0:/Integrated Flight Computer/aircraft/x10_f_cfg.ks (inferred preloaded)
33.3,APPROACH,ILS_TRACK,152.2,152,-0.2,1257.45,1177.63,-8.56,7.07,10.06,270.29,-0.471,0.2467,0,16.209,1,0.6,4.5,0.75,0.35,0.0168,0.4,0,21.834,0,0.202,0,270.22,-3.051,0,1,-3.2,0,0,-2.86,270.22,0.1509,0.0038,0.9885,-3.05,270.22,-12.47,-1.05,22.605,0.222,-0.051,1,3,1311.13,0.459,-3.051,1258.98,0,0,0,0,0,0,0,0,266.87,0,0,0,0,0,0,0,0,0,0,0,0,0,3,3,0,0,VALID,0,0,0,0,0,1,0,0,0,0,0,0,0,0,0,0,0,0,0,0,269.46,1038.19,2,0,0.15,0.15,221,6.67,0.15,0.15,33.3,FLYING,X10-F,0:/Integrated Flight Computer/aircraft/x10_f_cfg.ks (inferred preloaded)
33.63,APPROACH,ILS_TRACK,152.2,152,-0.2,1254.69,1174.87,-8.21,7.29,10.08,270.29,-0.493,0.252,0,16.14,1,0.6,4.5,0.75,0.35,0.0168,0.4,0,21.834,0,0.201,0,270.21,-2.924,0,1,-3.1,0,0,-3.2,270.22,0.1488,0.0036,0.9889,-2.92,270.21,-12.11,-0.91,22.551,0.211,0.076,1,3,1311.13,0.245,-2.924,1256.12,0,0,0,0,0,0,0,0,266.87,0,0,0,0,0,0,0,0,0,0,0,0,0,3,3,0,0,VALID,0,0,0,0,0,1,0,0,0,0,0,0,0,0,0,0,0,0,0,0,267.99,1038.34,2,0,0.15,0.15,223,6.06,0.18,0.15,33.63,FLYING,X10-F,0:/Integrated Flight Computer/aircraft/x10_f_cfg.ks (inferred preloaded)
33.93,APPROACH,ILS_TRACK,152.19,152,-0.19,1252.07,1172.4,-8.37,6.77,9.61,270.28,-0.502,0.2582,0,16.085,1,0.6,4.5,0.75,0.35,0.0168,0.4,0,21.838,0,0.187,0,270.21,-2.683,0,1,-3.13,0,0,-2.68,270.21,0.1447,0.0035,0.9895,-2.68,270.21,-11.79,-0.92,22.501,0.205,0.317,1,3,1311.13,-0.05,-2.683,1253.51,0,0,0,0,0,0,0,0,266.87,0,0,0,0,0,0,0,0,0,0,0,0,0,3,3,0,0,VALID,0,0,0,0,0,1,0,0,0,0,0,0,0,0,0,0,0,0,0,0,267.67,1038.47,2,0,0.15,0.15,225,6.67,0.15,0.15,33.93,FLYING,X10-F,0:/Integrated Flight Computer/aircraft/x10_f_cfg.ks (inferred preloaded)
34.26,APPROACH,ILS_TRACK,152.24,152,-0.24,1249.31,1169.56,-8.74,6.85,9.91,270.27,-0.506,0.2348,0,16.011,1,0.6,4.5,0.75,0.35,0.0168,0.4,0,21.824,0,0.236,0,270.2,-3.047,0,1,-3.27,0,0,-2.82,270.2,0.1511,0.0034,0.9885,-3.05,270.2,-11.45,-0.84,22.446,0.2,-0.047,1,3,1311.13,0.375,-3.047,1250.64,0,0,0,0,0,0,0,0,266.87,0,0,0,0,0,0,0,0,0,0,0,0,0,3,3,0,0,VALID,0,0,0,0,0,1,0,0,0,0,0,0,0,0,0,0,0,0,0,0,267.23,1038.86,2,0,0.15,0.15,227,6.06,0.18,0.15,34.26,FLYING,X10-F,0:/Integrated Flight Computer/aircraft/x10_f_cfg.ks (inferred preloaded)
