t_s,phase,subphase,ias_ms,vapp_ms,spd_err_ms,agl_m,vs_ms,pitch_deg,aoa_deg,hdg_deg,bank_deg,thr_cmd,thr_cur,thr_intg,at_gain,at_tau_s,at_a_up,at_a_dn,at_kp_thr,at_ki_spd,at_thr_slew,aa_hdg_cmd_deg,aa_fpa_cmd_deg,aa_fbw,aa_dir,actual_fpa_deg,ftf_hdg_err_deg,ftf_fix_idx,kos_steer_pit_deg,kos_steer_hdg_deg,aa_dir_vx,aa_dir_vy,aa_dir_vz,aa_dir_pitch_deg,aa_dir_hdg_deg,ils_loc_m,ils_gs_m,ils_dist_km,loc_corr_deg,gs_corr_deg,flare_fpa_cmd,flare_tgt_vs,flare_frac,steer_hdg_deg,steer_blend,ro_loc_corr_deg,ro_hdg_err_deg,ro_yaw_tgt,ro_yaw_scale,ro_yaw_gate,yaw_cmd,roll_cmd,pitch_cmd,ro_pitch_tgt_deg,ro_pitch_err_deg,ro_pitch_ff,ro_roll_assist,flaps_cur,flaps_tgt,asc_j_ab,asc_j_rk,asc_validity,asc_q_pa,asc_q_raw_pa,asc_mach,asc_apo_m,asc_drag_n,asc_w_prop,asc_edot_aero,asc_edot_orb,asc_pitch_bias,asc_blend,asc_spooling,asc_ab_thr_ratio,asc_ab_t_now,asc_ab_t_avail,asc_ab_ign_on,asc_ab_flameouts,asc_rk_t_now,asc_rk_t_avail,asc_rk_ign_on,asc_rk_flameouts,ship_thrust,ship_avail_thrust,ship_ign_on,ship_flameouts,ifc_raw_dt_s,ifc_dt_s,ifc_loop_n,ifc_hz_est,ifc_raw_dt_max_s,ifc_raw_dt_min_s,phase_el_s,status,craft_name,cfg_file
0.12,TAKEOFF,TO_PREFLIGHT,0.72,80,79.28,3.64,0,0.12,0.41,86.87,0.124,0.04,0,0,0,0,0,0,0,0,0,90.4,0,1,0,-0.22,0,0,0,90,0,0,0,0,0,0,0,0,0,0,0,0,0,90.4,1,0,-3.527,0,0,1,0,0,0,0,0,0,0,0,1,0,0,VALID,0,0,0,0,0,1,0,0,0,0,0,0,0,0,0,0,0,0,0,0,0,519.84,2,0,0.1,0.1,1,3.45,0.1,0.02,0.02,PRELAUNCH,CF1-F,0:/Integrated Flight Computer/aircraft/cf1_f_cfg.ks (inferred preloaded)
0.38,TAKEOFF,TO_PREFLIGHT,0.72,80,79.28,3.63,0,0.11,0.26,86.77,0.123,0.112,0,0,0,0,0,0,0,0,0,90.4,0,1,0,-0.04,0,0,0,90,0,0,0,0,0,0,0,0,0,0,0,0,0,90.4,1,0,-3.563,0,0,1,0,0,0,0,0,0,0,1,1,0,0,VALID,0,0,0,0,0,1,0,0,0,0,0,0,0,0,0,0,0,0,0,0,0.35,519.84,2,0,0.04,0.04,6,19.23,0.1,0.04,0.28,PRELAUNCH,CF1-F,0:/Integrated Flight Computer/aircraft/cf1_f_cfg.ks (inferred preloaded)
0.64,TAKEOFF,TO_PREFLIGHT,0.62,80,79.38,3.63,0.01,0.04,-0.64,86.68,0.124,0.216,0,0,0,0,0,0,0,0,0,90.4,0,1,0,0.39,0,0,0,90,0,0,0,0,0,0,0,0,0,0,0,0,0,90.4,1,0,-3.563,0,0,1,0,0,0,0,0,0,0,1,1,0,0,VALID,0,0,0,0,0,1,0,0,0,0,0,0,0,0,0,0,0,0,0,0,1.45,519.86,2,0,0.04,0.04,11,19.23,0.08,0.04,0.54,PRELAUNCH,CF1-F,0:/Integrated Flight Computer/aircraft/cf1_f_cfg.ks (inferred preloaded)
0.9,TAKEOFF,TO_PREFLIGHT,0.38,80,79.62,3.62,0,-0.01,-0.64,86.59,0.124,0.32,0,0,0,0,0,0,0,0,0,90.4,0,1,0,0.18,0,0,0,90,0,0,0,0,0,0,0,0,0,0,0,0,0,90.4,1,0,-3.563,0,0,1,0,0,0,0,0,0,0,1,1,0,0,VALID,0,0,0,0,0,1,0,0,0,0,0,0,0,0,0,0,0,0,0,0,3.36,519.92,2,0,0.04,0.04,16,19.23,0.08,0.04,0.8,PRELAUNCH,CF1-F,0:/Integrated Flight Computer/aircraft/cf1_f_cfg.ks (inferred preloaded)
1.16,TAKEOFF,TO_PREFLIGHT,0.03,80,79.97,3.62,-0.01,0.02,4.47,86.53,0.128,0.424,0,0,0,0,0,0,0,0,0,90.4,0,1,0,-0.43,0,0,0,90,0,0,0,0,0,0,0,0,0,0,0,0,0,90.4,1,0,-3.563,0,0,1,0,0,0,0,0,0,0,1,1,0,0,VALID,0,0,0,0,0,1,0,0,0,0,0,0,0,0,0,0,0,0,0,0,6.09,520,2,0,0.04,0.04,21,19.23,0.08,0.04,1.06,PRELAUNCH,CF1-F,0:/Integrated Flight Computer/aircraft/cf1_f_cfg.ks (inferred preloaded)
1.42,TAKEOFF,TO_PREFLIGHT,0.06,80,79.94,3.65,-0.01,0.21,27.31,86.5,0.134,0.528,0,0,0,0,0,0,0,0,0,90.4,0,1,0,-0.76,0,0,0,90,0,0,0,0,0,0,0,0,0,0,0,0,0,90.4,1,0,-3.563,0,0,1,0,0,0,0,0,0,0,1,1,0,0,VALID,0,0,0,0,0,1,0,0,0,0,0,0,0,0,0,0,0,0,0,0,9.61,520,2,0,0.04,0.04,26,19.23,0.08,0.04,1.32,PRELAUNCH,CF1-F,0:/Integrated Flight Computer/aircraft/cf1_f_cfg.ks (inferred preloaded)
1.68,TAKEOFF,TO_PREFLIGHT,0.01,80,79.99,3.66,-0.01,0.26,43.52,86.48,0.137,0.632,0,0,0,0,0,0,0,0,0,90.4,0,1,0,-0.29,0,0,0,90,0,0,0,0,0,0,0,0,0,0,0,0,0,90.4,1,0,-3.563,0,0,1,0,0,0,0,0,0,0,1,1,0,0,VALID,0,0,0,0,0,1,0,0,0,0,0,0,0,0,0,0,0,0,0,0,13.91,520.01,2,0,0.04,0.04,31,19.23,0.08,0.04,1.58,PRELAUNCH,CF1-F,0:/Integrated Flight Computer/aircraft/cf1_f_cfg.ks (inferred preloaded)
1.94,TAKEOFF,TO_PREFLIGHT,0.02,80,79.98,3.65,0,0.2,-8.39,86.45,0.132,0.736,0,0,0,0,0,0,0,0,0,90.4,0,1,0,0.28,0,0,0,90,0,0,0,0,0,0,0,0,0,0,0,0,0,90.4,1,0,-3.563,0,0,1,0,0,0,0,0,0,0,1,1,0,0,VALID,0,0,0,0,0,1,0,0,0,0,0,0,0,0,0,0,0,0,0,0,18.99,520,2,0,0.04,0.04,36,19.23,0.08,0.04,1.84,PRELAUNCH,CF1-F,0:/Integrated Flight Computer/aircraft/cf1_f_cfg.ks (inferred preloaded)
2.26,TAKEOFF,TO_PREFLIGHT,0.05,80,79.95,3.63,0.01,0.08,-20.12,86.41,0.122,0.864,0,0,0,0,0,0,0,0,0,90.4,0,1,0,0.82,0,0,0,90,0,0,0,0,0,0,0,0,0,0,0,0,0,90.4,1,0,-3.563,0,0,1,0,0,0,0,0,0,0,1,1,0,0,VALID,0,0,0,0,0,1,0,0,0,0,0,0,0,0,0,0,0,0,0,0,26.27,520,2,0,0.08,0.08,41,15.63,0.08,0.04,2.16,PRELAUNCH,CF1-F,0:/Integrated Flight Computer/aircraft/cf1_f_cfg.ks (inferred preloaded)
2.54,TAKEOFF,TO_PREFLIGHT,0.01,80,79.99,3.63,-0.01,0.11,74.75,86.37,0.121,0.976,0,0,0,0,0,0,0,0,0,90.4,0,1,0,-0.74,0,0,0,90,0,0,0,0,0,0,0,0,0,0,0,0,0,90.4,1,0,-3.563,0,0,1,0,0,0,0,0,0,0,1,1,0,0,VALID,0,0,0,0,0,1,0,0,0,0,0,0,0,0,0,0,0,0,0,0,33.55,520,2,0,0.08,0.08,45,14.29,0.08,0.06,2.44,PRELAUNCH,CF1-F,0:/Integrated Flight Computer/aircraft/cf1_f_cfg.ks (inferred preloaded)
2.82,TAKEOFF,TO_PREFLIGHT,0.01,80,79.99,3.64,0,0.13,-6.78,86.34,0.127,1,0,0,0,0,0,0,0,0,0,90.4,0,1,0,0.23,0,0,0,90,0,0,0,0,0,0,0,0,0,0,0,0,0,90.4,1,0,-3.563,0,0,1,0,0,0,0,0,0,0,1,1,0,0,VALID,0,0,0,0,0,1,0,0,0,0,0,0,0,0,0,0,0,0,0,0,41.54,520,2,0,0.08,0.08,49,14.29,0.08,0.06,2.72,PRELAUNCH,CF1-F,0:/Integrated Flight Computer/aircraft/cf1_f_cfg.ks (inferred preloaded)
3.1,TAKEOFF,TO_PREFLIGHT,0.04,80,79.96,3.63,0,0.09,-7.4,86.31,0.132,1,0,0,0,0,0,0,0,0,0,90.4,0,1,0,0.28,0,0,0,90,0,0,0,0,0,0,0,0,0,0,0,0,0,90.4,1,0,-3.563,0,0,1,0,0,0,0,0,0,0,1,1,0,0,VALID,0,0,0,0,0,1,0,0,0,0,0,0,0,0,0,0,0,0,0,0,49.52,520,2,0,0.08,0.08,53,14.29,0.08,0.06,3,PRELAUNCH,CF1-F,0:/Integrated Flight Computer/aircraft/cf1_f_cfg.ks (inferred preloaded)
3.38,TAKEOFF,TO_GROUND_ROLL,0.04,80,79.96,3.63,-0.01,0.1,3.6,86.28,0.132,1,0,0,0,0,0,0,0,0,0,90.42,0,1,0,-0.4,0,0,0,90,0,0,0,0,0,0,0,0,0,0,0,0,0,90.42,1,0,-4.146,0,0,3,0,0,0,0,0,0,0,1,1,0,0,VALID,0,0,0,0,0,1,0,0,0,0,0,0,0,0,0,0,0,0,0,0,57.36,520,2,0,0.08,0.08,57,14.29,0.08,0.06,3.3,PRELAUNCH,CF1-F,0:/Integrated Flight Computer/aircraft/cf1_f_cfg.ks (inferred preloaded)
3.66,TAKEOFF,TO_GROUND_ROLL,0.22,80,79.78,3.65,0,0.22,1.42,86.24,0.127,1,0,0,0,0,0,0,0,0,0,90.43,0,1,0,-0.14,0,0,0,90,0,0,0,0,0,0,0,0,0,0,0,0,0,90.43,1,0,-4.197,0,0,3,0,0,0,0,0,0,0,1,1,0,0,VALID,0,0,0,0,0,1,0,0,0,0,0,0,0,0,0,0,0,0,0,0,65.07,519.95,2,0,0.08,0.08,61,14.29,0.08,0.06,3.58,PRELAUNCH,CF1-F,0:/Integrated Flight Computer/aircraft/cf1_f_cfg.ks (inferred preloaded)
3.94,TAKEOFF,TO_GROUND_ROLL,0.5,80,79.5,3.67,0.09,0.31,-4.12,86.18,0.123,1,0,0,0,0,0,0,0,0,0,90.45,0,1,0,5.38,0,0,0,90,0,0,0,0,0,0,0,0,0.001,0,0,0,0,90.45,1,0.001,-4.267,0,0,3,0,0,0,0,0,0,0,1,1,0,0,VALID,0,0,0,0,0,1,0,0,0,0,0,0,0,0,0,0,0,0,0,0,72.64,519.89,2,0,0.08,0.08,65,14.29,0.08,0.06,3.86,PRELAUNCH,CF1-F,0:/Integrated Flight Computer/aircraft/cf1_f_cfg.ks (inferred preloaded)
4.22,TAKEOFF,TO_GROUND_ROLL,0.8,80,79.2,3.69,-0.1,0.34,6.4,86.11,0.124,1,0,0,0,0,0,0,0,0,0,90.46,0,1,0,-5.84,0,0,0,90,0,0,0,0,0,0,0,0,0.001,0,0,0,0,90.46,1,0.001,-4.35,0,0,3,0,0,0,0,0,0,0,1,1,0,0,VALID,0,0,0,0,0,1,0,0,0,0,0,0,0,0,0,0,0,0,0,0,80.08,519.81,2,0,0.08,0.08,69,14.29,0.08,0.06,4.14,PRELAUNCH,CF1-F,0:/Integrated Flight Computer/aircraft/cf1_f_cfg.ks (inferred preloaded)
4.5,TAKEOFF,TO_GROUND_ROLL,1.14,80,78.86,3.68,0.03,0.29,-1.37,86.02,0.128,1,0,0,0,0,0,0,0,0,0,90.46,0,1,0,1.33,0,0,0,90,0,0,0,0,0,0,0,0,0.001,0,0,0,0,90.46,1,0.001,-4.443,0,0,3,0,0,0,0,0,0,0,1,1,0,0,VALID,0,0,0,0,0,1,0,0,0,0,0,0,0,0,0,0,0,0,0,0,87.4,519.72,2,0,0.08,0.08,73,14.29,0.08,0.06,4.42,PRELAUNCH,CF1-F,0:/Integrated Flight Computer/aircraft/cf1_f_cfg.ks (inferred preloaded)
4.78,TAKEOFF,TO_GROUND_ROLL,1.51,80,78.49,3.66,0,0.19,0.49,85.93,0.132,1,0,0,0,0,0,0,0,0,0,90.47,0,1,0,0,0,0,0,90,0,0,0,0,0,0,0,0,0.002,0,0,0,0,90.47,1,0.002,-4.545,0,0,3,0,0,0,0,0,0,0,1,1,0,0,VALID,0,0,0,0,0,1,0,0,0,0,0,0,0,0,0,0,0,0,0,0,94.59,519.63,2,0,0.08,0.08,77,14.29,0.08,0.06,4.7,PRELAUNCH,CF1-F,0:/Integrated Flight Computer/aircraft/cf1_f_cfg.ks (inferred preloaded)
5.06,TAKEOFF,TO_GROUND_ROLL,1.9,80,78.1,3.64,-0.01,0.17,0.8,85.83,0.132,1,0,0,0,0,0,0,0,0,0,90.47,0,1,0,-0.22,0,0,0,90,0,0,0,0,0,0,0,0,0.003,0,0,0,0,90.47,1,0.003,-4.634,0,0,3,0,0,0,0,0,0,0,1,1,0,0,VALID,0,0,0,0,0,1,0,0,0,0,0,0,0,0,0,0,0,0,0,0,101.66,519.53,2,0,0.08,0.08,81,14.29,0.08,0.06,4.98,PRELAUNCH,CF1-F,0:/Integrated Flight Computer/aircraft/cf1_f_cfg.ks (inferred preloaded)
5.34,TAKEOFF,TO_GROUND_ROLL,2.32,80,77.68,3.66,-0.03,0.25,0.76,85.74,0.139,1,0,0,0,0,0,0,0,0,0,90.47,0,1,0,-0.62,0,0,0,90,0,0,0,0,0,0,0,0,0.004,0,0,0,0,90.47,1,0.004,-4.723,0.0531,0.25,1,0.0531,0,0,0,0,0,0,1,1,0,0,VALID,0,0,0,0,0,1,0,0,0,0,0,0,0,0,0,0,0,0,0,0,108.6,519.42,2,0,0.08,0.08,85,14.29,0.08,0.06,5.26,LANDED,CF1-F,0:/Integrated Flight Computer/aircraft/cf1_f_cfg.ks (inferred preloaded)
5.62,TAKEOFF,TO_GROUND_ROLL,2.77,80,77.23,3.69,0.15,0.38,-2.65,85.65,0.139,1,0,0,0,0,0,0,0,0,0,90.48,0,1,0,3.16,0,0,0,90,0,0,0,0,0,0,0,0,0.005,0,0,0,0,90.48,1,0.005,-4.829,0.0543,0.25,1,0.0543,0,0,0,0,0,0,1,1,0,0,VALID,0,0,0,0,0,1,0,0,0,0,0,0,0,0,0,0,0,0,0,0,115.42,519.3,2,0,0.08,0.08,89,14.29,0.08,0.06,5.54,LANDED,CF1-F,0:/Integrated Flight Computer/aircraft/cf1_f_cfg.ks (inferred preloaded)
5.9,TAKEOFF,TO_GROUND_ROLL,3.25,80,76.75,3.7,-0.06,0.48,1.85,85.54,0.135,1,0,0,0,0,0,0,0,0,0,90.48,0,1,0,-1.08,0,0,0,90,0,0,0,0,0,0,0,0,0.006,0,0,0,0,90.48,1,0.006,-4.943,0.0556,0.25,1,0.0556,0,0,0,0,0,0,1,1,0,0,VALID,0,0,0,0,0,1,0,0,0,0,0,0,0,0,0,0,0,0,0,0,122.12,519.17,2,0,0.08,0.08,93,14.29,0.08,0.06,5.82,LANDED,CF1-F,0:/Integrated Flight Computer/aircraft/cf1_f_cfg.ks (inferred preloaded)
6.18,TAKEOFF,TO_GROUND_ROLL,3.75,80,76.25,3.72,-0.04,0.51,0.92,85.43,0.132,1,0,0,0,0,0,0,0,0,0,90.49,0,1,0,-0.63,0,0,0,90,0,0,0,0,0,0,0,0,0.008,0,0,0,0,90.49,1,0.008,-5.061,0.0569,0.25,1,0.0569,0,0,0,0,0,0,1,1,0,0,VALID,0,0,0,0,0,1,0,0,0,0,0,0,0,0,0,0,0,0,0,0,128.71,519.03,2,0,0.08,0.08,97,14.29,0.08,0.06,6.1,LANDED,CF1-F,0:/Integrated Flight Computer/aircraft/cf1_f_cfg.ks (inferred preloaded)
6.46,TAKEOFF,TO_GROUND_ROLL,4.28,80,75.72,3.71,0,0.48,0.49,85.31,0.137,1,0,0,0,0,0,0,0,0,0,90.49,0,1,0,0.01,0,0,0,90,0,0,0,0,0,0,0,0,0.01,0,0,0,0,90.49,1,0.01,-5.183,0.0583,0.25,1,0.0583,0,0,0,0,0,0,1,1,0,0,VALID,0,0,0,0,0,1,0,0,0,0,0,0,0,0,0,0,0,0,0,0,135.18,518.89,2,0,0.08,0.08,101,14.29,0.08,0.06,6.38,LANDED,CF1-F,0:/Integrated Flight Computer/aircraft/cf1_f_cfg.ks (inferred preloaded)
6.74,TAKEOFF,TO_GROUND_ROLL,4.84,80,75.16,3.7,-0.04,0.42,0.85,85.19,0.144,1,0,0,0,0,0,0,0,0,0,90.5,0,1,0,-0.43,0,0,0,90,0,0,0,0,0,0,0,0,0.012,0,0,0,0,90.5,1,0.012,-5.31,0.0597,0.25,1,0.0597,0,0,0,0,0,0,1,1,0,0,VALID,0,0,0,0,0,1,0,0,0,0,0,0,0,0,0,0,0,0,0,0,141.53,518.73,2,0,0.08,0.08,105,14.29,0.08,0.06,6.66,LANDED,CF1-F,0:/Integrated Flight Computer/aircraft/cf1_f_cfg.ks (inferred preloaded)
7.02,TAKEOFF,TO_GROUND_ROLL,5.42,80,74.58,3.69,-0.03,0.36,0.64,85.06,0.147,1,0,0,0,0,0,0,0,0,0,90.51,0,1,0,-0.33,0,0,0,90,0,0,0,0,0,0,0,0,0.015,0,0,0,0,90.51,1,0.015,-5.441,0.0612,0.25,1,0.0612,0,0,0,0,0,0,1,1,0,0,VALID,0,0,0,0,0,1,0,0,0,0,0,0,0,0,0,0,0,0,0,0,147.77,518.56,2,0,0.08,0.08,109,14.29,0.08,0.06,6.94,LANDED,CF1-F,0:/Integrated Flight Computer/aircraft/cf1_f_cfg.ks (inferred preloaded)
7.3,TAKEOFF,TO_GROUND_ROLL,6.02,80,73.98,3.68,-0.03,0.33,0.6,84.94,0.146,1,0,0,0,0,0,0,0,0,0,90.51,0,1,0,-0.29,0,0,0,90,0,0,0,0,0,0,0,0,0.018,0,0,0,0,90.51,1,0.018,-5.575,0.0627,0.25,1,0.0627,0,0,0,0,0,0,1,1,0,0,VALID,0,0,0,0,0,1,0,0,0,0,0,0,0,0,0,0,0,0,0,0,153.9,518.38,2,0,0.08,0.08,113,14.29,0.08,0.06,7.22,LANDED,CF1-F,0:/Integrated Flight Computer/aircraft/cf1_f_cfg.ks (inferred preloaded)
7.58,TAKEOFF,TO_GROUND_ROLL,6.65,80,73.35,3.69,-0.04,0.36,0.67,84.8,0.146,1,0,0,0,0,0,0,0,0,0,90.52,0,1,0,-0.33,0,0,0,90,0,0,0,0,0,0,0,0,0.021,0,0,0,0,90.52,1,0.021,-5.713,0.0643,0.25,1,0.0643,0,0,0,0,0,0,1,1,0,0,VALID,0,0,0,0,0,1,0,0,0,0,0,0,0,0,0,0,0,0,0,0,159.92,518.19,2,0,0.08,0.08,117,14.29,0.08,0.06,7.5,LANDED,CF1-F,0:/Integrated Flight Computer/aircraft/cf1_f_cfg.ks (inferred preloaded)
7.86,TAKEOFF,TO_GROUND_ROLL,7.31,80,72.69,3.7,-0.04,0.45,0.74,84.67,0.15,1,0,0,0,0,0,0,0,0,0,90.52,0,1,0,-0.33,0,0,0,90,0,0,0,0,0,0,0,0,0.025,0,0,0,0,90.52,1,0.025,-5.853,0.0659,0.25,1,0.0659,0,0,0,0,0,0,1,1,0,0,VALID,0,0,0,0,0,1,0,0,0,0,0,0,0,0,0,0,0,0,0,0,165.82,517.99,2,0,0.08,0.08,121,14.29,0.08,0.06,7.78,LANDED,CF1-F,0:/Integrated Flight Computer/aircraft/cf1_f_cfg.ks (inferred preloaded)
8.14,TAKEOFF,TO_GROUND_ROLL,7.98,80,72.02,3.72,-0.04,0.56,0.85,84.53,0.156,1,0,0,0,0,0,0,0,0,0,90.53,0,1,0,-0.32,0,0,0,90,0,0,0,0,0,0,0,0,0.03,0,0,0,0,90.53,1,0.03,-5.995,0.0674,0.25,1,0.0674,0,0,0,0,0,0,1,1,0,0,VALID,0,0,0,0,0,1,0,0,0,0,0,0,0,0,0,0,0,0,0,0,171.62,517.77,2,0,0.08,0.08,125,14.29,0.08,0.06,8.06,LANDED,CF1-F,0:/Integrated Flight Computer/aircraft/cf1_f_cfg.ks (inferred preloaded)
8.42,TAKEOFF,TO_GROUND_ROLL,8.68,80,71.32,3.74,-0.05,0.66,0.95,84.4,0.159,1,0,0,0,0,0,0,0,0,0,90.53,0,1,0,-0.32,0,0,0,90,0,0,0,0,0,0,0,0,0.034,0,0,0,0,90.53,1,0.034,-6.136,0.069,0.25,1,0.069,0,0,0,0,0,0,1,1,0,0,VALID,0,0,0,0,0,1,0,0,0,0,0,0,0,0,0,0,0,0,0,0,177.32,517.55,2,0,0.08,0.08,129,14.29,0.08,0.06,8.34,LANDED,CF1-F,0:/Integrated Flight Computer/aircraft/cf1_f_cfg.ks (inferred preloaded)
8.7,TAKEOFF,TO_GROUND_ROLL,9.41,80,70.59,3.75,-0.05,0.73,1.02,84.26,0.159,1,0,0,0,0,0,0,0,0,0,90.54,0,1,0,-0.31,0,0,0,90,0,0,0,0,0,0,0,0,0.04,0,0,0,0,90.54,1,0.04,-6.277,0.0706,0.25,1,0.0706,0,0,0,0,0,0,1,1,0,0,VALID,0,0,0,0,0,1,0,0,0,0,0,0,0,0,0,0,0,0,0,0,182.9,517.31,2,0,0.08,0.08,133,14.29,0.08,0.06,8.62,LANDED,CF1-F,0:/Integrated Flight Computer/aircraft/cf1_f_cfg.ks (inferred preloaded)
8.98,TAKEOFF,TO_GROUND_ROLL,10.15,80,69.85,3.75,-0.05,0.74,1.03,84.13,0.159,1,0,0,0,0,0,0,0,0,0,90.54,0,1,0,-0.31,0,0,0,90,0,0,0,0,0,0,0,0,0.046,0,0,0,0,90.54,1,0.046,-6.416,0.0722,0.25,1,0.0722,0,0,0,0,0,0,1,1,0,0,VALID,0,0,0,0,0,1,0,0,0,0,0,0,0,0,0,0,0,0,0,0,188.39,517.06,2,0,0.08,0.08,137,14.29,0.08,0.06,8.9,LANDED,CF1-F,0:/Integrated Flight Computer/aircraft/cf1_f_cfg.ks (inferred preloaded)
9.26,TAKEOFF,TO_GROUND_ROLL,10.92,80,69.08,3.75,-0.06,0.72,1.01,83.99,0.162,1,0,0,0,0,0,0,0,0,0,90.55,0,1,0,-0.31,0,0,0,90,0,0,0,0,0,0,0,0,0.052,0,0,0,0,90.55,1,0.052,-6.553,0.0737,0.25,1,0.0737,0,0,0,0,0,0,1,1,0,0,VALID,0,0,0,0,0,1,0,0,0,0,0,0,0,0,0,0,0,0,0,0,193.77,516.79,2,0,0.08,0.08,141,14.29,0.08,0.06,9.18,LANDED,CF1-F,0:/Integrated Flight Computer/aircraft/cf1_f_cfg.ks (inferred preloaded)
9.54,TAKEOFF,TO_GROUND_ROLL,11.7,80,68.3,3.74,-0.06,0.67,0.96,83.86,0.166,1,0,0,0,0,0,0,0,0,0,90.55,0,1,0,-0.31,0,0,0,90,0,0,0,0,0,0,0,0,0.059,0,0,0,0,90.55,1,0.059,-6.689,0.0753,0.25,1,0.0753,0,0,0,0,0,0,1,1,0,0,VALID,0,0,0,0,0,1,0,0,0,0,0,0,0,0,0,0,0,0,0,0,199.05,516.52,2,0,0.08,0.08,145,14.29,0.08,0.06,9.46,LANDED,CF1-F,0:/Integrated Flight Computer/aircraft/cf1_f_cfg.ks (inferred preloaded)
9.82,TAKEOFF,TO_GROUND_ROLL,12.51,80,67.49,3.73,-0.07,0.63,0.92,83.73,0.168,1,0,0,0,0,0,0,0,0,0,90.56,0,1,0,-0.31,0,0,0,90,0,0,0,0,0,0,0,0,0.067,0,0,0,0,90.56,1,0.067,-6.825,0.0768,0.25,1,0.0768,0,0,0,0,0,0,1,1,0,0,VALID,0,0,0,0,0,1,0,0,0,0,0,0,0,0,0,0,0,0,0,0,204.23,516.23,2,0,0.08,0.08,149,14.29,0.08,0.06,9.74,LANDED,CF1-F,0:/Integrated Flight Computer/aircraft/cf1_f_cfg.ks (inferred preloaded)
10.1,TAKEOFF,TO_GROUND_ROLL,13.34,80,66.66,3.73,-0.07,0.64,0.92,83.61,0.17,1,0,0,0,0,0,0,0,0,0,90.57,0,1,0,-0.31,0,0,0,90,0,0,0,0,0,0,0,0,0.076,0,0,0,0,90.57,1,0.076,-6.959,0.0783,0.25,1,0.0783,0,0,0,0,0,0,1,1,0,0,VALID,0,0,0,0,0,1,0,0,0,0,0,0,0,0,0,0,0,0,0,0,209.31,515.93,2,0,0.08,0.08,153,14.29,0.08,0.06,10.02,LANDED,CF1-F,0:/Integrated Flight Computer/aircraft/cf1_f_cfg.ks (inferred preloaded)
10.38,TAKEOFF,TO_GROUND_ROLL,14.19,80,65.81,3.74,-0.08,0.68,0.96,83.48,0.171,1,0,0,0,0,0,0,0,0,0,90.57,0,1,0,-0.31,0,0,0,90,0,0,0,0,0,0,0,0,0.085,0,0,0,0,90.57,1,0.085,-7.093,0.0798,0.25,1,0.0798,0,0,0,0,0,0,1,1,0,0,VALID,0,0,0,0,0,1,0,0,0,0,0,0,0,0,0,0,0,0,0,0,214.29,515.61,2,0,0.08,0.08,157,14.29,0.08,0.06,10.3,LANDED,CF1-F,0:/Integrated Flight Computer/aircraft/cf1_f_cfg.ks (inferred preloaded)
10.66,TAKEOFF,TO_GROUND_ROLL,15.05,80,64.95,3.75,-0.08,0.75,1.04,83.36,0.173,1,0,0,0,0,0,0,0,0,0,90.58,0,1,0,-0.31,0,0,0,90,0,0,0,0,0,0,0,0,0.095,0,0,0,0,90.58,1,0.095,-7.224,0.0813,0.25,1,0.0813,0,0,0,0,0,0,1,1,0,0,VALID,0,0,0,0,0,1,0,0,0,0,0,0,0,0,0,0,0,0,0,0,219.17,515.28,2,0,0.08,0.08,161,14.29,0.08,0.06,10.58,LANDED,CF1-F,0:/Integrated Flight Computer/aircraft/cf1_f_cfg.ks (inferred preloaded)
10.94,TAKEOFF,TO_GROUND_ROLL,15.94,80,64.06,3.77,-0.08,0.84,1.12,83.24,0.175,1,0,0,0,0,0,0,0,0,0,90.59,0,1,0,-0.3,0,0,0.01,90,0,0,0,0,0,0,0,0,0.106,0,0,0,0,90.59,1,0.106,-7.354,0.0827,0.25,1,0.0827,0,0,0,0,0,0,1,1,0,0,VALID,0,0,0,0,0,1,0,0,0,0,0,0,0,0,0,0,0,0,0,0,223.96,514.93,2,0,0.08,0.08,165,14.29,0.08,0.06,10.86,LANDED,CF1-F,0:/Integrated Flight Computer/aircraft/cf1_f_cfg.ks (inferred preloaded)
11.22,TAKEOFF,TO_GROUND_ROLL,16.85,80,63.15,3.78,-0.09,0.91,1.19,83.12,0.177,1,0,0,0,0,0,0,0,0,0,90.6,0,1,0,-0.31,0,0,0.01,90,0,0,0,0,0,0,0,0,0.117,0,0,0,0,90.6,1,0.117,-7.48,0.0841,0.25,1,0.0841,0,0,0,0,0,0,1,1,0,0,VALID,0,0,0,0,0,1,0,0,0,0,0,0,0,0,0,0,0,0,0,0,228.65,514.57,2,0,0.08,0.08,169,14.29,0.08,0.06,11.14,LANDED,CF1-F,0:/Integrated Flight Computer/aircraft/cf1_f_cfg.ks (inferred preloaded)
11.5,TAKEOFF,TO_GROUND_ROLL,17.77,80,62.23,3.79,-0.09,0.94,1.23,83.01,0.178,1,0,0,0,0,0,0,0,0,0,90.61,0,1,0,-0.3,0,0,0.01,90,0,0,0,0,0,0,0,0,0.13,0,0,0,0,90.61,1,0.13,-7.602,0.0855,0.25,1,0.0855,0,0,0,0,0,0,1,1,0,0,VALID,0,0,0,0,0,1,0,0,0,0,0,0,0,0,0,0,0,0,0,0,233.24,514.2,2,0,0.08,0.08,173,14.29,0.08,0.06,11.42,LANDED,CF1-F,0:/Integrated Flight Computer/aircraft/cf1_f_cfg.ks (inferred preloaded)
11.78,TAKEOFF,TO_GROUND_ROLL,18.71,80,61.29,3.79,-0.1,0.95,1.24,82.9,0.178,1,0,0,0,0,0,0,0,0,0,90.62,0,1,0,-0.3,0,0,0.01,90,0,0,0,0,0,0,0,0,0.143,0,0,0,0,90.62,1,0.143,-7.72,0.0869,0.25,1,0.0869,0,0,0,0,0,0,1,1,0,0,VALID,0,0,0,0,0,1,0,0,0,0,0,0,0,0,0,0,0,0,0,0,237.75,513.81,2,0,0.08,0.08,177,14.29,0.08,0.06,11.7,LANDED,CF1-F,0:/Integrated Flight Computer/aircraft/cf1_f_cfg.ks (inferred preloaded)
12.06,TAKEOFF,TO_GROUND_ROLL,19.67,80,60.33,3.79,-0.1,0.93,1.21,82.8,0.179,1,0,0,0,0,0,0,0,0,0,90.63,0,1,0,-0.3,0,0,0.01,90,0,0,0,0,0,0,0,0,0.157,0,0,0,0,90.63,1,0.157,-7.835,0.0881,0.25,1,0.0881,0,0,0,0,0,0,1,1,0,0,VALID,0,0,0,0,0,1,0,0,0,0,0,0,0,0,0,0,0,0,0,0,242.16,513.41,2,0,0.08,0.08,181,14.29,0.08,0.06,11.98,LANDED,CF1-F,0:/Integrated Flight Computer/aircraft/cf1_f_cfg.ks (inferred preloaded)
12.34,TAKEOFF,TO_GROUND_ROLL,20.65,80,59.35,3.78,-0.11,0.91,1.19,82.7,0.179,1,0,0,0,0,0,0,0,0,0,90.64,0,1,0,-0.3,0,0,0.01,90,0,0,0,0,0,0,0,0,0.172,0,0,0,0,90.64,1,0.172,-7.946,0.0919,0.257,0,0.0919,0,0,0,0,0,0,1,1,0,0,VALID,0,0,0,0,0,1,0,0,0,0,0,0,0,0,0,0,0,0,0,0,246.48,512.99,2,0,0.08,0.08,185,14.29,0.08,0.06,12.26,LANDED,CF1-F,0:/Integrated Flight Computer/aircraft/cf1_f_cfg.ks (inferred preloaded)
12.62,TAKEOFF,TO_GROUND_ROLL,21.64,80,58.36,3.78,-0.11,0.9,1.18,82.6,0.18,1,0,0,0,0,0,0,0,0,0,90.66,0,1,0,-0.3,0,0,0.01,90,0,0,0,0,0,0,0,0,0.188,0,0,0,0,90.66,1,0.188,-8.054,0.097,0.268,0,0.097,0,0,0,0,0,0,1,1,0,0,VALID,0,0,0,0,0,1,0,0,0,0,0,0,0,0,0,0,0,0,0,0,250.71,512.55,2,0,0.08,0.08,189,14.29,0.08,0.06,12.54,LANDED,CF1-F,0:/Integrated Flight Computer/aircraft/cf1_f_cfg.ks (inferred preloaded)
12.9,TAKEOFF,TO_GROUND_ROLL,22.65,80,57.35,3.78,-0.12,0.92,1.2,82.51,0.181,1,0,0,0,0,0,0,0,0,0,90.67,0,1,0,-0.3,0,0,0.01,90,0,0,0,0,0,0,0,0,0.205,0,0,0,0,90.67,1,0.205,-8.159,0.1022,0.278,0,0.1022,0,0,0,0,0,0,1,1,0,0,VALID,0,0,0,0,0,1,0,0,0,0,0,0,0,0,0,0,0,0,0,0,254.86,512.1,2,0,0.08,0.08,193,14.29,0.08,0.06,12.82,LANDED,CF1-F,0:/Integrated Flight Computer/aircraft/cf1_f_cfg.ks (inferred preloaded)
13.18,TAKEOFF,TO_GROUND_ROLL,23.67,80,56.33,3.79,-0.12,0.96,1.24,82.42,0.18,1,0,0,0,0,0,0,0,0,0,90.68,0,1,0,-0.3,0,0,0.01,90,0,0,0,0,0,0,0,0,0.223,0,0,0,0,90.68,1,0.223,-8.261,0.1076,0.289,0,0.1076,0,0,0,0,0,0,1,1,0,0,VALID,0,0,0,0,0,1,0,0,0,0,0,0,0,0,0,0,0,0,0,0,258.91,511.64,2,0,0.08,0.08,197,14.29,0.08,0.06,13.1,LANDED,CF1-F,0:/Integrated Flight Computer/aircraft/cf1_f_cfg.ks (inferred preloaded)
13.46,TAKEOFF,TO_GROUND_ROLL,24.71,80,55.29,3.8,-0.13,1.02,1.29,82.34,0.18,1,0,0,0,0,0,0,0,0,0,90.7,0,1,0,-0.29,0,0,0.01,90,0,0,0,0,0,0,0,0,0.242,0,0,0,0,90.7,1,0.242,-8.358,0.113,0.301,0,0.113,0,0,0,0,0,0,1,1,0,0,VALID,0,0,0,0,0,1,0,0,0,0,0,0,0,0,0,0,0,0,0,0,262.88,511.16,2,0,0.08,0.08,201,14.29,0.08,0.06,13.38,LANDED,CF1-F,0:/Integrated Flight Computer/aircraft/cf1_f_cfg.ks (inferred preloaded)
13.74,TAKEOFF,TO_GROUND_ROLL,25.77,80,54.23,3.81,-0.13,1.08,1.35,82.27,0.179,1,0,0,0,0,0,0,0,0,0,90.72,0,1,0,-0.29,0,0,0.01,90,0,0,0,0,0,0,0,0,0.262,0,0,0,0,90.72,1,0.262,-8.45,0.1186,0.312,0,0.1186,0,0,0,0,0,0,1,1,0,0,VALID,0,0,0,0,0,1,0,0,0,0,0,0,0,0,0,0,0,0,0,0,266.76,510.66,2,0,0.08,0.08,205,14.29,0.08,0.06,13.66,LANDED,CF1-F,0:/Integrated Flight Computer/aircraft/cf1_f_cfg.ks (inferred preloaded)
14.02,TAKEOFF,TO_GROUND_ROLL,26.84,80,53.16,3.82,-0.14,1.12,1.4,82.19,0.178,1,0,0,0,0,0,0,0,0,0,90.73,0,1,0,-0.29,0,0,0.01,90,0,0,0,0,0,0,0,0,0.283,0,0,0,0,90.73,1,0.283,-8.537,0.1242,0.323,0,0.1242,0,0,0,0,0,0,1,1,0,0,VALID,0,0,0,0,0,1,0,0,0,0,0,0,0,0,0,0,0,0,0,0,270.55,510.15,2,0,0.08,0.08,209,14.29,0.08,0.06,13.94,LANDED,CF1-F,0:/Integrated Flight Computer/aircraft/cf1_f_cfg.ks (inferred preloaded)
14.3,TAKEOFF,TO_GROUND_ROLL,27.92,80,52.08,3.82,-0.14,1.15,1.42,82.13,0.175,1,0,0,0,0,0,0,0,0,0,90.75,0,1,0,-0.29,0,0,0.01,90,0,0,0,0,0,0,0,0,0.306,0,0,0,0,90.75,1,0.306,-8.618,0.1299,0.335,0,0.1299,0,0,0,0,0,0,1,1,0,0,VALID,0,0,0,0,0,1,0,0,0,0,0,0,0,0,0,0,0,0,0,0,274.26,509.62,2,0,0.08,0.08,213,14.29,0.08,0.06,14.22,LANDED,CF1-F,0:/Integrated Flight Computer/aircraft/cf1_f_cfg.ks (inferred preloaded)
14.58,TAKEOFF,TO_GROUND_ROLL,29.02,80,50.98,3.82,-0.15,1.15,1.42,82.07,0.173,1,0,0,0,0,0,0,0,0,0,90.77,0,1,0,-0.29,0,0,0.01,90,0,0,0,0,0,0,0,0,0.329,0,0,0,0,90.77,1,0.329,-8.694,0.1356,0.347,0,0.1356,0,0,0,0,0,0,1,1,0,0,VALID,0,0,0,0,0,1,0,0,0,0,0,0,0,0,0,0,0,0,0,0,277.89,509.08,2,0,0.08,0.08,217,14.29,0.08,0.06,14.5,LANDED,CF1-F,0:/Integrated Flight Computer/aircraft/cf1_f_cfg.ks (inferred preloaded)
14.86,TAKEOFF,TO_GROUND_ROLL,30.14,80,49.86,3.82,-0.15,1.14,1.42,82.02,0.17,1,0,0,0,0,0,0,0,0,0,90.79,0,1,0,-0.29,0,0,0.01,90,0,0,0,0,0,0,0,0,0.353,0,0,0,0,90.79,1,0.353,-8.763,0.1414,0.359,0,0.1414,0,0,0,0,0,0,1,1,0,0,VALID,0,0,0,0,0,1,0,0,0,0,0,0,0,0,0,0,0,0,0,0,281.44,508.52,2,0,0.08,0.08,221,14.29,0.08,0.06,14.78,LANDED,CF1-F,0:/Integrated Flight Computer/aircraft/cf1_f_cfg.ks (inferred preloaded)
15.14,TAKEOFF,TO_GROUND_ROLL,31.26,80,48.74,3.82,-0.16,1.14,1.42,81.98,0.167,1,0,0,0,0,0,0,0,0,0,90.81,0,1,0,-0.29,0,0,0.01,90,0,0,0,0,0,0,0,0,0.378,0,0,0,0,90.81,1,0.378,-8.827,0.1472,0.371,0,0.1472,0,0,0,0,0,0,1,1,0,0,VALID,0,0,0,0,0,1,0,0,0,0,0,0,0,0,0,0,0,0,0,0,284.9,507.95,2,0,0.08,0.08,225,14.29,0.08,0.06,15.06,LANDED,CF1-F,0:/Integrated Flight Computer/aircraft/cf1_f_cfg.ks (inferred preloaded)
15.42,TAKEOFF,TO_GROUND_ROLL,32.4,80,47.6,3.82,-0.16,1.15,1.42,81.94,0.164,1,0,0,0,0,0,0,0,0,0,90.83,0,1,0,-0.29,0,0,0.02,90,0,0,0,0,0,0,0,0,0.404,0,0,0,0,90.83,1,0.404,-8.885,0.1531,0.383,0,0.1531,0,0,0,0,0,0,1,1,0,0,VALID,0,0,0,0,0,1,0,0,0,0,0,0,0,0,0,0,0,0,0,0,288.29,507.36,2,0,0.08,0.08,229,14.29,0.08,0.06,15.34,LANDED,CF1-F,0:/Integrated Flight Computer/aircraft/cf1_f_cfg.ks (inferred preloaded)
15.7,TAKEOFF,TO_GROUND_ROLL,33.55,80,46.45,3.83,-0.17,1.18,1.45,81.91,0.16,1,0,0,0,0,0,0,0,0,0,90.85,0,1,0,-0.29,0,0,0.02,90,0,0,0,0,0,0,0,0,0.432,0,0,0,0,90.85,1,0.432,-8.938,0.159,0.395,0,0.159,0,0,0,0,0,0,1,1,0,0,VALID,0,0,0,0,0,1,0,0,0,0,0,0,0,0,0,0,0,0,0,0,291.59,506.75,2,0,0.08,0.08,233,14.29,0.08,0.06,15.62,LANDED,CF1-F,0:/Integrated Flight Computer/aircraft/cf1_f_cfg.ks (inferred preloaded)
15.98,TAKEOFF,TO_GROUND_ROLL,34.72,80,45.28,3.83,-0.17,1.22,1.49,81.89,0.156,1,0,0,0,0,0,0,0,0,0,90.87,0,1,0,-0.28,0,0,0.02,90,0,0,0,0,0,0,0,0,0.46,0,0,0,0,90.87,1,0.46,-8.983,0.1648,0.408,0,0.1648,0,0,0,0,0,0,1,1,0,0,VALID,0,0,0,0,0,1,0,0,0,0,0,0,0,0,0,0,0,0,0,0,294.82,506.13,2,0,0.08,0.08,237,14.29,0.08,0.06,15.9,LANDED,CF1-F,0:/Integrated Flight Computer/aircraft/cf1_f_cfg.ks (inferred preloaded)
16.26,TAKEOFF,TO_GROUND_ROLL,35.89,80,44.11,3.84,-0.18,1.26,1.53,81.88,0.151,1,0,0,0,0,0,0,0,0,0,90.9,0,1,0,-0.28,0,0,0.02,90,0,0,0,0,0,0,0,0,0.49,0,0,0,0,90.9,1,0.49,-9.022,0.1706,0.42,0,0.1706,0,0,0,0,0,0,1,1,0,0,VALID,0,0,0,0,0,1,0,0,0,0,0,0,0,0,0,0,0,0,0,0,297.97,505.49,2,0,0.08,0.08,241,14.29,0.08,0.06,16.18,LANDED,CF1-F,0:/Integrated Flight Computer/aircraft/cf1_f_cfg.ks (inferred preloaded)
16.54,TAKEOFF,TO_GROUND_ROLL,37.08,80,42.92,3.85,-0.18,1.3,1.56,81.87,0.145,1,0,0,0,0,0,0,0,0,0,90.92,0,1,0,-0.28,0,0,0.02,90,0,0,0,0,0,0,0,0,0.52,0,0,0,0,90.92,1,0.52,-9.054,0.1764,0.433,0,0.1764,0,0,0,0,0,0,1,1,0,0,VALID,0,0,0,0,0,1,0,0,0,0,0,0,0,0,0,0,0,0,0,0,301.04,504.84,2,0,0.08,0.08,245,14.29,0.08,0.06,16.46,LANDED,CF1-F,0:/Integrated Flight Computer/aircraft/cf1_f_cfg.ks (inferred preloaded)
16.82,TAKEOFF,TO_GROUND_ROLL,38.28,80,41.72,3.85,-0.19,1.32,1.59,81.87,0.139,1,0,0,0,0,0,0,0,0,0,90.95,0,1,0,-0.28,0,0,0.02,90,0,0,0,0,0,0,0,0,0.552,0,0,0,0,90.95,1,0.552,-9.078,0.1821,0.446,0,0.1821,0,0,0,0,0,0,1,1,0,0,VALID,0,0,0,0,0,1,0,0,0,0,0,0,0,0,0,0,0,0,0,0,304.04,504.17,2,0,0.08,0.08,249,14.29,0.08,0.06,16.74,LANDED,CF1-F,0:/Integrated Flight Computer/aircraft/cf1_f_cfg.ks (inferred preloaded)
17.1,TAKEOFF,TO_GROUND_ROLL,39.49,80,40.51,3.86,-0.19,1.33,1.6,81.88,0.132,1,0,0,0,0,0,0,0,0,0,90.97,0,1,0,-0.28,0,0,0.02,90,0,0,0,0,0,0,0,0,0.584,0,0,0,0,90.97,1,0.584,-9.094,0.1878,0.459,0,0.1878,0,0,0,0,0,0,1,1,0,0,VALID,0,0,0,0,0,1,0,0,0,0,0,0,0,0,0,0,0,0,0,0,306.96,503.49,2,0,0.08,0.08,253,14.29,0.08,0.06,17.02,LANDED,CF1-F,0:/Integrated Flight Computer/aircraft/cf1_f_cfg.ks (inferred preloaded)
17.38,TAKEOFF,TO_GROUND_ROLL,40.71,80,39.29,3.86,-0.2,1.34,1.61,81.9,0.125,1,0,0,0,0,0,0,0,0,0,91,0,1,0,-0.28,0,0,0.02,90,0,0,0,0,0,0,0,0,0.617,0,0,0,0,91,1,0.617,-9.102,0.1933,0.472,0,0.1933,0,0,0,0,0,0,1,1,0,0,VALID,0,0,0,0,0,1,0,0,0,0,0,0,0,0,0,0,0,0,0,0,309.81,502.8,2,0,0.08,0.08,257,14.29,0.08,0.06,17.3,LANDED,CF1-F,0:/Integrated Flight Computer/aircraft/cf1_f_cfg.ks (inferred preloaded)
17.66,TAKEOFF,TO_GROUND_ROLL,41.94,80,38.06,3.86,-0.2,1.35,1.61,81.93,0.117,1,0,0,0,0,0,0,0,0,0,91.03,0,1,0,-0.28,0,0,0.02,90,0,0,0,0,0,0,0,0,0.652,0,0,0,0,91.03,1,0.652,-9.103,0.1987,0.485,0,0.1987,0,0,0,0,0,0,1,1,0,0,VALID,0,0,0,0,0,1,0,0,0,0,0,0,0,0,0,0,0,0,0,0,312.58,502.09,2,0,0.08,0.08,261,14.29,0.08,0.06,17.58,LANDED,CF1-F,0:/Integrated Flight Computer/aircraft/cf1_f_cfg.ks (inferred preloaded)
17.94,TAKEOFF,TO_GROUND_ROLL,43.18,80,36.82,3.86,-0.21,1.36,1.62,81.96,0.108,1,0,0,0,0,0,0,0,0,0,91.06,0,1,0,-0.28,0,0,0.03,90,0,0,0,0,0,0,0,0,0.687,0,0,0,0,91.06,1,0.687,-9.096,0.204,0.498,0,0.204,0,0,0,0,0,0,1,1,0,0,VALID,0,0,0,0,0,1,0,0,0,0,0,0,0,0,0,0,0,0,0,0,315.29,501.36,2,0,0.08,0.08,265,14.29,0.08,0.06,17.86,LANDED,CF1-F,0:/Integrated Flight Computer/aircraft/cf1_f_cfg.ks (inferred preloaded)
18.22,TAKEOFF,TO_GROUND_ROLL,44.43,80,35.57,3.86,-0.21,1.38,1.64,82.01,0.1,1,0,0,0,0,0,0,0,0,0,91.09,0,1,0,-0.27,0,0,0.03,90,0,0,0,0,0,0,0,0,0.723,0,0,0,0,91.09,1,0.723,-9.081,0.2091,0.512,0,0.2091,0,0,0,0,0,0,1,1,0,0,VALID,0,0,0,0,0,1,0,0,0,0,0,0,0,0,0,0,0,0,0,0,317.92,500.62,2,0,0.08,0.08,269,14.29,0.08,0.06,18.14,LANDED,CF1-F,0:/Integrated Flight Computer/aircraft/cf1_f_cfg.ks (inferred preloaded)
18.5,TAKEOFF,TO_GROUND_ROLL,45.69,80,34.31,3.87,-0.22,1.41,1.67,82.06,0.091,1,0,0,0,0,0,0,0,0,0,91.12,0,1,0,-0.27,0,0,0.03,90,0,0,0,0,0,0,0,0,0.76,0,0,0,0,91.12,1,0.76,-9.058,0.2141,0.525,0,0.2141,0,0,0,0,0,0,1,1,0,0,VALID,0,0,0,0,0,1,0,0,0,0,0,0,0,0,0,0,0,0,0,0,320.48,499.87,2,0,0.08,0.08,273,14.29,0.08,0.06,18.42,LANDED,CF1-F,0:/Integrated Flight Computer/aircraft/cf1_f_cfg.ks (inferred preloaded)
18.78,TAKEOFF,TO_GROUND_ROLL,46.95,80,33.05,3.87,-0.22,1.44,1.7,82.12,0.081,1,0,0,0,0,0,0,0,0,0,91.15,0,1,0,-0.27,0,0,0.03,90,0,0,0,0,0,0,0,0,0.797,0,0,0,0,91.15,1,0.797,-9.027,0.2189,0.539,0,0.2189,0,0,0,0,0,0,1,1,0,0,VALID,0,0,0,0,0,1,0,0,0,0,0,0,0,0,0,0,0,0,0,0,322.98,499.1,2,0,0.08,0.08,277,14.29,0.08,0.06,18.7,LANDED,CF1-F,0:/Integrated Flight Computer/aircraft/cf1_f_cfg.ks (inferred preloaded)
19.06,TAKEOFF,TO_GROUND_ROLL,48.23,80,31.77,3.88,-0.23,1.47,1.72,82.2,0.07,1,0,0,0,0,0,0,0,0,0,91.18,0,1,0,-0.27,0,0,0.03,90,0,0,0,0,0,0,0,0,0.835,0,0,0,0,91.18,1,0.835,-8.987,0.2234,0.552,0,0.2234,0,0,0,0,0,0,1,1,0,0,VALID,0,0,0,0,0,1,0,0,0,0,0,0,0,0,0,0,0,0,0,0,325.41,498.32,2,0,0.08,0.08,281,14.29,0.08,0.06,18.98,LANDED,CF1-F,0:/Integrated Flight Computer/aircraft/cf1_f_cfg.ks (inferred preloaded)
19.34,TAKEOFF,TO_GROUND_ROLL,49.51,80,30.49,3.88,-0.23,1.49,1.74,82.27,0.06,1,0,0,0,0,0,0,0,0,0,91.22,0,1,0,-0.27,0,0,0.03,90,0,0,0,0,0,0,0,0,0.874,0,0,0,0,91.22,1,0.874,-8.94,0.2278,0.566,0,0.2278,0,0,0,0,0,0,1,1,0,0,VALID,0,0,0,0,0,1,0,0,0,0,0,0,0,0,0,0,0,0,0,0,327.77,497.53,2,0,0.08,0.08,285,14.29,0.08,0.06,19.26,LANDED,CF1-F,0:/Integrated Flight Computer/aircraft/cf1_f_cfg.ks (inferred preloaded)
19.62,TAKEOFF,TO_GROUND_ROLL,50.8,80,29.2,3.89,-0.24,1.5,1.76,82.36,0.05,1,0,0,0,0,0,0,0,0,0,91.25,0,1,0,-0.27,0,0,0.03,90,0,0,0,0,0,0,0,0,0.914,0,0,0,0,91.25,1,0.914,-8.884,0.2319,0.58,0,0.2319,0,0,0,0,0,0,1,1,0,0,VALID,0,0,0,0,0,1,0,0,0,0,0,0,0,0,0,0,0,0,0,0,330.06,496.72,2,0,0.08,0.08,289,14.29,0.08,0.06,19.54,LANDED,CF1-F,0:/Integrated Flight Computer/aircraft/cf1_f_cfg.ks (inferred preloaded)
19.9,TAKEOFF,TO_GROUND_ROLL,52.1,80,27.9,3.89,-0.24,1.52,1.77,82.46,0.038,1,0,0,0,0,0,0,0,0,0,91.28,0,1,0,-0.27,0,0,0.03,90,0,0,0,0,0,0,0,0,0.954,0,0,0,0,91.28,1,0.954,-8.822,0.2358,0.594,0,0.2358,0,0,0,0,0,0,1,1,0,0,VALID,0,0,0,0,0,1,0,0,0,0,0,0,0,0,0,0,0,0,0,0,332.3,495.9,2,0,0.08,0.08,293,14.29,0.08,0.06,19.82,LANDED,CF1-F,0:/Integrated Flight Computer/aircraft/cf1_f_cfg.ks (inferred preloaded)
20.18,TAKEOFF,TO_GROUND_ROLL,53.41,80,26.59,3.89,-0.25,1.53,1.78,82.57,0.026,1,0,0,0,0,0,0,0,0,0,91.32,0,1,0,-0.27,0,0,0.04,90,0,0,0,0,0,0,0,0,0.994,0,0,0,0,91.32,1,0.994,-8.752,0.2394,0.608,0,0.2394,0,0,0,0,0,0,1,1,0,0,VALID,0,0,0,0,0,1,0,0,0,0,0,0,0,0,0,0,0,0,0,0,334.46,495.07,2,0,0.08,0.08,297,14.29,0.08,0.06,20.1,LANDED,CF1-F,0:/Integrated Flight Computer/aircraft/cf1_f_cfg.ks (inferred preloaded)
20.46,TAKEOFF,TO_GROUND_ROLL,54.72,80,25.28,3.89,-0.25,1.54,1.79,82.68,0.015,1,0,0,0,0,0,0,0,0,0,91.35,0,1,0,-0.26,0,0,0.04,90,0,0,0,0,0,0,0,0,1.035,0,0,0,0,91.35,1,1.035,-8.674,0.2428,0.622,0,0.2428,0,0,0,0,0,0,1,1,0,0,VALID,0,0,0,0,0,1,0,0,0,0,0,0,0,0,0,0,0,0,0,0,336.57,494.23,2,0,0.08,0.08,301,14.29,0.08,0.06,20.38,LANDED,CF1-F,0:/Integrated Flight Computer/aircraft/cf1_f_cfg.ks (inferred preloaded)
20.74,TAKEOFF,TO_GROUND_ROLL,56.04,80,23.96,3.9,-0.25,1.57,1.81,82.8,-0.002,1,0,0,0,0,0,0,0,0,0,91.39,0,1,0,-0.26,0,0,0.04,90,0,0,0,0,0,0,0,0,1.076,0,0,0,0,91.39,1,1.076,-8.591,0.246,0.636,0,0.246,0,0,0,0,0,0,1,1,0,0,VALID,0,0,0,0,0,1,0,0,0,0,0,0,0,0,0,0,0,0,0,0,338.61,493.37,2,0,0.08,0.08,305,14.29,0.08,0.06,20.66,LANDED,CF1-F,0:/Integrated Flight Computer/aircraft/cf1_f_cfg.ks (inferred preloaded)
21.02,TAKEOFF,TO_GROUND_ROLL,57.37,80,22.63,3.9,-0.26,1.6,1.85,82.92,-0.031,1,0,0,0,0,0,0,0,0,0,91.43,0,1,0,-0.26,0,0,0.04,90,0,0,0,0,0,0,0,0,1.118,0,0,0,0,91.43,1,1.118,-8.502,0.2488,0.65,0,0.2488,0,0,0,0,0,0,1,1,0,0,VALID,0,0,0,0,0,1,0,0,0,0,0,0,0,0,0,0,0,0,0,0,340.59,492.51,2,0,0.08,0.08,309,14.29,0.08,0.06,20.94,LANDED,CF1-F,0:/Integrated Flight Computer/aircraft/cf1_f_cfg.ks (inferred preloaded)
21.3,TAKEOFF,TO_GROUND_ROLL,58.7,80,21.3,3.92,-0.26,1.66,1.9,83.06,-0.073,1,0,0,0,0,0,0,0,0,0,91.46,0,1,0,-0.25,0,0,0.04,90,0,0,0,0,0,0,0,0,1.159,0,0,0,0,91.46,1,1.159,-8.409,0.2515,0.665,0,0.2515,0,0,0,0,0,0,1,1,0,0,VALID,0,0,0,0,0,1,0,0,0,0,0,0,0,0,0,0,0,0,0,0,342.52,491.63,2,0,0.08,0.08,313,14.29,0.08,0.06,21.22,LANDED,CF1-F,0:/Integrated Flight Computer/aircraft/cf1_f_cfg.ks (inferred preloaded)
21.58,TAKEOFF,TO_GROUND_ROLL,60.04,80,19.96,3.93,-0.26,1.75,1.98,83.19,-0.122,1,0,0,0,0,0,0,0,0,0,91.5,0,1,0,-0.25,0,0,0.04,90,0,0,0,0,0,0,0,0,1.201,0,0,0,0,91.5,1,1.201,-8.31,0.2539,0.679,0,0.2539,0,0,0,0,0,0,1,1,0,0,VALID,0,0,0,0,0,1,0,0,0,0,0,0,0,0,0,0,0,0,0,0,344.38,490.75,2,0,0.08,0.08,317,14.29,0.08,0.06,21.5,LANDED,CF1-F,0:/Integrated Flight Computer/aircraft/cf1_f_cfg.ks (inferred preloaded)
21.86,TAKEOFF,TO_GROUND_ROLL,61.38,80,18.62,3.95,-0.27,1.85,2.08,83.33,-0.176,1,0,0,0,0,0,0,0,0,0,91.54,0,1,0,-0.25,0,0,0.05,90,0,0,0,0,0,0,0,0,1.243,0,0,0,0,91.54,1,1.243,-8.21,0.2562,0.693,0,0.2562,0,0,0,0,0,0,1,1,0,0,VALID,0,0,0,0,0,1,0,0,0,0,0,0,0,0,0,0,0,0,0,0,346.19,489.85,2,0,0.08,0.08,321,14.29,0.08,0.06,21.78,LANDED,CF1-F,0:/Integrated Flight Computer/aircraft/cf1_f_cfg.ks (inferred preloaded)
22.14,TAKEOFF,TO_GROUND_ROLL,62.73,80,17.27,3.97,0.33,1.93,1.66,83.48,-0.194,1,0,0,0,0,0,0,0,0,0,91.58,0,1,0,0.3,0,0,0.05,90,0,0,0,0,0,0,0,0,1.285,0,0,0,0,91.58,1,1.285,-8.1,0.258,0.708,0,0.258,0,0,0,0,0,0,1,1,0,0,VALID,0,0,0,0,0,1,0,0,0,0,0,0,0,0,0,0,0,0,0,0,347.95,488.95,2,0,0.08,0.08,325,14.29,0.08,0.06,22.06,LANDED,CF1-F,0:/Integrated Flight Computer/aircraft/cf1_f_cfg.ks (inferred preloaded)
22.42,TAKEOFF,TO_GROUND_ROLL,64.07,80,15.93,4.04,-0.54,2.18,2.6,83.64,-0.111,1,0,0,0,0,0,0,0,0,0,91.6,0,1,0,-0.48,0,0,0.05,90,0,0,0,0,0,0,0,0,1.327,0,0,0,0,91.6,1,1.327,-7.961,0.2587,0.722,0,0.2587,0,0,0,0,0,0,1,1,0,0,VALID,0,0,0,0,0,1,0,0,0,0,0,0,0,0,0,0,0,0,0,0,349.64,488.03,2,0,0.08,0.08,329,14.29,0.08,0.06,22.34,LANDED,CF1-F,0:/Integrated Flight Computer/aircraft/cf1_f_cfg.ks (inferred preloaded)
22.7,TAKEOFF,TO_GROUND_ROLL,65.42,80,14.58,4.11,-0.1,2.51,2.55,83.8,-0.079,1,0,0,0,0,0,0,0,0,0,91.65,0,1,0,-0.09,0,0,0.05,90,0,0,0,0,0,0,0,0,1.368,0,0,0,0,91.65,1,1.368,-7.845,0.2601,0.737,0,0.2601,0,0,0,0,0,0,1,1,0,0,VALID,0,0,0,0,0,1,0,0,0,0,0,0,0,0,0,0,0,0,0,0,351.29,487.11,2,0,0.08,0.08,333,14.29,0.08,0.06,22.62,LANDED,CF1-F,0:/Integrated Flight Computer/aircraft/cf1_f_cfg.ks (inferred preloaded)
22.98,TAKEOFF,TO_GROUND_ROLL,66.77,80,13.23,4.18,-0.33,2.93,3.19,83.98,-0.084,1,0,0,0,0,0,0,0,0,0,91.69,0,1,0,-0.28,0,0,0.05,90,0,0,0,0,0,0,0,0,1.41,0,0,0,0,91.69,1,1.41,-7.704,0.2604,0.751,0,0.2604,0,0,0,0,0,0,1,1,0,0,VALID,0,0,0,0,0,1,0,0,0,0,0,0,0,0,0,0,0,0,0,0,352.89,486.19,2,0,0.08,0.08,337,14.29,0.08,0.06,22.9,LANDED,CF1-F,0:/Integrated Flight Computer/aircraft/cf1_f_cfg.ks (inferred preloaded)
23.26,TAKEOFF,TO_GROUND_ROLL,68.11,80,11.89,4.5,-0.52,3.47,3.86,84.11,-0.935,1,0,0,0,0,0,0,0,0,0,91.79,0,1,0,-0.43,0,0,0.05,90,0,0,0,0,0,0,0,0,1.451,0,0,0,0,91.79,1,1.451,-7.681,0.2646,0.765,0,0.2646,0,0,0,0,0,0,1,1,0,0,VALID,0,0,0,0,0,1,0,0,0,0,0,0,0,0,0,0,0,0,0,0,354.44,485.28,2,0,0.08,0.08,341,14.29,0.08,0.06,23.18,LANDED,CF1-F,0:/Integrated Flight Computer/aircraft/cf1_f_cfg.ks (inferred preloaded)
23.54,TAKEOFF,TO_GROUND_ROLL,69.44,80,10.56,5.07,-0.49,4.03,4.34,84.13,-3.092,1,0,0,0,0,0,0,0,0,0,91.9,0,1,0,-0.41,0,0,0.06,90,0,0,0,0,0,0,0,0,1.494,0,0,0,0,91.9,1,1.494,-7.766,0.2725,0.78,0,0.2725,0,0,0,0,0,0,1,1,0,0,VALID,0,0,0,0,0,1,0,0,0,0,0,0,0,0,0,0,0,0,0,0,355.95,484.36,2,0,0.08,0.08,345,14.29,0.08,0.06,23.46,LANDED,CF1-F,0:/Integrated Flight Computer/aircraft/cf1_f_cfg.ks (inferred preloaded)
23.82,TAKEOFF,TO_ROTATE,70.76,80,9.24,14.61,-1.54,4.75,5.8,84.12,-5.05,1,0,0,0,0,0,0,0,0,0,90.4,4.801,0,1,-1.25,0,0,9.98,90.4,-0.9551,-0.0067,-0.2962,10.61,90.4,0,0,0,0,0,0,0,0,90.4,1,0,-6.284,0,0,3,0,0,0,4.801,0.054,0,0,1,1,0,0,VALID,0,0,0,0,0,1,0,0,0,0,0,0,0,0,0,0,0,0,0,0,357.42,483.46,2,0,0.08,0.08,349,14.29,0.08,0.06,23.72,FLYING,CF1-F,0:/Integrated Flight Computer/aircraft/cf1_f_cfg.ks (inferred preloaded)
24.1,TAKEOFF,TO_ROTATE,72.05,80,7.95,14.07,-2.14,4.98,6.54,84,-6.002,1,0,0,0,0,0,0,0,0,0,90.4,5.641,0,1,-1.7,0,0,11.86,90.4,-0.9629,-0.0066,-0.2698,12.18,90.4,0,0,0,0,0,0,0,0,90.4,1,0,-6.397,0,0,3,0,0,0,5.641,0.661,0,0,1,1,0,0,VALID,0,0,0,0,0,1,0,0,0,0,0,0,0,0,0,0,0,0,0,0,358.88,482.59,2,0,0.08,0.08,353,14.29,0.08,0.06,24,FLYING,CF1-F,0:/Integrated Flight Computer/aircraft/cf1_f_cfg.ks (inferred preloaded)
24.38,TAKEOFF,TO_ROTATE,73.32,80,6.68,13.26,-2.74,4.57,6.58,83.65,-6.126,1,0,0,0,0,0,0,0,0,0,90.4,6.481,0,1,-2.14,0,0,12.78,90.4,-0.9669,-0.0066,-0.2551,13.06,90.4,0,0,0,0,0,0,0,0,90.4,1,0,-6.752,0,0,3,0,0,0,6.481,1.908,0,0,1,1,0,0,VALID,0,0,0,0,0,1,0,0,0,0,0,0,0,0,0,0,0,0,0,0,360.3,481.74,2,0,0.08,0.08,357,14.29,0.08,0.06,24.28,FLYING,CF1-F,0:/Integrated Flight Computer/aircraft/cf1_f_cfg.ks (inferred preloaded)
24.66,TAKEOFF,TO_ROTATE,74.63,80,5.37,12.39,-3.24,4.16,6.57,83.1,-5.904,1,0,0,0,0,0,0,0,0,0,90.4,7.321,0,1,-2.49,0,0,13.71,90.4,-0.9705,-0.0066,-0.241,13.89,90.4,0,0,0,0,0,0,0,0,90.4,1,0,-7.3,0,0,3,0,0,0,7.321,3.16,0,0,1,1,0,0,VALID,0,0,0,0,0,1,0,0,0,0,0,0,0,0,0,0,0,0,0,0,361.68,480.88,2,0,0.08,0.08,361,14.29,0.08,0.06,24.56,FLYING,CF1-F,0:/Integrated Flight Computer/aircraft/cf1_f_cfg.ks (inferred preloaded)
24.94,TAKEOFF,TO_ROTATE,75.96,80,4.04,11.33,-3.76,3.63,6.39,82.69,-5.807,1,0,0,0,0,0,0,0,0,0,90.4,8.161,0,1,-2.83,0,0,14.36,90.4,-0.9732,-0.0065,-0.2298,14.56,90.4,0,0,0,0,0,0,0,0,90.4,1,0,-7.707,0,0,3,0,0,0,8.161,4.531,0,0,1,1,0,0,VALID,0,0,0,0,0,1,0,0,0,0,0,0,0,0,0,0,0,0,0,0,363.01,480,2,0,0.08,0.08,365,14.29,0.08,0.06,24.84,FLYING,CF1-F,0:/Integrated Flight Computer/aircraft/cf1_f_cfg.ks (inferred preloaded)
25.22,TAKEOFF,TO_ROTATE,77.3,80,2.7,10.14,-4.25,3.16,6.22,82.5,-5.417,1,0,0,0,0,0,0,0,0,0,90.4,9.001,0,1,-3.15,0,0,15.03,90.4,-0.9758,-0.0065,-0.2185,15.23,90.4,0,0,0,0,0,0,0,0,90.4,1,0,-7.903,0,0,3,0,0,0,9.001,5.844,0,0,1,1,0,0,VALID,0,0,0,0,0,1,0,0,0,0,0,0,0,0,0,0,0,0,0,0,364.29,479.12,2,0,0.08,0.08,369,14.29,0.08,0.06,25.12,FLYING,CF1-F,0:/Integrated Flight Computer/aircraft/cf1_f_cfg.ks (inferred preloaded)
25.5,TAKEOFF,TO_ROTATE,78.67,80,1.33,8.79,-4.71,2.72,6.05,82.39,-5.059,1,0,0,0,0,0,0,0,0,0,90.4,9.841,0,1,-3.42,0,0,15.7,90.4,-0.9783,-0.0065,-0.2071,15.89,90.4,0,0,0,0,0,0,0,0,90.4,1,0,-8.006,0,0,3,0,0,0,9.841,7.121,0,0,1,1,0,0,VALID,0,0,0,0,0,1,0,0,0,0,0,0,0,0,0,0,0,0,0,0,365.52,478.23,2,0,0.08,0.08,373,14.29,0.08,0.06,25.4,FLYING,CF1-F,0:/Integrated Flight Computer/aircraft/cf1_f_cfg.ks (inferred preloaded)
25.78,TAKEOFF,TO_ROTATE,80.07,80,-0.07,7.34,-5.19,2.41,5.98,82.3,-4.656,1,0,0,0,0,0,0,0,0,0,90.4,10,0,1,-3.71,0,0,15.95,90.4,-0.9786,-0.0065,-0.2057,15.98,90.4,0,0,0,0,0,0,0,0,90.4,1,0,-8.103,0,0,3,0,0,0,10,7.586,0,0,1,1,0,0,VALID,0,0,0,0,0,1,0,0,0,0,0,0,0,0,0,0,0,0,0,0,366.71,477.33,2,0,0.08,0.08,377,14.29,0.08,0.06,25.68,FLYING,CF1-F,0:/Integrated Flight Computer/aircraft/cf1_f_cfg.ks (inferred preloaded)
26.06,TAKEOFF,TO_ROTATE,81.46,80,-1.46,5.75,-5.51,2.82,6.55,82.2,-3.893,1,0,0,0,0,0,0,0,0,0,90.4,10,0,1,-3.87,0,0,16.4,90.4,-0.9806,-0.0064,-0.196,16.55,90.4,0,0,0,0,0,0,0,0,90.4,1,0,-8.205,0,0,3,0,0,0,10,7.176,0,0,1,1,0,0,VALID,0,0,0,0,0,1,0,0,0,0,0,0,0,0,0,0,0,0,0,0,367.86,476.43,2,0,0.08,0.08,381,14.29,0.08,0.06,25.96,FLYING,CF1-F,0:/Integrated Flight Computer/aircraft/cf1_f_cfg.ks (inferred preloaded)
26.36,TAKEOFF,TO_ROTATE,81.83,80,-1.83,5.57,24.66,19.31,4.16,82.78,0.807,1,0,0,0,0,0,0,0,0,0,90.58,10,1,0,15.24,0,0,16.6,90.4,-0.9807,-0.0064,-0.1952,16.6,90.4,0,0,0,2.015,0,0,0,0,90.58,1,2.015,-7.808,0.3,0.913,0,0.28,0,-0.0012,10,-9.311,0.08,0,1,1,0,0,VALID,0,0,0,0,0,1,0,0,0,0,0,0,0,0,0,0,0,0,0,0,369.48,476.1,2,0,0.08,0.08,385,13.33,0.08,0.06,26.26,LANDED,CF1-F,0:/Integrated Flight Computer/aircraft/cf1_f_cfg.ks (inferred preloaded)
26.62,TAKEOFF,TO_ROTATE,81.75,80,-1.75,12.36,30.05,43.38,21.63,91.5,12.383,1,0,0,0,0,0,0,0,0,0,90.4,10,0,1,20.18,0,0,25.63,90.4,-0.9978,-0.0055,0.0658,31.63,90.4,0,0,0,0,0,0,0,0,90.4,1,0,1.096,0,0,3,0,0,0,10,-33.385,0,0,1,1,0,0,VALID,0,0,0,0,0,1,0,0,0,0,0,0,0,0,0,0,0,0,0,0,370.74,475.62,2,0,0.08,0.08,389,15.38,0.08,0.06,26.52,FLYING,CF1-F,0:/Integrated Flight Computer/aircraft/cf1_f_cfg.ks (inferred preloaded)
26.9,TAKEOFF,TO_ROTATE,78.98,80,1.02,21.69,29.87,60.31,43.26,119.45,21.096,1,0,0,0,0,0,0,0,0,0,90.4,10,0,1,20.71,0,0,47.06,90.4,-0.9033,-0.0034,0.429,53.26,90.4,0,0,0,0,0,0,0,0,90.4,1,0,29.049,0,0,3,0,0,0,10,-50.315,0,0,1,1,0,0,VALID,0,0,0,0,0,1,0,0,0,0,0,0,0,0,0,0,0,0,0,0,373.42,477.02,2,0,0.08,0.08,393,14.29,0.08,0.06,26.8,FLYING,CF1-F,0:/Integrated Flight Computer/aircraft/cf1_f_cfg.ks (inferred preloaded)
27.18,TAKEOFF,TO_CLIMB,72.56,80,7.44,30,27.64,62.46,62.86,163.77,27.545,1,0,0,0,0,0,0,0,0,0,90.4,63.13,0,1,20.86,0,0,59.32,270.4,0.1415,0.0048,0.9899,54.01,270.4,0,0,0,0,0,0,0,0,90.4,1,0,73.365,0,0,3,0,0,0,10,-53.354,0,0,1,1,0,0,VALID,0,0,0,0,0,1,0,0,0,0,0,0,0,0,0,0,0,0,0,0,378.28,481.02,2,0,0.08,0.08,397,14.29,0.08,0.06,27.08,FLYING,CF1-F,0:/Integrated Flight Computer/aircraft/cf1_f_cfg.ks (inferred preloaded)
27.46,TAKEOFF,TO_CLIMB,66.99,80,13.01,36.54,25.05,50.99,83.43,198.55,32.132,1,0,0,0,0,0,0,0,0,0,90.4,62.682,0,1,20.5,0,0,40.08,270.4,0.4733,0.0063,0.8809,33.89,270.4,0,0,0,0,0,0,0,0,90.4,1,0,108.153,0,0,3,0,0,0,10,-53.354,0,0,1,1,0,0,VALID,0,0,0,0,0,1,0,0,0,0,0,0,0,0,0,0,0,0,0,0,382.69,484.4,2,0,0.08,0.08,401,14.29,0.08,0.06,27.36,FLYING,CF1-F,0:/Integrated Flight Computer/aircraft/cf1_f_cfg.ks (inferred preloaded)
27.74,TAKEOFF,TO_CLIMB,61.72,80,18.28,40.98,21.81,31.33,72.23,219.44,35.913,1,0,0,0,0,0,0,0,0,0,90.4,62.234,0,1,19.46,0,0,38.2,270.4,0.2856,0.0056,0.9583,45.54,270.4,0,0,0,0,0,0,0,0,90.4,1,0,129.036,0,0,3,0,0,0,10,-53.354,0,0,1,1,0,0,VALID,0,0,0,0,0,1,0,0,0,0,0,0,0,0,0,0,0,0,0,0,386.89,487.55,2,0,0.08,0.08,405,14.29,0.08,0.06,27.64,FLYING,CF1-F,0:/Integrated Flight Computer/aircraft/cf1_f_cfg.ks (inferred preloaded)
28.02,TAKEOFF,TO_CLIMB,57.07,80,22.93,43.44,18.31,8.4,45.45,234.38,38.93,1,0,0,0,0,0,0,0,0,0,90.4,61.786,0,1,17.79,0,0,64.76,270.4,-0.1845,0.003,0.9828,72.77,270.4,0,0,0,0,0,0,0,0,90.4,1,0,143.98,0,0,3,0,0,0,10,-53.354,0,0,1,1,0,0,VALID,0,0,0,0,0,1,0,0,0,0,0,0,0,0,0,0,0,0,0,0,365.78,490.26,2,0,0.08,0.08,409,14.29,0.08,0.06,27.92,FLYING,CF1-F,0:/Integrated Flight Computer/aircraft/cf1_f_cfg.ks (inferred preloaded)
28.3,TAKEOFF,TO_CLIMB,53.67,80,26.33,44.49,14.45,-15.54,16.29,249.56,41.423,1,0,0,0,0,0,0,0,0,0,90.4,61.338,0,1,15.07,0,0,86.22,90.4,-0.646,-0.0006,0.7633,77.62,90.4,0,0,0,0,0,0,0,0,90.4,1,0,159.156,0,0,3,0,0,0,10,-53.354,0,0,1,1,0,0,VALID,0,0,0,0,0,1,0,0,0,0,0,0,0,0,0,0,0,0,0,0,365.57,492.17,2,0,0.08,0.08,413,14.29,0.08,0.06,28.2,FLYING,CF1-F,0:/Integrated Flight Computer/aircraft/cf1_f_cfg.ks (inferred preloaded)
28.58,TAKEOFF,TO_CLIMB,51.29,80,28.71,45.15,11.12,-37.19,-13,271.41,42.072,1,0,0,0,0,0,0,0,0,0,90.4,60.89,0,1,12.23,0,0,56.33,90.4,-0.9395,-0.004,0.3425,47.89,90.4,0,0,0,0,0,0,0,0,90.4,1,0,-178.986,0,0,3,0,0,0,10,-53.354,0,0,1,1,0,0,VALID,0,0,0,0,0,1,0,0,0,0,0,0,0,0,0,0,0,0,0,0,365.4,493.45,2,0,0.08,0.08,417,14.29,0.08,0.06,28.48,FLYING,CF1-F,0:/Integrated Flight Computer/aircraft/cf1_f_cfg.ks (inferred preloaded)
28.86,TAKEOFF,TO_CLIMB,48.91,80,31.09,46.4,7.64,-49.71,-42.45,308.91,40.274,1,0,0,0,0,0,0,0,0,0,90.4,60.442,0,1,8.88,0,0,26.68,90.4,-0.9852,-0.0064,-0.1715,17.99,90.4,0,0,0,0,0,0,0,0,90.4,1,0,-141.494,0,0,3,0,0,0,10,-53.354,0,0,1,1,0,0,VALID,0,0,0,0,0,1,0,0,0,0,0,0,0,0,0,0,0,0,0,0,365.28,494.76,2,0,0.08,0.08,421,14.29,0.08,0.06,28.76,FLYING,CF1-F,0:/Integrated Flight Computer/aircraft/cf1_f_cfg.ks (inferred preloaded)
29.14,TAKEOFF,TO_CLIMB,46.3,80,33.7,48.53,3.37,-43.49,-74.16,351.1,36.346,1,0,0,0,0,0,0,0,0,0,90.4,59.994,0,1,4.16,0,0,-4.6,90.4,-0.7427,-0.007,-0.6696,-14.17,90.4,0,0,0,0,0,0,0,0,90.4,1,0,-99.296,0,0,3,0,0,0,10,-53.354,0,0,1,1,0,0,VALID,0,0,0,0,0,1,0,0,0,0,0,0,0,0,0,0,0,0,0,0,365.2,496.25,2,0,0.08,0.08,425,14.29,0.08,0.06,29.04,FLYING,CF1-F,0:/Integrated Flight Computer/aircraft/cf1_f_cfg.ks (inferred preloaded)
29.42,TAKEOFF,TO_CLIMB,44.11,80,35.89,51.19,-1.05,-24.21,-69.66,16.35,30.707,1,0,0,0,0,0,0,0,0,0,90.4,59.546,0,1,-1.36,0,0,-20.91,90.4,-0.7882,-0.007,-0.6154,-10.11,90.4,0,0,0,0,0,0,0,0,90.4,1,0,-74.053,0,0,3,0,0,0,10,-53.354,0,0,1,1,0,0,VALID,0,0,0,0,0,1,0,0,0,0,0,0,0,0,0,0,0,0,0,0,404.76,497.54,2,0,0.08,0.08,429,14.29,0.08,0.06,29.32,FLYING,CF1-F,0:/Integrated Flight Computer/aircraft/cf1_f_cfg.ks (inferred preloaded)
29.7,TAKEOFF,TO_CLIMB,43.2,80,36.8,53.79,-4.84,-0.31,-28.1,30.21,24.113,1,0,0,0,0,0,0,0,0,0,90.4,59.098,0,1,-6.4,0,0,18.86,90.4,-0.9985,-0.0055,0.0546,31,90.4,0,0,0,0,0,0,0,0,90.4,1,0,-60.191,0,0,3,0,0,0,10,-53.354,0,0,1,1,0,0,VALID,0,0,0,0,0,1,0,0,0,0,0,0,0,0,0,0,0,0,0,0,406.85,498.12,2,0,0.08,0.08,433,14.29,0.08,0.06,29.6,FLYING,CF1-F,0:/Integrated Flight Computer/aircraft/cf1_f_cfg.ks (inferred preloaded)
29.98,TAKEOFF,TO_CLIMB,43.99,80,36.01,55.81,-7.25,25.39,13.22,40.27,18.685,1,0,0,0,0,0,0,0,0,0,90.4,58.65,0,1,-9.36,0,0,60.72,90.4,-0.7194,-0.0013,0.6946,71.87,90.4,0,0,0,0,0,0,0,0,90.4,1,0,-50.127,0,0,3,0,0,0,10,-53.354,0,0,1,1,0,0,VALID,0,0,0,0,0,1,0,0,0,0,0,0,0,0,0,0,0,0,0,0,408.11,497.76,2,0,0.08,0.08,437,14.29,0.08,0.06,29.88,FLYING,CF1-F,0:/Integrated Flight Computer/aircraft/cf1_f_cfg.ks (inferred preloaded)
30.26,TAKEOFF,TO_CLIMB,44.89,80,35.11,56.83,-8.14,52.49,50.12,52.6,14.396,1,0,0,0,0,0,0,0,0,0,90.4,58.202,0,1,-10.28,0,0,81.84,270.4,-0.166,0.0031,0.9861,71.68,270.4,0,0,0,0,0,0,0,0,90.4,1,0,-37.799,0,0,3,0,0,0,10,-53.354,0,0,1,1,0,0,VALID,0,0,0,0,0,1,0,0,0,0,0,0,0,0,0,0,0,0,0,0,409.26,497.37,2,0,0.08,0.08,441,14.29,0.08,0.06,30.16,FLYING,CF1-F,0:/Integrated Flight Computer/aircraft/cf1_f_cfg.ks (inferred preloaded)
30.54,TAKEOFF,TO_CLIMB,44.62,80,35.38,56.18,-8.61,77.72,85.7,100.71,11.203,1,0,0,0,0,0,0,0,0,0,90.4,57.754,0,1,-10.92,0,0,46.58,270.4,0.4317,0.0062,0.902,36.55,270.4,0,0,0,0,0,0,0,0,90.4,1,0,10.315,0,0,3,0,0,0,10,-53.354,0,0,1,1,0,0,VALID,0,0,0,0,0,1,0,0,0,0,0,0,0,0,0,0,0,0,0,0,410.94,497.68,2,0,0.08,0.08,445,14.29,0.08,0.06,30.44,FLYING,CF1-F,0:/Integrated Flight Computer/aircraft/cf1_f_cfg.ks (inferred preloaded)
30.82,TAKEOFF,TO_CLIMB,43.78,80,36.22,52.97,-9.7,62.21,57.78,199.45,9.038,1,0,0,0,0,0,0,0,0,0,90.4,57.306,0,1,-12.5,0,0,54.1,270.4,-0.0488,0.0038,0.9988,64.92,270.4,0,0,0,0,0,0,0,0,90.4,1,0,109.051,0,0,3,0,0,0,10,-53.354,0,0,1,1,0,0,VALID,0,0,0,0,0,1,0,0,0,0,0,0,0,0,0,0,0,0,0,0,365.6,498.36,2,0,0.08,0.08,449,14.29,0.08,0.06,30.72,FLYING,CF1-F,0:/Integrated Flight Computer/aircraft/cf1_f_cfg.ks (inferred preloaded)
31.1,TAKEOFF,TO_CLIMB,42.98,80,37.02,46.9,-11.71,31.04,18.7,214.35,6.977,1,0,0,0,0,0,0,0,0,0,90.4,56.858,0,1,-15.24,0,0,87.02,90.4,-0.6733,-0.0008,0.7394,75.56,90.4,0,0,0,0,0,0,0,0,90.4,1,0,123.948,0,0,3,0,0,0,10,-53.354,0,0,1,1,0,0,VALID,0,0,0,0,0,1,0,0,0,0,0,0,0,0,0,0,0,0,0,0,365.73,499.03,2,0,0.08,0.08,453,14.29,0.08,0.06,31,FLYING,CF1-F,0:/Integrated Flight Computer/aircraft/cf1_f_cfg.ks (inferred preloaded)
31.38,TAKEOFF,TO_CLIMB,42.42,80,37.58,38.72,-13.69,-1.67,-20.97,220.65,4.728,1,0,0,0,0,0,0,0,0,0,90.4,56.41,0,1,-17.89,0,0,46.84,90.4,-0.9913,-0.0051,0.1316,35.44,90.4,0,0,0,0,0,0,0,0,90.4,1,0,130.245,0,0,3,0,0,0,10,-53.354,0,0,1,1,0,0,VALID,0,0,0,0,0,1,0,0,0,0,0,0,0,0,0,0,0,0,0,0,365.88,499.61,2,0,0.08,0.08,457,14.29,0.08,0.06,31.28,FLYING,CF1-F,0:/Integrated Flight Computer/aircraft/cf1_f_cfg.ks (inferred preloaded)
31.66,TAKEOFF,TO_CLIMB,41.89,80,38.11,29.93,-15.72,-35.19,-60,225.77,3.326,1,0,0,0,0,0,0,0,0,0,90.4,55.962,0,1,-20.57,0,0,7.21,90.4,-0.8487,-0.007,-0.5288,-4.04,90.4,0,0,0,0,0,0,0,0,90.4,1,0,135.374,0,0,3,0,0,0,10,-53.354,0,0,1,1,0,0,VALID,0,0,0,0,0,1,0,0,0,0,0,0,0,0,0,0,0,0,0,0,366.06,500.21,2,0,0.08,0.08,461,14.29,0.08,0.06,31.56,FLYING,CF1-F,0:/Integrated Flight Computer/aircraft/cf1_f_cfg.ks (inferred preloaded)
