t_s,phase,subphase,ias_ms,vapp_ms,spd_err_ms,agl_m,gear_h_m,vs_ms,pitch_deg,aoa_deg,hdg_deg,bank_deg,thr_cmd,thr_cur,thr_intg,at_gain,at_tau_s,at_a_up,at_a_dn,at_kp_thr,at_ki_spd,at_thr_slew,as_cmd_deg,as_cap_deg,as_raw_deg,as_spd_err_ms,as_active,aa_hdg_cmd_deg,aa_fpa_cmd_deg,aa_fbw,aa_dir,actual_fpa_deg,ftf_hdg_err_deg,ftf_fix_idx,kos_steer_pit_deg,kos_steer_hdg_deg,aa_dir_vx,aa_dir_vy,aa_dir_vz,aa_dir_pitch_deg,aa_dir_hdg_deg,ils_loc_m,ils_gs_m,ils_dist_km,loc_corr_deg,gs_corr_deg,gs_latched,active_gs_ang_deg,ils_intercept_alt_m,d_gs_ms,fpa_preclamped_deg,gs_nom_alt_m,flare_fpa_cmd,flare_tgt_vs,flare_frac,flare_mode,flare_auth_limited,flare_vs_err,flare_fpa_err,flare_pitch_err,flare_req_up_a,flare_thr_floor,steer_hdg_deg,steer_blend,ro_loc_corr_deg,ro_hdg_err_deg,ro_yaw_tgt,ro_yaw_scale,ro_yaw_gate,yaw_cmd,roll_cmd,pitch_cmd,ro_pitch_tgt_deg,ro_pitch_err_deg,ro_pitch_ff,ro_roll_assist,flaps_cur,flaps_tgt,asc_j_ab,asc_j_rk,asc_validity,asc_q_pa,asc_q_raw_pa,asc_mach,asc_apo_m,asc_drag_n,asc_w_prop,asc_edot_aero,asc_edot_orb,asc_pitch_bias,asc_blend,asc_spooling,asc_ab_thr_ratio,asc_ab_t_now,asc_ab_t_avail,asc_ab_ign_on,asc_ab_flameouts,asc_rk_t_now,asc_rk_t_avail,asc_rk_ign_on,asc_rk_flameouts,ship_thrust,ship_avail_thrust,ship_ign_on,ship_flameouts,ifc_raw_dt_s,ifc_dt_s,ifc_loop_n,ifc_hz_est,ifc_raw_dt_max_s,ifc_raw_dt_min_s,phase_el_s,status,craft_name,cfg_file
0.16,APPROACH,ILS_TRACK,156.95,152,-4.95,1350.04,1269.13,-15.86,11.95,18.02,268.42,-20.255,0,0,0,0,0,0,0,0,0,0,0,0,0,0,0,0,0,1,0,-5.79,0,0,0,90,0,0,0,0,0,-112.9,-267.83,29.453,0,0,0,3,1350.04,0,0,1617.87,0,0,0,,0,0,0,0,0,0,268.43,0,0,0,0,0,0,0,0,0,0,0,0,0,0,0,0,0,VALID,0,0,0,0,0,1,0,0,0,0,0,0,0,0,0,0,0,0,0,0,312.61,1053.07,2,0,0.14,0.14,1,3.7,0.14,0.02,0.16,FLYING,X10-F,0:/Integrated Flight Computer/aircraft/x10_f_cfg.ks (inferred preloaded)
0.42,APPROACH,ILS_TRACK,156.84,152,-4.84,1345.95,1265.2,-15.08,11.79,17.52,268.36,-18.958,0,0,0,1,0.6,1.422,0.75,0.35,0.0168,0.4,3.72,20.523,3.72,4.853,1,271.8,0,0,1,-5.54,0,0,0,295,0.2762,0.0315,0.9606,0,271.8,-110.55,-269.32,29.416,1.804,0,0,3,1350.04,-6.746,0,1615.9,0,0,0,,0,0,0,0,0,0,268.43,0,0,0,0,0,0,0,0,0,0,0,0,0,1,3,0,0,VALID,0,0,0,0,0,1,0,0,0,0,0,0,0,0,0,0,0,0,0,0,285.28,1052.83,2,0,0.12,0.12,3,7.69,0.14,0.12,0.42,FLYING,X10-F,0:/Integrated Flight Computer/aircraft/x10_f_cfg.ks (inferred preloaded)
0.74,APPROACH,ILS_TRACK,156.64,152,-4.64,1340.98,1260.75,-14.39,10.86,16.38,268.09,-16.164,0,0,0,1,0.6,3.155,0.75,0.35,0.0168,0.4,3.499,20.582,3.499,4.645,1,271.96,0,0,1,-5.27,0,0,0,271.92,0.2763,0.0342,0.9605,0,271.96,-107.44,-271.45,29.361,1.961,0,0,3,1350.04,-6.493,0,1613.04,0,0,0,,0,0,0,0,0,0,268.43,0,0,0,0,0,0,0,0,0,0,0,0,0,1,3,0,0,VALID,0,0,0,0,0,1,0,0,0,0,0,0,0,0,0,0,0,0,0,0,254.8,1052.21,2,0,0.08,0.08,6,9.38,0.14,0.08,0.74,FLYING,X10-F,0:/Integrated Flight Computer/aircraft/x10_f_cfg.ks (inferred preloaded)
1.1,APPROACH,ILS_TRACK,156.5,152,-4.5,1335.66,1256.14,-14.11,10.07,15.39,267.81,-9.903,0,0,0,1,0.6,4.5,0.75,0.35,0.0168,0.4,3.348,20.622,3.348,4.503,1,272.13,0,0,1,-5.16,0,0,0,272.07,0.2763,0.0371,0.9603,0,272.13,-104.35,-273.6,29.3,2.126,0,0,3,1350.04,-5.632,0,1609.83,0,0,0,,0,0,0,0,0,0,268.43,0,0,0,0,0,0,0,0,0,0,0,0,0,2,3,0,0,VALID,0,0,0,0,0,1,0,0,0,0,0,0,0,0,0,0,0,0,0,0,224.47,1051.91,2,0,0.12,0.12,9,8.33,0.12,0.08,1.1,FLYING,X10-F,0:/Integrated Flight Computer/aircraft/x10_f_cfg.ks (inferred preloaded)
1.46,APPROACH,ILS_TRACK,156.31,152,-4.31,1330.72,1251.58,-13.87,10.29,15.25,268.12,-4.375,0,0,0,1,0.6,4.5,0.75,0.35,0.0168,0.4,3.154,20.673,3.154,4.323,1,272.27,0,0,1,-5.08,0,0,0,272.23,0.2764,0.0395,0.9602,0,272.27,-101.64,-275.37,29.239,2.266,0,0,3,1350.04,-4.595,0,1606.62,0,0,0,,0,0,0,0,0,0,268.43,0,0,0,0,0,0,0,0,0,0,0,0,0,3,3,0,0,VALID,0,0,0,0,0,1,0,0,0,0,0,0,0,0,0,0,0,0,0,0,197.72,1051.41,2,0,0.12,0.12,12,8.33,0.12,0.12,1.46,FLYING,X10-F,0:/Integrated Flight Computer/aircraft/x10_f_cfg.ks (inferred preloaded)
1.76,APPROACH,ILS_TRACK,156.06,152,-4.06,1326.89,1247.72,-13.59,11.24,15.95,268.95,-1.11,0,0,0,1,0.6,4.5,0.75,0.35,0.0168,0.4,2.889,20.742,2.889,4.077,1,272.32,0,0,1,-4.99,0,0,0,272.31,0.2765,0.0406,0.9602,0,272.32,-99.6,-276.56,29.188,2.325,0,0,3,1350.04,-3.621,0,1603.95,0,0,0,,0,0,0,0,0,0,268.43,0,0,0,0,0,0,0,0,0,0,0,0,0,3,3,0,0,VALID,0,0,0,0,0,1,0,0,0,0,0,0,0,0,0,0,0,0,0,0,177.81,1050.59,2,0,0.08,0.08,15,10,0.12,0.08,1.76,FLYING,X10-F,0:/Integrated Flight Computer/aircraft/x10_f_cfg.ks (inferred preloaded)
2.12,APPROACH,ILS_TRACK,155.55,152,-3.55,1322.7,1243.04,-12.93,13.21,17.72,270.02,-0.143,0.0775,0,-0.885,1,0.6,4.5,0.75,0.35,0.0168,0.4,2.355,20.88,2.355,3.587,1,272.26,0,0,1,-4.79,0,0,0,272.28,0.2766,0.0394,0.9602,0,272.26,-97.24,-277.6,29.127,2.258,0,0,3,1350.04,-2.505,0,1600.75,0,0,0,,0,0,0,0,0,0,268.43,0,0,0,0,0,0,0,0,0,0,0,0,0,3,3,0,0,VALID,0,0,0,0,0,1,0,0,0,0,0,0,0,0,0,0,0,0,0,0,157.49,1048.71,2,0,0.12,0.12,18,8.33,0.12,0.08,2.12,FLYING,X10-F,0:/Integrated Flight Computer/aircraft/x10_f_cfg.ks (inferred preloaded)
2.46,APPROACH,ILS_TRACK,154.7,152,-2.7,1319.03,1238.88,-11.5,15.11,19.1,270.87,0.22,0.2135,0,-1.929,1,0.6,4.5,0.75,0.35,0.0168,0.4,0,21.112,0,2.766,0,272.18,0,0,1,-4.32,0,0,0,272.2,0.2767,0.0381,0.9602,0,272.18,-95.04,-278.28,29.069,2.182,0,0,3,1350.04,-1.851,0,1597.74,0,0,0,,0,0,0,0,0,0,268.43,0,0,0,0,0,0,0,0,0,0,0,0,0,3,3,0,0,VALID,0,0,0,0,0,1,0,0,0,0,0,0,0,0,0,0,0,0,0,0,152.58,1045.31,2,0,0.1,0.1,21,8.82,0.12,0.1,2.46,FLYING,X10-F,0:/Integrated Flight Computer/aircraft/x10_f_cfg.ks (inferred preloaded)
2.74,APPROACH,ILS_TRACK,153.75,152,-1.75,1316.09,1235.85,-10.21,15.52,19.03,271.44,0.357,0.3255,0,-2.526,1,0.6,4.5,0.75,0.35,0.0168,0.4,0,21.379,0,1.815,0,272.12,0,0,1,-3.86,0,0,0,272.13,0.2768,0.037,0.9602,0,272.12,-93.23,-278.78,29.022,2.122,0,0,3,1350.04,-1.653,0,1595.28,0,0,0,,0,0,0,0,0,0,268.43,0,0,0,0,0,0,0,0,0,0,0,0,0,3,3,0,0,VALID,0,0,0,0,0,1,0,0,0,0,0,0,0,0,0,0,0,0,0,0,157.5,1041.38,2,0,0.08,0.08,24,10.71,0.1,0.08,2.74,FLYING,X10-F,0:/Integrated Flight Computer/aircraft/x10_f_cfg.ks (inferred preloaded)
3.04,APPROACH,ILS_TRACK,152.82,152,-0.82,1313.08,1232.98,-9.08,15.1,18.19,271.96,0.345,0.4455,0,-2.879,1,0.6,4.5,0.75,0.35,0.0168,0.4,0,21.644,0,0.877,0,272.03,0,0,1,-3.44,0,0,0,272.06,0.2769,0.0354,0.9603,0,272.03,-91.29,-279.18,28.972,2.031,0,0,3,1350.04,-1.135,0,1592.65,0,0,0,,0,0,0,0,0,0,268.43,0,0,0,0,0,0,0,0,0,0,0,0,0,3,3,0,0,VALID,0,0,0,0,0,1,0,0,0,0,0,0,0,0,0,0,0,0,0,0,169.41,1037.56,2,0,0.08,0.08,27,10,0.12,0.08,3.04,FLYING,X10-F,0:/Integrated Flight Computer/aircraft/x10_f_cfg.ks (inferred preloaded)
3.34,APPROACH,ILS_TRACK,152.08,152,-0.08,1310.33,1230.39,-8.4,14.55,17.42,272.26,0.17,0.5655,0,-2.987,1,0.6,4.5,0.75,0.35,0.0168,0.4,0,21.855,0,0.126,0,271.92,0,0,1,-3.19,0,0,0,271.96,0.277,0.0336,0.9603,0,271.92,-89.33,-279.36,28.922,1.925,0,0,3,1350.04,-0.303,0,1590.04,0,0,0,,0,0,0,0,0,0,268.43,0,0,0,0,0,0,0,0,0,0,0,0,0,3,3,0,0,VALID,0,0,0,0,0,1,0,0,0,0,0,0,0,0,0,0,0,0,0,0,187.89,1034.54,2,0,0.08,0.08,30,10,0.12,0.08,3.34,FLYING,X10-F,0:/Integrated Flight Computer/aircraft/x10_f_cfg.ks (inferred preloaded)
3.66,APPROACH,ILS_TRACK,151.43,152,0.57,1307.65,1227.78,-7.89,14.22,16.94,272.26,-0.197,0.6935,0,-2.883,1,0.6,4.5,0.75,0.35,0.0168,0.4,0,22.041,0,-0.532,0,271.83,0,0,1,-3,0,0,0,271.86,0.2771,0.0319,0.9603,0,271.83,-87.21,-279.3,28.869,1.826,0,0,3,1350.04,0.468,0,1587.27,0,0,0,,0,0,0,0,0,0,268.43,0,0,0,0,0,0,0,0,0,0,0,0,0,3,3,0,0,VALID,0,0,0,0,0,1,0,0,0,0,0,0,0,0,0,0,0,0,0,0,214.3,1031.91,2,0,0.1,0.1,33,9.38,0.12,0.08,3.66,FLYING,X10-F,0:/Integrated Flight Computer/aircraft/x10_f_cfg.ks (inferred preloaded)
4,APPROACH,ILS_TRACK,150.87,152,1.13,1305.08,1225.15,-7.42,14.27,16.87,272.15,-0.607,0.7371,0,-2.57,1,0.6,4.5,0.75,0.35,0.0168,0.4,0,22.202,0,-1.104,0,271.74,0,0,1,-2.83,0,0,0,271.76,0.2772,0.0304,0.9603,0,271.74,-84.95,-278.96,28.813,1.744,0,0,3,1350.04,1.28,0,1584.33,0,0,0,,0,0,0,0,0,0,268.43,0,0,0,0,0,0,0,0,0,0,0,0,0,3,3,0,0,VALID,0,0,0,0,0,1,0,0,0,0,0,0,0,0,0,0,0,0,0,0,248.91,1029.67,2,0,0.1,0.1,36,8.82,0.12,0.1,4,FLYING,X10-F,0:/Integrated Flight Computer/aircraft/x10_f_cfg.ks (inferred preloaded)
4.34,APPROACH,ILS_TRACK,150.37,152,1.63,1302.78,1222.7,-6.66,14.67,17.02,272.02,-1.003,0.6871,0,-2.081,1,0.6,4.5,0.75,0.35,0.0168,0.4,0,22.342,0,-1.602,0,271.67,0,0,1,-2.59,0,0,0,271.69,0.2773,0.0291,0.9604,0,271.67,-82.71,-278.36,28.757,1.669,0,0,3,1350.04,1.938,0,1581.4,0,0,0,,0,0,0,0,0,0,268.43,0,0,0,0,0,0,0,0,0,0,0,0,0,3,3,0,0,VALID,0,0,0,0,0,1,0,0,0,0,0,0,0,0,0,0,0,0,0,0,280.73,1027.71,2,0,0.12,0.12,39,8.82,0.12,0.1,4.34,FLYING,X10-F,0:/Integrated Flight Computer/aircraft/x10_f_cfg.ks (inferred preloaded)
4.68,APPROACH,ILS_TRACK,149.87,152,2.13,1300.58,1220.61,-5.55,14.25,16.16,271.89,-1.406,0.6845,0,-1.42,1,0.6,4.5,0.75,0.35,0.0168,0.4,0,22.484,0,-2.104,0,271.6,0,0,1,-2.16,0,0,0,271.62,0.2774,0.0279,0.9604,0,271.6,-80.5,-277.65,28.702,1.6,0,0,3,1350.04,2.171,0,1578.48,0,0,0,,0,0,0,0,0,0,268.43,0,0,0,0,0,0,0,0,0,0,0,0,0,3,3,0,0,VALID,0,0,0,0,0,1,0,0,0,0,0,0,0,0,0,0,0,0,0,0,308.3,1025.73,2,0,0.1,0.1,42,8.82,0.12,0.1,4.68,FLYING,X10-F,0:/Integrated Flight Computer/aircraft/x10_f_cfg.ks (inferred preloaded)
4.96,APPROACH,ILS_TRACK,149.61,152,2.39,1298.82,1219.15,-4.84,13.19,14.8,271.81,-1.644,0.6019,0,-0.778,1,0.6,4.5,0.75,0.35,0.0168,0.4,0,22.56,0,-2.376,0,271.56,0,0,1,-1.87,0,0,0,271.57,0.2774,0.0272,0.9604,0,271.56,-78.71,-277.02,28.656,1.558,0,0,3,1350.04,2.295,0,1576.08,0,0,0,,0,0,0,0,0,0,268.43,0,0,0,0,0,0,0,0,0,0,0,0,0,3,3,0,0,VALID,0,0,0,0,0,1,0,0,0,0,0,0,0,0,0,0,0,0,0,0,328.31,1024.7,2,0,0.08,0.08,45,10.71,0.1,0.08,4.96,FLYING,X10-F,0:/Integrated Flight Computer/aircraft/x10_f_cfg.ks (inferred preloaded)
5.26,APPROACH,ILS_TRACK,149.58,152,2.42,1297.08,1217.7,-4.69,11.99,13.57,271.75,-1.838,0.4819,0,-0.051,1,0.6,4.5,0.75,0.35,0.0168,0.4,0,22.573,0,-2.421,0,271.51,0,0,1,-1.8,0,0,0,271.53,0.2775,0.0264,0.9604,0,271.51,-76.82,-276.22,28.607,1.515,0,0,3,1350.04,2.94,0,1573.51,0,0,0,,0,0,0,0,0,0,268.43,0,0,0,0,0,0,0,0,0,0,0,0,0,3,3,0,0,VALID,0,0,0,0,0,1,0,0,0,0,0,0,0,0,0,0,0,0,0,0,343.18,1024.65,2,0,0.08,0.08,48,10,0.12,0.08,5.26,FLYING,X10-F,0:/Integrated Flight Computer/aircraft/x10_f_cfg.ks (inferred preloaded)
5.56,APPROACH,ILS_TRACK,149.68,152,2.32,1295.57,1216.26,-4.77,11.54,13.21,271.69,-2,0.3619,0,0.659,1,0.6,4.5,0.75,0.35,0.0168,0.4,0,22.547,0,-2.329,0,271.47,0,0,1,-1.82,0,0,0,271.46,0.2776,0.0257,0.9604,0,271.47,-74.96,-275.19,28.558,1.471,0,0,3,1350.04,3.703,0,1570.94,0,0,0,,0,0,0,0,0,0,268.43,0,0,0,0,0,0,0,0,0,0,0,0,0,3,3,0,0,VALID,0,0,0,0,0,1,0,0,0,0,0,0,0,0,0,0,0,0,0,0,350.21,1025.15,2,0,0.08,0.08,51,10,0.12,0.08,5.56,FLYING,X10-F,0:/Integrated Flight Computer/aircraft/x10_f_cfg.ks (inferred preloaded)
5.88,APPROACH,ILS_TRACK,149.78,152,2.22,1294.18,1214.72,-4.76,11.99,13.71,271.6,-2.131,0.2339,0,1.38,1,0.6,4.5,0.75,0.35,0.0168,0.4,0,22.517,0,-2.221,0,271.4,0,0,1,-1.83,0,0,0,271.42,0.2777,0.0245,0.9604,0,271.4,-73.01,-273.85,28.505,1.403,0,0,3,1350.04,4.415,0,1568.2,0,0,0,,0,0,0,0,0,0,268.43,0,0,0,0,0,0,0,0,0,0,0,0,0,3,3,0,0,VALID,0,0,0,0,0,1,0,0,0,0,0,0,0,0,0,0,0,0,0,0,348.18,1025.7,2,0,0.1,0.1,54,9.38,0.12,0.08,5.88,FLYING,X10-F,0:/Integrated Flight Computer/aircraft/x10_f_cfg.ks (inferred preloaded)
6.22,APPROACH,ILS_TRACK,149.76,152,2.24,1292.82,1213.21,-4.04,12.6,14.04,271.5,-2.275,0.1953,0,2.131,1,0.6,4.5,0.75,0.35,0.0168,0.4,0,22.52,0,-2.231,0,271.36,0,0,1,-1.58,0,0,0,271.37,0.2778,0.0238,0.9603,0,271.36,-70.99,-272.3,28.45,1.362,0,0,3,1350.04,4.547,0,1565.28,0,0,0,,0,0,0,0,0,0,268.43,0,0,0,0,0,0,0,0,0,0,0,0,0,3,3,0,0,VALID,0,0,0,0,0,1,0,0,0,0,0,0,0,0,0,0,0,0,0,0,332.31,1025.7,2,0,0.1,0.1,57,8.82,0.12,0.1,6.22,FLYING,X10-F,0:/Integrated Flight Computer/aircraft/x10_f_cfg.ks (inferred preloaded)
6.56,APPROACH,ILS_TRACK,149.62,152,2.38,1291.45,1211.94,-3.43,12.28,13.46,271.44,-2.373,0.288,0,2.923,1,0.6,4.5,0.75,0.35,0.0168,0.4,0,22.56,0,-2.374,0,271.32,0,0,1,-1.33,0,0,0,271.34,0.2779,0.0231,0.9603,0,271.32,-69.01,-270.76,28.394,1.324,0,0,3,1350.04,4.555,0,1562.37,0,0,0,,0,0,0,0,0,0,268.43,0,0,0,0,0,0,0,0,0,0,0,0,0,3,3,0,0,VALID,0,0,0,0,0,1,0,0,0,0,0,0,0,0,0,0,0,0,0,0,321.11,1025.18,2,0,0.12,0.12,60,8.82,0.12,0.1,6.56,FLYING,X10-F,0:/Integrated Flight Computer/aircraft/x10_f_cfg.ks (inferred preloaded)
6.92,APPROACH,ILS_TRACK,149.52,152,2.48,1290.07,1210.77,-3.08,11.5,12.55,271.41,-2.396,0.3213,0,3.803,1,0.6,4.5,0.75,0.35,0.0168,0.4,0,22.589,0,-2.476,0,271.28,0,0,1,-1.18,0,0,0,271.3,0.278,0.0224,0.9603,0,271.28,-66.99,-269.07,28.335,1.282,0,0,3,1350.04,4.783,0,1559.29,0,0,0,,0,0,0,0,0,0,268.43,0,0,0,0,0,0,0,0,0,0,0,0,0,3,3,0,0,VALID,0,0,0,0,0,1,0,0,0,0,0,0,0,0,0,0,0,0,0,0,319.38,1024.83,2,0,0.12,0.12,63,8.33,0.12,0.12,6.92,FLYING,X10-F,0:/Integrated Flight Computer/aircraft/x10_f_cfg.ks (inferred preloaded)
7.18,APPROACH,ILS_TRACK,149.5,152,2.5,1289.19,1209.97,-3.12,11.16,12.25,271.39,-2.388,0.3154,0,4.452,1,0.6,4.5,0.75,0.35,0.0168,0.4,0,22.596,0,-2.501,0,271.26,0,0,1,-1.19,0,0,0,271.27,0.2781,0.022,0.9603,0,271.26,-65.56,-267.74,28.293,1.262,0,0,3,1350.04,5.229,0,1557.06,0,0,0,,0,0,0,0,0,0,268.43,0,0,0,0,0,0,0,0,0,0,0,0,0,3,3,0,0,VALID,0,0,0,0,0,1,0,0,0,0,0,0,0,0,0,0,0,0,0,0,319.8,1024.78,2,0,0.12,0.12,65,7.69,0.14,0.12,7.18,FLYING,X10-F,0:/Integrated Flight Computer/aircraft/x10_f_cfg.ks (inferred preloaded)
7.54,APPROACH,ILS_TRACK,149.44,152,2.56,1288.16,1208.83,-3.22,11.47,12.65,271.33,-2.352,0.3273,0,5.363,1,0.6,4.5,0.75,0.35,0.0168,0.4,0,22.61,0,-2.551,0,271.21,0,0,1,-1.24,0,0,0,271.23,0.2782,0.0211,0.9603,0,271.21,-63.63,-265.72,28.234,1.21,0,0,3,1350.04,5.811,0,1553.98,0,0,0,,0,0,0,0,0,0,268.43,0,0,0,0,0,0,0,0,0,0,0,0,0,3,3,0,0,VALID,0,0,0,0,0,1,0,0,0,0,0,0,0,0,0,0,0,0,0,0,320.03,1024.63,2,0,0.12,0.12,68,8.33,0.12,0.12,7.54,FLYING,X10-F,0:/Integrated Flight Computer/aircraft/x10_f_cfg.ks (inferred preloaded)
7.9,APPROACH,ILS_TRACK,149.29,152,2.71,1287.23,1207.75,-2.64,12.11,13.06,271.26,-2.323,0.3993,0,6.313,1,0.6,4.5,0.75,0.35,0.0168,0.4,0,22.652,0,-2.7,0,271.18,0,0,1,-1.06,0,0,0,271.19,0.2783,0.0206,0.9603,0,271.18,-61.75,-263.56,28.175,1.181,0,0,3,1350.04,5.972,0,1550.9,0,0,0,,0,0,0,0,0,0,268.43,0,0,0,0,0,0,0,0,0,0,0,0,0,3,3,0,0,VALID,0,0,0,0,0,1,0,0,0,0,0,0,0,0,0,0,0,0,0,0,322.07,1024.04,2,0,0.12,0.12,71,8.33,0.12,0.12,7.9,FLYING,X10-F,0:/Integrated Flight Computer/aircraft/x10_f_cfg.ks (inferred preloaded)
8.26,APPROACH,ILS_TRACK,149.07,152,2.93,1286.25,1206.92,-2,11.65,12.33,271.24,-2.292,0.4841,0,7.343,1,0.6,4.5,0.75,0.35,0.0168,0.4,0,22.715,0,-2.924,0,271.15,0,0,1,-0.8,0,0,0,271.16,0.2783,0.0201,0.9603,0,271.15,-59.94,-261.47,28.117,1.149,0,0,3,1350.04,5.844,0,1547.83,0,0,0,,0,0,0,0,0,0,268.43,0,0,0,0,0,0,0,0,0,0,0,0,0,3,3,0,0,VALID,0,0,0,0,0,1,0,0,0,0,0,0,0,0,0,0,0,0,0,0,330.25,1023.16,2,0,0.12,0.12,74,8.33,0.12,0.12,8.26,FLYING,X10-F,0:/Integrated Flight Computer/aircraft/x10_f_cfg.ks (inferred preloaded)
8.62,APPROACH,ILS_TRACK,149,152,3,1285.25,1206.25,-1.83,10.47,11.06,271.25,-2.224,0.4655,0,8.422,1,0.6,4.5,0.75,0.35,0.0168,0.4,0,22.738,0,-3.007,0,271.13,0,0,1,-0.69,0,0,0,271.13,0.2784,0.0197,0.9603,0,271.13,-58.19,-259.41,28.058,1.127,0,0,3,1350.04,5.803,0,1544.76,0,0,0,,0,0,0,0,0,0,268.43,0,0,0,0,0,0,0,0,0,0,0,0,0,3,3,0,0,VALID,0,0,0,0,0,1,0,0,0,0,0,0,0,0,0,0,0,0,0,0,341.92,1022.88,2,0,0.12,0.12,77,8.33,0.12,0.12,8.62,FLYING,X10-F,0:/Integrated Flight Computer/aircraft/x10_f_cfg.ks (inferred preloaded)
8.98,APPROACH,ILS_TRACK,149.09,152,2.91,1284.41,1205.53,-2.16,9.96,10.72,271.24,-2.157,0.3749,0,9.485,1,0.6,4.5,0.75,0.35,0.0168,0.4,0,22.712,0,-2.913,0,271.09,0,0,1,-0.82,0,0,0,271.1,0.2785,0.019,0.9602,0,271.09,-56.48,-257.19,28,1.086,0,0,3,1350.04,6.34,0,1541.68,0,0,0,,0,0,0,0,0,0,268.43,0,0,0,0,0,0,0,0,0,0,0,0,0,3,3,0,0,VALID,0,0,0,0,0,1,0,0,0,0,0,0,0,0,0,0,0,0,0,0,349.51,1023.34,2,0,0.12,0.12,80,8.33,0.12,0.12,8.98,FLYING,X10-F,0:/Integrated Flight Computer/aircraft/x10_f_cfg.ks (inferred preloaded)
9.34,APPROACH,ILS_TRACK,149.22,152,2.78,1283.73,1204.71,-2.41,10.37,11.27,271.19,-2.104,0.32,0,10.503,1,0.6,4.5,0.75,0.35,0.0168,0.4,0,22.677,0,-2.791,0,271.05,0,0,1,-0.92,0,0,0,271.06,0.2786,0.0183,0.9602,0,271.05,-54.82,-254.81,27.941,1.048,0,0,3,1350.04,6.718,0,1538.61,0,0,0,,0,0,0,0,0,0,268.43,0,0,0,0,0,0,0,0,0,0,0,0,0,3,3,0,0,VALID,0,0,0,0,0,1,0,0,0,0,0,0,0,0,0,0,0,0,0,0,350.58,1023.91,2,0,0.12,0.12,83,8.33,0.12,0.12,9.34,FLYING,X10-F,0:/Integrated Flight Computer/aircraft/x10_f_cfg.ks (inferred preloaded)
9.6,APPROACH,ILS_TRACK,149.26,152,2.74,1283.3,1204.09,-2.42,11.09,12.01,271.13,-2.069,0.3222,0,11.218,1,0.6,4.5,0.75,0.35,0.0168,0.4,0,22.662,0,-2.737,0,271.01,0,0,1,-0.94,0,0,0,271.03,0.2787,0.0177,0.9602,0,271.01,-53.64,-253.02,27.898,1.014,0,0,3,1350.04,6.941,0,1536.39,0,0,0,,0,0,0,0,0,0,268.43,0,0,0,0,0,0,0,0,0,0,0,0,0,3,3,0,0,VALID,0,0,0,0,0,1,0,0,0,0,0,0,0,0,0,0,0,0,0,0,348.64,1024.17,2,0,0.12,0.12,85,7.69,0.14,0.12,9.6,FLYING,X10-F,0:/Integrated Flight Computer/aircraft/x10_f_cfg.ks (inferred preloaded)
9.96,APPROACH,ILS_TRACK,149.23,152,2.77,1282.72,1203.28,-1.97,12,12.74,271.06,-2.032,0.382,0,12.205,1,0.6,4.5,0.75,0.35,0.0168,0.4,0,22.669,0,-2.76,0,270.99,0,0,1,-0.8,0,0,0,271,0.2788,0.0173,0.9602,0,270.99,-52.06,-250.52,27.84,0.992,0,0,3,1350.04,6.961,0,1533.31,0,0,0,,0,0,0,0,0,0,268.43,0,0,0,0,0,0,0,0,0,0,0,0,0,3,3,0,0,VALID,0,0,0,0,0,1,0,0,0,0,0,0,0,0,0,0,0,0,0,0,347.89,1024.11,2,0,0.12,0.12,88,8.33,0.12,0.12,9.96,FLYING,X10-F,0:/Integrated Flight Computer/aircraft/x10_f_cfg.ks (inferred preloaded)
10.32,APPROACH,ILS_TRACK,149.08,152,2.92,1282.04,1202.72,-1.34,11.68,12.13,271.04,-1.997,0.4896,0,13.238,1,0.6,4.5,0.75,0.35,0.0168,0.4,0,22.712,0,-2.915,0,270.97,0,0,1,-0.53,0,0,0,270.98,0.2789,0.0169,0.9602,0,270.97,-50.53,-248.12,27.781,0.97,0,0,3,1350.04,6.609,0,1530.24,0,0,0,,0,0,0,0,0,0,268.43,0,0,0,0,0,0,0,0,0,0,0,0,0,3,3,0,0,VALID,0,0,0,0,0,1,0,0,0,0,0,0,0,0,0,0,0,0,0,0,353.46,1023.5,2,0,0.12,0.12,91,8.33,0.12,0.12,10.32,FLYING,X10-F,0:/Integrated Flight Computer/aircraft/x10_f_cfg.ks (inferred preloaded)
10.68,APPROACH,ILS_TRACK,149.11,152,2.89,1281.37,1202.3,-1.12,10.83,11.18,271.04,-1.939,0.4644,0,14.288,1,0.6,4.5,0.75,0.35,0.0168,0.4,0,22.708,0,-2.899,0,270.95,0,0,1,-0.43,0,0,0,270.96,0.279,0.0165,0.9602,0,270.95,-49.04,-245.72,27.722,0.946,0,0,3,1350.04,6.743,0,1527.16,0,0,0,,0,0,0,0,0,0,268.43,0,0,0,0,0,0,0,0,0,0,0,0,0,3,3,0,0,VALID,0,0,0,0,0,1,0,0,0,0,0,0,0,0,0,0,0,0,0,0,363.53,1023.62,2,0,0.12,0.12,94,8.33,0.12,0.12,10.68,FLYING,X10-F,0:/Integrated Flight Computer/aircraft/x10_f_cfg.ks (inferred preloaded)
11.04,APPROACH,ILS_TRACK,149.25,152,2.75,1280.87,1201.85,-1.37,10.52,11.01,271.02,-1.875,0.3951,0,15.3,1,0.6,4.5,0.75,0.35,0.0168,0.4,0,22.669,0,-2.762,0,270.92,0,0,1,-0.51,0,0,0,270.92,0.2791,0.016,0.9601,0,270.92,-47.6,-243.17,27.664,0.917,0,0,3,1350.04,7.255,0,1524.09,0,0,0,,0,0,0,0,0,0,268.43,0,0,0,0,0,0,0,0,0,0,0,0,0,3,3,0,0,VALID,0,0,0,0,0,1,0,0,0,0,0,0,0,0,0,0,0,0,0,0,370.06,1024.23,2,0,0.12,0.12,97,8.33,0.12,0.12,11.04,FLYING,X10-F,0:/Integrated Flight Computer/aircraft/x10_f_cfg.ks (inferred preloaded)
11.4,APPROACH,ILS_TRACK,149.4,152,2.6,1280.48,1201.35,-1.41,10.93,11.46,270.98,-1.834,0.3566,0,16.258,1,0.6,4.5,0.75,0.35,0.0168,0.4,0,22.627,0,-2.612,0,270.88,0,0,1,-0.54,0,0,0,270.9,0.2792,0.0153,0.9601,0,270.88,-46.2,-240.48,27.605,0.875,0,0,3,1350.04,7.517,0,1521.01,0,0,0,,0,0,0,0,0,0,268.43,0,0,0,0,0,0,0,0,0,0,0,0,0,3,3,0,0,VALID,0,0,0,0,0,1,0,0,0,0,0,0,0,0,0,0,0,0,0,0,371.78,1024.91,2,0,0.12,0.12,100,8.33,0.12,0.12,11.4,FLYING,X10-F,0:/Integrated Flight Computer/aircraft/x10_f_cfg.ks (inferred preloaded)
11.76,APPROACH,ILS_TRACK,149.49,152,2.51,1280.09,1200.93,-0.95,11.13,11.45,270.93,-1.841,0.371,0,17.172,1,0.6,4.5,0.75,0.35,0.0168,0.4,0,22.6,0,-2.515,0,270.86,0,0,1,-0.37,0,0,0,270.86,0.2793,0.015,0.9601,0,270.86,-44.83,-237.79,27.546,0.858,0,0,3,1350.04,7.348,0,1517.93,0,0,0,,0,0,0,0,0,0,268.43,0,0,0,0,0,0,0,0,0,0,0,0,0,3,3,0,0,VALID,0,0,0,0,0,1,0,0,0,0,0,0,0,0,0,0,0,0,0,0,371.03,1025.32,2,0,0.12,0.12,103,8.33,0.12,0.12,11.76,FLYING,X10-F,0:/Integrated Flight Computer/aircraft/x10_f_cfg.ks (inferred preloaded)
12.02,APPROACH,ILS_TRACK,149.57,152,2.43,1279.77,1200.7,-0.81,10.81,11.07,270.92,-1.804,0.3716,0,17.812,1,0.6,4.5,0.75,0.35,0.0168,0.4,0,22.578,0,-2.439,0,270.84,0,0,1,-0.31,0,0,0,270.85,0.2794,0.0146,0.9601,0,270.84,-43.88,-235.89,27.504,0.838,0,0,3,1350.04,7.318,0,1515.7,0,0,0,,0,0,0,0,0,0,268.43,0,0,0,0,0,0,0,0,0,0,0,0,0,3,3,0,0,VALID,0,0,0,0,0,1,0,0,0,0,0,0,0,0,0,0,0,0,0,0,371.67,1025.68,2,0,0.12,0.12,105,7.69,0.14,0.12,12.02,FLYING,X10-F,0:/Integrated Flight Computer/aircraft/x10_f_cfg.ks (inferred preloaded)
12.38,APPROACH,ILS_TRACK,149.74,152,2.26,1279.39,1200.41,-0.85,10.47,10.77,270.91,-1.69,0.3399,0,18.651,1,0.6,4.5,0.75,0.35,0.0168,0.4,0,22.53,0,-2.269,0,270.82,0,0,1,-0.32,0,0,0,270.83,0.2794,0.0143,0.9601,0,270.82,-42.59,-233.19,27.445,0.818,0,0,3,1350.04,7.605,0,1512.62,0,0,0,,0,0,0,0,0,0,268.43,0,0,0,0,0,0,0,0,0,0,0,0,0,3,3,0,0,VALID,0,0,0,0,0,1,0,0,0,0,0,0,0,0,0,0,0,0,0,0,371.85,1026.42,2,0,0.12,0.12,108,8.33,0.12,0.12,12.38,FLYING,X10-F,0:/Integrated Flight Computer/aircraft/x10_f_cfg.ks (inferred preloaded)
12.74,APPROACH,ILS_TRACK,149.92,152,2.08,1279.08,1200.13,-0.77,10.41,10.68,270.89,-1.618,0.3207,0,19.424,1,0.6,4.5,0.75,0.35,0.0168,0.4,0,22.48,0,-2.09,0,270.8,0,0,1,-0.29,0,0,0,270.8,0.2795,0.0139,0.96,0,270.8,-41.34,-230.41,27.386,0.797,0,0,3,1350.04,7.703,0,1509.53,0,0,0,,0,0,0,0,0,0,268.43,0,0,0,0,0,0,0,0,0,0,0,0,0,3,3,0,0,VALID,0,0,0,0,0,1,0,0,0,0,0,0,0,0,0,0,0,0,0,0,368.48,1027.2,2,0,0.12,0.12,111,8.33,0.12,0.12,12.74,FLYING,X10-F,0:/Integrated Flight Computer/aircraft/x10_f_cfg.ks (inferred preloaded)
13.1,APPROACH,ILS_TRACK,150.08,152,1.92,1278.83,1199.86,-0.65,10.52,10.75,270.87,-1.53,0.3148,0,20,1,0.6,4.5,0.75,0.35,0.0168,0.4,0,22.433,0,-1.922,0,270.77,0,0,1,-0.26,0,0,0,270.77,0.2796,0.0134,0.96,0,270.77,-40.12,-227.57,27.327,0.767,0,0,3,1350.04,7.898,0,1506.43,0,0,0,,0,0,0,0,0,0,268.43,0,0,0,0,0,0,0,0,0,0,0,0,0,3,3,0,0,VALID,0,0,0,0,0,1,0,0,0,0,0,0,0,0,0,0,0,0,0,0,363.55,1027.91,2,0,0.12,0.12,114,8.33,0.12,0.12,13.1,FLYING,X10-F,0:/Integrated Flight Computer/aircraft/x10_f_cfg.ks (inferred preloaded)
13.46,APPROACH,ILS_TRACK,150.23,152,1.77,1278.57,1199.64,-0.61,10.42,10.63,270.86,-1.442,0.3123,0,20,1,0.6,4.5,0.75,0.35,0.0168,0.4,0,22.392,0,-1.78,0,270.74,0,0,1,-0.23,0,0,0,270.75,0.2797,0.013,0.96,0,270.74,-38.94,-224.74,27.268,0.743,0,0,3,1350.04,7.894,0,1503.34,0,0,0,,0,0,0,0,0,0,268.43,0,0,0,0,0,0,0,0,0,0,0,0,0,3,3,0,0,VALID,0,0,0,0,0,1,0,0,0,0,0,0,0,0,0,0,0,0,0,0,359.16,1028.54,2,0,0.12,0.12,117,8.33,0.12,0.12,13.46,FLYING,X10-F,0:/Integrated Flight Computer/aircraft/x10_f_cfg.ks (inferred preloaded)
13.82,APPROACH,ILS_TRACK,150.37,152,1.63,1278.35,1199.42,-0.55,10.42,10.61,270.85,-1.352,0.3094,0,20,1,0.6,4.5,0.75,0.35,0.0168,0.4,0,22.353,0,-1.64,0,270.72,0,0,1,-0.21,0,0,0,270.73,0.2798,0.0125,0.96,0,270.72,-37.78,-221.87,27.209,0.717,0,0,3,1350.04,7.988,0,1500.24,0,0,0,,0,0,0,0,0,0,268.43,0,0,0,0,0,0,0,0,0,0,0,0,0,3,3,0,0,VALID,0,0,0,0,0,1,0,0,0,0,0,0,0,0,0,0,0,0,0,0,354.63,1029.14,2,0,0.12,0.12,120,8.33,0.12,0.12,13.82,FLYING,X10-F,0:/Integrated Flight Computer/aircraft/x10_f_cfg.ks (inferred preloaded)
14.18,APPROACH,ILS_TRACK,150.49,152,1.51,1278.13,1199.23,-0.44,10.38,10.52,270.83,-1.279,0.3133,0,20,1,0.6,4.5,0.75,0.35,0.0168,0.4,0,22.319,0,-1.52,0,270.69,0,0,1,-0.18,0,0,0,270.7,0.2799,0.0121,0.9599,0,270.69,-36.66,-218.98,27.15,0.695,0,0,3,1350.04,8.006,0,1497.14,0,0,0,,0,0,0,0,0,0,268.43,0,0,0,0,0,0,0,0,0,0,0,0,0,3,3,0,0,VALID,0,0,0,0,0,1,0,0,0,0,0,0,0,0,0,0,0,0,0,0,350.61,1029.66,2,0,0.12,0.12,123,8.33,0.12,0.12,14.18,FLYING,X10-F,0:/Integrated Flight Computer/aircraft/x10_f_cfg.ks (inferred preloaded)
14.44,APPROACH,ILS_TRACK,150.57,152,1.43,1277.95,1199.11,-0.53,10.14,10.32,270.83,-1.223,0.3139,0,20,1,0.6,4.5,0.75,0.35,0.0168,0.4,0,22.296,0,-1.439,0,270.67,0,0,1,-0.19,0,0,0,270.68,0.28,0.0117,0.9599,0,270.67,-35.86,-216.92,27.107,0.672,0,0,3,1350.04,7.936,0,1494.9,0,0,0,,0,0,0,0,0,0,268.43,0,0,0,0,0,0,0,0,0,0,0,0,0,3,3,0,0,VALID,0,0,0,0,0,1,0,0,0,0,0,0,0,0,0,0,0,0,0,0,348.42,1030.02,2,0,0.12,0.12,125,7.69,0.14,0.12,14.44,FLYING,X10-F,0:/Integrated Flight Computer/aircraft/x10_f_cfg.ks (inferred preloaded)
14.8,APPROACH,ILS_TRACK,150.69,152,1.31,1277.8,1198.91,-0.55,10.31,10.52,270.81,-1.188,0.3092,0,20,1,0.6,4.5,0.75,0.35,0.0168,0.4,0,22.262,0,-1.319,0,270.65,0,0,1,-0.22,0,0,0,270.66,0.2801,0.0113,0.9599,0,270.65,-34.78,-213.98,27.048,0.648,0,0,3,1350.04,8.23,0,1491.8,0,0,0,,0,0,0,0,0,0,268.43,0,0,0,0,0,0,0,0,0,0,0,0,0,3,3,0,0,VALID,0,0,0,0,0,1,0,0,0,0,0,0,0,0,0,0,0,0,0,0,345.24,1030.54,2,0,0.12,0.12,128,8.33,0.12,0.12,14.8,FLYING,X10-F,0:/Integrated Flight Computer/aircraft/x10_f_cfg.ks (inferred preloaded)
15.16,APPROACH,ILS_TRACK,150.78,152,1.22,1277.64,1198.73,-0.48,10.39,10.57,270.79,-1.18,0.3159,0,20,1,0.6,4.5,0.75,0.35,0.0168,0.4,0,22.236,0,-1.223,0,270.63,0,0,1,-0.19,0,0,0,270.63,0.2802,0.0109,0.9599,0,270.63,-33.73,-211.03,26.988,0.627,0,0,3,1350.04,8.168,0,1488.69,0,0,0,,0,0,0,0,0,0,268.43,0,0,0,0,0,0,0,0,0,0,0,0,0,3,3,0,0,VALID,0,0,0,0,0,1,0,0,0,0,0,0,0,0,0,0,0,0,0,0,342.42,1030.95,2,0,0.12,0.12,131,8.33,0.12,0.12,15.16,FLYING,X10-F,0:/Integrated Flight Computer/aircraft/x10_f_cfg.ks (inferred preloaded)
15.52,APPROACH,ILS_TRACK,150.87,152,1.13,1277.48,1198.58,-0.43,10.36,10.52,270.76,-1.148,0.3213,0,20,1,0.6,4.5,0.75,0.35,0.0168,0.4,0,22.212,0,-1.139,0,270.59,0,0,1,-0.17,0,0,0,270.61,0.2803,0.0104,0.9599,0,270.59,-32.7,-208.09,26.929,0.593,0,0,3,1350.04,8.201,0,1485.58,0,0,0,,0,0,0,0,0,0,268.43,0,0,0,0,0,0,0,0,0,0,0,0,0,3,3,0,0,VALID,0,0,0,0,0,1,0,0,0,0,0,0,0,0,0,0,0,0,0,0,340.83,1031.32,2,0,0.12,0.12,134,8.33,0.12,0.12,15.52,FLYING,X10-F,0:/Integrated Flight Computer/aircraft/x10_f_cfg.ks (inferred preloaded)
15.88,APPROACH,ILS_TRACK,150.95,152,1.05,1277.33,1198.44,-0.38,10.35,10.49,270.75,-1.112,0.3231,0,20,1,0.6,4.5,0.75,0.35,0.0168,0.4,0,22.189,0,-1.058,0,270.57,0,0,1,-0.16,0,0,0,270.59,0.2804,0.01,0.9598,0,270.57,-31.7,-205.13,26.87,0.574,0,0,3,1350.04,8.284,0,1482.47,0,0,0,,0,0,0,0,0,0,268.43,0,0,0,0,0,0,0,0,0,0,0,0,0,3,3,0,0,VALID,0,0,0,0,0,1,0,0,0,0,0,0,0,0,0,0,0,0,0,0,339.98,1031.68,2,0,0.12,0.12,137,8.33,0.12,0.12,15.88,FLYING,X10-F,0:/Integrated Flight Computer/aircraft/x10_f_cfg.ks (inferred preloaded)
16.24,APPROACH,ILS_TRACK,151.02,152,0.98,1277.2,1198.3,-0.37,10.36,10.5,270.73,-1.102,0.3225,0,20,1,0.6,4.5,0.75,0.35,0.0168,0.4,0,22.167,0,-0.979,0,270.56,0,0,1,-0.15,0,0,0,270.56,0.2805,0.0098,0.9598,0,270.56,-30.72,-202.15,26.81,0.56,0,0,3,1350.04,8.357,0,1479.36,0,0,0,,0,0,0,0,0,0,268.43,0,0,0,0,0,0,0,0,0,0,0,0,0,3,3,0,0,VALID,0,0,0,0,0,1,0,0,0,0,0,0,0,0,0,0,0,0,0,0,339.4,1032.02,2,0,0.12,0.12,140,8.33,0.12,0.12,16.24,FLYING,X10-F,0:/Integrated Flight Computer/aircraft/x10_f_cfg.ks (inferred preloaded)
16.6,APPROACH,ILS_TRACK,151.09,152,0.91,1277.07,1198.19,-0.29,10.34,10.44,270.71,-1.094,0.324,0,20,1,0.6,4.5,0.75,0.35,0.0168,0.4,0,22.147,0,-0.91,0,270.54,0,0,1,-0.12,0,0,0,270.53,0.2806,0.0093,0.9598,0,270.54,-29.77,-199.16,26.751,0.536,0,0,3,1350.04,8.329,0,1476.25,0,0,0,,0,0,0,0,0,0,268.43,0,0,0,0,0,0,0,0,0,0,0,0,0,3,3,0,0,VALID,0,0,0,0,0,1,0,0,0,0,0,0,0,0,0,0,0,0,0,0,338.98,1032.32,2,0,0.12,0.12,143,8.33,0.12,0.12,16.6,FLYING,X10-F,0:/Integrated Flight Computer/aircraft/x10_f_cfg.ks (inferred preloaded)
16.86,APPROACH,ILS_TRACK,151.15,152,0.85,1276.99,1198.11,-0.27,10.33,10.43,270.69,-1.073,0.3204,0,20,1,0.6,4.5,0.75,0.35,0.0168,0.4,0,22.132,0,-0.854,0,270.52,0,0,1,-0.11,0,0,0,270.53,0.2806,0.0091,0.9598,0,270.52,-29.09,-196.99,26.708,0.52,0,0,3,1350.04,8.38,0,1474,0,0,0,,0,0,0,0,0,0,268.43,0,0,0,0,0,0,0,0,0,0,0,0,0,3,3,0,0,VALID,0,0,0,0,0,1,0,0,0,0,0,0,0,0,0,0,0,0,0,0,338.63,1032.56,2,0,0.12,0.12,145,7.69,0.14,0.12,16.86,FLYING,X10-F,0:/Integrated Flight Computer/aircraft/x10_f_cfg.ks (inferred preloaded)
17.22,APPROACH,ILS_TRACK,151.22,152,0.78,1276.89,1198.02,-0.21,10.33,10.4,270.68,-1.047,0.3177,0,20,1,0.6,4.5,0.75,0.35,0.0168,0.4,0,22.111,0,-0.782,0,270.5,0,0,1,-0.09,0,0,0,270.5,0.2807,0.0087,0.9597,0,270.5,-28.18,-193.98,26.649,0.5,0,0,3,1350.04,8.412,0,1470.89,0,0,0,,0,0,0,0,0,0,268.43,0,0,0,0,0,0,0,0,0,0,0,0,0,3,3,0,0,VALID,0,0,0,0,0,1,0,0,0,0,0,0,0,0,0,0,0,0,0,0,337.73,1032.87,2,0,0.12,0.12,148,8.33,0.12,0.12,17.22,FLYING,X10-F,0:/Integrated Flight Computer/aircraft/x10_f_cfg.ks (inferred preloaded)
17.58,APPROACH,ILS_TRACK,151.29,152,0.71,1276.82,1197.92,-0.3,10.38,10.51,270.66,-1.023,0.3157,0,20,1,0.6,4.5,0.75,0.35,0.0168,0.4,0,22.092,0,-0.713,0,270.48,0,0,1,-0.13,0,0,0,270.48,0.2808,0.0083,0.9597,0,270.48,-27.29,-190.94,26.589,0.475,0,0,3,1350.04,8.567,0,1467.77,0,0,0,,0,0,0,0,0,0,268.43,0,0,0,0,0,0,0,0,0,0,0,0,0,3,3,0,0,VALID,0,0,0,0,0,1,0,0,0,0,0,0,0,0,0,0,0,0,0,0,336.75,1033.17,2,0,0.12,0.12,151,8.33,0.12,0.12,17.58,FLYING,X10-F,0:/Integrated Flight Computer/aircraft/x10_f_cfg.ks (inferred preloaded)
17.94,APPROACH,ILS_TRACK,151.33,152,0.67,1276.74,1197.86,-0.21,10.32,10.39,270.64,-1.002,0.3271,0,20,1,0.6,4.5,0.75,0.35,0.0168,0.4,0,22.08,0,-0.672,0,270.46,0,0,1,-0.07,0,0,0,270.47,0.2809,0.008,0.9597,0,270.46,-26.42,-187.91,26.53,0.456,0,0,3,1350.04,8.399,0,1464.65,0,0,0,,0,0,0,0,0,0,268.43,0,0,0,0,0,0,0,0,0,0,0,0,0,3,3,0,0,VALID,0,0,0,0,0,1,0,0,0,0,0,0,0,0,0,0,0,0,0,0,336.15,1033.35,2,0,0.12,0.12,154,8.33,0.12,0.12,17.94,FLYING,X10-F,0:/Integrated Flight Computer/aircraft/x10_f_cfg.ks (inferred preloaded)
18.3,APPROACH,ILS_TRACK,151.39,152,0.61,1276.67,1197.8,-0.15,10.3,10.35,270.62,-0.99,0.3238,0,20,1,0.6,4.5,0.75,0.35,0.0168,0.4,0,22.064,0,-0.615,0,270.44,0,0,1,-0.05,0,0,0,270.45,0.281,0.0077,0.9597,0,270.44,-25.57,-184.86,26.47,0.441,0,0,3,1350.04,8.445,0,1461.53,0,0,0,,0,0,0,0,0,0,268.43,0,0,0,0,0,0,0,0,0,0,0,0,0,3,3,0,0,VALID,0,0,0,0,0,1,0,0,0,0,0,0,0,0,0,0,0,0,0,0,336.19,1033.6,2,0,0.12,0.12,157,8.33,0.12,0.12,18.3,FLYING,X10-F,0:/Integrated Flight Computer/aircraft/x10_f_cfg.ks (inferred preloaded)
18.62,APPROACH,ILS_TRACK,151.45,152,0.55,1276.62,1197.76,-0.14,10.28,10.33,270.61,-0.974,0.3133,0,20,1,0.6,4.5,0.75,0.35,0.0168,0.4,0,22.047,0,-0.553,0,270.42,0,0,1,-0.05,0,0,0,270.43,0.2811,0.0074,0.9596,0,270.42,-24.83,-182.12,26.417,0.422,0,0,3,1350.04,8.525,0,1458.75,0,0,0,,0,0,0,0,0,0,268.43,0,0,0,0,0,0,0,0,0,0,0,0,0,3,3,0,0,VALID,0,0,0,0,0,1,0,0,0,0,0,0,0,0,0,0,0,0,0,0,335.72,1033.87,2,0,0.102,0.102,160,9.29,0.12,0.1,18.62,FLYING,X10-F,0:/Integrated Flight Computer/aircraft/x10_f_cfg.ks (inferred preloaded)
18.88,APPROACH,ILS_TRACK,151.5,152,0.5,1276.58,1197.73,-0.14,10.25,10.3,270.6,-0.972,0.3102,0,20,1,0.6,4.5,0.75,0.35,0.0168,0.4,0,22.034,0,-0.509,0,270.41,0,0,1,-0.04,0,0,0,270.42,0.2812,0.0072,0.9596,0,270.41,-24.28,-180.04,26.376,0.412,0,0,3,1350.04,8.506,0,1456.62,0,0,0,,0,0,0,0,0,0,268.43,0,0,0,0,0,0,0,0,0,0,0,0,0,3,3,0,0,VALID,0,0,0,0,0,1,0,0,0,0,0,0,0,0,0,0,0,0,0,0,334.73,1034.06,2,0,0.128,0.128,162,7.81,0.128,0.102,18.88,FLYING,X10-F,0:/Integrated Flight Computer/aircraft/x10_f_cfg.ks (inferred preloaded)
19.19,APPROACH,ILS_TRACK,151.55,152,0.45,1276.55,1197.69,-0.12,10.28,10.32,270.58,-0.955,0.3071,0,20,1,0.6,4.5,0.75,0.35,0.0168,0.4,0,22.02,0,-0.458,0,270.39,0,0,1,-0.04,0,0,0,270.4,0.2813,0.0069,0.9596,0,270.39,-23.62,-177.49,26.327,0.395,0,0,3,1350.04,8.567,0,1454.04,0,0,0,,0,0,0,0,0,0,268.43,0,0,0,0,0,0,0,0,0,0,0,0,0,3,3,0,0,VALID,0,0,0,0,0,1,0,0,0,0,0,0,0,0,0,0,0,0,0,0,333.31,1034.28,2,0,0.154,0.154,164,6.5,0.154,0.128,19.19,FLYING,X10-F,0:/Integrated Flight Computer/aircraft/x10_f_cfg.ks (inferred preloaded)
19.51,APPROACH,ILS_TRACK,151.6,152,0.4,1276.53,1197.66,-0.1,10.32,10.36,270.56,-0.963,0.3048,0,20,1,0.6,4.5,0.75,0.35,0.0168,0.4,0,22.005,0,-0.406,0,270.38,0,0,1,-0.04,0,0,0,270.39,0.2813,0.0067,0.9596,0,270.38,-22.93,-174.74,26.274,0.382,0,0,3,1350.04,8.588,0,1451.27,0,0,0,,0,0,0,0,0,0,268.43,0,0,0,0,0,0,0,0,0,0,0,0,0,3,3,0,0,VALID,0,0,0,0,0,1,0,0,0,0,0,0,0,0,0,0,0,0,0,0,331.63,1034.51,2,0,0.162,0.162,166,6.18,0.162,0.154,19.51,FLYING,X10-F,0:/Integrated Flight Computer/aircraft/x10_f_cfg.ks (inferred preloaded)
19.85,APPROACH,ILS_TRACK,151.64,152,0.36,1276.5,1197.62,-0.1,10.35,10.39,270.54,-0.958,0.3062,0,20,1,0.6,4.5,0.75,0.35,0.0168,0.4,0,21.992,0,-0.36,0,270.36,0,0,1,-0.04,0,0,0,270.38,0.2814,0.0064,0.9596,0,270.36,-22.23,-171.84,26.219,0.365,0,0,3,1350.04,8.605,0,1448.35,0,0,0,,0,0,0,0,0,0,268.43,0,0,0,0,0,0,0,0,0,0,0,0,0,3,3,0,0,VALID,0,0,0,0,0,1,0,0,0,0,0,0,0,0,0,0,0,0,0,0,329.88,1034.7,2,0,0.17,0.17,168,5.88,0.17,0.162,19.85,FLYING,X10-F,0:/Integrated Flight Computer/aircraft/x10_f_cfg.ks (inferred preloaded)
20.2,APPROACH,ILS_TRACK,151.68,152,0.32,1276.48,1197.59,-0.08,10.39,10.42,270.52,-0.961,0.3097,0,20,1,0.6,4.5,0.75,0.35,0.0168,0.4,0,21.982,0,-0.323,0,270.35,0,0,1,-0.03,0,0,0,270.36,0.2815,0.0061,0.9595,0,270.35,-21.51,-168.83,26.161,0.352,0,0,3,1350.04,8.632,0,1445.31,0,0,0,,0,0,0,0,0,0,268.43,0,0,0,0,0,0,0,0,0,0,0,0,0,3,3,0,0,VALID,0,0,0,0,0,1,0,0,0,0,0,0,0,0,0,0,0,0,0,0,328.49,1034.86,2,0,0.175,0.175,170,5.72,0.175,0.17,20.2,FLYING,X10-F,0:/Integrated Flight Computer/aircraft/x10_f_cfg.ks (inferred preloaded)
20.55,APPROACH,ILS_TRACK,151.71,152,0.29,1276.46,1197.57,-0.06,10.41,10.44,270.5,-0.952,0.3156,0,20,1,0.6,4.5,0.75,0.35,0.0168,0.4,0,21.974,0,-0.295,0,270.34,0,0,1,-0.02,0,0,0,270.34,0.2816,0.006,0.9595,0,270.34,-20.81,-165.81,26.103,0.343,0,0,3,1350.04,8.604,0,1442.28,0,0,0,,0,0,0,0,0,0,268.43,0,0,0,0,0,0,0,0,0,0,0,0,0,3,3,0,0,VALID,0,0,0,0,0,1,0,0,0,0,0,0,0,0,0,0,0,0,0,0,327.71,1034.98,2,0,0.175,0.175,172,5.71,0.175,0.175,20.55,FLYING,X10-F,0:/Integrated Flight Computer/aircraft/x10_f_cfg.ks (inferred preloaded)
20.9,APPROACH,ILS_TRACK,151.73,152,0.27,1276.45,1197.56,-0.04,10.42,10.43,270.48,-0.916,0.3208,0,20,1,0.6,4.5,0.75,0.35,0.0168,0.4,0,21.968,0,-0.273,0,270.33,0,0,1,-0.01,0,0,0,270.33,0.2817,0.0057,0.9595,0,270.33,-20.14,-162.79,26.045,0.327,0,0,3,1350.04,8.639,0,1439.24,0,0,0,,0,0,0,0,0,0,268.43,0,0,0,0,0,0,0,0,0,0,0,0,0,3,3,0,0,VALID,0,0,0,0,0,1,0,0,0,0,0,0,0,0,0,0,0,0,0,0,327.69,1035.08,2,0,0.175,0.175,174,5.71,0.175,0.175,20.9,FLYING,X10-F,0:/Integrated Flight Computer/aircraft/x10_f_cfg.ks (inferred preloaded)
21.25,APPROACH,ILS_TRACK,151.75,152,0.25,1276.44,1197.55,-0.02,10.42,10.42,270.47,-0.897,0.3228,0,20,1,0.6,4.5,0.75,0.35,0.0168,0.4,0,21.961,0,-0.249,0,270.32,0,0,1,-0.01,0,0,0,270.32,0.2818,0.0055,0.9595,0,270.32,-19.48,-159.76,25.987,0.317,0,0,3,1350.04,8.657,0,1436.2,0,0,0,,0,0,0,0,0,0,268.43,0,0,0,0,0,0,0,0,0,0,0,0,0,3,3,0,0,VALID,0,0,0,0,0,1,0,0,0,0,0,0,0,0,0,0,0,0,0,0,328.04,1035.18,2,0,0.175,0.175,176,5.71,0.175,0.175,21.25,FLYING,X10-F,0:/Integrated Flight Computer/aircraft/x10_f_cfg.ks (inferred preloaded)
21.6,APPROACH,ILS_TRACK,151.78,152,0.22,1276.43,1197.55,0,10.41,10.41,270.46,-0.873,0.3227,0,20,1,0.6,4.5,0.75,0.35,0.0168,0.4,0,21.954,0,-0.223,0,270.3,0,0,1,0,0,0,0,270.31,0.2819,0.0052,0.9594,0,270.3,-18.85,-156.73,25.929,0.3,0,0,3,1350.04,8.675,0,1433.16,0,0,0,,0,0,0,0,0,0,268.43,0,0,0,0,0,0,0,0,0,0,0,0,0,3,3,0,0,VALID,0,0,0,0,0,1,0,0,0,0,0,0,0,0,0,0,0,0,0,0,328.49,1035.29,2,0,0.175,0.175,178,5.71,0.175,0.175,21.6,FLYING,X10-F,0:/Integrated Flight Computer/aircraft/x10_f_cfg.ks (inferred preloaded)
21.95,APPROACH,ILS_TRACK,151.81,152,0.19,1276.44,1197.55,0.02,10.41,10.4,270.44,-0.851,0.3212,0,20,1,0.6,4.5,0.75,0.35,0.0168,0.4,0,21.946,0,-0.195,0,270.29,0,0,1,0.01,0,0,0,270.3,0.282,0.005,0.9594,0,270.29,-18.23,-153.69,25.871,0.287,0,0,3,1350.04,8.693,0,1430.12,0,0,0,,0,0,0,0,0,0,268.43,0,0,0,0,0,0,0,0,0,0,0,0,0,3,3,0,0,VALID,0,0,0,0,0,1,0,0,0,0,0,0,0,0,0,0,0,0,0,0,328.89,1035.41,2,0,0.175,0.175,180,5.71,0.175,0.175,21.95,FLYING,X10-F,0:/Integrated Flight Computer/aircraft/x10_f_cfg.ks (inferred preloaded)
22.3,APPROACH,ILS_TRACK,151.84,152,0.16,1276.44,1197.56,0.03,10.4,10.39,270.43,-0.828,0.3189,0,20,1,0.6,4.5,0.75,0.35,0.0168,0.4,0,21.938,0,-0.166,0,270.29,0,0,1,0.01,0,0,0,270.28,0.2821,0.005,0.9594,0,270.29,-17.63,-150.64,25.813,0.288,0,0,3,1350.04,8.711,0,1427.08,0,0,0,,0,0,0,0,0,0,268.43,0,0,0,0,0,0,0,0,0,0,0,0,0,3,3,0,0,VALID,0,0,0,0,0,1,0,0,0,0,0,0,0,0,0,0,0,0,0,0,329.15,1035.54,2,0,0.175,0.175,182,5.71,0.175,0.175,22.3,FLYING,X10-F,0:/Integrated Flight Computer/aircraft/x10_f_cfg.ks (inferred preloaded)
22.65,APPROACH,ILS_TRACK,151.87,152,0.13,1276.46,1197.58,0.05,10.4,10.38,270.42,-0.798,0.316,0,20,1,0.6,4.5,0.75,0.35,0.0168,0.4,0,21.929,0,-0.135,0,270.27,0,0,1,0.02,0,0,0,270.27,0.2822,0.0047,0.9594,0,270.27,-17.05,-147.58,25.755,0.27,0,0,3,1350.04,8.729,0,1424.04,0,0,0,,0,0,0,0,0,0,268.43,0,0,0,0,0,0,0,0,0,0,0,0,0,3,3,0,0,VALID,0,0,0,0,0,1,0,0,0,0,0,0,0,0,0,0,0,0,0,0,329.23,1035.67,2,0,0.175,0.175,184,5.71,0.175,0.175,22.65,FLYING,X10-F,0:/Integrated Flight Computer/aircraft/x10_f_cfg.ks (inferred preloaded)
23,APPROACH,ILS_TRACK,151.9,152,0.1,1276.47,1197.6,0.06,10.39,10.37,270.41,-0.771,0.3132,0,20,1,0.6,4.5,0.75,0.35,0.0168,0.4,0,21.92,0,-0.104,0,270.26,0,0,1,0.02,0,0,0,270.26,0.2823,0.0045,0.9593,0,270.26,-16.49,-144.53,25.697,0.259,0,0,3,1350.04,8.745,0,1421,0,0,0,,0,0,0,0,0,0,268.43,0,0,0,0,0,0,0,0,0,0,0,0,0,3,3,0,0,VALID,0,0,0,0,0,1,0,0,0,0,0,0,0,0,0,0,0,0,0,0,328.99,1035.8,2,0,0.175,0.175,186,5.71,0.175,0.175,23,FLYING,X10-F,0:/Integrated Flight Computer/aircraft/x10_f_cfg.ks (inferred preloaded)
23.35,APPROACH,ILS_TRACK,151.93,152,0.07,1276.5,1197.63,0.08,10.39,10.36,270.39,-0.744,0.3109,0,20,1,0.6,4.5,0.75,0.35,0.0168,0.4,0,21.912,0,-0.074,0,270.24,0,0,1,0.03,0,0,0,270.26,0.2824,0.0042,0.9593,0,270.24,-15.94,-141.46,25.639,0.243,0,0,3,1350.04,8.761,0,1417.95,0,0,0,,0,0,0,0,0,0,268.43,0,0,0,0,0,0,0,0,0,0,0,0,0,3,3,0,0,VALID,0,0,0,0,0,1,0,0,0,0,0,0,0,0,0,0,0,0,0,0,328.46,1035.93,2,0,0.175,0.175,188,5.71,0.175,0.175,23.35,FLYING,X10-F,0:/Integrated Flight Computer/aircraft/x10_f_cfg.ks (inferred preloaded)
23.7,APPROACH,ILS_TRACK,151.96,152,0.04,1276.53,1197.66,0.09,10.39,10.36,270.38,-0.719,0.3093,0,20,1,0.6,4.5,0.75,0.35,0.0168,0.4,0,21.903,0,-0.044,0,270.24,0,0,1,0.03,0,0,0,270.25,0.2825,0.0042,0.9593,0,270.24,-15.41,-138.39,25.581,0.238,0,0,3,1350.04,8.776,0,1414.91,0,0,0,,0,0,0,0,0,0,268.43,0,0,0,0,0,0,0,0,0,0,0,0,0,3,3,0,0,VALID,0,0,0,0,0,1,0,0,0,0,0,0,0,0,0,0,0,0,0,0,327.72,1036.05,2,0,0.175,0.175,190,5.71,0.175,0.175,23.7,FLYING,X10-F,0:/Integrated Flight Computer/aircraft/x10_f_cfg.ks (inferred preloaded)
24.05,APPROACH,ILS_TRACK,151.98,152,0.02,1276.56,1197.7,0.1,10.38,10.35,270.37,-0.691,0.3086,0,20,1,0.6,4.5,0.75,0.35,0.0168,0.4,0,21.896,0,-0.018,0,270.23,0,0,1,0.04,0,0,0,270.24,0.2826,0.004,0.9592,0,270.23,-14.89,-135.31,25.522,0.231,0,0,3,1350.04,8.79,0,1411.87,0,0,0,,0,0,0,0,0,0,268.43,0,0,0,0,0,0,0,0,0,0,0,0,0,3,3,0,0,VALID,0,0,0,0,0,1,0,0,0,0,0,0,0,0,0,0,0,0,0,0,326.89,1036.16,2,0,0.175,0.175,192,5.71,0.175,0.175,24.05,FLYING,X10-F,0:/Integrated Flight Computer/aircraft/x10_f_cfg.ks (inferred preloaded)
24.4,APPROACH,ILS_TRACK,152.01,152,-0.01,1276.6,1197.74,0.11,10.38,10.35,270.36,-0.668,0.3087,0,19.999,1,0.6,4.5,0.75,0.35,0.0168,0.4,0,21.889,0,0.006,0,270.22,0,0,1,0.04,0,0,0,270.22,0.2826,0.0038,0.9592,0,270.22,-14.39,-132.23,25.464,0.219,0,0,3,1350.04,8.803,0,1408.82,0,0,0,,0,0,0,0,0,0,268.43,0,0,0,0,0,0,0,0,0,0,0,0,0,3,3,0,0,VALID,0,0,0,0,0,1,0,0,0,0,0,0,0,0,0,0,0,0,0,0,326.1,1036.26,2,0,0.175,0.175,194,5.71,0.175,0.175,24.4,FLYING,X10-F,0:/Integrated Flight Computer/aircraft/x10_f_cfg.ks (inferred preloaded)
24.75,APPROACH,ILS_TRACK,152.03,152,-0.03,1276.64,1197.78,0.12,10.38,10.34,270.35,-0.647,0.3093,0,19.991,1,0.6,4.5,0.75,0.35,0.0168,0.4,0,21.883,0,0.027,0,270.21,0,0,1,0.05,0,0,0,270.22,0.2827,0.0036,0.9592,0,270.21,-13.9,-129.15,25.406,0.209,0,0,3,1350.04,8.816,0,1405.78,0,0,0,,0,0,0,0,0,0,268.43,0,0,0,0,0,0,0,0,0,0,0,0,0,3,3,0,0,VALID,0,0,0,0,0,1,0,0,0,0,0,0,0,0,0,0,0,0,0,0,325.42,1036.34,2,0,0.175,0.175,196,5.71,0.175,0.175,24.75,FLYING,X10-F,0:/Integrated Flight Computer/aircraft/x10_f_cfg.ks (inferred preloaded)
25.1,APPROACH,ILS_TRACK,152.05,152,-0.05,1276.68,1197.83,0.13,10.38,10.34,270.34,-0.627,0.31,0,19.977,1,0.6,4.5,0.75,0.35,0.0168,0.4,0,21.878,0,0.045,0,270.2,0,0,1,0.05,0,0,0,270.21,0.2828,0.0035,0.9592,0,270.2,-13.43,-126.06,25.348,0.2,0,0,3,1350.04,8.828,0,1402.73,0,0,0,,0,0,0,0,0,0,268.43,0,0,0,0,0,0,0,0,0,0,0,0,0,3,3,0,0,VALID,0,0,0,0,0,1,0,0,0,0,0,0,0,0,0,0,0,0,0,0,324.89,1036.42,2,0,0.175,0.175,198,5.71,0.175,0.175,25.1,FLYING,X10-F,0:/Integrated Flight Computer/aircraft/x10_f_cfg.ks (inferred preloaded)
25.45,APPROACH,ILS_TRACK,152.06,152,-0.06,1276.73,1197.88,0.14,10.38,10.33,270.33,-0.608,0.3107,0,19.957,1,0.6,4.5,0.75,0.35,0.0168,0.4,0,21.874,0,0.062,0,270.19,0,0,1,0.05,0,0,0,270.2,0.2829,0.0033,0.9591,0,270.19,-12.97,-122.97,25.29,0.192,0,0,3,1350.04,8.839,0,1399.69,0,0,0,,0,0,0,0,0,0,268.43,0,0,0,0,0,0,0,0,0,0,0,0,0,3,3,0,0,VALID,0,0,0,0,0,1,0,0,0,0,0,0,0,0,0,0,0,0,0,0,324.51,1036.49,2,0,0.175,0.175,200,5.71,0.175,0.175,25.45,FLYING,X10-F,0:/Integrated Flight Computer/aircraft/x10_f_cfg.ks (inferred preloaded)
25.8,APPROACH,ILS_TRACK,152.08,152,-0.08,1276.78,1197.93,0.15,10.38,10.33,270.32,-0.59,0.3111,0,19.931,1,0.6,4.5,0.75,0.35,0.0168,0.4,0,21.869,0,0.077,0,270.18,0,0,1,0.06,0,0,0,270.19,0.283,0.0032,0.9591,0,270.18,-12.52,-119.87,25.232,0.185,0,0,3,1350.04,8.85,0,1396.64,0,0,0,,0,0,0,0,0,0,268.43,0,0,0,0,0,0,0,0,0,0,0,0,0,3,3,0,0,VALID,0,0,0,0,0,1,0,0,0,0,0,0,0,0,0,0,0,0,0,0,324.25,1036.55,2,0,0.175,0.175,202,5.71,0.175,0.175,25.8,FLYING,X10-F,0:/Integrated Flight Computer/aircraft/x10_f_cfg.ks (inferred preloaded)
26.15,APPROACH,ILS_TRACK,152.09,152,-0.09,1276.84,1197.99,0.16,10.38,10.33,270.31,-0.572,0.3111,0,19.901,1,0.6,4.5,0.75,0.35,0.0168,0.4,0,21.865,0,0.091,0,270.18,0,0,1,0.06,0,0,0,270.18,0.2831,0.0031,0.9591,0,270.18,-12.09,-116.77,25.174,0.177,0,0,3,1350.04,8.86,0,1393.6,0,0,0,,0,0,0,0,0,0,268.43,0,0,0,0,0,0,0,0,0,0,0,0,0,3,3,0,0,VALID,0,0,0,0,0,1,0,0,0,0,0,0,0,0,0,0,0,0,0,0,324.07,1036.6,2,0,0.175,0.175,204,5.71,0.175,0.175,26.15,FLYING,X10-F,0:/Integrated Flight Computer/aircraft/x10_f_cfg.ks (inferred preloaded)
26.5,APPROACH,ILS_TRACK,152.11,152,-0.11,1276.89,1198.04,0.17,10.38,10.32,270.31,-0.556,0.3109,0,19.865,1,0.6,4.5,0.75,0.35,0.0168,0.4,0,21.862,0,0.104,0,270.17,0,0,1,0.06,0,0,0,270.17,0.2832,0.003,0.9591,0,270.17,-11.67,-113.67,25.116,0.169,0,0,3,1350.04,8.87,0,1390.55,0,0,0,,0,0,0,0,0,0,268.43,0,0,0,0,0,0,0,0,0,0,0,0,0,3,3,0,0,VALID,0,0,0,0,0,1,0,0,0,0,0,0,0,0,0,0,0,0,0,0,323.9,1036.66,2,0,0.175,0.175,206,5.71,0.175,0.175,26.5,FLYING,X10-F,0:/Integrated Flight Computer/aircraft/x10_f_cfg.ks (inferred preloaded)
26.85,APPROACH,ILS_TRACK,152.12,152,-0.12,1276.95,1198.11,0.18,10.38,10.32,270.3,-0.539,0.3103,0,19.826,1,0.6,4.5,0.75,0.35,0.0168,0.4,0,21.858,0,0.117,0,270.16,0,0,1,0.07,0,0,0,270.16,0.2833,0.0027,0.959,0,270.16,-11.26,-110.56,25.058,0.157,0,0,3,1350.04,8.879,0,1387.5,0,0,0,,0,0,0,0,0,0,268.43,0,0,0,0,0,0,0,0,0,0,0,0,0,3,3,0,0,VALID,0,0,0,0,0,1,0,0,0,0,0,0,0,0,0,0,0,0,0,0,323.71,1036.71,2,0,0.175,0.175,208,5.71,0.175,0.175,26.85,FLYING,X10-F,0:/Integrated Flight Computer/aircraft/x10_f_cfg.ks (inferred preloaded)
27.2,APPROACH,ILS_TRACK,152.13,152,-0.13,1277.02,1198.17,0.19,10.38,10.31,270.29,-0.526,0.3096,0,19.781,1,0.6,4.5,0.75,0.35,0.0168,0.4,0,21.854,0,0.129,0,270.15,0,0,1,0.07,0,0,0,270.16,0.2834,0.0027,0.959,0,270.15,-10.86,-107.45,24.999,0.154,0,0,3,1350.04,8.889,0,1384.46,0,0,0,,0,0,0,0,0,0,268.43,0,0,0,0,0,0,0,0,0,0,0,0,0,3,3,0,0,VALID,0,0,0,0,0,1,0,0,0,0,0,0,0,0,0,0,0,0,0,0,323.48,1036.76,2,0,0.175,0.175,210,5.71,0.175,0.175,27.2,FLYING,X10-F,0:/Integrated Flight Computer/aircraft/x10_f_cfg.ks (inferred preloaded)
27.55,APPROACH,ILS_TRACK,152.14,152,-0.14,1277.09,1198.24,0.2,10.38,10.31,270.28,-0.512,0.3088,0,19.733,1,0.6,4.5,0.75,0.35,0.0168,0.4,0,21.851,0,0.141,0,270.15,0,0,1,0.07,0,0,0,270.15,0.2835,0.0026,0.959,0,270.15,-10.48,-104.34,24.941,0.146,0,0,3,1350.04,8.898,0,1381.41,0,0,0,,0,0,0,0,0,0,268.43,0,0,0,0,0,0,0,0,0,0,0,0,0,3,3,0,0,VALID,0,0,0,0,0,1,0,0,0,0,0,0,0,0,0,0,0,0,0,0,323.18,1036.8,2,0,0.175,0.175,212,5.71,0.175,0.175,27.55,FLYING,X10-F,0:/Integrated Flight Computer/aircraft/x10_f_cfg.ks (inferred preloaded)
27.9,APPROACH,ILS_TRACK,152.15,152,-0.15,1277.16,1198.31,0.2,10.38,10.31,270.27,-0.498,0.3081,0,19.681,1,0.6,4.5,0.75,0.35,0.0168,0.4,0,21.848,0,0.151,0,270.14,0,0,1,0.08,0,0,0,270.14,0.2836,0.0024,0.9589,0,270.14,-10.1,-101.22,24.883,0.139,0,0,3,1350.04,8.906,0,1378.36,0,0,0,,0,0,0,0,0,0,268.43,0,0,0,0,0,0,0,0,0,0,0,0,0,3,3,0,0,VALID,0,0,0,0,0,1,0,0,0,0,0,0,0,0,0,0,0,0,0,0,322.83,1036.84,2,0,0.175,0.175,214,5.71,0.175,0.175,27.9,FLYING,X10-F,0:/Integrated Flight Computer/aircraft/x10_f_cfg.ks (inferred preloaded)
28.25,APPROACH,ILS_TRACK,152.16,152,-0.16,1277.23,1198.39,0.21,10.38,10.31,270.26,-0.484,0.3076,0,19.626,1,0.6,4.5,0.75,0.35,0.0168,0.4,0,21.846,0,0.16,0,270.13,0,0,1,0.08,0,0,0,270.13,0.2837,0.0023,0.9589,0,270.13,-9.74,-98.1,24.825,0.134,0,0,3,1350.04,8.915,0,1375.32,0,0,0,,0,0,0,0,0,0,268.43,0,0,0,0,0,0,0,0,0,0,0,0,0,3,3,0,0,VALID,0,0,0,0,0,1,0,0,0,0,0,0,0,0,0,0,0,0,0,0,322.44,1036.87,2,0,0.175,0.175,216,5.71,0.175,0.175,28.25,FLYING,X10-F,0:/Integrated Flight Computer/aircraft/x10_f_cfg.ks (inferred preloaded)
28.6,APPROACH,ILS_TRACK,152.17,152,-0.17,1277.3,1198.46,0.22,10.38,10.3,270.26,-0.472,0.3072,0,19.568,1,0.6,4.5,0.75,0.35,0.0168,0.4,0,21.844,0,0.168,0,270.12,0,0,1,0.08,0,0,0,270.13,0.2838,0.0022,0.9589,0,270.12,-9.39,-94.98,24.767,0.125,0,0,3,1350.04,8.923,0,1372.27,0,0,0,,0,0,0,0,0,0,268.43,0,0,0,0,0,0,0,0,0,0,0,0,0,3,3,0,0,VALID,0,0,0,0,0,1,0,0,0,0,0,0,0,0,0,0,0,0,0,0,322.03,1036.9,2,0,0.175,0.175,218,5.71,0.175,0.175,28.6,FLYING,X10-F,0:/Integrated Flight Computer/aircraft/x10_f_cfg.ks (inferred preloaded)
28.95,APPROACH,ILS_TRACK,152.17,152,-0.17,1277.38,1198.54,0.22,10.38,10.3,270.25,-0.461,0.3071,0,19.507,1,0.6,4.5,0.75,0.35,0.0168,0.4,0,21.842,0,0.174,0,270.12,0,0,1,0.08,0,0,0,270.12,0.2839,0.002,0.9589,0,270.12,-9.04,-91.85,24.709,0.117,0,0,3,1350.04,8.93,0,1369.22,0,0,0,,0,0,0,0,0,0,268.43,0,0,0,0,0,0,0,0,0,0,0,0,0,3,3,0,0,VALID,0,0,0,0,0,1,0,0,0,0,0,0,0,0,0,0,0,0,0,0,321.63,1036.92,2,0,0.175,0.175,220,5.71,0.175,0.175,28.95,FLYING,X10-F,0:/Integrated Flight Computer/aircraft/x10_f_cfg.ks (inferred preloaded)
29.3,APPROACH,ILS_TRACK,152.18,152,-0.18,1277.46,1198.62,0.23,10.38,10.3,270.24,-0.449,0.307,0,19.445,1,0.6,4.5,0.75,0.35,0.0168,0.4,0,21.841,0,0.179,0,270.11,0,0,1,0.09,0,0,0,270.12,0.2839,0.002,0.9588,0,270.11,-8.71,-88.73,24.651,0.115,0,0,3,1350.04,8.937,0,1366.17,0,0,0,,0,0,0,0,0,0,268.43,0,0,0,0,0,0,0,0,0,0,0,0,0,3,3,0,0,VALID,0,0,0,0,0,1,0,0,0,0,0,0,0,0,0,0,0,0,0,0,321.26,1036.94,2,0,0.175,0.175,222,5.71,0.175,0.175,29.3,FLYING,X10-F,0:/Integrated Flight Computer/aircraft/x10_f_cfg.ks (inferred preloaded)
29.65,APPROACH,ILS_TRACK,152.18,152,-0.18,1277.54,1198.71,0.24,10.38,10.3,270.23,-0.437,0.3071,0,19.382,1,0.6,4.5,0.75,0.35,0.0168,0.4,0,21.84,0,0.182,0,270.11,0,0,1,0.09,0,0,0,270.11,0.284,0.0018,0.9588,0,270.11,-8.39,-85.6,24.592,0.105,0,0,3,1350.04,8.944,0,1363.12,0,0,0,,0,0,0,0,0,0,268.43,0,0,0,0,0,0,0,0,0,0,0,0,0,3,3,0,0,VALID,0,0,0,0,0,1,0,0,0,0,0,0,0,0,0,0,0,0,0,0,320.93,1036.95,2,0,0.175,0.175,224,5.71,0.175,0.175,29.65,FLYING,X10-F,0:/Integrated Flight Computer/aircraft/x10_f_cfg.ks (inferred preloaded)
30,APPROACH,ILS_TRACK,152.18,152,-0.18,1277.63,1198.79,0.24,10.38,10.3,270.22,-0.424,0.3072,0,19.317,1,0.6,4.5,0.75,0.35,0.0168,0.4,0,21.839,0,0.184,0,270.1,0,0,1,0.09,0,0,0,270.11,0.2841,0.0017,0.9588,0,270.1,-8.07,-82.47,24.534,0.095,0,0,3,1350.04,8.951,0,1360.08,0,0,0,,0,0,0,0,0,0,268.43,0,0,0,0,0,0,0,0,0,0,0,0,0,3,3,0,0,VALID,0,0,0,0,0,1,0,0,0,0,0,0,0,0,0,0,0,0,0,0,320.65,1036.95,2,0,0.175,0.175,226,5.71,0.175,0.175,30,FLYING,X10-F,0:/Integrated Flight Computer/aircraft/x10_f_cfg.ks (inferred preloaded)
30.35,APPROACH,ILS_TRACK,152.19,152,-0.19,1277.72,1198.88,0.25,10.38,10.3,270.22,-0.415,0.3073,0,19.252,1,0.6,4.5,0.75,0.35,0.0168,0.4,0,21.839,0,0.185,0,270.1,0,0,1,0.09,0,0,0,270.1,0.2842,0.0017,0.9588,0,270.1,-7.77,-79.33,24.476,0.097,16.633,1,3,1350.04,8.958,0,1357.03,0,0,0,,0,0,0,0,0,0,268.43,0,0,0,0,0,0,0,0,0,0,0,0,0,3,3,0,0,VALID,0,0,0,0,0,1,0,0,0,0,0,0,0,0,0,0,0,0,0,0,320.4,1036.95,2,0,0.175,0.175,228,5.71,0.175,0.175,30.35,FLYING,X10-F,0:/Integrated Flight Computer/aircraft/x10_f_cfg.ks (inferred preloaded)
30.7,APPROACH,ILS_TRACK,152.19,152,-0.19,1277.8,1198.97,0.26,10.39,10.3,270.21,-0.405,0.3073,0,19.187,1,0.6,4.5,0.75,0.35,0.0168,0.4,0,21.839,0,0.185,0,270.09,0,0,1,0.1,0,0,0,270.09,0.2843,0.0016,0.9587,0,270.09,-7.47,-76.19,24.418,0.091,15.688,1,3,1350.04,8.963,0,1353.98,0,0,0,,0,0,0,0,0,0,268.43,0,0,0,0,0,0,0,0,0,0,0,0,0,3,3,0,0,VALID,0,0,0,0,0,1,0,0,0,0,0,0,0,0,0,0,0,0,0,0,320.2,1036.94,2,0,0.175,0.175,230,5.71,0.175,0.175,30.7,FLYING,X10-F,0:/Integrated Flight Computer/aircraft/x10_f_cfg.ks (inferred preloaded)
31.05,APPROACH,ILS_TRACK,152.19,152,-0.19,1277.9,1199.01,0.19,10.42,10.37,270.2,-0.392,0.3066,0,19.122,1,0.6,4.5,0.75,0.35,0.0168,0.4,0,21.838,0,0.186,0,270.08,0,0,1,0.07,0,0,0,270.09,0.2844,0.0014,0.9587,0,270.08,-7.19,-73.06,24.36,0.082,14.738,1,3,1350.04,8.974,0,1350.93,0,0,0,,0,0,0,0,0,0,268.43,0,0,0,0,0,0,0,0,0,0,0,0,0,3,3,0,0,VALID,0,0,0,0,0,1,0,0,0,0,0,0,0,0,0,0,0,0,0,0,320.01,1036.94,2,0,0.175,0.175,232,5.71,0.175,0.175,31.05,FLYING,X10-F,0:/Integrated Flight Computer/aircraft/x10_f_cfg.ks (inferred preloaded)
31.4,APPROACH,ILS_TRACK,152.18,152,-0.18,1277.98,1199.01,0.26,10.48,10.38,270.2,-0.384,0.3098,0,19.059,1,0.6,4.5,0.75,0.35,0.0168,0.4,0,21.841,0,0.178,0,270.08,0,0,1,0.1,0,0,0,270.08,0.2845,0.0015,0.9587,0,270.08,-6.91,-69.92,24.302,0.084,13.822,1,3,1350.04,8.94,0,1347.88,0,0,0,,0,0,0,0,0,0,268.43,0,0,0,0,0,0,0,0,0,0,0,0,0,3,3,0,0,VALID,0,0,0,0,0,1,0,0,0,0,0,0,0,0,0,0,0,0,0,0,319.79,1036.9,2,0,0.175,0.175,234,5.71,0.175,0.175,31.4,FLYING,X10-F,0:/Integrated Flight Computer/aircraft/x10_f_cfg.ks (inferred preloaded)
31.75,APPROACH,ILS_TRACK,152.16,152,-0.16,1278.07,1198.98,0.25,10.48,10.39,270.19,-0.364,0.3136,0,19,1,0.6,4.5,0.75,0.35,0.0168,0.4,0,21.844,0,0.165,0,270.07,0,0,1,0.09,0,0,0,270.08,0.2846,0.0013,0.9586,0,270.07,-6.64,-66.78,24.243,0.074,12.871,1,3,1350.04,8.955,0,1344.84,0,0,0,,0,0,0,0,0,0,268.43,0,0,0,0,0,0,0,0,0,0,0,0,0,3,3,0,0,VALID,0,0,0,0,0,1,0,0,0,0,0,0,0,0,0,0,0,0,0,0,319.91,1036.83,2,0,0.175,0.175,236,5.71,0.175,0.175,31.75,FLYING,X10-F,0:/Integrated Flight Computer/aircraft/x10_f_cfg.ks (inferred preloaded)
32.1,APPROACH,ILS_TRACK,152.15,152,-0.15,1278.16,1198.93,0.25,10.47,10.39,270.19,-0.355,0.3149,0,18.945,1,0.6,4.5,0.75,0.35,0.0168,0.4,0,21.847,0,0.155,0,270.07,0,0,1,0.1,0,0,0,270.07,0.2847,0.0012,0.9586,0,270.07,-6.38,-63.65,24.185,0.068,11.927,1,3,1350.04,8.959,0,1341.79,0,0,0,,0,0,0,0,0,0,268.43,0,0,0,0,0,0,0,0,0,0,0,0,0,3,3,0,0,VALID,0,0,0,0,0,1,0,0,0,0,0,0,0,0,0,0,0,0,0,0,320.27,1036.79,2,0,0.175,0.175,238,5.71,0.175,0.175,32.1,FLYING,X10-F,0:/Integrated Flight Computer/aircraft/x10_f_cfg.ks (inferred preloaded)
32.45,APPROACH,ILS_TRACK,152.15,152,-0.15,1278.25,1198.85,0.26,10.47,10.38,270.18,-0.345,0.3146,0,18.893,1,0.6,4.5,0.75,0.35,0.0168,0.4,0,21.849,0,0.147,0,270.07,0,0,1,0.1,0,0,0,270.07,0.2848,0.0012,0.9586,0,270.07,-6.13,-60.51,24.127,0.066,10.982,1,3,1350.04,8.965,0,1338.74,0,0,0,,0,0,0,0,0,0,268.43,0,0,0,0,0,0,0,0,0,0,0,0,0,3,3,0,0,VALID,0,0,0,0,0,1,0,0,0,0,0,0,0,0,0,0,0,0,0,0,320.68,1036.75,2,0,0.175,0.175,240,5.71,0.175,0.175,32.45,FLYING,X10-F,0:/Integrated Flight Computer/aircraft/x10_f_cfg.ks (inferred preloaded)
32.8,APPROACH,ILS_TRACK,152.14,152,-0.14,1278.34,1198.77,0.27,10.47,10.38,270.17,-0.338,0.3136,0,18.843,1,0.6,4.5,0.75,0.35,0.0168,0.4,0,21.851,0,0.141,0,270.06,0,0,1,0.1,0,0,0,270.06,0.2849,0.0011,0.9586,0,270.06,-5.88,-57.37,24.069,0.061,10.035,1,3,1350.04,8.971,0,1335.69,0,0,0,,0,0,0,0,0,0,268.43,0,0,0,0,0,0,0,0,0,0,0,0,0,3,3,0,0,VALID,0,0,0,0,0,1,0,0,0,0,0,0,0,0,0,0,0,0,0,0,321.03,1036.72,2,0,0.175,0.175,242,5.71,0.175,0.175,32.8,FLYING,X10-F,0:/Integrated Flight Computer/aircraft/x10_f_cfg.ks (inferred preloaded)
33.15,APPROACH,ILS_TRACK,152.14,152,-0.14,1278.43,1198.68,0.27,10.47,10.38,270.17,-0.332,0.3123,0,18.795,1,0.6,4.5,0.75,0.35,0.0168,0.4,0,21.852,0,0.137,0,270.06,0,0,1,0.1,0,0,0,270.06,0.285,0.001,0.9585,0,270.06,-5.64,-54.23,24.011,0.055,9.087,1,3,1350.04,8.978,0,1332.65,0,0,0,,0,0,0,0,0,0,268.43,0,0,0,0,0,0,0,0,0,0,0,0,0,3,3,0,0,VALID,0,0,0,0,0,1,0,0,0,0,0,0,0,0,0,0,0,0,0,0,321.29,1036.69,2,0,0.175,0.175,244,5.71,0.175,0.175,33.15,FLYING,X10-F,0:/Integrated Flight Computer/aircraft/x10_f_cfg.ks (inferred preloaded)
33.5,APPROACH,ILS_TRACK,152.13,152,-0.13,1278.53,1198.6,0.28,10.47,10.38,270.16,-0.325,0.3109,0,18.748,1,0.6,4.5,0.75,0.35,0.0168,0.4,0,21.853,0,0.133,0,270.06,0,0,1,0.1,0,0,0,270.05,0.2851,0.001,0.9585,0,270.06,-5.41,-51.09,23.953,0.056,8.14,1,3,1350.04,8.983,0,1329.6,0,0,0,,0,0,0,0,0,0,268.43,0,0,0,0,0,0,0,0,0,0,0,0,0,3,3,0,0,VALID,0,0,0,0,0,1,0,0,0,0,0,0,0,0,0,0,0,0,0,0,321.43,1036.67,2,0,0.175,0.175,246,5.71,0.175,0.175,33.5,FLYING,X10-F,0:/Integrated Flight Computer/aircraft/x10_f_cfg.ks (inferred preloaded)
33.85,APPROACH,ILS_TRACK,152.13,152,-0.13,1278.63,1198.53,0.21,10.48,10.41,270.16,-0.318,0.3091,0,18.702,1,0.6,4.5,0.75,0.35,0.0168,0.4,0,21.854,0,0.131,0,270.05,0,0,1,0.09,0,0,0,270.05,0.2852,0.0009,0.9585,0,270.05,-5.19,-47.95,23.895,0.05,7.207,1,3,1350.04,8.971,0,1326.55,0,0,0,,0,0,0,0,0,0,268.43,0,0,0,0,0,0,0,0,0,0,0,0,0,3,3,0,0,VALID,0,0,0,0,0,1,0,0,0,0,0,0,0,0,0,0,0,0,0,0,321.54,1036.66,2,0,0.175,0.175,248,5.71,0.175,0.175,33.85,FLYING,X10-F,0:/Integrated Flight Computer/aircraft/x10_f_cfg.ks (inferred preloaded)
34.2,APPROACH,ILS_TRACK,152.12,152,-0.12,1278.73,1198.49,0.33,10.54,10.41,270.15,-0.302,0.3108,0,18.658,1,0.6,4.5,0.75,0.35,0.0168,0.4,0,21.856,0,0.122,0,270.04,0,0,1,0.12,0,0,0,270.05,0.2852,0.0008,0.9585,0,270.04,-4.97,-44.79,23.836,0.045,6.25,1,3,1350.04,8.984,0,1323.51,0,0,0,,0,0,0,0,0,0,268.43,0,0,0,0,0,0,0,0,0,0,0,0,0,3,3,0,0,VALID,0,0,0,0,0,1,0,0,0,0,0,0,0,0,0,0,0,0,0,0,321.4,1036.61,2,0,0.175,0.175,250,5.71,0.175,0.175,34.2,FLYING,X10-F,0:/Integrated Flight Computer/aircraft/x10_f_cfg.ks (inferred preloaded)
34.55,APPROACH,ILS_TRACK,152.11,152,-0.11,1278.82,1198.48,0.3,10.48,10.38,270.14,-0.291,0.3134,0,18.619,1,0.6,4.5,0.75,0.35,0.0168,0.4,0,21.86,0,0.109,0,270.05,0,0,1,0.11,0,0,0,270.04,0.2853,0.0008,0.9584,0,270.05,-4.77,-41.65,23.778,0.045,5.298,1,3,1350.04,8.998,0,1320.46,0,0,0,,0,0,0,0,0,0,268.43,0,0,0,0,0,0,0,0,0,0,0,0,0,3,3,0,0,VALID,0,0,0,0,0,1,0,0,0,0,0,0,0,0,0,0,0,0,0,0,321.47,1036.55,2,0,0.175,0.175,252,5.71,0.175,0.175,34.55,FLYING,X10-F,0:/Integrated Flight Computer/aircraft/x10_f_cfg.ks (inferred preloaded)
34.9,APPROACH,ILS_TRACK,152.1,152,-0.1,1278.93,1198.44,0.31,10.47,10.36,270.14,-0.278,0.3126,0,18.582,1,0.6,4.5,0.75,0.35,0.0168,0.4,0,21.862,0,0.103,0,270.04,0,0,1,0.12,0,0,0,270.04,0.2854,0.0008,0.9584,0,270.04,-4.57,-38.5,23.72,0.043,4.35,1,3,1350.04,9.002,0,1317.41,0,0,0,,0,0,0,0,0,0,268.43,0,0,0,0,0,0,0,0,0,0,0,0,0,3,3,0,0,VALID,0,0,0,0,0,1,0,0,0,0,0,0,0,0,0,0,0,0,0,0,321.68,1036.52,2,0,0.175,0.175,254,5.71,0.175,0.175,34.9,FLYING,X10-F,0:/Integrated Flight Computer/aircraft/x10_f_cfg.ks (inferred preloaded)
35.25,APPROACH,ILS_TRACK,152.1,152,-0.1,1279.04,1198.41,0.31,10.47,10.36,270.13,-0.268,0.3106,0,18.547,1,0.6,4.5,0.75,0.35,0.0168,0.4,0,21.863,0,0.1,0,270.04,0,0,1,0.12,0,0,0,270.04,0.2855,0.0006,0.9584,0,270.04,-4.38,-35.35,23.662,0.037,3.396,1,3,1350.04,9.012,0,1314.36,0,0,0,,0,0,0,0,0,0,268.43,0,0,0,0,0,0,0,0,0,0,0,0,0,3,3,0,0,VALID,0,0,0,0,0,1,0,0,0,0,0,0,0,0,0,0,0,0,0,0,321.81,1036.5,2,0,0.175,0.175,256,5.71,0.175,0.175,35.25,FLYING,X10-F,0:/Integrated Flight Computer/aircraft/x10_f_cfg.ks (inferred preloaded)
35.6,APPROACH,ILS_TRACK,152.1,152,-0.1,1279.14,1198.41,0.32,10.43,10.31,270.13,-0.267,0.3089,0,18.513,1,0.6,4.5,0.75,0.35,0.0168,0.4,0,21.863,0,0.097,0,270.04,-0.527,0,1,0.13,0,0,-0.08,270.04,0.2944,0.0006,0.9557,-0.53,270.04,-4.19,-32.2,23.604,0.037,2.473,1,3,1350.04,8.985,-0.527,1311.32,0,0,0,,0,0,0,0,0,0,268.43,0,0,0,0,0,0,0,0,0,0,0,0,0,3,3,0,0,VALID,0,0,0,0,0,1,0,0,0,0,0,0,0,0,0,0,0,0,0,0,321.84,1036.48,2,0,0.175,0.175,258,5.71,0.175,0.175,35.6,FLYING,X10-F,0:/Integrated Flight Computer/aircraft/x10_f_cfg.ks (inferred preloaded)
35.95,APPROACH,ILS_TRACK,152.09,152,-0.09,1279.13,1198.5,0.49,10.01,9.75,270.11,-0.35,0.31,0,18.481,1,0.6,4.5,0.75,0.35,0.0168,0.4,0,21.866,0,0.09,0,270.03,-1.161,0,1,0.19,0,0,-0.95,270.03,0.3051,0.0006,0.9523,-1.16,270.03,-4.01,-29.13,23.546,0.035,1.839,1,3,1350.04,8.624,-1.161,1308.27,0,0,0,,0,0,0,0,0,0,268.43,0,0,0,0,0,0,0,0,0,0,0,0,0,3,3,0,0,VALID,0,0,0,0,0,1,0,0,0,0,0,0,0,0,0,0,0,0,0,0,321.63,1036.43,2,0,0.175,0.175,260,5.71,0.175,0.175,35.95,FLYING,X10-F,0:/Integrated Flight Computer/aircraft/x10_f_cfg.ks (inferred preloaded)
36.3,APPROACH,ILS_TRACK,152.14,152,-0.14,1279.05,1198.59,0.3,9.31,9.12,270.1,-0.42,0.2901,0,18.441,1,0.6,4.5,0.75,0.35,0.0168,0.4,0,21.855,0,0.128,0,270.03,-1.987,0,1,0.12,0,0,-1.52,270.03,0.3189,0.0006,0.9478,-1.99,270.03,-3.84,-26.15,23.488,0.034,1.013,1,3,1350.04,8.539,-1.987,1305.22,0,0,0,,0,0,0,0,0,0,268.43,0,0,0,0,0,0,0,0,0,0,0,0,0,3,3,0,0,VALID,0,0,0,0,0,1,0,0,0,0,0,0,0,0,0,0,0,0,0,0,321.38,1036.6,2,0,0.175,0.175,262,5.71,0.175,0.175,36.3,FLYING,X10-F,0:/Integrated Flight Computer/aircraft/x10_f_cfg.ks (inferred preloaded)
36.65,APPROACH,ILS_TRACK,152.25,152,-0.25,1278.83,1198.63,-0.11,8.34,8.28,270.08,-0.458,0.247,0,18.371,1,0.6,4.5,0.75,0.35,0.0168,0.4,0,21.825,0,0.232,0,270.04,-2.441,0,1,0.01,0,0,-2.19,270.03,0.3265,0.0006,0.9452,-2.44,270.04,-3.68,-23.3,23.429,0.035,0.559,1,3,1350.04,8.037,-2.441,1302.17,0,0,0,,0,0,0,0,0,0,268.43,0,0,0,0,0,0,0,0,0,0,0,0,0,3,3,0,0,VALID,0,0,0,0,0,1,0,0,0,0,0,0,0,0,0,0,0,0,0,0,318.37,1037.07,2,0,0.175,0.175,264,5.71,0.175,0.175,36.65,FLYING,X10-F,0:/Integrated Flight Computer/aircraft/x10_f_cfg.ks (inferred preloaded)
37,APPROACH,ILS_TRACK,152.43,152,-0.43,1278.51,1198.52,-0.47,7.65,7.7,270.08,-0.473,0.186,0,18.245,1,0.6,4.5,0.75,0.35,0.0168,0.4,0,21.776,0,0.406,0,270.04,-3.087,0,1,-0.15,0,0,-2.82,270.04,0.3372,0.0006,0.9414,-3.09,270.04,-3.53,-20.53,23.371,0.037,-0.087,1,3,1350.04,7.808,-3.087,1299.12,0,0,0,,0,0,0,0,0,0,268.43,0,0,0,0,0,0,0,0,0,0,0,0,0,3,3,0,0,VALID,0,0,0,0,0,1,0,0,0,0,0,0,0,0,0,0,0,0,0,0,310.14,1037.83,2,0,0.175,0.175,266,5.71,0.175,0.175,37,FLYING,X10-F,0:/Integrated Flight Computer/aircraft/x10_f_cfg.ks (inferred preloaded)
37.35,APPROACH,ILS_TRACK,152.64,152,-0.64,1277.95,1198.24,-1.2,6.64,6.95,270.07,-0.479,0.1257,0,18.048,1,0.6,4.5,0.75,0.35,0.0168,0.4,0,21.718,0,0.615,0,270.04,-3.292,0,1,-0.38,0,0,-3.12,270.04,0.3406,0.0006,0.9402,-3.29,270.04,-3.39,-18,23.313,0.037,-0.292,1,3,1350.04,7.114,-3.292,1296.07,0,0,0,,0,0,0,0,0,0,268.43,0,0,0,0,0,0,0,0,0,0,0,0,0,3,3,0,0,VALID,0,0,0,0,0,1,0,0,0,0,0,0,0,0,0,0,0,0,0,0,295.67,1038.74,2,0,0.175,0.175,268,5.71,0.175,0.175,37.35,FLYING,X10-F,0:/Integrated Flight Computer/aircraft/x10_f_cfg.ks (inferred preloaded)
37.7,APPROACH,ILS_TRACK,152.85,152,-0.85,1277.27,1197.68,-1.87,6.23,6.8,270.07,-0.482,0.0757,0,17.775,1,0.6,4.5,0.75,0.35,0.0168,0.4,0,21.656,0,0.834,0,270.04,-3.792,0,1,-0.67,0,0,-3.59,270.04,0.3489,0.0006,0.9371,-3.79,270.04,-3.26,-15.57,23.254,0.035,-0.792,1,3,1350.04,6.83,-3.792,1293.01,0,0,0,,0,0,0,0,0,0,268.43,0,0,0,0,0,0,0,0,0,0,0,0,0,3,3,0,0,VALID,0,0,0,0,0,1,0,0,0,0,0,0,0,0,0,0,0,0,0,0,275.73,1039.7,2,0,0.175,0.175,270,5.71,0.175,0.175,37.7,FLYING,X10-F,0:/Integrated Flight Computer/aircraft/x10_f_cfg.ks (inferred preloaded)
38.04,APPROACH,ILS_TRACK,153.04,152,-1.04,1276.33,1196.91,-2.72,5.62,6.48,270.06,-0.476,0.0457,0,17.436,1,0.6,4.5,0.75,0.35,0.0168,0.4,0,21.602,0,1.027,0,270.04,-3.73,0,1,-0.94,0,0,-3.69,270.04,0.348,0.0006,0.9375,-3.73,270.04,-3.14,-13.45,23.197,0.04,-0.73,1,3,1350.04,5.956,-3.73,1289.97,0,0,0,,0,0,0,0,0,0,268.43,0,0,0,0,0,0,0,0,0,0,0,0,0,3,3,0,0,VALID,0,0,0,0,0,1,0,0,0,0,0,0,0,0,0,0,0,0,0,0,252.91,1040.55,2,0,0.172,0.172,272,5.82,0.175,0.172,38.04,FLYING,X10-F,0:/Integrated Flight Computer/aircraft/x10_f_cfg.ks (inferred preloaded)
38.33,APPROACH,ILS_TRACK,153.15,152,-1.15,1275.49,1196.11,-3.42,5.73,6.92,270.06,-0.458,0.0462,0,17.096,1,0.6,4.5,0.75,0.35,0.0168,0.4,0,21.568,0,1.147,0,270.04,-4.164,0,1,-1.26,0,0,-3.93,270.04,0.3552,0.0006,0.9348,-4.16,270.04,-3.04,-11.68,23.146,0.039,-1.164,1,3,1350.04,5.836,-4.164,1287.33,0,0,0,,0,0,0,0,0,0,268.43,0,0,0,0,0,0,0,0,0,0,0,0,0,3,3,0,0,VALID,0,0,0,0,0,1,0,0,0,0,0,0,0,0,0,0,0,0,0,0,233.37,1041.08,2,0,0.146,0.146,274,7.04,0.172,0.146,38.33,FLYING,X10-F,0:/Integrated Flight Computer/aircraft/x10_f_cfg.ks (inferred preloaded)
