t_s,phase,subphase,ias_ms,vapp_ms,spd_err_ms,agl_m,gear_h_m,vs_ms,pitch_deg,aoa_deg,hdg_deg,bank_deg,thr_cmd,thr_cur,thr_intg,at_gain,at_tau_s,at_a_up,at_a_dn,at_kp_thr,at_ki_spd,at_thr_slew,as_cmd_deg,as_cap_deg,as_raw_deg,as_spd_err_ms,as_active,aa_hdg_cmd_deg,aa_fpa_cmd_deg,aa_fbw,aa_dir,actual_fpa_deg,ftf_hdg_err_deg,ftf_fix_idx,kos_steer_pit_deg,kos_steer_hdg_deg,aa_dir_vx,aa_dir_vy,aa_dir_vz,aa_dir_pitch_deg,aa_dir_hdg_deg,ils_loc_m,ils_gs_m,ils_dist_km,loc_corr_deg,gs_corr_deg,gs_latched,active_gs_ang_deg,ils_intercept_alt_m,d_gs_ms,fpa_preclamped_deg,gs_nom_alt_m,flare_fpa_cmd,flare_tgt_vs,flare_frac,flare_round_blend_h,flare_round_blend_ttg,flare_round_blend,flare_mode,flare_auth_limited,flare_auth_reason,flare_vs_err,flare_fpa_err,flare_pitch_err,flare_theta_cmd_raw,flare_theta_cmd_clamped,flare_theta_clamp_active,flare_aoa_clamp_active,flare_pitch_in_cmd,elev_defl_avg_deg,elev_defl_max_deg,elev_defl_n,flare_ctrl_h_m,flare_req_up_a,flare_thr_floor,flare_tecs_et_err,flare_tecs_eb_err,flare_tecs_h_ref,flare_tecs_v_ref,flare_gamma_ref,flare_gamma_eb_term,flare_gamma_unsat,steer_hdg_deg,steer_blend,ro_loc_corr_deg,ro_hdg_err_deg,ro_yaw_tgt,ro_yaw_scale,ro_yaw_gate,yaw_cmd,roll_cmd,pitch_cmd,ro_pitch_tgt_deg,ro_pitch_err_deg,ro_pitch_ff,ro_roll_assist,flaps_cur,flaps_tgt,asc_j_ab,asc_j_rk,asc_validity,asc_q_pa,asc_q_raw_pa,asc_mach,asc_apo_m,asc_drag_n,asc_w_prop,asc_edot_aero,asc_edot_orb,asc_pitch_bias,asc_blend,asc_spooling,asc_ab_thr_ratio,asc_ab_t_now,asc_ab_t_avail,asc_ab_ign_on,asc_ab_flameouts,asc_rk_t_now,asc_rk_t_avail,asc_rk_ign_on,asc_rk_flameouts,ship_thrust,ship_avail_thrust,ship_ign_on,ship_flameouts,ifc_raw_dt_s,ifc_dt_s,ifc_loop_n,ifc_hz_est,ifc_raw_dt_max_s,ifc_raw_dt_min_s,phase_el_s,status,craft_name,cfg_file
8.02,TAKEOFF,TO_PREFLIGHT,0,80,80,3.61,62.53,0,0.08,-6.8,268.94,-0.03,0.14,0,0,0,0,0,0,0,0,0,0,0,0,0,0,270,0,1,0,0.04,0,0,0,90,0,0,0,0,0,0,0,0,0,0,0,3,0,0,0,69,0,0,0,0,0,0,,0,NONE,0,0,0,0,0,0,0,0,0,0,0,62.53,0,0,0,0,0,0,0,0,0,270,1,0,-1.065,0,0,1,0,0,0,0,0,0,0,0,1,0,0,VALID,0,0,0,0,0,1,0,0,0,0,0,0,0,0,0,0,0,0,0,0,0,479.89,2,0,0.35,0.35,1,0.13,0.35,0.02,7.67,LANDED,CF1-J,0:/Integrated Flight Computer/aircraft/cf1_j_cfg.ks (inferred preloaded)
8.33,TAKEOFF,TO_PREFLIGHT,0,80,80,3.61,62.53,0,0.08,55.24,268.85,-0.031,0.424,0,0,0,0,0,0,0,0,0,0,0,0,0,0,270,0,1,0,-0.02,0,0,0,90,0,0,0,0,0,0,0,0,0,0,0,3,0,0,0,69,0,0,0,0,0,0,,0,NONE,0,0,0,0,0,0,0,0,0,0,0,62.53,0,0,0,0,0,0,0,0,0,270,1,0,-1.065,0,0,1,0,0,0,0,0,0,0,1,1,0,0,VALID,0,0,0,0,0,1,0,0,0,0,0,0,0,0,0,0,0,0,0,0,1.97,479.89,2,0,0.105,0.105,4,9.52,7.77,0.105,8.02,LANDED,CF1-J,0:/Integrated Flight Computer/aircraft/cf1_j_cfg.ks (inferred preloaded)
8.61,TAKEOFF,TO_PREFLIGHT,0,80,80,3.61,62.53,0,0.08,-4.45,268.85,-0.031,0.536,0,0,0,0,0,0,0,0,0,0,0,0,0,0,270,0,1,0,0,0,0,0,90,0,0,0,0,0,0,0,0,0,0,0,3,0,0,0,69,0,0,0,0,0,0,,0,NONE,0,0,0,0,0,0,0,0,0,0,0,62.53,0,0,0,0,0,0,0,0,0,270,1,0,-1.065,0,0,1,0,0,0,0,0,0,0,1,1,0,0,VALID,0,0,0,0,0,1,0,0,0,0,0,0,0,0,0,0,0,0,0,0,5.4,479.89,2,0,0.105,0.105,7,10.71,0.105,0.07,8.3,LANDED,CF1-J,0:/Integrated Flight Computer/aircraft/cf1_j_cfg.ks (inferred preloaded)
8.96,TAKEOFF,TO_PREFLIGHT,0.01,80,79.99,3.61,62.53,0,0.07,-1.82,268.84,-0.031,0.676,0,0,0,0,0,0,0,0,0,0,0,0,0,0,270,0,1,0,0.02,0,0,0,90,0,0,0,0,0,0,0,0,0,0,0,3,0,0,0,69,0,0,0,0,0,0,,0,NONE,0,0,0,0,0,0,0,0,0,0,0,62.53,0,0,0,0,0,0,0,0,0,270,1,0,-1.065,0,0,1,0,0,0,0,0,0,0,1,1,0,0,VALID,0,0,0,0,0,1,0,0,0,0,0,0,0,0,0,0,0,0,0,0,10.82,479.89,2,0,0.105,0.105,10,8.57,0.14,0.105,8.65,LANDED,CF1-J,0:/Integrated Flight Computer/aircraft/cf1_j_cfg.ks (inferred preloaded)
9.24,TAKEOFF,TO_PREFLIGHT,0.01,80,79.99,3.61,62.53,0,0.07,0.57,268.84,-0.03,0.788,0,0,0,0,0,0,0,0,0,0,0,0,0,0,270,0,1,0,-0.03,0,0,0,90,0,0,0,0,0,0,0,0,0,0,0,3,0,0,0,69,0,0,0,0,0,0,,0,NONE,0,0,0,0,0,0,0,0,0,0,0,62.53,0,0,0,0,0,0,0,0,0,270,1,0,-1.065,0,0,1,0,0,0,0,0,0,0,1,1,0,0,VALID,0,0,0,0,0,1,0,0,0,0,0,0,0,0,0,0,0,0,0,0,16.12,479.89,2,0,0.105,0.105,13,10.71,0.105,0.07,8.93,LANDED,CF1-J,0:/Integrated Flight Computer/aircraft/cf1_j_cfg.ks (inferred preloaded)
9.59,TAKEOFF,TO_PREFLIGHT,0.02,80,79.98,3.61,62.53,0,0.06,-2.08,268.83,-0.031,0.928,0,0,0,0,0,0,0,0,0,0,0,0,0,0,270,0,1,0,0.03,0,0,0,90,0,0,0,0,0,0,0,0,0,0,0,3,0,0,0,69,0,0,0,0,0,0,,0,NONE,0,0,0,0,0,0,0,0,0,0,0,62.53,0,0,0,0,0,0,0,0,0,270,1,0,-1.065,0,0,1,0,0,0,0,0,0,0,1,1,0,0,VALID,0,0,0,0,0,1,0,0,0,0,0,0,0,0,0,0,0,0,0,0,23.84,479.88,2,0,0.105,0.105,16,8.57,0.14,0.105,9.28,LANDED,CF1-J,0:/Integrated Flight Computer/aircraft/cf1_j_cfg.ks (inferred preloaded)
9.87,TAKEOFF,TO_PREFLIGHT,0.03,80,79.97,3.61,62.53,0,0.05,-0.61,268.83,-0.03,1,0,0,0,0,0,0,0,0,0,0,0,0,0,0,270,0,1,0,0,0,0,0,90,0,0,0,0,0,0,0,0,0,0,0,3,0,0,0,69,0,0,0,0,0,0,,0,NONE,0,0,0,0,0,0,0,0,0,0,0,62.53,0,0,0,0,0,0,0,0,0,270,1,0,-1.065,0,0,1,0,0,0,0,0,0,0,1,1,0,0,VALID,0,0,0,0,0,1,0,0,0,0,0,0,0,0,0,0,0,0,0,0,30.94,479.88,2,0,0.105,0.105,19,10.71,0.105,0.07,9.56,LANDED,CF1-J,0:/Integrated Flight Computer/aircraft/cf1_j_cfg.ks (inferred preloaded)
10.22,TAKEOFF,TO_GROUND_ROLL,0.04,80,79.96,3.61,62.53,0,0.04,-0.34,268.83,-0.03,1,0,0,0,0,0,0,0,0,0,0,0,0,0,0,270,0,1,0,-0.01,0,0,0,90,0,0,0,0,0,0,0,0,0,0,0,3,0,0,0,69,0,0,0,0,0,0,,0,NONE,0,0,0,0,0,0,0,0,0,0,0,62.53,0,0,0,0,0,0,0,0,0,270,1,0,-1.065,0,0,1,0,0,0,0,0,0,0,1,1,0,0,VALID,0,0,0,0,0,1,0,0,0,0,0,0,0,0,0,0,0,0,0,0,40.27,479.88,2,0,0.105,0.105,22,8.57,0.14,0.105,9.91,LANDED,CF1-J,0:/Integrated Flight Computer/aircraft/cf1_j_cfg.ks (inferred preloaded)
10.54,TAKEOFF,TO_GROUND_ROLL,0.09,80,79.91,3.62,62.53,-0.01,0.1,2.29,268.83,-0.03,1,0,0,0,0,0,0,0,0,0,0,0,0,0,0,270,0,1,0,-0.46,0,0,0,90,0,0,0,0,0,0,0,0,0.001,0,0,3,0,0,0,69,0,0,0,0,0,0,,0,NONE,0,0,0,0,0,0,0,0,0,0,0,62.53,0,0,0,0,0,0,0,0,0,270,1,0.001,-1.176,0.0132,0.25,1,0.0132,0,0,0,0,0,0,1,1,0,0,VALID,0,0,0,0,0,1,0,0,0,0,0,0,0,0,0,0,0,0,0,0,47.6,479.87,2,0,0.105,0.105,25,10.71,0.105,0.07,10.19,LANDED,CF1-J,0:/Integrated Flight Computer/aircraft/cf1_j_cfg.ks (inferred preloaded)
10.89,TAKEOFF,TO_GROUND_ROLL,0.33,80,79.67,3.61,62.53,0.01,0.1,-0.49,268.83,-0.032,1,0,0,0,0,0,0,0,0,0,0,0,0,0,0,270,0,1,0,0.32,0,0,0,90,0,0,0,0,0,0,0,0,0.001,0,0,3,0,0,0,69,0,0,0,0,0,0,,0,NONE,0,0,0,0,0,0,0,0,0,0,0,62.53,0,0,0,0,0,0,0,0,0,270,1,0.001,-1.172,0.0132,0.25,1,0.0132,0,0,0,0,0,0,1,1,0,0,VALID,0,0,0,0,0,1,0,0,0,0,0,0,0,0,0,0,0,0,0,0,56.59,479.81,2,0,0.105,0.105,28,8.57,0.14,0.105,10.54,LANDED,CF1-J,0:/Integrated Flight Computer/aircraft/cf1_j_cfg.ks (inferred preloaded)
11.17,TAKEOFF,TO_GROUND_ROLL,0.6,80,79.4,3.62,62.53,0,0.09,0.33,268.83,-0.032,1,0,0,0,0,0,0,0,0,0,0,0,0,0,0,270,0,1,0,-0.21,0,0,0,90,0,0,0,0,0,0,0,0,0,0,0,3,0,0,0,69,0,0,0,0,0,0,,0,NONE,0,0,0,0,0,0,0,0,0,0,0,62.53,0,0,0,0,0,0,0,0,0,270,1,0,-1.164,0.0131,0.25,1,0.0131,0,0,0,0,0,0,1,1,0,0,VALID,0,0,0,0,0,1,0,0,0,0,0,0,0,0,0,0,0,0,0,0,63.64,479.75,2,0,0.105,0.105,31,10.71,0.105,0.07,10.82,LANDED,CF1-J,0:/Integrated Flight Computer/aircraft/cf1_j_cfg.ks (inferred preloaded)
11.52,TAKEOFF,TO_GROUND_ROLL,0.99,80,79.01,3.62,62.53,0,0.11,0.08,268.85,-0.031,1,0,0,0,0,0,0,0,0,0,0,0,0,0,0,269.99,0,1,0,0.04,0,0,0,90,0,0,0,0,0,0,0,0,0,0,0,3,0,0,0,69,0,0,0,0,0,0,,0,NONE,0,0,0,0,0,0,0,0,0,0,0,62.53,0,0,0,0,0,0,0,0,0,269.99,1,0,-1.141,0.0128,0.25,1,0.0128,0,0,0,0,0,0,1,1,0,0,VALID,0,0,0,0,0,1,0,0,0,0,0,0,0,0,0,0,0,0,0,0,72.28,479.67,2,0,0.105,0.105,34,8.57,0.14,0.105,11.17,LANDED,CF1-J,0:/Integrated Flight Computer/aircraft/cf1_j_cfg.ks (inferred preloaded)
11.8,TAKEOFF,TO_GROUND_ROLL,1.33,80,78.67,3.62,62.53,0,0.1,0.17,268.87,-0.031,1,0,0,0,0,0,0,0,0,0,0,0,0,0,0,269.98,0,1,0,-0.09,0,0,0,90,0,0,0,0,0,0,0,0,0,0,0,3,0,0,0,69,0,0,0,0,0,0,,0,NONE,0,0,0,0,0,0,0,0,0,0,0,62.53,0,0,0,0,0,0,0,0,0,269.98,1,0,-1.113,0.0125,0.25,1,0.0125,0,0,0,0,0,0,1,1,0,0,VALID,0,0,0,0,0,1,0,0,0,0,0,0,0,0,0,0,0,0,0,0,79.07,479.59,2,0,0.105,0.105,37,10.71,0.105,0.07,11.45,LANDED,CF1-J,0:/Integrated Flight Computer/aircraft/cf1_j_cfg.ks (inferred preloaded)
12.15,TAKEOFF,TO_GROUND_ROLL,1.8,80,78.2,3.62,62.53,0,0.11,0.15,268.91,-0.032,1,0,0,0,0,0,0,0,0,0,0,0,0,0,0,269.98,0,1,0,-0.05,0,0,0,90,0,0,0,0,0,0,0,0,0,0,0,3,0,0,0,69,0,0,0,0,0,0,,0,NONE,0,0,0,0,0,0,0,0,0,0,0,62.53,0,0,0,0,0,0,0,0,0,269.98,1,0,-1.065,0.012,0.25,1,0.012,0,0,0,0,0,0,1,1,0,0,VALID,0,0,0,0,0,1,0,0,0,0,0,0,0,0,0,0,0,0,0,0,87.38,479.48,2,0,0.105,0.105,40,8.57,0.14,0.105,11.8,LANDED,CF1-J,0:/Integrated Flight Computer/aircraft/cf1_j_cfg.ks (inferred preloaded)
12.43,TAKEOFF,TO_GROUND_ROLL,2.22,80,77.78,3.62,62.53,0,0.11,0.15,268.95,-0.034,1,0,0,0,0,0,0,0,0,0,0,0,0,0,0,269.97,0,1,0,-0.05,0,0,0,90,0,0,0,0,0,0,0,0,0,0,0,3,0,0,0,69,0,0,0,0,0,0,,0,NONE,0,0,0,0,0,0,0,0,0,0,0,62.53,0,0,0,0,0,0,0,0,0,269.97,1,0,-1.016,0.0114,0.25,1,0.0114,0,0,0,0,0,0,1,1,0,0,VALID,0,0,0,0,0,1,0,0,0,0,0,0,0,0,0,0,0,0,0,0,93.9,479.38,2,0,0.105,0.105,43,10.71,0.105,0.07,12.08,LANDED,CF1-J,0:/Integrated Flight Computer/aircraft/cf1_j_cfg.ks (inferred preloaded)
12.78,TAKEOFF,TO_GROUND_ROLL,2.78,80,77.22,3.62,62.53,0,0.11,0.16,269.02,-0.035,1,0,0,0,0,0,0,0,0,0,0,0,0,0,0,269.96,0,1,0,-0.06,0,0,0,90,0,0,0,0,0,0,0,0,-0.001,0,0,3,0,0,0,69,0,0,0,0,0,0,,0,NONE,0,0,0,0,0,0,0,0,0,0,0,62.53,0,0,0,0,0,0,0,0,0,269.96,1,-0.001,-0.944,0.0106,0.25,1,0.0106,0,0,0,0,0,0,1,1,0,0,VALID,0,0,0,0,0,1,0,0,0,0,0,0,0,0,0,0,0,0,0,0,101.89,479.24,2,0,0.105,0.105,46,8.57,0.14,0.105,12.43,LANDED,CF1-J,0:/Integrated Flight Computer/aircraft/cf1_j_cfg.ks (inferred preloaded)
13.06,TAKEOFF,TO_GROUND_ROLL,3.27,80,76.73,3.62,62.53,0,0.11,0.15,269.08,-0.036,1,0,0,0,0,0,0,0,0,0,0,0,0,0,0,269.95,0,1,0,-0.05,0,0,0,90,0,0,0,0,0,0,0,0,-0.001,0,0,3,0,0,0,69,0,0,0,0,0,0,,0,NONE,0,0,0,0,0,0,0,0,0,0,0,62.53,0,0,0,0,0,0,0,0,0,269.95,1,-0.001,-0.876,0.0099,0.25,1,0.0099,0,0,0,0,0,0,1,1,0,0,VALID,0,0,0,0,0,1,0,0,0,0,0,0,0,0,0,0,0,0,0,0,108.15,479.12,2,0,0.105,0.105,49,10.71,0.105,0.07,12.71,LANDED,CF1-J,0:/Integrated Flight Computer/aircraft/cf1_j_cfg.ks (inferred preloaded)
13.41,TAKEOFF,TO_GROUND_ROLL,3.92,80,76.08,3.62,62.53,0,0.11,0.16,269.16,-0.037,1,0,0,0,0,0,0,0,0,0,0,0,0,0,0,269.95,0,1,0,-0.05,0,0,0,90,0,0,0,0,0,0,0,0,-0.001,0,0,3,0,0,0,69,0,0,0,0,0,0,,0,NONE,0,0,0,0,0,0,0,0,0,0,0,62.53,0,0,0,0,0,0,0,0,0,269.95,1,-0.001,-0.783,0.0088,0.25,1,0.0088,0,0,0,0,0,0,1,1,0,0,VALID,0,0,0,0,0,1,0,0,0,0,0,0,0,0,0,0,0,0,0,0,115.83,478.95,2,0,0.105,0.105,52,8.57,0.14,0.105,13.06,LANDED,CF1-J,0:/Integrated Flight Computer/aircraft/cf1_j_cfg.ks (inferred preloaded)
13.69,TAKEOFF,TO_GROUND_ROLL,4.47,80,75.53,3.62,62.53,0,0.12,0.16,269.24,-0.039,1,0,0,0,0,0,0,0,0,0,0,0,0,0,0,269.94,0,1,0,-0.05,0,0,0,90,0,0,0,0,0,0,0,0,-0.002,0,0,3,0,0,0,69,0,0,0,0,0,0,,0,NONE,0,0,0,0,0,0,0,0,0,0,0,62.53,0,0,0,0,0,0,0,0,0,269.94,1,-0.002,-0.705,0.0079,0.25,1,0.0079,0,0,0,0,0,0,1,1,0,0,VALID,0,0,0,0,0,1,0,0,0,0,0,0,0,0,0,0,0,0,0,0,121.85,478.81,2,0,0.105,0.105,55,10.71,0.105,0.07,13.34,LANDED,CF1-J,0:/Integrated Flight Computer/aircraft/cf1_j_cfg.ks (inferred preloaded)
14,TAKEOFF,TO_GROUND_ROLL,5.2,80,74.8,3.62,62.53,0,0.12,0.17,269.34,-0.041,1,0,0,0,0,0,0,0,0,0,0,0,0,0,0,269.94,0,1,0,-0.05,0,0,0,90,0,0,0,0,0,0,0,0,-0.002,0,0,3,0,0,0,69,0,0,0,0,0,0,,0,NONE,0,0,0,0,0,0,0,0,0,0,0,62.53,0,0,0,0,0,0,0,0,0,269.94,1,-0.002,-0.603,0.0068,0.25,1,0.0068,0,0,0,0,0,0,1,1,0,0,VALID,0,0,0,0,0,1,0,0,0,0,0,0,0,0,0,0,0,0,0,0,129.22,478.61,2,0,0.105,0.105,58,8.57,0.14,0.105,13.69,LANDED,CF1-J,0:/Integrated Flight Computer/aircraft/cf1_j_cfg.ks (inferred preloaded)
14.28,TAKEOFF,TO_GROUND_ROLL,5.82,80,74.18,3.62,62.53,0,0.12,0.16,269.42,-0.042,1,0,0,0,0,0,0,0,0,0,0,0,0,0,0,269.94,0,1,0,-0.05,0,0,0,90,0,0,0,0,0,0,0,0,-0.002,0,0,3,0,0,0,69,0,0,0,0,0,0,,0,NONE,0,0,0,0,0,0,0,0,0,0,0,62.53,0,0,0,0,0,0,0,0,0,269.94,1,-0.002,-0.523,0.0059,0.25,1,0.0059,0,0,0,0,0,0,1,1,0,0,VALID,0,0,0,0,0,1,0,0,0,0,0,0,0,0,0,0,0,0,0,0,135,478.44,2,0,0.105,0.105,61,10.71,0.105,0.07,13.97,LANDED,CF1-J,0:/Integrated Flight Computer/aircraft/cf1_j_cfg.ks (inferred preloaded)
14.63,TAKEOFF,TO_GROUND_ROLL,6.63,80,73.37,3.62,62.53,-0.01,0.12,0.17,269.52,-0.043,1,0,0,0,0,0,0,0,0,0,0,0,0,0,0,269.94,0,1,0,-0.05,0,0,0,90,0,0,0,0,0,0,0,0,-0.003,0,0,3,0,0,0,69,0,0,0,0,0,0,,0,NONE,0,0,0,0,0,0,0,0,0,0,0,62.53,0,0,0,0,0,0,0,0,0,269.94,1,-0.003,-0.42,0.0047,0.25,1,0.0047,0,0,0,0,0,0,1,1,0,0,VALID,0,0,0,0,0,1,0,0,0,0,0,0,0,0,0,0,0,0,0,0,142.08,478.22,2,0,0.105,0.105,64,8.57,0.14,0.105,14.32,LANDED,CF1-J,0:/Integrated Flight Computer/aircraft/cf1_j_cfg.ks (inferred preloaded)
14.91,TAKEOFF,TO_GROUND_ROLL,7.31,80,72.69,3.62,62.53,-0.01,0.13,0.17,269.6,-0.044,1,0,0,0,0,0,0,0,0,0,0,0,0,0,0,269.94,0,1,0,-0.05,0,0,0,90,0,0,0,0,0,0,0,0,-0.003,0,0,3,0,0,0,69,0,0,0,0,0,0,,0,NONE,0,0,0,0,0,0,0,0,0,0,0,62.53,0,0,0,0,0,0,0,0,0,269.94,1,-0.003,-0.344,0.0036,0.25,1,0.0036,0,0,0,0,0,0,1,1,0,0,VALID,0,0,0,0,0,1,0,0,0,0,0,0,0,0,0,0,0,0,0,0,147.63,478.02,2,0,0.105,0.105,67,10.71,0.105,0.07,14.6,LANDED,CF1-J,0:/Integrated Flight Computer/aircraft/cf1_j_cfg.ks (inferred preloaded)
15.26,TAKEOFF,TO_GROUND_ROLL,8.19,80,71.81,3.62,62.52,-0.01,0.13,0.17,269.69,-0.045,1,0,0,0,0,0,0,0,0,0,0,0,0,0,0,269.95,0,1,0,-0.05,0,0,0,90,0,0,0,0,0,0,0,0,-0.004,0,0,3,0,0,0,69,0,0,0,0,0,0,,0,NONE,0,0,0,0,0,0,0,0,0,0,0,62.52,0,0,0,0,0,0,0,0,0,269.95,1,-0.004,-0.258,0.0024,0.25,1,0.0024,0,0,0,0,0,0,1,1,0,0,VALID,0,0,0,0,0,1,0,0,0,0,0,0,0,0,0,0,0,0,0,0,154.42,477.76,2,0,0.105,0.105,70,8.57,0.14,0.105,14.95,LANDED,CF1-J,0:/Integrated Flight Computer/aircraft/cf1_j_cfg.ks (inferred preloaded)
15.54,TAKEOFF,TO_GROUND_ROLL,8.93,80,71.07,3.62,62.52,-0.01,0.13,0.17,269.75,-0.045,1,0,0,0,0,0,0,0,0,0,0,0,0,0,0,269.95,0,1,0,-0.05,0,0,0,90,0,0,0,0,0,0,0,0,-0.004,0,0,3,0,0,0,69,0,0,0,0,0,0,,0,NONE,0,0,0,0,0,0,0,0,0,0,0,62.52,0,0,0,0,0,0,0,0,0,269.95,1,-0.004,-0.196,0.0017,0.25,1,0.0017,0,0,0,0,0,0,1,1,0,0,VALID,0,0,0,0,0,1,0,0,0,0,0,0,0,0,0,0,0,0,0,0,159.74,477.54,2,0,0.105,0.105,73,10.71,0.105,0.07,15.23,LANDED,CF1-J,0:/Integrated Flight Computer/aircraft/cf1_j_cfg.ks (inferred preloaded)
15.89,TAKEOFF,TO_GROUND_ROLL,9.88,80,70.12,3.62,62.52,-0.01,0.13,0.17,269.83,-0.045,1,0,0,0,0,0,0,0,0,0,0,0,0,0,0,269.96,0,1,0,-0.04,0,0,0,90,0,0,0,0,0,0,0,0,-0.004,0,0,3,0,0,0,69,0,0,0,0,0,0,,0,NONE,0,0,0,0,0,0,0,0,0,0,0,62.52,0,0,0,0,0,0,0,0,0,269.96,1,-0.004,-0.13,0.001,0.25,1,0.001,0,0,0,0,0,0,1,1,0,0,VALID,0,0,0,0,0,1,0,0,0,0,0,0,0,0,0,0,0,0,0,0,166.25,477.25,2,0,0.105,0.105,76,8.57,0.14,0.105,15.58,LANDED,CF1-J,0:/Integrated Flight Computer/aircraft/cf1_j_cfg.ks (inferred preloaded)
16.17,TAKEOFF,TO_GROUND_ROLL,10.67,80,69.33,3.62,62.52,-0.01,0.14,0.18,269.88,-0.044,1,0,0,0,0,0,0,0,0,0,0,0,0,0,0,269.96,0,1,0,-0.05,0,0,0,90,0,0,0,0,0,0,0,0,-0.004,0,0,3,0,0,0,69,0,0,0,0,0,0,,0,NONE,0,0,0,0,0,0,0,0,0,0,0,62.52,0,0,0,0,0,0,0,0,0,269.96,1,-0.004,-0.087,0.0006,0.25,1,0.0006,0,0,0,0,0,0,1,1,0,0,VALID,0,0,0,0,0,1,0,0,0,0,0,0,0,0,0,0,0,0,0,0,171.35,476.99,2,0,0.105,0.105,79,10.71,0.105,0.07,15.86,LANDED,CF1-J,0:/Integrated Flight Computer/aircraft/cf1_j_cfg.ks (inferred preloaded)
16.52,TAKEOFF,TO_GROUND_ROLL,11.7,80,68.3,3.62,62.52,-0.01,0.14,0.18,269.92,-0.042,1,0,0,0,0,0,0,0,0,0,0,0,0,0,0,269.97,0,1,0,-0.05,0,0,0,90,0,0,0,0,0,0,0,0,-0.004,0,0,3,0,0,0,69,0,0,0,0,0,0,,0,NONE,0,0,0,0,0,0,0,0,0,0,0,62.52,0,0,0,0,0,0,0,0,0,269.97,1,-0.004,-0.047,0.0003,0.25,1,0.0003,0,0,0,0,0,0,1,1,0,0,VALID,0,0,0,0,0,1,0,0,0,0,0,0,0,0,0,0,0,0,0,0,177.58,476.66,2,0,0.105,0.105,82,8.57,0.14,0.105,16.21,LANDED,CF1-J,0:/Integrated Flight Computer/aircraft/cf1_j_cfg.ks (inferred preloaded)
16.8,TAKEOFF,TO_GROUND_ROLL,12.55,80,67.45,3.62,62.51,-0.01,0.14,0.18,269.95,-0.04,1,0,0,0,0,0,0,0,0,0,0,0,0,0,0,269.98,0,1,0,-0.05,0,0,0,90,0,0,0,0,0,0,0,0,-0.004,0,0,3,0,0,0,69,0,0,0,0,0,0,,0,NONE,0,0,0,0,0,0,0,0,0,0,0,62.51,0,0,0,0,0,0,0,0,0,269.98,1,-0.004,-0.024,0.0002,0.25,1,0.0002,0,0,0,0,0,0,1,1,0,0,VALID,0,0,0,0,0,1,0,0,0,0,0,0,0,0,0,0,0,0,0,0,182.46,476.38,2,0,0.105,0.105,85,10.71,0.105,0.07,16.49,LANDED,CF1-J,0:/Integrated Flight Computer/aircraft/cf1_j_cfg.ks (inferred preloaded)
17.15,TAKEOFF,TO_GROUND_ROLL,13.64,80,66.36,3.62,62.51,-0.01,0.14,0.18,269.98,-0.039,1,0,0,0,0,0,0,0,0,0,0,0,0,0,0,269.98,0,1,0,-0.04,0,0,0,90,0,0,0,0,0,0,0,0,-0.004,0,0,3,0,0,0,69,0,0,0,0,0,0,,0,NONE,0,0,0,0,0,0,0,0,0,0,0,62.51,0,0,0,0,0,0,0,0,0,269.98,1,-0.004,-0.004,0,0.25,1,0,0,0,0,0,0,0,1,1,0,0,VALID,0,0,0,0,0,1,0,0,0,0,0,0,0,0,0,0,0,0,0,0,188.43,476.01,2,0,0.105,0.105,88,8.57,0.14,0.105,16.84,LANDED,CF1-J,0:/Integrated Flight Computer/aircraft/cf1_j_cfg.ks (inferred preloaded)
17.43,TAKEOFF,TO_GROUND_ROLL,14.53,80,65.47,3.62,62.51,-0.01,0.15,0.18,269.99,-0.037,1,0,0,0,0,0,0,0,0,0,0,0,0,0,0,269.99,0,1,0,-0.04,0,0,0,90,0,0,0,0,0,0,0,0,-0.004,0,0,3,0,0,0,69,0,0,0,0,0,0,,0,NONE,0,0,0,0,0,0,0,0,0,0,0,62.51,0,0,0,0,0,0,0,0,0,269.99,1,-0.004,0.003,0,0.25,1,0,0,0,0,0,0,0,1,1,0,0,VALID,0,0,0,0,0,1,0,0,0,0,0,0,0,0,0,0,0,0,0,0,193.1,475.69,2,0,0.105,0.105,91,10.71,0.105,0.07,17.12,LANDED,CF1-J,0:/Integrated Flight Computer/aircraft/cf1_j_cfg.ks (inferred preloaded)
17.78,TAKEOFF,TO_GROUND_ROLL,15.68,80,64.32,3.62,62.5,-0.01,0.15,0.19,270,-0.035,1,0,0,0,0,0,0,0,0,0,0,0,0,0,0,269.99,0,1,0,-0.04,0,0,0,90,0,0,0,0,0,0,0,0,-0.004,0,0,3,0,0,0,69,0,0,0,0,0,0,,0,NONE,0,0,0,0,0,0,0,0,0,0,0,62.5,0,0,0,0,0,0,0,0,0,269.99,1,-0.004,0.005,0,0.25,1,0,0,0,0,0,0,0,1,1,0,0,VALID,0,0,0,0,0,1,0,0,0,0,0,0,0,0,0,0,0,0,0,0,198.81,475.28,2,0,0.105,0.105,94,8.57,0.14,0.105,17.47,LANDED,CF1-J,0:/Integrated Flight Computer/aircraft/cf1_j_cfg.ks (inferred preloaded)
18.06,TAKEOFF,TO_GROUND_ROLL,16.63,80,63.37,3.62,62.5,-0.01,0.15,0.19,270,-0.033,1,0,0,0,0,0,0,0,0,0,0,0,0,0,0,270,0,1,0,-0.04,0,0,-0.01,90,0,0,0,0,0,0,0,0,-0.004,0,0,3,0,0,0,69,0,0,0,0,0,0,,0,NONE,0,0,0,0,0,0,0,0,0,0,0,62.5,0,0,0,0,0,0,0,0,0,270,1,-0.004,0.003,0,0.25,1,0,0,0,0,0,0,0,1,1,0,0,VALID,0,0,0,0,0,1,0,0,0,0,0,0,0,0,0,0,0,0,0,0,203.27,474.93,2,0,0.105,0.105,97,10.71,0.105,0.07,17.75,LANDED,CF1-J,0:/Integrated Flight Computer/aircraft/cf1_j_cfg.ks (inferred preloaded)
18.41,TAKEOFF,TO_GROUND_ROLL,17.84,80,62.16,3.62,62.5,-0.01,0.15,0.19,270,-0.031,1,0,0,0,0,0,0,0,0,0,0,0,0,0,0,270,0,1,0,-0.04,0,0,-0.01,90,0,0,0,0,0,0,0,0,-0.004,0,0,3,0,0,0,69,0,0,0,0,0,0,,0,NONE,0,0,0,0,0,0,0,0,0,0,0,62.5,0,0,0,0,0,0,0,0,0,270,1,-0.004,-0.001,0,0.25,1,0,0,0,0,0,0,0,1,1,0,0,VALID,0,0,0,0,0,1,0,0,0,0,0,0,0,0,0,0,0,0,0,0,208.72,474.48,2,0,0.105,0.105,100,8.57,0.14,0.105,18.1,LANDED,CF1-J,0:/Integrated Flight Computer/aircraft/cf1_j_cfg.ks (inferred preloaded)
18.69,TAKEOFF,TO_GROUND_ROLL,18.83,80,61.17,3.62,62.49,-0.01,0.16,0.19,270,-0.032,1,0,0,0,0,0,0,0,0,0,0,0,0,0,0,270,0,1,0,-0.04,0,0,-0.01,90,0,0,0,0,0,0,0,0,-0.004,0,0,3,0,0,0,69,0,0,0,0,0,0,,0,NONE,0,0,0,0,0,0,0,0,0,0,0,62.49,0,0,0,0,0,0,0,0,0,270,1,-0.004,-0.002,0,0.25,1,0,0,0,0,0,0,0,1,1,0,0,VALID,0,0,0,0,0,1,0,0,0,0,0,0,0,0,0,0,0,0,0,0,212.99,474.09,2,0,0.105,0.105,103,10.71,0.105,0.07,18.38,LANDED,CF1-J,0:/Integrated Flight Computer/aircraft/cf1_j_cfg.ks (inferred preloaded)
19.08,TAKEOFF,TO_GROUND_ROLL,20.1,80,59.9,3.62,62.49,-0.01,0.16,0.19,270,-0.034,1,0,0,0,0,0,0,0,0,0,0,0,0,0,0,269.99,0,1,0,-0.04,0,0,-0.01,90,0,0,0,0,0,0,0,0,-0.004,0,0,3,0,0,0,69,0,0,0,0,0,0,,0,NONE,0,0,0,0,0,0,0,0,0,0,0,62.49,0,0,0,0,0,0,0,0,0,269.99,1,-0.004,0.001,0,0.251,0,0,0,0,0,0,0,0,1,1,0,0,VALID,0,0,0,0,0,1,0,0,0,0,0,0,0,0,0,0,0,0,0,0,218.19,473.59,2,0,0.105,0.105,106,8.57,0.14,0.105,18.73,LANDED,CF1-J,0:/Integrated Flight Computer/aircraft/cf1_j_cfg.ks (inferred preloaded)
19.36,TAKEOFF,TO_GROUND_ROLL,21.14,80,58.86,3.62,62.49,-0.01,0.16,0.2,269.99,-0.033,1,0,0,0,0,0,0,0,0,0,0,0,0,0,0,270,0,1,0,-0.04,0,0,-0.01,90,0,0,0,0,0,0,0,0,-0.004,0,0,3,0,0,0,69,0,0,0,0,0,0,,0,NONE,0,0,0,0,0,0,0,0,0,0,0,62.49,0,0,0,0,0,0,0,0,0,270,1,-0.004,-0.016,0.0001,0.262,0,0.0001,0,0,0,0,0,0,1,1,0,0,VALID,0,0,0,0,0,1,0,0,0,0,0,0,0,0,0,0,0,0,0,0,222.26,473.18,2,0,0.105,0.105,109,10.71,0.105,0.07,19.01,LANDED,CF1-J,0:/Integrated Flight Computer/aircraft/cf1_j_cfg.ks (inferred preloaded)
19.71,TAKEOFF,TO_GROUND_ROLL,22.46,80,57.54,3.63,62.48,-0.02,0.16,0.2,269.98,-0.03,1,0,0,0,0,0,0,0,0,0,0,0,0,0,0,270,0,1,0,-0.04,0,0,-0.01,90,0,0,0,0,0,0,0,0,-0.005,0,0,3,0,0,0,69,0,0,0,0,0,0,,0,NONE,0,0,0,0,0,0,0,0,0,0,0,62.48,0,0,0,0,0,0,0,0,0,270,1,-0.005,-0.018,0.0001,0.276,0,0.0001,0,0,0,0,0,0,1,1,0,0,VALID,0,0,0,0,0,1,0,0,0,0,0,0,0,0,0,0,0,0,0,0,227.22,472.63,2,0,0.105,0.105,112,8.57,0.14,0.105,19.36,LANDED,CF1-J,0:/Integrated Flight Computer/aircraft/cf1_j_cfg.ks (inferred preloaded)
19.99,TAKEOFF,TO_GROUND_ROLL,23.54,80,56.46,3.63,62.48,-0.02,0.17,0.2,269.98,-0.03,1,0,0,0,0,0,0,0,0,0,0,0,0,0,0,270,0,1,0,-0.04,0,0,-0.01,90,0,0,0,0,0,0,0,0,-0.005,0,0,3,0,0,0,69,0,0,0,0,0,0,,0,NONE,0,0,0,0,0,0,0,0,0,0,0,62.48,0,0,0,0,0,0,0,0,0,270,1,-0.005,-0.02,0.0001,0.288,0,0.0001,0,0,0,0,0,0,1,1,0,0,VALID,0,0,0,0,0,1,0,0,0,0,0,0,0,0,0,0,0,0,0,0,231.09,472.18,2,0,0.105,0.105,115,10.71,0.105,0.07,19.64,LANDED,CF1-J,0:/Integrated Flight Computer/aircraft/cf1_j_cfg.ks (inferred preloaded)
20.34,TAKEOFF,TO_GROUND_ROLL,24.91,80,55.09,3.63,62.47,-0.02,0.17,0.2,269.98,-0.034,1,0,0,0,0,0,0,0,0,0,0,0,0,0,0,269.99,0,1,0,-0.04,0,0,-0.01,90,0,0,0,0,0,0,0,0,-0.005,0,0,3,0,0,0,69,0,0,0,0,0,0,,0,NONE,0,0,0,0,0,0,0,0,0,0,0,62.47,0,0,0,0,0,0,0,0,0,269.99,1,-0.005,-0.012,0.0001,0.303,0,0.0001,0,0,0,0,0,0,1,1,0,0,VALID,0,0,0,0,0,1,0,0,0,0,0,0,0,0,0,0,0,0,0,0,235.81,471.59,2,0,0.105,0.105,118,8.57,0.14,0.105,19.99,LANDED,CF1-J,0:/Integrated Flight Computer/aircraft/cf1_j_cfg.ks (inferred preloaded)
20.62,TAKEOFF,TO_GROUND_ROLL,26.02,80,53.98,3.63,62.47,-0.02,0.17,0.2,269.98,-0.038,1,0,0,0,0,0,0,0,0,0,0,0,0,0,0,269.99,0,1,0,-0.03,0,0,-0.01,90,0,0,0,0,0,0,0,0,-0.005,0,0,3,0,0,0,69,0,0,0,0,0,0,,0,NONE,0,0,0,0,0,0,0,0,0,0,0,62.47,0,0,0,0,0,0,0,0,0,269.99,1,-0.005,-0.007,0.0001,0.315,0,0.0001,0,0,0,0,0,0,1,1,0,0,VALID,0,0,0,0,0,1,0,0,0,0,0,0,0,0,0,0,0,0,0,0,239.5,471.1,2,0,0.105,0.105,121,10.71,0.105,0.07,20.27,LANDED,CF1-J,0:/Integrated Flight Computer/aircraft/cf1_j_cfg.ks (inferred preloaded)
20.97,TAKEOFF,TO_GROUND_ROLL,27.44,80,52.56,3.63,62.46,-0.02,0.18,0.21,269.98,-0.037,1,0,0,0,0,0,0,0,0,0,0,0,0,0,0,270,0,1,0,-0.03,0,0,-0.01,90,0,0,0,0,0,0,0,0,-0.005,0,0,3,0,0,0,69,0,0,0,0,0,0,,0,NONE,0,0,0,0,0,0,0,0,0,0,0,62.46,0,0,0,0,0,0,0,0,0,270,1,-0.005,-0.018,0.0002,0.33,0,0.0002,0,0,0,0,0,0,1,1,0,0,VALID,0,0,0,0,0,1,0,0,0,0,0,0,0,0,0,0,0,0,0,0,243.99,470.46,2,0,0.105,0.105,124,8.57,0.14,0.105,20.62,LANDED,CF1-J,0:/Integrated Flight Computer/aircraft/cf1_j_cfg.ks (inferred preloaded)
21.25,TAKEOFF,TO_GROUND_ROLL,28.6,80,51.4,3.63,62.46,-0.02,0.18,0.21,269.98,-0.032,1,0,0,0,0,0,0,0,0,0,0,0,0,0,0,270,0,1,0,-0.03,0,0,-0.01,90,0,0,0,0,0,0,0,0,-0.005,0,0,3,0,0,0,69,0,0,0,0,0,0,,0,NONE,0,0,0,0,0,0,0,0,0,0,0,62.46,0,0,0,0,0,0,0,0,0,270,1,-0.005,-0.02,0.0002,0.342,0,0.0002,0,0,0,0,0,0,1,1,0,0,VALID,0,0,0,0,0,1,0,0,0,0,0,0,0,0,0,0,0,0,0,0,247.49,469.94,2,0,0.105,0.105,127,10.71,0.105,0.07,20.9,LANDED,CF1-J,0:/Integrated Flight Computer/aircraft/cf1_j_cfg.ks (inferred preloaded)
21.6,TAKEOFF,TO_GROUND_ROLL,30.06,80,49.94,3.63,62.45,-0.02,0.18,0.21,269.98,-0.03,1,0,0,0,0,0,0,0,0,0,0,0,0,0,0,269.99,0,1,0,-0.03,0,0,-0.01,90,0,0,0,0,0,0,0,0,-0.005,0,0,3,0,0,0,69,0,0,0,0,0,0,,0,NONE,0,0,0,0,0,0,0,0,0,0,0,62.45,0,0,0,0,0,0,0,0,0,269.99,1,-0.005,-0.017,0.0002,0.358,0,0.0002,0,0,0,0,0,0,1,1,0,0,VALID,0,0,0,0,0,1,0,0,0,0,0,0,0,0,0,0,0,0,0,0,251.75,469.25,2,0,0.105,0.105,130,8.57,0.14,0.105,21.25,LANDED,CF1-J,0:/Integrated Flight Computer/aircraft/cf1_j_cfg.ks (inferred preloaded)
21.88,TAKEOFF,TO_GROUND_ROLL,31.25,80,48.75,3.63,62.45,-0.02,0.18,0.21,269.98,-0.034,1,0,0,0,0,0,0,0,0,0,0,0,0,0,0,269.99,0,1,0,-0.03,0,0,-0.01,90,0,0,0,0,0,0,0,0,-0.005,0,0,3,0,0,0,69,0,0,0,0,0,0,,0,NONE,0,0,0,0,0,0,0,0,0,0,0,62.45,0,0,0,0,0,0,0,0,0,269.99,1,-0.005,-0.012,0.0001,0.37,0,0.0001,0,0,0,0,0,0,1,1,0,0,VALID,0,0,0,0,0,1,0,0,0,0,0,0,0,0,0,0,0,0,0,0,255.08,468.69,2,0,0.105,0.105,133,10.71,0.105,0.07,21.53,LANDED,CF1-J,0:/Integrated Flight Computer/aircraft/cf1_j_cfg.ks (inferred preloaded)
22.23,TAKEOFF,TO_GROUND_ROLL,32.75,80,47.25,3.63,62.45,-0.02,0.19,0.21,269.98,-0.041,1,0,0,0,0,0,0,0,0,0,0,0,0,0,0,269.99,0,1,0,-0.03,0,0,-0.02,90,0,0,0,0,0,0,0,0,-0.005,0,0,3,0,0,0,69,0,0,0,0,0,0,,0,NONE,0,0,0,0,0,0,0,0,0,0,0,62.45,0,0,0,0,0,0,0,0,0,269.99,1,-0.005,-0.009,0.0001,0.387,0,0.0001,0,0,0,0,0,0,1,1,0,0,VALID,0,0,0,0,0,1,0,0,0,0,0,0,0,0,0,0,0,0,0,0,259.12,467.96,2,0,0.105,0.105,136,8.57,0.14,0.105,21.88,LANDED,CF1-J,0:/Integrated Flight Computer/aircraft/cf1_j_cfg.ks (inferred preloaded)
22.51,TAKEOFF,TO_GROUND_ROLL,33.97,80,46.03,3.63,62.44,-0.02,0.19,0.22,269.99,-0.04,1,0,0,0,0,0,0,0,0,0,0,0,0,0,0,270,0,1,0,-0.03,0,0,-0.02,90,0,0,0,0,0,0,0,0,-0.005,0,0,3,0,0,0,69,0,0,0,0,0,0,,0,NONE,0,0,0,0,0,0,0,0,0,0,0,62.44,0,0,0,0,0,0,0,0,0,270,1,-0.005,-0.01,0.0001,0.4,0,0.0001,0,0,0,0,0,0,1,1,0,0,VALID,0,0,0,0,0,1,0,0,0,0,0,0,0,0,0,0,0,0,0,0,262.27,467.36,2,0,0.105,0.105,139,10.71,0.105,0.07,22.16,LANDED,CF1-J,0:/Integrated Flight Computer/aircraft/cf1_j_cfg.ks (inferred preloaded)
22.86,TAKEOFF,TO_GROUND_ROLL,35.52,80,44.48,3.63,62.44,-0.02,0.2,0.22,269.98,-0.034,1,0,0,0,0,0,0,0,0,0,0,0,0,0,0,270,0,1,0,-0.03,0,0,-0.02,90,0,0,0,0,0,0,0,0,-0.005,0,0,3,0,0,0,69,0,0,0,0,0,0,,0,NONE,0,0,0,0,0,0,0,0,0,0,0,62.44,0,0,0,0,0,0,0,0,0,270,1,-0.005,-0.013,0.0001,0.416,0,0.0001,0,0,0,0,0,0,1,1,0,0,VALID,0,0,0,0,0,1,0,0,0,0,0,0,0,0,0,0,0,0,0,0,266.1,466.59,2,0,0.105,0.105,142,8.57,0.14,0.105,22.51,LANDED,CF1-J,0:/Integrated Flight Computer/aircraft/cf1_j_cfg.ks (inferred preloaded)
23.14,TAKEOFF,TO_GROUND_ROLL,36.77,80,43.23,3.63,62.43,-0.02,0.2,0.22,269.98,-0.03,1,0,0,0,0,0,0,0,0,0,0,0,0,0,0,270,0,1,0,-0.03,0,0,-0.02,90,0,0,0,0,0,0,0,0,-0.005,0,0,3,0,0,0,69,0,0,0,0,0,0,,0,NONE,0,0,0,0,0,0,0,0,0,0,0,62.43,0,0,0,0,0,0,0,0,0,270,1,-0.005,-0.014,0.0002,0.43,0,0.0002,0,0,0,0,0,0,1,1,0,0,VALID,0,0,0,0,0,1,0,0,0,0,0,0,0,0,0,0,0,0,0,0,269.07,465.95,2,0,0.105,0.105,145,10.71,0.105,0.07,22.79,LANDED,CF1-J,0:/Integrated Flight Computer/aircraft/cf1_j_cfg.ks (inferred preloaded)
23.49,TAKEOFF,TO_GROUND_ROLL,38.35,80,41.65,3.63,62.43,-0.02,0.2,0.22,269.98,-0.031,1,0,0,0,0,0,0,0,0,0,0,0,0,0,0,270,0,1,0,-0.02,0,0,-0.02,90,0,0,0,0,0,0,0,0,-0.005,0,0,3,0,0,0,69,0,0,0,0,0,0,,0,NONE,0,0,0,0,0,0,0,0,0,0,0,62.43,0,0,0,0,0,0,0,0,0,270,1,-0.005,-0.023,0.0003,0.447,0,0.0003,0,0,0,0,0,0,1,1,0,0,VALID,0,0,0,0,0,1,0,0,0,0,0,0,0,0,0,0,0,0,0,0,272.69,465.13,2,0,0.105,0.105,148,8.57,0.14,0.105,23.14,LANDED,CF1-J,0:/Integrated Flight Computer/aircraft/cf1_j_cfg.ks (inferred preloaded)
23.77,TAKEOFF,TO_GROUND_ROLL,39.62,80,40.38,3.63,62.42,-0.02,0.21,0.23,269.97,-0.032,1,0,0,0,0,0,0,0,0,0,0,0,0,0,0,270,0,1,0,-0.02,0,0,-0.02,90,0,0,0,0,0,0,0,0,-0.005,0,0,3,0,0,0,69,0,0,0,0,0,0,,0,NONE,0,0,0,0,0,0,0,0,0,0,0,62.42,0,0,0,0,0,0,0,0,0,270,1,-0.005,-0.027,0.0003,0.46,0,0.0003,0,0,0,0,0,0,1,1,0,0,VALID,0,0,0,0,0,1,0,0,0,0,0,0,0,0,0,0,0,0,0,0,275.51,464.46,2,0,0.105,0.105,151,10.71,0.105,0.07,23.42,LANDED,CF1-J,0:/Integrated Flight Computer/aircraft/cf1_j_cfg.ks (inferred preloaded)
24.12,TAKEOFF,TO_GROUND_ROLL,41.24,80,38.76,3.63,62.42,-0.02,0.21,0.23,269.97,-0.034,1,0,0,0,0,0,0,0,0,0,0,0,0,0,0,269.99,0,1,0,-0.02,0,0,-0.02,90,0,0,0,0,0,0,0,0,-0.006,0,0,3,0,0,0,69,0,0,0,0,0,0,,0,NONE,0,0,0,0,0,0,0,0,0,0,0,62.42,0,0,0,0,0,0,0,0,0,269.99,1,-0.006,-0.026,0.0003,0.478,0,0.0003,0,0,0,0,0,0,1,1,0,0,VALID,0,0,0,0,0,1,0,0,0,0,0,0,0,0,0,0,0,0,0,0,278.92,463.6,2,0,0.105,0.105,154,8.57,0.14,0.105,23.77,LANDED,CF1-J,0:/Integrated Flight Computer/aircraft/cf1_j_cfg.ks (inferred preloaded)
24.4,TAKEOFF,TO_GROUND_ROLL,42.54,80,37.46,3.63,62.41,-0.01,0.21,0.23,269.97,-0.036,1,0,0,0,0,0,0,0,0,0,0,0,0,0,0,269.99,0,1,0,-0.02,0,0,-0.02,90,0,0,0,0,0,0,0,0,-0.006,0,0,3,0,0,0,69,0,0,0,0,0,0,,0,NONE,0,0,0,0,0,0,0,0,0,0,0,62.41,0,0,0,0,0,0,0,0,0,269.99,1,-0.006,-0.026,0.0003,0.492,0,0.0003,0,0,0,0,0,0,1,1,0,0,VALID,0,0,0,0,0,1,0,0,0,0,0,0,0,0,0,0,0,0,0,0,281.58,462.89,2,0,0.105,0.105,157,10.71,0.105,0.07,24.05,LANDED,CF1-J,0:/Integrated Flight Computer/aircraft/cf1_j_cfg.ks (inferred preloaded)
24.75,TAKEOFF,TO_GROUND_ROLL,44.19,80,35.81,3.63,62.41,-0.01,0.22,0.24,269.97,-0.038,1,0,0,0,0,0,0,0,0,0,0,0,0,0,0,269.99,0,1,0,-0.02,0,0,-0.03,90,0,0,0,0,0,0,0,0,-0.006,0,0,3,0,0,0,69,0,0,0,0,0,0,,0,NONE,0,0,0,0,0,0,0,0,0,0,0,62.41,0,0,0,0,0,0,0,0,0,269.99,1,-0.006,-0.022,0.0003,0.509,0,0.0003,0,0,0,0,0,0,1,1,0,0,VALID,0,0,0,0,0,1,0,0,0,0,0,0,0,0,0,0,0,0,0,0,284.79,461.99,2,0,0.105,0.105,160,8.57,0.14,0.105,24.4,LANDED,CF1-J,0:/Integrated Flight Computer/aircraft/cf1_j_cfg.ks (inferred preloaded)
25.03,TAKEOFF,TO_GROUND_ROLL,45.52,80,34.48,3.64,62.41,-0.01,0.22,0.24,269.97,-0.038,1,0,0,0,0,0,0,0,0,0,0,0,0,0,0,269.99,0,1,0,-0.02,0,0,-0.03,90,0,0,0,0,0,0,0,0,-0.006,0,0,3,0,0,0,69,0,0,0,0,0,0,,0,NONE,0,0,0,0,0,0,0,0,0,0,0,62.41,0,0,0,0,0,0,0,0,0,269.99,1,-0.006,-0.024,0.0003,0.523,0,0.0003,0,0,0,0,0,0,1,1,0,0,VALID,0,0,0,0,0,1,0,0,0,0,0,0,0,0,0,0,0,0,0,0,287.29,461.25,2,0,0.105,0.105,163,10.71,0.105,0.07,24.68,LANDED,CF1-J,0:/Integrated Flight Computer/aircraft/cf1_j_cfg.ks (inferred preloaded)
25.38,TAKEOFF,TO_GROUND_ROLL,47.19,80,32.81,3.64,62.4,-0.01,0.23,0.24,269.97,-0.037,1,0,0,0,0,0,0,0,0,0,0,0,0,0,0,269.99,0,1,0,-0.01,0,0,-0.03,90,0,0,0,0,0,0,0,0,-0.006,0,0,3,0,0,0,69,0,0,0,0,0,0,,0,NONE,0,0,0,0,0,0,0,0,0,0,0,62.4,0,0,0,0,0,0,0,0,0,269.99,1,-0.006,-0.023,0.0003,0.541,0,0.0003,0,0,0,0,0,0,1,1,0,0,VALID,0,0,0,0,0,1,0,0,0,0,0,0,0,0,0,0,0,0,0,0,290.32,460.31,2,0,0.105,0.105,166,8.57,0.14,0.105,25.03,LANDED,CF1-J,0:/Integrated Flight Computer/aircraft/cf1_j_cfg.ks (inferred preloaded)
25.66,TAKEOFF,TO_GROUND_ROLL,48.54,80,31.46,3.64,62.4,-0.01,0.24,0.25,269.97,-0.035,1,0,0,0,0,0,0,0,0,0,0,0,0,0,0,269.99,0,1,0,-0.01,0,0,-0.03,90,0,0,0,0,0,0,0,0,-0.006,0,0,3,0,0,0,69,0,0,0,0,0,0,,0,NONE,0,0,0,0,0,0,0,0,0,0,0,62.4,0,0,0,0,0,0,0,0,0,269.99,1,-0.006,-0.025,0.0004,0.556,0,0.0004,0,0,0,0,0,0,1,1,0,0,VALID,0,0,0,0,0,1,0,0,0,0,0,0,0,0,0,0,0,0,0,0,292.66,459.53,2,0,0.105,0.105,169,10.71,0.105,0.07,25.31,LANDED,CF1-J,0:/Integrated Flight Computer/aircraft/cf1_j_cfg.ks (inferred preloaded)
26.01,TAKEOFF,TO_GROUND_ROLL,50.24,80,29.76,3.65,62.41,-0.01,0.28,0.29,269.97,-0.035,1,0,0,0,0,0,0,0,0,0,0,0,0,0,0,270,0,1,0,-0.01,0,0,-0.03,90,0,0,0,0,0,0,0,0,-0.007,0,0,3,0,0,0,69,0,0,0,0,0,0,,0,NONE,0,0,0,0,0,0,0,0,0,0,0,62.41,0,0,0,0,0,0,0,0,0,270,1,-0.007,-0.028,0.0004,0.574,0,0.0004,0,0,0,0,0,0,1,1,0,0,VALID,0,0,0,0,0,1,0,0,0,0,0,0,0,0,0,0,0,0,0,0,295.51,458.55,2,0,0.105,0.105,172,8.57,0.14,0.105,25.66,LANDED,CF1-J,0:/Integrated Flight Computer/aircraft/cf1_j_cfg.ks (inferred preloaded)
26.29,TAKEOFF,TO_GROUND_ROLL,51.61,80,28.39,3.66,62.41,0,0.33,0.34,269.96,-0.035,1,0,0,0,0,0,0,0,0,0,0,0,0,0,0,270,0,1,0,0,0,0,-0.03,90,0,0,0,0,0,0,0,0,-0.007,0,0,3,0,0,0,69,0,0,0,0,0,0,,0,NONE,0,0,0,0,0,0,0,0,0,0,0,62.41,0,0,0,0,0,0,0,0,0,270,1,-0.007,-0.031,0.0005,0.589,0,0.0005,0,0,0,0,0,0,1,1,0,0,VALID,0,0,0,0,0,1,0,0,0,0,0,0,0,0,0,0,0,0,0,0,297.71,457.75,2,0,0.105,0.105,175,10.71,0.105,0.07,25.94,LANDED,CF1-J,0:/Integrated Flight Computer/aircraft/cf1_j_cfg.ks (inferred preloaded)
26.64,TAKEOFF,TO_GROUND_ROLL,53.33,80,26.67,3.69,62.44,0.04,0.44,0.4,269.96,-0.035,1,0,0,0,0,0,0,0,0,0,0,0,0,0,0,269.99,0,1,0,0.04,0,0,-0.04,90,0,0,0,0,0,0,0,0,-0.007,0,0,3,0,0,0,69,0,0,0,0,0,0,,0,NONE,0,0,0,0,0,0,0,0,0,0,0,62.44,0,0,0,0,0,0,0,0,0,269.99,1,-0.007,-0.031,0.0005,0.607,0,0.0005,0,0,0,0,0,0,1,1,0,0,VALID,0,0,0,0,0,1,0,0,0,0,0,0,0,0,0,0,0,0,0,0,300.37,456.73,2,0,0.105,0.105,178,8.57,0.14,0.105,26.29,LANDED,CF1-J,0:/Integrated Flight Computer/aircraft/cf1_j_cfg.ks (inferred preloaded)
26.92,TAKEOFF,TO_GROUND_ROLL,54.71,80,25.29,3.71,62.46,0.02,0.58,0.56,269.96,-0.033,1,0,0,0,0,0,0,0,0,0,0,0,0,0,0,269.99,0,1,0,0.02,0,0,-0.04,90,0,0,0,0,0,0,0,0,-0.007,0,0,3,0,0,0,69,0,0,0,0,0,0,,0,NONE,0,0,0,0,0,0,0,0,0,0,0,62.46,0,0,0,0,0,0,0,0,0,269.99,1,-0.007,-0.037,0.0006,0.622,0,0.0006,0,0,0,0,0,0,1,1,0,0,VALID,0,0,0,0,0,1,0,0,0,0,0,0,0,0,0,0,0,0,0,0,302.43,455.9,2,0,0.105,0.105,181,10.71,0.105,0.07,26.57,LANDED,CF1-J,0:/Integrated Flight Computer/aircraft/cf1_j_cfg.ks (inferred preloaded)
27.27,TAKEOFF,TO_GROUND_ROLL,56.45,80,23.55,3.74,62.49,0,0.75,0.75,269.95,-0.034,1,0,0,0,0,0,0,0,0,0,0,0,0,0,0,270,0,1,0,0,0,0,-0.04,90,0,0,0,0,0,0,0,0,-0.008,0,0,3,0,0,0,69,0,0,0,0,0,0,,0,NONE,0,0,0,0,0,0,0,0,0,0,0,62.49,0,0,0,0,0,0,0,0,0,270,1,-0.008,-0.042,0.0007,0.641,0,0.0007,0,0,0,0,0,0,1,1,0,0,VALID,0,0,0,0,0,1,0,0,0,0,0,0,0,0,0,0,0,0,0,0,304.92,454.85,2,0,0.105,0.105,184,8.57,0.14,0.105,26.92,LANDED,CF1-J,0:/Integrated Flight Computer/aircraft/cf1_j_cfg.ks (inferred preloaded)
27.55,TAKEOFF,TO_GROUND_ROLL,57.85,80,22.15,3.76,62.51,0,0.84,0.84,269.95,-0.034,1,0,0,0,0,0,0,0,0,0,0,0,0,0,0,269.99,0,1,0,0,0,0,-0.04,90,0,0,0,0,0,0,0,0,-0.008,0,0,3,0,0,0,69,0,0,0,0,0,0,,0,NONE,0,0,0,0,0,0,0,0,0,0,0,62.51,0,0,0,0,0,0,0,0,0,269.99,1,-0.008,-0.044,0.0008,0.656,0,0.0008,0,0,0,0,0,0,1,1,0,0,VALID,0,0,0,0,0,1,0,0,0,0,0,0,0,0,0,0,0,0,0,0,306.85,454,2,0,0.105,0.105,187,10.71,0.105,0.07,27.2,LANDED,CF1-J,0:/Integrated Flight Computer/aircraft/cf1_j_cfg.ks (inferred preloaded)
27.9,TAKEOFF,TO_GROUND_ROLL,59.61,80,20.39,3.77,62.52,0,0.92,0.91,269.95,-0.035,1,0,0,0,0,0,0,0,0,0,0,0,0,0,0,269.99,0,1,0,0,0,0,-0.04,90,0,0,0,0,0,0,0,0,-0.008,0,0,3,0,0,0,69,0,0,0,0,0,0,,0,NONE,0,0,0,0,0,0,0,0,0,0,0,62.52,0,0,0,0,0,0,0,0,0,269.99,1,-0.008,-0.049,0.0009,0.674,0,0.0009,0,0,0,0,0,0,1,1,0,0,VALID,0,0,0,0,0,1,0,0,0,0,0,0,0,0,0,0,0,0,0,0,309.18,452.92,2,0,0.105,0.105,190,8.57,0.14,0.105,27.55,LANDED,CF1-J,0:/Integrated Flight Computer/aircraft/cf1_j_cfg.ks (inferred preloaded)
28.18,TAKEOFF,TO_GROUND_ROLL,61.02,80,18.98,3.78,62.53,0,0.96,0.95,269.94,-0.034,1,0,0,0,0,0,0,0,0,0,0,0,0,0,0,269.99,0,1,0,0,0,0,-0.04,90,0,0,0,0,0,0,0,0,-0.009,0,0,3,0,0,0,69,0,0,0,0,0,0,,0,NONE,0,0,0,0,0,0,0,0,0,0,0,62.53,0,0,0,0,0,0,0,0,0,269.99,1,-0.009,-0.052,0.001,0.689,0,0.001,0,0,0,0,0,0,1,1,0,0,VALID,0,0,0,0,0,1,0,0,0,0,0,0,0,0,0,0,0,0,0,0,310.97,452.04,2,0,0.105,0.105,193,10.71,0.105,0.07,27.83,LANDED,CF1-J,0:/Integrated Flight Computer/aircraft/cf1_j_cfg.ks (inferred preloaded)
28.53,TAKEOFF,TO_GROUND_ROLL,62.78,80,17.22,3.79,62.54,0.01,1.01,1.01,269.94,-0.034,1,0,0,0,0,0,0,0,0,0,0,0,0,0,0,269.99,0,1,0,0.01,0,0,-0.05,90,0,0,0,0,0,0,0,0,-0.009,0,0,3,0,0,0,69,0,0,0,0,0,0,,0,NONE,0,0,0,0,0,0,0,0,0,0,0,62.54,0,0,0,0,0,0,0,0,0,269.99,1,-0.009,-0.057,0.0011,0.708,0,0.0011,0,0,0,0,0,0,1,1,0,0,VALID,0,0,0,0,0,1,0,0,0,0,0,0,0,0,0,0,0,0,0,0,313.14,450.94,2,0,0.105,0.105,196,8.57,0.14,0.105,28.18,LANDED,CF1-J,0:/Integrated Flight Computer/aircraft/cf1_j_cfg.ks (inferred preloaded)
28.81,TAKEOFF,TO_GROUND_ROLL,64.2,80,15.8,3.8,62.55,0.01,1.08,1.07,269.93,-0.034,1,0,0,0,0,0,0,0,0,0,0,0,0,0,0,269.99,0,1,0,0.01,0,0,-0.05,90,0,0,0,0,0,0,0,0,-0.01,0,0,3,0,0,0,69,0,0,0,0,0,0,,0,NONE,0,0,0,0,0,0,0,0,0,0,0,62.55,0,0,0,0,0,0,0,0,0,269.99,1,-0.01,-0.062,0.0013,0.724,0,0.0013,0,0,0,0,0,0,1,1,0,0,VALID,0,0,0,0,0,1,0,0,0,0,0,0,0,0,0,0,0,0,0,0,314.82,450.05,2,0,0.105,0.105,199,10.71,0.105,0.07,28.46,LANDED,CF1-J,0:/Integrated Flight Computer/aircraft/cf1_j_cfg.ks (inferred preloaded)
29.16,TAKEOFF,TO_GROUND_ROLL,65.98,80,14.02,3.82,62.57,0.02,1.19,1.17,269.93,-0.035,1,0,0,0,0,0,0,0,0,0,0,0,0,0,0,269.99,0,1,0,0.01,0,0,-0.05,90,0,0,0,0,0,0,0,0,-0.01,0,0,3,0,0,0,69,0,0,0,0,0,0,,0,NONE,0,0,0,0,0,0,0,0,0,0,0,62.57,0,0,0,0,0,0,0,0,0,269.99,1,-0.01,-0.065,0.0014,0.743,0,0.0014,0,0,0,0,0,0,1,1,0,0,VALID,0,0,0,0,0,1,0,0,0,0,0,0,0,0,0,0,0,0,0,0,316.84,448.92,2,0,0.105,0.105,202,8.57,0.14,0.105,28.81,LANDED,CF1-J,0:/Integrated Flight Computer/aircraft/cf1_j_cfg.ks (inferred preloaded)
29.44,TAKEOFF,TO_GROUND_ROLL,67.4,80,12.6,3.84,62.59,0.02,1.28,1.27,269.92,-0.036,1,0,0,0,0,0,0,0,0,0,0,0,0,0,0,269.99,0,1,0,0.02,0,0,-0.05,90,0,0,0,0,0,0,0,0,-0.011,0,0,3,0,0,0,69,0,0,0,0,0,0,,0,NONE,0,0,0,0,0,0,0,0,0,0,0,62.59,0,0,0,0,0,0,0,0,0,269.99,1,-0.011,-0.069,0.0015,0.758,0,0.0015,0,0,0,0,0,0,1,1,0,0,VALID,0,0,0,0,0,1,0,0,0,0,0,0,0,0,0,0,0,0,0,0,318.4,448.01,2,0,0.105,0.105,205,10.71,0.105,0.07,29.09,LANDED,CF1-J,0:/Integrated Flight Computer/aircraft/cf1_j_cfg.ks (inferred preloaded)
29.68,TAKEOFF,TO_ROTATE,68.83,80,11.17,3.85,62.61,0.02,1.36,1.34,269.92,-0.036,1,0,0,0,0,0,0,0,0,0,0,0,0,0,0,269.99,1.642,1,0,0.02,0,0,-0.05,90,0,0,0,0,0,0,0,0,-0.011,0,0,3,0,0,0,69,0,0,0,0,0,0,,0,NONE,0,0,0,0,0,0,0,0.12,0,0,0,62.61,0,0,0,0,0,0,0,0,0,269.99,1,-0.011,-0.072,0.0016,0.771,0,0.0016,0,0.12,1.642,0.283,0.08,0,1,1,0,0,VALID,0,0,0,0,0,1,0,0,0,0,0,0,0,0,0,0,0,0,0,0,319.91,447.09,2,0,0.105,0.105,207,7.14,0.14,0.105,29.33,LANDED,CF1-J,0:/Integrated Flight Computer/aircraft/cf1_j_cfg.ks (inferred preloaded)
30.03,TAKEOFF,TO_ROTATE,70.61,80,9.39,3.87,62.63,0.02,1.43,1.42,269.92,-0.037,1,0,0,0,0,0,0,0,0,0,0,0,0,0,0,269.99,2.692,1,0,0.02,0,0,-0.06,90,0,0,0,0,0,0,0,0,-0.012,0,0,3,0,0,0,69,0,0,0,0,0,0,,0,NONE,0,0,0,0,0,0,0,0.1808,0,0,0,62.63,0,0,0,0,0,0,0,0,0,269.99,1,-0.012,-0.074,0.0017,0.79,0,0.0017,0,0.1808,2.692,1.26,0.08,0,1,1,0,0,VALID,0,0,0,0,0,1,0,0,0,0,0,0,0,0,0,0,0,0,0,0,321.73,445.94,2,0,0.105,0.105,210,8.57,0.14,0.105,29.68,LANDED,CF1-J,0:/Integrated Flight Computer/aircraft/cf1_j_cfg.ks (inferred preloaded)
30.38,TAKEOFF,TO_ROTATE,72.39,80,7.61,3.87,62.64,0.03,1.46,1.44,269.91,-0.037,1,0,0,0,0,0,0,0,0,0,0,0,0,0,0,269.99,3.742,1,0,0.02,0,0,-0.06,90,0,0,0,0,0,0,0,0,-0.013,0,0,3,0,0,0,69,0,0,0,0,0,0,,0,NONE,0,0,0,0,0,0,0,0.2627,0,0,0,62.64,0,0,0,0,0,0,0,0,0,269.99,1,-0.013,-0.078,0.0018,0.809,0,0.0018,0,0.2627,3.742,2.284,0.08,0,1,1,0,0,VALID,0,0,0,0,0,1,0,0,0,0,0,0,0,0,0,0,0,0,0,0,323.47,444.78,2,0,0.105,0.105,213,8.57,0.14,0.105,30.03,LANDED,CF1-J,0:/Integrated Flight Computer/aircraft/cf1_j_cfg.ks (inferred preloaded)
30.77,TAKEOFF,TO_ROTATE,74.36,80,5.64,3.9,62.68,0.05,1.61,1.57,269.91,-0.041,1,0,0,0,0,0,0,0,0,0,0,0,0,0,0,269.99,4.897,1,0,0.04,0,0,-0.06,90,0,0,0,0,0,0,0,0,-0.014,0,0,3,0,0,0,69,0,0,0,0,0,0,,0,NONE,0,0,0,0,0,0,0,0.3434,0,0,0,62.68,0,0,0,0,0,0,0,0,0,269.99,1,-0.014,-0.08,0.0019,0.83,0,0.0019,0,0.3434,4.897,3.292,0.08,0,1,1,0,0,VALID,0,0,0,0,0,1,0,0,0,0,0,0,0,0,0,0,0,0,0,0,325.3,443.5,2,0,0.14,0.14,216,7.79,0.14,0.105,30.42,LANDED,CF1-J,0:/Integrated Flight Computer/aircraft/cf1_j_cfg.ks (inferred preloaded)
31.12,TAKEOFF,TO_ROTATE,76.14,80,3.86,3.99,62.78,0.11,2.01,1.94,269.91,-0.051,1,0,0,0,0,0,0,0,0,0,0,0,0,0,0,269.99,5.947,1,0,0.07,0,0,-0.06,90,0,0,0,0,0,0,0,0,-0.015,0,0,3,0,0,0,69,0,0,0,0,0,0,,0,NONE,0,0,0,0,0,0,0,0.3948,0,0,0,62.78,0,0,0,0,0,0,0,0,0,269.99,1,-0.015,-0.082,0.002,0.85,0,0.002,0,0.3948,5.947,3.935,0.08,0,1,1,0,0,VALID,0,0,0,0,0,1,0,0,0,0,0,0,0,0,0,0,0,0,0,0,326.9,442.33,2,0,0.105,0.105,219,8.57,0.14,0.105,30.77,LANDED,CF1-J,0:/Integrated Flight Computer/aircraft/cf1_j_cfg.ks (inferred preloaded)
31.47,TAKEOFF,TO_ROTATE,77.9,80,2.1,4.19,62.99,0.02,2.82,2.79,269.9,-0.053,1,0,0,0,0,0,0,0,0,0,0,0,0,0,0,269.99,6.997,1,0,0.04,0,0,-0.07,90,0,0,0,0,0,0,0,0,-0.016,0,0,3,0,0,0,69,0,0,0,0,0,0,,0,NONE,0,0,0,0,0,0,0,0.4138,0,0,0,62.99,0,0,0,0,0,0,0,0,0,269.99,1,-0.016,-0.083,0.0021,0.869,0,0.0021,0,0.4138,6.997,4.173,0.08,0,1,1,0,0,VALID,0,0,0,0,0,1,0,0,0,0,0,0,0,0,0,0,0,0,0,0,328.43,441.16,2,0,0.105,0.105,222,8.57,0.14,0.105,31.12,LANDED,CF1-J,0:/Integrated Flight Computer/aircraft/cf1_j_cfg.ks (inferred preloaded)
31.82,TAKEOFF,TO_ROTATE,79.63,80,0.37,4.47,63.29,0.21,4.24,4.08,269.9,-0.049,1,0,0,0,0,0,0,0,0,0,0,0,0,0,0,269.98,8.047,1,0,0.18,0,0,-0.07,90,0,0,0,0,0,0,0,0,-0.017,0,0,3,0,0,0,69,0,0,0,0,0,0,,0,NONE,0,0,0,0,0,0,0,0.3844,0,0,0,63.29,0,0,0,0,0,0,0,0,0,269.98,1,-0.017,-0.087,0.0023,0.887,0,0.0023,0,0.3844,8.047,3.805,0.08,0,1,1,0,0,VALID,0,0,0,0,0,1,0,0,0,0,0,0,0,0,0,0,0,0,0,0,329.92,440.01,2,0,0.105,0.105,225,8.57,0.14,0.105,31.47,LANDED,CF1-J,0:/Integrated Flight Computer/aircraft/cf1_j_cfg.ks (inferred preloaded)
32.17,TAKEOFF,TO_ROTATE,81.27,80,-1.27,4.83,63.66,0.3,6.05,5.87,269.89,-0.058,1,0,0,0,0,0,0,0,0,0,0,0,0,0,0,269.98,9.097,1,0,0.2,0,0,-0.07,90,0,0,0,0,0,0,0,0,-0.018,0,0,3,0,0,0,69,0,0,0,0,0,0,,0,NONE,0,0,0,0,0,0,0,0.3235,0,0,0,63.66,0,0,0,0,0,0,0,0,0,269.98,1,-0.018,-0.092,0.0025,0.905,0,0.0025,0,0.3235,9.097,3.044,0.08,0,1,1,0,0,VALID,0,0,0,0,0,1,0,0,0,0,0,0,0,0,0,0,0,0,0,0,331.38,438.92,2,0,0.105,0.105,228,8.57,0.14,0.105,31.82,LANDED,CF1-J,0:/Integrated Flight Computer/aircraft/cf1_j_cfg.ks (inferred preloaded)
32.45,TAKEOFF,TO_ROTATE,82.49,80,-2.49,5.16,64,0.87,7.42,6.82,269.89,-0.088,1,0,0,0,0,0,0,0,0,0,0,0,0,0,0,270,10,0,1,0.6,0,0,9.83,270,0.9724,-0.0046,0.2333,10,270,0,0,0,0,0,0,3,0,0,0,69,0,0,0,0,0,0,,0,NONE,0,0,0,0,0,0,0,0,0,0,0,64,0,0,0,0,0,0,0,0,0,270,1,0,-0.114,0,0,3,0,0,0,10,2.583,0,0,1,1,0,0,VALID,0,0,0,0,0,1,0,0,0,0,0,0,0,0,0,0,0,0,0,0,332.55,438.1,2,0,0.07,0.07,231,10.71,0.14,0.07,32.13,FLYING,CF1-J,0:/Integrated Flight Computer/aircraft/cf1_j_cfg.ks (inferred preloaded)
32.73,TAKEOFF,TO_ROTATE,83.63,80,-3.63,5.48,64.34,1.68,7.13,6.17,269.88,-0.062,1,0,0,0,0,0,0,0,0,0,0,0,0,0,0,270,10,0,1,1.15,0,0,10,270,0.9724,-0.0046,0.2333,10,270,0,0,0,0,0,0,3,0,0,0,69,0,0,0,0,0,0,,0,NONE,0,0,0,0,0,0,0,0,0,0,0,64.34,0,0,0,0,0,0,0,0,0,270,1,0,-0.118,0,0,3,0,0,0,10,2.87,0,0,1,1,0,0,VALID,0,0,0,0,0,1,0,0,0,0,0,0,0,0,0,0,0,0,0,0,333.72,437.32,2,0,0.105,0.105,234,10.71,0.105,0.07,32.41,FLYING,CF1-J,0:/Integrated Flight Computer/aircraft/cf1_j_cfg.ks (inferred preloaded)
33.08,TAKEOFF,TO_CLIMB,85.06,80,-5.06,6.05,64.93,2.1,6.53,5.19,269.88,-0.026,0.958,0,0,0,0,0,0,0,0,0,0,0,0,0,0,270,6.751,0,1,1.41,0,0,10,270,0.9841,-0.0031,0.1777,6.75,270,0,0,0,0,0,0,3,0,0,0,69,0,0,0,0,0,0,,0,NONE,0,0,0,0,0,0,0,0,0,0,0,64.93,0,0,0,0,0,0,0,0,0,270,1,0,-0.117,0,0,3,0,0,0,10,3.417,0,0,1,1,0,0,VALID,0,0,0,0,0,1,0,0,0,0,0,0,0,0,0,0,0,0,0,0,335.12,436.33,2,0,0.105,0.105,238,11.43,0.105,0.035,32.76,FLYING,CF1-J,0:/Integrated Flight Computer/aircraft/cf1_j_cfg.ks (inferred preloaded)
33.36,TAKEOFF,TO_CLIMB,86.23,80,-6.23,6.73,65.62,2.5,6.9,5.34,269.89,-0.004,0.8877,0,0,0,0,0,0,0,0,0,0,0,0,0,0,270,7.199,0,1,1.66,0,0,7.03,270,0.9827,-0.0033,0.1854,7.2,270,0,0,0,0,0,0,3,0,0,0,69,0,0,0,0,0,0,,0,NONE,0,0,0,0,0,0,0,0,0,0,0,65.62,0,0,0,0,0,0,0,0,0,270,1,0,-0.115,0,0,3,0,0,0,10,3.417,0,0,1,1,0,0,VALID,0,0,0,0,0,1,0,0,0,0,0,0,0,0,0,0,0,0,0,0,335.81,435.51,2,0,0.105,0.105,241,10.71,0.105,0.07,33.04,FLYING,CF1-J,0:/Integrated Flight Computer/aircraft/cf1_j_cfg.ks (inferred preloaded)
33.71,TAKEOFF,TO_CLIMB,87.68,80,-7.68,7.66,66.58,3.13,6.58,4.72,269.89,0.022,0.8732,0,0,0,0,0,0,0,0,0,0,0,0,0,0,270,7.759,0,1,2.04,0,0,7.59,270,0.9808,-0.0036,0.1949,7.76,270,0,0,0,0,0,0,3,0,0,0,69,0,0,0,0,0,0,,0,NONE,0,0,0,0,0,0,0,0,0,0,0,66.58,0,0,0,0,0,0,0,0,0,270,1,0,-0.114,0,0,3,0,0,0,10,3.417,0,0,1,1,0,0,VALID,0,0,0,0,0,1,0,0,0,0,0,0,0,0,0,0,0,0,0,0,336.05,434.48,2,0,0.105,0.105,245,11.43,0.105,0.035,33.39,FLYING,CF1-J,0:/Integrated Flight Computer/aircraft/cf1_j_cfg.ks (inferred preloaded)
33.99,TAKEOFF,TO_CLIMB,88.85,80,-8.85,8.57,67.51,3.37,6.67,4.56,269.89,0.041,0.8615,0,0,0,0,0,0,0,0,0,0,0,0,0,0,270,8,0,1,2.17,0,0,8,270,0.98,-0.0037,0.199,8,270,0,0,0,0,0,0,3,0,0,0,69,0,0,0,0,0,0,,0,NONE,0,0,0,0,0,0,0,0,0,0,0,67.51,0,0,0,0,0,0,0,0,0,270,1,0,-0.112,0,0,3,0,0,0,10,3.417,0,0,1,1,0,0,VALID,0,0,0,0,0,1,0,0,0,0,0,0,0,0,0,0,0,0,0,0,336.12,433.65,2,0,0.105,0.105,248,10.71,0.105,0.07,33.67,FLYING,CF1-J,0:/Integrated Flight Computer/aircraft/cf1_j_cfg.ks (inferred preloaded)
34.34,TAKEOFF,TO_CLIMB,90.3,80,-10.3,9.9,68.86,4.09,6.98,4.58,269.89,0.059,0.847,0,0,0,0,0,0,0,0,0,0,0,0,0,0,270,8,0,1,2.59,0,0,8,270,0.98,-0.0037,0.199,8,270,0,0,0,0,0,0,3,0,0,0,69,0,0,0,0,0,0,,0,NONE,0,0,0,0,0,0,0,0,0,0,0,68.86,0,0,0,0,0,0,0,0,0,270,1,0,-0.109,0,0,3,0,0,0,10,3.417,0,0,1,1,0,0,VALID,0,0,0,0,0,1,0,0,0,0,0,0,0,0,0,0,0,0,0,0,336.07,432.6,2,0,0.105,0.105,251,8.57,0.14,0.105,34.02,FLYING,CF1-J,0:/Integrated Flight Computer/aircraft/cf1_j_cfg.ks (inferred preloaded)
34.62,TAKEOFF,TO_CLIMB,91.44,80,-11.44,11.05,70.04,4.52,6.69,4.03,269.89,0.072,0.8356,0,0,0,0,0,0,0,0,0,0,0,0,0,0,270,8,0,1,2.83,0,0,8,270,0.98,-0.0037,0.1989,8,270,0,0,0,0,0,0,3,0,0,0,69,0,0,0,0,0,0,,0,NONE,0,0,0,0,0,0,0,0,0,0,0,70.04,0,0,0,0,0,0,0,0,0,270,1,0,-0.108,0,0,3,0,0,0,10,3.417,0,0,1,1,0,0,VALID,0,0,0,0,0,1,0,0,0,0,0,0,0,0,0,0,0,0,0,0,335.93,431.77,2,0,0.105,0.105,254,10.71,0.105,0.07,34.3,FLYING,CF1-J,0:/Integrated Flight Computer/aircraft/cf1_j_cfg.ks (inferred preloaded)
34.97,TAKEOFF,TO_CLIMB,92.86,80,-12.86,12.75,71.77,5.04,7.12,4.18,269.89,0.085,0.8214,0,0,0,0,0,0,0,0,0,0,0,0,0,0,270,8,0,1,3.11,0,0,8,270,0.98,-0.0037,0.1989,8,270,0,0,0,0,0,0,3,0,0,0,69,0,0,0,0,0,0,,0,NONE,0,0,0,0,0,0,0,0,0,0,0,71.77,0,0,0,0,0,0,0,0,0,270,1,0,-0.106,0,0,3,0,0,0,10,3.417,0,0,1,1,0,0,VALID,0,0,0,0,0,1,0,0,0,0,0,0,0,0,0,0,0,0,0,0,335.61,430.72,2,0,0.105,0.105,257,8.57,0.14,0.105,34.65,FLYING,CF1-J,0:/Integrated Flight Computer/aircraft/cf1_j_cfg.ks (inferred preloaded)
35.25,TAKEOFF,TO_CLIMB,93.98,80,-13.98,14.22,73.26,5.64,7.01,3.81,269.9,0.093,0.8102,0,0,0,0,0,0,0,0,0,0,0,0,0,0,270,8,0,1,3.44,0,0,8,270,0.98,-0.0037,0.1988,8,270,0,0,0,0,0,0,3,0,0,0,69,0,0,0,0,0,0,,0,NONE,0,0,0,0,0,0,0,0,0,0,0,73.26,0,0,0,0,0,0,0,0,0,270,1,0,-0.104,0,0,3,0,0,0,10,3.417,0,0,1,1,0,0,VALID,0,0,0,0,0,1,0,0,0,0,0,0,0,0,0,0,0,0,0,0,335.26,429.88,2,0,0.105,0.105,260,10.71,0.105,0.07,34.93,FLYING,CF1-J,0:/Integrated Flight Computer/aircraft/cf1_j_cfg.ks (inferred preloaded)
35.6,TAKEOFF,TO_CLIMB,95.37,80,-15.37,19.15,75.32,6.15,6.95,3.47,269.9,0.101,0.7963,0,0,0,0,0,0,0,0,0,0,0,0,0,0,270,8,0,1,3.69,0,0,8,270,0.98,-0.0037,0.1988,8,270,0,0,0,0,0,0,3,0,0,0,69,0,0,0,0,0,0,,0,NONE,0,0,0,0,0,0,0,0,0,0,0,75.32,0,0,0,0,0,0,0,0,0,270,1,0,-0.101,0,0,3,0,0,0,10,3.417,0,0,1,1,0,0,VALID,0,0,0,0,0,1,0,0,0,0,0,0,0,0,0,0,0,0,0,0,334.69,428.83,2,0,0.105,0.105,263,8.57,0.14,0.105,35.28,FLYING,CF1-J,0:/Integrated Flight Computer/aircraft/cf1_j_cfg.ks (inferred preloaded)
35.88,TAKEOFF,TO_CLIMB,96.48,80,-16.48,29.38,77.08,6.56,6.77,3.11,269.9,0.108,0.7852,0,0,0,0,0,0,0,0,0,0,0,0,0,0,270,8,0,1,3.89,0,0,8,270,0.9801,-0.0037,0.1987,8,270,0,0,0,0,0,0,3,0,0,0,69,0,0,0,0,0,0,,0,NONE,0,0,0,0,0,0,0,0,0,0,0,77.08,0,0,0,0,0,0,0,0,0,270,1,0,-0.1,0,0,3,0,0,0,10,3.417,0,0,1,1,0,0,VALID,0,0,0,0,0,1,0,0,0,0,0,0,0,0,0,0,0,0,0,0,334.14,427.99,2,0,0.105,0.105,266,10.71,0.105,0.07,35.56,FLYING,CF1-J,0:/Integrated Flight Computer/aircraft/cf1_j_cfg.ks (inferred preloaded)
36.23,TAKEOFF,TO_CLIMB,97.87,80,-17.87,48.57,79.48,6.95,6.97,3.07,269.9,0.113,0.78,0,0,0,0,0,0,0,0,0,0,0,0,0,0,270,8,0,1,4.06,0,0,8,270,0.9801,-0.0037,0.1987,8,270,0,0,0,0,0,0,3,0,0,0,69,0,0,0,0,0,0,,0,NONE,0,0,0,0,0,0,0,0,0,0,0,79.48,0,0,0,0,0,0,0,0,0,270,1,0,-0.096,0,0,3,0,0,0,10,3.417,0,0,1,1,0,0,VALID,0,0,0,0,0,1,0,0,0,0,0,0,0,0,0,0,0,0,0,0,333.34,426.92,2,0,0.105,0.105,269,8.57,0.14,0.105,35.91,FLYING,CF1-J,0:/Integrated Flight Computer/aircraft/cf1_j_cfg.ks (inferred preloaded)
36.51,TAKEOFF,TO_CLIMB,98.96,80,-18.96,64.21,81.51,7.48,6.95,2.87,269.91,0.116,0.78,0,0,0,0,0,0,0,0,0,0,0,0,0,0,270,8,0,1,4.32,0,0,8,270,0.9801,-0.0037,0.1986,8,270,0,0,0,0,0,0,3,0,0,0,69,0,0,0,0,0,0,,0,NONE,0,0,0,0,0,0,0,0,0,0,0,81.51,0,0,0,0,0,0,0,0,0,270,1,0,-0.094,0,0,3,0,0,0,10,3.417,0,0,1,1,0,0,VALID,0,0,0,0,0,1,0,0,0,0,0,0,0,0,0,0,0,0,0,0,332.66,426.07,2,0,0.105,0.105,272,10.71,0.105,0.07,36.19,FLYING,CF1-J,0:/Integrated Flight Computer/aircraft/cf1_j_cfg.ks (inferred preloaded)
36.86,TAKEOFF,TO_CLIMB,100.31,80,-20.31,78.69,84.21,7.94,6.9,2.59,269.91,0.118,0.78,0,0,0,0,0,0,0,0,0,0,0,0,0,0,270,8,0,1,4.53,0,0,8,270,0.9801,-0.0037,0.1985,8,270,0,0,0,0,0,0,3,0,0,0,69,0,0,0,0,0,0,,0,NONE,0,0,0,0,0,0,0,0,0,0,0,84.21,0,0,0,0,0,0,0,0,0,270,1,0,-0.091,0,0,3,0,0,0,10,3.417,0,0,1,1,0,0,VALID,0,0,0,0,0,1,0,0,0,0,0,0,0,0,0,0,0,0,0,0,331.81,425.02,2,0,0.105,0.105,275,8.57,0.14,0.105,36.54,FLYING,CF1-J,0:/Integrated Flight Computer/aircraft/cf1_j_cfg.ks (inferred preloaded)
37.14,TAKEOFF,TO_CLIMB,101.39,80,-21.39,84.73,86.5,8.33,6.91,2.43,269.91,0.121,0.78,0,0,0,0,0,0,0,0,0,0,0,0,0,0,270,8,0,1,4.7,0,0,8,270,0.9801,-0.0037,0.1985,8,270,0,0,0,0,0,0,3,0,0,0,69,0,0,0,0,0,0,,0,NONE,0,0,0,0,0,0,0,0,0,0,0,86.5,0,0,0,0,0,0,0,0,0,270,1,0,-0.088,0,0,3,0,0,0,10,3.417,0,0,1,1,0,0,VALID,0,0,0,0,0,1,0,0,0,0,0,0,0,0,0,0,0,0,0,0,331.14,424.17,2,0,0.105,0.105,278,10.71,0.105,0.07,36.82,FLYING,CF1-J,0:/Integrated Flight Computer/aircraft/cf1_j_cfg.ks (inferred preloaded)
37.49,TAKEOFF,TO_CLIMB,102.72,80,-22.72,91.48,89.51,8.82,6.92,2.26,269.92,0.123,0.78,0,0,0,0,0,0,0,0,0,0,0,0,0,0,270,8,0,1,4.91,0,0,8,270,0.9801,-0.0037,0.1984,8,270,0,0,0,0,0,0,3,0,0,0,69,0,0,0,0,0,0,,0,NONE,0,0,0,0,0,0,0,0,0,0,0,89.51,0,0,0,0,0,0,0,0,0,270,1,0,-0.085,0,0,3,0,0,0,10,3.417,0,0,1,1,0,0,VALID,0,0,0,0,0,1,0,0,0,0,0,0,0,0,0,0,0,0,0,0,330.3,423.11,2,0,0.105,0.105,281,8.57,0.14,0.105,37.17,FLYING,CF1-J,0:/Integrated Flight Computer/aircraft/cf1_j_cfg.ks (inferred preloaded)
37.77,TAKEOFF,TO_CLIMB,103.77,80,-23.77,97.1,92.04,9.19,6.94,2.11,269.92,0.124,0.78,0,0,0,0,0,0,0,0,0,0,0,0,0,0,270,8,0,1,5.06,0,0,8,270,0.9801,-0.0037,0.1984,8,270,0,0,0,0,0,0,3,0,0,0,69,0,0,0,0,0,0,,0,NONE,0,0,0,0,0,0,0,0,0,0,0,92.04,0,0,0,0,0,0,0,0,0,270,1,0,-0.082,0,0,3,0,0,0,10,3.417,0,0,1,1,0,0,VALID,0,0,0,0,0,1,0,0,0,0,0,0,0,0,0,0,0,0,0,0,329.62,422.27,2,0,0.105,0.105,284,10.71,0.105,0.07,37.45,FLYING,CF1-J,0:/Integrated Flight Computer/aircraft/cf1_j_cfg.ks (inferred preloaded)
38.12,TAKEOFF,TO_CLIMB,105.08,80,-25.08,104.85,95.35,9.66,6.95,1.94,269.92,0.126,0.78,0,0,0,0,0,0,0,0,0,0,0,0,0,0,270,8,0,1,5.25,0,0,8,270,0.9801,-0.0037,0.1983,8,270,0,0,0,0,0,0,3,0,0,0,69,0,0,0,0,0,0,,0,NONE,0,0,0,0,0,0,0,0,0,0,0,95.35,0,0,0,0,0,0,0,0,0,270,1,0,-0.078,0,0,3,0,0,0,10,3.417,0,0,1,1,0,0,VALID,0,0,0,0,0,1,0,0,0,0,0,0,0,0,0,0,0,0,0,0,328.79,421.22,2,0,0.105,0.105,287,8.57,0.14,0.105,37.8,FLYING,CF1-J,0:/Integrated Flight Computer/aircraft/cf1_j_cfg.ks (inferred preloaded)
38.4,TAKEOFF,TO_CLIMB,106.11,80,-26.11,111.31,98.11,10.02,6.96,1.81,269.92,0.127,0.78,0,0,0,0,0,0,0,0,0,0,0,0,0,0,270,8,0,1,5.4,0,0,8,270,0.9801,-0.0037,0.1983,8,270,0,0,0,0,0,0,3,0,0,0,69,0,0,0,0,0,0,,0,NONE,0,0,0,0,0,0,0,0,0,0,0,98.11,0,0,0,0,0,0,0,0,0,270,1,0,-0.075,0,0,3,0,0,0,10,3.417,0,0,1,1,0,0,VALID,0,0,0,0,0,1,0,0,0,0,0,0,0,0,0,0,0,0,0,0,328.12,420.38,2,0,0.105,0.105,290,10.71,0.105,0.07,38.08,FLYING,CF1-J,0:/Integrated Flight Computer/aircraft/cf1_j_cfg.ks (inferred preloaded)
38.75,TAKEOFF,TO_CLIMB,107.39,80,-27.39,119.42,101.71,10.48,6.97,1.65,269.93,0.129,0.78,0,0,0,0,0,0,0,0,0,0,0,0,0,0,270,8,0,1,5.57,0,0,8,270,0.9802,-0.0037,0.1982,8,270,0,0,0,0,0,0,3,0,0,0,69,0,0,0,0,0,0,,0,NONE,0,0,0,0,0,0,0,0,0,0,0,101.71,0,0,0,0,0,0,0,0,0,270,1,0,-0.072,0,0,3,0,0,0,10,3.417,0,0,1,1,0,0,VALID,0,0,0,0,0,1,0,0,0,0,0,0,0,0,0,0,0,0,0,0,327.29,419.33,2,0,0.105,0.105,293,8.57,0.14,0.105,38.43,FLYING,CF1-J,0:/Integrated Flight Computer/aircraft/cf1_j_cfg.ks (inferred preloaded)
39.03,TAKEOFF,TO_CLIMB,108.41,80,-28.41,126.98,104.7,10.83,6.98,1.53,269.93,0.129,0.78,0,0,0,0,0,0,0,0,0,0,0,0,0,0,270,8,0,1,5.7,0,0,8,270,0.9802,-0.0037,0.1982,8,270,0,0,0,0,0,0,3,0,0,0,69,0,0,0,0,0,0,,0,NONE,0,0,0,0,0,0,0,0,0,0,0,104.7,0,0,0,0,0,0,0,0,0,270,1,0,-0.068,0,0,3,0,0,0,10,3.417,0,0,1,1,0,0,VALID,0,0,0,0,0,1,0,0,0,0,0,0,0,0,0,0,0,0,0,0,326.63,418.49,2,0,0.105,0.105,296,10.71,0.105,0.07,38.71,FLYING,CF1-J,0:/Integrated Flight Computer/aircraft/cf1_j_cfg.ks (inferred preloaded)
39.38,TAKEOFF,TO_CLIMB,109.67,80,-29.67,138.07,108.58,11.28,7.01,1.39,269.93,0.13,0.78,0,0,0,0,0,0,0,0,0,0,0,0,0,0,270,8,0,1,5.87,0,0,8,270,0.9802,-0.0037,0.1981,8,270,0,0,0,0,0,0,3,0,0,0,69,0,0,0,0,0,0,,0,NONE,0,0,0,0,0,0,0,0,0,0,0,108.58,0,0,0,0,0,0,0,0,0,270,1,0,-0.065,0,0,3,0,0,0,10,3.417,0,0,1,1,0,0,VALID,0,0,0,0,0,1,0,0,0,0,0,0,0,0,0,0,0,0,0,0,325.8,417.45,2,0,0.105,0.105,299,8.57,0.14,0.105,39.06,FLYING,CF1-J,0:/Integrated Flight Computer/aircraft/cf1_j_cfg.ks (inferred preloaded)
39.66,TAKEOFF,TO_CLIMB,110.66,80,-30.66,144.51,111.79,11.62,7.02,1.28,269.94,0.13,0.78,0,0,0,0,0,0,0,0,0,0,0,0,0,0,270,8,0,1,5.99,0,0,8,270,0.9802,-0.0037,0.198,8,270,0,0,0,0,0,0,3,0,0,0,69,0,0,0,0,0,0,,0,NONE,0,0,0,0,0,0,0,0,0,0,0,111.79,0,0,0,0,0,0,0,0,0,270,1,0,-0.062,0,0,3,0,0,0,10,3.417,0,0,1,1,0,0,VALID,0,0,0,0,0,1,0,0,0,0,0,0,0,0,0,0,0,0,0,0,325.15,416.62,2,0,0.105,0.105,302,10.71,0.105,0.07,39.34,FLYING,CF1-J,0:/Integrated Flight Computer/aircraft/cf1_j_cfg.ks (inferred preloaded)
40.01,TAKEOFF,TO_CLIMB,111.9,80,-31.9,155.24,115.94,12.04,7.04,1.15,269.94,0.13,0.78,0,0,0,0,0,0,0,0,0,0,0,0,0,0,270,8,0,1,6.14,0,0,8,270,0.9802,-0.0037,0.198,8,270,0,0,0,0,0,0,3,0,0,0,69,0,0,0,0,0,0,,0,NONE,0,0,0,0,0,0,0,0,0,0,0,115.94,0,0,0,0,0,0,0,0,0,270,1,0,-0.059,0,0,3,0,0,0,10,3.417,0,0,1,1,0,0,VALID,0,0,0,0,0,1,0,0,0,0,0,0,0,0,0,0,0,0,0,0,324.33,415.58,2,0,0.105,0.105,305,8.57,0.14,0.105,39.69,FLYING,CF1-J,0:/Integrated Flight Computer/aircraft/cf1_j_cfg.ks (inferred preloaded)
40.29,TAKEOFF,TO_CLIMB,112.88,80,-32.88,160.74,119.37,12.37,7.04,1.05,269.94,0.129,0.78,0,0,0,0,0,0,0,0,0,0,0,0,0,0,270,8,0,1,6.26,0,0,8,270,0.9802,-0.0037,0.1979,8,270,0,0,0,0,0,0,3,0,0,0,69,0,0,0,0,0,0,,0,NONE,0,0,0,0,0,0,0,0,0,0,0,119.37,0,0,0,0,0,0,0,0,0,270,1,0,-0.056,0,0,3,0,0,0,10,3.417,0,0,1,1,0,0,VALID,0,0,0,0,0,1,0,0,0,0,0,0,0,0,0,0,0,0,0,0,323.68,414.75,2,0,0.105,0.105,308,10.71,0.105,0.07,39.97,FLYING,CF1-J,0:/Integrated Flight Computer/aircraft/cf1_j_cfg.ks (inferred preloaded)
40.64,TAKEOFF,TO_CLIMB,114.09,80,-34.09,171.44,123.78,12.78,7.05,0.92,269.95,0.129,0.78,0,0,0,0,0,0,0,0,0,0,0,0,0,0,270,8,0,1,6.39,0,0,8,270,0.9802,-0.0037,0.1979,8,270,0,0,0,0,0,0,3,0,0,0,69,0,0,0,0,0,0,,0,NONE,0,0,0,0,0,0,0,0,0,0,0,123.78,0,0,0,0,0,0,0,0,0,270,1,0,-0.053,0,0,3,0,0,0,10,3.417,0,0,1,1,0,0,VALID,0,0,0,0,0,1,0,0,0,0,0,0,0,0,0,0,0,0,0,0,322.86,413.72,2,0,0.105,0.105,311,8.57,0.14,0.105,40.32,FLYING,CF1-J,0:/Integrated Flight Computer/aircraft/cf1_j_cfg.ks (inferred preloaded)
40.92,TAKEOFF,TO_CLIMB,115.05,80,-35.05,186.73,127.41,13.1,7.05,0.82,269.95,0.128,0.78,0,0,0,0,0,0,0,0,0,0,0,0,0,0,270,8,0,1,6.5,0,0,8,270,0.9802,-0.0037,0.1978,8,270,0,0,0,0,0,0,3,0,0,0,69,0,0,0,0,0,0,,0,NONE,0,0,0,0,0,0,0,0,0,0,0,127.41,0,0,0,0,0,0,0,0,0,270,1,0,-0.051,0,0,3,0,0,0,10,3.417,0,0,1,1,0,0,VALID,0,0,0,0,0,1,0,0,0,0,0,0,0,0,0,0,0,0,0,0,322.22,412.9,2,0,0.105,0.105,314,10.71,0.105,0.07,40.6,FLYING,CF1-J,0:/Integrated Flight Computer/aircraft/cf1_j_cfg.ks (inferred preloaded)
41.27,TAKEOFF,TO_CLIMB,116.23,80,-36.23,204.15,132.07,13.49,7.06,0.71,269.95,0.125,0.78,0,0,0,0,0,0,0,0,0,0,0,0,0,0,270,8,0,1,6.62,0,0,8,270,0.9803,-0.0037,0.1977,8,270,0,0,0,0,0,0,3,0,0,0,69,0,0,0,0,0,0,,0,NONE,0,0,0,0,0,0,0,0,0,0,0,132.07,0,0,0,0,0,0,0,0,0,270,1,0,-0.048,0,0,3,0,0,0,10,3.417,0,0,1,1,0,0,VALID,0,0,0,0,0,1,0,0,0,0,0,0,0,0,0,0,0,0,0,0,321.41,411.88,2,0,0.105,0.105,317,8.57,0.14,0.105,40.95,FLYING,CF1-J,0:/Integrated Flight Computer/aircraft/cf1_j_cfg.ks (inferred preloaded)
41.55,TAKEOFF,TO_CLIMB,117.18,80,-37.18,210.18,135.89,13.79,7.06,0.62,269.96,0.124,0.78,0,0,0,0,0,0,0,0,0,0,0,0,0,0,270,8,0,1,6.71,0,0,8,270,0.9803,-0.0037,0.1977,8,270,0,0,0,0,0,0,3,0,0,0,69,0,0,0,0,0,0,,0,NONE,0,0,0,0,0,0,0,0,0,0,0,135.89,0,0,0,0,0,0,0,0,0,270,1,0,-0.045,0,0,3,0,0,0,10,3.417,0,0,1,1,0,0,VALID,0,0,0,0,0,1,0,0,0,0,0,0,0,0,0,0,0,0,0,0,320.77,411.06,2,0,0.105,0.105,320,10.71,0.105,0.07,41.23,FLYING,CF1-J,0:/Integrated Flight Computer/aircraft/cf1_j_cfg.ks (inferred preloaded)
41.9,TAKEOFF,TO_CLIMB,118.34,80,-38.34,215.08,140.79,14.16,7.06,0.51,269.96,0.118,0.78,0,0,0,0,0,0,0,0,0,0,0,0,0,0,270,8,0,1,6.82,0,0,8,270,0.9803,-0.0037,0.1976,8,270,0,0,0,0,0,0,3,0,0,0,69,0,0,0,0,0,0,,0,NONE,0,0,0,0,0,0,0,0,0,0,0,140.79,0,0,0,0,0,0,0,0,0,270,1,0,-0.042,0,0,3,0,0,0,10,3.417,0,0,1,1,0,0,VALID,0,0,0,0,0,1,0,0,0,0,0,0,0,0,0,0,0,0,0,0,319.98,410.05,2,0,0.105,0.105,323,8.57,0.14,0.105,41.58,FLYING,CF1-J,0:/Integrated Flight Computer/aircraft/cf1_j_cfg.ks (inferred preloaded)
42.18,TAKEOFF,TO_CLIMB,119.26,80,-39.26,219.09,144.8,14.45,7.06,0.42,269.96,0.114,0.78,0,0,0,0,0,0,0,0,0,0,0,0,0,0,270,8,0,1,6.91,0,0,8,270,0.9803,-0.0037,0.1975,8,270,0,0,0,0,0,0,3,0,0,0,69,0,0,0,0,0,0,,0,NONE,0,0,0,0,0,0,0,0,0,0,0,144.8,0,0,0,0,0,0,0,0,0,270,1,0,-0.04,0,0,3,0,0,0,10,3.417,0,0,1,1,0,0,VALID,0,0,0,0,0,1,0,0,0,0,0,0,0,0,0,0,0,0,0,0,319.34,409.24,2,0,0.105,0.105,326,10.71,0.105,0.07,41.86,FLYING,CF1-J,0:/Integrated Flight Computer/aircraft/cf1_j_cfg.ks (inferred preloaded)
42.53,TAKEOFF,TO_CLIMB,120.41,80,-40.41,224.22,149.93,14.8,7.05,0.32,269.96,0.11,0.78,0,0,0,0,0,0,0,0,0,0,0,0,0,0,270,8,0,1,7.01,0,0,8,270,0.9803,-0.0037,0.1975,8,270,0,0,0,0,0,0,3,0,0,0,69,0,0,0,0,0,0,,0,NONE,0,0,0,0,0,0,0,0,0,0,0,149.93,0,0,0,0,0,0,0,0,0,270,1,0,-0.037,0,0,3,0,0,0,10,3.417,0,0,1,1,0,0,VALID,0,0,0,0,0,1,0,0,0,0,0,0,0,0,0,0,0,0,0,0,318.55,408.24,2,0,0.105,0.105,329,8.57,0.14,0.105,42.21,FLYING,CF1-J,0:/Integrated Flight Computer/aircraft/cf1_j_cfg.ks (inferred preloaded)
42.81,TAKEOFF,TO_CLIMB,121.31,80,-41.31,228.4,154.11,15.07,7.05,0.24,269.96,0.106,0.78,0,0,0,0,0,0,0,0,0,0,0,0,0,0,270,8,0,1,7.08,0,0,8,270,0.9803,-0.0037,0.1974,8,270,0,0,0,0,0,0,3,0,0,0,69,0,0,0,0,0,0,,0,NONE,0,0,0,0,0,0,0,0,0,0,0,154.11,0,0,0,0,0,0,0,0,0,270,1,0,-0.035,0,0,3,0,0,0,10,3.417,0,0,1,1,0,0,VALID,0,0,0,0,0,1,0,0,0,0,0,0,0,0,0,0,0,0,0,0,317.93,407.44,2,0,0.105,0.105,332,10.71,0.105,0.07,42.49,FLYING,CF1-J,0:/Integrated Flight Computer/aircraft/cf1_j_cfg.ks (inferred preloaded)
43.16,TAKEOFF,TO_CLIMB,122.43,80,-42.43,233.74,159.45,15.41,7.04,0.15,269.97,0.101,0.78,0,0,0,0,0,0,0,0,0,0,0,0,0,0,270,8,0,1,7.17,0,0,8,270,0.9803,-0.0037,0.1973,8,270,0,0,0,0,0,0,3,0,0,0,69,0,0,0,0,0,0,,0,NONE,0,0,0,0,0,0,0,0,0,0,0,159.45,0,0,0,0,0,0,0,0,0,270,1,0,-0.033,0,0,3,0,0,0,10,3.417,0,0,1,1,0,0,VALID,0,0,0,0,0,1,0,0,0,0,0,0,0,0,0,0,0,0,0,0,317.15,406.45,2,0,0.105,0.105,335,8.57,0.14,0.105,42.84,FLYING,CF1-J,0:/Integrated Flight Computer/aircraft/cf1_j_cfg.ks (inferred preloaded)
43.44,TAKEOFF,TO_CLIMB,123.32,80,-43.32,238.09,163.8,15.67,7.04,0.08,269.97,0.098,0.78,0,0,0,0,0,0,0,0,0,0,0,0,0,0,270,8,0,1,7.24,0,0,8,270,0.9803,-0.0037,0.1973,8,270,0,0,0,0,0,0,3,0,0,0,69,0,0,0,0,0,0,,0,NONE,0,0,0,0,0,0,0,0,0,0,0,163.8,0,0,0,0,0,0,0,0,0,270,1,0,-0.031,0,0,3,0,0,0,10,3.417,0,0,1,1,0,0,VALID,0,0,0,0,0,1,0,0,0,0,0,0,0,0,0,0,0,0,0,0,316.49,405.66,2,0,0.105,0.105,338,10.71,0.105,0.07,43.12,FLYING,CF1-J,0:/Integrated Flight Computer/aircraft/cf1_j_cfg.ks (inferred preloaded)
43.79,TAKEOFF,TO_CLIMB,124.41,80,-44.41,243.64,169.35,15.98,7.03,-0.01,269.97,0.094,0.78,0,0,0,0,0,0,0,0,0,0,0,0,0,0,270,8,0,1,7.32,0,0,8,270,0.9804,-0.0037,0.1972,8,270,0,0,0,0,0,0,3,0,0,0,69,0,0,0,0,0,0,,0,NONE,0,0,0,0,0,0,0,0,0,0,0,169.35,0,0,0,0,0,0,0,0,0,270,1,0,-0.029,0,0,3,0,0,0,10,3.417,0,0,1,1,0,0,VALID,0,0,0,0,0,1,0,0,0,0,0,0,0,0,0,0,0,0,0,0,315.72,404.68,2,0,0.105,0.105,341,8.57,0.14,0.105,43.47,FLYING,CF1-J,0:/Integrated Flight Computer/aircraft/cf1_j_cfg.ks (inferred preloaded)
44.07,TAKEOFF,TO_CLIMB,125.28,80,-45.28,248.15,173.86,16.23,7.03,-0.07,269.97,0.092,0.78,0,0,0,0,0,0,0,0,0,0,0,0,0,0,270,8,0,1,7.38,0,0,8,270,0.9804,-0.0037,0.1972,8,270,0,0,0,0,0,0,3,0,0,0,69,0,0,0,0,0,0,,0,NONE,0,0,0,0,0,0,0,0,0,0,0,173.86,0,0,0,0,0,0,0,0,0,270,1,0,-0.027,0,0,3,0,0,0,10,3.417,0,0,1,1,0,0,VALID,0,0,0,0,0,1,0,0,0,0,0,0,0,0,0,0,0,0,0,0,315.12,403.9,2,0,0.105,0.105,344,10.71,0.105,0.07,43.75,FLYING,CF1-J,0:/Integrated Flight Computer/aircraft/cf1_j_cfg.ks (inferred preloaded)
44.35,CRUISE,,126.14,80,-46.14,252.73,178.44,16.47,7.02,-0.14,269.97,0.089,0,0,0,0,0,0,0,0,0,0,0,0,0,0,0,270,8,0,1,7.43,0,0,8,270,0.9804,-0.0037,0.1971,8,270,0,0,0,0,0,0,3,0,0,0,69,0,0,0,0,0,0,,0,NONE,0,0,0,0,0,0,0,0,0,0,0,178.44,0,0,0,0,0,0,0,0,0,270,1,0,-0.026,0,0,3,0,0,0,10,3.417,0,0,0,0,0,0,VALID,0,0,0,0,0,1,0,0,0,0,0,0,0,0,0,0,0,0,0,0,314.51,403.12,2,0,0.105,0.105,346,7.14,0.14,0.105,0,FLYING,CF1-J,0:/Integrated Flight Computer/aircraft/cf1_j_cfg.ks (inferred preloaded)
44.63,APPROACH,FLY_TO_FIX,126.99,70.03,-56.96,257.37,183.08,16.62,7.02,-0.18,269.98,0.074,0,0,0,1,0.6,0.9,0.75,0.35,0.0168,0.4,0.875,38.52,38.52,56.855,1,327.08,-1.962,1,0,7.46,57.1,1,8,270,0.9804,-0.0037,0.1971,8,270,0,0,25.556,0,0,0,3,0,0,0,1413.61,0,0,0,0,0,0,,0,NONE,0,0,0,0,0,0,0,0,0,0,0,183.08,0,0,0,0,0,0,0,0,0,270,1,0,-0.026,0,0,3,0,0,0,10,3.417,0,0,0,1,0,0,VALID,0,0,0,0,0,1,0,0,0,0,0,0,0,0,0,0,0,0,0,0,295.18,402.35,2,0,0.035,0.035,349,10.71,0.105,0.035,0.18,FLYING,CF1-J,0:/Integrated Flight Computer/aircraft/cf1_j_cfg.ks (inferred preloaded)
