t_s,phase,subphase,ias_ms,vapp_ms,spd_err_ms,agl_m,vs_ms,pitch_deg,aoa_deg,hdg_deg,bank_deg,thr_cmd,thr_intg,aa_hdg_cmd_deg,aa_fpa_cmd_deg,ils_loc_m,ils_gs_m,ils_dist_km,loc_corr_deg,gs_corr_deg,flare_fpa_cmd,flare_tgt_vs,flare_frac,steer_hdg_deg,steer_blend,ro_loc_corr_deg,ro_hdg_err_deg,ro_yaw_tgt,ro_yaw_scale,ro_yaw_gate,yaw_cmd,roll_cmd,pitch_cmd,ro_pitch_tgt_deg,ro_pitch_err_deg,ro_pitch_ff,ro_roll_assist,flaps_cur,flaps_tgt,phase_el_s,status
0.09,APPROACH,ILS_TRACK,90.17,80,-10.17,577.01,-23.65,-9.13,5.12,89.34,0.171,0,0,0,0,0,0,0,0,0,0,0,0,89.35,0,0,0,0,0,0,0,0,0,0,0,0,0,0,2,0.1,FLYING
0.19,APPROACH,ILS_TRACK,90.44,80,-10.44,574.6,-23.72,-9.13,5.13,89.34,0.176,0,-0.96,114,0,-11.78,-65.26,9.659,32.496,587.056,0,0,0,89.35,0,0,0,0,0,0,0,0,0,0,0,0,0,0,2,0.2,FLYING
0.28,APPROACH,ILS_TRACK,90.66,80,-10.66,572.6,-23.79,-9.12,5.14,89.36,0.145,0,-1.855,89.28,0,-11.72,-66.84,9.651,0.279,35.127,0,0,0,89.35,0,0,0,0,0,0,0,0,0,0,0,0,0,0,2,0.28,FLYING
0.33,APPROACH,ILS_TRACK,90.8,80,-10.8,571.25,-23.83,-9.1,5.16,89.38,0.102,0,-2.424,89.27,0,-11.68,-67.85,9.646,0.272,35.589,0,0,0,89.35,0,0,0,0,0,0,0,0,0,0,0,0,0,0,2,0.34,FLYING
0.62,APPROACH,ILS_TRACK,91.47,80,-11.47,564.31,-23.85,-9.54,4.66,89.44,0,0,-5.293,89.25,0,-11.48,-73.12,9.621,0.255,38.755,0,0,0,89.35,0,0,0,0,0,0,0,0,0,0,0,0,0,1,2,0.63,FLYING
1.09,APPROACH,ILS_TRACK,92.46,80,-12.46,552.83,-24.68,-10.13,4.31,89.45,-0.028,0,-9.419,89.24,0,-11.19,-80.62,9.586,0.236,42.205,0,0,0,89.35,0,0,0,0,0,0,0,0,0,0,0,0,0,2,2,1.13,FLYING
1.95,APPROACH,ILS_TRACK,93.93,80,-13.93,532.63,-23.05,-5.84,7.55,89.45,-0.012,0,-16.372,89.08,0,-10.51,-96.18,9.503,0.082,53.742,0,0,0,89.35,0,0,0,0,0,0,0,0,0,0,0,0,0,2,2,1.99,FLYING
2.75,APPROACH,ILS_TRACK,94.69,80,-14.69,515.33,-20.67,-4.75,7.14,89.41,0.175,0,-20,89.08,0,-9.88,-109.75,9.425,0.076,54.645,0,0,0,89.35,0,0,0,0,0,0,0,0,0,0,0,0,0,2,2,2.77,FLYING
3.55,APPROACH,ILS_TRACK,95.1,80,-15.1,499.9,-18.35,-3.92,6.59,89.37,0.275,0,-20,89.06,0,-9.26,-121.37,9.347,0.06,54.992,0,0,0,89.35,0,0,0,0,0,0,0,0,0,0,0,0,0,2,2,3.57,FLYING
4.35,APPROACH,ILS_TRACK,95.21,80,-15.21,486.2,-16.29,-3.16,6.16,89.34,0.322,0,-20,89.06,0,-8.67,-131.2,9.267,0.055,55.085,0,0,0,89.35,0,0,0,0,0,0,0,0,0,0,0,0,0,2,2,4.37,FLYING
5.15,APPROACH,ILS_TRACK,95.06,80,-15.06,474.07,-14.43,-2.39,5.87,89.31,0.334,0,-20,89.06,0,-8.14,-139.42,9.188,0.057,54.992,0,0,0,89.35,0,0,0,0,0,0,0,0,0,0,0,0,0,2,2,5.17,FLYING
5.95,APPROACH,ILS_TRACK,94.71,80,-14.71,463.34,-12.79,-1.64,5.71,89.27,0.33,0,-20,89.06,0,-7.65,-146.23,9.108,0.062,54.75,0,0,0,89.35,0,0,0,0,0,0,0,0,0,0,0,0,0,2,2,5.97,FLYING
6.77,APPROACH,ILS_TRACK,94.19,80,-14.19,453.62,-11.29,-0.87,5.66,89.24,0.306,0,-20,89.06,0,-7.2,-151.9,9.027,0.063,54.655,0,0,0,89.35,0,0,0,0,0,0,0,0,0,0,0,0,0,2,2,6.79,FLYING
7.59,APPROACH,ILS_TRACK,93.54,80,-13.54,445.05,-9.96,-0.16,5.63,89.21,0.274,0,-20,89.07,0,-6.8,-156.43,8.946,0.072,54.166,0,0,0,89.35,0,0,0,0,0,0,0,0,0,0,0,0,0,2,2,7.61,FLYING
8.41,APPROACH,ILS_TRACK,92.77,80,-12.77,437.51,-8.76,0.51,5.65,89.19,0.234,0,-20,89.08,0,-6.44,-159.93,8.866,0.08,53.585,0,0,0,89.35,0,0,0,0,0,0,0,0,0,0,0,0,0,2,2,8.43,FLYING
9.23,APPROACH,ILS_TRACK,91.91,80,-11.91,430.87,-7.73,1.12,5.69,89.17,0.193,0,-20,89.09,0,-6.13,-162.55,8.787,0.088,52.95,0,0,0,89.35,0,0,0,0,0,0,0,0,0,0,0,0,0,2,2,9.27,FLYING
10.05,APPROACH,ILS_TRACK,90.96,80,-10.96,425.02,-6.82,1.72,5.79,89.15,0.153,0,-20,89.09,0,-5.85,-164.39,8.708,0.094,52.269,0,0,0,89.35,0,0,0,0,0,0,0,0,0,0,0,0,0,2,2,10.09,FLYING
10.87,APPROACH,ILS_TRACK,89.93,80,-9.93,419.86,-6.02,2.27,5.91,89.14,0.119,0,-20,89.1,0,-5.59,-165.57,8.63,0.096,51.556,0,0,0,89.35,0,0,0,0,0,0,0,0,0,0,0,0,0,2,2,10.91,FLYING
11.69,APPROACH,ILS_TRACK,88.85,80,-8.85,415.31,-5.33,2.81,6.07,89.13,0.089,0,-20,89.1,0,-5.37,-166.18,8.553,0.101,50.823,0,0,0,89.35,0,0,0,0,0,0,0,0,0,0,0,0,0,2,2,11.73,FLYING
12.51,APPROACH,ILS_TRACK,87.71,80,-7.71,411.28,-4.73,3.33,6.26,89.12,0.064,0,-20,89.1,0,-5.16,-166.29,8.476,0.101,50.077,0,0,0,89.35,0,0,0,0,0,0,0,0,0,0,0,0,0,2,2,12.55,FLYING
13.33,APPROACH,ILS_TRACK,86.52,80,-6.52,407.71,-4.21,3.83,6.48,89.12,0.045,0,-20,89.1,0,-4.96,-166,8.401,0.102,49.325,0,0,0,89.35,0,0,0,0,0,0,0,0,0,0,0,0,0,2,2,13.37,FLYING
14.15,APPROACH,ILS_TRACK,85.29,80,-5.29,404.53,-3.77,4.34,6.74,89.11,0.03,0,-20,89.1,0,-4.78,-165.35,8.327,0.101,48.571,0,0,0,89.35,0,0,0,0,0,0,0,0,0,0,0,0,0,2,2,14.19,FLYING
14.97,APPROACH,ILS_TRACK,84.02,80,-4.02,401.69,-3.38,4.85,7.03,89.11,0.022,0.0484,-20,89.1,0,-4.61,-164.41,8.254,0.099,47.818,0,0,0,89.35,0,0,0,0,0,0,0,0,0,0,0,0,0,2,2,15.01,FLYING
15.79,APPROACH,ILS_TRACK,82.73,80,-2.73,399.15,-3.04,5.36,7.36,89.1,0.015,0.1446,-20,89.1,0,-4.45,-163.22,8.182,0.099,47.066,0,0,0,89.35,0,0,0,0,0,0,0,0,0,0,0,0,0,2,2,15.83,FLYING
16.61,APPROACH,ILS_TRACK,81.42,80,-1.42,396.86,-2.75,5.87,7.7,89.1,0.009,0.2358,-20,89.1,0,-4.3,-161.83,8.111,0.096,46.318,0,0,0,89.35,0,0,0,0,0,0,0,0,0,0,0,0,0,2,2,16.65,FLYING
17.43,APPROACH,ILS_TRACK,80.14,80,-0.14,394.8,-2.49,6.37,8.06,89.09,0.006,0.3192,-20,89.1,0,-4.16,-160.26,8.041,0.095,45.575,0,0,0,89.35,0,0,0,0,0,0,0,0,0,0,0,0,0,2,2,17.47,FLYING
18.25,APPROACH,ILS_TRACK,78.86,80,1.14,392.9,-2.26,6.88,8.43,89.09,0.003,0.404,-19.445,89.09,0,-4.02,-158.6,7.972,0.092,44.916,0,0,0,89.35,0,0,0,0,0,0,0,0,0,0,0,0,0,3,3,18.29,FLYING
19.11,APPROACH,ILS_TRACK,77.62,80,2.38,391.17,-2.05,7.36,8.79,89.09,0,0.4837,-18.283,89.09,0,-3.89,-156.63,7.901,0.088,43.847,0,0,0,89.35,0,0,0,0,0,0,0,0,0,0,0,0,0,3,3,19.15,FLYING
19.91,APPROACH,ILS_TRACK,76.54,80,3.46,389.67,-1.88,7.79,9.12,89.08,0,0.5488,-16.58,89.09,0,-3.77,-154.75,7.836,0.092,43.405,0,0,0,89.35,0,0,0,0,0,0,0,0,0,0,0,0,0,3,3,19.95,FLYING
20.71,APPROACH,ILS_TRACK,75.56,80,4.44,388.3,-1.73,8.2,9.43,89.08,-0.004,0.6082,-14.383,89.09,0,-3.65,-152.78,7.772,0.089,42.68,0,0,0,89.35,0,0,0,0,0,0,0,0,0,0,0,0,0,3,3,20.75,FLYING
21.51,APPROACH,ILS_TRACK,74.68,80,5.32,387.03,-1.58,8.56,9.71,89.08,-0.007,0.6609,-11.741,89.09,0,-3.54,-150.73,7.708,0.087,41.95,0,0,0,89.35,0,0,0,0,0,0,0,0,0,0,0,0,0,3,3,21.55,FLYING
22.31,APPROACH,ILS_TRACK,73.91,80,6.09,385.87,-1.45,8.88,9.94,89.07,-0.008,0.7059,-8.712,89.09,0,-3.44,-148.62,7.646,0.086,41.211,0,0,0,89.35,0,0,0,0,0,0,0,0,0,0,0,0,0,3,3,22.35,FLYING
23.11,APPROACH,ILS_TRACK,73.26,80,6.74,384.8,-1.33,9.15,10.13,89.07,-0.01,0.7427,-5.357,89.08,0,-3.34,-146.45,7.584,0.083,40.46,0,0,0,89.35,0,0,0,0,0,0,0,0,0,0,0,0,0,3,3,23.15,FLYING
23.93,APPROACH,ILS_TRACK,72.73,80,7.27,383.79,-1.22,9.36,10.27,89.07,-0.011,0.7723,-1.733,89.08,0,-3.24,-144.16,7.52,0.08,39.59,0,0,0,89.35,0,0,0,0,0,0,0,0,0,0,0,0,0,3,3,23.97,FLYING
24.75,APPROACH,ILS_TRACK,72.34,80,7.66,382.86,-1.11,9.51,10.35,89.07,-0.012,0.7843,2.089,89.08,0,-3.15,-141.82,7.458,0.079,38.79,0,0,0,89.35,0,0,0,0,0,0,0,0,0,0,0,0,0,3,3,24.79,FLYING
25.57,APPROACH,ILS_TRACK,72.09,80,7.91,382.01,-1.02,9.61,10.37,89.07,-0.013,0.7804,6.038,89.08,0,-3.05,-139.41,7.395,0.076,37.973,0,0,0,89.35,0,0,0,0,0,0,0,0,0,0,0,0,0,3,3,25.61,FLYING
26.39,APPROACH,ILS_TRACK,71.98,80,8.02,381.22,-0.92,9.64,10.34,89.06,-0.015,0.7734,10.046,89.07,0,-2.97,-136.94,7.333,0.075,37.137,0,0,0,89.35,0,0,0,0,0,0,0,0,0,0,0,0,0,3,3,26.43,FLYING
27.21,APPROACH,ILS_TRACK,72.01,80,7.99,380.49,-0.84,9.62,10.25,89.06,-0.016,0.764,14.044,89.07,0,-2.88,-134.41,7.27,0.072,36.278,0,0,0,89.35,0,0,0,0,0,0,0,0,0,0,0,0,0,3,3,27.25,FLYING
28.03,APPROACH,ILS_TRACK,72.16,80,7.84,379.83,-0.76,9.55,10.12,89.06,-0.017,0.7525,17.97,89.07,0,-2.8,-131.82,7.208,0.07,35.396,0,0,0,89.35,0,0,0,0,0,0,0,0,0,0,0,0,0,3,3,28.07,FLYING
28.85,APPROACH,ILS_TRACK,72.43,80,7.57,379.22,-0.68,9.43,9.94,89.06,-0.018,0.718,20,89.07,0,-2.72,-129.16,7.145,0.068,34.491,0,0,0,89.35,0,0,0,0,0,0,0,0,0,0,0,0,0,3,3,28.89,FLYING
29.67,APPROACH,ILS_TRACK,72.81,80,7.19,378.66,-0.61,9.27,9.73,89.06,-0.018,0.6453,20,89.07,0,-2.64,-126.43,7.083,0.067,33.562,0,0,0,89.35,0,0,0,0,0,0,0,0,0,0,0,0,0,3,3,29.71,FLYING
30.49,APPROACH,ILS_TRACK,73.29,80,6.71,378.16,-0.55,9.08,9.49,89.05,-0.019,0.5655,20,89.06,0,-2.56,-123.63,7.019,0.063,32.609,0,0,0,89.35,0,0,0,0,0,0,0,0,0,0,0,0,0,3,3,30.53,FLYING
31.31,APPROACH,ILS_TRACK,73.83,80,6.17,377.7,-0.49,8.89,9.25,89.05,-0.02,0.4863,20,89.06,0,-2.48,-120.76,6.956,0.062,31.635,0,0,0,89.35,0,0,0,0,0,0,0,0,0,0,0,0,0,3,3,31.35,FLYING
32.13,APPROACH,ILS_TRACK,74.43,80,5.57,377.29,-0.44,8.69,9.01,89.05,-0.02,0.4103,20,89.06,0,-2.41,-117.82,6.892,0.06,30.639,0,0,0,89.35,0,0,0,0,0,0,0,0,0,0,0,0,0,3,3,32.17,FLYING
32.95,APPROACH,ILS_TRACK,75.04,80,4.96,376.92,-0.39,8.49,8.78,89.05,-0.02,0.3399,20,89.06,0,-2.34,-114.81,6.827,0.057,29.625,0,0,0,89.35,0,0,0,0,0,0,0,0,0,0,0,0,0,3,3,32.99,FLYING
33.77,APPROACH,ILS_TRACK,75.65,80,4.35,376.59,-0.33,8.3,8.55,89.05,-0.023,0.2791,20,89.06,0,-2.27,-111.73,6.762,0.056,28.594,0,0,0,89.35,0,0,0,0,0,0,0,0,0,0,0,0,0,3,3,33.81,FLYING
34.59,APPROACH,ILS_TRACK,76.19,80,3.81,376.24,-0.42,8.12,8.42,88.95,0.407,0.2328,20,89.05,0,-2.2,-108.63,6.696,0.053,27.639,0,0,0,89.35,0,0,0,0,0,0,0,0,0,0,0,0,0,3,3,34.63,FLYING
35.41,APPROACH,ILS_TRACK,76.61,80,3.39,375.93,-0.43,8.2,8.47,88.95,0.234,0.2083,20,89.08,0,-2.18,-105.51,6.63,0.076,26.647,0,0,0,89.35,0,0,0,0,0,0,0,0,0,0,0,0,0,3,3,35.45,FLYING
36.23,APPROACH,ILS_TRACK,76.64,80,3.36,376.33,0.59,11.41,11.01,88.93,0.124,0.2393,20,89.09,0,-2.19,-101.75,6.564,0.094,24.523,0,0,0,89.35,0,0,0,0,0,0,0,0,0,0,0,0,0,3,3,36.27,FLYING
37.05,APPROACH,ILS_TRACK,76.34,80,3.66,377.1,1.63,9.7,8.58,88.94,0.022,0.3194,20,89.11,0,-2.23,-97.58,6.498,0.108,22.597,0,0,0,89.35,0,0,0,0,0,0,0,0,0,0,0,0,0,3,3,37.09,FLYING
37.87,APPROACH,ILS_TRACK,76.28,80,3.72,378.36,1.46,9.81,8.75,88.95,-0.052,0.3499,20,89.12,0,-2.28,-92.95,6.432,0.116,20.479,0,0,0,89.35,0,0,0,0,0,0,0,0,0,0,0,0,0,3,3,37.91,FLYING
38.69,APPROACH,ILS_TRACK,76.16,80,3.84,379.62,1.65,9.5,8.33,88.96,-0.099,0.3821,20,89.12,0,-2.32,-88.2,6.366,0.117,18.854,0,0,0,89.35,0,0,0,0,0,0,0,0,0,0,0,0,0,3,3,38.73,FLYING
39.51,APPROACH,ILS_TRACK,76.15,80,3.85,380.87,1.49,9.35,8.28,88.97,-0.126,0.3951,20,89.12,0,-2.37,-83.5,6.3,0.116,17.529,0,0,0,89.35,0,0,0,0,0,0,0,0,0,0,0,0,0,3,3,39.55,FLYING
40.31,APPROACH,ILS_TRACK,76.16,80,3.84,382.04,1.38,9.27,8.28,88.98,-0.136,0.4003,20,89.11,0,-2.4,-78.87,6.234,0.113,16.249,0,0,0,89.35,0,0,0,0,0,0,0,0,0,0,0,0,0,3,3,40.35,FLYING
41.13,APPROACH,ILS_TRACK,76.21,80,3.79,383.11,1.28,9.19,8.28,88.99,-0.14,0.3995,20,89.11,0,-2.42,-74.32,6.168,0.109,15.027,0,0,0,89.35,0,0,0,0,0,0,0,0,0,0,0,0,0,3,3,41.17,FLYING
41.97,APPROACH,ILS_TRACK,76.29,80,3.71,384.1,1.18,9.09,8.25,89,-0.143,0.3936,20,89.1,0,-2.44,-69.86,6.102,0.103,13.816,0,0,0,89.35,0,0,0,0,0,0,0,0,0,0,0,0,0,3,3,41.99,FLYING
42.79,APPROACH,ILS_TRACK,76.4,80,3.6,385.04,1.1,8.99,8.22,89.01,-0.143,0.3832,20,89.1,0,-2.44,-65.36,6.034,0.098,12.411,0,0,0,89.35,0,0,0,0,0,0,0,0,0,0,0,0,0,3,3,42.83,FLYING
43.59,APPROACH,ILS_TRACK,76.54,80,3.46,385.87,1.02,8.9,8.18,89.02,-0.137,0.3706,20,89.09,0,-2.42,-61.14,5.97,0.091,11.586,0,0,0,89.35,0,0,0,0,0,0,0,0,0,0,0,0,0,3,3,43.63,FLYING
44.39,APPROACH,ILS_TRACK,76.69,80,3.31,386.64,0.95,8.8,8.13,89.03,-0.126,0.356,20,89.09,0,-2.4,-56.97,5.905,0.085,10.421,0,0,0,89.35,0,0,0,0,0,0,0,0,0,0,0,0,0,3,3,44.43,FLYING
45.19,APPROACH,ILS_TRACK,76.86,80,3.14,387.36,0.88,8.71,8.08,89.03,-0.114,0.3404,20,89.08,0,-2.37,-52.85,5.84,0.079,9.259,0,0,0,89.35,0,0,0,0,0,0,0,0,0,0,0,0,0,3,3,45.23,FLYING
45.99,APPROACH,ILS_TRACK,77.05,80,2.95,388.02,0.83,8.61,8.03,89.04,-0.101,0.3244,20,89.07,0,-2.33,-48.77,5.775,0.074,8.103,0,0,0,89.35,0,0,0,0,0,0,0,0,0,0,0,0,0,3,3,46.03,FLYING
46.79,APPROACH,ILS_TRACK,77.23,80,2.77,388.65,0.77,8.53,7.98,89.04,-0.088,0.309,20,89.07,0,-2.28,-44.72,5.71,0.067,6.947,0,0,0,89.35,0,0,0,0,0,0,0,0,0,0,0,0,0,3,3,46.83,FLYING
47.61,APPROACH,ILS_TRACK,77.42,80,2.58,389.25,0.73,8.45,7.94,89.04,-0.075,0.295,20,89.06,0,-2.23,-40.61,5.643,0.062,5.601,0,0,0,89.35,0,0,0,0,0,0,0,0,0,0,0,0,0,3,3,47.65,FLYING
48.43,APPROACH,ILS_TRACK,77.58,80,2.42,389.82,0.68,8.39,7.91,89.05,-0.064,0.2851,20,89.06,0,-2.17,-36.52,5.576,0.057,4.417,0,0,0,89.35,0,0,0,0,0,0,0,0,0,0,0,0,0,3,3,48.47,FLYING
49.25,APPROACH,ILS_TRACK,77.72,80,2.28,390.35,0.65,8.34,7.89,89.05,-0.056,0.2799,20,89.05,0,-2.11,-32.46,5.509,0.053,3.234,0,0,0,89.35,0,0,0,0,0,0,0,0,0,0,0,0,0,3,3,49.29,FLYING
50.07,APPROACH,ILS_TRACK,77.82,80,2.18,390.86,0.63,8.28,7.86,89.05,-0.048,0.2793,20,89.05,-0.945,-2.04,-28.42,5.442,0.05,2.055,0,0,0,89.35,0,0,0,0,0,0,0,0,0,0,0,0,0,3,3,50.11,FLYING
50.89,APPROACH,ILS_TRACK,77.92,80,2.08,391.27,0.49,7.95,7.62,89.05,-0.043,0.279,20,89.05,-1.997,-1.98,-24.46,5.374,0.046,1.003,0,0,0,89.35,0,0,0,0,0,0,0,0,0,0,0,0,0,3,3,50.93,FLYING
51.71,APPROACH,ILS_TRACK,78.03,80,1.97,391.5,0.22,7.55,7.4,89.05,-0.04,0.2746,20,89.04,-2.884,-1.91,-20.66,5.307,0.043,0.116,0,0,0,89.35,0,0,0,0,0,0,0,0,0,0,0,0,0,3,3,51.75,FLYING
52.53,APPROACH,ILS_TRACK,78.18,80,1.82,391.46,-0.13,7.11,7.22,89.05,-0.035,0.2655,20,89.04,-3.56,-1.84,-17.1,5.239,0.04,-0.56,0,0,0,89.35,0,0,0,0,0,0,0,0,0,0,0,0,0,3,3,52.57,FLYING
53.35,APPROACH,ILS_TRACK,78.36,80,1.64,391.1,-0.56,6.69,7.09,89.05,-0.032,0.2524,20,89.04,-4.039,-1.78,-13.85,5.172,0.038,-1.039,0,0,0,89.35,0,0,0,0,0,0,0,0,0,0,0,0,0,3,3,53.39,FLYING
54.17,APPROACH,ILS_TRACK,78.55,80,1.45,390.37,-1.02,6.29,7,89.04,-0.029,0.2371,20,89.04,-4.351,-1.71,-10.95,5.104,0.035,-1.351,0,0,0,89.35,0,0,0,0,0,0,0,0,0,0,0,0,0,3,3,54.21,FLYING
54.99,APPROACH,ILS_TRACK,78.75,80,1.25,389.28,-1.48,5.92,6.95,89.04,-0.026,0.2218,20,89.03,-4.528,-1.65,-8.42,5.036,0.034,-1.528,0,0,0,89.35,0,0,0,0,0,0,0,0,0,0,0,0,0,3,3,55.03,FLYING
55.81,APPROACH,ILS_TRACK,78.95,80,1.05,387.81,-1.94,5.6,6.93,89.04,-0.025,0.2084,20,89.03,-4.598,-1.58,-6.25,4.968,0.032,-1.598,0,0,0,89.35,0,0,0,0,0,0,0,0,0,0,0,0,0,3,3,55.85,FLYING
56.63,APPROACH,ILS_TRACK,79.13,80,0.87,385.99,-2.36,5.33,6.95,89.04,-0.023,0.1982,20,89.03,-4.589,-1.52,-4.43,4.899,0.03,-1.589,0,0,0,89.35,0,0,0,0,0,0,0,0,0,0,0,0,0,3,3,56.67,FLYING
57.45,APPROACH,ILS_TRACK,79.28,80,0.72,383.85,-2.75,5.1,6.98,89.04,-0.022,0.1921,20,89.03,-4.523,-1.46,-2.93,4.831,0.029,-1.523,0,0,0,89.35,0,0,0,0,0,0,0,0,0,0,0,0,0,3,3,57.49,FLYING
58.27,APPROACH,ILS_TRACK,79.41,80,0.59,381.42,-3.1,4.91,7.02,89.04,-0.021,0.1901,20,89.03,-4.418,-1.4,-1.72,4.762,0.027,-1.418,0,0,0,89.35,0,0,0,0,0,0,0,0,0,0,0,0,0,3,3,58.31,FLYING
59.09,APPROACH,ILS_TRACK,79.51,80,0.49,378.73,-3.4,4.76,7.07,89.04,-0.019,0.1914,20,89.03,-4.288,-1.35,-0.77,4.693,0.026,-1.288,0,0,0,89.35,0,0,0,0,0,0,0,0,0,0,0,0,0,3,3,59.13,FLYING
59.91,APPROACH,ILS_TRACK,79.58,80,0.42,375.82,-3.66,4.64,7.13,89.03,-0.017,0.1951,20,89.02,-4.146,-1.3,-0.04,4.625,0.025,-1.146,0,0,0,89.35,0,0,0,0,0,0,0,0,0,0,0,0,0,3,3,59.95,FLYING
60.73,APPROACH,ILS_TRACK,79.63,80,0.37,372.72,-3.87,4.55,7.18,89.03,-0.017,0.2002,20,89.02,-4.001,-1.24,0.49,4.556,0.024,-1.001,0,0,0,89.35,0,0,0,0,0,0,0,0,0,0,0,0,0,3,3,60.77,FLYING
61.55,APPROACH,ILS_TRACK,79.68,80,0.32,369.47,-4.04,4.48,7.23,89.03,-0.016,0.2053,20,89.02,-3.861,-1.2,0.87,4.487,0.023,-0.861,0,0,0,89.35,0,0,0,0,0,0,0,0,0,0,0,0,0,3,3,61.59,FLYING
62.37,APPROACH,ILS_TRACK,79.71,80,0.29,366.09,-4.18,4.43,7.27,89.03,-0.015,0.2097,20,89.02,-3.73,-1.15,1.11,4.418,0.023,-0.73,0,0,0,89.35,0,0,0,0,0,0,0,0,0,0,0,0,0,3,3,62.41,FLYING
63.19,APPROACH,ILS_TRACK,79.75,80,0.25,362.62,-4.29,4.39,7.31,89.02,-0.015,0.2127,20,89.02,-3.61,-1.11,1.26,4.35,0.023,-0.61,0,0,0,89.35,0,0,0,0,0,0,0,0,0,0,0,0,0,3,3,63.23,FLYING
64.01,APPROACH,ILS_TRACK,79.8,80,0.2,359.07,-4.37,4.36,7.33,89.02,-0.015,0.2143,20,89.02,-3.508,-1.07,1.33,4.281,0.022,-0.508,0,0,0,89.35,0,0,0,0,0,0,0,0,0,0,0,0,0,3,3,64.05,FLYING
64.83,APPROACH,ILS_TRACK,79.84,80,0.16,355.47,-4.42,4.35,7.36,89.02,-0.016,0.2149,20,89.02,-3.425,-1.03,1.34,4.212,0.022,-0.425,0,0,0,89.35,0,0,0,0,0,0,0,0,0,0,0,0,0,3,3,64.87,FLYING
65.65,APPROACH,ILS_TRACK,79.88,80,0.12,351.84,-4.45,4.35,7.38,89.02,-0.016,0.2148,20,89.02,-3.364,-0.99,1.32,4.143,0.022,-0.364,0,0,0,89.35,0,0,0,0,0,0,0,0,0,0,0,0,0,3,3,65.69,FLYING
66.47,APPROACH,ILS_TRACK,79.93,80,0.07,348.18,-4.46,4.34,7.38,89.02,-0.017,0.2142,20,89.02,-3.32,-0.96,1.28,4.074,0.022,-0.32,0,0,0,89.35,0,0,0,0,0,0,0,0,0,0,0,0,0,3,3,66.51,FLYING
67.29,APPROACH,ILS_TRACK,79.98,80,0.02,344.52,-4.47,4.33,7.37,89.02,-0.018,0.213,20,89.02,-3.289,-0.93,1.23,4.005,0.022,-0.289,0,0,0,89.35,0,0,0,0,0,0,0,0,0,0,0,0,0,3,3,67.33,FLYING
68.11,APPROACH,ILS_TRACK,80.03,80,-0.03,340.85,-4.47,4.32,7.37,89.01,-0.018,0.2113,19.988,89.02,-3.264,-0.9,1.18,3.937,0.022,-0.264,0,0,0,89.35,0,0,0,0,0,0,0,0,0,0,0,0,0,3,3,68.15,FLYING
68.93,APPROACH,ILS_TRACK,80.07,80,-0.07,337.18,-4.48,4.31,7.35,89.01,-0.019,0.2091,19.952,89.02,-3.245,-0.88,1.12,3.868,0.023,-0.245,0,0,0,89.35,0,0,0,0,0,0,0,0,0,0,0,0,0,3,3,68.97,FLYING
69.75,APPROACH,ILS_TRACK,80.12,80,-0.12,333.51,-4.47,4.3,7.34,89.01,-0.02,0.2065,19.891,89.02,-3.229,-0.85,1.06,3.799,0.023,-0.229,0,0,0,89.35,0,0,0,0,0,0,0,0,0,0,0,0,0,3,3,69.79,FLYING
70.57,APPROACH,ILS_TRACK,80.17,80,-0.17,329.84,-4.47,4.29,7.33,89.01,-0.021,0.2039,19.808,89.02,-3.216,-0.83,1.01,3.73,0.023,-0.216,0,0,0,89.35,0,0,0,0,0,0,0,0,0,0,0,0,0,3,3,70.61,FLYING
71.39,APPROACH,ILS_TRACK,80.21,80,-0.21,326.17,-4.47,4.28,7.32,89.01,-0.022,0.2017,19.705,89.02,-3.205,-0.82,0.96,3.661,0.023,-0.205,0,0,0,89.35,0,0,0,0,0,0,0,0,0,0,0,0,0,3,3,71.43,FLYING
72.21,APPROACH,ILS_TRACK,80.24,80,-0.24,322.51,-4.47,4.28,7.32,89.01,-0.022,0.2001,19.585,89.02,-3.197,-0.8,0.91,3.592,0.024,-0.197,0,0,0,89.35,0,0,0,0,0,0,0,0,0,0,0,0,0,3,3,72.25,FLYING
73.03,APPROACH,ILS_TRACK,80.27,80,-0.27,318.85,-4.46,4.28,7.31,89,-0.023,0.1992,19.452,89.02,-3.19,-0.78,0.87,3.522,0.024,-0.19,0,0,0,89.35,0,0,0,0,0,0,0,0,0,0,0,0,0,3,3,73.07,FLYING
73.85,APPROACH,ILS_TRACK,80.29,80,-0.29,315.19,-4.46,4.28,7.31,89,-0.023,0.1989,19.31,89.02,-3.184,-0.77,0.83,3.453,0.024,-0.184,0,0,0,89.35,0,0,0,0,0,0,0,0,0,0,0,0,0,3,3,73.89,FLYING
74.67,APPROACH,ILS_TRACK,80.3,80,-0.3,311.53,-4.45,4.28,7.3,89,-0.023,0.1991,19.162,89.03,-3.18,-0.76,0.79,3.384,0.025,-0.18,0,0,0,89.35,0,0,0,0,0,0,0,0,0,0,0,0,0,3,3,74.71,FLYING
75.49,APPROACH,ILS_TRACK,80.3,80,-0.3,307.89,-4.45,4.28,7.3,89,-0.024,0.1996,19.011,89.03,-3.177,-0.75,0.76,3.315,0.025,-0.177,0,0,0,89.35,0,0,0,0,0,0,0,0,0,0,0,0,0,3,3,75.53,FLYING
76.31,APPROACH,ILS_TRACK,80.3,80,-0.3,304.24,-4.44,4.28,7.3,89,-0.025,0.2003,18.859,89.03,-3.175,-0.74,0.73,3.246,0.026,-0.175,0,0,0,89.35,0,0,0,0,0,0,0,0,0,0,0,0,0,3,3,76.35,FLYING
77.13,APPROACH,ILS_TRACK,80.3,80,-0.3,300.6,-4.44,4.29,7.31,89,-0.025,0.2009,18.708,89.03,-3.175,-0.74,0.71,3.177,0.027,-0.175,0,0,0,89.35,0,0,0,0,0,0,0,0,0,0,0,0,0,3,3,77.17,FLYING
77.95,APPROACH,ILS_TRACK,80.3,80,-0.3,296.97,-4.43,4.29,7.31,89,-0.026,0.2013,18.559,89.03,-3.175,-0.73,0.69,3.108,0.027,-0.175,0,0,0,89.35,0,0,0,0,0,0,0,0,0,0,0,0,0,3,3,77.99,FLYING
78.77,APPROACH,ILS_TRACK,80.29,80,-0.29,293.33,-4.43,4.3,7.31,89,-0.026,0.2014,18.411,89.03,-3.175,-0.73,0.67,3.039,0.028,-0.175,0,0,0,89.35,0,0,0,0,0,0,0,0,0,0,0,0,0,3,3,78.81,FLYING
79.59,APPROACH,ILS_TRACK,80.29,80,-0.29,289.71,-4.42,4.3,7.31,89,-0.027,0.2013,18.266,89.03,-3.176,-0.73,0.66,2.97,0.028,-0.176,0,0,0,89.35,0,0,0,0,0,0,0,0,0,0,0,0,0,3,3,79.63,FLYING
80.41,APPROACH,ILS_TRACK,80.29,80,-0.29,286.08,-4.42,4.3,7.31,89,-0.028,0.2009,18.123,89.03,-3.178,-0.73,0.65,2.901,0.029,-0.178,0,0,0,89.35,0,0,0,0,0,0,0,0,0,0,0,0,0,3,3,80.45,FLYING
81.23,APPROACH,ILS_TRACK,80.28,80,-0.28,282.46,-4.41,4.31,7.31,88.99,-0.029,0.2004,17.983,89.03,-3.18,-0.73,0.64,2.832,0.03,-0.18,0,0,0,89.35,0,0,0,0,0,0,0,0,0,0,0,0,0,3,3,81.27,FLYING
82.05,APPROACH,ILS_TRACK,80.28,80,-0.28,278.85,-4.41,4.31,7.31,88.99,-0.03,0.1998,17.845,89.03,-3.182,-0.73,0.64,2.764,0.03,-0.182,0,0,0,89.35,0,0,0,0,0,0,0,0,0,0,0,0,0,3,3,82.09,FLYING
82.87,APPROACH,ILS_TRACK,80.27,80,-0.27,275.24,-4.41,4.31,7.31,88.99,-0.031,0.1992,17.71,89.03,-3.185,-0.74,0.63,2.695,0.031,-0.185,0,0,0,89.35,0,0,0,0,0,0,0,0,0,0,0,0,0,3,3,82.91,FLYING
83.69,APPROACH,ILS_TRACK,80.26,80,-0.26,271.63,-4.4,4.32,7.32,88.99,-0.032,0.1987,17.579,89.03,-3.187,-0.74,0.63,2.626,0.031,-0.187,0,0,0,89.35,0,0,0,0,0,0,0,0,0,0,0,0,0,3,3,83.73,FLYING
84.51,APPROACH,ILS_TRACK,80.25,80,-0.25,268.02,-4.4,4.32,7.32,88.99,-0.032,0.1984,17.452,89.03,-3.19,-0.74,0.63,2.557,0.033,-0.19,0,0,0,89.35,0,0,0,0,0,0,0,0,0,0,0,0,0,3,3,84.55,FLYING
85.33,APPROACH,ILS_TRACK,80.24,80,-0.24,264.41,-4.4,4.32,7.32,88.99,-0.033,0.1982,17.331,89.03,-3.192,-0.75,0.63,2.488,0.033,-0.192,0,0,0,89.35,0,0,0,0,0,0,0,0,0,0,0,0,0,3,3,85.37,FLYING
86.15,APPROACH,ILS_TRACK,80.23,80,-0.23,260.81,-4.39,4.33,7.33,88.99,-0.033,0.1982,17.215,89.03,-3.194,-0.76,0.64,2.419,0.034,-0.194,0,0,0,89.35,0,0,0,0,0,0,0,0,0,0,0,0,0,3,3,86.19,FLYING
86.97,APPROACH,ILS_TRACK,80.22,80,-0.22,257.21,-4.39,4.33,7.33,88.99,-0.034,0.1983,17.107,89.03,-3.196,-0.76,0.64,2.35,0.034,-0.196,0,0,0,89.35,0,0,0,0,0,0,0,0,0,0,0,0,0,3,3,87.01,FLYING
87.79,APPROACH,ILS_TRACK,80.2,80,-0.2,253.61,-4.39,4.34,7.33,88.99,-0.035,0.1985,17.006,89.03,-3.198,-0.77,0.64,2.282,0.035,-0.198,0,0,0,89.35,0,0,0,0,0,0,0,0,0,0,0,0,0,3,3,87.83,FLYING
88.61,APPROACH,ILS_TRACK,80.19,80,-0.19,250.01,-4.39,4.34,7.34,88.99,-0.035,0.1988,16.913,89.04,-3.199,-0.78,0.65,2.213,0.035,-0.199,0,0,0,89.35,0,0,0,0,0,0,0,0,0,0,0,0,0,3,3,88.65,FLYING
89.43,APPROACH,ILS_TRACK,80.17,80,-0.17,246.41,-4.39,4.35,7.34,88.99,-0.035,0.199,16.827,89.04,-3.2,-0.79,0.65,2.144,0.036,-0.2,0,0,0,89.35,0,0,0,0,0,0,0,0,0,0,0,0,0,3,3,89.47,FLYING
90.25,APPROACH,ILS_TRACK,80.16,80,-0.16,242.82,-4.38,4.35,7.35,88.99,-0.036,0.1992,16.749,89.04,-3.201,-0.8,0.65,2.076,0.036,-0.201,0,0,0,89.35,0,0,0,0,0,0,0,0,0,0,0,0,0,3,3,90.29,FLYING
91.07,APPROACH,ILS_TRACK,80.14,80,-0.14,239.22,-4.38,4.35,7.35,88.99,-0.036,0.1993,16.678,89.04,-3.202,-0.81,0.66,2.007,0.037,-0.202,0,0,0,89.35,0,0,0,0,0,0,0,0,0,0,0,0,0,3,3,91.11,FLYING
91.89,APPROACH,ILS_TRACK,80.13,80,-0.13,235.63,-4.38,4.36,7.36,88.99,-0.036,0.1994,16.613,89.04,-3.202,-0.82,0.66,1.938,0.038,-0.202,0,0,0,89.35,0,0,0,0,0,0,0,0,0,0,0,0,0,3,3,91.93,FLYING
92.71,APPROACH,ILS_TRACK,80.11,80,-0.11,232.04,-4.38,4.36,7.36,88.99,-0.037,0.1994,16.556,89.04,-3.203,-0.83,0.66,1.87,0.038,-0.203,0,0,0,89.35,0,0,0,0,0,0,0,0,0,0,0,0,0,3,3,92.75,FLYING
93.53,APPROACH,ILS_TRACK,80.1,80,-0.1,228.45,-4.38,4.36,7.36,88.99,-0.037,0.1995,16.505,89.04,-3.203,-0.84,0.66,1.801,0.039,-0.203,0,0,0,89.35,0,0,0,0,0,0,0,0,0,0,0,0,0,3,3,93.57,FLYING
94.35,APPROACH,ILS_TRACK,80.09,80,-0.09,224.86,-4.38,4.37,7.37,88.99,-0.037,0.1995,16.461,89.04,-3.203,-0.85,0.67,1.733,0.039,-0.203,0,0,0,89.35,0,0,0,0,0,0,0,0,0,0,0,0,0,3,3,94.39,FLYING
95.17,APPROACH,ILS_TRACK,80.08,80,-0.08,221.27,-4.38,4.37,7.37,88.99,-0.037,0.1995,16.422,89.04,-3.203,-0.86,0.67,1.664,0.04,-0.203,0,0,0,89.35,0,0,0,0,0,0,0,0,0,0,0,0,0,3,3,95.21,FLYING
95.99,APPROACH,ILS_TRACK,80.07,80,-0.07,217.68,-4.38,4.37,7.37,88.99,-0.038,0.1995,16.389,89.04,-3.203,-0.87,0.67,1.596,0.04,-0.203,0,0,0,89.35,0,0,0,0,0,0,0,0,0,0,0,0,0,3,3,96.03,FLYING
96.81,APPROACH,ILS_TRACK,80.06,80,-0.06,214.09,-4.37,4.38,7.38,88.99,-0.038,0.1996,16.361,89.04,-3.203,-0.88,0.67,1.527,0.041,-0.203,0,0,0,89.35,0,0,0,0,0,0,0,0,0,0,0,0,0,3,3,96.85,FLYING
97.63,APPROACH,ILS_TRACK,80.05,80,-0.05,210.51,-4.37,4.38,7.38,88.99,-0.038,0.1996,16.338,89.04,-3.203,-0.89,0.67,1.459,0.041,-0.203,0,0,0,89.35,0,0,0,0,0,0,0,0,0,0,0,0,0,3,3,97.67,FLYING
98.45,APPROACH,ILS_TRACK,80.04,80,-0.04,206.92,-4.37,4.38,7.38,88.99,-0.038,0.1997,16.32,89.04,-3.203,-0.9,0.67,1.39,0.042,-0.203,0,0,0,89.35,0,0,0,0,0,0,0,0,0,0,0,0,0,3,3,98.49,FLYING
99.27,APPROACH,ILS_TRACK,80.03,80,-0.03,203.34,-4.37,4.39,7.38,88.99,-0.038,0.1997,16.307,89.04,-3.203,-0.91,0.67,1.322,0.042,-0.203,0,0,0,89.35,0,0,0,0,0,0,0,0,0,0,0,0,0,3,3,99.31,FLYING
100.09,APPROACH,ILS_TRACK,80.02,80,-0.02,199.75,-4.37,4.39,7.39,88.99,-0.038,0.1998,16.298,89.04,-3.203,-0.93,0.67,1.253,0.043,-0.203,0,0,0,89.35,0,0,0,0,0,0,0,0,0,0,0,0,0,3,3,100.13,FLYING
100.91,APPROACH,ILS_TRACK,80.01,80,-0.01,196.17,-4.37,4.39,7.39,88.99,-0.039,0.1999,16.292,89.04,-3.203,-0.94,0.67,1.185,0.043,-0.203,0,0,0,89.35,0,0,0,0,0,0,0,0,0,0,0,0,0,3,3,100.95,FLYING
101.73,APPROACH,ILS_TRACK,80,80,0,192.59,-4.37,4.39,7.39,88.99,-0.038,0.2,16.291,89.04,-3.203,-0.95,0.67,1.117,0.044,-0.203,0,0,0,89.35,0,0,0,0,0,0,0,0,0,0,0,0,0,3,3,101.77,FLYING
102.55,APPROACH,ILS_TRACK,80,80,0,189.01,-4.37,4.39,7.39,88.99,-0.039,0.2,16.292,89.04,-3.203,-0.96,0.67,1.048,0.044,-0.203,0,0,0,89.35,0,0,0,0,0,0,0,0,0,0,0,0,0,3,3,102.59,FLYING
103.37,APPROACH,ILS_TRACK,79.99,80,0.01,185.43,-4.36,4.4,7.4,88.99,-0.039,0.2001,16.297,89.04,-3.203,-0.97,0.68,0.98,0.044,-0.203,0,0,0,89.35,0,0,0,0,0,0,0,0,0,0,0,0,0,3,3,103.41,FLYING
104.19,APPROACH,ILS_TRACK,79.99,80,0.01,181.85,-4.36,4.4,7.4,88.99,-0.039,0.2001,16.304,89.04,-3.203,-0.98,0.68,0.912,0.045,-0.203,0,0,0,89.35,0,0,0,0,0,0,0,0,0,0,0,0,0,3,3,104.23,FLYING
105.01,APPROACH,ILS_TRACK,79.98,80,0.02,178.28,-4.36,4.4,7.4,88.99,-0.039,0.2001,16.313,89.05,-3.203,-0.99,0.68,0.844,0.045,-0.203,0,0,0,89.35,0,0,0,0,0,0,0,0,0,0,0,0,0,3,3,105.05,FLYING
105.83,APPROACH,ILS_TRACK,79.98,80,0.02,156.44,-4.36,4.4,7.4,88.99,-0.039,0.2002,16.324,89.05,-3.203,-1,0.68,0.775,0.046,-0.203,0,0,0,89.35,0,0,0,0,0,0,0,0,0,0,0,0,0,3,3,105.87,FLYING
106.65,APPROACH,ILS_TRACK,79.97,80,0.03,145,-4.36,4.4,7.4,88.99,-0.039,0.2001,16.337,89.05,-3.203,-1.02,0.68,0.707,0.046,-0.203,0,0,0,89.35,0,0,0,0,0,0,0,0,0,0,0,0,0,3,3,106.69,FLYING
107.47,APPROACH,ILS_TRACK,79.97,80,0.03,129.57,-4.36,4.4,7.4,88.99,-0.039,0.2001,16.351,89.05,-3.203,-1.03,0.68,0.639,0.047,-0.203,0,0,0,89.35,0,0,0,0,0,0,0,0,0,0,0,0,0,3,3,107.51,FLYING
108.29,APPROACH,ILS_TRACK,79.97,80,0.03,111.33,-4.36,4.4,7.4,88.99,-0.04,0.2,16.365,89.05,-3.203,-1.04,0.68,0.571,0.047,-0.203,0,0,0,89.35,0,0,0,0,0,0,0,0,0,0,0,0,0,3,3,108.33,FLYING
109.11,APPROACH,ILS_TRACK,79.97,80,0.03,96.75,-4.36,4.4,7.4,88.99,-0.039,0.1999,16.381,89.05,-3.203,-1.05,0.68,0.503,0.047,-0.203,0,0,0,89.35,0,0,0,0,0,0,0,0,0,0,0,0,0,3,3,109.15,FLYING
109.95,APPROACH,ILS_TRACK,79.97,80,0.03,85.41,-4.36,4.4,7.4,88.99,-0.039,0.1998,16.396,89.05,-3.203,-1.06,0.68,0.434,0.048,-0.203,0,0,0,89.35,0,0,0,0,0,0,0,0,0,0,0,0,0,3,3,109.97,FLYING
110.77,FLARE,,79.97,80,0.03,74.64,-4.36,4.4,7.4,88.99,-0.04,0.1996,16.411,89.05,-3.203,-1.07,0.68,0.366,0.048,-0.203,-3.117,0,0,89.35,0,0,0,0,0,0,0,0,0,0,0,0,0,3,3,0.04,FLYING
111.47,FLARE,,79.97,80,0.03,55.36,-4.35,4.4,7.4,89,-0.04,0.0315,14.926,89,-2.381,-1.07,0.68,0.366,0.048,-0.203,-2.381,-2.5,0.14,89.35,0,0,0,0,0,0,0,0,0,0,0,0,0,3,3,0.74,FLYING
112.11,FLARE,,79.92,80,0.08,26.13,-4.31,4.63,7.6,89,-0.038,0.0182,13.456,89,-1.791,-1.07,0.68,0.366,0.048,-0.203,-1.791,-2.5,0.282,89.35,0,0,0,0,0,0,0,0,0,0,0,0,0,3,3,1.38,FLYING
112.75,FLARE,,79.75,80,0.25,11.57,-4.19,4.92,7.81,89,-0.036,0.0244,12.065,89,-1.795,-1.07,0.68,0.366,0.048,-0.203,-1.795,-2.5,0.421,89.35,0,0,0,0,0,0,0,0,0,0,0,0,0,3,3,2.02,FLYING
113.39,FLARE,,79.45,80,0.55,9.01,-4.07,5.1,7.92,88.99,-0.035,0.0472,10.813,89,-1.527,-1.07,0.68,0.366,0.048,-0.203,-1.527,-2.12,0.557,89.35,0,0,0,0,0,0,0,0,0,0,0,0,0,3,3,2.66,FLYING
114.03,FLARE,,79.07,80,0.93,6.55,-3.93,5.38,8.11,88.99,-0.034,0.0817,9.746,89,-1.144,-1.07,0.68,0.366,0.048,-0.203,-1.144,-1.581,0.687,89.35,0,0,0,0,0,0,0,0,0,0,0,0,0,3,3,3.3,FLYING
114.67,TOUCHDOWN,,78.54,80,1.46,4.29,0.66,5.1,4.49,88.99,-0.057,0.1241,8.902,89,-0.776,-1.07,0.68,0.366,0.048,-0.203,-0.776,-1.065,0.813,89.35,0,0,0,0,0,0,0,0,0,0,0,0,0,3,3,0.04,LANDED
115.45,ROLLOUT,,77.6,80,2.4,3.71,-1.68,1.11,2.39,89.07,0.085,0,8.902,89,-0.776,-1.07,0.68,0.366,0.048,-0.203,-0.776,-1.065,0.813,89.35,0,0,0,0,0,0,0,0,-0.0838,0,-1.047,0,0,3,3,0.06,LANDED
116.33,ROLLOUT,,76.93,80,3.07,3.55,-0.23,-0.1,0.06,89.09,-0.046,1,8.902,89,-0.776,-1.07,0.68,0.366,0.048,-0.203,-0.776,-1.065,0.813,89.04,0.357,0.018,0.056,-0.001,0.357,0,-0.001,0,0.0063,0,0.079,0,0,3,3,0.94,LANDED
117.17,ROLLOUT,,75.85,80,4.15,3.81,-0.03,1.44,1.47,88.88,-0.178,1,8.902,89,-0.776,-1.07,0.68,0.366,0.048,-0.203,-0.776,-1.065,0.813,89.04,0.377,0.018,-0.154,0.0029,0.377,0,0.0029,0,-0.1157,0,-1.446,0,0,3,3,1.78,LANDED
117.99,ROLLOUT,,74.2,80,5.8,3.63,-0.04,0.49,0.49,88.97,0.087,1,8.902,89,-0.776,-1.07,0.68,0.366,0.048,-0.203,-0.776,-1.065,0.813,89.04,0.407,0.021,-0.122,0.0025,0.407,0,0.0025,0,-0.0364,0,-0.455,0,0,3,3,2.6,LANDED
118.83,ROLLOUT,,72.28,80,7.72,3.65,-0.03,0.6,0.62,89.5,0.183,1,8.902,89,-0.776,-1.07,0.68,0.366,0.048,-0.203,-0.776,-1.065,0.813,89.04,0.445,0.017,0.438,-0.0097,0.445,0,-0.0097,0,-0.0488,0,-0.61,0,0,3,3,3.44,LANDED
119.67,ROLLOUT,,70.32,80,9.68,3.64,-0.01,0.58,0.59,89.47,-0.163,1,8.902,89,-0.776,-1.07,0.68,0.366,0.048,-0.203,-0.776,-1.065,0.813,89.03,0.484,0.006,0.444,-0.0108,0.484,0,-0.0108,0,-0.0465,0,-0.582,0,0,3,3,4.28,LANDED
120.51,ROLLOUT,,68.37,80,11.63,3.64,0,0.61,0.61,89.21,-0.164,1,8.902,89,-0.776,-1.07,0.68,0.366,0.048,-0.203,-0.776,-1.065,0.813,89.03,0.523,-0.002,0.204,-0.0053,0.523,0,-0.0053,0,-0.0486,0,-0.607,0,0,3,3,5.12,LANDED
121.37,ROLLOUT,,65.82,80,14.18,3.62,0.01,0.49,0.49,88.96,-0.14,1,8.902,89,-0.776,-1.07,0.68,0.366,0.048,-0.203,-0.776,-1.065,0.813,89.02,0.569,-0.005,-0.06,0.0017,0.569,0,0.0017,0,-0.0394,0,-0.493,0,0,3,3,5.98,LANDED
122.23,ROLLOUT,,62.52,80,17.48,3.62,0.01,0.5,0.5,89.09,0.139,1,8.902,89,-0.776,-1.07,0.68,0.366,0.048,-0.203,-0.776,-1.065,0.813,89.02,0.634,-0.004,0.065,-0.0021,0.634,0,-0.0021,0,-0.0403,0,-0.503,0,0,3,3,6.84,LANDED
123.07,ROLLOUT,,59.35,80,20.65,3.62,0.01,0.51,0.5,88.97,-0.199,1,8.902,89,-0.776,-1.07,0.68,0.366,0.048,-0.203,-0.776,-1.065,0.813,89.01,0.698,-0.005,-0.045,0.0016,0.698,0,0.0016,0,-0.0409,0,-0.511,0,0,3,3,7.68,LANDED
123.93,ROLLOUT,,56.15,80,23.85,3.62,0.02,0.52,0.5,89.05,0.13,1,8.902,89,-0.776,-1.07,0.68,0.366,0.048,-0.203,-0.776,-1.065,0.813,89.01,0.762,-0.005,0.041,-0.0015,0.762,0,-0.0015,0,-0.0412,0,-0.515,0,0,3,3,8.54,LANDED
124.79,ROLLOUT,,53,80,27,3.62,0.02,0.52,0.5,88.98,-0.156,1,8.902,89,-0.776,-1.07,0.68,0.366,0.048,-0.203,-0.776,-1.065,0.813,89.01,0.825,-0.005,-0.024,0.001,0.825,0,0.001,0,-0.0415,0,-0.519,0,0,3,3,9.4,LANDED
125.65,ROLLOUT,,49.89,80,30.11,3.61,0.03,0.52,0.5,89.04,0.093,1,8.902,89,-0.776,-1.07,0.68,0.366,0.048,-0.203,-0.776,-1.065,0.813,89,0.888,-0.005,0.036,-0.0016,0.888,0,-0.0016,0,-0.0418,0,-0.523,0,0,3,3,10.26,LANDED
126.51,ROLLOUT,,46.82,80,33.18,3.61,0.02,0.53,0.51,88.98,-0.132,1,8.902,89,-0.776,-1.07,0.68,0.366,0.048,-0.203,-0.776,-1.065,0.813,89,0.949,-0.005,-0.011,0.0005,0.949,0,0.0005,0,-0.0426,0,-0.532,0,0,3,3,11.12,LANDED
127.37,ROLLOUT,,43.76,80,36.24,3.61,0.03,0.53,0.49,89.02,0.066,1,8.902,89,-0.776,-1.07,0.68,0.366,0.048,-0.203,-0.776,-1.065,0.813,89,1,-0.005,0.024,-0.0012,1,0,-0.0012,0,-0.0423,0,-0.529,0,0,3,3,11.98,LANDED
128.23,ROLLOUT,,40.7,80,39.3,3.61,0.03,0.53,0.49,88.99,-0.1,1,8.902,89,-0.776,-1.07,0.68,0.366,0.048,-0.203,-0.776,-1.065,0.813,88.99,1,-0.005,-0.002,0.0001,1,0,0.0001,0,-0.0427,0,-0.533,0,0,3,3,12.84,LANDED
129.09,ROLLOUT,,37.65,80,42.35,3.61,0.03,0.54,0.49,89.01,0.035,1,8.902,89,-0.776,-1.07,0.68,0.366,0.048,-0.203,-0.776,-1.065,0.813,89,1,-0.005,0.006,-0.0003,1,0,-0.0003,0,-0.043,0,-0.537,0,0,3,3,13.7,LANDED
129.95,ROLLOUT,,34.6,80,45.4,3.61,0.03,0.54,0.49,89.01,-0.065,1,8.902,89,-0.776,-1.07,0.68,0.366,0.048,-0.203,-0.776,-1.065,0.813,89,1,-0.005,0.016,-0.0008,1,0,-0.0008,0,-0.0432,0,-0.54,0,0,3,3,14.56,LANDED
130.81,ROLLOUT,,31.55,80,48.45,3.61,0.03,0.54,0.49,89.01,0.005,1,8.902,89,-0.776,-1.07,0.68,0.366,0.048,-0.203,-0.776,-1.065,0.813,89,1,-0.005,0.007,-0.0003,1,0,-0.0003,0,-0.0434,0,-0.543,0,0,3,3,15.42,LANDED
131.67,ROLLOUT,,28.5,80,51.5,3.61,0.03,0.54,0.49,89.01,-0.047,1,8.902,89,-0.776,-1.07,0.68,0.366,0.048,-0.203,-0.776,-1.065,0.813,89,1,-0.005,0.011,-0.0006,1,0,-0.0006,0,-0.0436,0,-0.545,0,0,3,3,16.28,LANDED
132.53,ROLLOUT,,25.46,80,54.54,3.61,0.02,0.55,0.49,88.98,-0.015,1,8.902,89,-0.776,-1.07,0.68,0.366,0.048,-0.203,-0.776,-1.065,0.813,89,1,-0.005,-0.01,0.0005,1,0,0.0005,0,-0.0437,0,-0.547,0,0,3,3,17.14,LANDED
133.39,ROLLOUT,,22.42,80,57.58,3.61,0.02,0.55,0.49,88.98,-0.029,1,8.902,89,-0.776,-1.07,0.68,0.366,0.048,-0.203,-0.776,-1.065,0.813,89,1,-0.004,-0.012,0.0006,1,0,0.0006,0,-0.0439,0,-0.548,0,0,3,3,18,LANDED
134.25,ROLLOUT,,19.39,80,60.61,3.61,0.02,0.55,0.49,88.98,-0.019,1,8.902,89,-0.776,-1.07,0.68,0.366,0.048,-0.203,-0.776,-1.065,0.813,89,1,-0.004,-0.009,0.0005,1,0,0.0005,0,-0.0439,0,-0.549,0,0,3,3,18.86,LANDED
135.11,ROLLOUT,,16.38,80,63.62,3.61,0.02,0.55,0.49,89,-0.021,1,8.902,89,-0.776,-1.07,0.68,0.366,0.048,-0.203,-0.776,-1.065,0.813,89,1,-0.004,-0.002,0.0001,0.828,0,0.0001,0,-0.044,0,-0.55,0,0,3,3,19.72,LANDED
135.97,ROLLOUT,,13.37,80,66.63,4.27,0.05,0.29,0.32,89,-0.03,1,8.902,89,-0.776,-1.07,0.68,0.366,0.048,-0.203,-0.776,-1.065,0.813,89,1,-0.004,0.008,-0.0002,0.651,0,-0.0002,0,-0.0278,0,-0.348,0,0,3,3,20.58,LANDED
136.81,ROLLOUT,,10.92,80,69.08,5.37,-2.45,-6.22,5.46,89.01,-0.039,1,8.902,89,-0.776,-1.07,0.68,0.366,0.048,-0.203,-0.776,-1.065,0.813,89,1,-0.004,0.01,0,0,3,0,0,0.35,0,5.768,0,0,3,3,21.42,FLYING
137.67,ROLLOUT,,10.83,80,69.17,4.41,-2.98,-13.91,0.2,89.02,0.119,1,8.902,89,-0.776,-1.07,0.68,0.366,0.048,-0.203,-0.776,-1.065,0.813,89,1,-0.003,0.018,-0.0004,0.462,0,-0.0004,0,0.35,0,14.084,0,0,3,3,22.28,FLYING
138.53,ROLLOUT,,10.67,80,69.33,6.69,-2.33,-13.13,-0.97,89.11,-0.218,1,8.902,89,-0.776,-1.07,0.68,0.366,0.048,-0.203,-0.776,-1.065,0.813,89,1,-0.004,0.108,-0.0025,0.455,0,-0.0025,0,0.35,0,12.957,0,0,3,3,23.14,LANDED
139.37,ROLLOUT,,11.83,80,68.17,4.78,-4.25,-22.45,-2.12,89.21,-0.003,1,8.902,89,-0.776,-1.07,0.68,0.366,0.048,-0.203,-0.776,-1.065,0.813,89,1,-0.004,0.201,-0.0051,0.509,0,-0.0051,0,0.35,0,22.056,0,0,3,3,23.98,LANDED
140.21,ROLLOUT,,13.36,80,66.64,4.72,-5.34,-22.76,-0.6,89.15,0.112,1,8.902,89,-0.776,-1.07,0.68,0.366,0.048,-0.203,-0.776,-1.065,0.813,89,1,-0.004,0.156,-0.0046,0.591,0,-0.0046,0,0.35,0,22.846,0,0,3,3,24.82,LANDED
141.05,ROLLOUT,,14.6,80,65.4,4.26,-7.14,-24.81,3.41,89.06,-0.047,1,8.902,89,-0.776,-1.07,0.68,0.366,0.048,-0.203,-0.776,-1.065,0.813,89,1,-0.004,0.07,-0.0023,0.666,0,-0.0023,0,0.35,0,24.6,0,0,3,3,25.66,LANDED
141.89,ROLLOUT,,15.56,80,64.44,4.18,-7.63,-25.43,2.16,89,-0.105,1,8.902,89,-0.776,-1.07,0.68,0.366,0.048,-0.203,-0.776,-1.065,0.813,89,1,-0.004,0.006,-0.0002,0.727,0,-0.0002,0,0.35,0,25.378,0,0,3,3,26.5,LANDED
142.75,ROLLOUT,,16.12,80,63.88,4,-7.58,-26.3,0.43,88.97,-0.011,1,8.902,89,-0.776,-1.07,0.68,0.366,0.048,-0.203,-0.776,-1.065,0.813,89,1,-0.004,-0.029,0.0011,0.766,0,0.0011,0,0.35,0,26.277,0,0,3,3,27.36,LANDED
