t_s,phase,subphase,ias_ms,vapp_ms,spd_err_ms,agl_m,gear_h_m,vs_ms,pitch_deg,aoa_deg,hdg_deg,bank_deg,thr_cmd,thr_cur,thr_intg,at_gain,at_tau_s,at_a_up,at_a_dn,at_kp_thr,at_ki_spd,at_thr_slew,as_cmd_deg,as_cap_deg,as_raw_deg,as_spd_err_ms,as_active,aa_hdg_cmd_deg,aa_fpa_cmd_deg,aa_fbw,aa_dir,actual_fpa_deg,ftf_hdg_err_deg,ftf_fix_idx,kos_steer_pit_deg,kos_steer_hdg_deg,aa_dir_vx,aa_dir_vy,aa_dir_vz,aa_dir_pitch_deg,aa_dir_hdg_deg,ils_loc_m,ils_gs_m,ils_dist_km,loc_corr_deg,gs_corr_deg,gs_latched,active_gs_ang_deg,ils_intercept_alt_m,d_gs_ms,fpa_preclamped_deg,gs_nom_alt_m,flare_fpa_cmd,flare_tgt_vs,flare_frac,flare_round_blend_h,flare_round_blend_ttg,flare_round_blend,flare_mode,flare_auth_limited,flare_auth_reason,flare_vs_err,flare_fpa_err,flare_pitch_err,flare_theta_cmd_raw,flare_theta_cmd_clamped,flare_theta_clamp_active,flare_aoa_clamp_active,flare_pitch_in_cmd,elev_defl_avg_deg,elev_defl_max_deg,elev_defl_n,flare_ctrl_h_m,flare_req_up_a,flare_thr_floor,flare_tecs_et_err,flare_tecs_eb_err,flare_tecs_h_ref,flare_tecs_v_ref,flare_gamma_ref,flare_gamma_eb_term,flare_gamma_unsat,steer_hdg_deg,steer_blend,ro_loc_corr_deg,ro_hdg_err_deg,ro_yaw_tgt,ro_yaw_scale,ro_yaw_gate,yaw_cmd,roll_cmd,pitch_cmd,ro_pitch_tgt_deg,ro_pitch_err_deg,ro_pitch_ff,ro_roll_assist,flaps_cur,flaps_tgt,asc_j_ab,asc_j_rk,asc_validity,asc_q_pa,asc_q_raw_pa,asc_mach,asc_apo_m,asc_drag_n,asc_w_prop,asc_edot_aero,asc_edot_orb,asc_pitch_bias,asc_blend,asc_spooling,asc_ab_thr_ratio,asc_ab_t_now,asc_ab_t_avail,asc_ab_ign_on,asc_ab_flameouts,asc_rk_t_now,asc_rk_t_avail,asc_rk_ign_on,asc_rk_flameouts,ship_thrust,ship_avail_thrust,ship_ign_on,ship_flameouts,ifc_raw_dt_s,ifc_dt_s,ifc_loop_n,ifc_hz_est,ifc_raw_dt_max_s,ifc_raw_dt_min_s,phase_el_s,status,craft_name,cfg_file
2.58,TAKEOFF,TO_PREFLIGHT,0.08,80,79.92,4.82,-3.26,0.01,-0.48,-13.68,89.61,0.098,0.072,0,0,0,0,0,0,0,0,0,0,0,0,0,0,90,0,1,0,-5.09,0,0,0,90,0,0,0,0,0,0,0,0,0,0,0,3,0,0,0,69,0,0,0,0,0,0,,0,NONE,0,0,0,0,0,0,0,0,0,0,0,0,0,0,0,0,0,0,0,0,0,90,1,0,-0.387,0,0,1,0,0,0,0,0,0,0,0,1,0,0,VALID,0,0,0,0,0,1,0,0,0,0,0,0,0,0,0,0,0,0,0,0,0,1939.63,6,0,0.18,0.18,1,0.38,0.18,0.02,2.4,LANDED,C-1000F,0:/Integrated Flight Computer/aircraft/c_1000f_cfg.ks (inferred preloaded)
2.88,TAKEOFF,TO_PREFLIGHT,0.08,80,79.92,4.81,-3.27,-0.01,-0.52,9.9,89.84,0.108,0.352,0,0,0,0,0,0,0,0,0,0,0,0,0,0,90,0,1,0,-0.56,0,0,0,90,0,0,0,0,0,0,0,0,0,0,0,3,0,0,0,69,0,0,0,0,0,0,,0,NONE,0,0,0,0,0,0,0,0,0,0,0,0,0,0,0,0,0,0,0,0,0,90,1,0,-0.387,0,0,1,0,0,0,0,0,0,0,1,1,0,0,VALID,0,0,0,0,0,1,0,0,0,0,0,0,0,0,0,0,0,0,0,0,6.24,1939.63,6,0,0.08,0.08,5,13.33,2.5,0.04,2.72,LANDED,C-1000F,0:/Integrated Flight Computer/aircraft/c_1000f_cfg.ks (inferred preloaded)
3.14,TAKEOFF,TO_PREFLIGHT,0.09,80,79.91,4.82,-3.26,0.01,-0.52,-7.04,89.87,0.114,0.456,0,0,0,0,0,0,0,0,0,0,0,0,0,0,90,0,1,0,0.4,0,0,0,90,0,0,0,0,0,0,0,0,0,0,0,3,0,0,0,69,0,0,0,0,0,0,,0,NONE,0,0,0,0,0,0,0,0,0,0,0,0,0,0,0,0,0,0,0,0,0,90,1,0,-0.387,0,0,1,0,0,0,0,0,0,0,1,1,0,0,VALID,0,0,0,0,0,1,0,0,0,0,0,0,0,0,0,0,0,0,0,0,17.35,1939.62,6,0,0.06,0.06,9,15.38,0.08,0.04,2.98,LANDED,C-1000F,0:/Integrated Flight Computer/aircraft/c_1000f_cfg.ks (inferred preloaded)
3.4,TAKEOFF,TO_PREFLIGHT,0.1,80,79.9,4.82,-3.27,-0.01,-0.51,5.27,89.91,0.115,0.56,0,0,0,0,0,0,0,0,0,0,0,0,0,0,90,0,1,0,-0.42,0,0,0,90,0,0,0,0,0,0,0,0,0,0,0,3,0,0,0,69,0,0,0,0,0,0,,0,NONE,0,0,0,0,0,0,0,0,0,0,0,0,0,0,0,0,0,0,0,0,0,90,1,0,-0.387,0,0,1,0,0,0,0,0,0,0,1,1,0,0,VALID,0,0,0,0,0,1,0,0,0,0,0,0,0,0,0,0,0,0,0,0,31.42,1939.61,6,0,0.04,0.04,13,15.38,0.08,0.04,3.24,LANDED,C-1000F,0:/Integrated Flight Computer/aircraft/c_1000f_cfg.ks (inferred preloaded)
3.66,TAKEOFF,TO_PREFLIGHT,0.1,80,79.9,4.81,-3.27,0,-0.53,-4.47,89.95,0.111,0.664,0,0,0,0,0,0,0,0,0,0,0,0,0,0,90,0,1,0,0.26,0,0,0,90,0,0,0,0,0,0,0,0,0,0,0,3,0,0,0,69,0,0,0,0,0,0,,0,NONE,0,0,0,0,0,0,0,0,0,0,0,0,0,0,0,0,0,0,0,0,0,90,1,0,-0.387,0,0,1,0,0,0,0,0,0,0,1,1,0,0,VALID,0,0,0,0,0,1,0,0,0,0,0,0,0,0,0,0,0,0,0,0,48.46,1939.61,6,0,0.06,0.06,17,15.38,0.08,0.04,3.5,LANDED,C-1000F,0:/Integrated Flight Computer/aircraft/c_1000f_cfg.ks (inferred preloaded)
3.98,TAKEOFF,TO_PREFLIGHT,0.1,80,79.9,4.82,-3.27,0,-0.51,2.45,90.02,0.105,0.792,0,0,0,0,0,0,0,0,0,0,0,0,0,0,90,0,1,0,-0.25,0,0,0,90,0,0,0,0,0,0,0,0,0,0,0,3,0,0,0,69,0,0,0,0,0,0,,0,NONE,0,0,0,0,0,0,0,0,0,0,0,0,0,0,0,0,0,0,0,0,0,90,1,0,-0.387,0,0,1,0,0,0,0,0,0,0,1,1,0,0,VALID,0,0,0,0,0,1,0,0,0,0,0,0,0,0,0,0,0,0,0,0,73.34,1939.61,6,0,0.08,0.08,22,15.62,0.08,0.04,3.82,LANDED,C-1000F,0:/Integrated Flight Computer/aircraft/c_1000f_cfg.ks (inferred preloaded)
4.3,TAKEOFF,TO_PREFLIGHT,0.13,80,79.87,4.81,-3.27,0,-0.52,-1.18,90.11,0.104,0.92,0,0,0,0,0,0,0,0,0,0,0,0,0,0,90,0,1,0,-0.01,0,0,0,90,0,0,0,0,0,0,0,0,0,0,0,3,0,0,0,69,0,0,0,0,0,0,,0,NONE,0,0,0,0,0,0,0,0,0,0,0,0,0,0,0,0,0,0,0,0,0,90,1,0,-0.387,0,0,1,0,0,0,0,0,0,0,1,1,0,0,VALID,0,0,0,0,0,1,0,0,0,0,0,0,0,0,0,0,0,0,0,0,102.44,1939.58,6,0,0.08,0.08,27,15.62,0.08,0.04,4.14,LANDED,C-1000F,0:/Integrated Flight Computer/aircraft/c_1000f_cfg.ks (inferred preloaded)
4.62,TAKEOFF,TO_PREFLIGHT,0.18,80,79.82,4.81,-3.27,0,-0.52,-0.07,90.22,0.106,1,0,0,0,0,0,0,0,0,0,0,0,0,0,0,90,0,1,0,-0.06,0,0,0,90,0,0,0,0,0,0,0,0,0,0,0,3,0,0,0,69,0,0,0,0,0,0,,0,NONE,0,0,0,0,0,0,0,0,0,0,0,0,0,0,0,0,0,0,0,0,0,90,1,0,-0.387,0,0,1,0,0,0,0,0,0,0,1,1,0,0,VALID,0,0,0,0,0,1,0,0,0,0,0,0,0,0,0,0,0,0,0,0,135.63,1939.54,6,0,0.08,0.08,32,15.62,0.08,0.04,4.46,LANDED,C-1000F,0:/Integrated Flight Computer/aircraft/c_1000f_cfg.ks (inferred preloaded)
4.94,TAKEOFF,TO_PREFLIGHT,0.25,80,79.75,4.81,-3.27,0,-0.52,0.06,90.32,0.105,1,0,0,0,0,0,0,0,0,0,0,0,0,0,0,90,0,1,0,-0.22,0,0,0,90,0,0,0,0,0,0,0,0,0,0,0,3,0,0,0,69,0,0,0,0,0,0,,0,NONE,0,0,0,0,0,0,0,0,0,0,0,0,0,0,0,0,0,0,0,0,0,90,1,0,-0.387,0,0,1,0,0,0,0,0,0,0,1,1,0,0,VALID,0,0,0,0,0,1,0,0,0,0,0,0,0,0,0,0,0,0,0,0,169.95,1939.47,6,0,0.08,0.08,37,15.62,0.08,0.04,4.78,LANDED,C-1000F,0:/Integrated Flight Computer/aircraft/c_1000f_cfg.ks (inferred preloaded)
5.22,TAKEOFF,TO_GROUND_ROLL,0.34,80,79.66,4.82,-3.27,0,-0.51,-0.45,90.4,0.1,1,0,0,0,0,0,0,0,0,0,0,0,0,0,0,87.38,0,1,0,-0.03,0,0,0,90,0,0,0,0,0,0,0,0,-0.006,0,0,3,0,0,0,69,0,0,0,0,0,0,,0,NONE,0,0,0,0,0,0,0,0,0,0,0,0,0,0,0,0,0,0,0,0,0,87.38,1,-0.006,3.02,-0.034,0.25,1,-0.034,0,0,0,0,0,0,1,1,0,0,VALID,0,0,0,0,0,1,0,0,0,0,0,0,0,0,0,0,0,0,0,0,199.44,1939.38,6,0,0.06,0.06,41,15.38,0.08,0.04,5.04,LANDED,C-1000F,0:/Integrated Flight Computer/aircraft/c_1000f_cfg.ks (inferred preloaded)
5.52,TAKEOFF,TO_GROUND_ROLL,0.56,80,79.44,4.82,-3.27,-0.01,-0.49,0.01,90.49,0.095,1,0,0,0,0,0,0,0,0,0,0,0,0,0,0,89.94,0,1,0,-0.36,0,0,0,90,0,0,0,0,0,0,0,0,-0.007,0,0,3,0,0,0,69,0,0,0,0,0,0,,0,NONE,0,0,0,0,0,0,0,0,0,0,0,0,0,0,0,0,0,0,0,0,0,89.94,1,-0.007,0.549,-0.0062,0.25,1,-0.0062,0,0,0,0,0,0,1,1,0,0,VALID,0,0,0,0,0,1,0,0,0,0,0,0,0,0,0,0,0,0,0,0,230.47,1939.17,6,0,0.06,0.06,45,13.33,0.1,0.06,5.34,LANDED,C-1000F,0:/Integrated Flight Computer/aircraft/c_1000f_cfg.ks (inferred preloaded)
5.8,TAKEOFF,TO_GROUND_ROLL,0.87,80,79.13,4.82,-3.27,0,-0.5,-0.32,90.56,0.1,1,0,0,0,0,0,0,0,0,0,0,0,0,0,0,89.94,0,1,0,-0.2,0,0,0,90,0,0,0,0,0,0,0,0,-0.008,0,0,3,0,0,0,69,0,0,0,0,0,0,,0,NONE,0,0,0,0,0,0,0,0,0,0,0,0,0,0,0,0,0,0,0,0,0,89.94,1,-0.008,0.622,-0.007,0.25,1,-0.007,0,0,0,0,0,0,1,1,0,0,VALID,0,0,0,0,0,1,0,0,0,0,0,0,0,0,0,0,0,0,0,0,258.92,1938.89,6,0,0.06,0.06,49,14.29,0.08,0.06,5.62,LANDED,C-1000F,0:/Integrated Flight Computer/aircraft/c_1000f_cfg.ks (inferred preloaded)
6.08,TAKEOFF,TO_GROUND_ROLL,1.22,80,78.78,4.82,-3.27,-0.01,-0.49,-0.06,90.63,0.107,1,0,0,0,0,0,0,0,0,0,0,0,0,0,0,89.94,0,1,0,-0.52,0,0,0,90,0,0,0,0,0,0,0,0,-0.008,0,0,3,0,0,0,69,0,0,0,0,0,0,,0,NONE,0,0,0,0,0,0,0,0,0,0,0,0,0,0,0,0,0,0,0,0,0,89.94,1,-0.008,0.691,-0.0078,0.25,1,-0.0078,0,0,0,0,0,0,1,1,0,0,VALID,0,0,0,0,0,1,0,0,0,0,0,0,0,0,0,0,0,0,0,0,286.87,1938.56,6,0,0.06,0.06,53,14.29,0.08,0.06,5.9,LANDED,C-1000F,0:/Integrated Flight Computer/aircraft/c_1000f_cfg.ks (inferred preloaded)
6.38,TAKEOFF,TO_GROUND_ROLL,1.63,80,78.37,4.82,-3.28,-0.01,-0.5,-0.29,90.7,0.109,1,0,0,0,0,0,0,0,0,0,0,0,0,0,0,89.94,0,1,0,-0.24,0,0,0,90,0,0,0,0,0,0,0,0,-0.009,0,0,3,0,0,0,69,0,0,0,0,0,0,,0,NONE,0,0,0,0,0,0,0,0,0,0,0,0,0,0,0,0,0,0,0,0,0,89.94,1,-0.009,0.76,-0.0085,0.25,1,-0.0085,0,0,0,0,0,0,1,1,0,0,VALID,0,0,0,0,0,1,0,0,0,0,0,0,0,0,0,0,0,0,0,0,316.29,1938.17,6,0,0.06,0.06,57,13.33,0.1,0.06,6.2,LANDED,C-1000F,0:/Integrated Flight Computer/aircraft/c_1000f_cfg.ks (inferred preloaded)
6.66,TAKEOFF,TO_GROUND_ROLL,2.06,80,77.94,4.82,-3.28,-0.02,-0.49,-0.12,90.77,0.103,1,0,0,0,0,0,0,0,0,0,0,0,0,0,0,89.95,0,1,0,-0.43,0,0,0,90,0,0,0,0,0,0,0,0,-0.009,0,0,3,0,0,0,69,0,0,0,0,0,0,,0,NONE,0,0,0,0,0,0,0,0,0,0,0,0,0,0,0,0,0,0,0,0,0,89.95,1,-0.009,0.82,-0.0092,0.25,1,-0.0092,0,0,0,0,0,0,1,1,0,0,VALID,0,0,0,0,0,1,0,0,0,0,0,0,0,0,0,0,0,0,0,0,343.26,1937.76,6,0,0.06,0.06,61,14.29,0.08,0.06,6.48,LANDED,C-1000F,0:/Integrated Flight Computer/aircraft/c_1000f_cfg.ks (inferred preloaded)
6.96,TAKEOFF,TO_GROUND_ROLL,2.55,80,77.45,4.82,-3.28,-0.01,-0.49,-0.22,90.83,0.095,1,0,0,0,0,0,0,0,0,0,0,0,0,0,0,89.95,0,1,0,-0.31,0,0,0,90,0,0,0,0,0,0,0,0,-0.01,0,0,3,0,0,0,69,0,0,0,0,0,0,,0,NONE,0,0,0,0,0,0,0,0,0,0,0,0,0,0,0,0,0,0,0,0,0,89.95,1,-0.01,0.88,-0.0099,0.25,1,-0.0099,0,0,0,0,0,0,1,1,0,0,VALID,0,0,0,0,0,1,0,0,0,0,0,0,0,0,0,0,0,0,0,0,371.63,1937.28,6,0,0.06,0.06,65,13.33,0.1,0.06,6.78,LANDED,C-1000F,0:/Integrated Flight Computer/aircraft/c_1000f_cfg.ks (inferred preloaded)
7.26,TAKEOFF,TO_GROUND_ROLL,3.08,80,76.92,4.82,-3.29,-0.02,-0.49,-0.16,90.89,0.093,1,0,0,0,0,0,0,0,0,0,0,0,0,0,0,89.95,0,1,0,-0.38,0,0,0,90,0,0,0,0,0,0,0,0,-0.011,0,0,3,0,0,0,69,0,0,0,0,0,0,,0,NONE,0,0,0,0,0,0,0,0,0,0,0,0,0,0,0,0,0,0,0,0,0,89.95,1,-0.011,0.938,-0.0105,0.25,1,-0.0105,0,0,0,0,0,0,1,1,0,0,VALID,0,0,0,0,0,1,0,0,0,0,0,0,0,0,0,0,0,0,0,0,399.46,1936.74,6,0,0.06,0.06,69,13.33,0.1,0.06,7.08,LANDED,C-1000F,0:/Integrated Flight Computer/aircraft/c_1000f_cfg.ks (inferred preloaded)
7.54,TAKEOFF,TO_GROUND_ROLL,3.61,80,76.39,4.82,-3.29,-0.02,-0.49,-0.21,90.94,0.097,1,0,0,0,0,0,0,0,0,0,0,0,0,0,0,89.95,0,1,0,-0.32,0,0,0,90,0,0,0,0,0,0,0,0,-0.012,0,0,3,0,0,0,69,0,0,0,0,0,0,,0,NONE,0,0,0,0,0,0,0,0,0,0,0,0,0,0,0,0,0,0,0,0,0,89.95,1,-0.012,0.989,-0.0111,0.25,1,-0.0111,0,0,0,0,0,0,1,1,0,0,VALID,0,0,0,0,0,1,0,0,0,0,0,0,0,0,0,0,0,0,0,0,424.97,1936.2,6,0,0.06,0.06,73,14.29,0.08,0.06,7.36,LANDED,C-1000F,0:/Integrated Flight Computer/aircraft/c_1000f_cfg.ks (inferred preloaded)
7.82,TAKEOFF,TO_GROUND_ROLL,4.17,80,75.83,4.82,-3.3,-0.03,-0.49,-0.17,90.99,0.102,1,0,0,0,0,0,0,0,0,0,0,0,0,0,0,89.95,0,1,0,-0.36,0,0,0,90,0,0,0,0,0,0,0,0,-0.013,0,0,3,0,0,0,69,0,0,0,0,0,0,,0,NONE,0,0,0,0,0,0,0,0,0,0,0,0,0,0,0,0,0,0,0,0,0,89.95,1,-0.013,1.038,-0.0117,0.25,1,-0.0117,0,0,0,0,0,0,1,1,0,0,VALID,0,0,0,0,0,1,0,0,0,0,0,0,0,0,0,0,0,0,0,0,450.03,1935.61,6,0,0.06,0.06,77,14.29,0.08,0.06,7.64,LANDED,C-1000F,0:/Integrated Flight Computer/aircraft/c_1000f_cfg.ks (inferred preloaded)
8.12,TAKEOFF,TO_GROUND_ROLL,4.81,80,75.19,4.82,-3.31,-0.03,-0.49,-0.18,91.04,0.104,1,0,0,0,0,0,0,0,0,0,0,0,0,0,0,89.95,0,1,0,-0.33,0,0,0,90,0,0,0,0,0,0,0,0,-0.013,0,0,3,0,0,0,69,0,0,0,0,0,0,,0,NONE,0,0,0,0,0,0,0,0,0,0,0,0,0,0,0,0,0,0,0,0,0,89.95,1,-0.013,1.088,-0.0122,0.25,1,-0.0122,0,0,0,0,0,0,1,1,0,0,VALID,0,0,0,0,0,1,0,0,0,0,0,0,0,0,0,0,0,0,0,0,476.38,1934.93,6,0,0.06,0.06,81,13.33,0.1,0.06,7.94,LANDED,C-1000F,0:/Integrated Flight Computer/aircraft/c_1000f_cfg.ks (inferred preloaded)
8.4,TAKEOFF,TO_GROUND_ROLL,5.44,80,74.56,4.82,-3.32,-0.03,-0.49,-0.17,91.09,0.099,1,0,0,0,0,0,0,0,0,0,0,0,0,0,0,89.95,0,1,0,-0.35,0,0,0,90,0,0,0,0,0,0,0,0,-0.014,0,0,3,0,0,0,69,0,0,0,0,0,0,,0,NONE,0,0,0,0,0,0,0,0,0,0,0,0,0,0,0,0,0,0,0,0,0,89.95,1,-0.014,1.134,-0.0128,0.25,1,-0.0128,0,0,0,0,0,0,1,1,0,0,VALID,0,0,0,0,0,1,0,0,0,0,0,0,0,0,0,0,0,0,0,0,500.52,1934.25,6,0,0.06,0.06,85,14.29,0.08,0.06,8.22,LANDED,C-1000F,0:/Integrated Flight Computer/aircraft/c_1000f_cfg.ks (inferred preloaded)
8.68,TAKEOFF,TO_GROUND_ROLL,6.1,80,73.9,4.82,-3.32,-0.04,-0.48,-0.18,91.13,0.093,1,0,0,0,0,0,0,0,0,0,0,0,0,0,0,89.95,0,1,0,-0.34,0,0,0,90,0,0,0,0,0,0,0,0,-0.016,0,0,3,0,0,0,69,0,0,0,0,0,0,,0,NONE,0,0,0,0,0,0,0,0,0,0,0,0,0,0,0,0,0,0,0,0,0,89.95,1,-0.016,1.178,-0.0133,0.25,1,-0.0133,0,0,0,0,0,0,1,1,0,0,VALID,0,0,0,0,0,1,0,0,0,0,0,0,0,0,0,0,0,0,0,0,524.22,1933.51,6,0,0.06,0.06,89,14.29,0.08,0.06,8.5,LANDED,C-1000F,0:/Integrated Flight Computer/aircraft/c_1000f_cfg.ks (inferred preloaded)
8.98,TAKEOFF,TO_GROUND_ROLL,6.85,80,73.15,4.82,-3.34,-0.04,-0.48,-0.18,91.18,0.091,1,0,0,0,0,0,0,0,0,0,0,0,0,0,0,89.95,0,1,0,-0.34,0,0,0,90,0,0,0,0,0,0,0,0,-0.017,0,0,3,0,0,0,69,0,0,0,0,0,0,,0,NONE,0,0,0,0,0,0,0,0,0,0,0,0,0,0,0,0,0,0,0,0,0,89.95,1,-0.017,1.225,-0.0138,0.25,1,-0.0138,0,0,0,0,0,0,1,1,0,0,VALID,0,0,0,0,0,1,0,0,0,0,0,0,0,0,0,0,0,0,0,0,549.14,1932.67,6,0,0.06,0.06,93,13.33,0.1,0.06,8.8,LANDED,C-1000F,0:/Integrated Flight Computer/aircraft/c_1000f_cfg.ks (inferred preloaded)
9.26,TAKEOFF,TO_GROUND_ROLL,7.57,80,72.43,4.82,-3.35,-0.04,-0.48,-0.18,91.22,0.094,1,0,0,0,0,0,0,0,0,0,0,0,0,0,0,89.95,0,1,0,-0.33,0,0,0,90,0,0,0,0,0,0,0,0,-0.018,0,0,3,0,0,0,69,0,0,0,0,0,0,,0,NONE,0,0,0,0,0,0,0,0,0,0,0,0,0,0,0,0,0,0,0,0,0,89.95,1,-0.018,1.267,-0.0142,0.25,1,-0.0142,0,0,0,0,0,0,1,1,0,0,VALID,0,0,0,0,0,1,0,0,0,0,0,0,0,0,0,0,0,0,0,0,571.95,1931.82,6,0,0.06,0.06,97,14.29,0.08,0.06,9.08,LANDED,C-1000F,0:/Integrated Flight Computer/aircraft/c_1000f_cfg.ks (inferred preloaded)
9.56,TAKEOFF,TO_GROUND_ROLL,8.38,80,71.62,4.82,-3.36,-0.05,-0.48,-0.17,91.26,0.099,1,0,0,0,0,0,0,0,0,0,0,0,0,0,0,89.95,0,1,0,-0.34,0,0,0,90,0,0,0,0,0,0,0,0,-0.02,0,0,3,0,0,0,69,0,0,0,0,0,0,,0,NONE,0,0,0,0,0,0,0,0,0,0,0,0,0,0,0,0,0,0,0,0,0,89.95,1,-0.02,1.31,-0.0147,0.25,1,-0.0147,0,0,0,0,0,0,1,1,0,0,VALID,0,0,0,0,0,1,0,0,0,0,0,0,0,0,0,0,0,0,0,0,595.93,1930.86,6,0,0.06,0.06,101,13.33,0.1,0.06,9.38,LANDED,C-1000F,0:/Integrated Flight Computer/aircraft/c_1000f_cfg.ks (inferred preloaded)
9.86,TAKEOFF,TO_GROUND_ROLL,9.22,80,70.78,4.82,-3.38,-0.05,-0.48,-0.17,91.3,0.1,1,0,0,0,0,0,0,0,0,0,0,0,0,0,0,89.95,0,1,0,-0.33,0,0,0,90,0,0,0,0,0,0,0,0,-0.021,0,0,3,0,0,0,69,0,0,0,0,0,0,,0,NONE,0,0,0,0,0,0,0,0,0,0,0,0,0,0,0,0,0,0,0,0,0,89.95,1,-0.021,1.353,-0.0152,0.25,1,-0.0152,0,0,0,0,0,0,1,1,0,0,VALID,0,0,0,0,0,1,0,0,0,0,0,0,0,0,0,0,0,0,0,0,619.43,1929.83,6,0,0.06,0.06,105,13.33,0.1,0.06,9.68,LANDED,C-1000F,0:/Integrated Flight Computer/aircraft/c_1000f_cfg.ks (inferred preloaded)
10.14,TAKEOFF,TO_GROUND_ROLL,10.03,80,69.97,4.82,-3.4,-0.06,-0.48,-0.17,91.34,0.096,1,0,0,0,0,0,0,0,0,0,0,0,0,0,0,89.95,0,1,0,-0.33,0,0,0,90,0,0,0,0,0,0,0,0,-0.023,0,0,3,0,0,0,69,0,0,0,0,0,0,,0,NONE,0,0,0,0,0,0,0,0,0,0,0,0,0,0,0,0,0,0,0,0,0,89.95,1,-0.023,1.392,-0.0157,0.25,1,-0.0157,0,0,0,0,0,0,1,1,0,0,VALID,0,0,0,0,0,1,0,0,0,0,0,0,0,0,0,0,0,0,0,0,640.94,1928.81,6,0,0.06,0.06,109,14.29,0.08,0.06,9.96,LANDED,C-1000F,0:/Integrated Flight Computer/aircraft/c_1000f_cfg.ks (inferred preloaded)
10.42,TAKEOFF,TO_GROUND_ROLL,10.87,80,69.13,4.82,-3.41,-0.06,-0.48,-0.17,91.38,0.092,1,0,0,0,0,0,0,0,0,0,0,0,0,0,0,89.95,0,1,0,-0.33,0,0,0,90,0,0,0,0,0,0,0,0,-0.025,0,0,3,0,0,0,69,0,0,0,0,0,0,,0,NONE,0,0,0,0,0,0,0,0,0,0,0,0,0,0,0,0,0,0,0,0,0,89.95,1,-0.025,1.43,-0.0161,0.25,1,-0.0161,0,0,0,0,0,0,1,1,0,0,VALID,0,0,0,0,0,1,0,0,0,0,0,0,0,0,0,0,0,0,0,0,662.04,1927.73,6,0,0.06,0.06,113,14.29,0.08,0.06,10.24,LANDED,C-1000F,0:/Integrated Flight Computer/aircraft/c_1000f_cfg.ks (inferred preloaded)
10.72,TAKEOFF,TO_GROUND_ROLL,11.8,80,68.2,4.82,-3.43,-0.07,-0.48,-0.17,91.42,0.09,1,0,0,0,0,0,0,0,0,0,0,0,0,0,0,89.95,0,1,0,-0.33,0,0,0,90,0,0,0,0,0,0,0,0,-0.027,0,0,3,0,0,0,69,0,0,0,0,0,0,,0,NONE,0,0,0,0,0,0,0,0,0,0,0,0,0,0,0,0,0,0,0,0,0,89.95,1,-0.027,1.47,-0.0165,0.25,1,-0.0165,0,0,0,0,0,0,1,1,0,0,VALID,0,0,0,0,0,1,0,0,0,0,0,0,0,0,0,0,0,0,0,0,684.2,1926.51,6,0,0.06,0.06,117,13.33,0.1,0.06,10.54,LANDED,C-1000F,0:/Integrated Flight Computer/aircraft/c_1000f_cfg.ks (inferred preloaded)
11,TAKEOFF,TO_GROUND_ROLL,12.7,80,67.3,4.83,-3.45,-0.07,-0.47,-0.16,91.45,0.092,1,0,0,0,0,0,0,0,0,0,0,0,0,0,0,89.95,0,1,0,-0.33,0,0,0,90,0,0,0,0,0,0,0,0,-0.029,0,0,3,0,0,0,69,0,0,0,0,0,0,,0,NONE,0,0,0,0,0,0,0,0,0,0,0,0,0,0,0,0,0,0,0,0,0,89.95,1,-0.029,1.507,-0.017,0.25,1,-0.017,0,0,0,0,0,0,1,1,0,0,VALID,0,0,0,0,0,1,0,0,0,0,0,0,0,0,0,0,0,0,0,0,704.47,1925.31,6,0,0.06,0.06,121,14.29,0.08,0.06,10.82,LANDED,C-1000F,0:/Integrated Flight Computer/aircraft/c_1000f_cfg.ks (inferred preloaded)
11.28,TAKEOFF,TO_GROUND_ROLL,13.62,80,66.38,4.83,-3.47,-0.08,-0.47,-0.17,91.49,0.095,1,0,0,0,0,0,0,0,0,0,0,0,0,0,0,89.94,0,1,0,-0.33,0,0,0,90,0,0,0,0,0,0,0,0,-0.031,0,0,3,0,0,0,69,0,0,0,0,0,0,,0,NONE,0,0,0,0,0,0,0,0,0,0,0,0,0,0,0,0,0,0,0,0,0,89.94,1,-0.031,1.543,-0.0174,0.25,1,-0.0174,0,0,0,0,0,0,1,1,0,0,VALID,0,0,0,0,0,1,0,0,0,0,0,0,0,0,0,0,0,0,0,0,724.35,1924.04,6,0,0.06,0.06,125,14.29,0.08,0.06,11.1,LANDED,C-1000F,0:/Integrated Flight Computer/aircraft/c_1000f_cfg.ks (inferred preloaded)
11.58,TAKEOFF,TO_GROUND_ROLL,14.64,80,65.36,4.83,-3.5,-0.08,-0.47,-0.17,91.52,0.097,1,0,0,0,0,0,0,0,0,0,0,0,0,0,0,89.94,0,1,0,-0.33,0,0,0,90,0,0,0,0,0,0,0,0,-0.034,0,0,3,0,0,0,69,0,0,0,0,0,0,,0,NONE,0,0,0,0,0,0,0,0,0,0,0,0,0,0,0,0,0,0,0,0,0,89.94,1,-0.034,1.583,-0.0178,0.25,1,-0.0178,0,0,0,0,0,0,1,1,0,0,VALID,0,0,0,0,0,1,0,0,0,0,0,0,0,0,0,0,0,0,0,0,745.21,1922.6,6,0,0.06,0.06,129,13.33,0.1,0.06,11.4,LANDED,C-1000F,0:/Integrated Flight Computer/aircraft/c_1000f_cfg.ks (inferred preloaded)
11.86,TAKEOFF,TO_GROUND_ROLL,15.61,80,64.39,4.83,-3.52,-0.09,-0.47,-0.17,91.56,0.094,1,0,0,0,0,0,0,0,0,0,0,0,0,0,0,89.94,0,1,0,-0.33,0,0,0,90,0,0,0,0,0,0,0,0,-0.037,0,0,3,0,0,0,69,0,0,0,0,0,0,,0,NONE,0,0,0,0,0,0,0,0,0,0,0,0,0,0,0,0,0,0,0,0,0,89.94,1,-0.037,1.619,-0.0182,0.25,1,-0.0182,0,0,0,0,0,0,1,1,0,0,VALID,0,0,0,0,0,1,0,0,0,0,0,0,0,0,0,0,0,0,0,0,764.28,1921.2,6,0,0.06,0.06,133,14.29,0.08,0.06,11.68,LANDED,C-1000F,0:/Integrated Flight Computer/aircraft/c_1000f_cfg.ks (inferred preloaded)
12.16,TAKEOFF,TO_GROUND_ROLL,16.68,80,63.32,4.83,-3.55,-0.1,-0.47,-0.16,91.59,0.091,1,0,0,0,0,0,0,0,0,0,0,0,0,0,0,89.94,0,1,0,-0.33,0,0,0.01,90,0,0,0,0,0,0,0,0,-0.04,0,0,3,0,0,0,69,0,0,0,0,0,0,,0,NONE,0,0,0,0,0,0,0,0,0,0,0,0,0,0,0,0,0,0,0,0,0,89.94,1,-0.04,1.657,-0.0186,0.25,1,-0.0186,0,0,0,0,0,0,1,1,0,0,VALID,0,0,0,0,0,1,0,0,0,0,0,0,0,0,0,0,0,0,0,0,784.29,1919.62,6,0,0.06,0.06,137,13.33,0.1,0.06,11.98,LANDED,C-1000F,0:/Integrated Flight Computer/aircraft/c_1000f_cfg.ks (inferred preloaded)
12.46,TAKEOFF,TO_GROUND_ROLL,17.78,80,62.22,4.83,-3.58,-0.1,-0.47,-0.16,91.63,0.09,1,0,0,0,0,0,0,0,0,0,0,0,0,0,0,89.93,0,1,0,-0.33,0,0,0.01,90,0,0,0,0,0,0,0,0,-0.043,0,0,3,0,0,0,69,0,0,0,0,0,0,,0,NONE,0,0,0,0,0,0,0,0,0,0,0,0,0,0,0,0,0,0,0,0,0,89.93,1,-0.043,1.696,-0.0191,0.25,1,-0.0191,0,0,0,0,0,0,1,1,0,0,VALID,0,0,0,0,0,1,0,0,0,0,0,0,0,0,0,0,0,0,0,0,803.86,1917.96,6,0,0.06,0.06,141,13.33,0.1,0.06,12.28,LANDED,C-1000F,0:/Integrated Flight Computer/aircraft/c_1000f_cfg.ks (inferred preloaded)
12.74,TAKEOFF,TO_GROUND_ROLL,18.83,80,61.17,4.83,-3.61,-0.11,-0.47,-0.16,91.66,0.091,1,0,0,0,0,0,0,0,0,0,0,0,0,0,0,89.93,0,1,0,-0.32,0,0,0.01,90,0,0,0,0,0,0,0,0,-0.046,0,0,3,0,0,0,69,0,0,0,0,0,0,,0,NONE,0,0,0,0,0,0,0,0,0,0,0,0,0,0,0,0,0,0,0,0,0,89.93,1,-0.046,1.73,-0.0195,0.25,1,-0.0195,0,0,0,0,0,0,1,1,0,0,VALID,0,0,0,0,0,1,0,0,0,0,0,0,0,0,0,0,0,0,0,0,821.74,1916.34,6,0,0.06,0.06,145,14.29,0.08,0.06,12.56,LANDED,C-1000F,0:/Integrated Flight Computer/aircraft/c_1000f_cfg.ks (inferred preloaded)
13.02,TAKEOFF,TO_GROUND_ROLL,19.9,80,60.1,4.83,-3.64,-0.11,-0.46,-0.16,91.69,0.094,1,0,0,0,0,0,0,0,0,0,0,0,0,0,0,89.93,0,1,0,-0.32,0,0,0.01,90,0,0,0,0,0,0,0,0,-0.05,0,0,3,0,0,0,69,0,0,0,0,0,0,,0,NONE,0,0,0,0,0,0,0,0,0,0,0,0,0,0,0,0,0,0,0,0,0,89.93,1,-0.05,1.763,-0.0198,0.25,1,-0.0198,0,0,0,0,0,0,1,1,0,0,VALID,0,0,0,0,0,1,0,0,0,0,0,0,0,0,0,0,0,0,0,0,839.25,1914.65,6,0,0.06,0.06,149,14.29,0.08,0.06,12.84,LANDED,C-1000F,0:/Integrated Flight Computer/aircraft/c_1000f_cfg.ks (inferred preloaded)
13.32,TAKEOFF,TO_GROUND_ROLL,21.07,80,58.93,4.83,-3.67,-0.12,-0.46,-0.16,91.72,0.094,1,0,0,0,0,0,0,0,0,0,0,0,0,0,0,89.93,0,1,0,-0.33,0,0,0.01,90,0,0,0,0,0,0,0,0,-0.054,0,0,3,0,0,0,69,0,0,0,0,0,0,,0,NONE,0,0,0,0,0,0,0,0,0,0,0,0,0,0,0,0,0,0,0,0,0,89.93,1,-0.054,1.797,-0.0211,0.261,0,-0.0211,0,0,0,0,0,0,1,1,0,0,VALID,0,0,0,0,0,1,0,0,0,0,0,0,0,0,0,0,0,0,0,0,857.61,1912.75,6,0,0.06,0.06,153,13.33,0.1,0.06,13.14,LANDED,C-1000F,0:/Integrated Flight Computer/aircraft/c_1000f_cfg.ks (inferred preloaded)
13.6,TAKEOFF,TO_GROUND_ROLL,22.19,80,57.81,4.83,-3.71,-0.13,-0.46,-0.16,91.75,0.093,1,0,0,0,0,0,0,0,0,0,0,0,0,0,0,89.92,0,1,0,-0.32,0,0,0.01,90,0,0,0,0,0,0,0,0,-0.058,0,0,3,0,0,0,69,0,0,0,0,0,0,,0,NONE,0,0,0,0,0,0,0,0,0,0,0,0,0,0,0,0,0,0,0,0,0,89.92,1,-0.058,1.827,-0.0225,0.273,0,-0.0225,0,0,0,0,0,0,1,1,0,0,VALID,0,0,0,0,0,1,0,0,0,0,0,0,0,0,0,0,0,0,0,0,874.36,1910.91,6,0,0.06,0.06,157,14.29,0.08,0.06,13.42,LANDED,C-1000F,0:/Integrated Flight Computer/aircraft/c_1000f_cfg.ks (inferred preloaded)
13.88,TAKEOFF,TO_GROUND_ROLL,23.32,80,56.68,4.83,-3.74,-0.13,-0.46,-0.16,91.78,0.091,1,0,0,0,0,0,0,0,0,0,0,0,0,0,0,89.92,0,1,0,-0.32,0,0,0.01,90,0,0,0,0,0,0,0,0,-0.062,0,0,3,0,0,0,69,0,0,0,0,0,0,,0,NONE,0,0,0,0,0,0,0,0,0,0,0,0,0,0,0,0,0,0,0,0,0,89.92,1,-0.062,1.856,-0.0239,0.286,0,-0.0239,0,0,0,0,0,0,1,1,0,0,VALID,0,0,0,0,0,1,0,0,0,0,0,0,0,0,0,0,0,0,0,0,890.75,1909,6,0,0.06,0.06,161,14.29,0.08,0.06,13.7,LANDED,C-1000F,0:/Integrated Flight Computer/aircraft/c_1000f_cfg.ks (inferred preloaded)
14.18,TAKEOFF,TO_GROUND_ROLL,24.57,80,55.43,4.83,-3.79,-0.14,-0.46,-0.16,91.8,0.09,1,0,0,0,0,0,0,0,0,0,0,0,0,0,0,89.92,0,1,0,-0.32,0,0,0.01,90,0,0,0,0,0,0,0,0,-0.067,0,0,3,0,0,0,69,0,0,0,0,0,0,,0,NONE,0,0,0,0,0,0,0,0,0,0,0,0,0,0,0,0,0,0,0,0,0,89.92,1,-0.067,1.885,-0.0254,0.299,0,-0.0254,0,0,0,0,0,0,1,1,0,0,VALID,0,0,0,0,0,1,0,0,0,0,0,0,0,0,0,0,0,0,0,0,907.91,1906.86,6,0,0.06,0.06,165,13.33,0.1,0.06,14,LANDED,C-1000F,0:/Integrated Flight Computer/aircraft/c_1000f_cfg.ks (inferred preloaded)
14.46,TAKEOFF,TO_GROUND_ROLL,25.75,80,54.25,4.83,-3.82,-0.14,-0.46,-0.16,91.82,0.09,1,0,0,0,0,0,0,0,0,0,0,0,0,0,0,89.91,0,1,0,-0.32,0,0,0.01,90,0,0,0,0,0,0,0,0,-0.072,0,0,3,0,0,0,69,0,0,0,0,0,0,,0,NONE,0,0,0,0,0,0,0,0,0,0,0,0,0,0,0,0,0,0,0,0,0,89.91,1,-0.072,1.909,-0.0268,0.312,0,-0.0268,0,0,0,0,0,0,1,1,0,0,VALID,0,0,0,0,0,1,0,0,0,0,0,0,0,0,0,0,0,0,0,0,923.56,1904.79,6,0,0.06,0.06,169,14.29,0.08,0.06,14.28,LANDED,C-1000F,0:/Integrated Flight Computer/aircraft/c_1000f_cfg.ks (inferred preloaded)
14.76,TAKEOFF,TO_GROUND_ROLL,27.03,80,52.97,4.83,-3.87,-0.15,-0.45,-0.15,91.84,0.092,1,0,0,0,0,0,0,0,0,0,0,0,0,0,0,89.91,0,1,0,-0.32,0,0,0.01,90,0,0,0,0,0,0,0,0,-0.077,0,0,3,0,0,0,69,0,0,0,0,0,0,,0,NONE,0,0,0,0,0,0,0,0,0,0,0,0,0,0,0,0,0,0,0,0,0,89.91,1,-0.077,1.931,-0.0283,0.325,0,-0.0283,0,0,0,0,0,0,1,1,0,0,VALID,0,0,0,0,0,1,0,0,0,0,0,0,0,0,0,0,0,0,0,0,939.95,1902.49,6,0,0.06,0.06,173,13.33,0.1,0.06,14.58,LANDED,C-1000F,0:/Integrated Flight Computer/aircraft/c_1000f_cfg.ks (inferred preloaded)
15.06,TAKEOFF,TO_GROUND_ROLL,28.34,80,51.66,4.83,-3.92,-0.16,-0.45,-0.15,91.86,0.092,1,0,0,0,0,0,0,0,0,0,0,0,0,0,0,89.91,0,1,0,-0.32,0,0,0.01,90,0,0,0,0,0,0,0,0,-0.083,0,0,3,0,0,0,69,0,0,0,0,0,0,,0,NONE,0,0,0,0,0,0,0,0,0,0,0,0,0,0,0,0,0,0,0,0,0,89.91,1,-0.083,1.951,-0.0298,0.339,0,-0.0298,0,0,0,0,0,0,1,1,0,0,VALID,0,0,0,0,0,1,0,0,0,0,0,0,0,0,0,0,0,0,0,0,955.93,1900.11,6,0,0.06,0.06,177,13.33,0.1,0.06,14.88,LANDED,C-1000F,0:/Integrated Flight Computer/aircraft/c_1000f_cfg.ks (inferred preloaded)
15.34,TAKEOFF,TO_GROUND_ROLL,29.58,80,50.42,4.83,-3.96,-0.16,-0.45,-0.15,91.87,0.091,1,0,0,0,0,0,0,0,0,0,0,0,0,0,0,89.9,0,1,0,-0.32,0,0,0.01,90,0,0,0,0,0,0,0,0,-0.088,0,0,3,0,0,0,69,0,0,0,0,0,0,,0,NONE,0,0,0,0,0,0,0,0,0,0,0,0,0,0,0,0,0,0,0,0,0,89.9,1,-0.088,1.966,-0.0312,0.353,0,-0.0312,0,0,0,0,0,0,1,1,0,0,VALID,0,0,0,0,0,1,0,0,0,0,0,0,0,0,0,0,0,0,0,0,970.5,1897.8,6,0,0.06,0.06,181,14.29,0.08,0.06,15.16,LANDED,C-1000F,0:/Integrated Flight Computer/aircraft/c_1000f_cfg.ks (inferred preloaded)
15.62,TAKEOFF,TO_GROUND_ROLL,30.84,80,49.16,4.83,-4.01,-0.17,-0.45,-0.15,91.88,0.09,1,0,0,0,0,0,0,0,0,0,0,0,0,0,0,89.9,0,1,0,-0.32,0,0,0.01,90,0,0,0,0,0,0,0,0,-0.094,0,0,3,0,0,0,69,0,0,0,0,0,0,,0,NONE,0,0,0,0,0,0,0,0,0,0,0,0,0,0,0,0,0,0,0,0,0,89.9,1,-0.094,1.978,-0.0326,0.366,0,-0.0326,0,0,0,0,0,0,1,1,0,0,VALID,0,0,0,0,0,1,0,0,0,0,0,0,0,0,0,0,0,0,0,0,984.72,1895.42,6,0,0.06,0.06,185,14.29,0.08,0.06,15.44,LANDED,C-1000F,0:/Integrated Flight Computer/aircraft/c_1000f_cfg.ks (inferred preloaded)
15.92,TAKEOFF,TO_GROUND_ROLL,32.21,80,47.79,4.83,-4.06,-0.18,-0.45,-0.15,91.88,0.09,1,0,0,0,0,0,0,0,0,0,0,0,0,0,0,89.9,0,1,0,-0.31,0,0,0.01,90,0,0,0,0,0,0,0,0,-0.101,0,0,3,0,0,0,69,0,0,0,0,0,0,,0,NONE,0,0,0,0,0,0,0,0,0,0,0,0,0,0,0,0,0,0,0,0,0,89.9,1,-0.101,1.987,-0.0341,0.381,0,-0.0341,0,0,0,0,0,0,1,1,0,0,VALID,0,0,0,0,0,1,0,0,0,0,0,0,0,0,0,0,0,0,0,0,999.59,1892.78,6,0,0.06,0.06,189,13.33,0.1,0.06,15.74,LANDED,C-1000F,0:/Integrated Flight Computer/aircraft/c_1000f_cfg.ks (inferred preloaded)
16.2,TAKEOFF,TO_GROUND_ROLL,33.5,80,46.5,4.83,-4.11,-0.18,-0.45,-0.15,91.89,0.09,1,0,0,0,0,0,0,0,0,0,0,0,0,0,0,89.89,0,1,0,-0.31,0,0,0.02,90,0,0,0,0,0,0,0,0,-0.107,0,0,3,0,0,0,69,0,0,0,0,0,0,,0,NONE,0,0,0,0,0,0,0,0,0,0,0,0,0,0,0,0,0,0,0,0,0,89.89,1,-0.107,1.992,-0.0354,0.395,0,-0.0354,0,0,0,0,0,0,1,1,0,0,VALID,0,0,0,0,0,1,0,0,0,0,0,0,0,0,0,0,0,0,0,0,1013.13,1890.24,6,0,0.06,0.06,193,14.29,0.08,0.06,16.02,LANDED,C-1000F,0:/Integrated Flight Computer/aircraft/c_1000f_cfg.ks (inferred preloaded)
16.48,TAKEOFF,TO_GROUND_ROLL,34.81,80,45.19,4.83,-4.16,-0.19,-0.44,-0.15,91.88,0.092,1,0,0,0,0,0,0,0,0,0,0,0,0,0,0,89.89,0,1,0,-0.31,0,0,0.02,90,0,0,0,0,0,0,0,0,-0.114,0,0,3,0,0,0,69,0,0,0,0,0,0,,0,NONE,0,0,0,0,0,0,0,0,0,0,0,0,0,0,0,0,0,0,0,0,0,89.89,1,-0.114,1.995,-0.0367,0.409,0,-0.0367,0,0,0,0,0,0,1,1,0,0,VALID,0,0,0,0,0,1,0,0,0,0,0,0,0,0,0,0,0,0,0,0,1026.33,1887.62,6,0,0.06,0.06,197,14.29,0.08,0.06,16.3,LANDED,C-1000F,0:/Integrated Flight Computer/aircraft/c_1000f_cfg.ks (inferred preloaded)
16.78,TAKEOFF,TO_GROUND_ROLL,36.24,80,43.76,4.83,-4.22,-0.2,-0.44,-0.15,91.88,0.092,1,0,0,0,0,0,0,0,0,0,0,0,0,0,0,89.88,0,1,0,-0.31,0,0,0.02,90,0,0,0,0,0,0,0,0,-0.121,0,0,3,0,0,0,69,0,0,0,0,0,0,,0,NONE,0,0,0,0,0,0,0,0,0,0,0,0,0,0,0,0,0,0,0,0,0,89.88,1,-0.121,1.995,-0.0381,0.424,0,-0.0381,0,0,0,0,0,0,1,1,0,0,VALID,0,0,0,0,0,1,0,0,0,0,0,0,0,0,0,0,0,0,0,0,1040.12,1884.74,6,0,0.06,0.06,201,13.33,0.1,0.06,16.6,LANDED,C-1000F,0:/Integrated Flight Computer/aircraft/c_1000f_cfg.ks (inferred preloaded)
17.06,TAKEOFF,TO_GROUND_ROLL,37.58,80,42.42,4.83,-4.28,-0.2,-0.44,-0.15,91.87,0.092,1,0,0,0,0,0,0,0,0,0,0,0,0,0,0,89.88,0,1,0,-0.31,0,0,0.02,90,0,0,0,0,0,0,0,0,-0.129,0,0,3,0,0,0,69,0,0,0,0,0,0,,0,NONE,0,0,0,0,0,0,0,0,0,0,0,0,0,0,0,0,0,0,0,0,0,89.88,1,-0.129,1.991,-0.0393,0.438,0,-0.0393,0,0,0,0,0,0,1,1,0,0,VALID,0,0,0,0,0,1,0,0,0,0,0,0,0,0,0,0,0,0,0,0,1052.66,1881.97,6,0,0.06,0.06,205,14.29,0.08,0.06,16.88,LANDED,C-1000F,0:/Integrated Flight Computer/aircraft/c_1000f_cfg.ks (inferred preloaded)
17.36,TAKEOFF,TO_GROUND_ROLL,39.04,80,40.96,4.83,-4.34,-0.21,-0.44,-0.15,91.86,0.092,1,0,0,0,0,0,0,0,0,0,0,0,0,0,0,89.87,0,1,0,-0.31,0,0,0.02,90,0,0,0,0,0,0,0,0,-0.137,0,0,3,0,0,0,69,0,0,0,0,0,0,,0,NONE,0,0,0,0,0,0,0,0,0,0,0,0,0,0,0,0,0,0,0,0,0,89.87,1,-0.137,1.984,-0.0405,0.454,0,-0.0405,0,0,0,0,0,0,1,1,0,0,VALID,0,0,0,0,0,1,0,0,0,0,0,0,0,0,0,0,0,0,0,0,1065.73,1878.92,6,0,0.06,0.06,209,13.33,0.1,0.06,17.18,LANDED,C-1000F,0:/Integrated Flight Computer/aircraft/c_1000f_cfg.ks (inferred preloaded)
17.66,TAKEOFF,TO_GROUND_ROLL,40.51,80,39.49,4.83,-4.4,-0.22,-0.44,-0.15,91.84,0.092,1,0,0,0,0,0,0,0,0,0,0,0,0,0,0,89.86,0,1,0,-0.31,0,0,0.02,90,0,0,0,0,0,0,0,0,-0.145,0,0,3,0,0,0,69,0,0,0,0,0,0,,0,NONE,0,0,0,0,0,0,0,0,0,0,0,0,0,0,0,0,0,0,0,0,0,89.86,1,-0.145,1.977,-0.0418,0.47,0,-0.0418,0,0,0,0,0,0,1,1,0,0,VALID,0,0,0,0,0,1,0,0,0,0,0,0,0,0,0,0,0,0,0,0,1078.45,1875.78,6,0,0.06,0.06,213,13.33,0.1,0.06,17.48,LANDED,C-1000F,0:/Integrated Flight Computer/aircraft/c_1000f_cfg.ks (inferred preloaded)
17.94,TAKEOFF,TO_GROUND_ROLL,41.91,80,38.09,4.83,-4.47,-0.22,-0.43,-0.15,91.83,0.094,1,0,0,0,0,0,0,0,0,0,0,0,0,0,0,89.86,0,1,0,-0.3,0,0,0.02,90,0,0,0,0,0,0,0,0,-0.154,0,0,3,0,0,0,69,0,0,0,0,0,0,,0,NONE,0,0,0,0,0,0,0,0,0,0,0,0,0,0,0,0,0,0,0,0,0,89.86,1,-0.154,1.968,-0.0429,0.485,0,-0.0429,0,0,0,0,0,0,1,1,0,0,VALID,0,0,0,0,0,1,0,0,0,0,0,0,0,0,0,0,0,0,0,0,1090,1872.78,6,0,0.06,0.06,217,14.29,0.08,0.06,17.76,LANDED,C-1000F,0:/Integrated Flight Computer/aircraft/c_1000f_cfg.ks (inferred preloaded)
18.22,TAKEOFF,TO_GROUND_ROLL,43.31,80,36.69,4.84,-4.53,-0.23,-0.43,-0.15,91.81,0.096,1,0,0,0,0,0,0,0,0,0,0,0,0,0,0,89.85,0,1,0,-0.3,0,0,0.02,90,0,0,0,0,0,0,0,0,-0.162,0,0,3,0,0,0,69,0,0,0,0,0,0,,0,NONE,0,0,0,0,0,0,0,0,0,0,0,0,0,0,0,0,0,0,0,0,0,89.85,1,-0.162,1.96,-0.0441,0.5,0,-0.0441,0,0,0,0,0,0,1,1,0,0,VALID,0,0,0,0,0,1,0,0,0,0,0,0,0,0,0,0,0,0,0,0,1101.25,1869.7,6,0,0.06,0.06,221,14.29,0.08,0.06,18.04,LANDED,C-1000F,0:/Integrated Flight Computer/aircraft/c_1000f_cfg.ks (inferred preloaded)
18.52,TAKEOFF,TO_GROUND_ROLL,44.83,80,35.17,4.84,-4.6,-0.24,-0.43,-0.14,91.79,0.099,1,0,0,0,0,0,0,0,0,0,0,0,0,0,0,89.84,0,1,0,-0.3,0,0,0.02,90,0,0,0,0,0,0,0,0,-0.171,0,0,3,0,0,0,69,0,0,0,0,0,0,,0,NONE,0,0,0,0,0,0,0,0,0,0,0,0,0,0,0,0,0,0,0,0,0,89.84,1,-0.171,1.953,-0.0454,0.516,0,-0.0454,0,0,0,0,0,0,1,1,0,0,VALID,0,0,0,0,0,1,0,0,0,0,0,0,0,0,0,0,0,0,0,0,1112.96,1866.33,6,0,0.06,0.06,225,13.33,0.1,0.06,18.34,LANDED,C-1000F,0:/Integrated Flight Computer/aircraft/c_1000f_cfg.ks (inferred preloaded)
18.8,TAKEOFF,TO_GROUND_ROLL,46.27,80,33.73,4.84,-4.66,-0.24,-0.43,-0.14,91.78,0.102,1,0,0,0,0,0,0,0,0,0,0,0,0,0,0,89.83,0,1,0,-0.3,0,0,0.03,90,0,0,0,0,0,0,0,0,-0.18,0,0,3,0,0,0,69,0,0,0,0,0,0,,0,NONE,0,0,0,0,0,0,0,0,0,0,0,0,0,0,0,0,0,0,0,0,0,89.83,1,-0.18,1.952,-0.0467,0.531,0,-0.0467,0,0,0,0,0,0,1,1,0,0,VALID,0,0,0,0,0,1,0,0,0,0,0,0,0,0,0,0,0,0,0,0,1123.59,1863.11,6,0,0.06,0.06,229,14.29,0.08,0.06,18.62,LANDED,C-1000F,0:/Integrated Flight Computer/aircraft/c_1000f_cfg.ks (inferred preloaded)
19.08,TAKEOFF,TO_GROUND_ROLL,47.71,80,32.29,4.84,-4.73,-0.25,-0.43,-0.14,91.77,0.104,1,0,0,0,0,0,0,0,0,0,0,0,0,0,0,89.82,0,1,0,-0.3,0,0,0.03,90,0,0,0,0,0,0,0,0,-0.19,0,0,3,0,0,0,69,0,0,0,0,0,0,,0,NONE,0,0,0,0,0,0,0,0,0,0,0,0,0,0,0,0,0,0,0,0,0,89.82,1,-0.19,1.952,-0.048,0.547,0,-0.048,0,0,0,0,0,0,1,1,0,0,VALID,0,0,0,0,0,1,0,0,0,0,0,0,0,0,0,0,0,0,0,0,1133.91,1859.82,6,0,0.06,0.06,233,14.29,0.08,0.06,18.9,LANDED,C-1000F,0:/Integrated Flight Computer/aircraft/c_1000f_cfg.ks (inferred preloaded)
19.38,TAKEOFF,TO_GROUND_ROLL,49.28,80,30.72,4.84,-4.81,-0.26,-0.42,-0.14,91.76,0.103,1,0,0,0,0,0,0,0,0,0,0,0,0,0,0,89.81,0,1,0,-0.3,0,0,0.03,90,0,0,0,0,0,0,0,0,-0.2,0,0,3,0,0,0,69,0,0,0,0,0,0,,0,NONE,0,0,0,0,0,0,0,0,0,0,0,0,0,0,0,0,0,0,0,0,0,89.81,1,-0.2,1.955,-0.0496,0.564,0,-0.0496,0,0,0,0,0,0,1,1,0,0,VALID,0,0,0,0,0,1,0,0,0,0,0,0,0,0,0,0,0,0,0,0,1144.66,1856.22,6,0,0.06,0.06,237,13.33,0.1,0.06,19.2,LANDED,C-1000F,0:/Integrated Flight Computer/aircraft/c_1000f_cfg.ks (inferred preloaded)
19.66,TAKEOFF,TO_GROUND_ROLL,50.75,80,29.25,4.84,-4.88,-0.26,-0.42,-0.14,91.75,0.102,1,0,0,0,0,0,0,0,0,0,0,0,0,0,0,89.8,0,1,0,-0.3,0,0,0.03,90,0,0,0,0,0,0,0,0,-0.209,0,0,3,0,0,0,69,0,0,0,0,0,0,,0,NONE,0,0,0,0,0,0,0,0,0,0,0,0,0,0,0,0,0,0,0,0,0,89.8,1,-0.209,1.957,-0.051,0.579,0,-0.051,0,0,0,0,0,0,1,1,0,0,VALID,0,0,0,0,0,1,0,0,0,0,0,0,0,0,0,0,0,0,0,0,1154.39,1852.8,6,0,0.06,0.06,241,14.29,0.08,0.06,19.48,LANDED,C-1000F,0:/Integrated Flight Computer/aircraft/c_1000f_cfg.ks (inferred preloaded)
19.96,TAKEOFF,TO_GROUND_ROLL,52.34,80,27.66,4.84,-4.96,-0.27,-0.42,-0.14,91.75,0.1,1,0,0,0,0,0,0,0,0,0,0,0,0,0,0,89.79,0,1,0,-0.29,0,0,0.03,90,0,0,0,0,0,0,0,0,-0.22,0,0,3,0,0,0,69,0,0,0,0,0,0,,0,NONE,0,0,0,0,0,0,0,0,0,0,0,0,0,0,0,0,0,0,0,0,0,89.79,1,-0.22,1.959,-0.0526,0.597,0,-0.0526,0,0,0,0,0,0,1,1,0,0,VALID,0,0,0,0,0,1,0,0,0,0,0,0,0,0,0,0,0,0,0,0,1164.51,1849.05,6,0,0.06,0.06,245,13.33,0.1,0.06,19.78,LANDED,C-1000F,0:/Integrated Flight Computer/aircraft/c_1000f_cfg.ks (inferred preloaded)
20.26,TAKEOFF,TO_GROUND_ROLL,53.94,80,26.06,4.84,-5.05,-0.27,-0.42,-0.14,91.74,0.101,1,0,0,0,0,0,0,0,0,0,0,0,0,0,0,89.77,0,1,0,-0.29,0,0,0.03,90,0,0,0,0,0,0,0,0,-0.231,0,0,3,0,0,0,69,0,0,0,0,0,0,,0,NONE,0,0,0,0,0,0,0,0,0,0,0,0,0,0,0,0,0,0,0,0,0,89.77,1,-0.231,1.962,-0.0542,0.614,0,-0.0542,0,0,0,0,0,0,1,1,0,0,VALID,0,0,0,0,0,1,0,0,0,0,0,0,0,0,0,0,0,0,0,0,1174.31,1845.24,6,0,0.06,0.06,249,13.33,0.1,0.06,20.08,LANDED,C-1000F,0:/Integrated Flight Computer/aircraft/c_1000f_cfg.ks (inferred preloaded)
20.54,TAKEOFF,TO_GROUND_ROLL,55.45,80,24.55,4.84,-5.12,-0.28,-0.41,-0.14,91.73,0.102,1,0,0,0,0,0,0,0,0,0,0,0,0,0,0,89.77,0,1,0,-0.29,0,0,0.03,90,0,0,0,0,0,0,0,0,-0.241,0,0,3,0,0,0,69,0,0,0,0,0,0,,0,NONE,0,0,0,0,0,0,0,0,0,0,0,0,0,0,0,0,0,0,0,0,0,89.77,1,-0.241,1.96,-0.0555,0.63,0,-0.0555,0,0,0,0,0,0,1,1,0,0,VALID,0,0,0,0,0,1,0,0,0,0,0,0,0,0,0,0,0,0,0,0,1183.17,1841.61,6,0,0.06,0.06,253,14.29,0.08,0.06,20.36,LANDED,C-1000F,0:/Integrated Flight Computer/aircraft/c_1000f_cfg.ks (inferred preloaded)
20.82,TAKEOFF,TO_GROUND_ROLL,56.97,80,23.03,4.84,-5.2,-0.29,-0.41,-0.14,91.71,0.103,1,0,0,0,0,0,0,0,0,0,0,0,0,0,0,89.76,0,1,0,-0.29,0,0,0.04,90,0,0,0,0,0,0,0,0,-0.251,0,0,3,0,0,0,69,0,0,0,0,0,0,,0,NONE,0,0,0,0,0,0,0,0,0,0,0,0,0,0,0,0,0,0,0,0,0,89.76,1,-0.251,1.957,-0.0569,0.646,0,-0.0569,0,0,0,0,0,0,1,1,0,0,VALID,0,0,0,0,0,1,0,0,0,0,0,0,0,0,0,0,0,0,0,0,1191.77,1837.93,6,0,0.06,0.06,257,14.29,0.08,0.06,20.64,LANDED,C-1000F,0:/Integrated Flight Computer/aircraft/c_1000f_cfg.ks (inferred preloaded)
21.12,TAKEOFF,TO_GROUND_ROLL,58.6,80,21.4,4.84,-5.29,-0.29,-0.41,-0.14,91.7,0.104,1,0,0,0,0,0,0,0,0,0,0,0,0,0,0,89.75,0,1,0,-0.29,0,0,0.04,90,0,0,0,0,0,0,0,0,-0.263,0,0,3,0,0,0,69,0,0,0,0,0,0,,0,NONE,0,0,0,0,0,0,0,0,0,0,0,0,0,0,0,0,0,0,0,0,0,89.75,1,-0.263,1.951,-0.0582,0.664,0,-0.0582,0,0,0,0,0,0,1,1,0,0,VALID,0,0,0,0,0,1,0,0,0,0,0,0,0,0,0,0,0,0,0,0,1200.68,1833.92,6,0,0.06,0.06,261,13.33,0.1,0.06,20.94,LANDED,C-1000F,0:/Integrated Flight Computer/aircraft/c_1000f_cfg.ks (inferred preloaded)
21.4,TAKEOFF,TO_GROUND_ROLL,60.14,80,19.86,4.84,-5.37,-0.3,-0.41,-0.14,91.68,0.104,1,0,0,0,0,0,0,0,0,0,0,0,0,0,0,89.74,0,1,0,-0.28,0,0,0.04,90,0,0,0,0,0,0,0,0,-0.274,0,0,3,0,0,0,69,0,0,0,0,0,0,,0,NONE,0,0,0,0,0,0,0,0,0,0,0,0,0,0,0,0,0,0,0,0,0,89.74,1,-0.274,1.942,-0.0594,0.68,0,-0.0594,0,0,0,0,0,0,1,1,0,0,VALID,0,0,0,0,0,1,0,0,0,0,0,0,0,0,0,0,0,0,0,0,1208.74,1830.12,6,0,0.06,0.06,265,14.29,0.08,0.06,21.22,LANDED,C-1000F,0:/Integrated Flight Computer/aircraft/c_1000f_cfg.ks (inferred preloaded)
21.68,TAKEOFF,TO_GROUND_ROLL,61.69,80,18.31,4.84,-5.46,-0.3,-0.4,-0.14,91.66,0.105,1,0,0,0,0,0,0,0,0,0,0,0,0,0,0,89.73,0,1,0,-0.28,0,0,0.04,90,0,0,0,0,0,0,0,0,-0.285,0,0,3,0,0,0,69,0,0,0,0,0,0,,0,NONE,0,0,0,0,0,0,0,0,0,0,0,0,0,0,0,0,0,0,0,0,0,89.73,1,-0.285,1.932,-0.0606,0.697,0,-0.0606,0,0,0,0,0,0,1,1,0,0,VALID,0,0,0,0,0,1,0,0,0,0,0,0,0,0,0,0,0,0,0,0,1216.53,1826.27,6,0,0.06,0.06,269,14.29,0.08,0.06,21.5,LANDED,C-1000F,0:/Integrated Flight Computer/aircraft/c_1000f_cfg.ks (inferred preloaded)
21.98,TAKEOFF,TO_GROUND_ROLL,63.35,80,16.65,4.84,-5.55,-0.31,-0.4,-0.13,91.64,0.107,1,0,0,0,0,0,0,0,0,0,0,0,0,0,0,89.72,0,1,0,-0.28,0,0,0.04,90,0,0,0,0,0,0,0,0,-0.297,0,0,3,0,0,0,69,0,0,0,0,0,0,,0,NONE,0,0,0,0,0,0,0,0,0,0,0,0,0,0,0,0,0,0,0,0,0,89.72,1,-0.297,1.919,-0.0617,0.715,0,-0.0617,0,0,0,0,0,0,1,1,0,0,VALID,0,0,0,0,0,1,0,0,0,0,0,0,0,0,0,0,0,0,0,0,1224.61,1822.08,6,0,0.06,0.06,273,13.33,0.1,0.06,21.8,LANDED,C-1000F,0:/Integrated Flight Computer/aircraft/c_1000f_cfg.ks (inferred preloaded)
22.26,TAKEOFF,TO_GROUND_ROLL,64.92,80,15.08,4.84,-5.64,-0.31,-0.4,-0.13,91.62,0.109,1,0,0,0,0,0,0,0,0,0,0,0,0,0,0,89.71,0,1,0,-0.28,0,0,0.05,90,0,0,0,0,0,0,0,0,-0.309,0,0,3,0,0,0,69,0,0,0,0,0,0,,0,NONE,0,0,0,0,0,0,0,0,0,0,0,0,0,0,0,0,0,0,0,0,0,89.71,1,-0.309,1.907,-0.0628,0.731,0,-0.0628,0,0,0,0,0,0,1,1,0,0,VALID,0,0,0,0,0,1,0,0,0,0,0,0,0,0,0,0,0,0,0,0,1231.9,1818.12,6,0,0.06,0.06,277,14.29,0.08,0.06,22.08,LANDED,C-1000F,0:/Integrated Flight Computer/aircraft/c_1000f_cfg.ks (inferred preloaded)
22.56,TAKEOFF,TO_GROUND_ROLL,66.6,80,13.4,4.85,-5.73,-0.32,-0.39,-0.13,91.58,0.114,1,0,0,0,0,0,0,0,0,0,0,0,0,0,0,89.7,0,1,0,-0.28,0,0,0.05,90,0,0,0,0,0,0,0,0,-0.322,0,0,3,0,0,0,69,0,0,0,0,0,0,,0,NONE,0,0,0,0,0,0,0,0,0,0,0,0,0,0,0,0,0,0,0,0,0,89.7,1,-0.322,1.881,-0.0634,0.749,0,-0.0634,0,0,0,0,0,0,1,1,0,0,VALID,0,0,0,0,0,1,0,0,0,0,0,0,0,0,0,0,0,0,0,0,1239.44,1813.83,6,0,0.06,0.06,281,13.33,0.1,0.06,22.38,LANDED,C-1000F,0:/Integrated Flight Computer/aircraft/c_1000f_cfg.ks (inferred preloaded)
22.86,TAKEOFF,TO_GROUND_ROLL,68.3,80,11.7,4.87,-5.77,-0.26,-0.38,-0.18,91.55,0.153,1,0,0,0,0,0,0,0,0,0,0,0,0,0,0,89.68,0,1,0,-0.22,0,0,0.05,90,0,0,0,0,0,0,0,0,-0.334,0,0,3,0,0,0,69,0,0,0,0,0,0,,0,NONE,0,0,0,0,0,0,0,0,0,0,0,0,0,0,0,0,0,0,0,0,0,89.68,1,-0.334,1.867,-0.0645,0.767,0,-0.0645,0,0,0,0,0,0,1,1,0,0,VALID,0,0,0,0,0,1,0,0,0,0,0,0,0,0,0,0,0,0,0,0,1246.69,1809.47,6,0,0.06,0.06,285,13.33,0.1,0.06,22.68,LANDED,C-1000F,0:/Integrated Flight Computer/aircraft/c_1000f_cfg.ks (inferred preloaded)
23.14,TAKEOFF,TO_GROUND_ROLL,69.89,80,10.11,4.83,-5.91,-0.36,-0.4,-0.12,91.52,0.19,1,0,0,0,0,0,0,0,0,0,0,0,0,0,0,89.68,0,1,0,-0.29,0,0,0.05,90,0,0,0,0,0,0,0,0,-0.345,0,0,3,0,0,0,69,0,0,0,0,0,0,,0,NONE,0,0,0,0,0,0,0,0,0,0,0,0,0,0,0,0,0,0,0,0,0,89.68,1,-0.345,1.847,-0.0652,0.784,0,-0.0652,0,0,0,0,0,0,1,1,0,0,VALID,0,0,0,0,0,1,0,0,0,0,0,0,0,0,0,0,0,0,0,0,1253.25,1805.38,6,0,0.06,0.06,289,14.29,0.08,0.06,22.96,LANDED,C-1000F,0:/Integrated Flight Computer/aircraft/c_1000f_cfg.ks (inferred preloaded)
23.42,TAKEOFF,TO_GROUND_ROLL,71.48,80,8.52,4.87,-5.97,-0.34,-0.37,-0.12,91.48,0.145,1,0,0,0,0,0,0,0,0,0,0,0,0,0,0,89.68,0,1,0,-0.27,0,0,0.05,90,0,0,0,0,0,0,0,0,-0.356,0,0,3,0,0,0,69,0,0,0,0,0,0,,0,NONE,0,0,0,0,0,0,0,0,0,0,0,0,0,0,0,0,0,0,0,0,0,89.68,1,-0.356,1.804,-0.0651,0.802,0,-0.0651,0,0,0,0,0,0,1,1,0,0,VALID,0,0,0,0,0,1,0,0,0,0,0,0,0,0,0,0,0,0,0,0,1259.56,1801.24,6,0,0.06,0.06,293,14.29,0.08,0.06,23.24,LANDED,C-1000F,0:/Integrated Flight Computer/aircraft/c_1000f_cfg.ks (inferred preloaded)
23.72,TAKEOFF,TO_GROUND_ROLL,73.2,80,6.8,4.84,-6.09,-0.29,-0.39,-0.17,91.4,0.083,1,0,0,0,0,0,0,0,0,0,0,0,0,0,0,89.7,0,1,0,-0.23,0,0,0.06,90,0,0,0,0,0,0,0,0,-0.368,0,0,3,0,0,0,69,0,0,0,0,0,0,,0,NONE,0,0,0,0,0,0,0,0,0,0,0,0,0,0,0,0,0,0,0,0,0,89.7,1,-0.368,1.703,-0.0628,0.82,0,-0.0628,0,0,0,0,0,0,1,1,0,0,VALID,0,0,0,0,0,1,0,0,0,0,0,0,0,0,0,0,0,0,0,0,1266.08,1796.77,6,0,0.06,0.06,297,13.33,0.1,0.06,23.54,LANDED,C-1000F,0:/Integrated Flight Computer/aircraft/c_1000f_cfg.ks (inferred preloaded)
24,TAKEOFF,TO_GROUND_ROLL,74.81,80,5.19,4.86,-6.17,-0.39,-0.37,-0.08,91.3,0.077,1,0,0,0,0,0,0,0,0,0,0,0,0,0,0,89.7,0,1,0,-0.3,0,0,0.06,90,0,0,0,0,0,0,0,0,-0.38,0,0,3,0,0,0,69,0,0,0,0,0,0,,0,NONE,0,0,0,0,0,0,0,0,0,0,0,0,0,0,0,0,0,0,0,0,0,89.7,1,-0.38,1.605,-0.0605,0.837,0,-0.0605,0,0,0,0,0,0,1,1,0,0,VALID,0,0,0,0,0,1,0,0,0,0,0,0,0,0,0,0,0,0,0,0,1271.95,1792.55,6,0,0.06,0.06,301,14.29,0.08,0.06,23.82,LANDED,C-1000F,0:/Integrated Flight Computer/aircraft/c_1000f_cfg.ks (inferred preloaded)
24.28,TAKEOFF,TO_GROUND_ROLL,76.42,80,3.58,4.85,-6.29,-0.31,-0.38,-0.16,91.21,0.178,1,0,0,0,0,0,0,0,0,0,0,0,0,0,0,89.66,0,1,0,-0.23,0,0,0.06,90,0,0,0,0,0,0,0,0,-0.39,0,0,3,0,0,0,69,0,0,0,0,0,0,,0,NONE,0,0,0,0,0,0,0,0,0,0,0,0,0,0,0,0,0,0,0,0,0,89.66,1,-0.39,1.546,-0.0595,0.855,0,-0.0595,0,0,0,0,0,0,1,1,0,0,VALID,0,0,0,0,0,1,0,0,0,0,0,0,0,0,0,0,0,0,0,0,1277.6,1788.31,6,0,0.06,0.06,305,14.29,0.08,0.06,24.1,LANDED,C-1000F,0:/Integrated Flight Computer/aircraft/c_1000f_cfg.ks (inferred preloaded)
24.58,TAKEOFF,TO_GROUND_ROLL,78.16,80,1.84,4.85,-6.39,-0.4,-0.37,-0.09,91.14,0.249,1,0,0,0,0,0,0,0,0,0,0,0,0,0,0,89.64,0,1,0,-0.29,0,0,0.06,90,0,0,0,0,0,0,0,0,-0.4,0,0,3,0,0,0,69,0,0,0,0,0,0,,0,NONE,0,0,0,0,0,0,0,0,0,0,0,0,0,0,0,0,0,0,0,0,0,89.64,1,-0.4,1.506,-0.0592,0.873,0,-0.0592,0,0,0,0,0,0,1,1,0,0,VALID,0,0,0,0,0,1,0,0,0,0,0,0,0,0,0,0,0,0,0,0,1283.43,1783.73,6,0,0.06,0.06,309,13.33,0.1,0.06,24.4,LANDED,C-1000F,0:/Integrated Flight Computer/aircraft/c_1000f_cfg.ks (inferred preloaded)
24.86,TAKEOFF,TO_GROUND_ROLL,79.78,80,0.22,4.85,-6.49,-0.32,-0.37,-0.15,91.11,0.211,1,0,0,0,0,0,0,0,0,0,0,0,0,0,0,89.61,0,1,0,-0.23,0,0,0.06,90,0,0,0,0,0,0,0,0,-0.409,0,0,3,0,0,0,69,0,0,0,0,0,0,,0,NONE,0,0,0,0,0,0,0,0,0,0,0,0,0,0,0,0,0,0,0,0,0,89.61,1,-0.409,1.5,-0.0601,0.891,0,-0.0601,0,0,0,0,0,0,1,1,0,0,VALID,0,0,0,0,0,1,0,0,0,0,0,0,0,0,0,0,0,0,0,0,1288.66,1779.42,6,0,0.06,0.06,313,14.29,0.08,0.06,24.68,LANDED,C-1000F,0:/Integrated Flight Computer/aircraft/c_1000f_cfg.ks (inferred preloaded)
25.16,TAKEOFF,TO_GROUND_ROLL,81.53,80,-1.53,4.85,-6.59,-0.39,-0.37,-0.1,91.09,0.132,1,0,0,0,0,0,0,0,0,0,0,0,0,0,0,89.59,0,1,0,-0.28,0,0,0.07,90,0,0,0,0,0,0,0,0,-0.419,0,0,3,0,0,0,69,0,0,0,0,0,0,,0,NONE,0,0,0,0,0,0,0,0,0,0,0,0,0,0,0,0,0,0,0,0,0,89.59,1,-0.419,1.495,-0.0612,0.909,0,-0.0612,0,0,0,0,0,0,1,1,0,0,VALID,0,0,0,0,0,1,0,0,0,0,0,0,0,0,0,0,0,0,0,0,1294.04,1774.78,6,0,0.06,0.06,317,13.33,0.1,0.06,24.98,LANDED,C-1000F,0:/Integrated Flight Computer/aircraft/c_1000f_cfg.ks (inferred preloaded)
25.46,TAKEOFF,TO_GROUND_ROLL,83.29,80,-3.29,4.86,-6.7,-0.34,-0.36,-0.14,91.06,0.087,1,0,0,0,0,0,0,0,0,0,0,0,0,0,0,89.59,0,1,0,-0.23,0,0,0.07,90,0,0,0,0,0,0,0,0,-0.429,0,0,3,0,0,0,69,0,0,0,0,0,0,,0,NONE,0,0,0,0,0,0,0,0,0,0,0,0,0,0,0,0,0,0,0,0,0,89.59,1,-0.429,1.475,-0.0616,0.928,0,-0.0616,0,0,0,0,0,0,1,1,0,0,VALID,0,0,0,0,0,1,0,0,0,0,0,0,0,0,0,0,0,0,0,0,1299.2,1770.11,6,0,0.06,0.06,321,13.33,0.1,0.06,25.28,LANDED,C-1000F,0:/Integrated Flight Computer/aircraft/c_1000f_cfg.ks (inferred preloaded)
25.74,TAKEOFF,TO_GROUND_ROLL,84.93,80,-4.93,4.85,-6.8,-0.38,-0.36,-0.11,91.04,0.094,1,0,0,0,0,0,0,0,0,0,0,0,0,0,0,89.59,0,1,0,-0.26,0,0,0.07,90,0,0,0,0,0,0,0,0,-0.438,0,0,3,0,0,0,69,0,0,0,0,0,0,,0,NONE,0,0,0,0,0,0,0,0,0,0,0,0,0,0,0,0,0,0,0,0,0,89.59,1,-0.438,1.449,-0.0617,0.946,0,-0.0617,0,0,0,0,0,0,1,1,0,0,VALID,0,0,0,0,0,1,0,0,0,0,0,0,0,0,0,0,0,0,0,0,1303.83,1765.74,6,0,0.06,0.06,325,14.29,0.08,0.06,25.56,LANDED,C-1000F,0:/Integrated Flight Computer/aircraft/c_1000f_cfg.ks (inferred preloaded)
26.02,TAKEOFF,TO_ROTATE,86.69,80,-6.69,4.86,-6.91,-0.36,-0.36,-0.13,90.99,0.111,1,0,0,0,0,0,0,0,0,0,0,0,0,0,0,89.59,-0.162,1,0,-0.24,0,0,0.07,90,0,0,0,0,0,0,0,0,-0.447,0,0,3,0,0,0,69,0,0,0,0,0,0,,0,NONE,0,0,0,0,0,0,0,0.12,0,0,0,0,0,0,0,0,0,0,0,0,0,89.59,1,-0.447,1.399,-0.0606,0.963,0,-0.0606,0,0.12,-0.162,0.195,0.08,0,1,1,0,0,VALID,0,0,0,0,0,1,0,0,0,0,0,0,0,0,0,0,0,0,0,0,1308.27,1761.35,6,0,0.06,0.06,329,13.33,0.08,0.06,25.84,LANDED,C-1000F,0:/Integrated Flight Computer/aircraft/c_1000f_cfg.ks (inferred preloaded)
26.34,TAKEOFF,TO_ROTATE,88.57,80,-8.57,4.86,-7.03,-0.38,-0.33,-0.1,90.91,0.117,1,0,0,0,0,0,0,0,0,0,0,0,0,0,0,89.61,0.158,1,0,-0.25,0,0,0.08,90,0,0,0,0,0,0,0,0,-0.457,0,0,3,0,0,0,69,0,0,0,0,0,0,,0,NONE,0,0,0,0,0,0,0,0.12,0,0,0,0,0,0,0,0,0,0,0,0,0,89.61,1,-0.457,1.299,-0.0575,0.983,0,-0.0575,0,0.12,0.158,0.493,0.08,0,1,1,0,0,VALID,0,0,0,0,0,1,0,0,0,0,0,0,0,0,0,0,0,0,0,0,1313.14,1756.31,6,0,0.08,0.08,333,12.5,0.1,0.06,26.16,LANDED,C-1000F,0:/Integrated Flight Computer/aircraft/c_1000f_cfg.ks (inferred preloaded)
26.62,TAKEOFF,TO_ROTATE,90.23,80,-10.23,4.86,-7.14,-0.37,-0.33,-0.11,90.76,0.152,1,0,0,0,0,0,0,0,0,0,0,0,0,0,0,89.66,0.438,1,0,-0.24,0,0,0.08,90,0,0,0,0,0,0,0,0,-0.466,0,0,3,0,0,0,69,0,0,0,0,0,0,,0,NONE,0,0,0,0,0,0,0,0.1417,0,0,0,0,0,0,0,0,0,0,0,0,0,89.66,1,-0.466,1.096,-0.0493,1,0,-0.0493,0,0.1417,0.438,0.771,0.08,0,1,1,0,0,VALID,0,0,0,0,0,1,0,0,0,0,0,0,0,0,0,0,0,0,0,0,1317.21,1751.89,6,0,0.08,0.08,337,14.29,0.08,0.06,26.44,LANDED,C-1000F,0:/Integrated Flight Computer/aircraft/c_1000f_cfg.ks (inferred preloaded)
26.9,TAKEOFF,TO_ROTATE,91.88,80,-11.88,4.87,-7.25,-0.38,-0.31,-0.09,90.65,0.257,1,0,0,0,0,0,0,0,0,0,0,0,0,0,0,89.57,0.718,1,0,-0.24,0,0,0.08,90,0,0,0,0,0,0,0,0,-0.473,0,0,3,0,0,0,69,0,0,0,0,0,0,,0,NONE,0,0,0,0,0,0,0,0.1626,0,0,0,0,0,0,0,0,0,0,0,0,0,89.57,1,-0.473,1.075,-0.0484,1,0,-0.0484,0,0.1626,0.718,1.032,0.08,0,1,1,0,0,VALID,0,0,0,0,0,1,0,0,0,0,0,0,0,0,0,0,0,0,0,0,1321.12,1747.47,6,0,0.08,0.08,341,14.29,0.08,0.06,26.72,LANDED,C-1000F,0:/Integrated Flight Computer/aircraft/c_1000f_cfg.ks (inferred preloaded)
27.2,TAKEOFF,TO_ROTATE,93.66,80,-13.66,4.86,-7.37,-0.38,-0.32,-0.1,90.62,0.263,1,0,0,0,0,0,0,0,0,0,0,0,0,0,0,89.52,1.018,1,0,-0.23,0,0,0.08,90,0,0,0,0,0,0,0,0,-0.479,0,0,3,0,0,0,69,0,0,0,0,0,0,,0,NONE,0,0,0,0,0,0,0,0.1873,0,0,0,0,0,0,0,0,0,0,0,0,0,89.52,1,-0.479,1.097,-0.0494,1,0,-0.0494,0,0.1873,1.018,1.341,0.08,0,1,1,0,0,VALID,0,0,0,0,0,1,0,0,0,0,0,0,0,0,0,0,0,0,0,0,1325.12,1742.72,6,0,0.08,0.08,345,13.33,0.08,0.06,27.02,LANDED,C-1000F,0:/Integrated Flight Computer/aircraft/c_1000f_cfg.ks (inferred preloaded)
27.48,TAKEOFF,TO_ROTATE,95.32,80,-15.32,4.87,-7.47,-0.38,-0.31,-0.08,90.62,0.145,1,0,0,0,0,0,0,0,0,0,0,0,0,0,0,89.52,1.298,1,0,-0.23,0,0,0.09,90,0,0,0,0,0,0,0,0,-0.485,0,0,3,0,0,0,69,0,0,0,0,0,0,,0,NONE,0,0,0,0,0,0,0,0.2082,0,0,0,0,0,0,0,0,0,0,0,0,0,89.52,1,-0.485,1.1,-0.0495,1,0,-0.0495,0,0.2082,1.298,1.603,0.08,0,1,1,0,0,VALID,0,0,0,0,0,1,0,0,0,0,0,0,0,0,0,0,0,0,0,0,1328.7,1738.29,6,0,0.08,0.08,349,14.29,0.08,0.06,27.3,LANDED,C-1000F,0:/Integrated Flight Computer/aircraft/c_1000f_cfg.ks (inferred preloaded)
27.76,TAKEOFF,TO_ROTATE,96.98,80,-16.98,4.87,-7.57,-0.39,-0.3,-0.09,90.59,0.046,1,0,0,0,0,0,0,0,0,0,0,0,0,0,0,89.54,1.578,1,0,-0.23,0,0,0.09,90,0,0,0,0,0,0,0,0,-0.491,0,0,3,0,0,0,69,0,0,0,0,0,0,,0,NONE,0,0,0,0,0,0,0,0.2306,0,0,0,0,0,0,0,0,0,0,0,0,0,89.54,1,-0.491,1.048,-0.0472,1,0,-0.0472,0,0.2306,1.578,1.882,0.08,0,1,1,0,0,VALID,0,0,0,0,0,1,0,0,0,0,0,0,0,0,0,0,0,0,0,0,1332.13,1733.85,6,0,0.08,0.08,353,14.29,0.08,0.06,27.58,LANDED,C-1000F,0:/Integrated Flight Computer/aircraft/c_1000f_cfg.ks (inferred preloaded)
28.06,TAKEOFF,TO_ROTATE,98.77,80,-18.77,4.87,-7.69,-0.39,-0.29,-0.07,90.5,0.042,1,0,0,0,0,0,0,0,0,0,0,0,0,0,0,89.57,1.878,1,0,-0.22,0,0,0.09,90,0,0,0,0,0,0,0,0,-0.498,0,0,3,0,0,0,69,0,0,0,0,0,0,,0,NONE,0,0,0,0,0,0,0,0.2532,0,0,0,0,0,0,0,0,0,0,0,0,0,89.57,1,-0.498,0.931,-0.0419,1,0,-0.0419,0,0.2532,1.878,2.166,0.08,0,1,1,0,0,VALID,0,0,0,0,0,1,0,0,0,0,0,0,0,0,0,0,0,0,0,0,1335.63,1729.1,6,0,0.08,0.08,357,13.33,0.08,0.06,27.88,LANDED,C-1000F,0:/Integrated Flight Computer/aircraft/c_1000f_cfg.ks (inferred preloaded)
28.34,TAKEOFF,TO_ROTATE,100.44,80,-20.44,4.87,-7.8,-0.36,-0.28,-0.07,90.38,0.124,1,0,0,0,0,0,0,0,0,0,0,0,0,0,0,89.59,2.158,1,0,-0.22,0,0,0.1,90,0,0,0,0,0,0,0,0,-0.504,0,0,3,0,0,0,69,0,0,0,0,0,0,,0,NONE,0,0,0,0,0,0,0,0.2752,0,0,0,0,0,0,0,0,0,0,0,0,0,89.59,1,-0.504,0.788,-0.0355,1,0,-0.0355,0,0.2752,2.158,2.44,0.08,0,1,1,0,0,VALID,0,0,0,0,0,1,0,0,0,0,0,0,0,0,0,0,0,0,0,0,1338.76,1724.67,6,0,0.08,0.08,361,14.29,0.08,0.06,28.16,LANDED,C-1000F,0:/Integrated Flight Computer/aircraft/c_1000f_cfg.ks (inferred preloaded)
28.62,TAKEOFF,TO_ROTATE,102.11,80,-22.11,4.88,-7.91,-0.42,-0.27,-0.05,90.34,0.272,1,0,0,0,0,0,0,0,0,0,0,0,0,0,0,89.5,2.438,1,0,-0.23,0,0,0.1,90,0,0,0,0,0,0,0,0,-0.507,0,0,3,0,0,0,69,0,0,0,0,0,0,,0,NONE,0,0,0,0,0,0,0,0.2963,0,0,0,0,0,0,0,0,0,0,0,0,0,89.5,1,-0.507,0.833,-0.0375,1,0,-0.0375,0,0.2963,2.438,2.704,0.08,0,1,1,0,0,VALID,0,0,0,0,0,1,0,0,0,0,0,0,0,0,0,0,0,0,0,0,1341.75,1720.25,6,0,0.08,0.08,365,14.29,0.08,0.06,28.44,LANDED,C-1000F,0:/Integrated Flight Computer/aircraft/c_1000f_cfg.ks (inferred preloaded)
28.92,TAKEOFF,TO_ROTATE,103.89,80,-23.89,4.88,-8.03,-0.35,-0.27,-0.07,90.33,0.255,1,0,0,0,0,0,0,0,0,0,0,0,0,0,0,89.5,2.738,1,0,-0.2,0,0,0.1,90,0,0,0,0,0,0,0,0,-0.511,0,0,3,0,0,0,69,0,0,0,0,0,0,,0,NONE,0,0,0,0,0,0,0,0.3203,0,0,0,0,0,0,0,0,0,0,0,0,0,89.5,1,-0.511,0.83,-0.0374,1,0,-0.0374,0,0.3203,2.738,3.004,0.08,0,1,1,0,0,VALID,0,0,0,0,0,1,0,0,0,0,0,0,0,0,0,0,0,0,0,0,1344.81,1715.53,6,0,0.08,0.08,369,13.33,0.08,0.06,28.74,LANDED,C-1000F,0:/Integrated Flight Computer/aircraft/c_1000f_cfg.ks (inferred preloaded)
29.2,TAKEOFF,TO_ROTATE,105.56,80,-25.56,4.88,-8.13,-0.42,-0.25,-0.03,90.31,0.127,1,0,0,0,0,0,0,0,0,0,0,0,0,0,0,89.51,3.018,1,0,-0.22,0,0,0.1,90,0,0,0,0,0,0,0,0,-0.514,0,0,3,0,0,0,69,0,0,0,0,0,0,,0,NONE,0,0,0,0,0,0,0,0.3414,0,0,0,0,0,0,0,0,0,0,0,0,0,89.51,1,-0.514,0.799,-0.0359,1,0,-0.0359,0,0.3414,3.018,3.267,0.08,0,1,1,0,0,VALID,0,0,0,0,0,1,0,0,0,0,0,0,0,0,0,0,0,0,0,0,1347.53,1711.14,6,0,0.08,0.08,373,14.29,0.08,0.06,29.02,LANDED,C-1000F,0:/Integrated Flight Computer/aircraft/c_1000f_cfg.ks (inferred preloaded)
29.48,TAKEOFF,TO_ROTATE,107.24,80,-27.24,4.88,-8.24,-0.37,-0.25,-0.06,90.25,0.041,1,0,0,0,0,0,0,0,0,0,0,0,0,0,0,89.53,3.298,1,0,-0.2,0,0,0.11,90,0,0,0,0,0,0,0,0,-0.518,0,0,3,0,0,0,69,0,0,0,0,0,0,,0,NONE,0,0,0,0,0,0,0,0.3635,0,0,0,0,0,0,0,0,0,0,0,0,0,89.53,1,-0.518,0.724,-0.0326,1,0,-0.0326,0,0.3635,3.298,3.544,0.08,0,1,1,0,0,VALID,0,0,0,0,0,1,0,0,0,0,0,0,0,0,0,0,0,0,0,0,1350.14,1706.76,6,0,0.08,0.08,377,14.29,0.08,0.06,29.3,LANDED,C-1000F,0:/Integrated Flight Computer/aircraft/c_1000f_cfg.ks (inferred preloaded)
29.78,TAKEOFF,TO_ROTATE,109.03,80,-29.03,4.89,-8.35,-0.41,-0.23,-0.02,90.16,0.059,1,0,0,0,0,0,0,0,0,0,0,0,0,0,0,89.54,3.598,1,0,-0.21,0,0,0.11,90,0,0,0,0,0,0,0,0,-0.521,0,0,3,0,0,0,69,0,0,0,0,0,0,,0,NONE,0,0,0,0,0,0,0,0.3858,0,0,0,0,0,0,0,0,0,0,0,0,0,89.54,1,-0.521,0.613,-0.0276,1,0,-0.0276,0,0.3858,3.598,3.823,0.08,0,1,1,0,0,VALID,0,0,0,0,0,1,0,0,0,0,0,0,0,0,0,0,0,0,0,0,1352.8,1702.09,6,0,0.08,0.08,381,13.33,0.08,0.06,29.6,LANDED,C-1000F,0:/Integrated Flight Computer/aircraft/c_1000f_cfg.ks (inferred preloaded)
30.06,TAKEOFF,TO_ROTATE,110.69,80,-30.69,4.89,-8.47,-0.38,-0.21,-0.03,90.15,0.181,1,0,0,0,0,0,0,0,0,0,0,0,0,0,0,89.45,3.878,1,0,-0.2,0,0,0.11,90,0,0,0,0,0,0,0,0,-0.523,0,0,3,0,0,0,69,0,0,0,0,0,0,,0,NONE,0,0,0,0,0,0,0,0.4074,0,0,0,0,0,0,0,0,0,0,0,0,0,89.45,1,-0.523,0.703,-0.0316,1,0,-0.0316,0,0.4074,3.878,4.093,0.08,0,1,1,0,0,VALID,0,0,0,0,0,1,0,0,0,0,0,0,0,0,0,0,0,0,0,0,1355.17,1697.76,6,0,0.08,0.08,385,14.29,0.08,0.06,29.88,LANDED,C-1000F,0:/Integrated Flight Computer/aircraft/c_1000f_cfg.ks (inferred preloaded)
30.34,TAKEOFF,TO_ROTATE,112.36,80,-32.36,4.89,-8.58,-0.4,-0.21,-0.02,90.18,0.233,1,0,0,0,0,0,0,0,0,0,0,0,0,0,0,89.46,4.158,1,0,-0.2,0,0,0.12,90,0,0,0,0,0,0,0,0,-0.525,0,0,3,0,0,0,69,0,0,0,0,0,0,,0,NONE,0,0,0,0,0,0,0,0.4296,0,0,0,0,0,0,0,0,0,0,0,0,0,89.46,1,-0.525,0.725,-0.0326,1,0,-0.0326,0,0.4296,4.158,4.37,0.08,0,1,1,0,0,VALID,0,0,0,0,0,1,0,0,0,0,0,0,0,0,0,0,0,0,0,0,1357.42,1693.44,6,0,0.08,0.08,389,14.29,0.08,0.06,30.16,LANDED,C-1000F,0:/Integrated Flight Computer/aircraft/c_1000f_cfg.ks (inferred preloaded)
30.64,TAKEOFF,TO_ROTATE,114.15,80,-34.15,4.9,-8.7,-0.37,-0.18,0,90.19,0.16,1,0,0,0,0,0,0,0,0,0,0,0,0,0,0,89.48,4.458,1,0,-0.18,0,0,0.12,90,0,0,0,0,0,0,0,0,-0.526,0,0,3,0,0,0,69,0,0,0,0,0,0,,0,NONE,0,0,0,0,0,0,0,0.45,0,0,0,0,0,0,0,0,0,0,0,0,0,89.48,1,-0.526,0.704,-0.0317,1,0,-0.0317,0,0.45,4.458,4.64,0.08,0,1,1,0,0,VALID,0,0,0,0,0,1,0,0,0,0,0,0,0,0,0,0,0,0,0,0,1359.73,1688.86,6,0,0.08,0.08,393,13.33,0.08,0.06,30.46,LANDED,C-1000F,0:/Integrated Flight Computer/aircraft/c_1000f_cfg.ks (inferred preloaded)
30.92,TAKEOFF,TO_ROTATE,115.82,80,-35.82,4.93,-8.79,-0.34,-0.1,0.07,90.15,0.078,1,0,0,0,0,0,0,0,0,0,0,0,0,0,0,89.5,4.738,1,0,-0.17,0,0,0.12,90,0,0,0,0,0,0,0,0,-0.528,0,0,3,0,0,0,69,0,0,0,0,0,0,,0,NONE,0,0,0,0,0,0,0,0.45,0,0,0,0,0,0,0,0,0,0,0,0,0,89.5,1,-0.528,0.651,-0.0293,1,0,-0.0293,0,0.45,4.738,4.835,0.08,0,1,1,0,0,VALID,0,0,0,0,0,1,0,0,0,0,0,0,0,0,0,0,0,0,0,0,1361.78,1684.6,6,0,0.08,0.08,397,14.29,0.08,0.06,30.74,LANDED,C-1000F,0:/Integrated Flight Computer/aircraft/c_1000f_cfg.ks (inferred preloaded)
31.18,TAKEOFF,TO_ROTATE,117.36,80,-37.36,5,-8.88,-0.24,0.09,0.21,90.1,0.047,1,0,0,0,0,0,0,0,0,0,0,0,0,0,0,89.52,4.998,1,0,-0.12,0,0,0.13,90,0,0,0,0,0,0,0,0,-0.53,0,0,3,0,0,0,69,0,0,0,0,0,0,,0,NONE,0,0,0,0,0,0,0,0.45,0,0,0,0,0,0,0,0,0,0,0,0,0,89.52,1,-0.53,0.58,-0.0261,1,0,-0.0261,0,0.45,4.998,4.911,0.08,0,1,1,0,0,VALID,0,0,0,0,0,1,0,0,0,0,0,0,0,0,0,0,0,0,0,0,1363.61,1680.68,6,0,0.08,0.08,400,11.54,0.1,0.08,31,LANDED,C-1000F,0:/Integrated Flight Computer/aircraft/c_1000f_cfg.ks (inferred preloaded)
31.48,TAKEOFF,TO_ROTATE,119.13,80,-39.13,5.17,-8.99,-0.16,0.55,0.62,90.03,0.074,1,0,0,0,0,0,0,0,0,0,0,0,0,0,0,89.51,5.298,1,0,-0.08,0,0,0.13,90,0,0,0,0,0,0,0,0,-0.531,0,0,3,0,0,0,69,0,0,0,0,0,0,,0,NONE,0,0,0,0,0,0,0,0.45,0,0,0,0,0,0,0,0,0,0,0,0,0,89.51,1,-0.531,0.515,-0.0232,1,0,-0.0232,0,0.45,5.298,4.75,0.08,0,1,1,0,0,VALID,0,0,0,0,0,1,0,0,0,0,0,0,0,0,0,0,0,0,0,0,1365.63,1676.21,6,0,0.08,0.08,404,13.33,0.08,0.06,31.3,LANDED,C-1000F,0:/Integrated Flight Computer/aircraft/c_1000f_cfg.ks (inferred preloaded)
31.78,TAKEOFF,TO_ROTATE,120.88,80,-40.88,5.49,-9.1,0.07,1.45,1.42,90.05,0.178,1,0,0,0,0,0,0,0,0,0,0,0,0,0,0,89.43,5.598,1,0,0.03,0,0,0.13,90,0,0,0,0,0,0,0,0,-0.532,0,0,3,0,0,0,69,0,0,0,0,0,0,,0,NONE,0,0,0,0,0,0,0,0.4118,0,0,0,0,0,0,0,0,0,0,0,0,0,89.43,1,-0.532,0.627,-0.0282,1,0,-0.0282,0,0.4118,5.598,4.147,0.08,0,1,1,0,0,VALID,0,0,0,0,0,1,0,0,0,0,0,0,0,0,0,0,0,0,0,0,1367.58,1671.83,6,0,0.08,0.08,408,13.33,0.08,0.06,31.6,LANDED,C-1000F,0:/Integrated Flight Computer/aircraft/c_1000f_cfg.ks (inferred preloaded)
32.08,TAKEOFF,TO_ROTATE,122.57,80,-42.57,6.02,-9.19,0.32,2.94,2.81,90.07,0.17,1,0,0,0,0,0,0,0,0,0,0,0,0,0,0,89.48,5.898,1,0,0.14,0,0,0.14,90,0,0,0,0,0,0,0,0,-0.533,0,0,3,0,0,0,69,0,0,0,0,0,0,,0,NONE,0,0,0,0,0,0,0,0.3164,0,0,0,0,0,0,0,0,0,0,0,0,0,89.48,1,-0.533,0.598,-0.0269,1,0,-0.0269,0,0.3164,5.898,2.955,0.08,0,1,1,0,0,VALID,0,0,0,0,0,1,0,0,0,0,0,0,0,0,0,0,0,0,0,0,1369.53,1667.6,6,0,0.08,0.08,412,13.33,0.08,0.06,31.9,LANDED,C-1000F,0:/Integrated Flight Computer/aircraft/c_1000f_cfg.ks (inferred preloaded)
32.36,TAKEOFF,TO_ROTATE,124.03,80,-44.03,6.78,-9.17,1.23,4.98,4.35,90.03,0.105,1,0,0,0,0,0,0,0,0,0,0,0,0,0,0,90,6,0,1,0.57,0,0,6,90,-0.9658,0.0001,0.2591,6,90,0,0,0,0,0,0,3,0,0,0,69,0,0,0,0,0,0,,0,NONE,0,0,0,0,0,0,0,0,0,0,0,0,0,0,0,0,0,0,0,0,0,90,1,0,0.032,0,0,3,0,0,0,6,1.018,0,0,1,1,0,0,VALID,0,0,0,0,0,1,0,0,0,0,0,0,0,0,0,0,0,0,0,0,1371.47,1663.93,6,0,0.08,0.08,416,14.29,0.08,0.06,32.2,FLYING,C-1000F,0:/Integrated Flight Computer/aircraft/c_1000f_cfg.ks (inferred preloaded)
32.64,TAKEOFF,TO_ROTATE,125.33,80,-45.33,7.77,-8.66,3.07,6.04,4.72,90.06,0.064,1,0,0,0,0,0,0,0,0,0,0,0,0,0,0,90,6,0,1,1.4,0,0,6,90,-0.9659,0.0001,0.2591,6,90,0,0,0,0,0,0,3,0,0,0,69,0,0,0,0,0,0,,0,NONE,0,0,0,0,0,0,0,0,0,0,0,0,0,0,0,0,0,0,0,0,0,90,1,0,0.063,0,0,3,0,0,0,6,-0.039,0,0,1,1,0,0,VALID,0,0,0,0,0,1,0,0,0,0,0,0,0,0,0,0,0,0,0,0,1373.57,1660.6,6,0,0.06,0.06,420,14.29,0.1,0.04,32.48,FLYING,C-1000F,0:/Integrated Flight Computer/aircraft/c_1000f_cfg.ks (inferred preloaded)
32.92,TAKEOFF,TO_CLIMB,126.47,80,-46.47,8.94,-7.73,4.59,5.9,3.89,90.07,-0.026,0.976,0,0,0,0,0,0,0,0,0,0,0,0,0,0,90,6.1,0,1,2.08,0,0,6,90,-0.9654,0.0001,0.2607,6.1,90,0,0,0,0,0,0,3,0,0,0,69,0,0,0,0,0,0,,0,NONE,0,0,0,0,0,0,0,0,0,0,0,0,0,0,0,0,0,0,0,0,0,90,1,0,0.069,0,0,3,0,0,0,6,-0.004,0,0,1,1,0,0,VALID,0,0,0,0,0,1,0,0,0,0,0,0,0,0,0,0,0,0,0,0,1375.52,1657.57,6,0,0.06,0.06,424,15.38,0.08,0.04,32.74,FLYING,C-1000F,0:/Integrated Flight Computer/aircraft/c_1000f_cfg.ks (inferred preloaded)
33.2,TAKEOFF,TO_CLIMB,127.75,80,-47.75,10.5,-6.28,5.61,5.82,3.38,90.06,-0.074,0.864,0,0,0,0,0,0,0,0,0,0,0,0,0,0,90,6.548,0,1,2.52,0,0,6.45,90,-0.9634,0.0001,0.2682,6.55,90,0,0,0,0,0,0,3,0,0,0,69,0,0,0,0,0,0,,0,NONE,0,0,0,0,0,0,0,0,0,0,0,0,0,0,0,0,0,0,0,0,0,90,1,0,0.065,0,0,3,0,0,0,6,-0.004,0,0,1,1,0,0,VALID,0,0,0,0,0,1,0,0,0,0,0,0,0,0,0,0,0,0,0,0,1375.99,1654.13,6,0,0.06,0.06,428,14.29,0.08,0.06,33.02,FLYING,C-1000F,0:/Integrated Flight Computer/aircraft/c_1000f_cfg.ks (inferred preloaded)
33.46,TAKEOFF,TO_CLIMB,128.95,80,-48.95,12.28,-4.69,6.66,6.05,3.19,90.06,-0.118,0.78,0,0,0,0,0,0,0,0,0,0,0,0,0,0,90,6.964,0,1,2.96,0,0,6.9,90,-0.9614,0.0001,0.2751,6.96,90,0,0,0,0,0,0,3,0,0,0,69,0,0,0,0,0,0,,0,NONE,0,0,0,0,0,0,0,0,0,0,0,0,0,0,0,0,0,0,0,0,0,90,1,0,0.061,0,0,3,0,0,0,6,-0.004,0,0,1,1,0,0,VALID,0,0,0,0,0,1,0,0,0,0,0,0,0,0,0,0,0,0,0,0,1372.93,1650.85,6,0,0.04,0.04,432,15.38,0.08,0.04,33.28,FLYING,C-1000F,0:/Integrated Flight Computer/aircraft/c_1000f_cfg.ks (inferred preloaded)
33.74,TAKEOFF,TO_CLIMB,130.22,80,-50.22,14.52,-2.7,7.83,6.45,3.12,90.06,-0.159,0.78,0,0,0,0,0,0,0,0,0,0,0,0,0,0,90,7.412,0,1,3.44,0,0,7.32,90,-0.9592,0.0001,0.2826,7.41,90,0,0,0,0,0,0,3,0,0,0,69,0,0,0,0,0,0,,0,NONE,0,0,0,0,0,0,0,0,0,0,0,0,0,0,0,0,0,0,0,0,0,90,1,0,0.057,0,0,3,0,0,0,6,-0.004,0,0,1,1,0,0,VALID,0,0,0,0,0,1,0,0,0,0,0,0,0,0,0,0,0,0,0,0,1364.26,1647.34,6,0,0.06,0.06,436,14.29,0.1,0.04,33.56,FLYING,C-1000F,0:/Integrated Flight Computer/aircraft/c_1000f_cfg.ks (inferred preloaded)
34,TAKEOFF,TO_CLIMB,131.37,80,-51.37,16.9,-0.56,8.75,6.83,3.14,90.05,-0.188,0.78,0,0,0,0,0,0,0,0,0,0,0,0,0,0,90,7.828,0,1,3.81,0,0,7.73,90,-0.9572,0.0001,0.2895,7.83,90,0,0,0,0,0,0,3,0,0,0,69,0,0,0,0,0,0,,0,NONE,0,0,0,0,0,0,0,0,0,0,0,0,0,0,0,0,0,0,0,0,0,90,1,0,0.053,0,0,3,0,0,0,6,-0.004,0,0,1,1,0,0,VALID,0,0,0,0,0,1,0,0,0,0,0,0,0,0,0,0,0,0,0,0,1356.6,1644.11,6,0,0.06,0.06,440,15.38,0.08,0.04,33.82,FLYING,C-1000F,0:/Integrated Flight Computer/aircraft/c_1000f_cfg.ks (inferred preloaded)
34.26,TAKEOFF,TO_CLIMB,132.48,80,-52.48,19.59,1.85,10.04,7.41,3.2,90.05,-0.211,0.78,0,0,0,0,0,0,0,0,0,0,0,0,0,0,90,8,0,1,4.34,0,0,8,90,-0.9563,0.0001,0.2923,8,90,0,0,0,0,0,0,3,0,0,0,69,0,0,0,0,0,0,,0,NONE,0,0,0,0,0,0,0,0,0,0,0,1.85,0,0,0,0,0,0,0,0,0,90,1,0,0.048,0,0,3,0,0,0,6,-0.004,0,0,1,1,0,0,VALID,0,0,0,0,0,1,0,0,0,0,0,0,0,0,0,0,0,0,0,0,1349.3,1640.92,6,0,0.06,0.06,444,15.38,0.08,0.04,34.08,FLYING,C-1000F,0:/Integrated Flight Computer/aircraft/c_1000f_cfg.ks (inferred preloaded)
34.52,TAKEOFF,TO_CLIMB,133.55,80,-53.55,22.52,4.63,11.26,7.57,2.89,90.04,-0.227,0.78,0,0,0,0,0,0,0,0,0,0,0,0,0,0,90,8,0,1,4.82,0,0,8,90,-0.9564,0.0001,0.2922,8,90,0,0,0,0,0,0,3,0,0,0,69,0,0,0,0,0,0,,0,NONE,0,0,0,0,0,0,0,0,0,0,0,4.63,0,0,0,0,0,0,0,0,0,90,1,0,0.044,0,0,3,0,0,0,6,-0.004,0,0,1,1,0,0,VALID,0,0,0,0,0,1,0,0,0,0,0,0,0,0,0,0,0,0,0,0,1342.36,1637.78,6,0,0.06,0.06,448,15.38,0.08,0.04,34.34,FLYING,C-1000F,0:/Integrated Flight Computer/aircraft/c_1000f_cfg.ks (inferred preloaded)
34.78,TAKEOFF,TO_CLIMB,134.61,80,-54.61,25.73,7.72,12.34,7.65,2.56,90.04,-0.233,0.78,0,0,0,0,0,0,0,0,0,0,0,0,0,0,90,8,0,1,5.24,0,0,8,90,-0.9564,0.0001,0.2922,8,90,0,0,0,0,0,0,3,0,0,0,69,0,0,0,0,0,0,,0,NONE,0,0,0,0,0,0,0,0,0,0,0,7.72,0,0,0,0,0,0,0,0,0,90,1,0,0.041,0,0,3,0,0,0,6,-0.004,0,0,1,1,0,0,VALID,0,0,0,0,0,1,0,0,0,0,0,0,0,0,0,0,0,0,0,0,1335.69,1634.6,6,0,0.06,0.06,452,15.38,0.08,0.04,34.6,FLYING,C-1000F,0:/Integrated Flight Computer/aircraft/c_1000f_cfg.ks (inferred preloaded)
35.04,TAKEOFF,TO_CLIMB,135.67,80,-55.67,29.18,11.1,13.29,7.68,2.24,90.04,-0.233,0.78,0,0,0,0,0,0,0,0,0,0,0,0,0,0,90,8,0,1,5.6,0,0,8,90,-0.9564,0.0001,0.2921,8,90,0,0,0,0,0,0,3,0,0,0,69,0,0,0,0,0,0,,0,NONE,0,0,0,0,0,0,0,0,0,0,0,11.1,0,0,0,0,0,0,0,0,0,90,1,0,0.038,0,0,3,0,0,0,6,-0.004,0,0,1,1,0,0,VALID,0,0,0,0,0,1,0,0,0,0,0,0,0,0,0,0,0,0,0,0,1329.26,1631.4,6,0,0.06,0.06,456,15.38,0.08,0.04,34.86,FLYING,C-1000F,0:/Integrated Flight Computer/aircraft/c_1000f_cfg.ks (inferred preloaded)
35.3,TAKEOFF,TO_CLIMB,136.72,80,-56.72,32.86,14.71,14.11,7.71,1.98,90.03,-0.233,0.78,0,0,0,0,0,0,0,0,0,0,0,0,0,0,90,8,0,1,5.89,0,0,8,90,-0.9564,0.0001,0.292,8,90,0,0,0,0,0,0,3,0,0,0,69,0,0,0,0,0,0,,0,NONE,0,0,0,0,0,0,0,0,0,0,0,14.71,0,0,0,0,0,0,0,0,0,90,1,0,0.035,0,0,3,0,0,0,6,-0.004,0,0,1,1,0,0,VALID,0,0,0,0,0,1,0,0,0,0,0,0,0,0,0,0,0,0,0,0,1323.07,1628.17,6,0,0.06,0.06,460,15.38,0.08,0.04,35.12,FLYING,C-1000F,0:/Integrated Flight Computer/aircraft/c_1000f_cfg.ks (inferred preloaded)
35.56,TAKEOFF,TO_CLIMB,137.77,80,-57.77,36.75,18.55,14.88,7.76,1.76,90.03,-0.232,0.78,0,0,0,0,0,0,0,0,0,0,0,0,0,0,90,8,0,1,6.17,0,0,8,90,-0.9564,0.0001,0.292,8,90,0,0,0,0,0,0,3,0,0,0,69,0,0,0,0,0,0,,0,NONE,0,0,0,0,0,0,0,0,0,0,0,18.55,0,0,0,0,0,0,0,0,0,90,1,0,0.032,0,0,3,0,0,0,6,-0.004,0,0,1,1,0,0,VALID,0,0,0,0,0,1,0,0,0,0,0,0,0,0,0,0,0,0,0,0,1317.11,1624.93,6,0,0.06,0.06,464,15.38,0.08,0.04,35.38,FLYING,C-1000F,0:/Integrated Flight Computer/aircraft/c_1000f_cfg.ks (inferred preloaded)
35.82,TAKEOFF,TO_CLIMB,138.8,80,-58.8,40.81,22.6,15.57,7.78,1.55,90.03,-0.223,0.78,0,0,0,0,0,0,0,0,0,0,0,0,0,0,90,8,0,1,6.4,0,0,8,90,-0.9564,0.0001,0.2919,8,90,0,0,0,0,0,0,3,0,0,0,69,0,0,0,0,0,0,,0,NONE,0,0,0,0,0,0,0,0,0,0,0,22.6,0,0,0,0,0,0,0,0,0,90,1,0,0.029,0,0,3,0,0,0,6,-0.004,0,0,1,1,0,0,VALID,0,0,0,0,0,1,0,0,0,0,0,0,0,0,0,0,0,0,0,0,1311.37,1621.69,6,0,0.06,0.06,468,15.38,0.08,0.04,35.64,FLYING,C-1000F,0:/Integrated Flight Computer/aircraft/c_1000f_cfg.ks (inferred preloaded)
