t_s,phase,subphase,ias_ms,vapp_ms,spd_err_ms,agl_m,vs_ms,pitch_deg,aoa_deg,hdg_deg,bank_deg,thr_cmd,thr_cur,thr_intg,at_gain,at_tau_s,at_a_up,at_a_dn,at_kp_thr,at_ki_spd,at_thr_slew,aa_hdg_cmd_deg,aa_fpa_cmd_deg,ils_loc_m,ils_gs_m,ils_dist_km,loc_corr_deg,gs_corr_deg,flare_fpa_cmd,flare_tgt_vs,flare_frac,steer_hdg_deg,steer_blend,ro_loc_corr_deg,ro_hdg_err_deg,ro_yaw_tgt,ro_yaw_scale,ro_yaw_gate,yaw_cmd,roll_cmd,pitch_cmd,ro_pitch_tgt_deg,ro_pitch_err_deg,ro_pitch_ff,ro_roll_assist,flaps_cur,flaps_tgt,phase_el_s,status
1,APPROACH,FLY_TO_FIX,36.48,75.4,38.92,6063.04,18.21,27.39,5.41,36.34,49.564,0.2,0,19.366,1,0.6,0.9,0.75,0.35,0.0168,0.4,268.61,-6,0,0,0,0,0,0,0,0,37.37,0,0,0,0,0,0,0,0,0,0,0,0,0,0,0,1.04,FLYING
1.72,APPROACH,FLY_TO_FIX,35.02,75.8,40.78,6072.91,11.89,21.27,5.08,36.26,52.495,0.4,0,20,1,0.6,0.9,0.75,0.35,0.0168,0.4,268.55,-6,0,0,0,0,0,0,0,0,37.37,0,0,0,0,0,0,0,0,0,0,0,0,0,0,0,1.78,FLYING
2.42,APPROACH,FLY_TO_FIX,34.13,76.2,42.07,6077.85,5.7,13.98,4.12,36.6,54.076,0.6,0,20,1,0.6,0.9,0.75,0.35,0.0168,0.4,268.49,-6,0,0,0,0,0,0,0,0,37.37,0,0,0,0,0,0,0,0,0,0,0,0,0,0,0,2.48,FLYING
3.14,APPROACH,FLY_TO_FIX,33.8,76.6,42.8,6078.15,-0.69,5.07,2.46,37.01,54.734,0.8,0,20,1,0.6,0.9,0.75,0.35,0.0168,0.4,268.43,-6,0,0,0,0,0,0,0,0,37.37,0,0,0,0,0,0,0,0,0,0,0,0,0,0,0,3.2,FLYING
3.84,APPROACH,FLY_TO_FIX,34.08,77,42.92,6073.79,-7.03,-4.59,0.6,37.19,53.077,0.9153,0,20,1,0.6,1.013,0.75,0.35,0.0168,0.4,268.37,-6,0,0,0,0,0,0,0,0,37.37,0,0,0,0,0,0,0,0,0,0,0,0,0,0,0,3.9,FLYING
4.56,APPROACH,FLY_TO_FIX,35.02,77.4,42.38,6064.63,-13.78,-14.4,-0.7,36.63,48.947,0.8016,0,20,1,0.6,1.17,0.75,0.35,0.0168,0.4,268.31,-6,0,0,0,0,0,0,0,0,37.37,0,0,0,0,0,0,0,0,0,0,0,0,0,0,0,4.62,FLYING
5.26,APPROACH,FLY_TO_FIX,36.51,77.8,41.29,6051.37,-20.54,-21.82,0.18,34.47,43.835,0.6381,0,20,1,0.6,1.313,0.75,0.35,0.0168,0.4,268.25,-6,0,0,0,0,0,0,0,0,37.37,0,0,0,0,0,0,0,0,0,0,0,0,0,0,0,5.32,FLYING
5.96,APPROACH,FLY_TO_FIX,38.5,78.2,39.7,6034.02,-27.14,-25.39,4.52,29.45,38.455,0.4429,0,20,1,0.6,1.445,0.75,0.35,0.0168,0.4,268.19,-6,0,0,0,0,0,0,0,0,37.37,0,0,0,0,0,0,0,0,0,0,0,0,0,0,0,6.02,FLYING
6.68,APPROACH,FLY_TO_FIX,40.91,78.6,37.69,6011.89,-33.24,-27.27,8.54,24.54,33.316,0.2429,0,20,1,0.6,1.566,0.75,0.35,0.0168,0.4,268.12,-6,0,0,0,0,0,0,0,0,37.37,0,0,0,0,0,0,0,0,0,0,0,0,0,0,0,6.74,FLYING
7.4,APPROACH,FLY_TO_FIX,43.57,79,35.43,5985.54,-39.01,-28.97,10.55,21.71,28.982,0.0429,0,20,1,0.6,1.676,0.75,0.35,0.0168,0.4,268.06,-6,0,0,0,0,0,0,0,0,37.37,0,0,0,0,0,0,0,0,0,0,0,0,0,0,0,7.46,FLYING
8.12,APPROACH,FLY_TO_FIX,46.38,79.4,33.02,5954.47,-44.37,-29.84,11.82,20.29,25.387,0,0,20,1,0.6,1.777,0.75,0.35,0.0168,0.4,267.99,-6,0,0,0,0,0,0,0,0,37.37,0,0,0,0,0,0,0,0,0,0,0,0,0,0,0,8.18,FLYING
8.84,APPROACH,FLY_TO_FIX,49.28,79.8,30.52,5920.58,-49.16,-30.81,12,20.28,22.953,0,0,20,1,0.6,1.869,0.75,0.35,0.0168,0.4,267.92,-6,0,0,0,0,0,0,0,0,37.37,0,0,0,0,0,0,0,0,0,0,0,0,0,0,0,8.9,FLYING
9.56,APPROACH,FLY_TO_FIX,52.23,80.2,27.97,5883.36,-53.6,-32.04,12,19.36,23.182,0,0,20,1,0.6,1.953,0.75,0.35,0.0168,0.4,267.85,-6,0,0,0,0,0,0,0,0,37.37,0,0,0,0,0,0,0,0,0,0,0,0,0,0,0,9.62,FLYING
10.28,APPROACH,FLY_TO_FIX,55.21,80.6,25.39,5843.01,-57.79,-33.54,12,16.83,24.941,0,0,20,1,0.6,2.029,0.75,0.35,0.0168,0.4,267.77,-6,0,0,0,0,0,0,0,0,37.37,0,0,0,0,0,0,0,0,0,0,0,0,0,0,0,10.34,FLYING
11,APPROACH,FLY_TO_FIX,58.24,81,22.76,5799.57,-61.9,-35.98,10.87,14.36,26.345,0,0,20,1,0.6,2.1,0.75,0.35,0.0168,0.4,267.69,-6,0,0,0,0,0,0,0,0,37.37,0,0,0,0,0,0,0,0,0,0,0,0,0,0,0,11.06,FLYING
11.72,APPROACH,FLY_TO_FIX,61.34,81,19.66,5753.3,-66.03,-37.09,10.65,12.11,24.438,0,0,20,1,0.6,2.164,0.75,0.35,0.0168,0.4,267.6,-6,0,0,0,0,0,0,0,0,37.37,0,0,0,0,0,0,0,0,0,0,0,0,0,0,0,11.78,FLYING
12.44,APPROACH,FLY_TO_FIX,64.48,81,16.52,5704.25,-69.78,-37.77,10.04,11.18,20.868,0,0,20,1,0.6,2.223,0.75,0.35,0.0168,0.4,267.51,-6,0,0,0,0,0,0,0,0,37.37,0,0,0,0,0,0,0,0,0,0,0,0,0,0,0,12.5,FLYING
13.18,APPROACH,FLY_TO_FIX,67.75,81,13.25,5651.13,-73.34,-38.68,9.23,9.91,20.308,0,0,20,1,0.6,2.276,0.75,0.35,0.0168,0.4,267.42,-6,0,0,0,0,0,0,0,0,37.37,0,0,0,0,0,0,0,0,0,0,0,0,0,0,0,13.24,FLYING
13.92,APPROACH,FLY_TO_FIX,71.05,81,9.95,5596.94,-76.86,-39.74,8.7,7.22,23.094,0,0,20,1,0.6,2.326,0.75,0.35,0.0168,0.4,267.32,-6,0,0,0,0,0,0,0,0,37.37,0,0,0,0,0,0,0,0,0,0,0,0,0,0,0,13.98,FLYING
14.66,APPROACH,FLY_TO_FIX,74.38,81,6.62,5538.69,-80.37,-40.69,8.59,3.4,27.206,0,0,20,1,0.6,2.371,0.75,0.35,0.0168,0.4,267.21,-6,0,0,0,0,0,0,0,0,37.37,0,0,0,0,0,0,0,0,0,0,0,0,0,0,0,14.72,FLYING
15.4,APPROACH,FLY_TO_FIX,77.71,81,3.29,5477.86,-83.9,-41.46,8.8,358.91,30.427,0,0,20,1,0.6,2.413,0.75,0.35,0.0168,0.4,267.1,-6,0,0,0,0,0,0,0,0,37.37,0,0,0,0,0,0,0,0,0,0,0,0,0,0,0,15.46,FLYING
16.12,APPROACH,FLY_TO_FIX,80.92,81,0.08,5416.22,-87.25,-42.01,9.11,354.16,32.503,0,0,20,1,0.6,2.451,0.75,0.35,0.0168,0.4,266.99,-6,0,0,0,0,0,0,0,0,37.37,0,0,0,0,0,0,0,0,0,0,0,0,0,0,0,16.18,FLYING
16.84,APPROACH,FLY_TO_FIX,84.09,81,-3.09,5352.23,-90.36,-42.33,9.48,349.09,33.751,0,0,19.9,1,0.6,2.487,0.75,0.35,0.0168,0.4,266.87,-6,0,0,0,0,0,0,0,0,37.37,0,0,0,0,0,0,0,0,0,0,0,0,0,0,0,16.9,FLYING
17.56,APPROACH,FLY_TO_FIX,87.19,81,-6.19,5286.06,-93.32,-42.33,9.78,344.05,33.756,0,0,19.8,1,0.6,2.52,0.75,0.35,0.0168,0.4,266.75,-6,0,0,0,0,0,0,0,0,37.37,0,0,0,0,0,0,0,0,0,0,0,0,0,0,0,17.62,FLYING
18.28,APPROACH,FLY_TO_FIX,90.21,81,-9.21,5217.94,-95.86,-42.07,10.02,338.91,33.891,0,0,19.701,1,0.6,2.551,0.75,0.35,0.0168,0.4,266.63,-6,0,0,0,0,0,0,0,0,37.37,0,0,0,0,0,0,0,0,0,0,0,0,0,0,0,18.34,FLYING
19,APPROACH,FLY_TO_FIX,93.16,81,-12.16,5148.19,-97.94,-41.44,10.18,333.98,33.317,0,0,19.603,1,0.6,2.58,0.75,0.35,0.0168,0.4,266.5,-6,0,0,0,0,0,0,0,0,37.37,0,0,0,0,0,0,0,0,0,0,0,0,0,0,0,19.06,FLYING
19.72,APPROACH,FLY_TO_FIX,96.01,81,-15.01,5077.19,-99.43,-40.55,10.33,328.99,32.93,0,0,19.505,1,0.6,2.608,0.75,0.35,0.0168,0.4,266.37,-6,0,0,0,0,0,0,0,0,37.37,0,0,0,0,0,0,0,0,0,0,0,0,0,0,0,19.78,FLYING
20.44,APPROACH,FLY_TO_FIX,98.74,81,-17.74,5005.38,-100.3,-39.41,10.49,323.99,32.622,0,0,19.407,1,0.6,2.634,0.75,0.35,0.0168,0.4,266.24,-6,0,0,0,0,0,0,0,0,37.37,0,0,0,0,0,0,0,0,0,0,0,0,0,0,0,20.5,FLYING
21.16,APPROACH,FLY_TO_FIX,101.32,81,-20.32,4933.21,-100.5,-38.04,10.62,319.06,32.343,0,0,19.31,1,0.6,2.659,0.75,0.35,0.0168,0.4,266.11,-6,0,0,0,0,0,0,0,0,37.37,0,0,0,0,0,0,0,0,0,0,0,0,0,0,0,21.22,FLYING
21.88,APPROACH,FLY_TO_FIX,103.74,81,-22.74,4861.19,-100,-36.42,10.76,314.23,32.072,0,0,19.214,1,0.6,2.684,0.75,0.35,0.0168,0.4,265.98,-6,0,0,0,0,0,0,0,0,37.37,0,0,0,0,0,0,0,0,0,0,0,0,0,0,0,21.94,FLYING
22.6,APPROACH,FLY_TO_FIX,105.98,81,-24.98,4789.85,-98.73,-34.59,10.85,309.55,31.801,0,0,19.118,1,0.6,2.707,0.75,0.35,0.0168,0.4,265.85,-6,0,0,0,0,0,0,0,0,37.37,0,0,0,0,0,0,0,0,0,0,0,0,0,0,0,22.66,FLYING
23.32,APPROACH,FLY_TO_FIX,108.01,81,-27.01,4719.75,-96.68,-32.61,10.86,305.08,31.557,0,0,19.022,1,0.6,2.73,0.75,0.35,0.0168,0.4,265.72,-6,0,0,0,0,0,0,0,0,37.37,0,0,0,0,0,0,0,0,0,0,0,0,0,0,0,23.38,FLYING
24.04,APPROACH,FLY_TO_FIX,109.82,81,-28.82,4651.48,-93.79,-30.23,11.11,300.57,31.308,0,0,18.927,1,0.6,2.753,0.75,0.35,0.0168,0.4,265.6,-6,0,0,0,0,0,0,0,0,37.37,0,0,0,0,0,0,0,0,0,0,0,0,0,0,0,24.1,FLYING
24.76,APPROACH,FLY_TO_FIX,111.37,81,-30.37,4585.6,-90.11,-27.82,11.16,296.38,31.013,0,0,18.832,1,0.6,2.775,0.75,0.35,0.0168,0.4,265.48,-6,0,0,0,0,0,0,0,0,37.37,0,0,0,0,0,0,0,0,0,0,0,0,0,0,0,24.82,FLYING
25.48,APPROACH,FLY_TO_FIX,112.67,81,-31.67,4522.69,-85.69,-25.27,11.2,292.38,30.701,0,0,18.738,1,0.6,2.797,0.75,0.35,0.0168,0.4,265.37,-6,0,0,0,0,0,0,0,0,37.37,0,0,0,0,0,0,0,0,0,0,0,0,0,0,0,25.54,FLYING
26.2,APPROACH,FLY_TO_FIX,113.71,81,-32.71,4463.24,-80.57,-22.61,11.23,288.56,30.376,0,0,18.645,1,0.6,2.818,0.75,0.35,0.0168,0.4,265.26,-6,0,0,0,0,0,0,0,0,37.37,0,0,0,0,0,0,0,0,0,0,0,0,0,0,0,26.26,FLYING
26.92,APPROACH,FLY_TO_FIX,114.47,81,-33.47,4407.73,-74.84,-19.85,11.27,284.89,30.037,0,0,18.551,1,0.6,2.839,0.75,0.35,0.0168,0.4,265.17,-6,0,0,0,0,0,0,0,0,37.37,0,0,0,0,0,0,0,0,0,0,0,0,0,0,0,26.98,FLYING
27.64,APPROACH,FLY_TO_FIX,114.98,81,-33.98,4356.49,-68.68,-17.51,10.75,281.77,29.512,0,0,18.459,1,0.6,2.86,0.75,0.35,0.0168,0.4,265.08,-6,0,0,0,0,0,0,0,0,37.37,0,0,0,0,0,0,0,0,0,0,0,0,0,0,0,27.7,FLYING
28.36,APPROACH,FLY_TO_FIX,115.46,81,-34.46,4309.48,-62.91,-15.81,9.72,279.36,28.449,0,0,18.366,1,0.6,2.881,0.75,0.35,0.0168,0.4,265,-6,0,0,0,0,0,0,0,0,37.37,0,0,0,0,0,0,0,0,0,0,0,0,0,0,0,28.42,FLYING
29.08,APPROACH,FLY_TO_FIX,115.96,81,-34.96,4266.41,-57.63,-14.23,8.85,277.23,27.084,0,0,18.274,1,0.6,2.901,0.75,0.35,0.0168,0.4,264.93,-6,0,0,0,0,0,0,0,0,37.37,0,0,0,0,0,0,0,0,0,0,0,0,0,0,0,29.14,FLYING
29.8,APPROACH,FLY_TO_FIX,116.45,81,-35.45,4226.97,-52.77,-12.83,8.05,275.39,25.536,0,0,18.183,1,0.6,2.92,0.75,0.35,0.0168,0.4,264.87,-6,0,0,0,0,0,0,0,0,37.37,0,0,0,0,0,0,0,0,0,0,0,0,0,0,0,29.86,FLYING
30.52,APPROACH,FLY_TO_FIX,116.92,81,-35.92,4190.83,-48.35,-11.6,7.33,273.8,23.853,0,0,18.092,1,0.6,2.939,0.75,0.35,0.0168,0.4,264.82,-6,0,0,0,0,0,0,0,0,37.37,0,0,0,0,0,0,0,0,0,0,0,0,0,0,0,30.58,FLYING
31.24,APPROACH,FLY_TO_FIX,117.38,81,-36.38,4157.68,-44.38,-10.53,6.67,272.43,22.086,0,0,18.002,1,0.6,2.957,0.75,0.35,0.0168,0.4,264.77,-6,0,0,0,0,0,0,0,0,37.37,0,0,0,0,0,0,0,0,0,0,0,0,0,0,0,31.3,FLYING
31.96,APPROACH,FLY_TO_FIX,117.8,81,-36.8,4127.22,-40.82,-9.58,6.09,271.24,20.271,0,0,17.912,1,0.6,2.975,0.75,0.35,0.0168,0.4,264.73,-6,0,0,0,0,0,0,0,0,37.37,0,0,0,0,0,0,0,0,0,0,0,0,0,0,0,32.02,FLYING
32.68,APPROACH,FLY_TO_FIX,118.19,81,-37.19,4099.16,-37.65,-8.77,5.57,270.21,18.436,0,0,17.822,1,0.6,2.992,0.75,0.35,0.0168,0.4,264.7,-6,0,0,0,0,0,0,0,0,37.37,0,0,0,0,0,0,0,0,0,0,0,0,0,0,0,32.74,FLYING
33.4,APPROACH,FLY_TO_FIX,118.56,81,-37.56,4073.22,-34.86,-8.12,5.06,269.36,16.562,0,0,17.733,1,0.6,3.008,0.75,0.35,0.0168,0.4,264.67,-6,0,0,0,0,0,0,0,0,37.37,0,0,0,0,0,0,0,0,0,0,0,0,0,0,0,33.46,FLYING
34.12,APPROACH,FLY_TO_FIX,118.9,81,-37.9,4049.1,-32.5,-7.56,4.65,268.64,14.638,0,0,17.644,1,0.6,3.024,0.75,0.35,0.0168,0.4,264.65,-6,0,0,0,0,0,0,0,0,37.37,0,0,0,0,0,0,0,0,0,0,0,0,0,0,0,34.18,FLYING
34.84,APPROACH,FLY_TO_FIX,119.2,81,-38.2,4026.58,-30.39,-7.02,4.35,268.01,12.913,0,0,17.556,1,0.6,3.039,0.75,0.35,0.0168,0.4,264.63,-6,0,0,0,0,0,0,0,0,37.37,0,0,0,0,0,0,0,0,0,0,0,0,0,0,0,34.9,FLYING
35.56,APPROACH,FLY_TO_FIX,119.47,81,-38.47,4005.47,-28.54,-6.56,4.08,267.46,11.332,0,0,17.468,1,0.6,3.053,0.75,0.35,0.0168,0.4,264.61,-6,0,0,0,0,0,0,0,0,37.37,0,0,0,0,0,0,0,0,0,0,0,0,0,0,0,35.62,FLYING
36.28,APPROACH,FLY_TO_FIX,119.71,81,-38.71,3985.6,-26.92,-6.16,3.84,267,9.883,0,0,17.381,1,0.6,3.067,0.75,0.35,0.0168,0.4,264.6,-6,0,0,0,0,0,0,0,0,37.37,0,0,0,0,0,0,0,0,0,0,0,0,0,0,0,36.34,FLYING
37,APPROACH,FLY_TO_FIX,119.91,81,-38.91,3966.82,-25.5,-5.81,3.64,266.61,8.564,0,0,17.294,1,0.6,3.08,0.75,0.35,0.0168,0.4,264.58,-6,0,0,0,0,0,0,0,0,37.37,0,0,0,0,0,0,0,0,0,0,0,0,0,0,0,37.06,FLYING
37.72,APPROACH,FLY_TO_FIX,120.09,81,-39.09,3948.98,-24.25,-5.51,3.47,266.27,7.378,0,0,17.208,1,0.6,3.093,0.75,0.35,0.0168,0.4,264.57,-6,0,0,0,0,0,0,0,0,37.37,0,0,0,0,0,0,0,0,0,0,0,0,0,0,0,37.78,FLYING
38.44,APPROACH,FLY_TO_FIX,120.24,81,-39.24,3931.97,-23.17,-5.24,3.32,265.99,6.321,0,0,17.122,1,0.6,3.105,0.75,0.35,0.0168,0.4,264.56,-6,0,0,0,0,0,0,0,0,37.37,0,0,0,0,0,0,0,0,0,0,0,0,0,0,0,38.5,FLYING
39.16,APPROACH,FLY_TO_FIX,120.36,81,-39.36,3915.68,-22.23,-5.01,3.2,265.75,5.389,0,0,17.036,1,0.6,3.117,0.75,0.35,0.0168,0.4,264.56,-6,0,0,0,0,0,0,0,0,37.37,0,0,0,0,0,0,0,0,0,0,0,0,0,0,0,39.22,FLYING
39.88,APPROACH,FLY_TO_FIX,120.47,81,-39.47,3900.02,-21.41,-4.81,3.09,265.55,4.575,0,0,16.951,1,0.6,3.128,0.75,0.35,0.0168,0.4,264.55,-6,0,0,0,0,0,0,0,0,37.37,0,0,0,0,0,0,0,0,0,0,0,0,0,0,0,39.94,FLYING
40.6,APPROACH,FLY_TO_FIX,120.55,81,-39.55,3884.9,-20.7,-4.64,3,265.38,3.871,0,0,16.866,1,0.6,3.138,0.75,0.35,0.0168,0.4,264.55,-6,0,0,0,0,0,0,0,0,37.37,0,0,0,0,0,0,0,0,0,0,0,0,0,0,0,40.66,FLYING
41.32,APPROACH,FLY_TO_FIX,120.62,81,-39.62,3870.26,-20.08,-4.48,2.92,265.24,3.264,0,0,16.782,1,0.6,3.149,0.75,0.35,0.0168,0.4,264.54,-6,0,0,0,0,0,0,0,0,37.37,0,0,0,0,0,0,0,0,0,0,0,0,0,0,0,41.38,FLYING
42.04,APPROACH,FLY_TO_FIX,120.68,81,-39.68,3856.03,-19.54,-4.35,2.86,265.12,2.747,0,0,16.698,1,0.6,3.159,0.75,0.35,0.0168,0.4,264.54,-6,0,0,0,0,0,0,0,0,37.37,0,0,0,0,0,0,0,0,0,0,0,0,0,0,0,42.1,FLYING
42.76,APPROACH,FLY_TO_FIX,120.72,81,-39.72,3842.16,-19.07,-4.23,2.81,265.02,2.308,0,0,16.614,1,0.6,3.168,0.75,0.35,0.0168,0.4,264.53,-6,0,0,0,0,0,0,0,0,37.37,0,0,0,0,0,0,0,0,0,0,0,0,0,0,0,42.82,FLYING
43.48,APPROACH,FLY_TO_FIX,120.75,81,-39.75,3828.6,-18.66,-4.13,2.76,264.94,1.937,0,0,16.531,1,0.6,3.177,0.75,0.35,0.0168,0.4,264.53,-6,0,0,0,0,0,0,0,0,37.37,0,0,0,0,0,0,0,0,0,0,0,0,0,0,0,43.54,FLYING
44.2,APPROACH,FLY_TO_FIX,120.77,81,-39.77,3815.32,-18.3,-4.04,2.72,264.87,1.623,0,0,16.449,1,0.6,3.186,0.75,0.35,0.0168,0.4,264.53,-6,0,0,0,0,0,0,0,0,37.37,0,0,0,0,0,0,0,0,0,0,0,0,0,0,0,44.26,FLYING
44.92,APPROACH,FLY_TO_FIX,120.78,81,-39.78,3802.27,-17.99,-3.96,2.69,264.81,1.359,0,0,16.366,1,0.6,3.195,0.75,0.35,0.0168,0.4,264.53,-6,0,0,0,0,0,0,0,0,37.37,0,0,0,0,0,0,0,0,0,0,0,0,0,0,0,44.98,FLYING
45.64,APPROACH,FLY_TO_FIX,120.78,81,-39.78,3789.43,-17.72,-3.89,2.66,264.77,1.138,0,0,16.285,1,0.6,3.203,0.75,0.35,0.0168,0.4,264.53,-6,0,0,0,0,0,0,0,0,37.37,0,0,0,0,0,0,0,0,0,0,0,0,0,0,0,45.7,FLYING
46.36,APPROACH,FLY_TO_FIX,120.78,81,-39.78,3776.78,-17.48,-3.84,2.63,264.73,0.946,0,0,16.203,1,0.6,3.211,0.75,0.35,0.0168,0.4,264.53,-6,0,0,0,0,0,0,0,0,37.37,0,0,0,0,0,0,0,0,0,0,0,0,0,0,0,46.42,FLYING
47.08,APPROACH,FLY_TO_FIX,120.77,81,-39.77,3764.27,-17.29,-3.81,2.6,264.7,0.752,0,0,16.122,1,0.6,3.219,0.75,0.35,0.0168,0.4,264.52,-6,0,0,0,0,0,0,0,0,37.37,0,0,0,0,0,0,0,0,0,0,0,0,0,0,0,47.14,FLYING
47.8,APPROACH,FLY_TO_FIX,120.76,81,-39.76,3751.88,-17.13,-3.78,2.58,264.68,0.583,0,0,16.042,1,0.6,3.227,0.75,0.35,0.0168,0.4,264.52,-6,0,0,0,0,0,0,0,0,37.37,0,0,0,0,0,0,0,0,0,0,0,0,0,0,0,47.86,FLYING
48.52,APPROACH,FLY_TO_FIX,120.74,81,-39.74,3739.6,-17.01,-3.75,2.56,264.66,0.451,0,0,15.961,1,0.6,3.234,0.75,0.35,0.0168,0.4,264.52,-6,0,0,0,0,0,0,0,0,37.37,0,0,0,0,0,0,0,0,0,0,0,0,0,0,0,48.58,FLYING
49.24,APPROACH,FLY_TO_FIX,120.72,81,-39.72,3727.4,-16.89,-3.72,2.56,264.64,0.351,0,0,15.882,1,0.6,3.242,0.75,0.35,0.0168,0.4,264.52,-6,0,0,0,0,0,0,0,0,37.37,0,0,0,0,0,0,0,0,0,0,0,0,0,0,0,49.3,FLYING
49.96,APPROACH,FLY_TO_FIX,120.7,81,-39.7,3715.28,-16.8,-3.69,2.55,264.63,0.277,0,0,-3.972,1,0.6,3.249,0.75,0.35,0.0168,0.4,264.52,-6,0,0,0,0,0,0,0,0,37.37,0,0,0,0,0,0,0,0,0,0,0,0,0,0,0,50.02,FLYING
50.68,APPROACH,FLY_TO_FIX,120.68,81,-39.68,3703.22,-16.71,-3.67,2.54,264.62,0.223,0,0,-3.952,1,0.6,3.256,0.75,0.35,0.0168,0.4,264.52,-6,0,0,0,0,0,0,0,0,37.37,0,0,0,0,0,0,0,0,0,0,0,0,0,0,0,50.74,FLYING
51.4,APPROACH,FLY_TO_FIX,120.66,81,-39.66,3691.22,-16.63,-3.65,2.54,264.62,0.184,0,0,-3.932,1,0.6,3.262,0.75,0.35,0.0168,0.4,264.52,-6,0,0,0,0,0,0,0,0,37.37,0,0,0,0,0,0,0,0,0,0,0,0,0,0,0,51.46,FLYING
52.12,APPROACH,FLY_TO_FIX,120.63,81,-39.63,3679.27,-16.56,-3.63,2.54,264.61,0.154,0,0,-3.912,1,0.6,3.269,0.75,0.35,0.0168,0.4,264.52,-6,0,0,0,0,0,0,0,0,37.37,0,0,0,0,0,0,0,0,0,0,0,0,0,0,0,52.18,FLYING
53.33,APPROACH,FLY_TO_FIX,120.62,81,-39.62,3659.36,-16.5,-3.59,2.57,264.6,0.14,0,0,-3.893,1,0.6,3.276,0.75,0.35,0.0168,0.4,264.52,-6,0,0,0,0,0,0,0,0,37.37,0,0,0,0,0,0,0,0,0,0,0,0,0,0,0,53.54,FLYING
56.08,APPROACH,FLY_TO_FIX,120.53,81,-39.53,3614.09,-16.32,-3.48,2.63,264.59,0.096,0,0,-3.873,1,0.6,3.283,0.75,0.35,0.0168,0.4,264.52,-6,0,0,0,0,0,0,0,0,37.37,0,0,0,0,0,0,0,0,0,0,0,0,0,0,0,56.32,FLYING
58.88,APPROACH,FLY_TO_FIX,120.39,81,-39.39,3568.67,-16.13,-3.42,2.64,264.58,0.067,0,0,-3.854,1,0.6,3.292,0.75,0.35,0.0168,0.4,264.52,-6,0,0,0,0,0,0,0,0,37.37,0,0,0,0,0,0,0,0,0,0,0,0,0,0,0,59.12,FLYING
61.68,APPROACH,FLY_TO_FIX,120.22,81,-39.22,3523.76,-15.96,-3.37,2.65,264.57,0.051,0,0,-3.835,1,0.6,3.301,0.75,0.35,0.0168,0.4,264.52,-6,0,0,0,0,0,0,0,0,37.37,0,0,0,0,0,0,0,0,0,0,0,0,0,0,0,61.92,FLYING
64.48,APPROACH,FLY_TO_FIX,120.03,81,-39.03,3479.29,-15.81,-3.32,2.67,264.57,0.034,0,0,-3.816,1,0.6,3.312,0.75,0.35,0.0168,0.4,264.51,-6,0,0,0,0,0,0,0,0,37.37,0,0,0,0,0,0,0,0,0,0,0,0,0,0,0,64.72,FLYING
67.28,APPROACH,FLY_TO_FIX,119.83,81,-38.83,3435.24,-15.67,-3.27,2.69,264.57,0.029,0,0,-3.796,1,0.6,3.323,0.75,0.35,0.0168,0.4,264.51,-6,0,0,0,0,0,0,0,0,37.37,0,0,0,0,0,0,0,0,0,0,0,0,0,0,0,67.52,FLYING
70.08,APPROACH,FLY_TO_FIX,119.61,81,-38.61,3391.56,-15.53,-3.23,2.71,264.57,0.025,0,0,-3.778,1,0.6,3.335,0.75,0.35,0.0168,0.4,264.51,-6,0,0,0,0,0,0,0,0,37.37,0,0,0,0,0,0,0,0,0,0,0,0,0,0,0,70.32,FLYING
72.88,APPROACH,FLY_TO_FIX,119.37,81,-38.37,3348.26,-15.41,-3.18,2.73,264.57,0.026,0,0,-3.759,1,0.6,3.347,0.75,0.35,0.0168,0.4,264.51,-6,0,0,0,0,0,0,0,0,37.37,0,0,0,0,0,0,0,0,0,0,0,0,0,0,0,73.12,FLYING
75.68,APPROACH,FLY_TO_FIX,119.12,81,-38.12,3305.28,-15.29,-3.14,2.76,264.56,0.03,0,0,-3.74,1,0.6,3.36,0.75,0.35,0.0168,0.4,264.51,-6,0,0,0,0,0,0,0,0,37.37,0,0,0,0,0,0,0,0,0,0,0,0,0,0,0,75.92,FLYING
78.48,APPROACH,FLY_TO_FIX,118.86,81,-37.86,3262.62,-15.18,-3.1,2.78,264.56,0.031,0,0,-3.721,1,0.6,3.374,0.75,0.35,0.0168,0.4,264.51,-6,0,0,0,0,0,0,0,0,37.37,0,0,0,0,0,0,0,0,0,0,0,0,0,0,0,78.72,FLYING
81.28,APPROACH,FLY_TO_FIX,118.59,81,-37.59,3220.25,-15.09,-3.06,2.81,264.56,0.036,0,0,-3.703,1,0.6,3.388,0.75,0.35,0.0168,0.4,264.51,-6,0,0,0,0,0,0,0,0,37.37,0,0,0,0,0,0,0,0,0,0,0,0,0,0,0,81.52,FLYING
84.08,APPROACH,FLY_TO_FIX,118.3,81,-37.3,3178.15,-14.99,-3.03,2.84,264.56,0.038,0,0,-3.684,1,0.6,3.402,0.75,0.35,0.0168,0.4,264.51,-6,0,0,0,0,0,0,0,0,37.37,0,0,0,0,0,0,0,0,0,0,0,0,0,0,0,84.32,FLYING
86.88,APPROACH,FLY_TO_FIX,118.01,81,-37.01,3136.29,-14.9,-2.99,2.87,264.55,0.037,0,0,-3.666,1,0.6,3.418,0.75,0.35,0.0168,0.4,264.5,-6,0,0,0,0,0,0,0,0,37.37,0,0,0,0,0,0,0,0,0,0,0,0,0,0,0,87.12,FLYING
89.68,APPROACH,FLY_TO_FIX,117.71,81,-36.71,3094.68,-14.82,-2.96,2.9,264.55,0.038,0,0,-3.647,1,0.6,3.433,0.75,0.35,0.0168,0.4,264.5,-6,0,0,0,0,0,0,0,0,37.37,0,0,0,0,0,0,0,0,0,0,0,0,0,0,0,89.92,FLYING
92.48,APPROACH,FLY_TO_FIX,117.41,81,-36.41,3053.3,-14.74,-2.92,2.93,264.55,0.038,0,0,-3.629,1,0.6,3.449,0.75,0.35,0.0168,0.4,264.5,-6,0,0,0,0,0,0,0,0,37.37,0,0,0,0,0,0,0,0,0,0,0,0,0,0,0,92.72,FLYING
95.28,APPROACH,FLY_TO_FIX,117.09,81,-36.09,3012.14,-14.66,-2.89,2.96,264.55,0.035,0,0,-3.611,1,0.6,3.465,0.75,0.35,0.0168,0.4,264.5,-6,0,0,0,0,0,0,0,0,37.37,0,0,0,0,0,0,0,0,0,0,0,0,0,0,0,95.52,FLYING
98.08,APPROACH,FLY_TO_FIX,116.77,81,-35.77,2971.21,-14.58,-2.85,3,264.54,0.033,0,0,-3.593,1,0.6,3.482,0.75,0.35,0.0168,0.4,264.5,-6,0,0,0,0,0,0,0,0,37.37,0,0,0,0,0,0,0,0,0,0,0,0,0,0,0,98.32,FLYING
100.88,APPROACH,FLY_TO_FIX,116.44,81,-35.44,2930.49,-14.5,-2.81,3.03,264.54,0.032,0,0,-3.575,1,0.6,3.499,0.75,0.35,0.0168,0.4,264.5,-6,0,0,0,0,0,0,0,0,37.37,0,0,0,0,0,0,0,0,0,0,0,0,0,0,0,101.12,FLYING
103.68,APPROACH,FLY_TO_FIX,116.1,81,-35.1,2889.99,-14.43,-2.78,3.07,264.54,0.031,0,0,-3.557,1,0.6,3.516,0.75,0.35,0.0168,0.4,264.5,-6,0,0,0,0,0,0,0,0,37.37,0,0,0,0,0,0,0,0,0,0,0,0,0,0,0,103.92,FLYING
106.48,APPROACH,FLY_TO_FIX,115.76,81,-34.76,2849.7,-14.35,-2.74,3.1,264.54,0.033,0,0,-3.539,1,0.6,3.533,0.75,0.35,0.0168,0.4,264.5,-6,0,0,0,0,0,0,0,0,37.37,0,0,0,0,0,0,0,0,0,0,0,0,0,0,0,106.72,FLYING
109.28,APPROACH,FLY_TO_FIX,115.41,81,-34.41,2809.62,-14.28,-2.7,3.14,264.54,0.03,0,0,-3.522,1,0.6,3.551,0.75,0.35,0.0168,0.4,264.49,-6,0,0,0,0,0,0,0,0,37.37,0,0,0,0,0,0,0,0,0,0,0,0,0,0,0,109.52,FLYING
112.08,APPROACH,FLY_TO_FIX,115.05,81,-34.05,2769.74,-14.2,-2.66,3.18,264.54,0.027,0,0,-3.504,1,0.6,3.569,0.75,0.35,0.0168,0.4,264.49,-6,0,0,0,0,0,0,0,0,37.37,0,0,0,0,0,0,0,0,0,0,0,0,0,0,0,112.32,FLYING
114.88,APPROACH,FLY_TO_FIX,114.69,81,-33.69,2730.07,-14.13,-2.62,3.22,264.53,0.027,0,0,-3.486,1,0.6,3.588,0.75,0.35,0.0168,0.4,264.49,-6,0,0,0,0,0,0,0,0,37.37,0,0,0,0,0,0,0,0,0,0,0,0,0,0,0,115.12,FLYING
117.68,APPROACH,FLY_TO_FIX,114.32,81,-33.32,2690.62,-14.06,-2.58,3.27,264.53,0.027,0,0,-3.469,1,0.6,3.606,0.75,0.35,0.0168,0.4,264.49,-6,0,0,0,0,0,0,0,0,37.37,0,0,0,0,0,0,0,0,0,0,0,0,0,0,0,117.92,FLYING
120.48,APPROACH,FLY_TO_FIX,113.94,81,-32.94,2651.37,-13.98,-2.54,3.31,264.53,0.028,0,0,-3.452,1,0.6,3.625,0.75,0.35,0.0168,0.4,264.49,-6,0,0,0,0,0,0,0,0,37.37,0,0,0,0,0,0,0,0,0,0,0,0,0,0,0,120.72,FLYING
123.28,APPROACH,FLY_TO_FIX,113.56,81,-32.56,2612.33,-13.91,-2.5,3.35,264.53,0.028,0,0,-3.434,1,0.6,3.644,0.75,0.35,0.0168,0.4,264.49,-6,0,0,0,0,0,0,0,0,37.37,0,0,0,0,0,0,0,0,0,0,0,0,0,0,0,123.52,FLYING
126.08,APPROACH,FLY_TO_FIX,113.16,81,-32.16,2573.5,-13.83,-2.46,3.4,264.53,0.027,0,0,-3.417,1,0.6,3.663,0.75,0.35,0.0168,0.4,264.49,-6,0,0,0,0,0,0,0,0,37.37,0,0,0,0,0,0,0,0,0,0,0,0,0,0,0,126.32,FLYING
128.88,APPROACH,FLY_TO_FIX,112.76,81,-31.76,2534.88,-13.76,-2.41,3.44,264.53,0.029,0,0,-3.4,1,0.6,3.682,0.75,0.35,0.0168,0.4,264.48,-5.997,0,0,0,0,0,0,0,0,37.37,0,0,0,0,0,0,0,0,0,0,0,0,0,0,0,129.12,FLYING
131.68,APPROACH,FLY_TO_FIX,112.36,81,-31.36,2496.48,-13.68,-2.35,3.51,264.53,0.028,0,0,-3.383,1,0.6,3.702,0.75,0.35,0.0168,0.4,264.48,-5.805,0,0,0,0,0,0,0,0,37.37,0,0,0,0,0,0,0,0,0,0,0,0,0,0,0,131.92,FLYING
134.48,APPROACH,FLY_TO_FIX,111.93,81,-30.93,2458.39,-13.54,-2.25,3.58,264.53,0.025,0,0,-3.366,1,0.6,3.721,0.75,0.35,0.0168,0.4,264.48,-5.614,0,0,0,0,0,0,0,0,37.37,0,0,0,0,0,0,0,0,0,0,0,0,0,0,0,134.72,FLYING
137.28,APPROACH,FLY_TO_FIX,111.46,81,-30.46,2420.83,-13.3,-2.09,3.67,264.52,0.045,0,0,-3.349,1,0.6,3.741,0.75,0.35,0.0168,0.4,264.48,-5.426,0,0,0,0,0,0,0,0,37.37,0,0,0,0,0,0,0,0,0,0,0,0,0,0,0,137.52,FLYING
140.08,APPROACH,FLY_TO_FIX,110.93,81,-29.93,2384.11,-12.96,-1.89,3.76,264.52,0.056,0,0,-3.333,1,0.6,3.761,0.75,0.35,0.0168,0.4,264.48,-5.242,0,0,0,0,0,0,0,0,37.37,0,0,0,0,0,0,0,0,0,0,0,0,0,0,0,140.32,FLYING
142.88,APPROACH,FLY_TO_FIX,110.32,81,-29.32,2347.48,-12.53,-1.66,3.85,264.51,0.058,0,0,-18.022,1,0.6,3.781,0.75,0.35,0.0168,0.4,264.48,-5.063,0,0,0,0,0,0,0,0,37.37,0,0,0,0,0,0,0,0,0,0,0,0,0,0,0,143.12,FLYING
145.68,APPROACH,FLY_TO_FIX,109.63,81,-28.63,2314.09,-12.09,-1.4,3.95,264.5,0.051,0,0,-17.932,1,0.6,3.802,0.75,0.35,0.0168,0.4,264.48,-4.889,0,0,0,0,0,0,0,0,37.37,0,0,0,0,0,0,0,0,0,0,0,0,0,0,0,145.92,FLYING
148.48,APPROACH,FLY_TO_FIX,108.84,81,-27.84,2280.99,-11.62,-1.14,4.04,264.5,0.047,0,0,-17.842,1,0.6,3.822,0.75,0.35,0.0168,0.4,264.47,-4.723,0,0,0,0,0,0,0,0,37.37,0,0,0,0,0,0,0,0,0,0,0,0,0,0,0,148.72,FLYING
151.28,APPROACH,FLY_TO_FIX,107.97,81,-26.97,2249.18,-11.16,-0.87,4.16,264.49,0.041,0,0,-17.753,1,0.6,3.843,0.75,0.35,0.0168,0.4,264.47,-4.563,0,0,0,0,0,0,0,0,37.37,0,0,0,0,0,0,0,0,0,0,0,0,0,0,0,151.52,FLYING
154.08,APPROACH,FLY_TO_FIX,107,81,-26,2218.67,-10.7,-0.58,4.29,264.49,0.033,0,0,-17.664,1,0.6,3.864,0.75,0.35,0.0168,0.4,264.47,-4.409,0,0,0,0,0,0,0,0,37.37,0,0,0,0,0,0,0,0,0,0,0,0,0,0,0,154.32,FLYING
156.88,APPROACH,FLY_TO_FIX,105.95,81,-24.95,2189.42,-10.26,-0.29,4.44,264.49,0.025,0,0,-17.576,1,0.6,3.885,0.75,0.35,0.0168,0.4,264.47,-4.262,0,0,0,0,0,0,0,0,37.37,0,0,0,0,0,0,0,0,0,0,0,0,0,0,0,157.12,FLYING
159.68,APPROACH,FLY_TO_FIX,104.8,81,-23.8,2161.39,-9.81,0.02,4.6,264.49,0.025,0,0,-20,1,0.6,3.906,0.75,0.35,0.0168,0.4,264.47,-4.121,0,0,0,0,0,0,0,0,37.37,0,0,0,0,0,0,0,0,0,0,0,0,0,0,0,159.92,FLYING
162.48,APPROACH,FLY_TO_FIX,103.56,81,-22.56,2133.82,-9.39,0.34,4.78,264.48,0.021,0.0372,0,-20,1,0.6,3.927,0.766,0.35,0.0168,0.4,264.47,-3.985,0,0,0,0,0,0,0,0,37.37,0,0,0,0,0,0,0,0,0,0,0,0,0,0,0,162.72,FLYING
165.28,APPROACH,FLY_TO_FIX,102.25,81,-21.25,2108.18,-8.99,0.67,4.98,264.48,0.017,0.0713,0,-20,1,0.6,3.948,0.823,0.35,0.0168,0.4,264.47,-3.856,0,0,0,0,0,0,0,0,37.37,0,0,0,0,0,0,0,0,0,0,0,0,0,0,0,165.52,FLYING
168.08,APPROACH,FLY_TO_FIX,100.96,81,-19.96,2083.65,-8.6,1,5.18,264.48,0.015,0.0929,0,-20,1,0.6,3.97,0.883,0.35,0.0168,0.4,264.47,-3.732,0,0,0,0,0,0,0,0,37.37,0,0,0,0,0,0,0,0,0,0,0,0,0,0,0,168.32,FLYING
170.88,APPROACH,FLY_TO_FIX,99.72,81,-18.72,2060.85,-8.23,1.31,5.37,264.48,0.015,0.1193,0,-20,1,0.6,3.992,0.883,0.35,0.0168,0.4,264.47,-3.614,0,0,0,0,0,0,0,0,37.37,0,0,0,0,0,0,0,0,0,0,0,0,0,0,0,171.12,FLYING
173.68,APPROACH,FLY_TO_FIX,98.58,81,-17.58,2038.38,-7.88,1.61,5.55,264.48,0.014,0.1283,0,-20,1,0.6,4.013,0.883,0.35,0.0168,0.4,264.47,-3.501,0,0,0,0,0,0,0,0,37.37,0,0,0,0,0,0,0,0,0,0,0,0,0,0,0,173.92,FLYING
176.48,APPROACH,FLY_TO_FIX,97.54,81,-16.54,2016.84,-7.56,1.91,5.72,264.48,0.014,0.12,0,-20,1,0.6,4.034,0.883,0.35,0.0168,0.4,264.47,-3.392,0,0,0,0,0,0,0,0,37.37,0,0,0,0,0,0,0,0,0,0,0,0,0,0,0,176.72,FLYING
179.28,APPROACH,FLY_TO_FIX,96.59,81,-15.59,1996.19,-7.26,2.18,5.88,264.48,0.013,0.1002,0,-20,1,0.6,4.056,0.883,0.35,0.0168,0.4,264.47,-3.288,0,0,0,0,0,0,0,0,37.37,0,0,0,0,0,0,0,0,0,0,0,0,0,0,0,179.52,FLYING
182.08,APPROACH,FLY_TO_FIX,95.69,81,-14.69,1976.34,-6.97,2.44,6.04,264.48,0.011,0.0778,0,-20,1,0.6,4.076,0.883,0.35,0.0168,0.4,264.47,-3.188,0,0,0,0,0,0,0,0,37.37,0,0,0,0,0,0,0,0,0,0,0,0,0,0,0,182.32,FLYING
184.88,APPROACH,FLY_TO_FIX,94.77,81,-13.77,1956.72,-6.7,2.73,6.21,264.48,0.007,0.0432,0,-20,1,0.6,4.097,0.936,0.35,0.0168,0.4,264.46,-3.092,0,0,0,0,0,0,0,0,37.37,0,0,0,0,0,0,0,0,0,0,0,0,0,0,0,185.12,FLYING
187.68,APPROACH,FLY_TO_FIX,93.69,81,-12.69,1938.39,-6.44,3.05,6.44,264.48,0.008,0.0313,0,-20,1,0.6,4.117,0.988,0.35,0.0168,0.4,264.46,-3,0,0,0,0,0,0,0,0,37.37,0,0,0,0,0,0,0,0,0,0,0,0,0,0,0,187.92,FLYING
190.48,APPROACH,FLY_TO_FIX,92.32,81,-11.32,1920.8,-6.19,3.43,6.74,264.47,0.007,0.057,0,-20,1,0.6,4.138,1.044,0.35,0.0168,0.4,264.46,-2.911,0,0,0,0,0,0,0,0,37.37,0,0,0,0,0,0,0,0,0,0,0,0,0,0,0,190.72,FLYING
193.28,APPROACH,FLY_TO_FIX,90.75,81,-9.75,1903.91,-5.94,3.86,7.09,264.47,0.006,0.1024,0,-20,1,0.6,4.158,1.106,0.35,0.0168,0.4,264.46,-2.826,0,0,0,0,0,0,0,0,37.37,0,0,0,0,0,0,0,0,0,0,0,0,0,0,0,193.52,FLYING
196.08,APPROACH,FLY_TO_FIX,89.13,81,-8.13,1888.18,-5.7,4.29,7.46,264.47,0.005,0.1647,0,-20,1,0.6,4.179,1.106,0.35,0.0168,0.4,264.46,-2.745,0,0,0,0,0,0,0,0,37.37,0,0,0,0,0,0,0,0,0,0,0,0,0,0,0,196.32,FLYING
198.88,APPROACH,FLY_TO_FIX,87.56,81,-6.56,1872.66,-5.46,4.72,7.82,264.47,0.004,0.2081,0,-20,1,0.6,4.2,1.106,0.35,0.0168,0.4,264.46,-2.666,0,0,0,0,0,0,0,0,37.37,0,0,0,0,0,0,0,0,0,0,0,0,0,0,0,199.12,FLYING
201.68,APPROACH,FLY_TO_FIX,86.14,81,-5.14,1857.78,-5.23,5.15,8.16,264.47,0.002,0.2417,0,-20,1,0.6,4.22,1.106,0.35,0.0168,0.4,264.46,-2.591,0,0,0,0,0,0,0,0,37.37,0,0,0,0,0,0,0,0,0,0,0,0,0,0,0,201.92,FLYING
204.48,APPROACH,FLY_TO_FIX,84.93,81,-3.93,1843.53,-5.01,5.51,8.44,264.47,0.001,0.3104,0,-20,1,0.6,4.24,1.106,0.35,0.0168,0.4,264.46,-2.52,0,0,0,0,0,0,0,0,37.37,0,0,0,0,0,0,0,0,0,0,0,0,0,0,0,204.72,FLYING
207.28,APPROACH,FLY_TO_FIX,84,81,-3,1829.84,-4.81,5.81,8.65,264.47,-0.004,0.3256,0,-20,1,0.6,4.26,1.106,0.35,0.0168,0.4,264.46,-2.451,0,0,0,0,0,0,0,0,37.37,0,0,0,0,0,0,0,0,0,0,0,0,0,0,0,207.52,FLYING
210.08,APPROACH,FLY_TO_FIX,83.42,81,-2.42,1816.68,-4.62,6.01,8.76,264.46,-0.006,0.2785,0,-20,1,0.6,4.28,1.106,0.35,0.0168,0.4,264.46,-2.385,0,0,0,0,0,0,0,0,37.37,0,0,0,0,0,0,0,0,0,0,0,0,0,0,0,210.32,FLYING
212.88,APPROACH,FLY_TO_FIX,83.13,81,-2.13,1804.02,-4.45,6.15,8.81,264.46,-0.006,0.1862,0,-20,1,0.6,4.298,1.106,0.35,0.0168,0.4,264.46,-2.321,0,0,0,0,0,0,0,0,37.37,0,0,0,0,0,0,0,0,0,0,0,0,0,0,0,213.12,FLYING
215.68,APPROACH,FLY_TO_FIX,82.94,81,-1.94,1791.8,-4.3,6.28,8.86,264.46,-0.006,0.091,0,-20,1,0.6,4.316,1.106,0.35,0.0168,0.4,264.46,-2.259,0,0,0,0,0,0,0,0,37.37,0,0,0,0,0,0,0,0,0,0,0,0,0,0,0,215.92,FLYING
218.48,APPROACH,FLY_TO_FIX,82.41,81,-1.41,1779.96,-4.19,6.56,9.09,264.46,-0.005,0.0786,0,-20,1,0.6,4.333,1.106,0.35,0.0168,0.4,264.46,-2.2,0,0,0,0,0,0,0,0,37.37,0,0,0,0,0,0,0,0,0,0,0,0,0,0,0,218.72,FLYING
221.28,APPROACH,FLY_TO_FIX,81.18,81,-0.18,1768.13,-4.08,7.04,9.54,264.46,-0.005,0.2217,0,-20,1,0.6,4.35,1.135,0.35,0.0168,0.4,264.46,-2.142,0,0,0,0,0,0,0,0,37.37,0,0,0,0,0,0,0,0,0,0,0,0,0,0,0,221.52,FLYING
224.08,APPROACH,FLY_TO_FIX,79.65,81,1.35,1757.27,-3.96,7.55,10.02,264.46,-0.007,0.4217,0,-19.389,1,0.6,4.368,1.135,0.35,0.0168,0.4,264.46,-2.086,0,0,0,0,0,0,0,0,37.37,0,0,0,0,0,0,0,0,0,0,0,0,0,0,0,224.32,FLYING
226.88,APPROACH,FLY_TO_FIX,78.39,81,2.61,1746.47,-3.8,7.95,10.36,264.46,-0.007,0.5967,0,-18.126,1,0.6,4.385,1.135,0.35,0.0168,0.4,264.46,-2.031,0,0,0,0,0,0,0,0,37.37,0,0,0,0,0,0,0,0,0,0,0,0,0,0,0,227.12,FLYING
229.76,APPROACH,FLY_TO_FIX,77.81,81,3.19,1735.69,-3.67,7.51,9.86,264.61,-0.868,0.6164,0,-16.536,1,0.6,4.402,1.135,0.35,0.0168,0.4,269.62,-4.408,0,0,0,0,0,0,0,0,37.37,0,0,0,0,0,0,0,0,0,0,0,0,0,0,0,230,FLYING
232.02,APPROACH,FLY_TO_FIX,78.32,81,2.68,1726.43,-4.37,6.83,9.66,266.36,-5.047,0.4164,0,-15.164,1,0.6,4.417,1.135,0.35,0.0168,0.4,269.68,-4.358,0,0,0,0,0,0,0,0,37.37,0,0,0,0,0,0,0,0,0,0,0,0,0,0,0,232.13,FLYING
232.82,APPROACH,FLY_TO_FIX,78.76,81,2.24,1722.79,-4.6,6.57,9.51,266.67,-4.894,0.2386,0,-14.027,1,0.6,4.431,1.135,0.35,0.0168,0.4,269.71,-4.337,0,0,0,0,0,0,0,0,37.37,0,0,0,0,0,0,0,0,0,0,0,0,0,0,0,232.88,FLYING
233.54,APPROACH,FLY_TO_FIX,79.12,81,1.88,1719.38,-4.79,6.38,9.43,266.97,-4.644,0.1158,0,-13.071,1,0.6,4.444,1.135,0.35,0.0168,0.4,269.72,-4.32,0,0,0,0,0,0,0,0,37.37,0,0,0,0,0,0,0,0,0,0,0,0,0,0,0,233.6,FLYING
234.26,APPROACH,FLY_TO_FIX,79.43,81,1.57,1715.84,-4.97,6.25,9.39,267.26,-4.36,0.0209,0,-12.276,1,0.6,4.456,1.135,0.35,0.0168,0.4,269.74,-4.302,0,0,0,0,0,0,0,0,37.37,0,0,0,0,0,0,0,0,0,0,0,0,0,0,0,234.32,FLYING
234.98,APPROACH,FLY_TO_FIX,79.64,81,1.36,1712.07,-5.12,6.08,9.31,267.52,-4.051,0,0,-11.588,1,0.6,4.467,1.097,0.35,0.0168,0.4,269.75,-4.284,0,0,0,0,0,0,0,0,37.37,0,0,0,0,0,0,0,0,0,0,0,0,0,0,0,235.04,FLYING
236.12,APPROACH,FLY_TO_FIX,79.69,81,1.31,1705.87,-5.33,5.95,9.3,267.9,-3.533,0,0,-10.936,1,0.6,4.478,1.058,0.35,0.0168,0.4,269.76,-4.261,0,0,0,0,0,0,0,0,37.37,0,0,0,0,0,0,0,0,0,0,0,0,0,0,0,236.33,FLYING
238.86,APPROACH,FLY_TO_FIX,78.74,81,2.26,1690.76,-5.59,5.91,9.47,268.58,-2.433,0.1278,0,-9.878,1,0.6,4.488,1.034,0.35,0.0168,0.4,269.8,-4.189,0,0,0,0,0,0,0,0,37.37,0,0,0,0,0,0,0,0,0,0,0,0,0,0,0,239.1,FLYING
241.66,APPROACH,FLY_TO_FIX,76.77,81,4.23,1675.3,-5.81,5.97,9.77,269.04,-1.55,0.3278,0,-7.851,1,0.6,4.5,1.034,0.35,0.0168,0.4,269.82,-4.11,0,0,0,0,0,0,0,0,37.37,0,0,0,0,0,0,0,0,0,0,0,0,0,0,0,241.9,FLYING
244.46,APPROACH,FLY_TO_FIX,74.98,81,6.02,1658.53,-6.16,6.42,10.52,269.34,-0.958,0.5278,0,-4.906,1,0.6,4.5,1.034,0.35,0.0168,0.4,269.84,-4.027,0,0,0,0,0,0,0,0,37.37,0,0,0,0,0,0,0,0,0,0,0,0,0,0,0,244.7,FLYING
247.26,APPROACH,FLY_TO_FIX,73.75,81,7.25,1641.4,-6.1,6.85,11,269.52,-0.555,0.7278,0,-4.881,1,0.6,4.5,1.034,0.35,0.0168,0.4,269.84,-3.942,0,0,0,0,0,0,0,0,37.37,0,0,0,0,0,0,0,0,0,0,0,0,0,0,0,247.42,FLYING
250.06,APPROACH,FLY_TO_FIX,73.49,81,7.51,1624.48,-5.98,6.83,10.91,269.61,-0.294,0.9278,0,-4.857,1,0.6,4.5,1.034,0.35,0.0168,0.4,269.85,-3.857,0,0,0,0,0,0,0,0,37.37,0,0,0,0,0,0,0,0,0,0,0,0,0,0,0,250.22,FLYING
252.86,APPROACH,FLY_TO_FIX,74.6,81,6.4,1607.8,-5.87,6.26,10.19,269.66,-0.169,0.7412,0,-1.579,1,0.6,4.5,1.034,0.35,0.0168,0.4,269.86,-3.773,0,0,0,0,0,0,0,0,37.37,0,0,0,0,0,0,0,0,0,0,0,0,0,0,0,253.1,FLYING
255.66,APPROACH,FLY_TO_FIX,77.13,81,3.87,1591.3,-5.81,5.37,9.15,269.69,-0.105,0.5412,0,0.486,1,0.6,4.5,1.034,0.35,0.0168,0.4,269.86,-3.691,0,0,0,0,0,0,0,0,37.37,0,0,0,0,0,0,0,0,0,0,0,0,0,0,0,255.9,FLYING
258.46,APPROACH,FLY_TO_FIX,80.46,81,0.54,1574.92,-5.79,4.49,8.09,269.72,-0.078,0.3412,0,0.906,1,0.6,4.5,1.034,0.35,0.0168,0.4,269.86,-3.609,0,0,0,0,0,0,0,0,37.37,0,0,0,0,0,0,0,0,0,0,0,0,0,0,0,258.7,FLYING
261.26,APPROACH,FLY_TO_FIX,83.79,81,-2.79,1558.63,-5.77,3.79,7.26,269.74,-0.068,0.1412,0,0.901,1,0.6,4.5,1.034,0.35,0.0168,0.4,269.86,-3.527,0,0,0,0,0,0,0,0,37.37,0,0,0,0,0,0,0,0,0,0,0,0,0,0,0,261.42,FLYING
264.06,APPROACH,FLY_TO_FIX,85.94,81,-4.94,1542.39,-5.78,3.47,6.86,269.76,-0.057,0,0,0.897,1,0.6,4.5,1.034,0.35,0.0168,0.4,269.87,-3.446,0,0,0,0,0,0,0,0,37.37,0,0,0,0,0,0,0,0,0,0,0,0,0,0,0,264.22,FLYING
266.13,APPROACH,FLY_TO_FIX,86.24,81,-5.24,1530.43,-5.76,3.5,6.88,269.77,-0.07,0,0,0.892,1,0.6,4.5,0.993,0.35,0.0168,0.4,269.87,-3.377,0,0,0,0,0,0,0,0,37.37,0,0,0,0,0,0,0,0,0,0,0,0,0,0,0,266.19,FLYING
266.85,APPROACH,FLY_TO_FIX,86.02,81,-5.02,1526.3,-5.73,3.57,6.94,269.78,-0.064,0,0,0.888,1,0.6,4.5,0.953,0.35,0.0168,0.4,269.87,-3.355,0,0,0,0,0,0,0,0,37.37,0,0,0,0,0,0,0,0,0,0,0,0,0,0,0,266.91,FLYING
268.16,APPROACH,FLY_TO_FIX,85.54,81,-4.54,1518.84,-5.72,3.78,7.17,269.79,-0.03,0,0,0.883,1,0.6,4.5,0.915,0.35,0.0168,0.4,269.87,-3.326,0,0,0,0,0,0,0,0,37.37,0,0,0,0,0,0,0,0,0,0,0,0,0,0,0,268.38,FLYING
270.94,APPROACH,FLY_TO_FIX,83.62,81,-2.62,1503.07,-5.69,4.41,7.84,269.8,-0.019,0,0,0.879,1,0.6,4.5,0.879,0.35,0.0168,0.4,269.87,-3.249,0,0,0,0,0,0,0,0,37.37,0,0,0,0,0,0,0,0,0,0,0,0,0,0,0,271.18,FLYING
273.74,APPROACH,FLY_TO_FIX,80.93,81,0.07,1486.97,-5.58,5.24,8.73,269.81,-0.019,0.2,0,0.79,1,0.6,4.5,0.876,0.35,0.0168,0.4,269.87,-3.17,0,0,0,0,0,0,0,0,37.37,0,0,0,0,0,0,0,0,0,0,0,0,0,0,0,273.98,FLYING
276.62,APPROACH,FLY_TO_FIX,77.91,81,3.09,1471.69,-5.43,6.23,9.76,269.82,-0.026,0.4,0,2.213,1,0.6,4.5,0.876,0.35,0.0168,0.4,269.88,-3.091,0,0,0,0,0,0,0,0,37.37,0,0,0,0,0,0,0,0,0,0,0,0,0,0,0,276.86,FLYING
279.42,APPROACH,FLY_TO_FIX,75.35,81,5.65,1456.89,-5.25,7.09,10.64,269.83,-0.029,0.6,0,2.202,1,0.6,4.5,0.876,0.35,0.0168,0.4,269.88,-3.017,0,0,0,0,0,0,0,0,37.37,0,0,0,0,0,0,0,0,0,0,0,0,0,0,0,279.58,FLYING
282.22,APPROACH,FLY_TO_FIX,73.57,81,7.43,1442.61,-5.03,7.71,11.19,269.84,-0.028,0.8,0,2.191,1,0.6,4.5,0.876,0.35,0.0168,0.4,269.88,-2.945,0,0,0,0,0,0,0,0,37.37,0,0,0,0,0,0,0,0,0,0,0,0,0,0,0,282.38,FLYING
285.02,APPROACH,FLY_TO_FIX,72.97,81,8.03,1428.87,-4.8,7.84,11.19,269.85,-0.027,1,0,2.18,1,0.6,4.5,0.876,0.35,0.0168,0.4,269.88,-2.876,0,0,0,0,0,0,0,0,37.37,0,0,0,0,0,0,0,0,0,0,0,0,0,0,0,285.18,FLYING
287.82,APPROACH,FLY_TO_FIX,73.94,81,7.06,1415.67,-4.59,7.32,10.47,269.86,-0.023,1,0,2.169,1,0.6,4.5,0.876,0.35,0.0168,0.4,269.88,-2.81,0,0,0,0,0,0,0,0,37.37,0,0,0,0,0,0,0,0,0,0,0,0,0,0,0,287.98,FLYING
290.62,APPROACH,FLY_TO_FIX,76.68,81,4.32,1402.85,-4.46,6.21,9.19,269.86,-0.016,0.8,0,4.477,1,0.6,4.5,0.876,0.35,0.0168,0.4,269.88,-2.745,0,0,0,0,0,0,0,0,37.37,0,0,0,0,0,0,0,0,0,0,0,0,0,0,0,290.86,FLYING
293.42,APPROACH,FLY_TO_FIX,80.85,81,0.15,1390.24,-4.4,5.08,7.82,269.87,-0.008,0.6,0,4.75,1,0.6,4.5,0.876,0.35,0.0168,0.4,269.88,-2.682,0,0,0,0,0,0,0,0,37.37,0,0,0,0,0,0,0,0,0,0,0,0,0,0,0,293.66,FLYING
295.66,APPROACH,ILS_TRACK,84.71,81,-3.71,1380.32,-4.33,4.24,6.85,269.87,0,0.6,0,4.75,1,0.6,4.5,0.876,0.35,0.0168,0.4,269.88,-2.682,0,0,0,0,0,0,0,0,37.37,0,0,0,0,0,0,0,0,0,0,0,0,0,0,0,295.82,FLYING
298.94,APPROACH,ILS_TRACK,90.68,80.6,-10.08,1366.22,-4.11,3.76,6.05,269.68,1.817,0.4,0,4.726,1,0.6,4.5,0.876,0.35,0.0168,0.4,245.4,0,195.26,-7.91,24.941,-105.442,15.022,0,0,0,37.37,0,0,0,0,0,0,0,0,0,0,0,0,0,0,0,299.1,FLYING
300.79,APPROACH,ILS_TRACK,93.68,80.2,-13.48,1360.48,-2.13,4.68,6.77,264.05,26.134,0.2,0,4.703,1,0.6,4.5,0.876,0.35,0.0168,0.4,264.88,-7,191.02,-3.31,24.695,-5.522,-6.359,0,0,0,37.37,0,0,0,0,0,0,0,0,0,0,0,0,0,0,0,300.83,FLYING
301.63,APPROACH,ILS_TRACK,94.68,79.8,-14.88,1357.82,-3.43,0.56,2.75,264,27.118,0,0,4.679,1,0.6,4.5,0.876,0.35,0.0168,0.4,267.43,-6.168,185.34,-1.12,24.607,-2.972,-3.168,0,0,0,37.37,0,0,0,0,0,0,0,0,0,0,0,0,0,0,0,301.67,FLYING
302.43,APPROACH,ILS_TRACK,95.7,79.4,-16.3,1354.18,-5.35,0.25,3.14,263.27,18.007,0,0,4.656,1,0.6,4.5,0.841,0.35,0.0168,0.4,267.36,-4.776,177.25,-0.01,24.522,-3.045,-1.776,0,0,0,37.37,0,0,0,0,0,0,0,0,0,0,0,0,0,0,0,302.47,FLYING
303.23,APPROACH,ILS_TRACK,96.45,79,-17.45,1349.46,-6.43,0.73,4.08,263.07,6.536,0,0,4.632,1,0.6,4.5,0.807,0.35,0.0168,0.4,268.69,-2.822,167.28,-0.1,24.437,-1.707,0.178,0,0,0,37.37,0,0,0,0,0,0,0,0,0,0,0,0,0,0,0,303.27,FLYING
304.36,APPROACH,ILS_TRACK,96.9,78.6,-18.3,1342.34,-6.35,1.6,5.02,264.4,-7.756,0,0,4.609,1,0.6,4.5,0.775,0.35,0.0168,0.4,270.87,-1.65,154.02,-0.8,24.334,0.468,1.35,0,0,0,37.37,0,0,0,0,0,0,0,0,0,0,0,0,0,0,0,304.44,FLYING
305.92,APPROACH,ILS_TRACK,96.79,78.2,-18.59,1333.18,-5.6,2.21,5.28,265.97,-10.989,0,0,4.586,1,0.6,4.5,0.75,0.35,0.0168,0.4,274.69,-1.582,134.67,-1.42,24.168,4.287,1.418,0,0,0,37.37,0,0,0,0,0,0,0,0,0,0,0,0,0,0,0,306,FLYING
307.52,APPROACH,ILS_TRACK,95.94,77.8,-18.14,1324.84,-4.91,2.2,5.06,268.15,-13.662,0,0,4.563,1,0.6,4.5,0.75,0.35,0.0168,0.4,273.1,-3.465,119.7,-0.95,23.997,2.699,-0.465,0,0,0,37.37,0,0,0,0,0,0,0,0,0,0,0,0,0,0,0,307.6,FLYING
309.12,APPROACH,ILS_TRACK,94.88,77.4,-17.48,1316.53,-5.33,1.84,4.79,269.24,-9.411,0,0,4.54,1,0.6,4.5,0.75,0.35,0.0168,0.4,270.41,-4.05,110.82,-0.25,23.827,0.007,-1.05,0,0,0,37.37,0,0,0,0,0,0,0,0,0,0,0,0,0,0,0,309.2,FLYING
310.72,APPROACH,ILS_TRACK,93.68,77,-16.68,1307.57,-5.84,2.11,5.27,269.42,-2.871,0,0,4.518,1,0.6,4.5,0.75,0.35,0.0168,0.4,268.47,-2.858,106.18,-0.28,23.659,-1.928,0.142,0,0,0,37.37,0,0,0,0,0,0,0,0,0,0,0,0,0,0,0,310.8,FLYING
312.32,APPROACH,ILS_TRACK,92.24,76.6,-15.64,1298.5,-5.65,2.73,5.85,269.14,0.946,0,0,-3.378,1,0.6,4.5,0.75,0.35,0.0168,0.4,267.81,-2.082,103.12,-0.72,23.493,-2.594,0.918,0,0,0,37.37,0,0,0,0,0,0,0,0,0,0,0,0,0,0,0,312.4,FLYING
313.66,APPROACH,ILS_TRACK,90.74,76.2,-14.54,1291.3,-5.21,3.17,6.13,268.94,1.702,0,0,-10.694,1,0.6,4.5,0.75,0.35,0.0168,0.4,267.91,-2.529,100.09,-0.85,23.338,-2.491,0.471,0,0,0,37.37,0,0,0,0,0,0,0,0,0,0,0,0,0,0,0,313.7,FLYING
314.48,APPROACH,ILS_TRACK,89.86,75.8,-14.06,1287.09,-5.08,3.28,6.2,268.83,1.731,0,0,-10.641,1,0.6,4.5,0.75,0.35,0.0168,0.4,267.4,-2.905,98.23,-0.77,23.256,-3,0.095,0,0,0,37.37,0,0,0,0,0,0,0,0,0,0,0,0,0,0,0,314.52,FLYING
316.18,APPROACH,ILS_TRACK,88.23,75.4,-12.83,1278.48,-5.07,3.59,6.54,268.5,1.689,0,0,-17.187,1,0.6,4.5,0.75,0.35,0.0168,0.4,268.34,-3.14,94.78,-0.57,23.122,-2.064,-0.14,0,0,0,37.37,0,0,0,0,0,0,0,0,0,0,0,0,0,0,0,316.3,FLYING
318.58,APPROACH,ILS_TRACK,85.51,75,-10.51,1266.38,-5.08,4.25,7.29,268.53,-0.064,0.1905,0,-20,1,0.6,4.5,0.816,0.35,0.0168,0.4,270.52,-2.986,87.53,-0.49,22.89,0.122,0.014,0,0,0,37.37,0,0,0,0,0,0,0,0,0,0,0,0,0,0,0,318.7,FLYING
320.98,APPROACH,ILS_TRACK,82.79,75,-7.79,1254.43,-4.97,5.12,8.21,269.13,-1.953,0.3905,0,-20,1,0.6,4.5,0.816,0.35,0.0168,0.4,270.84,-2.435,80.24,-0.71,22.664,0.438,0.565,0,0,0,37.37,0,0,0,0,0,0,0,0,0,0,0,0,0,0,0,321.1,FLYING
323.32,APPROACH,ILS_TRACK,80.39,75,-5.39,1243.29,-4.67,5.84,8.82,269.62,-1.825,0.546,0,-20,1,0.6,4.5,0.816,0.35,0.0168,0.4,270.1,-2.546,74.85,-0.84,22.452,-0.301,0.454,0,0,0,37.37,0,0,0,0,0,0,0,0,0,0,0,0,0,0,0,323.44,FLYING
325.66,APPROACH,ILS_TRACK,78.6,75,-3.6,1232.69,-4.48,6.26,9.18,269.77,-0.718,0.597,0,-20,1,0.6,4.5,0.816,0.35,0.0168,0.4,269.28,-3.055,71.38,-0.68,22.245,-1.121,-0.055,0,0,0,37.37,0,0,0,0,0,0,0,0,0,0,0,0,0,0,0,325.78,FLYING
328.06,APPROACH,ILS_TRACK,77.6,75,-2.6,1221.97,-4.48,6.41,9.37,269.67,0.248,0.5864,0,-20,1,0.6,4.5,0.816,0.35,0.0168,0.4,268.92,-3.18,68.84,-0.47,22.036,-1.482,-0.18,0,0,0,37.37,0,0,0,0,0,0,0,0,0,0,0,0,0,0,0,328.18,FLYING
330.4,APPROACH,ILS_TRACK,77.41,75,-2.41,1211.44,-4.51,6.4,9.39,269.47,0.664,0.4205,0,-20,1,0.6,4.5,0.816,0.35,0.0168,0.4,268.98,-2.945,66.36,-0.43,21.835,-1.415,0.055,0,0,0,37.37,0,0,0,0,0,0,0,0,0,0,0,0,0,0,0,330.52,FLYING
332.74,APPROACH,ILS_TRACK,77.76,75,-2.76,1200.92,-4.46,6.27,9.22,269.36,0.441,0.2205,0,-20,1,0.6,4.5,0.816,0.35,0.0168,0.4,269.37,-2.931,63.35,-0.4,21.633,-1.028,0.069,0,0,0,37.37,0,0,0,0,0,0,0,0,0,0,0,0,0,0,0,332.86,FLYING
335.14,APPROACH,ILS_TRACK,78.2,75,-3.2,1190.22,-4.45,6.12,9.05,269.38,0.016,0.0205,0,-19.9,1,0.6,4.5,0.816,0.35,0.0168,0.4,269.8,-3.208,59.76,-0.22,21.425,-0.597,-0.208,0,0,0,37.37,0,0,0,0,0,0,0,0,0,0,0,0,0,0,0,335.26,FLYING
337.48,APPROACH,ILS_TRACK,77.92,75,-2.92,1179.72,-4.54,6.32,9.32,269.48,-0.319,0,0,-19.8,1,0.6,4.5,0.836,0.35,0.0168,0.4,269.95,-3.252,56.16,-0.06,21.222,-0.446,-0.252,0,0,0,37.37,0,0,0,0,0,0,0,0,0,0,0,0,0,0,0,337.6,FLYING
339.88,APPROACH,ILS_TRACK,76.37,75,-1.37,1168.84,-4.6,7.08,10.16,269.62,-0.42,0.0881,0,-20,1,0.6,4.5,0.87,0.35,0.0168,0.4,269.99,-2.818,52.76,-0.14,21.016,-0.41,0.182,0,0,0,37.37,0,0,0,0,0,0,0,0,0,0,0,0,0,0,0,340,FLYING
342.28,APPROACH,ILS_TRACK,74.09,75,0.91,1158.14,-4.46,8.12,11.2,269.72,-0.347,0.2881,0,-19.663,1,0.6,4.5,0.87,0.35,0.0168,0.4,269.86,-2.46,49.85,-0.4,20.816,-0.539,0.54,0,0,0,37.37,0,0,0,0,0,0,0,0,0,0,0,0,0,0,0,342.4,FLYING
344.68,APPROACH,ILS_TRACK,71.73,75,3.27,1147.9,-4.22,8.91,11.96,269.77,-0.171,0.4881,0,-18.138,1,0.6,4.5,0.87,0.35,0.0168,0.4,269.73,-2.622,47.4,-0.54,20.621,-0.671,0.378,0,0,0,37.37,0,0,0,0,0,0,0,0,0,0,0,0,0,0,0,344.8,FLYING
347.08,APPROACH,ILS_TRACK,69.98,75,5.02,1137.17,-4.78,8.43,11.96,269.78,-0.069,0.6881,0,-18.047,1,0.6,4.5,0.87,0.35,0.0168,0.4,269.67,-1.754,45.24,-1.11,20.433,-0.729,1.246,0,0,0,37.37,0,0,0,0,0,0,0,0,0,0,0,0,0,0,0,347.2,FLYING
349.48,APPROACH,ILS_TRACK,69.42,75,5.58,1124.32,-5.8,7.65,11.96,269.81,-0.078,0.8881,0,-15.258,1,0.6,4.5,0.87,0.35,0.0168,0.4,269.69,0,43.21,-3.72,20.248,-0.712,5.289,0,0,0,37.37,0,0,0,0,0,0,0,0,0,0,0,0,0,0,0,349.6,FLYING
351.28,APPROACH,ILS_TRACK,69.96,75,5.04,1113.22,-6.38,7.24,11.95,269.83,-0.077,0.7888,0,-12.717,1,0.6,4.5,0.87,0.35,0.0168,0.4,269.62,0,41.45,-8.08,20.082,-0.778,9.395,0,0,0,37.37,0,0,0,0,0,0,0,0,0,0,0,0,0,0,0,351.32,FLYING
352.1,APPROACH,ILS_TRACK,70.41,75,4.59,1107.94,-6.46,7.22,11.96,269.82,-0.054,0.605,0,-10.398,1,0.6,4.5,0.87,0.35,0.0168,0.4,269.1,0,40.79,-10.01,20.018,-1.303,6.097,0,0,0,37.37,0,0,0,0,0,0,0,0,0,0,0,0,0,0,0,352.14,FLYING
352.93,APPROACH,ILS_TRACK,70.93,75,4.07,1102.62,-6.42,7.27,11.94,269.81,0.004,0.4423,0,-8.332,1,0.6,4.5,0.87,0.35,0.0168,0.4,269.11,0,40.15,-11.91,19.956,-1.286,6.605,0,0,0,37.37,0,0,0,0,0,0,0,0,0,0,0,0,0,0,0,352.98,FLYING
354.59,APPROACH,ILS_TRACK,71.89,75,3.11,1092.28,-6.02,7.57,11.89,269.76,0.171,0.2423,0,-6.707,1,0.6,4.5,0.87,0.35,0.0168,0.4,269.38,0,39.06,-14.84,19.85,-1.019,9.153,0,0,0,37.37,0,0,0,0,0,0,0,0,0,0,0,0,0,0,0,354.71,FLYING
356.93,APPROACH,ILS_TRACK,72.96,75,2.04,1079.63,-4.86,8.35,11.81,269.68,0.192,0.0423,0,-5.655,1,0.6,4.5,0.87,0.35,0.0168,0.4,269.93,0,37.05,-18.27,19.664,-0.475,10.962,0,0,0,37.37,0,0,0,0,0,0,0,0,0,0,0,0,0,0,0,357.05,FLYING
359.33,APPROACH,ILS_TRACK,72.68,75,2.32,1069.49,-3.79,9.25,11.96,269.76,-0.133,0.0345,0,-4.553,1,0.6,4.5,0.835,0.35,0.0168,0.4,270.15,0,34.76,-18.89,19.471,-0.248,6.659,0,0,0,37.37,0,0,0,0,0,0,0,0,0,0,0,0,0,0,0,359.45,FLYING
361.73,APPROACH,ILS_TRACK,70.97,75,4.03,1060.89,-3.61,9.31,11.96,269.79,-0.052,0.2345,0,-2.639,1,0.6,4.5,0.826,0.35,0.0168,0.4,270.19,0,32.57,-17.61,19.28,-0.206,3.242,0,0,0,37.37,0,0,0,0,0,0,0,0,0,0,0,0,0,0,0,361.85,FLYING
364.13,APPROACH,ILS_TRACK,69.15,75,5.85,1050.95,-4.69,8.44,11.96,269.68,0.284,0.4345,0,0.212,1,0.6,4.5,0.826,0.35,0.0168,0.4,270.2,0,30.53,-17.26,19.095,-0.202,4.622,0,0,0,37.37,0,0,0,0,0,0,0,0,0,0,0,0,0,0,0,364.25,FLYING
366.53,APPROACH,ILS_TRACK,68.27,75,6.73,1037.37,-6.45,7.06,11.96,269.55,0.457,0.6345,0,3.557,1,0.6,4.5,0.826,0.35,0.0168,0.4,270.35,0,28.36,-20.4,18.913,-0.048,11.134,0,0,0,37.37,0,0,0,0,0,0,0,0,0,0,0,0,0,0,0,366.65,FLYING
368.93,APPROACH,ILS_TRACK,68.63,75,6.37,1019.48,-8.16,5.79,11.96,269.35,0.621,0.8345,0,6.786,1,0.6,4.5,0.826,0.35,0.0168,0.4,270.63,0,25.84,-27.92,18.733,0.228,20.411,0,0,0,37.37,0,0,0,0,0,0,0,0,0,0,0,0,0,0,0,369.05,FLYING
371.32,APPROACH,ILS_TRACK,70.25,75,4.75,998.5,-9.1,5.14,11.86,269.23,0.407,0.6345,0,9.269,1,0.6,4.5,0.826,0.35,0.0168,0.4,271.03,0,22.75,-38.93,18.551,0.631,29.291,0,0,0,37.37,0,0,0,0,0,0,0,0,0,0,0,0,0,0,0,371.43,FLYING
373.04,APPROACH,ILS_TRACK,72,75,3,983.02,-8.9,5.44,11.86,269.31,-0.141,0.4345,0,10.847,1,0.6,4.5,0.826,0.35,0.0168,0.4,271.01,0,19.94,-48.36,18.405,0.609,29.603,0,0,0,37.37,0,0,0,0,0,0,0,0,0,0,0,0,0,0,0,373.12,FLYING
374.64,APPROACH,ILS_TRACK,73.52,75,1.48,969.58,-7.96,6.14,11.79,269.53,-0.769,0.2345,0,11.659,1,0.6,4.5,0.826,0.35,0.0168,0.4,270.93,0,17.48,-55.47,18.278,0.532,28.009,0,0,0,37.37,0,0,0,0,0,0,0,0,0,0,0,0,0,0,0,374.72,FLYING
376.24,APPROACH,ILS_TRACK,74.7,75,0.3,957.85,-6.82,6.48,11.24,269.77,-1.055,0.0345,0,11.859,1,0.6,4.5,0.826,0.35,0.0168,0.4,270.9,0,15.25,-60.81,18.149,0.503,26.796,0,0,0,37.37,0,0,0,0,0,0,0,0,0,0,0,0,0,0,0,376.32,FLYING
377.84,APPROACH,ILS_TRACK,75.15,75,-0.15,947.92,-5.77,7.18,11.19,269.99,-1.072,0,0,11.8,1,0.6,4.5,0.793,0.35,0.0168,0.4,270.76,0,13.46,-64.26,18.018,0.356,24.8,0,0,0,37.37,0,0,0,0,0,0,0,0,0,0,0,0,0,0,0,377.92,FLYING
379.44,APPROACH,ILS_TRACK,74.62,75,0.38,939.64,-4.82,8.09,11.45,270.15,-0.881,0,0,11.943,1,0.6,4.5,0.761,0.35,0.0168,0.4,270.56,0,12.17,-66.02,17.887,0.16,22.618,0,0,0,37.37,0,0,0,0,0,0,0,0,0,0,0,0,0,0,0,379.52,FLYING
381.04,APPROACH,ILS_TRACK,73.29,75,1.71,932.79,-4,9.11,11.97,270.25,-0.593,0.2,0,12.716,1,0.6,4.5,0.75,0.35,0.0168,0.4,270.38,0,11.31,-66.37,17.757,-0.025,20.468,0,0,0,37.37,0,0,0,0,0,0,0,0,0,0,0,0,0,0,0,381.12,FLYING
382.64,APPROACH,ILS_TRACK,71.64,75,3.36,926.77,-3.68,9.28,11.97,270.26,-0.268,0.4,0,14.319,1,0.6,4.5,0.75,0.35,0.0168,0.4,270.24,0,10.77,-65.84,17.63,-0.16,18.904,0,0,0,37.37,0,0,0,0,0,0,0,0,0,0,0,0,0,0,0,382.72,FLYING
384.24,APPROACH,ILS_TRACK,70.27,75,4.73,920.67,-3.96,9.02,11.97,270.27,-0.112,0.6,0,16.627,1,0.6,4.5,0.75,0.35,0.0168,0.4,270.17,0,10.39,-65.32,17.505,-0.226,18.772,0,0,0,37.37,0,0,0,0,0,0,0,0,0,0,0,0,0,0,0,384.32,FLYING
385.84,APPROACH,ILS_TRACK,69.4,75,5.6,913.73,-4.62,8.49,11.97,270.29,-0.099,0.8,0,16.543,1,0.6,4.5,0.75,0.35,0.0168,0.4,270.15,0,10.08,-65.62,17.383,-0.246,20.162,0,0,0,37.37,0,0,0,0,0,0,0,0,0,0,0,0,0,0,0,385.92,FLYING
387.4,APPROACH,ILS_TRACK,69.17,75,5.83,905.82,-5.36,7.92,11.97,270.31,-0.105,1,0,16.461,1,0.6,4.5,0.75,0.35,0.0168,0.4,270.14,0,9.81,-67.07,17.265,-0.259,22.443,0,0,0,37.37,0,0,0,0,0,0,0,0,0,0,0,0,0,0,0,387.48,FLYING
389,APPROACH,ILS_TRACK,69.63,75,5.37,896.66,-5.94,7.49,11.94,270.33,-0.096,0.9393,0,19.183,1,0.6,4.5,0.75,0.35,0.0168,0.4,270.13,0,9.58,-69.68,17.144,-0.267,25.085,0,0,0,37.37,0,0,0,0,0,0,0,0,0,0,0,0,0,0,0,389.08,FLYING
390.6,APPROACH,ILS_TRACK,70.74,75,4.26,886.96,-6.07,7.41,11.89,270.33,-0.042,0.7393,0,20,1,0.6,4.5,0.75,0.35,0.0168,0.4,270.12,0,9.39,-72.92,17.022,-0.279,27.058,0,0,0,37.37,0,0,0,0,0,0,0,0,0,0,0,0,0,0,0,390.68,FLYING
392.2,APPROACH,ILS_TRACK,72.18,75,2.82,877.61,-5.6,7.81,11.86,270.31,0.051,0.5393,0,20,1,0.6,4.5,0.75,0.35,0.0168,0.4,270.12,0,9.21,-75.92,16.897,-0.282,27.571,0,0,0,37.37,0,0,0,0,0,0,0,0,0,0,0,0,0,0,0,392.28,FLYING
393.8,APPROACH,ILS_TRACK,73.68,75,1.32,869.41,-4.7,7.83,11.18,270.28,0.12,0.3393,0,20,1,0.6,4.5,0.75,0.35,0.0168,0.4,270.13,0,9.02,-77.76,16.77,-0.266,26.274,0,0,0,37.37,0,0,0,0,0,0,0,0,0,0,0,0,0,0,0,393.88,FLYING
395.4,APPROACH,ILS_TRACK,75.11,75,-0.11,862.51,-3.94,7.75,10.51,270.25,0.126,0.1393,0,20,1,0.6,4.5,0.75,0.35,0.0168,0.4,270.17,0,8.78,-78.15,16.641,-0.229,24.062,0,0,0,37.37,0,0,0,0,0,0,0,0,0,0,0,0,0,0,0,395.48,FLYING
397,APPROACH,ILS_TRACK,76.05,75,-1.05,856.74,-3.33,7.94,10.23,270.23,0.1,0,0,19.9,1,0.6,4.5,0.75,0.35,0.0168,0.4,270.21,0,8.47,-77.25,16.509,-0.185,21.735,0,0,0,37.37,0,0,0,0,0,0,0,0,0,0,0,0,0,0,0,397.08,FLYING
398.6,APPROACH,ILS_TRACK,76.04,75,-1.04,851.94,-2.81,8.45,10.38,270.23,0.051,0,0,19.8,1,0.6,4.5,0.75,0.35,0.0168,0.4,270.25,0,8.11,-75.3,16.376,-0.146,19.472,0,0,0,37.37,0,0,0,0,0,0,0,0,0,0,0,0,0,0,0,398.68,FLYING
400.2,APPROACH,ILS_TRACK,75.06,75,-0.06,847.95,-2.37,9.22,10.87,270.23,0.007,0.0972,0,19.704,1,0.6,4.5,0.75,0.35,0.0168,0.4,270.28,0,7.73,-72.55,16.244,-0.117,17.359,0,0,0,37.37,0,0,0,0,0,0,0,0,0,0,0,0,0,0,0,400.28,FLYING
401.8,APPROACH,ILS_TRACK,73.49,75,1.51,844.61,-2,10.09,11.51,270.24,-0.024,0.2972,0,20,1,0.6,4.5,0.75,0.35,0.0168,0.4,270.3,0,7.35,-69.22,16.115,-0.101,15.439,0,0,0,37.37,0,0,0,0,0,0,0,0,0,0,0,0,0,0,0,401.88,FLYING
403.4,APPROACH,ILS_TRACK,71.78,75,3.22,841.75,-1.73,10.7,11.97,270.25,-0.035,0.4972,0,20,1,0.6,4.5,0.75,0.35,0.0168,0.4,270.31,0,6.97,-65.5,15.988,-0.094,13.705,0,0,0,37.37,0,0,0,0,0,0,0,0,0,0,0,0,0,0,0,403.48,FLYING
405,APPROACH,ILS_TRACK,70.33,75,4.67,838.86,-1.93,10.53,11.97,270.24,0.005,0.6972,0,19.9,1,0.6,4.5,0.75,0.35,0.0168,0.4,270.31,0,6.62,-61.83,15.864,-0.09,12.67,0,0,0,37.37,0,0,0,0,0,0,0,0,0,0,0,0,0,0,0,405.08,FLYING
406.6,APPROACH,ILS_TRACK,69.44,75,5.56,835.25,-2.51,10.08,11.97,270.23,0.036,0.8972,0,19.8,1,0.6,4.5,0.75,0.35,0.0168,0.4,270.32,0,6.28,-58.84,15.742,-0.081,12.877,0,0,0,37.37,0,0,0,0,0,0,0,0,0,0,0,0,0,0,0,406.68,FLYING
408.2,APPROACH,ILS_TRACK,69.22,75,5.78,830.61,-3.15,9.58,11.97,270.22,0.056,1,0,19.701,1,0.6,4.5,0.75,0.35,0.0168,0.4,270.34,0,5.93,-56.91,15.621,-0.061,13.988,0,0,0,37.37,0,0,0,0,0,0,0,0,0,0,0,0,0,0,0,408.28,FLYING
409.52,APPROACH,ILS_TRACK,69.62,75,5.38,826.11,-3.53,9.3,11.96,270.21,0.063,1,0,20,1,0.6,4.5,0.75,0.35,0.0168,0.4,270.35,0,5.59,-55.98,15.51,-0.053,15.296,0,0,0,37.37,0,0,0,0,0,0,0,0,0,0,0,0,0,0,0,409.56,FLYING
410.35,APPROACH,ILS_TRACK,70.09,75,4.91,823.14,-3.61,9.25,11.96,270.2,0.051,0.8465,0,20,1,0.6,4.5,0.75,0.35,0.0168,0.4,270.29,0,5.38,-55.62,15.445,-0.107,16.122,0,0,0,37.37,0,0,0,0,0,0,0,0,0,0,0,0,0,0,0,410.39,FLYING
411.17,APPROACH,ILS_TRACK,70.66,75,4.34,820.2,-3.56,9.3,11.94,270.2,0.025,0.6946,0,20,1,0.6,4.5,0.75,0.35,0.0168,0.4,270.3,0,5.16,-55.29,15.382,-0.1,16.05,0,0,0,37.37,0,0,0,0,0,0,0,0,0,0,0,0,0,0,0,411.21,FLYING
411.99,APPROACH,ILS_TRACK,71.3,75,3.7,817.38,-3.34,9.43,11.9,270.2,-0.01,0.5516,0,20,1,0.6,4.5,0.75,0.35,0.0168,0.4,270.31,0,4.94,-54.83,15.318,-0.088,15.708,0,0,0,37.37,0,0,0,0,0,0,0,0,0,0,0,0,0,0,0,412.03,FLYING
412.81,APPROACH,ILS_TRACK,71.96,75,3.04,814.73,-3.07,9.31,11.56,270.21,-0.04,0.4222,0,20,1,0.6,4.5,0.75,0.35,0.0168,0.4,270.32,0,4.72,-54.17,15.255,-0.078,15.196,0,0,0,37.37,0,0,0,0,0,0,0,0,0,0,0,0,0,0,0,412.85,FLYING
413.63,APPROACH,ILS_TRACK,72.65,75,2.35,812.3,-2.82,9.18,11.23,270.22,-0.061,0.3042,0,20,1,0.6,4.5,0.75,0.35,0.0168,0.4,270.33,0,4.5,-53.27,15.19,-0.07,14.544,0,0,0,37.37,0,0,0,0,0,0,0,0,0,0,0,0,0,0,0,413.67,FLYING
414.45,APPROACH,ILS_TRACK,73.3,75,1.7,810.07,-2.59,9.1,10.96,270.23,-0.073,0.2064,0,20,1,0.6,4.5,0.75,0.35,0.0168,0.4,270.34,0,4.28,-52.13,15.125,-0.063,13.825,0,0,0,37.37,0,0,0,0,0,0,0,0,0,0,0,0,0,0,0,414.49,FLYING
415.27,APPROACH,ILS_TRACK,73.81,75,1.19,808.03,-2.39,9.1,10.8,270.24,-0.08,0.1457,0,20,1,0.6,4.5,0.75,0.35,0.0168,0.4,270.34,0,4.07,-50.78,15.06,-0.057,13.063,0,0,0,37.37,0,0,0,0,0,0,0,0,0,0,0,0,0,0,0,415.31,FLYING
416.09,APPROACH,ILS_TRACK,74.13,75,0.87,806.17,-2.19,9.18,10.74,270.25,-0.086,0.1302,0,20,1,0.6,4.5,0.75,0.35,0.0168,0.4,270.35,0,3.87,-49.22,14.994,-0.053,12.274,0,0,0,37.37,0,0,0,0,0,0,0,0,0,0,0,0,0,0,0,416.13,FLYING
416.91,APPROACH,ILS_TRACK,74.24,75,0.76,804.47,-2.01,9.33,10.75,270.26,-0.089,0.1569,0,20,1,0.6,4.5,0.75,0.35,0.0168,0.4,270.35,0,3.68,-47.49,14.927,-0.05,11.47,0,0,0,37.37,0,0,0,0,0,0,0,0,0,0,0,0,0,0,0,416.95,FLYING
417.73,APPROACH,ILS_TRACK,74.17,75,0.83,802.92,-1.84,9.51,10.81,270.26,-0.093,0.2142,0,20,1,0.6,4.5,0.75,0.35,0.0168,0.4,270.35,0,3.49,-45.6,14.861,-0.047,10.656,0,0,0,37.37,0,0,0,0,0,0,0,0,0,0,0,0,0,0,0,417.77,FLYING
418.55,APPROACH,ILS_TRACK,74,75,1,801.51,-1.68,9.7,10.9,270.27,-0.095,0.2854,0,20,1,0.6,4.5,0.75,0.35,0.0168,0.4,270.35,0,3.32,-43.57,14.795,-0.045,9.833,0,0,0,37.37,0,0,0,0,0,0,0,0,0,0,0,0,0,0,0,418.59,FLYING
419.37,APPROACH,ILS_TRACK,73.78,75,1.22,800.23,-1.53,9.87,10.96,270.28,-0.097,0.355,0,20,1,0.6,4.5,0.75,0.35,0.0168,0.4,270.36,0,3.15,-41.43,14.729,-0.044,9.002,0,0,0,37.37,0,0,0,0,0,0,0,0,0,0,0,0,0,0,0,419.41,FLYING
420.19,APPROACH,ILS_TRACK,73.56,75,1.44,799.06,-1.39,10.02,11.01,270.29,-0.098,0.4143,0,20,1,0.6,4.5,0.75,0.35,0.0168,0.4,270.36,0,3,-39.18,14.664,-0.044,8.153,0,0,0,37.37,0,0,0,0,0,0,0,0,0,0,0,0,0,0,0,420.23,FLYING
421.01,APPROACH,ILS_TRACK,73.36,75,1.64,798,-1.26,10.15,11.05,270.3,-0.092,0.4615,0,20,1,0.6,4.5,0.75,0.35,0.0168,0.4,270.36,0,2.86,-36.83,14.598,-0.043,7.292,0,0,0,37.37,0,0,0,0,0,0,0,0,0,0,0,0,0,0,0,421.05,FLYING
421.83,APPROACH,ILS_TRACK,73.18,75,1.82,797.03,-1.14,10.26,11.08,270.31,-0.087,0.496,0,20,1,0.6,4.5,0.75,0.35,0.0168,0.4,270.36,0,2.73,-34.39,14.533,-0.043,6.419,0,0,0,37.37,0,0,0,0,0,0,0,0,0,0,0,0,0,0,0,421.87,FLYING
422.65,APPROACH,ILS_TRACK,73.05,75,1.95,796.15,-1.04,10.34,11.09,270.32,-0.079,0.5175,0,20,1,0.6,4.5,0.75,0.35,0.0168,0.4,270.36,0,2.61,-31.88,14.468,-0.044,5.534,0,0,0,37.37,0,0,0,0,0,0,0,0,0,0,0,0,0,0,0,422.69,FLYING
423.47,APPROACH,ILS_TRACK,72.97,75,2.03,795.35,-0.94,10.4,11.08,270.32,-0.071,0.5267,0,20,1,0.6,4.5,0.75,0.35,0.0168,0.4,270.36,0,2.49,-29.28,14.403,-0.043,4.636,0,0,0,37.37,0,0,0,0,0,0,0,0,0,0,0,0,0,0,0,423.51,FLYING
424.29,APPROACH,ILS_TRACK,72.94,75,2.06,794.62,-0.85,10.43,11.05,270.33,-0.065,0.5245,0,20,1,0.6,4.5,0.75,0.35,0.0168,0.4,270.36,0,2.39,-26.62,14.337,-0.043,3.723,0,0,0,37.37,0,0,0,0,0,0,0,0,0,0,0,0,0,0,0,424.33,FLYING
425.11,APPROACH,ILS_TRACK,72.96,75,2.04,793.96,-0.75,10.41,10.97,270.33,-0.059,0.5124,0,20,1,0.6,4.5,0.75,0.35,0.0168,0.4,270.36,-0.203,2.29,-23.89,14.272,-0.043,2.797,0,0,0,37.37,0,0,0,0,0,0,0,0,0,0,0,0,0,0,0,425.15,FLYING
425.93,APPROACH,ILS_TRACK,73.04,75,1.96,793.32,-0.71,10.28,10.81,270.33,-0.049,0.4899,0,20,1,0.6,4.5,0.75,0.35,0.0168,0.4,270.36,-1.1,2.2,-21.12,14.207,-0.042,1.9,0,0,0,37.37,0,0,0,0,0,0,0,0,0,0,0,0,0,0,0,425.97,FLYING
426.75,APPROACH,ILS_TRACK,73.2,75,1.8,792.66,-0.76,10,10.56,270.34,-0.048,0.4556,0,20,1,0.6,4.5,0.75,0.35,0.0168,0.4,270.36,-1.918,2.11,-18.35,14.142,-0.042,1.082,0,0,0,37.37,0,0,0,0,0,0,0,0,0,0,0,0,0,0,0,426.79,FLYING
427.57,APPROACH,ILS_TRACK,73.43,75,1.57,791.91,-0.9,9.6,10.27,270.34,-0.045,0.4096,0,20,1,0.6,4.5,0.75,0.35,0.0168,0.4,270.36,-2.621,2.03,-15.65,14.077,-0.041,0.379,0,0,0,37.37,0,0,0,0,0,0,0,0,0,0,0,0,0,0,0,427.61,FLYING
428.39,APPROACH,ILS_TRACK,73.74,75,1.26,791.01,-1.12,9.19,10,270.34,-0.041,0.3539,0,20,1,0.6,4.5,0.75,0.35,0.0168,0.4,270.36,-3.186,1.96,-13.08,14.011,-0.04,-0.186,0,0,0,37.37,0,0,0,0,0,0,0,0,0,0,0,0,0,0,0,428.43,FLYING
429.21,APPROACH,ILS_TRACK,74.11,75,0.89,789.89,-1.39,8.77,9.77,270.35,-0.039,0.2922,0,20,1,0.6,4.5,0.75,0.35,0.0168,0.4,270.36,-3.613,1.88,-10.7,13.946,-0.039,-0.613,0,0,0,37.37,0,0,0,0,0,0,0,0,0,0,0,0,0,0,0,429.25,FLYING
430.03,APPROACH,ILS_TRACK,74.5,75,0.5,788.55,-1.71,8.38,9.6,270.35,-0.038,0.2308,0,20,1,0.6,4.5,0.75,0.35,0.0168,0.4,270.36,-3.922,1.81,-8.52,13.879,-0.038,-0.922,0,0,0,37.37,0,0,0,0,0,0,0,0,0,0,0,0,0,0,0,430.07,FLYING
430.85,APPROACH,ILS_TRACK,74.87,75,0.13,786.94,-2.04,8.04,9.48,270.35,-0.036,0.1806,0,20,1,0.6,4.5,0.75,0.35,0.0168,0.4,270.36,-4.126,1.75,-6.58,13.813,-0.037,-1.126,0,0,0,37.37,0,0,0,0,0,0,0,0,0,0,0,0,0,0,0,430.89,FLYING
431.67,APPROACH,ILS_TRACK,75.17,75,-0.17,785.07,-2.38,7.76,9.43,270.36,-0.033,0.1487,0,19.927,1,0.6,4.5,0.75,0.35,0.0168,0.4,270.36,-4.237,1.69,-4.89,13.746,-0.036,-1.237,0,0,0,37.37,0,0,0,0,0,0,0,0,0,0,0,0,0,0,0,431.71,FLYING
432.49,APPROACH,ILS_TRACK,75.36,75,-0.36,782.95,-2.7,7.56,9.45,270.36,-0.03,0.1379,0,19.752,1,0.6,4.5,0.75,0.35,0.0168,0.4,270.36,-4.273,1.63,-3.45,13.679,-0.036,-1.273,0,0,0,37.37,0,0,0,0,0,0,0,0,0,0,0,0,0,0,0,432.53,FLYING
433.31,APPROACH,ILS_TRACK,75.45,75,-0.45,780.58,-3,7.43,9.52,270.36,-0.028,0.1476,0,19.528,1,0.6,4.5,0.75,0.35,0.0168,0.4,270.37,-4.249,1.57,-2.25,13.612,-0.035,-1.249,0,0,0,37.37,0,0,0,0,0,0,0,0,0,0,0,0,0,0,0,433.35,FLYING
434.13,APPROACH,ILS_TRACK,75.45,75,-0.45,778,-3.27,7.34,9.61,270.36,-0.026,0.173,0,19.303,1,0.6,4.5,0.75,0.35,0.0168,0.4,270.37,-4.182,1.52,-1.27,13.545,-0.034,-1.182,0,0,0,37.37,0,0,0,0,0,0,0,0,0,0,0,0,0,0,0,434.17,FLYING
434.95,APPROACH,ILS_TRACK,75.38,75,-0.38,775.21,-3.49,7.28,9.72,270.36,-0.024,0.2069,0,19.109,1,0.6,4.5,0.75,0.35,0.0168,0.4,270.37,-4.086,1.47,-0.5,13.478,-0.033,-1.086,0,0,0,37.37,0,0,0,0,0,0,0,0,0,0,0,0,0,0,0,434.99,FLYING
435.77,APPROACH,ILS_TRACK,75.26,75,-0.26,772.25,-3.67,7.14,9.71,270.36,-0.023,0.2455,0,18.971,1,0.6,4.5,0.75,0.35,0.0168,0.4,270.37,-3.964,1.42,0.09,13.411,-0.032,-0.964,0,0,0,37.37,0,0,0,0,0,0,0,0,0,0,0,0,0,0,0,435.81,FLYING
436.59,APPROACH,ILS_TRACK,75.11,75,-0.11,769.17,-3.81,7.02,9.7,270.37,-0.022,0.2861,0,18.906,1,0.6,4.5,0.75,0.35,0.0168,0.4,270.37,-3.865,1.37,0.53,13.344,-0.032,-0.865,0,0,0,37.37,0,0,0,0,0,0,0,0,0,0,0,0,0,0,0,436.63,FLYING
437.41,APPROACH,ILS_TRACK,74.94,75,0.06,765.97,-3.93,6.92,9.69,270.37,-0.019,0.3272,0,18.928,1,0.6,4.5,0.75,0.35,0.0168,0.4,270.37,-3.774,1.33,0.85,13.277,-0.031,-0.774,0,0,0,37.37,0,0,0,0,0,0,0,0,0,0,0,0,0,0,0,437.45,FLYING
438.23,APPROACH,ILS_TRACK,74.74,75,0.26,762.7,-4.03,6.83,9.67,270.37,-0.018,0.3686,0,19.047,1,0.6,4.5,0.75,0.35,0.0168,0.4,270.37,-3.687,1.29,1.08,13.211,-0.03,-0.687,0,0,0,37.37,0,0,0,0,0,0,0,0,0,0,0,0,0,0,0,438.27,FLYING
439.05,APPROACH,ILS_TRACK,74.56,75,0.44,759.36,-4.12,6.85,9.76,270.37,-0.017,0.4043,0,19.257,1,0.6,4.5,0.75,0.35,0.0168,0.4,270.37,-3.612,1.25,1.23,13.144,-0.03,-0.612,0,0,0,37.37,0,0,0,0,0,0,0,0,0,0,0,0,0,0,0,439.09,FLYING
440.01,APPROACH,ILS_TRACK,74.41,75,0.59,755.36,-4.2,6.87,9.84,270.37,-0.014,0.4302,0,19.542,1,0.6,4.5,0.75,0.35,0.0168,0.4,270.37,-3.52,1.21,1.31,13.075,-0.028,-0.52,0,0,0,37.37,0,0,0,0,0,0,0,0,0,0,0,0,0,0,0,440.08,FLYING
441.58,APPROACH,ILS_TRACK,74.29,75,0.71,748.7,-4.28,6.9,9.95,270.37,-0.013,0.4524,0,19.896,1,0.6,4.5,0.75,0.35,0.0168,0.4,270.39,-3.372,1.14,1.3,12.955,-0.013,-0.372,0,0,0,37.37,0,0,0,0,0,0,0,0,0,0,0,0,0,0,0,441.66,FLYING
443.18,APPROACH,ILS_TRACK,74.32,75,0.68,741.82,-4.31,6.87,9.93,270.38,-0.014,0.4367,0,20,1,0.6,4.5,0.75,0.35,0.0168,0.4,270.39,-3.152,1.08,1.17,12.826,-0.011,-0.152,0,0,0,37.37,0,0,0,0,0,0,0,0,0,0,0,0,0,0,0,443.26,FLYING
444.78,APPROACH,ILS_TRACK,74.53,75,0.47,734.92,-4.3,6.77,9.82,270.38,-0.014,0.3865,0,20,1,0.6,4.5,0.75,0.35,0.0168,0.4,270.39,-3.07,1.02,1.03,12.697,-0.012,-0.07,0,0,0,37.37,0,0,0,0,0,0,0,0,0,0,0,0,0,0,0,444.86,FLYING
446.19,APPROACH,ILS_TRACK,74.84,75,0.16,728.84,-4.29,6.63,9.67,270.39,-0.016,0.3191,0,20,1,0.6,4.5,0.75,0.35,0.0168,0.4,270.39,-3.08,0.97,0.91,12.577,-0.015,-0.08,0,0,0,37.37,0,0,0,0,0,0,0,0,0,0,0,0,0,0,0,446.25,FLYING
447.39,APPROACH,ILS_TRACK,75.14,75,-0.14,723.67,-4.3,6.52,9.54,270.38,-0.014,0.2606,0,19.945,1,0.6,4.5,0.75,0.35,0.0168,0.4,270.38,-3.129,0.94,0.83,12.479,-0.02,-0.129,0,0,0,37.37,0,0,0,0,0,0,0,0,0,0,0,0,0,0,0,447.45,FLYING
448.59,APPROACH,ILS_TRACK,75.43,75,-0.43,718.5,-4.3,6.44,9.46,270.39,-0.012,0.2083,0,19.742,1,0.6,4.5,0.75,0.35,0.0168,0.4,270.38,-3.142,0.91,0.77,12.381,-0.021,-0.142,0,0,0,37.37,0,0,0,0,0,0,0,0,0,0,0,0,0,0,0,448.65,FLYING
449.79,APPROACH,ILS_TRACK,75.62,75,-0.62,713.33,-4.31,6.41,9.43,270.39,-0.011,0.1796,0,19.438,1,0.6,4.5,0.75,0.35,0.0168,0.4,270.38,-3.157,0.88,0.73,12.284,-0.021,-0.157,0,0,0,37.37,0,0,0,0,0,0,0,0,0,0,0,0,0,0,0,449.85,FLYING
450.99,APPROACH,ILS_TRACK,75.64,75,-0.64,708.16,-4.31,6.46,9.47,270.39,-0.01,0.1864,0,19.113,1,0.6,4.5,0.75,0.35,0.0168,0.4,270.38,-3.17,0.85,0.71,12.186,-0.021,-0.17,0,0,0,37.37,0,0,0,0,0,0,0,0,0,0,0,0,0,0,0,451.05,FLYING
452.19,APPROACH,ILS_TRACK,75.51,75,-0.51,703.01,-4.3,6.54,9.56,270.39,-0.01,0.2251,0,18.849,1,0.6,4.5,0.75,0.35,0.0168,0.4,270.38,-3.173,0.83,0.69,12.088,-0.022,-0.173,0,0,0,37.37,0,0,0,0,0,0,0,0,0,0,0,0,0,0,0,452.25,FLYING
453.39,APPROACH,ILS_TRACK,75.3,75,-0.3,697.87,-4.29,6.63,9.65,270.39,-0.01,0.2778,0,18.69,1,0.6,4.5,0.75,0.35,0.0168,0.4,270.38,-3.165,0.81,0.67,11.99,-0.022,-0.165,0,0,0,37.37,0,0,0,0,0,0,0,0,0,0,0,0,0,0,0,453.45,FLYING
454.59,APPROACH,ILS_TRACK,75.08,75,-0.08,692.75,-4.28,6.7,9.72,270.39,-0.009,0.3256,0,18.641,1,0.6,4.5,0.75,0.35,0.0168,0.4,270.38,-3.153,0.79,0.64,11.893,-0.022,-0.153,0,0,0,37.37,0,0,0,0,0,0,0,0,0,0,0,0,0,0,0,454.65,FLYING
455.79,APPROACH,ILS_TRACK,74.89,75,0.11,687.64,-4.26,6.76,9.78,270.39,-0.008,0.3624,0,18.686,1,0.6,4.5,0.75,0.35,0.0168,0.4,270.38,-3.141,0.77,0.61,11.795,-0.022,-0.141,0,0,0,37.37,0,0,0,0,0,0,0,0,0,0,0,0,0,0,0,455.85,FLYING
456.99,APPROACH,ILS_TRACK,74.76,75,0.24,682.53,-4.25,6.8,9.81,270.39,-0.008,0.385,0,18.801,1,0.6,4.5,0.75,0.35,0.0168,0.4,270.38,-3.13,0.76,0.59,11.699,-0.023,-0.13,0,0,0,37.37,0,0,0,0,0,0,0,0,0,0,0,0,0,0,0,457.05,FLYING
458.19,APPROACH,ILS_TRACK,74.7,75,0.3,677.44,-4.24,6.8,9.81,270.39,-0.007,0.3919,0,18.951,1,0.6,4.5,0.75,0.35,0.0168,0.4,270.38,-3.123,0.74,0.56,11.602,-0.023,-0.123,0,0,0,37.37,0,0,0,0,0,0,0,0,0,0,0,0,0,0,0,458.25,FLYING
459.39,APPROACH,ILS_TRACK,74.71,75,0.29,672.35,-4.23,6.78,9.79,270.4,-0.007,0.3833,0,19.1,1,0.6,4.5,0.75,0.35,0.0168,0.4,270.38,-3.12,0.73,0.53,11.505,-0.023,-0.12,0,0,0,37.37,0,0,0,0,0,0,0,0,0,0,0,0,0,0,0,459.45,FLYING
460.59,APPROACH,ILS_TRACK,74.79,75,0.21,667.27,-4.23,6.73,9.73,270.4,-0.008,0.3609,0,19.211,1,0.6,4.5,0.75,0.35,0.0168,0.4,270.38,-3.121,0.72,0.51,11.409,-0.024,-0.121,0,0,0,37.37,0,0,0,0,0,0,0,0,0,0,0,0,0,0,0,460.65,FLYING
461.79,APPROACH,ILS_TRACK,74.93,75,0.07,662.18,-4.23,6.66,9.66,270.4,-0.006,0.3279,0,19.253,1,0.6,4.5,0.75,0.35,0.0168,0.4,270.38,-3.127,0.71,0.5,11.312,-0.024,-0.127,0,0,0,37.37,0,0,0,0,0,0,0,0,0,0,0,0,0,0,0,461.85,FLYING
462.99,APPROACH,ILS_TRACK,75.12,75,-0.12,657.1,-4.23,6.59,9.58,270.4,-0.005,0.2882,0,19.201,1,0.6,4.5,0.75,0.35,0.0168,0.4,270.38,-3.135,0.7,0.49,11.215,-0.024,-0.135,0,0,0,37.37,0,0,0,0,0,0,0,0,0,0,0,0,0,0,0,463.05,FLYING
