t_s,phase,subphase,ias_ms,vapp_ms,spd_err_ms,agl_m,vs_ms,pitch_deg,aoa_deg,hdg_deg,bank_deg,thr_cmd,thr_cur,thr_intg,at_gain,at_tau_s,at_a_up,at_a_dn,at_kp_thr,at_ki_spd,at_thr_slew,aa_hdg_cmd_deg,aa_fpa_cmd_deg,aa_fbw,aa_dir,actual_fpa_deg,ftf_hdg_err_deg,ftf_fix_idx,kos_steer_pit_deg,kos_steer_hdg_deg,aa_dir_vx,aa_dir_vy,aa_dir_vz,aa_dir_pitch_deg,aa_dir_hdg_deg,ils_loc_m,ils_gs_m,ils_dist_km,loc_corr_deg,gs_corr_deg,flare_fpa_cmd,flare_tgt_vs,flare_frac,steer_hdg_deg,steer_blend,ro_loc_corr_deg,ro_hdg_err_deg,ro_yaw_tgt,ro_yaw_scale,ro_yaw_gate,yaw_cmd,roll_cmd,pitch_cmd,ro_pitch_tgt_deg,ro_pitch_err_deg,ro_pitch_ff,ro_roll_assist,flaps_cur,flaps_tgt,asc_j_ab,asc_j_rk,asc_validity,asc_q_pa,asc_q_raw_pa,asc_mach,asc_apo_m,asc_drag_n,asc_w_prop,asc_edot_aero,asc_edot_orb,asc_pitch_bias,asc_blend,asc_spooling,asc_ab_thr_ratio,asc_ab_t_now,asc_ab_t_avail,asc_ab_ign_on,asc_ab_flameouts,asc_rk_t_now,asc_rk_t_avail,asc_rk_ign_on,asc_rk_flameouts,ship_thrust,ship_avail_thrust,ship_ign_on,ship_flameouts,ifc_raw_dt_s,ifc_dt_s,ifc_loop_n,ifc_hz_est,ifc_raw_dt_max_s,ifc_raw_dt_min_s,phase_el_s,status
1.24,APPROACH,FLY_TO_FIX,242.1,140.8,-101.3,1220.8,-6.15,3.44,5.16,267.4,-4.197,0,0,0,1,0.6,0.9,0.75,0.35,0.0168,0.4,255.81,0.602,1,0,-1.45,11.6,0,-0.02,90,0.6557,-0.2432,0.7148,5.48,255.81,0,0,54.67,0,0,0,0,0,267.56,0,0,0,0,0,0,0,0,0,0,0,0,0,0,0,0,0,VALID,0,0,0,0,0,1,0,0,0,0,0,0,0,0,0,0,0,0,0,0,280.22,3873.29,6,0,0.94,0.5,1,1.89,0.94,0.02,1.28,FLYING
2,APPROACH,FLY_TO_FIX,241.83,141.6,-100.23,1216.35,-5.59,3.51,5.02,266.88,-4.198,0,0,0,1,0.6,1.404,0.75,0.35,0.0168,0.4,255.71,0.623,0,1,-1.35,11.17,0,5.49,255.81,0.6545,-0.2447,0.7154,5.56,255.71,0,0,54.479,0,0,0,0,0,267.56,0,0,0,0,0,0,0,0,0,0,0,0,0,0,0,0,0,VALID,0,0,0,0,0,1,0,0,0,0,0,0,0,0,0,0,0,0,0,0,212.63,3870.57,6,0,0.72,0.5,2,1.32,0.94,0.72,2.04,FLYING
2.78,APPROACH,FLY_TO_FIX,241.51,142.4,-99.11,1212.59,-4.8,4.01,5.47,265.06,-4.249,0,0,0,1,0.6,2.022,0.75,0.35,0.0168,0.4,255.62,0.643,0,1,-1.25,9.43,0,5.58,255.71,0.648,-0.2459,0.7208,6.06,255.62,0,0,54.283,0,0,0,0,0,267.56,0,0,0,0,0,0,0,0,0,0,0,0,0,0,0,0,0,VALID,0,0,0,0,0,1,0,0,0,0,0,0,0,0,0,0,0,0,0,0,161.37,3867.51,6,0,0.78,0.5,3,1.28,0.78,0.72,2.82,FLYING
3.54,APPROACH,FLY_TO_FIX,240.96,143.2,-97.76,1209.94,-3.46,4.46,5.93,263.4,-4.416,0,0,0,1,0.6,2.59,0.75,0.35,0.0168,0.4,255.53,0.658,0,1,-0.96,7.87,0,6.08,255.62,0.6432,-0.2472,0.7247,6.43,255.53,0,0,54.092,0,0,0,0,0,267.56,0,0,0,0,0,0,0,0,0,0,0,0,0,0,0,0,0,VALID,0,0,0,0,0,1,0,0,0,0,0,0,0,0,0,0,0,0,0,0,122.4,3861.61,6,0,0.76,0.5,4,1.32,0.78,0.76,3.58,FLYING
4.3,APPROACH,FLY_TO_FIX,240.05,144,-96.05,1208.81,-1.22,5.44,6.41,262.1,-4.508,0,0,0,1,0.6,3.11,0.75,0.35,0.0168,0.4,255.45,0.665,0,1,-0.54,6.66,0,6.45,255.53,0.6358,-0.2483,0.7308,6.99,255.45,0,0,53.902,0,0,0,0,0,267.56,0,0,0,0,0,0,0,0,0,0,0,0,0,0,0,0,0,VALID,0,0,0,0,0,1,0,0,0,0,0,0,0,0,0,0,0,0,0,0,92.76,3851.52,6,0,0.76,0.5,5,1.32,0.76,0.76,4.34,FLYING
5.06,APPROACH,FLY_TO_FIX,238.79,144.8,-93.99,1209.72,1.56,6.37,6.9,261.18,-4.615,0,0,-20,1,0.6,3.586,0.75,0.35,0.0168,0.4,255.36,0.663,0,1,0.05,5.83,0,7.01,255.44,0.6293,-0.2494,0.736,7.49,255.36,0,0,53.713,0,0,0,0,0,267.56,0,0,0,0,0,0,0,0,0,0,0,0,0,0,0,0,0,VALID,0,0,0,0,0,1,0,0,0,0,0,0,0,0,0,0,0,0,0,0,69.71,3836.72,6,0,0.76,0.5,6,1.32,0.76,0.76,5.1,FLYING
5.82,APPROACH,FLY_TO_FIX,237.2,145.6,-91.6,1212.8,4.79,7.38,7.04,260.67,-4.736,0,0,-19.9,1,0.6,4.021,0.75,0.35,0.0168,0.4,255.27,0.651,0,1,0.81,5.4,0,7.5,255.36,0.6267,-0.2506,0.7379,7.68,255.27,0,0,53.525,0,0,0,0,0,267.56,0,0,0,0,0,0,0,0,0,0,0,0,0,0,0,0,0,VALID,0,0,0,0,0,1,0,0,0,0,0,0,0,0,0,0,0,0,0,0,53.12,3818.94,6,0,0.76,0.5,7,1.32,0.76,0.76,5.86,FLYING
6.56,APPROACH,FLY_TO_FIX,235.5,146.4,-89.1,1218.03,7.81,8.14,6.96,260.28,-4.773,0.0296,0,-20,1,0.6,4.417,0.783,0.35,0.0168,0.4,255.19,0.627,0,1,1.56,5.09,0,7.7,255.27,0.6269,-0.252,0.7373,7.67,255.19,0,0,53.343,0,0,0,0,0,267.56,0,0,0,0,0,0,0,0,0,0,0,0,0,0,0,0,0,VALID,0,0,0,0,0,1,0,0,0,0,0,0,0,0,0,0,0,0,0,0,40.16,3798.57,6,0,0.74,0.5,8,1.35,0.76,0.74,6.6,FLYING
7.32,APPROACH,FLY_TO_FIX,233.74,147.2,-86.54,1225.2,10.25,8.67,6.52,260.11,-2.389,0.128,0,-20,1,0.6,4.5,0.848,0.35,0.0168,0.4,255.11,0.593,0,1,2.26,4.99,0,7.68,255.19,0.6327,-0.2537,0.7316,7.22,255.11,0,0,53.158,0,0,0,0,0,267.56,0,0,0,0,0,0,0,0,0,0,0,0,0,0,0,0,0,VALID,0,0,0,0,0,1,0,0,0,0,0,0,0,0,0,0,0,0,0,0,49.61,3777.97,6,0,0.76,0.5,9,1.32,0.76,0.74,7.36,FLYING
8.1,APPROACH,FLY_TO_FIX,232.08,148,-84.08,1234.02,12.17,8.85,6.04,260.03,-1.522,0.2097,0,-20,1,0.6,4.5,0.848,0.35,0.0168,0.4,255.03,0.551,0,1,2.81,5,0,7.23,255.11,0.6387,-0.2554,0.7258,6.76,255.03,0,0,52.969,0,0,0,0,0,267.56,0,0,0,0,0,0,0,0,0,0,0,0,0,0,0,0,0,VALID,0,0,0,0,0,1,0,0,0,0,0,0,0,0,0,0,0,0,0,0,109.08,3758.82,6,0,0.78,0.5,10,1.28,0.78,0.76,8.14,FLYING
8.86,APPROACH,FLY_TO_FIX,230.77,148.8,-81.97,1243.35,13.03,8.57,5.38,259.85,-1.236,0.2296,0,-20,1,0.6,4.5,0.848,0.35,0.0168,0.4,254.95,0.504,0,1,3.15,4.89,0,6.77,255.03,0.6477,-0.2571,0.7172,6.05,254.95,0,0,52.785,0,0,0,0,0,267.56,0,0,0,0,0,0,0,0,0,0,0,0,0,0,0,0,0,VALID,0,0,0,0,0,1,0,0,0,0,0,0,0,0,0,0,0,0,0,0,203.13,3742.88,6,0,0.76,0.5,11,1.32,0.78,0.76,8.9,FLYING
9.6,APPROACH,FLY_TO_FIX,229.84,149,-80.84,1252.79,12.94,7.95,4.68,259.63,-1.091,0.1887,0,-20,1,0.6,4.5,0.848,0.35,0.0168,0.4,254.88,0.457,0,1,3.25,4.75,0,6.07,254.95,0.6575,-0.2589,0.7075,5.28,254.88,0,0,52.603,0,0,0,0,0,267.56,0,0,0,0,0,0,0,0,0,0,0,0,0,0,0,0,0,VALID,0,0,0,0,0,1,0,0,0,0,0,0,0,0,0,0,0,0,0,0,294.64,3731.19,6,0,0.76,0.5,12,1.32,0.76,0.76,9.66,FLYING
10.36,APPROACH,FLY_TO_FIX,229.25,149,-80.25,1261.64,11.94,7.16,3.99,259.41,-0.647,0.1109,0,-20,1,0.6,4.5,0.848,0.35,0.0168,0.4,254.8,0.412,0,1,3.11,4.61,0,5.3,254.88,0.6667,-0.2606,0.6983,4.55,254.8,0,0,52.421,0,0,0,0,0,267.56,0,0,0,0,0,0,0,0,0,0,0,0,0,0,0,0,0,VALID,0,0,0,0,0,1,0,0,0,0,0,0,0,0,0,0,0,0,0,0,352.26,3723.38,6,0,0.76,0.5,13,1.32,0.76,0.76,10.42,FLYING
11.12,APPROACH,FLY_TO_FIX,228.98,149,-79.98,1269.3,9.97,6.22,3.46,259.18,-0.209,0.0038,0,-20,1,0.6,4.5,0.848,0.35,0.0168,0.4,254.73,0.372,0,1,2.74,4.46,0,4.57,254.8,0.6744,-0.2621,0.6903,3.93,254.73,0,0,52.24,0,0,0,0,0,267.56,0,0,0,0,0,0,0,0,0,0,0,0,0,0,0,0,0,VALID,0,0,0,0,0,1,0,0,0,0,0,0,0,0,0,0,0,0,0,0,361.43,3719.28,6,0,0.76,0.5,14,1.32,0.76,0.76,11.18,FLYING
11.9,APPROACH,FLY_TO_FIX,228.83,149,-79.83,1275.17,7.32,5.26,3.11,258.94,0.103,0,0,-19.9,1,0.6,4.5,0.88,0.35,0.0168,0.4,254.65,0.34,0,1,2.14,4.29,0,3.95,254.73,0.6796,-0.2636,0.6846,3.5,254.65,0,0,52.059,0,0,0,0,0,267.56,0,0,0,0,0,0,0,0,0,0,0,0,0,0,0,0,0,VALID,0,0,0,0,0,1,0,0,0,0,0,0,0,0,0,0,0,0,0,0,279.61,3716.65,6,0,0.76,0.5,15,1.32,0.76,0.76,11.94,FLYING
12.66,APPROACH,FLY_TO_FIX,228.67,149,-79.67,1279.01,4.38,4.39,3,258.69,0.209,0,0,-19.8,1,0.6,4.5,0.901,0.35,0.0168,0.4,254.58,0.319,0,1,1.43,4.11,0,3.52,254.65,0.6817,-0.2649,0.682,3.33,254.58,0,0,51.877,0,0,0,0,0,267.56,0,0,0,0,0,0,0,0,0,0,0,0,0,0,0,0,0,VALID,0,0,0,0,0,1,0,0,0,0,0,0,0,0,0,0,0,0,0,0,212.23,3714.25,6,0,0.76,0.5,16,1.32,0.76,0.76,12.7,FLYING
13.42,APPROACH,FLY_TO_FIX,228.51,149,-79.51,1280.77,1.44,3.71,3.13,258.43,0.278,0,0,-19.701,1,0.6,4.5,0.913,0.35,0.0168,0.4,254.51,0.307,0,1,0.69,3.92,0,3.34,254.58,0.6812,-0.2661,0.6821,3.37,254.51,0,0,51.696,0,0,0,0,0,267.56,0,0,0,0,0,0,0,0,0,0,0,0,0,0,0,0,0,VALID,0,0,0,0,0,1,0,0,0,0,0,0,0,0,0,0,0,0,0,0,161.08,3712.07,6,0,0.76,0.5,17,1.32,0.76,0.76,13.46,FLYING
14.18,APPROACH,FLY_TO_FIX,228.34,149,-79.34,1280.56,-1.23,3.28,3.42,258.18,0.33,0,0,-19.603,1,0.6,4.5,0.918,0.35,0.0168,0.4,254.44,0.306,0,1,-0.02,3.74,0,3.38,254.51,0.6782,-0.2672,0.6846,3.6,254.44,0,0,51.515,0,0,0,0,0,267.56,0,0,0,0,0,0,0,0,0,0,0,0,0,0,0,0,0,VALID,0,0,0,0,0,1,0,0,0,0,0,0,0,0,0,0,0,0,0,0,122.29,3710.07,6,0,0.76,0.5,18,1.32,0.76,0.76,14.22,FLYING
14.94,APPROACH,FLY_TO_FIX,228.15,149,-79.15,1278.68,-3.4,3.08,3.83,257.93,0.324,0,0,-19.505,1,0.6,4.5,0.917,0.35,0.0168,0.4,254.37,0.314,0,1,-0.62,3.56,0,3.62,254.44,0.6732,-0.2682,0.6892,4.01,254.37,0,0,51.334,0,0,0,0,0,267.56,0,0,0,0,0,0,0,0,0,0,0,0,0,0,0,0,0,VALID,0,0,0,0,0,1,0,0,0,0,0,0,0,0,0,0,0,0,0,0,92.86,3708.02,6,0,0.76,0.5,19,1.32,0.76,0.76,14.98,FLYING
15.7,APPROACH,FLY_TO_FIX,227.9,149,-78.9,1275.6,-4.92,3.11,4.35,257.7,0.295,0,0,-19.407,1,0.6,4.5,0.914,0.35,0.0168,0.4,254.3,0.328,0,1,-1.08,3.4,0,4.03,254.37,0.6669,-0.2691,0.6949,4.51,254.3,0,0,51.154,0,0,0,0,0,267.56,0,0,0,0,0,0,0,0,0,0,0,0,0,0,0,0,0,VALID,0,0,0,0,0,1,0,0,0,0,0,0,0,0,0,0,0,0,0,0,70.52,3705.4,6,0,0.76,0.5,20,1.32,0.76,0.76,15.74,FLYING
16.46,APPROACH,FLY_TO_FIX,227.53,149,-78.53,1271.86,-5.65,3.44,4.95,257.46,0.21,0,0,-19.31,1,0.6,4.5,0.91,0.35,0.0168,0.4,254.23,0.346,0,1,-1.35,3.23,0,4.53,254.3,0.6591,-0.2699,0.702,5.13,254.23,0,0,50.974,0,0,0,0,0,267.56,0,0,0,0,0,0,0,0,0,0,0,0,0,0,0,0,0,VALID,0,0,0,0,0,1,0,0,0,0,0,0,0,0,0,0,0,0,0,0,53.55,3701.56,6,0,0.76,0.5,21,1.32,0.76,0.76,16.5,FLYING
17.22,APPROACH,FLY_TO_FIX,226.98,149,-77.98,1268,-5.54,3.99,5.49,257.25,0.262,0,0,-19.214,1,0.6,4.5,0.909,0.35,0.0168,0.4,254.16,0.365,0,1,-1.43,3.09,0,5.14,254.23,0.6512,-0.2706,0.709,5.75,254.16,0,0,50.794,0,0,0,0,0,267.56,0,0,0,0,0,0,0,0,0,0,0,0,0,0,0,0,0,VALID,0,0,0,0,0,1,0,0,0,0,0,0,0,0,0,0,0,0,0,0,40.65,3695.73,6,0,0.76,0.5,22,1.32,0.76,0.76,17.26,FLYING
17.98,APPROACH,FLY_TO_FIX,226.26,149,-77.26,1264.58,-4.77,4.64,6.03,257.06,0.261,0,0,-19.118,1,0.6,4.5,0.914,0.35,0.0168,0.4,254.1,0.383,0,1,-1.31,2.97,0,5.76,254.16,0.644,-0.2714,0.7153,6.31,254.1,0,0,50.615,0,0,0,0,0,267.56,0,0,0,0,0,0,0,0,0,0,0,0,0,0,0,0,0,VALID,0,0,0,0,0,1,0,0,0,0,0,0,0,0,0,0,0,0,0,0,30.84,3687.79,6,0,0.76,0.5,23,1.32,0.76,0.76,18.02,FLYING
18.74,APPROACH,FLY_TO_FIX,225.35,149,-76.35,1261.97,-3.42,5.35,6.4,256.87,0.221,0,0,-19.022,1,0.6,4.5,0.925,0.35,0.0168,0.4,254.03,0.397,0,1,-1.03,2.84,0,6.33,254.1,0.6385,-0.2722,0.7199,6.74,254.03,0,0,50.437,0,0,0,0,0,267.56,0,0,0,0,0,0,0,0,0,0,0,0,0,0,0,0,0,VALID,0,0,0,0,0,1,0,0,0,0,0,0,0,0,0,0,0,0,0,0,23.39,3677.58,6,0,0.76,0.5,24,1.32,0.76,0.76,18.78,FLYING
19.5,APPROACH,FLY_TO_FIX,224.26,149,-75.26,1260.51,-1.75,6.03,6.71,256.7,0.289,0,0,-18.927,1,0.6,4.5,0.946,0.35,0.0168,0.4,253.97,0.406,0,1,-0.65,2.74,0,6.76,254.03,0.6341,-0.273,0.7235,7.08,253.97,0,0,50.259,0,0,0,0,0,267.56,0,0,0,0,0,0,0,0,0,0,0,0,0,0,0,0,0,VALID,0,0,0,0,0,1,0,0,0,0,0,0,0,0,0,0,0,0,0,0,17.73,3665.1,6,0,0.76,0.5,25,1.32,0.76,0.76,19.54,FLYING
20.26,APPROACH,FLY_TO_FIX,223.03,149,-74.03,1260.31,0.09,6.63,6.79,256.53,0.263,0,0,-18.832,1,0.6,4.5,0.976,0.35,0.0168,0.4,253.9,0.409,0,1,-0.18,2.63,0,7.09,253.96,0.6327,-0.274,0.7243,7.18,253.9,0,0,50.082,0,0,0,0,0,267.56,0,0,0,0,0,0,0,0,0,0,0,0,0,0,0,0,0,VALID,0,0,0,0,0,1,0,0,0,0,0,0,0,0,0,0,0,0,0,0,13.44,3650.71,6,0,0.76,0.5,26,1.32,0.76,0.76,20.3,FLYING
21.02,APPROACH,FLY_TO_FIX,221.73,149,-72.73,1261.36,1.87,7.09,6.75,256.37,0.277,0,0,-18.738,1,0.6,4.5,1.013,0.35,0.0168,0.4,253.84,0.405,0,1,0.28,2.53,0,7.2,253.9,0.6327,-0.2751,0.7239,7.18,253.84,0,0,49.907,0,0,0,0,0,267.56,0,0,0,0,0,0,0,0,0,0,0,0,0,0,0,0,0,VALID,0,0,0,0,0,1,0,0,0,0,0,0,0,0,0,0,0,0,0,0,10.18,3635.27,6,0,0.76,0.5,27,1.32,0.76,0.76,21.06,FLYING
21.78,APPROACH,FLY_TO_FIX,220.41,149,-71.41,1263.54,3.39,7.37,6.57,256.2,0.292,0,0,-18.645,1,0.6,4.5,1.057,0.35,0.0168,0.4,253.77,0.395,0,1,0.72,2.43,0,7.2,253.84,0.6348,-0.2763,0.7216,7.02,253.77,0,0,49.732,0,0,0,0,0,267.56,0,0,0,0,0,0,0,0,0,0,0,0,0,0,0,0,0,VALID,0,0,0,0,0,1,0,0,0,0,0,0,0,0,0,0,0,0,0,0,7.71,3619.39,6,0,0.76,0.5,28,1.32,0.76,0.76,21.82,FLYING
22.54,APPROACH,FLY_TO_FIX,219.1,149,-70.1,1266.64,4.59,7.48,6.31,256.03,0.297,0,0,-20,1,0.6,4.5,1.106,0.35,0.0168,0.4,253.71,0.381,0,1,1.07,2.32,0,7.04,253.77,0.638,-0.2775,0.7183,6.77,253.71,0,0,49.558,0,0,0,0,0,267.56,0,0,0,0,0,0,0,0,0,0,0,0,0,0,0,0,0,VALID,0,0,0,0,0,1,0,0,0,0,0,0,0,0,0,0,0,0,0,0,5.8,3602.96,6,0,0.76,0.5,29,1.32,0.76,0.76,22.58,FLYING
23.32,APPROACH,FLY_TO_FIX,217.81,149,-68.81,1270.39,5.26,7.38,6.01,255.84,0.197,0.0229,0,-20,1,0.6,4.5,1.158,0.35,0.0168,0.4,253.65,0.363,0,1,1.32,2.2,0,6.78,253.71,0.6422,-0.2788,0.7141,6.44,253.65,0,0,49.381,0,0,0,0,0,267.56,0,0,0,0,0,0,0,0,0,0,0,0,0,0,0,0,0,VALID,0,0,0,0,0,1,0,0,0,0,0,0,0,0,0,0,0,0,0,0,4.37,3587.07,6,0,0.78,0.5,30,1.28,0.78,0.76,23.36,FLYING
24.08,APPROACH,FLY_TO_FIX,216.63,149,-67.63,1274.28,5.44,7.17,5.68,255.66,0.188,0.0181,0,-20,1,0.6,4.5,1.209,0.35,0.0168,0.4,253.59,0.343,0,1,1.42,2.07,0,6.46,253.65,0.6462,-0.28,0.7099,6.13,253.59,0,0,49.209,0,0,0,0,0,267.56,0,0,0,0,0,0,0,0,0,0,0,0,0,0,0,0,0,VALID,0,0,0,0,0,1,0,0,0,0,0,0,0,0,0,0,0,0,0,0,15.01,3572.43,6,0,0.76,0.5,31,1.32,0.78,0.76,24.12,FLYING
24.84,APPROACH,FLY_TO_FIX,215.54,149,-66.54,1278.07,5.19,6.87,5.41,255.47,0.179,0,0,-19.9,1,0.6,4.5,1.258,0.35,0.0168,0.4,253.53,0.324,0,1,1.41,1.95,0,6.14,253.59,0.6502,-0.2812,0.7057,5.81,253.53,0,0,49.038,0,0,0,0,0,267.56,0,0,0,0,0,0,0,0,0,0,0,0,0,0,0,0,0,VALID,0,0,0,0,0,1,0,0,0,0,0,0,0,0,0,0,0,0,0,0,21.82,3559.22,6,0,0.76,0.5,32,1.32,0.76,0.76,24.88,FLYING
25.62,APPROACH,FLY_TO_FIX,214.54,149,-65.54,1281.56,4.52,6.47,5.15,255.27,0.194,0,0,-19.8,1,0.6,4.5,1.303,0.35,0.0168,0.4,253.47,0.306,0,1,1.29,1.81,0,5.82,253.53,0.6538,-0.2824,0.702,5.53,253.47,0,0,48.863,0,0,0,0,0,267.56,0,0,0,0,0,0,0,0,0,0,0,0,0,0,0,0,0,VALID,0,0,0,0,0,1,0,0,0,0,0,0,0,0,0,0,0,0,0,0,16.64,3546.52,6,0,0.78,0.5,33,1.28,0.78,0.76,25.66,FLYING
26.38,APPROACH,FLY_TO_FIX,213.64,149,-64.64,1284.36,3.57,6.09,5.04,255.08,0.161,0,0,-19.701,1,0.6,4.5,1.344,0.35,0.0168,0.4,253.41,0.291,0,1,1.07,1.67,0,5.55,253.46,0.656,-0.2835,0.6995,5.35,253.41,0,0,48.694,0,0,0,0,0,267.56,0,0,0,0,0,0,0,0,0,0,0,0,0,0,0,0,0,VALID,0,0,0,0,0,1,0,0,0,0,0,0,0,0,0,0,0,0,0,0,12.59,3535.24,6,0,0.76,0.5,34,1.32,0.78,0.76,26.42,FLYING
27.14,APPROACH,FLY_TO_FIX,212.8,149,-63.8,1286.4,2.48,5.75,4.99,254.88,0.127,0,0,-19.603,1,0.6,4.5,1.379,0.35,0.0168,0.4,253.35,0.28,0,1,0.8,1.53,0,5.37,253.41,0.6569,-0.2845,0.6983,5.28,253.35,0,0,48.525,0,0,0,0,0,267.56,0,0,0,0,0,0,0,0,0,0,0,0,0,0,0,0,0,VALID,0,0,0,0,0,1,0,0,0,0,0,0,0,0,0,0,0,0,0,0,9.54,3524.67,6,0,0.76,0.5,35,1.32,0.76,0.76,27.18,FLYING
27.9,APPROACH,FLY_TO_FIX,212.01,149,-63.01,1287.68,1.36,5.48,5.06,254.68,0.109,0,0,-19.505,1,0.6,4.5,1.408,0.35,0.0168,0.4,253.29,0.273,0,1,0.5,1.38,0,5.3,253.35,0.6567,-0.2855,0.698,5.29,253.29,0,0,48.357,0,0,0,0,0,267.56,0,0,0,0,0,0,0,0,0,0,0,0,0,0,0,0,0,VALID,0,0,0,0,0,1,0,0,0,0,0,0,0,0,0,0,0,0,0,0,7.22,3514.76,6,0,0.76,0.5,36,1.32,0.76,0.76,27.94,FLYING
28.66,APPROACH,FLY_TO_FIX,211.26,149,-62.26,1288.17,0.28,5.31,5.18,254.48,0.12,0,0,-19.407,1,0.6,4.5,1.433,0.35,0.0168,0.4,253.24,0.269,0,1,0.21,1.24,0,5.31,253.29,0.6553,-0.2863,0.6989,5.4,253.24,0,0,48.19,0,0,0,0,0,267.56,0,0,0,0,0,0,0,0,0,0,0,0,0,0,0,0,0,VALID,0,0,0,0,0,1,0,0,0,0,0,0,0,0,0,0,0,0,0,0,5.47,3505.44,6,0,0.76,0.5,37,1.32,0.76,0.76,28.7,FLYING
29.42,APPROACH,FLY_TO_FIX,210.54,149,-61.54,1287.99,-0.65,5.23,5.39,254.29,0.132,0,0,-19.31,1,0.6,4.5,1.454,0.35,0.0168,0.4,253.18,0.27,0,1,-0.06,1.1,0,5.42,253.24,0.653,-0.2871,0.7008,5.59,253.18,0,0,48.023,0,0,0,0,0,267.56,0,0,0,0,0,0,0,0,0,0,0,0,0,0,0,0,0,VALID,0,0,0,0,0,1,0,0,0,0,0,0,0,0,0,0,0,0,0,0,4.15,3496.46,6,0,0.76,0.5,38,1.32,0.76,0.76,29.46,FLYING
30.18,APPROACH,FLY_TO_FIX,209.8,149,-60.8,1287.29,-1.35,5.28,5.66,254.09,0.047,0,0,-19.214,1,0.6,4.5,1.471,0.35,0.0168,0.4,253.13,0.273,0,1,-0.29,0.96,0,5.6,253.18,0.6498,-0.2879,0.7035,5.84,253.13,0,0,47.857,0,0,0,0,0,267.56,0,0,0,0,0,0,0,0,0,0,0,0,0,0,0,0,0,VALID,0,0,0,0,0,1,0,0,0,0,0,0,0,0,0,0,0,0,0,0,3.15,3487.34,6,0,0.76,0.5,39,1.32,0.76,0.76,30.22,FLYING
30.94,APPROACH,FLY_TO_FIX,209,149,-60,1286.27,-1.68,5.44,5.94,253.9,0.036,0,0,-19.118,1,0.6,4.5,1.487,0.35,0.0168,0.4,253.07,0.277,0,1,-0.43,0.83,0,5.86,253.13,0.646,-0.2886,0.7067,6.14,253.07,0,0,47.691,0,0,0,0,0,267.56,0,0,0,0,0,0,0,0,0,0,0,0,0,0,0,0,0,VALID,0,0,0,0,0,1,0,0,0,0,0,0,0,0,0,0,0,0,0,0,2.39,3477.55,6,0,0.76,0.5,40,1.32,0.76,0.76,30.98,FLYING
31.7,APPROACH,FLY_TO_FIX,208.15,149,-59.15,1285.15,-1.76,5.68,6.22,253.72,0.049,0,0,-19.022,1,0.6,4.5,1.501,0.35,0.0168,0.4,253.02,0.283,0,1,-0.48,0.7,0,6.15,253.07,0.6422,-0.2892,0.7099,6.43,253.02,0,0,47.527,0,0,0,0,0,267.56,0,0,0,0,0,0,0,0,0,0,0,0,0,0,0,0,0,VALID,0,0,0,0,0,1,0,0,0,0,0,0,0,0,0,0,0,0,0,0,1.81,3467.11,6,0,0.76,0.5,41,1.32,0.76,0.76,31.74,FLYING
32.46,APPROACH,FLY_TO_FIX,207.25,149,-58.25,1284.1,-1.58,5.97,6.49,253.54,0.031,0,0,-18.927,1,0.6,4.5,1.516,0.35,0.0168,0.4,252.97,0.288,0,1,-0.47,0.57,0,6.45,253.02,0.6383,-0.2899,0.7131,6.74,252.97,0,0,47.362,0,0,0,0,0,267.56,0,0,0,0,0,0,0,0,0,0,0,0,0,0,0,0,0,VALID,0,0,0,0,0,1,0,0,0,0,0,0,0,0,0,0,0,0,0,0,1.37,3455.93,6,0,0.76,0.5,42,1.32,0.76,0.76,32.5,FLYING
33.22,APPROACH,FLY_TO_FIX,206.27,149,-57.27,1283.28,-1.22,6.29,6.75,253.38,0.061,0,0,-18.832,1,0.6,4.5,1.533,0.35,0.0168,0.4,252.92,0.293,0,1,-0.39,0.46,0,6.75,252.97,0.6352,-0.2905,0.7156,6.98,252.92,0,0,47.199,0,0,0,0,0,267.56,0,0,0,0,0,0,0,0,0,0,0,0,0,0,0,0,0,VALID,0,0,0,0,0,1,0,0,0,0,0,0,0,0,0,0,0,0,0,0,1.04,3443.82,6,0,0.76,0.5,43,1.32,0.76,0.76,33.26,FLYING
33.98,APPROACH,FLY_TO_FIX,205.23,149,-56.23,1282.79,-0.68,6.63,6.91,253.21,0.037,0,0,-18.738,1,0.6,4.5,1.552,0.35,0.0168,0.4,252.87,0.296,0,1,-0.26,0.34,0,7,252.92,0.6327,-0.2912,0.7175,7.17,252.87,0,0,47.037,0,0,0,0,0,267.56,0,0,0,0,0,0,0,0,0,0,0,0,0,0,0,0,0,VALID,0,0,0,0,0,1,0,0,0,0,0,0,0,0,0,0,0,0,0,0,0.79,3430.77,6,0,0.76,0.5,44,1.32,0.76,0.76,34.02,FLYING
34.74,APPROACH,FLY_TO_FIX,204.12,149,-55.12,1282.74,-0.04,6.92,7.05,253.05,0.027,0,0,-18.645,1,0.6,4.5,1.573,0.35,0.0168,0.4,252.82,0.296,0,1,-0.1,0.23,0,7.19,252.87,0.6307,-0.2919,0.719,7.33,252.82,0,0,46.875,0,0,0,0,0,267.56,0,0,0,0,0,0,0,0,0,0,0,0,0,0,0,0,0,VALID,0,0,0,0,0,1,0,0,0,0,0,0,0,0,0,0,0,0,0,0,0.51,3416.86,6,0,0.76,0.5,45,1.32,0.76,0.76,34.78,FLYING
35.5,APPROACH,FLY_TO_FIX,202.97,149,-53.97,1283.14,0.61,7.2,7.12,252.9,0.056,0,0,-18.551,1,0.6,4.5,1.597,0.35,0.0168,0.4,252.78,0.295,0,1,0.09,0.12,0,7.34,252.82,0.6299,-0.2926,0.7194,7.4,252.78,0,0,46.715,0,0,0,0,0,267.56,0,0,0,0,0,0,0,0,0,0,0,0,0,0,0,0,0,VALID,0,0,0,0,0,1,0,0,0,0,0,0,0,0,0,0,0,0,0,0,0.39,3402.34,6,0,0.76,0.5,46,1.32,0.76,0.76,35.54,FLYING
36.26,APPROACH,FLY_TO_FIX,201.79,149,-52.79,1284,1.26,7.4,7.11,252.74,-0.007,0,0,-18.459,1,0.6,4.5,1.623,0.35,0.0168,0.4,252.73,0.291,0,1,0.28,0.01,0,7.41,252.78,0.6297,-0.2934,0.7193,7.41,252.73,0,0,46.555,0,0,0,0,0,267.56,0,0,0,0,0,0,0,0,0,0,0,0,0,0,0,0,0,VALID,0,0,0,0,0,1,0,0,0,0,0,0,0,0,0,0,0,0,0,0,0.29,3387.35,6,0,0.76,0.5,47,1.32,0.76,0.76,36.3,FLYING
37.02,APPROACH,FLY_TO_FIX,200.6,149,-51.6,1285.26,1.76,7.54,7.09,252.58,-0.028,0,0,-18.366,1,0.6,4.5,1.651,0.35,0.0168,0.4,252.68,0.285,0,1,0.45,0.1,0,7.43,252.73,0.6302,-0.2942,0.7185,7.37,252.68,0,0,46.396,0,0,0,0,0,267.56,0,0,0,0,0,0,0,0,0,0,0,0,0,0,0,0,0,VALID,0,0,0,0,0,1,0,0,0,0,0,0,0,0,0,0,0,0,0,0,0,3372.14,6,0,0.76,0.5,48,1.32,0.76,0.76,37.06,FLYING
37.78,APPROACH,FLY_TO_FIX,199.43,149,-50.43,1286.76,2.09,7.58,7.03,252.42,-0.048,0,0,-18.274,1,0.6,4.5,1.68,0.35,0.0168,0.4,252.64,0.278,0,1,0.55,0.22,0,7.39,252.68,0.6307,-0.295,0.7178,7.34,252.64,0,0,46.238,0,0,0,0,0,267.56,0,0,0,0,0,0,0,0,0,0,0,0,0,0,0,0,0,VALID,0,0,0,0,0,1,0,0,0,0,0,0,0,0,0,0,0,0,0,0,0,3357.11,6,0,0.76,0.5,49,1.32,0.76,0.76,37.82,FLYING
38.54,APPROACH,FLY_TO_FIX,198.28,149,-49.28,1288.42,2.28,7.59,6.95,252.26,-0.073,0,0,-18.183,1,0.6,4.5,1.709,0.35,0.0168,0.4,252.59,0.27,0,1,0.63,0.33,0,7.35,252.64,0.632,-0.2958,0.7163,7.24,252.59,0,0,46.081,0,0,0,0,0,267.56,0,0,0,0,0,0,0,0,0,0,0,0,0,0,0,0,0,VALID,0,0,0,0,0,1,0,0,0,0,0,0,0,0,0,0,0,0,0,0,0,3342.22,6,0,0.76,0.5,50,1.32,0.76,0.76,38.58,FLYING
39.3,APPROACH,FLY_TO_FIX,197.17,149,-48.17,1290.1,2.27,7.51,6.86,252.1,-0.049,0,0,-18.092,1,0.6,4.5,1.737,0.35,0.0168,0.4,252.55,0.261,0,1,0.67,0.44,0,7.26,252.59,0.6334,-0.2966,0.7147,7.13,252.55,0,0,45.925,0,0,0,0,0,267.56,0,0,0,0,0,0,0,0,0,0,0,0,0,0,0,0,0,VALID,0,0,0,0,0,1,0,0,0,0,0,0,0,0,0,0,0,0,0,0,0,3327.85,6,0,0.76,0.5,51,1.32,0.76,0.76,39.34,FLYING
40.06,APPROACH,FLY_TO_FIX,196.08,149,-47.08,1291.74,2.18,7.42,6.78,251.95,-0.075,0,0,-18.002,1,0.6,4.5,1.764,0.35,0.0168,0.4,252.51,0.253,0,1,0.65,0.56,0,7.15,252.55,0.6346,-0.2974,0.7133,7.04,252.51,0,0,45.77,0,0,0,0,0,267.56,0,0,0,0,0,0,0,0,0,0,0,0,0,0,0,0,0,VALID,0,0,0,0,0,1,0,0,0,0,0,0,0,0,0,0,0,0,0,0,0,3313.72,6,0,0.76,0.5,52,1.32,0.76,0.76,40.1,FLYING
40.82,APPROACH,FLY_TO_FIX,195.03,149,-46.03,1293.21,1.92,7.3,6.72,251.78,-0.115,0,0,-17.912,1,0.6,4.5,1.789,0.35,0.0168,0.4,252.46,0.246,0,1,0.6,0.68,0,7.06,252.51,0.6355,-0.2982,0.7122,6.98,252.46,0,0,45.616,0,0,0,0,0,267.56,0,0,0,0,0,0,0,0,0,0,0,0,0,0,0,0,0,VALID,0,0,0,0,0,1,0,0,0,0,0,0,0,0,0,0,0,0,0,0,0,3300.13,6,0,0.76,0.5,53,1.32,0.76,0.76,40.86,FLYING
41.58,APPROACH,FLY_TO_FIX,194.03,149,-45.03,1294.45,1.53,7.18,6.72,251.62,-0.108,0,0,-17.822,1,0.6,4.5,1.812,0.35,0.0168,0.4,252.42,0.239,0,1,0.51,0.8,0,6.99,252.46,0.6358,-0.2988,0.7117,6.95,252.42,0,0,45.462,0,0,0,0,0,267.56,0,0,0,0,0,0,0,0,0,0,0,0,0,0,0,0,0,VALID,0,0,0,0,0,1,0,0,0,0,0,0,0,0,0,0,0,0,0,0,0,3287.03,6,0,0.76,0.5,54,1.32,0.76,0.76,41.62,FLYING
42.34,APPROACH,FLY_TO_FIX,193.05,149,-44.05,1295.39,1.08,7.1,6.77,251.46,-0.103,0,0,-17.733,1,0.6,4.5,1.832,0.35,0.0168,0.4,252.38,0.234,0,1,0.38,0.92,0,6.97,252.42,0.6354,-0.2995,0.7117,6.99,252.38,0,0,45.31,0,0,0,0,0,267.56,0,0,0,0,0,0,0,0,0,0,0,0,0,0,0,0,0,VALID,0,0,0,0,0,1,0,0,0,0,0,0,0,0,0,0,0,0,0,0,0,3274.27,6,0,0.76,0.5,55,1.32,0.76,0.76,42.38,FLYING
43.1,APPROACH,FLY_TO_FIX,192.07,149,-43.07,1296.04,0.67,7.05,6.86,251.3,-0.143,0,0,-17.644,1,0.6,4.5,1.85,0.35,0.0168,0.4,252.35,0.23,0,1,0.25,1.05,0,7,252.38,0.6345,-0.3001,0.7123,7.06,252.35,0,0,45.158,0,0,0,0,0,267.56,0,0,0,0,0,0,0,0,0,0,0,0,0,0,0,0,0,VALID,0,0,0,0,0,1,0,0,0,0,0,0,0,0,0,0,0,0,0,0,0,3261.55,6,0,0.76,0.5,56,1.32,0.76,0.76,43.14,FLYING
43.86,APPROACH,FLY_TO_FIX,191.09,149,-42.09,1296.41,0.29,7.05,6.97,251.14,-0.178,0,0,-17.556,1,0.6,4.5,1.866,0.35,0.0168,0.4,252.31,0.228,0,1,0.14,1.17,0,7.07,252.35,0.6331,-0.3006,0.7133,7.17,252.31,0,0,45.007,0,0,0,0,0,267.56,0,0,0,0,0,0,0,0,0,0,0,0,0,0,0,0,0,VALID,0,0,0,0,0,1,0,0,0,0,0,0,0,0,0,0,0,0,0,0,0,3248.83,6,0,0.76,0.5,57,1.32,0.76,0.76,43.9,FLYING
44.62,APPROACH,FLY_TO_FIX,190.1,149,-41.1,1296.55,-0.06,7.09,7.14,251.01,-0.191,0,0,-17.468,1,0.6,4.5,1.881,0.35,0.0168,0.4,252.27,0.227,0,1,0.02,1.26,0,7.18,252.31,0.6311,-0.3011,0.7149,7.33,252.27,0,0,44.857,0,0,0,0,0,267.56,0,0,0,0,0,0,0,0,0,0,0,0,0,0,0,0,0,VALID,0,0,0,0,0,1,0,0,0,0,0,0,0,0,0,0,0,0,0,0,0,3236.05,6,0,0.76,0.5,58,1.32,0.76,0.76,44.66,FLYING
45.38,APPROACH,FLY_TO_FIX,189.07,149,-40.07,1296.5,-0.26,7.19,7.32,251,-0.197,0,0,-17.381,1,0.6,4.5,1.896,0.35,0.0168,0.4,252.23,0.227,0,1,-0.06,1.24,0,7.35,252.27,0.6288,-0.3016,0.7167,7.51,252.23,0,0,44.703,0,0,0,0,0,267.56,0,0,0,0,0,0,0,0,0,0,0,0,0,1,1,0,0,VALID,0,0,0,0,0,1,0,0,0,0,0,0,0,0,0,0,0,0,0,0,0,3222.67,6,0,0.76,0.5,59,1.28,0.76,0.76,45.44,FLYING
46.2,APPROACH,FLY_TO_FIX,187.96,149,-38.96,1296.42,-0.19,7.34,7.47,251.06,-0.144,0,0,-17.294,1,0.6,4.5,1.912,0.35,0.0168,0.4,252.2,0.228,0,1,-0.09,1.14,0,7.53,252.23,0.6268,-0.3021,0.7183,7.67,252.2,0,0,44.547,0,0,0,0,0,267.56,0,0,0,0,0,0,0,0,0,0,0,0,0,1,1,0,0,VALID,0,0,0,0,0,1,0,0,0,0,0,0,0,0,0,0,0,0,0,0,0,3208.26,6,0,0.82,0.5,60,1.25,0.82,0.76,46.24,FLYING
46.94,APPROACH,FLY_TO_FIX,186.86,149,-37.86,1296.47,0.19,7.47,7.43,251.12,-0.144,0,0,-17.208,1,0.6,4.5,1.928,0.35,0.0168,0.4,252.16,0.228,0,1,0.01,1.04,0,7.68,252.2,0.6265,-0.3026,0.7183,7.7,252.16,0,0,44.403,0,0,0,0,0,267.56,0,0,0,0,0,0,0,0,0,0,0,0,0,1,1,0,0,VALID,0,0,0,0,0,1,0,0,0,0,0,0,0,0,0,0,0,0,0,0,0,3193.89,6,0,0.74,0.5,61,1.35,0.82,0.74,46.98,FLYING
47.68,APPROACH,FLY_TO_FIX,185.73,149,-36.73,1296.76,0.62,7.48,7.3,251.19,-0.123,0,0,-17.122,1,0.6,4.5,1.945,0.35,0.0168,0.4,252.13,0.227,0,1,0.12,0.94,0,7.71,252.16,0.6282,-0.3032,0.7166,7.57,252.13,0,0,44.26,0,0,0,0,0,267.56,0,0,0,0,0,0,0,0,0,0,0,0,0,1,1,0,0,VALID,0,0,0,0,0,1,0,0,0,0,0,0,0,0,0,0,0,0,0,0,0,3179.14,6,0,0.74,0.5,62,1.35,0.74,0.74,47.72,FLYING
48.42,APPROACH,FLY_TO_FIX,184.56,149,-35.56,1297.33,1.09,7.43,7.09,251.24,-0.126,0,0,-17.036,1,0.6,4.5,1.963,0.35,0.0168,0.4,252.1,0.224,0,1,0.27,0.86,0,7.58,252.13,0.6307,-0.3039,0.714,7.38,252.1,0,0,44.118,0,0,0,0,0,267.56,0,0,0,0,0,0,0,0,0,0,0,0,0,1,1,0,0,VALID,0,0,0,0,0,1,0,0,0,0,0,0,0,0,0,0,0,0,0,0,0,3163.86,6,0,0.74,0.5,63,1.35,0.74,0.74,48.46,FLYING
49.16,APPROACH,FLY_TO_FIX,183.4,149,-34.4,1298.04,1.33,7.22,6.74,251.29,-0.13,0,0,-16.951,1,0.6,4.5,1.981,0.35,0.0168,0.4,252.07,0.221,0,1,0.39,0.78,0,7.39,252.1,0.6351,-0.3047,0.7097,7.04,252.07,0,0,43.977,0,0,0,0,0,267.56,0,0,0,0,0,0,0,0,0,0,0,0,0,1,1,0,0,VALID,0,0,0,0,0,1,0,0,0,0,0,0,0,0,0,0,0,0,0,0,0,3148.56,6,0,0.74,0.5,64,1.35,0.74,0.74,49.2,FLYING
49.9,APPROACH,FLY_TO_FIX,182.33,149,-33.33,1298.83,1.14,6.96,6.6,251.35,-0.125,0,0,-16.866,1,0.6,4.5,1.999,0.35,0.0168,0.4,252.04,0.217,0,1,0.39,0.69,0,7.05,252.07,0.6382,-0.3054,0.7067,6.8,252.04,0,0,43.837,0,0,0,0,0,267.56,0,0,0,0,0,0,0,0,0,0,0,0,0,1,1,0,0,VALID,0,0,0,0,0,1,0,0,0,0,0,0,0,0,0,0,0,0,0,0,0,3134.53,6,0,0.74,0.5,65,1.35,0.74,0.74,49.94,FLYING
50.64,APPROACH,FLY_TO_FIX,181.3,149,-32.3,1299.57,0.96,6.92,6.6,251.41,-0.148,0,0,-16.782,1,0.6,4.5,2.014,0.35,0.0168,0.4,252.01,0.213,0,1,0.34,0.6,0,6.82,252.04,0.6381,-0.3059,0.7066,6.82,252.01,0,0,43.697,0,0,0,0,0,267.56,0,0,0,0,0,0,0,0,0,0,0,0,0,1,1,0,0,VALID,0,0,0,0,0,1,0,0,0,0,0,0,0,0,0,0,0,0,0,0,0,3121.03,6,0,0.74,0.5,66,1.35,0.74,0.74,50.68,FLYING
51.42,APPROACH,FLY_TO_FIX,180.26,149,-31.26,1300.2,0.59,6.83,6.73,251.46,-0.134,0,0,-16.698,1,0.6,4.5,2.028,0.35,0.0168,0.4,251.98,0.21,0,1,0.24,0.52,0,6.83,252.01,0.6374,-0.3064,0.707,6.87,251.98,0,0,43.551,0,0,0,0,0,267.56,0,0,0,0,0,0,0,0,0,0,0,0,0,1,1,0,0,VALID,0,0,0,0,0,1,0,0,0,0,0,0,0,0,0,0,0,0,0,0,0,3107.35,6,0,0.78,0.5,67,1.28,0.78,0.74,51.46,FLYING
52.18,APPROACH,FLY_TO_FIX,179.2,149,-30.2,1300.54,0.42,6.93,6.71,251.5,-0.105,0,0,-16.614,1,0.6,4.5,2.042,0.35,0.0168,0.4,251.94,0.208,0,1,0.17,0.45,0,6.88,251.98,0.6366,-0.3069,0.7075,6.94,251.94,0,0,43.41,0,0,0,0,0,267.56,0,0,0,0,0,0,0,0,0,0,0,0,0,1,1,0,0,VALID,0,0,0,0,0,1,0,0,0,0,0,0,0,0,0,0,0,0,0,0,0,3093.4,6,0,0.76,0.5,68,1.32,0.78,0.76,52.22,FLYING
52.94,APPROACH,FLY_TO_FIX,178.23,149,-29.23,1300.85,0.01,6.85,7.04,251.53,-0.1,0,0,-16.531,1,0.6,4.5,2.053,0.35,0.0168,0.4,251.91,0.206,0,1,0.05,0.38,0,6.95,251.94,0.6345,-0.3073,0.7092,7.11,251.91,0,0,43.269,0,0,0,0,0,267.56,0,0,0,0,0,0,0,0,0,0,0,0,0,1,1,0,0,VALID,0,0,0,0,0,1,0,0,0,0,0,0,0,0,0,0,0,0,0,0,0,3080.66,6,0,0.76,0.5,69,1.32,0.76,0.76,52.98,FLYING
53.7,APPROACH,FLY_TO_FIX,177.13,149,-28.13,1301,0,7.23,7.23,251.57,-0.055,0,0,-16.449,1,0.6,4.5,2.064,0.35,0.0168,0.4,251.88,0.205,0,1,0.02,0.31,0,7.12,251.91,0.6308,-0.3075,0.7124,7.4,251.88,0,0,43.129,0,0,0,0,0,267.56,0,0,0,0,0,0,0,0,0,0,0,0,0,1,1,0,0,VALID,0,0,0,0,0,1,0,0,0,0,0,0,0,0,0,0,0,0,0,0,0,3066.35,6,0,0.76,0.5,70,1.32,0.76,0.76,53.74,FLYING
54.46,APPROACH,FLY_TO_FIX,176.08,149,-27.08,1301.3,-0.06,7.43,7.73,251.6,-0.005,0,0,-16.366,1,0.6,4.5,2.075,0.35,0.0168,0.4,251.86,0.204,0,1,-0.03,0.26,0,7.42,251.88,0.6261,-0.3077,0.7165,7.77,251.86,0,0,42.99,0,0,0,0,0,267.56,0,0,0,0,0,0,0,0,0,0,0,0,0,1,1,0,0,VALID,0,0,0,0,0,1,0,0,0,0,0,0,0,0,0,0,0,0,0,0,0,3052.59,6,0,0.76,0.5,71,1.32,0.76,0.76,54.5,FLYING
55.22,APPROACH,FLY_TO_FIX,174.84,149,-25.84,1301.47,0.24,7.84,7.72,251.62,-0.048,0,0,-16.285,1,0.6,4.5,2.088,0.35,0.0168,0.4,251.83,0.203,0,1,0.06,0.2,0,7.79,251.86,0.6242,-0.3081,0.718,7.92,251.83,0,0,42.851,0,0,0,0,0,267.56,0,0,0,0,0,0,0,0,0,0,0,0,0,1,1,0,0,VALID,0,0,0,0,0,1,0,0,0,0,0,0,0,0,0,0,0,0,0,0,0,3036.4,6,0,0.76,0.5,72,1.32,0.76,0.76,55.26,FLYING
55.98,APPROACH,FLY_TO_FIX,173.66,149,-24.66,1301.73,0.35,7.8,7.68,251.63,-0.088,0,0,-16.203,1,0.6,4.5,2.102,0.35,0.0168,0.4,251.8,0.202,0,1,0.12,0.16,0,7.94,251.83,0.6247,-0.3086,0.7173,7.89,251.8,0,0,42.714,0,0,0,0,0,267.56,0,0,0,0,0,0,0,0,0,0,0,0,0,1,1,0,0,VALID,0,0,0,0,0,1,0,0,0,0,0,0,0,0,0,0,0,0,0,0,0,3020.98,6,0,0.76,0.5,73,1.32,0.76,0.76,56.02,FLYING
56.74,APPROACH,FLY_TO_FIX,172.53,149,-23.53,1302.22,0.34,7.93,8.02,251.63,-0.061,0,0,-16.122,1,0.6,4.5,2.116,0.35,0.0168,0.4,251.77,0.2,0,1,0.11,0.14,0,7.9,251.8,0.6217,-0.3089,0.7197,8.12,251.77,0,0,42.577,0,0,0,0,0,267.56,0,0,0,0,0,0,0,0,0,0,0,0,0,1,1,0,0,VALID,0,0,0,0,0,1,0,0,0,0,0,0,0,0,0,0,0,0,0,0,0,3006.26,6,0,0.76,0.5,74,1.32,0.76,0.76,56.78,FLYING
57.5,APPROACH,FLY_TO_FIX,171.29,149,-22.29,1302.71,0.6,8.3,8.13,251.64,-0.016,0,0,-16.042,1,0.6,4.5,2.132,0.35,0.0168,0.4,251.74,0.197,0,1,0.16,0.1,0,8.13,251.77,0.6189,-0.3092,0.722,8.34,251.74,0,0,42.442,0,0,0,0,0,267.56,0,0,0,0,0,0,0,0,0,0,0,0,0,1,1,0,0,VALID,0,0,0,0,0,1,0,0,0,0,0,0,0,0,0,0,0,0,0,0,0,2989.98,6,0,0.76,0.5,75,1.32,0.76,0.76,57.54,FLYING
58.26,APPROACH,FLY_TO_FIX,170.07,149,-21.07,1303.26,0.72,8.37,8.17,251.63,-0.005,0,0,-15.961,1,0.6,4.5,2.148,0.35,0.0168,0.4,251.71,0.194,0,1,0.22,0.08,0,8.35,251.74,0.6187,-0.3096,0.722,8.36,251.71,0,0,42.307,0,0,0,0,0,267.56,0,0,0,0,0,0,0,0,0,0,0,0,0,1,1,0,0,VALID,0,0,0,0,0,1,0,0,0,0,0,0,0,0,0,0,0,0,0,0,0,2974.02,6,0,0.76,0.5,76,1.32,0.76,0.76,58.3,FLYING
59.02,APPROACH,FLY_TO_FIX,168.85,149,-19.85,1303.85,0.75,8.4,8.19,251.62,-0.005,0,0,-15.882,1,0.6,4.5,2.165,0.35,0.0168,0.4,251.68,0.191,0,1,0.25,0.06,0,8.37,251.71,0.6186,-0.3101,0.7219,8.37,251.68,0,0,42.173,0,0,0,0,0,267.56,0,0,0,0,0,0,0,0,0,0,0,0,0,1,1,0,0,VALID,0,0,0,0,0,1,0,0,0,0,0,0,0,0,0,0,0,0,0,0,0,2958.12,6,0,0.76,0.5,77,1.32,0.76,0.76,59.06,FLYING
59.78,APPROACH,FLY_TO_FIX,167.66,149,-18.66,1304.52,0.68,8.49,8.4,251.61,-0.039,0,0,-15.802,1,0.6,4.5,2.181,0.35,0.0168,0.4,251.65,0.188,0,1,0.23,0.04,0,8.38,251.68,0.6168,-0.3105,0.7233,8.52,251.65,0,0,42.04,0,0,0,0,0,267.56,0,0,0,0,0,0,0,0,0,0,0,0,0,1,1,0,0,VALID,0,0,0,0,0,1,0,0,0,0,0,0,0,0,0,0,0,0,0,0,0,2942.56,6,0,0.76,0.5,78,1.32,0.76,0.76,59.82,FLYING
60.54,APPROACH,FLY_TO_FIX,166.4,149,-17.4,1305.03,0.71,8.62,8.32,251.59,-0.034,0,0,-15.723,1,0.6,4.5,2.199,0.35,0.0168,0.4,251.62,0.185,0,1,0.26,0.03,0,8.53,251.65,0.6167,-0.3109,0.7232,8.52,251.62,0,0,41.908,0,0,0,0,0,267.56,0,0,0,0,0,0,0,0,0,0,0,0,0,1,1,0,0,VALID,0,0,0,0,0,1,0,0,0,0,0,0,0,0,0,0,0,0,0,0,0,2926.05,6,0,0.76,0.5,79,1.32,0.76,0.76,60.58,FLYING
61.3,APPROACH,FLY_TO_FIX,165.2,149,-16.2,1305.55,0.55,8.58,8.41,251.57,-0.027,0,0,-15.644,1,0.6,4.5,2.216,0.35,0.0168,0.4,251.59,0.183,0,1,0.22,0.02,0,8.54,251.62,0.6162,-0.3114,0.7234,8.57,251.59,0,0,41.777,0,0,0,0,0,267.56,0,0,0,0,0,0,0,0,0,0,0,0,0,1,1,0,0,VALID,0,0,0,0,0,1,0,0,0,0,0,0,0,0,0,0,0,0,0,0,0,2910.51,6,0,0.76,0.5,80,1.32,0.76,0.76,61.34,FLYING
62.06,APPROACH,FLY_TO_FIX,164,149,-15,1306,0.45,8.69,8.57,251.55,-0.04,0,0,-15.566,1,0.6,4.5,2.232,0.35,0.0168,0.4,251.56,0.18,0,1,0.17,0.01,0,8.58,251.59,0.6141,-0.3117,0.7251,8.74,251.56,0,0,41.647,0,0,0,0,0,267.56,0,0,0,0,0,0,0,0,0,0,0,0,0,1,1,0,0,VALID,0,0,0,0,0,1,0,0,0,0,0,0,0,0,0,0,0,0,0,0,0,2894.89,6,0,0.76,0.5,81,1.32,0.76,0.76,62.1,FLYING
62.82,APPROACH,FLY_TO_FIX,162.79,149,-13.79,1306.3,0.27,8.72,8.65,251.53,-0.008,0,0,-15.488,1,0.6,4.5,2.248,0.35,0.0168,0.4,251.53,0.179,0,1,0.13,0,0,8.75,251.56,0.6133,-0.3121,0.7255,8.79,251.53,0,0,41.518,0,0,0,0,0,267.56,0,0,0,0,0,0,0,0,0,0,0,0,0,1,1,0,0,VALID,0,0,0,0,0,1,0,0,0,0,0,0,0,0,0,0,0,0,0,0,0,2879.22,6,0,0.76,0.5,82,1.32,0.76,0.76,62.86,FLYING
63.58,APPROACH,FLY_TO_FIX,161.59,149,-12.59,1306.52,0.09,8.81,8.83,251.51,-0.038,0,0,-15.411,1,0.6,4.5,2.264,0.35,0.0168,0.4,251.51,0.178,0,1,0.06,0,0,8.81,251.53,0.6113,-0.3125,0.7271,8.95,251.51,0,0,41.39,0,0,0,0,0,267.56,0,0,0,0,0,0,0,0,0,0,0,0,0,1,1,0,0,VALID,0,0,0,0,0,1,0,0,0,0,0,0,0,0,0,0,0,0,0,0,0,2863.24,6,0,0.76,0.5,83,1.32,0.76,0.76,63.62,FLYING
64.34,APPROACH,FLY_TO_FIX,160.36,149,-11.36,1306.64,-0.06,8.94,9.02,251.48,0.003,0,0,-15.334,1,0.6,4.5,2.279,0.35,0.0168,0.4,251.48,0.177,0,1,0,0.01,0,8.96,251.51,0.6089,-0.3128,0.729,9.14,251.48,0,0,41.262,0,0,0,0,0,267.56,0,0,0,0,0,0,0,0,0,0,0,0,0,1,1,0,0,VALID,0,0,0,0,0,1,0,0,0,0,0,0,0,0,0,0,0,0,0,0,0,2847.44,6,0,0.76,0.5,84,1.32,0.76,0.76,64.38,FLYING
65.1,APPROACH,FLY_TO_FIX,159.12,149,-10.12,1306.66,-0.16,9.08,9.19,251.46,-0.002,0,0,-15.257,1,0.6,4.5,2.295,0.35,0.0168,0.4,251.45,0.177,0,1,-0.04,0.01,0,9.15,251.48,0.6066,-0.3131,0.7308,9.32,251.45,0,0,41.136,0,0,0,0,0,267.56,0,0,0,0,0,0,0,0,0,0,0,0,0,1,1,0,0,VALID,0,0,0,0,0,1,0,0,0,0,0,0,0,0,0,0,0,0,0,0,0,2831.47,6,0,0.76,0.5,85,1.32,0.76,0.76,65.14,FLYING
65.86,APPROACH,FLY_TO_FIX,157.86,149,-8.86,1306.59,-0.28,9.23,9.37,251.43,-0.012,0,0,-15.181,1,0.6,4.5,2.31,0.35,0.0168,0.4,251.42,0.177,0,1,-0.08,0.02,0,9.33,251.45,0.6042,-0.3134,0.7326,9.5,251.42,0,0,41.01,0,0,0,0,0,267.56,0,0,0,0,0,0,0,0,0,0,0,0,0,1,1,0,0,VALID,0,0,0,0,0,1,0,0,0,0,0,0,0,0,0,0,0,0,0,0,0,2815.29,6,0,0.76,0.5,86,1.32,0.76,0.76,65.9,FLYING
66.62,APPROACH,FLY_TO_FIX,156.56,149,-7.56,1306.46,-0.39,9.38,9.57,251.4,0.003,0.0033,0,-19.026,1,0.6,4.5,2.326,0.35,0.0168,0.4,251.39,0.178,0,1,-0.12,0.02,0,9.51,251.42,0.6017,-0.3137,0.7346,9.69,251.39,0,0,40.886,0,0,0,0,0,267.56,0,0,0,0,0,0,0,0,0,0,0,0,0,1,1,0,0,VALID,0,0,0,0,0,1,0,0,0,0,0,0,0,0,0,0,0,0,0,0,0,2799.07,6,0,0.76,0.5,87,1.32,0.76,0.76,66.66,FLYING
67.38,APPROACH,FLY_TO_FIX,155.27,149,-6.27,1306.27,-0.48,9.56,9.78,251.37,-0.024,0.0851,0,-20,1,0.6,4.5,2.342,0.35,0.0168,0.4,251.36,0.178,0,1,-0.16,0.01,0,9.71,251.39,0.5989,-0.314,0.7367,9.91,251.36,0,0,40.762,0,0,0,0,0,267.56,0,0,0,0,0,0,0,0,0,0,0,0,0,1,1,0,0,VALID,0,0,0,0,0,1,0,0,0,0,0,0,0,0,0,0,0,0,0,0,1.27,2782.64,6,0,0.76,0.5,88,1.32,0.76,0.76,67.42,FLYING
68.14,APPROACH,FLY_TO_FIX,154.02,149,-5.02,1306.02,-0.56,9.75,10.02,251.34,-0.008,0.1806,0,-20,1,0.6,4.5,2.342,0.35,0.0168,0.4,251.33,0.18,0,1,-0.19,0.01,0,9.92,251.36,0.5959,-0.3142,0.739,10.13,251.33,0,0,40.64,0,0,0,0,0,267.56,0,0,0,0,0,0,0,0,0,0,0,0,0,1,1,0,0,VALID,0,0,0,0,0,1,0,0,0,0,0,0,0,0,0,0,0,0,0,0,32.75,2766.87,6,0,0.76,0.5,89,1.32,0.76,0.76,68.18,FLYING
68.9,APPROACH,FLY_TO_FIX,152.8,149,-3.8,1305.75,-0.57,9.96,10.24,251.32,0.018,0.2634,0,-20,1,0.6,4.5,2.342,0.35,0.0168,0.4,251.3,0.181,0,1,-0.21,0.02,0,10.15,251.33,0.5929,-0.3145,0.7414,10.36,251.3,0,0,40.518,0,0,0,0,0,267.56,0,0,0,0,0,0,0,0,0,0,0,0,0,1,1,0,0,VALID,0,0,0,0,0,1,0,0,0,0,0,0,0,0,0,0,0,0,0,0,97.27,2751.41,6,0,0.76,0.5,90,1.32,0.76,0.76,68.94,FLYING
69.66,APPROACH,FLY_TO_FIX,151.68,149,-2.68,1305.51,-0.5,10.18,10.45,251.31,-0.024,0.3254,0,-20,1,0.6,4.5,2.342,0.35,0.0168,0.4,251.27,0.182,0,1,-0.2,0.04,0,10.38,251.3,0.5901,-0.3147,0.7435,10.57,251.27,0,0,40.398,0,0,0,0,0,267.56,0,0,0,0,0,0,0,0,0,0,0,0,0,1,1,0,0,VALID,0,0,0,0,0,1,0,0,0,0,0,0,0,0,0,0,0,0,0,0,184.21,2737.4,6,0,0.76,0.5,91,1.32,0.76,0.76,69.7,FLYING
70.42,APPROACH,FLY_TO_FIX,150.73,149,-1.73,1305.34,-0.4,10.41,10.63,251.29,0.002,0.3583,0,-20,1,0.6,4.5,2.342,0.35,0.0168,0.4,251.24,0.183,0,1,-0.16,0.04,0,10.59,251.27,0.5876,-0.315,0.7454,10.77,251.24,0,0,40.278,0,0,0,0,0,267.56,0,0,0,0,0,0,0,0,0,0,0,0,0,1,1,0,0,VALID,0,0,0,0,0,1,0,0,0,0,0,0,0,0,0,0,0,0,0,0,282.19,2725.38,6,0,0.76,0.5,92,1.32,0.76,0.76,70.46,FLYING
71.18,APPROACH,FLY_TO_FIX,149.94,149,-0.94,1305.26,-0.22,10.63,10.79,251.25,0.013,0.3628,0,-20,1,0.6,4.5,2.342,0.35,0.0168,0.4,251.21,0.184,0,1,-0.11,0.04,0,10.78,251.24,0.5853,-0.3153,0.747,10.93,251.21,0,0,40.158,0,0,0,0,0,267.56,0,0,0,0,0,0,0,0,0,0,0,0,0,1,1,0,0,VALID,0,0,0,0,0,1,0,0,0,0,0,0,0,0,0,0,0,0,0,0,378.58,2715.5,6,0,0.76,0.5,93,1.32,0.76,0.76,71.22,FLYING
71.94,APPROACH,FLY_TO_FIX,149.31,149,-0.31,1305.3,-0.04,10.83,10.91,251.23,0.005,0.3433,0,-20,1,0.6,4.5,2.342,0.35,0.0168,0.4,251.18,0.184,0,1,-0.04,0.04,0,10.95,251.21,0.5836,-0.3156,0.7482,11.06,251.18,0,0,40.04,0,0,0,0,0,267.56,0,0,0,0,0,0,0,0,0,0,0,0,0,1,1,0,0,VALID,0,0,0,0,0,1,0,0,0,0,0,0,0,0,0,0,0,0,0,0,462.91,2707.68,6,0,0.76,0.5,94,1.32,0.76,0.76,71.98,FLYING
72.7,APPROACH,FLY_TO_FIX,148.82,149,0.18,1305.48,0.18,11.01,11.01,251.2,0.008,0.3083,0,-19.928,1,0.6,4.5,2.342,0.35,0.0168,0.4,251.15,0.183,0,1,0.03,0.05,0,11.07,251.18,0.5823,-0.316,0.7491,11.17,251.15,0,0,39.922,0,0,0,0,0,267.56,0,0,0,0,0,0,0,0,0,0,0,0,0,1,1,0,0,VALID,0,0,0,0,0,1,0,0,0,0,0,0,0,0,0,0,0,0,0,0,527.84,2701.57,6,0,0.76,0.5,95,1.32,0.76,0.76,72.74,FLYING
73.46,APPROACH,FLY_TO_FIX,148.41,149,0.59,1305.84,0.47,11.16,11.05,251.17,-0.016,0.2747,0,-19.646,1,0.6,4.5,2.342,0.35,0.0168,0.4,251.12,0.181,0,1,0.13,0.05,0,11.18,251.15,0.5816,-0.3165,0.7494,11.22,251.12,0,0,39.804,0,0,0,0,0,267.56,0,0,0,0,0,0,0,0,0,0,0,0,0,1,1,0,0,VALID,0,0,0,0,0,1,0,0,0,0,0,0,0,0,0,0,0,0,0,0,570.17,2696.36,6,0,0.76,0.5,96,1.32,0.76,0.76,73.5,FLYING
74.22,APPROACH,FLY_TO_FIX,148.04,149,0.96,1306.38,0.77,11.27,11.04,251.13,-0.01,0.2478,0,-19.178,1,0.6,4.5,2.342,0.35,0.0168,0.4,251.09,0.179,0,1,0.25,0.04,0,11.23,251.12,0.5816,-0.317,0.7492,11.22,251.09,0,0,39.686,0,0,0,0,0,267.56,0,0,0,0,0,0,0,0,0,0,0,0,0,1,1,0,0,VALID,0,0,0,0,0,1,0,0,0,0,0,0,0,0,0,0,0,0,0,0,593.53,2691.73,6,0,0.76,0.5,97,1.32,0.76,0.76,74.26,FLYING
74.98,APPROACH,FLY_TO_FIX,147.71,149,1.29,1307.09,0.99,11.34,11,251.09,0.007,0.2257,0,-18.547,1,0.6,4.5,2.342,0.35,0.0168,0.4,251.06,0.175,0,1,0.35,0.03,0,11.23,251.09,0.5821,-0.3175,0.7486,11.19,251.06,0,0,39.569,0,0,0,0,0,267.56,0,0,0,0,0,0,0,0,0,0,0,0,0,1,1,0,0,VALID,0,0,0,0,0,1,0,0,0,0,0,0,0,0,0,0,0,0,0,0,603.24,2687.67,6,0,0.76,0.5,98,1.32,0.76,0.76,75.02,FLYING
75.74,APPROACH,FLY_TO_FIX,147.42,149,1.58,1307.89,1.12,11.35,10.95,251.05,0.01,0.2121,0,-17.766,1,0.6,4.5,2.342,0.35,0.0168,0.4,251.03,0.172,0,1,0.42,0.02,0,11.2,251.06,0.5828,-0.3181,0.7478,11.13,251.03,0,0,39.452,0,0,0,0,0,267.56,0,0,0,0,0,0,0,0,0,0,0,0,0,1,1,0,0,VALID,0,0,0,0,0,1,0,0,0,0,0,0,0,0,0,0,0,0,0,0,603.09,2683.9,6,0,0.76,0.5,99,1.32,0.76,0.76,75.78,FLYING
76.5,APPROACH,FLY_TO_FIX,147.12,149,1.88,1308.76,1.22,11.33,10.87,251.02,-0.001,0.2091,0,-16.838,1,0.6,4.5,2.342,0.35,0.0168,0.4,251,0.167,0,1,0.46,0.02,0,11.15,251.03,0.5838,-0.3187,0.7467,11.06,251,0,0,39.335,0,0,0,0,0,267.56,0,0,0,0,0,0,0,0,0,0,0,0,0,1,1,0,0,VALID,0,0,0,0,0,1,0,0,0,0,0,0,0,0,0,0,0,0,0,0,594.31,2680.15,6,0,0.76,0.5,100,1.32,0.76,0.76,76.54,FLYING
77.26,APPROACH,FLY_TO_FIX,146.82,149,2.18,1309.65,1.25,11.27,10.79,250.99,0.002,0.2182,0,-15.759,1,0.6,4.5,2.342,0.35,0.0168,0.4,250.96,0.163,0,1,0.48,0.02,0,11.07,251,0.585,-0.3193,0.7455,10.97,250.96,0,0,39.219,0,0,0,0,0,267.56,0,0,0,0,0,0,0,0,0,0,0,0,0,1,1,0,0,VALID,0,0,0,0,0,1,0,0,0,0,0,0,0,0,0,0,0,0,0,0,585.35,2676.33,6,0,0.76,0.5,101,1.32,0.76,0.76,77.3,FLYING
78.02,APPROACH,FLY_TO_FIX,146.54,149,2.46,1310.5,1.16,11.18,10.72,250.95,0.005,0.2311,0,-14.541,1,0.6,4.5,2.342,0.35,0.0168,0.4,250.93,0.158,0,1,0.47,0.02,0,10.98,250.96,0.5861,-0.32,0.7444,10.89,250.93,0,0,39.103,0,0,0,0,0,267.56,0,0,0,0,0,0,0,0,0,0,0,0,0,1,1,0,0,VALID,0,0,0,0,0,1,0,0,0,0,0,0,0,0,0,0,0,0,0,0,584.12,2672.81,6,0,0.76,0.5,102,1.32,0.76,0.76,78.06,FLYING
78.78,APPROACH,FLY_TO_FIX,146.28,149,2.72,1311.28,1.06,11.08,10.66,250.92,-0.034,0.2476,0,-13.192,1,0.6,4.5,2.342,0.35,0.0168,0.4,250.9,0.154,0,1,0.44,0.02,0,10.9,250.93,0.587,-0.3206,0.7434,10.83,250.9,0,0,38.987,0,0,0,0,0,267.56,0,0,0,0,0,0,0,0,0,0,0,0,0,1,1,0,0,VALID,0,0,0,0,0,1,0,0,0,0,0,0,0,0,0,0,0,0,0,0,588,2669.51,6,0,0.76,0.5,103,1.32,0.76,0.76,78.82,FLYING
79.54,APPROACH,FLY_TO_FIX,146.06,149,2.94,1311.95,0.9,10.98,10.63,250.89,-0.006,0.2642,0,-11.728,1,0.6,4.5,2.342,0.35,0.0168,0.4,250.87,0.151,0,1,0.38,0.03,0,10.84,250.9,0.5876,-0.3212,0.7427,10.78,250.87,0,0,38.871,0,0,0,0,0,267.56,0,0,0,0,0,0,0,0,0,0,0,0,0,1,1,0,0,VALID,0,0,0,0,0,1,0,0,0,0,0,0,0,0,0,0,0,0,0,0,597.53,2666.65,6,0,0.76,0.5,104,1.32,0.76,0.76,79.58,FLYING
80.3,APPROACH,FLY_TO_FIX,145.87,149,3.13,1312.51,0.7,10.89,10.61,250.86,-0.008,0.2792,0,-10.169,1,0.6,4.5,2.342,0.35,0.0168,0.4,250.83,0.148,0,1,0.31,0.02,0,10.79,250.87,0.588,-0.3217,0.7421,10.75,250.83,0,0,38.755,0,0,0,0,0,267.56,0,0,0,0,0,0,0,0,0,0,0,0,0,1,1,0,0,VALID,0,0,0,0,0,1,0,0,0,0,0,0,0,0,0,0,0,0,0,0,611.94,2664.28,6,0,0.76,0.5,105,1.32,0.76,0.76,80.34,FLYING
81.06,APPROACH,FLY_TO_FIX,145.74,149,3.26,1312.91,0.5,10.82,10.63,250.83,0.004,0.2874,0,-8.545,1,0.6,4.5,2.342,0.35,0.0168,0.4,250.8,0.146,0,1,0.22,0.02,0,10.76,250.83,0.5878,-0.3223,0.7421,10.77,250.8,0,0,38.64,0,0,0,0,0,267.56,0,0,0,0,0,0,0,0,0,0,0,0,0,1,1,0,0,VALID,0,0,0,0,0,1,0,0,0,0,0,0,0,0,0,0,0,0,0,0,630.05,2662.65,6,0,0.76,0.5,106,1.32,0.76,0.76,81.1,FLYING
81.82,APPROACH,FLY_TO_FIX,145.64,149,3.36,1313.2,0.32,10.79,10.67,250.79,0.004,0.2974,0,-6.867,1,0.6,4.5,2.342,0.35,0.0168,0.4,250.77,0.144,0,1,0.16,0.02,0,10.78,250.8,0.5875,-0.3228,0.7421,10.79,250.77,0,0,38.524,0,0,0,0,0,267.56,0,0,0,0,0,0,0,0,0,0,0,0,0,1,1,0,0,VALID,0,0,0,0,0,1,0,0,0,0,0,0,0,0,0,0,0,0,0,0,648.75,2661.35,6,0,0.76,0.5,107,1.32,0.76,0.76,81.86,FLYING
82.58,APPROACH,FLY_TO_FIX,145.59,149,3.41,1313.37,0.14,10.77,10.72,250.76,0.017,0.301,0,-5.165,1,0.6,4.5,2.342,0.35,0.0168,0.4,250.73,0.143,0,1,0.09,0.03,0,10.81,250.77,0.5868,-0.3233,0.7424,10.85,250.73,0,0,38.409,0,0,0,0,0,267.56,0,0,0,0,0,0,0,0,0,0,0,0,0,1,1,0,0,VALID,0,0,0,0,0,1,0,0,0,0,0,0,0,0,0,0,0,0,0,0,668.66,2660.75,6,0,0.76,0.5,108,1.32,0.76,0.76,82.62,FLYING
83.34,APPROACH,FLY_TO_FIX,145.57,149,3.43,1313.45,0.03,10.79,10.79,250.73,0.01,0.3044,0,-3.451,1,0.6,4.5,2.342,0.35,0.0168,0.4,250.7,0.143,0,1,0.03,0.03,0,10.86,250.73,0.5858,-0.3238,0.7429,10.92,250.7,0,0,38.294,0,0,0,0,0,267.56,0,0,0,0,0,0,0,0,0,0,0,0,0,1,1,0,0,VALID,0,0,0,0,0,1,0,0,0,0,0,0,0,0,0,0,0,0,0,0,687.24,2660.49,6,0,0.76,0.5,109,1.32,0.76,0.76,83.38,FLYING
84.1,APPROACH,FLY_TO_FIX,145.58,149,3.42,1313.48,-0.04,10.84,10.87,250.7,-0.006,0.3085,0,-1.738,1,0.6,4.5,2.342,0.35,0.0168,0.4,250.67,0.143,0,1,-0.01,0.03,0,10.93,250.7,0.5849,-0.3242,0.7435,10.99,250.67,0,0,38.178,0,0,0,0,0,267.56,0,0,0,0,0,0,0,0,0,0,0,0,0,1,1,0,0,VALID,0,0,0,0,0,1,0,0,0,0,0,0,0,0,0,0,0,0,0,0,704.55,2660.53,6,0,0.76,0.5,110,1.32,0.76,0.76,84.14,FLYING
84.86,APPROACH,FLY_TO_FIX,145.59,149,3.41,1313.51,-0.05,10.91,10.95,250.66,-0.014,0.3139,0,-0.033,1,0.6,4.5,2.342,0.35,0.0168,0.4,250.63,0.142,0,1,-0.01,0.03,0,11,250.67,0.5838,-0.3247,0.7441,11.07,250.63,0,0,38.063,0,0,0,0,0,267.56,0,0,0,0,0,0,0,0,0,0,0,0,0,1,1,0,0,VALID,0,0,0,0,0,1,0,0,0,0,0,0,0,0,0,0,0,0,0,0,721,2660.77,6,0,0.76,0.5,111,1.32,0.76,0.76,84.9,FLYING
85.62,APPROACH,FLY_TO_FIX,145.64,149,3.36,1313.53,-0.02,10.98,11.01,250.64,-0.023,0.3179,0,1.649,1,0.6,4.5,2.342,0.35,0.0168,0.4,250.6,0.142,0,1,-0.02,0.04,0,11.08,250.63,0.5829,-0.3252,0.7446,11.14,250.6,0,0,37.948,0,0,0,0,0,267.56,0,0,0,0,0,0,0,0,0,0,0,0,0,1,1,0,0,VALID,0,0,0,0,0,1,0,0,0,0,0,0,0,0,0,0,0,0,0,0,737.25,2661.32,6,0,0.76,0.5,112,1.32,0.76,0.76,85.66,FLYING
86.38,APPROACH,FLY_TO_FIX,145.69,149,3.31,1313.6,0.08,11.06,11.07,250.6,-0.003,0.323,0,3.304,1,0.6,4.5,2.342,0.35,0.0168,0.4,250.56,0.142,0,1,0,0.03,0,11.15,250.6,0.5821,-0.3257,0.745,11.2,250.56,0,0,37.833,0,0,0,0,0,267.56,0,0,0,0,0,0,0,0,0,0,0,0,0,1,1,0,0,VALID,0,0,0,0,0,1,0,0,0,0,0,0,0,0,0,0,0,0,0,0,752.76,2662,6,0,0.76,0.5,113,1.32,0.76,0.76,86.42,FLYING
87.14,APPROACH,FLY_TO_FIX,145.76,149,3.24,1313.75,0.19,11.13,11.09,250.56,0.011,0.3304,0,4.928,1,0.6,4.5,2.342,0.35,0.0168,0.4,250.52,0.141,0,1,0.06,0.04,0,11.21,250.56,0.5817,-0.3263,0.7451,11.23,250.52,0,0,37.717,0,0,0,0,0,267.56,0,0,0,0,0,0,0,0,0,0,0,0,0,1,1,0,0,VALID,0,0,0,0,0,1,0,0,0,0,0,0,0,0,0,0,0,0,0,0,768.05,2662.78,6,0,0.76,0.5,114,1.32,0.76,0.76,87.18,FLYING
87.9,APPROACH,FLY_TO_FIX,145.84,149,3.16,1313.99,0.35,11.2,11.1,250.53,-0.003,0.3352,0,6.51,1,0.6,4.5,2.342,0.35,0.0168,0.4,250.49,0.14,0,1,0.1,0.04,0,11.24,250.52,0.5816,-0.3269,0.7449,11.24,250.49,0,0,37.602,0,0,0,0,0,267.56,0,0,0,0,0,0,0,0,0,0,0,0,0,1,1,0,0,VALID,0,0,0,0,0,1,0,0,0,0,0,0,0,0,0,0,0,0,0,0,784.09,2663.82,6,0,0.76,0.5,115,1.32,0.76,0.76,87.94,FLYING
88.66,APPROACH,FLY_TO_FIX,145.95,149,3.05,1314.34,0.51,11.24,11.06,250.49,-0.001,0.3391,0,8.042,1,0.6,4.5,2.342,0.35,0.0168,0.4,250.45,0.139,0,1,0.17,0.04,0,11.25,250.49,0.5819,-0.3275,0.7444,11.21,250.45,0,0,37.487,0,0,0,0,0,267.56,0,0,0,0,0,0,0,0,0,0,0,0,0,1,1,0,0,VALID,0,0,0,0,0,1,0,0,0,0,0,0,0,0,0,0,0,0,0,0,799.77,2665.06,6,0,0.76,0.5,116,1.32,0.76,0.76,88.7,FLYING
89.42,APPROACH,FLY_TO_FIX,146.08,149,2.92,1314.8,0.69,11.25,11.01,250.45,-0.002,0.3378,0,9.508,1,0.6,4.5,2.342,0.35,0.0168,0.4,250.41,0.137,0,1,0.23,0.04,0,11.22,250.45,0.5825,-0.3282,0.7436,11.16,250.41,0,0,37.371,0,0,0,0,0,267.56,0,0,0,0,0,0,0,0,0,0,0,0,0,1,1,0,0,VALID,0,0,0,0,0,1,0,0,0,0,0,0,0,0,0,0,0,0,0,0,814.9,2666.7,6,0,0.76,0.5,117,1.32,0.76,0.76,89.46,FLYING
90.18,APPROACH,FLY_TO_FIX,146.23,149,2.77,1315.36,0.85,11.24,10.92,250.41,-0.006,0.3353,0,10.899,1,0.6,4.5,2.342,0.35,0.0168,0.4,250.38,0.134,0,1,0.31,0.03,0,11.17,250.41,0.5837,-0.3289,0.7424,11.08,250.38,0,0,37.256,0,0,0,0,0,267.56,0,0,0,0,0,0,0,0,0,0,0,0,0,1,1,0,0,VALID,0,0,0,0,0,1,0,0,0,0,0,0,0,0,0,0,0,0,0,0,827.62,2668.53,6,0,0.76,0.5,118,1.32,0.76,0.76,90.22,FLYING
90.94,APPROACH,FLY_TO_FIX,146.42,149,2.58,1316.01,0.98,11.18,10.8,250.38,0.002,0.3267,0,12.197,1,0.6,4.5,2.342,0.35,0.0168,0.4,250.34,0.131,0,1,0.36,0.04,0,11.09,250.38,0.5852,-0.3297,0.7409,10.97,250.34,0,0,37.14,0,0,0,0,0,267.56,0,0,0,0,0,0,0,0,0,0,0,0,0,1,1,0,0,VALID,0,0,0,0,0,1,0,0,0,0,0,0,0,0,0,0,0,0,0,0,837.84,2670.78,6,0,0.76,0.5,119,1.32,0.76,0.76,90.98,FLYING
91.7,APPROACH,FLY_TO_FIX,146.65,149,2.35,1316.71,1.05,11.1,10.69,250.34,-0.002,0.3106,0,13.381,1,0.6,4.5,2.342,0.35,0.0168,0.4,250.3,0.127,0,1,0.4,0.04,0,10.98,250.34,0.5867,-0.3305,0.7393,10.85,250.3,0,0,37.025,0,0,0,0,0,267.56,0,0,0,0,0,0,0,0,0,0,0,0,0,1,1,0,0,VALID,0,0,0,0,0,1,0,0,0,0,0,0,0,0,0,0,0,0,0,0,843.7,2673.57,6,0,0.76,0.5,120,1.32,0.76,0.76,91.74,FLYING
92.46,APPROACH,FLY_TO_FIX,146.91,149,2.09,1317.43,1.06,11,10.58,250.29,-0.01,0.2896,0,14.435,1,0.6,4.5,2.342,0.35,0.0168,0.4,250.26,0.124,0,1,0.4,0.03,0,10.86,250.3,0.5881,-0.3313,0.7378,10.74,250.26,0,0,36.909,0,0,0,0,0,267.56,0,0,0,0,0,0,0,0,0,0,0,0,0,1,1,0,0,VALID,0,0,0,0,0,1,0,0,0,0,0,0,0,0,0,0,0,0,0,0,841.65,2676.74,6,0,0.76,0.5,121,1.32,0.76,0.76,92.5,FLYING
93.22,APPROACH,FLY_TO_FIX,147.17,149,1.83,1318.14,1.04,10.89,10.47,250.25,-0.019,0.2709,0,15.36,1,0.6,4.5,2.342,0.35,0.0168,0.4,250.22,0.12,0,1,0.41,0.04,0,10.75,250.26,0.5897,-0.3321,0.7362,10.62,250.22,0,0,36.793,0,0,0,0,0,267.56,0,0,0,0,0,0,0,0,0,0,0,0,0,1,1,0,0,VALID,0,0,0,0,0,1,0,0,0,0,0,0,0,0,0,0,0,0,0,0,826.93,2679.89,6,0,0.76,0.5,122,1.32,0.76,0.76,93.26,FLYING
93.98,APPROACH,FLY_TO_FIX,147.42,149,1.58,1318.81,0.96,10.76,10.38,250.21,-0.021,0.2544,0,16.158,1,0.6,4.5,2.342,0.35,0.0168,0.4,250.18,0.117,0,1,0.38,0.04,0,10.63,250.22,0.5911,-0.3329,0.7347,10.51,250.18,0,0,36.677,0,0,0,0,0,267.56,0,0,0,0,0,0,0,0,0,0,0,0,0,1,1,0,0,VALID,0,0,0,0,0,1,0,0,0,0,0,0,0,0,0,0,0,0,0,0,803.83,2682.94,6,0,0.76,0.5,123,1.32,0.76,0.76,94.02,FLYING
94.74,APPROACH,FLY_TO_FIX,147.65,149,1.35,1319.41,0.84,10.64,10.31,250.17,-0.009,0.2444,0,16.843,1,0.6,4.5,2.342,0.35,0.0168,0.4,250.13,0.114,0,1,0.35,0.04,0,10.52,250.18,0.5922,-0.3337,0.7335,10.43,250.13,0,0,36.56,0,0,0,0,0,267.56,0,0,0,0,0,0,0,0,0,0,0,0,0,1,1,0,0,VALID,0,0,0,0,0,1,0,0,0,0,0,0,0,0,0,0,0,0,0,0,775.63,2685.64,6,0,0.76,0.5,124,1.32,0.76,0.76,94.78,FLYING
95.5,APPROACH,FLY_TO_FIX,147.82,149,1.18,1319.91,0.7,10.53,10.24,250.12,0.018,0.2431,0,17.437,1,0.6,4.5,2.342,0.35,0.0168,0.4,250.09,0.111,0,1,0.29,0.03,0,10.44,250.13,0.5929,-0.3344,0.7325,10.37,250.09,0,0,36.444,0,0,0,0,0,267.56,0,0,0,0,0,0,0,0,0,0,0,0,0,1,1,0,0,VALID,0,0,0,0,0,1,0,0,0,0,0,0,0,0,0,0,0,0,0,0,747.69,2687.79,6,0,0.76,0.5,125,1.32,0.76,0.76,95.54,FLYING
96.26,APPROACH,FLY_TO_FIX,147.97,149,1.03,1320.31,0.52,10.43,10.21,250.08,0.018,0.2467,0,17.956,1,0.6,4.5,2.342,0.35,0.0168,0.4,250.05,0.109,0,1,0.23,0.04,0,10.38,250.09,0.5935,-0.3352,0.7317,10.33,250.05,0,0,36.327,0,0,0,0,0,267.56,0,0,0,0,0,0,0,0,0,0,0,0,0,1,1,0,0,VALID,0,0,0,0,0,1,0,0,0,0,0,0,0,0,0,0,0,0,0,0,725.49,2689.61,6,0,0.76,0.5,126,1.32,0.76,0.76,96.3,FLYING
97.02,APPROACH,FLY_TO_FIX,148.1,149,0.9,1320.58,0.34,10.36,10.21,250.04,0.006,0.253,0,18.411,1,0.6,4.5,2.342,0.35,0.0168,0.4,250,0.107,0,1,0.16,0.03,0,10.34,250.05,0.5936,-0.3359,0.7313,10.32,250,0,0,36.21,0,0,0,0,0,267.56,0,0,0,0,0,0,0,0,0,0,0,0,0,1,1,0,0,VALID,0,0,0,0,0,1,0,0,0,0,0,0,0,0,0,0,0,0,0,0,710.96,2691.14,6,0,0.76,0.5,127,1.32,0.76,0.76,97.06,FLYING
97.78,APPROACH,FLY_TO_FIX,148.2,149,0.8,1320.75,0.18,10.31,10.23,249.99,-0.003,0.2628,0,18.816,1,0.6,4.5,2.342,0.35,0.0168,0.4,249.96,0.106,0,1,0.1,0.04,0,10.33,250,0.5934,-0.3367,0.7311,10.33,249.96,0,0,36.094,0,0,0,0,0,267.56,0,0,0,0,0,0,0,0,0,0,0,0,0,1,1,0,0,VALID,0,0,0,0,0,1,0,0,0,0,0,0,0,0,0,0,0,0,0,0,703.97,2692.35,6,0,0.76,0.5,128,1.32,0.76,0.76,97.82,FLYING
98.54,APPROACH,FLY_TO_FIX,148.3,149,0.7,1320.82,0.03,10.28,10.27,249.95,-0.013,0.2697,0,19.171,1,0.6,4.5,2.342,0.35,0.0168,0.4,249.91,0.106,0,1,0.04,0.04,0,10.34,249.96,0.5929,-0.3374,0.7312,10.36,249.91,0,0,35.977,0,0,0,0,0,267.56,0,0,0,0,0,0,0,0,0,0,0,0,0,1,1,0,0,VALID,0,0,0,0,0,1,0,0,0,0,0,0,0,0,0,0,0,0,0,0,704.65,2693.6,6,0,0.76,0.5,129,1.32,0.76,0.76,98.58,FLYING
99.3,APPROACH,FLY_TO_FIX,148.39,149,0.61,1320.81,-0.07,10.29,10.32,249.91,0.001,0.2755,0,19.478,1,0.6,4.5,2.342,0.35,0.0168,0.4,249.86,0.106,0,1,-0.01,0.04,0,10.37,249.91,0.5922,-0.3381,0.7314,10.41,249.86,0,0,35.86,0,0,0,0,0,267.56,0,0,0,0,0,0,0,0,0,0,0,0,0,1,1,0,0,VALID,0,0,0,0,0,1,0,0,0,0,0,0,0,0,0,0,0,0,0,0,707.96,2694.75,6,0,0.76,0.5,130,1.32,0.76,0.76,99.34,FLYING
100.06,APPROACH,FLY_TO_FIX,148.48,149,0.52,1320.76,-0.12,10.32,10.37,249.86,-0.001,0.2796,0,19.74,1,0.6,4.5,2.342,0.35,0.0168,0.4,249.81,0.106,0,1,-0.04,0.05,0,10.42,249.86,0.5914,-0.3388,0.7318,10.46,249.81,0,0,35.743,0,0,0,0,0,267.56,0,0,0,0,0,0,0,0,0,0,0,0,0,1,1,0,0,VALID,0,0,0,0,0,1,0,0,0,0,0,0,0,0,0,0,0,0,0,0,713.07,2695.89,6,0,0.76,0.5,131,1.32,0.76,0.76,100.1,FLYING
100.82,APPROACH,FLY_TO_FIX,148.57,149,0.43,1320.72,-0.12,10.37,10.43,249.82,-0.009,0.2837,0,19.961,1,0.6,4.5,2.342,0.35,0.0168,0.4,249.76,0.106,0,1,-0.04,0.06,0,10.48,249.81,0.5906,-0.3396,0.7321,10.52,249.76,0,0,35.626,0,0,0,0,0,267.56,0,0,0,0,0,0,0,0,0,0,0,0,0,1,1,0,0,VALID,0,0,0,0,0,1,0,0,0,0,0,0,0,0,0,0,0,0,0,0,719.05,2696.94,6,0,0.76,0.5,132,1.32,0.76,0.76,100.86,FLYING
101.58,APPROACH,FLY_TO_FIX,148.65,149,0.35,1320.69,-0.07,10.43,10.48,249.77,-0.009,0.283,0,20,1,0.6,4.5,2.342,0.35,0.0168,0.4,249.71,0.107,0,1,-0.03,0.06,0,10.53,249.76,0.5898,-0.3404,0.7323,10.57,249.71,0,0,35.509,0,0,0,0,0,267.56,0,0,0,0,0,0,0,0,0,0,0,0,0,1,1,0,0,VALID,0,0,0,0,0,1,0,0,0,0,0,0,0,0,0,0,0,0,0,0,725.82,2698.01,6,0,0.76,0.5,133,1.32,0.76,0.76,101.62,FLYING
102.34,APPROACH,FLY_TO_FIX,148.74,149,0.26,1320.71,-0.01,10.5,10.52,249.72,-0.001,0.28,0,20,1,0.6,4.5,2.342,0.35,0.0168,0.4,249.66,0.106,0,1,-0.01,0.06,0,10.58,249.71,0.5891,-0.3411,0.7325,10.62,249.66,0,0,35.392,0,0,0,0,0,267.56,0,0,0,0,0,0,0,0,0,0,0,0,0,1,1,0,0,VALID,0,0,0,0,0,1,0,0,0,0,0,0,0,0,0,0,0,0,0,0,731.45,2699.12,6,0,0.76,0.5,134,1.32,0.76,0.76,102.38,FLYING
103.1,APPROACH,FLY_TO_FIX,148.84,149,0.16,1320.76,0.05,10.55,10.55,249.67,-0.01,0.2742,0,20,1,0.6,4.5,2.342,0.35,0.0168,0.4,249.61,0.106,0,1,0.01,0.06,0,10.63,249.66,0.5885,-0.342,0.7326,10.65,249.61,0,0,35.275,0,0,0,0,0,267.56,0,0,0,0,0,0,0,0,0,0,0,0,0,1,1,0,0,VALID,0,0,0,0,0,1,0,0,0,0,0,0,0,0,0,0,0,0,0,0,735.24,2700.35,6,0,0.76,0.5,135,1.32,0.76,0.76,103.14,FLYING
103.86,APPROACH,FLY_TO_FIX,148.93,149,0.07,1320.87,0.14,10.6,10.58,249.62,-0.006,0.2691,0,20,1,0.6,4.5,2.342,0.35,0.0168,0.4,249.55,0.106,0,1,0.04,0.06,0,10.67,249.61,0.5881,-0.3428,0.7325,10.68,249.55,0,0,35.158,0,0,0,0,0,267.56,0,0,0,0,0,0,0,0,0,0,0,0,0,1,1,0,0,VALID,0,0,0,0,0,1,0,0,0,0,0,0,0,0,0,0,0,0,0,0,736.35,2701.52,6,0,0.76,0.5,136,1.32,0.76,0.76,103.9,FLYING
104.62,APPROACH,FLY_TO_FIX,149.02,149,-0.02,1321.03,0.23,10.65,10.58,249.56,-0.008,0.2648,0,19.993,1,0.6,4.5,2.342,0.35,0.0168,0.4,249.5,0.105,0,1,0.07,0.06,0,10.69,249.55,0.5878,-0.3438,0.7323,10.69,249.5,0,0,35.041,0,0,0,0,0,267.56,0,0,0,0,0,0,0,0,0,0,0,0,0,1,1,0,0,VALID,0,0,0,0,0,1,0,0,0,0,0,0,0,0,0,0,0,0,0,0,734.46,2702.6,6,0,0.76,0.5,137,1.32,0.76,0.76,104.66,FLYING
105.38,APPROACH,FLY_TO_FIX,149.08,149,-0.08,1321.28,0.37,10.69,10.57,249.5,0.006,0.2655,0,19.955,1,0.6,4.5,2.342,0.35,0.0168,0.4,249.44,0.104,0,1,0.12,0.07,0,10.7,249.5,0.5879,-0.3447,0.7318,10.68,249.44,0,0,34.924,0,0,0,0,0,267.56,0,0,0,0,0,0,0,0,0,0,0,0,0,1,1,0,0,VALID,0,0,0,0,0,1,0,0,0,0,0,0,0,0,0,0,0,0,0,0,730.2,2703.32,6,0,0.76,0.5,138,1.32,0.76,0.76,105.42,FLYING
106.14,APPROACH,FLY_TO_FIX,149.12,149,-0.12,1321.62,0.5,10.71,10.53,249.45,0.002,0.2677,0,19.895,1,0.6,4.5,2.342,0.35,0.0168,0.4,249.38,0.102,0,1,0.18,0.07,0,10.69,249.44,0.5883,-0.3457,0.731,10.64,249.38,0,0,34.807,0,0,0,0,0,267.56,0,0,0,0,0,0,0,0,0,0,0,0,0,1,1,0,0,VALID,0,0,0,0,0,1,0,0,0,0,0,0,0,0,0,0,0,0,0,0,727.31,2703.86,6,0,0.76,0.5,139,1.32,0.76,0.76,106.18,FLYING
106.9,APPROACH,FLY_TO_FIX,149.19,149,-0.19,1322.06,0.55,10.69,10.55,249.39,0.007,0.2647,0,19.804,1,0.6,4.5,2.342,0.35,0.0168,0.4,249.32,0.1,0,1,0.21,0.07,0,10.65,249.38,0.5886,-0.3468,0.7303,10.61,249.32,0,0,34.69,0,0,0,0,0,267.56,0,0,0,0,0,0,0,0,0,0,0,0,0,1,1,0,0,VALID,0,0,0,0,0,1,0,0,0,0,0,0,0,0,0,0,0,0,0,0,726.67,2704.65,6,0,0.76,0.5,140,1.32,0.76,0.76,106.94,FLYING
107.66,APPROACH,FLY_TO_FIX,149.22,149,-0.22,1322.56,0.7,10.78,10.54,249.32,-0.021,0.2677,0,19.697,1,0.6,4.5,2.342,0.35,0.0168,0.4,249.25,0.098,0,1,0.25,0.07,0,10.62,249.32,0.588,-0.3478,0.7303,10.64,249.25,0,0,34.572,0,0,0,0,0,267.56,0,0,0,0,0,0,0,0,0,0,0,0,0,1,1,0,0,VALID,0,0,0,0,0,1,0,0,0,0,0,0,0,0,0,0,0,0,0,0,724.22,2704.93,6,0,0.76,0.5,141,1.32,0.76,0.76,107.7,FLYING
108.42,APPROACH,FLY_TO_FIX,149.24,149,-0.24,1323.13,0.83,10.77,10.47,249.26,-0.006,0.27,0,19.578,1,0.6,4.5,2.342,0.35,0.0168,0.4,249.19,0.095,0,1,0.3,0.07,0,10.65,249.25,0.5887,-0.3489,0.7292,10.58,249.19,0,0,34.455,0,0,0,0,0,267.56,0,0,0,0,0,0,0,0,0,0,0,0,0,1,1,0,0,VALID,0,0,0,0,0,1,0,0,0,0,0,0,0,0,0,0,0,0,0,0,724.2,2705.21,6,0,0.76,0.5,142,1.32,0.76,0.76,108.46,FLYING
109.18,APPROACH,FLY_TO_FIX,149.28,149,-0.28,1323.74,0.9,10.72,10.37,249.2,0.024,0.268,0,19.439,1,0.6,4.5,2.342,0.35,0.0168,0.4,249.12,0.092,0,1,0.33,0.08,0,10.59,249.19,0.5897,-0.3501,0.7278,10.49,249.12,0,0,34.338,0,0,0,0,0,267.56,0,0,0,0,0,0,0,0,0,0,0,0,0,1,1,0,0,VALID,0,0,0,0,0,1,0,0,0,0,0,0,0,0,0,0,0,0,0,0,725.15,2705.63,6,0,0.76,0.5,143,1.32,0.76,0.76,109.22,FLYING
109.94,APPROACH,FLY_TO_FIX,149.34,149,-0.34,1324.36,0.91,10.63,10.27,249.12,0.022,0.2613,0,19.273,1,0.6,4.5,2.342,0.35,0.0168,0.4,249.05,0.089,0,1,0.35,0.08,0,10.5,249.12,0.5909,-0.3514,0.7262,10.38,249.05,0,0,34.221,0,0,0,0,0,267.56,0,0,0,0,0,0,0,0,0,0,0,0,0,1,1,0,0,VALID,0,0,0,0,0,1,0,0,0,0,0,0,0,0,0,0,0,0,0,0,725.3,2706.31,6,0,0.76,0.5,144,1.32,0.76,0.76,109.98,FLYING
110.7,APPROACH,FLY_TO_FIX,149.41,149,-0.41,1324.96,0.88,10.53,10.18,249.06,-0.002,0.25,0,19.069,1,0.6,4.5,2.342,0.35,0.0168,0.4,248.97,0.086,0,1,0.34,0.08,0,10.39,249.05,0.592,-0.3527,0.7246,10.29,248.97,0,0,34.104,0,0,0,0,0,267.56,0,0,0,0,0,0,0,0,0,0,0,0,0,1,1,0,0,VALID,0,0,0,0,0,1,0,0,0,0,0,0,0,0,0,0,0,0,0,0,721.28,2707.18,6,0,0.76,0.5,145,1.32,0.76,0.76,110.74,FLYING
111.46,APPROACH,FLY_TO_FIX,149.51,149,-0.51,1325.51,0.77,10.41,10.1,248.98,-0.011,0.235,0,18.819,1,0.6,4.5,2.342,0.35,0.0168,0.4,248.9,0.083,0,1,0.31,0.08,0,10.3,248.97,0.5929,-0.354,0.7232,10.2,248.9,0,0,33.986,0,0,0,0,0,267.56,0,0,0,0,0,0,0,0,0,0,0,0,0,1,1,0,0,VALID,0,0,0,0,0,1,0,0,0,0,0,0,0,0,0,0,0,0,0,0,711,2708.26,6,0,0.76,0.5,146,1.32,0.76,0.76,111.5,FLYING
112.22,APPROACH,FLY_TO_FIX,149.59,149,-0.59,1325.97,0.65,10.3,10.04,248.9,-0.027,0.2226,0,18.53,1,0.6,4.5,2.342,0.35,0.0168,0.4,248.82,0.081,0,1,0.27,0.09,0,10.21,248.9,0.5937,-0.3554,0.7219,10.13,248.82,0,0,33.869,0,0,0,0,0,267.56,0,0,0,0,0,0,0,0,0,0,0,0,0,1,1,0,0,VALID,0,0,0,0,0,1,0,0,0,0,0,0,0,0,0,0,0,0,0,0,693.48,2709.2,6,0,0.76,0.5,147,1.32,0.76,0.76,112.26,FLYING
112.98,APPROACH,FLY_TO_FIX,149.64,149,-0.64,1326.34,0.5,10.21,9.99,248.83,-0.004,0.2151,0,18.212,1,0.6,4.5,2.342,0.35,0.0168,0.4,248.73,0.079,0,1,0.22,0.09,0,10.14,248.82,0.5941,-0.3568,0.721,10.08,248.73,0,0,33.752,0,0,0,0,0,267.56,0,0,0,0,0,0,0,0,0,0,0,0,0,1,1,0,0,VALID,0,0,0,0,0,1,0,0,0,0,0,0,0,0,0,0,0,0,0,0,672.03,2709.83,6,0,0.76,0.5,148,1.32,0.76,0.76,113.02,FLYING
113.74,APPROACH,FLY_TO_FIX,149.66,149,-0.66,1326.6,0.31,10.13,9.99,248.74,-0.002,0.2129,0,17.88,1,0.6,4.5,2.342,0.35,0.0168,0.4,248.65,0.077,0,1,0.16,0.1,0,10.09,248.73,0.594,-0.3582,0.7203,10.06,248.65,0,0,33.634,0,0,0,0,0,267.56,0,0,0,0,0,0,0,0,0,0,0,0,0,1,1,0,0,VALID,0,0,0,0,0,1,0,0,0,0,0,0,0,0,0,0,0,0,0,0,650.72,2710.12,6,0,0.76,0.5,149,1.32,0.76,0.76,113.78,FLYING
114.5,APPROACH,FLY_TO_FIX,149.67,149,-0.67,1326.71,0.1,10.06,10.01,248.65,-0.003,0.2131,0,17.543,1,0.6,4.5,2.342,0.35,0.0168,0.4,248.56,0.077,0,1,0.07,0.1,0,10.07,248.65,0.5935,-0.3597,0.7199,10.08,248.56,0,0,33.517,0,0,0,0,0,267.56,0,0,0,0,0,0,0,0,0,0,0,0,0,1,1,0,0,VALID,0,0,0,0,0,1,0,0,0,0,0,0,0,0,0,0,0,0,0,0,633.05,2710.2,6,0,0.76,0.5,150,1.32,0.76,0.76,114.54,FLYING
115.26,APPROACH,FLY_TO_FIX,149.64,149,-0.64,1326.72,-0.06,10.04,10.05,248.57,0,0.2217,0,17.223,1,0.6,4.5,2.342,0.35,0.0168,0.4,248.46,0.076,0,1,0.01,0.11,0,10.09,248.56,0.5928,-0.3612,0.7198,10.11,248.46,0,0,33.4,0,0,0,0,0,267.56,0,0,0,0,0,0,0,0,0,0,0,0,0,1,1,0,0,VALID,0,0,0,0,0,1,0,0,0,0,0,0,0,0,0,0,0,0,0,0,619.62,2709.74,6,0,0.76,0.5,151,1.32,0.76,0.76,115.3,FLYING
116.02,APPROACH,FLY_TO_FIX,149.59,149,-0.59,1326.63,-0.2,10.04,10.12,248.48,-0.009,0.232,0,16.928,1,0.6,4.5,2.342,0.35,0.0168,0.4,248.36,0.077,0,1,-0.05,0.12,0,10.12,248.46,0.5916,-0.3627,0.72,10.18,248.36,0,0,33.283,0,0,0,0,0,267.56,0,0,0,0,0,0,0,0,0,0,0,0,0,1,1,0,0,VALID,0,0,0,0,0,1,0,0,0,0,0,0,0,0,0,0,0,0,0,0,614.85,2709.08,6,0,0.76,0.5,152,1.32,0.76,0.76,116.06,FLYING
116.78,APPROACH,FLY_TO_FIX,149.52,149,-0.52,1326.46,-0.31,10.07,10.2,248.38,0,0.2429,0,16.664,1,0.6,4.5,2.342,0.35,0.0168,0.4,248.25,0.077,0,1,-0.1,0.12,0,10.19,248.36,0.5902,-0.3643,0.7204,10.26,248.25,0,0,33.166,0,0,0,0,0,267.56,0,0,0,0,0,0,0,0,0,0,0,0,0,1,1,0,0,VALID,0,0,0,0,0,1,0,0,0,0,0,0,0,0,0,0,0,0,0,0,616.47,2708.31,6,0,0.76,0.5,153,1.32,0.76,0.76,116.82,FLYING
117.54,APPROACH,FLY_TO_FIX,149.45,149,-0.45,1326.25,-0.38,10.14,10.3,248.28,-0.003,0.2537,0,16.436,1,0.6,4.5,2.342,0.35,0.0168,0.4,248.14,0.078,0,1,-0.14,0.14,0,10.27,248.25,0.5885,-0.366,0.7209,10.35,248.14,0,0,33.048,0,0,0,0,0,267.56,0,0,0,0,0,0,0,0,0,0,0,0,0,1,1,0,0,VALID,0,0,0,0,0,1,0,0,0,0,0,0,0,0,0,0,0,0,0,0,622.01,2707.44,6,0,0.76,0.5,154,1.32,0.76,0.76,117.58,FLYING
118.3,APPROACH,FLY_TO_FIX,149.37,149,-0.37,1326.03,-0.37,10.22,10.39,248.17,-0.009,0.266,0,16.248,1,0.6,4.5,2.342,0.35,0.0168,0.4,248.02,0.08,0,1,-0.15,0.15,0,10.37,248.14,0.5868,-0.3678,0.7214,10.45,248.02,0,0,32.932,0,0,0,0,0,267.56,0,0,0,0,0,0,0,0,0,0,0,0,0,1,1,0,0,VALID,0,0,0,0,0,1,0,0,0,0,0,0,0,0,0,0,0,0,0,0,630.85,2706.42,6,0,0.76,0.5,155,1.32,0.76,0.76,118.34,FLYING
119.06,APPROACH,FLY_TO_FIX,149.28,149,-0.28,1325.85,-0.31,10.33,10.48,248.05,0.001,0.2784,0,16.105,1,0.6,4.5,2.342,0.35,0.0168,0.4,247.9,0.081,0,1,-0.13,0.15,0,10.46,248.02,0.5852,-0.3697,0.7217,10.53,247.9,0,0,32.815,0,0,0,0,0,267.56,0,0,0,0,0,0,0,0,0,0,0,0,0,1,1,0,0,VALID,0,0,0,0,0,1,0,0,0,0,0,0,0,0,0,0,0,0,0,0,643.07,2705.34,6,0,0.76,0.5,156,1.32,0.76,0.76,119.1,FLYING
119.82,APPROACH,FLY_TO_FIX,149.2,149,-0.2,1325.72,-0.2,10.43,10.53,247.93,-0.003,0.2883,0,16.003,1,0.6,4.5,2.342,0.35,0.0168,0.4,247.76,0.081,0,1,-0.09,0.16,0,10.54,247.9,0.5838,-0.3718,0.7217,10.6,247.76,0,0,32.698,0,0,0,0,0,267.56,0,0,0,0,0,0,0,0,0,0,0,0,0,1,1,0,0,VALID,0,0,0,0,0,1,0,0,0,0,0,0,0,0,0,0,0,0,0,0,658.26,2704.35,6,0,0.76,0.5,157,1.32,0.76,0.76,119.86,FLYING
120.58,APPROACH,FLY_TO_FIX,149.14,149,-0.14,1325.68,-0.08,10.52,10.58,247.81,0,0.2932,0,15.931,1,0.6,4.5,2.342,0.35,0.0168,0.4,247.62,0.082,0,1,-0.05,0.19,0,10.61,247.76,0.5826,-0.374,0.7216,10.65,247.62,0,0,32.581,0,0,0,0,0,267.56,0,0,0,0,0,0,0,0,0,0,0,0,0,1,1,0,0,VALID,0,0,0,0,0,1,0,0,0,0,0,0,0,0,0,0,0,0,0,0,675.12,2703.61,6,0,0.76,0.5,158,1.32,0.76,0.76,120.62,FLYING
121.34,APPROACH,FLY_TO_FIX,149.1,149,-0.1,1325.72,0.06,10.6,10.61,247.67,0.006,0.2938,0,15.88,1,0.6,4.5,2.342,0.35,0.0168,0.4,247.47,0.081,0,1,0,0.21,0,10.66,247.62,0.5815,-0.3764,0.7212,10.68,247.47,0,0,32.465,0,0,0,0,0,267.56,0,0,0,0,0,0,0,0,0,0,0,0,0,1,1,0,0,VALID,0,0,0,0,0,1,0,0,0,0,0,0,0,0,0,0,0,0,0,0,691.57,2703.11,6,0,0.76,0.5,159,1.32,0.76,0.76,121.38,FLYING
122.1,APPROACH,FLY_TO_FIX,149.08,149,-0.08,1325.85,0.2,10.66,10.61,247.53,-0.008,0.2893,0,15.837,1,0.6,4.5,2.342,0.35,0.0168,0.4,247.3,0.081,0,1,0.05,0.23,0,10.7,247.47,0.5807,-0.3791,0.7205,10.69,247.3,0,0,32.348,0,0,0,0,0,267.56,0,0,0,0,0,0,0,0,0,0,0,0,0,1,1,0,0,VALID,0,0,0,0,0,1,0,0,0,0,0,0,0,0,0,0,0,0,0,0,706,2702.92,6,0,0.76,0.5,160,1.32,0.76,0.76,122.14,FLYING
122.86,APPROACH,FLY_TO_FIX,149.08,149,-0.08,1326.09,0.35,10.7,10.59,247.38,-0.027,0.2846,0,15.797,1,0.6,4.5,2.342,0.35,0.0168,0.4,247.12,0.08,0,1,0.11,0.26,0,10.7,247.3,0.5802,-0.3819,0.7194,10.67,247.12,0,0,32.232,0,0,0,0,0,267.56,0,0,0,0,0,0,0,0,0,0,0,0,0,1,1,0,0,VALID,0,0,0,0,0,1,0,0,0,0,0,0,0,0,0,0,0,0,0,0,716.77,2702.85,6,0,0.76,0.5,161,1.32,0.76,0.76,122.9,FLYING
