t_s,phase,subphase,ias_ms,vapp_ms,spd_err_ms,agl_m,gear_h_m,vs_ms,pitch_deg,aoa_deg,hdg_deg,bank_deg,thr_cmd,thr_cur,thr_intg,at_gain,at_tau_s,at_a_up,at_a_dn,at_kp_thr,at_ki_spd,at_thr_slew,as_cmd_deg,as_cap_deg,as_raw_deg,as_spd_err_ms,as_active,aa_hdg_cmd_deg,aa_fpa_cmd_deg,aa_fbw,aa_dir,actual_fpa_deg,ftf_hdg_err_deg,ftf_fix_idx,kos_steer_pit_deg,kos_steer_hdg_deg,aa_dir_vx,aa_dir_vy,aa_dir_vz,aa_dir_pitch_deg,aa_dir_hdg_deg,ils_loc_m,ils_gs_m,ils_dist_km,loc_corr_deg,gs_corr_deg,gs_latched,active_gs_ang_deg,ils_intercept_alt_m,d_gs_ms,fpa_preclamped_deg,gs_nom_alt_m,flare_fpa_cmd,flare_tgt_vs,flare_frac,flare_round_blend_h,flare_round_blend_ttg,flare_round_blend,flare_mode,flare_auth_limited,flare_auth_reason,flare_vs_err,flare_fpa_err,flare_pitch_err,flare_theta_cmd_raw,flare_theta_cmd_clamped,flare_theta_clamp_active,flare_aoa_clamp_active,flare_pitch_in_cmd,elev_defl_avg_deg,elev_defl_max_deg,elev_defl_n,flare_ctrl_h_m,flare_req_up_a,flare_thr_floor,flare_tecs_et_err,flare_tecs_eb_err,flare_tecs_h_ref,flare_tecs_v_ref,flare_gamma_ref,flare_gamma_eb_term,flare_gamma_unsat,steer_hdg_deg,steer_blend,ro_loc_corr_deg,ro_hdg_err_deg,ro_yaw_tgt,ro_yaw_scale,ro_yaw_gate,yaw_cmd,roll_cmd,pitch_cmd,ro_pitch_tgt_deg,ro_pitch_err_deg,ro_pitch_ff,ro_roll_assist,flaps_cur,flaps_tgt,asc_j_ab,asc_j_rk,asc_validity,asc_q_pa,asc_q_raw_pa,asc_mach,asc_apo_m,asc_drag_n,asc_w_prop,asc_edot_aero,asc_edot_orb,asc_pitch_bias,asc_blend,asc_spooling,asc_ab_thr_ratio,asc_ab_t_now,asc_ab_t_avail,asc_ab_ign_on,asc_ab_flameouts,asc_rk_t_now,asc_rk_t_avail,asc_rk_ign_on,asc_rk_flameouts,ship_thrust,ship_avail_thrust,ship_ign_on,ship_flameouts,ifc_raw_dt_s,ifc_dt_s,ifc_loop_n,ifc_hz_est,ifc_raw_dt_max_s,ifc_raw_dt_min_s,phase_el_s,status,craft_name,cfg_file
4.58,TAKEOFF,TO_PREFLIGHT,0,80,80,3.61,2.78,0,0,-0.95,90.88,0.046,0.08,0,0,0,0,0,0,0,0,0,0,0,0,0,0,90.4,0,1,0,0,0,0,0,90,0,0,0,0,0,0,0,0,0,0,0,3,0,0,0,69,0,0,0,0,0,0,,0,NONE,0,0,0,0,0,0,0,0,0,0,0,2.78,0,0,0,0,0,0,0,0,0,90.4,1,0,0.476,0,0,1,0,0,0,0,0,0,0,0,1,0,0,VALID,0,0,0,0,0,1,0,0,0,0,0,0,0,0,0,0,0,0,0,0,0,483.53,2,0,0.2,0.2,1,0.22,0.2,0.02,4.38,PRELAUNCH,CF1-J,0:/Integrated Flight Computer/aircraft/cf1_j_cfg.ks (inferred preloaded)
4.86,TAKEOFF,TO_PREFLIGHT,0,80,80,3.61,2.78,0,0,-11.73,90.92,0.047,0.36,0,0,0,0,0,0,0,0,0,0,0,0,0,0,90.4,0,1,0,0,0,0,0,90,0,0,0,0,0,0,0,0,0,0,0,3,0,0,0,69,0,0,0,0,0,0,,0,NONE,0,0,0,0,0,0,0,0,0,0,0,2.78,0,0,0,0,0,0,0,0,0,90.4,1,0,0.476,0,0,1,0,0,0,0,0,0,0,1,1,0,0,VALID,0,0,0,0,0,1,0,0,0,0,0,0,0,0,0,0,0,0,0,0,1.57,483.53,2,0,0.06,0.06,5,14.29,4.46,0.06,4.68,PRELAUNCH,CF1-J,0:/Integrated Flight Computer/aircraft/cf1_j_cfg.ks (inferred preloaded)
5.16,TAKEOFF,TO_PREFLIGHT,0,80,80,3.61,2.78,0,-0.01,-5.75,90.93,0.047,0.48,0,0,0,0,0,0,0,0,0,0,0,0,0,0,90.4,0,1,0,0.01,0,0,0,90,0,0,0,0,0,0,0,0,0,0,0,3,0,0,0,69,0,0,0,0,0,0,,0,NONE,0,0,0,0,0,0,0,0,0,0,0,2.78,0,0,0,0,0,0,0,0,0,90.4,1,0,0.476,0,0,1,0,0,0,0,0,0,0,1,1,0,0,VALID,0,0,0,0,0,1,0,0,0,0,0,0,0,0,0,0,0,0,0,0,4.91,483.53,2,0,0.06,0.06,10,16.67,0.08,0.04,4.98,PRELAUNCH,CF1-J,0:/Integrated Flight Computer/aircraft/cf1_j_cfg.ks (inferred preloaded)
5.42,TAKEOFF,TO_PREFLIGHT,0.01,80,79.99,3.61,2.78,0,-0.01,2.77,90.93,0.047,0.584,0,0,0,0,0,0,0,0,0,0,0,0,0,0,90.4,0,1,0,0,0,0,0,90,0,0,0,0,0,0,0,0,0,0,0,3,0,0,0,69,0,0,0,0,0,0,,0,NONE,0,0,0,0,0,0,0,0,0,0,0,2.78,0,0,0,0,0,0,0,0,0,90.4,1,0,0.476,0,0,1,0,0,0,0,0,0,0,1,1,0,0,VALID,0,0,0,0,0,1,0,0,0,0,0,0,0,0,0,0,0,0,0,0,8.59,483.53,2,0,0.04,0.04,14,15.38,0.08,0.04,5.24,PRELAUNCH,CF1-J,0:/Integrated Flight Computer/aircraft/cf1_j_cfg.ks (inferred preloaded)
5.7,TAKEOFF,TO_PREFLIGHT,0.01,80,79.99,3.61,2.78,0,-0.02,-0.02,90.93,0.046,0.696,0,0,0,0,0,0,0,0,0,0,0,0,0,0,90.4,0,1,0,0.01,0,0,0,90,0,0,0,0,0,0,0,0,0,0,0,3,0,0,0,69,0,0,0,0,0,0,,0,NONE,0,0,0,0,0,0,0,0,0,0,0,2.78,0,0,0,0,0,0,0,0,0,90.4,1,0,0.476,0,0,1,0,0,0,0,0,0,0,1,1,0,0,VALID,0,0,0,0,0,1,0,0,0,0,0,0,0,0,0,0,0,0,0,0,13.37,483.53,2,0,0.06,0.06,18,14.29,0.08,0.04,5.52,PRELAUNCH,CF1-J,0:/Integrated Flight Computer/aircraft/cf1_j_cfg.ks (inferred preloaded)
6,TAKEOFF,TO_PREFLIGHT,0.01,80,79.99,3.61,2.78,0,-0.02,-2.93,90.94,0.047,0.816,0,0,0,0,0,0,0,0,0,0,0,0,0,0,90.4,0,1,0,0.04,0,0,0,90,0,0,0,0,0,0,0,0,0,0,0,3,0,0,0,69,0,0,0,0,0,0,,0,NONE,0,0,0,0,0,0,0,0,0,0,0,2.78,0,0,0,0,0,0,0,0,0,90.4,1,0,0.476,0,0,1,0,0,0,0,0,0,0,1,1,0,0,VALID,0,0,0,0,0,1,0,0,0,0,0,0,0,0,0,0,0,0,0,0,19.41,483.53,2,0,0.06,0.06,23,16.67,0.08,0.04,5.82,PRELAUNCH,CF1-J,0:/Integrated Flight Computer/aircraft/cf1_j_cfg.ks (inferred preloaded)
6.28,TAKEOFF,TO_PREFLIGHT,0.02,80,79.98,3.61,2.78,0,-0.03,-1.34,90.94,0.047,0.928,0,0,0,0,0,0,0,0,0,0,0,0,0,0,90.4,0,1,0,0.04,0,0,0,90,0,0,0,0,0,0,0,0,0,0,0,3,0,0,0,69,0,0,0,0,0,0,,0,NONE,0,0,0,0,0,0,0,0,0,0,0,2.78,0,0,0,0,0,0,0,0,0,90.4,1,0,0.476,0,0,1,0,0,0,0,0,0,0,1,1,0,0,VALID,0,0,0,0,0,1,0,0,0,0,0,0,0,0,0,0,0,0,0,0,25.87,483.53,2,0,0.04,0.04,28,17.86,0.08,0.04,6.1,PRELAUNCH,CF1-J,0:/Integrated Flight Computer/aircraft/cf1_j_cfg.ks (inferred preloaded)
6.54,TAKEOFF,TO_PREFLIGHT,0.02,80,79.98,3.61,2.78,0,-0.03,-0.15,90.94,0.047,1,0,0,0,0,0,0,0,0,0,0,0,0,0,0,90.4,0,1,0,-0.01,0,0,0,90,0,0,0,0,0,0,0,0,0,0,0,3,0,0,0,69,0,0,0,0,0,0,,0,NONE,0,0,0,0,0,0,0,0,0,0,0,2.78,0,0,0,0,0,0,0,0,0,90.4,1,0,0.476,0,0,1,0,0,0,0,0,0,0,1,1,0,0,VALID,0,0,0,0,0,1,0,0,0,0,0,0,0,0,0,0,0,0,0,0,32.61,483.53,2,0,0.08,0.08,32,15.38,0.08,0.04,6.36,PRELAUNCH,CF1-J,0:/Integrated Flight Computer/aircraft/cf1_j_cfg.ks (inferred preloaded)
6.82,TAKEOFF,TO_PREFLIGHT,0.03,80,79.97,3.61,2.78,0,-0.04,-2.14,90.94,0.046,1,0,0,0,0,0,0,0,0,0,0,0,0,0,0,90.4,0,1,0,0.06,0,0,0,90,0,0,0,0,0,0,0,0,0,0,0,3,0,0,0,69,0,0,0,0,0,0,,0,NONE,0,0,0,0,0,0,0,0,0,0,0,2.78,0,0,0,0,0,0,0,0,0,90.4,1,0,0.476,0,0,1,0,0,0,0,0,0,0,1,1,0,0,VALID,0,0,0,0,0,1,0,0,0,0,0,0,0,0,0,0,0,0,0,0,40.13,483.53,2,0,0.08,0.08,36,14.29,0.08,0.06,6.64,PRELAUNCH,CF1-J,0:/Integrated Flight Computer/aircraft/cf1_j_cfg.ks (inferred preloaded)
7.1,TAKEOFF,TO_GROUND_ROLL,0.03,80,79.97,3.61,2.78,0,-0.05,0.3,90.95,0.046,1,0,0,0,0,0,0,0,0,0,0,0,0,0,0,90.4,0,1,0,-0.02,0,0,0,90,0,0,0,0,0,0,0,0,0,0,0,3,0,0,0,69,0,0,0,0,0,0,,0,NONE,0,0,0,0,0,0,0,0,0,0,0,2.78,0,0,0,0,0,0,0,0,0,90.4,1,0,0.476,0,0,1,0,0,0,0,0,0,0,1,1,0,0,VALID,0,0,0,0,0,1,0,0,0,0,0,0,0,0,0,0,0,0,0,0,47.52,483.52,2,0,0.08,0.08,40,14.29,0.08,0.06,6.92,PRELAUNCH,CF1-J,0:/Integrated Flight Computer/aircraft/cf1_j_cfg.ks (inferred preloaded)
7.38,TAKEOFF,TO_GROUND_ROLL,0.12,80,79.88,3.62,2.78,-0.01,0.01,2.58,90.95,0.047,1,0,0,0,0,0,0,0,0,0,0,0,0,0,0,90.4,0,1,0,-0.58,0,0,0,90,0,0,0,0,0,0,0,0,0,0,0,3,0,0,0,69,0,0,0,0,0,0,,0,NONE,0,0,0,0,0,0,0,0,0,0,0,2.78,0,0,0,0,0,0,0,0,0,90.4,1,0,0.55,0,0,3,0,0,0,0,0,0,0,1,1,0,0,VALID,0,0,0,0,0,1,0,0,0,0,0,0,0,0,0,0,0,0,0,0,54.78,483.51,2,0,0.08,0.08,44,14.29,0.08,0.06,7.2,PRELAUNCH,CF1-J,0:/Integrated Flight Computer/aircraft/cf1_j_cfg.ks (inferred preloaded)
7.66,TAKEOFF,TO_GROUND_ROLL,0.37,80,79.63,3.62,2.79,0,0.03,-0.51,90.95,0.047,1,0,0,0,0,0,0,0,0,0,0,0,0,0,0,90.4,0,1,0,0.27,0,0,0,90,0,0,0,0,0,0,0,0,0,0,0,3,0,0,0,69,0,0,0,0,0,0,,0,NONE,0,0,0,0,0,0,0,0,0,0,0,2.79,0,0,0,0,0,0,0,0,0,90.4,1,0,0.551,0,0,3,0,0,0,0,0,0,0,1,1,0,0,VALID,0,0,0,0,0,1,0,0,0,0,0,0,0,0,0,0,0,0,0,0,61.92,483.45,2,0,0.08,0.08,48,14.29,0.08,0.06,7.48,PRELAUNCH,CF1-J,0:/Integrated Flight Computer/aircraft/cf1_j_cfg.ks (inferred preloaded)
7.94,TAKEOFF,TO_GROUND_ROLL,0.68,80,79.32,3.61,2.78,0,0,0.22,90.95,0.047,1,0,0,0,0,0,0,0,0,0,0,0,0,0,0,90.4,0,1,0,-0.25,0,0,0,90,0,0,0,0,0,0,0,0,0,0,0,3,0,0,0,69,0,0,0,0,0,0,,0,NONE,0,0,0,0,0,0,0,0,0,0,0,2.78,0,0,0,0,0,0,0,0,0,90.4,1,0,0.548,0,0,3,0,0,0,0,0,0,0,1,1,0,0,VALID,0,0,0,0,0,1,0,0,0,0,0,0,0,0,0,0,0,0,0,0,68.94,483.38,2,0,0.08,0.08,52,14.29,0.08,0.06,7.76,PRELAUNCH,CF1-J,0:/Integrated Flight Computer/aircraft/cf1_j_cfg.ks (inferred preloaded)
8.22,TAKEOFF,TO_GROUND_ROLL,1.02,80,78.98,3.62,2.79,0,0.03,0.24,90.94,0.046,1,0,0,0,0,0,0,0,0,0,0,0,0,0,0,90.4,0,1,0,-0.18,0,0,0,90,0,0,0,0,0,0,0,0,0,0,0,3,0,0,0,69,0,0,0,0,0,0,,0,NONE,0,0,0,0,0,0,0,0,0,0,0,2.79,0,0,0,0,0,0,0,0,0,90.4,1,0,0.54,0,0,3,0,0,0,0,0,0,0,1,1,0,0,VALID,0,0,0,0,0,1,0,0,0,0,0,0,0,0,0,0,0,0,0,0,75.84,483.3,2,0,0.08,0.08,56,14.29,0.08,0.06,8.04,PRELAUNCH,CF1-J,0:/Integrated Flight Computer/aircraft/cf1_j_cfg.ks (inferred preloaded)
8.5,TAKEOFF,TO_GROUND_ROLL,1.39,80,78.61,3.62,2.78,0,0.02,0.08,90.94,0.046,1,0,0,0,0,0,0,0,0,0,0,0,0,0,0,90.41,0,1,0,-0.06,0,0,0,90,0,0,0,0,0,0,0,0,0,0,0,3,0,0,0,69,0,0,0,0,0,0,,0,NONE,0,0,0,0,0,0,0,0,0,0,0,2.78,0,0,0,0,0,0,0,0,0,90.41,1,0,0.528,0,0,3,0,0,0,0,0,0,0,1,1,0,0,VALID,0,0,0,0,0,1,0,0,0,0,0,0,0,0,0,0,0,0,0,0,82.61,483.22,2,0,0.08,0.08,60,14.29,0.08,0.06,8.32,PRELAUNCH,CF1-J,0:/Integrated Flight Computer/aircraft/cf1_j_cfg.ks (inferred preloaded)
8.78,TAKEOFF,TO_GROUND_ROLL,1.79,80,78.21,3.62,2.78,-0.01,0.02,0.2,90.92,0.047,1,0,0,0,0,0,0,0,0,0,0,0,0,0,0,90.41,0,1,0,-0.2,0,0,0,90,0,0,0,0,0,0,0,0,0,0,0,3,0,0,0,69,0,0,0,0,0,0,,0,NONE,0,0,0,0,0,0,0,0,0,0,0,2.78,0,0,0,0,0,0,0,0,0,90.41,1,0,0.512,0,0,3,0,0,0,0,0,0,0,1,1,0,0,VALID,0,0,0,0,0,1,0,0,0,0,0,0,0,0,0,0,0,0,0,0,89.27,483.12,2,0,0.08,0.08,64,14.29,0.08,0.06,8.6,PRELAUNCH,CF1-J,0:/Integrated Flight Computer/aircraft/cf1_j_cfg.ks (inferred preloaded)
9.06,TAKEOFF,TO_GROUND_ROLL,2.23,80,77.77,3.62,2.78,0,0.03,0.14,90.9,0.048,1,0,0,0,0,0,0,0,0,0,0,0,0,0,0,90.41,0,1,0,-0.12,0,0,0,90,0,0,0,0,0,0,0,0,-0.001,0,0,3,0,0,0,69,0,0,0,0,0,0,,0,NONE,0,0,0,0,0,0,0,0,0,0,0,2.78,0,0,0,0,0,0,0,0,0,90.41,1,-0.001,0.491,0,0,3,0,0,0,0,0,0,0,1,1,0,0,VALID,0,0,0,0,0,1,0,0,0,0,0,0,0,0,0,0,0,0,0,0,95.82,483.02,2,0,0.08,0.08,68,14.29,0.08,0.06,8.88,LANDED,CF1-J,0:/Integrated Flight Computer/aircraft/cf1_j_cfg.ks (inferred preloaded)
9.36,TAKEOFF,TO_GROUND_ROLL,2.69,80,77.31,3.62,2.78,-0.01,0.02,0.15,90.88,0.048,1,0,0,0,0,0,0,0,0,0,0,0,0,0,0,90.42,0,1,0,-0.15,0,0,0,90,0,0,0,0,0,0,0,0,-0.001,0,0,3,0,0,0,69,0,0,0,0,0,0,,0,NONE,0,0,0,0,0,0,0,0,0,0,0,2.78,0,0,0,0,0,0,0,0,0,90.42,1,-0.001,0.466,-0.0052,0.25,1,-0.0052,0,0,0,0,0,0,1,1,0,0,VALID,0,0,0,0,0,1,0,0,0,0,0,0,0,0,0,0,0,0,0,0,102.25,482.9,2,0,0.08,0.08,72,14.29,0.08,0.06,9.16,LANDED,CF1-J,0:/Integrated Flight Computer/aircraft/cf1_j_cfg.ks (inferred preloaded)
9.64,TAKEOFF,TO_GROUND_ROLL,3.19,80,76.81,3.62,2.78,-0.01,0.03,0.16,90.86,0.049,1,0,0,0,0,0,0,0,0,0,0,0,0,0,0,90.42,0,1,0,-0.14,0,0,0,90,0,0,0,0,0,0,0,0,-0.001,0,0,3,0,0,0,69,0,0,0,0,0,0,,0,NONE,0,0,0,0,0,0,0,0,0,0,0,2.78,0,0,0,0,0,0,0,0,0,90.42,1,-0.001,0.437,-0.0049,0.25,1,-0.0049,0,0,0,0,0,0,1,1,0,0,VALID,0,0,0,0,0,1,0,0,0,0,0,0,0,0,0,0,0,0,0,0,108.57,482.78,2,0,0.08,0.08,76,14.29,0.08,0.06,9.44,LANDED,CF1-J,0:/Integrated Flight Computer/aircraft/cf1_j_cfg.ks (inferred preloaded)
9.92,TAKEOFF,TO_GROUND_ROLL,3.72,80,76.28,3.62,2.78,-0.01,0.03,0.15,90.83,0.049,1,0,0,0,0,0,0,0,0,0,0,0,0,0,0,90.42,0,1,0,-0.13,0,0,0,90,0,0,0,0,0,0,0,0,-0.001,0,0,3,0,0,0,69,0,0,0,0,0,0,,0,NONE,0,0,0,0,0,0,0,0,0,0,0,2.78,0,0,0,0,0,0,0,0,0,90.42,1,-0.001,0.405,-0.0046,0.25,1,-0.0046,0,0,0,0,0,0,1,1,0,0,VALID,0,0,0,0,0,1,0,0,0,0,0,0,0,0,0,0,0,0,0,0,114.77,482.64,2,0,0.08,0.08,80,14.29,0.08,0.06,9.72,LANDED,CF1-J,0:/Integrated Flight Computer/aircraft/cf1_j_cfg.ks (inferred preloaded)
10.2,TAKEOFF,TO_GROUND_ROLL,4.27,80,75.73,3.62,2.77,-0.01,0.03,0.15,90.79,0.05,1,0,0,0,0,0,0,0,0,0,0,0,0,0,0,90.42,0,1,0,-0.13,0,0,0,90,0,0,0,0,0,0,0,0,-0.002,0,0,3,0,0,0,69,0,0,0,0,0,0,,0,NONE,0,0,0,0,0,0,0,0,0,0,0,2.77,0,0,0,0,0,0,0,0,0,90.42,1,-0.002,0.371,-0.004,0.25,1,-0.004,0,0,0,0,0,0,1,1,0,0,VALID,0,0,0,0,0,1,0,0,0,0,0,0,0,0,0,0,0,0,0,0,120.87,482.5,2,0,0.08,0.08,84,14.29,0.08,0.06,10,LANDED,CF1-J,0:/Integrated Flight Computer/aircraft/cf1_j_cfg.ks (inferred preloaded)
10.48,TAKEOFF,TO_GROUND_ROLL,4.86,80,75.14,3.62,2.77,-0.01,0.04,0.16,90.76,0.051,1,0,0,0,0,0,0,0,0,0,0,0,0,0,0,90.42,0,1,0,-0.14,0,0,0,90,0,0,0,0,0,0,0,0,-0.002,0,0,3,0,0,0,69,0,0,0,0,0,0,,0,NONE,0,0,0,0,0,0,0,0,0,0,0,2.77,0,0,0,0,0,0,0,0,0,90.42,1,-0.002,0.335,-0.0035,0.25,1,-0.0035,0,0,0,0,0,0,1,1,0,0,VALID,0,0,0,0,0,1,0,0,0,0,0,0,0,0,0,0,0,0,0,0,126.86,482.34,2,0,0.08,0.08,88,14.29,0.08,0.06,10.28,LANDED,CF1-J,0:/Integrated Flight Computer/aircraft/cf1_j_cfg.ks (inferred preloaded)
10.74,TAKEOFF,TO_GROUND_ROLL,5.47,80,74.53,3.62,2.77,-0.01,0.04,0.16,90.72,0.052,1,0,0,0,0,0,0,0,0,0,0,0,0,0,0,90.42,0,1,0,-0.13,0,0,0,90,0,0,0,0,0,0,0,0,-0.003,0,0,3,0,0,0,69,0,0,0,0,0,0,,0,NONE,0,0,0,0,0,0,0,0,0,0,0,2.77,0,0,0,0,0,0,0,0,0,90.42,1,-0.003,0.299,-0.003,0.25,1,-0.003,0,0,0,0,0,0,1,1,0,0,VALID,0,0,0,0,0,1,0,0,0,0,0,0,0,0,0,0,0,0,0,0,132.74,482.18,2,0,0.08,0.08,92,14.29,0.08,0.06,10.56,LANDED,CF1-J,0:/Integrated Flight Computer/aircraft/cf1_j_cfg.ks (inferred preloaded)
11.02,TAKEOFF,TO_GROUND_ROLL,6.11,80,73.89,3.62,2.76,-0.01,0.04,0.16,90.69,0.052,1,0,0,0,0,0,0,0,0,0,0,0,0,0,0,90.42,0,1,0,-0.13,0,0,0,90,0,0,0,0,0,0,0,0,-0.003,0,0,3,0,0,0,69,0,0,0,0,0,0,,0,NONE,0,0,0,0,0,0,0,0,0,0,0,2.76,0,0,0,0,0,0,0,0,0,90.42,1,-0.003,0.263,-0.0025,0.25,1,-0.0025,0,0,0,0,0,0,1,1,0,0,VALID,0,0,0,0,0,1,0,0,0,0,0,0,0,0,0,0,0,0,0,0,138.51,482,2,0,0.08,0.08,96,14.29,0.08,0.06,10.84,LANDED,CF1-J,0:/Integrated Flight Computer/aircraft/cf1_j_cfg.ks (inferred preloaded)
11.3,TAKEOFF,TO_GROUND_ROLL,6.78,80,73.22,3.62,2.76,-0.02,0.04,0.17,90.65,0.052,1,0,0,0,0,0,0,0,0,0,0,0,0,0,0,90.42,0,1,0,-0.14,0,0,0,90,0,0,0,0,0,0,0,0,-0.003,0,0,3,0,0,0,69,0,0,0,0,0,0,,0,NONE,0,0,0,0,0,0,0,0,0,0,0,2.76,0,0,0,0,0,0,0,0,0,90.42,1,-0.003,0.229,-0.0021,0.25,1,-0.0021,0,0,0,0,0,0,1,1,0,0,VALID,0,0,0,0,0,1,0,0,0,0,0,0,0,0,0,0,0,0,0,0,144.18,481.81,2,0,0.08,0.08,100,14.29,0.08,0.06,11.12,LANDED,CF1-J,0:/Integrated Flight Computer/aircraft/cf1_j_cfg.ks (inferred preloaded)
11.58,TAKEOFF,TO_GROUND_ROLL,7.48,80,72.52,3.62,2.76,-0.02,0.04,0.16,90.62,0.053,1,0,0,0,0,0,0,0,0,0,0,0,0,0,0,90.42,0,1,0,-0.13,0,0,0,90,0,0,0,0,0,0,0,0,-0.004,0,0,3,0,0,0,69,0,0,0,0,0,0,,0,NONE,0,0,0,0,0,0,0,0,0,0,0,2.76,0,0,0,0,0,0,0,0,0,90.42,1,-0.004,0.196,-0.0017,0.25,1,-0.0017,0,0,0,0,0,0,1,1,0,0,VALID,0,0,0,0,0,1,0,0,0,0,0,0,0,0,0,0,0,0,0,0,149.75,481.61,2,0,0.08,0.08,104,14.29,0.08,0.06,11.4,LANDED,CF1-J,0:/Integrated Flight Computer/aircraft/cf1_j_cfg.ks (inferred preloaded)
11.86,TAKEOFF,TO_GROUND_ROLL,8.2,80,71.8,3.62,2.75,-0.02,0.04,0.16,90.58,0.053,1,0,0,0,0,0,0,0,0,0,0,0,0,0,0,90.42,0,1,0,-0.13,0,0,0,90,0,0,0,0,0,0,0,0,-0.004,0,0,3,0,0,0,69,0,0,0,0,0,0,,0,NONE,0,0,0,0,0,0,0,0,0,0,0,2.75,0,0,0,0,0,0,0,0,0,90.42,1,-0.004,0.165,-0.0014,0.25,1,-0.0014,0,0,0,0,0,0,1,1,0,0,VALID,0,0,0,0,0,1,0,0,0,0,0,0,0,0,0,0,0,0,0,0,155.21,481.4,2,0,0.08,0.08,108,14.29,0.08,0.06,11.68,LANDED,CF1-J,0:/Integrated Flight Computer/aircraft/cf1_j_cfg.ks (inferred preloaded)
12.14,TAKEOFF,TO_GROUND_ROLL,8.94,80,71.06,3.62,2.75,-0.02,0.05,0.17,90.55,0.053,1,0,0,0,0,0,0,0,0,0,0,0,0,0,0,90.42,0,1,0,-0.13,0,0,0,90,0,0,0,0,0,0,0,0,-0.005,0,0,3,0,0,0,69,0,0,0,0,0,0,,0,NONE,0,0,0,0,0,0,0,0,0,0,0,2.75,0,0,0,0,0,0,0,0,0,90.42,1,-0.005,0.137,-0.0011,0.25,1,-0.0011,0,0,0,0,0,0,1,1,0,0,VALID,0,0,0,0,0,1,0,0,0,0,0,0,0,0,0,0,0,0,0,0,160.58,481.17,2,0,0.08,0.08,112,14.29,0.08,0.06,11.96,LANDED,CF1-J,0:/Integrated Flight Computer/aircraft/cf1_j_cfg.ks (inferred preloaded)
12.42,TAKEOFF,TO_GROUND_ROLL,9.72,80,70.28,3.62,2.74,-0.02,0.05,0.17,90.53,0.053,1,0,0,0,0,0,0,0,0,0,0,0,0,0,0,90.41,0,1,0,-0.13,0,0,0,90,0,0,0,0,0,0,0,0,-0.005,0,0,3,0,0,0,69,0,0,0,0,0,0,,0,NONE,0,0,0,0,0,0,0,0,0,0,0,2.74,0,0,0,0,0,0,0,0,0,90.41,1,-0.005,0.113,-0.0009,0.25,1,-0.0009,0,0,0,0,0,0,1,1,0,0,VALID,0,0,0,0,0,1,0,0,0,0,0,0,0,0,0,0,0,0,0,0,165.84,480.93,2,0,0.08,0.08,116,14.29,0.08,0.06,12.24,LANDED,CF1-J,0:/Integrated Flight Computer/aircraft/cf1_j_cfg.ks (inferred preloaded)
12.7,TAKEOFF,TO_GROUND_ROLL,10.51,80,69.49,3.62,2.73,-0.02,0.05,0.17,90.5,0.053,1,0,0,0,0,0,0,0,0,0,0,0,0,0,0,90.41,0,1,0,-0.13,0,0,0,90,0,0,0,0,0,0,0,0,-0.006,0,0,3,0,0,0,69,0,0,0,0,0,0,,0,NONE,0,0,0,0,0,0,0,0,0,0,0,2.73,0,0,0,0,0,0,0,0,0,90.41,1,-0.006,0.093,-0.0007,0.25,1,-0.0007,0,0,0,0,0,0,1,1,0,0,VALID,0,0,0,0,0,1,0,0,0,0,0,0,0,0,0,0,0,0,0,0,171,480.68,2,0,0.08,0.08,120,14.29,0.08,0.06,12.52,LANDED,CF1-J,0:/Integrated Flight Computer/aircraft/cf1_j_cfg.ks (inferred preloaded)
12.98,TAKEOFF,TO_GROUND_ROLL,11.33,80,68.67,3.62,2.73,-0.03,0.05,0.17,90.48,0.052,1,0,0,0,0,0,0,0,0,0,0,0,0,0,0,90.41,0,1,0,-0.13,0,0,0,90,0,0,0,0,0,0,0,0,-0.007,0,0,3,0,0,0,69,0,0,0,0,0,0,,0,NONE,0,0,0,0,0,0,0,0,0,0,0,2.73,0,0,0,0,0,0,0,0,0,90.41,1,-0.007,0.075,-0.0005,0.25,1,-0.0005,0,0,0,0,0,0,1,1,0,0,VALID,0,0,0,0,0,1,0,0,0,0,0,0,0,0,0,0,0,0,0,0,176.07,480.42,2,0,0.08,0.08,124,14.29,0.08,0.06,12.8,LANDED,CF1-J,0:/Integrated Flight Computer/aircraft/cf1_j_cfg.ks (inferred preloaded)
13.26,TAKEOFF,TO_GROUND_ROLL,12.18,80,67.82,3.62,2.72,-0.03,0.05,0.17,90.47,0.052,1,0,0,0,0,0,0,0,0,0,0,0,0,0,0,90.4,0,1,0,-0.13,0,0,0,90,0,0,0,0,0,0,0,0,-0.007,0,0,3,0,0,0,69,0,0,0,0,0,0,,0,NONE,0,0,0,0,0,0,0,0,0,0,0,2.72,0,0,0,0,0,0,0,0,0,90.4,1,-0.007,0.062,-0.0004,0.25,1,-0.0004,0,0,0,0,0,0,1,1,0,0,VALID,0,0,0,0,0,1,0,0,0,0,0,0,0,0,0,0,0,0,0,0,181.04,480.14,2,0,0.08,0.08,128,14.29,0.08,0.06,13.08,LANDED,CF1-J,0:/Integrated Flight Computer/aircraft/cf1_j_cfg.ks (inferred preloaded)
13.54,TAKEOFF,TO_GROUND_ROLL,13.05,80,66.95,3.62,2.71,-0.03,0.05,0.17,90.45,0.051,1,0,0,0,0,0,0,0,0,0,0,0,0,0,0,90.4,0,1,0,-0.13,0,0,0,90,0,0,0,0,0,0,0,0,-0.008,0,0,3,0,0,0,69,0,0,0,0,0,0,,0,NONE,0,0,0,0,0,0,0,0,0,0,0,2.71,0,0,0,0,0,0,0,0,0,90.4,1,-0.008,0.05,-0.0003,0.25,1,-0.0003,0,0,0,0,0,0,1,1,0,0,VALID,0,0,0,0,0,1,0,0,0,0,0,0,0,0,0,0,0,0,0,0,185.91,479.84,2,0,0.08,0.08,132,14.29,0.08,0.06,13.36,LANDED,CF1-J,0:/Integrated Flight Computer/aircraft/cf1_j_cfg.ks (inferred preloaded)
13.82,TAKEOFF,TO_GROUND_ROLL,13.94,80,66.06,3.62,2.7,-0.03,0.06,0.18,90.44,0.051,1,0,0,0,0,0,0,0,0,0,0,0,0,0,0,90.4,0,1,0,-0.13,0,0,0,90,0,0,0,0,0,0,0,0,-0.008,0,0,3,0,0,0,69,0,0,0,0,0,0,,0,NONE,0,0,0,0,0,0,0,0,0,0,0,2.7,0,0,0,0,0,0,0,0,0,90.4,1,-0.008,0.042,-0.0003,0.25,1,-0.0003,0,0,0,0,0,0,1,1,0,0,VALID,0,0,0,0,0,1,0,0,0,0,0,0,0,0,0,0,0,0,0,0,190.69,479.54,2,0,0.08,0.08,136,14.29,0.08,0.06,13.64,LANDED,CF1-J,0:/Integrated Flight Computer/aircraft/cf1_j_cfg.ks (inferred preloaded)
14.1,TAKEOFF,TO_GROUND_ROLL,14.85,80,65.15,3.62,2.7,-0.03,0.06,0.18,90.43,0.05,1,0,0,0,0,0,0,0,0,0,0,0,0,0,0,90.4,0,1,0,-0.13,0,0,0,90,0,0,0,0,0,0,0,0,-0.009,0,0,3,0,0,0,69,0,0,0,0,0,0,,0,NONE,0,0,0,0,0,0,0,0,0,0,0,2.7,0,0,0,0,0,0,0,0,0,90.4,1,-0.009,0.036,-0.0002,0.25,1,-0.0002,0,0,0,0,0,0,1,1,0,0,VALID,0,0,0,0,0,1,0,0,0,0,0,0,0,0,0,0,0,0,0,0,195.37,479.21,2,0,0.08,0.08,140,14.29,0.08,0.06,13.92,LANDED,CF1-J,0:/Integrated Flight Computer/aircraft/cf1_j_cfg.ks (inferred preloaded)
14.38,TAKEOFF,TO_GROUND_ROLL,15.79,80,64.21,3.62,2.69,-0.03,0.06,0.18,90.43,0.05,1,0,0,0,0,0,0,0,0,0,0,0,0,0,0,90.39,0,1,0,-0.13,0,0,0,90,0,0,0,0,0,0,0,0,-0.01,0,0,3,0,0,0,69,0,0,0,0,0,0,,0,NONE,0,0,0,0,0,0,0,0,0,0,0,2.69,0,0,0,0,0,0,0,0,0,90.39,1,-0.01,0.031,-0.0002,0.25,1,-0.0002,0,0,0,0,0,0,1,1,0,0,VALID,0,0,0,0,0,1,0,0,0,0,0,0,0,0,0,0,0,0,0,0,199.96,478.88,2,0,0.08,0.08,144,14.29,0.08,0.06,14.2,LANDED,CF1-J,0:/Integrated Flight Computer/aircraft/cf1_j_cfg.ks (inferred preloaded)
14.66,TAKEOFF,TO_GROUND_ROLL,16.74,80,63.26,3.62,2.68,-0.04,0.06,0.18,90.42,0.049,1,0,0,0,0,0,0,0,0,0,0,0,0,0,0,90.39,0,1,0,-0.13,0,0,0.01,90,0,0,0,0,0,0,0,0,-0.01,0,0,3,0,0,0,69,0,0,0,0,0,0,,0,NONE,0,0,0,0,0,0,0,0,0,0,0,2.68,0,0,0,0,0,0,0,0,0,90.39,1,-0.01,0.027,-0.0002,0.25,1,-0.0002,0,0,0,0,0,0,1,1,0,0,VALID,0,0,0,0,0,1,0,0,0,0,0,0,0,0,0,0,0,0,0,0,204.46,478.53,2,0,0.08,0.08,148,14.29,0.08,0.06,14.48,LANDED,CF1-J,0:/Integrated Flight Computer/aircraft/cf1_j_cfg.ks (inferred preloaded)
14.94,TAKEOFF,TO_GROUND_ROLL,17.72,80,62.28,3.62,2.67,-0.04,0.06,0.18,90.42,0.049,1,0,0,0,0,0,0,0,0,0,0,0,0,0,0,90.39,0,1,0,-0.13,0,0,0.01,90,0,0,0,0,0,0,0,0,-0.011,0,0,3,0,0,0,69,0,0,0,0,0,0,,0,NONE,0,0,0,0,0,0,0,0,0,0,0,2.67,0,0,0,0,0,0,0,0,0,90.39,1,-0.011,0.026,-0.0002,0.25,1,-0.0002,0,0,0,0,0,0,1,1,0,0,VALID,0,0,0,0,0,1,0,0,0,0,0,0,0,0,0,0,0,0,0,0,208.87,478.16,2,0,0.08,0.08,152,14.29,0.08,0.06,14.76,LANDED,CF1-J,0:/Integrated Flight Computer/aircraft/cf1_j_cfg.ks (inferred preloaded)
15.22,TAKEOFF,TO_GROUND_ROLL,18.72,80,61.28,3.62,2.66,-0.04,0.07,0.18,90.41,0.049,1,0,0,0,0,0,0,0,0,0,0,0,0,0,0,90.39,0,1,0,-0.13,0,0,0.01,90,0,0,0,0,0,0,0,0,-0.012,0,0,3,0,0,0,69,0,0,0,0,0,0,,0,NONE,0,0,0,0,0,0,0,0,0,0,0,2.66,0,0,0,0,0,0,0,0,0,90.39,1,-0.012,0.024,-0.0002,0.25,1,-0.0002,0,0,0,0,0,0,1,1,0,0,VALID,0,0,0,0,0,1,0,0,0,0,0,0,0,0,0,0,0,0,0,0,213.19,477.77,2,0,0.08,0.08,156,14.29,0.08,0.06,15.04,LANDED,CF1-J,0:/Integrated Flight Computer/aircraft/cf1_j_cfg.ks (inferred preloaded)
15.5,TAKEOFF,TO_GROUND_ROLL,19.74,80,60.26,3.62,2.64,-0.04,0.07,0.18,90.41,0.048,1,0,0,0,0,0,0,0,0,0,0,0,0,0,0,90.39,0,1,0,-0.12,0,0,0.01,90,0,0,0,0,0,0,0,0,-0.013,0,0,3,0,0,0,69,0,0,0,0,0,0,,0,NONE,0,0,0,0,0,0,0,0,0,0,0,2.64,0,0,0,0,0,0,0,0,0,90.39,1,-0.013,0.024,-0.0002,0.25,1,-0.0002,0,0,0,0,0,0,1,1,0,0,VALID,0,0,0,0,0,1,0,0,0,0,0,0,0,0,0,0,0,0,0,0,217.42,477.38,2,0,0.08,0.08,160,14.29,0.08,0.06,15.32,LANDED,CF1-J,0:/Integrated Flight Computer/aircraft/cf1_j_cfg.ks (inferred preloaded)
15.8,TAKEOFF,TO_GROUND_ROLL,20.77,80,59.23,3.62,2.63,-0.04,0.07,0.18,90.41,0.048,1,0,0,0,0,0,0,0,0,0,0,0,0,0,0,90.39,0,1,0,-0.12,0,0,0.01,90,0,0,0,0,0,0,0,0,-0.014,0,0,3,0,0,0,69,0,0,0,0,0,0,,0,NONE,0,0,0,0,0,0,0,0,0,0,0,2.63,0,0,0,0,0,0,0,0,0,90.39,1,-0.014,0.023,-0.0002,0.258,0,-0.0002,0,0,0,0,0,0,1,1,0,0,VALID,0,0,0,0,0,1,0,0,0,0,0,0,0,0,0,0,0,0,0,0,221.56,476.96,2,0,0.08,0.08,164,14.29,0.08,0.06,15.6,LANDED,CF1-J,0:/Integrated Flight Computer/aircraft/cf1_j_cfg.ks (inferred preloaded)
16.08,TAKEOFF,TO_GROUND_ROLL,21.83,80,58.17,3.62,2.62,-0.05,0.07,0.19,90.41,0.048,1,0,0,0,0,0,0,0,0,0,0,0,0,0,0,90.39,0,1,0,-0.12,0,0,0.01,90,0,0,0,0,0,0,0,0,-0.015,0,0,3,0,0,0,69,0,0,0,0,0,0,,0,NONE,0,0,0,0,0,0,0,0,0,0,0,2.62,0,0,0,0,0,0,0,0,0,90.39,1,-0.015,0.023,-0.0002,0.27,0,-0.0002,0,0,0,0,0,0,1,1,0,0,VALID,0,0,0,0,0,1,0,0,0,0,0,0,0,0,0,0,0,0,0,0,225.62,476.53,2,0,0.08,0.08,168,14.29,0.08,0.06,15.88,LANDED,CF1-J,0:/Integrated Flight Computer/aircraft/cf1_j_cfg.ks (inferred preloaded)
16.36,TAKEOFF,TO_GROUND_ROLL,22.9,80,57.1,3.62,2.61,-0.05,0.07,0.19,90.41,0.048,1,0,0,0,0,0,0,0,0,0,0,0,0,0,0,90.39,0,1,0,-0.12,0,0,0.01,90,0,0,0,0,0,0,0,0,-0.015,0,0,3,0,0,0,69,0,0,0,0,0,0,,0,NONE,0,0,0,0,0,0,0,0,0,0,0,2.61,0,0,0,0,0,0,0,0,0,90.39,1,-0.015,0.022,-0.0002,0.281,0,-0.0002,0,0,0,0,0,0,1,1,0,0,VALID,0,0,0,0,0,1,0,0,0,0,0,0,0,0,0,0,0,0,0,0,229.59,476.08,2,0,0.08,0.08,172,14.29,0.08,0.06,16.16,LANDED,CF1-J,0:/Integrated Flight Computer/aircraft/cf1_j_cfg.ks (inferred preloaded)
16.64,TAKEOFF,TO_GROUND_ROLL,23.99,80,56.01,3.62,2.59,-0.05,0.08,0.19,90.41,0.048,1,0,0,0,0,0,0,0,0,0,0,0,0,0,0,90.38,0,1,0,-0.12,0,0,0.01,90,0,0,0,0,0,0,0,0,-0.016,0,0,3,0,0,0,69,0,0,0,0,0,0,,0,NONE,0,0,0,0,0,0,0,0,0,0,0,2.59,0,0,0,0,0,0,0,0,0,90.38,1,-0.016,0.022,-0.0002,0.293,0,-0.0002,0,0,0,0,0,0,1,1,0,0,VALID,0,0,0,0,0,1,0,0,0,0,0,0,0,0,0,0,0,0,0,0,233.47,475.62,2,0,0.08,0.08,176,14.29,0.08,0.06,16.44,LANDED,CF1-J,0:/Integrated Flight Computer/aircraft/cf1_j_cfg.ks (inferred preloaded)
16.92,TAKEOFF,TO_GROUND_ROLL,25.1,80,54.9,3.62,2.58,-0.05,0.08,0.19,90.41,0.048,1,0,0,0,0,0,0,0,0,0,0,0,0,0,0,90.38,0,1,0,-0.12,0,0,0.01,90,0,0,0,0,0,0,0,0,-0.017,0,0,3,0,0,0,69,0,0,0,0,0,0,,0,NONE,0,0,0,0,0,0,0,0,0,0,0,2.58,0,0,0,0,0,0,0,0,0,90.38,1,-0.017,0.023,-0.0002,0.305,0,-0.0002,0,0,0,0,0,0,1,1,0,0,VALID,0,0,0,0,0,1,0,0,0,0,0,0,0,0,0,0,0,0,0,0,237.27,475.14,2,0,0.08,0.08,180,14.29,0.08,0.06,16.72,LANDED,CF1-J,0:/Integrated Flight Computer/aircraft/cf1_j_cfg.ks (inferred preloaded)
17.2,TAKEOFF,TO_GROUND_ROLL,26.23,80,53.77,3.63,2.56,-0.05,0.08,0.19,90.4,0.048,1,0,0,0,0,0,0,0,0,0,0,0,0,0,0,90.38,0,1,0,-0.12,0,0,0.01,90,0,0,0,0,0,0,0,0,-0.019,0,0,3,0,0,0,69,0,0,0,0,0,0,,0,NONE,0,0,0,0,0,0,0,0,0,0,0,2.56,0,0,0,0,0,0,0,0,0,90.38,1,-0.019,0.022,-0.0002,0.317,0,-0.0002,0,0,0,0,0,0,1,1,0,0,VALID,0,0,0,0,0,1,0,0,0,0,0,0,0,0,0,0,0,0,0,0,240.98,474.64,2,0,0.08,0.08,184,14.29,0.08,0.06,17,LANDED,CF1-J,0:/Integrated Flight Computer/aircraft/cf1_j_cfg.ks (inferred preloaded)
17.48,TAKEOFF,TO_GROUND_ROLL,27.37,80,52.63,3.63,2.55,-0.06,0.08,0.19,90.4,0.048,1,0,0,0,0,0,0,0,0,0,0,0,0,0,0,90.38,0,1,0,-0.12,0,0,0.01,90,0,0,0,0,0,0,0,0,-0.02,0,0,3,0,0,0,69,0,0,0,0,0,0,,0,NONE,0,0,0,0,0,0,0,0,0,0,0,2.55,0,0,0,0,0,0,0,0,0,90.38,1,-0.02,0.021,-0.0002,0.329,0,-0.0002,0,0,0,0,0,0,1,1,0,0,VALID,0,0,0,0,0,1,0,0,0,0,0,0,0,0,0,0,0,0,0,0,244.61,474.13,2,0,0.08,0.08,188,14.29,0.08,0.06,17.28,LANDED,CF1-J,0:/Integrated Flight Computer/aircraft/cf1_j_cfg.ks (inferred preloaded)
17.76,TAKEOFF,TO_GROUND_ROLL,28.53,80,51.47,3.63,2.53,-0.06,0.08,0.2,90.4,0.048,1,0,0,0,0,0,0,0,0,0,0,0,0,0,0,90.38,0,1,0,-0.12,0,0,0.01,90,0,0,0,0,0,0,0,0,-0.021,0,0,3,0,0,0,69,0,0,0,0,0,0,,0,NONE,0,0,0,0,0,0,0,0,0,0,0,2.53,0,0,0,0,0,0,0,0,0,90.38,1,-0.021,0.02,-0.0002,0.341,0,-0.0002,0,0,0,0,0,0,1,1,0,0,VALID,0,0,0,0,0,1,0,0,0,0,0,0,0,0,0,0,0,0,0,0,248.16,473.6,2,0,0.08,0.08,192,14.29,0.08,0.06,17.56,LANDED,CF1-J,0:/Integrated Flight Computer/aircraft/cf1_j_cfg.ks (inferred preloaded)
18.04,TAKEOFF,TO_GROUND_ROLL,29.71,80,50.29,3.63,2.52,-0.06,0.09,0.2,90.4,0.048,1,0,0,0,0,0,0,0,0,0,0,0,0,0,0,90.38,0,1,0,-0.12,0,0,0.01,90,0,0,0,0,0,0,0,0,-0.022,0,0,3,0,0,0,69,0,0,0,0,0,0,,0,NONE,0,0,0,0,0,0,0,0,0,0,0,2.52,0,0,0,0,0,0,0,0,0,90.38,1,-0.022,0.021,-0.0002,0.354,0,-0.0002,0,0,0,0,0,0,1,1,0,0,VALID,0,0,0,0,0,1,0,0,0,0,0,0,0,0,0,0,0,0,0,0,251.63,473.06,2,0,0.08,0.08,196,14.29,0.08,0.06,17.84,LANDED,CF1-J,0:/Integrated Flight Computer/aircraft/cf1_j_cfg.ks (inferred preloaded)
18.32,TAKEOFF,TO_GROUND_ROLL,30.9,80,49.1,3.63,2.5,-0.06,0.09,0.2,90.4,0.048,1,0,0,0,0,0,0,0,0,0,0,0,0,0,0,90.38,0,1,0,-0.12,0,0,0.01,90,0,0,0,0,0,0,0,0,-0.023,0,0,3,0,0,0,69,0,0,0,0,0,0,,0,NONE,0,0,0,0,0,0,0,0,0,0,0,2.5,0,0,0,0,0,0,0,0,0,90.38,1,-0.023,0.021,-0.0002,0.367,0,-0.0002,0,0,0,0,0,0,1,1,0,0,VALID,0,0,0,0,0,1,0,0,0,0,0,0,0,0,0,0,0,0,0,0,255.02,472.49,2,0,0.08,0.08,200,14.29,0.08,0.06,18.12,LANDED,CF1-J,0:/Integrated Flight Computer/aircraft/cf1_j_cfg.ks (inferred preloaded)
18.6,TAKEOFF,TO_GROUND_ROLL,32.1,80,47.9,3.63,2.48,-0.06,0.09,0.2,90.4,0.047,1,0,0,0,0,0,0,0,0,0,0,0,0,0,0,90.38,0,1,0,-0.12,0,0,0.01,90,0,0,0,0,0,0,0,0,-0.025,0,0,3,0,0,0,69,0,0,0,0,0,0,,0,NONE,0,0,0,0,0,0,0,0,0,0,0,2.48,0,0,0,0,0,0,0,0,0,90.38,1,-0.025,0.021,-0.0002,0.38,0,-0.0002,0,0,0,0,0,0,1,1,0,0,VALID,0,0,0,0,0,1,0,0,0,0,0,0,0,0,0,0,0,0,0,0,258.33,471.92,2,0,0.08,0.08,204,14.29,0.08,0.06,18.4,LANDED,CF1-J,0:/Integrated Flight Computer/aircraft/cf1_j_cfg.ks (inferred preloaded)
18.88,TAKEOFF,TO_GROUND_ROLL,33.32,80,46.68,3.63,2.46,-0.07,0.09,0.2,90.4,0.046,1,0,0,0,0,0,0,0,0,0,0,0,0,0,0,90.37,0,1,0,-0.11,0,0,0.02,90,0,0,0,0,0,0,0,0,-0.026,0,0,3,0,0,0,69,0,0,0,0,0,0,,0,NONE,0,0,0,0,0,0,0,0,0,0,0,2.46,0,0,0,0,0,0,0,0,0,90.37,1,-0.026,0.023,-0.0002,0.393,0,-0.0002,0,0,0,0,0,0,1,1,0,0,VALID,0,0,0,0,0,1,0,0,0,0,0,0,0,0,0,0,0,0,0,0,261.56,471.32,2,0,0.08,0.08,208,14.29,0.08,0.06,18.68,LANDED,CF1-J,0:/Integrated Flight Computer/aircraft/cf1_j_cfg.ks (inferred preloaded)
19.16,TAKEOFF,TO_GROUND_ROLL,34.55,80,45.45,3.63,2.45,-0.07,0.09,0.2,90.4,0.046,1,0,0,0,0,0,0,0,0,0,0,0,0,0,0,90.37,0,1,0,-0.11,0,0,0.02,90,0,0,0,0,0,0,0,0,-0.027,0,0,3,0,0,0,69,0,0,0,0,0,0,,0,NONE,0,0,0,0,0,0,0,0,0,0,0,2.45,0,0,0,0,0,0,0,0,0,90.37,1,-0.027,0.027,-0.0003,0.406,0,-0.0003,0,0,0,0,0,0,1,1,0,0,VALID,0,0,0,0,0,1,0,0,0,0,0,0,0,0,0,0,0,0,0,0,264.72,470.71,2,0,0.08,0.08,212,14.29,0.08,0.06,18.96,LANDED,CF1-J,0:/Integrated Flight Computer/aircraft/cf1_j_cfg.ks (inferred preloaded)
19.44,TAKEOFF,TO_GROUND_ROLL,35.8,80,44.2,3.63,2.43,-0.07,0.1,0.2,90.4,0.045,1,0,0,0,0,0,0,0,0,0,0,0,0,0,0,90.37,0,1,0,-0.11,0,0,0.02,90,0,0,0,0,0,0,0,0,-0.029,0,0,3,0,0,0,69,0,0,0,0,0,0,,0,NONE,0,0,0,0,0,0,0,0,0,0,0,2.43,0,0,0,0,0,0,0,0,0,90.37,1,-0.029,0.026,-0.0003,0.419,0,-0.0003,0,0,0,0,0,0,1,1,0,0,VALID,0,0,0,0,0,1,0,0,0,0,0,0,0,0,0,0,0,0,0,0,267.79,470.08,2,0,0.08,0.08,216,14.29,0.08,0.06,19.24,LANDED,CF1-J,0:/Integrated Flight Computer/aircraft/cf1_j_cfg.ks (inferred preloaded)
19.72,TAKEOFF,TO_GROUND_ROLL,37.06,80,42.94,3.63,2.41,-0.07,0.1,0.2,90.4,0.047,1,0,0,0,0,0,0,0,0,0,0,0,0,0,0,90.37,0,1,0,-0.11,0,0,0.02,90,0,0,0,0,0,0,0,0,-0.03,0,0,3,0,0,0,69,0,0,0,0,0,0,,0,NONE,0,0,0,0,0,0,0,0,0,0,0,2.41,0,0,0,0,0,0,0,0,0,90.37,1,-0.03,0.024,-0.0003,0.433,0,-0.0003,0,0,0,0,0,0,1,1,0,0,VALID,0,0,0,0,0,1,0,0,0,0,0,0,0,0,0,0,0,0,0,0,270.8,469.44,2,0,0.08,0.08,220,14.29,0.08,0.06,19.52,LANDED,CF1-J,0:/Integrated Flight Computer/aircraft/cf1_j_cfg.ks (inferred preloaded)
20,TAKEOFF,TO_GROUND_ROLL,38.33,80,41.67,3.63,2.39,-0.07,0.1,0.2,90.39,0.049,1,0,0,0,0,0,0,0,0,0,0,0,0,0,0,90.37,0,1,0,-0.11,0,0,0.02,90,0,0,0,0,0,0,0,0,-0.032,0,0,3,0,0,0,69,0,0,0,0,0,0,,0,NONE,0,0,0,0,0,0,0,0,0,0,0,2.39,0,0,0,0,0,0,0,0,0,90.37,1,-0.032,0.026,-0.0003,0.446,0,-0.0003,0,0,0,0,0,0,1,1,0,0,VALID,0,0,0,0,0,1,0,0,0,0,0,0,0,0,0,0,0,0,0,0,273.72,468.78,2,0,0.08,0.08,224,14.29,0.08,0.06,19.8,LANDED,CF1-J,0:/Integrated Flight Computer/aircraft/cf1_j_cfg.ks (inferred preloaded)
20.28,TAKEOFF,TO_GROUND_ROLL,39.62,80,40.38,3.63,2.37,-0.07,0.1,0.2,90.39,0.048,1,0,0,0,0,0,0,0,0,0,0,0,0,0,0,90.37,0,1,0,-0.11,0,0,0.02,90,0,0,0,0,0,0,0,0,-0.033,0,0,3,0,0,0,69,0,0,0,0,0,0,,0,NONE,0,0,0,0,0,0,0,0,0,0,0,2.37,0,0,0,0,0,0,0,0,0,90.37,1,-0.033,0.028,-0.0003,0.46,0,-0.0003,0,0,0,0,0,0,1,1,0,0,VALID,0,0,0,0,0,1,0,0,0,0,0,0,0,0,0,0,0,0,0,0,276.58,468.1,2,0,0.08,0.08,228,14.29,0.08,0.06,20.08,LANDED,CF1-J,0:/Integrated Flight Computer/aircraft/cf1_j_cfg.ks (inferred preloaded)
20.56,TAKEOFF,TO_GROUND_ROLL,40.91,80,39.09,3.63,2.35,-0.08,0.1,0.21,90.39,0.046,1,0,0,0,0,0,0,0,0,0,0,0,0,0,0,90.37,0,1,0,-0.11,0,0,0.02,90,0,0,0,0,0,0,0,0,-0.035,0,0,3,0,0,0,69,0,0,0,0,0,0,,0,NONE,0,0,0,0,0,0,0,0,0,0,0,2.35,0,0,0,0,0,0,0,0,0,90.37,1,-0.035,0.027,-0.0003,0.474,0,-0.0003,0,0,0,0,0,0,1,1,0,0,VALID,0,0,0,0,0,1,0,0,0,0,0,0,0,0,0,0,0,0,0,0,279.36,467.41,2,0,0.08,0.08,232,14.29,0.08,0.06,20.36,LANDED,CF1-J,0:/Integrated Flight Computer/aircraft/cf1_j_cfg.ks (inferred preloaded)
20.84,TAKEOFF,TO_GROUND_ROLL,42.22,80,37.78,3.63,2.32,-0.08,0.11,0.21,90.39,0.045,1,0,0,0,0,0,0,0,0,0,0,0,0,0,0,90.36,0,1,0,-0.11,0,0,0.02,90,0,0,0,0,0,0,0,0,-0.037,0,0,3,0,0,0,69,0,0,0,0,0,0,,0,NONE,0,0,0,0,0,0,0,0,0,0,0,2.32,0,0,0,0,0,0,0,0,0,90.36,1,-0.037,0.027,-0.0003,0.488,0,-0.0003,0,0,0,0,0,0,1,1,0,0,VALID,0,0,0,0,0,1,0,0,0,0,0,0,0,0,0,0,0,0,0,0,282.07,466.71,2,0,0.08,0.08,236,14.29,0.08,0.06,20.64,LANDED,CF1-J,0:/Integrated Flight Computer/aircraft/cf1_j_cfg.ks (inferred preloaded)
21.12,TAKEOFF,TO_GROUND_ROLL,43.54,80,36.46,3.63,2.3,-0.08,0.11,0.21,90.39,0.047,1,0,0,0,0,0,0,0,0,0,0,0,0,0,0,90.36,0,1,0,-0.1,0,0,0.02,90,0,0,0,0,0,0,0,0,-0.038,0,0,3,0,0,0,69,0,0,0,0,0,0,,0,NONE,0,0,0,0,0,0,0,0,0,0,0,2.3,0,0,0,0,0,0,0,0,0,90.36,1,-0.038,0.026,-0.0003,0.502,0,-0.0003,0,0,0,0,0,0,1,1,0,0,VALID,0,0,0,0,0,1,0,0,0,0,0,0,0,0,0,0,0,0,0,0,284.71,465.99,2,0,0.08,0.08,240,14.29,0.08,0.06,20.92,LANDED,CF1-J,0:/Integrated Flight Computer/aircraft/cf1_j_cfg.ks (inferred preloaded)
21.4,TAKEOFF,TO_GROUND_ROLL,44.87,80,35.13,3.63,2.28,-0.08,0.11,0.21,90.39,0.048,1,0,0,0,0,0,0,0,0,0,0,0,0,0,0,90.36,0,1,0,-0.1,0,0,0.03,90,0,0,0,0,0,0,0,0,-0.04,0,0,3,0,0,0,69,0,0,0,0,0,0,,0,NONE,0,0,0,0,0,0,0,0,0,0,0,2.28,0,0,0,0,0,0,0,0,0,90.36,1,-0.04,0.026,-0.0004,0.516,0,-0.0004,0,0,0,0,0,0,1,1,0,0,VALID,0,0,0,0,0,1,0,0,0,0,0,0,0,0,0,0,0,0,0,0,287.28,465.25,2,0,0.08,0.08,244,14.29,0.08,0.06,21.2,LANDED,CF1-J,0:/Integrated Flight Computer/aircraft/cf1_j_cfg.ks (inferred preloaded)
21.68,TAKEOFF,TO_GROUND_ROLL,46.21,80,33.79,3.63,2.26,-0.08,0.11,0.21,90.39,0.048,1,0,0,0,0,0,0,0,0,0,0,0,0,0,0,90.36,0,1,0,-0.1,0,0,0.03,90,0,0,0,0,0,0,0,0,-0.042,0,0,3,0,0,0,69,0,0,0,0,0,0,,0,NONE,0,0,0,0,0,0,0,0,0,0,0,2.26,0,0,0,0,0,0,0,0,0,90.36,1,-0.042,0.026,-0.0004,0.531,0,-0.0004,0,0,0,0,0,0,1,1,0,0,VALID,0,0,0,0,0,1,0,0,0,0,0,0,0,0,0,0,0,0,0,0,289.78,464.5,2,0,0.08,0.08,248,14.29,0.08,0.06,21.48,LANDED,CF1-J,0:/Integrated Flight Computer/aircraft/cf1_j_cfg.ks (inferred preloaded)
21.96,TAKEOFF,TO_GROUND_ROLL,47.56,80,32.44,3.63,2.24,-0.08,0.12,0.21,90.38,0.046,1,0,0,0,0,0,0,0,0,0,0,0,0,0,0,90.36,0,1,0,-0.1,0,0,0.03,90,0,0,0,0,0,0,0,0,-0.044,0,0,3,0,0,0,69,0,0,0,0,0,0,,0,NONE,0,0,0,0,0,0,0,0,0,0,0,2.24,0,0,0,0,0,0,0,0,0,90.36,1,-0.044,0.028,-0.0004,0.545,0,-0.0004,0,0,0,0,0,0,1,1,0,0,VALID,0,0,0,0,0,1,0,0,0,0,0,0,0,0,0,0,0,0,0,0,292.21,463.73,2,0,0.08,0.08,252,14.29,0.08,0.06,21.76,LANDED,CF1-J,0:/Integrated Flight Computer/aircraft/cf1_j_cfg.ks (inferred preloaded)
22.24,TAKEOFF,TO_GROUND_ROLL,48.92,80,31.08,3.63,2.21,-0.08,0.12,0.21,90.38,0.044,1,0,0,0,0,0,0,0,0,0,0,0,0,0,0,90.35,0,1,0,-0.1,0,0,0.03,90,0,0,0,0,0,0,0,0,-0.046,0,0,3,0,0,0,69,0,0,0,0,0,0,,0,NONE,0,0,0,0,0,0,0,0,0,0,0,2.21,0,0,0,0,0,0,0,0,0,90.35,1,-0.046,0.03,-0.0004,0.56,0,-0.0004,0,0,0,0,0,0,1,1,0,0,VALID,0,0,0,0,0,1,0,0,0,0,0,0,0,0,0,0,0,0,0,0,294.57,462.96,2,0,0.08,0.08,256,14.29,0.08,0.06,22.04,LANDED,CF1-J,0:/Integrated Flight Computer/aircraft/cf1_j_cfg.ks (inferred preloaded)
22.52,TAKEOFF,TO_GROUND_ROLL,50.29,80,29.71,3.63,2.19,-0.09,0.12,0.21,90.38,0.044,1,0,0,0,0,0,0,0,0,0,0,0,0,0,0,90.35,0,1,0,-0.1,0,0,0.03,90,0,0,0,0,0,0,0,0,-0.048,0,0,3,0,0,0,69,0,0,0,0,0,0,,0,NONE,0,0,0,0,0,0,0,0,0,0,0,2.19,0,0,0,0,0,0,0,0,0,90.35,1,-0.048,0.032,-0.0005,0.575,0,-0.0005,0,0,0,0,0,0,1,1,0,0,VALID,0,0,0,0,0,1,0,0,0,0,0,0,0,0,0,0,0,0,0,0,296.87,462.16,2,0,0.08,0.08,260,14.29,0.08,0.06,22.32,LANDED,CF1-J,0:/Integrated Flight Computer/aircraft/cf1_j_cfg.ks (inferred preloaded)
22.8,TAKEOFF,TO_GROUND_ROLL,51.66,80,28.34,3.63,2.17,-0.09,0.12,0.21,90.38,0.044,1,0,0,0,0,0,0,0,0,0,0,0,0,0,0,90.35,0,1,0,-0.1,0,0,0.03,90,0,0,0,0,0,0,0,0,-0.05,0,0,3,0,0,0,69,0,0,0,0,0,0,,0,NONE,0,0,0,0,0,0,0,0,0,0,0,2.17,0,0,0,0,0,0,0,0,0,90.35,1,-0.05,0.034,-0.0005,0.589,0,-0.0005,0,0,0,0,0,0,1,1,0,0,VALID,0,0,0,0,0,1,0,0,0,0,0,0,0,0,0,0,0,0,0,0,299.11,461.36,2,0,0.08,0.08,264,14.29,0.08,0.06,22.6,LANDED,CF1-J,0:/Integrated Flight Computer/aircraft/cf1_j_cfg.ks (inferred preloaded)
23.08,TAKEOFF,TO_GROUND_ROLL,53.05,80,26.95,3.63,2.14,-0.09,0.13,0.21,90.38,0.044,1,0,0,0,0,0,0,0,0,0,0,0,0,0,0,90.35,0,1,0,-0.09,0,0,0.03,90,0,0,0,0,0,0,0,0,-0.052,0,0,3,0,0,0,69,0,0,0,0,0,0,,0,NONE,0,0,0,0,0,0,0,0,0,0,0,2.14,0,0,0,0,0,0,0,0,0,90.35,1,-0.052,0.037,-0.0006,0.604,0,-0.0006,0,0,0,0,0,0,1,1,0,0,VALID,0,0,0,0,0,1,0,0,0,0,0,0,0,0,0,0,0,0,0,0,301.28,460.54,2,0,0.08,0.08,268,14.29,0.08,0.06,22.88,LANDED,CF1-J,0:/Integrated Flight Computer/aircraft/cf1_j_cfg.ks (inferred preloaded)
23.36,TAKEOFF,TO_GROUND_ROLL,54.44,80,25.56,3.64,2.12,-0.09,0.13,0.22,90.39,0.044,1,0,0,0,0,0,0,0,0,0,0,0,0,0,0,90.34,0,1,0,-0.09,0,0,0.04,90,0,0,0,0,0,0,0,0,-0.054,0,0,3,0,0,0,69,0,0,0,0,0,0,,0,NONE,0,0,0,0,0,0,0,0,0,0,0,2.12,0,0,0,0,0,0,0,0,0,90.34,1,-0.054,0.041,-0.0007,0.619,0,-0.0007,0,0,0,0,0,0,1,1,0,0,VALID,0,0,0,0,0,1,0,0,0,0,0,0,0,0,0,0,0,0,0,0,303.39,459.71,2,0,0.08,0.08,272,14.29,0.08,0.06,23.16,LANDED,CF1-J,0:/Integrated Flight Computer/aircraft/cf1_j_cfg.ks (inferred preloaded)
23.64,TAKEOFF,TO_GROUND_ROLL,55.84,80,24.16,3.64,2.09,-0.09,0.13,0.22,90.39,0.042,1,0,0,0,0,0,0,0,0,0,0,0,0,0,0,90.34,0,1,0,-0.09,0,0,0.04,90,0,0,0,0,0,0,0,0,-0.056,0,0,3,0,0,0,69,0,0,0,0,0,0,,0,NONE,0,0,0,0,0,0,0,0,0,0,0,2.09,0,0,0,0,0,0,0,0,0,90.34,1,-0.056,0.047,-0.0008,0.634,0,-0.0008,0,0,0,0,0,0,1,1,0,0,VALID,0,0,0,0,0,1,0,0,0,0,0,0,0,0,0,0,0,0,0,0,305.43,458.87,2,0,0.08,0.08,276,14.29,0.08,0.06,23.44,LANDED,CF1-J,0:/Integrated Flight Computer/aircraft/cf1_j_cfg.ks (inferred preloaded)
23.92,TAKEOFF,TO_GROUND_ROLL,57.25,80,22.75,3.64,2.07,-0.09,0.14,0.23,90.39,0.039,1,0,0,0,0,0,0,0,0,0,0,0,0,0,0,90.34,0,1,0,-0.09,0,0,0.04,90,0,0,0,0,0,0,0,0,-0.058,0,0,3,0,0,0,69,0,0,0,0,0,0,,0,NONE,0,0,0,0,0,0,0,0,0,0,0,2.07,0,0,0,0,0,0,0,0,0,90.34,1,-0.058,0.055,-0.001,0.649,0,-0.001,0,0,0,0,0,0,1,1,0,0,VALID,0,0,0,0,0,1,0,0,0,0,0,0,0,0,0,0,0,0,0,0,307.42,458.01,2,0,0.08,0.08,280,14.29,0.08,0.06,23.72,LANDED,CF1-J,0:/Integrated Flight Computer/aircraft/cf1_j_cfg.ks (inferred preloaded)
24.2,TAKEOFF,TO_GROUND_ROLL,58.66,80,21.34,3.64,2.05,-0.09,0.17,0.25,90.4,0.036,1,0,0,0,0,0,0,0,0,0,0,0,0,0,0,90.34,0,1,0,-0.08,0,0,0.04,90,0,0,0,0,0,0,0,0,-0.061,0,0,3,0,0,0,69,0,0,0,0,0,0,,0,NONE,0,0,0,0,0,0,0,0,0,0,0,2.05,0,0,0,0,0,0,0,0,0,90.34,1,-0.061,0.062,-0.0012,0.664,0,-0.0012,0,0,0,0,0,0,1,1,0,0,VALID,0,0,0,0,0,1,0,0,0,0,0,0,0,0,0,0,0,0,0,0,309.35,457.15,2,0,0.08,0.08,284,14.29,0.08,0.06,24,LANDED,CF1-J,0:/Integrated Flight Computer/aircraft/cf1_j_cfg.ks (inferred preloaded)
24.48,TAKEOFF,TO_GROUND_ROLL,60.08,80,19.92,3.65,2.04,-0.09,0.22,0.3,90.4,0.035,1,0,0,0,0,0,0,0,0,0,0,0,0,0,0,90.33,0,1,0,-0.08,0,0,0.04,90,0,0,0,0,0,0,0,0,-0.063,0,0,3,0,0,0,69,0,0,0,0,0,0,,0,NONE,0,0,0,0,0,0,0,0,0,0,0,2.04,0,0,0,0,0,0,0,0,0,90.33,1,-0.063,0.071,-0.0014,0.679,0,-0.0014,0,0,0,0,0,0,1,1,0,0,VALID,0,0,0,0,0,1,0,0,0,0,0,0,0,0,0,0,0,0,0,0,311.21,456.27,2,0,0.08,0.08,288,14.29,0.08,0.06,24.28,LANDED,CF1-J,0:/Integrated Flight Computer/aircraft/cf1_j_cfg.ks (inferred preloaded)
24.76,TAKEOFF,TO_GROUND_ROLL,61.51,80,18.49,3.67,2.03,0.01,0.28,0.27,90.41,0.036,1,0,0,0,0,0,0,0,0,0,0,0,0,0,0,90.33,0,1,0,0.01,0,0,0.04,90,0,0,0,0,0,0,0,0,-0.066,0,0,3,0,0,0,69,0,0,0,0,0,0,,0,NONE,0,0,0,0,0,0,0,0,0,0,0,2.03,0,0,0,0,0,0,0,0,0,90.33,1,-0.066,0.079,-0.0016,0.695,0,-0.0016,0,0,0,0,0,0,1,1,0,0,VALID,0,0,0,0,0,1,0,0,0,0,0,0,0,0,0,0,0,0,0,0,313.02,455.38,2,0,0.08,0.08,292,14.29,0.08,0.06,24.56,LANDED,CF1-J,0:/Integrated Flight Computer/aircraft/cf1_j_cfg.ks (inferred preloaded)
25.04,TAKEOFF,TO_GROUND_ROLL,62.94,80,17.06,3.69,2.02,-0.11,0.39,0.48,90.41,0.038,1,0,0,0,0,0,0,0,0,0,0,0,0,0,0,90.33,0,1,0,-0.1,0,0,0.05,90,0,0,0,0,0,0,0,0,-0.068,0,0,3,0,0,0,69,0,0,0,0,0,0,,0,NONE,0,0,0,0,0,0,0,0,0,0,0,2.02,0,0,0,0,0,0,0,0,0,90.33,1,-0.068,0.087,-0.0018,0.71,0,-0.0018,0,0,0,0,0,0,1,1,0,0,VALID,0,0,0,0,0,1,0,0,0,0,0,0,0,0,0,0,0,0,0,0,314.78,454.49,2,0,0.08,0.08,296,14.29,0.08,0.06,24.84,LANDED,CF1-J,0:/Integrated Flight Computer/aircraft/cf1_j_cfg.ks (inferred preloaded)
25.32,TAKEOFF,TO_GROUND_ROLL,64.37,80,15.63,3.71,2.02,-0.09,0.49,0.57,90.42,0.039,1,0,0,0,0,0,0,0,0,0,0,0,0,0,0,90.33,0,1,0,-0.08,0,0,0.05,90,0,0,0,0,0,0,0,0,-0.071,0,0,3,0,0,0,69,0,0,0,0,0,0,,0,NONE,0,0,0,0,0,0,0,0,0,0,0,2.02,0,0,0,0,0,0,0,0,0,90.33,1,-0.071,0.095,-0.002,0.725,0,-0.002,0,0,0,0,0,0,1,1,0,0,VALID,0,0,0,0,0,1,0,0,0,0,0,0,0,0,0,0,0,0,0,0,316.48,453.58,2,0,0.08,0.08,300,14.29,0.08,0.06,25.12,LANDED,CF1-J,0:/Integrated Flight Computer/aircraft/cf1_j_cfg.ks (inferred preloaded)
25.6,TAKEOFF,TO_GROUND_ROLL,65.81,80,14.19,3.72,1.97,-0.04,0.64,0.67,90.43,0.037,1,0,0,0,0,0,0,0,0,0,0,0,0,0,0,90.32,0,1,0,-0.04,0,0,0.05,90,0,0,0,0,0,0,0,0,-0.074,0,0,3,0,0,0,69,0,0,0,0,0,0,,0,NONE,0,0,0,0,0,0,0,0,0,0,0,1.97,0,0,0,0,0,0,0,0,0,90.32,1,-0.074,0.103,-0.0023,0.741,0,-0.0023,0,0,0,0,0,0,1,1,0,0,VALID,0,0,0,0,0,1,0,0,0,0,0,0,0,0,0,0,0,0,0,0,318.12,452.67,2,0,0.08,0.08,304,14.29,0.08,0.06,25.4,LANDED,CF1-J,0:/Integrated Flight Computer/aircraft/cf1_j_cfg.ks (inferred preloaded)
25.88,TAKEOFF,TO_GROUND_ROLL,67.25,80,12.75,3.74,1.97,-0.19,0.65,0.8,90.43,0.036,1,0,0,0,0,0,0,0,0,0,0,0,0,0,0,90.32,0,1,0,-0.16,0,0,0.05,90,0,0,0,0,0,0,0,0,-0.077,0,0,3,0,0,0,69,0,0,0,0,0,0,,0,NONE,0,0,0,0,0,0,0,0,0,0,0,1.97,0,0,0,0,0,0,0,0,0,90.32,1,-0.077,0.11,-0.0025,0.756,0,-0.0025,0,0,0,0,0,0,1,1,0,0,VALID,0,0,0,0,0,1,0,0,0,0,0,0,0,0,0,0,0,0,0,0,319.72,451.75,2,0,0.08,0.08,308,14.29,0.08,0.06,25.68,LANDED,CF1-J,0:/Integrated Flight Computer/aircraft/cf1_j_cfg.ks (inferred preloaded)
26.16,TAKEOFF,TO_ROTATE,68.8,80,11.2,3.75,1.94,-0.06,0.67,0.7,90.43,0.036,1,0,0,0,0,0,0,0,0,0,0,0,0,0,0,90.32,0.907,1,0,-0.04,0,0,0.05,90,0,0,0,0,0,0,0,0,-0.079,0,0,3,0,0,0,69,0,0,0,0,0,0,,0,NONE,0,0,0,0,0,0,0,0.12,0,0,0,1.94,0,0,0,0,0,0,0,0,0,90.32,1,-0.079,0.117,-0.0028,0.772,0,-0.0028,0,0.12,0.907,0.24,0.08,0,1,1,0,0,VALID,0,0,0,0,0,1,0,0,0,0,0,0,0,0,0,0,0,0,0,0,321.37,450.76,2,0,0.08,0.08,312,13.33,0.08,0.06,25.96,LANDED,CF1-J,0:/Integrated Flight Computer/aircraft/cf1_j_cfg.ks (inferred preloaded)
26.44,TAKEOFF,TO_ROTATE,70.24,80,9.76,3.75,1.92,-0.08,0.71,0.78,90.44,0.037,1,0,0,0,0,0,0,0,0,0,0,0,0,0,0,90.32,1.747,1,0,-0.07,0,0,0.05,90,0,0,0,0,0,0,0,0,-0.083,0,0,3,0,0,0,69,0,0,0,0,0,0,,0,NONE,0,0,0,0,0,0,0,0.1629,0,0,0,1.92,0,0,0,0,0,0,0,0,0,90.32,1,-0.083,0.123,-0.003,0.787,0,-0.003,0,0.1629,1.747,1.037,0.08,0,1,1,0,0,VALID,0,0,0,0,0,1,0,0,0,0,0,0,0,0,0,0,0,0,0,0,322.86,449.82,2,0,0.08,0.08,316,14.29,0.08,0.06,26.24,LANDED,CF1-J,0:/Integrated Flight Computer/aircraft/cf1_j_cfg.ks (inferred preloaded)
26.74,TAKEOFF,TO_ROTATE,71.8,80,8.2,3.78,1.93,-0.08,0.87,0.93,90.44,0.039,1,0,0,0,0,0,0,0,0,0,0,0,0,0,0,90.31,2.647,1,0,-0.06,0,0,0.06,90,0,0,0,0,0,0,0,0,-0.086,0,0,3,0,0,0,69,0,0,0,0,0,0,,0,NONE,0,0,0,0,0,0,0,0.222,0,0,0,1.93,0,0,0,0,0,0,0,0,0,90.31,1,-0.086,0.129,-0.0033,0.804,0,-0.0033,0,0.222,2.647,1.774,0.08,0,1,1,0,0,VALID,0,0,0,0,0,1,0,0,0,0,0,0,0,0,0,0,0,0,0,0,324.4,448.82,2,0,0.08,0.08,320,13.33,0.08,0.06,26.54,LANDED,CF1-J,0:/Integrated Flight Computer/aircraft/cf1_j_cfg.ks (inferred preloaded)
27.02,TAKEOFF,TO_ROTATE,73.24,80,6.76,3.83,1.96,-0.06,1.15,1.2,90.44,0.038,1,0,0,0,0,0,0,0,0,0,0,0,0,0,0,90.31,3.487,1,0,-0.05,0,0,0.06,90,0,0,0,0,0,0,0,0,-0.089,0,0,3,0,0,0,69,0,0,0,0,0,0,,0,NONE,0,0,0,0,0,0,0,0.2669,0,0,0,1.96,0,0,0,0,0,0,0,0,0,90.31,1,-0.089,0.135,-0.0035,0.819,0,-0.0035,0,0.2669,3.487,2.336,0.08,0,1,1,0,0,VALID,0,0,0,0,0,1,0,0,0,0,0,0,0,0,0,0,0,0,0,0,325.79,447.87,2,0,0.08,0.08,324,14.29,0.08,0.06,26.82,LANDED,CF1-J,0:/Integrated Flight Computer/aircraft/cf1_j_cfg.ks (inferred preloaded)
27.3,TAKEOFF,TO_ROTATE,74.68,80,5.32,3.89,1.99,-0.05,1.49,1.53,90.45,0.029,1,0,0,0,0,0,0,0,0,0,0,0,0,0,0,90.31,4.327,1,0,-0.04,0,0,0.06,90,0,0,0,0,0,0,0,0,-0.093,0,0,3,0,0,0,69,0,0,0,0,0,0,,0,NONE,0,0,0,0,0,0,0,0.3073,0,0,0,1.99,0,0,0,0,0,0,0,0,0,90.31,1,-0.093,0.139,-0.0037,0.835,0,-0.0037,0,0.3073,4.327,2.842,0.08,0,1,1,0,0,VALID,0,0,0,0,0,1,0,0,0,0,0,0,0,0,0,0,0,0,0,0,327.13,446.93,2,0,0.08,0.08,328,14.29,0.08,0.06,27.1,LANDED,CF1-J,0:/Integrated Flight Computer/aircraft/cf1_j_cfg.ks (inferred preloaded)
27.58,TAKEOFF,TO_ROTATE,76.12,80,3.88,3.96,2.04,-0.02,1.83,1.84,90.45,0.016,1,0,0,0,0,0,0,0,0,0,0,0,0,0,0,90.31,5.167,1,0,-0.01,0,0,0.06,90,0,0,0,0,0,0,0,0,-0.096,0,0,3,0,0,0,69,0,0,0,0,0,0,,0,NONE,0,0,0,0,0,0,0,0.3473,0,0,0,2.04,0,0,0,0,0,0,0,0,0,90.31,1,-0.096,0.14,-0.0038,0.85,0,-0.0038,0,0.3473,5.167,3.341,0.08,0,1,1,0,0,VALID,0,0,0,0,0,1,0,0,0,0,0,0,0,0,0,0,0,0,0,0,328.44,445.99,2,0,0.08,0.08,332,14.29,0.08,0.06,27.38,LANDED,CF1-J,0:/Integrated Flight Computer/aircraft/cf1_j_cfg.ks (inferred preloaded)
27.86,TAKEOFF,TO_ROTATE,77.54,80,2.46,4.08,2.13,0.01,2.22,2.18,90.44,0.012,1,0,0,0,0,0,0,0,0,0,0,0,0,0,0,90.3,6.007,1,0,0.04,0,0,0.07,90,0,0,0,0,0,0,0,0,-0.099,0,0,3,0,0,0,69,0,0,0,0,0,0,,0,NONE,0,0,0,0,0,0,0,0.3829,0,0,0,2.13,0,0,0,0,0,0,0,0,0,90.3,1,-0.099,0.141,-0.0039,0.865,0,-0.0039,0,0.3829,6.007,3.786,0.08,0,1,1,0,0,VALID,0,0,0,0,0,1,0,0,0,0,0,0,0,0,0,0,0,0,0,0,329.7,445.05,2,0,0.08,0.08,336,14.29,0.08,0.06,27.66,LANDED,CF1-J,0:/Integrated Flight Computer/aircraft/cf1_j_cfg.ks (inferred preloaded)
28.14,TAKEOFF,TO_ROTATE,78.95,80,1.05,4.19,2.24,0.12,2.97,2.92,90.44,0.018,1,0,0,0,0,0,0,0,0,0,0,0,0,0,0,90.3,6.847,1,0,0.06,0,0,0.07,90,0,0,0,0,0,0,0,0,-0.103,0,0,3,0,0,0,69,0,0,0,0,0,0,,0,NONE,0,0,0,0,0,0,0,0.3899,0,0,0,2.24,0,0,0,0,0,0,0,0,0,90.3,1,-0.103,0.139,-0.0039,0.88,0,-0.0039,0,0.3899,6.847,3.873,0.08,0,1,1,0,0,VALID,0,0,0,0,0,1,0,0,0,0,0,0,0,0,0,0,0,0,0,0,330.93,444.12,2,0,0.08,0.08,340,14.29,0.08,0.06,27.94,LANDED,CF1-J,0:/Integrated Flight Computer/aircraft/cf1_j_cfg.ks (inferred preloaded)
28.42,TAKEOFF,TO_ROTATE,80.32,80,-0.32,4.4,2.43,-0.04,3.84,3.84,90.44,0.034,1,0,0,0,0,0,0,0,0,0,0,0,0,0,0,90.3,7.687,1,0,-0.01,0,0,0.07,90,0,0,0,0,0,0,0,0,-0.106,0,0,3,0,0,0,69,0,0,0,0,0,0,,0,NONE,0,0,0,0,0,0,0,0.3881,0,0,0,2.43,0,0,0,0,0,0,0,0,0,90.3,1,-0.106,0.141,-0.004,0.895,0,-0.004,0,0.3881,7.687,3.852,0.08,0,1,1,0,0,VALID,0,0,0,0,0,1,0,0,0,0,0,0,0,0,0,0,0,0,0,0,332.13,443.2,2,0,0.08,0.08,344,14.29,0.08,0.06,28.22,LANDED,CF1-J,0:/Integrated Flight Computer/aircraft/cf1_j_cfg.ks (inferred preloaded)
28.7,TAKEOFF,TO_ROTATE,81.65,80,-1.65,4.63,2.63,0.18,5.05,4.94,90.43,0.024,1,0,0,0,0,0,0,0,0,0,0,0,0,0,0,90.29,8.527,1,0,0.12,0,0,0.07,90,0,0,0,0,0,0,0,0,-0.11,0,0,3,0,0,0,69,0,0,0,0,0,0,,0,NONE,0,0,0,0,0,0,0,0.358,0,0,0,2.63,0,0,0,0,0,0,0,0,0,90.29,1,-0.11,0.138,-0.004,0.91,0,-0.004,0,0.358,8.527,3.475,0.08,0,1,1,0,0,VALID,0,0,0,0,0,1,0,0,0,0,0,0,0,0,0,0,0,0,0,0,333.31,442.32,2,0,0.08,0.08,348,14.29,0.08,0.06,28.5,LANDED,CF1-J,0:/Integrated Flight Computer/aircraft/cf1_j_cfg.ks (inferred preloaded)
28.96,TAKEOFF,TO_ROTATE,82.82,80,-2.82,4.88,2.87,0.35,6.23,5.94,90.43,-0.001,1,0,0,0,0,0,0,0,0,0,0,0,0,0,0,90.4,9.367,1,0,0.24,0,0,0.07,90,-0.9888,-0.007,0.1492,9.37,90.4,0,0,0,0,0,0,3,0,0,0,69,0,0,0,0,0,0,,0,NONE,0,0,0,0,0,0,0,0,0,0,0,2.87,0,0,0,0,0,0,0,0,0,90.4,1,0,0.025,0,0,3,0,0,0,9.367,3.139,0,0,1,1,0,0,VALID,0,0,0,0,0,1,0,0,0,0,0,0,0,0,0,0,0,0,0,0,334.4,441.53,2,0,0.08,0.08,352,15.38,0.08,0.06,28.78,FLYING,CF1-J,0:/Integrated Flight Computer/aircraft/cf1_j_cfg.ks (inferred preloaded)
29.24,TAKEOFF,TO_ROTATE,84.02,80,-4.02,5.19,3.16,0.96,6.88,6.26,90.42,-0.046,1,0,0,0,0,0,0,0,0,0,0,0,0,0,0,90.4,10,0,1,0.66,0,0,9.97,90.4,-0.9871,-0.007,0.1601,10,90.4,0,0,0,0,0,0,3,0,0,0,69,0,0,0,0,0,0,,0,NONE,0,0,0,0,0,0,0,0,0,0,0,3.16,0,0,0,0,0,0,0,0,0,90.4,1,0,0.02,0,0,3,0,0,0,10,3.121,0,0,1,1,0,0,VALID,0,0,0,0,0,1,0,0,0,0,0,0,0,0,0,0,0,0,0,0,335.57,440.72,2,0,0.08,0.08,356,14.29,0.08,0.06,29.06,FLYING,CF1-J,0:/Integrated Flight Computer/aircraft/cf1_j_cfg.ks (inferred preloaded)
29.52,TAKEOFF,TO_ROTATE,85.18,80,-5.18,5.61,3.56,1.57,7.15,6.15,90.42,-0.045,1,0,0,0,0,0,0,0,0,0,0,0,0,0,0,90.4,10,0,1,1.05,0,0,10,90.4,-0.9871,-0.007,0.16,10,90.4,0,0,0,0,0,0,3,0,0,0,69,0,0,0,0,0,0,,0,NONE,0,0,0,0,0,0,0,0,0,0,0,3.56,0,0,0,0,0,0,0,0,0,90.4,1,0,0.017,0,0,3,0,0,0,10,2.854,0,0,1,1,0,0,VALID,0,0,0,0,0,1,0,0,0,0,0,0,0,0,0,0,0,0,0,0,336.72,439.93,2,0,0.08,0.08,360,14.29,0.08,0.06,29.34,FLYING,CF1-J,0:/Integrated Flight Computer/aircraft/cf1_j_cfg.ks (inferred preloaded)
29.8,TAKEOFF,TO_CLIMB,86.32,80,-6.32,6.2,4.13,2.23,7.37,5.97,90.41,-0.043,0.944,0,0,0,0,0,0,0,0,0,0,0,0,0,0,90.4,7.495,0,1,1.48,0,0,7.37,90.4,-0.9931,-0.007,0.1167,7.5,90.4,0,0,0,0,0,0,3,0,0,0,69,0,0,0,0,0,0,,0,NONE,0,0,0,0,0,0,0,0,0,0,0,4.13,0,0,0,0,0,0,0,0,0,90.4,1,0,0.015,0,0,3,0,0,0,10,2.729,0,0,1,1,0,0,VALID,0,0,0,0,0,1,0,0,0,0,0,0,0,0,0,0,0,0,0,0,337.8,439.13,2,0,0.08,0.08,364,14.29,0.08,0.06,29.62,FLYING,CF1-J,0:/Integrated Flight Computer/aircraft/cf1_j_cfg.ks (inferred preloaded)
30.08,TAKEOFF,TO_CLIMB,87.44,80,-7.44,6.96,4.87,2.89,7.48,5.68,90.41,-0.042,0.8756,0,0,0,0,0,0,0,0,0,0,0,0,0,0,90.4,7.943,0,1,1.89,0,0,7.82,90.4,-0.9922,-0.007,0.1244,7.94,90.4,0,0,0,0,0,0,3,0,0,0,69,0,0,0,0,0,0,,0,NONE,0,0,0,0,0,0,0,0,0,0,0,4.87,0,0,0,0,0,0,0,0,0,90.4,1,0,0.013,0,0,3,0,0,0,10,2.729,0,0,1,1,0,0,VALID,0,0,0,0,0,1,0,0,0,0,0,0,0,0,0,0,0,0,0,0,338.29,438.33,2,0,0.08,0.08,368,14.29,0.08,0.06,29.9,FLYING,CF1-J,0:/Integrated Flight Computer/aircraft/cf1_j_cfg.ks (inferred preloaded)
30.36,TAKEOFF,TO_CLIMB,88.56,80,-8.56,7.92,5.81,3.54,7.67,5.48,90.41,-0.039,0.8644,0,0,0,0,0,0,0,0,0,0,0,0,0,0,90.4,8,0,1,2.29,0,0,8,90.4,-0.9921,-0.007,0.1253,8,90.4,0,0,0,0,0,0,3,0,0,0,69,0,0,0,0,0,0,,0,NONE,0,0,0,0,0,0,0,0,0,0,0,5.81,0,0,0,0,0,0,0,0,0,90.4,1,0,0.011,0,0,3,0,0,0,10,2.729,0,0,1,1,0,0,VALID,0,0,0,0,0,1,0,0,0,0,0,0,0,0,0,0,0,0,0,0,338.41,437.53,2,0,0.08,0.08,372,14.29,0.08,0.06,30.18,FLYING,CF1-J,0:/Integrated Flight Computer/aircraft/cf1_j_cfg.ks (inferred preloaded)
30.64,TAKEOFF,TO_CLIMB,89.66,80,-9.66,9.09,6.96,4.28,8,5.4,90.41,-0.039,0.8534,0,0,0,0,0,0,0,0,0,0,0,0,0,0,90.4,8,0,1,2.73,0,0,8,90.4,-0.9921,-0.007,0.1253,8,90.4,0,0,0,0,0,0,3,0,0,0,69,0,0,0,0,0,0,,0,NONE,0,0,0,0,0,0,0,0,0,0,0,6.96,0,0,0,0,0,0,0,0,0,90.4,1,0,0.008,0,0,3,0,0,0,10,2.729,0,0,1,1,0,0,VALID,0,0,0,0,0,1,0,0,0,0,0,0,0,0,0,0,0,0,0,0,338.43,436.72,2,0,0.08,0.08,376,14.29,0.08,0.06,30.46,FLYING,CF1-J,0:/Integrated Flight Computer/aircraft/cf1_j_cfg.ks (inferred preloaded)
30.92,TAKEOFF,TO_CLIMB,90.74,80,-10.74,10.43,8.3,5.02,8.12,5.11,90.41,-0.04,0.8426,0,0,0,0,0,0,0,0,0,0,0,0,0,0,90.4,8,0,1,3.17,0,0,8,90.4,-0.9921,-0.007,0.1253,8,90.4,0,0,0,0,0,0,3,0,0,0,69,0,0,0,0,0,0,,0,NONE,0,0,0,0,0,0,0,0,0,0,0,8.3,0,0,0,0,0,0,0,0,0,90.4,1,0,0.006,0,0,3,0,0,0,10,2.729,0,0,1,1,0,0,VALID,0,0,0,0,0,1,0,0,0,0,0,0,0,0,0,0,0,0,0,0,338.36,435.92,2,0,0.08,0.08,380,14.29,0.08,0.06,30.74,FLYING,CF1-J,0:/Integrated Flight Computer/aircraft/cf1_j_cfg.ks (inferred preloaded)
31.2,TAKEOFF,TO_CLIMB,91.81,80,-11.81,11.98,9.82,5.74,8.22,4.81,90.4,-0.039,0.8319,0,0,0,0,0,0,0,0,0,0,0,0,0,0,90.4,8,0,1,3.58,0,0,8,90.4,-0.9921,-0.007,0.1252,8,90.4,0,0,0,0,0,0,3,0,0,0,69,0,0,0,0,0,0,,0,NONE,0,0,0,0,0,0,0,0,0,0,0,9.82,0,0,0,0,0,0,0,0,0,90.4,1,0,0.004,0,0,3,0,0,0,10,2.729,0,0,1,1,0,0,VALID,0,0,0,0,0,1,0,0,0,0,0,0,0,0,0,0,0,0,0,0,338.2,435.11,2,0,0.08,0.08,384,14.29,0.08,0.06,31.02,FLYING,CF1-J,0:/Integrated Flight Computer/aircraft/cf1_j_cfg.ks (inferred preloaded)
31.48,TAKEOFF,TO_CLIMB,92.88,80,-12.88,13.66,11.52,6.44,8.12,4.36,90.4,-0.037,0.8212,0,0,0,0,0,0,0,0,0,0,0,0,0,0,90.4,8,0,1,3.97,0,0,8,90.4,-0.9921,-0.007,0.1252,8,90.4,0,0,0,0,0,0,3,0,0,0,69,0,0,0,0,0,0,,0,NONE,0,0,0,0,0,0,0,0,0,0,0,11.52,0,0,0,0,0,0,0,0,0,90.4,1,0,0.002,0,0,3,0,0,0,10,2.729,0,0,1,1,0,0,VALID,0,0,0,0,0,1,0,0,0,0,0,0,0,0,0,0,0,0,0,0,337.95,434.3,2,0,0.08,0.08,388,14.29,0.08,0.06,31.3,FLYING,CF1-J,0:/Integrated Flight Computer/aircraft/cf1_j_cfg.ks (inferred preloaded)
31.76,TAKEOFF,TO_CLIMB,93.94,80,-13.94,15.52,13.37,7.03,7.8,3.73,90.4,-0.033,0.8106,0,0,0,0,0,0,0,0,0,0,0,0,0,0,90.4,8,0,1,4.28,0,0,8,90.4,-0.9921,-0.007,0.1251,8,90.4,0,0,0,0,0,0,3,0,0,0,69,0,0,0,0,0,0,,0,NONE,0,0,0,0,0,0,0,0,0,0,0,13.37,0,0,0,0,0,0,0,0,0,90.4,1,0,0,0,0,3,0,0,0,10,2.729,0,0,1,1,0,0,VALID,0,0,0,0,0,1,0,0,0,0,0,0,0,0,0,0,0,0,0,0,337.6,433.47,2,0,0.08,0.08,392,14.29,0.08,0.06,31.58,FLYING,CF1-J,0:/Integrated Flight Computer/aircraft/cf1_j_cfg.ks (inferred preloaded)
32.04,TAKEOFF,TO_CLIMB,95.01,80,-15.01,17.53,15.36,7.48,7.55,3.24,90.4,-0.03,0.7999,0,0,0,0,0,0,0,0,0,0,0,0,0,0,90.4,8,0,1,4.5,0,0,8,90.4,-0.9921,-0.007,0.1251,8,90.4,0,0,0,0,0,0,3,0,0,0,69,0,0,0,0,0,0,,0,NONE,0,0,0,0,0,0,0,0,0,0,0,15.36,0,0,0,0,0,0,0,0,0,90.4,1,0,-0.001,0,0,3,0,0,0,10,2.729,0,0,1,1,0,0,VALID,0,0,0,0,0,1,0,0,0,0,0,0,0,0,0,0,0,0,0,0,337.16,432.63,2,0,0.08,0.08,396,14.29,0.08,0.06,31.86,FLYING,CF1-J,0:/Integrated Flight Computer/aircraft/cf1_j_cfg.ks (inferred preloaded)
32.32,TAKEOFF,TO_CLIMB,96.09,80,-16.09,19.68,17.51,7.87,7.49,3,90.4,-0.028,0.7891,0,0,0,0,0,0,0,0,0,0,0,0,0,0,90.4,8,0,1,4.68,0,0,8,90.4,-0.9921,-0.007,0.125,8,90.4,0,0,0,0,0,0,3,0,0,0,69,0,0,0,0,0,0,,0,NONE,0,0,0,0,0,0,0,0,0,0,0,17.51,0,0,0,0,0,0,0,0,0,90.4,1,0,-0.002,0,0,3,0,0,0,10,2.729,0,0,1,1,0,0,VALID,0,0,0,0,0,1,0,0,0,0,0,0,0,0,0,0,0,0,0,0,336.62,431.78,2,0,0.08,0.08,400,14.29,0.08,0.06,32.14,FLYING,CF1-J,0:/Integrated Flight Computer/aircraft/cf1_j_cfg.ks (inferred preloaded)
32.6,TAKEOFF,TO_CLIMB,97.16,80,-17.16,21.95,19.77,8.27,7.48,2.82,90.4,-0.025,0.78,0,0,0,0,0,0,0,0,0,0,0,0,0,0,90.4,8,0,1,4.86,0,0,8,90.4,-0.9921,-0.007,0.125,8,90.4,0,0,0,0,0,0,3,0,0,0,69,0,0,0,0,0,0,,0,NONE,0,0,0,0,0,0,0,0,0,0,0,19.77,0,0,0,0,0,0,0,0,0,90.4,1,0,-0.003,0,0,3,0,0,0,10,2.729,0,0,1,1,0,0,VALID,0,0,0,0,0,1,0,0,0,0,0,0,0,0,0,0,0,0,0,0,336.01,430.92,2,0,0.08,0.08,404,14.29,0.08,0.06,32.42,FLYING,CF1-J,0:/Integrated Flight Computer/aircraft/cf1_j_cfg.ks (inferred preloaded)
32.88,TAKEOFF,TO_CLIMB,98.23,80,-18.23,24.33,22.14,8.65,7.48,2.65,90.4,-0.023,0.78,0,0,0,0,0,0,0,0,0,0,0,0,0,0,90.4,8,0,1,5.03,0,0,8,90.4,-0.9921,-0.007,0.1249,8,90.4,0,0,0,0,0,0,3,0,0,0,69,0,0,0,0,0,0,,0,NONE,0,0,0,0,0,0,0,0,0,0,0,22.14,0,0,0,0,0,0,0,0,0,90.4,1,0,-0.005,0,0,3,0,0,0,10,2.729,0,0,1,1,0,0,VALID,0,0,0,0,0,1,0,0,0,0,0,0,0,0,0,0,0,0,0,0,335.35,430.07,2,0,0.08,0.08,408,14.29,0.08,0.06,32.7,FLYING,CF1-J,0:/Integrated Flight Computer/aircraft/cf1_j_cfg.ks (inferred preloaded)
33.16,TAKEOFF,TO_CLIMB,99.29,80,-19.29,26.82,24.63,9.04,7.49,2.49,90.39,-0.02,0.78,0,0,0,0,0,0,0,0,0,0,0,0,0,0,90.4,8,0,1,5.2,0,0,8,90.4,-0.9921,-0.007,0.1249,8,90.4,0,0,0,0,0,0,3,0,0,0,69,0,0,0,0,0,0,,0,NONE,0,0,0,0,0,0,0,0,0,0,0,24.63,0,0,0,0,0,0,0,0,0,90.4,1,0,-0.006,0,0,3,0,0,0,10,2.729,0,0,1,1,0,0,VALID,0,0,0,0,0,1,0,0,0,0,0,0,0,0,0,0,0,0,0,0,334.68,429.21,2,0,0.08,0.08,412,14.29,0.08,0.06,32.98,FLYING,CF1-J,0:/Integrated Flight Computer/aircraft/cf1_j_cfg.ks (inferred preloaded)
33.44,TAKEOFF,TO_CLIMB,100.34,80,-20.34,29.41,27.21,9.34,7.53,2.41,90.39,-0.018,0.78,0,0,0,0,0,0,0,0,0,0,0,0,0,0,90.4,8,0,1,5.32,0,0,8,90.4,-0.9922,-0.007,0.1248,8,90.4,0,0,0,0,0,0,3,0,0,0,69,0,0,0,0,0,0,,0,NONE,0,0,0,0,0,0,0,0,0,0,0,27.21,0,0,0,0,0,0,0,0,0,90.4,1,0,-0.007,0,0,3,0,0,0,10,2.729,0,0,1,1,0,0,VALID,0,0,0,0,0,1,0,0,0,0,0,0,0,0,0,0,0,0,0,0,334.02,428.36,2,0,0.08,0.08,416,14.29,0.08,0.06,33.26,FLYING,CF1-J,0:/Integrated Flight Computer/aircraft/cf1_j_cfg.ks (inferred preloaded)
33.72,TAKEOFF,TO_CLIMB,101.39,80,-21.39,32.13,29.9,9.73,7.67,2.4,90.39,-0.016,0.78,0,0,0,0,0,0,0,0,0,0,0,0,0,0,90.4,8,0,1,5.48,0,0,8,90.4,-0.9922,-0.007,0.1248,8,90.4,0,0,0,0,0,0,3,0,0,0,69,0,0,0,0,0,0,,0,NONE,0,0,0,0,0,0,0,0,0,0,0,29.9,0,0,0,0,0,0,0,0,0,90.4,1,0,-0.008,0,0,3,0,0,0,10,2.729,0,0,1,1,0,0,VALID,0,0,0,0,0,1,0,0,0,0,0,0,0,0,0,0,0,0,0,0,333.35,427.5,2,0,0.08,0.08,420,14.29,0.08,0.06,33.54,FLYING,CF1-J,0:/Integrated Flight Computer/aircraft/cf1_j_cfg.ks (inferred preloaded)
34,TAKEOFF,TO_CLIMB,102.42,80,-22.42,34.9,32.68,10.08,7.65,2.25,90.39,-0.012,0.78,0,0,0,0,0,0,0,0,0,0,0,0,0,0,90.4,8,0,1,5.62,0,0,8,90.4,-0.9922,-0.007,0.1248,8,90.4,0,0,0,0,0,0,3,0,0,0,69,0,0,0,0,0,0,,0,NONE,0,0,0,0,0,0,0,0,0,0,0,32.68,0,0,0,0,0,0,0,0,0,90.4,1,0,-0.009,0,0,3,0,0,0,10,2.729,0,0,1,1,0,0,VALID,0,0,0,0,0,1,0,0,0,0,0,0,0,0,0,0,0,0,0,0,332.69,426.65,2,0,0.08,0.08,424,14.29,0.08,0.06,33.82,FLYING,CF1-J,0:/Integrated Flight Computer/aircraft/cf1_j_cfg.ks (inferred preloaded)
34.28,TAKEOFF,TO_CLIMB,103.45,80,-23.45,37.79,35.56,10.46,7.67,2.12,90.39,-0.01,0.78,0,0,0,0,0,0,0,0,0,0,0,0,0,0,90.4,8,0,1,5.77,0,0,8,90.4,-0.9922,-0.007,0.1247,8,90.4,0,0,0,0,0,0,3,0,0,0,69,0,0,0,0,0,0,,0,NONE,0,0,0,0,0,0,0,0,0,0,0,35.56,0,0,0,0,0,0,0,0,0,90.4,1,0,-0.009,0,0,3,0,0,0,10,2.729,0,0,1,1,0,0,VALID,0,0,0,0,0,1,0,0,0,0,0,0,0,0,0,0,0,0,0,0,332.03,425.8,2,0,0.08,0.08,428,14.29,0.08,0.06,34.1,FLYING,CF1-J,0:/Integrated Flight Computer/aircraft/cf1_j_cfg.ks (inferred preloaded)
34.56,TAKEOFF,TO_CLIMB,104.46,80,-24.46,40.77,38.54,10.82,7.67,1.98,90.39,-0.007,0.78,0,0,0,0,0,0,0,0,0,0,0,0,0,0,90.4,8,0,1,5.91,0,0,8,90.4,-0.9922,-0.007,0.1247,8,90.4,0,0,0,0,0,0,3,0,0,0,69,0,0,0,0,0,0,,0,NONE,0,0,0,0,0,0,0,0,0,0,0,38.54,0,0,0,0,0,0,0,0,0,90.4,1,0,-0.01,0,0,3,0,0,0,10,2.729,0,0,1,1,0,0,VALID,0,0,0,0,0,1,0,0,0,0,0,0,0,0,0,0,0,0,0,0,331.37,424.95,2,0,0.08,0.08,432,14.29,0.08,0.06,34.38,FLYING,CF1-J,0:/Integrated Flight Computer/aircraft/cf1_j_cfg.ks (inferred preloaded)
34.84,TAKEOFF,TO_CLIMB,105.47,80,-25.47,43.85,41.62,11.17,7.65,1.83,90.39,-0.005,0.78,0,0,0,0,0,0,0,0,0,0,0,0,0,0,90.4,8,0,1,6.05,0,0,8,90.4,-0.9922,-0.007,0.1246,8,90.4,0,0,0,0,0,0,3,0,0,0,69,0,0,0,0,0,0,,0,NONE,0,0,0,0,0,0,0,0,0,0,0,41.62,0,0,0,0,0,0,0,0,0,90.4,1,0,-0.011,0,0,3,0,0,0,10,2.729,0,0,1,1,0,0,VALID,0,0,0,0,0,1,0,0,0,0,0,0,0,0,0,0,0,0,0,0,330.71,424.1,2,0,0.08,0.08,436,14.29,0.08,0.06,34.66,FLYING,CF1-J,0:/Integrated Flight Computer/aircraft/cf1_j_cfg.ks (inferred preloaded)
35.12,TAKEOFF,TO_CLIMB,106.47,80,-26.47,47.02,44.8,11.51,7.65,1.7,90.39,-0.002,0.78,0,0,0,0,0,0,0,0,0,0,0,0,0,0,90.4,8,0,1,6.17,0,0,8,90.4,-0.9922,-0.007,0.1246,8,90.4,0,0,0,0,0,0,3,0,0,0,69,0,0,0,0,0,0,,0,NONE,0,0,0,0,0,0,0,0,0,0,0,44.8,0,0,0,0,0,0,0,0,0,90.4,1,0,-0.011,0,0,3,0,0,0,10,2.729,0,0,1,1,0,0,VALID,0,0,0,0,0,1,0,0,0,0,0,0,0,0,0,0,0,0,0,0,330.05,423.25,2,0,0.08,0.08,440,14.29,0.08,0.06,34.94,FLYING,CF1-J,0:/Integrated Flight Computer/aircraft/cf1_j_cfg.ks (inferred preloaded)
35.4,TAKEOFF,TO_CLIMB,107.47,80,-27.47,50.29,48.08,11.85,7.65,1.58,90.39,0.001,0.78,0,0,0,0,0,0,0,0,0,0,0,0,0,0,90.4,8,0,1,6.29,0,0,8,90.4,-0.9922,-0.007,0.1245,8,90.4,0,0,0,0,0,0,3,0,0,0,69,0,0,0,0,0,0,,0,NONE,0,0,0,0,0,0,0,0,0,0,0,48.08,0,0,0,0,0,0,0,0,0,90.4,1,0,-0.011,0,0,3,0,0,0,10,2.729,0,0,1,1,0,0,VALID,0,0,0,0,0,1,0,0,0,0,0,0,0,0,0,0,0,0,0,0,329.39,422.4,2,0,0.08,0.08,444,14.29,0.08,0.06,35.22,FLYING,CF1-J,0:/Integrated Flight Computer/aircraft/cf1_j_cfg.ks (inferred preloaded)
35.68,TAKEOFF,TO_CLIMB,108.46,80,-28.46,53.65,51.44,12.18,7.64,1.46,90.39,0.004,0.78,0,0,0,0,0,0,0,0,0,0,0,0,0,0,90.4,8,0,1,6.41,0,0,8,90.4,-0.9922,-0.007,0.1244,8,90.4,0,0,0,0,0,0,3,0,0,0,69,0,0,0,0,0,0,,0,NONE,0,0,0,0,0,0,0,0,0,0,0,51.44,0,0,0,0,0,0,0,0,0,90.4,1,0,-0.012,0,0,3,0,0,0,10,2.729,0,0,1,1,0,0,VALID,0,0,0,0,0,1,0,0,0,0,0,0,0,0,0,0,0,0,0,0,328.73,421.55,2,0,0.08,0.08,448,14.29,0.08,0.06,35.5,FLYING,CF1-J,0:/Integrated Flight Computer/aircraft/cf1_j_cfg.ks (inferred preloaded)
35.96,TAKEOFF,TO_CLIMB,109.43,80,-29.43,57.1,54.9,12.5,7.63,1.35,90.39,0.005,0.78,0,0,0,0,0,0,0,0,0,0,0,0,0,0,90.4,8,0,1,6.52,0,0,8,90.4,-0.9922,-0.007,0.1244,8,90.4,0,0,0,0,0,0,3,0,0,0,69,0,0,0,0,0,0,,0,NONE,0,0,0,0,0,0,0,0,0,0,0,54.9,0,0,0,0,0,0,0,0,0,90.4,1,0,-0.012,0,0,3,0,0,0,10,2.729,0,0,1,1,0,0,VALID,0,0,0,0,0,1,0,0,0,0,0,0,0,0,0,0,0,0,0,0,328.08,420.71,2,0,0.08,0.08,452,14.29,0.08,0.06,35.78,FLYING,CF1-J,0:/Integrated Flight Computer/aircraft/cf1_j_cfg.ks (inferred preloaded)
36.24,TAKEOFF,TO_CLIMB,110.4,80,-30.4,60.63,58.45,12.82,7.62,1.23,90.39,0.005,0.78,0,0,0,0,0,0,0,0,0,0,0,0,0,0,90.4,8,0,1,6.62,0,0,8,90.4,-0.9922,-0.007,0.1243,8,90.4,0,0,0,0,0,0,3,0,0,0,69,0,0,0,0,0,0,,0,NONE,0,0,0,0,0,0,0,0,0,0,0,58.45,0,0,0,0,0,0,0,0,0,90.4,1,0,-0.012,0,0,3,0,0,0,10,2.729,0,0,1,1,0,0,VALID,0,0,0,0,0,1,0,0,0,0,0,0,0,0,0,0,0,0,0,0,327.42,419.87,2,0,0.08,0.08,456,14.29,0.08,0.06,36.06,FLYING,CF1-J,0:/Integrated Flight Computer/aircraft/cf1_j_cfg.ks (inferred preloaded)
36.52,TAKEOFF,TO_CLIMB,111.37,80,-31.37,64.25,62.08,13.13,7.61,1.13,90.39,0.006,0.78,0,0,0,0,0,0,0,0,0,0,0,0,0,0,90.4,8,0,1,6.72,0,0,8,90.4,-0.9922,-0.007,0.1243,8,90.4,0,0,0,0,0,0,3,0,0,0,69,0,0,0,0,0,0,,0,NONE,0,0,0,0,0,0,0,0,0,0,0,62.08,0,0,0,0,0,0,0,0,0,90.4,1,0,-0.013,0,0,3,0,0,0,10,2.729,0,0,1,1,0,0,VALID,0,0,0,0,0,1,0,0,0,0,0,0,0,0,0,0,0,0,0,0,326.77,419.03,2,0,0.08,0.08,460,14.29,0.08,0.06,36.34,FLYING,CF1-J,0:/Integrated Flight Computer/aircraft/cf1_j_cfg.ks (inferred preloaded)
36.8,TAKEOFF,TO_CLIMB,112.32,80,-32.32,67.96,65.8,13.43,7.6,1.02,90.39,0.009,0.78,0,0,0,0,0,0,0,0,0,0,0,0,0,0,90.4,8,0,1,6.82,0,0,8,90.4,-0.9922,-0.007,0.1242,8,90.4,0,0,0,0,0,0,3,0,0,0,69,0,0,0,0,0,0,,0,NONE,0,0,0,0,0,0,0,0,0,0,0,65.8,0,0,0,0,0,0,0,0,0,90.4,1,0,-0.013,0,0,3,0,0,0,10,2.729,0,0,1,1,0,0,VALID,0,0,0,0,0,1,0,0,0,0,0,0,0,0,0,0,0,0,0,0,326.12,418.19,2,0,0.08,0.08,464,14.29,0.08,0.06,36.62,FLYING,CF1-J,0:/Integrated Flight Computer/aircraft/cf1_j_cfg.ks (inferred preloaded)
37.08,TAKEOFF,TO_CLIMB,113.27,80,-33.27,71.74,69.61,13.73,7.59,0.92,90.39,0.01,0.78,0,0,0,0,0,0,0,0,0,0,0,0,0,0,90.4,8,0,1,6.91,0,0,8,90.4,-0.9922,-0.007,0.1242,8,90.4,0,0,0,0,0,0,3,0,0,0,69,0,0,0,0,0,0,,0,NONE,0,0,0,0,0,0,0,0,0,0,0,69.61,0,0,0,0,0,0,0,0,0,90.4,1,0,-0.013,0,0,3,0,0,0,10,2.729,0,0,1,1,0,0,VALID,0,0,0,0,0,1,0,0,0,0,0,0,0,0,0,0,0,0,0,0,325.47,417.36,2,0,0.08,0.08,468,14.29,0.08,0.06,36.9,FLYING,CF1-J,0:/Integrated Flight Computer/aircraft/cf1_j_cfg.ks (inferred preloaded)
37.36,TAKEOFF,TO_CLIMB,114.21,80,-34.21,75.61,73.49,14.02,7.58,0.83,90.39,0.012,0.78,0,0,0,0,0,0,0,0,0,0,0,0,0,0,90.4,8,0,1,7,0,0,8,90.4,-0.9922,-0.007,0.1241,8,90.4,0,0,0,0,0,0,3,0,0,0,69,0,0,0,0,0,0,,0,NONE,0,0,0,0,0,0,0,0,0,0,0,73.49,0,0,0,0,0,0,0,0,0,90.4,1,0,-0.013,0,0,3,0,0,0,10,2.729,0,0,1,1,0,0,VALID,0,0,0,0,0,1,0,0,0,0,0,0,0,0,0,0,0,0,0,0,324.82,416.53,2,0,0.08,0.08,472,14.29,0.08,0.06,37.18,FLYING,CF1-J,0:/Integrated Flight Computer/aircraft/cf1_j_cfg.ks (inferred preloaded)
37.64,TAKEOFF,TO_CLIMB,115.14,80,-35.14,79.55,77.46,14.3,7.57,0.73,90.39,0.015,0.78,0,0,0,0,0,0,0,0,0,0,0,0,0,0,90.4,8,0,1,7.08,0,0,8,90.4,-0.9922,-0.007,0.1241,8,90.4,0,0,0,0,0,0,3,0,0,0,69,0,0,0,0,0,0,,0,NONE,0,0,0,0,0,0,0,0,0,0,0,77.46,0,0,0,0,0,0,0,0,0,90.4,1,0,-0.013,0,0,3,0,0,0,10,2.729,0,0,1,1,0,0,VALID,0,0,0,0,0,1,0,0,0,0,0,0,0,0,0,0,0,0,0,0,324.18,415.7,2,0,0.08,0.08,476,14.29,0.08,0.06,37.46,FLYING,CF1-J,0:/Integrated Flight Computer/aircraft/cf1_j_cfg.ks (inferred preloaded)
