t_s,phase,subphase,ias_ms,vapp_ms,spd_err_ms,agl_m,vs_ms,pitch_deg,aoa_deg,hdg_deg,bank_deg,thr_cmd,thr_cur,thr_intg,at_gain,at_tau_s,at_a_up,at_a_dn,at_kp_thr,at_ki_spd,at_thr_slew,as_cmd_deg,as_cap_deg,as_raw_deg,as_spd_err_ms,as_active,aa_hdg_cmd_deg,aa_fpa_cmd_deg,aa_fbw,aa_dir,actual_fpa_deg,ftf_hdg_err_deg,ftf_fix_idx,kos_steer_pit_deg,kos_steer_hdg_deg,aa_dir_vx,aa_dir_vy,aa_dir_vz,aa_dir_pitch_deg,aa_dir_hdg_deg,ils_loc_m,ils_gs_m,ils_dist_km,loc_corr_deg,gs_corr_deg,gs_latched,active_gs_ang_deg,ils_intercept_alt_m,d_gs_ms,fpa_preclamped_deg,gs_nom_alt_m,flare_fpa_cmd,flare_tgt_vs,flare_frac,steer_hdg_deg,steer_blend,ro_loc_corr_deg,ro_hdg_err_deg,ro_yaw_tgt,ro_yaw_scale,ro_yaw_gate,yaw_cmd,roll_cmd,pitch_cmd,ro_pitch_tgt_deg,ro_pitch_err_deg,ro_pitch_ff,ro_roll_assist,flaps_cur,flaps_tgt,asc_j_ab,asc_j_rk,asc_validity,asc_q_pa,asc_q_raw_pa,asc_mach,asc_apo_m,asc_drag_n,asc_w_prop,asc_edot_aero,asc_edot_orb,asc_pitch_bias,asc_blend,asc_spooling,asc_ab_thr_ratio,asc_ab_t_now,asc_ab_t_avail,asc_ab_ign_on,asc_ab_flameouts,asc_rk_t_now,asc_rk_t_avail,asc_rk_ign_on,asc_rk_flameouts,ship_thrust,ship_avail_thrust,ship_ign_on,ship_flameouts,ifc_raw_dt_s,ifc_dt_s,ifc_loop_n,ifc_hz_est,ifc_raw_dt_max_s,ifc_raw_dt_min_s,phase_el_s,status,craft_name,cfg_file
0.24,APPROACH,FLY_TO_FIX,140.18,70.14,-70.04,1476.24,-15.66,-8,-2.27,269.02,3.116,0,0,0,1,0.6,0.9,0.75,0.35,0.0168,0.4,4.5,33.953,33.953,70.012,1,280.62,3.941,1,0,-6.16,11.6,0,0,90,0,0,0,0,0,0,0,50.493,0,0,0,3,0,0,0,2720.52,0,0,0,268.9,0,0,0,0,0,0,0,0,0,0,0,0,0,0,0,0,0,VALID,0,0,0,0,0,1,0,0,0,0,0,0,0,0,0,0,0,0,0,0,35.98,337.74,2,0,0.18,0.18,1,3.23,0.18,0.02,0.24,FLYING,CF1-J,0:/Integrated Flight Computer/aircraft/cf1_j_cfg.ks (inferred preloaded)
0.52,APPROACH,FLY_TO_FIX,140.53,70.38,-70.15,1471.72,-17.4,-7.12,-0.64,269.15,3.723,0,0,0,1,0.6,1.546,0.75,0.35,0.0168,0.4,12,33.847,33.847,70.125,1,280.64,4.539,0,0,-6.99,11.5,0,4.39,280.64,0,0,0,0,0,0,0,50.45,0,0,0,3,0,0,0,2718.27,0,0,0,268.9,0,0,0,0,0,0,0,0,0,0,0,0,0,0,0,0,0,VALID,0,0,0,0,0,1,0,0,0,0,0,0,0,0,0,0,0,0,0,0,33.55,337.79,2,0,0.1,0.1,4,10.71,0.18,0.08,0.52,FLYING,CF1-J,0:/Integrated Flight Computer/aircraft/cf1_j_cfg.ks (inferred preloaded)
0.78,APPROACH,FLY_TO_FIX,140.79,70.59,-70.2,1467.45,-17.34,-5.3,1.25,269.46,6.057,0,0,0,1,0.6,2.411,0.75,0.35,0.0168,0.4,18.5,33.768,33.768,70.181,1,280.67,4.632,0,0,-7.07,11.2,0,4.68,280.66,0,0,0,0,0,0,0,50.41,0,0,0,3,0,0,0,2716.17,0,0,0,268.9,0,0,0,0,0,0,0,0,0,0,0,0,0,0,0,0,0,VALID,0,0,0,0,0,1,0,0,0,0,0,0,0,0,0,0,0,0,0,0,31.44,337.88,2,0,0.08,0.08,7,11.54,0.1,0.08,0.78,FLYING,CF1-J,0:/Integrated Flight Computer/aircraft/cf1_j_cfg.ks (inferred preloaded)
1.06,APPROACH,FLY_TO_FIX,140.92,70.82,-70.1,1462.93,-16.07,-4.24,1.82,269.96,10.141,0,0,0,1,0.6,3.085,0.75,0.35,0.0168,0.4,25.5,33.726,33.726,70.097,1,280.69,4.29,0,0,-6.58,10.74,0,4.43,280.68,0,0,0,0,0,0,0,50.367,0,0,0,3,0,0,0,2713.9,0,0,0,268.9,0,0,0,0,0,0,0,0,0,0,0,0,0,0,0,0,0,VALID,0,0,0,0,0,1,0,0,0,0,0,0,0,0,0,0,0,0,0,0,29.32,338.03,2,0,0.1,0.1,10,10.71,0.1,0.08,1.06,FLYING,CF1-J,0:/Integrated Flight Computer/aircraft/cf1_j_cfg.ks (inferred preloaded)
1.32,APPROACH,FLY_TO_FIX,141,71.02,-69.98,1458.99,-14.89,-3.79,1.89,270.45,14.058,0,0,0,1,0.6,3.61,0.75,0.35,0.0168,0.4,32,33.702,33.702,69.968,1,280.71,3.955,0,0,-6.1,10.26,0,4.06,280.71,0,0,0,0,0,0,0,50.327,0,0,0,3,0,0,0,2711.8,0,0,0,268.9,0,0,0,0,0,0,0,0,0,0,0,0,0,0,0,0,0,VALID,0,0,0,0,0,1,0,0,0,0,0,0,0,0,0,0,0,0,0,0,27.48,338.17,2,0,0.08,0.08,13,11.54,0.1,0.08,1.32,FLYING,CF1-J,0:/Integrated Flight Computer/aircraft/cf1_j_cfg.ks (inferred preloaded)
1.6,APPROACH,FLY_TO_FIX,141.05,71.25,-69.81,1455.05,-13.72,-3.48,1.79,270.9,16.804,0,0,0,1,0.6,4.019,0.75,0.35,0.0168,0.4,33.684,33.684,33.684,69.806,1,280.73,3.616,0,0,-5.62,9.83,0,3.73,280.73,0,0,0,0,0,0,0,50.283,0,0,0,3,0,0,0,2709.53,0,0,0,268.9,0,0,0,0,0,0,0,0,0,0,0,0,0,0,0,0,0,VALID,0,0,0,0,0,1,0,0,0,0,0,0,0,0,0,0,0,0,0,0,25.63,338.33,2,0,0.1,0.1,16,10.71,0.1,0.08,1.6,FLYING,CF1-J,0:/Integrated Flight Computer/aircraft/cf1_j_cfg.ks (inferred preloaded)
1.86,APPROACH,FLY_TO_FIX,140.95,71.46,-69.49,1451.68,-12.69,-3.19,1.67,271.22,17.531,0,0,0,1,0.6,4.339,0.75,0.35,0.0168,0.4,33.71,33.71,33.71,69.511,1,280.75,3.321,0,0,-5.2,9.54,0,3.41,280.75,0,0,0,0,0,0,0,50.243,0,0,0,3,0,0,0,2707.43,0,0,0,268.9,0,0,0,0,0,0,0,0,0,0,0,0,0,0,0,0,0,VALID,0,0,0,0,0,1,0,0,0,0,0,0,0,0,0,0,0,0,0,0,24.03,338.52,2,0,0.08,0.08,19,11.54,0.1,0.08,1.86,FLYING,CF1-J,0:/Integrated Flight Computer/aircraft/cf1_j_cfg.ks (inferred preloaded)
2.14,APPROACH,FLY_TO_FIX,140.52,71.68,-68.84,1448.33,-11.68,-2.88,1.59,271.54,17.748,0,0,-6.887,1,0.6,4.5,0.75,0.35,0.0168,0.4,33.834,33.834,33.834,68.873,1,280.78,3.033,0,0,-4.81,9.23,0,3.14,280.77,0,0,0,0,0,0,0,50.2,0,0,0,3,0,0,0,2705.16,0,0,0,268.9,0,0,0,0,0,0,0,0,0,0,0,0,0,0,0,0,0,VALID,0,0,0,0,0,1,0,0,0,0,0,0,0,0,0,0,0,0,0,0,22.42,338.87,2,0,0.1,0.1,22,10.71,0.1,0.08,2.14,FLYING,CF1-J,0:/Integrated Flight Computer/aircraft/cf1_j_cfg.ks (inferred preloaded)
2.4,APPROACH,FLY_TO_FIX,140.03,71.89,-68.14,1445.45,-10.83,-2.63,1.52,271.86,17.819,0,0,-13.624,1,0.6,4.5,0.75,0.35,0.0168,0.4,33.979,33.979,33.979,68.18,1,280.79,2.793,0,0,-4.48,8.94,0,2.86,280.79,0,0,0,0,0,0,0,50.16,0,0,0,3,0,0,0,2703.07,0,0,0,268.9,0,0,0,0,0,0,0,0,0,0,0,0,0,0,0,0,0,VALID,0,0,0,0,0,1,0,0,0,0,0,0,0,0,0,0,0,0,0,0,21.03,339.21,2,0,0.08,0.08,25,11.54,0.1,0.08,2.4,FLYING,CF1-J,0:/Integrated Flight Computer/aircraft/cf1_j_cfg.ks (inferred preloaded)
2.68,APPROACH,FLY_TO_FIX,139.49,72.11,-67.38,1442.59,-9.97,-2.35,1.48,272.24,17.845,0,0,-19.8,1,0.6,4.5,0.75,0.35,0.0168,0.4,34.142,34.142,34.142,67.415,1,280.81,2.542,0,0,-4.13,8.57,0,2.64,280.81,0,0,0,0,0,0,0,50.117,0,0,0,3,0,0,0,2700.82,0,0,0,268.9,0,0,0,0,0,0,0,0,0,0,0,0,0,0,0,0,0,VALID,0,0,0,0,0,1,0,0,0,0,0,0,0,0,0,0,0,0,0,0,19.62,339.58,2,0,0.1,0.1,28,10.71,0.1,0.08,2.68,FLYING,CF1-J,0:/Integrated Flight Computer/aircraft/cf1_j_cfg.ks (inferred preloaded)
2.94,APPROACH,FLY_TO_FIX,138.96,72.32,-66.64,1440.14,-9.24,-2.11,1.46,272.6,17.814,0.0273,0,-20,1,0.6,4.5,0.767,0.35,0.0168,0.4,34.298,34.298,34.298,66.685,1,280.83,2.337,0,0,-3.85,8.23,0,2.4,280.83,0,0,0,0,0,0,0,50.078,0,0,0,3,0,0,0,2698.74,0,0,0,268.9,0,0,0,0,0,0,0,0,0,0,0,0,0,0,0,0,0,VALID,0,0,0,0,0,1,0,0,0,0,0,0,0,0,0,0,0,0,0,0,18.48,339.93,2,0,0.08,0.08,31,11.54,0.1,0.08,2.94,FLYING,CF1-J,0:/Integrated Flight Computer/aircraft/cf1_j_cfg.ks (inferred preloaded)
3.22,APPROACH,FLY_TO_FIX,138.38,72.54,-65.84,1437.69,-8.54,-1.92,1.38,272.97,17.662,0.0208,0,-20,1,0.6,4.5,0.919,0.35,0.0168,0.4,34.473,34.473,34.473,65.88,1,280.85,2.131,0,0,-3.57,7.88,0,2.2,280.84,0,0,0,0,0,0,0,50.035,0,0,0,3,0,0,0,2696.51,0,0,0,268.9,0,0,0,0,0,0,0,0,0,0,0,0,0,0,0,0,0,VALID,0,0,0,0,0,1,0,0,0,0,0,0,0,0,0,0,0,0,0,0,17.83,340.31,2,0,0.1,0.1,34,10.71,0.1,0.08,3.22,FLYING,CF1-J,0:/Integrated Flight Computer/aircraft/cf1_j_cfg.ks (inferred preloaded)
3.48,APPROACH,FLY_TO_FIX,137.83,72.75,-65.08,1435.59,-7.91,-1.73,1.33,273.31,17.421,0.0011,0,-20,1,0.6,4.5,1.067,0.35,0.0168,0.4,34.638,34.638,34.638,65.12,1,280.86,1.953,0,0,-3.32,7.55,0,2.01,280.86,0,0,0,0,0,0,0,49.996,0,0,0,3,0,0,0,2694.45,0,0,0,268.9,0,0,0,0,0,0,0,0,0,0,0,0,0,0,0,0,0,VALID,0,0,0,0,0,1,0,0,0,0,0,0,0,0,0,0,0,0,0,0,17.06,340.65,2,0,0.08,0.08,37,11.54,0.1,0.08,3.48,FLYING,CF1-J,0:/Integrated Flight Computer/aircraft/cf1_j_cfg.ks (inferred preloaded)
3.76,APPROACH,FLY_TO_FIX,137.22,72.98,-64.24,1433.49,-7.33,-1.54,1.31,273.67,17.078,0,0,-19.701,1,0.6,4.5,1.207,0.35,0.0168,0.4,34.821,34.821,34.821,64.288,1,280.88,1.788,0,0,-3.09,7.21,0,1.85,280.87,0,0,0,0,0,0,0,49.953,0,0,0,3,0,0,0,2692.24,0,0,0,268.9,0,0,0,0,0,0,0,0,0,0,0,0,0,0,0,0,0,VALID,0,0,0,0,0,1,0,0,0,0,0,0,0,0,0,0,0,0,0,0,15.95,341.03,2,0,0.1,0.1,40,10.71,0.1,0.08,3.76,FLYING,CF1-J,0:/Integrated Flight Computer/aircraft/cf1_j_cfg.ks (inferred preloaded)
4.02,APPROACH,FLY_TO_FIX,136.64,73.18,-63.45,1431.67,-6.84,-1.41,1.26,273.99,16.699,0,0,-19.407,1,0.6,4.5,1.34,0.35,0.0168,0.4,34.995,34.995,34.995,63.499,1,280.89,1.646,0,0,-2.9,6.91,0,1.69,280.89,0,0,0,0,0,0,0,49.914,0,0,0,3,0,0,0,2690.19,0,0,0,268.9,0,0,0,0,0,0,0,0,0,0,0,0,0,0,0,0,0,VALID,0,0,0,0,0,1,0,0,0,0,0,0,0,0,0,0,0,0,0,0,14.96,341.38,2,0,0.08,0.08,43,11.54,0.1,0.08,4.02,FLYING,CF1-J,0:/Integrated Flight Computer/aircraft/cf1_j_cfg.ks (inferred preloaded)
4.3,APPROACH,FLY_TO_FIX,136,73.41,-62.59,1429.86,-6.35,-1.26,1.22,274.32,16.241,0,0,-19.118,1,0.6,4.5,1.466,0.35,0.0168,0.4,35.187,35.187,35.187,62.635,1,280.91,1.504,0,0,-2.7,6.59,0,1.55,280.9,0,0,0,0,0,0,0,49.873,0,0,0,3,0,0,0,2688,0,0,0,268.9,0,0,0,0,0,0,0,0,0,0,0,0,0,0,0,0,0,VALID,0,0,0,0,0,1,0,0,0,0,0,0,0,0,0,0,0,0,0,0,13.96,341.77,2,0,0.1,0.1,46,10.71,0.1,0.08,4.3,FLYING,CF1-J,0:/Integrated Flight Computer/aircraft/cf1_j_cfg.ks (inferred preloaded)
4.56,APPROACH,FLY_TO_FIX,135.39,73.62,-61.77,1428.29,-5.92,-1.1,1.22,274.63,15.779,0,0,-18.832,1,0.6,4.5,1.584,0.35,0.0168,0.4,35.37,35.37,35.37,61.819,1,280.92,1.385,0,0,-2.53,6.29,0,1.42,280.92,0,0,0,0,0,0,0,49.834,0,0,0,3,0,0,0,2685.97,0,0,0,268.9,0,0,0,0,0,0,0,0,0,0,0,0,0,0,0,0,0,VALID,0,0,0,0,0,1,0,0,0,0,0,0,0,0,0,0,0,0,0,0,13.09,342.13,2,0,0.08,0.08,49,11.54,0.1,0.08,4.56,FLYING,CF1-J,0:/Integrated Flight Computer/aircraft/cf1_j_cfg.ks (inferred preloaded)
4.84,APPROACH,FLY_TO_FIX,134.72,73.84,-60.88,1426.71,-5.53,-0.98,1.21,274.94,15.253,0,0,-18.551,1,0.6,4.5,1.696,0.35,0.0168,0.4,35.571,35.571,35.571,60.924,1,280.94,1.273,0,0,-2.37,6,0,1.31,280.93,0,0,0,0,0,0,0,49.792,0,0,0,3,0,0,0,2683.8,0,0,0,268.9,0,0,0,0,0,0,0,0,0,0,0,0,0,0,0,0,0,VALID,0,0,0,0,0,1,0,0,0,0,0,0,0,0,0,0,0,0,0,0,12.22,342.52,2,0,0.1,0.1,52,10.71,0.1,0.08,4.84,FLYING,CF1-J,0:/Integrated Flight Computer/aircraft/cf1_j_cfg.ks (inferred preloaded)
5.1,APPROACH,FLY_TO_FIX,134.08,74.05,-60.03,1425.34,-5.17,-0.87,1.17,275.22,14.744,0,0,-18.274,1,0.6,4.5,1.802,0.35,0.0168,0.4,35.762,35.762,35.762,60.078,1,280.95,1.169,0,0,-2.23,5.73,0,1.2,280.94,0,0,0,0,0,0,0,49.754,0,0,0,3,0,0,0,2681.8,0,0,0,268.9,0,0,0,0,0,0,0,0,0,0,0,0,0,0,0,0,0,VALID,0,0,0,0,0,1,0,0,0,0,0,0,0,0,0,0,0,0,0,0,11.46,342.89,2,0,0.08,0.08,55,11.54,0.1,0.08,5.1,FLYING,CF1-J,0:/Integrated Flight Computer/aircraft/cf1_j_cfg.ks (inferred preloaded)
5.38,APPROACH,FLY_TO_FIX,133.38,74.27,-59.1,1423.96,-4.83,-0.74,1.18,275.51,14.179,0,0,-18.002,1,0.6,4.5,1.902,0.35,0.0168,0.4,35.972,35.972,35.972,59.154,1,280.96,1.074,0,0,-2.09,5.45,0,1.11,280.95,0,0,0,0,0,0,0,49.713,0,0,0,3,0,0,0,2679.65,0,0,0,268.9,0,0,0,0,0,0,0,0,0,0,0,0,0,0,0,0,0,VALID,0,0,0,0,0,1,0,0,0,0,0,0,0,0,0,0,0,0,0,0,10.7,343.29,2,0,0.1,0.1,58,10.71,0.1,0.08,5.38,FLYING,CF1-J,0:/Integrated Flight Computer/aircraft/cf1_j_cfg.ks (inferred preloaded)
5.64,APPROACH,FLY_TO_FIX,132.71,74.48,-58.23,1422.77,-4.54,-0.63,1.18,275.77,13.647,0,0,-17.733,1,0.6,4.5,1.998,0.35,0.0168,0.4,36.172,36.172,36.172,58.282,1,280.97,0.991,0,0,-1.98,5.2,0,1.02,280.97,0,0,0,0,0,0,0,49.675,0,0,0,3,0,0,0,2677.67,0,0,0,268.9,0,0,0,0,0,0,0,0,0,0,0,0,0,0,0,0,0,VALID,0,0,0,0,0,1,0,0,0,0,0,0,0,0,0,0,0,0,0,0,10.03,343.67,2,0,0.08,0.08,61,11.54,0.1,0.08,5.64,FLYING,CF1-J,0:/Integrated Flight Computer/aircraft/cf1_j_cfg.ks (inferred preloaded)
5.92,APPROACH,FLY_TO_FIX,131.98,74.7,-57.28,1421.56,-4.25,-0.52,1.18,276.04,13.072,0,0,-17.468,1,0.6,4.5,2.089,0.35,0.0168,0.4,36.39,36.39,36.39,57.329,1,280.98,0.909,0,0,-1.86,4.94,0,0.94,280.98,0,0,0,0,0,0,0,49.635,0,0,0,3,0,0,0,2675.54,0,0,0,268.9,0,0,0,0,0,0,0,0,0,0,0,0,0,0,0,0,0,VALID,0,0,0,0,0,1,0,0,0,0,0,0,0,0,0,0,0,0,0,0,9.36,344.08,2,0,0.1,0.1,64,10.71,0.1,0.08,5.92,FLYING,CF1-J,0:/Integrated Flight Computer/aircraft/cf1_j_cfg.ks (inferred preloaded)
6.18,APPROACH,FLY_TO_FIX,131.29,74.91,-56.38,1420.5,-4,-0.42,1.19,276.28,12.54,0,0,-17.208,1,0.6,4.5,2.176,0.35,0.0168,0.4,36.597,36.597,36.597,56.431,1,280.99,0.839,0,0,-1.76,4.71,0,0.86,280.99,0,0,0,0,0,0,0,49.597,0,0,0,3,0,0,0,2673.58,0,0,0,268.9,0,0,0,0,0,0,0,0,0,0,0,0,0,0,0,0,0,VALID,0,0,0,0,0,1,0,0,0,0,0,0,0,0,0,0,0,0,0,0,8.78,344.47,2,0,0.08,0.08,67,11.54,0.1,0.08,6.18,FLYING,CF1-J,0:/Integrated Flight Computer/aircraft/cf1_j_cfg.ks (inferred preloaded)
6.46,APPROACH,FLY_TO_FIX,130.53,75.14,-55.4,1419.44,-3.75,-0.31,1.2,276.52,11.975,0,0,-16.951,1,0.6,4.5,2.26,0.35,0.0168,0.4,36.824,36.824,36.824,55.451,1,281,0.769,0,0,-1.66,4.48,0,0.79,281,0,0,0,0,0,0,0,49.557,0,0,0,3,0,0,0,2671.48,0,0,0,268.9,0,0,0,0,0,0,0,0,0,0,0,0,0,0,0,0,0,VALID,0,0,0,0,0,1,0,0,0,0,0,0,0,0,0,0,0,0,0,0,8.2,344.9,2,0,0.1,0.1,70,10.71,0.1,0.08,6.46,FLYING,CF1-J,0:/Integrated Flight Computer/aircraft/cf1_j_cfg.ks (inferred preloaded)
6.72,APPROACH,FLY_TO_FIX,129.82,75.34,-54.47,1418.51,-3.54,-0.22,1.22,276.74,11.46,0,0,-16.698,1,0.6,4.5,2.339,0.35,0.0168,0.4,37.038,37.038,37.038,54.53,1,281.01,0.709,0,0,-1.57,4.27,0,0.73,281.01,0,0,0,0,0,0,0,49.52,0,0,0,3,0,0,0,2669.54,0,0,0,268.9,0,0,0,0,0,0,0,0,0,0,0,0,0,0,0,0,0,VALID,0,0,0,0,0,1,0,0,0,0,0,0,0,0,0,0,0,0,0,0,7.69,345.3,2,0,0.08,0.08,73,11.54,0.1,0.08,6.72,FLYING,CF1-J,0:/Integrated Flight Computer/aircraft/cf1_j_cfg.ks (inferred preloaded)
7,APPROACH,FLY_TO_FIX,129.04,75.57,-53.47,1417.56,-3.33,-0.12,1.24,276.97,10.915,0,0,-16.449,1,0.6,4.5,2.416,0.35,0.0168,0.4,37.272,37.272,37.272,53.525,1,281.02,0.65,0,0,-1.49,4.05,0,0.67,281.01,0,0,0,0,0,0,0,49.481,0,0,0,3,0,0,0,2667.47,0,0,0,268.9,0,0,0,0,0,0,0,0,0,0,0,0,0,0,0,0,0,VALID,0,0,0,0,0,1,0,0,0,0,0,0,0,0,0,0,0,0,0,0,7.18,345.74,2,0,0.1,0.1,76,10.71,0.1,0.08,7,FLYING,CF1-J,0:/Integrated Flight Computer/aircraft/cf1_j_cfg.ks (inferred preloaded)
7.26,APPROACH,FLY_TO_FIX,128.3,75.78,-52.52,1416.74,-3.14,-0.03,1.26,277.17,10.42,0,0,-16.203,1,0.6,4.5,2.489,0.35,0.0168,0.4,37.493,37.493,37.493,52.58,1,281.02,0.599,0,0,-1.42,3.86,0,0.62,281.02,0,0,0,0,0,0,0,49.444,0,0,0,3,0,0,0,2665.55,0,0,0,268.9,0,0,0,0,0,0,0,0,0,0,0,0,0,0,0,0,0,VALID,0,0,0,0,0,1,0,0,0,0,0,0,0,0,0,0,0,0,0,0,6.73,346.16,2,0,0.08,0.08,79,11.54,0.1,0.08,7.26,FLYING,CF1-J,0:/Integrated Flight Computer/aircraft/cf1_j_cfg.ks (inferred preloaded)
7.54,APPROACH,FLY_TO_FIX,127.49,76,-51.49,1415.9,-2.96,0.06,1.29,277.37,9.902,0,0,-15.961,1,0.6,4.5,2.559,0.35,0.0168,0.4,37.734,37.734,37.734,51.552,1,281.03,0.548,0,0,-1.34,3.66,0,0.57,281.03,0,0,0,0,0,0,0,49.405,0,0,0,3,0,0,0,2663.5,0,0,0,268.9,0,0,0,0,0,0,0,0,0,0,0,0,0,0,0,0,0,VALID,0,0,0,0,0,1,0,0,0,0,0,0,0,0,0,0,0,0,0,0,6.28,346.61,2,0,0.1,0.1,82,10.71,0.1,0.08,7.54,FLYING,CF1-J,0:/Integrated Flight Computer/aircraft/cf1_j_cfg.ks (inferred preloaded)
7.8,APPROACH,FLY_TO_FIX,126.74,76.21,-50.53,1415.16,-2.81,0.15,1.32,277.55,9.436,0,0,-15.723,1,0.6,4.5,2.626,0.35,0.0168,0.4,37.961,37.961,37.961,50.588,1,281.04,0.504,0,0,-1.28,3.48,0,0.52,281.04,0,0,0,0,0,0,0,49.369,0,0,0,3,0,0,0,2661.61,0,0,0,268.9,0,0,0,0,0,0,0,0,0,0,0,0,0,0,0,0,0,VALID,0,0,0,0,0,1,0,0,0,0,0,0,0,0,0,0,0,0,0,0,5.9,347.04,2,0,0.08,0.08,85,11.54,0.1,0.08,7.8,FLYING,CF1-J,0:/Integrated Flight Computer/aircraft/cf1_j_cfg.ks (inferred preloaded)
8.08,APPROACH,FLY_TO_FIX,125.91,76.43,-49.48,1414.42,-2.65,0.24,1.35,277.74,8.951,0,0,-15.488,1,0.6,4.5,2.691,0.35,0.0168,0.4,38.209,38.209,38.209,49.539,1,281.05,0.461,0,0,-1.22,3.3,0,0.48,281.04,0,0,0,0,0,0,0,49.33,0,0,0,3,0,0,0,2659.59,0,0,0,268.9,0,0,0,0,0,0,0,0,0,0,0,0,0,0,0,0,0,VALID,0,0,0,0,0,1,0,0,0,0,0,0,0,0,0,0,0,0,0,0,5.5,347.5,2,0,0.1,0.1,88,10.71,0.1,0.08,8.08,FLYING,CF1-J,0:/Integrated Flight Computer/aircraft/cf1_j_cfg.ks (inferred preloaded)
8.34,APPROACH,FLY_TO_FIX,125.14,76.64,-48.5,1413.76,-2.52,0.32,1.38,277.91,8.516,0,0,-15.257,1,0.6,4.5,2.752,0.35,0.0168,0.4,38.441,38.441,38.441,48.556,1,281.05,0.423,0,0,-1.16,3.15,0,0.44,281.05,0,0,0,0,0,0,0,49.295,0,0,0,3,0,0,0,2657.72,0,0,0,268.9,0,0,0,0,0,0,0,0,0,0,0,0,0,0,0,0,0,VALID,0,0,0,0,0,1,0,0,0,0,0,0,0,0,0,0,0,0,0,0,5.16,347.94,2,0,0.08,0.08,91,11.54,0.1,0.08,8.34,FLYING,CF1-J,0:/Integrated Flight Computer/aircraft/cf1_j_cfg.ks (inferred preloaded)
8.62,APPROACH,FLY_TO_FIX,124.29,76.86,-47.43,1413.09,-2.38,0.41,1.42,278.08,8.067,0,0,-15.03,1,0.6,4.5,2.811,0.35,0.0168,0.4,38.694,38.694,38.694,47.489,1,281.06,0.386,0,0,-1.11,2.98,0,0.4,281.06,0,0,0,0,0,0,0,49.257,0,0,0,3,0,0,0,2655.72,0,0,0,268.9,0,0,0,0,0,0,0,0,0,0,0,0,0,0,0,0,0,VALID,0,0,0,0,0,1,0,0,0,0,0,0,0,0,0,0,0,0,0,0,4.82,348.42,2,0,0.1,0.1,94,10.71,0.1,0.08,8.62,FLYING,CF1-J,0:/Integrated Flight Computer/aircraft/cf1_j_cfg.ks (inferred preloaded)
8.88,APPROACH,FLY_TO_FIX,123.5,77.07,-46.43,1412.5,-2.27,0.5,1.46,278.23,7.664,0,0,-14.805,1,0.6,4.5,2.868,0.35,0.0168,0.4,38.932,38.932,38.932,46.489,1,281.06,0.354,0,0,-1.06,2.84,0,0.36,281.06,0,0,0,0,0,0,0,49.222,0,0,0,3,0,0,0,2653.88,0,0,0,268.9,0,0,0,0,0,0,0,0,0,0,0,0,0,0,0,0,0,VALID,0,0,0,0,0,1,0,0,0,0,0,0,0,0,0,0,0,0,0,0,4.52,348.87,2,0,0.08,0.08,97,11.54,0.1,0.08,8.88,FLYING,CF1-J,0:/Integrated Flight Computer/aircraft/cf1_j_cfg.ks (inferred preloaded)
9.16,APPROACH,FLY_TO_FIX,122.64,77.3,-45.34,1411.9,-2.15,0.58,1.51,278.38,7.249,0,0,-14.584,1,0.6,4.5,2.921,0.35,0.0168,0.4,39.189,39.189,39.189,45.406,1,281.07,0.321,0,0,-1.01,2.69,0,0.33,281.07,0,0,0,0,0,0,0,49.184,0,0,0,3,0,0,0,2651.91,0,0,0,268.9,0,0,0,0,0,0,0,0,0,0,0,0,0,0,0,0,0,VALID,0,0,0,0,0,1,0,0,0,0,0,0,0,0,0,0,0,0,0,0,4.22,349.36,2,0,0.1,0.1,100,10.71,0.1,0.08,9.16,FLYING,CF1-J,0:/Integrated Flight Computer/aircraft/cf1_j_cfg.ks (inferred preloaded)
9.42,APPROACH,FLY_TO_FIX,121.84,77.5,-44.33,1411.36,-2.05,0.67,1.55,278.51,6.879,0,0,-14.367,1,0.6,4.5,2.972,0.35,0.0168,0.4,39.431,39.431,39.431,44.393,1,281.07,0.294,0,0,-0.97,2.56,0,0.3,281.07,0,0,0,0,0,0,0,49.149,0,0,0,3,0,0,0,2650.09,0,0,0,268.9,0,0,0,0,0,0,0,0,0,0,0,0,0,0,0,0,0,VALID,0,0,0,0,0,1,0,0,0,0,0,0,0,0,0,0,0,0,0,0,3.96,349.82,2,0,0.08,0.08,103,11.54,0.1,0.08,9.42,FLYING,CF1-J,0:/Integrated Flight Computer/aircraft/cf1_j_cfg.ks (inferred preloaded)
9.7,APPROACH,FLY_TO_FIX,120.96,77.73,-43.24,1410.82,-1.95,0.75,1.6,278.65,6.498,0,0,-14.152,1,0.6,4.5,3.021,0.35,0.0168,0.4,39.692,39.692,39.692,43.298,1,281.08,0.266,0,0,-0.93,2.43,0,0.28,281.08,0,0,0,0,0,0,0,49.112,0,0,0,3,0,0,0,2648.15,0,0,0,268.9,0,0,0,0,0,0,0,0,0,0,0,0,0,0,0,0,0,VALID,0,0,0,0,0,1,0,0,0,0,0,0,0,0,0,0,0,0,0,0,3.7,350.33,2,0,0.1,0.1,106,10.71,0.1,0.08,9.7,FLYING,CF1-J,0:/Integrated Flight Computer/aircraft/cf1_j_cfg.ks (inferred preloaded)
9.96,APPROACH,FLY_TO_FIX,120.15,77.94,-42.21,1410.34,-1.86,0.84,1.65,278.78,6.161,0,0,-13.941,1,0.6,4.5,3.066,0.35,0.0168,0.4,39.937,39.937,39.937,42.275,1,281.08,0.242,0,0,-0.89,2.31,0,0.25,281.08,0,0,0,0,0,0,0,49.078,0,0,0,3,0,0,0,2646.36,0,0,0,268.9,0,0,0,0,0,0,0,0,0,0,0,0,0,0,0,0,0,VALID,0,0,0,0,0,1,0,0,0,0,0,0,0,0,0,0,0,0,0,0,3.47,350.8,2,0,0.08,0.08,109,11.54,0.1,0.08,9.96,FLYING,CF1-J,0:/Integrated Flight Computer/aircraft/cf1_j_cfg.ks (inferred preloaded)
10.24,APPROACH,FLY_TO_FIX,119.27,78.16,-41.11,1409.84,-1.77,0.92,1.71,278.9,5.815,0,0,-13.733,1,0.6,4.5,3.109,0.35,0.0168,0.4,40.201,40.201,40.201,41.17,1,281.09,0.218,0,0,-0.86,2.19,0,0.23,281.09,0,0,0,0,0,0,0,49.041,0,0,0,3,0,0,0,2644.45,0,0,0,268.9,0,0,0,0,0,0,0,0,0,0,0,0,0,0,0,0,0,VALID,0,0,0,0,0,1,0,0,0,0,0,0,0,0,0,0,0,0,0,0,3.24,351.31,2,0,0.1,0.1,112,10.71,0.1,0.08,10.24,FLYING,CF1-J,0:/Integrated Flight Computer/aircraft/cf1_j_cfg.ks (inferred preloaded)
10.5,APPROACH,FLY_TO_FIX,118.45,78.37,-40.08,1409.41,-1.7,1.01,1.76,279.01,5.511,0,0,-13.528,1,0.6,4.5,3.148,0.35,0.0168,0.4,40.447,40.447,40.447,40.141,1,281.09,0.197,0,0,-0.83,2.08,0,0.2,281.09,0,0,0,0,0,0,0,49.008,0,0,0,3,0,0,0,2642.68,0,0,0,268.9,0,0,0,0,0,0,0,0,0,0,0,0,0,0,0,0,0,VALID,0,0,0,0,0,1,0,0,0,0,0,0,0,0,0,0,0,0,0,0,3.04,351.78,2,0,0.08,0.08,115,11.54,0.1,0.08,10.5,FLYING,CF1-J,0:/Integrated Flight Computer/aircraft/cf1_j_cfg.ks (inferred preloaded)
10.78,APPROACH,FLY_TO_FIX,117.56,78.59,-38.97,1408.96,-1.62,1.1,1.82,279.12,5.198,0,0,-13.326,1,0.6,4.5,3.185,0.35,0.0168,0.4,40.713,40.713,40.713,39.031,1,281.1,0.177,0,0,-0.8,1.97,0,0.19,281.1,0,0,0,0,0,0,0,48.972,0,0,0,3,0,0,0,2640.79,0,0,0,268.9,0,0,0,0,0,0,0,0,0,0,0,0,0,0,0,0,0,VALID,0,0,0,0,0,1,0,0,0,0,0,0,0,0,0,0,0,0,0,0,2.84,352.3,2,0,0.1,0.1,118,10.71,0.1,0.08,10.78,FLYING,CF1-J,0:/Integrated Flight Computer/aircraft/cf1_j_cfg.ks (inferred preloaded)
11.04,APPROACH,FLY_TO_FIX,116.73,78.8,-37.93,1408.56,-1.56,1.18,1.88,279.22,4.921,0,0,-13.127,1,0.6,4.5,3.219,0.35,0.0168,0.4,40.961,40.961,40.961,37.998,1,281.1,0.159,0,0,-0.77,1.88,0,0.16,281.1,0,0,0,0,0,0,0,48.939,0,0,0,3,0,0,0,2639.05,0,0,0,268.9,0,0,0,0,0,0,0,0,0,0,0,0,0,0,0,0,0,VALID,0,0,0,0,0,1,0,0,0,0,0,0,0,0,0,0,0,0,0,0,2.66,352.79,2,0,0.08,0.08,121,11.54,0.1,0.08,11.04,FLYING,CF1-J,0:/Integrated Flight Computer/aircraft/cf1_j_cfg.ks (inferred preloaded)
11.32,APPROACH,FLY_TO_FIX,115.84,79.02,-36.82,1408.14,-1.49,1.27,1.95,279.32,4.638,0,0,-12.931,1,0.6,4.5,3.249,0.35,0.0168,0.4,41.228,41.228,41.228,36.883,1,281.1,0.141,0,0,-0.74,1.78,0,0.15,281.1,0,0,0,0,0,0,0,48.903,0,0,0,3,0,0,0,2637.19,0,0,0,268.9,0,0,0,0,0,0,0,0,0,0,0,0,0,0,0,0,0,VALID,0,0,0,0,0,1,0,0,0,0,0,0,0,0,0,0,0,0,0,0,2.48,353.31,2,0,0.1,0.1,124,10.71,0.1,0.08,11.32,FLYING,CF1-J,0:/Integrated Flight Computer/aircraft/cf1_j_cfg.ks (inferred preloaded)
11.58,APPROACH,FLY_TO_FIX,115.02,79.23,-35.79,1407.78,-1.43,1.35,2.01,279.41,4.388,0,0,-12.738,1,0.6,4.5,3.277,0.35,0.0168,0.4,41.476,41.476,41.476,35.849,1,281.11,0.125,0,0,-0.72,1.69,0,0.13,281.11,0,0,0,0,0,0,0,48.87,0,0,0,3,0,0,0,2635.48,0,0,0,268.9,0,0,0,0,0,0,0,0,0,0,0,0,0,0,0,0,0,VALID,0,0,0,0,0,1,0,0,0,0,0,0,0,0,0,0,0,0,0,0,2.33,353.8,2,0,0.08,0.08,127,11.54,0.1,0.08,11.58,FLYING,CF1-J,0:/Integrated Flight Computer/aircraft/cf1_j_cfg.ks (inferred preloaded)
11.86,APPROACH,FLY_TO_FIX,114.13,79.46,-34.67,1407.4,-1.37,1.45,2.08,279.51,4.134,0,0,-12.548,1,0.6,4.5,3.302,0.35,0.0168,0.4,41.742,41.742,41.742,34.736,1,281.11,0.11,0,0,-0.7,1.6,0,0.12,281.11,0,0,0,0,0,0,0,48.835,0,0,0,3,0,0,0,2633.65,0,0,0,268.9,0,0,0,0,0,0,0,0,0,0,0,0,0,0,0,0,0,VALID,0,0,0,0,0,1,0,0,0,0,0,0,0,0,0,0,0,0,0,0,2.18,354.33,2,0,0.1,0.1,130,10.71,0.1,0.08,11.86,FLYING,CF1-J,0:/Integrated Flight Computer/aircraft/cf1_j_cfg.ks (inferred preloaded)
12.12,APPROACH,FLY_TO_FIX,113.3,79.66,-33.64,1407.06,-1.33,1.53,2.15,279.59,3.91,0,0,-12.361,1,0.6,4.5,3.324,0.35,0.0168,0.4,41.99,41.99,41.99,33.704,1,281.11,0.096,0,0,-0.67,1.53,0,0.1,281.11,0,0,0,0,0,0,0,48.803,0,0,0,3,0,0,0,2631.96,0,0,0,268.9,0,0,0,0,0,0,0,0,0,0,0,0,0,0,0,0,0,VALID,0,0,0,0,0,1,0,0,0,0,0,0,0,0,0,0,0,0,0,0,2.04,354.82,2,0,0.08,0.08,133,11.54,0.1,0.08,12.12,FLYING,CF1-J,0:/Integrated Flight Computer/aircraft/cf1_j_cfg.ks (inferred preloaded)
12.4,APPROACH,FLY_TO_FIX,112.42,79.89,-32.53,1406.71,-1.27,1.63,2.22,279.67,3.682,0,0,-12.176,1,0.6,4.5,3.342,0.35,0.0168,0.4,42.255,42.255,42.255,32.595,1,281.12,0.083,0,0,-0.65,1.45,0,0.09,281.12,0,0,0,0,0,0,0,48.769,0,0,0,3,0,0,0,2630.15,0,0,0,268.9,0,0,0,0,0,0,0,0,0,0,0,0,0,0,0,0,0,VALID,0,0,0,0,0,1,0,0,0,0,0,0,0,0,0,0,0,0,0,0,1.91,355.35,2,0,0.1,0.1,136,10.71,0.1,0.08,12.4,FLYING,CF1-J,0:/Integrated Flight Computer/aircraft/cf1_j_cfg.ks (inferred preloaded)
12.66,APPROACH,FLY_TO_FIX,111.6,80.1,-31.5,1406.4,-1.23,1.71,2.3,279.74,3.481,0,0,-11.995,1,0.6,4.5,3.358,0.35,0.0168,0.4,42.501,42.501,42.501,31.567,1,281.12,0.071,0,0,-0.64,1.38,0,0.08,281.12,0,0,0,0,0,0,0,48.737,0,0,0,3,0,0,0,2628.49,0,0,0,268.9,0,0,0,0,0,0,0,0,0,0,0,0,0,0,0,0,0,VALID,0,0,0,0,0,1,0,0,0,0,0,0,0,0,0,0,0,0,0,0,1.79,355.84,2,0,0.08,0.08,139,11.54,0.1,0.08,12.66,FLYING,CF1-J,0:/Integrated Flight Computer/aircraft/cf1_j_cfg.ks (inferred preloaded)
12.94,APPROACH,FLY_TO_FIX,110.72,80.32,-30.4,1406.08,-1.19,1.81,2.37,279.81,3.275,0,0,-11.816,1,0.6,4.5,3.371,0.35,0.0168,0.4,42.765,42.765,42.765,30.464,1,281.12,0.058,0,0,-0.62,1.31,0,0.06,281.12,0,0,0,0,0,0,0,48.703,0,0,0,3,0,0,0,2626.71,0,0,0,268.9,0,0,0,0,0,0,0,0,0,0,0,0,0,0,0,0,0,VALID,0,0,0,0,0,1,0,0,0,0,0,0,0,0,0,0,0,0,0,0,1.67,356.37,2,0,0.1,0.1,142,10.71,0.1,0.08,12.94,FLYING,CF1-J,0:/Integrated Flight Computer/aircraft/cf1_j_cfg.ks (inferred preloaded)
13.2,APPROACH,FLY_TO_FIX,109.91,80.53,-29.38,1405.79,-1.15,1.9,2.45,279.88,3.095,0,0,-11.639,1,0.6,4.5,3.381,0.35,0.0168,0.4,43.008,43.008,43.008,29.444,1,281.12,0.049,0,0,-0.6,1.24,0,0.05,281.12,0,0,0,0,0,0,0,48.672,0,0,0,3,0,0,0,2625.08,0,0,0,268.9,0,0,0,0,0,0,0,0,0,0,0,0,0,0,0,0,0,VALID,0,0,0,0,0,1,0,0,0,0,0,0,0,0,0,0,0,0,0,0,1.57,356.86,2,0,0.08,0.08,145,11.54,0.1,0.08,13.2,FLYING,CF1-J,0:/Integrated Flight Computer/aircraft/cf1_j_cfg.ks (inferred preloaded)
13.48,APPROACH,FLY_TO_FIX,109.04,80.75,-28.29,1405.49,-1.11,1.99,2.53,279.95,2.912,0,0,-11.465,1,0.6,4.5,3.387,0.35,0.0168,0.4,43.269,43.269,43.269,28.35,1,281.13,0.039,0,0,-0.59,1.18,0,0.04,281.13,0,0,0,0,0,0,0,48.638,0,0,0,3,0,0,0,2623.33,0,0,0,268.9,0,0,0,0,0,0,0,0,0,0,0,0,0,0,0,0,0,VALID,0,0,0,0,0,1,0,0,0,0,0,0,0,0,0,0,0,0,0,0,1.46,357.39,2,0,0.1,0.1,148,10.71,0.1,0.08,13.48,FLYING,CF1-J,0:/Integrated Flight Computer/aircraft/cf1_j_cfg.ks (inferred preloaded)
13.74,APPROACH,FLY_TO_FIX,108.24,80.96,-27.28,1405.22,-1.08,2.08,2.61,280,2.752,0,0,-11.294,1,0.6,4.5,3.391,0.35,0.0168,0.4,43.511,43.511,43.511,27.338,1,281.13,0.029,0,0,-0.57,1.12,0,0.03,281.13,0,0,0,0,0,0,0,48.608,0,0,0,3,0,0,0,2621.71,0,0,0,268.9,0,0,0,0,0,0,0,0,0,0,0,0,0,0,0,0,0,VALID,0,0,0,0,0,1,0,0,0,0,0,0,0,0,0,0,0,0,0,0,1.37,357.88,2,0,0.08,0.08,151,11.54,0.1,0.08,13.74,FLYING,CF1-J,0:/Integrated Flight Computer/aircraft/cf1_j_cfg.ks (inferred preloaded)
14.02,APPROACH,FLY_TO_FIX,107.38,81.18,-26.19,1404.94,-1.04,2.18,2.69,280.06,2.589,0,0,-11.126,1,0.6,4.5,3.393,0.35,0.0168,0.4,43.769,43.769,43.769,26.253,1,281.13,0.02,0,0,-0.56,1.07,0,0.02,281.13,0,0,0,0,0,0,0,48.575,0,0,0,3,0,0,0,2619.99,0,0,0,268.9,0,0,0,0,0,0,0,0,0,0,0,0,0,0,0,0,0,VALID,0,0,0,0,0,1,0,0,0,0,0,0,0,0,0,0,0,0,0,0,1.28,358.4,2,0,0.1,0.1,154,10.71,0.1,0.08,14.02,FLYING,CF1-J,0:/Integrated Flight Computer/aircraft/cf1_j_cfg.ks (inferred preloaded)
14.28,APPROACH,FLY_TO_FIX,106.58,81.39,-25.19,1404.69,-1.01,2.27,2.77,280.12,2.446,0,0,-10.96,1,0.6,4.5,3.392,0.35,0.0168,0.4,44.007,44.007,44.007,25.25,1,281.13,0.013,0,0,-0.55,1.02,0,0.02,281.13,0,0,0,0,0,0,0,48.545,0,0,0,3,0,0,0,2618.4,0,0,0,268.9,0,0,0,0,0,0,0,0,0,0,0,0,0,0,0,0,0,VALID,0,0,0,0,0,1,0,0,0,0,0,0,0,0,0,0,0,0,0,0,1.2,358.89,2,0,0.08,0.08,157,11.54,0.1,0.08,14.28,FLYING,CF1-J,0:/Integrated Flight Computer/aircraft/cf1_j_cfg.ks (inferred preloaded)
14.56,APPROACH,FLY_TO_FIX,105.73,81.62,-24.11,1404.42,-0.98,2.37,2.86,280.17,2.301,0,0,-10.796,1,0.6,4.5,3.39,0.35,0.0168,0.4,44.263,44.263,44.263,24.174,1,281.13,0.005,0,0,-0.53,0.97,0,0.01,281.13,0,0,0,0,0,0,0,48.512,0,0,0,3,0,0,0,2616.7,0,0,0,268.9,0,0,0,0,0,0,0,0,0,0,0,0,0,0,0,0,0,VALID,0,0,0,0,0,1,0,0,0,0,0,0,0,0,0,0,0,0,0,0,1.12,359.42,2,0,0.1,0.1,160,10.71,0.1,0.08,14.56,FLYING,CF1-J,0:/Integrated Flight Computer/aircraft/cf1_j_cfg.ks (inferred preloaded)
14.82,APPROACH,FLY_TO_FIX,104.94,81.82,-23.12,1404.19,-0.96,2.47,2.95,280.21,2.174,0,0,-10.635,1,0.6,4.5,3.386,0.35,0.0168,0.4,44.499,44.499,44.499,23.179,1,281.14,-0.001,0,0,-0.52,0.92,0,0,281.14,0,0,0,0,0,0,0,48.482,0,0,0,3,0,0,0,2615.14,0,0,0,268.9,0,0,0,0,0,0,0,0,0,0,0,0,0,0,0,0,0,VALID,0,0,0,0,0,1,0,0,0,0,0,0,0,0,0,0,0,0,0,0,1.05,359.9,2,0,0.08,0.08,163,11.54,0.1,0.08,14.82,FLYING,CF1-J,0:/Integrated Flight Computer/aircraft/cf1_j_cfg.ks (inferred preloaded)
15.1,APPROACH,FLY_TO_FIX,104.1,82.05,-22.05,1403.94,-0.93,2.57,3.04,280.26,2.046,0,0,-10.476,1,0.6,4.5,3.38,0.35,0.0168,0.4,44.752,44.752,44.752,22.112,1,281.14,-0.008,0,0,-0.51,0.88,0,0,281.14,0,0,0,0,0,0,0,48.45,0,0,0,3,0,0,0,2613.47,0,0,0,268.9,0,0,0,0,0,0,0,0,0,0,0,0,0,0,0,0,0,VALID,0,0,0,0,0,1,0,0,0,0,0,0,0,0,0,0,0,0,0,0,0.98,360.42,2,0,0.1,0.1,166,10.71,0.1,0.08,15.1,FLYING,CF1-J,0:/Integrated Flight Computer/aircraft/cf1_j_cfg.ks (inferred preloaded)
15.36,APPROACH,FLY_TO_FIX,103.32,82.26,-21.07,1403.72,-0.91,2.67,3.13,280.3,1.934,0,0,-10.32,1,0.6,4.5,3.373,0.35,0.0168,0.4,44.986,44.986,44.986,21.125,1,281.14,-0.013,0,0,-0.51,0.83,0,-0.01,281.14,0,0,0,0,0,0,0,48.421,0,0,0,3,0,0,0,2611.93,0,0,0,268.9,0,0,0,0,0,0,0,0,0,0,0,0,0,0,0,0,0,VALID,0,0,0,0,0,1,0,0,0,0,0,0,0,0,0,0,0,0,0,0,0.92,360.91,2,0,0.08,0.08,169,11.54,0.1,0.08,15.36,FLYING,CF1-J,0:/Integrated Flight Computer/aircraft/cf1_j_cfg.ks (inferred preloaded)
15.64,APPROACH,FLY_TO_FIX,102.49,82.48,-20.01,1403.48,-0.89,2.77,3.23,280.35,1.82,0,0,-10.166,1,0.6,4.5,3.364,0.35,0.0168,0.4,45.236,45.236,45.236,20.068,1,281.14,-0.019,0,0,-0.5,0.79,0,-0.02,281.14,0,0,0,0,0,0,0,48.39,0,0,0,3,0,0,0,2610.28,0,0,0,268.9,0,0,0,0,0,0,0,0,0,0,0,0,0,0,0,0,0,VALID,0,0,0,0,0,1,0,0,0,0,0,0,0,0,0,0,0,0,0,0,0.86,361.43,2,0,0.1,0.1,172,10.71,0.1,0.08,15.64,FLYING,CF1-J,0:/Integrated Flight Computer/aircraft/cf1_j_cfg.ks (inferred preloaded)
15.9,APPROACH,FLY_TO_FIX,101.72,82.69,-19.03,1403.27,-0.87,2.87,3.32,280.38,1.72,0,0,-10.014,1,0.6,4.5,3.354,0.35,0.0168,0.4,45.467,45.467,45.467,19.09,1,281.14,-0.024,0,0,-0.49,0.76,0,-0.02,281.14,0,0,0,0,0,0,0,48.361,0,0,0,3,0,0,0,2608.76,0,0,0,268.9,0,0,0,0,0,0,0,0,0,0,0,0,0,0,0,0,0,VALID,0,0,0,0,0,1,0,0,0,0,0,0,0,0,0,0,0,0,0,0,0.81,361.91,2,0,0.08,0.08,175,11.54,0.1,0.08,15.9,FLYING,CF1-J,0:/Integrated Flight Computer/aircraft/cf1_j_cfg.ks (inferred preloaded)
16.18,APPROACH,FLY_TO_FIX,100.89,82.91,-17.98,1403.05,-0.85,2.98,3.42,280.42,1.619,0,0,-9.865,1,0.6,4.5,3.344,0.35,0.0168,0.4,45.714,45.714,45.714,18.041,1,281.14,-0.028,0,0,-0.48,0.72,0,-0.03,281.14,0,0,0,0,0,0,0,48.33,0,0,0,3,0,0,0,2607.14,0,0,0,268.9,0,0,0,0,0,0,0,0,0,0,0,0,0,0,0,0,0,VALID,0,0,0,0,0,1,0,0,0,0,0,0,0,0,0,0,0,0,0,0,0.75,362.42,2,0,0.1,0.1,178,10.71,0.1,0.08,16.18,FLYING,CF1-J,0:/Integrated Flight Computer/aircraft/cf1_j_cfg.ks (inferred preloaded)
16.44,APPROACH,FLY_TO_FIX,100.14,83.12,-17.02,1402.84,-0.83,3.08,3.51,280.46,1.531,0,0,-9.717,1,0.6,4.5,3.332,0.35,0.0168,0.4,43.364,45.942,43.364,17.074,1,281.15,-0.032,0,0,-0.48,0.69,0,-0.03,281.14,0,0,0,0,0,0,0,48.301,0,0,0,3,0,0,0,2605.65,0,0,0,268.9,0,0,0,0,0,0,0,0,0,0,0,0,0,0,0,0,0,VALID,0,0,0,0,0,1,0,0,0,0,0,0,0,0,0,0,0,0,0,0,0.71,362.9,2,0,0.08,0.08,181,11.54,0.1,0.08,16.44,FLYING,CF1-J,0:/Integrated Flight Computer/aircraft/cf1_j_cfg.ks (inferred preloaded)
16.72,APPROACH,FLY_TO_FIX,99.35,83.34,-16,1402.63,-0.82,3.19,3.62,280.49,1.441,0,0,-9.572,1,0.6,4.5,3.316,0.35,0.0168,0.4,40.748,46.179,40.748,16.06,1,281.15,-0.035,0,0,-0.47,0.66,0,-0.03,281.15,0,0,0,0,0,0,0,48.271,0,0,0,3,0,0,0,2604.06,0,0,0,268.9,0,0,0,0,0,0,0,0,0,0,0,0,0,0,0,0,0,VALID,0,0,0,0,0,1,0,0,0,0,0,0,0,0,0,0,0,0,0,0,0.66,363.39,2,0,0.1,0.1,184,10.71,0.1,0.08,16.72,FLYING,CF1-J,0:/Integrated Flight Computer/aircraft/cf1_j_cfg.ks (inferred preloaded)
16.98,APPROACH,FLY_TO_FIX,98.65,83.55,-15.1,1402.43,-0.81,3.29,3.72,280.52,1.363,0,0,-9.43,1,0.6,4.5,3.291,0.35,0.0168,0.4,38.382,46.389,38.382,15.152,1,281.15,-0.038,0,0,-0.47,0.63,0,-0.04,281.15,0,0,0,0,0,0,0,48.243,0,0,0,3,0,0,0,2602.58,0,0,0,268.9,0,0,0,0,0,0,0,0,0,0,0,0,0,0,0,0,0,VALID,0,0,0,0,0,1,0,0,0,0,0,0,0,0,0,0,0,0,0,0,0.62,363.83,2,0,0.08,0.08,187,11.54,0.1,0.08,16.98,FLYING,CF1-J,0:/Integrated Flight Computer/aircraft/cf1_j_cfg.ks (inferred preloaded)
17.26,APPROACH,FLY_TO_FIX,97.95,83.78,-14.18,1402.23,-0.79,3.4,3.82,280.55,1.285,0,0,-9.289,1,0.6,4.5,3.254,0.35,0.0168,0.4,35.935,46.6,35.935,14.224,1,281.15,-0.041,0,0,-0.46,0.6,0,-0.04,281.15,0,0,0,0,0,0,0,48.213,0,0,0,3,0,0,0,2601.01,0,0,0,268.9,0,0,0,0,0,0,0,0,0,0,0,0,0,0,0,0,0,VALID,0,0,0,0,0,1,0,0,0,0,0,0,0,0,0,0,0,0,0,0,0.58,364.28,2,0,0.1,0.1,190,10.71,0.1,0.08,17.26,FLYING,CF1-J,0:/Integrated Flight Computer/aircraft/cf1_j_cfg.ks (inferred preloaded)
17.52,APPROACH,FLY_TO_FIX,97.36,83.98,-13.38,1402.04,-0.78,3.49,3.92,280.58,1.216,0,0,-9.15,1,0.6,4.5,3.199,0.35,0.0168,0.4,33.801,46.778,33.801,13.423,1,281.15,-0.044,0,0,-0.46,0.57,0,-0.04,281.15,0,0,0,0,0,0,0,48.185,0,0,0,3,0,0,0,2599.56,0,0,0,268.9,0,0,0,0,0,0,0,0,0,0,0,0,0,0,0,0,0,VALID,0,0,0,0,0,1,0,0,0,0,0,0,0,0,0,0,0,0,0,0,0.54,364.65,2,0,0.08,0.08,193,11.54,0.1,0.08,17.52,FLYING,CF1-J,0:/Integrated Flight Computer/aircraft/cf1_j_cfg.ks (inferred preloaded)
17.8,APPROACH,FLY_TO_FIX,96.81,84.21,-12.6,1401.84,-0.77,3.59,4.01,280.61,1.147,0,0,-9.014,1,0.6,4.5,3.123,0.35,0.0168,0.4,31.681,46.947,31.681,12.635,1,281.15,-0.046,0,0,-0.46,0.54,0,-0.04,281.15,0,0,0,0,0,0,0,48.155,0,0,0,3,0,0,0,2598,0,0,0,268.9,0,0,0,0,0,0,0,0,0,0,0,0,0,0,0,0,0,VALID,0,0,0,0,0,1,0,0,0,0,0,0,0,0,0,0,0,0,0,0,0.51,365.01,2,0,0.1,0.1,196,10.71,0.1,0.08,17.8,FLYING,CF1-J,0:/Integrated Flight Computer/aircraft/cf1_j_cfg.ks (inferred preloaded)
18.06,APPROACH,FLY_TO_FIX,96.35,84.42,-11.94,1401.65,-0.76,3.68,4.09,280.63,1.086,0,0,-8.879,1,0.6,4.5,3.026,0.35,0.0168,0.4,29.879,47.084,29.879,11.971,1,281.15,-0.049,0,0,-0.45,0.52,0,-0.05,281.15,0,0,0,0,0,0,0,48.128,0,0,0,3,0,0,0,2596.57,0,0,0,268.9,0,0,0,0,0,0,0,0,0,0,0,0,0,0,0,0,0,VALID,0,0,0,0,0,1,0,0,0,0,0,0,0,0,0,0,0,0,0,0,0.47,365.3,2,0,0.08,0.08,199,11.54,0.1,0.08,18.06,FLYING,CF1-J,0:/Integrated Flight Computer/aircraft/cf1_j_cfg.ks (inferred preloaded)
18.34,APPROACH,FLY_TO_FIX,95.93,84.64,-11.29,1401.45,-0.74,3.76,4.16,280.65,1.026,0,0,-8.747,1,0.6,4.5,2.91,0.35,0.0168,0.4,28.104,47.211,28.104,11.322,1,281.15,-0.052,0,0,-0.45,0.5,0,-0.05,281.15,0,0,0,0,0,0,0,48.099,0,0,0,3,0,0,0,2595.03,0,0,0,268.9,0,0,0,0,0,0,0,0,0,0,0,0,0,0,0,0,0,VALID,0,0,0,0,0,1,0,0,0,0,0,0,0,0,0,0,0,0,0,0,0.44,365.57,2,0,0.1,0.1,202,10.71,0.1,0.08,18.34,FLYING,CF1-J,0:/Integrated Flight Computer/aircraft/cf1_j_cfg.ks (inferred preloaded)
18.6,APPROACH,FLY_TO_FIX,95.6,84.85,-10.75,1401.27,-0.73,3.82,4.22,280.67,0.973,0,0,-8.616,1,0.6,4.5,2.778,0.35,0.0168,0.4,26.588,47.314,26.588,10.772,1,281.15,-0.056,0,0,-0.44,0.48,0,-0.05,281.15,0,0,0,0,0,0,0,48.071,0,0,0,3,0,0,0,2593.6,0,0,0,268.9,0,0,0,0,0,0,0,0,0,0,0,0,0,0,0,0,0,VALID,0,0,0,0,0,1,0,0,0,0,0,0,0,0,0,0,0,0,0,0,0.41,365.79,2,0,0.08,0.08,205,11.54,0.1,0.08,18.6,FLYING,CF1-J,0:/Integrated Flight Computer/aircraft/cf1_j_cfg.ks (inferred preloaded)
18.88,APPROACH,FLY_TO_FIX,95.27,85,-10.27,1401.08,-0.71,3.89,4.28,280.7,0.921,0,0,-8.487,1,0.6,4.5,2.636,0.35,0.0168,0.4,25.273,47.411,25.273,10.296,1,281.15,-0.059,0,0,-0.43,0.46,0,-0.06,281.15,0,0,0,0,0,0,0,48.042,0,0,0,3,0,0,0,2592.07,0,0,0,268.9,0,0,0,0,0,0,0,0,0,0,0,0,0,0,0,0,0,VALID,0,0,0,0,0,1,0,0,0,0,0,0,0,0,0,0,0,0,0,0,0.39,366,2,0,0.1,0.1,208,10.71,0.1,0.08,18.88,FLYING,CF1-J,0:/Integrated Flight Computer/aircraft/cf1_j_cfg.ks (inferred preloaded)
19.14,APPROACH,FLY_TO_FIX,95,85,-10,1400.9,-0.7,3.94,4.32,280.71,0.875,0,0,-8.361,1,0.6,4.5,2.491,0.35,0.0168,0.4,24.525,47.494,24.525,10.02,1,281.16,-0.063,0,0,-0.42,0.44,0,-0.06,281.15,0,0,0,0,0,0,0,48.015,0,0,0,3,0,0,0,2590.66,0,0,0,268.9,0,0,0,0,0,0,0,0,0,0,0,0,0,0,0,0,0,VALID,0,0,0,0,0,1,0,0,0,0,0,0,0,0,0,0,0,0,0,0,0.36,366.18,2,0,0.08,0.08,211,11.54,0.1,0.08,19.14,FLYING,CF1-J,0:/Integrated Flight Computer/aircraft/cf1_j_cfg.ks (inferred preloaded)
19.42,APPROACH,FLY_TO_FIX,94.72,85,-9.72,1400.72,-0.69,3.99,4.36,280.73,0.829,0,0,-8.236,1,0.6,4.5,2.348,0.35,0.0168,0.4,23.75,47.579,23.75,9.736,1,281.16,-0.067,0,0,-0.41,0.42,0,-0.06,281.16,0,0,0,0,0,0,0,47.986,0,0,0,3,0,0,0,2589.14,0,0,0,268.9,0,0,0,0,0,0,0,0,0,0,0,0,0,0,0,0,0,VALID,0,0,0,0,0,1,0,0,0,0,0,0,0,0,0,0,0,0,0,0,0.34,366.37,2,0,0.1,0.1,214,10.71,0.1,0.08,19.42,FLYING,CF1-J,0:/Integrated Flight Computer/aircraft/cf1_j_cfg.ks (inferred preloaded)
19.68,APPROACH,FLY_TO_FIX,94.46,85,-9.46,1400.55,-0.67,4.03,4.4,280.75,0.788,0,0,-8.113,1,0.6,4.5,2.213,0.35,0.0168,0.4,23.049,47.656,23.049,9.48,1,281.16,-0.069,0,0,-0.41,0.41,0,-0.07,281.16,0,0,0,0,0,0,0,47.959,0,0,0,3,0,0,0,2587.73,0,0,0,268.9,0,0,0,0,0,0,0,0,0,0,0,0,0,0,0,0,0,VALID,0,0,0,0,0,1,0,0,0,0,0,0,0,0,0,0,0,0,0,0,0.32,366.53,2,0,0.08,0.08,217,11.54,0.1,0.08,19.68,FLYING,CF1-J,0:/Integrated Flight Computer/aircraft/cf1_j_cfg.ks (inferred preloaded)
19.96,APPROACH,FLY_TO_FIX,94.19,85,-9.19,1400.37,-0.66,4.08,4.44,280.77,0.743,0,0,-7.992,1,0.6,4.5,2.087,0.35,0.0168,0.4,22.308,47.737,22.308,9.211,1,281.16,-0.072,0,0,-0.4,0.39,0,-0.07,281.16,0,0,0,0,0,0,0,47.93,0,0,0,3,0,0,0,2586.22,0,0,0,268.9,0,0,0,0,0,0,0,0,0,0,0,0,0,0,0,0,0,VALID,0,0,0,0,0,1,0,0,0,0,0,0,0,0,0,0,0,0,0,0,0.3,366.71,2,0,0.1,0.1,220,10.71,0.1,0.08,19.96,FLYING,CF1-J,0:/Integrated Flight Computer/aircraft/cf1_j_cfg.ks (inferred preloaded)
20.22,APPROACH,FLY_TO_FIX,93.95,85,-8.95,1400.21,-0.65,4.12,4.48,280.78,0.702,0,0,-7.873,1,0.6,4.5,1.971,0.35,0.0168,0.4,21.631,47.81,21.631,8.965,1,281.16,-0.074,0,0,-0.4,0.38,0,-0.07,281.16,0,0,0,0,0,0,0,47.904,0,0,0,3,0,0,0,2584.82,0,0,0,268.9,0,0,0,0,0,0,0,0,0,0,0,0,0,0,0,0,0,VALID,0,0,0,0,0,1,0,0,0,0,0,0,0,0,0,0,0,0,0,0,0.28,366.87,2,0,0.08,0.08,223,11.54,0.1,0.08,20.22,FLYING,CF1-J,0:/Integrated Flight Computer/aircraft/cf1_j_cfg.ks (inferred preloaded)
20.5,APPROACH,FLY_TO_FIX,93.69,85,-8.69,1400.03,-0.64,4.17,4.52,280.8,0.659,0,0,-7.755,1,0.6,4.5,1.866,0.35,0.0168,0.4,20.914,47.888,20.914,8.706,1,281.16,-0.076,0,0,-0.39,0.36,0,-0.07,281.16,0,0,0,0,0,0,0,47.875,0,0,0,3,0,0,0,2583.32,0,0,0,268.9,0,0,0,0,0,0,0,0,0,0,0,0,0,0,0,0,0,VALID,0,0,0,0,0,1,0,0,0,0,0,0,0,0,0,0,0,0,0,0,0.26,367.04,2,0,0.1,0.1,226,10.71,0.1,0.08,20.5,FLYING,CF1-J,0:/Integrated Flight Computer/aircraft/cf1_j_cfg.ks (inferred preloaded)
20.76,APPROACH,FLY_TO_FIX,93.45,85,-8.45,1399.88,-0.63,4.21,4.56,280.81,0.621,0,0,-7.639,1,0.6,4.5,1.77,0.35,0.0168,0.4,20.255,47.959,20.255,8.469,1,281.16,-0.078,0,0,-0.39,0.35,0,-0.08,281.16,0,0,0,0,0,0,0,47.849,0,0,0,3,0,0,0,2581.92,0,0,0,268.9,0,0,0,0,0,0,0,0,0,0,0,0,0,0,0,0,0,VALID,0,0,0,0,0,1,0,0,0,0,0,0,0,0,0,0,0,0,0,0,0.24,367.2,2,0,0.08,0.08,229,11.54,0.1,0.08,20.76,FLYING,CF1-J,0:/Integrated Flight Computer/aircraft/cf1_j_cfg.ks (inferred preloaded)
21.04,APPROACH,FLY_TO_FIX,93.2,85,-8.2,1399.71,-0.62,4.25,4.6,280.82,0.582,0,0,-7.525,1,0.6,4.5,1.682,0.35,0.0168,0.4,19.553,48.035,19.553,8.216,1,281.16,-0.08,0,0,-0.38,0.34,0,-0.08,281.16,0,0,0,0,0,0,0,47.82,0,0,0,3,0,0,0,2580.43,0,0,0,268.9,0,0,0,0,0,0,0,0,0,0,0,0,0,0,0,0,0,VALID,0,0,0,0,0,1,0,0,0,0,0,0,0,0,0,0,0,0,0,0,0.23,367.37,2,0,0.1,0.1,232,10.71,0.1,0.08,21.04,FLYING,CF1-J,0:/Integrated Flight Computer/aircraft/cf1_j_cfg.ks (inferred preloaded)
21.3,APPROACH,FLY_TO_FIX,92.97,85,-7.97,1399.55,-0.62,4.29,4.64,280.83,0.547,0,0,-7.413,1,0.6,4.5,1.604,0.35,0.0168,0.4,18.907,48.104,18.907,7.985,1,281.16,-0.082,0,0,-0.38,0.33,0,-0.08,281.16,0,0,0,0,0,0,0,47.794,0,0,0,3,0,0,0,2579.04,0,0,0,268.9,0,0,0,0,0,0,0,0,0,0,0,0,0,0,0,0,0,VALID,0,0,0,0,0,1,0,0,0,0,0,0,0,0,0,0,0,0,0,0,0.21,367.52,2,0,0.08,0.08,235,11.54,0.1,0.08,21.3,FLYING,CF1-J,0:/Integrated Flight Computer/aircraft/cf1_j_cfg.ks (inferred preloaded)
21.58,APPROACH,FLY_TO_FIX,92.72,85,-7.72,1399.39,-0.61,4.34,4.68,280.84,0.512,0,0,-7.302,1,0.6,4.5,1.532,0.35,0.0168,0.4,18.215,48.179,18.215,7.738,1,281.16,-0.083,0,0,-0.38,0.32,0,-0.08,281.16,0,0,0,0,0,0,0,47.765,0,0,0,3,0,0,0,2577.56,0,0,0,268.9,0,0,0,0,0,0,0,0,0,0,0,0,0,0,0,0,0,VALID,0,0,0,0,0,1,0,0,0,0,0,0,0,0,0,0,0,0,0,0,0.2,367.68,2,0,0.1,0.1,238,10.71,0.1,0.08,21.58,FLYING,CF1-J,0:/Integrated Flight Computer/aircraft/cf1_j_cfg.ks (inferred preloaded)
21.84,APPROACH,FLY_TO_FIX,92.49,85,-7.49,1399.24,-0.6,4.38,4.71,280.85,0.482,0,0,-7.193,1,0.6,4.5,1.468,0.35,0.0168,0.4,17.577,48.247,17.577,7.511,1,281.16,-0.084,0,0,-0.37,0.31,0,-0.08,281.16,0,0,0,0,0,0,0,47.739,0,0,0,3,0,0,0,2576.18,0,0,0,268.9,0,0,0,0,0,0,0,0,0,0,0,0,0,0,0,0,0,VALID,0,0,0,0,0,1,0,0,0,0,0,0,0,0,0,0,0,0,0,0,0.19,367.83,2,0,0.08,0.08,241,11.54,0.1,0.08,21.84,FLYING,CF1-J,0:/Integrated Flight Computer/aircraft/cf1_j_cfg.ks (inferred preloaded)
22.12,APPROACH,FLY_TO_FIX,92.25,85,-7.25,1399.08,-0.59,4.42,4.75,280.86,0.451,0,0,-7.086,1,0.6,4.5,1.41,0.35,0.0168,0.4,16.891,48.32,16.891,7.268,1,281.16,-0.085,0,0,-0.37,0.3,0,-0.08,281.16,0,0,0,0,0,0,0,47.711,0,0,0,3,0,0,0,2574.7,0,0,0,268.9,0,0,0,0,0,0,0,0,0,0,0,0,0,0,0,0,0,VALID,0,0,0,0,0,1,0,0,0,0,0,0,0,0,0,0,0,0,0,0,0.17,367.99,2,0,0.1,0.1,244,10.71,0.1,0.08,22.12,FLYING,CF1-J,0:/Integrated Flight Computer/aircraft/cf1_j_cfg.ks (inferred preloaded)
22.38,APPROACH,FLY_TO_FIX,92.03,85,-7.03,1398.93,-0.59,4.46,4.79,280.87,0.425,0,0,-6.98,1,0.6,4.5,1.358,0.35,0.0168,0.4,16.256,48.387,16.256,7.043,1,281.16,-0.086,0,0,-0.37,0.29,0,-0.09,281.16,0,0,0,0,0,0,0,47.684,0,0,0,3,0,0,0,2573.33,0,0,0,268.9,0,0,0,0,0,0,0,0,0,0,0,0,0,0,0,0,0,VALID,0,0,0,0,0,1,0,0,0,0,0,0,0,0,0,0,0,0,0,0,0.16,368.14,2,0,0.08,0.08,247,11.54,0.1,0.08,22.38,FLYING,CF1-J,0:/Integrated Flight Computer/aircraft/cf1_j_cfg.ks (inferred preloaded)
22.66,APPROACH,FLY_TO_FIX,91.79,85,-6.79,1398.77,-0.58,4.5,4.83,280.88,0.398,0,0,-6.876,1,0.6,4.5,1.311,0.35,0.0168,0.4,15.572,48.459,15.572,6.802,1,281.16,-0.087,0,0,-0.36,0.28,0,-0.09,281.16,0,0,0,0,0,0,0,47.656,0,0,0,3,0,0,0,2571.85,0,0,0,268.9,0,0,0,0,0,0,0,0,0,0,0,0,0,0,0,0,0,VALID,0,0,0,0,0,1,0,0,0,0,0,0,0,0,0,0,0,0,0,0,0.15,368.3,2,0,0.1,0.1,250,10.71,0.1,0.08,22.66,FLYING,CF1-J,0:/Integrated Flight Computer/aircraft/cf1_j_cfg.ks (inferred preloaded)
22.92,APPROACH,FLY_TO_FIX,91.56,85,-6.56,1398.63,-0.58,4.54,4.87,280.89,0.376,0,0,-6.774,1,0.6,4.5,1.27,0.35,0.0168,0.4,14.937,48.526,14.937,6.579,1,281.16,-0.088,0,0,-0.36,0.28,0,-0.09,281.16,0,0,0,0,0,0,0,47.63,0,0,0,3,0,0,0,2570.49,0,0,0,268.9,0,0,0,0,0,0,0,0,0,0,0,0,0,0,0,0,0,VALID,0,0,0,0,0,1,0,0,0,0,0,0,0,0,0,0,0,0,0,0,0.14,368.45,2,0,0.08,0.08,253,11.54,0.1,0.08,22.92,FLYING,CF1-J,0:/Integrated Flight Computer/aircraft/cf1_j_cfg.ks (inferred preloaded)
23.2,APPROACH,FLY_TO_FIX,91.32,85,-6.32,1398.47,-0.57,4.59,4.91,280.9,0.353,0,0,-6.672,1,0.6,4.5,1.233,0.35,0.0168,0.4,14.251,48.598,14.251,6.339,1,281.16,-0.089,0,0,-0.36,0.27,0,-0.09,281.16,0,0,0,0,0,0,0,47.602,0,0,0,3,0,0,0,2569.02,0,0,0,268.9,0,0,0,0,0,0,0,0,0,0,0,0,0,0,0,0,0,VALID,0,0,0,0,0,1,0,0,0,0,0,0,0,0,0,0,0,0,0,0,0.13,368.61,2,0,0.1,0.1,256,10.71,0.1,0.08,23.2,FLYING,CF1-J,0:/Integrated Flight Computer/aircraft/cf1_j_cfg.ks (inferred preloaded)
23.46,APPROACH,FLY_TO_FIX,91.1,85,-6.1,1398.33,-0.57,4.63,4.95,280.9,0.334,0,0,-6.573,1,0.6,4.5,1.2,0.35,0.0168,0.4,13.613,48.665,13.613,6.115,1,281.16,-0.089,0,0,-0.36,0.26,0,-0.09,281.16,0,0,0,0,0,0,0,47.576,0,0,0,3,0,0,0,2567.66,0,0,0,268.9,0,0,0,0,0,0,0,0,0,0,0,0,0,0,0,0,0,VALID,0,0,0,0,0,1,0,0,0,0,0,0,0,0,0,0,0,0,0,0,0.12,368.75,2,0,0.08,0.08,259,11.54,0.1,0.08,23.46,FLYING,CF1-J,0:/Integrated Flight Computer/aircraft/cf1_j_cfg.ks (inferred preloaded)
23.74,APPROACH,FLY_TO_FIX,90.86,85,-5.86,1398.18,-0.56,4.67,4.99,280.91,0.314,0,0,-6.475,1,0.6,4.5,1.17,0.35,0.0168,0.4,12.922,48.738,12.922,5.875,1,281.16,-0.09,0,0,-0.36,0.26,0,-0.09,281.16,0,0,0,0,0,0,0,47.549,0,0,0,3,0,0,0,2566.21,0,0,0,268.9,0,0,0,0,0,0,0,0,0,0,0,0,0,0,0,0,0,VALID,0,0,0,0,0,1,0,0,0,0,0,0,0,0,0,0,0,0,0,0,0.12,368.91,2,0,0.1,0.1,262,10.71,0.1,0.08,23.74,FLYING,CF1-J,0:/Integrated Flight Computer/aircraft/cf1_j_cfg.ks (inferred preloaded)
24,APPROACH,FLY_TO_FIX,90.63,85,-5.63,1398.04,-0.56,4.71,5.03,280.92,0.298,0,0,-6.378,1,0.6,4.5,1.144,0.35,0.0168,0.4,12.278,48.805,12.278,5.651,1,281.17,-0.091,0,0,-0.35,0.25,0,-0.09,281.17,0,0,0,0,0,0,0,47.523,0,0,0,3,0,0,0,2564.86,0,0,0,268.9,0,0,0,0,0,0,0,0,0,0,0,0,0,0,0,0,0,VALID,0,0,0,0,0,1,0,0,0,0,0,0,0,0,0,0,0,0,0,0,0.11,369.06,2,0,0.08,0.08,265,11.54,0.1,0.08,24,FLYING,CF1-J,0:/Integrated Flight Computer/aircraft/cf1_j_cfg.ks (inferred preloaded)
24.28,APPROACH,FLY_TO_FIX,90.39,85,-5.39,1397.89,-0.56,4.75,5.07,280.92,0.281,0,0,-6.283,1,0.6,4.5,1.122,0.35,0.0168,0.4,11.581,48.877,11.581,5.409,1,281.17,-0.091,0,0,-0.35,0.24,0,-0.09,281.17,0,0,0,0,0,0,0,47.495,0,0,0,3,0,0,0,2563.4,0,0,0,268.9,0,0,0,0,0,0,0,0,0,0,0,0,0,0,0,0,0,VALID,0,0,0,0,0,1,0,0,0,0,0,0,0,0,0,0,0,0,0,0,0.1,369.22,2,0,0.1,0.1,268,10.71,0.1,0.08,24.28,FLYING,CF1-J,0:/Integrated Flight Computer/aircraft/cf1_j_cfg.ks (inferred preloaded)
24.54,APPROACH,FLY_TO_FIX,90.17,85,-5.17,1397.75,-0.55,4.8,5.11,280.93,0.267,0,0,-6.189,1,0.6,4.5,1.102,0.35,0.0168,0.4,10.93,48.945,10.93,5.185,1,281.17,-0.091,0,0,-0.35,0.24,0,-0.09,281.17,0,0,0,0,0,0,0,47.469,0,0,0,3,0,0,0,2562.06,0,0,0,268.9,0,0,0,0,0,0,0,0,0,0,0,0,0,0,0,0,0,VALID,0,0,0,0,0,1,0,0,0,0,0,0,0,0,0,0,0,0,0,0,0.09,369.37,2,0,0.08,0.08,271,11.54,0.1,0.08,24.54,FLYING,CF1-J,0:/Integrated Flight Computer/aircraft/cf1_j_cfg.ks (inferred preloaded)
24.82,APPROACH,FLY_TO_FIX,89.92,85,-4.92,1397.61,-0.55,4.84,5.16,280.93,0.253,0,0,-6.097,1,0.6,4.5,1.084,0.35,0.0168,0.4,10.225,49.017,10.225,4.942,1,281.17,-0.091,0,0,-0.35,0.23,0,-0.09,281.17,0,0,0,0,0,0,0,47.442,0,0,0,3,0,0,0,2560.62,0,0,0,268.9,0,0,0,0,0,0,0,0,0,0,0,0,0,0,0,0,0,VALID,0,0,0,0,0,1,0,0,0,0,0,0,0,0,0,0,0,0,0,0,0.09,369.53,2,0,0.1,0.1,274,10.71,0.1,0.08,24.82,FLYING,CF1-J,0:/Integrated Flight Computer/aircraft/cf1_j_cfg.ks (inferred preloaded)
25.08,APPROACH,FLY_TO_FIX,89.7,85,-4.7,1397.47,-0.55,4.88,5.2,280.94,0.241,0,0,-6.006,1,0.6,4.5,1.069,0.35,0.0168,0.4,9.567,49.085,9.567,4.716,1,281.17,-0.092,0,0,-0.35,0.23,0,-0.09,281.17,0,0,0,0,0,0,0,47.416,0,0,0,3,0,0,0,2559.28,0,0,0,268.9,0,0,0,0,0,0,0,0,0,0,0,0,0,0,0,0,0,VALID,0,0,0,0,0,1,0,0,0,0,0,0,0,0,0,0,0,0,0,0,0.08,369.68,2,0,0.08,0.08,277,11.54,0.1,0.08,25.08,FLYING,CF1-J,0:/Integrated Flight Computer/aircraft/cf1_j_cfg.ks (inferred preloaded)
25.36,APPROACH,FLY_TO_FIX,89.45,85,-4.45,1397.32,-0.54,4.93,5.24,280.94,0.229,0,0,-5.916,1,0.6,4.5,1.056,0.35,0.0168,0.4,8.855,49.158,8.855,4.472,1,281.17,-0.092,0,0,-0.35,0.23,0,-0.09,281.17,0,0,0,0,0,0,0,47.389,0,0,0,3,0,0,0,2557.84,0,0,0,268.9,0,0,0,0,0,0,0,0,0,0,0,0,0,0,0,0,0,VALID,0,0,0,0,0,1,0,0,0,0,0,0,0,0,0,0,0,0,0,0,0.08,369.84,2,0,0.1,0.1,280,10.71,0.1,0.08,25.36,FLYING,CF1-J,0:/Integrated Flight Computer/aircraft/cf1_j_cfg.ks (inferred preloaded)
25.62,APPROACH,FLY_TO_FIX,89.23,85,-4.23,1397.19,-0.54,4.97,5.29,280.95,0.219,0,0,-5.828,1,0.6,4.5,1.045,0.35,0.0168,0.4,8.189,49.227,8.189,4.245,1,281.17,-0.092,0,0,-0.35,0.22,0,-0.09,281.17,0,0,0,0,0,0,0,47.364,0,0,0,3,0,0,0,2556.51,0,0,0,268.9,0,0,0,0,0,0,0,0,0,0,0,0,0,0,0,0,0,VALID,0,0,0,0,0,1,0,0,0,0,0,0,0,0,0,0,0,0,0,0,0.07,369.99,2,0,0.08,0.08,283,11.54,0.1,0.08,25.62,FLYING,CF1-J,0:/Integrated Flight Computer/aircraft/cf1_j_cfg.ks (inferred preloaded)
25.9,APPROACH,FLY_TO_FIX,88.98,85,-3.98,1397.05,-0.54,5.02,5.33,280.95,0.209,0,0,-5.741,1,0.6,4.5,1.035,0.35,0.0168,0.4,7.469,49.3,7.469,4,1,281.17,-0.092,0,0,-0.35,0.22,0,-0.09,281.17,0,0,0,0,0,0,0,47.336,0,0,0,3,0,0,0,2555.09,0,0,0,268.9,0,0,0,0,0,0,0,0,0,0,0,0,0,0,0,0,0,VALID,0,0,0,0,0,1,0,0,0,0,0,0,0,0,0,0,0,0,0,0,0.07,370.15,2,0,0.1,0.1,286,10.71,0.1,0.08,25.9,FLYING,CF1-J,0:/Integrated Flight Computer/aircraft/cf1_j_cfg.ks (inferred preloaded)
26.16,APPROACH,FLY_TO_FIX,88.75,85,-3.75,1396.91,-0.54,5.06,5.37,280.95,0.2,0,0,-5.655,1,0.6,4.5,1.027,0.35,0.0168,0.4,6.796,49.369,6.796,3.772,1,281.17,-0.093,0,0,-0.35,0.21,0,-0.09,281.17,0,0,0,0,0,0,0,47.311,0,0,0,3,0,0,0,2553.76,0,0,0,268.9,0,0,0,0,0,0,0,0,0,0,0,0,0,0,0,0,0,VALID,0,0,0,0,0,1,0,0,0,0,0,0,0,0,0,0,0,0,0,0,0.06,370.3,2,0,0.08,0.08,289,11.54,0.1,0.08,26.16,FLYING,CF1-J,0:/Integrated Flight Computer/aircraft/cf1_j_cfg.ks (inferred preloaded)
26.44,APPROACH,FLY_TO_FIX,88.51,85,-3.51,1396.77,-0.53,5.11,5.42,280.96,0.191,0,0,-5.571,1,0.6,4.5,1.019,0.35,0.0168,0.4,6.068,49.442,6.068,3.525,1,281.17,-0.093,0,0,-0.34,0.21,0,-0.09,281.17,0,0,0,0,0,0,0,47.284,0,0,0,3,0,0,0,2552.34,0,0,0,268.9,0,0,0,0,0,0,0,0,0,0,0,0,0,0,0,0,0,VALID,0,0,0,0,0,1,0,0,0,0,0,0,0,0,0,0,0,0,0,0,0.06,370.46,2,0,0.1,0.1,292,10.71,0.1,0.08,26.44,FLYING,CF1-J,0:/Integrated Flight Computer/aircraft/cf1_j_cfg.ks (inferred preloaded)
26.7,APPROACH,FLY_TO_FIX,88.28,85,-3.28,1396.64,-0.53,5.16,5.47,280.96,0.184,0,0,-5.488,1,0.6,4.5,1.013,0.35,0.0168,0.4,5.388,49.511,5.388,3.296,1,281.17,-0.093,0,0,-0.34,0.21,0,-0.09,281.17,0,0,0,0,0,0,0,47.259,0,0,0,3,0,0,0,2551.03,0,0,0,268.9,0,0,0,0,0,0,0,0,0,0,0,0,0,0,0,0,0,VALID,0,0,0,0,0,1,0,0,0,0,0,0,0,0,0,0,0,0,0,0,0.06,370.62,2,0,0.08,0.08,295,11.54,0.1,0.08,26.7,FLYING,CF1-J,0:/Integrated Flight Computer/aircraft/cf1_j_cfg.ks (inferred preloaded)
26.98,APPROACH,FLY_TO_FIX,88.03,85,-3.03,1396.5,-0.53,5.2,5.52,280.97,0.177,0,0,-5.738,1,0.6,4.5,1.008,0.35,0.0168,0.4,4.651,49.586,4.651,3.048,1,281.17,-0.093,0,0,-0.34,0.2,0,-0.09,281.17,0,0,0,0,0,0,0,47.232,0,0,0,3,0,0,0,2549.61,0,0,0,268.9,0,0,0,0,0,0,0,0,0,0,0,0,0,0,0,0,0,VALID,0,0,0,0,0,1,0,0,0,0,0,0,0,0,0,0,0,0,0,0,0.05,370.78,2,0,0.1,0.1,298,10.71,0.1,0.08,26.98,FLYING,CF1-J,0:/Integrated Flight Computer/aircraft/cf1_j_cfg.ks (inferred preloaded)
27.24,APPROACH,FLY_TO_FIX,87.8,85,-2.8,1396.37,-0.53,5.25,5.56,280.97,0.171,0.0036,0,-6.49,1,0.6,4.5,1.004,0.35,0.0168,0.4,3.963,49.655,3.963,2.817,1,281.17,-0.093,0,0,-0.34,0.2,0,-0.09,281.17,0,0,0,0,0,0,0,47.207,0,0,0,3,0,0,0,2548.3,0,0,0,268.9,0,0,0,0,0,0,0,0,0,0,0,0,0,0,0,0,0,VALID,0,0,0,0,0,1,0,0,0,0,0,0,0,0,0,0,0,0,0,0,0.05,370.93,2,0,0.08,0.08,301,11.54,0.1,0.08,27.24,FLYING,CF1-J,0:/Integrated Flight Computer/aircraft/cf1_j_cfg.ks (inferred preloaded)
27.52,APPROACH,FLY_TO_FIX,87.55,85,-2.55,1396.23,-0.52,5.3,5.61,280.97,0.164,0.0094,0,-7.232,1,0.6,4.5,1.001,0.35,0.0168,0.4,3.218,49.73,3.218,2.568,1,281.17,-0.093,0,0,-0.34,0.2,0,-0.09,281.17,0,0,0,0,0,0,0,47.18,0,0,0,3,0,0,0,2546.9,0,0,0,268.9,0,0,0,0,0,0,0,0,0,0,0,0,0,0,0,0,0,VALID,0,0,0,0,0,1,0,0,0,0,0,0,0,0,0,0,0,0,0,0,0.08,371.1,2,0,0.1,0.1,304,10.71,0.1,0.08,27.52,FLYING,CF1-J,0:/Integrated Flight Computer/aircraft/cf1_j_cfg.ks (inferred preloaded)
27.78,APPROACH,FLY_TO_FIX,87.32,85,-2.32,1396.1,-0.52,5.35,5.66,280.98,0.159,0.0158,0,-7.859,1,0.6,4.5,0.998,0.35,0.0168,0.4,2.523,49.799,2.523,2.336,1,281.17,-0.093,0,0,-0.34,0.2,0,-0.09,281.17,0,0,0,0,0,0,0,47.155,0,0,0,3,0,0,0,2545.6,0,0,0,268.9,0,0,0,0,0,0,0,0,0,0,0,0,0,0,0,0,0,VALID,0,0,0,0,0,1,0,0,0,0,0,0,0,0,0,0,0,0,0,0,0.15,371.25,2,0,0.08,0.08,307,11.54,0.1,0.08,27.78,FLYING,CF1-J,0:/Integrated Flight Computer/aircraft/cf1_j_cfg.ks (inferred preloaded)
28.06,APPROACH,FLY_TO_FIX,87.07,85,-2.07,1395.97,-0.52,5.4,5.71,280.98,0.153,0.0237,0,-8.467,1,0.6,4.5,0.996,0.35,0.0168,0.4,1.771,49.874,1.771,2.086,1,281.17,-0.092,0,0,-0.34,0.19,0,-0.09,281.17,0,0,0,0,0,0,0,47.129,0,0,0,3,0,0,0,2544.2,0,0,0,268.9,0,0,0,0,0,0,0,0,0,0,0,0,0,0,0,0,0,VALID,0,0,0,0,0,1,0,0,0,0,0,0,0,0,0,0,0,0,0,0,0.25,371.41,2,0,0.1,0.1,310,10.71,0.1,0.08,28.06,FLYING,CF1-J,0:/Integrated Flight Computer/aircraft/cf1_j_cfg.ks (inferred preloaded)
28.32,APPROACH,FLY_TO_FIX,86.84,85,-1.84,1395.84,-0.52,5.44,5.75,280.98,0.148,0.032,0,-8.969,1,0.6,4.5,0.995,0.35,0.0168,0.4,1.07,49.944,1.07,1.853,1,281.17,-0.092,0,0,-0.34,0.19,0,-0.09,281.17,0,0,0,0,0,0,0,47.104,0,0,0,3,0,0,0,2542.9,0,0,0,268.9,0,0,0,0,0,0,0,0,0,0,0,0,0,0,0,0,0,VALID,0,0,0,0,0,1,0,0,0,0,0,0,0,0,0,0,0,0,0,0,0.4,371.57,2,0,0.08,0.08,313,11.54,0.1,0.08,28.32,FLYING,CF1-J,0:/Integrated Flight Computer/aircraft/cf1_j_cfg.ks (inferred preloaded)
28.6,APPROACH,FLY_TO_FIX,86.59,85,-1.59,1395.7,-0.52,5.5,5.81,280.98,0.144,0.0419,0,-9.441,1,0.6,4.5,0.993,0.35,0.0168,0.4,0.312,50.019,0.312,1.603,1,281.17,-0.092,0,0,-0.34,0.19,0,-0.09,281.17,0,0,0,0,0,0,0,47.077,0,0,0,3,0,0,0,2541.51,0,0,0,268.9,0,0,0,0,0,0,0,0,0,0,0,0,0,0,0,0,0,VALID,0,0,0,0,0,1,0,0,0,0,0,0,0,0,0,0,0,0,0,0,0.61,371.73,2,0,0.1,0.1,316,10.71,0.1,0.08,28.6,FLYING,CF1-J,0:/Integrated Flight Computer/aircraft/cf1_j_cfg.ks (inferred preloaded)
28.86,APPROACH,FLY_TO_FIX,86.35,85,-1.35,1395.58,-0.52,5.54,5.85,280.99,0.14,0.0518,0,-9.817,1,0.6,4.5,0.992,0.35,0.0168,0.4,0,50.089,0,1.371,0,281.17,-0.092,0,0,-0.34,0.19,0,-0.09,281.17,0,0,0,0,0,0,0,47.053,0,0,0,3,0,0,0,2540.22,0,0,0,268.9,0,0,0,0,0,0,0,0,0,0,0,0,0,0,0,0,0,VALID,0,0,0,0,0,1,0,0,0,0,0,0,0,0,0,0,0,0,0,0,0.85,371.89,2,0,0.08,0.08,319,11.54,0.1,0.08,28.86,FLYING,CF1-J,0:/Integrated Flight Computer/aircraft/cf1_j_cfg.ks (inferred preloaded)
29.14,APPROACH,FLY_TO_FIX,86.1,85,-1.1,1395.44,-0.51,5.6,5.9,280.99,0.136,0.0635,0,-10.154,1,0.6,4.5,0.991,0.35,0.0168,0.4,0,50.164,0,1.121,0,281.17,-0.092,0,0,-0.34,0.18,0,-0.09,281.17,0,0,0,0,0,0,0,47.026,0,0,0,3,0,0,0,2538.84,0,0,0,268.9,0,0,0,0,0,0,0,0,0,0,0,0,0,0,0,0,0,VALID,0,0,0,0,0,1,0,0,0,0,0,0,0,0,0,0,0,0,0,0,1.18,372.05,2,0,0.1,0.1,322,10.71,0.1,0.08,29.14,FLYING,CF1-J,0:/Integrated Flight Computer/aircraft/cf1_j_cfg.ks (inferred preloaded)
29.4,APPROACH,FLY_TO_FIX,85.87,85,-0.87,1395.31,-0.51,5.64,5.95,280.99,0.133,0.0754,0,-10.405,1,0.6,4.5,0.99,0.35,0.0168,0.4,0,50.233,0,0.889,0,281.17,-0.091,0,0,-0.34,0.18,0,-0.09,281.17,0,0,0,0,0,0,0,47.002,0,0,0,3,0,0,0,2537.56,0,0,0,268.9,0,0,0,0,0,0,0,0,0,0,0,0,0,0,0,0,0,VALID,0,0,0,0,0,1,0,0,0,0,0,0,0,0,0,0,0,0,0,0,1.54,372.2,2,0,0.08,0.08,325,11.54,0.1,0.08,29.4,FLYING,CF1-J,0:/Integrated Flight Computer/aircraft/cf1_j_cfg.ks (inferred preloaded)
29.68,APPROACH,FLY_TO_FIX,85.62,85,-0.62,1395.18,-0.51,5.69,6,280.99,0.129,0.089,0,-10.608,1,0.6,4.5,0.99,0.35,0.0168,0.4,0,50.308,0,0.64,0,281.17,-0.091,0,0,-0.34,0.18,0,-0.09,281.17,0,0,0,0,0,0,0,46.976,0,0,0,3,0,0,0,2536.19,0,0,0,268.9,0,0,0,0,0,0,0,0,0,0,0,0,0,0,0,0,0,VALID,0,0,0,0,0,1,0,0,0,0,0,0,0,0,0,0,0,0,0,0,2.01,372.37,2,0,0.1,0.1,328,10.71,0.1,0.08,29.68,FLYING,CF1-J,0:/Integrated Flight Computer/aircraft/cf1_j_cfg.ks (inferred preloaded)
29.94,APPROACH,FLY_TO_FIX,85.39,85,-0.39,1395.05,-0.51,5.74,6.05,281,0.127,0.1022,0,-10.734,1,0.6,4.5,0.99,0.35,0.0168,0.4,0,50.377,0,0.409,0,281.17,-0.091,0,0,-0.34,0.18,0,-0.09,281.17,0,0,0,0,0,0,0,46.951,0,0,0,3,0,0,0,2534.91,0,0,0,268.9,0,0,0,0,0,0,0,0,0,0,0,0,0,0,0,0,0,VALID,0,0,0,0,0,1,0,0,0,0,0,0,0,0,0,0,0,0,0,0,2.51,372.52,2,0,0.08,0.08,331,11.54,0.1,0.08,29.94,FLYING,CF1-J,0:/Integrated Flight Computer/aircraft/cf1_j_cfg.ks (inferred preloaded)
30.22,APPROACH,FLY_TO_FIX,85.14,85,-0.14,1394.92,-0.51,5.8,6.1,281,0.123,0.1173,0,-10.802,1,0.6,4.5,0.99,0.35,0.0168,0.4,0,50.451,0,0.162,0,281.17,-0.092,0,0,-0.34,0.17,0,-0.09,281.17,0,0,0,0,0,0,0,46.925,0,0,0,3,0,0,0,2533.54,0,0,0,268.9,0,0,0,0,0,0,0,0,0,0,0,0,0,0,0,0,0,VALID,0,0,0,0,0,1,0,0,0,0,0,0,0,0,0,0,0,0,0,0,3.13,372.68,2,0,0.1,0.1,334,10.71,0.1,0.08,30.22,FLYING,CF1-J,0:/Integrated Flight Computer/aircraft/cf1_j_cfg.ks (inferred preloaded)
30.48,APPROACH,FLY_TO_FIX,84.92,85,0.08,1394.8,-0.51,5.84,6.15,281,0.121,0.1317,0,-10.804,1,0.6,4.5,0.99,0.35,0.0168,0.4,0,50.52,0,-0.066,0,281.17,-0.092,0,0,-0.34,0.17,0,-0.09,281.17,0,0,0,0,0,0,0,46.901,0,0,0,3,0,0,0,2532.28,0,0,0,268.9,0,0,0,0,0,0,0,0,0,0,0,0,0,0,0,0,0,VALID,0,0,0,0,0,1,0,0,0,0,0,0,0,0,0,0,0,0,0,0,3.78,372.84,2,0,0.08,0.08,337,11.54,0.1,0.08,30.48,FLYING,CF1-J,0:/Integrated Flight Computer/aircraft/cf1_j_cfg.ks (inferred preloaded)
30.76,APPROACH,FLY_TO_FIX,84.67,85,0.33,1394.66,-0.5,5.89,6.2,281,0.117,0.1478,0,-10.74,1,0.6,4.5,0.99,0.35,0.0168,0.4,0,50.593,0,-0.31,0,281.17,-0.091,0,0,-0.34,0.17,0,-0.09,281.17,0,0,0,0,0,0,0,46.875,0,0,0,3,0,0,0,2530.92,0,0,0,268.9,0,0,0,0,0,0,0,0,0,0,0,0,0,0,0,0,0,VALID,0,0,0,0,0,1,0,0,0,0,0,0,0,0,0,0,0,0,0,0,4.56,373,2,0,0.1,0.1,340,10.71,0.1,0.08,30.76,FLYING,CF1-J,0:/Integrated Flight Computer/aircraft/cf1_j_cfg.ks (inferred preloaded)
31.02,APPROACH,FLY_TO_FIX,84.45,85,0.55,1394.54,-0.5,5.94,6.25,281.01,0.116,0.1631,0,-10.621,1,0.6,4.5,0.99,0.35,0.0168,0.4,0,50.66,0,-0.534,0,281.17,-0.091,0,0,-0.34,0.17,0,-0.09,281.17,0,0,0,0,0,0,0,46.851,0,0,0,3,0,0,0,2529.66,0,0,0,268.9,0,0,0,0,0,0,0,0,0,0,0,0,0,0,0,0,0,VALID,0,0,0,0,0,1,0,0,0,0,0,0,0,0,0,0,0,0,0,0,5.37,373.14,2,0,0.08,0.08,343,11.54,0.1,0.08,31.02,FLYING,CF1-J,0:/Integrated Flight Computer/aircraft/cf1_j_cfg.ks (inferred preloaded)
31.3,APPROACH,FLY_TO_FIX,84.21,85,0.79,1394.41,-0.5,5.99,6.3,281.01,0.113,0.1801,0,-10.426,1,0.6,4.5,0.99,0.35,0.0168,0.4,0,50.732,0,-0.773,0,281.17,-0.091,0,0,-0.34,0.17,0,-0.09,281.17,0,0,0,0,0,0,0,46.825,0,0,0,3,0,0,0,2528.3,0,0,0,268.9,0,0,0,0,0,0,0,0,0,0,0,0,0,0,0,0,0,VALID,0,0,0,0,0,1,0,0,0,0,0,0,0,0,0,0,0,0,0,0,6.33,373.3,2,0,0.1,0.1,346,10.71,0.1,0.08,31.3,FLYING,CF1-J,0:/Integrated Flight Computer/aircraft/cf1_j_cfg.ks (inferred preloaded)
31.56,APPROACH,FLY_TO_FIX,83.99,85,1.01,1394.29,-0.5,6.04,6.35,281.01,0.111,0.196,0,-10.187,1,0.6,4.5,0.99,0.35,0.0168,0.4,0,50.797,0,-0.991,0,281.17,-0.09,0,0,-0.34,0.17,0,-0.09,281.17,0,0,0,0,0,0,0,46.801,0,0,0,3,0,0,0,2527.05,0,0,0,268.9,0,0,0,0,0,0,0,0,0,0,0,0,0,0,0,0,0,VALID,0,0,0,0,0,1,0,0,0,0,0,0,0,0,0,0,0,0,0,0,7.3,373.45,2,0,0.08,0.08,349,11.54,0.1,0.08,31.56,FLYING,CF1-J,0:/Integrated Flight Computer/aircraft/cf1_j_cfg.ks (inferred preloaded)
31.84,APPROACH,FLY_TO_FIX,83.76,85,1.24,1394.16,-0.5,6.09,6.4,281.01,0.109,0.2137,0,-9.866,1,0.6,4.5,0.99,0.35,0.0168,0.4,0,50.867,0,-1.223,0,281.18,-0.09,0,0,-0.34,0.16,0,-0.09,281.17,0,0,0,0,0,0,0,46.776,0,0,0,3,0,0,0,2525.71,0,0,0,268.9,0,0,0,0,0,0,0,0,0,0,0,0,0,0,0,0,0,VALID,0,0,0,0,0,1,0,0,0,0,0,0,0,0,0,0,0,0,0,0,8.43,373.6,2,0,0.1,0.1,352,10.71,0.1,0.08,31.84,FLYING,CF1-J,0:/Integrated Flight Computer/aircraft/cf1_j_cfg.ks (inferred preloaded)
32.1,APPROACH,FLY_TO_FIX,83.55,85,1.45,1394.03,-0.5,6.13,6.44,281.01,0.107,0.23,0,-9.511,1,0.6,4.5,0.99,0.35,0.0168,0.4,0,50.93,0,-1.435,0,281.18,-0.091,0,0,-0.34,0.16,0,-0.09,281.18,0,0,0,0,0,0,0,46.752,0,0,0,3,0,0,0,2524.46,0,0,0,268.9,0,0,0,0,0,0,0,0,0,0,0,0,0,0,0,0,0,VALID,0,0,0,0,0,1,0,0,0,0,0,0,0,0,0,0,0,0,0,0,9.56,373.74,2,0,0.08,0.08,355,11.54,0.1,0.08,32.1,FLYING,CF1-J,0:/Integrated Flight Computer/aircraft/cf1_j_cfg.ks (inferred preloaded)
32.38,APPROACH,FLY_TO_FIX,83.33,85,1.67,1393.9,-0.49,6.18,6.49,281.02,0.105,0.248,0,-9.068,1,0.6,4.5,0.99,0.35,0.0168,0.4,0,50.998,0,-1.658,0,281.18,-0.091,0,0,-0.34,0.16,0,-0.09,281.18,0,0,0,0,0,0,0,46.726,0,0,0,3,0,0,0,2523.12,0,0,0,268.9,0,0,0,0,0,0,0,0,0,0,0,0,0,0,0,0,0,VALID,0,0,0,0,0,1,0,0,0,0,0,0,0,0,0,0,0,0,0,0,10.87,373.89,2,0,0.1,0.1,358,10.71,0.1,0.08,32.38,FLYING,CF1-J,0:/Integrated Flight Computer/aircraft/cf1_j_cfg.ks (inferred preloaded)
32.64,APPROACH,FLY_TO_FIX,83.12,85,1.88,1393.78,-0.49,6.22,6.53,281.02,0.102,0.2645,0,-8.601,1,0.6,4.5,0.99,0.35,0.0168,0.4,0,51.058,0,-1.861,0,281.18,-0.09,0,0,-0.34,0.16,0,-0.09,281.18,0,0,0,0,0,0,0,46.703,0,0,0,3,0,0,0,2521.88,0,0,0,268.9,0,0,0,0,0,0,0,0,0,0,0,0,0,0,0,0,0,VALID,0,0,0,0,0,1,0,0,0,0,0,0,0,0,0,0,0,0,0,0,12.16,374.02,2,0,0.08,0.08,361,11.54,0.1,0.08,32.64,FLYING,CF1-J,0:/Integrated Flight Computer/aircraft/cf1_j_cfg.ks (inferred preloaded)
32.92,APPROACH,FLY_TO_FIX,82.91,85,2.09,1393.65,-0.49,6.27,6.57,281.02,0.1,0.2827,0,-8.04,1,0.6,4.5,0.99,0.35,0.0168,0.4,0,51.122,0,-2.074,0,281.18,-0.09,0,0,-0.34,0.16,0,-0.09,281.18,0,0,0,0,0,0,0,46.677,0,0,0,3,0,0,0,2520.55,0,0,0,268.9,0,0,0,0,0,0,0,0,0,0,0,0,0,0,0,0,0,VALID,0,0,0,0,0,1,0,0,0,0,0,0,0,0,0,0,0,0,0,0,13.65,374.16,2,0,0.1,0.1,364,10.71,0.1,0.08,32.92,FLYING,CF1-J,0:/Integrated Flight Computer/aircraft/cf1_j_cfg.ks (inferred preloaded)
33.18,APPROACH,FLY_TO_FIX,82.72,85,2.28,1393.53,-0.49,6.31,6.62,281.02,0.099,0.2991,0,-7.467,1,0.6,4.5,0.99,0.35,0.0168,0.4,0,51.18,0,-2.267,0,281.18,-0.09,0,0,-0.34,0.16,0,-0.09,281.18,0,0,0,0,0,0,0,46.654,0,0,0,3,0,0,0,2519.31,0,0,0,268.9,0,0,0,0,0,0,0,0,0,0,0,0,0,0,0,0,0,VALID,0,0,0,0,0,1,0,0,0,0,0,0,0,0,0,0,0,0,0,0,15.1,374.29,2,0,0.08,0.08,367,11.54,0.1,0.08,33.18,FLYING,CF1-J,0:/Integrated Flight Computer/aircraft/cf1_j_cfg.ks (inferred preloaded)
33.46,APPROACH,FLY_TO_FIX,82.52,85,2.48,1393.4,-0.49,6.35,6.66,281.02,0.098,0.3173,0,-6.794,1,0.6,4.5,0.99,0.35,0.0168,0.4,0,51.24,0,-2.468,0,281.18,-0.09,0,0,-0.34,0.15,0,-0.09,281.18,0,0,0,0,0,0,0,46.629,0,0,0,3,0,0,0,2517.99,0,0,0,268.9,0,0,0,0,0,0,0,0,0,0,0,0,0,0,0,0,0,VALID,0,0,0,0,0,1,0,0,0,0,0,0,0,0,0,0,0,0,0,0,16.75,374.43,2,0,0.1,0.1,370,10.71,0.1,0.08,33.46,FLYING,CF1-J,0:/Integrated Flight Computer/aircraft/cf1_j_cfg.ks (inferred preloaded)
33.72,APPROACH,FLY_TO_FIX,82.34,85,2.66,1393.28,-0.48,6.39,6.7,281.02,0.096,0.3334,0,-6.121,1,0.6,4.5,0.99,0.35,0.0168,0.4,0,51.295,0,-2.649,0,281.18,-0.09,0,0,-0.34,0.15,0,-0.09,281.18,0,0,0,0,0,0,0,46.605,0,0,0,3,0,0,0,2516.76,0,0,0,268.9,0,0,0,0,0,0,0,0,0,0,0,0,0,0,0,0,0,VALID,0,0,0,0,0,1,0,0,0,0,0,0,0,0,0,0,0,0,0,0,18.36,374.55,2,0,0.08,0.08,373,11.54,0.1,0.08,33.72,FLYING,CF1-J,0:/Integrated Flight Computer/aircraft/cf1_j_cfg.ks (inferred preloaded)
34,APPROACH,FLY_TO_FIX,82.15,85,2.85,1393.15,-0.48,6.43,6.73,281.03,0.093,0.3512,0,-5.344,1,0.6,4.5,0.99,0.35,0.0168,0.4,0,51.351,0,-2.836,0,281.18,-0.09,0,0,-0.34,0.15,0,-0.09,281.18,0,0,0,0,0,0,0,46.58,0,0,0,3,0,0,0,2515.44,0,0,0,268.9,0,0,0,0,0,0,0,0,0,0,0,0,0,0,0,0,0,VALID,0,0,0,0,0,1,0,0,0,0,0,0,0,0,0,0,0,0,0,0,20.17,374.67,2,0,0.1,0.1,376,10.71,0.1,0.08,34,FLYING,CF1-J,0:/Integrated Flight Computer/aircraft/cf1_j_cfg.ks (inferred preloaded)
