t_s,phase,subphase,ias_ms,vapp_ms,spd_err_ms,agl_m,vs_ms,pitch_deg,aoa_deg,hdg_deg,bank_deg,thr_cmd,thr_cur,thr_intg,at_gain,at_tau_s,at_a_up,at_a_dn,at_kp_thr,at_ki_spd,at_thr_slew,aa_hdg_cmd_deg,aa_fpa_cmd_deg,aa_fbw,aa_dir,actual_fpa_deg,ftf_hdg_err_deg,ftf_fix_idx,kos_steer_pit_deg,ils_loc_m,ils_gs_m,ils_dist_km,loc_corr_deg,gs_corr_deg,flare_fpa_cmd,flare_tgt_vs,flare_frac,steer_hdg_deg,steer_blend,ro_loc_corr_deg,ro_hdg_err_deg,ro_yaw_tgt,ro_yaw_scale,ro_yaw_gate,yaw_cmd,roll_cmd,pitch_cmd,ro_pitch_tgt_deg,ro_pitch_err_deg,ro_pitch_ff,ro_roll_assist,flaps_cur,flaps_tgt,asc_j_ab,asc_j_rk,asc_validity,asc_q_pa,asc_q_raw_pa,asc_mach,asc_apo_m,asc_drag_n,asc_w_prop,asc_edot_aero,asc_edot_orb,asc_pitch_bias,asc_blend,asc_spooling,asc_ab_thr_ratio,asc_ab_t_now,asc_ab_t_avail,asc_ab_ign_on,asc_ab_flameouts,asc_rk_t_now,asc_rk_t_avail,asc_rk_ign_on,asc_rk_flameouts,ship_thrust,ship_avail_thrust,ship_ign_on,ship_flameouts,ifc_raw_dt_s,ifc_dt_s,ifc_loop_n,ifc_hz_est,ifc_raw_dt_max_s,ifc_raw_dt_min_s,phase_el_s,status
1.22,APPROACH,FLY_TO_FIX,232.66,140.8,-91.86,1341.29,2.51,5.77,5.61,267.53,-4.305,0,0,0,1,0.6,0.9,0.75,0.35,0.0168,0.4,256.14,0.007,1,0,0.67,11.4,0,-0.02,0,0,55.336,0,0,0,0,0,267.7,0,0,0,0,0,0,0,0,0,0,0,0,0,0,0,0,0,VALID,0,0,0,0,0,1,0,0,0,0,0,0,0,0,0,0,0,0,0,0,273.53,3753.6,6,0,0.94,0.5,1,1.89,0.94,0.02,1.28,FLYING
1.98,APPROACH,FLY_TO_FIX,230.62,141.6,-89.02,1350.79,6.94,10.43,14.29,266.7,-4.169,0,0,0,1,0.6,1.357,0.75,0.35,0.0168,0.4,256.05,-0.03,0,1,0.77,10.65,0,-0.04,0,0,55.151,0,0,0,0,0,267.7,0,0,0,0,0,0,0,0,0,0,0,0,0,0,0,0,0,VALID,0,0,0,0,0,1,0,0,0,0,0,0,0,0,0,0,0,0,0,0,206.47,3731.57,6,0,0.72,0.5,2,1.32,0.94,0.72,2.04,FLYING
2.76,APPROACH,FLY_TO_FIX,223.2,142.4,-80.8,1368.18,22.74,21.61,19.21,264.13,-4.325,0.2,0,-20,1,0.6,1.939,0.823,0.35,0.0168,0.4,255.97,-0.11,0,1,4.03,8.16,0,-0.06,0,0,54.964,0,0,0,0,0,267.7,0,0,0,0,0,0,0,0,0,0,0,0,0,0,0,0,0,VALID,0,0,0,0,0,1,0,0,0,0,0,0,0,0,0,0,0,0,0,0,152.11,3646.64,6,0,0.78,0.5,3,1.28,0.78,0.72,2.82,FLYING
3.5,APPROACH,FLY_TO_FIX,214.03,143.2,-70.83,1393.41,37.33,27.03,19.58,262.01,-4.648,0.4,0,-20,1,0.6,2.453,0.823,0.35,0.0168,0.4,255.89,-0.226,0,1,8.19,6.12,0,-0.07,0,0,54.793,0,0,0,0,0,267.7,0,0,0,0,0,0,0,0,0,0,0,0,0,0,0,0,0,VALID,0,0,0,0,0,1,0,0,0,0,0,0,0,0,0,0,0,0,0,0,221.81,3535.84,6,0,0.74,0.5,4,1.35,0.78,0.74,3.54,FLYING
4.24,APPROACH,FLY_TO_FIX,205.16,144,-61.16,1428.01,49.58,30.68,19.58,260.43,-4.88,0.6,0,-20,1,0.6,2.905,0.823,0.35,0.0168,0.4,255.82,-0.389,0,1,12.04,4.61,0,-0.09,0,0,54.63,0,0,0,0,0,267.7,0,0,0,0,0,0,0,0,0,0,0,0,0,0,0,0,0,VALID,0,0,0,0,0,1,0,0,0,0,0,0,0,0,0,0,0,0,0,0,371.76,3424.46,6,0,0.74,0.5,5,1.35,0.74,0.74,4.28,FLYING
4.98,APPROACH,FLY_TO_FIX,196.79,144.8,-51.99,1470.76,59.9,34.12,19.58,259.39,-4.923,0.8,0,-20,1,0.6,3.301,0.823,0.35,0.0168,0.4,255.76,-0.594,0,1,15.54,3.63,0,-0.1,0,0,54.475,0,0,0,0,0,267.7,0,0,0,0,0,0,0,0,0,0,0,0,0,0,0,0,0,VALID,0,0,0,0,0,1,0,0,0,0,0,0,0,0,0,0,0,0,0,0,582.55,3316.28,6,0,0.74,0.5,6,1.35,0.74,0.74,5.02,FLYING
5.72,APPROACH,FLY_TO_FIX,189.01,145.6,-43.41,1520.35,68.68,37.41,19.59,258.98,-4.657,1,0,-20,1,0.6,3.645,0.823,0.35,0.0168,0.4,255.7,-0.836,0,1,18.71,3.28,0,-0.12,0,0,54.328,0,0,0,0,0,267.7,0,0,0,0,0,0,0,0,0,0,0,0,0,0,0,0,0,VALID,0,0,0,0,0,1,0,0,0,0,0,0,0,0,0,0,0,0,0,0,839.09,3213.6,6,0,0.74,0.5,7,1.35,0.74,0.74,5.76,FLYING
6.46,APPROACH,FLY_TO_FIX,181.88,146.4,-35.48,1575.77,76.23,40.51,19.59,258.56,-4.473,1,0,-20,1,0.6,3.944,0.823,0.35,0.0168,0.4,255.64,-1.107,0,1,21.59,2.92,0,-0.13,0,0,54.188,0,0,0,0,0,267.7,0,0,0,0,0,0,0,0,0,0,0,0,0,0,0,0,0,VALID,0,0,0,0,0,1,0,0,0,0,0,0,0,0,0,0,0,0,0,0,1129.89,3118.25,6,0,0.74,0.5,8,1.35,0.74,0.74,6.5,FLYING
7.2,APPROACH,FLY_TO_FIX,175.37,147.2,-28.17,1636.23,82.75,43.45,19.59,258.14,-4.289,1,0,-20,1,0.6,4.202,0.823,0.35,0.0168,0.4,255.59,-1.404,0,1,24.22,2.56,0,-0.14,0,0,54.055,0,0,0,0,0,267.7,0,0,0,0,0,0,0,0,0,0,0,0,0,0,0,0,0,VALID,0,0,0,0,0,1,0,0,0,0,0,0,0,0,0,0,0,0,0,0,1364.59,3030.26,6,0,0.74,0.5,9,1.35,0.74,0.74,7.24,FLYING
7.96,APPROACH,FLY_TO_FIX,169.19,148,-21.19,1702.82,88.5,46.33,19.59,257.69,-4.139,1,0,-20,1,0.6,4.424,0.823,0.35,0.0168,0.4,255.54,-1.732,0,1,26.67,2.16,0,-0.16,0,0,53.926,0,0,0,0,0,267.7,0,0,0,0,0,0,0,0,0,0,0,0,0,0,0,0,0,VALID,0,0,0,0,0,1,0,0,0,0,0,0,0,0,0,0,0,0,0,0,1555.79,2946.2,6,0,0.76,0.5,10,1.32,0.76,0.74,8,FLYING
8.72,APPROACH,FLY_TO_FIX,163.41,148.8,-14.61,1773.31,93.4,49.06,19.59,257.21,-4.046,1,0,-20,1,0.6,4.5,0.823,0.35,0.0168,0.4,255.49,-2.081,0,1,28.9,1.72,0,-0.17,0,0,53.804,0,0,0,0,0,267.7,0,0,0,0,0,0,0,0,0,0,0,0,0,0,0,0,0,VALID,0,0,0,0,0,1,0,0,0,0,0,0,0,0,0,0,0,0,0,0,1705.59,2867.38,6,0,0.76,0.5,11,1.32,0.76,0.76,8.76,FLYING
9.48,APPROACH,FLY_TO_FIX,157.94,149,-8.94,1847.09,97.51,51.67,19.59,256.69,-3.962,1,0,-20,1,0.6,4.5,0.823,0.35,0.0168,0.4,255.45,-2.447,0,1,30.92,1.24,0,-0.18,0,0,53.688,0,0,0,0,0,267.7,0,0,0,0,0,0,0,0,0,0,0,0,0,0,0,0,0,VALID,0,0,0,0,0,1,0,0,0,0,0,0,0,0,0,0,0,0,0,0,1821.37,2792.86,6,0,0.76,0.5,12,1.32,0.76,0.76,9.52,FLYING
10.24,APPROACH,FLY_TO_FIX,152.73,149,-3.73,1923.59,100.91,54.15,19.59,256.15,-3.887,1,0,-20,1,0.6,4.5,0.823,0.35,0.0168,0.4,255.4,-2.826,0,1,32.76,0.74,0,-0.19,0,0,53.579,0,0,0,0,0,267.7,0,0,0,0,0,0,0,0,0,0,0,0,0,0,0,0,0,VALID,0,0,0,0,0,1,0,0,0,0,0,0,0,0,0,0,0,0,0,0,1909.13,2721.97,6,0,0.76,0.5,13,1.32,0.76,0.76,10.28,FLYING
11,APPROACH,FLY_TO_FIX,147.72,149,1.28,2002.32,103.65,56.52,19.59,255.55,-3.849,1,0,-19.9,1,0.6,4.5,0.823,0.35,0.0168,0.4,255.37,-3.218,0,1,34.42,0.19,0,-0.2,0,0,53.476,0,0,0,0,0,267.7,0,0,0,0,0,0,0,0,0,0,0,0,0,0,0,0,0,VALID,0,0,0,0,0,1,0,0,0,0,0,0,0,0,0,0,0,0,0,0,1973.8,2654.19,6,0,0.76,0.5,14,1.32,0.76,0.76,11.04,FLYING
11.76,APPROACH,FLY_TO_FIX,142.88,149,6.12,2082.78,105.77,58.77,19.59,254.91,-3.826,1,0,-19.8,1,0.6,4.5,0.823,0.35,0.0168,0.4,255.33,-3.619,0,1,35.94,0.42,0,-0.21,0,0,53.378,0,0,0,0,0,267.7,0,0,0,0,0,0,0,0,0,0,0,0,0,0,0,0,0,VALID,0,0,0,0,0,1,0,0,0,0,0,0,0,0,0,0,0,0,0,0,2019.37,2589.09,6,0,0.76,0.5,15,1.32,0.76,0.76,11.8,FLYING
12.5,APPROACH,FLY_TO_FIX,138.3,149,10.7,2162.38,107.3,60.86,19.59,254.23,-3.803,1,0,-19.701,1,0.6,4.5,0.823,0.35,0.0168,0.4,255.3,-4.015,0,1,37.29,1.06,0,-0.22,0,0,53.289,0,0,0,0,0,267.7,0,0,0,0,0,0,0,0,0,0,0,0,0,0,0,0,0,VALID,0,0,0,0,0,1,0,0,0,0,0,0,0,0,0,0,0,0,0,0,2048.62,2528.02,6,0,0.74,0.5,16,1.35,0.76,0.74,12.54,FLYING
13.24,APPROACH,FLY_TO_FIX,133.83,149,15.17,2242.84,108.32,62.85,19.59,253.51,-3.785,1,0,-19.603,1,0.6,4.5,0.823,0.35,0.0168,0.4,255.27,-4.417,0,1,38.51,1.76,0,-0.23,0,0,53.204,0,0,0,0,0,267.7,0,0,0,0,0,0,0,0,0,0,0,0,0,0,0,0,0,VALID,0,0,0,0,0,1,0,0,0,0,0,0,0,0,0,0,0,0,0,0,2065.55,2469.03,6,0,0.74,0.5,17,1.35,0.74,0.74,13.28,FLYING
13.98,APPROACH,FLY_TO_FIX,129.45,149,19.55,2323.8,108.87,64.74,19.59,252.72,-3.788,1,0,-19.505,1,0.6,4.5,0.823,0.35,0.0168,0.4,255.24,-4.821,0,1,39.64,2.52,0,-0.23,0,0,53.125,0,0,0,0,0,267.7,0,0,0,0,0,0,0,0,0,0,0,0,0,0,0,0,0,VALID,0,0,0,0,0,1,0,0,0,0,0,0,0,0,0,0,0,0,0,0,2072.35,2411.98,6,0,0.74,0.5,18,1.35,0.74,0.74,14.02,FLYING
14.72,APPROACH,FLY_TO_FIX,125.17,149,23.83,2404.93,108.99,66.53,19.59,251.83,-3.81,1,0,-19.407,1,0.6,4.5,0.823,0.35,0.0168,0.4,255.21,-5.227,0,1,40.66,3.38,0,-0.24,0,0,53.05,0,0,0,0,0,267.7,0,0,0,0,0,0,0,0,0,0,0,0,0,0,0,0,0,VALID,0,0,0,0,0,1,0,0,0,0,0,0,0,0,0,0,0,0,0,0,2070.9,2356.84,6,0,0.74,0.5,19,1.35,0.74,0.74,14.76,FLYING
15.48,APPROACH,FLY_TO_FIX,120.85,149,28.15,2488.13,108.7,68.26,19.59,250.83,-3.843,1,0,-19.31,1,0.6,4.5,0.823,0.35,0.0168,0.4,255.19,-5.643,0,1,41.62,4.36,0,-0.25,0,0,52.978,0,0,0,0,0,267.7,0,0,0,0,0,0,0,0,0,0,0,0,0,0,0,0,0,VALID,0,0,0,0,0,1,0,0,0,0,0,0,0,0,0,0,0,0,0,0,2062.47,2302.12,6,0,0.76,0.5,20,1.32,0.76,0.74,15.52,FLYING
16.22,APPROACH,FLY_TO_FIX,116.71,149,32.29,2568.72,108.04,69.85,19.59,249.73,-3.892,1,0,-19.214,1,0.6,4.5,0.823,0.35,0.0168,0.4,255.16,-6,0,1,42.47,5.43,0,-0.26,0,0,52.912,0,0,0,0,0,267.7,0,0,0,0,0,0,0,0,0,0,0,0,0,0,0,0,0,VALID,0,0,0,0,0,1,0,0,0,0,0,0,0,0,0,0,0,0,0,0,2048.85,2250.68,6,0,0.74,0.5,21,1.35,0.76,0.74,16.26,FLYING
16.96,APPROACH,FLY_TO_FIX,112.64,149,36.36,2648.65,107.05,71.34,19.59,248.54,-3.937,1,0,-19.118,1,0.6,4.5,0.823,0.35,0.0168,0.4,255.14,-6,0,1,43.25,6.6,0,-0.26,0,0,52.85,0,0,0,0,0,267.7,0,0,0,0,0,0,0,0,0,0,0,0,0,0,0,0,0,VALID,0,0,0,0,0,1,0,0,0,0,0,0,0,0,0,0,0,0,0,0,2031.04,2201.06,6,0,0.74,0.5,22,1.39,0.74,0.74,17,FLYING
17.7,APPROACH,FLY_TO_FIX,108.63,149,40.37,2727.67,105.74,72.73,19.59,247.2,-3.994,1,0,-19.022,1,0.6,4.5,0.823,0.35,0.0168,0.4,255.13,-6,0,1,43.97,7.92,0,-0.27,0,0,52.792,0,0,0,0,0,267.7,0,0,0,0,0,0,0,0,0,0,0,0,0,0,0,0,0,VALID,0,0,0,0,0,1,0,0,0,0,0,0,0,0,0,0,0,0,0,0,2010.03,2153.27,6,0,0.74,0.5,23,1.39,0.74,0.74,17.74,FLYING
18.44,APPROACH,FLY_TO_FIX,104.68,149,44.32,2805.58,104.15,74.02,19.59,245.72,-4.061,1,0,-18.927,1,0.6,4.5,0.823,0.35,0.0168,0.4,255.11,-6,0,1,44.62,9.39,0,-0.27,0,0,52.737,0,0,0,0,0,267.7,0,0,0,0,0,0,0,0,0,0,0,0,0,0,0,0,0,VALID,0,0,0,0,0,1,0,0,0,0,0,0,0,0,0,0,0,0,0,0,1986.68,2107.4,6,0,0.74,0.5,24,1.39,0.74,0.74,18.48,FLYING
19.18,APPROACH,FLY_TO_FIX,100.79,149,48.21,2882.17,102.3,75.21,19.59,244.05,-4.144,1,0,-18.832,1,0.6,4.5,0.823,0.35,0.0168,0.4,255.09,-6,0,1,45.21,11.04,0,-0.28,0,0,52.686,0,0,0,0,0,267.7,0,0,0,0,0,0,0,0,0,0,0,0,0,0,0,0,0,VALID,0,0,0,0,0,1,0,0,0,0,0,0,0,0,0,0,0,0,0,0,1961.14,2062.85,6,0,0.74,0.5,25,1.39,0.74,0.74,19.22,FLYING
19.92,APPROACH,FLY_TO_FIX,96.96,149,52.04,2957.26,100.21,76.3,19.59,242.2,-4.237,1,0,-18.738,1,0.6,4.5,0.823,0.35,0.0168,0.4,255.08,-6,0,1,45.76,12.88,0,-0.28,0,0,52.638,0,0,0,0,0,267.7,0,0,0,0,0,0,0,0,0,0,0,0,0,0,0,0,0,VALID,0,0,0,0,0,1,0,0,0,0,0,0,0,0,0,0,0,0,0,0,1933.51,2019.19,6,0,0.74,0.5,26,1.39,0.74,0.74,19.96,FLYING
20.66,APPROACH,FLY_TO_FIX,93.18,149,55.82,3030.7,97.9,77.28,19.59,240.14,-4.345,1,0,-18.645,1,0.6,4.5,0.823,0.35,0.0168,0.4,255.06,-6,0,1,46.25,14.92,0,-0.29,0,0,52.593,0,0,0,0,0,267.7,0,0,0,0,0,0,0,0,0,0,0,0,0,0,0,0,0,VALID,0,0,0,0,0,1,0,0,0,0,0,0,0,0,0,0,0,0,0,0,1904.58,1976.75,6,0,0.74,0.5,27,1.39,0.74,0.74,20.7,FLYING
21.4,APPROACH,FLY_TO_FIX,89.46,149,59.54,3102.32,95.4,78.15,19.59,237.9,-4.462,1,0,-18.551,1,0.6,4.5,0.823,0.35,0.0168,0.4,255.05,-6,0,1,46.69,17.16,0,-0.29,0,0,52.551,0,0,0,0,0,267.7,0,0,0,0,0,0,0,0,0,0,0,0,0,0,0,0,0,VALID,0,0,0,0,0,1,0,0,0,0,0,0,0,0,0,0,0,0,0,0,1875.07,1935.88,6,0,0.74,0.5,28,1.39,0.74,0.74,21.44,FLYING
22.16,APPROACH,FLY_TO_FIX,85.69,149,63.31,3173.86,92.65,78.92,19.59,235.38,-4.601,1,0,-18.459,1,0.6,4.5,0.823,0.35,0.0168,0.4,255.04,-6,0,1,47.11,19.66,0,-0.29,0,0,52.511,0,0,0,0,0,267.7,0,0,0,0,0,0,0,0,0,0,0,0,0,0,0,0,0,VALID,0,0,0,0,0,1,0,0,0,0,0,0,0,0,0,0,0,0,0,0,1844.88,1895.91,6,0,0.76,0.5,29,1.32,0.76,0.74,22.2,FLYING
22.92,APPROACH,FLY_TO_FIX,81.98,149,67.02,3243.22,89.73,79.56,19.59,232.72,-4.756,1,0,-18.366,1,0.6,4.5,0.823,0.35,0.0168,0.4,255.03,-6,0,1,47.48,22.32,0,-0.3,0,0,52.473,0,0,0,0,0,267.7,0,0,0,0,0,0,0,0,0,0,0,0,0,0,0,0,0,VALID,0,0,0,0,0,1,0,0,0,0,0,0,0,0,0,0,0,0,0,0,1815.53,1858.39,6,0,0.76,0.5,30,1.35,0.76,0.76,22.96,FLYING
23.68,APPROACH,FLY_TO_FIX,78.32,149,70.68,3310.28,86.66,80.08,19.59,229.93,-4.932,1,0,-18.274,1,0.6,4.5,0.823,0.35,0.0168,0.4,255.02,-6,0,1,47.8,25.09,0,-0.3,0,0,52.437,0,0,0,0,0,267.7,0,0,0,0,0,0,0,0,0,0,0,0,0,0,0,0,0,VALID,0,0,0,0,0,1,0,0,0,0,0,0,0,0,0,0,0,0,0,0,1787.65,1823.69,6,0,0.76,0.5,31,1.35,0.76,0.76,23.72,FLYING
24.44,APPROACH,FLY_TO_FIX,74.73,149,74.27,3374.94,83.47,80.47,19.59,227.12,-5.133,1,0,-18.183,1,0.6,4.5,0.823,0.35,0.0168,0.4,255.02,-6,0,1,48.09,27.9,0,-0.3,0,0,52.403,0,0,0,0,0,267.7,0,0,0,0,0,0,0,0,0,0,0,0,0,0,0,0,0,VALID,0,0,0,0,0,1,0,0,0,0,0,0,0,0,0,0,0,0,0,0,1761.85,1792.22,6,0,0.76,0.5,32,1.35,0.76,0.76,24.48,FLYING
25.2,APPROACH,FLY_TO_FIX,71.2,149,77.8,3437.11,80.16,80.71,19.59,224.39,-5.362,1,0,-18.092,1,0.6,4.5,0.823,0.35,0.0168,0.4,255.01,-6,0,1,48.33,30.62,0,-0.31,0,0,52.372,0,0,0,0,0,267.7,0,0,0,0,0,0,0,0,0,0,0,0,0,0,0,0,0,VALID,0,0,0,0,0,1,0,0,0,0,0,0,0,0,0,0,0,0,0,0,1738.71,1764.36,6,0,0.76,0.5,33,1.35,0.76,0.76,25.24,FLYING
25.96,APPROACH,FLY_TO_FIX,67.74,149,81.26,3496.72,76.76,80.81,19.59,221.89,-5.618,1,0,-18.002,1,0.6,4.5,0.823,0.35,0.0168,0.4,255.01,-6,0,1,48.54,33.12,0,-0.31,0,0,52.342,0,0,0,0,0,267.7,0,0,0,0,0,0,0,0,0,0,0,0,0,0,0,0,0,VALID,0,0,0,0,0,1,0,0,0,0,0,0,0,0,0,0,0,0,0,0,1718.71,1740.44,6,0,0.76,0.5,34,1.35,0.76,0.76,26,FLYING
26.72,APPROACH,FLY_TO_FIX,64.35,149,84.65,3553.7,73.29,80.77,19.59,219.74,-5.908,1,0,-17.912,1,0.6,4.5,0.823,0.35,0.0168,0.4,255,-6,0,1,48.7,35.27,0,-0.31,0,0,52.314,0,0,0,0,0,267.7,0,0,0,0,0,0,0,0,0,0,0,0,0,0,0,0,0,VALID,0,0,0,0,0,1,0,0,0,0,0,0,0,0,0,0,0,0,0,0,1702.32,1720.8,6,0,0.76,0.5,35,1.35,0.76,0.76,26.76,FLYING
27.48,APPROACH,FLY_TO_FIX,61.04,149,87.96,3607.99,69.76,80.57,19.59,218.02,-6.24,1,0,-17.822,1,0.6,4.5,0.823,0.35,0.0168,0.4,255,-6,0,1,48.82,36.98,0,-0.32,0,0,52.288,0,0,0,0,0,267.7,0,0,0,0,0,0,0,0,0,0,0,0,0,0,0,0,0,VALID,0,0,0,0,0,1,0,0,0,0,0,0,0,0,0,0,0,0,0,0,1689.9,1705.68,6,0,0.76,0.5,36,1.35,0.76,0.76,27.52,FLYING
28.24,APPROACH,FLY_TO_FIX,57.81,149,91.19,3659.56,66.18,80.22,19.59,216.8,-6.621,1,0,-17.733,1,0.6,4.5,0.823,0.35,0.0168,0.4,255,-6,0,1,48.89,38.2,0,-0.32,0,0,52.262,0,0,0,0,0,267.7,0,0,0,0,0,0,0,0,0,0,0,0,0,0,0,0,0,VALID,0,0,0,0,0,1,0,0,0,0,0,0,0,0,0,0,0,0,0,0,1681.77,1695.31,6,0,0.76,0.5,37,1.35,0.76,0.76,28.28,FLYING
