t_s,phase,subphase,ias_ms,vapp_ms,spd_err_ms,agl_m,vs_ms,pitch_deg,aoa_deg,hdg_deg,bank_deg,thr_cmd,thr_cur,thr_intg,at_gain,at_tau_s,at_a_up,at_a_dn,at_kp_thr,at_ki_spd,at_thr_slew,aa_hdg_cmd_deg,aa_fpa_cmd_deg,aa_fbw,aa_dir,actual_fpa_deg,ftf_hdg_err_deg,ftf_fix_idx,kos_steer_pit_deg,kos_steer_hdg_deg,aa_dir_vx,aa_dir_vy,aa_dir_vz,aa_dir_pitch_deg,aa_dir_hdg_deg,ils_loc_m,ils_gs_m,ils_dist_km,loc_corr_deg,gs_corr_deg,flare_fpa_cmd,flare_tgt_vs,flare_frac,steer_hdg_deg,steer_blend,ro_loc_corr_deg,ro_hdg_err_deg,ro_yaw_tgt,ro_yaw_scale,ro_yaw_gate,yaw_cmd,roll_cmd,pitch_cmd,ro_pitch_tgt_deg,ro_pitch_err_deg,ro_pitch_ff,ro_roll_assist,flaps_cur,flaps_tgt,asc_j_ab,asc_j_rk,asc_validity,asc_q_pa,asc_q_raw_pa,asc_mach,asc_apo_m,asc_drag_n,asc_w_prop,asc_edot_aero,asc_edot_orb,asc_pitch_bias,asc_blend,asc_spooling,asc_ab_thr_ratio,asc_ab_t_now,asc_ab_t_avail,asc_ab_ign_on,asc_ab_flameouts,asc_rk_t_now,asc_rk_t_avail,asc_rk_ign_on,asc_rk_flameouts,ship_thrust,ship_avail_thrust,ship_ign_on,ship_flameouts,ifc_raw_dt_s,ifc_dt_s,ifc_loop_n,ifc_hz_est,ifc_raw_dt_max_s,ifc_raw_dt_min_s,phase_el_s,status,craft_name,cfg_file
0.1,APPROACH,ILS_TRACK,138.76,73,-65.76,1658.46,1.05,1.39,1,271.42,-0.108,0,0,0,0,0,0,0,0,0,0,0,0,1,0,0.44,0,0,0,90,0,0,0,0,0,0,0,44.442,0,0,0,0,0,271.42,0,0,0,0,0,0,0,0,0,0,0,0,0,0,0,0,0,VALID,0,0,0,0,0,1,0,0,0,0,0,0,0,0,0,0,0,0,0,0,0,351.62,2,0,0.1,0.1,1,3.7,0.1,0.02,0.1,FLYING,CF1-F,0:/Integrated Flight Computer/aircraft/cf1_f_cfg.ks (inferred preloaded)
0.38,APPROACH,ILS_TRACK,138.58,73,-65.58,1658.77,1.05,1.51,1.12,271.42,0.029,0,0,0,1,0.6,0.986,0.75,0.35,0.0168,0.4,269.84,-0.001,0,1,0.43,0,0,1.04,269.84,0.9827,-0.0028,-0.1851,1.1,269.84,-2.8,-738.27,44.402,-0.558,0,0,0,0,271.42,0,0,0,0,0,0,0,0,0,0,0,0,0,1,1,0,0,VALID,0,0,0,0,0,1,0,0,0,0,0,0,0,0,0,0,0,0,0,0,0,351.69,2,0,0.06,0.06,4,10.71,0.1,0.06,0.38,FLYING,CF1-F,0:/Integrated Flight Computer/aircraft/cf1_f_cfg.ks (inferred preloaded)
0.64,APPROACH,ILS_TRACK,138.41,73,-65.41,1659.08,1.19,1.6,1.16,271.42,-0.135,0,0,0,1,0.6,1.755,0.75,0.35,0.0168,0.4,269.79,-0.003,0,1,0.49,0,0,1.16,269.82,0.9829,-0.0037,-0.1841,1.16,269.79,-2.08,-735.87,44.362,-0.611,0,0,0,0,271.42,0,0,0,0,0,0,0,0,0,0,0,0,0,1,1,0,0,VALID,0,0,0,0,0,1,0,0,0,0,0,0,0,0,0,0,0,0,0,0,0,351.76,2,0,0.1,0.1,7,11.54,0.1,0.06,0.64,FLYING,CF1-F,0:/Integrated Flight Computer/aircraft/cf1_f_cfg.ks (inferred preloaded)
0.98,APPROACH,ILS_TRACK,138.13,73,-65.13,1659.52,1.36,1.63,1.13,271.25,-2.754,0,0,0,1,0.6,2.522,0.75,0.35,0.0168,0.4,269.77,-0.005,0,1,0.56,0,0,1.14,269.79,0.9828,-0.0041,-0.1848,1.13,269.77,-1.16,-732.7,44.31,-0.634,0,0,0,0,271.42,0,0,0,0,0,0,0,0,0,0,0,0,0,1,1,0,0,VALID,0,0,0,0,0,1,0,0,0,0,0,0,0,0,0,0,0,0,0,0,0,351.87,2,0,0.1,0.1,11,11.76,0.1,0.06,0.98,FLYING,CF1-F,0:/Integrated Flight Computer/aircraft/cf1_f_cfg.ks (inferred preloaded)
1.3,APPROACH,ILS_TRACK,137.89,73,-64.89,1659.98,1.5,1.63,1.08,271.15,-3.963,0,0,0,1,0.6,3.071,0.75,0.35,0.0168,0.4,269.79,-0.007,0,1,0.62,0,0,1.1,269.76,0.9826,-0.0036,-0.1857,1.08,269.79,-0.34,-729.67,44.261,-0.607,0,0,0,0,271.42,0,0,0,0,0,0,0,0,0,0,0,0,0,1,1,0,0,VALID,0,0,0,0,0,1,0,0,0,0,0,0,0,0,0,0,0,0,0,0,0,351.96,2,0,0.1,0.1,15,12.5,0.1,0.06,1.3,FLYING,CF1-F,0:/Integrated Flight Computer/aircraft/cf1_f_cfg.ks (inferred preloaded)
1.64,APPROACH,ILS_TRACK,137.64,73,-64.64,1660.52,1.62,1.62,1.03,271.11,-4.162,0,0,0,1,0.6,3.465,0.75,0.35,0.0168,0.4,269.81,-0.01,0,1,0.67,0,0,1.04,269.82,0.9824,-0.0033,-0.1868,1.02,269.81,0.46,-726.41,44.209,-0.586,0,0,0,0,271.42,0,0,0,0,0,0,0,0,0,0,0,0,0,1,1,0,0,VALID,0,0,0,0,0,1,0,0,0,0,0,0,0,0,0,0,0,0,0,0,0,352.05,2,0,0.1,0.1,19,11.76,0.1,0.06,1.64,FLYING,CF1-F,0:/Integrated Flight Computer/aircraft/cf1_f_cfg.ks (inferred preloaded)
1.98,APPROACH,ILS_TRACK,137.39,73,-64.39,1661.08,1.72,1.59,0.96,271.05,-4.177,0,0,0,1,0.6,3.748,0.75,0.35,0.0168,0.4,269.84,-0.013,0,1,0.72,0,0,0.98,269.85,0.9821,-0.0029,-0.1882,0.94,269.84,1.17,-723.13,44.157,-0.564,0,0,0,0,271.42,0,0,0,0,0,0,0,0,0,0,0,0,0,1,1,0,0,VALID,0,0,0,0,0,1,0,0,0,0,0,0,0,0,0,0,0,0,0,0,0,352.14,2,0,0.1,0.1,23,11.76,0.1,0.06,1.98,FLYING,CF1-F,0:/Integrated Flight Computer/aircraft/cf1_f_cfg.ks (inferred preloaded)
2.3,APPROACH,ILS_TRACK,137.14,73,-64.14,1661.64,1.76,1.55,0.9,270.99,-4.062,0,0,-6.362,1,0.6,3.951,0.75,0.35,0.0168,0.4,269.9,-0.016,0,1,0.74,0,0,0.91,269.87,0.9819,-0.0018,-0.1895,0.87,269.9,1.75,-720.01,44.108,-0.503,0,0,0,0,271.42,0,0,0,0,0,0,0,0,0,0,0,0,0,1,1,0,0,VALID,0,0,0,0,0,1,0,0,0,0,0,0,0,0,0,0,0,0,0,0,0,352.23,2,0,0.1,0.1,27,12.5,0.1,0.06,2.3,FLYING,CF1-F,0:/Integrated Flight Computer/aircraft/cf1_f_cfg.ks (inferred preloaded)
2.64,APPROACH,ILS_TRACK,136.86,73,-63.86,1662.25,1.84,1.54,0.85,270.92,-3.881,0,0,-6.236,1,0.6,4.097,0.763,0.35,0.0168,0.4,269.94,-0.019,0,1,0.77,0,0,0.87,269.89,0.9817,-0.001,-0.1902,0.84,269.94,2.3,-716.69,44.057,-0.457,0,0,0,0,271.42,0,0,0,0,0,0,0,0,0,0,0,0,0,1,1,0,0,VALID,0,0,0,0,0,1,0,0,0,0,0,0,0,0,0,0,0,0,0,0,0,352.34,2,0,0.1,0.1,31,11.76,0.1,0.06,2.64,FLYING,CF1-F,0:/Integrated Flight Computer/aircraft/cf1_f_cfg.ks (inferred preloaded)
2.96,APPROACH,ILS_TRACK,136.6,73,-63.6,1662.84,1.87,1.52,0.82,270.85,-3.645,0,0,-6.112,1,0.6,4.202,0.781,0.35,0.0168,0.4,269.95,-0.022,0,1,0.78,0,0,0.81,269.95,0.9816,-0.001,-0.1908,0.8,269.95,2.75,-713.55,44.008,-0.454,0,0,0,0,271.42,0,0,0,0,0,0,0,0,0,0,0,0,0,1,1,0,0,VALID,0,0,0,0,0,1,0,0,0,0,0,0,0,0,0,0,0,0,0,0,0,352.43,2,0,0.1,0.1,35,12.5,0.1,0.06,2.96,FLYING,CF1-F,0:/Integrated Flight Computer/aircraft/cf1_f_cfg.ks (inferred preloaded)
3.3,APPROACH,ILS_TRACK,136.31,73,-63.31,1663.47,1.87,1.47,0.77,270.79,-3.368,0,0,-5.991,1,0.6,4.277,0.8,0.35,0.0168,0.4,270.01,-0.025,0,1,0.79,0,0,0.74,269.97,0.9814,0.0001,-0.1921,0.74,270.01,3.14,-710.22,43.956,-0.393,0,0,0,0,271.42,0,0,0,0,0,0,0,0,0,0,0,0,0,1,1,0,0,VALID,0,0,0,0,0,1,0,0,0,0,0,0,0,0,0,0,0,0,0,0,0,352.54,2,0,0.1,0.1,39,11.76,0.1,0.06,3.3,FLYING,CF1-F,0:/Integrated Flight Computer/aircraft/cf1_f_cfg.ks (inferred preloaded)
3.64,APPROACH,ILS_TRACK,136.01,73,-63.01,1664.11,1.91,1.43,0.71,270.72,-3.079,0,0,-5.872,1,0.6,4.331,0.821,0.35,0.0168,0.4,270.05,-0.028,0,1,0.81,0,0,0.73,270.01,0.9812,0.0008,-0.1931,0.68,270.05,3.47,-706.89,43.905,-0.351,0,0,0,0,271.42,0,0,0,0,0,0,0,0,0,0,0,0,0,1,1,0,0,VALID,0,0,0,0,0,1,0,0,0,0,0,0,0,0,0,0,0,0,0,0,0,352.66,2,0,0.1,0.1,43,11.76,0.1,0.06,3.64,FLYING,CF1-F,0:/Integrated Flight Computer/aircraft/cf1_f_cfg.ks (inferred preloaded)
3.96,APPROACH,ILS_TRACK,135.72,73,-62.72,1664.73,1.91,1.48,0.77,270.66,-2.795,0,0,-5.755,1,0.6,4.371,0.844,0.35,0.0168,0.4,270.07,-0.031,0,1,0.8,0,0,0.7,270.07,0.9813,0.0012,-0.1923,0.73,270.07,3.73,-703.74,43.857,-0.327,0,0,0,0,271.42,0,0,0,0,0,0,0,0,0,0,0,0,0,1,1,0,0,VALID,0,0,0,0,0,1,0,0,0,0,0,0,0,0,0,0,0,0,0,0,0,352.77,2,0,0.1,0.1,47,12.5,0.1,0.06,3.96,FLYING,CF1-F,0:/Integrated Flight Computer/aircraft/cf1_f_cfg.ks (inferred preloaded)
4.28,APPROACH,ILS_TRACK,135.43,73,-62.43,1665.34,1.89,1.46,0.74,270.61,-2.499,0,0,-5.641,1,0.6,4.399,0.866,0.35,0.0168,0.4,270.08,-0.034,0,1,0.8,0,0,0.69,270.1,0.9812,0.0014,-0.1931,0.69,270.08,3.94,-700.6,43.808,-0.321,0,0,0,0,271.42,0,0,0,0,0,0,0,0,0,0,0,0,0,1,1,0,0,VALID,0,0,0,0,0,1,0,0,0,0,0,0,0,0,0,0,0,0,0,0,0,352.88,2,0,0.1,0.1,51,12.5,0.1,0.06,4.28,FLYING,CF1-F,0:/Integrated Flight Computer/aircraft/cf1_f_cfg.ks (inferred preloaded)
4.62,APPROACH,ILS_TRACK,135.12,73,-62.12,1665.99,1.96,1.51,0.76,270.57,-2.151,0,0,-5.529,1,0.6,4.42,0.886,0.35,0.0168,0.4,270.11,-0.037,0,1,0.83,0,0,0.8,270.13,0.9813,0.0019,-0.1925,0.73,270.11,4.11,-697.26,43.757,-0.291,0,0,0,0,271.42,0,0,0,0,0,0,0,0,0,0,0,0,0,1,1,0,0,VALID,0,0,0,0,0,1,0,0,0,0,0,0,0,0,0,0,0,0,0,0,0,353,2,0,0.1,0.1,55,11.76,0.1,0.06,4.62,FLYING,CF1-F,0:/Integrated Flight Computer/aircraft/cf1_f_cfg.ks (inferred preloaded)
4.96,APPROACH,ILS_TRACK,134.81,73,-61.81,1666.66,1.93,1.57,0.84,270.53,-1.81,0,0,-5.419,1,0.6,4.436,0.904,0.35,0.0168,0.4,270.14,-0.041,0,1,0.81,0,0,0.73,270.13,0.9815,0.0025,-0.1915,0.79,270.14,4.24,-693.92,43.706,-0.256,0,0,0,0,271.42,0,0,0,0,0,0,0,0,0,0,0,0,0,1,1,0,0,VALID,0,0,0,0,0,1,0,0,0,0,0,0,0,0,0,0,0,0,0,0,0,353.12,2,0,0.1,0.1,59,11.76,0.1,0.06,4.96,FLYING,CF1-F,0:/Integrated Flight Computer/aircraft/cf1_f_cfg.ks (inferred preloaded)
5.28,APPROACH,ILS_TRACK,134.51,73,-61.51,1667.28,1.96,1.51,0.76,270.5,-1.5,0,0,-5.312,1,0.6,4.447,0.919,0.35,0.0168,0.4,270.17,-0.044,0,1,0.84,0,0,0.75,270.16,0.9812,0.003,-0.1928,0.72,270.17,4.33,-690.79,43.658,-0.23,0,0,0,0,271.42,0,0,0,0,0,0,0,0,0,0,0,0,0,1,1,0,0,VALID,0,0,0,0,0,1,0,0,0,0,0,0,0,0,0,0,0,0,0,0,0,353.24,2,0,0.1,0.1,63,12.5,0.1,0.06,5.28,FLYING,CF1-F,0:/Integrated Flight Computer/aircraft/cf1_f_cfg.ks (inferred preloaded)
5.62,APPROACH,ILS_TRACK,134.2,73,-61.2,1667.95,1.97,1.61,0.86,270.47,-1.211,0,0,-5.206,1,0.6,4.456,0.932,0.35,0.0168,0.4,270.17,-0.047,0,1,0.84,0,0,0.81,270.19,0.9815,0.003,-0.1913,0.82,270.17,4.4,-687.45,43.607,-0.228,0,0,0,0,271.42,0,0,0,0,0,0,0,0,0,0,0,0,0,1,1,0,0,VALID,0,0,0,0,0,1,0,0,0,0,0,0,0,0,0,0,0,0,0,0,0,353.36,2,0,0.1,0.1,67,11.76,0.1,0.06,5.62,FLYING,CF1-F,0:/Integrated Flight Computer/aircraft/cf1_f_cfg.ks (inferred preloaded)
5.96,APPROACH,ILS_TRACK,133.89,73,-60.89,1668.62,1.96,1.6,0.85,270.44,-0.97,0,0,-5.103,1,0.6,4.462,0.944,0.35,0.0168,0.4,270.2,-0.051,0,1,0.84,0,0,0.78,270.19,0.9814,0.0034,-0.1918,0.79,270.2,4.44,-684.12,43.557,-0.204,0,0,0,0,271.42,0,0,0,0,0,0,0,0,0,0,0,0,0,1,1,0,0,VALID,0,0,0,0,0,1,0,0,0,0,0,0,0,0,0,0,0,0,0,0,0,353.48,2,0,0.1,0.1,71,11.76,0.1,0.06,5.96,FLYING,CF1-F,0:/Integrated Flight Computer/aircraft/cf1_f_cfg.ks (inferred preloaded)
6.3,APPROACH,ILS_TRACK,133.58,73,-60.58,1669.3,1.99,1.63,0.87,270.42,-0.769,0,0,-5.002,1,0.6,4.468,0.953,0.35,0.0168,0.4,270.21,-0.054,0,1,0.85,0,0,0.82,270.22,0.9815,0.0036,-0.1914,0.82,270.21,4.45,-680.79,43.506,-0.19,0,0,0,0,271.42,0,0,0,0,0,0,0,0,0,0,0,0,0,1,1,0,0,VALID,0,0,0,0,0,1,0,0,0,0,0,0,0,0,0,0,0,0,0,0,0,353.61,2,0,0.1,0.1,75,11.76,0.1,0.06,6.3,FLYING,CF1-F,0:/Integrated Flight Computer/aircraft/cf1_f_cfg.ks (inferred preloaded)
6.64,APPROACH,ILS_TRACK,133.27,73,-60.27,1669.98,2,1.66,0.89,270.41,-0.613,0,0,-4.902,1,0.6,4.472,0.961,0.35,0.0168,0.4,270.21,-0.057,0,1,0.86,0,0,0.83,270.22,0.9815,0.0036,-0.1912,0.83,270.21,4.46,-677.47,43.456,-0.19,0,0,0,0,271.42,0,0,0,0,0,0,0,0,0,0,0,0,0,1,1,0,0,VALID,0,0,0,0,0,1,0,0,0,0,0,0,0,0,0,0,0,0,0,0,0,353.73,2,0,0.1,0.1,79,11.76,0.1,0.06,6.64,FLYING,CF1-F,0:/Integrated Flight Computer/aircraft/cf1_f_cfg.ks (inferred preloaded)
6.9,APPROACH,ILS_TRACK,133.03,73,-60.03,1670.51,2.01,1.67,0.9,270.4,-0.516,0,0,-4.829,1,0.6,4.474,0.966,0.35,0.0168,0.4,270.23,-0.06,0,1,0.86,0,0,0.84,270.22,0.9815,0.004,-0.1912,0.84,270.23,4.46,-674.92,43.417,-0.17,0,0,0,0,271.42,0,0,0,0,0,0,0,0,0,0,0,0,0,1,1,0,0,VALID,0,0,0,0,0,1,0,0,0,0,0,0,0,0,0,0,0,0,0,0,0,353.82,2,0,0.08,0.08,82,11.54,0.1,0.08,6.9,FLYING,CF1-F,0:/Integrated Flight Computer/aircraft/cf1_f_cfg.ks (inferred preloaded)
7.16,APPROACH,ILS_TRACK,132.79,73,-59.79,1671.03,2.01,1.69,0.92,270.39,-0.434,0,0,-4.757,1,0.6,4.477,0.971,0.35,0.0168,0.4,270.24,-0.063,0,1,0.87,0,0,0.85,270.24,0.9816,0.0042,-0.191,0.85,270.24,4.44,-672.38,43.379,-0.159,0,0,0,0,271.42,0,0,0,0,0,0,0,0,0,0,0,0,0,1,1,0,0,VALID,0,0,0,0,0,1,0,0,0,0,0,0,0,0,0,0,0,0,0,0,0,353.92,2,0,0.1,0.1,85,11.54,0.1,0.06,7.16,FLYING,CF1-F,0:/Integrated Flight Computer/aircraft/cf1_f_cfg.ks (inferred preloaded)
7.42,APPROACH,ILS_TRACK,132.55,73,-59.55,1671.56,2.02,1.71,0.93,270.38,-0.367,0,0,-4.686,1,0.6,4.479,0.975,0.35,0.0168,0.4,270.24,-0.065,0,1,0.87,0,0,0.86,270.23,0.9816,0.0042,-0.1909,0.87,270.24,4.43,-669.84,43.34,-0.156,0,0,0,0,271.42,0,0,0,0,0,0,0,0,0,0,0,0,0,1,1,0,0,VALID,0,0,0,0,0,1,0,0,0,0,0,0,0,0,0,0,0,0,0,0,0,354.01,2,0,0.08,0.08,88,11.54,0.1,0.08,7.42,FLYING,CF1-F,0:/Integrated Flight Computer/aircraft/cf1_f_cfg.ks (inferred preloaded)
7.68,APPROACH,ILS_TRACK,132.32,73,-59.32,1672.09,2.03,1.73,0.95,270.37,-0.313,0,0,-4.616,1,0.6,4.481,0.978,0.35,0.0168,0.4,270.25,-0.068,0,1,0.88,0,0,0.88,270.24,0.9816,0.0043,-0.1907,0.88,270.25,4.41,-667.3,43.302,-0.154,0,0,0,0,271.42,0,0,0,0,0,0,0,0,0,0,0,0,0,1,1,0,0,VALID,0,0,0,0,0,1,0,0,0,0,0,0,0,0,0,0,0,0,0,0,0,354.11,2,0,0.1,0.1,91,11.54,0.1,0.06,7.68,FLYING,CF1-F,0:/Integrated Flight Computer/aircraft/cf1_f_cfg.ks (inferred preloaded)
7.94,APPROACH,ILS_TRACK,132.08,73,-59.08,1672.62,2.03,1.75,0.96,270.37,-0.272,0,0,-4.547,1,0.6,4.482,0.982,0.35,0.0168,0.4,270.25,-0.071,0,1,0.88,0,0,0.89,270.24,0.9817,0.0043,-0.1905,0.89,270.25,4.39,-664.77,43.264,-0.153,0,0,0,0,271.42,0,0,0,0,0,0,0,0,0,0,0,0,0,1,1,0,0,VALID,0,0,0,0,0,1,0,0,0,0,0,0,0,0,0,0,0,0,0,0,0,354.2,2,0,0.08,0.08,94,11.54,0.1,0.08,7.94,FLYING,CF1-F,0:/Integrated Flight Computer/aircraft/cf1_f_cfg.ks (inferred preloaded)
8.2,APPROACH,ILS_TRACK,131.84,73,-58.84,1673.15,2.04,1.77,0.98,270.36,-0.234,0,0,-4.479,1,0.6,4.484,0.985,0.35,0.0168,0.4,270.25,-0.073,0,1,0.89,0,0,0.9,270.25,0.9817,0.0043,-0.1904,0.91,270.25,4.36,-662.23,43.225,-0.151,0,0,0,0,271.42,0,0,0,0,0,0,0,0,0,0,0,0,0,1,1,0,0,VALID,0,0,0,0,0,1,0,0,0,0,0,0,0,0,0,0,0,0,0,0,0,354.3,2,0,0.1,0.1,97,11.54,0.1,0.06,8.2,FLYING,CF1-F,0:/Integrated Flight Computer/aircraft/cf1_f_cfg.ks (inferred preloaded)
8.46,APPROACH,ILS_TRACK,131.6,73,-58.6,1673.69,2.05,1.79,1,270.36,-0.207,0,0,-4.412,1,0.6,4.486,0.987,0.35,0.0168,0.4,270.25,-0.076,0,1,0.89,0,0,0.92,270.27,0.9817,0.0044,-0.1902,0.92,270.25,4.33,-659.7,43.187,-0.149,0,0,0,0,271.42,0,0,0,0,0,0,0,0,0,0,0,0,0,1,1,0,0,VALID,0,0,0,0,0,1,0,0,0,0,0,0,0,0,0,0,0,0,0,0,0,354.39,2,0,0.08,0.08,100,11.54,0.1,0.08,8.46,FLYING,CF1-F,0:/Integrated Flight Computer/aircraft/cf1_f_cfg.ks (inferred preloaded)
8.72,APPROACH,ILS_TRACK,131.36,73,-58.36,1674.23,2.06,1.81,1.01,270.36,-0.182,0,0,-4.347,1,0.6,4.487,0.99,0.35,0.0168,0.4,270.26,-0.079,0,1,0.9,0,0,0.93,270.26,0.9818,0.0046,-0.19,0.93,270.26,4.29,-657.16,43.149,-0.137,0,0,0,0,271.42,0,0,0,0,0,0,0,0,0,0,0,0,0,1,1,0,0,VALID,0,0,0,0,0,1,0,0,0,0,0,0,0,0,0,0,0,0,0,0,0,354.49,2,0,0.1,0.1,103,11.54,0.1,0.06,8.72,FLYING,CF1-F,0:/Integrated Flight Computer/aircraft/cf1_f_cfg.ks (inferred preloaded)
8.98,APPROACH,ILS_TRACK,131.12,73,-58.12,1674.76,2.06,1.83,1.03,270.35,-0.163,0,0,-4.282,1,0.6,4.488,0.992,0.35,0.0168,0.4,270.25,-0.081,0,1,0.9,0,0,0.94,270.27,0.9818,0.0044,-0.1898,0.95,270.25,4.26,-654.63,43.111,-0.145,0,0,0,0,271.42,0,0,0,0,0,0,0,0,0,0,0,0,0,1,1,0,0,VALID,0,0,0,0,0,1,0,0,0,0,0,0,0,0,0,0,0,0,0,0,0,354.59,2,0,0.08,0.08,106,11.54,0.1,0.08,8.98,FLYING,CF1-F,0:/Integrated Flight Computer/aircraft/cf1_f_cfg.ks (inferred preloaded)
9.24,APPROACH,ILS_TRACK,130.88,73,-57.88,1675.31,2.07,1.86,1.05,270.35,-0.15,0,0,-4.218,1,0.6,4.49,0.994,0.35,0.0168,0.4,270.27,-0.084,0,1,0.91,0,0,0.96,270.25,0.9818,0.0047,-0.1897,0.96,270.27,4.23,-652.1,43.073,-0.131,0,0,0,0,271.42,0,0,0,0,0,0,0,0,0,0,0,0,0,1,1,0,0,VALID,0,0,0,0,0,1,0,0,0,0,0,0,0,0,0,0,0,0,0,0,0,354.68,2,0,0.1,0.1,109,11.54,0.1,0.06,9.24,FLYING,CF1-F,0:/Integrated Flight Computer/aircraft/cf1_f_cfg.ks (inferred preloaded)
9.5,APPROACH,ILS_TRACK,130.64,73,-57.64,1675.85,2.08,1.88,1.06,270.35,-0.136,0,0,-4.155,1,0.6,4.491,0.996,0.35,0.0168,0.4,270.27,-0.087,0,1,0.91,0,0,0.97,270.27,0.9819,0.0046,-0.1895,0.98,270.27,4.19,-649.57,43.035,-0.135,0,0,0,0,271.42,0,0,0,0,0,0,0,0,0,0,0,0,0,1,1,0,0,VALID,0,0,0,0,0,1,0,0,0,0,0,0,0,0,0,0,0,0,0,0,0,354.78,2,0,0.08,0.08,112,11.54,0.1,0.08,9.5,FLYING,CF1-F,0:/Integrated Flight Computer/aircraft/cf1_f_cfg.ks (inferred preloaded)
9.76,APPROACH,ILS_TRACK,130.41,73,-57.41,1676.4,2.09,1.9,1.08,270.34,-0.124,0,0,-4.093,1,0.6,4.492,0.998,0.35,0.0168,0.4,270.26,-0.089,0,1,0.92,0,0,0.99,270.28,0.9819,0.0045,-0.1893,0.99,270.26,4.15,-647.04,42.997,-0.139,0,0,0,0,271.42,0,0,0,0,0,0,0,0,0,0,0,0,0,1,1,0,0,VALID,0,0,0,0,0,1,0,0,0,0,0,0,0,0,0,0,0,0,0,0,0,354.88,2,0,0.1,0.1,115,11.54,0.1,0.06,9.76,FLYING,CF1-F,0:/Integrated Flight Computer/aircraft/cf1_f_cfg.ks (inferred preloaded)
10.02,APPROACH,ILS_TRACK,130.17,73,-57.17,1676.95,2.1,1.92,1.1,270.34,-0.116,0,0,-4.032,1,0.6,4.494,1,0.35,0.0168,0.4,270.3,-0.092,0,1,0.92,0,0,1,270.26,0.9819,0.0051,-0.1891,1.01,270.3,4.11,-644.52,42.96,-0.105,0,0,0,0,271.42,0,0,0,0,0,0,0,0,0,0,0,0,0,1,1,0,0,VALID,0,0,0,0,0,1,0,0,0,0,0,0,0,0,0,0,0,0,0,0,0,354.98,2,0,0.08,0.08,118,11.54,0.1,0.08,10.02,FLYING,CF1-F,0:/Integrated Flight Computer/aircraft/cf1_f_cfg.ks (inferred preloaded)
10.28,APPROACH,ILS_TRACK,129.92,73,-56.92,1677.5,2.11,1.95,1.12,270.34,-0.109,0,0,-3.972,1,0.6,4.495,1.002,0.35,0.0168,0.4,270.27,-0.095,0,1,0.93,0,0,1.02,270.27,0.982,0.0047,-0.1889,1.02,270.27,4.07,-641.99,42.922,-0.128,0,0,0,0,271.42,0,0,0,0,0,0,0,0,0,0,0,0,0,1,1,0,0,VALID,0,0,0,0,0,1,0,0,0,0,0,0,0,0,0,0,0,0,0,0,0,355.08,2,0,0.1,0.1,121,11.54,0.1,0.06,10.28,FLYING,CF1-F,0:/Integrated Flight Computer/aircraft/cf1_f_cfg.ks (inferred preloaded)
10.54,APPROACH,ILS_TRACK,129.68,73,-56.68,1678.05,2.12,1.97,1.13,270.34,-0.104,0,0,-3.912,1,0.6,4.496,1.003,0.35,0.0168,0.4,270.28,-0.098,0,1,0.94,0,0,1.03,270.28,0.982,0.0049,-0.1887,1.04,270.28,4.03,-639.46,42.884,-0.118,0,0,0,0,271.42,0,0,0,0,0,0,0,0,0,0,0,0,0,1,1,0,0,VALID,0,0,0,0,0,1,0,0,0,0,0,0,0,0,0,0,0,0,0,0,0,355.17,2,0,0.08,0.08,124,11.54,0.1,0.08,10.54,FLYING,CF1-F,0:/Integrated Flight Computer/aircraft/cf1_f_cfg.ks (inferred preloaded)
10.8,APPROACH,ILS_TRACK,129.44,73,-56.44,1678.61,2.13,1.99,1.15,270.34,-0.097,0,0,-3.854,1,0.6,4.498,1.005,0.35,0.0168,0.4,270.29,-0.101,0,1,0.94,0,0,1.05,270.29,0.9821,0.005,-0.1885,1.05,270.29,3.98,-636.94,42.847,-0.113,0,0,0,0,271.42,0,0,0,0,0,0,0,0,0,0,0,0,0,1,1,0,0,VALID,0,0,0,0,0,1,0,0,0,0,0,0,0,0,0,0,0,0,0,0,0,355.27,2,0,0.1,0.1,127,11.54,0.1,0.06,10.8,FLYING,CF1-F,0:/Integrated Flight Computer/aircraft/cf1_f_cfg.ks (inferred preloaded)
11.06,APPROACH,ILS_TRACK,129.2,73,-56.2,1679.17,2.15,2.02,1.17,270.34,-0.094,0,0,-3.796,1,0.6,4.499,1.006,0.35,0.0168,0.4,270.28,-0.103,0,1,0.95,0,0,1.06,270.29,0.9821,0.0048,-0.1883,1.07,270.28,3.94,-634.41,42.809,-0.124,0,0,0,0,271.42,0,0,0,0,0,0,0,0,0,0,0,0,0,1,1,0,0,VALID,0,0,0,0,0,1,0,0,0,0,0,0,0,0,0,0,0,0,0,0,0,355.37,2,0,0.08,0.08,130,11.54,0.1,0.08,11.06,FLYING,CF1-F,0:/Integrated Flight Computer/aircraft/cf1_f_cfg.ks (inferred preloaded)
11.32,APPROACH,ILS_TRACK,128.96,73,-55.96,1679.73,2.16,2.04,1.19,270.33,-0.092,0,0,-3.74,1,0.6,4.5,1.008,0.35,0.0168,0.4,270.29,-0.106,0,1,0.96,0,0,1.08,270.28,0.9821,0.0051,-0.1881,1.08,270.29,3.89,-631.89,42.772,-0.108,0,0,0,0,271.42,0,0,0,0,0,0,0,0,0,0,0,0,0,1,1,0,0,VALID,0,0,0,0,0,1,0,0,0,0,0,0,0,0,0,0,0,0,0,0,0,355.47,2,0,0.1,0.1,133,11.54,0.1,0.06,11.32,FLYING,CF1-F,0:/Integrated Flight Computer/aircraft/cf1_f_cfg.ks (inferred preloaded)
11.58,APPROACH,ILS_TRACK,128.72,73,-55.72,1680.3,2.17,2.07,1.21,270.33,-0.088,0,0,-3.684,1,0.6,4.5,1.01,0.35,0.0168,0.4,270.3,-0.109,0,1,0.97,0,0,1.09,270.28,0.9822,0.0052,-0.1879,1.1,270.3,3.85,-629.36,42.734,-0.1,0,0,0,0,271.42,0,0,0,0,0,0,0,0,0,0,0,0,0,1,1,0,0,VALID,0,0,0,0,0,1,0,0,0,0,0,0,0,0,0,0,0,0,0,0,0,355.57,2,0,0.08,0.08,136,11.54,0.1,0.08,11.58,FLYING,CF1-F,0:/Integrated Flight Computer/aircraft/cf1_f_cfg.ks (inferred preloaded)
11.84,APPROACH,ILS_TRACK,128.48,73,-55.48,1680.87,2.19,2.1,1.23,270.33,-0.082,0,0,-3.629,1,0.6,4.5,1.011,0.35,0.0168,0.4,270.3,-0.112,0,1,0.98,0,0,1.11,270.29,0.9822,0.0052,-0.1877,1.11,270.3,3.8,-626.84,42.697,-0.103,0,0,0,0,271.42,0,0,0,0,0,0,0,0,0,0,0,0,0,1,1,0,0,VALID,0,0,0,0,0,1,0,0,0,0,0,0,0,0,0,0,0,0,0,0,0,355.67,2,0,0.1,0.1,139,11.54,0.1,0.06,11.84,FLYING,CF1-F,0:/Integrated Flight Computer/aircraft/cf1_f_cfg.ks (inferred preloaded)
12.1,APPROACH,ILS_TRACK,128.23,73,-55.23,1681.45,2.2,2.12,1.24,270.33,-0.079,0,0,-3.575,1,0.6,4.5,1.013,0.35,0.0168,0.4,270.3,-0.115,0,1,0.98,0,0,1.12,270.29,0.9823,0.0053,-0.1875,1.13,270.3,3.75,-624.31,42.66,-0.097,0,0,0,0,271.42,0,0,0,0,0,0,0,0,0,0,0,0,0,1,1,0,0,VALID,0,0,0,0,0,1,0,0,0,0,0,0,0,0,0,0,0,0,0,0,0,355.77,2,0,0.08,0.08,142,11.54,0.1,0.08,12.1,FLYING,CF1-F,0:/Integrated Flight Computer/aircraft/cf1_f_cfg.ks (inferred preloaded)
12.36,APPROACH,ILS_TRACK,127.99,73,-54.99,1682.03,2.22,2.15,1.26,270.33,-0.072,0,0,-3.521,1,0.6,4.5,1.014,0.35,0.0168,0.4,270.29,-0.118,0,1,0.99,0,0,1.14,270.31,0.9823,0.005,-0.1873,1.14,270.29,3.71,-621.78,42.623,-0.111,0,0,0,0,271.42,0,0,0,0,0,0,0,0,0,0,0,0,0,1,1,0,0,VALID,0,0,0,0,0,1,0,0,0,0,0,0,0,0,0,0,0,0,0,0,0,355.88,2,0,0.1,0.1,145,11.54,0.1,0.06,12.36,FLYING,CF1-F,0:/Integrated Flight Computer/aircraft/cf1_f_cfg.ks (inferred preloaded)
12.62,APPROACH,ILS_TRACK,127.75,73,-54.75,1682.61,2.24,2.18,1.28,270.33,-0.067,0,0,-3.469,1,0.6,4.5,1.016,0.35,0.0168,0.4,270.31,-0.121,0,1,1,0,0,1.16,270.3,0.9823,0.0053,-0.1871,1.16,270.31,3.66,-619.25,42.586,-0.095,0,0,0,0,271.42,0,0,0,0,0,0,0,0,0,0,0,0,0,1,1,0,0,VALID,0,0,0,0,0,1,0,0,0,0,0,0,0,0,0,0,0,0,0,0,0,355.98,2,0,0.08,0.08,148,11.54,0.1,0.08,12.62,FLYING,CF1-F,0:/Integrated Flight Computer/aircraft/cf1_f_cfg.ks (inferred preloaded)
12.88,APPROACH,ILS_TRACK,127.5,73,-54.5,1683.2,2.25,2.2,1.3,270.33,-0.063,0,0,-3.417,1,0.6,4.5,1.018,0.35,0.0168,0.4,270.31,-0.123,0,1,1.01,0,0,1.17,270.28,0.9824,0.0055,-0.1868,1.18,270.31,3.61,-616.73,42.549,-0.085,0,0,0,0,271.42,0,0,0,0,0,0,0,0,0,0,0,0,0,1,1,0,0,VALID,0,0,0,0,0,1,0,0,0,0,0,0,0,0,0,0,0,0,0,0,0,356.08,2,0,0.1,0.1,151,11.54,0.1,0.06,12.88,FLYING,CF1-F,0:/Integrated Flight Computer/aircraft/cf1_f_cfg.ks (inferred preloaded)
13.14,APPROACH,ILS_TRACK,127.26,73,-54.26,1683.79,2.27,2.23,1.32,270.33,-0.058,0,0,-3.366,1,0.6,4.5,1.019,0.35,0.0168,0.4,270.3,-0.126,0,1,1.02,0,0,1.19,270.31,0.9824,0.0052,-0.1866,1.19,270.3,3.56,-614.2,42.512,-0.103,0,0,0,0,271.42,0,0,0,0,0,0,0,0,0,0,0,0,0,1,1,0,0,VALID,0,0,0,0,0,1,0,0,0,0,0,0,0,0,0,0,0,0,0,0,0,356.18,2,0,0.08,0.08,154,11.54,0.1,0.08,13.14,FLYING,CF1-F,0:/Integrated Flight Computer/aircraft/cf1_f_cfg.ks (inferred preloaded)
13.4,APPROACH,ILS_TRACK,127.01,73,-54.01,1684.39,2.29,2.26,1.34,270.33,-0.054,0,0,-3.316,1,0.6,4.5,1.021,0.35,0.0168,0.4,270.31,-0.129,0,1,1.03,0,0,1.2,270.29,0.9825,0.0053,-0.1864,1.21,270.31,3.51,-611.66,42.475,-0.093,0,0,0,0,271.42,0,0,0,0,0,0,0,0,0,0,0,0,0,1,1,0,0,VALID,0,0,0,0,0,1,0,0,0,0,0,0,0,0,0,0,0,0,0,0,0,356.28,2,0,0.1,0.1,157,11.54,0.1,0.06,13.4,FLYING,CF1-F,0:/Integrated Flight Computer/aircraft/cf1_f_cfg.ks (inferred preloaded)
13.66,APPROACH,ILS_TRACK,126.77,73,-53.77,1684.99,2.31,2.29,1.36,270.32,-0.049,0,0,-3.266,1,0.6,4.5,1.023,0.35,0.0168,0.4,270.3,-0.132,0,1,1.04,0,0,1.22,270.31,0.9825,0.0052,-0.1862,1.23,270.3,3.45,-609.13,42.438,-0.1,0,0,0,0,271.42,0,0,0,0,0,0,0,0,0,0,0,0,0,1,1,0,0,VALID,0,0,0,0,0,1,0,0,0,0,0,0,0,0,0,0,0,0,0,0,0,356.39,2,0,0.08,0.08,160,11.54,0.1,0.08,13.66,FLYING,CF1-F,0:/Integrated Flight Computer/aircraft/cf1_f_cfg.ks (inferred preloaded)
13.92,APPROACH,ILS_TRACK,126.52,73,-53.52,1685.6,2.33,2.32,1.38,270.32,-0.046,0,0,-3.218,1,0.6,4.5,1.025,0.35,0.0168,0.4,270.31,-0.135,0,1,1.05,0,0,1.24,270.31,0.9825,0.0055,-0.1859,1.24,270.31,3.4,-606.6,42.401,-0.086,0,0,0,0,271.42,0,0,0,0,0,0,0,0,0,0,0,0,0,1,1,0,0,VALID,0,0,0,0,0,1,0,0,0,0,0,0,0,0,0,0,0,0,0,0,0,356.49,2,0,0.1,0.1,163,11.54,0.1,0.06,13.92,FLYING,CF1-F,0:/Integrated Flight Computer/aircraft/cf1_f_cfg.ks (inferred preloaded)
14.18,APPROACH,ILS_TRACK,126.27,73,-53.27,1686.21,2.35,2.35,1.4,270.32,-0.039,0,0,-3.17,1,0.6,4.5,1.027,0.35,0.0168,0.4,270.31,-0.139,0,1,1.06,0,0,1.26,270.32,0.9826,0.0054,-0.1857,1.26,270.31,3.35,-604.06,42.364,-0.09,0,0,0,0,271.42,0,0,0,0,0,0,0,0,0,0,0,0,0,1,1,0,0,VALID,0,0,0,0,0,1,0,0,0,0,0,0,0,0,0,0,0,0,0,0,0,356.59,2,0,0.08,0.08,166,11.54,0.1,0.08,14.18,FLYING,CF1-F,0:/Integrated Flight Computer/aircraft/cf1_f_cfg.ks (inferred preloaded)
14.44,APPROACH,ILS_TRACK,126.03,73,-53.03,1686.83,2.37,2.38,1.42,270.32,-0.035,0,0,-3.122,1,0.6,4.5,1.029,0.35,0.0168,0.4,270.32,-0.142,0,1,1.08,0,0,1.27,270.32,0.9826,0.0055,-0.1855,1.28,270.32,3.3,-601.52,42.328,-0.084,0,0,0,0,271.42,0,0,0,0,0,0,0,0,0,0,0,0,0,1,1,0,0,VALID,0,0,0,0,0,1,0,0,0,0,0,0,0,0,0,0,0,0,0,0,0,356.7,2,0,0.1,0.1,169,11.54,0.1,0.06,14.44,FLYING,CF1-F,0:/Integrated Flight Computer/aircraft/cf1_f_cfg.ks (inferred preloaded)
14.7,APPROACH,ILS_TRACK,125.78,73,-52.78,1687.46,2.39,2.41,1.44,270.32,-0.03,0,0,-3.076,1,0.6,4.5,1.031,0.35,0.0168,0.4,270.31,-0.145,0,1,1.09,0,0,1.29,270.32,0.9827,0.0053,-0.1852,1.29,270.31,3.25,-598.98,42.291,-0.093,0,0,0,0,271.42,0,0,0,0,0,0,0,0,0,0,0,0,0,1,1,0,0,VALID,0,0,0,0,0,1,0,0,0,0,0,0,0,0,0,0,0,0,0,0,0,356.8,2,0,0.08,0.08,172,11.54,0.1,0.08,14.7,FLYING,CF1-F,0:/Integrated Flight Computer/aircraft/cf1_f_cfg.ks (inferred preloaded)
14.96,APPROACH,ILS_TRACK,125.53,73,-52.53,1688.09,2.42,2.44,1.46,270.32,-0.024,0,0,-3.03,1,0.6,4.5,1.033,0.35,0.0168,0.4,270.32,-0.148,0,1,1.1,0,0,1.31,270.33,0.9827,0.0055,-0.185,1.31,270.32,3.19,-596.44,42.255,-0.082,0,0,0,0,271.42,0,0,0,0,0,0,0,0,0,0,0,0,0,1,1,0,0,VALID,0,0,0,0,0,1,0,0,0,0,0,0,0,0,0,0,0,0,0,0,0,356.91,2,0,0.1,0.1,175,11.54,0.1,0.06,14.96,FLYING,CF1-F,0:/Integrated Flight Computer/aircraft/cf1_f_cfg.ks (inferred preloaded)
15.22,APPROACH,ILS_TRACK,125.28,73,-52.28,1688.72,2.44,2.47,1.48,270.32,-0.022,0,0,-2.985,1,0.6,4.5,1.035,0.35,0.0168,0.4,270.32,-0.151,0,1,1.11,0,0,1.32,270.32,0.9828,0.0055,-0.1848,1.33,270.32,3.14,-593.9,42.218,-0.085,0,0,0,0,271.42,0,0,0,0,0,0,0,0,0,0,0,0,0,1,1,0,0,VALID,0,0,0,0,0,1,0,0,0,0,0,0,0,0,0,0,0,0,0,0,0,357.01,2,0,0.08,0.08,178,11.54,0.1,0.08,15.22,FLYING,CF1-F,0:/Integrated Flight Computer/aircraft/cf1_f_cfg.ks (inferred preloaded)
15.48,APPROACH,ILS_TRACK,125.03,73,-52.03,1689.37,2.46,2.5,1.5,270.32,-0.019,0,0,-2.94,1,0.6,4.5,1.037,0.35,0.0168,0.4,270.33,-0.154,0,1,1.13,0,0,1.34,270.32,0.9828,0.0057,-0.1845,1.35,270.33,3.08,-591.35,42.182,-0.069,0,0,0,0,271.42,0,0,0,0,0,0,0,0,0,0,0,0,0,1,1,0,0,VALID,0,0,0,0,0,1,0,0,0,0,0,0,0,0,0,0,0,0,0,0,0,357.12,2,0,0.1,0.1,181,11.54,0.1,0.06,15.48,FLYING,CF1-F,0:/Integrated Flight Computer/aircraft/cf1_f_cfg.ks (inferred preloaded)
15.74,APPROACH,ILS_TRACK,124.78,73,-51.78,1690.02,2.49,2.54,1.52,270.32,-0.012,0,0,-2.896,1,0.6,4.5,1.039,0.35,0.0168,0.4,270.32,-0.158,0,1,1.14,0,0,1.36,270.33,0.9829,0.0055,-0.1843,1.36,270.32,3.03,-588.8,42.146,-0.083,0,0,0,0,271.42,0,0,0,0,0,0,0,0,0,0,0,0,0,1,1,0,0,VALID,0,0,0,0,0,1,0,0,0,0,0,0,0,0,0,0,0,0,0,0,0,357.23,2,0,0.08,0.08,184,11.54,0.1,0.08,15.74,FLYING,CF1-F,0:/Integrated Flight Computer/aircraft/cf1_f_cfg.ks (inferred preloaded)
16,APPROACH,ILS_TRACK,124.53,73,-51.53,1690.67,2.51,2.57,1.54,270.32,-0.01,0,0,-2.853,1,0.6,4.5,1.042,0.35,0.0168,0.4,270.34,-0.161,0,1,1.15,0,0,1.38,270.31,0.9829,0.0059,-0.184,1.38,270.34,2.98,-586.24,42.11,-0.062,0,0,0,0,271.42,0,0,0,0,0,0,0,0,0,0,0,0,0,1,1,0,0,VALID,0,0,0,0,0,1,0,0,0,0,0,0,0,0,0,0,0,0,0,0,0,357.33,2,0,0.1,0.1,187,11.54,0.1,0.06,16,FLYING,CF1-F,0:/Integrated Flight Computer/aircraft/cf1_f_cfg.ks (inferred preloaded)
16.26,APPROACH,ILS_TRACK,124.28,73,-51.28,1691.33,2.54,2.6,1.56,270.32,-0.004,0,0,-2.81,1,0.6,4.5,1.044,0.35,0.0168,0.4,270.34,-0.164,0,1,1.17,0,0,1.39,270.32,0.9829,0.0059,-0.1838,1.4,270.34,2.92,-583.69,42.073,-0.062,0,0,0,0,271.42,0,0,0,0,0,0,0,0,0,0,0,0,0,1,1,0,0,VALID,0,0,0,0,0,1,0,0,0,0,0,0,0,0,0,0,0,0,0,0,0,357.44,2,0,0.08,0.08,190,11.54,0.1,0.08,16.26,FLYING,CF1-F,0:/Integrated Flight Computer/aircraft/cf1_f_cfg.ks (inferred preloaded)
16.52,APPROACH,ILS_TRACK,124.02,73,-51.02,1692,2.56,2.64,1.59,270.32,0.004,0,0,-2.768,1,0.6,4.5,1.046,0.35,0.0168,0.4,270.32,-0.167,0,1,1.18,0,0,1.41,270.37,0.983,0.0055,-0.1835,1.42,270.32,2.87,-581.13,42.037,-0.082,0,0,0,0,271.42,0,0,0,0,0,0,0,0,0,0,0,0,0,1,1,0,0,VALID,0,0,0,0,0,1,0,0,0,0,0,0,0,0,0,0,0,0,0,0,0,357.55,2,0,0.1,0.1,193,11.54,0.1,0.06,16.52,FLYING,CF1-F,0:/Integrated Flight Computer/aircraft/cf1_f_cfg.ks (inferred preloaded)
16.78,APPROACH,ILS_TRACK,123.77,73,-50.77,1692.68,2.59,2.67,1.61,270.32,0.008,0,0,-2.727,1,0.6,4.5,1.049,0.35,0.0168,0.4,270.33,-0.171,0,1,1.2,0,0,1.43,270.34,0.983,0.0058,-0.1833,1.44,270.33,2.82,-578.57,42.001,-0.067,0,0,0,0,271.42,0,0,0,0,0,0,0,0,0,0,0,0,0,1,1,0,0,VALID,0,0,0,0,0,1,0,0,0,0,0,0,0,0,0,0,0,0,0,0,0,357.65,2,0,0.08,0.08,196,11.54,0.1,0.08,16.78,FLYING,CF1-F,0:/Integrated Flight Computer/aircraft/cf1_f_cfg.ks (inferred preloaded)
17.04,APPROACH,ILS_TRACK,123.52,73,-50.52,1693.36,2.62,2.71,1.63,270.32,0.014,0,0,-2.686,1,0.6,4.5,1.052,0.35,0.0168,0.4,270.34,-0.174,0,1,1.21,0,0,1.45,270.37,0.9831,0.0059,-0.183,1.45,270.34,2.76,-576,41.965,-0.063,0,0,0,0,271.42,0,0,0,0,0,0,0,0,0,0,0,0,0,1,1,0,0,VALID,0,0,0,0,0,1,0,0,0,0,0,0,0,0,0,0,0,0,0,0,0,357.76,2,0,0.1,0.1,199,11.54,0.1,0.06,17.04,FLYING,CF1-F,0:/Integrated Flight Computer/aircraft/cf1_f_cfg.ks (inferred preloaded)
17.3,APPROACH,ILS_TRACK,123.26,73,-50.26,1694.05,2.64,2.74,1.65,270.32,0.017,0,0,-2.646,1,0.6,4.5,1.054,0.35,0.0168,0.4,270.34,-0.178,0,1,1.23,0,0,1.47,270.35,0.9831,0.0058,-0.1828,1.47,270.34,2.71,-573.43,41.929,-0.063,0,0,0,0,271.42,0,0,0,0,0,0,0,0,0,0,0,0,0,1,1,0,0,VALID,0,0,0,0,0,1,0,0,0,0,0,0,0,0,0,0,0,0,0,0,0,357.87,2,0,0.08,0.08,202,11.54,0.1,0.08,17.3,FLYING,CF1-F,0:/Integrated Flight Computer/aircraft/cf1_f_cfg.ks (inferred preloaded)
17.56,APPROACH,ILS_TRACK,123.01,73,-50.01,1694.75,2.67,2.78,1.67,270.32,0.018,0,0,-2.607,1,0.6,4.5,1.057,0.35,0.0168,0.4,270.33,-0.181,0,1,1.24,0,0,1.48,270.35,0.9832,0.0057,-0.1825,1.49,270.33,2.66,-570.86,41.894,-0.072,0,0,0,0,271.42,0,0,0,0,0,0,0,0,0,0,0,0,0,1,1,0,0,VALID,0,0,0,0,0,1,0,0,0,0,0,0,0,0,0,0,0,0,0,0,0,357.98,2,0,0.1,0.1,205,11.54,0.1,0.06,17.56,FLYING,CF1-F,0:/Integrated Flight Computer/aircraft/cf1_f_cfg.ks (inferred preloaded)
17.82,APPROACH,ILS_TRACK,122.75,73,-49.75,1695.45,2.7,2.81,1.7,270.32,0.023,0,0,-2.568,1,0.6,4.5,1.06,0.35,0.0168,0.4,270.34,-0.185,0,1,1.26,0,0,1.5,270.34,0.9832,0.0059,-0.1823,1.51,270.34,2.61,-568.28,41.858,-0.058,0,0,0,0,271.42,0,0,0,0,0,0,0,0,0,0,0,0,0,1,1,0,0,VALID,0,0,0,0,0,1,0,0,0,0,0,0,0,0,0,0,0,0,0,0,0,358.09,2,0,0.08,0.08,208,11.54,0.1,0.08,17.82,FLYING,CF1-F,0:/Integrated Flight Computer/aircraft/cf1_f_cfg.ks (inferred preloaded)
18.08,APPROACH,ILS_TRACK,122.49,73,-49.49,1696.16,2.73,2.85,1.72,270.32,0.023,0,0,-2.53,1,0.6,4.5,1.062,0.35,0.0168,0.4,270.36,-0.188,0,1,1.27,0,0,1.52,270.33,0.9833,0.0062,-0.182,1.53,270.36,2.56,-565.7,41.822,-0.041,0,0,0,0,271.42,0,0,0,0,0,0,0,0,0,0,0,0,0,1,1,0,0,VALID,0,0,0,0,0,1,0,0,0,0,0,0,0,0,0,0,0,0,0,0,0,358.2,2,0,0.1,0.1,211,11.54,0.1,0.06,18.08,FLYING,CF1-F,0:/Integrated Flight Computer/aircraft/cf1_f_cfg.ks (inferred preloaded)
18.34,APPROACH,ILS_TRACK,122.23,73,-49.23,1696.88,2.76,2.89,1.74,270.32,0.027,0,0,-2.492,1,0.6,4.5,1.065,0.35,0.0168,0.4,270.36,-0.192,0,1,1.29,0,0,1.54,270.34,0.9833,0.0063,-0.1817,1.55,270.36,2.5,-563.12,41.787,-0.039,0,0,0,0,271.42,0,0,0,0,0,0,0,0,0,0,0,0,0,1,1,0,0,VALID,0,0,0,0,0,1,0,0,0,0,0,0,0,0,0,0,0,0,0,0,0,358.31,2,0,0.08,0.08,214,11.54,0.1,0.08,18.34,FLYING,CF1-F,0:/Integrated Flight Computer/aircraft/cf1_f_cfg.ks (inferred preloaded)
18.6,APPROACH,ILS_TRACK,121.97,73,-48.97,1697.61,2.79,2.93,1.76,270.33,0.029,0,0,-2.455,1,0.6,4.5,1.068,0.35,0.0168,0.4,270.35,-0.195,0,1,1.31,0,0,1.56,270.33,0.9834,0.006,-0.1815,1.57,270.35,2.46,-560.53,41.751,-0.055,0,0,0,0,271.42,0,0,0,0,0,0,0,0,0,0,0,0,0,1,1,0,0,VALID,0,0,0,0,0,1,0,0,0,0,0,0,0,0,0,0,0,0,0,0,0,358.42,2,0,0.1,0.1,217,11.54,0.1,0.06,18.6,FLYING,CF1-F,0:/Integrated Flight Computer/aircraft/cf1_f_cfg.ks (inferred preloaded)
18.86,APPROACH,ILS_TRACK,121.72,73,-48.72,1698.35,2.82,2.96,1.79,270.33,0.03,0,0,-2.418,1,0.6,4.5,1.071,0.35,0.0168,0.4,270.34,-0.199,0,1,1.32,0,0,1.58,270.36,0.9834,0.006,-0.1812,1.59,270.34,2.4,-557.94,41.716,-0.055,0,0,0,0,271.42,0,0,0,0,0,0,0,0,0,0,0,0,0,1,1,0,0,VALID,0,0,0,0,0,1,0,0,0,0,0,0,0,0,0,0,0,0,0,0,0,358.53,2,0,0.08,0.08,220,11.54,0.1,0.08,18.86,FLYING,CF1-F,0:/Integrated Flight Computer/aircraft/cf1_f_cfg.ks (inferred preloaded)
19.12,APPROACH,ILS_TRACK,121.45,73,-48.45,1699.09,2.85,3,1.81,270.33,0.03,0,0,-2.382,1,0.6,4.5,1.074,0.35,0.0168,0.4,270.37,-0.203,0,1,1.34,0,0,1.6,270.35,0.9835,0.0064,-0.1809,1.61,270.37,2.35,-555.34,41.68,-0.033,0,0,0,0,271.42,0,0,0,0,0,0,0,0,0,0,0,0,0,1,1,0,0,VALID,0,0,0,0,0,1,0,0,0,0,0,0,0,0,0,0,0,0,0,0,0,358.64,2,0,0.1,0.1,223,11.54,0.1,0.06,19.12,FLYING,CF1-F,0:/Integrated Flight Computer/aircraft/cf1_f_cfg.ks (inferred preloaded)
19.38,APPROACH,ILS_TRACK,121.19,73,-48.19,1699.84,2.88,3.04,1.83,270.33,0.034,0,0,-2.346,1,0.6,4.5,1.077,0.35,0.0168,0.4,270.35,-0.207,0,1,1.36,0,0,1.62,270.36,0.9835,0.0061,-0.1806,1.62,270.35,2.31,-552.74,41.645,-0.049,0,0,0,0,271.42,0,0,0,0,0,0,0,0,0,0,0,0,0,1,1,0,0,VALID,0,0,0,0,0,1,0,0,0,0,0,0,0,0,0,0,0,0,0,0,0,358.75,2,0,0.08,0.08,226,11.54,0.1,0.08,19.38,FLYING,CF1-F,0:/Integrated Flight Computer/aircraft/cf1_f_cfg.ks (inferred preloaded)
19.64,APPROACH,ILS_TRACK,120.93,73,-47.93,1700.6,2.91,3.08,1.86,270.33,0.034,0,0,-2.311,1,0.6,4.5,1.081,0.35,0.0168,0.4,270.35,-0.21,0,1,1.38,0,0,1.64,270.34,0.9836,0.0061,-0.1804,1.64,270.35,2.26,-550.14,41.61,-0.046,0,0,0,0,271.42,0,0,0,0,0,0,0,0,0,0,0,0,0,1,1,0,0,VALID,0,0,0,0,0,1,0,0,0,0,0,0,0,0,0,0,0,0,0,0,0,358.86,2,0,0.1,0.1,229,11.54,0.1,0.06,19.64,FLYING,CF1-F,0:/Integrated Flight Computer/aircraft/cf1_f_cfg.ks (inferred preloaded)
19.9,APPROACH,ILS_TRACK,120.67,73,-47.67,1701.37,2.94,3.12,1.88,270.33,0.038,0,0,-2.277,1,0.6,4.5,1.084,0.35,0.0168,0.4,270.36,-0.214,0,1,1.39,0,0,1.66,270.34,0.9836,0.0063,-0.1801,1.66,270.36,2.21,-547.53,41.575,-0.036,0,0,0,0,271.42,0,0,0,0,0,0,0,0,0,0,0,0,0,1,1,0,0,VALID,0,0,0,0,0,1,0,0,0,0,0,0,0,0,0,0,0,0,0,0,0,358.98,2,0,0.08,0.08,232,11.54,0.1,0.08,19.9,FLYING,CF1-F,0:/Integrated Flight Computer/aircraft/cf1_f_cfg.ks (inferred preloaded)
20.16,APPROACH,ILS_TRACK,120.4,73,-47.4,1702.14,2.97,3.16,1.9,270.33,0.041,0,0,-2.243,1,0.6,4.5,1.087,0.35,0.0168,0.4,270.36,-0.218,0,1,1.41,0,0,1.68,270.35,0.9837,0.0063,-0.1798,1.68,270.36,2.16,-544.91,41.54,-0.037,0,0,0,0,271.42,0,0,0,0,0,0,0,0,0,0,0,0,0,1,1,0,0,VALID,0,0,0,0,0,1,0,0,0,0,0,0,0,0,0,0,0,0,0,0,0,359.09,2,0,0.1,0.1,235,11.54,0.1,0.06,20.16,FLYING,CF1-F,0:/Integrated Flight Computer/aircraft/cf1_f_cfg.ks (inferred preloaded)
20.42,APPROACH,ILS_TRACK,120.14,73,-47.14,1702.93,3,3.2,1.93,270.33,0.044,0,0,-2.209,1,0.6,4.5,1.091,0.35,0.0168,0.4,270.37,-0.222,0,1,1.43,0,0,1.7,270.35,0.9837,0.0064,-0.1795,1.7,270.37,2.11,-542.29,41.504,-0.033,0,0,0,0,271.42,0,0,0,0,0,0,0,0,0,0,0,0,0,1,1,0,0,VALID,0,0,0,0,0,1,0,0,0,0,0,0,0,0,0,0,0,0,0,0,0,359.2,2,0,0.08,0.08,238,11.54,0.1,0.08,20.42,FLYING,CF1-F,0:/Integrated Flight Computer/aircraft/cf1_f_cfg.ks (inferred preloaded)
20.68,APPROACH,ILS_TRACK,119.87,73,-46.87,1703.72,3.04,3.24,1.95,270.33,0.048,0,0,-2.176,1,0.6,4.5,1.094,0.35,0.0168,0.4,270.36,-0.226,0,1,1.45,0,0,1.72,270.39,0.9838,0.0062,-0.1792,1.73,270.36,2.07,-539.67,41.47,-0.042,0,0,0,0,271.42,0,0,0,0,0,0,0,0,0,0,0,0,0,1,1,0,0,VALID,0,0,0,0,0,1,0,0,0,0,0,0,0,0,0,0,0,0,0,0,0,359.32,2,0,0.1,0.1,241,11.54,0.1,0.06,20.68,FLYING,CF1-F,0:/Integrated Flight Computer/aircraft/cf1_f_cfg.ks (inferred preloaded)
20.94,APPROACH,ILS_TRACK,119.61,73,-46.61,1704.52,3.07,3.28,1.98,270.33,0.05,0,0,-2.144,1,0.6,4.5,1.097,0.35,0.0168,0.4,270.37,-0.23,0,1,1.47,0,0,1.74,270.36,0.9838,0.0065,-0.1789,1.75,270.37,2.02,-537.04,41.435,-0.027,0,0,0,0,271.42,0,0,0,0,0,0,0,0,0,0,0,0,0,1,1,0,0,VALID,0,0,0,0,0,1,0,0,0,0,0,0,0,0,0,0,0,0,0,0,0,359.43,2,0,0.08,0.08,244,11.54,0.1,0.08,20.94,FLYING,CF1-F,0:/Integrated Flight Computer/aircraft/cf1_f_cfg.ks (inferred preloaded)
21.2,APPROACH,ILS_TRACK,119.34,73,-46.34,1705.33,3.1,3.32,2,270.33,0.051,0,0,-2.112,1,0.6,4.5,1.101,0.35,0.0168,0.4,270.35,-0.234,0,1,1.49,0,0,1.76,270.37,0.9839,0.0061,-0.1786,1.77,270.35,1.98,-534.41,41.4,-0.046,0,0,0,0,271.42,0,0,0,0,0,0,0,0,0,0,0,0,0,1,1,0,0,VALID,0,0,0,0,0,1,0,0,0,0,0,0,0,0,0,0,0,0,0,0,0,359.55,2,0,0.1,0.1,247,11.54,0.1,0.06,21.2,FLYING,CF1-F,0:/Integrated Flight Computer/aircraft/cf1_f_cfg.ks (inferred preloaded)
21.46,APPROACH,ILS_TRACK,119.07,73,-46.07,1706.15,3.14,3.37,2.03,270.34,0.052,0,0,-2.08,1,0.6,4.5,1.105,0.35,0.0168,0.4,270.38,-0.238,0,1,1.51,0,0,1.78,270.36,0.984,0.0066,-0.1783,1.79,270.38,1.93,-531.77,41.365,-0.022,0,0,0,0,271.42,0,0,0,0,0,0,0,0,0,0,0,0,0,1,1,0,0,VALID,0,0,0,0,0,1,0,0,0,0,0,0,0,0,0,0,0,0,0,0,0,359.66,2,0,0.08,0.08,250,11.54,0.1,0.08,21.46,FLYING,CF1-F,0:/Integrated Flight Computer/aircraft/cf1_f_cfg.ks (inferred preloaded)
21.72,APPROACH,ILS_TRACK,118.8,73,-45.8,1706.98,3.17,3.41,2.05,270.34,0.053,0,0,-2.049,1,0.6,4.5,1.108,0.35,0.0168,0.4,270.35,-0.242,0,1,1.53,0,0,1.8,270.38,0.984,0.006,-0.1779,1.81,270.35,1.9,-529.13,41.331,-0.052,0,0,0,0,271.42,0,0,0,0,0,0,0,0,0,0,0,0,0,1,1,0,0,VALID,0,0,0,0,0,1,0,0,0,0,0,0,0,0,0,0,0,0,0,0,0,359.78,2,0,0.1,0.1,253,11.54,0.1,0.06,21.72,FLYING,CF1-F,0:/Integrated Flight Computer/aircraft/cf1_f_cfg.ks (inferred preloaded)
21.98,APPROACH,ILS_TRACK,118.53,73,-45.53,1707.81,3.2,3.45,2.08,270.34,0.055,0,0,-2.019,1,0.6,4.5,1.112,0.35,0.0168,0.4,270.36,-0.246,0,1,1.55,0,0,1.83,270.36,0.9841,0.0063,-0.1776,1.83,270.36,1.85,-526.48,41.296,-0.038,0,0,0,0,271.42,0,0,0,0,0,0,0,0,0,0,0,0,0,1,1,0,0,VALID,0,0,0,0,0,1,0,0,0,0,0,0,0,0,0,0,0,0,0,0,0,359.9,2,0,0.08,0.08,256,11.54,0.1,0.08,21.98,FLYING,CF1-F,0:/Integrated Flight Computer/aircraft/cf1_f_cfg.ks (inferred preloaded)
22.24,APPROACH,ILS_TRACK,118.26,73,-45.26,1708.66,3.24,3.5,2.11,270.34,0.057,0,0,-1.989,1,0.6,4.5,1.116,0.35,0.0168,0.4,270.37,-0.251,0,1,1.57,0,0,1.85,270.36,0.9841,0.0064,-0.1773,1.85,270.37,1.8,-523.83,41.261,-0.031,0,0,0,0,271.42,0,0,0,0,0,0,0,0,0,0,0,0,0,1,1,0,0,VALID,0,0,0,0,0,1,0,0,0,0,0,0,0,0,0,0,0,0,0,0,0,360.01,2,0,0.1,0.1,259,11.54,0.1,0.06,22.24,FLYING,CF1-F,0:/Integrated Flight Computer/aircraft/cf1_f_cfg.ks (inferred preloaded)
22.5,APPROACH,ILS_TRACK,117.98,73,-44.98,1709.51,3.27,3.54,2.13,270.34,0.057,0,0,-1.959,1,0.6,4.5,1.12,0.35,0.0168,0.4,270.36,-0.255,0,1,1.59,0,0,1.87,270.37,0.9842,0.0062,-0.177,1.88,270.36,1.77,-521.17,41.227,-0.042,0,0,0,0,271.42,0,0,0,0,0,0,0,0,0,0,0,0,0,1,1,0,0,VALID,0,0,0,0,0,1,0,0,0,0,0,0,0,0,0,0,0,0,0,0,0,360.13,2,0,0.08,0.08,262,11.54,0.1,0.08,22.5,FLYING,CF1-F,0:/Integrated Flight Computer/aircraft/cf1_f_cfg.ks (inferred preloaded)
22.76,APPROACH,ILS_TRACK,117.71,73,-44.71,1710.37,3.31,3.59,2.16,270.34,0.057,0,0,-1.93,1,0.6,4.5,1.123,0.35,0.0168,0.4,270.38,-0.259,0,1,1.61,0,0,1.89,270.37,0.9843,0.0066,-0.1767,1.9,270.38,1.72,-518.51,41.193,-0.019,0,0,0,0,271.42,0,0,0,0,0,0,0,0,0,0,0,0,0,1,1,0,0,VALID,0,0,0,0,0,1,0,0,0,0,0,0,0,0,0,0,0,0,0,0,0,360.25,2,0,0.1,0.1,265,11.54,0.1,0.06,22.76,FLYING,CF1-F,0:/Integrated Flight Computer/aircraft/cf1_f_cfg.ks (inferred preloaded)
23.02,APPROACH,ILS_TRACK,117.43,73,-44.43,1711.25,3.34,3.64,2.19,270.34,0.056,0,0,-1.901,1,0.6,4.5,1.127,0.35,0.0168,0.4,270.4,-0.264,0,1,1.63,0,0,1.92,270.36,0.9843,0.0069,-0.1763,1.92,270.4,1.68,-515.84,41.158,-0.002,0,0,0,0,271.42,0,0,0,0,0,0,0,0,0,0,0,0,0,1,1,0,0,VALID,0,0,0,0,0,1,0,0,0,0,0,0,0,0,0,0,0,0,0,0,0,360.37,2,0,0.08,0.08,268,11.54,0.1,0.08,23.02,FLYING,CF1-F,0:/Integrated Flight Computer/aircraft/cf1_f_cfg.ks (inferred preloaded)
23.28,APPROACH,ILS_TRACK,117.16,73,-44.16,1712.13,3.38,3.68,2.22,270.34,0.06,0,0,-1.873,1,0.6,4.5,1.132,0.35,0.0168,0.4,270.38,-0.268,0,1,1.65,0,0,1.94,270.37,0.9844,0.0065,-0.176,1.95,270.38,1.64,-513.17,41.124,-0.023,0,0,0,0,271.42,0,0,0,0,0,0,0,0,0,0,0,0,0,1,1,0,0,VALID,0,0,0,0,0,1,0,0,0,0,0,0,0,0,0,0,0,0,0,0,0,360.48,2,0,0.1,0.1,271,11.54,0.1,0.06,23.28,FLYING,CF1-F,0:/Integrated Flight Computer/aircraft/cf1_f_cfg.ks (inferred preloaded)
23.54,APPROACH,ILS_TRACK,116.88,73,-43.88,1713.02,3.42,3.73,2.24,270.34,0.057,0,0,-1.845,1,0.6,4.5,1.136,0.35,0.0168,0.4,270.37,-0.272,0,1,1.67,0,0,1.96,270.38,0.9844,0.0064,-0.1756,1.97,270.37,1.61,-510.49,41.09,-0.03,0,0,0,0,271.42,0,0,0,0,0,0,0,0,0,0,0,0,0,1,1,0,0,VALID,0,0,0,0,0,1,0,0,0,0,0,0,0,0,0,0,0,0,0,0,0,360.6,2,0,0.08,0.08,274,11.54,0.1,0.08,23.54,FLYING,CF1-F,0:/Integrated Flight Computer/aircraft/cf1_f_cfg.ks (inferred preloaded)
23.8,APPROACH,ILS_TRACK,116.6,73,-43.6,1713.92,3.45,3.77,2.27,270.35,0.057,0,0,-1.817,1,0.6,4.5,1.14,0.35,0.0168,0.4,270.37,-0.277,0,1,1.69,0,0,1.98,270.38,0.9845,0.0063,-0.1753,1.99,270.37,1.57,-507.8,41.056,-0.035,0,0,0,0,271.42,0,0,0,0,0,0,0,0,0,0,0,0,0,1,1,0,0,VALID,0,0,0,0,0,1,0,0,0,0,0,0,0,0,0,0,0,0,0,0,0,360.72,2,0,0.1,0.1,277,11.54,0.1,0.06,23.8,FLYING,CF1-F,0:/Integrated Flight Computer/aircraft/cf1_f_cfg.ks (inferred preloaded)
24.06,APPROACH,ILS_TRACK,116.32,73,-43.32,1714.83,3.49,3.82,2.3,270.35,0.056,0,0,-1.79,1,0.6,4.5,1.144,0.35,0.0168,0.4,270.39,-0.282,0,1,1.72,0,0,2.01,270.37,0.9846,0.0067,-0.1749,2.02,270.39,1.53,-505.11,41.022,-0.013,0,0,0,0,271.42,0,0,0,0,0,0,0,0,0,0,0,0,0,1,1,0,0,VALID,0,0,0,0,0,1,0,0,0,0,0,0,0,0,0,0,0,0,0,0,0,360.84,2,0,0.08,0.08,280,11.54,0.1,0.08,24.06,FLYING,CF1-F,0:/Integrated Flight Computer/aircraft/cf1_f_cfg.ks (inferred preloaded)
24.32,APPROACH,ILS_TRACK,116.04,73,-43.04,1715.76,3.53,3.87,2.33,270.35,0.058,0,0,-1.763,1,0.6,4.5,1.148,0.35,0.0168,0.4,270.37,-0.286,0,1,1.74,0,0,2.03,270.39,0.9846,0.0064,-0.1746,2.04,270.37,1.5,-502.42,40.988,-0.031,0,0,0,0,271.42,0,0,0,0,0,0,0,0,0,0,0,0,0,1,1,0,0,VALID,0,0,0,0,0,1,0,0,0,0,0,0,0,0,0,0,0,0,0,0,0,360.97,2,0,0.1,0.1,283,11.54,0.1,0.06,24.32,FLYING,CF1-F,0:/Integrated Flight Computer/aircraft/cf1_f_cfg.ks (inferred preloaded)
24.58,APPROACH,ILS_TRACK,115.76,73,-42.76,1716.69,3.57,3.92,2.36,270.35,0.056,0,0,-1.737,1,0.6,4.5,1.153,0.35,0.0168,0.4,270.39,-0.291,0,1,1.76,0,0,2.06,270.39,0.9847,0.0067,-0.1742,2.07,270.39,1.46,-499.71,40.954,-0.012,0,0,0,0,271.42,0,0,0,0,0,0,0,0,0,0,0,0,0,1,1,0,0,VALID,0,0,0,0,0,1,0,0,0,0,0,0,0,0,0,0,0,0,0,0,0,361.09,2,0,0.08,0.08,286,11.54,0.1,0.08,24.58,FLYING,CF1-F,0:/Integrated Flight Computer/aircraft/cf1_f_cfg.ks (inferred preloaded)
24.84,APPROACH,ILS_TRACK,115.48,73,-42.48,1717.63,3.6,3.97,2.39,270.35,0.057,0,0,-1.711,1,0.6,4.5,1.157,0.35,0.0168,0.4,270.38,-0.295,0,1,1.78,0,0,2.08,270.37,0.9848,0.0066,-0.1738,2.09,270.38,1.43,-497.01,40.921,-0.021,0,0,0,0,271.42,0,0,0,0,0,0,0,0,0,0,0,0,0,1,1,0,0,VALID,0,0,0,0,0,1,0,0,0,0,0,0,0,0,0,0,0,0,0,0,0,361.21,2,0,0.1,0.1,289,11.54,0.1,0.06,24.84,FLYING,CF1-F,0:/Integrated Flight Computer/aircraft/cf1_f_cfg.ks (inferred preloaded)
25.1,APPROACH,ILS_TRACK,115.19,73,-42.19,1718.58,3.64,4.02,2.42,270.35,0.056,0,0,-1.685,1,0.6,4.5,1.162,0.35,0.0168,0.4,270.38,-0.3,0,1,1.81,0,0,2.11,270.37,0.9848,0.0066,-0.1735,2.11,270.38,1.4,-494.29,40.887,-0.018,0,0,0,0,271.42,0,0,0,0,0,0,0,0,0,0,0,0,0,1,1,0,0,VALID,0,0,0,0,0,1,0,0,0,0,0,0,0,0,0,0,0,0,0,0,0,361.33,2,0,0.08,0.08,292,11.54,0.1,0.08,25.1,FLYING,CF1-F,0:/Integrated Flight Computer/aircraft/cf1_f_cfg.ks (inferred preloaded)
25.36,APPROACH,ILS_TRACK,114.91,73,-41.91,1719.54,3.68,4.07,2.45,270.35,0.057,0,0,-1.66,1,0.6,4.5,1.166,0.35,0.0168,0.4,270.37,-0.305,0,1,1.83,0,0,2.13,270.38,0.9849,0.0064,-0.1731,2.14,270.37,1.37,-491.57,40.853,-0.032,0,0,0,0,271.42,0,0,0,0,0,0,0,0,0,0,0,0,0,1,1,0,0,VALID,0,0,0,0,0,1,0,0,0,0,0,0,0,0,0,0,0,0,0,0,0,361.46,2,0,0.1,0.1,295,11.54,0.1,0.06,25.36,FLYING,CF1-F,0:/Integrated Flight Computer/aircraft/cf1_f_cfg.ks (inferred preloaded)
25.62,APPROACH,ILS_TRACK,114.62,73,-41.62,1720.51,3.72,4.13,2.48,270.35,0.057,0,0,-1.636,1,0.6,4.5,1.171,0.35,0.0168,0.4,270.39,-0.31,0,1,1.86,0,0,2.16,270.38,0.985,0.0067,-0.1726,2.17,270.39,1.33,-488.85,40.82,-0.011,0,0,0,0,271.42,0,0,0,0,0,0,0,0,0,0,0,0,0,1,1,0,0,VALID,0,0,0,0,0,1,0,0,0,0,0,0,0,0,0,0,0,0,0,0,0,361.58,2,0,0.08,0.08,298,11.54,0.1,0.08,25.62,FLYING,CF1-F,0:/Integrated Flight Computer/aircraft/cf1_f_cfg.ks (inferred preloaded)
25.88,APPROACH,ILS_TRACK,114.33,73,-41.33,1721.49,3.76,4.18,2.51,270.35,0.056,0,0,-1.611,1,0.6,4.5,1.176,0.35,0.0168,0.4,270.38,-0.315,0,1,1.88,0,0,2.18,270.39,0.985,0.0065,-0.1723,2.19,270.38,1.3,-486.12,40.787,-0.024,0,0,0,0,271.42,0,0,0,0,0,0,0,0,0,0,0,0,0,1,1,0,0,VALID,0,0,0,0,0,1,0,0,0,0,0,0,0,0,0,0,0,0,0,0,0,361.7,2,0,0.1,0.1,301,11.54,0.1,0.06,25.88,FLYING,CF1-F,0:/Integrated Flight Computer/aircraft/cf1_f_cfg.ks (inferred preloaded)
26.14,APPROACH,ILS_TRACK,114.04,73,-41.04,1722.48,3.8,4.23,2.54,270.36,0.052,0,0,-1.587,1,0.6,4.5,1.181,0.35,0.0168,0.4,270.4,-0.32,0,1,1.9,0,0,2.21,270.38,0.9851,0.007,-0.1718,2.22,270.4,1.27,-483.38,40.753,0.002,0,0,0,0,271.42,0,0,0,0,0,0,0,0,0,0,0,0,0,1,1,0,0,VALID,0,0,0,0,0,1,0,0,0,0,0,0,0,0,0,0,0,0,0,0,0,361.83,2,0,0.08,0.08,304,11.54,0.1,0.08,26.14,FLYING,CF1-F,0:/Integrated Flight Computer/aircraft/cf1_f_cfg.ks (inferred preloaded)
26.4,APPROACH,ILS_TRACK,113.75,73,-40.75,1723.48,3.84,4.28,2.57,270.36,0.054,0,0,-1.563,1,0.6,4.5,1.186,0.35,0.0168,0.4,270.39,-0.325,0,1,1.93,0,0,2.24,270.39,0.9852,0.0068,-0.1715,2.25,270.39,1.24,-480.64,40.72,-0.008,0,0,0,0,271.42,0,0,0,0,0,0,0,0,0,0,0,0,0,1,1,0,0,VALID,0,0,0,0,0,1,0,0,0,0,0,0,0,0,0,0,0,0,0,0,0,361.96,2,0,0.1,0.1,307,11.54,0.1,0.06,26.4,FLYING,CF1-F,0:/Integrated Flight Computer/aircraft/cf1_f_cfg.ks (inferred preloaded)
26.66,APPROACH,ILS_TRACK,113.46,73,-40.46,1724.49,3.88,4.34,2.61,270.36,0.055,0,0,-1.54,1,0.6,4.5,1.191,0.35,0.0168,0.4,270.38,-0.33,0,1,1.95,0,0,2.26,270.37,0.9852,0.0066,-0.171,2.28,270.38,1.21,-477.89,40.687,-0.018,0,0,0,0,271.42,0,0,0,0,0,0,0,0,0,0,0,0,0,1,1,0,0,VALID,0,0,0,0,0,1,0,0,0,0,0,0,0,0,0,0,0,0,0,0,0,362.08,2,0,0.08,0.08,310,11.54,0.1,0.08,26.66,FLYING,CF1-F,0:/Integrated Flight Computer/aircraft/cf1_f_cfg.ks (inferred preloaded)
26.92,APPROACH,ILS_TRACK,113.16,73,-40.16,1725.52,3.92,4.4,2.64,270.36,0.055,0,0,-1.517,1,0.6,4.5,1.196,0.35,0.0168,0.4,270.38,-0.335,0,1,1.98,0,0,2.3,270.37,0.9853,0.0066,-0.1706,2.3,270.38,1.19,-475.13,40.654,-0.021,0,0,0,0,271.42,0,0,0,0,0,0,0,0,0,0,0,0,0,1,1,0,0,VALID,0,0,0,0,0,1,0,0,0,0,0,0,0,0,0,0,0,0,0,0,0,362.21,2,0,0.1,0.1,313,11.54,0.1,0.06,26.92,FLYING,CF1-F,0:/Integrated Flight Computer/aircraft/cf1_f_cfg.ks (inferred preloaded)
27.18,APPROACH,ILS_TRACK,112.87,73,-39.87,1726.55,3.96,4.45,2.67,270.36,0.054,0,0,-1.494,1,0.6,4.5,1.201,0.35,0.0168,0.4,270.38,-0.34,0,1,2.01,0,0,2.33,270.38,0.9854,0.0066,-0.1702,2.33,270.38,1.16,-472.37,40.621,-0.02,0,0,0,0,271.42,0,0,0,0,0,0,0,0,0,0,0,0,0,1,1,0,0,VALID,0,0,0,0,0,1,0,0,0,0,0,0,0,0,0,0,0,0,0,0,0,362.34,2,0,0.08,0.08,316,11.54,0.1,0.08,27.18,FLYING,CF1-F,0:/Integrated Flight Computer/aircraft/cf1_f_cfg.ks (inferred preloaded)
27.44,APPROACH,ILS_TRACK,112.57,73,-39.57,1727.6,4,4.51,2.71,270.36,0.053,0,0,-1.472,1,0.6,4.5,1.206,0.35,0.0168,0.4,270.39,-0.345,0,1,2.04,0,0,2.35,270.37,0.9855,0.0067,-0.1697,2.36,270.39,1.13,-469.59,40.588,-0.01,0,0,0,0,271.42,0,0,0,0,0,0,0,0,0,0,0,0,0,1,1,0,0,VALID,0,0,0,0,0,1,0,0,0,0,0,0,0,0,0,0,0,0,0,0,0,362.47,2,0,0.1,0.1,319,11.54,0.1,0.06,27.44,FLYING,CF1-F,0:/Integrated Flight Computer/aircraft/cf1_f_cfg.ks (inferred preloaded)
27.7,APPROACH,ILS_TRACK,112.27,73,-39.27,1728.66,4.05,4.57,2.74,270.36,0.052,0,0,-1.45,1,0.6,4.5,1.211,0.35,0.0168,0.4,270.39,-0.351,0,1,2.06,0,0,2.38,270.38,0.9856,0.0067,-0.1692,2.39,270.39,1.1,-466.82,40.555,-0.01,0,0,0,0,271.42,0,0,0,0,0,0,0,0,0,0,0,0,0,1,1,0,0,VALID,0,0,0,0,0,1,0,0,0,0,0,0,0,0,0,0,0,0,0,0,0,362.59,2,0,0.08,0.08,322,11.54,0.1,0.08,27.7,FLYING,CF1-F,0:/Integrated Flight Computer/aircraft/cf1_f_cfg.ks (inferred preloaded)
27.96,APPROACH,ILS_TRACK,111.98,73,-38.98,1729.72,4.09,4.63,2.78,270.36,0.05,0,0,-1.428,1,0.6,4.5,1.217,0.35,0.0168,0.4,270.39,-0.356,0,1,2.09,0,0,2.41,270.38,0.9856,0.0068,-0.1688,2.42,270.39,1.08,-464.03,40.522,-0.008,0,0,0,0,271.42,0,0,0,0,0,0,0,0,0,0,0,0,0,1,1,0,0,VALID,0,0,0,0,0,1,0,0,0,0,0,0,0,0,0,0,0,0,0,0,0,362.72,2,0,0.1,0.1,325,11.54,0.1,0.06,27.96,FLYING,CF1-F,0:/Integrated Flight Computer/aircraft/cf1_f_cfg.ks (inferred preloaded)
28.22,APPROACH,ILS_TRACK,111.67,73,-38.67,1730.8,4.14,4.69,2.81,270.36,0.045,0,0,-1.407,1,0.6,4.5,1.222,0.35,0.0168,0.4,270.38,-0.361,0,1,2.12,0,0,2.44,270.4,0.9857,0.0066,-0.1684,2.45,270.38,1.05,-461.24,40.489,-0.018,0,0,0,0,271.42,0,0,0,0,0,0,0,0,0,0,0,0,0,1,1,0,0,VALID,0,0,0,0,0,1,0,0,0,0,0,0,0,0,0,0,0,0,0,0,0,362.85,2,0,0.08,0.08,328,11.54,0.1,0.08,28.22,FLYING,CF1-F,0:/Integrated Flight Computer/aircraft/cf1_f_cfg.ks (inferred preloaded)
28.48,APPROACH,ILS_TRACK,111.37,73,-38.37,1731.89,4.18,4.74,2.84,270.37,0.046,0,0,-1.386,1,0.6,4.5,1.228,0.35,0.0168,0.4,270.38,-0.367,0,1,2.15,0,0,2.46,270.4,0.9858,0.0065,-0.168,2.48,270.38,1.03,-458.44,40.457,-0.022,0,0,0,0,271.42,0,0,0,0,0,0,0,0,0,0,0,0,0,1,1,0,0,VALID,0,0,0,0,0,1,0,0,0,0,0,0,0,0,0,0,0,0,0,0,0,362.99,2,0,0.1,0.1,331,11.54,0.1,0.06,28.48,FLYING,CF1-F,0:/Integrated Flight Computer/aircraft/cf1_f_cfg.ks (inferred preloaded)
28.74,APPROACH,ILS_TRACK,111.07,73,-38.07,1733,4.22,4.81,2.88,270.37,0.045,0,0,-1.365,1,0.6,4.5,1.234,0.35,0.0168,0.4,270.39,-0.372,0,1,2.17,0,0,2.5,270.37,0.9859,0.0068,-0.1674,2.51,270.39,1.01,-455.64,40.424,-0.009,0,0,0,0,271.42,0,0,0,0,0,0,0,0,0,0,0,0,0,1,1,0,0,VALID,0,0,0,0,0,1,0,0,0,0,0,0,0,0,0,0,0,0,0,0,0,363.12,2,0,0.08,0.08,334,11.54,0.1,0.08,28.74,FLYING,CF1-F,0:/Integrated Flight Computer/aircraft/cf1_f_cfg.ks (inferred preloaded)
29,APPROACH,ILS_TRACK,110.76,73,-37.76,1734.11,4.26,4.86,2.91,270.37,0.046,0,0,-1.345,1,0.6,4.5,1.24,0.35,0.0168,0.4,270.39,-0.378,0,1,2.2,0,0,2.52,270.38,0.9859,0.0067,-0.1671,2.53,270.39,0.98,-452.83,40.392,-0.015,0,0,0,0,271.42,0,0,0,0,0,0,0,0,0,0,0,0,0,1,1,0,0,VALID,0,0,0,0,0,1,0,0,0,0,0,0,0,0,0,0,0,0,0,0,0,363.25,2,0,0.1,0.1,337,11.54,0.1,0.06,29,FLYING,CF1-F,0:/Integrated Flight Computer/aircraft/cf1_f_cfg.ks (inferred preloaded)
29.26,APPROACH,ILS_TRACK,110.46,73,-37.46,1735.23,4.31,4.93,2.95,270.37,0.044,0,0,-1.325,1,0.6,4.5,1.245,0.35,0.0168,0.4,270.39,-0.383,0,1,2.23,0,0,2.56,270.38,0.986,0.0068,-0.1665,2.57,270.39,0.96,-450.01,40.36,-0.009,0,0,0,0,271.42,0,0,0,0,0,0,0,0,0,0,0,0,0,1,1,0,0,VALID,0,0,0,0,0,1,0,0,0,0,0,0,0,0,0,0,0,0,0,0,0,363.38,2,0,0.08,0.08,340,11.54,0.1,0.08,29.26,FLYING,CF1-F,0:/Integrated Flight Computer/aircraft/cf1_f_cfg.ks (inferred preloaded)
29.52,APPROACH,ILS_TRACK,110.15,73,-37.15,1736.37,4.35,4.99,2.99,270.37,0.043,0,0,-1.305,1,0.6,4.5,1.251,0.35,0.0168,0.4,270.37,-0.389,0,1,2.26,0,0,2.58,270.39,0.9861,0.0064,-0.1661,2.6,270.37,0.94,-447.18,40.327,-0.029,0,0,0,0,271.42,0,0,0,0,0,0,0,0,0,0,0,0,0,1,1,0,0,VALID,0,0,0,0,0,1,0,0,0,0,0,0,0,0,0,0,0,0,0,0,0,363.52,2,0,0.1,0.1,343,11.54,0.1,0.06,29.52,FLYING,CF1-F,0:/Integrated Flight Computer/aircraft/cf1_f_cfg.ks (inferred preloaded)
29.78,APPROACH,ILS_TRACK,109.84,73,-36.84,1737.52,4.39,5.05,3.02,270.37,0.044,0,0,-1.286,1,0.6,4.5,1.257,0.35,0.0168,0.4,270.36,-0.395,0,1,2.29,0,0,2.62,270.39,0.9862,0.0063,-0.1657,2.62,270.36,0.92,-444.35,40.295,-0.037,0,0,0,0,271.42,0,0,0,0,0,0,0,0,0,0,0,0,0,1,1,0,0,VALID,0,0,0,0,0,1,0,0,0,0,0,0,0,0,0,0,0,0,0,0,0,363.65,2,0,0.08,0.08,346,11.54,0.1,0.08,29.78,FLYING,CF1-F,0:/Integrated Flight Computer/aircraft/cf1_f_cfg.ks (inferred preloaded)
30.04,APPROACH,ILS_TRACK,109.53,73,-36.53,1738.68,4.44,5.11,3.06,270.37,0.04,0,0,-1.267,1,0.6,4.5,1.263,0.35,0.0168,0.4,270.39,-0.401,0,1,2.32,0,0,2.65,270.38,0.9863,0.0068,-0.1651,2.66,270.39,0.9,-441.51,40.263,-0.009,0,0,0,0,271.42,0,0,0,0,0,0,0,0,0,0,0,0,0,1,1,0,0,VALID,0,0,0,0,0,1,0,0,0,0,0,0,0,0,0,0,0,0,0,0,0,363.79,2,0,0.1,0.1,349,11.54,0.1,0.06,30.04,FLYING,CF1-F,0:/Integrated Flight Computer/aircraft/cf1_f_cfg.ks (inferred preloaded)
30.3,APPROACH,ILS_TRACK,109.21,73,-36.21,1739.85,4.48,5.18,3.1,270.37,0.037,0,0,-1.248,1,0.6,4.5,1.269,0.35,0.0168,0.4,270.41,-0.406,0,1,2.35,0,0,2.68,270.37,0.9863,0.0071,-0.1646,2.69,270.41,0.88,-438.66,40.231,0.009,0,0,0,0,271.42,0,0,0,0,0,0,0,0,0,0,0,0,0,1,1,0,0,VALID,0,0,0,0,0,1,0,0,0,0,0,0,0,0,0,0,0,0,0,0,0,363.92,2,0,0.08,0.08,352,11.54,0.1,0.08,30.3,FLYING,CF1-F,0:/Integrated Flight Computer/aircraft/cf1_f_cfg.ks (inferred preloaded)
30.56,APPROACH,ILS_TRACK,108.9,73,-35.9,1741.03,4.53,5.24,3.14,270.37,0.039,0,0,-1.229,1,0.6,4.5,1.275,0.35,0.0168,0.4,270.38,-0.412,0,1,2.38,0,0,2.71,270.41,0.9864,0.0066,-0.1642,2.72,270.38,0.86,-435.81,40.199,-0.019,0,0,0,0,271.42,0,0,0,0,0,0,0,0,0,0,0,0,0,1,1,0,0,VALID,0,0,0,0,0,1,0,0,0,0,0,0,0,0,0,0,0,0,0,0,0,364.06,2,0,0.1,0.1,355,11.54,0.1,0.06,30.56,FLYING,CF1-F,0:/Integrated Flight Computer/aircraft/cf1_f_cfg.ks (inferred preloaded)
30.82,APPROACH,ILS_TRACK,108.58,73,-35.58,1742.22,4.57,5.31,3.18,270.37,0.041,0,0,-1.211,1,0.6,4.5,1.282,0.35,0.0168,0.4,270.36,-0.418,0,1,2.41,0,0,2.75,270.39,0.9865,0.0062,-0.1636,2.76,270.36,0.85,-432.95,40.167,-0.04,0,0,0,0,271.42,0,0,0,0,0,0,0,0,0,0,0,0,0,1,1,0,0,VALID,0,0,0,0,0,1,0,0,0,0,0,0,0,0,0,0,0,0,0,0,0,364.2,2,0,0.08,0.08,358,11.54,0.1,0.08,30.82,FLYING,CF1-F,0:/Integrated Flight Computer/aircraft/cf1_f_cfg.ks (inferred preloaded)
31.08,APPROACH,ILS_TRACK,108.26,73,-35.26,1743.43,4.61,5.37,3.22,270.37,0.038,0,0,-1.193,1,0.6,4.5,1.288,0.35,0.0168,0.4,270.39,-0.424,0,1,2.44,0,0,2.78,270.41,0.9866,0.0068,-0.1631,2.79,270.39,0.82,-430.08,40.136,-0.007,0,0,0,0,271.42,0,0,0,0,0,0,0,0,0,0,0,0,0,1,1,0,0,VALID,0,0,0,0,0,1,0,0,0,0,0,0,0,0,0,0,0,0,0,0,0,364.34,2,0,0.1,0.1,361,11.54,0.1,0.06,31.08,FLYING,CF1-F,0:/Integrated Flight Computer/aircraft/cf1_f_cfg.ks (inferred preloaded)
31.34,APPROACH,ILS_TRACK,107.94,73,-34.94,1744.64,4.66,5.44,3.26,270.37,0.033,0,0,-1.175,1,0.6,4.5,1.294,0.35,0.0168,0.4,270.39,-0.43,0,1,2.47,0,0,2.82,270.39,0.9867,0.0067,-0.1625,2.83,270.39,0.8,-427.21,40.104,-0.014,0,0,0,0,271.42,0,0,0,0,0,0,0,0,0,0,0,0,0,1,1,0,0,VALID,0,0,0,0,0,1,0,0,0,0,0,0,0,0,0,0,0,0,0,0,0,364.48,2,0,0.08,0.08,364,11.54,0.1,0.08,31.34,FLYING,CF1-F,0:/Integrated Flight Computer/aircraft/cf1_f_cfg.ks (inferred preloaded)
31.6,APPROACH,ILS_TRACK,107.62,73,-34.62,1745.87,4.7,5.5,3.3,270.37,0.033,0,0,-1.157,1,0.6,4.5,1.301,0.35,0.0168,0.4,270.37,-0.437,0,1,2.5,0,0,2.85,270.4,0.9868,0.0065,-0.162,2.86,270.37,0.79,-424.33,40.072,-0.025,0,0,0,0,271.42,0,0,0,0,0,0,0,0,0,0,0,0,0,1,1,0,0,VALID,0,0,0,0,0,1,0,0,0,0,0,0,0,0,0,0,0,0,0,0,0,364.62,2,0,0.1,0.1,367,11.54,0.1,0.06,31.6,FLYING,CF1-F,0:/Integrated Flight Computer/aircraft/cf1_f_cfg.ks (inferred preloaded)
31.86,APPROACH,ILS_TRACK,107.3,73,-34.3,1747.11,4.74,5.58,3.34,270.38,0.032,0,0,-1.14,1,0.6,4.5,1.307,0.35,0.0168,0.4,270.4,-0.443,0,1,2.53,0,0,2.89,270.38,0.9869,0.007,-0.1614,2.9,270.4,0.76,-421.44,40.041,0.004,0,0,0,0,271.42,0,0,0,0,0,0,0,0,0,0,0,0,0,1,1,0,0,VALID,0,0,0,0,0,1,0,0,0,0,0,0,0,0,0,0,0,0,0,0,0,364.76,2,0,0.08,0.08,370,11.54,0.1,0.08,31.86,FLYING,CF1-F,0:/Integrated Flight Computer/aircraft/cf1_f_cfg.ks (inferred preloaded)
32.12,APPROACH,ILS_TRACK,106.98,73,-33.98,1748.36,4.79,5.64,3.38,270.38,0.031,0,0,-1.123,1,0.6,4.5,1.314,0.35,0.0168,0.4,270.39,-0.449,0,1,2.56,0,0,2.92,270.39,0.987,0.0068,-0.1609,2.93,270.39,0.75,-418.54,40.01,-0.007,0,0,0,0,271.42,0,0,0,0,0,0,0,0,0,0,0,0,0,1,1,0,0,VALID,0,0,0,0,0,1,0,0,0,0,0,0,0,0,0,0,0,0,0,0,0,364.9,2,0,0.1,0.1,373,11.54,0.1,0.06,32.12,FLYING,CF1-F,0:/Integrated Flight Computer/aircraft/cf1_f_cfg.ks (inferred preloaded)
32.38,APPROACH,ILS_TRACK,106.65,73,-33.65,1749.62,4.83,5.72,3.43,270.38,0.03,0,0,-1.106,1,0.6,4.5,1.32,0.35,0.0168,0.4,270.39,-0.455,0,1,2.59,0,0,2.96,270.37,0.9871,0.0067,-0.1602,2.97,270.39,0.74,-415.64,39.978,-0.014,0,0,0,0,271.42,0,0,0,0,0,0,0,0,0,0,0,0,0,1,1,0,0,VALID,0,0,0,0,0,1,0,0,0,0,0,0,0,0,0,0,0,0,0,0,0,365.04,2,0,0.08,0.08,376,11.54,0.1,0.08,32.38,FLYING,CF1-F,0:/Integrated Flight Computer/aircraft/cf1_f_cfg.ks (inferred preloaded)
32.64,APPROACH,ILS_TRACK,106.32,73,-33.32,1750.9,4.88,5.79,3.47,270.38,0.026,0,0,-1.09,1,0.6,4.5,1.327,0.35,0.0168,0.4,270.4,-0.462,0,1,2.62,0,0,2.99,270.35,0.9871,0.0068,-0.1597,3.01,270.4,0.72,-412.74,39.947,-0.003,0,0,0,0,271.42,0,0,0,0,0,0,0,0,0,0,0,0,0,1,1,0,0,VALID,0,0,0,0,0,1,0,0,0,0,0,0,0,0,0,0,0,0,0,0,0,365.19,2,0,0.1,0.1,379,11.54,0.1,0.06,32.64,FLYING,CF1-F,0:/Integrated Flight Computer/aircraft/cf1_f_cfg.ks (inferred preloaded)
32.9,APPROACH,ILS_TRACK,105.99,73,-32.99,1752.18,4.92,5.85,3.51,270.38,0.025,0,0,-1.073,1,0.6,4.5,1.334,0.35,0.0168,0.4,270.39,-0.468,0,1,2.65,0,0,3.03,270.39,0.9872,0.0067,-0.1592,3.04,270.39,0.7,-409.82,39.916,-0.011,0,0,0,0,271.42,0,0,0,0,0,0,0,0,0,0,0,0,0,1,1,0,0,VALID,0,0,0,0,0,1,0,0,0,0,0,0,0,0,0,0,0,0,0,0,0,365.33,2,0,0.08,0.08,382,11.54,0.1,0.08,32.9,FLYING,CF1-F,0:/Integrated Flight Computer/aircraft/cf1_f_cfg.ks (inferred preloaded)
33.16,APPROACH,ILS_TRACK,105.66,73,-32.66,1753.48,4.96,5.93,3.56,270.38,0.025,0,0,-1.057,1,0.6,4.5,1.341,0.35,0.0168,0.4,270.39,-0.475,0,1,2.69,0,0,3.07,270.42,0.9873,0.0067,-0.1585,3.08,270.39,0.69,-406.9,39.885,-0.014,0,0,0,0,271.42,0,0,0,0,0,0,0,0,0,0,0,0,0,1,1,0,0,VALID,0,0,0,0,0,1,0,0,0,0,0,0,0,0,0,0,0,0,0,0,0,365.48,2,0,0.1,0.1,385,11.54,0.1,0.06,33.16,FLYING,CF1-F,0:/Integrated Flight Computer/aircraft/cf1_f_cfg.ks (inferred preloaded)
33.42,APPROACH,ILS_TRACK,105.33,73,-32.33,1754.79,5.01,6,3.6,270.38,0.026,0,0,-1.042,1,0.6,4.5,1.348,0.35,0.0168,0.4,270.37,-0.481,0,1,2.72,0,0,3.11,270.39,0.9874,0.0064,-0.1579,3.12,270.37,0.67,-403.97,39.854,-0.031,0,0,0,0,271.42,0,0,0,0,0,0,0,0,0,0,0,0,0,1,1,0,0,VALID,0,0,0,0,0,1,0,0,0,0,0,0,0,0,0,0,0,0,0,0,0,365.62,2,0,0.08,0.08,388,11.54,0.1,0.08,33.42,FLYING,CF1-F,0:/Integrated Flight Computer/aircraft/cf1_f_cfg.ks (inferred preloaded)
33.68,APPROACH,ILS_TRACK,104.99,73,-31.99,1756.11,5.05,6.08,3.65,270.38,0.026,0,0,-1.026,1,0.6,4.5,1.355,0.35,0.0168,0.4,270.37,-0.488,0,1,2.75,0,0,3.14,270.42,0.9875,0.0065,-0.1573,3.16,270.37,0.66,-401.04,39.823,-0.026,0,0,0,0,271.42,0,0,0,0,0,0,0,0,0,0,0,0,0,1,1,0,0,VALID,0,0,0,0,0,1,0,0,0,0,0,0,0,0,0,0,0,0,0,0,0,365.77,2,0,0.1,0.1,391,11.54,0.1,0.06,33.68,FLYING,CF1-F,0:/Integrated Flight Computer/aircraft/cf1_f_cfg.ks (inferred preloaded)
33.94,APPROACH,ILS_TRACK,104.65,73,-31.65,1757.44,5.09,6.16,3.7,270.38,0.025,0,0,-1.011,1,0.6,4.5,1.362,0.35,0.0168,0.4,270.39,-0.494,0,1,2.78,0,0,3.19,270.37,0.9877,0.0068,-0.1565,3.2,270.39,0.65,-398.09,39.792,-0.005,0,0,0,0,271.42,0,0,0,0,0,0,0,0,0,0,0,0,0,1,1,0,0,VALID,0,0,0,0,0,1,0,0,0,0,0,0,0,0,0,0,0,0,0,0,0,365.92,2,0,0.08,0.08,394,11.54,0.1,0.08,33.94,FLYING,CF1-F,0:/Integrated Flight Computer/aircraft/cf1_f_cfg.ks (inferred preloaded)
34.2,APPROACH,ILS_TRACK,104.31,73,-31.31,1758.79,5.14,6.24,3.75,270.38,0.023,0,0,-0.996,1,0.6,4.5,1.369,0.35,0.0168,0.4,270.4,-0.501,0,1,2.82,0,0,3.23,270.37,0.9878,0.0068,-0.1559,3.24,270.4,0.63,-395.14,39.762,-0.003,0,0,0,0,271.42,0,0,0,0,0,0,0,0,0,0,0,0,0,1,1,0,0,VALID,0,0,0,0,0,1,0,0,0,0,0,0,0,0,0,0,0,0,0,0,0,366.07,2,0,0.1,0.1,397,11.54,0.1,0.06,34.2,FLYING,CF1-F,0:/Integrated Flight Computer/aircraft/cf1_f_cfg.ks (inferred preloaded)
34.46,APPROACH,ILS_TRACK,103.97,73,-30.97,1760.14,5.19,6.31,3.79,270.38,0.023,0,0,-0.981,1,0.6,4.5,1.376,0.35,0.0168,0.4,270.39,-0.508,0,1,2.85,0,0,3.27,270.39,0.9879,0.0066,-0.1553,3.28,270.39,0.61,-392.19,39.731,-0.014,0,0,0,0,271.42,0,0,0,0,0,0,0,0,0,0,0,0,0,1,1,0,0,VALID,0,0,0,0,0,1,0,0,0,0,0,0,0,0,0,0,0,0,0,0,0,366.22,2,0,0.08,0.08,400,11.54,0.1,0.08,34.46,FLYING,CF1-F,0:/Integrated Flight Computer/aircraft/cf1_f_cfg.ks (inferred preloaded)
34.72,APPROACH,ILS_TRACK,103.63,73,-30.63,1761.51,5.23,6.39,3.84,270.38,0.023,0,0,-0.966,1,0.6,4.5,1.384,0.35,0.0168,0.4,270.38,-0.515,0,1,2.89,0,0,3.31,270.39,0.988,0.0065,-0.1546,3.33,270.38,0.6,-389.23,39.701,-0.022,0,0,0,0,271.42,0,0,0,0,0,0,0,0,0,0,0,0,0,1,1,0,0,VALID,0,0,0,0,0,1,0,0,0,0,0,0,0,0,0,0,0,0,0,0,0,366.37,2,0,0.1,0.1,403,11.54,0.1,0.06,34.72,FLYING,CF1-F,0:/Integrated Flight Computer/aircraft/cf1_f_cfg.ks (inferred preloaded)
34.98,APPROACH,ILS_TRACK,103.28,73,-30.28,1762.89,5.28,6.48,3.9,270.38,0.023,0,0,-0.952,1,0.6,4.5,1.391,0.35,0.0168,0.4,270.39,-0.522,0,1,2.92,0,0,3.36,270.4,0.9881,0.0068,-0.1538,3.38,270.39,0.59,-386.26,39.671,-0.006,0,0,0,0,271.42,0,0,0,0,0,0,0,0,0,0,0,0,0,1,1,0,0,VALID,0,0,0,0,0,1,0,0,0,0,0,0,0,0,0,0,0,0,0,0,0,366.52,2,0,0.08,0.08,406,11.54,0.1,0.08,34.98,FLYING,CF1-F,0:/Integrated Flight Computer/aircraft/cf1_f_cfg.ks (inferred preloaded)
35.24,APPROACH,ILS_TRACK,102.94,73,-29.94,1764.29,5.32,6.56,3.95,270.38,0.021,0,0,-0.938,1,0.6,4.5,1.399,0.35,0.0168,0.4,270.39,-0.529,0,1,2.96,0,0,3.4,270.37,0.9882,0.0067,-0.1531,3.42,270.39,0.57,-383.28,39.64,-0.012,0,0,0,0,271.42,0,0,0,0,0,0,0,0,0,0,0,0,0,1,1,0,0,VALID,0,0,0,0,0,1,0,0,0,0,0,0,0,0,0,0,0,0,0,0,0,366.68,2,0,0.1,0.1,409,11.54,0.1,0.06,35.24,FLYING,CF1-F,0:/Integrated Flight Computer/aircraft/cf1_f_cfg.ks (inferred preloaded)
35.5,APPROACH,ILS_TRACK,102.59,73,-29.59,1765.69,5.37,6.64,4,270.38,0.02,0,0,-0.924,1,0.6,4.5,1.407,0.35,0.0168,0.4,270.39,-0.536,0,1,2.99,0,0,3.45,270.39,0.9883,0.0066,-0.1523,3.46,270.39,0.56,-380.29,39.61,-0.015,0,0,0,0,271.42,0,0,0,0,0,0,0,0,0,0,0,0,0,1,1,0,0,VALID,0,0,0,0,0,1,0,0,0,0,0,0,0,0,0,0,0,0,0,0,0,366.83,2,0,0.08,0.08,412,11.54,0.1,0.08,35.5,FLYING,CF1-F,0:/Integrated Flight Computer/aircraft/cf1_f_cfg.ks (inferred preloaded)
