t_s,phase,subphase,ias_ms,vapp_ms,spd_err_ms,agl_m,vs_ms,pitch_deg,aoa_deg,hdg_deg,bank_deg,thr_cmd,thr_cur,thr_intg,at_gain,at_tau_s,at_a_up,at_a_dn,at_kp_thr,at_ki_spd,at_thr_slew,as_cmd_deg,as_cap_deg,as_raw_deg,as_spd_err_ms,as_active,aa_hdg_cmd_deg,aa_fpa_cmd_deg,aa_fbw,aa_dir,actual_fpa_deg,ftf_hdg_err_deg,ftf_fix_idx,kos_steer_pit_deg,kos_steer_hdg_deg,aa_dir_vx,aa_dir_vy,aa_dir_vz,aa_dir_pitch_deg,aa_dir_hdg_deg,ils_loc_m,ils_gs_m,ils_dist_km,loc_corr_deg,gs_corr_deg,gs_latched,active_gs_ang_deg,ils_intercept_alt_m,d_gs_ms,fpa_preclamped_deg,gs_nom_alt_m,flare_fpa_cmd,flare_tgt_vs,flare_frac,steer_hdg_deg,steer_blend,ro_loc_corr_deg,ro_hdg_err_deg,ro_yaw_tgt,ro_yaw_scale,ro_yaw_gate,yaw_cmd,roll_cmd,pitch_cmd,ro_pitch_tgt_deg,ro_pitch_err_deg,ro_pitch_ff,ro_roll_assist,flaps_cur,flaps_tgt,asc_j_ab,asc_j_rk,asc_validity,asc_q_pa,asc_q_raw_pa,asc_mach,asc_apo_m,asc_drag_n,asc_w_prop,asc_edot_aero,asc_edot_orb,asc_pitch_bias,asc_blend,asc_spooling,asc_ab_thr_ratio,asc_ab_t_now,asc_ab_t_avail,asc_ab_ign_on,asc_ab_flameouts,asc_rk_t_now,asc_rk_t_avail,asc_rk_ign_on,asc_rk_flameouts,ship_thrust,ship_avail_thrust,ship_ign_on,ship_flameouts,ifc_raw_dt_s,ifc_dt_s,ifc_loop_n,ifc_hz_est,ifc_raw_dt_max_s,ifc_raw_dt_min_s,phase_el_s,status,craft_name,cfg_file
3.18,TAKEOFF,TO_GROUND_ROLL,74.62,80,5.38,1296.02,-1.04,5.95,6.67,274.23,-0.827,1,0,0,0,0,0,0,0,0,0,0,0,0,0,0,90.4,0,1,0,-0.31,0,0,0,90,0,0,0,0,0,0,0,0,0,0,0,3,0,0,0,69,0,0,0,90.4,1,0,-176.165,0,0,1,0,0,0,0,0,0,0,0,1,0,0,VALID,0,0,0,0,0,1,0,0,0,0,0,0,0,0,0,0,0,0,0,0,3.22,383.97,2,0,0.18,0.18,1,0.31,0.18,0.02,3,FLYING,CF1-J,0:/Integrated Flight Computer/aircraft/cf1_j_cfg.ks (inferred preloaded)
3.46,TAKEOFF,TO_ROTATE,74.28,80,5.72,1295.72,-1.13,5.99,6.75,274.16,-0.095,1,0,0,0,0,0,0,0,0,0,0,0,0,0,0,90.4,6.554,0,1,-0.87,0,0,6.37,90.4,0.8354,-0.0069,-0.5496,6.55,90.4,0,0,0,0,0,0,3,0,0,0,69,0,0,0,90.4,1,0,-176.241,0,0,3,0,0,0,6.554,0.565,0,0,1,1,0,0,VALID,0,0,0,0,0,1,0,0,0,0,0,0,0,0,0,0,0,0,0,0,8.64,384.2,2,0,0.06,0.06,5,14.29,3.08,0.06,3.28,FLYING,CF1-J,0:/Integrated Flight Computer/aircraft/cf1_j_cfg.ks (inferred preloaded)
3.72,TAKEOFF,TO_ROTATE,73.97,80,6.03,1295.5,-1.22,6.57,7.34,274.2,0.345,1,0,0,0,0,0,0,0,0,0,0,0,0,0,0,90.4,7.334,0,1,-0.94,0,0,7.15,90.4,0.8278,-0.0068,-0.5609,7.33,90.4,0,0,0,0,0,0,3,0,0,0,69,0,0,0,90.4,1,0,-176.199,0,0,3,0,0,0,7.334,0.768,0,0,1,1,0,0,VALID,0,0,0,0,0,1,0,0,0,0,0,0,0,0,0,0,0,0,0,0,14.46,384.41,2,0,0.06,0.06,9,15.38,0.08,0.04,3.54,FLYING,CF1-J,0:/Integrated Flight Computer/aircraft/cf1_j_cfg.ks (inferred preloaded)
3.98,TAKEOFF,TO_ROTATE,73.62,80,6.38,1295.42,-1.1,7.97,8.62,274.35,1.395,1,0,0,0,0,0,0,0,0,0,0,0,0,0,0,90.4,8.114,0,1,-0.86,0,0,7.93,90.4,0.8201,-0.0068,-0.5722,8.11,90.4,0,0,0,0,0,0,3,0,0,0,69,0,0,0,90.4,1,0,-176.048,0,0,3,0,0,0,8.114,0.145,0,0,1,1,0,0,VALID,0,0,0,0,0,1,0,0,0,0,0,0,0,0,0,0,0,0,0,0,20.21,384.65,2,0,0.06,0.06,13,15.38,0.08,0.04,3.8,FLYING,CF1-J,0:/Integrated Flight Computer/aircraft/cf1_j_cfg.ks (inferred preloaded)
4.24,TAKEOFF,TO_ROTATE,73.2,80,6.8,1295.47,-0.58,9.65,10,274.66,2.937,1,0,0,0,0,0,0,0,0,0,0,0,0,0,0,90.4,8.894,0,1,-0.46,0,0,8.71,90.4,0.8122,-0.0068,-0.5833,8.89,90.4,0,0,0,0,0,0,3,0,0,0,69,0,0,0,90.4,1,0,-175.743,0,0,3,0,0,0,8.894,-0.751,0,0,1,1,0,0,VALID,0,0,0,0,0,1,0,0,0,0,0,0,0,0,0,0,0,0,0,0,25.87,384.92,2,0,0.06,0.06,17,15.38,0.08,0.04,4.06,FLYING,CF1-J,0:/Integrated Flight Computer/aircraft/cf1_j_cfg.ks (inferred preloaded)
4.5,TAKEOFF,TO_ROTATE,72.76,80,7.24,1295.52,0.13,10.33,10.27,275.01,4.245,1,0,0,0,0,0,0,0,0,0,0,0,0,0,0,90.4,9.674,0,1,0.1,0,0,9.49,90.4,0.8042,-0.0068,-0.5943,9.67,90.4,0,0,0,0,0,0,3,0,0,0,69,0,0,0,90.4,1,0,-175.386,0,0,3,0,0,0,9.674,-0.656,0,0,1,1,0,0,VALID,0,0,0,0,0,1,0,0,0,0,0,0,0,0,0,0,0,0,0,0,31.45,385.2,2,0,0.06,0.06,21,15.38,0.08,0.04,4.32,FLYING,CF1-J,0:/Integrated Flight Computer/aircraft/cf1_j_cfg.ks (inferred preloaded)
4.76,TAKEOFF,TO_ROTATE,72.31,80,7.69,1295.68,0.68,10.58,10.13,275.33,4.704,1,0,0,0,0,0,0,0,0,0,0,0,0,0,0,90.4,10,0,1,0.54,0,0,10,90.4,0.8008,-0.0068,-0.5989,10,90.4,0,0,0,0,0,0,3,0,0,0,69,0,0,0,90.4,1,0,-175.069,0,0,3,0,0,0,10,-0.579,0,0,1,1,0,0,VALID,0,0,0,0,0,1,0,0,0,0,0,0,0,0,0,0,0,0,0,0,36.96,385.48,2,0,0.06,0.06,25,15.38,0.08,0.04,4.58,FLYING,CF1-J,0:/Integrated Flight Computer/aircraft/cf1_j_cfg.ks (inferred preloaded)
5.02,TAKEOFF,TO_ROTATE,71.86,80,8.14,1296,1.16,11.06,10.24,275.6,4.947,1,0,0,0,0,0,0,0,0,0,0,0,0,0,0,90.4,10,0,1,0.93,0,0,10,90.4,0.8008,-0.0068,-0.599,10,90.4,0,0,0,0,0,0,3,0,0,0,69,0,0,0,90.4,1,0,-174.797,0,0,3,0,0,0,10,-1.055,0,0,1,1,0,0,VALID,0,0,0,0,0,1,0,0,0,0,0,0,0,0,0,0,0,0,0,0,42.39,385.76,2,0,0.06,0.06,29,15.38,0.08,0.04,4.84,FLYING,CF1-J,0:/Integrated Flight Computer/aircraft/cf1_j_cfg.ks (inferred preloaded)
5.3,CRUISE,,71.37,80,8.63,1296.55,1.73,11.88,10.71,275.88,5.133,1,0,0,0,0,0,0,0,0,0,0,0,0,0,0,90.4,11.567,0,1,1.35,0,0,10,90.4,0.7841,-0.0067,-0.6207,11.57,90.4,0,0,0,0,0,0,3,0,0,0,69,0,0,0,90.4,1,0,-174.521,0,0,3,0,0,0,10,-1.663,0,0,1,1,0,0,VALID,0,0,0,0,0,1,0,0,0,0,0,0,0,0,0,0,0,0,0,0,48.15,386.05,2,0,0.06,0.06,33,14.29,0.08,0.04,0,FLYING,CF1-J,0:/Integrated Flight Computer/aircraft/cf1_j_cfg.ks (inferred preloaded)
5.6,CRUISE,,70.81,80,9.19,1297.33,2.57,12.85,11.07,276.18,5.231,0.992,0,19.8,1,0.6,1.772,0.77,0.35,0.0168,0.4,0,45,0,-179.155,0,90,0,0,0,2.03,0,0,11.56,90.4,0.7841,-0.0067,-0.6207,11.57,90.4,0,0,0,0,0,0,3,0,0,0,69,0,0,0,90.4,1,0,-174.521,0,0,3,0,0,0,10,-1.663,0,0,0,0,0,0,VALID,0,0,0,0,0,1,0,0,0,0,0,0,0,0,0,0,0,0,0,0,54.02,386.37,2,0,0.06,0.06,37,13.33,0.1,0.06,0.3,FLYING,CF1-J,0:/Integrated Flight Computer/aircraft/cf1_j_cfg.ks (inferred preloaded)
5.88,CRUISE,,70.31,80,9.69,1298.11,3.21,12.6,10.33,276.39,5.71,1,0,19.407,1,0.6,3.042,0.77,0.35,0.0168,0.4,0,45,0,-179.658,0,90,0,0,0,2.58,0,0,11.56,90.4,0.7841,-0.0067,-0.6207,11.57,90.4,0,0,0,0,0,0,3,0,0,0,69,0,0,0,90.4,1,0,-174.521,0,0,3,0,0,0,10,-1.663,0,0,0,0,0,0,VALID,0,0,0,0,0,1,0,0,0,0,0,0,0,0,0,0,0,0,0,0,59.57,386.64,2,0,0.06,0.06,41,14.29,0.08,0.06,0.58,FLYING,CF1-J,0:/Integrated Flight Computer/aircraft/cf1_j_cfg.ks (inferred preloaded)
6.16,CRUISE,,69.87,80,10.13,1299.03,3.52,12.33,9.82,276.7,6.744,1,0,19.022,1,0.6,3.954,0.77,0.35,0.0168,0.4,0,45,0,-180.1,0,90.01,0,0,0,2.87,0,0,11.56,90.4,0.7841,-0.0067,-0.6207,11.57,90.4,0,0,0,0,0,0,3,0,0,0,69,0,0,0,90.4,1,0,-174.521,0,0,3,0,0,0,10,-1.663,0,0,0,0,0,0,VALID,0,0,0,0,0,1,0,0,0,0,0,0,0,0,0,0,0,0,0,0,65.06,386.87,2,0,0.06,0.06,45,14.29,0.08,0.06,0.86,FLYING,CF1-J,0:/Integrated Flight Computer/aircraft/cf1_j_cfg.ks (inferred preloaded)
6.44,CRUISE,,69.49,80,10.51,1300.09,3.71,12.61,9.97,277.2,8.223,1,0,18.645,1,0.6,4.5,0.77,0.35,0.0168,0.4,0,45,0,-180.489,0,90.01,0,0,0,3.05,0,0,11.56,90.4,0.7841,-0.0067,-0.6207,11.57,90.4,0,0,0,0,0,0,3,0,0,0,69,0,0,0,90.4,1,0,-174.521,0,0,3,0,0,0,10,-1.663,0,0,0,0,0,0,VALID,0,0,0,0,0,1,0,0,0,0,0,0,0,0,0,0,0,0,0,0,70.46,387.06,2,0,0.06,0.06,49,14.29,0.08,0.06,1.14,FLYING,CF1-J,0:/Integrated Flight Computer/aircraft/cf1_j_cfg.ks (inferred preloaded)
6.72,CRUISE,,69.14,80,10.86,1301.3,3.96,13.43,10.64,277.84,9.178,1,0,18.274,1,0.6,4.5,0.77,0.35,0.0168,0.4,0,45,0,-180.838,0,90.01,0,0,0,3.26,0,0,11.56,90.4,0.7841,-0.0067,-0.6207,11.57,90.4,0,0,0,0,0,0,3,0,0,0,69,0,0,0,90.4,1,0,-174.521,0,0,3,0,0,0,10,-1.663,0,0,0,0,0,0,VALID,0,0,0,0,0,1,0,0,0,0,0,0,0,0,0,0,0,0,0,0,75.77,387.23,2,0,0.06,0.06,53,14.29,0.08,0.06,1.42,FLYING,CF1-J,0:/Integrated Flight Computer/aircraft/cf1_j_cfg.ks (inferred preloaded)
7,CRUISE,,68.8,80,11.2,1302.55,4.43,13.95,10.81,278.36,9.269,1,0,17.912,1,0.6,4.5,0.77,0.35,0.0168,0.4,0,45,0,-181.181,0,90.01,0,0,0,3.66,0,0,11.55,90.4,0.7841,-0.0067,-0.6207,11.57,90.4,0,0,0,0,0,0,3,0,0,0,69,0,0,0,90.4,1,0,-174.521,0,0,3,0,0,0,10,-1.663,0,0,0,0,0,0,VALID,0,0,0,0,0,1,0,0,0,0,0,0,0,0,0,0,0,0,0,0,81,387.38,2,0,0.06,0.06,57,14.29,0.08,0.06,1.7,FLYING,CF1-J,0:/Integrated Flight Computer/aircraft/cf1_j_cfg.ks (inferred preloaded)
7.28,CRUISE,,68.49,80,11.51,1303.81,4.7,13.79,10.42,278.65,9.079,1,0,17.556,1,0.6,4.5,0.77,0.35,0.0168,0.4,0,45,0,-181.489,0,90.01,0,0,0,3.91,0,0,11.55,90.4,0.7841,-0.0067,-0.6207,11.57,90.4,0,0,0,0,0,0,3,0,0,0,69,0,0,0,90.4,1,0,-174.521,0,0,3,0,0,0,10,-1.663,0,0,0,0,0,0,VALID,0,0,0,0,0,1,0,0,0,0,0,0,0,0,0,0,0,0,0,0,86.13,387.51,2,0,0.06,0.06,61,14.29,0.08,0.06,1.98,FLYING,CF1-J,0:/Integrated Flight Computer/aircraft/cf1_j_cfg.ks (inferred preloaded)
7.56,CRUISE,,68.22,80,11.78,1305.17,4.86,13.87,10.36,278.96,9.046,1,0,17.208,1,0.6,4.5,0.77,0.35,0.0168,0.4,0,45,0,-181.758,0,90.02,0,0,0,4.06,0,0,11.55,90.4,0.7841,-0.0067,-0.6207,11.57,90.4,0,0,0,0,0,0,3,0,0,0,69,0,0,0,90.4,1,0,-174.521,0,0,3,0,0,0,10,-1.663,0,0,0,0,0,0,VALID,0,0,0,0,0,1,0,0,0,0,0,0,0,0,0,0,0,0,0,0,91.18,387.61,2,0,0.06,0.06,65,14.29,0.08,0.06,2.26,FLYING,CF1-J,0:/Integrated Flight Computer/aircraft/cf1_j_cfg.ks (inferred preloaded)
7.84,CRUISE,,67.96,80,12.04,1306.66,5.06,14.5,10.83,279.39,9.045,1,0,16.866,1,0.6,4.5,0.77,0.35,0.0168,0.4,0,45,0,-182.019,0,90.02,0,0,0,4.24,0,0,11.55,90.4,0.7841,-0.0067,-0.6207,11.57,90.4,0,0,0,0,0,0,3,0,0,0,69,0,0,0,90.4,1,0,-174.521,0,0,3,0,0,0,10,-1.663,0,0,0,0,0,0,VALID,0,0,0,0,0,1,0,0,0,0,0,0,0,0,0,0,0,0,0,0,96.15,387.71,2,0,0.06,0.06,69,14.29,0.08,0.06,2.54,FLYING,CF1-J,0:/Integrated Flight Computer/aircraft/cf1_j_cfg.ks (inferred preloaded)
8.12,CRUISE,,67.7,80,12.3,1308.23,5.48,15.16,11.17,279.81,8.938,1,0,16.531,1,0.6,4.5,0.77,0.35,0.0168,0.4,0,45,0,-182.285,0,90.02,0,0,0,4.6,0,0,11.55,90.4,0.7841,-0.0067,-0.6207,11.57,90.4,0,0,0,0,0,0,3,0,0,0,69,0,0,0,90.4,1,0,-174.521,0,0,3,0,0,0,10,-1.663,0,0,0,0,0,0,VALID,0,0,0,0,0,1,0,0,0,0,0,0,0,0,0,0,0,0,0,0,101.03,387.8,2,0,0.06,0.06,73,14.29,0.08,0.06,2.82,FLYING,CF1-J,0:/Integrated Flight Computer/aircraft/cf1_j_cfg.ks (inferred preloaded)
8.4,CRUISE,,67.44,80,12.56,1309.84,5.82,15.26,10.99,280.13,8.863,1,0,16.203,1,0.6,4.5,0.77,0.35,0.0168,0.4,0,45,0,-182.545,0,90.03,0,0,0,4.91,0,0,11.54,90.4,0.7841,-0.0067,-0.6207,11.57,90.4,0,0,0,0,0,0,3,0,0,0,69,0,0,0,90.4,1,0,-174.521,0,0,3,0,0,0,10,-1.663,0,0,0,0,0,0,VALID,0,0,0,0,0,1,0,0,0,0,0,0,0,0,0,0,0,0,0,0,105.83,387.89,2,0,0.06,0.06,77,14.29,0.08,0.06,3.1,FLYING,CF1-J,0:/Integrated Flight Computer/aircraft/cf1_j_cfg.ks (inferred preloaded)
8.68,CRUISE,,67.19,80,12.81,1311.55,6.06,15.54,11.06,280.5,8.937,1,0,15.882,1,0.6,4.5,0.77,0.35,0.0168,0.4,0,45,0,-182.789,0,90.03,0,0,0,5.14,0,0,11.54,90.4,0.7841,-0.0067,-0.6207,11.57,90.4,0,0,0,0,0,0,3,0,0,0,69,0,0,0,90.4,1,0,-174.521,0,0,3,0,0,0,10,-1.663,0,0,0,0,0,0,VALID,0,0,0,0,0,1,0,0,0,0,0,0,0,0,0,0,0,0,0,0,110.56,387.96,2,0,0.06,0.06,81,14.29,0.08,0.06,3.38,FLYING,CF1-J,0:/Integrated Flight Computer/aircraft/cf1_j_cfg.ks (inferred preloaded)
8.96,CRUISE,,66.96,80,13.04,1313.39,6.37,16.18,11.47,280.95,8.969,1,0,15.566,1,0.6,4.5,0.77,0.35,0.0168,0.4,0,45,0,-183.026,0,90.03,0,0,0,5.41,0,0,11.54,90.4,0.7841,-0.0067,-0.6207,11.57,90.4,0,0,0,0,0,0,3,0,0,0,69,0,0,0,90.4,1,0,-174.521,0,0,3,0,0,0,10,-1.663,0,0,0,0,0,0,VALID,0,0,0,0,0,1,0,0,0,0,0,0,0,0,0,0,0,0,0,0,115.2,388.02,2,0,0.06,0.06,85,14.29,0.08,0.06,3.66,FLYING,CF1-J,0:/Integrated Flight Computer/aircraft/cf1_j_cfg.ks (inferred preloaded)
9.24,CRUISE,,66.72,80,13.28,1315.28,6.79,16.48,11.42,281.33,8.917,1,0,15.257,1,0.6,4.5,0.77,0.35,0.0168,0.4,0,45,0,-183.261,0,90.03,0,0,0,5.79,0,0,11.54,90.4,0.7841,-0.0067,-0.6207,11.57,90.4,0,0,0,0,0,0,3,0,0,0,69,0,0,0,90.4,1,0,-174.521,0,0,3,0,0,0,10,-1.663,0,0,0,0,0,0,VALID,0,0,0,0,0,1,0,0,0,0,0,0,0,0,0,0,0,0,0,0,119.76,388.07,2,0,0.06,0.06,89,14.29,0.08,0.06,3.94,FLYING,CF1-J,0:/Integrated Flight Computer/aircraft/cf1_j_cfg.ks (inferred preloaded)
9.52,CRUISE,,66.5,80,13.5,1317.25,7.08,16.59,11.28,281.67,8.935,1,0,14.954,1,0.6,4.5,0.77,0.35,0.0168,0.4,0,45,0,-183.482,0,90.04,0,0,0,6.06,0,0,11.54,90.4,0.7841,-0.0067,-0.6207,11.57,90.4,0,0,0,0,0,0,3,0,0,0,69,0,0,0,90.4,1,0,-174.521,0,0,3,0,0,0,10,-1.663,0,0,0,0,0,0,VALID,0,0,0,0,0,1,0,0,0,0,0,0,0,0,0,0,0,0,0,0,124.25,388.12,2,0,0.06,0.06,93,14.29,0.08,0.06,4.22,FLYING,CF1-J,0:/Integrated Flight Computer/aircraft/cf1_j_cfg.ks (inferred preloaded)
9.8,CRUISE,,66.3,80,13.7,1319.34,7.34,17.01,11.49,282.09,9.027,1,0,14.658,1,0.6,4.5,0.77,0.35,0.0168,0.4,0,45,0,-183.69,0,90.04,0,0,0,6.3,0,0,11.53,90.4,0.7841,-0.0067,-0.6207,11.57,90.4,0,0,0,0,0,0,3,0,0,0,69,0,0,0,90.4,1,0,-174.521,0,0,3,0,0,0,10,-1.663,0,0,0,0,0,0,VALID,0,0,0,0,0,1,0,0,0,0,0,0,0,0,0,0,0,0,0,0,128.66,388.15,2,0,0.06,0.06,97,14.29,0.08,0.06,4.5,FLYING,CF1-J,0:/Integrated Flight Computer/aircraft/cf1_j_cfg.ks (inferred preloaded)
10.08,CRUISE,,66.09,80,13.91,1321.52,7.75,17.52,11.68,282.53,9.049,1,0,14.367,1,0.6,4.5,0.77,0.35,0.0168,0.4,0,45,0,-183.896,0,90.04,0,0,0,6.66,0,0,11.53,90.4,0.7841,-0.0067,-0.6207,11.57,90.4,0,0,0,0,0,0,3,0,0,0,69,0,0,0,90.4,1,0,-174.521,0,0,3,0,0,0,10,-1.663,0,0,0,0,0,0,VALID,0,0,0,0,0,1,0,0,0,0,0,0,0,0,0,0,0,0,0,0,132.99,388.17,2,0,0.06,0.06,101,14.29,0.08,0.06,4.78,FLYING,CF1-J,0:/Integrated Flight Computer/aircraft/cf1_j_cfg.ks (inferred preloaded)
10.36,CRUISE,,65.9,80,14.1,1323.74,8.07,17.54,11.42,282.87,9.051,1,0,14.081,1,0.6,4.5,0.77,0.35,0.0168,0.4,0,45,0,-184.091,0,90.05,0,0,0,6.97,0,0,11.53,90.4,0.7841,-0.0067,-0.6207,11.57,90.4,0,0,0,0,0,0,3,0,0,0,69,0,0,0,90.4,1,0,-174.521,0,0,3,0,0,0,10,-1.663,0,0,0,0,0,0,VALID,0,0,0,0,0,1,0,0,0,0,0,0,0,0,0,0,0,0,0,0,137.25,388.18,2,0,0.06,0.06,105,14.29,0.08,0.06,5.06,FLYING,CF1-J,0:/Integrated Flight Computer/aircraft/cf1_j_cfg.ks (inferred preloaded)
10.64,CRUISE,,65.72,80,14.28,1326.04,8.41,17.55,11.15,283.23,9.167,1,0,13.802,1,0.6,4.5,0.77,0.35,0.0168,0.4,0,45,0,-184.266,0,90.05,0,0,0,7.27,0,0,11.53,90.4,0.7841,-0.0067,-0.6207,11.57,90.4,0,0,0,0,0,0,3,0,0,0,69,0,0,0,90.4,1,0,-174.521,0,0,3,0,0,0,10,-1.663,0,0,0,0,0,0,VALID,0,0,0,0,0,1,0,0,0,0,0,0,0,0,0,0,0,0,0,0,141.43,388.18,2,0,0.06,0.06,109,14.29,0.08,0.06,5.34,FLYING,CF1-J,0:/Integrated Flight Computer/aircraft/cf1_j_cfg.ks (inferred preloaded)
10.92,CRUISE,,65.6,80,14.4,1328.23,8.65,16.26,9.63,283.36,9.227,1,0,13.528,1,0.6,4.5,0.77,0.35,0.0168,0.4,0,45,0,-184.391,0,90.06,0,0,0,7.51,0,0,11.53,90.4,0.7841,-0.0067,-0.6207,11.57,90.4,0,0,0,0,0,0,3,0,0,0,69,0,0,0,90.4,1,0,-174.521,0,0,3,0,0,0,10,-1.663,0,0,0,0,0,0,VALID,0,0,0,0,0,1,0,0,0,0,0,0,0,0,0,0,0,0,0,0,145.53,388.13,2,0,0.06,0.06,113,14.29,0.08,0.06,5.62,FLYING,CF1-J,0:/Integrated Flight Computer/aircraft/cf1_j_cfg.ks (inferred preloaded)
11.2,CRUISE,,65.6,80,14.4,1330.32,8.49,14.28,7.73,283.35,9.076,1,0,13.259,1,0.6,4.5,0.77,0.35,0.0168,0.4,0,45,0,-184.404,0,90.06,0,0,0,7.39,0,0,11.53,90.4,0.7841,-0.0067,-0.6207,11.57,90.4,0,0,0,0,0,0,3,0,0,0,69,0,0,0,90.4,1,0,-174.521,0,0,3,0,0,0,10,-1.663,0,0,0,0,0,0,VALID,0,0,0,0,0,1,0,0,0,0,0,0,0,0,0,0,0,0,0,0,149.53,388.02,2,0,0.06,0.06,117,14.29,0.08,0.06,5.9,FLYING,CF1-J,0:/Integrated Flight Computer/aircraft/cf1_j_cfg.ks (inferred preloaded)
11.48,CRUISE,,65.7,80,14.3,1332.2,7.92,11.56,5.4,283.17,8.409,1,0,12.996,1,0.6,4.5,0.77,0.35,0.0168,0.4,0,45,0,-184.315,0,90.06,0,0,0,6.93,0,0,11.52,90.4,0.7841,-0.0067,-0.6207,11.57,90.4,0,0,0,0,0,0,3,0,0,0,69,0,0,0,90.4,1,0,-174.521,0,0,3,0,0,0,10,-1.663,0,0,0,0,0,0,VALID,0,0,0,0,0,1,0,0,0,0,0,0,0,0,0,0,0,0,0,0,153.44,387.85,2,0,0.06,0.06,121,14.29,0.08,0.06,6.18,FLYING,CF1-J,0:/Integrated Flight Computer/aircraft/cf1_j_cfg.ks (inferred preloaded)
11.76,CRUISE,,65.92,80,14.08,1333.96,6.82,9.62,4.3,283.07,7.123,1,0,12.738,1,0.6,4.5,0.77,0.35,0.0168,0.4,0,45,0,-184.098,0,90.07,0,0,0,5.97,0,0,11.52,90.4,0.7841,-0.0067,-0.6207,11.57,90.4,0,0,0,0,0,0,3,0,0,0,69,0,0,0,90.4,1,0,-174.521,0,0,3,0,0,0,10,-1.663,0,0,0,0,0,0,VALID,0,0,0,0,0,1,0,0,0,0,0,0,0,0,0,0,0,0,0,0,157.25,387.61,2,0,0.06,0.06,125,14.29,0.08,0.06,6.46,FLYING,CF1-J,0:/Integrated Flight Computer/aircraft/cf1_j_cfg.ks (inferred preloaded)
12.04,CRUISE,,66.23,80,13.77,1335.6,5.71,8.89,4.44,283.06,5.38,1,0,12.485,1,0.6,4.5,0.77,0.35,0.0168,0.4,0,45,0,-183.796,0,90.07,0,0,0,4.99,0,0,11.52,90.4,0.7841,-0.0067,-0.6207,11.57,90.4,0,0,0,0,0,0,3,0,0,0,69,0,0,0,90.4,1,0,-174.521,0,0,3,0,0,0,10,-1.663,0,0,0,0,0,0,VALID,0,0,0,0,0,1,0,0,0,0,0,0,0,0,0,0,0,0,0,0,160.98,387.33,2,0,0.06,0.06,129,14.29,0.08,0.06,6.74,FLYING,CF1-J,0:/Integrated Flight Computer/aircraft/cf1_j_cfg.ks (inferred preloaded)
12.32,CRUISE,,66.59,80,13.41,1337.14,4.73,9.4,5.74,283.15,4.077,1,0,12.237,1,0.6,4.5,0.77,0.35,0.0168,0.4,0,45,0,-183.438,0,90.08,0,0,0,4.11,0,0,11.52,90.4,0.7841,-0.0067,-0.6207,11.57,90.4,0,0,0,0,0,0,3,0,0,0,69,0,0,0,90.4,1,0,-174.521,0,0,3,0,0,0,10,-1.663,0,0,0,0,0,0,VALID,0,0,0,0,0,1,0,0,0,0,0,0,0,0,0,0,0,0,0,0,164.63,387.03,2,0,0.06,0.06,133,14.29,0.08,0.06,7.02,FLYING,CF1-J,0:/Integrated Flight Computer/aircraft/cf1_j_cfg.ks (inferred preloaded)
12.6,CRUISE,,66.95,80,13.05,1338.52,4.28,10.25,6.98,283.27,3.326,1,0,11.995,1,0.6,4.5,0.77,0.35,0.0168,0.4,0,45,0,-183.076,0,90.08,0,0,0,3.68,0,0,11.52,90.4,0.7841,-0.0067,-0.6207,11.57,90.4,0,0,0,0,0,0,3,0,0,0,69,0,0,0,90.4,1,0,-174.521,0,0,3,0,0,0,10,-1.663,0,0,0,0,0,0,VALID,0,0,0,0,0,1,0,0,0,0,0,0,0,0,0,0,0,0,0,0,168.21,386.75,2,0,0.06,0.06,137,14.29,0.08,0.06,7.3,FLYING,CF1-J,0:/Integrated Flight Computer/aircraft/cf1_j_cfg.ks (inferred preloaded)
12.88,CRUISE,,67.29,80,12.71,1339.79,3.94,11.03,8.04,283.4,3.041,1,0,11.756,1,0.6,4.5,0.77,0.35,0.0168,0.4,0,45,0,-182.732,0,90.09,0,0,0,3.37,0,0,11.51,90.4,0.7841,-0.0067,-0.6207,11.57,90.4,0,0,0,0,0,0,3,0,0,0,69,0,0,0,90.4,1,0,-174.521,0,0,3,0,0,0,10,-1.663,0,0,0,0,0,0,VALID,0,0,0,0,0,1,0,0,0,0,0,0,0,0,0,0,0,0,0,0,171.73,386.48,2,0,0.06,0.06,141,14.29,0.08,0.06,7.58,FLYING,CF1-J,0:/Integrated Flight Computer/aircraft/cf1_j_cfg.ks (inferred preloaded)
13.16,CRUISE,,67.58,80,12.42,1341.07,3.9,12.29,9.36,283.65,3.536,1,0,11.523,1,0.6,4.5,0.77,0.35,0.0168,0.4,0,45,0,-182.436,0,90.09,0,0,0,3.29,0,0,11.51,90.4,0.7841,-0.0067,-0.6207,11.57,90.4,0,0,0,0,0,0,3,0,0,0,69,0,0,0,90.4,1,0,-174.521,0,0,3,0,0,0,10,-1.663,0,0,0,0,0,0,VALID,0,0,0,0,0,1,0,0,0,0,0,0,0,0,0,0,0,0,0,0,175.2,386.24,2,0,0.06,0.06,145,14.29,0.08,0.06,7.86,FLYING,CF1-J,0:/Integrated Flight Computer/aircraft/cf1_j_cfg.ks (inferred preloaded)
13.44,CRUISE,,67.83,80,12.17,1342.26,4.27,12.65,9.48,283.95,4.54,1,0,11.294,1,0.6,4.5,0.77,0.35,0.0168,0.4,0,45,0,-182.184,0,90.09,0,0,0,3.58,0,0,11.51,90.4,0.7841,-0.0067,-0.6207,11.57,90.4,0,0,0,0,0,0,3,0,0,0,69,0,0,0,90.4,1,0,-174.521,0,0,3,0,0,0,10,-1.663,0,0,0,0,0,0,VALID,0,0,0,0,0,1,0,0,0,0,0,0,0,0,0,0,0,0,0,0,178.62,386.03,2,0,0.06,0.06,149,14.29,0.08,0.06,8.14,FLYING,CF1-J,0:/Integrated Flight Computer/aircraft/cf1_j_cfg.ks (inferred preloaded)
13.72,CRUISE,,68.11,80,11.89,1343.34,4.41,11.77,8.49,284.17,4.992,1,0,11.07,1,0.6,4.5,0.77,0.35,0.0168,0.4,0,45,0,-181.914,0,90.1,0,0,0,3.71,0,0,11.51,90.4,0.7841,-0.0067,-0.6207,11.57,90.4,0,0,0,0,0,0,3,0,0,0,69,0,0,0,90.4,1,0,-174.521,0,0,3,0,0,0,10,-1.663,0,0,0,0,0,0,VALID,0,0,0,0,0,1,0,0,0,0,0,0,0,0,0,0,0,0,0,0,181.97,385.8,2,0,0.06,0.06,153,14.29,0.08,0.06,8.42,FLYING,CF1-J,0:/Integrated Flight Computer/aircraft/cf1_j_cfg.ks (inferred preloaded)
14,CRUISE,,68.43,80,11.57,1344.44,4.26,11.01,7.85,284.29,4.586,1,0,10.85,1,0.6,4.5,0.77,0.35,0.0168,0.4,0,45,0,-181.593,0,90.1,0,0,0,3.57,0,0,11.51,90.4,0.7841,-0.0067,-0.6207,11.57,90.4,0,0,0,0,0,0,3,0,0,0,69,0,0,0,90.4,1,0,-174.521,0,0,3,0,0,0,10,-1.663,0,0,0,0,0,0,VALID,0,0,0,0,0,1,0,0,0,0,0,0,0,0,0,0,0,0,0,0,185.25,385.54,2,0,0.06,0.06,157,14.29,0.08,0.06,8.7,FLYING,CF1-J,0:/Integrated Flight Computer/aircraft/cf1_j_cfg.ks (inferred preloaded)
14.28,CRUISE,,68.8,80,11.2,1345.6,4.03,10.98,8,284.38,4.235,1,0,10.635,1,0.6,4.5,0.77,0.35,0.0168,0.4,0,45,0,-181.222,0,90.11,0,0,0,3.36,0,0,11.5,90.4,0.7841,-0.0067,-0.6207,11.57,90.4,0,0,0,0,0,0,3,0,0,0,69,0,0,0,90.4,1,0,-174.521,0,0,3,0,0,0,10,-1.663,0,0,0,0,0,0,VALID,0,0,0,0,0,1,0,0,0,0,0,0,0,0,0,0,0,0,0,0,188.45,385.25,2,0,0.06,0.06,161,14.29,0.08,0.06,8.98,FLYING,CF1-J,0:/Integrated Flight Computer/aircraft/cf1_j_cfg.ks (inferred preloaded)
14.56,CRUISE,,69.16,80,10.84,1346.86,4.06,11.85,8.89,284.62,4.621,1,0,10.424,1,0.6,4.5,0.77,0.35,0.0168,0.4,0,45,0,-180.861,0,90.11,0,0,0,3.34,0,0,11.5,90.4,0.7841,-0.0067,-0.6207,11.57,90.4,0,0,0,0,0,0,3,0,0,0,69,0,0,0,90.4,1,0,-174.521,0,0,3,0,0,0,10,-1.663,0,0,0,0,0,0,VALID,0,0,0,0,0,1,0,0,0,0,0,0,0,0,0,0,0,0,0,0,191.59,384.97,2,0,0.06,0.06,165,14.29,0.08,0.06,9.26,FLYING,CF1-J,0:/Integrated Flight Computer/aircraft/cf1_j_cfg.ks (inferred preloaded)
14.84,CRUISE,,69.5,80,10.5,1348.05,4.4,11.92,8.74,284.91,5.509,1,0,10.217,1,0.6,4.5,0.77,0.35,0.0168,0.4,0,45,0,-180.523,0,90.12,0,0,0,3.61,0,0,11.5,90.4,0.7841,-0.0067,-0.6207,11.57,90.4,0,0,0,0,0,0,3,0,0,0,69,0,0,0,90.4,1,0,-174.521,0,0,3,0,0,0,10,-1.663,0,0,0,0,0,0,VALID,0,0,0,0,0,1,0,0,0,0,0,0,0,0,0,0,0,0,0,0,194.67,384.7,2,0,0.06,0.06,169,14.29,0.08,0.06,9.54,FLYING,CF1-J,0:/Integrated Flight Computer/aircraft/cf1_j_cfg.ks (inferred preloaded)
15.12,CRUISE,,69.87,80,10.13,1349.21,4.49,11.34,8.1,285.14,5.804,1,0,10.014,1,0.6,4.5,0.77,0.35,0.0168,0.4,0,45,0,-180.159,0,90.12,0,0,0,3.68,0,0,11.5,90.4,0.7841,-0.0067,-0.6207,11.57,90.4,0,0,0,0,0,0,3,0,0,0,69,0,0,0,90.4,1,0,-174.521,0,0,3,0,0,0,10,-1.663,0,0,0,0,0,0,VALID,0,0,0,0,0,1,0,0,0,0,0,0,0,0,0,0,0,0,0,0,197.69,384.41,2,0,0.06,0.06,173,14.29,0.08,0.06,9.82,FLYING,CF1-J,0:/Integrated Flight Computer/aircraft/cf1_j_cfg.ks (inferred preloaded)
15.4,CRUISE,,70.28,80,9.72,1350.41,4.44,10.99,7.8,285.3,5.747,1,0,9.815,1,0.6,4.5,0.77,0.35,0.0168,0.4,0,45,0,-179.754,0,90.13,0,0,0,3.62,0,0,11.5,90.4,0.7841,-0.0067,-0.6207,11.57,90.4,0,0,0,0,0,0,3,0,0,0,69,0,0,0,90.4,1,0,-174.521,0,0,3,0,0,0,10,-1.663,0,0,0,0,0,0,VALID,0,0,0,0,0,1,0,0,0,0,0,0,0,0,0,0,0,0,0,0,200.64,384.09,2,0,0.06,0.06,177,14.29,0.08,0.06,10.1,FLYING,CF1-J,0:/Integrated Flight Computer/aircraft/cf1_j_cfg.ks (inferred preloaded)
15.68,CRUISE,,70.69,80,9.31,1351.74,4.44,11.5,8.35,285.61,6.26,1,0,9.621,1,0.6,4.5,0.77,0.35,0.0168,0.4,0,45,0,-179.343,0,90.13,0,0,0,3.58,0,0,11.49,90.4,0.7841,-0.0067,-0.6207,11.57,90.4,0,0,0,0,0,0,3,0,0,0,69,0,0,0,90.4,1,0,-174.521,0,0,3,0,0,0,10,-1.663,0,0,0,0,0,0,VALID,0,0,0,0,0,1,0,0,0,0,0,0,0,0,0,0,0,0,0,0,203.53,383.77,2,0,0.06,0.06,181,14.29,0.08,0.06,10.38,FLYING,CF1-J,0:/Integrated Flight Computer/aircraft/cf1_j_cfg.ks (inferred preloaded)
15.96,CRUISE,,71.08,80,8.92,1353.05,4.8,11.72,8.36,285.99,7.363,1,0,9.43,1,0.6,4.5,0.77,0.35,0.0168,0.4,0,45,0,-178.951,0,90.14,0,0,0,3.84,0,0,11.49,90.4,0.7841,-0.0067,-0.6207,11.57,90.4,0,0,0,0,0,0,3,0,0,0,69,0,0,0,90.4,1,0,-174.521,0,0,3,0,0,0,10,-1.663,0,0,0,0,0,0,VALID,0,0,0,0,0,1,0,0,0,0,0,0,0,0,0,0,0,0,0,0,206.37,383.46,2,0,0.06,0.06,185,14.29,0.08,0.06,10.66,FLYING,CF1-J,0:/Integrated Flight Computer/aircraft/cf1_j_cfg.ks (inferred preloaded)
16.24,CRUISE,,71.49,80,8.51,1354.34,4.93,11.18,7.74,286.3,7.994,1,0,9.242,1,0.6,4.5,0.77,0.35,0.0168,0.4,0,45,0,-178.537,0,90.14,0,0,0,3.95,0,0,11.49,90.4,0.7841,-0.0067,-0.6207,11.57,90.4,0,0,0,0,0,0,3,0,0,0,69,0,0,0,90.4,1,0,-174.521,0,0,3,0,0,0,10,-1.663,0,0,0,0,0,0,VALID,0,0,0,0,0,1,0,0,0,0,0,0,0,0,0,0,0,0,0,0,209.14,383.14,2,0,0.06,0.06,189,14.29,0.08,0.06,10.94,FLYING,CF1-J,0:/Integrated Flight Computer/aircraft/cf1_j_cfg.ks (inferred preloaded)
16.52,CRUISE,,71.93,80,8.07,1355.68,5.03,10.87,7.38,286.53,7.653,1,0,9.059,1,0.6,4.5,0.77,0.35,0.0168,0.4,0,45,0,-178.099,0,90.15,0,0,0,4,0,0,11.49,90.4,0.7841,-0.0067,-0.6207,11.57,90.4,0,0,0,0,0,0,3,0,0,0,69,0,0,0,90.4,1,0,-174.521,0,0,3,0,0,0,10,-1.663,0,0,0,0,0,0,VALID,0,0,0,0,0,1,0,0,0,0,0,0,0,0,0,0,0,0,0,0,211.86,382.79,2,0,0.06,0.06,193,14.29,0.08,0.06,11.22,FLYING,CF1-J,0:/Integrated Flight Computer/aircraft/cf1_j_cfg.ks (inferred preloaded)
16.8,CRUISE,,72.41,80,7.59,1357.04,4.98,10.52,7.07,286.66,7.199,1,0,8.879,1,0.6,4.5,0.77,0.35,0.0168,0.4,0,45,0,-177.623,0,90.16,0,0,0,3.94,0,0,11.49,90.4,0.7841,-0.0067,-0.6207,11.57,90.4,0,0,0,0,0,0,3,0,0,0,69,0,0,0,90.4,1,0,-174.521,0,0,3,0,0,0,10,-1.663,0,0,0,0,0,0,VALID,0,0,0,0,0,1,0,0,0,0,0,0,0,0,0,0,0,0,0,0,214.5,382.42,2,0,0.06,0.06,197,14.29,0.08,0.06,11.5,FLYING,CF1-J,0:/Integrated Flight Computer/aircraft/cf1_j_cfg.ks (inferred preloaded)
17.08,CRUISE,,72.89,80,7.11,1358.53,5,11.1,7.68,286.98,7.538,1,0,8.703,1,0.6,4.5,0.77,0.35,0.0168,0.4,0,45,0,-177.144,0,90.16,0,0,0,3.91,0,0,11.48,90.4,0.7841,-0.0067,-0.6207,11.57,90.4,0,0,0,0,0,0,3,0,0,0,69,0,0,0,90.4,1,0,-174.521,0,0,3,0,0,0,10,-1.663,0,0,0,0,0,0,VALID,0,0,0,0,0,1,0,0,0,0,0,0,0,0,0,0,0,0,0,0,217.09,382.05,2,0,0.06,0.06,201,14.29,0.08,0.06,11.78,FLYING,CF1-J,0:/Integrated Flight Computer/aircraft/cf1_j_cfg.ks (inferred preloaded)
17.36,CRUISE,,73.34,80,6.66,1359.99,5.4,11.22,7.56,287.38,8.623,1,0,8.53,1,0.6,4.5,0.77,0.35,0.0168,0.4,0,45,0,-176.691,0,90.17,0,0,0,4.2,0,0,11.48,90.4,0.7841,-0.0067,-0.6207,11.57,90.4,0,0,0,0,0,0,3,0,0,0,69,0,0,0,90.4,1,0,-174.521,0,0,3,0,0,0,10,-1.663,0,0,0,0,0,0,VALID,0,0,0,0,0,1,0,0,0,0,0,0,0,0,0,0,0,0,0,0,219.63,381.7,2,0,0.06,0.06,205,14.29,0.08,0.06,12.06,FLYING,CF1-J,0:/Integrated Flight Computer/aircraft/cf1_j_cfg.ks (inferred preloaded)
17.64,CRUISE,,73.83,80,6.17,1361.44,5.5,10.65,6.94,287.71,9.321,1,0,8.361,1,0.6,4.5,0.77,0.35,0.0168,0.4,0,45,0,-176.21,0,90.17,0,0,0,4.26,0,0,11.48,90.4,0.7841,-0.0067,-0.6207,11.57,90.4,0,0,0,0,0,0,3,0,0,0,69,0,0,0,90.4,1,0,-174.521,0,0,3,0,0,0,10,-1.663,0,0,0,0,0,0,VALID,0,0,0,0,0,1,0,0,0,0,0,0,0,0,0,0,0,0,0,0,222.12,381.32,2,0,0.06,0.06,209,14.29,0.08,0.06,12.34,FLYING,CF1-J,0:/Integrated Flight Computer/aircraft/cf1_j_cfg.ks (inferred preloaded)
17.92,CRUISE,,74.33,80,5.67,1362.94,5.59,10.37,6.62,287.98,9.041,1,0,8.195,1,0.6,4.5,0.77,0.35,0.0168,0.4,0,45,0,-175.703,0,90.18,0,0,0,4.3,0,0,11.48,90.4,0.7841,-0.0067,-0.6207,11.57,90.4,0,0,0,0,0,0,3,0,0,0,69,0,0,0,90.4,1,0,-174.521,0,0,3,0,0,0,10,-1.663,0,0,0,0,0,0,VALID,0,0,0,0,0,1,0,0,0,0,0,0,0,0,0,0,0,0,0,0,224.54,380.92,2,0,0.06,0.06,213,14.29,0.08,0.06,12.62,FLYING,CF1-J,0:/Integrated Flight Computer/aircraft/cf1_j_cfg.ks (inferred preloaded)
18.2,CRUISE,,74.88,80,5.12,1364.5,5.53,10.29,6.6,288.2,8.813,1,0,8.032,1,0.6,4.5,0.77,0.35,0.0168,0.4,0,45,0,-175.164,0,90.19,0,0,0,4.23,0,0,11.47,90.4,0.7841,-0.0067,-0.6207,11.57,90.4,0,0,0,0,0,0,3,0,0,0,69,0,0,0,90.4,1,0,-174.521,0,0,3,0,0,0,10,-1.663,0,0,0,0,0,0,VALID,0,0,0,0,0,1,0,0,0,0,0,0,0,0,0,0,0,0,0,0,226.9,380.5,2,0,0.06,0.06,217,14.29,0.08,0.06,12.9,FLYING,CF1-J,0:/Integrated Flight Computer/aircraft/cf1_j_cfg.ks (inferred preloaded)
18.48,CRUISE,,75.39,80,4.61,1366.21,5.72,11.19,7.45,288.69,9.431,1,0,7.873,1,0.6,4.5,0.77,0.35,0.0168,0.4,0,45,0,-174.644,0,90.19,0,0,0,4.31,0,0,11.47,90.4,0.7841,-0.0067,-0.6207,11.57,90.4,0,0,0,0,0,0,3,0,0,0,69,0,0,0,90.4,1,0,-174.521,0,0,3,0,0,0,10,-1.663,0,0,0,0,0,0,VALID,0,0,0,0,0,1,0,0,0,0,0,0,0,0,0,0,0,0,0,0,229.21,380.1,2,0,0.06,0.06,221,14.29,0.08,0.06,13.18,FLYING,CF1-J,0:/Integrated Flight Computer/aircraft/cf1_j_cfg.ks (inferred preloaded)
18.76,CRUISE,,75.87,80,4.13,1367.87,6.22,11.17,7.12,289.16,10.87,1,0,7.716,1,0.6,4.5,0.77,0.35,0.0168,0.4,0,45,0,-174.168,0,90.2,0,0,0,4.67,0,0,11.47,90.4,0.7841,-0.0067,-0.6207,11.57,90.4,0,0,0,0,0,0,3,0,0,0,69,0,0,0,90.4,1,0,-174.521,0,0,3,0,0,0,10,-1.663,0,0,0,0,0,0,VALID,0,0,0,0,0,1,0,0,0,0,0,0,0,0,0,0,0,0,0,0,231.49,379.72,2,0,0.06,0.06,225,14.29,0.08,0.06,13.46,FLYING,CF1-J,0:/Integrated Flight Computer/aircraft/cf1_j_cfg.ks (inferred preloaded)
19.04,CRUISE,,76.36,80,3.64,1369.6,6.35,10.84,6.77,289.71,12.935,1,0,7.563,1,0.6,4.5,0.77,0.35,0.0168,0.4,0,45,0,-173.679,0,90.21,0,0,0,4.75,0,0,11.47,90.4,0.7841,-0.0067,-0.6207,11.57,90.4,0,0,0,0,0,0,3,0,0,0,69,0,0,0,90.4,1,0,-174.521,0,0,3,0,0,0,10,-1.663,0,0,0,0,0,0,VALID,0,0,0,0,0,1,0,0,0,0,0,0,0,0,0,0,0,0,0,0,233.72,379.32,2,0,0.06,0.06,229,14.29,0.08,0.06,13.74,FLYING,CF1-J,0:/Integrated Flight Computer/aircraft/cf1_j_cfg.ks (inferred preloaded)
19.32,CRUISE,,76.87,80,3.13,1371.47,6.63,11.24,7.1,290.53,15.08,1,0,7.413,1,0.6,4.5,0.77,0.35,0.0168,0.4,0,45,0,-173.17,0,90.21,0,0,0,4.91,0,0,11.47,90.4,0.7841,-0.0067,-0.6207,11.57,90.4,0,0,0,0,0,0,3,0,0,0,69,0,0,0,90.4,1,0,-174.521,0,0,3,0,0,0,10,-1.663,0,0,0,0,0,0,VALID,0,0,0,0,0,1,0,0,0,0,0,0,0,0,0,0,0,0,0,0,235.9,378.91,2,0,0.06,0.06,233,14.29,0.08,0.06,14.02,FLYING,CF1-J,0:/Integrated Flight Computer/aircraft/cf1_j_cfg.ks (inferred preloaded)
19.6,CRUISE,,77.39,80,2.61,1373.36,6.96,11.09,6.8,291.22,16.486,1,0,7.266,1,0.6,4.5,0.77,0.35,0.0168,0.4,0,45,0,-172.648,0,90.22,0,0,0,5.13,0,0,11.46,90.4,0.7841,-0.0067,-0.6207,11.57,90.4,0,0,0,0,0,0,3,0,0,0,69,0,0,0,90.4,1,0,-174.521,0,0,3,0,0,0,10,-1.663,0,0,0,0,0,0,VALID,0,0,0,0,0,1,0,0,0,0,0,0,0,0,0,0,0,0,0,0,238.01,378.49,2,0,0.06,0.06,237,14.29,0.08,0.06,14.3,FLYING,CF1-J,0:/Integrated Flight Computer/aircraft/cf1_j_cfg.ks (inferred preloaded)
19.88,CRUISE,,77.92,80,2.08,1375.31,7.16,10.91,6.53,291.81,17.031,1,0,7.122,1,0.6,4.5,0.77,0.35,0.0168,0.4,0,45,0,-172.116,0,90.23,0,0,0,5.25,0,0,11.46,90.4,0.7841,-0.0067,-0.6207,11.57,90.4,0,0,0,0,0,0,3,0,0,0,69,0,0,0,90.4,1,0,-174.521,0,0,3,0,0,0,10,-1.663,0,0,0,0,0,0,VALID,0,0,0,0,0,1,0,0,0,0,0,0,0,0,0,0,0,0,0,0,240.08,378.05,2,0,0.06,0.06,241,14.29,0.08,0.06,14.58,FLYING,CF1-J,0:/Integrated Flight Computer/aircraft/cf1_j_cfg.ks (inferred preloaded)
20.16,CRUISE,,78.47,80,1.53,1377.38,7.36,11.14,6.7,292.49,17.634,1,0,6.98,1,0.6,4.5,0.77,0.35,0.0168,0.4,0,45,0,-171.572,0,90.24,0,0,0,5.34,0,0,11.46,90.4,0.7841,-0.0067,-0.6207,11.57,90.4,0,0,0,0,0,0,3,0,0,0,69,0,0,0,90.4,1,0,-174.521,0,0,3,0,0,0,10,-1.663,0,0,0,0,0,0,VALID,0,0,0,0,0,1,0,0,0,0,0,0,0,0,0,0,0,0,0,0,242.1,377.61,2,0,0.06,0.06,245,14.29,0.08,0.06,14.86,FLYING,CF1-J,0:/Integrated Flight Computer/aircraft/cf1_j_cfg.ks (inferred preloaded)
20.44,CRUISE,,78.99,80,1.01,1379.52,7.69,11.29,6.71,293.24,18.84,1,0,6.842,1,0.6,4.5,0.77,0.35,0.0168,0.4,0,45,0,-171.048,0,90.24,0,0,0,5.55,0,0,11.46,90.4,0.7841,-0.0067,-0.6207,11.57,90.4,0,0,0,0,0,0,3,0,0,0,69,0,0,0,90.4,1,0,-174.521,0,0,3,0,0,0,10,-1.663,0,0,0,0,0,0,VALID,0,0,0,0,0,1,0,0,0,0,0,0,0,0,0,0,0,0,0,0,244.08,377.18,2,0,0.06,0.06,249,14.29,0.08,0.06,15.14,FLYING,CF1-J,0:/Integrated Flight Computer/aircraft/cf1_j_cfg.ks (inferred preloaded)
20.72,CRUISE,,79.49,80,0.51,1381.74,8.06,11.38,6.66,294.09,20.682,1,0,6.706,1,0.6,4.5,0.77,0.35,0.0168,0.4,0,45,0,-170.542,0,90.25,0,0,0,5.78,0,0,11.45,90.4,0.7841,-0.0067,-0.6207,11.57,90.4,0,0,0,0,0,0,3,0,0,0,69,0,0,0,90.4,1,0,-174.521,0,0,3,0,0,0,10,-1.663,0,0,0,0,0,0,VALID,0,0,0,0,0,1,0,0,0,0,0,0,0,0,0,0,0,0,0,0,246.02,376.75,2,0,0.06,0.06,253,14.29,0.08,0.06,15.42,FLYING,CF1-J,0:/Integrated Flight Computer/aircraft/cf1_j_cfg.ks (inferred preloaded)
21,CRUISE,,80.03,80,-0.03,1383.99,8.34,11.04,6.21,294.84,22.049,1,0,6.573,1,0.6,4.5,0.77,0.35,0.0168,0.4,0,45,0,-170.011,0,90.26,0,0,0,5.94,0,0,11.45,90.41,0.7841,-0.0067,-0.6207,11.57,90.4,0,0,0,0,0,0,3,0,0,0,69,0,0,0,90.4,1,0,-174.521,0,0,3,0,0,0,10,-1.663,0,0,0,0,0,0,VALID,0,0,0,0,0,1,0,0,0,0,0,0,0,0,0,0,0,0,0,0,247.9,376.3,2,0,0.06,0.06,257,14.29,0.08,0.06,15.7,FLYING,CF1-J,0:/Integrated Flight Computer/aircraft/cf1_j_cfg.ks (inferred preloaded)
21.28,CRUISE,,80.59,80,-0.59,1386.31,8.48,10.78,5.89,295.52,22.556,1,0,6.442,1,0.6,4.5,0.77,0.35,0.0168,0.4,0,45,0,-169.454,0,90.27,0,0,0,6,0,0,11.45,90.41,0.7841,-0.0067,-0.6207,11.57,90.4,0,0,0,0,0,0,3,0,0,0,69,0,0,0,90.4,1,0,-174.521,0,0,3,0,0,0,10,-1.663,0,0,0,0,0,0,VALID,0,0,0,0,0,1,0,0,0,0,0,0,0,0,0,0,0,0,0,0,249.73,375.83,2,0,0.06,0.06,261,14.29,0.08,0.06,15.98,FLYING,CF1-J,0:/Integrated Flight Computer/aircraft/cf1_j_cfg.ks (inferred preloaded)
21.56,CRUISE,,81.16,80,-1.16,1388.7,8.63,10.75,5.83,296.27,23.047,1,0,19.687,1,0.6,4.5,0.77,0.35,0.0168,0.4,0,45,0,-168.877,0,90.28,0,0,0,6.06,0,0,11.45,90.41,0.7841,-0.0067,-0.6207,11.57,90.4,0,0,0,0,0,0,3,0,0,0,69,0,0,0,90.4,1,0,-174.521,0,0,3,0,0,0,10,-1.663,0,0,0,0,0,0,VALID,0,0,0,0,0,1,0,0,0,0,0,0,0,0,0,0,0,0,0,0,251.51,375.35,2,0,0.06,0.06,265,14.29,0.08,0.06,16.26,FLYING,CF1-J,0:/Integrated Flight Computer/aircraft/cf1_j_cfg.ks (inferred preloaded)
21.84,CRUISE,,81.75,80,-1.75,1391.12,8.78,10.61,5.62,296.99,23.591,1,0,19.296,1,0.6,4.5,0.77,0.35,0.0168,0.4,0,45,0,-168.293,0,90.29,0,0,0,6.13,0,0,11.45,90.41,0.7841,-0.0067,-0.6207,11.57,90.4,0,0,0,0,0,0,3,0,0,0,69,0,0,0,90.4,1,0,-174.521,0,0,3,0,0,0,10,-1.663,0,0,0,0,0,0,VALID,0,0,0,0,0,1,0,0,0,0,0,0,0,0,0,0,0,0,0,0,253.25,374.86,2,0,0.06,0.06,269,14.29,0.08,0.06,16.54,FLYING,CF1-J,0:/Integrated Flight Computer/aircraft/cf1_j_cfg.ks (inferred preloaded)
22.12,CRUISE,,82.35,80,-2.35,1393.58,8.9,10.49,5.47,297.74,24.18,1,0,18.913,1,0.6,4.5,0.77,0.35,0.0168,0.4,0,45,0,-167.697,0,90.3,0,0,0,6.17,0,0,11.44,90.41,0.7841,-0.0067,-0.6207,11.57,90.4,0,0,0,0,0,0,3,0,0,0,69,0,0,0,90.4,1,0,-174.521,0,0,3,0,0,0,10,-1.663,0,0,0,0,0,0,VALID,0,0,0,0,0,1,0,0,0,0,0,0,0,0,0,0,0,0,0,0,254.94,374.36,2,0,0.06,0.06,273,14.29,0.08,0.06,16.82,FLYING,CF1-J,0:/Integrated Flight Computer/aircraft/cf1_j_cfg.ks (inferred preloaded)
22.4,CRUISE,,82.95,80,-2.95,1396.08,9.04,10.39,5.34,298.53,24.834,1,0,18.538,1,0.6,4.5,0.77,0.35,0.0168,0.4,0,45,0,-167.092,0,90.31,0,0,0,6.21,0,0,11.44,90.41,0.7841,-0.0067,-0.6207,11.57,90.4,0,0,0,0,0,0,3,0,0,0,69,0,0,0,90.4,1,0,-174.521,0,0,3,0,0,0,10,-1.663,0,0,0,0,0,0,VALID,0,0,0,0,0,1,0,0,0,0,0,0,0,0,0,0,0,0,0,0,256.58,373.86,2,0,0.06,0.06,277,14.29,0.08,0.06,17.1,FLYING,CF1-J,0:/Integrated Flight Computer/aircraft/cf1_j_cfg.ks (inferred preloaded)
22.68,CRUISE,,83.57,80,-3.57,1398.6,9.15,10.22,5.16,299.3,25.502,1,0,18.17,1,0.6,4.5,0.77,0.35,0.0168,0.4,0,45,0,-166.477,0,90.32,0,0,0,6.24,0,0,11.44,90.41,0.7841,-0.0067,-0.6207,11.57,90.4,0,0,0,0,0,0,3,0,0,0,69,0,0,0,90.4,1,0,-174.521,0,0,3,0,0,0,10,-1.663,0,0,0,0,0,0,VALID,0,0,0,0,0,1,0,0,0,0,0,0,0,0,0,0,0,0,0,0,258.18,373.35,2,0,0.06,0.06,281,14.29,0.08,0.06,17.38,FLYING,CF1-J,0:/Integrated Flight Computer/aircraft/cf1_j_cfg.ks (inferred preloaded)
22.96,CRUISE,,84.19,80,-4.19,1401.15,9.22,10.04,4.99,300.09,26.176,1,0,17.809,1,0.6,4.5,0.77,0.35,0.0168,0.4,0,45,0,-165.851,0,90.33,0,0,0,6.25,0,0,11.44,90.41,0.7841,-0.0067,-0.6207,11.57,90.4,0,0,0,0,0,0,3,0,0,0,69,0,0,0,90.4,1,0,-174.521,0,0,3,0,0,0,10,-1.663,0,0,0,0,0,0,VALID,0,0,0,0,0,1,0,0,0,0,0,0,0,0,0,0,0,0,0,0,259.74,372.83,2,0,0.06,0.06,285,14.29,0.08,0.06,17.66,FLYING,CF1-J,0:/Integrated Flight Computer/aircraft/cf1_j_cfg.ks (inferred preloaded)
23.24,CRUISE,,84.83,80,-4.83,1403.71,9.29,9.86,4.82,300.88,26.857,1,0,17.456,1,0.6,4.5,0.77,0.35,0.0168,0.4,0,45,0,-165.212,0,90.34,0,0,0,6.25,0,0,11.43,90.41,0.7841,-0.0067,-0.6207,11.57,90.4,0,0,0,0,0,0,3,0,0,0,69,0,0,0,90.4,1,0,-174.521,0,0,3,0,0,0,10,-1.663,0,0,0,0,0,0,VALID,0,0,0,0,0,1,0,0,0,0,0,0,0,0,0,0,0,0,0,0,261.26,372.3,2,0,0.06,0.06,289,14.29,0.08,0.06,17.94,FLYING,CF1-J,0:/Integrated Flight Computer/aircraft/cf1_j_cfg.ks (inferred preloaded)
23.52,CRUISE,,85.49,80,-5.49,1406.29,9.31,9.66,4.66,301.68,27.528,1,0,17.109,1,0.6,4.5,0.77,0.35,0.0168,0.4,0,45,0,-164.561,0,90.35,0,0,0,6.22,0,0,11.43,90.41,0.7841,-0.0067,-0.6207,11.57,90.4,0,0,0,0,0,0,3,0,0,0,69,0,0,0,90.4,1,0,-174.521,0,0,3,0,0,0,10,-1.663,0,0,0,0,0,0,VALID,0,0,0,0,0,1,0,0,0,0,0,0,0,0,0,0,0,0,0,0,262.73,371.76,2,0,0.06,0.06,293,14.29,0.08,0.06,18.22,FLYING,CF1-J,0:/Integrated Flight Computer/aircraft/cf1_j_cfg.ks (inferred preloaded)
23.8,CRUISE,,86.15,80,-6.15,1408.87,9.33,9.48,4.52,302.5,28.215,1,0,16.77,1,0.6,4.5,0.77,0.35,0.0168,0.4,0,45,0,-163.899,0,90.37,0,0,0,6.18,0,0,11.43,90.41,0.7841,-0.0067,-0.6207,11.57,90.4,0,0,0,0,0,0,3,0,0,0,69,0,0,0,90.4,1,0,-174.521,0,0,3,0,0,0,10,-1.663,0,0,0,0,0,0,VALID,0,0,0,0,0,1,0,0,0,0,0,0,0,0,0,0,0,0,0,0,264.16,371.21,2,0,0.06,0.06,297,14.29,0.08,0.06,18.5,FLYING,CF1-J,0:/Integrated Flight Computer/aircraft/cf1_j_cfg.ks (inferred preloaded)
24.08,CRUISE,,86.82,80,-6.82,1411.45,9.32,9.27,4.36,303.32,28.892,1,0,16.437,1,0.6,4.5,0.77,0.35,0.0168,0.4,0,45,0,-163.224,0,90.38,0,0,0,6.13,0,0,11.43,90.41,0.7841,-0.0067,-0.6207,11.57,90.4,0,0,0,0,0,0,3,0,0,0,69,0,0,0,90.4,1,0,-174.521,0,0,3,0,0,0,10,-1.663,0,0,0,0,0,0,VALID,0,0,0,0,0,1,0,0,0,0,0,0,0,0,0,0,0,0,0,0,265.55,370.66,2,0,0.06,0.06,301,14.29,0.08,0.06,18.78,FLYING,CF1-J,0:/Integrated Flight Computer/aircraft/cf1_j_cfg.ks (inferred preloaded)
24.36,CRUISE,,87.51,80,-7.51,1414.03,9.3,9.09,4.25,304.17,29.572,1,0,20,1,0.6,4.5,0.77,0.35,0.0168,0.4,0,45,0,-162.537,0,90.39,0,0,0,6.07,0,0,11.43,90.41,0.7841,-0.0067,-0.6207,11.57,90.4,0,0,0,0,0,0,3,0,0,0,69,0,0,0,90.4,1,0,-174.521,0,0,3,0,0,0,10,-1.663,0,0,0,0,0,0,VALID,0,0,0,0,0,1,0,0,0,0,0,0,0,0,0,0,0,0,0,0,266.9,370.1,2,0,0.06,0.06,305,14.29,0.08,0.06,19.06,FLYING,CF1-J,0:/Integrated Flight Computer/aircraft/cf1_j_cfg.ks (inferred preloaded)
24.64,CRUISE,,88.21,80,-8.21,1416.59,9.25,8.88,4.11,305.02,30.245,1,0,19.603,1,0.6,4.5,0.77,0.35,0.0168,0.4,0,45,0,-161.84,0,90.41,0,0,0,6,0,0,11.42,90.41,0.7841,-0.0067,-0.6207,11.57,90.4,0,0,0,0,0,0,3,0,0,0,69,0,0,0,90.4,1,0,-174.521,0,0,3,0,0,0,10,-1.663,0,0,0,0,0,0,VALID,0,0,0,0,0,1,0,0,0,0,0,0,0,0,0,0,0,0,0,0,268.21,369.54,2,0,0.06,0.06,309,14.29,0.08,0.06,19.34,FLYING,CF1-J,0:/Integrated Flight Computer/aircraft/cf1_j_cfg.ks (inferred preloaded)
24.92,CRUISE,,88.92,80,-8.92,1419.15,9.21,8.67,3.98,305.88,30.918,1,0,19.214,1,0.6,4.5,0.77,0.35,0.0168,0.4,0,45,0,-161.131,0,90.42,0,0,0,5.92,0,0,11.42,90.41,0.7841,-0.0067,-0.6207,11.57,90.4,0,0,0,0,0,0,3,0,0,0,69,0,0,0,90.4,1,0,-174.521,0,0,3,0,0,0,10,-1.663,0,0,0,0,0,0,VALID,0,0,0,0,0,1,0,0,0,0,0,0,0,0,0,0,0,0,0,0,269.48,368.97,2,0,0.06,0.06,313,14.29,0.08,0.06,19.62,FLYING,CF1-J,0:/Integrated Flight Computer/aircraft/cf1_j_cfg.ks (inferred preloaded)
25.2,CRUISE,,89.64,80,-9.64,1421.69,9.12,8.5,3.92,306.77,31.589,0.9995,0,18.832,1,0.6,4.5,0.77,0.35,0.0168,0.4,0,45,0,-160.41,0,90.43,0,0,0,5.82,0,0,11.42,90.41,0.7841,-0.0067,-0.6207,11.57,90.4,0,0,0,0,0,0,3,0,0,0,69,0,0,0,90.4,1,0,-174.521,0,0,3,0,0,0,10,-1.663,0,0,0,0,0,0,VALID,0,0,0,0,0,1,0,0,0,0,0,0,0,0,0,0,0,0,0,0,270.72,368.39,2,0,0.06,0.06,317,14.29,0.08,0.06,19.9,FLYING,CF1-J,0:/Integrated Flight Computer/aircraft/cf1_j_cfg.ks (inferred preloaded)
25.48,CRUISE,,90.37,80,-10.37,1424.21,9.08,8.34,3.84,307.69,32.325,1,0,19.701,1,0.6,4.5,0.77,0.35,0.0168,0.4,0,45,0,-159.683,0,90.45,0,0,0,5.74,0,0,11.42,90.41,0.7841,-0.0067,-0.6207,11.57,90.4,0,0,0,0,0,0,3,0,0,0,69,0,0,0,90.4,1,0,-174.521,0,0,3,0,0,0,10,-1.663,0,0,0,0,0,0,VALID,0,0,0,0,0,1,0,0,0,0,0,0,0,0,0,0,0,0,0,0,271.92,367.81,2,0,0.06,0.06,321,14.29,0.08,0.06,20.18,FLYING,CF1-J,0:/Integrated Flight Computer/aircraft/cf1_j_cfg.ks (inferred preloaded)
25.76,CRUISE,,91.11,80,-11.11,1426.7,8.99,8.11,3.7,308.58,33.018,0.9962,0,20,1,0.6,4.5,0.77,0.35,0.0168,0.4,0,45,0,-158.945,0,90.46,0,0,0,5.64,0,0,11.41,90.41,0.7841,-0.0067,-0.6207,11.57,90.4,0,0,0,0,0,0,3,0,0,0,69,0,0,0,90.4,1,0,-174.521,0,0,3,0,0,0,10,-1.663,0,0,0,0,0,0,VALID,0,0,0,0,0,1,0,0,0,0,0,0,0,0,0,0,0,0,0,0,273.08,367.22,2,0,0.06,0.06,325,14.29,0.08,0.06,20.46,FLYING,CF1-J,0:/Integrated Flight Computer/aircraft/cf1_j_cfg.ks (inferred preloaded)
26.04,CRUISE,,91.86,80,-11.86,1429.18,8.89,7.96,3.66,309.53,33.737,0.9836,0,20,1,0.6,4.5,0.77,0.35,0.0168,0.4,0,45,0,-158.197,0,90.48,0,0,0,5.54,0,0,11.41,90.41,0.7841,-0.0067,-0.6207,11.57,90.4,0,0,0,0,0,0,3,0,0,0,69,0,0,0,90.4,1,0,-174.521,0,0,3,0,0,0,10,-1.663,0,0,0,0,0,0,VALID,0,0,0,0,0,1,0,0,0,0,0,0,0,0,0,0,0,0,0,0,274.16,366.64,2,0,0.06,0.06,329,14.29,0.08,0.06,20.74,FLYING,CF1-J,0:/Integrated Flight Computer/aircraft/cf1_j_cfg.ks (inferred preloaded)
26.32,CRUISE,,92.61,80,-12.61,1431.63,8.81,7.76,3.56,310.48,34.48,0.9735,0,20,1,0.6,4.5,0.77,0.35,0.0168,0.4,0,45,0,-157.442,0,90.5,0,0,0,5.44,0,0,11.41,90.41,0.7841,-0.0067,-0.6207,11.57,90.4,0,0,0,0,0,0,3,0,0,0,69,0,0,0,90.4,1,0,-174.521,0,0,3,0,0,0,10,-1.663,0,0,0,0,0,0,VALID,0,0,0,0,0,1,0,0,0,0,0,0,0,0,0,0,0,0,0,0,275.14,366.04,2,0,0.06,0.06,333,14.29,0.08,0.06,21.02,FLYING,CF1-J,0:/Integrated Flight Computer/aircraft/cf1_j_cfg.ks (inferred preloaded)
26.6,CRUISE,,93.38,80,-13.38,1434.05,8.69,7.53,3.44,311.41,35.167,0.9616,0,20,1,0.6,4.5,0.77,0.35,0.0168,0.4,0,45,0,-156.677,0,90.51,0,0,0,5.33,0,0,11.41,90.41,0.7841,-0.0067,-0.6207,11.57,90.4,0,0,0,0,0,0,3,0,0,0,69,0,0,0,90.4,1,0,-174.521,0,0,3,0,0,0,10,-1.663,0,0,0,0,0,0,VALID,0,0,0,0,0,1,0,0,0,0,0,0,0,0,0,0,0,0,0,0,276.03,365.45,2,0,0.06,0.06,337,14.29,0.08,0.06,21.3,FLYING,CF1-J,0:/Integrated Flight Computer/aircraft/cf1_j_cfg.ks (inferred preloaded)
26.88,CRUISE,,94.15,80,-14.15,1436.44,8.56,7.37,3.41,312.4,35.869,0.9501,0,20,1,0.6,4.5,0.77,0.35,0.0168,0.4,0,45,0,-155.902,0,90.53,0,0,0,5.21,0,0,11.41,90.41,0.7841,-0.0067,-0.6207,11.57,90.4,0,0,0,0,0,0,3,0,0,0,69,0,0,0,90.4,1,0,-174.521,0,0,3,0,0,0,10,-1.663,0,0,0,0,0,0,VALID,0,0,0,0,0,1,0,0,0,0,0,0,0,0,0,0,0,0,0,0,276.81,364.85,2,0,0.06,0.06,341,14.29,0.08,0.06,21.58,FLYING,CF1-J,0:/Integrated Flight Computer/aircraft/cf1_j_cfg.ks (inferred preloaded)
27.16,CRUISE,,94.93,80,-14.93,1438.8,8.46,7.22,3.37,313.42,36.626,0.9421,0,20,1,0.6,4.5,0.77,0.35,0.0168,0.4,0,45,0,-155.123,0,90.55,0,0,0,5.1,0,0,11.4,90.41,0.7841,-0.0067,-0.6207,11.57,90.4,0,0,0,0,0,0,3,0,0,0,69,0,0,0,90.4,1,0,-174.521,0,0,3,0,0,0,10,-1.663,0,0,0,0,0,0,VALID,0,0,0,0,0,1,0,0,0,0,0,0,0,0,0,0,0,0,0,0,277.5,364.25,2,0,0.06,0.06,345,14.29,0.08,0.06,21.86,FLYING,CF1-J,0:/Integrated Flight Computer/aircraft/cf1_j_cfg.ks (inferred preloaded)
27.44,CRUISE,,95.72,80,-15.72,1441.11,8.33,6.95,3.2,314.37,37.311,0.9335,0,20,1,0.6,4.5,0.77,0.35,0.0168,0.4,0,45,0,-154.337,0,90.57,0,0,0,4.98,0,0,11.4,90.41,0.7841,-0.0067,-0.6207,11.57,90.4,0,0,0,0,0,0,3,0,0,0,69,0,0,0,90.4,1,0,-174.521,0,0,3,0,0,0,10,-1.663,0,0,0,0,0,0,VALID,0,0,0,0,0,1,0,0,0,0,0,0,0,0,0,0,0,0,0,0,278.13,363.65,2,0,0.06,0.06,349,14.29,0.08,0.06,22.14,FLYING,CF1-J,0:/Integrated Flight Computer/aircraft/cf1_j_cfg.ks (inferred preloaded)
27.72,CRUISE,,96.52,80,-16.52,1443.38,8.16,6.74,3.11,315.36,37.935,0.9214,0,20,1,0.6,4.5,0.77,0.35,0.0168,0.4,0,45,0,-153.54,0,90.58,0,0,0,4.85,0,0,11.4,90.41,0.7841,-0.0067,-0.6207,11.57,90.4,0,0,0,0,0,0,3,0,0,0,69,0,0,0,90.4,1,0,-174.521,0,0,3,0,0,0,10,-1.663,0,0,0,0,0,0,VALID,0,0,0,0,0,1,0,0,0,0,0,0,0,0,0,0,0,0,0,0,278.66,363.05,2,0,0.06,0.06,353,14.29,0.08,0.06,22.42,FLYING,CF1-J,0:/Integrated Flight Computer/aircraft/cf1_j_cfg.ks (inferred preloaded)
28,CRUISE,,97.32,80,-17.32,1445.62,7.99,6.59,3.11,316.41,38.578,0.9114,0,20,1,0.6,4.5,0.77,0.35,0.0168,0.4,0,45,0,-152.735,0,90.6,0,0,0,4.71,0,0,11.4,90.41,0.7841,-0.0067,-0.6207,11.57,90.4,0,0,0,0,0,0,3,0,0,0,69,0,0,0,90.4,1,0,-174.521,0,0,3,0,0,0,10,-1.663,0,0,0,0,0,0,VALID,0,0,0,0,0,1,0,0,0,0,0,0,0,0,0,0,0,0,0,0,279.11,362.44,2,0,0.06,0.06,357,14.29,0.08,0.06,22.7,FLYING,CF1-J,0:/Integrated Flight Computer/aircraft/cf1_j_cfg.ks (inferred preloaded)
28.28,CRUISE,,98.13,80,-18.13,1447.82,7.87,6.44,3.08,317.49,39.291,0.9061,0,20,1,0.6,4.5,0.77,0.35,0.0168,0.4,0,45,0,-151.928,0,90.62,0,0,0,4.59,0,0,11.4,90.41,0.7841,-0.0067,-0.6207,11.57,90.4,0,0,0,0,0,0,3,0,0,0,69,0,0,0,90.4,1,0,-174.521,0,0,3,0,0,0,10,-1.663,0,0,0,0,0,0,VALID,0,0,0,0,0,1,0,0,0,0,0,0,0,0,0,0,0,0,0,0,279.49,361.84,2,0,0.06,0.06,361,14.29,0.08,0.06,22.98,FLYING,CF1-J,0:/Integrated Flight Computer/aircraft/cf1_j_cfg.ks (inferred preloaded)
28.56,CRUISE,,98.94,80,-18.94,1449.96,7.69,6.21,2.97,318.51,39.94,0.8997,0,20,1,0.6,4.5,0.77,0.35,0.0168,0.4,0,45,0,-151.116,0,90.64,0,0,0,4.46,0,0,11.39,90.41,0.7841,-0.0067,-0.6207,11.57,90.4,0,0,0,0,0,0,3,0,0,0,69,0,0,0,90.4,1,0,-174.521,0,0,3,0,0,0,10,-1.663,0,0,0,0,0,0,VALID,0,0,0,0,0,1,0,0,0,0,0,0,0,0,0,0,0,0,0,0,279.82,361.24,2,0,0.06,0.06,365,14.29,0.08,0.06,23.26,FLYING,CF1-J,0:/Integrated Flight Computer/aircraft/cf1_j_cfg.ks (inferred preloaded)
28.84,CRUISE,,99.76,80,-19.76,1452.07,7.53,6.06,2.94,319.61,40.596,0.8926,0,20,1,0.6,4.5,0.77,0.35,0.0168,0.4,0,45,0,-150.298,0,90.66,0,0,0,4.33,0,0,11.39,90.41,0.7841,-0.0067,-0.6207,11.57,90.4,0,0,0,0,0,0,3,0,0,0,69,0,0,0,90.4,1,0,-174.521,0,0,3,0,0,0,10,-1.663,0,0,0,0,0,0,VALID,0,0,0,0,0,1,0,0,0,0,0,0,0,0,0,0,0,0,0,0,280.09,360.63,2,0,0.06,0.06,369,14.29,0.08,0.06,23.54,FLYING,CF1-J,0:/Integrated Flight Computer/aircraft/cf1_j_cfg.ks (inferred preloaded)
29.12,CRUISE,,100.58,80,-20.58,1454.12,7.35,5.85,2.85,320.67,41.217,0.8865,0,20,1,0.6,4.5,0.77,0.35,0.0168,0.4,0,45,0,-149.475,0,90.69,0,0,0,4.19,0,0,11.39,90.41,0.7841,-0.0067,-0.6207,11.57,90.4,0,0,0,0,0,0,3,0,0,0,69,0,0,0,90.4,1,0,-174.521,0,0,3,0,0,0,10,-1.663,0,0,0,0,0,0,VALID,0,0,0,0,0,1,0,0,0,0,0,0,0,0,0,0,0,0,0,0,280.31,360.03,2,0,0.06,0.06,373,14.29,0.08,0.06,23.82,FLYING,CF1-J,0:/Integrated Flight Computer/aircraft/cf1_j_cfg.ks (inferred preloaded)
29.4,CRUISE,,101.41,80,-21.41,1456.12,7.17,5.67,2.8,321.76,41.803,0.8795,0,20,1,0.6,4.5,0.77,0.35,0.0168,0.4,0,45,0,-148.647,0,90.71,0,0,0,4.05,0,0,11.39,90.41,0.7841,-0.0067,-0.6207,11.57,90.4,0,0,0,0,0,0,3,0,0,0,69,0,0,0,90.4,1,0,-174.521,0,0,3,0,0,0,10,-1.663,0,0,0,0,0,0,VALID,0,0,0,0,0,1,0,0,0,0,0,0,0,0,0,0,0,0,0,0,280.48,359.43,2,0,0.06,0.06,377,14.29,0.08,0.06,24.1,FLYING,CF1-J,0:/Integrated Flight Computer/aircraft/cf1_j_cfg.ks (inferred preloaded)
29.68,CRUISE,,102.25,80,-22.25,1458.07,6.98,5.48,2.73,322.85,42.366,0.8733,0,20,1,0.6,4.5,0.77,0.35,0.0168,0.4,0,45,0,-147.813,0,90.73,0,0,0,3.91,0,0,11.39,90.41,0.7841,-0.0067,-0.6207,11.57,90.4,0,0,0,0,0,0,3,0,0,0,69,0,0,0,90.4,1,0,-174.521,0,0,3,0,0,0,10,-1.663,0,0,0,0,0,0,VALID,0,0,0,0,0,1,0,0,0,0,0,0,0,0,0,0,0,0,0,0,280.59,358.83,2,0,0.06,0.06,381,14.29,0.08,0.06,24.38,FLYING,CF1-J,0:/Integrated Flight Computer/aircraft/cf1_j_cfg.ks (inferred preloaded)
29.96,CRUISE,,103.08,80,-23.08,1459.97,6.78,5.29,2.66,323.95,42.894,0.8669,0,20,1,0.6,4.5,0.77,0.35,0.0168,0.4,0,45,0,-146.975,0,90.75,0,0,0,3.77,0,0,11.38,90.42,0.7841,-0.0067,-0.6207,11.57,90.4,0,0,0,0,0,0,3,0,0,0,69,0,0,0,90.4,1,0,-174.521,0,0,3,0,0,0,10,-1.663,0,0,0,0,0,0,VALID,0,0,0,0,0,1,0,0,0,0,0,0,0,0,0,0,0,0,0,0,280.66,358.23,2,0,0.06,0.06,385,14.29,0.08,0.06,24.66,FLYING,CF1-J,0:/Integrated Flight Computer/aircraft/cf1_j_cfg.ks (inferred preloaded)
30.24,CRUISE,,103.93,80,-23.93,1461.81,6.58,5.1,2.6,325.06,43.39,0.861,0,20,1,0.6,4.5,0.77,0.35,0.0168,0.4,0,45,0,-146.132,0,90.78,0,0,0,3.63,0,0,11.38,90.42,0.7841,-0.0067,-0.6207,11.57,90.4,0,0,0,0,0,0,3,0,0,0,69,0,0,0,90.4,1,0,-174.521,0,0,3,0,0,0,10,-1.663,0,0,0,0,0,0,VALID,0,0,0,0,0,1,0,0,0,0,0,0,0,0,0,0,0,0,0,0,280.68,357.63,2,0,0.06,0.06,389,14.29,0.08,0.06,24.94,FLYING,CF1-J,0:/Integrated Flight Computer/aircraft/cf1_j_cfg.ks (inferred preloaded)
30.52,CRUISE,,104.78,80,-24.78,1463.59,6.37,4.91,2.54,326.18,43.855,0.8552,0,20,1,0.6,4.5,0.77,0.35,0.0168,0.4,0,45,0,-145.285,0,90.8,0,0,0,3.49,0,0,11.38,90.42,0.7841,-0.0067,-0.6207,11.57,90.4,0,0,0,0,0,0,3,0,0,0,69,0,0,0,90.4,1,0,-174.521,0,0,3,0,0,0,10,-1.663,0,0,0,0,0,0,VALID,0,0,0,0,0,1,0,0,0,0,0,0,0,0,0,0,0,0,0,0,280.66,357.04,2,0,0.06,0.06,393,14.29,0.08,0.06,25.22,FLYING,CF1-J,0:/Integrated Flight Computer/aircraft/cf1_j_cfg.ks (inferred preloaded)
30.8,CRUISE,,105.63,80,-25.63,1465.31,6.16,4.71,2.45,327.29,44.271,0.8495,0,20,1,0.6,4.5,0.77,0.35,0.0168,0.4,0,45,0,-144.433,0,90.83,0,0,0,3.35,0,0,11.38,90.42,0.7841,-0.0067,-0.6207,11.57,90.4,0,0,0,0,0,0,3,0,0,0,69,0,0,0,90.4,1,0,-174.521,0,0,3,0,0,0,10,-1.663,0,0,0,0,0,0,VALID,0,0,0,0,0,1,0,0,0,0,0,0,0,0,0,0,0,0,0,0,280.59,356.45,2,0,0.06,0.06,397,14.29,0.08,0.06,25.5,FLYING,CF1-J,0:/Integrated Flight Computer/aircraft/cf1_j_cfg.ks (inferred preloaded)
31.08,CRUISE,,106.49,80,-26.49,1466.96,5.93,4.47,2.3,328.34,44.576,0.8423,0,20,1,0.6,4.5,0.77,0.35,0.0168,0.4,0,45,0,-143.575,0,90.85,0,0,0,3.2,0,0,11.38,90.42,0.7841,-0.0067,-0.6207,11.57,90.4,0,0,0,0,0,0,3,0,0,0,69,0,0,0,90.4,1,0,-174.521,0,0,3,0,0,0,10,-1.663,0,0,0,0,0,0,VALID,0,0,0,0,0,1,0,0,0,0,0,0,0,0,0,0,0,0,0,0,280.49,355.86,2,0,0.06,0.06,401,14.29,0.08,0.06,25.78,FLYING,CF1-J,0:/Integrated Flight Computer/aircraft/cf1_j_cfg.ks (inferred preloaded)
