t_s,phase,subphase,ias_ms,vapp_ms,spd_err_ms,agl_m,vs_ms,pitch_deg,aoa_deg,hdg_deg,bank_deg,thr_cmd,thr_intg,aa_hdg_cmd_deg,aa_fpa_cmd_deg,ils_loc_m,ils_gs_m,ils_dist_km,loc_corr_deg,gs_corr_deg,flare_fpa_cmd,flare_tgt_vs,flare_frac,steer_hdg_deg,steer_blend,ro_loc_corr_deg,ro_hdg_err_deg,ro_yaw_tgt,yaw_cmd,roll_cmd,flaps_cur,flaps_tgt,phase_el_s,status
110.68,APPROACH,ILS_TRACK,76.94,76,-0.94,27.41,-4.19,3.41,6.41,270.4,0.021,0.1546,17.201,270.38,-3.092,0.5,0.29,0.38,-0.02,-0.092,0,0,0,270.38,0,0,0,0,0,0,1,1,110.72,FLYING
110.88,APPROACH,ILS_TRACK,76.96,76,-0.96,24.2,-4.19,3.41,6.41,270.4,0.019,0.1516,17.01,270.38,-3.091,0.5,0.29,0.364,-0.02,-0.091,0,0,0,270.38,0,0,0,0,0,0,1,1,110.92,FLYING
111.08,APPROACH,ILS_TRACK,76.96,76,-0.96,22.06,-4.2,3.41,6.41,270.4,0.019,0.1488,16.818,270.38,-3.091,0.5,0.29,0.348,-0.02,-0.091,0,0,0,270.38,0,0,0,0,0,0,1,1,111.12,FLYING
111.3,FLARE,ILS_TRACK,76.97,76,-0.97,19.7,-4.2,3.41,6.41,270.4,0.018,0.1462,16.624,270.38,-3.09,0.5,0.29,0.332,-0.02,-0.09,-3.121,0,0,270.38,0,0,0,0,0,0,1,1,0.04,FLYING
111.48,FLARE,ILS_TRACK,76.97,76,-0.97,17.83,-4.2,3.41,6.41,270.4,0.018,0,16.624,270.4,-2.735,0.5,0.29,0.332,-0.02,-0.09,-2.735,-2.5,0.075,270.38,0,0,0,0,0,0,1,1,0.22,FLYING
111.62,FLARE,ILS_TRACK,76.97,76,-0.97,17.27,-4.19,3.45,6.45,270.4,0.017,0,16.624,270.4,-2.51,0.5,0.29,0.332,-0.02,-0.09,-2.51,-2.5,0.121,270.38,0,0,0,0,0,0,1,1,0.36,FLYING
111.76,FLARE,ILS_TRACK,76.96,76,-0.96,16.71,-4.18,3.57,6.55,270.4,0.018,0,16.624,270.4,-2.285,0.5,0.29,0.332,-0.02,-0.09,-2.285,-2.5,0.149,270.38,0,0,0,0,0,0,1,1,0.5,FLYING
111.9,FLARE,ILS_TRACK,76.95,76,-0.95,16.15,-4.15,3.67,6.62,270.4,0.017,0,16.624,270.4,-2.06,0.5,0.29,0.332,-0.02,-0.09,-2.06,-2.5,0.177,270.38,0,0,0,0,0,0,1,1,0.64,FLYING
112.02,FLARE,ILS_TRACK,76.92,76,-0.92,15.61,-4.07,3.79,6.71,270.4,0.015,0,16.624,270.4,-1.861,0.5,0.29,0.332,-0.02,-0.09,-1.861,-2.5,0.205,270.38,0,0,0,0,0,0,1,1,0.78,FLYING
112.16,FLARE,ILS_TRACK,76.88,76,-0.88,15.07,-4,3.9,6.76,270.4,0.014,0,16.624,270.4,-1.862,0.5,0.29,0.332,-0.02,-0.09,-1.862,-2.5,0.232,270.38,0,0,0,0,0,0,1,1,0.92,FLYING
112.3,FLARE,ILS_TRACK,76.83,76,-0.83,14.54,-3.91,3.96,6.76,270.4,0.014,0,16.624,270.4,-1.863,0.5,0.29,0.332,-0.02,-0.09,-1.863,-2.5,0.259,270.38,0,0,0,0,0,0,1,1,1.06,FLYING
112.48,FLARE,ILS_TRACK,76.75,76,-0.75,13.88,-3.82,4.02,6.76,270.4,0.014,0,16.624,270.4,-1.865,0.5,0.29,0.332,-0.02,-0.09,-1.865,-2.5,0.292,270.38,0,0,0,0,0,0,1,1,1.24,FLYING
112.62,FLARE,ILS_TRACK,76.68,76,-0.68,13.37,-3.74,4.07,6.76,270.4,0.014,0,16.624,270.4,-1.867,0.5,0.29,0.332,-0.02,-0.09,-1.867,-2.5,0.318,270.38,0,0,0,0,0,0,1,1,1.38,FLYING
112.76,FLARE,ILS_TRACK,76.61,76,-0.61,12.88,-3.67,4.11,6.76,270.4,0.014,0,16.624,270.4,-1.869,0.5,0.29,0.332,-0.02,-0.09,-1.869,-2.5,0.343,270.38,0,0,0,0,0,0,1,1,1.52,FLYING
112.9,FLARE,ILS_TRACK,76.53,76,-0.53,12.39,-3.61,4.16,6.75,270.4,0.014,0,16.624,270.4,-1.87,0.5,0.29,0.332,-0.02,-0.09,-1.87,-2.5,0.367,270.38,0,0,0,0,0,0,1,1,1.66,FLYING
113.04,FLARE,ILS_TRACK,76.45,76,-0.45,11.91,-3.55,4.2,6.75,270.4,0.012,0,16.624,270.4,-1.872,0.5,0.29,0.332,-0.02,-0.09,-1.872,-2.5,0.392,270.38,0,0,0,0,0,0,1,1,1.8,FLYING
113.18,FLARE,ILS_TRACK,76.35,76,-0.35,11.44,-3.49,4.24,6.76,270.4,0.013,0,16.624,270.4,-1.875,0.5,0.29,0.332,-0.02,-0.09,-1.875,-2.5,0.415,270.38,0,0,0,0,0,0,1,1,1.94,FLYING
113.34,FLARE,ILS_TRACK,76.26,76,-0.26,10.98,-3.44,4.28,6.76,270.4,0.012,0,16.624,270.4,-1.848,0.5,0.29,0.332,-0.02,-0.09,-1.848,-2.462,0.439,270.38,0,0,0,0,0,0,1,1,2.08,FLYING
113.52,FLARE,ILS_TRACK,76.13,76,-0.13,10.39,-3.37,4.34,6.77,270.4,0.011,0,16.624,270.4,-1.757,0.5,0.29,0.332,-0.02,-0.09,-1.757,-2.337,0.468,270.38,0,0,0,0,0,0,1,1,2.26,FLYING
113.66,FLARE,ILS_TRACK,76.03,76,-0.03,9.95,-3.32,4.4,6.81,270.4,0.011,0,16.624,270.4,-1.688,0.5,0.29,0.332,-0.02,-0.09,-1.688,-2.242,0.491,270.38,0,0,0,0,0,0,1,1,2.4,FLYING
113.8,FLARE,ILS_TRACK,75.92,76,0.08,9.51,-3.26,4.47,6.83,270.4,0.011,0,16.624,270.4,-1.62,0.5,0.29,0.332,-0.02,-0.09,-1.62,-2.148,0.513,270.38,0,0,0,0,0,0,1,1,2.54,FLYING
113.94,FLARE,ILS_TRACK,75.8,76,0.2,9.08,-3.2,4.54,6.86,270.4,0.011,0,16.624,270.4,-1.553,0.5,0.29,0.332,-0.02,-0.09,-1.553,-2.056,0.535,270.38,0,0,0,0,0,0,1,1,2.68,FLYING
114.08,FLARE,ILS_TRACK,75.69,76,0.31,8.66,-3.14,4.61,6.89,270.4,0.01,0,16.624,270.4,-1.487,0.5,0.29,0.332,-0.02,-0.09,-1.487,-1.966,0.556,270.38,0,0,0,0,0,0,1,1,2.82,FLYING
114.22,FLARE,ILS_TRACK,75.56,76,0.44,8.24,-3.08,4.68,6.92,270.4,0.011,0,16.624,270.4,-1.422,0.5,0.29,0.332,-0.02,-0.09,-1.422,-1.877,0.577,270.38,0,0,0,0,0,0,1,1,2.96,FLYING
114.36,FLARE,ILS_TRACK,75.44,76,0.56,7.84,-3.01,4.75,6.95,270.4,0.01,0,16.624,270.4,-1.359,0.5,0.29,0.332,-0.02,-0.09,-1.359,-1.79,0.598,270.38,0,0,0,0,0,0,1,1,3.1,FLYING
114.54,FLARE,ILS_TRACK,75.27,76,0.73,7.33,-2.93,4.83,6.97,270.4,0.009,0,16.624,270.4,-1.279,0.5,0.29,0.332,-0.02,-0.09,-1.279,-1.682,0.623,270.38,0,0,0,0,0,0,1,1,3.28,FLYING
114.68,FLARE,ILS_TRACK,75.14,76,0.86,6.95,-2.86,4.91,7.01,270.4,0.009,0,16.624,270.4,-1.219,0.5,0.29,0.332,-0.02,-0.09,-1.219,-1.6,0.643,270.38,0,0,0,0,0,0,1,1,3.42,FLYING
114.82,FLARE,ILS_TRACK,75,76,1,6.58,-2.79,4.98,7.04,270.4,0.008,0,16.624,270.4,-1.16,0.5,0.29,0.332,-0.02,-0.09,-1.16,-1.519,0.662,270.38,0,0,0,0,0,0,1,1,3.56,FLYING
114.96,FLARE,ILS_TRACK,74.86,76,1.14,6.21,-2.73,5.06,7.06,270.4,0.008,0,16.624,270.4,-1.102,0.5,0.29,0.332,-0.02,-0.09,-1.102,-1.441,0.68,270.38,0,0,0,0,0,0,1,1,3.7,FLYING
115.1,FLARE,ILS_TRACK,74.72,76,1.28,5.85,-2.65,5.14,7.09,270.4,0.009,0,16.624,270.4,-1.046,0.5,0.29,0.332,-0.02,-0.09,-1.046,-1.365,0.698,270.38,0,0,0,0,0,0,1,1,3.84,FLYING
115.24,FLARE,ILS_TRACK,74.57,76,1.43,5.49,-2.59,5.21,7.12,270.4,0.008,0,16.624,270.4,-0.988,0.5,0.29,0.332,-0.02,-0.09,-0.988,-1.287,0.717,270.38,0,0,0,0,0,0,1,1,3.98,FLYING
115.38,FLARE,ILS_TRACK,74.42,76,1.58,5.15,-2.51,5.29,7.15,270.4,0.009,0,16.624,270.4,-0.935,0.5,0.29,0.332,-0.02,-0.09,-0.935,-1.215,0.734,270.38,0,0,0,0,0,0,1,1,4.12,FLYING
115.56,FLARE,ILS_TRACK,74.23,76,1.77,4.74,-2.43,5.39,7.18,270.4,0.01,0,16.624,270.4,-0.868,0.5,0.29,0.332,-0.02,-0.09,-0.868,-1.125,0.755,270.38,0,0,0,0,0,0,1,1,4.3,FLYING
115.7,FLARE,ILS_TRACK,74.07,76,1.93,4.42,-2.35,5.46,7.21,270.4,0.01,0,16.624,270.4,-0.818,0.5,0.29,0.332,-0.02,-0.09,-0.818,-1.058,0.771,270.38,0,0,0,0,0,0,1,1,4.44,FLYING
115.84,FLARE,ILS_TRACK,73.92,76,2.08,4.12,-2.28,5.54,7.24,270.4,0.01,0,16.624,270.4,-0.769,0.5,0.29,0.332,-0.02,-0.09,-0.769,-0.993,0.787,270.38,0,0,0,0,0,0,1,1,4.58,FLYING
115.98,FLARE,ILS_TRACK,73.76,76,2.24,3.82,-2.21,5.62,7.27,270.4,0.011,0,16.624,270.4,-0.722,0.5,0.29,0.332,-0.02,-0.09,-0.722,-0.93,0.802,270.38,0,0,0,0,0,0,1,1,4.72,FLYING
116.12,FLARE,ILS_TRACK,73.6,76,2.4,3.54,-2.14,5.7,7.3,270.4,0.012,0,16.624,270.4,-0.676,0.5,0.29,0.332,-0.02,-0.09,-0.676,-0.869,0.816,270.38,0,0,0,0,0,0,1,1,4.86,FLYING
116.26,FLARE,ILS_TRACK,73.43,76,2.57,3.26,-2.07,5.77,7.33,270.4,0.012,0,16.624,270.4,-0.631,0.5,0.29,0.332,-0.02,-0.09,-0.631,-0.81,0.83,270.38,0,0,0,0,0,0,1,1,5,FLYING
116.4,FLARE,ILS_TRACK,73.27,76,2.73,3,-2,5.85,7.36,270.41,0.013,0,16.624,270.4,-0.588,0.5,0.29,0.332,-0.02,-0.09,-0.588,-0.753,0.844,270.38,0,0,0,0,0,0,1,1,5.14,FLYING
116.58,FLARE,ILS_TRACK,73.05,76,2.95,2.67,-1.92,5.94,7.39,270.41,0.015,0,16.624,270.4,-0.535,0.5,0.29,0.332,-0.02,-0.09,-0.535,-0.682,0.861,270.38,0,0,0,0,0,0,1,1,5.32,FLYING
116.72,FLARE,ILS_TRACK,72.88,76,3.12,2.42,-1.85,6.02,7.42,270.41,0.015,0,16.624,270.4,-0.495,0.5,0.29,0.332,-0.02,-0.09,-0.495,-0.63,0.873,270.38,0,0,0,0,0,0,1,1,5.46,FLYING
116.86,FLARE,ILS_TRACK,72.71,76,3.29,2.19,-1.79,6.1,7.45,270.41,0.016,0,16.624,270.4,-0.456,0.5,0.29,0.332,-0.02,-0.09,-0.456,-0.579,0.885,270.38,0,0,0,0,0,0,1,1,5.6,LANDED
117,FLARE,ILS_TRACK,72.48,76,3.52,2.01,-0.33,5.32,5.91,270.41,0.02,0,16.624,270.4,-0.422,0.5,0.29,0.332,-0.02,-0.09,-0.422,-0.534,0.896,270.38,0,0,0,0,0,0,1,1,5.74,LANDED
117.14,TOUCHDOWN,ILS_TRACK,71.81,76,4.19,1.83,-0.21,2.8,3.37,270.41,0.03,0,16.624,270.4,-0.398,0.5,0.29,0.332,-0.02,-0.09,-0.398,-0.5,0.904,270.38,0,0,0,0,0,0,1,1,0.02,LANDED
117.28,TOUCHDOWN,ILS_TRACK,71.49,76,4.51,1.61,-0.28,-0.36,0.33,270.41,0.038,0,16.624,270.4,-0.398,0.5,0.29,0.332,-0.02,-0.09,-0.398,-0.5,0.904,270.38,0,0,0,0,0,0,1,1,0.16,LANDED
117.4,ROLLOUT,ILS_TRACK,71.33,76,4.67,1.55,0,-1.55,-1.57,270.41,0.049,0,16.624,270.4,-0.398,0.5,0.29,0.332,-0.02,-0.09,-0.398,-0.5,0.904,270.38,0,0,0,0,0,0,1,1,0.04,LANDED
117.58,ROLLOUT,ILS_TRACK,71.03,76,4.97,1.56,0.04,-1.52,-1.54,270.4,0.05,0,16.624,270.4,-0.398,0.5,0.29,0.332,-0.02,-0.09,-0.398,-0.5,0.904,270.4,0.477,-0.01,0,0,0,-0.0034,1,1,0.24,LANDED
117.78,ROLLOUT,ILS_TRACK,70.84,76,5.16,1.63,0.09,-1.04,-1.14,270.4,0.051,0,16.624,270.4,-0.398,0.5,0.29,0.332,-0.02,-0.09,-0.398,-0.5,0.904,270.4,0.482,-0.01,0.003,0,0,-0.0034,1,1,0.44,LANDED
117.96,ROLLOUT,ILS_TRACK,70.73,76,5.27,1.63,-0.11,-0.98,-0.91,270.4,0.059,0,16.624,270.4,-0.398,0.5,0.29,0.332,-0.02,-0.09,-0.398,-0.5,0.904,270.4,0.485,-0.01,0.007,0,0,-0.004,1,1,0.62,LANDED
118.14,ROLLOUT,ILS_TRACK,70.63,76,5.37,1.66,-0.04,-0.62,-0.63,270.4,0.051,0,16.624,270.4,-0.398,0.5,0.29,0.332,-0.02,-0.09,-0.398,-0.5,0.904,270.4,0.487,-0.01,0,0,0,-0.0037,1,1,0.8,LANDED
118.32,ROLLOUT,ILS_TRACK,70.53,76,5.47,1.67,-0.11,-0.54,-0.44,270.38,0.032,0,16.624,270.4,-0.398,0.5,0.29,0.332,-0.02,-0.09,-0.398,-0.5,0.904,270.4,0.489,-0.01,-0.014,0,0,-0.0024,1,1,0.98,LANDED
118.5,ROLLOUT,ILS_TRACK,70.43,76,5.57,1.66,-0.06,-0.71,-0.66,270.39,0.033,0,16.624,270.4,-0.398,0.5,0.29,0.332,-0.02,-0.09,-0.398,-0.5,0.904,270.4,0.49,-0.01,-0.011,0,0,-0.0022,1,1,1.16,LANDED
118.68,ROLLOUT,ILS_TRACK,70.33,76,5.67,1.66,-0.08,-0.62,-0.57,270.41,0.074,0,16.624,270.4,-0.398,0.5,0.29,0.332,-0.02,-0.09,-0.398,-0.5,0.904,270.4,0.492,-0.01,0.01,0,0,-0.0048,1,1,1.34,LANDED
118.88,ROLLOUT,ILS_TRACK,70.22,76,5.78,1.66,-0.07,-0.62,-0.56,270.4,0.077,0,16.624,270.4,-0.398,0.5,0.29,0.332,-0.02,-0.09,-0.398,-0.5,0.904,270.4,0.495,-0.01,0.004,0,0,-0.0057,1,1,1.54,LANDED
119.06,ROLLOUT,ILS_TRACK,70.11,76,5.89,1.66,-0.07,-0.65,-0.59,270.37,0.005,0,16.624,270.4,-0.398,0.5,0.29,0.332,-0.02,-0.09,-0.398,-0.5,0.904,270.4,0.497,-0.01,-0.021,0,0,-0.001,1,1,1.72,LANDED
119.24,ROLLOUT,ILS_TRACK,70,76,6,1.66,-0.07,-0.63,-0.57,270.38,-0.011,0,16.624,270.4,-0.398,0.5,0.29,0.332,-0.02,-0.09,-0.398,-0.5,0.904,270.4,0.499,-0.01,-0.029,0,0,0.001,1,1,1.9,LANDED
119.42,ROLLOUT,ILS_TRACK,69.88,76,6.12,1.66,-0.07,-0.64,-0.58,270.43,0.075,0,16.624,270.4,-0.398,0.5,0.29,0.332,-0.02,-0.09,-0.398,-0.5,0.904,270.4,0.501,-0.01,0.016,0,0,-0.0043,1,1,2.08,LANDED
119.6,ROLLOUT,ILS_TRACK,69.77,76,6.23,1.66,-0.06,-0.64,-0.59,270.43,0.162,0,16.624,270.4,-0.398,0.5,0.29,0.332,-0.02,-0.09,-0.398,-0.5,0.904,270.4,0.504,-0.01,0.039,0,0,-0.0114,1,1,2.26,LANDED
119.78,ROLLOUT,ILS_TRACK,69.66,76,6.34,1.66,-0.07,-0.63,-0.58,270.36,0.089,0,16.624,270.4,-0.398,0.5,0.29,0.332,-0.02,-0.09,-0.398,-0.5,0.904,270.4,0.506,-0.01,-0.02,0,0,-0.0076,1,1,2.44,LANDED
119.98,ROLLOUT,ILS_TRACK,69.53,76,6.47,1.66,-0.06,-0.64,-0.59,270.35,-0.076,0,16.624,270.4,-0.398,0.5,0.29,0.332,-0.02,-0.09,-0.398,-0.5,0.904,270.4,0.508,-0.01,-0.063,0,0,0.005,1,1,2.64,LANDED
120.16,ROLLOUT,ILS_TRACK,69.41,76,6.59,1.66,-0.06,-0.64,-0.59,270.45,0.004,0,16.624,270.4,-0.398,0.5,0.29,0.332,-0.02,-0.09,-0.398,-0.5,0.904,270.4,0.511,-0.01,0.026,0,0,0.0013,1,1,2.82,LANDED
120.34,ROLLOUT,ILS_TRACK,69.3,76,6.7,1.66,-0.06,-0.63,-0.58,270.49,0.225,0,16.624,270.4,-0.398,0.5,0.29,0.332,-0.02,-0.09,-0.398,-0.5,0.904,270.4,0.513,-0.01,0.096,0,0,-0.0153,1,1,3,LANDED
120.52,ROLLOUT,ILS_TRACK,69.19,76,6.81,1.66,-0.06,-0.63,-0.59,270.34,0.145,0,16.624,270.4,-0.398,0.5,0.29,0.332,-0.02,-0.09,-0.398,-0.5,0.904,270.4,0.515,-0.01,-0.017,0,0,-0.013,1,1,3.18,LANDED
120.7,ROLLOUT,ILS_TRACK,69.07,76,6.93,1.66,-0.06,-0.63,-0.59,270.25,-0.188,0,16.624,270.4,-0.398,0.5,0.29,0.332,-0.02,-0.09,-0.398,-0.5,0.904,270.4,0.518,-0.01,-0.152,0,0,0.0117,1,1,3.36,LANDED
120.88,ROLLOUT,ILS_TRACK,68.96,76,7.04,1.66,-0.05,-0.63,-0.59,270.45,-0.146,0,16.624,270.4,-0.398,0.5,0.29,0.332,-0.02,-0.09,-0.398,-0.5,0.904,270.4,0.52,-0.01,-0.009,0,0,0.0136,1,1,3.54,LANDED
121.08,ROLLOUT,ILS_TRACK,68.83,76,7.17,1.66,-0.06,-0.63,-0.59,270.66,0.442,0,16.624,270.4,-0.398,0.5,0.29,0.332,-0.02,-0.09,-0.398,-0.5,0.904,270.4,0.522,-0.01,0.254,0,0,-0.0292,1,1,3.74,LANDED
121.26,ROLLOUT,ILS_TRACK,68.72,76,7.28,1.66,-0.05,-0.63,-0.59,270.39,0.44,0,16.624,270.4,-0.398,0.5,0.29,0.332,-0.02,-0.09,-0.398,-0.5,0.904,270.4,0.525,-0.01,0.092,0,0,-0.037,1,1,3.92,LANDED
121.44,ROLLOUT,ILS_TRACK,68.61,76,7.39,1.66,-0.06,-0.62,-0.57,269.95,-0.44,0,16.624,270.4,-0.398,0.5,0.29,0.332,-0.02,-0.09,-0.398,-0.5,0.904,270.4,0.527,-0.011,-0.371,0,0,0.0248,1,1,4.1,LANDED
121.62,ROLLOUT,ILS_TRACK,68.49,76,7.51,1.66,-0.05,-0.6,-0.56,269.89,-1.07,0,16.624,270.4,-0.398,0.5,0.29,0.332,-0.02,-0.09,-0.398,-0.5,0.904,270.4,0.529,-0.01,-0.541,0,0,0.0804,1,1,4.28,LANDED
121.8,ROLLOUT,ILS_TRACK,68.38,76,7.62,1.66,-0.06,-0.59,-0.55,270.36,-0.437,0,16.624,270.4,-0.398,0.5,0.29,0.332,-0.02,-0.09,-0.398,-0.5,0.904,270.4,0.531,-0.008,-0.179,0,0,0.0438,1,1,4.46,LANDED
121.98,ROLLOUT,ILS_TRACK,68.26,76,7.74,1.66,-0.1,-0.57,-0.46,271.09,1.113,0,16.624,270.4,-0.398,0.5,0.29,0.332,-0.02,-0.09,-0.398,-0.5,0.904,270.4,0.534,-0.006,0.523,0,0,-0.0726,1,1,4.64,LANDED
122.18,ROLLOUT,ILS_TRACK,68.13,76,7.87,1.66,-0.04,-0.56,-0.55,271.75,2.413,0,16.624,270.4,-0.398,0.5,0.29,0.332,-0.02,-0.09,-0.398,-0.5,0.904,270.4,0.536,-0.008,1.257,0,0,-0.1808,1,1,4.84,LANDED
122.36,ROLLOUT,ILS_TRACK,68.02,76,7.98,1.66,-0.05,-0.54,-0.5,271.79,2.526,0,16.624,270.4,-0.398,0.5,0.29,0.332,-0.02,-0.09,-0.398,-0.5,0.904,270.4,0.539,-0.013,1.437,0,0,-0.2011,1,1,5.02,LANDED
122.54,ROLLOUT,ILS_TRACK,67.91,76,8.09,1.66,-0.06,-0.54,-0.49,271.29,1.157,0,16.624,270.4,-0.398,0.5,0.29,0.332,-0.02,-0.09,-0.398,-0.5,0.904,270.39,0.541,-0.02,1.043,0,0,-0.1077,1,1,5.2,LANDED
122.72,ROLLOUT,ILS_TRACK,67.79,76,8.21,1.66,-0.03,-0.44,-0.42,270.51,-1.024,0,16.624,270.4,-0.398,0.5,0.29,0.332,-0.02,-0.09,-0.398,-0.5,0.904,270.39,0.543,-0.025,0.308,0,0,0.0619,1,1,5.38,LANDED
122.9,ROLLOUT,ILS_TRACK,67.67,76,8.33,1.66,-0.05,-0.5,-0.47,269.68,-2.677,0,16.624,270.4,-0.398,0.5,0.29,0.332,-0.02,-0.09,-0.398,-0.5,0.904,270.39,0.546,-0.028,-0.525,0,0,0.2016,1,1,5.56,LANDED
123.08,ROLLOUT,ILS_TRACK,67.55,76,8.45,1.66,0.02,-0.55,-0.59,268.83,-3.186,0,16.624,270.4,-0.398,0.5,0.29,0.332,-0.02,-0.09,-0.398,-0.5,0.904,270.39,0.548,-0.027,-1.373,0,0,0.253,1,1,5.74,LANDED
123.28,ROLLOUT,ILS_TRACK,67.42,76,8.58,1.66,-0.01,-0.74,-0.74,267.94,-3.055,0,16.624,270.4,-0.398,0.5,0.29,0.332,-0.02,-0.09,-0.398,-0.5,0.904,270.39,0.551,-0.02,-2.285,0,0,0.2464,1,1,5.94,LANDED
123.46,ROLLOUT,ILS_TRACK,67.3,76,8.7,1.66,-0.04,-0.82,-0.8,267.42,-2.729,0,16.624,270.4,-0.398,0.5,0.29,0.332,-0.02,-0.09,-0.398,-0.5,0.904,270.4,0.553,-0.011,-2.911,0,0,0.2238,1,1,6.12,LANDED
123.64,ROLLOUT,ILS_TRACK,67.19,76,8.81,1.66,-0.07,-0.74,-0.69,267.59,-1.953,0,16.624,270.4,-0.398,0.5,0.29,0.332,-0.02,-0.09,-0.398,-0.5,0.904,270.4,0.555,0.002,-2.905,0,0,0.1699,1,1,6.3,LANDED
123.82,ROLLOUT,ILS_TRACK,67.08,76,8.92,1.66,-0.08,-0.58,-0.53,268.21,0.095,0,16.624,270.4,-0.398,0.5,0.29,0.332,-0.02,-0.09,-0.398,-0.5,0.904,270.41,0.557,0.015,-2.366,0,0,0.0135,1,1,6.48,LANDED
124,ROLLOUT,ILS_TRACK,66.96,76,9.04,1.66,-0.09,-0.42,-0.38,269.05,2.313,0,16.624,270.4,-0.398,0.5,0.29,0.332,-0.02,-0.09,-0.398,-0.5,0.904,270.42,0.56,0.027,-1.565,0,0,-0.1715,1,1,6.66,LANDED
124.18,ROLLOUT,ILS_TRACK,66.84,76,9.16,1.66,0.07,-0.43,-0.51,270.11,3.518,0,16.624,270.4,-0.398,0.5,0.29,0.332,-0.02,-0.09,-0.398,-0.5,0.904,270.42,0.562,0.035,-0.572,0,0,-0.2841,1,1,6.84,LANDED
124.38,ROLLOUT,ILS_TRACK,66.71,76,9.29,1.67,0.29,-0.8,-1.01,271.53,3.654,0,16.624,270.4,-0.398,0.5,0.29,0.332,-0.02,-0.09,-0.398,-0.5,0.904,270.42,0.565,0.039,0.805,0,0,-0.3038,1,1,7.04,LANDED
124.56,ROLLOUT,ILS_TRACK,66.58,76,9.42,1.66,0.03,-1.41,-1.44,272.82,3.677,0,16.624,270.4,-0.398,0.5,0.29,0.332,-0.02,-0.09,-0.398,-0.5,0.904,270.42,0.567,0.037,2.119,0,0,-0.3034,1,1,7.22,LANDED
124.74,ROLLOUT,ILS_TRACK,66.45,76,9.55,1.66,0.01,-1.53,-1.61,274.08,4.061,0,16.624,270.4,-0.398,0.5,0.29,0.332,-0.02,-0.09,-0.398,-0.5,0.904,270.42,0.57,0.029,3.378,0,0,-0.3349,1,1,7.4,LANDED
124.92,ROLLOUT,ILS_TRACK,66.32,76,9.68,1.67,0,-1.48,-1.55,275.3,4.467,0,16.624,270.4,-0.398,0.5,0.29,0.332,-0.02,-0.09,-0.398,-0.5,0.904,270.41,0.572,0.017,4.631,0,0,-0.3722,1,1,7.58,LANDED
125.1,ROLLOUT,ILS_TRACK,66.2,76,9.8,1.66,0,-1.62,-1.66,276.28,4.679,0,16.624,270.4,-0.398,0.5,0.29,0.332,-0.02,-0.09,-0.398,-0.5,0.904,270.4,0.575,-0.001,5.685,0,0,-0.3936,1,1,7.76,LANDED
125.28,ROLLOUT,ILS_TRACK,66.08,76,9.92,1.66,-0.01,-1.69,-1.72,276.98,4.736,0,16.624,270.4,-0.398,0.5,0.29,0.332,-0.02,-0.09,-0.398,-0.5,0.904,270.39,0.577,-0.024,6.476,0,0,-0.4028,1,1,7.94,LANDED
125.48,ROLLOUT,ILS_TRACK,65.95,76,10.05,1.66,-0.08,-1.65,-1.58,276.97,4.14,0,16.624,270.4,-0.398,0.5,0.29,0.332,-0.02,-0.09,-0.398,-0.5,0.904,270.37,0.58,-0.054,6.669,0,0,-0.364,1,1,8.14,LANDED
125.66,ROLLOUT,ILS_TRACK,65.84,76,10.16,1.65,-0.29,-1.23,-1.09,276.3,1.686,0,16.624,270.4,-0.398,0.5,0.29,0.332,-0.02,-0.09,-0.398,-0.5,0.904,270.35,0.582,-0.083,6.147,0,0,-0.1771,1,1,8.32,LANDED
125.84,ROLLOUT,ILS_TRACK,65.73,76,10.27,1.66,-0.13,-0.46,-0.38,275.18,-1.56,0,16.624,270.4,-0.398,0.5,0.29,0.332,-0.02,-0.09,-0.398,-0.5,0.904,270.34,0.584,-0.111,5.11,0,0,0.1088,1,1,8.5,LANDED
126.02,ROLLOUT,ILS_TRACK,65.61,76,10.39,1.66,0.03,-0.45,-0.51,273.82,-3.238,0,16.624,270.4,-0.398,0.5,0.29,0.332,-0.02,-0.09,-0.398,-0.5,0.904,270.32,0.587,-0.135,3.824,0,0,0.2705,1,1,8.68,LANDED
126.2,ROLLOUT,ILS_TRACK,65.47,76,10.53,1.66,0.25,-0.72,-0.85,272.12,-3.95,0,16.624,270.4,-0.398,0.5,0.29,0.332,-0.02,-0.09,-0.398,-0.5,0.904,270.31,0.589,-0.154,2.218,0,0,0.3386,1,1,8.86,LANDED
126.38,ROLLOUT,ILS_TRACK,65.32,76,10.68,1.67,0.18,-1.44,-1.61,270.18,-4.601,0,16.624,270.4,-0.398,0.5,0.29,0.332,-0.02,-0.09,-0.398,-0.5,0.904,270.3,0.592,-0.165,0.296,0,0,0.3939,1,1,9.04,LANDED
126.58,ROLLOUT,ILS_TRACK,65.16,76,10.84,1.65,0.09,-2.14,-2.3,268.1,-5.983,0,16.624,270.4,-0.398,0.5,0.29,0.332,-0.02,-0.09,-0.398,-0.5,0.904,270.3,0.595,-0.169,-1.776,0,0,0.5121,1,1,9.24,LANDED
126.76,ROLLOUT,ILS_TRACK,65.01,76,10.99,1.66,0.11,-2.41,-2.65,266.16,-7.656,0,16.624,270.4,-0.398,0.5,0.29,0.332,-0.02,-0.09,-0.398,-0.5,0.904,270.3,0.598,-0.165,-3.727,0,0,0.6615,1,1,9.42,LANDED
126.94,ROLLOUT,ILS_TRACK,64.86,76,11.14,1.65,0.1,-2.88,-3.1,264.53,-9.334,0,16.624,270.4,-0.398,0.5,0.29,0.332,-0.02,-0.09,-0.398,-0.5,0.904,270.31,0.601,-0.153,-5.46,0,0,0.8159,1,1,9.6,LANDED
127.12,ROLLOUT,ILS_TRACK,64.72,76,11.28,1.63,0.08,-3.45,-3.62,263.42,-10.911,0,16.624,270.4,-0.398,0.5,0.29,0.332,-0.02,-0.09,-0.398,-0.5,0.904,270.32,0.604,-0.133,-6.703,0,0,0.963,1,1,9.78,LANDED
127.3,ROLLOUT,ILS_TRACK,64.59,76,11.41,1.61,0.05,-4.04,-4.12,262.91,-12.13,0,16.624,270.4,-0.398,0.5,0.29,0.332,-0.02,-0.09,-0.398,-0.5,0.904,270.34,0.607,-0.108,-7.38,0,0,1,1,1,9.96,LANDED
127.48,ROLLOUT,ILS_TRACK,64.46,76,11.54,1.59,-0.06,-4.45,-4.47,263.34,-11.846,0,16.624,270.4,-0.398,0.5,0.29,0.332,-0.02,-0.09,-0.398,-0.5,0.904,270.35,0.61,-0.081,-7.207,0,0,1,1,1,10.14,LANDED
127.68,ROLLOUT,ILS_TRACK,64.3,76,11.7,1.6,-0.25,-3.7,-3.57,264.98,-8.751,0,16.624,270.4,-0.398,0.5,0.29,0.332,-0.02,-0.09,-0.398,-0.5,0.904,270.37,0.613,-0.051,-5.797,0,0,0.8399,1,1,10.34,LANDED
127.86,ROLLOUT,ILS_TRACK,64.15,76,11.85,1.63,-0.56,-1.93,-1.64,266.95,-3.029,0,16.624,270.4,-0.398,0.5,0.29,0.332,-0.02,-0.09,-0.398,-0.5,0.904,270.39,0.616,-0.027,-3.879,0,0,0.3475,1,1,10.52,LANDED
128.04,ROLLOUT,ILS_TRACK,64.01,76,11.99,1.67,-0.08,-0.06,-0.13,268.88,3.28,0,16.624,270.4,-0.398,0.5,0.29,0.332,-0.02,-0.09,-0.398,-0.5,0.904,270.4,0.618,-0.007,-1.934,0,0,-0.2577,1,1,10.7,LANDED
128.22,ROLLOUT,ILS_TRACK,63.85,76,12.15,1.73,0.9,-0.27,-0.75,270.41,5.026,0,16.624,270.4,-0.398,0.5,0.29,0.332,-0.02,-0.09,-0.398,-0.5,0.904,270.41,0.622,0.007,-0.269,0,0,-0.4633,1,1,10.88,LANDED
128.4,ROLLOUT,ILS_TRACK,63.69,76,12.31,1.75,-0.1,-1.74,-1.62,271.17,5.862,0,16.624,270.4,-0.398,0.5,0.29,0.332,-0.02,-0.09,-0.398,-0.5,0.904,270.41,0.625,0.011,0.642,0,0,-0.5289,1,1,11.06,LANDED
128.58,ROLLOUT,ILS_TRACK,63.59,76,12.41,1.58,-0.16,-3.24,-3.06,271.62,6.504,0,16.624,270.4,-0.398,0.5,0.29,0.332,-0.02,-0.09,-0.398,-0.5,0.904,270.41,0.627,0.009,1.098,0,0,-0.6104,1,1,11.24,LANDED
128.78,ROLLOUT,ILS_TRACK,63.46,76,12.54,1.66,0.01,-2.1,-2.28,272.64,6.646,0,16.624,270.4,-0.398,0.5,0.29,0.332,-0.02,-0.09,-0.398,-0.5,0.904,270.41,0.63,0.005,1.97,0,0,-0.622,1,1,11.44,LANDED
128.96,ROLLOUT,ILS_TRACK,63.35,76,12.65,1.67,0,-1.96,-1.99,273.73,6.845,0,16.624,270.4,-0.398,0.5,0.29,0.332,-0.02,-0.09,-0.398,-0.5,0.904,270.4,0.632,-0.003,3.113,0,0,-0.6468,1,1,11.62,LANDED
129.14,ROLLOUT,ILS_TRACK,63.24,76,12.76,1.65,0.04,-2.2,-2.26,274.42,6.945,0,16.624,270.4,-0.398,0.5,0.29,0.332,-0.02,-0.09,-0.398,-0.5,0.904,270.39,0.634,-0.014,3.927,0,0,-0.6585,1,1,11.8,LANDED
129.32,ROLLOUT,ILS_TRACK,63.13,76,12.87,1.65,0,-2.28,-2.31,274.4,6.537,0,16.624,270.4,-0.398,0.5,0.29,0.332,-0.02,-0.09,-0.398,-0.5,0.904,270.38,0.636,-0.03,4.089,0,0,-0.6346,1,1,11.98,LANDED
129.5,ROLLOUT,ILS_TRACK,63.02,76,12.98,1.65,-0.19,-1.88,-1.78,273.67,4.53,0,16.624,270.4,-0.398,0.5,0.29,0.332,-0.02,-0.09,-0.398,-0.5,0.904,270.37,0.639,-0.046,3.512,0,0,-0.4644,1,1,12.16,LANDED
129.68,ROLLOUT,ILS_TRACK,62.91,76,13.09,1.67,-0.24,-0.69,-0.55,272.45,0.462,0,16.624,270.4,-0.398,0.5,0.29,0.332,-0.02,-0.09,-0.398,-0.5,0.904,270.36,0.641,-0.061,2.381,0,0,-0.0934,1,1,12.34,LANDED
129.88,ROLLOUT,ILS_TRACK,62.78,76,13.22,1.68,0.07,-0.19,-0.3,271,-2.99,0,16.624,270.4,-0.398,0.5,0.29,0.332,-0.02,-0.09,-0.398,-0.5,0.904,270.35,0.643,-0.075,0.928,0,0,0.2719,1,1,12.54,LANDED
130.06,ROLLOUT,ILS_TRACK,62.65,76,13.35,1.67,0.14,-0.59,-0.71,269.75,-3.7,0,16.624,270.4,-0.398,0.5,0.29,0.332,-0.02,-0.09,-0.398,-0.5,0.904,270.35,0.646,-0.082,-0.327,0,0,0.3542,1,1,12.72,LANDED
130.24,ROLLOUT,ILS_TRACK,62.53,76,13.47,1.67,0.19,-1.3,-1.46,268.51,-3.8,0,16.624,270.4,-0.398,0.5,0.29,0.332,-0.02,-0.09,-0.398,-0.5,0.904,270.35,0.648,-0.083,-1.573,0,0,0.368,1,1,12.9,LANDED
130.42,ROLLOUT,ILS_TRACK,62.42,76,13.58,1.65,0.04,-1.8,-1.87,267.42,-4.176,0,16.624,270.4,-0.398,0.5,0.29,0.332,-0.02,-0.09,-0.398,-0.5,0.904,270.35,0.651,-0.078,-2.695,0,0,0.4039,1,1,13.08,LANDED
130.6,ROLLOUT,ILS_TRACK,62.3,76,13.7,1.66,0.04,-1.71,-1.81,266.36,-4.62,0,16.624,270.4,-0.398,0.5,0.29,0.332,-0.02,-0.09,-0.398,-0.5,0.904,270.36,0.653,-0.068,-3.766,0,0,0.4498,1,1,13.26,LANDED
130.78,ROLLOUT,ILS_TRACK,62.2,76,13.8,1.66,0.03,-1.76,-1.82,265.44,-4.873,0,16.624,270.4,-0.398,0.5,0.29,0.332,-0.02,-0.09,-0.398,-0.5,0.904,270.37,0.655,-0.054,-4.748,0,0,0.4794,1,1,13.44,LANDED
130.98,ROLLOUT,ILS_TRACK,62.08,76,13.92,1.66,0,-1.83,-1.85,265,-4.727,0,16.624,270.4,-0.398,0.5,0.29,0.332,-0.02,-0.09,-0.398,-0.5,0.904,270.38,0.657,-0.033,-5.372,0,0,0.4728,1,1,13.64,LANDED
131.16,ROLLOUT,ILS_TRACK,61.98,76,14.02,1.65,-0.13,-1.71,-1.63,265.37,-3.463,0,16.624,270.4,-0.398,0.5,0.29,0.332,-0.02,-0.09,-0.398,-0.5,0.904,270.39,0.659,-0.012,-5.155,0,0,0.369,1,1,13.82,LANDED
131.34,ROLLOUT,ILS_TRACK,61.88,76,14.12,1.66,-0.2,-0.9,-0.82,266.29,-0.257,0,16.624,270.4,-0.398,0.5,0.29,0.332,-0.02,-0.09,-0.398,-0.5,0.904,270.41,0.661,0.01,-4.366,0,0,0.0656,1,1,14,LANDED
131.52,ROLLOUT,ILS_TRACK,61.77,76,14.23,1.66,0,-0.34,-0.38,267.49,2.579,0,16.624,270.4,-0.398,0.5,0.29,0.332,-0.02,-0.09,-0.398,-0.5,0.904,270.42,0.664,0.03,-3.208,0,0,-0.236,1,1,14.18,LANDED
131.7,ROLLOUT,ILS_TRACK,61.66,76,14.34,1.66,0.1,-0.48,-0.61,268.85,3.663,0,16.624,270.4,-0.398,0.5,0.29,0.332,-0.02,-0.09,-0.398,-0.5,0.904,270.43,0.666,0.046,-1.906,0,0,-0.3623,1,1,14.36,LANDED
131.88,ROLLOUT,ILS_TRACK,61.53,76,14.47,1.67,0.38,-0.94,-1.29,270.44,4.03,0,16.624,270.4,-0.398,0.5,0.29,0.332,-0.02,-0.09,-0.398,-0.5,0.904,270.44,0.668,0.056,-0.367,0,0,-0.4038,1,1,14.54,LANDED
132.08,ROLLOUT,ILS_TRACK,61.39,76,14.61,1.66,0.1,-1.79,-1.92,272.23,4.738,0,16.624,270.4,-0.398,0.5,0.29,0.332,-0.02,-0.09,-0.398,-0.5,0.904,270.44,0.671,0.059,1.44,0,0,-0.4711,1,1,14.74,LANDED
132.26,ROLLOUT,ILS_TRACK,61.27,76,14.73,1.65,0.12,-2.05,-2.27,273.88,5.834,0,16.624,270.4,-0.398,0.5,0.29,0.332,-0.02,-0.09,-0.398,-0.5,0.904,270.44,0.673,0.056,3.064,0,0,-0.5809,1,1,14.92,LANDED
132.44,ROLLOUT,ILS_TRACK,61.14,76,14.86,1.66,0.13,-2.23,-2.47,275.45,7.072,0,16.624,270.4,-0.398,0.5,0.29,0.332,-0.02,-0.09,-0.398,-0.5,0.904,270.43,0.676,0.047,4.691,0,0,-0.7104,1,1,15.1,LANDED
132.62,ROLLOUT,ILS_TRACK,61.02,76,14.98,1.65,0.12,-2.64,-2.84,276.67,8.243,0,16.624,270.4,-0.398,0.5,0.29,0.332,-0.02,-0.09,-0.398,-0.5,0.904,270.42,0.679,0.031,6.016,0,0,-0.8347,1,1,15.28,LANDED
132.8,ROLLOUT,ILS_TRACK,60.9,76,15.1,1.64,0.12,-3.07,-3.21,277.45,9.381,0,16.624,270.4,-0.398,0.5,0.29,0.332,-0.02,-0.09,-0.398,-0.5,0.904,270.41,0.681,0.01,6.918,0,0,-0.9566,1,1,15.46,LANDED
132.98,ROLLOUT,ILS_TRACK,60.79,76,15.21,1.62,0.05,-3.56,-3.62,277.53,9.791,0,16.624,270.4,-0.398,0.5,0.29,0.332,-0.02,-0.09,-0.398,-0.5,0.904,270.39,0.683,-0.015,7.187,0,0,-1,1,1,15.64,LANDED
133.18,ROLLOUT,ILS_TRACK,60.66,76,15.34,1.61,-0.1,-3.4,-3.37,276.57,8.257,0,16.624,270.4,-0.398,0.5,0.29,0.332,-0.02,-0.09,-0.398,-0.5,0.904,270.37,0.686,-0.044,6.47,0,0,-0.8883,1,1,15.84,LANDED
133.36,ROLLOUT,ILS_TRACK,60.54,76,15.46,1.63,-0.35,-2.24,-2.05,274.99,4.361,0,16.624,270.4,-0.398,0.5,0.29,0.332,-0.02,-0.09,-0.398,-0.5,0.904,270.35,0.688,-0.069,5.019,0,0,-0.5144,1,1,16.02,LANDED
133.54,ROLLOUT,ILS_TRACK,60.41,76,15.59,1.66,-0.28,-0.48,-0.37,273.22,-1.49,0,16.624,270.4,-0.398,0.5,0.29,0.332,-0.02,-0.09,-0.398,-0.5,0.904,270.34,0.691,-0.09,3.277,0,0,0.0944,1,1,16.2,LANDED
133.72,ROLLOUT,ILS_TRACK,60.28,76,15.72,1.69,0.24,0,-0.3,271.54,-4.289,0,16.624,270.4,-0.398,0.5,0.29,0.332,-0.02,-0.09,-0.398,-0.5,0.904,270.33,0.693,-0.108,1.549,0,0,0.4377,1,1,16.38,LANDED
133.9,ROLLOUT,ILS_TRACK,60.13,76,15.87,1.69,0.37,-1.01,-1.3,270.39,-4.792,0,16.624,270.4,-0.398,0.5,0.29,0.332,-0.02,-0.09,-0.398,-0.5,0.904,270.32,0.696,-0.118,0.271,0,0,0.5039,1,1,16.56,LANDED
134.08,ROLLOUT,ILS_TRACK,60.02,76,15.98,1.64,0.07,-2.24,-2.24,269.71,-5.313,0,16.624,270.4,-0.398,0.5,0.29,0.332,-0.02,-0.09,-0.398,-0.5,0.904,270.32,0.699,-0.12,-0.47,0,0,0.5576,1,1,16.74,LANDED
134.28,ROLLOUT,ILS_TRACK,59.91,76,16.09,1.62,0.04,-2.55,-2.63,268.81,-5.665,0,16.624,270.4,-0.398,0.5,0.29,0.332,-0.02,-0.09,-0.398,-0.5,0.904,270.32,0.701,-0.118,-1.302,0,0,0.6028,1,1,16.94,LANDED
134.46,ROLLOUT,ILS_TRACK,59.81,76,16.19,1.64,0.07,-2.25,-2.37,267.84,-5.99,0,16.624,270.4,-0.398,0.5,0.29,0.332,-0.02,-0.09,-0.398,-0.5,0.904,270.32,0.703,-0.113,-2.263,0,0,0.6377,1,1,17.12,LANDED
134.64,ROLLOUT,ILS_TRACK,59.71,76,16.29,1.65,0.06,-2.19,-2.27,267.02,-6.232,0,16.624,270.4,-0.398,0.5,0.29,0.332,-0.02,-0.09,-0.398,-0.5,0.904,270.33,0.705,-0.104,-3.161,0,0,0.6688,1,1,17.3,LANDED
134.82,ROLLOUT,ILS_TRACK,59.62,76,16.38,1.64,0.01,-2.39,-2.4,266.76,-6.018,0,16.624,270.4,-0.398,0.5,0.29,0.332,-0.02,-0.09,-0.398,-0.5,0.904,270.34,0.707,-0.092,-3.584,0,0,0.6565,1,1,17.48,LANDED
135,ROLLOUT,ILS_TRACK,59.52,76,16.48,1.63,-0.11,-2.24,-2.18,267.25,-4.574,0,16.624,270.4,-0.398,0.5,0.29,0.332,-0.02,-0.09,-0.398,-0.5,0.904,270.35,0.709,-0.078,-3.271,0,0,0.5217,1,1,17.66,LANDED
135.18,ROLLOUT,ILS_TRACK,59.42,76,16.58,1.64,-0.31,-1.28,-1.09,268.34,-1.135,0,16.624,270.4,-0.398,0.5,0.29,0.332,-0.02,-0.09,-0.398,-0.5,0.904,270.36,0.711,-0.065,-2.291,0,0,0.1757,1,1,17.84,LANDED
135.38,ROLLOUT,ILS_TRACK,59.31,76,16.69,1.66,0.06,-0.38,-0.5,269.78,2.719,0,16.624,270.4,-0.398,0.5,0.29,0.332,-0.02,-0.09,-0.398,-0.5,0.904,270.36,0.713,-0.053,-0.868,0,0,-0.2706,1,1,18.04,LANDED
135.56,ROLLOUT,ILS_TRACK,59.19,76,16.81,1.66,0.12,-0.5,-0.65,271.01,3.65,0,16.624,270.4,-0.398,0.5,0.29,0.332,-0.02,-0.09,-0.398,-0.5,0.904,270.37,0.715,-0.046,0.381,0,0,-0.3952,1,1,18.22,LANDED
135.74,ROLLOUT,ILS_TRACK,59.08,76,16.92,1.67,0.35,-0.99,-1.3,272.1,3.611,0,16.624,270.4,-0.398,0.5,0.29,0.332,-0.02,-0.09,-0.398,-0.5,0.904,270.37,0.717,-0.045,1.502,0,0,-0.3996,1,1,18.4,LANDED
135.92,ROLLOUT,ILS_TRACK,58.98,76,17.02,1.65,0.08,-1.61,-1.67,273.01,3.572,0,16.624,270.4,-0.398,0.5,0.29,0.332,-0.02,-0.09,-0.398,-0.5,0.904,270.37,0.72,-0.049,2.46,0,0,-0.3921,1,1,18.58,LANDED
136.1,ROLLOUT,ILS_TRACK,58.88,76,17.12,1.64,0.05,-1.74,-1.81,273.75,3.7,0,16.624,270.4,-0.398,0.5,0.29,0.332,-0.02,-0.09,-0.398,-0.5,0.904,270.36,0.721,-0.058,3.257,0,0,-0.4086,1,1,18.76,LANDED
136.28,ROLLOUT,ILS_TRACK,58.79,76,17.21,1.65,0,-1.58,-1.61,273.95,3.276,0,16.624,270.4,-0.398,0.5,0.29,0.332,-0.02,-0.09,-0.398,-0.5,0.904,270.35,0.723,-0.07,3.62,0,0,-0.3744,1,1,18.94,LANDED
136.48,ROLLOUT,ILS_TRACK,58.69,76,17.31,1.64,-0.1,-1.19,-1.13,273.42,1.109,0,16.624,270.4,-0.398,0.5,0.29,0.332,-0.02,-0.09,-0.398,-0.5,0.904,270.34,0.725,-0.086,3.24,0,0,-0.1556,1,1,19.14,LANDED
136.66,ROLLOUT,ILS_TRACK,58.6,76,17.4,1.63,0,-0.77,-0.76,272.54,-1.343,0,16.624,270.4,-0.398,0.5,0.29,0.332,-0.02,-0.09,-0.398,-0.5,0.904,270.33,0.727,-0.099,2.419,0,0,0.1221,1,1,19.32,LANDED
136.84,ROLLOUT,ILS_TRACK,58.5,76,17.5,1.64,-0.06,-0.85,-0.81,271.6,-2.885,0,16.624,270.4,-0.398,0.5,0.29,0.332,-0.02,-0.09,-0.398,-0.5,0.904,270.32,0.729,-0.11,1.493,0,0,0.3108,1,1,19.5,LANDED
137.02,ROLLOUT,ILS_TRACK,58.41,76,17.59,1.63,0.13,-0.91,-1.05,270.45,-3.369,0,16.624,270.4,-0.398,0.5,0.29,0.332,-0.02,-0.09,-0.398,-0.5,0.904,270.32,0.731,-0.116,0.413,0,0,0.3752,1,1,19.68,LANDED
137.2,ROLLOUT,ILS_TRACK,58.31,76,17.69,1.65,0.46,-1.01,-1.47,269.1,-3.337,0,16.624,270.4,-0.398,0.5,0.29,0.332,-0.02,-0.09,-0.398,-0.5,0.904,270.32,0.733,-0.118,-0.907,0,0,0.381,1,1,19.86,LANDED
137.38,ROLLOUT,ILS_TRACK,58.21,76,17.79,1.66,0.11,-1.38,-1.51,267.77,-3.194,0,16.624,270.4,-0.398,0.5,0.29,0.332,-0.02,-0.09,-0.398,-0.5,0.904,270.32,0.735,-0.115,-2.266,0,0,0.3598,1,1,20.04,LANDED
137.58,ROLLOUT,ILS_TRACK,58.1,76,17.9,1.65,0.06,-1.61,-1.71,266.49,-3.364,0,16.624,270.4,-0.398,0.5,0.29,0.332,-0.02,-0.09,-0.398,-0.5,0.904,270.32,0.737,-0.107,-3.585,0,0,0.3787,1,1,20.24,LANDED
137.76,ROLLOUT,ILS_TRACK,58,76,18,1.65,0.07,-1.53,-1.65,265.44,-3.524,0,16.624,270.4,-0.398,0.5,0.29,0.332,-0.02,-0.09,-0.398,-0.5,0.904,270.33,0.739,-0.095,-4.667,0,0,0.3989,1,1,20.42,LANDED
137.94,ROLLOUT,ILS_TRACK,57.9,76,18.1,1.66,0.05,-1.5,-1.59,264.64,-3.499,0,16.624,270.4,-0.398,0.5,0.29,0.332,-0.02,-0.09,-0.398,-0.5,0.904,270.34,0.741,-0.078,-5.567,0,0,0.4013,1,1,20.6,LANDED
138.12,ROLLOUT,ILS_TRACK,57.81,76,18.19,1.65,-0.01,-1.47,-1.48,264.5,-2.977,0,16.624,270.4,-0.398,0.5,0.29,0.332,-0.02,-0.09,-0.398,-0.5,0.904,270.36,0.743,-0.058,-5.897,0,0,0.3503,1,1,20.78,LANDED
138.3,ROLLOUT,ILS_TRACK,57.73,76,18.27,1.64,-0.1,-1.23,-1.15,265.04,-1.188,0,16.624,270.4,-0.398,0.5,0.29,0.332,-0.02,-0.09,-0.398,-0.5,0.904,270.38,0.745,-0.035,-5.5,0,0,0.1701,1,1,20.96,LANDED
138.48,ROLLOUT,ILS_TRACK,57.64,76,18.36,1.63,-0.04,-0.81,-0.78,266,1.394,0,16.624,270.4,-0.398,0.5,0.29,0.332,-0.02,-0.09,-0.398,-0.5,0.904,270.39,0.746,-0.013,-4.626,0,0,-0.1304,1,1,21.14,LANDED
138.68,ROLLOUT,ILS_TRACK,57.53,76,18.47,1.64,0.11,-0.72,-0.86,267.39,3.257,0,16.624,270.4,-0.398,0.5,0.29,0.332,-0.02,-0.09,-0.398,-0.5,0.904,270.41,0.749,0.008,-3.325,0,0,-0.3624,1,1,21.34,LANDED
138.86,ROLLOUT,ILS_TRACK,57.42,76,18.58,1.64,0.18,-0.85,-1.06,269,3.833,0,16.624,270.4,-0.398,0.5,0.29,0.332,-0.02,-0.09,-0.398,-0.5,0.904,270.42,0.751,0.022,-1.807,0,0,-0.437,1,1,21.52,LANDED
139.04,ROLLOUT,ILS_TRACK,57.31,76,18.69,1.67,0.28,-1.32,-1.64,270.87,4.156,0,16.624,270.4,-0.398,0.5,0.29,0.332,-0.02,-0.09,-0.398,-0.5,0.904,270.42,0.753,0.031,0.03,0,0,-0.4746,1,1,21.7,LANDED
139.22,ROLLOUT,ILS_TRACK,57.19,76,18.81,1.65,0.14,-1.92,-2.12,272.71,5.062,0,16.624,270.4,-0.398,0.5,0.29,0.332,-0.02,-0.09,-0.398,-0.5,0.904,270.43,0.755,0.033,1.877,0,0,-0.5749,1,1,21.88,LANDED
139.4,ROLLOUT,ILS_TRACK,57.07,76,18.93,1.65,0.19,-2.22,-2.52,274.53,6.407,0,16.624,270.4,-0.398,0.5,0.29,0.332,-0.02,-0.09,-0.398,-0.5,0.904,270.42,0.757,0.029,3.707,0,0,-0.7298,1,1,22.06,LANDED
139.58,ROLLOUT,ILS_TRACK,56.95,76,19.05,1.65,0.2,-2.57,-2.89,276.13,7.919,0,16.624,270.4,-0.398,0.5,0.29,0.332,-0.02,-0.09,-0.398,-0.5,0.904,270.42,0.76,0.019,5.39,0,0,-0.9092,1,1,22.24,LANDED
139.78,ROLLOUT,ILS_TRACK,56.82,76,19.18,1.64,0.18,-3.14,-3.42,277.43,9.634,0,16.624,270.4,-0.398,0.5,0.29,0.332,-0.02,-0.09,-0.398,-0.5,0.904,270.4,0.763,0,6.813,0,0,-1,1,1,22.44,LANDED
139.96,ROLLOUT,ILS_TRACK,56.71,76,19.29,1.62,0.16,-3.74,-3.93,278.01,11.052,0,16.624,270.4,-0.398,0.5,0.29,0.332,-0.02,-0.09,-0.398,-0.5,0.904,270.38,0.765,-0.022,7.556,0,0,-1,1,1,22.62,LANDED
140.14,ROLLOUT,ILS_TRACK,56.61,76,19.39,1.59,0.05,-4.34,-4.43,277.76,11.162,0,16.624,270.4,-0.398,0.5,0.29,0.332,-0.02,-0.09,-0.398,-0.5,0.904,270.37,0.767,-0.047,7.534,0,0,-1,1,1,22.8,LANDED
140.32,ROLLOUT,ILS_TRACK,56.49,76,19.51,1.59,0.04,-3.92,-4.06,276.5,9.281,0,16.624,270.4,-0.398,0.5,0.29,0.332,-0.02,-0.09,-0.398,-0.5,0.904,270.35,0.769,-0.071,6.524,0,0,-1,1,1,22.98,LANDED
140.5,ROLLOUT,ILS_TRACK,56.37,76,19.63,1.67,-0.39,-1.91,-1.68,274.45,4.898,0,16.624,270.4,-0.398,0.5,0.29,0.332,-0.02,-0.09,-0.398,-0.5,0.904,270.33,0.771,-0.094,4.587,0,0,-0.6581,1,1,23.16,LANDED
140.68,ROLLOUT,ILS_TRACK,56.26,76,19.74,1.68,-0.29,-0.18,-0.05,272.44,-1.486,0,16.624,270.4,-0.398,0.5,0.29,0.332,-0.02,-0.09,-0.398,-0.5,0.904,270.31,0.774,-0.113,2.563,0,0,0.0987,1,1,23.34,LANDED
140.88,ROLLOUT,ILS_TRACK,56.1,76,19.9,1.71,0.46,0.02,-0.49,270.39,-4.799,0,16.624,270.4,-0.398,0.5,0.29,0.332,-0.02,-0.09,-0.398,-0.5,0.904,270.3,0.777,-0.13,0.451,0,0,0.5592,1,1,23.54,LANDED
141.06,ROLLOUT,ILS_TRACK,55.95,76,20.05,1.77,0.49,-1.16,-1.73,269.28,-5.09,0,16.624,270.4,-0.398,0.5,0.29,0.332,-0.02,-0.09,-0.398,-0.5,0.904,270.3,0.78,-0.135,-0.839,0,0,0.6041,1,1,23.72,LANDED
141.24,ROLLOUT,ILS_TRACK,55.85,76,20.15,1.64,-0.15,-2.7,-2.35,268.72,-6.108,0,16.624,270.4,-0.398,0.5,0.29,0.332,-0.02,-0.09,-0.398,-0.5,0.904,270.3,0.782,-0.132,-1.476,0,0,0.7384,1,1,23.9,LANDED
141.42,ROLLOUT,ILS_TRACK,55.76,76,20.24,1.64,0.11,-2.47,-2.73,268.06,-6.358,0,16.624,270.4,-0.398,0.5,0.29,0.332,-0.02,-0.09,-0.398,-0.5,0.904,270.3,0.784,-0.127,-2.033,0,0,0.7699,1,1,24.08,LANDED
141.6,ROLLOUT,ILS_TRACK,55.67,76,20.33,1.67,0.06,-1.91,-2.01,267,-6.594,0,16.624,270.4,-0.398,0.5,0.29,0.332,-0.02,-0.09,-0.398,-0.5,0.904,270.31,0.786,-0.12,-3.079,0,0,0.801,1,1,24.26,LANDED
141.78,ROLLOUT,ILS_TRACK,55.58,76,20.42,1.66,0.11,-2.13,-2.23,266.24,-6.78,0,16.624,270.4,-0.398,0.5,0.29,0.332,-0.02,-0.09,-0.398,-0.5,0.904,270.32,0.788,-0.109,-3.957,0,0,0.8268,1,1,24.44,LANDED
141.98,ROLLOUT,ILS_TRACK,55.49,76,20.51,1.65,0.05,-2.36,-2.43,266.24,-6.384,0,16.624,270.4,-0.398,0.5,0.29,0.332,-0.02,-0.09,-0.398,-0.5,0.904,270.33,0.79,-0.093,-4.166,0,0,0.7955,1,1,24.64,LANDED
142.16,ROLLOUT,ILS_TRACK,55.4,76,20.6,1.65,-0.12,-1.89,-1.85,267.04,-4.551,0,16.624,270.4,-0.398,0.5,0.29,0.332,-0.02,-0.09,-0.398,-0.5,0.904,270.34,0.791,-0.078,-3.535,0,0,0.5957,1,1,24.82,LANDED
142.34,ROLLOUT,ILS_TRACK,55.3,76,20.7,1.66,-0.23,-0.75,-0.57,268.3,-0.669,0,16.624,270.4,-0.398,0.5,0.29,0.332,-0.02,-0.09,-0.398,-0.5,0.904,270.35,0.793,-0.064,-2.352,0,0,0.1447,1,1,25,LANDED
142.52,ROLLOUT,ILS_TRACK,55.2,76,20.8,1.68,0.1,-0.09,-0.24,269.67,2.819,0,16.624,270.4,-0.398,0.5,0.29,0.332,-0.02,-0.09,-0.398,-0.5,0.904,270.36,0.795,-0.053,-0.986,0,0,-0.319,1,1,25.18,LANDED
142.7,ROLLOUT,ILS_TRACK,55.09,76,20.91,1.67,0.18,-0.39,-0.58,270.93,3.748,0,16.624,270.4,-0.398,0.5,0.29,0.332,-0.02,-0.09,-0.398,-0.5,0.904,270.36,0.797,-0.046,0.302,0,0,-0.4592,1,1,25.36,LANDED
142.88,ROLLOUT,ILS_TRACK,54.99,76,21.01,1.68,0.35,-1.05,-1.39,272.07,3.797,0,16.624,270.4,-0.398,0.5,0.29,0.332,-0.02,-0.09,-0.398,-0.5,0.904,270.37,0.799,-0.044,1.468,0,0,-0.4718,1,1,25.54,LANDED
143.08,ROLLOUT,ILS_TRACK,54.89,76,21.11,1.65,0.13,-1.75,-1.88,273.13,4.11,0,16.624,270.4,-0.398,0.5,0.29,0.332,-0.02,-0.09,-0.398,-0.5,0.904,270.36,0.802,-0.049,2.565,0,0,-0.5062,1,1,25.74,LANDED
143.26,ROLLOUT,ILS_TRACK,54.8,76,21.2,1.66,0.13,-1.73,-1.89,273.93,4.597,0,16.624,270.4,-0.398,0.5,0.29,0.332,-0.02,-0.09,-0.398,-0.5,0.904,270.36,0.803,-0.058,3.425,0,0,-0.5697,1,1,25.92,LANDED
143.44,ROLLOUT,ILS_TRACK,54.72,76,21.28,1.66,0.07,-1.78,-1.85,274.22,4.536,0,16.624,270.4,-0.398,0.5,0.29,0.332,-0.02,-0.09,-0.398,-0.5,0.904,270.35,0.805,-0.069,3.868,0,0,-0.575,1,1,26.1,LANDED
143.62,ROLLOUT,ILS_TRACK,54.64,76,21.36,1.65,-0.06,-1.62,-1.61,273.81,3.221,0,16.624,270.4,-0.398,0.5,0.29,0.332,-0.02,-0.09,-0.398,-0.5,0.904,270.33,0.807,-0.083,3.62,0,0,-0.4337,1,1,26.28,LANDED
143.8,ROLLOUT,ILS_TRACK,54.55,76,21.45,1.66,-0.16,-0.73,-0.71,272.83,0.212,0,16.624,270.4,-0.398,0.5,0.29,0.332,-0.02,-0.09,-0.398,-0.5,0.904,270.32,0.808,-0.096,2.757,0,0,-0.0731,1,1,26.46,LANDED
143.98,ROLLOUT,ILS_TRACK,54.46,76,21.54,1.66,0.09,-0.24,-0.37,271.66,-2.43,0,16.624,270.4,-0.398,0.5,0.29,0.332,-0.02,-0.09,-0.398,-0.5,0.904,270.31,0.81,-0.108,1.607,0,0,0.2801,1,1,26.64,LANDED
144.18,ROLLOUT,ILS_TRACK,54.36,76,21.64,1.66,0.18,-0.48,-0.67,270.28,-3.473,0,16.624,270.4,-0.398,0.5,0.29,0.332,-0.02,-0.09,-0.398,-0.5,0.904,270.31,0.812,-0.116,0.26,0,0,0.4347,1,1,26.84,LANDED
144.36,ROLLOUT,ILS_TRACK,54.26,76,21.74,1.67,0.41,-0.91,-1.33,268.94,-3.574,0,16.624,270.4,-0.398,0.5,0.29,0.332,-0.02,-0.09,-0.398,-0.5,0.904,270.3,0.814,-0.119,-1.064,0,0,0.4543,1,1,27.02,LANDED
144.54,ROLLOUT,ILS_TRACK,54.16,76,21.84,1.66,0.15,-1.53,-1.69,267.69,-3.808,0,16.624,270.4,-0.398,0.5,0.29,0.332,-0.02,-0.09,-0.398,-0.5,0.904,270.31,0.816,-0.116,-2.351,0,0,0.4789,1,1,27.2,LANDED
144.72,ROLLOUT,ILS_TRACK,54.07,76,21.93,1.65,0.14,-1.72,-1.92,266.58,-4.314,0,16.624,270.4,-0.398,0.5,0.29,0.332,-0.02,-0.09,-0.398,-0.5,0.904,270.31,0.818,-0.109,-3.487,0,0,0.5426,1,1,27.38,LANDED
144.9,ROLLOUT,ILS_TRACK,53.98,76,22.02,1.66,0.13,-1.72,-1.91,265.61,-4.839,0,16.624,270.4,-0.398,0.5,0.29,0.332,-0.02,-0.09,-0.398,-0.5,0.904,270.32,0.82,-0.098,-4.521,0,0,0.613,1,1,27.56,LANDED
145.08,ROLLOUT,ILS_TRACK,53.89,76,22.11,1.65,0.04,-1.85,-1.85,265.2,-5.051,0,16.624,270.4,-0.398,0.5,0.29,0.332,-0.02,-0.09,-0.398,-0.5,0.904,270.33,0.821,-0.083,-5.113,0,0,0.6476,1,1,27.74,LANDED
145.28,ROLLOUT,ILS_TRACK,53.73,76,22.27,1.64,-0.02,-1.85,-1.86,265.68,-3.909,0,16.624,270.4,-0.398,0.5,0.29,0.332,-0.02,-0.09,-0.398,-0.5,0.904,270.35,0.824,-0.064,-4.836,0,0,0.5295,1,1,27.94,LANDED
145.46,ROLLOUT,ILS_TRACK,53.64,76,22.36,1.65,-0.2,-1.07,-0.92,266.74,-0.856,0,16.624,270.4,-0.398,0.5,0.29,0.332,-0.02,-0.09,-0.398,-0.5,0.904,270.36,0.826,-0.046,-3.903,0,0,0.1652,1,1,28.12,LANDED
145.64,ROLLOUT,ILS_TRACK,53.55,76,22.45,1.66,0.08,-0.29,-0.41,268.13,2.383,0,16.624,270.4,-0.398,0.5,0.29,0.332,-0.02,-0.09,-0.398,-0.5,0.904,270.38,0.828,-0.03,-2.569,0,0,-0.2745,1,1,28.3,LANDED
145.82,ROLLOUT,ILS_TRACK,53.45,76,22.55,1.66,0.12,-0.39,-0.52,269.62,3.656,0,16.624,270.4,-0.398,0.5,0.29,0.332,-0.02,-0.09,-0.398,-0.5,0.904,270.39,0.83,-0.018,-1.107,0,0,-0.4657,1,1,28.48,LANDED
146,ROLLOUT,ILS_TRACK,53.34,76,22.66,1.67,0.47,-0.89,-1.37,271.2,3.987,0,16.624,270.4,-0.398,0.5,0.29,0.332,-0.02,-0.09,-0.398,-0.5,0.904,270.39,0.832,-0.011,0.447,0,0,-0.5159,1,1,28.66,LANDED
146.18,ROLLOUT,ILS_TRACK,53.24,76,22.76,1.66,0.19,-1.7,-1.91,272.72,4.536,0,16.624,270.4,-0.398,0.5,0.29,0.332,-0.02,-0.09,-0.398,-0.5,0.904,270.39,0.834,-0.011,2.007,0,0,-0.581,1,1,28.84,LANDED
146.38,ROLLOUT,ILS_TRACK,53.13,76,22.87,1.65,0.18,-2.1,-2.37,274.31,5.616,0,16.624,270.4,-0.398,0.5,0.29,0.332,-0.02,-0.09,-0.398,-0.5,0.904,270.39,0.836,-0.017,3.61,0,0,-0.7196,1,1,29.04,LANDED
146.56,ROLLOUT,ILS_TRACK,53.04,76,22.96,1.65,0.2,-2.26,-2.56,275.61,6.725,0,16.624,270.4,-0.398,0.5,0.29,0.332,-0.02,-0.09,-0.398,-0.5,0.904,270.38,0.838,-0.027,4.966,0,0,-0.8666,1,1,29.22,LANDED
146.74,ROLLOUT,ILS_TRACK,52.94,76,23.06,1.65,0.19,-2.59,-2.85,276.63,7.839,0,16.624,270.4,-0.398,0.5,0.29,0.332,-0.02,-0.09,-0.398,-0.5,0.904,270.37,0.84,-0.041,6.071,0,0,-1,1,1,29.4,LANDED
146.92,ROLLOUT,ILS_TRACK,52.85,76,23.15,1.64,0.17,-3.04,-3.22,277.04,8.769,0,16.624,270.4,-0.398,0.5,0.29,0.332,-0.02,-0.09,-0.398,-0.5,0.904,270.35,0.842,-0.06,6.665,0,0,-1,1,1,29.58,LANDED
147.1,ROLLOUT,ILS_TRACK,52.76,76,23.24,1.61,0.05,-3.4,-3.48,276.69,8.447,0,16.624,270.4,-0.398,0.5,0.29,0.332,-0.02,-0.09,-0.398,-0.5,0.904,270.33,0.844,-0.081,6.508,0,0,-1,1,1,29.76,LANDED
147.28,ROLLOUT,ILS_TRACK,52.67,76,23.33,1.61,-0.11,-2.93,-2.88,275.51,6.3,0,16.624,270.4,-0.398,0.5,0.29,0.332,-0.02,-0.09,-0.398,-0.5,0.904,270.32,0.846,-0.102,5.519,0,0,-0.8819,1,1,29.94,LANDED
147.48,ROLLOUT,ILS_TRACK,52.56,76,23.44,1.63,-0.44,-1.31,-1.06,273.59,1.104,0,16.624,270.4,-0.398,0.5,0.29,0.332,-0.02,-0.09,-0.398,-0.5,0.904,270.3,0.848,-0.123,3.706,0,0,-0.2337,1,1,30.14,LANDED
147.66,ROLLOUT,ILS_TRACK,52.45,76,23.55,1.67,0.13,-0.07,-0.34,271.65,-3.405,0,16.624,270.4,-0.398,0.5,0.29,0.332,-0.02,-0.09,-0.398,-0.5,0.904,270.28,0.85,-0.139,1.799,0,0,0.413,1,1,30.32,LANDED
147.84,ROLLOUT,ILS_TRACK,52.32,76,23.68,1.7,0.57,-0.24,-0.81,269.96,-4.631,0,16.624,270.4,-0.398,0.5,0.29,0.332,-0.02,-0.09,-0.398,-0.5,0.904,270.27,0.852,-0.149,0.01,0,0,0.6143,1,1,30.5,LANDED
148.02,ROLLOUT,ILS_TRACK,52.2,76,23.8,1.68,0.27,-1.55,-1.78,268.85,-5.005,0,16.624,270.4,-0.398,0.5,0.29,0.332,-0.02,-0.09,-0.398,-0.5,0.904,270.27,0.855,-0.151,-1.223,0,0,0.6632,1,1,30.68,LANDED
148.2,ROLLOUT,ILS_TRACK,52.12,76,23.88,1.63,0.16,-2.51,-2.63,268.07,-5.808,0,16.624,270.4,-0.398,0.5,0.29,0.332,-0.02,-0.09,-0.398,-0.5,0.904,270.27,0.857,-0.148,-2.031,0,0,0.7688,1,1,30.86,LANDED
148.38,ROLLOUT,ILS_TRACK,52.04,76,23.96,1.62,0.14,-2.72,-2.92,267.19,-6.408,0,16.624,270.4,-0.398,0.5,0.29,0.332,-0.02,-0.09,-0.398,-0.5,0.904,270.28,0.859,-0.141,-2.885,0,0,0.8552,1,1,31.04,LANDED
148.58,ROLLOUT,ILS_TRACK,51.94,76,24.06,1.64,0.16,-2.66,-2.88,266.3,-7.114,0,16.624,270.4,-0.398,0.5,0.29,0.332,-0.02,-0.09,-0.398,-0.5,0.904,270.29,0.86,-0.131,-3.858,0,0,0.9537,1,1,31.24,LANDED
148.76,ROLLOUT,ILS_TRACK,51.86,76,24.14,1.63,0.12,-2.77,-2.91,266.13,-7.312,0,16.624,270.4,-0.398,0.5,0.29,0.332,-0.02,-0.09,-0.398,-0.5,0.904,270.3,0.862,-0.118,-4.196,0,0,0.9938,1,1,31.42,LANDED
148.94,ROLLOUT,ILS_TRACK,51.78,76,24.22,1.62,-0.01,-2.73,-2.75,266.71,-6.253,0,16.624,270.4,-0.398,0.5,0.29,0.332,-0.02,-0.09,-0.398,-0.5,0.904,270.31,0.864,-0.105,-3.794,0,0,0.8763,1,1,31.6,LANDED
149.12,ROLLOUT,ILS_TRACK,51.69,76,24.31,1.63,-0.22,-1.97,-1.84,267.9,-3.302,0,16.624,270.4,-0.398,0.5,0.29,0.332,-0.02,-0.09,-0.398,-0.5,0.904,270.32,0.865,-0.092,-2.727,0,0,0.5084,1,1,31.78,LANDED
149.3,ROLLOUT,ILS_TRACK,51.6,76,24.4,1.65,-0.15,-0.57,-0.53,269.43,1.313,0,16.624,270.4,-0.398,0.5,0.29,0.332,-0.02,-0.09,-0.398,-0.5,0.904,270.33,0.867,-0.081,-1.256,0,0,-0.1144,1,1,31.96,LANDED
149.48,ROLLOUT,ILS_TRACK,51.5,76,24.5,1.67,0.2,-0.16,-0.44,270.94,3.686,0,16.624,270.4,-0.398,0.5,0.29,0.332,-0.02,-0.09,-0.398,-0.5,0.904,270.34,0.869,-0.073,0.284,0,0,-0.4883,1,1,32.14,LANDED
149.68,ROLLOUT,ILS_TRACK,51.38,76,24.62,1.68,0.47,-0.75,-1.23,272.26,3.939,0,16.624,270.4,-0.398,0.5,0.29,0.332,-0.02,-0.09,-0.398,-0.5,0.904,270.34,0.871,-0.07,1.691,0,0,-0.543,1,1,32.34,LANDED
149.86,ROLLOUT,ILS_TRACK,51.3,76,24.7,1.65,0.15,-1.69,-1.82,273.05,4.012,0,16.624,270.4,-0.398,0.5,0.29,0.332,-0.02,-0.09,-0.398,-0.5,0.904,270.34,0.873,-0.074,2.564,0,0,-0.5473,1,1,32.52,LANDED
150.04,ROLLOUT,ILS_TRACK,51.22,76,24.78,1.68,0.11,-2.03,-2.16,273.54,4.166,0,16.624,270.4,-0.398,0.5,0.29,0.332,-0.02,-0.09,-0.398,-0.5,0.904,270.33,0.875,-0.082,3.141,0,0,-0.5778,1,1,32.7,LANDED
150.22,ROLLOUT,ILS_TRACK,51.13,76,24.87,2.26,-1.76,-3.01,-1.27,273.61,4.236,0,16.624,270.4,-0.398,0.5,0.29,0.332,-0.02,-0.09,-0.398,-0.5,0.904,270.32,0.876,-0.092,3.295,0,0,-0.5718,1,1,32.88,FLYING
150.4,ROLLOUT,ILS_TRACK,51.09,76,24.91,2.49,-3.75,-3.31,0.51,273.48,5.567,0,16.624,270.4,-0.398,0.5,0.29,0.332,-0.02,-0.09,-0.398,-0.5,0.904,270.31,0.878,-0.103,3.204,0,0,-0.7434,1,1,33.06,FLYING
150.58,ROLLOUT,ILS_TRACK,51.13,76,24.87,2.43,-5.38,-3.3,2.32,273.2,7.795,0,16.624,270.4,-0.398,0.5,0.29,0.332,-0.02,-0.09,-0.398,-0.5,0.904,270.3,0.878,-0.114,2.984,0,0,-1,1,1,33.24,FLYING
150.78,ROLLOUT,ILS_TRACK,51.22,76,24.78,2.05,-6.57,-3.36,4,272.65,11.147,0,16.624,270.4,-0.398,0.5,0.29,0.332,-0.02,-0.09,-0.398,-0.5,0.904,270.29,0.876,-0.126,2.485,0,0,-1,1,1,33.44,LANDED
150.96,ROLLOUT,ILS_TRACK,51.25,76,24.75,1.85,-4.03,-5.5,-0.84,272.34,8.742,0,16.624,270.4,-0.398,0.5,0.29,0.332,-0.02,-0.09,-0.398,-0.5,0.904,270.28,0.875,-0.136,2.154,0,0,-1,1,1,33.62,LANDED
151.14,ROLLOUT,ILS_TRACK,51.17,76,24.83,1.34,-3.88,-7.04,-3.68,271.29,5.847,0,16.624,270.4,-0.398,0.5,0.29,0.332,-0.02,-0.09,-0.398,-0.5,0.904,270.27,0.875,-0.145,1.525,0,0,-0.8489,1,1,33.8,LANDED
151.32,ROLLOUT,ILS_TRACK,49.95,76,26.05,1.99,0.35,4.44,3.08,267.47,-1.563,0,16.624,270.4,-0.398,0.5,0.29,0.332,-0.02,-0.09,-0.398,-0.5,0.904,270.27,0.889,-0.151,-2.019,0,0,0.1041,1,1,33.98,LANDED
151.5,ROLLOUT,ILS_TRACK,49.66,76,26.34,2.68,1.64,13.07,10.29,264.43,-5.252,0,16.624,270.4,-0.398,0.5,0.29,0.332,-0.02,-0.09,-0.398,-0.5,0.904,270.27,0.904,-0.15,-5.239,0.0117,0.0117,0.7512,1,1,34.16,LANDED
151.68,ROLLOUT,ILS_TRACK,49.27,76,26.73,3.23,1.29,17.6,15.06,262.37,-10.404,0,16.624,270.4,-0.398,0.5,0.29,0.332,-0.02,-0.09,-0.398,-0.5,0.904,270.28,0.911,-0.137,-7.47,0.0403,0.0403,1,1,1,34.34,FLYING
151.88,ROLLOUT,ILS_TRACK,48.79,76,27.21,3.65,1.52,19.36,15.44,260.33,-15.34,0,16.624,270.4,-0.398,0.5,0.29,0.332,-0.02,-0.09,-0.398,-0.5,0.904,270.29,0.92,-0.12,-9.595,0.0974,0.0974,1,1,1,34.54,FLYING
152.06,ROLLOUT,ILS_TRACK,48.35,76,27.65,3.95,1.46,19.44,14.34,259.09,-18.938,0,16.624,270.4,-0.398,0.5,0.29,0.332,-0.02,-0.09,-0.398,-0.5,0.904,270.3,0.929,-0.106,-11.013,0.1598,0.1598,1,1,1,34.72,FLYING
152.24,ROLLOUT,ILS_TRACK,47.93,76,28.07,4.17,1.12,19,13.2,258.88,-22.243,0,16.624,270.4,-0.398,0.5,0.29,0.332,-0.02,-0.09,-0.398,-0.5,0.904,270.31,0.938,-0.093,-11.496,0.2167,0.2167,1,1,1,34.9,FLYING
152.42,ROLLOUT,ILS_TRACK,47.54,76,28.46,4.32,0.62,18.54,12.71,260.01,-25.502,0,16.624,270.4,-0.398,0.5,0.29,0.332,-0.02,-0.09,-0.398,-0.5,0.904,270.32,0.946,-0.082,-10.689,0.2449,0.2449,1,1,1,35.08,FLYING
152.6,ROLLOUT,ILS_TRACK,47.17,76,28.83,4.38,0.07,18.14,12.99,262.53,-28.877,0,16.624,270.4,-0.398,0.5,0.29,0.332,-0.02,-0.09,-0.398,-0.5,0.904,270.33,0.953,-0.072,-8.475,0.226,0.226,1,1,1,35.26,FLYING
152.78,ROLLOUT,ILS_TRACK,46.83,76,29.17,4.34,-0.45,17.71,13.93,266.24,-32.46,0,16.624,270.4,-0.398,0.5,0.29,0.332,-0.02,-0.09,-0.398,-0.5,0.904,270.34,0.96,-0.063,-5.008,0.1511,0.1511,1,1,1,35.44,FLYING
152.98,ROLLOUT,ILS_TRACK,46.47,76,29.53,4.18,-0.97,17.02,15.42,271.3,-36.76,0,16.624,270.4,-0.398,0.5,0.29,0.332,-0.02,-0.09,-0.398,-0.5,0.904,270.35,0.968,-0.056,-0.119,0.004,0.004,1,1,1,35.64,FLYING
153.16,ROLLOUT,ILS_TRACK,46.08,76,29.92,3.94,-1.05,15.26,17.19,277.07,-37.288,0,16.624,270.4,-0.398,0.5,0.29,0.332,-0.02,-0.09,-0.398,-0.5,0.904,270.36,0.975,-0.043,5.435,-0.2035,-0.2035,1,1,1,35.82,FLYING
153.34,ROLLOUT,ILS_TRACK,45.78,76,30.22,3.5,-1.74,12.02,17.63,281.6,-40.418,0,16.624,270.4,-0.398,0.5,0.29,0.332,-0.02,-0.09,-0.398,-0.5,0.904,270.36,0.982,-0.042,10.442,-0.4287,-0.4287,1,1,1,36,FLYING
153.52,ROLLOUT,ILS_TRACK,45.54,76,30.46,2.81,-2.66,7.09,15.96,284.05,-46.295,0,16.624,270.4,-0.398,0.5,0.29,0.332,-0.02,-0.09,-0.398,-0.5,0.904,270.36,0.987,-0.044,13.338,-0.5815,-0.5815,1,1,1,36.18,LANDED
153.7,ROLLOUT,ILS_TRACK,44.82,76,31.18,2.23,-0.97,-1.39,2.5,280.95,-36.095,0,16.624,270.4,-0.398,0.5,0.29,0.332,-0.02,-0.09,-0.398,-0.5,0.904,270.35,0.993,-0.053,11.732,-0.5469,-0.5469,1,1,1,36.36,LANDED
153.88,ROLLOUT,ILS_TRACK,44.24,76,31.76,1.5,-2.6,-9.51,-5.39,276.39,-16.47,0,16.624,270.4,-0.398,0.5,0.29,0.332,-0.02,-0.09,-0.398,-0.5,0.904,270.33,1,-0.074,6.942,-0.3471,-0.3471,1,1,1,36.54,LANDED
154.1,ROLLOUT,ILS_TRACK,41.69,76,34.31,1.65,-0.5,-8.65,-8.83,271.89,6.284,0,16.624,270.4,-0.398,0.5,0.29,0.332,-0.02,-0.09,-0.398,-0.5,0.904,270.3,1,-0.1,3.109,-0.1555,-0.1555,-1,1,1,36.76,LANDED
154.28,ROLLOUT,ILS_TRACK,39.96,76,36.04,1.55,-2.08,-7.95,-1.58,259.94,17.463,0,16.624,270.4,-0.398,0.5,0.29,0.332,-0.02,-0.09,-0.398,-0.5,0.904,270.29,1,-0.114,-7.22,0.361,0.2945,-1,1,1,36.94,LANDED
154.46,ROLLOUT,ILS_TRACK,39.29,76,36.71,1.55,0.49,-5.94,0.61,244.39,20.001,0,16.624,270.4,-0.398,0.5,0.29,0.332,-0.02,-0.09,-0.398,-0.5,0.904,270.28,1,-0.119,-22.508,1.1254,0.7445,-1,1,1,37.12,LANDED
154.64,ROLLOUT,ILS_TRACK,37.56,76,38.44,1.66,-0.19,-1.63,2.86,229.6,8.345,0,16.624,270.4,-0.398,0.5,0.29,0.332,-0.02,-0.09,-0.398,-0.5,0.904,270.29,1,-0.108,-37.443,1.8722,1,-1,1,1,37.3,LANDED
154.82,ROLLOUT,ILS_TRACK,35.6,76,40.4,1.82,1.07,2.17,-2.71,216.72,-3.46,0,16.624,270.4,-0.398,0.5,0.29,0.332,-0.02,-0.09,-0.398,-0.5,0.904,270.31,1,-0.086,-51.125,0,0.7445,0.4924,1,1,37.48,LANDED
155,ROLLOUT,ILS_TRACK,31.85,76,44.15,2.14,1.19,4.58,-1.92,208.94,-4.939,0,16.624,270.4,-0.398,0.5,0.29,0.332,-0.02,-0.09,-0.398,-0.5,0.904,270.35,1,-0.05,-60.122,0,0.2945,0.7585,1,1,37.66,LANDED
155.2,ROLLOUT,ILS_TRACK,28.25,76,47.75,2.4,0.74,6.88,-1.38,205.23,-9.206,0,16.624,270.4,-0.398,0.5,0.29,0.332,-0.02,-0.09,-0.398,-0.5,0.904,270.4,1,0.002,-64.74,0,0,1,1,1,37.86,LANDED
155.38,ROLLOUT,ILS_TRACK,25.97,76,50.03,2.57,1,8.15,-2.18,205.13,-14.597,0,16.624,270.4,-0.398,0.5,0.29,0.332,-0.02,-0.09,-0.398,-0.5,0.904,270.45,1,0.054,-65.567,0,0,1,1,1,38.04,LANDED
155.56,ROLLOUT,ILS_TRACK,23.7,76,52.3,2.71,1.31,8.34,-1.92,208.15,-24.087,0,16.624,270.4,-0.398,0.5,0.29,0.332,-0.02,-0.09,-0.398,-0.5,0.904,270.51,1,0.112,-63.327,0,0,1,1,1,38.22,LANDED
155.74,ROLLOUT,ILS_TRACK,22.01,76,53.99,2.72,0.68,6.7,2.22,214.32,-41.991,0,16.624,270.4,-0.398,0.5,0.29,0.332,-0.02,-0.09,-0.398,-0.5,0.904,270.58,1,0.176,-57.778,0,0,1,1,1,38.4,LANDED
155.92,ROLLOUT,ILS_TRACK,21.4,76,54.6,2.34,-1.46,2.83,7.61,220.98,-64.654,0,16.624,270.4,-0.398,0.5,0.29,0.332,-0.02,-0.09,-0.398,-0.5,0.904,270.64,1,0.242,-51.101,0,0,1,1,1,38.58,FLYING
156.1,ROLLOUT,ILS_TRACK,21.22,76,54.78,1.81,-2.03,-2.54,11.72,227.39,-80.038,0,16.624,270.4,-0.398,0.5,0.29,0.332,-0.02,-0.09,-0.398,-0.5,0.904,270.71,1,0.308,-44.727,2.2364,0.45,1,1,1,38.76,FLYING
156.32,ROLLOUT,ILS_TRACK,20.68,76,55.32,0.95,0.18,-12.66,19.84,233.96,-76.182,0,16.624,270.4,-0.398,0.5,0.29,0.332,-0.02,-0.09,-0.398,-0.5,0.904,270.79,1,0.387,-37.781,1.889,1,1,1,1,38.98,FLYING
156.5,ROLLOUT,ILS_TRACK,16.13,76,59.87,1.17,3.43,-19.28,36.24,239.67,-61.492,0,16.624,270.4,-0.398,0.5,0.29,0.332,-0.02,-0.09,-0.398,-0.5,0.904,270.84,1,0.44,-31.36,1.568,1,1,1,1,39.16,FLYING
156.68,ROLLOUT,ILS_TRACK,13.32,76,62.68,1.46,1.59,-24.2,42.9,246.92,-49.259,0,16.624,270.4,-0.398,0.5,0.29,0.332,-0.02,-0.09,-0.398,-0.5,0.904,270.88,1,0.481,-25.432,1.2716,1,1,1,1,39.34,FLYING
156.86,ROLLOUT,ILS_TRACK,12.92,76,63.08,1.49,-0.23,-29.11,43.73,252.43,-36.073,0,16.624,270.4,-0.398,0.5,0.29,0.332,-0.02,-0.09,-0.398,-0.5,0.904,270.92,1,0.521,-19.551,0.9775,0.9775,1,1,1,39.52,FLYING
157.04,ROLLOUT,ILS_TRACK,12.62,76,63.38,1.39,0.3,-33.63,48.62,260.11,-23.652,0,16.624,270.4,-0.398,0.5,0.29,0.332,-0.02,-0.09,-0.398,-0.5,0.904,270.96,1,0.56,-13.36,0.668,0.668,1,1,1,39.7,LANDED
157.22,ROLLOUT,ILS_TRACK,9.88,76,66.12,1.5,-0.63,-33.09,44.12,267.3,-12.697,0,16.624,270.4,-0.398,0.5,0.29,0.332,-0.02,-0.09,-0.398,-0.5,0.904,270.99,1,0.593,-5.864,0.2932,0.2932,1,1,1,39.88,FLYING
157.44,ROLLOUT,ILS_TRACK,8.83,76,67.17,1.42,-1.12,-33.93,0.86,282.14,-1.119,0,16.624,270.4,-0.398,0.5,0.29,0.332,-0.02,-0.09,-0.398,-0.5,0.904,271.03,1,0.629,8.218,-0.4109,-0.2568,0.179,1,1,40.1,LANDED
157.62,ROLLOUT,ILS_TRACK,7.35,76,68.65,1.36,-1.33,-31.74,-62.49,296.42,7.457,0,16.624,270.4,-0.398,0.5,0.29,0.332,-0.02,-0.09,-0.398,-0.5,0.904,271.06,1,0.656,22.155,-1.1077,-0.7068,-1,1,1,40.28,LANDED
157.8,ROLLOUT,ILS_TRACK,7.37,76,68.63,1.28,-1.89,-27.61,-55.1,312.07,11.208,0,16.624,270.4,-0.398,0.5,0.29,0.332,-0.02,-0.09,-0.398,-0.5,0.904,271.08,1,0.684,37.379,-1.869,-1,-1,1,1,40.46,FLYING
157.98,ROLLOUT,ILS_TRACK,7.36,76,68.64,1.08,-3.18,-22.66,-53.75,326.54,7.029,0,16.624,270.4,-0.398,0.5,0.29,0.332,-0.02,-0.09,-0.398,-0.5,0.904,271.11,1,0.71,52.63,0,-0.7068,-1,1,1,40.64,LANDED
158.16,ROLLOUT,ILS_TRACK,7.38,76,68.62,1,-3.11,-12.29,-42,338.42,0.268,0,16.624,270.4,-0.398,0.5,0.29,0.332,-0.02,-0.09,-0.398,-0.5,0.904,271.14,1,0.736,64.927,0,-0.2568,-0.3239,1,1,40.82,LANDED
158.34,ROLLOUT,ILS_TRACK,4.89,76,71.11,0.98,0.36,-9.98,5.95,344.56,-11.327,0,16.624,270.4,-0.398,0.5,0.29,0.332,-0.02,-0.09,-0.398,-0.5,0.904,271.16,1,0.755,72.238,0,0,1,1,1,41,LANDED
158.54,ROLLOUT,ILS_TRACK,3.19,76,72.81,0.93,0.15,-9.47,30.26,348.02,-21.986,0,16.624,270.4,-0.398,0.5,0.29,0.332,-0.02,-0.09,-0.398,-0.5,0.904,271.17,1,0.768,76.312,0,0,1,1,1,41.2,LANDED
158.72,DONE,ILS_TRACK,1.78,76,74.22,0.85,0.01,-8.73,82.75,350.09,-33.031,0,16.624,270.4,-0.398,0.5,0.29,0.332,-0.02,-0.09,-0.398,-0.5,0.904,271.17,1,0.772,78.528,0,0,0,1,1,0.04,LANDED
# end T+158.8  IAS 1.4 m/s
