t_s,phase,subphase,ias_ms,vapp_ms,spd_err_ms,agl_m,vs_ms,pitch_deg,aoa_deg,hdg_deg,bank_deg,thr_cmd,thr_cur,thr_intg,at_gain,at_tau_s,at_a_up,at_a_dn,at_kp_thr,at_ki_spd,at_thr_slew,as_cmd_deg,as_cap_deg,as_raw_deg,as_spd_err_ms,as_active,aa_hdg_cmd_deg,aa_fpa_cmd_deg,aa_fbw,aa_dir,actual_fpa_deg,ftf_hdg_err_deg,ftf_fix_idx,kos_steer_pit_deg,kos_steer_hdg_deg,aa_dir_vx,aa_dir_vy,aa_dir_vz,aa_dir_pitch_deg,aa_dir_hdg_deg,ils_loc_m,ils_gs_m,ils_dist_km,loc_corr_deg,gs_corr_deg,gs_latched,active_gs_ang_deg,ils_intercept_alt_m,d_gs_ms,fpa_preclamped_deg,gs_nom_alt_m,flare_fpa_cmd,flare_tgt_vs,flare_frac,steer_hdg_deg,steer_blend,ro_loc_corr_deg,ro_hdg_err_deg,ro_yaw_tgt,ro_yaw_scale,ro_yaw_gate,yaw_cmd,roll_cmd,pitch_cmd,ro_pitch_tgt_deg,ro_pitch_err_deg,ro_pitch_ff,ro_roll_assist,flaps_cur,flaps_tgt,asc_j_ab,asc_j_rk,asc_validity,asc_q_pa,asc_q_raw_pa,asc_mach,asc_apo_m,asc_drag_n,asc_w_prop,asc_edot_aero,asc_edot_orb,asc_pitch_bias,asc_blend,asc_spooling,asc_ab_thr_ratio,asc_ab_t_now,asc_ab_t_avail,asc_ab_ign_on,asc_ab_flameouts,asc_rk_t_now,asc_rk_t_avail,asc_rk_ign_on,asc_rk_flameouts,ship_thrust,ship_avail_thrust,ship_ign_on,ship_flameouts,ifc_raw_dt_s,ifc_dt_s,ifc_loop_n,ifc_hz_est,ifc_raw_dt_max_s,ifc_raw_dt_min_s,phase_el_s,status,craft_name,cfg_file
1.9,TAKEOFF,TO_PREFLIGHT,0.33,80,79.67,3.82,0.16,4,-16.06,90.19,0.091,0.056,0,0,0,0,0,0,0,0,0,0,0,0,0,0,90,0,1,0,6.57,0,0,0,90,0,0,0,0,0,0,0,0,0,0,0,3,0,0,0,69,0,0,0,90,1,0,0.193,0,0,1,0,0,0,0,0,0,0,0,2,0,0,VALID,0,0,0,0,0,1,0,0,0,0,0,0,0,0,0,0,0,0,0,0,0,875.3,2,0,0.14,0.14,1,0.5,0.14,0.02,1.76,LANDED,X10-F,0:/Integrated Flight Computer/aircraft/x10_f_cfg.ks (inferred preloaded)
2.16,TAKEOFF,TO_PREFLIGHT,0.35,80,79.65,4.08,-0.04,1.25,0.41,90.18,0.101,0.328,0,0,0,0,0,0,0,0,0,0,0,0,0,0,90,0,1,0,-2.32,0,0,0,90,0,0,0,0,0,0,0,0,0,0,0,3,0,0,0,69,0,0,0,90,1,0,0.193,0,0,1,0,0,0,0,0,0,0,1,2,0,0,VALID,0,0,0,0,0,1,0,0,0,0,0,0,0,0,0,0,0,0,0,0,7.4,875.29,2,0,0.04,0.04,6,19.23,1.84,0.04,2.02,LANDED,X10-F,0:/Integrated Flight Computer/aircraft/x10_f_cfg.ks (inferred preloaded)
2.42,TAKEOFF,TO_PREFLIGHT,0.26,80,79.74,4.24,-0.06,1.9,30.68,90.19,0.097,0.432,0,0,0,0,0,0,0,0,0,0,0,0,0,0,90,0,1,0,-3.22,0,0,0,90,0,0,0,0,0,0,0,0,0,0,0,3,0,0,0,69,0,0,0,90,1,0,0.193,0,0,1,0,0,0,0,0,0,0,2,2,0,0,VALID,0,0,0,0,0,1,0,0,0,0,0,0,0,0,0,0,0,0,0,0,22.66,875.3,2,0,0.06,0.06,10,15.38,0.08,0.04,2.28,LANDED,X10-F,0:/Integrated Flight Computer/aircraft/x10_f_cfg.ks (inferred preloaded)
2.68,TAKEOFF,TO_PREFLIGHT,0.07,80,79.93,4.35,0.06,2.24,-45.33,90.19,0.098,0.536,0,0,0,0,0,0,0,0,0,0,0,0,0,0,90,0,1,0,3.29,0,0,0,90,0,0,0,0,0,0,0,0,0,0,0,3,0,0,0,69,0,0,0,90,1,0,0.193,0,0,1,0,0,0,0,0,0,0,2,2,0,0,VALID,0,0,0,0,0,1,0,0,0,0,0,0,0,0,0,0,0,0,0,0,41.71,875.3,2,0,0.06,0.06,14,15.38,0.08,0.04,2.54,LANDED,X10-F,0:/Integrated Flight Computer/aircraft/x10_f_cfg.ks (inferred preloaded)
2.94,TAKEOFF,TO_PREFLIGHT,0.04,80,79.96,4.38,-0.05,2.34,65.66,90.19,0.101,0.64,0,0,0,0,0,0,0,0,0,0,0,0,0,0,90,0,1,0,-3.13,0,0,0,90,0,0,0,0,0,0,0,0,0,0,0,3,0,0,0,69,0,0,0,90,1,0,0.193,0,0,1,0,0,0,0,0,0,0,2,2,0,0,VALID,0,0,0,0,0,1,0,0,0,0,0,0,0,0,0,0,0,0,0,0,64.42,875.3,2,0,0.06,0.06,18,15.38,0.08,0.04,2.8,LANDED,X10-F,0:/Integrated Flight Computer/aircraft/x10_f_cfg.ks (inferred preloaded)
3.2,TAKEOFF,TO_PREFLIGHT,0.06,80,79.94,4.35,0.04,2.26,-25.86,90.19,0.099,0.744,0,0,0,0,0,0,0,0,0,0,0,0,0,0,90,0,1,0,2.38,0,0,0,90,0,0,0,0,0,0,0,0,0,0,0,3,0,0,0,69,0,0,0,90,1,0,0.193,0,0,1,0,0,0,0,0,0,0,2,2,0,0,VALID,0,0,0,0,0,1,0,0,0,0,0,0,0,0,0,0,0,0,0,0,90.59,875.3,2,0,0.06,0.06,22,15.38,0.08,0.04,3.06,LANDED,X10-F,0:/Integrated Flight Computer/aircraft/x10_f_cfg.ks (inferred preloaded)
3.46,TAKEOFF,TO_PREFLIGHT,0.13,80,79.87,4.26,-0.01,1.92,5.96,90.18,0.099,0.848,0,0,0,0,0,0,0,0,0,0,0,0,0,0,90,0,1,0,-0.75,0,0,0,90,0,0,0,0,0,0,0,0,0,0,0,3,0,0,0,69,0,0,0,90,1,0,0.193,0,0,1,0,0,0,0,0,0,0,2,2,0,0,VALID,0,0,0,0,0,1,0,0,0,0,0,0,0,0,0,0,0,0,0,0,120.06,875.29,2,0,0.06,0.06,26,15.38,0.08,0.04,3.32,LANDED,X10-F,0:/Integrated Flight Computer/aircraft/x10_f_cfg.ks (inferred preloaded)
3.72,TAKEOFF,TO_PREFLIGHT,0.2,80,79.8,4.08,0.02,1.32,-3.11,90.18,0.101,0.952,0,0,0,0,0,0,0,0,0,0,0,0,0,0,90,0,1,0,1.24,0,0,0,90,0,0,0,0,0,0,0,0,0,0,0,3,0,0,0,69,0,0,0,90,1,0,0.193,0,0,1,0,0,0,0,0,0,0,2,2,0,0,VALID,0,0,0,0,0,1,0,0,0,0,0,0,0,0,0,0,0,0,0,0,152.65,875.29,2,0,0.06,0.06,30,15.38,0.08,0.04,3.58,LANDED,X10-F,0:/Integrated Flight Computer/aircraft/x10_f_cfg.ks (inferred preloaded)
3.98,TAKEOFF,TO_PREFLIGHT,0.28,80,79.72,3.84,0.01,0.45,-1.67,90.17,0.103,1,0,0,0,0,0,0,0,0,0,0,0,0,0,0,90,0,1,0,0.56,0,0,0,90,0,0,0,0,0,0,0,0,0,0,0,3,0,0,0,69,0,0,0,90,1,0,0.193,0,0,1,0,0,0,0,0,0,0,2,2,0,0,VALID,0,0,0,0,0,1,0,0,0,0,0,0,0,0,0,0,0,0,0,0,188.1,875.29,2,0,0.06,0.06,34,15.38,0.08,0.04,3.84,LANDED,X10-F,0:/Integrated Flight Computer/aircraft/x10_f_cfg.ks (inferred preloaded)
4.24,TAKEOFF,TO_PREFLIGHT,0.34,80,79.66,3.55,0.01,-0.54,-0.99,90.17,0.104,1,0,0,0,0,0,0,0,0,0,0,0,0,0,0,90,0,1,0,0.72,0,0,0,90,0,0,0,0,0,0,0,0,0,0,0,3,0,0,0,69,0,0,0,90,1,0,0.193,0,0,1,0,0,0,0,0,0,0,2,2,0,0,VALID,0,0,0,0,0,1,0,0,0,0,0,0,0,0,0,0,0,0,0,0,222.99,875.29,2,0,0.06,0.06,38,15.38,0.08,0.04,4.1,LANDED,X10-F,0:/Integrated Flight Computer/aircraft/x10_f_cfg.ks (inferred preloaded)
4.5,TAKEOFF,TO_PREFLIGHT,0.15,80,79.85,3.61,-0.11,-0.36,87.05,90.17,0.099,1,0,0,0,0,0,0,0,0,0,0,0,0,0,0,90,0,1,0,-6.11,0,0,0,90,0,0,0,0,0,0,0,0,0,0,0,3,0,0,0,69,0,0,0,90,1,0,0.193,0,0,1,0,0,0,0,0,0,0,2,2,0,0,VALID,0,0,0,0,0,1,0,0,0,0,0,0,0,0,0,0,0,0,0,0,256.11,875.29,2,0,0.06,0.06,42,15.38,0.08,0.04,4.36,LANDED,X10-F,0:/Integrated Flight Computer/aircraft/x10_f_cfg.ks (inferred preloaded)
4.76,TAKEOFF,TO_PREFLIGHT,0.19,80,79.81,3.65,-0.09,-0.04,65.23,90.17,0.107,1,0,0,0,0,0,0,0,0,0,0,0,0,0,0,90,0,1,0,-5.24,0,0,0,90,0,0,0,0,0,0,0,0,0,0,0,3,0,0,0,69,0,0,0,90,1,0,0.193,0,0,1,0,0,0,0,0,0,0,2,2,0,0,VALID,0,0,0,0,0,1,0,0,0,0,0,0,0,0,0,0,0,0,0,0,287.54,875.29,2,0,0.06,0.06,46,15.38,0.08,0.04,4.62,LANDED,X10-F,0:/Integrated Flight Computer/aircraft/x10_f_cfg.ks (inferred preloaded)
5.02,TAKEOFF,TO_PREFLIGHT,0.15,80,79.85,3.65,0.12,-0.1,-36.85,90.18,0.104,1,0,0,0,0,0,0,0,0,0,0,0,0,0,0,90,0,1,0,6.82,0,0,0,90,0,0,0,0,0,0,0,0,0,0,0,3,0,0,0,69,0,0,0,90,1,0,0.193,0,0,1,0,0,0,0,0,0,0,2,2,0,0,VALID,0,0,0,0,0,1,0,0,0,0,0,0,0,0,0,0,0,0,0,0,317.38,875.29,2,0,0.06,0.06,50,15.38,0.08,0.04,4.88,LANDED,X10-F,0:/Integrated Flight Computer/aircraft/x10_f_cfg.ks (inferred preloaded)
5.28,TAKEOFF,TO_PREFLIGHT,0.25,80,79.75,3.58,0.03,-0.4,-7.46,90.19,0.102,1,0,0,0,0,0,0,0,0,0,0,0,0,0,0,90,0,1,0,1.99,0,0,0,90,0,0,0,0,0,0,0,0,0,0,0,3,0,0,0,69,0,0,0,90,1,0,0.193,0,0,1,0,0,0,0,0,0,0,2,2,0,0,VALID,0,0,0,0,0,1,0,0,0,0,0,0,0,0,0,0,0,0,0,0,345.71,875.29,2,0,0.06,0.06,54,15.38,0.08,0.04,5.14,LANDED,X10-F,0:/Integrated Flight Computer/aircraft/x10_f_cfg.ks (inferred preloaded)
5.54,TAKEOFF,TO_PREFLIGHT,0.17,80,79.83,3.6,-0.06,-0.34,19.65,90.19,0.1,1,0,0,0,0,0,0,0,0,0,0,0,0,0,0,90,0,1,0,-3.3,0,0,0,90,0,0,0,0,0,0,0,0,0,0,0,3,0,0,0,69,0,0,0,90,1,0,0.193,0,0,1,0,0,0,0,0,0,0,2,2,0,0,VALID,0,0,0,0,0,1,0,0,0,0,0,0,0,0,0,0,0,0,0,0,372.59,875.29,2,0,0.06,0.06,58,15.38,0.08,0.04,5.4,LANDED,X10-F,0:/Integrated Flight Computer/aircraft/x10_f_cfg.ks (inferred preloaded)
5.8,TAKEOFF,TO_PREFLIGHT,0.14,80,79.86,3.62,-0.01,-0.23,7.72,90.19,0.108,1,0,0,0,0,0,0,0,0,0,0,0,0,0,0,90,0,1,0,-0.76,0,0,0,90,0,0,0,0,0,0,0,0,0,0,0,3,0,0,0,69,0,0,0,90,1,0,0.193,0,0,1,0,0,0,0,0,0,0,2,2,0,0,VALID,0,0,0,0,0,1,0,0,0,0,0,0,0,0,0,0,0,0,0,0,398.12,875.29,2,0,0.06,0.06,62,15.38,0.08,0.04,5.66,LANDED,X10-F,0:/Integrated Flight Computer/aircraft/x10_f_cfg.ks (inferred preloaded)
6.06,TAKEOFF,TO_PREFLIGHT,0.19,80,79.81,3.61,0.04,-0.29,-9.38,90.19,0.104,1,0,0,0,0,0,0,0,0,0,0,0,0,0,0,90,0,1,0,2.08,0,0,0,90,0,0,0,0,0,0,0,0,0,0,0,3,0,0,0,69,0,0,0,90,1,0,0.193,0,0,1,0,0,0,0,0,0,0,2,2,0,0,VALID,0,0,0,0,0,1,0,0,0,0,0,0,0,0,0,0,0,0,0,0,422.34,875.29,2,0,0.06,0.06,66,15.38,0.08,0.04,5.92,LANDED,X10-F,0:/Integrated Flight Computer/aircraft/x10_f_cfg.ks (inferred preloaded)
6.32,TAKEOFF,TO_PREFLIGHT,0.24,80,79.76,3.59,0.01,-0.37,-2.73,90.19,0.099,1,0,0,0,0,0,0,0,0,0,0,0,0,0,0,90,0,1,0,0.39,0,0,0,90,0,0,0,0,0,0,0,0,0,0,0,3,0,0,0,69,0,0,0,90,1,0,0.193,0,0,1,0,0,0,0,0,0,0,2,2,0,0,VALID,0,0,0,0,0,1,0,0,0,0,0,0,0,0,0,0,0,0,0,0,445.34,875.29,2,0,0.06,0.06,70,15.38,0.08,0.04,6.18,LANDED,X10-F,0:/Integrated Flight Computer/aircraft/x10_f_cfg.ks (inferred preloaded)
6.58,TAKEOFF,TO_PREFLIGHT,0.3,80,79.7,3.6,-0.03,-0.33,4.27,90.19,0.103,1,0,0,0,0,0,0,0,0,0,0,0,0,0,0,90,0,1,0,-1.66,0,0,0,90,0,0,0,0,0,0,0,0,0,0,0,3,0,0,0,69,0,0,0,90,1,0,0.193,0,0,1,0,0,0,0,0,0,0,2,2,0,0,VALID,0,0,0,0,0,1,0,0,0,0,0,0,0,0,0,0,0,0,0,0,467.16,875.28,2,0,0.06,0.06,74,15.38,0.08,0.04,6.44,LANDED,X10-F,0:/Integrated Flight Computer/aircraft/x10_f_cfg.ks (inferred preloaded)
6.84,TAKEOFF,TO_PREFLIGHT,0.42,80,79.58,3.6,0,-0.29,0.57,90.18,0.105,1,0,0,0,0,0,0,0,0,0,0,0,0,0,0,90,0,1,0,-0.28,0,0,0,90,0,0,0,0,0,0,0,0,0,0,0,3,0,0,0,69,0,0,0,90,1,0,0.193,0,0,1,0,0,0,0,0,0,0,2,2,0,0,VALID,0,0,0,0,0,1,0,0,0,0,0,0,0,0,0,0,0,0,0,0,487.88,875.28,2,0,0.06,0.06,78,15.38,0.08,0.04,6.7,LANDED,X10-F,0:/Integrated Flight Computer/aircraft/x10_f_cfg.ks (inferred preloaded)
7.1,TAKEOFF,TO_PREFLIGHT,0.58,80,79.42,3.59,0.02,-0.34,-1.89,90.17,0.103,1,0,0,0,0,0,0,0,0,0,0,0,0,0,0,90,0,1,0,1,0,0,0,90,0,0,0,0,0,0,0,0,0,0,0,3,0,0,0,69,0,0,0,90,1,0,0.193,0,0,1,0,0,0,0,0,0,0,2,2,0,0,VALID,0,0,0,0,0,1,0,0,0,0,0,0,0,0,0,0,0,0,0,0,507.55,875.28,2,0,0.06,0.06,82,15.38,0.08,0.04,6.96,LANDED,X10-F,0:/Integrated Flight Computer/aircraft/x10_f_cfg.ks (inferred preloaded)
7.36,TAKEOFF,TO_PREFLIGHT,0.77,80,79.23,3.59,-0.01,-0.36,0.22,90.17,0.102,1,0,0,0,0,0,0,0,0,0,0,0,0,0,0,90,0,1,0,-0.61,0,0,0,90,0,0,0,0,0,0,0,0,0,0,0,3,0,0,0,69,0,0,0,90,1,0,0.193,0,0,1,0,0,0,0,0,0,0,2,2,0,0,VALID,0,0,0,0,0,1,0,0,0,0,0,0,0,0,0,0,0,0,0,0,526.22,875.28,2,0,0.06,0.06,86,15.38,0.08,0.04,7.22,LANDED,X10-F,0:/Integrated Flight Computer/aircraft/x10_f_cfg.ks (inferred preloaded)
7.62,TAKEOFF,TO_PREFLIGHT,0.92,80,79.08,3.59,-0.01,-0.35,0.25,90.16,0.103,1,0,0,0,0,0,0,0,0,0,0,0,0,0,0,90,0,1,0,-0.54,0,0,0,90,0,0,0,0,0,0,0,0,0,0,0,3,0,0,0,69,0,0,0,90,1,0,0.193,0,0,1,0,0,0,0,0,0,0,2,2,0,0,VALID,0,0,0,0,0,1,0,0,0,0,0,0,0,0,0,0,0,0,0,0,543.94,875.28,2,0,0.06,0.06,90,15.38,0.08,0.04,7.48,LANDED,X10-F,0:/Integrated Flight Computer/aircraft/x10_f_cfg.ks (inferred preloaded)
7.88,TAKEOFF,TO_PREFLIGHT,1,80,79,3.59,0,-0.36,-0.46,90.16,0.103,1,0,0,0,0,0,0,0,0,0,0,0,0,0,0,90,0,1,0,0.14,0,0,0,90,0,0,0,0,0,0,0,0,0,0,0,3,0,0,0,69,0,0,0,90,1,0,0.193,0,0,1,0,0,0,0,0,0,0,2,2,0,0,VALID,0,0,0,0,0,1,0,0,0,0,0,0,0,0,0,0,0,0,0,0,560.76,875.28,2,0,0.06,0.06,94,15.38,0.08,0.04,7.74,LANDED,X10-F,0:/Integrated Flight Computer/aircraft/x10_f_cfg.ks (inferred preloaded)
8.14,TAKEOFF,TO_PREFLIGHT,1.06,80,78.94,3.58,0,-0.39,-0.33,90.16,0.103,1,0,0,0,0,0,0,0,0,0,0,0,0,0,0,90,0,1,0,-0.12,0,0,0,90,0,0,0,0,0,0,0,0,0,0,0,3,0,0,0,69,0,0,0,90,1,0,0.193,0,0,1,0,0,0,0,0,0,0,2,2,0,0,VALID,0,0,0,0,0,1,0,0,0,0,0,0,0,0,0,0,0,0,0,0,576.73,875.27,2,0,0.06,0.06,98,15.38,0.08,0.04,8,LANDED,X10-F,0:/Integrated Flight Computer/aircraft/x10_f_cfg.ks (inferred preloaded)
8.4,TAKEOFF,TO_PREFLIGHT,1.09,80,78.91,3.58,-0.01,-0.39,0.06,90.16,0.103,1,0,0,0,0,0,0,0,0,0,0,0,0,0,0,90,0,1,0,-0.48,0,0,0,90,0,0,0,0,0,0,0,0,0,0,0,3,0,0,0,69,0,0,0,90,1,0,0.193,0,0,1,0,0,0,0,0,0,0,2,2,0,0,VALID,0,0,0,0,0,1,0,0,0,0,0,0,0,0,0,0,0,0,0,0,591.88,875.27,2,0,0.06,0.06,102,15.38,0.08,0.04,8.26,LANDED,X10-F,0:/Integrated Flight Computer/aircraft/x10_f_cfg.ks (inferred preloaded)
8.66,TAKEOFF,TO_PREFLIGHT,1.12,80,78.88,3.58,-0.01,-0.38,-0.05,90.16,0.103,1,0,0,0,0,0,0,0,0,0,0,0,0,0,0,90,0,1,0,-0.34,0,0,0,90,0,0,0,0,0,0,0,0,0,0,0,3,0,0,0,69,0,0,0,90,1,0,0.193,0,0,1,0,0,0,0,0,0,0,2,2,0,0,VALID,0,0,0,0,0,1,0,0,0,0,0,0,0,0,0,0,0,0,0,0,606.27,875.27,2,0,0.06,0.06,106,15.38,0.08,0.04,8.52,LANDED,X10-F,0:/Integrated Flight Computer/aircraft/x10_f_cfg.ks (inferred preloaded)
8.92,TAKEOFF,TO_PREFLIGHT,1.15,80,78.85,3.58,0,-0.39,-0.24,90.16,0.103,1,0,0,0,0,0,0,0,0,0,0,0,0,0,0,90,0,1,0,-0.16,0,0,0,90,0,0,0,0,0,0,0,0,0,0,0,3,0,0,0,69,0,0,0,90,1,0,0.193,0,0,1,0,0,0,0,0,0,0,2,2,0,0,VALID,0,0,0,0,0,1,0,0,0,0,0,0,0,0,0,0,0,0,0,0,619.93,875.27,2,0,0.06,0.06,110,15.38,0.08,0.04,8.78,LANDED,X10-F,0:/Integrated Flight Computer/aircraft/x10_f_cfg.ks (inferred preloaded)
9.18,TAKEOFF,TO_PREFLIGHT,1.18,80,78.82,3.58,-0.01,-0.4,-0.16,90.15,0.103,1,0,0,0,0,0,0,0,0,0,0,0,0,0,0,90,0,1,0,-0.27,0,0,0,90,0,0,0,0,0,0,0,0,0,0,0,3,0,0,0,69,0,0,0,90,1,0,0.193,0,0,1,0,0,0,0,0,0,0,2,2,0,0,VALID,0,0,0,0,0,1,0,0,0,0,0,0,0,0,0,0,0,0,0,0,632.89,875.27,2,0,0.06,0.06,114,15.38,0.08,0.04,9.04,LANDED,X10-F,0:/Integrated Flight Computer/aircraft/x10_f_cfg.ks (inferred preloaded)
9.44,TAKEOFF,TO_PREFLIGHT,1.2,80,78.8,3.58,-0.01,-0.4,-0.1,90.15,0.102,1,0,0,0,0,0,0,0,0,0,0,0,0,0,0,90,0,1,0,-0.33,0,0,0,90,0,0,0,0,0,0,0,0,0,0,0,3,0,0,0,69,0,0,0,90,1,0,0.193,0,0,1,0,0,0,0,0,0,0,2,2,0,0,VALID,0,0,0,0,0,1,0,0,0,0,0,0,0,0,0,0,0,0,0,0,645.2,875.27,2,0,0.06,0.06,118,15.38,0.08,0.04,9.3,LANDED,X10-F,0:/Integrated Flight Computer/aircraft/x10_f_cfg.ks (inferred preloaded)
9.7,TAKEOFF,TO_PREFLIGHT,1.22,80,78.78,3.58,-0.01,-0.41,-0.12,90.15,0.103,1,0,0,0,0,0,0,0,0,0,0,0,0,0,0,90,0,1,0,-0.3,0,0,0,90,0,0,0,0,0,0,0,0,0,0,0,3,0,0,0,69,0,0,0,90,1,0,0.193,0,0,1,0,0,0,0,0,0,0,2,2,0,0,VALID,0,0,0,0,0,1,0,0,0,0,0,0,0,0,0,0,0,0,0,0,656.88,875.27,2,0,0.06,0.06,122,15.38,0.08,0.04,9.56,LANDED,X10-F,0:/Integrated Flight Computer/aircraft/x10_f_cfg.ks (inferred preloaded)
9.96,TAKEOFF,TO_PREFLIGHT,1.24,80,78.76,3.58,-0.01,-0.41,-0.18,90.15,0.103,1,0,0,0,0,0,0,0,0,0,0,0,0,0,0,90,0,1,0,-0.24,0,0,0,90,0,0,0,0,0,0,0,0,0,0,0,3,0,0,0,69,0,0,0,90,1,0,0.193,0,0,1,0,0,0,0,0,0,0,2,2,0,0,VALID,0,0,0,0,0,1,0,0,0,0,0,0,0,0,0,0,0,0,0,0,667.96,875.27,2,0,0.06,0.06,126,15.38,0.08,0.04,9.82,LANDED,X10-F,0:/Integrated Flight Computer/aircraft/x10_f_cfg.ks (inferred preloaded)
10.22,TAKEOFF,TO_PREFLIGHT,1.26,80,78.74,3.58,-0.01,-0.42,-0.11,90.15,0.103,1,0,0,0,0,0,0,0,0,0,0,0,0,0,0,90,0,1,0,-0.33,0,0,0,90,0,0,0,0,0,0,0,0,0,0,0,3,0,0,0,69,0,0,0,90,1,0,0.193,0,0,1,0,0,0,0,0,0,0,2,2,0,0,VALID,0,0,0,0,0,1,0,0,0,0,0,0,0,0,0,0,0,0,0,0,678.49,875.27,2,0,0.06,0.06,130,15.38,0.08,0.04,10.08,LANDED,X10-F,0:/Integrated Flight Computer/aircraft/x10_f_cfg.ks (inferred preloaded)
10.48,TAKEOFF,TO_GROUND_ROLL,1.28,80,78.72,3.58,-0.01,-0.41,-0.16,90.15,0.103,1,0,0,0,0,0,0,0,0,0,0,0,0,0,0,90.14,0,1,0,-0.29,0,0,0,90,0,0,0,0,0,0,0,0,-0.001,0,0,3,0,0,0,69,0,0,0,90.14,1,-0.001,0.011,0.0077,0.563,0,0.0077,0,0,0,0,0,0,2,2,0,0,VALID,0,0,0,0,0,1,0,0,0,0,0,0,0,0,0,0,0,0,0,0,688.48,875.27,2,0,0.06,0.06,134,15.38,0.08,0.04,10.36,LANDED,X10-F,0:/Integrated Flight Computer/aircraft/x10_f_cfg.ks (inferred preloaded)
10.76,TAKEOFF,TO_GROUND_ROLL,2.22,80,77.78,3.66,-0.13,-0.07,2.36,90.14,0.111,1,0,0,0,0,0,0,0,0,0,0,0,0,0,0,90,0,1,0,-3.35,0,0,0,90,0,0,0,0,0,0,0,0,-0.001,0,0,3,0,0,0,69,0,0,0,90,1,-0.001,0.14,-0.0035,0.572,0,-0.0035,0,0,0,0,0,0,2,2,0,0,VALID,0,0,0,0,0,1,0,0,0,0,0,0,0,0,0,0,0,0,0,0,698.66,875.25,2,0,0.06,0.06,138,14.29,0.08,0.06,10.64,LANDED,X10-F,0:/Integrated Flight Computer/aircraft/x10_f_cfg.ks (inferred preloaded)
11.04,TAKEOFF,TO_GROUND_ROLL,4.07,80,75.93,3.8,0.2,0.41,-1.55,90.13,0.105,1,0,0,0,0,0,0,0,0,0,0,0,0,0,0,90.01,0,1,0,2.85,0,0,0,90,0,0,0,0,0,0,0,0,-0.001,0,0,3,0,0,0,69,0,0,0,90.01,1,-0.001,0.125,-0.0029,0.591,0,-0.0029,0,0,0,0,0,0,2,2,0,0,VALID,0,0,0,0,0,1,0,0,0,0,0,0,0,0,0,0,0,0,0,0,708.25,875.18,2,0,0.06,0.06,142,14.29,0.08,0.06,10.92,LANDED,X10-F,0:/Integrated Flight Computer/aircraft/x10_f_cfg.ks (inferred preloaded)
11.32,TAKEOFF,TO_GROUND_ROLL,5.99,80,74.01,4.03,-0.16,1.06,2.09,90.12,0.099,1,0,0,0,0,0,0,0,0,0,0,0,0,0,0,90.01,0,1,0,-1.56,0,0,0,90,0,0,0,0,0,0,0,0,-0.001,0,0,3,0,0,0,69,0,0,0,90.01,1,-0.001,0.107,-0.0023,0.61,0,-0.0023,0,0,0,0,0,0,2,2,0,0,VALID,0,0,0,0,0,1,0,0,0,0,0,0,0,0,0,0,0,0,0,0,717.27,875.08,2,0,0.06,0.06,146,14.29,0.08,0.06,11.2,LANDED,X10-F,0:/Integrated Flight Computer/aircraft/x10_f_cfg.ks (inferred preloaded)
11.6,TAKEOFF,TO_GROUND_ROLL,7.94,80,72.06,4.2,-0.01,1.76,1.9,90.1,0.102,1,0,0,0,0,0,0,0,0,0,0,0,0,0,0,90.01,0,1,0,-0.05,0,0,0,90,0,0,0,0,0,0,0,0,-0.001,0,0,3,0,0,0,69,0,0,0,90.01,1,-0.001,0.087,-0.0016,0.629,0,-0.0016,0,0,0,0,0,0,2,2,0,0,VALID,0,0,0,0,0,1,0,0,0,0,0,0,0,0,0,0,0,0,0,0,725.77,874.94,2,0,0.06,0.06,150,14.29,0.08,0.06,11.48,LANDED,X10-F,0:/Integrated Flight Computer/aircraft/x10_f_cfg.ks (inferred preloaded)
11.88,TAKEOFF,TO_GROUND_ROLL,9.91,80,70.09,4.42,-0.09,2.46,2.79,90.08,0.1,1,0,0,0,0,0,0,0,0,0,0,0,0,0,0,90.01,0,1,0,-0.51,0,0,0,90,0,0,0,0,0,0,0,0,-0.001,0,0,3,0,0,0,69,0,0,0,90.01,1,-0.001,0.063,-0.0007,0.649,0,-0.0007,0,0,0,0,0,0,2,2,0,0,VALID,0,0,0,0,0,1,0,0,0,0,0,0,0,0,0,0,0,0,0,0,733.77,874.77,2,0,0.06,0.06,154,14.29,0.08,0.06,11.76,LANDED,X10-F,0:/Integrated Flight Computer/aircraft/x10_f_cfg.ks (inferred preloaded)
12.16,TAKEOFF,TO_GROUND_ROLL,11.91,80,68.09,4.57,-0.08,3.01,3.37,90.05,0.099,1,0,0,0,0,0,0,0,0,0,0,0,0,0,0,90.02,0,1,0,-0.38,0,0,0,90,0,0,0,0,0,0,0,0,-0.002,0,0,3,0,0,0,69,0,0,0,90.02,1,-0.002,0.036,0.0003,0.669,0,0.0003,0,0,0,0,0,0,2,2,0,0,VALID,0,0,0,0,0,1,0,0,0,0,0,0,0,0,0,0,0,0,0,0,741.29,874.56,2,0,0.06,0.06,158,14.29,0.08,0.06,12.04,LANDED,X10-F,0:/Integrated Flight Computer/aircraft/x10_f_cfg.ks (inferred preloaded)
12.44,TAKEOFF,TO_GROUND_ROLL,13.92,80,66.08,4.68,-0.08,3.37,3.63,90.02,0.099,1,0,0,0,0,0,0,0,0,0,0,0,0,0,0,90.02,0,1,0,-0.33,0,0,0,90,0,0,0,0,0,0,0,0,-0.002,0,0,3,0,0,0,69,0,0,0,90.02,1,-0.002,0.005,0.0013,0.689,0,0.0013,0,0,0,0,0,0,2,2,0,0,VALID,0,0,0,0,0,1,0,0,0,0,0,0,0,0,0,0,0,0,0,0,748.36,874.32,2,0,0.06,0.06,162,14.29,0.08,0.06,12.32,LANDED,X10-F,0:/Integrated Flight Computer/aircraft/x10_f_cfg.ks (inferred preloaded)
12.72,TAKEOFF,TO_GROUND_ROLL,15.95,80,64.05,4.7,-0.1,3.46,3.8,89.99,0.1,1,0,0,0,0,0,0,0,0,0,0,0,0,0,0,90.02,0,1,0,-0.36,0,0,0,90,0,0,0,0,0,0,0,0,-0.002,0,0,3,0,0,0,69,0,0,0,90.02,1,-0.002,-0.03,0.0026,0.71,0,0.0026,0,0,0,0,0,0,2,2,0,0,VALID,0,0,0,0,0,1,0,0,0,0,0,0,0,0,0,0,0,0,0,0,755,874.05,2,0,0.06,0.06,166,14.29,0.08,0.06,12.6,LANDED,X10-F,0:/Integrated Flight Computer/aircraft/x10_f_cfg.ks (inferred preloaded)
13,TAKEOFF,TO_GROUND_ROLL,18,80,62,4.65,-0.09,3.29,3.57,89.95,0.102,1,0,0,0,0,0,0,0,0,0,0,0,0,0,0,90.02,0,1,0,-0.29,0,0,0,90,0,0,0,0,0,0,0,0,-0.002,0,0,3,0,0,0,69,0,0,0,90.02,1,-0.002,-0.068,0.0043,0.73,0,0.0043,0,0,0,0,0,0,2,2,0,0,VALID,0,0,0,0,0,1,0,0,0,0,0,0,0,0,0,0,0,0,0,0,761.24,873.75,2,0,0.06,0.06,170,14.29,0.08,0.06,12.88,LANDED,X10-F,0:/Integrated Flight Computer/aircraft/x10_f_cfg.ks (inferred preloaded)
13.28,TAKEOFF,TO_GROUND_ROLL,20.06,80,59.94,4.54,-0.11,2.89,3.22,89.92,0.104,1,0,0,0,0,0,0,0,0,0,0,0,0,0,0,90.02,0,1,0,-0.32,0,0,0,90,0,0,0,0,0,0,0,0,-0.001,0,0,3,0,0,0,69,0,0,0,90.02,1,-0.001,-0.109,0.0063,0.751,0,0.0063,0,0,0,0,0,0,2,2,0,0,VALID,0,0,0,0,0,1,0,0,0,0,0,0,0,0,0,0,0,0,0,0,767.1,873.43,2,0,0.06,0.06,174,14.29,0.08,0.06,13.16,LANDED,X10-F,0:/Integrated Flight Computer/aircraft/x10_f_cfg.ks (inferred preloaded)
13.56,TAKEOFF,TO_GROUND_ROLL,22.14,80,57.86,4.37,-0.11,2.32,2.62,89.87,0.106,1,0,0,0,0,0,0,0,0,0,0,0,0,0,0,90.03,0,1,0,-0.29,0,0,0,90,0,0,0,0,0,0,0,0,-0.001,0,0,3,0,0,0,69,0,0,0,90.03,1,-0.001,-0.152,0.0082,0.771,0,0.0082,0,0,0,0,0,0,2,2,0,0,VALID,0,0,0,0,0,1,0,0,0,0,0,0,0,0,0,0,0,0,0,0,772.6,873.09,2,0,0.06,0.06,178,14.29,0.08,0.06,13.44,LANDED,X10-F,0:/Integrated Flight Computer/aircraft/x10_f_cfg.ks (inferred preloaded)
13.84,TAKEOFF,TO_GROUND_ROLL,24.24,80,55.76,4.19,-0.13,1.67,2,89.83,0.108,1,0,0,0,0,0,0,0,0,0,0,0,0,0,0,90.03,0,1,0,-0.31,0,0,0,90,0,0,0,0,0,0,0,0,0,0,0,3,0,0,0,69,0,0,0,90.03,1,0,-0.196,0.0101,0.792,0,0.0101,0,0,0,0,0,0,2,2,0,0,VALID,0,0,0,0,0,1,0,0,0,0,0,0,0,0,0,0,0,0,0,0,777.76,872.73,2,0,0.06,0.06,182,14.29,0.08,0.06,13.72,LANDED,X10-F,0:/Integrated Flight Computer/aircraft/x10_f_cfg.ks (inferred preloaded)
14.12,TAKEOFF,TO_GROUND_ROLL,26.35,80,53.65,4,-0.14,1.03,1.36,89.79,0.11,1,0,0,0,0,0,0,0,0,0,0,0,0,0,0,90.03,0,1,0,-0.3,0,0,0.01,90,0,0,0,0,0,0,0,0,0.002,0,0,3,0,0,0,69,0,0,0,90.03,1,0.002,-0.239,0.012,0.814,0,0.012,0,0,0,0,0,0,2,2,0,0,VALID,0,0,0,0,0,1,0,0,0,0,0,0,0,0,0,0,0,0,0,0,782.61,872.35,2,0,0.06,0.06,186,14.29,0.08,0.06,14,LANDED,X10-F,0:/Integrated Flight Computer/aircraft/x10_f_cfg.ks (inferred preloaded)
14.4,TAKEOFF,TO_GROUND_ROLL,28.48,80,51.52,3.85,-0.16,0.51,0.84,89.75,0.111,1,0,0,0,0,0,0,0,0,0,0,0,0,0,0,90.03,0,1,0,-0.32,0,0,0.01,90,0,0,0,0,0,0,0,0,0.003,0,0,3,0,0,0,69,0,0,0,90.03,1,0.003,-0.279,0.0137,0.835,0,0.0137,0,0,0,0,0,0,2,2,0,0,VALID,0,0,0,0,0,1,0,0,0,0,0,0,0,0,0,0,0,0,0,0,787.15,871.95,2,0,0.06,0.06,190,14.29,0.08,0.06,14.28,LANDED,X10-F,0:/Integrated Flight Computer/aircraft/x10_f_cfg.ks (inferred preloaded)
14.68,TAKEOFF,TO_GROUND_ROLL,30.62,80,49.38,3.75,-0.17,0.17,0.48,89.71,0.111,1,0,0,0,0,0,0,0,0,0,0,0,0,0,0,90.03,0,1,0,-0.31,0,0,0.01,90,0,0,0,0,0,0,0,0,0.006,0,0,3,0,0,0,69,0,0,0,90.03,1,0.006,-0.316,0.0153,0.856,0,0.0153,0,0,0,0,0,0,2,2,0,0,VALID,0,0,0,0,0,1,0,0,0,0,0,0,0,0,0,0,0,0,0,0,791.42,871.55,2,0,0.06,0.06,194,14.29,0.08,0.06,14.56,LANDED,X10-F,0:/Integrated Flight Computer/aircraft/x10_f_cfg.ks (inferred preloaded)
14.96,TAKEOFF,TO_GROUND_ROLL,32.76,80,47.24,3.72,-0.18,0.06,0.36,89.68,0.111,1,0,0,0,0,0,0,0,0,0,0,0,0,0,0,90.03,0,1,0,-0.32,0,0,0.01,90,0,0,0,0,0,0,0,0,0.008,0,0,3,0,0,0,69,0,0,0,90.03,1,0.008,-0.346,0.0165,0.878,0,0.0165,0,0,0,0,0,0,2,2,0,0,VALID,0,0,0,0,0,1,0,0,0,0,0,0,0,0,0,0,0,0,0,0,795.42,871.14,2,0,0.06,0.06,198,14.29,0.08,0.06,14.84,LANDED,X10-F,0:/Integrated Flight Computer/aircraft/x10_f_cfg.ks (inferred preloaded)
15.24,TAKEOFF,TO_GROUND_ROLL,34.92,80,45.08,3.75,-0.19,0.17,0.46,89.66,0.109,1,0,0,0,0,0,0,0,0,0,0,0,0,0,0,90.03,0,1,0,-0.32,0,0,0.01,90,0,0,0,0,0,0,0,0,0.011,0,0,3,0,0,0,69,0,0,0,90.03,1,0.011,-0.369,0.0173,0.899,0,0.0173,0,0,0,0,0,0,2,2,0,0,VALID,0,0,0,0,0,1,0,0,0,0,0,0,0,0,0,0,0,0,0,0,799.17,870.73,2,0,0.06,0.06,202,14.29,0.08,0.06,15.12,LANDED,X10-F,0:/Integrated Flight Computer/aircraft/x10_f_cfg.ks (inferred preloaded)
15.52,TAKEOFF,TO_GROUND_ROLL,37.09,80,42.91,3.85,-0.21,0.5,0.77,89.64,0.106,1,0,0,0,0,0,0,0,0,0,0,0,0,0,0,90.02,0,1,0,-0.32,0,0,0.01,90,0,0,0,0,0,0,0,0,0.015,0,0,3,0,0,0,69,0,0,0,90.02,1,0.015,-0.382,0.0176,0.921,0,0.0176,0,0,0,0,0,0,2,2,0,0,VALID,0,0,0,0,0,1,0,0,0,0,0,0,0,0,0,0,0,0,0,0,802.7,870.32,2,0,0.06,0.06,206,14.29,0.08,0.06,15.4,LANDED,X10-F,0:/Integrated Flight Computer/aircraft/x10_f_cfg.ks (inferred preloaded)
15.8,TAKEOFF,TO_GROUND_ROLL,39.27,80,40.73,3.98,-0.22,0.97,1.23,89.63,0.102,1,0,0,0,0,0,0,0,0,0,0,0,0,0,0,90.02,0,1,0,-0.32,0,0,0.01,90,0,0,0,0,0,0,0,0,0.019,0,0,3,0,0,0,69,0,0,0,90.02,1,0.019,-0.385,0.0174,0.943,0,0.0174,0,0,0,0,0,0,2,2,0,0,VALID,0,0,0,0,0,1,0,0,0,0,0,0,0,0,0,0,0,0,0,0,806.01,869.91,2,0,0.06,0.06,210,14.29,0.08,0.06,15.68,LANDED,X10-F,0:/Integrated Flight Computer/aircraft/x10_f_cfg.ks (inferred preloaded)
16.08,TAKEOFF,TO_GROUND_ROLL,41.46,80,38.54,4.14,-0.23,1.51,1.77,89.64,0.098,1,0,0,0,0,0,0,0,0,0,0,0,0,0,0,90.02,0,1,0,-0.32,0,0,0.01,90,0,0,0,0,0,0,0,0,0.023,0,0,3,0,0,0,69,0,0,0,90.02,1,0.023,-0.375,0.0164,0.965,0,0.0164,0,0,0,0,0,0,2,2,0,0,VALID,0,0,0,0,0,1,0,0,0,0,0,0,0,0,0,0,0,0,0,0,809.12,869.51,2,0,0.06,0.06,214,14.29,0.08,0.06,15.96,LANDED,X10-F,0:/Integrated Flight Computer/aircraft/x10_f_cfg.ks (inferred preloaded)
16.36,TAKEOFF,TO_GROUND_ROLL,43.65,80,36.35,4.29,-0.24,2.03,2.3,89.66,0.093,1,0,0,0,0,0,0,0,0,0,0,0,0,0,0,90.01,0,1,0,-0.32,0,0,0.01,90,0,0,0,0,0,0,0,0,0.027,0,0,3,0,0,0,69,0,0,0,90.01,1,0.027,-0.351,0.0145,0.986,0,0.0145,0,0,0,0,0,0,2,2,0,0,VALID,0,0,0,0,0,1,0,0,0,0,0,0,0,0,0,0,0,0,0,0,812.06,869.12,2,0,0.06,0.06,218,14.29,0.08,0.06,16.24,LANDED,X10-F,0:/Integrated Flight Computer/aircraft/x10_f_cfg.ks (inferred preloaded)
16.64,TAKEOFF,TO_GROUND_ROLL,45.85,80,34.15,4.41,-0.25,2.46,2.73,89.7,0.087,1,0,0,0,0,0,0,0,0,0,0,0,0,0,0,90.01,0,1,0,-0.32,0,0,0.01,90,0,0,0,0,0,0,0,0,0.031,0,0,3,0,0,0,69,0,0,0,90.01,1,0.031,-0.31,0.0115,1,0,0.0115,0,0,0,0,0,0,2,2,0,0,VALID,0,0,0,0,0,1,0,0,0,0,0,0,0,0,0,0,0,0,0,0,814.82,868.74,2,0,0.06,0.06,222,14.29,0.08,0.06,16.52,LANDED,X10-F,0:/Integrated Flight Computer/aircraft/x10_f_cfg.ks (inferred preloaded)
16.92,TAKEOFF,TO_GROUND_ROLL,48.05,80,31.95,4.49,-0.26,2.73,3.01,89.75,0.081,1,0,0,0,0,0,0,0,0,0,0,0,0,0,0,90,0,1,0,-0.31,0,0,0.02,90,0,0,0,0,0,0,0,0,0.035,0,0,3,0,0,0,69,0,0,0,90,1,0.035,-0.252,0.0073,1,0,0.0073,0,0,0,0,0,0,2,2,0,0,VALID,0,0,0,0,0,1,0,0,0,0,0,0,0,0,0,0,0,0,0,0,817.43,868.39,2,0,0.06,0.06,226,14.29,0.08,0.06,16.8,LANDED,X10-F,0:/Integrated Flight Computer/aircraft/x10_f_cfg.ks (inferred preloaded)
17.2,TAKEOFF,TO_GROUND_ROLL,50.26,80,29.74,4.51,-0.27,2.79,3.08,89.82,0.074,1,0,0,0,0,0,0,0,0,0,0,0,0,0,0,89.99,0,1,0,-0.3,0,0,0.02,90,0,0,0,0,0,0,0,0,0.039,0,0,3,0,0,0,69,0,0,0,89.99,1,0.039,-0.175,0.0023,1,0,0.0023,0,0,0,0,0,0,2,2,0,0,VALID,0,0,0,0,0,1,0,0,0,0,0,0,0,0,0,0,0,0,0,0,819.89,868.05,2,0,0.06,0.06,230,14.29,0.08,0.06,17.08,LANDED,X10-F,0:/Integrated Flight Computer/aircraft/x10_f_cfg.ks (inferred preloaded)
17.48,TAKEOFF,TO_GROUND_ROLL,52.47,80,27.53,4.47,-0.28,2.64,2.94,89.9,0.066,1,0,0,0,0,0,0,0,0,0,0,0,0,0,0,89.98,0,1,0,-0.3,0,0,0.02,90,0,0,0,0,0,0,0,0,0.042,0,0,3,0,0,0,69,0,0,0,89.98,1,0.042,-0.077,-0.0038,1,0,-0.0038,0,0,0,0,0,0,2,2,0,0,VALID,0,0,0,0,0,1,0,0,0,0,0,0,0,0,0,0,0,0,0,0,822.23,867.75,2,0,0.06,0.06,234,14.29,0.08,0.06,17.36,LANDED,X10-F,0:/Integrated Flight Computer/aircraft/x10_f_cfg.ks (inferred preloaded)
17.76,TAKEOFF,TO_GROUND_ROLL,54.69,80,25.31,4.37,-0.28,2.32,2.63,90.01,0.055,1,0,0,0,0,0,0,0,0,0,0,0,0,0,0,89.97,0,1,0,-0.3,0,0,0.02,90,0,0,0,0,0,0,0,0,0.043,0,0,3,0,0,0,69,0,0,0,89.97,1,0.043,0.045,-0.0103,1,0,-0.0103,0,0,0,0,0,0,2,2,0,0,VALID,0,0,0,0,0,1,0,0,0,0,0,0,0,0,0,0,0,0,0,0,824.45,867.47,2,0,0.06,0.06,238,14.29,0.08,0.06,17.64,LANDED,X10-F,0:/Integrated Flight Computer/aircraft/x10_f_cfg.ks (inferred preloaded)
18.04,TAKEOFF,TO_GROUND_ROLL,56.92,80,23.08,4.24,-0.29,1.87,2.18,90.15,0.042,1,0,0,0,0,0,0,0,0,0,0,0,0,0,0,89.95,0,1,0,-0.29,0,0,0.02,90,0,0,0,0,0,0,0,0,0.043,0,0,3,0,0,0,69,0,0,0,89.95,1,0.043,0.195,-0.0207,1,0,-0.0207,0,0,0,0,0,0,2,2,0,0,VALID,0,0,0,0,0,1,0,0,0,0,0,0,0,0,0,0,0,0,0,0,826.57,867.23,2,0,0.06,0.06,242,14.29,0.08,0.06,17.92,LANDED,X10-F,0:/Integrated Flight Computer/aircraft/x10_f_cfg.ks (inferred preloaded)
18.32,TAKEOFF,TO_GROUND_ROLL,59.16,80,20.84,4.1,-0.3,1.37,1.68,90.3,0.024,1,0,0,0,0,0,0,0,0,0,0,0,0,0,0,89.94,0,1,0,-0.29,0,0,0.02,90,0,0,0,0,0,0,0,0,0.041,0,0,3,0,0,0,69,0,0,0,89.94,1,0.041,0.364,-0.0302,1,0,-0.0302,0,0,0,0,0,0,2,2,0,0,VALID,0,0,0,0,0,1,0,0,0,0,0,0,0,0,0,0,0,0,0,0,828.59,867.02,2,0,0.06,0.06,246,14.29,0.08,0.06,18.2,LANDED,X10-F,0:/Integrated Flight Computer/aircraft/x10_f_cfg.ks (inferred preloaded)
18.6,TAKEOFF,TO_GROUND_ROLL,61.4,80,18.6,3.96,-0.32,0.89,1.2,90.46,0.023,1,0,0,0,0,0,0,0,0,0,0,0,0,0,0,89.93,0,1,0,-0.29,0,0,0.03,90,0,0,0,0,0,0,0,0,0.036,0,0,3,0,0,0,69,0,0,0,89.93,1,0.036,0.53,-0.038,1,0,-0.038,0,0,0,0,0,0,2,2,0,0,VALID,0,0,0,0,0,1,0,0,0,0,0,0,0,0,0,0,0,0,0,0,830.53,866.86,2,0,0.06,0.06,250,14.29,0.08,0.06,18.48,LANDED,X10-F,0:/Integrated Flight Computer/aircraft/x10_f_cfg.ks (inferred preloaded)
18.88,TAKEOFF,TO_GROUND_ROLL,63.65,80,16.35,3.85,-0.33,0.5,0.8,90.61,0.037,1,0,0,0,0,0,0,0,0,0,0,0,0,0,0,89.94,0,1,0,-0.29,0,0,0.03,90,0,0,0,0,0,0,0,0,0.028,0,0,3,0,0,0,69,0,0,0,89.94,1,0.028,0.665,-0.0421,1,0,-0.0421,0,0,0,0,0,0,2,2,0,0,VALID,0,0,0,0,0,1,0,0,0,0,0,0,0,0,0,0,0,0,0,0,832.39,866.74,2,0,0.06,0.06,254,14.29,0.08,0.06,18.76,LANDED,X10-F,0:/Integrated Flight Computer/aircraft/x10_f_cfg.ks (inferred preloaded)
19.16,TAKEOFF,TO_GROUND_ROLL,65.9,80,14.1,3.78,-0.34,0.26,0.55,90.72,0.059,1,0,0,0,0,0,0,0,0,0,0,0,0,0,0,89.96,0,1,0,-0.29,0,0,0.03,90,0,0,0,0,0,0,0,0,0.017,0,0,3,0,0,0,69,0,0,0,89.96,1,0.017,0.755,-0.0431,1,0,-0.0431,0,0,0,0,0,0,2,2,0,0,VALID,0,0,0,0,0,1,0,0,0,0,0,0,0,0,0,0,0,0,0,0,834.2,866.67,2,0,0.06,0.06,258,14.29,0.08,0.06,19.04,LANDED,X10-F,0:/Integrated Flight Computer/aircraft/x10_f_cfg.ks (inferred preloaded)
19.44,TAKEOFF,TO_GROUND_ROLL,68.16,80,11.84,3.76,-0.35,0.19,0.46,90.77,0.085,1,0,0,0,0,0,0,0,0,0,0,0,0,0,0,89.98,0,1,0,-0.29,0,0,0.03,90,0,0,0,0,0,0,0,0,0.004,0,0,3,0,0,0,69,0,0,0,89.98,1,0.004,0.789,-0.0403,1,0,-0.0403,0,0,0,0,0,0,2,2,0,0,VALID,0,0,0,0,0,1,0,0,0,0,0,0,0,0,0,0,0,0,0,0,835.95,866.66,2,0,0.06,0.06,262,14.29,0.08,0.06,19.32,LANDED,X10-F,0:/Integrated Flight Computer/aircraft/x10_f_cfg.ks (inferred preloaded)
19.72,TAKEOFF,TO_GROUND_ROLL,70.43,80,9.57,3.78,-0.36,0.29,0.55,90.77,0.113,1,0,0,0,0,0,0,0,0,0,0,0,0,0,0,90,0,1,0,-0.29,0,0,0.03,90,0,0,0,0,0,0,0,0,-0.01,0,0,3,0,0,0,69,0,0,0,90,1,-0.01,0.771,-0.0352,1,0,-0.0352,0,0,0,0,0,0,2,2,0,0,VALID,0,0,0,0,0,1,0,0,0,0,0,0,0,0,0,0,0,0,0,0,838.03,867.13,2,0,0.06,0.06,266,14.29,0.08,0.06,19.6,LANDED,X10-F,0:/Integrated Flight Computer/aircraft/x10_f_cfg.ks (inferred preloaded)
20,TAKEOFF,TO_GROUND_ROLL,72.7,80,7.3,3.86,-0.36,0.53,0.79,90.73,0.133,1,0,0,0,0,0,0,0,0,0,0,0,0,0,0,90.02,0,1,0,-0.29,0,0,0.03,90,0,0,0,0,0,0,0,0,-0.024,0,0,3,0,0,0,69,0,0,0,90.02,1,-0.024,0.71,-0.0286,1,0,-0.0286,0,0,0,0,0,0,2,2,0,0,VALID,0,0,0,0,0,1,0,0,0,0,0,0,0,0,0,0,0,0,0,0,840.77,868.39,2,0,0.06,0.06,270,14.29,0.08,0.06,19.88,LANDED,X10-F,0:/Integrated Flight Computer/aircraft/x10_f_cfg.ks (inferred preloaded)
20.28,TAKEOFF,TO_GROUND_ROLL,74.97,80,5.03,3.96,-0.37,0.87,1.12,90.63,0.157,1,0,0,0,0,0,0,0,0,0,0,0,0,0,0,90.04,0,1,0,-0.29,0,0,0.04,90,0,0,0,0,0,0,0,0,-0.037,0,0,3,0,0,0,69,0,0,0,90.04,1,-0.037,0.592,-0.0186,1,0,-0.0186,0,0,0,0,0,0,2,2,0,0,VALID,0,0,0,0,0,1,0,0,0,0,0,0,0,0,0,0,0,0,0,0,844.16,870.39,2,0,0.06,0.06,274,14.29,0.08,0.06,20.16,LANDED,X10-F,0:/Integrated Flight Computer/aircraft/x10_f_cfg.ks (inferred preloaded)
20.56,TAKEOFF,TO_GROUND_ROLL,77.25,80,2.75,4.06,-0.38,1.25,1.49,90.48,0.191,1,0,0,0,0,0,0,0,0,0,0,0,0,0,0,90.06,0,1,0,-0.28,0,0,0.04,90,0,0,0,0,0,0,0,0,-0.048,0,0,3,0,0,0,69,0,0,0,90.06,1,-0.048,0.417,-0.0059,1,0,-0.0059,0,0,0,0,0,0,2,2,0,0,VALID,0,0,0,0,0,1,0,0,0,0,0,0,0,0,0,0,0,0,0,0,848.18,873.11,2,0,0.06,0.06,278,14.29,0.08,0.06,20.44,LANDED,X10-F,0:/Integrated Flight Computer/aircraft/x10_f_cfg.ks (inferred preloaded)
20.84,TAKEOFF,TO_GROUND_ROLL,79.54,80,0.46,4.16,-0.39,1.59,1.83,90.28,0.224,1,0,0,0,0,0,0,0,0,0,0,0,0,0,0,90.09,0,1,0,-0.28,0,0,0.04,90,0,0,0,0,0,0,0,0,-0.057,0,0,3,0,0,0,69,0,0,0,90.09,1,-0.057,0.19,0.0088,1,0,0.0088,0,0,0,0,0,0,2,2,0,0,VALID,0,0,0,0,0,1,0,0,0,0,0,0,0,0,0,0,0,0,0,0,852.79,876.51,2,0,0.06,0.06,282,14.29,0.08,0.06,20.72,LANDED,X10-F,0:/Integrated Flight Computer/aircraft/x10_f_cfg.ks (inferred preloaded)
21.12,TAKEOFF,TO_GROUND_ROLL,81.85,80,-1.85,4.23,-0.39,1.83,2.08,90.03,0.249,1,0,0,0,0,0,0,0,0,0,0,0,0,0,0,90.1,0,1,0,-0.28,0,0,0.04,90,0,0,0,0,0,0,0,0,-0.061,0,0,3,0,0,0,69,0,0,0,90.1,1,-0.061,-0.072,0.0225,1,0,0.0225,0,0,0,0,0,0,2,2,0,0,VALID,0,0,0,0,0,1,0,0,0,0,0,0,0,0,0,0,0,0,0,0,857.97,880.56,2,0,0.06,0.06,286,14.29,0.08,0.06,21,LANDED,X10-F,0:/Integrated Flight Computer/aircraft/x10_f_cfg.ks (inferred preloaded)
21.4,TAKEOFF,TO_GROUND_ROLL,84.16,80,-4.16,4.27,-0.4,1.96,2.21,89.78,0.22,1,0,0,0,0,0,0,0,0,0,0,0,0,0,0,90.1,0,1,0,-0.27,0,0,0.05,90,0,0,0,0,0,0,0,0,-0.06,0,0,3,0,0,0,69,0,0,0,90.1,1,-0.06,-0.323,0.0354,1,0,0.0354,0,0,0,0,0,0,2,2,0,0,VALID,0,0,0,0,0,1,0,0,0,0,0,0,0,0,0,0,0,0,0,0,863.71,885.24,2,0,0.06,0.06,290,14.29,0.08,0.06,21.28,LANDED,X10-F,0:/Integrated Flight Computer/aircraft/x10_f_cfg.ks (inferred preloaded)
21.68,TAKEOFF,TO_GROUND_ROLL,86.48,80,-6.48,4.26,-0.33,1.94,2.16,89.54,0.21,1,0,0,0,0,0,0,0,0,0,0,0,0,0,0,90.09,0,1,0,-0.22,0,0,0.05,90,0,0,0,0,0,0,0,0,-0.053,0,0,3,0,0,0,69,0,0,0,90.09,1,-0.053,-0.544,0.0436,1,0,0.0436,0,0,0,0,0,0,2,2,0,0,VALID,0,0,0,0,0,1,0,0,0,0,0,0,0,0,0,0,0,0,0,0,869.98,890.51,2,0,0.06,0.06,294,14.29,0.08,0.06,21.56,LANDED,X10-F,0:/Integrated Flight Computer/aircraft/x10_f_cfg.ks (inferred preloaded)
21.96,TAKEOFF,TO_GROUND_ROLL,88.83,80,-8.83,4.22,-0.45,1.79,2.08,89.34,0.202,1,0,0,0,0,0,0,0,0,0,0,0,0,0,0,90.08,0,1,0,-0.29,0,0,0.05,90,0,0,0,0,0,0,0,0,-0.041,0,0,3,0,0,0,69,0,0,0,90.08,1,-0.041,-0.735,0.0499,1,0,0.0499,0,0,0,0,0,0,2,2,0,0,VALID,0,0,0,0,0,1,0,0,0,0,0,0,0,0,0,0,0,0,0,0,876.76,896.36,2,0,0.06,0.06,298,14.29,0.08,0.06,21.84,LANDED,X10-F,0:/Integrated Flight Computer/aircraft/x10_f_cfg.ks (inferred preloaded)
22.24,TAKEOFF,TO_GROUND_ROLL,91.19,80,-11.19,4.14,-0.4,1.52,1.78,89.18,0.202,1,0,0,0,0,0,0,0,0,0,0,0,0,0,0,90.07,0,1,0,-0.25,0,0,0.05,90,0,0,0,0,0,0,0,0,-0.024,0,0,3,0,0,0,69,0,0,0,90.07,1,-0.024,-0.89,0.0542,1,0,0.0542,0,0,0,0,0,0,2,2,0,0,VALID,0,0,0,0,0,1,0,0,0,0,0,0,0,0,0,0,0,0,0,0,884.04,902.76,2,0,0.06,0.06,302,14.29,0.08,0.06,22.12,LANDED,X10-F,0:/Integrated Flight Computer/aircraft/x10_f_cfg.ks (inferred preloaded)
22.52,TAKEOFF,TO_GROUND_ROLL,93.58,80,-13.58,4.04,-0.43,1.17,1.45,89.06,0.175,1,0,0,0,0,0,0,0,0,0,0,0,0,0,0,90.07,0,1,0,-0.26,0,0,0.06,90,0,0,0,0,0,0,0,0,-0.003,0,0,3,0,0,0,69,0,0,0,90.07,1,-0.003,-1.013,0.057,1,0,0.057,0,0,0,0,0,0,2,2,0,0,VALID,0,0,0,0,0,1,0,0,0,0,0,0,0,0,0,0,0,0,0,0,891.79,909.68,2,0,0.06,0.06,306,14.29,0.08,0.06,22.4,LANDED,X10-F,0:/Integrated Flight Computer/aircraft/x10_f_cfg.ks (inferred preloaded)
22.8,TAKEOFF,TO_GROUND_ROLL,95.98,80,-15.98,3.93,-0.43,0.81,1.08,88.97,0.147,1,0,0,0,0,0,0,0,0,0,0,0,0,0,0,90.07,0,1,0,-0.25,0,0,0.06,90,0,0,0,0,0,0,0,0,0.021,0,0,3,0,0,0,69,0,0,0,90.07,1,0.021,-1.097,0.0577,1,0,0.0577,0,0,0,0,0,0,2,2,0,0,VALID,0,0,0,0,0,1,0,0,0,0,0,0,0,0,0,0,0,0,0,0,900,917.11,2,0,0.06,0.06,310,14.29,0.08,0.06,22.68,LANDED,X10-F,0:/Integrated Flight Computer/aircraft/x10_f_cfg.ks (inferred preloaded)
23.08,TAKEOFF,TO_GROUND_ROLL,98.42,80,-18.42,3.84,-0.44,0.49,0.76,88.92,0.123,1,0,0,0,0,0,0,0,0,0,0,0,0,0,0,90.07,0,1,0,-0.25,0,0,0.06,90,0,0,0,0,0,0,0,0,0.048,0,0,3,0,0,0,69,0,0,0,90.07,1,0.048,-1.149,0.0573,1,0,0.0573,0,0,0,0,0,0,2,2,0,0,VALID,0,0,0,0,0,1,0,0,0,0,0,0,0,0,0,0,0,0,0,0,908.63,925,2,0,0.06,0.06,314,14.29,0.08,0.06,22.96,LANDED,X10-F,0:/Integrated Flight Computer/aircraft/x10_f_cfg.ks (inferred preloaded)
23.36,TAKEOFF,TO_GROUND_ROLL,100.88,80,-20.88,3.77,-0.44,0.26,0.51,88.91,0.098,1,0,0,0,0,0,0,0,0,0,0,0,0,0,0,90.08,0,1,0,-0.25,0,0,0.06,90,0,0,0,0,0,0,0,0,0.076,0,0,3,0,0,0,69,0,0,0,90.08,1,0.076,-1.167,0.0554,1,0,0.0554,0,0,0,0,0,0,2,2,0,0,VALID,0,0,0,0,0,1,0,0,0,0,0,0,0,0,0,0,0,0,0,0,917.67,933.35,2,0,0.06,0.06,318,14.29,0.08,0.06,23.24,LANDED,X10-F,0:/Integrated Flight Computer/aircraft/x10_f_cfg.ks (inferred preloaded)
23.64,TAKEOFF,TO_GROUND_ROLL,103.37,80,-23.37,3.74,-0.45,0.14,0.38,88.93,0.074,1,0,0,0,0,0,0,0,0,0,0,0,0,0,0,90.08,0,1,0,-0.25,0,0,0.07,90,0,0,0,0,0,0,0,0,0.105,0,0,3,0,0,0,69,0,0,0,90.08,1,0.105,-1.156,0.0524,1,0,0.0524,0,0,0,0,0,0,2,2,0,0,VALID,0,0,0,0,0,1,0,0,0,0,0,0,0,0,0,0,0,0,0,0,927.08,942.09,2,0,0.06,0.06,322,14.29,0.08,0.06,23.52,LANDED,X10-F,0:/Integrated Flight Computer/aircraft/x10_f_cfg.ks (inferred preloaded)
23.92,TAKEOFF,TO_GROUND_ROLL,105.88,80,-25.88,3.74,-0.45,0.14,0.37,88.98,0.052,1,0,0,0,0,0,0,0,0,0,0,0,0,0,0,90.09,0,1,0,-0.24,0,0,0.07,90,0,0,0,0,0,0,0,0,0.133,0,0,3,0,0,0,69,0,0,0,90.09,1,0.133,-1.117,0.0483,1,0,0.0483,0,0,0,0,0,0,2,2,0,0,VALID,0,0,0,0,0,1,0,0,0,0,0,0,0,0,0,0,0,0,0,0,936.82,951.21,2,0,0.06,0.06,326,14.29,0.08,0.06,23.8,LANDED,X10-F,0:/Integrated Flight Computer/aircraft/x10_f_cfg.ks (inferred preloaded)
24.2,TAKEOFF,TO_GROUND_ROLL,108.43,80,-28.43,3.77,-0.45,0.25,0.47,89.05,0.03,1,0,0,0,0,0,0,0,0,0,0,0,0,0,0,90.11,0,1,0,-0.24,0,0,0.07,90,0,0,0,0,0,0,0,0,0.161,0,0,3,0,0,0,69,0,0,0,90.11,1,0.161,-1.053,0.0432,1,0,0.0432,0,0,0,0,0,0,2,2,0,0,VALID,0,0,0,0,0,1,0,0,0,0,0,0,0,0,0,0,0,0,0,0,946.87,960.65,2,0,0.06,0.06,330,14.29,0.08,0.06,24.08,LANDED,X10-F,0:/Integrated Flight Computer/aircraft/x10_f_cfg.ks (inferred preloaded)
24.48,TAKEOFF,TO_GROUND_ROLL,110.99,80,-30.99,3.82,-0.46,0.44,0.65,89.15,0.012,1,0,0,0,0,0,0,0,0,0,0,0,0,0,0,90.12,0,1,0,-0.24,0,0,0.08,90,0,0,0,0,0,0,0,0,0.187,0,0,3,0,0,0,69,0,0,0,90.12,1,0.187,-0.971,0.0379,1,0,0.0379,0,0,0,0,0,0,2,2,0,0,VALID,0,0,0,0,0,1,0,0,0,0,0,0,0,0,0,0,0,0,0,0,957.16,970.38,2,0,0.06,0.06,334,14.29,0.08,0.06,24.36,LANDED,X10-F,0:/Integrated Flight Computer/aircraft/x10_f_cfg.ks (inferred preloaded)
24.76,TAKEOFF,TO_GROUND_ROLL,113.59,80,-33.59,3.89,-0.46,0.66,0.87,89.26,0,1,0,0,0,0,0,0,0,0,0,0,0,0,0,0,90.14,0,1,0,-0.23,0,0,0.08,90,0,0,0,0,0,0,0,0,0.21,0,0,3,0,0,0,69,0,0,0,90.14,1,0.21,-0.877,0.0326,1,0,0.0326,0,0,0,0,0,0,2,2,0,0,VALID,0,0,0,0,0,1,0,0,0,0,0,0,0,0,0,0,0,0,0,0,967.67,980.34,2,0,0.06,0.06,338,14.29,0.08,0.06,24.64,LANDED,X10-F,0:/Integrated Flight Computer/aircraft/x10_f_cfg.ks (inferred preloaded)
25.04,TAKEOFF,TO_GROUND_ROLL,116.21,80,-36.21,3.95,-0.47,0.87,1.08,89.37,-0.001,1,0,0,0,0,0,0,0,0,0,0,0,0,0,0,90.16,0,1,0,-0.23,0,0,0.08,90,0,0,0,0,0,0,0,0,0.231,0,0,3,0,0,0,69,0,0,0,90.16,1,0.231,-0.784,0.0282,1,0,0.0282,0,0,0,0,0,0,2,2,0,0,VALID,0,0,0,0,0,1,0,0,0,0,0,0,0,0,0,0,0,0,0,0,978.34,990.49,2,0,0.06,0.06,342,14.29,0.08,0.06,24.92,LANDED,X10-F,0:/Integrated Flight Computer/aircraft/x10_f_cfg.ks (inferred preloaded)
25.32,TAKEOFF,TO_GROUND_ROLL,118.86,80,-38.86,4,-0.47,1.03,1.24,89.48,0.003,1,0,0,0,0,0,0,0,0,0,0,0,0,0,0,90.18,0,1,0,-0.23,0,0,0.09,90,0,0,0,0,0,0,0,0,0.249,0,0,3,0,0,0,69,0,0,0,90.18,1,0.249,-0.695,0.0244,1,0,0.0244,0,0,0,0,0,0,2,2,0,0,VALID,0,0,0,0,0,1,0,0,0,0,0,0,0,0,0,0,0,0,0,0,989.12,1000.77,2,0,0.06,0.06,346,14.29,0.08,0.06,25.2,LANDED,X10-F,0:/Integrated Flight Computer/aircraft/x10_f_cfg.ks (inferred preloaded)
25.6,TAKEOFF,TO_GROUND_ROLL,121.53,80,-41.53,4.02,-0.48,1.09,1.31,89.59,0.01,1,0,0,0,0,0,0,0,0,0,0,0,0,0,0,90.2,0,1,0,-0.22,0,0,0.09,90,0,0,0,0,0,0,0,0,0.264,0,0,3,0,0,0,69,0,0,0,90.2,1,0.264,-0.613,0.0211,1,0,0.0211,0,0,0,0,0,0,2,2,0,0,VALID,0,0,0,0,0,1,0,0,0,0,0,0,0,0,0,0,0,0,0,0,999.97,1011.13,2,0,0.06,0.06,350,14.29,0.08,0.06,25.48,LANDED,X10-F,0:/Integrated Flight Computer/aircraft/x10_f_cfg.ks (inferred preloaded)
25.88,TAKEOFF,TO_GROUND_ROLL,124.24,80,-44.24,4.01,-0.48,1.06,1.28,89.68,0.019,1,0,0,0,0,0,0,0,0,0,0,0,0,0,0,90.22,0,1,0,-0.22,0,0,0.09,90,0,0,0,0,0,0,0,0,0.276,0,0,3,0,0,0,69,0,0,0,90.22,1,0.276,-0.543,0.0188,1,0,0.0188,0,0,0,0,0,0,2,2,0,0,VALID,0,0,0,0,0,1,0,0,0,0,0,0,0,0,0,0,0,0,0,0,1010.83,1021.52,2,0,0.06,0.06,354,14.29,0.08,0.06,25.76,LANDED,X10-F,0:/Integrated Flight Computer/aircraft/x10_f_cfg.ks (inferred preloaded)
26.16,TAKEOFF,TO_GROUND_ROLL,126.98,80,-46.98,3.99,-0.62,0.93,1.15,89.75,0.028,1,0,0,0,0,0,0,0,0,0,0,0,0,0,0,90.24,0,1,0,-0.28,0,0,0.1,90,0,0,0,0,0,0,0,0,0.285,0,0,3,0,0,0,69,0,0,0,90.24,1,0.285,-0.483,0.017,1,0,0.017,0,0,0,0,0,0,2,2,0,0,VALID,0,0,0,0,0,1,0,0,0,0,0,0,0,0,0,0,0,0,0,0,1021.65,1031.89,2,0,0.06,0.06,358,14.29,0.08,0.06,26.04,LANDED,X10-F,0:/Integrated Flight Computer/aircraft/x10_f_cfg.ks (inferred preloaded)
26.44,TAKEOFF,TO_GROUND_ROLL,129.75,80,-49.75,3.89,-0.44,0.71,0.93,89.82,0.026,1,0,0,0,0,0,0,0,0,0,0,0,0,0,0,90.25,0,1,0,-0.19,0,0,0.1,90,0,0,0,0,0,0,0,0,0.293,0,0,3,0,0,0,69,0,0,0,90.25,1,0.293,-0.435,0.0159,1,0,0.0159,0,0,0,0,0,0,2,2,0,0,VALID,0,0,0,0,0,1,0,0,0,0,0,0,0,0,0,0,0,0,0,0,1032.38,1042.19,2,0,0.06,0.06,362,14.29,0.08,0.06,26.32,LANDED,X10-F,0:/Integrated Flight Computer/aircraft/x10_f_cfg.ks (inferred preloaded)
26.72,TAKEOFF,TO_GROUND_ROLL,132.55,80,-52.55,3.85,-0.5,0.48,0.7,89.87,0.057,1,0,0,0,0,0,0,0,0,0,0,0,0,0,0,90.27,0,1,0,-0.21,0,0,0.1,90,0,0,0,0,0,0,0,0,0.299,0,0,3,0,0,0,69,0,0,0,90.27,1,0.299,-0.401,0.0155,1,0,0.0155,0,0,0,0,0,0,2,2,0,0,VALID,0,0,0,0,0,1,0,0,0,0,0,0,0,0,0,0,0,0,0,0,1043.25,1052.67,2,0,0.06,0.06,366,14.29,0.08,0.06,26.6,LANDED,X10-F,0:/Integrated Flight Computer/aircraft/x10_f_cfg.ks (inferred preloaded)
27,TAKEOFF,TO_GROUND_ROLL,135.39,80,-55.39,3.76,-0.5,0.25,0.47,89.91,0.069,1,0,0,0,0,0,0,0,0,0,0,0,0,0,0,90.28,0,1,0,-0.21,0,0,0.11,90,0,0,0,0,0,0,0,0,0.303,0,0,3,0,0,0,69,0,0,0,90.28,1,0.303,-0.378,0.0155,1,0,0.0155,0,0,0,0,0,0,2,2,0,0,VALID,0,0,0,0,0,1,0,0,0,0,0,0,0,0,0,0,0,0,0,0,1054.42,1063.48,2,0,0.06,0.06,370,14.29,0.08,0.06,26.88,LANDED,X10-F,0:/Integrated Flight Computer/aircraft/x10_f_cfg.ks (inferred preloaded)
27.28,TAKEOFF,TO_GROUND_ROLL,138.26,80,-58.26,3.71,-0.48,0.06,0.26,89.93,0.075,1,0,0,0,0,0,0,0,0,0,0,0,0,0,0,90.29,0,1,0,-0.2,0,0,0.11,90,0,0,0,0,0,0,0,0,0.306,0,0,3,0,0,0,69,0,0,0,90.29,1,0.306,-0.363,0.0156,1,0,0.0156,0,0,0,0,0,0,2,2,0,0,VALID,0,0,0,0,0,1,0,0,0,0,0,0,0,0,0,0,0,0,0,0,1065.9,1074.61,2,0,0.06,0.06,374,14.29,0.08,0.06,27.16,LANDED,X10-F,0:/Integrated Flight Computer/aircraft/x10_f_cfg.ks (inferred preloaded)
27.56,TAKEOFF,TO_GROUND_ROLL,141.17,80,-61.17,3.67,-0.61,-0.06,0.19,89.95,0.083,1,0,0,0,0,0,0,0,0,0,0,0,0,0,0,90.3,0,1,0,-0.25,0,0,0.11,90,0,0,0,0,0,0,0,0,0.309,0,0,3,0,0,0,69,0,0,0,90.3,1,0.309,-0.353,0.0156,1,0,0.0156,0,0,0,0,0,0,2,2,0,0,VALID,0,0,0,0,0,1,0,0,0,0,0,0,0,0,0,0,0,0,0,0,1077.69,1086.07,2,0,0.06,0.06,378,14.29,0.08,0.06,27.44,LANDED,X10-F,0:/Integrated Flight Computer/aircraft/x10_f_cfg.ks (inferred preloaded)
27.84,TAKEOFF,TO_GROUND_ROLL,144.06,80,-64.06,3.65,-0.44,-0.08,0.1,89.96,0.081,1,0,0,0,0,0,0,0,0,0,0,0,0,0,0,90.31,0,1,0,-0.18,0,0,0.12,90,0,0,0,0,0,0,0,0,0.311,0,0,3,0,0,0,69,0,0,0,90.31,1,0.311,-0.349,0.0159,1,0,0.0159,0,0,0,0,0,0,2,2,0,0,VALID,0,0,0,0,0,1,0,0,0,0,0,0,0,0,0,0,0,0,0,0,1089.6,1097.66,2,0,0.06,0.06,382,14.29,0.08,0.06,27.72,LANDED,X10-F,0:/Integrated Flight Computer/aircraft/x10_f_cfg.ks (inferred preloaded)
28.12,TAKEOFF,TO_GROUND_ROLL,147.02,80,-67.02,3.66,-0.49,-0.08,0.1,89.96,0.095,1,0,0,0,0,0,0,0,0,0,0,0,0,0,0,90.31,0,1,0,-0.19,0,0,0.12,90,0,0,0,0,0,0,0,0,0.312,0,0,3,0,0,0,69,0,0,0,90.31,1,0.312,-0.35,0.0165,1,0,0.0165,0,0,0,0,0,0,2,2,0,0,VALID,0,0,0,0,0,1,0,0,0,0,0,0,0,0,0,0,0,0,0,0,1101.93,1109.71,2,0,0.06,0.06,386,14.29,0.08,0.06,28,LANDED,X10-F,0:/Integrated Flight Computer/aircraft/x10_f_cfg.ks (inferred preloaded)
28.4,TAKEOFF,TO_GROUND_ROLL,150.03,80,-70.03,3.66,-0.49,-0.06,0.12,89.96,0.103,1,0,0,0,0,0,0,0,0,0,0,0,0,0,0,90.32,0,1,0,-0.19,0,0,0.13,90,0,0,0,0,0,0,0,0,0.314,0,0,3,0,0,0,69,0,0,0,90.32,1,0.314,-0.358,0.0173,1,0,0.0173,0,0,0,0,0,0,2,2,0,0,VALID,0,0,0,0,0,1,0,0,0,0,0,0,0,0,0,0,0,0,0,0,1114.68,1122.18,2,0,0.06,0.06,390,14.29,0.08,0.06,28.28,LANDED,X10-F,0:/Integrated Flight Computer/aircraft/x10_f_cfg.ks (inferred preloaded)
28.68,TAKEOFF,TO_GROUND_ROLL,153.08,80,-73.08,3.67,-0.47,-0.03,0.14,89.95,0.107,1,0,0,0,0,0,0,0,0,0,0,0,0,0,0,90.32,0,1,0,-0.18,0,0,0.13,90,0,0,0,0,0,0,0,0,0.316,0,0,3,0,0,0,69,0,0,0,90.32,1,0.316,-0.37,0.0182,1,0,0.0182,0,0,0,0,0,0,2,2,0,0,VALID,0,0,0,0,0,1,0,0,0,0,0,0,0,0,0,0,0,0,0,0,1127.78,1135.01,2,0,0.06,0.06,394,14.29,0.08,0.06,28.56,LANDED,X10-F,0:/Integrated Flight Computer/aircraft/x10_f_cfg.ks (inferred preloaded)
28.96,TAKEOFF,TO_GROUND_ROLL,156.17,80,-76.17,3.67,-0.48,-0.02,0.15,89.94,0.113,1,0,0,0,0,0,0,0,0,0,0,0,0,0,0,90.33,0,1,0,-0.18,0,0,0.13,90,0,0,0,0,0,0,0,0,0.318,0,0,3,0,0,0,69,0,0,0,90.33,1,0.318,-0.387,0.0195,1,0,0.0195,0,0,0,0,0,0,2,2,0,0,VALID,0,0,0,0,0,1,0,0,0,0,0,0,0,0,0,0,0,0,0,0,1141.22,1148.21,2,0,0.06,0.06,398,14.29,0.08,0.06,28.84,LANDED,X10-F,0:/Integrated Flight Computer/aircraft/x10_f_cfg.ks (inferred preloaded)
29.24,TAKEOFF,TO_GROUND_ROLL,159.3,80,-79.3,3.67,-0.47,-0.01,0.15,89.93,0.115,1,0,0,0,0,0,0,0,0,0,0,0,0,0,0,90.33,0,1,0,-0.17,0,0,0.14,90,0,0,0,0,0,0,0,0,0.321,0,0,3,0,0,0,69,0,0,0,90.33,1,0.321,-0.404,0.0204,1,0,0.0204,0,0,0,0,0,0,2,2,0,0,VALID,0,0,0,0,0,1,0,0,0,0,0,0,0,0,0,0,0,0,0,0,1155.02,1161.78,2,0,0.06,0.06,402,14.29,0.08,0.06,29.12,LANDED,X10-F,0:/Integrated Flight Computer/aircraft/x10_f_cfg.ks (inferred preloaded)
29.54,TAKEOFF,TO_ROTATE,162.69,80,-82.69,3.67,-0.49,-0.01,0.16,89.91,0.117,1,0,0,0,0,0,0,0,0,0,0,0,0,0,0,90.34,0.709,1,0,-0.17,0,0,0.14,90,0,0,0,0,0,0,0,0,0.325,0,0,3,0,0,0,69,0,0,0,90.34,1,0.325,-0.423,0.0214,1,0,0.0214,0,0.1732,0.709,0.717,0.08,0,2,2,0,0,VALID,0,0,0,0,0,1,0,0,0,0,0,0,0,0,0,0,0,0,0,0,1170.22,1176.73,2,0,0.06,0.06,406,13.33,0.08,0.06,29.4,LANDED,X10-F,0:/Integrated Flight Computer/aircraft/x10_f_cfg.ks (inferred preloaded)
29.82,TAKEOFF,TO_ROTATE,165.91,80,-85.91,3.71,-0.48,0.12,0.29,89.89,0.123,1,0,0,0,0,0,0,0,0,0,0,0,0,0,0,90.34,1.717,1,0,-0.17,0,0,0.15,90,0,0,0,0,0,0,0,0,0.329,0,0,3,0,0,0,69,0,0,0,90.34,1,0.329,-0.445,0.0225,1,0,0.0225,0,0.2871,1.717,1.593,0.08,0,2,2,0,0,VALID,0,0,0,0,0,1,0,0,0,0,0,0,0,0,0,0,0,0,0,0,1184.78,1191.09,2,0,0.06,0.06,410,14.29,0.08,0.06,29.68,LANDED,X10-F,0:/Integrated Flight Computer/aircraft/x10_f_cfg.ks (inferred preloaded)
30.12,TAKEOFF,TO_ROTATE,169.39,80,-89.39,3.9,-0.4,0.65,0.77,89.88,0.113,1,0,0,0,0,0,0,0,0,0,0,0,0,0,0,90.34,2.797,1,0,-0.13,0,0,0.15,90,0,0,0,0,0,0,0,0,0.334,0,0,3,0,0,0,69,0,0,0,90.34,1,0.334,-0.467,0.0234,1,0,0.0234,0,0.3595,2.797,2.15,0.08,0,2,2,0,0,VALID,0,0,0,0,0,1,0,0,0,0,0,0,0,0,0,0,0,0,0,0,1200.79,1206.88,2,0,0.06,0.06,414,13.33,0.1,0.06,29.98,LANDED,X10-F,0:/Integrated Flight Computer/aircraft/x10_f_cfg.ks (inferred preloaded)
30.4,TAKEOFF,TO_ROTATE,172.67,80,-92.67,4.17,-0.48,1.59,1.75,89.87,0.104,1,0,0,0,0,0,0,0,0,0,0,0,0,0,0,90.35,3.805,1,0,-0.16,0,0,0.16,90,0,0,0,0,0,0,0,0,0.34,0,0,3,0,0,0,69,0,0,0,90.35,1,0.34,-0.48,0.0235,1,0,0.0235,0,0.3682,3.805,2.217,0.08,0,2,2,0,0,VALID,0,0,0,0,0,1,0,0,0,0,0,0,0,0,0,0,0,0,0,0,1216.07,1221.97,2,0,0.06,0.06,418,14.29,0.08,0.06,30.26,LANDED,X10-F,0:/Integrated Flight Computer/aircraft/x10_f_cfg.ks (inferred preloaded)
30.68,TAKEOFF,TO_ROTATE,175.97,80,-95.97,4.55,-0.39,2.81,2.94,89.86,0.088,1,0,0,0,0,0,0,0,0,0,0,0,0,0,0,90.35,4.813,1,0,-0.13,0,0,0.16,90,0,0,0,0,0,0,0,0,0.347,0,0,3,0,0,0,69,0,0,0,90.35,1,0.347,-0.487,0.0233,1,0,0.0233,0,0.3398,4.813,1.998,0.08,0,2,2,0,0,VALID,0,0,0,0,0,1,0,0,0,0,0,0,0,0,0,0,0,0,0,0,1231.62,1237.33,2,0,0.06,0.06,422,14.29,0.08,0.06,30.54,LANDED,X10-F,0:/Integrated Flight Computer/aircraft/x10_f_cfg.ks (inferred preloaded)
30.96,TAKEOFF,TO_ROTATE,179.27,80,-99.27,4.93,-0.27,4.03,4.12,89.87,0.064,1,0,0,0,0,0,0,0,0,0,0,0,0,0,0,90.34,5.821,1,0,-0.09,0,0,0.17,90,0,0,0,0,0,0,0,0,0.353,0,0,3,0,0,0,69,0,0,0,90.34,1,0.353,-0.47,0.0208,1,0,0.0208,0,0.3123,5.821,1.787,0.08,0,2,2,0,0,VALID,0,0,0,0,0,1,0,0,0,0,0,0,0,0,0,0,0,0,0,0,1247.39,1252.91,2,0,0.06,0.06,426,14.29,0.08,0.06,30.82,LANDED,X10-F,0:/Integrated Flight Computer/aircraft/x10_f_cfg.ks (inferred preloaded)
31.24,TAKEOFF,TO_ROTATE,182.55,80,-102.55,5.36,0,5.12,5.1,89.9,0.086,1,0,0,0,0,0,0,0,0,0,0,0,0,0,0,90.34,6.829,1,0,0.01,0,0,0.17,90,0,0,0,0,0,0,0,0,0.359,0,0,3,0,0,0,69,0,0,0,90.34,1,0.359,-0.435,0.0177,1,0,0.0177,0,0.3026,6.829,1.712,0.08,0,2,2,0,0,VALID,0,0,0,0,0,1,0,0,0,0,0,0,0,0,0,0,0,0,0,0,1263.25,1268.59,2,0,0.06,0.06,430,14.29,0.08,0.06,31.1,LANDED,X10-F,0:/Integrated Flight Computer/aircraft/x10_f_cfg.ks (inferred preloaded)
31.5,TAKEOFF,TO_ROTATE,185.57,80,-105.57,5.73,-0.1,6.2,6.16,89.94,0.092,1,0,0,0,0,0,0,0,0,0,0,0,0,0,0,90,7.837,0,1,-0.03,0,0,7.62,90,-0.0154,0.0001,-0.9999,7.84,90,0,0,0,0,0,0,3,0,0,0,69,0,0,0,90,1,0,-0.063,0,0,3,0,0,0,7.837,1.639,0,0,2,2,0,0,VALID,0,0,0,0,0,1,0,0,0,0,0,0,0,0,0,0,0,0,0,0,1278,1283.17,2,0,0.06,0.06,434,15.38,0.08,0.06,31.36,FLYING,X10-F,0:/Integrated Flight Computer/aircraft/x10_f_cfg.ks (inferred preloaded)
31.76,TAKEOFF,TO_ROTATE,188.54,80,-108.54,6.2,-0.22,7.55,7.47,89.91,0.182,1,0,0,0,0,0,0,0,0,0,0,0,0,0,0,90,8.773,0,1,-0.07,0,0,8.63,90,-0.0317,0.0001,-0.9995,8.77,90,0,0,0,0,0,0,3,0,0,0,69,0,0,0,90,1,0,-0.094,0,0,3,0,0,0,8.773,1.218,0,0,2,2,0,0,VALID,0,0,0,0,0,1,0,0,0,0,0,0,0,0,0,0,0,0,0,0,1292.66,1297.66,2,0,0.04,0.04,438,15.38,0.08,0.04,31.62,FLYING,X10-F,0:/Integrated Flight Computer/aircraft/x10_f_cfg.ks (inferred preloaded)
32.04,TAKEOFF,TO_ROTATE,191.58,80,-111.58,7.17,0.16,10.64,10.34,89.93,0.281,1,0,0,0,0,0,0,0,0,0,0,0,0,0,0,90,9.781,0,1,0.05,0,0,9.57,90,-0.0492,0.0001,-0.9988,9.78,90,0,0,0,0,0,0,3,0,0,0,69,0,0,0,90,1,0,-0.066,0,0,3,0,0,0,9.781,-0.859,0,0,2,2,0,0,VALID,0,0,0,0,0,1,0,0,0,0,0,0,0,0,0,0,0,0,0,0,1307.9,1312.65,2,0,0.06,0.06,442,14.29,0.08,0.04,31.9,FLYING,X10-F,0:/Integrated Flight Computer/aircraft/x10_f_cfg.ks (inferred preloaded)
32.3,TAKEOFF,TO_ROTATE,194.06,80,-114.06,8.71,1.7,14.92,14.09,89.97,0.33,1,0,0,0,0,0,0,0,0,0,0,0,0,0,0,90,10.717,0,1,0.5,0,0,10.57,90,-0.0654,0.0001,-0.9979,10.72,90,0,0,0,0,0,0,3,0,0,0,69,0,0,0,90,1,0,-0.028,0,0,3,0,0,0,10.717,-4.199,0,0,2,2,0,0,VALID,0,0,0,0,0,1,0,0,0,0,0,0,0,0,0,0,0,0,0,0,1320.6,1325.04,2,0,0.04,0.04,446,15.38,0.08,0.04,32.16,FLYING,X10-F,0:/Integrated Flight Computer/aircraft/x10_f_cfg.ks (inferred preloaded)
32.58,TAKEOFF,TO_ROTATE,196.03,80,-116.03,11.24,5.33,20.27,18.51,90.02,0.351,1,0,0,0,0,0,0,0,0,0,0,0,0,0,0,90,11.5,0,1,1.56,0,0,11.5,90,-0.0789,0.0002,-0.9969,11.5,90,0,0,0,0,0,0,3,0,0,0,69,0,0,0,90,1,0,0.019,0,0,3,0,0,0,11.5,-8.772,0,0,2,2,0,0,VALID,0,0,0,0,0,1,0,0,0,0,0,0,0,0,0,0,0,0,0,0,1331.04,1334.94,2,0,0.06,0.06,450,14.29,0.08,0.04,32.44,FLYING,X10-F,0:/Integrated Flight Computer/aircraft/x10_f_cfg.ks (inferred preloaded)
32.86,TAKEOFF,TO_CLIMB,196.63,80,-116.63,14.4,11.24,22.8,19.61,90.04,0.338,0.944,0,0,0,0,0,0,0,0,0,0,0,0,0,0,90,21.665,0,1,3.27,0,0,21.83,90,-0.2535,0.0003,-0.9673,21.67,90,0,0,0,0,0,0,3,0,0,0,69,0,0,0,90,1,0,0.042,0,0,3,0,0,0,11.5,-10.557,0,0,1,1,0,0,VALID,0,0,0,0,0,1,0,0,0,0,0,0,0,0,0,0,0,0,0,0,1334.24,1337.76,2,0,0.06,0.06,454,14.29,0.08,0.06,32.72,FLYING,X10-F,0:/Integrated Flight Computer/aircraft/x10_f_cfg.ks (inferred preloaded)
33.16,TAKEOFF,TO_CLIMB,197.16,80,-117.16,18.69,16.29,22.78,18.21,90.02,0.257,0.824,0,0,0,0,0,0,0,0,0,0,0,0,0,0,90,20.825,0,1,4.72,0,0,20.99,90,-0.2392,0.0003,-0.971,20.83,90,0,0,0,0,0,0,3,0,0,0,69,0,0,0,90,1,0,0.02,0,0,3,0,0,0,11.5,-10.557,0,0,1,1,0,0,VALID,0,0,0,0,0,1,0,0,0,0,0,0,0,0,0,0,0,0,0,0,1324.87,1340.09,2,0,0.06,0.06,459,16.67,0.08,0.04,33.02,FLYING,X10-F,0:/Integrated Flight Computer/aircraft/x10_f_cfg.ks (inferred preloaded)
33.44,TAKEOFF,TO_CLIMB,198.23,80,-118.23,23.78,19.93,22.3,16.66,90,0.221,0.82,0,0,0,0,0,0,0,0,0,0,0,0,0,0,90,20.041,0,1,5.74,0,0,20.15,90,-0.2258,0.0003,-0.9742,20.04,90,0,0,0,0,0,0,3,0,0,0,69,0,0,0,90,1,0,0.004,0,0,3,0,0,0,11.5,-10.557,0,0,1,1,0,0,VALID,0,0,0,0,0,1,0,0,0,0,0,0,0,0,0,0,0,0,0,0,1308.96,1345.03,2,0,0.04,0.04,464,17.86,0.08,0.04,33.3,FLYING,X10-F,0:/Integrated Flight Computer/aircraft/x10_f_cfg.ks (inferred preloaded)
33.7,TAKEOFF,TO_CLIMB,199.49,80,-119.49,29.52,22.79,22.57,16.07,90,0.206,0.82,0,0,0,0,0,0,0,0,0,0,0,0,0,0,90,19.313,0,1,6.52,0,0,19.54,90,-0.2134,0.0003,-0.977,19.31,90,0,0,0,0,0,0,3,0,0,0,69,0,0,0,90,1,0,0.002,0,0,3,0,0,0,11.5,-10.557,0,0,1,1,0,0,VALID,0,0,0,0,0,1,0,0,0,0,0,0,0,0,0,0,0,0,0,0,1296.53,1350.88,2,0,0.08,0.08,468,15.38,0.08,0.04,33.56,FLYING,X10-F,0:/Integrated Flight Computer/aircraft/x10_f_cfg.ks (inferred preloaded)
33.98,TAKEOFF,TO_CLIMB,200.84,80,-120.84,36.82,25.8,24.01,16.61,90.01,0.2,0.82,0,0,0,0,0,0,0,0,0,0,0,0,0,0,90,18.529,0,1,7.32,0,0,18.75,90,-0.1999,0.0002,-0.9798,18.53,90,0,0,0,0,0,0,3,0,0,0,69,0,0,0,90,1,0,0.007,0,0,3,0,0,0,11.5,-10.557,0,0,1,1,0,0,VALID,0,0,0,0,0,1,0,0,0,0,0,0,0,0,0,0,0,0,0,0,1284.8,1357.17,2,0,0.08,0.08,472,14.29,0.08,0.06,33.84,FLYING,X10-F,0:/Integrated Flight Computer/aircraft/x10_f_cfg.ks (inferred preloaded)
34.26,TAKEOFF,TO_CLIMB,201.95,80,-121.95,45.28,29.14,26.53,18.16,90.02,0.196,0.82,0,0,0,0,0,0,0,0,0,0,0,0,0,0,90,17.745,0,1,8.21,0,0,17.97,90,-0.1864,0.0002,-0.9825,17.75,90,0,0,0,0,0,0,3,0,0,0,69,0,0,0,90,1,0,0.019,0,0,3,0,0,0,11.5,-10.557,0,0,1,1,0,0,VALID,0,0,0,0,0,1,0,0,0,0,0,0,0,0,0,0,0,0,0,0,1273.48,1362.19,2,0,0.08,0.08,476,14.29,0.08,0.06,34.12,FLYING,X10-F,0:/Integrated Flight Computer/aircraft/x10_f_cfg.ks (inferred preloaded)
34.54,TAKEOFF,TO_CLIMB,202.5,80,-122.5,54.81,33.98,29,19.43,90.03,0.195,0.82,0,0,0,0,0,0,0,0,0,0,0,0,0,0,90,16.961,0,1,9.53,0,0,17.19,90,-0.1728,0.0002,-0.985,16.96,90,0,0,0,0,0,0,3,0,0,0,69,0,0,0,90,1,0,0.031,0,0,3,0,0,0,11.5,-10.557,0,0,1,1,0,0,VALID,0,0,0,0,0,1,0,0,0,0,0,0,0,0,0,0,0,0,0,0,1261.01,1364.25,2,0,0.08,0.08,480,14.29,0.08,0.06,34.4,FLYING,X10-F,0:/Integrated Flight Computer/aircraft/x10_f_cfg.ks (inferred preloaded)
34.82,TAKEOFF,TO_CLIMB,202.23,80,-122.23,64.99,39.48,28.11,17.21,90.03,0.192,0.82,0,0,0,0,0,0,0,0,0,0,0,0,0,0,90,16.177,0,1,11.05,0,0,16.4,90,-0.1592,0.0002,-0.9872,16.18,90,0,0,0,0,0,0,3,0,0,0,69,0,0,0,90,1,0,0.029,0,0,3,0,0,0,11.5,-10.557,0,0,1,1,0,0,VALID,0,0,0,0,0,1,0,0,0,0,0,0,0,0,0,0,0,0,0,0,1245.7,1361.97,2,0,0.08,0.08,484,14.29,0.08,0.06,34.68,FLYING,X10-F,0:/Integrated Flight Computer/aircraft/x10_f_cfg.ks (inferred preloaded)
35.1,TAKEOFF,TO_CLIMB,202.8,80,-122.8,75.85,42.78,25.04,13.24,90.02,0.194,0.82,0,0,0,0,0,0,0,0,0,0,0,0,0,0,90,15.393,0,1,11.91,0,0,15.62,90,-0.1456,0.0002,-0.9893,15.39,90,0,0,0,0,0,0,3,0,0,0,69,0,0,0,90,1,0,0.018,0,0,3,0,0,0,11.5,-10.557,0,0,1,1,0,0,VALID,0,0,0,0,0,1,0,0,0,0,0,0,0,0,0,0,0,0,0,0,1234.81,1363.77,2,0,0.08,0.08,488,14.29,0.08,0.06,34.96,FLYING,X10-F,0:/Integrated Flight Computer/aircraft/x10_f_cfg.ks (inferred preloaded)
35.38,TAKEOFF,TO_CLIMB,204.38,80,-124.38,87.62,44.78,22.9,10.53,90.01,0.198,0.82,0,0,0,0,0,0,0,0,0,0,0,0,0,0,90,14.609,0,1,12.36,0,0,14.83,90,-0.132,0.0002,-0.9913,14.61,90,0,0,0,0,0,0,3,0,0,0,69,0,0,0,90,1,0,0.011,0,0,3,0,0,0,11.5,-10.557,0,0,1,1,0,0,VALID,0,0,0,0,0,1,0,0,0,0,0,0,0,0,0,0,0,0,0,0,1229.93,1370.74,2,0,0.08,0.08,492,14.29,0.08,0.06,35.24,FLYING,X10-F,0:/Integrated Flight Computer/aircraft/x10_f_cfg.ks (inferred preloaded)
35.66,TAKEOFF,TO_CLIMB,206.32,80,-126.32,100.08,46.6,21.38,8.61,90.01,0.201,0.82,0,0,0,0,0,0,0,0,0,0,0,0,0,0,90,13.825,0,1,12.73,0,0,14.05,90,-0.1183,0.0002,-0.993,13.83,90,0,0,0,0,0,0,3,0,0,0,69,0,0,0,90,1,0,0.008,0,0,3,0,0,0,11.5,-10.557,0,0,1,1,0,0,VALID,0,0,0,0,0,1,0,0,0,0,0,0,0,0,0,0,0,0,0,0,1227.73,1379.55,2,0,0.08,0.08,496,14.29,0.08,0.06,35.52,FLYING,X10-F,0:/Integrated Flight Computer/aircraft/x10_f_cfg.ks (inferred preloaded)
35.94,TAKEOFF,TO_CLIMB,208.5,80,-128.5,112.93,47.85,19.72,6.73,90,0.185,0.82,0,0,0,0,0,0,0,0,0,0,0,0,0,0,90,13.041,0,1,12.93,0,0,13.27,90,-0.1046,0.0002,-0.9945,13.04,90,0,0,0,0,0,0,3,0,0,0,69,0,0,0,90,1,0,0.003,0,0,3,0,0,0,11.5,-10.557,0,0,1,1,0,0,VALID,0,0,0,0,0,1,0,0,0,0,0,0,0,0,0,0,0,0,0,0,1227.46,1389.62,2,0,0.08,0.08,500,14.29,0.08,0.06,35.8,FLYING,X10-F,0:/Integrated Flight Computer/aircraft/x10_f_cfg.ks (inferred preloaded)
36.22,TAKEOFF,TO_CLIMB,210.9,80,-130.9,126.1,48.51,18.45,5.42,90,0.174,0.82,0,0,0,0,0,0,0,0,0,0,0,0,0,0,90,12.257,0,1,12.95,0,0,12.48,90,-0.0909,0.0002,-0.9959,12.26,90,0,0,0,0,0,0,3,0,0,0,69,0,0,0,90,1,0,-0.003,0,0,3,0,0,0,11.5,-10.557,0,0,1,1,0,0,VALID,0,0,0,0,0,1,0,0,0,0,0,0,0,0,0,0,0,0,0,0,1229.02,1400.92,2,0,0.08,0.08,504,14.29,0.08,0.06,36.08,FLYING,X10-F,0:/Integrated Flight Computer/aircraft/x10_f_cfg.ks (inferred preloaded)
36.5,TAKEOFF,TO_CLIMB,213.44,80,-133.44,139.39,48.72,17.08,4.1,90,0.209,0.82,0,0,0,0,0,0,0,0,0,0,0,0,0,0,90,11.473,0,1,12.86,0,0,11.7,90,-0.0771,0.0002,-0.997,11.47,90,0,0,0,0,0,0,3,0,0,0,69,0,0,0,90,1,0,-0.003,0,0,3,0,0,0,11.5,-10.557,0,0,1,1,0,0,VALID,0,0,0,0,0,1,0,0,0,0,0,0,0,0,0,0,0,0,0,0,1231.87,1412.93,2,0,0.08,0.08,508,14.29,0.08,0.06,36.36,FLYING,X10-F,0:/Integrated Flight Computer/aircraft/x10_f_cfg.ks (inferred preloaded)
36.78,TAKEOFF,TO_CLIMB,216.08,80,-136.08,152.87,48.73,16.42,3.6,90,0.214,0.82,0,0,0,0,0,0,0,0,0,0,0,0,0,0,90,10.689,0,1,12.71,0,0,10.91,90,-0.0634,0.0001,-0.998,10.69,90,0,0,0,0,0,0,3,0,0,0,69,0,0,0,90,1,0,-0.002,0,0,3,0,0,0,11.5,-10.557,0,0,1,1,0,0,VALID,0,0,0,0,0,1,0,0,0,0,0,0,0,0,0,0,0,0,0,0,1235.93,1425.63,2,0,0.08,0.08,512,14.29,0.08,0.06,36.64,FLYING,X10-F,0:/Integrated Flight Computer/aircraft/x10_f_cfg.ks (inferred preloaded)
37.06,TAKEOFF,TO_CLIMB,218.76,80,-138.76,166.19,48.7,15.16,2.51,90,0.219,0.82,0,0,0,0,0,0,0,0,0,0,0,0,0,0,90,9.905,0,1,12.55,0,0,10.13,90,-0.0496,0.0001,-0.9988,9.91,90,0,0,0,0,0,0,3,0,0,0,69,0,0,0,90,1,0,-0.004,0,0,3,0,0,0,11.5,-10.557,0,0,1,1,0,0,VALID,0,0,0,0,0,1,0,0,0,0,0,0,0,0,0,0,0,0,0,0,1240.76,1438.61,2,0,0.08,0.08,516,14.29,0.08,0.06,36.92,FLYING,X10-F,0:/Integrated Flight Computer/aircraft/x10_f_cfg.ks (inferred preloaded)
37.34,TAKEOFF,TO_CLIMB,221.55,80,-141.55,179.44,48.05,13.97,1.62,89.99,0.239,0.82,0,0,0,0,0,0,0,0,0,0,0,0,0,0,90,9.121,0,1,12.24,0,0,9.35,90,-0.0359,0.0001,-0.9994,9.12,90,0,0,0,0,0,0,3,0,0,0,69,0,0,0,90,1,0,-0.005,0,0,3,0,0,0,11.5,-10.557,0,0,1,1,0,0,VALID,0,0,0,0,0,1,0,0,0,0,0,0,0,0,0,0,0,0,0,0,1246.64,1452.24,2,0,0.08,0.08,520,14.29,0.08,0.06,37.2,FLYING,X10-F,0:/Integrated Flight Computer/aircraft/x10_f_cfg.ks (inferred preloaded)
37.62,TAKEOFF,TO_CLIMB,224.39,80,-144.39,192.53,47.3,13.25,1.26,89.99,0.242,0.82,0,0,0,0,0,0,0,0,0,0,0,0,0,0,90,8.337,0,1,11.9,0,0,8.56,90,-0.0221,0.0001,-0.9998,8.34,90,0,0,0,0,0,0,3,0,0,0,69,0,0,0,90,1,0,-0.005,0,0,3,0,0,0,11.5,-10.557,0,0,1,1,0,0,VALID,0,0,0,0,0,1,0,0,0,0,0,0,0,0,0,0,0,0,0,0,1253.35,1466.31,2,0,0.08,0.08,524,14.29,0.08,0.06,37.48,FLYING,X10-F,0:/Integrated Flight Computer/aircraft/x10_f_cfg.ks (inferred preloaded)
37.9,TAKEOFF,TO_CLIMB,227.29,80,-147.29,205.33,46.57,11.84,0.21,89.99,0.302,0.82,0,0,0,0,0,0,0,0,0,0,0,0,0,0,90,7.553,0,1,11.58,0,0,7.78,90,-0.0083,0.0001,-1,7.55,90,0,0,0,0,0,0,3,0,0,0,69,0,0,0,90,1,0,-0.008,0,0,3,0,0,0,11.5,-10.557,0,0,1,1,0,0,VALID,0,0,0,0,0,1,0,0,0,0,0,0,0,0,0,0,0,0,0,0,1260.76,1480.73,2,0,0.08,0.08,528,14.29,0.08,0.06,37.76,FLYING,X10-F,0:/Integrated Flight Computer/aircraft/x10_f_cfg.ks (inferred preloaded)
38.18,TAKEOFF,TO_CLIMB,230.26,80,-150.26,217.71,44.85,10.57,-0.52,89.99,0.447,0.82,0,0,0,0,0,0,0,0,0,0,0,0,0,0,90,7,0,1,11.02,0,0,7,90,0.0015,0.0001,-1,7,90,0,0,0,0,0,0,3,0,0,0,69,0,0,0,90,1,0,-0.01,0,0,3,0,0,0,11.5,-10.557,0,0,1,1,0,0,VALID,0,0,0,0,0,1,0,0,0,0,0,0,0,0,0,0,0,0,0,0,1268.98,1495.69,2,0,0.08,0.08,532,14.29,0.08,0.06,38.04,FLYING,X10-F,0:/Integrated Flight Computer/aircraft/x10_f_cfg.ks (inferred preloaded)
38.46,TAKEOFF,TO_CLIMB,233.32,80,-153.32,229.75,43.08,9.64,-0.91,89.99,0.591,0.82,0,0,0,0,0,0,0,0,0,0,0,0,0,0,90,7,0,1,10.46,0,0,7,90,0.0016,0.0001,-1,7,90,0,0,0,0,0,0,3,0,0,0,69,0,0,0,90,1,0,-0.013,0,0,3,0,0,0,11.5,-10.557,0,0,1,1,0,0,VALID,0,0,0,0,0,1,0,0,0,0,0,0,0,0,0,0,0,0,0,0,1278.07,1511.27,2,0,0.08,0.08,536,14.29,0.08,0.06,38.32,FLYING,X10-F,0:/Integrated Flight Computer/aircraft/x10_f_cfg.ks (inferred preloaded)
38.74,TAKEOFF,TO_CLIMB,236.4,80,-156.4,241.46,41.46,9.47,-0.52,89.99,0.597,0.82,0,0,0,0,0,0,0,0,0,0,0,0,0,0,90,7,0,1,9.95,0,0,7,90,0.0017,0.0001,-1,7,90,0,0,0,0,0,0,3,0,0,0,69,0,0,0,90,1,0,-0.008,0,0,3,0,0,0,11.5,-10.557,0,0,1,1,0,0,VALID,0,0,0,0,0,1,0,0,0,0,0,0,0,0,0,0,0,0,0,0,1287.73,1527.15,2,0,0.08,0.08,540,14.29,0.08,0.06,38.6,FLYING,X10-F,0:/Integrated Flight Computer/aircraft/x10_f_cfg.ks (inferred preloaded)
39.02,TAKEOFF,TO_CLIMB,239.57,80,-159.57,252.67,39.39,9.05,-0.41,89.99,0.463,0.82,0,0,0,0,0,0,0,0,0,0,0,0,0,0,90,7,0,1,9.34,0,0,7,90,0.0018,0.0001,-1,7,90,0,0,0,0,0,0,3,0,0,0,69,0,0,0,90,1,0,-0.006,0,0,3,0,0,0,11.5,-10.557,0,0,1,1,0,0,VALID,0,0,0,0,0,1,0,0,0,0,0,0,0,0,0,0,0,0,0,0,1298.12,1543.59,2,0,0.08,0.08,544,14.29,0.08,0.06,38.88,FLYING,X10-F,0:/Integrated Flight Computer/aircraft/x10_f_cfg.ks (inferred preloaded)
39.3,TAKEOFF,TO_CLIMB,242.8,80,-162.8,263.53,38.17,9.34,0.32,90,0.287,0.82,0,0,0,0,0,0,0,0,0,0,0,0,0,0,90,7,0,1,8.93,0,0,7,90,0.0019,0.0001,-1,7,90,0,0,0,0,0,0,3,0,0,0,69,0,0,0,90,1,0,0,0,0,3,0,0,0,11.5,-10.557,0,0,1,1,0,0,VALID,0,0,0,0,0,1,0,0,0,0,0,0,0,0,0,0,0,0,0,0,1309.2,1560.55,2,0,0.08,0.08,548,14.29,0.08,0.06,39.16,FLYING,X10-F,0:/Integrated Flight Computer/aircraft/x10_f_cfg.ks (inferred preloaded)
39.58,TAKEOFF,TO_CLIMB,246.13,80,-166.13,274.07,37,9.51,0.87,90,0.136,0.82,0,0,0,0,0,0,0,0,0,0,0,0,0,0,90,7,0,1,8.55,0,0,7,90,0.002,0.0001,-1,7,90,0,0,0,0,0,0,3,0,0,0,69,0,0,0,90,1,0,0.002,0,0,3,0,0,0,11.5,-10.557,0,0,1,1,0,0,VALID,0,0,0,0,0,1,0,0,0,0,0,0,0,0,0,0,0,0,0,0,1321.04,1578.14,2,0,0.08,0.08,552,14.29,0.08,0.06,39.44,FLYING,X10-F,0:/Integrated Flight Computer/aircraft/x10_f_cfg.ks (inferred preloaded)
39.86,TAKEOFF,TO_CLIMB,249.5,80,-169.5,284.29,36.16,9.72,1.39,90,0.03,0.82,0,0,0,0,0,0,0,0,0,0,0,0,0,0,90,7,0,1,8.25,0,0,7,90,0.0021,0.0001,-1,7,90,0,0,0,0,0,0,3,0,0,0,69,0,0,0,90,1,0,0.002,0,0,3,0,0,0,11.5,-10.557,0,0,1,1,0,0,VALID,0,0,0,0,0,1,0,0,0,0,0,0,0,0,0,0,0,0,0,0,1333.45,1596.15,2,0,0.08,0.08,556,14.29,0.08,0.06,39.72,FLYING,X10-F,0:/Integrated Flight Computer/aircraft/x10_f_cfg.ks (inferred preloaded)
40.14,TAKEOFF,TO_CLIMB,252.92,80,-172.92,294.3,35.6,9.87,1.79,90,-0.021,0.82,0,0,0,0,0,0,0,0,0,0,0,0,0,0,90,7,0,1,8.01,0,0,7,90,0.0022,0.0001,-1,7,90,0,0,0,0,0,0,3,0,0,0,69,0,0,0,90,1,0,0.001,0,0,3,0,0,0,11.5,-10.557,0,0,0,0,0,0,VALID,0,0,0,0,0,1,0,0,0,0,0,0,0,0,0,0,0,0,0,0,1346.35,1614.51,2,0,0.08,0.08,560,14.29,0.08,0.06,40.02,FLYING,X10-F,0:/Integrated Flight Computer/aircraft/x10_f_cfg.ks (inferred preloaded)
