t_s,phase,subphase,ias_ms,vapp_ms,spd_err_ms,agl_m,vs_ms,pitch_deg,aoa_deg,hdg_deg,bank_deg,thr_cmd,thr_cur,thr_intg,at_gain,at_tau_s,at_a_up,at_a_dn,at_kp_thr,at_ki_spd,at_thr_slew,aa_hdg_cmd_deg,aa_fpa_cmd_deg,aa_fbw,aa_dir,actual_fpa_deg,ftf_hdg_err_deg,ftf_fix_idx,kos_steer_pit_deg,kos_steer_hdg_deg,aa_dir_vx,aa_dir_vy,aa_dir_vz,aa_dir_pitch_deg,aa_dir_hdg_deg,ils_loc_m,ils_gs_m,ils_dist_km,loc_corr_deg,gs_corr_deg,flare_fpa_cmd,flare_tgt_vs,flare_frac,steer_hdg_deg,steer_blend,ro_loc_corr_deg,ro_hdg_err_deg,ro_yaw_tgt,ro_yaw_scale,ro_yaw_gate,yaw_cmd,roll_cmd,pitch_cmd,ro_pitch_tgt_deg,ro_pitch_err_deg,ro_pitch_ff,ro_roll_assist,flaps_cur,flaps_tgt,asc_j_ab,asc_j_rk,asc_validity,asc_q_pa,asc_q_raw_pa,asc_mach,asc_apo_m,asc_drag_n,asc_w_prop,asc_edot_aero,asc_edot_orb,asc_pitch_bias,asc_blend,asc_spooling,asc_ab_thr_ratio,asc_ab_t_now,asc_ab_t_avail,asc_ab_ign_on,asc_ab_flameouts,asc_rk_t_now,asc_rk_t_avail,asc_rk_ign_on,asc_rk_flameouts,ship_thrust,ship_avail_thrust,ship_ign_on,ship_flameouts,ifc_raw_dt_s,ifc_dt_s,ifc_loop_n,ifc_hz_est,ifc_raw_dt_max_s,ifc_raw_dt_min_s,phase_el_s,status,craft_name,cfg_file
0.12,APPROACH,FLY_TO_FIX,233.43,73.08,-160.35,1466.18,-11.03,-4.12,-1.57,89.93,-0.515,0,0,0,1,0.6,0.9,0.75,0.35,0.0168,0.4,179.93,0,1,0,-2.71,177.89,0,0,90,0,0,0,0,0,0,0,54.885,0,0,0,0,0,89.93,0,0,0,0,0,0,0,0,0,0,0,0,0,0,0,0,0,VALID,0,0,0,0,0,1,0,0,0,0,0,0,0,0,0,0,0,0,0,0,56.71,348.1,2,0,0.1,0.1,1,3.45,0.1,0.02,0.12,FLYING,CF1-F,0:/Integrated Flight Computer/aircraft/cf1_f_cfg.ks (inferred preloaded)
0.42,APPROACH,FLY_TO_FIX,233.55,73.32,-160.23,1462.91,-10.83,-4.05,-1.55,89.95,0.347,0,0,0,1,0.6,1.504,0.75,0.35,0.0168,0.4,179.95,0,0,0,-2.66,177.87,0,0,179.94,0,0,0,0,0,0,0,54.959,0,0,0,0,0,89.93,0,0,0,0,0,0,0,0,0,0,0,0,0,0,0,0,0,VALID,0,0,0,0,0,1,0,0,0,0,0,0,0,0,0,0,0,0,0,0,52.63,348.24,2,0,0.06,0.06,5,13.33,0.1,0.06,0.42,FLYING,CF1-F,0:/Integrated Flight Computer/aircraft/cf1_f_cfg.ks (inferred preloaded)
0.72,APPROACH,FLY_TO_FIX,233.51,73.56,-159.95,1459.71,-10.62,-4.02,-1.55,90.09,5.369,0,0,0,1,0.6,2.329,0.75,0.35,0.0168,0.4,180.09,0,0,0,-2.61,177.74,0,0,180.05,0,0,0,0,0,0,0,55.033,0,0,0,0,0,89.93,0,0,0,0,0,0,0,0,0,0,0,0,0,0,0,0,0,VALID,0,0,0,0,0,1,0,0,0,0,0,0,0,0,0,0,0,0,0,0,48.83,348.36,2,0,0.08,0.08,9,13.33,0.08,0.06,0.72,FLYING,CF1-F,0:/Integrated Flight Computer/aircraft/cf1_f_cfg.ks (inferred preloaded)
1,APPROACH,FLY_TO_FIX,233.33,73.78,-159.55,1456.76,-10.46,-4.05,-1.54,90.26,12.725,0,0,0,1,0.6,2.921,0.75,0.35,0.0168,0.4,180.26,0,0,0,-2.57,177.58,0,0,180.22,0,0,0,0,0,0,0,55.102,0,0,0,0,0,89.93,0,0,0,0,0,0,0,0,0,0,0,0,0,0,0,0,0,VALID,0,0,0,0,0,1,0,0,0,0,0,0,0,0,0,0,0,0,0,0,45.53,348.44,2,0,0.06,0.06,13,14.29,0.08,0.06,1,FLYING,CF1-F,0:/Integrated Flight Computer/aircraft/cf1_f_cfg.ks (inferred preloaded)
1.28,APPROACH,FLY_TO_FIX,233.1,74.01,-159.09,1453.84,-10.4,-4.12,-1.53,90.41,21.12,0,0,0,1,0.6,3.345,0.75,0.35,0.0168,0.4,180.41,0,0,0,-2.55,177.44,0,0,180.38,0,0,0,0,0,0,0,55.171,0,0,0,0,0,89.93,0,0,0,0,0,0,0,0,0,0,0,0,0,0,0,0,0,VALID,0,0,0,0,0,1,0,0,0,0,0,0,0,0,0,0,0,0,0,0,42.46,348.52,2,0,0.06,0.06,17,14.29,0.08,0.06,1.28,FLYING,CF1-F,0:/Integrated Flight Computer/aircraft/cf1_f_cfg.ks (inferred preloaded)
1.56,APPROACH,FLY_TO_FIX,232.84,74.23,-158.61,1450.93,-10.5,-4.21,-1.53,90.56,29.879,0,0,-9.436,1,0.6,3.649,0.75,0.35,0.0168,0.4,180.56,0,0,0,-2.58,177.3,0,0,180.52,0,0,0,0,0,0,0,55.24,0,0,0,0,0,89.93,0,0,0,0,0,0,0,0,0,0,0,0,0,0,0,0,0,VALID,0,0,0,0,0,1,0,0,0,0,0,0,0,0,0,0,0,0,0,0,39.59,348.59,2,0,0.06,0.06,21,14.29,0.08,0.06,1.56,FLYING,CF1-F,0:/Integrated Flight Computer/aircraft/cf1_f_cfg.ks (inferred preloaded)
1.84,APPROACH,FLY_TO_FIX,232.57,74.46,-158.11,1447.95,-10.86,-4.34,-1.54,90.71,38.741,0,0,-9.249,1,0.6,3.867,0.75,0.35,0.0168,0.4,180.71,0,0,0,-2.66,177.15,0,0,180.68,0,0,0,0,0,0,0,55.308,0,0,0,0,0,89.93,0,0,0,0,0,0,0,0,0,0,0,0,0,0,0,0,0,VALID,0,0,0,0,0,1,0,0,0,0,0,0,0,0,0,0,0,0,0,0,36.91,348.66,2,0,0.06,0.06,25,14.29,0.08,0.06,1.84,FLYING,CF1-F,0:/Integrated Flight Computer/aircraft/cf1_f_cfg.ks (inferred preloaded)
2.12,APPROACH,FLY_TO_FIX,232.3,74.68,-157.62,1445.12,-10.88,-3.17,0.17,92.23,47.576,0,0,-9.065,1,0.6,4.023,0.75,0.35,0.0168,0.4,182.23,0,0,0,-2.71,175.64,0,0,181.65,0,0,0,0,0,0,0,55.377,0,0,0,0,0,89.93,0,0,0,0,0,0,0,0,0,0,0,0,0,0,0,0,0,VALID,0,0,0,0,0,1,0,0,0,0,0,0,0,0,0,0,0,0,0,0,34.42,348.74,2,0,0.06,0.06,29,14.29,0.08,0.06,2.12,FLYING,CF1-F,0:/Integrated Flight Computer/aircraft/cf1_f_cfg.ks (inferred preloaded)
2.4,APPROACH,FLY_TO_FIX,231.83,74.9,-156.93,1442.67,-8.35,-2.03,1.17,94.37,56.262,0,0,-19.9,1,0.6,4.135,0.785,0.35,0.0168,0.4,184.37,0,0,0,-2.1,173.51,0,0,184.05,0,0,0,0,0,0,0,55.446,0,0,0,0,0,89.93,0,0,0,0,0,0,0,0,0,0,0,0,0,0,0,0,0,VALID,0,0,0,0,0,1,0,0,0,0,0,0,0,0,0,0,0,0,0,0,32.09,348.78,2,0,0.06,0.06,33,14.29,0.08,0.06,2.4,FLYING,CF1-F,0:/Integrated Flight Computer/aircraft/cf1_f_cfg.ks (inferred preloaded)
2.68,APPROACH,FLY_TO_FIX,231.38,75.13,-156.25,1440.7,-6.65,-1.6,1.37,96.22,62.94,0,0,-19.505,1,0.6,4.216,0.918,0.35,0.0168,0.4,186.22,0,0,0,-1.67,171.68,0,0,185.82,0,0,0,0,0,0,0,55.514,0,0,0,0,0,89.93,0,0,0,0,0,0,0,0,0,0,0,0,0,0,0,0,0,VALID,0,0,0,0,0,1,0,0,0,0,0,0,0,0,0,0,0,0,0,0,29.92,348.79,2,0,0.06,0.06,37,14.29,0.08,0.06,2.68,FLYING,CF1-F,0:/Integrated Flight Computer/aircraft/cf1_f_cfg.ks (inferred preloaded)
2.96,APPROACH,FLY_TO_FIX,230.97,75.35,-155.62,1439.08,-5.6,-1.31,1.39,98.06,67.167,0,0,-19.118,1,0.6,4.274,1.027,0.35,0.0168,0.4,188.06,0,0,0,-1.4,169.86,0,0,187.66,0,0,0,0,0,0,0,55.582,0,0,0,0,0,89.93,0,0,0,0,0,0,0,0,0,0,0,0,0,0,0,0,0,VALID,0,0,0,0,0,1,0,0,0,0,0,0,0,0,0,0,0,0,0,0,27.89,348.8,2,0,0.06,0.06,41,14.29,0.08,0.06,2.96,FLYING,CF1-F,0:/Integrated Flight Computer/aircraft/cf1_f_cfg.ks (inferred preloaded)
3.24,APPROACH,FLY_TO_FIX,230.58,75.58,-155.01,1437.67,-4.99,-1.03,1.37,99.9,68.735,0,0,-18.738,1,0.6,4.315,1.111,0.35,0.0168,0.4,189.9,0,0,0,-1.25,168.05,0,0,189.5,0,0,0,0,0,0,0,55.65,0,0,0,0,0,89.93,0,0,0,0,0,0,0,0,0,0,0,0,0,0,0,0,0,VALID,0,0,0,0,0,1,0,0,0,0,0,0,0,0,0,0,0,0,0,0,26,348.8,2,0,0.06,0.06,45,14.29,0.08,0.06,3.24,FLYING,CF1-F,0:/Integrated Flight Computer/aircraft/cf1_f_cfg.ks (inferred preloaded)
3.52,APPROACH,FLY_TO_FIX,230.19,75.8,-154.39,1436.39,-4.5,-0.78,1.34,101.73,69.344,0,0,-18.366,1,0.6,4.345,1.177,0.35,0.0168,0.4,191.73,0,0,0,-1.13,166.25,0,0,191.33,0,0,0,0,0,0,0,55.717,0,0,0,0,0,89.93,0,0,0,0,0,0,0,0,0,0,0,0,0,0,0,0,0,VALID,0,0,0,0,0,1,0,0,0,0,0,0,0,0,0,0,0,0,0,0,24.24,348.79,2,0,0.06,0.06,49,14.29,0.08,0.06,3.52,FLYING,CF1-F,0:/Integrated Flight Computer/aircraft/cf1_f_cfg.ks (inferred preloaded)
3.8,APPROACH,FLY_TO_FIX,229.8,76.02,-153.77,1435.22,-4.1,-0.6,1.34,103.61,69.786,0,0,-18.002,1,0.6,4.366,1.233,0.35,0.0168,0.4,193.61,0,0,0,-1.03,164.4,0,0,193.2,0,0,0,0,0,0,0,55.784,0,0,0,0,0,89.93,0,0,0,0,0,0,0,0,0,0,0,0,0,0,0,0,0,VALID,0,0,0,0,0,1,0,0,0,0,0,0,0,0,0,0,0,0,0,0,22.59,348.79,2,0,0.06,0.06,53,14.29,0.08,0.06,3.8,FLYING,CF1-F,0:/Integrated Flight Computer/aircraft/cf1_f_cfg.ks (inferred preloaded)
4.09,APPROACH,FLY_TO_FIX,229.39,76.26,-153.13,1434.09,-3.76,-0.49,1.33,105.55,70.104,0,0,-17.556,1,0.6,4.384,1.293,0.35,0.0168,0.4,195.55,0,0,0,-0.95,162.5,0,0,195.12,0,0,0,0,0,0,0,55.852,0,0,0,0,0,89.93,0,0,0,0,0,0,0,0,0,0,0,0,0,0,0,0,0,VALID,0,0,0,0,0,1,0,0,0,0,0,0,0,0,0,0,0,0,0,0,20.99,348.77,2,0,0.064,0.064,58,16.98,0.081,0.041,4.09,FLYING,CF1-F,0:/Integrated Flight Computer/aircraft/cf1_f_cfg.ks (inferred preloaded)
4.35,APPROACH,FLY_TO_FIX,229.04,76.46,-152.58,1433.17,-3.52,-0.42,1.32,107.28,70.294,0,0,-17.208,1,0.6,4.394,1.327,0.35,0.0168,0.4,197.28,0,0,0,-0.89,160.81,0,0,196.75,0,0,0,0,0,0,0,55.912,0,0,0,0,0,89.93,0,0,0,0,0,0,0,0,0,0,0,0,0,0,0,0,0,VALID,0,0,0,0,0,1,0,0,0,0,0,0,0,0,0,0,0,0,0,0,19.67,348.76,2,0,0.078,0.078,62,15.53,0.078,0.05,4.35,FLYING,CF1-F,0:/Integrated Flight Computer/aircraft/cf1_f_cfg.ks (inferred preloaded)
4.68,APPROACH,FLY_TO_FIX,228.57,76.72,-151.85,1432.08,-3.26,-0.35,1.32,109.48,70.463,0,0,-16.866,1,0.6,4.401,1.36,0.35,0.0168,0.4,199.48,0,0,0,-0.82,158.67,0,0,198.92,0,0,0,0,0,0,0,55.987,0,0,0,0,0,89.93,0,0,0,0,0,0,0,0,0,0,0,0,0,0,0,0,0,VALID,0,0,0,0,0,1,0,0,0,0,0,0,0,0,0,0,0,0,0,0,18.11,348.74,2,0,0.083,0.083,66,12.17,0.083,0.078,4.68,FLYING,CF1-F,0:/Integrated Flight Computer/aircraft/cf1_f_cfg.ks (inferred preloaded)
5.02,APPROACH,FLY_TO_FIX,228.09,76.99,-151.09,1431.02,-3.03,-0.29,1.33,111.78,70.59,0,0,-16.531,1,0.6,4.406,1.39,0.35,0.0168,0.4,201.78,0,0,0,-0.77,156.43,0,0,201.14,0,0,0,0,0,0,0,56.065,0,0,0,0,0,89.93,0,0,0,0,0,0,0,0,0,0,0,0,0,0,0,0,0,VALID,0,0,0,0,0,1,0,0,0,0,0,0,0,0,0,0,0,0,0,0,16.63,348.71,2,0,0.094,0.094,70,11.72,0.094,0.062,5.02,FLYING,CF1-F,0:/Integrated Flight Computer/aircraft/cf1_f_cfg.ks (inferred preloaded)
5.28,APPROACH,FLY_TO_FIX,227.7,77,-150.7,1430.26,-2.88,-0.23,1.37,113.56,70.673,0,0,-16.285,1,0.6,4.409,1.414,0.35,0.0168,0.4,203.56,0,0,0,-0.73,154.7,0,0,203.09,0,0,0,0,0,0,0,56.123,0,0,0,0,0,89.93,0,0,0,0,0,0,0,0,0,0,0,0,0,0,0,0,0,VALID,0,0,0,0,0,1,0,0,0,0,0,0,0,0,0,0,0,0,0,0,15.57,348.69,2,0,0.066,0.066,73,11.53,0.097,0.066,5.28,FLYING,CF1-F,0:/Integrated Flight Computer/aircraft/cf1_f_cfg.ks (inferred preloaded)
5.62,APPROACH,FLY_TO_FIX,227.18,77,-150.18,1429.33,-2.67,-0.18,1.37,115.89,70.799,0,0,-16.042,1,0.6,4.411,1.439,0.35,0.0168,0.4,205.89,0,0,0,-0.68,152.45,0,0,205.21,0,0,0,0,0,0,0,56.198,0,0,0,0,0,89.93,0,0,0,0,0,0,0,0,0,0,0,0,0,0,0,0,0,VALID,0,0,0,0,0,1,0,0,0,0,0,0,0,0,0,0,0,0,0,0,14.3,348.66,2,0,0.103,0.103,76,8.82,0.133,0.066,5.62,FLYING,CF1-F,0:/Integrated Flight Computer/aircraft/cf1_f_cfg.ks (inferred preloaded)
5.97,APPROACH,FLY_TO_FIX,226.63,77,-149.63,1428.44,-2.49,-0.12,1.42,118.32,70.936,0,0,-15.802,1,0.6,4.412,1.467,0.35,0.0168,0.4,208.32,0,0,0,-0.63,150.11,0,0,207.59,0,0,0,0,0,0,0,56.273,0,0,0,0,0,89.93,0,0,0,0,0,0,0,0,0,0,0,0,0,0,0,0,0,VALID,0,0,0,0,0,1,0,0,0,0,0,0,0,0,0,0,0,0,0,0,13.09,348.62,2,0,0.105,0.105,79,8.57,0.14,0.103,5.97,FLYING,CF1-F,0:/Integrated Flight Computer/aircraft/cf1_f_cfg.ks (inferred preloaded)
6.32,APPROACH,FLY_TO_FIX,226.05,77,-149.05,1427.62,-2.31,-0.07,1.45,120.77,71.04,0,0,-15.566,1,0.6,4.413,1.498,0.35,0.0168,0.4,210.77,0,0,0,-0.59,147.75,0,0,210.04,0,0,0,0,0,0,0,56.347,0,0,0,0,0,89.93,0,0,0,0,0,0,0,0,0,0,0,0,0,0,0,0,0,VALID,0,0,0,0,0,1,0,0,0,0,0,0,0,0,0,0,0,0,0,0,11.99,348.58,2,0,0.105,0.105,82,8.57,0.14,0.105,6.32,FLYING,CF1-F,0:/Integrated Flight Computer/aircraft/cf1_f_cfg.ks (inferred preloaded)
6.64,APPROACH,FLY_TO_FIX,225.52,77,-148.52,1426.92,-2.16,-0.02,1.5,122.99,71.139,0,0,-15.334,1,0.6,4.414,1.531,0.35,0.0168,0.4,212.99,0,0,0,-0.55,145.61,0,0,212.24,0,0,0,0,0,0,0,56.412,0,0,0,0,0,89.93,0,0,0,0,0,0,0,0,0,0,0,0,0,0,0,0,0,VALID,0,0,0,0,0,1,0,0,0,0,0,0,0,0,0,0,0,0,0,0,11.08,348.54,2,0,0.105,0.105,85,9.52,0.105,0.105,6.64,FLYING,CF1-F,0:/Integrated Flight Computer/aircraft/cf1_f_cfg.ks (inferred preloaded)
6.99,APPROACH,FLY_TO_FIX,224.92,77,-147.92,1426.2,-2,0.02,1.52,125.44,71.224,0,0,-15.105,1,0.6,4.414,1.565,0.35,0.0168,0.4,215.44,0,0,0,-0.52,143.26,0,0,214.7,0,0,0,0,0,0,0,56.483,0,0,0,0,0,89.93,0,0,0,0,0,0,0,0,0,0,0,0,0,0,0,0,0,VALID,0,0,0,0,0,1,0,0,0,0,0,0,0,0,0,0,0,0,0,0,10.14,348.49,2,0,0.105,0.105,88,8.57,0.14,0.105,6.99,FLYING,CF1-F,0:/Integrated Flight Computer/aircraft/cf1_f_cfg.ks (inferred preloaded)
7.3,APPROACH,FLY_TO_FIX,224.38,77,-147.38,1425.6,-1.89,0.05,1.52,127.64,71.259,0,0,-14.88,1,0.6,4.414,1.6,0.35,0.0168,0.4,217.64,0,0,0,-0.49,141.17,0,0,216.91,0,0,0,0,0,0,0,56.544,0,0,0,0,0,89.93,0,0,0,0,0,0,0,0,0,0,0,0,0,0,0,0,0,VALID,0,0,0,0,0,1,0,0,0,0,0,0,0,0,0,0,0,0,0,0,9.37,348.45,2,0,0.105,0.105,91,9.52,0.105,0.105,7.3,FLYING,CF1-F,0:/Integrated Flight Computer/aircraft/cf1_f_cfg.ks (inferred preloaded)
7.65,APPROACH,FLY_TO_FIX,223.77,77,-146.77,1424.96,-1.79,0.07,1.52,130.06,71.304,0,0,-14.658,1,0.6,4.414,1.633,0.35,0.0168,0.4,220.06,0,0,0,-0.46,138.85,0,0,219.34,0,0,0,0,0,0,0,56.61,0,0,0,0,0,89.93,0,0,0,0,0,0,0,0,0,0,0,0,0,0,0,0,0,VALID,0,0,0,0,0,1,0,0,0,0,0,0,0,0,0,0,0,0,0,0,8.58,348.4,2,0,0.105,0.105,94,8.57,0.14,0.105,7.65,FLYING,CF1-F,0:/Integrated Flight Computer/aircraft/cf1_f_cfg.ks (inferred preloaded)
7.97,APPROACH,FLY_TO_FIX,223.22,77,-146.22,1424.42,-1.72,0.1,1.57,132.28,71.343,0,0,-14.439,1,0.6,4.414,1.665,0.35,0.0168,0.4,222.28,0,0,0,-0.44,136.74,0,0,221.52,0,0,0,0,0,0,0,56.668,0,0,0,0,0,89.93,0,0,0,0,0,0,0,0,0,0,0,0,0,0,0,0,0,VALID,0,0,0,0,0,1,0,0,0,0,0,0,0,0,0,0,0,0,0,0,7.93,348.36,2,0,0.105,0.105,97,9.52,0.105,0.105,7.97,FLYING,CF1-F,0:/Integrated Flight Computer/aircraft/cf1_f_cfg.ks (inferred preloaded)
8.32,APPROACH,FLY_TO_FIX,222.6,77,-145.6,1423.84,-1.63,0.13,1.59,134.75,71.416,0,0,-14.223,1,0.6,4.414,1.694,0.35,0.0168,0.4,224.75,0,0,0,-0.42,134.39,0,0,224.02,0,0,0,0,0,0,0,56.729,0,0,0,0,0,89.93,0,0,0,0,0,0,0,0,0,0,0,0,0,0,0,0,0,VALID,0,0,0,0,0,1,0,0,0,0,0,0,0,0,0,0,0,0,0,0,7.26,348.31,2,0,0.105,0.105,100,8.57,0.14,0.105,8.32,FLYING,CF1-F,0:/Integrated Flight Computer/aircraft/cf1_f_cfg.ks (inferred preloaded)
8.63,APPROACH,FLY_TO_FIX,222.04,77,-145.04,1423.33,-1.58,0.14,1.59,136.94,71.422,0,0,-14.011,1,0.6,4.414,1.722,0.35,0.0168,0.4,226.94,0,0,0,-0.41,132.31,0,0,226.21,0,0,0,0,0,0,0,56.783,0,0,0,0,0,89.93,0,0,0,0,0,0,0,0,0,0,0,0,0,0,0,0,0,VALID,0,0,0,0,0,1,0,0,0,0,0,0,0,0,0,0,0,0,0,0,6.71,348.27,2,0,0.105,0.105,103,9.52,0.105,0.105,8.63,FLYING,CF1-F,0:/Integrated Flight Computer/aircraft/cf1_f_cfg.ks (inferred preloaded)
8.98,APPROACH,FLY_TO_FIX,221.41,77,-144.41,1422.79,-1.54,0.15,1.59,139.37,71.386,0,0,-13.802,1,0.6,4.414,1.748,0.35,0.0168,0.4,229.37,0,0,0,-0.4,130.01,0,0,228.64,0,0,0,0,0,0,0,56.839,0,0,0,0,0,89.93,0,0,0,0,0,0,0,0,0,0,0,0,0,0,0,0,0,VALID,0,0,0,0,0,1,0,0,0,0,0,0,0,0,0,0,0,0,0,0,6.14,348.22,2,0,0.105,0.105,106,8.57,0.14,0.105,8.98,FLYING,CF1-F,0:/Integrated Flight Computer/aircraft/cf1_f_cfg.ks (inferred preloaded)
9.33,APPROACH,FLY_TO_FIX,220.79,77,-143.79,1422.26,-1.51,0.17,1.6,141.8,71.327,0,0,-13.596,1,0.6,4.413,1.772,0.35,0.0168,0.4,231.8,0,0,0,-0.39,127.72,0,0,231.07,0,0,0,0,0,0,0,56.893,0,0,0,0,0,89.93,0,0,0,0,0,0,0,0,0,0,0,0,0,0,0,0,0,VALID,0,0,0,0,0,1,0,0,0,0,0,0,0,0,0,0,0,0,0,0,5.62,348.17,2,0,0.105,0.105,109,8.57,0.14,0.105,9.33,FLYING,CF1-F,0:/Integrated Flight Computer/aircraft/cf1_f_cfg.ks (inferred preloaded)
9.68,APPROACH,FLY_TO_FIX,220.17,77,-143.17,1421.74,-1.48,0.18,1.62,144.24,71.271,0,0,-13.393,1,0.6,4.413,1.793,0.35,0.0168,0.4,234.24,0,0,0,-0.39,125.42,0,0,233.51,0,0,0,0,0,0,0,56.944,0,0,0,0,0,89.93,0,0,0,0,0,0,0,0,0,0,0,0,0,0,0,0,0,VALID,0,0,0,0,0,1,0,0,0,0,0,0,0,0,0,0,0,0,0,0,5.15,348.13,2,0,0.105,0.105,112,8.57,0.14,0.105,9.68,FLYING,CF1-F,0:/Integrated Flight Computer/aircraft/cf1_f_cfg.ks (inferred preloaded)
10,APPROACH,FLY_TO_FIX,219.61,77,-142.61,1421.27,-1.46,0.19,1.63,146.42,71.222,0,0,-13.193,1,0.6,4.412,1.812,0.35,0.0168,0.4,236.42,0,0,0,-0.38,123.36,0,0,235.69,0,0,0,0,0,0,0,56.988,0,0,0,0,0,89.93,0,0,0,0,0,0,0,0,0,0,0,0,0,0,0,0,0,VALID,0,0,0,0,0,1,0,0,0,0,0,0,0,0,0,0,0,0,0,0,4.76,348.09,2,0,0.105,0.105,115,9.52,0.105,0.105,10,FLYING,CF1-F,0:/Integrated Flight Computer/aircraft/cf1_f_cfg.ks (inferred preloaded)
10.35,APPROACH,FLY_TO_FIX,218.98,77,-141.98,1420.76,-1.44,0.2,1.63,148.83,71.139,0,0,-12.996,1,0.6,4.412,1.829,0.35,0.0168,0.4,238.83,0,0,0,-0.38,121.1,0,0,238.11,0,0,0,0,0,0,0,57.034,0,0,0,0,0,89.93,0,0,0,0,0,0,0,0,0,0,0,0,0,0,0,0,0,VALID,0,0,0,0,0,1,0,0,0,0,0,0,0,0,0,0,0,0,0,0,4.36,348.05,2,0,0.105,0.105,118,8.57,0.14,0.105,10.35,FLYING,CF1-F,0:/Integrated Flight Computer/aircraft/cf1_f_cfg.ks (inferred preloaded)
10.66,APPROACH,FLY_TO_FIX,218.42,77,-141.42,1420.31,-1.44,0.2,1.63,150.99,71.053,0,0,-12.802,1,0.6,4.411,1.844,0.35,0.0168,0.4,240.99,0,0,0,-0.38,119.06,0,0,240.27,0,0,0,0,0,0,0,57.072,0,0,0,0,0,89.93,0,0,0,0,0,0,0,0,0,0,0,0,0,0,0,0,0,VALID,0,0,0,0,0,1,0,0,0,0,0,0,0,0,0,0,0,0,0,0,4.03,348.01,2,0,0.105,0.105,121,9.52,0.105,0.105,10.66,FLYING,CF1-F,0:/Integrated Flight Computer/aircraft/cf1_f_cfg.ks (inferred preloaded)
11.01,APPROACH,FLY_TO_FIX,217.8,77,-140.8,1419.81,-1.42,0.22,1.66,153.41,70.97,0,0,-12.611,1,0.6,4.411,1.857,0.35,0.0168,0.4,243.41,0,0,0,-0.37,116.8,0,0,242.68,0,0,0,0,0,0,0,57.112,0,0,0,0,0,89.93,0,0,0,0,0,0,0,0,0,0,0,0,0,0,0,0,0,VALID,0,0,0,0,0,1,0,0,0,0,0,0,0,0,0,0,0,0,0,0,3.69,347.97,2,0,0.105,0.105,124,8.57,0.14,0.105,11.01,FLYING,CF1-F,0:/Integrated Flight Computer/aircraft/cf1_f_cfg.ks (inferred preloaded)
11.33,APPROACH,FLY_TO_FIX,217.24,77,-140.24,1419.37,-1.41,0.22,1.67,155.57,70.906,0,0,-12.423,1,0.6,4.41,1.869,0.35,0.0168,0.4,245.57,0,0,0,-0.37,114.77,0,0,244.85,0,0,0,0,0,0,0,57.146,0,0,0,0,0,89.93,0,0,0,0,0,0,0,0,0,0,0,0,0,0,0,0,0,VALID,0,0,0,0,0,1,0,0,0,0,0,0,0,0,0,0,0,0,0,0,3.41,347.94,2,0,0.105,0.105,127,9.52,0.105,0.105,11.33,FLYING,CF1-F,0:/Integrated Flight Computer/aircraft/cf1_f_cfg.ks (inferred preloaded)
11.68,APPROACH,FLY_TO_FIX,216.62,77,-139.62,1418.87,-1.4,0.23,1.67,157.96,70.819,0,0,-12.237,1,0.6,4.41,1.879,0.35,0.0168,0.4,247.96,0,0,0,-0.37,112.53,0,0,247.25,0,0,0,0,0,0,0,57.18,0,0,0,0,0,89.93,0,0,0,0,0,0,0,0,0,0,0,0,0,0,0,0,0,VALID,0,0,0,0,0,1,0,0,0,0,0,0,0,0,0,0,0,0,0,0,3.12,347.9,2,0,0.105,0.105,130,8.57,0.14,0.105,11.68,FLYING,CF1-F,0:/Integrated Flight Computer/aircraft/cf1_f_cfg.ks (inferred preloaded)
11.99,APPROACH,FLY_TO_FIX,216.06,77,-139.06,1418.43,-1.4,0.23,1.68,160.12,70.735,0,0,-12.055,1,0.6,4.409,1.888,0.35,0.0168,0.4,250.12,0,0,0,-0.37,110.52,0,0,249.4,0,0,0,0,0,0,0,57.208,0,0,0,0,0,89.93,0,0,0,0,0,0,0,0,0,0,0,0,0,0,0,0,0,VALID,0,0,0,0,0,1,0,0,0,0,0,0,0,0,0,0,0,0,0,0,2.88,347.87,2,0,0.105,0.105,133,9.52,0.105,0.105,11.99,FLYING,CF1-F,0:/Integrated Flight Computer/aircraft/cf1_f_cfg.ks (inferred preloaded)
12.34,APPROACH,FLY_TO_FIX,215.44,77,-138.44,1417.95,-1.38,0.24,1.7,162.52,70.656,0,0,-11.875,1,0.6,4.409,1.895,0.35,0.0168,0.4,252.52,0,0,0,-0.37,108.27,0,0,251.8,0,0,0,0,0,0,0,57.236,0,0,0,0,0,89.93,0,0,0,0,0,0,0,0,0,0,0,0,0,0,0,0,0,VALID,0,0,0,0,0,1,0,0,0,0,0,0,0,0,0,0,0,0,0,0,2.64,347.84,2,0,0.105,0.105,136,8.57,0.14,0.105,12.34,FLYING,CF1-F,0:/Integrated Flight Computer/aircraft/cf1_f_cfg.ks (inferred preloaded)
12.69,APPROACH,FLY_TO_FIX,214.82,77,-137.82,1417.47,-1.37,0.25,1.7,164.9,70.575,0,0,-11.698,1,0.6,4.409,1.902,0.35,0.0168,0.4,254.9,0,0,0,-0.37,106.05,0,0,254.19,0,0,0,0,0,0,0,57.261,0,0,0,0,0,89.93,0,0,0,0,0,0,0,0,0,0,0,0,0,0,0,0,0,VALID,0,0,0,0,0,1,0,0,0,0,0,0,0,0,0,0,0,0,0,0,2.42,347.8,2,0,0.105,0.105,139,8.57,0.14,0.105,12.69,FLYING,CF1-F,0:/Integrated Flight Computer/aircraft/cf1_f_cfg.ks (inferred preloaded)
13.04,APPROACH,FLY_TO_FIX,214.2,77,-137.2,1416.98,-1.38,0.24,1.69,167.26,70.456,0,0,-11.523,1,0.6,4.408,1.907,0.35,0.0168,0.4,257.26,0,0,0,-0.37,103.86,0,0,256.55,0,0,0,0,0,0,0,57.283,0,0,0,0,0,89.93,0,0,0,0,0,0,0,0,0,0,0,0,0,0,0,0,0,VALID,0,0,0,0,0,1,0,0,0,0,0,0,0,0,0,0,0,0,0,0,2.21,347.77,2,0,0.105,0.105,142,8.57,0.14,0.105,13.04,FLYING,CF1-F,0:/Integrated Flight Computer/aircraft/cf1_f_cfg.ks (inferred preloaded)
13.36,APPROACH,FLY_TO_FIX,213.65,77,-136.65,1416.55,-1.38,0.26,1.72,169.41,70.364,0,0,-11.351,1,0.6,4.408,1.91,0.35,0.0168,0.4,259.41,0,0,0,-0.37,101.85,0,0,258.69,0,0,0,0,0,0,0,57.3,0,0,0,0,0,89.93,0,0,0,0,0,0,0,0,0,0,0,0,0,0,0,0,0,VALID,0,0,0,0,0,1,0,0,0,0,0,0,0,0,0,0,0,0,0,0,2.04,347.75,2,0,0.105,0.105,145,9.52,0.105,0.105,13.36,FLYING,CF1-F,0:/Integrated Flight Computer/aircraft/cf1_f_cfg.ks (inferred preloaded)
13.71,APPROACH,FLY_TO_FIX,213.03,77,-136.03,1416.06,-1.38,0.26,1.71,171.76,70.261,0,0,-11.182,1,0.6,4.407,1.913,0.35,0.0168,0.4,261.76,0,0,0,-0.37,99.66,0,0,261.05,0,0,0,0,0,0,0,57.315,0,0,0,0,0,89.93,0,0,0,0,0,0,0,0,0,0,0,0,0,0,0,0,0,VALID,0,0,0,0,0,1,0,0,0,0,0,0,0,0,0,0,0,0,0,0,1.87,347.72,2,0,0.105,0.105,148,8.57,0.14,0.105,13.71,FLYING,CF1-F,0:/Integrated Flight Computer/aircraft/cf1_f_cfg.ks (inferred preloaded)
14.02,APPROACH,FLY_TO_FIX,212.49,77,-135.49,1415.63,-1.39,0.25,1.71,173.86,70.146,0,0,-11.015,1,0.6,4.407,1.915,0.35,0.0168,0.4,263.86,0,0,0,-0.37,97.71,0,0,263.16,0,0,0,0,0,0,0,57.326,0,0,0,0,0,89.93,0,0,0,0,0,0,0,0,0,0,0,0,0,0,0,0,0,VALID,0,0,0,0,0,1,0,0,0,0,0,0,0,0,0,0,0,0,0,0,1.73,347.7,2,0,0.105,0.105,151,9.52,0.105,0.105,14.02,FLYING,CF1-F,0:/Integrated Flight Computer/aircraft/cf1_f_cfg.ks (inferred preloaded)
14.37,APPROACH,FLY_TO_FIX,211.88,77,-134.88,1415.14,-1.39,0.27,1.74,176.22,70.031,0,0,-10.85,1,0.6,4.407,1.915,0.35,0.0168,0.4,266.22,0,0,0,-0.38,95.51,0,0,265.52,0,0,0,0,0,0,0,57.336,0,0,0,0,0,89.93,0,0,0,0,0,0,0,0,0,0,0,0,0,0,0,0,0,VALID,0,0,0,0,0,1,0,0,0,0,0,0,0,0,0,0,0,0,0,0,1.58,347.67,2,0,0.105,0.105,154,8.57,0.14,0.105,14.37,FLYING,CF1-F,0:/Integrated Flight Computer/aircraft/cf1_f_cfg.ks (inferred preloaded)
14.69,APPROACH,FLY_TO_FIX,211.33,77,-134.33,1414.71,-1.38,0.27,1.75,178.34,69.951,0,0,-10.688,1,0.6,4.406,1.914,0.35,0.0168,0.4,268.34,0,0,0,-0.37,93.54,0,0,267.64,0,0,0,0,0,0,0,57.342,0,0,0,0,0,89.93,0,0,0,0,0,0,0,0,0,0,0,0,0,0,0,0,0,VALID,0,0,0,0,0,1,0,0,0,0,0,0,0,0,0,0,0,0,0,0,1.46,347.65,2,0,0.105,0.105,157,9.52,0.105,0.105,14.69,FLYING,CF1-F,0:/Integrated Flight Computer/aircraft/cf1_f_cfg.ks (inferred preloaded)
15.04,APPROACH,FLY_TO_FIX,210.73,77,-133.73,1414.22,-1.38,0.27,1.74,180.67,69.853,0,0,-10.529,1,0.6,4.406,1.914,0.35,0.0168,0.4,270.67,0,0,0,-0.37,91.38,0,0,269.98,0,0,0,0,0,0,0,57.345,0,0,0,0,0,89.93,0,0,0,0,0,0,0,0,0,0,0,0,0,0,0,0,0,VALID,0,0,0,0,0,1,0,0,0,0,0,0,0,0,0,0,0,0,0,0,1.34,347.63,2,0,0.105,0.105,160,8.57,0.14,0.105,15.04,FLYING,CF1-F,0:/Integrated Flight Computer/aircraft/cf1_f_cfg.ks (inferred preloaded)
15.35,APPROACH,FLY_TO_FIX,210.19,77,-133.19,1413.78,-1.39,0.26,1.73,182.74,69.727,0,0,-10.372,1,0.6,4.406,1.912,0.35,0.0168,0.4,272.19,0,0,0,-0.38,89.46,0,0,272.05,0,0,0,0,0,0,0,57.345,0,0,0,0,0,89.93,0,0,0,0,0,0,0,0,0,0,0,0,0,0,0,0,0,VALID,0,0,0,0,0,1,0,0,0,0,0,0,0,0,0,0,0,0,0,0,1.24,347.62,2,0,0.105,0.105,163,9.52,0.105,0.105,15.35,FLYING,CF1-F,0:/Integrated Flight Computer/aircraft/cf1_f_cfg.ks (inferred preloaded)
15.7,APPROACH,FLY_TO_FIX,209.59,77,-132.59,1413.29,-1.4,0.28,1.76,185.08,69.586,0,0,-10.217,1,0.6,4.405,1.909,0.35,0.0168,0.4,272.36,0,0,0,-0.38,87.28,0,0,272.31,0,0,0,0,0,0,0,57.342,0,0,0,0,0,89.93,0,0,0,0,0,0,0,0,0,0,0,0,0,0,0,0,0,VALID,0,0,0,0,0,1,0,0,0,0,0,0,0,0,0,0,0,0,0,0,1.13,347.6,2,0,0.105,0.105,166,8.57,0.14,0.105,15.7,FLYING,CF1-F,0:/Integrated Flight Computer/aircraft/cf1_f_cfg.ks (inferred preloaded)
16.05,APPROACH,FLY_TO_FIX,209,77,-132,1412.8,-1.39,0.28,1.78,187.4,69.488,0,0,-10.064,1,0.6,4.405,1.906,0.35,0.0168,0.4,272.52,0,0,0,-0.38,85.12,0,0,272.47,0,0,0,0,0,0,0,57.336,0,0,0,0,0,89.93,0,0,0,0,0,0,0,0,0,0,0,0,0,0,0,0,0,VALID,0,0,0,0,0,1,0,0,0,0,0,0,0,0,0,0,0,0,0,0,1.04,347.58,2,0,0.105,0.105,169,8.57,0.14,0.105,16.05,FLYING,CF1-F,0:/Integrated Flight Computer/aircraft/cf1_f_cfg.ks (inferred preloaded)
16.44,APPROACH,FLY_TO_FIX,208.34,77,-131.34,1412.27,-1.38,0.3,1.81,189.98,69.419,0,0,-9.914,1,0.6,4.405,1.903,0.35,0.0168,0.4,272.7,0,0,0,-0.38,82.72,0,0,272.63,0,0,0,0,0,0,0,57.326,0,0,0,0,0,89.93,0,0,0,0,0,0,0,0,0,0,0,0,0,0,0,0,0,VALID,0,0,0,0,0,1,0,0,0,0,0,0,0,0,0,0,0,0,0,0,0.94,347.57,2,0,0.14,0.14,172,7.79,0.14,0.105,16.44,FLYING,CF1-F,0:/Integrated Flight Computer/aircraft/cf1_f_cfg.ks (inferred preloaded)
16.75,APPROACH,FLY_TO_FIX,207.8,77,-130.8,1411.84,-1.37,0.3,1.8,192.05,69.357,0,0,-9.766,1,0.6,4.405,1.9,0.35,0.0168,0.4,272.84,0,0,0,-0.38,80.79,0,0,272.8,0,0,0,0,0,0,0,57.315,0,0,0,0,0,89.93,0,0,0,0,0,0,0,0,0,0,0,0,0,0,0,0,0,VALID,0,0,0,0,0,1,0,0,0,0,0,0,0,0,0,0,0,0,0,0,0.87,347.56,2,0,0.105,0.105,175,9.52,0.14,0.105,16.75,FLYING,CF1-F,0:/Integrated Flight Computer/aircraft/cf1_f_cfg.ks (inferred preloaded)
17.1,APPROACH,FLY_TO_FIX,207.21,77,-130.21,1411.36,-1.38,0.29,1.78,194.33,69.233,0,0,-9.621,1,0.6,4.404,1.897,0.35,0.0168,0.4,273,0,0,0,-0.38,78.67,0,0,272.96,0,0,0,0,0,0,0,57.3,0,0,0,0,0,89.93,0,0,0,0,0,0,0,0,0,0,0,0,0,0,0,0,0,VALID,0,0,0,0,0,1,0,0,0,0,0,0,0,0,0,0,0,0,0,0,0.8,347.55,2,0,0.105,0.105,178,8.57,0.14,0.105,17.1,FLYING,CF1-F,0:/Integrated Flight Computer/aircraft/cf1_f_cfg.ks (inferred preloaded)
17.42,APPROACH,FLY_TO_FIX,206.68,77,-129.68,1410.92,-1.39,0.3,1.82,196.41,69.111,0,0,-9.477,1,0.6,4.404,1.893,0.35,0.0168,0.4,273.15,0,0,0,-0.38,76.73,0,0,273.1,0,0,0,0,0,0,0,57.284,0,0,0,0,0,89.93,0,0,0,0,0,0,0,0,0,0,0,0,0,0,0,0,0,VALID,0,0,0,0,0,1,0,0,0,0,0,0,0,0,0,0,0,0,0,0,0.74,347.54,2,0,0.105,0.105,181,9.52,0.105,0.105,17.42,FLYING,CF1-F,0:/Integrated Flight Computer/aircraft/cf1_f_cfg.ks (inferred preloaded)
17.77,APPROACH,FLY_TO_FIX,206.09,77,-129.09,1410.44,-1.38,0.31,1.83,198.71,69.007,0,0,-9.336,1,0.6,4.404,1.888,0.35,0.0168,0.4,273.31,0,0,0,-0.38,74.59,0,0,273.26,0,0,0,0,0,0,0,57.264,0,0,0,0,0,89.93,0,0,0,0,0,0,0,0,0,0,0,0,0,0,0,0,0,VALID,0,0,0,0,0,1,0,0,0,0,0,0,0,0,0,0,0,0,0,0,0.68,347.53,2,0,0.105,0.105,184,8.57,0.14,0.105,17.77,FLYING,CF1-F,0:/Integrated Flight Computer/aircraft/cf1_f_cfg.ks (inferred preloaded)
18.08,APPROACH,FLY_TO_FIX,205.57,77,-128.57,1410,-1.38,0.31,1.84,200.78,68.93,0,0,-9.196,1,0.6,4.404,1.883,0.35,0.0168,0.4,273.45,0,0,0,-0.38,72.67,0,0,273.4,0,0,0,0,0,0,0,57.243,0,0,0,0,0,89.93,0,0,0,0,0,0,0,0,0,0,0,0,0,0,0,0,0,VALID,0,0,0,0,0,1,0,0,0,0,0,0,0,0,0,0,0,0,0,0,0.62,347.52,2,0,0.105,0.105,187,9.52,0.105,0.105,18.08,FLYING,CF1-F,0:/Integrated Flight Computer/aircraft/cf1_f_cfg.ks (inferred preloaded)
18.43,APPROACH,FLY_TO_FIX,204.98,77,-127.98,1409.52,-1.38,0.31,1.82,203.04,68.818,0,0,-9.059,1,0.6,4.404,1.879,0.35,0.0168,0.4,273.6,0,0,0,-0.39,70.56,0,0,273.55,0,0,0,0,0,0,0,57.216,0,0,0,0,0,89.93,0,0,0,0,0,0,0,0,0,0,0,0,0,0,0,0,0,VALID,0,0,0,0,0,1,0,0,0,0,0,0,0,0,0,0,0,0,0,0,0.57,347.52,2,0,0.105,0.105,190,8.57,0.14,0.105,18.43,FLYING,CF1-F,0:/Integrated Flight Computer/aircraft/cf1_f_cfg.ks (inferred preloaded)
18.75,APPROACH,FLY_TO_FIX,204.46,77,-127.46,1409.08,-1.4,0.31,1.82,205.07,68.688,0,0,-8.924,1,0.6,4.404,1.873,0.35,0.0168,0.4,273.74,0,0,0,-0.39,68.67,0,0,273.69,0,0,0,0,0,0,0,57.191,0,0,0,0,0,89.93,0,0,0,0,0,0,0,0,0,0,0,0,0,0,0,0,0,VALID,0,0,0,0,0,1,0,0,0,0,0,0,0,0,0,0,0,0,0,0,0.53,347.52,2,0,0.105,0.105,193,9.52,0.105,0.105,18.75,FLYING,CF1-F,0:/Integrated Flight Computer/aircraft/cf1_f_cfg.ks (inferred preloaded)
19.1,APPROACH,FLY_TO_FIX,203.89,77,-126.89,1408.59,-1.41,0.32,1.85,207.35,68.546,0,0,-8.791,1,0.6,4.404,1.867,0.35,0.0168,0.4,273.89,0,0,0,-0.4,66.54,0,0,273.84,0,0,0,0,0,0,0,57.159,0,0,0,0,0,89.93,0,0,0,0,0,0,0,0,0,0,0,0,0,0,0,0,0,VALID,0,0,0,0,0,1,0,0,0,0,0,0,0,0,0,0,0,0,0,0,0.48,347.51,2,0,0.105,0.105,196,8.57,0.14,0.105,19.1,FLYING,CF1-F,0:/Integrated Flight Computer/aircraft/cf1_f_cfg.ks (inferred preloaded)
19.45,APPROACH,FLY_TO_FIX,203.31,77,-126.31,1408.1,-1.4,0.33,1.86,209.62,68.44,0,0,-8.659,1,0.6,4.403,1.861,0.35,0.0168,0.4,274.03,0,0,0,-0.39,64.42,0,0,273.99,0,0,0,0,0,0,0,57.125,0,0,0,0,0,89.93,0,0,0,0,0,0,0,0,0,0,0,0,0,0,0,0,0,VALID,0,0,0,0,0,1,0,0,0,0,0,0,0,0,0,0,0,0,0,0,0.44,347.51,2,0,0.105,0.105,199,8.57,0.14,0.105,19.45,FLYING,CF1-F,0:/Integrated Flight Computer/aircraft/cf1_f_cfg.ks (inferred preloaded)
19.8,APPROACH,FLY_TO_FIX,202.74,77,-125.74,1407.61,-1.39,0.34,1.88,211.89,68.359,0,0,-8.53,1,0.6,4.403,1.855,0.35,0.0168,0.4,274.18,0,0,0,-0.39,62.29,0,0,274.14,0,0,0,0,0,0,0,57.089,0,0,0,0,0,89.93,0,0,0,0,0,0,0,0,0,0,0,0,0,0,0,0,0,VALID,0,0,0,0,0,1,0,0,0,0,0,0,0,0,0,0,0,0,0,0,0.41,347.52,2,0,0.105,0.105,202,8.57,0.14,0.105,19.8,FLYING,CF1-F,0:/Integrated Flight Computer/aircraft/cf1_f_cfg.ks (inferred preloaded)
20.11,APPROACH,FLY_TO_FIX,202.23,77,-125.23,1407.17,-1.39,0.33,1.86,213.89,68.267,0,0,-8.403,1,0.6,4.403,1.849,0.35,0.0168,0.4,274.31,0,0,0,-0.39,60.42,0,0,274.27,0,0,0,0,0,0,0,57.054,0,0,0,0,0,89.93,0,0,0,0,0,0,0,0,0,0,0,0,0,0,0,0,0,VALID,0,0,0,0,0,1,0,0,0,0,0,0,0,0,0,0,0,0,0,0,0.37,347.52,2,0,0.105,0.105,205,9.52,0.105,0.105,20.11,FLYING,CF1-F,0:/Integrated Flight Computer/aircraft/cf1_f_cfg.ks (inferred preloaded)
20.46,APPROACH,FLY_TO_FIX,201.66,77,-124.66,1406.68,-1.41,0.33,1.86,216.12,68.127,0,0,-8.277,1,0.6,4.403,1.843,0.35,0.0168,0.4,274.45,0,0,0,-0.4,58.33,0,0,274.41,0,0,0,0,0,0,0,57.013,0,0,0,0,0,89.93,0,0,0,0,0,0,0,0,0,0,0,0,0,0,0,0,0,VALID,0,0,0,0,0,1,0,0,0,0,0,0,0,0,0,0,0,0,0,0,0.34,347.52,2,0,0.105,0.105,208,8.57,0.14,0.105,20.46,FLYING,CF1-F,0:/Integrated Flight Computer/aircraft/cf1_f_cfg.ks (inferred preloaded)
20.78,APPROACH,FLY_TO_FIX,201.16,77,-124.16,1406.23,-1.42,0.33,1.86,218.12,67.983,0,0,-8.154,1,0.6,4.403,1.836,0.35,0.0168,0.4,274.57,0,0,0,-0.4,56.45,0,0,274.53,0,0,0,0,0,0,0,56.974,0,0,0,0,0,89.93,0,0,0,0,0,0,0,0,0,0,0,0,0,0,0,0,0,VALID,0,0,0,0,0,1,0,0,0,0,0,0,0,0,0,0,0,0,0,0,0.32,347.53,2,0,0.105,0.105,211,9.52,0.105,0.105,20.78,FLYING,CF1-F,0:/Integrated Flight Computer/aircraft/cf1_f_cfg.ks (inferred preloaded)
21.13,APPROACH,FLY_TO_FIX,200.6,77,-123.6,1405.74,-1.42,0.35,1.9,220.37,67.85,0,0,-8.032,1,0.6,4.403,1.828,0.35,0.0168,0.4,274.7,0,0,0,-0.41,54.33,0,0,274.66,0,0,0,0,0,0,0,56.929,0,0,0,0,0,89.93,0,0,0,0,0,0,0,0,0,0,0,0,0,0,0,0,0,VALID,0,0,0,0,0,1,0,0,0,0,0,0,0,0,0,0,0,0,0,0,0.29,347.54,2,0,0.105,0.105,214,8.57,0.14,0.105,21.13,FLYING,CF1-F,0:/Integrated Flight Computer/aircraft/cf1_f_cfg.ks (inferred preloaded)
21.44,APPROACH,FLY_TO_FIX,200.09,77,-123.09,1405.29,-1.41,0.35,1.9,222.37,67.768,0,0,-7.912,1,0.6,4.403,1.82,0.35,0.0168,0.4,274.82,0,0,0,-0.4,52.45,0,0,274.78,0,0,0,0,0,0,0,56.886,0,0,0,0,0,89.93,0,0,0,0,0,0,0,0,0,0,0,0,0,0,0,0,0,VALID,0,0,0,0,0,1,0,0,0,0,0,0,0,0,0,0,0,0,0,0,0.27,347.54,2,0,0.105,0.105,217,9.52,0.105,0.105,21.44,FLYING,CF1-F,0:/Integrated Flight Computer/aircraft/cf1_f_cfg.ks (inferred preloaded)
21.79,APPROACH,FLY_TO_FIX,199.53,77,-122.53,1404.8,-1.42,0.35,1.89,224.58,67.662,0,0,-7.794,1,0.6,4.403,1.814,0.35,0.0168,0.4,274.95,0,0,0,-0.41,50.37,0,0,274.91,0,0,0,0,0,0,0,56.837,0,0,0,0,0,89.93,0,0,0,0,0,0,0,0,0,0,0,0,0,0,0,0,0,VALID,0,0,0,0,0,1,0,0,0,0,0,0,0,0,0,0,0,0,0,0,0.25,347.55,2,0,0.105,0.105,220,8.57,0.14,0.105,21.79,FLYING,CF1-F,0:/Integrated Flight Computer/aircraft/cf1_f_cfg.ks (inferred preloaded)
22.14,APPROACH,FLY_TO_FIX,198.98,77,-121.98,1404.3,-1.42,0.35,1.89,226.77,67.525,0,0,-7.678,1,0.6,4.404,1.806,0.35,0.0168,0.4,275.07,0,0,0,-0.41,48.3,0,0,275.04,0,0,0,0,0,0,0,56.785,0,0,0,0,0,89.93,0,0,0,0,0,0,0,0,0,0,0,0,0,0,0,0,0,VALID,0,0,0,0,0,1,0,0,0,0,0,0,0,0,0,0,0,0,0,0,0.23,347.57,2,0,0.105,0.105,223,8.57,0.14,0.105,22.14,FLYING,CF1-F,0:/Integrated Flight Computer/aircraft/cf1_f_cfg.ks (inferred preloaded)
22.49,APPROACH,FLY_TO_FIX,198.43,77,-121.43,1403.8,-1.42,0.37,1.93,229,67.4,0,0,-7.563,1,0.6,4.404,1.799,0.35,0.0168,0.4,275.19,0,0,0,-0.41,46.19,0,0,275.16,0,0,0,0,0,0,0,56.732,0,0,0,0,0,89.93,0,0,0,0,0,0,0,0,0,0,0,0,0,0,0,0,0,VALID,0,0,0,0,0,1,0,0,0,0,0,0,0,0,0,0,0,0,0,0,0.21,347.58,2,0,0.105,0.105,226,8.57,0.14,0.105,22.49,FLYING,CF1-F,0:/Integrated Flight Computer/aircraft/cf1_f_cfg.ks (inferred preloaded)
22.84,APPROACH,FLY_TO_FIX,197.88,77,-120.88,1403.31,-1.41,0.37,1.93,231.21,67.302,0,0,-7.45,1,0.6,4.404,1.791,0.35,0.0168,0.4,275.31,0.116,0,0,-0.41,44.1,0,0.12,275.27,0,0,0,0,0,0,0,56.677,0,0,0,0,0,89.93,0,0,0,0,0,0,0,0,0,0,0,0,0,0,0,0,0,VALID,0,0,0,0,0,1,0,0,0,0,0,0,0,0,0,0,0,0,0,0,0.19,347.59,2,0,0.105,0.105,229,8.57,0.14,0.105,22.84,FLYING,CF1-F,0:/Integrated Flight Computer/aircraft/cf1_f_cfg.ks (inferred preloaded)
23.19,APPROACH,FLY_TO_FIX,197.33,77,-120.33,1402.81,-1.4,0.37,1.92,233.38,67.107,0,0,-7.339,1,0.6,4.404,1.784,0.35,0.0168,0.4,275.42,0.116,0,0,-0.41,42.04,0,0.12,275.39,0,0,0,0,0,0,0,56.62,0,0,0,0,0,89.93,0,0,0,0,0,0,0,0,0,0,0,0,0,0,0,0,0,VALID,0,0,0,0,0,1,0,0,0,0,0,0,0,0,0,0,0,0,0,0,0.17,347.61,2,0,0.105,0.105,232,8.57,0.14,0.105,23.19,FLYING,CF1-F,0:/Integrated Flight Computer/aircraft/cf1_f_cfg.ks (inferred preloaded)
23.51,APPROACH,FLY_TO_FIX,196.84,77,-119.84,1402.38,-1.38,0.4,1.97,235.39,66.967,0,0,-7.23,1,0.6,4.404,1.777,0.35,0.0168,0.4,275.52,0.113,0,0,-0.4,40.13,0,0.12,275.48,0,0,0,0,0,0,0,56.567,0,0,0,0,0,89.93,0,0,0,0,0,0,0,0,0,0,0,0,0,0,0,0,0,VALID,0,0,0,0,0,1,0,0,0,0,0,0,0,0,0,0,0,0,0,0,0.16,347.63,2,0,0.105,0.105,235,9.52,0.105,0.105,23.51,FLYING,CF1-F,0:/Integrated Flight Computer/aircraft/cf1_f_cfg.ks (inferred preloaded)
23.86,APPROACH,FLY_TO_FIX,196.3,77,-119.3,1401.9,-1.34,0.41,1.96,237.56,66.858,0,0,-7.122,1,0.6,4.404,1.771,0.35,0.0168,0.4,275.62,0.104,0,0,-0.39,38.06,0,0.11,275.59,0,0,0,0,0,0,0,56.507,0,0,0,0,0,89.93,0,0,0,0,0,0,0,0,0,0,0,0,0,0,0,0,0,VALID,0,0,0,0,0,1,0,0,0,0,0,0,0,0,0,0,0,0,0,0,0.15,347.64,2,0,0.105,0.105,238,8.57,0.14,0.105,23.86,FLYING,CF1-F,0:/Integrated Flight Computer/aircraft/cf1_f_cfg.ks (inferred preloaded)
24.17,APPROACH,FLY_TO_FIX,195.81,77,-118.81,1401.48,-1.32,0.42,1.96,239.52,66.768,0,0,-7.015,1,0.6,4.404,1.765,0.35,0.0168,0.4,275.71,0.1,0,0,-0.39,36.19,0,0.1,275.68,0,0,0,0,0,0,0,56.452,0,0,0,0,0,89.93,0,0,0,0,0,0,0,0,0,0,0,0,0,0,0,0,0,VALID,0,0,0,0,0,1,0,0,0,0,0,0,0,0,0,0,0,0,0,0,0.14,347.66,2,0,0.105,0.105,241,9.52,0.105,0.105,24.17,FLYING,CF1-F,0:/Integrated Flight Computer/aircraft/cf1_f_cfg.ks (inferred preloaded)
24.52,APPROACH,FLY_TO_FIX,195.26,77,-118.26,1401.03,-1.3,0.43,1.96,241.69,66.656,0,0,-6.911,1,0.6,4.405,1.759,0.35,0.0168,0.4,275.8,0.096,0,0,-0.38,34.11,0,0.1,275.78,0,0,0,0,0,0,0,56.39,0,0,0,0,0,89.93,0,0,0,0,0,0,0,0,0,0,0,0,0,0,0,0,0,VALID,0,0,0,0,0,1,0,0,0,0,0,0,0,0,0,0,0,0,0,0,0.12,347.68,2,0,0.105,0.105,244,8.57,0.14,0.105,24.52,FLYING,CF1-F,0:/Integrated Flight Computer/aircraft/cf1_f_cfg.ks (inferred preloaded)
24.84,APPROACH,FLY_TO_FIX,194.78,77,-117.78,1400.62,-1.28,0.44,1.99,243.67,66.57,0,0,-6.808,1,0.6,4.405,1.752,0.35,0.0168,0.4,275.88,0.091,0,0,-0.38,32.22,0,0.1,275.86,0,0,0,0,0,0,0,56.333,0,0,0,0,0,89.93,0,0,0,0,0,0,0,0,0,0,0,0,0,0,0,0,0,VALID,0,0,0,0,0,1,0,0,0,0,0,0,0,0,0,0,0,0,0,0,0.11,347.7,2,0,0.105,0.105,247,9.52,0.105,0.105,24.84,FLYING,CF1-F,0:/Integrated Flight Computer/aircraft/cf1_f_cfg.ks (inferred preloaded)
25.19,APPROACH,FLY_TO_FIX,194.24,77,-117.24,1400.18,-1.25,0.45,2,245.84,66.503,0,0,-6.706,1,0.6,4.405,1.747,0.35,0.0168,0.4,275.97,0.084,0,0,-0.37,30.14,0,0.09,275.95,0,0,0,0,0,0,0,56.268,0,0,0,0,0,89.93,0,0,0,0,0,0,0,0,0,0,0,0,0,0,0,0,0,VALID,0,0,0,0,0,1,0,0,0,0,0,0,0,0,0,0,0,0,0,0,0.1,347.73,2,0,0.105,0.105,250,8.57,0.14,0.105,25.19,FLYING,CF1-F,0:/Integrated Flight Computer/aircraft/cf1_f_cfg.ks (inferred preloaded)
25.5,APPROACH,FLY_TO_FIX,193.75,77,-116.75,1399.79,-1.24,0.45,1.98,247.76,66.416,0,0,-6.606,1,0.6,4.405,1.741,0.35,0.0168,0.4,276.04,0.083,0,0,-0.37,28.29,0,0.08,276.02,0,0,0,0,0,0,0,56.209,0,0,0,0,0,89.93,0,0,0,0,0,0,0,0,0,0,0,0,0,0,0,0,0,VALID,0,0,0,0,0,1,0,0,0,0,0,0,0,0,0,0,0,0,0,0,0.1,347.75,2,0,0.105,0.105,253,9.52,0.105,0.105,25.5,FLYING,CF1-F,0:/Integrated Flight Computer/aircraft/cf1_f_cfg.ks (inferred preloaded)
25.85,APPROACH,FLY_TO_FIX,193.22,77,-116.22,1399.35,-1.22,0.43,1.9,249.84,66.263,0,0,-6.507,1,0.6,4.405,1.735,0.35,0.0168,0.4,276.12,0.079,0,0,-0.36,26.28,0,0.09,276.1,0,0,0,0,0,0,0,56.142,0,0,0,0,0,89.93,0,0,0,0,0,0,0,0,0,0,0,0,0,0,0,0,0,VALID,0,0,0,0,0,1,0,0,0,0,0,0,0,0,0,0,0,0,0,0,0.09,347.78,2,0,0.105,0.105,256,8.57,0.14,0.105,25.85,FLYING,CF1-F,0:/Integrated Flight Computer/aircraft/cf1_f_cfg.ks (inferred preloaded)
26.2,APPROACH,FLY_TO_FIX,192.71,77,-115.71,1398.86,-1.42,0.31,1.66,251.61,65.635,0,0,-6.41,1,0.6,4.406,1.726,0.35,0.0168,0.4,276.19,0.136,0,0,-0.42,24.58,0,0.12,276.17,0,0,0,0,0,0,0,56.075,0,0,0,0,0,89.93,0,0,0,0,0,0,0,0,0,0,0,0,0,0,0,0,0,VALID,0,0,0,0,0,1,0,0,0,0,0,0,0,0,0,0,0,0,0,0,0.08,347.81,2,0,0.105,0.105,259,8.57,0.14,0.105,26.2,FLYING,CF1-F,0:/Integrated Flight Computer/aircraft/cf1_f_cfg.ks (inferred preloaded)
26.55,APPROACH,FLY_TO_FIX,192.24,77,-115.24,1398.31,-1.6,0.25,1.42,253.29,63.98,0,0,-6.314,1,0.6,4.406,1.709,0.35,0.0168,0.4,276.26,0.192,0,0,-0.47,22.97,0,0.17,276.24,0,0,0,0,0,0,0,56.007,0,0,0,0,0,89.93,0,0,0,0,0,0,0,0,0,0,0,0,0,0,0,0,0,VALID,0,0,0,0,0,1,0,0,0,0,0,0,0,0,0,0,0,0,0,0,0.07,347.85,2,0,0.105,0.105,262,8.57,0.14,0.105,26.55,FLYING,CF1-F,0:/Integrated Flight Computer/aircraft/cf1_f_cfg.ks (inferred preloaded)
26.87,APPROACH,FLY_TO_FIX,191.83,77,-114.83,1397.78,-1.67,0.23,1.23,254.68,62.013,0,0,-6.22,1,0.6,4.406,1.688,0.35,0.0168,0.4,276.32,0.218,0,0,-0.49,21.63,0,0.21,276.3,0,0,0,0,0,0,0,55.945,0,0,0,0,0,89.93,0,0,0,0,0,0,0,0,0,0,0,0,0,0,0,0,0,VALID,0,0,0,0,0,1,0,0,0,0,0,0,0,0,0,0,0,0,0,0,0.07,347.89,2,0,0.105,0.105,265,9.52,0.105,0.105,26.87,FLYING,CF1-F,0:/Integrated Flight Computer/aircraft/cf1_f_cfg.ks (inferred preloaded)
27.22,APPROACH,FLY_TO_FIX,191.42,77,-114.42,1397.16,-1.75,0.19,1.04,256.15,59.774,0,0,-6.127,1,0.6,4.407,1.657,0.35,0.0168,0.4,276.37,0.25,0,0,-0.52,20.22,0,0.25,276.36,0,0,0,0,0,0,0,55.875,0,0,0,0,0,89.93,0,0,0,0,0,0,0,0,0,0,0,0,0,0,0,0,0,VALID,0,0,0,0,0,1,0,0,0,0,0,0,0,0,0,0,0,0,0,0,0.06,347.93,2,0,0.105,0.105,268,8.57,0.14,0.105,27.22,FLYING,CF1-F,0:/Integrated Flight Computer/aircraft/cf1_f_cfg.ks (inferred preloaded)
27.53,APPROACH,FLY_TO_FIX,191.07,77,-114.07,1396.58,-1.79,0.1,0.87,257.41,58.338,0,0,-6.036,1,0.6,4.407,1.62,0.35,0.0168,0.4,276.42,0.261,0,0,-0.53,19.02,0,0.26,276.41,0,0,0,0,0,0,0,55.813,0,0,0,0,0,89.93,0,0,0,0,0,0,0,0,0,0,0,0,0,0,0,0,0,VALID,0,0,0,0,0,1,0,0,0,0,0,0,0,0,0,0,0,0,0,0,0.06,347.97,2,0,0.105,0.105,271,9.52,0.105,0.105,27.53,FLYING,CF1-F,0:/Integrated Flight Computer/aircraft/cf1_f_cfg.ks (inferred preloaded)
27.88,APPROACH,FLY_TO_FIX,190.71,77,-113.71,1395.93,-1.8,0.05,0.69,258.69,56.071,0,0,-5.946,1,0.6,4.408,1.577,0.35,0.0168,0.4,276.47,0.269,0,0,-0.54,17.79,0,0.27,276.46,0,0,0,0,0,0,0,55.743,0,0,0,0,0,89.93,0,0,0,0,0,0,0,0,0,0,0,0,0,0,0,0,0,VALID,0,0,0,0,0,1,0,0,0,0,0,0,0,0,0,0,0,0,0,0,0.05,348.01,2,0,0.105,0.105,274,8.57,0.14,0.105,27.88,FLYING,CF1-F,0:/Integrated Flight Computer/aircraft/cf1_f_cfg.ks (inferred preloaded)
28.2,APPROACH,FLY_TO_FIX,190.4,77,-113.4,1395.34,-1.81,0,0.55,259.77,53.844,0,0,-5.857,1,0.6,4.408,1.529,0.35,0.0168,0.4,276.52,0.28,0,0,-0.55,16.75,0,0.28,276.5,0,0,0,0,0,0,0,55.68,0,0,0,0,0,89.93,0,0,0,0,0,0,0,0,0,0,0,0,0,0,0,0,0,VALID,0,0,0,0,0,1,0,0,0,0,0,0,0,0,0,0,0,0,0,0,0.05,348.05,2,0,0.105,0.105,277,9.52,0.105,0.105,28.2,FLYING,CF1-F,0:/Integrated Flight Computer/aircraft/cf1_f_cfg.ks (inferred preloaded)
28.55,APPROACH,FLY_TO_FIX,190.08,77,-113.08,1394.68,-1.82,-0.09,0.41,260.92,51.949,0,0,-5.77,1,0.6,4.409,1.479,0.35,0.0168,0.4,276.56,0.281,0,0,-0.55,15.64,0,0.28,276.55,0,0,0,0,0,0,0,55.61,0,0,0,0,0,89.93,0,0,0,0,0,0,0,0,0,0,0,0,0,0,0,0,0,VALID,0,0,0,0,0,1,0,0,0,0,0,0,0,0,0,0,0,0,0,0,0.05,348.1,2,0,0.105,0.105,280,8.57,0.14,0.105,28.55,FLYING,CF1-F,0:/Integrated Flight Computer/aircraft/cf1_f_cfg.ks (inferred preloaded)
28.86,APPROACH,FLY_TO_FIX,189.8,77,-112.8,1394.09,-1.78,-0.14,0.29,261.88,50.039,0,0,-5.684,1,0.6,4.409,1.429,0.35,0.0168,0.4,276.6,0.273,0,0,-0.54,14.72,0,0.28,276.59,0,0,0,0,0,0,0,55.546,0,0,0,0,0,89.93,0,0,0,0,0,0,0,0,0,0,0,0,0,0,0,0,0,VALID,0,0,0,0,0,1,0,0,0,0,0,0,0,0,0,0,0,0,0,0,0.04,348.14,2,0,0.105,0.105,283,9.52,0.105,0.105,28.86,FLYING,CF1-F,0:/Integrated Flight Computer/aircraft/cf1_f_cfg.ks (inferred preloaded)
29.21,APPROACH,FLY_TO_FIX,189.5,77,-112.5,1393.45,-1.75,-0.19,0.18,262.87,47.509,0,0,-5.599,1,0.6,4.41,1.38,0.35,0.0168,0.4,276.64,0.269,0,0,-0.53,13.77,0,0.28,276.63,0,0,0,0,0,0,0,55.476,0,0,0,0,0,89.93,0,0,0,0,0,0,0,0,0,0,0,0,0,0,0,0,0,VALID,0,0,0,0,0,1,0,0,0,0,0,0,0,0,0,0,0,0,0,0,0.04,348.18,2,0,0.105,0.105,286,8.57,0.14,0.105,29.21,FLYING,CF1-F,0:/Integrated Flight Computer/aircraft/cf1_f_cfg.ks (inferred preloaded)
29.56,APPROACH,FLY_TO_FIX,189.22,77,-112.22,1392.83,-1.72,-0.26,0.07,263.82,45.412,0,0,-5.515,1,0.6,4.41,1.331,0.35,0.0168,0.4,276.68,0.262,0,0,-0.52,12.85,0,0.26,276.67,0,0,0,0,0,0,0,55.405,0,0,0,0,0,89.93,0,0,0,0,0,0,0,0,0,0,0,0,0,0,0,0,0,VALID,0,0,0,0,0,1,0,0,0,0,0,0,0,0,0,0,0,0,0,0,0.03,348.23,2,0,0.105,0.105,289,8.57,0.14,0.105,29.56,FLYING,CF1-F,0:/Integrated Flight Computer/aircraft/cf1_f_cfg.ks (inferred preloaded)
29.91,APPROACH,FLY_TO_FIX,188.94,77,-111.94,1392.22,-1.66,-0.33,-0.03,264.71,43.497,0,0,-5.433,1,0.6,4.411,1.284,0.35,0.0168,0.4,276.71,0.247,0,0,-0.5,12,0,0.25,276.7,0,0,0,0,0,0,0,55.334,0,0,0,0,0,89.93,0,0,0,0,0,0,0,0,0,0,0,0,0,0,0,0,0,VALID,0,0,0,0,0,1,0,0,0,0,0,0,0,0,0,0,0,0,0,0,0,348.27,2,0,0.105,0.105,292,8.57,0.14,0.105,29.91,FLYING,CF1-F,0:/Integrated Flight Computer/aircraft/cf1_f_cfg.ks (inferred preloaded)
30.23,APPROACH,FLY_TO_FIX,188.68,77,-111.68,1391.69,-1.6,-0.36,-0.1,265.44,41.182,0,0,-5.352,1,0.6,4.411,1.239,0.35,0.0168,0.4,276.74,0.235,0,0,-0.49,11.29,0,0.24,276.73,0,0,0,0,0,0,0,55.271,0,0,0,0,0,89.93,0,0,0,0,0,0,0,0,0,0,0,0,0,0,0,0,0,VALID,0,0,0,0,0,1,0,0,0,0,0,0,0,0,0,0,0,0,0,0,0,348.31,2,0,0.105,0.105,295,9.52,0.105,0.105,30.23,FLYING,CF1-F,0:/Integrated Flight Computer/aircraft/cf1_f_cfg.ks (inferred preloaded)
30.58,APPROACH,FLY_TO_FIX,188.42,77,-111.42,1391.12,-1.56,-0.42,-0.17,266.22,38.992,0,0,-5.272,1,0.6,4.412,1.197,0.35,0.0168,0.4,276.77,0.225,0,0,-0.48,10.54,0,0.23,276.76,0,0,0,0,0,0,0,55.2,0,0,0,0,0,89.93,0,0,0,0,0,0,0,0,0,0,0,0,0,0,0,0,0,VALID,0,0,0,0,0,1,0,0,0,0,0,0,0,0,0,0,0,0,0,0,0,348.35,2,0,0.105,0.105,298,8.57,0.14,0.105,30.58,FLYING,CF1-F,0:/Integrated Flight Computer/aircraft/cf1_f_cfg.ks (inferred preloaded)
30.89,APPROACH,FLY_TO_FIX,188.18,77,-111.18,1390.62,-1.5,-0.47,-0.24,266.9,37.538,0,0,-5.193,1,0.6,4.412,1.158,0.35,0.0168,0.4,276.79,0.208,0,0,-0.46,9.89,0,0.21,276.78,0,0,0,0,0,0,0,55.137,0,0,0,0,0,89.93,0,0,0,0,0,0,0,0,0,0,0,0,0,0,0,0,0,VALID,0,0,0,0,0,1,0,0,0,0,0,0,0,0,0,0,0,0,0,0,0,348.39,2,0,0.105,0.105,301,9.52,0.105,0.105,30.89,FLYING,CF1-F,0:/Integrated Flight Computer/aircraft/cf1_f_cfg.ks (inferred preloaded)
31.24,APPROACH,FLY_TO_FIX,187.91,77,-110.91,1390.09,-1.44,-0.51,-0.3,267.58,35.234,0,0,-5.116,1,0.6,4.413,1.122,0.35,0.0168,0.4,276.82,0.193,0,0,-0.44,9.23,0,0.2,276.81,0,0,0,0,0,0,0,55.066,0,0,0,0,0,89.93,0,0,0,0,0,0,0,0,0,0,0,0,0,0,0,0,0,VALID,0,0,0,0,0,1,0,0,0,0,0,0,0,0,0,0,0,0,0,0,0,348.43,2,0,0.105,0.105,304,8.57,0.14,0.105,31.24,FLYING,CF1-F,0:/Integrated Flight Computer/aircraft/cf1_f_cfg.ks (inferred preloaded)
31.56,APPROACH,FLY_TO_FIX,187.69,77,-110.69,1389.63,-1.4,-0.55,-0.34,268.18,33.487,0,0,-5.039,1,0.6,4.413,1.087,0.35,0.0168,0.4,276.84,0.183,0,0,-0.43,8.66,0,0.19,276.83,0,0,0,0,0,0,0,55.003,0,0,0,0,0,89.93,0,0,0,0,0,0,0,0,0,0,0,0,0,0,0,0,0,VALID,0,0,0,0,0,1,0,0,0,0,0,0,0,0,0,0,0,0,0,0,0,348.47,2,0,0.105,0.105,307,9.52,0.105,0.105,31.56,FLYING,CF1-F,0:/Integrated Flight Computer/aircraft/cf1_f_cfg.ks (inferred preloaded)
31.91,APPROACH,FLY_TO_FIX,187.43,77,-110.43,1389.14,-1.33,-0.6,-0.39,268.8,31.779,0,0,-4.964,1,0.6,4.414,1.056,0.35,0.0168,0.4,276.86,0.166,0,0,-0.41,8.06,0,0.17,276.86,0,0,0,0,0,0,0,54.932,0,0,0,0,0,89.93,0,0,0,0,0,0,0,0,0,0,0,0,0,0,0,0,0,VALID,0,0,0,0,0,1,0,0,0,0,0,0,0,0,0,0,0,0,0,0,0,348.51,2,0,0.105,0.105,310,8.57,0.14,0.105,31.91,FLYING,CF1-F,0:/Integrated Flight Computer/aircraft/cf1_f_cfg.ks (inferred preloaded)
32.22,APPROACH,FLY_TO_FIX,187.21,77,-110.21,1388.72,-1.28,-0.62,-0.43,269.31,29.98,0,0,-4.89,1,0.6,4.414,1.026,0.35,0.0168,0.4,276.88,0.153,0,0,-0.39,7.57,0,0.16,276.87,0,0,0,0,0,0,0,54.869,0,0,0,0,0,89.93,0,0,0,0,0,0,0,0,0,0,0,0,0,0,0,0,0,VALID,0,0,0,0,0,1,0,0,0,0,0,0,0,0,0,0,0,0,0,0,0,348.55,2,0,0.105,0.105,313,9.52,0.105,0.105,32.22,FLYING,CF1-F,0:/Integrated Flight Computer/aircraft/cf1_f_cfg.ks (inferred preloaded)
32.57,APPROACH,FLY_TO_FIX,186.96,77,-109.96,1388.27,-1.24,-0.66,-0.46,269.86,28.117,0,0,-4.817,1,0.6,4.415,0.999,0.35,0.0168,0.4,276.9,0.142,0,0,-0.38,7.04,0,0.15,276.89,0,0,0,0,0,0,0,54.798,0,0,0,0,0,89.93,0,0,0,0,0,0,0,0,0,0,0,0,0,0,0,0,0,VALID,0,0,0,0,0,1,0,0,0,0,0,0,0,0,0,0,0,0,0,0,0,348.59,2,0,0.105,0.105,316,8.57,0.14,0.105,32.57,FLYING,CF1-F,0:/Integrated Flight Computer/aircraft/cf1_f_cfg.ks (inferred preloaded)
32.92,APPROACH,FLY_TO_FIX,186.72,77,-109.72,1387.83,-1.19,-0.69,-0.49,270.38,26.685,0,0,-4.745,1,0.6,4.415,0.973,0.35,0.0168,0.4,276.92,0.13,0,0,-0.37,6.54,0,0.13,276.91,0,0,0,0,0,0,0,54.728,0,0,0,0,0,89.93,0,0,0,0,0,0,0,0,0,0,0,0,0,0,0,0,0,VALID,0,0,0,0,0,1,0,0,0,0,0,0,0,0,0,0,0,0,0,0,0,348.63,2,0,0.105,0.105,319,8.57,0.14,0.105,32.92,FLYING,CF1-F,0:/Integrated Flight Computer/aircraft/cf1_f_cfg.ks (inferred preloaded)
33.27,APPROACH,FLY_TO_FIX,186.47,77,-109.47,1387.42,-1.14,-0.71,-0.52,270.86,24.975,0,0,-4.674,1,0.6,4.416,0.95,0.35,0.0168,0.4,276.93,0.116,0,0,-0.35,6.07,0,0.12,276.93,0,0,0,0,0,0,0,54.658,0,0,0,0,0,89.93,0,0,0,0,0,0,0,0,0,0,0,0,0,0,0,0,0,VALID,0,0,0,0,0,1,0,0,0,0,0,0,0,0,0,0,0,0,0,0,0,348.67,2,0,0.105,0.105,322,8.57,0.14,0.105,33.27,FLYING,CF1-F,0:/Integrated Flight Computer/aircraft/cf1_f_cfg.ks (inferred preloaded)
33.59,APPROACH,FLY_TO_FIX,186.26,77,-109.26,1387.06,-1.11,-0.73,-0.54,271.27,23.599,0,0,-4.605,1,0.6,4.416,0.928,0.35,0.0168,0.4,276.95,0.107,0,0,-0.34,5.68,0,0.11,276.94,0,0,0,0,0,0,0,54.595,0,0,0,0,0,89.93,0,0,0,0,0,0,0,0,0,0,0,0,0,0,0,0,0,VALID,0,0,0,0,0,1,0,0,0,0,0,0,0,0,0,0,0,0,0,0,0,348.7,2,0,0.105,0.105,325,9.52,0.105,0.105,33.59,FLYING,CF1-F,0:/Integrated Flight Computer/aircraft/cf1_f_cfg.ks (inferred preloaded)
33.94,APPROACH,FLY_TO_FIX,186.03,77,-109.03,1386.67,-1.06,-0.76,-0.56,271.7,22.244,0,0,-4.536,1,0.6,4.417,0.907,0.35,0.0168,0.4,276.96,0.096,0,0,-0.33,5.26,0,0.1,276.96,0,0,0,0,0,0,0,54.525,0,0,0,0,0,89.93,0,0,0,0,0,0,0,0,0,0,0,0,0,0,0,0,0,VALID,0,0,0,0,0,1,0,0,0,0,0,0,0,0,0,0,0,0,0,0,0,348.74,2,0,0.105,0.105,328,8.57,0.14,0.105,33.94,FLYING,CF1-F,0:/Integrated Flight Computer/aircraft/cf1_f_cfg.ks (inferred preloaded)
34.25,APPROACH,FLY_TO_FIX,185.82,77,-108.82,1386.34,-1.03,-0.77,-0.58,272.07,20.977,0,0,-4.468,1,0.6,4.417,0.888,0.35,0.0168,0.4,276.97,0.088,0,0,-0.32,4.91,0,0.09,276.97,0,0,0,0,0,0,0,54.462,0,0,0,0,0,89.93,0,0,0,0,0,0,0,0,0,0,0,0,0,0,0,0,0,VALID,0,0,0,0,0,1,0,0,0,0,0,0,0,0,0,0,0,0,0,0,0,348.78,2,0,0.105,0.105,331,9.52,0.105,0.105,34.25,FLYING,CF1-F,0:/Integrated Flight Computer/aircraft/cf1_f_cfg.ks (inferred preloaded)
34.6,APPROACH,FLY_TO_FIX,185.59,77,-108.59,1385.98,-0.99,-0.79,-0.59,272.45,19.709,0,0,-4.401,1,0.6,4.418,0.87,0.35,0.0168,0.4,276.99,0.079,0,0,-0.31,4.53,0,0.08,276.98,0,0,0,0,0,0,0,54.392,0,0,0,0,0,89.93,0,0,0,0,0,0,0,0,0,0,0,0,0,0,0,0,0,VALID,0,0,0,0,0,1,0,0,0,0,0,0,0,0,0,0,0,0,0,0,0,348.82,2,0,0.105,0.105,334,8.57,0.14,0.105,34.6,FLYING,CF1-F,0:/Integrated Flight Computer/aircraft/cf1_f_cfg.ks (inferred preloaded)
34.92,APPROACH,FLY_TO_FIX,185.39,77,-108.39,1385.66,-0.97,-0.8,-0.6,272.78,18.56,0,0,-4.336,1,0.6,4.418,0.853,0.35,0.0168,0.4,277,0.072,0,0,-0.3,4.22,0,0.08,276.99,0,0,0,0,0,0,0,54.33,0,0,0,0,0,89.93,0,0,0,0,0,0,0,0,0,0,0,0,0,0,0,0,0,VALID,0,0,0,0,0,1,0,0,0,0,0,0,0,0,0,0,0,0,0,0,0,348.85,2,0,0.105,0.105,337,9.52,0.105,0.105,34.92,FLYING,CF1-F,0:/Integrated Flight Computer/aircraft/cf1_f_cfg.ks (inferred preloaded)
35.27,APPROACH,FLY_TO_FIX,185.16,77,-108.16,1385.33,-0.93,-0.81,-0.61,273.11,17.285,0,0,-4.271,1,0.6,4.419,0.837,0.35,0.0168,0.4,277.01,0.064,0,0,-0.29,3.9,0,0.07,277,0,0,0,0,0,0,0,54.26,0,0,0,0,0,89.93,0,0,0,0,0,0,0,0,0,0,0,0,0,0,0,0,0,VALID,0,0,0,0,0,1,0,0,0,0,0,0,0,0,0,0,0,0,0,0,0,348.89,2,0,0.105,0.105,340,8.57,0.14,0.105,35.27,FLYING,CF1-F,0:/Integrated Flight Computer/aircraft/cf1_f_cfg.ks (inferred preloaded)
35.58,APPROACH,FLY_TO_FIX,184.95,77,-107.95,1385.04,-0.9,-0.82,-0.62,273.39,16.168,0,0,-4.207,1,0.6,4.419,0.824,0.35,0.0168,0.4,277.02,0.056,0,0,-0.28,3.62,0,0.06,277.01,0,0,0,0,0,0,0,54.197,0,0,0,0,0,89.93,0,0,0,0,0,0,0,0,0,0,0,0,0,0,0,0,0,VALID,0,0,0,0,0,1,0,0,0,0,0,0,0,0,0,0,0,0,0,0,0,348.92,2,0,0.105,0.105,343,9.52,0.105,0.105,35.58,FLYING,CF1-F,0:/Integrated Flight Computer/aircraft/cf1_f_cfg.ks (inferred preloaded)
35.93,APPROACH,FLY_TO_FIX,184.73,77,-107.73,1384.72,-0.87,-0.82,-0.63,273.68,14.986,0,0,-4.145,1,0.6,4.42,0.811,0.35,0.0168,0.4,277.03,0.048,0,0,-0.27,3.34,0,0.05,277.02,0,0,0,0,0,0,0,54.128,0,0,0,0,0,89.93,0,0,0,0,0,0,0,0,0,0,0,0,0,0,0,0,0,VALID,0,0,0,0,0,1,0,0,0,0,0,0,0,0,0,0,0,0,0,0,0,348.96,2,0,0.105,0.105,346,8.57,0.14,0.105,35.93,FLYING,CF1-F,0:/Integrated Flight Computer/aircraft/cf1_f_cfg.ks (inferred preloaded)
36.28,APPROACH,FLY_TO_FIX,184.5,77,-107.5,1384.42,-0.83,-0.82,-0.63,273.96,13.865,0,0,-4.083,1,0.6,4.42,0.8,0.35,0.0168,0.4,277.03,0.039,0,0,-0.26,3.08,0,0.04,277.03,0,0,0,0,0,0,0,54.059,0,0,0,0,0,89.93,0,0,0,0,0,0,0,0,0,0,0,0,0,0,0,0,0,VALID,0,0,0,0,0,1,0,0,0,0,0,0,0,0,0,0,0,0,0,0,0,349,2,0,0.105,0.105,349,8.57,0.14,0.105,36.28,FLYING,CF1-F,0:/Integrated Flight Computer/aircraft/cf1_f_cfg.ks (inferred preloaded)
36.63,APPROACH,FLY_TO_FIX,184.28,77,-107.28,1384.14,-0.8,-0.83,-0.64,274.21,12.807,0,0,-4.022,1,0.6,4.421,0.789,0.35,0.0168,0.4,277.04,0.031,0,0,-0.25,2.83,0,0.04,277.04,0,0,0,0,0,0,0,53.989,0,0,0,0,0,89.93,0,0,0,0,0,0,0,0,0,0,0,0,0,0,0,0,0,VALID,0,0,0,0,0,1,0,0,0,0,0,0,0,0,0,0,0,0,0,0,0,349.04,2,0,0.105,0.105,352,8.57,0.14,0.105,36.63,FLYING,CF1-F,0:/Integrated Flight Computer/aircraft/cf1_f_cfg.ks (inferred preloaded)
36.95,APPROACH,FLY_TO_FIX,184.07,77,-107.07,1383.89,-0.77,-0.83,-0.64,274.42,11.909,0,0,-3.962,1,0.6,4.421,0.78,0.35,0.0168,0.4,277.05,0.023,0,0,-0.24,2.63,0,0.03,277.05,0,0,0,0,0,0,0,53.927,0,0,0,0,0,89.93,0,0,0,0,0,0,0,0,0,0,0,0,0,0,0,0,0,VALID,0,0,0,0,0,1,0,0,0,0,0,0,0,0,0,0,0,0,0,0,0,349.07,2,0,0.105,0.105,355,9.52,0.105,0.105,36.95,FLYING,CF1-F,0:/Integrated Flight Computer/aircraft/cf1_f_cfg.ks (inferred preloaded)
37.3,APPROACH,FLY_TO_FIX,183.85,77,-106.85,1383.62,-0.74,-0.82,-0.64,274.64,10.974,0,0,-3.903,1,0.6,4.422,0.771,0.35,0.0168,0.4,277.05,0.015,0,0,-0.23,2.41,0,0.02,277.05,0,0,0,0,0,0,0,53.858,0,0,0,0,0,89.93,0,0,0,0,0,0,0,0,0,0,0,0,0,0,0,0,0,VALID,0,0,0,0,0,1,0,0,0,0,0,0,0,0,0,0,0,0,0,0,0,349.11,2,0,0.105,0.105,358,8.57,0.14,0.105,37.3,FLYING,CF1-F,0:/Integrated Flight Computer/aircraft/cf1_f_cfg.ks (inferred preloaded)
37.61,APPROACH,FLY_TO_FIX,183.65,77,-106.65,1383.39,-0.71,-0.82,-0.64,274.82,10.183,0,0,-3.844,1,0.6,4.422,0.764,0.35,0.0168,0.4,277.06,0.008,0,0,-0.22,2.24,0,0.01,277.06,0,0,0,0,0,0,0,53.796,0,0,0,0,0,89.93,0,0,0,0,0,0,0,0,0,0,0,0,0,0,0,0,0,VALID,0,0,0,0,0,1,0,0,0,0,0,0,0,0,0,0,0,0,0,0,0,349.14,2,0,0.105,0.105,361,9.52,0.105,0.105,37.61,FLYING,CF1-F,0:/Integrated Flight Computer/aircraft/cf1_f_cfg.ks (inferred preloaded)
37.96,APPROACH,FLY_TO_FIX,183.42,77,-106.42,1383.15,-0.68,-0.82,-0.65,275,9.361,0,0,-3.787,1,0.6,4.423,0.757,0.35,0.0168,0.4,277.07,-0.001,0,0,-0.21,2.06,0,0,277.06,0,0,0,0,0,0,0,53.727,0,0,0,0,0,89.93,0,0,0,0,0,0,0,0,0,0,0,0,0,0,0,0,0,VALID,0,0,0,0,0,1,0,0,0,0,0,0,0,0,0,0,0,0,0,0,0,349.18,2,0,0.105,0.105,364,8.57,0.14,0.105,37.96,FLYING,CF1-F,0:/Integrated Flight Computer/aircraft/cf1_f_cfg.ks (inferred preloaded)
38.28,APPROACH,FLY_TO_FIX,183.22,77,-106.22,1382.94,-0.66,-0.81,-0.65,275.16,8.676,0,0,-3.73,1,0.6,4.423,0.751,0.35,0.0168,0.4,277.07,-0.006,0,0,-0.21,1.91,0,0,277.07,0,0,0,0,0,0,0,53.665,0,0,0,0,0,89.93,0,0,0,0,0,0,0,0,0,0,0,0,0,0,0,0,0,VALID,0,0,0,0,0,1,0,0,0,0,0,0,0,0,0,0,0,0,0,0,0,349.22,2,0,0.105,0.105,367,9.52,0.105,0.105,38.28,FLYING,CF1-F,0:/Integrated Flight Computer/aircraft/cf1_f_cfg.ks (inferred preloaded)
38.63,APPROACH,FLY_TO_FIX,183,77,-106,1382.71,-0.63,-0.81,-0.65,275.32,7.967,0,0,-3.675,1,0.6,4.423,0.75,0.35,0.0168,0.4,277.07,-0.013,0,0,-0.2,1.75,0,-0.01,277.07,0,0,0,0,0,0,0,53.597,0,0,0,0,0,89.93,0,0,0,0,0,0,0,0,0,0,0,0,0,0,0,0,0,VALID,0,0,0,0,0,1,0,0,0,0,0,0,0,0,0,0,0,0,0,0,0,349.25,2,0,0.105,0.105,370,8.57,0.14,0.105,38.63,FLYING,CF1-F,0:/Integrated Flight Computer/aircraft/cf1_f_cfg.ks (inferred preloaded)
38.94,APPROACH,FLY_TO_FIX,182.8,77,-105.8,1382.52,-0.61,-0.8,-0.64,275.46,7.37,0,0,-3.62,1,0.6,4.424,0.75,0.35,0.0168,0.4,277.08,-0.019,0,0,-0.19,1.62,0,-0.01,277.08,0,0,0,0,0,0,0,53.535,0,0,0,0,0,89.93,0,0,0,0,0,0,0,0,0,0,0,0,0,0,0,0,0,VALID,0,0,0,0,0,1,0,0,0,0,0,0,0,0,0,0,0,0,0,0,0,349.29,2,0,0.105,0.105,373,9.52,0.105,0.105,38.94,FLYING,CF1-F,0:/Integrated Flight Computer/aircraft/cf1_f_cfg.ks (inferred preloaded)
39.29,APPROACH,FLY_TO_FIX,182.58,77,-105.58,1382.31,-0.59,-0.8,-0.64,275.6,6.757,0,0,-3.566,1,0.6,4.424,0.75,0.35,0.0168,0.4,277.08,-0.024,0,0,-0.19,1.49,0,-0.02,277.08,0,0,0,0,0,0,0,53.466,0,0,0,0,0,89.93,0,0,0,0,0,0,0,0,0,0,0,0,0,0,0,0,0,VALID,0,0,0,0,0,1,0,0,0,0,0,0,0,0,0,0,0,0,0,0,0,349.33,2,0,0.105,0.105,376,8.57,0.14,0.105,39.29,FLYING,CF1-F,0:/Integrated Flight Computer/aircraft/cf1_f_cfg.ks (inferred preloaded)
39.64,APPROACH,FLY_TO_FIX,182.35,77,-105.35,1382.1,-0.57,-0.79,-0.64,275.72,6.189,0,0,-3.513,1,0.6,4.425,0.75,0.35,0.0168,0.4,277.09,-0.03,0,0,-0.18,1.36,0,-0.03,277.09,0,0,0,0,0,0,0,53.398,0,0,0,0,0,89.93,0,0,0,0,0,0,0,0,0,0,0,0,0,0,0,0,0,VALID,0,0,0,0,0,1,0,0,0,0,0,0,0,0,0,0,0,0,0,0,0,349.36,2,0,0.105,0.105,379,8.57,0.14,0.105,39.64,FLYING,CF1-F,0:/Integrated Flight Computer/aircraft/cf1_f_cfg.ks (inferred preloaded)
39.99,APPROACH,FLY_TO_FIX,182.13,77,-105.13,1381.91,-0.55,-0.79,-0.64,275.84,5.668,0,0,-3.46,1,0.6,4.425,0.75,0.35,0.0168,0.4,277.09,-0.034,0,0,-0.17,1.25,0,-0.03,277.09,0,0,0,0,0,0,0,53.33,0,0,0,0,0,89.93,0,0,0,0,0,0,0,0,0,0,0,0,0,0,0,0,0,VALID,0,0,0,0,0,1,0,0,0,0,0,0,0,0,0,0,0,0,0,0,0,349.4,2,0,0.105,0.105,382,8.57,0.14,0.105,39.99,FLYING,CF1-F,0:/Integrated Flight Computer/aircraft/cf1_f_cfg.ks (inferred preloaded)
40.31,APPROACH,FLY_TO_FIX,181.93,77,-104.93,1381.74,-0.53,-0.78,-0.63,275.94,5.238,0,0,-3.409,1,0.6,4.426,0.75,0.35,0.0168,0.4,277.09,-0.038,0,0,-0.17,1.16,0,-0.03,277.09,0,0,0,0,0,0,0,53.268,0,0,0,0,0,89.93,0,0,0,0,0,0,0,0,0,0,0,0,0,0,0,0,0,VALID,0,0,0,0,0,1,0,0,0,0,0,0,0,0,0,0,0,0,0,0,0,349.44,2,0,0.105,0.105,385,9.52,0.105,0.105,40.31,FLYING,CF1-F,0:/Integrated Flight Computer/aircraft/cf1_f_cfg.ks (inferred preloaded)
40.66,APPROACH,FLY_TO_FIX,181.71,77,-104.71,1381.56,-0.52,-0.77,-0.63,276.04,4.799,0,0,-3.358,1,0.6,4.426,0.75,0.35,0.0168,0.4,277.1,-0.042,0,0,-0.16,1.06,0,-0.04,277.1,0,0,0,0,0,0,0,53.2,0,0,0,0,0,89.93,0,0,0,0,0,0,0,0,0,0,0,0,0,0,0,0,0,VALID,0,0,0,0,0,1,0,0,0,0,0,0,0,0,0,0,0,0,0,0,0,349.48,2,0,0.105,0.105,388,8.57,0.14,0.105,40.66,FLYING,CF1-F,0:/Integrated Flight Computer/aircraft/cf1_f_cfg.ks (inferred preloaded)
40.97,APPROACH,FLY_TO_FIX,181.51,77,-104.51,1381.4,-0.5,-0.77,-0.63,276.12,4.436,0,0,-3.308,1,0.6,4.427,0.75,0.35,0.0168,0.4,277.1,-0.046,0,0,-0.16,0.98,0,-0.04,277.1,0,0,0,0,0,0,0,53.139,0,0,0,0,0,89.93,0,0,0,0,0,0,0,0,0,0,0,0,0,0,0,0,0,VALID,0,0,0,0,0,1,0,0,0,0,0,0,0,0,0,0,0,0,0,0,0,349.51,2,0,0.105,0.105,391,9.52,0.105,0.105,40.97,FLYING,CF1-F,0:/Integrated Flight Computer/aircraft/cf1_f_cfg.ks (inferred preloaded)
41.32,APPROACH,FLY_TO_FIX,181.29,77,-104.29,1381.22,-0.49,-0.76,-0.62,276.2,4.065,0,0,-3.258,1,0.6,4.427,0.75,0.35,0.0168,0.4,277.1,-0.049,0,0,-0.16,0.9,0,-0.05,277.1,0,0,0,0,0,0,0,53.071,0,0,0,0,0,89.93,0,0,0,0,0,0,0,0,0,0,0,0,0,0,0,0,0,VALID,0,0,0,0,0,1,0,0,0,0,0,0,0,0,0,0,0,0,0,0,0,349.55,2,0,0.105,0.105,394,8.57,0.14,0.105,41.32,FLYING,CF1-F,0:/Integrated Flight Computer/aircraft/cf1_f_cfg.ks (inferred preloaded)
41.64,APPROACH,FLY_TO_FIX,181.09,77,-104.09,1381.07,-0.48,-0.76,-0.62,276.27,3.755,0,0,-3.21,1,0.6,4.428,0.75,0.35,0.0168,0.4,277.1,-0.052,0,0,-0.15,0.83,0,-0.05,277.1,0,0,0,0,0,0,0,53.01,0,0,0,0,0,89.93,0,0,0,0,0,0,0,0,0,0,0,0,0,0,0,0,0,VALID,0,0,0,0,0,1,0,0,0,0,0,0,0,0,0,0,0,0,0,0,0,349.59,2,0,0.105,0.105,397,9.52,0.105,0.105,41.64,FLYING,CF1-F,0:/Integrated Flight Computer/aircraft/cf1_f_cfg.ks (inferred preloaded)
41.99,APPROACH,FLY_TO_FIX,180.86,77,-103.86,1380.91,-0.47,-0.75,-0.62,276.34,3.439,0,0,-3.162,1,0.6,4.428,0.75,0.35,0.0168,0.4,277.1,-0.054,0,0,-0.15,0.76,0,-0.05,277.1,0,0,0,0,0,0,0,52.942,0,0,0,0,0,89.93,0,0,0,0,0,0,0,0,0,0,0,0,0,0,0,0,0,VALID,0,0,0,0,0,1,0,0,0,0,0,0,0,0,0,0,0,0,0,0,0,349.63,2,0,0.105,0.105,400,8.57,0.14,0.105,41.99,FLYING,CF1-F,0:/Integrated Flight Computer/aircraft/cf1_f_cfg.ks (inferred preloaded)
42.3,APPROACH,FLY_TO_FIX,180.67,77,-103.67,1380.76,-0.46,-0.74,-0.61,276.4,3.176,0,0,-3.115,1,0.6,4.429,0.75,0.35,0.0168,0.4,277.11,-0.056,0,0,-0.15,0.7,0,-0.05,277.11,0,0,0,0,0,0,0,52.881,0,0,0,0,0,89.93,0,0,0,0,0,0,0,0,0,0,0,0,0,0,0,0,0,VALID,0,0,0,0,0,1,0,0,0,0,0,0,0,0,0,0,0,0,0,0,0,349.66,2,0,0.105,0.105,403,9.52,0.105,0.105,42.3,FLYING,CF1-F,0:/Integrated Flight Computer/aircraft/cf1_f_cfg.ks (inferred preloaded)
42.65,APPROACH,FLY_TO_FIX,180.44,77,-103.44,1380.61,-0.45,-0.74,-0.61,276.46,2.908,0,0,-3.068,1,0.6,4.429,0.75,0.35,0.0168,0.4,277.11,-0.059,0,0,-0.14,0.64,0,-0.06,277.11,0,0,0,0,0,0,0,52.813,0,0,0,0,0,89.93,0,0,0,0,0,0,0,0,0,0,0,0,0,0,0,0,0,VALID,0,0,0,0,0,1,0,0,0,0,0,0,0,0,0,0,0,0,0,0,0,349.7,2,0,0.105,0.105,406,8.57,0.14,0.105,42.65,FLYING,CF1-F,0:/Integrated Flight Computer/aircraft/cf1_f_cfg.ks (inferred preloaded)
43,APPROACH,FLY_TO_FIX,180.22,77,-103.22,1380.45,-0.44,-0.73,-0.6,276.52,2.645,0,0,-3.022,1,0.6,4.43,0.75,0.35,0.0168,0.4,277.11,-0.06,0,0,-0.14,0.59,0,-0.06,277.11,0,0,0,0,0,0,0,52.746,0,0,0,0,0,89.93,0,0,0,0,0,0,0,0,0,0,0,0,0,0,0,0,0,VALID,0,0,0,0,0,1,0,0,0,0,0,0,0,0,0,0,0,0,0,0,0,349.74,2,0,0.105,0.105,409,8.57,0.14,0.105,43,FLYING,CF1-F,0:/Integrated Flight Computer/aircraft/cf1_f_cfg.ks (inferred preloaded)
43.35,APPROACH,FLY_TO_FIX,180,77,-103,1380.3,-0.43,-0.72,-0.6,276.57,2.356,0,0,-2.977,1,0.6,4.43,0.75,0.35,0.0168,0.4,277.11,-0.061,0,0,-0.14,0.55,0,-0.06,277.11,0,0,0,0,0,0,0,52.678,0,0,0,0,0,89.93,0,0,0,0,0,0,0,0,0,0,0,0,0,0,0,0,0,VALID,0,0,0,0,0,1,0,0,0,0,0,0,0,0,0,0,0,0,0,0,0,349.78,2,0,0.105,0.105,412,8.57,0.14,0.105,43.35,FLYING,CF1-F,0:/Integrated Flight Computer/aircraft/cf1_f_cfg.ks (inferred preloaded)
43.67,APPROACH,FLY_TO_FIX,179.8,77,-102.8,1380.16,-0.43,-0.72,-0.59,276.61,2.104,0,0,-2.933,1,0.6,4.431,0.75,0.35,0.0168,0.4,277.11,-0.062,0,0,-0.14,0.51,0,-0.06,277.11,0,0,0,0,0,0,0,52.617,0,0,0,0,0,89.93,0,0,0,0,0,0,0,0,0,0,0,0,0,0,0,0,0,VALID,0,0,0,0,0,1,0,0,0,0,0,0,0,0,0,0,0,0,0,0,0,349.82,2,0,0.105,0.105,415,9.52,0.105,0.105,43.67,FLYING,CF1-F,0:/Integrated Flight Computer/aircraft/cf1_f_cfg.ks (inferred preloaded)
44.02,APPROACH,FLY_TO_FIX,179.58,77,-102.58,1380.02,-0.42,-0.71,-0.59,276.65,1.84,0,0,-2.889,1,0.6,4.431,0.75,0.35,0.0168,0.4,277.11,-0.063,0,0,-0.14,0.47,0,-0.06,277.11,0,0,0,0,0,0,0,52.55,0,0,0,0,0,89.93,0,0,0,0,0,0,0,0,0,0,0,0,0,0,0,0,0,VALID,0,0,0,0,0,1,0,0,0,0,0,0,0,0,0,0,0,0,0,0,0,349.86,2,0,0.105,0.105,418,8.57,0.14,0.105,44.02,FLYING,CF1-F,0:/Integrated Flight Computer/aircraft/cf1_f_cfg.ks (inferred preloaded)
44.33,APPROACH,FLY_TO_FIX,179.39,77,-102.39,1379.88,-0.42,-0.71,-0.59,276.68,1.627,0,0,-2.846,1,0.6,4.432,0.75,0.35,0.0168,0.4,277.12,-0.063,0,0,-0.13,0.44,0,-0.06,277.12,0,0,0,0,0,0,0,52.49,0,0,0,0,0,89.93,0,0,0,0,0,0,0,0,0,0,0,0,0,0,0,0,0,VALID,0,0,0,0,0,1,0,0,0,0,0,0,0,0,0,0,0,0,0,0,0,349.9,2,0,0.105,0.105,421,9.52,0.105,0.105,44.33,FLYING,CF1-F,0:/Integrated Flight Computer/aircraft/cf1_f_cfg.ks (inferred preloaded)
44.68,APPROACH,FLY_TO_FIX,179.17,77,-102.17,1379.74,-0.42,-0.7,-0.58,276.71,1.419,0,0,-2.803,1,0.6,4.432,0.75,0.35,0.0168,0.4,277.12,-0.062,0,0,-0.13,0.41,0,-0.06,277.12,0,0,0,0,0,0,0,52.422,0,0,0,0,0,89.93,0,0,0,0,0,0,0,0,0,0,0,0,0,0,0,0,0,VALID,0,0,0,0,0,1,0,0,0,0,0,0,0,0,0,0,0,0,0,0,0,349.94,2,0,0.105,0.105,424,8.57,0.14,0.105,44.68,FLYING,CF1-F,0:/Integrated Flight Computer/aircraft/cf1_f_cfg.ks (inferred preloaded)
45,APPROACH,FLY_TO_FIX,178.97,77,-101.97,1379.6,-0.42,-0.7,-0.57,276.74,1.258,0,0,-2.762,1,0.6,4.433,0.75,0.35,0.0168,0.4,277.12,-0.063,0,0,-0.13,0.38,0,-0.06,277.12,0,0,0,0,0,0,0,52.362,0,0,0,0,0,89.93,0,0,0,0,0,0,0,0,0,0,0,0,0,0,0,0,0,VALID,0,0,0,0,0,1,0,0,0,0,0,0,0,0,0,0,0,0,0,0,0,349.98,2,0,0.105,0.105,427,9.52,0.105,0.105,45,FLYING,CF1-F,0:/Integrated Flight Computer/aircraft/cf1_f_cfg.ks (inferred preloaded)
45.35,APPROACH,FLY_TO_FIX,178.75,77,-101.75,1379.46,-0.42,-0.69,-0.57,276.76,1.105,0,0,-2.72,1,0.6,4.433,0.75,0.35,0.0168,0.4,277.12,-0.062,0,0,-0.13,0.35,0,-0.06,277.12,0,0,0,0,0,0,0,52.295,0,0,0,0,0,89.93,0,0,0,0,0,0,0,0,0,0,0,0,0,0,0,0,0,VALID,0,0,0,0,0,1,0,0,0,0,0,0,0,0,0,0,0,0,0,0,0,350.02,2,0,0.105,0.105,430,8.57,0.14,0.105,45.35,FLYING,CF1-F,0:/Integrated Flight Computer/aircraft/cf1_f_cfg.ks (inferred preloaded)
45.66,APPROACH,FLY_TO_FIX,178.56,77,-101.56,1379.33,-0.41,-0.69,-0.56,276.78,0.987,0,0,-2.68,1,0.6,4.434,0.75,0.35,0.0168,0.4,277.12,-0.062,0,0,-0.13,0.33,0,-0.06,277.12,0,0,0,0,0,0,0,52.235,0,0,0,0,0,89.93,0,0,0,0,0,0,0,0,0,0,0,0,0,0,0,0,0,VALID,0,0,0,0,0,1,0,0,0,0,0,0,0,0,0,0,0,0,0,0,0,350.06,2,0,0.105,0.105,433,9.52,0.105,0.105,45.66,FLYING,CF1-F,0:/Integrated Flight Computer/aircraft/cf1_f_cfg.ks (inferred preloaded)
