t_s,phase,subphase,ias_ms,vapp_ms,spd_err_ms,agl_m,vs_ms,pitch_deg,aoa_deg,hdg_deg,bank_deg,thr_cmd,thr_intg,aa_hdg_cmd_deg,aa_fpa_cmd_deg,ils_loc_m,ils_gs_m,ils_dist_km,loc_corr_deg,gs_corr_deg,flare_fpa_cmd,flare_tgt_vs,flare_frac,steer_hdg_deg,steer_blend,ro_loc_corr_deg,ro_hdg_err_deg,ro_yaw_tgt,ro_yaw_scale,ro_yaw_gate,yaw_cmd,roll_cmd,pitch_cmd,ro_roll_assist,flaps_cur,flaps_tgt,phase_el_s,status
0.2,APPROACH,FLY_TO_FIX,77.81,76,-1.81,546.36,-15.24,-10.97,-0.06,270.4,0.009,0,-0.142,170.82,4.765,0,0,0,0,0,0,0,0,270.4,0,0,0,0,0,0,0,0,0,0,0,1,0.24,FLYING
0.42,APPROACH,ILS_TRACK,78.18,76,-2.18,542.38,-18.77,-14.63,-1.81,270.4,0.126,0,-0.614,98.7,-0.271,0,0,0,0,0,0,0,0,270.4,0,0,0,0,0,0,0,0,0,0,0,1,0.44,FLYING
0.64,APPROACH,ILS_TRACK,78.61,76,-2.61,537.94,-21.65,-13.33,1.2,270.39,0.368,0,-1.179,272.72,0,-1.97,-20.16,9.329,2.323,79.341,0,0,0,270.4,0,0,0,0,0,0,0,0,0,0,1,1,0.66,FLYING
0.84,APPROACH,ILS_TRACK,79.07,76,-3.07,533.57,-22.63,-11.9,3.48,270.26,1.516,0,-1.844,270.48,0,-1.97,-23.61,9.313,0.078,19.658,0,0,0,270.4,0,0,0,0,0,0,0,0,0,0,1,1,0.88,FLYING
1.04,APPROACH,ILS_TRACK,79.53,76,-3.53,528.99,-23.21,-11.8,3.97,270.07,3.133,0,-2.54,270.48,0,-1.98,-27.3,9.297,0.082,22.931,0,0,0,270.4,0,0,0,0,0,0,0,0,0,0,1,1,1.08,FLYING
1.26,APPROACH,ILS_TRACK,80.01,76,-4.01,523.89,-23.85,-9.98,5.86,269.92,2.876,0,-3.413,270.5,0,-1.99,-31.46,9.279,0.1,24.566,0,0,0,270.4,0,0,0,0,0,0,0,0,0,0,1,1,1.3,FLYING
1.46,APPROACH,ILS_TRACK,80.35,76,-4.35,519.37,-23.26,-6.31,9.01,269.94,1.374,0,-4.277,270.53,0,-2.03,-35.14,9.262,0.128,25.277,0,0,0,270.4,0,0,0,0,0,0,0,0,0,0,1,1,1.5,FLYING
1.66,APPROACH,ILS_TRACK,80.54,76,-4.54,515.1,-21.47,-3.25,10.95,270.02,0.716,0,-5.184,270.56,0,-2.09,-38.61,9.246,0.163,25.434,0,0,0,270.4,0,0,0,0,0,0,0,0,0,0,1,1,1.7,FLYING
1.86,APPROACH,ILS_TRACK,80.57,76,-4.57,511.13,-19.28,-2.13,10.75,270.09,0.306,0,-6.098,270.58,0,-2.17,-41.76,9.229,0.179,25.154,0,0,0,270.4,0,0,0,0,0,0,0,0,0,0,1,1,1.9,FLYING
2.06,APPROACH,ILS_TRACK,80.52,76,-4.52,507.52,-17.54,-1.23,10.42,270.15,-0.026,0,-7.003,270.59,0,-2.25,-44.57,9.212,0.189,24.584,0,0,0,270.4,0,0,0,0,0,0,0,0,0,0,1,1,2.1,FLYING
2.28,APPROACH,ILS_TRACK,80.43,76,-4.43,503.96,-15.65,-0.3,10.13,270.21,-0.318,0,-7.979,270.59,0,-2.34,-47.23,9.193,0.193,23.87,0,0,0,270.4,0,0,0,0,0,0,0,0,0,0,1,1,2.32,FLYING
2.48,APPROACH,ILS_TRACK,80.33,76,-4.33,501.04,-14.1,0.34,9.75,270.26,-0.518,0,-8.846,270.59,0,-2.41,-49.33,9.177,0.193,23.164,0,0,0,270.4,0,0,0,0,0,0,0,0,0,0,1,1,2.52,FLYING
2.68,APPROACH,ILS_TRACK,80.21,76,-4.21,498.41,-12.72,0.87,9.37,270.3,-0.664,0,-9.69,270.59,0,-2.48,-51.13,9.16,0.185,22.54,0,0,0,270.4,0,0,0,0,0,0,0,0,0,0,1,1,2.72,FLYING
2.88,APPROACH,ILS_TRACK,80.08,76,-4.08,496.03,-11.49,1.38,9.06,270.34,-0.76,0,-10.508,270.58,0,-2.54,-52.66,9.143,0.181,21.948,0,0,0,270.4,0,0,0,0,0,0,0,0,0,0,1,1,2.92,FLYING
3.08,APPROACH,ILS_TRACK,79.94,76,-3.94,493.89,-10.37,1.85,8.79,270.38,-0.818,0,-11.299,270.57,0,-2.6,-53.96,9.126,0.169,21.393,0,0,0,270.4,0,0,0,0,0,0,0,0,0,0,1,1,3.12,FLYING
3.3,APPROACH,ILS_TRACK,79.77,76,-3.77,491.77,-9.27,2.32,8.53,270.41,-0.838,0,-12.133,270.56,0,-2.65,-55.15,9.107,0.16,20.858,0,0,0,270.4,0,0,0,0,0,0,0,0,0,0,1,1,3.34,FLYING
3.5,APPROACH,ILS_TRACK,79.61,76,-3.61,490.04,-8.37,2.71,8.32,270.43,-0.832,0,-12.859,270.55,0,-2.68,-56.03,9.09,0.15,20.324,0,0,0,270.4,0,0,0,0,0,0,0,0,0,0,1,1,3.54,FLYING
3.7,APPROACH,ILS_TRACK,79.44,76,-3.44,488.48,-7.55,3.06,8.14,270.45,-0.801,0,-13.55,270.54,0,-2.7,-56.74,9.073,0.139,19.848,0,0,0,270.4,0,0,0,0,0,0,0,0,0,0,1,1,3.74,FLYING
3.9,APPROACH,ILS_TRACK,79.25,76,-3.25,487.08,-6.82,3.37,7.97,270.47,-0.752,0,-14.204,270.53,0,-2.72,-57.29,9.057,0.13,19.405,0,0,0,270.4,0,0,0,0,0,0,0,0,0,0,1,1,3.94,FLYING
4.1,APPROACH,ILS_TRACK,79.06,76,-3.06,485.81,-6.16,3.68,7.84,270.48,-0.691,0,-14.82,270.52,0,-2.73,-57.71,9.04,0.12,18.972,0,0,0,270.4,0,0,0,0,0,0,0,0,0,0,1,1,4.14,FLYING
4.32,APPROACH,ILS_TRACK,78.84,76,-2.84,484.53,-5.49,3.98,7.7,270.49,-0.615,0,-15.45,270.51,0,-2.73,-58.02,9.021,0.113,18.554,0,0,0,270.4,0,0,0,0,0,0,0,0,0,0,1,1,4.37,FLYING
4.55,APPROACH,ILS_TRACK,78.62,76,-2.62,483.39,-4.9,4.28,7.6,270.5,-0.532,0,-15.977,270.5,0,-2.73,-58.2,9.003,0.101,18.159,0,0,0,270.4,0,0,0,0,0,0,0,0,0,0,1,1,4.6,FLYING
4.84,APPROACH,ILS_TRACK,78.34,76,-2.34,482.08,-4.2,4.61,7.47,270.51,-0.419,0,-16.572,270.49,0,-2.71,-58.25,8.98,0.092,17.653,0,0,0,270.4,0,0,0,0,0,0,0,0,0,0,1,1,4.91,FLYING
5.16,APPROACH,ILS_TRACK,77.98,76,-1.98,480.89,-3.58,4.91,7.35,270.51,-0.306,0,-17.209,270.49,0,-2.68,-58.12,8.954,0.086,17.09,0,0,0,270.4,0,0,0,0,0,0,0,0,0,0,1,1,5.23,FLYING
5.51,APPROACH,ILS_TRACK,77.55,76,-1.55,479.77,-2.99,5.21,7.27,270.51,-0.195,0,-17.765,270.48,0,-2.64,-57.76,8.925,0.078,16.508,0,0,0,270.4,0,0,0,0,0,0,0,0,0,0,1,1,5.58,FLYING
5.82,APPROACH,ILS_TRACK,77.15,76,-1.15,478.92,-2.55,5.43,7.19,270.5,-0.112,0,-18.14,270.47,0,-2.6,-57.28,8.899,0.072,15.97,0,0,0,270.4,0,0,0,0,0,0,0,0,0,0,1,1,5.89,FLYING
6.14,APPROACH,ILS_TRACK,76.74,76,-0.74,478.19,-2.18,5.64,7.15,270.5,-0.042,0,-18.388,270.47,0,-2.56,-56.68,8.873,0.069,15.478,0,0,0,270.4,0,0,0,0,0,0,0,0,0,0,1,1,6.21,FLYING
6.45,APPROACH,ILS_TRACK,76.33,76,-0.33,477.57,-1.87,5.83,7.12,270.5,0.011,0,-18.506,270.46,0,-2.52,-55.97,8.848,0.064,15.006,0,0,0,270.4,0,0,0,0,0,0,0,0,0,0,1,1,6.52,FLYING
6.8,APPROACH,ILS_TRACK,75.87,76,0.13,476.99,-1.57,6.02,7.12,270.49,0.057,0,-18.475,270.46,0,-2.47,-55.09,8.819,0.063,14.512,0,0,0,270.4,0,0,0,0,0,0,0,0,0,0,1,1,6.87,FLYING
7.12,APPROACH,ILS_TRACK,75.44,76,0.56,476.55,-1.35,6.16,7.11,270.49,0.082,0,-18.315,270.46,0,-2.42,-54.22,8.794,0.063,14.063,0,0,0,270.4,0,0,0,0,0,0,0,0,0,0,1,1,7.19,FLYING
7.43,APPROACH,ILS_TRACK,75.02,76,0.98,476.16,-1.16,6.31,7.13,270.48,0.097,0,-18.021,270.46,0,-2.38,-53.3,8.769,0.061,13.636,0,0,0,270.4,0,0,0,0,0,0,0,0,0,0,1,1,7.5,FLYING
7.75,APPROACH,ILS_TRACK,74.59,76,1.41,475.83,-1,6.44,7.15,270.48,0.102,0,-17.593,270.46,0,-2.34,-52.32,8.743,0.061,13.222,0,0,0,270.4,0,0,0,0,0,0,0,0,0,0,1,1,7.82,FLYING
8.1,APPROACH,ILS_TRACK,74.11,76,1.89,475.52,-0.85,6.58,7.19,270.48,0.102,0,-16.949,270.46,0,-2.29,-51.2,8.716,0.06,12.778,0,0,0,270.4,0,0,0,0,0,0,0,0,0,0,1,1,8.17,FLYING
8.41,APPROACH,ILS_TRACK,73.68,76,2.32,475.28,-0.74,6.69,7.22,270.47,0.106,0,-16.234,270.46,0,-2.26,-50.15,8.691,0.06,12.378,0,0,0,270.4,0,0,0,0,0,0,0,0,0,0,1,1,8.48,FLYING
8.73,APPROACH,ILS_TRACK,73.24,76,2.76,475.07,-0.65,6.78,7.25,270.47,0.105,0,-15.381,270.46,0,-2.22,-49.07,8.666,0.06,11.995,0,0,0,270.4,0,0,0,0,0,0,0,0,0,0,1,1,8.8,FLYING
9.04,APPROACH,ILS_TRACK,72.81,76,3.19,474.88,-0.58,6.87,7.3,270.47,0.096,0.0002,-14.391,270.46,0,-2.18,-47.98,8.642,0.058,11.621,0,0,0,270.4,0,0,0,0,0,0,0,0,0,0,1,1,9.11,FLYING
9.39,APPROACH,ILS_TRACK,72.32,76,3.68,474.7,-0.53,6.97,7.35,270.47,0.086,0.0421,-13.121,270.46,0,-2.15,-46.75,8.615,0.059,11.222,0,0,0,270.4,0,0,0,0,0,0,0,0,0,0,1,1,9.46,FLYING
9.71,APPROACH,ILS_TRACK,71.89,76,4.11,474.54,-0.48,7.06,7.42,270.47,0.073,0.0814,-11.841,270.46,0,-2.11,-45.64,8.591,0.059,10.868,0,0,0,270.4,0,0,0,0,0,0,0,0,0,0,1,1,9.78,FLYING
10.02,APPROACH,ILS_TRACK,71.45,76,4.55,474.4,-0.45,7.15,7.48,270.47,0.064,0.1224,-10.424,270.46,0,-2.08,-44.52,8.567,0.059,10.522,0,0,0,270.4,0,0,0,0,0,0,0,0,0,0,1,1,10.09,FLYING
10.34,APPROACH,ILS_TRACK,71.02,76,4.98,474.27,-0.42,7.25,7.56,270.47,0.058,0.1649,-8.87,270.46,0,-2.05,-43.41,8.543,0.057,10.18,0,0,0,270.4,0,0,0,0,0,0,0,0,0,0,1,1,10.41,FLYING
10.69,APPROACH,ILS_TRACK,70.55,76,5.45,474.14,-0.39,7.34,7.63,270.47,0.054,0.2136,-6.978,270.46,0,-2.02,-42.16,8.516,0.057,9.804,0,0,0,270.4,0,0,0,0,0,0,0,0,0,0,1,1,10.76,FLYING
11,APPROACH,ILS_TRACK,70.13,76,5.87,474.02,-0.38,7.43,7.7,270.47,0.05,0.2586,-5.143,270.45,0,-1.99,-41.04,8.493,0.055,9.469,0,0,0,270.4,0,0,0,0,0,0,0,0,0,0,1,1,11.07,FLYING
11.32,APPROACH,ILS_TRACK,69.72,76,6.28,473.91,-0.36,7.51,7.78,270.47,0.05,0.3046,-3.18,270.46,0,-1.96,-39.92,8.469,0.055,9.136,0,0,0,270.4,0,0,0,0,0,0,0,0,0,0,1,1,11.39,FLYING
11.63,APPROACH,ILS_TRACK,69.33,76,6.67,473.81,-0.34,7.59,7.85,270.46,0.049,0.3514,-1.092,270.45,0,-1.93,-38.81,8.446,0.055,8.806,0,0,0,270.4,0,0,0,0,0,0,0,0,0,0,1,1,11.7,FLYING
11.98,APPROACH,ILS_TRACK,68.91,76,7.09,473.69,-0.33,7.68,7.93,270.47,0.046,0.4042,1.375,270.45,0,-1.9,-37.57,8.42,0.053,8.44,0,0,0,270.4,0,0,0,0,0,0,0,0,0,0,1,1,12.05,FLYING
12.3,APPROACH,ILS_TRACK,68.55,76,7.45,473.6,-0.32,7.75,7.99,270.47,0.044,0.4522,3.71,270.45,0,-1.87,-36.46,8.397,0.051,8.113,0,0,0,270.4,0,0,0,0,0,0,0,0,0,0,1,1,12.37,FLYING
12.61,APPROACH,ILS_TRACK,68.21,76,7.79,473.5,-0.3,7.82,8.06,270.47,0.041,0.5003,6.153,270.45,0,-1.84,-35.35,8.374,0.052,7.787,0,0,0,270.4,0,0,0,0,0,0,0,0,0,0,1,1,12.68,FLYING
12.93,APPROACH,ILS_TRACK,67.89,76,8.11,473.42,-0.29,7.89,8.12,270.47,0.037,0.5486,8.697,270.45,0,-1.81,-34.24,8.351,0.049,7.461,0,0,0,270.4,0,0,0,0,0,0,0,0,0,0,1,1,13,FLYING
13.28,APPROACH,ILS_TRACK,67.56,76,8.44,473.32,-0.28,7.96,8.18,270.47,0.036,0.6021,11.639,270.45,0,-1.78,-33.01,8.326,0.048,7.098,0,0,0,270.4,0,0,0,0,0,0,0,0,0,0,1,1,13.35,FLYING
13.59,APPROACH,ILS_TRACK,67.29,76,8.71,473.24,-0.27,8.02,8.23,270.47,0.038,0.6498,14.373,270.45,0,-1.75,-31.91,8.303,0.047,6.772,0,0,0,270.4,0,0,0,0,0,0,0,0,0,0,1,1,13.66,FLYING
13.91,APPROACH,ILS_TRACK,67.05,76,8.95,473.16,-0.26,8.06,8.27,270.47,0.037,0.6969,17.183,270.45,0,-1.72,-30.81,8.281,0.047,6.445,0,0,0,270.4,0,0,0,0,0,0,0,0,0,0,1,1,13.98,FLYING
14.22,APPROACH,ILS_TRACK,66.84,76,9.16,473.08,-0.25,8.11,8.3,270.47,0.038,0.7425,20,270.44,0,-1.69,-29.71,8.258,0.043,6.116,0,0,0,270.4,0,0,0,0,0,0,0,0,0,0,1,1,14.29,FLYING
14.57,APPROACH,ILS_TRACK,66.64,76,9.36,472.99,-0.24,8.15,8.34,270.47,0.036,0.7536,20,270.44,0,-1.66,-28.48,8.233,0.044,5.751,0,0,0,270.4,0,0,0,0,0,0,0,0,0,0,1,1,14.64,FLYING
14.89,APPROACH,ILS_TRACK,66.5,76,9.5,472.92,-0.23,8.17,8.36,270.47,0.039,0.7617,20,270.44,0,-1.63,-27.38,8.211,0.04,5.42,0,0,0,270.4,0,0,0,0,0,0,0,0,0,0,1,1,14.96,FLYING
15.2,APPROACH,ILS_TRACK,66.39,76,9.61,472.85,-0.22,8.2,8.37,270.47,0.039,0.768,20,270.44,0,-1.6,-26.28,8.189,0.04,5.087,0,0,0,270.4,0,0,0,0,0,0,0,0,0,0,1,1,15.27,FLYING
15.52,APPROACH,ILS_TRACK,66.31,76,9.69,472.79,-0.21,8.21,8.38,270.47,0.038,0.7726,20,270.44,0,-1.57,-25.18,8.166,0.039,4.753,0,0,0,270.4,0,0,0,0,0,0,0,0,0,0,1,1,15.59,FLYING
15.87,APPROACH,ILS_TRACK,66.26,76,9.74,472.72,-0.19,8.22,8.38,270.48,0.038,0.7757,20,270.44,0,-1.53,-23.95,8.142,0.037,4.378,0,0,0,270.4,0,0,0,0,0,0,0,0,0,0,1,1,15.94,FLYING
16.18,APPROACH,ILS_TRACK,66.24,76,9.76,472.66,-0.18,8.22,8.37,270.48,0.037,0.7767,20,270.43,0,-1.5,-22.84,8.119,0.034,4.038,0,0,0,270.4,0,0,0,0,0,0,0,0,0,0,1,1,16.25,FLYING
16.5,APPROACH,ILS_TRACK,66.26,76,9.74,472.6,-0.17,8.22,8.36,270.48,0.037,0.7761,20,270.43,0,-1.47,-21.73,8.097,0.035,3.696,0,0,0,270.4,0,0,0,0,0,0,0,0,0,0,1,1,16.57,FLYING
16.81,APPROACH,ILS_TRACK,66.3,76,9.7,472.55,-0.16,8.2,8.33,270.48,0.037,0.7739,20,270.43,0,-1.44,-20.62,8.075,0.032,3.35,0,0,0,270.4,0,0,0,0,0,0,0,0,0,0,1,1,16.88,FLYING
17.16,APPROACH,ILS_TRACK,66.38,76,9.62,472.5,-0.15,8.19,8.31,270.48,0.038,0.7697,20,270.43,-0.036,-1.4,-19.37,8.05,0.031,2.964,0,0,0,270.4,0,0,0,0,0,0,0,0,0,0,1,1,17.23,FLYING
17.48,APPROACH,ILS_TRACK,66.48,76,9.52,472.45,-0.13,8.14,8.27,270.48,0.038,0.7644,20,270.43,-0.387,-1.37,-18.24,8.028,0.028,2.613,0,0,0,270.4,0,0,0,0,0,0,0,0,0,0,1,1,17.55,FLYING
17.79,APPROACH,ILS_TRACK,66.6,76,9.4,472.4,-0.14,8.01,8.17,270.48,0.057,0.7576,20,270.43,-0.726,-1.34,-17.12,8.005,0.027,2.274,0,0,0,270.4,0,0,0,0,0,0,0,0,0,0,1,1,17.86,FLYING
18.11,APPROACH,ILS_TRACK,66.76,76,9.24,472.33,-0.22,7.75,7.96,270.47,0.096,0.7491,20,270.43,-1.025,-1.3,-16,7.983,0.026,1.975,0,0,0,270.4,0,0,0,0,0,0,0,0,0,0,1,1,18.18,FLYING
18.46,APPROACH,ILS_TRACK,66.98,76,9.02,472.22,-0.34,7.52,7.84,270.46,0.127,0.7375,20,270.42,-1.328,-1.27,-14.79,7.958,0.025,1.672,0,0,0,270.4,0,0,0,0,0,0,0,0,0,0,1,1,18.53,FLYING
18.77,APPROACH,ILS_TRACK,67.2,76,8.8,472.08,-0.49,7.28,7.7,270.46,0.144,0.7252,20,270.42,-1.543,-1.23,-13.74,7.935,0.023,1.457,0,0,0,270.4,0,0,0,0,0,0,0,0,0,0,1,1,18.84,FLYING
19.09,APPROACH,ILS_TRACK,67.46,76,8.54,471.88,-0.65,7.06,7.61,270.45,0.154,0.7112,20,270.42,-1.738,-1.2,-12.74,7.912,0.025,1.262,0,0,0,270.4,0,0,0,0,0,0,0,0,0,0,1,1,19.16,FLYING
19.4,APPROACH,ILS_TRACK,67.75,76,8.25,471.64,-0.82,6.83,7.51,270.45,0.156,0.6956,20,270.42,-1.903,-1.18,-11.78,7.89,0.024,1.097,0,0,0,270.4,0,0,0,0,0,0,0,0,0,0,1,1,19.47,FLYING
19.75,APPROACH,ILS_TRACK,68.1,76,7.9,471.29,-1.03,6.58,7.42,270.44,0.156,0.6765,20,270.42,-2.066,-1.15,-10.77,7.864,0.025,0.934,0,0,0,270.4,0,0,0,0,0,0,0,0,0,0,1,1,19.82,FLYING
20.07,APPROACH,ILS_TRACK,68.44,76,7.56,470.92,-1.23,6.36,7.35,270.44,0.148,0.6579,20,270.43,-2.175,-1.12,-9.92,7.841,0.025,0.825,0,0,0,270.4,0,0,0,0,0,0,0,0,0,0,1,1,20.14,FLYING
20.38,APPROACH,ILS_TRACK,68.81,76,7.19,470.49,-1.42,6.15,7.28,270.44,0.14,0.638,20,270.42,-2.277,-1.1,-9.13,7.818,0.025,0.723,0,0,0,270.4,0,0,0,0,0,0,0,0,0,0,1,1,20.45,FLYING
20.7,APPROACH,ILS_TRACK,69.19,76,6.81,470,-1.61,5.95,7.22,270.43,0.128,0.617,20,270.43,-2.362,-1.08,-8.39,7.795,0.027,0.638,0,0,0,270.4,0,0,0,0,0,0,0,0,0,0,1,1,20.77,FLYING
21.05,APPROACH,ILS_TRACK,69.64,76,6.36,469.38,-1.81,5.74,7.16,270.43,0.112,0.5925,20,270.43,-2.454,-1.06,-7.63,7.769,0.026,0.546,0,0,0,270.4,0,0,0,0,0,0,0,0,0,0,1,1,21.12,FLYING
21.36,APPROACH,ILS_TRACK,70.06,76,5.94,468.77,-1.99,5.55,7.09,270.43,0.098,0.5696,20,270.43,-2.51,-1.04,-7,7.745,0.028,0.49,0,0,0,270.4,0,0,0,0,0,0,0,0,0,0,1,1,21.43,FLYING
21.68,APPROACH,ILS_TRACK,70.49,76,5.51,468.1,-2.15,5.38,7.04,270.43,0.084,0.5458,20,270.43,-2.569,-1.02,-6.41,7.721,0.027,0.431,0,0,0,270.4,0,0,0,0,0,0,0,0,0,0,1,1,21.75,FLYING
21.99,APPROACH,ILS_TRACK,70.93,76,5.07,467.39,-2.32,5.21,6.98,270.43,0.074,0.5215,20,270.43,-2.618,-1,-5.87,7.698,0.028,0.382,0,0,0,270.4,0,0,0,0,0,0,0,0,0,0,1,1,22.06,FLYING
22.34,APPROACH,ILS_TRACK,71.43,76,4.57,466.53,-2.48,5.03,6.91,270.43,0.06,0.4939,20,270.43,-2.673,-0.99,-5.31,7.671,0.028,0.327,0,0,0,270.4,0,0,0,0,0,0,0,0,0,0,1,1,22.41,FLYING
22.66,APPROACH,ILS_TRACK,71.9,76,4.1,465.71,-2.63,4.87,6.85,270.43,0.053,0.4686,20,270.43,-2.705,-0.97,-4.85,7.647,0.027,0.295,0,0,0,270.4,0,0,0,0,0,0,0,0,0,0,1,1,22.73,FLYING
22.97,APPROACH,ILS_TRACK,72.36,76,3.64,464.85,-2.77,4.73,6.79,270.43,0.052,0.443,20,270.43,-2.739,-0.96,-4.43,7.623,0.026,0.261,0,0,0,270.4,0,0,0,0,0,0,0,0,0,0,1,1,23.04,FLYING
23.29,APPROACH,ILS_TRACK,72.83,76,3.17,463.95,-2.9,4.59,6.74,270.43,0.048,0.4174,20,270.43,-2.768,-0.94,-4.05,7.598,0.027,0.232,0,0,0,270.4,0,0,0,0,0,0,0,0,0,0,1,1,23.36,FLYING
23.64,APPROACH,ILS_TRACK,73.34,76,2.66,462.9,-3.03,4.45,6.68,270.43,0.038,0.3892,20,270.43,-2.803,-0.93,-3.65,7.571,0.027,0.197,0,0,0,270.4,0,0,0,0,0,0,0,0,0,0,1,1,23.71,FLYING
23.95,APPROACH,ILS_TRACK,73.79,76,2.21,461.92,-3.14,4.34,6.63,270.43,0.034,0.3645,20,270.43,-2.823,-0.92,-3.33,7.546,0.025,0.177,0,0,0,270.4,0,0,0,0,0,0,0,0,0,0,1,1,24.02,FLYING
24.27,APPROACH,ILS_TRACK,74.22,76,1.78,460.9,-3.24,4.24,6.59,270.43,0.034,0.3406,20,270.43,-2.848,-0.9,-3.03,7.521,0.026,0.152,0,0,0,270.4,0,0,0,0,0,0,0,0,0,0,1,1,24.34,FLYING
24.58,APPROACH,ILS_TRACK,74.63,76,1.37,459.86,-3.33,4.15,6.55,270.43,0.03,0.3178,20,270.43,-2.874,-0.89,-2.76,7.496,0.026,0.126,0,0,0,270.4,0,0,0,0,0,0,0,0,0,0,1,1,24.65,FLYING
24.93,APPROACH,ILS_TRACK,75.06,76,0.94,458.67,-3.42,4.05,6.5,270.43,0.027,0.2938,20,270.43,-2.906,-0.88,-2.47,7.468,0.025,0.094,0,0,0,270.4,0,0,0,0,0,0,0,0,0,0,1,1,25,FLYING
25.25,APPROACH,ILS_TRACK,75.43,76,0.57,457.58,-3.49,3.97,6.46,270.42,0.023,0.2737,20,270.43,-2.927,-0.87,-2.24,7.443,0.025,0.073,0,0,0,270.4,0,0,0,0,0,0,0,0,0,0,1,1,25.32,FLYING
25.56,APPROACH,ILS_TRACK,75.76,76,0.24,456.46,-3.57,3.89,6.42,270.43,0.019,0.255,20,270.42,-2.949,-0.85,-2.02,7.417,0.024,0.051,0,0,0,270.4,0,0,0,0,0,0,0,0,0,0,1,1,25.63,FLYING
25.88,APPROACH,ILS_TRACK,76.08,76,-0.08,455.32,-3.63,3.82,6.39,270.42,0.019,0.2375,19.987,270.42,-2.969,-0.84,-1.82,7.392,0.024,0.031,0,0,0,270.4,0,0,0,0,0,0,0,0,0,0,1,1,25.95,FLYING
26.23,APPROACH,ILS_TRACK,76.39,76,-0.39,454.03,-3.7,3.75,6.36,270.43,0.015,0.2186,19.861,270.42,-2.991,-0.83,-1.61,7.363,0.025,0.009,0,0,0,270.4,0,0,0,0,0,0,0,0,0,0,1,1,26.3,FLYING
26.54,APPROACH,ILS_TRACK,76.64,76,-0.64,452.85,-3.76,3.69,6.33,270.42,0.016,0.2022,19.667,270.42,-3.004,-0.82,-1.44,7.338,0.023,-0.004,0,0,0,270.4,0,0,0,0,0,0,0,0,0,0,1,1,26.61,FLYING
26.86,APPROACH,ILS_TRACK,76.87,76,-0.87,451.66,-3.81,3.64,6.31,270.43,0.016,0.1864,19.401,270.42,-3.017,-0.81,-1.28,7.312,0.024,-0.017,0,0,0,270.4,0,0,0,0,0,0,0,0,0,0,1,1,26.93,FLYING
27.17,APPROACH,ILS_TRACK,77.07,76,-1.07,450.45,-3.86,3.6,6.29,270.42,0.014,0.1714,19.072,270.42,-3.03,-0.79,-1.13,7.286,0.022,-0.03,0,0,0,270.4,0,0,0,0,0,0,0,0,0,0,1,1,27.24,FLYING
27.52,APPROACH,ILS_TRACK,77.25,76,-1.25,449.08,-3.91,3.56,6.28,270.43,0.012,0.1556,18.639,270.42,-3.043,-0.78,-0.99,7.257,0.022,-0.043,0,0,0,270.4,0,0,0,0,0,0,0,0,0,0,1,1,27.59,FLYING
27.84,APPROACH,ILS_TRACK,77.4,76,-1.4,447.85,-3.95,3.52,6.27,270.42,0.012,0.1424,18.204,270.42,-3.051,-0.77,-0.86,7.231,0.021,-0.051,0,0,0,270.4,0,0,0,0,0,0,0,0,0,0,1,1,27.91,FLYING
28.15,APPROACH,ILS_TRACK,77.51,76,-1.51,446.59,-3.98,3.49,6.26,270.42,0.011,0.1302,17.731,270.42,-3.059,-0.76,-0.75,7.205,0.022,-0.059,0,0,0,270.4,0,0,0,0,0,0,0,0,0,0,1,1,28.22,FLYING
28.47,APPROACH,ILS_TRACK,77.6,76,-1.6,445.33,-4.02,3.47,6.25,270.42,0.01,0.1191,17.229,270.42,-3.065,-0.75,-0.65,7.18,0.021,-0.065,0,0,0,270.4,0,0,0,0,0,0,0,0,0,0,1,1,28.54,FLYING
28.82,APPROACH,ILS_TRACK,77.67,76,-1.67,443.92,-4.05,3.45,6.26,270.42,0.008,0.108,16.645,270.42,-3.073,-0.74,-0.55,7.151,0.02,-0.073,0,0,0,270.4,0,0,0,0,0,0,0,0,0,0,1,1,28.89,FLYING
29.13,APPROACH,ILS_TRACK,77.71,76,-1.71,442.64,-4.08,3.43,6.26,270.42,0.01,0.0993,16.107,270.42,-3.076,-0.72,-0.46,7.125,0.019,-0.076,0,0,0,270.4,0,0,0,0,0,0,0,0,0,0,1,1,29.2,FLYING
29.45,APPROACH,ILS_TRACK,77.73,76,-1.73,441.35,-4.1,3.42,6.26,270.42,0.012,0.0917,15.562,270.42,-3.079,-0.71,-0.38,7.099,0.02,-0.079,0,0,0,270.4,0,0,0,0,0,0,0,0,0,0,1,1,29.52,FLYING
29.76,APPROACH,ILS_TRACK,77.72,76,-1.72,440.05,-4.12,3.41,6.27,270.42,0.011,0.0853,15.018,270.42,-3.081,-0.7,-0.32,7.073,0.019,-0.081,0,0,0,270.4,0,0,0,0,0,0,0,0,0,0,1,1,29.83,FLYING
30.11,APPROACH,ILS_TRACK,77.7,76,-1.7,438.6,-4.14,3.41,6.28,270.42,0.012,0.0796,14.423,270.42,-3.084,-0.69,-0.25,7.044,0.02,-0.084,0,0,0,270.4,0,0,0,0,0,0,0,0,0,0,1,1,30.18,FLYING
30.43,APPROACH,ILS_TRACK,77.65,76,-1.65,437.3,-4.16,3.41,6.29,270.42,0.011,0.0757,13.902,270.42,-3.084,-0.68,-0.19,7.018,0.018,-0.084,0,0,0,270.4,0,0,0,0,0,0,0,0,0,0,1,1,30.5,FLYING
30.74,APPROACH,ILS_TRACK,77.59,76,-1.59,435.98,-4.17,3.41,6.31,270.42,0.012,0.073,13.399,270.42,-3.085,-0.67,-0.14,6.992,0.018,-0.085,0,0,0,270.4,0,0,0,0,0,0,0,0,0,0,1,1,30.81,FLYING
31.06,APPROACH,ILS_TRACK,77.51,76,-1.51,434.67,-4.18,3.42,6.32,270.42,0.01,0.0715,12.92,270.42,-3.085,-0.66,-0.1,6.966,0.018,-0.085,0,0,0,270.4,0,0,0,0,0,0,0,0,0,0,1,1,31.13,FLYING
31.41,APPROACH,ILS_TRACK,77.41,76,-1.41,433.2,-4.19,3.42,6.34,270.42,0.01,0.0711,12.424,270.42,-3.084,-0.65,-0.05,6.937,0.017,-0.084,0,0,0,270.4,0,0,0,0,0,0,0,0,0,0,1,1,31.48,FLYING
31.72,APPROACH,ILS_TRACK,77.3,76,-1.3,431.88,-4.2,3.44,6.36,270.42,0.008,0.0719,12.011,270.42,-3.083,-0.63,-0.02,6.911,0.017,-0.083,0,0,0,270.4,0,0,0,0,0,0,0,0,0,0,1,1,31.79,FLYING
32.04,APPROACH,ILS_TRACK,77.18,76,-1.18,430.56,-4.21,3.45,6.38,270.42,0.011,0.0737,11.633,270.42,-3.082,-0.62,0.01,6.885,0.017,-0.082,0,0,0,270.4,0,0,0,0,0,0,0,0,0,0,1,1,32.11,FLYING
32.35,APPROACH,ILS_TRACK,77.06,76,-1.06,429.23,-4.21,3.46,6.4,270.42,0.01,0.0765,11.295,270.42,-3.08,-0.61,0.04,6.859,0.016,-0.08,0,0,0,270.4,0,0,0,0,0,0,0,0,0,0,1,1,32.42,FLYING
32.7,APPROACH,ILS_TRACK,76.91,76,-0.91,427.76,-4.21,3.48,6.43,270.42,0.011,0.0807,10.971,270.42,-3.078,-0.6,0.07,6.831,0.016,-0.078,0,0,0,270.4,0,0,0,0,0,0,0,0,0,0,1,1,32.77,FLYING
33.02,APPROACH,ILS_TRACK,76.77,76,-0.77,426.43,-4.22,3.49,6.45,270.42,0.01,0.0852,10.722,270.41,-3.075,-0.59,0.09,6.805,0.014,-0.075,0,0,0,270.4,0,0,0,0,0,0,0,0,0,0,1,1,33.09,FLYING
33.33,APPROACH,ILS_TRACK,76.63,76,-0.63,425.1,-4.22,3.51,6.48,270.42,0.011,0.0906,10.518,270.42,-3.073,-0.58,0.1,6.779,0.015,-0.073,0,0,0,270.4,0,0,0,0,0,0,0,0,0,0,1,1,33.4,FLYING
33.65,APPROACH,ILS_TRACK,76.49,76,-0.49,423.78,-4.22,3.53,6.5,270.42,0.01,0.0966,10.359,270.41,-3.071,-0.57,0.12,6.754,0.014,-0.071,0,0,0,270.4,0,0,0,0,0,0,0,0,0,0,1,1,33.72,FLYING
34,APPROACH,ILS_TRACK,76.33,76,-0.33,422.3,-4.21,3.55,6.52,270.42,0.011,0.104,10.239,270.41,-3.069,-0.56,0.13,6.725,0.014,-0.069,0,0,0,270.4,0,0,0,0,0,0,0,0,0,0,1,1,34.07,FLYING
34.31,APPROACH,ILS_TRACK,76.18,76,-0.18,420.97,-4.21,3.57,6.55,270.42,0.013,0.1111,10.176,270.41,-3.065,-0.55,0.14,6.7,0.014,-0.065,0,0,0,270.4,0,0,0,0,0,0,0,0,0,0,1,1,34.38,FLYING
34.63,APPROACH,ILS_TRACK,76.04,76,-0.04,419.65,-4.21,3.59,6.57,270.42,0.011,0.1188,10.158,270.41,-3.062,-0.53,0.15,6.675,0.013,-0.062,0,0,0,270.4,0,0,0,0,0,0,0,0,0,0,1,1,34.7,FLYING
34.94,APPROACH,ILS_TRACK,75.9,76,0.1,418.32,-4.21,3.6,6.59,270.42,0.009,0.1269,10.185,270.41,-3.059,-0.52,0.15,6.649,0.012,-0.059,0,0,0,270.4,0,0,0,0,0,0,0,0,0,0,1,1,35.01,FLYING
35.29,APPROACH,ILS_TRACK,75.74,76,0.26,416.85,-4.21,3.62,6.62,270.42,0.009,0.1365,10.27,270.41,-3.056,-0.51,0.16,6.621,0.012,-0.056,0,0,0,270.4,0,0,0,0,0,0,0,0,0,0,1,1,35.36,FLYING
35.61,APPROACH,ILS_TRACK,75.6,76,0.4,415.53,-4.2,3.64,6.64,270.43,0.008,0.1456,10.389,270.41,-3.053,-0.5,0.16,6.596,0.012,-0.053,0,0,0,270.4,0,0,0,0,0,0,0,0,0,0,1,1,35.68,FLYING
35.92,APPROACH,ILS_TRACK,75.47,76,0.53,414.21,-4.2,3.66,6.66,270.42,0.009,0.155,10.552,270.41,-3.05,-0.49,0.16,6.57,0.011,-0.05,0,0,0,270.4,0,0,0,0,0,0,0,0,0,0,1,1,35.99,FLYING
36.24,APPROACH,ILS_TRACK,75.34,76,0.66,412.89,-4.19,3.68,6.68,270.43,0.011,0.1648,10.757,270.41,-3.047,-0.48,0.16,6.545,0.01,-0.047,0,0,0,270.4,0,0,0,0,0,0,0,0,0,0,1,1,36.31,FLYING
36.59,APPROACH,ILS_TRACK,75.19,76,0.81,411.42,-4.19,3.7,6.7,270.42,0.01,0.1761,11.035,270.41,-3.043,-0.47,0.16,6.517,0.01,-0.043,0,0,0,270.4,0,0,0,0,0,0,0,0,0,0,1,1,36.66,FLYING
36.9,APPROACH,ILS_TRACK,75.07,76,0.93,410.1,-4.18,3.72,6.72,270.43,0.01,0.1865,11.324,270.41,-3.04,-0.45,0.15,6.492,0.009,-0.04,0,0,0,270.4,0,0,0,0,0,0,0,0,0,0,1,1,36.97,FLYING
37.22,APPROACH,ILS_TRACK,74.95,76,1.05,408.79,-4.18,3.73,6.74,270.43,0.011,0.1971,11.652,270.41,-3.037,-0.44,0.15,6.467,0.009,-0.037,0,0,0,270.4,0,0,0,0,0,0,0,0,0,0,1,1,37.29,FLYING
37.53,APPROACH,ILS_TRACK,74.83,76,1.17,407.47,-4.18,3.75,6.76,270.43,0.01,0.2079,12.017,270.41,-3.033,-0.43,0.15,6.442,0.009,-0.033,0,0,0,270.4,0,0,0,0,0,0,0,0,0,0,1,1,37.6,FLYING
37.88,APPROACH,ILS_TRACK,74.71,76,1.29,406.01,-4.17,3.77,6.78,270.43,0.011,0.22,12.465,270.41,-3.031,-0.42,0.14,6.414,0.006,-0.031,0,0,0,270.4,0,0,0,0,0,0,0,0,0,0,1,1,37.95,FLYING
38.2,APPROACH,ILS_TRACK,74.6,76,1.4,404.7,-4.17,3.78,6.79,270.43,0.011,0.2311,12.902,270.41,-3.027,-0.41,0.14,6.389,0.007,-0.027,0,0,0,270.4,0,0,0,0,0,0,0,0,0,0,1,1,38.27,FLYING
38.51,APPROACH,ILS_TRACK,74.5,76,1.5,403.39,-4.16,3.8,6.81,270.43,0.01,0.2421,13.37,270.41,-3.025,-0.39,0.13,6.365,0.006,-0.025,0,0,0,270.4,0,0,0,0,0,0,0,0,0,0,1,1,38.58,FLYING
38.83,APPROACH,ILS_TRACK,74.41,76,1.59,402.08,-4.16,3.81,6.82,270.43,0.012,0.2532,13.867,270.41,-3.022,-0.38,0.12,6.34,0.006,-0.022,0,0,0,270.4,0,0,0,0,0,0,0,0,0,0,1,1,38.9,FLYING
39.18,APPROACH,ILS_TRACK,74.32,76,1.68,400.63,-4.15,3.82,6.84,270.43,0.011,0.2654,14.452,270.4,-3.02,-0.37,0.12,6.312,0.005,-0.02,0,0,0,270.4,0,0,0,0,0,0,0,0,0,0,1,1,39.25,FLYING
39.49,APPROACH,ILS_TRACK,74.24,76,1.76,399.32,-4.15,3.83,6.85,270.43,0.014,0.2763,15.003,270.4,-3.017,-0.36,0.11,6.287,0.005,-0.017,0,0,0,270.4,0,0,0,0,0,0,0,0,0,0,1,1,39.56,FLYING
39.81,APPROACH,ILS_TRACK,74.17,76,1.83,398.02,-4.14,3.84,6.86,270.43,0.013,0.287,15.576,270.4,-3.015,-0.34,0.11,6.262,0.004,-0.015,0,0,0,270.4,0,0,0,0,0,0,0,0,0,0,1,1,39.88,FLYING
40.12,APPROACH,ILS_TRACK,74.11,76,1.89,396.71,-4.14,3.85,6.86,270.43,0.013,0.2975,16.169,270.4,-3.014,-0.33,0.1,6.238,0.004,-0.014,0,0,0,270.4,0,0,0,0,0,0,0,0,0,0,1,1,40.19,FLYING
40.47,APPROACH,ILS_TRACK,74.06,76,1.94,395.26,-4.14,3.86,6.87,270.43,0.012,0.3088,16.848,270.4,-3.012,-0.32,0.09,6.21,0.003,-0.012,0,0,0,270.4,0,0,0,0,0,0,0,0,0,0,1,1,40.54,FLYING
40.79,APPROACH,ILS_TRACK,74.01,76,1.99,393.96,-4.13,3.87,6.88,270.43,0.013,0.3187,17.472,270.4,-3.011,-0.31,0.09,6.185,0.002,-0.011,0,0,0,270.4,0,0,0,0,0,0,0,0,0,0,1,1,40.86,FLYING
41.1,APPROACH,ILS_TRACK,73.98,76,2.02,392.66,-4.13,3.87,6.88,270.43,0.013,0.3282,18.107,270.4,-3.011,-0.29,0.08,6.161,0.001,-0.011,0,0,0,270.4,0,0,0,0,0,0,0,0,0,0,1,1,41.17,FLYING
41.42,APPROACH,ILS_TRACK,73.96,76,2.04,391.36,-4.12,3.88,6.88,270.43,0.014,0.3372,18.75,270.4,-3.01,-0.28,0.08,6.136,0,-0.01,0,0,0,270.4,0,0,0,0,0,0,0,0,0,0,1,1,41.49,FLYING
41.77,APPROACH,ILS_TRACK,73.94,76,2.06,389.92,-4.12,3.88,6.88,270.43,0.015,0.3468,19.47,270.4,-3.01,-0.26,0.07,6.109,0,-0.01,0,0,0,270.4,0,0,0,0,0,0,0,0,0,0,1,1,41.84,FLYING
42.08,APPROACH,ILS_TRACK,73.94,76,2.06,388.62,-4.12,3.88,6.88,270.43,0.017,0.3533,20,270.4,-3.011,-0.25,0.07,6.084,0,-0.011,0,0,0,270.4,0,0,0,0,0,0,0,0,0,0,1,1,42.15,FLYING
42.4,APPROACH,ILS_TRACK,73.95,76,2.05,387.32,-4.12,3.87,6.88,270.43,0.015,0.353,20,270.4,-3.012,-0.24,0.06,6.059,-0.002,-0.012,0,0,0,270.4,0,0,0,0,0,0,0,0,0,0,1,1,42.47,FLYING
42.71,APPROACH,ILS_TRACK,73.96,76,2.04,386.03,-4.11,3.87,6.87,270.43,0.017,0.3521,20,270.4,-3.013,-0.22,0.06,6.034,-0.002,-0.013,0,0,0,270.4,0,0,0,0,0,0,0,0,0,0,1,1,42.78,FLYING
43.06,APPROACH,ILS_TRACK,73.99,76,2.01,384.59,-4.11,3.87,6.87,270.43,0.016,0.3505,20,270.4,-3.015,-0.21,0.06,6.007,-0.003,-0.015,0,0,0,270.4,0,0,0,0,0,0,0,0,0,0,1,1,43.13,FLYING
43.38,APPROACH,ILS_TRACK,74.03,76,1.97,383.29,-4.11,3.86,6.86,270.43,0.016,0.3485,20,270.4,-3.017,-0.19,0.06,5.982,-0.003,-0.017,0,0,0,270.4,0,0,0,0,0,0,0,0,0,0,1,1,43.45,FLYING
43.69,APPROACH,ILS_TRACK,74.08,76,1.92,382,-4.11,3.86,6.85,270.43,0.017,0.346,20,270.4,-3.02,-0.18,0.06,5.958,-0.003,-0.02,0,0,0,270.4,0,0,0,0,0,0,0,0,0,0,1,1,43.76,FLYING
44.01,APPROACH,ILS_TRACK,74.13,76,1.87,380.7,-4.11,3.85,6.84,270.43,0.018,0.343,20,270.4,-3.023,-0.17,0.06,5.933,-0.004,-0.023,0,0,0,270.4,0,0,0,0,0,0,0,0,0,0,1,1,44.08,FLYING
44.36,APPROACH,ILS_TRACK,74.2,76,1.8,379.26,-4.11,3.83,6.82,270.43,0.017,0.3392,20,270.39,-3.027,-0.15,0.07,5.905,-0.005,-0.027,0,0,0,270.4,0,0,0,0,0,0,0,0,0,0,1,1,44.43,FLYING
44.67,APPROACH,ILS_TRACK,74.28,76,1.72,377.97,-4.11,3.82,6.81,270.43,0.016,0.3353,20,270.39,-3.031,-0.14,0.07,5.881,-0.006,-0.031,0,0,0,270.4,0,0,0,0,0,0,0,0,0,0,1,1,44.74,FLYING
44.99,APPROACH,ILS_TRACK,74.35,76,1.65,376.67,-4.11,3.81,6.8,270.43,0.018,0.331,20,270.39,-3.034,-0.12,0.07,5.856,-0.006,-0.034,0,0,0,270.4,0,0,0,0,0,0,0,0,0,0,1,1,45.06,FLYING
45.3,APPROACH,ILS_TRACK,74.44,76,1.56,375.37,-4.11,3.8,6.78,270.43,0.019,0.3264,20,270.39,-3.039,-0.11,0.08,5.831,-0.007,-0.039,0,0,0,270.4,0,0,0,0,0,0,0,0,0,0,1,1,45.37,FLYING
45.65,APPROACH,ILS_TRACK,74.54,76,1.46,373.93,-4.11,3.78,6.76,270.43,0.022,0.3208,20,270.39,-3.044,-0.09,0.09,5.803,-0.008,-0.044,0,0,0,270.4,0,0,0,0,0,0,0,0,0,0,1,1,45.72,FLYING
45.97,APPROACH,ILS_TRACK,74.64,76,1.36,372.64,-4.12,3.77,6.75,270.43,0.022,0.3155,20,270.39,-3.049,-0.08,0.1,5.778,-0.008,-0.049,0,0,0,270.4,0,0,0,0,0,0,0,0,0,0,1,1,46.04,FLYING
46.28,APPROACH,ILS_TRACK,74.74,76,1.26,371.34,-4.12,3.75,6.73,270.43,0.022,0.3099,20,270.39,-3.053,-0.07,0.1,5.753,-0.009,-0.053,0,0,0,270.4,0,0,0,0,0,0,0,0,0,0,1,1,46.35,FLYING
46.6,APPROACH,ILS_TRACK,74.85,76,1.15,370.04,-4.12,3.73,6.71,270.43,0.024,0.304,20,270.39,-3.058,-0.05,0.11,5.728,-0.009,-0.058,0,0,0,270.4,0,0,0,0,0,0,0,0,0,0,1,1,46.67,FLYING
46.95,APPROACH,ILS_TRACK,74.97,76,1.03,368.59,-4.13,3.71,6.69,270.43,0.028,0.2972,20,270.39,-3.063,-0.04,0.13,5.701,-0.009,-0.063,0,0,0,270.4,0,0,0,0,0,0,0,0,0,0,1,1,47.02,FLYING
47.26,APPROACH,ILS_TRACK,75.09,76,0.91,367.29,-4.13,3.7,6.67,270.43,0.03,0.2908,20,270.39,-3.068,-0.02,0.14,5.676,-0.01,-0.068,0,0,0,270.4,0,0,0,0,0,0,0,0,0,0,1,1,47.33,FLYING
47.58,APPROACH,ILS_TRACK,75.21,76,0.79,365.99,-4.14,3.68,6.65,270.43,0.031,0.2843,20,270.39,-3.072,-0.01,0.15,5.65,-0.011,-0.072,0,0,0,270.4,0,0,0,0,0,0,0,0,0,0,1,1,47.65,FLYING
47.89,APPROACH,ILS_TRACK,75.33,76,0.67,364.68,-4.14,3.66,6.63,270.43,0.033,0.2777,20,270.39,-3.076,0,0.16,5.625,-0.011,-0.076,0,0,0,270.4,0,0,0,0,0,0,0,0,0,0,1,1,47.96,FLYING
48.24,APPROACH,ILS_TRACK,75.47,76,0.53,363.23,-4.15,3.63,6.61,270.43,0.035,0.2701,20,270.39,-3.081,0.02,0.17,5.597,-0.011,-0.081,0,0,0,270.4,0,0,0,0,0,0,0,0,0,0,1,1,48.31,FLYING
48.56,APPROACH,ILS_TRACK,75.59,76,0.41,361.92,-4.16,3.62,6.59,270.42,0.034,0.2633,20,270.39,-3.084,0.03,0.18,5.572,-0.011,-0.084,0,0,0,270.4,0,0,0,0,0,0,0,0,0,0,1,1,48.63,FLYING
48.87,APPROACH,ILS_TRACK,75.72,76,0.28,360.61,-4.16,3.59,6.57,270.42,0.033,0.2563,20,270.39,-3.088,0.04,0.19,5.547,-0.012,-0.088,0,0,0,270.4,0,0,0,0,0,0,0,0,0,0,1,1,48.94,FLYING
49.19,APPROACH,ILS_TRACK,75.84,76,0.16,359.29,-4.17,3.57,6.55,270.42,0.035,0.2493,20,270.39,-3.091,0.06,0.21,5.522,-0.012,-0.091,0,0,0,270.4,0,0,0,0,0,0,0,0,0,0,1,1,49.26,FLYING
49.54,APPROACH,ILS_TRACK,75.99,76,0.01,357.83,-4.18,3.55,6.53,270.42,0.037,0.2415,20,270.39,-3.094,0.07,0.22,5.494,-0.012,-0.094,0,0,0,270.4,0,0,0,0,0,0,0,0,0,0,1,1,49.61,FLYING
49.85,APPROACH,ILS_TRACK,76.11,76,-0.11,356.51,-4.19,3.53,6.51,270.42,0.037,0.2342,19.969,270.39,-3.097,0.08,0.23,5.468,-0.012,-0.097,0,0,0,270.4,0,0,0,0,0,0,0,0,0,0,1,1,49.92,FLYING
50.17,APPROACH,ILS_TRACK,76.24,76,-0.24,355.19,-4.19,3.51,6.49,270.42,0.037,0.2266,19.899,270.39,-3.099,0.09,0.24,5.443,-0.012,-0.099,0,0,0,270.4,0,0,0,0,0,0,0,0,0,0,1,1,50.24,FLYING
50.48,APPROACH,ILS_TRACK,76.35,76,-0.35,353.87,-4.2,3.5,6.47,270.42,0.039,0.2187,19.792,270.39,-3.101,0.1,0.25,5.417,-0.013,-0.101,0,0,0,270.4,0,0,0,0,0,0,0,0,0,0,1,1,50.55,FLYING
50.83,APPROACH,ILS_TRACK,76.48,76,-0.48,352.39,-4.21,3.48,6.45,270.42,0.04,0.2098,19.628,270.39,-3.102,0.11,0.26,5.389,-0.012,-0.102,0,0,0,270.4,0,0,0,0,0,0,0,0,0,0,1,1,50.9,FLYING
51.15,APPROACH,ILS_TRACK,76.59,76,-0.59,351.06,-4.22,3.46,6.44,270.42,0.04,0.2017,19.446,270.39,-3.103,0.12,0.27,5.364,-0.012,-0.103,0,0,0,270.4,0,0,0,0,0,0,0,0,0,0,1,1,51.22,FLYING
51.46,APPROACH,ILS_TRACK,76.69,76,-0.69,349.73,-4.23,3.45,6.43,270.42,0.041,0.1936,19.233,270.39,-3.104,0.13,0.28,5.338,-0.013,-0.104,0,0,0,270.4,0,0,0,0,0,0,0,0,0,0,1,1,51.53,FLYING
51.78,APPROACH,ILS_TRACK,76.78,76,-0.78,348.4,-4.23,3.43,6.42,270.41,0.041,0.1857,18.991,270.39,-3.103,0.14,0.28,5.312,-0.012,-0.103,0,0,0,270.4,0,0,0,0,0,0,0,0,0,0,1,1,51.85,FLYING
52.13,APPROACH,ILS_TRACK,76.87,76,-0.87,346.91,-4.24,3.42,6.4,270.41,0.042,0.177,18.691,270.39,-3.103,0.15,0.29,5.284,-0.012,-0.103,0,0,0,270.4,0,0,0,0,0,0,0,0,0,0,1,1,52.2,FLYING
52.44,APPROACH,ILS_TRACK,76.94,76,-0.94,345.58,-4.25,3.41,6.4,270.41,0.04,0.1695,18.397,270.39,-3.103,0.16,0.3,5.258,-0.012,-0.103,0,0,0,270.4,0,0,0,0,0,0,0,0,0,0,1,1,52.51,FLYING
52.76,APPROACH,ILS_TRACK,77,76,-1,344.24,-4.25,3.4,6.39,270.41,0.04,0.1623,18.084,270.39,-3.102,0.16,0.3,5.233,-0.012,-0.102,0,0,0,270.4,0,0,0,0,0,0,0,0,0,0,1,1,52.83,FLYING
53.07,APPROACH,ILS_TRACK,77.05,76,-1.05,342.9,-4.26,3.39,6.38,270.41,0.037,0.1555,17.755,270.39,-3.101,0.17,0.3,5.207,-0.012,-0.101,0,0,0,270.4,0,0,0,0,0,0,0,0,0,0,1,1,53.14,FLYING
53.42,APPROACH,ILS_TRACK,77.09,76,-1.09,341.4,-4.26,3.39,6.38,270.41,0.037,0.1485,17.373,270.39,-3.099,0.18,0.31,5.179,-0.012,-0.099,0,0,0,270.4,0,0,0,0,0,0,0,0,0,0,1,1,53.49,FLYING
53.74,APPROACH,ILS_TRACK,77.12,76,-1.12,340.06,-4.27,3.38,6.38,270.41,0.036,0.1427,17.02,270.39,-3.097,0.18,0.31,5.153,-0.012,-0.097,0,0,0,270.4,0,0,0,0,0,0,0,0,0,0,1,1,53.81,FLYING
54.05,APPROACH,ILS_TRACK,77.14,76,-1.14,338.71,-4.27,3.38,6.38,270.41,0.035,0.1374,16.662,270.39,-3.095,0.19,0.31,5.127,-0.012,-0.095,0,0,0,270.4,0,0,0,0,0,0,0,0,0,0,1,1,54.12,FLYING
54.37,APPROACH,ILS_TRACK,77.15,76,-1.15,337.37,-4.27,3.38,6.38,270.41,0.032,0.1326,16.301,270.39,-3.093,0.19,0.31,5.101,-0.011,-0.093,0,0,0,270.4,0,0,0,0,0,0,0,0,0,0,1,1,54.44,FLYING
54.72,APPROACH,ILS_TRACK,77.14,76,-1.14,335.87,-4.28,3.38,6.38,270.41,0.03,0.128,15.902,270.39,-3.09,0.2,0.31,5.073,-0.011,-0.09,0,0,0,270.4,0,0,0,0,0,0,0,0,0,0,1,1,54.79,FLYING
55.03,APPROACH,ILS_TRACK,77.13,76,-1.13,334.53,-4.28,3.38,6.39,270.41,0.029,0.1245,15.546,270.39,-3.087,0.2,0.31,5.047,-0.011,-0.087,0,0,0,270.4,0,0,0,0,0,0,0,0,0,0,1,1,55.1,FLYING
55.35,APPROACH,ILS_TRACK,77.1,76,-1.1,333.18,-4.28,3.39,6.39,270.4,0.031,0.1217,15.199,270.39,-3.085,0.21,0.3,5.022,-0.011,-0.085,0,0,0,270.4,0,0,0,0,0,0,0,0,0,0,1,1,55.42,FLYING
55.66,APPROACH,ILS_TRACK,77.07,76,-1.07,331.83,-4.28,3.39,6.4,270.41,0.028,0.1194,14.861,270.39,-3.082,0.21,0.3,4.996,-0.011,-0.082,0,0,0,270.4,0,0,0,0,0,0,0,0,0,0,1,1,55.73,FLYING
56.01,APPROACH,ILS_TRACK,77.02,76,-1.02,330.33,-4.28,3.4,6.41,270.4,0.025,0.1177,14.503,270.39,-3.078,0.21,0.3,4.968,-0.011,-0.078,0,0,0,270.4,0,0,0,0,0,0,0,0,0,0,1,1,56.08,FLYING
56.33,APPROACH,ILS_TRACK,76.97,76,-0.97,328.99,-4.28,3.41,6.42,270.4,0.022,0.1167,14.195,270.39,-3.075,0.21,0.29,4.942,-0.011,-0.075,0,0,0,270.4,0,0,0,0,0,0,0,0,0,0,1,1,56.4,FLYING
56.64,APPROACH,ILS_TRACK,76.91,76,-0.91,327.64,-4.28,3.42,6.43,270.4,0.024,0.1164,13.906,270.39,-3.071,0.22,0.29,4.916,-0.011,-0.071,0,0,0,270.4,0,0,0,0,0,0,0,0,0,0,1,1,56.71,FLYING
56.96,APPROACH,ILS_TRACK,76.85,76,-0.85,326.29,-4.27,3.42,6.44,270.4,0.021,0.1166,13.637,270.39,-3.068,0.22,0.28,4.891,-0.011,-0.068,0,0,0,270.4,0,0,0,0,0,0,0,0,0,0,1,1,57.03,FLYING
57.31,APPROACH,ILS_TRACK,76.77,76,-0.77,324.8,-4.27,3.44,6.45,270.4,0.02,0.1176,13.364,270.39,-3.064,0.22,0.27,4.862,-0.01,-0.064,0,0,0,270.4,0,0,0,0,0,0,0,0,0,0,1,1,57.38,FLYING
57.62,APPROACH,ILS_TRACK,76.7,76,-0.7,323.46,-4.27,3.45,6.46,270.4,0.019,0.119,13.143,270.39,-3.06,0.22,0.26,4.837,-0.011,-0.06,0,0,0,270.4,0,0,0,0,0,0,0,0,0,0,1,1,57.69,FLYING
57.94,APPROACH,ILS_TRACK,76.62,76,-0.62,322.11,-4.26,3.46,6.48,270.4,0.018,0.1209,12.945,270.39,-3.057,0.23,0.26,4.811,-0.011,-0.057,0,0,0,270.4,0,0,0,0,0,0,0,0,0,0,1,1,58.01,FLYING
58.25,APPROACH,ILS_TRACK,76.54,76,-0.54,320.77,-4.26,3.47,6.49,270.4,0.017,0.1233,12.773,270.39,-3.053,0.23,0.25,4.786,-0.01,-0.053,0,0,0,270.4,0,0,0,0,0,0,0,0,0,0,1,1,58.32,FLYING
58.6,APPROACH,ILS_TRACK,76.44,76,-0.44,319.28,-4.26,3.48,6.5,270.4,0.017,0.1264,12.615,270.39,-3.049,0.23,0.24,4.758,-0.011,-0.049,0,0,0,270.4,0,0,0,0,0,0,0,0,0,0,1,1,58.67,FLYING
58.92,APPROACH,ILS_TRACK,76.36,76,-0.36,317.94,-4.25,3.5,6.52,270.4,0.015,0.1296,12.498,270.39,-3.045,0.23,0.23,4.732,-0.01,-0.045,0,0,0,270.4,0,0,0,0,0,0,0,0,0,0,1,1,58.99,FLYING
59.23,APPROACH,ILS_TRACK,76.28,76,-0.28,316.6,-4.25,3.51,6.53,270.4,0.016,0.1332,12.408,270.39,-3.041,0.23,0.22,4.707,-0.011,-0.041,0,0,0,270.4,0,0,0,0,0,0,0,0,0,0,1,1,59.3,FLYING
59.55,APPROACH,ILS_TRACK,76.19,76,-0.19,315.26,-4.25,3.52,6.54,270.4,0.014,0.1371,12.345,270.39,-3.037,0.23,0.21,4.682,-0.01,-0.037,0,0,0,270.4,0,0,0,0,0,0,0,0,0,0,1,1,59.62,FLYING
59.9,APPROACH,ILS_TRACK,76.1,76,-0.1,313.78,-4.24,3.54,6.56,270.4,0.01,0.1418,12.308,270.39,-3.033,0.24,0.2,4.653,-0.011,-0.033,0,0,0,270.4,0,0,0,0,0,0,0,0,0,0,1,1,59.97,FLYING
60.21,APPROACH,ILS_TRACK,76.01,76,-0.01,312.44,-4.24,3.55,6.57,270.4,0.011,0.1463,12.3,270.39,-3.03,0.24,0.19,4.628,-0.011,-0.03,0,0,0,270.4,0,0,0,0,0,0,0,0,0,0,1,1,60.28,FLYING
60.53,APPROACH,ILS_TRACK,75.93,76,0.07,311.11,-4.23,3.56,6.58,270.4,0.011,0.1511,12.319,270.39,-3.026,0.24,0.18,4.603,-0.011,-0.026,0,0,0,270.4,0,0,0,0,0,0,0,0,0,0,1,1,60.6,FLYING
60.84,APPROACH,ILS_TRACK,75.85,76,0.15,309.78,-4.23,3.57,6.6,270.4,0.01,0.1561,12.363,270.39,-3.023,0.24,0.17,4.578,-0.012,-0.023,0,0,0,270.4,0,0,0,0,0,0,0,0,0,0,1,1,60.91,FLYING
61.19,APPROACH,ILS_TRACK,75.76,76,0.24,308.3,-4.22,3.58,6.61,270.4,0.01,0.162,12.444,270.39,-3.019,0.24,0.15,4.55,-0.011,-0.019,0,0,0,270.4,0,0,0,0,0,0,0,0,0,0,1,1,61.26,FLYING
61.51,APPROACH,ILS_TRACK,75.68,76,0.32,306.97,-4.22,3.6,6.62,270.4,0.008,0.1675,12.541,270.39,-3.016,0.25,0.14,4.525,-0.011,-0.016,0,0,0,270.4,0,0,0,0,0,0,0,0,0,0,1,1,61.58,FLYING
61.82,APPROACH,ILS_TRACK,75.61,76,0.39,305.65,-4.21,3.61,6.63,270.4,0.007,0.1732,12.662,270.39,-3.013,0.25,0.13,4.499,-0.012,-0.013,0,0,0,270.4,0,0,0,0,0,0,0,0,0,0,1,1,61.89,FLYING
62.14,APPROACH,ILS_TRACK,75.53,76,0.47,304.32,-4.21,3.62,6.64,270.41,0.009,0.179,12.807,270.39,-3.01,0.25,0.12,4.474,-0.011,-0.01,0,0,0,270.4,0,0,0,0,0,0,0,0,0,0,1,1,62.21,FLYING
62.49,APPROACH,ILS_TRACK,75.45,76,0.55,302.85,-4.2,3.63,6.66,270.4,0.01,0.1857,12.997,270.39,-3.007,0.25,0.11,4.447,-0.012,-0.007,0,0,0,270.4,0,0,0,0,0,0,0,0,0,0,1,1,62.56,FLYING
62.8,APPROACH,ILS_TRACK,75.38,76,0.62,301.53,-4.2,3.64,6.67,270.41,0.009,0.1918,13.189,270.39,-3.005,0.25,0.1,4.421,-0.012,-0.005,0,0,0,270.4,0,0,0,0,0,0,0,0,0,0,1,1,62.87,FLYING
63.12,APPROACH,ILS_TRACK,75.32,76,0.68,300.21,-4.19,3.66,6.68,270.4,0.01,0.198,13.402,270.39,-3.002,0.26,0.09,4.396,-0.012,-0.002,0,0,0,270.4,0,0,0,0,0,0,0,0,0,0,1,1,63.19,FLYING
63.43,APPROACH,ILS_TRACK,75.25,76,0.75,298.89,-4.19,3.66,6.68,270.41,0.007,0.2043,13.635,270.39,-3,0.26,0.08,4.371,-0.012,0,0,0,0,270.4,0,0,0,0,0,0,0,0,0,0,1,1,63.5,FLYING
63.78,APPROACH,ILS_TRACK,75.19,76,0.81,297.42,-4.18,3.68,6.7,270.41,0.008,0.2114,13.917,270.39,-2.998,0.26,0.07,4.344,-0.012,0.002,0,0,0,270.4,0,0,0,0,0,0,0,0,0,0,1,1,63.85,FLYING
64.1,APPROACH,ILS_TRACK,75.13,76,0.87,296.11,-4.18,3.68,6.7,270.41,0.008,0.2177,14.189,270.39,-2.996,0.27,0.06,4.319,-0.013,0.004,0,0,0,270.4,0,0,0,0,0,0,0,0,0,0,1,1,64.17,FLYING
64.41,APPROACH,ILS_TRACK,75.08,76,0.92,294.79,-4.17,3.69,6.71,270.41,0.007,0.224,14.477,270.39,-2.995,0.27,0.05,4.294,-0.013,0.005,0,0,0,270.4,0,0,0,0,0,0,0,0,0,0,1,1,64.48,FLYING
64.73,APPROACH,ILS_TRACK,75.03,76,0.97,293.48,-4.17,3.7,6.72,270.41,0.011,0.2303,14.78,270.39,-2.993,0.27,0.05,4.269,-0.013,0.007,0,0,0,270.4,0,0,0,0,0,0,0,0,0,0,1,1,64.8,FLYING
65.08,APPROACH,ILS_TRACK,74.99,76,1.01,292.02,-4.16,3.71,6.72,270.41,0.011,0.2372,15.134,270.39,-2.992,0.28,0.04,4.241,-0.013,0.008,0,0,0,270.4,0,0,0,0,0,0,0,0,0,0,1,1,65.15,FLYING
65.39,APPROACH,ILS_TRACK,74.95,76,1.05,290.71,-4.16,3.72,6.73,270.41,0.013,0.2432,15.464,270.39,-2.992,0.28,0.03,4.216,-0.014,0.008,0,0,0,270.4,0,0,0,0,0,0,0,0,0,0,1,1,65.46,FLYING
65.71,APPROACH,ILS_TRACK,74.91,76,1.09,289.4,-4.16,3.72,6.73,270.41,0.013,0.2492,15.805,270.39,-2.991,0.28,0.02,4.191,-0.014,0.009,0,0,0,270.4,0,0,0,0,0,0,0,0,0,0,1,1,65.78,FLYING
66.02,APPROACH,ILS_TRACK,74.89,76,1.11,288.09,-4.15,3.73,6.74,270.41,0.013,0.2549,16.155,270.39,-2.991,0.29,0.02,4.167,-0.014,0.009,0,0,0,270.4,0,0,0,0,0,0,0,0,0,0,1,1,66.09,FLYING
66.37,APPROACH,ILS_TRACK,74.86,76,1.14,286.64,-4.15,3.73,6.74,270.41,0.012,0.2611,16.552,270.39,-2.992,0.29,0.01,4.139,-0.015,0.008,0,0,0,270.4,0,0,0,0,0,0,0,0,0,0,1,1,66.44,FLYING
66.69,APPROACH,ILS_TRACK,74.85,76,1.15,285.33,-4.15,3.73,6.74,270.41,0.014,0.2664,16.915,270.39,-2.992,0.29,0.01,4.114,-0.014,0.008,0,0,0,270.4,0,0,0,0,0,0,0,0,0,0,1,1,66.76,FLYING
67,APPROACH,ILS_TRACK,74.83,76,1.17,284.03,-4.14,3.74,6.74,270.41,0.011,0.2714,17.282,270.38,-2.993,0.3,0.01,4.089,-0.015,0.007,0,0,0,270.4,0,0,0,0,0,0,0,0,0,0,1,1,67.07,FLYING
67.32,APPROACH,ILS_TRACK,74.83,76,1.17,282.72,-4.14,3.74,6.74,270.41,0.011,0.2762,17.651,270.38,-2.994,0.3,0,4.064,-0.015,0.006,0,0,0,270.4,0,0,0,0,0,0,0,0,0,0,1,1,67.39,FLYING
67.67,APPROACH,ILS_TRACK,74.83,76,1.17,281.27,-4.14,3.74,6.74,270.41,0.013,0.2811,18.06,270.38,-2.996,0.31,0,4.037,-0.016,0.004,0,0,0,270.4,0,0,0,0,0,0,0,0,0,0,1,1,67.74,FLYING
67.98,APPROACH,ILS_TRACK,74.84,76,1.16,279.97,-4.13,3.74,6.74,270.41,0.013,0.2851,18.427,270.38,-2.998,0.31,0,4.012,-0.015,0.002,0,0,0,270.4,0,0,0,0,0,0,0,0,0,0,1,1,68.05,FLYING
68.3,APPROACH,ILS_TRACK,74.85,76,1.15,278.67,-4.13,3.74,6.73,270.41,0.013,0.2888,18.789,270.38,-3,0.32,0,3.987,-0.016,0,0,0,0,270.4,0,0,0,0,0,0,0,0,0,0,1,1,68.37,FLYING
68.61,APPROACH,ILS_TRACK,74.87,76,1.13,277.37,-4.13,3.73,6.73,270.41,0.014,0.2921,19.146,270.38,-3.003,0.32,0,3.962,-0.017,-0.003,0,0,0,270.4,0,0,0,0,0,0,0,0,0,0,1,1,68.68,FLYING
68.96,APPROACH,ILS_TRACK,74.9,76,1.1,275.92,-4.13,3.73,6.72,270.41,0.014,0.2952,19.533,270.38,-3.005,0.33,0,3.935,-0.017,-0.005,0,0,0,270.4,0,0,0,0,0,0,0,0,0,0,1,1,69.03,FLYING
69.28,APPROACH,ILS_TRACK,74.93,76,1.07,274.62,-4.13,3.73,6.72,270.41,0.015,0.2976,19.872,270.38,-3.009,0.33,0.01,3.91,-0.017,-0.009,0,0,0,270.4,0,0,0,0,0,0,0,0,0,0,1,1,69.35,FLYING
69.59,APPROACH,ILS_TRACK,74.97,76,1.03,273.33,-4.12,3.72,6.71,270.41,0.014,0.2971,20,270.38,-3.012,0.33,0.01,3.885,-0.017,-0.012,0,0,0,270.4,0,0,0,0,0,0,0,0,0,0,1,1,69.66,FLYING
69.91,APPROACH,ILS_TRACK,75.01,76,0.99,272.03,-4.12,3.71,6.7,270.41,0.016,0.2947,20,270.38,-3.016,0.34,0.01,3.86,-0.017,-0.016,0,0,0,270.4,0,0,0,0,0,0,0,0,0,0,1,1,69.98,FLYING
70.26,APPROACH,ILS_TRACK,75.06,76,0.94,270.58,-4.12,3.71,6.69,270.41,0.014,0.2918,20,270.38,-3.02,0.34,0.02,3.832,-0.018,-0.02,0,0,0,270.4,0,0,0,0,0,0,0,0,0,0,1,1,70.33,FLYING
70.57,APPROACH,ILS_TRACK,75.12,76,0.88,269.28,-4.12,3.7,6.68,270.41,0.018,0.2888,20,270.38,-3.024,0.35,0.03,3.808,-0.018,-0.024,0,0,0,270.4,0,0,0,0,0,0,0,0,0,0,1,1,70.64,FLYING
70.89,APPROACH,ILS_TRACK,75.18,76,0.82,267.98,-4.12,3.69,6.67,270.41,0.016,0.2855,20,270.38,-3.029,0.35,0.03,3.783,-0.018,-0.029,0,0,0,270.4,0,0,0,0,0,0,0,0,0,0,1,1,70.96,FLYING
71.2,APPROACH,ILS_TRACK,75.24,76,0.76,266.68,-4.12,3.68,6.66,270.41,0.019,0.282,20,270.38,-3.033,0.36,0.04,3.758,-0.018,-0.033,0,0,0,270.4,0,0,0,0,0,0,0,0,0,0,1,1,71.27,FLYING
71.55,APPROACH,ILS_TRACK,75.32,76,0.68,265.24,-4.12,3.67,6.65,270.41,0.019,0.2778,20,270.38,-3.039,0.36,0.05,3.73,-0.019,-0.039,0,0,0,270.4,0,0,0,0,0,0,0,0,0,0,1,1,71.62,FLYING
71.87,APPROACH,ILS_TRACK,75.39,76,0.61,263.94,-4.13,3.66,6.63,270.41,0.02,0.2738,20,270.38,-3.043,0.37,0.06,3.705,-0.018,-0.043,0,0,0,270.4,0,0,0,0,0,0,0,0,0,0,1,1,71.94,FLYING
72.18,APPROACH,ILS_TRACK,75.47,76,0.53,262.64,-4.13,3.65,6.62,270.41,0.02,0.2695,20,270.38,-3.048,0.37,0.07,3.68,-0.019,-0.048,0,0,0,270.4,0,0,0,0,0,0,0,0,0,0,1,1,72.25,FLYING
72.5,APPROACH,ILS_TRACK,75.55,76,0.45,261.34,-4.13,3.63,6.61,270.41,0.023,0.2652,20,270.38,-3.053,0.38,0.08,3.655,-0.018,-0.053,0,0,0,270.4,0,0,0,0,0,0,0,0,0,0,1,1,72.57,FLYING
72.85,APPROACH,ILS_TRACK,75.64,76,0.36,259.89,-4.13,3.62,6.59,270.41,0.022,0.2601,20,270.38,-3.058,0.38,0.1,3.627,-0.019,-0.058,0,0,0,270.4,0,0,0,0,0,0,0,0,0,0,1,1,72.92,FLYING
73.16,APPROACH,ILS_TRACK,75.73,76,0.27,258.59,-4.14,3.61,6.58,270.41,0.024,0.2554,20,270.38,-3.062,0.39,0.11,3.602,-0.019,-0.062,0,0,0,270.4,0,0,0,0,0,0,0,0,0,0,1,1,73.23,FLYING
73.48,APPROACH,ILS_TRACK,75.82,76,0.18,257.28,-4.14,3.59,6.56,270.41,0.024,0.2506,20,270.38,-3.066,0.39,0.12,3.577,-0.019,-0.066,0,0,0,270.4,0,0,0,0,0,0,0,0,0,0,1,1,73.55,FLYING
73.79,APPROACH,ILS_TRACK,75.91,76,0.09,255.98,-4.15,3.58,6.55,270.41,0.026,0.2457,20,270.38,-3.07,0.39,0.13,3.552,-0.019,-0.07,0,0,0,270.4,0,0,0,0,0,0,0,0,0,0,1,1,73.86,FLYING
74.14,APPROACH,ILS_TRACK,76.01,76,-0.01,254.52,-4.15,3.56,6.53,270.41,0.027,0.2402,20,270.38,-3.074,0.4,0.15,3.524,-0.019,-0.074,0,0,0,270.4,0,0,0,0,0,0,0,0,0,0,1,1,74.21,FLYING
74.46,APPROACH,ILS_TRACK,76.1,76,-0.1,253.21,-4.16,3.55,6.52,270.4,0.027,0.2348,19.972,270.38,-3.078,0.4,0.16,3.498,-0.019,-0.078,0,0,0,270.4,0,0,0,0,0,0,0,0,0,0,1,1,74.53,FLYING
74.77,APPROACH,ILS_TRACK,76.19,76,-0.19,251.9,-4.16,3.53,6.5,270.4,0.025,0.229,19.915,270.38,-3.081,0.41,0.17,3.473,-0.019,-0.081,0,0,0,270.4,0,0,0,0,0,0,0,0,0,0,1,1,74.84,FLYING
75.09,APPROACH,ILS_TRACK,76.28,76,-0.28,250.59,-4.17,3.52,6.49,270.4,0.026,0.2229,19.829,270.38,-3.084,0.41,0.18,3.448,-0.019,-0.084,0,0,0,270.4,0,0,0,0,0,0,0,0,0,0,1,1,75.16,FLYING
75.44,APPROACH,ILS_TRACK,76.39,76,-0.39,249.13,-4.17,3.5,6.48,270.4,0.024,0.2157,19.697,270.38,-3.087,0.41,0.19,3.42,-0.019,-0.087,0,0,0,270.4,0,0,0,0,0,0,0,0,0,0,1,1,75.51,FLYING
75.75,APPROACH,ILS_TRACK,76.48,76,-0.48,247.81,-4.18,3.49,6.46,270.4,0.027,0.2089,19.55,270.38,-3.089,0.41,0.2,3.395,-0.018,-0.089,0,0,0,270.4,0,0,0,0,0,0,0,0,0,0,1,1,75.82,FLYING
76.07,APPROACH,ILS_TRACK,76.56,76,-0.56,246.49,-4.19,3.47,6.45,270.4,0.025,0.2021,19.376,270.38,-3.091,0.42,0.21,3.369,-0.019,-0.091,0,0,0,270.4,0,0,0,0,0,0,0,0,0,0,1,1,76.14,FLYING
76.38,APPROACH,ILS_TRACK,76.65,76,-0.65,245.17,-4.19,3.46,6.44,270.4,0.026,0.1951,19.175,270.38,-3.092,0.42,0.22,3.344,-0.018,-0.092,0,0,0,270.4,0,0,0,0,0,0,0,0,0,0,1,1,76.45,FLYING
76.73,APPROACH,ILS_TRACK,76.73,76,-0.73,243.7,-4.2,3.45,6.43,270.4,0.024,0.1874,18.923,270.38,-3.094,0.42,0.23,3.316,-0.018,-0.094,0,0,0,270.4,0,0,0,0,0,0,0,0,0,0,1,1,76.8,FLYING
77.05,APPROACH,ILS_TRACK,76.8,76,-0.8,242.38,-4.2,3.44,6.42,270.4,0.025,0.1805,18.673,270.38,-3.095,0.42,0.24,3.29,-0.018,-0.095,0,0,0,270.4,0,0,0,0,0,0,0,0,0,0,1,1,77.12,FLYING
77.36,APPROACH,ILS_TRACK,76.86,76,-0.86,241.05,-4.21,3.43,6.41,270.4,0.023,0.1738,18.404,270.38,-3.095,0.42,0.25,3.265,-0.018,-0.095,0,0,0,270.4,0,0,0,0,0,0,0,0,0,0,1,1,77.43,FLYING
77.68,APPROACH,ILS_TRACK,76.92,76,-0.92,239.72,-4.22,3.42,6.4,270.4,0.024,0.1673,18.117,270.38,-3.095,0.43,0.26,3.239,-0.018,-0.095,0,0,0,270.4,0,0,0,0,0,0,0,0,0,0,1,1,77.75,FLYING
78.03,APPROACH,ILS_TRACK,76.97,76,-0.97,238.25,-4.22,3.41,6.4,270.4,0.024,0.1604,17.78,270.38,-3.095,0.43,0.26,3.211,-0.017,-0.095,0,0,0,270.4,0,0,0,0,0,0,0,0,0,0,1,1,78.1,FLYING
78.34,APPROACH,ILS_TRACK,77,76,-1,236.92,-4.22,3.41,6.39,270.4,0.025,0.1546,17.465,270.38,-3.094,0.43,0.27,3.185,-0.018,-0.094,0,0,0,270.4,0,0,0,0,0,0,0,0,0,0,1,1,78.41,FLYING
78.66,APPROACH,ILS_TRACK,77.03,76,-1.03,235.59,-4.23,3.4,6.39,270.4,0.025,0.1491,17.141,270.38,-3.093,0.43,0.27,3.16,-0.018,-0.093,0,0,0,270.4,0,0,0,0,0,0,0,0,0,0,1,1,78.73,FLYING
78.97,APPROACH,ILS_TRACK,77.05,76,-1.05,234.25,-4.23,3.4,6.39,270.4,0.024,0.1441,16.811,270.38,-3.092,0.43,0.28,3.134,-0.018,-0.092,0,0,0,270.4,0,0,0,0,0,0,0,0,0,0,1,1,79.04,FLYING
79.32,APPROACH,ILS_TRACK,77.06,76,-1.06,232.77,-4.23,3.4,6.39,270.4,0.02,0.139,16.44,270.38,-3.091,0.43,0.28,3.106,-0.017,-0.091,0,0,0,270.4,0,0,0,0,0,0,0,0,0,0,1,1,79.39,FLYING
79.64,APPROACH,ILS_TRACK,77.06,76,-1.06,231.44,-4.24,3.4,6.39,270.4,0.022,0.135,16.106,270.38,-3.089,0.43,0.28,3.081,-0.017,-0.089,0,0,0,270.4,0,0,0,0,0,0,0,0,0,0,1,1,79.71,FLYING
79.95,APPROACH,ILS_TRACK,77.05,76,-1.05,230.1,-4.24,3.4,6.4,270.4,0.019,0.1315,15.775,270.38,-3.087,0.43,0.28,3.055,-0.017,-0.087,0,0,0,270.4,0,0,0,0,0,0,0,0,0,0,1,1,80.02,FLYING
80.27,APPROACH,ILS_TRACK,77.03,76,-1.03,228.77,-4.24,3.4,6.4,270.4,0.018,0.1285,15.45,270.38,-3.085,0.43,0.28,3.03,-0.016,-0.085,0,0,0,270.4,0,0,0,0,0,0,0,0,0,0,1,1,80.34,FLYING
80.62,APPROACH,ILS_TRACK,77,76,-1,227.28,-4.24,3.41,6.41,270.4,0.017,0.1259,15.098,270.38,-3.082,0.43,0.28,3.001,-0.017,-0.082,0,0,0,270.4,0,0,0,0,0,0,0,0,0,0,1,1,80.69,FLYING
80.93,APPROACH,ILS_TRACK,76.97,76,-0.97,225.95,-4.24,3.41,6.41,270.4,0.02,0.1241,14.792,270.38,-3.08,0.43,0.28,2.976,-0.016,-0.08,0,0,0,270.4,0,0,0,0,0,0,0,0,0,0,1,1,81,FLYING
81.25,APPROACH,ILS_TRACK,76.93,76,-0.93,224.61,-4.24,3.42,6.42,270.4,0.016,0.1228,14.499,270.38,-3.077,0.42,0.28,2.951,-0.016,-0.077,0,0,0,270.4,0,0,0,0,0,0,0,0,0,0,1,1,81.32,FLYING
81.56,APPROACH,ILS_TRACK,76.88,76,-0.88,223.28,-4.24,3.42,6.43,270.4,0.016,0.1221,14.221,270.38,-3.074,0.42,0.27,2.925,-0.016,-0.074,0,0,0,270.4,0,0,0,0,0,0,0,0,0,0,1,1,81.63,FLYING
81.91,APPROACH,ILS_TRACK,76.82,76,-0.82,221.79,-4.24,3.43,6.44,270.4,0.012,0.122,13.933,270.38,-3.071,0.42,0.27,2.897,-0.016,-0.071,0,0,0,270.4,0,0,0,0,0,0,0,0,0,0,1,1,81.98,FLYING
82.23,APPROACH,ILS_TRACK,76.76,76,-0.76,220.46,-4.24,3.44,6.45,270.4,0.011,0.1224,13.693,270.38,-3.068,0.42,0.27,2.871,-0.016,-0.068,0,0,0,270.4,0,0,0,0,0,0,0,0,0,0,1,1,82.3,FLYING
82.54,APPROACH,ILS_TRACK,76.69,76,-0.69,219.12,-4.23,3.45,6.46,270.4,0.01,0.1233,13.473,270.38,-3.064,0.42,0.26,2.846,-0.016,-0.064,0,0,0,270.4,0,0,0,0,0,0,0,0,0,0,1,1,82.61,FLYING
82.86,APPROACH,ILS_TRACK,76.62,76,-0.62,217.79,-4.23,3.46,6.47,270.4,0.01,0.1247,13.274,270.38,-3.061,0.42,0.25,2.821,-0.016,-0.061,0,0,0,270.4,0,0,0,0,0,0,0,0,0,0,1,1,82.93,FLYING
83.21,APPROACH,ILS_TRACK,76.54,76,-0.54,216.31,-4.23,3.47,6.49,270.4,0.008,0.1267,13.082,270.38,-3.058,0.42,0.25,2.793,-0.016,-0.058,0,0,0,270.4,0,0,0,0,0,0,0,0,0,0,1,1,83.28,FLYING
83.52,APPROACH,ILS_TRACK,76.47,76,-0.47,214.98,-4.23,3.48,6.5,270.4,0.011,0.129,12.932,270.38,-3.054,0.42,0.24,2.767,-0.016,-0.054,0,0,0,270.4,0,0,0,0,0,0,0,0,0,0,1,1,83.59,FLYING
83.84,APPROACH,ILS_TRACK,76.39,76,-0.39,213.65,-4.22,3.49,6.51,270.4,0.008,0.1316,12.806,270.38,-3.051,0.42,0.23,2.742,-0.016,-0.051,0,0,0,270.4,0,0,0,0,0,0,0,0,0,0,1,1,83.91,FLYING
84.15,APPROACH,ILS_TRACK,76.32,76,-0.32,212.32,-4.22,3.5,6.52,270.4,0.01,0.1346,12.703,270.38,-3.048,0.42,0.22,2.717,-0.016,-0.048,0,0,0,270.4,0,0,0,0,0,0,0,0,0,0,1,1,84.22,FLYING
84.5,APPROACH,ILS_TRACK,76.23,76,-0.23,210.84,-4.22,3.52,6.54,270.4,0.008,0.1383,12.62,270.38,-3.044,0.42,0.22,2.689,-0.016,-0.044,0,0,0,270.4,0,0,0,0,0,0,0,0,0,0,1,1,84.57,FLYING
84.82,APPROACH,ILS_TRACK,76.15,76,-0.15,209.52,-4.21,3.53,6.55,270.4,0.008,0.1418,12.568,270.38,-3.041,0.41,0.21,2.664,-0.016,-0.041,0,0,0,270.4,0,0,0,0,0,0,0,0,0,0,1,1,84.89,FLYING
85.13,APPROACH,ILS_TRACK,76.08,76,-0.08,208.19,-4.21,3.54,6.56,270.4,0.008,0.1457,12.541,270.38,-3.038,0.41,0.2,2.639,-0.016,-0.038,0,0,0,270.4,0,0,0,0,0,0,0,0,0,0,1,1,85.2,FLYING
85.45,APPROACH,ILS_TRACK,76,76,0,206.87,-4.21,3.55,6.57,270.4,0.009,0.1498,12.537,270.38,-3.035,0.41,0.19,2.614,-0.016,-0.035,0,0,0,270.4,0,0,0,0,0,0,0,0,0,0,1,1,85.52,FLYING
85.8,APPROACH,ILS_TRACK,75.92,76,0.08,205.4,-4.2,3.56,6.58,270.4,0.008,0.1546,12.562,270.38,-3.031,0.41,0.18,2.586,-0.016,-0.031,0,0,0,270.4,0,0,0,0,0,0,0,0,0,0,1,1,85.87,FLYING
86.11,APPROACH,ILS_TRACK,75.85,76,0.15,204.07,-4.2,3.57,6.59,270.4,0.008,0.1592,12.607,270.38,-3.029,0.41,0.17,2.561,-0.017,-0.029,0,0,0,270.4,0,0,0,0,0,0,0,0,0,0,1,1,86.18,FLYING
86.43,APPROACH,ILS_TRACK,75.78,76,0.22,202.75,-4.19,3.58,6.6,270.4,0.008,0.164,12.675,270.38,-3.026,0.41,0.16,2.536,-0.016,-0.026,0,0,0,270.4,0,0,0,0,0,0,0,0,0,0,1,1,86.5,FLYING
86.74,APPROACH,ILS_TRACK,75.71,76,0.29,201.43,-4.19,3.6,6.62,270.4,0.007,0.169,12.766,270.38,-3.023,0.41,0.15,2.511,-0.017,-0.023,0,0,0,270.4,0,0,0,0,0,0,0,0,0,0,1,1,86.81,FLYING
87.09,APPROACH,ILS_TRACK,75.63,76,0.37,199.97,-4.18,3.61,6.63,270.4,0.007,0.1747,12.893,270.38,-3.02,0.41,0.14,2.483,-0.017,-0.02,0,0,0,270.4,0,0,0,0,0,0,0,0,0,0,1,1,87.16,FLYING
87.41,APPROACH,ILS_TRACK,75.56,76,0.44,198.65,-4.18,3.62,6.64,270.4,0.009,0.18,13.028,270.38,-3.017,0.41,0.13,2.458,-0.017,-0.017,0,0,0,270.4,0,0,0,0,0,0,0,0,0,0,1,1,87.48,FLYING
87.72,APPROACH,ILS_TRACK,75.5,76,0.5,197.34,-4.18,3.63,6.65,270.4,0.008,0.1854,13.184,270.38,-3.015,0.41,0.13,2.433,-0.017,-0.015,0,0,0,270.4,0,0,0,0,0,0,0,0,0,0,1,1,87.79,FLYING
88.04,APPROACH,ILS_TRACK,75.44,76,0.56,196.02,-4.17,3.64,6.66,270.4,0.008,0.1909,13.359,270.38,-3.013,0.41,0.12,2.408,-0.017,-0.013,0,0,0,270.4,0,0,0,0,0,0,0,0,0,0,1,1,88.11,FLYING
88.39,APPROACH,ILS_TRACK,75.37,76,0.63,194.57,-4.17,3.65,6.67,270.4,0.007,0.1971,13.577,270.38,-3.011,0.42,0.11,2.38,-0.017,-0.011,0,0,0,270.4,0,0,0,0,0,0,0,0,0,0,1,1,88.46,FLYING
88.7,APPROACH,ILS_TRACK,75.32,76,0.68,193.25,-4.16,3.66,6.67,270.4,0.009,0.2028,13.79,270.38,-3.009,0.42,0.1,2.355,-0.018,-0.009,0,0,0,270.4,0,0,0,0,0,0,0,0,0,0,1,1,88.77,FLYING
89.02,APPROACH,ILS_TRACK,75.26,76,0.74,191.94,-4.16,3.66,6.68,270.4,0.008,0.2084,14.021,270.38,-3.007,0.42,0.09,2.331,-0.017,-0.007,0,0,0,270.4,0,0,0,0,0,0,0,0,0,0,1,1,89.09,FLYING
89.33,APPROACH,ILS_TRACK,75.21,76,0.79,190.64,-4.15,3.67,6.69,270.4,0.008,0.2141,14.266,270.38,-3.005,0.42,0.08,2.306,-0.018,-0.005,0,0,0,270.4,0,0,0,0,0,0,0,0,0,0,1,1,89.4,FLYING
89.68,APPROACH,ILS_TRACK,75.16,76,0.84,189.18,-4.15,3.68,6.69,270.4,0.009,0.2204,14.557,270.38,-3.004,0.42,0.07,2.278,-0.018,-0.004,0,0,0,270.4,0,0,0,0,0,0,0,0,0,0,1,1,89.75,FLYING
90,APPROACH,ILS_TRACK,75.12,76,0.88,187.88,-4.15,3.69,6.7,270.4,0.01,0.2259,14.832,270.38,-3.003,0.42,0.07,2.253,-0.018,-0.003,0,0,0,270.4,0,0,0,0,0,0,0,0,0,0,1,1,90.07,FLYING
90.31,APPROACH,ILS_TRACK,75.09,76,0.91,186.57,-4.14,3.69,6.71,270.4,0.008,0.2314,15.118,270.38,-3.002,0.42,0.06,2.229,-0.018,-0.002,0,0,0,270.4,0,0,0,0,0,0,0,0,0,0,1,1,90.38,FLYING
90.63,APPROACH,ILS_TRACK,75.05,76,0.95,185.27,-4.14,3.7,6.71,270.4,0.011,0.2368,15.415,270.38,-3.002,0.42,0.06,2.204,-0.018,-0.002,0,0,0,270.4,0,0,0,0,0,0,0,0,0,0,1,1,90.7,FLYING
90.98,APPROACH,ILS_TRACK,75.02,76,0.98,183.82,-4.13,3.7,6.71,270.4,0.007,0.2426,15.756,270.38,-3.001,0.43,0.05,2.176,-0.019,-0.001,0,0,0,270.4,0,0,0,0,0,0,0,0,0,0,1,1,91.05,FLYING
91.29,APPROACH,ILS_TRACK,75,76,1,182.52,-4.13,3.71,6.72,270.4,0.011,0.2477,16.07,270.38,-3.001,0.43,0.04,2.152,-0.019,-0.001,0,0,0,270.4,0,0,0,0,0,0,0,0,0,0,1,1,91.36,FLYING
91.61,APPROACH,ILS_TRACK,74.98,76,1.02,181.22,-4.13,3.71,6.72,270.4,0.009,0.2526,16.39,270.38,-3.002,0.43,0.04,2.127,-0.019,-0.002,0,0,0,270.4,0,0,0,0,0,0,0,0,0,0,1,1,91.68,FLYING
91.92,APPROACH,ILS_TRACK,74.97,76,1.03,179.92,-4.12,3.71,6.72,270.4,0.01,0.2572,16.715,270.38,-3.002,0.43,0.04,2.102,-0.019,-0.002,0,0,0,270.4,0,0,0,0,0,0,0,0,0,0,1,1,91.99,FLYING
92.27,APPROACH,ILS_TRACK,74.96,76,1.04,178.48,-4.12,3.72,6.72,270.4,0.013,0.2621,17.078,270.38,-3.003,0.44,0.03,2.075,-0.019,-0.003,0,0,0,270.4,0,0,0,0,0,0,0,0,0,0,1,1,92.34,FLYING
92.59,APPROACH,ILS_TRACK,74.96,76,1.04,177.18,-4.12,3.72,6.72,270.4,0.013,0.2662,17.407,270.38,-3.004,0.44,0.03,2.05,-0.02,-0.004,0,0,0,270.4,0,0,0,0,0,0,0,0,0,0,1,1,92.66,FLYING
92.9,APPROACH,ILS_TRACK,74.96,76,1.04,175.88,-4.12,3.72,6.72,270.41,0.012,0.27,17.734,270.38,-3.005,0.44,0.03,2.025,-0.02,-0.005,0,0,0,270.4,0,0,0,0,0,0,0,0,0,0,1,1,92.97,FLYING
93.22,APPROACH,ILS_TRACK,74.97,76,1.03,174.58,-4.11,3.72,6.72,270.4,0.012,0.2735,18.059,270.38,-3.007,0.44,0.03,2.001,-0.02,-0.007,0,0,0,270.4,0,0,0,0,0,0,0,0,0,0,1,1,93.29,FLYING
93.57,APPROACH,ILS_TRACK,74.98,76,1.02,173.14,-4.11,3.71,6.71,270.41,0.013,0.2769,18.415,270.38,-3.009,0.45,0.03,1.973,-0.02,-0.009,0,0,0,270.4,0,0,0,0,0,0,0,0,0,0,1,1,93.64,FLYING
93.88,APPROACH,ILS_TRACK,75,76,1,171.85,-4.11,3.71,6.71,270.4,0.013,0.2796,18.729,270.38,-3.012,0.45,0.03,1.948,-0.02,-0.012,0,0,0,270.4,0,0,0,0,0,0,0,0,0,0,1,1,93.95,FLYING
94.2,APPROACH,ILS_TRACK,75.03,76,0.97,170.55,-4.11,3.71,6.7,270.41,0.014,0.282,19.036,270.38,-3.014,0.45,0.03,1.924,-0.02,-0.014,0,0,0,270.4,0,0,0,0,0,0,0,0,0,0,1,1,94.27,FLYING
94.51,APPROACH,ILS_TRACK,75.06,76,0.94,169.26,-4.11,3.71,6.7,270.4,0.013,0.2839,19.333,270.38,-3.017,0.46,0.03,1.899,-0.02,-0.017,0,0,0,270.4,0,0,0,0,0,0,0,0,0,0,1,1,94.58,FLYING
94.86,APPROACH,ILS_TRACK,75.1,76,0.9,167.82,-4.11,3.7,6.69,270.41,0.014,0.2855,19.649,270.38,-3.02,0.46,0.04,1.871,-0.021,-0.02,0,0,0,270.4,0,0,0,0,0,0,0,0,0,0,1,1,94.93,FLYING
95.18,APPROACH,ILS_TRACK,75.14,76,0.86,166.53,-4.11,3.69,6.68,270.41,0.015,0.2865,19.921,270.38,-3.024,0.46,0.04,1.847,-0.021,-0.024,0,0,0,270.4,0,0,0,0,0,0,0,0,0,0,1,1,95.25,FLYING
95.49,APPROACH,ILS_TRACK,75.19,76,0.81,165.23,-4.11,3.69,6.67,270.41,0.016,0.2849,20,270.38,-3.027,0.47,0.05,1.822,-0.021,-0.027,0,0,0,270.4,0,0,0,0,0,0,0,0,0,0,1,1,95.56,FLYING
95.81,APPROACH,ILS_TRACK,75.24,76,0.76,163.94,-4.11,3.68,6.66,270.4,0.018,0.2821,20,270.38,-3.031,0.47,0.05,1.797,-0.021,-0.031,0,0,0,270.4,0,0,0,0,0,0,0,0,0,0,1,1,95.88,FLYING
96.16,APPROACH,ILS_TRACK,75.3,76,0.7,162.5,-4.11,3.67,6.65,270.41,0.019,0.2786,20,270.38,-3.035,0.47,0.06,1.769,-0.021,-0.035,0,0,0,270.4,0,0,0,0,0,0,0,0,0,0,1,1,96.23,FLYING
96.47,APPROACH,ILS_TRACK,75.37,76,0.63,161.21,-4.11,3.66,6.64,270.41,0.017,0.2752,20,270.38,-3.04,0.48,0.07,1.745,-0.022,-0.04,0,0,0,270.4,0,0,0,0,0,0,0,0,0,0,1,1,96.54,FLYING
96.77,APPROACH,ILS_TRACK,75.43,76,0.57,160.01,-4.11,3.65,6.63,270.41,0.019,0.2717,20,270.38,-3.043,0.48,0.08,1.721,-0.022,-0.043,0,0,0,270.4,0,0,0,0,0,0,0,0,0,0,1,1,96.82,FLYING
97.02,APPROACH,ILS_TRACK,75.49,76,0.51,158.99,-4.11,3.64,6.62,270.4,0.02,0.2683,20,270.38,-3.046,0.48,0.08,1.7,-0.022,-0.046,0,0,0,270.4,0,0,0,0,0,0,0,0,0,0,1,1,97.06,FLYING
97.28,APPROACH,ILS_TRACK,75.56,76,0.44,157.9,-4.11,3.63,6.61,270.4,0.021,0.2648,20,270.38,-3.05,0.48,0.09,1.679,-0.021,-0.05,0,0,0,270.4,0,0,0,0,0,0,0,0,0,0,1,1,97.33,FLYING
97.51,APPROACH,ILS_TRACK,75.61,76,0.39,156.96,-4.11,3.62,6.6,270.4,0.021,0.2617,20,270.38,-3.054,0.49,0.1,1.661,-0.022,-0.054,0,0,0,270.4,0,0,0,0,0,0,0,0,0,0,1,1,97.55,FLYING
97.72,APPROACH,ILS_TRACK,75.67,76,0.33,156.07,-4.11,3.62,6.59,270.4,0.023,0.2587,20,270.38,-3.056,0.49,0.11,1.644,-0.022,-0.056,0,0,0,270.4,0,0,0,0,0,0,0,0,0,0,1,1,97.77,FLYING
97.93,APPROACH,ILS_TRACK,75.72,76,0.28,155.22,-4.12,3.61,6.58,270.4,0.022,0.2558,20,270.38,-3.059,0.49,0.11,1.627,-0.022,-0.059,0,0,0,270.4,0,0,0,0,0,0,0,0,0,0,1,1,97.97,FLYING
98.13,APPROACH,ILS_TRACK,75.77,76,0.23,154.4,-4.12,3.6,6.57,270.4,0.024,0.2529,20,270.38,-3.061,0.49,0.12,1.611,-0.022,-0.061,0,0,0,270.4,0,0,0,0,0,0,0,0,0,0,1,1,98.17,FLYING
98.35,APPROACH,ILS_TRACK,75.83,76,0.17,153.49,-4.12,3.59,6.56,270.4,0.024,0.2498,20,270.38,-3.064,0.49,0.13,1.594,-0.022,-0.064,0,0,0,270.4,0,0,0,0,0,0,0,0,0,0,1,1,98.39,FLYING
98.55,APPROACH,ILS_TRACK,75.88,76,0.12,152.67,-4.12,3.58,6.56,270.4,0.026,0.2469,20,270.38,-3.066,0.49,0.13,1.578,-0.022,-0.066,0,0,0,270.4,0,0,0,0,0,0,0,0,0,0,1,1,98.59,FLYING
98.75,APPROACH,ILS_TRACK,75.93,76,0.07,151.84,-4.13,3.57,6.55,270.4,0.025,0.2439,20,270.38,-3.068,0.5,0.14,1.562,-0.022,-0.068,0,0,0,270.4,0,0,0,0,0,0,0,0,0,0,1,1,98.79,FLYING
98.95,APPROACH,ILS_TRACK,75.99,76,0.01,151.01,-4.13,3.56,6.54,270.4,0.026,0.2409,20,270.38,-3.07,0.5,0.15,1.546,-0.022,-0.07,0,0,0,270.4,0,0,0,0,0,0,0,0,0,0,1,1,98.99,FLYING
99.15,APPROACH,ILS_TRACK,76.04,76,-0.04,150.19,-4.13,3.55,6.53,270.4,0.026,0.2379,19.993,270.38,-3.071,0.5,0.15,1.53,-0.022,-0.071,0,0,0,270.4,0,0,0,0,0,0,0,0,0,0,1,1,99.19,FLYING
99.37,APPROACH,ILS_TRACK,76.1,76,-0.1,149.28,-4.14,3.55,6.52,270.4,0.025,0.2343,19.971,270.38,-3.073,0.5,0.16,1.513,-0.022,-0.073,0,0,0,270.4,0,0,0,0,0,0,0,0,0,0,1,1,99.41,FLYING
99.57,APPROACH,ILS_TRACK,76.16,76,-0.16,148.45,-4.14,3.54,6.51,270.4,0.026,0.2309,19.94,270.38,-3.075,0.5,0.17,1.497,-0.022,-0.075,0,0,0,270.4,0,0,0,0,0,0,0,0,0,0,1,1,99.61,FLYING
99.77,APPROACH,ILS_TRACK,76.21,76,-0.21,147.62,-4.14,3.53,6.5,270.4,0.026,0.2273,19.899,270.38,-3.076,0.5,0.17,1.481,-0.022,-0.076,0,0,0,270.4,0,0,0,0,0,0,0,0,0,0,1,1,99.81,FLYING
99.97,APPROACH,ILS_TRACK,76.27,76,-0.27,146.79,-4.15,3.52,6.5,270.4,0.026,0.2236,19.846,270.38,-3.077,0.5,0.18,1.465,-0.022,-0.077,0,0,0,270.4,0,0,0,0,0,0,0,0,0,0,1,1,100.01,FLYING
100.17,APPROACH,ILS_TRACK,76.33,76,-0.33,145.96,-4.15,3.51,6.49,270.4,0.025,0.2198,19.782,270.38,-3.079,0.51,0.18,1.449,-0.021,-0.079,0,0,0,270.4,0,0,0,0,0,0,0,0,0,0,1,1,100.21,FLYING
100.39,APPROACH,ILS_TRACK,76.39,76,-0.39,145.05,-4.15,3.5,6.48,270.4,0.025,0.2154,19.698,270.38,-3.08,0.51,0.19,1.432,-0.022,-0.08,0,0,0,270.4,0,0,0,0,0,0,0,0,0,0,1,1,100.43,FLYING
100.59,APPROACH,ILS_TRACK,76.44,76,-0.44,144.21,-4.16,3.49,6.47,270.4,0.025,0.2114,19.611,270.38,-3.081,0.51,0.2,1.416,-0.021,-0.081,0,0,0,270.4,0,0,0,0,0,0,0,0,0,0,1,1,100.63,FLYING
100.79,APPROACH,ILS_TRACK,76.49,76,-0.49,143.38,-4.16,3.48,6.46,270.4,0.024,0.2073,19.513,270.38,-3.082,0.51,0.2,1.4,-0.021,-0.082,0,0,0,270.4,0,0,0,0,0,0,0,0,0,0,1,1,100.83,FLYING
100.99,APPROACH,ILS_TRACK,76.55,76,-0.55,142.55,-4.16,3.47,6.46,270.4,0.025,0.2031,19.405,270.38,-3.083,0.51,0.21,1.384,-0.021,-0.083,0,0,0,270.4,0,0,0,0,0,0,0,0,0,0,1,1,101.03,FLYING
101.19,APPROACH,ILS_TRACK,76.6,76,-0.6,141.71,-4.17,3.47,6.45,270.4,0.024,0.1989,19.286,270.38,-3.084,0.51,0.21,1.368,-0.021,-0.084,0,0,0,270.4,0,0,0,0,0,0,0,0,0,0,1,1,101.23,FLYING
101.41,APPROACH,ILS_TRACK,76.65,76,-0.65,140.8,-4.17,3.46,6.44,270.4,0.024,0.1942,19.144,270.38,-3.085,0.51,0.22,1.35,-0.021,-0.085,0,0,0,270.4,0,0,0,0,0,0,0,0,0,0,1,1,101.45,FLYING
101.61,APPROACH,ILS_TRACK,76.7,76,-0.7,139.96,-4.18,3.45,6.43,270.4,0.023,0.19,19.006,270.38,-3.085,0.51,0.22,1.334,-0.021,-0.085,0,0,0,270.4,0,0,0,0,0,0,0,0,0,0,1,1,101.65,FLYING
101.81,APPROACH,ILS_TRACK,76.74,76,-0.74,139.13,-4.18,3.45,6.43,270.4,0.023,0.1859,18.859,270.38,-3.086,0.51,0.23,1.318,-0.021,-0.086,0,0,0,270.4,0,0,0,0,0,0,0,0,0,0,1,1,101.85,FLYING
102.01,APPROACH,ILS_TRACK,76.78,76,-0.78,138.29,-4.18,3.44,6.42,270.4,0.022,0.1817,18.704,270.38,-3.086,0.51,0.23,1.302,-0.021,-0.086,0,0,0,270.4,0,0,0,0,0,0,0,0,0,0,1,1,102.05,FLYING
102.21,APPROACH,ILS_TRACK,76.82,76,-0.82,137.45,-4.18,3.43,6.42,270.4,0.022,0.1776,18.54,270.38,-3.086,0.51,0.23,1.286,-0.021,-0.086,0,0,0,270.4,0,0,0,0,0,0,0,0,0,0,1,1,102.25,FLYING
102.43,APPROACH,ILS_TRACK,76.86,76,-0.86,136.53,-4.19,3.43,6.41,270.4,0.022,0.1732,18.353,270.38,-3.087,0.51,0.24,1.268,-0.021,-0.087,0,0,0,270.4,0,0,0,0,0,0,0,0,0,0,1,1,102.47,FLYING
