t_s,phase,subphase,ias_ms,vapp_ms,spd_err_ms,agl_m,gear_h_m,vs_ms,pitch_deg,aoa_deg,hdg_deg,bank_deg,thr_cmd,thr_cur,thr_intg,at_gain,at_tau_s,at_a_up,at_a_dn,at_kp_thr,at_ki_spd,at_thr_slew,as_cmd_deg,as_cap_deg,as_raw_deg,as_spd_err_ms,as_active,aa_hdg_cmd_deg,aa_fpa_cmd_deg,aa_fbw,aa_dir,actual_fpa_deg,ftf_hdg_err_deg,ftf_fix_idx,kos_steer_pit_deg,kos_steer_hdg_deg,aa_dir_vx,aa_dir_vy,aa_dir_vz,aa_dir_pitch_deg,aa_dir_hdg_deg,ils_loc_m,ils_gs_m,ils_dist_km,loc_corr_deg,gs_corr_deg,gs_latched,active_gs_ang_deg,ils_intercept_alt_m,d_gs_ms,fpa_preclamped_deg,gs_nom_alt_m,flare_fpa_cmd,flare_tgt_vs,flare_frac,flare_mode,flare_auth_limited,flare_auth_reason,flare_vs_err,flare_fpa_err,flare_pitch_err,flare_theta_cmd_raw,flare_theta_cmd_clamped,flare_theta_clamp_active,flare_pitch_in_cmd,elev_defl_avg_deg,elev_defl_max_deg,elev_defl_n,flare_ctrl_h_m,flare_req_up_a,flare_thr_floor,flare_tecs_et_err,flare_tecs_eb_err,flare_tecs_h_ref,flare_tecs_v_ref,flare_gamma_ref,flare_gamma_eb_term,flare_gamma_unsat,steer_hdg_deg,steer_blend,ro_loc_corr_deg,ro_hdg_err_deg,ro_yaw_tgt,ro_yaw_scale,ro_yaw_gate,yaw_cmd,roll_cmd,pitch_cmd,ro_pitch_tgt_deg,ro_pitch_err_deg,ro_pitch_ff,ro_roll_assist,flaps_cur,flaps_tgt,asc_j_ab,asc_j_rk,asc_validity,asc_q_pa,asc_q_raw_pa,asc_mach,asc_apo_m,asc_drag_n,asc_w_prop,asc_edot_aero,asc_edot_orb,asc_pitch_bias,asc_blend,asc_spooling,asc_ab_thr_ratio,asc_ab_t_now,asc_ab_t_avail,asc_ab_ign_on,asc_ab_flameouts,asc_rk_t_now,asc_rk_t_avail,asc_rk_ign_on,asc_rk_flameouts,ship_thrust,ship_avail_thrust,ship_ign_on,ship_flameouts,ifc_raw_dt_s,ifc_dt_s,ifc_loop_n,ifc_hz_est,ifc_raw_dt_max_s,ifc_raw_dt_min_s,phase_el_s,status,craft_name,cfg_file
0.16,APPROACH,ILS_TRACK,150.27,152,1.73,721.69,640.43,-0.57,18.97,19.21,270.43,1.519,0,0,0,0,0,0,0,0,0,0,0,0,0,0,0,0,0,1,0,-0.25,0,0,0,90,0,0,0,0,0,5.32,-481.75,21.546,0,0,0,3,721.69,0,0,1203.46,0,0,0,,0,NONE,0,0,0,0,0,0,0,0,0,0,640.43,0,0,0,0,0,0,0,0,0,270.39,0,0,0,0,0,0,0,0,0,0,0,0,0,0,0,0,0,VALID,0,0,0,0,0,1,0,0,0,0,0,0,0,0,0,0,0,0,0,0,296.28,1066.13,2,0,0.14,0.14,1,3.7,0.14,0.02,0.16,FLYING,X10-H,0:/Integrated Flight Computer/aircraft/x10_h_cfg.ks (inferred preloaded)
0.46,APPROACH,ILS_TRACK,149.43,152,2.57,721.65,640.52,0.9,18.71,18.36,270.47,1.292,0.112,0,0.627,1,0.6,2.071,0.816,0.35,0.0168,0.4,0,22.598,0,-2.509,0,269.79,0,0,1,0.27,0,0,0,269.81,0.8902,-0.0037,-0.4556,0,269.79,5.3,-479.48,21.501,-0.212,0,0,3,721.69,8.249,0,1201.13,0,0,0,,0,NONE,0,0,0,0,0,0,0,0,0,0,640.52,0,0,0,0,0,0,0,0,0,270.39,0,0,0,0,0,0,0,0,0,0,0,0,0,1,3,0,0,VALID,0,0,0,0,0,1,0,0,0,0,0,0,0,0,0,0,0,0,0,0,268.98,1062.58,2,0,0.08,0.08,4,10,0.14,0.08,0.46,FLYING,X10-H,0:/Integrated Flight Computer/aircraft/x10_h_cfg.ks (inferred preloaded)
0.76,APPROACH,ILS_TRACK,148.56,152,3.44,721.65,640.99,1.93,17.19,16.39,270.35,0.87,0.232,0,1.285,1,0.6,3.675,0.816,0.35,0.0168,0.4,0,22.847,0,-3.392,0,269.76,0,0,1,0.71,0,0,0,269.77,0.8902,-0.0042,-0.4556,0,269.76,5.32,-477,21.454,-0.239,0,0,3,721.69,8.365,0,1198.65,0,0,0,,0,NONE,0,0,0,0,0,0,0,0,0,0,640.99,0,0,0,0,0,0,0,0,0,270.39,0,0,0,0,0,0,0,0,0,0,0,0,0,1,3,0,0,VALID,0,0,0,0,0,1,0,0,0,0,0,0,0,0,0,0,0,0,0,0,256.54,1058.91,2,0,0.08,0.08,7,10,0.12,0.08,0.76,FLYING,X10-H,0:/Integrated Flight Computer/aircraft/x10_h_cfg.ks (inferred preloaded)
1.1,APPROACH,ILS_TRACK,147.99,152,4.01,721.94,641.79,2.4,15.45,14.5,270.16,0.033,0.368,0,1.671,1,0.6,4.5,0.816,0.35,0.0168,0.4,0,23.014,0,-3.986,0,269.74,-0.001,0,1,0.91,0,0,0,269.75,0.8901,-0.0046,-0.4557,0,269.74,5.37,-473.96,21.401,-0.262,0,0,3,721.69,9.318,-0.001,1195.85,0,0,0,,0,NONE,0,0,0,0,0,0,0,0,0,0,641.79,0,0,0,0,0,0,0,0,0,270.39,0,0,0,0,0,0,0,0,0,0,0,0,0,2,3,0,0,VALID,0,0,0,0,0,1,0,0,0,0,0,0,0,0,0,0,0,0,0,0,257.58,1056.44,2,0,0.1,0.1,10,8.82,0.12,0.08,1.1,FLYING,X10-H,0:/Integrated Flight Computer/aircraft/x10_h_cfg.ks (inferred preloaded)
1.38,APPROACH,ILS_TRACK,147.67,152,4.33,722.45,642.41,2.47,14.68,13.76,269.99,-0.642,0.48,0,2.849,1,0.6,4.5,0.816,0.35,0.0168,0.4,0,23.106,0,-4.31,0,269.75,-0.003,0,1,0.96,0,0,0,269.74,0.8901,-0.0044,-0.4558,0,269.75,5.41,-471.19,21.357,-0.251,0,0,3,721.69,10.188,-0.003,1193.54,0,0,0,,0,NONE,0,0,0,0,0,0,0,0,0,0,642.41,0,0,0,0,0,0,0,0,0,270.39,0,0,0,0,0,0,0,0,0,0,0,0,0,3,3,0,0,VALID,0,0,0,0,0,1,0,0,0,0,0,0,0,0,0,0,0,0,0,0,266.1,1055.06,2,0,0.1,0.1,13,10.71,0.1,0.08,1.38,FLYING,X10-H,0:/Integrated Flight Computer/aircraft/x10_h_cfg.ks (inferred preloaded)
1.68,APPROACH,ILS_TRACK,147.39,152,4.61,723.31,643.12,2.47,14.94,14.11,269.81,-1.118,0.6,0,4.2,1,0.6,4.5,0.816,0.35,0.0168,0.4,0,23.185,0,-4.591,0,269.75,-0.007,0,1,0.96,0,0,0,269.75,0.89,-0.0043,-0.456,-0.01,269.75,5.45,-467.91,21.31,-0.246,0,0,3,721.69,11.331,-0.007,1191.08,0,0,0,,0,NONE,0,0,0,0,0,0,0,0,0,0,643.12,0,0,0,0,0,0,0,0,0,270.39,0,0,0,0,0,0,0,0,0,0,0,0,0,3,3,0,0,VALID,0,0,0,0,0,1,0,0,0,0,0,0,0,0,0,0,0,0,0,0,281.74,1053.86,2,0,0.08,0.08,16,10,0.12,0.08,1.68,FLYING,X10-H,0:/Integrated Flight Computer/aircraft/x10_h_cfg.ks (inferred preloaded)
2.02,APPROACH,ILS_TRACK,147.03,152,4.97,724.72,643.99,2.72,16.71,15.88,269.62,-1.396,0.736,0,5.839,1,0.6,4.5,0.816,0.35,0.0168,0.4,0,23.285,0,-4.948,0,269.77,-0.014,0,1,1.03,0,0,-0.01,269.77,0.8899,-0.004,-0.4561,-0.01,269.77,5.47,-463.77,21.257,-0.227,0,0,3,721.69,12.664,-0.014,1188.3,0,0,0,,0,NONE,0,0,0,0,0,0,0,0,0,0,643.99,0,0,0,0,0,0,0,0,0,270.39,0,0,0,0,0,0,0,0,0,0,0,0,0,3,3,0,0,VALID,0,0,0,0,0,1,0,0,0,0,0,0,0,0,0,0,0,0,0,0,307.06,1052.31,2,0,0.1,0.1,19,8.82,0.12,0.08,2.02,FLYING,X10-H,0:/Integrated Flight Computer/aircraft/x10_h_cfg.ks (inferred preloaded)
2.3,APPROACH,ILS_TRACK,146.54,152,5.46,726.08,644.93,3.8,18.46,17.18,269.51,-1.434,0.848,0,7.305,1,0.6,4.5,0.816,0.35,0.0168,0.4,0,23.416,0,-5.412,0,269.8,-0.021,0,1,1.42,0,0,-0.02,269.8,0.8898,-0.0035,-0.4563,-0.02,269.8,5.45,-460.13,21.213,-0.203,0,0,3,721.69,13.027,-0.021,1186.02,0,0,0,,0,NONE,0,0,0,0,0,0,0,0,0,0,644.93,0,0,0,0,0,0,0,0,0,270.39,0,0,0,0,0,0,0,0,0,0,0,0,0,3,3,0,0,VALID,0,0,0,0,0,1,0,0,0,0,0,0,0,0,0,0,0,0,0,0,333.62,1050.28,2,0,0.08,0.08,22,10.71,0.1,0.08,2.3,FLYING,X10-H,0:/Integrated Flight Computer/aircraft/x10_h_cfg.ks (inferred preloaded)
2.6,APPROACH,ILS_TRACK,145.8,152,6.2,727.49,646.31,5.16,18.84,16.94,269.49,-1.287,0.968,0,7.196,1,0.6,4.5,0.816,0.35,0.0168,0.4,0,23.625,0,-6.153,0,269.85,-0.028,0,1,1.96,0,0,-0.03,269.83,0.8897,-0.0026,-0.4565,-0.03,269.85,5.39,-456.27,21.166,-0.151,0,0,3,721.69,12.711,-0.028,1183.58,0,0,0,,0,NONE,0,0,0,0,0,0,0,0,0,0,646.31,0,0,0,0,0,0,0,0,0,270.39,0,0,0,0,0,0,0,0,0,0,0,0,0,3,3,0,0,VALID,0,0,0,0,0,1,0,0,0,0,0,0,0,0,0,0,0,0,0,0,367,1047.11,2,0,0.08,0.08,25,10,0.12,0.08,2.6,FLYING,X10-H,0:/Integrated Flight Computer/aircraft/x10_h_cfg.ks (inferred preloaded)
2.9,APPROACH,ILS_TRACK,145.17,152,6.83,728.81,648.07,6.41,17.5,14.99,269.57,-0.973,1,0,7.089,1,0.6,4.5,0.816,0.35,0.0168,0.4,0,23.805,0,-6.791,0,269.88,-0.035,0,1,2.47,0,0,-0.03,269.86,0.8896,-0.0022,-0.4567,-0.03,269.88,5.3,-452.51,21.12,-0.124,0,0,3,721.69,12.31,-0.035,1181.15,0,0,0,,0,NONE,0,0,0,0,0,0,0,0,0,0,648.07,0,0,0,0,0,0,0,0,0,270.39,0,0,0,0,0,0,0,0,0,0,0,0,0,3,3,0,0,VALID,0,0,0,0,0,1,0,0,0,0,0,0,0,0,0,0,0,0,0,0,404.6,1044.4,2,0,0.08,0.08,28,10,0.12,0.08,2.9,FLYING,X10-H,0:/Integrated Flight Computer/aircraft/x10_h_cfg.ks (inferred preloaded)
3.2,APPROACH,ILS_TRACK,144.88,152,7.12,729.92,650.12,7,14.35,11.5,269.69,-0.586,1,0,6.983,1,0.6,4.5,0.816,0.35,0.0168,0.4,0,23.897,0,-7.117,0,269.89,-0.04,0,1,2.77,0,0,-0.04,269.89,0.8896,-0.0018,-0.4568,-0.04,269.89,5.18,-448.95,21.074,-0.105,0,0,3,721.69,11.634,-0.04,1178.73,0,0,0,,0,NONE,0,0,0,0,0,0,0,0,0,0,650.12,0,0,0,0,0,0,0,0,0,270.39,0,0,0,0,0,0,0,0,0,0,0,0,0,3,3,0,0,VALID,0,0,0,0,0,1,0,0,0,0,0,0,0,0,0,0,0,0,0,0,441.29,1043.02,2,0,0.08,0.08,31,10,0.12,0.08,3.2,FLYING,X10-H,0:/Integrated Flight Computer/aircraft/x10_h_cfg.ks (inferred preloaded)
3.5,APPROACH,ILS_TRACK,145.24,152,6.76,731.03,652.15,6.53,10.96,8.33,269.79,-0.257,0.928,0,9.066,1,0.6,4.5,0.816,0.35,0.0168,0.4,0,23.807,0,-6.8,0,269.9,-0.046,0,1,2.62,0,0,-0.04,269.9,0.8895,-0.0017,-0.457,-0.05,269.9,5.06,-445.43,21.028,-0.1,0,0,3,721.69,11.85,-0.046,1176.31,0,0,0,,0,NONE,0,0,0,0,0,0,0,0,0,0,652.15,0,0,0,0,0,0,0,0,0,270.39,0,0,0,0,0,0,0,0,0,0,0,0,0,3,3,0,0,VALID,0,0,0,0,0,1,0,0,0,0,0,0,0,0,0,0,0,0,0,0,476.41,1044.26,2,0,0.08,0.08,34,10,0.12,0.08,3.5,FLYING,X10-H,0:/Integrated Flight Computer/aircraft/x10_h_cfg.ks (inferred preloaded)
3.8,APPROACH,ILS_TRACK,145.9,152,6.1,732.25,653.96,5.52,8.73,6.58,269.84,-0.037,0.808,0,10.98,1,0.6,4.5,0.816,0.35,0.0168,0.4,0,23.623,0,-6.147,0,269.9,-0.052,0,1,2.23,0,0,-0.05,269.91,0.8894,-0.0017,-0.4571,-0.05,269.9,4.94,-441.8,20.981,-0.097,0,0,3,721.69,12.282,-0.052,1173.88,0,0,0,,0,NONE,0,0,0,0,0,0,0,0,0,0,653.96,0,0,0,0,0,0,0,0,0,270.39,0,0,0,0,0,0,0,0,0,0,0,0,0,3,3,0,0,VALID,0,0,0,0,0,1,0,0,0,0,0,0,0,0,0,0,0,0,0,0,504.4,1046.83,2,0,0.08,0.08,37,10,0.12,0.08,3.8,FLYING,X10-H,0:/Integrated Flight Computer/aircraft/x10_h_cfg.ks (inferred preloaded)
4.1,APPROACH,ILS_TRACK,146.7,152,5.3,733.58,655.41,4.35,8.05,6.44,269.86,0.108,0.688,0,12.666,1,0.6,4.5,0.816,0.35,0.0168,0.4,0,23.399,0,-5.351,0,269.92,-0.059,0,1,1.76,0,0,-0.06,269.9,0.8893,-0.0014,-0.4573,-0.06,269.92,4.81,-438.03,20.935,-0.08,0,0,3,721.69,12.703,-0.059,1171.43,0,0,0,,0,NONE,0,0,0,0,0,0,0,0,0,0,655.41,0,0,0,0,0,0,0,0,0,270.39,0,0,0,0,0,0,0,0,0,0,0,0,0,3,3,0,0,VALID,0,0,0,0,0,1,0,0,0,0,0,0,0,0,0,0,0,0,0,0,523.92,1050.01,2,0,0.08,0.08,40,10,0.12,0.08,4.1,FLYING,X10-H,0:/Integrated Flight Computer/aircraft/x10_h_cfg.ks (inferred preloaded)
4.4,APPROACH,ILS_TRACK,147.56,152,4.44,734.93,656.61,3.75,8.5,7.15,269.88,0.208,0.568,0,14.101,1,0.6,4.5,0.816,0.35,0.0168,0.4,0,23.159,0,-4.5,0,269.91,-0.065,0,1,1.49,0,0,-0.06,269.91,0.8892,-0.0015,-0.4575,-0.07,269.91,4.7,-434.22,20.888,-0.087,0,0,3,721.69,12.51,-0.065,1168.97,0,0,0,,0,NONE,0,0,0,0,0,0,0,0,0,0,656.61,0,0,0,0,0,0,0,0,0,270.39,0,0,0,0,0,0,0,0,0,0,0,0,0,3,3,0,0,VALID,0,0,0,0,0,1,0,0,0,0,0,0,0,0,0,0,0,0,0,0,535.27,1053.45,2,0,0.08,0.08,43,10,0.12,0.08,4.4,FLYING,X10-H,0:/Integrated Flight Computer/aircraft/x10_h_cfg.ks (inferred preloaded)
4.7,APPROACH,ILS_TRACK,148.42,152,3.58,736.11,657.67,3.45,8.93,7.68,269.89,0.277,0.448,0,15.276,1,0.6,4.5,0.816,0.35,0.0168,0.4,0,22.916,0,-3.636,0,269.92,-0.071,0,1,1.36,0,0,-0.07,269.92,0.8891,-0.0015,-0.4577,-0.07,269.92,4.57,-430.54,20.841,-0.084,0,0,3,721.69,11.991,-0.071,1166.5,0,0,0,,0,NONE,0,0,0,0,0,0,0,0,0,0,657.67,0,0,0,0,0,0,0,0,0,270.39,0,0,0,0,0,0,0,0,0,0,0,0,0,3,3,0,0,VALID,0,0,0,0,0,1,0,0,0,0,0,0,0,0,0,0,0,0,0,0,538.48,1056.94,2,0,0.08,0.08,46,10,0.12,0.08,4.7,FLYING,X10-H,0:/Integrated Flight Computer/aircraft/x10_h_cfg.ks (inferred preloaded)
5,APPROACH,ILS_TRACK,149.24,152,2.76,737.09,658.68,3.26,8.91,7.7,269.9,0.317,0.328,0,16.199,1,0.6,4.5,0.816,0.35,0.0168,0.4,0,22.684,0,-2.813,0,269.91,-0.076,0,1,1.28,0,0,-0.07,269.93,0.8891,-0.0016,-0.4578,-0.08,269.91,4.46,-427.04,20.793,-0.09,0,0,3,721.69,11.351,-0.076,1164.01,0,0,0,,0,NONE,0,0,0,0,0,0,0,0,0,0,658.68,0,0,0,0,0,0,0,0,0,270.39,0,0,0,0,0,0,0,0,0,0,0,0,0,3,3,0,0,VALID,0,0,0,0,0,1,0,0,0,0,0,0,0,0,0,0,0,0,0,0,530.21,1060.28,2,0,0.08,0.08,49,10,0.12,0.08,5,FLYING,X10-H,0:/Integrated Flight Computer/aircraft/x10_h_cfg.ks (inferred preloaded)
5.3,APPROACH,ILS_TRACK,150.04,152,1.96,737.94,659.59,2.97,8.7,7.6,269.91,0.337,0.208,0,16.881,1,0.6,4.5,0.816,0.35,0.0168,0.4,0,22.458,0,-2.012,0,269.91,-0.081,0,1,1.15,0,0,-0.08,269.91,0.889,-0.0015,-0.4579,-0.08,269.91,4.35,-423.67,20.745,-0.088,0,0,3,721.69,11.068,-0.081,1161.51,0,0,0,,0,NONE,0,0,0,0,0,0,0,0,0,0,659.59,0,0,0,0,0,0,0,0,0,270.39,0,0,0,0,0,0,0,0,0,0,0,0,0,3,3,0,0,VALID,0,0,0,0,0,1,0,0,0,0,0,0,0,0,0,0,0,0,0,0,510.08,1063.55,2,0,0.08,0.08,52,10,0.12,0.08,5.3,FLYING,X10-H,0:/Integrated Flight Computer/aircraft/x10_h_cfg.ks (inferred preloaded)
5.6,APPROACH,ILS_TRACK,150.78,152,1.22,738.71,660.4,2.45,8.48,7.6,269.92,0.346,0.088,0,17.333,1,0.6,4.5,0.816,0.35,0.0168,0.4,0,22.247,0,-1.263,0,269.92,-0.085,0,1,0.95,0,0,-0.08,269.93,0.8889,-0.0014,-0.4581,-0.08,269.92,4.24,-420.39,20.697,-0.083,0,0,3,721.69,10.956,-0.085,1159,0,0,0,,0,NONE,0,0,0,0,0,0,0,0,0,0,660.4,0,0,0,0,0,0,0,0,0,270.39,0,0,0,0,0,0,0,0,0,0,0,0,0,3,3,0,0,VALID,0,0,0,0,0,1,0,0,0,0,0,0,0,0,0,0,0,0,0,0,479.11,1066.62,2,0,0.08,0.08,55,10,0.12,0.08,5.6,FLYING,X10-H,0:/Integrated Flight Computer/aircraft/x10_h_cfg.ks (inferred preloaded)
5.9,APPROACH,ILS_TRACK,151.43,152,0.57,739.41,661.1,2.14,8.5,7.74,269.92,0.352,0,0,17.578,1,0.6,4.5,0.752,0.35,0.0168,0.4,0,22.063,0,-0.612,0,269.92,-0.088,0,1,0.83,0,0,-0.09,269.92,0.8888,-0.0015,-0.4582,-0.09,269.92,4.14,-417.15,20.649,-0.084,0,0,3,721.69,10.697,-0.088,1156.47,0,0,0,,0,NONE,0,0,0,0,0,0,0,0,0,0,661.1,0,0,0,0,0,0,0,0,0,270.39,0,0,0,0,0,0,0,0,0,0,0,0,0,3,3,0,0,VALID,0,0,0,0,0,1,0,0,0,0,0,0,0,0,0,0,0,0,0,0,438.21,1069.28,2,0,0.08,0.08,58,10,0.12,0.08,5.9,FLYING,X10-H,0:/Integrated Flight Computer/aircraft/x10_h_cfg.ks (inferred preloaded)
6.26,APPROACH,ILS_TRACK,152.02,152,-0.02,740.18,661.81,1.84,8.71,8.07,269.93,0.328,0,0,17.647,1,0.6,4.5,0.75,0.35,0.0168,0.4,0,21.894,0,-0.011,0,269.92,-0.092,0,1,0.7,0,0,-0.09,269.91,0.8888,-0.0014,-0.4583,-0.09,269.92,4.02,-413.33,20.591,-0.078,0,0,3,721.69,10.502,-0.092,1153.43,0,0,0,,0,NONE,0,0,0,0,0,0,0,0,0,0,661.81,0,0,0,0,0,0,0,0,0,270.39,0,0,0,0,0,0,0,0,0,0,0,0,0,3,3,0,0,VALID,0,0,0,0,0,1,0,0,0,0,0,0,0,0,0,0,0,0,0,0,387.06,1071.72,2,0,0.12,0.12,61,8.33,0.12,0.08,6.26,FLYING,X10-H,0:/Integrated Flight Computer/aircraft/x10_h_cfg.ks (inferred preloaded)
6.6,APPROACH,ILS_TRACK,152.39,152,-0.39,740.79,662.4,1.61,8.81,8.24,269.93,0.305,0,0,17.384,1,0.6,4.5,0.75,0.35,0.0168,0.4,0,21.786,0,0.37,0,269.92,-0.095,0,1,0.62,0,0,-0.09,269.92,0.8887,-0.0014,-0.4585,-0.1,269.92,3.91,-409.83,20.536,-0.082,0,0,3,721.69,10.173,-0.095,1150.55,0,0,0,,0,NONE,0,0,0,0,0,0,0,0,0,0,662.4,0,0,0,0,0,0,0,0,0,270.39,0,0,0,0,0,0,0,0,0,0,0,0,0,3,3,0,0,VALID,0,0,0,0,0,1,0,0,0,0,0,0,0,0,0,0,0,0,0,0,344,1073.25,2,0,0.1,0.1,64,8.82,0.12,0.1,6.6,FLYING,X10-H,0:/Integrated Flight Computer/aircraft/x10_h_cfg.ks (inferred preloaded)
6.88,APPROACH,ILS_TRACK,152.58,152,-0.58,741.23,662.82,1.4,8.87,8.38,269.94,0.28,0,0,17.125,1,0.6,4.5,0.75,0.35,0.0168,0.4,0,21.732,0,0.565,0,269.93,-0.097,0,1,0.53,0,0,-0.1,269.91,0.8887,-0.0012,-0.4586,-0.1,269.93,3.82,-407.01,20.491,-0.071,0,0,3,721.69,10.026,-0.097,1148.18,0,0,0,,0,NONE,0,0,0,0,0,0,0,0,0,0,662.82,0,0,0,0,0,0,0,0,0,270.39,0,0,0,0,0,0,0,0,0,0,0,0,0,3,3,0,0,VALID,0,0,0,0,0,1,0,0,0,0,0,0,0,0,0,0,0,0,0,0,312.01,1074.01,2,0,0.08,0.08,67,10.71,0.1,0.08,6.88,FLYING,X10-H,0:/Integrated Flight Computer/aircraft/x10_h_cfg.ks (inferred preloaded)
7.18,APPROACH,ILS_TRACK,152.67,152,-0.67,741.66,663.21,1.16,8.98,8.58,269.94,0.256,0,0,16.869,1,0.6,4.5,0.75,0.35,0.0168,0.4,0,21.704,0,0.663,0,269.92,-0.1,0,1,0.45,0,0,-0.1,269.93,0.8886,-0.0013,-0.4587,-0.1,269.92,3.74,-404.04,20.442,-0.077,0,0,3,721.69,9.92,-0.1,1145.63,0,0,0,,0,NONE,0,0,0,0,0,0,0,0,0,0,663.21,0,0,0,0,0,0,0,0,0,270.39,0,0,0,0,0,0,0,0,0,0,0,0,0,3,3,0,0,VALID,0,0,0,0,0,1,0,0,0,0,0,0,0,0,0,0,0,0,0,0,280.91,1074.37,2,0,0.08,0.08,70,10,0.12,0.08,7.18,FLYING,X10-H,0:/Integrated Flight Computer/aircraft/x10_h_cfg.ks (inferred preloaded)
7.48,APPROACH,ILS_TRACK,152.64,152,-0.64,742.06,663.55,1.04,9.22,8.87,269.94,0.216,0.1019,0,16.67,1,0.6,4.5,0.75,0.35,0.0168,0.4,0,21.708,0,0.648,0,269.93,-0.102,0,1,0.39,0,0,-0.1,269.92,0.8885,-0.0012,-0.4588,-0.1,269.93,3.65,-401.08,20.394,-0.069,0,0,3,721.69,9.823,-0.102,1143.09,0,0,0,,0,NONE,0,0,0,0,0,0,0,0,0,0,663.55,0,0,0,0,0,0,0,0,0,270.39,0,0,0,0,0,0,0,0,0,0,0,0,0,3,3,0,0,VALID,0,0,0,0,0,1,0,0,0,0,0,0,0,0,0,0,0,0,0,0,255.44,1074.25,2,0,0.08,0.08,73,10,0.12,0.08,7.48,FLYING,X10-H,0:/Integrated Flight Computer/aircraft/x10_h_cfg.ks (inferred preloaded)
7.78,APPROACH,ILS_TRACK,152.53,152,-0.53,742.39,663.86,0.95,9.32,8.99,269.94,0.188,0.2219,0,16.496,1,0.6,4.5,0.75,0.35,0.0168,0.4,0,21.739,0,0.541,0,269.92,-0.103,0,1,0.36,0,0,-0.1,269.93,0.8885,-0.0014,-0.4589,-0.1,269.92,3.58,-398.2,20.345,-0.082,0,0,3,721.69,9.542,-0.103,1140.54,0,0,0,,0,NONE,0,0,0,0,0,0,0,0,0,0,663.86,0,0,0,0,0,0,0,0,0,270.39,0,0,0,0,0,0,0,0,0,0,0,0,0,3,3,0,0,VALID,0,0,0,0,0,1,0,0,0,0,0,0,0,0,0,0,0,0,0,0,244.23,1073.76,2,0,0.08,0.08,76,10,0.12,0.08,7.78,FLYING,X10-H,0:/Integrated Flight Computer/aircraft/x10_h_cfg.ks (inferred preloaded)
8.08,APPROACH,ILS_TRACK,152.39,152,-0.39,742.68,664.14,0.86,9.36,9.05,269.93,0.157,0.3332,0,16.362,1,0.6,4.5,0.75,0.35,0.0168,0.4,0,21.779,0,0.397,0,269.93,-0.105,0,1,0.34,0,0,-0.1,269.92,0.8884,-0.0013,-0.459,-0.1,269.93,3.5,-395.36,20.297,-0.072,0,0,3,721.69,9.368,-0.105,1138,0,0,0,,0,NONE,0,0,0,0,0,0,0,0,0,0,664.14,0,0,0,0,0,0,0,0,0,270.39,0,0,0,0,0,0,0,0,0,0,0,0,0,3,3,0,0,VALID,0,0,0,0,0,1,0,0,0,0,0,0,0,0,0,0,0,0,0,0,245.52,1073.12,2,0,0.08,0.08,79,10,0.12,0.08,8.08,FLYING,X10-H,0:/Integrated Flight Computer/aircraft/x10_h_cfg.ks (inferred preloaded)
8.38,APPROACH,ILS_TRACK,152.24,152,-0.24,742.98,664.38,0.84,9.62,9.34,269.93,0.136,0.3854,0,16.272,1,0.6,4.5,0.75,0.35,0.0168,0.4,0,21.821,0,0.249,0,269.92,-0.106,0,1,0.3,0,0,-0.1,269.93,0.8884,-0.0014,-0.4591,-0.11,269.92,3.43,-392.51,20.248,-0.083,0,0,3,721.69,9.47,-0.106,1135.46,0,0,0,,0,NONE,0,0,0,0,0,0,0,0,0,0,664.38,0,0,0,0,0,0,0,0,0,270.39,0,0,0,0,0,0,0,0,0,0,0,0,0,3,3,0,0,VALID,0,0,0,0,0,1,0,0,0,0,0,0,0,0,0,0,0,0,0,0,252.68,1072.47,2,0,0.08,0.08,82,10,0.12,0.08,8.38,FLYING,X10-H,0:/Integrated Flight Computer/aircraft/x10_h_cfg.ks (inferred preloaded)
8.68,APPROACH,ILS_TRACK,152.09,152,-0.09,743.19,664.62,0.72,9.48,9.22,269.93,0.114,0.4139,0,16.23,1,0.6,4.5,0.75,0.35,0.0168,0.4,0,21.863,0,0.097,0,269.92,-0.107,0,1,0.28,0,0,-0.11,269.93,0.8883,-0.0013,-0.4592,-0.11,269.92,3.35,-389.76,20.2,-0.077,0,0,3,721.69,9.152,-0.107,1132.92,0,0,0,,0,NONE,0,0,0,0,0,0,0,0,0,0,664.62,0,0,0,0,0,0,0,0,0,270.39,0,0,0,0,0,0,0,0,0,0,0,0,0,3,3,0,0,VALID,0,0,0,0,0,1,0,0,0,0,0,0,0,0,0,0,0,0,0,0,262.61,1071.83,2,0,0.08,0.08,85,10,0.12,0.08,8.68,FLYING,X10-H,0:/Integrated Flight Computer/aircraft/x10_h_cfg.ks (inferred preloaded)
8.98,APPROACH,ILS_TRACK,152,152,0,743.4,664.84,0.67,9.5,9.25,269.93,0.104,0.4004,0,16.221,1,0.6,4.5,0.75,0.35,0.0168,0.4,0,21.89,0,0.003,0,269.92,-0.108,0,1,0.26,0,0,-0.11,269.93,0.8883,-0.0014,-0.4593,-0.11,269.92,3.28,-387.01,20.152,-0.078,0,0,3,721.69,9.132,-0.108,1130.39,0,0,0,,0,NONE,0,0,0,0,0,0,0,0,0,0,664.84,0,0,0,0,0,0,0,0,0,270.39,0,0,0,0,0,0,0,0,0,0,0,0,0,3,3,0,0,VALID,0,0,0,0,0,1,0,0,0,0,0,0,0,0,0,0,0,0,0,0,272.92,1071.42,2,0,0.08,0.08,88,10,0.12,0.08,8.98,FLYING,X10-H,0:/Integrated Flight Computer/aircraft/x10_h_cfg.ks (inferred preloaded)
9.28,APPROACH,ILS_TRACK,151.94,152,0.06,743.6,665.03,0.62,9.51,9.29,269.93,0.093,0.3752,0,16.232,1,0.6,4.5,0.75,0.35,0.0168,0.4,0,21.907,0,-0.057,0,269.93,-0.109,0,1,0.24,0,0,-0.11,269.94,0.8883,-0.0013,-0.4593,-0.11,269.93,3.21,-384.27,20.103,-0.072,0,0,3,721.69,9.064,-0.109,1127.85,0,0,0,,0,NONE,0,0,0,0,0,0,0,0,0,0,665.03,0,0,0,0,0,0,0,0,0,270.39,0,0,0,0,0,0,0,0,0,0,0,0,0,3,3,0,0,VALID,0,0,0,0,0,1,0,0,0,0,0,0,0,0,0,0,0,0,0,0,281.6,1071.16,2,0,0.08,0.08,91,10,0.12,0.08,9.28,FLYING,X10-H,0:/Integrated Flight Computer/aircraft/x10_h_cfg.ks (inferred preloaded)
9.58,APPROACH,ILS_TRACK,151.91,152,0.09,743.78,665.21,0.58,9.52,9.31,269.93,0.089,0.3484,0,16.257,1,0.6,4.5,0.75,0.35,0.0168,0.4,0,21.917,0,-0.092,0,269.94,-0.11,0,1,0.22,0,0,-0.11,269.93,0.8882,-0.0011,-0.4594,-0.11,269.94,3.14,-381.56,20.055,-0.065,0,0,3,721.69,9.041,-0.11,1125.32,0,0,0,,0,NONE,0,0,0,0,0,0,0,0,0,0,665.21,0,0,0,0,0,0,0,0,0,270.39,0,0,0,0,0,0,0,0,0,0,0,0,0,3,3,0,0,VALID,0,0,0,0,0,1,0,0,0,0,0,0,0,0,0,0,0,0,0,0,288.2,1071.01,2,0,0.08,0.08,94,10,0.12,0.08,9.58,FLYING,X10-H,0:/Integrated Flight Computer/aircraft/x10_h_cfg.ks (inferred preloaded)
9.88,APPROACH,ILS_TRACK,151.89,152,0.11,743.95,665.37,0.53,9.53,9.33,269.93,0.087,0.325,0,16.288,1,0.6,4.5,0.75,0.35,0.0168,0.4,0,21.921,0,-0.108,0,269.94,-0.111,0,1,0.2,0,0,-0.11,269.92,0.8882,-0.0011,-0.4595,-0.11,269.94,3.07,-378.86,20.006,-0.064,0,0,3,721.69,8.985,-0.111,1122.78,0,0,0,,0,NONE,0,0,0,0,0,0,0,0,0,0,665.37,0,0,0,0,0,0,0,0,0,270.39,0,0,0,0,0,0,0,0,0,0,0,0,0,3,3,0,0,VALID,0,0,0,0,0,1,0,0,0,0,0,0,0,0,0,0,0,0,0,0,292.79,1070.93,2,0,0.08,0.08,97,10,0.12,0.08,9.88,FLYING,X10-H,0:/Integrated Flight Computer/aircraft/x10_h_cfg.ks (inferred preloaded)
10.18,APPROACH,ILS_TRACK,151.89,152,0.11,744.1,665.52,0.47,9.52,9.35,269.93,0.085,0.3053,0,16.321,1,0.6,4.5,0.75,0.35,0.0168,0.4,0,21.922,0,-0.111,0,269.94,-0.112,0,1,0.19,0,0,-0.11,269.93,0.8881,-0.0011,-0.4596,-0.11,269.94,3,-376.17,19.958,-0.062,0,0,3,721.69,8.935,-0.112,1120.25,0,0,0,,0,NONE,0,0,0,0,0,0,0,0,0,0,665.52,0,0,0,0,0,0,0,0,0,270.39,0,0,0,0,0,0,0,0,0,0,0,0,0,3,3,0,0,VALID,0,0,0,0,0,1,0,0,0,0,0,0,0,0,0,0,0,0,0,0,295.71,1070.91,2,0,0.08,0.08,100,10,0.12,0.08,10.18,FLYING,X10-H,0:/Integrated Flight Computer/aircraft/x10_h_cfg.ks (inferred preloaded)
10.48,APPROACH,ILS_TRACK,151.9,152,0.1,744.24,665.66,0.43,9.53,9.38,269.93,0.086,0.2907,0,16.354,1,0.6,4.5,0.75,0.35,0.0168,0.4,0,21.921,0,-0.105,0,269.94,-0.113,0,1,0.17,0,0,-0.11,269.94,0.8881,-0.0011,-0.4597,-0.11,269.94,2.94,-373.49,19.91,-0.063,0,0,3,721.69,8.899,-0.113,1117.71,0,0,0,,0,NONE,0,0,0,0,0,0,0,0,0,0,665.66,0,0,0,0,0,0,0,0,0,270.39,0,0,0,0,0,0,0,0,0,0,0,0,0,3,3,0,0,VALID,0,0,0,0,0,1,0,0,0,0,0,0,0,0,0,0,0,0,0,0,297.32,1070.92,2,0,0.08,0.08,103,10,0.12,0.08,10.48,FLYING,X10-H,0:/Integrated Flight Computer/aircraft/x10_h_cfg.ks (inferred preloaded)
10.78,APPROACH,ILS_TRACK,151.9,152,0.1,744.37,665.79,0.42,9.54,9.39,269.93,0.084,0.2829,0,16.384,1,0.6,4.5,0.75,0.35,0.0168,0.4,0,21.919,0,-0.098,0,269.94,-0.113,0,1,0.16,0,0,-0.11,269.94,0.888,-0.001,-0.4598,-0.11,269.94,2.87,-370.83,19.861,-0.058,0,0,3,721.69,8.86,-0.113,1115.18,0,0,0,,0,NONE,0,0,0,0,0,0,0,0,0,0,665.79,0,0,0,0,0,0,0,0,0,270.39,0,0,0,0,0,0,0,0,0,0,0,0,0,3,3,0,0,VALID,0,0,0,0,0,1,0,0,0,0,0,0,0,0,0,0,0,0,0,0,298,1070.94,2,0,0.08,0.08,106,10,0.12,0.08,10.78,FLYING,X10-H,0:/Integrated Flight Computer/aircraft/x10_h_cfg.ks (inferred preloaded)
11.08,APPROACH,ILS_TRACK,151.91,152,0.09,744.49,665.91,0.38,9.54,9.4,269.94,0.083,0.2765,0,16.411,1,0.6,4.5,0.75,0.35,0.0168,0.4,0,21.916,0,-0.088,0,269.94,-0.114,0,1,0.15,0,0,-0.11,269.94,0.888,-0.001,-0.4598,-0.11,269.94,2.81,-368.17,19.813,-0.058,0,0,3,721.69,8.843,-0.114,1112.64,0,0,0,,0,NONE,0,0,0,0,0,0,0,0,0,0,665.91,0,0,0,0,0,0,0,0,0,270.39,0,0,0,0,0,0,0,0,0,0,0,0,0,3,3,0,0,VALID,0,0,0,0,0,1,0,0,0,0,0,0,0,0,0,0,0,0,0,0,298.2,1070.98,2,0,0.08,0.08,109,10,0.12,0.08,11.08,FLYING,X10-H,0:/Integrated Flight Computer/aircraft/x10_h_cfg.ks (inferred preloaded)
11.38,APPROACH,ILS_TRACK,151.92,152,0.08,744.6,666.02,0.37,9.54,9.4,269.94,0.085,0.2737,0,16.436,1,0.6,4.5,0.75,0.35,0.0168,0.4,0,21.913,0,-0.079,0,269.93,-0.114,0,1,0.14,0,0,-0.11,269.95,0.888,-0.0012,-0.4599,-0.11,269.93,2.75,-365.52,19.765,-0.068,0,0,3,721.69,8.81,-0.114,1110.11,0,0,0,,0,NONE,0,0,0,0,0,0,0,0,0,0,666.02,0,0,0,0,0,0,0,0,0,270.39,0,0,0,0,0,0,0,0,0,0,0,0,0,3,3,0,0,VALID,0,0,0,0,0,1,0,0,0,0,0,0,0,0,0,0,0,0,0,0,297.9,1071.01,2,0,0.08,0.08,112,10,0.12,0.08,11.38,FLYING,X10-H,0:/Integrated Flight Computer/aircraft/x10_h_cfg.ks (inferred preloaded)
11.68,APPROACH,ILS_TRACK,151.93,152,0.07,744.71,666.13,0.35,9.54,9.42,269.94,0.08,0.2739,0,16.458,1,0.6,4.5,0.75,0.35,0.0168,0.4,0,21.911,0,-0.072,0,269.94,-0.115,0,1,0.14,0,0,-0.11,269.94,0.8879,-0.001,-0.46,-0.11,269.94,2.68,-362.88,19.716,-0.057,0,0,3,721.69,8.773,-0.115,1107.57,0,0,0,,0,NONE,0,0,0,0,0,0,0,0,0,0,666.13,0,0,0,0,0,0,0,0,0,270.39,0,0,0,0,0,0,0,0,0,0,0,0,0,3,3,0,0,VALID,0,0,0,0,0,1,0,0,0,0,0,0,0,0,0,0,0,0,0,0,297.42,1071.03,2,0,0.08,0.08,115,10,0.12,0.08,11.68,FLYING,X10-H,0:/Integrated Flight Computer/aircraft/x10_h_cfg.ks (inferred preloaded)
11.98,APPROACH,ILS_TRACK,151.93,152,0.07,744.81,666.23,0.32,9.55,9.43,269.94,0.079,0.2757,0,16.479,1,0.6,4.5,0.75,0.35,0.0168,0.4,0,21.91,0,-0.068,0,269.95,-0.115,0,1,0.12,0,0,-0.11,269.94,0.8879,-0.0008,-0.4601,-0.12,269.95,2.62,-360.25,19.668,-0.047,0,0,3,721.69,8.758,-0.115,1105.04,0,0,0,,0,NONE,0,0,0,0,0,0,0,0,0,0,666.23,0,0,0,0,0,0,0,0,0,270.39,0,0,0,0,0,0,0,0,0,0,0,0,0,3,3,0,0,VALID,0,0,0,0,0,1,0,0,0,0,0,0,0,0,0,0,0,0,0,0,297.04,1071.04,2,0,0.08,0.08,118,10,0.12,0.08,11.98,FLYING,X10-H,0:/Integrated Flight Computer/aircraft/x10_h_cfg.ks (inferred preloaded)
12.28,APPROACH,ILS_TRACK,151.94,152,0.06,744.9,666.32,0.3,9.55,9.44,269.94,0.077,0.2758,0,16.498,1,0.6,4.5,0.75,0.35,0.0168,0.4,0,21.909,0,-0.064,0,269.95,-0.116,0,1,0.11,0,0,-0.11,269.96,0.8878,-0.0009,-0.4602,-0.12,269.95,2.56,-357.62,19.619,-0.051,0,0,3,721.69,8.747,-0.116,1102.5,0,0,0,,0,NONE,0,0,0,0,0,0,0,0,0,0,666.32,0,0,0,0,0,0,0,0,0,270.39,0,0,0,0,0,0,0,0,0,0,0,0,0,3,3,0,0,VALID,0,0,0,0,0,1,0,0,0,0,0,0,0,0,0,0,0,0,0,0,296.87,1071.05,2,0,0.08,0.08,121,10,0.12,0.08,12.28,FLYING,X10-H,0:/Integrated Flight Computer/aircraft/x10_h_cfg.ks (inferred preloaded)
12.58,APPROACH,ILS_TRACK,151.94,152,0.06,744.98,666.4,0.29,9.55,9.45,269.94,0.078,0.2767,0,16.517,1,0.6,4.5,0.75,0.35,0.0168,0.4,0,21.908,0,-0.06,0,269.94,-0.116,0,1,0.11,0,0,-0.12,269.95,0.8878,-0.001,-0.4602,-0.12,269.94,2.5,-354.99,19.571,-0.057,0,0,3,721.69,8.738,-0.116,1099.97,0,0,0,,0,NONE,0,0,0,0,0,0,0,0,0,0,666.4,0,0,0,0,0,0,0,0,0,270.39,0,0,0,0,0,0,0,0,0,0,0,0,0,3,3,0,0,VALID,0,0,0,0,0,1,0,0,0,0,0,0,0,0,0,0,0,0,0,0,296.73,1071.06,2,0,0.08,0.08,124,10,0.12,0.08,12.58,FLYING,X10-H,0:/Integrated Flight Computer/aircraft/x10_h_cfg.ks (inferred preloaded)
12.88,APPROACH,ILS_TRACK,151.94,152,0.06,745.07,666.49,0.26,9.55,9.45,269.94,0.077,0.2771,0,16.534,1,0.6,4.5,0.75,0.35,0.0168,0.4,0,21.907,0,-0.056,0,269.95,-0.117,0,1,0.1,0,0,-0.12,269.96,0.8878,-0.0008,-0.4603,-0.12,269.95,2.44,-352.38,19.523,-0.048,0,0,3,721.69,8.713,-0.117,1097.43,0,0,0,,0,NONE,0,0,0,0,0,0,0,0,0,0,666.49,0,0,0,0,0,0,0,0,0,270.39,0,0,0,0,0,0,0,0,0,0,0,0,0,3,3,0,0,VALID,0,0,0,0,0,1,0,0,0,0,0,0,0,0,0,0,0,0,0,0,296.64,1071.07,2,0,0.08,0.08,127,10,0.12,0.08,12.88,FLYING,X10-H,0:/Integrated Flight Computer/aircraft/x10_h_cfg.ks (inferred preloaded)
13.18,APPROACH,ILS_TRACK,151.95,152,0.05,745.14,666.56,0.25,9.55,9.47,269.94,0.08,0.2778,0,16.55,1,0.6,4.5,0.75,0.35,0.0168,0.4,0,21.906,0,-0.053,0,269.95,-0.117,0,1,0.09,0,0,-0.12,269.95,0.8877,-0.0008,-0.4604,-0.12,269.95,2.38,-349.76,19.474,-0.048,0,0,3,721.69,8.708,-0.117,1094.9,0,0,0,,0,NONE,0,0,0,0,0,0,0,0,0,0,666.56,0,0,0,0,0,0,0,0,0,270.39,0,0,0,0,0,0,0,0,0,0,0,0,0,3,3,0,0,VALID,0,0,0,0,0,1,0,0,0,0,0,0,0,0,0,0,0,0,0,0,296.75,1071.08,2,0,0.08,0.08,130,10,0.12,0.08,13.18,FLYING,X10-H,0:/Integrated Flight Computer/aircraft/x10_h_cfg.ks (inferred preloaded)
13.48,APPROACH,ILS_TRACK,151.95,152,0.05,745.21,666.63,0.22,9.54,9.47,269.94,0.08,0.2781,0,16.565,1,0.6,4.5,0.75,0.35,0.0168,0.4,0,21.905,0,-0.05,0,269.96,-0.118,0,1,0.09,0,0,-0.12,269.96,0.8877,-0.0006,-0.4605,-0.12,269.96,2.32,-347.16,19.426,-0.036,0,0,3,721.69,8.671,-0.118,1092.36,0,0,0,,0,NONE,0,0,0,0,0,0,0,0,0,0,666.63,0,0,0,0,0,0,0,0,0,270.39,0,0,0,0,0,0,0,0,0,0,0,0,0,3,3,0,0,VALID,0,0,0,0,0,1,0,0,0,0,0,0,0,0,0,0,0,0,0,0,296.8,1071.08,2,0,0.08,0.08,133,10,0.12,0.08,13.48,FLYING,X10-H,0:/Integrated Flight Computer/aircraft/x10_h_cfg.ks (inferred preloaded)
13.78,APPROACH,ILS_TRACK,151.95,152,0.05,745.28,666.7,0.22,9.55,9.47,269.94,0.081,0.2782,0,16.58,1,0.6,4.5,0.75,0.35,0.0168,0.4,0,21.904,0,-0.047,0,269.95,-0.118,0,1,0.08,0,0,-0.12,269.96,0.8876,-0.0009,-0.4605,-0.12,269.95,2.27,-344.55,19.378,-0.05,0,0,3,721.69,8.676,-0.118,1089.83,0,0,0,,0,NONE,0,0,0,0,0,0,0,0,0,0,666.7,0,0,0,0,0,0,0,0,0,270.39,0,0,0,0,0,0,0,0,0,0,0,0,0,3,3,0,0,VALID,0,0,0,0,0,1,0,0,0,0,0,0,0,0,0,0,0,0,0,0,296.87,1071.09,2,0,0.08,0.08,136,10,0.12,0.08,13.78,FLYING,X10-H,0:/Integrated Flight Computer/aircraft/x10_h_cfg.ks (inferred preloaded)
14.08,APPROACH,ILS_TRACK,151.96,152,0.04,745.35,666.77,0.21,9.55,9.48,269.95,0.08,0.2775,0,16.593,1,0.6,4.5,0.75,0.35,0.0168,0.4,0,21.903,0,-0.043,0,269.96,-0.118,0,1,0.08,0,0,-0.12,269.96,0.8876,-0.0007,-0.4606,-0.12,269.96,2.21,-341.95,19.329,-0.041,0,0,3,721.69,8.663,-0.118,1087.29,0,0,0,,0,NONE,0,0,0,0,0,0,0,0,0,0,666.77,0,0,0,0,0,0,0,0,0,270.39,0,0,0,0,0,0,0,0,0,0,0,0,0,3,3,0,0,VALID,0,0,0,0,0,1,0,0,0,0,0,0,0,0,0,0,0,0,0,0,296.93,1071.1,2,0,0.08,0.08,139,10,0.12,0.08,14.08,FLYING,X10-H,0:/Integrated Flight Computer/aircraft/x10_h_cfg.ks (inferred preloaded)
14.38,APPROACH,ILS_TRACK,151.96,152,0.04,745.41,666.83,0.2,9.55,9.48,269.95,0.082,0.2773,0,16.605,1,0.6,4.5,0.75,0.35,0.0168,0.4,0,21.902,0,-0.039,0,269.96,-0.119,0,1,0.07,0,0,-0.12,269.97,0.8876,-0.0008,-0.4607,-0.12,269.96,2.15,-339.36,19.281,-0.043,0,0,3,721.69,8.657,-0.119,1084.75,0,0,0,,0,NONE,0,0,0,0,0,0,0,0,0,0,666.83,0,0,0,0,0,0,0,0,0,270.39,0,0,0,0,0,0,0,0,0,0,0,0,0,3,3,0,0,VALID,0,0,0,0,0,1,0,0,0,0,0,0,0,0,0,0,0,0,0,0,296.95,1071.11,2,0,0.08,0.08,142,10,0.12,0.08,14.38,FLYING,X10-H,0:/Integrated Flight Computer/aircraft/x10_h_cfg.ks (inferred preloaded)
14.68,APPROACH,ILS_TRACK,151.96,152,0.04,745.46,666.88,0.18,9.55,9.49,269.95,0.083,0.2784,0,16.616,1,0.6,4.5,0.75,0.35,0.0168,0.4,0,21.901,0,-0.037,0,269.97,-0.119,0,1,0.06,0,0,-0.12,269.96,0.8875,-0.0006,-0.4608,-0.12,269.97,2.1,-336.76,19.232,-0.034,0,0,3,721.69,8.656,-0.119,1082.22,0,0,0,,0,NONE,0,0,0,0,0,0,0,0,0,0,666.88,0,0,0,0,0,0,0,0,0,270.39,0,0,0,0,0,0,0,0,0,0,0,0,0,3,3,0,0,VALID,0,0,0,0,0,1,0,0,0,0,0,0,0,0,0,0,0,0,0,0,296.93,1071.12,2,0,0.08,0.08,145,10,0.12,0.08,14.68,FLYING,X10-H,0:/Integrated Flight Computer/aircraft/x10_h_cfg.ks (inferred preloaded)
14.98,APPROACH,ILS_TRACK,151.97,152,0.03,745.52,666.94,0.18,9.55,9.49,269.95,0.083,0.2789,0,16.627,1,0.6,4.5,0.75,0.35,0.0168,0.4,0,21.901,0,-0.035,0,269.97,-0.119,0,1,0.07,0,0,-0.12,269.96,0.8875,-0.0006,-0.4609,-0.12,269.97,2.05,-334.17,19.184,-0.034,0,0,3,721.69,8.635,-0.119,1079.68,0,0,0,,0,NONE,0,0,0,0,0,0,0,0,0,0,666.94,0,0,0,0,0,0,0,0,0,270.39,0,0,0,0,0,0,0,0,0,0,0,0,0,3,3,0,0,VALID,0,0,0,0,0,1,0,0,0,0,0,0,0,0,0,0,0,0,0,0,297.02,1071.12,2,0,0.08,0.08,148,10,0.12,0.08,14.98,FLYING,X10-H,0:/Integrated Flight Computer/aircraft/x10_h_cfg.ks (inferred preloaded)
15.28,APPROACH,ILS_TRACK,151.97,152,0.03,745.57,666.99,0.16,9.55,9.49,269.95,0.084,0.2783,0,16.637,1,0.6,4.5,0.75,0.35,0.0168,0.4,0,21.9,0,-0.032,0,269.97,-0.119,0,1,0.06,0,0,-0.12,269.96,0.8874,-0.0006,-0.4609,-0.12,269.97,2,-331.59,19.136,-0.034,0,0,3,721.69,8.622,-0.119,1077.15,0,0,0,,0,NONE,0,0,0,0,0,0,0,0,0,0,666.99,0,0,0,0,0,0,0,0,0,270.39,0,0,0,0,0,0,0,0,0,0,0,0,0,3,3,0,0,VALID,0,0,0,0,0,1,0,0,0,0,0,0,0,0,0,0,0,0,0,0,297.11,1071.13,2,0,0.08,0.08,151,10,0.12,0.08,15.28,FLYING,X10-H,0:/Integrated Flight Computer/aircraft/x10_h_cfg.ks (inferred preloaded)
15.58,APPROACH,ILS_TRACK,151.97,152,0.03,745.62,667.04,0.16,9.55,9.49,269.95,0.086,0.2785,0,16.646,1,0.6,4.5,0.75,0.35,0.0168,0.4,0,21.899,0,-0.029,0,269.97,-0.12,0,1,0.06,0,0,-0.12,269.96,0.8874,-0.0005,-0.461,-0.12,269.97,1.94,-329,19.087,-0.029,0,0,3,721.69,8.603,-0.12,1074.61,0,0,0,,0,NONE,0,0,0,0,0,0,0,0,0,0,667.04,0,0,0,0,0,0,0,0,0,270.39,0,0,0,0,0,0,0,0,0,0,0,0,0,3,3,0,0,VALID,0,0,0,0,0,1,0,0,0,0,0,0,0,0,0,0,0,0,0,0,297.17,1071.14,2,0,0.08,0.08,154,10,0.12,0.08,15.58,FLYING,X10-H,0:/Integrated Flight Computer/aircraft/x10_h_cfg.ks (inferred preloaded)
15.88,APPROACH,ILS_TRACK,151.97,152,0.03,745.66,667.08,0.15,9.55,9.5,269.95,0.085,0.2778,0,16.654,1,0.6,4.5,0.75,0.35,0.0168,0.4,0,21.898,0,-0.025,0,269.97,-0.12,0,1,0.05,0,0,-0.12,269.96,0.8874,-0.0006,-0.4611,-0.12,269.97,1.89,-326.42,19.039,-0.032,0,0,3,721.69,8.602,-0.12,1072.07,0,0,0,,0,NONE,0,0,0,0,0,0,0,0,0,0,667.08,0,0,0,0,0,0,0,0,0,270.39,0,0,0,0,0,0,0,0,0,0,0,0,0,3,3,0,0,VALID,0,0,0,0,0,1,0,0,0,0,0,0,0,0,0,0,0,0,0,0,297.24,1071.15,2,0,0.08,0.08,157,10,0.12,0.08,15.88,FLYING,X10-H,0:/Integrated Flight Computer/aircraft/x10_h_cfg.ks (inferred preloaded)
16.18,APPROACH,ILS_TRACK,151.98,152,0.02,745.7,667.12,0.14,9.55,9.49,269.95,0.083,0.2773,0,16.661,1,0.6,4.5,0.75,0.35,0.0168,0.4,0,21.897,0,-0.022,0,269.96,-0.12,0,1,0.06,0,0,-0.12,269.97,0.8873,-0.0007,-0.4612,-0.12,269.96,1.85,-323.84,18.99,-0.037,0,0,3,721.69,8.599,-0.12,1069.54,0,0,0,,0,NONE,0,0,0,0,0,0,0,0,0,0,667.12,0,0,0,0,0,0,0,0,0,270.39,0,0,0,0,0,0,0,0,0,0,0,0,0,3,3,0,0,VALID,0,0,0,0,0,1,0,0,0,0,0,0,0,0,0,0,0,0,0,0,297.25,1071.16,2,0,0.08,0.08,160,10,0.12,0.08,16.18,FLYING,X10-H,0:/Integrated Flight Computer/aircraft/x10_h_cfg.ks (inferred preloaded)
16.48,APPROACH,ILS_TRACK,151.98,152,0.02,745.74,667.17,0.13,9.54,9.5,269.96,0.083,0.2768,0,16.666,1,0.6,4.5,0.75,0.35,0.0168,0.4,0,21.896,0,-0.018,0,269.97,-0.12,0,1,0.05,0,0,-0.12,269.97,0.8873,-0.0006,-0.4612,-0.12,269.97,1.8,-321.26,18.942,-0.035,0,0,3,721.69,8.587,-0.12,1067,0,0,0,,0,NONE,0,0,0,0,0,0,0,0,0,0,667.17,0,0,0,0,0,0,0,0,0,270.39,0,0,0,0,0,0,0,0,0,0,0,0,0,3,3,0,0,VALID,0,0,0,0,0,1,0,0,0,0,0,0,0,0,0,0,0,0,0,0,297.22,1071.18,2,0,0.08,0.08,163,10,0.12,0.08,16.48,FLYING,X10-H,0:/Integrated Flight Computer/aircraft/x10_h_cfg.ks (inferred preloaded)
16.78,APPROACH,ILS_TRACK,151.98,152,0.02,745.79,667.2,0.11,9.56,9.53,269.96,0.081,0.2781,0,16.671,1,0.6,4.5,0.75,0.35,0.0168,0.4,0,21.895,0,-0.016,0,269.97,-0.12,0,1,0.04,0,0,-0.12,269.97,0.8872,-0.0005,-0.4613,-0.12,269.97,1.75,-318.69,18.894,-0.031,0,0,3,721.69,8.63,-0.12,1064.47,0,0,0,,0,NONE,0,0,0,0,0,0,0,0,0,0,667.2,0,0,0,0,0,0,0,0,0,270.39,0,0,0,0,0,0,0,0,0,0,0,0,0,3,3,0,0,VALID,0,0,0,0,0,1,0,0,0,0,0,0,0,0,0,0,0,0,0,0,297.18,1071.18,2,0,0.08,0.08,166,10,0.12,0.08,16.78,FLYING,X10-H,0:/Integrated Flight Computer/aircraft/x10_h_cfg.ks (inferred preloaded)
17.08,APPROACH,ILS_TRACK,151.98,152,0.02,745.82,667.24,0.13,9.55,9.5,269.96,0.082,0.2815,0,16.677,1,0.6,4.5,0.75,0.35,0.0168,0.4,0,21.896,0,-0.019,0,269.98,-0.121,0,1,0.04,0,0,-0.12,269.97,0.8872,-0.0004,-0.4614,-0.12,269.98,1.7,-316.11,18.845,-0.021,0,0,3,721.69,8.602,-0.121,1061.93,0,0,0,,0,NONE,0,0,0,0,0,0,0,0,0,0,667.24,0,0,0,0,0,0,0,0,0,270.39,0,0,0,0,0,0,0,0,0,0,0,0,0,3,3,0,0,VALID,0,0,0,0,0,1,0,0,0,0,0,0,0,0,0,0,0,0,0,0,297.3,1071.17,2,0,0.08,0.08,169,10,0.12,0.08,17.08,FLYING,X10-H,0:/Integrated Flight Computer/aircraft/x10_h_cfg.ks (inferred preloaded)
17.38,APPROACH,ILS_TRACK,151.98,152,0.02,745.86,667.28,0.12,9.54,9.5,269.96,0.083,0.2794,0,16.682,1,0.6,4.5,0.75,0.35,0.0168,0.4,0,21.896,0,-0.016,0,269.97,-0.121,0,1,0.05,0,0,-0.12,269.97,0.8872,-0.0005,-0.4615,-0.12,269.97,1.66,-313.54,18.797,-0.026,0,0,3,721.69,8.572,-0.121,1059.39,0,0,0,,0,NONE,0,0,0,0,0,0,0,0,0,0,667.28,0,0,0,0,0,0,0,0,0,270.39,0,0,0,0,0,0,0,0,0,0,0,0,0,3,3,0,0,VALID,0,0,0,0,0,1,0,0,0,0,0,0,0,0,0,0,0,0,0,0,297.53,1071.18,2,0,0.08,0.08,172,10,0.12,0.08,17.38,FLYING,X10-H,0:/Integrated Flight Computer/aircraft/x10_h_cfg.ks (inferred preloaded)
17.68,APPROACH,ILS_TRACK,151.99,152,0.01,745.89,667.31,0.11,9.54,9.5,269.96,0.084,0.2769,0,16.686,1,0.6,4.5,0.75,0.35,0.0168,0.4,0,21.894,0,-0.011,0,269.97,-0.121,0,1,0.04,0,0,-0.12,269.97,0.8871,-0.0005,-0.4615,-0.12,269.97,1.61,-310.97,18.748,-0.026,0,0,3,721.69,8.565,-0.121,1056.86,0,0,0,,0,NONE,0,0,0,0,0,0,0,0,0,0,667.31,0,0,0,0,0,0,0,0,0,270.39,0,0,0,0,0,0,0,0,0,0,0,0,0,3,3,0,0,VALID,0,0,0,0,0,1,0,0,0,0,0,0,0,0,0,0,0,0,0,0,297.59,1071.2,2,0,0.08,0.08,175,10,0.12,0.08,17.68,FLYING,X10-H,0:/Integrated Flight Computer/aircraft/x10_h_cfg.ks (inferred preloaded)
17.98,APPROACH,ILS_TRACK,152,152,0,745.92,667.35,0.11,9.54,9.5,269.96,0.082,0.2752,0,16.688,1,0.6,4.5,0.75,0.35,0.0168,0.4,0,21.892,0,-0.005,0,269.97,-0.121,0,1,0.04,0,0,-0.12,269.97,0.8871,-0.0006,-0.4616,-0.12,269.97,1.57,-308.4,18.7,-0.032,0,0,3,721.69,8.56,-0.121,1054.32,0,0,0,,0,NONE,0,0,0,0,0,0,0,0,0,0,667.35,0,0,0,0,0,0,0,0,0,270.39,0,0,0,0,0,0,0,0,0,0,0,0,0,3,3,0,0,VALID,0,0,0,0,0,1,0,0,0,0,0,0,0,0,0,0,0,0,0,0,297.45,1071.22,2,0,0.08,0.08,178,10,0.12,0.08,17.98,FLYING,X10-H,0:/Integrated Flight Computer/aircraft/x10_h_cfg.ks (inferred preloaded)
18.28,APPROACH,ILS_TRACK,152,152,0,745.95,667.38,0.1,9.54,9.5,269.96,0.08,0.2745,0,16.688,1,0.6,4.5,0.75,0.35,0.0168,0.4,0,21.891,0,0,0,269.97,-0.121,0,1,0.04,0,0,-0.12,269.98,0.887,-0.0005,-0.4617,-0.12,269.97,1.53,-305.84,18.652,-0.031,0,0,3,721.69,8.553,-0.121,1051.78,0,0,0,,0,NONE,0,0,0,0,0,0,0,0,0,0,667.38,0,0,0,0,0,0,0,0,0,270.39,0,0,0,0,0,0,0,0,0,0,0,0,0,3,3,0,0,VALID,0,0,0,0,0,1,0,0,0,0,0,0,0,0,0,0,0,0,0,0,297.17,1071.24,2,0,0.08,0.08,181,10,0.12,0.08,18.28,FLYING,X10-H,0:/Integrated Flight Computer/aircraft/x10_h_cfg.ks (inferred preloaded)
18.58,APPROACH,ILS_TRACK,152.01,152,-0.01,745.98,667.41,0.1,9.54,9.5,269.96,0.08,0.2745,0,16.687,1,0.6,4.5,0.75,0.35,0.0168,0.4,0,21.89,0,0.005,0,269.98,-0.121,0,1,0.04,0,0,-0.12,269.98,0.887,-0.0003,-0.4617,-0.12,269.98,1.48,-303.27,18.603,-0.02,0,0,3,721.69,8.553,-0.121,1049.25,0,0,0,,0,NONE,0,0,0,0,0,0,0,0,0,0,667.41,0,0,0,0,0,0,0,0,0,270.39,0,0,0,0,0,0,0,0,0,0,0,0,0,3,3,0,0,VALID,0,0,0,0,0,1,0,0,0,0,0,0,0,0,0,0,0,0,0,0,296.86,1071.26,2,0,0.08,0.08,184,10,0.12,0.08,18.58,FLYING,X10-H,0:/Integrated Flight Computer/aircraft/x10_h_cfg.ks (inferred preloaded)
18.88,APPROACH,ILS_TRACK,152.01,152,-0.01,746.01,667.43,0.09,9.54,9.51,269.96,0.081,0.275,0,16.685,1,0.6,4.5,0.75,0.35,0.0168,0.4,0,21.889,0,0.008,0,269.97,-0.122,0,1,0.04,0,0,-0.12,269.98,0.887,-0.0005,-0.4618,-0.12,269.97,1.44,-300.7,18.555,-0.026,0,0,3,721.69,8.544,-0.122,1046.71,0,0,0,,0,NONE,0,0,0,0,0,0,0,0,0,0,667.43,0,0,0,0,0,0,0,0,0,270.39,0,0,0,0,0,0,0,0,0,0,0,0,0,3,3,0,0,VALID,0,0,0,0,0,1,0,0,0,0,0,0,0,0,0,0,0,0,0,0,296.59,1071.27,2,0,0.08,0.08,187,10,0.12,0.08,18.88,FLYING,X10-H,0:/Integrated Flight Computer/aircraft/x10_h_cfg.ks (inferred preloaded)
19.18,APPROACH,ILS_TRACK,152.01,152,-0.01,746.04,667.46,0.09,9.54,9.51,269.96,0.081,0.2756,0,16.682,1,0.6,4.5,0.75,0.35,0.0168,0.4,0,21.888,0,0.011,0,269.97,-0.122,0,1,0.03,0,0,-0.12,269.98,0.8869,-0.0005,-0.4619,-0.12,269.97,1.4,-298.14,18.506,-0.027,0,0,3,721.69,8.541,-0.122,1044.17,0,0,0,,0,NONE,0,0,0,0,0,0,0,0,0,0,667.46,0,0,0,0,0,0,0,0,0,270.39,0,0,0,0,0,0,0,0,0,0,0,0,0,3,3,0,0,VALID,0,0,0,0,0,1,0,0,0,0,0,0,0,0,0,0,0,0,0,0,296.41,1071.28,2,0,0.08,0.08,190,10,0.12,0.08,19.18,FLYING,X10-H,0:/Integrated Flight Computer/aircraft/x10_h_cfg.ks (inferred preloaded)
19.48,APPROACH,ILS_TRACK,152.01,152,-0.01,746.06,667.48,0.08,9.54,9.51,269.97,0.079,0.2762,0,16.678,1,0.6,4.5,0.75,0.35,0.0168,0.4,0,21.887,0,0.013,0,269.97,-0.122,0,1,0.03,0,0,-0.12,269.98,0.8869,-0.0005,-0.462,-0.12,269.97,1.37,-295.58,18.458,-0.027,0,0,3,721.69,8.537,-0.122,1041.64,0,0,0,,0,NONE,0,0,0,0,0,0,0,0,0,0,667.48,0,0,0,0,0,0,0,0,0,270.39,0,0,0,0,0,0,0,0,0,0,0,0,0,3,3,0,0,VALID,0,0,0,0,0,1,0,0,0,0,0,0,0,0,0,0,0,0,0,0,296.31,1071.28,2,0,0.08,0.08,193,10,0.12,0.08,19.48,FLYING,X10-H,0:/Integrated Flight Computer/aircraft/x10_h_cfg.ks (inferred preloaded)
19.78,APPROACH,ILS_TRACK,152.01,152,-0.01,746.08,667.51,0.08,9.54,9.51,269.97,0.078,0.2765,0,16.674,1,0.6,4.5,0.75,0.35,0.0168,0.4,0,21.887,0,0.015,0,269.98,-0.122,0,1,0.03,0,0,-0.12,269.98,0.8869,-0.0003,-0.462,-0.12,269.98,1.33,-293.02,18.41,-0.017,0,0,3,721.69,8.536,-0.122,1039.1,0,0,0,,0,NONE,0,0,0,0,0,0,0,0,0,0,667.51,0,0,0,0,0,0,0,0,0,270.39,0,0,0,0,0,0,0,0,0,0,0,0,0,3,3,0,0,VALID,0,0,0,0,0,1,0,0,0,0,0,0,0,0,0,0,0,0,0,0,296.28,1071.29,2,0,0.08,0.08,196,10,0.12,0.08,19.78,FLYING,X10-H,0:/Integrated Flight Computer/aircraft/x10_h_cfg.ks (inferred preloaded)
20.08,APPROACH,ILS_TRACK,152.02,152,-0.02,746.11,667.53,0.07,9.54,9.51,269.97,0.079,0.2768,0,16.669,1,0.6,4.5,0.75,0.35,0.0168,0.4,0,21.886,0,0.016,0,269.98,-0.122,0,1,0.03,0,0,-0.12,269.98,0.8868,-0.0003,-0.4621,-0.12,269.98,1.29,-290.46,18.361,-0.017,0,0,3,721.69,8.533,-0.122,1036.56,0,0,0,,0,NONE,0,0,0,0,0,0,0,0,0,0,667.53,0,0,0,0,0,0,0,0,0,270.39,0,0,0,0,0,0,0,0,0,0,0,0,0,3,3,0,0,VALID,0,0,0,0,0,1,0,0,0,0,0,0,0,0,0,0,0,0,0,0,296.23,1071.29,2,0,0.08,0.08,199,10,0.12,0.08,20.08,FLYING,X10-H,0:/Integrated Flight Computer/aircraft/x10_h_cfg.ks (inferred preloaded)
20.38,APPROACH,ILS_TRACK,152.02,152,-0.02,746.13,667.55,0.07,9.54,9.51,269.97,0.081,0.2769,0,16.664,1,0.6,4.5,0.75,0.35,0.0168,0.4,0,21.886,0,0.018,0,269.97,-0.122,0,1,0.03,0,0,-0.12,269.98,0.8868,-0.0005,-0.4622,-0.12,269.97,1.25,-287.9,18.313,-0.03,0,0,3,721.69,8.526,-0.122,1034.03,0,0,0,,0,NONE,0,0,0,0,0,0,0,0,0,0,667.55,0,0,0,0,0,0,0,0,0,270.39,0,0,0,0,0,0,0,0,0,0,0,0,0,3,3,0,0,VALID,0,0,0,0,0,1,0,0,0,0,0,0,0,0,0,0,0,0,0,0,296.25,1071.3,2,0,0.08,0.08,202,10,0.12,0.08,20.38,FLYING,X10-H,0:/Integrated Flight Computer/aircraft/x10_h_cfg.ks (inferred preloaded)
20.68,APPROACH,ILS_TRACK,152.02,152,-0.02,746.15,667.57,0.06,9.53,9.51,269.97,0.077,0.2771,0,16.659,1,0.6,4.5,0.75,0.35,0.0168,0.4,0,21.886,0,0.019,0,269.98,-0.122,0,1,0.02,0,0,-0.12,269.99,0.8867,-0.0003,-0.4623,-0.12,269.98,1.22,-285.34,18.264,-0.018,0,0,3,721.69,8.526,-0.122,1031.49,0,0,0,,0,NONE,0,0,0,0,0,0,0,0,0,0,667.57,0,0,0,0,0,0,0,0,0,270.39,0,0,0,0,0,0,0,0,0,0,0,0,0,3,3,0,0,VALID,0,0,0,0,0,1,0,0,0,0,0,0,0,0,0,0,0,0,0,0,296.27,1071.3,2,0,0.08,0.08,205,10,0.12,0.08,20.68,FLYING,X10-H,0:/Integrated Flight Computer/aircraft/x10_h_cfg.ks (inferred preloaded)
20.98,APPROACH,ILS_TRACK,152.02,152,-0.02,746.17,667.59,0.07,9.54,9.51,269.97,0.074,0.2785,0,16.653,1,0.6,4.5,0.75,0.35,0.0168,0.4,0,21.886,0,0.017,0,269.99,-0.122,0,1,0.03,0,0,-0.12,269.98,0.8867,-0.0001,-0.4623,-0.12,269.99,1.18,-282.78,18.216,-0.008,0,0,3,721.69,8.55,-0.122,1028.95,0,0,0,,0,NONE,0,0,0,0,0,0,0,0,0,0,667.59,0,0,0,0,0,0,0,0,0,270.39,0,0,0,0,0,0,0,0,0,0,0,0,0,3,3,0,0,VALID,0,0,0,0,0,1,0,0,0,0,0,0,0,0,0,0,0,0,0,0,296.33,1071.29,2,0,0.08,0.08,208,10,0.12,0.08,20.98,FLYING,X10-H,0:/Integrated Flight Computer/aircraft/x10_h_cfg.ks (inferred preloaded)
21.28,APPROACH,ILS_TRACK,152.02,152,-0.02,746.19,667.61,0.06,9.53,9.51,269.97,0.073,0.2786,0,16.648,1,0.6,4.5,0.75,0.35,0.0168,0.4,0,21.886,0,0.017,0,269.98,-0.122,0,1,0.03,0,0,-0.12,269.98,0.8867,-0.0004,-0.4624,-0.12,269.98,1.15,-280.23,18.168,-0.023,0,0,3,721.69,8.505,-0.122,1026.42,0,0,0,,0,NONE,0,0,0,0,0,0,0,0,0,0,667.61,0,0,0,0,0,0,0,0,0,270.39,0,0,0,0,0,0,0,0,0,0,0,0,0,3,3,0,0,VALID,0,0,0,0,0,1,0,0,0,0,0,0,0,0,0,0,0,0,0,0,296.46,1071.29,2,0,0.08,0.08,211,10,0.12,0.08,21.28,FLYING,X10-H,0:/Integrated Flight Computer/aircraft/x10_h_cfg.ks (inferred preloaded)
21.58,APPROACH,ILS_TRACK,152.02,152,-0.02,746.21,667.63,0.06,9.53,9.51,269.97,0.071,0.2778,0,16.643,1,0.6,4.5,0.75,0.35,0.0168,0.4,0,21.886,0,0.018,0,269.99,-0.123,0,1,0.02,0,0,-0.12,269.99,0.8866,-0.0002,-0.4625,-0.12,269.99,1.11,-277.67,18.119,-0.013,0,0,3,721.69,8.513,-0.123,1023.88,0,0,0,,0,NONE,0,0,0,0,0,0,0,0,0,0,667.63,0,0,0,0,0,0,0,0,0,270.39,0,0,0,0,0,0,0,0,0,0,0,0,0,3,3,0,0,VALID,0,0,0,0,0,1,0,0,0,0,0,0,0,0,0,0,0,0,0,0,296.57,1071.29,2,0,0.08,0.08,214,10,0.12,0.08,21.58,FLYING,X10-H,0:/Integrated Flight Computer/aircraft/x10_h_cfg.ks (inferred preloaded)
21.88,APPROACH,ILS_TRACK,152.02,152,-0.02,746.22,667.65,0.06,9.53,9.51,269.97,0.072,0.2763,0,16.637,1,0.6,4.5,0.75,0.35,0.0168,0.4,0,21.885,0,0.02,0,269.99,-0.123,0,1,0.02,0,0,-0.12,269.98,0.8866,-0.0002,-0.4626,-0.12,269.99,1.08,-275.12,18.071,-0.011,0,0,3,721.69,8.516,-0.123,1021.34,0,0,0,,0,NONE,0,0,0,0,0,0,0,0,0,0,667.65,0,0,0,0,0,0,0,0,0,270.39,0,0,0,0,0,0,0,0,0,0,0,0,0,3,3,0,0,VALID,0,0,0,0,0,1,0,0,0,0,0,0,0,0,0,0,0,0,0,0,296.5,1071.3,2,0,0.08,0.08,217,10,0.12,0.08,21.88,FLYING,X10-H,0:/Integrated Flight Computer/aircraft/x10_h_cfg.ks (inferred preloaded)
22.18,APPROACH,ILS_TRACK,152.02,152,-0.02,746.24,667.67,0.05,9.53,9.51,269.97,0.071,0.2756,0,16.631,1,0.6,4.5,0.75,0.35,0.0168,0.4,0,21.884,0,0.023,0,269.98,-0.123,0,1,0.02,0,0,-0.12,269.99,0.8866,-0.0004,-0.4626,-0.12,269.98,1.05,-272.57,18.022,-0.021,0,0,3,721.69,8.507,-0.123,1018.8,0,0,0,,0,NONE,0,0,0,0,0,0,0,0,0,0,667.67,0,0,0,0,0,0,0,0,0,270.39,0,0,0,0,0,0,0,0,0,0,0,0,0,3,3,0,0,VALID,0,0,0,0,0,1,0,0,0,0,0,0,0,0,0,0,0,0,0,0,296.43,1071.31,2,0,0.08,0.08,220,10,0.12,0.08,22.18,FLYING,X10-H,0:/Integrated Flight Computer/aircraft/x10_h_cfg.ks (inferred preloaded)
22.48,APPROACH,ILS_TRACK,152.03,152,-0.03,746.26,667.68,0.05,9.53,9.51,269.97,0.07,0.2751,0,16.623,1,0.6,4.5,0.75,0.35,0.0168,0.4,0,21.884,0,0.025,0,269.98,-0.123,0,1,0.02,0,0,-0.12,269.99,0.8865,-0.0004,-0.4627,-0.12,269.98,1.02,-270.01,17.974,-0.02,0,0,3,721.69,8.508,-0.123,1016.27,0,0,0,,0,NONE,0,0,0,0,0,0,0,0,0,0,667.68,0,0,0,0,0,0,0,0,0,270.39,0,0,0,0,0,0,0,0,0,0,0,0,0,3,3,0,0,VALID,0,0,0,0,0,1,0,0,0,0,0,0,0,0,0,0,0,0,0,0,296.3,1071.32,2,0,0.08,0.08,223,10,0.12,0.08,22.48,FLYING,X10-H,0:/Integrated Flight Computer/aircraft/x10_h_cfg.ks (inferred preloaded)
22.78,APPROACH,ILS_TRACK,152.03,152,-0.03,746.27,667.7,0.05,9.53,9.51,269.97,0.07,0.2751,0,16.616,1,0.6,4.5,0.75,0.35,0.0168,0.4,0,21.883,0,0.027,0,269.98,-0.123,0,1,0.02,0,0,-0.12,269.99,0.8865,-0.0003,-0.4628,-0.12,269.98,0.99,-267.46,17.926,-0.017,0,0,3,721.69,8.508,-0.123,1013.73,0,0,0,,0,NONE,0,0,0,0,0,0,0,0,0,0,667.7,0,0,0,0,0,0,0,0,0,270.39,0,0,0,0,0,0,0,0,0,0,0,0,0,3,3,0,0,VALID,0,0,0,0,0,1,0,0,0,0,0,0,0,0,0,0,0,0,0,0,296.14,1071.32,2,0,0.08,0.08,226,10,0.12,0.08,22.78,FLYING,X10-H,0:/Integrated Flight Computer/aircraft/x10_h_cfg.ks (inferred preloaded)
23.08,APPROACH,ILS_TRACK,152.03,152,-0.03,746.29,667.71,0.05,9.53,9.51,269.98,0.069,0.2754,0,16.607,1,0.6,4.5,0.75,0.35,0.0168,0.4,0,21.883,0,0.028,0,269.99,-0.123,0,1,0.02,0,0,-0.12,269.99,0.8864,-0.0002,-0.4628,-0.12,269.99,0.96,-264.91,17.877,-0.014,0,0,3,721.69,8.503,-0.123,1011.19,0,0,0,,0,NONE,0,0,0,0,0,0,0,0,0,0,667.71,0,0,0,0,0,0,0,0,0,270.39,0,0,0,0,0,0,0,0,0,0,0,0,0,3,3,0,0,VALID,0,0,0,0,0,1,0,0,0,0,0,0,0,0,0,0,0,0,0,0,296.01,1071.33,2,0,0.08,0.08,229,10,0.12,0.08,23.08,FLYING,X10-H,0:/Integrated Flight Computer/aircraft/x10_h_cfg.ks (inferred preloaded)
23.38,APPROACH,ILS_TRACK,152.03,152,-0.03,746.3,667.73,0.05,9.53,9.51,269.98,0.068,0.2756,0,16.599,1,0.6,4.5,0.75,0.35,0.0168,0.4,0,21.883,0,0.028,0,269.99,-0.123,0,1,0.02,0,0,-0.12,269.99,0.8864,-0.0002,-0.4629,-0.12,269.99,0.93,-262.36,17.829,-0.009,0,0,3,721.69,8.502,-0.123,1008.66,0,0,0,,0,NONE,0,0,0,0,0,0,0,0,0,0,667.73,0,0,0,0,0,0,0,0,0,270.39,0,0,0,0,0,0,0,0,0,0,0,0,0,3,3,0,0,VALID,0,0,0,0,0,1,0,0,0,0,0,0,0,0,0,0,0,0,0,0,295.92,1071.33,2,0,0.08,0.08,232,10,0.12,0.08,23.38,FLYING,X10-H,0:/Integrated Flight Computer/aircraft/x10_h_cfg.ks (inferred preloaded)
23.68,APPROACH,ILS_TRACK,152.03,152,-0.03,746.31,667.74,0.05,9.53,9.51,269.98,0.07,0.2757,0,16.59,1,0.6,4.5,0.75,0.35,0.0168,0.4,0,21.883,0,0.029,0,269.99,-0.123,0,1,0.02,0,0,-0.12,269.99,0.8864,-0.0002,-0.463,-0.12,269.99,0.9,-259.81,17.78,-0.013,0,0,3,721.69,8.505,-0.123,1006.12,0,0,0,,0,NONE,0,0,0,0,0,0,0,0,0,0,667.74,0,0,0,0,0,0,0,0,0,270.39,0,0,0,0,0,0,0,0,0,0,0,0,0,3,3,0,0,VALID,0,0,0,0,0,1,0,0,0,0,0,0,0,0,0,0,0,0,0,0,295.85,1071.33,2,0,0.08,0.08,235,10,0.12,0.08,23.68,FLYING,X10-H,0:/Integrated Flight Computer/aircraft/x10_h_cfg.ks (inferred preloaded)
23.98,APPROACH,ILS_TRACK,152.03,152,-0.03,746.33,667.75,0.04,9.52,9.51,269.98,0.068,0.276,0,16.581,1,0.6,4.5,0.75,0.35,0.0168,0.4,0,21.883,0,0.029,0,269.99,-0.123,0,1,0.02,0,0,-0.12,269.99,0.8863,-0.0002,-0.4631,-0.12,269.99,0.88,-257.26,17.732,-0.009,0,0,3,721.69,8.499,-0.123,1003.58,0,0,0,,0,NONE,0,0,0,0,0,0,0,0,0,0,667.75,0,0,0,0,0,0,0,0,0,270.39,0,0,0,0,0,0,0,0,0,0,0,0,0,3,3,0,0,VALID,0,0,0,0,0,1,0,0,0,0,0,0,0,0,0,0,0,0,0,0,295.81,1071.33,2,0,0.08,0.08,238,10,0.12,0.08,23.98,FLYING,X10-H,0:/Integrated Flight Computer/aircraft/x10_h_cfg.ks (inferred preloaded)
24.28,APPROACH,ILS_TRACK,152.03,152,-0.03,746.34,667.77,0.04,9.52,9.51,269.98,0.066,0.2761,0,16.573,1,0.6,4.5,0.75,0.35,0.0168,0.4,0,21.883,0,0.029,0,269.99,-0.123,0,1,0.02,0,0,-0.12,269.98,0.8863,-0.0002,-0.4631,-0.12,269.99,0.85,-254.71,17.684,-0.01,0,0,3,721.69,8.502,-0.123,1001.04,0,0,0,,0,NONE,0,0,0,0,0,0,0,0,0,0,667.77,0,0,0,0,0,0,0,0,0,270.39,0,0,0,0,0,0,0,0,0,0,0,0,0,3,3,0,0,VALID,0,0,0,0,0,1,0,0,0,0,0,0,0,0,0,0,0,0,0,0,295.74,1071.33,2,0,0.08,0.08,241,10,0.12,0.08,24.28,FLYING,X10-H,0:/Integrated Flight Computer/aircraft/x10_h_cfg.ks (inferred preloaded)
24.58,APPROACH,ILS_TRACK,152.03,152,-0.03,746.35,667.78,0.04,9.53,9.51,269.98,0.068,0.2761,0,16.564,1,0.6,4.5,0.75,0.35,0.0168,0.4,0,21.883,0,0.029,0,269.99,-0.123,0,1,0.02,0,0,-0.12,269.98,0.8862,-0.0002,-0.4632,-0.12,269.99,0.82,-252.16,17.635,-0.01,0,0,3,721.69,8.501,-0.123,998.51,0,0,0,,0,NONE,0,0,0,0,0,0,0,0,0,0,667.78,0,0,0,0,0,0,0,0,0,270.39,0,0,0,0,0,0,0,0,0,0,0,0,0,3,3,0,0,VALID,0,0,0,0,0,1,0,0,0,0,0,0,0,0,0,0,0,0,0,0,295.73,1071.33,2,0,0.08,0.08,244,10,0.12,0.08,24.58,FLYING,X10-H,0:/Integrated Flight Computer/aircraft/x10_h_cfg.ks (inferred preloaded)
24.88,APPROACH,ILS_TRACK,152.03,152,-0.03,746.37,667.79,0.04,9.53,9.52,269.98,0.065,0.2759,0,16.555,1,0.6,4.5,0.75,0.35,0.0168,0.4,0,21.883,0,0.029,0,269.99,-0.123,0,1,0.01,0,0,-0.12,269.99,0.8862,-0.0002,-0.4633,-0.12,269.99,0.8,-249.61,17.587,-0.014,0,0,3,721.69,8.499,-0.123,995.97,0,0,0,,0,NONE,0,0,0,0,0,0,0,0,0,0,667.79,0,0,0,0,0,0,0,0,0,270.39,0,0,0,0,0,0,0,0,0,0,0,0,0,3,3,0,0,VALID,0,0,0,0,0,1,0,0,0,0,0,0,0,0,0,0,0,0,0,0,295.81,1071.33,2,0,0.08,0.08,247,10,0.12,0.08,24.88,FLYING,X10-H,0:/Integrated Flight Computer/aircraft/x10_h_cfg.ks (inferred preloaded)
25.18,APPROACH,ILS_TRACK,152.03,152,-0.03,746.38,667.8,0.04,9.53,9.51,269.98,0.064,0.2758,0,16.546,1,0.6,4.5,0.75,0.35,0.0168,0.4,0,21.883,0,0.029,0,269.98,-0.123,0,1,0.01,0,0,-0.12,269.99,0.8862,-0.0003,-0.4634,-0.12,269.98,0.77,-247.06,17.538,-0.017,0,0,3,721.69,8.494,-0.123,993.43,0,0,0,,0,NONE,0,0,0,0,0,0,0,0,0,0,667.8,0,0,0,0,0,0,0,0,0,270.39,0,0,0,0,0,0,0,0,0,0,0,0,0,3,3,0,0,VALID,0,0,0,0,0,1,0,0,0,0,0,0,0,0,0,0,0,0,0,0,295.78,1071.33,2,0,0.08,0.08,250,10,0.12,0.08,25.18,FLYING,X10-H,0:/Integrated Flight Computer/aircraft/x10_h_cfg.ks (inferred preloaded)
25.48,APPROACH,ILS_TRACK,152.03,152,-0.03,746.39,667.82,0.04,9.53,9.52,269.98,0.062,0.2758,0,16.538,1,0.6,4.5,0.75,0.35,0.0168,0.4,0,21.883,0,0.029,0,269.99,-0.123,0,1,0.01,0,0,-0.12,269.99,0.8861,-0.0002,-0.4634,-0.12,269.99,0.75,-244.51,17.49,-0.011,0,0,3,721.69,8.492,-0.123,990.9,0,0,0,,0,NONE,0,0,0,0,0,0,0,0,0,0,667.82,0,0,0,0,0,0,0,0,0,270.39,0,0,0,0,0,0,0,0,0,0,0,0,0,3,3,0,0,VALID,0,0,0,0,0,1,0,0,0,0,0,0,0,0,0,0,0,0,0,0,295.75,1071.33,2,0,0.08,0.08,253,10,0.12,0.08,25.48,FLYING,X10-H,0:/Integrated Flight Computer/aircraft/x10_h_cfg.ks (inferred preloaded)
25.78,APPROACH,ILS_TRACK,152.03,152,-0.03,746.4,667.83,0.04,9.53,9.51,269.98,0.062,0.2755,0,16.529,1,0.6,4.5,0.75,0.35,0.0168,0.4,0,21.883,0,0.029,0,270,-0.124,0,1,0.01,0,0,-0.12,269.99,0.8861,-0.0001,-0.4635,-0.12,270,0.73,-241.96,17.441,-0.003,0,0,3,721.69,8.496,-0.124,988.36,0,0,0,,0,NONE,0,0,0,0,0,0,0,0,0,0,667.83,0,0,0,0,0,0,0,0,0,270.39,0,0,0,0,0,0,0,0,0,0,0,0,0,3,3,0,0,VALID,0,0,0,0,0,1,0,0,0,0,0,0,0,0,0,0,0,0,0,0,295.71,1071.33,2,0,0.08,0.08,256,10,0.12,0.08,25.78,FLYING,X10-H,0:/Integrated Flight Computer/aircraft/x10_h_cfg.ks (inferred preloaded)
26.08,APPROACH,ILS_TRACK,152.03,152,-0.03,746.41,667.84,0.03,9.53,9.52,269.98,0.061,0.2754,0,16.52,1,0.6,4.5,0.75,0.35,0.0168,0.4,0,21.883,0,0.03,0,270,-0.124,0,1,0.01,0,0,-0.12,269.99,0.8861,-0.0001,-0.4636,-0.12,270,0.7,-239.41,17.393,-0.005,0,0,3,721.69,8.49,-0.124,985.82,0,0,0,,0,NONE,0,0,0,0,0,0,0,0,0,0,667.84,0,0,0,0,0,0,0,0,0,270.39,0,0,0,0,0,0,0,0,0,0,0,0,0,3,3,0,0,VALID,0,0,0,0,0,1,0,0,0,0,0,0,0,0,0,0,0,0,0,0,295.65,1071.33,2,0,0.08,0.08,259,10,0.12,0.08,26.08,FLYING,X10-H,0:/Integrated Flight Computer/aircraft/x10_h_cfg.ks (inferred preloaded)
26.38,APPROACH,ILS_TRACK,152.03,152,-0.03,746.42,667.85,0.03,9.53,9.51,269.98,0.06,0.2754,0,16.511,1,0.6,4.5,0.75,0.35,0.0168,0.4,0,21.883,0,0.029,0,269.99,-0.124,0,1,0.01,0,0,-0.12,269.99,0.886,-0.0001,-0.4636,-0.12,269.99,0.68,-236.86,17.345,-0.008,0,0,3,721.69,8.493,-0.124,983.28,0,0,0,,0,NONE,0,0,0,0,0,0,0,0,0,0,667.85,0,0,0,0,0,0,0,0,0,270.39,0,0,0,0,0,0,0,0,0,0,0,0,0,3,3,0,0,VALID,0,0,0,0,0,1,0,0,0,0,0,0,0,0,0,0,0,0,0,0,295.59,1071.32,2,0,0.08,0.08,262,10,0.12,0.08,26.38,FLYING,X10-H,0:/Integrated Flight Computer/aircraft/x10_h_cfg.ks (inferred preloaded)
26.68,APPROACH,ILS_TRACK,152.03,152,-0.03,746.43,667.86,0.03,9.53,9.52,269.98,0.061,0.2754,0,16.502,1,0.6,4.5,0.75,0.35,0.0168,0.4,0,21.883,0,0.029,0,270,-0.124,0,1,0.01,0,0,-0.12,269.99,0.886,-0.0001,-0.4637,-0.12,270,0.66,-234.32,17.296,-0.004,0,0,3,721.69,8.489,-0.124,980.75,0,0,0,,0,NONE,0,0,0,0,0,0,0,0,0,0,667.86,0,0,0,0,0,0,0,0,0,270.39,0,0,0,0,0,0,0,0,0,0,0,0,0,3,3,0,0,VALID,0,0,0,0,0,1,0,0,0,0,0,0,0,0,0,0,0,0,0,0,295.53,1071.32,2,0,0.08,0.08,265,10,0.12,0.08,26.68,FLYING,X10-H,0:/Integrated Flight Computer/aircraft/x10_h_cfg.ks (inferred preloaded)
26.98,APPROACH,ILS_TRACK,152.03,152,-0.03,746.44,667.87,0.03,9.53,9.52,269.98,0.061,0.2755,0,16.494,1,0.6,4.5,0.75,0.35,0.0168,0.4,0,21.883,0,0.029,0,269.99,-0.124,0,1,0.01,0,0,-0.12,269.99,0.8859,-0.0002,-0.4638,-0.12,269.99,0.64,-231.77,17.248,-0.013,0,0,3,721.69,8.488,-0.124,978.21,0,0,0,,0,NONE,0,0,0,0,0,0,0,0,0,0,667.87,0,0,0,0,0,0,0,0,0,270.39,0,0,0,0,0,0,0,0,0,0,0,0,0,3,3,0,0,VALID,0,0,0,0,0,1,0,0,0,0,0,0,0,0,0,0,0,0,0,0,295.49,1071.32,2,0,0.08,0.08,268,10,0.12,0.08,26.98,FLYING,X10-H,0:/Integrated Flight Computer/aircraft/x10_h_cfg.ks (inferred preloaded)
27.28,APPROACH,ILS_TRACK,152.03,152,-0.03,746.45,667.88,0.03,9.53,9.52,269.98,0.059,0.2756,0,16.485,1,0.6,4.5,0.75,0.35,0.0168,0.4,0,21.883,0,0.028,0,269.99,-0.124,0,1,0.01,0,0,-0.12,269.99,0.8859,-0.0002,-0.4639,-0.12,269.99,0.62,-229.22,17.199,-0.009,0,0,3,721.69,8.486,-0.124,975.67,0,0,0,,0,NONE,0,0,0,0,0,0,0,0,0,0,667.88,0,0,0,0,0,0,0,0,0,270.39,0,0,0,0,0,0,0,0,0,0,0,0,0,3,3,0,0,VALID,0,0,0,0,0,1,0,0,0,0,0,0,0,0,0,0,0,0,0,0,295.46,1071.31,2,0,0.08,0.08,271,10,0.12,0.08,27.28,FLYING,X10-H,0:/Integrated Flight Computer/aircraft/x10_h_cfg.ks (inferred preloaded)
27.58,APPROACH,ILS_TRACK,152.03,152,-0.03,746.46,667.89,0.03,9.53,9.51,269.98,0.058,0.2757,0,16.477,1,0.6,4.5,0.75,0.35,0.0168,0.4,0,21.883,0,0.027,0,269.98,-0.124,0,1,0.01,0,0,-0.12,270,0.8859,-0.0003,-0.4639,-0.12,269.98,0.6,-226.68,17.151,-0.016,0,0,3,721.69,8.485,-0.124,973.13,0,0,0,,0,NONE,0,0,0,0,0,0,0,0,0,0,667.89,0,0,0,0,0,0,0,0,0,270.39,0,0,0,0,0,0,0,0,0,0,0,0,0,3,3,0,0,VALID,0,0,0,0,0,1,0,0,0,0,0,0,0,0,0,0,0,0,0,0,295.43,1071.31,2,0,0.08,0.08,274,10,0.12,0.08,27.58,FLYING,X10-H,0:/Integrated Flight Computer/aircraft/x10_h_cfg.ks (inferred preloaded)
27.88,APPROACH,ILS_TRACK,152.03,152,-0.03,746.47,667.89,0.03,9.53,9.52,269.99,0.057,0.2756,0,16.469,1,0.6,4.5,0.75,0.35,0.0168,0.4,0,21.883,0,0.026,0,269.99,-0.124,0,1,0.01,0,0,-0.12,269.99,0.8858,-0.0002,-0.464,-0.12,269.99,0.58,-224.13,17.103,-0.013,0,0,3,721.69,8.483,-0.124,970.6,0,0,0,,0,NONE,0,0,0,0,0,0,0,0,0,0,667.89,0,0,0,0,0,0,0,0,0,270.39,0,0,0,0,0,0,0,0,0,0,0,0,0,3,3,0,0,VALID,0,0,0,0,0,1,0,0,0,0,0,0,0,0,0,0,0,0,0,0,295.42,1071.31,2,0,0.08,0.08,277,10,0.12,0.08,27.88,FLYING,X10-H,0:/Integrated Flight Computer/aircraft/x10_h_cfg.ks (inferred preloaded)
28.18,APPROACH,ILS_TRACK,152.03,152,-0.03,746.47,667.9,0.03,9.52,9.51,269.99,0.057,0.2756,0,16.461,1,0.6,4.5,0.75,0.35,0.0168,0.4,0,21.884,0,0.026,0,270,-0.124,0,1,0.01,0,0,-0.12,269.99,0.8858,-0.0001,-0.4641,-0.12,270,0.56,-221.59,17.054,-0.004,0,0,3,721.69,8.49,-0.124,968.06,0,0,0,,0,NONE,0,0,0,0,0,0,0,0,0,0,667.9,0,0,0,0,0,0,0,0,0,270.39,0,0,0,0,0,0,0,0,0,0,0,0,0,3,3,0,0,VALID,0,0,0,0,0,1,0,0,0,0,0,0,0,0,0,0,0,0,0,0,295.4,1071.3,2,0,0.08,0.08,280,10,0.12,0.08,28.18,FLYING,X10-H,0:/Integrated Flight Computer/aircraft/x10_h_cfg.ks (inferred preloaded)
28.48,APPROACH,ILS_TRACK,152.02,152,-0.02,746.48,667.91,0.02,9.53,9.52,269.99,0.057,0.2758,0,16.454,1,0.6,4.5,0.75,0.35,0.0168,0.4,0,21.884,0,0.025,0,269.99,-0.124,0,1,0.01,0,0,-0.12,270,0.8858,-0.0002,-0.4641,-0.12,269.99,0.54,-219.04,17.006,-0.014,0,0,3,721.69,8.48,-0.124,965.52,0,0,0,,0,NONE,0,0,0,0,0,0,0,0,0,0,667.91,0,0,0,0,0,0,0,0,0,270.39,0,0,0,0,0,0,0,0,0,0,0,0,0,3,3,0,0,VALID,0,0,0,0,0,1,0,0,0,0,0,0,0,0,0,0,0,0,0,0,295.33,1071.3,2,0,0.08,0.08,283,10,0.12,0.08,28.48,FLYING,X10-H,0:/Integrated Flight Computer/aircraft/x10_h_cfg.ks (inferred preloaded)
28.78,APPROACH,ILS_TRACK,152.02,152,-0.02,746.49,667.92,0.03,9.53,9.52,269.99,0.056,0.2759,0,16.447,1,0.6,4.5,0.75,0.35,0.0168,0.4,0,21.884,0,0.023,0,270,-0.124,0,1,0.01,0,0,-0.12,269.99,0.8857,-0.0001,-0.4642,-0.12,270,0.52,-216.5,16.957,-0.003,0,0,3,721.69,8.485,-0.124,962.99,0,0,0,,0,NONE,0,0,0,0,0,0,0,0,0,0,667.92,0,0,0,0,0,0,0,0,0,270.39,0,0,0,0,0,0,0,0,0,0,0,0,0,3,3,0,0,VALID,0,0,0,0,0,1,0,0,0,0,0,0,0,0,0,0,0,0,0,0,295.34,1071.29,2,0,0.08,0.08,286,10,0.12,0.08,28.78,FLYING,X10-H,0:/Integrated Flight Computer/aircraft/x10_h_cfg.ks (inferred preloaded)
29.08,APPROACH,ILS_TRACK,152.02,152,-0.02,746.5,667.93,0.02,9.52,9.52,269.99,0.055,0.2759,0,16.44,1,0.6,4.5,0.75,0.35,0.0168,0.4,0,21.885,0,0.022,0,269.99,-0.124,0,1,0.01,0,0,-0.12,270,0.8857,-0.0002,-0.4643,-0.12,269.99,0.51,-213.95,16.909,-0.011,0,0,3,721.69,8.48,-0.124,960.45,0,0,0,,0,NONE,0,0,0,0,0,0,0,0,0,0,667.93,0,0,0,0,0,0,0,0,0,270.39,0,0,0,0,0,0,0,0,0,0,0,0,0,3,3,0,0,VALID,0,0,0,0,0,1,0,0,0,0,0,0,0,0,0,0,0,0,0,0,295.35,1071.29,2,0,0.08,0.08,289,10,0.12,0.08,29.08,FLYING,X10-H,0:/Integrated Flight Computer/aircraft/x10_h_cfg.ks (inferred preloaded)
29.38,APPROACH,ILS_TRACK,152.02,152,-0.02,746.51,667.94,0.03,9.52,9.52,269.99,0.054,0.2757,0,16.433,1,0.6,4.5,0.75,0.35,0.0168,0.4,0,21.885,0,0.021,0,270,-0.124,0,1,0.01,0,0,-0.12,269.99,0.8856,0,-0.4644,-0.12,270,0.49,-211.41,16.86,-0.002,0,0,3,721.69,8.485,-0.124,957.91,0,0,0,,0,NONE,0,0,0,0,0,0,0,0,0,0,667.94,0,0,0,0,0,0,0,0,0,270.39,0,0,0,0,0,0,0,0,0,0,0,0,0,3,3,0,0,VALID,0,0,0,0,0,1,0,0,0,0,0,0,0,0,0,0,0,0,0,0,295.42,1071.28,2,0,0.08,0.08,292,10,0.12,0.08,29.38,FLYING,X10-H,0:/Integrated Flight Computer/aircraft/x10_h_cfg.ks (inferred preloaded)
29.68,APPROACH,ILS_TRACK,152.02,152,-0.02,746.51,667.94,0.02,9.52,9.52,269.99,0.053,0.2757,0,16.427,1,0.6,4.5,0.75,0.35,0.0168,0.4,0,21.885,0,0.021,0,269.99,-0.124,0,1,0.01,0,0,-0.12,269.99,0.8856,-0.0001,-0.4644,-0.12,269.99,0.48,-208.86,16.812,-0.007,0,0,3,721.69,8.479,-0.124,955.37,0,0,0,,0,NONE,0,0,0,0,0,0,0,0,0,0,667.94,0,0,0,0,0,0,0,0,0,270.39,0,0,0,0,0,0,0,0,0,0,0,0,0,3,3,0,0,VALID,0,0,0,0,0,1,0,0,0,0,0,0,0,0,0,0,0,0,0,0,295.19,1071.28,2,0,0.08,0.08,295,10,0.12,0.08,29.68,FLYING,X10-H,0:/Integrated Flight Computer/aircraft/x10_h_cfg.ks (inferred preloaded)
29.98,APPROACH,ILS_TRACK,152.02,152,-0.02,746.52,667.95,0.03,9.53,9.52,269.99,0.053,0.2759,0,16.421,1,0.6,4.5,0.75,0.35,0.0168,0.4,0,21.886,0,0.019,0,269.99,-0.124,0,1,0.01,0,0,-0.12,270,0.8856,-0.0002,-0.4645,-0.12,269.99,0.46,-206.32,16.764,-0.01,0,0,3,721.69,8.483,-0.124,952.84,0,0,0,,0,NONE,0,0,0,0,0,0,0,0,0,0,667.95,0,0,0,0,0,0,0,0,0,270.39,0,0,0,0,0,0,0,0,0,0,0,0,0,3,3,0,0,VALID,0,0,0,0,0,1,0,0,0,0,0,0,0,0,0,0,0,0,0,0,295.2,1071.27,2,0,0.08,0.08,298,10,0.12,0.08,29.98,FLYING,X10-H,0:/Integrated Flight Computer/aircraft/x10_h_cfg.ks (inferred preloaded)
30.28,APPROACH,ILS_TRACK,152.02,152,-0.02,746.53,667.96,0.02,9.52,9.52,269.99,0.051,0.2761,0,16.416,1,0.6,4.5,0.75,0.35,0.0168,0.4,0,21.886,0,0.018,0,270,-0.124,0,1,0.01,0,0,-0.12,269.99,0.8855,0,-0.4646,-0.12,270,0.45,-203.77,16.715,-0.002,0,0,3,721.69,8.477,-0.124,950.3,0,0,0,,0,NONE,0,0,0,0,0,0,0,0,0,0,667.96,0,0,0,0,0,0,0,0,0,270.39,0,0,0,0,0,0,0,0,0,0,0,0,0,3,3,0,0,VALID,0,0,0,0,0,1,0,0,0,0,0,0,0,0,0,0,0,0,0,0,295.22,1071.26,2,0,0.08,0.08,301,10,0.12,0.08,30.28,FLYING,X10-H,0:/Integrated Flight Computer/aircraft/x10_h_cfg.ks (inferred preloaded)
30.58,APPROACH,ILS_TRACK,152.02,152,-0.02,746.53,667.96,0.02,9.52,9.52,269.99,0.051,0.2762,0,16.411,1,0.6,4.5,0.75,0.35,0.0168,0.4,0,21.886,0,0.016,0,270,-0.124,0,1,0.01,0,0,-0.12,270,0.8855,-0.0001,-0.4647,-0.12,270,0.43,-201.23,16.667,-0.004,0,0,3,721.69,8.478,-0.124,947.76,0,0,0,,0,NONE,0,0,0,0,0,0,0,0,0,0,667.96,0,0,0,0,0,0,0,0,0,270.39,0,0,0,0,0,0,0,0,0,0,0,0,0,3,3,0,0,VALID,0,0,0,0,0,1,0,0,0,0,0,0,0,0,0,0,0,0,0,0,295.25,1071.26,2,0,0.08,0.08,304,10,0.12,0.08,30.58,FLYING,X10-H,0:/Integrated Flight Computer/aircraft/x10_h_cfg.ks (inferred preloaded)
30.88,APPROACH,ILS_TRACK,152.01,152,-0.01,746.54,667.97,0.02,9.52,9.52,269.99,0.05,0.276,0,16.406,1,0.6,4.5,0.75,0.35,0.0168,0.4,0,21.887,0,0.015,0,270,-0.124,0,1,0.01,0,0,-0.12,269.99,0.8855,0,-0.4647,-0.12,270,0.42,-198.68,16.618,-0.002,0,0,3,721.69,8.481,-0.124,945.22,0,0,0,,0,NONE,0,0,0,0,0,0,0,0,0,0,667.97,0,0,0,0,0,0,0,0,0,270.39,0,0,0,0,0,0,0,0,0,0,0,0,0,3,3,0,0,VALID,0,0,0,0,0,1,0,0,0,0,0,0,0,0,0,0,0,0,0,0,295.29,1071.25,2,0,0.08,0.08,307,10,0.12,0.08,30.88,FLYING,X10-H,0:/Integrated Flight Computer/aircraft/x10_h_cfg.ks (inferred preloaded)
