t_s,phase,subphase,ias_ms,vapp_ms,spd_err_ms,agl_m,vs_ms,pitch_deg,aoa_deg,hdg_deg,bank_deg,thr_cmd,thr_cur,thr_intg,at_gain,at_tau_s,at_a_up,at_a_dn,at_kp_thr,at_ki_spd,at_thr_slew,aa_hdg_cmd_deg,aa_fpa_cmd_deg,ils_loc_m,ils_gs_m,ils_dist_km,loc_corr_deg,gs_corr_deg,flare_fpa_cmd,flare_tgt_vs,flare_frac,steer_hdg_deg,steer_blend,ro_loc_corr_deg,ro_hdg_err_deg,ro_yaw_tgt,ro_yaw_scale,ro_yaw_gate,yaw_cmd,roll_cmd,pitch_cmd,ro_pitch_tgt_deg,ro_pitch_err_deg,ro_pitch_ff,ro_roll_assist,flaps_cur,flaps_tgt,asc_j_ab,asc_j_rk,asc_validity,asc_q_pa,asc_q_raw_pa,asc_mach,asc_apo_m,asc_drag_n,asc_w_prop,asc_edot_aero,asc_edot_orb,asc_pitch_bias,asc_blend,asc_spooling,asc_ab_thr_ratio,asc_ab_t_now,asc_ab_t_avail,asc_ab_ign_on,asc_ab_flameouts,asc_rk_t_now,asc_rk_t_avail,asc_rk_ign_on,asc_rk_flameouts,ship_thrust,ship_avail_thrust,ship_ign_on,ship_flameouts,ifc_raw_dt_s,ifc_dt_s,ifc_loop_n,ifc_hz_est,ifc_raw_dt_max_s,ifc_raw_dt_min_s,phase_el_s,status
0.94,TAKEOFF,TO_PREFLIGHT,0.17,80,79.83,3.6,0,-0.17,1.27,89.9,-0.046,0.2,0,0,0,0,0,0,0,0,0,90.4,0,0,0,0,0,0,0,0,0,90.4,1,0,-0.497,0,0,1,0,0,0,0,0,0,0,1,2,0,0,VALID,0,0,0,0,0,1,0,0,0,0,0,0,0,0,0,0,0,0,0,0,0,887.32,2,0,0.8,0.5,1,0.19,0.8,0.02,0.22,LANDED
6,TAKEOFF,TO_PREFLIGHT,0.14,80,79.86,3.57,0,-0.27,0.07,89.88,-0.008,1,0,0,0,0,0,0,0,0,0,90.4,0,0,0,0,0,0,0,0,0,90.4,1,0,-0.499,0,0,1,0,0,0,0,0,0,0,2,2,0,0,VALID,0,0,0,0,0,1,0,0,0,0,0,0,0,0,0,0,0,0,0,0,467.1,887.31,2,0,0.12,0.12,49,9.49,0.8,0.08,5.28,LANDED
11.14,TAKEOFF,TO_GROUND_ROLL,7.43,80,72.57,3.61,-0.01,-0.14,-0.08,89.97,-0.047,1,0,0,0,0,0,0,0,0,0,90.4,0,0,0,0,-0.002,0,0,0,0,90.4,1,-0.002,-0.429,0.0127,0.622,0,0.0127,0,0,0,0,0,0,2,2,0,0,VALID,0,0,0,0,0,1,0,0,0,0,0,0,0,0,0,0,0,0,0,0,737.64,886.99,2,0,0.18,0.18,86,7.2,0.22,0.12,10.42,LANDED
16.28,TAKEOFF,TO_GROUND_ROLL,32.23,80,47.77,3.61,-0.07,-0.14,-0.03,89.95,-0.046,1,0,0,0,0,0,0,0,0,0,90.44,0,0,0,0,0.037,0,0,0,0,90.44,1,0.037,-0.489,0.0203,0.869,0,0.0203,0,0,0,0,0,0,2,2,0,0,VALID,0,0,0,0,0,1,0,0,0,0,0,0,0,0,0,0,0,0,0,0,830.09,883.16,2,0,0.18,0.18,114,5.45,0.28,0.18,15.56,LANDED
21.42,TAKEOFF,TO_GROUND_ROLL,58.8,80,21.2,3.61,-0.1,-0.13,-0.04,89.92,-0.046,1,0,0,0,0,0,0,0,0,0,90.54,0,0,0,0,0.134,0,0,0,0,90.54,1,0.134,-0.616,0.0294,1,0,0.0294,0,0,0,0,0,0,2,2,0,0,VALID,0,0,0,0,0,1,0,0,0,0,0,0,0,0,0,0,0,0,0,0,860.02,878.87,2,0,0.18,0.18,142,5.45,0.28,0.18,20.7,LANDED
26.56,TAKEOFF,TO_GROUND_ROLL,86.11,80,-6.11,3.59,-0.12,-0.15,-0.07,89.88,-0.02,1,0,0,0,0,0,0,0,0,0,90.7,0,0,0,0,0.302,0,0,0,0,90.7,1,0.302,-0.826,0.0391,1,0,0.0391,0,0,0,0,0,0,2,2,0,0,VALID,0,0,0,0,0,1,0,0,0,0,0,0,0,0,0,0,0,0,0,0,894.63,901.79,2,0,0.18,0.18,170,5.45,0.28,0.18,25.84,LANDED
31.7,TAKEOFF,TO_GROUND_ROLL,115.59,80,-35.59,3.59,0,-0.11,-0.11,89.85,-0.054,1,0,0,0,0,0,0,0,0,0,90.95,0,0,0,0,0.554,0,0,0,0,90.95,1,0.554,-1.111,0.0527,1,0,0.0527,0,0,0,0,0,0,2,2,0,0,VALID,0,0,0,0,0,1,0,0,0,0,0,0,0,0,0,0,0,0,0,0,998.34,1001.55,2,0,0.18,0.18,198,5.45,0.28,0.18,30.98,LANDED
36.8,TAKEOFF,TO_ROTATE,148.47,80,-68.47,3.67,0.18,0.25,0.18,90.09,0.019,1,0,0,0,0,0,0,0,0,0,91.23,9.247,0,0,0,0.863,0,0,0,0,91.23,1,0.863,-1.17,0.0517,1,0,0.0517,0,0.72,9.247,9.006,0.08,0,2,2,0,0,VALID,0,0,0,0,0,1,0,0,0,0,0,0,0,0,0,0,0,0,0,0,1128.47,1130.15,2,0,0.24,0.24,222,4.71,0.28,0.18,36.08,LANDED
41.86,TAKEOFF,TO_ROTATE,183.05,80,-103.05,17.35,-3.96,18,19.14,90.32,-0.201,1,0,0,0,0,0,0,0,0,0,90.4,11.5,0,0,0,0,0,0,0,0,90.4,1,0,-0.081,0,0,3,0,0,0,11.5,-6.314,0,0,2,2,0,0,VALID,0,0,0,0,0,1,0,0,0,0,0,0,0,0,0,0,0,0,0,0,1287.46,1288.22,2,0,0.1,0.1,259,7.31,0.34,0.1,41.14,FLYING
46.94,TAKEOFF,TO_CLIMB,197.26,80,-117.26,115.28,18.14,19.08,13.84,90.43,-0.305,0.82,0,0,0,0,0,0,0,0,0,90.4,7,0,0,0,0,0,0,0,0,90.4,1,0,0.027,0,0,3,0,0,0,11.5,-9.19,0,0,1,1,0,0,VALID,0,0,0,0,0,1,0,0,0,0,0,0,0,0,0,0,0,0,0,0,1185.63,1355.17,2,0,0.12,0.12,302,8.5,0.2,0.1,46.22,FLYING
51.96,TAKEOFF,TO_CLIMB,217.92,80,-137.92,227.19,25.47,17.62,10.94,90.41,-0.063,0.82,0,0,0,0,0,0,0,0,0,90.4,7,0,0,0,0,0,0,0,0,90.4,1,0,0.006,0,0,3,0,0,0,11.5,-9.19,0,0,1,1,0,0,VALID,0,0,0,0,0,1,0,0,0,0,0,0,0,0,0,0,0,0,0,0,1204.7,1453.27,2,0,0.12,0.12,343,8.17,0.22,0.12,51.24,FLYING
57.08,ASCENT,AB_CORRIDOR,245.24,80,-165.24,367.97,29.65,15.6,8.65,90.4,-0.012,0.9738,0,0,0,0,0,0,0,0,0,90.4,7.145,0,0,0,0,0,0,0,0,90.4,1,0,0.002,0,0,3,0,0,0,11.5,-9.19,0,0,1,1,10.656,2.68,DEGRADED,31748.3,32396.9,0.694,377,0,1.1259,2488.21,1799.23,0.197,0,0,0.8661,1372.11,1584.16,2,0,1373.39,396.12,2,0,1385.48,1590.77,2,0,0.26,0.26,374,6.05,0.42,0.12,2.34,FLYING
62.12,ASCENT,AB_CORRIDOR,279.81,80,-199.81,541.7,41.74,17.46,8.83,90.4,0.004,0.8508,0,0,0,0,0,0,0,0,0,90.4,10.095,0,0,0,0,0,0,0,0,90.4,1,0,0.002,0,0,3,0,0,0,11.5,-9.19,0,0,1,1,9.435,2.436,DEGRADED,39944.4,40778.1,0.789,566,0,1.1269,4178.99,3135.25,1.548,0,0,0.8918,1575.84,1767.07,2,0,1576.07,441.86,2,0,1578.47,1774.53,2,0,0.26,0.26,393,3.77,0.36,0.26,7.38,FLYING
67.16,ASCENT,AB_CORRIDOR,310.41,80,-230.41,812.2,67.41,21.56,8.91,90.4,0.004,0.7305,0,0,0,0,0,0,0,0,0,90.4,14.818,0,0,0,0,0,0,0,0,90.4,1,0,0.002,0,0,3,0,0,0,11.5,-9.19,0,0,1,1,9.693,2.573,DEGRADED,47964.5,48607.8,0.879,926,0,1.1279,4563.92,3064.72,2.271,0,0,0.7986,1538.65,1926.79,2,0,1538.17,481.75,2,0,1533.79,1931.31,2,0,0.26,0.26,412,3.77,0.36,0.26,12.42,FLYING
72.2,ASCENT,AB_CORRIDOR,326.76,80,-246.76,1235.66,100.27,26.41,8.59,90.4,0.007,0.6644,0,0,0,0,0,0,0,0,0,90.4,20.096,0,0,0,0,0,0,0,0,90.4,1,0,0.002,0,0,3,0,0,0,11.5,-9.19,0,0,1,1,9.924,2.66,DEGRADED,52375.9,52595.7,0.943,1571,0,1.1288,4402.77,2397.52,2.386,0,0,0.7063,1407.24,1992.53,2,0,1406.72,498.14,2,0,1401.96,1993.08,2,0,0.26,0.26,431,3.77,0.36,0.26,17.46,FLYING
77.24,ASCENT,AB_CORRIDOR,329.06,80,-249.06,1821.8,131.28,31.15,8.34,90.4,0.012,0.6606,0,0,0,0,0,0,0,0,0,90.4,24.885,0,0,0,0,0,0,0,0,90.4,1,0,0.002,0,0,3,0,0,0,11.5,-9.19,0,0,1,1,10.093,2.799,DEGRADED,52625.6,52492.8,0.985,2485,0,1.1296,4132.41,1840.28,2.146,0,0,0.6659,1310.77,1968.39,2,0,1310.54,492.07,2,0,1308.28,1966.07,2,0,0.26,0.26,450,3.77,0.36,0.26,22.48,FLYING
82.28,ASCENT,AB_CORRIDOR,328.6,80,-248.6,2532.34,146.75,29.97,5.16,90.4,0.009,0.6805,0,0,0,0,0,0,0,0,0,90.4,25,0,0,0,0,0,0,0,0,90.4,1,0,0.002,0,0,3,0,0,0,11.5,-9.19,0,0,1,1,10.543,3.145,DEGRADED,51297.9,51217.6,1.029,3466,0,1.1305,4104.18,2536.07,1.905,0,0,0.6697,1291.46,1928.44,2,0,1291.49,482.1,2,0,1291.72,1927.66,2,0,0.26,0.26,469,3.77,0.36,0.26,27.54,FLYING
87.32,ASCENT,AB_CORRIDOR,329.95,80,-249.95,3290.01,153.79,30.02,4.99,90.4,0.004,0.6938,0,0,0,0,0,0,0,0,0,90.4,25,0,0,0,0,0,0,0,0,90.4,1,0,0.002,0,0,3,0,0,0,11.5,-9.19,0,0,1,1,10.884,3.495,DEGRADED,50412.1,50317.1,1.084,4343,0,1.1313,4248.05,2900.31,1.773,0,0,0.6807,1305.12,1917.27,2,0,1305.21,479.32,2,0,1306.03,1917.18,2,0,0.26,0.26,488,3.77,0.36,0.26,32.58,FLYING
92.36,ASCENT,AB_CORRIDOR,330.7,80,-250.7,4082.54,160.7,30.07,4.93,90.4,0.006,0.7103,0,0,0,0,0,0,0,0,0,90.4,25,0,0,0,0,0,0,0,0,90.4,1,0,0.002,0,0,3,0,0,0,11.5,-9.19,0,0,1,1,11.238,3.865,DEGRADED,49314.7,49202.7,1.144,5250,0,1.1321,4458.11,3113.1,1.617,0,0,0.6942,1335.92,1924.41,2,0,1336.09,481.11,2,0,1337.65,1925.13,2,0,0.26,0.26,507,3.77,0.36,0.26,37.62,FLYING
97.4,ASCENT,AB_CORRIDOR,331.11,80,-251.11,4909.94,167.73,29.9,4.72,90.4,0,0.7286,0,0,0,0,0,0,0,0,0,90.4,25,0,0,0,0,0,0,0,0,90.4,1,0,0.002,0,0,3,0,0,0,11.5,-9.19,0,0,1,1,11.637,4.265,DEGRADED,48091.1,47973.6,1.211,6201,0,1.133,4754.45,3388.54,1.443,0,0,0.7102,1387.99,1954.27,2,0,1388.25,488.59,2,0,1390.71,1956.04,2,0,0.26,0.26,526,3.77,0.36,0.26,42.66,FLYING
102.44,ASCENT,AB_CORRIDOR,331.12,80,-251.12,5775.4,175.24,28.16,2.88,90.4,-0.049,0.748,0,0,0,0,0,0,0,0,0,90.4,25,0,0,0,0,0,0,0,0,90.4,1,0,0.002,0,0,3,0,0,0,11.5,-9.19,0,0,1,1,5.212,4.73,INVALID,46801.4,46657.3,1.288,7217,0,1.1339,5179.96,3659.08,1.246,0,0,0.7279,1463.24,2010.3,2,0,1463.6,502.61,2,0,1466.93,2013.06,2,0,0.26,0.26,545,3.77,0.36,0.26,47.7,FLYING
107.48,ASCENT,AB_CORRIDOR,332.5,80,-252.5,6682.84,184.69,28.84,3.66,90.4,-0.025,0.7637,0,0,0,0,0,0,0,0,0,90.4,25,0,0,0,0,0,0,0,0,90.4,1,0,0.002,0,0,3,0,0,0,11.5,-9.19,0,0,1,1,12.645,5.203,DEGRADED,45756,45664.9,1.382,8289,0,1.1348,5750.47,4394.83,1.057,0,0,0.7458,1572.69,2108.64,2,0,1573.18,527.22,2,0,1577.84,2113.35,2,0,0.26,0.26,564,3.77,0.36,0.26,52.74,FLYING
112.52,ASCENT,AB_CORRIDOR,333.55,80,-253.55,7640.83,195.74,29.31,4.12,90.4,-0.008,0.7788,0,0,0,0,0,0,0,0,0,90.4,25,0,0,0,0,0,0,0,0,90.4,1,0,0.002,0,0,3,0,0,0,11.5,-9.19,0,0,1,1,13.221,5.742,DEGRADED,44749.5,44651.8,1.492,9471,0,1.1359,6492.11,5041.87,0.857,0,0,0.7617,1709.36,2244.03,2,0,1709.97,561.08,2,0,1715.72,2250.12,2,0,0.26,0.26,583,3.77,0.36,0.26,57.78,FLYING
117.56,ASCENT,AB_CORRIDOR,333.91,80,-253.91,8659.2,208.73,29.81,4.63,90.4,-0.001,0.7951,0,0,0,0,0,0,0,0,0,90.4,25,0,0,0,0,0,0,0,0,90.4,1,0,0.002,0,0,3,0,0,0,11.5,-9.19,0,0,1,1,13.853,6.332,DEGRADED,43658.9,43546,1.624,10773,0,1.137,7400.92,5892.58,0.614,0,0,0.7776,1857.64,2389.04,2,0,1858.21,597.33,2,0,1863.56,2394.31,2,0,0.26,0.26,602,3.77,0.36,0.26,62.82,FLYING
122.6,ASCENT,AB_CORRIDOR,326.19,80,-246.19,9747.04,223.23,30.25,5.05,90.4,-0.002,0.8335,0,0,0,0,0,0,0,0,0,90.4,25,0,0,0,0,0,0,0,0,90.4,1,0,0.002,0,0,3,0,0,0,11.5,-9.19,0,0,1,1,14.458,6.919,DEGRADED,41101.2,40792.7,1.748,12214,0,1.1382,8233.06,6677.29,0.161,0,0,0.7995,1942.12,2429.23,2,0,1942.42,607.31,2,0,1945.18,2429.11,2,0,0.26,0.26,621,3.77,0.36,0.26,67.86,FLYING
127.64,ASCENT,AB_CORRIDOR,314.87,80,-234.87,10910.52,238.11,30.17,5.02,90.4,-0.006,0.8843,0,0,0,0,0,0,0,0,0,90.4,24.693,0,0,0,0,0,0,0,0,90.4,1,0,0.002,0,0,3,0,0,0,11.5,-9.19,0,0,1,1,15.246,7.621,DEGRADED,37714.9,37378.3,1.875,13792,0,1.1394,9006.23,7419.98,-0.466,0,0,0.8374,2013.09,2403.99,2,0,2013.36,600.98,2,0,2015.84,2402.13,2,0,0.26,0.26,640,3.77,0.36,0.26,72.9,FLYING
132.68,ASCENT,AB_CORRIDOR,302.65,80,-222.65,12129.23,243.14,26.96,3.04,90.4,-0.013,0.9354,0,0,0,0,0,0,0,0,0,90.4,22.814,0,0,0,0,0,0,0,0,90.4,1,0,0.002,0,0,3,0,0,0,11.5,-9.19,0,0,1,1,23.202,8.448,VALID,34303.8,33990.1,2.015,15280,0,1.1407,9884.58,8586.8,-1.106,0,0,0.8841,2070.9,2342.32,2,0,2071.1,585.54,2,0,2072.97,2339.48,2,0,0.26,0.26,659,3.77,0.36,0.26,77.92,FLYING
137.72,ASCENT,AB_CORRIDOR,291.29,80,-211.29,13340.94,236.82,23.07,1.55,90.4,-0.017,0.9805,0,0,0,0,0,0,0,0,0,90.4,19.951,0,0,0,0,0,0,0,0,90.4,1,0,0.002,0,0,3,0,0,0,11.5,-9.19,0,0,1,1,24.746,9.3,VALID,31301.9,31038.2,2.169,16439,0,1.1421,10806.66,9722.04,-1.654,0,0,0.9319,2119.28,2274.24,2,0,2119.47,568.53,2,0,2121.24,2271.78,2,0,0.26,0.26,678,3.77,0.36,0.26,82.96,FLYING
142.74,ASCENT,AB_CORRIDOR,281.32,80,-201.32,14502.48,223.6,20.01,1.04,90.4,-0.021,1,0,0,0,0,0,0,0,0,0,90.4,16.726,0,0,0,0,0,0,0,0,90.4,1,0,0.002,0,0,3,0,0,0,11.5,-9.19,0,0,1,1,26.356,10.173,VALID,28806.7,28591.2,2.334,17366,0,1.1434,11758.56,10645.34,-2.169,0,0,0.9724,2157.32,2218.62,2,0,2157.38,554.63,2,0,2157.84,2216.63,2,0,0.26,0.26,697,3.78,0.36,0.26,88,FLYING
147.76,ASCENT,AB_CORRIDOR,273.19,80,-193.19,15585.28,206.11,16.88,0.74,90.4,-0.021,1,0,0,0,0,0,0,0,0,0,90.4,13.557,0,0,0,0,0,0,0,0,90.4,1,0,0.002,0,0,3,0,0,0,11.5,-9.19,0,0,1,1,27.95,11.033,VALID,26828.3,26663.3,2.508,18096,0,1.1448,12581.27,11567.61,-2.58,0,0,0.9899,2155.35,2177.25,2,0,2155.31,544.29,2,0,2154.88,2175.92,2,0,0.26,0.26,716,3.8,0.34,0.26,93.02,FLYING
152.78,ASCENT,AB_CORRIDOR,266.74,80,-186.74,16567.98,185.46,14.61,1.27,90.41,-0.266,1,0,0,0,0,0,0,0,0,0,90.4,10.623,0,0,0,0,0,0,0,0,90.4,1,0,0.002,0,0,3,0,0,0,11.5,-9.19,0,0,1,1,29.538,11.831,VALID,25330.4,25198.6,2.685,18640,0,1.1461,13247.2,12264.91,-2.86,0,0,0.9965,2123.65,2131.16,2,0,2123.42,532.76,2,0,2121.14,2128.43,2,0,0.26,0.26,735,3.78,0.34,0.26,98.04,FLYING
157.8,ASCENT,AB_CORRIDOR,261.92,80,-181.92,17427.53,157.37,9.36,-1.35,90.41,0.305,1,0,0,0,0,0,0,0,0,0,90.4,7.663,0,0,0,0,0,0,0,0,90.4,1,0,0.002,0,0,3,0,0,0,11.5,-9.19,0,0,1,1,31.199,12.61,VALID,24183.8,24099.2,2.858,19003,0,1.1474,13612.31,12589.7,-3.077,0,0,0.9989,2045.83,2048.04,2,0,2045.46,511.96,2,0,2041.93,2044.2,2,0,0.26,0.26,754,3.8,0.34,0.26,103.06,FLYING
162.82,ASCENT,AB_CORRIDOR,259.85,80,-179.85,18137.7,124.08,5.92,-2.02,90.4,0.034,1,0,0,0,0,0,0,0,0,0,90.4,4.939,0,0,0,0,0,0,0,0,90.4,1,0,0.002,0,0,3,0,0,0,11.5,-9.19,0,0,1,1,32.833,13.33,VALID,23587.9,23556,3.031,19171,0,1.1487,13717.02,12651.9,-3.011,0,0,0.9998,1946.66,1947.03,2,0,1946.26,486.71,2,0,1942.55,1943.08,2,0,0.26,0.26,773,3.8,0.34,0.26,108.08,FLYING
167.84,ASCENT,AB_CORRIDOR,261.65,80,-181.65,18640.89,76.46,0.28,-4.29,90.4,0.035,1,0,0,0,0,0,0,0,0,0,90.4,2.065,0,0,0,0,0,0,0,0,90.4,1,0,0.002,0,0,3,0,0,0,11.5,-9.19,0,0,1,1,25.857,13.995,VALID,23669.8,23724.2,3.198,19079,0,1.1499,13716.02,12415.35,-2.581,0,0,1,1862.22,1862.18,2,0,1861.97,465.51,2,0,1859.63,1859.71,2,0,0.26,0.26,792,3.8,0.34,0.26,113.1,FLYING
172.86,ASCENT,AB_CORRIDOR,268.5,80,-188.5,18936.5,45.25,5.03,2.46,90.4,-0.132,1,0,0,0,0,0,0,0,0,0,90.4,0.666,0,0,0,0,0,0,0,0,90.4,1,0,0.002,0,0,3,0,0,0,11.5,-9.19,0,0,1,1,36.306,14.733,VALID,24723.3,24857.5,3.37,19065,0,1.151,13976.55,12734.77,-1.931,0,0,1.0001,1816.75,1816.55,2,0,1816.62,454.12,2,0,1815.42,1815.29,2,0,0.26,0.26,811,3.8,0.34,0.26,118.12,FLYING
177.88,ASCENT,AB_CORRIDOR,278.12,80,-198.12,19109.1,24.61,5.43,4.06,90.41,-0.086,1,0,0,0,0,0,0,0,0,0,90.4,0.163,0,0,0,0,0,0,0,0,90.4,1,0,0.002,0,0,3,0,0,0,11.5,-9.19,0,0,1,1,37.97,15.427,VALID,26382.6,26562.5,3.544,19137,0,1.1522,14375.96,12907.69,-1.203,0,0,1,1794.43,1794.34,2,0,1794.37,448.58,2,0,1793.88,1793.84,2,0,0.26,0.26,830,3.78,0.34,0.26,123.14,FLYING
182.94,ASCENT,AB_CORRIDOR,289.42,80,-209.42,19200.75,13.5,7.84,7.1,90.41,-0.055,1,0,0,0,0,0,0,0,0,0,90.4,0.223,0,0,0,0,0,0,0,0,90.4,1,0,0.002,0,0,3,0,0,0,11.5,-9.19,0,0,1,1,39.473,16.038,VALID,28467.9,28679.4,3.715,19198,0,1.1533,14864.29,13022.39,-0.488,0,0,1,1787.76,1787.74,2,0,1787.74,446.93,2,0,1787.61,1787.59,2,0,0.26,0.26,849,3.77,0.36,0.26,128.18,FLYING
187.96,ASCENT,AB_CORRIDOR,299.46,80,-219.46,19281.87,20.43,10.37,9.36,90.4,-0.025,0.9927,0,0,0,0,0,0,0,0,0,90.4,0.982,0,0,0,0,0,0,0,0,90.4,1,0,0.002,0,0,3,0,0,0,11.5,-9.19,0,0,1,1,28.449,16.528,DEGRADED,30486,30659.1,3.87,19282,0,1.1544,15274.4,12071.58,-0.022,0,0,0.9992,1777.52,1778.86,2,0,1777.39,444.71,2,0,1776.15,1778.16,2,0,0.26,0.26,868,3.78,0.36,0.26,133.22,FLYING
192.98,ASCENT,AB_CORRIDOR,306.63,80,-226.63,19416.32,33.72,11.41,9.8,90.4,-0.025,0.97,0,0,0,0,0,0,0,0,0,90.4,1.817,0,0,0,0,0,0,0,0,90.4,1,0,0.002,0,0,3,0,0,0,11.5,-9.19,0,0,1,1,29.169,17.035,DEGRADED,32000,32115.4,4.011,19450,0,1.1555,15385.38,11527.15,0.216,0,0,0.9826,1720.7,1751.13,2,0,1720.41,437.76,2,0,1717.63,1749.54,2,0,0.26,0.26,887,3.8,0.34,0.26,138.24,FLYING
198.2,ASCENT,AB_CORRIDOR,310.17,80,-230.17,19637.21,51.08,12.39,10.03,90.4,-0.035,0.9579,0,0,0,0,0,0,0,0,0,90.4,2.589,0,0,0,0,0,0,0,0,90.4,1,0,0.002,0,0,3,0,0,0,11.5,-9.19,0,0,1,1,29.938,17.541,DEGRADED,32807.4,32845,4.141,19761,0,1.1566,15134.68,10830.94,0.236,0,0,0.9655,1637.64,1696.23,2,0,1637.3,424.03,2,0,1634.09,1693.56,2,0,0.26,0.26,907,3.85,0.34,0.24,143.46,FLYING
203.38,ASCENT,AB_CORRIDOR,309.82,80,-229.82,19946.53,68.05,12.77,9.71,90.4,-0.038,0.9581,0,0,0,0,0,0,0,0,0,90.4,3.135,0,0,0,0,0,0,0,0,90.4,1,0,0.002,0,0,3,0,0,0,11.5,-9.19,0,0,1,1,30.715,18.078,DEGRADED,32792.6,32759.5,4.258,20221,0,1.1577,14721.82,10410.98,0.082,0,0,0.9587,1547.03,1613.69,2,0,1546.67,403.38,2,0,1543.24,1609.97,2,0,0.26,0.26,927,3.88,0.34,0.24,148.64,FLYING
208.6,ASCENT,AB_CORRIDOR,306.05,80,-226.05,20342.74,83.44,13.1,9.45,90.4,-0.043,0.9691,0,0,0,0,0,0,0,0,0,90.4,3.447,0,0,0,0,0,0,0,0,90.4,1,0,0.002,0,0,3,0,0,0,11.5,-9.19,0,0,1,1,31.401,18.61,DEGRADED,32057.5,31960.1,4.365,20808,0,1.1586,14163.97,9985.43,-0.206,0,0,0.9617,1447.24,1504.8,2,0,1446.84,376.14,2,0,1443,1500.17,2,0,0.26,0.26,947,3.85,0.34,0.24,153.86,FLYING
213.84,ASCENT,AB_CORRIDOR,299.8,80,-219.8,20808.22,92.56,11.28,7.33,90.41,-0.126,0.9884,0,0,0,0,0,0,0,0,0,90.4,3.389,0,0,0,0,0,0,0,0,90.4,1,0,0.002,0,0,3,0,0,0,11.5,-9.19,0,0,1,1,32.219,19.252,DEGRADED,30774.8,30647.7,4.466,21452,0,1.1595,13494.08,10102.68,-0.582,0,0,0.9731,1338.41,1375.36,2,0,1337.99,343.77,2,0,1333.98,1370.2,2,0,0.26,0.26,967,3.83,0.34,0.24,159.1,FLYING
218.9,ASCENT,AB_CORRIDOR,293.3,80,-213.3,21272.81,90.1,8.98,5.2,90.42,-0.183,1,0,0,0,0,0,0,0,0,0,90.4,2.9,0,0,0,0,0,0,0,0,90.4,1,0,0.002,0,0,3,0,0,0,11.5,-9.19,0,0,1,1,33.072,19.904,DEGRADED,29415.1,29297.4,4.565,21954,0,1.1604,12767.03,10339.66,-0.883,0,0,0.9887,1230.4,1244.44,2,0,1229.95,311.04,2,0,1225.68,1239.31,2,0,0.24,0.24,987,3.97,0.34,0.24,164.16,FLYING
224.04,ASCENT,AB_CORRIDOR,286.91,80,-206.91,21719.47,82.7,8.18,4.79,90.41,-0.172,1,0,0,0,0,0,0,0,0,0,90.4,2.228,0,0,0,0,0,0,0,0,90.4,1,0,0.002,0,0,3,0,0,0,11.5,-9.19,0,0,1,1,33.656,20.406,DEGRADED,28114.4,28009.3,4.658,22318,0,1.1611,11847.34,9816.57,-1.174,0,0,0.9964,1112.37,1116.39,2,0,1111.91,279.04,2,0,1107.57,1111.62,2,0,0.24,0.24,1008,4.09,0.34,0.24,169.3,FLYING
229.2,ASCENT,AB_CORRIDOR,281.4,80,-201.4,22119.51,70.81,6.65,3.78,90.42,-0.258,1,0,0,0,0,0,0,0,0,0,90.4,1.47,0,0,0,0,0,0,0,0,90.4,1,0,0.002,0,0,3,0,0,0,11.5,-9.19,0,0,1,1,34.231,20.85,DEGRADED,27019.1,26919.7,4.744,22572,0,1.1618,10905.78,9125.12,-1.387,0,0,0.9991,1000.13,1001.02,2,0,999.72,250.2,2,0,995.45,996.49,2,0,0.28,0.28,1028,3.86,0.34,0.24,174.46,FLYING
234.32,ASCENT,AB_CORRIDOR,277.18,80,-197.18,22447.02,57.49,5.11,2.88,90.41,-0.298,1,0,0,0,0,0,0,0,0,0,90.4,0.748,0,0,0,0,0,0,0,0,90.4,1,0,0.002,0,0,3,0,0,0,11.5,-9.19,0,0,1,1,34.794,21.268,DEGRADED,26166.4,26090.7,4.821,22746,0,1.1624,10026.05,8117.66,-1.545,0,0,1,904.98,904.97,2,0,904.65,226.2,2,0,901.11,901.24,2,0,0.28,0.28,1046,3.52,0.36,0.28,179.58,FLYING
239.44,ASCENT,AB_CORRIDOR,274.37,80,-194.37,22706.03,43.81,5.14,3.4,90.41,-0.289,1,0,0,0,0,0,0,0,0,0,90.4,0.097,0,0,0,0,0,0,0,0,90.4,1,0,0.002,0,0,3,0,0,0,11.5,-9.19,0,0,1,1,35.39,21.674,DEGRADED,25583.2,25537.6,4.89,22880,0,1.163,9273.25,7446.77,-1.63,0,0,1.0003,827.83,827.59,2,0,827.56,206.86,2,0,824.75,824.64,2,0,0.28,0.28,1064,3.52,0.36,0.28,184.7,FLYING
244.56,ASCENT,AB_CORRIDOR,272.97,80,-192.97,22897.09,30.44,5.29,4.01,90.42,-0.272,1,0,0,0,0,0,0,0,0,0,90.4,-0.438,0,0,0,0,0,0,0,0,90.4,1,0,0.002,0,0,3,0,0,0,11.5,-9.19,0,0,1,1,35.977,22.058,DEGRADED,25275.6,25255.5,4.954,22978,0,1.1635,8674.15,6676.96,-1.623,0,0,1.0004,767.95,767.64,2,0,767.74,191.88,2,0,765.63,765.43,2,0,0.28,0.28,1082,3.52,0.36,0.28,189.82,FLYING
249.68,ASCENT,AB_CORRIDOR,272.91,80,-192.91,23026.35,19.9,4.96,4.26,90.42,-0.314,1,0,0,0,0,0,0,0,0,0,90.4,-0.79,0,0,0,0,0,0,0,0,90.4,1,0,0.002,0,0,3,0,0,0,11.5,-9.19,0,0,1,1,36.429,22.37,DEGRADED,25217.6,25225.8,5.014,23052,0,1.1639,8219.07,6349.36,-1.557,0,0,1.0003,722.71,722.48,2,0,722.56,180.6,2,0,721.02,720.87,2,0,0.28,0.28,1100,3.52,0.36,0.28,194.94,FLYING
254.8,ASCENT,AB_CORRIDOR,274.19,80,-194.19,23097.71,8.46,5.05,4.69,90.42,-0.329,1,0,0,0,0,0,0,0,0,0,90.4,-1.064,0,0,0,0,0,0,0,0,90.4,1,0,0.002,0,0,3,0,0,0,11.5,-9.19,0,0,1,1,36.971,22.71,DEGRADED,25409.3,25438.2,5.071,23097,0,1.1644,7895.64,5807.71,-1.395,0,0,1.0002,690.07,689.9,2,0,689.96,172.46,2,0,688.82,688.71,2,0,0.28,0.28,1118,3.52,0.36,0.28,200.06,FLYING
259.92,ASCENT,AB_CORRIDOR,276.63,80,-196.63,23118.87,0.03,5.6,5.56,90.43,-0.301,1,0,0,0,0,0,0,0,0,0,90.4,-1.17,0,0,0,0,0,0,0,0,90.4,1,0,0.002,0,0,3,0,0,0,11.5,-9.19,0,0,1,1,37.388,22.97,DEGRADED,25825.3,25876.1,5.125,23116,0,1.1648,7677.37,5491.13,-1.181,0,0,1.0002,667.37,667.26,2,0,667.3,166.81,2,0,666.51,666.43,2,0,0.28,0.28,1136,3.52,0.36,0.28,205.18,FLYING
265.04,ASCENT,AB_CORRIDOR,279.86,80,-199.86,23103.57,-5.54,6.14,6.36,90.43,-0.268,1,0,0,0,0,0,0,0,0,0,90.4,-1.191,0,0,0,0,0,0,0,0,90.4,1,0,0.002,0,0,3,0,0,0,11.5,-9.19,0,0,1,1,28.32,23.182,DEGRADED,26406.6,26472.5,5.177,23110,0,1.1652,7536.76,5196.83,-0.986,0,0,1.0001,651.31,651.22,2,0,651.25,162.8,2,0,650.68,650.63,2,0,0.28,0.28,1154,3.53,0.36,0.28,210.3,FLYING
270.16,ASCENT,AB_CORRIDOR,283.34,80,-203.34,23067.71,-7.6,7.28,7.55,90.43,-0.219,1,0,0,0,0,0,0,0,0,0,90.4,-1.049,0,0,0,0,0,0,0,0,90.4,1,0,0.002,0,0,3,0,0,0,11.5,-9.19,0,0,1,1,28.499,23.322,DEGRADED,27065.3,27131.8,5.223,23082,0,1.1657,7434.37,4511.71,-0.777,0,0,1.0001,639.6,639.54,2,0,639.56,159.88,2,0,639.17,639.13,2,0,0.28,0.28,1172,3.52,0.36,0.28,215.42,FLYING
275.28,ASCENT,AB_CORRIDOR,286.39,80,-206.39,23033.94,-5.06,8.09,8.27,90.42,-0.189,1,0,0,0,0,0,0,0,0,0,90.4,-0.778,0,0,0,0,0,0,0,0,90.4,1,0,0.002,0,0,3,0,0,0,11.5,-9.19,0,0,1,1,28.647,23.427,DEGRADED,27665.5,27717.3,5.262,23044,0,1.1661,7343.19,3676.7,-0.597,0,0,1.0001,629.11,629.06,2,0,629.08,157.26,2,0,628.58,628.52,2,0,0.28,0.28,1190,3.52,0.36,0.28,220.54,FLYING
280.4,ASCENT,AB_CORRIDOR,288.25,80,-208.25,23025.42,2.18,9.83,9.72,90.42,-0.154,1,0,0,0,0,0,0,0,0,0,90.4,-0.425,0,0,0,0,0,0,0,0,90.4,1,0,0.002,0,0,3,0,0,0,11.5,-9.19,0,0,1,1,28.684,23.429,DEGRADED,28063.9,28090,5.292,23023,0,1.1665,7229.53,2892.91,-0.499,0,0,1.0001,616.94,616.86,2,0,616.88,154.21,2,0,616.21,616.14,2,0,0.28,0.28,1208,3.52,0.36,0.28,225.66,FLYING
285.52,ASCENT,AB_CORRIDOR,288.68,80,-208.68,23059.43,10.97,10.08,9.68,90.42,-0.159,1,0,0,0,0,0,0,0,0,0,90.4,-0.158,0,0,0,0,0,0,0,0,90.4,1,0,0.002,0,0,3,0,0,0,11.5,-9.19,0,0,1,1,38.332,23.473,DEGRADED,28182.9,28182.2,5.316,23055,0,1.1669,7072.09,2673.88,-0.542,0,0,1.0002,598.65,598.51,2,0,598.55,149.61,2,0,597.58,597.49,2,0,0.28,0.28,1226,3.52,0.36,0.28,230.78,FLYING
290.64,ASCENT,AB_CORRIDOR,287.96,80,-207.96,23133.52,17.53,9.15,8.54,90.43,-0.214,1,0,0,0,0,0,0,0,0,0,90.4,-0.001,0,0,0,0,0,0,0,0,90.4,1,0,0.002,0,0,3,0,0,0,11.5,-9.19,0,0,1,1,38.461,23.595,DEGRADED,28067.9,28047.1,5.34,23142,0,1.1672,6842.74,2746.77,-0.624,0,0,1.0002,573.07,572.93,2,0,572.98,143.22,2,0,571.86,571.74,2,0,0.28,0.28,1244,3.52,0.36,0.28,235.9,FLYING
295.76,ASCENT,AB_CORRIDOR,286.59,80,-206.59,23233.67,21.55,8.96,8.22,90.43,-0.232,1,0,0,0,0,0,0,0,0,0,90.4,0.018,0,0,0,0,0,0,0,0,90.4,1,0,0.002,0,0,3,0,0,0,11.5,-9.19,0,0,1,1,38.63,23.714,DEGRADED,27812.5,27781.7,5.365,23258,0,1.1676,6543.63,2974.83,-0.741,0,0,1.0004,542.77,542.58,2,0,542.64,135.63,2,0,541.37,541.25,2,0,0.28,0.28,1262,3.52,0.36,0.28,241.02,FLYING
300.88,ASCENT,AB_CORRIDOR,284.77,80,-204.77,23348.56,23.21,8.6,7.79,90.43,-0.264,1,0,0,0,0,0,0,0,0,0,90.4,-0.042,0,0,0,0,0,0,0,0,90.4,1,0,0.002,0,0,3,0,0,0,11.5,-9.19,0,0,1,1,38.831,23.871,DEGRADED,27465.7,27429,5.389,23383,0,1.1679,6212.56,2969.58,-0.857,0,0,1.0004,511.11,510.91,2,0,510.98,127.71,2,0,509.71,509.59,2,0,0.28,0.28,1280,3.52,0.36,0.28,246.14,FLYING
306,ASCENT,AB_CORRIDOR,282.85,80,-202.85,23465.37,22.57,7.3,6.55,90.43,-0.324,1,0,0,0,0,0,0,0,0,0,90.4,-0.174,0,0,0,0,0,0,0,0,90.4,1,0,0.002,0,0,3,0,0,0,11.5,-9.19,0,0,1,1,39.079,24.072,DEGRADED,27090.3,27052.3,5.412,23501,0,1.1682,5879.48,2814.75,-0.965,0,0,1.0004,480.71,480.53,2,0,480.59,120.12,2,0,479.31,479.19,2,0,0.28,0.28,1298,3.52,0.36,0.28,251.26,FLYING
311.12,ASCENT,AB_CORRIDOR,281.06,80,-201.06,23574.42,20.39,6.87,6.19,90.43,-0.345,1,0,0,0,0,0,0,0,0,0,90.4,-0.335,0,0,0,0,0,0,0,0,90.4,1,0,0.002,0,0,3,0,0,0,11.5,-9.19,0,0,1,1,39.276,24.247,DEGRADED,26743.8,26707,5.433,23603,0,1.1685,5562.42,2477.64,-1.055,0,0,1.0003,453.04,452.92,2,0,452.96,113.22,2,0,451.91,451.8,2,0,0.28,0.28,1316,3.52,0.36,0.28,256.38,FLYING
316.24,ASCENT,AB_CORRIDOR,279.61,80,-199.61,23670.87,17.37,6.64,6.03,90.43,-0.366,1,0,0,0,0,0,0,0,0,0,90.4,-0.509,0,0,0,0,0,0,0,0,90.4,1,0,0.002,0,0,3,0,0,0,11.5,-9.19,0,0,1,1,39.505,24.404,DEGRADED,26452.4,26425.1,5.455,23689,0,1.1688,5277.43,2495.52,-1.121,0,0,1.0003,428.18,428.04,2,0,428.09,107,2,0,427.1,427,2,0,0.28,0.28,1334,3.52,0.36,0.28,261.5,FLYING
321.36,ASCENT,AB_CORRIDOR,278.38,80,-198.38,23753.37,14.75,7.52,7.02,90.44,-0.364,1,0,0,0,0,0,0,0,0,0,90.4,-0.667,0,0,0,0,0,0,0,0,90.4,1,0,0.002,0,0,3,0,0,0,11.5,-9.19,0,0,1,1,39.661,24.505,DEGRADED,26211.6,26191.4,5.473,23763,0,1.1691,5029.71,2278.33,-1.175,0,0,1.0003,407.23,407.11,2,0,407.15,101.77,2,0,406.42,406.37,2,0,0.28,0.28,1352,3.52,0.36,0.28,266.62,FLYING
326.48,ASCENT,AB_CORRIDOR,277.49,80,-197.49,23820.3,11.1,6.62,6.16,90.44,-0.383,1,0,0,0,0,0,0,0,0,0,90.4,-0.816,0,0,0,0,0,0,0,0,90.4,1,0,0.002,0,0,3,0,0,0,11.5,-9.19,0,0,1,1,39.919,24.69,DEGRADED,26028.2,26013.4,5.49,23823,0,1.1693,4822.02,2045.92,-1.207,0,0,1.0003,389.75,389.63,2,0,389.67,97.4,2,0,388.92,388.85,2,0,0.28,0.28,1370,3.52,0.36,0.28,271.74,FLYING
331.6,ASCENT,AB_CORRIDOR,276.94,80,-196.94,23872.59,8.95,7.5,7.2,90.45,-0.407,1,0,0,0,0,0,0,0,0,0,90.4,-0.916,0,0,0,0,0,0,0,0,90.4,1,0,0.002,0,0,3,0,0,0,11.5,-9.19,0,0,1,1,39.978,24.738,DEGRADED,25916.8,25909.7,5.506,23870,0,1.1696,4639.62,1975.88,-1.222,0,0,1.0002,374.53,374.44,2,0,374.47,93.6,2,0,373.91,373.87,2,0,0.28,0.28,1388,3.52,0.36,0.28,276.86,FLYING
336.72,ASCENT,AB_CORRIDOR,276.58,80,-196.58,23912.1,6.62,7.97,7.7,90.45,-0.382,1,0,0,0,0,0,0,0,0,0,90.4,-1.001,0,0,0,0,0,0,0,0,90.4,1,0,0.002,0,0,3,0,0,0,11.5,-9.19,0,0,1,1,40.119,24.833,DEGRADED,25843,25839.1,5.519,23908,0,1.1698,4492.13,1629.31,-1.229,0,0,1.0002,362.65,362.58,2,0,362.6,90.64,2,0,362.15,362.11,2,0,0.28,0.28,1406,3.52,0.36,0.28,281.98,FLYING
341.84,ASCENT,AB_CORRIDOR,276.38,80,-196.38,23942.81,5.17,6.42,6.24,90.44,-0.417,1,0,0,0,0,0,0,0,0,0,90.4,-1.048,0,0,0,0,0,0,0,0,90.4,1,0,0.002,0,0,3,0,0,0,11.5,-9.19,0,0,1,1,40.306,24.982,DEGRADED,25800.2,25795.9,5.531,23938,0,1.1701,4370.25,1376.51,-1.232,0,0,1.0002,352.62,352.56,2,0,352.58,88.14,2,0,352.1,352.05,2,0,0.28,0.28,1424,3.52,0.36,0.28,287.1,FLYING
346.96,ASCENT,AB_CORRIDOR,276.43,80,-196.43,23964.29,3.3,7.28,7.16,90.45,-0.437,1,0,0,0,0,0,0,0,0,0,90.4,-1.103,0,0,0,0,0,0,0,0,90.4,1,0,0.002,0,0,3,0,0,0,11.5,-9.19,0,0,1,1,40.41,25.028,DEGRADED,25802.9,25804.4,5.543,23959,0,1.1703,4263.31,1326.61,-1.214,0,0,1.0002,343.47,343.41,2,0,343.43,85.85,2,0,343.05,343.02,2,0,0.28,0.28,1442,3.52,0.36,0.28,292.22,FLYING
352.08,ASCENT,AB_CORRIDOR,276.69,80,-196.69,23975.94,1.49,6.83,6.81,90.45,-0.448,1,0,0,0,0,0,0,0,0,0,90.4,-1.129,0,0,0,0,0,0,0,0,90.4,1,0,0.002,0,0,3,0,0,0,11.5,-9.19,0,0,1,1,40.489,25.112,DEGRADED,25847.3,25850.1,5.554,23972,0,1.1705,4171.54,1105.83,-1.184,0,0,1,335.83,335.82,2,0,335.82,83.95,2,0,335.58,335.55,2,0,0.28,0.28,1460,3.52,0.36,0.28,297.34,FLYING
357.2,ASCENT,AB_CORRIDOR,277.11,80,-197.11,23978.88,-0.14,6.64,6.6,90.44,-0.434,1,0,0,0,0,0,0,0,0,0,90.4,-1.146,0,0,0,0,0,0,0,0,90.4,1,0,0.002,0,0,3,0,0,0,11.5,-9.19,0,0,1,1,40.684,25.207,DEGRADED,25916.6,25923.4,5.564,23977,0,1.1707,4100.49,979.33,-1.147,0,0,1.0002,330.09,330.04,2,0,330.05,82.51,2,0,329.71,329.68,2,0,0.28,0.28,1478,3.52,0.36,0.28,302.46,FLYING
362.32,ASCENT,AB_CORRIDOR,277.52,80,-197.52,23978.11,-0.26,7.51,7.52,90.45,-0.421,1,0,0,0,0,0,0,0,0,0,90.4,-1.126,0,0,0,0,0,0,0,0,90.4,1,0,0.002,0,0,3,0,0,0,11.5,-9.19,0,0,1,1,40.647,25.198,DEGRADED,25995.6,26002.4,5.572,23976,0,1.1709,4044.73,776.02,-1.121,0,0,1,325.62,325.62,2,0,325.62,81.4,2,0,325.46,325.43,2,0,0.28,0.28,1496,3.52,0.36,0.28,307.58,FLYING
367.44,ASCENT,AB_CORRIDOR,277.91,80,-197.91,23977.52,0.28,7.23,7.25,90.45,-0.445,1,0,0,0,0,0,0,0,0,0,90.4,-1.087,0,0,0,0,0,0,0,0,90.4,1,0,0.002,0,0,3,0,0,0,11.5,-9.19,0,0,1,1,30.529,25.236,DEGRADED,26070.1,26076,5.579,23975,0,1.1711,3995.59,716.41,-1.099,0,0,1,321.35,321.35,2,0,321.35,80.34,2,0,321.29,321.27,2,0,0.28,0.28,1514,3.52,0.36,0.28,312.7,FLYING
372.56,ASCENT,AB_CORRIDOR,278.18,80,-198.18,23979.36,0.61,7.53,7.51,90.45,-0.441,1,0,0,0,0,0,0,0,0,0,90.4,-1.061,0,0,0,0,0,0,0,0,90.4,1,0,0.002,0,0,3,0,0,0,11.5,-9.19,0,0,1,1,40.77,25.262,DEGRADED,26122,26125.2,5.586,23977,0,1.1713,3953.01,626.29,-1.085,0,0,1.0001,317.64,317.62,2,0,317.63,79.4,2,0,317.45,317.42,2,0,0.28,0.28,1532,3.52,0.36,0.28,317.82,FLYING
377.68,ASCENT,AB_CORRIDOR,278.38,80,-198.38,23983.76,1.16,8.2,8.15,90.46,-0.447,1,0,0,0,0,0,0,0,0,0,90.4,-1.04,0,0,0,0,0,0,0,0,90.4,1,0,0.002,0,0,3,0,0,0,11.5,-9.19,0,0,1,1,40.808,25.255,DEGRADED,26159.9,26163.8,5.592,23980,0,1.1715,3909.64,722.87,-1.075,0,0,1.0001,313.56,313.53,2,0,313.54,78.38,2,0,313.35,313.34,2,0,0.28,0.28,1550,3.52,0.36,0.28,322.94,FLYING
382.8,ASCENT,AB_CORRIDOR,278.37,80,-198.37,23992.46,2.39,8.12,8.06,90.46,-0.435,1,0,0,0,0,0,0,0,0,0,90.4,-1.005,0,0,0,0,0,0,0,0,90.4,1,0,0.002,0,0,3,0,0,0,11.5,-9.19,0,0,1,1,40.792,25.272,DEGRADED,26166.4,26166.3,5.596,23988,0,1.1717,3866.33,557.96,-1.084,0,0,1,309.93,309.93,2,0,309.93,77.48,2,0,309.96,309.95,2,0,0.28,0.28,1568,3.52,0.36,0.28,328.06,FLYING
387.92,ASCENT,AB_CORRIDOR,278.23,80,-198.23,24006.75,3.36,8.08,7.97,90.46,-0.455,1,0,0,0,0,0,0,0,0,0,90.4,-0.988,0,0,0,0,0,0,0,0,90.4,1,0,0.002,0,0,3,0,0,0,11.5,-9.19,0,0,1,1,40.864,25.303,DEGRADED,26141.4,26138.4,5.601,24002,0,1.1719,3822.36,574.51,-1.099,0,0,1.0001,305.97,305.94,2,0,305.95,76.48,2,0,305.74,305.72,2,0,0.28,0.28,1586,3.52,0.36,0.28,333.18,FLYING
393.04,ASCENT,AB_CORRIDOR,277.98,80,-197.98,24025.07,4.15,7.23,7.17,90.46,-0.514,1,0,0,0,0,0,0,0,0,0,90.4,-0.982,0,0,0,0,0,0,0,0,90.4,1,0,0.002,0,0,3,0,0,0,11.5,-9.19,0,0,1,1,40.887,25.35,DEGRADED,26099.3,26093.5,5.606,24020,0,1.1721,3770.93,524.35,-1.121,0,0,1,301.27,301.28,2,0,301.27,75.32,2,0,301.32,301.31,2,0,0.28,0.28,1604,3.52,0.36,0.28,338.3,FLYING
398.16,ASCENT,AB_CORRIDOR,277.6,80,-197.6,24045.84,4.53,7.52,7.34,90.46,-0.478,1,0,0,0,0,0,0,0,0,0,90.4,-0.993,0,0,0,0,0,0,0,0,90.4,1,0,0.002,0,0,3,0,0,0,11.5,-9.19,0,0,1,1,41.002,25.4,DEGRADED,26027.8,26018.1,5.608,24041,0,1.1723,3724.18,382.76,-1.15,0,0,1.0001,297.73,297.69,2,0,297.71,74.42,2,0,297.42,297.39,2,0,0.28,0.28,1622,3.52,0.36,0.28,343.42,FLYING
403.28,ASCENT,AB_CORRIDOR,277.15,80,-197.15,24069.94,5.03,7.96,7.83,90.46,-0.496,1,0,0,0,0,0,0,0,0,0,90.4,-1.012,0,0,0,0,0,0,0,0,90.4,1,0,0.002,0,0,3,0,0,0,11.5,-9.19,0,0,1,1,40.938,25.37,DEGRADED,25948.4,25940.8,5.613,24065,0,1.1725,3673.94,504.45,-1.178,0,0,1,292.94,292.93,2,0,292.93,73.23,2,0,292.96,292.96,2,0,0.28,0.28,1640,3.52,0.36,0.28,348.54,FLYING
408.4,ASCENT,AB_CORRIDOR,276.63,80,-196.63,24096.1,5.51,7.46,7.32,90.46,-0.531,1,0,0,0,0,0,0,0,0,0,90.4,-1.033,0,0,0,0,0,0,0,0,90.4,1,0,0.002,0,0,3,0,0,0,11.5,-9.19,0,0,1,1,41.015,25.417,DEGRADED,25847.3,25838.3,5.615,24091,0,1.1727,3626,508.49,-1.217,0,0,1.0001,288.93,288.89,2,0,288.9,72.22,2,0,288.73,288.72,2,0,0.28,0.28,1658,3.52,0.36,0.28,353.66,FLYING
413.52,ASCENT,AB_CORRIDOR,276.07,80,-196.07,24122.96,5.28,7.58,7.38,90.46,-0.546,1,0,0,0,0,0,0,0,0,0,90.4,-1.074,0,0,0,0,0,0,0,0,90.4,1,0,0.002,0,0,3,0,0,0,11.5,-9.19,0,0,1,1,41.111,25.468,DEGRADED,25741.5,25731.8,5.618,24118,0,1.1729,3578.13,436.38,-1.251,0,0,1.0002,284.95,284.91,2,0,284.92,71.22,2,0,284.64,284.62,2,0,0.28,0.28,1676,3.52,0.36,0.28,358.78,FLYING
418.64,ASCENT,AB_CORRIDOR,275.52,80,-195.52,24149.25,5.22,7.2,7.04,90.46,-0.533,1,0,0,0,0,0,0,0,0,0,90.4,-1.105,0,0,0,0,0,0,0,0,90.4,1,0,0.002,0,0,3,0,0,0,11.5,-9.19,0,0,1,1,41.115,25.511,DEGRADED,25643.1,25630.6,5.621,24144,0,1.1731,3526.99,289.64,-1.285,0,0,1,280.86,280.85,2,0,280.85,70.21,2,0,280.68,280.66,2,0,0.28,0.28,1694,3.52,0.36,0.28,363.9,FLYING
423.76,ASCENT,AB_CORRIDOR,275,80,-195,24173.93,4.64,8.93,8.81,90.47,-0.507,1,0,0,0,0,0,0,0,0,0,90.4,-1.16,0,0,0,0,0,0,0,0,90.4,1,0,0.002,0,0,3,0,0,0,11.5,-9.19,0,0,1,1,40.992,25.426,DEGRADED,25549.3,25542.1,5.624,24168,0,1.1732,3482.62,402.66,-1.309,0,0,1,276.82,276.83,2,0,276.83,69.21,2,0,277.03,277.05,2,0,0.28,0.28,1712,3.52,0.36,0.28,369.02,FLYING
428.88,ASCENT,AB_CORRIDOR,274.36,80,-194.36,24199.97,5.73,8.26,8.09,90.47,-0.515,1,0,0,0,0,0,0,0,0,0,90.4,-1.17,0,0,0,0,0,0,0,0,90.4,1,0,0.002,0,0,3,0,0,0,11.5,-9.19,0,0,1,1,41.102,25.493,DEGRADED,25430.6,25419.1,5.624,24195,0,1.1734,3446.8,270.19,-1.36,0,0,1.0001,274.49,274.47,2,0,274.48,68.62,2,0,274.4,274.4,2,0,0.28,0.28,1730,3.52,0.36,0.28,374.14,FLYING
434,ASCENT,AB_CORRIDOR,273.69,80,-193.69,24229.06,5.5,8.17,7.96,90.47,-0.56,1,0,0,0,0,0,0,0,0,0,90.4,-1.221,0,0,0,0,0,0,0,0,90.4,1,0,0.002,0,0,3,0,0,0,11.5,-9.19,0,0,1,1,41.163,25.524,DEGRADED,25303,25292.4,5.625,24224,0,1.1736,3412.9,375.1,-1.403,0,0,1.0001,271.17,271.14,2,0,271.15,67.78,2,0,270.97,270.96,2,0,0.28,0.28,1748,3.52,0.36,0.28,379.26,FLYING
439.12,ASCENT,AB_CORRIDOR,273.05,80,-193.05,24256.68,4.85,8,7.76,90.47,-0.579,1,0,0,0,0,0,0,0,0,0,90.4,-1.276,0,0,0,0,0,0,0,0,90.4,1,0,0.002,0,0,3,0,0,0,11.5,-9.19,0,0,1,1,41.224,25.571,DEGRADED,25182.4,25172.3,5.626,24252,0,1.1738,3374.89,342.79,-1.441,0,0,1.0001,268.04,268,2,0,268.01,67,2,0,267.79,267.77,2,0,0.28,0.28,1766,3.52,0.36,0.28,384.38,FLYING
444.24,ASCENT,AB_CORRIDOR,272.38,80,-192.38,24283.27,5.3,7.09,6.95,90.47,-0.609,1,0,0,0,0,0,0,0,0,0,90.4,-1.305,0,0,0,0,0,0,0,0,90.4,1,0,0.002,0,0,3,0,0,0,11.5,-9.19,0,0,1,1,41.218,25.621,DEGRADED,25065.1,25051.8,5.627,24278,0,1.1739,3337.18,108.81,-1.487,0,0,0.9999,265.35,265.37,2,0,265.36,66.34,2,0,265.34,265.32,2,0,0.28,0.28,1784,3.52,0.36,0.28,389.5,FLYING
449.36,ASCENT,AB_CORRIDOR,271.83,80,-191.83,24307.4,4.82,7.9,7.8,90.47,-0.591,1,0,0,0,0,0,0,0,0,0,90.4,-1.358,0,0,0,0,0,0,0,0,90.4,1,0,0.002,0,0,3,0,0,0,11.5,-9.19,0,0,1,1,41.181,25.593,DEGRADED,24963.1,24952.7,5.628,24302,0,1.1741,3301.46,142.38,-1.518,0,0,1,262.45,262.46,2,0,262.46,65.62,2,0,262.58,262.59,2,0,0.28,0.28,1802,3.52,0.36,0.28,394.62,FLYING
454.48,ASCENT,AB_CORRIDOR,271.27,80,-191.27,24330.13,4.27,6.95,6.78,90.47,-0.638,1,0,0,0,0,0,0,0,0,0,90.4,-1.405,0,0,0,0,0,0,0,0,90.4,1,0,0.002,0,0,3,0,0,0,11.5,-9.19,0,0,1,1,41.359,25.691,DEGRADED,24854.3,24842.4,5.628,24325,0,1.1743,3277.33,57.94,-1.555,0,0,1.0001,260.71,260.68,2,0,260.69,65.17,2,0,260.47,260.45,2,0,0.28,0.28,1820,3.52,0.36,0.28,399.74,FLYING
459.6,ASCENT,AB_CORRIDOR,270.86,80,-190.86,24349.6,3.03,7.84,7.69,90.48,-0.657,1,0,0,0,0,0,0,0,0,0,90.4,-1.471,0,0,0,0,0,0,0,0,90.4,1,0,0.002,0,0,3,0,0,0,11.5,-9.19,0,0,1,1,41.325,25.654,DEGRADED,24773.8,24768.4,5.63,24345,0,1.1744,3251.73,307.77,-1.572,0,0,1.0001,258.01,257.98,2,0,257.99,64.49,2,0,257.83,257.81,2,0,0.28,0.28,1838,3.52,0.36,0.28,404.86,FLYING
464.72,ASCENT,AB_CORRIDOR,270.53,80,-190.53,24363.91,2.49,7.04,6.91,90.47,-0.644,1,0,0,0,0,0,0,0,0,0,90.4,-1.503,0,0,0,0,0,0,0,0,90.4,1,0,0.002,0,0,3,0,0,0,11.5,-9.19,0,0,1,1,41.415,25.729,DEGRADED,24712.9,24705.8,5.63,24359,0,1.1746,3225.95,102.1,-1.591,0,0,1.0001,256.46,256.44,2,0,256.45,64.11,2,0,256.27,256.25,2,0,0.28,0.28,1856,3.52,0.36,0.28,409.98,FLYING
469.84,ASCENT,AB_CORRIDOR,270.21,80,-190.21,24376.76,2.46,8.42,8.33,90.48,-0.608,1,0,0,0,0,0,0,0,0,0,90.4,-1.528,0,0,0,0,0,0,0,0,90.4,1,0,0.002,0,0,3,0,0,0,11.5,-9.19,0,0,1,1,41.292,25.66,DEGRADED,24656.9,24651.2,5.631,24372,0,1.1748,3208.62,39.15,-1.609,0,0,1,255.21,255.21,2,0,255.21,63.8,2,0,255.16,255.15,2,0,0.28,0.28,1874,3.52,0.36,0.28,415.1,FLYING
474.96,ASCENT,AB_CORRIDOR,269.87,80,-189.87,24389.81,2.43,7.6,7.49,90.47,-0.641,1,0,0,0,0,0,0,0,0,0,90.4,-1.549,0,0,0,0,0,0,0,0,90.4,1,0,0.002,0,0,3,0,0,0,11.5,-9.19,0,0,1,1,41.367,25.709,DEGRADED,24592.8,24586.6,5.63,24385,0,1.1749,3198.91,71.04,-1.634,0,0,1.0001,254.35,254.34,2,0,254.34,63.58,2,0,254.2,254.19,2,0,0.28,0.28,1892,3.52,0.36,0.28,420.22,FLYING
480.08,ASCENT,AB_CORRIDOR,269.49,80,-189.49,24403.97,2.62,7.34,7.2,90.47,-0.651,1,0,0,0,0,0,0,0,0,0,90.4,-1.571,0,0,0,0,0,0,0,0,90.4,1,0,0.002,0,0,3,0,0,0,11.5,-9.19,0,0,1,1,41.445,25.747,DEGRADED,24523.8,24516.6,5.63,24399,0,1.1751,3187.52,12.92,-1.661,0,0,1.0001,253.5,253.48,2,0,253.48,63.37,2,0,253.33,253.32,2,0,0.28,0.28,1910,3.52,0.36,0.28,425.34,FLYING
485.2,ASCENT,AB_CORRIDOR,269.22,80,-189.22,24415.7,1.18,9.29,9.18,90.49,-0.6,1,0,0,0,0,0,0,0,0,0,90.4,-1.628,0,0,0,0,0,0,0,0,90.4,1,0,0.002,0,0,3,0,0,0,11.5,-9.19,0,0,1,1,41.25,25.624,DEGRADED,24472.5,24472.7,5.631,24411,0,1.1753,3178.01,247.15,-1.666,0,0,1,251.96,251.97,2,0,251.97,62.99,2,0,252.05,252.06,2,0,0.28,0.28,1928,3.52,0.36,0.28,430.46,FLYING
490.32,ASCENT,AB_CORRIDOR,268.41,80,-188.41,24434.66,5.46,8.63,8.43,90.46,-0.508,1,0,0,0,0,0,0,0,0,0,90.4,-1.566,0,0,0,0,0,0,0,0,90.4,1,0,0.002,0,0,3,0,0,0,11.5,-9.19,0,0,1,1,41.308,25.687,DEGRADED,24344.7,24328.2,5.624,24429,0,1.1754,3178.7,-528.19,-1.752,0,0,1,254.33,254.33,2,0,254.33,63.58,2,0,254.26,254.25,2,0,0.28,0.28,1946,3.52,0.36,0.28,435.58,FLYING
495.44,ASCENT,AB_CORRIDOR,267.48,80,-187.48,24467.45,7.14,8.54,8.32,90.48,-0.624,1,0,0,0,0,0,0,0,0,0,90.4,-1.592,0,0,0,0,0,0,0,0,90.4,1,0,0.002,0,0,3,0,0,0,11.5,-9.19,0,0,1,1,41.223,25.628,DEGRADED,24180,24163.6,5.621,24463,0,1.1756,3175.4,-55.16,-1.828,0,0,1.0001,252.76,252.74,2,0,252.75,63.18,2,0,252.72,252.73,2,0,0.28,0.28,1964,3.52,0.36,0.28,440.7,FLYING
500.56,ASCENT,AB_CORRIDOR,266.6,80,-186.6,24502.87,6.66,7.54,7.29,90.48,-0.722,1,0,0,0,0,0,0,0,0,0,90.4,-1.662,0,0,0,0,0,0,0,0,90.4,1,0,0.002,0,0,3,0,0,0,11.5,-9.19,0,0,1,1,41.3,25.695,DEGRADED,24015.1,23998.8,5.621,24499,0,1.1757,3150.61,116.4,-1.89,0,0,1.0001,250.08,250.06,2,0,250.07,62.51,2,0,249.88,249.86,2,0,0.28,0.28,1982,3.52,0.36,0.28,445.82,FLYING
505.68,ASCENT,AB_CORRIDOR,265.83,80,-185.83,24534.89,5.98,8.09,7.93,90.49,-0.727,1,0,0,0,0,0,0,0,0,0,90.4,-1.738,0,0,0,0,0,0,0,0,90.4,1,0,0.002,0,0,3,0,0,0,11.5,-9.19,0,0,1,1,41.238,25.667,DEGRADED,23877.9,23865.6,5.622,24530,0,1.1759,3113.61,187.63,-1.936,0,0,1,246.87,246.87,2,0,246.87,61.72,2,0,246.94,246.96,2,0,0.28,0.28,2000,3.52,0.36,0.28,450.94,FLYING
510.8,ASCENT,AB_CORRIDOR,265.23,80,-185.23,24560.67,4.33,6.63,6.53,90.48,-0.821,1,0,0,0,0,0,0,0,0,0,90.4,-1.818,0,0,0,0,0,0,0,0,90.4,1,0,0.002,0,0,3,0,0,0,11.5,-9.19,0,0,1,1,41.364,25.772,DEGRADED,23762.8,23751.6,5.622,24556,0,1.1761,3084.18,123.18,-1.969,0,0,1,244.51,244.51,2,0,244.51,61.13,2,0,244.44,244.43,2,0,0.28,0.28,2018,3.52,0.36,0.28,456.06,FLYING
515.92,ASCENT,AB_CORRIDOR,264.91,80,-184.91,24575.73,2.33,8.13,8.1,90.49,-0.762,1,0,0,0,0,0,0,0,0,0,90.4,-1.898,0,0,0,0,0,0,0,0,90.4,1,0,0.002,0,0,3,0,0,0,11.5,-9.19,0,0,1,1,41.277,25.725,DEGRADED,23703.5,23698.3,5.624,24571,0,1.1762,3055.5,72.71,-1.975,0,0,0.9999,242.45,242.48,2,0,242.47,60.62,2,0,242.67,242.68,2,0,0.28,0.28,2036,3.52,0.36,0.28,461.18,FLYING
521.04,ASCENT,AB_CORRIDOR,264.82,80,-184.82,24582.35,0.58,6.65,6.63,90.48,-0.823,1,0,0,0,0,0,0,0,0,0,90.4,-1.948,0,0,0,0,0,0,0,0,90.4,1,0,0.002,0,0,3,0,0,0,11.5,-9.19,0,0,1,1,41.475,25.835,DEGRADED,23674.2,23671.4,5.625,24579,0,1.1764,3042.28,73.41,-1.973,0,0,1,241.52,241.53,2,0,241.52,60.38,2,0,241.43,241.42,2,0,0.28,0.28,2054,3.52,0.36,0.28,466.3,FLYING
526.16,ASCENT,AB_CORRIDOR,264.88,80,-184.88,24581.13,-0.92,6.72,6.77,90.48,-0.82,1,0,0,0,0,0,0,0,0,0,90.4,-1.989,0,0,0,0,0,0,0,0,90.4,1,0,0.002,0,0,3,0,0,0,11.5,-9.19,0,0,1,1,31.128,25.85,DEGRADED,23680.9,23682.1,5.626,24580,0,1.1765,3035.56,16,-1.963,0,0,1,241.17,241.18,2,0,241.18,60.29,2,0,241.12,241.11,2,0,0.28,0.28,2072,3.53,0.36,0.28,471.42,FLYING
531.28,ASCENT,AB_CORRIDOR,265.17,80,-185.17,24572.45,-2.17,7.14,7.25,90.49,-0.834,1,0,0,0,0,0,0,0,0,0,90.4,-2.018,0,0,0,0,0,0,0,0,90.4,1,0,0.002,0,0,3,0,0,0,11.5,-9.19,0,0,1,1,31.114,25.824,DEGRADED,23726.4,23732.8,5.627,24574,0,1.1767,3034.35,125.44,-1.944,0,0,1,241.03,241.03,2,0,241.03,60.26,2,0,241.04,241.05,2,0,0.28,0.28,2090,3.52,0.36,0.28,476.54,FLYING
536.4,ASCENT,AB_CORRIDOR,265.59,80,-185.59,24557.11,-3.28,7.55,7.71,90.49,-0.804,1,0,0,0,0,0,0,0,0,0,90.4,-2.026,0,0,0,0,0,0,0,0,90.4,1,0,0.002,0,0,3,0,0,0,11.5,-9.19,0,0,1,1,31.098,25.811,DEGRADED,23801.9,23811.5,5.629,24561,0,1.1768,3039.12,72.16,-1.913,0,0,0.9999,241.5,241.52,2,0,241.51,60.38,2,0,241.72,241.74,2,0,0.28,0.28,2108,3.52,0.36,0.28,481.66,FLYING
541.52,ASCENT,AB_CORRIDOR,266.19,80,-186.19,24536.14,-4.73,7.35,7.46,90.49,-0.824,1,0,0,0,0,0,0,0,0,0,90.4,-2.032,0,0,0,0,0,0,0,0,90.4,1,0,0.002,0,0,3,0,0,0,11.5,-9.19,0,0,1,1,31.198,25.861,DEGRADED,23900.4,23912,5.63,24542,0,1.177,3052.52,108.89,-1.874,0,0,1,242.6,242.59,2,0,242.6,60.65,2,0,242.56,242.56,2,0,0.28,0.28,2126,3.52,0.36,0.28,486.78,FLYING
546.64,ASCENT,AB_CORRIDOR,266.85,80,-186.85,24511.03,-5.47,7.48,7.62,90.49,-0.816,1,0,0,0,0,0,0,0,0,0,90.4,-2.013,0,0,0,0,0,0,0,0,90.4,1,0,0.002,0,0,3,0,0,0,11.5,-9.19,0,0,1,1,31.215,25.858,DEGRADED,24016.3,24029.6,5.631,24519,0,1.1771,3071.31,45.2,-1.828,0,0,1,244.2,244.19,2,0,244.19,61.05,2,0,244.17,244.17,2,0,0.28,0.28,2144,3.52,0.36,0.28,491.9,FLYING
551.76,ASCENT,AB_CORRIDOR,267.49,80,-187.49,24484.45,-5.18,7.19,7.36,90.49,-0.837,1,0,0,0,0,0,0,0,0,0,90.4,-1.954,0,0,0,0,0,0,0,0,90.4,1,0,0.002,0,0,3,0,0,0,11.5,-9.19,0,0,1,1,31.201,25.858,DEGRADED,24135,24145.9,5.63,24493,0,1.1773,3095.13,-125.47,-1.782,0,0,1,246.5,246.51,2,0,246.51,61.63,2,0,246.51,246.51,2,0,0.28,0.28,2162,3.52,0.36,0.28,497.02,FLYING
556.88,ASCENT,AB_CORRIDOR,268.24,80,-188.24,24457.47,-5.31,8.57,8.74,90.51,-0.804,1,0,0,0,0,0,0,0,0,0,90.4,-1.915,0,0,0,0,0,0,0,0,90.4,1,0,0.002,0,0,3,0,0,0,11.5,-9.19,0,0,1,1,31.13,25.757,DEGRADED,24269.2,24284.9,5.632,24466,0,1.1775,3116.41,138.98,-1.731,0,0,1,247.74,247.74,2,0,247.74,61.94,2,0,247.84,247.86,2,0,0.28,0.28,2180,3.52,0.36,0.28,502.14,FLYING
562,ASCENT,AB_CORRIDOR,268.85,80,-188.85,24431.61,-4.6,7.83,7.97,90.49,-0.782,1,0,0,0,0,0,0,0,0,0,90.4,-1.842,0,0,0,0,0,0,0,0,90.4,1,0,0.002,0,0,3,0,0,0,11.5,-9.19,0,0,1,1,31.193,25.814,DEGRADED,24383.9,24393.7,5.631,24439,0,1.1776,3142.06,-154.04,-1.687,0,0,1,250.36,250.37,2,0,250.36,62.59,2,0,250.37,250.37,2,0,0.28,0.28,2198,3.52,0.36,0.28,507.26,FLYING
567.12,ASCENT,AB_CORRIDOR,269.38,80,-189.38,24409.55,-3.89,7.58,7.74,90.5,-0.819,1,0,0,0,0,0,0,0,0,0,90.4,-1.78,0,0,0,0,0,0,0,0,90.4,1,0,0.002,0,0,3,0,0,0,11.5,-9.19,0,0,1,1,31.157,25.794,DEGRADED,24483.8,24493.1,5.631,24415,0,1.1778,3169,-166.48,-1.651,0,0,0.9999,252.26,252.29,2,0,252.28,63.08,2,0,252.48,252.48,2,0,0.28,0.28,2216,3.53,0.36,0.28,512.38,FLYING
572.24,ASCENT,AB_CORRIDOR,269.9,80,-189.9,24390.68,-3.54,7.68,7.76,90.5,-0.833,1,0,0,0,0,0,0,0,0,0,90.4,-1.734,0,0,0,0,0,0,0,0,90.4,1,0,0.002,0,0,3,0,0,0,11.5,-9.19,0,0,1,1,31.204,25.784,DEGRADED,24575.9,24584.9,5.631,24395,0,1.1779,3189.65,7.25,-1.616,0,0,1,253.56,253.55,2,0,253.56,63.39,2,0,253.51,253.5,2,0,0.28,0.28,2234,3.53,0.36,0.28,517.5,FLYING
577.36,ASCENT,AB_CORRIDOR,270.28,80,-190.28,24374.4,-2.73,7.77,7.84,90.49,-0.775,1,0,0,0,0,0,0,0,0,0,90.4,-1.677,0,0,0,0,0,0,0,0,90.4,1,0,0.002,0,0,3,0,0,0,11.5,-9.19,0,0,1,1,31.205,25.794,DEGRADED,24652.6,24655.5,5.631,24377,0,1.1781,3205,-248.85,-1.588,0,0,1,255.26,255.26,2,0,255.26,63.82,2,0,255.23,255.23,2,0,0.28,0.28,2252,3.52,0.36,0.28,522.62,FLYING
582.48,ASCENT,AB_CORRIDOR,270.37,80,-190.37,24365.41,-0.22,8.73,8.74,90.49,-0.665,1,0,0,0,0,0,0,0,0,0,90.4,-1.587,0,0,0,0,0,0,0,0,90.4,1,0,0.002,0,0,3,0,0,0,11.5,-9.19,0,0,1,1,41.492,25.721,DEGRADED,24681.3,24679.2,5.628,24364,0,1.1783,3225.07,-460.98,-1.58,0,0,0.9999,257.42,257.45,2,0,257.44,64.36,2,0,257.53,257.53,2,0,0.28,0.28,2270,3.52,0.36,0.28,527.74,FLYING
587.6,ASCENT,AB_CORRIDOR,270.33,80,-190.33,24366.69,0.21,8.05,7.98,90.5,-0.845,1,0,0,0,0,0,0,0,0,0,90.4,-1.58,0,0,0,0,0,0,0,0,90.4,1,0,0.002,0,0,3,0,0,0,11.5,-9.19,0,0,1,1,31.175,25.728,DEGRADED,24667.7,24667.7,5.628,24364,0,1.1784,3247.11,22.22,-1.586,0,0,1.0001,257.68,257.66,2,0,257.66,64.41,2,0,257.56,257.56,2,0,0.28,0.28,2288,3.52,0.36,0.28,532.86,FLYING
592.72,ASCENT,AB_CORRIDOR,270.2,80,-190.2,24370.48,1.08,8.28,8.26,90.51,-0.834,1,0,0,0,0,0,0,0,0,0,90.4,-1.566,0,0,0,0,0,0,0,0,90.4,1,0,0.002,0,0,3,0,0,0,11.5,-9.19,0,0,1,1,41.448,25.672,DEGRADED,24649.8,24649.4,5.627,24367,0,1.1786,3247,68.85,-1.6,0,0,1,257.49,257.49,2,0,257.49,64.37,2,0,257.6,257.61,2,0,0.28,0.28,2306,3.52,0.36,0.28,537.98,FLYING
597.84,ASCENT,AB_CORRIDOR,269.9,80,-189.9,24379.01,2.68,7.93,7.89,90.49,-0.788,1,0,0,0,0,0,0,0,0,0,90.4,-1.54,0,0,0,0,0,0,0,0,90.4,1,0,0.002,0,0,3,0,0,0,11.5,-9.19,0,0,1,1,41.443,25.692,DEGRADED,24603.9,24597.5,5.626,24375,0,1.1788,3243.61,-156.87,-1.631,0,0,0.9999,257.66,257.69,2,0,257.68,64.42,2,0,257.85,257.86,2,0,0.28,0.28,2324,3.52,0.36,0.28,543.1,FLYING
602.96,ASCENT,AB_CORRIDOR,269.54,80,-189.54,24392.49,2.86,7.86,7.76,90.5,-0.847,1,0,0,0,0,0,0,0,0,0,90.4,-1.559,0,0,0,0,0,0,0,0,90.4,1,0,0.002,0,0,3,0,0,0,11.5,-9.19,0,0,1,1,41.503,25.717,DEGRADED,24537.5,24528.2,5.625,24388,0,1.1789,3239.53,-124.25,-1.658,0,0,1,257.04,257.04,2,0,257.04,64.26,2,0,256.95,256.94,2,0,0.28,0.28,2342,3.52,0.36,0.28,548.22,FLYING
608.08,ASCENT,AB_CORRIDOR,269.08,80,-189.08,24408.65,3.61,7.9,7.78,90.5,-0.854,1,0,0,0,0,0,0,0,0,0,90.4,-1.57,0,0,0,0,0,0,0,0,90.4,1,0,0.002,0,0,3,0,0,0,11.5,-9.19,0,0,1,1,41.495,25.72,DEGRADED,24457.2,24445.3,5.624,24404,0,1.1791,3228.64,-204.47,-1.694,0,0,1,256.31,256.32,2,0,256.32,64.08,2,0,256.24,256.23,2,0,0.28,0.28,2360,3.52,0.36,0.28,553.34,FLYING
