t_s,phase,subphase,ias_ms,vapp_ms,spd_err_ms,agl_m,gear_h_m,vs_ms,pitch_deg,aoa_deg,hdg_deg,bank_deg,thr_cmd,thr_cur,thr_intg,at_gain,at_tau_s,at_a_up,at_a_dn,at_kp_thr,at_ki_spd,at_thr_slew,as_cmd_deg,as_cap_deg,as_raw_deg,as_spd_err_ms,as_active,aa_hdg_cmd_deg,aa_fpa_cmd_deg,aa_fbw,aa_dir,actual_fpa_deg,ftf_hdg_err_deg,ftf_fix_idx,kos_steer_pit_deg,kos_steer_hdg_deg,aa_dir_vx,aa_dir_vy,aa_dir_vz,aa_dir_pitch_deg,aa_dir_hdg_deg,ils_loc_m,ils_gs_m,ils_dist_km,loc_corr_deg,gs_corr_deg,gs_latched,active_gs_ang_deg,ils_intercept_alt_m,d_gs_ms,fpa_preclamped_deg,gs_nom_alt_m,flare_fpa_cmd,flare_tgt_vs,flare_frac,flare_mode,flare_auth_limited,flare_vs_err,flare_fpa_err,flare_pitch_err,flare_req_up_a,flare_thr_floor,flare_tecs_et_err,flare_tecs_eb_err,flare_tecs_h_ref,flare_tecs_v_ref,flare_gamma_ref,flare_gamma_eb_term,flare_gamma_unsat,steer_hdg_deg,steer_blend,ro_loc_corr_deg,ro_hdg_err_deg,ro_yaw_tgt,ro_yaw_scale,ro_yaw_gate,yaw_cmd,roll_cmd,pitch_cmd,ro_pitch_tgt_deg,ro_pitch_err_deg,ro_pitch_ff,ro_roll_assist,flaps_cur,flaps_tgt,asc_j_ab,asc_j_rk,asc_validity,asc_q_pa,asc_q_raw_pa,asc_mach,asc_apo_m,asc_drag_n,asc_w_prop,asc_edot_aero,asc_edot_orb,asc_pitch_bias,asc_blend,asc_spooling,asc_ab_thr_ratio,asc_ab_t_now,asc_ab_t_avail,asc_ab_ign_on,asc_ab_flameouts,asc_rk_t_now,asc_rk_t_avail,asc_rk_ign_on,asc_rk_flameouts,ship_thrust,ship_avail_thrust,ship_ign_on,ship_flameouts,ifc_raw_dt_s,ifc_dt_s,ifc_loop_n,ifc_hz_est,ifc_raw_dt_max_s,ifc_raw_dt_min_s,phase_el_s,status,craft_name,cfg_file
1.9,TAKEOFF,TO_PREFLIGHT,0.06,80,79.94,4.9,1.41,0,1.05,0.77,89.69,0.086,0.056,0,0,0,0,0,0,0,0,0,0,0,0,0,0,90,0,1,0,-0.68,0,0,0,90,0,0,0,0,0,0,0,0,0,0,0,3,0,0,0,69,0,0,0,,0,0,0,0,0,0,0,0,0,0,0,0,0,90,1,0,-0.305,0,0,1,0,0,0,0,0,0,0,0,2,0,0,VALID,0,0,0,0,0,1,0,0,0,0,0,0,0,0,0,0,0,0,0,0,0,873.36,2,0,0.14,0.14,1,0.5,0.14,0.02,1.76,LANDED,X10-H,0:/Integrated Flight Computer/aircraft/x10_h_cfg.ks (inferred preloaded)
2.16,TAKEOFF,TO_PREFLIGHT,0.02,80,79.98,4.9,1.41,0,4.24,-42.69,89.63,0.063,0.328,0,0,0,0,0,0,0,0,0,0,0,0,0,0,90,0,1,0,0.15,0,0,0,90,0,0,0,0,0,0,0,0,0,0,0,3,0,0,0,69,0,0,0,,0,0,0,0,0,0,0,0,0,0,0,0,0,90,1,0,-0.305,0,0,1,0,0,0,0,0,0,0,1,2,0,0,VALID,0,0,0,0,0,1,0,0,0,0,0,0,0,0,0,0,0,0,0,0,7.39,873.36,2,0,0.04,0.04,6,19.23,1.84,0.04,2.04,LANDED,X10-H,0:/Integrated Flight Computer/aircraft/x10_h_cfg.ks (inferred preloaded)
2.46,TAKEOFF,TO_PREFLIGHT,0.05,80,79.95,4.84,1.41,0.01,4.01,-3.54,89.63,0.064,0.448,0,0,0,0,0,0,0,0,0,0,0,0,0,0,90,0,1,0,0.63,0,0,0,90,0,0,0,0,0,0,0,0,0,0,0,3,0,0,0,69,0,0,0,,0,0,0,0,0,0,0,0,0,0,0,0,0,90,1,0,-0.305,0,0,1,0,0,0,0,0,0,0,2,2,0,0,VALID,0,0,0,0,0,1,0,0,0,0,0,0,0,0,0,0,0,0,0,0,25.33,873.36,2,0,0.06,0.06,11,16.67,0.08,0.04,2.34,LANDED,X10-H,0:/Integrated Flight Computer/aircraft/x10_h_cfg.ks (inferred preloaded)
2.74,TAKEOFF,TO_PREFLIGHT,0.12,80,79.88,4.72,1.43,0.02,3.59,-2.79,89.61,0.068,0.56,0,0,0,0,0,0,0,0,0,0,0,0,0,0,90,0,1,0,0.95,0,0,0,90,0,0,0,0,0,0,0,0,0,0,0,3,0,0,0,69,0,0,0,,0,0,0,0,0,0,0,0,0,0,0,0,0,90,1,0,-0.305,0,0,1,0,0,0,0,0,0,0,2,2,0,0,VALID,0,0,0,0,0,1,0,0,0,0,0,0,0,0,0,0,0,0,0,0,46.57,873.36,2,0,0.04,0.04,16,17.86,0.08,0.04,2.62,LANDED,X10-H,0:/Integrated Flight Computer/aircraft/x10_h_cfg.ks (inferred preloaded)
3,TAKEOFF,TO_PREFLIGHT,0.17,80,79.83,4.55,1.45,0.02,3,-2.98,89.6,0.071,0.664,0,0,0,0,0,0,0,0,0,0,0,0,0,0,90,0,1,0,1.25,0,0,0,90,0,0,0,0,0,0,0,0,0,0,0,3,0,0,0,69,0,0,0,,0,0,0,0,0,0,0,0,0,0,0,0,0,90,1,0,-0.305,0,0,1,0,0,0,0,0,0,0,2,2,0,0,VALID,0,0,0,0,0,1,0,0,0,0,0,0,0,0,0,0,0,0,0,0,70.15,873.36,2,0,0.08,0.08,20,15.38,0.08,0.04,2.88,LANDED,X10-H,0:/Integrated Flight Computer/aircraft/x10_h_cfg.ks (inferred preloaded)
3.28,TAKEOFF,TO_PREFLIGHT,0.23,80,79.77,4.31,1.48,0.02,2.15,-3.14,89.57,0.078,0.776,0,0,0,0,0,0,0,0,0,0,0,0,0,0,90,0,1,0,1.38,0,0,0,90,0,0,0,0,0,0,0,0,0,0,0,3,0,0,0,69,0,0,0,,0,0,0,0,0,0,0,0,0,0,0,0,0,90,1,0,-0.305,0,0,1,0,0,0,0,0,0,0,2,2,0,0,VALID,0,0,0,0,0,1,0,0,0,0,0,0,0,0,0,0,0,0,0,0,99.22,873.36,2,0,0.08,0.08,24,14.29,0.08,0.06,3.16,LANDED,X10-H,0:/Integrated Flight Computer/aircraft/x10_h_cfg.ks (inferred preloaded)
3.56,TAKEOFF,TO_PREFLIGHT,0.28,80,79.72,4.02,1.51,0.02,1.12,-3.24,89.55,0.087,0.888,0,0,0,0,0,0,0,0,0,0,0,0,0,0,90,0,1,0,1.36,0,0,0,90,0,0,0,0,0,0,0,0,0,0,0,3,0,0,0,69,0,0,0,,0,0,0,0,0,0,0,0,0,0,0,0,0,90,1,0,-0.305,0,0,1,0,0,0,0,0,0,0,2,2,0,0,VALID,0,0,0,0,0,1,0,0,0,0,0,0,0,0,0,0,0,0,0,0,132.04,873.35,2,0,0.08,0.08,28,14.29,0.08,0.06,3.44,LANDED,X10-H,0:/Integrated Flight Computer/aircraft/x10_h_cfg.ks (inferred preloaded)
3.84,TAKEOFF,TO_PREFLIGHT,0.33,80,79.67,3.68,1.51,0.02,-0.07,-3.13,89.53,0.095,1,0,0,0,0,0,0,0,0,0,0,0,0,0,0,90,0,1,0,1.15,0,0,0,90,0,0,0,0,0,0,0,0,0,0,0,3,0,0,0,69,0,0,0,,0,0,0,0,0,0,0,0,0,0,0,0,0,90,1,0,-0.305,0,0,1,0,0,0,0,0,0,0,2,2,0,0,VALID,0,0,0,0,0,1,0,0,0,0,0,0,0,0,0,0,0,0,0,0,168.4,873.35,2,0,0.08,0.08,32,14.29,0.08,0.06,3.72,LANDED,X10-H,0:/Integrated Flight Computer/aircraft/x10_h_cfg.ks (inferred preloaded)
4.12,TAKEOFF,TO_PREFLIGHT,0.28,80,79.72,3.55,1.49,0.05,-0.57,-23.69,89.52,0.101,1,0,0,0,0,0,0,0,0,0,0,0,0,0,0,90,0,1,0,3.1,0,0,0,90,0,0,0,0,0,0,0,0,0,0,0,3,0,0,0,69,0,0,0,,0,0,0,0,0,0,0,0,0,0,0,0,0,90,1,0,-0.305,0,0,1,0,0,0,0,0,0,0,2,2,0,0,VALID,0,0,0,0,0,1,0,0,0,0,0,0,0,0,0,0,0,0,0,0,206.66,873.35,2,0,0.08,0.08,36,14.29,0.08,0.06,4,LANDED,X10-H,0:/Integrated Flight Computer/aircraft/x10_h_cfg.ks (inferred preloaded)
4.4,TAKEOFF,TO_PREFLIGHT,0.19,80,79.81,3.66,1.48,-0.23,-0.06,79.46,89.52,0.095,1,0,0,0,0,0,0,0,0,0,0,0,0,0,0,90,0,1,0,-13.08,0,0,0,90,0,0,0,0,0,0,0,0,0,0,0,3,0,0,0,69,0,0,0,,0,0,0,0,0,0,0,0,0,0,0,0,0,90,1,0,-0.305,0,0,1,0,0,0,0,0,0,0,2,2,0,0,VALID,0,0,0,0,0,1,0,0,0,0,0,0,0,0,0,0,0,0,0,0,243.04,873.35,2,0,0.08,0.08,40,14.29,0.08,0.06,4.28,LANDED,X10-H,0:/Integrated Flight Computer/aircraft/x10_h_cfg.ks (inferred preloaded)
4.68,TAKEOFF,TO_PREFLIGHT,0.05,80,79.95,3.71,1.49,0.13,0.16,-56.17,89.51,0.078,1,0,0,0,0,0,0,0,0,0,0,0,0,0,0,90,0,1,0,7.15,0,0,0,90,0,0,0,0,0,0,0,0,0,0,0,3,0,0,0,69,0,0,0,,0,0,0,0,0,0,0,0,0,0,0,0,0,90,1,0,-0.305,0,0,1,0,0,0,0,0,0,0,2,2,0,0,VALID,0,0,0,0,0,1,0,0,0,0,0,0,0,0,0,0,0,0,0,0,277.43,873.35,2,0,0.08,0.08,44,14.29,0.08,0.06,4.56,LANDED,X10-H,0:/Integrated Flight Computer/aircraft/x10_h_cfg.ks (inferred preloaded)
4.96,TAKEOFF,TO_PREFLIGHT,0.2,80,79.8,3.68,1.5,0.02,-0.06,-14.55,89.5,0.091,1,0,0,0,0,0,0,0,0,0,0,0,0,0,0,90,0,1,0,1.38,0,0,0,90,0,0,0,0,0,0,0,0,0,0,0,3,0,0,0,69,0,0,0,,0,0,0,0,0,0,0,0,0,0,0,0,0,90,1,0,-0.305,0,0,1,0,0,0,0,0,0,0,2,2,0,0,VALID,0,0,0,0,0,1,0,0,0,0,0,0,0,0,0,0,0,0,0,0,309.95,873.35,2,0,0.08,0.08,48,14.29,0.08,0.06,4.84,LANDED,X10-H,0:/Integrated Flight Computer/aircraft/x10_h_cfg.ks (inferred preloaded)
5.24,TAKEOFF,TO_PREFLIGHT,0.25,80,79.75,3.57,1.47,0.05,-0.38,-8.46,89.49,0.1,1,0,0,0,0,0,0,0,0,0,0,0,0,0,0,90,0,1,0,2.92,0,0,0,90,0,0,0,0,0,0,0,0,0,0,0,3,0,0,0,69,0,0,0,,0,0,0,0,0,0,0,0,0,0,0,0,0,90,1,0,-0.305,0,0,1,0,0,0,0,0,0,0,2,2,0,0,VALID,0,0,0,0,0,1,0,0,0,0,0,0,0,0,0,0,0,0,0,0,340.69,873.35,2,0,0.08,0.08,52,14.29,0.08,0.06,5.12,LANDED,X10-H,0:/Integrated Flight Computer/aircraft/x10_h_cfg.ks (inferred preloaded)
5.52,TAKEOFF,TO_PREFLIGHT,0.1,80,79.9,3.62,1.49,-0.07,-0.26,27.26,89.48,0.092,1,0,0,0,0,0,0,0,0,0,0,0,0,0,0,90,0,1,0,-3.86,0,0,0,90,0,0,0,0,0,0,0,0,0,0,0,3,0,0,0,69,0,0,0,,0,0,0,0,0,0,0,0,0,0,0,0,0,90,1,0,-0.305,0,0,1,0,0,0,0,0,0,0,2,2,0,0,VALID,0,0,0,0,0,1,0,0,0,0,0,0,0,0,0,0,0,0,0,0,369.76,873.35,2,0,0.08,0.08,56,14.29,0.08,0.06,5.4,LANDED,X10-H,0:/Integrated Flight Computer/aircraft/x10_h_cfg.ks (inferred preloaded)
5.8,TAKEOFF,TO_PREFLIGHT,0.17,80,79.83,3.62,1.48,0,-0.2,2.76,89.48,0.088,1,0,0,0,0,0,0,0,0,0,0,0,0,0,0,90,0,1,0,0.15,0,0,0,90,0,0,0,0,0,0,0,0,0,0,0,3,0,0,0,69,0,0,0,,0,0,0,0,0,0,0,0,0,0,0,0,0,90,1,0,-0.305,0,0,1,0,0,0,0,0,0,0,2,2,0,0,VALID,0,0,0,0,0,1,0,0,0,0,0,0,0,0,0,0,0,0,0,0,397.24,873.35,2,0,0.08,0.08,60,14.29,0.08,0.06,5.68,LANDED,X10-H,0:/Integrated Flight Computer/aircraft/x10_h_cfg.ks (inferred preloaded)
6.08,TAKEOFF,TO_PREFLIGHT,0.2,80,79.8,3.6,1.48,0.04,-0.29,-11.15,89.47,0.091,1,0,0,0,0,0,0,0,0,0,0,0,0,0,0,90,0,1,0,2.22,0,0,0,90,0,0,0,0,0,0,0,0,0,0,0,3,0,0,0,69,0,0,0,,0,0,0,0,0,0,0,0,0,0,0,0,0,90,1,0,-0.305,0,0,1,0,0,0,0,0,0,0,2,2,0,0,VALID,0,0,0,0,0,1,0,0,0,0,0,0,0,0,0,0,0,0,0,0,423.22,873.35,2,0,0.08,0.08,64,14.29,0.08,0.06,5.96,LANDED,X10-H,0:/Integrated Flight Computer/aircraft/x10_h_cfg.ks (inferred preloaded)
6.36,TAKEOFF,TO_PREFLIGHT,0.23,80,79.77,3.59,1.48,-0.01,-0.35,1.29,89.46,0.093,1,0,0,0,0,0,0,0,0,0,0,0,0,0,0,90,0,1,0,-0.55,0,0,0,90,0,0,0,0,0,0,0,0,0,0,0,3,0,0,0,69,0,0,0,,0,0,0,0,0,0,0,0,0,0,0,0,0,90,1,0,-0.305,0,0,1,0,0,0,0,0,0,0,2,2,0,0,VALID,0,0,0,0,0,1,0,0,0,0,0,0,0,0,0,0,0,0,0,0,447.78,873.35,2,0,0.08,0.08,68,14.29,0.08,0.06,6.24,LANDED,X10-H,0:/Integrated Flight Computer/aircraft/x10_h_cfg.ks (inferred preloaded)
6.64,TAKEOFF,TO_PREFLIGHT,0.27,80,79.73,3.6,1.48,-0.02,-0.28,4.17,89.44,0.092,1,0,0,0,0,0,0,0,0,0,0,0,0,0,0,90,0,1,0,-1.32,0,0,0,90,0,0,0,0,0,0,0,0,0,0,0,3,0,0,0,69,0,0,0,,0,0,0,0,0,0,0,0,0,0,0,0,0,90,1,0,-0.305,0,0,1,0,0,0,0,0,0,0,2,2,0,0,VALID,0,0,0,0,0,1,0,0,0,0,0,0,0,0,0,0,0,0,0,0,471,873.35,2,0,0.08,0.08,72,14.29,0.08,0.06,6.52,LANDED,X10-H,0:/Integrated Flight Computer/aircraft/x10_h_cfg.ks (inferred preloaded)
6.92,TAKEOFF,TO_PREFLIGHT,0.37,80,79.63,3.61,1.48,0.01,-0.27,-1.27,89.43,0.09,1,0,0,0,0,0,0,0,0,0,0,0,0,0,0,90,0,1,0,0.54,0,0,0,90,0,0,0,0,0,0,0,0,0,0,0,3,0,0,0,69,0,0,0,,0,0,0,0,0,0,0,0,0,0,0,0,0,90,1,0,-0.305,0,0,1,0,0,0,0,0,0,0,2,2,0,0,VALID,0,0,0,0,0,1,0,0,0,0,0,0,0,0,0,0,0,0,0,0,492.95,873.35,2,0,0.08,0.08,76,14.29,0.08,0.06,6.8,LANDED,X10-H,0:/Integrated Flight Computer/aircraft/x10_h_cfg.ks (inferred preloaded)
7.2,TAKEOFF,TO_PREFLIGHT,0.53,80,79.47,3.6,1.48,0,-0.31,-0.97,89.41,0.092,1,0,0,0,0,0,0,0,0,0,0,0,0,0,0,90,0,1,0,0.27,0,0,0,90,0,0,0,0,0,0,0,0,0,0,0,3,0,0,0,69,0,0,0,,0,0,0,0,0,0,0,0,0,0,0,0,0,90,1,0,-0.305,0,0,1,0,0,0,0,0,0,0,2,2,0,0,VALID,0,0,0,0,0,1,0,0,0,0,0,0,0,0,0,0,0,0,0,0,513.71,873.34,2,0,0.08,0.08,80,14.29,0.08,0.06,7.08,LANDED,X10-H,0:/Integrated Flight Computer/aircraft/x10_h_cfg.ks (inferred preloaded)
7.48,TAKEOFF,TO_PREFLIGHT,0.72,80,79.28,3.6,1.48,-0.01,-0.31,0.51,89.38,0.093,1,0,0,0,0,0,0,0,0,0,0,0,0,0,0,90,0,1,0,-0.68,0,0,0,90,0,0,0,0,0,0,0,0,0,0,0,3,0,0,0,69,0,0,0,,0,0,0,0,0,0,0,0,0,0,0,0,0,90,1,0,-0.305,0,0,1,0,0,0,0,0,0,0,2,2,0,0,VALID,0,0,0,0,0,1,0,0,0,0,0,0,0,0,0,0,0,0,0,0,533.33,873.34,2,0,0.08,0.08,84,14.29,0.08,0.06,7.36,LANDED,X10-H,0:/Integrated Flight Computer/aircraft/x10_h_cfg.ks (inferred preloaded)
7.76,TAKEOFF,TO_PREFLIGHT,0.89,80,79.11,3.6,1.48,0,-0.3,-0.04,89.36,0.093,1,0,0,0,0,0,0,0,0,0,0,0,0,0,0,90,0,1,0,-0.21,0,0,0,90,0,0,0,0,0,0,0,0,0,0,0,3,0,0,0,69,0,0,0,,0,0,0,0,0,0,0,0,0,0,0,0,0,90,1,0,-0.305,0,0,1,0,0,0,0,0,0,0,2,2,0,0,VALID,0,0,0,0,0,1,0,0,0,0,0,0,0,0,0,0,0,0,0,0,551.88,873.34,2,0,0.08,0.08,88,14.29,0.08,0.06,7.64,LANDED,X10-H,0:/Integrated Flight Computer/aircraft/x10_h_cfg.ks (inferred preloaded)
8.04,TAKEOFF,TO_PREFLIGHT,0.99,80,79.01,3.59,1.47,0,-0.33,-0.54,89.34,0.093,1,0,0,0,0,0,0,0,0,0,0,0,0,0,0,90,0,1,0,0.22,0,0,0,90,0,0,0,0,0,0,0,0,0,0,0,3,0,0,0,69,0,0,0,,0,0,0,0,0,0,0,0,0,0,0,0,0,90,1,0,-0.305,0,0,1,0,0,0,0,0,0,0,2,2,0,0,VALID,0,0,0,0,0,1,0,0,0,0,0,0,0,0,0,0,0,0,0,0,569.42,873.34,2,0,0.08,0.08,92,14.29,0.08,0.06,7.92,LANDED,X10-H,0:/Integrated Flight Computer/aircraft/x10_h_cfg.ks (inferred preloaded)
8.32,TAKEOFF,TO_PREFLIGHT,1.04,80,78.96,3.59,1.47,-0.01,-0.35,-0.05,89.31,0.093,1,0,0,0,0,0,0,0,0,0,0,0,0,0,0,90,0,1,0,-0.34,0,0,0,90,0,0,0,0,0,0,0,0,0,0,0,3,0,0,0,69,0,0,0,,0,0,0,0,0,0,0,0,0,0,0,0,0,90,1,0,-0.305,0,0,1,0,0,0,0,0,0,0,2,2,0,0,VALID,0,0,0,0,0,1,0,0,0,0,0,0,0,0,0,0,0,0,0,0,586.01,873.34,2,0,0.08,0.08,96,14.29,0.08,0.06,8.2,LANDED,X10-H,0:/Integrated Flight Computer/aircraft/x10_h_cfg.ks (inferred preloaded)
8.6,TAKEOFF,TO_PREFLIGHT,1.08,80,78.92,3.59,1.47,-0.01,-0.34,0.07,89.29,0.094,1,0,0,0,0,0,0,0,0,0,0,0,0,0,0,90,0,1,0,-0.42,0,0,0,90,0,0,0,0,0,0,0,0,0,0,0,3,0,0,0,69,0,0,0,,0,0,0,0,0,0,0,0,0,0,0,0,0,90,1,0,-0.305,0,0,1,0,0,0,0,0,0,0,2,2,0,0,VALID,0,0,0,0,0,1,0,0,0,0,0,0,0,0,0,0,0,0,0,0,601.69,873.34,2,0,0.08,0.08,100,14.29,0.08,0.06,8.48,LANDED,X10-H,0:/Integrated Flight Computer/aircraft/x10_h_cfg.ks (inferred preloaded)
8.88,TAKEOFF,TO_PREFLIGHT,1.11,80,78.89,3.59,1.47,0,-0.35,-0.13,89.27,0.094,1,0,0,0,0,0,0,0,0,0,0,0,0,0,0,90,0,1,0,-0.19,0,0,0,90,0,0,0,0,0,0,0,0,0,0,0,3,0,0,0,69,0,0,0,,0,0,0,0,0,0,0,0,0,0,0,0,0,90,1,0,-0.305,0,0,1,0,0,0,0,0,0,0,2,2,0,0,VALID,0,0,0,0,0,1,0,0,0,0,0,0,0,0,0,0,0,0,0,0,616.51,873.33,2,0,0.08,0.08,104,14.29,0.08,0.06,8.76,LANDED,X10-H,0:/Integrated Flight Computer/aircraft/x10_h_cfg.ks (inferred preloaded)
9.16,TAKEOFF,TO_PREFLIGHT,1.14,80,78.86,3.59,1.47,0,-0.36,-0.17,89.24,0.094,1,0,0,0,0,0,0,0,0,0,0,0,0,0,0,90,0,1,0,-0.18,0,0,0,90,0,0,0,0,0,0,0,0,0,0,0,3,0,0,0,69,0,0,0,,0,0,0,0,0,0,0,0,0,0,0,0,0,90,1,0,-0.305,0,0,1,0,0,0,0,0,0,0,2,2,0,0,VALID,0,0,0,0,0,1,0,0,0,0,0,0,0,0,0,0,0,0,0,0,630.52,873.33,2,0,0.08,0.08,108,14.29,0.08,0.06,9.04,LANDED,X10-H,0:/Integrated Flight Computer/aircraft/x10_h_cfg.ks (inferred preloaded)
9.44,TAKEOFF,TO_PREFLIGHT,1.16,80,78.84,3.58,1.47,-0.01,-0.36,-0.07,89.22,0.094,1,0,0,0,0,0,0,0,0,0,0,0,0,0,0,90,0,1,0,-0.34,0,0,0,90,0,0,0,0,0,0,0,0,0,0,0,3,0,0,0,69,0,0,0,,0,0,0,0,0,0,0,0,0,0,0,0,0,90,1,0,-0.305,0,0,1,0,0,0,0,0,0,0,2,2,0,0,VALID,0,0,0,0,0,1,0,0,0,0,0,0,0,0,0,0,0,0,0,0,643.77,873.33,2,0,0.08,0.08,112,14.29,0.08,0.06,9.32,LANDED,X10-H,0:/Integrated Flight Computer/aircraft/x10_h_cfg.ks (inferred preloaded)
9.72,TAKEOFF,TO_PREFLIGHT,1.19,80,78.81,3.58,1.46,-0.01,-0.36,-0.09,89.2,0.094,1,0,0,0,0,0,0,0,0,0,0,0,0,0,0,90,0,1,0,-0.29,0,0,0,90,0,0,0,0,0,0,0,0,0,0,0,3,0,0,0,69,0,0,0,,0,0,0,0,0,0,0,0,0,0,0,0,0,90,1,0,-0.305,0,0,1,0,0,0,0,0,0,0,2,2,0,0,VALID,0,0,0,0,0,1,0,0,0,0,0,0,0,0,0,0,0,0,0,0,656.3,873.33,2,0,0.08,0.08,116,14.29,0.08,0.06,9.6,LANDED,X10-H,0:/Integrated Flight Computer/aircraft/x10_h_cfg.ks (inferred preloaded)
10,TAKEOFF,TO_PREFLIGHT,1.21,80,78.79,3.58,1.46,-0.01,-0.37,-0.12,89.17,0.094,1,0,0,0,0,0,0,0,0,0,0,0,0,0,0,90,0,1,0,-0.28,0,0,0,90,0,0,0,0,0,0,0,0,0,0,0,3,0,0,0,69,0,0,0,,0,0,0,0,0,0,0,0,0,0,0,0,0,90,1,0,-0.305,0,0,1,0,0,0,0,0,0,0,2,2,0,0,VALID,0,0,0,0,0,1,0,0,0,0,0,0,0,0,0,0,0,0,0,0,668.14,873.33,2,0,0.08,0.08,120,14.29,0.08,0.06,9.88,LANDED,X10-H,0:/Integrated Flight Computer/aircraft/x10_h_cfg.ks (inferred preloaded)
10.28,TAKEOFF,TO_PREFLIGHT,1.23,80,78.77,3.58,1.46,-0.01,-0.37,-0.11,89.15,0.095,1,0,0,0,0,0,0,0,0,0,0,0,0,0,0,90,0,1,0,-0.28,0,0,0,90,0,0,0,0,0,0,0,0,0,0,0,3,0,0,0,69,0,0,0,,0,0,0,0,0,0,0,0,0,0,0,0,0,90,1,0,-0.305,0,0,1,0,0,0,0,0,0,0,2,2,0,0,VALID,0,0,0,0,0,1,0,0,0,0,0,0,0,0,0,0,0,0,0,0,679.33,873.33,2,0,0.08,0.08,124,14.29,0.08,0.06,10.16,LANDED,X10-H,0:/Integrated Flight Computer/aircraft/x10_h_cfg.ks (inferred preloaded)
10.58,TAKEOFF,TO_GROUND_ROLL,1.32,80,78.68,3.6,1.47,-0.02,-0.33,0.24,89.13,0.096,1,0,0,0,0,0,0,0,0,0,0,0,0,0,0,90.01,0,1,0,-0.75,0,0,0,90,0,0,0,0,0,0,0,0,0.001,0,0,3,0,0,0,69,0,0,0,,0,0,0,0,0,0,0,0,0,0,0,0,0,90.01,1,0.001,-0.877,0.024,0.563,0,0.024,0,0,0,0,0,0,2,2,0,0,VALID,0,0,0,0,0,1,0,0,0,0,0,0,0,0,0,0,0,0,0,0,690.65,873.33,2,0,0.08,0.08,128,14.29,0.08,0.06,10.44,LANDED,X10-H,0:/Integrated Flight Computer/aircraft/x10_h_cfg.ks (inferred preloaded)
10.86,TAKEOFF,TO_GROUND_ROLL,2.69,80,77.31,3.71,1.46,-0.11,0.1,1.97,89.16,0.073,1,0,0,0,0,0,0,0,0,0,0,0,0,0,0,89.98,0,1,0,-2.49,0,0,0,90,0,0,0,0,0,0,0,0,0.001,0,0,3,0,0,0,69,0,0,0,,0,0,0,0,0,0,0,0,0,0,0,0,0,89.98,1,0.001,-0.823,0.021,0.577,0,0.021,0,0,0,0,0,0,2,2,0,0,VALID,0,0,0,0,0,1,0,0,0,0,0,0,0,0,0,0,0,0,0,0,700.6,873.3,2,0,0.08,0.08,132,14.29,0.08,0.06,10.72,LANDED,X10-H,0:/Integrated Flight Computer/aircraft/x10_h_cfg.ks (inferred preloaded)
11.14,TAKEOFF,TO_GROUND_ROLL,4.56,80,75.44,3.91,1.49,0.23,0.68,-1.76,89.2,0.084,1,0,0,0,0,0,0,0,0,0,0,0,0,0,0,89.97,0,1,0,2.97,0,0,0,90,0,0,0,0,0,0,0,0,0.002,0,0,3,0,0,0,69,0,0,0,,0,0,0,0,0,0,0,0,0,0,0,0,0,89.97,1,0.002,-0.764,0.019,0.596,0,0.019,0,0,0,0,0,0,2,2,0,0,VALID,0,0,0,0,0,1,0,0,0,0,0,0,0,0,0,0,0,0,0,0,709.96,873.22,2,0,0.08,0.08,136,14.29,0.08,0.06,11,LANDED,X10-H,0:/Integrated Flight Computer/aircraft/x10_h_cfg.ks (inferred preloaded)
11.42,TAKEOFF,TO_GROUND_ROLL,6.49,80,73.51,4.15,1.46,-0.22,1.48,3.13,89.27,0.09,1,0,0,0,0,0,0,0,0,0,0,0,0,0,0,89.96,0,1,0,-1.93,0,0,0,90,0,0,0,0,0,0,0,0,0.003,0,0,3,0,0,0,69,0,0,0,,0,0,0,0,0,0,0,0,0,0,0,0,0,89.96,1,0.003,-0.691,0.0167,0.615,0,0.0167,0,0,0,0,0,0,2,2,0,0,VALID,0,0,0,0,0,1,0,0,0,0,0,0,0,0,0,0,0,0,0,0,718.78,873.1,2,0,0.08,0.08,140,14.29,0.08,0.06,11.28,LANDED,X10-H,0:/Integrated Flight Computer/aircraft/x10_h_cfg.ks (inferred preloaded)
11.7,TAKEOFF,TO_GROUND_ROLL,8.43,80,71.57,4.39,1.41,0.02,2.37,2.3,89.34,0.068,1,0,0,0,0,0,0,0,0,0,0,0,0,0,0,89.95,0,1,0,0.08,0,0,0,90,0,0,0,0,0,0,0,0,0.005,0,0,3,0,0,0,69,0,0,0,,0,0,0,0,0,0,0,0,0,0,0,0,0,89.95,1,0.005,-0.607,0.0141,0.634,0,0.0141,0,0,0,0,0,0,2,2,0,0,VALID,0,0,0,0,0,1,0,0,0,0,0,0,0,0,0,0,0,0,0,0,727.08,872.96,2,0,0.08,0.08,144,14.29,0.08,0.06,11.56,LANDED,X10-H,0:/Integrated Flight Computer/aircraft/x10_h_cfg.ks (inferred preloaded)
11.98,TAKEOFF,TO_GROUND_ROLL,10.4,80,69.6,4.66,1.37,-0.13,3.27,3.87,89.44,0.065,1,0,0,0,0,0,0,0,0,0,0,0,0,0,0,89.94,0,1,0,-0.68,0,0,0,90,0,0,0,0,0,0,0,0,0.006,0,0,3,0,0,0,69,0,0,0,,0,0,0,0,0,0,0,0,0,0,0,0,0,89.94,1,0.006,-0.508,0.0107,0.654,0,0.0107,0,0,0,0,0,0,2,2,0,0,VALID,0,0,0,0,0,1,0,0,0,0,0,0,0,0,0,0,0,0,0,0,734.88,872.77,2,0,0.08,0.08,148,14.29,0.08,0.06,11.84,LANDED,X10-H,0:/Integrated Flight Computer/aircraft/x10_h_cfg.ks (inferred preloaded)
12.26,TAKEOFF,TO_GROUND_ROLL,12.39,80,67.61,4.86,1.32,-0.08,4.03,4.37,89.54,0.057,1,0,0,0,0,0,0,0,0,0,0,0,0,0,0,89.94,0,1,0,-0.38,0,0,0,90,0,0,0,0,0,0,0,0,0.008,0,0,3,0,0,0,69,0,0,0,,0,0,0,0,0,0,0,0,0,0,0,0,0,89.94,1,0.008,-0.4,0.007,0.674,0,0.007,0,0,0,0,0,0,2,2,0,0,VALID,0,0,0,0,0,1,0,0,0,0,0,0,0,0,0,0,0,0,0,0,742.23,872.56,2,0,0.08,0.08,152,14.29,0.08,0.06,12.12,LANDED,X10-H,0:/Integrated Flight Computer/aircraft/x10_h_cfg.ks (inferred preloaded)
12.54,TAKEOFF,TO_GROUND_ROLL,14.4,80,65.6,5.02,1.28,-0.1,4.58,4.93,89.65,0.052,1,0,0,0,0,0,0,0,0,0,0,0,0,0,0,89.93,0,1,0,-0.39,0,0,0,90,0,0,0,0,0,0,0,0,0.01,0,0,3,0,0,0,69,0,0,0,,0,0,0,0,0,0,0,0,0,0,0,0,0,89.93,1,0.01,-0.282,0.0028,0.694,0,0.0028,0,0,0,0,0,0,2,2,0,0,VALID,0,0,0,0,0,1,0,0,0,0,0,0,0,0,0,0,0,0,0,0,749.13,872.31,2,0,0.08,0.08,156,14.29,0.08,0.06,12.4,LANDED,X10-H,0:/Integrated Flight Computer/aircraft/x10_h_cfg.ks (inferred preloaded)
12.82,TAKEOFF,TO_GROUND_ROLL,16.42,80,63.58,5.08,1.25,-0.1,4.83,5.16,89.77,0.046,1,0,0,0,0,0,0,0,0,0,0,0,0,0,0,89.93,0,1,0,-0.36,0,0,0,90,0,0,0,0,0,0,0,0,0.011,0,0,3,0,0,0,69,0,0,0,,0,0,0,0,0,0,0,0,0,0,0,0,0,89.93,1,0.011,-0.157,-0.0018,0.714,0,-0.0018,0,0,0,0,0,0,2,2,0,0,VALID,0,0,0,0,0,1,0,0,0,0,0,0,0,0,0,0,0,0,0,0,755.62,872.03,2,0,0.08,0.08,160,14.29,0.08,0.06,12.68,LANDED,X10-H,0:/Integrated Flight Computer/aircraft/x10_h_cfg.ks (inferred preloaded)
13.1,TAKEOFF,TO_GROUND_ROLL,18.46,80,61.54,5.05,1.22,-0.1,4.76,5.03,89.9,0.043,1,0,0,0,0,0,0,0,0,0,0,0,0,0,0,89.93,0,1,0,-0.29,0,0,0,90,0,0,0,0,0,0,0,0,0.012,0,0,3,0,0,0,69,0,0,0,,0,0,0,0,0,0,0,0,0,0,0,0,0,89.93,1,0.012,-0.023,-0.0059,0.735,0,-0.0059,0,0,0,0,0,0,2,2,0,0,VALID,0,0,0,0,0,1,0,0,0,0,0,0,0,0,0,0,0,0,0,0,761.71,871.73,2,0,0.08,0.08,164,14.29,0.08,0.06,12.96,LANDED,X10-H,0:/Integrated Flight Computer/aircraft/x10_h_cfg.ks (inferred preloaded)
13.38,TAKEOFF,TO_GROUND_ROLL,20.51,80,59.49,4.94,1.2,-0.11,4.4,4.67,90.04,0.04,1,0,0,0,0,0,0,0,0,0,0,0,0,0,0,89.92,0,1,0,-0.3,0,0,0,90,0,0,0,0,0,0,0,0,0.013,0,0,3,0,0,0,69,0,0,0,,0,0,0,0,0,0,0,0,0,0,0,0,0,89.92,1,0.013,0.119,-0.0127,0.755,0,-0.0127,0,0,0,0,0,0,2,2,0,0,VALID,0,0,0,0,0,1,0,0,0,0,0,0,0,0,0,0,0,0,0,0,767.43,871.41,2,0,0.08,0.08,168,14.29,0.08,0.06,13.24,LANDED,X10-H,0:/Integrated Flight Computer/aircraft/x10_h_cfg.ks (inferred preloaded)
13.66,TAKEOFF,TO_GROUND_ROLL,22.58,80,57.42,4.77,1.19,-0.1,3.79,4.03,90.19,0.037,1,0,0,0,0,0,0,0,0,0,0,0,0,0,0,89.92,0,1,0,-0.26,0,0,0,90,0,0,0,0,0,0,0,0,0.013,0,0,3,0,0,0,69,0,0,0,,0,0,0,0,0,0,0,0,0,0,0,0,0,89.92,1,0.013,0.268,-0.019,0.776,0,-0.019,0,0,0,0,0,0,2,2,0,0,VALID,0,0,0,0,0,1,0,0,0,0,0,0,0,0,0,0,0,0,0,0,772.8,871.06,2,0,0.08,0.08,172,14.29,0.08,0.06,13.52,LANDED,X10-H,0:/Integrated Flight Computer/aircraft/x10_h_cfg.ks (inferred preloaded)
13.94,TAKEOFF,TO_GROUND_ROLL,24.67,80,55.33,4.55,1.18,-0.12,3.02,3.28,90.34,0.04,1,0,0,0,0,0,0,0,0,0,0,0,0,0,0,89.91,0,1,0,-0.28,0,0,0,90,0,0,0,0,0,0,0,0,0.011,0,0,3,0,0,0,69,0,0,0,,0,0,0,0,0,0,0,0,0,0,0,0,0,89.91,1,0.011,0.424,-0.0258,0.797,0,-0.0258,0,0,0,0,0,0,2,2,0,0,VALID,0,0,0,0,0,1,0,0,0,0,0,0,0,0,0,0,0,0,0,0,777.84,870.7,2,0,0.08,0.08,176,14.29,0.08,0.06,13.8,LANDED,X10-H,0:/Integrated Flight Computer/aircraft/x10_h_cfg.ks (inferred preloaded)
14.22,TAKEOFF,TO_GROUND_ROLL,26.77,80,53.23,4.31,1.16,-0.13,2.2,2.46,90.49,0.044,1,0,0,0,0,0,0,0,0,0,0,0,0,0,0,89.91,0,1,0,-0.28,0,0,0.01,90,0,0,0,0,0,0,0,0,0.009,0,0,3,0,0,0,69,0,0,0,,0,0,0,0,0,0,0,0,0,0,0,0,0,89.91,1,0.009,0.581,-0.0327,0.818,0,-0.0327,0,0,0,0,0,0,2,2,0,0,VALID,0,0,0,0,0,1,0,0,0,0,0,0,0,0,0,0,0,0,0,0,782.56,870.31,2,0,0.08,0.08,180,14.29,0.08,0.06,14.08,LANDED,X10-H,0:/Integrated Flight Computer/aircraft/x10_h_cfg.ks (inferred preloaded)
14.5,TAKEOFF,TO_GROUND_ROLL,28.89,80,51.11,4.09,1.14,-0.15,1.43,1.7,90.64,0.05,1,0,0,0,0,0,0,0,0,0,0,0,0,0,0,89.91,0,1,0,-0.3,0,0,0.01,90,0,0,0,0,0,0,0,0,0.005,0,0,3,0,0,0,69,0,0,0,,0,0,0,0,0,0,0,0,0,0,0,0,0,89.91,1,0.005,0.734,-0.0394,0.839,0,-0.0394,0,0,0,0,0,0,2,2,0,0,VALID,0,0,0,0,0,1,0,0,0,0,0,0,0,0,0,0,0,0,0,0,787,869.92,2,0,0.08,0.08,184,14.29,0.08,0.06,14.36,LANDED,X10-H,0:/Integrated Flight Computer/aircraft/x10_h_cfg.ks (inferred preloaded)
14.78,TAKEOFF,TO_GROUND_ROLL,31.02,80,48.98,3.92,1.12,-0.17,0.8,1.09,90.79,0.054,1,0,0,0,0,0,0,0,0,0,0,0,0,0,0,89.91,0,1,0,-0.3,0,0,0.01,90,0,0,0,0,0,0,0,0,-0.001,0,0,3,0,0,0,69,0,0,0,,0,0,0,0,0,0,0,0,0,0,0,0,0,89.91,1,-0.001,0.879,-0.0456,0.86,0,-0.0456,0,0,0,0,0,0,2,2,0,0,VALID,0,0,0,0,0,1,0,0,0,0,0,0,0,0,0,0,0,0,0,0,791.16,869.52,2,0,0.08,0.08,188,14.29,0.08,0.06,14.64,LANDED,X10-H,0:/Integrated Flight Computer/aircraft/x10_h_cfg.ks (inferred preloaded)
15.06,TAKEOFF,TO_GROUND_ROLL,33.16,80,46.84,3.81,1.06,-0.18,0.4,0.7,90.92,0.058,1,0,0,0,0,0,0,0,0,0,0,0,0,0,0,89.91,0,1,0,-0.31,0,0,0.01,90,0,0,0,0,0,0,0,0,-0.008,0,0,3,0,0,0,69,0,0,0,,0,0,0,0,0,0,0,0,0,0,0,0,0,89.91,1,-0.008,1.005,-0.0508,0.882,0,-0.0508,0,0,0,0,0,0,2,2,0,0,VALID,0,0,0,0,0,1,0,0,0,0,0,0,0,0,0,0,0,0,0,0,795.06,869.11,2,0,0.08,0.08,192,14.29,0.08,0.06,14.92,LANDED,X10-H,0:/Integrated Flight Computer/aircraft/x10_h_cfg.ks (inferred preloaded)
15.34,TAKEOFF,TO_GROUND_ROLL,35.31,80,44.69,3.78,1.01,-0.2,0.27,0.56,91.02,0.068,1,0,0,0,0,0,0,0,0,0,0,0,0,0,0,89.92,0,1,0,-0.32,0,0,0.01,90,0,0,0,0,0,0,0,0,-0.017,0,0,3,0,0,0,69,0,0,0,,0,0,0,0,0,0,0,0,0,0,0,0,0,89.92,1,-0.017,1.103,-0.0543,0.903,0,-0.0543,0,0,0,0,0,0,2,2,0,0,VALID,0,0,0,0,0,1,0,0,0,0,0,0,0,0,0,0,0,0,0,0,798.73,868.7,2,0,0.08,0.08,196,14.29,0.08,0.06,15.2,LANDED,X10-H,0:/Integrated Flight Computer/aircraft/x10_h_cfg.ks (inferred preloaded)
15.62,TAKEOFF,TO_GROUND_ROLL,37.48,80,42.52,3.82,0.95,-0.21,0.4,0.7,91.1,0.074,1,0,0,0,0,0,0,0,0,0,0,0,0,0,0,89.93,0,1,0,-0.32,0,0,0.01,90,0,0,0,0,0,0,0,0,-0.027,0,0,3,0,0,0,69,0,0,0,,0,0,0,0,0,0,0,0,0,0,0,0,0,89.93,1,-0.027,1.169,-0.0562,0.925,0,-0.0562,0,0,0,0,0,0,2,2,0,0,VALID,0,0,0,0,0,1,0,0,0,0,0,0,0,0,0,0,0,0,0,0,802.17,868.29,2,0,0.08,0.08,200,14.29,0.08,0.06,15.48,LANDED,X10-H,0:/Integrated Flight Computer/aircraft/x10_h_cfg.ks (inferred preloaded)
15.9,TAKEOFF,TO_GROUND_ROLL,39.65,80,40.35,3.93,0.89,-0.23,0.77,1.07,91.15,0.079,1,0,0,0,0,0,0,0,0,0,0,0,0,0,0,89.94,0,1,0,-0.32,0,0,0.01,90,0,0,0,0,0,0,0,0,-0.039,0,0,3,0,0,0,69,0,0,0,,0,0,0,0,0,0,0,0,0,0,0,0,0,89.94,1,-0.039,1.205,-0.0566,0.946,0,-0.0566,0,0,0,0,0,0,2,2,0,0,VALID,0,0,0,0,0,1,0,0,0,0,0,0,0,0,0,0,0,0,0,0,805.4,867.89,2,0,0.08,0.08,204,14.29,0.08,0.06,15.76,LANDED,X10-H,0:/Integrated Flight Computer/aircraft/x10_h_cfg.ks (inferred preloaded)
16.18,TAKEOFF,TO_GROUND_ROLL,41.83,80,38.17,4.09,0.81,-0.24,1.32,1.63,91.16,0.085,1,0,0,0,0,0,0,0,0,0,0,0,0,0,0,89.95,0,1,0,-0.33,0,0,0.01,90,0,0,0,0,0,0,0,0,-0.051,0,0,3,0,0,0,69,0,0,0,,0,0,0,0,0,0,0,0,0,0,0,0,0,89.95,1,-0.051,1.209,-0.0557,0.968,0,-0.0557,0,0,0,0,0,0,2,2,0,0,VALID,0,0,0,0,0,1,0,0,0,0,0,0,0,0,0,0,0,0,0,0,808.45,867.49,2,0,0.08,0.08,208,14.29,0.08,0.06,16.04,LANDED,X10-H,0:/Integrated Flight Computer/aircraft/x10_h_cfg.ks (inferred preloaded)
16.46,TAKEOFF,TO_GROUND_ROLL,44.01,80,35.99,4.28,0.73,-0.25,1.96,2.27,91.14,0.087,1,0,0,0,0,0,0,0,0,0,0,0,0,0,0,89.96,0,1,0,-0.33,0,0,0.01,90,0,0,0,0,0,0,0,0,-0.064,0,0,3,0,0,0,69,0,0,0,,0,0,0,0,0,0,0,0,0,0,0,0,0,89.96,1,-0.064,1.179,-0.0528,0.99,0,-0.0528,0,0,0,0,0,0,2,2,0,0,VALID,0,0,0,0,0,1,0,0,0,0,0,0,0,0,0,0,0,0,0,0,811.31,867.11,2,0,0.08,0.08,212,14.29,0.08,0.06,16.32,LANDED,X10-H,0:/Integrated Flight Computer/aircraft/x10_h_cfg.ks (inferred preloaded)
16.74,TAKEOFF,TO_GROUND_ROLL,46.2,80,33.8,4.46,0.64,-0.26,2.61,2.92,91.08,0.096,1,0,0,0,0,0,0,0,0,0,0,0,0,0,0,89.97,0,1,0,-0.33,0,0,0.02,90,0,0,0,0,0,0,0,0,-0.078,0,0,3,0,0,0,69,0,0,0,,0,0,0,0,0,0,0,0,0,0,0,0,0,89.97,1,-0.078,1.106,-0.0464,1,0,-0.0464,0,0,0,0,0,0,2,2,0,0,VALID,0,0,0,0,0,1,0,0,0,0,0,0,0,0,0,0,0,0,0,0,814.01,866.74,2,0,0.08,0.08,216,14.29,0.08,0.06,16.6,LANDED,X10-H,0:/Integrated Flight Computer/aircraft/x10_h_cfg.ks (inferred preloaded)
17.02,TAKEOFF,TO_GROUND_ROLL,48.39,80,31.61,4.62,0.55,-0.27,3.18,3.48,90.97,0.111,1,0,0,0,0,0,0,0,0,0,0,0,0,0,0,89.99,0,1,0,-0.32,0,0,0.02,90,0,0,0,0,0,0,0,0,-0.091,0,0,3,0,0,0,69,0,0,0,,0,0,0,0,0,0,0,0,0,0,0,0,0,89.99,1,-0.091,0.984,-0.0369,1,0,-0.0369,0,0,0,0,0,0,2,2,0,0,VALID,0,0,0,0,0,1,0,0,0,0,0,0,0,0,0,0,0,0,0,0,816.56,866.39,2,0,0.08,0.08,220,14.29,0.08,0.06,16.88,LANDED,X10-H,0:/Integrated Flight Computer/aircraft/x10_h_cfg.ks (inferred preloaded)
17.3,TAKEOFF,TO_GROUND_ROLL,50.59,80,29.41,4.73,0.46,-0.28,3.57,3.87,90.82,0.126,1,0,0,0,0,0,0,0,0,0,0,0,0,0,0,90,0,1,0,-0.31,0,0,0.02,90,0,0,0,0,0,0,0,0,-0.104,0,0,3,0,0,0,69,0,0,0,,0,0,0,0,0,0,0,0,0,0,0,0,0,90,1,-0.104,0.817,-0.0255,1,0,-0.0255,0,0,0,0,0,0,2,2,0,0,VALID,0,0,0,0,0,1,0,0,0,0,0,0,0,0,0,0,0,0,0,0,818.97,866.07,2,0,0.08,0.08,224,14.29,0.08,0.06,17.16,LANDED,X10-H,0:/Integrated Flight Computer/aircraft/x10_h_cfg.ks (inferred preloaded)
17.58,TAKEOFF,TO_GROUND_ROLL,52.79,80,27.21,4.78,0.38,-0.28,3.75,4.04,90.63,0.142,1,0,0,0,0,0,0,0,0,0,0,0,0,0,0,90.01,0,1,0,-0.31,0,0,0.02,90,0,0,0,0,0,0,0,0,-0.115,0,0,3,0,0,0,69,0,0,0,,0,0,0,0,0,0,0,0,0,0,0,0,0,90.01,1,-0.115,0.617,-0.0132,1,0,-0.0132,0,0,0,0,0,0,2,2,0,0,VALID,0,0,0,0,0,1,0,0,0,0,0,0,0,0,0,0,0,0,0,0,821.26,865.77,2,0,0.08,0.08,228,14.29,0.08,0.06,17.44,LANDED,X10-H,0:/Integrated Flight Computer/aircraft/x10_h_cfg.ks (inferred preloaded)
17.86,TAKEOFF,TO_GROUND_ROLL,55,80,25,4.75,0.3,-0.28,3.7,3.97,90.42,0.148,1,0,0,0,0,0,0,0,0,0,0,0,0,0,0,90.01,0,1,0,-0.3,0,0,0.02,90,0,0,0,0,0,0,0,0,-0.123,0,0,3,0,0,0,69,0,0,0,,0,0,0,0,0,0,0,0,0,0,0,0,0,90.01,1,-0.123,0.416,-0.0033,1,0,-0.0033,0,0,0,0,0,0,2,2,0,0,VALID,0,0,0,0,0,1,0,0,0,0,0,0,0,0,0,0,0,0,0,0,823.43,865.51,2,0,0.08,0.08,232,14.29,0.08,0.06,17.72,LANDED,X10-H,0:/Integrated Flight Computer/aircraft/x10_h_cfg.ks (inferred preloaded)
18.14,TAKEOFF,TO_GROUND_ROLL,57.21,80,22.79,4.67,0.23,-0.29,3.42,3.69,90.23,0.118,1,0,0,0,0,0,0,0,0,0,0,0,0,0,0,89.99,0,1,0,-0.29,0,0,0.02,90,0,0,0,0,0,0,0,0,-0.128,0,0,3,0,0,0,69,0,0,0,,0,0,0,0,0,0,0,0,0,0,0,0,0,89.99,1,-0.128,0.245,0.003,1,0,0.003,0,0,0,0,0,0,2,2,0,0,VALID,0,0,0,0,0,1,0,0,0,0,0,0,0,0,0,0,0,0,0,0,825.51,865.27,2,0,0.08,0.08,236,14.29,0.08,0.06,18,LANDED,X10-H,0:/Integrated Flight Computer/aircraft/x10_h_cfg.ks (inferred preloaded)
18.42,TAKEOFF,TO_GROUND_ROLL,59.42,80,20.58,4.54,0.16,-0.3,2.96,3.23,90.07,0.133,1,0,0,0,0,0,0,0,0,0,0,0,0,0,0,89.97,0,1,0,-0.29,0,0,0.02,90,0,0,0,0,0,0,0,0,-0.131,0,0,3,0,0,0,69,0,0,0,,0,0,0,0,0,0,0,0,0,0,0,0,0,89.97,1,-0.131,0.099,0.0078,1,0,0.0078,0,0,0,0,0,0,2,2,0,0,VALID,0,0,0,0,0,1,0,0,0,0,0,0,0,0,0,0,0,0,0,0,827.49,865.08,2,0,0.08,0.08,240,14.29,0.08,0.06,18.28,LANDED,X10-H,0:/Integrated Flight Computer/aircraft/x10_h_cfg.ks (inferred preloaded)
18.7,TAKEOFF,TO_GROUND_ROLL,61.65,80,18.35,4.38,0.09,-0.31,2.4,2.67,89.93,0.14,1,0,0,0,0,0,0,0,0,0,0,0,0,0,0,89.96,0,1,0,-0.28,0,0,0.03,90,0,0,0,0,0,0,0,0,-0.131,0,0,3,0,0,0,69,0,0,0,,0,0,0,0,0,0,0,0,0,0,0,0,0,89.96,1,-0.131,-0.03,0.0106,1,0,0.0106,0,0,0,0,0,0,2,2,0,0,VALID,0,0,0,0,0,1,0,0,0,0,0,0,0,0,0,0,0,0,0,0,829.39,864.92,2,0,0.08,0.08,244,14.29,0.08,0.06,18.56,LANDED,X10-H,0:/Integrated Flight Computer/aircraft/x10_h_cfg.ks (inferred preloaded)
18.98,TAKEOFF,TO_GROUND_ROLL,63.88,80,16.12,4.2,0.01,-0.32,1.8,2.07,89.8,0.134,1,0,0,0,0,0,0,0,0,0,0,0,0,0,0,89.95,0,1,0,-0.28,0,0,0.03,90,0,0,0,0,0,0,0,0,-0.13,0,0,3,0,0,0,69,0,0,0,,0,0,0,0,0,0,0,0,0,0,0,0,0,89.95,1,-0.13,-0.144,0.0162,1,0,0.0162,0,0,0,0,0,0,2,2,0,0,VALID,0,0,0,0,0,1,0,0,0,0,0,0,0,0,0,0,0,0,0,0,831.22,864.82,2,0,0.08,0.08,248,14.29,0.08,0.06,18.84,LANDED,X10-H,0:/Integrated Flight Computer/aircraft/x10_h_cfg.ks (inferred preloaded)
19.26,TAKEOFF,TO_GROUND_ROLL,66.12,80,13.88,4.05,-0.06,-0.33,1.24,1.51,89.69,0.133,1,0,0,0,0,0,0,0,0,0,0,0,0,0,0,89.94,0,1,0,-0.28,0,0,0.03,90,0,0,0,0,0,0,0,0,-0.126,0,0,3,0,0,0,69,0,0,0,,0,0,0,0,0,0,0,0,0,0,0,0,0,89.94,1,-0.126,-0.246,0.0199,1,0,0.0199,0,0,0,0,0,0,2,2,0,0,VALID,0,0,0,0,0,1,0,0,0,0,0,0,0,0,0,0,0,0,0,0,832.99,864.76,2,0,0.08,0.08,252,14.29,0.08,0.06,19.12,LANDED,X10-H,0:/Integrated Flight Computer/aircraft/x10_h_cfg.ks (inferred preloaded)
19.54,TAKEOFF,TO_GROUND_ROLL,68.37,80,11.63,3.92,-0.15,-0.34,0.8,1.07,89.6,0.136,1,0,0,0,0,0,0,0,0,0,0,0,0,0,0,89.94,0,1,0,-0.28,0,0,0.03,90,0,0,0,0,0,0,0,0,-0.12,0,0,3,0,0,0,69,0,0,0,,0,0,0,0,0,0,0,0,0,0,0,0,0,89.94,1,-0.12,-0.336,0.023,1,0,0.023,0,0,0,0,0,0,2,2,0,0,VALID,0,0,0,0,0,1,0,0,0,0,0,0,0,0,0,0,0,0,0,0,834.73,864.77,2,0,0.08,0.08,256,14.29,0.08,0.06,19.4,LANDED,X10-H,0:/Integrated Flight Computer/aircraft/x10_h_cfg.ks (inferred preloaded)
19.82,TAKEOFF,TO_GROUND_ROLL,70.62,80,9.38,3.85,-0.25,-0.35,0.53,0.8,89.53,0.126,1,0,0,0,0,0,0,0,0,0,0,0,0,0,0,89.93,0,1,0,-0.28,0,0,0.03,90,0,0,0,0,0,0,0,0,-0.113,0,0,3,0,0,0,69,0,0,0,,0,0,0,0,0,0,0,0,0,0,0,0,0,89.93,1,-0.113,-0.404,0.0245,1,0,0.0245,0,0,0,0,0,0,2,2,0,0,VALID,0,0,0,0,0,1,0,0,0,0,0,0,0,0,0,0,0,0,0,0,836.89,865.37,2,0,0.08,0.08,260,14.29,0.08,0.06,19.68,LANDED,X10-H,0:/Integrated Flight Computer/aircraft/x10_h_cfg.ks (inferred preloaded)
20.1,TAKEOFF,TO_GROUND_ROLL,72.88,80,7.12,3.83,-0.34,-0.36,0.44,0.71,89.48,0.111,1,0,0,0,0,0,0,0,0,0,0,0,0,0,0,89.92,0,1,0,-0.28,0,0,0.04,90,0,0,0,0,0,0,0,0,-0.104,0,0,3,0,0,0,69,0,0,0,,0,0,0,0,0,0,0,0,0,0,0,0,0,89.92,1,-0.104,-0.446,0.0243,1,0,0.0243,0,0,0,0,0,0,2,2,0,0,VALID,0,0,0,0,0,1,0,0,0,0,0,0,0,0,0,0,0,0,0,0,839.71,866.73,2,0,0.08,0.08,264,14.29,0.08,0.06,19.96,LANDED,X10-H,0:/Integrated Flight Computer/aircraft/x10_h_cfg.ks (inferred preloaded)
20.38,TAKEOFF,TO_GROUND_ROLL,75.15,80,4.85,3.86,-0.44,-0.37,0.55,0.81,89.46,0.095,1,0,0,0,0,0,0,0,0,0,0,0,0,0,0,89.91,0,1,0,-0.28,0,0,0.04,90,0,0,0,0,0,0,0,0,-0.093,0,0,3,0,0,0,69,0,0,0,,0,0,0,0,0,0,0,0,0,0,0,0,0,89.91,1,-0.093,-0.457,0.0226,1,0,0.0226,0,0,0,0,0,0,2,2,0,0,VALID,0,0,0,0,0,1,0,0,0,0,0,0,0,0,0,0,0,0,0,0,843.16,868.83,2,0,0.08,0.08,268,14.29,0.08,0.06,20.24,LANDED,X10-H,0:/Integrated Flight Computer/aircraft/x10_h_cfg.ks (inferred preloaded)
20.66,TAKEOFF,TO_GROUND_ROLL,77.43,80,2.57,3.94,-0.55,-0.38,0.81,1.07,89.47,0.076,1,0,0,0,0,0,0,0,0,0,0,0,0,0,0,89.9,0,1,0,-0.28,0,0,0.04,90,0,0,0,0,0,0,0,0,-0.083,0,0,3,0,0,0,69,0,0,0,,0,0,0,0,0,0,0,0,0,0,0,0,0,89.9,1,-0.083,-0.434,0.0188,1,0,0.0188,0,0,0,0,0,0,2,2,0,0,VALID,0,0,0,0,0,1,0,0,0,0,0,0,0,0,0,0,0,0,0,0,847.23,871.64,2,0,0.08,0.08,272,14.29,0.08,0.06,20.52,LANDED,X10-H,0:/Integrated Flight Computer/aircraft/x10_h_cfg.ks (inferred preloaded)
20.94,TAKEOFF,TO_GROUND_ROLL,79.71,80,0.29,4.04,-0.66,-0.39,1.18,1.44,89.51,0.054,1,0,0,0,0,0,0,0,0,0,0,0,0,0,0,89.89,0,1,0,-0.28,0,0,0.04,90,0,0,0,0,0,0,0,0,-0.072,0,0,3,0,0,0,69,0,0,0,,0,0,0,0,0,0,0,0,0,0,0,0,0,89.89,1,-0.072,-0.379,0.0135,1,0,0.0135,0,0,0,0,0,0,2,2,0,0,VALID,0,0,0,0,0,1,0,0,0,0,0,0,0,0,0,0,0,0,0,0,851.9,875.12,2,0,0.08,0.08,276,14.29,0.08,0.06,20.8,LANDED,X10-H,0:/Integrated Flight Computer/aircraft/x10_h_cfg.ks (inferred preloaded)
21.22,TAKEOFF,TO_GROUND_ROLL,82.01,80,-2.01,4.16,-0.78,-0.4,1.59,1.85,89.59,0.035,1,0,0,0,0,0,0,0,0,0,0,0,0,0,0,89.88,0,1,0,-0.28,0,0,0.04,90,0,0,0,0,0,0,0,0,-0.063,0,0,3,0,0,0,69,0,0,0,,0,0,0,0,0,0,0,0,0,0,0,0,0,89.88,1,-0.063,-0.289,0.0066,1,0,0.0066,0,0,0,0,0,0,2,2,0,0,VALID,0,0,0,0,0,1,0,0,0,0,0,0,0,0,0,0,0,0,0,0,857.13,879.24,2,0,0.08,0.08,280,14.29,0.08,0.06,21.08,LANDED,X10-H,0:/Integrated Flight Computer/aircraft/x10_h_cfg.ks (inferred preloaded)
21.5,TAKEOFF,TO_GROUND_ROLL,84.31,80,-4.31,4.28,-0.9,-0.4,1.98,2.24,89.7,0.008,1,0,0,0,0,0,0,0,0,0,0,0,0,0,0,89.87,0,1,0,-0.27,0,0,0.05,90,0,0,0,0,0,0,0,0,-0.055,0,0,3,0,0,0,69,0,0,0,,0,0,0,0,0,0,0,0,0,0,0,0,0,89.87,1,-0.055,-0.163,-0.0022,1,0,-0.0022,0,0,0,0,0,0,2,2,0,0,VALID,0,0,0,0,0,1,0,0,0,0,0,0,0,0,0,0,0,0,0,0,862.9,883.98,2,0,0.08,0.08,284,14.29,0.08,0.06,21.36,LANDED,X10-H,0:/Integrated Flight Computer/aircraft/x10_h_cfg.ks (inferred preloaded)
21.78,TAKEOFF,TO_GROUND_ROLL,86.63,80,-6.63,4.36,-1.03,-0.41,2.28,2.54,89.85,-0.014,1,0,0,0,0,0,0,0,0,0,0,0,0,0,0,89.85,0,1,0,-0.27,0,0,0.05,90,0,0,0,0,0,0,0,0,-0.049,0,0,3,0,0,0,69,0,0,0,,0,0,0,0,0,0,0,0,0,0,0,0,0,89.85,1,-0.049,-0.004,-0.01,1,0,-0.01,0,0,0,0,0,0,2,2,0,0,VALID,0,0,0,0,0,1,0,0,0,0,0,0,0,0,0,0,0,0,0,0,869.19,889.3,2,0,0.08,0.08,288,14.29,0.08,0.06,21.64,LANDED,X10-H,0:/Integrated Flight Computer/aircraft/x10_h_cfg.ks (inferred preloaded)
22.06,TAKEOFF,TO_GROUND_ROLL,88.96,80,-8.96,4.41,-1.15,-0.41,2.46,2.71,90.02,-0.035,1,0,0,0,0,0,0,0,0,0,0,0,0,0,0,89.84,0,1,0,-0.27,0,0,0.05,90,0,0,0,0,0,0,0,0,-0.047,0,0,3,0,0,0,69,0,0,0,,0,0,0,0,0,0,0,0,0,0,0,0,0,89.84,1,-0.047,0.18,-0.023,1,0,-0.023,0,0,0,0,0,0,2,2,0,0,VALID,0,0,0,0,0,1,0,0,0,0,0,0,0,0,0,0,0,0,0,0,875.98,895.17,2,0,0.08,0.08,292,14.29,0.08,0.06,21.92,LANDED,X10-H,0:/Integrated Flight Computer/aircraft/x10_h_cfg.ks (inferred preloaded)
22.34,TAKEOFF,TO_GROUND_ROLL,91.31,80,-11.31,4.41,-1.26,-0.42,2.47,2.72,90.21,-0.054,1,0,0,0,0,0,0,0,0,0,0,0,0,0,0,89.83,0,1,0,-0.26,0,0,0.05,90,0,0,0,0,0,0,0,0,-0.048,0,0,3,0,0,0,69,0,0,0,,0,0,0,0,0,0,0,0,0,0,0,0,0,89.83,1,-0.048,0.382,-0.0338,1,0,-0.0338,0,0,0,0,0,0,2,2,0,0,VALID,0,0,0,0,0,1,0,0,0,0,0,0,0,0,0,0,0,0,0,0,883.25,901.58,2,0,0.08,0.08,296,14.29,0.08,0.06,22.2,LANDED,X10-H,0:/Integrated Flight Computer/aircraft/x10_h_cfg.ks (inferred preloaded)
22.62,TAKEOFF,TO_GROUND_ROLL,93.68,80,-13.68,4.36,-1.38,-0.42,2.33,2.58,90.4,-0.039,1,0,0,0,0,0,0,0,0,0,0,0,0,0,0,89.83,0,1,0,-0.26,0,0,0.06,90,0,0,0,0,0,0,0,0,-0.055,0,0,3,0,0,0,69,0,0,0,,0,0,0,0,0,0,0,0,0,0,0,0,0,89.83,1,-0.055,0.569,-0.0417,1,0,-0.0417,0,0,0,0,0,0,2,2,0,0,VALID,0,0,0,0,0,1,0,0,0,0,0,0,0,0,0,0,0,0,0,0,890.97,908.49,2,0,0.08,0.08,300,14.29,0.08,0.06,22.48,LANDED,X10-H,0:/Integrated Flight Computer/aircraft/x10_h_cfg.ks (inferred preloaded)
22.9,TAKEOFF,TO_GROUND_ROLL,96.06,80,-16.06,4.28,-1.49,-0.43,2.06,2.3,90.57,-0.029,1,0,0,0,0,0,0,0,0,0,0,0,0,0,0,89.83,0,1,0,-0.26,0,0,0.06,90,0,0,0,0,0,0,0,0,-0.066,0,0,3,0,0,0,69,0,0,0,,0,0,0,0,0,0,0,0,0,0,0,0,0,89.83,1,-0.066,0.739,-0.0481,1,0,-0.0481,0,0,0,0,0,0,2,2,0,0,VALID,0,0,0,0,0,1,0,0,0,0,0,0,0,0,0,0,0,0,0,0,899.13,915.89,2,0,0.08,0.08,304,14.29,0.08,0.06,22.76,LANDED,X10-H,0:/Integrated Flight Computer/aircraft/x10_h_cfg.ks (inferred preloaded)
23.18,TAKEOFF,TO_GROUND_ROLL,98.48,80,-18.48,4.18,-1.6,-0.43,1.7,1.94,90.72,-0.015,1,0,0,0,0,0,0,0,0,0,0,0,0,0,0,89.83,0,1,0,-0.25,0,0,0.06,90,0,0,0,0,0,0,0,0,-0.082,0,0,3,0,0,0,69,0,0,0,,0,0,0,0,0,0,0,0,0,0,0,0,0,89.83,1,-0.082,0.886,-0.0532,1,0,-0.0532,0,0,0,0,0,0,2,2,0,0,VALID,0,0,0,0,0,1,0,0,0,0,0,0,0,0,0,0,0,0,0,0,907.71,923.74,2,0,0.08,0.08,308,14.29,0.08,0.06,23.04,LANDED,X10-H,0:/Integrated Flight Computer/aircraft/x10_h_cfg.ks (inferred preloaded)
23.46,TAKEOFF,TO_GROUND_ROLL,100.92,80,-20.92,4.06,-1.71,-0.44,1.3,1.54,90.84,0.007,1,0,0,0,0,0,0,0,0,0,0,0,0,0,0,89.82,0,1,0,-0.25,0,0,0.06,90,0,0,0,0,0,0,0,0,-0.101,0,0,3,0,0,0,69,0,0,0,,0,0,0,0,0,0,0,0,0,0,0,0,0,89.82,1,-0.101,1.016,-0.0575,1,0,-0.0575,0,0,0,0,0,0,2,2,0,0,VALID,0,0,0,0,0,1,0,0,0,0,0,0,0,0,0,0,0,0,0,0,916.68,932.03,2,0,0.08,0.08,312,14.29,0.08,0.06,23.32,LANDED,X10-H,0:/Integrated Flight Computer/aircraft/x10_h_cfg.ks (inferred preloaded)
23.74,TAKEOFF,TO_GROUND_ROLL,103.39,80,-23.39,3.95,-1.83,-0.45,0.92,1.16,90.94,0.026,1,0,0,0,0,0,0,0,0,0,0,0,0,0,0,89.82,0,1,0,-0.25,0,0,0.07,90,0,0,0,0,0,0,0,0,-0.125,0,0,3,0,0,0,69,0,0,0,,0,0,0,0,0,0,0,0,0,0,0,0,0,89.82,1,-0.125,1.117,-0.06,1,0,-0.06,0,0,0,0,0,0,2,2,0,0,VALID,0,0,0,0,0,1,0,0,0,0,0,0,0,0,0,0,0,0,0,0,926.02,940.73,2,0,0.08,0.08,316,14.29,0.08,0.06,23.6,LANDED,X10-H,0:/Integrated Flight Computer/aircraft/x10_h_cfg.ks (inferred preloaded)
24.02,TAKEOFF,TO_GROUND_ROLL,105.89,80,-25.89,3.86,-1.95,-0.45,0.61,0.84,91,0.056,1,0,0,0,0,0,0,0,0,0,0,0,0,0,0,89.82,0,1,0,-0.25,0,0,0.07,90,0,0,0,0,0,0,0,0,-0.151,0,0,3,0,0,0,69,0,0,0,,0,0,0,0,0,0,0,0,0,0,0,0,0,89.82,1,-0.151,1.18,-0.0599,1,0,-0.0599,0,0,0,0,0,0,2,2,0,0,VALID,0,0,0,0,0,1,0,0,0,0,0,0,0,0,0,0,0,0,0,0,935.7,949.79,2,0,0.08,0.08,320,14.29,0.08,0.06,23.88,LANDED,X10-H,0:/Integrated Flight Computer/aircraft/x10_h_cfg.ks (inferred preloaded)
24.3,TAKEOFF,TO_GROUND_ROLL,108.42,80,-28.42,3.81,-2.09,-0.46,0.4,0.63,91.02,0.089,1,0,0,0,0,0,0,0,0,0,0,0,0,0,0,89.82,0,1,0,-0.24,0,0,0.07,90,0,0,0,0,0,0,0,0,-0.179,0,0,3,0,0,0,69,0,0,0,,0,0,0,0,0,0,0,0,0,0,0,0,0,89.82,1,-0.179,1.209,-0.0582,1,0,-0.0582,0,0,0,0,0,0,2,2,0,0,VALID,0,0,0,0,0,1,0,0,0,0,0,0,0,0,0,0,0,0,0,0,945.68,959.18,2,0,0.08,0.08,324,14.29,0.08,0.06,24.16,LANDED,X10-H,0:/Integrated Flight Computer/aircraft/x10_h_cfg.ks (inferred preloaded)
24.58,TAKEOFF,TO_GROUND_ROLL,110.97,80,-30.97,3.78,-2.22,-0.46,0.31,0.54,91,0.125,1,0,0,0,0,0,0,0,0,0,0,0,0,0,0,89.82,0,1,0,-0.24,0,0,0.08,90,0,0,0,0,0,0,0,0,-0.208,0,0,3,0,0,0,69,0,0,0,,0,0,0,0,0,0,0,0,0,0,0,0,0,89.82,1,-0.208,1.185,-0.0531,1,0,-0.0531,0,0,0,0,0,0,2,2,0,0,VALID,0,0,0,0,0,1,0,0,0,0,0,0,0,0,0,0,0,0,0,0,955.92,968.86,2,0,0.08,0.08,328,14.29,0.08,0.06,24.44,LANDED,X10-H,0:/Integrated Flight Computer/aircraft/x10_h_cfg.ks (inferred preloaded)
24.86,TAKEOFF,TO_GROUND_ROLL,113.56,80,-33.56,3.79,-2.35,-0.47,0.34,0.56,90.93,0.167,1,0,0,0,0,0,0,0,0,0,0,0,0,0,0,89.82,0,1,0,-0.24,0,0,0.08,90,0,0,0,0,0,0,0,0,-0.236,0,0,3,0,0,0,69,0,0,0,,0,0,0,0,0,0,0,0,0,0,0,0,0,89.82,1,-0.236,1.114,-0.0459,1,0,-0.0459,0,0,0,0,0,0,2,2,0,0,VALID,0,0,0,0,0,1,0,0,0,0,0,0,0,0,0,0,0,0,0,0,966.37,978.78,2,0,0.08,0.08,332,14.29,0.08,0.06,24.72,LANDED,X10-H,0:/Integrated Flight Computer/aircraft/x10_h_cfg.ks (inferred preloaded)
25.14,TAKEOFF,TO_GROUND_ROLL,116.17,80,-36.17,3.83,-2.49,-0.47,0.47,0.69,90.81,0.213,1,0,0,0,0,0,0,0,0,0,0,0,0,0,0,89.83,0,1,0,-0.23,0,0,0.08,90,0,0,0,0,0,0,0,0,-0.263,0,0,3,0,0,0,69,0,0,0,,0,0,0,0,0,0,0,0,0,0,0,0,0,89.83,1,-0.263,0.985,-0.0355,1,0,-0.0355,0,0,0,0,0,0,2,2,0,0,VALID,0,0,0,0,0,1,0,0,0,0,0,0,0,0,0,0,0,0,0,0,976.99,988.89,2,0,0.08,0.08,336,14.29,0.08,0.06,25,LANDED,X10-H,0:/Integrated Flight Computer/aircraft/x10_h_cfg.ks (inferred preloaded)
25.42,TAKEOFF,TO_GROUND_ROLL,118.82,80,-38.82,3.89,-2.63,-0.47,0.66,0.88,90.64,0.257,1,0,0,0,0,0,0,0,0,0,0,0,0,0,0,89.84,0,1,0,-0.23,0,0,0.09,90,0,0,0,0,0,0,0,0,-0.286,0,0,3,0,0,0,69,0,0,0,,0,0,0,0,0,0,0,0,0,0,0,0,0,89.84,1,-0.286,0.803,-0.0229,1,0,-0.0229,0,0,0,0,0,0,2,2,0,0,VALID,0,0,0,0,0,1,0,0,0,0,0,0,0,0,0,0,0,0,0,0,987.73,999.14,2,0,0.08,0.08,340,14.29,0.08,0.06,25.28,LANDED,X10-H,0:/Integrated Flight Computer/aircraft/x10_h_cfg.ks (inferred preloaded)
25.7,TAKEOFF,TO_GROUND_ROLL,121.49,80,-41.49,3.95,-2.76,-0.48,0.87,1.08,90.42,0.297,1,0,0,0,0,0,0,0,0,0,0,0,0,0,0,89.84,0,1,0,-0.22,0,0,0.09,90,0,0,0,0,0,0,0,0,-0.304,0,0,3,0,0,0,69,0,0,0,,0,0,0,0,0,0,0,0,0,0,0,0,0,89.84,1,-0.304,0.574,-0.0088,1,0,-0.0088,0,0,0,0,0,0,2,2,0,0,VALID,0,0,0,0,0,1,0,0,0,0,0,0,0,0,0,0,0,0,0,0,998.53,1009.46,2,0,0.08,0.08,344,14.29,0.08,0.06,25.56,LANDED,X10-H,0:/Integrated Flight Computer/aircraft/x10_h_cfg.ks (inferred preloaded)
25.98,TAKEOFF,TO_GROUND_ROLL,124.18,80,-44.18,4,-2.9,-0.48,1.05,1.26,90.16,0.321,1,0,0,0,0,0,0,0,0,0,0,0,0,0,0,89.85,0,1,0,-0.22,0,0,0.09,90,0,0,0,0,0,0,0,0,-0.315,0,0,3,0,0,0,69,0,0,0,,0,0,0,0,0,0,0,0,0,0,0,0,0,89.85,1,-0.315,0.31,0.0064,1,0,0.0064,0,0,0,0,0,0,2,2,0,0,VALID,0,0,0,0,0,1,0,0,0,0,0,0,0,0,0,0,0,0,0,0,1009.33,1019.8,2,0,0.08,0.08,348,14.29,0.08,0.06,25.84,LANDED,X10-H,0:/Integrated Flight Computer/aircraft/x10_h_cfg.ks (inferred preloaded)
26.26,TAKEOFF,TO_GROUND_ROLL,126.91,80,-46.91,4.04,-3.03,-0.48,1.18,1.38,89.89,0.318,1,0,0,0,0,0,0,0,0,0,0,0,0,0,0,89.86,0,1,0,-0.22,0,0,0.1,90,0,0,0,0,0,0,0,0,-0.317,0,0,3,0,0,0,69,0,0,0,,0,0,0,0,0,0,0,0,0,0,0,0,0,89.86,1,-0.317,0.035,0.0176,1,0,0.0176,0,0,0,0,0,0,2,2,0,0,VALID,0,0,0,0,0,1,0,0,0,0,0,0,0,0,0,0,0,0,0,0,1020.07,1030.1,2,0,0.08,0.08,352,14.29,0.08,0.06,26.12,LANDED,X10-H,0:/Integrated Flight Computer/aircraft/x10_h_cfg.ks (inferred preloaded)
26.54,TAKEOFF,TO_GROUND_ROLL,129.66,80,-49.66,4.05,-3.16,-0.48,1.22,1.43,89.63,0.311,1,0,0,0,0,0,0,0,0,0,0,0,0,0,0,89.86,0,1,0,-0.21,0,0,0.1,90,0,0,0,0,0,0,0,0,-0.311,0,0,3,0,0,0,69,0,0,0,,0,0,0,0,0,0,0,0,0,0,0,0,0,89.86,1,-0.311,-0.23,0.0318,1,0,0.0318,0,0,0,0,0,0,2,2,0,0,VALID,0,0,0,0,0,1,0,0,0,0,0,0,0,0,0,0,0,0,0,0,1030.7,1040.31,2,0,0.08,0.08,356,14.29,0.08,0.06,26.4,LANDED,X10-H,0:/Integrated Flight Computer/aircraft/x10_h_cfg.ks (inferred preloaded)
26.82,TAKEOFF,TO_GROUND_ROLL,132.45,80,-52.45,4.03,-3.29,-0.48,1.18,1.37,89.38,0.302,1,0,0,0,0,0,0,0,0,0,0,0,0,0,0,89.86,0,1,0,-0.21,0,0,0.1,90,0,0,0,0,0,0,0,0,-0.296,0,0,3,0,0,0,69,0,0,0,,0,0,0,0,0,0,0,0,0,0,0,0,0,89.86,1,-0.296,-0.477,0.0419,1,0,0.0419,0,0,0,0,0,0,2,2,0,0,VALID,0,0,0,0,0,1,0,0,0,0,0,0,0,0,0,0,0,0,0,0,1041.48,1050.71,2,0,0.08,0.08,360,14.29,0.08,0.06,26.68,LANDED,X10-H,0:/Integrated Flight Computer/aircraft/x10_h_cfg.ks (inferred preloaded)
27.1,TAKEOFF,TO_GROUND_ROLL,135.26,80,-55.26,3.99,-3.43,-0.48,1.04,1.24,89.17,0.277,1,0,0,0,0,0,0,0,0,0,0,0,0,0,0,89.85,0,1,0,-0.2,0,0,0.11,90,0,0,0,0,0,0,0,0,-0.273,0,0,3,0,0,0,69,0,0,0,,0,0,0,0,0,0,0,0,0,0,0,0,0,89.85,1,-0.273,-0.683,0.0481,1,0,0.0481,0,0,0,0,0,0,2,2,0,0,VALID,0,0,0,0,0,1,0,0,0,0,0,0,0,0,0,0,0,0,0,0,1052.55,1061.42,2,0,0.08,0.08,364,14.29,0.08,0.06,26.96,LANDED,X10-H,0:/Integrated Flight Computer/aircraft/x10_h_cfg.ks (inferred preloaded)
27.38,TAKEOFF,TO_GROUND_ROLL,138.11,80,-58.11,3.93,-3.56,-0.48,0.83,1.02,89.01,0.24,1,0,0,0,0,0,0,0,0,0,0,0,0,0,0,89.85,0,1,0,-0.2,0,0,0.11,90,0,0,0,0,0,0,0,0,-0.242,0,0,3,0,0,0,69,0,0,0,,0,0,0,0,0,0,0,0,0,0,0,0,0,89.85,1,-0.242,-0.847,0.0519,1,0,0.0519,0,0,0,0,0,0,2,2,0,0,VALID,0,0,0,0,0,1,0,0,0,0,0,0,0,0,0,0,0,0,0,0,1063.91,1072.44,2,0,0.08,0.08,368,14.29,0.08,0.06,27.24,LANDED,X10-H,0:/Integrated Flight Computer/aircraft/x10_h_cfg.ks (inferred preloaded)
27.66,TAKEOFF,TO_GROUND_ROLL,140.99,80,-60.99,3.85,-3.69,-0.48,0.58,0.77,88.89,0.184,1,0,0,0,0,0,0,0,0,0,0,0,0,0,0,89.86,0,1,0,-0.19,0,0,0.11,90,0,0,0,0,0,0,0,0,-0.205,0,0,3,0,0,0,69,0,0,0,,0,0,0,0,0,0,0,0,0,0,0,0,0,89.86,1,-0.205,-0.962,0.0532,1,0,0.0532,0,0,0,0,0,0,2,2,0,0,VALID,0,0,0,0,0,1,0,0,0,0,0,0,0,0,0,0,0,0,0,0,1075.59,1083.8,2,0,0.08,0.08,372,14.29,0.08,0.06,27.52,LANDED,X10-H,0:/Integrated Flight Computer/aircraft/x10_h_cfg.ks (inferred preloaded)
27.94,TAKEOFF,TO_GROUND_ROLL,143.91,80,-63.91,3.78,-3.82,-0.48,0.33,0.52,88.85,0.118,1,0,0,0,0,0,0,0,0,0,0,0,0,0,0,89.85,0,1,0,-0.19,0,0,0.12,90,0,0,0,0,0,0,0,0,-0.164,0,0,3,0,0,0,69,0,0,0,,0,0,0,0,0,0,0,0,0,0,0,0,0,89.85,1,-0.164,-1.005,0.0497,1,0,0.0497,0,0,0,0,0,0,2,2,0,0,VALID,0,0,0,0,0,1,0,0,0,0,0,0,0,0,0,0,0,0,0,0,1087.6,1095.51,2,0,0.08,0.08,376,14.29,0.08,0.06,27.8,LANDED,X10-H,0:/Integrated Flight Computer/aircraft/x10_h_cfg.ks (inferred preloaded)
28.22,TAKEOFF,TO_GROUND_ROLL,146.88,80,-66.88,3.72,-3.95,-0.48,0.12,0.3,88.87,0.04,1,0,0,0,0,0,0,0,0,0,0,0,0,0,0,89.85,0,1,0,-0.19,0,0,0.12,90,0,0,0,0,0,0,0,0,-0.122,0,0,3,0,0,0,69,0,0,0,,0,0,0,0,0,0,0,0,0,0,0,0,0,89.85,1,-0.122,-0.972,0.0421,1,0,0.0421,0,0,0,0,0,0,2,2,0,0,VALID,0,0,0,0,0,1,0,0,0,0,0,0,0,0,0,0,0,0,0,0,1099.94,1107.56,2,0,0.08,0.08,380,14.29,0.08,0.06,28.08,LANDED,X10-H,0:/Integrated Flight Computer/aircraft/x10_h_cfg.ks (inferred preloaded)
28.5,TAKEOFF,TO_GROUND_ROLL,149.88,80,-69.88,3.67,-4.08,-0.56,-0.03,0.17,88.99,-0.063,1,0,0,0,0,0,0,0,0,0,0,0,0,0,0,89.82,0,1,0,-0.21,0,0,0.13,90,0,0,0,0,0,0,0,0,-0.081,0,0,3,0,0,0,69,0,0,0,,0,0,0,0,0,0,0,0,0,0,0,0,0,89.82,1,-0.081,-0.835,0.0277,1,0,0.0277,0,0,0,0,0,0,2,2,0,0,VALID,0,0,0,0,0,1,0,0,0,0,0,0,0,0,0,0,0,0,0,0,1112.62,1119.97,2,0,0.08,0.08,384,14.29,0.08,0.06,28.36,LANDED,X10-H,0:/Integrated Flight Computer/aircraft/x10_h_cfg.ks (inferred preloaded)
28.78,TAKEOFF,TO_GROUND_ROLL,152.87,80,-72.87,3.64,-4.25,-0.47,-0.09,0.09,89.2,-0.217,1,0,0,0,0,0,0,0,0,0,0,0,0,0,0,89.8,0,1,0,-0.18,0,0,0.13,90,0,0,0,0,0,0,0,0,-0.044,0,0,3,0,0,0,69,0,0,0,,0,0,0,0,0,0,0,0,0,0,0,0,0,89.8,1,-0.044,-0.602,0.0088,1,0,0.0088,0,0,0,0,0,0,2,2,0,0,VALID,0,0,0,0,0,1,0,0,0,0,0,0,0,0,0,0,0,0,0,0,1125.45,1132.52,2,0,0.08,0.08,388,14.29,0.08,0.06,28.64,LANDED,X10-H,0:/Integrated Flight Computer/aircraft/x10_h_cfg.ks (inferred preloaded)
29.06,TAKEOFF,TO_GROUND_ROLL,155.89,80,-75.89,3.65,-4.38,-0.45,-0.07,0.09,89.53,-0.272,1,0,0,0,0,0,0,0,0,0,0,0,0,0,0,89.74,0,1,0,-0.16,0,0,0.14,90,0,0,0,0,0,0,0,0,-0.016,0,0,3,0,0,0,69,0,0,0,,0,0,0,0,0,0,0,0,0,0,0,0,0,89.74,1,-0.016,-0.216,-0.0198,1,0,-0.0198,0,0,0,0,0,0,2,2,0,0,VALID,0,0,0,0,0,1,0,0,0,0,0,0,0,0,0,0,0,0,0,0,1138.6,1145.45,2,0,0.08,0.08,392,14.29,0.08,0.06,28.92,LANDED,X10-H,0:/Integrated Flight Computer/aircraft/x10_h_cfg.ks (inferred preloaded)
29.34,TAKEOFF,TO_GROUND_ROLL,159,80,-79,3.67,-4.51,-0.49,-0.02,0.15,89.97,-0.27,1,0,0,0,0,0,0,0,0,0,0,0,0,0,0,89.7,0,1,0,-0.18,0,0,0.14,90,0,0,0,0,0,0,0,0,-0.001,0,0,3,0,0,0,69,0,0,0,,0,0,0,0,0,0,0,0,0,0,0,0,0,89.7,1,-0.001,0.265,-0.0497,1,0,-0.0497,0,0,0,0,0,0,2,2,0,0,VALID,0,0,0,0,0,1,0,0,0,0,0,0,0,0,0,0,0,0,0,0,1152.29,1158.9,2,0,0.08,0.08,396,14.29,0.08,0.06,29.2,LANDED,X10-H,0:/Integrated Flight Computer/aircraft/x10_h_cfg.ks (inferred preloaded)
29.62,TAKEOFF,TO_ROTATE,162.38,80,-82.38,3.69,-4.65,-0.46,0.05,0.21,90.47,-0.287,1,0,0,0,0,0,0,0,0,0,0,0,0,0,0,89.67,0.52,1,0,-0.16,0,0,0.14,90,0,0,0,0,0,0,0,0,0,0,0,3,0,0,0,69,0,0,0,,0,0,0,0,0,0,0,0,0,0,0,0,0,89.67,1,0,0.801,-0.0798,1,0,-0.0798,0,0.1408,0.52,0.468,0.08,0,2,2,0,0,VALID,0,0,0,0,0,1,0,0,0,0,0,0,0,0,0,0,0,0,0,0,1166.34,1172.74,2,0,0.08,0.08,400,13.33,0.08,0.06,29.48,LANDED,X10-H,0:/Integrated Flight Computer/aircraft/x10_h_cfg.ks (inferred preloaded)
29.9,TAKEOFF,TO_ROTATE,165.57,80,-85.57,3.75,-4.78,-0.37,0.24,0.37,91,-0.294,1,0,0,0,0,0,0,0,0,0,0,0,0,0,0,89.63,1.528,1,0,-0.13,0,0,0.15,90,0,0,0,0,0,0,0,0,-0.015,0,0,3,0,0,0,69,0,0,0,,0,0,0,0,0,0,0,0,0,0,0,0,0,89.63,1,-0.015,1.372,-0.1092,1,0,-0.1092,0,0.2472,1.528,1.286,0.08,0,2,2,0,0,VALID,0,0,0,0,0,1,0,0,0,0,0,0,0,0,0,0,0,0,0,0,1180.75,1186.94,2,0,0.08,0.08,404,14.29,0.08,0.06,29.76,LANDED,X10-H,0:/Integrated Flight Computer/aircraft/x10_h_cfg.ks (inferred preloaded)
30.2,TAKEOFF,TO_ROTATE,169.02,80,-89.02,3.97,-4.89,-0.51,0.89,1.06,91.61,-0.23,1,0,0,0,0,0,0,0,0,0,0,0,0,0,0,89.59,2.608,1,0,-0.17,0,0,0.15,90,0,0,0,0,0,0,0,0,-0.056,0,0,3,0,0,0,69,0,0,0,,0,0,0,0,0,0,0,0,0,0,0,0,0,89.59,1,-0.056,2.02,-0.1407,1,0,-0.1407,0,0.3028,2.608,1.714,0.08,0,2,2,0,0,VALID,0,0,0,0,0,1,0,0,0,0,0,0,0,0,0,0,0,0,0,0,1196.56,1202.54,2,0,0.08,0.08,408,13.33,0.08,0.06,30.06,LANDED,X10-H,0:/Integrated Flight Computer/aircraft/x10_h_cfg.ks (inferred preloaded)
30.48,TAKEOFF,TO_ROTATE,172.27,80,-92.27,4.27,-5.05,-0.43,1.91,2.05,92.08,-0.219,1,0,0,0,0,0,0,0,0,0,0,0,0,0,0,89.61,3.616,1,0,-0.15,0,0,0.16,90,0,0,0,0,0,0,0,0,-0.117,0,0,3,0,0,0,69,0,0,0,,0,0,0,0,0,0,0,0,0,0,0,0,0,89.61,1,-0.117,2.469,-0.1512,1,0,-0.1512,0,0.3017,3.616,1.705,0.08,0,2,2,0,0,VALID,0,0,0,0,0,1,0,0,0,0,0,0,0,0,0,0,0,0,0,0,1211.64,1217.43,2,0,0.08,0.08,412,14.29,0.08,0.06,30.34,LANDED,X10-H,0:/Integrated Flight Computer/aircraft/x10_h_cfg.ks (inferred preloaded)
30.78,TAKEOFF,TO_ROTATE,175.77,80,-95.77,4.68,-5.2,-0.37,3.25,3.37,92.35,-0.208,1,0,0,0,0,0,0,0,0,0,0,0,0,0,0,89.71,4.696,1,0,-0.12,0,0,0.16,90,0,0,0,0,0,0,0,0,-0.207,0,0,3,0,0,0,69,0,0,0,,0,0,0,0,0,0,0,0,0,0,0,0,0,89.71,1,-0.207,2.636,-0.1354,1,0,-0.1354,0,0.2675,4.696,1.442,0.08,0,2,2,0,0,VALID,0,0,0,0,0,1,0,0,0,0,0,0,0,0,0,0,0,0,0,0,1228.07,1233.66,2,0,0.08,0.08,416,13.33,0.08,0.06,30.64,LANDED,X10-H,0:/Integrated Flight Computer/aircraft/x10_h_cfg.ks (inferred preloaded)
31.08,TAKEOFF,TO_ROTATE,179.26,80,-99.26,5.12,-5.33,-0.12,4.55,4.59,92.25,-0.755,1,0,0,0,0,0,0,0,0,0,0,0,0,0,0,89.82,5.776,1,0,-0.04,0,0,0.17,90,0,0,0,0,0,0,0,0,-0.312,0,0,3,0,0,0,69,0,0,0,,0,0,0,0,0,0,0,0,0,0,0,0,0,89.82,1,-0.312,2.43,-0.0991,1,0,-0.0991,0,0.2389,5.776,1.222,0.08,0,2,2,0,0,VALID,0,0,0,0,0,1,0,0,0,0,0,0,0,0,0,0,0,0,0,0,1244.72,1250.11,2,0,0.08,0.08,420,13.33,0.08,0.06,30.94,LANDED,X10-H,0:/Integrated Flight Computer/aircraft/x10_h_cfg.ks (inferred preloaded)
31.36,TAKEOFF,TO_ROTATE,182.5,80,-102.5,5.53,-5.35,-0.11,5.63,5.66,91.98,-0.164,1,0,0,0,0,0,0,0,0,0,0,0,0,0,0,89.77,6.784,1,0,-0.03,0,0,0.17,90,0,0,0,0,0,0,0,0,-0.416,0,0,3,0,0,0,69,0,0,0,,0,0,0,0,0,0,0,0,0,0,0,0,0,89.77,1,-0.416,2.207,-0.0815,1,0,-0.0815,0,0.2299,6.784,1.153,0.08,0,2,2,0,0,VALID,0,0,0,0,0,1,0,0,0,0,0,0,0,0,0,0,0,0,0,0,1260.32,1265.53,2,0,0.08,0.08,424,14.29,0.08,0.06,31.22,LANDED,X10-H,0:/Integrated Flight Computer/aircraft/x10_h_cfg.ks (inferred preloaded)
31.62,TAKEOFF,TO_ROTATE,185.46,80,-105.46,5.88,-5.41,0.03,6.6,6.52,91.65,0.687,1,0,0,0,0,0,0,0,0,0,0,0,0,0,0,90,7.792,0,1,0.01,0,0,7.51,90,-0.6764,0.0001,-0.7365,7.79,90,0,0,0,0,0,0,3,0,0,0,69,0,0,0,,0,0,0,0,0,0,0,0,0,0,0,0,0,90,1,0,1.65,0,0,3,0,0,0,7.792,1.194,0,0,2,2,0,0,VALID,0,0,0,0,0,1,0,0,0,0,0,0,0,0,0,0,0,0,0,0,1274.77,1279.82,2,0,0.08,0.08,428,15.38,0.08,0.06,31.5,FLYING,X10-H,0:/Integrated Flight Computer/aircraft/x10_h_cfg.ks (inferred preloaded)
31.9,TAKEOFF,TO_ROTATE,188.57,80,-108.57,6.38,-5.42,0.37,7.71,7.51,91.82,-1.51,1,0,0,0,0,0,0,0,0,0,0,0,0,0,0,90,8.8,0,1,0.11,0,0,8.51,90,-0.6892,0.0001,-0.7246,8.8,90,0,0,0,0,0,0,3,0,0,0,69,0,0,0,,0,0,0,0,0,0,0,0,0,0,0,0,0,90,1,0,1.815,0,0,3,0,0,0,8.8,1.087,0,0,2,2,0,0,VALID,0,0,0,0,0,1,0,0,0,0,0,0,0,0,0,0,0,0,0,0,1290.1,1294.94,2,0,0.08,0.08,432,14.29,0.08,0.06,31.78,FLYING,X10-H,0:/Integrated Flight Computer/aircraft/x10_h_cfg.ks (inferred preloaded)
32.18,TAKEOFF,TO_ROTATE,191.55,80,-111.55,7.34,-5.52,1.05,9.97,9.48,91.6,-6.248,1,0,0,0,0,0,0,0,0,0,0,0,0,0,0,90,9.808,0,1,0.31,0,0,9.52,90,-0.7018,0.0001,-0.7124,9.81,90,0,0,0,0,0,0,3,0,0,0,69,0,0,0,,0,0,0,0,0,0,0,0,0,0,0,0,0,90,1,0,1.596,0,0,3,0,0,0,9.808,-0.164,0,0,2,2,0,0,VALID,0,0,0,0,0,1,0,0,0,0,0,0,0,0,0,0,0,0,0,0,1304.97,1309.59,2,0,0.08,0.08,436,14.29,0.08,0.06,32.06,FLYING,X10-H,0:/Integrated Flight Computer/aircraft/x10_h_cfg.ks (inferred preloaded)
32.46,TAKEOFF,TO_ROTATE,194.27,80,-114.27,9.05,-5.15,2.5,13.85,12.92,90.51,-7.456,1,0,0,0,0,0,0,0,0,0,0,0,0,0,0,90,10.816,0,1,0.74,0,0,10.53,90,-0.7141,0.0001,-0.7,10.82,90,0,0,0,0,0,0,3,0,0,0,69,0,0,0,,0,0,0,0,0,0,0,0,0,0,0,0,0,90,1,0,0.51,0,0,3,0,0,0,10.816,-3.032,0,0,2,2,0,0,VALID,0,0,0,0,0,1,0,0,0,0,0,0,0,0,0,0,0,0,0,0,1318.72,1323.07,2,0,0.08,0.08,440,14.29,0.08,0.06,32.34,FLYING,X10-H,0:/Integrated Flight Computer/aircraft/x10_h_cfg.ks (inferred preloaded)
32.76,TAKEOFF,TO_CLIMB,196.42,80,-116.42,11.98,-4.17,5.75,19.07,17.58,89.41,-7.612,0.968,0,0,0,0,0,0,0,0,0,0,0,0,0,0,90,17.322,0,1,1.68,0,0,11.5,90,-0.7888,0.0002,-0.6147,17.32,90,0,0,0,0,0,0,3,0,0,0,69,0,0,0,,0,0,0,0,0,0,0,0,0,0,0,0,0,90,1,0,-0.588,0,0,3,0,0,0,11.5,-6.046,0,0,1,1,0,0,VALID,0,0,0,0,0,1,0,0,0,0,0,0,0,0,0,0,0,0,0,0,1329.93,1333.84,2,0,0.08,0.08,444,14.29,0.08,0.06,32.62,FLYING,X10-H,0:/Integrated Flight Computer/aircraft/x10_h_cfg.ks (inferred preloaded)
33.02,TAKEOFF,TO_CLIMB,197.55,80,-117.55,15.46,-1.8,10.53,23.78,20.69,88.85,-6.142,0.856,0,0,0,0,0,0,0,0,0,0,0,0,0,0,90,16.538,0,1,3.05,0,0,16.76,90,-0.7802,0.0002,-0.6255,16.54,90,0,0,0,0,0,0,3,0,0,0,69,0,0,0,,0,0,0,0,0,0,0,0,0,0,0,0,0,90,1,0,-1.15,0,0,3,0,0,0,11.5,-6.046,0,0,1,1,0,0,VALID,0,0,0,0,0,1,0,0,0,0,0,0,0,0,0,0,0,0,0,0,1328.77,1339.38,2,0,0.08,0.08,448,14.29,0.08,0.06,32.9,FLYING,X10-H,0:/Integrated Flight Computer/aircraft/x10_h_cfg.ks (inferred preloaded)
33.3,TAKEOFF,TO_CLIMB,197.65,80,-117.65,20.15,2.08,16.58,26.69,22.07,88.89,-5.082,0.82,0,0,0,0,0,0,0,0,0,0,0,0,0,0,90,15.754,0,1,4.8,0,0,15.98,90,-0.7715,0.0002,-0.6362,15.75,90,0,0,0,0,0,0,3,0,0,0,69,0,0,0,,0,0,0,0,0,0,0,0,0,0,0,0,0,90,1,0,-1.107,0,0,3,0,0,0,11.5,-6.046,0,0,1,1,0,0,VALID,0,0,0,0,0,1,0,0,0,0,0,0,0,0,0,0,0,0,0,0,1310.38,1339.64,2,0,0.08,0.08,452,14.29,0.08,0.06,33.18,FLYING,X10-H,0:/Integrated Flight Computer/aircraft/x10_h_cfg.ks (inferred preloaded)
33.58,TAKEOFF,TO_CLIMB,197.09,80,-117.09,25.65,7.71,22.67,26.1,19.9,89.31,-4.081,0.82,0,0,0,0,0,0,0,0,0,0,0,0,0,0,90,14.97,0,1,6.56,0,0,15.2,90,-0.7627,0.0002,-0.6467,14.97,90,0,0,0,0,0,0,3,0,0,0,69,0,0,0,,0,0,0,0,0,0,0,0,0,0,0,0,0,90,1,0,-0.687,0,0,3,0,0,0,11.5,-6.046,0,0,1,1,0,0,VALID,0,0,0,0,0,1,0,0,0,0,0,0,0,0,0,0,0,0,0,0,1287.36,1336.32,2,0,0.08,0.08,456,14.29,0.08,0.06,33.46,FLYING,X10-H,0:/Integrated Flight Computer/aircraft/x10_h_cfg.ks (inferred preloaded)
33.86,TAKEOFF,TO_CLIMB,197.31,80,-117.31,32.01,14.78,26.81,23.32,15.88,89.82,-3.342,0.82,0,0,0,0,0,0,0,0,0,0,0,0,0,0,90,14.186,0,1,7.74,0,0,14.41,90,-0.7537,0.0002,-0.6572,14.19,90,0,0,0,0,0,0,3,0,0,0,69,0,0,0,,0,0,0,0,0,0,0,0,0,0,0,0,0,90,1,0,-0.18,0,0,3,0,0,0,11.5,-6.046,0,0,1,1,0,0,VALID,0,0,0,0,0,1,0,0,0,0,0,0,0,0,0,0,0,0,0,0,1269.4,1336.77,2,0,0.08,0.08,460,14.29,0.08,0.06,33.74,FLYING,X10-H,0:/Integrated Flight Computer/aircraft/x10_h_cfg.ks (inferred preloaded)
34.14,TAKEOFF,TO_CLIMB,198.68,80,-118.68,39.53,22.73,29.58,21.49,13.18,90.06,-3.15,0.82,0,0,0,0,0,0,0,0,0,0,0,0,0,0,90,13.402,0,1,8.47,0,0,13.63,90,-0.7446,0.0002,-0.6675,13.4,90,0,0,0,0,0,0,3,0,0,0,69,0,0,0,,0,0,0,0,0,0,0,0,0,0,0,0,0,90,1,0,0.059,0,0,3,0,0,0,11.5,-6.046,0,0,1,1,0,0,VALID,0,0,0,0,0,1,0,0,0,0,0,0,0,0,0,0,0,0,0,0,1258.67,1342.9,2,0,0.08,0.08,464,14.29,0.08,0.06,34.02,FLYING,X10-H,0:/Integrated Flight Computer/aircraft/x10_h_cfg.ks (inferred preloaded)
34.42,TAKEOFF,TO_CLIMB,200.42,80,-120.42,48.12,31.37,32.02,20.98,11.97,90.02,-3.456,0.82,0,0,0,0,0,0,0,0,0,0,0,0,0,0,90,12.618,0,1,9.08,0,0,12.84,90,-0.7353,0.0002,-0.6777,12.62,90,0,0,0,0,0,0,3,0,0,0,69,0,0,0,,0,0,0,0,0,0,0,0,0,0,0,0,0,90,1,0,0.023,0,0,3,0,0,0,11.5,-6.046,0,0,1,1,0,0,VALID,0,0,0,0,0,1,0,0,0,0,0,0,0,0,0,0,0,0,0,0,1251.27,1350.95,2,0,0.08,0.08,468,14.29,0.08,0.06,34.3,FLYING,X10-H,0:/Integrated Flight Computer/aircraft/x10_h_cfg.ks (inferred preloaded)
34.7,TAKEOFF,TO_CLIMB,202.24,80,-122.24,57.47,40.73,34.9,20.57,10.91,89.88,-4.208,0.82,0,0,0,0,0,0,0,0,0,0,0,0,0,0,90,11.834,0,1,9.79,0,0,12.06,90,-0.7259,0.0001,-0.6878,11.83,90,0,0,0,0,0,0,3,0,0,0,69,0,0,0,,0,0,0,0,0,0,0,0,0,0,0,0,0,90,1,0,-0.119,0,0,3,0,0,0,11.5,-6.046,0,0,1,1,0,0,VALID,0,0,0,0,0,1,0,0,0,0,0,0,0,0,0,0,0,0,0,0,1245.52,1359.36,2,0,0.08,0.08,472,14.29,0.08,0.06,34.58,FLYING,X10-H,0:/Integrated Flight Computer/aircraft/x10_h_cfg.ks (inferred preloaded)
34.98,TAKEOFF,TO_CLIMB,204.17,80,-124.17,67.18,50.85,37.06,18.87,8.74,89.81,-5.073,0.82,0,0,0,0,0,0,0,0,0,0,0,0,0,0,90,11.05,0,1,10.29,0,0,11.28,90,-0.7164,0.0001,-0.6977,11.05,90,0,0,0,0,0,0,3,0,0,0,69,0,0,0,,0,0,0,0,0,0,0,0,0,0,0,0,0,90,1,0,-0.185,0,0,3,0,0,0,11.5,-6.046,0,0,1,1,0,0,VALID,0,0,0,0,0,1,0,0,0,0,0,0,0,0,0,0,0,0,0,0,1241.19,1368.28,2,0,0.08,0.08,476,14.29,0.08,0.06,34.86,FLYING,X10-H,0:/Integrated Flight Computer/aircraft/x10_h_cfg.ks (inferred preloaded)
35.26,TAKEOFF,TO_CLIMB,206.5,80,-126.5,77.29,61.45,38.18,17.03,6.66,89.82,-5.6,0.82,0,0,0,0,0,0,0,0,0,0,0,0,0,0,90,10.266,0,1,10.48,0,0,10.49,90,-0.7067,0.0001,-0.7075,10.27,90,0,0,0,0,0,0,3,0,0,0,69,0,0,0,,0,0,0,0,0,0,0,0,0,0,0,0,0,90,1,0,-0.181,0,0,3,0,0,0,11.5,-6.046,0,0,1,1,0,0,VALID,0,0,0,0,0,1,0,0,0,0,0,0,0,0,0,0,0,0,0,0,1239.71,1379.23,2,0,0.08,0.08,480,14.29,0.08,0.06,35.14,FLYING,X10-H,0:/Integrated Flight Computer/aircraft/x10_h_cfg.ks (inferred preloaded)
35.54,TAKEOFF,TO_CLIMB,209.06,80,-129.06,87.7,72.32,38.87,15.45,5.01,89.88,-6.019,0.82,0,0,0,0,0,0,0,0,0,0,0,0,0,0,90,9.482,0,1,10.53,0,0,9.71,90,-0.6969,0.0001,-0.7172,9.48,90,0,0,0,0,0,0,3,0,0,0,69,0,0,0,,0,0,0,0,0,0,0,0,0,0,0,0,0,90,1,0,-0.124,0,0,3,0,0,0,11.5,-6.046,0,0,1,1,0,0,VALID,0,0,0,0,0,1,0,0,0,0,0,0,0,0,0,0,0,0,0,0,1240.33,1391.48,2,0,0.08,0.08,484,14.29,0.08,0.06,35.42,FLYING,X10-H,0:/Integrated Flight Computer/aircraft/x10_h_cfg.ks (inferred preloaded)
35.82,TAKEOFF,TO_CLIMB,211.8,80,-131.8,98.21,83.3,38.95,13.91,3.57,89.92,-6.671,0.82,0,0,0,0,0,0,0,0,0,0,0,0,0,0,90,8.698,0,1,10.42,0,0,8.92,90,-0.6869,0.0001,-0.7267,8.7,90,0,0,0,0,0,0,3,0,0,0,69,0,0,0,,0,0,0,0,0,0,0,0,0,0,0,0,0,90,1,0,-0.08,0,0,3,0,0,0,11.5,-6.046,0,0,1,1,0,0,VALID,0,0,0,0,0,1,0,0,0,0,0,0,0,0,0,0,0,0,0,0,1242.61,1404.71,2,0,0.08,0.08,488,14.29,0.08,0.06,35.7,FLYING,X10-H,0:/Integrated Flight Computer/aircraft/x10_h_cfg.ks (inferred preloaded)
36.1,TAKEOFF,TO_CLIMB,214.67,80,-134.67,108.68,94.25,38.43,12.48,2.37,89.97,-7.302,0.82,0,0,0,0,0,0,0,0,0,0,0,0,0,0,90,7.914,0,1,10.15,0,0,8.14,90,-0.6769,0.0001,-0.7361,7.91,90,0,0,0,0,0,0,3,0,0,0,69,0,0,0,,0,0,0,0,0,0,0,0,0,0,0,0,0,90,1,0,-0.025,0,0,3,0,0,0,11.5,-6.046,0,0,1,1,0,0,VALID,0,0,0,0,0,1,0,0,0,0,0,0,0,0,0,0,0,0,0,0,1246.33,1418.77,2,0,0.08,0.08,492,14.29,0.08,0.06,35.98,FLYING,X10-H,0:/Integrated Flight Computer/aircraft/x10_h_cfg.ks (inferred preloaded)
36.38,TAKEOFF,TO_CLIMB,217.64,80,-137.64,119,105.04,37.69,11.13,1.34,90.04,-8.114,0.82,0,0,0,0,0,0,0,0,0,0,0,0,0,0,90,7.13,0,1,9.83,0,0,7.36,90,-0.6667,0.0001,-0.7454,7.13,90,0,0,0,0,0,0,3,0,0,0,69,0,0,0,,0,0,0,0,0,0,0,0,0,0,0,0,0,90,1,0,0.045,0,0,3,0,0,0,11.5,-6.046,0,0,1,1,0,0,VALID,0,0,0,0,0,1,0,0,0,0,0,0,0,0,0,0,0,0,0,0,1251.28,1433.45,2,0,0.08,0.08,496,14.29,0.08,0.06,36.26,FLYING,X10-H,0:/Integrated Flight Computer/aircraft/x10_h_cfg.ks (inferred preloaded)
36.66,TAKEOFF,TO_CLIMB,220.68,80,-140.68,129.05,115.53,36.35,9.91,0.55,90.09,-9.488,0.82,0,0,0,0,0,0,0,0,0,0,0,0,0,0,90,7,0,1,9.35,0,0,7,90,-0.6649,0.0001,-0.747,7,90,0,0,0,0,0,0,3,0,0,0,69,0,0,0,,0,0,0,0,0,0,0,0,0,0,0,0,0,90,1,0,0.094,0,0,3,0,0,0,11.5,-6.046,0,0,1,1,0,0,VALID,0,0,0,0,0,1,0,0,0,0,0,0,0,0,0,0,0,0,0,0,1257.24,1448.62,2,0,0.08,0.08,500,14.29,0.08,0.06,36.54,FLYING,X10-H,0:/Integrated Flight Computer/aircraft/x10_h_cfg.ks (inferred preloaded)
36.94,TAKEOFF,TO_CLIMB,223.72,80,-143.72,139.02,125.68,34.74,10.01,1.1,90.01,-7.833,0.82,0,0,0,0,0,0,0,0,0,0,0,0,0,0,90,7,0,1,8.83,0,0,7,90,-0.6648,0.0001,-0.747,7,90,0,0,0,0,0,0,3,0,0,0,69,0,0,0,,0,0,0,0,0,0,0,0,0,0,0,0,0,90,1,0,0.007,0,0,3,0,0,0,11.5,-6.046,0,0,1,1,0,0,VALID,0,0,0,0,0,1,0,0,0,0,0,0,0,0,0,0,0,0,0,0,1263.95,1464.01,2,0,0.08,0.08,504,14.29,0.08,0.06,36.82,FLYING,X10-H,0:/Integrated Flight Computer/aircraft/x10_h_cfg.ks (inferred preloaded)
37.22,TAKEOFF,TO_CLIMB,226.83,80,-146.83,148.76,135.59,34,10.3,1.72,89.97,-5.57,0.82,0,0,0,0,0,0,0,0,0,0,0,0,0,0,90,7,0,1,8.53,0,0,7,90,-0.6647,0.0001,-0.7471,7,90,0,0,0,0,0,0,3,0,0,0,69,0,0,0,,0,0,0,0,0,0,0,0,0,0,0,0,0,90,1,0,-0.031,0,0,3,0,0,0,11.5,-6.046,0,0,1,1,0,0,VALID,0,0,0,0,0,1,0,0,0,0,0,0,0,0,0,0,0,0,0,0,1271.51,1479.85,2,0,0.08,0.08,508,14.29,0.08,0.06,37.1,FLYING,X10-H,0:/Integrated Flight Computer/aircraft/x10_h_cfg.ks (inferred preloaded)
37.5,TAKEOFF,TO_CLIMB,229.99,80,-149.99,158.23,145.26,33.37,10.41,2.1,89.94,-4.425,0.82,0,0,0,0,0,0,0,0,0,0,0,0,0,0,90,7,0,1,8.25,0,0,7,90,-0.6646,0.0001,-0.7472,7,90,0,0,0,0,0,0,3,0,0,0,69,0,0,0,,0,0,0,0,0,0,0,0,0,0,0,0,0,90,1,0,-0.061,0,0,3,0,0,0,11.5,-6.046,0,0,1,1,0,0,VALID,0,0,0,0,0,1,0,0,0,0,0,0,0,0,0,0,0,0,0,0,1279.91,1496.15,2,0,0.08,0.08,512,14.29,0.08,0.06,37.38,FLYING,X10-H,0:/Integrated Flight Computer/aircraft/x10_h_cfg.ks (inferred preloaded)
37.78,TAKEOFF,TO_CLIMB,233.2,80,-153.2,167.54,154.76,32.83,10.55,2.48,89.93,-3.325,0.82,0,0,0,0,0,0,0,0,0,0,0,0,0,0,90,7,0,1,8.01,0,0,7,90,-0.6646,0.0001,-0.7472,7,90,0,0,0,0,0,0,3,0,0,0,69,0,0,0,,0,0,0,0,0,0,0,0,0,0,0,0,0,90,1,0,-0.074,0,0,3,0,0,0,11.5,-6.046,0,0,1,1,0,0,VALID,0,0,0,0,0,1,0,0,0,0,0,0,0,0,0,0,0,0,0,0,1289.01,1512.77,2,0,0.08,0.08,516,14.29,0.08,0.06,37.66,FLYING,X10-H,0:/Integrated Flight Computer/aircraft/x10_h_cfg.ks (inferred preloaded)
