t_s,phase,subphase,ias_ms,vapp_ms,spd_err_ms,agl_m,vs_ms,pitch_deg,aoa_deg,hdg_deg,bank_deg,thr_cmd,thr_cur,thr_intg,at_gain,at_tau_s,at_a_up,at_a_dn,at_kp_thr,at_ki_spd,at_thr_slew,as_cmd_deg,as_cap_deg,as_raw_deg,as_spd_err_ms,as_active,aa_hdg_cmd_deg,aa_fpa_cmd_deg,aa_fbw,aa_dir,actual_fpa_deg,ftf_hdg_err_deg,ftf_fix_idx,kos_steer_pit_deg,kos_steer_hdg_deg,aa_dir_vx,aa_dir_vy,aa_dir_vz,aa_dir_pitch_deg,aa_dir_hdg_deg,ils_loc_m,ils_gs_m,ils_dist_km,loc_corr_deg,gs_corr_deg,gs_latched,active_gs_ang_deg,ils_intercept_alt_m,d_gs_ms,fpa_preclamped_deg,gs_nom_alt_m,flare_fpa_cmd,flare_tgt_vs,flare_frac,steer_hdg_deg,steer_blend,ro_loc_corr_deg,ro_hdg_err_deg,ro_yaw_tgt,ro_yaw_scale,ro_yaw_gate,yaw_cmd,roll_cmd,pitch_cmd,ro_pitch_tgt_deg,ro_pitch_err_deg,ro_pitch_ff,ro_roll_assist,flaps_cur,flaps_tgt,asc_j_ab,asc_j_rk,asc_validity,asc_q_pa,asc_q_raw_pa,asc_mach,asc_apo_m,asc_drag_n,asc_w_prop,asc_edot_aero,asc_edot_orb,asc_pitch_bias,asc_blend,asc_spooling,asc_ab_thr_ratio,asc_ab_t_now,asc_ab_t_avail,asc_ab_ign_on,asc_ab_flameouts,asc_rk_t_now,asc_rk_t_avail,asc_rk_ign_on,asc_rk_flameouts,ship_thrust,ship_avail_thrust,ship_ign_on,ship_flameouts,ifc_raw_dt_s,ifc_dt_s,ifc_loop_n,ifc_hz_est,ifc_raw_dt_max_s,ifc_raw_dt_min_s,phase_el_s,status,craft_name,cfg_file
0.18,TAKEOFF,TO_PREFLIGHT,0,80,80,3.61,0,-0.18,6.93,85.47,0.131,0.064,0,0,0,0,0,0,0,0,0,0,0,0,0,0,90.4,0,1,0,-0.02,0,0,0,90,0,0,0,0,0,0,0,0,0,0,0,3,0,0,0,69,0,0,0,90.4,1,0,-4.931,0,0,1,0,0,0,0,0,0,0,0,1,0,0,VALID,0,0,0,0,0,1,0,0,0,0,0,0,0,0,0,0,0,0,0,0,0,517.63,2,0,0.16,0.16,1,3.45,0.16,0.02,0.02,LANDED,CF1-J,0:/Integrated Flight Computer/aircraft/cf1_j_cfg.ks (inferred preloaded)
0.44,TAKEOFF,TO_PREFLIGHT,0,80,80,3.61,0,-0.18,16.45,85.46,0.132,0.112,0,0,0,0,0,0,0,0,0,0,0,0,0,0,90.4,0,1,0,0.01,0,0,0,90,0,0,0,0,0,0,0,0,0,0,0,3,0,0,0,69,0,0,0,90.4,1,0,-4.933,0,0,1,0,0,0,0,0,0,0,1,1,0,0,VALID,0,0,0,0,0,1,0,0,0,0,0,0,0,0,0,0,0,0,0,0,0.41,517.63,2,0,0.04,0.04,6,19.23,0.16,0.04,0.28,LANDED,CF1-J,0:/Integrated Flight Computer/aircraft/cf1_j_cfg.ks (inferred preloaded)
0.7,TAKEOFF,TO_PREFLIGHT,0,80,80,3.61,0,-0.18,-50.51,85.46,0.13,0.216,0,0,0,0,0,0,0,0,0,0,0,0,0,0,90.4,0,1,0,0.02,0,0,0,90,0,0,0,0,0,0,0,0,0,0,0,3,0,0,0,69,0,0,0,90.4,1,0,-4.933,0,0,1,0,0,0,0,0,0,0,1,1,0,0,VALID,0,0,0,0,0,1,0,0,0,0,0,0,0,0,0,0,0,0,0,0,1.5,517.63,2,0,0.04,0.04,11,19.23,0.08,0.04,0.54,LANDED,CF1-J,0:/Integrated Flight Computer/aircraft/cf1_j_cfg.ks (inferred preloaded)
0.96,TAKEOFF,TO_PREFLIGHT,0,80,80,3.61,0,-0.18,-48.09,85.45,0.13,0.32,0,0,0,0,0,0,0,0,0,0,0,0,0,0,90.4,0,1,0,0.04,0,0,0,90,0,0,0,0,0,0,0,0,0,0,0,3,0,0,0,69,0,0,0,90.4,1,0,-4.933,0,0,1,0,0,0,0,0,0,0,1,1,0,0,VALID,0,0,0,0,0,1,0,0,0,0,0,0,0,0,0,0,0,0,0,0,3.41,517.62,2,0,0.04,0.04,16,19.23,0.08,0.04,0.8,LANDED,CF1-J,0:/Integrated Flight Computer/aircraft/cf1_j_cfg.ks (inferred preloaded)
1.22,TAKEOFF,TO_PREFLIGHT,0,80,80,3.61,0,-0.18,-12.68,85.45,0.131,0.424,0,0,0,0,0,0,0,0,0,0,0,0,0,0,90.4,0,1,0,0,0,0,0,90,0,0,0,0,0,0,0,0,0,0,0,3,0,0,0,69,0,0,0,90.4,1,0,-4.933,0,0,1,0,0,0,0,0,0,0,1,1,0,0,VALID,0,0,0,0,0,1,0,0,0,0,0,0,0,0,0,0,0,0,0,0,6.12,517.62,2,0,0.04,0.04,21,19.23,0.08,0.04,1.06,LANDED,CF1-J,0:/Integrated Flight Computer/aircraft/cf1_j_cfg.ks (inferred preloaded)
1.48,TAKEOFF,TO_PREFLIGHT,0.01,80,79.99,3.61,0,-0.19,-10.41,85.44,0.131,0.528,0,0,0,0,0,0,0,0,0,0,0,0,0,0,90.4,0,1,0,0.07,0,0,0,90,0,0,0,0,0,0,0,0,0,0,0,3,0,0,0,69,0,0,0,90.4,1,0,-4.933,0,0,1,0,0,0,0,0,0,0,1,1,0,0,VALID,0,0,0,0,0,1,0,0,0,0,0,0,0,0,0,0,0,0,0,0,9.62,517.62,2,0,0.04,0.04,26,19.23,0.08,0.04,1.32,LANDED,CF1-J,0:/Integrated Flight Computer/aircraft/cf1_j_cfg.ks (inferred preloaded)
1.74,TAKEOFF,TO_PREFLIGHT,0.01,80,79.99,3.61,0,-0.19,1.44,85.44,0.13,0.632,0,0,0,0,0,0,0,0,0,0,0,0,0,0,90.4,0,1,0,0,0,0,0,90,0,0,0,0,0,0,0,0,0,0,0,3,0,0,0,69,0,0,0,90.4,1,0,-4.933,0,0,1,0,0,0,0,0,0,0,1,1,0,0,VALID,0,0,0,0,0,1,0,0,0,0,0,0,0,0,0,0,0,0,0,0,13.9,517.62,2,0,0.04,0.04,31,19.23,0.08,0.04,1.58,LANDED,CF1-J,0:/Integrated Flight Computer/aircraft/cf1_j_cfg.ks (inferred preloaded)
2,TAKEOFF,TO_PREFLIGHT,0.01,80,79.99,3.61,0,-0.2,0.05,85.43,0.13,0.736,0,0,0,0,0,0,0,0,0,0,0,0,0,0,90.4,0,1,0,0.05,0,0,0,90,0,0,0,0,0,0,0,0,0,0,0,3,0,0,0,69,0,0,0,90.4,1,0,-4.933,0,0,1,0,0,0,0,0,0,0,1,1,0,0,VALID,0,0,0,0,0,1,0,0,0,0,0,0,0,0,0,0,0,0,0,0,18.95,517.62,2,0,0.04,0.04,36,19.23,0.08,0.04,1.84,LANDED,CF1-J,0:/Integrated Flight Computer/aircraft/cf1_j_cfg.ks (inferred preloaded)
2.32,TAKEOFF,TO_PREFLIGHT,0.02,80,79.98,3.61,0,-0.2,2.03,85.43,0.129,0.864,0,0,0,0,0,0,0,0,0,0,0,0,0,0,90.4,0,1,0,-0.02,0,0,0,90,0,0,0,0,0,0,0,0,0,0,0,3,0,0,0,69,0,0,0,90.4,1,0,-4.933,0,0,1,0,0,0,0,0,0,0,1,1,0,0,VALID,0,0,0,0,0,1,0,0,0,0,0,0,0,0,0,0,0,0,0,0,26.2,517.62,2,0,0.08,0.08,41,15.63,0.08,0.04,2.16,LANDED,CF1-J,0:/Integrated Flight Computer/aircraft/cf1_j_cfg.ks (inferred preloaded)
2.6,TAKEOFF,TO_PREFLIGHT,0.02,80,79.98,3.61,0,-0.21,-0.89,85.42,0.13,0.976,0,0,0,0,0,0,0,0,0,0,0,0,0,0,90.4,0,1,0,0.02,0,0,0,90,0,0,0,0,0,0,0,0,0,0,0,3,0,0,0,69,0,0,0,90.4,1,0,-4.933,0,0,1,0,0,0,0,0,0,0,1,1,0,0,VALID,0,0,0,0,0,1,0,0,0,0,0,0,0,0,0,0,0,0,0,0,33.44,517.62,2,0,0.08,0.08,45,14.29,0.08,0.06,2.44,LANDED,CF1-J,0:/Integrated Flight Computer/aircraft/cf1_j_cfg.ks (inferred preloaded)
2.88,TAKEOFF,TO_PREFLIGHT,0.03,80,79.97,3.61,0,-0.22,-0.65,85.41,0.131,1,0,0,0,0,0,0,0,0,0,0,0,0,0,0,90.4,0,1,0,0.02,0,0,0,90,0,0,0,0,0,0,0,0,0,0,0,3,0,0,0,69,0,0,0,90.4,1,0,-4.933,0,0,1,0,0,0,0,0,0,0,1,1,0,0,VALID,0,0,0,0,0,1,0,0,0,0,0,0,0,0,0,0,0,0,0,0,41.4,517.61,2,0,0.08,0.08,49,14.29,0.08,0.06,2.72,LANDED,CF1-J,0:/Integrated Flight Computer/aircraft/cf1_j_cfg.ks (inferred preloaded)
3.16,TAKEOFF,TO_PREFLIGHT,0.03,80,79.97,3.61,0,-0.23,0.03,85.41,0.131,1,0,0,0,0,0,0,0,0,0,0,0,0,0,0,90.4,0,1,0,-0.02,0,0,0,90,0,0,0,0,0,0,0,0,0,0,0,3,0,0,0,69,0,0,0,90.4,1,0,-4.933,0,0,1,0,0,0,0,0,0,0,1,1,0,0,VALID,0,0,0,0,0,1,0,0,0,0,0,0,0,0,0,0,0,0,0,0,49.34,517.61,2,0,0.08,0.08,53,14.29,0.08,0.06,3,LANDED,CF1-J,0:/Integrated Flight Computer/aircraft/cf1_j_cfg.ks (inferred preloaded)
3.44,TAKEOFF,TO_GROUND_ROLL,0.05,80,79.95,3.61,0,-0.22,0,85.4,0.13,1,0,0,0,0,0,0,0,0,0,0,0,0,0,0,90.4,0,1,0,-0.06,0,0,0,90,0,0,0,0,0,0,0,0,0,0,0,3,0,0,0,69,0,0,0,90.4,1,0,-5.001,0.0563,0.25,1,0.0563,0,0,0,0,0,0,1,1,0,0,VALID,0,0,0,0,0,1,0,0,0,0,0,0,0,0,0,0,0,0,0,0,57.15,517.61,2,0,0.08,0.08,57,14.29,0.08,0.06,3.3,LANDED,CF1-J,0:/Integrated Flight Computer/aircraft/cf1_j_cfg.ks (inferred preloaded)
3.72,TAKEOFF,TO_GROUND_ROLL,0.28,80,79.72,3.62,-0.01,-0.12,1.32,85.4,0.128,1,0,0,0,0,0,0,0,0,0,0,0,0,0,0,90.4,0,1,0,-0.47,0,0,0,90,0,0,0,0,0,0,0,0,0,0,0,3,0,0,0,69,0,0,0,90.4,1,0,-4.999,0.0562,0.25,1,0.0562,0,0,0,0,0,0,1,1,0,0,VALID,0,0,0,0,0,1,0,0,0,0,0,0,0,0,0,0,0,0,0,0,64.82,517.55,2,0,0.08,0.08,61,14.29,0.08,0.06,3.58,LANDED,CF1-J,0:/Integrated Flight Computer/aircraft/cf1_j_cfg.ks (inferred preloaded)
4,TAKEOFF,TO_GROUND_ROLL,0.62,80,79.38,3.61,0,-0.16,-0.38,85.42,0.127,1,0,0,0,0,0,0,0,0,0,0,0,0,0,0,90.38,0,1,0,0.11,0,0,0,90,0,0,0,0,0,0,0,0,0,0,0,3,0,0,0,69,0,0,0,90.38,1,0,-4.962,0.0558,0.25,1,0.0558,0,0,0,0,0,0,1,1,0,0,VALID,0,0,0,0,0,1,0,0,0,0,0,0,0,0,0,0,0,0,0,0,72.35,517.47,2,0,0.08,0.08,65,14.29,0.08,0.06,3.86,LANDED,CF1-J,0:/Integrated Flight Computer/aircraft/cf1_j_cfg.ks (inferred preloaded)
4.28,TAKEOFF,TO_GROUND_ROLL,1,80,79,3.62,-0.01,-0.15,0.37,85.48,0.127,1,0,0,0,0,0,0,0,0,0,0,0,0,0,0,90.35,0,1,0,-0.62,0,0,0,90,0,0,0,0,0,0,0,0,0.001,0,0,3,0,0,0,69,0,0,0,90.35,1,0.001,-4.87,0.0548,0.25,1,0.0548,0,0,0,0,0,0,1,1,0,0,VALID,0,0,0,0,0,1,0,0,0,0,0,0,0,0,0,0,0,0,0,0,79.76,517.38,2,0,0.08,0.08,69,14.29,0.08,0.06,4.14,LANDED,CF1-J,0:/Integrated Flight Computer/aircraft/cf1_j_cfg.ks (inferred preloaded)
4.56,TAKEOFF,TO_GROUND_ROLL,1.42,80,78.58,3.62,-0.01,-0.14,0.11,85.58,0.128,1,0,0,0,0,0,0,0,0,0,0,0,0,0,0,90.32,0,1,0,-0.27,0,0,0,90,0,0,0,0,0,0,0,0,0.001,0,0,3,0,0,0,69,0,0,0,90.32,1,0.001,-4.734,0.0533,0.25,1,0.0533,0,0,0,0,0,0,1,1,0,0,VALID,0,0,0,0,0,1,0,0,0,0,0,0,0,0,0,0,0,0,0,0,87.03,517.27,2,0,0.08,0.08,73,14.29,0.08,0.06,4.42,LANDED,CF1-J,0:/Integrated Flight Computer/aircraft/cf1_j_cfg.ks (inferred preloaded)
4.84,TAKEOFF,TO_GROUND_ROLL,1.87,80,78.13,3.62,-0.01,-0.15,0.14,85.73,0.126,1,0,0,0,0,0,0,0,0,0,0,0,0,0,0,90.29,0,1,0,-0.34,0,0,0,90,0,0,0,0,0,0,0,0,0.002,0,0,3,0,0,0,69,0,0,0,90.29,1,0.002,-4.557,0.0513,0.25,1,0.0513,0,0,0,0,0,0,1,1,0,0,VALID,0,0,0,0,0,1,0,0,0,0,0,0,0,0,0,0,0,0,0,0,94.19,517.16,2,0,0.08,0.08,77,14.29,0.08,0.06,4.7,LANDED,CF1-J,0:/Integrated Flight Computer/aircraft/cf1_j_cfg.ks (inferred preloaded)
5.12,TAKEOFF,TO_GROUND_ROLL,2.36,80,77.64,3.62,-0.01,-0.14,0.19,85.92,0.12,1,0,0,0,0,0,0,0,0,0,0,0,0,0,0,90.25,0,1,0,-0.36,0,0,0,90,0,0,0,0,0,0,0,0,0.003,0,0,3,0,0,0,69,0,0,0,90.25,1,0.003,-4.329,0.0487,0.25,1,0.0487,0,0,0,0,0,0,1,1,0,0,VALID,0,0,0,0,0,1,0,0,0,0,0,0,0,0,0,0,0,0,0,0,101.21,517.03,2,0,0.08,0.08,81,14.29,0.08,0.06,4.98,LANDED,CF1-J,0:/Integrated Flight Computer/aircraft/cf1_j_cfg.ks (inferred preloaded)
5.4,TAKEOFF,TO_GROUND_ROLL,2.89,80,77.11,3.62,-0.02,-0.14,0.14,86.16,0.112,1,0,0,0,0,0,0,0,0,0,0,0,0,0,0,90.22,0,1,0,-0.31,0,0,0,90,0,0,0,0,0,0,0,0,0.004,0,0,3,0,0,0,69,0,0,0,90.22,1,0.004,-4.064,0.0457,0.25,1,0.0457,0,0,0,0,0,0,1,1,0,0,VALID,0,0,0,0,0,1,0,0,0,0,0,0,0,0,0,0,0,0,0,0,108.11,516.89,2,0,0.08,0.08,85,14.29,0.08,0.06,5.26,LANDED,CF1-J,0:/Integrated Flight Computer/aircraft/cf1_j_cfg.ks (inferred preloaded)
5.68,TAKEOFF,TO_GROUND_ROLL,3.45,80,76.55,3.62,-0.02,-0.14,0.18,86.44,0.104,1,0,0,0,0,0,0,0,0,0,0,0,0,0,0,90.2,0,1,0,-0.36,0,0,0,90,0,0,0,0,0,0,0,0,0.005,0,0,3,0,0,0,69,0,0,0,90.2,1,0.005,-3.761,0.0423,0.25,1,0.0423,0,0,0,0,0,0,1,1,0,0,VALID,0,0,0,0,0,1,0,0,0,0,0,0,0,0,0,0,0,0,0,0,114.9,516.74,2,0,0.08,0.08,89,14.29,0.08,0.06,5.54,LANDED,CF1-J,0:/Integrated Flight Computer/aircraft/cf1_j_cfg.ks (inferred preloaded)
5.96,TAKEOFF,TO_GROUND_ROLL,4.04,80,75.96,3.62,-0.02,-0.14,0.16,86.75,0.097,1,0,0,0,0,0,0,0,0,0,0,0,0,0,0,90.18,0,1,0,-0.32,0,0,0,90,0,0,0,0,0,0,0,0,0.006,0,0,3,0,0,0,69,0,0,0,90.18,1,0.006,-3.431,0.0386,0.25,1,0.0386,0,0,0,0,0,0,1,1,0,0,VALID,0,0,0,0,0,1,0,0,0,0,0,0,0,0,0,0,0,0,0,0,121.56,516.57,2,0,0.08,0.08,93,14.29,0.08,0.06,5.82,LANDED,CF1-J,0:/Integrated Flight Computer/aircraft/cf1_j_cfg.ks (inferred preloaded)
6.24,TAKEOFF,TO_GROUND_ROLL,4.67,80,75.33,3.62,-0.03,-0.14,0.17,87.08,0.09,1,0,0,0,0,0,0,0,0,0,0,0,0,0,0,90.16,0,1,0,-0.33,0,0,0,90,0,0,0,0,0,0,0,0,0.008,0,0,3,0,0,0,69,0,0,0,90.16,1,0.008,-3.082,0.0347,0.25,1,0.0347,0,0,0,0,0,0,1,1,0,0,VALID,0,0,0,0,0,1,0,0,0,0,0,0,0,0,0,0,0,0,0,0,128.1,516.4,2,0,0.08,0.08,97,14.29,0.08,0.06,6.1,LANDED,CF1-J,0:/Integrated Flight Computer/aircraft/cf1_j_cfg.ks (inferred preloaded)
6.52,TAKEOFF,TO_GROUND_ROLL,5.33,80,74.67,3.62,-0.03,-0.13,0.17,87.43,0.082,1,0,0,0,0,0,0,0,0,0,0,0,0,0,0,90.16,0,1,0,-0.33,0,0,0,90,0,0,0,0,0,0,0,0,0.009,0,0,3,0,0,0,69,0,0,0,90.16,1,0.009,-2.723,0.0306,0.25,1,0.0306,0,0,0,0,0,0,1,1,0,0,VALID,0,0,0,0,0,1,0,0,0,0,0,0,0,0,0,0,0,0,0,0,134.52,516.21,2,0,0.08,0.08,101,14.29,0.08,0.06,6.38,LANDED,CF1-J,0:/Integrated Flight Computer/aircraft/cf1_j_cfg.ks (inferred preloaded)
6.8,TAKEOFF,TO_GROUND_ROLL,6.02,80,73.98,3.62,-0.03,-0.13,0.16,87.79,0.074,1,0,0,0,0,0,0,0,0,0,0,0,0,0,0,90.16,0,1,0,-0.32,0,0,0,90,0,0,0,0,0,0,0,0,0.011,0,0,3,0,0,0,69,0,0,0,90.16,1,0.011,-2.365,0.0266,0.25,1,0.0266,0,0,0,0,0,0,1,1,0,0,VALID,0,0,0,0,0,1,0,0,0,0,0,0,0,0,0,0,0,0,0,0,140.83,516,2,0,0.08,0.08,105,14.29,0.08,0.06,6.66,LANDED,CF1-J,0:/Integrated Flight Computer/aircraft/cf1_j_cfg.ks (inferred preloaded)
7.08,TAKEOFF,TO_GROUND_ROLL,6.75,80,73.25,3.62,-0.04,-0.13,0.17,88.14,0.067,1,0,0,0,0,0,0,0,0,0,0,0,0,0,0,90.16,0,1,0,-0.33,0,0,0,90,0,0,0,0,0,0,0,0,0.012,0,0,3,0,0,0,69,0,0,0,90.16,1,0.012,-2.016,0.0227,0.25,1,0.0227,0,0,0,0,0,0,1,1,0,0,VALID,0,0,0,0,0,1,0,0,0,0,0,0,0,0,0,0,0,0,0,0,147.02,515.78,2,0,0.08,0.08,109,14.29,0.08,0.06,6.94,LANDED,CF1-J,0:/Integrated Flight Computer/aircraft/cf1_j_cfg.ks (inferred preloaded)
7.36,TAKEOFF,TO_GROUND_ROLL,7.5,80,72.5,3.62,-0.04,-0.13,0.17,88.49,0.06,1,0,0,0,0,0,0,0,0,0,0,0,0,0,0,90.17,0,1,0,-0.32,0,0,0,90,0,0,0,0,0,0,0,0,0.013,0,0,3,0,0,0,69,0,0,0,90.17,1,0.013,-1.683,0.0189,0.25,1,0.0189,0,0,0,0,0,0,1,1,0,0,VALID,0,0,0,0,0,1,0,0,0,0,0,0,0,0,0,0,0,0,0,0,153.1,515.55,2,0,0.08,0.08,113,14.29,0.08,0.06,7.22,LANDED,CF1-J,0:/Integrated Flight Computer/aircraft/cf1_j_cfg.ks (inferred preloaded)
7.64,TAKEOFF,TO_GROUND_ROLL,8.29,80,71.71,3.62,-0.05,-0.13,0.17,88.81,0.056,1,0,0,0,0,0,0,0,0,0,0,0,0,0,0,90.19,0,1,0,-0.33,0,0,0,90,0,0,0,0,0,0,0,0,0.014,0,0,3,0,0,0,69,0,0,0,90.19,1,0.014,-1.373,0.0154,0.25,1,0.0154,0,0,0,0,0,0,1,1,0,0,VALID,0,0,0,0,0,1,0,0,0,0,0,0,0,0,0,0,0,0,0,0,159.06,515.3,2,0,0.08,0.08,117,14.29,0.08,0.06,7.5,LANDED,CF1-J,0:/Integrated Flight Computer/aircraft/cf1_j_cfg.ks (inferred preloaded)
7.92,TAKEOFF,TO_GROUND_ROLL,9.1,80,70.9,3.62,-0.05,-0.13,0.18,89.11,0.054,1,0,0,0,0,0,0,0,0,0,0,0,0,0,0,90.21,0,1,0,-0.33,0,0,0,90,0,0,0,0,0,0,0,0,0.015,0,0,3,0,0,0,69,0,0,0,90.21,1,0.015,-1.094,0.0123,0.25,1,0.0123,0,0,0,0,0,0,1,1,0,0,VALID,0,0,0,0,0,1,0,0,0,0,0,0,0,0,0,0,0,0,0,0,164.92,515.04,2,0,0.08,0.08,121,14.29,0.08,0.06,7.78,LANDED,CF1-J,0:/Integrated Flight Computer/aircraft/cf1_j_cfg.ks (inferred preloaded)
8.2,TAKEOFF,TO_GROUND_ROLL,9.95,80,70.05,3.62,-0.06,-0.12,0.17,89.38,0.054,1,0,0,0,0,0,0,0,0,0,0,0,0,0,0,90.23,0,1,0,-0.33,0,0,0,90,0,0,0,0,0,0,0,0,0.016,0,0,3,0,0,0,69,0,0,0,90.23,1,0.016,-0.85,0.0096,0.25,1,0.0096,0,0,0,0,0,0,1,1,0,0,VALID,0,0,0,0,0,1,0,0,0,0,0,0,0,0,0,0,0,0,0,0,170.66,514.75,2,0,0.08,0.08,125,14.29,0.08,0.06,8.06,LANDED,CF1-J,0:/Integrated Flight Computer/aircraft/cf1_j_cfg.ks (inferred preloaded)
8.48,TAKEOFF,TO_GROUND_ROLL,10.82,80,69.18,3.62,-0.06,-0.12,0.18,89.62,0.057,1,0,0,0,0,0,0,0,0,0,0,0,0,0,0,90.26,0,1,0,-0.32,0,0,0,90,0,0,0,0,0,0,0,0,0.016,0,0,3,0,0,0,69,0,0,0,90.26,1,0.016,-0.643,0.0072,0.25,1,0.0072,0,0,0,0,0,0,1,1,0,0,VALID,0,0,0,0,0,1,0,0,0,0,0,0,0,0,0,0,0,0,0,0,176.3,514.46,2,0,0.08,0.08,129,14.29,0.08,0.06,8.34,LANDED,CF1-J,0:/Integrated Flight Computer/aircraft/cf1_j_cfg.ks (inferred preloaded)
8.76,TAKEOFF,TO_GROUND_ROLL,11.72,80,68.28,3.62,-0.07,-0.12,0.18,89.81,0.061,1,0,0,0,0,0,0,0,0,0,0,0,0,0,0,90.29,0,1,0,-0.32,0,0,0,90,0,0,0,0,0,0,0,0,0.016,0,0,3,0,0,0,69,0,0,0,90.29,1,0.016,-0.474,0.0053,0.25,1,0.0053,0,0,0,0,0,0,1,1,0,0,VALID,0,0,0,0,0,1,0,0,0,0,0,0,0,0,0,0,0,0,0,0,181.82,514.14,2,0,0.08,0.08,133,14.29,0.08,0.06,8.62,LANDED,CF1-J,0:/Integrated Flight Computer/aircraft/cf1_j_cfg.ks (inferred preloaded)
9.04,TAKEOFF,TO_GROUND_ROLL,12.65,80,67.35,3.62,-0.07,-0.12,0.18,89.97,0.066,1,0,0,0,0,0,0,0,0,0,0,0,0,0,0,90.31,0,1,0,-0.33,0,0,0,90,0,0,0,0,0,0,0,0,0.016,0,0,3,0,0,0,69,0,0,0,90.31,1,0.016,-0.339,0.0036,0.25,1,0.0036,0,0,0,0,0,0,1,1,0,0,VALID,0,0,0,0,0,1,0,0,0,0,0,0,0,0,0,0,0,0,0,0,187.24,513.81,2,0,0.08,0.08,137,14.29,0.08,0.06,8.9,LANDED,CF1-J,0:/Integrated Flight Computer/aircraft/cf1_j_cfg.ks (inferred preloaded)
9.32,TAKEOFF,TO_GROUND_ROLL,13.6,80,66.4,3.62,-0.08,-0.12,0.19,90.1,0.07,1,0,0,0,0,0,0,0,0,0,0,0,0,0,0,90.33,0,1,0,-0.32,0,0,0,90,0,0,0,0,0,0,0,0,0.016,0,0,3,0,0,0,69,0,0,0,90.33,1,0.016,-0.237,0.0022,0.25,1,0.0022,0,0,0,0,0,0,1,1,0,0,VALID,0,0,0,0,0,1,0,0,0,0,0,0,0,0,0,0,0,0,0,0,192.56,513.46,2,0,0.08,0.08,141,14.29,0.08,0.06,9.18,LANDED,CF1-J,0:/Integrated Flight Computer/aircraft/cf1_j_cfg.ks (inferred preloaded)
9.6,TAKEOFF,TO_GROUND_ROLL,14.59,80,65.41,3.62,-0.08,-0.12,0.18,90.19,0.076,1,0,0,0,0,0,0,0,0,0,0,0,0,0,0,90.35,0,1,0,-0.32,0,0,0,90,0,0,0,0,0,0,0,0,0.016,0,0,3,0,0,0,69,0,0,0,90.35,1,0.016,-0.16,0.0013,0.25,1,0.0013,0,0,0,0,0,0,1,1,0,0,VALID,0,0,0,0,0,1,0,0,0,0,0,0,0,0,0,0,0,0,0,0,197.76,513.09,2,0,0.08,0.08,145,14.29,0.08,0.06,9.46,LANDED,CF1-J,0:/Integrated Flight Computer/aircraft/cf1_j_cfg.ks (inferred preloaded)
9.88,TAKEOFF,TO_GROUND_ROLL,15.59,80,64.41,3.62,-0.09,-0.11,0.19,90.26,0.083,1,0,0,0,0,0,0,0,0,0,0,0,0,0,0,90.37,0,1,0,-0.32,0,0,0,90,0,0,0,0,0,0,0,0,0.016,0,0,3,0,0,0,69,0,0,0,90.37,1,0.016,-0.107,0.0008,0.25,1,0.0008,0,0,0,0,0,0,1,1,0,0,VALID,0,0,0,0,0,1,0,0,0,0,0,0,0,0,0,0,0,0,0,0,202.87,512.71,2,0,0.08,0.08,149,14.29,0.08,0.06,9.74,LANDED,CF1-J,0:/Integrated Flight Computer/aircraft/cf1_j_cfg.ks (inferred preloaded)
10.16,TAKEOFF,TO_GROUND_ROLL,16.62,80,63.38,3.62,-0.09,-0.11,0.19,90.31,0.089,1,0,0,0,0,0,0,0,0,0,0,0,0,0,0,90.38,0,1,0,-0.32,0,0,0,90,0,0,0,0,0,0,0,0,0.015,0,0,3,0,0,0,69,0,0,0,90.38,1,0.015,-0.071,0.0005,0.25,1,0.0005,0,0,0,0,0,0,1,1,0,0,VALID,0,0,0,0,0,1,0,0,0,0,0,0,0,0,0,0,0,0,0,0,207.87,512.3,2,0,0.08,0.08,153,14.29,0.08,0.06,10.02,LANDED,CF1-J,0:/Integrated Flight Computer/aircraft/cf1_j_cfg.ks (inferred preloaded)
10.44,TAKEOFF,TO_GROUND_ROLL,17.68,80,62.32,3.62,-0.1,-0.11,0.19,90.35,0.094,1,0,0,0,0,0,0,0,0,0,0,0,0,0,0,90.39,0,1,0,-0.32,0,0,0.01,90,0,0,0,0,0,0,0,0,0.015,0,0,3,0,0,0,69,0,0,0,90.39,1,0.015,-0.048,0.0003,0.25,1,0.0003,0,0,0,0,0,0,1,1,0,0,VALID,0,0,0,0,0,1,0,0,0,0,0,0,0,0,0,0,0,0,0,0,212.77,511.88,2,0,0.08,0.08,157,14.29,0.08,0.06,10.3,LANDED,CF1-J,0:/Integrated Flight Computer/aircraft/cf1_j_cfg.ks (inferred preloaded)
10.72,TAKEOFF,TO_GROUND_ROLL,18.76,80,61.24,3.62,-0.1,-0.11,0.19,90.37,0.097,1,0,0,0,0,0,0,0,0,0,0,0,0,0,0,90.4,0,1,0,-0.32,0,0,0.01,90,0,0,0,0,0,0,0,0,0.014,0,0,3,0,0,0,69,0,0,0,90.4,1,0.014,-0.036,0.0002,0.25,1,0.0002,0,0,0,0,0,0,1,1,0,0,VALID,0,0,0,0,0,1,0,0,0,0,0,0,0,0,0,0,0,0,0,0,217.57,511.43,2,0,0.08,0.08,161,14.29,0.08,0.06,10.58,LANDED,CF1-J,0:/Integrated Flight Computer/aircraft/cf1_j_cfg.ks (inferred preloaded)
11,TAKEOFF,TO_GROUND_ROLL,19.86,80,60.14,3.62,-0.11,-0.11,0.19,90.38,0.099,1,0,0,0,0,0,0,0,0,0,0,0,0,0,0,90.41,0,1,0,-0.32,0,0,0.01,90,0,0,0,0,0,0,0,0,0.013,0,0,3,0,0,0,69,0,0,0,90.41,1,0.013,-0.028,0.0002,0.25,1,0.0002,0,0,0,0,0,0,1,1,0,0,VALID,0,0,0,0,0,1,0,0,0,0,0,0,0,0,0,0,0,0,0,0,222.27,510.97,2,0,0.08,0.08,165,14.29,0.08,0.06,10.86,LANDED,CF1-J,0:/Integrated Flight Computer/aircraft/cf1_j_cfg.ks (inferred preloaded)
11.28,TAKEOFF,TO_GROUND_ROLL,20.99,80,59.01,3.63,-0.12,-0.1,0.19,90.39,0.1,1,0,0,0,0,0,0,0,0,0,0,0,0,0,0,90.41,0,1,0,-0.32,0,0,0.01,90,0,0,0,0,0,0,0,0,0.012,0,0,3,0,0,0,69,0,0,0,90.41,1,0.012,-0.024,0.0002,0.261,0,0.0002,0,0,0,0,0,0,1,1,0,0,VALID,0,0,0,0,0,1,0,0,0,0,0,0,0,0,0,0,0,0,0,0,226.86,510.49,2,0,0.08,0.08,169,14.29,0.08,0.06,11.14,LANDED,CF1-J,0:/Integrated Flight Computer/aircraft/cf1_j_cfg.ks (inferred preloaded)
11.56,TAKEOFF,TO_GROUND_ROLL,22.14,80,57.86,3.63,-0.12,-0.1,0.2,90.39,0.102,1,0,0,0,0,0,0,0,0,0,0,0,0,0,0,90.41,0,1,0,-0.32,0,0,0.01,90,0,0,0,0,0,0,0,0,0.011,0,0,3,0,0,0,69,0,0,0,90.41,1,0.011,-0.022,0.0002,0.273,0,0.0002,0,0,0,0,0,0,1,1,0,0,VALID,0,0,0,0,0,1,0,0,0,0,0,0,0,0,0,0,0,0,0,0,231.37,509.98,2,0,0.08,0.08,173,14.29,0.08,0.06,11.42,LANDED,CF1-J,0:/Integrated Flight Computer/aircraft/cf1_j_cfg.ks (inferred preloaded)
11.84,TAKEOFF,TO_GROUND_ROLL,23.31,80,56.69,3.63,-0.13,-0.1,0.2,90.39,0.102,1,0,0,0,0,0,0,0,0,0,0,0,0,0,0,90.41,0,1,0,-0.32,0,0,0.01,90,0,0,0,0,0,0,0,0,0.01,0,0,3,0,0,0,69,0,0,0,90.41,1,0.01,-0.024,0.0002,0.285,0,0.0002,0,0,0,0,0,0,1,1,0,0,VALID,0,0,0,0,0,1,0,0,0,0,0,0,0,0,0,0,0,0,0,0,235.77,509.46,2,0,0.08,0.08,177,14.29,0.08,0.06,11.7,LANDED,CF1-J,0:/Integrated Flight Computer/aircraft/cf1_j_cfg.ks (inferred preloaded)
12.12,TAKEOFF,TO_GROUND_ROLL,24.5,80,55.5,3.63,-0.13,-0.1,0.2,90.39,0.104,1,0,0,0,0,0,0,0,0,0,0,0,0,0,0,90.41,0,1,0,-0.31,0,0,0.01,90,0,0,0,0,0,0,0,0,0.009,0,0,3,0,0,0,69,0,0,0,90.41,1,0.009,-0.024,0.0002,0.298,0,0.0002,0,0,0,0,0,0,1,1,0,0,VALID,0,0,0,0,0,1,0,0,0,0,0,0,0,0,0,0,0,0,0,0,240.08,508.91,2,0,0.08,0.08,181,14.29,0.08,0.06,11.98,LANDED,CF1-J,0:/Integrated Flight Computer/aircraft/cf1_j_cfg.ks (inferred preloaded)
12.4,TAKEOFF,TO_GROUND_ROLL,25.71,80,54.29,3.63,-0.14,-0.09,0.2,90.39,0.104,1,0,0,0,0,0,0,0,0,0,0,0,0,0,0,90.41,0,1,0,-0.31,0,0,0.01,90,0,0,0,0,0,0,0,0,0.008,0,0,3,0,0,0,69,0,0,0,90.41,1,0.008,-0.023,0.0002,0.311,0,0.0002,0,0,0,0,0,0,1,1,0,0,VALID,0,0,0,0,0,1,0,0,0,0,0,0,0,0,0,0,0,0,0,0,244.29,508.35,2,0,0.08,0.08,185,14.29,0.08,0.06,12.26,LANDED,CF1-J,0:/Integrated Flight Computer/aircraft/cf1_j_cfg.ks (inferred preloaded)
12.68,TAKEOFF,TO_GROUND_ROLL,26.94,80,53.06,3.63,-0.15,-0.09,0.2,90.38,0.103,1,0,0,0,0,0,0,0,0,0,0,0,0,0,0,90.41,0,1,0,-0.31,0,0,0.01,90,0,0,0,0,0,0,0,0,0.007,0,0,3,0,0,0,69,0,0,0,90.41,1,0.007,-0.025,0.0002,0.324,0,0.0002,0,0,0,0,0,0,1,1,0,0,VALID,0,0,0,0,0,1,0,0,0,0,0,0,0,0,0,0,0,0,0,0,248.4,507.76,2,0,0.08,0.08,189,14.29,0.08,0.06,12.54,LANDED,CF1-J,0:/Integrated Flight Computer/aircraft/cf1_j_cfg.ks (inferred preloaded)
12.96,TAKEOFF,TO_GROUND_ROLL,28.19,80,51.81,3.63,-0.15,-0.09,0.2,90.38,0.102,1,0,0,0,0,0,0,0,0,0,0,0,0,0,0,90.41,0,1,0,-0.31,0,0,0.01,90,0,0,0,0,0,0,0,0,0.006,0,0,3,0,0,0,69,0,0,0,90.41,1,0.006,-0.025,0.0002,0.338,0,0.0002,0,0,0,0,0,0,1,1,0,0,VALID,0,0,0,0,0,1,0,0,0,0,0,0,0,0,0,0,0,0,0,0,252.43,507.15,2,0,0.08,0.08,193,14.29,0.08,0.06,12.82,LANDED,CF1-J,0:/Integrated Flight Computer/aircraft/cf1_j_cfg.ks (inferred preloaded)
13.24,TAKEOFF,TO_GROUND_ROLL,29.46,80,50.54,3.63,-0.16,-0.09,0.21,90.38,0.102,1,0,0,0,0,0,0,0,0,0,0,0,0,0,0,90.41,0,1,0,-0.31,0,0,0.01,90,0,0,0,0,0,0,0,0,0.005,0,0,3,0,0,0,69,0,0,0,90.41,1,0.005,-0.024,0.0002,0.351,0,0.0002,0,0,0,0,0,0,1,1,0,0,VALID,0,0,0,0,0,1,0,0,0,0,0,0,0,0,0,0,0,0,0,0,256.36,506.53,2,0,0.08,0.08,197,14.29,0.08,0.06,13.1,LANDED,CF1-J,0:/Integrated Flight Computer/aircraft/cf1_j_cfg.ks (inferred preloaded)
13.52,TAKEOFF,TO_GROUND_ROLL,30.75,80,49.25,3.63,-0.17,-0.08,0.21,90.38,0.102,1,0,0,0,0,0,0,0,0,0,0,0,0,0,0,90.4,0,1,0,-0.31,0,0,0.01,90,0,0,0,0,0,0,0,0,0.004,0,0,3,0,0,0,69,0,0,0,90.4,1,0.004,-0.022,0.0002,0.365,0,0.0002,0,0,0,0,0,0,1,1,0,0,VALID,0,0,0,0,0,1,0,0,0,0,0,0,0,0,0,0,0,0,0,0,260.19,505.88,2,0,0.08,0.08,201,14.29,0.08,0.06,13.38,LANDED,CF1-J,0:/Integrated Flight Computer/aircraft/cf1_j_cfg.ks (inferred preloaded)
13.8,TAKEOFF,TO_GROUND_ROLL,32.05,80,47.95,3.63,-0.17,-0.08,0.21,90.38,0.102,1,0,0,0,0,0,0,0,0,0,0,0,0,0,0,90.4,0,1,0,-0.31,0,0,0.01,90,0,0,0,0,0,0,0,0,0.003,0,0,3,0,0,0,69,0,0,0,90.4,1,0.003,-0.021,0.0002,0.379,0,0.0002,0,0,0,0,0,0,1,1,0,0,VALID,0,0,0,0,0,1,0,0,0,0,0,0,0,0,0,0,0,0,0,0,263.94,505.21,2,0,0.08,0.08,205,14.29,0.08,0.06,13.66,LANDED,CF1-J,0:/Integrated Flight Computer/aircraft/cf1_j_cfg.ks (inferred preloaded)
14.08,TAKEOFF,TO_GROUND_ROLL,33.38,80,46.62,3.63,-0.18,-0.08,0.21,90.38,0.101,1,0,0,0,0,0,0,0,0,0,0,0,0,0,0,90.4,0,1,0,-0.31,0,0,0.01,90,0,0,0,0,0,0,0,0,0.001,0,0,3,0,0,0,69,0,0,0,90.4,1,0.001,-0.019,0.0002,0.393,0,0.0002,0,0,0,0,0,0,1,1,0,0,VALID,0,0,0,0,0,1,0,0,0,0,0,0,0,0,0,0,0,0,0,0,267.6,504.52,2,0,0.08,0.08,209,14.29,0.08,0.06,13.94,LANDED,CF1-J,0:/Integrated Flight Computer/aircraft/cf1_j_cfg.ks (inferred preloaded)
14.36,TAKEOFF,TO_GROUND_ROLL,34.72,80,45.28,3.63,-0.19,-0.08,0.21,90.38,0.101,1,0,0,0,0,0,0,0,0,0,0,0,0,0,0,90.4,0,1,0,-0.31,0,0,0.02,90,0,0,0,0,0,0,0,0,0,0,0,3,0,0,0,69,0,0,0,90.4,1,0,-0.018,0.0002,0.408,0,0.0002,0,0,0,0,0,0,1,1,0,0,VALID,0,0,0,0,0,1,0,0,0,0,0,0,0,0,0,0,0,0,0,0,271.17,503.81,2,0,0.08,0.08,213,14.29,0.08,0.06,14.22,LANDED,CF1-J,0:/Integrated Flight Computer/aircraft/cf1_j_cfg.ks (inferred preloaded)
14.64,TAKEOFF,TO_GROUND_ROLL,36.07,80,43.93,3.63,-0.19,-0.08,0.21,90.38,0.101,1,0,0,0,0,0,0,0,0,0,0,0,0,0,0,90.4,0,1,0,-0.3,0,0,0.02,90,0,0,0,0,0,0,0,0,-0.002,0,0,3,0,0,0,69,0,0,0,90.4,1,-0.002,-0.02,0.0002,0.422,0,0.0002,0,0,0,0,0,0,1,1,0,0,VALID,0,0,0,0,0,1,0,0,0,0,0,0,0,0,0,0,0,0,0,0,274.65,503.07,2,0,0.08,0.08,217,14.29,0.08,0.06,14.5,LANDED,CF1-J,0:/Integrated Flight Computer/aircraft/cf1_j_cfg.ks (inferred preloaded)
14.92,TAKEOFF,TO_GROUND_ROLL,37.44,80,42.56,3.63,-0.2,-0.07,0.21,90.38,0.103,1,0,0,0,0,0,0,0,0,0,0,0,0,0,0,90.4,0,1,0,-0.3,0,0,0.02,90,0,0,0,0,0,0,0,0,-0.003,0,0,3,0,0,0,69,0,0,0,90.4,1,-0.003,-0.021,0.0002,0.437,0,0.0002,0,0,0,0,0,0,1,1,0,0,VALID,0,0,0,0,0,1,0,0,0,0,0,0,0,0,0,0,0,0,0,0,278.04,502.32,2,0,0.08,0.08,221,14.29,0.08,0.06,14.78,LANDED,CF1-J,0:/Integrated Flight Computer/aircraft/cf1_j_cfg.ks (inferred preloaded)
15.2,TAKEOFF,TO_GROUND_ROLL,38.83,80,41.17,3.63,-0.21,-0.07,0.22,90.38,0.104,1,0,0,0,0,0,0,0,0,0,0,0,0,0,0,90.4,0,1,0,-0.3,0,0,0.02,90,0,0,0,0,0,0,0,0,-0.005,0,0,3,0,0,0,69,0,0,0,90.4,1,-0.005,-0.02,0.0002,0.452,0,0.0002,0,0,0,0,0,0,1,1,0,0,VALID,0,0,0,0,0,1,0,0,0,0,0,0,0,0,0,0,0,0,0,0,281.35,501.55,2,0,0.08,0.08,225,14.29,0.08,0.06,15.06,LANDED,CF1-J,0:/Integrated Flight Computer/aircraft/cf1_j_cfg.ks (inferred preloaded)
15.48,TAKEOFF,TO_GROUND_ROLL,40.23,80,39.77,3.63,-0.21,-0.07,0.22,90.37,0.102,1,0,0,0,0,0,0,0,0,0,0,0,0,0,0,90.4,0,1,0,-0.3,0,0,0.02,90,0,0,0,0,0,0,0,0,-0.006,0,0,3,0,0,0,69,0,0,0,90.4,1,-0.006,-0.021,0.0003,0.467,0,0.0003,0,0,0,0,0,0,1,1,0,0,VALID,0,0,0,0,0,1,0,0,0,0,0,0,0,0,0,0,0,0,0,0,284.57,500.76,2,0,0.08,0.08,229,14.29,0.08,0.06,15.34,LANDED,CF1-J,0:/Integrated Flight Computer/aircraft/cf1_j_cfg.ks (inferred preloaded)
15.76,TAKEOFF,TO_GROUND_ROLL,41.65,80,38.35,3.63,-0.22,-0.07,0.22,90.37,0.1,1,0,0,0,0,0,0,0,0,0,0,0,0,0,0,90.39,0,1,0,-0.3,0,0,0.02,90,0,0,0,0,0,0,0,0,-0.008,0,0,3,0,0,0,69,0,0,0,90.39,1,-0.008,-0.02,0.0003,0.482,0,0.0003,0,0,0,0,0,0,1,1,0,0,VALID,0,0,0,0,0,1,0,0,0,0,0,0,0,0,0,0,0,0,0,0,287.71,499.95,2,0,0.08,0.08,233,14.29,0.08,0.06,15.62,LANDED,CF1-J,0:/Integrated Flight Computer/aircraft/cf1_j_cfg.ks (inferred preloaded)
16.04,TAKEOFF,TO_GROUND_ROLL,43.08,80,36.92,3.63,-0.22,-0.06,0.22,90.37,0.101,1,0,0,0,0,0,0,0,0,0,0,0,0,0,0,90.39,0,1,0,-0.3,0,0,0.02,90,0,0,0,0,0,0,0,0,-0.009,0,0,3,0,0,0,69,0,0,0,90.39,1,-0.009,-0.022,0.0003,0.497,0,0.0003,0,0,0,0,0,0,1,1,0,0,VALID,0,0,0,0,0,1,0,0,0,0,0,0,0,0,0,0,0,0,0,0,290.76,499.12,2,0,0.08,0.08,237,14.29,0.08,0.06,15.9,LANDED,CF1-J,0:/Integrated Flight Computer/aircraft/cf1_j_cfg.ks (inferred preloaded)
16.32,TAKEOFF,TO_GROUND_ROLL,44.52,80,35.48,3.63,-0.23,-0.06,0.22,90.37,0.103,1,0,0,0,0,0,0,0,0,0,0,0,0,0,0,90.39,0,1,0,-0.3,0,0,0.02,90,0,0,0,0,0,0,0,0,-0.011,0,0,3,0,0,0,69,0,0,0,90.39,1,-0.011,-0.023,0.0003,0.513,0,0.0003,0,0,0,0,0,0,1,1,0,0,VALID,0,0,0,0,0,1,0,0,0,0,0,0,0,0,0,0,0,0,0,0,293.74,498.27,2,0,0.08,0.08,241,14.29,0.08,0.06,16.18,LANDED,CF1-J,0:/Integrated Flight Computer/aircraft/cf1_j_cfg.ks (inferred preloaded)
16.6,TAKEOFF,TO_GROUND_ROLL,45.97,80,34.03,3.63,-0.24,-0.06,0.22,90.36,0.104,1,0,0,0,0,0,0,0,0,0,0,0,0,0,0,90.39,0,1,0,-0.3,0,0,0.02,90,0,0,0,0,0,0,0,0,-0.013,0,0,3,0,0,0,69,0,0,0,90.39,1,-0.013,-0.025,0.0004,0.528,0,0.0004,0,0,0,0,0,0,1,1,0,0,VALID,0,0,0,0,0,1,0,0,0,0,0,0,0,0,0,0,0,0,0,0,296.63,497.4,2,0,0.08,0.08,245,14.29,0.08,0.06,16.46,LANDED,CF1-J,0:/Integrated Flight Computer/aircraft/cf1_j_cfg.ks (inferred preloaded)
16.88,TAKEOFF,TO_GROUND_ROLL,47.44,80,32.56,3.63,-0.24,-0.06,0.22,90.36,0.104,1,0,0,0,0,0,0,0,0,0,0,0,0,0,0,90.39,0,1,0,-0.29,0,0,0.03,90,0,0,0,0,0,0,0,0,-0.015,0,0,3,0,0,0,69,0,0,0,90.39,1,-0.015,-0.027,0.0004,0.544,0,0.0004,0,0,0,0,0,0,1,1,0,0,VALID,0,0,0,0,0,1,0,0,0,0,0,0,0,0,0,0,0,0,0,0,299.44,496.51,2,0,0.08,0.08,249,14.29,0.08,0.06,16.74,LANDED,CF1-J,0:/Integrated Flight Computer/aircraft/cf1_j_cfg.ks (inferred preloaded)
17.16,TAKEOFF,TO_GROUND_ROLL,48.92,80,31.08,3.64,-0.25,-0.05,0.22,90.36,0.103,1,0,0,0,0,0,0,0,0,0,0,0,0,0,0,90.39,0,1,0,-0.29,0,0,0.03,90,0,0,0,0,0,0,0,0,-0.016,0,0,3,0,0,0,69,0,0,0,90.39,1,-0.016,-0.031,0.0005,0.56,0,0.0005,0,0,0,0,0,0,1,1,0,0,VALID,0,0,0,0,0,1,0,0,0,0,0,0,0,0,0,0,0,0,0,0,302.18,495.61,2,0,0.08,0.08,253,14.29,0.08,0.06,17.02,LANDED,CF1-J,0:/Integrated Flight Computer/aircraft/cf1_j_cfg.ks (inferred preloaded)
17.44,TAKEOFF,TO_GROUND_ROLL,50.41,80,29.59,3.64,-0.26,-0.05,0.22,90.35,0.103,1,0,0,0,0,0,0,0,0,0,0,0,0,0,0,90.39,0,1,0,-0.29,0,0,0.03,90,0,0,0,0,0,0,0,0,-0.018,0,0,3,0,0,0,69,0,0,0,90.39,1,-0.018,-0.034,0.0005,0.576,0,0.0005,0,0,0,0,0,0,1,1,0,0,VALID,0,0,0,0,0,1,0,0,0,0,0,0,0,0,0,0,0,0,0,0,304.84,494.68,2,0,0.08,0.08,257,14.29,0.08,0.06,17.3,LANDED,CF1-J,0:/Integrated Flight Computer/aircraft/cf1_j_cfg.ks (inferred preloaded)
17.72,TAKEOFF,TO_GROUND_ROLL,51.91,80,28.09,3.64,-0.26,-0.04,0.23,90.35,0.105,1,0,0,0,0,0,0,0,0,0,0,0,0,0,0,90.38,0,1,0,-0.29,0,0,0.03,90,0,0,0,0,0,0,0,0,-0.02,0,0,3,0,0,0,69,0,0,0,90.38,1,-0.02,-0.039,0.0006,0.592,0,0.0006,0,0,0,0,0,0,1,1,0,0,VALID,0,0,0,0,0,1,0,0,0,0,0,0,0,0,0,0,0,0,0,0,307.42,493.74,2,0,0.08,0.08,261,14.29,0.08,0.06,17.58,LANDED,CF1-J,0:/Integrated Flight Computer/aircraft/cf1_j_cfg.ks (inferred preloaded)
18,TAKEOFF,TO_GROUND_ROLL,53.42,80,26.58,3.64,-0.27,-0.01,0.25,90.34,0.107,1,0,0,0,0,0,0,0,0,0,0,0,0,0,0,90.38,0,1,0,-0.28,0,0,0.03,90,0,0,0,0,0,0,0,0,-0.022,0,0,3,0,0,0,69,0,0,0,90.38,1,-0.022,-0.045,0.0007,0.608,0,0.0007,0,0,0,0,0,0,1,1,0,0,VALID,0,0,0,0,0,1,0,0,0,0,0,0,0,0,0,0,0,0,0,0,309.93,492.79,2,0,0.08,0.08,265,14.29,0.08,0.06,17.86,LANDED,CF1-J,0:/Integrated Flight Computer/aircraft/cf1_j_cfg.ks (inferred preloaded)
18.28,TAKEOFF,TO_GROUND_ROLL,54.94,80,25.06,3.65,-0.27,0.03,0.3,90.33,0.108,1,0,0,0,0,0,0,0,0,0,0,0,0,0,0,90.38,0,1,0,-0.28,0,0,0.03,90,0,0,0,0,0,0,0,0,-0.024,0,0,3,0,0,0,69,0,0,0,90.38,1,-0.024,-0.049,0.0008,0.624,0,0.0008,0,0,0,0,0,0,1,1,0,0,VALID,0,0,0,0,0,1,0,0,0,0,0,0,0,0,0,0,0,0,0,0,312.36,491.82,2,0,0.08,0.08,269,14.29,0.08,0.06,18.14,LANDED,CF1-J,0:/Integrated Flight Computer/aircraft/cf1_j_cfg.ks (inferred preloaded)
18.56,TAKEOFF,TO_GROUND_ROLL,56.47,80,23.53,3.67,-0.2,0.09,0.31,90.33,0.107,1,0,0,0,0,0,0,0,0,0,0,0,0,0,0,90.38,0,1,0,-0.21,0,0,0.03,90,0,0,0,0,0,0,0,0,-0.026,0,0,3,0,0,0,69,0,0,0,90.38,1,-0.026,-0.054,0.001,0.641,0,0.001,0,0,0,0,0,0,1,1,0,0,VALID,0,0,0,0,0,1,0,0,0,0,0,0,0,0,0,0,0,0,0,0,314.72,490.83,2,0,0.08,0.08,273,14.29,0.08,0.06,18.42,LANDED,CF1-J,0:/Integrated Flight Computer/aircraft/cf1_j_cfg.ks (inferred preloaded)
18.84,TAKEOFF,TO_GROUND_ROLL,58.01,80,21.99,3.69,-0.33,0.19,0.49,90.32,0.104,1,0,0,0,0,0,0,0,0,0,0,0,0,0,0,90.38,0,1,0,-0.32,0,0,0.04,90,0,0,0,0,0,0,0,0,-0.028,0,0,3,0,0,0,69,0,0,0,90.38,1,-0.028,-0.058,0.0011,0.657,0,0.0011,0,0,0,0,0,0,1,1,0,0,VALID,0,0,0,0,0,1,0,0,0,0,0,0,0,0,0,0,0,0,0,0,317.01,489.83,2,0,0.08,0.08,277,14.29,0.08,0.06,18.7,LANDED,CF1-J,0:/Integrated Flight Computer/aircraft/cf1_j_cfg.ks (inferred preloaded)
19.12,TAKEOFF,TO_GROUND_ROLL,59.55,80,20.45,3.71,-0.27,0.31,0.55,90.31,0.101,1,0,0,0,0,0,0,0,0,0,0,0,0,0,0,90.38,0,1,0,-0.26,0,0,0.04,90,0,0,0,0,0,0,0,0,-0.03,0,0,3,0,0,0,69,0,0,0,90.38,1,-0.03,-0.062,0.0012,0.674,0,0.0012,0,0,0,0,0,0,1,1,0,0,VALID,0,0,0,0,0,1,0,0,0,0,0,0,0,0,0,0,0,0,0,0,319.23,488.81,2,0,0.08,0.08,281,14.29,0.08,0.06,18.98,LANDED,CF1-J,0:/Integrated Flight Computer/aircraft/cf1_j_cfg.ks (inferred preloaded)
19.4,TAKEOFF,TO_GROUND_ROLL,61.1,80,18.9,3.73,-0.29,0.42,0.67,90.31,0.1,1,0,0,0,0,0,0,0,0,0,0,0,0,0,0,90.37,0,1,0,-0.27,0,0,0.04,90,0,0,0,0,0,0,0,0,-0.031,0,0,3,0,0,0,69,0,0,0,90.37,1,-0.031,-0.064,0.0012,0.69,0,0.0012,0,0,0,0,0,0,1,1,0,0,VALID,0,0,0,0,0,1,0,0,0,0,0,0,0,0,0,0,0,0,0,0,321.38,487.78,2,0,0.08,0.08,285,14.29,0.08,0.06,19.26,LANDED,CF1-J,0:/Integrated Flight Computer/aircraft/cf1_j_cfg.ks (inferred preloaded)
19.68,TAKEOFF,TO_GROUND_ROLL,62.66,80,17.34,3.74,-0.3,0.49,0.75,90.3,0.101,1,0,0,0,0,0,0,0,0,0,0,0,0,0,0,90.37,0,1,0,-0.28,0,0,0.04,90,0,0,0,0,0,0,0,0,-0.033,0,0,3,0,0,0,69,0,0,0,90.37,1,-0.033,-0.066,0.0013,0.707,0,0.0013,0,0,0,0,0,0,1,1,0,0,VALID,0,0,0,0,0,1,0,0,0,0,0,0,0,0,0,0,0,0,0,0,323.46,486.74,2,0,0.08,0.08,289,14.29,0.08,0.06,19.54,LANDED,CF1-J,0:/Integrated Flight Computer/aircraft/cf1_j_cfg.ks (inferred preloaded)
19.96,TAKEOFF,TO_GROUND_ROLL,64.22,80,15.78,3.75,-0.3,0.54,0.8,90.3,0.1,1,0,0,0,0,0,0,0,0,0,0,0,0,0,0,90.37,0,1,0,-0.27,0,0,0.04,90,0,0,0,0,0,0,0,0,-0.035,0,0,3,0,0,0,69,0,0,0,90.37,1,-0.035,-0.066,0.0014,0.724,0,0.0014,0,0,0,0,0,0,1,1,0,0,VALID,0,0,0,0,0,1,0,0,0,0,0,0,0,0,0,0,0,0,0,0,325.48,485.69,2,0,0.08,0.08,293,14.29,0.08,0.06,19.82,LANDED,CF1-J,0:/Integrated Flight Computer/aircraft/cf1_j_cfg.ks (inferred preloaded)
20.24,TAKEOFF,TO_GROUND_ROLL,65.79,80,14.21,3.76,-0.31,0.57,0.83,90.3,0.098,1,0,0,0,0,0,0,0,0,0,0,0,0,0,0,90.36,0,1,0,-0.27,0,0,0.04,90,0,0,0,0,0,0,0,0,-0.037,0,0,3,0,0,0,69,0,0,0,90.36,1,-0.037,-0.066,0.0014,0.741,0,0.0014,0,0,0,0,0,0,1,1,0,0,VALID,0,0,0,0,0,1,0,0,0,0,0,0,0,0,0,0,0,0,0,0,327.44,484.63,2,0,0.08,0.08,297,14.29,0.08,0.06,20.1,LANDED,CF1-J,0:/Integrated Flight Computer/aircraft/cf1_j_cfg.ks (inferred preloaded)
20.52,TAKEOFF,TO_GROUND_ROLL,67.36,80,12.64,3.77,-0.31,0.61,0.86,90.3,0.096,1,0,0,0,0,0,0,0,0,0,0,0,0,0,0,90.36,0,1,0,-0.27,0,0,0.05,90,0,0,0,0,0,0,0,0,-0.039,0,0,3,0,0,0,69,0,0,0,90.36,1,-0.039,-0.065,0.0014,0.757,0,0.0014,0,0,0,0,0,0,1,1,0,0,VALID,0,0,0,0,0,1,0,0,0,0,0,0,0,0,0,0,0,0,0,0,329.33,483.56,2,0,0.08,0.08,301,14.29,0.08,0.06,20.38,LANDED,CF1-J,0:/Integrated Flight Computer/aircraft/cf1_j_cfg.ks (inferred preloaded)
20.8,TAKEOFF,TO_GROUND_ROLL,68.94,80,11.06,3.78,-0.35,0.65,0.92,90.3,0.095,1,0,0,0,0,0,0,0,0,0,0,0,0,0,0,90.36,0,1,0,-0.29,0,0,0.05,90,0,0,0,0,0,0,0,0,-0.042,0,0,3,0,0,0,69,0,0,0,90.36,1,-0.042,-0.064,0.0014,0.774,0,0.0014,0,0,0,0,0,0,1,1,0,0,VALID,0,0,0,0,0,1,0,0,0,0,0,0,0,0,0,0,0,0,0,0,331.16,482.48,2,0,0.08,0.08,305,14.29,0.08,0.06,20.66,LANDED,CF1-J,0:/Integrated Flight Computer/aircraft/cf1_j_cfg.ks (inferred preloaded)
21.1,TAKEOFF,TO_ROTATE,70.63,80,9.37,3.79,-0.32,0.72,0.96,90.29,0.095,1,0,0,0,0,0,0,0,0,0,0,0,0,0,0,90.36,0.941,1,0,-0.25,0,0,0.05,90,0,0,0,0,0,0,0,0,-0.044,0,0,3,0,0,0,69,0,0,0,90.36,1,-0.044,-0.062,0.0014,0.791,0,0.0014,0,0.12,0.941,0.22,0.08,0,1,1,0,0,VALID,0,0,0,0,0,1,0,0,0,0,0,0,0,0,0,0,0,0,0,0,333.06,481.31,2,0,0.08,0.08,309,13.33,0.08,0.06,20.94,LANDED,CF1-J,0:/Integrated Flight Computer/aircraft/cf1_j_cfg.ks (inferred preloaded)
21.38,TAKEOFF,TO_ROTATE,72.21,80,7.79,3.81,-0.32,0.82,1.06,90.29,0.094,1,0,0,0,0,0,0,0,0,0,0,0,0,0,0,90.35,1.781,1,0,-0.26,0,0,0.05,90,0,0,0,0,0,0,0,0,-0.046,0,0,3,0,0,0,69,0,0,0,90.35,1,-0.046,-0.059,0.0013,0.808,0,0.0013,0,0.157,1.781,0.962,0.08,0,1,1,0,0,VALID,0,0,0,0,0,1,0,0,0,0,0,0,0,0,0,0,0,0,0,0,334.76,480.21,2,0,0.08,0.08,313,14.29,0.08,0.06,21.22,LANDED,CF1-J,0:/Integrated Flight Computer/aircraft/cf1_j_cfg.ks (inferred preloaded)
21.68,TAKEOFF,TO_ROTATE,73.91,80,6.09,3.84,-0.32,1.02,1.26,90.3,0.092,1,0,0,0,0,0,0,0,0,0,0,0,0,0,0,90.35,2.681,1,0,-0.25,0,0,0.05,90,0,0,0,0,0,0,0,0,-0.048,0,0,3,0,0,0,69,0,0,0,90.35,1,-0.048,-0.055,0.0013,0.826,0,0.0013,0,0.2131,2.681,1.664,0.08,0,1,1,0,0,VALID,0,0,0,0,0,1,0,0,0,0,0,0,0,0,0,0,0,0,0,0,336.53,479.03,2,0,0.08,0.08,317,13.33,0.08,0.06,21.52,LANDED,CF1-J,0:/Integrated Flight Computer/aircraft/cf1_j_cfg.ks (inferred preloaded)
21.96,TAKEOFF,TO_ROTATE,75.49,80,4.51,3.9,-0.3,1.29,1.51,90.3,0.088,1,0,0,0,0,0,0,0,0,0,0,0,0,0,0,90.35,3.521,1,0,-0.23,0,0,0.06,90,0,0,0,0,0,0,0,0,-0.051,0,0,3,0,0,0,69,0,0,0,90.35,1,-0.051,-0.05,0.0012,0.843,0,0.0012,0,0.2584,3.521,2.23,0.08,0,1,1,0,0,VALID,0,0,0,0,0,1,0,0,0,0,0,0,0,0,0,0,0,0,0,0,338.12,477.92,2,0,0.08,0.08,321,14.29,0.08,0.06,21.8,LANDED,CF1-J,0:/Integrated Flight Computer/aircraft/cf1_j_cfg.ks (inferred preloaded)
22.24,TAKEOFF,TO_ROTATE,77.06,80,2.94,3.97,-0.27,1.65,1.85,90.3,0.079,1,0,0,0,0,0,0,0,0,0,0,0,0,0,0,90.34,4.361,1,0,-0.2,0,0,0.06,90,0,0,0,0,0,0,0,0,-0.053,0,0,3,0,0,0,69,0,0,0,90.34,1,-0.053,-0.044,0.001,0.86,0,0.001,0,0.2967,4.361,2.709,0.08,0,1,1,0,0,VALID,0,0,0,0,0,1,0,0,0,0,0,0,0,0,0,0,0,0,0,0,339.67,476.81,2,0,0.08,0.08,325,14.29,0.08,0.06,22.08,LANDED,CF1-J,0:/Integrated Flight Computer/aircraft/cf1_j_cfg.ks (inferred preloaded)
22.52,TAKEOFF,TO_ROTATE,78.63,80,1.37,4.11,-0.36,2.17,2.4,90.3,0.074,1,0,0,0,0,0,0,0,0,0,0,0,0,0,0,90.34,5.201,1,0,-0.24,0,0,0.06,90,0,0,0,0,0,0,0,0,-0.055,0,0,3,0,0,0,69,0,0,0,90.34,1,-0.055,-0.037,0.0009,0.877,0,0.0009,0,0.3228,5.201,3.035,0.08,0,1,1,0,0,VALID,0,0,0,0,0,1,0,0,0,0,0,0,0,0,0,0,0,0,0,0,341.16,475.71,2,0,0.08,0.08,329,14.29,0.08,0.06,22.36,LANDED,CF1-J,0:/Integrated Flight Computer/aircraft/cf1_j_cfg.ks (inferred preloaded)
22.8,TAKEOFF,TO_ROTATE,80.17,80,-0.17,4.27,-0.14,3.04,3.13,90.31,0.078,1,0,0,0,0,0,0,0,0,0,0,0,0,0,0,90.34,6.041,1,0,-0.1,0,0,0.06,90,0,0,0,0,0,0,0,0,-0.058,0,0,3,0,0,0,69,0,0,0,90.34,1,-0.058,-0.031,0.0007,0.893,0,0.0007,0,0.3203,6.041,3.004,0.08,0,1,1,0,0,VALID,0,0,0,0,0,1,0,0,0,0,0,0,0,0,0,0,0,0,0,0,342.62,474.62,2,0,0.08,0.08,333,14.29,0.08,0.06,22.64,LANDED,CF1-J,0:/Integrated Flight Computer/aircraft/cf1_j_cfg.ks (inferred preloaded)
23.08,TAKEOFF,TO_ROTATE,81.67,80,-1.67,4.49,-0.23,4.13,4.29,90.31,0.078,1,0,0,0,0,0,0,0,0,0,0,0,0,0,0,90.34,6.881,1,0,-0.17,0,0,0.07,90,0,0,0,0,0,0,0,0,-0.06,0,0,3,0,0,0,69,0,0,0,90.34,1,-0.06,-0.022,0.0005,0.91,0,0.0005,0,0.2999,6.881,2.749,0.08,0,1,1,0,0,VALID,0,0,0,0,0,1,0,0,0,0,0,0,0,0,0,0,0,0,0,0,344.04,473.55,2,0,0.08,0.08,337,14.29,0.08,0.06,22.92,LANDED,CF1-J,0:/Integrated Flight Computer/aircraft/cf1_j_cfg.ks (inferred preloaded)
23.36,TAKEOFF,TO_ROTATE,83.11,80,-3.11,4.74,-0.05,5.33,5.38,90.32,0.065,1,0,0,0,0,0,0,0,0,0,0,0,0,0,0,90.34,7.721,1,0,-0.05,0,0,0.07,90,0,0,0,0,0,0,0,0,-0.063,0,0,3,0,0,0,69,0,0,0,90.34,1,-0.063,-0.018,0.0004,0.925,0,0.0004,0,0.2709,7.721,2.387,0.08,0,1,1,0,0,VALID,0,0,0,0,0,1,0,0,0,0,0,0,0,0,0,0,0,0,0,0,345.45,472.52,2,0,0.08,0.08,341,14.29,0.08,0.06,23.2,LANDED,CF1-J,0:/Integrated Flight Computer/aircraft/cf1_j_cfg.ks (inferred preloaded)
23.62,TAKEOFF,TO_ROTATE,84.38,80,-4.38,5.03,0.56,6.23,5.88,90.32,0.052,1,0,0,0,0,0,0,0,0,0,0,0,0,0,0,90.4,8.561,0,1,0.38,0,0,8.32,90.4,-0.3965,-0.0068,0.918,8.56,90.4,0,0,0,0,0,0,3,0,0,0,69,0,0,0,90.4,1,0,-0.082,0,0,3,0,0,0,8.561,2.329,0,0,1,1,0,0,VALID,0,0,0,0,0,1,0,0,0,0,0,0,0,0,0,0,0,0,0,0,346.75,471.61,2,0,0.08,0.08,345,15.38,0.08,0.06,23.46,FLYING,CF1-J,0:/Integrated Flight Computer/aircraft/cf1_j_cfg.ks (inferred preloaded)
23.9,TAKEOFF,TO_ROTATE,85.7,80,-5.7,5.44,1.22,6.58,5.79,90.32,0.065,1,0,0,0,0,0,0,0,0,0,0,0,0,0,0,90.4,9.401,0,1,0.82,0,0,9.16,90.4,-0.3831,-0.0068,0.9237,9.4,90.4,0,0,0,0,0,0,3,0,0,0,69,0,0,0,90.4,1,0,-0.079,0,0,3,0,0,0,9.401,2.824,0,0,1,1,0,0,VALID,0,0,0,0,0,1,0,0,0,0,0,0,0,0,0,0,0,0,0,0,348.12,470.65,2,0,0.08,0.08,349,14.29,0.08,0.06,23.74,FLYING,CF1-J,0:/Integrated Flight Computer/aircraft/cf1_j_cfg.ks (inferred preloaded)
24.18,TAKEOFF,TO_CLIMB,86.99,80,-6.99,6.07,1.99,7.07,5.81,90.32,0.075,1,0,0,0,0,0,0,0,0,0,0,0,0,0,0,90.4,10,0,1,1.31,0,0,10,90.4,-0.3734,-0.0067,0.9276,10,90.4,0,0,0,0,0,0,3,0,0,0,69,0,0,0,90.4,1,0,-0.077,0,0,3,0,0,0,10,2.928,0,0,1,1,0,0,VALID,0,0,0,0,0,1,0,0,0,0,0,0,0,0,0,0,0,0,0,0,349.45,469.69,2,0,0.08,0.08,353,14.29,0.08,0.06,24.02,FLYING,CF1-J,0:/Integrated Flight Computer/aircraft/cf1_j_cfg.ks (inferred preloaded)
24.46,TAKEOFF,TO_CLIMB,88.26,80,-8.26,6.91,2.98,7.33,5.54,90.33,0.085,0.9174,0,0,0,0,0,0,0,0,0,0,0,0,0,0,90.4,7.52,0,1,1.94,0,0,7.39,90.4,-0.4133,-0.0068,0.9106,7.52,90.4,0,0,0,0,0,0,3,0,0,0,69,0,0,0,90.4,1,0,-0.074,0,0,3,0,0,0,10,2.928,0,0,1,1,0,0,VALID,0,0,0,0,0,1,0,0,0,0,0,0,0,0,0,0,0,0,0,0,350.5,468.74,2,0,0.08,0.08,357,14.29,0.08,0.06,24.3,FLYING,CF1-J,0:/Integrated Flight Computer/aircraft/cf1_j_cfg.ks (inferred preloaded)
24.74,TAKEOFF,TO_CLIMB,89.51,80,-9.51,7.89,3.64,6.82,4.6,90.33,0.09,0.9049,0,0,0,0,0,0,0,0,0,0,0,0,0,0,90.4,7.968,0,1,2.33,0,0,7.84,90.4,-0.4062,-0.0068,0.9138,7.97,90.4,0,0,0,0,0,0,3,0,0,0,69,0,0,0,90.4,1,0,-0.072,0,0,3,0,0,0,10,2.928,0,0,1,1,0,0,VALID,0,0,0,0,0,1,0,0,0,0,0,0,0,0,0,0,0,0,0,0,351.09,467.78,2,0,0.08,0.08,361,14.29,0.08,0.06,24.58,FLYING,CF1-J,0:/Integrated Flight Computer/aircraft/cf1_j_cfg.ks (inferred preloaded)
25.02,TAKEOFF,TO_CLIMB,90.8,80,-10.8,9.13,4.22,7.06,4.49,90.33,0.092,0.892,0,0,0,0,0,0,0,0,0,0,0,0,0,0,90.4,8,0,1,2.66,0,0,8,90.4,-0.4057,-0.0068,0.914,8,90.4,0,0,0,0,0,0,3,0,0,0,69,0,0,0,90.4,1,0,-0.07,0,0,3,0,0,0,10,2.928,0,0,1,1,0,0,VALID,0,0,0,0,0,1,0,0,0,0,0,0,0,0,0,0,0,0,0,0,351.52,466.78,2,0,0.08,0.08,365,14.29,0.08,0.06,24.86,FLYING,CF1-J,0:/Integrated Flight Computer/aircraft/cf1_j_cfg.ks (inferred preloaded)
25.3,TAKEOFF,TO_CLIMB,92.07,80,-12.07,10.57,4.96,7.37,4.42,90.33,0.104,0.8793,0,0,0,0,0,0,0,0,0,0,0,0,0,0,90.4,8,0,1,3.08,0,0,8,90.4,-0.4057,-0.0068,0.914,8,90.4,0,0,0,0,0,0,3,0,0,0,69,0,0,0,90.4,1,0,-0.067,0,0,3,0,0,0,10,2.928,0,0,1,1,0,0,VALID,0,0,0,0,0,1,0,0,0,0,0,0,0,0,0,0,0,0,0,0,351.83,465.78,2,0,0.08,0.08,369,14.29,0.08,0.06,25.14,FLYING,CF1-J,0:/Integrated Flight Computer/aircraft/cf1_j_cfg.ks (inferred preloaded)
25.58,TAKEOFF,TO_CLIMB,93.32,80,-13.32,12.19,5.69,7.47,4.13,90.34,0.114,0.8668,0,0,0,0,0,0,0,0,0,0,0,0,0,0,90.4,8,0,1,3.49,0,0,8,90.4,-0.4058,-0.0068,0.9139,8,90.4,0,0,0,0,0,0,3,0,0,0,69,0,0,0,90.4,1,0,-0.063,0,0,3,0,0,0,10,2.928,0,0,1,1,0,0,VALID,0,0,0,0,0,1,0,0,0,0,0,0,0,0,0,0,0,0,0,0,352.01,464.79,2,0,0.08,0.08,373,14.29,0.08,0.06,25.42,FLYING,CF1-J,0:/Integrated Flight Computer/aircraft/cf1_j_cfg.ks (inferred preloaded)
25.86,TAKEOFF,TO_CLIMB,94.56,80,-14.56,14.01,6.4,7.61,3.89,90.34,0.122,0.8544,0,0,0,0,0,0,0,0,0,0,0,0,0,0,90.4,8,0,1,3.87,0,0,8,90.4,-0.4058,-0.0068,0.9139,8,90.4,0,0,0,0,0,0,3,0,0,0,69,0,0,0,90.4,1,0,-0.06,0,0,3,0,0,0,10,2.928,0,0,1,1,0,0,VALID,0,0,0,0,0,1,0,0,0,0,0,0,0,0,0,0,0,0,0,0,352.08,463.79,2,0,0.08,0.08,377,14.29,0.08,0.06,25.7,FLYING,CF1-J,0:/Integrated Flight Computer/aircraft/cf1_j_cfg.ks (inferred preloaded)
26.14,TAKEOFF,TO_CLIMB,95.79,80,-15.79,16.03,7.12,7.73,3.65,90.34,0.129,0.8421,0,0,0,0,0,0,0,0,0,0,0,0,0,0,90.4,8,0,1,4.25,0,0,8,90.4,-0.4059,-0.0068,0.9139,8,90.4,0,0,0,0,0,0,3,0,0,0,69,0,0,0,90.4,1,0,-0.056,0,0,3,0,0,0,10,2.928,0,0,1,1,0,0,VALID,0,0,0,0,0,1,0,0,0,0,0,0,0,0,0,0,0,0,0,0,352.03,462.78,2,0,0.08,0.08,381,14.29,0.08,0.06,25.98,FLYING,CF1-J,0:/Integrated Flight Computer/aircraft/cf1_j_cfg.ks (inferred preloaded)
26.42,TAKEOFF,TO_CLIMB,97.01,80,-17.01,18.25,7.81,7.79,3.36,90.35,0.134,0.8299,0,0,0,0,0,0,0,0,0,0,0,0,0,0,90.4,8,0,1,4.6,0,0,8,90.4,-0.4059,-0.0068,0.9139,8,90.4,0,0,0,0,0,0,3,0,0,0,69,0,0,0,90.4,1,0,-0.053,0,0,3,0,0,0,10,2.928,0,0,1,1,0,0,VALID,0,0,0,0,0,1,0,0,0,0,0,0,0,0,0,0,0,0,0,0,351.87,461.77,2,0,0.08,0.08,385,14.29,0.08,0.06,26.26,FLYING,CF1-J,0:/Integrated Flight Computer/aircraft/cf1_j_cfg.ks (inferred preloaded)
26.7,TAKEOFF,TO_CLIMB,98.22,80,-18.22,20.65,8.46,7.83,3.09,90.35,0.136,0.8178,0,0,0,0,0,0,0,0,0,0,0,0,0,0,90.4,8,0,1,4.92,0,0,8,90.4,-0.4059,-0.0068,0.9139,8,90.4,0,0,0,0,0,0,3,0,0,0,69,0,0,0,90.4,1,0,-0.05,0,0,3,0,0,0,10,2.928,0,0,1,1,0,0,VALID,0,0,0,0,0,1,0,0,0,0,0,0,0,0,0,0,0,0,0,0,351.6,460.76,2,0,0.08,0.08,389,14.29,0.08,0.06,26.54,FLYING,CF1-J,0:/Integrated Flight Computer/aircraft/cf1_j_cfg.ks (inferred preloaded)
26.98,TAKEOFF,TO_CLIMB,99.42,80,-19.42,23.21,9.08,7.83,2.8,90.35,0.138,0.8058,0,0,0,0,0,0,0,0,0,0,0,0,0,0,90.4,8,0,1,5.22,0,0,8,90.4,-0.406,-0.0068,0.9139,8,90.4,0,0,0,0,0,0,3,0,0,0,69,0,0,0,90.4,1,0,-0.047,0,0,3,0,0,0,10,2.928,0,0,1,1,0,0,VALID,0,0,0,0,0,1,0,0,0,0,0,0,0,0,0,0,0,0,0,0,351.22,459.74,2,0,0.08,0.08,393,14.29,0.08,0.06,26.82,FLYING,CF1-J,0:/Integrated Flight Computer/aircraft/cf1_j_cfg.ks (inferred preloaded)
27.26,TAKEOFF,TO_CLIMB,100.62,80,-20.62,25.94,9.65,7.82,2.53,90.36,0.138,0.7938,0,0,0,0,0,0,0,0,0,0,0,0,0,0,90.4,8,0,1,5.48,0,0,8,90.4,-0.406,-0.0068,0.9138,8,90.4,0,0,0,0,0,0,3,0,0,0,69,0,0,0,90.4,1,0,-0.044,0,0,3,0,0,0,10,2.928,0,0,1,1,0,0,VALID,0,0,0,0,0,1,0,0,0,0,0,0,0,0,0,0,0,0,0,0,350.74,458.71,2,0,0.08,0.08,397,14.29,0.08,0.06,27.1,FLYING,CF1-J,0:/Integrated Flight Computer/aircraft/cf1_j_cfg.ks (inferred preloaded)
27.54,TAKEOFF,TO_CLIMB,101.81,80,-21.81,28.83,10.19,7.84,2.32,90.36,0.139,0.7819,0,0,0,0,0,0,0,0,0,0,0,0,0,0,90.4,8,0,1,5.71,0,0,8,90.4,-0.4061,-0.0068,0.9138,8,90.4,0,0,0,0,0,0,3,0,0,0,69,0,0,0,90.4,1,0,-0.041,0,0,3,0,0,0,10,2.928,0,0,1,1,0,0,VALID,0,0,0,0,0,1,0,0,0,0,0,0,0,0,0,0,0,0,0,0,350.15,457.68,2,0,0.08,0.08,401,14.29,0.08,0.06,27.38,FLYING,CF1-J,0:/Integrated Flight Computer/aircraft/cf1_j_cfg.ks (inferred preloaded)
27.82,TAKEOFF,TO_CLIMB,102.99,80,-22.99,31.87,10.71,7.87,2.13,90.36,0.138,0.78,0,0,0,0,0,0,0,0,0,0,0,0,0,0,90.4,8,0,1,5.94,0,0,8,90.4,-0.4061,-0.0068,0.9138,8,90.4,0,0,0,0,0,0,3,0,0,0,69,0,0,0,90.4,1,0,-0.037,0,0,3,0,0,0,10,2.928,0,0,1,1,0,0,VALID,0,0,0,0,0,1,0,0,0,0,0,0,0,0,0,0,0,0,0,0,349.49,456.65,2,0,0.08,0.08,405,14.29,0.08,0.06,27.66,FLYING,CF1-J,0:/Integrated Flight Computer/aircraft/cf1_j_cfg.ks (inferred preloaded)
28.1,TAKEOFF,TO_CLIMB,104.16,80,-24.16,35.04,11.21,7.85,1.9,90.37,0.138,0.78,0,0,0,0,0,0,0,0,0,0,0,0,0,0,90.4,8,0,1,6.15,0,0,8,90.4,-0.4062,-0.0068,0.9138,8,90.4,0,0,0,0,0,0,3,0,0,0,69,0,0,0,90.4,1,0,-0.034,0,0,3,0,0,0,10,2.928,0,0,1,1,0,0,VALID,0,0,0,0,0,1,0,0,0,0,0,0,0,0,0,0,0,0,0,0,348.82,455.63,2,0,0.08,0.08,409,14.29,0.08,0.06,27.94,FLYING,CF1-J,0:/Integrated Flight Computer/aircraft/cf1_j_cfg.ks (inferred preloaded)
28.38,TAKEOFF,TO_CLIMB,105.32,80,-25.32,38.35,11.69,7.85,1.72,90.37,0.136,0.78,0,0,0,0,0,0,0,0,0,0,0,0,0,0,90.4,8,0,1,6.33,0,0,8,90.4,-0.4062,-0.0068,0.9138,8,90.4,0,0,0,0,0,0,3,0,0,0,69,0,0,0,90.4,1,0,-0.031,0,0,3,0,0,0,10,2.928,0,0,1,1,0,0,VALID,0,0,0,0,0,1,0,0,0,0,0,0,0,0,0,0,0,0,0,0,348.14,454.6,2,0,0.08,0.08,413,14.29,0.08,0.06,28.22,FLYING,CF1-J,0:/Integrated Flight Computer/aircraft/cf1_j_cfg.ks (inferred preloaded)
28.66,TAKEOFF,TO_CLIMB,106.47,80,-26.47,41.79,12.13,7.8,1.5,90.37,0.129,0.78,0,0,0,0,0,0,0,0,0,0,0,0,0,0,90.4,8,0,1,6.5,0,0,8,90.4,-0.4063,-0.0068,0.9137,8,90.4,0,0,0,0,0,0,3,0,0,0,69,0,0,0,90.4,1,0,-0.029,0,0,3,0,0,0,10,2.928,0,0,1,1,0,0,VALID,0,0,0,0,0,1,0,0,0,0,0,0,0,0,0,0,0,0,0,0,347.46,453.57,2,0,0.08,0.08,417,14.29,0.08,0.06,28.5,FLYING,CF1-J,0:/Integrated Flight Computer/aircraft/cf1_j_cfg.ks (inferred preloaded)
28.94,TAKEOFF,TO_CLIMB,107.62,80,-27.62,45.34,12.53,7.76,1.32,90.37,0.12,0.78,0,0,0,0,0,0,0,0,0,0,0,0,0,0,90.4,8,0,1,6.64,0,0,8,90.4,-0.4063,-0.0068,0.9137,8,90.4,0,0,0,0,0,0,3,0,0,0,69,0,0,0,90.4,1,0,-0.027,0,0,3,0,0,0,10,2.928,0,0,1,1,0,0,VALID,0,0,0,0,0,1,0,0,0,0,0,0,0,0,0,0,0,0,0,0,346.77,452.54,2,0,0.08,0.08,421,14.29,0.08,0.06,28.78,FLYING,CF1-J,0:/Integrated Flight Computer/aircraft/cf1_j_cfg.ks (inferred preloaded)
29.22,TAKEOFF,TO_CLIMB,108.77,80,-28.77,48.99,12.9,7.73,1.17,90.38,0.111,0.78,0,0,0,0,0,0,0,0,0,0,0,0,0,0,90.4,8,0,1,6.76,0,0,8,90.4,-0.4064,-0.0068,0.9137,8,90.4,0,0,0,0,0,0,3,0,0,0,69,0,0,0,90.4,1,0,-0.024,0,0,3,0,0,0,10,2.928,0,0,1,1,0,0,VALID,0,0,0,0,0,1,0,0,0,0,0,0,0,0,0,0,0,0,0,0,346.09,451.51,2,0,0.08,0.08,425,14.29,0.08,0.06,29.06,FLYING,CF1-J,0:/Integrated Flight Computer/aircraft/cf1_j_cfg.ks (inferred preloaded)
29.5,TAKEOFF,TO_CLIMB,109.9,80,-29.9,52.76,13.26,7.73,1.05,90.38,0.103,0.78,0,0,0,0,0,0,0,0,0,0,0,0,0,0,90.4,8,0,1,6.88,0,0,8,90.4,-0.4064,-0.0068,0.9137,8,90.4,0,0,0,0,0,0,3,0,0,0,69,0,0,0,90.4,1,0,-0.022,0,0,3,0,0,0,10,2.928,0,0,1,1,0,0,VALID,0,0,0,0,0,1,0,0,0,0,0,0,0,0,0,0,0,0,0,0,345.4,450.48,2,0,0.08,0.08,429,14.29,0.08,0.06,29.34,FLYING,CF1-J,0:/Integrated Flight Computer/aircraft/cf1_j_cfg.ks (inferred preloaded)
29.78,TAKEOFF,TO_CLIMB,111.03,80,-31.03,56.62,13.62,7.67,0.88,90.38,0.096,0.78,0,0,0,0,0,0,0,0,0,0,0,0,0,0,90.4,8,0,1,6.99,0,0,8,90.4,-0.4065,-0.0068,0.9136,8,90.4,0,0,0,0,0,0,3,0,0,0,69,0,0,0,90.4,1,0,-0.02,0,0,3,0,0,0,10,2.928,0,0,1,1,0,0,VALID,0,0,0,0,0,1,0,0,0,0,0,0,0,0,0,0,0,0,0,0,344.72,449.45,2,0,0.08,0.08,433,14.29,0.08,0.06,29.62,FLYING,CF1-J,0:/Integrated Flight Computer/aircraft/cf1_j_cfg.ks (inferred preloaded)
30.06,TAKEOFF,TO_CLIMB,112.15,80,-32.15,60.57,13.95,7.64,0.75,90.38,0.089,0.78,0,0,0,0,0,0,0,0,0,0,0,0,0,0,90.4,8,0,1,7.09,0,0,8,90.4,-0.4065,-0.0068,0.9136,8,90.4,0,0,0,0,0,0,3,0,0,0,69,0,0,0,90.4,1,0,-0.018,0,0,3,0,0,0,10,2.928,0,0,1,1,0,0,VALID,0,0,0,0,0,1,0,0,0,0,0,0,0,0,0,0,0,0,0,0,344.03,448.43,2,0,0.08,0.08,437,14.29,0.08,0.06,29.9,FLYING,CF1-J,0:/Integrated Flight Computer/aircraft/cf1_j_cfg.ks (inferred preloaded)
30.34,TAKEOFF,TO_CLIMB,113.26,80,-33.26,64.62,14.26,7.61,0.64,90.38,0.082,0.78,0,0,0,0,0,0,0,0,0,0,0,0,0,0,90.4,8,0,1,7.18,0,0,8,90.4,-0.4066,-0.0068,0.9136,8,90.4,0,0,0,0,0,0,3,0,0,0,69,0,0,0,90.4,1,0,-0.016,0,0,3,0,0,0,10,2.928,0,0,1,1,0,0,VALID,0,0,0,0,0,1,0,0,0,0,0,0,0,0,0,0,0,0,0,0,343.35,447.41,2,0,0.08,0.08,441,14.29,0.08,0.06,30.18,FLYING,CF1-J,0:/Integrated Flight Computer/aircraft/cf1_j_cfg.ks (inferred preloaded)
30.62,TAKEOFF,TO_CLIMB,114.36,80,-34.36,68.75,14.57,7.59,0.53,90.39,0.076,0.78,0,0,0,0,0,0,0,0,0,0,0,0,0,0,90.4,8,0,1,7.26,0,0,8,90.4,-0.4066,-0.0068,0.9136,8,90.4,0,0,0,0,0,0,3,0,0,0,69,0,0,0,90.4,1,0,-0.014,0,0,3,0,0,0,10,2.928,0,0,1,1,0,0,VALID,0,0,0,0,0,1,0,0,0,0,0,0,0,0,0,0,0,0,0,0,342.66,446.39,2,0,0.08,0.08,445,14.29,0.08,0.06,30.46,FLYING,CF1-J,0:/Integrated Flight Computer/aircraft/cf1_j_cfg.ks (inferred preloaded)
30.9,TAKEOFF,TO_CLIMB,115.46,80,-35.46,72.95,14.87,7.57,0.43,90.39,0.071,0.78,0,0,0,0,0,0,0,0,0,0,0,0,0,0,90.4,8,0,1,7.34,0,0,8,90.4,-0.4067,-0.0068,0.9136,8,90.4,0,0,0,0,0,0,3,0,0,0,69,0,0,0,90.4,1,0,-0.012,0,0,3,0,0,0,10,2.928,0,0,1,1,0,0,VALID,0,0,0,0,0,1,0,0,0,0,0,0,0,0,0,0,0,0,0,0,341.98,445.38,2,0,0.08,0.08,449,14.29,0.08,0.06,30.74,FLYING,CF1-J,0:/Integrated Flight Computer/aircraft/cf1_j_cfg.ks (inferred preloaded)
31.18,TAKEOFF,TO_CLIMB,116.55,80,-36.55,77.25,15.17,7.54,0.33,90.39,0.067,0.78,0,0,0,0,0,0,0,0,0,0,0,0,0,0,90.4,8,0,1,7.41,0,0,8,90.4,-0.4067,-0.0068,0.9135,8,90.4,0,0,0,0,0,0,3,0,0,0,69,0,0,0,90.4,1,0,-0.011,0,0,3,0,0,0,10,2.928,0,0,1,1,0,0,VALID,0,0,0,0,0,1,0,0,0,0,0,0,0,0,0,0,0,0,0,0,341.29,444.37,2,0,0.08,0.08,453,14.29,0.08,0.06,31.02,FLYING,CF1-J,0:/Integrated Flight Computer/aircraft/cf1_j_cfg.ks (inferred preloaded)
31.46,TAKEOFF,TO_CLIMB,117.62,80,-37.62,81.63,15.45,7.51,0.23,90.39,0.061,0.78,0,0,0,0,0,0,0,0,0,0,0,0,0,0,90.4,8,0,1,7.48,0,0,8,90.4,-0.4068,-0.0068,0.9135,8,90.4,0,0,0,0,0,0,3,0,0,0,69,0,0,0,90.4,1,0,-0.009,0,0,3,0,0,0,10,2.928,0,0,1,1,0,0,VALID,0,0,0,0,0,1,0,0,0,0,0,0,0,0,0,0,0,0,0,0,340.61,443.37,2,0,0.08,0.08,457,14.29,0.08,0.06,31.3,FLYING,CF1-J,0:/Integrated Flight Computer/aircraft/cf1_j_cfg.ks (inferred preloaded)
31.74,TAKEOFF,TO_CLIMB,118.69,80,-38.69,86.09,15.73,7.48,0.14,90.39,0.054,0.78,0,0,0,0,0,0,0,0,0,0,0,0,0,0,90.4,8,0,1,7.55,0,0,8,90.4,-0.4068,-0.0068,0.9135,8,90.4,0,0,0,0,0,0,3,0,0,0,69,0,0,0,90.4,1,0,-0.008,0,0,3,0,0,0,10,2.928,0,0,1,1,0,0,VALID,0,0,0,0,0,1,0,0,0,0,0,0,0,0,0,0,0,0,0,0,339.93,442.37,2,0,0.08,0.08,461,14.29,0.08,0.06,31.58,FLYING,CF1-J,0:/Integrated Flight Computer/aircraft/cf1_j_cfg.ks (inferred preloaded)
32.02,TAKEOFF,TO_CLIMB,119.76,80,-39.76,90.62,16,7.45,0.05,90.39,0.048,0.78,0,0,0,0,0,0,0,0,0,0,0,0,0,0,90.4,8,0,1,7.61,0,0,8,90.4,-0.4069,-0.0068,0.9135,8,90.4,0,0,0,0,0,0,3,0,0,0,69,0,0,0,90.4,1,0,-0.007,0,0,3,0,0,0,10,2.928,0,0,1,1,0,0,VALID,0,0,0,0,0,1,0,0,0,0,0,0,0,0,0,0,0,0,0,0,339.26,441.38,2,0,0.08,0.08,465,14.29,0.08,0.06,31.86,FLYING,CF1-J,0:/Integrated Flight Computer/aircraft/cf1_j_cfg.ks (inferred preloaded)
32.3,TAKEOFF,TO_CLIMB,120.81,80,-40.81,95.22,16.26,7.42,-0.04,90.39,0.042,0.78,0,0,0,0,0,0,0,0,0,0,0,0,0,0,90.4,8,0,1,7.66,0,0,8,90.4,-0.4069,-0.0068,0.9134,8,90.4,0,0,0,0,0,0,3,0,0,0,69,0,0,0,90.4,1,0,-0.006,0,0,3,0,0,0,10,2.928,0,0,1,1,0,0,VALID,0,0,0,0,0,1,0,0,0,0,0,0,0,0,0,0,0,0,0,0,338.58,440.39,2,0,0.08,0.08,469,14.29,0.08,0.06,32.14,FLYING,CF1-J,0:/Integrated Flight Computer/aircraft/cf1_j_cfg.ks (inferred preloaded)
32.58,TAKEOFF,TO_CLIMB,121.85,80,-41.85,99.89,16.5,7.38,-0.13,90.4,0.037,0.78,0,0,0,0,0,0,0,0,0,0,0,0,0,0,90.4,8,0,1,7.71,0,0,8,90.4,-0.407,-0.0068,0.9134,8,90.4,0,0,0,0,0,0,3,0,0,0,69,0,0,0,90.4,1,0,-0.005,0,0,3,0,0,0,10,2.928,0,0,1,1,0,0,VALID,0,0,0,0,0,1,0,0,0,0,0,0,0,0,0,0,0,0,0,0,337.91,439.41,2,0,0.08,0.08,473,14.29,0.08,0.06,32.42,FLYING,CF1-J,0:/Integrated Flight Computer/aircraft/cf1_j_cfg.ks (inferred preloaded)
32.86,TAKEOFF,TO_CLIMB,122.89,80,-42.89,104.63,16.74,7.33,-0.22,90.4,0.036,0.78,0,0,0,0,0,0,0,0,0,0,0,0,0,0,90.4,8,0,1,7.76,0,0,8,90.4,-0.407,-0.0068,0.9134,8,90.4,0,0,0,0,0,0,3,0,0,0,69,0,0,0,90.4,1,0,-0.004,0,0,3,0,0,0,10,2.928,0,0,1,1,0,0,VALID,0,0,0,0,0,1,0,0,0,0,0,0,0,0,0,0,0,0,0,0,337.24,438.43,2,0,0.08,0.08,477,14.29,0.08,0.06,32.7,FLYING,CF1-J,0:/Integrated Flight Computer/aircraft/cf1_j_cfg.ks (inferred preloaded)
33.14,TAKEOFF,TO_CLIMB,123.92,80,-43.92,109.42,16.96,7.29,-0.3,90.4,0.03,0.78,0,0,0,0,0,0,0,0,0,0,0,0,0,0,90.4,8,0,1,7.79,0,0,8,90.4,-0.4071,-0.0068,0.9134,8,90.4,0,0,0,0,0,0,3,0,0,0,69,0,0,0,90.4,1,0,-0.003,0,0,3,0,0,0,10,2.928,0,0,1,1,0,0,VALID,0,0,0,0,0,1,0,0,0,0,0,0,0,0,0,0,0,0,0,0,336.57,437.46,2,0,0.08,0.08,481,14.29,0.08,0.06,32.98,FLYING,CF1-J,0:/Integrated Flight Computer/aircraft/cf1_j_cfg.ks (inferred preloaded)
33.42,TAKEOFF,TO_CLIMB,124.94,80,-44.94,114.28,17.18,7.25,-0.38,90.4,0.027,0.78,0,0,0,0,0,0,0,0,0,0,0,0,0,0,90.4,8,0,1,7.83,0,0,8,90.4,-0.4071,-0.0068,0.9133,8,90.4,0,0,0,0,0,0,3,0,0,0,69,0,0,0,90.4,1,0,-0.002,0,0,3,0,0,0,10,2.928,0,0,1,1,0,0,VALID,0,0,0,0,0,1,0,0,0,0,0,0,0,0,0,0,0,0,0,0,335.91,436.5,2,0,0.08,0.08,485,14.29,0.08,0.06,33.26,FLYING,CF1-J,0:/Integrated Flight Computer/aircraft/cf1_j_cfg.ks (inferred preloaded)
33.7,TAKEOFF,TO_CLIMB,125.96,80,-45.96,119.2,17.38,7.21,-0.44,90.4,0.026,0.78,0,0,0,0,0,0,0,0,0,0,0,0,0,0,90.4,8,0,1,7.86,0,0,8,90.4,-0.4072,-0.0068,0.9133,8,90.4,0,0,0,0,0,0,3,0,0,0,69,0,0,0,90.4,1,0,-0.001,0,0,3,0,0,0,10,2.928,0,0,1,1,0,0,VALID,0,0,0,0,0,1,0,0,0,0,0,0,0,0,0,0,0,0,0,0,335.24,435.54,2,0,0.08,0.08,489,14.29,0.08,0.06,33.54,FLYING,CF1-J,0:/Integrated Flight Computer/aircraft/cf1_j_cfg.ks (inferred preloaded)
33.98,TAKEOFF,TO_CLIMB,126.96,80,-46.96,124.17,17.58,7.17,-0.51,90.4,0.024,0.78,0,0,0,0,0,0,0,0,0,0,0,0,0,0,90.4,8,0,1,7.88,0,0,8,90.4,-0.4072,-0.0068,0.9133,8,90.4,0,0,0,0,0,0,3,0,0,0,69,0,0,0,90.4,1,0,-0.001,0,0,3,0,0,0,10,2.928,0,0,1,1,0,0,VALID,0,0,0,0,0,1,0,0,0,0,0,0,0,0,0,0,0,0,0,0,334.59,434.58,2,0,0.08,0.08,493,14.29,0.08,0.06,33.82,FLYING,CF1-J,0:/Integrated Flight Computer/aircraft/cf1_j_cfg.ks (inferred preloaded)
34.26,TAKEOFF,TO_CLIMB,127.96,80,-47.96,129.2,17.78,7.14,-0.57,90.4,0.021,0.78,0,0,0,0,0,0,0,0,0,0,0,0,0,0,90.4,8,0,1,7.91,0,0,8,90.4,-0.4073,-0.0068,0.9133,8,90.4,0,0,0,0,0,0,3,0,0,0,69,0,0,0,90.4,1,0,0,0,0,3,0,0,0,10,2.928,0,0,1,1,0,0,VALID,0,0,0,0,0,1,0,0,0,0,0,0,0,0,0,0,0,0,0,0,333.93,433.64,2,0,0.08,0.08,497,14.29,0.08,0.06,34.1,FLYING,CF1-J,0:/Integrated Flight Computer/aircraft/cf1_j_cfg.ks (inferred preloaded)
34.54,TAKEOFF,TO_CLIMB,128.96,80,-48.96,134.28,17.97,7.1,-0.63,90.4,0.02,0.78,0,0,0,0,0,0,0,0,0,0,0,0,0,0,90.4,8,0,1,7.93,0,0,8,90.4,-0.4073,-0.0068,0.9132,8,90.4,0,0,0,0,0,0,3,0,0,0,69,0,0,0,90.4,1,0,0,0,0,3,0,0,0,10,2.928,0,0,1,1,0,0,VALID,0,0,0,0,0,1,0,0,0,0,0,0,0,0,0,0,0,0,0,0,333.28,432.7,2,0,0.08,0.08,501,14.29,0.08,0.06,34.38,FLYING,CF1-J,0:/Integrated Flight Computer/aircraft/cf1_j_cfg.ks (inferred preloaded)
34.82,TAKEOFF,TO_CLIMB,129.94,80,-49.94,139.41,18.17,7.07,-0.69,90.4,0.018,0.78,0,0,0,0,0,0,0,0,0,0,0,0,0,0,90.4,8,0,1,7.96,0,0,8,90.4,-0.4074,-0.0068,0.9132,8,90.4,0,0,0,0,0,0,3,0,0,0,69,0,0,0,90.4,1,0,0.001,0,0,3,0,0,0,10,2.928,0,0,1,1,0,0,VALID,0,0,0,0,0,1,0,0,0,0,0,0,0,0,0,0,0,0,0,0,332.63,431.76,2,0,0.08,0.08,505,14.29,0.08,0.06,34.66,FLYING,CF1-J,0:/Integrated Flight Computer/aircraft/cf1_j_cfg.ks (inferred preloaded)
35.1,TAKEOFF,TO_CLIMB,130.92,80,-50.92,144.6,18.35,7.03,-0.75,90.4,0.016,0.78,0,0,0,0,0,0,0,0,0,0,0,0,0,0,90.4,8,0,1,7.98,0,0,8,90.4,-0.4075,-0.0068,0.9132,8,90.4,0,0,0,0,0,0,3,0,0,0,69,0,0,0,90.4,1,0,0.002,0,0,3,0,0,0,10,2.928,0,0,1,1,0,0,VALID,0,0,0,0,0,1,0,0,0,0,0,0,0,0,0,0,0,0,0,0,331.99,430.84,2,0,0.08,0.08,509,14.29,0.08,0.06,34.94,FLYING,CF1-J,0:/Integrated Flight Computer/aircraft/cf1_j_cfg.ks (inferred preloaded)
35.38,TAKEOFF,TO_CLIMB,131.89,80,-51.89,149.83,18.53,6.99,-0.8,90.4,0.014,0.78,0,0,0,0,0,0,0,0,0,0,0,0,0,0,90.4,8,0,1,8,0,0,8,90.4,-0.4075,-0.0068,0.9132,8,90.4,0,0,0,0,0,0,3,0,0,0,69,0,0,0,90.4,1,0,0.002,0,0,3,0,0,0,10,2.928,0,0,1,1,0,0,VALID,0,0,0,0,0,1,0,0,0,0,0,0,0,0,0,0,0,0,0,0,331.34,429.91,2,0,0.08,0.08,513,14.29,0.08,0.06,35.22,FLYING,CF1-J,0:/Integrated Flight Computer/aircraft/cf1_j_cfg.ks (inferred preloaded)
35.66,TAKEOFF,TO_CLIMB,132.85,80,-52.85,155.11,18.71,6.96,-0.86,90.4,0.013,0.78,0,0,0,0,0,0,0,0,0,0,0,0,0,0,90.4,8,0,1,8.02,0,0,8,90.4,-0.4076,-0.0068,0.9131,8,90.4,0,0,0,0,0,0,3,0,0,0,69,0,0,0,90.4,1,0,0.003,0,0,3,0,0,0,10,2.928,0,0,1,1,0,0,VALID,0,0,0,0,0,1,0,0,0,0,0,0,0,0,0,0,0,0,0,0,330.71,429,2,0,0.08,0.08,517,14.29,0.08,0.06,35.5,FLYING,CF1-J,0:/Integrated Flight Computer/aircraft/cf1_j_cfg.ks (inferred preloaded)
35.94,TAKEOFF,TO_CLIMB,133.81,80,-53.81,160.44,18.88,6.92,-0.91,90.4,0.011,0.78,0,0,0,0,0,0,0,0,0,0,0,0,0,0,90.4,8,0,1,8.03,0,0,8,90.4,-0.4076,-0.0068,0.9131,8,90.4,0,0,0,0,0,0,3,0,0,0,69,0,0,0,90.4,1,0,0.003,0,0,3,0,0,0,10,2.928,0,0,1,1,0,0,VALID,0,0,0,0,0,1,0,0,0,0,0,0,0,0,0,0,0,0,0,0,330.07,428.09,2,0,0.08,0.08,521,14.29,0.08,0.06,35.78,FLYING,CF1-J,0:/Integrated Flight Computer/aircraft/cf1_j_cfg.ks (inferred preloaded)
36.22,TAKEOFF,TO_CLIMB,134.75,80,-54.75,165.81,19.05,6.89,-0.96,90.4,0.008,0.78,0,0,0,0,0,0,0,0,0,0,0,0,0,0,90.4,8,0,1,8.05,0,0,8,90.4,-0.4077,-0.0068,0.9131,8,90.4,0,0,0,0,0,0,3,0,0,0,69,0,0,0,90.4,1,0,0.004,0,0,3,0,0,0,10,2.928,0,0,1,1,0,0,VALID,0,0,0,0,0,1,0,0,0,0,0,0,0,0,0,0,0,0,0,0,329.44,427.19,2,0,0.08,0.08,525,14.29,0.08,0.06,36.06,FLYING,CF1-J,0:/Integrated Flight Computer/aircraft/cf1_j_cfg.ks (inferred preloaded)
36.5,TAKEOFF,TO_CLIMB,135.69,80,-55.69,171.22,19.22,6.86,-1.01,90.4,0.008,0.78,0,0,0,0,0,0,0,0,0,0,0,0,0,0,90.4,8,0,1,8.06,0,0,8,90.4,-0.4078,-0.0068,0.9131,8,90.4,0,0,0,0,0,0,3,0,0,0,69,0,0,0,90.4,1,0,0.004,0,0,3,0,0,0,10,2.928,0,0,1,1,0,0,VALID,0,0,0,0,0,1,0,0,0,0,0,0,0,0,0,0,0,0,0,0,328.82,426.3,2,0,0.08,0.08,529,14.29,0.08,0.06,36.34,FLYING,CF1-J,0:/Integrated Flight Computer/aircraft/cf1_j_cfg.ks (inferred preloaded)
36.78,TAKEOFF,TO_CLIMB,136.63,80,-56.63,176.7,19.38,6.82,-1.05,90.4,0.006,0.78,0,0,0,0,0,0,0,0,0,0,0,0,0,0,90.4,8,0,1,8.08,0,0,8,90.4,-0.4078,-0.0068,0.913,8,90.4,0,0,0,0,0,0,3,0,0,0,69,0,0,0,90.4,1,0,0.004,0,0,3,0,0,0,10,2.928,0,0,1,1,0,0,VALID,0,0,0,0,0,1,0,0,0,0,0,0,0,0,0,0,0,0,0,0,328.19,425.41,2,0,0.08,0.08,533,14.29,0.08,0.06,36.62,FLYING,CF1-J,0:/Integrated Flight Computer/aircraft/cf1_j_cfg.ks (inferred preloaded)
37.06,TAKEOFF,TO_CLIMB,137.55,80,-57.55,182.19,19.55,6.79,-1.1,90.4,0.003,0.78,0,0,0,0,0,0,0,0,0,0,0,0,0,0,90.4,8,0,1,8.09,0,0,8,90.4,-0.4079,-0.0068,0.913,8,90.4,0,0,0,0,0,0,3,0,0,0,69,0,0,0,90.4,1,0,0.005,0,0,3,0,0,0,10,2.928,0,0,1,1,0,0,VALID,0,0,0,0,0,1,0,0,0,0,0,0,0,0,0,0,0,0,0,0,327.58,424.53,2,0,0.08,0.08,537,14.29,0.08,0.06,36.9,FLYING,CF1-J,0:/Integrated Flight Computer/aircraft/cf1_j_cfg.ks (inferred preloaded)
37.34,TAKEOFF,TO_CLIMB,138.47,80,-58.47,187.75,19.71,6.76,-1.14,90.4,0.002,0.78,0,0,0,0,0,0,0,0,0,0,0,0,0,0,90.4,8,0,1,8.1,0,0,8,90.4,-0.4079,-0.0068,0.913,8,90.4,0,0,0,0,0,0,3,0,0,0,69,0,0,0,90.4,1,0,0.005,0,0,3,0,0,0,10,2.928,0,0,1,1,0,0,VALID,0,0,0,0,0,1,0,0,0,0,0,0,0,0,0,0,0,0,0,0,326.96,423.66,2,0,0.08,0.08,541,14.29,0.08,0.06,37.18,FLYING,CF1-J,0:/Integrated Flight Computer/aircraft/cf1_j_cfg.ks (inferred preloaded)
37.62,TAKEOFF,TO_CLIMB,139.38,80,-59.38,193.35,19.87,6.73,-1.18,90.41,0.002,0.78,0,0,0,0,0,0,0,0,0,0,0,0,0,0,90.4,8,0,1,8.11,0,0,8,90.4,-0.408,-0.0068,0.913,8,90.4,0,0,0,0,0,0,3,0,0,0,69,0,0,0,90.4,1,0,0.005,0,0,3,0,0,0,10,2.928,0,0,1,1,0,0,VALID,0,0,0,0,0,1,0,0,0,0,0,0,0,0,0,0,0,0,0,0,326.35,422.79,2,0,0.08,0.08,545,14.29,0.08,0.06,37.46,FLYING,CF1-J,0:/Integrated Flight Computer/aircraft/cf1_j_cfg.ks (inferred preloaded)
37.9,TAKEOFF,TO_CLIMB,140.29,80,-60.29,198.99,20.02,6.7,-1.22,90.41,0.001,0.78,0,0,0,0,0,0,0,0,0,0,0,0,0,0,90.4,8,0,1,8.12,0,0,8,90.4,-0.4081,-0.0068,0.9129,8,90.4,0,0,0,0,0,0,3,0,0,0,69,0,0,0,90.4,1,0,0.005,0,0,3,0,0,0,10,2.928,0,0,1,1,0,0,VALID,0,0,0,0,0,1,0,0,0,0,0,0,0,0,0,0,0,0,0,0,325.75,421.93,2,0,0.08,0.08,549,14.29,0.08,0.06,37.74,FLYING,CF1-J,0:/Integrated Flight Computer/aircraft/cf1_j_cfg.ks (inferred preloaded)
38.18,TAKEOFF,TO_CLIMB,141.19,80,-61.19,204.65,20.18,6.67,-1.26,90.41,0.001,0.78,0,0,0,0,0,0,0,0,0,0,0,0,0,0,90.4,8,0,1,8.13,0,0,8,90.4,-0.4081,-0.0068,0.9129,8,90.4,0,0,0,0,0,0,3,0,0,0,69,0,0,0,90.4,1,0,0.006,0,0,3,0,0,0,10,2.928,0,0,1,1,0,0,VALID,0,0,0,0,0,1,0,0,0,0,0,0,0,0,0,0,0,0,0,0,325.14,421.08,2,0,0.08,0.08,553,14.29,0.08,0.06,38.02,FLYING,CF1-J,0:/Integrated Flight Computer/aircraft/cf1_j_cfg.ks (inferred preloaded)
38.46,TAKEOFF,TO_CLIMB,142.08,80,-62.08,210.36,20.33,6.64,-1.3,90.41,0,0.78,0,0,0,0,0,0,0,0,0,0,0,0,0,0,90.4,8,0,1,8.14,0,0,8,90.4,-0.4082,-0.0068,0.9129,8,90.4,0,0,0,0,0,0,3,0,0,0,69,0,0,0,90.4,1,0,0.006,0,0,3,0,0,0,10,2.928,0,0,1,1,0,0,VALID,0,0,0,0,0,1,0,0,0,0,0,0,0,0,0,0,0,0,0,0,324.55,420.23,2,0,0.08,0.08,557,14.29,0.08,0.06,38.3,FLYING,CF1-J,0:/Integrated Flight Computer/aircraft/cf1_j_cfg.ks (inferred preloaded)
