t_s,phase,subphase,ias_ms,vapp_ms,spd_err_ms,agl_m,gear_h_m,vs_ms,pitch_deg,aoa_deg,hdg_deg,bank_deg,thr_cmd,thr_cur,thr_intg,at_gain,at_tau_s,at_a_up,at_a_dn,at_kp_thr,at_ki_spd,at_thr_slew,as_cmd_deg,as_cap_deg,as_raw_deg,as_spd_err_ms,as_active,aa_hdg_cmd_deg,aa_fpa_cmd_deg,aa_fbw,aa_dir,actual_fpa_deg,ftf_hdg_err_deg,ftf_fix_idx,kos_steer_pit_deg,kos_steer_hdg_deg,aa_dir_vx,aa_dir_vy,aa_dir_vz,aa_dir_pitch_deg,aa_dir_hdg_deg,ils_loc_m,ils_gs_m,ils_dist_km,loc_corr_deg,gs_corr_deg,gs_latched,active_gs_ang_deg,ils_intercept_alt_m,d_gs_ms,fpa_preclamped_deg,gs_nom_alt_m,flare_fpa_cmd,flare_tgt_vs,flare_frac,flare_mode,flare_auth_limited,flare_vs_err,flare_fpa_err,flare_pitch_err,flare_req_up_a,flare_thr_floor,flare_tecs_et_err,flare_tecs_eb_err,flare_tecs_h_ref,flare_tecs_v_ref,flare_gamma_ref,flare_gamma_eb_term,flare_gamma_unsat,steer_hdg_deg,steer_blend,ro_loc_corr_deg,ro_hdg_err_deg,ro_yaw_tgt,ro_yaw_scale,ro_yaw_gate,yaw_cmd,roll_cmd,pitch_cmd,ro_pitch_tgt_deg,ro_pitch_err_deg,ro_pitch_ff,ro_roll_assist,flaps_cur,flaps_tgt,asc_j_ab,asc_j_rk,asc_validity,asc_q_pa,asc_q_raw_pa,asc_mach,asc_apo_m,asc_drag_n,asc_w_prop,asc_edot_aero,asc_edot_orb,asc_pitch_bias,asc_blend,asc_spooling,asc_ab_thr_ratio,asc_ab_t_now,asc_ab_t_avail,asc_ab_ign_on,asc_ab_flameouts,asc_rk_t_now,asc_rk_t_avail,asc_rk_ign_on,asc_rk_flameouts,ship_thrust,ship_avail_thrust,ship_ign_on,ship_flameouts,ifc_raw_dt_s,ifc_dt_s,ifc_loop_n,ifc_hz_est,ifc_raw_dt_max_s,ifc_raw_dt_min_s,phase_el_s,status,craft_name,cfg_file
0.16,APPROACH,ILS_TRACK,154.19,152,-2.19,743.98,666.15,-12.43,10.32,14.68,269.81,0.316,0,0,0,0,0,0,0,0,0,0,0,0,0,0,0,0,0,1,0,-4.62,0,0,0,90,0,0,0,0,0,7.18,-487.68,22.084,0,0,0,3,743.98,0,0,1231.66,0,0,0,,0,0,0,0,0,0,0,0,0,0,0,0,0,269.8,0,0,0,0,0,0,0,0,0,0,0,0,0,0,0,0,0,VALID,0,0,0,0,0,1,0,0,0,0,0,0,0,0,0,0,0,0,0,0,298.6,1080.69,2,0,0.14,0.14,1,3.7,0.14,0.02,0.16,FLYING,X10-H,0:/Integrated Flight Computer/aircraft/x10_h_cfg.ks (inferred preloaded)
0.42,APPROACH,ILS_TRACK,154.35,152,-2.35,740.84,663,-12.04,10.5,14.73,269.8,0.204,0,0,0,1,0.6,1.46,0.75,0.35,0.0168,0.4,0.961,21.232,0.961,2.337,1,269.91,0,0,1,-4.48,0,0,0,254.92,0.5001,-0.0015,0.866,0,269.91,7.01,-488.45,22.048,-0.089,0,0,3,743.98,-3.513,0,1229.78,0,0,0,,0,0,0,0,0,0,0,0,0,0,0,0,0,269.8,0,0,0,0,0,0,0,0,0,0,0,0,0,1,3,0,0,VALID,0,0,0,0,0,1,0,0,0,0,0,0,0,0,0,0,0,0,0,0,272.78,1081.61,2,0,0.12,0.12,3,7.69,0.14,0.12,0.44,FLYING,X10-H,0:/Integrated Flight Computer/aircraft/x10_h_cfg.ks (inferred preloaded)
0.68,APPROACH,ILS_TRACK,154.38,152,-2.38,737.64,659.91,-11.54,10.16,14.14,269.72,-0.308,0,0,0,1,0.6,2.697,0.75,0.35,0.0168,0.4,1.014,21.219,1.014,2.384,1,269.9,0,0,1,-4.3,0,0,0,269.91,0.5002,-0.0017,0.8659,0,269.9,6.82,-489.41,22.006,-0.1,0,0,3,743.98,-3.831,0,1227.55,0,0,0,,0,0,0,0,0,0,0,0,0,0,0,0,0,269.8,0,0,0,0,0,0,0,0,0,0,0,0,0,1,3,0,0,VALID,0,0,0,0,0,1,0,0,0,0,0,0,0,0,0,0,0,0,0,0,249.07,1081.99,2,0,0.12,0.12,5,7.69,0.14,0.12,0.68,FLYING,X10-H,0:/Integrated Flight Computer/aircraft/x10_h_cfg.ks (inferred preloaded)
0.94,APPROACH,ILS_TRACK,154.3,152,-2.3,734.19,656.97,-11.24,8.57,12.33,269.67,-0.223,0,0,0,1,0.6,3.744,0.75,0.35,0.0168,0.4,0.92,21.242,0.92,2.301,1,269.93,0,0,1,-4.16,0,0,0,269.91,0.5002,-0.0012,0.8659,0,269.93,6.63,-490.6,21.963,-0.068,0,0,3,743.98,-4.884,0,1225.33,0,0,0,,0,0,0,0,0,0,0,0,0,0,0,0,0,269.8,0,0,0,0,0,0,0,0,0,0,0,0,0,2,3,0,0,VALID,0,0,0,0,0,1,0,0,0,0,0,0,0,0,0,0,0,0,0,0,227.3,1081.84,2,0,0.12,0.12,7,7.69,0.14,0.12,0.94,FLYING,X10-H,0:/Integrated Flight Computer/aircraft/x10_h_cfg.ks (inferred preloaded)
1.3,APPROACH,ILS_TRACK,154.56,152,-2.56,729.25,652.81,-11.78,5.8,9.76,269.72,0.073,0,0,0,1,0.6,4.5,0.75,0.35,0.0168,0.4,1.185,21.176,1.185,2.535,1,269.95,0,0,1,-4.34,0,0,0,269.95,0.5003,-0.0009,0.8659,0,269.95,6.33,-492.44,21.904,-0.049,0,0,3,743.98,-5.127,0,1222.25,0,0,0,,0,0,0,0,0,0,0,0,0,0,0,0,0,269.8,0,0,0,0,0,0,0,0,0,0,0,0,0,3,3,0,0,VALID,0,0,0,0,0,1,0,0,0,0,0,0,0,0,0,0,0,0,0,0,200.54,1083.2,2,0,0.12,0.12,10,8.33,0.12,0.12,1.3,FLYING,X10-H,0:/Integrated Flight Computer/aircraft/x10_h_cfg.ks (inferred preloaded)
1.66,APPROACH,ILS_TRACK,154.99,152,-2.99,724.06,648.36,-12.92,3.12,7.47,269.71,-0.12,0,0,0,1,0.6,4.5,0.75,0.35,0.0168,0.4,1.666,21.056,1.666,2.964,1,269.95,0,0,1,-4.7,0,0,0,269.95,0.5004,-0.0008,0.8658,0,269.95,6.05,-494.52,21.846,-0.047,0,0,3,743.98,-5.999,0,1219.16,0,0,0,,0,0,0,0,0,0,0,0,0,0,0,0,0,269.8,0,0,0,0,0,0,0,0,0,0,0,0,0,3,3,0,0,VALID,0,0,0,0,0,1,0,0,0,0,0,0,0,0,0,0,0,0,0,0,177.07,1085.37,2,0,0.12,0.12,13,8.33,0.12,0.12,1.66,FLYING,X10-H,0:/Integrated Flight Computer/aircraft/x10_h_cfg.ks (inferred preloaded)
2.02,APPROACH,ILS_TRACK,155.49,152,-3.49,718.79,643.38,-14.64,1.86,6.92,269.7,-0.119,0,0,0,1,0.6,4.5,0.75,0.35,0.0168,0.4,2.225,20.913,2.225,3.469,1,269.96,0,0,1,-5.31,0,0,0,269.96,0.5005,-0.0006,0.8658,0,269.96,5.77,-496.7,21.787,-0.036,0,0,3,743.98,-6.05,0,1216.07,0,0,0,,0,0,0,0,0,0,0,0,0,0,0,0,0,269.8,0,0,0,0,0,0,0,0,0,0,0,0,0,3,3,0,0,VALID,0,0,0,0,0,1,0,0,0,0,0,0,0,0,0,0,0,0,0,0,156.4,1087.88,2,0,0.12,0.12,16,8.33,0.12,0.12,2.02,FLYING,X10-H,0:/Integrated Flight Computer/aircraft/x10_h_cfg.ks (inferred preloaded)
2.38,APPROACH,ILS_TRACK,155.89,152,-3.89,713.57,637.82,-16.16,2.84,8.55,269.71,-0.011,0,0,0,1,0.6,4.5,0.75,0.35,0.0168,0.4,2.67,20.799,2.67,3.875,1,269.99,0,0,1,-5.87,0,0,0,269.98,0.5006,-0.0002,0.8657,0,269.99,5.48,-498.83,21.727,-0.014,0,0,3,743.98,-5.82,0,1212.98,0,0,0,,0,0,0,0,0,0,0,0,0,0,0,0,0,269.8,0,0,0,0,0,0,0,0,0,0,0,0,0,3,3,0,0,VALID,0,0,0,0,0,1,0,0,0,0,0,0,0,0,0,0,0,0,0,0,138.1,1090.03,2,0,0.12,0.12,19,8.33,0.12,0.12,2.38,FLYING,X10-H,0:/Integrated Flight Computer/aircraft/x10_h_cfg.ks (inferred preloaded)
2.74,APPROACH,ILS_TRACK,156.06,152,-4.06,708.49,631.86,-16.75,5.78,11.77,269.74,0.113,0,0,0,1,0.6,4.5,0.75,0.35,0.0168,0.4,2.865,20.748,2.865,4.055,1,269.99,0,0,1,-6.12,0,0,0,270,0.5006,-0.0002,0.8657,0,269.99,5.19,-500.83,21.668,-0.01,0,0,3,743.98,-5.495,0,1209.88,0,0,0,,0,0,0,0,0,0,0,0,0,0,0,0,0,269.8,0,0,0,0,0,0,0,0,0,0,0,0,0,3,3,0,0,VALID,0,0,0,0,0,1,0,0,0,0,0,0,0,0,0,0,0,0,0,0,121.84,1091.23,2,0,0.12,0.12,22,8.33,0.12,0.12,2.74,FLYING,X10-H,0:/Integrated Flight Computer/aircraft/x10_h_cfg.ks (inferred preloaded)
3.1,APPROACH,ILS_TRACK,155.84,152,-3.84,703.37,625.91,-16.3,8.74,14.57,269.78,0.291,0,0,0,1,0.6,4.5,0.75,0.35,0.0168,0.4,2.655,20.803,2.655,3.861,1,270.01,0,0,1,-5.99,0,0,0,270,0.5007,0.0001,0.8656,0,270.01,4.89,-502.85,21.609,0.008,0,0,3,743.98,-5.65,0,1206.78,0,0,0,,0,0,0,0,0,0,0,0,0,0,0,0,0,269.8,0,0,0,0,0,0,0,0,0,0,0,0,0,3,3,0,0,VALID,0,0,0,0,0,1,0,0,0,0,0,0,0,0,0,0,0,0,0,0,107.33,1090.78,2,0,0.12,0.12,25,8.33,0.12,0.12,3.1,FLYING,X10-H,0:/Integrated Flight Computer/aircraft/x10_h_cfg.ks (inferred preloaded)
3.36,APPROACH,ILS_TRACK,155.4,152,-3.4,699.75,621.77,-15.56,10.6,16.18,269.84,0.438,0,0,0,1,0.6,4.5,0.75,0.35,0.0168,0.4,2.195,20.921,2.195,3.441,1,270.01,0,0,1,-5.76,0,0,0,270.01,0.5008,0.0002,0.8656,0,270.01,4.69,-504.25,21.567,0.011,0,0,3,743.98,-5.336,0,1204.55,0,0,0,,0,0,0,0,0,0,0,0,0,0,0,0,0,269.8,0,0,0,0,0,0,0,0,0,0,0,0,0,3,3,0,0,VALID,0,0,0,0,0,1,0,0,0,0,0,0,0,0,0,0,0,0,0,0,97.83,1089.23,2,0,0.12,0.12,27,7.69,0.14,0.12,3.36,FLYING,X10-H,0:/Integrated Flight Computer/aircraft/x10_h_cfg.ks (inferred preloaded)
3.72,APPROACH,ILS_TRACK,154.42,152,-2.42,694.86,616.43,-14.17,12.32,17.39,269.91,0.586,0.144,0,-1.017,1,0.6,4.5,0.75,0.35,0.0168,0.4,0,21.192,0,2.481,0,270.02,0,0,1,-5.3,0,0,0,270.01,0.5009,0.0003,0.8655,0,270.02,4.41,-506.09,21.508,0.015,0,0,3,743.98,-4.94,0,1201.48,0,0,0,,0,0,0,0,0,0,0,0,0,0,0,0,0,269.8,0,0,0,0,0,0,0,0,0,0,0,0,0,3,3,0,0,VALID,0,0,0,0,0,1,0,0,0,0,0,0,0,0,0,0,0,0,0,0,91.4,1085.47,2,0,0.12,0.12,30,8.33,0.12,0.12,3.72,FLYING,X10-H,0:/Integrated Flight Computer/aircraft/x10_h_cfg.ks (inferred preloaded)
4.08,APPROACH,ILS_TRACK,153.25,152,-1.25,690.24,611.6,-12.75,13.13,17.7,269.97,0.68,0.288,0,-1.634,1,0.6,4.5,0.75,0.35,0.0168,0.4,0,21.519,0,1.32,0,270,0,0,1,-4.81,0,0,0,270.01,0.501,0,0.8655,0,270,4.16,-507.69,21.45,0.003,0,0,3,743.98,-4.151,0,1198.43,0,0,0,,0,0,0,0,0,0,0,0,0,0,0,0,0,269.8,0,0,0,0,0,0,0,0,0,0,0,0,0,3,3,0,0,VALID,0,0,0,0,0,1,0,0,0,0,0,0,0,0,0,0,0,0,0,0,98.59,1080.88,2,0,0.12,0.12,33,8.33,0.12,0.12,4.08,FLYING,X10-H,0:/Integrated Flight Computer/aircraft/x10_h_cfg.ks (inferred preloaded)
4.44,APPROACH,ILS_TRACK,152.08,152,-0.08,686.04,607.27,-11.41,13.6,17.72,270.01,0.729,0.432,0,-1.826,1,0.6,4.5,0.75,0.35,0.0168,0.4,0,21.851,0,0.142,0,270,0,0,1,-4.34,0,0,0,270,0.501,0,0.8654,0,270,3.92,-508.91,21.392,0.001,0,0,3,743.98,-2.998,0,1195.39,0,0,0,,0,0,0,0,0,0,0,0,0,0,0,0,0,269.8,0,0,0,0,0,0,0,0,0,0,0,0,0,3,3,0,0,VALID,0,0,0,0,0,1,0,0,0,0,0,0,0,0,0,0,0,0,0,0,115.97,1076.22,2,0,0.12,0.12,36,8.33,0.12,0.12,4.44,FLYING,X10-H,0:/Integrated Flight Computer/aircraft/x10_h_cfg.ks (inferred preloaded)
4.8,APPROACH,ILS_TRACK,150.94,152,1.06,682.3,603.39,-10.23,14.11,17.84,270.04,0.742,0.576,0,-1.799,1,0.6,4.5,0.75,0.35,0.0168,0.4,0,22.172,0,-0.997,0,269.99,0,0,1,-3.93,0,0,0,269.99,0.5011,-0.0002,0.8654,0,269.99,3.72,-509.69,21.334,-0.009,0,0,3,743.98,-1.698,0,1192.38,0,0,0,,0,0,0,0,0,0,0,0,0,0,0,0,0,269.8,0,0,0,0,0,0,0,0,0,0,0,0,0,3,3,0,0,VALID,0,0,0,0,0,1,0,0,0,0,0,0,0,0,0,0,0,0,0,0,142.73,1071.74,2,0,0.12,0.12,39,8.33,0.12,0.12,4.8,FLYING,X10-H,0:/Integrated Flight Computer/aircraft/x10_h_cfg.ks (inferred preloaded)
5.16,APPROACH,ILS_TRACK,149.82,152,2.18,678.94,600,-8.85,14.31,17.53,270.05,0.727,0.72,0,-1.772,1,0.6,4.5,0.75,0.35,0.0168,0.4,0,22.488,0,-2.119,0,269.98,0,0,1,-3.42,0,0,0,269.98,0.5012,-0.0003,0.8653,0,269.98,3.53,-510.1,21.277,-0.017,0,0,3,743.98,-0.836,0,1189.39,0,0,0,,0,0,0,0,0,0,0,0,0,0,0,0,0,269.8,0,0,0,0,0,0,0,0,0,0,0,0,0,3,3,0,0,VALID,0,0,0,0,0,1,0,0,0,0,0,0,0,0,0,0,0,0,0,0,178.08,1067.31,2,0,0.12,0.12,42,8.33,0.12,0.12,5.16,FLYING,X10-H,0:/Integrated Flight Computer/aircraft/x10_h_cfg.ks (inferred preloaded)
5.52,APPROACH,ILS_TRACK,148.89,152,3.11,676.05,597,-7.92,14.63,17.56,270.07,0.714,0.864,0,-1.745,1,0.6,4.5,0.75,0.35,0.0168,0.4,0,22.753,0,-3.059,0,269.97,0,0,1,-3.08,0,0,0,269.98,0.5013,-0.0005,0.8653,0,269.97,3.37,-510.07,21.221,-0.027,0,0,3,743.98,0.502,0,1186.42,0,0,0,,0,0,0,0,0,0,0,0,0,0,0,0,0,269.8,0,0,0,0,0,0,0,0,0,0,0,0,0,3,3,0,0,VALID,0,0,0,0,0,1,0,0,0,0,0,0,0,0,0,0,0,0,0,0,221.45,1063.66,2,0,0.12,0.12,45,8.33,0.12,0.12,5.52,FLYING,X10-H,0:/Integrated Flight Computer/aircraft/x10_h_cfg.ks (inferred preloaded)
5.78,APPROACH,ILS_TRACK,148.28,152,3.72,674.22,595.05,-7.18,15.12,17.79,270.08,0.674,0.968,0,-1.728,1,0.6,4.5,0.75,0.35,0.0168,0.4,0,22.927,0,-3.676,0,269.97,0,0,1,-2.82,0,0,0,269.97,0.5013,-0.0006,0.8652,0,269.97,3.27,-509.79,21.18,-0.033,0,0,3,743.98,1.28,0,1184.28,0,0,0,,0,0,0,0,0,0,0,0,0,0,0,0,0,269.8,0,0,0,0,0,0,0,0,0,0,0,0,0,3,3,0,0,VALID,0,0,0,0,0,1,0,0,0,0,0,0,0,0,0,0,0,0,0,0,257.28,1061.26,2,0,0.12,0.12,47,7.69,0.14,0.12,5.78,FLYING,X10-H,0:/Integrated Flight Computer/aircraft/x10_h_cfg.ks (inferred preloaded)
6.14,APPROACH,ILS_TRACK,147.48,152,4.52,671.93,592.73,-5.7,15.37,17.46,270.07,0.595,1,0,-1.702,1,0.6,4.5,0.75,0.35,0.0168,0.4,0,23.152,0,-4.473,0,269.96,0,0,1,-2.28,0,0,0,269.95,0.5014,-0.0007,0.8652,0,269.96,3.14,-509.16,21.124,-0.041,0,0,3,743.98,1.974,0,1181.33,0,0,0,,0,0,0,0,0,0,0,0,0,0,0,0,0,269.8,0,0,0,0,0,0,0,0,0,0,0,0,0,3,3,0,0,VALID,0,0,0,0,0,1,0,0,0,0,0,0,0,0,0,0,0,0,0,0,311.25,1058.15,2,0,0.12,0.12,50,8.33,0.12,0.12,6.14,FLYING,X10-H,0:/Integrated Flight Computer/aircraft/x10_h_cfg.ks (inferred preloaded)
6.5,APPROACH,ILS_TRACK,146.89,152,5.11,669.89,590.93,-4.4,14.57,16.15,270.05,0.499,1,0,-1.677,1,0.6,4.5,0.75,0.35,0.0168,0.4,0,23.325,0,-5.09,0,269.95,0,0,1,-1.76,0,0,0,269.95,0.5015,-0.0009,0.8652,0,269.95,3.04,-508.3,21.068,-0.05,0,0,3,743.98,2.637,0,1178.4,0,0,0,,0,0,0,0,0,0,0,0,0,0,0,0,0,269.8,0,0,0,0,0,0,0,0,0,0,0,0,0,3,3,0,0,VALID,0,0,0,0,0,1,0,0,0,0,0,0,0,0,0,0,0,0,0,0,362.42,1055.82,2,0,0.12,0.12,53,8.33,0.12,0.12,6.5,FLYING,X10-H,0:/Integrated Flight Computer/aircraft/x10_h_cfg.ks (inferred preloaded)
6.86,APPROACH,ILS_TRACK,146.68,152,5.32,668.18,589.53,-3.46,13.47,14.71,270.02,0.394,0.8958,0,0.22,1,0.6,4.5,0.75,0.35,0.0168,0.4,0,23.389,0,-5.315,0,269.94,0,0,1,-1.39,0,0,0,269.94,0.5016,-0.001,0.8651,0,269.94,2.95,-507.12,21.012,-0.057,0,0,3,743.98,3.599,0,1175.47,0,0,0,,0,0,0,0,0,0,0,0,0,0,0,0,0,269.8,0,0,0,0,0,0,0,0,0,0,0,0,0,3,3,0,0,VALID,0,0,0,0,0,1,0,0,0,0,0,0,0,0,0,0,0,0,0,0,408.99,1055.08,2,0,0.12,0.12,56,8.33,0.12,0.12,6.86,FLYING,X10-H,0:/Integrated Flight Computer/aircraft/x10_h_cfg.ks (inferred preloaded)
7.22,APPROACH,ILS_TRACK,146.8,152,5.2,666.79,588.41,-2.78,12.47,13.46,270,0.296,0.7518,0,2.117,1,0.6,4.5,0.75,0.35,0.0168,0.4,0,23.361,0,-5.217,0,269.93,0,0,1,-1.11,0,0,0,269.94,0.5017,-0.0012,0.8651,0,269.93,2.87,-505.61,20.956,-0.066,0,0,3,743.98,4.483,0,1172.54,0,0,0,,0,0,0,0,0,0,0,0,0,0,0,0,0,269.8,0,0,0,0,0,0,0,0,0,0,0,0,0,3,3,0,0,VALID,0,0,0,0,0,1,0,0,0,0,0,0,0,0,0,0,0,0,0,0,443.51,1055.62,2,0,0.12,0.12,59,8.33,0.12,0.12,7.22,FLYING,X10-H,0:/Integrated Flight Computer/aircraft/x10_h_cfg.ks (inferred preloaded)
7.58,APPROACH,ILS_TRACK,147.13,152,4.87,665.67,587.52,-2.24,11.65,12.43,269.98,0.207,0.6078,0,3.922,1,0.6,4.5,0.75,0.35,0.0168,0.4,0,23.271,0,-4.897,0,269.93,0,0,1,-0.89,0,0,0,269.94,0.5017,-0.0012,0.865,0,269.93,2.8,-503.82,20.9,-0.067,0,0,3,743.98,5.164,0,1169.61,0,0,0,,0,0,0,0,0,0,0,0,0,0,0,0,0,269.8,0,0,0,0,0,0,0,0,0,0,0,0,0,3,3,0,0,VALID,0,0,0,0,0,1,0,0,0,0,0,0,0,0,0,0,0,0,0,0,465.48,1057.04,2,0,0.12,0.12,62,8.33,0.12,0.12,7.58,FLYING,X10-H,0:/Integrated Flight Computer/aircraft/x10_h_cfg.ks (inferred preloaded)
7.94,APPROACH,ILS_TRACK,147.59,152,4.41,664.7,586.81,-1.78,10.78,11.38,269.96,0.14,0.4638,0,5.578,1,0.6,4.5,0.75,0.35,0.0168,0.4,0,23.143,0,-4.443,0,269.94,0,0,1,-0.7,0,0,0,269.94,0.5018,-0.0011,0.865,0,269.94,2.74,-501.86,20.844,-0.063,0,0,3,743.98,5.53,0,1166.66,0,0,0,,0,0,0,0,0,0,0,0,0,0,0,0,0,269.8,0,0,0,0,0,0,0,0,0,0,0,0,0,3,3,0,0,VALID,0,0,0,0,0,1,0,0,0,0,0,0,0,0,0,0,0,0,0,0,475.65,1058.98,2,0,0.12,0.12,65,8.33,0.12,0.12,7.94,FLYING,X10-H,0:/Integrated Flight Computer/aircraft/x10_h_cfg.ks (inferred preloaded)
8.2,APPROACH,ILS_TRACK,148,152,4,664.12,586.35,-1.77,10.25,10.87,269.96,0.107,0.3598,0,6.655,1,0.6,4.5,0.75,0.35,0.0168,0.4,0,23.028,0,-4.034,0,269.94,0,0,1,-0.68,0,0,0,269.94,0.5019,-0.0011,0.8649,0,269.94,2.69,-500.33,20.803,-0.065,0,0,3,743.98,6.006,0,1164.53,0,0,0,,0,0,0,0,0,0,0,0,0,0,0,0,0,269.8,0,0,0,0,0,0,0,0,0,0,0,0,0,3,3,0,0,VALID,0,0,0,0,0,1,0,0,0,0,0,0,0,0,0,0,0,0,0,0,475.57,1060.72,2,0,0.12,0.12,67,7.69,0.14,0.12,8.2,FLYING,X10-H,0:/Integrated Flight Computer/aircraft/x10_h_cfg.ks (inferred preloaded)
8.56,APPROACH,ILS_TRACK,148.59,152,3.41,663.5,585.74,-1.64,10.19,10.81,269.95,0.069,0.2158,0,7.963,1,0.6,4.5,0.75,0.35,0.0168,0.4,0,22.86,0,-3.438,0,269.94,0,0,1,-0.65,0,0,0,269.93,0.502,-0.001,0.8649,0,269.94,2.63,-498.01,20.747,-0.057,0,0,3,743.98,6.646,0,1161.57,0,0,0,,0,0,0,0,0,0,0,0,0,0,0,0,0,269.8,0,0,0,0,0,0,0,0,0,0,0,0,0,3,3,0,0,VALID,0,0,0,0,0,1,0,0,0,0,0,0,0,0,0,0,0,0,0,0,460.28,1063.24,2,0,0.12,0.12,70,8.33,0.12,0.12,8.56,FLYING,X10-H,0:/Integrated Flight Computer/aircraft/x10_h_cfg.ks (inferred preloaded)
8.92,APPROACH,ILS_TRACK,149.1,152,2.9,662.95,585.22,-1.39,10.09,10.59,269.95,0.046,0.0718,0,9.076,1,0.6,4.5,0.75,0.35,0.0168,0.4,0,22.715,0,-2.926,0,269.94,0,0,1,-0.53,0,0,0,269.94,0.502,-0.001,0.8648,0,269.94,2.57,-495.59,20.69,-0.057,0,0,3,743.98,6.735,0,1158.6,0,0,0,,0,0,0,0,0,0,0,0,0,0,0,0,0,269.8,0,0,0,0,0,0,0,0,0,0,0,0,0,3,3,0,0,VALID,0,0,0,0,0,1,0,0,0,0,0,0,0,0,0,0,0,0,0,0,428.49,1065.39,2,0,0.12,0.12,73,8.33,0.12,0.12,8.92,FLYING,X10-H,0:/Integrated Flight Computer/aircraft/x10_h_cfg.ks (inferred preloaded)
9.28,APPROACH,ILS_TRACK,149.5,152,2.5,662.46,584.76,-1.21,9.99,10.42,269.95,0.038,0,0,10.026,1,0.6,4.5,0.75,0.35,0.0168,0.4,0,22.601,0,-2.519,0,269.94,0,0,1,-0.46,0,0,0,269.95,0.5021,-0.0011,0.8648,0,269.94,2.51,-493.11,20.633,-0.061,0,0,3,743.98,6.894,0,1155.62,0,0,0,,0,0,0,0,0,0,0,0,0,0,0,0,0,269.8,0,0,0,0,0,0,0,0,0,0,0,0,0,3,3,0,0,VALID,0,0,0,0,0,1,0,0,0,0,0,0,0,0,0,0,0,0,0,0,382.95,1067.09,2,0,0.12,0.12,76,8.33,0.12,0.12,9.28,FLYING,X10-H,0:/Integrated Flight Computer/aircraft/x10_h_cfg.ks (inferred preloaded)
9.64,APPROACH,ILS_TRACK,149.73,152,2.27,662.11,584.32,-1.09,10.31,10.74,269.95,0.033,0.0087,0,10.869,1,0.6,4.5,0.75,0.35,0.0168,0.4,0,22.532,0,-2.274,0,269.94,0,0,1,-0.45,0,0,0,269.94,0.5022,-0.001,0.8647,0,269.94,2.45,-490.48,20.576,-0.059,0,0,3,743.98,7.479,0,1152.63,0,0,0,,0,0,0,0,0,0,0,0,0,0,0,0,0,269.8,0,0,0,0,0,0,0,0,0,0,0,0,0,3,3,0,0,VALID,0,0,0,0,0,1,0,0,0,0,0,0,0,0,0,0,0,0,0,0,337.8,1068.1,2,0,0.12,0.12,79,8.33,0.12,0.12,9.64,FLYING,X10-H,0:/Integrated Flight Computer/aircraft/x10_h_cfg.ks (inferred preloaded)
10,APPROACH,ILS_TRACK,149.73,152,2.27,661.66,583.99,-0.9,9.93,10.23,269.94,0.031,0.1527,0,11.684,1,0.6,4.5,0.75,0.35,0.0168,0.4,0,22.53,0,-2.267,0,269.95,0,0,1,-0.34,0,0,0,269.95,0.5023,-0.0009,0.8647,0,269.95,2.39,-487.94,20.519,-0.053,0,0,3,743.98,6.998,0,1149.65,0,0,0,,0,0,0,0,0,0,0,0,0,0,0,0,0,269.8,0,0,0,0,0,0,0,0,0,0,0,0,0,3,3,0,0,VALID,0,0,0,0,0,1,0,0,0,0,0,0,0,0,0,0,0,0,0,0,304.31,1068.13,2,0,0.12,0.12,82,8.33,0.12,0.12,10,FLYING,X10-H,0:/Integrated Flight Computer/aircraft/x10_h_cfg.ks (inferred preloaded)
10.36,APPROACH,ILS_TRACK,149.72,152,2.28,661.38,583.63,-1,10.14,10.54,269.95,0.033,0.2894,0,12.501,1,0.6,4.5,0.75,0.35,0.0168,0.4,0,22.533,0,-2.28,0,269.94,0,0,1,-0.4,0,0,0,269.95,0.5024,-0.001,0.8646,0,269.94,2.33,-485.25,20.462,-0.058,0,0,3,743.98,7.718,0,1146.66,0,0,0,,0,0,0,0,0,0,0,0,0,0,0,0,0,269.8,0,0,0,0,0,0,0,0,0,0,0,0,0,3,3,0,0,VALID,0,0,0,0,0,1,0,0,0,0,0,0,0,0,0,0,0,0,0,0,292.79,1068.09,2,0,0.12,0.12,85,8.33,0.12,0.12,10.36,FLYING,X10-H,0:/Integrated Flight Computer/aircraft/x10_h_cfg.ks (inferred preloaded)
10.62,APPROACH,ILS_TRACK,149.64,152,2.36,661.16,583.41,-0.75,10.21,10.46,269.95,0.031,0.3728,0,13.108,1,0.6,4.5,0.75,0.35,0.0168,0.4,0,22.555,0,-2.357,0,269.95,0,0,1,-0.29,0,0,0,269.94,0.5024,-0.0008,0.8646,0,269.95,2.29,-483.31,20.421,-0.048,0,0,3,743.98,7.337,0,1144.5,0,0,0,,0,0,0,0,0,0,0,0,0,0,0,0,0,269.8,0,0,0,0,0,0,0,0,0,0,0,0,0,3,3,0,0,VALID,0,0,0,0,0,1,0,0,0,0,0,0,0,0,0,0,0,0,0,0,294.16,1067.77,2,0,0.12,0.12,87,7.69,0.14,0.12,10.62,FLYING,X10-H,0:/Integrated Flight Computer/aircraft/x10_h_cfg.ks (inferred preloaded)
10.98,APPROACH,ILS_TRACK,149.58,152,2.42,660.86,583.12,-0.73,10.12,10.39,269.95,0.032,0.4222,0,13.972,1,0.6,4.5,0.75,0.35,0.0168,0.4,0,22.571,0,-2.414,0,269.95,0,0,1,-0.29,0,0,0,269.95,0.5025,-0.0009,0.8646,0,269.95,2.23,-480.63,20.364,-0.049,0,0,3,743.98,7.578,0,1141.52,0,0,0,,0,0,0,0,0,0,0,0,0,0,0,0,0,269.8,0,0,0,0,0,0,0,0,0,0,0,0,0,3,3,0,0,VALID,0,0,0,0,0,1,0,0,0,0,0,0,0,0,0,0,0,0,0,0,302.69,1067.57,2,0,0.12,0.12,90,8.33,0.12,0.12,10.98,FLYING,X10-H,0:/Integrated Flight Computer/aircraft/x10_h_cfg.ks (inferred preloaded)
11.34,APPROACH,ILS_TRACK,149.57,152,2.43,660.58,582.87,-0.65,10.06,10.29,269.95,0.032,0.435,0,14.847,1,0.6,4.5,0.75,0.35,0.0168,0.4,0,22.576,0,-2.43,0,269.95,0,0,1,-0.25,0,0,0,269.95,0.5026,-0.0009,0.8645,0,269.95,2.17,-477.92,20.307,-0.049,0,0,3,743.98,7.574,0,1138.54,0,0,0,,0,0,0,0,0,0,0,0,0,0,0,0,0,269.8,0,0,0,0,0,0,0,0,0,0,0,0,0,3,3,0,0,VALID,0,0,0,0,0,1,0,0,0,0,0,0,0,0,0,0,0,0,0,0,313.48,1067.53,2,0,0.12,0.12,93,8.33,0.12,0.12,11.34,FLYING,X10-H,0:/Integrated Flight Computer/aircraft/x10_h_cfg.ks (inferred preloaded)
11.7,APPROACH,ILS_TRACK,149.6,152,2.4,660.34,582.64,-0.58,10.02,10.22,269.95,0.032,0.4237,0,15.715,1,0.6,4.5,0.75,0.35,0.0168,0.4,0,22.567,0,-2.398,0,269.95,0,0,1,-0.22,0,0,0,269.96,0.5027,-0.0008,0.8645,0,269.95,2.12,-475.18,20.25,-0.046,0,0,3,743.98,7.616,0,1135.55,0,0,0,,0,0,0,0,0,0,0,0,0,0,0,0,0,269.8,0,0,0,0,0,0,0,0,0,0,0,0,0,3,3,0,0,VALID,0,0,0,0,0,1,0,0,0,0,0,0,0,0,0,0,0,0,0,0,323.85,1067.69,2,0,0.12,0.12,96,8.33,0.12,0.12,11.7,FLYING,X10-H,0:/Integrated Flight Computer/aircraft/x10_h_cfg.ks (inferred preloaded)
12.06,APPROACH,ILS_TRACK,149.68,152,2.32,660.13,582.42,-0.49,10.04,10.21,269.95,0.034,0.4023,0,16.562,1,0.6,4.5,0.75,0.35,0.0168,0.4,0,22.547,0,-2.327,0,269.96,0,0,1,-0.2,0,0,0,269.95,0.5028,-0.0007,0.8644,0,269.96,2.06,-472.41,20.193,-0.042,0,0,3,743.98,7.749,0,1132.57,0,0,0,,0,0,0,0,0,0,0,0,0,0,0,0,0,269.8,0,0,0,0,0,0,0,0,0,0,0,0,0,3,3,0,0,VALID,0,0,0,0,0,1,0,0,0,0,0,0,0,0,0,0,0,0,0,0,332.46,1068.01,2,0,0.12,0.12,99,8.33,0.12,0.12,12.06,FLYING,X10-H,0:/Integrated Flight Computer/aircraft/x10_h_cfg.ks (inferred preloaded)
12.42,APPROACH,ILS_TRACK,149.78,152,2.22,659.91,582.24,-0.5,9.92,10.11,269.95,0.035,0.3785,0,17.378,1,0.6,4.5,0.75,0.35,0.0168,0.4,0,22.519,0,-2.227,0,269.95,0,0,1,-0.2,0,0,0,269.96,0.5028,-0.0008,0.8644,0,269.95,2.01,-469.65,20.136,-0.045,0,0,3,743.98,7.805,0,1129.58,0,0,0,,0,0,0,0,0,0,0,0,0,0,0,0,0,269.8,0,0,0,0,0,0,0,0,0,0,0,0,0,3,3,0,0,VALID,0,0,0,0,0,1,0,0,0,0,0,0,0,0,0,0,0,0,0,0,339.12,1068.45,2,0,0.12,0.12,102,8.33,0.12,0.12,12.42,FLYING,X10-H,0:/Integrated Flight Computer/aircraft/x10_h_cfg.ks (inferred preloaded)
12.78,APPROACH,ILS_TRACK,149.92,152,2.08,659.72,582.06,-0.45,9.87,10.02,269.95,0.035,0.3501,0,18.148,1,0.6,4.5,0.75,0.35,0.0168,0.4,0,22.48,0,-2.091,0,269.96,0,0,1,-0.17,0,0,0,269.96,0.5029,-0.0007,0.8643,0,269.96,1.95,-466.85,20.079,-0.041,0,0,3,743.98,7.78,0,1126.59,0,0,0,,0,0,0,0,0,0,0,0,0,0,0,0,0,269.8,0,0,0,0,0,0,0,0,0,0,0,0,0,3,3,0,0,VALID,0,0,0,0,0,1,0,0,0,0,0,0,0,0,0,0,0,0,0,0,343.29,1069.04,2,0,0.12,0.12,105,8.33,0.12,0.12,12.78,FLYING,X10-H,0:/Integrated Flight Computer/aircraft/x10_h_cfg.ks (inferred preloaded)
13.04,APPROACH,ILS_TRACK,150.03,152,1.97,659.6,581.95,-0.43,9.83,9.99,269.95,0.036,0.3317,0,18.67,1,0.6,4.5,0.75,0.35,0.0168,0.4,0,22.448,0,-1.977,0,269.96,0,0,1,-0.17,0,0,0,269.96,0.503,-0.0006,0.8643,0,269.96,1.91,-464.82,20.038,-0.036,0,0,3,743.98,7.83,0,1124.43,0,0,0,,0,0,0,0,0,0,0,0,0,0,0,0,0,269.8,0,0,0,0,0,0,0,0,0,0,0,0,0,3,3,0,0,VALID,0,0,0,0,0,1,0,0,0,0,0,0,0,0,0,0,0,0,0,0,344.87,1069.53,2,0,0.12,0.12,107,7.69,0.14,0.12,13.04,FLYING,X10-H,0:/Integrated Flight Computer/aircraft/x10_h_cfg.ks (inferred preloaded)
13.4,APPROACH,ILS_TRACK,150.2,152,1.8,659.44,581.79,-0.38,9.81,9.94,269.95,0.036,0.3119,0,19.342,1,0.6,4.5,0.75,0.35,0.0168,0.4,0,22.401,0,-1.812,0,269.96,0,0,1,-0.15,0,0,0,269.96,0.5031,-0.0006,0.8642,0,269.96,1.85,-461.98,19.981,-0.036,0,0,3,743.98,7.897,0,1121.44,0,0,0,,0,0,0,0,0,0,0,0,0,0,0,0,0,269.8,0,0,0,0,0,0,0,0,0,0,0,0,0,3,3,0,0,VALID,0,0,0,0,0,1,0,0,0,0,0,0,0,0,0,0,0,0,0,0,345.22,1070.23,2,0,0.12,0.12,110,8.33,0.12,0.12,13.4,FLYING,X10-H,0:/Integrated Flight Computer/aircraft/x10_h_cfg.ks (inferred preloaded)
13.76,APPROACH,ILS_TRACK,150.36,152,1.64,659.29,581.65,-0.36,9.77,9.9,269.95,0.036,0.3011,0,19.955,1,0.6,4.5,0.75,0.35,0.0168,0.4,0,22.355,0,-1.648,0,269.97,0,0,1,-0.14,0,0,0,269.96,0.5032,-0.0006,0.8642,0,269.97,1.8,-459.14,19.924,-0.032,0,0,3,743.98,7.901,0,1118.44,0,0,0,,0,0,0,0,0,0,0,0,0,0,0,0,0,269.8,0,0,0,0,0,0,0,0,0,0,0,0,0,3,3,0,0,VALID,0,0,0,0,0,1,0,0,0,0,0,0,0,0,0,0,0,0,0,0,343.67,1070.93,2,0,0.12,0.12,113,8.33,0.12,0.12,13.76,FLYING,X10-H,0:/Integrated Flight Computer/aircraft/x10_h_cfg.ks (inferred preloaded)
14.12,APPROACH,ILS_TRACK,150.53,152,1.47,659.16,581.52,-0.35,9.76,9.89,269.95,0.038,0.285,0,20,1,0.6,4.5,0.75,0.35,0.0168,0.4,0,22.309,0,-1.482,0,269.97,0,0,1,-0.14,0,0,0,269.97,0.5032,-0.0006,0.8641,0,269.97,1.75,-456.27,19.866,-0.032,0,0,3,743.98,7.994,0,1115.44,0,0,0,,0,0,0,0,0,0,0,0,0,0,0,0,0,269.8,0,0,0,0,0,0,0,0,0,0,0,0,0,3,3,0,0,VALID,0,0,0,0,0,1,0,0,0,0,0,0,0,0,0,0,0,0,0,0,340.74,1071.63,2,0,0.12,0.12,116,8.33,0.12,0.12,14.12,FLYING,X10-H,0:/Integrated Flight Computer/aircraft/x10_h_cfg.ks (inferred preloaded)
14.48,APPROACH,ILS_TRACK,150.68,152,1.32,659.03,581.41,-0.33,9.72,9.83,269.95,0.038,0.2793,0,20,1,0.6,4.5,0.75,0.35,0.0168,0.4,0,22.267,0,-1.333,0,269.98,0,0,1,-0.12,0,0,0,269.96,0.5033,-0.0004,0.8641,0,269.98,1.69,-453.4,19.809,-0.023,0,0,3,743.98,7.979,0,1112.44,0,0,0,,0,0,0,0,0,0,0,0,0,0,0,0,0,269.8,0,0,0,0,0,0,0,0,0,0,0,0,0,3,3,0,0,VALID,0,0,0,0,0,1,0,0,0,0,0,0,0,0,0,0,0,0,0,0,336.53,1072.27,2,0,0.12,0.12,119,8.33,0.12,0.12,14.48,FLYING,X10-H,0:/Integrated Flight Computer/aircraft/x10_h_cfg.ks (inferred preloaded)
14.84,APPROACH,ILS_TRACK,150.81,152,1.19,658.92,581.3,-0.27,9.73,9.83,269.95,0.039,0.2793,0,20,1,0.6,4.5,0.75,0.35,0.0168,0.4,0,22.228,0,-1.197,0,269.97,0,0,1,-0.11,0,0,0,269.97,0.5034,-0.0006,0.8641,0,269.97,1.64,-450.5,19.752,-0.033,0,0,3,743.98,8.058,0,1109.43,0,0,0,,0,0,0,0,0,0,0,0,0,0,0,0,0,269.8,0,0,0,0,0,0,0,0,0,0,0,0,0,3,3,0,0,VALID,0,0,0,0,0,1,0,0,0,0,0,0,0,0,0,0,0,0,0,0,332.23,1072.84,2,0,0.12,0.12,122,8.33,0.12,0.12,14.84,FLYING,X10-H,0:/Integrated Flight Computer/aircraft/x10_h_cfg.ks (inferred preloaded)
15.2,APPROACH,ILS_TRACK,150.93,152,1.07,658.82,581.2,-0.25,9.71,9.8,269.95,0.04,0.2834,0,20,1,0.6,4.5,0.75,0.35,0.0168,0.4,0,22.195,0,-1.078,0,269.97,0,0,1,-0.1,0,0,0,269.97,0.5035,-0.0005,0.864,0,269.97,1.59,-447.6,19.694,-0.029,0,0,3,743.98,8.071,0,1106.43,0,0,0,,0,0,0,0,0,0,0,0,0,0,0,0,0,269.8,0,0,0,0,0,0,0,0,0,0,0,0,0,3,3,0,0,VALID,0,0,0,0,0,1,0,0,0,0,0,0,0,0,0,0,0,0,0,0,328.64,1073.35,2,0,0.12,0.12,125,8.33,0.12,0.12,15.2,FLYING,X10-H,0:/Integrated Flight Computer/aircraft/x10_h_cfg.ks (inferred preloaded)
15.46,APPROACH,ILS_TRACK,151.01,152,0.99,658.75,581.13,-0.26,9.7,9.79,269.96,0.04,0.2859,0,20,1,0.6,4.5,0.75,0.35,0.0168,0.4,0,22.172,0,-0.999,0,269.97,0,0,1,-0.09,0,0,0,269.97,0.5035,-0.0006,0.864,0,269.97,1.56,-445.49,19.653,-0.032,0,0,3,743.98,8.087,0,1104.25,0,0,0,,0,0,0,0,0,0,0,0,0,0,0,0,0,269.8,0,0,0,0,0,0,0,0,0,0,0,0,0,3,3,0,0,VALID,0,0,0,0,0,1,0,0,0,0,0,0,0,0,0,0,0,0,0,0,326.61,1073.68,2,0,0.12,0.12,127,7.69,0.14,0.12,15.46,FLYING,X10-H,0:/Integrated Flight Computer/aircraft/x10_h_cfg.ks (inferred preloaded)
15.82,APPROACH,ILS_TRACK,151.11,152,0.89,658.67,581.05,-0.21,9.71,9.79,269.96,0.04,0.2898,0,20,1,0.6,4.5,0.75,0.35,0.0168,0.4,0,22.144,0,-0.899,0,269.98,0,0,1,-0.09,0,0,0,269.97,0.5036,-0.0004,0.8639,0,269.98,1.5,-442.56,19.595,-0.024,0,0,3,743.98,8.163,0,1101.24,0,0,0,,0,0,0,0,0,0,0,0,0,0,0,0,0,269.8,0,0,0,0,0,0,0,0,0,0,0,0,0,3,3,0,0,VALID,0,0,0,0,0,1,0,0,0,0,0,0,0,0,0,0,0,0,0,0,324.58,1074.11,2,0,0.12,0.12,130,8.33,0.12,0.12,15.82,FLYING,X10-H,0:/Integrated Flight Computer/aircraft/x10_h_cfg.ks (inferred preloaded)
16.18,APPROACH,ILS_TRACK,151.2,152,0.8,658.59,580.97,-0.21,9.69,9.76,269.96,0.04,0.2934,0,20,1,0.6,4.5,0.75,0.35,0.0168,0.4,0,22.118,0,-0.807,0,269.98,0,0,1,-0.08,0,0,0,269.97,0.5037,-0.0004,0.8639,0,269.98,1.45,-439.63,19.538,-0.022,0,0,3,743.98,8.139,0,1098.23,0,0,0,,0,0,0,0,0,0,0,0,0,0,0,0,0,269.8,0,0,0,0,0,0,0,0,0,0,0,0,0,3,3,0,0,VALID,0,0,0,0,0,1,0,0,0,0,0,0,0,0,0,0,0,0,0,0,323.29,1074.5,2,0,0.12,0.12,133,8.33,0.12,0.12,16.18,FLYING,X10-H,0:/Integrated Flight Computer/aircraft/x10_h_cfg.ks (inferred preloaded)
16.54,APPROACH,ILS_TRACK,151.29,152,0.71,658.52,580.9,-0.2,9.7,9.79,269.96,0.04,0.2933,0,20,1,0.6,4.5,0.75,0.35,0.0168,0.4,0,22.093,0,-0.719,0,269.98,0,0,1,-0.09,0,0,0,269.97,0.5038,-0.0004,0.8638,0,269.98,1.41,-436.69,19.48,-0.022,0,0,3,743.98,8.271,0,1095.21,0,0,0,,0,0,0,0,0,0,0,0,0,0,0,0,0,269.8,0,0,0,0,0,0,0,0,0,0,0,0,0,3,3,0,0,VALID,0,0,0,0,0,1,0,0,0,0,0,0,0,0,0,0,0,0,0,0,322.5,1074.88,2,0,0.12,0.12,136,8.33,0.12,0.12,16.54,FLYING,X10-H,0:/Integrated Flight Computer/aircraft/x10_h_cfg.ks (inferred preloaded)
16.9,APPROACH,ILS_TRACK,151.36,152,0.64,658.45,580.84,-0.16,9.67,9.73,269.96,0.039,0.2969,0,20,1,0.6,4.5,0.75,0.35,0.0168,0.4,0,22.072,0,-0.643,0,269.98,0,0,1,-0.07,0,0,0,269.98,0.5039,-0.0004,0.8638,0,269.98,1.36,-433.74,19.423,-0.022,0,0,3,743.98,8.231,0,1092.2,0,0,0,,0,0,0,0,0,0,0,0,0,0,0,0,0,269.8,0,0,0,0,0,0,0,0,0,0,0,0,0,3,3,0,0,VALID,0,0,0,0,0,1,0,0,0,0,0,0,0,0,0,0,0,0,0,0,322.09,1075.2,2,0,0.12,0.12,139,8.33,0.12,0.12,16.9,FLYING,X10-H,0:/Integrated Flight Computer/aircraft/x10_h_cfg.ks (inferred preloaded)
17.26,APPROACH,ILS_TRACK,151.45,152,0.55,658.39,580.79,-0.15,9.65,9.7,269.96,0.038,0.2909,0,20,1,0.6,4.5,0.75,0.35,0.0168,0.4,0,22.048,0,-0.557,0,269.98,0,0,1,-0.05,0,0,0,269.98,0.504,-0.0003,0.8637,0,269.98,1.31,-430.78,19.365,-0.018,0,0,3,743.98,8.23,0,1089.18,0,0,0,,0,0,0,0,0,0,0,0,0,0,0,0,0,269.8,0,0,0,0,0,0,0,0,0,0,0,0,0,3,3,0,0,VALID,0,0,0,0,0,1,0,0,0,0,0,0,0,0,0,0,0,0,0,0,321.67,1075.57,2,0,0.12,0.12,142,8.33,0.12,0.12,17.26,FLYING,X10-H,0:/Integrated Flight Computer/aircraft/x10_h_cfg.ks (inferred preloaded)
17.62,APPROACH,ILS_TRACK,151.54,152,0.46,658.34,580.74,-0.12,9.64,9.69,269.96,0.039,0.2845,0,20,1,0.6,4.5,0.75,0.35,0.0168,0.4,0,22.023,0,-0.469,0,269.98,0,0,1,-0.05,0,0,0,269.98,0.504,-0.0003,0.8637,0,269.98,1.26,-427.81,19.308,-0.018,0,0,3,743.98,8.257,0,1086.16,0,0,0,,0,0,0,0,0,0,0,0,0,0,0,0,0,269.8,0,0,0,0,0,0,0,0,0,0,0,0,0,3,3,0,0,VALID,0,0,0,0,0,1,0,0,0,0,0,0,0,0,0,0,0,0,0,0,320.5,1075.94,2,0,0.12,0.12,145,8.33,0.12,0.12,17.62,FLYING,X10-H,0:/Integrated Flight Computer/aircraft/x10_h_cfg.ks (inferred preloaded)
17.88,APPROACH,ILS_TRACK,151.6,152,0.4,658.31,580.71,-0.11,9.64,9.68,269.96,0.039,0.2811,0,20,1,0.6,4.5,0.75,0.35,0.0168,0.4,0,22.006,0,-0.408,0,269.99,0,0,1,-0.04,0,0,0,269.98,0.5041,-0.0002,0.8636,0,269.99,1.23,-425.66,19.266,-0.014,0,0,3,743.98,8.273,0,1083.98,0,0,0,,0,0,0,0,0,0,0,0,0,0,0,0,0,269.8,0,0,0,0,0,0,0,0,0,0,0,0,0,3,3,0,0,VALID,0,0,0,0,0,1,0,0,0,0,0,0,0,0,0,0,0,0,0,0,319.25,1076.2,2,0,0.12,0.12,147,7.69,0.14,0.12,17.88,FLYING,X10-H,0:/Integrated Flight Computer/aircraft/x10_h_cfg.ks (inferred preloaded)
18.24,APPROACH,ILS_TRACK,151.67,152,0.33,658.28,580.68,-0.09,9.63,9.67,269.96,0.039,0.2792,0,20,1,0.6,4.5,0.75,0.35,0.0168,0.4,0,21.984,0,-0.33,0,269.98,0,0,1,-0.04,0,0,0,269.99,0.5042,-0.0003,0.8636,0,269.98,1.18,-422.67,19.208,-0.016,0,0,3,743.98,8.299,0,1080.95,0,0,0,,0,0,0,0,0,0,0,0,0,0,0,0,0,269.8,0,0,0,0,0,0,0,0,0,0,0,0,0,3,3,0,0,VALID,0,0,0,0,0,1,0,0,0,0,0,0,0,0,0,0,0,0,0,0,317.27,1076.53,2,0,0.12,0.12,150,8.33,0.12,0.12,18.24,FLYING,X10-H,0:/Integrated Flight Computer/aircraft/x10_h_cfg.ks (inferred preloaded)
18.6,APPROACH,ILS_TRACK,151.75,152,0.25,658.25,580.65,-0.08,9.63,9.65,269.96,0.039,0.2796,0,20,1,0.6,4.5,0.75,0.35,0.0168,0.4,0,21.964,0,-0.259,0,269.98,0,0,1,-0.03,0,0,0,269.99,0.5043,-0.0004,0.8635,0,269.98,1.14,-419.68,19.151,-0.021,0,0,3,743.98,8.318,0,1077.93,0,0,0,,0,0,0,0,0,0,0,0,0,0,0,0,0,269.8,0,0,0,0,0,0,0,0,0,0,0,0,0,3,3,0,0,VALID,0,0,0,0,0,1,0,0,0,0,0,0,0,0,0,0,0,0,0,0,315.38,1076.83,2,0,0.12,0.12,153,8.33,0.12,0.12,18.6,FLYING,X10-H,0:/Integrated Flight Computer/aircraft/x10_h_cfg.ks (inferred preloaded)
18.96,APPROACH,ILS_TRACK,151.81,152,0.19,658.22,580.62,-0.05,9.62,9.64,269.96,0.04,0.2813,0,20,1,0.6,4.5,0.75,0.35,0.0168,0.4,0,21.946,0,-0.195,0,269.99,0,0,1,-0.02,0,0,0,269.98,0.5044,-0.0002,0.8635,0,269.99,1.09,-416.68,19.093,-0.012,0,0,3,743.98,8.339,0,1074.91,0,0,0,,0,0,0,0,0,0,0,0,0,0,0,0,0,269.8,0,0,0,0,0,0,0,0,0,0,0,0,0,3,3,0,0,VALID,0,0,0,0,0,1,0,0,0,0,0,0,0,0,0,0,0,0,0,0,313.82,1077.1,2,0,0.12,0.12,156,8.33,0.12,0.12,18.96,FLYING,X10-H,0:/Integrated Flight Computer/aircraft/x10_h_cfg.ks (inferred preloaded)
19.32,APPROACH,ILS_TRACK,151.87,152,0.13,658.2,580.61,-0.04,9.62,9.64,269.96,0.04,0.2829,0,20,1,0.6,4.5,0.75,0.35,0.0168,0.4,0,21.929,0,-0.136,0,269.99,0,0,1,-0.02,0,0,0,269.99,0.5044,-0.0001,0.8634,0,269.99,1.05,-413.67,19.035,-0.008,0,0,3,743.98,8.36,0,1071.88,0,0,0,,0,0,0,0,0,0,0,0,0,0,0,0,0,269.8,0,0,0,0,0,0,0,0,0,0,0,0,0,3,3,0,0,VALID,0,0,0,0,0,1,0,0,0,0,0,0,0,0,0,0,0,0,0,0,312.66,1077.35,2,0,0.12,0.12,159,8.33,0.12,0.12,19.32,FLYING,X10-H,0:/Integrated Flight Computer/aircraft/x10_h_cfg.ks (inferred preloaded)
19.68,APPROACH,ILS_TRACK,151.92,152,0.08,658.19,580.6,-0.03,9.62,9.62,269.96,0.04,0.284,0,20,1,0.6,4.5,0.75,0.35,0.0168,0.4,0,21.914,0,-0.082,0,269.99,0,0,1,-0.01,0,0,0,269.99,0.5045,-0.0002,0.8634,0,269.99,1,-410.66,18.977,-0.011,0,0,3,743.98,8.377,0,1068.85,0,0,0,,0,0,0,0,0,0,0,0,0,0,0,0,0,269.8,0,0,0,0,0,0,0,0,0,0,0,0,0,3,3,0,0,VALID,0,0,0,0,0,1,0,0,0,0,0,0,0,0,0,0,0,0,0,0,311.84,1077.58,2,0,0.12,0.12,162,8.33,0.12,0.12,19.68,FLYING,X10-H,0:/Integrated Flight Computer/aircraft/x10_h_cfg.ks (inferred preloaded)
20.04,APPROACH,ILS_TRACK,151.97,152,0.03,658.18,580.59,-0.01,9.61,9.61,269.96,0.039,0.2844,0,20,1,0.6,4.5,0.75,0.35,0.0168,0.4,0,21.9,0,-0.031,0,269.99,0,0,1,0,0,0,0,269.99,0.5046,-0.0002,0.8634,0,269.99,0.96,-407.64,18.92,-0.01,0,0,3,743.98,8.397,0,1065.82,0,0,0,,0,0,0,0,0,0,0,0,0,0,0,0,0,269.8,0,0,0,0,0,0,0,0,0,0,0,0,0,3,3,0,0,VALID,0,0,0,0,0,1,0,0,0,0,0,0,0,0,0,0,0,0,0,0,311.23,1077.79,2,0,0.12,0.12,165,8.33,0.12,0.12,20.04,FLYING,X10-H,0:/Integrated Flight Computer/aircraft/x10_h_cfg.ks (inferred preloaded)
20.3,APPROACH,ILS_TRACK,152.01,152,-0.01,658.18,580.59,0,9.61,9.61,269.96,0.039,0.284,0,19.999,1,0.6,4.5,0.75,0.35,0.0168,0.4,0,21.89,0,0.005,0,269.99,0,0,1,0,0,0,0,269.99,0.5047,-0.0001,0.8633,0,269.99,0.93,-405.45,18.878,-0.008,0,0,3,743.98,8.41,0,1063.64,0,0,0,,0,0,0,0,0,0,0,0,0,0,0,0,0,269.8,0,0,0,0,0,0,0,0,0,0,0,0,0,3,3,0,0,VALID,0,0,0,0,0,1,0,0,0,0,0,0,0,0,0,0,0,0,0,0,310.85,1077.94,2,0,0.12,0.12,167,7.69,0.14,0.12,20.3,FLYING,X10-H,0:/Integrated Flight Computer/aircraft/x10_h_cfg.ks (inferred preloaded)
20.66,APPROACH,ILS_TRACK,152.05,152,-0.05,658.19,580.59,0.02,9.61,9.6,269.96,0.04,0.2832,0,19.986,1,0.6,4.5,0.75,0.35,0.0168,0.4,0,21.876,0,0.052,0,269.99,0,0,1,0.01,0,0,0,269.99,0.5047,-0.0002,0.8633,0,269.99,0.89,-402.42,18.82,-0.01,0,0,3,743.98,8.427,0,1060.61,0,0,0,,0,0,0,0,0,0,0,0,0,0,0,0,0,269.8,0,0,0,0,0,0,0,0,0,0,0,0,0,3,3,0,0,VALID,0,0,0,0,0,1,0,0,0,0,0,0,0,0,0,0,0,0,0,0,310.32,1078.14,2,0,0.12,0.12,170,8.33,0.12,0.12,20.66,FLYING,X10-H,0:/Integrated Flight Computer/aircraft/x10_h_cfg.ks (inferred preloaded)
21.02,APPROACH,ILS_TRACK,152.1,152,-0.1,658.19,580.6,0.04,9.6,9.59,269.96,0.04,0.2818,0,19.956,1,0.6,4.5,0.75,0.35,0.0168,0.4,0,21.863,0,0.098,0,270,0,0,1,0.01,0,0,0,270,0.5048,-0.0001,0.8632,0,270,0.85,-399.38,18.762,-0.005,0,0,3,743.98,8.447,0,1057.58,0,0,0,,0,0,0,0,0,0,0,0,0,0,0,0,0,269.8,0,0,0,0,0,0,0,0,0,0,0,0,0,3,3,0,0,VALID,0,0,0,0,0,1,0,0,0,0,0,0,0,0,0,0,0,0,0,0,309.73,1078.34,2,0,0.12,0.12,173,8.33,0.12,0.12,21.02,FLYING,X10-H,0:/Integrated Flight Computer/aircraft/x10_h_cfg.ks (inferred preloaded)
21.38,APPROACH,ILS_TRACK,152.14,152,-0.14,658.21,580.62,0.05,9.6,9.58,269.97,0.041,0.2803,0,19.911,1,0.6,4.5,0.75,0.35,0.0168,0.4,0,21.851,0,0.141,0,269.99,0,0,1,0.02,0,0,0,270,0.5049,-0.0001,0.8632,0,269.99,0.81,-396.34,18.704,-0.005,0,0,3,743.98,8.463,0,1054.54,0,0,0,,0,0,0,0,0,0,0,0,0,0,0,0,0,269.8,0,0,0,0,0,0,0,0,0,0,0,0,0,3,3,0,0,VALID,0,0,0,0,0,1,0,0,0,0,0,0,0,0,0,0,0,0,0,0,309.04,1078.52,2,0,0.12,0.12,176,8.33,0.12,0.12,21.38,FLYING,X10-H,0:/Integrated Flight Computer/aircraft/x10_h_cfg.ks (inferred preloaded)
21.74,APPROACH,ILS_TRACK,152.18,152,-0.18,658.23,580.64,0.06,9.6,9.57,269.97,0.041,0.279,0,19.85,1,0.6,4.5,0.75,0.35,0.0168,0.4,0,21.84,0,0.182,0,270,0,0,1,0.02,0,0,0,270,0.505,0,0.8631,0,270,0.76,-393.29,18.647,-0.003,0,0,3,743.98,8.479,0,1051.51,0,0,0,,0,0,0,0,0,0,0,0,0,0,0,0,0,269.8,0,0,0,0,0,0,0,0,0,0,0,0,0,3,3,0,0,VALID,0,0,0,0,0,1,0,0,0,0,0,0,0,0,0,0,0,0,0,0,308.24,1078.68,2,0,0.12,0.12,179,8.33,0.12,0.12,21.74,FLYING,X10-H,0:/Integrated Flight Computer/aircraft/x10_h_cfg.ks (inferred preloaded)
22.1,APPROACH,ILS_TRACK,152.22,152,-0.22,658.25,580.66,0.08,9.6,9.57,269.97,0.041,0.2779,0,19.776,1,0.6,4.5,0.75,0.35,0.0168,0.4,0,21.829,0,0.219,0,270,0,0,1,0.03,0,0,0,270,0.5051,-0.0001,0.8631,0,270,0.72,-390.23,18.589,-0.004,0,0,3,743.98,8.496,0,1048.48,0,0,0,,0,0,0,0,0,0,0,0,0,0,0,0,0,269.8,0,0,0,0,0,0,0,0,0,0,0,0,0,3,3,0,0,VALID,0,0,0,0,0,1,0,0,0,0,0,0,0,0,0,0,0,0,0,0,307.37,1078.84,2,0,0.12,0.12,182,8.33,0.12,0.12,22.1,FLYING,X10-H,0:/Integrated Flight Computer/aircraft/x10_h_cfg.ks (inferred preloaded)
22.46,APPROACH,ILS_TRACK,152.25,152,-0.25,658.28,580.69,0.09,9.59,9.56,269.97,0.041,0.277,0,19.689,1,0.6,4.5,0.75,0.35,0.0168,0.4,0,21.82,0,0.253,0,270,0,0,1,0.03,0,0,0,270,0.5052,0,0.863,0,270,0.69,-387.17,18.531,0.001,0,0,3,743.98,8.512,0,1045.45,0,0,0,,0,0,0,0,0,0,0,0,0,0,0,0,0,269.8,0,0,0,0,0,0,0,0,0,0,0,0,0,3,3,0,0,VALID,0,0,0,0,0,1,0,0,0,0,0,0,0,0,0,0,0,0,0,0,306.47,1078.98,2,0,0.12,0.12,185,8.33,0.12,0.12,22.46,FLYING,X10-H,0:/Integrated Flight Computer/aircraft/x10_h_cfg.ks (inferred preloaded)
22.72,APPROACH,ILS_TRACK,152.28,152,-0.28,658.3,580.72,0.1,9.59,9.56,269.97,0.041,0.2764,0,19.618,1,0.6,4.5,0.75,0.35,0.0168,0.4,0,21.813,0,0.275,0,270,0,0,1,0.04,0,0,0,270,0.5052,0,0.863,0,270,0.66,-384.95,18.489,0,0,0,3,743.98,8.521,0,1043.25,0,0,0,,0,0,0,0,0,0,0,0,0,0,0,0,0,269.8,0,0,0,0,0,0,0,0,0,0,0,0,0,3,3,0,0,VALID,0,0,0,0,0,1,0,0,0,0,0,0,0,0,0,0,0,0,0,0,305.82,1079.07,2,0,0.12,0.12,187,7.69,0.14,0.12,22.72,FLYING,X10-H,0:/Integrated Flight Computer/aircraft/x10_h_cfg.ks (inferred preloaded)
23.08,APPROACH,ILS_TRACK,152.3,152,-0.3,658.34,580.75,0.11,9.59,9.55,269.97,0.042,0.276,0,19.512,1,0.6,4.5,0.75,0.35,0.0168,0.4,0,21.805,0,0.303,0,270,0,0,1,0.04,0,0,0,270,0.5053,0,0.8629,0,270,0.62,-381.88,18.431,0.002,0,0,3,743.98,8.537,0,1040.22,0,0,0,,0,0,0,0,0,0,0,0,0,0,0,0,0,269.8,0,0,0,0,0,0,0,0,0,0,0,0,0,3,3,0,0,VALID,0,0,0,0,0,1,0,0,0,0,0,0,0,0,0,0,0,0,0,0,304.94,1079.19,2,0,0.12,0.12,190,8.33,0.12,0.12,23.08,FLYING,X10-H,0:/Integrated Flight Computer/aircraft/x10_h_cfg.ks (inferred preloaded)
23.44,APPROACH,ILS_TRACK,152.33,152,-0.33,658.38,580.79,0.12,9.59,9.55,269.97,0.044,0.2755,0,19.397,1,0.6,4.5,0.75,0.35,0.0168,0.4,0,21.798,0,0.328,0,270,0,0,1,0.05,0,0,0,270,0.5054,0,0.8629,0,270,0.58,-378.81,18.373,0.001,0,0,3,743.98,8.55,0,1037.18,0,0,0,,0,0,0,0,0,0,0,0,0,0,0,0,0,269.8,0,0,0,0,0,0,0,0,0,0,0,0,0,3,3,0,0,VALID,0,0,0,0,0,1,0,0,0,0,0,0,0,0,0,0,0,0,0,0,304.11,1079.29,2,0,0.12,0.12,193,8.33,0.12,0.12,23.44,FLYING,X10-H,0:/Integrated Flight Computer/aircraft/x10_h_cfg.ks (inferred preloaded)
23.8,APPROACH,ILS_TRACK,152.35,152,-0.35,658.43,580.84,0.13,9.59,9.54,269.97,0.045,0.2751,0,19.274,1,0.6,4.5,0.75,0.35,0.0168,0.4,0,21.792,0,0.35,0,270,0,0,1,0.05,0,0,0,270,0.5055,0.0001,0.8628,0,270,0.55,-375.72,18.315,0.003,0,0,3,743.98,8.565,0,1034.15,0,0,0,,0,0,0,0,0,0,0,0,0,0,0,0,0,269.8,0,0,0,0,0,0,0,0,0,0,0,0,0,3,3,0,0,VALID,0,0,0,0,0,1,0,0,0,0,0,0,0,0,0,0,0,0,0,0,303.31,1079.38,2,0,0.12,0.12,196,8.33,0.12,0.12,23.8,FLYING,X10-H,0:/Integrated Flight Computer/aircraft/x10_h_cfg.ks (inferred preloaded)
24.16,APPROACH,ILS_TRACK,152.37,152,-0.37,658.48,580.89,0.15,9.59,9.54,269.97,0.045,0.2747,0,19.143,1,0.6,4.5,0.75,0.35,0.0168,0.4,0,21.787,0,0.369,0,270,0,0,1,0.05,0,0,0,270.01,0.5056,0,0.8628,0,270,0.51,-372.64,18.257,0,0,0,3,743.98,8.576,0,1031.11,0,0,0,,0,0,0,0,0,0,0,0,0,0,0,0,0,269.8,0,0,0,0,0,0,0,0,0,0,0,0,0,3,3,0,0,VALID,0,0,0,0,0,1,0,0,0,0,0,0,0,0,0,0,0,0,0,0,302.56,1079.45,2,0,0.12,0.12,199,8.33,0.12,0.12,24.16,FLYING,X10-H,0:/Integrated Flight Computer/aircraft/x10_h_cfg.ks (inferred preloaded)
24.52,APPROACH,ILS_TRACK,152.39,152,-0.39,658.53,580.95,0.16,9.59,9.54,269.97,0.045,0.2742,0,19.007,1,0.6,4.5,0.75,0.35,0.0168,0.4,0,21.783,0,0.384,0,270,0,0,1,0.06,0,0,0,270.01,0.5056,0.0001,0.8627,0,270,0.48,-369.55,18.199,0.004,0,0,3,743.98,8.587,0,1028.08,0,0,0,,0,0,0,0,0,0,0,0,0,0,0,0,0,269.8,0,0,0,0,0,0,0,0,0,0,0,0,0,3,3,0,0,VALID,0,0,0,0,0,1,0,0,0,0,0,0,0,0,0,0,0,0,0,0,301.84,1079.51,2,0,0.12,0.12,202,8.33,0.12,0.12,24.52,FLYING,X10-H,0:/Integrated Flight Computer/aircraft/x10_h_cfg.ks (inferred preloaded)
24.88,APPROACH,ILS_TRACK,152.4,152,-0.4,658.59,581,0.17,9.59,9.54,269.97,0.046,0.2737,0,18.865,1,0.6,4.5,0.75,0.35,0.0168,0.4,0,21.779,0,0.397,0,270,0,0,1,0.06,0,0,0,270.01,0.5057,0,0.8627,0,270,0.44,-366.45,18.141,0.002,0,0,3,743.98,8.6,0,1025.04,0,0,0,,0,0,0,0,0,0,0,0,0,0,0,0,0,269.8,0,0,0,0,0,0,0,0,0,0,0,0,0,3,3,0,0,VALID,0,0,0,0,0,1,0,0,0,0,0,0,0,0,0,0,0,0,0,0,301.14,1079.56,2,0,0.12,0.12,205,8.33,0.12,0.12,24.88,FLYING,X10-H,0:/Integrated Flight Computer/aircraft/x10_h_cfg.ks (inferred preloaded)
25.14,APPROACH,ILS_TRACK,152.41,152,-0.41,658.64,581.05,0.17,9.59,9.53,269.97,0.047,0.2733,0,18.76,1,0.6,4.5,0.75,0.35,0.0168,0.4,0,21.777,0,0.405,0,270.01,0,0,1,0.06,0,0,0,270.01,0.5058,0.0001,0.8627,0,270.01,0.42,-364.22,18.1,0.008,0,0,3,743.98,8.608,0,1022.85,0,0,0,,0,0,0,0,0,0,0,0,0,0,0,0,0,269.8,0,0,0,0,0,0,0,0,0,0,0,0,0,3,3,0,0,VALID,0,0,0,0,0,1,0,0,0,0,0,0,0,0,0,0,0,0,0,0,300.64,1079.59,2,0,0.12,0.12,207,7.69,0.14,0.12,25.14,FLYING,X10-H,0:/Integrated Flight Computer/aircraft/x10_h_cfg.ks (inferred preloaded)
25.5,APPROACH,ILS_TRACK,152.41,152,-0.41,658.7,581.11,0.17,9.59,9.53,269.97,0.049,0.2732,0,18.613,1,0.6,4.5,0.75,0.35,0.0168,0.4,0,21.775,0,0.413,0,270.01,0,0,1,0.07,0,0,0,270,0.5059,0.0001,0.8626,0,270.01,0.39,-361.12,18.042,0.007,0,0,3,743.98,8.624,0,1019.81,0,0,0,,0,0,0,0,0,0,0,0,0,0,0,0,0,269.8,0,0,0,0,0,0,0,0,0,0,0,0,0,3,3,0,0,VALID,0,0,0,0,0,1,0,0,0,0,0,0,0,0,0,0,0,0,0,0,299.98,1079.62,2,0,0.12,0.12,210,8.33,0.12,0.12,25.5,FLYING,X10-H,0:/Integrated Flight Computer/aircraft/x10_h_cfg.ks (inferred preloaded)
25.86,APPROACH,ILS_TRACK,152.42,152,-0.42,658.77,581.18,0.22,9.6,9.52,269.98,0.05,0.2738,0,18.463,1,0.6,4.5,0.75,0.35,0.0168,0.4,0,21.773,0,0.417,0,270.01,0,0,1,0.08,0,0,0,270.01,0.5059,0.0001,0.8626,0,270.01,0.36,-358.01,17.984,0.006,0,0,3,743.98,8.657,0,1016.77,0,0,0,,0,0,0,0,0,0,0,0,0,0,0,0,0,269.8,0,0,0,0,0,0,0,0,0,0,0,0,0,3,3,0,0,VALID,0,0,0,0,0,1,0,0,0,0,0,0,0,0,0,0,0,0,0,0,299.4,1079.63,2,0,0.12,0.12,213,8.33,0.12,0.12,25.86,FLYING,X10-H,0:/Integrated Flight Computer/aircraft/x10_h_cfg.ks (inferred preloaded)
26.22,APPROACH,ILS_TRACK,152.41,152,-0.41,658.84,581.25,0.21,9.6,9.53,269.98,0.051,0.2758,0,18.314,1,0.6,4.5,0.75,0.35,0.0168,0.4,0,21.774,0,0.415,0,270.01,0,0,1,0.07,0,0,0,270.01,0.506,0.0001,0.8625,0,270.01,0.32,-354.9,17.926,0.008,0,0,3,743.98,8.647,0,1013.73,0,0,0,,0,0,0,0,0,0,0,0,0,0,0,0,0,269.8,0,0,0,0,0,0,0,0,0,0,0,0,0,3,3,0,0,VALID,0,0,0,0,0,1,0,0,0,0,0,0,0,0,0,0,0,0,0,0,299.09,1079.61,2,0,0.12,0.12,216,8.33,0.12,0.12,26.22,FLYING,X10-H,0:/Integrated Flight Computer/aircraft/x10_h_cfg.ks (inferred preloaded)
26.58,APPROACH,ILS_TRACK,152.41,152,-0.41,658.92,581.32,0.19,9.6,9.54,269.98,0.053,0.2752,0,18.165,1,0.6,4.5,0.75,0.35,0.0168,0.4,0,21.774,0,0.414,0,270.01,0,0,1,0.08,0,0,0,270.01,0.5061,0.0002,0.8625,0,270.01,0.29,-351.79,17.868,0.009,0,0,3,743.98,8.638,0,1010.7,0,0,0,,0,0,0,0,0,0,0,0,0,0,0,0,0,269.8,0,0,0,0,0,0,0,0,0,0,0,0,0,3,3,0,0,VALID,0,0,0,0,0,1,0,0,0,0,0,0,0,0,0,0,0,0,0,0,298.91,1079.61,2,0,0.12,0.12,219,8.33,0.12,0.12,26.58,FLYING,X10-H,0:/Integrated Flight Computer/aircraft/x10_h_cfg.ks (inferred preloaded)
26.94,APPROACH,ILS_TRACK,152.41,152,-0.41,658.99,581.4,0.21,9.6,9.52,269.98,0.054,0.2741,0,18.016,1,0.6,4.5,0.75,0.35,0.0168,0.4,0,21.775,0,0.412,0,270.01,0,0,1,0.08,0,0,0,270.01,0.5062,0.0001,0.8624,0,270.01,0.27,-348.68,17.81,0.007,0,0,3,743.98,8.652,0,1007.66,0,0,0,,0,0,0,0,0,0,0,0,0,0,0,0,0,269.8,0,0,0,0,0,0,0,0,0,0,0,0,0,3,3,0,0,VALID,0,0,0,0,0,1,0,0,0,0,0,0,0,0,0,0,0,0,0,0,298.69,1079.59,2,0,0.12,0.12,222,8.33,0.12,0.12,26.94,FLYING,X10-H,0:/Integrated Flight Computer/aircraft/x10_h_cfg.ks (inferred preloaded)
27.3,APPROACH,ILS_TRACK,152.41,152,-0.41,659.07,581.48,0.22,9.6,9.53,269.98,0.055,0.2712,0,17.868,1,0.6,4.5,0.75,0.35,0.0168,0.4,0,21.775,0,0.412,0,270.01,0,0,1,0.08,0,0,0,270.01,0.5063,0.0002,0.8624,0,270.01,0.24,-345.56,17.752,0.013,0,0,3,743.98,8.662,0,1004.62,0,0,0,,0,0,0,0,0,0,0,0,0,0,0,0,0,269.8,0,0,0,0,0,0,0,0,0,0,0,0,0,3,3,0,0,VALID,0,0,0,0,0,1,0,0,0,0,0,0,0,0,0,0,0,0,0,0,298.24,1079.59,2,0,0.12,0.12,225,8.33,0.12,0.12,27.3,FLYING,X10-H,0:/Integrated Flight Computer/aircraft/x10_h_cfg.ks (inferred preloaded)
27.56,APPROACH,ILS_TRACK,152.41,152,-0.41,659.13,581.54,0.23,9.61,9.53,269.98,0.055,0.2698,0,17.761,1,0.6,4.5,0.75,0.35,0.0168,0.4,0,21.775,0,0.412,0,270.01,0,0,1,0.09,0,0,0,270.01,0.5063,0.0002,0.8623,0,270.01,0.22,-343.31,17.71,0.011,0,0,3,743.98,8.667,0,1002.43,0,0,0,,0,0,0,0,0,0,0,0,0,0,0,0,0,269.8,0,0,0,0,0,0,0,0,0,0,0,0,0,3,3,0,0,VALID,0,0,0,0,0,1,0,0,0,0,0,0,0,0,0,0,0,0,0,0,297.73,1079.58,2,0,0.12,0.12,227,7.69,0.14,0.12,27.56,FLYING,X10-H,0:/Integrated Flight Computer/aircraft/x10_h_cfg.ks (inferred preloaded)
27.92,APPROACH,ILS_TRACK,152.41,152,-0.41,659.22,581.62,0.24,9.61,9.53,269.98,0.057,0.2692,0,17.613,1,0.6,4.5,0.75,0.35,0.0168,0.4,0,21.776,0,0.408,0,270.02,0,0,1,0.09,0,0,0,270.01,0.5064,0.0003,0.8623,0,270.02,0.19,-340.19,17.652,0.015,0,0,3,743.98,8.675,0,999.39,0,0,0,,0,0,0,0,0,0,0,0,0,0,0,0,0,269.8,0,0,0,0,0,0,0,0,0,0,0,0,0,3,3,0,0,VALID,0,0,0,0,0,1,0,0,0,0,0,0,0,0,0,0,0,0,0,0,296.93,1079.56,2,0,0.12,0.12,230,8.33,0.12,0.12,27.92,FLYING,X10-H,0:/Integrated Flight Computer/aircraft/x10_h_cfg.ks (inferred preloaded)
28.28,APPROACH,ILS_TRACK,152.4,152,-0.4,659.3,581.71,0.24,9.61,9.53,269.98,0.057,0.2692,0,17.467,1,0.6,4.5,0.75,0.35,0.0168,0.4,0,21.778,0,0.402,0,270.01,0,0,1,0.09,0,0,0,270.01,0.5065,0.0002,0.8622,0,270.01,0.17,-337.06,17.594,0.009,0,0,3,743.98,8.681,0,996.36,0,0,0,,0,0,0,0,0,0,0,0,0,0,0,0,0,269.8,0,0,0,0,0,0,0,0,0,0,0,0,0,3,3,0,0,VALID,0,0,0,0,0,1,0,0,0,0,0,0,0,0,0,0,0,0,0,0,296.16,1079.53,2,0,0.12,0.12,233,8.33,0.12,0.12,28.28,FLYING,X10-H,0:/Integrated Flight Computer/aircraft/x10_h_cfg.ks (inferred preloaded)
28.64,APPROACH,ILS_TRACK,152.39,152,-0.39,659.39,581.8,0.25,9.61,9.53,269.98,0.057,0.27,0,17.325,1,0.6,4.5,0.75,0.35,0.0168,0.4,0,21.78,0,0.393,0,270.01,0,0,1,0.09,0,0,0,270.02,0.5066,0.0001,0.8622,0,270.01,0.14,-333.94,17.536,0.008,0,0,3,743.98,8.684,0,993.32,0,0,0,,0,0,0,0,0,0,0,0,0,0,0,0,0,269.8,0,0,0,0,0,0,0,0,0,0,0,0,0,3,3,0,0,VALID,0,0,0,0,0,1,0,0,0,0,0,0,0,0,0,0,0,0,0,0,295.52,1079.48,2,0,0.12,0.12,236,8.33,0.12,0.12,28.64,FLYING,X10-H,0:/Integrated Flight Computer/aircraft/x10_h_cfg.ks (inferred preloaded)
29,APPROACH,ILS_TRACK,152.38,152,-0.38,659.49,581.89,0.25,9.62,9.53,269.99,0.058,0.2708,0,17.186,1,0.6,4.5,0.75,0.35,0.0168,0.4,0,21.783,0,0.381,0,270.01,0,0,1,0.1,0,0,0,270.01,0.5067,0.0002,0.8621,0,270.01,0.12,-330.81,17.478,0.012,0,0,3,743.98,8.693,0,990.28,0,0,0,,0,0,0,0,0,0,0,0,0,0,0,0,0,269.8,0,0,0,0,0,0,0,0,0,0,0,0,0,3,3,0,0,VALID,0,0,0,0,0,1,0,0,0,0,0,0,0,0,0,0,0,0,0,0,295.05,1079.42,2,0,0.12,0.12,239,8.33,0.12,0.12,29,FLYING,X10-H,0:/Integrated Flight Computer/aircraft/x10_h_cfg.ks (inferred preloaded)
29.36,APPROACH,ILS_TRACK,152.37,152,-0.37,659.58,581.98,0.26,9.62,9.53,269.99,0.058,0.2716,0,17.052,1,0.6,4.5,0.75,0.35,0.0168,0.4,0,21.787,0,0.368,0,270.01,0,0,1,0.1,0,0,0,270.01,0.5068,0.0002,0.8621,0,270.01,0.09,-327.68,17.42,0.009,0,0,3,743.98,8.696,0,987.25,0,0,0,,0,0,0,0,0,0,0,0,0,0,0,0,0,269.8,0,0,0,0,0,0,0,0,0,0,0,0,0,3,3,0,0,VALID,0,0,0,0,0,1,0,0,0,0,0,0,0,0,0,0,0,0,0,0,294.75,1079.36,2,0,0.12,0.12,242,8.33,0.12,0.12,29.36,FLYING,X10-H,0:/Integrated Flight Computer/aircraft/x10_h_cfg.ks (inferred preloaded)
29.72,APPROACH,ILS_TRACK,152.35,152,-0.35,659.68,582.08,0.26,9.63,9.53,269.99,0.058,0.272,0,16.923,1,0.6,4.5,0.75,0.35,0.0168,0.4,0,21.791,0,0.354,0,270.01,0,0,1,0.1,0,0,0,270.01,0.5068,0.0002,0.862,0,270.01,0.07,-324.55,17.362,0.01,0,0,3,743.98,8.701,0,984.21,0,0,0,,0,0,0,0,0,0,0,0,0,0,0,0,0,269.8,0,0,0,0,0,0,0,0,0,0,0,0,0,3,3,0,0,VALID,0,0,0,0,0,1,0,0,0,0,0,0,0,0,0,0,0,0,0,0,294.55,1079.29,2,0,0.12,0.12,245,8.33,0.12,0.12,29.72,FLYING,X10-H,0:/Integrated Flight Computer/aircraft/x10_h_cfg.ks (inferred preloaded)
29.98,APPROACH,ILS_TRACK,152.34,152,-0.34,659.75,582.14,0.27,9.63,9.53,269.99,0.058,0.2721,0,16.833,1,0.6,4.5,0.75,0.35,0.0168,0.4,0,21.794,0,0.343,0,270.01,0,0,1,0.1,0,0,0,270.01,0.5069,0.0002,0.862,0,270.01,0.06,-322.28,17.32,0.013,0,0,3,743.98,8.703,0,982.02,0,0,0,,0,0,0,0,0,0,0,0,0,0,0,0,0,269.8,0,0,0,0,0,0,0,0,0,0,0,0,0,3,3,0,0,VALID,0,0,0,0,0,1,0,0,0,0,0,0,0,0,0,0,0,0,0,0,294.46,1079.24,2,0,0.12,0.12,247,7.69,0.14,0.12,29.98,FLYING,X10-H,0:/Integrated Flight Computer/aircraft/x10_h_cfg.ks (inferred preloaded)
30.34,APPROACH,ILS_TRACK,152.33,152,-0.33,659.85,582.24,0.27,9.63,9.54,269.99,0.058,0.2722,0,16.713,1,0.6,4.5,0.75,0.35,0.0168,0.4,0,21.799,0,0.327,0,270.02,0,0,1,0.1,0,0,0,270.01,0.507,0.0003,0.862,0,270.02,0.04,-319.15,17.263,0.016,0,0,3,743.98,8.709,0,978.98,0,0,0,,0,0,0,0,0,0,0,0,0,0,0,0,0,269.8,0,0,0,0,0,0,0,0,0,0,0,0,0,3,3,0,0,VALID,0,0,0,0,0,1,0,0,0,0,0,0,0,0,0,0,0,0,0,0,294.35,1079.16,2,0,0.12,0.12,250,8.33,0.12,0.12,30.34,FLYING,X10-H,0:/Integrated Flight Computer/aircraft/x10_h_cfg.ks (inferred preloaded)
30.7,APPROACH,ILS_TRACK,152.31,152,-0.31,659.95,582.34,0.28,9.64,9.54,269.99,0.058,0.2722,0,16.6,1,0.6,4.5,0.75,0.35,0.0168,0.4,0,21.803,0,0.311,0,270.01,0,0,1,0.1,0,0,0,270.01,0.5071,0.0003,0.8619,0,270.01,0.02,-316.01,17.205,0.015,0,0,3,743.98,8.711,0,975.95,0,0,0,,0,0,0,0,0,0,0,0,0,0,0,0,0,269.8,0,0,0,0,0,0,0,0,0,0,0,0,0,3,3,0,0,VALID,0,0,0,0,0,1,0,0,0,0,0,0,0,0,0,0,0,0,0,0,294.26,1079.09,2,0,0.12,0.12,253,8.33,0.12,0.12,30.7,FLYING,X10-H,0:/Integrated Flight Computer/aircraft/x10_h_cfg.ks (inferred preloaded)
31.06,APPROACH,ILS_TRACK,152.29,152,-0.29,660.05,582.44,0.28,9.64,9.54,269.99,0.057,0.2725,0,16.492,1,0.6,4.5,0.75,0.35,0.0168,0.4,0,21.808,0,0.293,0,270.01,0,0,1,0.11,0,0,0,270.01,0.5072,0.0002,0.8619,0,270.01,0,-312.87,17.147,0.012,0,0,3,743.98,8.712,0,972.91,0,0,0,,0,0,0,0,0,0,0,0,0,0,0,0,0,269.8,0,0,0,0,0,0,0,0,0,0,0,0,0,3,3,0,0,VALID,0,0,0,0,0,1,0,0,0,0,0,0,0,0,0,0,0,0,0,0,294.17,1079,2,0,0.12,0.12,256,8.33,0.12,0.12,31.06,FLYING,X10-H,0:/Integrated Flight Computer/aircraft/x10_h_cfg.ks (inferred preloaded)
31.42,APPROACH,ILS_TRACK,152.27,152,-0.27,660.15,582.55,0.29,9.64,9.54,269.99,0.057,0.2729,0,16.391,1,0.6,4.5,0.75,0.35,0.0168,0.4,0,21.813,0,0.275,0,270.01,0,0,1,0.11,0,0,0,270.01,0.5072,0.0002,0.8618,0,270.01,-0.01,-309.73,17.089,0.011,0,0,3,743.98,8.719,0,969.88,0,0,0,,0,0,0,0,0,0,0,0,0,0,0,0,0,269.8,0,0,0,0,0,0,0,0,0,0,0,0,0,3,3,0,0,VALID,0,0,0,0,0,1,0,0,0,0,0,0,0,0,0,0,0,0,0,0,294.16,1078.92,2,0,0.12,0.12,259,8.33,0.12,0.12,31.42,FLYING,X10-H,0:/Integrated Flight Computer/aircraft/x10_h_cfg.ks (inferred preloaded)
31.78,APPROACH,ILS_TRACK,152.26,152,-0.26,660.26,582.65,0.29,9.64,9.54,269.99,0.057,0.2725,0,16.296,1,0.6,4.5,0.75,0.35,0.0168,0.4,0,21.818,0,0.258,0,270.01,0,0,1,0.11,0,0,0,270.01,0.5073,0.0002,0.8618,0,270.01,-0.03,-306.6,17.031,0.014,0,0,3,743.98,8.723,0,966.84,0,0,0,,0,0,0,0,0,0,0,0,0,0,0,0,0,269.8,0,0,0,0,0,0,0,0,0,0,0,0,0,3,3,0,0,VALID,0,0,0,0,0,1,0,0,0,0,0,0,0,0,0,0,0,0,0,0,294.19,1078.84,2,0,0.12,0.12,262,8.33,0.12,0.12,31.78,FLYING,X10-H,0:/Integrated Flight Computer/aircraft/x10_h_cfg.ks (inferred preloaded)
32.14,APPROACH,ILS_TRACK,152.24,152,-0.24,660.36,582.76,0.3,9.65,9.55,269.99,0.057,0.272,0,16.207,1,0.6,4.5,0.75,0.35,0.0168,0.4,0,21.823,0,0.241,0,270.01,0,0,1,0.11,0,0,0,270.01,0.5074,0.0002,0.8617,0,270.01,-0.04,-303.45,16.973,0.01,0,0,3,743.98,8.727,0,963.81,0,0,0,,0,0,0,0,0,0,0,0,0,0,0,0,0,269.8,0,0,0,0,0,0,0,0,0,0,0,0,0,3,3,0,0,VALID,0,0,0,0,0,1,0,0,0,0,0,0,0,0,0,0,0,0,0,0,294.12,1078.76,2,0,0.12,0.12,265,8.33,0.12,0.12,32.14,FLYING,X10-H,0:/Integrated Flight Computer/aircraft/x10_h_cfg.ks (inferred preloaded)
32.4,APPROACH,ILS_TRACK,152.23,152,-0.23,660.44,582.84,0.3,9.65,9.55,270,0.056,0.272,0,16.147,1,0.6,4.5,0.75,0.35,0.0168,0.4,0,21.827,0,0.228,0,270.01,0,0,1,0.11,0,0,0,270.01,0.5075,0.0002,0.8617,0,270.01,-0.05,-301.19,16.931,0.014,0,0,3,743.98,8.726,0,961.62,0,0,0,,0,0,0,0,0,0,0,0,0,0,0,0,0,269.8,0,0,0,0,0,0,0,0,0,0,0,0,0,3,3,0,0,VALID,0,0,0,0,0,1,0,0,0,0,0,0,0,0,0,0,0,0,0,0,294.05,1078.7,2,0,0.12,0.12,267,7.69,0.14,0.12,32.4,FLYING,X10-H,0:/Integrated Flight Computer/aircraft/x10_h_cfg.ks (inferred preloaded)
32.76,APPROACH,ILS_TRACK,152.21,152,-0.21,660.55,582.94,0.3,9.66,9.55,270,0.055,0.2726,0,16.069,1,0.6,4.5,0.75,0.35,0.0168,0.4,0,21.832,0,0.21,0,270.01,0,0,1,0.11,0,0,0,270.01,0.5075,0.0002,0.8616,0,270.01,-0.07,-298.04,16.873,0.009,0,0,3,743.98,8.732,0,958.58,0,0,0,,0,0,0,0,0,0,0,0,0,0,0,0,0,269.8,0,0,0,0,0,0,0,0,0,0,0,0,0,3,3,0,0,VALID,0,0,0,0,0,1,0,0,0,0,0,0,0,0,0,0,0,0,0,0,293.97,1078.61,2,0,0.12,0.12,270,8.33,0.12,0.12,32.76,FLYING,X10-H,0:/Integrated Flight Computer/aircraft/x10_h_cfg.ks (inferred preloaded)
33.12,APPROACH,ILS_TRACK,152.19,152,-0.19,660.66,583.05,0.3,9.66,9.55,270,0.055,0.2727,0,15.998,1,0.6,4.5,0.75,0.35,0.0168,0.4,0,21.837,0,0.192,0,270.01,0,0,1,0.11,0,0,0,270.01,0.5076,0.0002,0.8616,0,270.01,-0.08,-294.9,16.815,0.009,0,0,3,743.98,8.73,0,955.55,0,0,0,,0,0,0,0,0,0,0,0,0,0,0,0,0,269.8,0,0,0,0,0,0,0,0,0,0,0,0,0,3,3,0,0,VALID,0,0,0,0,0,1,0,0,0,0,0,0,0,0,0,0,0,0,0,0,294.1,1078.53,2,0,0.12,0.12,273,8.33,0.12,0.12,33.12,FLYING,X10-H,0:/Integrated Flight Computer/aircraft/x10_h_cfg.ks (inferred preloaded)
33.48,APPROACH,ILS_TRACK,152.17,152,-0.17,660.77,583.16,0.29,9.66,9.56,270,0.054,0.2734,0,15.933,1,0.6,4.5,0.75,0.35,0.0168,0.4,0,21.842,0,0.173,0,270.01,0,0,1,0.11,0,0,0,270.01,0.5077,0.0002,0.8615,0,270.01,-0.09,-291.76,16.758,0.012,0,0,3,743.98,8.723,0,952.52,0,0,0,,0,0,0,0,0,0,0,0,0,0,0,0,0,269.8,0,0,0,0,0,0,0,0,0,0,0,0,0,3,3,0,0,VALID,0,0,0,0,0,1,0,0,0,0,0,0,0,0,0,0,0,0,0,0,294.13,1078.44,2,0,0.12,0.12,276,8.33,0.12,0.12,33.48,FLYING,X10-H,0:/Integrated Flight Computer/aircraft/x10_h_cfg.ks (inferred preloaded)
33.84,APPROACH,ILS_TRACK,152.15,152,-0.15,660.89,583.27,0.3,9.66,9.56,270,0.052,0.2742,0,15.876,1,0.6,4.5,0.75,0.35,0.0168,0.4,0,21.848,0,0.154,0,270.01,0,0,1,0.11,0,0,0,270.01,0.5078,0.0002,0.8615,0,270.01,-0.1,-288.61,16.7,0.012,0,0,3,743.98,8.727,0,949.48,0,0,0,,0,0,0,0,0,0,0,0,0,0,0,0,0,269.8,0,0,0,0,0,0,0,0,0,0,0,0,0,3,3,0,0,VALID,0,0,0,0,0,1,0,0,0,0,0,0,0,0,0,0,0,0,0,0,294.19,1078.35,2,0,0.12,0.12,279,8.33,0.12,0.12,33.84,FLYING,X10-H,0:/Integrated Flight Computer/aircraft/x10_h_cfg.ks (inferred preloaded)
34.2,APPROACH,ILS_TRACK,152.13,152,-0.13,661,583.39,0.3,9.65,9.55,270,0.052,0.2754,0,15.825,1,0.6,4.5,0.75,0.35,0.0168,0.4,0,21.853,0,0.134,0,270.01,0,0,1,0.12,0,0,0,270.01,0.5079,0.0002,0.8614,0,270.01,-0.11,-285.47,16.642,0.012,0,0,3,743.98,8.709,0,946.45,0,0,0,,0,0,0,0,0,0,0,0,0,0,0,0,0,269.8,0,0,0,0,0,0,0,0,0,0,0,0,0,3,3,0,0,VALID,0,0,0,0,0,1,0,0,0,0,0,0,0,0,0,0,0,0,0,0,294.29,1078.26,2,0,0.12,0.12,282,8.33,0.12,0.12,34.2,FLYING,X10-H,0:/Integrated Flight Computer/aircraft/x10_h_cfg.ks (inferred preloaded)
34.56,APPROACH,ILS_TRACK,152.11,152,-0.11,661.11,583.5,0.3,9.66,9.56,270,0.05,0.2752,0,15.781,1,0.6,4.5,0.75,0.35,0.0168,0.4,0,21.858,0,0.116,0,270.01,0,0,1,0.12,0,0,0,270.01,0.508,0.0001,0.8614,0,270.01,-0.11,-282.32,16.584,0.007,0,0,3,743.98,8.732,0,943.42,0,0,0,,0,0,0,0,0,0,0,0,0,0,0,0,0,269.8,0,0,0,0,0,0,0,0,0,0,0,0,0,3,3,0,0,VALID,0,0,0,0,0,1,0,0,0,0,0,0,0,0,0,0,0,0,0,0,294.44,1078.17,2,0,0.12,0.12,285,8.33,0.12,0.12,34.56,FLYING,X10-H,0:/Integrated Flight Computer/aircraft/x10_h_cfg.ks (inferred preloaded)
34.82,APPROACH,ILS_TRACK,152.1,152,-0.1,661.19,583.58,0.34,9.68,9.55,270,0.048,0.2755,0,15.754,1,0.6,4.5,0.75,0.35,0.0168,0.4,0,21.862,0,0.103,0,270.01,0,0,1,0.12,0,0,0,270.01,0.508,0.0002,0.8613,0,270.01,-0.12,-280.05,16.542,0.011,0,0,3,743.98,8.752,0,941.23,0,0,0,,0,0,0,0,0,0,0,0,0,0,0,0,0,269.8,0,0,0,0,0,0,0,0,0,0,0,0,0,3,3,0,0,VALID,0,0,0,0,0,1,0,0,0,0,0,0,0,0,0,0,0,0,0,0,294.54,1078.11,2,0,0.12,0.12,287,7.69,0.14,0.12,34.82,FLYING,X10-H,0:/Integrated Flight Computer/aircraft/x10_h_cfg.ks (inferred preloaded)
35.18,APPROACH,ILS_TRACK,152.08,152,-0.08,661.31,583.7,0.32,9.68,9.57,270,0.047,0.2779,0,15.722,1,0.6,4.5,0.75,0.35,0.0168,0.4,0,21.868,0,0.081,0,270.01,0,0,1,0.12,0,0,0,270.01,0.5081,0.0002,0.8613,0,270.01,-0.13,-276.9,16.484,0.011,0,0,3,743.98,8.739,0,938.2,0,0,0,,0,0,0,0,0,0,0,0,0,0,0,0,0,269.8,0,0,0,0,0,0,0,0,0,0,0,0,0,3,3,0,0,VALID,0,0,0,0,0,1,0,0,0,0,0,0,0,0,0,0,0,0,0,0,294.73,1078.01,2,0,0.12,0.12,290,8.33,0.12,0.12,35.18,FLYING,X10-H,0:/Integrated Flight Computer/aircraft/x10_h_cfg.ks (inferred preloaded)
35.54,APPROACH,ILS_TRACK,152.06,152,-0.06,661.43,583.81,0.32,9.68,9.57,270,0.046,0.2778,0,15.697,1,0.6,4.5,0.75,0.35,0.0168,0.4,0,21.873,0,0.063,0,270.01,0,0,1,0.12,0,0,0,270.01,0.5082,0.0002,0.8612,0,270.01,-0.13,-273.75,16.426,0.009,0,0,3,743.98,8.744,0,935.17,0,0,0,,0,0,0,0,0,0,0,0,0,0,0,0,0,269.8,0,0,0,0,0,0,0,0,0,0,0,0,0,3,3,0,0,VALID,0,0,0,0,0,1,0,0,0,0,0,0,0,0,0,0,0,0,0,0,295.05,1077.93,2,0,0.12,0.12,293,8.33,0.12,0.12,35.54,FLYING,X10-H,0:/Integrated Flight Computer/aircraft/x10_h_cfg.ks (inferred preloaded)
35.9,APPROACH,ILS_TRACK,152.05,152,-0.05,661.54,583.93,0.34,9.68,9.56,270,0.043,0.277,0,15.678,1,0.6,4.5,0.75,0.35,0.0168,0.4,0,21.878,0,0.047,0,270.01,0,0,1,0.12,0,0,0,270.01,0.5083,0.0002,0.8612,0,270.01,-0.14,-270.61,16.369,0.011,0,0,3,743.98,8.753,0,932.14,0,0,0,,0,0,0,0,0,0,0,0,0,0,0,0,0,269.8,0,0,0,0,0,0,0,0,0,0,0,0,0,3,3,0,0,VALID,0,0,0,0,0,1,0,0,0,0,0,0,0,0,0,0,0,0,0,0,295.32,1077.85,2,0,0.12,0.12,296,8.33,0.12,0.12,35.9,FLYING,X10-H,0:/Integrated Flight Computer/aircraft/x10_h_cfg.ks (inferred preloaded)
36.26,APPROACH,ILS_TRACK,152.03,152,-0.03,661.66,584.05,0.33,9.68,9.56,270,0.042,0.2766,0,15.665,1,0.6,4.5,0.75,0.35,0.0168,0.4,0,21.882,0,0.032,0,270.01,0,0,1,0.13,0,0,0,270.01,0.5084,0.0001,0.8611,0,270.01,-0.14,-267.46,16.311,0.008,0,0,3,743.98,8.744,0,929.1,0,0,0,,0,0,0,0,0,0,0,0,0,0,0,0,0,269.8,0,0,0,0,0,0,0,0,0,0,0,0,0,3,3,0,0,VALID,0,0,0,0,0,1,0,0,0,0,0,0,0,0,0,0,0,0,0,0,295.53,1077.78,2,0,0.12,0.12,299,8.33,0.12,0.12,36.26,FLYING,X10-H,0:/Integrated Flight Computer/aircraft/x10_h_cfg.ks (inferred preloaded)
36.62,APPROACH,ILS_TRACK,152.02,152,-0.02,661.78,584.16,0.33,9.68,9.57,270,0.039,0.2757,0,15.656,1,0.6,4.5,0.75,0.35,0.0168,0.4,0,21.885,0,0.02,0,270.01,0,0,1,0.12,0,0,0,270.01,0.5084,0.0002,0.8611,0,270.01,-0.15,-264.31,16.253,0.009,0,0,3,743.98,8.746,0,926.07,0,0,0,,0,0,0,0,0,0,0,0,0,0,0,0,0,269.8,0,0,0,0,0,0,0,0,0,0,0,0,0,3,3,0,0,VALID,0,0,0,0,0,1,0,0,0,0,0,0,0,0,0,0,0,0,0,0,295.67,1077.72,2,0,0.12,0.12,302,8.33,0.12,0.12,36.62,FLYING,X10-H,0:/Integrated Flight Computer/aircraft/x10_h_cfg.ks (inferred preloaded)
36.98,APPROACH,ILS_TRACK,152.01,152,-0.01,661.89,584.28,0.32,9.68,9.56,270,0.037,0.2754,0,15.652,1,0.6,4.5,0.75,0.35,0.0168,0.4,0,21.889,0,0.007,0,270.01,0,0,1,0.12,0,0,0,270.01,0.5085,0.0001,0.8611,0,270.01,-0.15,-261.16,16.195,0.007,0,0,3,743.98,8.743,0,923.04,0,0,0,,0,0,0,0,0,0,0,0,0,0,0,0,0,269.8,0,0,0,0,0,0,0,0,0,0,0,0,0,3,3,0,0,VALID,0,0,0,0,0,1,0,0,0,0,0,0,0,0,0,0,0,0,0,0,295.74,1077.65,2,0,0.12,0.12,305,8.33,0.12,0.12,36.98,FLYING,X10-H,0:/Integrated Flight Computer/aircraft/x10_h_cfg.ks (inferred preloaded)
37.24,APPROACH,ILS_TRACK,152,152,0,661.98,584.37,0.33,9.68,9.57,270,0.035,0.2757,0,15.652,1,0.6,4.5,0.75,0.35,0.0168,0.4,0,21.891,0,-0.001,0,270,0,0,1,0.12,0,0,0,270.01,0.5086,0,0.861,0,270,-0.15,-258.89,16.153,0.003,0,0,3,743.98,8.746,0,920.86,0,0,0,,0,0,0,0,0,0,0,0,0,0,0,0,0,269.8,0,0,0,0,0,0,0,0,0,0,0,0,0,3,3,0,0,VALID,0,0,0,0,0,1,0,0,0,0,0,0,0,0,0,0,0,0,0,0,295.79,1077.61,2,0,0.12,0.12,307,7.69,0.14,0.12,37.24,FLYING,X10-H,0:/Integrated Flight Computer/aircraft/x10_h_cfg.ks (inferred preloaded)
37.6,APPROACH,ILS_TRACK,151.99,152,0.01,662.1,584.48,0.33,9.69,9.57,270,0.031,0.2757,0,15.655,1,0.6,4.5,0.75,0.35,0.0168,0.4,0,21.895,0,-0.013,0,270.01,0,0,1,0.12,0,0,0,270.01,0.5087,0.0001,0.861,0,270.01,-0.15,-255.74,16.096,0.006,0,0,3,743.98,8.748,0,917.83,0,0,0,,0,0,0,0,0,0,0,0,0,0,0,0,0,269.8,0,0,0,0,0,0,0,0,0,0,0,0,0,3,3,0,0,VALID,0,0,0,0,0,1,0,0,0,0,0,0,0,0,0,0,0,0,0,0,295.86,1077.55,2,0,0.12,0.12,310,8.33,0.12,0.12,37.6,FLYING,X10-H,0:/Integrated Flight Computer/aircraft/x10_h_cfg.ks (inferred preloaded)
37.96,APPROACH,ILS_TRACK,151.98,152,0.02,662.22,584.6,0.33,9.69,9.57,270,0.031,0.2761,0,15.662,1,0.6,4.5,0.75,0.35,0.0168,0.4,0,21.898,0,-0.024,0,270,0,0,1,0.12,0,0,0,270.01,0.5087,0,0.8609,0,270,-0.15,-252.59,16.038,0.002,0,0,3,743.98,8.75,0,914.8,0,0,0,,0,0,0,0,0,0,0,0,0,0,0,0,0,269.8,0,0,0,0,0,0,0,0,0,0,0,0,0,3,3,0,0,VALID,0,0,0,0,0,1,0,0,0,0,0,0,0,0,0,0,0,0,0,0,295.94,1077.5,2,0,0.12,0.12,313,8.33,0.12,0.12,37.96,FLYING,X10-H,0:/Integrated Flight Computer/aircraft/x10_h_cfg.ks (inferred preloaded)
38.32,APPROACH,ILS_TRACK,151.96,152,0.04,662.34,584.72,0.33,9.69,9.57,270,0.028,0.2767,0,15.673,1,0.6,4.5,0.75,0.35,0.0168,0.4,0,21.901,0,-0.035,0,270.01,0,0,1,0.13,0,0,0,270.01,0.5088,0.0001,0.8609,0,270.01,-0.15,-249.44,15.98,0.008,0,0,3,743.98,8.751,0,911.77,0,0,0,,0,0,0,0,0,0,0,0,0,0,0,0,0,269.8,0,0,0,0,0,0,0,0,0,0,0,0,0,3,3,0,0,VALID,0,0,0,0,0,1,0,0,0,0,0,0,0,0,0,0,0,0,0,0,296.04,1077.44,2,0,0.12,0.12,316,8.33,0.12,0.12,38.32,FLYING,X10-H,0:/Integrated Flight Computer/aircraft/x10_h_cfg.ks (inferred preloaded)
