t_s,phase,subphase,ias_ms,vapp_ms,spd_err_ms,agl_m,vs_ms,pitch_deg,aoa_deg,hdg_deg,bank_deg,thr_cmd,thr_cur,thr_intg,at_gain,at_tau_s,at_a_up,at_a_dn,at_kp_thr,at_ki_spd,at_thr_slew,as_cmd_deg,as_cap_deg,as_raw_deg,as_spd_err_ms,as_active,aa_hdg_cmd_deg,aa_fpa_cmd_deg,aa_fbw,aa_dir,actual_fpa_deg,ftf_hdg_err_deg,ftf_fix_idx,kos_steer_pit_deg,kos_steer_hdg_deg,aa_dir_vx,aa_dir_vy,aa_dir_vz,aa_dir_pitch_deg,aa_dir_hdg_deg,ils_loc_m,ils_gs_m,ils_dist_km,loc_corr_deg,gs_corr_deg,gs_latched,active_gs_ang_deg,ils_intercept_alt_m,d_gs_ms,fpa_preclamped_deg,gs_nom_alt_m,flare_fpa_cmd,flare_tgt_vs,flare_frac,steer_hdg_deg,steer_blend,ro_loc_corr_deg,ro_hdg_err_deg,ro_yaw_tgt,ro_yaw_scale,ro_yaw_gate,yaw_cmd,roll_cmd,pitch_cmd,ro_pitch_tgt_deg,ro_pitch_err_deg,ro_pitch_ff,ro_roll_assist,flaps_cur,flaps_tgt,asc_j_ab,asc_j_rk,asc_validity,asc_q_pa,asc_q_raw_pa,asc_mach,asc_apo_m,asc_drag_n,asc_w_prop,asc_edot_aero,asc_edot_orb,asc_pitch_bias,asc_blend,asc_spooling,asc_ab_thr_ratio,asc_ab_t_now,asc_ab_t_avail,asc_ab_ign_on,asc_ab_flameouts,asc_rk_t_now,asc_rk_t_avail,asc_rk_ign_on,asc_rk_flameouts,ship_thrust,ship_avail_thrust,ship_ign_on,ship_flameouts,ifc_raw_dt_s,ifc_dt_s,ifc_loop_n,ifc_hz_est,ifc_raw_dt_max_s,ifc_raw_dt_min_s,phase_el_s,status,craft_name,cfg_file
1.9,TAKEOFF,TO_PREFLIGHT,0.5,80,79.5,4.55,0.03,4.92,0.02,89.65,0.108,0.056,0,0,0,0,0,0,0,0,0,0,0,0,0,0,90,0,1,0,0.07,0,0,0,90,0,0,0,0,0,0,0,0,0,0,0,3,0,0,0,69,0,0,0,90,1,0,-0.351,0,0,1,0,0,0,0,0,0,0,0,2,0,0,VALID,0,0,0,0,0,1,0,0,0,0,0,0,0,0,0,0,0,0,0,0,0,875.29,2,0,0.14,0.14,1,0.5,0.14,0.02,1.76,LANDED,X10-F,0:/Integrated Flight Computer/aircraft/x10_f_cfg.ks (inferred preloaded)
2.16,TAKEOFF,TO_PREFLIGHT,0.5,80,79.5,4.31,0.02,2.17,-0.5,89.45,0.107,0.328,0,0,0,0,0,0,0,0,0,0,0,0,0,0,90,0,1,0,1.39,0,0,0,90,0,0,0,0,0,0,0,0,0,0,0,3,0,0,0,69,0,0,0,90,1,0,-0.351,0,0,1,0,0,0,0,0,0,0,1,2,0,0,VALID,0,0,0,0,0,1,0,0,0,0,0,0,0,0,0,0,0,0,0,0,7.4,875.29,2,0,0.04,0.04,6,19.23,1.84,0.04,2.02,LANDED,X10-F,0:/Integrated Flight Computer/aircraft/x10_f_cfg.ks (inferred preloaded)
2.42,TAKEOFF,TO_PREFLIGHT,0.4,80,79.6,4.06,0.02,1.28,-2.27,89.42,0.107,0.432,0,0,0,0,0,0,0,0,0,0,0,0,0,0,90,0,1,0,1.32,0,0,0,90,0,0,0,0,0,0,0,0,0,0,0,3,0,0,0,69,0,0,0,90,1,0,-0.351,0,0,1,0,0,0,0,0,0,0,2,2,0,0,VALID,0,0,0,0,0,1,0,0,0,0,0,0,0,0,0,0,0,0,0,0,22.66,875.29,2,0,0.06,0.06,10,15.38,0.08,0.04,2.28,LANDED,X10-F,0:/Integrated Flight Computer/aircraft/x10_f_cfg.ks (inferred preloaded)
2.68,TAKEOFF,TO_PREFLIGHT,0.23,80,79.77,3.79,0.02,0.32,-5.67,89.39,0.106,0.536,0,0,0,0,0,0,0,0,0,0,0,0,0,0,90,0,1,0,1.38,0,0,0,90,0,0,0,0,0,0,0,0,0,0,0,3,0,0,0,69,0,0,0,90,1,0,-0.351,0,0,1,0,0,0,0,0,0,0,2,2,0,0,VALID,0,0,0,0,0,1,0,0,0,0,0,0,0,0,0,0,0,0,0,0,41.71,875.29,2,0,0.06,0.06,14,15.38,0.08,0.04,2.54,LANDED,X10-F,0:/Integrated Flight Computer/aircraft/x10_f_cfg.ks (inferred preloaded)
2.94,TAKEOFF,TO_PREFLIGHT,0.22,80,79.78,3.58,-0.03,-0.4,5.63,89.39,0.106,0.64,0,0,0,0,0,0,0,0,0,0,0,0,0,0,90,0,1,0,-1.62,0,0,0,90,0,0,0,0,0,0,0,0,0,0,0,3,0,0,0,69,0,0,0,90,1,0,-0.351,0,0,1,0,0,0,0,0,0,0,2,2,0,0,VALID,0,0,0,0,0,1,0,0,0,0,0,0,0,0,0,0,0,0,0,0,64.42,875.29,2,0,0.06,0.06,18,15.38,0.08,0.04,2.8,LANDED,X10-F,0:/Integrated Flight Computer/aircraft/x10_f_cfg.ks (inferred preloaded)
3.2,TAKEOFF,TO_PREFLIGHT,0.04,80,79.96,3.64,-0.11,-0.17,40.04,89.4,0.106,0.744,0,0,0,0,0,0,0,0,0,0,0,0,0,0,90,0,1,0,-6.21,0,0,0,90,0,0,0,0,0,0,0,0,0,0,0,3,0,0,0,69,0,0,0,90,1,0,-0.351,0,0,1,0,0,0,0,0,0,0,2,2,0,0,VALID,0,0,0,0,0,1,0,0,0,0,0,0,0,0,0,0,0,0,0,0,90.59,875.29,2,0,0.06,0.06,22,15.38,0.08,0.04,3.06,LANDED,X10-F,0:/Integrated Flight Computer/aircraft/x10_f_cfg.ks (inferred preloaded)
3.46,TAKEOFF,TO_PREFLIGHT,0.14,80,79.86,3.73,-0.03,0.25,55.6,89.4,0.105,0.848,0,0,0,0,0,0,0,0,0,0,0,0,0,0,90,0,1,0,-1.67,0,0,0,90,0,0,0,0,0,0,0,0,0,0,0,3,0,0,0,69,0,0,0,90,1,0,-0.351,0,0,1,0,0,0,0,0,0,0,2,2,0,0,VALID,0,0,0,0,0,1,0,0,0,0,0,0,0,0,0,0,0,0,0,0,120.06,875.29,2,0,0.06,0.06,26,15.38,0.08,0.04,3.32,LANDED,X10-F,0:/Integrated Flight Computer/aircraft/x10_f_cfg.ks (inferred preloaded)
3.72,TAKEOFF,TO_PREFLIGHT,0.21,80,79.79,3.88,0.22,0.59,-81.6,89.41,0.106,0.952,0,0,0,0,0,0,0,0,0,0,0,0,0,0,90,0,1,0,12.51,0,0,0,90,0,0,0,0,0,0,0,0,0,0,0,3,0,0,0,69,0,0,0,90,1,0,-0.351,0,0,1,0,0,0,0,0,0,0,2,2,0,0,VALID,0,0,0,0,0,1,0,0,0,0,0,0,0,0,0,0,0,0,0,0,152.65,875.29,2,0,0.06,0.06,30,15.38,0.08,0.04,3.58,LANDED,X10-F,0:/Integrated Flight Computer/aircraft/x10_f_cfg.ks (inferred preloaded)
3.98,TAKEOFF,TO_PREFLIGHT,0.08,80,79.92,3.93,-0.18,0.81,73.05,89.41,0.105,1,0,0,0,0,0,0,0,0,0,0,0,0,0,0,90,0,1,0,-10.14,0,0,0,90,0,0,0,0,0,0,0,0,0,0,0,3,0,0,0,69,0,0,0,90,1,0,-0.351,0,0,1,0,0,0,0,0,0,0,2,2,0,0,VALID,0,0,0,0,0,1,0,0,0,0,0,0,0,0,0,0,0,0,0,0,188.1,875.29,2,0,0.06,0.06,34,15.38,0.08,0.04,3.84,LANDED,X10-F,0:/Integrated Flight Computer/aircraft/x10_f_cfg.ks (inferred preloaded)
4.24,TAKEOFF,TO_PREFLIGHT,0.07,80,79.93,3.91,0.1,0.78,-42.61,89.42,0.107,1,0,0,0,0,0,0,0,0,0,0,0,0,0,0,90,0,1,0,5.75,0,0,0,90,0,0,0,0,0,0,0,0,0,0,0,3,0,0,0,69,0,0,0,90,1,0,-0.351,0,0,1,0,0,0,0,0,0,0,2,2,0,0,VALID,0,0,0,0,0,1,0,0,0,0,0,0,0,0,0,0,0,0,0,0,222.99,875.29,2,0,0.06,0.06,38,15.38,0.08,0.04,4.1,LANDED,X10-F,0:/Integrated Flight Computer/aircraft/x10_f_cfg.ks (inferred preloaded)
4.5,TAKEOFF,TO_PREFLIGHT,0.17,80,79.83,3.84,-0.03,0.49,4.78,89.42,0.105,1,0,0,0,0,0,0,0,0,0,0,0,0,0,0,90,0,1,0,-1.6,0,0,0,90,0,0,0,0,0,0,0,0,0,0,0,3,0,0,0,69,0,0,0,90,1,0,-0.351,0,0,1,0,0,0,0,0,0,0,2,2,0,0,VALID,0,0,0,0,0,1,0,0,0,0,0,0,0,0,0,0,0,0,0,0,256.1,875.28,2,0,0.06,0.06,42,15.38,0.08,0.04,4.36,LANDED,X10-F,0:/Integrated Flight Computer/aircraft/x10_f_cfg.ks (inferred preloaded)
4.76,TAKEOFF,TO_PREFLIGHT,0.25,80,79.75,3.66,0.03,-0.12,-2.93,89.43,0.105,1,0,0,0,0,0,0,0,0,0,0,0,0,0,0,90,0,1,0,1.88,0,0,0,90,0,0,0,0,0,0,0,0,0,0,0,3,0,0,0,69,0,0,0,90,1,0,-0.351,0,0,1,0,0,0,0,0,0,0,2,2,0,0,VALID,0,0,0,0,0,1,0,0,0,0,0,0,0,0,0,0,0,0,0,0,287.54,875.28,2,0,0.06,0.06,46,15.38,0.08,0.04,4.62,LANDED,X10-F,0:/Integrated Flight Computer/aircraft/x10_f_cfg.ks (inferred preloaded)
5.02,TAKEOFF,TO_PREFLIGHT,0.27,80,79.73,3.56,0.05,-0.47,-14.15,89.43,0.105,1,0,0,0,0,0,0,0,0,0,0,0,0,0,0,90,0,1,0,2.95,0,0,0,90,0,0,0,0,0,0,0,0,0,0,0,3,0,0,0,69,0,0,0,90,1,0,-0.351,0,0,1,0,0,0,0,0,0,0,2,2,0,0,VALID,0,0,0,0,0,1,0,0,0,0,0,0,0,0,0,0,0,0,0,0,317.38,875.28,2,0,0.06,0.06,50,15.38,0.08,0.04,4.88,LANDED,X10-F,0:/Integrated Flight Computer/aircraft/x10_f_cfg.ks (inferred preloaded)
5.28,TAKEOFF,TO_PREFLIGHT,0.08,80,79.92,3.63,-0.15,-0.2,74.38,89.43,0.106,1,0,0,0,0,0,0,0,0,0,0,0,0,0,0,90,0,1,0,-8.32,0,0,0,90,0,0,0,0,0,0,0,0,0,0,0,3,0,0,0,69,0,0,0,90,1,0,-0.351,0,0,1,0,0,0,0,0,0,0,2,2,0,0,VALID,0,0,0,0,0,1,0,0,0,0,0,0,0,0,0,0,0,0,0,0,345.7,875.28,2,0,0.06,0.06,54,15.38,0.08,0.04,5.14,LANDED,X10-F,0:/Integrated Flight Computer/aircraft/x10_f_cfg.ks (inferred preloaded)
5.54,TAKEOFF,TO_PREFLIGHT,0.13,80,79.87,3.64,0.03,-0.08,-4.24,89.44,0.106,1,0,0,0,0,0,0,0,0,0,0,0,0,0,0,90,0,1,0,1.48,0,0,0,90,0,0,0,0,0,0,0,0,0,0,0,3,0,0,0,69,0,0,0,90,1,0,-0.351,0,0,1,0,0,0,0,0,0,0,2,2,0,0,VALID,0,0,0,0,0,1,0,0,0,0,0,0,0,0,0,0,0,0,0,0,372.59,875.28,2,0,0.06,0.06,58,15.38,0.08,0.04,5.4,LANDED,X10-F,0:/Integrated Flight Computer/aircraft/x10_f_cfg.ks (inferred preloaded)
5.8,TAKEOFF,TO_PREFLIGHT,0.21,80,79.79,3.61,0.07,-0.26,-18.91,89.44,0.105,1,0,0,0,0,0,0,0,0,0,0,0,0,0,0,90,0,1,0,4.16,0,0,0,90,0,0,0,0,0,0,0,0,0,0,0,3,0,0,0,69,0,0,0,90,1,0,-0.351,0,0,1,0,0,0,0,0,0,0,2,2,0,0,VALID,0,0,0,0,0,1,0,0,0,0,0,0,0,0,0,0,0,0,0,0,398.11,875.28,2,0,0.06,0.06,62,15.38,0.08,0.04,5.66,LANDED,X10-F,0:/Integrated Flight Computer/aircraft/x10_f_cfg.ks (inferred preloaded)
6.06,TAKEOFF,TO_PREFLIGHT,0.23,80,79.77,3.59,-0.01,-0.36,0.38,89.44,0.104,1,0,0,0,0,0,0,0,0,0,0,0,0,0,0,90,0,1,0,-0.51,0,0,0,90,0,0,0,0,0,0,0,0,0,0,0,3,0,0,0,69,0,0,0,90,1,0,-0.351,0,0,1,0,0,0,0,0,0,0,2,2,0,0,VALID,0,0,0,0,0,1,0,0,0,0,0,0,0,0,0,0,0,0,0,0,422.34,875.28,2,0,0.06,0.06,66,15.38,0.08,0.04,5.92,LANDED,X10-F,0:/Integrated Flight Computer/aircraft/x10_f_cfg.ks (inferred preloaded)
6.32,TAKEOFF,TO_PREFLIGHT,0.21,80,79.79,3.61,-0.04,-0.26,11.81,89.45,0.106,1,0,0,0,0,0,0,0,0,0,0,0,0,0,0,90,0,1,0,-2.54,0,0,0,90,0,0,0,0,0,0,0,0,0,0,0,3,0,0,0,69,0,0,0,90,1,0,-0.351,0,0,1,0,0,0,0,0,0,0,2,2,0,0,VALID,0,0,0,0,0,1,0,0,0,0,0,0,0,0,0,0,0,0,0,0,445.33,875.28,2,0,0.06,0.06,70,15.38,0.08,0.04,6.18,LANDED,X10-F,0:/Integrated Flight Computer/aircraft/x10_f_cfg.ks (inferred preloaded)
6.58,TAKEOFF,TO_PREFLIGHT,0.22,80,79.78,3.61,0.01,-0.22,-0.66,89.45,0.106,1,0,0,0,0,0,0,0,0,0,0,0,0,0,0,90,0,1,0,0.36,0,0,0,90,0,0,0,0,0,0,0,0,0,0,0,3,0,0,0,69,0,0,0,90,1,0,-0.351,0,0,1,0,0,0,0,0,0,0,2,2,0,0,VALID,0,0,0,0,0,1,0,0,0,0,0,0,0,0,0,0,0,0,0,0,467.16,875.28,2,0,0.06,0.06,74,15.38,0.08,0.04,6.44,LANDED,X10-F,0:/Integrated Flight Computer/aircraft/x10_f_cfg.ks (inferred preloaded)
6.84,TAKEOFF,TO_PREFLIGHT,0.29,80,79.71,3.6,0.03,-0.3,-5.32,89.45,0.105,1,0,0,0,0,0,0,0,0,0,0,0,0,0,0,90,0,1,0,1.59,0,0,0,90,0,0,0,0,0,0,0,0,0,0,0,3,0,0,0,69,0,0,0,90,1,0,-0.351,0,0,1,0,0,0,0,0,0,0,2,2,0,0,VALID,0,0,0,0,0,1,0,0,0,0,0,0,0,0,0,0,0,0,0,0,487.88,875.28,2,0,0.06,0.06,78,15.38,0.08,0.04,6.7,LANDED,X10-F,0:/Integrated Flight Computer/aircraft/x10_f_cfg.ks (inferred preloaded)
7.1,TAKEOFF,TO_PREFLIGHT,0.41,80,79.59,3.59,-0.01,-0.32,1,89.46,0.105,1,0,0,0,0,0,0,0,0,0,0,0,0,0,0,90,0,1,0,-0.78,0,0,0,90,0,0,0,0,0,0,0,0,0,0,0,3,0,0,0,69,0,0,0,90,1,0,-0.351,0,0,1,0,0,0,0,0,0,0,2,2,0,0,VALID,0,0,0,0,0,1,0,0,0,0,0,0,0,0,0,0,0,0,0,0,507.55,875.28,2,0,0.06,0.06,82,15.38,0.08,0.04,6.96,LANDED,X10-F,0:/Integrated Flight Computer/aircraft/x10_f_cfg.ks (inferred preloaded)
7.36,TAKEOFF,TO_PREFLIGHT,0.58,80,79.42,3.6,-0.02,-0.27,1.46,89.46,0.105,1,0,0,0,0,0,0,0,0,0,0,0,0,0,0,90,0,1,0,-1.1,0,0,0,90,0,0,0,0,0,0,0,0,0,0,0,3,0,0,0,69,0,0,0,90,1,0,-0.351,0,0,1,0,0,0,0,0,0,0,2,2,0,0,VALID,0,0,0,0,0,1,0,0,0,0,0,0,0,0,0,0,0,0,0,0,526.22,875.27,2,0,0.06,0.06,86,15.38,0.08,0.04,7.22,LANDED,X10-F,0:/Integrated Flight Computer/aircraft/x10_f_cfg.ks (inferred preloaded)
7.62,TAKEOFF,TO_PREFLIGHT,0.76,80,79.24,3.6,0.01,-0.27,-0.49,89.47,0.105,1,0,0,0,0,0,0,0,0,0,0,0,0,0,0,90,0,1,0,0.31,0,0,0,90,0,0,0,0,0,0,0,0,0,0,0,3,0,0,0,69,0,0,0,90,1,0,-0.351,0,0,1,0,0,0,0,0,0,0,2,2,0,0,VALID,0,0,0,0,0,1,0,0,0,0,0,0,0,0,0,0,0,0,0,0,543.94,875.27,2,0,0.06,0.06,90,15.38,0.08,0.04,7.48,LANDED,X10-F,0:/Integrated Flight Computer/aircraft/x10_f_cfg.ks (inferred preloaded)
7.88,TAKEOFF,TO_PREFLIGHT,0.91,80,79.09,3.59,0.01,-0.31,-0.85,89.47,0.105,1,0,0,0,0,0,0,0,0,0,0,0,0,0,0,90,0,1,0,0.5,0,0,0,90,0,0,0,0,0,0,0,0,0,0,0,3,0,0,0,69,0,0,0,90,1,0,-0.351,0,0,1,0,0,0,0,0,0,0,2,2,0,0,VALID,0,0,0,0,0,1,0,0,0,0,0,0,0,0,0,0,0,0,0,0,560.76,875.27,2,0,0.06,0.06,94,15.38,0.08,0.04,7.74,LANDED,X10-F,0:/Integrated Flight Computer/aircraft/x10_f_cfg.ks (inferred preloaded)
8.14,TAKEOFF,TO_PREFLIGHT,1,80,79,3.59,-0.01,-0.33,0.04,89.47,0.105,1,0,0,0,0,0,0,0,0,0,0,0,0,0,0,90,0,1,0,-0.46,0,0,0,90,0,0,0,0,0,0,0,0,0,0,0,3,0,0,0,69,0,0,0,90,1,0,-0.351,0,0,1,0,0,0,0,0,0,0,2,2,0,0,VALID,0,0,0,0,0,1,0,0,0,0,0,0,0,0,0,0,0,0,0,0,576.72,875.27,2,0,0.06,0.06,98,15.38,0.08,0.04,8,LANDED,X10-F,0:/Integrated Flight Computer/aircraft/x10_f_cfg.ks (inferred preloaded)
8.4,TAKEOFF,TO_PREFLIGHT,1.04,80,78.96,3.59,-0.01,-0.32,0.23,89.48,0.104,1,0,0,0,0,0,0,0,0,0,0,0,0,0,0,90,0,1,0,-0.54,0,0,0,90,0,0,0,0,0,0,0,0,0,0,0,3,0,0,0,69,0,0,0,90,1,0,-0.351,0,0,1,0,0,0,0,0,0,0,2,2,0,0,VALID,0,0,0,0,0,1,0,0,0,0,0,0,0,0,0,0,0,0,0,0,591.88,875.27,2,0,0.06,0.06,102,15.38,0.08,0.04,8.26,LANDED,X10-F,0:/Integrated Flight Computer/aircraft/x10_f_cfg.ks (inferred preloaded)
8.66,TAKEOFF,TO_PREFLIGHT,1.07,80,78.93,3.59,0,-0.32,-0.17,89.48,0.105,1,0,0,0,0,0,0,0,0,0,0,0,0,0,0,90,0,1,0,-0.16,0,0,0,90,0,0,0,0,0,0,0,0,0,0,0,3,0,0,0,69,0,0,0,90,1,0,-0.351,0,0,1,0,0,0,0,0,0,0,2,2,0,0,VALID,0,0,0,0,0,1,0,0,0,0,0,0,0,0,0,0,0,0,0,0,606.27,875.27,2,0,0.06,0.06,106,15.38,0.08,0.04,8.52,LANDED,X10-F,0:/Integrated Flight Computer/aircraft/x10_f_cfg.ks (inferred preloaded)
8.92,TAKEOFF,TO_PREFLIGHT,1.1,80,78.9,3.59,0,-0.34,-0.23,89.49,0.105,1,0,0,0,0,0,0,0,0,0,0,0,0,0,0,90,0,1,0,-0.12,0,0,0,90,0,0,0,0,0,0,0,0,0,0,0,3,0,0,0,69,0,0,0,90,1,0,-0.351,0,0,1,0,0,0,0,0,0,0,2,2,0,0,VALID,0,0,0,0,0,1,0,0,0,0,0,0,0,0,0,0,0,0,0,0,619.92,875.27,2,0,0.06,0.06,110,15.38,0.08,0.04,8.78,LANDED,X10-F,0:/Integrated Flight Computer/aircraft/x10_f_cfg.ks (inferred preloaded)
9.18,TAKEOFF,TO_PREFLIGHT,1.13,80,78.87,3.59,-0.01,-0.35,-0.05,89.49,0.105,1,0,0,0,0,0,0,0,0,0,0,0,0,0,0,90,0,1,0,-0.34,0,0,0,90,0,0,0,0,0,0,0,0,0,0,0,3,0,0,0,69,0,0,0,90,1,0,-0.351,0,0,1,0,0,0,0,0,0,0,2,2,0,0,VALID,0,0,0,0,0,1,0,0,0,0,0,0,0,0,0,0,0,0,0,0,632.89,875.26,2,0,0.06,0.06,114,15.38,0.08,0.04,9.04,LANDED,X10-F,0:/Integrated Flight Computer/aircraft/x10_f_cfg.ks (inferred preloaded)
9.44,TAKEOFF,TO_PREFLIGHT,1.15,80,78.85,3.59,-0.01,-0.35,-0.02,89.49,0.104,1,0,0,0,0,0,0,0,0,0,0,0,0,0,0,90,0,1,0,-0.33,0,0,0,90,0,0,0,0,0,0,0,0,0,0,0,3,0,0,0,69,0,0,0,90,1,0,-0.351,0,0,1,0,0,0,0,0,0,0,2,2,0,0,VALID,0,0,0,0,0,1,0,0,0,0,0,0,0,0,0,0,0,0,0,0,645.19,875.26,2,0,0.06,0.06,118,15.38,0.08,0.04,9.3,LANDED,X10-F,0:/Integrated Flight Computer/aircraft/x10_f_cfg.ks (inferred preloaded)
9.7,TAKEOFF,TO_PREFLIGHT,1.17,80,78.83,3.59,-0.01,-0.35,-0.1,89.5,0.104,1,0,0,0,0,0,0,0,0,0,0,0,0,0,0,90,0,1,0,-0.27,0,0,0,90,0,0,0,0,0,0,0,0,0,0,0,3,0,0,0,69,0,0,0,90,1,0,-0.351,0,0,1,0,0,0,0,0,0,0,2,2,0,0,VALID,0,0,0,0,0,1,0,0,0,0,0,0,0,0,0,0,0,0,0,0,656.87,875.26,2,0,0.06,0.06,122,15.38,0.08,0.04,9.56,LANDED,X10-F,0:/Integrated Flight Computer/aircraft/x10_f_cfg.ks (inferred preloaded)
9.96,TAKEOFF,TO_PREFLIGHT,1.19,80,78.81,3.58,-0.01,-0.35,-0.11,89.5,0.104,1,0,0,0,0,0,0,0,0,0,0,0,0,0,0,90,0,1,0,-0.26,0,0,0,90,0,0,0,0,0,0,0,0,0,0,0,3,0,0,0,69,0,0,0,90,1,0,-0.351,0,0,1,0,0,0,0,0,0,0,2,2,0,0,VALID,0,0,0,0,0,1,0,0,0,0,0,0,0,0,0,0,0,0,0,0,667.96,875.26,2,0,0.06,0.06,126,15.38,0.08,0.04,9.82,LANDED,X10-F,0:/Integrated Flight Computer/aircraft/x10_f_cfg.ks (inferred preloaded)
10.22,TAKEOFF,TO_PREFLIGHT,1.21,80,78.79,3.58,-0.01,-0.36,-0.09,89.51,0.104,1,0,0,0,0,0,0,0,0,0,0,0,0,0,0,90,0,1,0,-0.29,0,0,0,90,0,0,0,0,0,0,0,0,0,0,0,3,0,0,0,69,0,0,0,90,1,0,-0.351,0,0,1,0,0,0,0,0,0,0,2,2,0,0,VALID,0,0,0,0,0,1,0,0,0,0,0,0,0,0,0,0,0,0,0,0,678.48,875.26,2,0,0.06,0.06,130,15.38,0.08,0.04,10.08,LANDED,X10-F,0:/Integrated Flight Computer/aircraft/x10_f_cfg.ks (inferred preloaded)
10.48,TAKEOFF,TO_GROUND_ROLL,1.23,80,78.77,3.58,-0.01,-0.36,-0.08,89.51,0.104,1,0,0,0,0,0,0,0,0,0,0,0,0,0,0,90.42,0,1,0,-0.31,0,0,0,90,0,0,0,0,0,0,0,0,0.003,0,0,3,0,0,0,69,0,0,0,90.42,1,0.003,-0.909,0.0536,0.562,0,0.0536,0,0,0,0,0,0,2,2,0,0,VALID,0,0,0,0,0,1,0,0,0,0,0,0,0,0,0,0,0,0,0,0,688.47,875.26,2,0,0.06,0.06,134,15.38,0.08,0.04,10.36,LANDED,X10-F,0:/Integrated Flight Computer/aircraft/x10_f_cfg.ks (inferred preloaded)
10.76,TAKEOFF,TO_GROUND_ROLL,2.18,80,77.82,3.67,-0.13,-0.02,2.43,89.52,0.101,1,0,0,0,0,0,0,0,0,0,0,0,0,0,0,89.99,0,1,0,-3.41,0,0,0,90,0,0,0,0,0,0,0,0,0.003,0,0,3,0,0,0,69,0,0,0,89.99,1,0.003,-0.474,0.0123,0.572,0,0.0123,0,0,0,0,0,0,2,2,0,0,VALID,0,0,0,0,0,1,0,0,0,0,0,0,0,0,0,0,0,0,0,0,698.65,875.24,2,0,0.06,0.06,138,14.29,0.08,0.06,10.64,LANDED,X10-F,0:/Integrated Flight Computer/aircraft/x10_f_cfg.ks (inferred preloaded)
11.04,TAKEOFF,TO_GROUND_ROLL,4.02,80,75.98,3.83,0.19,0.53,-1.3,89.54,0.099,1,0,0,0,0,0,0,0,0,0,0,0,0,0,0,89.99,0,1,0,2.71,0,0,0,90,0,0,0,0,0,0,0,0,0.004,0,0,3,0,0,0,69,0,0,0,89.99,1,0.004,-0.459,0.0122,0.59,0,0.0122,0,0,0,0,0,0,2,2,0,0,VALID,0,0,0,0,0,1,0,0,0,0,0,0,0,0,0,0,0,0,0,0,708.24,875.18,2,0,0.06,0.06,142,14.29,0.08,0.06,10.92,LANDED,X10-F,0:/Integrated Flight Computer/aircraft/x10_f_cfg.ks (inferred preloaded)
11.32,TAKEOFF,TO_GROUND_ROLL,5.95,80,74.05,4.1,-0.15,1.34,2.2,89.55,0.103,1,0,0,0,0,0,0,0,0,0,0,0,0,0,0,90,0,1,0,-1.42,0,0,0,90,0,0,0,0,0,0,0,0,0.005,0,0,3,0,0,0,69,0,0,0,90,1,0.005,-0.446,0.0122,0.609,0,0.0122,0,0,0,0,0,0,2,2,0,0,VALID,0,0,0,0,0,1,0,0,0,0,0,0,0,0,0,0,0,0,0,0,717.27,875.07,2,0,0.06,0.06,146,14.29,0.08,0.06,11.2,LANDED,X10-F,0:/Integrated Flight Computer/aircraft/x10_f_cfg.ks (inferred preloaded)
11.6,TAKEOFF,TO_GROUND_ROLL,7.9,80,72.1,4.34,-0.05,2.27,2.7,89.56,0.104,1,0,0,0,0,0,0,0,0,0,0,0,0,0,0,90,0,1,0,-0.39,0,0,0,90,0,0,0,0,0,0,0,0,0.006,0,0,3,0,0,0,69,0,0,0,90,1,0.006,-0.432,0.0122,0.629,0,0.0122,0,0,0,0,0,0,2,2,0,0,VALID,0,0,0,0,0,1,0,0,0,0,0,0,0,0,0,0,0,0,0,0,725.77,874.94,2,0,0.06,0.06,150,14.29,0.08,0.06,11.48,LANDED,X10-F,0:/Integrated Flight Computer/aircraft/x10_f_cfg.ks (inferred preloaded)
11.88,TAKEOFF,TO_GROUND_ROLL,9.87,80,70.13,4.64,-0.07,3.27,3.5,89.58,0.106,1,0,0,0,0,0,0,0,0,0,0,0,0,0,0,89.99,0,1,0,-0.43,0,0,0,90,0,0,0,0,0,0,0,0,0.007,0,0,3,0,0,0,69,0,0,0,89.99,1,0.007,-0.414,0.0118,0.649,0,0.0118,0,0,0,0,0,0,2,2,0,0,VALID,0,0,0,0,0,1,0,0,0,0,0,0,0,0,0,0,0,0,0,0,733.76,874.77,2,0,0.06,0.06,154,14.29,0.08,0.06,11.76,LANDED,X10-F,0:/Integrated Flight Computer/aircraft/x10_f_cfg.ks (inferred preloaded)
12.16,TAKEOFF,TO_GROUND_ROLL,11.86,80,68.14,4.88,-0.12,4.16,4.67,89.6,0.105,1,0,0,0,0,0,0,0,0,0,0,0,0,0,0,89.99,0,1,0,-0.59,0,0,0,90,0,0,0,0,0,0,0,0,0.008,0,0,3,0,0,0,69,0,0,0,89.99,1,0.008,-0.388,0.0109,0.669,0,0.0109,0,0,0,0,0,0,2,2,0,0,VALID,0,0,0,0,0,1,0,0,0,0,0,0,0,0,0,0,0,0,0,0,741.29,874.56,2,0,0.06,0.06,158,14.29,0.08,0.06,12.04,LANDED,X10-F,0:/Integrated Flight Computer/aircraft/x10_f_cfg.ks (inferred preloaded)
12.44,TAKEOFF,TO_GROUND_ROLL,13.87,80,66.13,5.08,-0.08,4.87,5.11,89.63,0.104,1,0,0,0,0,0,0,0,0,0,0,0,0,0,0,89.99,0,1,0,-0.33,0,0,0,90,0,0,0,0,0,0,0,0,0.01,0,0,3,0,0,0,69,0,0,0,89.99,1,0.01,-0.354,0.0097,0.689,0,0.0097,0,0,0,0,0,0,2,2,0,0,VALID,0,0,0,0,0,1,0,0,0,0,0,0,0,0,0,0,0,0,0,0,748.36,874.32,2,0,0.06,0.06,162,14.29,0.08,0.06,12.32,LANDED,X10-F,0:/Integrated Flight Computer/aircraft/x10_f_cfg.ks (inferred preloaded)
12.72,TAKEOFF,TO_GROUND_ROLL,15.89,80,64.11,5.2,-0.12,5.28,5.67,89.67,0.104,1,0,0,0,0,0,0,0,0,0,0,0,0,0,0,89.99,0,1,0,-0.43,0,0,0,90,0,0,0,0,0,0,0,0,0.011,0,0,3,0,0,0,69,0,0,0,89.99,1,0.011,-0.314,0.0082,0.709,0,0.0082,0,0,0,0,0,0,2,2,0,0,VALID,0,0,0,0,0,1,0,0,0,0,0,0,0,0,0,0,0,0,0,0,755,874.05,2,0,0.06,0.06,166,14.29,0.08,0.06,12.6,LANDED,X10-F,0:/Integrated Flight Computer/aircraft/x10_f_cfg.ks (inferred preloaded)
13,TAKEOFF,TO_GROUND_ROLL,17.93,80,62.07,5.22,-0.09,5.37,5.64,89.72,0.102,1,0,0,0,0,0,0,0,0,0,0,0,0,0,0,89.98,0,1,0,-0.28,0,0,0,90,0,0,0,0,0,0,0,0,0.013,0,0,3,0,0,0,69,0,0,0,89.98,1,0.013,-0.266,0.0064,0.729,0,0.0064,0,0,0,0,0,0,2,2,0,0,VALID,0,0,0,0,0,1,0,0,0,0,0,0,0,0,0,0,0,0,0,0,761.25,873.76,2,0,0.06,0.06,170,14.29,0.08,0.06,12.88,LANDED,X10-F,0:/Integrated Flight Computer/aircraft/x10_f_cfg.ks (inferred preloaded)
13.28,TAKEOFF,TO_GROUND_ROLL,19.99,80,60.01,5.15,-0.11,5.12,5.44,89.77,0.1,1,0,0,0,0,0,0,0,0,0,0,0,0,0,0,89.98,0,1,0,-0.31,0,0,0,90,0,0,0,0,0,0,0,0,0.015,0,0,3,0,0,0,69,0,0,0,89.98,1,0.015,-0.211,0.0042,0.75,0,0.0042,0,0,0,0,0,0,2,2,0,0,VALID,0,0,0,0,0,1,0,0,0,0,0,0,0,0,0,0,0,0,0,0,767.11,873.44,2,0,0.06,0.06,174,14.29,0.08,0.06,13.16,LANDED,X10-F,0:/Integrated Flight Computer/aircraft/x10_f_cfg.ks (inferred preloaded)
13.56,TAKEOFF,TO_GROUND_ROLL,22.06,80,57.94,5,-0.1,4.58,4.87,89.83,0.096,1,0,0,0,0,0,0,0,0,0,0,0,0,0,0,89.98,0,1,0,-0.26,0,0,0,90,0,0,0,0,0,0,0,0,0.016,0,0,3,0,0,0,69,0,0,0,89.98,1,0.016,-0.15,0.0017,0.771,0,0.0017,0,0,0,0,0,0,2,2,0,0,VALID,0,0,0,0,0,1,0,0,0,0,0,0,0,0,0,0,0,0,0,0,772.61,873.1,2,0,0.06,0.06,178,14.29,0.08,0.06,13.44,LANDED,X10-F,0:/Integrated Flight Computer/aircraft/x10_f_cfg.ks (inferred preloaded)
13.83,TAKEOFF,TO_GROUND_ROLL,23.92,80,56.08,4.79,-0.12,3.84,4.17,89.89,0.1,1,0,0,0,0,0,0,0,0,0,0,0,0,0,0,89.97,0,1,0,-0.28,0,0,0,90,0,0,0,0,0,0,0,0,0.018,0,0,3,0,0,0,69,0,0,0,89.97,1,0.018,-0.081,-0.0014,0.789,0,-0.0014,0,0,0,0,0,0,2,2,0,0,VALID,0,0,0,0,0,1,0,0,0,0,0,0,0,0,0,0,0,0,0,0,777.7,872.78,2,0,0.051,0.051,183,18.27,0.076,0.041,13.72,LANDED,X10-F,0:/Integrated Flight Computer/aircraft/x10_f_cfg.ks (inferred preloaded)
14.14,TAKEOFF,TO_GROUND_ROLL,25.93,80,54.07,4.52,-0.12,2.89,3.24,89.97,0.091,1,0,0,0,0,0,0,0,0,0,0,0,0,0,0,89.97,0,1,0,-0.27,0,0,0.01,90,0,0,0,0,0,0,0,0,0.019,0,0,3,0,0,0,69,0,0,0,89.97,1,0.019,0.001,-0.0041,0.809,0,-0.0041,0,0,0,0,0,0,2,2,0,0,VALID,0,0,0,0,0,1,0,0,0,0,0,0,0,0,0,0,0,0,0,0,782.96,872.42,2,0,0.062,0.062,187,13.27,0.092,0.051,14.03,LANDED,X10-F,0:/Integrated Flight Computer/aircraft/x10_f_cfg.ks (inferred preloaded)
14.42,TAKEOFF,TO_GROUND_ROLL,28.05,80,51.95,4.26,-0.14,1.98,2.34,90.05,0.072,1,0,0,0,0,0,0,0,0,0,0,0,0,0,0,89.97,0,1,0,-0.29,0,0,0.01,90,0,0,0,0,0,0,0,0,0.019,0,0,3,0,0,0,69,0,0,0,89.97,1,0.019,0.089,-0.0089,0.83,0,-0.0089,0,0,0,0,0,0,2,2,0,0,VALID,0,0,0,0,0,1,0,0,0,0,0,0,0,0,0,0,0,0,0,0,787.64,872.03,2,0,0.098,0.098,190,10.41,0.127,0.062,14.32,LANDED,X10-F,0:/Integrated Flight Computer/aircraft/x10_f_cfg.ks (inferred preloaded)
14.69,TAKEOFF,TO_GROUND_ROLL,30.03,80,49.97,4.05,-0.16,1.23,1.6,90.13,0.071,1,0,0,0,0,0,0,0,0,0,0,0,0,0,0,89.97,0,1,0,-0.3,0,0,0.01,90,0,0,0,0,0,0,0,0,0.018,0,0,3,0,0,0,69,0,0,0,89.97,1,0.018,0.161,-0.0117,0.85,0,-0.0117,0,0,0,0,0,0,2,2,0,0,VALID,0,0,0,0,0,1,0,0,0,0,0,0,0,0,0,0,0,0,0,0,791.72,871.66,2,0,0.101,0.101,193,11.22,0.101,0.067,14.58,LANDED,X10-F,0:/Integrated Flight Computer/aircraft/x10_f_cfg.ks (inferred preloaded)
15.04,TAKEOFF,TO_GROUND_ROLL,32.64,80,47.36,3.85,-0.18,0.54,0.88,90.21,0.084,1,0,0,0,0,0,0,0,0,0,0,0,0,0,0,89.98,0,1,0,-0.31,0,0,0.01,90,0,0,0,0,0,0,0,0,0.017,0,0,3,0,0,0,69,0,0,0,89.98,1,0.017,0.232,-0.0138,0.876,0,-0.0138,0,0,0,0,0,0,2,2,0,0,VALID,0,0,0,0,0,1,0,0,0,0,0,0,0,0,0,0,0,0,0,0,796.66,871.16,2,0,0.105,0.105,196,8.63,0.138,0.101,14.93,LANDED,X10-F,0:/Integrated Flight Computer/aircraft/x10_f_cfg.ks (inferred preloaded)
15.32,TAKEOFF,TO_GROUND_ROLL,34.79,80,45.21,3.77,-0.19,0.28,0.59,90.26,0.083,1,0,0,0,0,0,0,0,0,0,0,0,0,0,0,89.99,0,1,0,-0.32,0,0,0.01,90,0,0,0,0,0,0,0,0,0.015,0,0,3,0,0,0,69,0,0,0,89.99,1,0.015,0.274,-0.0149,0.898,0,-0.0149,0,0,0,0,0,0,2,2,0,0,VALID,0,0,0,0,0,1,0,0,0,0,0,0,0,0,0,0,0,0,0,0,800.35,870.75,2,0,0.105,0.105,199,10.71,0.105,0.07,15.21,LANDED,X10-F,0:/Integrated Flight Computer/aircraft/x10_f_cfg.ks (inferred preloaded)
15.67,TAKEOFF,TO_GROUND_ROLL,37.51,80,42.49,3.8,-0.21,0.36,0.63,90.3,0.087,1,0,0,0,0,0,0,0,0,0,0,0,0,0,0,89.99,0,1,0,-0.32,0,0,0.01,90,0,0,0,0,0,0,0,0,0.011,0,0,3,0,0,0,69,0,0,0,89.99,1,0.011,0.307,-0.0155,0.925,0,-0.0155,0,0,0,0,0,0,2,2,0,0,VALID,0,0,0,0,0,1,0,0,0,0,0,0,0,0,0,0,0,0,0,0,804.65,870.23,2,0,0.105,0.105,202,8.57,0.14,0.105,15.56,LANDED,X10-F,0:/Integrated Flight Computer/aircraft/x10_f_cfg.ks (inferred preloaded)
15.95,TAKEOFF,TO_GROUND_ROLL,39.69,80,40.31,3.9,-0.23,0.72,0.97,90.32,0.093,1,0,0,0,0,0,0,0,0,0,0,0,0,0,0,90,0,1,0,-0.33,0,0,0.01,90,0,0,0,0,0,0,0,0,0.008,0,0,3,0,0,0,69,0,0,0,90,1,0.008,0.319,-0.0153,0.947,0,-0.0153,0,0,0,0,0,0,2,2,0,0,VALID,0,0,0,0,0,1,0,0,0,0,0,0,0,0,0,0,0,0,0,0,807.86,869.82,2,0,0.105,0.105,205,10.71,0.105,0.07,15.84,LANDED,X10-F,0:/Integrated Flight Computer/aircraft/x10_f_cfg.ks (inferred preloaded)
16.3,TAKEOFF,TO_GROUND_ROLL,42.43,80,37.57,4.11,-0.25,1.46,1.68,90.32,0.1,1,0,0,0,0,0,0,0,0,0,0,0,0,0,0,90.01,0,1,0,-0.33,0,0,0.01,90,0,0,0,0,0,0,0,0,0.004,0,0,3,0,0,0,69,0,0,0,90.01,1,0.004,0.314,-0.0142,0.974,0,-0.0142,0,0,0,0,0,0,2,2,0,0,VALID,0,0,0,0,0,1,0,0,0,0,0,0,0,0,0,0,0,0,0,0,811.6,869.33,2,0,0.105,0.105,208,8.57,0.14,0.105,16.19,LANDED,X10-F,0:/Integrated Flight Computer/aircraft/x10_f_cfg.ks (inferred preloaded)
16.58,TAKEOFF,TO_GROUND_ROLL,44.62,80,35.38,4.31,-0.26,2.17,2.38,90.31,0.107,1,0,0,0,0,0,0,0,0,0,0,0,0,0,0,90.01,0,1,0,-0.33,0,0,0.01,90,0,0,0,0,0,0,0,0,0,0,0,3,0,0,0,69,0,0,0,90.01,1,0,0.296,-0.0126,0.996,0,-0.0126,0,0,0,0,0,0,2,2,0,0,VALID,0,0,0,0,0,1,0,0,0,0,0,0,0,0,0,0,0,0,0,0,814.4,868.94,2,0,0.105,0.105,211,10.71,0.105,0.07,16.47,LANDED,X10-F,0:/Integrated Flight Computer/aircraft/x10_f_cfg.ks (inferred preloaded)
16.93,TAKEOFF,TO_GROUND_ROLL,47.38,80,32.62,4.56,-0.27,3.05,3.27,90.28,0.114,1,0,0,0,0,0,0,0,0,0,0,0,0,0,0,90.01,0,1,0,-0.33,0,0,0.02,90,0,0,0,0,0,0,0,0,-0.005,0,0,3,0,0,0,69,0,0,0,90.01,1,-0.005,0.261,-0.0101,1,0,-0.0101,0,0,0,0,0,0,2,2,0,0,VALID,0,0,0,0,0,1,0,0,0,0,0,0,0,0,0,0,0,0,0,0,817.67,868.49,2,0,0.105,0.105,214,8.57,0.14,0.105,16.82,LANDED,X10-F,0:/Integrated Flight Computer/aircraft/x10_f_cfg.ks (inferred preloaded)
17.21,TAKEOFF,TO_GROUND_ROLL,49.58,80,30.42,4.73,-0.28,3.63,3.87,90.24,0.119,1,0,0,0,0,0,0,0,0,0,0,0,0,0,0,90.02,0,1,0,-0.33,0,0,0.02,90,0,0,0,0,0,0,0,0,-0.008,0,0,3,0,0,0,69,0,0,0,90.02,1,-0.008,0.225,-0.0078,1,0,-0.0078,0,0,0,0,0,0,2,2,0,0,VALID,0,0,0,0,0,1,0,0,0,0,0,0,0,0,0,0,0,0,0,0,820.13,868.15,2,0,0.105,0.105,217,10.71,0.105,0.07,17.1,LANDED,X10-F,0:/Integrated Flight Computer/aircraft/x10_f_cfg.ks (inferred preloaded)
17.56,TAKEOFF,TO_GROUND_ROLL,52.34,80,27.66,4.86,-0.29,4.08,4.34,90.19,0.121,1,0,0,0,0,0,0,0,0,0,0,0,0,0,0,90.01,0,1,0,-0.31,0,0,0.02,90,0,0,0,0,0,0,0,0,-0.012,0,0,3,0,0,0,69,0,0,0,90.01,1,-0.012,0.176,-0.0051,1,0,-0.0051,0,0,0,0,0,0,2,2,0,0,VALID,0,0,0,0,0,1,0,0,0,0,0,0,0,0,0,0,0,0,0,0,823.02,867.76,2,0,0.105,0.105,220,8.57,0.14,0.105,17.45,LANDED,X10-F,0:/Integrated Flight Computer/aircraft/x10_f_cfg.ks (inferred preloaded)
17.84,TAKEOFF,TO_GROUND_ROLL,54.55,80,25.45,4.88,-0.29,4.16,4.45,90.15,0.116,1,0,0,0,0,0,0,0,0,0,0,0,0,0,0,90.01,0,1,0,-0.3,0,0,0.02,90,0,0,0,0,0,0,0,0,-0.014,0,0,3,0,0,0,69,0,0,0,90.01,1,-0.014,0.138,-0.0033,1,0,-0.0033,0,0,0,0,0,0,2,2,0,0,VALID,0,0,0,0,0,1,0,0,0,0,0,0,0,0,0,0,0,0,0,0,825.2,867.49,2,0,0.105,0.105,223,10.71,0.105,0.07,17.73,LANDED,X10-F,0:/Integrated Flight Computer/aircraft/x10_f_cfg.ks (inferred preloaded)
18.19,TAKEOFF,TO_GROUND_ROLL,57.32,80,22.68,4.81,-0.29,3.92,4.23,90.1,0.118,1,0,0,0,0,0,0,0,0,0,0,0,0,0,0,90.01,0,1,0,-0.29,0,0,0.02,90,0,0,0,0,0,0,0,0,-0.017,0,0,3,0,0,0,69,0,0,0,90.01,1,-0.017,0.09,-0.001,1,0,-0.001,0,0,0,0,0,0,2,2,0,0,VALID,0,0,0,0,0,1,0,0,0,0,0,0,0,0,0,0,0,0,0,0,827.78,867.19,2,0,0.105,0.105,226,8.57,0.14,0.105,18.08,LANDED,X10-F,0:/Integrated Flight Computer/aircraft/x10_f_cfg.ks (inferred preloaded)
18.47,TAKEOFF,TO_GROUND_ROLL,59.54,80,20.46,4.69,-0.3,3.48,3.81,90.06,0.121,1,0,0,0,0,0,0,0,0,0,0,0,0,0,0,90.01,0,1,0,-0.29,0,0,0.02,90,0,0,0,0,0,0,0,0,-0.018,0,0,3,0,0,0,69,0,0,0,90.01,1,-0.018,0.053,0.0006,1,0,0.0006,0,0,0,0,0,0,2,2,0,0,VALID,0,0,0,0,0,1,0,0,0,0,0,0,0,0,0,0,0,0,0,0,829.74,866.99,2,0,0.105,0.105,229,10.71,0.105,0.07,18.36,LANDED,X10-F,0:/Integrated Flight Computer/aircraft/x10_f_cfg.ks (inferred preloaded)
18.82,TAKEOFF,TO_GROUND_ROLL,62.33,80,17.67,4.47,-0.31,2.73,3.07,90.01,0.122,1,0,0,0,0,0,0,0,0,0,0,0,0,0,0,90.01,0,1,0,-0.28,0,0,0.03,90,0,0,0,0,0,0,0,0,-0.019,0,0,3,0,0,0,69,0,0,0,90.01,1,-0.019,0.008,0.0021,1,0,0.0021,0,0,0,0,0,0,2,2,0,0,VALID,0,0,0,0,0,1,0,0,0,0,0,0,0,0,0,0,0,0,0,0,832.08,866.8,2,0,0.105,0.105,232,8.57,0.14,0.105,18.71,LANDED,X10-F,0:/Integrated Flight Computer/aircraft/x10_f_cfg.ks (inferred preloaded)
19.1,TAKEOFF,TO_GROUND_ROLL,64.57,80,15.43,4.28,-0.32,2.06,2.41,89.98,0.118,1,0,0,0,0,0,0,0,0,0,0,0,0,0,0,90,0,1,0,-0.28,0,0,0.03,90,0,0,0,0,0,0,0,0,-0.019,0,0,3,0,0,0,69,0,0,0,90,1,-0.019,-0.024,0.0033,1,0,0.0033,0,0,0,0,0,0,2,2,0,0,VALID,0,0,0,0,0,1,0,0,0,0,0,0,0,0,0,0,0,0,0,0,833.88,866.71,2,0,0.105,0.105,235,10.71,0.105,0.07,18.99,LANDED,X10-F,0:/Integrated Flight Computer/aircraft/x10_f_cfg.ks (inferred preloaded)
19.45,TAKEOFF,TO_GROUND_ROLL,67.39,80,12.61,4.06,-0.33,1.3,1.63,89.94,0.113,1,0,0,0,0,0,0,0,0,0,0,0,0,0,0,90,0,1,0,-0.28,0,0,0.03,90,0,0,0,0,0,0,0,0,-0.018,0,0,3,0,0,0,69,0,0,0,90,1,-0.018,-0.063,0.005,1,0,0.005,0,0,0,0,0,0,2,2,0,0,VALID,0,0,0,0,0,1,0,0,0,0,0,0,0,0,0,0,0,0,0,0,836.05,866.66,2,0,0.105,0.105,238,8.57,0.14,0.105,19.34,LANDED,X10-F,0:/Integrated Flight Computer/aircraft/x10_f_cfg.ks (inferred preloaded)
19.73,TAKEOFF,TO_GROUND_ROLL,69.65,80,10.35,3.93,-0.35,0.82,1.14,89.91,0.111,1,0,0,0,0,0,0,0,0,0,0,0,0,0,0,90,0,1,0,-0.29,0,0,0.03,90,0,0,0,0,0,0,0,0,-0.017,0,0,3,0,0,0,69,0,0,0,90,1,-0.017,-0.091,0.0065,1,0,0.0065,0,0,0,0,0,0,2,2,0,0,VALID,0,0,0,0,0,1,0,0,0,0,0,0,0,0,0,0,0,0,0,0,837.87,866.88,2,0,0.105,0.105,241,10.71,0.105,0.07,19.62,LANDED,X10-F,0:/Integrated Flight Computer/aircraft/x10_f_cfg.ks (inferred preloaded)
20.08,TAKEOFF,TO_GROUND_ROLL,72.48,80,7.52,3.83,-0.36,0.49,0.78,89.88,0.11,1,0,0,0,0,0,0,0,0,0,0,0,0,0,0,90,0,1,0,-0.29,0,0,0.04,90,0,0,0,0,0,0,0,0,-0.014,0,0,3,0,0,0,69,0,0,0,90,1,-0.014,-0.123,0.0078,1,0,0.0078,0,0,0,0,0,0,2,2,0,0,VALID,0,0,0,0,0,1,0,0,0,0,0,0,0,0,0,0,0,0,0,0,841.03,868.23,2,0,0.105,0.105,244,8.57,0.14,0.105,19.97,LANDED,X10-F,0:/Integrated Flight Computer/aircraft/x10_f_cfg.ks (inferred preloaded)
20.36,TAKEOFF,TO_GROUND_ROLL,74.75,80,5.25,3.83,-0.37,0.46,0.73,89.86,0.108,1,0,0,0,0,0,0,0,0,0,0,0,0,0,0,90,0,1,0,-0.28,0,0,0.04,90,0,0,0,0,0,0,0,0,-0.012,0,0,3,0,0,0,69,0,0,0,90,1,-0.012,-0.144,0.0085,1,0,0.0085,0,0,0,0,0,0,2,2,0,0,VALID,0,0,0,0,0,1,0,0,0,0,0,0,0,0,0,0,0,0,0,0,844.29,870.16,2,0,0.105,0.105,247,10.71,0.105,0.07,20.25,LANDED,X10-F,0:/Integrated Flight Computer/aircraft/x10_f_cfg.ks (inferred preloaded)
20.71,TAKEOFF,TO_GROUND_ROLL,77.61,80,2.39,3.9,-0.38,0.71,0.94,89.83,0.107,1,0,0,0,0,0,0,0,0,0,0,0,0,0,0,90,0,1,0,-0.28,0,0,0.04,90,0,0,0,0,0,0,0,0,-0.008,0,0,3,0,0,0,69,0,0,0,90,1,-0.008,-0.167,0.0091,1,0,0.0091,0,0,0,0,0,0,2,2,0,0,VALID,0,0,0,0,0,1,0,0,0,0,0,0,0,0,0,0,0,0,0,0,849.24,873.58,2,0,0.105,0.105,250,8.57,0.14,0.105,20.6,LANDED,X10-F,0:/Integrated Flight Computer/aircraft/x10_f_cfg.ks (inferred preloaded)
20.99,TAKEOFF,TO_GROUND_ROLL,79.9,80,0.1,4,-0.39,1.07,1.28,89.82,0.105,1,0,0,0,0,0,0,0,0,0,0,0,0,0,0,90,0,1,0,-0.28,0,0,0.04,90,0,0,0,0,0,0,0,0,-0.005,0,0,3,0,0,0,69,0,0,0,90,1,-0.005,-0.18,0.0095,1,0,0.0095,0,0,0,0,0,0,2,2,0,0,VALID,0,0,0,0,0,1,0,0,0,0,0,0,0,0,0,0,0,0,0,0,853.89,877.09,2,0,0.105,0.105,253,10.71,0.105,0.07,20.88,LANDED,X10-F,0:/Integrated Flight Computer/aircraft/x10_f_cfg.ks (inferred preloaded)
21.34,TAKEOFF,TO_GROUND_ROLL,82.78,80,-2.78,4.16,-0.4,1.63,1.84,89.81,0.104,1,0,0,0,0,0,0,0,0,0,0,0,0,0,0,90,0,1,0,-0.28,0,0,0.05,90,0,0,0,0,0,0,0,0,0,0,0,3,0,0,0,69,0,0,0,90,1,0,-0.189,0.0093,1,0,0.0093,0,0,0,0,0,0,2,2,0,0,VALID,0,0,0,0,0,1,0,0,0,0,0,0,0,0,0,0,0,0,0,0,860.5,882.38,2,0,0.105,0.105,256,8.57,0.14,0.105,21.23,LANDED,X10-F,0:/Integrated Flight Computer/aircraft/x10_f_cfg.ks (inferred preloaded)
21.62,TAKEOFF,TO_GROUND_ROLL,85.1,80,-5.1,4.3,-0.05,2.1,2.06,89.81,0.106,1,0,0,0,0,0,0,0,0,0,0,0,0,0,0,90.01,0,1,0,-0.03,0,0,0.05,90,0,0,0,0,0,0,0,0,0.004,0,0,3,0,0,0,69,0,0,0,90.01,1,0.004,-0.193,0.0093,1,0,0.0093,0,0,0,0,0,0,2,2,0,0,VALID,0,0,0,0,0,1,0,0,0,0,0,0,0,0,0,0,0,0,0,0,866.4,887.3,2,0,0.105,0.105,259,10.71,0.105,0.07,21.51,LANDED,X10-F,0:/Integrated Flight Computer/aircraft/x10_f_cfg.ks (inferred preloaded)
21.97,TAKEOFF,TO_GROUND_ROLL,88.01,80,-8.01,4.41,-0.59,2.54,2.89,89.82,0.101,1,0,0,0,0,0,0,0,0,0,0,0,0,0,0,90.01,0,1,0,-0.38,0,0,0.05,90,0,0,0,0,0,0,0,0,0.01,0,0,3,0,0,0,69,0,0,0,90.01,1,0.01,-0.191,0.0087,1,0,0.0087,0,0,0,0,0,0,2,2,0,0,VALID,0,0,0,0,0,1,0,0,0,0,0,0,0,0,0,0,0,0,0,0,874.5,894.26,2,0,0.105,0.105,262,8.57,0.14,0.105,21.86,LANDED,X10-F,0:/Integrated Flight Computer/aircraft/x10_f_cfg.ks (inferred preloaded)
22.25,TAKEOFF,TO_GROUND_ROLL,90.36,80,-10.36,4.48,-0.3,2.73,2.89,89.82,0.099,1,0,0,0,0,0,0,0,0,0,0,0,0,0,0,90.01,0,1,0,-0.19,0,0,0.05,90,0,0,0,0,0,0,0,0,0.014,0,0,3,0,0,0,69,0,0,0,90.01,1,0.014,-0.189,0.0085,1,0,0.0085,0,0,0,0,0,0,2,2,0,0,VALID,0,0,0,0,0,1,0,0,0,0,0,0,0,0,0,0,0,0,0,0,881.53,900.44,2,0,0.105,0.105,265,10.71,0.105,0.07,22.14,LANDED,X10-F,0:/Integrated Flight Computer/aircraft/x10_f_cfg.ks (inferred preloaded)
22.6,TAKEOFF,TO_GROUND_ROLL,93.31,80,-13.31,4.47,-0.48,2.72,3.02,89.83,0.098,1,0,0,0,0,0,0,0,0,0,0,0,0,0,0,90.01,0,1,0,-0.29,0,0,0.06,90,0,0,0,0,0,0,0,0,0.019,0,0,3,0,0,0,69,0,0,0,90.01,1,0.019,-0.184,0.0082,1,0,0.0082,0,0,0,0,0,0,2,2,0,0,VALID,0,0,0,0,0,1,0,0,0,0,0,0,0,0,0,0,0,0,0,0,890.97,908.89,2,0,0.105,0.105,268,8.57,0.14,0.105,22.49,LANDED,X10-F,0:/Integrated Flight Computer/aircraft/x10_f_cfg.ks (inferred preloaded)
22.88,TAKEOFF,TO_GROUND_ROLL,95.69,80,-15.69,4.42,-0.39,2.52,2.77,89.84,0.097,1,0,0,0,0,0,0,0,0,0,0,0,0,0,0,90.02,0,1,0,-0.23,0,0,0.06,90,0,0,0,0,0,0,0,0,0.023,0,0,3,0,0,0,69,0,0,0,90.02,1,0.023,-0.181,0.008,1,0,0.008,0,0,0,0,0,0,2,2,0,0,VALID,0,0,0,0,0,1,0,0,0,0,0,0,0,0,0,0,0,0,0,0,899.01,916.19,2,0,0.105,0.105,271,10.71,0.105,0.07,22.77,LANDED,X10-F,0:/Integrated Flight Computer/aircraft/x10_f_cfg.ks (inferred preloaded)
23.23,TAKEOFF,TO_GROUND_ROLL,98.71,80,-18.71,4.29,-0.45,2.08,2.38,89.85,0.095,1,0,0,0,0,0,0,0,0,0,0,0,0,0,0,90.02,0,1,0,-0.26,0,0,0.06,90,0,0,0,0,0,0,0,0,0.028,0,0,3,0,0,0,69,0,0,0,90.02,1,0.028,-0.176,0.0077,1,0,0.0077,0,0,0,0,0,0,2,2,0,0,VALID,0,0,0,0,0,1,0,0,0,0,0,0,0,0,0,0,0,0,0,0,909.66,925.96,2,0,0.105,0.105,274,8.57,0.14,0.105,23.12,LANDED,X10-F,0:/Integrated Flight Computer/aircraft/x10_f_cfg.ks (inferred preloaded)
23.51,TAKEOFF,TO_GROUND_ROLL,101.15,80,-21.15,4.17,-0.43,1.65,1.93,89.86,0.093,1,0,0,0,0,0,0,0,0,0,0,0,0,0,0,90.03,0,1,0,-0.24,0,0,0.07,90,0,0,0,0,0,0,0,0,0.032,0,0,3,0,0,0,69,0,0,0,90.03,1,0.032,-0.171,0.0074,1,0,0.0074,0,0,0,0,0,0,2,2,0,0,VALID,0,0,0,0,0,1,0,0,0,0,0,0,0,0,0,0,0,0,0,0,918.61,934.26,2,0,0.105,0.105,277,10.71,0.105,0.07,23.4,LANDED,X10-F,0:/Integrated Flight Computer/aircraft/x10_f_cfg.ks (inferred preloaded)
23.86,TAKEOFF,TO_GROUND_ROLL,104.24,80,-24.24,4.01,-0.45,1.1,1.39,89.87,0.091,1,0,0,0,0,0,0,0,0,0,0,0,0,0,0,90.03,0,1,0,-0.25,0,0,0.07,90,0,0,0,0,0,0,0,0,0.037,0,0,3,0,0,0,69,0,0,0,90.03,1,0.037,-0.163,0.007,1,0,0.007,0,0,0,0,0,0,2,2,0,0,VALID,0,0,0,0,0,1,0,0,0,0,0,0,0,0,0,0,0,0,0,0,930.33,945.21,2,0,0.105,0.105,280,8.57,0.14,0.105,23.75,LANDED,X10-F,0:/Integrated Flight Computer/aircraft/x10_f_cfg.ks (inferred preloaded)
24.14,TAKEOFF,TO_GROUND_ROLL,106.74,80,-26.74,3.9,-0.45,0.74,1.01,89.88,0.087,1,0,0,0,0,0,0,0,0,0,0,0,0,0,0,90.03,0,1,0,-0.24,0,0,0.07,90,0,0,0,0,0,0,0,0,0.04,0,0,3,0,0,0,69,0,0,0,90.03,1,0.04,-0.155,0.0064,1,0,0.0064,0,0,0,0,0,0,2,2,0,0,VALID,0,0,0,0,0,1,0,0,0,0,0,0,0,0,0,0,0,0,0,0,940.08,954.38,2,0,0.105,0.105,283,10.71,0.105,0.07,24.03,LANDED,X10-F,0:/Integrated Flight Computer/aircraft/x10_f_cfg.ks (inferred preloaded)
24.49,TAKEOFF,TO_GROUND_ROLL,109.92,80,-29.92,3.81,-0.46,0.44,0.69,89.89,0.085,1,0,0,0,0,0,0,0,0,0,0,0,0,0,0,90.04,0,1,0,-0.24,0,0,0.08,90,0,0,0,0,0,0,0,0,0.044,0,0,3,0,0,0,69,0,0,0,90.04,1,0.044,-0.141,0.0056,1,0,0.0056,0,0,0,0,0,0,2,2,0,0,VALID,0,0,0,0,0,1,0,0,0,0,0,0,0,0,0,0,0,0,0,0,952.68,966.29,2,0,0.105,0.105,286,8.57,0.14,0.105,24.38,LANDED,X10-F,0:/Integrated Flight Computer/aircraft/x10_f_cfg.ks (inferred preloaded)
24.77,TAKEOFF,TO_GROUND_ROLL,112.49,80,-32.49,3.79,-0.46,0.35,0.58,89.91,0.084,1,0,0,0,0,0,0,0,0,0,0,0,0,0,0,90.04,0,1,0,-0.24,0,0,0.08,90,0,0,0,0,0,0,0,0,0.047,0,0,3,0,0,0,69,0,0,0,90.04,1,0.047,-0.127,0.0048,1,0,0.0048,0,0,0,0,0,0,2,2,0,0,VALID,0,0,0,0,0,1,0,0,0,0,0,0,0,0,0,0,0,0,0,0,963.04,976.12,2,0,0.105,0.105,289,10.71,0.105,0.07,24.66,LANDED,X10-F,0:/Integrated Flight Computer/aircraft/x10_f_cfg.ks (inferred preloaded)
25.12,TAKEOFF,TO_GROUND_ROLL,115.75,80,-35.75,3.81,-0.47,0.43,0.64,89.93,0.082,1,0,0,0,0,0,0,0,0,0,0,0,0,0,0,90.04,0,1,0,-0.23,0,0,0.08,90,0,0,0,0,0,0,0,0,0.05,0,0,3,0,0,0,69,0,0,0,90.04,1,0.05,-0.108,0.0038,1,0,0.0038,0,0,0,0,0,0,2,2,0,0,VALID,0,0,0,0,0,1,0,0,0,0,0,0,0,0,0,0,0,0,0,0,976.27,988.71,2,0,0.105,0.105,292,8.57,0.14,0.105,25.01,LANDED,X10-F,0:/Integrated Flight Computer/aircraft/x10_f_cfg.ks (inferred preloaded)
25.4,TAKEOFF,TO_GROUND_ROLL,118.39,80,-38.39,3.87,-0.47,0.62,0.81,89.95,0.082,1,0,0,0,0,0,0,0,0,0,0,0,0,0,0,90.04,0,1,0,-0.23,0,0,0.09,90,0,0,0,0,0,0,0,0,0.052,0,0,3,0,0,0,69,0,0,0,90.04,1,0.052,-0.091,0.0028,1,0,0.0028,0,0,0,0,0,0,2,2,0,0,VALID,0,0,0,0,0,1,0,0,0,0,0,0,0,0,0,0,0,0,0,0,987,998.96,2,0,0.105,0.105,295,10.71,0.105,0.07,25.29,LANDED,X10-F,0:/Integrated Flight Computer/aircraft/x10_f_cfg.ks (inferred preloaded)
25.75,TAKEOFF,TO_GROUND_ROLL,121.73,80,-41.73,3.96,-0.48,0.93,1.11,89.97,0.084,1,0,0,0,0,0,0,0,0,0,0,0,0,0,0,90.04,0,1,0,-0.22,0,0,0.09,90,0,0,0,0,0,0,0,0,0.054,0,0,3,0,0,0,69,0,0,0,90.04,1,0.054,-0.075,0.0023,1,0,0.0023,0,0,0,0,0,0,2,2,0,0,VALID,0,0,0,0,0,1,0,0,0,0,0,0,0,0,0,0,0,0,0,0,1000.52,1011.89,2,0,0.105,0.105,298,8.57,0.14,0.105,25.64,LANDED,X10-F,0:/Integrated Flight Computer/aircraft/x10_f_cfg.ks (inferred preloaded)
26.03,TAKEOFF,TO_GROUND_ROLL,124.44,80,-44.44,4.03,-0.48,1.17,1.35,89.98,0.088,1,0,0,0,0,0,0,0,0,0,0,0,0,0,0,90.05,0,1,0,-0.22,0,0,0.09,90,0,0,0,0,0,0,0,0,0.055,0,0,3,0,0,0,69,0,0,0,90.05,1,0.055,-0.062,0.0018,1,0,0.0018,0,0,0,0,0,0,2,2,0,0,VALID,0,0,0,0,0,1,0,0,0,0,0,0,0,0,0,0,0,0,0,0,1011.34,1022.26,2,0,0.105,0.105,301,10.71,0.105,0.07,25.92,LANDED,X10-F,0:/Integrated Flight Computer/aircraft/x10_f_cfg.ks (inferred preloaded)
26.38,TAKEOFF,TO_GROUND_ROLL,127.85,80,-47.85,4.08,-0.44,1.38,1.57,89.99,0.092,1,0,0,0,0,0,0,0,0,0,0,0,0,0,0,90.05,0,1,0,-0.2,0,0,0.1,90,0,0,0,0,0,0,0,0,0.055,0,0,3,0,0,0,69,0,0,0,90.05,1,0.055,-0.056,0.0019,1,0,0.0019,0,0,0,0,0,0,2,2,0,0,VALID,0,0,0,0,0,1,0,0,0,0,0,0,0,0,0,0,0,0,0,0,1024.79,1035.16,2,0,0.105,0.105,304,8.57,0.14,0.105,26.27,LANDED,X10-F,0:/Integrated Flight Computer/aircraft/x10_f_cfg.ks (inferred preloaded)
26.66,TAKEOFF,TO_GROUND_ROLL,130.61,80,-50.61,4.12,-0.49,1.46,1.65,90,0.099,1,0,0,0,0,0,0,0,0,0,0,0,0,0,0,90.05,0,1,0,-0.21,0,0,0.1,90,0,0,0,0,0,0,0,0,0.055,0,0,3,0,0,0,69,0,0,0,90.05,1,0.055,-0.055,0.0022,1,0,0.0022,0,0,0,0,0,0,2,2,0,0,VALID,0,0,0,0,0,1,0,0,0,0,0,0,0,0,0,0,0,0,0,0,1035.44,1045.4,2,0,0.105,0.105,307,10.71,0.105,0.07,26.55,LANDED,X10-F,0:/Integrated Flight Computer/aircraft/x10_f_cfg.ks (inferred preloaded)
27.01,TAKEOFF,TO_GROUND_ROLL,134.11,80,-54.11,4.09,-0.47,1.39,1.61,90,0.104,1,0,0,0,0,0,0,0,0,0,0,0,0,0,0,90.06,0,1,0,-0.2,0,0,0.11,90,0,0,0,0,0,0,0,0,0.055,0,0,3,0,0,0,69,0,0,0,90.06,1,0.055,-0.061,0.0029,1,0,0.0029,0,0,0,0,0,0,2,2,0,0,VALID,0,0,0,0,0,1,0,0,0,0,0,0,0,0,0,0,0,0,0,0,1049.04,1058.57,2,0,0.105,0.105,310,8.57,0.14,0.105,26.9,LANDED,X10-F,0:/Integrated Flight Computer/aircraft/x10_f_cfg.ks (inferred preloaded)
27.29,TAKEOFF,TO_GROUND_ROLL,136.94,80,-56.94,4.05,-0.49,1.23,1.44,89.99,0.107,1,0,0,0,0,0,0,0,0,0,0,0,0,0,0,90.06,0,1,0,-0.2,0,0,0.11,90,0,0,0,0,0,0,0,0,0.055,0,0,3,0,0,0,69,0,0,0,90.06,1,0.055,-0.069,0.0036,1,0,0.0036,0,0,0,0,0,0,2,2,0,0,VALID,0,0,0,0,0,1,0,0,0,0,0,0,0,0,0,0,0,0,0,0,1060.25,1069.45,2,0,0.105,0.105,313,10.71,0.105,0.07,27.18,LANDED,X10-F,0:/Integrated Flight Computer/aircraft/x10_f_cfg.ks (inferred preloaded)
27.64,TAKEOFF,TO_GROUND_ROLL,140.52,80,-60.52,3.95,-0.48,0.91,1.14,89.98,0.109,1,0,0,0,0,0,0,0,0,0,0,0,0,0,0,90.06,0,1,0,-0.2,0,0,0.12,90,0,0,0,0,0,0,0,0,0.055,0,0,3,0,0,0,69,0,0,0,90.06,1,0.055,-0.082,0.0045,1,0,0.0045,0,0,0,0,0,0,2,2,0,0,VALID,0,0,0,0,0,1,0,0,0,0,0,0,0,0,0,0,0,0,0,0,1074.69,1083.5,2,0,0.105,0.105,316,8.57,0.14,0.105,27.53,LANDED,X10-F,0:/Integrated Flight Computer/aircraft/x10_f_cfg.ks (inferred preloaded)
27.92,TAKEOFF,TO_GROUND_ROLL,143.43,80,-63.43,3.87,-0.49,0.63,0.85,89.97,0.11,1,0,0,0,0,0,0,0,0,0,0,0,0,0,0,90.06,0,1,0,-0.19,0,0,0.12,90,0,0,0,0,0,0,0,0,0.056,0,0,3,0,0,0,69,0,0,0,90.06,1,0.056,-0.095,0.0053,1,0,0.0053,0,0,0,0,0,0,2,2,0,0,VALID,0,0,0,0,0,1,0,0,0,0,0,0,0,0,0,0,0,0,0,0,1086.59,1095.12,2,0,0.105,0.105,319,10.71,0.105,0.07,27.81,LANDED,X10-F,0:/Integrated Flight Computer/aircraft/x10_f_cfg.ks (inferred preloaded)
28.27,TAKEOFF,TO_GROUND_ROLL,147.12,80,-67.12,3.77,-0.48,0.31,0.52,89.95,0.109,1,0,0,0,0,0,0,0,0,0,0,0,0,0,0,90.06,0,1,0,-0.19,0,0,0.12,90,0,0,0,0,0,0,0,0,0.058,0,0,3,0,0,0,69,0,0,0,90.06,1,0.058,-0.111,0.0062,1,0,0.0062,0,0,0,0,0,0,2,2,0,0,VALID,0,0,0,0,0,1,0,0,0,0,0,0,0,0,0,0,0,0,0,0,1101.95,1110.15,2,0,0.105,0.105,322,8.57,0.14,0.105,28.16,LANDED,X10-F,0:/Integrated Flight Computer/aircraft/x10_f_cfg.ks (inferred preloaded)
28.55,TAKEOFF,TO_GROUND_ROLL,150.12,80,-70.12,3.72,-0.48,0.11,0.31,89.94,0.108,1,0,0,0,0,0,0,0,0,0,0,0,0,0,0,90.07,0,1,0,-0.18,0,0,0.13,90,0,0,0,0,0,0,0,0,0.059,0,0,3,0,0,0,69,0,0,0,90.07,1,0.059,-0.122,0.0066,1,0,0.0066,0,0,0,0,0,0,2,2,0,0,VALID,0,0,0,0,0,1,0,0,0,0,0,0,0,0,0,0,0,0,0,0,1114.63,1122.57,2,0,0.105,0.105,325,10.71,0.105,0.07,28.44,LANDED,X10-F,0:/Integrated Flight Computer/aircraft/x10_f_cfg.ks (inferred preloaded)
28.9,TAKEOFF,TO_GROUND_ROLL,153.93,80,-73.93,3.68,-0.52,0,0.17,89.93,0.108,1,0,0,0,0,0,0,0,0,0,0,0,0,0,0,90.07,0,1,0,-0.19,0,0,0.13,90,0,0,0,0,0,0,0,0,0.062,0,0,3,0,0,0,69,0,0,0,90.07,1,0.062,-0.136,0.0071,1,0,0.0071,0,0,0,0,0,0,2,2,0,0,VALID,0,0,0,0,0,1,0,0,0,0,0,0,0,0,0,0,0,0,0,0,1130.97,1138.62,2,0,0.105,0.105,328,8.57,0.14,0.105,28.79,LANDED,X10-F,0:/Integrated Flight Computer/aircraft/x10_f_cfg.ks (inferred preloaded)
29.18,TAKEOFF,TO_GROUND_ROLL,157,80,-77,3.66,-0.5,0,0.19,89.92,0.106,1,0,0,0,0,0,0,0,0,0,0,0,0,0,0,90.07,0,1,0,-0.18,0,0,0.14,90,0,0,0,0,0,0,0,0,0.064,0,0,3,0,0,0,69,0,0,0,90.07,1,0.064,-0.143,0.0073,1,0,0.0073,0,0,0,0,0,0,2,2,0,0,VALID,0,0,0,0,0,1,0,0,0,0,0,0,0,0,0,0,0,0,0,0,1144.37,1151.79,2,0,0.105,0.105,331,10.71,0.105,0.07,29.07,LANDED,X10-F,0:/Integrated Flight Computer/aircraft/x10_f_cfg.ks (inferred preloaded)
29.53,TAKEOFF,TO_ROTATE,160.88,80,-80.88,3.68,-0.39,0.05,0.18,89.92,0.098,1,0,0,0,0,0,0,0,0,0,0,0,0,0,0,90.07,0,1,0,-0.14,0,0,0.14,90,0,0,0,0,0,0,0,0,0.068,0,0,3,0,0,0,69,0,0,0,90.07,1,0.068,-0.147,0.0071,1,0,0,0,0,0,0,0,0,2,2,0,0,VALID,0,0,0,0,0,1,0,0,0,0,0,0,0,0,0,0,0,0,0,0,1161.53,1168.71,2,0,0.105,0.105,334,8.57,0.14,0.105,29.42,LANDED,X10-F,0:/Integrated Flight Computer/aircraft/x10_f_cfg.ks (inferred preloaded)
29.88,TAKEOFF,TO_ROTATE,164.85,80,-84.85,3.7,-0.53,0.09,0.27,89.92,0.096,1,0,0,0,0,0,0,0,0,0,0,0,0,0,0,90.07,1.186,1,0,-0.18,0,0,0.15,90,0,0,0,0,0,0,0,0,0.071,0,0,3,0,0,0,69,0,0,0,90.07,1,0.071,-0.149,0.007,1,0,0.007,0,0.2225,1.186,1.096,0.08,0,2,2,0,0,VALID,0,0,0,0,0,1,0,0,0,0,0,0,0,0,0,0,0,0,0,0,1179.37,1186.32,2,0,0.105,0.105,337,8.57,0.105,0.105,29.74,LANDED,X10-F,0:/Integrated Flight Computer/aircraft/x10_f_cfg.ks (inferred preloaded)
30.23,TAKEOFF,TO_ROTATE,168.89,80,-88.89,3.84,-0.29,0.49,0.58,89.93,0.09,1,0,0,0,0,0,0,0,0,0,0,0,0,0,0,90.07,2.446,1,0,-0.1,0,0,0.15,90,0,0,0,0,0,0,0,0,0.075,0,0,3,0,0,0,69,0,0,0,90.07,1,0.075,-0.144,0.0064,1,0,0.0064,0,0.3348,2.446,1.96,0.08,0,2,2,0,0,VALID,0,0,0,0,0,1,0,0,0,0,0,0,0,0,0,0,0,0,0,0,1197.83,1204.56,2,0,0.105,0.105,340,8.57,0.14,0.105,30.09,LANDED,X10-F,0:/Integrated Flight Computer/aircraft/x10_f_cfg.ks (inferred preloaded)
30.54,TAKEOFF,TO_ROTATE,172.57,80,-92.57,4.13,-0.54,1.42,1.59,89.94,0.092,1,0,0,0,0,0,0,0,0,0,0,0,0,0,0,90.07,3.58,1,0,-0.18,0,0,0.16,90,0,0,0,0,0,0,0,0,0.078,0,0,3,0,0,0,69,0,0,0,90.07,1,0.078,-0.134,0.0055,1,0,0.0055,0,0.3608,3.58,2.16,0.08,0,2,2,0,0,VALID,0,0,0,0,0,1,0,0,0,0,0,0,0,0,0,0,0,0,0,0,1214.92,1221.47,2,0,0.105,0.105,343,9.52,0.105,0.105,30.4,LANDED,X10-F,0:/Integrated Flight Computer/aircraft/x10_f_cfg.ks (inferred preloaded)
30.89,TAKEOFF,TO_ROTATE,176.69,80,-96.69,4.59,-0.37,2.93,3.05,89.95,0.09,1,0,0,0,0,0,0,0,0,0,0,0,0,0,0,90.08,4.84,1,0,-0.12,0,0,0.17,90,0,0,0,0,0,0,0,0,0.082,0,0,3,0,0,0,69,0,0,0,90.08,1,0.082,-0.126,0.0052,1,0,0.0052,0,0.3277,4.84,1.905,0.08,0,2,2,0,0,VALID,0,0,0,0,0,1,0,0,0,0,0,0,0,0,0,0,0,0,0,0,1234.36,1240.7,2,0,0.105,0.105,346,8.57,0.14,0.105,30.75,LANDED,X10-F,0:/Integrated Flight Computer/aircraft/x10_f_cfg.ks (inferred preloaded)
31.24,TAKEOFF,TO_ROTATE,180.81,80,-100.81,5.07,-0.2,4.47,4.55,89.96,0.041,1,0,0,0,0,0,0,0,0,0,0,0,0,0,0,90.08,6.1,1,0,-0.07,0,0,0.17,90,0,0,0,0,0,0,0,0,0.084,0,0,3,0,0,0,69,0,0,0,90.08,1,0.084,-0.12,0.0052,1,0,0.0052,0,0.2914,6.1,1.626,0.08,0,2,2,0,0,VALID,0,0,0,0,0,1,0,0,0,0,0,0,0,0,0,0,0,0,0,0,1254.12,1260.25,2,0,0.105,0.105,349,8.57,0.14,0.105,31.1,LANDED,X10-F,0:/Integrated Flight Computer/aircraft/x10_f_cfg.ks (inferred preloaded)
31.59,TAKEOFF,TO_ROTATE,184.9,80,-104.9,5.58,0,5.74,5.73,89.97,0.076,1,0,0,0,0,0,0,0,0,0,0,0,0,0,0,90.07,7.36,1,0,0.01,0,0,0.18,90,0,0,0,0,0,0,0,0,0.085,0,0,3,0,0,0,69,0,0,0,90.07,1,0.085,-0.099,0.0033,1,0,0.0033,0,0.291,7.36,1.623,0.08,0,2,2,0,0,VALID,0,0,0,0,0,1,0,0,0,0,0,0,0,0,0,0,0,0,0,0,1274,1279.92,2,0,0.105,0.105,352,8.57,0.14,0.105,31.45,LANDED,X10-F,0:/Integrated Flight Computer/aircraft/x10_f_cfg.ks (inferred preloaded)
31.91,TAKEOFF,TO_ROTATE,188.54,80,-108.54,6.01,0.37,6.75,6.59,89.99,0.117,1,0,0,0,0,0,0,0,0,0,0,0,0,0,0,90,8.62,0,1,0.11,0,0,8.24,90,0.1496,0.0001,-0.9887,8.62,90,0,0,0,0,0,0,3,0,0,0,69,0,0,0,90,1,0,-0.012,0,0,3,0,0,0,8.62,1.867,0,0,2,2,0,0,VALID,0,0,0,0,0,1,0,0,0,0,0,0,0,0,0,0,0,0,0,0,1291.9,1297.61,2,0,0.105,0.105,356,12.7,0.105,0.035,31.77,FLYING,X10-F,0:/Integrated Flight Computer/aircraft/x10_f_cfg.ks (inferred preloaded)
32.22,TAKEOFF,TO_ROTATE,192.12,80,-112.12,6.5,0.92,7.27,6.96,89.99,0.091,1,0,0,0,0,0,0,0,0,0,0,0,0,0,0,90,9.754,0,1,0.27,0,0,9.38,90,0.1301,0.0001,-0.9915,9.75,90,0,0,0,0,0,0,3,0,0,0,69,0,0,0,90,1,0,-0.006,0,0,3,0,0,0,9.754,2.488,0,0,2,2,0,0,VALID,0,0,0,0,0,1,0,0,0,0,0,0,0,0,0,0,0,0,0,0,1309.69,1315.23,2,0,0.105,0.105,359,9.52,0.105,0.105,32.08,FLYING,X10-F,0:/Integrated Flight Computer/aircraft/x10_f_cfg.ks (inferred preloaded)
32.54,TAKEOFF,TO_ROTATE,195.7,80,-115.7,7.21,1.7,7.84,7.32,89.99,0.061,1,0,0,0,0,0,0,0,0,0,0,0,0,0,0,90,10.888,0,1,0.5,0,0,10.51,90,0.1106,0.0001,-0.9939,10.89,90,0,0,0,0,0,0,3,0,0,0,69,0,0,0,90,1,0,-0.007,0,0,3,0,0,0,10.888,3.052,0,0,2,2,0,0,VALID,0,0,0,0,0,1,0,0,0,0,0,0,0,0,0,0,0,0,0,0,1327.67,1333.05,2,0,0.105,0.105,362,9.52,0.105,0.105,32.4,FLYING,X10-F,0:/Integrated Flight Computer/aircraft/x10_f_cfg.ks (inferred preloaded)
32.85,TAKEOFF,TO_CLIMB,199.27,80,-119.27,8.2,2.71,8.42,7.62,89.99,0.045,0.916,0,0,0,0,0,0,0,0,0,0,0,0,0,0,90,7.438,0,1,0.78,0,0,7.73,90,0.1703,0.0001,-0.9854,7.44,90,0,0,0,0,0,0,3,0,0,0,69,0,0,0,90,1,0,-0.008,0,0,3,0,0,0,11.266,3.24,0,0,1,1,0,0,VALID,0,0,0,0,0,1,0,0,0,0,0,0,0,0,0,0,0,0,0,0,1345.06,1350.97,2,0,0.105,0.105,365,9.52,0.105,0.105,32.71,FLYING,X10-F,0:/Integrated Flight Computer/aircraft/x10_f_cfg.ks (inferred preloaded)
33.13,TAKEOFF,TO_CLIMB,202.43,80,-122.43,9.4,3.54,9.07,7.96,89.99,0.043,0.82,0,0,0,0,0,0,0,0,0,0,0,0,0,0,90,7,0,1,1,0,0,7,90,0.1779,0.0001,-0.984,7,90,0,0,0,0,0,0,3,0,0,0,69,0,0,0,90,1,0,-0.009,0,0,3,0,0,0,11.266,3.24,0,0,1,1,0,0,VALID,0,0,0,0,0,1,0,0,0,0,0,0,0,0,0,0,0,0,0,0,1349.37,1366.98,2,0,0.105,0.105,368,10.71,0.105,0.07,32.99,FLYING,X10-F,0:/Integrated Flight Computer/aircraft/x10_f_cfg.ks (inferred preloaded)
33.48,TAKEOFF,TO_CLIMB,206.28,80,-126.28,11.79,4.95,11.97,10.32,90,0.062,0.82,0,0,0,0,0,0,0,0,0,0,0,0,0,0,90,7,0,1,1.38,0,0,7,90,0.178,0.0001,-0.984,7,90,0,0,0,0,0,0,3,0,0,0,69,0,0,0,90,1,0,-0.003,0,0,3,0,0,0,11.266,3.24,0,0,1,1,0,0,VALID,0,0,0,0,0,1,0,0,0,0,0,0,0,0,0,0,0,0,0,0,1342.65,1386.65,2,0,0.105,0.105,372,11.43,0.105,0.035,33.34,FLYING,X10-F,0:/Integrated Flight Computer/aircraft/x10_f_cfg.ks (inferred preloaded)
33.76,TAKEOFF,TO_CLIMB,209.04,80,-129.04,14.53,7.56,15.21,12.92,90,0.081,0.82,0,0,0,0,0,0,0,0,0,0,0,0,0,0,90,7,0,1,2.07,0,0,7,90,0.1781,0.0001,-0.984,7,90,0,0,0,0,0,0,3,0,0,0,69,0,0,0,90,1,0,0.004,0,0,3,0,0,0,11.266,3.24,0,0,1,1,0,0,VALID,0,0,0,0,0,1,0,0,0,0,0,0,0,0,0,0,0,0,0,0,1337,1400.85,2,0,0.105,0.105,375,10.71,0.105,0.07,33.62,FLYING,X10-F,0:/Integrated Flight Computer/aircraft/x10_f_cfg.ks (inferred preloaded)
34.11,TAKEOFF,TO_CLIMB,211.65,80,-131.65,18.67,12.85,16.5,13.24,90.01,0.079,0.82,0,0,0,0,0,0,0,0,0,0,0,0,0,0,90,7,0,1,3.47,0,0,7,90,0.1782,0.0001,-0.984,7,90,0,0,0,0,0,0,3,0,0,0,69,0,0,0,90,1,0,0.005,0,0,3,0,0,0,11.266,3.24,0,0,1,1,0,0,VALID,0,0,0,0,0,1,0,0,0,0,0,0,0,0,0,0,0,0,0,0,1328.05,1414.2,2,0,0.105,0.105,379,11.43,0.105,0.035,33.97,FLYING,X10-F,0:/Integrated Flight Computer/aircraft/x10_f_cfg.ks (inferred preloaded)
34.39,TAKEOFF,TO_CLIMB,213.53,80,-133.53,22.55,15.88,15.4,11.39,90.01,0.075,0.82,0,0,0,0,0,0,0,0,0,0,0,0,0,0,90,7,0,1,4.25,0,0,7,90,0.1783,0.0001,-0.984,7,90,0,0,0,0,0,0,3,0,0,0,69,0,0,0,90,1,0,0.005,0,0,3,0,0,0,11.266,3.24,0,0,1,1,0,0,VALID,0,0,0,0,0,1,0,0,0,0,0,0,0,0,0,0,0,0,0,0,1320.77,1423.66,2,0,0.105,0.105,382,10.71,0.105,0.07,34.25,FLYING,X10-F,0:/Integrated Flight Computer/aircraft/x10_f_cfg.ks (inferred preloaded)
34.74,TAKEOFF,TO_CLIMB,216.47,80,-136.47,28.44,18.64,14.3,9.56,90.01,0.075,0.82,0,0,0,0,0,0,0,0,0,0,0,0,0,0,90,7,0,1,4.92,0,0,7,90,0.1785,0.0001,-0.9839,7,90,0,0,0,0,0,0,3,0,0,0,69,0,0,0,90,1,0,0.006,0,0,3,0,0,0,11.266,3.24,0,0,1,1,0,0,VALID,0,0,0,0,0,1,0,0,0,0,0,0,0,0,0,0,0,0,0,0,1316.28,1438.61,2,0,0.105,0.105,386,11.43,0.105,0.035,34.6,FLYING,X10-F,0:/Integrated Flight Computer/aircraft/x10_f_cfg.ks (inferred preloaded)
35.02,TAKEOFF,TO_CLIMB,219.09,80,-139.09,33.85,20.47,13.67,8.46,90,0.074,0.82,0,0,0,0,0,0,0,0,0,0,0,0,0,0,90,7,0,1,5.34,0,0,7,90,0.1786,0.0001,-0.9839,7,90,0,0,0,0,0,0,3,0,0,0,69,0,0,0,90,1,0,0.005,0,0,3,0,0,0,11.266,3.24,0,0,1,1,0,0,VALID,0,0,0,0,0,1,0,0,0,0,0,0,0,0,0,0,0,0,0,0,1315.39,1452.03,2,0,0.105,0.105,389,10.71,0.105,0.07,34.88,FLYING,X10-F,0:/Integrated Flight Computer/aircraft/x10_f_cfg.ks (inferred preloaded)
35.37,TAKEOFF,TO_CLIMB,222.59,80,-142.59,41.33,22.36,13.23,7.58,90,0.073,0.82,0,0,0,0,0,0,0,0,0,0,0,0,0,0,90,7,0,1,5.74,0,0,7,90,0.1787,0.0001,-0.9839,7,90,0,0,0,0,0,0,3,0,0,0,69,0,0,0,90,1,0,0.005,0,0,3,0,0,0,11.266,3.24,0,0,1,1,0,0,VALID,0,0,0,0,0,1,0,0,0,0,0,0,0,0,0,0,0,0,0,0,1316.8,1470.04,2,0,0.105,0.105,393,11.43,0.105,0.035,35.23,FLYING,X10-F,0:/Integrated Flight Computer/aircraft/x10_f_cfg.ks (inferred preloaded)
35.65,TAKEOFF,TO_CLIMB,225.51,80,-145.51,47.77,23.75,12.88,6.95,90,0.071,0.82,0,0,0,0,0,0,0,0,0,0,0,0,0,0,90,7,0,1,6.01,0,0,7,90,0.1788,0.0001,-0.9839,7,90,0,0,0,0,0,0,3,0,0,0,69,0,0,0,90,1,0,0.004,0,0,3,0,0,0,11.266,3.24,0,0,1,1,0,0,VALID,0,0,0,0,0,1,0,0,0,0,0,0,0,0,0,0,0,0,0,0,1319.58,1485.14,2,0,0.105,0.105,396,10.71,0.105,0.07,35.51,FLYING,X10-F,0:/Integrated Flight Computer/aircraft/x10_f_cfg.ks (inferred preloaded)
36,TAKEOFF,TO_CLIMB,229.29,80,-149.29,56.3,25.13,12.49,6.28,90,0.071,0.82,0,0,0,0,0,0,0,0,0,0,0,0,0,0,90,7,0,1,6.25,0,0,7,90,0.1789,0.0001,-0.9839,7,90,0,0,0,0,0,0,3,0,0,0,69,0,0,0,90,1,0,0.004,0,0,3,0,0,0,11.266,3.24,0,0,1,1,0,0,VALID,0,0,0,0,0,1,0,0,0,0,0,0,0,0,0,0,0,0,0,0,1324.88,1504.84,2,0,0.105,0.105,400,11.43,0.105,0.035,35.86,FLYING,X10-F,0:/Integrated Flight Computer/aircraft/x10_f_cfg.ks (inferred preloaded)
36.28,TAKEOFF,TO_CLIMB,232.41,80,-152.41,63.47,26.12,12.25,5.88,90,0.064,0.82,0,0,0,0,0,0,0,0,0,0,0,0,0,0,90,7,0,1,6.41,0,0,7,90,0.179,0.0001,-0.9838,7,90,0,0,0,0,0,0,3,0,0,0,69,0,0,0,90,1,0,0.004,0,0,3,0,0,0,11.266,3.24,0,0,1,1,0,0,VALID,0,0,0,0,0,1,0,0,0,0,0,0,0,0,0,0,0,0,0,0,1330.48,1521.23,2,0,0.105,0.105,403,10.71,0.105,0.07,36.14,FLYING,X10-F,0:/Integrated Flight Computer/aircraft/x10_f_cfg.ks (inferred preloaded)
36.63,TAKEOFF,TO_CLIMB,236.41,80,-156.41,72.75,27.26,11.79,5.25,90,0.051,0.82,0,0,0,0,0,0,0,0,0,0,0,0,0,0,90,7,0,1,6.58,0,0,7,90,0.1792,0.0001,-0.9838,7,90,0,0,0,0,0,0,3,0,0,0,69,0,0,0,90,1,0,0.003,0,0,3,0,0,0,11.266,3.24,0,0,1,1,0,0,VALID,0,0,0,0,0,1,0,0,0,0,0,0,0,0,0,0,0,0,0,0,1338.9,1542.28,2,0,0.105,0.105,407,11.43,0.105,0.035,36.49,FLYING,X10-F,0:/Integrated Flight Computer/aircraft/x10_f_cfg.ks (inferred preloaded)
36.91,TAKEOFF,TO_CLIMB,239.67,80,-159.67,80.41,27.9,11.46,4.83,90,0.033,0.82,0,0,0,0,0,0,0,0,0,0,0,0,0,0,90,7,0,1,6.64,0,0,7,90,0.1793,0.0001,-0.9838,7,90,0,0,0,0,0,0,3,0,0,0,69,0,0,0,90,1,0,0.002,0,0,3,0,0,0,11.266,3.24,0,0,1,1,0,0,VALID,0,0,0,0,0,1,0,0,0,0,0,0,0,0,0,0,0,0,0,0,1346.71,1559.62,2,0,0.105,0.105,410,10.71,0.105,0.07,36.77,FLYING,X10-F,0:/Integrated Flight Computer/aircraft/x10_f_cfg.ks (inferred preloaded)
37.26,TAKEOFF,TO_CLIMB,243.85,80,-163.85,90.27,28.68,11.27,4.55,90,0.027,0.82,0,0,0,0,0,0,0,0,0,0,0,0,0,0,90,7,0,1,6.71,0,0,7,90,0.1794,0.0001,-0.9838,7,90,0,0,0,0,0,0,3,0,0,0,69,0,0,0,90,1,0,0.001,0,0,3,0,0,0,11.266,3.24,0,0,1,1,0,0,VALID,0,0,0,0,0,1,0,0,0,0,0,0,0,0,0,0,0,0,0,0,1357.75,1581.92,2,0,0.105,0.105,414,11.43,0.105,0.035,37.12,FLYING,X10-F,0:/Integrated Flight Computer/aircraft/x10_f_cfg.ks (inferred preloaded)
37.54,TAKEOFF,TO_CLIMB,247.24,80,-167.24,98.33,29.26,10.99,4.23,90,0.024,0.82,0,0,0,0,0,0,0,0,0,0,0,0,0,0,90,7,0,1,6.75,0,0,7,90,0.1795,0.0001,-0.9838,7,90,0,0,0,0,0,0,3,0,0,0,69,0,0,0,90,1,0,0.001,0,0,3,0,0,0,11.266,3.24,0,0,1,1,0,0,VALID,0,0,0,0,0,1,0,0,0,0,0,0,0,0,0,0,0,0,0,0,1367.44,1600.14,2,0,0.105,0.105,417,10.71,0.105,0.07,37.4,FLYING,X10-F,0:/Integrated Flight Computer/aircraft/x10_f_cfg.ks (inferred preloaded)
37.89,TAKEOFF,TO_CLIMB,251.56,80,-171.56,108.64,29.9,10.84,4.03,90,0.025,0.82,0,0,0,0,0,0,0,0,0,0,0,0,0,0,90,7,0,1,6.78,0,0,7,90,0.1797,0.0001,-0.9837,7,90,0,0,0,0,0,0,3,0,0,0,69,0,0,0,90,1,0,0,0,0,3,0,0,0,11.266,3.24,0,0,1,1,0,0,VALID,0,0,0,0,0,1,0,0,0,0,0,0,0,0,0,0,0,0,0,0,1380.65,1623.5,2,0,0.105,0.105,421,11.43,0.105,0.035,37.75,FLYING,X10-F,0:/Integrated Flight Computer/aircraft/x10_f_cfg.ks (inferred preloaded)
38.17,TAKEOFF,TO_CLIMB,255.08,80,-175.08,117.03,30.36,10.69,3.85,90,0.024,0.82,0,0,0,0,0,0,0,0,0,0,0,0,0,0,90,7,0,1,6.79,0,0,7,90,0.1798,0.0001,-0.9837,7,90,0,0,0,0,0,0,3,0,0,0,69,0,0,0,90,1,0,0,0,0,3,0,0,0,11.266,3.24,0,0,0,0,0,0,VALID,0,0,0,0,0,1,0,0,0,0,0,0,0,0,0,0,0,0,0,0,1392,1642.6,2,0,0.105,0.105,424,10.71,0.105,0.07,38.03,FLYING,X10-F,0:/Integrated Flight Computer/aircraft/x10_f_cfg.ks (inferred preloaded)
38.52,TAKEOFF,TO_CLIMB,259.57,80,-179.57,127.73,30.91,10.63,3.77,90,0.026,0.82,0,0,0,0,0,0,0,0,0,0,0,0,0,0,90,7,0,1,6.79,0,0,7,90,0.1799,0.0001,-0.9837,7,90,0,0,0,0,0,0,3,0,0,0,69,0,0,0,90,1,0,0,0,0,3,0,0,0,11.266,3.24,0,0,0,0,0,0,VALID,0,0,0,0,0,1,0,0,0,0,0,0,0,0,0,0,0,0,0,0,1407.23,1667.15,2,0,0.105,0.105,428,11.43,0.105,0.035,38.38,FLYING,X10-F,0:/Integrated Flight Computer/aircraft/x10_f_cfg.ks (inferred preloaded)
38.8,TAKEOFF,TO_CLIMB,263.24,80,-183.24,136.42,31.35,10.62,3.76,90,0.025,0.82,0,0,0,0,0,0,0,0,0,0,0,0,0,0,90,7,0,1,6.79,0,0,7,90,0.18,0.0001,-0.9837,7,90,0,0,0,0,0,0,3,0,0,0,69,0,0,0,90,1,0,-0.001,0,0,3,0,0,0,11.266,3.24,0,0,0,0,0,0,VALID,0,0,0,0,0,1,0,0,0,0,0,0,0,0,0,0,0,0,0,0,1420.25,1687.35,2,0,0.105,0.105,431,10.71,0.105,0.07,38.66,FLYING,X10-F,0:/Integrated Flight Computer/aircraft/x10_f_cfg.ks (inferred preloaded)
39.15,TAKEOFF,TO_CLIMB,267.94,80,-187.94,147.45,31.9,10.63,3.75,90,0.026,0.82,0,0,0,0,0,0,0,0,0,0,0,0,0,0,90,7,0,1,6.79,0,0,7,90,0.1802,0.0001,-0.9836,7,90,0,0,0,0,0,0,3,0,0,0,69,0,0,0,90,1,0,-0.001,0,0,3,0,0,0,11.266,3.24,0,0,0,0,0,0,VALID,0,0,0,0,0,1,0,0,0,0,0,0,0,0,0,0,0,0,0,0,1437.5,1713.31,2,0,0.105,0.105,435,11.43,0.105,0.035,39.01,FLYING,X10-F,0:/Integrated Flight Computer/aircraft/x10_f_cfg.ks (inferred preloaded)
39.43,TAKEOFF,TO_CLIMB,271.78,80,-191.78,156.4,32.34,10.64,3.75,90,0.023,0.82,0,0,0,0,0,0,0,0,0,0,0,0,0,0,90,7,0,1,6.79,0,0,7,90,0.1803,0.0001,-0.9836,7,90,0,0,0,0,0,0,3,0,0,0,69,0,0,0,90,1,0,-0.001,0,0,3,0,0,0,11.266,3.24,0,0,0,0,0,0,VALID,0,0,0,0,0,1,0,0,0,0,0,0,0,0,0,0,0,0,0,0,1452.08,1734.65,2,0,0.105,0.105,438,10.71,0.105,0.07,39.29,FLYING,X10-F,0:/Integrated Flight Computer/aircraft/x10_f_cfg.ks (inferred preloaded)
39.78,TAKEOFF,TO_CLIMB,276.7,80,-196.7,167.73,32.88,10.64,3.76,90,0.022,0.82,0,0,0,0,0,0,0,0,0,0,0,0,0,0,90,7,0,1,6.78,0,0,7,90,0.1805,0.0001,-0.9836,7,90,0,0,0,0,0,0,3,0,0,0,69,0,0,0,90,1,0,-0.001,0,0,3,0,0,0,11.266,3.24,0,0,0,0,0,0,VALID,0,0,0,0,0,1,0,0,0,0,0,0,0,0,0,0,0,0,0,0,1471.22,1762.05,2,0,0.105,0.105,442,11.43,0.105,0.035,39.64,FLYING,X10-F,0:/Integrated Flight Computer/aircraft/x10_f_cfg.ks (inferred preloaded)
40.06,TAKEOFF,TO_CLIMB,280.72,80,-200.72,176.98,33.28,10.7,3.82,90,0.023,0.82,0,0,0,0,0,0,0,0,0,0,0,0,0,0,90,7,0,1,6.76,0,0,7,90,0.1806,0.0001,-0.9836,7,90,0,0,0,0,0,0,3,0,0,0,69,0,0,0,90,1,0,-0.001,0,0,3,0,0,0,11.266,3.24,0,0,0,0,0,0,VALID,0,0,0,0,0,1,0,0,0,0,0,0,0,0,0,0,0,0,0,0,1487.29,1784.59,2,0,0.105,0.105,445,10.71,0.105,0.07,39.92,FLYING,X10-F,0:/Integrated Flight Computer/aircraft/x10_f_cfg.ks (inferred preloaded)
40.41,TAKEOFF,TO_CLIMB,285.86,80,-205.86,188.61,33.89,10.72,3.83,90,0.023,0.82,0,0,0,0,0,0,0,0,0,0,0,0,0,0,90,7,0,1,6.76,0,0,7,90,0.1808,0.0001,-0.9835,7,90,0,0,0,0,0,0,3,0,0,0,69,0,0,0,90,1,0,-0.001,0,0,3,0,0,0,11.266,3.24,0,0,0,0,0,0,VALID,0,0,0,0,0,1,0,0,0,0,0,0,0,0,0,0,0,0,0,0,1508.27,1813.5,2,0,0.105,0.105,449,11.43,0.105,0.035,40.27,FLYING,X10-F,0:/Integrated Flight Computer/aircraft/x10_f_cfg.ks (inferred preloaded)
40.69,TAKEOFF,TO_CLIMB,290.07,80,-210.07,198.06,34.34,10.73,3.84,90,0.014,0.82,0,0,0,0,0,0,0,0,0,0,0,0,0,0,90,7,0,1,6.75,0,0,7,90,0.1809,0.0001,-0.9835,7,90,0,0,0,0,0,0,3,0,0,0,69,0,0,0,90,1,0,-0.002,0,0,3,0,0,0,11.266,3.24,0,0,0,0,0,0,VALID,0,0,0,0,0,1,0,0,0,0,0,0,0,0,0,0,0,0,0,0,1525.74,1837.24,2,0,0.105,0.105,452,10.71,0.105,0.07,40.55,FLYING,X10-F,0:/Integrated Flight Computer/aircraft/x10_f_cfg.ks (inferred preloaded)
41.04,TAKEOFF,TO_CLIMB,295.45,80,-215.45,210.08,34.95,10.75,3.85,90,0.019,0.82,0,0,0,0,0,0,0,0,0,0,0,0,0,0,90,7,0,1,6.75,0,0,7,90,0.181,0.0001,-0.9835,7,90,0,0,0,0,0,0,3,0,0,0,69,0,0,0,90,1,0,-0.001,0,0,3,0,0,0,11.266,3.24,0,0,0,0,0,0,VALID,0,0,0,0,0,1,0,0,0,0,0,0,0,0,0,0,0,0,0,0,1548.46,1867.71,2,0,0.105,0.105,456,11.43,0.105,0.035,40.9,FLYING,X10-F,0:/Integrated Flight Computer/aircraft/x10_f_cfg.ks (inferred preloaded)
41.32,TAKEOFF,TO_CLIMB,299.85,80,-219.85,219.82,35.43,10.76,3.86,90,0.018,0.82,0,0,0,0,0,0,0,0,0,0,0,0,0,0,90,7,0,1,6.74,0,0,7,90,0.1812,0.0001,-0.9835,7,90,0,0,0,0,0,0,3,0,0,0,69,0,0,0,90,1,0,-0.001,0,0,3,0,0,0,11.266,3.24,0,0,0,0,0,0,VALID,0,0,0,0,0,1,0,0,0,0,0,0,0,0,0,0,0,0,0,0,1567.31,1892.71,2,0,0.105,0.105,459,10.71,0.105,0.07,41.18,FLYING,X10-F,0:/Integrated Flight Computer/aircraft/x10_f_cfg.ks (inferred preloaded)
41.67,TAKEOFF,TO_CLIMB,305.47,80,-225.47,232.19,36.12,10.77,3.85,90,0.024,0.82,0,0,0,0,0,0,0,0,0,0,0,0,0,0,90,7,0,1,6.74,0,0,7,90,0.1813,0.0001,-0.9834,7,90,0,0,0,0,0,0,3,0,0,0,69,0,0,0,90,1,0,-0.001,0,0,3,0,0,0,11.266,3.24,0,0,0,0,0,0,VALID,0,0,0,0,0,1,0,0,0,0,0,0,0,0,0,0,0,0,0,0,1591.68,1924.71,2,0,0.105,0.105,463,11.43,0.105,0.035,41.53,FLYING,X10-F,0:/Integrated Flight Computer/aircraft/x10_f_cfg.ks (inferred preloaded)
41.95,TAKEOFF,TO_CLIMB,310.05,80,-230.05,242.24,36.73,10.72,3.78,90,0.026,0.82,0,0,0,0,0,0,0,0,0,0,0,0,0,0,90,7,0,1,6.76,0,0,7,90,0.1815,0.0001,-0.9834,7,90,0,0,0,0,0,0,3,0,0,0,69,0,0,0,90,1,0,-0.001,0,0,3,0,0,0,11.266,3.24,0,0,0,0,0,0,VALID,0,0,0,0,0,1,0,0,0,0,0,0,0,0,0,0,0,0,0,0,1611.76,1950.86,2,0,0.105,0.105,466,10.71,0.105,0.07,41.81,FLYING,X10-F,0:/Integrated Flight Computer/aircraft/x10_f_cfg.ks (inferred preloaded)
42.3,TAKEOFF,TO_CLIMB,315.89,80,-235.89,255,37.51,10.66,3.69,90,0.017,0.82,0,0,0,0,0,0,0,0,0,0,0,0,0,0,90,7,0,1,6.77,0,0,7,90,0.1817,0.0001,-0.9834,7,90,0,0,0,0,0,0,3,0,0,0,69,0,0,0,90,1,0,-0.001,0,0,3,0,0,0,11.266,3.24,0,0,0,0,0,0,VALID,0,0,0,0,0,1,0,0,0,0,0,0,0,0,0,0,0,0,0,0,1637.57,1984.22,2,0,0.105,0.105,470,11.43,0.105,0.035,42.16,FLYING,X10-F,0:/Integrated Flight Computer/aircraft/x10_f_cfg.ks (inferred preloaded)
42.58,TAKEOFF,TO_CLIMB,320.65,80,-240.65,265.37,38.22,10.59,3.58,90,0.019,0.82,0,0,0,0,0,0,0,0,0,0,0,0,0,0,90,7,0,1,6.8,0,0,7,90,0.1818,0.0001,-0.9833,7,90,0,0,0,0,0,0,3,0,0,0,69,0,0,0,90,1,0,-0.001,0,0,3,0,0,0,11.266,3.24,0,0,0,0,0,0,VALID,0,0,0,0,0,1,0,0,0,0,0,0,0,0,0,0,0,0,0,0,1658.77,2011.45,2,0,0.105,0.105,473,10.71,0.105,0.07,42.44,FLYING,X10-F,0:/Integrated Flight Computer/aircraft/x10_f_cfg.ks (inferred preloaded)
42.93,TAKEOFF,TO_CLIMB,326.71,80,-246.71,278.61,39.01,10.52,3.48,90,0.022,0.82,0,0,0,0,0,0,0,0,0,0,0,0,0,0,90,7,0,1,6.81,0,0,7,90,0.182,0.0001,-0.9833,7,90,0,0,0,0,0,0,3,0,0,0,69,0,0,0,90,1,0,-0.001,0,0,3,0,0,0,11.266,3.24,0,0,0,0,0,0,VALID,0,0,0,0,0,1,0,0,0,0,0,0,0,0,0,0,0,0,0,0,1685.94,2046.17,2,0,0.105,0.105,477,11.43,0.105,0.035,42.79,FLYING,X10-F,0:/Integrated Flight Computer/aircraft/x10_f_cfg.ks (inferred preloaded)
43.21,TAKEOFF,TO_CLIMB,331.65,80,-251.65,289.45,39.77,10.45,3.37,90,0.023,0.82,0,0,0,0,0,0,0,0,0,0,0,0,0,0,90,7,0,1,6.84,0,0,7,90,0.1821,0.0001,-0.9833,7,90,0,0,0,0,0,0,3,0,0,0,69,0,0,0,90,1,0,-0.001,0,0,3,0,0,0,11.266,3.24,0,0,0,0,0,0,VALID,0,0,0,0,0,1,0,0,0,0,0,0,0,0,0,0,0,0,0,0,1708.22,2074.48,2,0,0.105,0.105,480,10.72,0.105,0.07,43.07,FLYING,X10-F,0:/Integrated Flight Computer/aircraft/x10_f_cfg.ks (inferred preloaded)
43.57,CRUISE,,338.48,80,-258.48,310.37,40.75,10.29,3.15,90.01,0.02,0.82,0,0,0,0,0,0,0,0,0,0,0,0,0,0,90,7,0,1,6.86,0,0,7,90,0.1823,0.0001,-0.9832,7,90,0,0,0,0,0,0,3,0,0,0,69,0,0,0,90,1,0,0.007,0,0,3,0,0,0,11.266,3.24,0,0,0,0,0,0,VALID,0,0,0,0,0,1,0,0,0,0,0,0,0,0,0,0,0,0,0,0,1739.35,2113.59,2,0,0.089,0.089,484,11.16,0.105,0.034,0,FLYING,X10-F,0:/Integrated Flight Computer/aircraft/x10_f_cfg.ks (inferred preloaded)
