t_s,phase,subphase,ias_ms,vapp_ms,spd_err_ms,agl_m,gear_h_m,vs_ms,pitch_deg,aoa_deg,hdg_deg,bank_deg,thr_cmd,thr_cur,thr_intg,at_gain,at_tau_s,at_a_up,at_a_dn,at_kp_thr,at_ki_spd,at_thr_slew,as_cmd_deg,as_cap_deg,as_raw_deg,as_spd_err_ms,as_active,aa_hdg_cmd_deg,aa_fpa_cmd_deg,aa_fbw,aa_dir,actual_fpa_deg,ftf_hdg_err_deg,ftf_fix_idx,kos_steer_pit_deg,kos_steer_hdg_deg,aa_dir_vx,aa_dir_vy,aa_dir_vz,aa_dir_pitch_deg,aa_dir_hdg_deg,ils_loc_m,ils_gs_m,ils_dist_km,loc_corr_deg,gs_corr_deg,gs_latched,active_gs_ang_deg,ils_intercept_alt_m,d_gs_ms,fpa_preclamped_deg,gs_nom_alt_m,flare_fpa_cmd,flare_tgt_vs,flare_frac,flare_round_blend_h,flare_round_blend_ttg,flare_round_blend,flare_mode,flare_auth_limited,flare_auth_reason,flare_vs_err,flare_fpa_err,flare_pitch_err,flare_theta_cmd_raw,flare_theta_cmd_clamped,flare_theta_clamp_active,flare_aoa_clamp_active,flare_pitch_in_cmd,elev_defl_avg_deg,elev_defl_max_deg,elev_defl_n,flare_ctrl_h_m,flare_req_up_a,flare_thr_floor,flare_tecs_et_err,flare_tecs_eb_err,flare_tecs_h_ref,flare_tecs_v_ref,flare_gamma_ref,flare_gamma_eb_term,flare_gamma_unsat,steer_hdg_deg,steer_blend,ro_loc_corr_deg,ro_hdg_err_deg,ro_yaw_tgt,ro_yaw_scale,ro_yaw_gate,yaw_cmd,roll_cmd,pitch_cmd,ro_pitch_tgt_deg,ro_pitch_err_deg,ro_pitch_ff,ro_roll_assist,flaps_cur,flaps_tgt,asc_j_ab,asc_j_rk,asc_validity,asc_q_pa,asc_q_raw_pa,asc_mach,asc_apo_m,asc_drag_n,asc_w_prop,asc_edot_aero,asc_edot_orb,asc_pitch_bias,asc_blend,asc_spooling,asc_ab_thr_ratio,asc_ab_t_now,asc_ab_t_avail,asc_ab_ign_on,asc_ab_flameouts,asc_rk_t_now,asc_rk_t_avail,asc_rk_ign_on,asc_rk_flameouts,ship_thrust,ship_avail_thrust,ship_ign_on,ship_flameouts,ifc_raw_dt_s,ifc_dt_s,ifc_loop_n,ifc_hz_est,ifc_raw_dt_max_s,ifc_raw_dt_min_s,phase_el_s,status,craft_name,cfg_file
4.58,TAKEOFF,TO_PREFLIGHT,0,80,80,3.61,2.6,0,0,12.87,90.93,0.047,0.08,0,0,0,0,0,0,0,0,0,0,0,0,0,0,90.4,0,1,0,-0.02,0,0,0,90,0,0,0,0,0,0,0,0,0,0,0,3,0,0,0,69,0,0,0,0,0,0,,0,NONE,0,0,0,0,0,0,0,0,0,0,0,2.6,0,0,0,0,0,0,0,0,0,90.4,1,0,0.529,0,0,1,0,0,0,0,0,0,0,0,1,0,0,VALID,0,0,0,0,0,1,0,0,0,0,0,0,0,0,0,0,0,0,0,0,0,483.55,2,0,0.2,0.2,1,0.22,0.2,0.02,4.38,PRELAUNCH,CF1-J,0:/Integrated Flight Computer/aircraft/cf1_j_cfg.ks (inferred preloaded)
4.86,TAKEOFF,TO_PREFLIGHT,0,80,80,3.61,2.6,0,0,-9.34,91.02,0.047,0.36,0,0,0,0,0,0,0,0,0,0,0,0,0,0,90.4,0,1,0,0,0,0,0,90,0,0,0,0,0,0,0,0,0,0,0,3,0,0,0,69,0,0,0,0,0,0,,0,NONE,0,0,0,0,0,0,0,0,0,0,0,2.6,0,0,0,0,0,0,0,0,0,90.4,1,0,0.529,0,0,1,0,0,0,0,0,0,0,1,1,0,0,VALID,0,0,0,0,0,1,0,0,0,0,0,0,0,0,0,0,0,0,0,0,1.57,483.55,2,0,0.06,0.06,5,14.29,4.46,0.06,4.68,PRELAUNCH,CF1-J,0:/Integrated Flight Computer/aircraft/cf1_j_cfg.ks (inferred preloaded)
5.16,TAKEOFF,TO_PREFLIGHT,0,80,80,3.61,2.6,0,0,-9.75,91.02,0.047,0.48,0,0,0,0,0,0,0,0,0,0,0,0,0,0,90.4,0,1,0,0.02,0,0,0,90,0,0,0,0,0,0,0,0,0,0,0,3,0,0,0,69,0,0,0,0,0,0,,0,NONE,0,0,0,0,0,0,0,0,0,0,0,2.6,0,0,0,0,0,0,0,0,0,90.4,1,0,0.529,0,0,1,0,0,0,0,0,0,0,1,1,0,0,VALID,0,0,0,0,0,1,0,0,0,0,0,0,0,0,0,0,0,0,0,0,4.91,483.55,2,0,0.06,0.06,10,16.67,0.08,0.04,4.98,PRELAUNCH,CF1-J,0:/Integrated Flight Computer/aircraft/cf1_j_cfg.ks (inferred preloaded)
5.42,TAKEOFF,TO_PREFLIGHT,0.01,80,79.99,3.61,2.6,0,-0.01,-0.94,91.03,0.048,0.584,0,0,0,0,0,0,0,0,0,0,0,0,0,0,90.4,0,1,0,0.01,0,0,0,90,0,0,0,0,0,0,0,0,0,0,0,3,0,0,0,69,0,0,0,0,0,0,,0,NONE,0,0,0,0,0,0,0,0,0,0,0,2.6,0,0,0,0,0,0,0,0,0,90.4,1,0,0.529,0,0,1,0,0,0,0,0,0,0,1,1,0,0,VALID,0,0,0,0,0,1,0,0,0,0,0,0,0,0,0,0,0,0,0,0,8.59,483.54,2,0,0.04,0.04,14,15.38,0.08,0.04,5.24,PRELAUNCH,CF1-J,0:/Integrated Flight Computer/aircraft/cf1_j_cfg.ks (inferred preloaded)
5.7,TAKEOFF,TO_PREFLIGHT,0.01,80,79.99,3.61,2.6,0,-0.01,-1.31,91.03,0.048,0.696,0,0,0,0,0,0,0,0,0,0,0,0,0,0,90.4,0,1,0,0.01,0,0,0,90,0,0,0,0,0,0,0,0,0,0,0,3,0,0,0,69,0,0,0,0,0,0,,0,NONE,0,0,0,0,0,0,0,0,0,0,0,2.6,0,0,0,0,0,0,0,0,0,90.4,1,0,0.529,0,0,1,0,0,0,0,0,0,0,1,1,0,0,VALID,0,0,0,0,0,1,0,0,0,0,0,0,0,0,0,0,0,0,0,0,13.37,483.54,2,0,0.06,0.06,18,14.29,0.08,0.04,5.52,PRELAUNCH,CF1-J,0:/Integrated Flight Computer/aircraft/cf1_j_cfg.ks (inferred preloaded)
6,TAKEOFF,TO_PREFLIGHT,0.01,80,79.99,3.61,2.6,0,-0.02,-1.14,91.04,0.048,0.816,0,0,0,0,0,0,0,0,0,0,0,0,0,0,90.4,0,1,0,0.01,0,0,0,90,0,0,0,0,0,0,0,0,0,0,0,3,0,0,0,69,0,0,0,0,0,0,,0,NONE,0,0,0,0,0,0,0,0,0,0,0,2.6,0,0,0,0,0,0,0,0,0,90.4,1,0,0.529,0,0,1,0,0,0,0,0,0,0,1,1,0,0,VALID,0,0,0,0,0,1,0,0,0,0,0,0,0,0,0,0,0,0,0,0,19.41,483.54,2,0,0.06,0.06,23,16.67,0.08,0.04,5.82,PRELAUNCH,CF1-J,0:/Integrated Flight Computer/aircraft/cf1_j_cfg.ks (inferred preloaded)
6.28,TAKEOFF,TO_PREFLIGHT,0.02,80,79.98,3.61,2.6,0,-0.02,-0.02,91.04,0.048,0.928,0,0,0,0,0,0,0,0,0,0,0,0,0,0,90.4,0,1,0,0.01,0,0,0,90,0,0,0,0,0,0,0,0,0,0,0,3,0,0,0,69,0,0,0,0,0,0,,0,NONE,0,0,0,0,0,0,0,0,0,0,0,2.6,0,0,0,0,0,0,0,0,0,90.4,1,0,0.529,0,0,1,0,0,0,0,0,0,0,1,1,0,0,VALID,0,0,0,0,0,1,0,0,0,0,0,0,0,0,0,0,0,0,0,0,25.88,483.54,2,0,0.04,0.04,28,17.86,0.08,0.04,6.1,PRELAUNCH,CF1-J,0:/Integrated Flight Computer/aircraft/cf1_j_cfg.ks (inferred preloaded)
6.54,TAKEOFF,TO_PREFLIGHT,0.02,80,79.98,3.61,2.6,0,-0.03,-1.13,91.05,0.047,1,0,0,0,0,0,0,0,0,0,0,0,0,0,0,90.4,0,1,0,0.02,0,0,0,90,0,0,0,0,0,0,0,0,0,0,0,3,0,0,0,69,0,0,0,0,0,0,,0,NONE,0,0,0,0,0,0,0,0,0,0,0,2.6,0,0,0,0,0,0,0,0,0,90.4,1,0,0.529,0,0,1,0,0,0,0,0,0,0,1,1,0,0,VALID,0,0,0,0,0,1,0,0,0,0,0,0,0,0,0,0,0,0,0,0,32.61,483.54,2,0,0.08,0.08,32,15.38,0.08,0.04,6.36,PRELAUNCH,CF1-J,0:/Integrated Flight Computer/aircraft/cf1_j_cfg.ks (inferred preloaded)
6.82,TAKEOFF,TO_PREFLIGHT,0.03,80,79.97,3.61,2.6,0,-0.04,-0.83,91.05,0.048,1,0,0,0,0,0,0,0,0,0,0,0,0,0,0,90.4,0,1,0,0.03,0,0,0,90,0,0,0,0,0,0,0,0,0,0,0,3,0,0,0,69,0,0,0,0,0,0,,0,NONE,0,0,0,0,0,0,0,0,0,0,0,2.6,0,0,0,0,0,0,0,0,0,90.4,1,0,0.529,0,0,1,0,0,0,0,0,0,0,1,1,0,0,VALID,0,0,0,0,0,1,0,0,0,0,0,0,0,0,0,0,0,0,0,0,40.13,483.54,2,0,0.08,0.08,36,14.29,0.08,0.06,6.64,PRELAUNCH,CF1-J,0:/Integrated Flight Computer/aircraft/cf1_j_cfg.ks (inferred preloaded)
7.1,TAKEOFF,TO_GROUND_ROLL,0.03,80,79.97,3.61,2.6,0,-0.05,0.1,91.06,0.048,1,0,0,0,0,0,0,0,0,0,0,0,0,0,0,90.4,0,1,0,0.01,0,0,0,90,0,0,0,0,0,0,0,0,0,0,0,3,0,0,0,69,0,0,0,0,0,0,,0,NONE,0,0,0,0,0,0,0,0,0,0,0,2.6,0,0,0,0,0,0,0,0,0,90.4,1,0,0.529,0,0,1,0,0,0,0,0,0,0,1,1,0,0,VALID,0,0,0,0,0,1,0,0,0,0,0,0,0,0,0,0,0,0,0,0,47.52,483.54,2,0,0.08,0.08,40,14.29,0.08,0.06,6.92,PRELAUNCH,CF1-J,0:/Integrated Flight Computer/aircraft/cf1_j_cfg.ks (inferred preloaded)
7.38,TAKEOFF,TO_GROUND_ROLL,0.12,80,79.88,3.62,2.6,-0.01,0.02,2.54,91.06,0.048,1,0,0,0,0,0,0,0,0,0,0,0,0,0,0,90.4,0,1,0,-0.57,0,0,0,90,0,0,0,0,0,0,0,0,0,0,0,3,0,0,0,69,0,0,0,0,0,0,,0,NONE,0,0,0,0,0,0,0,0,0,0,0,2.6,0,0,0,0,0,0,0,0,0,90.4,1,0,0.66,0,0,3,0,0,0,0,0,0,0,1,1,0,0,VALID,0,0,0,0,0,1,0,0,0,0,0,0,0,0,0,0,0,0,0,0,54.78,483.52,2,0,0.08,0.08,44,14.29,0.08,0.06,7.2,PRELAUNCH,CF1-J,0:/Integrated Flight Computer/aircraft/cf1_j_cfg.ks (inferred preloaded)
7.66,TAKEOFF,TO_GROUND_ROLL,0.37,80,79.63,3.62,2.61,0.01,0.04,-0.51,91.06,0.047,1,0,0,0,0,0,0,0,0,0,0,0,0,0,0,90.4,0,1,0,0.31,0,0,0,90,0,0,0,0,0,0,0,0,0,0,0,3,0,0,0,69,0,0,0,0,0,0,,0,NONE,0,0,0,0,0,0,0,0,0,0,0,2.61,0,0,0,0,0,0,0,0,0,90.4,1,0,0.658,0,0,3,0,0,0,0,0,0,0,1,1,0,0,VALID,0,0,0,0,0,1,0,0,0,0,0,0,0,0,0,0,0,0,0,0,61.92,483.46,2,0,0.08,0.08,48,14.29,0.08,0.06,7.48,PRELAUNCH,CF1-J,0:/Integrated Flight Computer/aircraft/cf1_j_cfg.ks (inferred preloaded)
7.94,TAKEOFF,TO_GROUND_ROLL,0.68,80,79.32,3.61,2.6,0,0,0.21,91.05,0.047,1,0,0,0,0,0,0,0,0,0,0,0,0,0,0,90.4,0,1,0,-0.21,0,0,0,90,0,0,0,0,0,0,0,0,0,0,0,3,0,0,0,69,0,0,0,0,0,0,,0,NONE,0,0,0,0,0,0,0,0,0,0,0,2.6,0,0,0,0,0,0,0,0,0,90.4,1,0,0.651,0,0,3,0,0,0,0,0,0,0,1,1,0,0,VALID,0,0,0,0,0,1,0,0,0,0,0,0,0,0,0,0,0,0,0,0,68.94,483.39,2,0,0.08,0.08,52,14.29,0.08,0.06,7.76,PRELAUNCH,CF1-J,0:/Integrated Flight Computer/aircraft/cf1_j_cfg.ks (inferred preloaded)
8.22,TAKEOFF,TO_GROUND_ROLL,1.02,80,78.98,3.62,2.61,0,0.04,0.27,91.05,0.047,1,0,0,0,0,0,0,0,0,0,0,0,0,0,0,90.41,0,1,0,-0.26,0,0,0,90,0,0,0,0,0,0,0,0,0,0,0,3,0,0,0,69,0,0,0,0,0,0,,0,NONE,0,0,0,0,0,0,0,0,0,0,0,2.61,0,0,0,0,0,0,0,0,0,90.41,1,0,0.638,0,0,3,0,0,0,0,0,0,0,1,1,0,0,VALID,0,0,0,0,0,1,0,0,0,0,0,0,0,0,0,0,0,0,0,0,75.84,483.32,2,0,0.08,0.08,56,14.29,0.08,0.06,8.04,PRELAUNCH,CF1-J,0:/Integrated Flight Computer/aircraft/cf1_j_cfg.ks (inferred preloaded)
8.5,TAKEOFF,TO_GROUND_ROLL,1.39,80,78.61,3.62,2.6,0,0.02,0.05,91.03,0.048,1,0,0,0,0,0,0,0,0,0,0,0,0,0,0,90.41,0,1,0,-0.05,0,0,0,90,0,0,0,0,0,0,0,0,0,0,0,3,0,0,0,69,0,0,0,0,0,0,,0,NONE,0,0,0,0,0,0,0,0,0,0,0,2.6,0,0,0,0,0,0,0,0,0,90.41,1,0,0.621,0,0,3,0,0,0,0,0,0,0,1,1,0,0,VALID,0,0,0,0,0,1,0,0,0,0,0,0,0,0,0,0,0,0,0,0,82.62,483.23,2,0,0.08,0.08,60,14.29,0.08,0.06,8.32,PRELAUNCH,CF1-J,0:/Integrated Flight Computer/aircraft/cf1_j_cfg.ks (inferred preloaded)
8.78,TAKEOFF,TO_GROUND_ROLL,1.8,80,78.2,3.62,2.6,-0.01,0.03,0.2,91.01,0.048,1,0,0,0,0,0,0,0,0,0,0,0,0,0,0,90.41,0,1,0,-0.2,0,0,0,90,0,0,0,0,0,0,0,0,-0.001,0,0,3,0,0,0,69,0,0,0,0,0,0,,0,NONE,0,0,0,0,0,0,0,0,0,0,0,2.6,0,0,0,0,0,0,0,0,0,90.41,1,-0.001,0.598,0,0,3,0,0,0,0,0,0,0,1,1,0,0,VALID,0,0,0,0,0,1,0,0,0,0,0,0,0,0,0,0,0,0,0,0,89.28,483.13,2,0,0.08,0.08,64,14.29,0.08,0.06,8.6,PRELAUNCH,CF1-J,0:/Integrated Flight Computer/aircraft/cf1_j_cfg.ks (inferred preloaded)
9.06,TAKEOFF,TO_GROUND_ROLL,2.23,80,77.77,3.62,2.6,0,0.03,0.14,90.99,0.048,1,0,0,0,0,0,0,0,0,0,0,0,0,0,0,90.42,0,1,0,-0.12,0,0,0,90,0,0,0,0,0,0,0,0,-0.001,0,0,3,0,0,0,69,0,0,0,0,0,0,,0,NONE,0,0,0,0,0,0,0,0,0,0,0,2.6,0,0,0,0,0,0,0,0,0,90.42,1,-0.001,0.57,0,0,3,0,0,0,0,0,0,0,1,1,0,0,VALID,0,0,0,0,0,1,0,0,0,0,0,0,0,0,0,0,0,0,0,0,95.82,483.03,2,0,0.08,0.08,68,14.29,0.08,0.06,8.88,LANDED,CF1-J,0:/Integrated Flight Computer/aircraft/cf1_j_cfg.ks (inferred preloaded)
9.36,TAKEOFF,TO_GROUND_ROLL,2.7,80,77.3,3.62,2.6,-0.01,0.03,0.15,90.96,0.049,1,0,0,0,0,0,0,0,0,0,0,0,0,0,0,90.42,0,1,0,-0.14,0,0,0,90,0,0,0,0,0,0,0,0,-0.001,0,0,3,0,0,0,69,0,0,0,0,0,0,,0,NONE,0,0,0,0,0,0,0,0,0,0,0,2.6,0,0,0,0,0,0,0,0,0,90.42,1,-0.001,0.537,-0.006,0.25,1,-0.006,0,0,0,0,0,0,1,1,0,0,VALID,0,0,0,0,0,1,0,0,0,0,0,0,0,0,0,0,0,0,0,0,102.25,482.91,2,0,0.08,0.08,72,14.29,0.08,0.06,9.16,LANDED,CF1-J,0:/Integrated Flight Computer/aircraft/cf1_j_cfg.ks (inferred preloaded)
9.64,TAKEOFF,TO_GROUND_ROLL,3.2,80,76.8,3.62,2.6,-0.01,0.04,0.17,90.92,0.05,1,0,0,0,0,0,0,0,0,0,0,0,0,0,0,90.42,0,1,0,-0.15,0,0,0,90,0,0,0,0,0,0,0,0,-0.001,0,0,3,0,0,0,69,0,0,0,0,0,0,,0,NONE,0,0,0,0,0,0,0,0,0,0,0,2.6,0,0,0,0,0,0,0,0,0,90.42,1,-0.001,0.5,-0.0056,0.25,1,-0.0056,0,0,0,0,0,0,1,1,0,0,VALID,0,0,0,0,0,1,0,0,0,0,0,0,0,0,0,0,0,0,0,0,108.57,482.79,2,0,0.08,0.08,76,14.29,0.08,0.06,9.44,LANDED,CF1-J,0:/Integrated Flight Computer/aircraft/cf1_j_cfg.ks (inferred preloaded)
9.92,TAKEOFF,TO_GROUND_ROLL,3.72,80,76.28,3.62,2.6,-0.01,0.04,0.16,90.89,0.051,1,0,0,0,0,0,0,0,0,0,0,0,0,0,0,90.43,0,1,0,-0.13,0,0,0,90,0,0,0,0,0,0,0,0,-0.002,0,0,3,0,0,0,69,0,0,0,0,0,0,,0,NONE,0,0,0,0,0,0,0,0,0,0,0,2.6,0,0,0,0,0,0,0,0,0,90.43,1,-0.002,0.459,-0.0052,0.25,1,-0.0052,0,0,0,0,0,0,1,1,0,0,VALID,0,0,0,0,0,1,0,0,0,0,0,0,0,0,0,0,0,0,0,0,114.78,482.66,2,0,0.08,0.08,80,14.29,0.08,0.06,9.72,LANDED,CF1-J,0:/Integrated Flight Computer/aircraft/cf1_j_cfg.ks (inferred preloaded)
10.2,TAKEOFF,TO_GROUND_ROLL,4.28,80,75.72,3.62,2.59,-0.01,0.04,0.16,90.84,0.052,1,0,0,0,0,0,0,0,0,0,0,0,0,0,0,90.43,0,1,0,-0.14,0,0,0,90,0,0,0,0,0,0,0,0,-0.002,0,0,3,0,0,0,69,0,0,0,0,0,0,,0,NONE,0,0,0,0,0,0,0,0,0,0,0,2.59,0,0,0,0,0,0,0,0,0,90.43,1,-0.002,0.416,-0.0047,0.25,1,-0.0047,0,0,0,0,0,0,1,1,0,0,VALID,0,0,0,0,0,1,0,0,0,0,0,0,0,0,0,0,0,0,0,0,120.87,482.51,2,0,0.08,0.08,84,14.29,0.08,0.06,10,LANDED,CF1-J,0:/Integrated Flight Computer/aircraft/cf1_j_cfg.ks (inferred preloaded)
10.48,TAKEOFF,TO_GROUND_ROLL,4.87,80,75.13,3.62,2.59,-0.01,0.04,0.16,90.8,0.052,1,0,0,0,0,0,0,0,0,0,0,0,0,0,0,90.43,0,1,0,-0.13,0,0,0,90,0,0,0,0,0,0,0,0,-0.003,0,0,3,0,0,0,69,0,0,0,0,0,0,,0,NONE,0,0,0,0,0,0,0,0,0,0,0,2.59,0,0,0,0,0,0,0,0,0,90.43,1,-0.003,0.372,-0.004,0.25,1,-0.004,0,0,0,0,0,0,1,1,0,0,VALID,0,0,0,0,0,1,0,0,0,0,0,0,0,0,0,0,0,0,0,0,126.86,482.36,2,0,0.08,0.08,88,14.29,0.08,0.06,10.28,LANDED,CF1-J,0:/Integrated Flight Computer/aircraft/cf1_j_cfg.ks (inferred preloaded)
10.74,TAKEOFF,TO_GROUND_ROLL,5.48,80,74.52,3.62,2.59,-0.01,0.04,0.16,90.76,0.053,1,0,0,0,0,0,0,0,0,0,0,0,0,0,0,90.43,0,1,0,-0.13,0,0,0,90,0,0,0,0,0,0,0,0,-0.003,0,0,3,0,0,0,69,0,0,0,0,0,0,,0,NONE,0,0,0,0,0,0,0,0,0,0,0,2.59,0,0,0,0,0,0,0,0,0,90.43,1,-0.003,0.327,-0.0034,0.25,1,-0.0034,0,0,0,0,0,0,1,1,0,0,VALID,0,0,0,0,0,1,0,0,0,0,0,0,0,0,0,0,0,0,0,0,132.74,482.19,2,0,0.08,0.08,92,14.29,0.08,0.06,10.56,LANDED,CF1-J,0:/Integrated Flight Computer/aircraft/cf1_j_cfg.ks (inferred preloaded)
11.02,TAKEOFF,TO_GROUND_ROLL,6.12,80,73.88,3.62,2.58,-0.01,0.04,0.17,90.71,0.054,1,0,0,0,0,0,0,0,0,0,0,0,0,0,0,90.43,0,1,0,-0.13,0,0,0,90,0,0,0,0,0,0,0,0,-0.003,0,0,3,0,0,0,69,0,0,0,0,0,0,,0,NONE,0,0,0,0,0,0,0,0,0,0,0,2.58,0,0,0,0,0,0,0,0,0,90.43,1,-0.003,0.283,-0.0028,0.25,1,-0.0028,0,0,0,0,0,0,1,1,0,0,VALID,0,0,0,0,0,1,0,0,0,0,0,0,0,0,0,0,0,0,0,0,138.52,482.01,2,0,0.08,0.08,96,14.29,0.08,0.06,10.84,LANDED,CF1-J,0:/Integrated Flight Computer/aircraft/cf1_j_cfg.ks (inferred preloaded)
11.3,TAKEOFF,TO_GROUND_ROLL,6.79,80,73.21,3.62,2.58,-0.02,0.04,0.17,90.67,0.054,1,0,0,0,0,0,0,0,0,0,0,0,0,0,0,90.43,0,1,0,-0.14,0,0,0,90,0,0,0,0,0,0,0,0,-0.004,0,0,3,0,0,0,69,0,0,0,0,0,0,,0,NONE,0,0,0,0,0,0,0,0,0,0,0,2.58,0,0,0,0,0,0,0,0,0,90.43,1,-0.004,0.241,-0.0022,0.25,1,-0.0022,0,0,0,0,0,0,1,1,0,0,VALID,0,0,0,0,0,1,0,0,0,0,0,0,0,0,0,0,0,0,0,0,144.19,481.82,2,0,0.08,0.08,100,14.29,0.08,0.06,11.12,LANDED,CF1-J,0:/Integrated Flight Computer/aircraft/cf1_j_cfg.ks (inferred preloaded)
11.58,TAKEOFF,TO_GROUND_ROLL,7.49,80,72.51,3.62,2.58,-0.02,0.05,0.17,90.63,0.055,1,0,0,0,0,0,0,0,0,0,0,0,0,0,0,90.42,0,1,0,-0.13,0,0,0,90,0,0,0,0,0,0,0,0,-0.004,0,0,3,0,0,0,69,0,0,0,0,0,0,,0,NONE,0,0,0,0,0,0,0,0,0,0,0,2.58,0,0,0,0,0,0,0,0,0,90.42,1,-0.004,0.201,-0.0018,0.25,1,-0.0018,0,0,0,0,0,0,1,1,0,0,VALID,0,0,0,0,0,1,0,0,0,0,0,0,0,0,0,0,0,0,0,0,149.75,481.62,2,0,0.08,0.08,104,14.29,0.08,0.06,11.4,LANDED,CF1-J,0:/Integrated Flight Computer/aircraft/cf1_j_cfg.ks (inferred preloaded)
11.86,TAKEOFF,TO_GROUND_ROLL,8.21,80,71.79,3.62,2.57,-0.02,0.05,0.17,90.59,0.054,1,0,0,0,0,0,0,0,0,0,0,0,0,0,0,90.42,0,1,0,-0.14,0,0,0,90,0,0,0,0,0,0,0,0,-0.005,0,0,3,0,0,0,69,0,0,0,0,0,0,,0,NONE,0,0,0,0,0,0,0,0,0,0,0,2.57,0,0,0,0,0,0,0,0,0,90.42,1,-0.005,0.165,-0.0014,0.25,1,-0.0014,0,0,0,0,0,0,1,1,0,0,VALID,0,0,0,0,0,1,0,0,0,0,0,0,0,0,0,0,0,0,0,0,155.22,481.41,2,0,0.08,0.08,108,14.29,0.08,0.06,11.68,LANDED,CF1-J,0:/Integrated Flight Computer/aircraft/cf1_j_cfg.ks (inferred preloaded)
12.14,TAKEOFF,TO_GROUND_ROLL,8.96,80,71.04,3.62,2.57,-0.02,0.05,0.17,90.55,0.055,1,0,0,0,0,0,0,0,0,0,0,0,0,0,0,90.42,0,1,0,-0.13,0,0,0,90,0,0,0,0,0,0,0,0,-0.005,0,0,3,0,0,0,69,0,0,0,0,0,0,,0,NONE,0,0,0,0,0,0,0,0,0,0,0,2.57,0,0,0,0,0,0,0,0,0,90.42,1,-0.005,0.133,-0.001,0.25,1,-0.001,0,0,0,0,0,0,1,1,0,0,VALID,0,0,0,0,0,1,0,0,0,0,0,0,0,0,0,0,0,0,0,0,160.58,481.18,2,0,0.08,0.08,112,14.29,0.08,0.06,11.96,LANDED,CF1-J,0:/Integrated Flight Computer/aircraft/cf1_j_cfg.ks (inferred preloaded)
12.42,TAKEOFF,TO_GROUND_ROLL,9.74,80,70.26,3.62,2.56,-0.02,0.05,0.17,90.52,0.054,1,0,0,0,0,0,0,0,0,0,0,0,0,0,0,90.42,0,1,0,-0.13,0,0,0,90,0,0,0,0,0,0,0,0,-0.006,0,0,3,0,0,0,69,0,0,0,0,0,0,,0,NONE,0,0,0,0,0,0,0,0,0,0,0,2.56,0,0,0,0,0,0,0,0,0,90.42,1,-0.006,0.104,-0.0008,0.25,1,-0.0008,0,0,0,0,0,0,1,1,0,0,VALID,0,0,0,0,0,1,0,0,0,0,0,0,0,0,0,0,0,0,0,0,165.84,480.94,2,0,0.08,0.08,116,14.29,0.08,0.06,12.24,LANDED,CF1-J,0:/Integrated Flight Computer/aircraft/cf1_j_cfg.ks (inferred preloaded)
12.7,TAKEOFF,TO_GROUND_ROLL,10.54,80,69.46,3.62,2.55,-0.02,0.05,0.18,90.49,0.054,1,0,0,0,0,0,0,0,0,0,0,0,0,0,0,90.41,0,1,0,-0.13,0,0,0,90,0,0,0,0,0,0,0,0,-0.006,0,0,3,0,0,0,69,0,0,0,0,0,0,,0,NONE,0,0,0,0,0,0,0,0,0,0,0,2.55,0,0,0,0,0,0,0,0,0,90.41,1,-0.006,0.081,-0.0006,0.25,1,-0.0006,0,0,0,0,0,0,1,1,0,0,VALID,0,0,0,0,0,1,0,0,0,0,0,0,0,0,0,0,0,0,0,0,171,480.69,2,0,0.08,0.08,120,14.29,0.08,0.06,12.52,LANDED,CF1-J,0:/Integrated Flight Computer/aircraft/cf1_j_cfg.ks (inferred preloaded)
12.98,TAKEOFF,TO_GROUND_ROLL,11.36,80,68.64,3.62,2.55,-0.03,0.06,0.18,90.47,0.054,1,0,0,0,0,0,0,0,0,0,0,0,0,0,0,90.41,0,1,0,-0.13,0,0,0,90,0,0,0,0,0,0,0,0,-0.007,0,0,3,0,0,0,69,0,0,0,0,0,0,,0,NONE,0,0,0,0,0,0,0,0,0,0,0,2.55,0,0,0,0,0,0,0,0,0,90.41,1,-0.007,0.062,-0.0004,0.25,1,-0.0004,0,0,0,0,0,0,1,1,0,0,VALID,0,0,0,0,0,1,0,0,0,0,0,0,0,0,0,0,0,0,0,0,176.07,480.42,2,0,0.08,0.08,124,14.29,0.08,0.06,12.8,LANDED,CF1-J,0:/Integrated Flight Computer/aircraft/cf1_j_cfg.ks (inferred preloaded)
13.26,TAKEOFF,TO_GROUND_ROLL,12.21,80,67.79,3.62,2.54,-0.03,0.06,0.18,90.45,0.053,1,0,0,0,0,0,0,0,0,0,0,0,0,0,0,90.4,0,1,0,-0.13,0,0,0,90,0,0,0,0,0,0,0,0,-0.008,0,0,3,0,0,0,69,0,0,0,0,0,0,,0,NONE,0,0,0,0,0,0,0,0,0,0,0,2.54,0,0,0,0,0,0,0,0,0,90.4,1,-0.008,0.047,-0.0003,0.25,1,-0.0003,0,0,0,0,0,0,1,1,0,0,VALID,0,0,0,0,0,1,0,0,0,0,0,0,0,0,0,0,0,0,0,0,181.04,480.14,2,0,0.08,0.08,128,14.29,0.08,0.06,13.08,LANDED,CF1-J,0:/Integrated Flight Computer/aircraft/cf1_j_cfg.ks (inferred preloaded)
13.54,TAKEOFF,TO_GROUND_ROLL,13.08,80,66.92,3.62,2.53,-0.03,0.06,0.18,90.44,0.053,1,0,0,0,0,0,0,0,0,0,0,0,0,0,0,90.4,0,1,0,-0.13,0,0,0,90,0,0,0,0,0,0,0,0,-0.008,0,0,3,0,0,0,69,0,0,0,0,0,0,,0,NONE,0,0,0,0,0,0,0,0,0,0,0,2.53,0,0,0,0,0,0,0,0,0,90.4,1,-0.008,0.036,-0.0002,0.25,1,-0.0002,0,0,0,0,0,0,1,1,0,0,VALID,0,0,0,0,0,1,0,0,0,0,0,0,0,0,0,0,0,0,0,0,185.91,479.85,2,0,0.08,0.08,132,14.29,0.08,0.06,13.36,LANDED,CF1-J,0:/Integrated Flight Computer/aircraft/cf1_j_cfg.ks (inferred preloaded)
13.82,TAKEOFF,TO_GROUND_ROLL,13.97,80,66.03,3.62,2.52,-0.03,0.06,0.18,90.43,0.052,1,0,0,0,0,0,0,0,0,0,0,0,0,0,0,90.4,0,1,0,-0.13,0,0,0,90,0,0,0,0,0,0,0,0,-0.009,0,0,3,0,0,0,69,0,0,0,0,0,0,,0,NONE,0,0,0,0,0,0,0,0,0,0,0,2.52,0,0,0,0,0,0,0,0,0,90.4,1,-0.009,0.027,-0.0002,0.25,1,-0.0002,0,0,0,0,0,0,1,1,0,0,VALID,0,0,0,0,0,1,0,0,0,0,0,0,0,0,0,0,0,0,0,0,190.69,479.54,2,0,0.08,0.08,136,14.29,0.08,0.06,13.64,LANDED,CF1-J,0:/Integrated Flight Computer/aircraft/cf1_j_cfg.ks (inferred preloaded)
14.1,TAKEOFF,TO_GROUND_ROLL,14.88,80,65.12,3.62,2.52,-0.03,0.06,0.18,90.42,0.051,1,0,0,0,0,0,0,0,0,0,0,0,0,0,0,90.4,0,1,0,-0.13,0,0,0,90,0,0,0,0,0,0,0,0,-0.01,0,0,3,0,0,0,69,0,0,0,0,0,0,,0,NONE,0,0,0,0,0,0,0,0,0,0,0,2.52,0,0,0,0,0,0,0,0,0,90.4,1,-0.01,0.02,-0.0001,0.25,1,-0.0001,0,0,0,0,0,0,1,1,0,0,VALID,0,0,0,0,0,1,0,0,0,0,0,0,0,0,0,0,0,0,0,0,195.37,479.22,2,0,0.08,0.08,140,14.29,0.08,0.06,13.92,LANDED,CF1-J,0:/Integrated Flight Computer/aircraft/cf1_j_cfg.ks (inferred preloaded)
14.38,TAKEOFF,TO_GROUND_ROLL,15.82,80,64.18,3.62,2.51,-0.03,0.06,0.18,90.41,0.05,1,0,0,0,0,0,0,0,0,0,0,0,0,0,0,90.39,0,1,0,-0.13,0,0,0,90,0,0,0,0,0,0,0,0,-0.01,0,0,3,0,0,0,69,0,0,0,0,0,0,,0,NONE,0,0,0,0,0,0,0,0,0,0,0,2.51,0,0,0,0,0,0,0,0,0,90.39,1,-0.01,0.016,-0.0001,0.25,1,-0.0001,0,0,0,0,0,0,1,1,0,0,VALID,0,0,0,0,0,1,0,0,0,0,0,0,0,0,0,0,0,0,0,0,199.96,478.88,2,0,0.08,0.08,144,14.29,0.08,0.06,14.2,LANDED,CF1-J,0:/Integrated Flight Computer/aircraft/cf1_j_cfg.ks (inferred preloaded)
14.66,TAKEOFF,TO_GROUND_ROLL,16.78,80,63.22,3.62,2.5,-0.04,0.07,0.19,90.41,0.05,1,0,0,0,0,0,0,0,0,0,0,0,0,0,0,90.39,0,1,0,-0.13,0,0,0.01,90,0,0,0,0,0,0,0,0,-0.011,0,0,3,0,0,0,69,0,0,0,0,0,0,,0,NONE,0,0,0,0,0,0,0,0,0,0,0,2.5,0,0,0,0,0,0,0,0,0,90.39,1,-0.011,0.015,-0.0001,0.25,1,-0.0001,0,0,0,0,0,0,1,1,0,0,VALID,0,0,0,0,0,1,0,0,0,0,0,0,0,0,0,0,0,0,0,0,204.46,478.53,2,0,0.08,0.08,148,14.29,0.08,0.06,14.48,LANDED,CF1-J,0:/Integrated Flight Computer/aircraft/cf1_j_cfg.ks (inferred preloaded)
14.94,TAKEOFF,TO_GROUND_ROLL,17.76,80,62.24,3.62,2.49,-0.04,0.07,0.19,90.4,0.049,1,0,0,0,0,0,0,0,0,0,0,0,0,0,0,90.39,0,1,0,-0.13,0,0,0.01,90,0,0,0,0,0,0,0,0,-0.012,0,0,3,0,0,0,69,0,0,0,0,0,0,,0,NONE,0,0,0,0,0,0,0,0,0,0,0,2.49,0,0,0,0,0,0,0,0,0,90.39,1,-0.012,0.014,-0.0001,0.25,1,-0.0001,0,0,0,0,0,0,1,1,0,0,VALID,0,0,0,0,0,1,0,0,0,0,0,0,0,0,0,0,0,0,0,0,208.87,478.16,2,0,0.08,0.08,152,14.29,0.08,0.06,14.76,LANDED,CF1-J,0:/Integrated Flight Computer/aircraft/cf1_j_cfg.ks (inferred preloaded)
15.22,TAKEOFF,TO_GROUND_ROLL,18.76,80,61.24,3.62,2.48,-0.04,0.07,0.19,90.4,0.048,1,0,0,0,0,0,0,0,0,0,0,0,0,0,0,90.39,0,1,0,-0.13,0,0,0.01,90,0,0,0,0,0,0,0,0,-0.012,0,0,3,0,0,0,69,0,0,0,0,0,0,,0,NONE,0,0,0,0,0,0,0,0,0,0,0,2.48,0,0,0,0,0,0,0,0,0,90.39,1,-0.012,0.014,-0.0001,0.25,1,-0.0001,0,0,0,0,0,0,1,1,0,0,VALID,0,0,0,0,0,1,0,0,0,0,0,0,0,0,0,0,0,0,0,0,213.19,477.77,2,0,0.08,0.08,156,14.29,0.08,0.06,15.04,LANDED,CF1-J,0:/Integrated Flight Computer/aircraft/cf1_j_cfg.ks (inferred preloaded)
15.5,TAKEOFF,TO_GROUND_ROLL,19.78,80,60.22,3.62,2.46,-0.04,0.07,0.19,90.4,0.048,1,0,0,0,0,0,0,0,0,0,0,0,0,0,0,90.39,0,1,0,-0.12,0,0,0.01,90,0,0,0,0,0,0,0,0,-0.013,0,0,3,0,0,0,69,0,0,0,0,0,0,,0,NONE,0,0,0,0,0,0,0,0,0,0,0,2.46,0,0,0,0,0,0,0,0,0,90.39,1,-0.013,0.014,-0.0001,0.25,1,-0.0001,0,0,0,0,0,0,1,1,0,0,VALID,0,0,0,0,0,1,0,0,0,0,0,0,0,0,0,0,0,0,0,0,217.42,477.37,2,0,0.08,0.08,160,14.29,0.08,0.06,15.32,LANDED,CF1-J,0:/Integrated Flight Computer/aircraft/cf1_j_cfg.ks (inferred preloaded)
15.8,TAKEOFF,TO_GROUND_ROLL,20.81,80,59.19,3.62,2.45,-0.04,0.07,0.19,90.4,0.049,1,0,0,0,0,0,0,0,0,0,0,0,0,0,0,90.39,0,1,0,-0.12,0,0,0.01,90,0,0,0,0,0,0,0,0,-0.014,0,0,3,0,0,0,69,0,0,0,0,0,0,,0,NONE,0,0,0,0,0,0,0,0,0,0,0,2.45,0,0,0,0,0,0,0,0,0,90.39,1,-0.014,0.011,-0.0001,0.259,0,-0.0001,0,0,0,0,0,0,1,1,0,0,VALID,0,0,0,0,0,1,0,0,0,0,0,0,0,0,0,0,0,0,0,0,221.56,476.96,2,0,0.08,0.08,164,14.29,0.08,0.06,15.6,LANDED,CF1-J,0:/Integrated Flight Computer/aircraft/cf1_j_cfg.ks (inferred preloaded)
16.08,TAKEOFF,TO_GROUND_ROLL,21.87,80,58.13,3.62,2.44,-0.05,0.08,0.19,90.4,0.049,1,0,0,0,0,0,0,0,0,0,0,0,0,0,0,90.39,0,1,0,-0.12,0,0,0.01,90,0,0,0,0,0,0,0,0,-0.015,0,0,3,0,0,0,69,0,0,0,0,0,0,,0,NONE,0,0,0,0,0,0,0,0,0,0,0,2.44,0,0,0,0,0,0,0,0,0,90.39,1,-0.015,0.01,-0.0001,0.27,0,-0.0001,0,0,0,0,0,0,1,1,0,0,VALID,0,0,0,0,0,1,0,0,0,0,0,0,0,0,0,0,0,0,0,0,225.62,476.53,2,0,0.08,0.08,168,14.29,0.08,0.06,15.88,LANDED,CF1-J,0:/Integrated Flight Computer/aircraft/cf1_j_cfg.ks (inferred preloaded)
16.36,TAKEOFF,TO_GROUND_ROLL,22.95,80,57.05,3.62,2.43,-0.05,0.08,0.19,90.39,0.05,1,0,0,0,0,0,0,0,0,0,0,0,0,0,0,90.38,0,1,0,-0.12,0,0,0.01,90,0,0,0,0,0,0,0,0,-0.016,0,0,3,0,0,0,69,0,0,0,0,0,0,,0,NONE,0,0,0,0,0,0,0,0,0,0,0,2.43,0,0,0,0,0,0,0,0,0,90.38,1,-0.016,0.009,-0.0001,0.282,0,-0.0001,0,0,0,0,0,0,1,1,0,0,VALID,0,0,0,0,0,1,0,0,0,0,0,0,0,0,0,0,0,0,0,0,229.58,476.08,2,0,0.08,0.08,172,14.29,0.08,0.06,16.16,LANDED,CF1-J,0:/Integrated Flight Computer/aircraft/cf1_j_cfg.ks (inferred preloaded)
16.64,TAKEOFF,TO_GROUND_ROLL,24.04,80,55.96,3.62,2.41,-0.05,0.08,0.19,90.4,0.048,1,0,0,0,0,0,0,0,0,0,0,0,0,0,0,90.38,0,1,0,-0.12,0,0,0.01,90,0,0,0,0,0,0,0,0,-0.017,0,0,3,0,0,0,69,0,0,0,0,0,0,,0,NONE,0,0,0,0,0,0,0,0,0,0,0,2.41,0,0,0,0,0,0,0,0,0,90.38,1,-0.017,0.013,-0.0001,0.293,0,-0.0001,0,0,0,0,0,0,1,1,0,0,VALID,0,0,0,0,0,1,0,0,0,0,0,0,0,0,0,0,0,0,0,0,233.46,475.61,2,0,0.08,0.08,176,14.29,0.08,0.06,16.44,LANDED,CF1-J,0:/Integrated Flight Computer/aircraft/cf1_j_cfg.ks (inferred preloaded)
16.92,TAKEOFF,TO_GROUND_ROLL,25.15,80,54.85,3.62,2.4,-0.05,0.08,0.19,90.4,0.046,1,0,0,0,0,0,0,0,0,0,0,0,0,0,0,90.38,0,1,0,-0.12,0,0,0.01,90,0,0,0,0,0,0,0,0,-0.018,0,0,3,0,0,0,69,0,0,0,0,0,0,,0,NONE,0,0,0,0,0,0,0,0,0,0,0,2.4,0,0,0,0,0,0,0,0,0,90.38,1,-0.018,0.017,-0.0001,0.305,0,-0.0001,0,0,0,0,0,0,1,1,0,0,VALID,0,0,0,0,0,1,0,0,0,0,0,0,0,0,0,0,0,0,0,0,237.26,475.13,2,0,0.08,0.08,180,14.29,0.08,0.06,16.72,LANDED,CF1-J,0:/Integrated Flight Computer/aircraft/cf1_j_cfg.ks (inferred preloaded)
17.2,TAKEOFF,TO_GROUND_ROLL,26.28,80,53.72,3.63,2.38,-0.05,0.08,0.2,90.4,0.045,1,0,0,0,0,0,0,0,0,0,0,0,0,0,0,90.38,0,1,0,-0.12,0,0,0.01,90,0,0,0,0,0,0,0,0,-0.019,0,0,3,0,0,0,69,0,0,0,0,0,0,,0,NONE,0,0,0,0,0,0,0,0,0,0,0,2.38,0,0,0,0,0,0,0,0,0,90.38,1,-0.019,0.019,-0.0002,0.317,0,-0.0002,0,0,0,0,0,0,1,1,0,0,VALID,0,0,0,0,0,1,0,0,0,0,0,0,0,0,0,0,0,0,0,0,240.98,474.63,2,0,0.08,0.08,184,14.29,0.08,0.06,17,LANDED,CF1-J,0:/Integrated Flight Computer/aircraft/cf1_j_cfg.ks (inferred preloaded)
17.48,TAKEOFF,TO_GROUND_ROLL,27.43,80,52.57,3.63,2.37,-0.06,0.09,0.2,90.4,0.046,1,0,0,0,0,0,0,0,0,0,0,0,0,0,0,90.38,0,1,0,-0.12,0,0,0.01,90,0,0,0,0,0,0,0,0,-0.02,0,0,3,0,0,0,69,0,0,0,0,0,0,,0,NONE,0,0,0,0,0,0,0,0,0,0,0,2.37,0,0,0,0,0,0,0,0,0,90.38,1,-0.02,0.017,-0.0001,0.33,0,-0.0001,0,0,0,0,0,0,1,1,0,0,VALID,0,0,0,0,0,1,0,0,0,0,0,0,0,0,0,0,0,0,0,0,244.61,474.12,2,0,0.08,0.08,188,14.29,0.08,0.06,17.28,LANDED,CF1-J,0:/Integrated Flight Computer/aircraft/cf1_j_cfg.ks (inferred preloaded)
17.76,TAKEOFF,TO_GROUND_ROLL,28.59,80,51.41,3.63,2.35,-0.06,0.09,0.2,90.39,0.049,1,0,0,0,0,0,0,0,0,0,0,0,0,0,0,90.38,0,1,0,-0.12,0,0,0.01,90,0,0,0,0,0,0,0,0,-0.021,0,0,3,0,0,0,69,0,0,0,0,0,0,,0,NONE,0,0,0,0,0,0,0,0,0,0,0,2.35,0,0,0,0,0,0,0,0,0,90.38,1,-0.021,0.014,-0.0001,0.342,0,-0.0001,0,0,0,0,0,0,1,1,0,0,VALID,0,0,0,0,0,1,0,0,0,0,0,0,0,0,0,0,0,0,0,0,248.16,473.59,2,0,0.08,0.08,192,14.29,0.08,0.06,17.56,LANDED,CF1-J,0:/Integrated Flight Computer/aircraft/cf1_j_cfg.ks (inferred preloaded)
18.04,TAKEOFF,TO_GROUND_ROLL,29.77,80,50.23,3.63,2.34,-0.06,0.09,0.2,90.39,0.051,1,0,0,0,0,0,0,0,0,0,0,0,0,0,0,90.38,0,1,0,-0.12,0,0,0.01,90,0,0,0,0,0,0,0,0,-0.023,0,0,3,0,0,0,69,0,0,0,0,0,0,,0,NONE,0,0,0,0,0,0,0,0,0,0,0,2.34,0,0,0,0,0,0,0,0,0,90.38,1,-0.023,0.015,-0.0001,0.355,0,-0.0001,0,0,0,0,0,0,1,1,0,0,VALID,0,0,0,0,0,1,0,0,0,0,0,0,0,0,0,0,0,0,0,0,251.62,473.04,2,0,0.08,0.08,196,14.29,0.08,0.06,17.84,LANDED,CF1-J,0:/Integrated Flight Computer/aircraft/cf1_j_cfg.ks (inferred preloaded)
18.32,TAKEOFF,TO_GROUND_ROLL,30.96,80,49.04,3.63,2.32,-0.06,0.09,0.2,90.39,0.049,1,0,0,0,0,0,0,0,0,0,0,0,0,0,0,90.38,0,1,0,-0.12,0,0,0.01,90,0,0,0,0,0,0,0,0,-0.024,0,0,3,0,0,0,69,0,0,0,0,0,0,,0,NONE,0,0,0,0,0,0,0,0,0,0,0,2.32,0,0,0,0,0,0,0,0,0,90.38,1,-0.024,0.017,-0.0002,0.367,0,-0.0002,0,0,0,0,0,0,1,1,0,0,VALID,0,0,0,0,0,1,0,0,0,0,0,0,0,0,0,0,0,0,0,0,255.01,472.48,2,0,0.08,0.08,200,14.29,0.08,0.06,18.12,LANDED,CF1-J,0:/Integrated Flight Computer/aircraft/cf1_j_cfg.ks (inferred preloaded)
18.6,TAKEOFF,TO_GROUND_ROLL,32.17,80,47.83,3.63,2.3,-0.06,0.09,0.2,90.39,0.046,1,0,0,0,0,0,0,0,0,0,0,0,0,0,0,90.38,0,1,0,-0.11,0,0,0.01,90,0,0,0,0,0,0,0,0,-0.025,0,0,3,0,0,0,69,0,0,0,0,0,0,,0,NONE,0,0,0,0,0,0,0,0,0,0,0,2.3,0,0,0,0,0,0,0,0,0,90.38,1,-0.025,0.016,-0.0002,0.38,0,-0.0002,0,0,0,0,0,0,1,1,0,0,VALID,0,0,0,0,0,1,0,0,0,0,0,0,0,0,0,0,0,0,0,0,258.32,471.9,2,0,0.08,0.08,204,14.29,0.08,0.06,18.4,LANDED,CF1-J,0:/Integrated Flight Computer/aircraft/cf1_j_cfg.ks (inferred preloaded)
18.88,TAKEOFF,TO_GROUND_ROLL,33.39,80,46.61,3.63,2.28,-0.07,0.1,0.2,90.39,0.045,1,0,0,0,0,0,0,0,0,0,0,0,0,0,0,90.37,0,1,0,-0.11,0,0,0.02,90,0,0,0,0,0,0,0,0,-0.027,0,0,3,0,0,0,69,0,0,0,0,0,0,,0,NONE,0,0,0,0,0,0,0,0,0,0,0,2.28,0,0,0,0,0,0,0,0,0,90.37,1,-0.027,0.02,-0.0002,0.393,0,-0.0002,0,0,0,0,0,0,1,1,0,0,VALID,0,0,0,0,0,1,0,0,0,0,0,0,0,0,0,0,0,0,0,0,261.55,471.3,2,0,0.08,0.08,208,14.29,0.08,0.06,18.68,LANDED,CF1-J,0:/Integrated Flight Computer/aircraft/cf1_j_cfg.ks (inferred preloaded)
19.16,TAKEOFF,TO_GROUND_ROLL,34.62,80,45.38,3.63,2.26,-0.07,0.1,0.2,90.39,0.045,1,0,0,0,0,0,0,0,0,0,0,0,0,0,0,90.37,0,1,0,-0.11,0,0,0.02,90,0,0,0,0,0,0,0,0,-0.028,0,0,3,0,0,0,69,0,0,0,0,0,0,,0,NONE,0,0,0,0,0,0,0,0,0,0,0,2.26,0,0,0,0,0,0,0,0,0,90.37,1,-0.028,0.021,-0.0002,0.407,0,-0.0002,0,0,0,0,0,0,1,1,0,0,VALID,0,0,0,0,0,1,0,0,0,0,0,0,0,0,0,0,0,0,0,0,264.7,470.69,2,0,0.08,0.08,212,14.29,0.08,0.06,18.96,LANDED,CF1-J,0:/Integrated Flight Computer/aircraft/cf1_j_cfg.ks (inferred preloaded)
19.44,TAKEOFF,TO_GROUND_ROLL,35.87,80,44.13,3.63,2.25,-0.07,0.1,0.21,90.39,0.047,1,0,0,0,0,0,0,0,0,0,0,0,0,0,0,90.37,0,1,0,-0.11,0,0,0.02,90,0,0,0,0,0,0,0,0,-0.029,0,0,3,0,0,0,69,0,0,0,0,0,0,,0,NONE,0,0,0,0,0,0,0,0,0,0,0,2.25,0,0,0,0,0,0,0,0,0,90.37,1,-0.029,0.02,-0.0002,0.42,0,-0.0002,0,0,0,0,0,0,1,1,0,0,VALID,0,0,0,0,0,1,0,0,0,0,0,0,0,0,0,0,0,0,0,0,267.78,470.06,2,0,0.08,0.08,216,14.29,0.08,0.06,19.24,LANDED,CF1-J,0:/Integrated Flight Computer/aircraft/cf1_j_cfg.ks (inferred preloaded)
19.72,TAKEOFF,TO_GROUND_ROLL,37.13,80,42.87,3.63,2.23,-0.07,0.1,0.21,90.39,0.048,1,0,0,0,0,0,0,0,0,0,0,0,0,0,0,90.37,0,1,0,-0.11,0,0,0.02,90,0,0,0,0,0,0,0,0,-0.031,0,0,3,0,0,0,69,0,0,0,0,0,0,,0,NONE,0,0,0,0,0,0,0,0,0,0,0,2.23,0,0,0,0,0,0,0,0,0,90.37,1,-0.031,0.02,-0.0002,0.434,0,-0.0002,0,0,0,0,0,0,1,1,0,0,VALID,0,0,0,0,0,1,0,0,0,0,0,0,0,0,0,0,0,0,0,0,270.78,469.41,2,0,0.08,0.08,220,14.29,0.08,0.06,19.52,LANDED,CF1-J,0:/Integrated Flight Computer/aircraft/cf1_j_cfg.ks (inferred preloaded)
20,TAKEOFF,TO_GROUND_ROLL,38.41,80,41.59,3.63,2.21,-0.07,0.1,0.21,90.39,0.048,1,0,0,0,0,0,0,0,0,0,0,0,0,0,0,90.37,0,1,0,-0.11,0,0,0.02,90,0,0,0,0,0,0,0,0,-0.032,0,0,3,0,0,0,69,0,0,0,0,0,0,,0,NONE,0,0,0,0,0,0,0,0,0,0,0,2.21,0,0,0,0,0,0,0,0,0,90.37,1,-0.032,0.021,-0.0002,0.447,0,-0.0002,0,0,0,0,0,0,1,1,0,0,VALID,0,0,0,0,0,1,0,0,0,0,0,0,0,0,0,0,0,0,0,0,273.71,468.75,2,0,0.08,0.08,224,14.29,0.08,0.06,19.8,LANDED,CF1-J,0:/Integrated Flight Computer/aircraft/cf1_j_cfg.ks (inferred preloaded)
20.28,TAKEOFF,TO_GROUND_ROLL,39.7,80,40.3,3.63,2.19,-0.07,0.11,0.21,90.39,0.047,1,0,0,0,0,0,0,0,0,0,0,0,0,0,0,90.37,0,1,0,-0.11,0,0,0.02,90,0,0,0,0,0,0,0,0,-0.034,0,0,3,0,0,0,69,0,0,0,0,0,0,,0,NONE,0,0,0,0,0,0,0,0,0,0,0,2.19,0,0,0,0,0,0,0,0,0,90.37,1,-0.034,0.022,-0.0003,0.461,0,-0.0003,0,0,0,0,0,0,1,1,0,0,VALID,0,0,0,0,0,1,0,0,0,0,0,0,0,0,0,0,0,0,0,0,276.56,468.08,2,0,0.08,0.08,228,14.29,0.08,0.06,20.08,LANDED,CF1-J,0:/Integrated Flight Computer/aircraft/cf1_j_cfg.ks (inferred preloaded)
20.56,TAKEOFF,TO_GROUND_ROLL,41,80,39,3.63,2.16,-0.08,0.11,0.21,90.39,0.045,1,0,0,0,0,0,0,0,0,0,0,0,0,0,0,90.36,0,1,0,-0.11,0,0,0.02,90,0,0,0,0,0,0,0,0,-0.036,0,0,3,0,0,0,69,0,0,0,0,0,0,,0,NONE,0,0,0,0,0,0,0,0,0,0,0,2.16,0,0,0,0,0,0,0,0,0,90.36,1,-0.036,0.023,-0.0003,0.475,0,-0.0003,0,0,0,0,0,0,1,1,0,0,VALID,0,0,0,0,0,1,0,0,0,0,0,0,0,0,0,0,0,0,0,0,279.34,467.38,2,0,0.08,0.08,232,14.29,0.08,0.06,20.36,LANDED,CF1-J,0:/Integrated Flight Computer/aircraft/cf1_j_cfg.ks (inferred preloaded)
20.84,TAKEOFF,TO_GROUND_ROLL,42.31,80,37.69,3.63,2.14,-0.08,0.11,0.21,90.39,0.045,1,0,0,0,0,0,0,0,0,0,0,0,0,0,0,90.36,0,1,0,-0.1,0,0,0.02,90,0,0,0,0,0,0,0,0,-0.037,0,0,3,0,0,0,69,0,0,0,0,0,0,,0,NONE,0,0,0,0,0,0,0,0,0,0,0,2.14,0,0,0,0,0,0,0,0,0,90.36,1,-0.037,0.024,-0.0003,0.489,0,-0.0003,0,0,0,0,0,0,1,1,0,0,VALID,0,0,0,0,0,1,0,0,0,0,0,0,0,0,0,0,0,0,0,0,282.05,466.68,2,0,0.08,0.08,236,14.29,0.08,0.06,20.64,LANDED,CF1-J,0:/Integrated Flight Computer/aircraft/cf1_j_cfg.ks (inferred preloaded)
21.12,TAKEOFF,TO_GROUND_ROLL,43.63,80,36.37,3.63,2.12,-0.08,0.11,0.21,90.39,0.046,1,0,0,0,0,0,0,0,0,0,0,0,0,0,0,90.36,0,1,0,-0.1,0,0,0.02,90,0,0,0,0,0,0,0,0,-0.039,0,0,3,0,0,0,69,0,0,0,0,0,0,,0,NONE,0,0,0,0,0,0,0,0,0,0,0,2.12,0,0,0,0,0,0,0,0,0,90.36,1,-0.039,0.024,-0.0003,0.503,0,-0.0003,0,0,0,0,0,0,1,1,0,0,VALID,0,0,0,0,0,1,0,0,0,0,0,0,0,0,0,0,0,0,0,0,284.69,465.95,2,0,0.08,0.08,240,14.29,0.08,0.06,20.92,LANDED,CF1-J,0:/Integrated Flight Computer/aircraft/cf1_j_cfg.ks (inferred preloaded)
21.4,TAKEOFF,TO_GROUND_ROLL,44.96,80,35.04,3.63,2.1,-0.08,0.12,0.21,90.39,0.047,1,0,0,0,0,0,0,0,0,0,0,0,0,0,0,90.36,0,1,0,-0.1,0,0,0.03,90,0,0,0,0,0,0,0,0,-0.041,0,0,3,0,0,0,69,0,0,0,0,0,0,,0,NONE,0,0,0,0,0,0,0,0,0,0,0,2.1,0,0,0,0,0,0,0,0,0,90.36,1,-0.041,0.026,-0.0004,0.517,0,-0.0004,0,0,0,0,0,0,1,1,0,0,VALID,0,0,0,0,0,1,0,0,0,0,0,0,0,0,0,0,0,0,0,0,287.25,465.21,2,0,0.08,0.08,244,14.29,0.08,0.06,21.2,LANDED,CF1-J,0:/Integrated Flight Computer/aircraft/cf1_j_cfg.ks (inferred preloaded)
21.68,TAKEOFF,TO_GROUND_ROLL,46.3,80,33.7,3.63,2.08,-0.08,0.12,0.21,90.39,0.046,1,0,0,0,0,0,0,0,0,0,0,0,0,0,0,90.36,0,1,0,-0.1,0,0,0.03,90,0,0,0,0,0,0,0,0,-0.043,0,0,3,0,0,0,69,0,0,0,0,0,0,,0,NONE,0,0,0,0,0,0,0,0,0,0,0,2.08,0,0,0,0,0,0,0,0,0,90.36,1,-0.043,0.029,-0.0004,0.532,0,-0.0004,0,0,0,0,0,0,1,1,0,0,VALID,0,0,0,0,0,1,0,0,0,0,0,0,0,0,0,0,0,0,0,0,289.75,464.46,2,0,0.08,0.08,248,14.29,0.08,0.06,21.48,LANDED,CF1-J,0:/Integrated Flight Computer/aircraft/cf1_j_cfg.ks (inferred preloaded)
21.96,TAKEOFF,TO_GROUND_ROLL,47.65,80,32.35,3.63,2.05,-0.08,0.12,0.21,90.39,0.043,1,0,0,0,0,0,0,0,0,0,0,0,0,0,0,90.35,0,1,0,-0.1,0,0,0.03,90,0,0,0,0,0,0,0,0,-0.045,0,0,3,0,0,0,69,0,0,0,0,0,0,,0,NONE,0,0,0,0,0,0,0,0,0,0,0,2.05,0,0,0,0,0,0,0,0,0,90.35,1,-0.045,0.032,-0.0005,0.546,0,-0.0005,0,0,0,0,0,0,1,1,0,0,VALID,0,0,0,0,0,1,0,0,0,0,0,0,0,0,0,0,0,0,0,0,292.18,463.7,2,0,0.08,0.08,252,14.29,0.08,0.06,21.76,LANDED,CF1-J,0:/Integrated Flight Computer/aircraft/cf1_j_cfg.ks (inferred preloaded)
22.24,TAKEOFF,TO_GROUND_ROLL,49.02,80,30.98,3.63,2.03,-0.08,0.12,0.22,90.39,0.042,1,0,0,0,0,0,0,0,0,0,0,0,0,0,0,90.35,0,1,0,-0.1,0,0,0.03,90,0,0,0,0,0,0,0,0,-0.047,0,0,3,0,0,0,69,0,0,0,0,0,0,,0,NONE,0,0,0,0,0,0,0,0,0,0,0,2.03,0,0,0,0,0,0,0,0,0,90.35,1,-0.047,0.035,-0.0005,0.561,0,-0.0005,0,0,0,0,0,0,1,1,0,0,VALID,0,0,0,0,0,1,0,0,0,0,0,0,0,0,0,0,0,0,0,0,294.55,462.91,2,0,0.08,0.08,256,14.29,0.08,0.06,22.04,LANDED,CF1-J,0:/Integrated Flight Computer/aircraft/cf1_j_cfg.ks (inferred preloaded)
22.52,TAKEOFF,TO_GROUND_ROLL,50.39,80,29.61,3.63,2.01,-0.08,0.12,0.22,90.39,0.042,1,0,0,0,0,0,0,0,0,0,0,0,0,0,0,90.35,0,1,0,-0.1,0,0,0.03,90,0,0,0,0,0,0,0,0,-0.049,0,0,3,0,0,0,69,0,0,0,0,0,0,,0,NONE,0,0,0,0,0,0,0,0,0,0,0,2.01,0,0,0,0,0,0,0,0,0,90.35,1,-0.049,0.039,-0.0006,0.576,0,-0.0006,0,0,0,0,0,0,1,1,0,0,VALID,0,0,0,0,0,1,0,0,0,0,0,0,0,0,0,0,0,0,0,0,296.85,462.12,2,0,0.08,0.08,260,14.29,0.08,0.06,22.32,LANDED,CF1-J,0:/Integrated Flight Computer/aircraft/cf1_j_cfg.ks (inferred preloaded)
22.8,TAKEOFF,TO_GROUND_ROLL,51.77,80,28.23,3.63,1.98,-0.09,0.13,0.22,90.39,0.042,1,0,0,0,0,0,0,0,0,0,0,0,0,0,0,90.35,0,1,0,-0.1,0,0,0.03,90,0,0,0,0,0,0,0,0,-0.051,0,0,3,0,0,0,69,0,0,0,0,0,0,,0,NONE,0,0,0,0,0,0,0,0,0,0,0,1.98,0,0,0,0,0,0,0,0,0,90.35,1,-0.051,0.045,-0.0007,0.59,0,-0.0007,0,0,0,0,0,0,1,1,0,0,VALID,0,0,0,0,0,1,0,0,0,0,0,0,0,0,0,0,0,0,0,0,299.08,461.31,2,0,0.08,0.08,264,14.29,0.08,0.06,22.6,LANDED,CF1-J,0:/Integrated Flight Computer/aircraft/cf1_j_cfg.ks (inferred preloaded)
23.08,TAKEOFF,TO_GROUND_ROLL,53.15,80,26.85,3.64,1.96,-0.09,0.13,0.22,90.4,0.04,1,0,0,0,0,0,0,0,0,0,0,0,0,0,0,90.34,0,1,0,-0.09,0,0,0.03,90,0,0,0,0,0,0,0,0,-0.053,0,0,3,0,0,0,69,0,0,0,0,0,0,,0,NONE,0,0,0,0,0,0,0,0,0,0,0,1.96,0,0,0,0,0,0,0,0,0,90.34,1,-0.053,0.053,-0.0009,0.605,0,-0.0009,0,0,0,0,0,0,1,1,0,0,VALID,0,0,0,0,0,1,0,0,0,0,0,0,0,0,0,0,0,0,0,0,301.25,460.49,2,0,0.08,0.08,268,14.29,0.08,0.06,22.88,LANDED,CF1-J,0:/Integrated Flight Computer/aircraft/cf1_j_cfg.ks (inferred preloaded)
23.36,TAKEOFF,TO_GROUND_ROLL,54.55,80,25.45,3.64,1.94,-0.09,0.13,0.22,90.4,0.036,1,0,0,0,0,0,0,0,0,0,0,0,0,0,0,90.34,0,1,0,-0.09,0,0,0.04,90,0,0,0,0,0,0,0,0,-0.055,0,0,3,0,0,0,69,0,0,0,0,0,0,,0,NONE,0,0,0,0,0,0,0,0,0,0,0,1.94,0,0,0,0,0,0,0,0,0,90.34,1,-0.055,0.065,-0.0011,0.62,0,-0.0011,0,0,0,0,0,0,1,1,0,0,VALID,0,0,0,0,0,1,0,0,0,0,0,0,0,0,0,0,0,0,0,0,303.35,459.66,2,0,0.08,0.08,272,14.29,0.08,0.06,23.16,LANDED,CF1-J,0:/Integrated Flight Computer/aircraft/cf1_j_cfg.ks (inferred preloaded)
23.64,TAKEOFF,TO_GROUND_ROLL,55.95,80,24.05,3.64,1.91,-0.09,0.14,0.22,90.41,0.031,1,0,0,0,0,0,0,0,0,0,0,0,0,0,0,90.33,0,1,0,-0.09,0,0,0.04,90,0,0,0,0,0,0,0,0,-0.058,0,0,3,0,0,0,69,0,0,0,0,0,0,,0,NONE,0,0,0,0,0,0,0,0,0,0,0,1.91,0,0,0,0,0,0,0,0,0,90.33,1,-0.058,0.08,-0.0015,0.635,0,-0.0015,0,0,0,0,0,0,1,1,0,0,VALID,0,0,0,0,0,1,0,0,0,0,0,0,0,0,0,0,0,0,0,0,305.4,458.81,2,0,0.08,0.08,276,14.29,0.08,0.06,23.44,LANDED,CF1-J,0:/Integrated Flight Computer/aircraft/cf1_j_cfg.ks (inferred preloaded)
23.92,TAKEOFF,TO_GROUND_ROLL,57.36,80,22.64,3.64,1.89,-0.09,0.16,0.24,90.43,0.027,1,0,0,0,0,0,0,0,0,0,0,0,0,0,0,90.33,0,1,0,-0.09,0,0,0.04,90,0,0,0,0,0,0,0,0,-0.06,0,0,3,0,0,0,69,0,0,0,0,0,0,,0,NONE,0,0,0,0,0,0,0,0,0,0,0,1.89,0,0,0,0,0,0,0,0,0,90.33,1,-0.06,0.096,-0.0019,0.65,0,-0.0019,0,0,0,0,0,0,1,1,0,0,VALID,0,0,0,0,0,1,0,0,0,0,0,0,0,0,0,0,0,0,0,0,307.38,457.96,2,0,0.08,0.08,280,14.29,0.08,0.06,23.72,LANDED,CF1-J,0:/Integrated Flight Computer/aircraft/cf1_j_cfg.ks (inferred preloaded)
24.2,TAKEOFF,TO_GROUND_ROLL,58.78,80,21.22,3.65,1.87,-0.09,0.2,0.28,90.44,0.024,1,0,0,0,0,0,0,0,0,0,0,0,0,0,0,90.33,0,1,0,-0.08,0,0,0.04,90,0,0,0,0,0,0,0,0,-0.063,0,0,3,0,0,0,69,0,0,0,0,0,0,,0,NONE,0,0,0,0,0,0,0,0,0,0,0,1.87,0,0,0,0,0,0,0,0,0,90.33,1,-0.063,0.114,-0.0023,0.665,0,-0.0023,0,0,0,0,0,0,1,1,0,0,VALID,0,0,0,0,0,1,0,0,0,0,0,0,0,0,0,0,0,0,0,0,309.31,457.09,2,0,0.08,0.08,284,14.29,0.08,0.06,24,LANDED,CF1-J,0:/Integrated Flight Computer/aircraft/cf1_j_cfg.ks (inferred preloaded)
24.48,TAKEOFF,TO_GROUND_ROLL,60.2,80,19.8,3.66,1.86,-0.09,0.25,0.33,90.46,0.024,1,0,0,0,0,0,0,0,0,0,0,0,0,0,0,90.32,0,1,0,-0.08,0,0,0.04,90,0,0,0,0,0,0,0,0,-0.065,0,0,3,0,0,0,69,0,0,0,0,0,0,,0,NONE,0,0,0,0,0,0,0,0,0,0,0,1.86,0,0,0,0,0,0,0,0,0,90.32,1,-0.065,0.131,-0.0028,0.681,0,-0.0028,0,0,0,0,0,0,1,1,0,0,VALID,0,0,0,0,0,1,0,0,0,0,0,0,0,0,0,0,0,0,0,0,311.17,456.21,2,0,0.08,0.08,288,14.29,0.08,0.06,24.28,LANDED,CF1-J,0:/Integrated Flight Computer/aircraft/cf1_j_cfg.ks (inferred preloaded)
24.76,TAKEOFF,TO_GROUND_ROLL,61.63,80,18.37,3.69,1.86,-0.07,0.32,0.38,90.47,0.026,1,0,0,0,0,0,0,0,0,0,0,0,0,0,0,90.32,0,1,0,-0.06,0,0,0.04,90,0,0,0,0,0,0,0,0,-0.068,0,0,3,0,0,0,69,0,0,0,0,0,0,,0,NONE,0,0,0,0,0,0,0,0,0,0,0,1.86,0,0,0,0,0,0,0,0,0,90.32,1,-0.068,0.15,-0.0034,0.696,0,-0.0034,0,0,0,0,0,0,1,1,0,0,VALID,0,0,0,0,0,1,0,0,0,0,0,0,0,0,0,0,0,0,0,0,312.98,455.32,2,0,0.08,0.08,292,14.29,0.08,0.06,24.56,LANDED,CF1-J,0:/Integrated Flight Computer/aircraft/cf1_j_cfg.ks (inferred preloaded)
25.04,TAKEOFF,TO_GROUND_ROLL,63.06,80,16.94,3.7,1.85,-0.06,0.44,0.49,90.48,0.031,1,0,0,0,0,0,0,0,0,0,0,0,0,0,0,90.32,0,1,0,-0.05,0,0,0.05,90,0,0,0,0,0,0,0,0,-0.071,0,0,3,0,0,0,69,0,0,0,0,0,0,,0,NONE,0,0,0,0,0,0,0,0,0,0,0,1.85,0,0,0,0,0,0,0,0,0,90.32,1,-0.071,0.165,-0.0039,0.711,0,-0.0039,0,0,0,0,0,0,1,1,0,0,VALID,0,0,0,0,0,1,0,0,0,0,0,0,0,0,0,0,0,0,0,0,314.73,454.42,2,0,0.08,0.08,296,14.29,0.08,0.06,24.84,LANDED,CF1-J,0:/Integrated Flight Computer/aircraft/cf1_j_cfg.ks (inferred preloaded)
25.32,TAKEOFF,TO_GROUND_ROLL,64.49,80,15.51,3.72,1.85,-0.05,0.54,0.58,90.5,0.032,1,0,0,0,0,0,0,0,0,0,0,0,0,0,0,90.32,0,1,0,-0.05,0,0,0.05,90,0,0,0,0,0,0,0,0,-0.075,0,0,3,0,0,0,69,0,0,0,0,0,0,,0,NONE,0,0,0,0,0,0,0,0,0,0,0,1.85,0,0,0,0,0,0,0,0,0,90.32,1,-0.075,0.182,-0.0045,0.727,0,-0.0045,0,0,0,0,0,0,1,1,0,0,VALID,0,0,0,0,0,1,0,0,0,0,0,0,0,0,0,0,0,0,0,0,316.43,453.52,2,0,0.08,0.08,300,14.29,0.08,0.06,25.12,LANDED,CF1-J,0:/Integrated Flight Computer/aircraft/cf1_j_cfg.ks (inferred preloaded)
25.6,TAKEOFF,TO_GROUND_ROLL,65.93,80,14.07,3.73,1.84,-0.09,0.62,0.7,90.51,0.031,1,0,0,0,0,0,0,0,0,0,0,0,0,0,0,90.31,0,1,0,-0.08,0,0,0.05,90,0,0,0,0,0,0,0,0,-0.078,0,0,3,0,0,0,69,0,0,0,0,0,0,,0,NONE,0,0,0,0,0,0,0,0,0,0,0,1.84,0,0,0,0,0,0,0,0,0,90.31,1,-0.078,0.193,-0.005,0.742,0,-0.005,0,0,0,0,0,0,1,1,0,0,VALID,0,0,0,0,0,1,0,0,0,0,0,0,0,0,0,0,0,0,0,0,318.08,452.6,2,0,0.08,0.08,304,14.29,0.08,0.06,25.4,LANDED,CF1-J,0:/Integrated Flight Computer/aircraft/cf1_j_cfg.ks (inferred preloaded)
25.88,TAKEOFF,TO_GROUND_ROLL,67.38,80,12.62,3.74,1.82,-0.09,0.68,0.75,90.52,0.031,1,0,0,0,0,0,0,0,0,0,0,0,0,0,0,90.31,0,1,0,-0.08,0,0,0.05,90,0,0,0,0,0,0,0,0,-0.082,0,0,3,0,0,0,69,0,0,0,0,0,0,,0,NONE,0,0,0,0,0,0,0,0,0,0,0,1.82,0,0,0,0,0,0,0,0,0,90.31,1,-0.082,0.205,-0.0055,0.758,0,-0.0055,0,0,0,0,0,0,1,1,0,0,VALID,0,0,0,0,0,1,0,0,0,0,0,0,0,0,0,0,0,0,0,0,319.67,451.68,2,0,0.08,0.08,308,14.29,0.08,0.06,25.68,LANDED,CF1-J,0:/Integrated Flight Computer/aircraft/cf1_j_cfg.ks (inferred preloaded)
26.16,TAKEOFF,TO_ROTATE,68.93,80,11.07,3.75,1.8,-0.08,0.71,0.78,90.52,0.033,1,0,0,0,0,0,0,0,0,0,0,0,0,0,0,90.31,1.114,1,0,-0.07,0,0,0.05,90,0,0,0,0,0,0,0,0,-0.085,0,0,3,0,0,0,69,0,0,0,0,0,0,,0,NONE,0,0,0,0,0,0,0,0.12,0,0,0,1.8,0,0,0,0,0,0,0,0,0,90.31,1,-0.085,0.215,-0.0059,0.773,0,-0.0059,0,0.12,1.114,0.405,0.08,0,1,1,0,0,VALID,0,0,0,0,0,1,0,0,0,0,0,0,0,0,0,0,0,0,0,0,321.32,450.69,2,0,0.08,0.08,312,13.33,0.08,0.06,25.96,LANDED,CF1-J,0:/Integrated Flight Computer/aircraft/cf1_j_cfg.ks (inferred preloaded)
26.44,TAKEOFF,TO_ROTATE,70.37,80,9.63,3.76,1.79,-0.08,0.77,0.84,90.53,0.035,1,0,0,0,0,0,0,0,0,0,0,0,0,0,0,90.31,1.954,1,0,-0.07,0,0,0.06,90,0,0,0,0,0,0,0,0,-0.089,0,0,3,0,0,0,69,0,0,0,0,0,0,,0,NONE,0,0,0,0,0,0,0,0.1746,0,0,0,1.79,0,0,0,0,0,0,0,0,0,90.31,1,-0.089,0.224,-0.0064,0.789,0,-0.0064,0,0.1746,1.954,1.182,0.08,0,1,1,0,0,VALID,0,0,0,0,0,1,0,0,0,0,0,0,0,0,0,0,0,0,0,0,322.8,449.75,2,0,0.08,0.08,316,14.29,0.08,0.06,26.24,LANDED,CF1-J,0:/Integrated Flight Computer/aircraft/cf1_j_cfg.ks (inferred preloaded)
26.74,TAKEOFF,TO_ROTATE,71.93,80,8.07,3.8,1.8,-0.07,0.96,1.01,90.54,0.036,1,0,0,0,0,0,0,0,0,0,0,0,0,0,0,90.3,2.854,1,0,-0.06,0,0,0.06,90,0,0,0,0,0,0,0,0,-0.093,0,0,3,0,0,0,69,0,0,0,0,0,0,,0,NONE,0,0,0,0,0,0,0,0.2318,0,0,0,1.8,0,0,0,0,0,0,0,0,0,90.3,1,-0.093,0.232,-0.0068,0.805,0,-0.0068,0,0.2318,2.854,1.898,0.08,0,1,1,0,0,VALID,0,0,0,0,0,1,0,0,0,0,0,0,0,0,0,0,0,0,0,0,324.34,448.74,2,0,0.08,0.08,320,13.33,0.08,0.06,26.54,LANDED,CF1-J,0:/Integrated Flight Computer/aircraft/cf1_j_cfg.ks (inferred preloaded)
27.02,TAKEOFF,TO_ROTATE,73.37,80,6.63,3.85,1.83,-0.06,1.24,1.29,90.54,0.033,1,0,0,0,0,0,0,0,0,0,0,0,0,0,0,90.3,3.694,1,0,-0.05,0,0,0.06,90,0,0,0,0,0,0,0,0,-0.097,0,0,3,0,0,0,69,0,0,0,0,0,0,,0,NONE,0,0,0,0,0,0,0,0.2764,0,0,0,1.83,0,0,0,0,0,0,0,0,0,90.3,1,-0.097,0.238,-0.0072,0.821,0,-0.0072,0,0.2764,3.694,2.455,0.08,0,1,1,0,0,VALID,0,0,0,0,0,1,0,0,0,0,0,0,0,0,0,0,0,0,0,0,325.73,447.8,2,0,0.08,0.08,324,14.29,0.08,0.06,26.82,LANDED,CF1-J,0:/Integrated Flight Computer/aircraft/cf1_j_cfg.ks (inferred preloaded)
27.3,TAKEOFF,TO_ROTATE,74.81,80,5.19,3.91,1.86,-0.04,1.56,1.6,90.54,0.022,1,0,0,0,0,0,0,0,0,0,0,0,0,0,0,90.3,4.534,1,0,-0.04,0,0,0.06,90,0,0,0,0,0,0,0,0,-0.101,0,0,3,0,0,0,69,0,0,0,0,0,0,,0,NONE,0,0,0,0,0,0,0,0.3177,0,0,0,1.86,0,0,0,0,0,0,0,0,0,90.3,1,-0.101,0.241,-0.0075,0.836,0,-0.0075,0,0.3177,4.534,2.972,0.08,0,1,1,0,0,VALID,0,0,0,0,0,1,0,0,0,0,0,0,0,0,0,0,0,0,0,0,327.08,446.86,2,0,0.08,0.08,328,14.29,0.08,0.06,27.1,LANDED,CF1-J,0:/Integrated Flight Computer/aircraft/cf1_j_cfg.ks (inferred preloaded)
27.58,TAKEOFF,TO_ROTATE,76.25,80,3.75,3.98,1.91,-0.01,1.91,1.92,90.54,0.011,1,0,0,0,0,0,0,0,0,0,0,0,0,0,0,90.3,5.374,1,0,-0.01,0,0,0.06,90,0,0,0,0,0,0,0,0,-0.106,0,0,3,0,0,0,69,0,0,0,0,0,0,,0,NONE,0,0,0,0,0,0,0,0.3569,0,0,0,1.91,0,0,0,0,0,0,0,0,0,90.3,1,-0.106,0.242,-0.0076,0.852,0,-0.0076,0,0.3569,5.374,3.462,0.08,0,1,1,0,0,VALID,0,0,0,0,0,1,0,0,0,0,0,0,0,0,0,0,0,0,0,0,328.38,445.91,2,0,0.08,0.08,332,14.29,0.08,0.06,27.38,LANDED,CF1-J,0:/Integrated Flight Computer/aircraft/cf1_j_cfg.ks (inferred preloaded)
27.86,TAKEOFF,TO_ROTATE,77.67,80,2.33,4.11,2.01,-0.07,2.36,2.38,90.54,0.01,1,0,0,0,0,0,0,0,0,0,0,0,0,0,0,90.29,6.214,1,0,-0.02,0,0,0.07,90,0,0,0,0,0,0,0,0,-0.11,0,0,3,0,0,0,69,0,0,0,0,0,0,,0,NONE,0,0,0,0,0,0,0,0.3884,0,0,0,2.01,0,0,0,0,0,0,0,0,0,90.29,1,-0.11,0.244,-0.0079,0.867,0,-0.0079,0,0.3884,6.214,3.855,0.08,0,1,1,0,0,VALID,0,0,0,0,0,1,0,0,0,0,0,0,0,0,0,0,0,0,0,0,329.64,444.97,2,0,0.08,0.08,336,14.29,0.08,0.06,27.66,LANDED,CF1-J,0:/Integrated Flight Computer/aircraft/cf1_j_cfg.ks (inferred preloaded)
28.14,TAKEOFF,TO_ROTATE,79.07,80,0.93,4.23,2.14,0.18,3.16,3.07,90.53,0.019,1,0,0,0,0,0,0,0,0,0,0,0,0,0,0,90.29,7.054,1,0,0.1,0,0,0.07,90,0,0,0,0,0,0,0,0,-0.114,0,0,3,0,0,0,69,0,0,0,0,0,0,,0,NONE,0,0,0,0,0,0,0,0.3914,0,0,0,2.14,0,0,0,0,0,0,0,0,0,90.29,1,-0.114,0.241,-0.0079,0.882,0,-0.0079,0,0.3914,7.054,3.893,0.08,0,1,1,0,0,VALID,0,0,0,0,0,1,0,0,0,0,0,0,0,0,0,0,0,0,0,0,330.87,444.04,2,0,0.08,0.08,340,14.29,0.08,0.06,27.94,LANDED,CF1-J,0:/Integrated Flight Computer/aircraft/cf1_j_cfg.ks (inferred preloaded)
28.42,TAKEOFF,TO_ROTATE,80.44,80,-0.44,4.45,2.34,0,4.07,4.06,90.53,0.033,1,0,0,0,0,0,0,0,0,0,0,0,0,0,0,90.29,7.894,1,0,0.02,0,0,0.07,90,0,0,0,0,0,0,0,0,-0.118,0,0,3,0,0,0,69,0,0,0,0,0,0,,0,NONE,0,0,0,0,0,0,0,0.3856,0,0,0,2.34,0,0,0,0,0,0,0,0,0,90.29,1,-0.118,0.242,-0.008,0.897,0,-0.008,0,0.3856,7.894,3.82,0.08,0,1,1,0,0,VALID,0,0,0,0,0,1,0,0,0,0,0,0,0,0,0,0,0,0,0,0,332.08,443.13,2,0,0.08,0.08,344,14.29,0.08,0.06,28.22,LANDED,CF1-J,0:/Integrated Flight Computer/aircraft/cf1_j_cfg.ks (inferred preloaded)
28.7,TAKEOFF,TO_ROTATE,81.76,80,-1.76,4.68,2.55,0.14,5.36,5.28,90.52,0.017,1,0,0,0,0,0,0,0,0,0,0,0,0,0,0,90.28,8.734,1,0,0.08,0,0,0.07,90,0,0,0,0,0,0,0,0,-0.123,0,0,3,0,0,0,69,0,0,0,0,0,0,,0,NONE,0,0,0,0,0,0,0,0.35,0,0,0,2.55,0,0,0,0,0,0,0,0,0,90.28,1,-0.123,0.236,-0.0079,0.911,0,-0.0079,0,0.35,8.734,3.375,0.08,0,1,1,0,0,VALID,0,0,0,0,0,1,0,0,0,0,0,0,0,0,0,0,0,0,0,0,333.27,442.25,2,0,0.08,0.08,348,14.29,0.08,0.06,28.5,LANDED,CF1-J,0:/Integrated Flight Computer/aircraft/cf1_j_cfg.ks (inferred preloaded)
28.96,TAKEOFF,TO_ROTATE,82.92,80,-2.92,4.94,2.79,0.42,6.54,6.21,90.51,-0.004,1,0,0,0,0,0,0,0,0,0,0,0,0,0,0,90.4,9.574,1,0,0.29,0,0,0.07,90,-0.8408,-0.007,0.5412,9.57,90.4,0,0,0,0,0,0,3,0,0,0,69,0,0,0,0,0,0,,0,NONE,0,0,0,0,0,0,0,0,0,0,0,2.79,0,0,0,0,0,0,0,0,0,90.4,1,0,0.111,0,0,3,0,0,0,9.574,3.037,0,0,1,1,0,0,VALID,0,0,0,0,0,1,0,0,0,0,0,0,0,0,0,0,0,0,0,0,334.36,441.48,2,0,0.08,0.08,352,15.38,0.08,0.06,28.78,FLYING,CF1-J,0:/Integrated Flight Computer/aircraft/cf1_j_cfg.ks (inferred preloaded)
29.24,TAKEOFF,TO_ROTATE,84.09,80,-4.09,5.28,3.1,1.1,7.15,6.44,90.52,-0.018,1,0,0,0,0,0,0,0,0,0,0,0,0,0,0,90.4,10,0,1,0.75,0,0,10,90.4,-0.8368,-0.007,0.5474,10,90.4,0,0,0,0,0,0,3,0,0,0,69,0,0,0,0,0,0,,0,NONE,0,0,0,0,0,0,0,0,0,0,0,3.1,0,0,0,0,0,0,0,0,0,90.4,1,0,0.117,0,0,3,0,0,0,10,2.846,0,0,1,1,0,0,VALID,0,0,0,0,0,1,0,0,0,0,0,0,0,0,0,0,0,0,0,0,335.54,440.68,2,0,0.08,0.08,356,14.29,0.08,0.06,29.06,FLYING,CF1-J,0:/Integrated Flight Computer/aircraft/cf1_j_cfg.ks (inferred preloaded)
29.52,TAKEOFF,TO_ROTATE,85.23,80,-5.23,5.76,3.56,1.78,7.46,6.33,90.52,-0.031,1,0,0,0,0,0,0,0,0,0,0,0,0,0,0,90.4,10,0,1,1.2,0,0,10,90.4,-0.8368,-0.007,0.5474,10,90.4,0,0,0,0,0,0,3,0,0,0,69,0,0,0,0,0,0,,0,NONE,0,0,0,0,0,0,0,0,0,0,0,3.56,0,0,0,0,0,0,0,0,0,90.4,1,0,0.115,0,0,3,0,0,0,10,2.535,0,0,1,1,0,0,VALID,0,0,0,0,0,1,0,0,0,0,0,0,0,0,0,0,0,0,0,0,336.69,439.89,2,0,0.08,0.08,360,14.29,0.08,0.06,29.34,FLYING,CF1-J,0:/Integrated Flight Computer/aircraft/cf1_j_cfg.ks (inferred preloaded)
29.8,TAKEOFF,TO_CLIMB,86.36,80,-6.36,6.42,4.21,2.51,7.71,6.13,90.51,-0.044,0.912,0,0,0,0,0,0,0,0,0,0,0,0,0,0,90.4,7.878,0,1,1.67,0,0,7.75,90.4,-0.8566,-0.007,0.516,7.88,90.4,0,0,0,0,0,0,3,0,0,0,69,0,0,0,0,0,0,,0,NONE,0,0,0,0,0,0,0,0,0,0,0,4.21,0,0,0,0,0,0,0,0,0,90.4,1,0,0.111,0,0,3,0,0,0,10,2.474,0,0,1,1,0,0,VALID,0,0,0,0,0,1,0,0,0,0,0,0,0,0,0,0,0,0,0,0,337.7,439.11,2,0,0.08,0.08,364,14.29,0.08,0.06,29.62,FLYING,CF1-J,0:/Integrated Flight Computer/aircraft/cf1_j_cfg.ks (inferred preloaded)
30.08,TAKEOFF,TO_CLIMB,87.47,80,-7.47,7.26,5.03,3.27,7.75,5.75,90.51,-0.049,0.8753,0,0,0,0,0,0,0,0,0,0,0,0,0,0,90.4,8,0,1,2.14,0,0,8,90.4,-0.8555,-0.007,0.5178,8,90.4,0,0,0,0,0,0,3,0,0,0,69,0,0,0,0,0,0,,0,NONE,0,0,0,0,0,0,0,0,0,0,0,5.03,0,0,0,0,0,0,0,0,0,90.4,1,0,0.108,0,0,3,0,0,0,10,2.474,0,0,1,1,0,0,VALID,0,0,0,0,0,1,0,0,0,0,0,0,0,0,0,0,0,0,0,0,338.03,438.31,2,0,0.08,0.08,368,14.29,0.08,0.06,29.9,FLYING,CF1-J,0:/Integrated Flight Computer/aircraft/cf1_j_cfg.ks (inferred preloaded)
30.36,TAKEOFF,TO_CLIMB,88.58,80,-8.58,8.25,6,3.94,7.45,5.07,90.5,-0.064,0.8642,0,0,0,0,0,0,0,0,0,0,0,0,0,0,90.4,8,0,1,2.54,0,0,8,90.4,-0.8555,-0.007,0.5178,8,90.4,0,0,0,0,0,0,3,0,0,0,69,0,0,0,0,0,0,,0,NONE,0,0,0,0,0,0,0,0,0,0,0,6,0,0,0,0,0,0,0,0,0,90.4,1,0,0.104,0,0,3,0,0,0,10,2.474,0,0,1,1,0,0,VALID,0,0,0,0,0,1,0,0,0,0,0,0,0,0,0,0,0,0,0,0,338.16,437.51,2,0,0.08,0.08,372,14.29,0.08,0.06,30.18,FLYING,CF1-J,0:/Integrated Flight Computer/aircraft/cf1_j_cfg.ks (inferred preloaded)
30.64,TAKEOFF,TO_CLIMB,89.71,80,-9.71,9.39,7.12,4.37,7.13,4.48,90.5,-0.071,0.8529,0,0,0,0,0,0,0,0,0,0,0,0,0,0,90.4,8,0,1,2.79,0,0,8,90.4,-0.8555,-0.007,0.5177,8,90.4,0,0,0,0,0,0,3,0,0,0,69,0,0,0,0,0,0,,0,NONE,0,0,0,0,0,0,0,0,0,0,0,7.12,0,0,0,0,0,0,0,0,0,90.4,1,0,0.101,0,0,3,0,0,0,10,2.474,0,0,1,1,0,0,VALID,0,0,0,0,0,1,0,0,0,0,0,0,0,0,0,0,0,0,0,0,338.17,436.68,2,0,0.08,0.08,376,14.29,0.08,0.06,30.46,FLYING,CF1-J,0:/Integrated Flight Computer/aircraft/cf1_j_cfg.ks (inferred preloaded)
30.92,TAKEOFF,TO_CLIMB,90.85,80,-10.85,10.7,8.42,4.79,7.23,4.35,90.5,-0.076,0.8415,0,0,0,0,0,0,0,0,0,0,0,0,0,0,90.4,8,0,1,3.02,0,0,8,90.4,-0.8555,-0.007,0.5177,8,90.4,0,0,0,0,0,0,3,0,0,0,69,0,0,0,0,0,0,,0,NONE,0,0,0,0,0,0,0,0,0,0,0,8.42,0,0,0,0,0,0,0,0,0,90.4,1,0,0.098,0,0,3,0,0,0,10,2.474,0,0,1,1,0,0,VALID,0,0,0,0,0,1,0,0,0,0,0,0,0,0,0,0,0,0,0,0,338.07,435.84,2,0,0.08,0.08,380,14.29,0.08,0.06,30.74,FLYING,CF1-J,0:/Integrated Flight Computer/aircraft/cf1_j_cfg.ks (inferred preloaded)
31.2,TAKEOFF,TO_CLIMB,91.97,80,-11.97,12.17,9.87,5.23,7.47,4.33,90.49,-0.095,0.8303,0,0,0,0,0,0,0,0,0,0,0,0,0,0,90.4,8,0,1,3.25,0,0,8,90.4,-0.8556,-0.007,0.5176,8,90.4,0,0,0,0,0,0,3,0,0,0,69,0,0,0,0,0,0,,0,NONE,0,0,0,0,0,0,0,0,0,0,0,9.87,0,0,0,0,0,0,0,0,0,90.4,1,0,0.093,0,0,3,0,0,0,10,2.474,0,0,1,1,0,0,VALID,0,0,0,0,0,1,0,0,0,0,0,0,0,0,0,0,0,0,0,0,337.87,435,2,0,0.08,0.08,384,14.29,0.08,0.06,31.02,FLYING,CF1-J,0:/Integrated Flight Computer/aircraft/cf1_j_cfg.ks (inferred preloaded)
31.48,TAKEOFF,TO_CLIMB,93.07,80,-13.07,13.75,11.44,5.94,7.43,4,90.49,-0.099,0.8193,0,0,0,0,0,0,0,0,0,0,0,0,0,0,90.4,8,0,1,3.65,0,0,8,90.4,-0.8556,-0.007,0.5176,8,90.4,0,0,0,0,0,0,3,0,0,0,69,0,0,0,0,0,0,,0,NONE,0,0,0,0,0,0,0,0,0,0,0,11.44,0,0,0,0,0,0,0,0,0,90.4,1,0,0.089,0,0,3,0,0,0,10,2.474,0,0,1,1,0,0,VALID,0,0,0,0,0,1,0,0,0,0,0,0,0,0,0,0,0,0,0,0,337.59,434.16,2,0,0.08,0.08,388,14.29,0.08,0.06,31.3,FLYING,CF1-J,0:/Integrated Flight Computer/aircraft/cf1_j_cfg.ks (inferred preloaded)
31.76,TAKEOFF,TO_CLIMB,94.18,80,-14.18,15.44,13.12,6.21,7.27,3.63,90.48,-0.109,0.8082,0,0,0,0,0,0,0,0,0,0,0,0,0,0,90.4,8,0,1,3.77,0,0,8,90.4,-0.8556,-0.007,0.5176,8,90.4,0,0,0,0,0,0,3,0,0,0,69,0,0,0,0,0,0,,0,NONE,0,0,0,0,0,0,0,0,0,0,0,13.12,0,0,0,0,0,0,0,0,0,90.4,1,0,0.085,0,0,3,0,0,0,10,2.474,0,0,1,1,0,0,VALID,0,0,0,0,0,1,0,0,0,0,0,0,0,0,0,0,0,0,0,0,337.22,433.32,2,0,0.08,0.08,392,14.29,0.08,0.06,31.58,FLYING,CF1-J,0:/Integrated Flight Computer/aircraft/cf1_j_cfg.ks (inferred preloaded)
32.04,TAKEOFF,TO_CLIMB,95.28,80,-15.28,17.29,14.95,6.79,7.32,3.44,90.48,-0.11,0.7972,0,0,0,0,0,0,0,0,0,0,0,0,0,0,90.4,8,0,1,4.08,0,0,8,90.4,-0.8556,-0.007,0.5175,8,90.4,0,0,0,0,0,0,3,0,0,0,69,0,0,0,0,0,0,,0,NONE,0,0,0,0,0,0,0,0,0,0,0,14.95,0,0,0,0,0,0,0,0,0,90.4,1,0,0.081,0,0,3,0,0,0,10,2.474,0,0,1,1,0,0,VALID,0,0,0,0,0,1,0,0,0,0,0,0,0,0,0,0,0,0,0,0,336.76,432.48,2,0,0.08,0.08,396,14.29,0.08,0.06,31.86,FLYING,CF1-J,0:/Integrated Flight Computer/aircraft/cf1_j_cfg.ks (inferred preloaded)
32.32,TAKEOFF,TO_CLIMB,96.37,80,-16.37,19.24,16.9,7.13,7.29,3.23,90.48,-0.112,0.7863,0,0,0,0,0,0,0,0,0,0,0,0,0,0,90.4,8,0,1,4.23,0,0,8,90.4,-0.8557,-0.007,0.5175,8,90.4,0,0,0,0,0,0,3,0,0,0,69,0,0,0,0,0,0,,0,NONE,0,0,0,0,0,0,0,0,0,0,0,16.9,0,0,0,0,0,0,0,0,0,90.4,1,0,0.078,0,0,3,0,0,0,10,2.474,0,0,1,1,0,0,VALID,0,0,0,0,0,1,0,0,0,0,0,0,0,0,0,0,0,0,0,0,336.22,431.62,2,0,0.08,0.08,400,14.29,0.08,0.06,32.14,FLYING,CF1-J,0:/Integrated Flight Computer/aircraft/cf1_j_cfg.ks (inferred preloaded)
32.6,TAKEOFF,TO_CLIMB,97.47,80,-17.47,21.31,18.96,7.56,7.29,3.05,90.47,-0.114,0.78,0,0,0,0,0,0,0,0,0,0,0,0,0,0,90.4,8,0,1,4.43,0,0,8,90.4,-0.8557,-0.007,0.5175,8,90.4,0,0,0,0,0,0,3,0,0,0,69,0,0,0,0,0,0,,0,NONE,0,0,0,0,0,0,0,0,0,0,0,18.96,0,0,0,0,0,0,0,0,0,90.4,1,0,0.074,0,0,3,0,0,0,10,2.474,0,0,1,1,0,0,VALID,0,0,0,0,0,1,0,0,0,0,0,0,0,0,0,0,0,0,0,0,335.59,430.77,2,0,0.08,0.08,404,14.29,0.08,0.06,32.42,FLYING,CF1-J,0:/Integrated Flight Computer/aircraft/cf1_j_cfg.ks (inferred preloaded)
32.88,TAKEOFF,TO_CLIMB,98.55,80,-18.55,23.5,21.14,7.96,7.31,2.88,90.47,-0.115,0.78,0,0,0,0,0,0,0,0,0,0,0,0,0,0,90.4,8,0,1,4.62,0,0,8,90.4,-0.8557,-0.007,0.5174,8,90.4,0,0,0,0,0,0,3,0,0,0,69,0,0,0,0,0,0,,0,NONE,0,0,0,0,0,0,0,0,0,0,0,21.14,0,0,0,0,0,0,0,0,0,90.4,1,0,0.07,0,0,3,0,0,0,10,2.474,0,0,1,1,0,0,VALID,0,0,0,0,0,1,0,0,0,0,0,0,0,0,0,0,0,0,0,0,334.93,429.92,2,0,0.08,0.08,408,14.29,0.08,0.06,32.7,FLYING,CF1-J,0:/Integrated Flight Computer/aircraft/cf1_j_cfg.ks (inferred preloaded)
33.16,TAKEOFF,TO_CLIMB,99.63,80,-19.63,25.8,23.43,8.37,7.32,2.71,90.47,-0.117,0.78,0,0,0,0,0,0,0,0,0,0,0,0,0,0,90.4,8,0,1,4.8,0,0,8,90.4,-0.8557,-0.007,0.5174,8,90.4,0,0,0,0,0,0,3,0,0,0,69,0,0,0,0,0,0,,0,NONE,0,0,0,0,0,0,0,0,0,0,0,23.43,0,0,0,0,0,0,0,0,0,90.4,1,0,0.066,0,0,3,0,0,0,10,2.474,0,0,1,1,0,0,VALID,0,0,0,0,0,1,0,0,0,0,0,0,0,0,0,0,0,0,0,0,334.27,429.06,2,0,0.08,0.08,412,14.29,0.08,0.06,32.98,FLYING,CF1-J,0:/Integrated Flight Computer/aircraft/cf1_j_cfg.ks (inferred preloaded)
33.44,TAKEOFF,TO_CLIMB,100.69,80,-20.69,28.2,25.83,8.76,7.33,2.55,90.46,-0.117,0.78,0,0,0,0,0,0,0,0,0,0,0,0,0,0,90.4,8,0,1,4.97,0,0,8,90.4,-0.8558,-0.007,0.5173,8,90.4,0,0,0,0,0,0,3,0,0,0,69,0,0,0,0,0,0,,0,NONE,0,0,0,0,0,0,0,0,0,0,0,25.83,0,0,0,0,0,0,0,0,0,90.4,1,0,0.063,0,0,3,0,0,0,10,2.474,0,0,1,1,0,0,VALID,0,0,0,0,0,1,0,0,0,0,0,0,0,0,0,0,0,0,0,0,333.61,428.21,2,0,0.08,0.08,416,14.29,0.08,0.06,33.26,FLYING,CF1-J,0:/Integrated Flight Computer/aircraft/cf1_j_cfg.ks (inferred preloaded)
33.72,TAKEOFF,TO_CLIMB,101.75,80,-21.75,30.75,28.35,9.16,7.34,2.4,90.46,-0.118,0.78,0,0,0,0,0,0,0,0,0,0,0,0,0,0,90.4,8,0,1,5.14,0,0,8,90.4,-0.8558,-0.007,0.5173,8,90.4,0,0,0,0,0,0,3,0,0,0,69,0,0,0,0,0,0,,0,NONE,0,0,0,0,0,0,0,0,0,0,0,28.35,0,0,0,0,0,0,0,0,0,90.4,1,0,0.059,0,0,3,0,0,0,10,2.474,0,0,1,1,0,0,VALID,0,0,0,0,0,1,0,0,0,0,0,0,0,0,0,0,0,0,0,0,332.96,427.35,2,0,0.08,0.08,420,14.29,0.08,0.06,33.54,FLYING,CF1-J,0:/Integrated Flight Computer/aircraft/cf1_j_cfg.ks (inferred preloaded)
34,TAKEOFF,TO_CLIMB,102.8,80,-22.8,33.38,30.97,9.55,7.35,2.25,90.46,-0.119,0.78,0,0,0,0,0,0,0,0,0,0,0,0,0,0,90.4,8,0,1,5.31,0,0,8,90.4,-0.8558,-0.007,0.5172,8,90.4,0,0,0,0,0,0,3,0,0,0,69,0,0,0,0,0,0,,0,NONE,0,0,0,0,0,0,0,0,0,0,0,30.97,0,0,0,0,0,0,0,0,0,90.4,1,0,0.055,0,0,3,0,0,0,10,2.474,0,0,1,1,0,0,VALID,0,0,0,0,0,1,0,0,0,0,0,0,0,0,0,0,0,0,0,0,332.3,426.5,2,0,0.08,0.08,424,14.29,0.08,0.06,33.82,FLYING,CF1-J,0:/Integrated Flight Computer/aircraft/cf1_j_cfg.ks (inferred preloaded)
34.28,TAKEOFF,TO_CLIMB,103.84,80,-23.84,36.11,33.71,9.93,7.36,2.11,90.45,-0.12,0.78,0,0,0,0,0,0,0,0,0,0,0,0,0,0,90.4,8,0,1,5.46,0,0,8,90.4,-0.8558,-0.007,0.5172,8,90.4,0,0,0,0,0,0,3,0,0,0,69,0,0,0,0,0,0,,0,NONE,0,0,0,0,0,0,0,0,0,0,0,33.71,0,0,0,0,0,0,0,0,0,90.4,1,0,0.052,0,0,3,0,0,0,10,2.474,0,0,1,1,0,0,VALID,0,0,0,0,0,1,0,0,0,0,0,0,0,0,0,0,0,0,0,0,331.64,425.65,2,0,0.08,0.08,428,14.29,0.08,0.06,34.1,FLYING,CF1-J,0:/Integrated Flight Computer/aircraft/cf1_j_cfg.ks (inferred preloaded)
34.56,TAKEOFF,TO_CLIMB,104.87,80,-24.87,38.95,36.54,10.31,7.36,1.97,90.45,-0.119,0.78,0,0,0,0,0,0,0,0,0,0,0,0,0,0,90.4,8,0,1,5.61,0,0,8,90.4,-0.8559,-0.007,0.5172,8,90.4,0,0,0,0,0,0,3,0,0,0,69,0,0,0,0,0,0,,0,NONE,0,0,0,0,0,0,0,0,0,0,0,36.54,0,0,0,0,0,0,0,0,0,90.4,1,0,0.048,0,0,3,0,0,0,10,2.474,0,0,1,1,0,0,VALID,0,0,0,0,0,1,0,0,0,0,0,0,0,0,0,0,0,0,0,0,330.99,424.8,2,0,0.08,0.08,432,14.29,0.08,0.06,34.38,FLYING,CF1-J,0:/Integrated Flight Computer/aircraft/cf1_j_cfg.ks (inferred preloaded)
34.84,TAKEOFF,TO_CLIMB,105.89,80,-25.89,41.88,39.49,10.68,7.37,1.83,90.45,-0.116,0.78,0,0,0,0,0,0,0,0,0,0,0,0,0,0,90.4,8,0,1,5.76,0,0,8,90.4,-0.8559,-0.007,0.5171,8,90.4,0,0,0,0,0,0,3,0,0,0,69,0,0,0,0,0,0,,0,NONE,0,0,0,0,0,0,0,0,0,0,0,39.49,0,0,0,0,0,0,0,0,0,90.4,1,0,0.045,0,0,3,0,0,0,10,2.474,0,0,1,1,0,0,VALID,0,0,0,0,0,1,0,0,0,0,0,0,0,0,0,0,0,0,0,0,330.33,423.95,2,0,0.08,0.08,436,14.29,0.08,0.06,34.66,FLYING,CF1-J,0:/Integrated Flight Computer/aircraft/cf1_j_cfg.ks (inferred preloaded)
35.12,TAKEOFF,TO_CLIMB,106.91,80,-26.91,44.92,42.53,11.04,7.37,1.69,90.44,-0.115,0.78,0,0,0,0,0,0,0,0,0,0,0,0,0,0,90.4,8,0,1,5.9,0,0,8,90.4,-0.8559,-0.007,0.5171,8,90.4,0,0,0,0,0,0,3,0,0,0,69,0,0,0,0,0,0,,0,NONE,0,0,0,0,0,0,0,0,0,0,0,42.53,0,0,0,0,0,0,0,0,0,90.4,1,0,0.042,0,0,3,0,0,0,10,2.474,0,0,1,1,0,0,VALID,0,0,0,0,0,1,0,0,0,0,0,0,0,0,0,0,0,0,0,0,329.68,423.1,2,0,0.08,0.08,440,14.29,0.08,0.06,34.94,FLYING,CF1-J,0:/Integrated Flight Computer/aircraft/cf1_j_cfg.ks (inferred preloaded)
35.4,TAKEOFF,TO_CLIMB,107.91,80,-27.91,48.06,45.67,11.4,7.37,1.56,90.44,-0.113,0.78,0,0,0,0,0,0,0,0,0,0,0,0,0,0,90.4,8,0,1,6.03,0,0,8,90.4,-0.8559,-0.007,0.517,8,90.4,0,0,0,0,0,0,3,0,0,0,69,0,0,0,0,0,0,,0,NONE,0,0,0,0,0,0,0,0,0,0,0,45.67,0,0,0,0,0,0,0,0,0,90.4,1,0,0.039,0,0,3,0,0,0,10,2.474,0,0,1,1,0,0,VALID,0,0,0,0,0,1,0,0,0,0,0,0,0,0,0,0,0,0,0,0,329.02,422.25,2,0,0.08,0.08,444,14.29,0.08,0.06,35.22,FLYING,CF1-J,0:/Integrated Flight Computer/aircraft/cf1_j_cfg.ks (inferred preloaded)
35.68,TAKEOFF,TO_CLIMB,108.91,80,-28.91,51.3,48.92,11.75,7.37,1.44,90.44,-0.108,0.78,0,0,0,0,0,0,0,0,0,0,0,0,0,0,90.4,8,0,1,6.16,0,0,8,90.4,-0.856,-0.007,0.517,8,90.4,0,0,0,0,0,0,3,0,0,0,69,0,0,0,0,0,0,,0,NONE,0,0,0,0,0,0,0,0,0,0,0,48.92,0,0,0,0,0,0,0,0,0,90.4,1,0,0.036,0,0,3,0,0,0,10,2.474,0,0,1,1,0,0,VALID,0,0,0,0,0,1,0,0,0,0,0,0,0,0,0,0,0,0,0,0,328.37,421.41,2,0,0.08,0.08,448,14.29,0.08,0.06,35.5,FLYING,CF1-J,0:/Integrated Flight Computer/aircraft/cf1_j_cfg.ks (inferred preloaded)
35.96,TAKEOFF,TO_CLIMB,109.9,80,-29.9,54.63,52.26,12.09,7.37,1.32,90.43,-0.103,0.78,0,0,0,0,0,0,0,0,0,0,0,0,0,0,90.4,8,0,1,6.28,0,0,8,90.4,-0.856,-0.007,0.5169,8,90.4,0,0,0,0,0,0,3,0,0,0,69,0,0,0,0,0,0,,0,NONE,0,0,0,0,0,0,0,0,0,0,0,52.26,0,0,0,0,0,0,0,0,0,90.4,1,0,0.033,0,0,3,0,0,0,10,2.474,0,0,1,1,0,0,VALID,0,0,0,0,0,1,0,0,0,0,0,0,0,0,0,0,0,0,0,0,327.72,420.57,2,0,0.08,0.08,452,14.29,0.08,0.06,35.78,FLYING,CF1-J,0:/Integrated Flight Computer/aircraft/cf1_j_cfg.ks (inferred preloaded)
36.24,TAKEOFF,TO_CLIMB,110.89,80,-30.89,58.06,55.7,12.42,7.38,1.21,90.43,-0.1,0.78,0,0,0,0,0,0,0,0,0,0,0,0,0,0,90.4,8,0,1,6.39,0,0,8,90.4,-0.856,-0.007,0.5169,8,90.4,0,0,0,0,0,0,3,0,0,0,69,0,0,0,0,0,0,,0,NONE,0,0,0,0,0,0,0,0,0,0,0,55.7,0,0,0,0,0,0,0,0,0,90.4,1,0,0.03,0,0,3,0,0,0,10,2.474,0,0,1,1,0,0,VALID,0,0,0,0,0,1,0,0,0,0,0,0,0,0,0,0,0,0,0,0,327.07,419.72,2,0,0.08,0.08,456,14.29,0.08,0.06,36.06,FLYING,CF1-J,0:/Integrated Flight Computer/aircraft/cf1_j_cfg.ks (inferred preloaded)
36.52,TAKEOFF,TO_CLIMB,111.86,80,-31.86,61.57,59.22,12.75,7.38,1.1,90.43,-0.096,0.78,0,0,0,0,0,0,0,0,0,0,0,0,0,0,90.4,8,0,1,6.5,0,0,8,90.4,-0.8561,-0.007,0.5168,8,90.4,0,0,0,0,0,0,3,0,0,0,69,0,0,0,0,0,0,,0,NONE,0,0,0,0,0,0,0,0,0,0,0,59.22,0,0,0,0,0,0,0,0,0,90.4,1,0,0.028,0,0,3,0,0,0,10,2.474,0,0,1,1,0,0,VALID,0,0,0,0,0,1,0,0,0,0,0,0,0,0,0,0,0,0,0,0,326.42,418.88,2,0,0.08,0.08,460,14.29,0.08,0.06,36.34,FLYING,CF1-J,0:/Integrated Flight Computer/aircraft/cf1_j_cfg.ks (inferred preloaded)
36.8,TAKEOFF,TO_CLIMB,112.83,80,-32.83,65.18,62.84,13.07,7.37,1,90.43,-0.092,0.78,0,0,0,0,0,0,0,0,0,0,0,0,0,0,90.4,8,0,1,6.61,0,0,8,90.4,-0.8561,-0.007,0.5168,8,90.4,0,0,0,0,0,0,3,0,0,0,69,0,0,0,0,0,0,,0,NONE,0,0,0,0,0,0,0,0,0,0,0,62.84,0,0,0,0,0,0,0,0,0,90.4,1,0,0.025,0,0,3,0,0,0,10,2.474,0,0,1,1,0,0,VALID,0,0,0,0,0,1,0,0,0,0,0,0,0,0,0,0,0,0,0,0,325.78,418.05,2,0,0.08,0.08,464,14.29,0.08,0.06,36.62,FLYING,CF1-J,0:/Integrated Flight Computer/aircraft/cf1_j_cfg.ks (inferred preloaded)
37.08,TAKEOFF,TO_CLIMB,113.78,80,-33.78,68.87,66.55,13.39,7.37,0.9,90.42,-0.086,0.78,0,0,0,0,0,0,0,0,0,0,0,0,0,0,90.4,8,0,1,6.71,0,0,8,90.4,-0.8561,-0.007,0.5167,8,90.4,0,0,0,0,0,0,3,0,0,0,69,0,0,0,0,0,0,,0,NONE,0,0,0,0,0,0,0,0,0,0,0,66.55,0,0,0,0,0,0,0,0,0,90.4,1,0,0.023,0,0,3,0,0,0,10,2.474,0,0,1,1,0,0,VALID,0,0,0,0,0,1,0,0,0,0,0,0,0,0,0,0,0,0,0,0,325.13,417.21,2,0,0.08,0.08,468,14.29,0.08,0.06,36.9,FLYING,CF1-J,0:/Integrated Flight Computer/aircraft/cf1_j_cfg.ks (inferred preloaded)
37.36,TAKEOFF,TO_CLIMB,114.73,80,-34.73,72.64,70.34,13.69,7.37,0.79,90.42,-0.081,0.78,0,0,0,0,0,0,0,0,0,0,0,0,0,0,90.4,8,0,1,6.8,0,0,8,90.4,-0.8561,-0.007,0.5167,8,90.4,0,0,0,0,0,0,3,0,0,0,69,0,0,0,0,0,0,,0,NONE,0,0,0,0,0,0,0,0,0,0,0,70.34,0,0,0,0,0,0,0,0,0,90.4,1,0,0.021,0,0,3,0,0,0,10,2.474,0,0,1,1,0,0,VALID,0,0,0,0,0,1,0,0,0,0,0,0,0,0,0,0,0,0,0,0,324.49,416.38,2,0,0.08,0.08,472,14.29,0.08,0.06,37.18,FLYING,CF1-J,0:/Integrated Flight Computer/aircraft/cf1_j_cfg.ks (inferred preloaded)
37.64,TAKEOFF,TO_CLIMB,115.68,80,-35.68,76.5,74.22,13.99,7.36,0.7,90.42,-0.077,0.78,0,0,0,0,0,0,0,0,0,0,0,0,0,0,90.4,8,0,1,6.9,0,0,8,90.4,-0.8562,-0.007,0.5167,8,90.4,0,0,0,0,0,0,3,0,0,0,69,0,0,0,0,0,0,,0,NONE,0,0,0,0,0,0,0,0,0,0,0,74.22,0,0,0,0,0,0,0,0,0,90.4,1,0,0.019,0,0,3,0,0,0,10,2.474,0,0,1,1,0,0,VALID,0,0,0,0,0,1,0,0,0,0,0,0,0,0,0,0,0,0,0,0,323.85,415.55,2,0,0.08,0.08,476,14.29,0.08,0.06,37.46,FLYING,CF1-J,0:/Integrated Flight Computer/aircraft/cf1_j_cfg.ks (inferred preloaded)
