t_s,phase,subphase,ias_ms,vapp_ms,spd_err_ms,agl_m,gear_h_m,vs_ms,pitch_deg,aoa_deg,hdg_deg,bank_deg,thr_cmd,thr_cur,thr_intg,at_gain,at_tau_s,at_a_up,at_a_dn,at_kp_thr,at_ki_spd,at_thr_slew,as_cmd_deg,as_cap_deg,as_raw_deg,as_spd_err_ms,as_active,aa_hdg_cmd_deg,aa_fpa_cmd_deg,aa_fbw,aa_dir,actual_fpa_deg,ftf_hdg_err_deg,ftf_fix_idx,kos_steer_pit_deg,kos_steer_hdg_deg,aa_dir_vx,aa_dir_vy,aa_dir_vz,aa_dir_pitch_deg,aa_dir_hdg_deg,ils_loc_m,ils_gs_m,ils_dist_km,loc_corr_deg,gs_corr_deg,gs_latched,active_gs_ang_deg,ils_intercept_alt_m,d_gs_ms,fpa_preclamped_deg,gs_nom_alt_m,flare_fpa_cmd,flare_tgt_vs,flare_frac,flare_mode,flare_auth_limited,flare_vs_err,flare_fpa_err,flare_pitch_err,flare_req_up_a,flare_thr_floor,steer_hdg_deg,steer_blend,ro_loc_corr_deg,ro_hdg_err_deg,ro_yaw_tgt,ro_yaw_scale,ro_yaw_gate,yaw_cmd,roll_cmd,pitch_cmd,ro_pitch_tgt_deg,ro_pitch_err_deg,ro_pitch_ff,ro_roll_assist,flaps_cur,flaps_tgt,asc_j_ab,asc_j_rk,asc_validity,asc_q_pa,asc_q_raw_pa,asc_mach,asc_apo_m,asc_drag_n,asc_w_prop,asc_edot_aero,asc_edot_orb,asc_pitch_bias,asc_blend,asc_spooling,asc_ab_thr_ratio,asc_ab_t_now,asc_ab_t_avail,asc_ab_ign_on,asc_ab_flameouts,asc_rk_t_now,asc_rk_t_avail,asc_rk_ign_on,asc_rk_flameouts,ship_thrust,ship_avail_thrust,ship_ign_on,ship_flameouts,ifc_raw_dt_s,ifc_dt_s,ifc_loop_n,ifc_hz_est,ifc_raw_dt_max_s,ifc_raw_dt_min_s,phase_el_s,status,craft_name,cfg_file
0.16,APPROACH,ILS_TRACK,156.19,152,-4.19,644.31,564.11,-20.58,8.38,15.57,270.1,0.472,0,0,0,0,0,0,0,0,0,0,0,0,0,0,0,0,0,1,0,-7.52,0,0,0,90,0,0,0,0,0,0.04,-35.8,11.56,0,0,0,3,644.31,0,0,680.11,0,0,0,,0,0,0,0,0,0,270.08,0,0,0,0,0,0,0,0,0,0,0,0,0,0,0,0,0,VALID,0,0,0,0,0,1,0,0,0,0,0,0,0,0,0,0,0,0,0,0,258.92,1098.75,2,0,0.14,0.14,1,3.7,0.14,0.02,0.16,FLYING,X10-F,0:/Integrated Flight Computer/aircraft/x10_f_cfg.ks (inferred preloaded)
0.42,APPROACH,ILS_TRACK,156.21,152,-4.21,639.09,558.86,-19.84,8.58,15.51,270.15,0.374,0,0,0,1,0.6,1.494,0.75,0.35,0.0168,0.4,3.037,20.703,3.037,4.214,1,269.98,0,0,1,-7.28,0,0,0,269.9,0.4589,-0.0004,0.8885,0,269.98,0.06,-38.33,11.524,-0.022,20.699,1,3,644.31,-11.5,0,678.23,0,0,0,,0,0,0,0,0,0,270.08,0,0,0,0,0,0,0,0,0,0,0,0,0,1,3,0,0,VALID,0,0,0,0,0,1,0,0,0,0,0,0,0,0,0,0,0,0,0,0,236.44,1099.24,2,0,0.12,0.12,3,7.69,0.14,0.12,0.42,FLYING,X10-F,0:/Integrated Flight Computer/aircraft/x10_f_cfg.ks (inferred preloaded)
0.68,APPROACH,ILS_TRACK,156.06,152,-4.06,633.79,553.83,-19.17,7.84,14.46,270.12,0.238,0,0,0,1,0.6,2.759,0.75,0.35,0.0168,0.4,2.882,20.744,2.882,4.07,1,269.96,0,0,1,-7.02,0,0,0,269.96,0.459,-0.0006,0.8884,0,269.96,0.09,-41.4,11.481,-0.037,21.958,1,3,644.31,-11.924,0,676,0,0,0,,0,0,0,0,0,0,270.08,0,0,0,0,0,0,0,0,0,0,0,0,0,1,3,0,0,VALID,0,0,0,0,0,1,0,0,0,0,0,0,0,0,0,0,0,0,0,0,215.76,1098.98,2,0,0.12,0.12,5,7.69,0.14,0.12,0.68,FLYING,X10-F,0:/Integrated Flight Computer/aircraft/x10_f_cfg.ks (inferred preloaded)
0.94,APPROACH,ILS_TRACK,156.04,152,-4.04,628.45,548.94,-18.76,6.52,12.95,270.08,0.08,0,0,0,1,0.6,3.829,0.75,0.35,0.0168,0.4,2.853,20.751,2.853,4.043,1,269.96,0,0,1,-6.88,0,0,0,269.96,0.4591,-0.0008,0.8884,0,269.96,0.13,-44.5,11.439,-0.044,22.972,1,3,644.31,-12.025,0,673.78,0,0,0,,0,0,0,0,0,0,270.08,0,0,0,0,0,0,0,0,0,0,0,0,0,2,3,0,0,VALID,0,0,0,0,0,1,0,0,0,0,0,0,0,0,0,0,0,0,0,0,196.97,1099.26,2,0,0.12,0.12,7,7.69,0.14,0.12,0.94,FLYING,X10-F,0:/Integrated Flight Computer/aircraft/x10_f_cfg.ks (inferred preloaded)
1.3,APPROACH,ILS_TRACK,156.08,152,-4.08,620.73,542.3,-18.86,3.22,9.59,270.06,0.038,0,0,0,1,0.6,4.5,0.75,0.35,0.0168,0.4,2.877,20.745,2.877,4.066,1,269.96,0,0,1,-6.86,0,0,0,269.95,0.4592,-0.0007,0.8884,0,269.96,0.19,-49.1,11.38,-0.041,25.198,1,3,644.31,-13.084,0,670.7,0,0,0,,0,0,0,0,0,0,270.08,0,0,0,0,0,0,0,0,0,0,0,0,0,3,3,0,0,VALID,0,0,0,0,0,1,0,0,0,0,0,0,0,0,0,0,0,0,0,0,173.67,1099.91,2,0,0.12,0.12,10,8.33,0.12,0.12,1.3,FLYING,X10-F,0:/Integrated Flight Computer/aircraft/x10_f_cfg.ks (inferred preloaded)
1.66,APPROACH,ILS_TRACK,156.54,152,-4.54,612.88,535.33,-20.18,0.21,7.09,270.05,-0.013,0,0,0,1,0.6,4.5,0.75,0.35,0.0168,0.4,3.356,20.62,3.356,4.511,1,269.95,0,0,1,-7.28,0,0,0,269.95,0.4592,-0.0008,0.8883,0,269.95,0.24,-53.87,11.321,-0.046,26.777,1,3,644.31,-13.271,0,667.62,0,0,0,,0,0,0,0,0,0,270.08,0,0,0,0,0,0,0,0,0,0,0,0,0,3,3,0,0,VALID,0,0,0,0,0,1,0,0,0,0,0,0,0,0,0,0,0,0,0,0,153.38,1102.38,2,0,0.12,0.12,13,8.33,0.12,0.12,1.66,FLYING,X10-F,0:/Integrated Flight Computer/aircraft/x10_f_cfg.ks (inferred preloaded)
2.02,APPROACH,ILS_TRACK,157.04,152,-5.04,605,527.69,-21.91,-1.02,6.56,270.05,-0.053,0,0,0,1,0.6,4.5,0.75,0.35,0.0168,0.4,3.89,20.478,3.89,5.015,1,269.95,0,0,1,-7.88,0,0,0,269.95,0.4593,-0.0009,0.8883,0,269.95,0.3,-58.66,11.263,-0.049,28.273,1,3,644.31,-13.342,0,664.54,0,0,0,,0,0,0,0,0,0,270.08,0,0,0,0,0,0,0,0,0,0,0,0,0,3,3,0,0,VALID,0,0,0,0,0,1,0,0,0,0,0,0,0,0,0,0,0,0,0,0,135.5,1105.13,2,0,0.12,0.12,16,8.33,0.12,0.12,2.02,FLYING,X10-F,0:/Integrated Flight Computer/aircraft/x10_f_cfg.ks (inferred preloaded)
2.38,APPROACH,ILS_TRACK,157.46,152,-5.46,597.11,519.54,-23.43,-0.19,8.02,270.04,-0.086,0,0,0,1,0.6,4.5,0.75,0.35,0.0168,0.4,4.333,20.359,4.333,5.437,1,269.95,0,0,1,-8.42,0,0,0,269.95,0.4594,-0.0009,0.8882,0,269.95,0.35,-63.46,11.204,-0.05,29.685,1,3,644.31,-13.308,0,661.45,0,0,0,,0,0,0,0,0,0,270.08,0,0,0,0,0,0,0,0,0,0,0,0,0,3,3,0,0,VALID,0,0,0,0,0,1,0,0,0,0,0,0,0,0,0,0,0,0,0,0,119.67,1107.58,2,0,0.12,0.12,19,8.33,0.12,0.12,2.38,FLYING,X10-F,0:/Integrated Flight Computer/aircraft/x10_f_cfg.ks (inferred preloaded)
2.74,APPROACH,ILS_TRACK,157.66,152,-5.66,589.33,510.88,-24.25,2.48,11.08,270.03,-0.103,0,0,0,1,0.6,4.5,0.75,0.35,0.0168,0.4,4.561,20.297,4.561,5.657,1,269.95,0,0,1,-8.73,0,0,0,269.95,0.4595,-0.0009,0.8882,0,269.95,0.4,-68.18,11.145,-0.052,30.812,1,3,644.31,-12.948,0,658.36,0,0,0,,0,0,0,0,0,0,270.08,0,0,0,0,0,0,0,0,0,0,0,0,0,3,3,0,0,VALID,0,0,0,0,0,1,0,0,0,0,0,0,0,0,0,0,0,0,0,0,105.62,1109.18,2,0,0.12,0.12,22,8.33,0.12,0.12,2.74,FLYING,X10-F,0:/Integrated Flight Computer/aircraft/x10_f_cfg.ks (inferred preloaded)
3.1,APPROACH,ILS_TRACK,157.46,152,-5.46,581.63,502.14,-23.61,5.91,14.29,270.02,-0.126,0,0,0,1,0.6,4.5,0.75,0.35,0.0168,0.4,4.386,20.344,4.386,5.489,1,269.95,0,0,1,-8.57,0,0,0,269.95,0.4596,-0.0009,0.8881,0,269.95,0.45,-72.78,11.086,-0.053,32.126,1,3,644.31,-12.866,0,655.27,0,0,0,,0,0,0,0,0,0,270.08,0,0,0,0,0,0,0,0,0,0,0,0,0,3,3,0,0,VALID,0,0,0,0,0,1,0,0,0,0,0,0,0,0,0,0,0,0,0,0,93.07,1109.05,2,0,0.12,0.12,25,8.33,0.12,0.12,3.1,FLYING,X10-F,0:/Integrated Flight Computer/aircraft/x10_f_cfg.ks (inferred preloaded)
3.36,APPROACH,ILS_TRACK,156.95,152,-4.95,575.99,496.1,-22.71,7.29,15.32,270.01,-0.13,0,0,0,1,0.6,4.5,0.75,0.35,0.0168,0.4,3.866,20.484,3.866,4.992,1,269.95,0,0,1,-8.27,0,0,0,269.95,0.4597,-0.0009,0.8881,0,269.95,0.49,-76.2,11.043,-0.054,33.434,1,3,644.31,-13.218,0,653.05,0,0,0,,0,0,0,0,0,0,270.08,0,0,0,0,0,0,0,0,0,0,0,0,0,3,3,0,0,VALID,0,0,0,0,0,1,0,0,0,0,0,0,0,0,0,0,0,0,0,0,84.82,1107.32,2,0,0.12,0.12,27,7.69,0.14,0.12,3.36,FLYING,X10-F,0:/Integrated Flight Computer/aircraft/x10_f_cfg.ks (inferred preloaded)
3.72,APPROACH,ILS_TRACK,156.14,152,-4.14,568.37,488.09,-21.72,8.54,16.26,270,-0.185,0.1425,0,-1.607,1,0.6,4.5,0.75,0.35,0.0168,0.4,0,20.711,0,4.188,0,269.95,0,0,1,-7.95,0,0,0,269.95,0.4597,-0.0009,0.8881,0,269.95,0.54,-80.79,10.985,-0.054,34.169,1,3,644.31,-12.413,0,649.99,0,0,0,,0,0,0,0,0,0,270.08,0,0,0,0,0,0,0,0,0,0,0,0,0,3,3,0,0,VALID,0,0,0,0,0,1,0,0,0,0,0,0,0,0,0,0,0,0,0,0,79.84,1104.47,2,0,0.12,0.12,30,8.33,0.12,0.12,3.72,FLYING,X10-F,0:/Integrated Flight Computer/aircraft/x10_f_cfg.ks (inferred preloaded)
4.08,APPROACH,ILS_TRACK,155.14,152,-3.14,561.14,480.43,-20.75,9.95,17.38,269.97,-0.217,0.2865,0,-2.884,1,0.6,4.5,0.75,0.35,0.0168,0.4,0,20.989,0,3.202,0,269.95,0,0,1,-7.65,0,0,0,269.95,0.4598,-0.0009,0.888,0,269.95,0.58,-85.01,10.927,-0.053,34.624,1,3,644.31,-11.399,0,646.94,0,0,0,,0,0,0,0,0,0,270.08,0,0,0,0,0,0,0,0,0,0,0,0,0,3,3,0,0,VALID,0,0,0,0,0,1,0,0,0,0,0,0,0,0,0,0,0,0,0,0,88.09,1100.8,2,0,0.12,0.12,33,8.33,0.12,0.12,4.08,FLYING,X10-F,0:/Integrated Flight Computer/aircraft/x10_f_cfg.ks (inferred preloaded)
4.44,APPROACH,ILS_TRACK,153.9,152,-1.9,554.17,473.25,-19.04,10.83,17.64,269.97,-0.197,0.4305,0,-3.749,1,0.6,4.5,0.75,0.35,0.0168,0.4,0,21.334,0,1.976,0,269.95,0,0,1,-7.12,0,0,0,269.95,0.4599,-0.0009,0.888,0,269.95,0.62,-88.97,10.869,-0.049,35.388,1,3,644.31,-10.872,0,643.91,0,0,0,,0,0,0,0,0,0,270.08,0,0,0,0,0,0,0,0,0,0,0,0,0,3,3,0,0,VALID,0,0,0,0,0,1,0,0,0,0,0,0,0,0,0,0,0,0,0,0,106.6,1096.08,2,0,0.12,0.12,36,8.33,0.12,0.12,4.44,FLYING,X10-F,0:/Integrated Flight Computer/aircraft/x10_f_cfg.ks (inferred preloaded)
4.76,APPROACH,ILS_TRACK,152.91,152,-0.91,548.29,467.46,-17.92,10.57,16.98,269.97,-0.186,0.5525,0,-4.141,1,0.6,4.5,0.75,0.35,0.0168,0.4,0,21.616,0,0.974,0,269.95,0,0,1,-6.73,0,0,0,269.95,0.46,-0.0008,0.8879,0,269.95,0.64,-92.15,10.82,-0.046,35.785,1,3,644.31,-10.174,0,641.36,0,0,0,,0,0,0,0,0,0,270.08,0,0,0,0,0,0,0,0,0,0,0,0,0,3,3,0,0,VALID,0,0,0,0,0,1,0,0,0,0,0,0,0,0,0,0,0,0,0,0,130.79,1092.33,2,0,0.104,0.104,39,9.52,0.12,0.1,4.76,FLYING,X10-F,0:/Integrated Flight Computer/aircraft/x10_f_cfg.ks (inferred preloaded)
5.04,APPROACH,ILS_TRACK,152.26,152,-0.26,543.19,462.47,-17.26,10.21,16.4,269.97,-0.174,0.6618,0,-4.273,1,0.6,4.5,0.75,0.35,0.0168,0.4,0,21.799,0,0.327,0,269.95,0,0,1,-6.51,0,0,0,269.95,0.4601,-0.0008,0.8879,0,269.95,0.67,-94.81,10.777,-0.046,36.114,1,3,644.31,-9.589,0,639.08,0,0,0,,0,0,0,0,0,0,270.08,0,0,0,0,0,0,0,0,0,0,0,0,0,3,3,0,0,VALID,0,0,0,0,0,1,0,0,0,0,0,0,0,0,0,0,0,0,0,0,157.82,1089.92,2,0,0.147,0.147,41,7.03,0.147,0.104,5.04,FLYING,X10-F,0:/Integrated Flight Computer/aircraft/x10_f_cfg.ks (inferred preloaded)
5.36,APPROACH,ILS_TRACK,151.53,152,0.47,537.73,457.11,-16.7,9.86,15.89,269.98,-0.161,0.7874,0,-4.204,1,0.6,4.5,0.75,0.35,0.0168,0.4,0,22.004,0,-0.4,0,269.96,0,0,1,-6.32,0,0,0,269.96,0.4601,-0.0008,0.8879,0,269.96,0.69,-97.66,10.727,-0.044,36.437,1,3,644.31,-8.922,0,636.48,0,0,0,,0,0,0,0,0,0,270.08,0,0,0,0,0,0,0,0,0,0,0,0,0,3,3,0,0,VALID,0,0,0,0,0,1,0,0,0,0,0,0,0,0,0,0,0,0,0,0,193.43,1087.28,2,0,0.159,0.159,43,6.31,0.159,0.147,5.36,FLYING,X10-F,0:/Integrated Flight Computer/aircraft/x10_f_cfg.ks (inferred preloaded)
5.69,APPROACH,ILS_TRACK,150.91,152,1.09,532.22,451.64,-16.21,9.7,15.6,269.98,-0.147,0.831,0,-3.911,1,0.6,4.5,0.75,0.35,0.0168,0.4,0,22.183,0,-1.037,0,269.96,0,0,1,-6.16,0,0,0,269.96,0.4602,-0.0008,0.8878,0,269.96,0.71,-100.44,10.675,-0.045,36.73,1,3,644.31,-8.248,0,633.76,0,0,0,,0,0,0,0,0,0,270.08,0,0,0,0,0,0,0,0,0,0,0,0,0,3,3,0,0,VALID,0,0,0,0,0,1,0,0,0,0,0,0,0,0,0,0,0,0,0,0,237.29,1085.08,2,0,0.167,0.167,45,6,0.167,0.159,5.69,FLYING,X10-F,0:/Integrated Flight Computer/aircraft/x10_f_cfg.ks (inferred preloaded)
6.04,APPROACH,ILS_TRACK,150.4,152,1.6,526.71,446.09,-15.73,9.8,15.57,269.98,-0.142,0.7641,0,-3.416,1,0.6,4.5,0.75,0.35,0.0168,0.4,0,22.328,0,-1.55,0,269.96,0,0,1,-6,0,0,0,269.96,0.4603,-0.0008,0.8878,0,269.96,0.73,-103.12,10.621,-0.043,36.99,1,3,644.31,-7.569,0,630.92,0,0,0,,0,0,0,0,0,0,270.08,0,0,0,0,0,0,0,0,0,0,0,0,0,3,3,0,0,VALID,0,0,0,0,0,1,0,0,0,0,0,0,0,0,0,0,0,0,0,0,280.9,1083.42,2,0,0.175,0.175,47,5.75,0.175,0.167,6.04,FLYING,X10-F,0:/Integrated Flight Computer/aircraft/x10_f_cfg.ks (inferred preloaded)
6.42,APPROACH,ILS_TRACK,149.98,152,2.02,520.9,440.14,-15.14,10.19,15.78,269.98,-0.135,0.6914,0,-2.689,1,0.6,4.5,0.75,0.35,0.0168,0.4,0,22.451,0,-1.987,0,269.96,0,0,1,-5.8,0,0,0,269.96,0.4604,-0.0008,0.8877,0,269.96,0.75,-105.82,10.561,-0.043,37.206,1,3,644.31,-6.825,0,627.76,0,0,0,,0,0,0,0,0,0,270.08,0,0,0,0,0,0,0,0,0,0,0,0,0,3,3,0,0,VALID,0,0,0,0,0,1,0,0,0,0,0,0,0,0,0,0,0,0,0,0,320.4,1082.12,2,0,0.175,0.175,49,5.19,0.21,0.175,6.42,FLYING,X10-F,0:/Integrated Flight Computer/aircraft/x10_f_cfg.ks (inferred preloaded)
6.77,APPROACH,ILS_TRACK,149.66,152,2.34,515.88,434.96,-14.41,10.73,16.07,269.98,-0.127,0.628,0,-1.908,1,0.6,4.5,0.75,0.35,0.0168,0.4,0,22.542,0,-2.311,0,269.96,0,0,1,-5.57,0,0,0,269.96,0.4605,-0.0007,0.8877,0,269.96,0.76,-108.03,10.506,-0.041,37.307,1,3,644.31,-6.124,0,624.9,0,0,0,,0,0,0,0,0,0,270.08,0,0,0,0,0,0,0,0,0,0,0,0,0,3,3,0,0,VALID,0,0,0,0,0,1,0,0,0,0,0,0,0,0,0,0,0,0,0,0,348.36,1081.21,2,0,0.175,0.175,51,5.71,0.175,0.175,6.77,FLYING,X10-F,0:/Integrated Flight Computer/aircraft/x10_f_cfg.ks (inferred preloaded)
7.12,APPROACH,ILS_TRACK,149.38,152,2.62,511.04,430.06,-13.68,10.95,16,269.98,-0.099,0.5866,0,-1.023,1,0.6,4.5,0.75,0.35,0.0168,0.4,0,22.623,0,-2.598,0,269.96,0,0,1,-5.28,0,0,0,269.96,0.4605,-0.0007,0.8876,0,269.96,0.77,-110.05,10.452,-0.039,37.528,1,3,644.31,-5.642,0,622.04,0,0,0,,0,0,0,0,0,0,270.08,0,0,0,0,0,0,0,0,0,0,0,0,0,3,3,0,0,VALID,0,0,0,0,0,1,0,0,0,0,0,0,0,0,0,0,0,0,0,0,370.08,1080.44,2,0,0.175,0.175,53,5.71,0.175,0.175,7.12,FLYING,X10-F,0:/Integrated Flight Computer/aircraft/x10_f_cfg.ks (inferred preloaded)
7.47,APPROACH,ILS_TRACK,149.17,152,2.83,506.37,425.44,-12.9,10.87,15.6,269.98,-0.095,0.5422,0,-0.055,1,0.6,4.5,0.75,0.35,0.0168,0.4,0,22.683,0,-2.812,0,269.96,0,0,1,-4.99,0,0,0,269.96,0.4606,-0.0007,0.8876,0,269.96,0.79,-111.89,10.397,-0.039,37.699,1,3,644.31,-5.164,0,619.18,0,0,0,,0,0,0,0,0,0,270.08,0,0,0,0,0,0,0,0,0,0,0,0,0,3,3,0,0,VALID,0,0,0,0,0,1,0,0,0,0,0,0,0,0,0,0,0,0,0,0,387.28,1079.96,2,0,0.175,0.175,55,5.71,0.175,0.175,7.47,FLYING,X10-F,0:/Integrated Flight Computer/aircraft/x10_f_cfg.ks (inferred preloaded)
7.82,APPROACH,ILS_TRACK,149.07,152,2.93,501.92,421.03,-12.4,10.71,15.28,269.98,-0.093,0.4826,0,0.961,1,0.6,4.5,0.75,0.35,0.0168,0.4,0,22.716,0,-2.926,0,269.96,0,0,1,-4.79,0,0,0,269.96,0.4607,-0.0007,0.8876,0,269.96,0.8,-113.53,10.343,-0.039,37.678,1,3,644.31,-4.522,0,616.32,0,0,0,,0,0,0,0,0,0,270.08,0,0,0,0,0,0,0,0,0,0,0,0,0,3,3,0,0,VALID,0,0,0,0,0,1,0,0,0,0,0,0,0,0,0,0,0,0,0,0,400.02,1079.88,2,0,0.175,0.175,57,5.71,0.175,0.175,7.82,FLYING,X10-F,0:/Integrated Flight Computer/aircraft/x10_f_cfg.ks (inferred preloaded)
8.17,APPROACH,ILS_TRACK,149.03,152,2.97,497.72,416.77,-11.96,10.83,15.27,269.98,-0.093,0.4217,0,1.996,1,0.6,4.5,0.75,0.35,0.0168,0.4,0,22.726,0,-2.964,0,269.96,0,0,1,-4.62,0,0,0,269.96,0.4608,-0.0006,0.8875,0,269.96,0.81,-114.93,10.288,-0.037,37.538,1,3,644.31,-3.822,0,613.47,0,0,0,,0,0,0,0,0,0,270.08,0,0,0,0,0,0,0,0,0,0,0,0,0,3,3,0,0,VALID,0,0,0,0,0,1,0,0,0,0,0,0,0,0,0,0,0,0,0,0,407.58,1080.09,2,0,0.175,0.175,59,5.71,0.175,0.175,8.17,FLYING,X10-F,0:/Integrated Flight Computer/aircraft/x10_f_cfg.ks (inferred preloaded)
8.52,APPROACH,ILS_TRACK,149.01,152,2.99,493.76,412.66,-11.49,11.28,15.58,269.98,-0.093,0.3819,0,3.039,1,0.6,4.5,0.75,0.35,0.0168,0.4,0,22.731,0,-2.982,0,269.96,0,0,1,-4.45,0,0,0,269.96,0.4609,-0.0007,0.8875,0,269.96,0.81,-116.08,10.234,-0.04,37.308,1,3,644.31,-3.104,0,610.62,0,0,0,,0,0,0,0,0,0,270.08,0,0,0,0,0,0,0,0,0,0,0,0,0,3,3,0,0,VALID,0,0,0,0,0,1,0,0,0,0,0,0,0,0,0,0,0,0,0,0,410.43,1080.35,2,0,0.175,0.175,61,5.71,0.175,0.175,8.52,FLYING,X10-F,0:/Integrated Flight Computer/aircraft/x10_f_cfg.ks (inferred preloaded)
8.87,APPROACH,ILS_TRACK,148.95,152,3.05,490.01,408.79,-10.69,11.75,15.72,269.98,-0.095,0.3816,0,4.096,1,0.6,4.5,0.75,0.35,0.0168,0.4,0,22.748,0,-3.041,0,269.96,0,0,1,-4.16,0,0,0,269.96,0.4609,-0.0006,0.8874,0,269.96,0.82,-117.02,10.179,-0.037,37.187,1,3,644.31,-2.601,0,607.76,0,0,0,,0,0,0,0,0,0,270.08,0,0,0,0,0,0,0,0,0,0,0,0,0,3,3,0,0,VALID,0,0,0,0,0,1,0,0,0,0,0,0,0,0,0,0,0,0,0,0,410.43,1080.41,2,0,0.175,0.175,63,5.71,0.175,0.175,8.87,FLYING,X10-F,0:/Integrated Flight Computer/aircraft/x10_f_cfg.ks (inferred preloaded)
9.22,APPROACH,ILS_TRACK,148.86,152,3.14,486.39,405.2,-9.89,11.78,15.4,269.98,-0.095,0.403,0,5.184,1,0.6,4.5,0.75,0.35,0.0168,0.4,0,22.773,0,-3.132,0,269.96,0,0,1,-3.85,0,0,0,269.96,0.461,-0.0007,0.8874,0,269.96,0.83,-117.81,10.125,-0.038,37.07,1,3,644.31,-2.16,0,604.91,0,0,0,,0,0,0,0,0,0,270.08,0,0,0,0,0,0,0,0,0,0,0,0,0,3,3,0,0,VALID,0,0,0,0,0,1,0,0,0,0,0,0,0,0,0,0,0,0,0,0,410.77,1080.32,2,0,0.175,0.175,65,5.71,0.175,0.175,9.22,FLYING,X10-F,0:/Integrated Flight Computer/aircraft/x10_f_cfg.ks (inferred preloaded)
9.57,APPROACH,ILS_TRACK,148.8,152,3.2,482.91,401.84,-9.42,11.36,14.81,269.98,-0.095,0.4146,0,6.299,1,0.6,4.5,0.75,0.35,0.0168,0.4,0,22.792,0,-3.198,0,269.96,0,0,1,-3.65,0,0,0,269.96,0.4611,-0.0006,0.8873,0,269.96,0.83,-118.47,10.071,-0.037,36.961,1,3,644.31,-1.773,0,602.06,0,0,0,,0,0,0,0,0,0,270.08,0,0,0,0,0,0,0,0,0,0,0,0,0,3,3,0,0,VALID,0,0,0,0,0,1,0,0,0,0,0,0,0,0,0,0,0,0,0,0,412.67,1080.35,2,0,0.175,0.175,67,5.71,0.175,0.175,9.57,FLYING,X10-F,0:/Integrated Flight Computer/aircraft/x10_f_cfg.ks (inferred preloaded)
9.92,APPROACH,ILS_TRACK,148.81,152,3.19,479.64,398.6,-9.13,11.17,14.54,269.98,-0.093,0.3993,0,7.418,1,0.6,4.5,0.75,0.35,0.0168,0.4,0,22.79,0,-3.191,0,269.96,0,0,1,-3.53,0,0,0,269.96,0.4612,-0.0006,0.8873,0,269.96,0.84,-118.94,10.016,-0.036,36.62,1,3,644.31,-1.174,0,599.21,0,0,0,,0,0,0,0,0,0,270.08,0,0,0,0,0,0,0,0,0,0,0,0,0,3,3,0,0,VALID,0,0,0,0,0,1,0,0,0,0,0,0,0,0,0,0,0,0,0,0,414.98,1080.66,2,0,0.175,0.175,69,5.71,0.175,0.175,9.92,FLYING,X10-F,0:/Integrated Flight Computer/aircraft/x10_f_cfg.ks (inferred preloaded)
10.27,APPROACH,ILS_TRACK,148.85,152,3.15,476.58,395.46,-8.85,11.38,14.69,269.98,-0.092,0.3839,0,8.525,1,0.6,4.5,0.75,0.35,0.0168,0.4,0,22.78,0,-3.155,0,269.96,0,0,1,-3.42,0,0,0,269.96,0.4613,-0.0006,0.8873,0,269.96,0.84,-119.19,9.962,-0.036,36.205,1,3,644.31,-0.561,0,596.36,0,0,0,,0,0,0,0,0,0,270.08,0,0,0,0,0,0,0,0,0,0,0,0,0,3,3,0,0,VALID,0,0,0,0,0,1,0,0,0,0,0,0,0,0,0,0,0,0,0,0,416.05,1081.07,2,0,0.175,0.175,71,5.71,0.175,0.175,10.27,FLYING,X10-F,0:/Integrated Flight Computer/aircraft/x10_f_cfg.ks (inferred preloaded)
10.62,APPROACH,ILS_TRACK,148.86,152,3.14,473.74,392.42,-8.48,11.99,15.21,269.98,-0.093,0.3889,0,9.624,1,0.6,4.5,0.75,0.35,0.0168,0.4,0,22.776,0,-3.139,0,269.96,0,0,1,-3.29,0,0,0,269.97,0.4613,-0.0006,0.8872,0,269.96,0.84,-119.22,9.907,-0.035,35.704,1,3,644.31,0.076,0,593.51,0,0,0,,0,0,0,0,0,0,270.08,0,0,0,0,0,0,0,0,0,0,0,0,0,3,3,0,0,VALID,0,0,0,0,0,1,0,0,0,0,0,0,0,0,0,0,0,0,0,0,416.05,1081.37,2,0,0.175,0.175,73,5.71,0.175,0.175,10.62,FLYING,X10-F,0:/Integrated Flight Computer/aircraft/x10_f_cfg.ks (inferred preloaded)
10.97,APPROACH,ILS_TRACK,148.8,152,3.2,471.1,389.57,-7.79,12.71,15.65,269.97,-0.092,0.4295,0,10.736,1,0.6,4.5,0.75,0.35,0.0168,0.4,0,22.791,0,-3.194,0,269.97,0,0,1,-3.04,0,0,0,269.97,0.4614,-0.0006,0.8872,0,269.97,0.84,-119.05,9.853,-0.034,35.255,1,3,644.31,0.574,0,590.66,0,0,0,,0,0,0,0,0,0,270.08,0,0,0,0,0,0,0,0,0,0,0,0,0,3,3,0,0,VALID,0,0,0,0,0,1,0,0,0,0,0,0,0,0,0,0,0,0,0,0,416.76,1081.35,2,0,0.175,0.175,75,5.71,0.175,0.175,10.97,FLYING,X10-F,0:/Integrated Flight Computer/aircraft/x10_f_cfg.ks (inferred preloaded)
11.32,APPROACH,ILS_TRACK,148.67,152,3.33,468.58,387,-7,12.97,15.58,269.97,-0.092,0.4916,0,11.884,1,0.6,4.5,0.75,0.35,0.0168,0.4,0,22.825,0,-3.315,0,269.97,0,0,1,-2.76,0,0,0,269.97,0.4615,-0.0006,0.8871,0,269.97,0.84,-118.74,9.799,-0.033,34.865,1,3,644.31,0.947,0,587.81,0,0,0,,0,0,0,0,0,0,270.08,0,0,0,0,0,0,0,0,0,0,0,0,0,3,3,0,0,VALID,0,0,0,0,0,1,0,0,0,0,0,0,0,0,0,0,0,0,0,0,420.64,1081.06,2,0,0.175,0.175,77,5.71,0.175,0.175,11.32,FLYING,X10-F,0:/Integrated Flight Computer/aircraft/x10_f_cfg.ks (inferred preloaded)
11.67,APPROACH,ILS_TRACK,148.56,152,3.44,466.24,384.66,-6.47,12.98,15.39,269.97,-0.092,0.5386,0,13.075,1,0.6,4.5,0.75,0.35,0.0168,0.4,0,22.857,0,-3.428,0,269.97,0,0,1,-2.53,0,0,0,269.97,0.4616,-0.0006,0.8871,0,269.97,0.84,-118.28,9.744,-0.032,34.294,1,3,644.31,1.487,0,584.97,0,0,0,,0,0,0,0,0,0,270.08,0,0,0,0,0,0,0,0,0,0,0,0,0,3,3,0,0,VALID,0,0,0,0,0,1,0,0,0,0,0,0,0,0,0,0,0,0,0,0,428.64,1080.79,2,0,0.175,0.175,79,5.71,0.175,0.175,11.67,FLYING,X10-F,0:/Integrated Flight Computer/aircraft/x10_f_cfg.ks (inferred preloaded)
12.02,APPROACH,ILS_TRACK,148.49,152,3.51,464.15,382.48,-6,13.21,15.48,269.97,-0.094,0.5641,0,14.296,1,0.6,4.5,0.75,0.35,0.0168,0.4,0,22.879,0,-3.507,0,269.97,0,0,1,-2.35,0,0,0,269.97,0.4617,-0.0005,0.8871,0,269.97,0.84,-117.57,9.69,-0.03,33.521,1,3,644.31,2.189,0,582.12,0,0,0,,0,0,0,0,0,0,270.08,0,0,0,0,0,0,0,0,0,0,0,0,0,3,3,0,0,VALID,0,0,0,0,0,1,0,0,0,0,0,0,0,0,0,0,0,0,0,0,439.29,1080.66,2,0,0.175,0.175,81,5.71,0.175,0.175,12.02,FLYING,X10-F,0:/Integrated Flight Computer/aircraft/x10_f_cfg.ks (inferred preloaded)
12.37,APPROACH,ILS_TRACK,148.42,152,3.58,462.33,380.47,-5.49,13.78,15.9,269.97,-0.101,0.5846,0,15.541,1,0.6,4.5,0.75,0.35,0.0168,0.4,0,22.897,0,-3.572,0,269.97,0,0,1,-2.16,0,0,0,269.97,0.4617,-0.0005,0.887,0,269.97,0.83,-116.61,9.636,-0.03,32.622,1,3,644.31,2.951,0,579.28,0,0,0,,0,0,0,0,0,0,270.08,0,0,0,0,0,0,0,0,0,0,0,0,0,3,3,0,0,VALID,0,0,0,0,0,1,0,0,0,0,0,0,0,0,0,0,0,0,0,0,451.02,1080.57,2,0,0.175,0.175,83,5.71,0.175,0.175,12.37,FLYING,X10-F,0:/Integrated Flight Computer/aircraft/x10_f_cfg.ks (inferred preloaded)
12.72,APPROACH,ILS_TRACK,148.33,152,3.67,460.77,378.68,-4.59,14.62,16.42,269.96,-0.107,0.6182,0,16.813,1,0.6,4.5,0.75,0.35,0.0168,0.4,0,22.922,0,-3.66,0,269.97,0,0,1,-1.88,0,0,0,269.97,0.4618,-0.0005,0.887,0,269.97,0.83,-115.37,9.581,-0.029,31.616,1,3,644.31,3.742,0,576.43,0,0,0,,0,0,0,0,0,0,270.08,0,0,0,0,0,0,0,0,0,0,0,0,0,3,3,0,0,VALID,0,0,0,0,0,1,0,0,0,0,0,0,0,0,0,0,0,0,0,0,463.53,1080.33,2,0,0.175,0.175,85,5.71,0.175,0.175,12.72,FLYING,X10-F,0:/Integrated Flight Computer/aircraft/x10_f_cfg.ks (inferred preloaded)
13.07,APPROACH,ILS_TRACK,148.18,152,3.82,459.31,377.28,-3.59,14.58,15.9,269.96,-0.115,0.6767,0,18.134,1,0.6,4.5,0.75,0.35,0.0168,0.4,0,22.965,0,-3.811,0,269.97,0,0,1,-1.45,0,0,0,269.97,0.4619,-0.0005,0.8869,0,269.97,0.82,-114.01,9.527,-0.028,31.045,1,3,644.31,3.946,0,573.59,0,0,0,,0,0,0,0,0,0,270.08,0,0,0,0,0,0,0,0,0,0,0,0,0,3,3,0,0,VALID,0,0,0,0,0,1,0,0,0,0,0,0,0,0,0,0,0,0,0,0,477.94,1079.83,2,0,0.175,0.175,87,5.71,0.175,0.175,13.07,FLYING,X10-F,0:/Integrated Flight Computer/aircraft/x10_f_cfg.ks (inferred preloaded)
13.42,APPROACH,ILS_TRACK,148.16,152,3.84,458,376.18,-2.93,13.93,14.96,269.96,-0.113,0.6755,0,19.481,1,0.6,4.5,0.75,0.35,0.0168,0.4,0,22.975,0,-3.848,0,269.97,0,0,1,-1.17,0,0,0,269.97,0.462,-0.0004,0.8869,0,269.97,0.81,-112.51,9.473,-0.025,30.244,1,3,644.31,4.387,0,570.75,0,0,0,,0,0,0,0,0,0,270.08,0,0,0,0,0,0,0,0,0,0,0,0,0,3,3,0,0,VALID,0,0,0,0,0,1,0,0,0,0,0,0,0,0,0,0,0,0,0,0,495.12,1079.83,2,0,0.175,0.175,89,5.71,0.175,0.175,13.42,FLYING,X10-F,0:/Integrated Flight Computer/aircraft/x10_f_cfg.ks (inferred preloaded)
13.77,APPROACH,ILS_TRACK,148.3,152,3.7,456.91,375.22,-2.61,13.4,14.35,269.96,-0.105,0.5985,0,20,1,0.6,4.5,0.75,0.35,0.0168,0.4,0,22.939,0,-3.718,0,269.98,0,0,1,-1.03,0,0,0,269.98,0.4621,-0.0004,0.8868,0,269.98,0.8,-110.8,9.419,-0.025,29.203,1,3,644.31,5.049,0,567.91,0,0,0,,0,0,0,0,0,0,270.08,0,0,0,0,0,0,0,0,0,0,0,0,0,3,3,0,0,VALID,0,0,0,0,0,1,0,0,0,0,0,0,0,0,0,0,0,0,0,0,510.52,1080.51,2,0,0.175,0.175,91,5.71,0.175,0.175,13.77,FLYING,X10-F,0:/Integrated Flight Computer/aircraft/x10_f_cfg.ks (inferred preloaded)
14.12,APPROACH,ILS_TRACK,148.56,152,3.44,456,374.39,-2.27,13.11,13.94,269.96,-0.094,0.4884,0,20,1,0.6,4.5,0.75,0.35,0.0168,0.4,0,22.868,0,-3.466,0,269.98,0,0,1,-0.89,0,0,0,269.98,0.4621,-0.0004,0.8868,0,269.98,0.79,-108.9,9.365,-0.024,28.229,1,3,644.31,5.551,0,565.07,0,0,0,,0,0,0,0,0,0,270.08,0,0,0,0,0,0,0,0,0,0,0,0,0,3,3,0,0,VALID,0,0,0,0,0,1,0,0,0,0,0,0,0,0,0,0,0,0,0,0,519.02,1081.66,2,0,0.175,0.175,93,5.71,0.175,0.175,14.12,FLYING,X10-F,0:/Integrated Flight Computer/aircraft/x10_f_cfg.ks (inferred preloaded)
14.47,APPROACH,ILS_TRACK,148.89,152,3.11,455.22,373.73,-1.45,12.86,13.36,269.96,-0.081,0.3823,0,20,1,0.6,4.5,0.75,0.35,0.0168,0.4,0,22.777,0,-3.145,0,269.98,0,0,1,-0.65,0,0,0,269.98,0.4622,-0.0004,0.8868,0,269.98,0.78,-106.84,9.31,-0.022,27.312,1,3,644.31,5.925,0,562.21,0,0,0,,0,0,0,0,0,0,270.08,0,0,0,0,0,0,0,0,0,0,0,0,0,3,3,0,0,VALID,0,0,0,0,0,1,0,0,0,0,0,0,0,0,0,0,0,0,0,0,517.98,1083.06,2,0,0.175,0.175,95,5.71,0.175,0.175,14.47,FLYING,X10-F,0:/Integrated Flight Computer/aircraft/x10_f_cfg.ks (inferred preloaded)
14.82,APPROACH,ILS_TRACK,149.25,152,2.75,454.44,373.42,-0.74,11.49,11.61,269.97,-0.062,0.2925,0,20,1,0.6,4.5,0.75,0.35,0.0168,0.4,0,22.678,0,-2.792,0,269.98,0,0,1,-0.33,0,0,0,269.98,0.4623,-0.0003,0.8867,0,269.98,0.76,-104.77,9.256,-0.018,26.68,1,3,644.31,5.937,0,559.35,0,0,0,,0,0,0,0,0,0,270.08,0,0,0,0,0,0,0,0,0,0,0,0,0,3,3,0,0,VALID,0,0,0,0,0,1,0,0,0,0,0,0,0,0,0,0,0,0,0,0,504.99,1084.58,2,0,0.175,0.175,97,5.71,0.175,0.175,14.82,FLYING,X10-F,0:/Integrated Flight Computer/aircraft/x10_f_cfg.ks (inferred preloaded)
15.17,APPROACH,ILS_TRACK,149.81,152,2.19,453.77,373.2,-0.8,9.89,10.06,269.97,-0.038,0.1551,0,20,1,0.6,4.5,0.75,0.35,0.0168,0.4,0,22.525,0,-2.25,0,269.98,0,0,1,-0.29,0,0,0,269.98,0.4624,-0.0003,0.8867,0,269.98,0.74,-102.6,9.201,-0.018,25.736,1,3,644.31,6.304,0,556.49,0,0,0,,0,0,0,0,0,0,270.08,0,0,0,0,0,0,0,0,0,0,0,0,0,3,3,0,0,VALID,0,0,0,0,0,1,0,0,0,0,0,0,0,0,0,0,0,0,0,0,481.26,1086.92,2,0,0.175,0.175,99,5.71,0.175,0.175,15.17,FLYING,X10-F,0:/Integrated Flight Computer/aircraft/x10_f_cfg.ks (inferred preloaded)
15.52,APPROACH,ILS_TRACK,150.45,152,1.55,453.3,372.85,-1.22,9.24,9.67,269.98,-0.024,0.0151,0,20,1,0.6,4.5,0.75,0.35,0.0168,0.4,0,22.346,0,-1.614,0,269.99,0,0,1,-0.43,0,0,0,269.98,0.4625,-0.0003,0.8866,0,269.99,0.73,-100.23,9.146,-0.014,24.539,1,3,644.31,6.912,0,553.61,0,0,0,,0,0,0,0,0,0,270.08,0,0,0,0,0,0,0,0,0,0,0,0,0,3,3,0,0,VALID,0,0,0,0,0,1,0,0,0,0,0,0,0,0,0,0,0,0,0,0,443.27,1089.6,2,0,0.175,0.175,101,5.71,0.175,0.175,15.52,FLYING,X10-F,0:/Integrated Flight Computer/aircraft/x10_f_cfg.ks (inferred preloaded)
15.87,APPROACH,ILS_TRACK,150.96,152,1.04,453,372.38,-1.3,9.73,10.25,269.98,-0.015,0,0,20,1,0.6,4.5,0.75,0.35,0.0168,0.4,0,22.197,0,-1.086,0,269.98,0,0,1,-0.49,0,0,0,269.98,0.4625,-0.0003,0.8866,0,269.98,0.71,-97.66,9.091,-0.016,23.354,1,3,644.31,7.43,0,550.72,0,0,0,,0,0,0,0,0,0,270.08,0,0,0,0,0,0,0,0,0,0,0,0,0,3,3,0,0,VALID,0,0,0,0,0,1,0,0,0,0,0,0,0,0,0,0,0,0,0,0,394.78,1091.78,2,0,0.175,0.175,103,5.73,0.175,0.175,15.87,FLYING,X10-F,0:/Integrated Flight Computer/aircraft/x10_f_cfg.ks (inferred preloaded)
16.2,APPROACH,ILS_TRACK,151.25,152,0.75,452.75,371.94,-1.13,10.38,10.85,269.98,-0.017,0,0,20,1,0.6,4.5,0.75,0.35,0.0168,0.4,0,22.107,0,-0.766,0,269.98,0,0,1,-0.47,0,0,0,269.98,0.4626,-0.0003,0.8866,0,269.98,0.7,-95.11,9.037,-0.017,22.474,1,3,644.31,7.575,0,547.91,0,0,0,,0,0,0,0,0,0,270.08,0,0,0,0,0,0,0,0,0,0,0,0,0,3,3,0,0,VALID,0,0,0,0,0,1,0,0,0,0,0,0,0,0,0,0,0,0,0,0,351.6,1093.07,2,0,0.167,0.167,105,6.01,0.175,0.167,16.2,FLYING,X10-F,0:/Integrated Flight Computer/aircraft/x10_f_cfg.ks (inferred preloaded)
16.48,APPROACH,ILS_TRACK,151.31,152,0.69,452.46,371.68,-0.87,10.39,10.69,269.98,-0.028,0.0748,0,20,1,0.6,4.5,0.75,0.35,0.0168,0.4,0,22.086,0,-0.694,0,269.99,0,0,1,-0.33,0,0,0,269.98,0.4627,-0.0003,0.8865,0,269.99,0.68,-92.98,8.991,-0.014,22.123,1,3,644.31,7.214,0,545.49,0,0,0,,0,0,0,0,0,0,270.08,0,0,0,0,0,0,0,0,0,0,0,0,0,3,3,0,0,VALID,0,0,0,0,0,1,0,0,0,0,0,0,0,0,0,0,0,0,0,0,319.54,1093.32,2,0,0.141,0.141,107,7.17,0.167,0.141,16.48,FLYING,X10-F,0:/Integrated Flight Computer/aircraft/x10_f_cfg.ks (inferred preloaded)
16.85,APPROACH,ILS_TRACK,151.27,152,0.73,452.09,371.41,-0.77,10.04,10.3,269.98,-0.022,0.2231,0,20,1,0.6,4.5,0.75,0.35,0.0168,0.4,0,22.097,0,-0.73,0,269.99,0,0,1,-0.28,0,0,0,269.98,0.4628,-0.0002,0.8865,0,269.99,0.66,-90.3,8.933,-0.014,21.308,1,3,644.31,7.228,0,542.42,0,0,0,,0,0,0,0,0,0,270.08,0,0,0,0,0,0,0,0,0,0,0,0,0,3,3,0,0,VALID,0,0,0,0,0,1,0,0,0,0,0,0,0,0,0,0,0,0,0,0,296.6,1093.17,2,0,0.12,0.12,110,8.3,0.141,0.12,16.85,FLYING,X10-F,0:/Integrated Flight Computer/aircraft/x10_f_cfg.ks (inferred preloaded)
17.21,APPROACH,ILS_TRACK,151.2,152,0.8,451.79,371.13,-0.81,9.97,10.26,269.98,-0.016,0.3574,0,20,1,0.6,4.5,0.75,0.35,0.0168,0.4,0,22.117,0,-0.801,0,269.98,0,0,1,-0.3,0,0,0,269.99,0.4629,-0.0003,0.8864,0,269.98,0.65,-87.63,8.876,-0.016,20.336,1,3,644.31,7.44,0,539.45,0,0,0,,0,0,0,0,0,0,270.08,0,0,0,0,0,0,0,0,0,0,0,0,0,3,3,0,0,VALID,0,0,0,0,0,1,0,0,0,0,0,0,0,0,0,0,0,0,0,0,294.8,1092.89,2,0,0.12,0.12,113,8.33,0.12,0.12,17.21,FLYING,X10-F,0:/Integrated Flight Computer/aircraft/x10_f_cfg.ks (inferred preloaded)
17.55,APPROACH,ILS_TRACK,151.13,152,0.87,451.54,370.86,-0.71,10.06,10.31,269.98,-0.01,0.4123,0,20,1,0.6,4.5,0.75,0.35,0.0168,0.4,0,22.135,0,-0.865,0,269.99,0,0,1,-0.27,0,0,0,269.99,0.4629,-0.0002,0.8864,0,269.99,0.63,-85.14,8.824,-0.012,19.54,1,3,644.31,7.502,0,536.72,0,0,0,,0,0,0,0,0,0,270.08,0,0,0,0,0,0,0,0,0,0,0,0,0,3,3,0,0,VALID,0,0,0,0,0,1,0,0,0,0,0,0,0,0,0,0,0,0,0,0,302.42,1092.64,2,0,0.126,0.126,116,8.69,0.126,0.1,17.55,FLYING,X10-F,0:/Integrated Flight Computer/aircraft/x10_f_cfg.ks (inferred preloaded)
17.86,APPROACH,ILS_TRACK,151.09,152,0.91,451.35,370.62,-0.76,10.15,10.47,269.98,0.002,0.4261,0,20,1,0.6,4.5,0.75,0.35,0.0168,0.4,0,22.146,0,-0.906,0,269.99,0,0,1,-0.31,0,0,0,269.99,0.463,-0.0002,0.8864,0,269.99,0.62,-82.85,8.776,-0.011,18.713,1,3,644.31,7.675,0,534.23,0,0,0,,0,0,0,0,0,0,270.08,0,0,0,0,0,0,0,0,0,0,0,0,0,3,3,0,0,VALID,0,0,0,0,0,1,0,0,0,0,0,0,0,0,0,0,0,0,0,0,311.46,1092.5,2,0,0.155,0.155,118,6.47,0.155,0.126,17.86,FLYING,X10-F,0:/Integrated Flight Computer/aircraft/x10_f_cfg.ks (inferred preloaded)
18.22,APPROACH,ILS_TRACK,151.05,152,0.95,451.1,370.38,-0.7,10.12,10.37,269.98,0.005,0.4327,0,20,1,0.6,4.5,0.75,0.35,0.0168,0.4,0,22.157,0,-0.945,0,269.99,0,0,1,-0.25,0,0,0,269.99,0.4631,-0.0002,0.8863,0,269.99,0.6,-80.16,8.72,-0.013,18.025,1,3,644.31,7.529,0,531.3,0,0,0,,0,0,0,0,0,0,270.08,0,0,0,0,0,0,0,0,0,0,0,0,0,3,3,0,0,VALID,0,0,0,0,0,1,0,0,0,0,0,0,0,0,0,0,0,0,0,0,322.22,1092.36,2,0,0.164,0.164,120,5.58,0.191,0.155,18.22,FLYING,X10-F,0:/Integrated Flight Computer/aircraft/x10_f_cfg.ks (inferred preloaded)
18.56,APPROACH,ILS_TRACK,151.06,152,0.94,450.87,370.17,-0.54,10.17,10.34,269.99,0.009,0.4196,0,20,1,0.6,4.5,0.75,0.35,0.0168,0.4,0,22.156,0,-0.94,0,269.99,0,0,1,-0.2,0,0,0,269.99,0.4632,-0.0002,0.8863,0,269.99,0.59,-77.56,8.667,-0.012,17.194,1,3,644.31,7.593,0,528.49,0,0,0,,0,0,0,0,0,0,270.08,0,0,0,0,0,0,0,0,0,0,0,0,0,3,3,0,0,VALID,0,0,0,0,0,1,0,0,0,0,0,0,0,0,0,0,0,0,0,0,332.03,1092.41,2,0,0.172,0.172,122,5.83,0.172,0.164,18.56,FLYING,X10-F,0:/Integrated Flight Computer/aircraft/x10_f_cfg.ks (inferred preloaded)
18.91,APPROACH,ILS_TRACK,151.11,152,0.89,450.68,369.94,-0.65,10.17,10.45,269.99,0.014,0.3953,0,20,1,0.6,4.5,0.75,0.35,0.0168,0.4,0,22.145,0,-0.9,0,269.99,0,0,1,-0.27,0,0,0,269.99,0.4633,-0.0002,0.8862,0,269.99,0.57,-74.88,8.611,-0.013,16.26,1,3,644.31,7.756,0,525.6,0,0,0,,0,0,0,0,0,0,270.08,0,0,0,0,0,0,0,0,0,0,0,0,0,3,3,0,0,VALID,0,0,0,0,0,1,0,0,0,0,0,0,0,0,0,0,0,0,0,0,340.44,1092.62,2,0,0.175,0.175,124,5.71,0.175,0.172,18.91,FLYING,X10-F,0:/Integrated Flight Computer/aircraft/x10_f_cfg.ks (inferred preloaded)
19.3,APPROACH,ILS_TRACK,151.18,152,0.82,450.46,369.73,-0.6,10.16,10.38,269.99,0.013,0.3684,0,20,1,0.6,4.5,0.75,0.35,0.0168,0.4,0,22.125,0,-0.83,0,269.99,0,0,1,-0.21,0,0,0,269.99,0.4633,-0.0002,0.8862,0,269.99,0.55,-71.92,8.551,-0.013,15.446,1,3,644.31,7.663,0,522.41,0,0,0,,0,0,0,0,0,0,270.08,0,0,0,0,0,0,0,0,0,0,0,0,0,3,3,0,0,VALID,0,0,0,0,0,1,0,0,0,0,0,0,0,0,0,0,0,0,0,0,347.04,1092.94,2,0,0.175,0.175,126,5.19,0.21,0.175,19.3,FLYING,X10-F,0:/Integrated Flight Computer/aircraft/x10_f_cfg.ks (inferred preloaded)
19.65,APPROACH,ILS_TRACK,151.28,152,0.72,450.27,369.56,-0.52,10.13,10.31,269.99,0.011,0.3362,0,20,1,0.6,4.5,0.75,0.35,0.0168,0.4,0,22.098,0,-0.734,0,269.99,0,0,1,-0.18,0,0,0,269.99,0.4634,-0.0002,0.8861,0,269.99,0.54,-69.21,8.495,-0.013,14.616,1,3,644.31,7.685,0,519.52,0,0,0,,0,0,0,0,0,0,270.08,0,0,0,0,0,0,0,0,0,0,0,0,0,3,3,0,0,VALID,0,0,0,0,0,1,0,0,0,0,0,0,0,0,0,0,0,0,0,0,350.53,1093.37,2,0,0.175,0.175,128,5.71,0.175,0.175,19.65,FLYING,X10-F,0:/Integrated Flight Computer/aircraft/x10_f_cfg.ks (inferred preloaded)
20,APPROACH,ILS_TRACK,151.39,152,0.61,450.09,369.39,-0.47,10.1,10.26,269.99,0.011,0.3052,0,20,1,0.6,4.5,0.75,0.35,0.0168,0.4,0,22.065,0,-0.619,0,269.99,0,0,1,-0.17,0,0,0,269.99,0.4635,-0.0002,0.8861,0,269.99,0.53,-66.49,8.44,-0.012,13.748,1,3,644.31,7.749,0,516.62,0,0,0,,0,0,0,0,0,0,270.08,0,0,0,0,0,0,0,0,0,0,0,0,0,3,3,0,0,VALID,0,0,0,0,0,1,0,0,0,0,0,0,0,0,0,0,0,0,0,0,351.46,1093.87,2,0,0.175,0.175,130,5.71,0.175,0.175,20,FLYING,X10-F,0:/Integrated Flight Computer/aircraft/x10_f_cfg.ks (inferred preloaded)
20.35,APPROACH,ILS_TRACK,151.51,152,0.49,449.94,369.24,-0.43,10.1,10.25,269.99,0.011,0.2794,0,20,1,0.6,4.5,0.75,0.35,0.0168,0.4,0,22.031,0,-0.497,0,269.99,0,0,1,-0.16,0,0,0,269.99,0.4636,-0.0002,0.886,0,269.99,0.52,-63.75,8.385,-0.011,12.872,1,3,644.31,7.816,0,513.72,0,0,0,,0,0,0,0,0,0,270.08,0,0,0,0,0,0,0,0,0,0,0,0,0,3,3,0,0,VALID,0,0,0,0,0,1,0,0,0,0,0,0,0,0,0,0,0,0,0,0,349.04,1094.4,2,0,0.175,0.175,132,5.71,0.175,0.175,20.35,FLYING,X10-F,0:/Integrated Flight Computer/aircraft/x10_f_cfg.ks (inferred preloaded)
20.7,APPROACH,ILS_TRACK,151.63,152,0.37,449.8,369.1,-0.38,10.1,10.23,269.99,0.011,0.2619,0,20,1,0.6,4.5,0.75,0.35,0.0168,0.4,0,21.998,0,-0.38,0,269.99,0,0,1,-0.14,0,0,0,269.99,0.4637,-0.0002,0.886,0,269.99,0.5,-60.99,8.329,-0.013,11.983,1,3,644.31,7.893,0,510.82,0,0,0,,0,0,0,0,0,0,270.08,0,0,0,0,0,0,0,0,0,0,0,0,0,3,3,0,0,VALID,0,0,0,0,0,1,0,0,0,0,0,0,0,0,0,0,0,0,0,0,343.83,1094.9,2,0,0.175,0.175,134,5.71,0.175,0.175,20.7,FLYING,X10-F,0:/Integrated Flight Computer/aircraft/x10_f_cfg.ks (inferred preloaded)
21.05,APPROACH,ILS_TRACK,151.73,152,0.27,449.66,368.97,-0.38,10.09,10.22,269.99,0.01,0.256,0,20,1,0.6,4.5,0.75,0.35,0.0168,0.4,0,21.97,0,-0.281,0,269.99,0,0,1,-0.13,0,0,0,269.99,0.4638,-0.0002,0.886,0,269.99,0.49,-58.22,8.274,-0.012,11.142,1,3,644.31,7.906,0,507.91,0,0,0,,0,0,0,0,0,0,270.08,0,0,0,0,0,0,0,0,0,0,0,0,0,3,3,0,0,VALID,0,0,0,0,0,1,0,0,0,0,0,0,0,0,0,0,0,0,0,0,337.19,1095.31,2,0,0.175,0.175,136,5.71,0.175,0.175,21.05,FLYING,X10-F,0:/Integrated Flight Computer/aircraft/x10_f_cfg.ks (inferred preloaded)
21.4,APPROACH,ILS_TRACK,151.8,152,0.2,449.55,368.85,-0.31,10.11,10.22,269.99,0.011,0.2599,0,20,1,0.6,4.5,0.75,0.35,0.0168,0.4,0,21.949,0,-0.206,0,269.99,0,0,1,-0.13,0,0,0,269.99,0.4638,-0.0002,0.8859,0,269.99,0.48,-55.44,8.219,-0.012,10.26,1,3,644.31,7.964,0,505.01,0,0,0,,0,0,0,0,0,0,270.08,0,0,0,0,0,0,0,0,0,0,0,0,0,3,3,0,0,VALID,0,0,0,0,0,1,0,0,0,0,0,0,0,0,0,0,0,0,0,0,330.78,1095.63,2,0,0.175,0.175,138,5.71,0.175,0.175,21.4,FLYING,X10-F,0:/Integrated Flight Computer/aircraft/x10_f_cfg.ks (inferred preloaded)
21.75,APPROACH,ILS_TRACK,151.85,152,0.15,449.43,368.74,-0.29,10.1,10.2,269.99,0.01,0.2709,0,20,1,0.6,4.5,0.75,0.35,0.0168,0.4,0,21.935,0,-0.155,0,269.99,0,0,1,-0.11,0,0,0,269.99,0.4639,-0.0002,0.8859,0,269.99,0.47,-52.64,8.163,-0.011,9.39,1,3,644.31,8.003,0,502.1,0,0,0,,0,0,0,0,0,0,270.08,0,0,0,0,0,0,0,0,0,0,0,0,0,3,3,0,0,VALID,0,0,0,0,0,1,0,0,0,0,0,0,0,0,0,0,0,0,0,0,325.73,1095.84,2,0,0.175,0.175,140,5.71,0.175,0.175,21.75,FLYING,X10-F,0:/Integrated Flight Computer/aircraft/x10_f_cfg.ks (inferred preloaded)
22.1,APPROACH,ILS_TRACK,151.88,152,0.12,449.33,368.63,-0.28,10.12,10.23,269.99,0.008,0.2847,0,20,1,0.6,4.5,0.75,0.35,0.0168,0.4,0,21.926,0,-0.124,0,269.99,0,0,1,-0.12,0,0,0,269.99,0.464,-0.0002,0.8858,0,269.99,0.46,-49.84,8.108,-0.012,8.533,1,3,644.31,8.024,0,499.19,0,0,0,,0,0,0,0,0,0,270.08,0,0,0,0,0,0,0,0,0,0,0,0,0,3,3,0,0,VALID,0,0,0,0,0,1,0,0,0,0,0,0,0,0,0,0,0,0,0,0,322.71,1095.98,2,0,0.175,0.175,142,5.71,0.175,0.175,22.1,FLYING,X10-F,0:/Integrated Flight Computer/aircraft/x10_f_cfg.ks (inferred preloaded)
22.45,APPROACH,ILS_TRACK,151.9,152,0.1,449.24,368.53,-0.26,10.12,10.21,269.99,0.008,0.2983,0,20,1,0.6,4.5,0.75,0.35,0.0168,0.4,0,21.92,0,-0.105,0,269.99,0,0,1,-0.1,0,0,0,269.99,0.4641,-0.0002,0.8858,0,269.99,0.45,-47.03,8.052,-0.013,7.665,1,3,644.31,8.055,0,496.29,0,0,0,,0,0,0,0,0,0,270.08,0,0,0,0,0,0,0,0,0,0,0,0,0,3,3,0,0,VALID,0,0,0,0,0,1,0,0,0,0,0,0,0,0,0,0,0,0,0,0,321.79,1096.06,2,0,0.175,0.175,144,5.71,0.175,0.175,22.45,FLYING,X10-F,0:/Integrated Flight Computer/aircraft/x10_f_cfg.ks (inferred preloaded)
22.8,APPROACH,ILS_TRACK,151.91,152,0.09,449.15,368.44,-0.24,10.12,10.22,269.99,0.009,0.3081,0,20,1,0.6,4.5,0.75,0.35,0.0168,0.4,0,21.916,0,-0.09,0,269.99,0,0,1,-0.1,0,0,0,269.99,0.4642,-0.0002,0.8857,0,269.99,0.44,-44.21,7.997,-0.012,6.823,1,3,644.31,8.05,0,493.38,0,0,0,,0,0,0,0,0,0,270.08,0,0,0,0,0,0,0,0,0,0,0,0,0,3,3,0,0,VALID,0,0,0,0,0,1,0,0,0,0,0,0,0,0,0,0,0,0,0,0,322.27,1096.13,2,0,0.175,0.175,146,5.71,0.175,0.175,22.8,FLYING,X10-F,0:/Integrated Flight Computer/aircraft/x10_f_cfg.ks (inferred preloaded)
23.15,APPROACH,ILS_TRACK,151.93,152,0.07,449.07,368.37,-0.19,10.12,10.18,269.99,0.008,0.3135,0,20,1,0.6,4.5,0.75,0.35,0.0168,0.4,0,21.912,0,-0.074,0,269.99,0,0,1,-0.08,0,0,0,269.99,0.4642,-0.0002,0.8857,0,269.99,0.43,-41.39,7.941,-0.011,5.941,1,3,644.31,8.093,0,490.47,0,0,0,,0,0,0,0,0,0,270.08,0,0,0,0,0,0,0,0,0,0,0,0,0,3,3,0,0,VALID,0,0,0,0,0,1,0,0,0,0,0,0,0,0,0,0,0,0,0,0,323.41,1096.21,2,0,0.175,0.175,148,5.71,0.175,0.175,23.15,FLYING,X10-F,0:/Integrated Flight Computer/aircraft/x10_f_cfg.ks (inferred preloaded)
23.5,APPROACH,ILS_TRACK,151.95,152,0.05,448.99,368.29,-0.21,10.11,10.18,269.99,0.008,0.3151,0,20,1,0.6,4.5,0.75,0.35,0.0168,0.4,0,21.906,0,-0.055,0,269.99,0,0,1,-0.08,0,0,0,269.99,0.4643,-0.0002,0.8857,0,269.99,0.43,-38.56,7.886,-0.011,5.074,1,3,644.31,8.116,0,487.56,0,0,0,,0,0,0,0,0,0,270.08,0,0,0,0,0,0,0,0,0,0,0,0,0,3,3,0,0,VALID,0,0,0,0,0,1,0,0,0,0,0,0,0,0,0,0,0,0,0,0,324.83,1096.3,2,0,0.175,0.175,150,5.71,0.175,0.175,23.5,FLYING,X10-F,0:/Integrated Flight Computer/aircraft/x10_f_cfg.ks (inferred preloaded)
23.85,APPROACH,ILS_TRACK,151.97,152,0.03,448.93,368.23,-0.15,10.12,10.17,269.99,0.009,0.3126,0,20,1,0.6,4.5,0.75,0.35,0.0168,0.4,0,21.899,0,-0.028,0,269.99,0,0,1,-0.07,0,0,0,269.99,0.4644,-0.0002,0.8856,0,269.99,0.42,-35.71,7.83,-0.013,4.203,1,3,644.31,8.138,0,484.65,0,0,0,,0,0,0,0,0,0,270.08,0,0,0,0,0,0,0,0,0,0,0,0,0,3,3,0,0,VALID,0,0,0,0,0,1,0,0,0,0,0,0,0,0,0,0,0,0,0,0,326.23,1096.42,2,0,0.175,0.175,152,5.71,0.175,0.175,23.85,FLYING,X10-F,0:/Integrated Flight Computer/aircraft/x10_f_cfg.ks (inferred preloaded)
24.2,APPROACH,ILS_TRACK,152.01,152,-0.01,448.86,368.16,-0.19,10.09,10.16,269.99,0.008,0.3087,0,20,1,0.6,4.5,0.75,0.35,0.0168,0.4,0,21.89,0,0.002,0,269.99,0,0,1,-0.06,0,0,0,269.99,0.4645,-0.0002,0.8856,0,269.99,0.41,-32.87,7.775,-0.011,3.344,1,3,644.31,8.147,0,481.75,0,0,0,,0,0,0,0,0,0,270.08,0,0,0,0,0,0,0,0,0,0,0,0,0,3,3,0,0,VALID,0,0,0,0,0,1,0,0,0,0,0,0,0,0,0,0,0,0,0,0,327.35,1096.55,2,0,0.175,0.175,154,5.71,0.175,0.175,24.2,FLYING,X10-F,0:/Integrated Flight Computer/aircraft/x10_f_cfg.ks (inferred preloaded)
24.55,APPROACH,ILS_TRACK,152.04,152,-0.04,448.8,368.11,-0.12,10.08,10.12,269.99,0.01,0.3025,0,19.989,1,0.6,4.5,0.75,0.35,0.0168,0.4,0,21.88,0,0.039,0,269.99,-0.51,0,1,-0.06,0,0,-0.08,269.99,0.4724,-0.0002,0.8814,-0.51,269.99,0.41,-30.02,7.719,-0.012,2.49,1,3,644.31,8.145,-0.51,478.84,0,0,0,,0,0,0,0,0,0,270.08,0,0,0,0,0,0,0,0,0,0,0,0,0,3,3,0,0,VALID,0,0,0,0,0,1,0,0,0,0,0,0,0,0,0,0,0,0,0,0,328.08,1096.71,2,0,0.175,0.175,156,5.71,0.175,0.175,24.55,FLYING,X10-F,0:/Integrated Flight Computer/aircraft/x10_f_cfg.ks (inferred preloaded)
24.9,APPROACH,ILS_TRACK,152.07,152,-0.07,448.59,368.16,0.14,9.48,9.29,269.99,-0.003,0.303,0,19.969,1,0.6,4.5,0.75,0.35,0.0168,0.4,0,21.873,0,0.063,0,269.99,-0.92,0,1,0.06,0,0,-0.85,269.99,0.4788,-0.0002,0.8779,-0.92,269.99,0.4,-27.28,7.664,-0.012,2.08,1,3,644.31,7.629,-0.92,475.93,0,0,0,,0,0,0,0,0,0,270.08,0,0,0,0,0,0,0,0,0,0,0,0,0,3,3,0,0,VALID,0,0,0,0,0,1,0,0,0,0,0,0,0,0,0,0,0,0,0,0,328.31,1096.8,2,0,0.175,0.175,158,5.71,0.175,0.175,24.9,FLYING,X10-F,0:/Integrated Flight Computer/aircraft/x10_f_cfg.ks (inferred preloaded)
25.25,APPROACH,ILS_TRACK,152.17,152,-0.17,448.29,368.14,-0.33,8.44,8.48,269.99,-0.006,0.2713,0,19.926,1,0.6,4.5,0.75,0.35,0.0168,0.4,0,21.847,0,0.155,0,269.99,-1.592,0,1,-0.09,0,0,-1.14,269.99,0.4892,-0.0002,0.8722,-1.59,269.99,0.39,-24.67,7.608,-0.012,1.408,1,3,644.31,7.489,-1.592,473.01,0,0,0,,0,0,0,0,0,0,270.08,0,0,0,0,0,0,0,0,0,0,0,0,0,3,3,0,0,VALID,0,0,0,0,0,1,0,0,0,0,0,0,0,0,0,0,0,0,0,0,328.42,1097.24,2,0,0.175,0.175,160,5.71,0.175,0.175,25.25,FLYING,X10-F,0:/Integrated Flight Computer/aircraft/x10_f_cfg.ks (inferred preloaded)
25.6,APPROACH,ILS_TRACK,152.36,152,-0.36,447.83,368.03,-0.49,7.48,7.48,269.99,-0.019,0.2073,0,19.823,1,0.6,4.5,0.75,0.35,0.0168,0.4,0,21.794,0,0.343,0,269.99,-1.907,0,1,-0.14,0,0,-1.94,269.99,0.494,-0.0002,0.8694,-1.91,269.99,0.39,-22.15,7.552,-0.012,1.093,1,3,644.31,6.94,-1.907,470.1,0,0,0,,0,0,0,0,0,0,270.08,0,0,0,0,0,0,0,0,0,0,0,0,0,3,3,0,0,VALID,0,0,0,0,0,1,0,0,0,0,0,0,0,0,0,0,0,0,0,0,323.69,1098.04,2,0,0.175,0.175,162,5.71,0.175,0.175,25.6,FLYING,X10-F,0:/Integrated Flight Computer/aircraft/x10_f_cfg.ks (inferred preloaded)
25.95,APPROACH,ILS_TRACK,152.64,152,-0.64,447.2,367.71,-1.44,6.29,6.71,269.99,-0.016,0.1262,0,19.636,1,0.6,4.5,0.75,0.35,0.0168,0.4,0,21.72,0,0.607,0,269.99,-2.276,0,1,-0.46,0,0,-1.98,269.99,0.4997,-0.0002,0.8662,-2.28,269.99,0.38,-19.85,7.497,-0.011,0.724,1,3,644.31,6.539,-2.276,467.18,0,0,0,,0,0,0,0,0,0,270.08,0,0,0,0,0,0,0,0,0,0,0,0,0,3,3,0,0,VALID,0,0,0,0,0,1,0,0,0,0,0,0,0,0,0,0,0,0,0,0,311.28,1099.21,2,0,0.175,0.175,164,5.71,0.175,0.175,25.95,FLYING,X10-F,0:/Integrated Flight Computer/aircraft/x10_f_cfg.ks (inferred preloaded)
26.3,APPROACH,ILS_TRACK,152.9,152,-0.9,446.54,367.04,-2.12,6.26,7.01,269.99,-0.02,0.064,0,19.352,1,0.6,4.5,0.75,0.35,0.0168,0.4,0,21.644,0,0.877,0,269.99,-2.954,0,1,-0.78,0,0,-2.66,269.99,0.51,-0.0002,0.8602,-2.95,269.99,0.38,-17.56,7.441,-0.012,0.046,1,3,644.31,6.525,-2.954,464.25,0,0,0,,0,0,0,0,0,0,270.08,0,0,0,0,0,0,0,0,0,0,0,0,0,3,3,0,0,VALID,0,0,0,0,0,1,0,0,0,0,0,0,0,0,0,0,0,0,0,0,290.17,1100.38,2,0,0.175,0.175,166,5.71,0.175,0.175,26.3,FLYING,X10-F,0:/Integrated Flight Computer/aircraft/x10_f_cfg.ks (inferred preloaded)
26.65,APPROACH,ILS_TRACK,153.11,152,-1.11,445.5,366.22,-2.74,5.64,6.52,269.99,-0.021,0.0369,0,18.987,1,0.6,4.5,0.75,0.35,0.0168,0.4,0,21.583,0,1.094,0,269.99,-2.57,0,1,-0.95,0,0,-2.73,269.99,0.5043,-0.0002,0.8635,-2.57,269.99,0.37,-15.6,7.385,-0.01,0.43,1,3,644.31,5.312,-2.57,461.33,0,0,0,,0,0,0,0,0,0,270.08,0,0,0,0,0,0,0,0,0,0,0,0,0,3,3,0,0,VALID,0,0,0,0,0,1,0,0,0,0,0,0,0,0,0,0,0,0,0,0,264.38,1101.34,2,0,0.175,0.175,168,5.71,0.175,0.175,26.65,FLYING,X10-F,0:/Integrated Flight Computer/aircraft/x10_f_cfg.ks (inferred preloaded)
27,APPROACH,ILS_TRACK,153.28,152,-1.28,444.36,365.05,-3.8,5.46,6.84,269.99,-0.018,0.029,0,18.556,1,0.6,4.5,0.75,0.35,0.0168,0.4,0,21.533,0,1.269,0,269.99,-2.932,0,1,-1.34,0,0,-2.69,269.99,0.5098,-0.0002,0.8603,-2.93,269.99,0.37,-13.81,7.329,-0.01,0.068,1,3,644.31,5.094,-2.932,458.4,0,0,0,,0,0,0,0,0,0,270.08,0,0,0,0,0,0,0,0,0,0,0,0,0,3,3,0,0,VALID,0,0,0,0,0,1,0,0,0,0,0,0,0,0,0,0,0,0,0,0,238.26,1102.13,2,0,0.175,0.175,170,5.71,0.175,0.175,27,FLYING,X10-F,0:/Integrated Flight Computer/aircraft/x10_f_cfg.ks (inferred preloaded)
27.35,APPROACH,ILS_TRACK,153.33,152,-1.33,443.03,363.64,-4.15,5.91,7.37,269.99,-0.025,0.0668,0,18.094,1,0.6,4.5,0.75,0.35,0.0168,0.4,0,21.517,0,1.328,0,269.99,-2.997,0,1,-1.53,0,0,-3.15,269.99,0.5109,-0.0002,0.8597,-3,269.99,0.36,-12.13,7.273,-0.01,0.003,1,3,644.31,4.547,-2.997,455.46,0,0,0,,0,0,0,0,0,0,270.08,0,0,0,0,0,0,0,0,0,0,0,0,0,3,3,0,0,VALID,0,0,0,0,0,1,0,0,0,0,0,0,0,0,0,0,0,0,0,0,215.24,1102.46,2,0,0.175,0.175,172,5.71,0.175,0.175,27.35,FLYING,X10-F,0:/Integrated Flight Computer/aircraft/x10_f_cfg.ks (inferred preloaded)
27.7,APPROACH,ILS_TRACK,153.31,152,-1.31,441.43,362.06,-4.87,5.76,7.5,269.99,-0.019,0.1187,0,17.633,1,0.6,4.5,0.75,0.35,0.0168,0.4,0,21.521,0,1.311,0,269.99,-2.779,0,1,-1.76,0,0,-2.74,269.99,0.5077,-0.0002,0.8615,-2.78,269.99,0.35,-10.78,7.217,-0.009,0.221,1,3,644.31,3.766,-2.779,452.53,0,0,0,,0,0,0,0,0,0,270.08,0,0,0,0,0,0,0,0,0,0,0,0,0,3,3,0,0,VALID,0,0,0,0,0,1,0,0,0,0,0,0,0,0,0,0,0,0,0,0,199.88,1102.49,2,0,0.175,0.175,174,5.71,0.175,0.175,27.7,FLYING,X10-F,0:/Integrated Flight Computer/aircraft/x10_f_cfg.ks (inferred preloaded)
28.05,APPROACH,ILS_TRACK,153.19,152,-1.19,439.8,360.21,-5.39,6.38,8.38,269.99,-0.021,0.1877,0,17.198,1,0.6,4.5,0.75,0.35,0.0168,0.4,0,21.55,0,1.208,0,269.99,-3.158,0,1,-2,0,0,-2.96,269.99,0.5134,-0.0002,0.8581,-3.16,269.99,0.35,-9.47,7.161,-0.01,-0.158,1,3,644.31,3.747,-3.158,449.61,0,0,0,,0,0,0,0,0,0,270.08,0,0,0,0,0,0,0,0,0,0,0,0,0,3,3,0,0,VALID,0,0,0,0,0,1,0,0,0,0,0,0,0,0,0,0,0,0,0,0,193.14,1102.17,2,0,0.175,0.175,176,5.71,0.175,0.175,28.05,FLYING,X10-F,0:/Integrated Flight Computer/aircraft/x10_f_cfg.ks (inferred preloaded)
28.4,APPROACH,ILS_TRACK,153.02,152,-1.02,437.9,358.31,-5.56,6.53,8.49,269.99,-0.02,0.2612,0,16.819,1,0.6,4.5,0.75,0.35,0.0168,0.4,0,21.599,0,1.037,0,269.99,-2.746,0,1,-2.05,0,0,-3,269.99,0.5073,-0.0002,0.8617,-2.75,269.99,0.34,-8.39,7.106,-0.009,0.254,1,3,644.31,2.828,-2.746,446.68,0,0,0,,0,0,0,0,0,0,270.08,0,0,0,0,0,0,0,0,0,0,0,0,0,3,3,0,0,VALID,0,0,0,0,0,1,0,0,0,0,0,0,0,0,0,0,0,0,0,0,194.72,1101.59,2,0,0.175,0.175,178,5.71,0.175,0.175,28.4,FLYING,X10-F,0:/Integrated Flight Computer/aircraft/x10_f_cfg.ks (inferred preloaded)
28.75,APPROACH,ILS_TRACK,152.85,152,-0.85,435.93,356.25,-6.09,6.66,8.9,269.99,-0.015,0.3118,0,16.502,1,0.6,4.5,0.75,0.35,0.0168,0.4,0,21.647,0,0.864,0,269.99,-2.948,0,1,-2.25,0,0,-2.76,269.99,0.5105,-0.0002,0.8599,-2.95,269.99,0.33,-7.44,7.05,-0.008,0.052,1,3,644.31,2.727,-2.948,443.76,0,0,0,,0,0,0,0,0,0,270.08,0,0,0,0,0,0,0,0,0,0,0,0,0,3,3,0,0,VALID,0,0,0,0,0,1,0,0,0,0,0,0,0,0,0,0,0,0,0,0,201.54,1101.02,2,0,0.175,0.175,180,5.71,0.175,0.175,28.75,FLYING,X10-F,0:/Integrated Flight Computer/aircraft/x10_f_cfg.ks (inferred preloaded)
29.1,APPROACH,ILS_TRACK,152.65,152,-0.65,433.8,354.14,-6,6.85,8.95,269.99,-0.019,0.3558,0,16.249,1,0.6,4.5,0.75,0.35,0.0168,0.4,0,21.701,0,0.673,0,269.99,-2.775,0,1,-2.24,0,0,-3.07,269.99,0.5079,-0.0002,0.8614,-2.78,269.99,0.32,-6.59,6.994,-0.007,0.225,1,3,644.31,2.19,-2.775,440.84,0,0,0,,0,0,0,0,0,0,270.08,0,0,0,0,0,0,0,0,0,0,0,0,0,3,3,0,0,VALID,0,0,0,0,0,1,0,0,0,0,0,0,0,0,0,0,0,0,0,0,211.55,1100.38,2,0,0.175,0.175,182,5.71,0.175,0.175,29.1,FLYING,X10-F,0:/Integrated Flight Computer/aircraft/x10_f_cfg.ks (inferred preloaded)
29.45,APPROACH,ILS_TRACK,152.52,152,-0.52,431.52,351.97,-6.48,6.39,8.69,269.99,-0.013,0.3677,0,16.055,1,0.6,4.5,0.75,0.35,0.0168,0.4,0,21.743,0,0.526,0,269.99,-2.637,0,1,-2.39,0,0,-2.57,269.99,0.5059,-0.0002,0.8626,-2.64,269.99,0.32,-5.96,6.939,-0.008,0.363,1,3,644.31,1.781,-2.637,437.93,0,0,0,,0,0,0,0,0,0,270.08,0,0,0,0,0,0,0,0,0,0,0,0,0,3,3,0,0,VALID,0,0,0,0,0,1,0,0,0,0,0,0,0,0,0,0,0,0,0,0,223.92,1099.97,2,0,0.175,0.175,184,5.71,0.175,0.175,29.45,FLYING,X10-F,0:/Integrated Flight Computer/aircraft/x10_f_cfg.ks (inferred preloaded)
29.8,APPROACH,ILS_TRACK,152.43,152,-0.43,429.32,349.58,-6.93,6.82,9.41,269.99,-0.01,0.3539,0,15.893,1,0.6,4.5,0.75,0.35,0.0168,0.4,0,21.767,0,0.439,0,269.99,-3.089,0,1,-2.6,0,0,-2.83,269.99,0.5128,-0.0002,0.8585,-3.09,269.99,0.31,-5.26,6.883,-0.007,-0.089,1,3,644.31,2.084,-3.089,435.02,0,0,0,,0,0,0,0,0,0,270.08,0,0,0,0,0,0,0,0,0,0,0,0,0,3,3,0,0,VALID,0,0,0,0,0,1,0,0,0,0,0,0,0,0,0,0,0,0,0,0,235.9,1099.81,2,0,0.175,0.175,186,5.71,0.175,0.175,29.8,FLYING,X10-F,0:/Integrated Flight Computer/aircraft/x10_f_cfg.ks (inferred preloaded)
30.15,APPROACH,ILS_TRACK,152.33,152,-0.33,426.94,347.22,-6.69,7.04,9.39,269.99,-0.014,0.3542,0,15.765,1,0.6,4.5,0.75,0.35,0.0168,0.4,0,21.796,0,0.336,0,269.99,-2.721,0,1,-2.51,0,0,-3.09,269.99,0.5074,-0.0002,0.8617,-2.72,269.99,0.3,-4.67,6.828,-0.008,0.279,1,3,644.31,1.403,-2.721,432.11,0,0,0,,0,0,0,0,0,0,270.08,0,0,0,0,0,0,0,0,0,0,0,0,0,3,3,0,0,VALID,0,0,0,0,0,1,0,0,0,0,0,0,0,0,0,0,0,0,0,0,246.19,1099.56,2,0,0.175,0.175,188,5.71,0.175,0.175,30.15,FLYING,X10-F,0:/Integrated Flight Computer/aircraft/x10_f_cfg.ks (inferred preloaded)
30.5,APPROACH,ILS_TRACK,152.28,152,-0.28,424.44,344.81,-7.1,6.61,9.16,269.99,-0.007,0.3332,0,15.665,1,0.6,4.5,0.75,0.35,0.0168,0.4,0,21.811,0,0.283,0,269.99,-2.647,0,1,-2.63,0,0,-2.55,269.99,0.5063,-0.0002,0.8623,-2.65,269.99,0.3,-4.27,6.772,-0.007,0.353,1,3,644.31,1.161,-2.647,429.2,0,0,0,,0,0,0,0,0,0,270.08,0,0,0,0,0,0,0,0,0,0,0,0,0,3,3,0,0,VALID,0,0,0,0,0,1,0,0,0,0,0,0,0,0,0,0,0,0,0,0,255.81,1099.58,2,0,0.175,0.175,190,5.71,0.175,0.175,30.5,FLYING,X10-F,0:/Integrated Flight Computer/aircraft/x10_f_cfg.ks (inferred preloaded)
30.85,APPROACH,ILS_TRACK,152.29,152,-0.29,422.05,342.23,-7.36,7.09,9.83,269.99,-0.008,0.2969,0,15.564,1,0.6,4.5,0.75,0.35,0.0168,0.4,0,21.81,0,0.289,0,269.99,-3.105,0,1,-2.78,0,0,-2.86,269.99,0.5133,-0.0002,0.8582,-3.11,269.99,0.29,-3.77,6.717,-0.006,-0.105,1,3,644.31,1.544,-3.105,426.29,0,0,0,,0,0,0,0,0,0,270.08,0,0,0,0,0,0,0,0,0,0,0,0,0,3,3,0,0,VALID,0,0,0,0,0,1,0,0,0,0,0,0,0,0,0,0,0,0,0,0,262.86,1099.81,2,0,0.175,0.175,192,5.71,0.175,0.175,30.85,FLYING,X10-F,0:/Integrated Flight Computer/aircraft/x10_f_cfg.ks (inferred preloaded)
31.2,APPROACH,ILS_TRACK,152.26,152,-0.26,419.48,339.72,-7.15,7.14,9.66,269.99,-0.008,0.2854,0,15.468,1,0.6,4.5,0.75,0.35,0.0168,0.4,0,21.816,0,0.266,0,269.99,-2.685,0,1,-2.68,0,0,-3.01,269.99,0.5071,-0.0002,0.8619,-2.69,269.99,0.28,-3.38,6.661,-0.007,0.315,1,3,644.31,0.874,-2.685,423.39,0,0,0,,0,0,0,0,0,0,270.08,0,0,0,0,0,0,0,0,0,0,0,0,0,3,3,0,0,VALID,0,0,0,0,0,1,0,0,0,0,0,0,0,0,0,0,0,0,0,0,267.02,1099.91,2,0,0.175,0.175,194,5.71,0.175,0.175,31.2,FLYING,X10-F,0:/Integrated Flight Computer/aircraft/x10_f_cfg.ks (inferred preloaded)
31.55,APPROACH,ILS_TRACK,152.28,152,-0.28,416.9,337.16,-7.52,6.91,9.64,269.99,-0.004,0.261,0,15.373,1,0.6,4.5,0.75,0.35,0.0168,0.4,0,21.812,0,0.28,0,269.99,-2.815,0,1,-2.8,0,0,-2.65,269.99,0.5091,-0.0001,0.8607,-2.82,269.99,0.28,-3.08,6.606,-0.006,0.185,1,3,644.31,0.925,-2.815,420.48,0,0,0,,0,0,0,0,0,0,270.08,0,0,0,0,0,0,0,0,0,0,0,0,0,3,3,0,0,VALID,0,0,0,0,0,1,0,0,0,0,0,0,0,0,0,0,0,0,0,0,270.07,1100.21,2,0,0.175,0.175,196,5.71,0.175,0.175,31.55,FLYING,X10-F,0:/Integrated Flight Computer/aircraft/x10_f_cfg.ks (inferred preloaded)
31.9,APPROACH,ILS_TRACK,152.3,152,-0.3,414.35,334.52,-7.36,7.33,9.99,269.99,-0.007,0.2411,0,15.268,1,0.6,4.5,0.75,0.35,0.0168,0.4,0,21.805,0,0.304,0,269.99,-3.036,0,1,-2.79,0,0,-3.06,269.99,0.5125,-0.0001,0.8587,-3.04,269.99,0.27,-2.69,6.55,-0.006,-0.036,1,3,644.31,1.056,-3.036,417.58,0,0,0,,0,0,0,0,0,0,270.08,0,0,0,0,0,0,0,0,0,0,0,0,0,3,3,0,0,VALID,0,0,0,0,0,1,0,0,0,0,0,0,0,0,0,0,0,0,0,0,271.02,1100.52,2,0,0.175,0.175,198,5.71,0.175,0.175,31.9,FLYING,X10-F,0:/Integrated Flight Computer/aircraft/x10_f_cfg.ks (inferred preloaded)
32.25,APPROACH,ILS_TRACK,152.31,152,-0.31,411.68,331.93,-7.54,7.03,9.74,269.99,-0.002,0.2358,0,15.161,1,0.6,4.5,0.75,0.35,0.0168,0.4,0,21.804,0,0.307,0,269.99,-2.789,0,1,-2.81,0,0,-2.77,269.99,0.5089,-0.0002,0.8608,-2.79,269.99,0.26,-2.46,6.495,-0.007,0.211,1,3,644.31,0.659,-2.789,414.67,0,0,0,,0,0,0,0,0,0,270.08,0,0,0,0,0,0,0,0,0,0,0,0,0,3,3,0,0,VALID,0,0,0,0,0,1,0,0,0,0,0,0,0,0,0,0,0,0,0,0,270.47,1100.75,2,0,0.175,0.175,200,5.71,0.175,0.175,32.25,FLYING,X10-F,0:/Integrated Flight Computer/aircraft/x10_f_cfg.ks (inferred preloaded)
32.6,APPROACH,ILS_TRACK,152.34,152,-0.34,409.1,329.25,-7.56,7.32,10.07,269.99,-0.003,0.2208,0,15.046,1,0.6,4.5,0.75,0.35,0.0168,0.4,0,21.796,0,0.336,0,269.99,-3.139,0,1,-2.86,0,0,-2.98,269.99,0.5142,-0.0002,0.8577,-3.14,269.99,0.26,-2.14,6.439,-0.007,-0.139,1,3,644.31,0.977,-3.139,411.77,0,0,0,,0,0,0,0,0,0,270.08,0,0,0,0,0,0,0,0,0,0,0,0,0,3,3,0,0,VALID,0,0,0,0,0,1,0,0,0,0,0,0,0,0,0,0,0,0,0,0,268.8,1101.09,2,0,0.175,0.175,202,5.71,0.175,0.175,32.6,FLYING,X10-F,0:/Integrated Flight Computer/aircraft/x10_f_cfg.ks (inferred preloaded)
32.95,APPROACH,ILS_TRACK,152.33,152,-0.33,406.36,326.65,-7.53,6.97,9.64,269.99,-0.002,0.2255,0,14.93,1,0.6,4.5,0.75,0.35,0.0168,0.4,0,21.799,0,0.328,0,269.99,-2.745,0,1,-2.81,0,0,-2.91,269.99,0.5084,-0.0001,0.8611,-2.75,269.99,0.25,-1.95,6.384,-0.005,0.255,1,3,644.31,0.414,-2.745,408.86,0,0,0,,0,0,0,0,0,0,270.08,0,0,0,0,0,0,0,0,0,0,0,0,0,3,3,0,0,VALID,0,0,0,0,0,1,0,0,0,0,0,0,0,0,0,0,0,0,0,0,266.05,1101.27,2,0,0.175,0.175,204,5.71,0.175,0.175,32.95,FLYING,X10-F,0:/Integrated Flight Computer/aircraft/x10_f_cfg.ks (inferred preloaded)
33.3,APPROACH,ILS_TRACK,152.36,152,-0.36,403.7,323.93,-7.91,6.94,9.84,269.99,0.002,0.2127,0,14.809,1,0.6,4.5,0.75,0.35,0.0168,0.4,0,21.791,0,0.354,0,269.99,-3.05,0,1,-2.95,0,0,-2.83,269.99,0.513,-0.0001,0.8584,-3.05,269.99,0.25,-1.74,6.329,-0.006,-0.05,1,3,644.31,0.715,-3.05,405.96,0,0,0,,0,0,0,0,0,0,270.08,0,0,0,0,0,0,0,0,0,0,0,0,0,3,3,0,0,VALID,0,0,0,0,0,1,0,0,0,0,0,0,0,0,0,0,0,0,0,0,263.74,1101.61,2,0,0.175,0.175,206,5.71,0.175,0.175,33.3,FLYING,X10-F,0:/Integrated Flight Computer/aircraft/x10_f_cfg.ks (inferred preloaded)
33.65,APPROACH,ILS_TRACK,152.34,152,-0.34,400.99,321.22,-7.6,7.2,9.9,270,-0.003,0.2194,0,14.686,1,0.6,4.5,0.75,0.35,0.0168,0.4,0,21.794,0,0.345,0,269.99,-2.984,0,1,-2.87,0,0,-3.21,270,0.5121,-0.0002,0.8589,-2.98,269.99,0.24,-1.5,6.273,-0.007,0.016,1,3,644.31,0.54,-2.984,403.05,0,0,0,,0,0,0,0,0,0,270.08,0,0,0,0,0,0,0,0,0,0,0,0,0,3,3,0,0,VALID,0,0,0,0,0,1,0,0,0,0,0,0,0,0,0,0,0,0,0,0,260.44,1101.77,2,0,0.175,0.175,208,5.71,0.175,0.175,33.65,FLYING,X10-F,0:/Integrated Flight Computer/aircraft/x10_f_cfg.ks (inferred preloaded)
34,APPROACH,ILS_TRACK,152.33,152,-0.33,398.18,318.53,-7.87,6.71,9.53,269.99,0.002,0.2269,0,14.572,1,0.6,4.5,0.75,0.35,0.0168,0.4,0,21.8,0,0.324,0,269.99,-2.772,0,1,-2.93,0,0,-2.73,269.99,0.509,-0.0001,0.8608,-2.77,269.99,0.24,-1.41,6.218,-0.006,0.228,1,3,644.31,0.246,-2.772,400.15,0,0,0,,0,0,0,0,0,0,270.08,0,0,0,0,0,0,0,0,0,0,0,0,0,3,3,0,0,VALID,0,0,0,0,0,1,0,0,0,0,0,0,0,0,0,0,0,0,0,0,258.66,1101.93,2,0,0.175,0.175,210,5.71,0.175,0.175,34,FLYING,X10-F,0:/Integrated Flight Computer/aircraft/x10_f_cfg.ks (inferred preloaded)
34.35,APPROACH,ILS_TRACK,152.33,152,-0.33,395.49,315.7,-8.09,7.04,10.03,269.99,0.001,0.22,0,14.456,1,0.6,4.5,0.75,0.35,0.0168,0.4,0,21.797,0,0.332,0,269.99,-3.174,0,1,-3.05,0,0,-2.95,269.99,0.5151,-0.0001,0.8571,-3.17,269.99,0.23,-1.22,6.162,-0.006,-0.174,1,3,644.31,0.674,-3.174,397.25,0,0,0,,0,0,0,0,0,0,270.08,0,0,0,0,0,0,0,0,0,0,0,0,0,3,3,0,0,VALID,0,0,0,0,0,1,0,0,0,0,0,0,0,0,0,0,0,0,0,0,257.41,1102.19,2,0,0.175,0.175,212,5.71,0.175,0.175,34.35,FLYING,X10-F,0:/Integrated Flight Computer/aircraft/x10_f_cfg.ks (inferred preloaded)
34.7,APPROACH,ILS_TRACK,152.29,152,-0.29,392.69,312.92,-7.93,7.11,9.95,270,-0.002,0.233,0,14.348,1,0.6,4.5,0.75,0.35,0.0168,0.4,0,21.807,0,0.298,0,269.99,-2.844,0,1,-2.97,0,0,-3.09,269.99,0.5103,-0.0001,0.86,-2.84,269.99,0.23,-1.09,6.107,-0.006,0.156,1,3,644.31,0.213,-2.844,394.34,0,0,0,,0,0,0,0,0,0,270.08,0,0,0,0,0,0,0,0,0,0,0,0,0,3,3,0,0,VALID,0,0,0,0,0,1,0,0,0,0,0,0,0,0,0,0,0,0,0,0,255.96,1102.26,2,0,0.175,0.175,214,5.71,0.175,0.175,34.7,FLYING,X10-F,0:/Integrated Flight Computer/aircraft/x10_f_cfg.ks (inferred preloaded)
35.05,APPROACH,ILS_TRACK,152.27,152,-0.27,389.92,310.09,-8.11,7.2,10.18,270,0.001,0.2385,0,14.251,1,0.6,4.5,0.75,0.35,0.0168,0.4,0,21.815,0,0.271,0,269.99,-3.054,0,1,-3.06,0,0,-2.87,269.99,0.5135,-0.0001,0.8581,-3.05,269.99,0.22,-0.97,6.052,-0.006,-0.054,1,3,644.31,0.432,-3.054,391.44,0,0,0,,0,0,0,0,0,0,270.08,0,0,0,0,0,0,0,0,0,0,0,0,0,3,3,0,0,VALID,0,0,0,0,0,1,0,0,0,0,0,0,0,0,0,0,0,0,0,0,256.08,1102.39,2,0,0.175,0.175,216,5.71,0.175,0.175,35.05,FLYING,X10-F,0:/Integrated Flight Computer/aircraft/x10_f_cfg.ks (inferred preloaded)
35.4,APPROACH,ILS_TRACK,152.22,152,-0.22,387.12,307.29,-8.03,7.27,10.16,270,-0.003,0.2496,0,14.167,1,0.6,4.5,0.75,0.35,0.0168,0.4,0,21.827,0,0.227,0,269.99,-2.918,0,1,-3.01,0,0,-3.05,269.99,0.5115,-0.0002,0.8593,-2.92,269.99,0.22,-0.86,5.996,-0.007,0.082,1,3,644.31,0.221,-2.918,388.54,0,0,0,,0,0,0,0,0,0,270.08,0,0,0,0,0,0,0,0,0,0,0,0,0,3,3,0,0,VALID,0,0,0,0,0,1,0,0,0,0,0,0,0,0,0,0,0,0,0,0,256.7,1102.43,2,0,0.175,0.175,218,5.71,0.175,0.175,35.4,FLYING,X10-F,0:/Integrated Flight Computer/aircraft/x10_f_cfg.ks (inferred preloaded)
35.75,APPROACH,ILS_TRACK,152.18,152,-0.18,384.32,304.48,-7.98,7.32,10.2,270,-0.003,0.2548,0,14.098,1,0.6,4.5,0.75,0.35,0.0168,0.4,0,21.838,0,0.189,0,269.99,-2.994,0,1,-3,0,0,-3.01,269.99,0.5127,-0.0002,0.8585,-2.99,269.99,0.22,-0.76,5.941,-0.006,0.006,1,3,644.31,0.277,-2.994,385.65,0,0,0,,0,0,0,0,0,0,270.08,0,0,0,0,0,0,0,0,0,0,0,0,0,3,3,0,0,VALID,0,0,0,0,0,1,0,0,0,0,0,0,0,0,0,0,0,0,0,0,258.02,1102.51,2,0,0.175,0.175,220,5.71,0.175,0.175,35.75,FLYING,X10-F,0:/Integrated Flight Computer/aircraft/x10_f_cfg.ks (inferred preloaded)
36.08,APPROACH,ILS_TRACK,152.15,152,-0.15,381.62,301.77,-7.98,7.32,10.21,270,-0.006,0.2569,0,14.042,1,0.6,4.5,0.75,0.35,0.0168,0.4,0,21.847,0,0.156,0,269.99,-3.034,0,1,-3.01,0,0,-2.99,269.99,0.5134,-0.0002,0.8581,-3.03,269.99,0.21,-0.66,5.886,-0.007,-0.034,1,3,644.31,0.292,-3.034,382.79,0,0,0,,0,0,0,0,0,0,270.08,0,0,0,0,0,0,0,0,0,0,0,0,0,3,3,0,0,VALID,0,0,0,0,0,1,0,0,0,0,0,0,0,0,0,0,0,0,0,0,259.59,1102.6,2,0,0.171,0.171,222,5.9,0.175,0.171,36.08,FLYING,X10-F,0:/Integrated Flight Computer/aircraft/x10_f_cfg.ks (inferred preloaded)
36.36,APPROACH,ILS_TRACK,152.13,152,-0.13,379.37,299.56,-7.92,7.2,10.07,269.99,-0.02,0.2568,0,14.002,1,0.6,4.5,0.75,0.35,0.0168,0.4,0,21.854,0,0.131,0,269.99,-2.98,0,1,-2.98,0,0,-3.01,269.99,0.5127,-0.0002,0.8586,-2.98,269.99,0.21,-0.6,5.84,-0.007,0.02,1,3,644.31,0.199,-2.98,380.36,0,0,0,,0,0,0,0,0,0,270.08,0,0,0,0,0,0,0,0,0,0,0,0,0,3,3,0,0,VALID,0,0,0,0,0,1,0,0,0,0,0,0,0,0,0,0,0,0,0,0,260.91,1102.69,2,0,0.141,0.141,224,7.17,0.171,0.141,36.36,FLYING,X10-F,0:/Integrated Flight Computer/aircraft/x10_f_cfg.ks (inferred preloaded)
36.72,APPROACH,ILS_TRACK,152.13,152,-0.13,376.52,296.75,-7.97,7.06,9.95,269.99,-0.02,0.2412,0,13.956,1,0.6,4.5,0.75,0.35,0.0168,0.4,0,21.854,0,0.129,0,269.99,-3.053,0,1,-2.99,0,0,-3.03,269.99,0.5138,-0.0002,0.8579,-3.05,269.99,0.21,-0.51,5.784,-0.007,-0.053,1,3,644.31,0.258,-3.053,377.39,0,0,0,,0,0,0,0,0,0,270.08,0,0,0,0,0,0,0,0,0,0,0,0,0,3,3,0,0,VALID,0,0,0,0,0,1,0,0,0,0,0,0,0,0,0,0,0,0,0,0,262.24,1102.93,2,0,0.117,0.117,227,8.44,0.141,0.117,36.72,FLYING,X10-F,0:/Integrated Flight Computer/aircraft/x10_f_cfg.ks (inferred preloaded)
37.05,APPROACH,ILS_TRACK,152.14,152,-0.14,373.87,294.14,-7.95,6.95,9.82,269.99,-0.018,0.2259,0,13.91,1,0.6,4.5,0.75,0.35,0.0168,0.4,0,21.851,0,0.141,0,269.99,-3.034,0,1,-2.98,0,0,-3.05,269.99,0.5136,-0.0002,0.858,-3.03,269.99,0.2,-0.43,5.731,-0.006,-0.034,1,3,644.31,0.203,-3.034,374.64,0,0,0,,0,0,0,0,0,0,270.08,0,0,0,0,0,0,0,0,0,0,0,0,0,3,3,0,0,VALID,0,0,0,0,0,1,0,0,0,0,0,0,0,0,0,0,0,0,0,0,262.08,1103.2,2,0,0.108,0.108,230,9.1,0.117,0.108,37.05,FLYING,X10-F,0:/Integrated Flight Computer/aircraft/x10_f_cfg.ks (inferred preloaded)
37.38,APPROACH,ILS_TRACK,152.15,152,-0.15,371.27,291.54,-7.88,6.98,9.82,269.99,-0.017,0.2167,0,13.86,1,0.6,4.5,0.75,0.35,0.0168,0.4,0,21.847,0,0.154,0,269.99,-3.116,0,1,-2.97,0,0,-3.21,269.99,0.5149,-0.0001,0.8572,-3.12,269.99,0.2,-0.32,5.679,-0.005,-0.116,1,3,644.31,0.266,-3.116,371.92,0,0,0,,0,0,0,0,0,0,270.08,0,0,0,0,0,0,0,0,0,0,0,0,0,3,3,0,0,VALID,0,0,0,0,0,1,0,0,0,0,0,0,0,0,0,0,0,0,0,0,260.16,1103.46,2,0,0.121,0.121,233,9.19,0.121,0.103,37.38,FLYING,X10-F,0:/Integrated Flight Computer/aircraft/x10_f_cfg.ks (inferred preloaded)
37.74,APPROACH,ILS_TRACK,152.17,152,-0.17,368.35,288.67,-8.13,6.76,9.71,269.99,-0.014,0.2097,0,13.803,1,0.6,4.5,0.75,0.35,0.0168,0.4,0,21.844,0,0.167,0,269.99,-3.105,0,1,-3.04,0,0,-2.99,269.99,0.5149,-0.0002,0.8573,-3.11,269.99,0.2,-0.27,5.622,-0.007,-0.105,1,3,644.31,0.234,-3.105,368.94,0,0,0,,0,0,0,0,0,0,270.08,0,0,0,0,0,0,0,0,0,0,0,0,0,3,3,0,0,VALID,0,0,0,0,0,1,0,0,0,0,0,0,0,0,0,0,0,0,0,0,257.85,1103.77,2,0,0.12,0.12,236,8.33,0.121,0.12,37.74,FLYING,X10-F,0:/Integrated Flight Computer/aircraft/x10_f_cfg.ks (inferred preloaded)
38.1,APPROACH,ILS_TRACK,152.15,152,-0.15,365.46,285.77,-7.99,6.88,9.75,269.99,-0.014,0.2231,0,13.744,1,0.6,4.5,0.75,0.35,0.0168,0.4,0,21.847,0,0.154,0,269.99,-3.02,0,1,-3,0,0,-3.22,269.99,0.5137,-0.0001,0.858,-3.02,269.99,0.2,-0.17,5.565,-0.006,-0.02,1,3,644.31,0.09,-3.02,365.96,0,0,0,,0,0,0,0,0,0,270.08,0,0,0,0,0,0,0,0,0,0,0,0,0,3,3,0,0,VALID,0,0,0,0,0,1,0,0,0,0,0,0,0,0,0,0,0,0,0,0,254.83,1103.94,2,0,0.12,0.12,239,8.33,0.12,0.12,38.1,FLYING,X10-F,0:/Integrated Flight Computer/aircraft/x10_f_cfg.ks (inferred preloaded)
