t_s,phase,subphase,ias_ms,vapp_ms,spd_err_ms,agl_m,gear_h_m,vs_ms,pitch_deg,aoa_deg,hdg_deg,bank_deg,thr_cmd,thr_cur,thr_intg,at_gain,at_tau_s,at_a_up,at_a_dn,at_kp_thr,at_ki_spd,at_thr_slew,as_cmd_deg,as_cap_deg,as_raw_deg,as_spd_err_ms,as_active,aa_hdg_cmd_deg,aa_fpa_cmd_deg,aa_fbw,aa_dir,actual_fpa_deg,ftf_hdg_err_deg,ftf_fix_idx,kos_steer_pit_deg,kos_steer_hdg_deg,aa_dir_vx,aa_dir_vy,aa_dir_vz,aa_dir_pitch_deg,aa_dir_hdg_deg,ils_loc_m,ils_gs_m,ils_dist_km,loc_corr_deg,gs_corr_deg,gs_latched,active_gs_ang_deg,ils_intercept_alt_m,d_gs_ms,fpa_preclamped_deg,gs_nom_alt_m,flare_fpa_cmd,flare_tgt_vs,flare_frac,flare_vs_err,flare_fpa_err,flare_pitch_err,flare_req_up_a,flare_thr_floor,steer_hdg_deg,steer_blend,ro_loc_corr_deg,ro_hdg_err_deg,ro_yaw_tgt,ro_yaw_scale,ro_yaw_gate,yaw_cmd,roll_cmd,pitch_cmd,ro_pitch_tgt_deg,ro_pitch_err_deg,ro_pitch_ff,ro_roll_assist,flaps_cur,flaps_tgt,asc_j_ab,asc_j_rk,asc_validity,asc_q_pa,asc_q_raw_pa,asc_mach,asc_apo_m,asc_drag_n,asc_w_prop,asc_edot_aero,asc_edot_orb,asc_pitch_bias,asc_blend,asc_spooling,asc_ab_thr_ratio,asc_ab_t_now,asc_ab_t_avail,asc_ab_ign_on,asc_ab_flameouts,asc_rk_t_now,asc_rk_t_avail,asc_rk_ign_on,asc_rk_flameouts,ship_thrust,ship_avail_thrust,ship_ign_on,ship_flameouts,ifc_raw_dt_s,ifc_dt_s,ifc_loop_n,ifc_hz_est,ifc_raw_dt_max_s,ifc_raw_dt_min_s,phase_el_s,status,craft_name,cfg_file
0.16,APPROACH,ILS_TRACK,156.83,152,-4.83,1339.31,1258.91,-14.39,11.65,17.04,268.51,-14.697,0,0,0,0,0,0,0,0,0,0,0,0,0,0,0,0,0,1,0,-5.26,0,0,0,90,0,0,0,0,0,-106.02,-272.31,29.334,0,0,0,3,1339.31,0,0,1611.62,0,0,0,0,0,0,0,0,268.51,0,0,0,0,0,0,0,0,0,0,0,0,0,0,0,0,0,VALID,0,0,0,0,0,1,0,0,0,0,0,0,0,0,0,0,0,0,0,0,336.48,1053.19,2,0,0.14,0.14,1,3.7,0.14,0.02,0.16,FLYING,X10-F,0:/Integrated Flight Computer/aircraft/x10_f_cfg.ks (inferred preloaded)
0.42,APPROACH,ILS_TRACK,156.85,152,-4.85,1335.6,1255.32,-13.78,11.52,16.64,268.46,-13.797,0,0,0,1,0.6,1.423,0.75,0.35,0.0168,0.4,3.722,20.523,3.722,4.855,1,272.13,0,0,1,-5.06,0,0,0,295,0.1414,0.0371,0.9893,0,272.13,-104.19,-273.48,29.296,2.127,0,0,3,1339.31,-5.225,0,1609.65,0,0,0,0,0,0,0,0,268.51,0,0,0,0,0,0,0,0,0,0,0,0,0,1,3,0,0,VALID,0,0,0,0,0,1,0,0,0,0,0,0,0,0,0,0,0,0,0,0,307.22,1053.53,2,0,0.12,0.12,3,7.69,0.14,0.12,0.42,FLYING,X10-F,0:/Integrated Flight Computer/aircraft/x10_f_cfg.ks (inferred preloaded)
0.74,APPROACH,ILS_TRACK,156.79,152,-4.79,1331.16,1251.23,-13.16,11,15.78,268.67,-11.679,0,0,0,1,0.6,3.158,0.75,0.35,0.0168,0.4,3.658,20.54,3.658,4.795,1,272.3,0,0,1,-4.82,0,0,0,272.26,0.1415,0.0402,0.9891,0,272.3,-101.82,-275.08,29.242,2.303,0,0,3,1339.31,-4.818,0,1606.79,0,0,0,0,0,0,0,0,268.51,0,0,0,0,0,0,0,0,0,0,0,0,0,1,3,0,0,VALID,0,0,0,0,0,1,0,0,0,0,0,0,0,0,0,0,0,0,0,0,274.56,1053.52,2,0,0.08,0.08,6,9.38,0.14,0.08,0.74,FLYING,X10-F,0:/Integrated Flight Computer/aircraft/x10_f_cfg.ks (inferred preloaded)
1.1,APPROACH,ILS_TRACK,156.71,152,-4.71,1326.43,1247.07,-12.77,10.7,15.17,269.28,-5.889,0,0,0,1,0.6,4.5,0.75,0.35,0.0168,0.4,3.571,20.563,3.571,4.713,1,272.42,0,0,1,-4.67,0,0,0,272.39,0.1416,0.0421,0.989,0,272.42,-99.48,-276.62,29.18,2.416,0,0,3,1339.31,-3.973,0,1603.57,0,0,0,0,0,0,0,0,268.51,0,0,0,0,0,0,0,0,0,0,0,0,0,2,3,0,0,VALID,0,0,0,0,0,1,0,0,0,0,0,0,0,0,0,0,0,0,0,0,241.93,1053.44,2,0,0.12,0.12,9,8.33,0.12,0.08,1.1,FLYING,X10-F,0:/Integrated Flight Computer/aircraft/x10_f_cfg.ks (inferred preloaded)
1.46,APPROACH,ILS_TRACK,156.56,152,-4.56,1322.1,1242.89,-12.49,11.32,15.62,270.05,-1.592,0,0,0,1,0.6,4.5,0.75,0.35,0.0168,0.4,3.424,20.602,3.424,4.575,1,272.45,0,0,1,-4.58,0,0,0,272.45,0.1417,0.0427,0.989,0,272.45,-97.35,-277.79,29.119,2.446,0,0,3,1339.31,-2.83,0,1600.35,0,0,0,0,0,0,0,0,268.51,0,0,0,0,0,0,0,0,0,0,0,0,0,3,3,0,0,VALID,0,0,0,0,0,1,0,0,0,0,0,0,0,0,0,0,0,0,0,0,213.13,1053.1,2,0,0.12,0.12,12,8.33,0.12,0.12,1.46,FLYING,X10-F,0:/Integrated Flight Computer/aircraft/x10_f_cfg.ks (inferred preloaded)
1.76,APPROACH,ILS_TRACK,156.26,152,-4.26,1318.83,1239.33,-12.03,12.67,16.82,270.73,-0.069,0,0,0,1,0.6,4.5,0.75,0.35,0.0168,0.4,3.119,20.682,3.119,4.29,1,272.41,0,0,1,-4.43,0,0,0,272.43,0.1418,0.0421,0.989,0,272.41,-95.64,-278.42,29.068,2.411,0,0,3,1339.31,-1.751,0,1597.67,0,0,0,0,0,0,0,0,268.51,0,0,0,0,0,0,0,0,0,0,0,0,0,3,3,0,0,VALID,0,0,0,0,0,1,0,0,0,0,0,0,0,0,0,0,0,0,0,0,191.64,1052.05,2,0,0.08,0.08,15,10,0.12,0.08,1.76,FLYING,X10-F,0:/Integrated Flight Computer/aircraft/x10_f_cfg.ks (inferred preloaded)
2.12,APPROACH,ILS_TRACK,155.55,152,-3.55,1315.18,1235.21,-10.69,14.36,18.03,271.45,0.543,0.1063,0,-1.392,1,0.6,4.5,0.75,0.35,0.0168,0.4,0,20.876,0,3.602,0,272.34,0,0,1,-3.99,0,0,0,272.35,0.1419,0.0408,0.989,0,272.34,-93.61,-278.89,29.007,2.34,0,0,3,1339.31,-1.177,0,1594.47,0,0,0,0,0,0,0,0,268.51,0,0,0,0,0,0,0,0,0,0,0,0,0,3,3,0,0,VALID,0,0,0,0,0,1,0,0,0,0,0,0,0,0,0,0,0,0,0,0,170.98,1049.22,2,0,0.12,0.12,18,8.33,0.12,0.08,2.12,FLYING,X10-F,0:/Integrated Flight Computer/aircraft/x10_f_cfg.ks (inferred preloaded)
2.46,APPROACH,ILS_TRACK,154.62,152,-2.62,1311.89,1231.82,-9.36,14.79,17.98,272,0.583,0.2423,0,-2.408,1,0.6,4.5,0.75,0.35,0.0168,0.4,0,21.138,0,2.671,0,272.22,0,0,1,-3.51,0,0,0,272.27,0.142,0.0388,0.9891,0,272.22,-91.67,-279.2,28.949,2.222,0,0,3,1339.31,-0.711,0,1591.46,0,0,0,0,0,0,0,0,268.51,0,0,0,0,0,0,0,0,0,0,0,0,0,3,3,0,0,VALID,0,0,0,0,0,1,0,0,0,0,0,0,0,0,0,0,0,0,0,0,167.64,1045.38,2,0,0.1,0.1,21,8.82,0.12,0.1,2.46,FLYING,X10-F,0:/Integrated Flight Computer/aircraft/x10_f_cfg.ks (inferred preloaded)
2.74,APPROACH,ILS_TRACK,153.87,152,-1.87,1309.37,1229.36,-8.4,14.67,17.54,272.14,0.543,0.3543,0,-3.013,1,0.6,4.5,0.75,0.35,0.0168,0.4,0,21.351,0,1.917,0,272.13,0,0,1,-3.17,0,0,0,272.17,0.1421,0.0372,0.9892,0,272.13,-90.04,-279.28,28.902,2.132,0,0,3,1339.31,-0.052,0,1589,0,0,0,0,0,0,0,0,268.51,0,0,0,0,0,0,0,0,0,0,0,0,0,3,3,0,0,VALID,0,0,0,0,0,1,0,0,0,0,0,0,0,0,0,0,0,0,0,0,173.46,1042.29,2,0,0.08,0.08,24,10.71,0.1,0.08,2.74,FLYING,X10-F,0:/Integrated Flight Computer/aircraft/x10_f_cfg.ks (inferred preloaded)
3.04,APPROACH,ILS_TRACK,153.14,152,-1.14,1306.86,1226.99,-7.58,14.24,16.82,272.12,0.27,0.4743,0,-3.438,1,0.6,4.5,0.75,0.35,0.0168,0.4,0,21.557,0,1.186,0,272.06,0,0,1,-2.87,0,0,0,272.07,0.1422,0.0359,0.9892,0,272.06,-88.27,-279.19,28.852,2.057,0,0,3,1339.31,0.572,0,1586.37,0,0,0,0,0,0,0,0,268.51,0,0,0,0,0,0,0,0,0,0,0,0,0,3,3,0,0,VALID,0,0,0,0,0,1,0,0,0,0,0,0,0,0,0,0,0,0,0,0,186.3,1039.31,2,0,0.08,0.08,27,10,0.12,0.08,3.04,FLYING,X10-F,0:/Integrated Flight Computer/aircraft/x10_f_cfg.ks (inferred preloaded)
3.34,APPROACH,ILS_TRACK,152.55,152,-0.55,1304.58,1224.82,-6.96,13.83,16.21,272.08,0.182,0.5943,0,-3.67,1,0.6,4.5,0.75,0.35,0.0168,0.4,0,21.727,0,0.582,0,271.99,0,0,1,-2.64,0,0,0,272.01,0.1422,0.0347,0.9892,0,271.99,-86.5,-278.88,28.802,1.986,0,0,3,1339.31,1.279,0,1583.75,0,0,0,0,0,0,0,0,268.51,0,0,0,0,0,0,0,0,0,0,0,0,0,3,3,0,0,VALID,0,0,0,0,0,1,0,0,0,0,0,0,0,0,0,0,0,0,0,0,205.65,1036.88,2,0,0.08,0.08,30,10,0.12,0.08,3.34,FLYING,X10-F,0:/Integrated Flight Computer/aircraft/x10_f_cfg.ks (inferred preloaded)
3.66,APPROACH,ILS_TRACK,152.02,152,-0.02,1302.38,1222.69,-6.41,13.56,15.76,272.08,0.178,0.6018,0,-3.74,1,0.6,4.5,0.75,0.35,0.0168,0.4,0,21.876,0,0.053,0,271.92,0,0,1,-2.43,0,0,0,271.94,0.1423,0.0335,0.9893,0,271.92,-84.62,-278.32,28.749,1.922,0,0,3,1339.31,1.972,0,1580.96,0,0,0,0,0,0,0,0,268.51,0,0,0,0,0,0,0,0,0,0,0,0,0,3,3,0,0,VALID,0,0,0,0,0,1,0,0,0,0,0,0,0,0,0,0,0,0,0,0,232.01,1034.77,2,0,0.1,0.1,33,9.38,0.12,0.08,3.66,FLYING,X10-F,0:/Integrated Flight Computer/aircraft/x10_f_cfg.ks (inferred preloaded)
4,APPROACH,ILS_TRACK,151.55,152,0.45,1300.22,1220.65,-5.53,13.28,15.15,272.07,0.087,0.5482,0,-3.651,1,0.6,4.5,0.75,0.35,0.0168,0.4,0,22.009,0,-0.42,0,271.83,0,0,1,-2.14,0,0,0,271.86,0.1424,0.032,0.9893,0,271.83,-82.62,-277.53,28.693,1.834,0,0,3,1339.31,2.379,0,1578.01,0,0,0,0,0,0,0,0,268.51,0,0,0,0,0,0,0,0,0,0,0,0,0,3,3,0,0,VALID,0,0,0,0,0,1,0,0,0,0,0,0,0,0,0,0,0,0,0,0,256.13,1032.87,2,0,0.1,0.1,36,8.82,0.12,0.1,4,FLYING,X10-F,0:/Integrated Flight Computer/aircraft/x10_f_cfg.ks (inferred preloaded)
4.34,APPROACH,ILS_TRACK,151.15,152,0.85,1298,1218.88,-4.98,11.7,13.32,272.02,-0.133,0.5034,0,-3.403,1,0.6,4.5,0.75,0.35,0.0168,0.4,0,22.128,0,-0.841,0,271.76,0,0,1,-1.89,0,0,0,271.78,0.1425,0.0306,0.9893,0,271.76,-80.61,-276.81,28.637,1.756,0,0,3,1339.31,2.122,0,1575.07,0,0,0,0,0,0,0,0,268.51,0,0,0,0,0,0,0,0,0,0,0,0,0,3,3,0,0,VALID,0,0,0,0,0,1,0,0,0,0,0,0,0,0,0,0,0,0,0,0,276.29,1031.24,2,0,0.12,0.12,39,8.82,0.12,0.1,4.34,FLYING,X10-F,0:/Integrated Flight Computer/aircraft/x10_f_cfg.ks (inferred preloaded)
4.68,APPROACH,ILS_TRACK,151.1,152,0.9,1295.94,1217.14,-5.14,10.36,12.08,271.97,-0.35,0.3674,0,-3.099,1,0.6,4.5,0.75,0.35,0.0168,0.4,0,22.144,0,-0.898,0,271.67,0,0,1,-1.93,0,0,0,271.69,0.1426,0.0292,0.9893,0,271.67,-78.61,-275.96,28.58,1.674,0,0,3,1339.31,2.742,0,1572.13,0,0,0,0,0,0,0,0,268.51,0,0,0,0,0,0,0,0,0,0,0,0,0,3,3,0,0,VALID,0,0,0,0,0,1,0,0,0,0,0,0,0,0,0,0,0,0,0,0,289.69,1031.14,2,0,0.1,0.1,42,8.82,0.12,0.1,4.68,FLYING,X10-F,0:/Integrated Flight Computer/aircraft/x10_f_cfg.ks (inferred preloaded)
4.96,APPROACH,ILS_TRACK,151.15,152,0.85,1294.43,1215.64,-5.4,10.12,11.99,271.93,-0.526,0.2554,0,-2.855,1,0.6,4.5,0.75,0.35,0.0168,0.4,0,22.133,0,-0.858,0,271.62,0,0,1,-2.03,0,0,0,271.62,0.1427,0.0283,0.9894,0,271.62,-76.97,-275.07,28.534,1.624,0,0,3,1339.31,3.386,0,1569.71,0,0,0,0,0,0,0,0,268.51,0,0,0,0,0,0,0,0,0,0,0,0,0,3,3,0,0,VALID,0,0,0,0,0,1,0,0,0,0,0,0,0,0,0,0,0,0,0,0,292.99,1031.41,2,0,0.08,0.08,45,10.71,0.1,0.08,4.96,FLYING,X10-F,0:/Integrated Flight Computer/aircraft/x10_f_cfg.ks (inferred preloaded)
5.26,APPROACH,ILS_TRACK,151.16,152,0.84,1293,1213.98,-5.6,10.8,12.81,271.87,-0.709,0.1354,0,-2.603,1,0.6,4.5,0.75,0.35,0.0168,0.4,0,22.127,0,-0.836,0,271.53,0,0,1,-2.11,0,0,0,271.57,0.1428,0.0268,0.9894,0,271.53,-75.21,-273.93,28.485,1.533,0,0,3,1339.31,4.044,0,1567.11,0,0,0,0,0,0,0,0,268.51,0,0,0,0,0,0,0,0,0,0,0,0,0,3,3,0,0,VALID,0,0,0,0,0,1,0,0,0,0,0,0,0,0,0,0,0,0,0,0,286.73,1031.6,2,0,0.08,0.08,48,10,0.12,0.08,5.26,FLYING,X10-F,0:/Integrated Flight Computer/aircraft/x10_f_cfg.ks (inferred preloaded)
5.56,APPROACH,ILS_TRACK,151.05,152,0.95,1291.7,1212.35,-5.13,11.96,13.81,271.8,-0.909,0.1221,0,-2.336,1,0.6,4.5,0.75,0.35,0.0168,0.4,0,22.156,0,-0.94,0,271.49,0,0,1,-1.98,0,0,0,271.5,0.1429,0.026,0.9894,0,271.49,-73.47,-272.65,28.435,1.489,0,0,3,1339.31,4.294,0,1564.52,0,0,0,0,0,0,0,0,268.51,0,0,0,0,0,0,0,0,0,0,0,0,0,3,3,0,0,VALID,0,0,0,0,0,1,0,0,0,0,0,0,0,0,0,0,0,0,0,0,269.51,1031.22,2,0,0.08,0.08,51,10,0.12,0.08,5.56,FLYING,X10-F,0:/Integrated Flight Computer/aircraft/x10_f_cfg.ks (inferred preloaded)
5.88,APPROACH,ILS_TRACK,150.73,152,1.27,1290.28,1210.81,-4.39,12.46,14.01,271.72,-1.126,0.2501,0,-1.972,1,0.6,4.5,0.75,0.35,0.0168,0.4,0,22.243,0,-1.251,0,271.43,0,0,1,-1.71,0,0,0,271.45,0.143,0.025,0.9894,0,271.43,-71.63,-271.3,28.383,1.434,0,0,3,1339.31,4.22,0,1561.76,0,0,0,0,0,0,0,0,268.51,0,0,0,0,0,0,0,0,0,0,0,0,0,3,3,0,0,VALID,0,0,0,0,0,1,0,0,0,0,0,0,0,0,0,0,0,0,0,0,257.91,1029.96,2,0,0.1,0.1,54,9.38,0.12,0.08,5.88,FLYING,X10-F,0:/Integrated Flight Computer/aircraft/x10_f_cfg.ks (inferred preloaded)
6.22,APPROACH,ILS_TRACK,150.31,152,1.69,1288.73,1209.42,-3.76,11.92,13.19,271.67,-1.28,0.3861,0,-1.447,1,0.6,4.5,0.75,0.35,0.0168,0.4,0,22.362,0,-1.672,0,271.37,0,0,1,-1.46,0,0,0,271.4,0.1431,0.0239,0.9894,0,271.37,-69.7,-269.92,28.327,1.37,0,0,3,1339.31,4.078,0,1558.83,0,0,0,0,0,0,0,0,268.51,0,0,0,0,0,0,0,0,0,0,0,0,0,3,3,0,0,VALID,0,0,0,0,0,1,0,0,0,0,0,0,0,0,0,0,0,0,0,0,259.88,1028.27,2,0,0.1,0.1,57,8.82,0.12,0.1,6.22,FLYING,X10-F,0:/Integrated Flight Computer/aircraft/x10_f_cfg.ks (inferred preloaded)
6.56,APPROACH,ILS_TRACK,150.03,152,1.97,1287.27,1208.16,-3.63,11.12,12.35,271.63,-1.409,0.4269,0,-0.811,1,0.6,4.5,0.75,0.35,0.0168,0.4,0,22.442,0,-1.956,0,271.32,0,0,1,-1.38,0,0,0,271.35,0.1432,0.0231,0.9894,0,271.32,-67.8,-268.48,28.271,1.324,0,0,3,1339.31,4.409,0,1555.91,0,0,0,0,0,0,0,0,268.51,0,0,0,0,0,0,0,0,0,0,0,0,0,3,3,0,0,VALID,0,0,0,0,0,1,0,0,0,0,0,0,0,0,0,0,0,0,0,0,270.32,1027.16,2,0,0.12,0.12,60,8.82,0.12,0.1,6.56,FLYING,X10-F,0:/Integrated Flight Computer/aircraft/x10_f_cfg.ks (inferred preloaded)
6.92,APPROACH,ILS_TRACK,149.82,152,2.18,1285.93,1206.82,-3.76,10.96,12.29,271.57,-1.529,0.4084,0,-0.054,1,0.6,4.5,0.75,0.35,0.0168,0.4,0,22.503,0,-2.172,0,271.27,0,0,1,-1.43,0,0,0,271.29,0.1433,0.0222,0.9894,0,271.27,-65.83,-266.76,28.212,1.271,0,0,3,1339.31,4.956,0,1552.82,0,0,0,0,0,0,0,0,268.51,0,0,0,0,0,0,0,0,0,0,0,0,0,3,3,0,0,VALID,0,0,0,0,0,1,0,0,0,0,0,0,0,0,0,0,0,0,0,0,281.36,1026.33,2,0,0.12,0.12,63,8.33,0.12,0.12,6.92,FLYING,X10-F,0:/Integrated Flight Computer/aircraft/x10_f_cfg.ks (inferred preloaded)
7.18,APPROACH,ILS_TRACK,149.65,152,2.35,1285.07,1205.83,-3.84,11.36,12.75,271.52,-1.598,0.416,0,0.541,1,0.6,4.5,0.75,0.35,0.0168,0.4,0,22.549,0,-2.334,0,271.23,0,0,1,-1.47,0,0,0,271.25,0.1433,0.0215,0.9894,0,271.23,-64.43,-265.4,28.17,1.233,0,0,3,1339.31,5.295,0,1550.6,0,0,0,0,0,0,0,0,268.51,0,0,0,0,0,0,0,0,0,0,0,0,0,3,3,0,0,VALID,0,0,0,0,0,1,0,0,0,0,0,0,0,0,0,0,0,0,0,0,288.23,1025.71,2,0,0.12,0.12,65,7.69,0.14,0.12,7.18,FLYING,X10-F,0:/Integrated Flight Computer/aircraft/x10_f_cfg.ks (inferred preloaded)
7.54,APPROACH,ILS_TRACK,149.36,152,2.64,1283.96,1204.49,-3.6,12.18,13.5,271.44,-1.689,0.471,0,1.449,1,0.6,4.5,0.75,0.35,0.0168,0.4,0,22.63,0,-2.622,0,271.19,0,0,1,-1.39,0,0,0,271.2,0.1434,0.0207,0.9894,0,271.19,-62.52,-263.44,28.111,1.186,0,0,3,1339.31,5.495,0,1547.52,0,0,0,0,0,0,0,0,268.51,0,0,0,0,0,0,0,0,0,0,0,0,0,3,3,0,0,VALID,0,0,0,0,0,1,0,0,0,0,0,0,0,0,0,0,0,0,0,0,298.52,1024.57,2,0,0.12,0.12,68,8.33,0.12,0.12,7.54,FLYING,X10-F,0:/Integrated Flight Computer/aircraft/x10_f_cfg.ks (inferred preloaded)
7.9,APPROACH,ILS_TRACK,148.97,152,3.03,1282.82,1203.36,-2.62,12.3,13.19,271.39,-1.764,0.5707,0,2.479,1,0.6,4.5,0.75,0.35,0.0168,0.4,0,22.737,0,-3.001,0,271.14,0,0,1,-1.04,0,0,0,271.16,0.1435,0.0199,0.9894,0,271.14,-60.65,-261.48,28.052,1.142,0,0,3,1339.31,5.251,0,1544.44,0,0,0,0,0,0,0,0,268.51,0,0,0,0,0,0,0,0,0,0,0,0,0,3,3,0,0,VALID,0,0,0,0,0,1,0,0,0,0,0,0,0,0,0,0,0,0,0,0,312.46,1023.01,2,0,0.12,0.12,71,8.33,0.12,0.12,7.9,FLYING,X10-F,0:/Integrated Flight Computer/aircraft/x10_f_cfg.ks (inferred preloaded)
8.26,APPROACH,ILS_TRACK,148.74,152,3.26,1281.64,1202.49,-2.14,11.21,11.9,271.36,-1.855,0.5612,0,3.628,1,0.6,4.5,0.75,0.35,0.0168,0.4,0,22.807,0,-3.249,0,271.11,0,0,1,-0.84,0,0,0,271.11,0.1436,0.0194,0.9894,0,271.11,-58.84,-259.6,27.994,1.109,0,0,3,1339.31,5.253,0,1541.38,0,0,0,0,0,0,0,0,268.51,0,0,0,0,0,0,0,0,0,0,0,0,0,3,3,0,0,VALID,0,0,0,0,0,1,0,0,0,0,0,0,0,0,0,0,0,0,0,0,331.72,1022.08,2,0,0.12,0.12,74,8.33,0.12,0.12,8.26,FLYING,X10-F,0:/Integrated Flight Computer/aircraft/x10_f_cfg.ks (inferred preloaded)
8.62,APPROACH,ILS_TRACK,148.76,152,3.24,1280.51,1201.7,-2.28,9.9,10.65,271.36,-1.888,0.441,0,4.804,1,0.6,4.5,0.75,0.35,0.0168,0.4,0,22.805,0,-3.244,0,271.06,0,0,1,-0.86,0,0,0,271.08,0.1437,0.0185,0.9894,0,271.06,-57.06,-257.69,27.935,1.06,0,0,3,1339.31,5.463,0,1538.31,0,0,0,0,0,0,0,0,268.51,0,0,0,0,0,0,0,0,0,0,0,0,0,3,3,0,0,VALID,0,0,0,0,0,1,0,0,0,0,0,0,0,0,0,0,0,0,0,0,346.53,1022.19,2,0,0.12,0.12,77,8.33,0.12,0.12,8.62,FLYING,X10-F,0:/Integrated Flight Computer/aircraft/x10_f_cfg.ks (inferred preloaded)
8.98,APPROACH,ILS_TRACK,148.91,152,3.09,1279.56,1200.79,-2.74,9.61,10.59,271.32,-1.91,0.3112,0,5.937,1,0.6,4.5,0.75,0.35,0.0168,0.4,0,22.763,0,-3.094,0,271.02,0,0,1,-1.03,0,0,0,271.03,0.1438,0.0177,0.9894,0,271.02,-55.33,-255.59,27.877,1.017,0,0,3,1339.31,5.999,0,1535.24,0,0,0,0,0,0,0,0,268.51,0,0,0,0,0,0,0,0,0,0,0,0,0,3,3,0,0,VALID,0,0,0,0,0,1,0,0,0,0,0,0,0,0,0,0,0,0,0,0,351.16,1022.89,2,0,0.12,0.12,80,8.33,0.12,0.12,8.98,FLYING,X10-F,0:/Integrated Flight Computer/aircraft/x10_f_cfg.ks (inferred preloaded)
9.34,APPROACH,ILS_TRACK,149.04,152,2.96,1278.78,1199.73,-3.07,10.5,11.66,271.25,-1.932,0.2621,0,7.017,1,0.6,4.5,0.75,0.35,0.0168,0.4,0,22.726,0,-2.962,0,270.97,0,0,1,-1.18,0,0,0,270.99,0.1439,0.0169,0.9894,0,270.97,-53.63,-253.31,27.818,0.968,0,0,3,1339.31,6.49,0,1532.17,0,0,0,0,0,0,0,0,268.51,0,0,0,0,0,0,0,0,0,0,0,0,0,3,3,0,0,VALID,0,0,0,0,0,1,0,0,0,0,0,0,0,0,0,0,0,0,0,0,345.05,1023.5,2,0,0.12,0.12,83,8.33,0.12,0.12,9.34,FLYING,X10-F,0:/Integrated Flight Computer/aircraft/x10_f_cfg.ks (inferred preloaded)
9.6,APPROACH,ILS_TRACK,149.06,152,2.94,1278.27,1198.97,-2.74,11.44,12.47,271.18,-1.98,0.2876,0,7.782,1,0.6,4.5,0.75,0.35,0.0168,0.4,0,22.72,0,-2.941,0,270.95,0,0,1,-1.09,0,0,0,270.96,0.144,0.0166,0.9894,0,270.95,-52.43,-251.6,27.776,0.948,0,0,3,1339.31,6.568,0,1529.95,0,0,0,0,0,0,0,0,268.51,0,0,0,0,0,0,0,0,0,0,0,0,0,3,3,0,0,VALID,0,0,0,0,0,1,0,0,0,0,0,0,0,0,0,0,0,0,0,0,338.65,1023.63,2,0,0.12,0.12,85,7.69,0.14,0.12,9.6,FLYING,X10-F,0:/Integrated Flight Computer/aircraft/x10_f_cfg.ks (inferred preloaded)
9.96,APPROACH,ILS_TRACK,148.91,152,3.09,1277.44,1198.14,-2.04,11.6,12.32,271.12,-2.009,0.4077,0,8.872,1,0.6,4.5,0.75,0.35,0.0168,0.4,0,22.759,0,-3.08,0,270.92,0,0,1,-0.81,0,0,0,270.93,0.1441,0.016,0.9894,0,270.92,-50.81,-249.35,27.717,0.916,0,0,3,1339.31,6.145,0,1526.88,0,0,0,0,0,0,0,0,268.51,0,0,0,0,0,0,0,0,0,0,0,0,0,3,3,0,0,VALID,0,0,0,0,0,1,0,0,0,0,0,0,0,0,0,0,0,0,0,0,336.87,1023.08,2,0,0.12,0.12,88,8.33,0.12,0.12,9.96,FLYING,X10-F,0:/Integrated Flight Computer/aircraft/x10_f_cfg.ks (inferred preloaded)
10.32,APPROACH,ILS_TRACK,148.87,152,3.13,1276.58,1197.46,-1.84,10.94,11.57,271.1,-1.994,0.4325,0,9.998,1,0.6,4.5,0.75,0.35,0.0168,0.4,0,22.775,0,-3.136,0,270.89,0,0,1,-0.7,0,0,0,270.9,0.1442,0.0156,0.9894,0,270.89,-49.24,-247.15,27.659,0.894,0,0,3,1339.31,6.19,0,1523.82,0,0,0,0,0,0,0,0,268.51,0,0,0,0,0,0,0,0,0,0,0,0,0,3,3,0,0,VALID,0,0,0,0,0,1,0,0,0,0,0,0,0,0,0,0,0,0,0,0,343.29,1022.91,2,0,0.12,0.12,91,8.33,0.12,0.12,10.32,FLYING,X10-F,0:/Integrated Flight Computer/aircraft/x10_f_cfg.ks (inferred preloaded)
10.68,APPROACH,ILS_TRACK,148.91,152,3.09,1275.89,1196.76,-2.05,10.89,11.64,271.07,-1.958,0.4061,0,11.117,1,0.6,4.5,0.75,0.35,0.0168,0.4,0,22.763,0,-3.094,0,270.86,0,0,1,-0.78,0,0,0,270.87,0.1443,0.0149,0.9894,0,270.86,-47.71,-244.79,27.6,0.856,0,0,3,1339.31,6.741,0,1520.75,0,0,0,0,0,0,0,0,268.51,0,0,0,0,0,0,0,0,0,0,0,0,0,3,3,0,0,VALID,0,0,0,0,0,1,0,0,0,0,0,0,0,0,0,0,0,0,0,0,349.66,1023.14,2,0,0.12,0.12,94,8.33,0.12,0.12,10.68,FLYING,X10-F,0:/Integrated Flight Computer/aircraft/x10_f_cfg.ks (inferred preloaded)
11.04,APPROACH,ILS_TRACK,148.95,152,3.05,1275.31,1196.05,-1.97,11.39,12.11,271.02,-1.93,0.4025,0,12.222,1,0.6,4.5,0.75,0.35,0.0168,0.4,0,22.752,0,-3.056,0,270.83,0,0,1,-0.76,0,0,0,270.84,0.1444,0.0144,0.9894,0,270.83,-46.23,-242.3,27.541,0.827,0,0,3,1339.31,6.943,0,1517.68,0,0,0,0,0,0,0,0,268.51,0,0,0,0,0,0,0,0,0,0,0,0,0,3,3,0,0,VALID,0,0,0,0,0,1,0,0,0,0,0,0,0,0,0,0,0,0,0,0,354.16,1023.35,2,0,0.12,0.12,97,8.33,0.12,0.12,11.04,FLYING,X10-F,0:/Integrated Flight Computer/aircraft/x10_f_cfg.ks (inferred preloaded)
11.4,APPROACH,ILS_TRACK,148.91,152,3.09,1274.7,1195.45,-1.35,11.46,11.91,270.97,-1.935,0.4471,0,13.324,1,0.6,4.5,0.75,0.35,0.0168,0.4,0,22.759,0,-3.082,0,270.8,0,0,1,-0.53,0,0,0,270.81,0.1445,0.0139,0.9894,0,270.8,-44.79,-239.83,27.483,0.799,0,0,3,1339.31,6.693,0,1514.61,0,0,0,0,0,0,0,0,268.51,0,0,0,0,0,0,0,0,0,0,0,0,0,3,3,0,0,VALID,0,0,0,0,0,1,0,0,0,0,0,0,0,0,0,0,0,0,0,0,358.64,1023.26,2,0,0.12,0.12,100,8.33,0.12,0.12,11.4,FLYING,X10-F,0:/Integrated Flight Computer/aircraft/x10_f_cfg.ks (inferred preloaded)
11.76,APPROACH,ILS_TRACK,148.97,152,3.03,1274.06,1194.99,-1.2,10.81,11.2,270.96,-1.903,0.432,0,14.427,1,0.6,4.5,0.75,0.35,0.0168,0.4,0,22.746,0,-3.034,0,270.78,0,0,1,-0.46,0,0,0,270.79,0.1446,0.0136,0.9894,0,270.78,-43.4,-237.41,27.424,0.777,0,0,3,1339.31,6.778,0,1511.54,0,0,0,0,0,0,0,0,268.51,0,0,0,0,0,0,0,0,0,0,0,0,0,3,3,0,0,VALID,0,0,0,0,0,1,0,0,0,0,0,0,0,0,0,0,0,0,0,0,365.72,1023.52,2,0,0.12,0.12,103,8.33,0.12,0.12,11.76,FLYING,X10-F,0:/Integrated Flight Computer/aircraft/x10_f_cfg.ks (inferred preloaded)
12.02,APPROACH,ILS_TRACK,149.08,152,2.92,1273.65,1194.68,-1.24,10.43,10.85,270.95,-1.867,0.3937,0,15.196,1,0.6,4.5,0.75,0.35,0.0168,0.4,0,22.716,0,-2.929,0,270.76,0,0,1,-0.47,0,0,0,270.77,0.1446,0.0132,0.9894,0,270.76,-42.42,-235.61,27.382,0.759,0,0,3,1339.31,6.971,0,1509.32,0,0,0,0,0,0,0,0,268.51,0,0,0,0,0,0,0,0,0,0,0,0,0,3,3,0,0,VALID,0,0,0,0,0,1,0,0,0,0,0,0,0,0,0,0,0,0,0,0,369.47,1023.99,2,0,0.12,0.12,105,7.69,0.14,0.12,12.02,FLYING,X10-F,0:/Integrated Flight Computer/aircraft/x10_f_cfg.ks (inferred preloaded)
12.38,APPROACH,ILS_TRACK,149.26,152,2.74,1273.18,1194.21,-1.4,10.4,10.91,270.92,-1.83,0.3429,0,16.206,1,0.6,4.5,0.75,0.35,0.0168,0.4,0,22.665,0,-2.745,0,270.73,0,0,1,-0.53,0,0,0,270.74,0.1447,0.0127,0.9894,0,270.73,-41.09,-233.01,27.323,0.73,0,0,3,1339.31,7.316,0,1506.25,0,0,0,0,0,0,0,0,268.51,0,0,0,0,0,0,0,0,0,0,0,0,0,3,3,0,0,VALID,0,0,0,0,0,1,0,0,0,0,0,0,0,0,0,0,0,0,0,0,370.85,1024.8,2,0,0.12,0.12,108,8.33,0.12,0.12,12.38,FLYING,X10-F,0:/Integrated Flight Computer/aircraft/x10_f_cfg.ks (inferred preloaded)
12.74,APPROACH,ILS_TRACK,149.43,152,2.57,1272.8,1193.69,-1.49,10.87,11.43,270.87,-1.811,0.3298,0,17.154,1,0.6,4.5,0.75,0.35,0.0168,0.4,0,22.618,0,-2.581,0,270.7,0,0,1,-0.57,0,0,0,270.72,0.1448,0.0123,0.9894,0,270.7,-39.8,-230.32,27.265,0.703,0,0,3,1339.31,7.508,0,1503.17,0,0,0,0,0,0,0,0,268.51,0,0,0,0,0,0,0,0,0,0,0,0,0,3,3,0,0,VALID,0,0,0,0,0,1,0,0,0,0,0,0,0,0,0,0,0,0,0,0,368.05,1025.53,2,0,0.12,0.12,111,8.33,0.12,0.12,12.74,FLYING,X10-F,0:/Integrated Flight Computer/aircraft/x10_f_cfg.ks (inferred preloaded)
13.1,APPROACH,ILS_TRACK,149.51,152,2.49,1272.38,1193.24,-1.04,11.07,11.42,270.83,-1.813,0.3707,0,18.059,1,0.6,4.5,0.75,0.35,0.0168,0.4,0,22.595,0,-2.497,0,270.69,0,0,1,-0.4,0,0,0,270.69,0.1449,0.0121,0.9894,0,270.69,-38.56,-227.65,27.206,0.691,0,0,3,1339.31,7.277,0,1500.09,0,0,0,0,0,0,0,0,268.51,0,0,0,0,0,0,0,0,0,0,0,0,0,3,3,0,0,VALID,0,0,0,0,0,1,0,0,0,0,0,0,0,0,0,0,0,0,0,0,365.47,1025.89,2,0,0.12,0.12,114,8.33,0.12,0.12,13.1,FLYING,X10-F,0:/Integrated Flight Computer/aircraft/x10_f_cfg.ks (inferred preloaded)
13.46,APPROACH,ILS_TRACK,149.62,152,2.38,1271.94,1192.89,-0.92,10.71,11.02,270.8,-1.831,0.3782,0,18.935,1,0.6,4.5,0.75,0.35,0.0168,0.4,0,22.565,0,-2.391,0,270.67,0,0,1,-0.35,0,0,0,270.67,0.145,0.0117,0.9894,0,270.67,-37.35,-225.02,27.147,0.668,0,0,3,1339.31,7.334,0,1497,0,0,0,0,0,0,0,0,268.51,0,0,0,0,0,0,0,0,0,0,0,0,0,3,3,0,0,VALID,0,0,0,0,0,1,0,0,0,0,0,0,0,0,0,0,0,0,0,0,366.97,1026.38,2,0,0.12,0.12,117,8.33,0.12,0.12,13.46,FLYING,X10-F,0:/Integrated Flight Computer/aircraft/x10_f_cfg.ks (inferred preloaded)
13.82,APPROACH,ILS_TRACK,149.77,152,2.23,1271.56,1192.57,-0.85,10.52,10.81,270.77,-1.767,0.3596,0,19.758,1,0.6,4.5,0.75,0.35,0.0168,0.4,0,22.521,0,-2.235,0,270.65,0,0,1,-0.32,0,0,0,270.65,0.1451,0.0113,0.9893,0,270.65,-36.19,-222.32,27.088,0.648,0,0,3,1339.31,7.527,0,1493.92,0,0,0,0,0,0,0,0,268.51,0,0,0,0,0,0,0,0,0,0,0,0,0,3,3,0,0,VALID,0,0,0,0,0,1,0,0,0,0,0,0,0,0,0,0,0,0,0,0,368.26,1027.06,2,0,0.12,0.12,120,8.33,0.12,0.12,13.82,FLYING,X10-F,0:/Integrated Flight Computer/aircraft/x10_f_cfg.ks (inferred preloaded)
14.18,APPROACH,ILS_TRACK,149.94,152,2.06,1271.25,1192.26,-0.82,10.49,10.78,270.76,-1.678,0.334,0,20,1,0.6,4.5,0.75,0.35,0.0168,0.4,0,22.473,0,-2.065,0,270.63,0,0,1,-0.32,0,0,0,270.63,0.1452,0.011,0.9893,0,270.63,-35.06,-219.55,27.029,0.628,0,0,3,1339.31,7.721,0,1490.83,0,0,0,0,0,0,0,0,268.51,0,0,0,0,0,0,0,0,0,0,0,0,0,3,3,0,0,VALID,0,0,0,0,0,1,0,0,0,0,0,0,0,0,0,0,0,0,0,0,367.7,1027.81,2,0,0.12,0.12,123,8.33,0.12,0.12,14.18,FLYING,X10-F,0:/Integrated Flight Computer/aircraft/x10_f_cfg.ks (inferred preloaded)
14.44,APPROACH,ILS_TRACK,150.07,152,1.93,1271.04,1192.06,-0.78,10.52,10.8,270.74,-1.609,0.3186,0,20,1,0.6,4.5,0.75,0.35,0.0168,0.4,0,22.438,0,-1.943,0,270.61,0,0,1,-0.32,0,0,0,270.62,0.1453,0.0107,0.9893,0,270.61,-34.27,-217.53,26.987,0.613,0,0,3,1339.31,7.82,0,1488.6,0,0,0,0,0,0,0,0,268.51,0,0,0,0,0,0,0,0,0,0,0,0,0,3,3,0,0,VALID,0,0,0,0,0,1,0,0,0,0,0,0,0,0,0,0,0,0,0,0,365.54,1028.34,2,0,0.12,0.12,125,7.69,0.14,0.12,14.44,FLYING,X10-F,0:/Integrated Flight Computer/aircraft/x10_f_cfg.ks (inferred preloaded)
14.8,APPROACH,ILS_TRACK,150.22,152,1.78,1270.75,1191.79,-0.82,10.42,10.72,270.73,-1.512,0.3082,0,20,1,0.6,4.5,0.75,0.35,0.0168,0.4,0,22.394,0,-1.787,0,270.6,0,0,1,-0.3,0,0,0,270.6,0.1454,0.0104,0.9893,0,270.6,-33.2,-214.73,26.928,0.596,0,0,3,1339.31,7.846,0,1485.51,0,0,0,0,0,0,0,0,268.51,0,0,0,0,0,0,0,0,0,0,0,0,0,3,3,0,0,VALID,0,0,0,0,0,1,0,0,0,0,0,0,0,0,0,0,0,0,0,0,361.06,1029.02,2,0,0.12,0.12,128,8.33,0.12,0.12,14.8,FLYING,X10-F,0:/Integrated Flight Computer/aircraft/x10_f_cfg.ks (inferred preloaded)
15.16,APPROACH,ILS_TRACK,150.34,152,1.66,1270.5,1191.55,-0.6,10.5,10.69,270.71,-1.424,0.3216,0,20,1,0.6,4.5,0.75,0.35,0.0168,0.4,0,22.362,0,-1.67,0,270.58,0,0,1,-0.23,0,0,0,270.58,0.1455,0.0101,0.9893,0,270.58,-32.17,-211.88,26.869,0.578,0,0,3,1339.31,7.797,0,1482.41,0,0,0,0,0,0,0,0,268.51,0,0,0,0,0,0,0,0,0,0,0,0,0,3,3,0,0,VALID,0,0,0,0,0,1,0,0,0,0,0,0,0,0,0,0,0,0,0,0,356.03,1029.52,2,0,0.12,0.12,131,8.33,0.12,0.12,15.16,FLYING,X10-F,0:/Integrated Flight Computer/aircraft/x10_f_cfg.ks (inferred preloaded)
15.52,APPROACH,ILS_TRACK,150.46,152,1.54,1270.26,1191.33,-0.61,10.45,10.67,270.7,-1.329,0.317,0,20,1,0.6,4.5,0.75,0.35,0.0168,0.4,0,22.326,0,-1.544,0,270.56,0,0,1,-0.24,0,0,0,270.57,0.1456,0.0098,0.9893,0,270.56,-31.17,-209.02,26.809,0.562,0,0,3,1339.31,7.998,0,1479.31,0,0,0,0,0,0,0,0,268.51,0,0,0,0,0,0,0,0,0,0,0,0,0,3,3,0,0,VALID,0,0,0,0,0,1,0,0,0,0,0,0,0,0,0,0,0,0,0,0,353.08,1030.07,2,0,0.12,0.12,134,8.33,0.12,0.12,15.52,FLYING,X10-F,0:/Integrated Flight Computer/aircraft/x10_f_cfg.ks (inferred preloaded)
15.88,APPROACH,ILS_TRACK,150.58,152,1.42,1270.05,1191.12,-0.58,10.42,10.63,270.69,-1.24,0.3138,0,20,1,0.6,4.5,0.75,0.35,0.0168,0.4,0,22.292,0,-1.425,0,270.54,0,0,1,-0.22,0,0,0,270.55,0.1457,0.0094,0.9893,0,270.54,-30.2,-206.14,26.75,0.54,0,0,3,1339.31,8.022,0,1476.21,0,0,0,0,0,0,0,0,268.51,0,0,0,0,0,0,0,0,0,0,0,0,0,3,3,0,0,VALID,0,0,0,0,0,1,0,0,0,0,0,0,0,0,0,0,0,0,0,0,350.04,1030.59,2,0,0.12,0.12,137,8.33,0.12,0.12,15.88,FLYING,X10-F,0:/Integrated Flight Computer/aircraft/x10_f_cfg.ks (inferred preloaded)
16.24,APPROACH,ILS_TRACK,150.69,152,1.31,1269.84,1190.94,-0.47,10.38,10.53,270.68,-1.171,0.3153,0,20,1,0.6,4.5,0.75,0.35,0.0168,0.4,0,22.262,0,-1.317,0,270.52,0,0,1,-0.18,0,0,0,270.53,0.1458,0.009,0.9893,0,270.52,-29.25,-203.24,26.691,0.517,0,0,3,1339.31,8.006,0,1473.11,0,0,0,0,0,0,0,0,268.51,0,0,0,0,0,0,0,0,0,0,0,0,0,3,3,0,0,VALID,0,0,0,0,0,1,0,0,0,0,0,0,0,0,0,0,0,0,0,0,347,1031.06,2,0,0.12,0.12,140,8.33,0.12,0.12,16.24,FLYING,X10-F,0:/Integrated Flight Computer/aircraft/x10_f_cfg.ks (inferred preloaded)
16.6,APPROACH,ILS_TRACK,150.79,152,1.21,1269.67,1190.75,-0.62,10.41,10.64,270.67,-1.108,0.3142,0,20,1,0.6,4.5,0.75,0.35,0.0168,0.4,0,22.233,0,-1.213,0,270.5,0,0,1,-0.23,0,0,0,270.51,0.1459,0.0086,0.9893,0,270.5,-28.33,-200.32,26.632,0.495,0,0,3,1339.31,8.256,0,1470,0,0,0,0,0,0,0,0,268.51,0,0,0,0,0,0,0,0,0,0,0,0,0,3,3,0,0,VALID,0,0,0,0,0,1,0,0,0,0,0,0,0,0,0,0,0,0,0,0,344.49,1031.51,2,0,0.12,0.12,143,8.33,0.12,0.12,16.6,FLYING,X10-F,0:/Integrated Flight Computer/aircraft/x10_f_cfg.ks (inferred preloaded)
16.86,APPROACH,ILS_TRACK,150.83,152,1.17,1269.56,1190.63,-0.33,10.56,10.66,270.66,-1.073,0.3303,0,20,1,0.6,4.5,0.75,0.35,0.0168,0.4,0,22.221,0,-1.171,0,270.48,0,0,1,-0.14,0,0,0,270.49,0.146,0.0084,0.9893,0,270.48,-27.68,-198.17,26.589,0.483,0,0,3,1339.31,8.171,0,1467.76,0,0,0,0,0,0,0,0,268.51,0,0,0,0,0,0,0,0,0,0,0,0,0,3,3,0,0,VALID,0,0,0,0,0,1,0,0,0,0,0,0,0,0,0,0,0,0,0,0,342.92,1031.68,2,0,0.12,0.12,145,7.69,0.14,0.12,16.86,FLYING,X10-F,0:/Integrated Flight Computer/aircraft/x10_f_cfg.ks (inferred preloaded)
17.22,APPROACH,ILS_TRACK,150.9,152,1.1,1269.33,1190.52,-0.34,10.1,10.2,270.65,-1.022,0.3356,0,20,1,0.6,4.5,0.75,0.35,0.0168,0.4,0,22.203,0,-1.107,0,270.47,0,0,1,-0.12,0,0,0,270.47,0.1461,0.0081,0.9892,0,270.47,-26.8,-195.3,26.53,0.466,0,0,3,1339.31,7.989,0,1464.65,0,0,0,0,0,0,0,0,268.51,0,0,0,0,0,0,0,0,0,0,0,0,0,3,3,0,0,VALID,0,0,0,0,0,1,0,0,0,0,0,0,0,0,0,0,0,0,0,0,343.31,1031.98,2,0,0.12,0.12,148,8.33,0.12,0.12,17.22,FLYING,X10-F,0:/Integrated Flight Computer/aircraft/x10_f_cfg.ks (inferred preloaded)
17.58,APPROACH,ILS_TRACK,151.01,152,0.99,1269.18,1190.36,-0.61,10.1,10.33,270.64,-0.998,0.314,0,20,1,0.6,4.5,0.75,0.35,0.0168,0.4,0,22.172,0,-0.997,0,270.45,0,0,1,-0.22,0,0,0,270.45,0.1462,0.0078,0.9892,0,270.45,-25.94,-192.35,26.47,0.447,0,0,3,1339.31,8.332,0,1461.54,0,0,0,0,0,0,0,0,268.51,0,0,0,0,0,0,0,0,0,0,0,0,0,3,3,0,0,VALID,0,0,0,0,0,1,0,0,0,0,0,0,0,0,0,0,0,0,0,0,342.89,1032.45,2,0,0.12,0.12,151,8.33,0.12,0.12,17.58,FLYING,X10-F,0:/Integrated Flight Computer/aircraft/x10_f_cfg.ks (inferred preloaded)
17.94,APPROACH,ILS_TRACK,151.07,152,0.93,1269.09,1190.17,-0.34,10.53,10.65,270.61,-0.996,0.3266,0,20,1,0.6,4.5,0.75,0.35,0.0168,0.4,0,22.154,0,-0.934,0,270.43,0,0,1,-0.14,0,0,0,270.43,0.1463,0.0075,0.9892,0,270.43,-25.1,-189.32,26.411,0.427,0,0,3,1339.31,8.295,0,1458.43,0,0,0,0,0,0,0,0,268.51,0,0,0,0,0,0,0,0,0,0,0,0,0,3,3,0,0,VALID,0,0,0,0,0,1,0,0,0,0,0,0,0,0,0,0,0,0,0,0,340.8,1032.72,2,0,0.12,0.12,154,8.33,0.12,0.12,17.94,FLYING,X10-F,0:/Integrated Flight Computer/aircraft/x10_f_cfg.ks (inferred preloaded)
18.3,APPROACH,ILS_TRACK,151.12,152,0.88,1268.92,1190.04,-0.43,10.33,10.48,270.6,-0.967,0.3322,0,20,1,0.6,4.5,0.75,0.35,0.0168,0.4,0,22.139,0,-0.882,0,270.4,0,0,1,-0.16,0,0,0,270.42,0.1464,0.007,0.9892,0,270.4,-24.27,-186.39,26.352,0.402,0,0,3,1339.31,8.222,0,1455.32,0,0,0,0,0,0,0,0,268.51,0,0,0,0,0,0,0,0,0,0,0,0,0,3,3,0,0,VALID,0,0,0,0,0,1,0,0,0,0,0,0,0,0,0,0,0,0,0,0,341.02,1032.96,2,0,0.12,0.12,157,8.33,0.12,0.12,18.3,FLYING,X10-F,0:/Integrated Flight Computer/aircraft/x10_f_cfg.ks (inferred preloaded)
18.66,APPROACH,ILS_TRACK,151.2,152,0.8,1268.79,1189.92,-0.35,10.33,10.45,270.58,-0.947,0.3231,0,20,1,0.6,4.5,0.75,0.35,0.0168,0.4,0,22.118,0,-0.806,0,270.39,0,0,1,-0.13,0,0,0,270.39,0.1465,0.0068,0.9892,0,270.39,-23.48,-183.41,26.292,0.392,0,0,3,1339.31,8.251,0,1452.21,0,0,0,0,0,0,0,0,268.51,0,0,0,0,0,0,0,0,0,0,0,0,0,3,3,0,0,VALID,0,0,0,0,0,1,0,0,0,0,0,0,0,0,0,0,0,0,0,0,340.99,1033.3,2,0,0.12,0.12,160,8.33,0.12,0.12,18.66,FLYING,X10-F,0:/Integrated Flight Computer/aircraft/x10_f_cfg.ks (inferred preloaded)
19.02,APPROACH,ILS_TRACK,151.28,152,0.72,1268.66,1189.8,-0.33,10.31,10.42,270.57,-0.926,0.3124,0,20,1,0.6,4.5,0.75,0.35,0.0168,0.4,0,22.095,0,-0.724,0,270.37,0,0,1,-0.13,0,0,0,270.39,0.1465,0.0064,0.9892,0,270.37,-22.7,-180.41,26.233,0.366,0,0,3,1339.31,8.305,0,1449.09,0,0,0,0,0,0,0,0,268.51,0,0,0,0,0,0,0,0,0,0,0,0,0,3,3,0,0,VALID,0,0,0,0,0,1,0,0,0,0,0,0,0,0,0,0,0,0,0,0,339.77,1033.65,2,0,0.12,0.12,163,8.33,0.12,0.12,19.02,FLYING,X10-F,0:/Integrated Flight Computer/aircraft/x10_f_cfg.ks (inferred preloaded)
19.28,APPROACH,ILS_TRACK,151.34,152,0.66,1268.59,1189.72,-0.31,10.32,10.43,270.56,-0.911,0.308,0,20,1,0.6,4.5,0.75,0.35,0.0168,0.4,0,22.079,0,-0.667,0,270.36,0,0,1,-0.11,0,0,0,270.37,0.1466,0.0062,0.9892,0,270.36,-22.15,-178.24,26.19,0.356,0,0,3,1339.31,8.34,0,1446.84,0,0,0,0,0,0,0,0,268.51,0,0,0,0,0,0,0,0,0,0,0,0,0,3,3,0,0,VALID,0,0,0,0,0,1,0,0,0,0,0,0,0,0,0,0,0,0,0,0,338.27,1033.9,2,0,0.12,0.12,165,7.69,0.14,0.12,19.28,FLYING,X10-F,0:/Integrated Flight Computer/aircraft/x10_f_cfg.ks (inferred preloaded)
19.64,APPROACH,ILS_TRACK,151.41,152,0.59,1268.49,1189.62,-0.25,10.34,10.44,270.54,-0.906,0.305,0,20,1,0.6,4.5,0.75,0.35,0.0168,0.4,0,22.058,0,-0.595,0,270.34,0,0,1,-0.1,0,0,0,270.36,0.1467,0.0059,0.9892,0,270.34,-21.41,-175.22,26.13,0.34,0,0,3,1339.31,8.407,0,1443.72,0,0,0,0,0,0,0,0,268.51,0,0,0,0,0,0,0,0,0,0,0,0,0,3,3,0,0,VALID,0,0,0,0,0,1,0,0,0,0,0,0,0,0,0,0,0,0,0,0,335.88,1034.21,2,0,0.12,0.12,168,8.33,0.12,0.12,19.64,FLYING,X10-F,0:/Integrated Flight Computer/aircraft/x10_f_cfg.ks (inferred preloaded)
20,APPROACH,ILS_TRACK,151.47,152,0.53,1268.4,1189.53,-0.24,10.32,10.41,270.52,-0.901,0.3059,0,20,1,0.6,4.5,0.75,0.35,0.0168,0.4,0,22.041,0,-0.531,0,270.33,0,0,1,-0.1,0,0,0,270.33,0.1468,0.0058,0.9891,0,270.33,-20.68,-172.2,26.071,0.334,0,0,3,1339.31,8.458,0,1440.6,0,0,0,0,0,0,0,0,268.51,0,0,0,0,0,0,0,0,0,0,0,0,0,3,3,0,0,VALID,0,0,0,0,0,1,0,0,0,0,0,0,0,0,0,0,0,0,0,0,333.62,1034.49,2,0,0.12,0.12,171,8.33,0.12,0.12,20,FLYING,X10-F,0:/Integrated Flight Computer/aircraft/x10_f_cfg.ks (inferred preloaded)
20.36,APPROACH,ILS_TRACK,151.52,152,0.48,1268.32,1189.45,-0.18,10.33,10.38,270.5,-0.898,0.3111,0,20,1,0.6,4.5,0.75,0.35,0.0168,0.4,0,22.026,0,-0.48,0,270.31,0,0,1,-0.07,0,0,0,270.32,0.1469,0.0055,0.9891,0,270.31,-19.97,-169.16,26.011,0.313,0,0,3,1339.31,8.424,0,1437.48,0,0,0,0,0,0,0,0,268.51,0,0,0,0,0,0,0,0,0,0,0,0,0,3,3,0,0,VALID,0,0,0,0,0,1,0,0,0,0,0,0,0,0,0,0,0,0,0,0,331.82,1034.71,2,0,0.12,0.12,174,8.33,0.12,0.12,20.36,FLYING,X10-F,0:/Integrated Flight Computer/aircraft/x10_f_cfg.ks (inferred preloaded)
20.72,APPROACH,ILS_TRACK,151.57,152,0.43,1268.25,1189.38,-0.18,10.32,10.39,270.49,-0.861,0.3141,0,20,1,0.6,4.5,0.75,0.35,0.0168,0.4,0,22.013,0,-0.433,0,270.3,0,0,1,-0.08,0,0,0,270.3,0.147,0.0052,0.9891,0,270.3,-19.28,-166.11,25.952,0.3,0,0,3,1339.31,8.482,0,1434.36,0,0,0,0,0,0,0,0,268.51,0,0,0,0,0,0,0,0,0,0,0,0,0,3,3,0,0,VALID,0,0,0,0,0,1,0,0,0,0,0,0,0,0,0,0,0,0,0,0,330.83,1034.92,2,0,0.12,0.12,177,8.33,0.12,0.12,20.72,FLYING,X10-F,0:/Integrated Flight Computer/aircraft/x10_f_cfg.ks (inferred preloaded)
21.08,APPROACH,ILS_TRACK,151.62,152,0.38,1268.18,1189.32,-0.15,10.32,10.37,270.48,-0.835,0.3143,0,20,1,0.6,4.5,0.75,0.35,0.0168,0.4,0,22,0,-0.386,0,270.29,0,0,1,-0.06,0,0,0,270.29,0.1471,0.005,0.9891,0,270.29,-18.62,-163.05,25.892,0.285,0,0,3,1339.31,8.503,0,1431.24,0,0,0,0,0,0,0,0,268.51,0,0,0,0,0,0,0,0,0,0,0,0,0,3,3,0,0,VALID,0,0,0,0,0,1,0,0,0,0,0,0,0,0,0,0,0,0,0,0,330.23,1035.12,2,0,0.12,0.12,180,8.33,0.12,0.12,21.08,FLYING,X10-F,0:/Integrated Flight Computer/aircraft/x10_f_cfg.ks (inferred preloaded)
21.44,APPROACH,ILS_TRACK,151.66,152,0.34,1268.13,1189.27,-0.14,10.31,10.36,270.47,-0.816,0.3146,0,20,1,0.6,4.5,0.75,0.35,0.0168,0.4,0,21.988,0,-0.343,0,270.27,0,0,1,-0.05,0,0,0,270.28,0.1472,0.0047,0.9891,0,270.27,-17.97,-159.99,25.833,0.271,0,0,3,1339.31,8.513,0,1428.12,0,0,0,0,0,0,0,0,268.51,0,0,0,0,0,0,0,0,0,0,0,0,0,3,3,0,0,VALID,0,0,0,0,0,1,0,0,0,0,0,0,0,0,0,0,0,0,0,0,329.7,1035.31,2,0,0.12,0.12,183,8.33,0.12,0.12,21.44,FLYING,X10-F,0:/Integrated Flight Computer/aircraft/x10_f_cfg.ks (inferred preloaded)
21.7,APPROACH,ILS_TRACK,151.69,152,0.31,1268.09,1189.24,-0.13,10.29,10.33,270.46,-0.8,0.3137,0,20,1,0.6,4.5,0.75,0.35,0.0168,0.4,0,21.979,0,-0.312,0,270.26,0,0,1,-0.04,0,0,0,270.27,0.1473,0.0045,0.9891,0,270.26,-17.51,-157.77,25.79,0.258,0,0,3,1339.31,8.517,0,1425.86,0,0,0,0,0,0,0,0,268.51,0,0,0,0,0,0,0,0,0,0,0,0,0,3,3,0,0,VALID,0,0,0,0,0,1,0,0,0,0,0,0,0,0,0,0,0,0,0,0,329.36,1035.44,2,0,0.12,0.12,185,7.69,0.14,0.12,21.7,FLYING,X10-F,0:/Integrated Flight Computer/aircraft/x10_f_cfg.ks (inferred preloaded)
22.06,APPROACH,ILS_TRACK,151.73,152,0.27,1268.05,1189.2,-0.11,10.29,10.33,270.44,-0.783,0.3131,0,20,1,0.6,4.5,0.75,0.35,0.0168,0.4,0,21.967,0,-0.271,0,270.25,0,0,1,-0.04,0,0,0,270.25,0.1474,0.0043,0.9891,0,270.25,-16.89,-154.69,25.73,0.249,0,0,3,1339.31,8.554,0,1422.74,0,0,0,0,0,0,0,0,268.51,0,0,0,0,0,0,0,0,0,0,0,0,0,3,3,0,0,VALID,0,0,0,0,0,1,0,0,0,0,0,0,0,0,0,0,0,0,0,0,328.83,1035.62,2,0,0.12,0.12,188,8.33,0.12,0.12,22.06,FLYING,X10-F,0:/Integrated Flight Computer/aircraft/x10_f_cfg.ks (inferred preloaded)
22.42,APPROACH,ILS_TRACK,151.77,152,0.23,1268.02,1189.17,-0.06,10.29,10.3,270.43,-0.761,0.312,0,20,1,0.6,4.5,0.75,0.35,0.0168,0.4,0,21.956,0,-0.231,0,270.23,0,0,1,-0.02,0,0,0,270.24,0.1475,0.0041,0.9891,0,270.23,-16.28,-151.6,25.67,0.235,0,0,3,1339.31,8.564,0,1419.62,0,0,0,0,0,0,0,0,268.51,0,0,0,0,0,0,0,0,0,0,0,0,0,3,3,0,0,VALID,0,0,0,0,0,1,0,0,0,0,0,0,0,0,0,0,0,0,0,0,328.25,1035.79,2,0,0.12,0.12,191,8.33,0.12,0.12,22.42,FLYING,X10-F,0:/Integrated Flight Computer/aircraft/x10_f_cfg.ks (inferred preloaded)
22.78,APPROACH,ILS_TRACK,151.8,152,0.2,1268.02,1189.14,0,10.43,10.43,270.42,-0.746,0.3162,0,20,1,0.6,4.5,0.75,0.35,0.0168,0.4,0,21.948,0,-0.201,0,270.22,0,0,1,-0.02,0,0,0,270.23,0.1476,0.0039,0.989,0,270.22,-15.69,-148.47,25.611,0.222,0,0,3,1339.31,8.723,0,1416.49,0,0,0,0,0,0,0,0,268.51,0,0,0,0,0,0,0,0,0,0,0,0,0,3,3,0,0,VALID,0,0,0,0,0,1,0,0,0,0,0,0,0,0,0,0,0,0,0,0,327.67,1035.91,2,0,0.12,0.12,194,8.33,0.12,0.12,22.78,FLYING,X10-F,0:/Integrated Flight Computer/aircraft/x10_f_cfg.ks (inferred preloaded)
23.14,APPROACH,ILS_TRACK,151.81,152,0.19,1267.98,1189.14,-0.07,10.29,10.33,270.41,-0.72,0.3234,0,20,1,0.6,4.5,0.75,0.35,0.0168,0.4,0,21.944,0,-0.187,0,270.22,0,0,1,-0.03,0,0,0,270.21,0.1477,0.0038,0.989,0,270.22,-15.12,-145.38,25.551,0.217,0,0,3,1339.31,8.647,0,1413.36,0,0,0,0,0,0,0,0,268.51,0,0,0,0,0,0,0,0,0,0,0,0,0,3,3,0,0,VALID,0,0,0,0,0,1,0,0,0,0,0,0,0,0,0,0,0,0,0,0,328.03,1035.98,2,0,0.12,0.12,197,8.33,0.12,0.12,23.14,FLYING,X10-F,0:/Integrated Flight Computer/aircraft/x10_f_cfg.ks (inferred preloaded)
23.5,APPROACH,ILS_TRACK,151.85,152,0.15,1267.97,1189.13,-0.03,10.29,10.31,270.4,-0.698,0.3182,0,20,1,0.6,4.5,0.75,0.35,0.0168,0.4,0,21.935,0,-0.155,0,270.2,0,0,1,-0.02,0,0,0,270.2,0.1478,0.0035,0.989,0,270.2,-14.56,-142.27,25.491,0.199,0,0,3,1339.31,8.672,0,1410.24,0,0,0,0,0,0,0,0,268.51,0,0,0,0,0,0,0,0,0,0,0,0,0,3,3,0,0,VALID,0,0,0,0,0,1,0,0,0,0,0,0,0,0,0,0,0,0,0,0,328.52,1036.12,2,0,0.12,0.12,200,8.33,0.12,0.12,23.5,FLYING,X10-F,0:/Integrated Flight Computer/aircraft/x10_f_cfg.ks (inferred preloaded)
23.86,APPROACH,ILS_TRACK,151.89,152,0.11,1267.97,1189.13,0,10.29,10.29,270.39,-0.683,0.3107,0,20,1,0.6,4.5,0.75,0.35,0.0168,0.4,0,21.924,0,-0.116,0,270.19,0,0,1,0,0,0,0,270.19,0.1479,0.0033,0.989,0,270.19,-14.02,-139.14,25.432,0.19,0,0,3,1339.31,8.688,0,1407.11,0,0,0,0,0,0,0,0,268.51,0,0,0,0,0,0,0,0,0,0,0,0,0,3,3,0,0,VALID,0,0,0,0,0,1,0,0,0,0,0,0,0,0,0,0,0,0,0,0,328.42,1036.29,2,0,0.12,0.12,203,8.33,0.12,0.12,23.86,FLYING,X10-F,0:/Integrated Flight Computer/aircraft/x10_f_cfg.ks (inferred preloaded)
24.12,APPROACH,ILS_TRACK,151.92,152,0.08,1267.97,1189.13,0.02,10.28,10.27,270.38,-0.685,0.3065,0,20,1,0.6,4.5,0.75,0.35,0.0168,0.4,0,21.915,0,-0.087,0,270.17,0,0,1,0.01,0,0,0,270.19,0.1479,0.0031,0.989,0,270.17,-13.64,-136.88,25.389,0.175,0,0,3,1339.31,8.688,0,1404.85,0,0,0,0,0,0,0,0,268.51,0,0,0,0,0,0,0,0,0,0,0,0,0,3,3,0,0,VALID,0,0,0,0,0,1,0,0,0,0,0,0,0,0,0,0,0,0,0,0,327.83,1036.41,2,0,0.12,0.12,205,7.69,0.14,0.12,24.12,FLYING,X10-F,0:/Integrated Flight Computer/aircraft/x10_f_cfg.ks (inferred preloaded)
24.48,APPROACH,ILS_TRACK,151.95,152,0.05,1267.98,1189.14,0.03,10.27,10.26,270.37,-0.68,0.3054,0,20,1,0.6,4.5,0.75,0.35,0.0168,0.4,0,21.906,0,-0.052,0,270.17,0,0,1,0.01,0,0,0,270.17,0.148,0.003,0.989,0,270.17,-13.12,-133.75,25.329,0.171,0,0,3,1339.31,8.703,0,1401.72,0,0,0,0,0,0,0,0,268.51,0,0,0,0,0,0,0,0,0,0,0,0,0,3,3,0,0,VALID,0,0,0,0,0,1,0,0,0,0,0,0,0,0,0,0,0,0,0,0,326.57,1036.56,2,0,0.12,0.12,208,8.33,0.12,0.12,24.48,FLYING,X10-F,0:/Integrated Flight Computer/aircraft/x10_f_cfg.ks (inferred preloaded)
24.84,APPROACH,ILS_TRACK,151.98,152,0.02,1267.99,1189.16,0.03,10.28,10.28,270.35,-0.661,0.305,0,20,1,0.6,4.5,0.75,0.35,0.0168,0.4,0,21.897,0,-0.02,0,270.15,0,0,1,0.01,0,0,0,270.16,0.1481,0.0027,0.989,0,270.15,-12.61,-130.61,25.269,0.155,0,0,3,1339.31,8.735,0,1398.59,0,0,0,0,0,0,0,0,268.51,0,0,0,0,0,0,0,0,0,0,0,0,0,3,3,0,0,VALID,0,0,0,0,0,1,0,0,0,0,0,0,0,0,0,0,0,0,0,0,325.36,1036.69,2,0,0.12,0.12,211,8.33,0.12,0.12,24.84,FLYING,X10-F,0:/Integrated Flight Computer/aircraft/x10_f_cfg.ks (inferred preloaded)
25.2,APPROACH,ILS_TRACK,152.01,152,-0.01,1268.01,1189.18,0.05,10.27,10.25,270.34,-0.647,0.306,0,19.999,1,0.6,4.5,0.75,0.35,0.0168,0.4,0,21.889,0,0.007,0,270.15,0,0,1,0.02,0,0,0,270.15,0.1482,0.0025,0.9889,0,270.15,-12.12,-127.46,25.21,0.145,0,0,3,1339.31,8.746,0,1395.47,0,0,0,0,0,0,0,0,268.51,0,0,0,0,0,0,0,0,0,0,0,0,0,3,3,0,0,VALID,0,0,0,0,0,1,0,0,0,0,0,0,0,0,0,0,0,0,0,0,324.36,1036.81,2,0,0.12,0.12,214,8.33,0.12,0.12,25.2,FLYING,X10-F,0:/Integrated Flight Computer/aircraft/x10_f_cfg.ks (inferred preloaded)
25.56,APPROACH,ILS_TRACK,152.03,152,-0.03,1268.03,1189.2,0.05,10.28,10.27,270.33,-0.63,0.3094,0,19.991,1,0.6,4.5,0.75,0.35,0.0168,0.4,0,21.883,0,0.027,0,270.14,0,0,1,0.02,0,0,0,270.14,0.1483,0.0025,0.9889,0,270.14,-11.65,-124.31,25.15,0.145,0,0,3,1339.31,8.752,0,1392.34,0,0,0,0,0,0,0,0,268.51,0,0,0,0,0,0,0,0,0,0,0,0,0,3,3,0,0,VALID,0,0,0,0,0,1,0,0,0,0,0,0,0,0,0,0,0,0,0,0,323.62,1036.89,2,0,0.12,0.12,217,8.33,0.12,0.12,25.56,FLYING,X10-F,0:/Integrated Flight Computer/aircraft/x10_f_cfg.ks (inferred preloaded)
25.92,APPROACH,ILS_TRACK,152.05,152,-0.05,1268.06,1189.23,0.11,10.28,10.24,270.32,-0.622,0.3098,0,19.977,1,0.6,4.5,0.75,0.35,0.0168,0.4,0,21.877,0,0.048,0,270.13,0,0,1,0.03,0,0,0,270.13,0.1484,0.0022,0.9889,0,270.13,-11.18,-121.15,25.09,0.128,0,0,3,1339.31,8.779,0,1389.2,0,0,0,0,0,0,0,0,268.51,0,0,0,0,0,0,0,0,0,0,0,0,0,3,3,0,0,VALID,0,0,0,0,0,1,0,0,0,0,0,0,0,0,0,0,0,0,0,0,323.34,1036.98,2,0,0.12,0.12,220,8.33,0.12,0.12,25.92,FLYING,X10-F,0:/Integrated Flight Computer/aircraft/x10_f_cfg.ks (inferred preloaded)
26.28,APPROACH,ILS_TRACK,152.07,152,-0.07,1268.09,1189.27,0.1,10.28,10.24,270.31,-0.612,0.3086,0,19.954,1,0.6,4.5,0.75,0.35,0.0168,0.4,0,21.871,0,0.07,0,270.12,0,0,1,0.03,0,0,0,270.12,0.1485,0.0021,0.9889,0,270.12,-10.73,-117.98,25.03,0.118,0,0,3,1339.31,8.798,0,1386.07,0,0,0,0,0,0,0,0,268.51,0,0,0,0,0,0,0,0,0,0,0,0,0,3,3,0,0,VALID,0,0,0,0,0,1,0,0,0,0,0,0,0,0,0,0,0,0,0,0,323.08,1037.07,2,0,0.12,0.12,223,8.33,0.12,0.12,26.28,FLYING,X10-F,0:/Integrated Flight Computer/aircraft/x10_f_cfg.ks (inferred preloaded)
26.54,APPROACH,ILS_TRACK,152.09,152,-0.09,1268.12,1189.29,0.11,10.28,10.24,270.3,-0.619,0.3073,0,19.933,1,0.6,4.5,0.75,0.35,0.0168,0.4,0,21.867,0,0.085,0,270.11,0,0,1,0.04,0,0,0,270.12,0.1486,0.0019,0.9889,0,270.11,-10.42,-115.7,24.987,0.109,0,0,3,1339.31,8.803,0,1383.81,0,0,0,0,0,0,0,0,268.51,0,0,0,0,0,0,0,0,0,0,0,0,0,3,3,0,0,VALID,0,0,0,0,0,1,0,0,0,0,0,0,0,0,0,0,0,0,0,0,322.82,1037.13,2,0,0.12,0.12,225,7.69,0.14,0.12,26.54,FLYING,X10-F,0:/Integrated Flight Computer/aircraft/x10_f_cfg.ks (inferred preloaded)
26.9,APPROACH,ILS_TRACK,152.11,152,-0.11,1268.16,1189.33,0.11,10.27,10.23,270.29,-0.62,0.306,0,19.897,1,0.6,4.5,0.75,0.35,0.0168,0.4,0,21.861,0,0.106,0,270.11,0,0,1,0.04,0,0,0,270.11,0.1487,0.0018,0.9889,0,270.11,-9.99,-112.53,24.927,0.105,0,0,3,1339.31,8.822,0,1380.68,0,0,0,0,0,0,0,0,268.51,0,0,0,0,0,0,0,0,0,0,0,0,0,3,3,0,0,VALID,0,0,0,0,0,1,0,0,0,0,0,0,0,0,0,0,0,0,0,0,322.31,1037.22,2,0,0.12,0.12,228,8.33,0.12,0.12,26.9,FLYING,X10-F,0:/Integrated Flight Computer/aircraft/x10_f_cfg.ks (inferred preloaded)
27.26,APPROACH,ILS_TRACK,152.12,152,-0.12,1268.2,1189.38,0.12,10.27,10.23,270.28,-0.603,0.306,0,19.855,1,0.6,4.5,0.75,0.35,0.0168,0.4,0,21.856,0,0.124,0,270.1,0,0,1,0.05,0,0,0,270.1,0.1488,0.0017,0.9889,0,270.1,-9.57,-109.35,24.868,0.096,0,0,3,1339.31,8.832,0,1377.55,0,0,0,0,0,0,0,0,268.51,0,0,0,0,0,0,0,0,0,0,0,0,0,3,3,0,0,VALID,0,0,0,0,0,1,0,0,0,0,0,0,0,0,0,0,0,0,0,0,321.74,1037.29,2,0,0.12,0.12,231,8.33,0.12,0.12,27.26,FLYING,X10-F,0:/Integrated Flight Computer/aircraft/x10_f_cfg.ks (inferred preloaded)
27.62,APPROACH,ILS_TRACK,152.14,152,-0.14,1268.25,1189.43,0.15,10.29,10.23,270.27,-0.576,0.3076,0,19.807,1,0.6,4.5,0.75,0.35,0.0168,0.4,0,21.852,0,0.136,0,270.09,0,0,1,0.05,0,0,0,270.09,0.1489,0.0015,0.9889,0,270.09,-9.17,-106.17,24.808,0.086,0,0,3,1339.31,8.851,0,1374.42,0,0,0,0,0,0,0,0,268.51,0,0,0,0,0,0,0,0,0,0,0,0,0,3,3,0,0,VALID,0,0,0,0,0,1,0,0,0,0,0,0,0,0,0,0,0,0,0,0,321.31,1037.34,2,0,0.12,0.12,234,8.33,0.12,0.12,27.62,FLYING,X10-F,0:/Integrated Flight Computer/aircraft/x10_f_cfg.ks (inferred preloaded)
27.98,APPROACH,ILS_TRACK,152.15,152,-0.15,1268.31,1189.48,0.14,10.27,10.22,270.27,-0.557,0.3068,0,19.755,1,0.6,4.5,0.75,0.35,0.0168,0.4,0,21.849,0,0.15,0,270.08,0,0,1,0.06,0,0,0,270.08,0.149,0.0014,0.9888,0,270.08,-8.78,-102.99,24.748,0.082,0,0,3,1339.31,8.843,0,1371.28,0,0,0,0,0,0,0,0,268.51,0,0,0,0,0,0,0,0,0,0,0,0,0,3,3,0,0,VALID,0,0,0,0,0,1,0,0,0,0,0,0,0,0,0,0,0,0,0,0,321.04,1037.4,2,0,0.12,0.12,237,8.33,0.12,0.12,27.98,FLYING,X10-F,0:/Integrated Flight Computer/aircraft/x10_f_cfg.ks (inferred preloaded)
28.34,APPROACH,ILS_TRACK,152.16,152,-0.16,1268.36,1189.54,0.15,10.28,10.22,270.26,-0.546,0.3063,0,19.698,1,0.6,4.5,0.75,0.35,0.0168,0.4,0,21.845,0,0.162,0,270.08,0,0,1,0.06,0,0,0,270.08,0.1491,0.0014,0.9888,0,270.08,-8.41,-99.8,24.688,0.08,0,0,3,1339.31,8.866,0,1368.15,0,0,0,0,0,0,0,0,268.51,0,0,0,0,0,0,0,0,0,0,0,0,0,3,3,0,0,VALID,0,0,0,0,0,1,0,0,0,0,0,0,0,0,0,0,0,0,0,0,320.7,1037.45,2,0,0.12,0.12,240,8.33,0.12,0.12,28.34,FLYING,X10-F,0:/Integrated Flight Computer/aircraft/x10_f_cfg.ks (inferred preloaded)
28.7,APPROACH,ILS_TRACK,152.17,152,-0.17,1268.42,1189.6,0.17,10.27,10.22,270.25,-0.532,0.3055,0,19.637,1,0.6,4.5,0.75,0.35,0.0168,0.4,0,21.842,0,0.174,0,270.07,0,0,1,0.06,0,0,0,270.08,0.1492,0.0012,0.9888,0,270.07,-8.04,-96.6,24.629,0.068,0,0,3,1339.31,8.868,0,1365.02,0,0,0,0,0,0,0,0,268.51,0,0,0,0,0,0,0,0,0,0,0,0,0,3,3,0,0,VALID,0,0,0,0,0,1,0,0,0,0,0,0,0,0,0,0,0,0,0,0,320.35,1037.49,2,0,0.12,0.12,243,8.33,0.12,0.12,28.7,FLYING,X10-F,0:/Integrated Flight Computer/aircraft/x10_f_cfg.ks (inferred preloaded)
28.96,APPROACH,ILS_TRACK,152.18,152,-0.18,1268.47,1189.65,0.16,10.26,10.21,270.24,-0.525,0.3046,0,19.59,1,0.6,4.5,0.75,0.35,0.0168,0.4,0,21.84,0,0.182,0,270.06,0,0,1,0.06,0,0,0,270.07,0.1493,0.0011,0.9888,0,270.06,-7.78,-94.3,24.585,0.064,0,0,3,1339.31,8.878,0,1362.76,0,0,0,0,0,0,0,0,268.51,0,0,0,0,0,0,0,0,0,0,0,0,0,3,3,0,0,VALID,0,0,0,0,0,1,0,0,0,0,0,0,0,0,0,0,0,0,0,0,320.05,1037.52,2,0,0.12,0.12,245,7.69,0.14,0.12,28.96,FLYING,X10-F,0:/Integrated Flight Computer/aircraft/x10_f_cfg.ks (inferred preloaded)
29.32,APPROACH,ILS_TRACK,152.19,152,-0.19,1268.53,1189.72,0.19,10.28,10.21,270.23,-0.506,0.3048,0,19.522,1,0.6,4.5,0.75,0.35,0.0168,0.4,0,21.837,0,0.19,0,270.06,0,0,1,0.07,0,0,0,270.06,0.1494,0.001,0.9888,0,270.06,-7.43,-91.09,24.526,0.059,0,0,3,1339.31,8.898,0,1359.62,0,0,0,0,0,0,0,0,268.51,0,0,0,0,0,0,0,0,0,0,0,0,0,3,3,0,0,VALID,0,0,0,0,0,1,0,0,0,0,0,0,0,0,0,0,0,0,0,0,319.58,1037.55,2,0,0.12,0.12,248,8.33,0.12,0.12,29.32,FLYING,X10-F,0:/Integrated Flight Computer/aircraft/x10_f_cfg.ks (inferred preloaded)
29.68,APPROACH,ILS_TRACK,152.2,152,-0.2,1268.6,1189.79,0.2,10.28,10.21,270.23,-0.489,0.3048,0,19.452,1,0.6,4.5,0.75,0.35,0.0168,0.4,0,21.835,0,0.197,0,270.05,0,0,1,0.08,0,0,0,270.06,0.1495,0.0009,0.9888,0,270.05,-7.1,-87.89,24.466,0.053,0,0,3,1339.31,8.907,0,1356.49,0,0,0,0,0,0,0,0,268.51,0,0,0,0,0,0,0,0,0,0,0,0,0,3,3,0,0,VALID,0,0,0,0,0,1,0,0,0,0,0,0,0,0,0,0,0,0,0,0,319.19,1037.58,2,0,0.12,0.12,251,8.33,0.12,0.12,29.68,FLYING,X10-F,0:/Integrated Flight Computer/aircraft/x10_f_cfg.ks (inferred preloaded)
30.04,APPROACH,ILS_TRACK,152.2,152,-0.2,1268.68,1189.86,0.18,10.27,10.21,270.22,-0.49,0.3044,0,19.38,1,0.6,4.5,0.75,0.35,0.0168,0.4,0,21.834,0,0.203,0,270.04,0,0,1,0.08,0,0,0,270.05,0.1496,0.0008,0.9888,0,270.04,-6.77,-84.69,24.406,0.045,0,0,3,1339.31,8.895,0,1353.35,0,0,0,0,0,0,0,0,268.51,0,0,0,0,0,0,0,0,0,0,0,0,0,3,3,0,0,VALID,0,0,0,0,0,1,0,0,0,0,0,0,0,0,0,0,0,0,0,0,318.83,1037.6,2,0,0.12,0.12,254,8.33,0.12,0.12,30.04,FLYING,X10-F,0:/Integrated Flight Computer/aircraft/x10_f_cfg.ks (inferred preloaded)
30.4,APPROACH,ILS_TRACK,152.21,152,-0.21,1268.75,1189.93,0.23,10.29,10.21,270.21,-0.492,0.3048,0,19.306,1,0.6,4.5,0.75,0.35,0.0168,0.4,0,21.833,0,0.206,0,270.04,0,0,1,0.08,0,0,0,270.04,0.1497,0.0007,0.9887,0,270.04,-6.45,-81.48,24.346,0.042,0,0,3,1339.31,8.937,0,1350.22,0,0,0,0,0,0,0,0,268.51,0,0,0,0,0,0,0,0,0,0,0,0,0,3,3,0,0,VALID,0,0,0,0,0,1,0,0,0,0,0,0,0,0,0,0,0,0,0,0,318.5,1037.61,2,0,0.12,0.12,257,8.33,0.12,0.12,30.4,FLYING,X10-F,0:/Integrated Flight Computer/aircraft/x10_f_cfg.ks (inferred preloaded)
30.76,APPROACH,ILS_TRACK,152.21,152,-0.21,1268.83,1190.01,0.23,10.29,10.22,270.2,-0.49,0.3051,0,19.231,1,0.6,4.5,0.75,0.35,0.0168,0.4,0,21.832,0,0.208,0,270.04,0,0,1,0.08,0,0,0,270.04,0.1498,0.0006,0.9887,0,270.04,-6.15,-78.26,24.286,0.036,16.331,1,3,1339.31,8.936,0,1347.09,0,0,0,0,0,0,0,0,268.51,0,0,0,0,0,0,0,0,0,0,0,0,0,3,3,0,0,VALID,0,0,0,0,0,1,0,0,0,0,0,0,0,0,0,0,0,0,0,0,318.27,1037.61,2,0,0.12,0.12,260,8.33,0.12,0.12,30.76,FLYING,X10-F,0:/Integrated Flight Computer/aircraft/x10_f_cfg.ks (inferred preloaded)
31.12,APPROACH,ILS_TRACK,152.21,152,-0.21,1268.91,1190.08,0.24,10.29,10.2,270.19,-0.475,0.3058,0,19.156,1,0.6,4.5,0.75,0.35,0.0168,0.4,0,21.832,0,0.208,0,270.03,0,0,1,0.09,0,0,0,270.03,0.1499,0.0006,0.9887,0,270.03,-5.85,-75.05,24.227,0.034,15.384,1,3,1339.31,8.914,0,1343.95,0,0,0,0,0,0,0,0,268.51,0,0,0,0,0,0,0,0,0,0,0,0,0,3,3,0,0,VALID,0,0,0,0,0,1,0,0,0,0,0,0,0,0,0,0,0,0,0,0,318.06,1037.6,2,0,0.12,0.12,263,8.33,0.12,0.12,31.12,FLYING,X10-F,0:/Integrated Flight Computer/aircraft/x10_f_cfg.ks (inferred preloaded)
31.38,APPROACH,ILS_TRACK,152.21,152,-0.21,1268.97,1190.12,0.24,10.28,10.19,270.19,-0.465,0.3058,0,19.102,1,0.6,4.5,0.75,0.35,0.0168,0.4,0,21.833,0,0.207,0,270.02,0,0,1,0.1,0,0,0,270.03,0.1499,0.0004,0.9887,0,270.02,-5.64,-72.73,24.183,0.023,14.677,1,3,1339.31,8.928,0,1341.69,0,0,0,0,0,0,0,0,268.51,0,0,0,0,0,0,0,0,0,0,0,0,0,3,3,0,0,VALID,0,0,0,0,0,1,0,0,0,0,0,0,0,0,0,0,0,0,0,0,317.99,1037.6,2,0,0.12,0.12,265,7.69,0.14,0.12,31.38,FLYING,X10-F,0:/Integrated Flight Computer/aircraft/x10_f_cfg.ks (inferred preloaded)
31.74,APPROACH,ILS_TRACK,152.2,152,-0.2,1269.06,1190.12,0.29,10.35,10.25,270.18,-0.444,0.3085,0,19.028,1,0.6,4.5,0.75,0.35,0.0168,0.4,0,21.834,0,0.202,0,270.02,0,0,1,0.1,0,0,0,270.03,0.15,0.0004,0.9887,0,270.02,-5.36,-69.5,24.124,0.023,13.683,1,3,1339.31,8.959,0,1338.55,0,0,0,0,0,0,0,0,268.51,0,0,0,0,0,0,0,0,0,0,0,0,0,3,3,0,0,VALID,0,0,0,0,0,1,0,0,0,0,0,0,0,0,0,0,0,0,0,0,317.81,1037.56,2,0,0.12,0.12,268,8.33,0.12,0.12,31.74,FLYING,X10-F,0:/Integrated Flight Computer/aircraft/x10_f_cfg.ks (inferred preloaded)
32.1,APPROACH,ILS_TRACK,152.19,152,-0.19,1269.14,1190.09,0.25,10.28,10.2,270.18,-0.423,0.3093,0,18.959,1,0.6,4.5,0.75,0.35,0.0168,0.4,0,21.836,0,0.194,0,270.02,0,0,1,0.09,0,0,0,270.02,0.1501,0.0004,0.9887,0,270.02,-5.09,-66.29,24.064,0.024,12.712,1,3,1339.31,8.969,0,1335.42,0,0,0,0,0,0,0,0,268.51,0,0,0,0,0,0,0,0,0,0,0,0,0,3,3,0,0,VALID,0,0,0,0,0,1,0,0,0,0,0,0,0,0,0,0,0,0,0,0,318.12,1037.53,2,0,0.12,0.12,271,8.33,0.12,0.12,32.1,FLYING,X10-F,0:/Integrated Flight Computer/aircraft/x10_f_cfg.ks (inferred preloaded)
32.46,APPROACH,ILS_TRACK,152.19,152,-0.19,1269.23,1190.03,0.23,10.28,10.21,270.17,-0.41,0.3058,0,18.889,1,0.6,4.5,0.75,0.35,0.0168,0.4,0,21.836,0,0.194,0,270.01,0,0,1,0.09,0,0,0,270.01,0.1502,0.0002,0.9887,0,270.01,-4.83,-63.07,24.004,0.013,11.758,1,3,1339.31,8.954,0,1332.29,0,0,0,0,0,0,0,0,268.51,0,0,0,0,0,0,0,0,0,0,0,0,0,3,3,0,0,VALID,0,0,0,0,0,1,0,0,0,0,0,0,0,0,0,0,0,0,0,0,318.25,1037.52,2,0,0.12,0.12,274,8.33,0.12,0.12,32.46,FLYING,X10-F,0:/Integrated Flight Computer/aircraft/x10_f_cfg.ks (inferred preloaded)
32.82,APPROACH,ILS_TRACK,152.2,152,-0.2,1269.32,1189.95,0.27,10.28,10.19,270.17,-0.394,0.3027,0,18.819,1,0.6,4.5,0.75,0.35,0.0168,0.4,0,21.836,0,0.196,0,270.01,0,0,1,0.1,0,0,0,270.01,0.1503,0.0002,0.9886,0,270.01,-4.58,-59.84,23.944,0.011,10.786,1,3,1339.31,8.959,0,1329.15,0,0,0,0,0,0,0,0,268.51,0,0,0,0,0,0,0,0,0,0,0,0,0,3,3,0,0,VALID,0,0,0,0,0,1,0,0,0,0,0,0,0,0,0,0,0,0,0,0,318.02,1037.52,2,0,0.12,0.12,277,8.33,0.12,0.12,32.82,FLYING,X10-F,0:/Integrated Flight Computer/aircraft/x10_f_cfg.ks (inferred preloaded)
33.18,APPROACH,ILS_TRACK,152.2,152,-0.2,1269.42,1189.86,0.2,10.31,10.26,270.16,-0.383,0.2998,0,18.748,1,0.6,4.5,0.75,0.35,0.0168,0.4,0,21.835,0,0.198,0,270.01,0,0,1,0.08,0,0,0,270.01,0.1504,0.0001,0.9886,0,270.01,-4.33,-56.61,23.884,0.006,9.785,1,3,1339.31,8.999,0,1326.02,0,0,0,0,0,0,0,0,268.51,0,0,0,0,0,0,0,0,0,0,0,0,0,3,3,0,0,VALID,0,0,0,0,0,1,0,0,0,0,0,0,0,0,0,0,0,0,0,0,317.44,1037.53,2,0,0.12,0.12,280,8.33,0.12,0.12,33.18,FLYING,X10-F,0:/Integrated Flight Computer/aircraft/x10_f_cfg.ks (inferred preloaded)
33.54,APPROACH,ILS_TRACK,152.18,152,-0.18,1269.5,1189.78,0.32,10.24,10.12,270.15,-0.375,0.3109,0,18.681,1,0.6,4.5,0.75,0.35,0.0168,0.4,0,21.841,0,0.178,0,270,0,0,1,0.12,0,0,0,270,0.1505,0.0001,0.9886,0,270,-4.1,-53.39,23.825,0.003,8.925,1,3,1339.31,8.867,0,1322.89,0,0,0,0,0,0,0,0,268.51,0,0,0,0,0,0,0,0,0,0,0,0,0,3,3,0,0,VALID,0,0,0,0,0,1,0,0,0,0,0,0,0,0,0,0,0,0,0,0,316.97,1037.44,2,0,0.12,0.12,283,8.33,0.12,0.12,33.54,FLYING,X10-F,0:/Integrated Flight Computer/aircraft/x10_f_cfg.ks (inferred preloaded)
33.9,APPROACH,ILS_TRACK,152.17,152,-0.17,1269.6,1189.7,0.34,10.27,10.15,270.15,-0.362,0.3079,0,18.617,1,0.6,4.5,0.75,0.35,0.0168,0.4,0,21.842,0,0.174,0,269.99,0,0,1,0.12,0,0,0,270,0.1506,-0.0001,0.9886,0,269.99,-3.87,-50.16,23.765,-0.005,7.835,1,3,1339.31,9.014,0,1319.75,0,0,0,0,0,0,0,0,268.51,0,0,0,0,0,0,0,0,0,0,0,0,0,3,3,0,0,VALID,0,0,0,0,0,1,0,0,0,0,0,0,0,0,0,0,0,0,0,0,317.18,1037.41,2,0,0.12,0.12,286,8.33,0.12,0.12,33.9,FLYING,X10-F,0:/Integrated Flight Computer/aircraft/x10_f_cfg.ks (inferred preloaded)
34.26,APPROACH,ILS_TRACK,152.17,152,-0.17,1269.71,1189.63,0.24,10.28,10.21,270.14,-0.349,0.306,0,18.557,1,0.6,4.5,0.75,0.35,0.0168,0.4,0,21.844,0,0.168,0,269.99,0,0,1,0.08,0,0,0,270,0.1507,-0.0002,0.9886,0,269.99,-3.65,-46.92,23.705,-0.011,6.792,1,3,1339.31,9.105,0,1316.62,0,0,0,0,0,0,0,0,268.51,0,0,0,0,0,0,0,0,0,0,0,0,0,3,3,0,0,VALID,0,0,0,0,0,1,0,0,0,0,0,0,0,0,0,0,0,0,0,0,317.4,1037.38,2,0,0.12,0.12,289,8.33,0.12,0.12,34.26,FLYING,X10-F,0:/Integrated Flight Computer/aircraft/x10_f_cfg.ks (inferred preloaded)
34.62,APPROACH,ILS_TRACK,152.15,152,-0.15,1269.81,1189.6,0.27,10.25,10.16,270.14,-0.335,0.31,0,18.501,1,0.6,4.5,0.75,0.35,0.0168,0.4,0,21.848,0,0.152,0,269.98,0,0,1,0.1,0,0,0,270,0.1508,-0.0003,0.9886,0,269.98,-3.43,-43.69,23.645,-0.016,5.912,1,3,1339.31,8.992,0,1313.48,0,0,0,0,0,0,0,0,268.51,0,0,0,0,0,0,0,0,0,0,0,0,0,3,3,0,0,VALID,0,0,0,0,0,1,0,0,0,0,0,0,0,0,0,0,0,0,0,0,317.64,1037.31,2,0,0.12,0.12,292,8.33,0.12,0.12,34.62,FLYING,X10-F,0:/Integrated Flight Computer/aircraft/x10_f_cfg.ks (inferred preloaded)
34.98,APPROACH,ILS_TRACK,152.15,152,-0.15,1269.93,1189.59,0.32,10.32,10.21,270.13,-0.326,0.3039,0,18.446,1,0.6,4.5,0.75,0.35,0.0168,0.4,0,21.848,0,0.153,0,269.99,0,0,1,0.1,0,0,0,269.99,0.1509,-0.0002,0.9885,0,269.99,-3.23,-40.44,23.585,-0.013,4.877,1,3,1339.31,9.067,0,1310.35,0,0,0,0,0,0,0,0,268.51,0,0,0,0,0,0,0,0,0,0,0,0,0,3,3,0,0,VALID,0,0,0,0,0,1,0,0,0,0,0,0,0,0,0,0,0,0,0,0,317.75,1037.3,2,0,0.12,0.12,295,8.33,0.12,0.12,34.98,FLYING,X10-F,0:/Integrated Flight Computer/aircraft/x10_f_cfg.ks (inferred preloaded)
35.34,APPROACH,ILS_TRACK,152.14,152,-0.14,1270.02,1189.56,0.29,10.22,10.13,270.13,-0.321,0.3049,0,18.395,1,0.6,4.5,0.75,0.35,0.0168,0.4,0,21.851,0,0.143,0,269.98,0,0,1,0.1,0,0,0,269.98,0.151,-0.0003,0.9885,0,269.98,-3.03,-37.21,23.526,-0.016,3.946,1,3,1339.31,9.023,0,1307.22,0,0,0,0,0,0,0,0,268.51,0,0,0,0,0,0,0,0,0,0,0,0,0,3,3,0,0,VALID,0,0,0,0,0,1,0,0,0,0,0,0,0,0,0,0,0,0,0,0,317.69,1037.25,2,0,0.12,0.12,298,8.33,0.12,0.12,35.34,FLYING,X10-F,0:/Integrated Flight Computer/aircraft/x10_f_cfg.ks (inferred preloaded)
35.7,APPROACH,ILS_TRACK,152.14,152,-0.14,1270.13,1189.54,0.33,10.22,10.1,270.12,-0.317,0.301,0,18.344,1,0.6,4.5,0.75,0.35,0.0168,0.4,0,21.851,0,0.143,0,269.99,-0.025,0,1,0.12,0,0,0,269.98,0.1515,-0.0003,0.9885,-0.02,269.99,-2.84,-33.97,23.466,-0.015,2.975,1,3,1339.31,9.019,-0.025,1304.09,0,0,0,0,0,0,0,0,268.51,0,0,0,0,0,0,0,0,0,0,0,0,0,3,3,0,0,VALID,0,0,0,0,0,1,0,0,0,0,0,0,0,0,0,0,0,0,0,0,317.44,1037.25,2,0,0.12,0.12,301,8.33,0.12,0.12,35.7,FLYING,X10-F,0:/Integrated Flight Computer/aircraft/x10_f_cfg.ks (inferred preloaded)
36.06,APPROACH,ILS_TRACK,152.13,152,-0.13,1270.19,1189.58,0.53,10.05,9.82,270.11,-0.357,0.3064,0,18.293,1,0.6,4.5,0.75,0.35,0.0168,0.4,0,21.854,0,0.131,0,269.98,-0.779,0,1,0.19,0,0,-0.66,269.98,0.1646,-0.0004,0.9864,-0.78,269.98,-2.65,-30.75,23.406,-0.023,2.221,1,3,1339.31,8.756,-0.779,1300.95,0,0,0,0,0,0,0,0,268.51,0,0,0,0,0,0,0,0,0,0,0,0,0,3,3,0,0,VALID,0,0,0,0,0,1,0,0,0,0,0,0,0,0,0,0,0,0,0,0,316.7,1037.17,2,0,0.12,0.12,304,8.33,0.12,0.12,36.06,FLYING,X10-F,0:/Integrated Flight Computer/aircraft/x10_f_cfg.ks (inferred preloaded)
36.42,APPROACH,ILS_TRACK,152.16,152,-0.16,1270.12,1189.68,0.25,9.23,9.11,270.1,-0.437,0.2824,0,18.244,1,0.6,4.5,0.75,0.35,0.0168,0.4,0,21.846,0,0.16,0,269.97,-1.515,0,1,0.11,0,0,-1.17,269.97,0.1774,-0.0005,0.9841,-1.52,269.97,-2.47,-27.69,23.346,-0.026,1.485,1,3,1339.31,8.527,-1.515,1297.82,0,0,0,0,0,0,0,0,268.51,0,0,0,0,0,0,0,0,0,0,0,0,0,3,3,0,0,VALID,0,0,0,0,0,1,0,0,0,0,0,0,0,0,0,0,0,0,0,0,316.67,1037.3,2,0,0.12,0.12,307,8.33,0.12,0.12,36.42,FLYING,X10-F,0:/Integrated Flight Computer/aircraft/x10_f_cfg.ks (inferred preloaded)
36.78,APPROACH,ILS_TRACK,152.24,152,-0.24,1270.15,1189.64,-0.09,9.21,9.26,270.08,-0.506,0.244,0,18.166,1,0.6,4.5,0.75,0.35,0.0168,0.4,0,21.823,0,0.24,0,269.98,-2.731,0,1,-0.04,0,0,-2.32,269.97,0.1983,-0.0004,0.9801,-2.73,269.98,-2.3,-24.54,23.287,-0.022,0.269,1,3,1339.31,8.866,-2.731,1294.68,0,0,0,0,0,0,0,0,268.51,0,0,0,0,0,0,0,0,0,0,0,0,0,3,3,0,0,VALID,0,0,0,0,0,1,0,0,0,0,0,0,0,0,0,0,0,0,0,0,312.31,1037.64,2,0,0.12,0.12,310,8.33,0.12,0.12,36.78,FLYING,X10-F,0:/Integrated Flight Computer/aircraft/x10_f_cfg.ks (inferred preloaded)
37.14,APPROACH,ILS_TRACK,152.25,152,-0.25,1269.93,1189.66,0.17,8.6,8.45,270.06,-0.568,0.2617,0,18.073,1,0.6,4.5,0.75,0.35,0.0168,0.4,0,21.82,0,0.251,0,269.98,-2.761,0,1,0.07,0,0,-2.89,269.97,0.1989,-0.0004,0.98,-2.76,269.98,-2.14,-21.57,23.227,-0.023,0.239,1,3,1339.31,7.789,-2.761,1291.55,0,0,0,0,0,0,0,0,268.51,0,0,0,0,0,0,0,0,0,0,0,0,0,3,3,0,0,VALID,0,0,0,0,0,1,0,0,0,0,0,0,0,0,0,0,0,0,0,0,305.27,1037.66,2,0,0.12,0.12,313,8.33,0.12,0.12,37.14,FLYING,X10-F,0:/Integrated Flight Computer/aircraft/x10_f_cfg.ks (inferred preloaded)
37.4,APPROACH,ILS_TRACK,152.33,152,-0.33,1269.56,1189.67,-0.24,7.3,7.27,270.06,-0.601,0.2277,0,17.998,1,0.6,4.5,0.75,0.35,0.0168,0.4,0,21.801,0,0.318,0,269.98,-2.881,0,1,-0.05,0,0,-2.76,269.98,0.2011,-0.0005,0.9796,-2.88,269.98,-2.03,-19.66,23.183,-0.024,0.119,1,3,1339.31,7.225,-2.881,1289.28,0,0,0,0,0,0,0,0,268.51,0,0,0,0,0,0,0,0,0,0,0,0,0,3,3,0,0,VALID,0,0,0,0,0,1,0,0,0,0,0,0,0,0,0,0,0,0,0,0,302.15,1037.98,2,0,0.12,0.12,315,7.69,0.14,0.12,37.4,FLYING,X10-F,0:/Integrated Flight Computer/aircraft/x10_f_cfg.ks (inferred preloaded)
37.76,APPROACH,ILS_TRACK,152.54,152,-0.54,1269.02,1189.39,-1.33,6.26,6.68,270.06,-0.612,0.1359,0,17.833,1,0.6,4.5,0.75,0.35,0.0168,0.4,0,21.742,0,0.529,0,269.98,-3.679,0,1,-0.45,0,0,-3.38,269.98,0.2148,-0.0004,0.9767,-3.68,269.98,-1.89,-17.07,23.124,-0.02,-0.679,1,3,1339.31,7.249,-3.679,1286.14,0,0,0,0,0,0,0,0,268.51,0,0,0,0,0,0,0,0,0,0,0,0,0,3,3,0,0,VALID,0,0,0,0,0,1,0,0,0,0,0,0,0,0,0,0,0,0,0,0,290.92,1038.88,2,0,0.12,0.12,318,8.33,0.12,0.12,37.76,FLYING,X10-F,0:/Integrated Flight Computer/aircraft/x10_f_cfg.ks (inferred preloaded)
38.12,APPROACH,ILS_TRACK,152.71,152,-0.71,1268.44,1188.75,-1.92,6.45,7.1,270.04,-0.612,0.0976,0,17.599,1,0.6,4.5,0.75,0.35,0.0168,0.4,0,21.692,0,0.706,0,269.98,-4.223,0,1,-0.72,0,0,-4.25,269.98,0.2241,-0.0005,0.9746,-4.22,269.98,-1.75,-14.48,23.064,-0.024,-1.223,1,3,1339.31,6.958,-4.223,1283,0,0,0,0,0,0,0,0,268.51,0,0,0,0,0,0,0,0,0,0,0,0,0,3,3,0,0,VALID,0,0,0,0,0,1,0,0,0,0,0,0,0,0,0,0,0,0,0,0,271.81,1039.68,2,0,0.12,0.12,321,8.33,0.12,0.12,38.12,FLYING,X10-F,0:/Integrated Flight Computer/aircraft/x10_f_cfg.ks (inferred preloaded)
38.48,APPROACH,ILS_TRACK,152.85,152,-0.85,1267.45,1187.98,-2.58,5.8,6.63,270.04,-0.598,0.0918,0,17.314,1,0.6,4.5,0.75,0.35,0.0168,0.4,0,21.654,0,0.84,0,269.99,-3.975,0,1,-0.93,0,0,-3.92,269.99,0.22,-0.0003,0.9755,-3.98,269.99,-1.63,-12.28,23.004,-0.013,-0.975,1,3,1339.31,5.826,-3.975,1279.86,0,0,0,0,0,0,0,0,268.51,0,0,0,0,0,0,0,0,0,0,0,0,0,3,3,0,0,VALID,0,0,0,0,0,1,0,0,0,0,0,0,0,0,0,0,0,0,0,0,251.88,1040.29,2,0,0.12,0.12,324,8.33,0.12,0.12,38.48,FLYING,X10-F,0:/Integrated Flight Computer/aircraft/x10_f_cfg.ks (inferred preloaded)
38.84,APPROACH,ILS_TRACK,152.94,152,-0.94,1266.37,1186.95,-3.51,5.83,7.05,270.03,-0.563,0.1033,0,16.985,1,0.6,4.5,0.75,0.35,0.0168,0.4,0,21.626,0,0.939,0,269.99,-4.538,0,1,-1.3,0,0,-4.33,269.98,0.2297,-0.0003,0.9733,-4.54,269.99,-1.52,-10.21,22.944,-0.014,-1.538,1,3,1339.31,5.753,-4.538,1276.71,0,0,0,0,0,0,0,0,268.51,0,0,0,0,0,0,0,0,0,0,0,0,0,3,3,0,0,VALID,0,0,0,0,0,1,0,0,0,0,0,0,0,0,0,0,0,0,0,0,233.32,1040.76,2,0,0.12,0.12,327,8.33,0.12,0.12,38.84,FLYING,X10-F,0:/Integrated Flight Computer/aircraft/x10_f_cfg.ks (inferred preloaded)
