t_s,phase,subphase,ias_ms,vapp_ms,spd_err_ms,agl_m,vs_ms,pitch_deg,aoa_deg,hdg_deg,bank_deg,thr_cmd,thr_intg,aa_hdg_cmd_deg,aa_fpa_cmd_deg,ils_loc_m,ils_gs_m,ils_dist_km,loc_corr_deg,gs_corr_deg,flare_fpa_cmd,flare_tgt_vs,flare_frac,steer_hdg_deg,steer_blend,ro_loc_corr_deg,ro_hdg_err_deg,ro_yaw_tgt,ro_yaw_scale,ro_yaw_gate,yaw_cmd,roll_cmd,pitch_cmd,ro_pitch_tgt_deg,ro_pitch_err_deg,ro_pitch_ff,ro_roll_assist,flaps_cur,flaps_tgt,phase_el_s,status
0.26,APPROACH,FLY_TO_FIX,199.19,160.16,-39.03,2462.93,-25.1,-3.32,2.98,269.52,-2.25,0.04,-3.898,14.64,-4.826,0,0,0,0,0,0,0,0,269.55,0,0,0,0,0,0,0,0,0,0,0,0,0,0,3,0.3,FLYING
0.54,APPROACH,ILS_TRACK,199.76,160.58,-39.19,2455.11,-27.17,-4.98,1.86,269.66,-3.556,0,-14.076,109.5,-6,0,0,0,0,0,0,0,0,269.55,0,0,0,0,0,0,0,0,0,0,0,0,0,1,3,0.56,FLYING
0.8,APPROACH,ILS_TRACK,200.32,161.02,-39.29,2447.72,-29.17,-5.13,2.11,269.78,-5.886,0,-20,245.4,0,31.52,-32.92,46.052,-29.408,103.931,0,0,0,269.55,0,0,0,0,0,0,0,0,0,0,0,0,0,1,3,0.84,FLYING
1.06,APPROACH,ILS_TRACK,200.78,161.44,-39.34,2439.57,-30.67,-4.21,3.39,269.9,-4.158,0,-20,270.08,0,30.59,-37.65,45.989,-0.324,25.866,0,0,0,269.55,0,0,0,0,0,0,0,0,0,0,0,0,0,2,3,1.1,FLYING
1.38,APPROACH,ILS_TRACK,201.31,161.95,-39.35,2430.33,-31.77,-3.75,4.12,269.67,1.823,0,-20,269.94,0,29.66,-43.17,45.921,-0.457,26.734,0,0,0,269.55,0,0,0,0,0,0,0,0,0,0,0,0,0,2,3,1.42,FLYING
1.64,APPROACH,ILS_TRACK,201.66,162.37,-39.3,2421.47,-32.66,-3.12,4.96,269.36,3.533,0,-20,270.07,0,28.8,-48.64,45.858,-0.329,31.436,0,0,0,269.55,0,0,0,0,0,0,0,0,0,0,0,0,0,3,3,1.68,FLYING
1.9,APPROACH,ILS_TRACK,201.91,161.95,-39.95,2413.8,-33.26,-2.28,5.92,269.28,1.455,0,-20,270,0,28.05,-53.45,45.803,-0.404,30.838,0,0,0,269.55,0,0,0,0,0,0,0,0,0,0,0,0,0,3,3,1.94,FLYING
2.16,APPROACH,ILS_TRACK,202,161.54,-40.46,2405.58,-33.54,-0.65,7.56,269.41,0.129,0,-20,270.16,0,27.17,-58.64,45.744,-0.238,33.543,0,0,0,269.55,0,0,0,0,0,0,0,0,0,0,0,0,0,3,3,2.2,FLYING
2.46,APPROACH,ILS_TRACK,201.86,161.06,-40.81,2396.34,-32.87,1.96,10.03,269.58,-0.537,0,-20,270.21,0,26.14,-64.39,45.676,-0.19,34.671,0,0,0,269.55,0,0,0,0,0,0,0,0,0,0,0,0,0,3,3,2.5,FLYING
2.72,APPROACH,ILS_TRACK,201.47,160.64,-40.83,2388.42,-31.48,3.48,11.3,269.7,-0.909,0,-20,270.23,0,25.27,-69.26,45.618,-0.166,35.738,0,0,0,269.55,0,0,0,0,0,0,0,0,0,0,0,0,0,3,3,2.76,FLYING
2.98,APPROACH,ILS_TRACK,200.88,160.22,-40.66,2380.65,-29.98,4.19,11.71,269.79,-1.166,0,-20,270.27,0,24.39,-74.02,45.559,-0.135,36.861,0,0,0,269.55,0,0,0,0,0,0,0,0,0,0,0,0,0,3,3,3.02,FLYING
3.24,APPROACH,ILS_TRACK,200.2,160,-40.2,2373.16,-28.57,4.54,11.74,269.86,-1.357,0,-20,270.27,0,23.55,-78.56,45.5,-0.134,37.546,0,0,0,269.55,0,0,0,0,0,0,0,0,0,0,0,0,0,3,3,3.28,FLYING
3.54,APPROACH,ILS_TRACK,199.34,160,-39.34,2364.95,-27,4.91,11.74,269.93,-1.507,0,-20,270.28,0,22.61,-83.4,45.433,-0.119,37.923,0,0,0,269.55,0,0,0,0,0,0,0,0,0,0,0,0,0,3,3,3.58,FLYING
3.8,APPROACH,ILS_TRACK,198.53,160,-38.53,2358.22,-25.63,5.23,11.75,269.98,-1.605,0,-20,270.29,0,21.82,-87.22,45.375,-0.111,37.924,0,0,0,269.55,0,0,0,0,0,0,0,0,0,0,0,0,0,3,3,3.84,FLYING
4.06,APPROACH,ILS_TRACK,197.67,160,-37.67,2351.84,-24.27,5.56,11.75,270.02,-1.678,0,-20,270.29,0,21.06,-90.7,45.317,-0.11,37.908,0,0,0,269.55,0,0,0,0,0,0,0,0,0,0,0,0,0,3,3,4.1,FLYING
4.32,APPROACH,ILS_TRACK,196.76,160,-36.76,2345.81,-22.92,5.88,11.76,270.06,-1.727,0,-20,270.28,0,20.34,-93.83,45.259,-0.125,37.8,0,0,0,269.55,0,0,0,0,0,0,0,0,0,0,0,0,0,3,3,4.36,FLYING
4.62,APPROACH,ILS_TRACK,195.66,160,-35.66,2339.29,-21.37,6.24,11.74,270.1,-1.752,0.0228,-20,270.29,0,19.53,-97.03,45.193,-0.11,37.642,0,0,0,269.55,0,0,0,0,0,0,0,0,0,0,0,0,0,3,3,4.66,FLYING
4.88,APPROACH,ILS_TRACK,194.66,160,-34.66,2334.02,-20.03,6.57,11.76,270.14,-1.775,0.0876,-20,270.27,0,18.88,-99.44,45.135,-0.125,37.233,0,0,0,269.55,0,0,0,0,0,0,0,0,0,0,0,0,0,3,3,4.92,FLYING
5.14,APPROACH,ILS_TRACK,193.62,160,-33.62,2329.09,-18.71,6.9,11.77,270.17,-1.776,0.1457,-20,270.27,0,18.26,-101.51,45.078,-0.134,36.839,0,0,0,269.55,0,0,0,0,0,0,0,0,0,0,0,0,0,3,3,5.18,FLYING
5.4,APPROACH,ILS_TRACK,192.57,160,-32.57,2324.5,-17.43,7.2,11.76,270.2,-1.769,0.1957,-20,270.27,0,17.65,-103.27,45.022,-0.126,36.372,0,0,0,269.55,0,0,0,0,0,0,0,0,0,0,0,0,0,3,3,5.44,FLYING
5.7,APPROACH,ILS_TRACK,191.35,160,-31.35,2319.61,-15.87,7.51,11.7,270.23,-1.758,0.2376,-20,270.24,0,17.03,-104.88,44.957,-0.159,35.758,0,0,0,269.55,0,0,0,0,0,0,0,0,0,0,0,0,0,3,3,5.74,FLYING
5.96,APPROACH,ILS_TRACK,190.29,160,-30.29,2315.72,-14.7,7.76,11.64,270.25,-1.714,0.2694,-20,270.24,0,16.51,-105.96,44.9,-0.16,35.124,0,0,0,269.55,0,0,0,0,0,0,0,0,0,0,0,0,0,3,3,6,FLYING
6.22,APPROACH,ILS_TRACK,189.24,160,-29.24,2312.19,-13.4,8.18,11.75,270.27,-1.665,0.2951,-20,270.23,0,16.01,-106.68,44.845,-0.165,34.229,0,0,0,269.55,0,0,0,0,0,0,0,0,0,0,0,0,0,3,3,6.26,FLYING
6.48,APPROACH,ILS_TRACK,188.21,160,-28.21,2308.94,-12.18,8.37,11.63,270.29,-1.622,0.3116,-20,270.21,0,15.56,-107.14,44.789,-0.186,33.537,0,0,0,269.55,0,0,0,0,0,0,0,0,0,0,0,0,0,3,3,6.52,FLYING
6.78,APPROACH,ILS_TRACK,187.03,160,-27.03,2305.63,-10.82,8.85,11.76,270.31,-1.543,0.3229,-20,270.21,0,15.06,-107.26,44.725,-0.186,32.505,0,0,0,269.55,0,0,0,0,0,0,0,0,0,0,0,0,0,3,3,6.82,FLYING
7.04,APPROACH,ILS_TRACK,186.03,160,-26.03,2303.07,-9.56,9.1,11.69,270.32,-1.487,0.3289,-20,270.2,0,14.66,-107.04,44.67,-0.201,31.429,0,0,0,269.55,0,0,0,0,0,0,0,0,0,0,0,0,0,3,3,7.08,FLYING
7.3,APPROACH,ILS_TRACK,185.04,160,-25.04,2300.83,-8.33,9.37,11.66,270.33,-1.397,0.3307,-20,270.18,0,14.29,-106.53,44.615,-0.22,30.402,0,0,0,269.55,0,0,0,0,0,0,0,0,0,0,0,0,0,3,3,7.34,FLYING
7.56,APPROACH,ILS_TRACK,184.08,160,-24.08,2298.81,-7.14,9.27,11.25,270.32,-1.25,0.3269,-20,270.16,0,13.96,-105.78,44.561,-0.238,29.421,0,0,0,269.55,0,0,0,0,0,0,0,0,0,0,0,0,0,3,3,7.6,FLYING
7.86,APPROACH,ILS_TRACK,183.04,160,-23.04,2296.73,-5.74,8.73,10.4,270.29,-1.041,0.3127,-20,270.16,0,13.59,-104.64,44.498,-0.239,28.355,0,0,0,269.55,0,0,0,0,0,0,0,0,0,0,0,0,0,3,3,7.9,FLYING
8.12,APPROACH,ILS_TRACK,182.25,160,-22.25,2295.04,-5.04,7.69,9.16,270.25,-0.877,0.2799,-20,270.16,0,13.29,-103.55,44.444,-0.243,27.717,0,0,0,269.55,0,0,0,0,0,0,0,0,0,0,0,0,0,3,3,8.16,FLYING
8.38,APPROACH,ILS_TRACK,181.6,160,-21.6,2293.57,-4.75,6.97,8.32,270.23,-0.721,0.2287,-20,270.15,0,13.02,-102.29,44.39,-0.254,26.808,0,0,0,269.55,0,0,0,0,0,0,0,0,0,0,0,0,0,3,3,8.42,FLYING
8.64,APPROACH,ILS_TRACK,181,160,-21,2292.32,-4.63,6.85,8.12,270.21,-0.571,0.1754,-20,270.15,0,12.75,-100.82,44.337,-0.252,25.713,0,0,0,269.55,0,0,0,0,0,0,0,0,0,0,0,0,0,3,3,8.68,FLYING
8.94,APPROACH,ILS_TRACK,180.32,160,-20.32,2291.15,-4.44,7.53,8.7,270.2,-0.435,0.1302,-20,270.15,0,12.45,-98.85,44.275,-0.252,24.417,0,0,0,269.55,0,0,0,0,0,0,0,0,0,0,0,0,0,3,3,8.98,FLYING
9.2,APPROACH,ILS_TRACK,179.73,160,-19.73,2290.26,-3.81,8.16,9.2,270.19,-0.344,0.0951,-20,270.16,0,12.2,-96.96,44.222,-0.241,23.276,0,0,0,269.55,0,0,0,0,0,0,0,0,0,0,0,0,0,3,3,9.24,FLYING
9.46,APPROACH,ILS_TRACK,179.12,160,-19.12,2289.4,-3.13,8.25,9.15,270.19,-0.289,0.0703,-20,270.16,0,11.95,-95.05,44.169,-0.245,22.624,0,0,0,269.55,0,0,0,0,0,0,0,0,0,0,0,0,0,3,3,9.5,FLYING
9.72,APPROACH,ILS_TRACK,178.49,160,-18.49,2288.59,-2.66,8.05,8.83,270.18,-0.247,0.0533,-20,270.18,0,11.7,-93.11,44.116,-0.221,21.977,0,0,0,269.55,0,0,0,0,0,0,0,0,0,0,0,0,0,3,3,9.76,FLYING
10.02,APPROACH,ILS_TRACK,177.77,160,-17.77,2287.77,-2.32,7.74,8.41,270.18,-0.258,0.0398,-20,270.17,0,11.42,-90.79,44.055,-0.229,21.031,0,0,0,269.55,0,0,0,0,0,0,0,0,0,0,0,0,0,3,3,10.06,FLYING
10.28,APPROACH,ILS_TRACK,177.12,160,-17.12,2287.21,-2.14,7.82,8.42,270.19,-0.246,0.0336,-20,270.19,0,11.18,-88.65,44.002,-0.214,20.018,0,0,0,269.55,0,0,0,0,0,0,0,0,0,0,0,0,0,3,3,10.32,FLYING
10.54,APPROACH,ILS_TRACK,176.46,160,-16.46,2286.72,-1.91,7.92,8.46,270.19,-0.254,0.0298,-20,270.18,0,10.96,-86.42,43.95,-0.221,19.052,0,0,0,269.55,0,0,0,0,0,0,0,0,0,0,0,0,0,3,3,10.58,FLYING
10.8,APPROACH,ILS_TRACK,175.79,160,-15.79,2286.24,-1.57,7.82,8.28,270.19,-0.24,0.0305,-20,270.2,0,10.72,-84.14,43.898,-0.203,18.255,0,0,0,269.55,0,0,0,0,0,0,0,0,0,0,0,0,0,3,3,10.84,FLYING
11.1,APPROACH,ILS_TRACK,174.99,160,-14.99,2285.76,-1.5,7.73,8.15,270.2,-0.245,0.0336,-20,270.2,0,10.46,-81.52,43.838,-0.203,17.456,0,0,0,269.55,0,0,0,0,0,0,0,0,0,0,0,0,0,3,3,11.14,FLYING
11.36,APPROACH,ILS_TRACK,174.28,160,-14.28,2285.43,-1.34,7.86,8.24,270.2,-0.242,0.0312,-20,270.2,0,10.25,-79.15,43.786,-0.204,16.464,0,0,0,269.55,0,0,0,0,0,0,0,0,0,0,0,0,0,3,3,11.4,FLYING
11.62,APPROACH,ILS_TRACK,173.56,160,-13.56,2285.11,-1.17,7.91,8.26,270.2,-0.232,0.0393,-20,270.21,0,10.03,-76.77,43.734,-0.19,15.688,0,0,0,269.55,0,0,0,0,0,0,0,0,0,0,0,0,0,3,3,11.66,FLYING
11.88,APPROACH,ILS_TRACK,172.83,160,-12.83,2284.8,-1.11,7.83,8.14,270.2,-0.234,0.0477,-20,270.22,0,9.81,-74.4,43.683,-0.183,15.022,0,0,0,269.55,0,0,0,0,0,0,0,0,0,0,0,0,0,3,3,11.92,FLYING
12.18,APPROACH,ILS_TRACK,171.97,160,-11.97,2284.52,-1.06,8.01,8.31,270.21,-0.236,0.0596,-20,270.22,0,9.57,-71.6,43.624,-0.181,14.037,0,0,0,269.55,0,0,0,0,0,0,0,0,0,0,0,0,0,3,3,12.22,FLYING
12.44,APPROACH,ILS_TRACK,171.22,160,-11.22,2284.3,-0.95,8.14,8.42,270.21,-0.234,0.0686,-20,270.22,0,9.37,-69.16,43.573,-0.183,13.223,0,0,0,269.55,0,0,0,0,0,0,0,0,0,0,0,0,0,3,3,12.48,FLYING
12.7,APPROACH,ILS_TRACK,170.46,160,-10.46,2284.08,-0.86,8.21,8.46,270.21,-0.225,0.0768,-20,270.23,0,9.16,-66.72,43.522,-0.167,12.513,0,0,0,269.55,0,0,0,0,0,0,0,0,0,0,0,0,0,3,3,12.74,FLYING
12.96,APPROACH,ILS_TRACK,169.7,160,-9.7,2283.88,-0.82,8.28,8.51,270.22,-0.227,0.084,-20,270.24,0,8.96,-64.28,43.471,-0.165,11.782,0,0,0,269.55,0,0,0,0,0,0,0,0,0,0,0,0,0,3,3,13,FLYING
13.26,APPROACH,ILS_TRACK,168.83,160,-8.83,2283.67,-0.75,8.39,8.61,270.22,-0.225,0.0901,-20,270.24,0,8.74,-61.45,43.413,-0.164,10.879,0,0,0,269.55,0,0,0,0,0,0,0,0,0,0,0,0,0,3,3,13.3,FLYING
13.52,APPROACH,ILS_TRACK,168.08,160,-8.08,2283.51,-0.72,8.48,8.69,270.22,-0.222,0.094,-20,270.24,0,8.55,-58.99,43.363,-0.16,10.141,0,0,0,269.55,0,0,0,0,0,0,0,0,0,0,0,0,0,3,3,13.56,FLYING
13.78,APPROACH,ILS_TRACK,167.32,160,-7.32,2283.36,-0.67,8.58,8.78,270.22,-0.218,0.1,-20,270.26,0,8.35,-56.53,43.313,-0.141,9.385,0,0,0,269.55,0,0,0,0,0,0,0,0,0,0,0,0,0,3,3,13.82,FLYING
14.04,APPROACH,ILS_TRACK,166.58,160,-6.58,2283.22,-0.63,8.69,8.87,270.23,-0.224,0.1389,-20,270.25,0,8.16,-54.07,43.263,-0.148,8.644,0,0,0,269.55,0,0,0,0,0,0,0,0,0,0,0,0,0,3,3,14.08,FLYING
14.34,APPROACH,ILS_TRACK,165.72,160,-5.72,2283.07,-0.57,8.8,8.97,270.23,-0.218,0.1824,-20,270.26,0,7.95,-51.23,43.206,-0.139,7.786,0,0,0,269.55,0,0,0,0,0,0,0,0,0,0,0,0,0,3,3,14.38,FLYING
14.6,APPROACH,ILS_TRACK,164.99,160,-4.99,2282.96,-0.53,8.91,9.06,270.23,-0.215,0.2176,-20,270.25,0,7.78,-48.76,43.157,-0.15,7.054,0,0,0,269.55,0,0,0,0,0,0,0,0,0,0,0,0,0,3,3,14.64,FLYING
14.86,APPROACH,ILS_TRACK,164.27,160,-4.27,2282.85,-0.51,9,9.15,270.24,-0.203,0.2495,-20,270.27,0,7.6,-46.31,43.108,-0.129,6.33,0,0,0,269.55,0,0,0,0,0,0,0,0,0,0,0,0,0,3,3,14.9,FLYING
15.12,APPROACH,ILS_TRACK,163.57,160,-3.57,2282.75,-0.47,9.09,9.23,270.24,-0.203,0.2776,-20,270.27,0,7.42,-43.85,43.059,-0.128,5.586,0,0,0,269.55,0,0,0,0,0,0,0,0,0,0,0,0,0,3,3,15.16,FLYING
15.42,APPROACH,ILS_TRACK,162.8,160,-2.8,2282.64,-0.43,9.18,9.31,270.24,-0.203,0.3056,-20,270.28,0,7.22,-41.01,43.003,-0.124,4.753,0,0,0,269.55,0,0,0,0,0,0,0,0,0,0,0,0,0,3,3,15.46,FLYING
15.68,APPROACH,ILS_TRACK,162.16,160,-2.16,2282.55,-0.41,9.26,9.38,270.24,-0.201,0.3235,-20,270.27,0,7.06,-38.56,42.954,-0.127,4.031,0,0,0,269.55,0,0,0,0,0,0,0,0,0,0,0,0,0,3,3,15.72,FLYING
15.94,APPROACH,ILS_TRACK,161.55,160,-1.55,2282.47,-0.39,9.34,9.45,270.25,-0.193,0.337,-20,270.29,0,6.89,-36.12,42.906,-0.115,3.305,0,0,0,269.55,0,0,0,0,0,0,0,0,0,0,0,0,0,3,3,15.98,FLYING
16.2,APPROACH,ILS_TRACK,160.97,160,-0.97,2282.39,-0.33,9.41,9.52,270.25,-0.199,0.3464,-20,270.28,-0.426,6.74,-33.67,42.858,-0.121,2.574,0,0,0,269.55,0,0,0,0,0,0,0,0,0,0,0,0,0,3,3,16.24,FLYING
16.5,APPROACH,ILS_TRACK,160.35,160,-0.35,2282.2,-0.16,8.94,9.04,270.26,-0.264,0.3554,-20,270.3,-1.059,6.55,-30.92,42.803,-0.104,1.941,0,0,0,269.55,0,0,0,0,0,0,0,0,0,0,0,0,0,3,3,16.54,FLYING
16.76,APPROACH,ILS_TRACK,159.89,160,0.11,2281.88,-0.19,7.97,8.11,270.27,-0.39,0.3474,-19.988,270.29,-1.319,6.4,-28.67,42.755,-0.11,1.681,0,0,0,269.55,0,0,0,0,0,0,0,0,0,0,0,0,0,3,3,16.8,FLYING
17.02,APPROACH,ILS_TRACK,159.52,160,0.48,2281.51,-0.63,7.04,7.28,270.28,-0.474,0.3236,-19.877,270.3,-1.61,6.24,-26.54,42.707,-0.096,1.39,0,0,0,269.55,0,0,0,0,0,0,0,0,0,0,0,0,0,3,3,17.06,FLYING
17.28,APPROACH,ILS_TRACK,159.21,160,0.79,2281.12,-1.2,6.54,6.93,270.3,-0.551,0.2944,-19.684,270.3,-2.164,6.09,-24.43,42.66,-0.1,0.836,0,0,0,269.55,0,0,0,0,0,0,0,0,0,0,0,0,0,3,3,17.32,FLYING
17.58,APPROACH,ILS_TRACK,158.94,160,1.06,2280.46,-1.61,5.7,6.26,270.3,-0.588,0.2607,-19.376,270.3,-2.549,5.93,-22.11,42.605,-0.1,0.451,0,0,0,269.55,0,0,0,0,0,0,0,0,0,0,0,0,0,3,3,17.62,FLYING
17.84,APPROACH,ILS_TRACK,158.79,160,1.21,2279.7,-2.36,4.87,5.63,270.3,-0.599,0.2158,-19.067,270.3,-2.374,5.79,-20.33,42.557,-0.097,0.626,0,0,0,269.55,0,0,0,0,0,0,0,0,0,0,0,0,0,3,3,17.88,FLYING
18.1,APPROACH,ILS_TRACK,158.64,160,1.36,2278.86,-3.28,4.54,5.55,270.31,-0.583,0.1783,-18.719,270.29,-2.549,5.67,-18.66,42.51,-0.111,0.451,0,0,0,269.55,0,0,0,0,0,0,0,0,0,0,0,0,0,3,3,18.14,FLYING
18.36,APPROACH,ILS_TRACK,158.49,160,1.51,2277.98,-4.12,4.86,6.1,270.31,-0.53,0.1523,-18.333,270.31,-2.862,5.53,-17.04,42.463,-0.095,0.138,0,0,0,269.55,0,0,0,0,0,0,0,0,0,0,0,0,0,3,3,18.4,FLYING
18.66,APPROACH,ILS_TRACK,158.34,160,1.66,2276.76,-4.63,5.19,6.62,270.32,-0.505,0.1315,-17.841,270.3,-3.026,5.4,-15.31,42.408,-0.1,-0.026,0,0,0,269.55,0,0,0,0,0,0,0,0,0,0,0,0,0,3,3,18.7,FLYING
18.92,APPROACH,ILS_TRACK,158.21,160,1.79,2275.46,-5.09,5.07,6.66,270.32,-0.46,0.116,-17.381,270.3,-2.673,5.28,-14.05,42.361,-0.099,0.327,0,0,0,269.55,0,0,0,0,0,0,0,0,0,0,0,0,0,3,3,18.96,FLYING
19.18,APPROACH,ILS_TRACK,158.05,160,1.95,2274.07,-5.73,5.13,6.89,270.32,-0.405,0.1124,-16.881,270.29,-2.52,5.17,-12.94,42.313,-0.106,0.48,0,0,0,269.55,0,0,0,0,0,0,0,0,0,0,0,0,0,3,3,19.22,FLYING
19.44,APPROACH,ILS_TRACK,157.84,160,2.16,2272.65,-6.29,5.66,7.57,270.32,-0.347,0.1248,-16.327,270.31,-2.693,5.06,-11.88,42.266,-0.089,0.307,0,0,0,269.55,0,0,0,0,0,0,0,0,0,0,0,0,0,3,3,19.48,FLYING
19.74,APPROACH,ILS_TRACK,157.56,160,2.44,2270.9,-6.49,6.24,8.27,270.33,-0.319,0.1493,-15.607,270.3,-2.852,4.93,-10.73,42.212,-0.096,0.148,0,0,0,269.55,0,0,0,0,0,0,0,0,0,0,0,0,0,3,3,19.78,FLYING
20,APPROACH,ILS_TRACK,157.29,160,2.71,2269.19,-6.63,6.2,8.3,270.33,-0.277,0.1784,-14.915,270.3,-2.55,4.84,-9.91,42.165,-0.101,0.45,0,0,0,269.55,0,0,0,0,0,0,0,0,0,0,0,0,0,3,3,20.04,FLYING
20.26,APPROACH,ILS_TRACK,157.02,160,2.98,2267.41,-6.97,6.18,8.36,270.32,-0.221,0.2083,-14.152,270.3,-2.371,4.74,-9.22,42.118,-0.095,0.629,0,0,0,269.55,0,0,0,0,0,0,0,0,0,0,0,0,0,3,3,20.3,FLYING
20.52,APPROACH,ILS_TRACK,156.72,160,3.28,2265.65,-7.35,6.57,8.84,270.32,-0.172,0.243,-13.312,270.31,-2.551,4.64,-8.53,42.071,-0.094,0.449,0,0,0,269.55,0,0,0,0,0,0,0,0,0,0,0,0,0,3,3,20.56,FLYING
20.82,APPROACH,ILS_TRACK,156.35,160,3.65,2263.66,-7.41,7.42,9.74,270.32,-0.131,0.2888,-12.232,270.3,-2.937,4.54,-7.69,42.017,-0.1,0.063,0,0,0,269.55,0,0,0,0,0,0,0,0,0,0,0,0,0,3,3,20.86,FLYING
21.08,APPROACH,ILS_TRACK,155.97,160,4.03,2261.73,-7.1,7.21,9.52,270.32,-0.111,0.3385,-11.2,270.31,-2.741,4.45,-7.08,41.971,-0.09,0.259,0,0,0,269.55,0,0,0,0,0,0,0,0,0,0,0,0,0,3,3,21.12,FLYING
21.34,APPROACH,ILS_TRACK,155.68,160,4.32,2259.65,-7.27,6.47,8.83,270.31,-0.106,0.3734,-10.087,270.31,-2.191,4.36,-6.69,41.924,-0.089,0.809,0,0,0,269.55,0,0,0,0,0,0,0,0,0,0,0,0,0,3,3,21.38,FLYING
21.6,APPROACH,ILS_TRACK,155.45,160,4.55,2257.57,-7.67,6.01,8.46,270.31,-0.091,0.3879,-8.913,270.31,-2.173,4.28,-6.34,41.878,-0.086,0.827,0,0,0,269.55,0,0,0,0,0,0,0,0,0,0,0,0,0,3,3,21.64,FLYING
21.9,APPROACH,ILS_TRACK,155.23,160,4.77,2255.23,-8.19,6.15,8.72,270.31,-0.085,0.401,-7.489,270.31,-2.396,4.18,-5.9,41.824,-0.087,0.604,0,0,0,269.55,0,0,0,0,0,0,0,0,0,0,0,0,0,3,3,21.94,FLYING
22.16,APPROACH,ILS_TRACK,155.04,160,4.96,2253.26,-8.49,6.88,9.53,270.31,-0.076,0.411,-6.207,270.32,-2.696,4.09,-5.47,41.778,-0.083,0.304,0,0,0,269.55,0,0,0,0,0,0,0,0,0,0,0,0,0,3,3,22.2,FLYING
22.42,APPROACH,ILS_TRACK,154.86,160,5.14,2251.23,-8.31,7.42,10.07,270.31,-0.062,0.4236,-4.877,270.32,-2.85,4.01,-5.03,41.731,-0.075,0.15,0,0,0,269.55,0,0,0,0,0,0,0,0,0,0,0,0,0,3,3,22.46,FLYING
22.68,APPROACH,ILS_TRACK,154.68,160,5.32,2249.08,-8.23,7.4,10.04,270.31,-0.063,0.4379,-3.5,270.32,-2.541,3.92,-4.72,41.685,-0.075,0.459,0,0,0,269.55,0,0,0,0,0,0,0,0,0,0,0,0,0,3,3,22.72,FLYING
22.98,APPROACH,ILS_TRACK,154.52,160,5.48,2246.62,-8.39,7.51,10.17,270.31,-0.063,0.4499,-1.863,270.33,-2.498,3.82,-4.41,41.632,-0.072,0.502,0,0,0,269.55,0,0,0,0,0,0,0,0,0,0,0,0,0,3,3,23.02,FLYING
23.24,APPROACH,ILS_TRACK,154.4,160,5.6,2244.52,-8.22,7.72,10.37,270.32,-0.063,0.4589,-0.411,270.33,-2.76,3.75,-4.09,41.586,-0.075,0.24,0,0,0,269.55,0,0,0,0,0,0,0,0,0,0,0,0,0,3,3,23.28,FLYING
23.5,APPROACH,ILS_TRACK,154.3,160,5.7,2242.33,-8.17,7.5,10.14,270.32,-0.062,0.4652,1.069,270.33,-2.626,3.67,-3.84,41.54,-0.071,0.374,0,0,0,269.55,0,0,0,0,0,0,0,0,0,0,0,0,0,3,3,23.54,FLYING
23.76,APPROACH,ILS_TRACK,154.24,160,5.76,2240.19,-8.32,7.49,10.15,270.32,-0.057,0.4636,2.564,270.34,-2.664,3.58,-3.6,41.494,-0.061,0.336,0,0,0,269.55,0,0,0,0,0,0,0,0,0,0,0,0,0,3,3,23.8,FLYING
24.06,APPROACH,ILS_TRACK,154.21,160,5.79,2237.73,-8.17,7.57,10.21,270.32,-0.058,0.4638,4.3,270.34,-2.923,3.49,-3.26,41.441,-0.064,0.077,0,0,0,269.55,0,0,0,0,0,0,0,0,0,0,0,0,0,3,3,24.1,FLYING
24.32,APPROACH,ILS_TRACK,154.21,160,5.79,2235.52,-8.13,7.2,9.84,270.32,-0.076,0.458,5.806,270.34,-2.787,3.42,-3.03,41.395,-0.064,0.213,0,0,0,269.55,0,0,0,0,0,0,0,0,0,0,0,0,0,3,3,24.36,FLYING
24.58,APPROACH,ILS_TRACK,154.27,160,5.73,2233.33,-8.36,7.05,9.73,270.32,-0.076,0.4442,7.299,270.34,-2.774,3.34,-2.83,41.349,-0.06,0.226,0,0,0,269.55,0,0,0,0,0,0,0,0,0,0,0,0,0,3,3,24.62,FLYING
24.84,APPROACH,ILS_TRACK,154.33,160,5.67,2231.23,-8.52,7.41,10.11,270.32,-0.078,0.4327,8.776,270.34,-3.084,3.26,-2.55,41.303,-0.055,-0.084,0,0,0,269.55,0,0,0,0,0,0,0,0,0,0,0,0,0,3,3,24.88,FLYING
25.14,APPROACH,ILS_TRACK,154.38,160,5.62,2228.69,-8.08,7.2,9.86,270.33,-0.123,0.4326,10.463,270.35,-3.193,3.17,-2.23,41.25,-0.05,-0.193,0,0,0,269.55,0,0,0,0,0,0,0,0,0,0,0,0,0,3,3,25.18,FLYING
25.4,APPROACH,ILS_TRACK,154.49,160,5.51,2226.33,-8.18,6.32,9.01,270.34,-0.169,0.4228,11.902,270.36,-2.625,3.08,-2.14,41.203,-0.041,0.375,0,0,0,269.55,0,0,0,0,0,0,0,0,0,0,0,0,0,3,3,25.44,FLYING
25.66,APPROACH,ILS_TRACK,154.69,160,5.31,2223.97,-8.58,5.69,8.46,270.34,-0.148,0.3933,13.292,270.35,-2.51,3.01,-2.1,41.157,-0.05,0.49,0,0,0,269.55,0,0,0,0,0,0,0,0,0,0,0,0,0,3,3,25.7,FLYING
25.92,APPROACH,ILS_TRACK,154.9,160,5.1,2221.66,-9.08,5.66,8.53,270.34,-0.148,0.3635,14.626,270.35,-2.657,2.94,-2.01,41.111,-0.054,0.343,0,0,0,269.55,0,0,0,0,0,0,0,0,0,0,0,0,0,3,3,25.96,FLYING
26.22,APPROACH,ILS_TRACK,155.14,160,4.86,2219.08,-9.48,6.44,9.41,270.34,-0.143,0.342,16.092,270.36,-2.948,2.86,-1.83,41.058,-0.041,0.052,0,0,0,269.55,0,0,0,0,0,0,0,0,0,0,0,0,0,3,3,26.26,FLYING
26.48,APPROACH,ILS_TRACK,155.32,160,4.68,2216.79,-9.2,6.9,9.84,270.34,-0.122,0.3327,17.316,270.35,-3.081,2.79,-1.64,41.012,-0.048,-0.081,0,0,0,269.55,0,0,0,0,0,0,0,0,0,0,0,0,0,3,3,26.52,FLYING
26.74,APPROACH,ILS_TRACK,155.48,160,4.52,2214.37,-9.18,6.78,9.72,270.34,-0.116,0.3299,18.498,270.35,-2.64,2.72,-1.6,40.965,-0.046,0.36,0,0,0,269.55,0,0,0,0,0,0,0,0,0,0,0,0,0,3,3,26.78,FLYING
27,APPROACH,ILS_TRACK,155.66,160,4.34,2211.99,-9.36,6.88,9.84,270.34,-0.126,0.3242,19.634,270.36,-2.59,2.65,-1.58,40.919,-0.037,0.41,0,0,0,269.55,0,0,0,0,0,0,0,0,0,0,0,0,0,3,3,27.04,FLYING
27.3,APPROACH,ILS_TRACK,155.82,160,4.18,2209.33,-9.2,7.38,10.32,270.35,-0.145,0.3177,20,270.36,-2.905,2.58,-1.45,40.866,-0.041,0.095,0,0,0,269.55,0,0,0,0,0,0,0,0,0,0,0,0,0,3,3,27.34,FLYING
27.56,APPROACH,ILS_TRACK,155.91,160,4.09,2206.88,-8.91,6.99,9.88,270.35,-0.122,0.3211,20,270.36,-2.705,2.51,-1.41,40.819,-0.037,0.295,0,0,0,269.55,0,0,0,0,0,0,0,0,0,0,0,0,0,3,3,27.6,FLYING
27.82,APPROACH,ILS_TRACK,156.07,160,3.93,2204.41,-9.07,6.54,9.44,270.35,-0.125,0.3095,20,270.37,-2.42,2.45,-1.46,40.773,-0.035,0.58,0,0,0,269.55,0,0,0,0,0,0,0,0,0,0,0,0,0,3,3,27.86,FLYING
28.08,APPROACH,ILS_TRACK,156.24,160,3.76,2202.03,-9.33,6.57,9.51,270.35,-0.151,0.2946,20,270.36,-2.606,2.39,-1.44,40.726,-0.042,0.394,0,0,0,269.55,0,0,0,0,0,0,0,0,0,0,0,0,0,3,3,28.12,FLYING
28.38,APPROACH,ILS_TRACK,156.39,160,3.61,2199.38,-9.29,7.16,10.1,270.36,-0.144,0.2865,20,270.37,-2.994,2.31,-1.3,40.673,-0.027,0.006,0,0,0,269.55,0,0,0,0,0,0,0,0,0,0,0,0,0,3,3,28.42,FLYING
28.64,APPROACH,ILS_TRACK,156.48,160,3.52,2196.96,-8.98,6.94,9.83,270.36,-0.124,0.2921,20,270.36,-2.877,2.25,-1.22,40.626,-0.036,0.123,0,0,0,269.55,0,0,0,0,0,0,0,0,0,0,0,0,0,3,3,28.68,FLYING
28.9,APPROACH,ILS_TRACK,156.61,160,3.39,2194.51,-9.11,6.6,9.5,270.35,-0.105,0.2875,20,270.36,-2.568,2.2,-1.24,40.58,-0.036,0.432,0,0,0,269.55,0,0,0,0,0,0,0,0,0,0,0,0,0,3,3,28.94,FLYING
29.16,APPROACH,ILS_TRACK,156.73,160,3.27,2192.14,-9.33,6.71,9.64,270.36,-0.11,0.2811,20,270.36,-2.754,2.15,-1.2,40.533,-0.038,0.246,0,0,0,269.55,0,0,0,0,0,0,0,0,0,0,0,0,0,3,3,29.2,FLYING
29.46,APPROACH,ILS_TRACK,156.85,160,3.15,2189.43,-9.11,6.91,9.82,270.36,-0.099,0.2794,20,270.37,-3.009,2.08,-1.08,40.479,-0.027,-0.009,0,0,0,269.55,0,0,0,0,0,0,0,0,0,0,0,0,0,3,3,29.5,FLYING
29.72,APPROACH,ILS_TRACK,156.95,160,3.05,2187,-9.1,6.67,9.57,270.36,-0.097,0.2794,20,270.37,-2.786,2.03,-1.05,40.433,-0.033,0.214,0,0,0,269.55,0,0,0,0,0,0,0,0,0,0,0,0,0,3,3,29.76,FLYING
29.98,APPROACH,ILS_TRACK,157.05,160,2.95,2184.62,-9.28,6.72,9.64,270.36,-0.092,0.2773,20,270.37,-2.817,1.98,-1.01,40.386,-0.026,0.183,0,0,0,269.55,0,0,0,0,0,0,0,0,0,0,0,0,0,3,3,30.02,FLYING
30.24,APPROACH,ILS_TRACK,157.13,160,2.87,2182.26,-9.1,6.82,9.72,270.36,-0.089,0.2796,20,270.37,-3.026,1.93,-0.91,40.339,-0.028,-0.026,0,0,0,269.55,0,0,0,0,0,0,0,0,0,0,0,0,0,3,3,30.28,FLYING
30.54,APPROACH,ILS_TRACK,157.23,160,2.77,2179.47,-9.16,6.63,9.53,270.36,-0.087,0.2802,20,270.37,-2.854,1.87,-0.87,40.285,-0.027,0.146,0,0,0,269.55,0,0,0,0,0,0,0,0,0,0,0,0,0,3,3,30.58,FLYING
30.8,APPROACH,ILS_TRACK,157.3,160,2.7,2177.11,-9.18,6.76,9.67,270.36,-0.078,0.2818,20,270.38,-2.979,1.81,-0.8,40.239,-0.021,0.021,0,0,0,269.55,0,0,0,0,0,0,0,0,0,0,0,0,0,3,3,30.84,FLYING
31.06,APPROACH,ILS_TRACK,157.36,160,2.64,2174.72,-9.17,6.68,9.58,270.36,-0.078,0.285,20,270.37,-2.982,1.77,-0.73,40.192,-0.028,0.018,0,0,0,269.55,0,0,0,0,0,0,0,0,0,0,0,0,0,3,3,31.1,FLYING
31.32,APPROACH,ILS_TRACK,157.43,160,2.57,2172.34,-9.13,6.72,9.62,270.36,-0.071,0.2864,20,270.37,-3.017,1.73,-0.66,40.145,-0.026,-0.017,0,0,0,269.55,0,0,0,0,0,0,0,0,0,0,0,0,0,3,3,31.36,FLYING
31.62,APPROACH,ILS_TRACK,157.5,160,2.5,2169.58,-9.22,6.69,9.6,270.36,-0.071,0.2872,20,270.38,-2.987,1.67,-0.6,40.091,-0.023,0.013,0,0,0,269.55,0,0,0,0,0,0,0,0,0,0,0,0,0,3,3,31.66,FLYING
31.88,APPROACH,ILS_TRACK,157.56,160,2.44,2167.2,-9.11,6.67,9.57,270.36,-0.069,0.289,20,270.38,-3.077,1.62,-0.52,40.044,-0.017,-0.077,0,0,0,269.55,0,0,0,0,0,0,0,0,0,0,0,0,0,3,3,31.92,FLYING
32.14,APPROACH,ILS_TRACK,157.62,160,2.38,2164.78,-9.18,6.53,9.43,270.36,-0.077,0.2884,20,270.38,-2.975,1.58,-0.48,39.998,-0.018,0.025,0,0,0,269.55,0,0,0,0,0,0,0,0,0,0,0,0,0,3,3,32.18,FLYING
32.4,APPROACH,ILS_TRACK,157.68,160,2.32,2162.42,-9.21,6.68,9.6,270.36,-0.073,0.2886,20,270.38,-3.1,1.53,-0.41,39.951,-0.019,-0.1,0,0,0,269.55,0,0,0,0,0,0,0,0,0,0,0,0,0,3,3,32.44,FLYING
32.7,APPROACH,ILS_TRACK,157.73,160,2.27,2159.62,-9.16,6.48,9.38,270.36,-0.078,0.2904,20,270.38,-3.061,1.49,-0.35,39.897,-0.022,-0.061,0,0,0,269.55,0,0,0,0,0,0,0,0,0,0,0,0,0,3,3,32.74,FLYING
32.96,APPROACH,ILS_TRACK,157.79,160,2.21,2157.24,-9.32,6.55,9.48,270.37,-0.077,0.288,20,270.39,-3.033,1.44,-0.31,39.85,-0.015,-0.033,0,0,0,269.55,0,0,0,0,0,0,0,0,0,0,0,0,0,3,3,33,FLYING
33.22,APPROACH,ILS_TRACK,157.84,160,2.16,2154.85,-9.16,6.59,9.51,270.37,-0.08,0.2884,20,270.39,-3.189,1.4,-0.22,39.803,-0.013,-0.189,0,0,0,269.55,0,0,0,0,0,0,0,0,0,0,0,0,0,3,3,33.26,FLYING
33.48,APPROACH,ILS_TRACK,157.9,160,2.1,2152.38,-9.18,6.28,9.2,270.37,-0.095,0.2865,20,270.39,-2.965,1.36,-0.22,39.756,-0.013,0.035,0,0,0,269.55,0,0,0,0,0,0,0,0,0,0,0,0,0,3,3,33.52,FLYING
33.78,APPROACH,ILS_TRACK,157.98,160,2.02,2149.59,-9.45,6.28,9.24,270.37,-0.08,0.2807,20,270.39,-2.956,1.31,-0.21,39.702,-0.015,0.044,0,0,0,269.55,0,0,0,0,0,0,0,0,0,0,0,0,0,3,3,33.82,FLYING
34.04,APPROACH,ILS_TRACK,158.03,160,1.97,2147.21,-9.35,6.55,9.51,270.37,-0.072,0.2805,20,270.38,-3.215,1.27,-0.13,39.656,-0.016,-0.215,0,0,0,269.55,0,0,0,0,0,0,0,0,0,0,0,0,0,3,3,34.08,FLYING
34.3,APPROACH,ILS_TRACK,158.08,160,1.92,2144.73,-9.27,6.28,9.23,270.37,-0.081,0.2813,20,270.4,-2.991,1.23,-0.12,39.609,-0.005,0.009,0,0,0,269.55,0,0,0,0,0,0,0,0,0,0,0,0,0,3,3,34.34,FLYING
34.56,APPROACH,ILS_TRACK,158.15,160,1.85,2142.25,-9.47,6.15,9.13,270.37,-0.079,0.2762,20,270.39,-2.841,1.19,-0.15,39.562,-0.013,0.159,0,0,0,269.55,0,0,0,0,0,0,0,0,0,0,0,0,0,3,3,34.6,FLYING
34.86,APPROACH,ILS_TRACK,158.2,160,1.8,2139.49,-9.55,6.55,9.56,270.37,-0.076,0.2757,20,270.38,-3.093,1.15,-0.11,39.508,-0.015,-0.093,0,0,0,269.55,0,0,0,0,0,0,0,0,0,0,0,0,0,3,3,34.9,FLYING
35.12,APPROACH,ILS_TRACK,158.22,160,1.78,2137.02,-9.4,6.48,9.46,270.37,-0.072,0.2809,20,270.39,-3.062,1.12,-0.08,39.461,-0.012,-0.062,0,0,0,269.55,0,0,0,0,0,0,0,0,0,0,0,0,0,3,3,35.16,FLYING
35.38,APPROACH,ILS_TRACK,158.26,160,1.74,2134.56,-9.54,6.49,9.49,270.37,-0.07,0.2805,20,270.39,-2.898,1.08,-0.1,39.414,-0.005,0.102,0,0,0,269.55,0,0,0,0,0,0,0,0,0,0,0,0,0,3,3,35.42,FLYING
35.64,APPROACH,ILS_TRACK,158.29,160,1.71,2132.12,-9.4,6.58,9.56,270.38,-0.069,0.2828,20,270.39,-3.059,1.05,-0.08,39.367,-0.011,-0.059,0,0,0,269.55,0,0,0,0,0,0,0,0,0,0,0,0,0,3,3,35.68,FLYING
35.94,APPROACH,ILS_TRACK,158.33,160,1.67,2129.27,-9.46,6.46,9.44,270.38,-0.067,0.2829,20,270.39,-2.912,1.01,-0.1,39.313,-0.005,0.088,0,0,0,269.55,0,0,0,0,0,0,0,0,0,0,0,0,0,3,3,35.98,FLYING
36.2,APPROACH,ILS_TRACK,158.35,160,1.65,2126.84,-9.4,6.61,9.59,270.38,-0.066,0.2846,20,270.39,-3.054,0.97,-0.07,39.266,-0.006,-0.054,0,0,0,269.55,0,0,0,0,0,0,0,0,0,0,0,0,0,3,3,36.24,FLYING
36.46,APPROACH,ILS_TRACK,158.38,160,1.62,2124.37,-9.39,6.46,9.43,270.38,-0.065,0.2873,20,270.4,-2.96,0.94,-0.08,39.219,-0.005,0.04,0,0,0,269.55,0,0,0,0,0,0,0,0,0,0,0,0,0,3,3,36.5,FLYING
36.72,APPROACH,ILS_TRACK,158.41,160,1.59,2121.94,-9.45,6.56,9.54,270.38,-0.059,0.2864,20,270.39,-2.987,0.92,-0.08,39.172,-0.014,0.013,0,0,0,269.55,0,0,0,0,0,0,0,0,0,0,0,0,0,3,3,36.76,FLYING
37.02,APPROACH,ILS_TRACK,158.44,160,1.56,2119.11,-9.38,6.52,9.48,270.38,-0.052,0.2865,20,270.4,-3.041,0.88,-0.05,39.118,-0.002,-0.041,0,0,0,269.55,0,0,0,0,0,0,0,0,0,0,0,0,0,3,3,37.06,FLYING
37.28,APPROACH,ILS_TRACK,158.47,160,1.53,2116.67,-9.37,6.51,9.47,270.38,-0.052,0.2845,20,270.39,-3.024,0.85,-0.04,39.071,-0.006,-0.024,0,0,0,269.55,0,0,0,0,0,0,0,0,0,0,0,0,0,3,3,37.32,FLYING
37.54,APPROACH,ILS_TRACK,158.51,160,1.49,2114.22,-9.36,6.5,9.46,270.38,-0.052,0.2826,20,270.39,-3.044,0.82,-0.03,39.025,-0.007,-0.044,0,0,0,269.55,0,0,0,0,0,0,0,0,0,0,0,0,0,3,3,37.58,FLYING
37.8,APPROACH,ILS_TRACK,158.54,160,1.46,2111.78,-9.36,6.5,9.46,270.38,-0.053,0.2805,20,270.4,-3.046,0.79,-0.01,38.978,0.001,-0.046,0,0,0,269.55,0,0,0,0,0,0,0,0,0,0,0,0,0,3,3,37.84,FLYING
38.1,APPROACH,ILS_TRACK,158.58,160,1.42,2108.97,-9.34,6.48,9.44,270.38,-0.055,0.2781,20,270.4,-3.06,0.75,0.01,38.924,-0.003,-0.06,0,0,0,269.55,0,0,0,0,0,0,0,0,0,0,0,0,0,3,3,38.14,FLYING
38.36,APPROACH,ILS_TRACK,158.62,160,1.38,2106.53,-9.39,6.47,9.42,270.38,-0.056,0.2762,20,270.4,-3.061,0.73,0.03,38.877,-0.005,-0.061,0,0,0,269.55,0,0,0,0,0,0,0,0,0,0,0,0,0,3,3,38.4,FLYING
38.62,APPROACH,ILS_TRACK,158.65,160,1.35,2104.09,-9.34,6.44,9.39,270.38,-0.057,0.2749,20,270.41,-3.092,0.69,0.05,38.83,0.007,-0.092,0,0,0,269.55,0,0,0,0,0,0,0,0,0,0,0,0,0,3,3,38.66,FLYING
38.88,APPROACH,ILS_TRACK,158.69,160,1.31,2101.66,-9.39,6.44,9.39,270.38,-0.063,0.273,20,270.4,-3.073,0.67,0.07,38.783,-0.002,-0.073,0,0,0,269.55,0,0,0,0,0,0,0,0,0,0,0,0,0,3,3,38.92,FLYING
39.18,APPROACH,ILS_TRACK,158.72,160,1.28,2098.85,-9.32,6.43,9.38,270.38,-0.062,0.2719,20,270.4,-3.117,0.64,0.1,38.729,-0.002,-0.117,0,0,0,269.55,0,0,0,0,0,0,0,0,0,0,0,0,0,3,3,39.22,FLYING
39.44,APPROACH,ILS_TRACK,158.75,160,1.25,2096.4,-9.4,6.36,9.31,270.38,-0.064,0.2708,20,270.4,-3.051,0.61,0.11,38.682,-0.002,-0.051,0,0,0,269.55,0,0,0,0,0,0,0,0,0,0,0,0,0,3,3,39.48,FLYING
39.7,APPROACH,ILS_TRACK,158.77,160,1.23,2093.98,-9.33,6.45,9.4,270.39,-0.064,0.2719,20,270.4,-3.162,0.59,0.15,38.635,0.001,-0.162,0,0,0,269.55,0,0,0,0,0,0,0,0,0,0,0,0,0,3,3,39.74,FLYING
39.96,APPROACH,ILS_TRACK,158.8,160,1.2,2091.49,-9.34,6.22,9.17,270.39,-0.071,0.2727,20,270.41,-3.023,0.56,0.14,38.588,0.007,-0.023,0,0,0,269.55,0,0,0,0,0,0,0,0,0,0,0,0,0,3,3,40,FLYING
40.26,APPROACH,ILS_TRACK,158.83,160,1.17,2088.69,-9.53,6.32,9.31,270.39,-0.065,0.2712,20,270.39,-3.037,0.54,0.14,38.534,-0.007,-0.037,0,0,0,269.55,0,0,0,0,0,0,0,0,0,0,0,0,0,3,3,40.3,FLYING
40.52,APPROACH,ILS_TRACK,158.84,160,1.16,2086.26,-9.38,6.43,9.4,270.39,-0.058,0.2734,20,270.41,-3.207,0.51,0.19,38.487,0.005,-0.207,0,0,0,269.55,0,0,0,0,0,0,0,0,0,0,0,0,0,3,3,40.56,FLYING
40.78,APPROACH,ILS_TRACK,158.86,160,1.14,2083.75,-9.37,6.17,9.14,270.39,-0.069,0.2738,20,270.4,-2.982,0.49,0.17,38.44,0.001,0.018,0,0,0,269.55,0,0,0,0,0,0,0,0,0,0,0,0,0,3,3,40.82,FLYING
41.04,APPROACH,ILS_TRACK,158.89,160,1.11,2081.29,-9.58,6.16,9.16,270.39,-0.063,0.2716,20,270.41,-2.939,0.47,0.13,38.393,0.006,0.061,0,0,0,269.55,0,0,0,0,0,0,0,0,0,0,0,0,0,3,3,41.08,FLYING
41.34,APPROACH,ILS_TRACK,158.9,160,1.1,2078.49,-9.47,6.43,9.43,270.39,-0.061,0.2738,20,270.4,-3.172,0.45,0.18,38.339,0.001,-0.172,0,0,0,269.55,0,0,0,0,0,0,0,0,0,0,0,0,0,3,3,41.38,FLYING
41.6,APPROACH,ILS_TRACK,158.91,160,1.09,2075.98,-9.44,6.23,9.22,270.39,-0.062,0.2755,20,270.4,-2.968,0.42,0.15,38.292,0.002,0.032,0,0,0,269.55,0,0,0,0,0,0,0,0,0,0,0,0,0,3,3,41.64,FLYING
41.86,APPROACH,ILS_TRACK,158.93,160,1.07,2073.52,-9.63,6.27,9.28,270.39,-0.059,0.2743,20,270.41,-2.922,0.4,0.12,38.245,0.006,0.078,0,0,0,269.55,0,0,0,0,0,0,0,0,0,0,0,0,0,3,3,41.9,FLYING
42.12,APPROACH,ILS_TRACK,158.93,160,1.07,2071.08,-9.49,6.44,9.45,270.39,-0.058,0.2771,20,270.4,-3.124,0.39,0.14,38.198,0.001,-0.124,0,0,0,269.55,0,0,0,0,0,0,0,0,0,0,0,0,0,3,3,42.16,FLYING
42.42,APPROACH,ILS_TRACK,158.95,160,1.05,2068.19,-9.51,6.28,9.28,270.39,-0.058,0.2778,20,270.41,-2.926,0.36,0.1,38.144,0.007,0.074,0,0,0,269.55,0,0,0,0,0,0,0,0,0,0,0,0,0,3,3,42.46,FLYING
42.68,APPROACH,ILS_TRACK,158.95,160,1.05,2065.74,-9.55,6.42,9.44,270.39,-0.055,0.2783,20,270.4,-2.995,0.34,0.09,38.097,0.001,0.005,0,0,0,269.55,0,0,0,0,0,0,0,0,0,0,0,0,0,3,3,42.72,FLYING
42.94,APPROACH,ILS_TRACK,158.96,160,1.04,2063.27,-9.52,6.41,9.41,270.39,-0.047,0.2799,20,270.4,-3.013,0.33,0.09,38.05,-0.004,-0.013,0,0,0,269.55,0,0,0,0,0,0,0,0,0,0,0,0,0,3,3,42.98,FLYING
43.2,APPROACH,ILS_TRACK,158.97,160,1.03,2060.8,-9.48,6.41,9.4,270.39,-0.043,0.2797,20,270.41,-2.992,0.31,0.08,38.003,0.007,0.008,0,0,0,269.55,0,0,0,0,0,0,0,0,0,0,0,0,0,3,3,43.24,FLYING
43.5,APPROACH,ILS_TRACK,158.99,160,1.01,2057.96,-9.47,6.43,9.42,270.39,-0.041,0.279,20,270.41,-2.992,0.29,0.07,37.949,0.01,0.008,0,0,0,269.55,0,0,0,0,0,0,0,0,0,0,0,0,0,3,3,43.54,FLYING
43.76,APPROACH,ILS_TRACK,159,160,1,2055.5,-9.45,6.43,9.42,270.39,-0.039,0.2781,20,270.4,-3.005,0.27,0.06,37.902,0.005,-0.005,0,0,0,269.55,0,0,0,0,0,0,0,0,0,0,0,0,0,3,3,43.8,FLYING
44.02,APPROACH,ILS_TRACK,159.01,160,0.99,2053.04,-9.44,6.42,9.4,270.39,-0.036,0.2773,20,270.4,-3.009,0.26,0.06,37.856,-0.002,-0.009,0,0,0,269.55,0,0,0,0,0,0,0,0,0,0,0,0,0,3,3,44.06,FLYING
44.28,APPROACH,ILS_TRACK,159.03,160,0.97,2050.58,-9.43,6.42,9.39,270.39,-0.034,0.2764,20,270.41,-3.017,0.25,0.06,37.809,0.008,-0.017,0,0,0,269.55,0,0,0,0,0,0,0,0,0,0,0,0,0,3,3,44.32,FLYING
44.58,APPROACH,ILS_TRACK,159.04,160,0.96,2047.75,-9.4,6.42,9.39,270.39,-0.033,0.2755,20,270.41,-3.035,0.23,0.07,37.755,0.007,-0.035,0,0,0,269.55,0,0,0,0,0,0,0,0,0,0,0,0,0,3,3,44.62,FLYING
44.84,APPROACH,ILS_TRACK,159.06,160,0.94,2045.3,-9.4,6.41,9.38,270.39,-0.032,0.2746,20,270.41,-3.035,0.2,0.07,37.708,0.013,-0.035,0,0,0,269.55,0,0,0,0,0,0,0,0,0,0,0,0,0,3,3,44.88,FLYING
45.1,APPROACH,ILS_TRACK,159.07,160,0.93,2042.86,-9.36,6.41,9.38,270.39,-0.033,0.2739,20,270.4,-3.069,0.2,0.08,37.661,0,-0.069,0,0,0,269.55,0,0,0,0,0,0,0,0,0,0,0,0,0,3,3,45.14,FLYING
45.36,APPROACH,ILS_TRACK,159.08,160,0.92,2040.41,-9.44,6.37,9.34,270.39,-0.033,0.2734,20,270.4,-3.022,0.19,0.08,37.614,-0.001,-0.022,0,0,0,269.55,0,0,0,0,0,0,0,0,0,0,0,0,0,3,3,45.4,FLYING
45.66,APPROACH,ILS_TRACK,159.09,160,0.91,2037.6,-9.34,6.4,9.37,270.39,-0.033,0.2734,20,270.41,-3.108,0.17,0.11,37.56,0.008,-0.108,0,0,0,269.55,0,0,0,0,0,0,0,0,0,0,0,0,0,3,3,45.7,FLYING
45.92,APPROACH,ILS_TRACK,159.11,160,0.89,2035.13,-9.39,6.28,9.25,270.39,-0.037,0.2722,20,270.41,-3.014,0.16,0.11,37.513,0.007,-0.014,0,0,0,269.55,0,0,0,0,0,0,0,0,0,0,0,0,0,3,3,45.96,FLYING
46.18,APPROACH,ILS_TRACK,159.12,160,0.88,2032.71,-9.38,6.39,9.36,270.39,-0.034,0.2722,20,270.4,-3.109,0.15,0.13,37.466,0.005,-0.109,0,0,0,269.55,0,0,0,0,0,0,0,0,0,0,0,0,0,3,3,46.22,FLYING
46.44,APPROACH,ILS_TRACK,159.13,160,0.87,2030.25,-9.4,6.29,9.26,270.39,-0.036,0.2722,20,270.41,-3.06,0.13,0.13,37.419,0.01,-0.06,0,0,0,269.55,0,0,0,0,0,0,0,0,0,0,0,0,0,3,3,46.48,FLYING
46.74,APPROACH,ILS_TRACK,159.14,160,0.86,2027.45,-9.35,6.37,9.34,270.4,-0.035,0.2722,20,270.41,-3.119,0.11,0.16,37.365,0.009,-0.119,0,0,0,269.55,0,0,0,0,0,0,0,0,0,0,0,0,0,3,3,46.78,FLYING
47,APPROACH,ILS_TRACK,159.15,160,0.85,2024.98,-9.4,6.25,9.22,270.4,-0.04,0.2716,20,270.41,-3.027,0.1,0.15,37.318,0.011,-0.027,0,0,0,269.55,0,0,0,0,0,0,0,0,0,0,0,0,0,3,3,47.04,FLYING
47.26,APPROACH,ILS_TRACK,159.16,160,0.84,2022.56,-9.39,6.37,9.35,270.4,-0.038,0.2716,20,270.4,-3.117,0.09,0.18,37.271,0,-0.117,0,0,0,269.55,0,0,0,0,0,0,0,0,0,0,0,0,0,3,3,47.3,FLYING
47.52,APPROACH,ILS_TRACK,159.17,160,0.83,2020.09,-9.4,6.26,9.23,270.4,-0.038,0.2721,20,270.41,-3.065,0.08,0.18,37.225,0.012,-0.065,0,0,0,269.55,0,0,0,0,0,0,0,0,0,0,0,0,0,3,3,47.56,FLYING
47.82,APPROACH,ILS_TRACK,159.18,160,0.82,2017.29,-9.39,6.36,9.33,270.4,-0.038,0.2718,20,270.41,-3.107,0.06,0.2,37.171,0.009,-0.107,0,0,0,269.55,0,0,0,0,0,0,0,0,0,0,0,0,0,3,3,47.86,FLYING
48.08,APPROACH,ILS_TRACK,159.19,160,0.81,2014.83,-9.44,6.31,9.28,270.4,-0.039,0.2716,20,270.41,-3.064,0.06,0.2,37.124,0.007,-0.064,0,0,0,269.55,0,0,0,0,0,0,0,0,0,0,0,0,0,3,3,48.12,FLYING
48.34,APPROACH,ILS_TRACK,159.19,160,0.81,2012.39,-9.36,6.35,9.32,270.4,-0.037,0.2719,20,270.4,-3.124,0.05,0.22,37.077,0.005,-0.124,0,0,0,269.55,0,0,0,0,0,0,0,0,0,0,0,0,0,3,3,48.38,FLYING
48.6,APPROACH,ILS_TRACK,159.2,160,0.8,2009.93,-9.43,6.26,9.23,270.4,-0.037,0.2711,20,270.41,-3.03,0.03,0.21,37.03,0.014,-0.03,0,0,0,269.55,0,0,0,0,0,0,0,0,0,0,0,0,0,3,3,48.64,FLYING
48.9,APPROACH,ILS_TRACK,159.2,160,0.8,2007.13,-9.37,6.37,9.34,270.4,-0.036,0.272,20,270.41,-3.139,0.03,0.23,36.976,0.005,-0.139,0,0,0,269.55,0,0,0,0,0,0,0,0,0,0,0,0,0,3,3,48.94,FLYING
49.16,APPROACH,ILS_TRACK,159.21,160,0.79,2004.65,-9.4,6.21,9.18,270.4,-0.037,0.2719,20,270.41,-3.022,0.02,0.22,36.929,0.007,-0.022,0,0,0,269.55,0,0,0,0,0,0,0,0,0,0,0,0,0,3,3,49.2,FLYING
49.42,APPROACH,ILS_TRACK,159.22,160,0.78,2002.22,-9.47,6.33,9.32,270.4,-0.035,0.2716,20,270.41,-3.076,0.01,0.22,36.882,0.007,-0.076,0,0,0,269.55,0,0,0,0,0,0,0,0,0,0,0,0,0,3,3,49.46,FLYING
49.68,APPROACH,ILS_TRACK,159.22,160,0.78,1999.77,-9.39,6.33,9.31,270.4,-0.035,0.2726,20,270.41,-3.132,0,0.24,36.836,0.014,-0.132,0,0,0,269.55,0,0,0,0,0,0,0,0,0,0,0,0,0,3,3,49.72,FLYING
49.98,APPROACH,ILS_TRACK,159.23,160,0.77,1996.93,-9.48,6.28,9.27,270.4,-0.037,0.2713,20,270.41,-3.028,-0.01,0.23,36.782,0.007,-0.028,0,0,0,269.55,0,0,0,0,0,0,0,0,0,0,0,0,0,3,3,50.02,FLYING
50.24,APPROACH,ILS_TRACK,159.23,160,0.77,1994.5,-9.37,6.35,9.33,270.4,-0.034,0.2729,20,270.41,-3.147,-0.02,0.25,36.735,0.006,-0.147,0,0,0,269.55,0,0,0,0,0,0,0,0,0,0,0,0,0,3,3,50.28,FLYING
50.5,APPROACH,ILS_TRACK,159.24,160,0.76,1992.02,-9.42,6.2,9.18,270.4,-0.034,0.2723,20,270.41,-2.996,-0.03,0.23,36.688,0.012,0.004,0,0,0,269.55,0,0,0,0,0,0,0,0,0,0,0,0,0,3,3,50.54,FLYING
50.76,APPROACH,ILS_TRACK,159.24,160,0.76,1989.59,-9.45,6.33,9.32,270.4,-0.032,0.2721,20,270.41,-3.086,-0.04,0.23,36.641,0.008,-0.086,0,0,0,269.55,0,0,0,0,0,0,0,0,0,0,0,0,0,3,3,50.8,FLYING
51.06,APPROACH,ILS_TRACK,159.25,160,0.75,1986.76,-9.41,6.32,9.31,270.4,-0.033,0.2723,20,270.41,-3.1,-0.04,0.24,36.587,0.006,-0.1,0,0,0,269.55,0,0,0,0,0,0,0,0,0,0,0,0,0,3,3,51.1,FLYING
51.32,APPROACH,ILS_TRACK,159.26,160,0.74,1984.3,-9.45,6.31,9.29,270.4,-0.032,0.2713,20,270.41,-3.052,-0.05,0.24,36.541,0.013,-0.052,0,0,0,269.55,0,0,0,0,0,0,0,0,0,0,0,0,0,3,3,51.36,FLYING
51.58,APPROACH,ILS_TRACK,159.26,160,0.74,1981.86,-9.38,6.34,9.32,270.4,-0.031,0.271,20,270.4,-3.105,-0.05,0.25,36.494,0,-0.105,0,0,0,269.55,0,0,0,0,0,0,0,0,0,0,0,0,0,3,3,51.62,FLYING
51.84,APPROACH,ILS_TRACK,159.27,160,0.73,1979.4,-9.45,6.28,9.27,270.4,-0.029,0.2703,20,270.4,-3.033,-0.05,0.23,36.447,0.003,-0.033,0,0,0,269.55,0,0,0,0,0,0,0,0,0,0,0,0,0,3,3,51.88,FLYING
52.14,APPROACH,ILS_TRACK,159.28,160,0.72,1976.58,-9.36,6.33,9.31,270.4,-0.026,0.2708,20,270.41,-3.119,-0.07,0.25,36.393,0.014,-0.119,0,0,0,269.55,0,0,0,0,0,0,0,0,0,0,0,0,0,3,3,52.18,FLYING
52.4,APPROACH,ILS_TRACK,159.28,160,0.72,1974.11,-9.43,6.22,9.2,270.4,-0.028,0.2699,20,270.41,-3.013,-0.07,0.23,36.346,0.009,-0.013,0,0,0,269.55,0,0,0,0,0,0,0,0,0,0,0,0,0,3,3,52.44,FLYING
52.66,APPROACH,ILS_TRACK,159.28,160,0.72,1971.69,-9.4,6.33,9.32,270.4,-0.027,0.2705,20,270.41,-3.12,-0.08,0.25,36.299,0.008,-0.12,0,0,0,269.55,0,0,0,0,0,0,0,0,0,0,0,0,0,3,3,52.7,FLYING
52.92,APPROACH,ILS_TRACK,159.29,160,0.71,1969.22,-9.42,6.24,9.22,270.4,-0.027,0.2707,20,270.41,-3.053,-0.09,0.24,36.253,0.012,-0.053,0,0,0,269.55,0,0,0,0,0,0,0,0,0,0,0,0,0,3,3,52.96,FLYING
53.22,APPROACH,ILS_TRACK,159.29,160,0.71,1966.41,-9.38,6.33,9.31,270.4,-0.026,0.2709,20,270.4,-3.111,-0.09,0.25,36.199,0.003,-0.111,0,0,0,269.55,0,0,0,0,0,0,0,0,0,0,0,0,0,3,3,53.26,FLYING
53.48,APPROACH,ILS_TRACK,159.3,160,0.7,1963.95,-9.43,6.24,9.23,270.4,-0.026,0.2706,20,270.41,-3.036,-0.1,0.24,36.152,0.014,-0.036,0,0,0,269.55,0,0,0,0,0,0,0,0,0,0,0,0,0,3,3,53.52,FLYING
53.74,APPROACH,ILS_TRACK,159.3,160,0.7,1961.52,-9.39,6.34,9.32,270.4,-0.025,0.2711,20,270.4,-3.115,-0.1,0.25,36.105,0.003,-0.115,0,0,0,269.55,0,0,0,0,0,0,0,0,0,0,0,0,0,3,3,53.78,FLYING
54,APPROACH,ILS_TRACK,159.3,160,0.7,1959.05,-9.42,6.24,9.22,270.4,-0.025,0.2711,20,270.41,-3.04,-0.1,0.24,36.059,0.011,-0.04,0,0,0,269.55,0,0,0,0,0,0,0,0,0,0,0,0,0,3,3,54.04,FLYING
54.3,APPROACH,ILS_TRACK,159.3,160,0.7,1956.24,-9.39,6.33,9.32,270.4,-0.024,0.2715,20,270.4,-3.109,-0.1,0.26,36.005,0.004,-0.109,0,0,0,269.55,0,0,0,0,0,0,0,0,0,0,0,0,0,3,3,54.34,FLYING
54.56,APPROACH,ILS_TRACK,159.31,160,0.69,1953.78,-9.43,6.26,9.24,270.4,-0.024,0.271,20,270.41,-3.041,-0.11,0.25,35.958,0.008,-0.041,0,0,0,269.55,0,0,0,0,0,0,0,0,0,0,0,0,0,3,3,54.6,FLYING
54.82,APPROACH,ILS_TRACK,159.31,160,0.69,1951.35,-9.37,6.33,9.31,270.4,-0.022,0.2715,20,270.41,-3.117,-0.11,0.26,35.911,0.012,-0.117,0,0,0,269.55,0,0,0,0,0,0,0,0,0,0,0,0,0,3,3,54.86,FLYING
55.08,APPROACH,ILS_TRACK,159.32,160,0.68,1948.88,-9.42,6.23,9.22,270.4,-0.024,0.271,20,270.41,-3.029,-0.12,0.24,35.865,0.01,-0.029,0,0,0,269.55,0,0,0,0,0,0,0,0,0,0,0,0,0,3,3,55.12,FLYING
55.38,APPROACH,ILS_TRACK,159.32,160,0.68,1946.08,-9.36,6.33,9.31,270.4,-0.021,0.2714,20,270.41,-3.121,-0.12,0.26,35.811,0.005,-0.121,0,0,0,269.55,0,0,0,0,0,0,0,0,0,0,0,0,0,3,3,55.42,FLYING
55.64,APPROACH,ILS_TRACK,159.32,160,0.68,1943.61,-9.42,6.21,9.2,270.4,-0.022,0.2707,20,270.41,-3.021,-0.13,0.24,35.764,0.011,-0.021,0,0,0,269.55,0,0,0,0,0,0,0,0,0,0,0,0,0,3,3,55.68,FLYING
55.9,APPROACH,ILS_TRACK,159.32,160,0.68,1941.18,-9.39,6.32,9.31,270.4,-0.02,0.2709,20,270.4,-3.11,-0.12,0.25,35.717,0.003,-0.11,0,0,0,269.55,0,0,0,0,0,0,0,0,0,0,0,0,0,3,3,55.94,FLYING
56.16,APPROACH,ILS_TRACK,159.33,160,0.67,1938.72,-9.42,6.25,9.24,270.4,-0.02,0.2709,20,270.41,-3.056,-0.13,0.25,35.671,0.01,-0.056,0,0,0,269.55,0,0,0,0,0,0,0,0,0,0,0,0,0,3,3,56.2,FLYING
56.46,APPROACH,ILS_TRACK,159.32,160,0.68,1935.92,-9.34,6.34,9.32,270.4,-0.02,0.2718,20,270.41,-3.132,-0.13,0.27,35.617,0.007,-0.132,0,0,0,269.55,0,0,0,0,0,0,0,0,0,0,0,0,0,3,3,56.5,FLYING
56.72,APPROACH,ILS_TRACK,159.33,160,0.67,1933.44,-9.4,6.19,9.17,270.4,-0.02,0.272,20,270.41,-2.995,-0.13,0.24,35.57,0.006,0.005,0,0,0,269.55,0,0,0,0,0,0,0,0,0,0,0,0,0,3,3,56.76,FLYING
56.98,APPROACH,ILS_TRACK,159.33,160,0.67,1931.02,-9.41,6.31,9.3,270.41,-0.019,0.2718,20,270.41,-3.09,-0.14,0.25,35.523,0.012,-0.09,0,0,0,269.55,0,0,0,0,0,0,0,0,0,0,0,0,0,3,3,57.02,FLYING
57.24,APPROACH,ILS_TRACK,159.33,160,0.67,1928.57,-9.4,6.31,9.29,270.41,-0.02,0.2719,20,270.4,-3.096,-0.14,0.25,35.477,0.005,-0.096,0,0,0,269.55,0,0,0,0,0,0,0,0,0,0,0,0,0,3,3,57.28,FLYING
57.54,APPROACH,ILS_TRACK,159.34,160,0.66,1925.75,-9.42,6.31,9.29,270.41,-0.02,0.2707,20,270.41,-3.073,-0.14,0.25,35.423,0.009,-0.073,0,0,0,269.55,0,0,0,0,0,0,0,0,0,0,0,0,0,3,3,57.58,FLYING
57.8,APPROACH,ILS_TRACK,159.34,160,0.66,1923.31,-9.39,6.3,9.28,270.41,-0.019,0.2697,20,270.41,-3.089,-0.14,0.26,35.376,0.009,-0.089,0,0,0,269.55,0,0,0,0,0,0,0,0,0,0,0,0,0,3,3,57.84,FLYING
58.06,APPROACH,ILS_TRACK,159.35,160,0.65,1920.87,-9.4,6.3,9.29,270.41,-0.018,0.2687,20,270.41,-3.072,-0.15,0.26,35.33,0.008,-0.072,0,0,0,269.55,0,0,0,0,0,0,0,0,0,0,0,0,0,3,3,58.1,FLYING
58.32,APPROACH,ILS_TRACK,159.35,160,0.65,1918.43,-9.35,6.3,9.28,270.41,-0.017,0.2681,20,270.4,-3.103,-0.14,0.26,35.283,-0.003,-0.103,0,0,0,269.55,0,0,0,0,0,0,0,0,0,0,0,0,0,3,3,58.36,FLYING
58.62,APPROACH,ILS_TRACK,159.36,160,0.64,1915.61,-9.4,6.3,9.28,270.41,-0.013,0.2674,20,270.41,-3.07,-0.15,0.26,35.229,0.014,-0.07,0,0,0,269.55,0,0,0,0,0,0,0,0,0,0,0,0,0,3,3,58.66,FLYING
58.88,APPROACH,ILS_TRACK,159.36,160,0.64,1913.17,-9.34,6.29,9.27,270.41,-0.014,0.2678,20,270.41,-3.124,-0.15,0.27,35.183,0.006,-0.124,0,0,0,269.55,0,0,0,0,0,0,0,0,0,0,0,0,0,3,3,58.92,FLYING
59.14,APPROACH,ILS_TRACK,159.37,160,0.63,1910.72,-9.4,6.22,9.2,270.41,-0.014,0.2671,20,270.41,-3.047,-0.15,0.26,35.136,0.005,-0.047,0,0,0,269.55,0,0,0,0,0,0,0,0,0,0,0,0,0,3,3,59.18,FLYING
59.4,APPROACH,ILS_TRACK,159.37,160,0.63,1908.3,-9.34,6.3,9.28,270.41,-0.013,0.2681,20,270.41,-3.145,-0.15,0.28,35.089,0.006,-0.145,0,0,0,269.55,0,0,0,0,0,0,0,0,0,0,0,0,0,3,3,59.44,FLYING
59.7,APPROACH,ILS_TRACK,159.37,160,0.63,1905.46,-9.39,6.15,9.14,270.41,-0.014,0.2679,20,270.41,-3.034,-0.15,0.27,35.035,0.009,-0.034,0,0,0,269.55,0,0,0,0,0,0,0,0,0,0,0,0,0,3,3,59.74,FLYING
59.96,APPROACH,ILS_TRACK,159.37,160,0.63,1903.04,-9.39,6.29,9.28,270.41,-0.013,0.2687,20,270.41,-3.129,-0.15,0.28,34.989,0.009,-0.129,0,0,0,269.55,0,0,0,0,0,0,0,0,0,0,0,0,0,3,3,60,FLYING
60.22,APPROACH,ILS_TRACK,159.37,160,0.63,1900.58,-9.4,6.21,9.2,270.41,-0.014,0.2698,20,270.4,-3.075,-0.15,0.28,34.942,0.001,-0.075,0,0,0,269.55,0,0,0,0,0,0,0,0,0,0,0,0,0,3,3,60.26,FLYING
60.48,APPROACH,ILS_TRACK,159.37,160,0.63,1898.15,-9.37,6.29,9.27,270.41,-0.012,0.27,20,270.41,-3.11,-0.15,0.29,34.896,0.01,-0.11,0,0,0,269.55,0,0,0,0,0,0,0,0,0,0,0,0,0,3,3,60.52,FLYING
60.78,APPROACH,ILS_TRACK,159.37,160,0.63,1895.33,-9.44,6.29,9.28,270.41,-0.013,0.2699,20,270.41,-3.065,-0.15,0.28,34.842,0.008,-0.065,0,0,0,269.55,0,0,0,0,0,0,0,0,0,0,0,0,0,3,3,60.82,FLYING
61.04,APPROACH,ILS_TRACK,159.37,160,0.63,1892.9,-9.35,6.29,9.28,270.41,-0.011,0.2705,20,270.4,-3.116,-0.15,0.29,34.795,0,-0.116,0,0,0,269.55,0,0,0,0,0,0,0,0,0,0,0,0,0,3,3,61.08,FLYING
61.3,APPROACH,ILS_TRACK,159.38,160,0.62,1890.44,-9.41,6.21,9.19,270.4,-0.009,0.2698,20,270.41,-3.033,-0.16,0.27,34.749,0.014,-0.033,0,0,0,269.55,0,0,0,0,0,0,0,0,0,0,0,0,0,3,3,61.34,FLYING
61.56,APPROACH,ILS_TRACK,159.37,160,0.63,1888.01,-9.35,6.3,9.29,270.41,-0.009,0.2706,20,270.41,-3.127,-0.16,0.29,34.702,0.006,-0.127,0,0,0,269.55,0,0,0,0,0,0,0,0,0,0,0,0,0,3,3,61.6,FLYING
61.86,APPROACH,ILS_TRACK,159.38,160,0.62,1885.18,-9.42,6.2,9.19,270.4,-0.008,0.2703,20,270.41,-3.033,-0.16,0.27,34.648,0.007,-0.033,0,0,0,269.55,0,0,0,0,0,0,0,0,0,0,0,0,0,3,3,61.9,FLYING
62.12,APPROACH,ILS_TRACK,159.37,160,0.63,1882.76,-9.35,6.3,9.29,270.4,-0.007,0.271,20,270.41,-3.131,-0.16,0.28,34.602,0.006,-0.131,0,0,0,269.55,0,0,0,0,0,0,0,0,0,0,0,0,0,3,3,62.16,FLYING
62.38,APPROACH,ILS_TRACK,159.38,160,0.62,1880.29,-9.39,6.18,9.17,270.4,-0.008,0.2708,20,270.41,-3.031,-0.16,0.27,34.555,0.01,-0.031,0,0,0,269.55,0,0,0,0,0,0,0,0,0,0,0,0,0,3,3,62.42,FLYING
62.65,APPROACH,ILS_TRACK,159.37,160,0.63,1877.77,-9.38,6.29,9.28,270.41,-0.007,0.2705,20,270.4,-3.101,-0.16,0.27,34.508,0.002,-0.101,0,0,0,269.55,0,0,0,0,0,0,0,0,0,0,0,0,0,3,3,62.69,FLYING
62.99,APPROACH,ILS_TRACK,159.38,160,0.62,1874.62,-9.41,6.28,9.28,270.41,-0.008,0.2701,20,270.41,-3.067,-0.16,0.27,34.45,0.008,-0.067,0,0,0,269.55,0,0,0,0,0,0,0,0,0,0,0,0,0,3,3,63.03,FLYING
63.3,APPROACH,ILS_TRACK,159.38,160,0.62,1871.7,-9.35,6.28,9.26,270.41,-0.008,0.2695,20,270.41,-3.099,-0.16,0.27,34.395,0.009,-0.099,0,0,0,269.55,0,0,0,0,0,0,0,0,0,0,0,0,0,3,3,63.35,FLYING
63.62,APPROACH,ILS_TRACK,159.39,160,0.61,1868.64,-9.38,6.27,9.26,270.41,-0.009,0.2684,20,270.41,-3.062,-0.16,0.27,34.338,0.008,-0.062,0,0,0,269.55,0,0,0,0,0,0,0,0,0,0,0,0,0,3,3,63.68,FLYING
63.94,APPROACH,ILS_TRACK,159.39,160,0.61,1865.66,-9.33,6.27,9.26,270.41,-0.009,0.268,20,270.41,-3.102,-0.16,0.27,34.282,0.006,-0.102,0,0,0,269.55,0,0,0,0,0,0,0,0,0,0,0,0,0,3,3,64,FLYING
64.34,APPROACH,ILS_TRACK,159.4,160,0.6,1861.95,-9.39,6.27,9.25,270.41,-0.011,0.2674,20,270.4,-3.076,-0.16,0.27,34.213,0.005,-0.076,0,0,0,269.55,0,0,0,0,0,0,0,0,0,0,0,0,0,3,3,64.4,FLYING
64.7,APPROACH,ILS_TRACK,159.4,160,0.6,1858.6,-9.33,6.29,9.27,270.41,-0.009,0.2673,20,270.41,-3.111,-0.16,0.28,34.15,0.006,-0.111,0,0,0,269.55,0,0,0,0,0,0,0,0,0,0,0,0,0,3,3,64.76,FLYING
65.06,APPROACH,ILS_TRACK,159.4,160,0.6,1855.19,-9.38,6.3,9.28,270.41,-0.01,0.2675,20,270.41,-3.085,-0.16,0.28,34.086,0.007,-0.085,0,0,0,269.55,0,0,0,0,0,0,0,0,0,0,0,0,0,3,3,65.12,FLYING
65.51,APPROACH,ILS_TRACK,159.4,160,0.6,1850.98,-9.33,6.32,9.3,270.41,-0.012,0.2683,20,270.41,-3.112,-0.16,0.3,34.007,0.005,-0.112,0,0,0,269.55,0,0,0,0,0,0,0,0,0,0,0,0,0,3,3,65.58,FLYING
65.92,APPROACH,ILS_TRACK,159.4,160,0.6,1847.12,-9.38,6.34,9.32,270.41,-0.015,0.2694,20,270.41,-3.094,-0.17,0.3,33.935,0.011,-0.094,0,0,0,269.55,0,0,0,0,0,0,0,0,0,0,0,0,0,3,3,65.99,FLYING
66.34,APPROACH,ILS_TRACK,159.38,160,0.62,1843.2,-9.35,6.38,9.36,270.41,-0.014,0.2716,20,270.4,-3.109,-0.16,0.31,33.86,0.004,-0.109,0,0,0,269.55,0,0,0,0,0,0,0,0,0,0,0,0,0,3,3,66.41,FLYING
66.83,APPROACH,ILS_TRACK,159.37,160,0.63,1838.61,-9.36,6.39,9.38,270.41,-0.014,0.2735,20,270.41,-3.09,-0.17,0.31,33.772,0.01,-0.09,0,0,0,269.55,0,0,0,0,0,0,0,0,0,0,0,0,0,3,3,66.9,FLYING
67.25,APPROACH,ILS_TRACK,159.36,160,0.64,1834.68,-9.34,6.39,9.37,270.41,-0.013,0.275,20,270.41,-3.103,-0.17,0.31,33.697,0.008,-0.103,0,0,0,269.55,0,0,0,0,0,0,0,0,0,0,0,0,0,3,3,67.32,FLYING
67.67,APPROACH,ILS_TRACK,159.35,160,0.65,1830.76,-9.34,6.39,9.37,270.41,-0.014,0.276,20,270.41,-3.097,-0.17,0.31,33.622,0.006,-0.097,0,0,0,269.55,0,0,0,0,0,0,0,0,0,0,0,0,0,3,3,67.74,FLYING
68.16,APPROACH,ILS_TRACK,159.34,160,0.66,1826.18,-9.33,6.38,9.36,270.41,-0.012,0.2764,20,270.41,-3.109,-0.17,0.32,33.535,0.008,-0.109,0,0,0,269.55,0,0,0,0,0,0,0,0,0,0,0,0,0,3,3,68.23,FLYING
68.58,APPROACH,ILS_TRACK,159.34,160,0.66,1822.26,-9.33,6.38,9.36,270.41,-0.012,0.2762,20,270.41,-3.106,-0.17,0.32,33.46,0.007,-0.106,0,0,0,269.55,0,0,0,0,0,0,0,0,0,0,0,0,0,3,3,68.65,FLYING
69,APPROACH,ILS_TRACK,159.34,160,0.66,1818.34,-9.32,6.37,9.35,270.41,-0.012,0.2755,20,270.41,-3.116,-0.17,0.33,33.385,0.009,-0.116,0,0,0,269.55,0,0,0,0,0,0,0,0,0,0,0,0,0,3,3,69.07,FLYING
69.49,APPROACH,ILS_TRACK,159.35,160,0.65,1813.77,-9.32,6.36,9.34,270.41,-0.013,0.2743,20,270.41,-3.114,-0.18,0.34,33.298,0.008,-0.114,0,0,0,269.55,0,0,0,0,0,0,0,0,0,0,0,0,0,3,3,69.56,FLYING
69.91,APPROACH,ILS_TRACK,159.35,160,0.65,1809.85,-9.32,6.36,9.34,270.41,-0.013,0.2729,20,270.41,-3.12,-0.17,0.35,33.223,0.006,-0.12,0,0,0,269.55,0,0,0,0,0,0,0,0,0,0,0,0,0,3,3,69.98,FLYING
70.33,APPROACH,ILS_TRACK,159.36,160,0.64,1805.93,-9.32,6.35,9.34,270.41,-0.014,0.2714,20,270.41,-3.119,-0.18,0.36,33.148,0.01,-0.119,0,0,0,269.55,0,0,0,0,0,0,0,0,0,0,0,0,0,3,3,70.4,FLYING
70.82,APPROACH,ILS_TRACK,159.37,160,0.63,1801.36,-9.32,6.35,9.33,270.4,-0.012,0.2699,20,270.41,-3.122,-0.18,0.36,33.061,0.006,-0.122,0,0,0,269.55,0,0,0,0,0,0,0,0,0,0,0,0,0,3,3,70.89,FLYING
71.24,APPROACH,ILS_TRACK,159.38,160,0.62,1797.44,-9.33,6.35,9.33,270.4,-0.011,0.2686,20,270.41,-3.12,-0.18,0.37,32.986,0.007,-0.12,0,0,0,269.55,0,0,0,0,0,0,0,0,0,0,0,0,0,3,3,71.31,FLYING
71.66,APPROACH,ILS_TRACK,159.39,160,0.61,1793.52,-9.32,6.35,9.33,270.4,-0.012,0.2676,20,270.41,-3.122,-0.18,0.37,32.911,0.008,-0.122,0,0,0,269.55,0,0,0,0,0,0,0,0,0,0,0,0,0,3,3,71.73,FLYING
72.15,APPROACH,ILS_TRACK,159.4,160,0.6,1788.95,-9.33,6.35,9.33,270.4,-0.014,0.267,20,270.41,-3.121,-0.18,0.38,32.823,0.009,-0.121,0,0,0,269.55,0,0,0,0,0,0,0,0,0,0,0,0,0,3,3,72.22,FLYING
72.57,APPROACH,ILS_TRACK,159.4,160,0.6,1785.03,-9.33,6.34,9.33,270.41,-0.017,0.2669,20,270.41,-3.121,-0.18,0.38,32.749,0.009,-0.121,0,0,0,269.55,0,0,0,0,0,0,0,0,0,0,0,0,0,3,3,72.64,FLYING
72.99,APPROACH,ILS_TRACK,159.4,160,0.6,1781.12,-9.33,6.34,9.33,270.41,-0.016,0.2671,20,270.41,-3.121,-0.19,0.38,32.674,0.01,-0.121,0,0,0,269.55,0,0,0,0,0,0,0,0,0,0,0,0,0,3,3,73.06,FLYING
73.48,APPROACH,ILS_TRACK,159.4,160,0.6,1776.54,-9.32,6.35,9.33,270.41,-0.015,0.2677,20,270.4,-3.121,-0.18,0.39,32.587,0.004,-0.121,0,0,0,269.55,0,0,0,0,0,0,0,0,0,0,0,0,0,3,3,73.55,FLYING
73.9,APPROACH,ILS_TRACK,159.4,160,0.6,1772.63,-9.32,6.35,9.33,270.41,-0.015,0.2685,20,270.41,-3.12,-0.18,0.39,32.512,0.008,-0.12,0,0,0,269.55,0,0,0,0,0,0,0,0,0,0,0,0,0,3,3,73.97,FLYING
74.32,APPROACH,ILS_TRACK,159.4,160,0.6,1768.71,-9.32,6.35,9.33,270.41,-0.013,0.2693,20,270.41,-3.12,-0.19,0.39,32.437,0.011,-0.12,0,0,0,269.55,0,0,0,0,0,0,0,0,0,0,0,0,0,3,3,74.39,FLYING
74.81,APPROACH,ILS_TRACK,159.39,160,0.61,1764.14,-9.32,6.35,9.33,270.41,-0.014,0.2701,20,270.4,-3.119,-0.18,0.39,32.35,0.004,-0.119,0,0,0,269.55,0,0,0,0,0,0,0,0,0,0,0,0,0,3,3,74.88,FLYING
75.23,APPROACH,ILS_TRACK,159.39,160,0.61,1760.23,-9.32,6.35,9.33,270.4,-0.013,0.2707,20,270.41,-3.119,-0.19,0.39,32.275,0.013,-0.119,0,0,0,269.55,0,0,0,0,0,0,0,0,0,0,0,0,0,3,3,75.3,FLYING
75.65,APPROACH,ILS_TRACK,159.39,160,0.61,1756.31,-9.32,6.35,9.33,270.4,-0.013,0.2711,20,270.41,-3.119,-0.19,0.39,32.2,0.008,-0.119,0,0,0,269.55,0,0,0,0,0,0,0,0,0,0,0,0,0,3,3,75.72,FLYING
76.14,APPROACH,ILS_TRACK,159.39,160,0.61,1751.75,-9.31,6.34,9.33,270.41,-0.014,0.2713,20,270.41,-3.119,-0.2,0.39,32.113,0.009,-0.119,0,0,0,269.55,0,0,0,0,0,0,0,0,0,0,0,0,0,3,3,76.21,FLYING
76.56,APPROACH,ILS_TRACK,159.38,160,0.62,1747.83,-9.31,6.34,9.33,270.41,-0.016,0.2713,20,270.41,-3.118,-0.2,0.39,32.039,0.011,-0.118,0,0,0,269.55,0,0,0,0,0,0,0,0,0,0,0,0,0,3,3,76.63,FLYING
76.98,APPROACH,ILS_TRACK,159.39,160,0.61,1743.92,-9.31,6.34,9.33,270.41,-0.016,0.2712,20,270.4,-3.119,-0.19,0.39,31.964,0.004,-0.119,0,0,0,269.55,0,0,0,0,0,0,0,0,0,0,0,0,0,3,3,77.05,FLYING
77.47,APPROACH,ILS_TRACK,159.39,160,0.61,1739.36,-9.31,6.34,9.33,270.41,-0.015,0.2708,20,270.41,-3.118,-0.19,0.39,31.877,0.008,-0.118,0,0,0,269.55,0,0,0,0,0,0,0,0,0,0,0,0,0,3,3,77.54,FLYING
77.89,APPROACH,ILS_TRACK,159.39,160,0.61,1735.45,-9.31,6.34,9.33,270.4,-0.014,0.2704,20,270.41,-3.118,-0.2,0.39,31.802,0.008,-0.118,0,0,0,269.55,0,0,0,0,0,0,0,0,0,0,0,0,0,3,3,77.96,FLYING
78.31,APPROACH,ILS_TRACK,159.39,160,0.61,1731.54,-9.3,6.34,9.32,270.41,-0.014,0.2699,20,270.41,-3.119,-0.2,0.39,31.728,0.009,-0.119,0,0,0,269.55,0,0,0,0,0,0,0,0,0,0,0,0,0,3,3,78.38,FLYING
78.8,APPROACH,ILS_TRACK,159.4,160,0.6,1726.98,-9.3,6.34,9.32,270.41,-0.016,0.2694,20,270.41,-3.118,-0.2,0.39,31.641,0.009,-0.118,0,0,0,269.55,0,0,0,0,0,0,0,0,0,0,0,0,0,3,3,78.87,FLYING
79.22,APPROACH,ILS_TRACK,159.4,160,0.6,1723.07,-9.3,6.34,9.32,270.41,-0.016,0.2689,20,270.41,-3.119,-0.2,0.39,31.566,0.01,-0.119,0,0,0,269.55,0,0,0,0,0,0,0,0,0,0,0,0,0,3,3,79.29,FLYING
79.64,APPROACH,ILS_TRACK,159.4,160,0.6,1719.16,-9.3,6.33,9.32,270.41,-0.015,0.2685,20,270.41,-3.119,-0.2,0.39,31.491,0.009,-0.119,0,0,0,269.55,0,0,0,0,0,0,0,0,0,0,0,0,0,3,3,79.71,FLYING
80.13,APPROACH,ILS_TRACK,159.41,160,0.59,1714.6,-9.3,6.33,9.32,270.41,-0.015,0.2682,20,270.41,-3.119,-0.21,0.39,31.404,0.01,-0.119,0,0,0,269.55,0,0,0,0,0,0,0,0,0,0,0,0,0,3,3,80.2,FLYING
80.55,APPROACH,ILS_TRACK,159.41,160,0.59,1710.7,-9.3,6.33,9.32,270.41,-0.015,0.268,20,270.41,-3.118,-0.21,0.39,31.33,0.009,-0.118,0,0,0,269.55,0,0,0,0,0,0,0,0,0,0,0,0,0,3,3,80.62,FLYING
80.97,APPROACH,ILS_TRACK,159.41,160,0.59,1706.79,-9.29,6.33,9.32,270.41,-0.014,0.268,20,270.41,-3.119,-0.21,0.4,31.255,0.012,-0.119,0,0,0,269.55,0,0,0,0,0,0,0,0,0,0,0,0,0,3,3,81.04,FLYING
81.46,APPROACH,ILS_TRACK,159.41,160,0.59,1702.24,-9.29,6.33,9.32,270.41,-0.015,0.268,20,270.41,-3.119,-0.21,0.4,31.168,0.005,-0.119,0,0,0,269.55,0,0,0,0,0,0,0,0,0,0,0,0,0,3,3,81.53,FLYING
81.88,APPROACH,ILS_TRACK,159.41,160,0.59,1698.33,-9.29,6.33,9.32,270.41,-0.012,0.2681,20,270.41,-3.118,-0.21,0.4,31.094,0.008,-0.118,0,0,0,269.55,0,0,0,0,0,0,0,0,0,0,0,0,0,3,3,81.95,FLYING
82.3,APPROACH,ILS_TRACK,159.41,160,0.59,1694.43,-9.29,6.33,9.32,270.4,-0.011,0.2683,20,270.41,-3.119,-0.21,0.4,31.019,0.01,-0.119,0,0,0,269.55,0,0,0,0,0,0,0,0,0,0,0,0,0,3,3,82.37,FLYING
82.79,APPROACH,ILS_TRACK,159.41,160,0.59,1689.88,-9.28,6.33,9.31,270.4,-0.011,0.2685,20,270.41,-3.119,-0.21,0.4,30.933,0.008,-0.119,0,0,0,269.55,0,0,0,0,0,0,0,0,0,0,0,0,0,3,3,82.86,FLYING
83.21,APPROACH,ILS_TRACK,159.41,160,0.59,1685.98,-9.28,6.33,9.31,270.4,-0.014,0.2687,20,270.41,-3.118,-0.21,0.4,30.858,0.008,-0.118,0,0,0,269.55,0,0,0,0,0,0,0,0,0,0,0,0,0,3,3,83.28,FLYING
83.63,APPROACH,ILS_TRACK,159.41,160,0.59,1682.08,-9.28,6.33,9.31,270.41,-0.015,0.2688,20,270.41,-3.119,-0.21,0.4,30.784,0.012,-0.119,0,0,0,269.55,0,0,0,0,0,0,0,0,0,0,0,0,0,3,3,83.7,FLYING
84.12,APPROACH,ILS_TRACK,159.42,160,0.58,1677.53,-9.28,6.33,9.31,270.41,-0.018,0.2688,20,270.41,-3.119,-0.21,0.4,30.697,0.008,-0.119,0,0,0,269.55,0,0,0,0,0,0,0,0,0,0,0,0,0,3,3,84.19,FLYING
84.54,APPROACH,ILS_TRACK,159.42,160,0.58,1673.63,-9.28,6.32,9.31,270.41,-0.018,0.2687,20,270.41,-3.118,-0.21,0.4,30.623,0.009,-0.118,0,0,0,269.55,0,0,0,0,0,0,0,0,0,0,0,0,0,3,3,84.61,FLYING
84.96,APPROACH,ILS_TRACK,159.42,160,0.58,1669.73,-9.28,6.32,9.31,270.41,-0.018,0.2685,20,270.41,-3.119,-0.22,0.4,30.548,0.012,-0.119,0,0,0,269.55,0,0,0,0,0,0,0,0,0,0,0,0,0,3,3,85.03,FLYING
85.45,APPROACH,ILS_TRACK,159.42,160,0.58,1665.19,-9.27,6.32,9.31,270.41,-0.019,0.2684,20,270.4,-3.119,-0.21,0.4,30.461,0.005,-0.119,0,0,0,269.55,0,0,0,0,0,0,0,0,0,0,0,0,0,3,3,85.52,FLYING
85.87,APPROACH,ILS_TRACK,159.42,160,0.58,1661.29,-9.27,6.32,9.31,270.41,-0.017,0.2682,20,270.41,-3.119,-0.21,0.4,30.387,0.011,-0.119,0,0,0,269.55,0,0,0,0,0,0,0,0,0,0,0,0,0,3,3,85.94,FLYING
86.29,APPROACH,ILS_TRACK,159.42,160,0.58,1657.4,-9.27,6.32,9.31,270.41,-0.019,0.2681,20,270.41,-3.119,-0.21,0.4,30.313,0.008,-0.119,0,0,0,269.55,0,0,0,0,0,0,0,0,0,0,0,0,0,3,3,86.36,FLYING
86.78,APPROACH,ILS_TRACK,159.43,160,0.57,1652.85,-9.27,6.32,9.31,270.41,-0.018,0.268,20,270.41,-3.119,-0.22,0.4,30.226,0.011,-0.119,0,0,0,269.55,0,0,0,0,0,0,0,0,0,0,0,0,0,3,3,86.85,FLYING
87.2,APPROACH,ILS_TRACK,159.43,160,0.57,1648.96,-9.27,6.32,9.3,270.41,-0.017,0.2679,20,270.41,-3.118,-0.21,0.4,30.152,0.006,-0.118,0,0,0,269.55,0,0,0,0,0,0,0,0,0,0,0,0,0,3,3,87.27,FLYING
87.62,APPROACH,ILS_TRACK,159.43,160,0.57,1645.07,-9.26,6.32,9.3,270.41,-0.018,0.2678,20,270.41,-3.119,-0.22,0.4,30.077,0.011,-0.119,0,0,0,269.55,0,0,0,0,0,0,0,0,0,0,0,0,0,3,3,87.69,FLYING
88.11,APPROACH,ILS_TRACK,159.43,160,0.57,1640.53,-9.26,6.32,9.3,270.41,-0.017,0.2677,20,270.41,-3.119,-0.21,0.4,29.991,0.008,-0.119,0,0,0,269.55,0,0,0,0,0,0,0,0,0,0,0,0,0,3,3,88.18,FLYING
88.53,APPROACH,ILS_TRACK,159.43,160,0.57,1636.63,-9.26,6.32,9.3,270.41,-0.017,0.2677,20,270.41,-3.118,-0.22,0.4,29.917,0.009,-0.118,0,0,0,269.55,0,0,0,0,0,0,0,0,0,0,0,0,0,3,3,88.6,FLYING
88.95,APPROACH,ILS_TRACK,159.43,160,0.57,1632.74,-9.26,6.31,9.3,270.41,-0.016,0.2676,20,270.41,-3.119,-0.21,0.4,29.842,0.007,-0.119,0,0,0,269.55,0,0,0,0,0,0,0,0,0,0,0,0,0,3,3,89.02,FLYING
89.44,APPROACH,ILS_TRACK,159.43,160,0.57,1628.21,-9.26,6.31,9.3,270.41,-0.015,0.2676,20,270.41,-3.119,-0.21,0.4,29.756,0.005,-0.119,0,0,0,269.55,0,0,0,0,0,0,0,0,0,0,0,0,0,3,3,89.51,FLYING
89.86,APPROACH,ILS_TRACK,159.43,160,0.57,1624.32,-9.25,6.31,9.3,270.41,-0.014,0.2676,20,270.41,-3.119,-0.21,0.4,29.682,0.013,-0.119,0,0,0,269.55,0,0,0,0,0,0,0,0,0,0,0,0,0,3,3,89.93,FLYING
90.28,APPROACH,ILS_TRACK,159.43,160,0.57,1620.43,-9.25,6.31,9.3,270.41,-0.013,0.2676,20,270.41,-3.119,-0.21,0.4,29.607,0.006,-0.119,0,0,0,269.55,0,0,0,0,0,0,0,0,0,0,0,0,0,3,3,90.35,FLYING
90.77,APPROACH,ILS_TRACK,159.44,160,0.56,1615.9,-9.25,6.31,9.3,270.41,-0.014,0.2676,20,270.41,-3.119,-0.22,0.4,29.521,0.011,-0.119,0,0,0,269.55,0,0,0,0,0,0,0,0,0,0,0,0,0,3,3,90.84,FLYING
91.19,APPROACH,ILS_TRACK,159.44,160,0.56,1612.01,-9.25,6.31,9.3,270.41,-0.014,0.2676,20,270.41,-3.118,-0.21,0.4,29.447,0.007,-0.118,0,0,0,269.55,0,0,0,0,0,0,0,0,0,0,0,0,0,3,3,91.26,FLYING
91.61,APPROACH,ILS_TRACK,159.44,160,0.56,1608.12,-9.25,6.31,9.3,270.41,-0.014,0.2675,20,270.41,-3.119,-0.21,0.4,29.373,0.009,-0.119,0,0,0,269.55,0,0,0,0,0,0,0,0,0,0,0,0,0,3,3,91.68,FLYING
92.1,APPROACH,ILS_TRACK,159.44,160,0.56,1603.59,-9.24,6.31,9.29,270.41,-0.014,0.2674,20,270.41,-3.119,-0.21,0.4,29.286,0.007,-0.119,0,0,0,269.55,0,0,0,0,0,0,0,0,0,0,0,0,0,3,3,92.17,FLYING
92.52,APPROACH,ILS_TRACK,159.44,160,0.56,1599.71,-9.24,6.31,9.29,270.41,-0.014,0.2674,20,270.41,-3.119,-0.21,0.4,29.212,0.008,-0.119,0,0,0,269.55,0,0,0,0,0,0,0,0,0,0,0,0,0,3,3,92.59,FLYING
92.94,APPROACH,ILS_TRACK,159.44,160,0.56,1595.83,-9.24,6.3,9.29,270.41,-0.014,0.2673,20,270.41,-3.119,-0.21,0.4,29.138,0.007,-0.119,0,0,0,269.55,0,0,0,0,0,0,0,0,0,0,0,0,0,3,3,93.01,FLYING
93.43,APPROACH,ILS_TRACK,159.44,160,0.56,1591.3,-9.24,6.3,9.29,270.41,-0.015,0.2672,20,270.41,-3.119,-0.21,0.4,29.051,0.01,-0.119,0,0,0,269.55,0,0,0,0,0,0,0,0,0,0,0,0,0,3,3,93.5,FLYING
93.85,APPROACH,ILS_TRACK,159.44,160,0.56,1587.42,-9.24,6.3,9.29,270.41,-0.014,0.2671,20,270.41,-3.119,-0.21,0.4,28.977,0.005,-0.119,0,0,0,269.55,0,0,0,0,0,0,0,0,0,0,0,0,0,3,3,93.92,FLYING
94.27,APPROACH,ILS_TRACK,159.45,160,0.55,1583.54,-9.23,6.3,9.29,270.41,-0.014,0.267,20,270.41,-3.12,-0.2,0.4,28.903,0.007,-0.12,0,0,0,269.55,0,0,0,0,0,0,0,0,0,0,0,0,0,3,3,94.34,FLYING
94.76,APPROACH,ILS_TRACK,159.45,160,0.55,1579.01,-9.23,6.3,9.29,270.41,-0.015,0.267,20,270.41,-3.119,-0.21,0.4,28.817,0.012,-0.119,0,0,0,269.55,0,0,0,0,0,0,0,0,0,0,0,0,0,3,3,94.83,FLYING
95.18,APPROACH,ILS_TRACK,159.45,160,0.55,1575.13,-9.23,6.3,9.29,270.41,-0.016,0.2669,20,270.41,-3.119,-0.21,0.4,28.743,0.006,-0.119,0,0,0,269.55,0,0,0,0,0,0,0,0,0,0,0,0,0,3,3,95.25,FLYING
95.6,APPROACH,ILS_TRACK,159.45,160,0.55,1571.26,-9.23,6.3,9.29,270.41,-0.015,0.2669,20,270.41,-3.12,-0.21,0.4,28.669,0.011,-0.12,0,0,0,269.55,0,0,0,0,0,0,0,0,0,0,0,0,0,3,3,95.67,FLYING
96.09,APPROACH,ILS_TRACK,159.45,160,0.55,1566.73,-9.23,6.3,9.29,270.41,-0.015,0.2668,20,270.41,-3.119,-0.21,0.4,28.583,0.006,-0.119,0,0,0,269.55,0,0,0,0,0,0,0,0,0,0,0,0,0,3,3,96.16,FLYING
96.51,APPROACH,ILS_TRACK,159.45,160,0.55,1562.86,-9.23,6.3,9.29,270.41,-0.016,0.2668,20,270.41,-3.119,-0.21,0.4,28.509,0.009,-0.119,0,0,0,269.55,0,0,0,0,0,0,0,0,0,0,0,0,0,3,3,96.58,FLYING
96.93,APPROACH,ILS_TRACK,159.45,160,0.55,1558.98,-9.22,6.3,9.28,270.41,-0.016,0.2667,20,270.41,-3.12,-0.2,0.4,28.435,0.006,-0.12,0,0,0,269.55,0,0,0,0,0,0,0,0,0,0,0,0,0,3,3,97,FLYING
97.42,APPROACH,ILS_TRACK,159.45,160,0.55,1554.46,-9.22,6.3,9.28,270.41,-0.015,0.2667,20,270.41,-3.12,-0.2,0.4,28.348,0.008,-0.12,0,0,0,269.55,0,0,0,0,0,0,0,0,0,0,0,0,0,3,3,97.49,FLYING
97.84,APPROACH,ILS_TRACK,159.45,160,0.55,1550.59,-9.22,6.29,9.28,270.41,-0.013,0.2666,20,270.41,-3.119,-0.21,0.4,28.275,0.011,-0.119,0,0,0,269.55,0,0,0,0,0,0,0,0,0,0,0,0,0,3,3,97.91,FLYING
98.26,APPROACH,ILS_TRACK,159.46,160,0.54,1546.71,-9.22,6.29,9.28,270.41,-0.012,0.2666,20,270.41,-3.12,-0.21,0.4,28.201,0.008,-0.12,0,0,0,269.55,0,0,0,0,0,0,0,0,0,0,0,0,0,3,3,98.33,FLYING
98.75,APPROACH,ILS_TRACK,159.46,160,0.54,1542.2,-9.21,6.29,9.28,270.41,-0.012,0.2665,20,270.41,-3.119,-0.21,0.4,28.114,0.008,-0.119,0,0,0,269.55,0,0,0,0,0,0,0,0,0,0,0,0,0,3,3,98.82,FLYING
99.17,APPROACH,ILS_TRACK,159.46,160,0.54,1538.33,-9.21,6.29,9.28,270.41,-0.013,0.2665,20,270.4,-3.119,-0.2,0.4,28.041,0.003,-0.119,0,0,0,269.55,0,0,0,0,0,0,0,0,0,0,0,0,0,3,3,99.24,FLYING
