t_s,phase,subphase,ias_ms,vapp_ms,spd_err_ms,agl_m,vs_ms,pitch_deg,aoa_deg,hdg_deg,bank_deg,thr_cmd,thr_cur,thr_intg,at_gain,at_tau_s,at_a_up,at_a_dn,at_kp_thr,at_ki_spd,at_thr_slew,aa_hdg_cmd_deg,aa_fpa_cmd_deg,aa_fbw,aa_dir,actual_fpa_deg,ftf_hdg_err_deg,ftf_fix_idx,kos_steer_pit_deg,kos_steer_hdg_deg,aa_dir_vx,aa_dir_vy,aa_dir_vz,aa_dir_pitch_deg,aa_dir_hdg_deg,ils_loc_m,ils_gs_m,ils_dist_km,loc_corr_deg,gs_corr_deg,flare_fpa_cmd,flare_tgt_vs,flare_frac,steer_hdg_deg,steer_blend,ro_loc_corr_deg,ro_hdg_err_deg,ro_yaw_tgt,ro_yaw_scale,ro_yaw_gate,yaw_cmd,roll_cmd,pitch_cmd,ro_pitch_tgt_deg,ro_pitch_err_deg,ro_pitch_ff,ro_roll_assist,flaps_cur,flaps_tgt,asc_j_ab,asc_j_rk,asc_validity,asc_q_pa,asc_q_raw_pa,asc_mach,asc_apo_m,asc_drag_n,asc_w_prop,asc_edot_aero,asc_edot_orb,asc_pitch_bias,asc_blend,asc_spooling,asc_ab_thr_ratio,asc_ab_t_now,asc_ab_t_avail,asc_ab_ign_on,asc_ab_flameouts,asc_rk_t_now,asc_rk_t_avail,asc_rk_ign_on,asc_rk_flameouts,ship_thrust,ship_avail_thrust,ship_ign_on,ship_flameouts,ifc_raw_dt_s,ifc_dt_s,ifc_loop_n,ifc_hz_est,ifc_raw_dt_max_s,ifc_raw_dt_min_s,phase_el_s,status,craft_name,cfg_file
1.14,CRUISE,,211.52,80,-131.52,1340.99,76.37,29.19,9.38,90.03,-0.118,0.2,0,20,1,0.6,0.9,0.75,0.35,0.0168,0.4,90,5,1,0,19.83,0,0,0.02,90,-0.9951,0.0002,-0.099,14.41,90,0,0,0,0,0,0,0,0,90.03,0,0,0,0,0,0,0,0,0,0,0,0,0,0,0,0,0,VALID,0,0,0,0,0,1,0,0,0,0,0,0,0,0,0,0,0,0,0,0,1240.35,1336.69,2,0,0.98,0.5,1,2.13,0.98,0.02,0.24,FLYING,X10-G,0:/Integrated Flight Computer/aircraft/x10_g_cfg.ks (inferred preloaded)
1.72,CRUISE,,212.24,80,-132.24,1385.52,76.97,25.96,3.7,89.99,-0.554,0.4,0,20,1,0.6,1.114,0.75,0.35,0.0168,0.4,90,5,0,1,20,0,0,14.42,90,-0.9857,0.0001,-0.1687,10.4,90,0,0,0,0,0,0,0,0,90.03,0,0,0,0,0,0,0,0,0,0,0,0,0,0,0,0,0,VALID,0,0,0,0,0,1,0,0,0,0,0,0,0,0,0,0,0,0,0,0,1060.31,1337.62,2,0,0.6,0.5,2,1.72,0.98,0.6,0.82,FLYING,X10-G,0:/Integrated Flight Computer/aircraft/x10_g_cfg.ks (inferred preloaded)
2.28,CRUISE,,213.22,80,-133.22,1423.5,72.56,16.33,-4.05,90.12,-1.266,0.6,0,20,1,0.6,1.607,0.75,0.35,0.0168,0.4,90,5,0,1,19.22,0,0,10.41,90,-0.9497,0,-0.3133,1.86,90,0,0,0,0,0,0,0,0,90.03,0,0,0,0,0,0,0,0,0,0,0,0,0,0,0,0,0,VALID,0,0,0,0,0,1,0,0,0,0,0,0,0,0,0,0,0,0,0,0,969.73,1340.06,2,0,0.54,0.5,3,1.85,0.6,0.54,1.36,FLYING,X10-G,0:/Integrated Flight Computer/aircraft/x10_g_cfg.ks (inferred preloaded)
2.8,CRUISE,,214.11,80,-134.11,1459.2,65.78,9.9,-8.06,89.88,1.615,0.7299,0,20,1,0.6,2.061,0.75,0.35,0.0168,0.4,90,5,0,1,17.66,0,0,1.87,90,-0.9222,0,-0.3867,-2.62,90,0,0,0,0,0,0,0,0,90.03,0,0,0,0,0,0,0,0,0,0,0,0,0,0,0,0,0,VALID,0,0,0,0,0,1,0,0,0,0,0,0,0,0,0,0,0,0,0,0,941.13,1342.3,2,0,0.54,0.5,4,1.85,0.54,0.54,1.9,FLYING,X10-G,0:/Integrated Flight Computer/aircraft/x10_g_cfg.ks (inferred preloaded)
3.34,CRUISE,,214.82,80,-134.82,1491,57.4,4.69,-10.95,89.82,1.024,0.8379,0,20,1,0.6,2.48,0.75,0.35,0.0168,0.4,90,5,0,1,15.67,0,0,-2.61,90,-0.9003,-0.0001,-0.4352,-5.66,90,0,0,0,0,0,0,0,0,90.03,0,0,0,0,0,0,0,0,0,0,0,0,0,0,0,0,0,VALID,0,0,0,0,0,1,0,0,0,0,0,0,0,0,0,0,0,0,0,0,945.26,1343.92,2,0,0.54,0.5,5,1.85,0.54,0.54,2.44,FLYING,X10-G,0:/Integrated Flight Computer/aircraft/x10_g_cfg.ks (inferred preloaded)
3.88,CRUISE,,215.35,80,-135.35,1518.23,47.57,0.29,-12.25,89.86,0.613,0.9697,0,20,1,0.6,2.866,0.75,0.35,0.0168,0.4,90,5,0,1,13.25,0,0,-5.65,90,-0.8866,-0.0001,-0.4625,-7.4,90,0,0,0,0,0,0,0,0,90.03,0,0,0,0,0,0,0,0,0,0,0,0,0,0,0,0,0,VALID,0,0,0,0,0,1,0,0,0,0,0,0,0,0,0,0,0,0,0,0,964,1344.9,2,0,0.54,0.5,6,1.85,0.54,0.54,2.98,FLYING,X10-G,0:/Integrated Flight Computer/aircraft/x10_g_cfg.ks (inferred preloaded)
4.42,CRUISE,,216.12,80,-136.12,1540.1,38.02,-1.38,-10.76,89.92,0.344,1,0,19.9,1,0.6,3.221,0.75,0.35,0.0168,0.4,90,5,0,1,10.64,0,0,-7.39,90,-0.8955,-0.0001,-0.4451,-6.27,90,0,0,0,0,0,0,0,0,90.03,0,0,0,0,0,0,0,0,0,0,0,0,0,0,0,0,0,VALID,0,0,0,0,0,1,0,0,0,0,0,0,0,0,0,0,0,0,0,0,1000.1,1347.57,2,0,0.54,0.5,7,1.85,0.54,0.54,3.52,FLYING,X10-G,0:/Integrated Flight Computer/aircraft/x10_g_cfg.ks (inferred preloaded)
4.96,CRUISE,,217.78,80,-137.78,1558.51,29.6,-0.26,-7.42,89.96,0.16,1,0,19.8,1,0.6,3.552,0.75,0.35,0.0168,0.4,90,5,0,1,8.28,0,0,-6.26,90,-0.9203,0,-0.3911,-2.85,90,0,0,0,0,0,0,0,0,90.03,0,0,0,0,0,0,0,0,0,0,0,0,0,0,0,0,0,VALID,0,0,0,0,0,1,0,0,0,0,0,0,0,0,0,0,0,0,0,0,1041.4,1355.38,2,0,0.54,0.5,8,1.85,0.54,0.54,4.06,FLYING,X10-G,0:/Integrated Flight Computer/aircraft/x10_g_cfg.ks (inferred preloaded)
5.5,CRUISE,,220.13,80,-140.13,1573.79,22.06,1.89,-2.2,90.01,-0.647,0.9451,0,20,1,0.6,3.861,0.75,0.35,0.0168,0.4,90,5,0,1,6.18,0,0,-2.84,90,-0.9479,0,-0.3186,1.61,90,0,0,0,0,0,0,0,0,90.03,0,0,0,0,0,0,0,0,0,0,0,0,0,0,0,0,0,VALID,0,0,0,0,0,1,0,0,0,0,0,0,0,0,0,0,0,0,0,0,1082.84,1367.22,2,0,0.54,0.5,9,1.85,0.54,0.54,4.6,FLYING,X10-G,0:/Integrated Flight Computer/aircraft/x10_g_cfg.ks (inferred preloaded)
6.06,CRUISE,,223.23,80,-143.23,1586.52,18.71,7.59,3.95,89.96,-0.514,0.7656,0,20,1,0.6,4.152,0.75,0.35,0.0168,0.4,90,5,0,1,4.96,0,0,1.62,90,-0.9784,0.0001,-0.2066,8.28,90,0,0,0,0,0,0,0,0,90.03,0,0,0,0,0,0,0,0,0,0,0,0,0,0,0,0,0,VALID,0,0,0,0,0,1,0,0,0,0,0,0,0,0,0,0,0,0,0,0,1118.3,1383.37,2,0,0.56,0.5,10,1.79,0.56,0.54,5.16,FLYING,X10-G,0:/Integrated Flight Computer/aircraft/x10_g_cfg.ks (inferred preloaded)
6.64,CRUISE,,226.33,80,-146.33,1598.45,16.86,12.15,10.22,89.95,-0.234,0.6251,0,20,1,0.6,4.428,0.75,0.35,0.0168,0.4,90,5,0,1,4.32,0,0,8.29,90,-0.9935,0.0001,-0.1139,13.68,90,0,0,0,0,0,0,0,0,90.03,0,0,0,0,0,0,0,0,0,0,0,0,0,0,0,0,0,VALID,0,0,0,0,0,1,0,0,0,0,0,0,0,0,0,0,0,0,0,0,1121.41,1399.67,2,0,0.58,0.5,11,1.72,0.58,0.56,5.74,FLYING,X10-G,0:/Integrated Flight Computer/aircraft/x10_g_cfg.ks (inferred preloaded)
7.2,CRUISE,,227.57,80,-147.57,1611.21,20.54,21.77,18.57,89.95,-0.108,0.6826,0,20,1,0.6,4.5,0.75,0.35,0.0168,0.4,90,5,0,1,4.75,0,0,13.69,90,-0.999,0.0002,0.0441,22.76,90,0,0,0,0,0,0,0,0,90.03,0,0,0,0,0,0,0,0,0,0,0,0,0,0,0,0,0,VALID,0,0,0,0,0,1,0,0,0,0,0,0,0,0,0,0,0,0,0,0,1083.89,1406.06,2,0,0.56,0.5,12,1.79,0.58,0.56,6.3,FLYING,X10-G,0:/Integrated Flight Computer/aircraft/x10_g_cfg.ks (inferred preloaded)
7.76,CRUISE,,226.64,80,-146.64,1624.35,25.88,25.18,19.46,89.96,-0.036,0.8826,0,19.9,1,0.6,4.5,0.75,0.35,0.0168,0.4,90,5,0,1,6.16,0,0,22.77,90,-0.9974,0.0003,0.0727,24.41,90,0,0,0,0,0,0,0,0,90.03,0,0,0,0,0,0,0,0,0,0,0,0,0,0,0,0,0,VALID,0,0,0,0,0,1,0,0,0,0,0,0,0,0,0,0,0,0,0,0,1057,1400.32,2,0,0.56,0.5,13,1.79,0.56,0.56,6.86,FLYING,X10-G,0:/Integrated Flight Computer/aircraft/x10_g_cfg.ks (inferred preloaded)
8.32,CRUISE,,225.67,80,-145.67,1640.57,30.76,26.41,19.49,89.98,-0.004,1,0,19.8,1,0.6,4.5,0.75,0.35,0.0168,0.4,90,5,0,1,7.44,0,0,24.42,90,-0.9973,0.0003,0.0734,24.46,90,0,0,0,0,0,0,0,0,90.03,0,0,0,0,0,0,0,0,0,0,0,0,0,0,0,0,0,VALID,0,0,0,0,0,1,0,0,0,0,0,0,0,0,0,0,0,0,0,0,1070.12,1394.27,2,0,0.56,0.5,14,1.79,0.56,0.56,7.42,FLYING,X10-G,0:/Integrated Flight Computer/aircraft/x10_g_cfg.ks (inferred preloaded)
8.88,CRUISE,,224.63,80,-144.63,1659.54,35.67,27.66,19.47,89.98,0.009,1,0,19.701,1,0.6,4.5,0.75,0.35,0.0168,0.4,90,5,0,1,8.72,0,0,24.47,90,-0.9973,0.0003,0.073,24.45,90,0,0,0,0,0,0,0,0,90.03,0,0,0,0,0,0,0,0,0,0,0,0,0,0,0,0,0,VALID,0,0,0,0,0,1,0,0,0,0,0,0,0,0,0,0,0,0,0,0,1098.73,1387.64,2,0,0.56,0.5,15,1.79,0.56,0.56,7.98,FLYING,X10-G,0:/Integrated Flight Computer/aircraft/x10_g_cfg.ks (inferred preloaded)
9.44,CRUISE,,223.59,80,-143.59,1681.28,40.59,28.87,19.48,89.99,0.015,1,0,19.603,1,0.6,4.5,0.75,0.35,0.0168,0.4,90,5,0,1,9.97,0,0,24.46,90,-0.9973,0.0003,0.0731,24.47,90,0,0,0,0,0,0,0,0,90.03,0,0,0,0,0,0,0,0,0,0,0,0,0,0,0,0,0,VALID,0,0,0,0,0,1,0,0,0,0,0,0,0,0,0,0,0,0,0,0,1123.91,1380.86,2,0,0.56,0.5,16,1.79,0.56,0.56,8.54,FLYING,X10-G,0:/Integrated Flight Computer/aircraft/x10_g_cfg.ks (inferred preloaded)
10,CRUISE,,222.5,80,-142.5,1705.73,45.41,30.07,19.49,89.99,0.018,1,0,19.505,1,0.6,4.5,0.75,0.35,0.0168,0.4,90,5,0,1,11.23,0,0,24.48,90,-0.9973,0.0003,0.0728,24.47,90,0,0,0,0,0,0,0,0,90.03,0,0,0,0,0,0,0,0,0,0,0,0,0,0,0,0,0,VALID,0,0,0,0,0,1,0,0,0,0,0,0,0,0,0,0,0,0,0,0,1145.29,1373.74,2,0,0.56,0.5,17,1.79,0.56,0.56,9.1,FLYING,X10-G,0:/Integrated Flight Computer/aircraft/x10_g_cfg.ks (inferred preloaded)
10.56,CRUISE,,221.37,80,-141.37,1732.86,50.19,31.31,19.47,90,0.023,1,0,19.407,1,0.6,4.5,0.75,0.35,0.0168,0.4,90,5,0,1,12.46,0,0,24.48,90,-0.9973,0.0003,0.0733,24.51,90,0,0,0,0,0,0,0,0,90.03,0,0,0,0,0,0,0,0,0,0,0,0,0,0,0,0,0,VALID,0,0,0,0,0,1,0,0,0,0,0,0,0,0,0,0,0,0,0,0,1163.21,1366.25,2,0,0.56,0.5,18,1.79,0.56,0.56,9.66,FLYING,X10-G,0:/Integrated Flight Computer/aircraft/x10_g_cfg.ks (inferred preloaded)
11.12,CRUISE,,220.19,80,-140.19,1763.73,54.99,32.46,19.49,90,0.024,1,0,19.31,1,0.6,4.5,0.75,0.35,0.0168,0.4,90,5,0,1,13.68,0,0,24.52,90,-0.9974,0.0003,0.0726,24.48,90,0,0,0,0,0,0,0,0,90.03,0,0,0,0,0,0,0,0,0,0,0,0,0,0,0,0,0,VALID,0,0,0,0,0,1,0,0,0,0,0,0,0,0,0,0,0,0,0,0,1177.98,1358.39,2,0,0.56,0.5,19,1.79,0.56,0.56,10.22,FLYING,X10-G,0:/Integrated Flight Computer/aircraft/x10_g_cfg.ks (inferred preloaded)
11.68,CRUISE,,218.96,80,-138.96,1796.16,59.59,33.66,19.48,90,0.025,1,0,19.214,1,0.6,4.5,0.75,0.35,0.0168,0.4,90,5,0,1,14.89,0,0,24.49,90,-0.9974,0.0003,0.0723,24.47,90,0,0,0,0,0,0,0,0,90.03,0,0,0,0,0,0,0,0,0,0,0,0,0,0,0,0,0,VALID,0,0,0,0,0,1,0,0,0,0,0,0,0,0,0,0,0,0,0,0,1189.91,1350.13,2,0,0.56,0.5,20,1.79,0.56,0.56,10.78,FLYING,X10-G,0:/Integrated Flight Computer/aircraft/x10_g_cfg.ks (inferred preloaded)
12.24,CRUISE,,217.66,80,-137.66,1831.13,64.08,34.83,19.48,90.01,0.025,1,0,19.118,1,0.6,4.5,0.75,0.35,0.0168,0.4,90,5,0,1,16.07,0,0,24.48,90,-0.9974,0.0003,0.0725,24.5,90,0,0,0,0,0,0,0,0,90.03,0,0,0,0,0,0,0,0,0,0,0,0,0,0,0,0,0,VALID,0,0,0,0,0,1,0,0,0,0,0,0,0,0,0,0,0,0,0,0,1199.2,1341.45,2,0,0.56,0.5,21,1.79,0.56,0.56,11.34,FLYING,X10-G,0:/Integrated Flight Computer/aircraft/x10_g_cfg.ks (inferred preloaded)
12.8,CRUISE,,216.3,80,-136.3,1868.56,68.41,35.98,19.5,90.01,0.021,1,0,19.022,1,0.6,4.5,0.75,0.35,0.0168,0.4,90,5,0,1,17.24,0,0,24.51,90,-0.9974,0.0002,0.0717,24.47,90,0,0,0,0,0,0,0,0,90.03,0,0,0,0,0,0,0,0,0,0,0,0,0,0,0,0,0,VALID,0,0,0,0,0,1,0,0,0,0,0,0,0,0,0,0,0,0,0,0,1206.09,1332.33,2,0,0.56,0.5,22,1.79,0.56,0.56,11.9,FLYING,X10-G,0:/Integrated Flight Computer/aircraft/x10_g_cfg.ks (inferred preloaded)
13.36,CRUISE,,214.92,80,-134.92,1908.36,72.64,36.86,19.38,90.01,0.016,1,0,18.927,1,0.6,4.5,0.75,0.35,0.0168,0.4,90,5,0,1,18.34,0,0,24.48,90,-0.9976,0.0002,0.0688,24.31,90,0,0,0,0,0,0,0,0,90.03,0,0,0,0,0,0,0,0,0,0,0,0,0,0,0,0,0,VALID,0,0,0,0,0,1,0,0,0,0,0,0,0,0,0,0,0,0,0,0,1211.05,1323.06,2,0,0.56,0.5,23,1.79,0.56,0.56,12.46,FLYING,X10-G,0:/Integrated Flight Computer/aircraft/x10_g_cfg.ks (inferred preloaded)
13.92,CRUISE,,213.48,80,-133.48,1949.96,76.61,36.4,17.08,90.01,0.008,1,0,18.832,1,0.6,4.5,0.75,0.35,0.0168,0.4,90,5,0,1,19.48,0,0,24.32,90,-0.9993,0.0002,0.0364,22.46,90,0,0,0,0,0,0,0,0,90.03,0,0,0,0,0,0,0,0,0,0,0,0,0,0,0,0,0,VALID,0,0,0,0,0,1,0,0,0,0,0,0,0,0,0,0,0,0,0,0,1213.89,1313.32,2,0,0.56,0.5,24,1.79,0.56,0.56,13.02,FLYING,X10-G,0:/Integrated Flight Computer/aircraft/x10_g_cfg.ks (inferred preloaded)
14.48,CRUISE,,212.89,80,-132.89,1993.01,79.24,33.64,13.41,90.01,0.003,1,0,18.738,1,0.6,4.5,0.75,0.35,0.0168,0.4,90,5,0,1,20.29,0,0,22.47,90,-0.9996,0.0002,-0.0271,18.84,90,0,0,0,0,0,0,0,0,90.03,0,0,0,0,0,0,0,0,0,0,0,0,0,0,0,0,0,VALID,0,0,0,0,0,1,0,0,0,0,0,0,0,0,0,0,0,0,0,0,1219.36,1308.02,2,0,0.56,0.5,25,1.79,0.56,0.56,13.58,FLYING,X10-G,0:/Integrated Flight Computer/aircraft/x10_g_cfg.ks (inferred preloaded)
15.04,CRUISE,,213.15,80,-133.15,2036.71,80.62,29.62,8.41,90,-0.015,1,0,18.645,1,0.6,4.5,0.75,0.35,0.0168,0.4,90,5,0,1,20.73,0,0,18.85,90,-0.9942,0.0001,-0.1075,14.23,90,0,0,0,0,0,0,0,0,90.03,0,0,0,0,0,0,0,0,0,0,0,0,0,0,0,0,0,VALID,0,0,0,0,0,1,0,0,0,0,0,0,0,0,0,0,0,0,0,0,1227.79,1307.14,2,0,0.56,0.5,26,1.79,0.56,0.56,14.14,FLYING,X10-G,0:/Integrated Flight Computer/aircraft/x10_g_cfg.ks (inferred preloaded)
15.6,CRUISE,,214.43,80,-134.43,2079.99,79.53,23.36,2.38,90,-0.071,1,0,18.551,1,0.6,4.5,0.75,0.35,0.0168,0.4,90,5,0,1,20.56,0,0,14.24,90,-0.9773,0.0001,-0.2117,8.19,90,0,0,0,0,0,0,0,0,90.03,0,0,0,0,0,0,0,0,0,0,0,0,0,0,0,0,0,VALID,0,0,0,0,0,1,0,0,0,0,0,0,0,0,0,0,0,0,0,0,1240.39,1311.71,2,0,0.56,0.5,27,1.79,0.56,0.56,14.7,FLYING,X10-G,0:/Integrated Flight Computer/aircraft/x10_g_cfg.ks (inferred preloaded)
16.16,CRUISE,,216.3,80,-136.3,2121.55,75.97,16.33,-4.13,90.01,-0.014,1,0,18.459,1,0.6,4.5,0.75,0.35,0.0168,0.4,90,5,0,1,19.77,0,0,8.2,90,-0.9484,0,-0.3169,1.95,90,0,0,0,0,0,0,0,0,90.03,0,0,0,0,0,0,0,0,0,0,0,0,0,0,0,0,0,VALID,0,0,0,0,0,1,0,0,0,0,0,0,0,0,0,0,0,0,0,0,1255.22,1319.41,2,0,0.56,0.5,28,1.79,0.56,0.56,15.26,FLYING,X10-G,0:/Integrated Flight Computer/aircraft/x10_g_cfg.ks (inferred preloaded)
16.72,CRUISE,,218.22,80,-138.22,2159.45,68.65,7.29,-11.57,90,0.012,1,0,18.366,1,0.6,4.5,0.75,0.35,0.0168,0.4,90,5,0,1,18.16,0,0,1.96,90,-0.9,-0.0001,-0.4359,-5.41,90,0,0,0,0,0,0,0,0,90.03,0,0,0,0,0,0,0,0,0,0,0,0,0,0,0,0,0,VALID,0,0,0,0,0,1,0,0,0,0,0,0,0,0,0,0,0,0,0,0,1269.93,1327.6,2,0,0.56,0.5,29,1.79,0.56,0.56,15.82,FLYING,X10-G,0:/Integrated Flight Computer/aircraft/x10_g_cfg.ks (inferred preloaded)
17.28,CRUISE,,219.21,80,-139.21,2191.85,56.81,-2.69,-18.43,90,0.018,1,0,18.274,1,0.6,4.5,0.75,0.35,0.0168,0.4,90,5,0,1,15.52,0,0,-5.39,90,-0.8382,-0.0001,-0.5453,-12.6,90,0,0,0,0,0,0,0,0,90.03,0,0,0,0,0,0,0,0,0,0,0,0,0,0,0,0,0,VALID,0,0,0,0,0,1,0,0,0,0,0,0,0,0,0,0,0,0,0,0,1279.62,1331.04,2,0,0.56,0.5,30,1.79,0.56,0.56,16.38,FLYING,X10-G,0:/Integrated Flight Computer/aircraft/x10_g_cfg.ks (inferred preloaded)
17.84,CRUISE,,218.9,80,-138.9,2217.98,42.24,-8.88,-19.94,90,0.021,1,0,18.183,1,0.6,4.5,0.75,0.35,0.0168,0.4,90,5,0,1,11.97,0,0,-12.59,90,-0.8155,-0.0002,-0.5787,-14.9,90,0,0,0,0,0,0,0,0,90.03,0,0,0,0,0,0,0,0,0,0,0,0,0,0,0,0,0,VALID,0,0,0,0,0,1,0,0,0,0,0,0,0,0,0,0,0,0,0,0,1282.12,1327.98,2,0,0.56,0.5,31,1.79,0.56,0.56,16.94,FLYING,X10-G,0:/Integrated Flight Computer/aircraft/x10_g_cfg.ks (inferred preloaded)
18.4,CRUISE,,219.03,80,-139.03,2236.37,27.65,-12.47,-19.97,90,0.02,1,0,18.092,1,0.6,4.5,0.75,0.35,0.0168,0.4,90,5,0,1,8.27,0,0,-14.89,90,-0.8147,-0.0002,-0.5799,-14.97,90,0,0,0,0,0,0,0,0,90.03,0,0,0,0,0,0,0,0,0,0,0,0,0,0,0,0,0,VALID,0,0,0,0,0,1,0,0,0,0,0,0,0,0,0,0,0,0,0,0,1286.62,1327.71,2,0,0.56,0.5,32,1.79,0.56,0.56,17.5,FLYING,X10-G,0:/Integrated Flight Computer/aircraft/x10_g_cfg.ks (inferred preloaded)
18.96,CRUISE,,219.56,80,-139.56,2246.67,12.53,-15.95,-19.5,90,0.021,1,0,18.002,1,0.6,4.5,0.75,0.35,0.0168,0.4,90,5,0,1,4.45,0,0,-14.96,90,-0.8154,-0.0002,-0.5789,-14.88,90,0,0,0,0,0,0,0,0,90.03,0,0,0,0,0,0,0,0,0,0,0,0,0,0,0,0,0,VALID,0,0,0,0,0,1,0,0,0,0,0,0,0,0,0,0,0,0,0,0,1293.13,1329.93,2,0,0.56,0.5,33,1.79,0.56,0.56,18.06,FLYING,X10-G,0:/Integrated Flight Computer/aircraft/x10_g_cfg.ks (inferred preloaded)
19.52,CRUISE,,220.81,80,-140.81,2249.94,-1.42,-15.6,-14.89,90,0.032,1,0,17.912,1,0.6,4.5,0.75,0.35,0.0168,0.4,90,5,0,1,0.61,0,0,-14.87,90,-0.8544,-0.0001,-0.5196,-10.8,90,0,0,0,0,0,0,0,0,90.03,0,0,0,0,0,0,0,0,0,0,0,0,0,0,0,0,0,VALID,0,0,0,0,0,1,0,0,0,0,0,0,0,0,0,0,0,0,0,0,1303.07,1336.52,2,0,0.56,0.5,34,1.79,0.56,0.56,18.62,FLYING,X10-G,0:/Integrated Flight Computer/aircraft/x10_g_cfg.ks (inferred preloaded)
20.08,CRUISE,,223.84,80,-143.84,2247.7,-12.07,-10.75,-6.15,89.99,0.124,1,0,17.822,1,0.6,4.5,0.75,0.35,0.0168,0.4,90,5,0,1,-2.57,0,0,-10.79,90,-0.9187,0,-0.3949,-2.75,90,0,0,0,0,0,0,0,0,90.03,0,0,0,0,0,0,0,0,0,0,0,0,0,0,0,0,0,VALID,0,0,0,0,0,1,0,0,0,0,0,0,0,0,0,0,0,0,0,0,1322.38,1353.11,2,0,0.56,0.5,35,1.79,0.56,0.56,19.18,FLYING,X10-G,0:/Integrated Flight Computer/aircraft/x10_g_cfg.ks (inferred preloaded)
20.66,CRUISE,,228.64,80,-148.64,2241.54,-18.12,-1.9,4.91,90.01,0.076,0.8,0,20,1,0.6,4.5,0.75,0.35,0.0168,0.4,90,5,0,1,-4.36,0,0,-2.74,90,-0.9758,0.0001,-0.2187,7.89,90,0,0,0,0,0,0,0,0,90.03,0,0,0,0,0,0,0,0,0,0,0,0,0,0,0,0,0,VALID,0,0,0,0,0,1,0,0,0,0,0,0,0,0,0,0,0,0,0,0,1351.46,1379.68,2,0,0.56,0.5,36,1.79,0.56,0.56,19.74,FLYING,X10-G,0:/Integrated Flight Computer/aircraft/x10_g_cfg.ks (inferred preloaded)
21.22,CRUISE,,232.93,80,-152.93,2234.63,-16.93,9.32,15.61,90.02,0.021,0.6,0,20,1,0.6,4.5,0.75,0.35,0.0168,0.4,90,5,0,1,-4.46,0,0,7.91,90,-0.9997,0.0002,-0.0258,19.06,90,0,0,0,0,0,0,0,0,90.03,0,0,0,0,0,0,0,0,0,0,0,0,0,0,0,0,0,VALID,0,0,0,0,0,1,0,0,0,0,0,0,0,0,0,0,0,0,0,0,1331.88,1403.79,2,0,0.56,0.5,37,1.79,0.56,0.56,20.3,FLYING,X10-G,0:/Integrated Flight Computer/aircraft/x10_g_cfg.ks (inferred preloaded)
21.78,CRUISE,,234.42,80,-154.42,2228.19,-11.06,16.13,19.27,90.01,0.002,0.4,0,20,1,0.6,4.5,0.75,0.35,0.0168,0.4,90,5,0,1,-3.13,0,0,19.07,90,-0.9981,0.0002,0.0615,24.08,90,0,0,0,0,0,0,0,0,90.03,0,0,0,0,0,0,0,0,0,0,0,0,0,0,0,0,0,VALID,0,0,0,0,0,1,0,0,0,0,0,0,0,0,0,0,0,0,0,0,1254.1,1412.43,2,0,0.56,0.5,38,1.79,0.56,0.56,20.86,FLYING,X10-G,0:/Integrated Flight Computer/aircraft/x10_g_cfg.ks (inferred preloaded)
22.34,CRUISE,,234.82,80,-154.82,2224.12,-5.24,17.93,19.42,90.01,0.004,0.6,0,20,1,0.6,4.5,0.75,0.35,0.0168,0.4,90,5,0,1,-1.68,0,0,24.09,90,-0.9977,0.0003,0.0674,24.43,90,0,0,0,0,0,0,0,0,90.03,0,0,0,0,0,0,0,0,0,0,0,0,0,0,0,0,0,VALID,0,0,0,0,0,1,0,0,0,0,0,0,0,0,0,0,0,0,0,0,1134.7,1414.83,2,0,0.56,0.5,39,1.79,0.56,0.56,21.42,FLYING,X10-G,0:/Integrated Flight Computer/aircraft/x10_g_cfg.ks (inferred preloaded)
22.9,CRUISE,,234.72,80,-154.72,2223.22,0.53,19.18,19.46,90.02,0.002,0.8,0,20,1,0.6,4.5,0.75,0.35,0.0168,0.4,90,5,0,1,-0.28,0,0,24.45,90,-0.9977,0.0003,0.0675,24.45,90,0,0,0,0,0,0,0,0,90.03,0,0,0,0,0,0,0,0,0,0,0,0,0,0,0,0,0,VALID,0,0,0,0,0,1,0,0,0,0,0,0,0,0,0,0,0,0,0,0,1081.78,1414.42,2,0,0.56,0.5,40,1.79,0.56,0.56,21.98,FLYING,X10-G,0:/Integrated Flight Computer/aircraft/x10_g_cfg.ks (inferred preloaded)
23.44,CRUISE,,234.33,80,-154.33,2225.49,6.12,20.45,19.44,90.02,0.001,1,0,19.9,1,0.6,4.5,0.75,0.35,0.0168,0.4,90,5,0,1,1.11,0,0,24.46,90,-0.9978,0.0003,0.0669,24.43,90,0,0,0,0,0,0,0,0,90.03,0,0,0,0,0,0,0,0,0,0,0,0,0,0,0,0,0,VALID,0,0,0,0,0,1,0,0,0,0,0,0,0,0,0,0,0,0,0,0,1083.8,1412.26,2,0,0.56,0.5,41,1.79,0.56,0.56,22.54,FLYING,X10-G,0:/Integrated Flight Computer/aircraft/x10_g_cfg.ks (inferred preloaded)
24,CRUISE,,233.85,80,-153.85,2230.92,11.8,21.65,19.47,90.02,-0.002,1,0,19.8,1,0.6,4.5,0.75,0.35,0.0168,0.4,90,5,0,1,2.49,0,0,24.44,90,-0.9978,0.0003,0.0664,24.41,90,0,0,0,0,0,0,0,0,90.03,0,0,0,0,0,0,0,0,0,0,0,0,0,0,0,0,0,VALID,0,0,0,0,0,1,0,0,0,0,0,0,0,0,0,0,0,0,0,0,1115.42,1409.44,2,0,0.56,0.5,42,1.79,0.56,0.56,23.1,FLYING,X10-G,0:/Integrated Flight Computer/aircraft/x10_g_cfg.ks (inferred preloaded)
24.56,CRUISE,,233.28,80,-153.28,2239.49,17.35,22.96,19.42,90.02,-0.008,1,0,19.701,1,0.6,4.5,0.75,0.35,0.0168,0.4,90,5,0,1,3.88,0,0,24.43,90,-0.9978,0.0003,0.0662,24.42,90,0,0,0,0,0,0,0,0,90.03,0,0,0,0,0,0,0,0,0,0,0,0,0,0,0,0,0,VALID,0,0,0,0,0,1,0,0,0,0,0,0,0,0,0,0,0,0,0,0,1143.91,1406.05,2,0,0.56,0.5,43,1.79,0.56,0.56,23.66,FLYING,X10-G,0:/Integrated Flight Computer/aircraft/x10_g_cfg.ks (inferred preloaded)
25.12,CRUISE,,232.7,80,-152.7,2251.2,23,24.21,19.44,90.02,-0.008,1,0,19.603,1,0.6,4.5,0.75,0.35,0.0168,0.4,90,5,0,1,5.25,0,0,24.43,90,-0.9978,0.0003,0.0663,24.44,90,0,0,0,0,0,0,0,0,90.03,0,0,0,0,0,0,0,0,0,0,0,0,0,0,0,0,0,VALID,0,0,0,0,0,1,0,0,0,0,0,0,0,0,0,0,0,0,0,0,1168.8,1402.49,2,0,0.56,0.5,44,1.79,0.56,0.56,24.22,FLYING,X10-G,0:/Integrated Flight Computer/aircraft/x10_g_cfg.ks (inferred preloaded)
25.68,CRUISE,,232.06,80,-152.06,2266.04,28.59,25.45,19.43,90.02,-0.011,1,0,19.505,1,0.6,4.5,0.75,0.35,0.0168,0.4,90,5,0,1,6.62,0,0,24.45,90,-0.9978,0.0003,0.0662,24.45,90,0,0,0,0,0,0,0,0,90.03,0,0,0,0,0,0,0,0,0,0,0,0,0,0,0,0,0,VALID,0,0,0,0,0,1,0,0,0,0,0,0,0,0,0,0,0,0,0,0,1190.18,1398.42,2,0,0.56,0.5,45,1.79,0.56,0.56,24.78,FLYING,X10-G,0:/Integrated Flight Computer/aircraft/x10_g_cfg.ks (inferred preloaded)
26.24,CRUISE,,231.34,80,-151.34,2283.98,34.06,26.73,19.44,90.02,-0.015,1,0,19.407,1,0.6,4.5,0.75,0.35,0.0168,0.4,90,5,0,1,7.99,0,0,24.46,90,-0.9978,0.0003,0.0658,24.44,90,0,0,0,0,0,0,0,0,90.03,0,0,0,0,0,0,0,0,0,0,0,0,0,0,0,0,0,VALID,0,0,0,0,0,1,0,0,0,0,0,0,0,0,0,0,0,0,0,0,1208.33,1393.83,2,0,0.56,0.5,46,1.79,0.56,0.56,25.34,FLYING,X10-G,0:/Integrated Flight Computer/aircraft/x10_g_cfg.ks (inferred preloaded)
26.8,CRUISE,,230.55,80,-150.55,2305,39.52,27.96,19.45,90.02,-0.02,1,0,19.31,1,0.6,4.5,0.75,0.35,0.0168,0.4,90,5,0,1,9.35,0,0,24.45,90,-0.9979,0.0003,0.0654,24.43,90,0,0,0,0,0,0,0,0,90.03,0,0,0,0,0,0,0,0,0,0,0,0,0,0,0,0,0,VALID,0,0,0,0,0,1,0,0,0,0,0,0,0,0,0,0,0,0,0,0,1223.56,1388.72,2,0,0.56,0.5,47,1.79,0.56,0.56,25.9,FLYING,X10-G,0:/Integrated Flight Computer/aircraft/x10_g_cfg.ks (inferred preloaded)
27.36,CRUISE,,229.67,80,-149.67,2329.06,44.99,29.21,19.46,90.02,-0.026,1,0,19.214,1,0.6,4.5,0.75,0.35,0.0168,0.4,90,5,0,1,10.7,0,0,24.44,90,-0.9979,0.0003,0.0653,24.43,90,0,0,0,0,0,0,0,0,90.03,0,0,0,0,0,0,0,0,0,0,0,0,0,0,0,0,0,VALID,0,0,0,0,0,1,0,0,0,0,0,0,0,0,0,0,0,0,0,0,1236.05,1383.04,2,0,0.56,0.5,48,1.79,0.56,0.56,26.46,FLYING,X10-G,0:/Integrated Flight Computer/aircraft/x10_g_cfg.ks (inferred preloaded)
27.92,CRUISE,,228.71,80,-148.71,2356.11,50.27,30.45,19.44,90.01,-0.029,1,0,19.118,1,0.6,4.5,0.75,0.35,0.0168,0.4,90,5,0,1,12.02,0,0,24.45,90,-0.9979,0.0003,0.065,24.43,90,0,0,0,0,0,0,0,0,90.03,0,0,0,0,0,0,0,0,0,0,0,0,0,0,0,0,0,VALID,0,0,0,0,0,1,0,0,0,0,0,0,0,0,0,0,0,0,0,0,1246.04,1376.79,2,0,0.56,0.5,49,1.79,0.56,0.56,27.02,FLYING,X10-G,0:/Integrated Flight Computer/aircraft/x10_g_cfg.ks (inferred preloaded)
28.48,CRUISE,,227.65,80,-147.65,2386.13,55.53,31.69,19.45,90.01,-0.036,1,0,19.022,1,0.6,4.5,0.75,0.35,0.0168,0.4,90,5,0,1,13.34,0,0,24.44,90,-0.9979,0.0003,0.0646,24.42,90,0,0,0,0,0,0,0,0,90.03,0,0,0,0,0,0,0,0,0,0,0,0,0,0,0,0,0,VALID,0,0,0,0,0,1,0,0,0,0,0,0,0,0,0,0,0,0,0,0,1253.69,1369.94,2,0,0.56,0.5,50,1.79,0.56,0.56,27.58,FLYING,X10-G,0:/Integrated Flight Computer/aircraft/x10_g_cfg.ks (inferred preloaded)
29.04,CRUISE,,226.5,80,-146.5,2419.04,60.69,32.94,19.44,90.01,-0.044,1,0,18.927,1,0.6,4.5,0.75,0.35,0.0168,0.4,90,5,0,1,14.64,0,0,24.44,90,-0.9979,0.0003,0.0645,24.43,90,0,0,0,0,0,0,0,0,90.03,0,0,0,0,0,0,0,0,0,0,0,0,0,0,0,0,0,VALID,0,0,0,0,0,1,0,0,0,0,0,0,0,0,0,0,0,0,0,0,1259.22,1362.5,2,0,0.56,0.5,51,1.79,0.56,0.56,28.14,FLYING,X10-G,0:/Integrated Flight Computer/aircraft/x10_g_cfg.ks (inferred preloaded)
29.6,CRUISE,,225.27,80,-145.27,2454.79,65.75,34.19,19.42,90.01,-0.046,1,0,18.832,1,0.6,4.5,0.75,0.35,0.0168,0.4,90,5,0,1,15.9,0,0,24.44,90,-0.9979,0.0003,0.065,24.47,90,0,0,0,0,0,0,0,0,90.03,0,0,0,0,0,0,0,0,0,0,0,0,0,0,0,0,0,VALID,0,0,0,0,0,1,0,0,0,0,0,0,0,0,0,0,0,0,0,0,1262.81,1354.53,2,0,0.56,0.5,52,1.79,0.56,0.56,28.7,FLYING,X10-G,0:/Integrated Flight Computer/aircraft/x10_g_cfg.ks (inferred preloaded)
30.16,CRUISE,,223.93,80,-143.93,2493.33,70.63,35.39,19.45,90,-0.052,1,0,18.738,1,0.6,4.5,0.75,0.35,0.0168,0.4,90,5,0,1,17.16,0,0,24.48,90,-0.9979,0.0003,0.0644,24.45,90,0,0,0,0,0,0,0,0,90.03,0,0,0,0,0,0,0,0,0,0,0,0,0,0,0,0,0,VALID,0,0,0,0,0,1,0,0,0,0,0,0,0,0,0,0,0,0,0,0,1264.54,1345.96,2,0,0.56,0.5,53,1.79,0.56,0.56,29.26,FLYING,X10-G,0:/Integrated Flight Computer/aircraft/x10_g_cfg.ks (inferred preloaded)
30.72,CRUISE,,222.46,80,-142.46,2532.97,75.32,36.49,19.04,90,-0.063,1,0,18.645,1,0.6,4.5,0.75,0.35,0.0168,0.4,90,5,0,1,18.41,0,0,24.46,90,-0.9982,0.0003,0.0604,24.23,90,0,0,0,0,0,0,0,0,90.03,0,0,0,0,0,0,0,0,0,0,0,0,0,0,0,0,0,VALID,0,0,0,0,0,1,0,0,0,0,0,0,0,0,0,0,0,0,0,0,1264.38,1336.58,2,0,0.56,0.5,54,1.79,0.56,0.56,29.82,FLYING,X10-G,0:/Integrated Flight Computer/aircraft/x10_g_cfg.ks (inferred preloaded)
31.28,CRUISE,,220.95,80,-140.95,2576.52,80.09,37.27,18.11,89.99,-0.074,1,0,18.551,1,0.6,4.5,0.75,0.35,0.0168,0.4,90,5,0,1,19.59,0,0,24.25,90,-0.9987,0.0003,0.0517,23.74,90,0,0,0,0,0,0,0,0,90.03,0,0,0,0,0,0,0,0,0,0,0,0,0,0,0,0,0,VALID,0,0,0,0,0,1,0,0,0,0,0,0,0,0,0,0,0,0,0,0,1263,1326.95,2,0,0.56,0.5,55,1.79,0.56,0.56,30.38,FLYING,X10-G,0:/Integrated Flight Computer/aircraft/x10_g_cfg.ks (inferred preloaded)
31.84,CRUISE,,220.07,80,-140.07,2621.85,83.38,34.9,15.21,90,-0.076,1,0,18.459,1,0.6,4.5,0.75,0.35,0.0168,0.4,90,5,0,1,20.56,0,0,23.76,90,-1,0.0002,-0.0049,20.51,90,0,0,0,0,0,0,0,0,90.03,0,0,0,0,0,0,0,0,0,0,0,0,0,0,0,0,0,VALID,0,0,0,0,0,1,0,0,0,0,0,0,0,0,0,0,0,0,0,0,1263.47,1320.61,2,0,0.56,0.5,56,1.79,0.56,0.56,30.94,FLYING,X10-G,0:/Integrated Flight Computer/aircraft/x10_g_cfg.ks (inferred preloaded)
32.4,CRUISE,,219.83,80,-139.83,2668.24,85.87,31.19,9.85,90,-0.097,1,0,18.366,1,0.6,4.5,0.75,0.35,0.0168,0.4,90,5,0,1,21.3,0,0,20.53,90,-0.9961,0.0002,-0.0878,15.77,90,0,0,0,0,0,0,0,0,90.03,0,0,0,0,0,0,0,0,0,0,0,0,0,0,0,0,0,VALID,0,0,0,0,0,1,0,0,0,0,0,0,0,0,0,0,0,0,0,0,1266.49,1317.63,2,0,0.56,0.5,57,1.79,0.56,0.56,31.5,FLYING,X10-G,0:/Integrated Flight Computer/aircraft/x10_g_cfg.ks (inferred preloaded)
32.96,CRUISE,,220.94,80,-140.94,2716.33,85.42,24.63,3.5,90,-0.182,1,0,18.274,1,0.6,4.5,0.75,0.35,0.0168,0.4,90,5,0,1,21.31,0,0,15.79,90,-0.9798,0.0001,-0.1998,9.29,90,0,0,0,0,0,0,0,0,90.03,0,0,0,0,0,0,0,0,0,0,0,0,0,0,0,0,0,VALID,0,0,0,0,0,1,0,0,0,0,0,0,0,0,0,0,0,0,0,0,1275.87,1321.91,2,0,0.56,0.5,58,1.79,0.56,0.56,32.06,FLYING,X10-G,0:/Integrated Flight Computer/aircraft/x10_g_cfg.ks (inferred preloaded)
33.52,CRUISE,,222.75,80,-142.75,2761.36,82.59,17.72,-3.38,90.02,0.006,1,0,18.183,1,0.6,4.5,0.75,0.35,0.0168,0.4,90,5,0,1,20.71,0,0,9.31,90,-0.9513,0,-0.3082,2.88,90,0,0,0,0,0,0,0,0,90.03,0,0,0,0,0,0,0,0,0,0,0,0,0,0,0,0,0,VALID,0,0,0,0,0,1,0,0,0,0,0,0,0,0,0,0,0,0,0,0,1288.48,1329.99,2,0,0.56,0.5,59,1.79,0.56,0.56,32.62,FLYING,X10-G,0:/Integrated Flight Computer/aircraft/x10_g_cfg.ks (inferred preloaded)
34.08,CRUISE,,224.62,80,-144.62,2803.06,75.06,8.27,-10.61,90.01,0.08,1,0,18.092,1,0.6,4.5,0.75,0.35,0.0168,0.4,90,5,0,1,19.14,0,0,2.9,90,-0.9016,0,-0.4326,-4.79,90,0,0,0,0,0,0,0,0,90.03,0,0,0,0,0,0,0,0,0,0,0,0,0,0,0,0,0,VALID,0,0,0,0,0,1,0,0,0,0,0,0,0,0,0,0,0,0,0,0,1301.21,1338.45,2,0,0.56,0.5,60,1.79,0.56,0.56,33.18,FLYING,X10-G,0:/Integrated Flight Computer/aircraft/x10_g_cfg.ks (inferred preloaded)
34.64,CRUISE,,225.95,80,-145.95,2838.39,65.08,0.13,-17.09,89.99,0.081,1,0,18.002,1,0.6,4.5,0.75,0.35,0.0168,0.4,90,5,0,1,16.83,0,0,-4.77,90,-0.8516,-0.0001,-0.5242,-10.76,90,0,0,0,0,0,0,0,0,90.03,0,0,0,0,0,0,0,0,0,0,0,0,0,0,0,0,0,VALID,0,0,0,0,0,1,0,0,0,0,0,0,0,0,0,0,0,0,0,0,1310.88,1344.23,2,0,0.56,0.5,61,1.79,0.56,0.56,33.74,FLYING,X10-G,0:/Integrated Flight Computer/aircraft/x10_g_cfg.ks (inferred preloaded)
35.2,CRUISE,,225.63,80,-145.63,2868.66,50.13,-7.7,-19.89,89.99,0.079,1,0,17.912,1,0.6,4.5,0.75,0.35,0.0168,0.4,90,5,0,1,13.43,0,0,-10.74,90,-0.8125,-0.0001,-0.5829,-14.78,90,0,0,0,0,0,0,0,0,90.03,0,0,0,0,0,0,0,0,0,0,0,0,0,0,0,0,0,VALID,0,0,0,0,0,1,0,0,0,0,0,0,0,0,0,0,0,0,0,0,1311.85,1341.4,2,0,0.56,0.5,62,1.79,0.56,0.56,34.3,FLYING,X10-G,0:/Integrated Flight Computer/aircraft/x10_g_cfg.ks (inferred preloaded)
35.76,CRUISE,,225.5,80,-145.5,2891.37,35.17,-11.32,-19.97,89.99,0.066,1,0,17.822,1,0.6,4.5,0.75,0.35,0.0168,0.4,90,5,0,1,9.79,0,0,-14.77,90,-0.8105,-0.0001,-0.5857,-14.97,90,0,0,0,0,0,0,0,0,90.03,0,0,0,0,0,0,0,0,0,0,0,0,0,0,0,0,0,VALID,0,0,0,0,0,1,0,0,0,0,0,0,0,0,0,0,0,0,0,0,1313.4,1339.88,2,0,0.56,0.5,63,1.79,0.56,0.56,34.86,FLYING,X10-G,0:/Integrated Flight Computer/aircraft/x10_g_cfg.ks (inferred preloaded)
36.32,CRUISE,,225.83,80,-145.83,2905.7,20.06,-14.71,-19.98,89.99,0.059,1,0,17.733,1,0.6,4.5,0.75,0.35,0.0168,0.4,90,5,0,1,6.03,0,0,-14.95,90,-0.8102,-0.0001,-0.5861,-14.98,90,0,0,0,0,0,0,0,0,90.03,0,0,0,0,0,0,0,0,0,0,0,0,0,0,0,0,0,VALID,0,0,0,0,0,1,0,0,0,0,0,0,0,0,0,0,0,0,0,0,1317.35,1341.14,2,0,0.56,0.5,64,1.79,0.56,0.56,35.42,FLYING,X10-G,0:/Integrated Flight Computer/aircraft/x10_g_cfg.ks (inferred preloaded)
36.88,CRUISE,,226.38,80,-146.38,2911.99,4.41,-17.24,-17.93,89.99,0.061,1,0,17.644,1,0.6,4.5,0.75,0.35,0.0168,0.4,90,5,0,1,2.09,0,0,-14.97,90,-0.8224,-0.0001,-0.569,-13.77,90,0,0,0,0,0,0,0,0,90.03,0,0,0,0,0,0,0,0,0,0,0,0,0,0,0,0,0,VALID,0,0,0,0,0,1,0,0,0,0,0,0,0,0,0,0,0,0,0,0,1322.48,1343.87,2,0,0.56,0.5,65,1.79,0.56,0.56,35.98,FLYING,X10-G,0:/Integrated Flight Computer/aircraft/x10_g_cfg.ks (inferred preloaded)
37.44,CRUISE,,228.45,80,-148.45,2911.84,-8.47,-13.53,-10.37,90,0.073,1,0,17.556,1,0.6,4.5,0.75,0.35,0.0168,0.4,90,5,0,1,-1.47,0,0,-13.75,90,-0.8861,-0.0001,-0.4635,-6.68,90,0,0,0,0,0,0,0,0,90.03,0,0,0,0,0,0,0,0,0,0,0,0,0,0,0,0,0,VALID,0,0,0,0,0,1,0,0,0,0,0,0,0,0,0,0,0,0,0,0,1335.39,1355.23,2,0,0.56,0.5,66,1.79,0.56,0.56,36.54,FLYING,X10-G,0:/Integrated Flight Computer/aircraft/x10_g_cfg.ks (inferred preloaded)
38,CRUISE,,232.67,80,-152.67,2906.43,-17.31,-6.5,-0.44,90.01,-0.037,0.9978,0,20,1,0.6,4.5,0.75,0.35,0.0168,0.4,90,5,0,1,-3.9,0,0,-6.67,90,-0.9497,0,-0.3131,2.7,90,0,0,0,0,0,0,0,0,90.03,0,0,0,0,0,0,0,0,0,0,0,0,0,0,0,0,0,VALID,0,0,0,0,0,1,0,0,0,0,0,0,0,0,0,0,0,0,0,0,1360.27,1378.64,2,0,0.56,0.5,67,1.79,0.56,0.56,37.1,FLYING,X10-G,0:/Integrated Flight Computer/aircraft/x10_g_cfg.ks (inferred preloaded)
38.58,CRUISE,,237.56,80,-157.56,2899.15,-19.35,4.28,11.16,90,-0.06,0.7978,0,20,1,0.6,4.5,0.75,0.35,0.0168,0.4,90,5,0,1,-4.73,0,0,2.71,90,-0.9931,0.0002,-0.1174,14.21,90,0,0,0,0,0,0,0,0,90.03,0,0,0,0,0,0,0,0,0,0,0,0,0,0,0,0,0,VALID,0,0,0,0,0,1,0,0,0,0,0,0,0,0,0,0,0,0,0,0,1389.03,1406.08,2,0,0.56,0.5,68,1.79,0.56,0.56,37.66,FLYING,X10-G,0:/Integrated Flight Computer/aircraft/x10_g_cfg.ks (inferred preloaded)
39.12,CRUISE,,240.34,80,-160.34,2891.94,-14.36,14.13,18.51,89.99,-0.055,0.5978,0,20,1,0.6,4.5,0.75,0.35,0.0168,0.4,90,5,0,1,-3.86,0,0,14.23,90,-0.9995,0.0003,0.0329,22.86,90,0,0,0,0,0,0,0,0,90.03,0,0,0,0,0,0,0,0,0,0,0,0,0,0,0,0,0,VALID,0,0,0,0,0,1,0,0,0,0,0,0,0,0,0,0,0,0,0,0,1358.44,1421.85,2,0,0.56,0.5,69,1.79,0.56,0.56,38.22,FLYING,X10-G,0:/Integrated Flight Computer/aircraft/x10_g_cfg.ks (inferred preloaded)
39.68,CRUISE,,241.04,80,-161.04,2886.41,-7.88,17.35,19.38,90,-0.037,0.3978,0,20,1,0.6,4.5,0.75,0.35,0.0168,0.4,90,5,0,1,-2.3,0,0,22.87,90,-0.9983,0.0003,0.0591,24.37,90,0,0,0,0,0,0,0,0,90.03,0,0,0,0,0,0,0,0,0,0,0,0,0,0,0,0,0,VALID,0,0,0,0,0,1,0,0,0,0,0,0,0,0,0,0,0,0,0,0,1273.11,1425.98,2,0,0.56,0.5,70,1.79,0.56,0.56,38.78,FLYING,X10-G,0:/Integrated Flight Computer/aircraft/x10_g_cfg.ks (inferred preloaded)
40.24,CRUISE,,241.18,80,-161.18,2884.15,-1.79,18.64,19.4,90,-0.029,0.5297,0,20,1,0.6,4.5,0.75,0.35,0.0168,0.4,90,5,0,1,-0.82,0,0,24.39,90,-0.9983,0.0003,0.0585,24.35,90,0,0,0,0,0,0,0,0,90.03,0,0,0,0,0,0,0,0,0,0,0,0,0,0,0,0,0,VALID,0,0,0,0,0,1,0,0,0,0,0,0,0,0,0,0,0,0,0,0,1149.5,1426.85,2,0,0.56,0.5,71,1.79,0.56,0.56,39.34,FLYING,X10-G,0:/Integrated Flight Computer/aircraft/x10_g_cfg.ks (inferred preloaded)
40.82,CRUISE,,240.78,80,-160.78,2885.31,4.33,19.99,19.45,90,-0.021,0.7297,0,20,1,0.6,4.5,0.75,0.35,0.0168,0.4,90,5,0,1,0.62,0,0,24.37,90,-0.9982,0.0003,0.0598,24.44,90,0,0,0,0,0,0,0,0,90.03,0,0,0,0,0,0,0,0,0,0,0,0,0,0,0,0,0,VALID,0,0,0,0,0,1,0,0,0,0,0,0,0,0,0,0,0,0,0,0,1076.58,1424.71,2,0,0.56,0.5,72,1.79,0.56,0.56,39.9,FLYING,X10-G,0:/Integrated Flight Computer/aircraft/x10_g_cfg.ks (inferred preloaded)
41.36,CRUISE,,240.05,80,-160.05,2889.83,10.29,21.23,19.43,90,-0.018,0.9297,0,19.9,1,0.6,4.5,0.75,0.35,0.0168,0.4,90,5,0,1,2.05,0,0,24.45,90,-0.9982,0.0003,0.0594,24.43,90,0,0,0,0,0,0,0,0,90.03,0,0,0,0,0,0,0,0,0,0,0,0,0,0,0,0,0,VALID,0,0,0,0,0,1,0,0,0,0,0,0,0,0,0,0,0,0,0,0,1065.29,1420.59,2,0,0.56,0.5,73,1.79,0.56,0.56,40.46,FLYING,X10-G,0:/Integrated Flight Computer/aircraft/x10_g_cfg.ks (inferred preloaded)
41.92,CRUISE,,239.17,80,-159.17,2897.67,16.2,22.48,19.43,90.01,-0.015,1,0,19.8,1,0.6,4.5,0.75,0.35,0.0168,0.4,90,5,0,1,3.47,0,0,24.45,90,-0.9982,0.0003,0.0592,24.43,90,0,0,0,0,0,0,0,0,90.03,0,0,0,0,0,0,0,0,0,0,0,0,0,0,0,0,0,VALID,0,0,0,0,0,1,0,0,0,0,0,0,0,0,0,0,0,0,0,0,1087.54,1415.64,2,0,0.56,0.5,74,1.79,0.56,0.56,41.02,FLYING,X10-G,0:/Integrated Flight Computer/aircraft/x10_g_cfg.ks (inferred preloaded)
42.48,CRUISE,,238.25,80,-158.25,2908.79,22.08,23.73,19.41,90.01,-0.015,1,0,19.701,1,0.6,4.5,0.75,0.35,0.0168,0.4,90,5,0,1,4.88,0,0,24.45,90,-0.9983,0.0003,0.0591,24.44,90,0,0,0,0,0,0,0,0,90.03,0,0,0,0,0,0,0,0,0,0,0,0,0,0,0,0,0,VALID,0,0,0,0,0,1,0,0,0,0,0,0,0,0,0,0,0,0,0,0,1117.84,1410.33,2,0,0.56,0.5,75,1.79,0.56,0.56,41.58,FLYING,X10-G,0:/Integrated Flight Computer/aircraft/x10_g_cfg.ks (inferred preloaded)
43.04,CRUISE,,237.3,80,-157.3,2923.17,27.81,24.97,19.43,90.01,-0.014,1,0,19.603,1,0.6,4.5,0.75,0.35,0.0168,0.4,90,5,0,1,6.3,0,0,24.46,90,-0.9983,0.0003,0.0583,24.41,90,0,0,0,0,0,0,0,0,90.03,0,0,0,0,0,0,0,0,0,0,0,0,0,0,0,0,0,VALID,0,0,0,0,0,1,0,0,0,0,0,0,0,0,0,0,0,0,0,0,1144.39,1404.77,2,0,0.56,0.5,76,1.79,0.56,0.56,42.14,FLYING,X10-G,0:/Integrated Flight Computer/aircraft/x10_g_cfg.ks (inferred preloaded)
43.6,CRUISE,,236.3,80,-156.3,2940.76,33.58,26.21,19.42,90.01,-0.013,1,0,19.505,1,0.6,4.5,0.75,0.35,0.0168,0.4,90,5,0,1,7.69,0,0,24.43,90,-0.9983,0.0003,0.0584,24.44,90,0,0,0,0,0,0,0,0,90.03,0,0,0,0,0,0,0,0,0,0,0,0,0,0,0,0,0,VALID,0,0,0,0,0,1,0,0,0,0,0,0,0,0,0,0,0,0,0,0,1167.17,1398.92,2,0,0.56,0.5,77,1.79,0.56,0.56,42.7,FLYING,X10-G,0:/Integrated Flight Computer/aircraft/x10_g_cfg.ks (inferred preloaded)
44.16,CRUISE,,235.26,80,-155.26,2961.55,39.23,27.43,19.43,90.01,-0.013,1,0,19.407,1,0.6,4.5,0.75,0.35,0.0168,0.4,90,5,0,1,9.08,0,0,24.45,90,-0.9983,0.0003,0.058,24.42,90,0,0,0,0,0,0,0,0,90.03,0,0,0,0,0,0,0,0,0,0,0,0,0,0,0,0,0,VALID,0,0,0,0,0,1,0,0,0,0,0,0,0,0,0,0,0,0,0,0,1186.53,1392.72,2,0,0.56,0.5,78,1.79,0.56,0.56,43.26,FLYING,X10-G,0:/Integrated Flight Computer/aircraft/x10_g_cfg.ks (inferred preloaded)
44.72,CRUISE,,234.14,80,-154.14,2985.48,44.82,28.68,19.41,90.01,-0.016,1,0,19.31,1,0.6,4.5,0.75,0.35,0.0168,0.4,90,5,0,1,10.46,0,0,24.44,90,-0.9984,0.0003,0.0574,24.41,90,0,0,0,0,0,0,0,0,90.03,0,0,0,0,0,0,0,0,0,0,0,0,0,0,0,0,0,VALID,0,0,0,0,0,1,0,0,0,0,0,0,0,0,0,0,0,0,0,0,1202.69,1386.07,2,0,0.56,0.5,79,1.79,0.56,0.56,43.82,FLYING,X10-G,0:/Integrated Flight Computer/aircraft/x10_g_cfg.ks (inferred preloaded)
45.28,CRUISE,,232.99,80,-152.99,3012.52,50.35,29.87,19.43,90.01,-0.02,1,0,19.214,1,0.6,4.5,0.75,0.35,0.0168,0.4,90,5,0,1,11.81,0,0,24.42,90,-0.9984,0.0003,0.0572,24.41,90,0,0,0,0,0,0,0,0,90.03,0,0,0,0,0,0,0,0,0,0,0,0,0,0,0,0,0,VALID,0,0,0,0,0,1,0,0,0,0,0,0,0,0,0,0,0,0,0,0,1216.06,1379.12,2,0,0.56,0.5,80,1.79,0.56,0.56,44.38,FLYING,X10-G,0:/Integrated Flight Computer/aircraft/x10_g_cfg.ks (inferred preloaded)
45.84,CRUISE,,231.75,80,-151.75,3042.6,55.77,31.13,19.45,90.01,-0.023,1,0,19.118,1,0.6,4.5,0.75,0.35,0.0168,0.4,90,5,0,1,13.15,0,0,24.42,90,-0.9983,0.0003,0.0575,24.44,90,0,0,0,0,0,0,0,0,90.03,0,0,0,0,0,0,0,0,0,0,0,0,0,0,0,0,0,VALID,0,0,0,0,0,1,0,0,0,0,0,0,0,0,0,0,0,0,0,0,1226.76,1371.68,2,0,0.56,0.5,81,1.79,0.56,0.56,44.94,FLYING,X10-G,0:/Integrated Flight Computer/aircraft/x10_g_cfg.ks (inferred preloaded)
46.4,CRUISE,,230.43,80,-150.43,3075.67,61.03,32.33,19.46,90.01,-0.027,1,0,19.022,1,0.6,4.5,0.75,0.35,0.0168,0.4,90,5,0,1,14.47,0,0,24.45,90,-0.9984,0.0003,0.0569,24.42,90,0,0,0,0,0,0,0,0,90.03,0,0,0,0,0,0,0,0,0,0,0,0,0,0,0,0,0,VALID,0,0,0,0,0,1,0,0,0,0,0,0,0,0,0,0,0,0,0,0,1235.01,1363.76,2,0,0.56,0.5,82,1.79,0.56,0.56,45.5,FLYING,X10-G,0:/Integrated Flight Computer/aircraft/x10_g_cfg.ks (inferred preloaded)
46.96,CRUISE,,229.04,80,-149.04,3111.66,66.25,33.55,19.44,90.01,-0.031,1,0,18.927,1,0.6,4.5,0.75,0.35,0.0168,0.4,90,5,0,1,15.76,0,0,24.43,90,-0.9983,0.0003,0.0576,24.47,90,0,0,0,0,0,0,0,0,90.03,0,0,0,0,0,0,0,0,0,0,0,0,0,0,0,0,0,VALID,0,0,0,0,0,1,0,0,0,0,0,0,0,0,0,0,0,0,0,0,1241.08,1355.39,2,0,0.56,0.5,83,1.79,0.56,0.56,46.06,FLYING,X10-G,0:/Integrated Flight Computer/aircraft/x10_g_cfg.ks (inferred preloaded)
47.52,CRUISE,,227.57,80,-147.57,3150.51,71.29,34.74,19.43,90.01,-0.038,1,0,18.832,1,0.6,4.5,0.75,0.35,0.0168,0.4,90,5,0,1,17.03,0,0,24.48,90,-0.9984,0.0003,0.0571,24.46,90,0,0,0,0,0,0,0,0,90.03,0,0,0,0,0,0,0,0,0,0,0,0,0,0,0,0,0,VALID,0,0,0,0,0,1,0,0,0,0,0,0,0,0,0,0,0,0,0,0,1245.1,1346.56,2,0,0.56,0.5,84,1.79,0.56,0.56,46.62,FLYING,X10-G,0:/Integrated Flight Computer/aircraft/x10_g_cfg.ks (inferred preloaded)
48.08,CRUISE,,226.02,80,-146.02,3192.14,76.21,35.92,19.44,90,-0.045,1,0,18.738,1,0.6,4.5,0.75,0.35,0.0168,0.4,90,5,0,1,18.28,0,0,24.47,90,-0.9984,0.0003,0.057,24.47,90,0,0,0,0,0,0,0,0,90.03,0,0,0,0,0,0,0,0,0,0,0,0,0,0,0,0,0,VALID,0,0,0,0,0,1,0,0,0,0,0,0,0,0,0,0,0,0,0,0,1247.29,1337.31,2,0,0.56,0.5,85,1.79,0.56,0.56,47.18,FLYING,X10-G,0:/Integrated Flight Computer/aircraft/x10_g_cfg.ks (inferred preloaded)
48.64,CRUISE,,224.4,80,-144.4,3234.69,80.94,36.57,18.55,90,-0.058,1,0,18.645,1,0.6,4.5,0.75,0.35,0.0168,0.4,90,4.867,0,1,19.51,0,0,24.48,90,-0.999,0.0003,0.044,23.73,90,0,0,0,0,0,0,0,0,90.03,0,0,0,0,0,0,0,0,0,0,0,0,0,0,0,0,0,VALID,0,0,0,0,0,1,0,0,0,0,0,0,0,0,0,0,0,0,0,0,1247.75,1327.6,2,0,0.56,0.5,86,1.79,0.56,0.56,47.74,FLYING,X10-G,0:/Integrated Flight Computer/aircraft/x10_g_cfg.ks (inferred preloaded)
49.2,CRUISE,,223.17,80,-143.17,3280.88,84.99,35.51,16.21,90,-0.065,1,0,18.551,1,0.6,4.5,0.75,0.35,0.0168,0.4,90,4.423,0,1,20.61,0,0,23.74,90,-1,0.0002,-0.0025,21.08,90,0,0,0,0,0,0,0,0,90.03,0,0,0,0,0,0,0,0,0,0,0,0,0,0,0,0,0,VALID,0,0,0,0,0,1,0,0,0,0,0,0,0,0,0,0,0,0,0,0,1248.95,1320,2,0,0.56,0.5,87,1.79,0.56,0.56,48.3,FLYING,X10-G,0:/Integrated Flight Computer/aircraft/x10_g_cfg.ks (inferred preloaded)
49.76,CRUISE,,222.68,80,-142.68,3328.31,87.68,31.64,11.15,90,-0.083,1,0,18.459,1,0.6,4.5,0.75,0.35,0.0168,0.4,90,4.03,0,1,21.42,0,0,21.09,90,-0.9957,0.0002,-0.0931,15.9,90,0,0,0,0,0,0,0,0,90.03,0,0,0,0,0,0,0,0,0,0,0,0,0,0,0,0,0,VALID,0,0,0,0,0,1,0,0,0,0,0,0,0,0,0,0,0,0,0,0,1252.82,1316.36,2,0,0.56,0.5,88,1.79,0.56,0.56,48.86,FLYING,X10-G,0:/Integrated Flight Computer/aircraft/x10_g_cfg.ks (inferred preloaded)
50.32,CRUISE,,223.41,80,-143.41,3375.98,88.26,25.62,4.31,90,-0.178,1,0,18.366,1,0.6,4.5,0.75,0.35,0.0168,0.4,90,3.736,0,1,21.67,0,0,15.91,90,-0.978,0.0001,-0.2087,9.2,90,0,0,0,0,0,0,0,0,90.03,0,0,0,0,0,0,0,0,0,0,0,0,0,0,0,0,0,VALID,0,0,0,0,0,1,0,0,0,0,0,0,0,0,0,0,0,0,0,0,1262.17,1319.29,2,0,0.56,0.5,89,1.79,0.56,0.56,49.42,FLYING,X10-G,0:/Integrated Flight Computer/aircraft/x10_g_cfg.ks (inferred preloaded)
50.88,CRUISE,,225.14,80,-145.14,3423.93,85.04,17.15,-3.59,90.02,-0.013,1,0,18.274,1,0.6,4.5,0.75,0.35,0.0168,0.4,90,3.619,0,1,21.08,0,0,9.22,90,-0.9395,0,-0.3426,1.23,90,0,0,0,0,0,0,0,0,90.03,0,0,0,0,0,0,0,0,0,0,0,0,0,0,0,0,0,VALID,0,0,0,0,0,1,0,0,0,0,0,0,0,0,0,0,0,0,0,0,1276.17,1327.65,2,0,0.56,0.5,90,1.79,0.56,0.56,49.98,FLYING,X10-G,0:/Integrated Flight Computer/aircraft/x10_g_cfg.ks (inferred preloaded)
51.44,CRUISE,,226.98,80,-146.98,3466.82,77.76,7.69,-11.67,90.01,0.051,1,0,18.183,1,0.6,4.5,0.75,0.35,0.0168,0.4,90,3.715,0,1,19.58,0,0,1.24,90,-0.8836,0,-0.4683,-6.65,90,0,0,0,0,0,0,0,0,90.03,0,0,0,0,0,0,0,0,0,0,0,0,0,0,0,0,0,VALID,0,0,0,0,0,1,0,0,0,0,0,0,0,0,0,0,0,0,0,0,1290.38,1336.65,2,0,0.56,0.5,91,1.79,0.56,0.56,50.54,FLYING,X10-G,0:/Integrated Flight Computer/aircraft/x10_g_cfg.ks (inferred preloaded)
52,CRUISE,,227.67,80,-147.67,3502.92,65.84,-2.57,-18.69,90,0.064,1,0,18.092,1,0.6,4.5,0.75,0.35,0.0168,0.4,90,4.094,0,1,16.97,0,0,-6.63,90,-0.8183,-0.0001,-0.5748,-13.8,90,0,0,0,0,0,0,0,0,90.03,0,0,0,0,0,0,0,0,0,0,0,0,0,0,0,0,0,VALID,0,0,0,0,0,1,0,0,0,0,0,0,0,0,0,0,0,0,0,0,1298.39,1339.52,2,0,0.56,0.5,92,1.79,0.56,0.56,51.1,FLYING,X10-G,0:/Integrated Flight Computer/aircraft/x10_g_cfg.ks (inferred preloaded)
52.56,CRUISE,,227.05,80,-147.05,3534.09,50.84,-8.23,-19.94,89.99,0.061,1,0,18.002,1,0.6,4.5,0.75,0.35,0.0168,0.4,90,4.679,0,1,13.51,0,0,-13.78,90,-0.8034,-0.0001,-0.5954,-15.24,90,0,0,0,0,0,0,0,0,90.03,0,0,0,0,0,0,0,0,0,0,0,0,0,0,0,0,0,VALID,0,0,0,0,0,1,0,0,0,0,0,0,0,0,0,0,0,0,0,0,1298.89,1335.55,2,0,0.56,0.5,93,1.79,0.56,0.56,51.66,FLYING,X10-G,0:/Integrated Flight Computer/aircraft/x10_g_cfg.ks (inferred preloaded)
53.12,CRUISE,,226.88,80,-146.88,3557.26,35.89,-11.52,-19.97,89.99,0.056,1,0,17.912,1,0.6,4.5,0.75,0.35,0.0168,0.4,90,5,0,1,9.91,0,0,-15.22,90,-0.806,-0.0001,-0.5919,-14.97,90,0,0,0,0,0,0,0,0,90.03,0,0,0,0,0,0,0,0,0,0,0,0,0,0,0,0,0,VALID,0,0,0,0,0,1,0,0,0,0,0,0,0,0,0,0,0,0,0,0,1301.37,1334.19,2,0,0.56,0.5,94,1.79,0.56,0.56,52.22,FLYING,X10-G,0:/Integrated Flight Computer/aircraft/x10_g_cfg.ks (inferred preloaded)
53.68,CRUISE,,227.14,80,-147.14,3572.03,20.78,-14.77,-19.98,89.99,0.055,1,0,17.822,1,0.6,4.5,0.75,0.35,0.0168,0.4,90,5,0,1,6.18,0,0,-14.96,90,-0.8058,-0.0001,-0.5923,-14.98,90,0,0,0,0,0,0,0,0,90.03,0,0,0,0,0,0,0,0,0,0,0,0,0,0,0,0,0,VALID,0,0,0,0,0,1,0,0,0,0,0,0,0,0,0,0,0,0,0,0,1305.81,1335.25,2,0,0.56,0.5,95,1.79,0.56,0.56,52.78,FLYING,X10-G,0:/Integrated Flight Computer/aircraft/x10_g_cfg.ks (inferred preloaded)
54.24,CRUISE,,227.64,80,-147.64,3578.57,5.02,-17.79,-18.75,89.99,0.056,1,0,17.733,1,0.6,4.5,0.75,0.35,0.0168,0.4,90,5,0,1,2.3,0,0,-14.97,90,-0.8103,-0.0001,-0.586,-14.53,90,0,0,0,0,0,0,0,0,90.03,0,0,0,0,0,0,0,0,0,0,0,0,0,0,0,0,0,VALID,0,0,0,0,0,1,0,0,0,0,0,0,0,0,0,0,0,0,0,0,1311.5,1337.83,2,0,0.56,0.5,96,1.79,0.56,0.56,53.34,FLYING,X10-G,0:/Integrated Flight Computer/aircraft/x10_g_cfg.ks (inferred preloaded)
54.8,CRUISE,,229.3,80,-149.3,3578.52,-8.25,-14.62,-11.75,89.99,0.074,1,0,17.644,1,0.6,4.5,0.75,0.35,0.0168,0.4,90,5,0,1,-1.36,0,0,-14.51,90,-0.872,-0.0001,-0.4896,-7.95,90,0,0,0,0,0,0,0,0,90.03,0,0,0,0,0,0,0,0,0,0,0,0,0,0,0,0,0,VALID,0,0,0,0,0,1,0,0,0,0,0,0,0,0,0,0,0,0,0,0,1322.72,1347,2,0,0.56,0.5,97,1.79,0.56,0.56,53.9,FLYING,X10-G,0:/Integrated Flight Computer/aircraft/x10_g_cfg.ks (inferred preloaded)
55.36,CRUISE,,233.21,80,-153.21,3572.6,-18.17,-8.76,-2.97,90.01,-0.071,1,0,17.556,1,0.6,4.5,0.75,0.35,0.0168,0.4,90,5,0,1,-3.96,0,0,-7.94,90,-0.933,0,-0.3599,0.28,90,0,0,0,0,0,0,0,0,90.03,0,0,0,0,0,0,0,0,0,0,0,0,0,0,0,0,0,VALID,0,0,0,0,0,1,0,0,0,0,0,0,0,0,0,0,0,0,0,0,1346.31,1368.73,2,0,0.56,0.5,98,1.79,0.56,0.56,54.46,FLYING,X10-G,0:/Integrated Flight Computer/aircraft/x10_g_cfg.ks (inferred preloaded)
55.94,CRUISE,,238.09,80,-158.09,3564.28,-21.76,1.34,8.47,90,-0.101,0.8,0,20,1,0.6,4.5,0.75,0.35,0.0168,0.4,90,5,0,1,-5.17,0,0,0.3,90,-0.9852,0.0002,-0.1717,11.51,90,0,0,0,0,0,0,0,0,90.03,0,0,0,0,0,0,0,0,0,0,0,0,0,0,0,0,0,VALID,0,0,0,0,0,1,0,0,0,0,0,0,0,0,0,0,0,0,0,0,1375.52,1396.06,2,0,0.56,0.5,99,1.79,0.56,0.56,55.02,FLYING,X10-G,0:/Integrated Flight Computer/aircraft/x10_g_cfg.ks (inferred preloaded)
56.48,CRUISE,,241.43,80,-161.43,3555.74,-18.06,12.29,17.76,89.99,-0.077,0.6,0,20,1,0.6,4.5,0.75,0.35,0.0168,0.4,90,5,0,1,-4.69,0,0,11.52,90,-1,0.0003,0.0061,21.76,90,0,0,0,0,0,0,0,0,90.03,0,0,0,0,0,0,0,0,0,0,0,0,0,0,0,0,0,VALID,0,0,0,0,0,1,0,0,0,0,0,0,0,0,0,0,0,0,0,0,1349.38,1414.96,2,0,0.56,0.5,100,1.79,0.56,0.56,55.58,FLYING,X10-G,0:/Integrated Flight Computer/aircraft/x10_g_cfg.ks (inferred preloaded)
57.04,CRUISE,,242.21,80,-162.21,3548.32,-11.63,16.64,19.41,89.99,-0.046,0.4,0,20,1,0.6,4.5,0.75,0.35,0.0168,0.4,90,5,0,1,-3.18,0,0,21.77,90,-0.9987,0.0003,0.0513,24.36,90,0,0,0,0,0,0,0,0,90.03,0,0,0,0,0,0,0,0,0,0,0,0,0,0,0,0,0,VALID,0,0,0,0,0,1,0,0,0,0,0,0,0,0,0,0,0,0,0,0,1265.91,1419.5,2,0,0.56,0.5,101,1.79,0.56,0.56,56.14,FLYING,X10-G,0:/Integrated Flight Computer/aircraft/x10_g_cfg.ks (inferred preloaded)
57.6,CRUISE,,242.35,80,-162.35,3543.93,-5.53,17.98,19.42,90,-0.031,0.4547,0,20,1,0.6,4.5,0.75,0.35,0.0168,0.4,90,5,0,1,-1.71,0,0,24.38,90,-0.9986,0.0003,0.052,24.42,90,0,0,0,0,0,0,0,0,90.03,0,0,0,0,0,0,0,0,0,0,0,0,0,0,0,0,0,VALID,0,0,0,0,0,1,0,0,0,0,0,0,0,0,0,0,0,0,0,0,1143.68,1420.36,2,0,0.56,0.5,102,1.79,0.56,0.56,56.7,FLYING,X10-G,0:/Integrated Flight Computer/aircraft/x10_g_cfg.ks (inferred preloaded)
58.18,CRUISE,,241.95,80,-161.95,3542.93,0.47,19.19,19.45,90,-0.025,0.6547,0,20,1,0.6,4.5,0.75,0.35,0.0168,0.4,90,5,0,1,-0.3,0,0,24.43,90,-0.9986,0.0003,0.0524,24.46,90,0,0,0,0,0,0,0,0,90.03,0,0,0,0,0,0,0,0,0,0,0,0,0,0,0,0,0,VALID,0,0,0,0,0,1,0,0,0,0,0,0,0,0,0,0,0,0,0,0,1052.82,1418.2,2,0,0.56,0.5,103,1.79,0.56,0.56,57.26,FLYING,X10-G,0:/Integrated Flight Computer/aircraft/x10_g_cfg.ks (inferred preloaded)
58.72,CRUISE,,241.16,80,-161.16,3545.23,6.3,20.36,19.45,90,-0.023,0.8547,0,19.9,1,0.6,4.5,0.75,0.35,0.0168,0.4,90,5,0,1,1.11,0,0,24.47,90,-0.9987,0.0003,0.0514,24.41,90,0,0,0,0,0,0,0,0,90.03,0,0,0,0,0,0,0,0,0,0,0,0,0,0,0,0,0,VALID,0,0,0,0,0,1,0,0,0,0,0,0,0,0,0,0,0,0,0,0,1025.89,1413.87,2,0,0.56,0.5,104,1.79,0.56,0.56,57.82,FLYING,X10-G,0:/Integrated Flight Computer/aircraft/x10_g_cfg.ks (inferred preloaded)
59.28,CRUISE,,240.21,80,-160.21,3550.77,12.12,21.53,19.42,90,-0.02,1,0,19.8,1,0.6,4.5,0.75,0.35,0.0168,0.4,90,5,0,1,2.49,0,0,24.43,90,-0.9987,0.0003,0.0514,24.43,90,0,0,0,0,0,0,0,0,90.03,0,0,0,0,0,0,0,0,0,0,0,0,0,0,0,0,0,VALID,0,0,0,0,0,1,0,0,0,0,0,0,0,0,0,0,0,0,0,0,1040.12,1408.59,2,0,0.56,0.5,105,1.79,0.56,0.56,58.38,FLYING,X10-G,0:/Integrated Flight Computer/aircraft/x10_g_cfg.ks (inferred preloaded)
59.84,CRUISE,,239.21,80,-159.21,3559.54,17.85,22.71,19.42,90.01,-0.019,1,0,19.701,1,0.6,4.5,0.75,0.35,0.0168,0.4,90,5,0,1,3.87,0,0,24.44,90,-0.9987,0.0003,0.051,24.42,90,0,0,0,0,0,0,0,0,90.03,0,0,0,0,0,0,0,0,0,0,0,0,0,0,0,0,0,VALID,0,0,0,0,0,1,0,0,0,0,0,0,0,0,0,0,0,0,0,0,1074.26,1403.02,2,0,0.56,0.5,106,1.79,0.56,0.56,58.94,FLYING,X10-G,0:/Integrated Flight Computer/aircraft/x10_g_cfg.ks (inferred preloaded)
60.4,CRUISE,,238.21,80,-158.21,3571.49,23.5,23.89,19.41,90.01,-0.016,1,0,19.603,1,0.6,4.5,0.75,0.35,0.0168,0.4,90,5,0,1,5.24,0,0,24.43,90,-0.9987,0.0003,0.051,24.44,90,0,0,0,0,0,0,0,0,90.03,0,0,0,0,0,0,0,0,0,0,0,0,0,0,0,0,0,VALID,0,0,0,0,0,1,0,0,0,0,0,0,0,0,0,0,0,0,0,0,1104.74,1397.4,2,0,0.56,0.5,107,1.79,0.56,0.56,59.5,FLYING,X10-G,0:/Integrated Flight Computer/aircraft/x10_g_cfg.ks (inferred preloaded)
60.96,CRUISE,,237.19,80,-157.19,3586.61,29.15,25.05,19.42,90.01,-0.016,1,0,19.505,1,0.6,4.5,0.75,0.35,0.0168,0.4,90,5,0,1,6.61,0,0,24.45,90,-0.9987,0.0003,0.0509,24.44,90,0,0,0,0,0,0,0,0,90.03,0,0,0,0,0,0,0,0,0,0,0,0,0,0,0,0,0,VALID,0,0,0,0,0,1,0,0,0,0,0,0,0,0,0,0,0,0,0,0,1131.16,1391.65,2,0,0.56,0.5,108,1.79,0.56,0.56,60.06,FLYING,X10-G,0:/Integrated Flight Computer/aircraft/x10_g_cfg.ks (inferred preloaded)
61.52,CRUISE,,236.13,80,-156.13,3604.86,34.7,26.24,19.43,90.01,-0.015,1,0,19.407,1,0.6,4.5,0.75,0.35,0.0168,0.4,90,5,0,1,7.97,0,0,24.46,90,-0.9987,0.0003,0.0506,24.44,90,0,0,0,0,0,0,0,0,90.03,0,0,0,0,0,0,0,0,0,0,0,0,0,0,0,0,0,VALID,0,0,0,0,0,1,0,0,0,0,0,0,0,0,0,0,0,0,0,0,1153.89,1385.7,2,0,0.56,0.5,109,1.79,0.56,0.56,60.62,FLYING,X10-G,0:/Integrated Flight Computer/aircraft/x10_g_cfg.ks (inferred preloaded)
62.08,CRUISE,,235.04,80,-155.04,3626.21,40.21,27.39,19.45,90.01,-0.015,1,0,19.31,1,0.6,4.5,0.75,0.35,0.0168,0.4,90,4.94,0,1,9.33,0,0,24.46,90,-0.9988,0.0003,0.0489,24.36,90,0,0,0,0,0,0,0,0,90.03,0,0,0,0,0,0,0,0,0,0,0,0,0,0,0,0,0,VALID,0,0,0,0,0,1,0,0,0,0,0,0,0,0,0,0,0,0,0,0,1173.26,1379.51,2,0,0.56,0.5,110,1.79,0.56,0.56,61.18,FLYING,X10-G,0:/Integrated Flight Computer/aircraft/x10_g_cfg.ks (inferred preloaded)
62.64,CRUISE,,233.9,80,-153.9,3650.62,45.68,28.57,19.42,90.01,-0.019,1,0,19.214,1,0.6,4.5,0.75,0.35,0.0168,0.4,90,4.55,0,1,10.66,0,0,24.37,90,-0.9991,0.0003,0.0427,24.02,90,0,0,0,0,0,0,0,0,90.03,0,0,0,0,0,0,0,0,0,0,0,0,0,0,0,0,0,VALID,0,0,0,0,0,1,0,0,0,0,0,0,0,0,0,0,0,0,0,0,1189.58,1373.02,2,0,0.56,0.5,111,1.79,0.56,0.56,61.74,FLYING,X10-G,0:/Integrated Flight Computer/aircraft/x10_g_cfg.ks (inferred preloaded)
63.2,CRUISE,,232.71,80,-152.71,3678.04,51.03,29.72,19.44,90.01,-0.022,1,0,19.118,1,0.6,4.5,0.75,0.35,0.0168,0.4,90,4.148,0,1,11.99,0,0,24.03,90,-0.9994,0.0003,0.0354,23.62,90,0,0,0,0,0,0,0,0,90.03,0,0,0,0,0,0,0,0,0,0,0,0,0,0,0,0,0,VALID,0,0,0,0,0,1,0,0,0,0,0,0,0,0,0,0,0,0,0,0,1203.1,1366.23,2,0,0.56,0.5,112,1.79,0.56,0.56,62.3,FLYING,X10-G,0:/Integrated Flight Computer/aircraft/x10_g_cfg.ks (inferred preloaded)
63.76,CRUISE,,231.45,80,-151.45,3708.44,56.25,30.78,19.43,90.01,-0.025,1,0,19.022,1,0.6,4.5,0.75,0.35,0.0168,0.4,90,3.735,0,1,13.3,0,0,23.63,90,-0.9997,0.0003,0.0262,23.1,90,0,0,0,0,0,0,0,0,90.03,0,0,0,0,0,0,0,0,0,0,0,0,0,0,0,0,0,VALID,0,0,0,0,0,1,0,0,0,0,0,0,0,0,0,0,0,0,0,0,1214.01,1359.03,2,0,0.56,0.5,113,1.79,0.56,0.56,62.86,FLYING,X10-G,0:/Integrated Flight Computer/aircraft/x10_g_cfg.ks (inferred preloaded)
64.32,CRUISE,,230.13,80,-150.13,3741.75,61.4,32.01,19.47,90.01,-0.032,1,0,18.927,1,0.6,4.5,0.75,0.35,0.0168,0.4,90,3.311,0,1,14.58,0,0,23.12,90,-0.9998,0.0003,0.0202,22.77,90,0,0,0,0,0,0,0,0,90.03,0,0,0,0,0,0,0,0,0,0,0,0,0,0,0,0,0,VALID,0,0,0,0,0,1,0,0,0,0,0,0,0,0,0,0,0,0,0,0,1222.71,1351.57,2,0,0.56,0.5,114,1.79,0.56,0.56,63.42,FLYING,X10-G,0:/Integrated Flight Computer/aircraft/x10_g_cfg.ks (inferred preloaded)
64.88,CRUISE,,228.74,80,-148.74,3777.9,66.48,33.14,19.44,90,-0.042,1,0,18.832,1,0.6,4.5,0.75,0.35,0.0168,0.4,90,2.879,0,1,15.86,0,0,22.78,90,-0.9999,0.0003,0.0121,22.32,90,0,0,0,0,0,0,0,0,90.03,0,0,0,0,0,0,0,0,0,0,0,0,0,0,0,0,0,VALID,0,0,0,0,0,1,0,0,0,0,0,0,0,0,0,0,0,0,0,0,1229.19,1343.64,2,0,0.56,0.5,115,1.79,0.56,0.56,63.98,FLYING,X10-G,0:/Integrated Flight Computer/aircraft/x10_g_cfg.ks (inferred preloaded)
65.44,CRUISE,,227.29,80,-147.29,3816.85,71.43,34.27,19.46,90,-0.055,1,0,18.738,1,0.6,4.5,0.75,0.35,0.0168,0.4,90,2.439,0,1,17.09,0,0,22.33,90,-1,0.0003,0.0045,21.9,90,0,0,0,0,0,0,0,0,90.03,0,0,0,0,0,0,0,0,0,0,0,0,0,0,0,0,0,VALID,0,0,0,0,0,1,0,0,0,0,0,0,0,0,0,0,0,0,0,0,1233.82,1335.46,2,0,0.56,0.5,116,1.79,0.56,0.56,64.54,FLYING,X10-G,0:/Integrated Flight Computer/aircraft/x10_g_cfg.ks (inferred preloaded)
66,CRUISE,,225.82,80,-145.82,3856.66,76.1,34.32,17.92,89.99,-0.064,1,0,18.645,1,0.6,4.5,0.75,0.35,0.0168,0.4,90,1.99,0,1,18.34,0,0,21.92,90,-0.9997,0.0003,-0.0246,20.25,90,0,0,0,0,0,0,0,0,90.03,0,0,0,0,0,0,0,0,0,0,0,0,0,0,0,0,0,VALID,0,0,0,0,0,1,0,0,0,0,0,0,0,0,0,0,0,0,0,0,1236.81,1327.1,2,0,0.56,0.5,117,1.79,0.56,0.56,65.1,FLYING,X10-G,0:/Integrated Flight Computer/aircraft/x10_g_cfg.ks (inferred preloaded)
66.56,CRUISE,,225.01,80,-145.01,3899.65,79.63,31.53,13.95,89.99,-0.077,1,0,18.551,1,0.6,4.5,0.75,0.35,0.0168,0.4,90,1.582,0,1,19.35,0,0,20.26,90,-0.9952,0.0002,-0.0981,16.04,90,0,0,0,0,0,0,0,0,90.03,0,0,0,0,0,0,0,0,0,0,0,0,0,0,0,0,0,VALID,0,0,0,0,0,1,0,0,0,0,0,0,0,0,0,0,0,0,0,0,1241.69,1322.3,2,0,0.56,0.5,118,1.79,0.56,0.56,65.66,FLYING,X10-G,0:/Integrated Flight Computer/aircraft/x10_g_cfg.ks (inferred preloaded)
67.12,CRUISE,,225.25,80,-145.25,3943.48,81.58,26.68,7.73,89.99,-0.124,1,0,18.459,1,0.6,4.5,0.75,0.35,0.0168,0.4,90,1.243,0,1,19.93,0,0,16.06,90,-0.9796,0.0002,-0.2009,10.09,90,0,0,0,0,0,0,0,0,90.03,0,0,0,0,0,0,0,0,0,0,0,0,0,0,0,0,0,VALID,0,0,0,0,0,1,0,0,0,0,0,0,0,0,0,0,0,0,0,0,1250.91,1323.23,2,0,0.56,0.5,119,1.79,0.56,0.56,66.22,FLYING,X10-G,0:/Integrated Flight Computer/aircraft/x10_g_cfg.ks (inferred preloaded)
67.68,CRUISE,,226.84,80,-146.84,3988.25,80.05,18.98,0.17,90.04,0.605,1,0,18.366,1,0.6,4.5,0.75,0.35,0.0168,0.4,90,1.066,0,1,19.69,0,0,10.11,90,-0.9441,0.0001,-0.3298,2.44,90,0,0,0,0,0,0,0,0,90.03,0,0,0,0,0,0,0,0,0,0,0,0,0,0,0,0,0,VALID,0,0,0,0,0,1,0,0,0,0,0,0,0,0,0,0,0,0,0,0,1266.37,1331.6,2,0,0.56,0.5,120,1.79,0.56,0.56,66.78,FLYING,X10-G,0:/Integrated Flight Computer/aircraft/x10_g_cfg.ks (inferred preloaded)
68.24,CRUISE,,228.97,80,-148.97,4027.65,74.94,10.14,-7.78,89.95,0.609,1,0,18.274,1,0.6,4.5,0.75,0.35,0.0168,0.4,90,1.081,0,1,18.59,0,0,2.46,90,-0.8904,0,-0.4552,-5.36,90,0,0,0,0,0,0,0,0,90.03,0,0,0,0,0,0,0,0,0,0,0,0,0,0,0,0,0,VALID,0,0,0,0,0,1,0,0,0,0,0,0,0,0,0,0,0,0,0,0,1284.04,1342.89,2,0,0.56,0.5,121,1.79,0.56,0.56,67.34,FLYING,X10-G,0:/Integrated Flight Computer/aircraft/x10_g_cfg.ks (inferred preloaded)
68.8,CRUISE,,230.59,80,-150.59,4063.81,64.88,-0.33,-16.25,89.91,0.362,1,0,18.183,1,0.6,4.5,0.75,0.35,0.0168,0.4,90,1.351,0,1,16.47,0,0,-5.35,90,-0.8159,-0.0001,-0.5782,-13.6,90,0,0,0,0,0,0,0,0,90.03,0,0,0,0,0,0,0,0,0,0,0,0,0,0,0,0,0,VALID,0,0,0,0,0,1,0,0,0,0,0,0,0,0,0,0,0,0,0,0,1298.68,1351.4,2,0,0.56,0.5,122,1.79,0.56,0.56,67.9,FLYING,X10-G,0:/Integrated Flight Computer/aircraft/x10_g_cfg.ks (inferred preloaded)
69.36,CRUISE,,230.47,80,-150.47,4093.96,50.11,-8.41,-19.78,89.93,0.196,1,0,18.092,1,0.6,4.5,0.75,0.35,0.0168,0.4,90,1.913,0,1,13.16,0,0,-13.58,90,-0.7726,-0.0001,-0.6348,-17.67,90,0,0,0,0,0,0,0,0,90.03,0,0,0,0,0,0,0,0,0,0,0,0,0,0,0,0,0,VALID,0,0,0,0,0,1,0,0,0,0,0,0,0,0,0,0,0,0,0,0,1303.58,1350.47,2,0,0.56,0.5,123,1.79,0.56,0.56,68.46,FLYING,X10-G,0:/Integrated Flight Computer/aircraft/x10_g_cfg.ks (inferred preloaded)
69.92,CRUISE,,230.24,80,-150.24,4116.69,35.04,-11.84,-19.85,89.96,0.091,1,0,18.002,1,0.6,4.5,0.75,0.35,0.0168,0.4,90,2.546,0,1,9.56,0,0,-17.65,90,-0.7772,-0.0001,-0.6293,-17.24,90,0,0,0,0,0,0,0,0,90.03,0,0,0,0,0,0,0,0,0,0,0,0,0,0,0,0,0,VALID,0,0,0,0,0,1,0,0,0,0,0,0,0,0,0,0,0,0,0,0,1307.11,1349.08,2,0,0.56,0.5,124,1.79,0.56,0.56,69.02,FLYING,X10-G,0:/Integrated Flight Computer/aircraft/x10_g_cfg.ks (inferred preloaded)
70.48,CRUISE,,230.51,80,-150.51,4131.06,19.96,-14.87,-19.72,89.98,0.044,1,0,17.912,1,0.6,4.5,0.75,0.35,0.0168,0.4,90,3.22,0,1,5.89,0,0,-17.23,90,-0.7851,-0.0001,-0.6193,-16.49,90,0,0,0,0,0,0,0,0,90.03,0,0,0,0,0,0,0,0,0,0,0,0,0,0,0,0,0,VALID,0,0,0,0,0,1,0,0,0,0,0,0,0,0,0,0,0,0,0,0,1312.82,1350.45,2,0,0.56,0.5,125,1.79,0.56,0.56,69.58,FLYING,X10-G,0:/Integrated Flight Computer/aircraft/x10_g_cfg.ks (inferred preloaded)
71.04,CRUISE,,231.19,80,-151.19,4136.96,4.58,-17.99,-19.57,89.99,0.025,1,0,17.822,1,0.6,4.5,0.75,0.35,0.0168,0.4,90,3.945,0,1,2.12,0,0,-16.48,90,-0.7927,-0.0001,-0.6096,-15.78,90,0,0,0,0,0,0,0,0,90.03,0,0,0,0,0,0,0,0,0,0,0,0,0,0,0,0,0,VALID,0,0,0,0,0,1,0,0,0,0,0,0,0,0,0,0,0,0,0,0,1320.3,1354.08,2,0,0.56,0.5,126,1.79,0.56,0.56,70.14,FLYING,X10-G,0:/Integrated Flight Computer/aircraft/x10_g_cfg.ks (inferred preloaded)
71.6,CRUISE,,232.29,80,-152.29,4135.84,-10,-16.75,-13.81,89.99,0.02,1,0,17.733,1,0.6,4.5,0.75,0.35,0.0168,0.4,90,4.705,0,1,-1.7,0,0,-15.76,90,-0.8481,-0.0001,-0.5298,-10.19,90,0,0,0,0,0,0,0,0,90.03,0,0,0,0,0,0,0,0,0,0,0,0,0,0,0,0,0,VALID,0,0,0,0,0,1,0,0,0,0,0,0,0,0,0,0,0,0,0,0,1329.42,1360.16,2,0,0.56,0.5,127,1.79,0.56,0.56,70.7,FLYING,X10-G,0:/Integrated Flight Computer/aircraft/x10_g_cfg.ks (inferred preloaded)
72.16,CRUISE,,235.65,80,-155.65,4129.01,-20.88,-10.57,-4.04,89.99,0.168,1,0,17.644,1,0.6,4.5,0.75,0.35,0.0168,0.4,90,5,0,1,-4.61,0,0,-10.18,90,-0.9219,0,-0.3875,-0.98,90,0,0,0,0,0,0,0,0,90.03,0,0,0,0,0,0,0,0,0,0,0,0,0,0,0,0,0,VALID,0,0,0,0,0,1,0,0,0,0,0,0,0,0,0,0,0,0,0,0,1350.71,1378.99,2,0,0.56,0.5,128,1.79,0.56,0.56,71.26,FLYING,X10-G,0:/Integrated Flight Computer/aircraft/x10_g_cfg.ks (inferred preloaded)
72.74,CRUISE,,240.48,80,-160.48,4118.96,-25.17,0.54,9,90.02,0.242,0.8,0,20,1,0.6,4.5,0.75,0.35,0.0168,0.4,90,5,0,1,-6.01,0,0,-0.97,90,-0.9839,0.0002,-0.1785,11.55,90,0,0,0,0,0,0,0,0,90.03,0,0,0,0,0,0,0,0,0,0,0,0,0,0,0,0,0,VALID,0,0,0,0,0,1,0,0,0,0,0,0,0,0,0,0,0,0,0,0,1380.3,1406.17,2,0,0.56,0.5,129,1.79,0.56,0.56,71.82,FLYING,X10-G,0:/Integrated Flight Computer/aircraft/x10_g_cfg.ks (inferred preloaded)
73.3,CRUISE,,243.61,80,-163.61,4108.67,-20.96,12.18,17.99,90.04,0.104,0.6,0,20,1,0.6,4.5,0.75,0.35,0.0168,0.4,90,5,0,1,-5.33,0,0,11.56,90,-1,0.0003,0.0035,22.05,90,0,0,0,0,0,0,0,0,90.03,0,0,0,0,0,0,0,0,0,0,0,0,0,0,0,0,0,VALID,0,0,0,0,0,1,0,0,0,0,0,0,0,0,0,0,0,0,0,0,1353.58,1423.89,2,0,0.56,0.5,130,1.79,0.56,0.56,72.38,FLYING,X10-G,0:/Integrated Flight Computer/aircraft/x10_g_cfg.ks (inferred preloaded)
73.86,CRUISE,,244.24,80,-164.24,4099.55,-14.54,16.21,19.35,90.02,0.04,0.4,0,20,1,0.6,4.5,0.75,0.35,0.0168,0.4,90,5,0,1,-3.81,0,0,22.06,90,-0.9991,0.0003,0.0434,24.35,90,0,0,0,0,0,0,0,0,90.03,0,0,0,0,0,0,0,0,0,0,0,0,0,0,0,0,0,VALID,0,0,0,0,0,1,0,0,0,0,0,0,0,0,0,0,0,0,0,0,1269.46,1427.48,2,0,0.56,0.5,131,1.79,0.56,0.56,72.94,FLYING,X10-G,0:/Integrated Flight Computer/aircraft/x10_g_cfg.ks (inferred preloaded)
74.4,CRUISE,,244.36,80,-164.36,4093.52,-8.52,17.38,19.45,90.02,0.021,0.3867,0,20,1,0.6,4.5,0.75,0.35,0.0168,0.4,90,5,0,1,-2.41,0,0,24.37,90,-0.999,0.0003,0.0441,24.41,90,0,0,0,0,0,0,0,0,90.03,0,0,0,0,0,0,0,0,0,0,0,0,0,0,0,0,0,VALID,0,0,0,0,0,1,0,0,0,0,0,0,0,0,0,0,0,0,0,0,1147.04,1428.18,2,0,0.56,0.5,132,1.79,0.56,0.56,73.5,FLYING,X10-G,0:/Integrated Flight Computer/aircraft/x10_g_cfg.ks (inferred preloaded)
74.98,CRUISE,,243.87,80,-163.87,4090.82,-2.51,18.62,19.43,90.02,0.007,0.5867,0,20,1,0.6,4.5,0.75,0.35,0.0168,0.4,90,4.737,0,1,-1.01,0,0,24.42,90,-0.9992,0.0003,0.0403,24.21,90,0,0,0,0,0,0,0,0,90.03,0,0,0,0,0,0,0,0,0,0,0,0,0,0,0,0,0,VALID,0,0,0,0,0,1,0,0,0,0,0,0,0,0,0,0,0,0,0,0,1039.08,1425.5,2,0,0.56,0.5,133,1.79,0.56,0.56,74.06,FLYING,X10-G,0:/Integrated Flight Computer/aircraft/x10_g_cfg.ks (inferred preloaded)
75.52,CRUISE,,242.97,80,-162.97,4091.4,3.22,19.75,19.46,90.02,0.002,0.7867,0,19.9,1,0.6,4.5,0.75,0.35,0.0168,0.4,90,4.444,0,1,0.37,0,0,24.22,90,-0.9994,0.0003,0.0344,23.88,90,0,0,0,0,0,0,0,0,90.03,0,0,0,0,0,0,0,0,0,0,0,0,0,0,0,0,0,VALID,0,0,0,0,0,1,0,0,0,0,0,0,0,0,0,0,0,0,0,0,997.8,1420.57,2,0,0.56,0.5,134,1.79,0.56,0.56,74.62,FLYING,X10-G,0:/Integrated Flight Computer/aircraft/x10_g_cfg.ks (inferred preloaded)
76.08,CRUISE,,241.89,80,-161.89,4095.18,8.91,20.85,19.42,90.02,-0.001,0.9867,0,19.8,1,0.6,4.5,0.75,0.35,0.0168,0.4,90,4.142,0,1,1.73,0,0,23.9,90,-0.9996,0.0003,0.0284,23.55,90,0,0,0,0,0,0,0,0,90.03,0,0,0,0,0,0,0,0,0,0,0,0,0,0,0,0,0,VALID,0,0,0,0,0,1,0,0,0,0,0,0,0,0,0,0,0,0,0,0,1004.82,1414.57,2,0,0.56,0.5,135,1.79,0.56,0.56,75.18,FLYING,X10-G,0:/Integrated Flight Computer/aircraft/x10_g_cfg.ks (inferred preloaded)
76.64,CRUISE,,240.75,80,-160.75,4101.84,14.61,21.94,19.42,90.02,-0.008,1,0,19.701,1,0.6,4.5,0.75,0.35,0.0168,0.4,90,3.83,0,1,3.08,0,0,23.57,90,-0.9997,0.0003,0.0225,23.23,90,0,0,0,0,0,0,0,0,90.03,0,0,0,0,0,0,0,0,0,0,0,0,0,0,0,0,0,VALID,0,0,0,0,0,1,0,0,0,0,0,0,0,0,0,0,0,0,0,0,1040.7,1408.33,2,0,0.56,0.5,136,1.79,0.56,0.56,75.74,FLYING,X10-G,0:/Integrated Flight Computer/aircraft/x10_g_cfg.ks (inferred preloaded)
77.2,CRUISE,,239.61,80,-159.61,4111.82,20.15,23.09,19.36,90.02,-0.014,1,0,19.603,1,0.6,4.5,0.75,0.35,0.0168,0.4,90,3.499,0,1,4.45,0,0,23.25,90,-0.9999,0.0003,0.0161,22.88,90,0,0,0,0,0,0,0,0,90.03,0,0,0,0,0,0,0,0,0,0,0,0,0,0,0,0,0,VALID,0,0,0,0,0,1,0,0,0,0,0,0,0,0,0,0,0,0,0,0,1074.85,1402.02,2,0,0.56,0.5,137,1.79,0.56,0.56,76.3,FLYING,X10-G,0:/Integrated Flight Computer/aircraft/x10_g_cfg.ks (inferred preloaded)
77.76,CRUISE,,238.52,80,-158.52,4124.94,25.73,24.21,19.45,90.02,-0.017,1,0,19.505,1,0.6,4.5,0.75,0.35,0.0168,0.4,90,3.161,0,1,5.77,0,0,22.9,90,-0.9999,0.0003,0.0108,22.59,90,0,0,0,0,0,0,0,0,90.03,0,0,0,0,0,0,0,0,0,0,0,0,0,0,0,0,0,VALID,0,0,0,0,0,1,0,0,0,0,0,0,0,0,0,0,0,0,0,0,1104.84,1396,2,0,0.56,0.5,138,1.79,0.56,0.56,76.86,FLYING,X10-G,0:/Integrated Flight Computer/aircraft/x10_g_cfg.ks (inferred preloaded)
78.32,CRUISE,,237.4,80,-157.4,4141.12,31.22,25.32,19.42,90.02,-0.022,1,0,19.407,1,0.6,4.5,0.75,0.35,0.0168,0.4,90,2.807,0,1,7.12,0,0,22.61,90,-1,0.0003,0.0042,22.23,90,0,0,0,0,0,0,0,0,90.03,0,0,0,0,0,0,0,0,0,0,0,0,0,0,0,0,0,VALID,0,0,0,0,0,1,0,0,0,0,0,0,0,0,0,0,0,0,0,0,1130.78,1389.85,2,0,0.56,0.5,139,1.79,0.56,0.56,77.42,FLYING,X10-G,0:/Integrated Flight Computer/aircraft/x10_g_cfg.ks (inferred preloaded)
78.88,CRUISE,,236.27,80,-156.27,4161.12,36.65,26.42,19.45,90.01,-0.026,1,0,19.31,1,0.6,4.5,0.75,0.35,0.0168,0.4,90,2.442,0,1,8.44,0,0,22.24,90,-1,0.0003,-0.0024,21.87,90,0,0,0,0,0,0,0,0,90.03,0,0,0,0,0,0,0,0,0,0,0,0,0,0,0,0,0,VALID,0,0,0,0,0,1,0,0,0,0,0,0,0,0,0,0,0,0,0,0,1153.15,1383.67,2,0,0.56,0.5,140,1.79,0.56,0.56,77.98,FLYING,X10-G,0:/Integrated Flight Computer/aircraft/x10_g_cfg.ks (inferred preloaded)
79.44,CRUISE,,235.11,80,-155.11,4183.5,42,27.51,19.43,90.01,-0.033,1,0,19.214,1,0.6,4.5,0.75,0.35,0.0168,0.4,90,2.066,0,1,9.76,0,0,21.88,90,-1,0.0003,-0.0092,21.49,90,0,0,0,0,0,0,0,0,90.03,0,0,0,0,0,0,0,0,0,0,0,0,0,0,0,0,0,VALID,0,0,0,0,0,1,0,0,0,0,0,0,0,0,0,0,0,0,0,0,1172.23,1377.29,2,0,0.56,0.5,141,1.79,0.56,0.56,78.54,FLYING,X10-G,0:/Integrated Flight Computer/aircraft/x10_g_cfg.ks (inferred preloaded)
80,CRUISE,,233.89,80,-153.89,4208.84,47.31,28.66,19.39,90.01,-0.041,1,0,19.118,1,0.6,4.5,0.75,0.35,0.0168,0.4,90,1.673,0,1,11.07,0,0,21.51,90,-0.9999,0.0003,-0.0161,21.11,90,0,0,0,0,0,0,0,0,90.03,0,0,0,0,0,0,0,0,0,0,0,0,0,0,0,0,0,VALID,0,0,0,0,0,1,0,0,0,0,0,0,0,0,0,0,0,0,0,0,1188.27,1370.64,2,0,0.56,0.5,142,1.79,0.56,0.56,79.1,FLYING,X10-G,0:/Integrated Flight Computer/aircraft/x10_g_cfg.ks (inferred preloaded)
80.56,CRUISE,,232.67,80,-152.67,4237.14,52.47,29.66,19.44,90.01,-0.047,1,0,19.022,1,0.6,4.5,0.75,0.35,0.0168,0.4,90,1.277,0,1,12.36,0,0,21.12,90,-0.9997,0.0003,-0.0242,20.66,90,0,0,0,0,0,0,0,0,90.03,0,0,0,0,0,0,0,0,0,0,0,0,0,0,0,0,0,VALID,0,0,0,0,0,1,0,0,0,0,0,0,0,0,0,0,0,0,0,0,1201.72,1363.92,2,0,0.56,0.5,143,1.79,0.56,0.56,79.66,FLYING,X10-G,0:/Integrated Flight Computer/aircraft/x10_g_cfg.ks (inferred preloaded)
