t_s,phase,subphase,ias_ms,vapp_ms,spd_err_ms,agl_m,vs_ms,pitch_deg,aoa_deg,hdg_deg,bank_deg,thr_cmd,thr_cur,thr_intg,at_gain,at_tau_s,at_a_up,at_a_dn,at_kp_thr,at_ki_spd,at_thr_slew,aa_hdg_cmd_deg,aa_fpa_cmd_deg,ils_loc_m,ils_gs_m,ils_dist_km,loc_corr_deg,gs_corr_deg,flare_fpa_cmd,flare_tgt_vs,flare_frac,steer_hdg_deg,steer_blend,ro_loc_corr_deg,ro_hdg_err_deg,ro_yaw_tgt,ro_yaw_scale,ro_yaw_gate,yaw_cmd,roll_cmd,pitch_cmd,ro_pitch_tgt_deg,ro_pitch_err_deg,ro_pitch_ff,ro_roll_assist,flaps_cur,flaps_tgt,asc_j_ab,asc_j_rk,asc_validity,asc_q_pa,asc_q_raw_pa,asc_mach,asc_apo_m,asc_drag_n,asc_w_prop,asc_edot_aero,asc_edot_orb,asc_pitch_bias,asc_blend,asc_spooling,asc_ab_thr_ratio,asc_ab_t_now,asc_ab_t_avail,asc_ab_ign_on,asc_ab_flameouts,asc_rk_t_now,asc_rk_t_avail,asc_rk_ign_on,asc_rk_flameouts,ship_thrust,ship_avail_thrust,ship_ign_on,ship_flameouts,ifc_raw_dt_s,ifc_dt_s,ifc_loop_n,ifc_hz_est,ifc_raw_dt_max_s,ifc_raw_dt_min_s,phase_el_s,status
1.1,TAKEOFF,TO_PREFLIGHT,0.38,80,79.62,4.8,0.11,-0.33,-10.19,90.06,-0.109,0.2,0,0,0,0,0,0,0,0,0,90.4,0,0,0,0,0,0,0,0,0,90.4,1,0,-0.343,0,0,1,0,0,0,0,0,0,0,1,2,0,0,VALID,0,0,0,0,0,1,0,0,0,0,0,0,0,0,0,0,0,0,0,0,0,2337.8,6,0,0.92,0.5,1,2.44,0.92,0.02,0.22,LANDED
1.82,TAKEOFF,TO_PREFLIGHT,0.42,80,79.58,5.59,0.31,0.27,-46.54,90.05,-0.105,0.4,0,0,0,0,0,0,0,0,0,90.4,0,0,0,0,0,0,0,0,0,90.4,1,0,-0.343,0,0,1,0,0,0,0,0,0,0,2,2,0,0,VALID,0,0,0,0,0,1,0,0,0,0,0,0,0,0,0,0,0,0,0,0,61.2,2337.71,6,0,0.78,0.5,2,1.43,0.92,0.78,0.94,LANDED
2.52,TAKEOFF,TO_PREFLIGHT,0.48,80,79.52,5.07,-0.16,-0.57,10.76,90.02,-0.108,0.6,0,0,0,0,0,0,0,0,0,90.4,0,0,0,0,0,0,0,0,0,90.4,1,0,-0.343,0,0,1,0,0,0,0,0,0,0,2,2,0,0,VALID,0,0,0,0,0,1,0,0,0,0,0,0,0,0,0,0,0,0,0,0,173.93,2337.61,6,0,0.72,0.5,3,1.43,0.78,0.72,1.66,LANDED
3.24,TAKEOFF,TO_PREFLIGHT,0.58,80,79.42,5.12,-0.31,-0.08,25.07,89.98,-0.098,0.8,0,0,0,0,0,0,0,0,0,90.4,0,0,0,0,0,0,0,0,0,90.4,1,0,-0.343,0,0,1,0,0,0,0,0,0,0,2,2,0,0,VALID,0,0,0,0,0,1,0,0,0,0,0,0,0,0,0,0,0,0,0,0,334.96,2337.44,6,0,0.66,0.5,4,1.43,0.72,0.66,2.36,LANDED
3.94,TAKEOFF,TO_PREFLIGHT,1.11,80,78.89,5.24,0.03,-0.17,0.31,90.02,-0.099,1,0,0,0,0,0,0,0,0,0,90.4,0,0,0,0,0,0,0,0,0,90.4,1,0,-0.343,0,0,1,0,0,0,0,0,0,0,2,2,0,0,VALID,0,0,0,0,0,1,0,0,0,0,0,0,0,0,0,0,0,0,0,0,537.54,2336.54,6,0,0.7,0.5,5,1.43,0.7,0.66,3.06,LANDED
4.62,TAKEOFF,TO_PREFLIGHT,1.99,80,78.01,5.19,0.11,-0.33,-3.14,90.01,-0.096,1,0,0,0,0,0,0,0,0,0,90.4,0,0,0,0,0,0,0,0,0,90.4,1,0,-0.343,0,0,1,0,0,0,0,0,0,0,2,2,0,0,VALID,0,0,0,0,0,1,0,0,0,0,0,0,0,0,0,0,0,0,0,0,772.51,2335.01,6,0,0.7,0.5,6,1.43,0.7,0.7,3.76,LANDED
5.32,TAKEOFF,TO_PREFLIGHT,3.29,80,76.71,5.19,-0.03,-0.25,-0.17,90,-0.11,1,0,0,0,0,0,0,0,0,0,90.4,0,0,0,0,0,0,0,0,0,90.4,1,0,-0.343,0,0,1,0,0,0,0,0,0,0,2,2,0,0,VALID,0,0,0,0,0,1,0,0,0,0,0,0,0,0,0,0,0,0,0,0,976.08,2332.72,6,0,0.7,0.5,7,1.43,0.7,0.7,4.46,LANDED
6.02,TAKEOFF,TO_PREFLIGHT,4.95,80,75.05,5.19,-0.1,-0.21,0.87,89.99,-0.106,1,0,0,0,0,0,0,0,0,0,90.4,0,0,0,0,0,0,0,0,0,90.4,1,0,-0.343,0,0,1,0,0,0,0,0,0,0,2,2,0,0,VALID,0,0,0,0,0,1,0,0,0,0,0,0,0,0,0,0,0,0,0,0,1152.2,2329.78,6,0,0.7,0.5,8,1.43,0.7,0.7,5.16,LANDED
6.72,TAKEOFF,TO_PREFLIGHT,6.9,80,73.1,5.19,-0.05,-0.22,0.14,89.99,-0.097,1,0,0,0,0,0,0,0,0,0,90.4,0,0,0,0,0,0,0,0,0,90.4,1,0,-0.343,0,0,1,0,0,0,0,0,0,0,2,2,0,0,VALID,0,0,0,0,0,1,0,0,0,0,0,0,0,0,0,0,0,0,0,0,1304.37,2326.24,6,0,0.7,0.5,9,1.43,0.7,0.7,5.86,LANDED
7.46,TAKEOFF,TO_PREFLIGHT,9.25,80,70.75,5.2,-0.02,-0.21,-0.11,89.98,-0.103,1,0,0,0,0,0,0,0,0,0,90.4,0,0,0,0,0,0,0,0,0,90.4,1,0,-0.343,0,0,1,0,0,0,0,0,0,0,2,2,0,0,VALID,0,0,0,0,0,1,0,0,0,0,0,0,0,0,0,0,0,0,0,0,1442.53,2321.89,6,0,0.74,0.5,10,1.35,0.74,0.7,6.6,LANDED
8.14,TAKEOFF,TO_GROUND_ROLL,11.64,80,68.36,5.21,-0.08,-0.19,0.15,89.98,-0.105,1,0,0,0,0,0,0,0,0,0,90.4,0,0,0,0,0,0,0,0,0,90.4,1,0,-0.343,0,0,1,0,0,0,0,0,0,0,2,2,0,0,VALID,0,0,0,0,0,1,0,0,0,0,0,0,0,0,0,0,0,0,0,0,1551.56,2317.37,6,0,0.72,0.5,11,1.47,0.74,0.72,7.28,LANDED
8.94,TAKEOFF,TO_GROUND_ROLL,14.81,80,65.19,5.22,-0.08,-0.18,0.13,89.98,-0.1,1,0,0,0,0,0,0,0,0,0,90.43,0,0,0,0,0,0,0,0,0,90.43,1,0,-0.452,0.0174,0.695,0,0.0174,0,0,0,0,0,0,2,2,0,0,VALID,0,0,0,0,0,1,0,0,0,0,0,0,0,0,0,0,0,0,0,0,1658.03,2311.25,6,0,0.68,0.5,12,1.28,0.72,0.68,8.06,LANDED
9.7,TAKEOFF,TO_GROUND_ROLL,18.16,80,61.84,5.22,-0.1,-0.18,0.11,89.96,-0.101,1,0,0,0,0,0,0,0,0,0,90.41,0,0,0,0,0,0,0,0,0,90.41,1,0,-0.451,0.0162,0.728,0,0.0162,0,0,0,0,0,0,2,2,0,0,VALID,0,0,0,0,0,1,0,0,0,0,0,0,0,0,0,0,0,0,0,0,1745.34,2304.65,6,0,0.76,0.5,13,1.32,0.76,0.68,8.82,LANDED
10.44,TAKEOFF,TO_GROUND_ROLL,21.66,80,58.34,5.22,-0.13,-0.18,0.14,89.86,-0.102,1,0,0,0,0,0,0,0,0,0,90.43,0,0,0,0,0,0,0,0,0,90.43,1,0,-0.571,0.0239,0.763,0,0.0239,0,0,0,0,0,0,2,2,0,0,VALID,0,0,0,0,0,1,0,0,0,0,0,0,0,0,0,0,0,0,0,0,1818.83,2297.62,6,0,0.76,0.5,14,1.32,0.76,0.76,9.58,LANDED
11.2,TAKEOFF,TO_GROUND_ROLL,25.19,80,54.81,5.22,-0.14,-0.17,0.13,89.7,-0.104,1,0,0,0,0,0,0,0,0,0,90.46,0,0,0,0,0,0,0,0,0,90.46,1,0,-0.759,0.0347,0.798,0,0.0347,0,0,0,0,0,0,2,2,0,0,VALID,0,0,0,0,0,1,0,0,0,0,0,0,0,0,0,0,0,0,0,0,1878.96,2290.43,6,0,0.74,0.5,15,1.35,0.76,0.74,10.32,LANDED
11.92,TAKEOFF,TO_GROUND_ROLL,28.82,80,51.18,5.23,-0.16,-0.16,0.14,89.48,-0.105,1,0,0,0,0,0,0,0,0,0,90.48,0,0,0,0,0,0,0,0,0,90.48,1,0,-1.002,0.048,0.834,0,0.048,0,0,0,0,0,0,2,2,0,0,VALID,0,0,0,0,0,1,0,0,0,0,0,0,0,0,0,0,0,0,0,0,1929.4,2282.98,6,0,0.74,0.5,16,1.35,0.74,0.74,11.06,LANDED
12.66,TAKEOFF,TO_GROUND_ROLL,32.52,80,47.48,5.23,-0.18,-0.15,0.15,89.21,-0.107,1,0,0,0,0,0,0,0,0,0,90.5,0,0,0,0,0,0,0,0,0,90.5,1,0,-1.281,0.0634,0.871,0,0.0634,0,0,0,0,0,0,2,2,0,0,VALID,0,0,0,0,0,1,0,0,0,0,0,0,0,0,0,0,0,0,0,0,1971.54,2275.33,6,0,0.74,0.5,17,1.35,0.74,0.74,11.8,LANDED
13.4,TAKEOFF,TO_GROUND_ROLL,36.29,80,43.71,5.23,-0.2,-0.15,0.15,88.93,-0.107,1,0,0,0,0,0,0,0,0,0,90.5,0,0,0,0,0,0,0,0,0,90.5,1,0,-1.576,0.0798,0.909,0,0.0798,0,0,0,0,0,0,2,2,0,0,VALID,0,0,0,0,0,1,0,0,0,0,0,0,0,0,0,0,0,0,0,0,2006.56,2267.56,6,0,0.74,0.5,18,1.35,0.74,0.74,12.54,LANDED
14.2,TAKEOFF,TO_GROUND_ROLL,40.3,80,39.7,5.24,-0.21,-0.14,0.15,88.62,-0.109,1,0,0,0,0,0,0,0,0,0,90.51,0,0,0,0,0,0,0,0,0,90.51,1,0,-1.885,0.0979,0.949,0,0.0979,0,0,0,0,0,0,2,2,0,0,VALID,0,0,0,0,0,1,0,0,0,0,0,0,0,0,0,0,0,0,0,0,2036.91,2259.29,6,0,0.78,0.5,19,1.28,0.78,0.74,13.32,LANDED
14.96,TAKEOFF,TO_GROUND_ROLL,44.25,80,35.75,5.24,-0.23,-0.13,0.16,88.35,-0.109,1,0,0,0,0,0,0,0,0,0,90.5,0,0,0,0,0,0,0,0,0,90.5,1,0,-2.147,0.1129,0.988,0,0.1129,0,0,0,0,0,0,2,2,0,0,VALID,0,0,0,0,0,1,0,0,0,0,0,0,0,0,0,0,0,0,0,0,2061,2251.25,6,0,0.76,0.5,20,1.32,0.78,0.76,14.08,LANDED
15.7,TAKEOFF,TO_GROUND_ROLL,48.22,80,31.78,5.25,-0.25,-0.12,0.17,88.12,-0.108,1,0,0,0,0,0,0,0,0,0,90.48,0,0,0,0,0,0,0,0,0,90.48,1,0,-2.367,0.1229,1,0,0.1229,0,0,0,0,0,0,2,2,0,0,VALID,0,0,0,0,0,1,0,0,0,0,0,0,0,0,0,0,0,0,0,0,2080.52,2243.29,6,0,0.76,0.5,21,1.32,0.76,0.76,14.84,LANDED
16.46,TAKEOFF,TO_GROUND_ROLL,52.2,80,27.8,5.25,-0.26,-0.11,0.17,87.92,-0.107,1,0,0,0,0,0,0,0,0,0,90.47,0,0,0,0,0,0,0,0,0,90.47,1,0,-2.549,0.1299,1,0,0.1299,0,0,0,0,0,0,2,2,0,0,VALID,0,0,0,0,0,1,0,0,0,0,0,0,0,0,0,0,0,0,0,0,2096.2,2235.47,6,0,0.76,0.5,22,1.32,0.76,0.76,15.6,LANDED
17.22,TAKEOFF,TO_GROUND_ROLL,56.19,80,23.81,5.25,-0.28,-0.1,0.18,87.74,-0.106,1,0,0,0,0,0,0,0,0,0,90.46,0,0,0,0,0,0,0,0,0,90.46,1,0,-2.719,0.1371,1,0,0.1371,0,0,0,0,0,0,2,2,0,0,VALID,0,0,0,0,0,1,0,0,0,0,0,0,0,0,0,0,0,0,0,0,2108.69,2227.85,6,0,0.76,0.5,23,1.32,0.76,0.76,16.36,LANDED
17.98,TAKEOFF,TO_GROUND_ROLL,60.17,80,19.83,5.26,-0.29,-0.08,0.19,87.57,-0.105,1,0,0,0,0,0,0,0,0,0,90.46,0,0,0,0,0,0,0,0,0,90.46,1,0,-2.897,0.1456,1,0,0.1456,0,0,0,0,0,0,2,2,0,0,VALID,0,0,0,0,0,1,0,0,0,0,0,0,0,0,0,0,0,0,0,0,2118.53,2220.49,6,0,0.76,0.5,24,1.32,0.76,0.76,17.12,LANDED
18.74,TAKEOFF,TO_GROUND_ROLL,64.13,80,15.87,5.26,-0.31,-0.07,0.19,87.37,-0.106,1,0,0,0,0,0,0,0,0,0,90.47,0,0,0,0,0,0,0,0,0,90.47,1,0,-3.103,0.1563,1,0,0.1563,0,0,0,0,0,0,2,2,0,0,VALID,0,0,0,0,0,1,0,0,0,0,0,0,0,0,0,0,0,0,0,0,2126.18,2213.45,6,0,0.76,0.5,25,1.32,0.76,0.76,17.88,LANDED
19.5,TAKEOFF,TO_GROUND_ROLL,68.08,80,11.92,5.27,-0.32,-0.06,0.2,87.13,-0.107,1,0,0,0,0,0,0,0,0,0,90.49,0,0,0,0,0,0,0,0,0,90.49,1,0,-3.361,0.1706,1,0,0.1706,0,0,0,0,0,0,2,2,0,0,VALID,0,0,0,0,0,1,0,0,0,0,0,0,0,0,0,0,0,0,0,0,2132.07,2206.76,6,0,0.76,0.5,26,1.32,0.76,0.76,18.64,LANDED
20.26,TAKEOFF,TO_GROUND_ROLL,72.05,80,7.95,5.28,-0.36,-0.06,0.24,86.86,-0.102,1,0,0,0,0,0,0,0,0,0,90.5,0,0,0,0,0,0,0,0,0,90.5,1,0,-3.634,0.1845,1,0,0.1845,0,0,0,0,0,0,2,2,0,0,VALID,0,0,0,0,0,1,0,0,0,0,0,0,0,0,0,0,0,0,0,0,2139.5,2203.7,6,0,0.76,0.5,27,1.32,0.76,0.76,19.4,LANDED
21.02,TAKEOFF,TO_GROUND_ROLL,76.01,80,3.99,5.28,-0.33,-0.04,0.21,86.75,-0.094,1,0,0,0,0,0,0,0,0,0,90.44,0,0,0,0,0,0,0,0,0,90.44,1,0,-3.692,0.1805,1,0,0.1805,0,0,0,0,0,0,2,2,0,0,VALID,0,0,0,0,0,1,0,0,0,0,0,0,0,0,0,0,0,0,0,0,2151.63,2206.99,6,0,0.76,0.5,28,1.32,0.76,0.76,20.16,LANDED
21.78,TAKEOFF,TO_GROUND_ROLL,79.95,80,0.05,5.29,-0.35,-0.01,0.23,86.71,-0.101,1,0,0,0,0,0,0,0,0,0,90.41,0,0,0,0,0,0,0,0,0,90.41,1,0,-3.703,0.1776,1,0,0.1776,0,0,0,0,0,0,2,2,0,0,VALID,0,0,0,0,0,1,0,0,0,0,0,0,0,0,0,0,0,0,0,0,2168.14,2216.04,6,0,0.76,0.5,29,1.32,0.76,0.76,20.92,LANDED
22.54,TAKEOFF,TO_GROUND_ROLL,83.88,80,-3.88,5.3,-0.36,0.02,0.25,86.67,-0.098,1,0,0,0,0,0,0,0,0,0,90.41,0,0,0,0,0,0,0,0,0,90.41,1,0,-3.742,0.1795,1,0,0.1795,0,0,0,0,0,0,2,2,0,0,VALID,0,0,0,0,0,1,0,0,0,0,0,0,0,0,0,0,0,0,0,0,2188.73,2230.3,6,0,0.76,0.5,30,1.32,0.76,0.76,21.68,LANDED
23.34,TAKEOFF,TO_GROUND_ROLL,87.92,80,-7.92,5.31,-0.36,0.03,0.26,86.62,-0.095,1,0,0,0,0,0,0,0,0,0,90.42,0,0,0,0,0,0,0,0,0,90.42,1,0,-3.801,0.183,1,0,0.183,0,0,0,0,0,0,2,2,0,0,VALID,0,0,0,0,0,1,0,0,0,0,0,0,0,0,0,0,0,0,0,0,2213.85,2249.9,6,0,0.78,0.5,31,1.28,0.78,0.76,22.46,LANDED
24.1,TAKEOFF,TO_GROUND_ROLL,91.86,80,-11.86,5.32,-0.37,0.05,0.28,86.55,-0.094,1,0,0,0,0,0,0,0,0,0,90.42,0,0,0,0,0,0,0,0,0,90.42,1,0,-3.869,0.1867,1,0,0.1867,0,0,0,0,0,0,2,2,0,0,VALID,0,0,0,0,0,1,0,0,0,0,0,0,0,0,0,0,0,0,0,0,2241.92,2273.38,6,0,0.76,0.5,32,1.32,0.78,0.76,23.22,LANDED
24.88,TAKEOFF,TO_GROUND_ROLL,95.92,80,-15.92,5.32,-0.36,0.07,0.28,86.48,-0.093,1,0,0,0,0,0,0,0,0,0,90.43,0,0,0,0,0,0,0,0,0,90.43,1,0,-3.949,0.191,1,0,0.191,0,0,0,0,0,0,2,2,0,0,VALID,0,0,0,0,0,1,0,0,0,0,0,0,0,0,0,0,0,0,0,0,2274.13,2301.56,6,0,0.78,0.5,33,1.28,0.78,0.76,24,LANDED
25.64,TAKEOFF,TO_GROUND_ROLL,99.93,80,-19.93,5.41,-0.39,0.11,0.32,86.4,-0.092,1,0,0,0,0,0,0,0,0,0,90.43,0,0,0,0,0,0,0,0,0,90.43,1,0,-4.028,0.1949,1,0,0.1949,0,0,0,0,0,0,2,2,0,0,VALID,0,0,0,0,0,1,0,0,0,0,0,0,0,0,0,0,0,0,0,0,2308.74,2332.85,6,0,0.76,0.5,34,1.32,0.78,0.76,24.76,LANDED
26.38,TAKEOFF,TO_GROUND_ROLL,104.15,80,-24.15,5.74,-0.48,0.45,0.85,86.35,-0.069,1,0,0,0,0,0,0,0,0,0,90.42,0,0,0,0,0,0,0,0,0,90.42,1,0,-4.065,0.1953,1,0,0.1953,0,0,0,0,0,0,2,2,0,0,VALID,0,0,0,0,0,1,0,0,0,0,0,0,0,0,0,0,0,0,0,0,2347.68,2368.92,6,0,0.76,0.5,35,1.32,0.76,0.76,25.52,LANDED
27.14,TAKEOFF,TO_GROUND_ROLL,108.57,80,-28.57,5.86,-0.35,0.78,0.95,86.33,-0.057,1,0,0,0,0,0,0,0,0,0,90.41,0,0,0,0,0,0,0,0,0,90.41,1,0,-4.073,0.1943,1,0,0.1943,0,0,0,0,0,0,2,2,0,0,VALID,0,0,0,0,0,1,0,0,0,0,0,0,0,0,0,0,0,0,0,0,2390.74,2409.53,6,0,0.76,0.5,36,1.32,0.76,0.76,26.28,LANDED
27.9,TAKEOFF,TO_GROUND_ROLL,113.05,80,-33.05,5.62,-0.36,0.56,0.64,86.35,-0.053,1,0,0,0,0,0,0,0,0,0,90.39,0,0,0,0,0,0,0,0,0,90.39,1,0,-4.042,0.1912,1,0,0.1912,0,0,0,0,0,0,2,2,0,0,VALID,0,0,0,0,0,1,0,0,0,0,0,0,0,0,0,0,0,0,0,0,2436.5,2453.13,6,0,0.76,0.5,37,1.32,0.76,0.76,27.04,LANDED
28.66,TAKEOFF,TO_GROUND_ROLL,117.59,80,-37.59,5.41,-0.69,0.37,0.73,86.37,0.331,1,0,0,0,0,0,0,0,0,0,90.39,0,0,0,0,0,0,0,0,0,90.39,1,0,-4.022,0.1901,1,0,0.1901,0,0,0,0,0,0,2,2,0,0,VALID,0,0,0,0,0,1,0,0,0,0,0,0,0,0,0,0,0,0,0,0,2484.12,2498.88,6,0,0.76,0.5,38,1.32,0.76,0.76,27.8,LANDED
29.46,TAKEOFF,TO_ROTATE,122.73,80,-42.73,6.09,-0.64,0.58,1.02,86.57,1.541,1,0,0,0,0,0,0,0,0,0,90.33,0,0,0,0,0,0,0,0,0,90.33,1,0,-3.756,0.1694,1,0,0,0,0,0,0,0,0,2,2,0,0,VALID,0,0,0,0,0,1,0,0,0,0,0,0,0,0,0,0,0,0,0,0,2538.95,2552.09,6,0,0.78,0.5,39,1.28,0.78,0.76,28.58,LANDED
30.3,TAKEOFF,TO_ROTATE,128.22,80,-48.22,5.98,-0.32,0.92,0.74,87.23,3.464,1,0,0,0,0,0,0,0,0,0,90.16,2.384,0,0,0,0,0,0,0,0,90.16,1,0,-2.934,0.1098,1,0,0.1098,0,0.2701,2.384,1.462,0.08,0,2,2,0,0,VALID,0,0,0,0,0,1,0,0,0,0,0,0,0,0,0,0,0,0,0,0,2597.88,2609.29,6,0,0.8,0.5,40,1.19,0.8,0.78,29.44,LANDED
31.1,TAKEOFF,TO_ROTATE,133.61,80,-53.61,6.01,-0.05,0.4,0.67,88.37,1.748,1,0,0,0,0,0,0,0,0,0,89.99,4.184,0,0,0,0,0,0,0,0,89.99,1,0,-1.626,0.0261,1,0,0.0261,0,0.572,4.184,3.785,0.08,0,2,2,0,0,VALID,0,0,0,0,0,1,0,0,0,0,0,0,0,0,0,0,0,0,0,0,2655.67,2665.99,6,0,0.8,0.5,41,1.25,0.8,0.8,30.24,LANDED
31.92,TAKEOFF,TO_ROTATE,138.93,80,-58.93,7.97,0.27,2.02,3.01,89.11,1.757,1,0,0,0,0,0,0,0,0,0,90.13,5.984,0,0,0,0,0,0,0,0,90.13,1,0,-1.016,0.0145,1,0,0.0145,0,0.5951,5.984,3.962,0.08,0,2,2,0,0,VALID,0,0,0,0,0,1,0,0,0,0,0,0,0,0,0,0,0,0,0,0,2715.34,2724.41,6,0,0.82,0.5,42,1.22,0.82,0.8,31.06,LANDED
32.72,TAKEOFF,TO_ROTATE,143.78,80,-63.78,17.02,1.77,6.26,7.1,89.67,1.316,1,0,0,0,0,0,0,0,0,0,90.2,7.784,0,0,0,0,0,0,0,0,90.2,1,0,-0.53,0.0002,1,0,0.0002,0,0.2786,7.784,1.527,0.08,0,2,2,0,0,VALID,0,0,0,0,0,1,0,0,0,0,0,0,0,0,0,0,0,0,0,0,2771.75,2779.73,6,0,0.8,0.5,43,1.25,0.82,0.8,31.86,LANDED
33.54,TAKEOFF,TO_ROTATE,148.41,80,-68.41,20.61,1.21,9.92,10.9,89.82,0.341,1,0,0,0,0,0,0,0,0,0,90.34,9.584,0,0,0,0,0,0,0,0,90.34,1,0,-0.519,0.0177,1,0,0.0177,0,0.0365,9.584,-0.335,0.08,0,2,2,0,0,VALID,0,0,0,0,0,1,0,0,0,0,0,0,0,0,0,0,0,0,0,0,2826.82,2833.83,6,0,0.82,0.5,44,1.22,0.82,0.8,32.68,LANDED
34.22,TAKEOFF,TO_ROTATE,151.44,80,-71.44,24.17,4.04,13.85,12.62,89.95,-1.109,1,0,0,0,0,0,0,0,0,0,90.4,10,0,0,0,0,0,0,0,0,90.4,1,0,-0.452,0,0,3,0,0,0,10,-3.846,0,0,2,2,0,0,VALID,0,0,0,0,0,1,0,0,0,0,0,0,0,0,0,0,0,0,0,0,2863.93,2869.9,6,0,0.8,0.5,45,1.52,0.82,0.8,33.34,FLYING
34.9,TAKEOFF,TO_CLIMB,153.9,80,-73.9,26.64,7.77,12.76,8.96,91.01,-2.648,1,0,0,0,0,0,0,0,0,0,90.4,10,0,0,0,0,0,0,0,0,90.4,1,0,0.613,0,0,3,0,0,0,10,-2.758,0,0,2,2,0,0,VALID,0,0,0,0,0,1,0,0,0,0,0,0,0,0,0,0,0,0,0,0,2893.44,2898.87,6,0,0.68,0.5,46,1.47,0.8,0.68,34.02,FLYING
35.64,TAKEOFF,TO_CLIMB,158.04,80,-78.04,26.73,6.4,5.21,1.79,92.92,-3.779,0.9252,0,0,0,0,0,0,0,0,0,90.4,11.358,0,0,0,0,0,0,0,0,90.4,1,0,2.523,0,0,3,0,0,0,10,-2.758,0,0,1,1,0,0,VALID,0,0,0,0,0,1,0,0,0,0,0,0,0,0,0,0,0,0,0,0,2940.5,2947.71,6,0,0.72,0.5,47,1.35,0.72,0.68,34.76,FLYING
36.36,TAKEOFF,TO_CLIMB,163.42,80,-83.42,26.48,0.93,0.31,-0.51,93.58,-2.455,0.8721,0,0,0,0,0,0,0,0,0,90.4,9.958,0,0,0,0,0,0,0,0,90.4,1,0,3.181,0,0,3,0,0,0,10,-2.758,0,0,1,1,0,0,VALID,0,0,0,0,0,1,0,0,0,0,0,0,0,0,0,0,0,0,0,0,2954.76,3013.85,6,0,0.74,0.5,48,1.39,0.74,0.72,35.5,FLYING
37.02,TAKEOFF,TO_CLIMB,168.77,80,-88.77,24.09,-4.61,-1.66,-0.38,93.78,-1.25,0.82,0,0,0,0,0,0,0,0,0,90.4,8.558,0,0,0,0,0,0,0,0,90.4,1,0,3.384,0,0,3,0,0,0,10,-2.758,0,0,1,1,0,0,VALID,0,0,0,0,0,1,0,0,0,0,0,0,0,0,0,0,0,0,0,0,2948.56,3081.5,6,0,0.66,0.5,49,1.52,0.74,0.66,36.16,FLYING
37.68,TAKEOFF,TO_CLIMB,174.39,80,-94.39,18.93,-9.85,-2.61,0.43,93.79,-0.48,0.82,0,0,0,0,0,0,0,0,0,90.4,7.158,0,0,0,0,0,0,0,0,90.4,1,0,3.394,0,0,3,0,0,0,10,-2.758,0,0,1,1,0,0,VALID,0,0,0,0,0,1,0,0,0,0,0,0,0,0,0,0,0,0,0,0,2925.93,3154.11,6,0,0.66,0.5,50,1.52,0.66,0.66,36.82,FLYING
38.34,TAKEOFF,TO_CLIMB,180.22,80,-100.22,10.66,-14.44,-2.99,1.48,93.63,-0.055,0.82,0,0,0,0,0,0,0,0,0,90.4,7,0,0,0,0,0,0,0,0,90.4,1,0,3.232,0,0,3,0,0,0,10,-2.758,0,0,1,1,0,0,VALID,0,0,0,0,0,1,0,0,0,0,0,0,0,0,0,0,0,0,0,0,2922.82,3230.83,6,0,0.66,0.5,51,1.52,0.66,0.66,37.48,FLYING
t_s,phase,subphase,ias_ms,vapp_ms,spd_err_ms,agl_m,vs_ms,pitch_deg,aoa_deg,hdg_deg,bank_deg,thr_cmd,thr_cur,thr_intg,at_gain,at_tau_s,at_a_up,at_a_dn,at_kp_thr,at_ki_spd,at_thr_slew,aa_hdg_cmd_deg,aa_fpa_cmd_deg,ils_loc_m,ils_gs_m,ils_dist_km,loc_corr_deg,gs_corr_deg,flare_fpa_cmd,flare_tgt_vs,flare_frac,steer_hdg_deg,steer_blend,ro_loc_corr_deg,ro_hdg_err_deg,ro_yaw_tgt,ro_yaw_scale,ro_yaw_gate,yaw_cmd,roll_cmd,pitch_cmd,ro_pitch_tgt_deg,ro_pitch_err_deg,ro_pitch_ff,ro_roll_assist,flaps_cur,flaps_tgt,asc_j_ab,asc_j_rk,asc_validity,asc_q_pa,asc_q_raw_pa,asc_mach,asc_apo_m,asc_drag_n,asc_w_prop,asc_edot_aero,asc_edot_orb,asc_pitch_bias,asc_blend,asc_spooling,asc_ab_thr_ratio,asc_ab_t_now,asc_ab_t_avail,asc_ab_ign_on,asc_ab_flameouts,asc_rk_t_now,asc_rk_t_avail,asc_rk_ign_on,asc_rk_flameouts,ship_thrust,ship_avail_thrust,ship_ign_on,ship_flameouts,ifc_raw_dt_s,ifc_dt_s,ifc_loop_n,ifc_hz_est,ifc_raw_dt_max_s,ifc_raw_dt_min_s,phase_el_s,status
1.04,TAKEOFF,TO_PREFLIGHT,0.37,80,79.63,2.95,0.01,0.69,0.96,91.5,0.075,0.2,0,0,0,0,0,0,0,0,0,90.4,0,0,0,0,0,0,0,0,0,90.4,1,0,1.103,0,0,1,0,0,0,0,0,0,0,0,2,0,0,VALID,0,0,0,0,0,1,0,0,0,0,0,0,0,0,0,0,0,0,0,0,0,249.61,2,0,0.94,0.5,1,2.7,0.94,0.02,0.18,PRELAUNCH
1.72,TAKEOFF,TO_PREFLIGHT,0.07,80,79.93,2.94,0,0.54,-1.43,91.31,0.118,0.2,0,0,0,0,0,0,0,0,0,90.4,0,0,0,0,0,0,0,0,0,90.4,1,0,0.905,0,0,1,0,0,0,0,0,0,0,0,2,0,0,VALID,0,0,0,0,0,1,0,0,0,0,0,0,0,0,0,0,0,0,0,0,19.81,249.61,2,0,0.7,0.5,2,1.47,0.94,0.7,0.86,PRELAUNCH
2.36,TAKEOFF,TO_PREFLIGHT,0.13,80,79.87,2.94,0,0.45,-1.14,90.89,0.218,0.4,0,0,0,0,0,0,0,0,0,90.4,0,0,0,0,0,0,0,0,0,90.4,1,0,0.905,0,0,1,0,0,0,0,0,0,0,0,2,0,0,VALID,0,0,0,0,0,1,0,0,0,0,0,0,0,0,0,0,0,0,0,0,31.16,249.61,2,0,0.64,0.5,3,1.61,0.7,0.64,1.48,PRELAUNCH
3.02,TAKEOFF,TO_PREFLIGHT,0.24,80,79.76,2.93,0,0.31,-0.65,90.44,0.234,0.6,0,0,0,0,0,0,0,0,0,90.4,0,0,0,0,0,0,0,0,0,90.4,1,0,0.905,0,0,1,0,0,0,0,0,0,0,0,2,0,0,VALID,0,0,0,0,0,1,0,0,0,0,0,0,0,0,0,0,0,0,0,0,60.48,249.61,2,0,0.64,0.5,4,1.47,0.64,0.64,2.16,PRELAUNCH
3.68,TAKEOFF,TO_PREFLIGHT,0.4,80,79.6,2.91,0,0.11,-0.39,90,0.233,0.8,0,0,0,0,0,0,0,0,0,90.4,0,0,0,0,0,0,0,0,0,90.4,1,0,0.905,0,0,1,0,0,0,0,0,0,0,0,2,0,0,VALID,0,0,0,0,0,1,0,0,0,0,0,0,0,0,0,0,0,0,0,0,98.13,249.61,2,0,0.66,0.5,5,1.52,0.66,0.64,2.82,PRELAUNCH
4.38,TAKEOFF,TO_PREFLIGHT,0.58,80,79.42,2.89,0,-0.13,-0.28,89.63,0.202,1,0,0,0,0,0,0,0,0,0,90.4,0,0,0,0,0,0,0,0,0,90.4,1,0,0.905,0,0,1,0,0,0,0,0,0,0,0,2,0,0,VALID,0,0,0,0,0,1,0,0,0,0,0,0,0,0,0,0,0,0,0,0,141.8,249.61,2,0,0.68,0.5,6,1.47,0.68,0.66,3.5,PRELAUNCH
5.06,TAKEOFF,TO_GROUND_ROLL,1.32,80,78.68,2.9,-0.02,-0.19,0.17,89.38,0.129,1,0,0,0,0,0,0,0,0,0,90.4,0,0,0,0,0,0,0,0,0,90.4,1,0,0.905,0,0,1,0,0,0,0,0,0,0,0,2,0,0,VALID,0,0,0,0,0,1,0,0,0,0,0,0,0,0,0,0,0,0,0,0,187.3,249.6,2,0,0.68,0.5,7,1.47,0.68,0.68,4.18,PRELAUNCH
5.8,TAKEOFF,TO_GROUND_ROLL,7.07,80,72.93,2.95,-0.04,0.56,0.86,89.47,0.009,1,0,0,0,0,0,0,0,0,0,91.13,0,0,0,0,0,0,0,0,0,91.13,1,0,-1.666,0.0187,0.25,1,0.0187,0,0,0,0,0,0,0,2,0,0,VALID,0,0,0,0,0,1,0,0,0,0,0,0,0,0,0,0,0,0,0,0,215.63,249.33,2,0,0.7,0.5,8,1.32,0.7,0.68,4.94,LANDED
6.52,TAKEOFF,TO_GROUND_ROLL,13.66,80,66.34,2.95,-0.08,0.54,0.83,90.1,-0.082,1,0,0,0,0,0,0,0,0,0,90.15,0,0,0,0,0,0,0,0,0,90.15,1,0,-0.05,0.0003,0.25,1,0.0003,0,0,0,0,0,0,0,2,0,0,VALID,0,0,0,0,0,1,0,0,0,0,0,0,0,0,0,0,0,0,0,0,229.86,248.65,2,0,0.72,0.5,9,1.39,0.72,0.7,5.66,LANDED
7.24,TAKEOFF,TO_GROUND_ROLL,20.6,80,59.4,2.95,-0.12,0.51,0.78,89.32,0.306,1,0,0,0,0,0,0,0,0,0,90.71,0,0,0,0,0,0,0,0,0,90.71,1,0,-1.388,0.0156,0.25,1,0.0156,0,0,0,0,0,0,0,2,0,0,VALID,0,0,0,0,0,1,0,0,0,0,0,0,0,0,0,0,0,0,0,0,237.17,247.62,2,0,0.72,0.5,10,1.39,0.72,0.72,6.38,LANDED
7.98,TAKEOFF,TO_GROUND_ROLL,27.66,80,52.34,2.95,-0.15,0.47,0.75,88.45,0.552,1,0,0,0,0,0,0,0,0,0,90.75,0,0,0,0,0,0,0,0,0,90.75,1,0,-2.297,0.0335,0.324,0,0.0335,0,0,0,0,0,0,0,2,0,0,VALID,0,0,0,0,0,1,0,0,0,0,0,0,0,0,0,0,0,0,0,0,240.58,246.38,2,0,0.72,0.5,11,1.39,0.72,0.72,7.1,LANDED
8.7,TAKEOFF,TO_GROUND_ROLL,34.85,80,45.15,2.95,-0.19,0.43,0.71,90.66,-0.283,1,0,0,0,0,0,0,0,0,0,89.52,0,0,0,0,0,0,0,0,0,89.52,1,0,1.145,-0.0206,0.401,0,-0.0206,0,0,0,0,0,0,0,2,0,0,VALID,0,0,0,0,0,1,0,0,0,0,0,0,0,0,0,0,0,0,0,0,241.86,245.07,2,0,0.72,0.5,12,1.39,0.72,0.72,7.82,LANDED
9.42,TAKEOFF,TO_GROUND_ROLL,42.06,80,37.94,2.95,-0.23,0.39,0.67,89.95,-0.109,1,0,0,0,0,0,0,0,0,0,90.69,0,0,0,0,0,0,0,0,0,90.69,1,0,-0.737,0.0158,0.478,0,0.0158,0,0,0,0,0,0,0,2,0,0,VALID,0,0,0,0,0,1,0,0,0,0,0,0,0,0,0,0,0,0,0,0,242.07,243.84,2,0,0.72,0.5,13,1.39,0.72,0.72,8.54,LANDED
10.14,TAKEOFF,TO_GROUND_ROLL,49.19,80,30.81,2.95,-0.26,0.36,0.61,87.22,1.35,1,0,0,0,0,0,0,0,0,0,91.49,0,0,0,0,0,0,0,0,0,91.49,1,0,-4.272,0.1065,0.554,0,0.1065,0,0,0,0,0,0,0,2,0,0,VALID,0,0,0,0,0,1,0,0,0,0,0,0,0,0,0,0,0,0,0,0,241.88,242.87,2,0,0.72,0.5,14,1.39,0.72,0.72,9.26,LANDED
10.88,TAKEOFF,TO_GROUND_ROLL,56.53,80,23.47,2.95,-0.24,0.33,0.24,93.72,-1.881,1,0,0,0,0,0,0,0,0,0,87.8,0,0,0,0,0,0,0,0,0,87.8,1,0,5.92,-0.1686,0.633,0,-0.1686,0,0,0,0,0,0,0,2,0,0,VALID,0,0,0,0,0,1,0,0,0,0,0,0,0,0,0,0,0,0,0,0,241.71,242.25,2,0,0.74,0.5,15,1.35,0.74,0.72,10,LANDED
11.62,TAKEOFF,TO_GROUND_ROLL,63.57,80,16.43,2.95,-0.23,0.27,0.1,87.13,0.615,1,0,0,0,0,0,0,0,0,0,93.04,0,0,0,0,0,0,0,0,0,93.04,1,0,-5.908,0.1884,0.709,0,0.1884,0,0,0,0,0,0,0,2,0,0,VALID,0,0,0,0,0,1,0,0,0,0,0,0,0,0,0,0,0,0,0,0,241.83,242.14,2,0,0.74,0.5,16,1.35,0.74,0.74,10.74,LANDED
12.36,TAKEOFF,TO_GROUND_ROLL,69.67,80,10.33,2.93,-0.35,0.19,0.37,79.98,2.919,1,0,0,0,0,0,0,0,0,0,93.26,0,0,0,0,0,0,0,0,0,93.26,1,0,-13.282,0.3,0.775,0,0.3,0,0,0,0,0,0,0,2,0,0,VALID,0,0,0,0,0,1,0,0,0,0,0,0,0,0,0,0,0,0,0,0,242.06,242.23,2,0,0.74,0.5,17,1.35,0.74,0.74,11.48,LANDED
13.1,TAKEOFF,TO_ROTATE,75.9,80,4.1,2.95,-0.42,0.24,-0.87,114.24,-3.18,1,0,0,0,0,0,0,0,0,0,80.4,0,0,0,0,0,0,0,0,0,80.4,1,0,33.842,-0.3,0.844,0,0,0,0,0,0,0,0,0,2,0,0,VALID,0,0,0,0,0,1,0,0,0,0,0,0,0,0,0,0,0,0,0,0,242.33,242.42,2,0,0.74,0.5,18,1.35,0.74,0.74,12.22,LANDED
13.92,TAKEOFF,TO_ROTATE,79.96,80,0.04,2.97,-1.31,-2.26,-0.6,108.09,9.295,1,0,0,0,0,0,0,0,0,0,92.86,1.741,0,0,0,0,0,0,0,0,92.86,1,0,15.227,-0.3,0.881,0,-0.3,0,0.3998,1.741,3.997,0.08,0,0,2,0,0,VALID,0,0,0,0,0,1,0,0,0,0,0,0,0,0,0,0,0,0,0,0,242.53,242.59,2,0,0.78,0.5,19,1.22,0.78,0.74,13.06,LANDED
14.7,TAKEOFF,TO_ROTATE,86.81,80,-6.81,3.01,-0.42,0.92,0.41,78.96,2.966,1,0,0,0,0,0,0,0,0,0,100.4,3.241,0,0,0,0,0,0,0,0,100.4,1,0,-21.436,0.3,0.955,0,0.3,0,0.2653,3.241,2.316,0.08,0,0,2,0,0,VALID,0,0,0,0,0,1,0,0,0,0,0,0,0,0,0,0,0,0,0,0,242.92,242.96,2,0,0.78,0.5,20,1.32,0.78,0.78,13.84,LANDED
15.48,TAKEOFF,TO_ROTATE,93.33,80,-13.33,3.01,-0.1,0.8,0.83,88.4,2.311,1,0,0,0,0,0,0,0,0,0,86.63,4.741,0,0,0,0,0,0,0,0,86.63,1,0,1.775,-0.0799,1,0,-0.0799,0,0.3957,4.741,3.946,0.08,0,0,2,0,0,VALID,0,0,0,0,0,1,0,0,0,0,0,0,0,0,0,0,0,0,0,0,243.38,243.4,2,0,0.78,0.5,21,1.32,0.78,0.78,14.62,LANDED
16.26,TAKEOFF,TO_ROTATE,98.54,80,-18.54,3,-0.43,0.95,0.31,115.54,-2.272,1,0,0,0,0,0,0,0,0,0,80.4,6.241,0,0,0,0,0,0,0,0,80.4,1,0,35.137,-0.3,1,0,-0.3,0,0.45,6.241,5.288,0.08,0,0,2,0,0,VALID,0,0,0,0,0,1,0,0,0,0,0,0,0,0,0,0,0,0,0,0,243.8,243.81,2,0,0.78,0.5,22,1.32,0.78,0.78,15.4,LANDED
17.04,TAKEOFF,TO_ROTATE,104.43,80,-24.43,3.05,-0.02,1.14,1.22,96.86,-1.957,1,0,0,0,0,0,0,0,0,0,97.87,7.741,0,0,0,0,0,0,0,0,97.87,1,0,-1.014,0.0456,1,0,0.0456,0,0.45,7.741,6.602,0.08,0,0,2,0,0,VALID,0,0,0,0,0,1,0,0,0,0,0,0,0,0,0,0,0,0,0,0,244.31,244.33,2,0,0.78,0.5,23,1.32,0.78,0.78,16.18,LANDED
17.82,TAKEOFF,TO_ROTATE,109.48,80,-29.48,3.01,-0.48,1.35,0.24,68.32,2.575,1,0,0,0,0,0,0,0,0,0,100.4,9.241,0,0,0,0,0,0,0,0,100.4,1,0,-32.079,0.3,1,0,0.3,0,0.45,9.241,7.896,0.08,0,0,2,0,0,VALID,0,0,0,0,0,1,0,0,0,0,0,0,0,0,0,0,0,0,0,0,244.81,244.82,2,0,0.78,0.5,24,1.32,0.78,0.78,16.96,LANDED
18.6,TAKEOFF,TO_ROTATE,114.94,80,-34.94,3.06,-0.07,1.15,1.44,87.63,2.427,1,0,0,0,0,0,0,0,0,0,82.68,10.741,0,0,0,0,0,0,0,0,82.68,1,0,4.955,-0.223,1,0,-0.223,0,0.45,10.741,9.595,0.08,0,0,2,0,0,VALID,0,0,0,0,0,1,0,0,0,0,0,0,0,0,0,0,0,0,0,0,245.37,245.39,2,0,0.78,0.5,25,1.32,0.78,0.78,17.74,LANDED
19.4,TAKEOFF,TO_ROTATE,119.74,80,-39.74,3.56,-0.06,3.56,4.45,117.37,-2.346,1,0,0,0,0,0,0,0,0,0,80.4,12,0,0,0,0,0,0,0,0,80.4,1,0,36.968,-0.3,1,0,-0.3,0,0.45,12,8.444,0.08,0,0,2,0,0,VALID,0,0,0,0,0,1,0,0,0,0,0,0,0,0,0,0,0,0,0,0,245.91,245.92,2,0,0.8,0.5,26,1.28,0.8,0.78,18.54,LANDED
20.06,TAKEOFF,TO_ROTATE,123.47,80,-43.47,6.36,5.88,18.6,18.66,100.24,3.029,1,0,0,0,0,0,0,0,0,0,90.4,12,0,0,0,0,0,0,0,0,90.4,1,0,9.838,0,0,3,0,0,0,12,-6.599,0,0,0,2,0,0,VALID,0,0,0,0,0,1,0,0,0,0,0,0,0,0,0,0,0,0,0,0,246.34,246.35,2,0,0.78,0.5,27,1.56,0.8,0.78,19.18,FLYING
20.74,TAKEOFF,TO_CLIMB,121.19,80,-41.19,17.44,22.25,27.93,21.92,78.95,-21.026,1,0,0,0,0,0,0,0,0,0,90.4,12,0,0,0,0,0,0,0,0,90.4,1,0,-11.449,0,0,3,0,0,0,12,-15.933,0,0,0,2,0,0,VALID,0,0,0,0,0,1,0,0,0,0,0,0,0,0,0,0,0,0,0,0,245.97,245.95,2,0,0.68,0.5,28,1.43,0.78,0.68,19.88,FLYING
21.44,TAKEOFF,TO_CLIMB,118.85,80,-38.85,36.77,32.91,27.75,12.38,83.13,-16.254,0.8,0,0,0,0,0,0,0,0,0,90.4,27.133,0,0,0,0,0,0,0,0,90.4,1,0,-7.275,0,0,3,0,0,0,12,-15.933,0,0,0,2,0,0,VALID,0,0,0,0,0,1,0,0,0,0,0,0,0,0,0,0,0,0,0,0,244.65,245.42,2,0,0.68,0.5,29,1.47,0.68,0.68,20.56,FLYING
22.08,TAKEOFF,TO_CLIMB,121.76,80,-41.76,57.62,32.65,14.82,-1.74,86.72,-12.464,0.78,0,0,0,0,0,0,0,0,0,90.4,26.333,0,0,0,0,0,0,0,0,90.4,1,0,-3.683,0,0,3,0,0,0,12,-15.933,0,0,0,2,0,0,VALID,0,0,0,0,0,1,0,0,0,0,0,0,0,0,0,0,0,0,0,0,225.11,245.46,2,0,0.64,0.5,30,1.56,0.68,0.64,21.2,FLYING
22.72,TAKEOFF,TO_CLIMB,125.96,80,-45.96,74.7,22.08,4.63,-6.01,88.06,-10.057,0.78,0,0,0,0,0,0,0,0,0,90.4,25.533,0,0,0,0,0,0,0,0,90.4,1,0,-2.339,0,0,3,0,0,0,12,-15.933,0,0,0,2,0,0,VALID,0,0,0,0,0,1,0,0,0,0,0,0,0,0,0,0,0,0,0,0,211.76,245.72,2,0,0.64,0.5,31,1.56,0.64,0.64,21.84,FLYING
23.36,TAKEOFF,TO_CLIMB,130.21,80,-50.21,84.53,9.66,-0.64,-5.46,88.01,-4.793,0.78,0,0,0,0,0,0,0,0,0,90.4,24.733,0,0,0,0,0,0,0,0,90.4,1,0,-2.394,0,0,3,0,0,0,12,-15.933,0,0,0,2,0,0,VALID,0,0,0,0,0,1,0,0,0,0,0,0,0,0,0,0,0,0,0,0,203.97,246.1,2,0,0.64,0.5,32,1.56,0.64,0.64,22.48,FLYING
24,TAKEOFF,TO_CLIMB,135.1,80,-55.1,86.73,-1.88,-4.03,-3.96,87.88,-1.566,0.78,0,0,0,0,0,0,0,0,0,90.4,23.933,0,0,0,0,0,0,0,0,90.4,1,0,-2.515,0,0,3,0,0,0,12,-15.933,0,0,0,2,0,0,VALID,0,0,0,0,0,1,0,0,0,0,0,0,0,0,0,0,0,0,0,0,199.59,246.69,2,0,0.64,0.5,33,1.56,0.64,0.64,23.12,FLYING
24.64,TAKEOFF,TO_CLIMB,140.66,80,-60.66,81.86,-12.72,-7.13,-2.57,87.59,-0.383,0.78,0,0,0,0,0,0,0,0,0,90.4,23.133,0,0,0,0,0,0,0,0,90.4,1,0,-2.812,0,0,3,0,0,0,12,-15.933,0,0,0,2,0,0,VALID,0,0,0,0,0,1,0,0,0,0,0,0,0,0,0,0,0,0,0,0,197.33,247.49,2,0,0.64,0.5,34,1.56,0.64,0.64,23.76,FLYING
25.28,TAKEOFF,TO_CLIMB,146.79,80,-66.79,70.64,-21.96,-9.02,-1,87.51,0.296,0.78,0,0,0,0,0,0,0,0,0,90.4,22.333,0,0,0,0,0,0,0,0,90.4,1,0,-2.894,0,0,3,0,0,0,12,-15.933,0,0,0,2,0,0,VALID,0,0,0,0,0,1,0,0,0,0,0,0,0,0,0,0,0,0,0,0,196.36,248.47,2,0,0.64,0.5,35,1.56,0.64,0.64,24.4,FLYING
25.92,TAKEOFF,TO_CLIMB,153.35,80,-73.35,54.2,-29.28,-10.06,0.48,87.56,0.679,0.78,0,0,0,0,0,0,0,0,0,90.4,21.533,0,0,0,0,0,0,0,0,90.4,1,0,-2.842,0,0,3,0,0,0,12,-15.933,0,0,0,2,0,0,VALID,0,0,0,0,0,1,0,0,0,0,0,0,0,0,0,0,0,0,0,0,196.24,249.65,2,0,0.64,0.5,36,1.56,0.64,0.64,25.04,FLYING
26.58,TAKEOFF,TO_CLIMB,160.44,80,-80.44,33.11,-34.72,-10.37,1.8,87.65,0.918,0.78,0,0,0,0,0,0,0,0,0,90.4,20.733,0,0,0,0,0,0,0,0,90.4,1,0,-2.752,0,0,3,0,0,0,12,-15.933,0,0,0,2,0,0,VALID,0,0,0,0,0,1,0,0,0,0,0,0,0,0,0,0,0,0,0,0,196.74,251.11,2,0,0.66,0.5,37,1.52,0.66,0.64,25.7,FLYING
27.22,TAKEOFF,TO_CLIMB,167.46,80,-87.46,9.9,-38.44,-10.84,2.64,87.95,1.01,0.78,0,0,0,0,0,0,0,0,0,90.4,19.933,0,0,0,0,0,0,0,0,90.4,1,0,-2.446,0,0,3,0,0,0,12,-15.933,0,0,0,2,0,0,VALID,0,0,0,0,0,1,0,0,0,0,0,0,0,0,0,0,0,0,0,0,197.64,252.74,2,0,0.64,0.5,38,1.56,0.66,0.64,26.34,FLYING
