t_s,phase,subphase,ias_ms,vapp_ms,spd_err_ms,agl_m,vs_ms,pitch_deg,aoa_deg,hdg_deg,bank_deg,thr_cmd,thr_cur,thr_intg,at_gain,at_tau_s,at_a_up,at_a_dn,at_kp_thr,at_ki_spd,at_thr_slew,as_cmd_deg,as_cap_deg,as_raw_deg,as_spd_err_ms,as_active,aa_hdg_cmd_deg,aa_fpa_cmd_deg,aa_fbw,aa_dir,actual_fpa_deg,ftf_hdg_err_deg,ftf_fix_idx,kos_steer_pit_deg,kos_steer_hdg_deg,aa_dir_vx,aa_dir_vy,aa_dir_vz,aa_dir_pitch_deg,aa_dir_hdg_deg,ils_loc_m,ils_gs_m,ils_dist_km,loc_corr_deg,gs_corr_deg,gs_latched,active_gs_ang_deg,ils_intercept_alt_m,d_gs_ms,fpa_preclamped_deg,gs_nom_alt_m,flare_fpa_cmd,flare_tgt_vs,flare_frac,steer_hdg_deg,steer_blend,ro_loc_corr_deg,ro_hdg_err_deg,ro_yaw_tgt,ro_yaw_scale,ro_yaw_gate,yaw_cmd,roll_cmd,pitch_cmd,ro_pitch_tgt_deg,ro_pitch_err_deg,ro_pitch_ff,ro_roll_assist,flaps_cur,flaps_tgt,asc_j_ab,asc_j_rk,asc_validity,asc_q_pa,asc_q_raw_pa,asc_mach,asc_apo_m,asc_drag_n,asc_w_prop,asc_edot_aero,asc_edot_orb,asc_pitch_bias,asc_blend,asc_spooling,asc_ab_thr_ratio,asc_ab_t_now,asc_ab_t_avail,asc_ab_ign_on,asc_ab_flameouts,asc_rk_t_now,asc_rk_t_avail,asc_rk_ign_on,asc_rk_flameouts,ship_thrust,ship_avail_thrust,ship_ign_on,ship_flameouts,ifc_raw_dt_s,ifc_dt_s,ifc_loop_n,ifc_hz_est,ifc_raw_dt_max_s,ifc_raw_dt_min_s,phase_el_s,status,craft_name,cfg_file
0.18,TAKEOFF,TO_PREFLIGHT,0.19,80,79.81,3.58,0.05,-0.44,-13.74,90.04,0.052,0.064,0,0,0,0,0,0,0,0,0,0,0,0,0,0,90.4,0,1,0,2.7,0,0,0,90,0,0,0,0,0,0,0,0,0,0,0,3,0,0,0,69,0,0,0,90.4,1,0,-0.36,0,0,1,0,0,0,0,0,0,0,0,1,0,0,VALID,0,0,0,0,0,1,0,0,0,0,0,0,0,0,0,0,0,0,0,0,0,518.08,2,0,0.16,0.16,1,3.45,0.16,0.02,0.02,LANDED,CF1-J,0:/Integrated Flight Computer/aircraft/cf1_j_cfg.ks (inferred preloaded)
0.44,TAKEOFF,TO_PREFLIGHT,0.19,80,79.81,3.64,-0.11,-0.07,35.95,90.04,0.071,0.112,0,0,0,0,0,0,0,0,0,0,0,0,0,0,90.4,0,1,0,-6.55,0,0,0,90,0,0,0,0,0,0,0,0,0,0,0,3,0,0,0,69,0,0,0,90.4,1,0,-0.36,0,0,1,0,0,0,0,0,0,0,1,1,0,0,VALID,0,0,0,0,0,1,0,0,0,0,0,0,0,0,0,0,0,0,0,0,0.41,518.08,2,0,0.04,0.04,6,19.23,0.16,0.04,0.28,LANDED,CF1-J,0:/Integrated Flight Computer/aircraft/cf1_j_cfg.ks (inferred preloaded)
0.7,TAKEOFF,TO_PREFLIGHT,0.09,80,79.91,3.61,0.05,-0.25,-42.43,90.05,0.121,0.216,0,0,0,0,0,0,0,0,0,0,0,0,0,0,90.4,0,1,0,2.86,0,0,0,90,0,0,0,0,0,0,0,0,0,0,0,3,0,0,0,69,0,0,0,90.4,1,0,-0.36,0,0,1,0,0,0,0,0,0,0,1,1,0,0,VALID,0,0,0,0,0,1,0,0,0,0,0,0,0,0,0,0,0,0,0,0,1.5,518.1,2,0,0.04,0.04,11,19.23,0.08,0.04,0.54,LANDED,CF1-J,0:/Integrated Flight Computer/aircraft/cf1_j_cfg.ks (inferred preloaded)
0.96,TAKEOFF,TO_PREFLIGHT,0.05,80,79.95,3.61,-0.02,-0.26,28.63,90.05,0.152,0.32,0,0,0,0,0,0,0,0,0,0,0,0,0,0,90.4,0,1,0,-0.95,0,0,0,90,0,0,0,0,0,0,0,0,0,0,0,3,0,0,0,69,0,0,0,90.4,1,0,-0.36,0,0,1,0,0,0,0,0,0,0,1,1,0,0,VALID,0,0,0,0,0,1,0,0,0,0,0,0,0,0,0,0,0,0,0,0,3.41,518.11,2,0,0.04,0.04,16,19.23,0.08,0.04,0.8,LANDED,CF1-J,0:/Integrated Flight Computer/aircraft/cf1_j_cfg.ks (inferred preloaded)
1.22,TAKEOFF,TO_PREFLIGHT,0.06,80,79.94,3.63,-0.01,-0.11,27.77,90.04,0.131,0.424,0,0,0,0,0,0,0,0,0,0,0,0,0,0,90.4,0,1,0,-0.64,0,0,0,90,0,0,0,0,0,0,0,0,0,0,0,3,0,0,0,69,0,0,0,90.4,1,0,-0.36,0,0,1,0,0,0,0,0,0,0,1,1,0,0,VALID,0,0,0,0,0,1,0,0,0,0,0,0,0,0,0,0,0,0,0,0,6.12,518.11,2,0,0.04,0.04,21,19.23,0.08,0.04,1.06,LANDED,CF1-J,0:/Integrated Flight Computer/aircraft/cf1_j_cfg.ks (inferred preloaded)
1.48,TAKEOFF,TO_PREFLIGHT,0.04,80,79.96,3.61,0,-0.22,-7.51,90.04,0.092,0.528,0,0,0,0,0,0,0,0,0,0,0,0,0,0,90.4,0,1,0,0.1,0,0,0,90,0,0,0,0,0,0,0,0,0,0,0,3,0,0,0,69,0,0,0,90.4,1,0,-0.36,0,0,1,0,0,0,0,0,0,0,1,1,0,0,VALID,0,0,0,0,0,1,0,0,0,0,0,0,0,0,0,0,0,0,0,0,9.63,518.12,2,0,0.04,0.04,26,19.23,0.08,0.04,1.32,LANDED,CF1-J,0:/Integrated Flight Computer/aircraft/cf1_j_cfg.ks (inferred preloaded)
1.74,TAKEOFF,TO_PREFLIGHT,0.03,80,79.97,3.61,-0.01,-0.21,36.17,90.04,0.073,0.632,0,0,0,0,0,0,0,0,0,0,0,0,0,0,90.4,0,1,0,-0.29,0,0,0,90,0,0,0,0,0,0,0,0,0,0,0,3,0,0,0,69,0,0,0,90.4,1,0,-0.36,0,0,1,0,0,0,0,0,0,0,1,1,0,0,VALID,0,0,0,0,0,1,0,0,0,0,0,0,0,0,0,0,0,0,0,0,13.92,518.12,2,0,0.04,0.04,31,19.23,0.08,0.04,1.58,LANDED,CF1-J,0:/Integrated Flight Computer/aircraft/cf1_j_cfg.ks (inferred preloaded)
2,TAKEOFF,TO_PREFLIGHT,0.02,80,79.98,3.62,-0.01,-0.14,79.08,90.04,0.087,0.736,0,0,0,0,0,0,0,0,0,0,0,0,0,0,90.4,0,1,0,-0.52,0,0,0,90,0,0,0,0,0,0,0,0,0,0,0,3,0,0,0,69,0,0,0,90.4,1,0,-0.36,0,0,1,0,0,0,0,0,0,0,1,1,0,0,VALID,0,0,0,0,0,1,0,0,0,0,0,0,0,0,0,0,0,0,0,0,18.97,518.12,2,0,0.04,0.04,36,19.23,0.08,0.04,1.84,LANDED,CF1-J,0:/Integrated Flight Computer/aircraft/cf1_j_cfg.ks (inferred preloaded)
2.32,TAKEOFF,TO_PREFLIGHT,0.04,80,79.96,3.61,0.01,-0.22,-8.75,90.04,0.12,0.864,0,0,0,0,0,0,0,0,0,0,0,0,0,0,90.4,0,1,0,0.31,0,0,0,90,0,0,0,0,0,0,0,0,0,0,0,3,0,0,0,69,0,0,0,90.4,1,0,-0.36,0,0,1,0,0,0,0,0,0,0,1,1,0,0,VALID,0,0,0,0,0,1,0,0,0,0,0,0,0,0,0,0,0,0,0,0,26.23,518.11,2,0,0.08,0.08,41,15.63,0.08,0.04,2.16,LANDED,CF1-J,0:/Integrated Flight Computer/aircraft/cf1_j_cfg.ks (inferred preloaded)
2.6,TAKEOFF,TO_PREFLIGHT,0.02,80,79.98,3.61,0,-0.22,13.75,90.04,0.13,0.976,0,0,0,0,0,0,0,0,0,0,0,0,0,0,90.4,0,1,0,-0.19,0,0,0,90,0,0,0,0,0,0,0,0,0,0,0,3,0,0,0,69,0,0,0,90.4,1,0,-0.36,0,0,1,0,0,0,0,0,0,0,1,1,0,0,VALID,0,0,0,0,0,1,0,0,0,0,0,0,0,0,0,0,0,0,0,0,33.48,518.12,2,0,0.08,0.08,45,14.29,0.08,0.06,2.44,LANDED,CF1-J,0:/Integrated Flight Computer/aircraft/cf1_j_cfg.ks (inferred preloaded)
2.88,TAKEOFF,TO_PREFLIGHT,0.02,80,79.98,3.61,0,-0.2,0.44,90.03,0.114,1,0,0,0,0,0,0,0,0,0,0,0,0,0,0,90.4,0,1,0,0.03,0,0,0,90,0,0,0,0,0,0,0,0,0,0,0,3,0,0,0,69,0,0,0,90.4,1,0,-0.36,0,0,1,0,0,0,0,0,0,0,1,1,0,0,VALID,0,0,0,0,0,1,0,0,0,0,0,0,0,0,0,0,0,0,0,0,41.44,518.12,2,0,0.08,0.08,49,14.29,0.08,0.06,2.72,LANDED,CF1-J,0:/Integrated Flight Computer/aircraft/cf1_j_cfg.ks (inferred preloaded)
3.16,TAKEOFF,TO_PREFLIGHT,0.04,80,79.96,3.61,0,-0.23,-3.03,90.03,0.093,1,0,0,0,0,0,0,0,0,0,0,0,0,0,0,90.4,0,1,0,0.12,0,0,0,90,0,0,0,0,0,0,0,0,0,0,0,3,0,0,0,69,0,0,0,90.4,1,0,-0.36,0,0,1,0,0,0,0,0,0,0,1,1,0,0,VALID,0,0,0,0,0,1,0,0,0,0,0,0,0,0,0,0,0,0,0,0,49.39,518.11,2,0,0.08,0.08,53,14.29,0.08,0.06,3,LANDED,CF1-J,0:/Integrated Flight Computer/aircraft/cf1_j_cfg.ks (inferred preloaded)
3.44,TAKEOFF,TO_GROUND_ROLL,0.06,80,79.94,3.61,0,-0.23,0.2,90.03,0.088,1,0,0,0,0,0,0,0,0,0,0,0,0,0,0,90.4,0,1,0,-0.06,0,0,0,90,0,0,0,0,0,0,0,0,0,0,0,3,0,0,0,69,0,0,0,90.4,1,0,-0.371,0.004,0.25,1,0.004,0,0,0,0,0,0,1,1,0,0,VALID,0,0,0,0,0,1,0,0,0,0,0,0,0,0,0,0,0,0,0,0,57.2,518.11,2,0,0.08,0.08,57,14.29,0.08,0.06,3.3,LANDED,CF1-J,0:/Integrated Flight Computer/aircraft/cf1_j_cfg.ks (inferred preloaded)
3.72,TAKEOFF,TO_GROUND_ROLL,0.29,80,79.71,3.62,-0.01,-0.12,1.34,90.03,0.103,1,0,0,0,0,0,0,0,0,0,0,0,0,0,0,90.4,0,1,0,-0.59,0,0,0,90,0,0,0,0,0,0,0,0,0,0,0,3,0,0,0,69,0,0,0,90.4,1,0,-0.373,0.0041,0.25,1,0.0041,0,0,0,0,0,0,1,1,0,0,VALID,0,0,0,0,0,1,0,0,0,0,0,0,0,0,0,0,0,0,0,0,64.88,518.05,2,0,0.08,0.08,61,14.29,0.08,0.06,3.58,LANDED,CF1-J,0:/Integrated Flight Computer/aircraft/cf1_j_cfg.ks (inferred preloaded)
4,TAKEOFF,TO_GROUND_ROLL,0.63,80,79.37,3.61,0,-0.17,-0.42,90.03,0.117,1,0,0,0,0,0,0,0,0,0,0,0,0,0,0,90.4,0,1,0,0.11,0,0,0,90,0,0,0,0,0,0,0,0,0,0,0,3,0,0,0,69,0,0,0,90.4,1,0,-0.375,0.0041,0.25,1,0.0041,0,0,0,0,0,0,1,1,0,0,VALID,0,0,0,0,0,1,0,0,0,0,0,0,0,0,0,0,0,0,0,0,72.42,517.97,2,0,0.08,0.08,65,14.29,0.08,0.06,3.86,LANDED,CF1-J,0:/Integrated Flight Computer/aircraft/cf1_j_cfg.ks (inferred preloaded)
4.28,TAKEOFF,TO_GROUND_ROLL,1.01,80,78.99,3.62,-0.01,-0.16,0.42,90.03,0.117,1,0,0,0,0,0,0,0,0,0,0,0,0,0,0,90.4,0,1,0,-0.68,0,0,0,90,0,0,0,0,0,0,0,0,0,0,0,3,0,0,0,69,0,0,0,90.4,1,0,-0.373,0.0041,0.25,1,0.0041,0,0,0,0,0,0,1,1,0,0,VALID,0,0,0,0,0,1,0,0,0,0,0,0,0,0,0,0,0,0,0,0,79.83,517.87,2,0,0.08,0.08,69,14.29,0.08,0.06,4.14,LANDED,CF1-J,0:/Integrated Flight Computer/aircraft/cf1_j_cfg.ks (inferred preloaded)
4.56,TAKEOFF,TO_GROUND_ROLL,1.43,80,78.57,3.62,-0.01,-0.14,0.1,90.03,0.106,1,0,0,0,0,0,0,0,0,0,0,0,0,0,0,90.4,0,1,0,-0.25,0,0,0,90,0,0,0,0,0,0,0,0,0,0,0,3,0,0,0,69,0,0,0,90.4,1,0,-0.368,0.004,0.25,1,0.004,0,0,0,0,0,0,1,1,0,0,VALID,0,0,0,0,0,1,0,0,0,0,0,0,0,0,0,0,0,0,0,0,87.12,517.77,2,0,0.08,0.08,73,14.29,0.08,0.06,4.42,LANDED,CF1-J,0:/Integrated Flight Computer/aircraft/cf1_j_cfg.ks (inferred preloaded)
4.84,TAKEOFF,TO_GROUND_ROLL,1.89,80,78.11,3.62,-0.01,-0.16,0.15,90.04,0.097,1,0,0,0,0,0,0,0,0,0,0,0,0,0,0,90.39,0,1,0,-0.39,0,0,0,90,0,0,0,0,0,0,0,0,0,0,0,3,0,0,0,69,0,0,0,90.39,1,0,-0.358,0.0038,0.25,1,0.0038,0,0,0,0,0,0,1,1,0,0,VALID,0,0,0,0,0,1,0,0,0,0,0,0,0,0,0,0,0,0,0,0,94.28,517.65,2,0,0.08,0.08,77,14.29,0.08,0.06,4.7,LANDED,CF1-J,0:/Integrated Flight Computer/aircraft/cf1_j_cfg.ks (inferred preloaded)
5.12,TAKEOFF,TO_GROUND_ROLL,2.38,80,77.62,3.62,-0.02,-0.14,0.2,90.05,0.099,1,0,0,0,0,0,0,0,0,0,0,0,0,0,0,90.39,0,1,0,-0.37,0,0,0,90,0,0,0,0,0,0,0,0,0,0,0,3,0,0,0,69,0,0,0,90.39,1,0,-0.343,0.0036,0.25,1,0.0036,0,0,0,0,0,0,1,1,0,0,VALID,0,0,0,0,0,1,0,0,0,0,0,0,0,0,0,0,0,0,0,0,101.31,517.52,2,0,0.08,0.08,81,14.29,0.08,0.06,4.98,LANDED,CF1-J,0:/Integrated Flight Computer/aircraft/cf1_j_cfg.ks (inferred preloaded)
5.4,TAKEOFF,TO_GROUND_ROLL,2.91,80,77.09,3.62,-0.02,-0.15,0.13,90.06,0.107,1,0,0,0,0,0,0,0,0,0,0,0,0,0,0,90.39,0,1,0,-0.31,0,0,0,90,0,0,0,0,0,0,0,0,0,0,0,3,0,0,0,69,0,0,0,90.39,1,0,-0.326,0.0034,0.25,1,0.0034,0,0,0,0,0,0,1,1,0,0,VALID,0,0,0,0,0,1,0,0,0,0,0,0,0,0,0,0,0,0,0,0,108.22,517.38,2,0,0.08,0.08,85,14.29,0.08,0.06,5.26,LANDED,CF1-J,0:/Integrated Flight Computer/aircraft/cf1_j_cfg.ks (inferred preloaded)
5.68,TAKEOFF,TO_GROUND_ROLL,3.47,80,76.53,3.62,-0.02,-0.15,0.15,90.08,0.112,1,0,0,0,0,0,0,0,0,0,0,0,0,0,0,90.39,0,1,0,-0.33,0,0,0,90,0,0,0,0,0,0,0,0,0,0,0,3,0,0,0,69,0,0,0,90.39,1,0,-0.307,0.0031,0.25,1,0.0031,0,0,0,0,0,0,1,1,0,0,VALID,0,0,0,0,0,1,0,0,0,0,0,0,0,0,0,0,0,0,0,0,115,517.23,2,0,0.08,0.08,89,14.29,0.08,0.06,5.54,LANDED,CF1-J,0:/Integrated Flight Computer/aircraft/cf1_j_cfg.ks (inferred preloaded)
5.96,TAKEOFF,TO_GROUND_ROLL,4.07,80,75.93,3.62,-0.02,-0.14,0.17,90.1,0.108,1,0,0,0,0,0,0,0,0,0,0,0,0,0,0,90.38,0,1,0,-0.33,0,0,0,90,0,0,0,0,0,0,0,0,0,0,0,3,0,0,0,69,0,0,0,90.38,1,0,-0.284,0.0028,0.25,1,0.0028,0,0,0,0,0,0,1,1,0,0,VALID,0,0,0,0,0,1,0,0,0,0,0,0,0,0,0,0,0,0,0,0,121.67,517.07,2,0,0.08,0.08,93,14.29,0.08,0.06,5.82,LANDED,CF1-J,0:/Integrated Flight Computer/aircraft/cf1_j_cfg.ks (inferred preloaded)
6.24,TAKEOFF,TO_GROUND_ROLL,4.7,80,75.3,3.62,-0.03,-0.14,0.16,90.12,0.101,1,0,0,0,0,0,0,0,0,0,0,0,0,0,0,90.38,0,1,0,-0.35,0,0,0,90,0,0,0,0,0,0,0,0,-0.001,0,0,3,0,0,0,69,0,0,0,90.38,1,-0.001,-0.26,0.0025,0.25,1,0.0025,0,0,0,0,0,0,1,1,0,0,VALID,0,0,0,0,0,1,0,0,0,0,0,0,0,0,0,0,0,0,0,0,128.22,516.89,2,0,0.08,0.08,97,14.29,0.08,0.06,6.1,LANDED,CF1-J,0:/Integrated Flight Computer/aircraft/cf1_j_cfg.ks (inferred preloaded)
6.52,TAKEOFF,TO_GROUND_ROLL,5.36,80,74.64,3.62,-0.03,-0.14,0.17,90.15,0.097,1,0,0,0,0,0,0,0,0,0,0,0,0,0,0,90.38,0,1,0,-0.34,0,0,0,90,0,0,0,0,0,0,0,0,-0.001,0,0,3,0,0,0,69,0,0,0,90.38,1,-0.001,-0.234,0.0021,0.25,1,0.0021,0,0,0,0,0,0,1,1,0,0,VALID,0,0,0,0,0,1,0,0,0,0,0,0,0,0,0,0,0,0,0,0,134.65,516.7,2,0,0.08,0.08,101,14.29,0.08,0.06,6.38,LANDED,CF1-J,0:/Integrated Flight Computer/aircraft/cf1_j_cfg.ks (inferred preloaded)
6.8,TAKEOFF,TO_GROUND_ROLL,6.06,80,73.94,3.62,-0.04,-0.14,0.17,90.17,0.099,1,0,0,0,0,0,0,0,0,0,0,0,0,0,0,90.38,0,1,0,-0.34,0,0,0,90,0,0,0,0,0,0,0,0,-0.001,0,0,3,0,0,0,69,0,0,0,90.38,1,-0.001,-0.207,0.0018,0.25,1,0.0018,0,0,0,0,0,0,1,1,0,0,VALID,0,0,0,0,0,1,0,0,0,0,0,0,0,0,0,0,0,0,0,0,140.96,516.49,2,0,0.08,0.08,105,14.29,0.08,0.06,6.66,LANDED,CF1-J,0:/Integrated Flight Computer/aircraft/cf1_j_cfg.ks (inferred preloaded)
7.08,TAKEOFF,TO_GROUND_ROLL,6.78,80,73.22,3.62,-0.04,-0.14,0.17,90.2,0.103,1,0,0,0,0,0,0,0,0,0,0,0,0,0,0,90.38,0,1,0,-0.33,0,0,0,90,0,0,0,0,0,0,0,0,-0.001,0,0,3,0,0,0,69,0,0,0,90.38,1,-0.001,-0.18,0.0015,0.25,1,0.0015,0,0,0,0,0,0,1,1,0,0,VALID,0,0,0,0,0,1,0,0,0,0,0,0,0,0,0,0,0,0,0,0,147.16,516.27,2,0,0.08,0.08,109,14.29,0.08,0.06,6.94,LANDED,CF1-J,0:/Integrated Flight Computer/aircraft/cf1_j_cfg.ks (inferred preloaded)
7.36,TAKEOFF,TO_GROUND_ROLL,7.54,80,72.46,3.62,-0.04,-0.13,0.17,90.23,0.104,1,0,0,0,0,0,0,0,0,0,0,0,0,0,0,90.38,0,1,0,-0.33,0,0,0,90,0,0,0,0,0,0,0,0,-0.001,0,0,3,0,0,0,69,0,0,0,90.38,1,-0.001,-0.155,0.0013,0.25,1,0.0013,0,0,0,0,0,0,1,1,0,0,VALID,0,0,0,0,0,1,0,0,0,0,0,0,0,0,0,0,0,0,0,0,153.24,516.04,2,0,0.08,0.08,113,14.29,0.08,0.06,7.22,LANDED,CF1-J,0:/Integrated Flight Computer/aircraft/cf1_j_cfg.ks (inferred preloaded)
7.64,TAKEOFF,TO_GROUND_ROLL,8.33,80,71.67,3.62,-0.05,-0.13,0.17,90.25,0.102,1,0,0,0,0,0,0,0,0,0,0,0,0,0,0,90.38,0,1,0,-0.33,0,0,0,90,0,0,0,0,0,0,0,0,-0.001,0,0,3,0,0,0,69,0,0,0,90.38,1,-0.001,-0.131,0.001,0.25,1,0.001,0,0,0,0,0,0,1,1,0,0,VALID,0,0,0,0,0,1,0,0,0,0,0,0,0,0,0,0,0,0,0,0,159.21,515.79,2,0,0.08,0.08,117,14.29,0.08,0.06,7.5,LANDED,CF1-J,0:/Integrated Flight Computer/aircraft/cf1_j_cfg.ks (inferred preloaded)
7.92,TAKEOFF,TO_GROUND_ROLL,9.14,80,70.86,3.62,-0.05,-0.13,0.18,90.27,0.098,1,0,0,0,0,0,0,0,0,0,0,0,0,0,0,90.38,0,1,0,-0.33,0,0,0,90,0,0,0,0,0,0,0,0,-0.002,0,0,3,0,0,0,69,0,0,0,90.38,1,-0.002,-0.109,0.0008,0.25,1,0.0008,0,0,0,0,0,0,1,1,0,0,VALID,0,0,0,0,0,1,0,0,0,0,0,0,0,0,0,0,0,0,0,0,165.07,515.52,2,0,0.08,0.08,121,14.29,0.08,0.06,7.78,LANDED,CF1-J,0:/Integrated Flight Computer/aircraft/cf1_j_cfg.ks (inferred preloaded)
8.2,TAKEOFF,TO_GROUND_ROLL,9.99,80,70.01,3.62,-0.06,-0.13,0.18,90.29,0.097,1,0,0,0,0,0,0,0,0,0,0,0,0,0,0,90.38,0,1,0,-0.33,0,0,0,90,0,0,0,0,0,0,0,0,-0.002,0,0,3,0,0,0,69,0,0,0,90.38,1,-0.002,-0.089,0.0007,0.25,1,0.0007,0,0,0,0,0,0,1,1,0,0,VALID,0,0,0,0,0,1,0,0,0,0,0,0,0,0,0,0,0,0,0,0,170.82,515.24,2,0,0.08,0.08,125,14.29,0.08,0.06,8.06,LANDED,CF1-J,0:/Integrated Flight Computer/aircraft/cf1_j_cfg.ks (inferred preloaded)
8.48,TAKEOFF,TO_GROUND_ROLL,10.86,80,69.14,3.62,-0.06,-0.13,0.18,90.31,0.099,1,0,0,0,0,0,0,0,0,0,0,0,0,0,0,90.38,0,1,0,-0.33,0,0,0,90,0,0,0,0,0,0,0,0,-0.002,0,0,3,0,0,0,69,0,0,0,90.38,1,-0.002,-0.071,0.0005,0.25,1,0.0005,0,0,0,0,0,0,1,1,0,0,VALID,0,0,0,0,0,1,0,0,0,0,0,0,0,0,0,0,0,0,0,0,176.46,514.94,2,0,0.08,0.08,129,14.29,0.08,0.06,8.34,LANDED,CF1-J,0:/Integrated Flight Computer/aircraft/cf1_j_cfg.ks (inferred preloaded)
8.76,TAKEOFF,TO_GROUND_ROLL,11.77,80,68.23,3.62,-0.07,-0.12,0.18,90.33,0.101,1,0,0,0,0,0,0,0,0,0,0,0,0,0,0,90.39,0,1,0,-0.33,0,0,0,90,0,0,0,0,0,0,0,0,-0.003,0,0,3,0,0,0,69,0,0,0,90.39,1,-0.003,-0.056,0.0004,0.25,1,0.0004,0,0,0,0,0,0,1,1,0,0,VALID,0,0,0,0,0,1,0,0,0,0,0,0,0,0,0,0,0,0,0,0,181.99,514.62,2,0,0.08,0.08,133,14.29,0.08,0.06,8.62,LANDED,CF1-J,0:/Integrated Flight Computer/aircraft/cf1_j_cfg.ks (inferred preloaded)
9.04,TAKEOFF,TO_GROUND_ROLL,12.7,80,67.3,3.62,-0.07,-0.12,0.18,90.34,0.102,1,0,0,0,0,0,0,0,0,0,0,0,0,0,0,90.39,0,1,0,-0.33,0,0,0,90,0,0,0,0,0,0,0,0,-0.003,0,0,3,0,0,0,69,0,0,0,90.39,1,-0.003,-0.045,0.0003,0.25,1,0.0003,0,0,0,0,0,0,1,1,0,0,VALID,0,0,0,0,0,1,0,0,0,0,0,0,0,0,0,0,0,0,0,0,187.42,514.29,2,0,0.08,0.08,137,14.29,0.08,0.06,8.9,LANDED,CF1-J,0:/Integrated Flight Computer/aircraft/cf1_j_cfg.ks (inferred preloaded)
9.32,TAKEOFF,TO_GROUND_ROLL,13.65,80,66.35,3.62,-0.08,-0.12,0.19,90.35,0.102,1,0,0,0,0,0,0,0,0,0,0,0,0,0,0,90.39,0,1,0,-0.33,0,0,0,90,0,0,0,0,0,0,0,0,-0.004,0,0,3,0,0,0,69,0,0,0,90.39,1,-0.004,-0.036,0.0002,0.25,1,0.0002,0,0,0,0,0,0,1,1,0,0,VALID,0,0,0,0,0,1,0,0,0,0,0,0,0,0,0,0,0,0,0,0,192.74,513.94,2,0,0.08,0.08,141,14.29,0.08,0.06,9.18,LANDED,CF1-J,0:/Integrated Flight Computer/aircraft/cf1_j_cfg.ks (inferred preloaded)
9.6,TAKEOFF,TO_GROUND_ROLL,14.64,80,65.36,3.62,-0.08,-0.12,0.18,90.36,0.101,1,0,0,0,0,0,0,0,0,0,0,0,0,0,0,90.39,0,1,0,-0.33,0,0,0,90,0,0,0,0,0,0,0,0,-0.004,0,0,3,0,0,0,69,0,0,0,90.39,1,-0.004,-0.029,0.0002,0.25,1,0.0002,0,0,0,0,0,0,1,1,0,0,VALID,0,0,0,0,0,1,0,0,0,0,0,0,0,0,0,0,0,0,0,0,197.95,513.57,2,0,0.08,0.08,145,14.29,0.08,0.06,9.46,LANDED,CF1-J,0:/Integrated Flight Computer/aircraft/cf1_j_cfg.ks (inferred preloaded)
9.88,TAKEOFF,TO_GROUND_ROLL,15.64,80,64.36,3.62,-0.09,-0.11,0.19,90.37,0.101,1,0,0,0,0,0,0,0,0,0,0,0,0,0,0,90.39,0,1,0,-0.33,0,0,0,90,0,0,0,0,0,0,0,0,-0.005,0,0,3,0,0,0,69,0,0,0,90.39,1,-0.005,-0.025,0.0002,0.25,1,0.0002,0,0,0,0,0,0,1,1,0,0,VALID,0,0,0,0,0,1,0,0,0,0,0,0,0,0,0,0,0,0,0,0,203.06,513.18,2,0,0.08,0.08,149,14.29,0.08,0.06,9.74,LANDED,CF1-J,0:/Integrated Flight Computer/aircraft/cf1_j_cfg.ks (inferred preloaded)
10.16,TAKEOFF,TO_GROUND_ROLL,16.68,80,63.32,3.62,-0.09,-0.11,0.19,90.37,0.102,1,0,0,0,0,0,0,0,0,0,0,0,0,0,0,90.39,0,1,0,-0.32,0,0,0,90,0,0,0,0,0,0,0,0,-0.005,0,0,3,0,0,0,69,0,0,0,90.39,1,-0.005,-0.022,0.0001,0.25,1,0.0001,0,0,0,0,0,0,1,1,0,0,VALID,0,0,0,0,0,1,0,0,0,0,0,0,0,0,0,0,0,0,0,0,208.06,512.78,2,0,0.08,0.08,153,14.29,0.08,0.06,10.02,LANDED,CF1-J,0:/Integrated Flight Computer/aircraft/cf1_j_cfg.ks (inferred preloaded)
10.44,TAKEOFF,TO_GROUND_ROLL,17.74,80,62.26,3.62,-0.1,-0.11,0.19,90.37,0.103,1,0,0,0,0,0,0,0,0,0,0,0,0,0,0,90.39,0,1,0,-0.32,0,0,0.01,90,0,0,0,0,0,0,0,0,-0.006,0,0,3,0,0,0,69,0,0,0,90.39,1,-0.006,-0.02,0.0001,0.25,1,0.0001,0,0,0,0,0,0,1,1,0,0,VALID,0,0,0,0,0,1,0,0,0,0,0,0,0,0,0,0,0,0,0,0,212.97,512.35,2,0,0.08,0.08,157,14.29,0.08,0.06,10.3,LANDED,CF1-J,0:/Integrated Flight Computer/aircraft/cf1_j_cfg.ks (inferred preloaded)
10.72,TAKEOFF,TO_GROUND_ROLL,18.82,80,61.18,3.62,-0.1,-0.11,0.19,90.37,0.104,1,0,0,0,0,0,0,0,0,0,0,0,0,0,0,90.39,0,1,0,-0.32,0,0,0.01,90,0,0,0,0,0,0,0,0,-0.007,0,0,3,0,0,0,69,0,0,0,90.39,1,-0.007,-0.02,0.0001,0.25,1,0.0001,0,0,0,0,0,0,1,1,0,0,VALID,0,0,0,0,0,1,0,0,0,0,0,0,0,0,0,0,0,0,0,0,217.77,511.9,2,0,0.08,0.08,161,14.29,0.08,0.06,10.58,LANDED,CF1-J,0:/Integrated Flight Computer/aircraft/cf1_j_cfg.ks (inferred preloaded)
11,TAKEOFF,TO_GROUND_ROLL,19.92,80,60.08,3.62,-0.11,-0.11,0.2,90.37,0.104,1,0,0,0,0,0,0,0,0,0,0,0,0,0,0,90.39,0,1,0,-0.32,0,0,0.01,90,0,0,0,0,0,0,0,0,-0.008,0,0,3,0,0,0,69,0,0,0,90.39,1,-0.008,-0.019,0.0001,0.25,1,0.0001,0,0,0,0,0,0,1,1,0,0,VALID,0,0,0,0,0,1,0,0,0,0,0,0,0,0,0,0,0,0,0,0,222.47,511.44,2,0,0.08,0.08,165,14.29,0.08,0.06,10.86,LANDED,CF1-J,0:/Integrated Flight Computer/aircraft/cf1_j_cfg.ks (inferred preloaded)
11.28,TAKEOFF,TO_GROUND_ROLL,21.05,80,58.95,3.63,-0.12,-0.1,0.19,90.37,0.103,1,0,0,0,0,0,0,0,0,0,0,0,0,0,0,90.39,0,1,0,-0.32,0,0,0.01,90,0,0,0,0,0,0,0,0,-0.008,0,0,3,0,0,0,69,0,0,0,90.39,1,-0.008,-0.019,0.0001,0.261,0,0.0001,0,0,0,0,0,0,1,1,0,0,VALID,0,0,0,0,0,1,0,0,0,0,0,0,0,0,0,0,0,0,0,0,227.07,510.95,2,0,0.08,0.08,169,14.29,0.08,0.06,11.14,LANDED,CF1-J,0:/Integrated Flight Computer/aircraft/cf1_j_cfg.ks (inferred preloaded)
11.56,TAKEOFF,TO_GROUND_ROLL,22.2,80,57.8,3.63,-0.12,-0.1,0.2,90.37,0.103,1,0,0,0,0,0,0,0,0,0,0,0,0,0,0,90.39,0,1,0,-0.32,0,0,0.01,90,0,0,0,0,0,0,0,0,-0.009,0,0,3,0,0,0,69,0,0,0,90.39,1,-0.009,-0.02,0.0001,0.274,0,0.0001,0,0,0,0,0,0,1,1,0,0,VALID,0,0,0,0,0,1,0,0,0,0,0,0,0,0,0,0,0,0,0,0,231.58,510.45,2,0,0.08,0.08,173,14.29,0.08,0.06,11.42,LANDED,CF1-J,0:/Integrated Flight Computer/aircraft/cf1_j_cfg.ks (inferred preloaded)
11.84,TAKEOFF,TO_GROUND_ROLL,23.37,80,56.63,3.63,-0.13,-0.1,0.2,90.37,0.103,1,0,0,0,0,0,0,0,0,0,0,0,0,0,0,90.39,0,1,0,-0.32,0,0,0.01,90,0,0,0,0,0,0,0,0,-0.01,0,0,3,0,0,0,69,0,0,0,90.39,1,-0.01,-0.019,0.0001,0.286,0,0.0001,0,0,0,0,0,0,1,1,0,0,VALID,0,0,0,0,0,1,0,0,0,0,0,0,0,0,0,0,0,0,0,0,235.98,509.92,2,0,0.08,0.08,177,14.29,0.08,0.06,11.7,LANDED,CF1-J,0:/Integrated Flight Computer/aircraft/cf1_j_cfg.ks (inferred preloaded)
12.12,TAKEOFF,TO_GROUND_ROLL,24.56,80,55.44,3.63,-0.13,-0.1,0.2,90.37,0.103,1,0,0,0,0,0,0,0,0,0,0,0,0,0,0,90.39,0,1,0,-0.31,0,0,0.01,90,0,0,0,0,0,0,0,0,-0.011,0,0,3,0,0,0,69,0,0,0,90.39,1,-0.011,-0.02,0.0002,0.299,0,0.0002,0,0,0,0,0,0,1,1,0,0,VALID,0,0,0,0,0,1,0,0,0,0,0,0,0,0,0,0,0,0,0,0,240.29,509.38,2,0,0.08,0.08,181,14.29,0.08,0.06,11.98,LANDED,CF1-J,0:/Integrated Flight Computer/aircraft/cf1_j_cfg.ks (inferred preloaded)
12.4,TAKEOFF,TO_GROUND_ROLL,25.78,80,54.22,3.63,-0.14,-0.09,0.2,90.37,0.102,1,0,0,0,0,0,0,0,0,0,0,0,0,0,0,90.39,0,1,0,-0.32,0,0,0.01,90,0,0,0,0,0,0,0,0,-0.012,0,0,3,0,0,0,69,0,0,0,90.39,1,-0.012,-0.019,0.0002,0.312,0,0.0002,0,0,0,0,0,0,1,1,0,0,VALID,0,0,0,0,0,1,0,0,0,0,0,0,0,0,0,0,0,0,0,0,244.51,508.81,2,0,0.08,0.08,185,14.29,0.08,0.06,12.26,LANDED,CF1-J,0:/Integrated Flight Computer/aircraft/cf1_j_cfg.ks (inferred preloaded)
12.68,TAKEOFF,TO_GROUND_ROLL,27.01,80,52.99,3.63,-0.15,-0.09,0.2,90.37,0.103,1,0,0,0,0,0,0,0,0,0,0,0,0,0,0,90.39,0,1,0,-0.31,0,0,0.01,90,0,0,0,0,0,0,0,0,-0.013,0,0,3,0,0,0,69,0,0,0,90.39,1,-0.013,-0.02,0.0002,0.325,0,0.0002,0,0,0,0,0,0,1,1,0,0,VALID,0,0,0,0,0,1,0,0,0,0,0,0,0,0,0,0,0,0,0,0,248.63,508.22,2,0,0.08,0.08,189,14.29,0.08,0.06,12.54,LANDED,CF1-J,0:/Integrated Flight Computer/aircraft/cf1_j_cfg.ks (inferred preloaded)
12.96,TAKEOFF,TO_GROUND_ROLL,28.26,80,51.74,3.63,-0.15,-0.09,0.2,90.37,0.103,1,0,0,0,0,0,0,0,0,0,0,0,0,0,0,90.39,0,1,0,-0.31,0,0,0.01,90,0,0,0,0,0,0,0,0,-0.014,0,0,3,0,0,0,69,0,0,0,90.39,1,-0.014,-0.019,0.0002,0.339,0,0.0002,0,0,0,0,0,0,1,1,0,0,VALID,0,0,0,0,0,1,0,0,0,0,0,0,0,0,0,0,0,0,0,0,252.65,507.61,2,0,0.08,0.08,193,14.29,0.08,0.06,12.82,LANDED,CF1-J,0:/Integrated Flight Computer/aircraft/cf1_j_cfg.ks (inferred preloaded)
13.24,TAKEOFF,TO_GROUND_ROLL,29.53,80,50.47,3.63,-0.16,-0.09,0.21,90.37,0.103,1,0,0,0,0,0,0,0,0,0,0,0,0,0,0,90.38,0,1,0,-0.31,0,0,0.01,90,0,0,0,0,0,0,0,0,-0.015,0,0,3,0,0,0,69,0,0,0,90.38,1,-0.015,-0.016,0.0001,0.352,0,0.0001,0,0,0,0,0,0,1,1,0,0,VALID,0,0,0,0,0,1,0,0,0,0,0,0,0,0,0,0,0,0,0,0,256.59,506.98,2,0,0.08,0.08,197,14.29,0.08,0.06,13.1,LANDED,CF1-J,0:/Integrated Flight Computer/aircraft/cf1_j_cfg.ks (inferred preloaded)
13.52,TAKEOFF,TO_GROUND_ROLL,30.82,80,49.18,3.63,-0.17,-0.09,0.21,90.37,0.102,1,0,0,0,0,0,0,0,0,0,0,0,0,0,0,90.38,0,1,0,-0.31,0,0,0.01,90,0,0,0,0,0,0,0,0,-0.016,0,0,3,0,0,0,69,0,0,0,90.38,1,-0.016,-0.015,0.0001,0.366,0,0.0001,0,0,0,0,0,0,1,1,0,0,VALID,0,0,0,0,0,1,0,0,0,0,0,0,0,0,0,0,0,0,0,0,260.43,506.33,2,0,0.08,0.08,201,14.29,0.08,0.06,13.38,LANDED,CF1-J,0:/Integrated Flight Computer/aircraft/cf1_j_cfg.ks (inferred preloaded)
13.8,TAKEOFF,TO_GROUND_ROLL,32.13,80,47.87,3.63,-0.17,-0.08,0.21,90.36,0.102,1,0,0,0,0,0,0,0,0,0,0,0,0,0,0,90.39,0,1,0,-0.31,0,0,0.01,90,0,0,0,0,0,0,0,0,-0.018,0,0,3,0,0,0,69,0,0,0,90.39,1,-0.018,-0.02,0.0002,0.38,0,0.0002,0,0,0,0,0,0,1,1,0,0,VALID,0,0,0,0,0,1,0,0,0,0,0,0,0,0,0,0,0,0,0,0,264.18,505.66,2,0,0.08,0.08,205,14.29,0.08,0.06,13.66,LANDED,CF1-J,0:/Integrated Flight Computer/aircraft/cf1_j_cfg.ks (inferred preloaded)
14.08,TAKEOFF,TO_GROUND_ROLL,33.45,80,46.55,3.63,-0.18,-0.08,0.21,90.36,0.104,1,0,0,0,0,0,0,0,0,0,0,0,0,0,0,90.38,0,1,0,-0.31,0,0,0.01,90,0,0,0,0,0,0,0,0,-0.019,0,0,3,0,0,0,69,0,0,0,90.38,1,-0.019,-0.02,0.0002,0.394,0,0.0002,0,0,0,0,0,0,1,1,0,0,VALID,0,0,0,0,0,1,0,0,0,0,0,0,0,0,0,0,0,0,0,0,267.84,504.97,2,0,0.08,0.08,209,14.29,0.08,0.06,13.94,LANDED,CF1-J,0:/Integrated Flight Computer/aircraft/cf1_j_cfg.ks (inferred preloaded)
14.36,TAKEOFF,TO_GROUND_ROLL,34.79,80,45.21,3.63,-0.19,-0.08,0.21,90.36,0.105,1,0,0,0,0,0,0,0,0,0,0,0,0,0,0,90.38,0,1,0,-0.31,0,0,0.02,90,0,0,0,0,0,0,0,0,-0.02,0,0,3,0,0,0,69,0,0,0,90.38,1,-0.02,-0.019,0.0002,0.409,0,0.0002,0,0,0,0,0,0,1,1,0,0,VALID,0,0,0,0,0,1,0,0,0,0,0,0,0,0,0,0,0,0,0,0,271.41,504.25,2,0,0.08,0.08,213,14.29,0.08,0.06,14.22,LANDED,CF1-J,0:/Integrated Flight Computer/aircraft/cf1_j_cfg.ks (inferred preloaded)
14.64,TAKEOFF,TO_GROUND_ROLL,36.15,80,43.85,3.63,-0.19,-0.08,0.21,90.36,0.103,1,0,0,0,0,0,0,0,0,0,0,0,0,0,0,90.38,0,1,0,-0.31,0,0,0.02,90,0,0,0,0,0,0,0,0,-0.022,0,0,3,0,0,0,69,0,0,0,90.38,1,-0.022,-0.016,0.0002,0.423,0,0.0002,0,0,0,0,0,0,1,1,0,0,VALID,0,0,0,0,0,1,0,0,0,0,0,0,0,0,0,0,0,0,0,0,274.89,503.52,2,0,0.08,0.08,217,14.29,0.08,0.06,14.5,LANDED,CF1-J,0:/Integrated Flight Computer/aircraft/cf1_j_cfg.ks (inferred preloaded)
14.92,TAKEOFF,TO_GROUND_ROLL,37.52,80,42.48,3.63,-0.2,-0.07,0.21,90.36,0.1,1,0,0,0,0,0,0,0,0,0,0,0,0,0,0,90.38,0,1,0,-0.3,0,0,0.02,90,0,0,0,0,0,0,0,0,-0.023,0,0,3,0,0,0,69,0,0,0,90.38,1,-0.023,-0.015,0.0002,0.438,0,0.0002,0,0,0,0,0,0,1,1,0,0,VALID,0,0,0,0,0,1,0,0,0,0,0,0,0,0,0,0,0,0,0,0,278.28,502.76,2,0,0.08,0.08,221,14.29,0.08,0.06,14.78,LANDED,CF1-J,0:/Integrated Flight Computer/aircraft/cf1_j_cfg.ks (inferred preloaded)
15.2,TAKEOFF,TO_GROUND_ROLL,38.91,80,41.09,3.63,-0.21,-0.07,0.22,90.36,0.099,1,0,0,0,0,0,0,0,0,0,0,0,0,0,0,90.38,0,1,0,-0.3,0,0,0.02,90,0,0,0,0,0,0,0,0,-0.024,0,0,3,0,0,0,69,0,0,0,90.38,1,-0.024,-0.014,0.0002,0.453,0,0.0002,0,0,0,0,0,0,1,1,0,0,VALID,0,0,0,0,0,1,0,0,0,0,0,0,0,0,0,0,0,0,0,0,281.59,501.99,2,0,0.08,0.08,225,14.29,0.08,0.06,15.06,LANDED,CF1-J,0:/Integrated Flight Computer/aircraft/cf1_j_cfg.ks (inferred preloaded)
15.48,TAKEOFF,TO_GROUND_ROLL,40.32,80,39.68,3.63,-0.21,-0.07,0.22,90.36,0.1,1,0,0,0,0,0,0,0,0,0,0,0,0,0,0,90.37,0,1,0,-0.3,0,0,0.02,90,0,0,0,0,0,0,0,0,-0.026,0,0,3,0,0,0,69,0,0,0,90.37,1,-0.026,-0.011,0.0001,0.468,0,0.0001,0,0,0,0,0,0,1,1,0,0,VALID,0,0,0,0,0,1,0,0,0,0,0,0,0,0,0,0,0,0,0,0,284.82,501.2,2,0,0.08,0.08,229,14.29,0.08,0.06,15.34,LANDED,CF1-J,0:/Integrated Flight Computer/aircraft/cf1_j_cfg.ks (inferred preloaded)
15.76,TAKEOFF,TO_GROUND_ROLL,41.73,80,38.27,3.63,-0.22,-0.07,0.22,90.36,0.101,1,0,0,0,0,0,0,0,0,0,0,0,0,0,0,90.37,0,1,0,-0.3,0,0,0.02,90,0,0,0,0,0,0,0,0,-0.027,0,0,3,0,0,0,69,0,0,0,90.37,1,-0.027,-0.008,0.0001,0.483,0,0.0001,0,0,0,0,0,0,1,1,0,0,VALID,0,0,0,0,0,1,0,0,0,0,0,0,0,0,0,0,0,0,0,0,287.96,500.38,2,0,0.08,0.08,233,14.29,0.08,0.06,15.62,LANDED,CF1-J,0:/Integrated Flight Computer/aircraft/cf1_j_cfg.ks (inferred preloaded)
16.04,TAKEOFF,TO_GROUND_ROLL,43.16,80,36.84,3.63,-0.23,-0.06,0.22,90.36,0.101,1,0,0,0,0,0,0,0,0,0,0,0,0,0,0,90.37,0,1,0,-0.3,0,0,0.02,90,0,0,0,0,0,0,0,0,-0.029,0,0,3,0,0,0,69,0,0,0,90.37,1,-0.029,-0.006,0.0001,0.498,0,0.0001,0,0,0,0,0,0,1,1,0,0,VALID,0,0,0,0,0,1,0,0,0,0,0,0,0,0,0,0,0,0,0,0,291.02,499.55,2,0,0.08,0.08,237,14.29,0.08,0.06,15.9,LANDED,CF1-J,0:/Integrated Flight Computer/aircraft/cf1_j_cfg.ks (inferred preloaded)
16.32,TAKEOFF,TO_GROUND_ROLL,44.61,80,35.39,3.63,-0.23,-0.06,0.22,90.36,0.1,1,0,0,0,0,0,0,0,0,0,0,0,0,0,0,90.37,0,1,0,-0.3,0,0,0.02,90,0,0,0,0,0,0,0,0,-0.031,0,0,3,0,0,0,69,0,0,0,90.37,1,-0.031,-0.004,0.0001,0.514,0,0.0001,0,0,0,0,0,0,1,1,0,0,VALID,0,0,0,0,0,1,0,0,0,0,0,0,0,0,0,0,0,0,0,0,293.99,498.7,2,0,0.08,0.08,241,14.29,0.08,0.06,16.18,LANDED,CF1-J,0:/Integrated Flight Computer/aircraft/cf1_j_cfg.ks (inferred preloaded)
16.6,TAKEOFF,TO_GROUND_ROLL,46.06,80,33.94,3.63,-0.24,-0.06,0.22,90.36,0.099,1,0,0,0,0,0,0,0,0,0,0,0,0,0,0,90.37,0,1,0,-0.3,0,0,0.02,90,0,0,0,0,0,0,0,0,-0.032,0,0,3,0,0,0,69,0,0,0,90.37,1,-0.032,-0.003,0,0.529,0,0,0,0,0,0,0,0,1,1,0,0,VALID,0,0,0,0,0,1,0,0,0,0,0,0,0,0,0,0,0,0,0,0,296.89,497.82,2,0,0.08,0.08,245,14.29,0.08,0.06,16.46,LANDED,CF1-J,0:/Integrated Flight Computer/aircraft/cf1_j_cfg.ks (inferred preloaded)
16.88,TAKEOFF,TO_GROUND_ROLL,47.53,80,32.47,3.63,-0.24,-0.06,0.22,90.36,0.1,1,0,0,0,0,0,0,0,0,0,0,0,0,0,0,90.37,0,1,0,-0.29,0,0,0.03,90,0,0,0,0,0,0,0,0,-0.034,0,0,3,0,0,0,69,0,0,0,90.37,1,-0.034,-0.004,0.0001,0.545,0,0.0001,0,0,0,0,0,0,1,1,0,0,VALID,0,0,0,0,0,1,0,0,0,0,0,0,0,0,0,0,0,0,0,0,299.7,496.93,2,0,0.08,0.08,249,14.29,0.08,0.06,16.74,LANDED,CF1-J,0:/Integrated Flight Computer/aircraft/cf1_j_cfg.ks (inferred preloaded)
17.16,TAKEOFF,TO_GROUND_ROLL,49.01,80,30.99,3.64,-0.25,-0.05,0.23,90.36,0.102,1,0,0,0,0,0,0,0,0,0,0,0,0,0,0,90.37,0,1,0,-0.29,0,0,0.03,90,0,0,0,0,0,0,0,0,-0.036,0,0,3,0,0,0,69,0,0,0,90.37,1,-0.036,-0.004,0.0001,0.561,0,0.0001,0,0,0,0,0,0,1,1,0,0,VALID,0,0,0,0,0,1,0,0,0,0,0,0,0,0,0,0,0,0,0,0,302.44,496.03,2,0,0.08,0.08,253,14.29,0.08,0.06,17.02,LANDED,CF1-J,0:/Integrated Flight Computer/aircraft/cf1_j_cfg.ks (inferred preloaded)
17.44,TAKEOFF,TO_GROUND_ROLL,50.51,80,29.49,3.64,-0.26,-0.05,0.23,90.36,0.102,1,0,0,0,0,0,0,0,0,0,0,0,0,0,0,90.36,0,1,0,-0.29,0,0,0.03,90,0,0,0,0,0,0,0,0,-0.038,0,0,3,0,0,0,69,0,0,0,90.36,1,-0.038,-0.004,0.0001,0.577,0,0.0001,0,0,0,0,0,0,1,1,0,0,VALID,0,0,0,0,0,1,0,0,0,0,0,0,0,0,0,0,0,0,0,0,305.1,495.1,2,0,0.08,0.08,257,14.29,0.08,0.06,17.3,LANDED,CF1-J,0:/Integrated Flight Computer/aircraft/cf1_j_cfg.ks (inferred preloaded)
17.72,TAKEOFF,TO_GROUND_ROLL,52.01,80,27.99,3.64,-0.26,-0.04,0.23,90.36,0.102,1,0,0,0,0,0,0,0,0,0,0,0,0,0,0,90.36,0,1,0,-0.29,0,0,0.03,90,0,0,0,0,0,0,0,0,-0.04,0,0,3,0,0,0,69,0,0,0,90.36,1,-0.04,-0.004,0.0001,0.593,0,0.0001,0,0,0,0,0,0,1,1,0,0,VALID,0,0,0,0,0,1,0,0,0,0,0,0,0,0,0,0,0,0,0,0,307.68,494.16,2,0,0.08,0.08,261,14.29,0.08,0.06,17.58,LANDED,CF1-J,0:/Integrated Flight Computer/aircraft/cf1_j_cfg.ks (inferred preloaded)
18,TAKEOFF,TO_GROUND_ROLL,53.52,80,26.48,3.64,-0.27,-0.01,0.26,90.36,0.101,1,0,0,0,0,0,0,0,0,0,0,0,0,0,0,90.36,0,1,0,-0.29,0,0,0.03,90,0,0,0,0,0,0,0,0,-0.042,0,0,3,0,0,0,69,0,0,0,90.36,1,-0.042,-0.004,0.0001,0.609,0,0.0001,0,0,0,0,0,0,1,1,0,0,VALID,0,0,0,0,0,1,0,0,0,0,0,0,0,0,0,0,0,0,0,0,310.19,493.2,2,0,0.08,0.08,265,14.29,0.08,0.06,17.86,LANDED,CF1-J,0:/Integrated Flight Computer/aircraft/cf1_j_cfg.ks (inferred preloaded)
18.28,TAKEOFF,TO_GROUND_ROLL,55.04,80,24.96,3.65,-0.27,0.04,0.3,90.35,0.1,1,0,0,0,0,0,0,0,0,0,0,0,0,0,0,90.36,0,1,0,-0.28,0,0,0.03,90,0,0,0,0,0,0,0,0,-0.044,0,0,3,0,0,0,69,0,0,0,90.36,1,-0.044,-0.003,0,0.625,0,0,0,0,0,0,0,0,1,1,0,0,VALID,0,0,0,0,0,1,0,0,0,0,0,0,0,0,0,0,0,0,0,0,312.62,492.23,2,0,0.08,0.08,269,14.29,0.08,0.06,18.14,LANDED,CF1-J,0:/Integrated Flight Computer/aircraft/cf1_j_cfg.ks (inferred preloaded)
18.56,TAKEOFF,TO_GROUND_ROLL,56.57,80,23.43,3.67,-0.17,0.1,0.27,90.35,0.099,1,0,0,0,0,0,0,0,0,0,0,0,0,0,0,90.36,0,1,0,-0.18,0,0,0.03,90,0,0,0,0,0,0,0,0,-0.046,0,0,3,0,0,0,69,0,0,0,90.36,1,-0.046,-0.002,0,0.642,0,0,0,0,0,0,0,0,1,1,0,0,VALID,0,0,0,0,0,1,0,0,0,0,0,0,0,0,0,0,0,0,0,0,314.98,491.24,2,0,0.08,0.08,273,14.29,0.08,0.06,18.42,LANDED,CF1-J,0:/Integrated Flight Computer/aircraft/cf1_j_cfg.ks (inferred preloaded)
18.84,TAKEOFF,TO_GROUND_ROLL,58.11,80,21.89,3.69,-0.32,0.21,0.5,90.35,0.099,1,0,0,0,0,0,0,0,0,0,0,0,0,0,0,90.35,0,1,0,-0.31,0,0,0.04,90,0,0,0,0,0,0,0,0,-0.048,0,0,3,0,0,0,69,0,0,0,90.35,1,-0.048,0,0,0.658,0,0,0,0,0,0,0,0,1,1,0,0,VALID,0,0,0,0,0,1,0,0,0,0,0,0,0,0,0,0,0,0,0,0,317.27,490.23,2,0,0.08,0.08,277,14.29,0.08,0.06,18.7,LANDED,CF1-J,0:/Integrated Flight Computer/aircraft/cf1_j_cfg.ks (inferred preloaded)
19.12,TAKEOFF,TO_GROUND_ROLL,59.66,80,20.34,3.71,-0.29,0.32,0.57,90.35,0.098,1,0,0,0,0,0,0,0,0,0,0,0,0,0,0,90.35,0,1,0,-0.27,0,0,0.04,90,0,0,0,0,0,0,0,0,-0.05,0,0,3,0,0,0,69,0,0,0,90.35,1,-0.05,0.001,0,0.675,0,0,0,0,0,0,0,0,1,1,0,0,VALID,0,0,0,0,0,1,0,0,0,0,0,0,0,0,0,0,0,0,0,0,319.49,489.21,2,0,0.08,0.08,281,14.29,0.08,0.06,18.98,LANDED,CF1-J,0:/Integrated Flight Computer/aircraft/cf1_j_cfg.ks (inferred preloaded)
19.4,TAKEOFF,TO_GROUND_ROLL,61.21,80,18.79,3.73,-0.29,0.43,0.68,90.35,0.097,1,0,0,0,0,0,0,0,0,0,0,0,0,0,0,90.35,0,1,0,-0.27,0,0,0.04,90,0,0,0,0,0,0,0,0,-0.052,0,0,3,0,0,0,69,0,0,0,90.35,1,-0.052,0.004,-0.0001,0.692,0,-0.0001,0,0,0,0,0,0,1,1,0,0,VALID,0,0,0,0,0,1,0,0,0,0,0,0,0,0,0,0,0,0,0,0,321.64,488.18,2,0,0.08,0.08,285,14.29,0.08,0.06,19.26,LANDED,CF1-J,0:/Integrated Flight Computer/aircraft/cf1_j_cfg.ks (inferred preloaded)
19.68,TAKEOFF,TO_GROUND_ROLL,62.77,80,17.23,3.75,-0.3,0.5,0.76,90.35,0.096,1,0,0,0,0,0,0,0,0,0,0,0,0,0,0,90.35,0,1,0,-0.27,0,0,0.04,90,0,0,0,0,0,0,0,0,-0.054,0,0,3,0,0,0,69,0,0,0,90.35,1,-0.054,0.006,-0.0001,0.708,0,-0.0001,0,0,0,0,0,0,1,1,0,0,VALID,0,0,0,0,0,1,0,0,0,0,0,0,0,0,0,0,0,0,0,0,323.73,487.14,2,0,0.08,0.08,289,14.29,0.08,0.06,19.54,LANDED,CF1-J,0:/Integrated Flight Computer/aircraft/cf1_j_cfg.ks (inferred preloaded)
19.96,TAKEOFF,TO_GROUND_ROLL,64.33,80,15.67,3.75,-0.31,0.55,0.8,90.35,0.095,1,0,0,0,0,0,0,0,0,0,0,0,0,0,0,90.34,0,1,0,-0.27,0,0,0.04,90,0,0,0,0,0,0,0,0,-0.057,0,0,3,0,0,0,69,0,0,0,90.34,1,-0.057,0.009,-0.0002,0.725,0,-0.0002,0,0,0,0,0,0,1,1,0,0,VALID,0,0,0,0,0,1,0,0,0,0,0,0,0,0,0,0,0,0,0,0,325.75,486.09,2,0,0.08,0.08,293,14.29,0.08,0.06,19.82,LANDED,CF1-J,0:/Integrated Flight Computer/aircraft/cf1_j_cfg.ks (inferred preloaded)
20.24,TAKEOFF,TO_GROUND_ROLL,65.9,80,14.1,3.76,-0.31,0.58,0.83,90.35,0.095,1,0,0,0,0,0,0,0,0,0,0,0,0,0,0,90.34,0,1,0,-0.27,0,0,0.05,90,0,0,0,0,0,0,0,0,-0.059,0,0,3,0,0,0,69,0,0,0,90.34,1,-0.059,0.012,-0.0002,0.742,0,-0.0002,0,0,0,0,0,0,1,1,0,0,VALID,0,0,0,0,0,1,0,0,0,0,0,0,0,0,0,0,0,0,0,0,327.7,485.02,2,0,0.08,0.08,297,14.29,0.08,0.06,20.1,LANDED,CF1-J,0:/Integrated Flight Computer/aircraft/cf1_j_cfg.ks (inferred preloaded)
20.52,TAKEOFF,TO_GROUND_ROLL,67.48,80,12.52,3.77,-0.32,0.61,0.86,90.35,0.094,1,0,0,0,0,0,0,0,0,0,0,0,0,0,0,90.34,0,1,0,-0.27,0,0,0.05,90,0,0,0,0,0,0,0,0,-0.062,0,0,3,0,0,0,69,0,0,0,90.34,1,-0.062,0.016,-0.0003,0.759,0,-0.0003,0,0,0,0,0,0,1,1,0,0,VALID,0,0,0,0,0,1,0,0,0,0,0,0,0,0,0,0,0,0,0,0,329.6,483.95,2,0,0.08,0.08,301,14.29,0.08,0.06,20.38,LANDED,CF1-J,0:/Integrated Flight Computer/aircraft/cf1_j_cfg.ks (inferred preloaded)
20.8,TAKEOFF,TO_GROUND_ROLL,69.05,80,10.95,3.78,-0.26,0.64,0.8,90.35,0.093,1,0,0,0,0,0,0,0,0,0,0,0,0,0,0,90.34,0,1,0,-0.21,0,0,0.05,90,0,0,0,0,0,0,0,0,-0.064,0,0,3,0,0,0,69,0,0,0,90.34,1,-0.064,0.019,-0.0004,0.776,0,-0.0004,0,0,0,0,0,0,1,1,0,0,VALID,0,0,0,0,0,1,0,0,0,0,0,0,0,0,0,0,0,0,0,0,331.43,482.86,2,0,0.08,0.08,305,14.29,0.08,0.06,20.66,LANDED,CF1-J,0:/Integrated Flight Computer/aircraft/cf1_j_cfg.ks (inferred preloaded)
21.1,TAKEOFF,TO_ROTATE,70.75,80,9.25,3.79,-0.28,0.73,0.96,90.36,0.093,1,0,0,0,0,0,0,0,0,0,0,0,0,0,0,90.33,0.952,1,0,-0.23,0,0,0.05,90,0,0,0,0,0,0,0,0,-0.067,0,0,3,0,0,0,69,0,0,0,90.33,1,-0.067,0.023,-0.0005,0.793,0,-0.0005,0,0.12,0.952,0.217,0.08,0,1,1,0,0,VALID,0,0,0,0,0,1,0,0,0,0,0,0,0,0,0,0,0,0,0,0,333.32,481.69,2,0,0.08,0.08,309,13.33,0.08,0.06,20.94,LANDED,CF1-J,0:/Integrated Flight Computer/aircraft/cf1_j_cfg.ks (inferred preloaded)
21.38,TAKEOFF,TO_ROTATE,72.33,80,7.67,3.81,-0.35,0.84,1.1,90.36,0.092,1,0,0,0,0,0,0,0,0,0,0,0,0,0,0,90.33,1.792,1,0,-0.28,0,0,0.05,90,0,0,0,0,0,0,0,0,-0.069,0,0,3,0,0,0,69,0,0,0,90.33,1,-0.069,0.027,-0.0006,0.81,0,-0.0006,0,0.1565,1.792,0.956,0.08,0,1,1,0,0,VALID,0,0,0,0,0,1,0,0,0,0,0,0,0,0,0,0,0,0,0,0,335.03,480.59,2,0,0.08,0.08,313,14.29,0.08,0.06,21.22,LANDED,CF1-J,0:/Integrated Flight Computer/aircraft/cf1_j_cfg.ks (inferred preloaded)
21.68,TAKEOFF,TO_ROTATE,74.03,80,5.97,3.85,-0.32,1.03,1.27,90.36,0.09,1,0,0,0,0,0,0,0,0,0,0,0,0,0,0,90.33,2.692,1,0,-0.25,0,0,0.05,90,0,0,0,0,0,0,0,0,-0.072,0,0,3,0,0,0,69,0,0,0,90.33,1,-0.072,0.032,-0.0007,0.828,0,-0.0007,0,0.2126,2.692,1.658,0.08,0,1,1,0,0,VALID,0,0,0,0,0,1,0,0,0,0,0,0,0,0,0,0,0,0,0,0,336.8,479.41,2,0,0.08,0.08,317,13.33,0.08,0.06,21.52,LANDED,CF1-J,0:/Integrated Flight Computer/aircraft/cf1_j_cfg.ks (inferred preloaded)
21.96,TAKEOFF,TO_ROTATE,75.61,80,4.39,3.9,-0.3,1.3,1.52,90.36,0.087,1,0,0,0,0,0,0,0,0,0,0,0,0,0,0,90.32,3.532,1,0,-0.23,0,0,0.06,90,0,0,0,0,0,0,0,0,-0.075,0,0,3,0,0,0,69,0,0,0,90.32,1,-0.075,0.037,-0.0008,0.845,0,-0.0008,0,0.2583,3.532,2.229,0.08,0,1,1,0,0,VALID,0,0,0,0,0,1,0,0,0,0,0,0,0,0,0,0,0,0,0,0,338.39,478.3,2,0,0.08,0.08,321,14.29,0.08,0.06,21.8,LANDED,CF1-J,0:/Integrated Flight Computer/aircraft/cf1_j_cfg.ks (inferred preloaded)
22.24,TAKEOFF,TO_ROTATE,77.19,80,2.81,3.97,-0.24,1.66,1.85,90.36,0.08,1,0,0,0,0,0,0,0,0,0,0,0,0,0,0,90.32,4.372,1,0,-0.2,0,0,0.06,90,0,0,0,0,0,0,0,0,-0.078,0,0,3,0,0,0,69,0,0,0,90.32,1,-0.078,0.043,-0.001,0.862,0,-0.001,0,0.297,4.372,2.712,0.08,0,1,1,0,0,VALID,0,0,0,0,0,1,0,0,0,0,0,0,0,0,0,0,0,0,0,0,339.93,477.19,2,0,0.08,0.08,325,14.29,0.08,0.06,22.08,LANDED,CF1-J,0:/Integrated Flight Computer/aircraft/cf1_j_cfg.ks (inferred preloaded)
22.52,TAKEOFF,TO_ROTATE,78.75,80,1.25,4.11,-0.38,2.19,2.44,90.37,0.078,1,0,0,0,0,0,0,0,0,0,0,0,0,0,0,90.32,5.212,1,0,-0.27,0,0,0.06,90,0,0,0,0,0,0,0,0,-0.08,0,0,3,0,0,0,69,0,0,0,90.32,1,-0.08,0.05,-0.0012,0.878,0,-0.0012,0,0.3221,5.212,3.026,0.08,0,1,1,0,0,VALID,0,0,0,0,0,1,0,0,0,0,0,0,0,0,0,0,0,0,0,0,341.43,476.08,2,0,0.08,0.08,329,14.29,0.08,0.06,22.36,LANDED,CF1-J,0:/Integrated Flight Computer/aircraft/cf1_j_cfg.ks (inferred preloaded)
22.8,TAKEOFF,TO_ROTATE,80.3,80,-0.3,4.28,-0.15,3.05,3.15,90.37,0.081,1,0,0,0,0,0,0,0,0,0,0,0,0,0,0,90.31,6.052,1,0,-0.1,0,0,0.06,90,0,0,0,0,0,0,0,0,-0.083,0,0,3,0,0,0,69,0,0,0,90.31,1,-0.083,0.056,-0.0014,0.895,0,-0.0014,0,0.3199,6.052,2.998,0.08,0,1,1,0,0,VALID,0,0,0,0,0,1,0,0,0,0,0,0,0,0,0,0,0,0,0,0,342.88,474.99,2,0,0.08,0.08,333,14.29,0.08,0.06,22.64,LANDED,CF1-J,0:/Integrated Flight Computer/aircraft/cf1_j_cfg.ks (inferred preloaded)
23.08,TAKEOFF,TO_ROTATE,81.8,80,-1.8,4.49,-0.21,4.16,4.31,90.37,0.079,1,0,0,0,0,0,0,0,0,0,0,0,0,0,0,90.31,6.892,1,0,-0.16,0,0,0.07,90,0,0,0,0,0,0,0,0,-0.086,0,0,3,0,0,0,69,0,0,0,90.31,1,-0.086,0.062,-0.0016,0.911,0,-0.0016,0,0.2985,6.892,2.731,0.08,0,1,1,0,0,VALID,0,0,0,0,0,1,0,0,0,0,0,0,0,0,0,0,0,0,0,0,344.31,473.92,2,0,0.08,0.08,337,14.29,0.08,0.06,22.92,LANDED,CF1-J,0:/Integrated Flight Computer/aircraft/cf1_j_cfg.ks (inferred preloaded)
23.36,TAKEOFF,TO_ROTATE,83.24,80,-3.24,4.75,-0.03,5.36,5.4,90.37,0.06,1,0,0,0,0,0,0,0,0,0,0,0,0,0,0,90.31,7.732,1,0,-0.04,0,0,0.07,90,0,0,0,0,0,0,0,0,-0.09,0,0,3,0,0,0,69,0,0,0,90.31,1,-0.09,0.063,-0.0017,0.926,0,-0.0017,0,0.2696,7.732,2.37,0.08,0,1,1,0,0,VALID,0,0,0,0,0,1,0,0,0,0,0,0,0,0,0,0,0,0,0,0,345.72,472.89,2,0,0.08,0.08,341,14.29,0.08,0.06,23.2,LANDED,CF1-J,0:/Integrated Flight Computer/aircraft/cf1_j_cfg.ks (inferred preloaded)
23.62,TAKEOFF,TO_ROTATE,84.51,80,-4.51,5.04,0.58,6.23,5.86,90.37,0.034,1,0,0,0,0,0,0,0,0,0,0,0,0,0,0,90.4,8.572,0,1,0.4,0,0,8.33,90.4,-0.3024,-0.0068,0.9532,8.57,90.4,0,0,0,0,0,0,3,0,0,0,69,0,0,0,90.4,1,0,-0.027,0,0,3,0,0,0,8.572,2.339,0,0,1,1,0,0,VALID,0,0,0,0,0,1,0,0,0,0,0,0,0,0,0,0,0,0,0,0,347.01,471.98,2,0,0.08,0.08,345,15.38,0.08,0.06,23.46,FLYING,CF1-J,0:/Integrated Flight Computer/aircraft/cf1_j_cfg.ks (inferred preloaded)
23.9,TAKEOFF,TO_ROTATE,85.83,80,-5.83,5.46,1.31,6.58,5.77,90.37,0.034,1,0,0,0,0,0,0,0,0,0,0,0,0,0,0,90.4,9.412,0,1,0.87,0,0,9.17,90.4,-0.2884,-0.0068,0.9575,9.41,90.4,0,0,0,0,0,0,3,0,0,0,69,0,0,0,90.4,1,0,-0.027,0,0,3,0,0,0,9.412,2.83,0,0,1,1,0,0,VALID,0,0,0,0,0,1,0,0,0,0,0,0,0,0,0,0,0,0,0,0,348.39,471.01,2,0,0.08,0.08,349,14.29,0.08,0.06,23.74,FLYING,CF1-J,0:/Integrated Flight Computer/aircraft/cf1_j_cfg.ks (inferred preloaded)
24.18,TAKEOFF,TO_CLIMB,87.13,80,-7.13,5.99,2.02,6.25,5.01,90.37,0.034,1,0,0,0,0,0,0,0,0,0,0,0,0,0,0,90.4,10,0,1,1.33,0,0,10,90.4,-0.2786,-0.0067,0.9604,10,90.4,0,0,0,0,0,0,3,0,0,0,69,0,0,0,90.4,1,0,-0.027,0,0,3,0,0,0,10,3.752,0,0,1,1,0,0,VALID,0,0,0,0,0,1,0,0,0,0,0,0,0,0,0,0,0,0,0,0,349.71,470.05,2,0,0.08,0.08,353,14.29,0.08,0.06,24.02,FLYING,CF1-J,0:/Integrated Flight Computer/aircraft/cf1_j_cfg.ks (inferred preloaded)
24.46,TAKEOFF,TO_CLIMB,88.45,80,-8.45,6.75,2.53,6.36,4.8,90.37,0.033,0.9155,0,0,0,0,0,0,0,0,0,0,0,0,0,0,90.4,6.696,0,1,1.64,0,0,6.57,90.4,-0.3335,-0.0068,0.9427,6.7,90.4,0,0,0,0,0,0,3,0,0,0,69,0,0,0,90.4,1,0,-0.027,0,0,3,0,0,0,10,3.752,0,0,1,1,0,0,VALID,0,0,0,0,0,1,0,0,0,0,0,0,0,0,0,0,0,0,0,0,350.74,469.06,2,0,0.08,0.08,357,14.29,0.08,0.06,24.3,FLYING,CF1-J,0:/Integrated Flight Computer/aircraft/cf1_j_cfg.ks (inferred preloaded)
24.74,TAKEOFF,TO_CLIMB,89.77,80,-9.77,7.61,3.15,6.03,4.14,90.37,0.032,0.9023,0,0,0,0,0,0,0,0,0,0,0,0,0,0,90.4,7.144,0,1,2.01,0,0,7.02,90.4,-0.3262,-0.0068,0.9453,7.14,90.4,0,0,0,0,0,0,3,0,0,0,69,0,0,0,90.4,1,0,-0.027,0,0,3,0,0,0,10,3.752,0,0,1,1,0,0,VALID,0,0,0,0,0,1,0,0,0,0,0,0,0,0,0,0,0,0,0,0,351.28,468.06,2,0,0.08,0.08,361,14.29,0.08,0.06,24.58,FLYING,CF1-J,0:/Integrated Flight Computer/aircraft/cf1_j_cfg.ks (inferred preloaded)
25.02,TAKEOFF,TO_CLIMB,91.11,80,-11.11,8.62,3.52,5.86,3.74,90.37,0.033,0.8889,0,0,0,0,0,0,0,0,0,0,0,0,0,0,90.4,7.592,0,1,2.21,0,0,7.46,90.4,-0.3188,-0.0068,0.9478,7.59,90.4,0,0,0,0,0,0,3,0,0,0,69,0,0,0,90.4,1,0,-0.027,0,0,3,0,0,0,10,3.752,0,0,1,1,0,0,VALID,0,0,0,0,0,1,0,0,0,0,0,0,0,0,0,0,0,0,0,0,351.67,467.03,2,0,0.08,0.08,365,14.29,0.08,0.06,24.86,FLYING,CF1-J,0:/Integrated Flight Computer/aircraft/cf1_j_cfg.ks (inferred preloaded)
25.3,TAKEOFF,TO_CLIMB,92.45,80,-12.45,9.77,3.92,5.86,3.54,90.37,0.032,0.8755,0,0,0,0,0,0,0,0,0,0,0,0,0,0,90.4,8,0,1,2.43,0,0,7.91,90.4,-0.3121,-0.0068,0.95,8,90.4,0,0,0,0,0,0,3,0,0,0,69,0,0,0,90.4,1,0,-0.026,0,0,3,0,0,0,10,3.752,0,0,1,1,0,0,VALID,0,0,0,0,0,1,0,0,0,0,0,0,0,0,0,0,0,0,0,0,351.93,466,2,0,0.08,0.08,369,14.29,0.08,0.06,25.14,FLYING,CF1-J,0:/Integrated Flight Computer/aircraft/cf1_j_cfg.ks (inferred preloaded)
25.58,TAKEOFF,TO_CLIMB,93.79,80,-13.79,11.04,4.34,5.87,3.33,90.37,0.032,0.8621,0,0,0,0,0,0,0,0,0,0,0,0,0,0,90.4,8,0,1,2.65,0,0,8,90.4,-0.3122,-0.0068,0.95,8,90.4,0,0,0,0,0,0,3,0,0,0,69,0,0,0,90.4,1,0,-0.026,0,0,3,0,0,0,10,3.752,0,0,1,1,0,0,VALID,0,0,0,0,0,1,0,0,0,0,0,0,0,0,0,0,0,0,0,0,352.05,464.96,2,0,0.08,0.08,373,14.29,0.08,0.06,25.42,FLYING,CF1-J,0:/Integrated Flight Computer/aircraft/cf1_j_cfg.ks (inferred preloaded)
25.86,TAKEOFF,TO_CLIMB,95.12,80,-15.12,12.42,4.77,5.87,3.12,90.37,0.032,0.8488,0,0,0,0,0,0,0,0,0,0,0,0,0,0,90.4,8,0,1,2.87,0,0,8,90.4,-0.3122,-0.0068,0.95,8,90.4,0,0,0,0,0,0,3,0,0,0,69,0,0,0,90.4,1,0,-0.026,0,0,3,0,0,0,10,3.752,0,0,1,1,0,0,VALID,0,0,0,0,0,1,0,0,0,0,0,0,0,0,0,0,0,0,0,0,352.05,463.92,2,0,0.08,0.08,377,14.29,0.08,0.06,25.7,FLYING,CF1-J,0:/Integrated Flight Computer/aircraft/cf1_j_cfg.ks (inferred preloaded)
26.14,TAKEOFF,TO_CLIMB,96.45,80,-16.45,13.93,5.18,5.9,2.95,90.37,0.032,0.8355,0,0,0,0,0,0,0,0,0,0,0,0,0,0,90.4,8,0,1,3.08,0,0,8,90.4,-0.3122,-0.0068,0.95,8,90.4,0,0,0,0,0,0,3,0,0,0,69,0,0,0,90.4,1,0,-0.025,0,0,3,0,0,0,10,3.752,0,0,1,1,0,0,VALID,0,0,0,0,0,1,0,0,0,0,0,0,0,0,0,0,0,0,0,0,351.94,462.88,2,0,0.08,0.08,381,14.29,0.08,0.06,25.98,FLYING,CF1-J,0:/Integrated Flight Computer/aircraft/cf1_j_cfg.ks (inferred preloaded)
26.42,TAKEOFF,TO_CLIMB,97.76,80,-17.76,15.59,5.64,5.95,2.78,90.37,0.032,0.8224,0,0,0,0,0,0,0,0,0,0,0,0,0,0,90.4,8,0,1,3.3,0,0,8,90.4,-0.3123,-0.0068,0.95,8,90.4,0,0,0,0,0,0,3,0,0,0,69,0,0,0,90.4,1,0,-0.025,0,0,3,0,0,0,10,3.752,0,0,1,1,0,0,VALID,0,0,0,0,0,1,0,0,0,0,0,0,0,0,0,0,0,0,0,0,351.7,461.83,2,0,0.08,0.08,385,14.29,0.08,0.06,26.26,FLYING,CF1-J,0:/Integrated Flight Computer/aircraft/cf1_j_cfg.ks (inferred preloaded)
26.7,TAKEOFF,TO_CLIMB,99.07,80,-19.07,17.35,6.09,5.97,2.58,90.38,0.032,0.8093,0,0,0,0,0,0,0,0,0,0,0,0,0,0,90.4,8,0,1,3.52,0,0,8,90.4,-0.3123,-0.0068,0.9499,8,90.4,0,0,0,0,0,0,3,0,0,0,69,0,0,0,90.4,1,0,-0.025,0,0,3,0,0,0,10,3.752,0,0,1,1,0,0,VALID,0,0,0,0,0,1,0,0,0,0,0,0,0,0,0,0,0,0,0,0,351.35,460.79,2,0,0.08,0.08,389,14.29,0.08,0.06,26.54,FLYING,CF1-J,0:/Integrated Flight Computer/aircraft/cf1_j_cfg.ks (inferred preloaded)
26.98,TAKEOFF,TO_CLIMB,100.36,80,-20.36,19.23,6.53,5.99,2.4,90.38,0.033,0.7964,0,0,0,0,0,0,0,0,0,0,0,0,0,0,90.4,8,0,1,3.72,0,0,8,90.4,-0.3124,-0.0068,0.9499,8,90.4,0,0,0,0,0,0,3,0,0,0,69,0,0,0,90.4,1,0,-0.024,0,0,3,0,0,0,10,3.752,0,0,1,1,0,0,VALID,0,0,0,0,0,1,0,0,0,0,0,0,0,0,0,0,0,0,0,0,350.9,459.75,2,0,0.08,0.08,393,14.29,0.08,0.06,26.82,FLYING,CF1-J,0:/Integrated Flight Computer/aircraft/cf1_j_cfg.ks (inferred preloaded)
27.26,TAKEOFF,TO_CLIMB,101.65,80,-21.65,21.23,6.98,6.01,2.22,90.38,0.033,0.7835,0,0,0,0,0,0,0,0,0,0,0,0,0,0,90.4,8,0,1,3.93,0,0,8,90.4,-0.3124,-0.0068,0.9499,8,90.4,0,0,0,0,0,0,3,0,0,0,69,0,0,0,90.4,1,0,-0.024,0,0,3,0,0,0,10,3.752,0,0,1,1,0,0,VALID,0,0,0,0,0,1,0,0,0,0,0,0,0,0,0,0,0,0,0,0,350.33,458.71,2,0,0.08,0.08,397,14.29,0.08,0.06,27.1,FLYING,CF1-J,0:/Integrated Flight Computer/aircraft/cf1_j_cfg.ks (inferred preloaded)
27.54,TAKEOFF,TO_CLIMB,102.93,80,-22.93,23.36,7.42,6.02,2.05,90.38,0.033,0.78,0,0,0,0,0,0,0,0,0,0,0,0,0,0,90.4,8,0,1,4.12,0,0,8,90.4,-0.3125,-0.0068,0.9499,8,90.4,0,0,0,0,0,0,3,0,0,0,69,0,0,0,90.4,1,0,-0.023,0,0,3,0,0,0,10,3.752,0,0,1,1,0,0,VALID,0,0,0,0,0,1,0,0,0,0,0,0,0,0,0,0,0,0,0,0,349.68,457.67,2,0,0.08,0.08,401,14.29,0.08,0.06,27.38,FLYING,CF1-J,0:/Integrated Flight Computer/aircraft/cf1_j_cfg.ks (inferred preloaded)
27.82,TAKEOFF,TO_CLIMB,104.19,80,-24.19,25.6,7.86,6.04,1.87,90.38,0.033,0.78,0,0,0,0,0,0,0,0,0,0,0,0,0,0,90.4,8,0,1,4.31,0,0,8,90.4,-0.3125,-0.0068,0.9499,8,90.4,0,0,0,0,0,0,3,0,0,0,69,0,0,0,90.4,1,0,-0.023,0,0,3,0,0,0,10,3.752,0,0,1,1,0,0,VALID,0,0,0,0,0,1,0,0,0,0,0,0,0,0,0,0,0,0,0,0,349.01,456.64,2,0,0.08,0.08,405,14.29,0.08,0.06,27.66,FLYING,CF1-J,0:/Integrated Flight Computer/aircraft/cf1_j_cfg.ks (inferred preloaded)
28.1,TAKEOFF,TO_CLIMB,105.45,80,-25.45,27.97,8.29,6.04,1.7,90.38,0.034,0.78,0,0,0,0,0,0,0,0,0,0,0,0,0,0,90.4,8,0,1,4.49,0,0,8,90.4,-0.3126,-0.0068,0.9499,8,90.4,0,0,0,0,0,0,3,0,0,0,69,0,0,0,90.4,1,0,-0.023,0,0,3,0,0,0,10,3.752,0,0,1,1,0,0,VALID,0,0,0,0,0,1,0,0,0,0,0,0,0,0,0,0,0,0,0,0,348.34,455.6,2,0,0.08,0.08,409,14.29,0.08,0.06,27.94,FLYING,CF1-J,0:/Integrated Flight Computer/aircraft/cf1_j_cfg.ks (inferred preloaded)
28.38,TAKEOFF,TO_CLIMB,106.7,80,-26.7,30.46,8.71,6.06,1.55,90.38,0.034,0.78,0,0,0,0,0,0,0,0,0,0,0,0,0,0,90.4,8,0,1,4.67,0,0,8,90.4,-0.3126,-0.0068,0.9499,8,90.4,0,0,0,0,0,0,3,0,0,0,69,0,0,0,90.4,1,0,-0.022,0,0,3,0,0,0,10,3.752,0,0,1,1,0,0,VALID,0,0,0,0,0,1,0,0,0,0,0,0,0,0,0,0,0,0,0,0,347.66,454.56,2,0,0.08,0.08,413,14.29,0.08,0.06,28.22,FLYING,CF1-J,0:/Integrated Flight Computer/aircraft/cf1_j_cfg.ks (inferred preloaded)
28.66,TAKEOFF,TO_CLIMB,107.94,80,-27.94,33.07,9.12,6.08,1.4,90.38,0.035,0.78,0,0,0,0,0,0,0,0,0,0,0,0,0,0,90.4,8,0,1,4.83,0,0,8,90.4,-0.3127,-0.0068,0.9498,8,90.4,0,0,0,0,0,0,3,0,0,0,69,0,0,0,90.4,1,0,-0.022,0,0,3,0,0,0,10,3.752,0,0,1,1,0,0,VALID,0,0,0,0,0,1,0,0,0,0,0,0,0,0,0,0,0,0,0,0,346.99,453.53,2,0,0.08,0.08,417,14.29,0.08,0.06,28.5,FLYING,CF1-J,0:/Integrated Flight Computer/aircraft/cf1_j_cfg.ks (inferred preloaded)
28.94,TAKEOFF,TO_CLIMB,109.16,80,-29.16,35.79,9.53,6.09,1.26,90.38,0.035,0.78,0,0,0,0,0,0,0,0,0,0,0,0,0,0,90.4,8,0,1,4.99,0,0,8,90.4,-0.3127,-0.0068,0.9498,8,90.4,0,0,0,0,0,0,3,0,0,0,69,0,0,0,90.4,1,0,-0.021,0,0,3,0,0,0,10,3.752,0,0,1,1,0,0,VALID,0,0,0,0,0,1,0,0,0,0,0,0,0,0,0,0,0,0,0,0,346.32,452.5,2,0,0.08,0.08,421,14.29,0.08,0.06,28.78,FLYING,CF1-J,0:/Integrated Flight Computer/aircraft/cf1_j_cfg.ks (inferred preloaded)
29.22,TAKEOFF,TO_CLIMB,110.38,80,-30.38,38.63,9.93,6.12,1.14,90.38,0.035,0.78,0,0,0,0,0,0,0,0,0,0,0,0,0,0,90.4,8,0,1,5.14,0,0,8,90.4,-0.3128,-0.0068,0.9498,8,90.4,0,0,0,0,0,0,3,0,0,0,69,0,0,0,90.4,1,0,-0.021,0,0,3,0,0,0,10,3.752,0,0,1,1,0,0,VALID,0,0,0,0,0,1,0,0,0,0,0,0,0,0,0,0,0,0,0,0,345.64,451.48,2,0,0.08,0.08,425,14.29,0.08,0.06,29.06,FLYING,CF1-J,0:/Integrated Flight Computer/aircraft/cf1_j_cfg.ks (inferred preloaded)
29.5,TAKEOFF,TO_CLIMB,111.59,80,-31.59,41.57,10.35,6.13,1,90.38,0.035,0.78,0,0,0,0,0,0,0,0,0,0,0,0,0,0,90.4,8,0,1,5.3,0,0,8,90.4,-0.3128,-0.0068,0.9498,8,90.4,0,0,0,0,0,0,3,0,0,0,69,0,0,0,90.4,1,0,-0.02,0,0,3,0,0,0,10,3.752,0,0,1,1,0,0,VALID,0,0,0,0,0,1,0,0,0,0,0,0,0,0,0,0,0,0,0,0,344.97,450.46,2,0,0.08,0.08,429,14.29,0.08,0.06,29.34,FLYING,CF1-J,0:/Integrated Flight Computer/aircraft/cf1_j_cfg.ks (inferred preloaded)
29.78,TAKEOFF,TO_CLIMB,112.78,80,-32.78,44.63,10.74,6.15,0.88,90.38,0.036,0.78,0,0,0,0,0,0,0,0,0,0,0,0,0,0,90.4,8,0,1,5.44,0,0,8,90.4,-0.3129,-0.0068,0.9498,8,90.4,0,0,0,0,0,0,3,0,0,0,69,0,0,0,90.4,1,0,-0.019,0,0,3,0,0,0,10,3.752,0,0,1,1,0,0,VALID,0,0,0,0,0,1,0,0,0,0,0,0,0,0,0,0,0,0,0,0,344.3,449.44,2,0,0.08,0.08,433,14.29,0.08,0.06,29.62,FLYING,CF1-J,0:/Integrated Flight Computer/aircraft/cf1_j_cfg.ks (inferred preloaded)
30.06,TAKEOFF,TO_CLIMB,113.97,80,-33.97,47.8,11.13,6.16,0.75,90.38,0.036,0.78,0,0,0,0,0,0,0,0,0,0,0,0,0,0,90.4,8,0,1,5.58,0,0,8,90.4,-0.3129,-0.0068,0.9498,8,90.4,0,0,0,0,0,0,3,0,0,0,69,0,0,0,90.4,1,0,-0.019,0,0,3,0,0,0,10,3.752,0,0,1,1,0,0,VALID,0,0,0,0,0,1,0,0,0,0,0,0,0,0,0,0,0,0,0,0,343.63,448.42,2,0,0.08,0.08,437,14.29,0.08,0.06,29.9,FLYING,CF1-J,0:/Integrated Flight Computer/aircraft/cf1_j_cfg.ks (inferred preloaded)
30.34,TAKEOFF,TO_CLIMB,115.15,80,-35.15,51.07,11.51,6.18,0.64,90.38,0.036,0.78,0,0,0,0,0,0,0,0,0,0,0,0,0,0,90.4,8,0,1,5.71,0,0,8,90.4,-0.313,-0.0068,0.9497,8,90.4,0,0,0,0,0,0,3,0,0,0,69,0,0,0,90.4,1,0,-0.018,0,0,3,0,0,0,10,3.752,0,0,1,1,0,0,VALID,0,0,0,0,0,1,0,0,0,0,0,0,0,0,0,0,0,0,0,0,342.95,447.41,2,0,0.08,0.08,441,14.29,0.08,0.06,30.18,FLYING,CF1-J,0:/Integrated Flight Computer/aircraft/cf1_j_cfg.ks (inferred preloaded)
30.62,TAKEOFF,TO_CLIMB,116.31,80,-36.31,54.45,11.88,6.19,0.53,90.38,0.035,0.78,0,0,0,0,0,0,0,0,0,0,0,0,0,0,90.4,8,0,1,5.83,0,0,8,90.4,-0.313,-0.0068,0.9497,8,90.4,0,0,0,0,0,0,3,0,0,0,69,0,0,0,90.4,1,0,-0.018,0,0,3,0,0,0,10,3.752,0,0,1,1,0,0,VALID,0,0,0,0,0,1,0,0,0,0,0,0,0,0,0,0,0,0,0,0,342.28,446.41,2,0,0.08,0.08,445,14.29,0.08,0.06,30.46,FLYING,CF1-J,0:/Integrated Flight Computer/aircraft/cf1_j_cfg.ks (inferred preloaded)
30.9,TAKEOFF,TO_CLIMB,117.47,80,-37.47,57.93,12.25,6.2,0.42,90.38,0.035,0.78,0,0,0,0,0,0,0,0,0,0,0,0,0,0,90.4,8,0,1,5.95,0,0,8,90.4,-0.3131,-0.0068,0.9497,8,90.4,0,0,0,0,0,0,3,0,0,0,69,0,0,0,90.4,1,0,-0.017,0,0,3,0,0,0,10,3.752,0,0,1,1,0,0,VALID,0,0,0,0,0,1,0,0,0,0,0,0,0,0,0,0,0,0,0,0,341.61,445.4,2,0,0.08,0.08,449,14.29,0.08,0.06,30.74,FLYING,CF1-J,0:/Integrated Flight Computer/aircraft/cf1_j_cfg.ks (inferred preloaded)
31.18,TAKEOFF,TO_CLIMB,118.62,80,-38.62,61.51,12.61,6.22,0.32,90.38,0.034,0.78,0,0,0,0,0,0,0,0,0,0,0,0,0,0,90.4,8,0,1,6.07,0,0,8,90.4,-0.3131,-0.0068,0.9497,8,90.4,0,0,0,0,0,0,3,0,0,0,69,0,0,0,90.4,1,0,-0.016,0,0,3,0,0,0,10,3.752,0,0,1,1,0,0,VALID,0,0,0,0,0,1,0,0,0,0,0,0,0,0,0,0,0,0,0,0,340.95,444.41,2,0,0.08,0.08,453,14.29,0.08,0.06,31.02,FLYING,CF1-J,0:/Integrated Flight Computer/aircraft/cf1_j_cfg.ks (inferred preloaded)
31.46,TAKEOFF,TO_CLIMB,119.75,80,-39.75,65.19,12.96,6.22,0.22,90.38,0.034,0.78,0,0,0,0,0,0,0,0,0,0,0,0,0,0,90.4,8,0,1,6.18,0,0,8,90.4,-0.3132,-0.0068,0.9497,8,90.4,0,0,0,0,0,0,3,0,0,0,69,0,0,0,90.4,1,0,-0.016,0,0,3,0,0,0,10,3.752,0,0,1,1,0,0,VALID,0,0,0,0,0,1,0,0,0,0,0,0,0,0,0,0,0,0,0,0,340.28,443.42,2,0,0.08,0.08,457,14.29,0.08,0.06,31.3,FLYING,CF1-J,0:/Integrated Flight Computer/aircraft/cf1_j_cfg.ks (inferred preloaded)
31.74,TAKEOFF,TO_CLIMB,120.88,80,-40.88,68.96,13.31,6.24,0.13,90.38,0.034,0.78,0,0,0,0,0,0,0,0,0,0,0,0,0,0,90.4,8,0,1,6.28,0,0,8,90.4,-0.3132,-0.0068,0.9496,8,90.4,0,0,0,0,0,0,3,0,0,0,69,0,0,0,90.4,1,0,-0.015,0,0,3,0,0,0,10,3.752,0,0,1,1,0,0,VALID,0,0,0,0,0,1,0,0,0,0,0,0,0,0,0,0,0,0,0,0,339.62,442.43,2,0,0.08,0.08,461,14.29,0.08,0.06,31.58,FLYING,CF1-J,0:/Integrated Flight Computer/aircraft/cf1_j_cfg.ks (inferred preloaded)
32.02,TAKEOFF,TO_CLIMB,121.99,80,-41.99,72.83,13.65,6.25,0.04,90.39,0.033,0.78,0,0,0,0,0,0,0,0,0,0,0,0,0,0,90.4,8,0,1,6.38,0,0,8,90.4,-0.3133,-0.0068,0.9496,8,90.4,0,0,0,0,0,0,3,0,0,0,69,0,0,0,90.4,1,0,-0.015,0,0,3,0,0,0,10,3.752,0,0,1,1,0,0,VALID,0,0,0,0,0,1,0,0,0,0,0,0,0,0,0,0,0,0,0,0,338.96,441.45,2,0,0.08,0.08,465,14.29,0.08,0.06,31.86,FLYING,CF1-J,0:/Integrated Flight Computer/aircraft/cf1_j_cfg.ks (inferred preloaded)
32.3,TAKEOFF,TO_CLIMB,123.09,80,-43.09,76.8,13.98,6.27,-0.04,90.39,0.033,0.78,0,0,0,0,0,0,0,0,0,0,0,0,0,0,90.4,8,0,1,6.48,0,0,8,90.4,-0.3133,-0.0068,0.9496,8,90.4,0,0,0,0,0,0,3,0,0,0,69,0,0,0,90.4,1,0,-0.014,0,0,3,0,0,0,10,3.752,0,0,1,1,0,0,VALID,0,0,0,0,0,1,0,0,0,0,0,0,0,0,0,0,0,0,0,0,338.3,440.48,2,0,0.08,0.08,469,14.29,0.08,0.06,32.14,FLYING,CF1-J,0:/Integrated Flight Computer/aircraft/cf1_j_cfg.ks (inferred preloaded)
32.58,TAKEOFF,TO_CLIMB,124.19,80,-44.19,80.86,14.31,6.27,-0.13,90.39,0.033,0.78,0,0,0,0,0,0,0,0,0,0,0,0,0,0,90.4,8,0,1,6.58,0,0,8,90.4,-0.3134,-0.0068,0.9496,8,90.4,0,0,0,0,0,0,3,0,0,0,69,0,0,0,90.4,1,0,-0.013,0,0,3,0,0,0,10,3.752,0,0,1,1,0,0,VALID,0,0,0,0,0,1,0,0,0,0,0,0,0,0,0,0,0,0,0,0,337.64,439.51,2,0,0.08,0.08,473,14.29,0.08,0.06,32.42,FLYING,CF1-J,0:/Integrated Flight Computer/aircraft/cf1_j_cfg.ks (inferred preloaded)
32.86,TAKEOFF,TO_CLIMB,125.27,80,-45.27,85,14.64,6.28,-0.21,90.39,0.032,0.78,0,0,0,0,0,0,0,0,0,0,0,0,0,0,90.4,8,0,1,6.67,0,0,8,90.4,-0.3135,-0.0068,0.9496,8,90.4,0,0,0,0,0,0,3,0,0,0,69,0,0,0,90.4,1,0,-0.013,0,0,3,0,0,0,10,3.752,0,0,1,1,0,0,VALID,0,0,0,0,0,1,0,0,0,0,0,0,0,0,0,0,0,0,0,0,336.99,438.55,2,0,0.08,0.08,477,14.29,0.08,0.06,32.7,FLYING,CF1-J,0:/Integrated Flight Computer/aircraft/cf1_j_cfg.ks (inferred preloaded)
33.14,TAKEOFF,TO_CLIMB,126.34,80,-46.34,89.24,14.96,6.29,-0.29,90.39,0.032,0.78,0,0,0,0,0,0,0,0,0,0,0,0,0,0,90.4,8,0,1,6.75,0,0,8,90.4,-0.3135,-0.0068,0.9496,8,90.4,0,0,0,0,0,0,3,0,0,0,69,0,0,0,90.4,1,0,-0.012,0,0,3,0,0,0,10,3.752,0,0,1,1,0,0,VALID,0,0,0,0,0,1,0,0,0,0,0,0,0,0,0,0,0,0,0,0,336.34,437.59,2,0,0.08,0.08,481,14.29,0.08,0.06,32.98,FLYING,CF1-J,0:/Integrated Flight Computer/aircraft/cf1_j_cfg.ks (inferred preloaded)
33.42,TAKEOFF,TO_CLIMB,127.4,80,-47.4,93.56,15.27,6.3,-0.36,90.39,0.032,0.78,0,0,0,0,0,0,0,0,0,0,0,0,0,0,90.4,8,0,1,6.83,0,0,8,90.4,-0.3136,-0.0068,0.9495,8,90.4,0,0,0,0,0,0,3,0,0,0,69,0,0,0,90.4,1,0,-0.012,0,0,3,0,0,0,10,3.752,0,0,1,1,0,0,VALID,0,0,0,0,0,1,0,0,0,0,0,0,0,0,0,0,0,0,0,0,335.7,436.64,2,0,0.08,0.08,485,14.29,0.08,0.06,33.26,FLYING,CF1-J,0:/Integrated Flight Computer/aircraft/cf1_j_cfg.ks (inferred preloaded)
33.7,TAKEOFF,TO_CLIMB,128.45,80,-48.45,97.96,15.57,6.3,-0.43,90.39,0.031,0.78,0,0,0,0,0,0,0,0,0,0,0,0,0,0,90.4,8,0,1,6.91,0,0,8,90.4,-0.3136,-0.0068,0.9495,8,90.4,0,0,0,0,0,0,3,0,0,0,69,0,0,0,90.4,1,0,-0.011,0,0,3,0,0,0,10,3.752,0,0,1,1,0,0,VALID,0,0,0,0,0,1,0,0,0,0,0,0,0,0,0,0,0,0,0,0,335.05,435.7,2,0,0.08,0.08,489,14.29,0.08,0.06,33.54,FLYING,CF1-J,0:/Integrated Flight Computer/aircraft/cf1_j_cfg.ks (inferred preloaded)
33.98,TAKEOFF,TO_CLIMB,129.5,80,-49.5,102.45,15.87,6.3,-0.51,90.39,0.031,0.78,0,0,0,0,0,0,0,0,0,0,0,0,0,0,90.4,8,0,1,6.99,0,0,8,90.4,-0.3137,-0.0068,0.9495,8,90.4,0,0,0,0,0,0,3,0,0,0,69,0,0,0,90.4,1,0,-0.011,0,0,3,0,0,0,10,3.752,0,0,1,1,0,0,VALID,0,0,0,0,0,1,0,0,0,0,0,0,0,0,0,0,0,0,0,0,334.41,434.76,2,0,0.08,0.08,493,14.29,0.08,0.06,33.82,FLYING,CF1-J,0:/Integrated Flight Computer/aircraft/cf1_j_cfg.ks (inferred preloaded)
34.26,TAKEOFF,TO_CLIMB,130.53,80,-50.53,107.02,16.16,6.31,-0.57,90.39,0.031,0.78,0,0,0,0,0,0,0,0,0,0,0,0,0,0,90.4,8,0,1,7.06,0,0,8,90.4,-0.3138,-0.0068,0.9495,8,90.4,0,0,0,0,0,0,3,0,0,0,69,0,0,0,90.4,1,0,-0.01,0,0,3,0,0,0,10,3.752,0,0,1,1,0,0,VALID,0,0,0,0,0,1,0,0,0,0,0,0,0,0,0,0,0,0,0,0,333.77,433.83,2,0,0.08,0.08,497,14.29,0.08,0.06,34.1,FLYING,CF1-J,0:/Integrated Flight Computer/aircraft/cf1_j_cfg.ks (inferred preloaded)
34.54,TAKEOFF,TO_CLIMB,131.55,80,-51.55,111.67,16.44,6.31,-0.64,90.39,0.03,0.78,0,0,0,0,0,0,0,0,0,0,0,0,0,0,90.4,8,0,1,7.12,0,0,8,90.4,-0.3138,-0.0068,0.9495,8,90.4,0,0,0,0,0,0,3,0,0,0,69,0,0,0,90.4,1,0,-0.009,0,0,3,0,0,0,10,3.752,0,0,1,1,0,0,VALID,0,0,0,0,0,1,0,0,0,0,0,0,0,0,0,0,0,0,0,0,333.14,432.9,2,0,0.08,0.08,501,14.29,0.08,0.06,34.38,FLYING,CF1-J,0:/Integrated Flight Computer/aircraft/cf1_j_cfg.ks (inferred preloaded)
34.82,TAKEOFF,TO_CLIMB,132.57,80,-52.57,116.4,16.72,6.31,-0.7,90.39,0.03,0.78,0,0,0,0,0,0,0,0,0,0,0,0,0,0,90.4,8,0,1,7.19,0,0,8,90.4,-0.3139,-0.0068,0.9494,8,90.4,0,0,0,0,0,0,3,0,0,0,69,0,0,0,90.4,1,0,-0.009,0,0,3,0,0,0,10,3.752,0,0,1,1,0,0,VALID,0,0,0,0,0,1,0,0,0,0,0,0,0,0,0,0,0,0,0,0,332.51,431.98,2,0,0.08,0.08,505,14.29,0.08,0.06,34.66,FLYING,CF1-J,0:/Integrated Flight Computer/aircraft/cf1_j_cfg.ks (inferred preloaded)
35.1,TAKEOFF,TO_CLIMB,133.57,80,-53.57,121.19,16.99,6.31,-0.76,90.39,0.03,0.78,0,0,0,0,0,0,0,0,0,0,0,0,0,0,90.4,8,0,1,7.25,0,0,8,90.4,-0.3139,-0.0068,0.9494,8,90.4,0,0,0,0,0,0,3,0,0,0,69,0,0,0,90.4,1,0,-0.008,0,0,3,0,0,0,10,3.752,0,0,1,1,0,0,VALID,0,0,0,0,0,1,0,0,0,0,0,0,0,0,0,0,0,0,0,0,331.88,431.07,2,0,0.08,0.08,509,14.29,0.08,0.06,34.94,FLYING,CF1-J,0:/Integrated Flight Computer/aircraft/cf1_j_cfg.ks (inferred preloaded)
35.38,TAKEOFF,TO_CLIMB,134.56,80,-54.56,126.07,17.26,6.31,-0.82,90.39,0.03,0.78,0,0,0,0,0,0,0,0,0,0,0,0,0,0,90.4,8,0,1,7.31,0,0,8,90.4,-0.314,-0.0068,0.9494,8,90.4,0,0,0,0,0,0,3,0,0,0,69,0,0,0,90.4,1,0,-0.008,0,0,3,0,0,0,10,3.752,0,0,1,1,0,0,VALID,0,0,0,0,0,1,0,0,0,0,0,0,0,0,0,0,0,0,0,0,331.26,430.17,2,0,0.08,0.08,513,14.29,0.08,0.06,35.22,FLYING,CF1-J,0:/Integrated Flight Computer/aircraft/cf1_j_cfg.ks (inferred preloaded)
35.66,TAKEOFF,TO_CLIMB,135.55,80,-55.55,131.01,17.52,6.31,-0.87,90.39,0.03,0.78,0,0,0,0,0,0,0,0,0,0,0,0,0,0,90.4,8,0,1,7.36,0,0,8,90.4,-0.3141,-0.0068,0.9494,8,90.4,0,0,0,0,0,0,3,0,0,0,69,0,0,0,90.4,1,0,-0.007,0,0,3,0,0,0,10,3.752,0,0,1,1,0,0,VALID,0,0,0,0,0,1,0,0,0,0,0,0,0,0,0,0,0,0,0,0,330.64,429.27,2,0,0.08,0.08,517,14.29,0.08,0.06,35.5,FLYING,CF1-J,0:/Integrated Flight Computer/aircraft/cf1_j_cfg.ks (inferred preloaded)
35.94,TAKEOFF,TO_CLIMB,136.53,80,-56.53,136.02,17.77,6.31,-0.93,90.39,0.029,0.78,0,0,0,0,0,0,0,0,0,0,0,0,0,0,90.4,8,0,1,7.42,0,0,8,90.4,-0.3141,-0.0068,0.9494,8,90.4,0,0,0,0,0,0,3,0,0,0,69,0,0,0,90.4,1,0,-0.007,0,0,3,0,0,0,10,3.752,0,0,1,1,0,0,VALID,0,0,0,0,0,1,0,0,0,0,0,0,0,0,0,0,0,0,0,0,330.02,428.38,2,0,0.08,0.08,521,14.29,0.08,0.06,35.78,FLYING,CF1-J,0:/Integrated Flight Computer/aircraft/cf1_j_cfg.ks (inferred preloaded)
36.22,TAKEOFF,TO_CLIMB,137.49,80,-57.49,141.1,18.02,6.31,-0.98,90.39,0.029,0.78,0,0,0,0,0,0,0,0,0,0,0,0,0,0,90.4,8,0,1,7.47,0,0,8,90.4,-0.3142,-0.0068,0.9493,8,90.4,0,0,0,0,0,0,3,0,0,0,69,0,0,0,90.4,1,0,-0.006,0,0,3,0,0,0,10,3.752,0,0,1,1,0,0,VALID,0,0,0,0,0,1,0,0,0,0,0,0,0,0,0,0,0,0,0,0,329.41,427.49,2,0,0.08,0.08,525,14.29,0.08,0.06,36.06,FLYING,CF1-J,0:/Integrated Flight Computer/aircraft/cf1_j_cfg.ks (inferred preloaded)
36.5,TAKEOFF,TO_CLIMB,138.45,80,-58.45,146.25,18.27,6.3,-1.04,90.39,0.028,0.78,0,0,0,0,0,0,0,0,0,0,0,0,0,0,90.4,8,0,1,7.52,0,0,8,90.4,-0.3142,-0.0068,0.9493,8,90.4,0,0,0,0,0,0,3,0,0,0,69,0,0,0,90.4,1,0,-0.006,0,0,3,0,0,0,10,3.752,0,0,1,1,0,0,VALID,0,0,0,0,0,1,0,0,0,0,0,0,0,0,0,0,0,0,0,0,328.8,426.61,2,0,0.08,0.08,529,14.29,0.08,0.06,36.34,FLYING,CF1-J,0:/Integrated Flight Computer/aircraft/cf1_j_cfg.ks (inferred preloaded)
36.78,TAKEOFF,TO_CLIMB,139.4,80,-59.4,151.44,18.51,6.3,-1.08,90.39,0.028,0.78,0,0,0,0,0,0,0,0,0,0,0,0,0,0,90.4,8,0,1,7.56,0,0,8,90.4,-0.3143,-0.0068,0.9493,8,90.4,0,0,0,0,0,0,3,0,0,0,69,0,0,0,90.4,1,0,-0.005,0,0,3,0,0,0,10,3.752,0,0,1,1,0,0,VALID,0,0,0,0,0,1,0,0,0,0,0,0,0,0,0,0,0,0,0,0,328.19,425.74,2,0,0.08,0.08,533,14.29,0.08,0.06,36.62,FLYING,CF1-J,0:/Integrated Flight Computer/aircraft/cf1_j_cfg.ks (inferred preloaded)
37.06,TAKEOFF,TO_CLIMB,140.34,80,-60.34,156.71,18.74,6.29,-1.13,90.4,0.027,0.78,0,0,0,0,0,0,0,0,0,0,0,0,0,0,90.4,8,0,1,7.6,0,0,8,90.4,-0.3144,-0.0068,0.9493,8,90.4,0,0,0,0,0,0,3,0,0,0,69,0,0,0,90.4,1,0,-0.005,0,0,3,0,0,0,10,3.752,0,0,1,1,0,0,VALID,0,0,0,0,0,1,0,0,0,0,0,0,0,0,0,0,0,0,0,0,327.59,424.88,2,0,0.08,0.08,537,14.29,0.08,0.06,36.9,FLYING,CF1-J,0:/Integrated Flight Computer/aircraft/cf1_j_cfg.ks (inferred preloaded)
37.34,TAKEOFF,TO_CLIMB,141.27,80,-61.27,162.08,18.96,6.28,-1.18,90.4,0.025,0.78,0,0,0,0,0,0,0,0,0,0,0,0,0,0,90.4,8,0,1,7.64,0,0,8,90.4,-0.3144,-0.0068,0.9493,8,90.4,0,0,0,0,0,0,3,0,0,0,69,0,0,0,90.4,1,0,-0.004,0,0,3,0,0,0,10,3.752,0,0,1,1,0,0,VALID,0,0,0,0,0,1,0,0,0,0,0,0,0,0,0,0,0,0,0,0,326.99,424.02,2,0,0.08,0.08,541,14.29,0.08,0.06,37.18,FLYING,CF1-J,0:/Integrated Flight Computer/aircraft/cf1_j_cfg.ks (inferred preloaded)
37.62,TAKEOFF,TO_CLIMB,142.2,80,-62.2,167.46,19.18,6.27,-1.23,90.4,0.024,0.78,0,0,0,0,0,0,0,0,0,0,0,0,0,0,90.4,8,0,1,7.68,0,0,8,90.4,-0.3145,-0.0068,0.9492,8,90.4,0,0,0,0,0,0,3,0,0,0,69,0,0,0,90.4,1,0,-0.004,0,0,3,0,0,0,10,3.752,0,0,1,1,0,0,VALID,0,0,0,0,0,1,0,0,0,0,0,0,0,0,0,0,0,0,0,0,326.4,423.17,2,0,0.08,0.08,545,14.29,0.08,0.06,37.46,FLYING,CF1-J,0:/Integrated Flight Computer/aircraft/cf1_j_cfg.ks (inferred preloaded)
37.9,TAKEOFF,TO_CLIMB,143.11,80,-63.11,172.91,19.38,6.26,-1.28,90.4,0.022,0.78,0,0,0,0,0,0,0,0,0,0,0,0,0,0,90.4,8,0,1,7.71,0,0,8,90.4,-0.3146,-0.0068,0.9492,8,90.4,0,0,0,0,0,0,3,0,0,0,69,0,0,0,90.4,1,0,-0.004,0,0,3,0,0,0,10,3.752,0,0,1,1,0,0,VALID,0,0,0,0,0,1,0,0,0,0,0,0,0,0,0,0,0,0,0,0,325.81,422.32,2,0,0.08,0.08,549,14.29,0.08,0.06,37.74,FLYING,CF1-J,0:/Integrated Flight Computer/aircraft/cf1_j_cfg.ks (inferred preloaded)
38.18,TAKEOFF,TO_CLIMB,144.02,80,-64.02,178.4,19.59,6.24,-1.32,90.4,0.022,0.78,0,0,0,0,0,0,0,0,0,0,0,0,0,0,90.4,8,0,1,7.74,0,0,8,90.4,-0.3146,-0.0068,0.9492,8,90.4,0,0,0,0,0,0,3,0,0,0,69,0,0,0,90.4,1,0,-0.003,0,0,3,0,0,0,10,3.752,0,0,1,1,0,0,VALID,0,0,0,0,0,1,0,0,0,0,0,0,0,0,0,0,0,0,0,0,325.22,421.48,2,0,0.08,0.08,553,14.29,0.08,0.06,38.02,FLYING,CF1-J,0:/Integrated Flight Computer/aircraft/cf1_j_cfg.ks (inferred preloaded)
38.46,TAKEOFF,TO_CLIMB,144.92,80,-64.92,183.96,19.78,6.23,-1.37,90.4,0.022,0.78,0,0,0,0,0,0,0,0,0,0,0,0,0,0,90.4,8,0,1,7.77,0,0,8,90.4,-0.3147,-0.0068,0.9492,8,90.4,0,0,0,0,0,0,3,0,0,0,69,0,0,0,90.4,1,0,-0.003,0,0,3,0,0,0,10,3.752,0,0,1,1,0,0,VALID,0,0,0,0,0,1,0,0,0,0,0,0,0,0,0,0,0,0,0,0,324.64,420.65,2,0,0.08,0.08,557,14.29,0.08,0.06,38.3,FLYING,CF1-J,0:/Integrated Flight Computer/aircraft/cf1_j_cfg.ks (inferred preloaded)
