t_s,phase,subphase,ias_ms,vapp_ms,spd_err_ms,agl_m,gear_h_m,vs_ms,pitch_deg,aoa_deg,hdg_deg,bank_deg,thr_cmd,thr_cur,thr_intg,at_gain,at_tau_s,at_a_up,at_a_dn,at_kp_thr,at_ki_spd,at_thr_slew,as_cmd_deg,as_cap_deg,as_raw_deg,as_spd_err_ms,as_active,aa_hdg_cmd_deg,aa_fpa_cmd_deg,aa_fbw,aa_dir,actual_fpa_deg,ftf_hdg_err_deg,ftf_fix_idx,kos_steer_pit_deg,kos_steer_hdg_deg,aa_dir_vx,aa_dir_vy,aa_dir_vz,aa_dir_pitch_deg,aa_dir_hdg_deg,ils_loc_m,ils_gs_m,ils_dist_km,loc_corr_deg,gs_corr_deg,gs_latched,active_gs_ang_deg,ils_intercept_alt_m,d_gs_ms,fpa_preclamped_deg,gs_nom_alt_m,flare_fpa_cmd,flare_tgt_vs,flare_frac,flare_round_blend_h,flare_round_blend_ttg,flare_round_blend,flare_mode,flare_auth_limited,flare_auth_reason,flare_vs_err,flare_fpa_err,flare_pitch_err,flare_theta_cmd_raw,flare_theta_cmd_clamped,flare_theta_clamp_active,flare_aoa_clamp_active,flare_pitch_in_cmd,elev_defl_avg_deg,elev_defl_max_deg,elev_defl_n,flare_ctrl_h_m,flare_req_up_a,flare_thr_floor,flare_tecs_et_err,flare_tecs_eb_err,flare_tecs_h_ref,flare_tecs_v_ref,flare_gamma_ref,flare_gamma_eb_term,flare_gamma_unsat,steer_hdg_deg,steer_blend,ro_loc_corr_deg,ro_hdg_err_deg,ro_yaw_tgt,ro_yaw_scale,ro_yaw_gate,yaw_cmd,roll_cmd,pitch_cmd,ro_pitch_tgt_deg,ro_pitch_err_deg,ro_pitch_ff,ro_roll_assist,flaps_cur,flaps_tgt,asc_j_ab,asc_j_rk,asc_validity,asc_q_pa,asc_q_raw_pa,asc_mach,asc_apo_m,asc_drag_n,asc_w_prop,asc_edot_aero,asc_edot_orb,asc_pitch_bias,asc_blend,asc_spooling,asc_ab_thr_ratio,asc_ab_t_now,asc_ab_t_avail,asc_ab_ign_on,asc_ab_flameouts,asc_rk_t_now,asc_rk_t_avail,asc_rk_ign_on,asc_rk_flameouts,ship_thrust,ship_avail_thrust,ship_ign_on,ship_flameouts,ifc_raw_dt_s,ifc_dt_s,ifc_loop_n,ifc_hz_est,ifc_raw_dt_max_s,ifc_raw_dt_min_s,phase_el_s,status,craft_name,cfg_file
0.24,APPROACH,FLY_TO_FIX,165.82,70.16,-95.66,2905.39,3070.99,-63.85,-21.18,-0.9,5.72,-0.01,0,0,0,1,0.6,0.9,0.75,0.35,0.0168,0.4,5,28,28,95.658,1,31.32,5,1,0,-21.06,25.61,0,0,90,0,0,0,0,0,0,0,38.393,0,0,0,3,0,0,0,2043.62,0,0,0,0,0,0,,0,NONE,0,0,0,0,0,0,0,0,0,0,0,3070.99,0,0,0,0,0,0,0,0,0,5.71,0,0,0,0,0,0,0,0,0,0,0,0,0,0,0,0,0,VALID,0,0,0,0,0,1,0,0,0,0,0,0,0,0,0,0,0,0,0,0,0.27,310.61,2,0,0.2,0.2,1,3.45,0.2,0.02,0.26,FLYING,CF1-J,0:/Integrated Flight Computer/aircraft/cf1_j_cfg.ks (inferred preloaded)
0.54,APPROACH,FLY_TO_FIX,164.67,70.4,-94.27,2885.35,3051.92,-63.43,-21.06,-0.77,5.77,0.802,0.0397,0,-20,1,0.6,1.382,0.84,0.35,0.0168,0.4,12.5,28,28,94.337,1,31.41,5,0,0,-21.07,25.64,0,5,31.38,0,0,0,0,0,0,0,38.351,0,0,0,3,0,0,0,2041.4,0,0,0,0,0,0,,0,NONE,0,0,0,0,0,0,0,0,0,0,0,3051.92,0,0,0,0,0,0,0,0,0,5.71,0,0,0,0,0,0,0,0,0,0,0,0,0,0,0,0,0,VALID,0,0,0,0,0,1,0,0,0,0,0,0,0,0,0,0,0,0,0,0,0.25,311.46,2,0,0.1,0.1,4,10,0.2,0.08,0.54,FLYING,CF1-J,0:/Integrated Flight Computer/aircraft/cf1_j_cfg.ks (inferred preloaded)
0.82,APPROACH,FLY_TO_FIX,163.93,70.62,-93.31,2868.32,3034.2,-63.19,-21.05,-0.74,5.95,4.045,0.1159,0,-20,1,0.6,2.157,0.967,0.35,0.0168,0.4,10.5,28,0,93.342,1,31.49,5,0,0,-21.08,25.54,0,5,31.47,0,0,0,0,0,0,0,38.309,0,0,0,3,0,0,0,2039.2,0,0,0,0,0,0,,0,NONE,0,0,0,0,0,0,0,0,0,0,0,3034.2,0,0,0,0,0,0,0,0,0,5.71,0,0,0,0,0,0,0,0,0,0,0,0,0,0,0,0,0,VALID,0,0,0,0,0,1,0,0,0,0,0,0,0,0,0,0,0,0,0,0,0.6,312.25,2,0,0.08,0.08,7,10.71,0.1,0.08,0.82,FLYING,CF1-J,0:/Integrated Flight Computer/aircraft/cf1_j_cfg.ks (inferred preloaded)
1.1,APPROACH,FLY_TO_FIX,163.82,70.85,-92.98,2851.36,3016.51,-63.21,-21.09,-0.72,6.21,9.009,0.0039,0,-19.8,1,0.6,2.764,1.027,0.35,0.0168,0.4,17.5,28,28,92.962,1,31.57,5,0,0,-21.1,25.36,0,5,31.54,0,0,0,0,0,0,0,38.267,0,0,0,3,0,0,0,2037,0,0,0,0,0,0,,0,NONE,0,0,0,0,0,0,0,0,0,0,0,3016.51,0,0,0,0,0,0,0,0,0,5.71,0,0,0,0,0,0,0,0,0,0,0,0,0,0,0,0,0,VALID,0,0,0,0,0,1,0,0,0,0,0,0,0,0,0,0,0,0,0,0,1.03,312.99,2,0,0.1,0.1,10,10.71,0.1,0.08,1.1,FLYING,CF1-J,0:/Integrated Flight Computer/aircraft/cf1_j_cfg.ks (inferred preloaded)
1.38,APPROACH,FLY_TO_FIX,164.26,71.07,-93.19,2834.81,2998.76,-63.44,-21.23,-0.76,6.49,14.805,0,0,-19.505,1,0.6,3.239,0.962,0.35,0.0168,0.4,24.5,28,28,93.148,1,31.66,5,0,0,-21.12,25.17,0,5,31.63,0,0,0,0,0,0,0,38.225,0,0,0,3,0,0,0,2034.81,0,0,0,0,0,0,,0,NONE,0,0,0,0,0,0,0,0,0,0,0,2998.76,0,0,0,0,0,0,0,0,0,5.71,0,0,0,0,0,0,0,0,0,0,0,0,0,0,0,0,0,VALID,0,0,0,0,0,1,0,0,0,0,0,0,0,0,0,0,0,0,0,0,1.01,313.68,2,0,0.08,0.08,13,10.71,0.1,0.08,1.38,FLYING,CF1-J,0:/Integrated Flight Computer/aircraft/cf1_j_cfg.ks (inferred preloaded)
1.66,APPROACH,FLY_TO_FIX,164.89,71.3,-93.59,2817.38,2980.91,-63.87,-21.48,-0.85,6.74,20.918,0,0,-19.214,1,0.6,3.611,0.851,0.35,0.0168,0.4,28,28,28,93.55,1,31.74,5,0,0,-21.16,25,0,5,31.71,0,0,0,0,0,0,0,38.184,0,0,0,3,0,0,0,2032.62,0,0,0,0,0,0,,0,NONE,0,0,0,0,0,0,0,0,0,0,0,2980.91,0,0,0,0,0,0,0,0,0,5.71,0,0,0,0,0,0,0,0,0,0,0,0,0,0,0,0,0,VALID,0,0,0,0,0,1,0,0,0,0,0,0,0,0,0,0,0,0,0,0,0.94,314.37,2,0,0.1,0.1,16,10.71,0.1,0.08,1.66,FLYING,CF1-J,0:/Integrated Flight Computer/aircraft/cf1_j_cfg.ks (inferred preloaded)
1.94,APPROACH,FLY_TO_FIX,165.45,71.52,-93.93,2800.45,2963.2,-63.86,-20.19,0.88,7.87,27.128,0,0,-18.927,1,0.6,3.903,0.753,0.35,0.0168,0.4,28,28,28,93.897,1,31.83,5,0,0,-21.18,23.96,0,5,31.8,0,0,0,0,0,0,0,38.142,0,0,0,3,0,0,0,2030.43,0,0,0,0,0,0,,0,NONE,0,0,0,0,0,0,0,0,0,0,0,2963.2,0,0,0,0,0,0,0,0,0,5.71,0,0,0,0,0,0,0,0,0,0,0,0,0,0,0,0,0,VALID,0,0,0,0,0,1,0,0,0,0,0,0,0,0,0,0,0,0,0,0,0.88,315.06,2,0,0.08,0.08,19,10.71,0.1,0.08,1.94,FLYING,CF1-J,0:/Integrated Flight Computer/aircraft/cf1_j_cfg.ks (inferred preloaded)
2.22,APPROACH,FLY_TO_FIX,165.84,71.74,-94.09,2783.94,2945.65,-62.37,-19.41,1.18,9,33.301,0,0,-18.645,1,0.6,4.133,0.75,0.35,0.0168,0.4,28,28,28,94.068,1,31.91,5,0,0,-20.67,22.91,0,5,31.88,0,0,0,0,0,0,0,38.1,0,0,0,3,0,0,0,2028.25,0,0,0,0,0,0,,0,NONE,0,0,0,0,0,0,0,0,0,0,0,2945.65,0,0,0,0,0,0,0,0,0,5.71,0,0,0,0,0,0,0,0,0,0,0,0,0,0,0,0,0,VALID,0,0,0,0,0,1,0,0,0,0,0,0,0,0,0,0,0,0,0,0,0.82,315.77,2,0,0.1,0.1,22,10.71,0.1,0.08,2.22,FLYING,CF1-J,0:/Integrated Flight Computer/aircraft/cf1_j_cfg.ks (inferred preloaded)
2.5,APPROACH,FLY_TO_FIX,166.19,71.97,-94.22,2767.83,2928.4,-61.32,-19.16,1.19,10.05,39.02,0,0,-18.366,1,0.6,4.314,0.75,0.35,0.0168,0.4,28,28,28,94.19,1,31.99,5,0,0,-20.3,21.93,0,5,31.97,0,0,0,0,0,0,0,38.059,0,0,0,3,0,0,0,2026.07,0,0,0,0,0,0,,0,NONE,0,0,0,0,0,0,0,0,0,0,0,2928.4,0,0,0,0,0,0,0,0,0,5.71,0,0,0,0,0,0,0,0,0,0,0,0,0,0,0,0,0,VALID,0,0,0,0,0,1,0,0,0,0,0,0,0,0,0,0,0,0,0,0,0.77,316.46,2,0,0.08,0.08,25,10.71,0.1,0.08,2.5,FLYING,CF1-J,0:/Integrated Flight Computer/aircraft/cf1_j_cfg.ks (inferred preloaded)
2.8,APPROACH,FLY_TO_FIX,166.67,72.21,-94.46,2750.17,2910.18,-60.58,-18.94,1.1,11.14,43.001,0,0,-18.092,1,0.6,4.458,0.75,0.35,0.0168,0.4,28,28,28,94.425,1,32.07,5,0,0,-20.01,20.93,0,5,32.05,0,0,0,0,0,0,0,38.015,0,0,0,3,0,0,0,2023.76,0,0,0,0,0,0,,0,NONE,0,0,0,0,0,0,0,0,0,0,0,2910.18,0,0,0,0,0,0,0,0,0,5.71,0,0,0,0,0,0,0,0,0,0,0,0,0,0,0,0,0,VALID,0,0,0,0,0,1,0,0,0,0,0,0,0,0,0,0,0,0,0,0,0.72,317.19,2,0,0.08,0.08,28,10,0.12,0.08,2.8,FLYING,CF1-J,0:/Integrated Flight Computer/aircraft/cf1_j_cfg.ks (inferred preloaded)
3.08,APPROACH,FLY_TO_FIX,167.15,72.43,-94.72,2733.68,2893.33,-60.11,-18.71,0.98,12.07,44.307,0,0,-17.822,1,0.6,4.5,0.75,0.35,0.0168,0.4,28,28,28,94.681,1,32.15,5,0,0,-19.81,20.07,0,5,32.12,0,0,0,0,0,0,0,37.974,0,0,0,3,0,0,0,2021.62,0,0,0,0,0,0,,0,NONE,0,0,0,0,0,0,0,0,0,0,0,2893.33,0,0,0,0,0,0,0,0,0,5.71,0,0,0,0,0,0,0,0,0,0,0,0,0,0,0,0,0,VALID,0,0,0,0,0,1,0,0,0,0,0,0,0,0,0,0,0,0,0,0,0.67,317.86,2,0,0.1,0.1,31,10.71,0.1,0.08,3.08,FLYING,CF1-J,0:/Integrated Flight Computer/aircraft/cf1_j_cfg.ks (inferred preloaded)
3.36,APPROACH,FLY_TO_FIX,167.64,72.66,-94.98,2714.16,2876.59,-59.71,-18.46,0.89,12.98,44.27,0,0,-17.556,1,0.6,4.5,0.75,0.35,0.0168,0.4,28,28,28,94.948,1,32.22,5,0,0,-19.63,19.24,0,5,32.2,0,0,0,0,0,0,0,37.933,0,0,0,3,0,0,0,2019.51,0,0,0,0,0,0,,0,NONE,0,0,0,0,0,0,0,0,0,0,0,2876.59,0,0,0,0,0,0,0,0,0,5.71,0,0,0,0,0,0,0,0,0,0,0,0,0,0,0,0,0,VALID,0,0,0,0,0,1,0,0,0,0,0,0,0,0,0,0,0,0,0,0,0.62,318.53,2,0,0.08,0.08,34,10.71,0.1,0.08,3.36,FLYING,CF1-J,0:/Integrated Flight Computer/aircraft/cf1_j_cfg.ks (inferred preloaded)
3.64,APPROACH,FLY_TO_FIX,168.13,72.88,-95.25,2694.91,2859.96,-59.33,-18.27,0.8,13.93,44.011,0,0,-17.294,1,0.6,4.5,0.75,0.35,0.0168,0.4,28,28,28,95.218,1,32.29,5,0,0,-19.46,18.36,0,5,32.27,0,0,0,0,0,0,0,37.893,0,0,0,3,0,0,0,2017.41,0,0,0,0,0,0,,0,NONE,0,0,0,0,0,0,0,0,0,0,0,2859.96,0,0,0,0,0,0,0,0,0,5.71,0,0,0,0,0,0,0,0,0,0,0,0,0,0,0,0,0,VALID,0,0,0,0,0,1,0,0,0,0,0,0,0,0,0,0,0,0,0,0,0.58,319.19,2,0,0.1,0.1,37,10.71,0.1,0.08,3.64,FLYING,CF1-J,0:/Integrated Flight Computer/aircraft/cf1_j_cfg.ks (inferred preloaded)
3.92,APPROACH,FLY_TO_FIX,168.63,73.1,-95.53,2676.35,2843.41,-58.99,-18.14,0.7,14.87,43.563,0,0,-17.036,1,0.6,4.5,0.75,0.35,0.0168,0.4,28,28,28,95.491,1,32.36,5,0,0,-19.3,17.48,0,5,32.34,0,0,0,0,0,0,0,37.854,0,0,0,3,0,0,0,2015.33,0,0,0,0,0,0,,0,NONE,0,0,0,0,0,0,0,0,0,0,0,2843.41,0,0,0,0,0,0,0,0,0,5.71,0,0,0,0,0,0,0,0,0,0,0,0,0,0,0,0,0,VALID,0,0,0,0,0,1,0,0,0,0,0,0,0,0,0,0,0,0,0,0,0.55,319.86,2,0,0.08,0.08,40,10.71,0.1,0.08,3.92,FLYING,CF1-J,0:/Integrated Flight Computer/aircraft/cf1_j_cfg.ks (inferred preloaded)
4.2,APPROACH,FLY_TO_FIX,169.13,73.33,-95.8,2659.24,2826.96,-58.68,-18.05,0.58,15.79,42.912,0,0,-16.782,1,0.6,4.5,0.75,0.35,0.0168,0.4,28,28,28,95.767,1,32.42,5,0,0,-19.15,16.63,0,5,32.4,0,0,0,0,0,0,0,37.815,0,0,0,3,0,0,0,2013.28,0,0,0,0,0,0,,0,NONE,0,0,0,0,0,0,0,0,0,0,0,2826.96,0,0,0,0,0,0,0,0,0,5.71,0,0,0,0,0,0,0,0,0,0,0,0,0,0,0,0,0,VALID,0,0,0,0,0,1,0,0,0,0,0,0,0,0,0,0,0,0,0,0,0.51,320.52,2,0,0.1,0.1,43,10.71,0.1,0.08,4.2,FLYING,CF1-J,0:/Integrated Flight Computer/aircraft/cf1_j_cfg.ks (inferred preloaded)
4.48,APPROACH,FLY_TO_FIX,169.63,73.55,-96.08,2642.24,2810.57,-58.41,-17.98,0.47,16.67,42.08,0,0,-16.531,1,0.6,4.5,0.75,0.35,0.0168,0.4,28,28,28,96.047,1,32.48,5,0,0,-19.02,15.81,0,5,32.46,0,0,0,0,0,0,0,37.776,0,0,0,3,0,0,0,2011.24,0,0,0,0,0,0,,0,NONE,0,0,0,0,0,0,0,0,0,0,0,2810.57,0,0,0,0,0,0,0,0,0,5.71,0,0,0,0,0,0,0,0,0,0,0,0,0,0,0,0,0,VALID,0,0,0,0,0,1,0,0,0,0,0,0,0,0,0,0,0,0,0,0,0.48,321.18,2,0,0.08,0.08,46,10.71,0.1,0.08,4.48,FLYING,CF1-J,0:/Integrated Flight Computer/aircraft/cf1_j_cfg.ks (inferred preloaded)
4.76,APPROACH,FLY_TO_FIX,170.14,73.78,-96.37,2624.88,2794.27,-58.16,-17.91,0.37,17.51,41.099,0,0,-16.285,1,0.6,4.5,0.75,0.35,0.0168,0.4,28,28,28,96.33,1,32.54,5,0,0,-18.89,15.03,0,5,32.52,0,0,0,0,0,0,0,37.737,0,0,0,3,0,0,0,2009.23,0,0,0,0,0,0,,0,NONE,0,0,0,0,0,0,0,0,0,0,0,2794.27,0,0,0,0,0,0,0,0,0,5.71,0,0,0,0,0,0,0,0,0,0,0,0,0,0,0,0,0,VALID,0,0,0,0,0,1,0,0,0,0,0,0,0,0,0,0,0,0,0,0,0.44,321.84,2,0,0.1,0.1,49,10.71,0.1,0.08,4.76,FLYING,CF1-J,0:/Integrated Flight Computer/aircraft/cf1_j_cfg.ks (inferred preloaded)
5.04,APPROACH,FLY_TO_FIX,170.65,74,-96.65,2605.28,2778.02,-57.92,-17.85,0.27,18.32,39.795,0,0,-16.042,1,0.6,4.5,0.75,0.35,0.0168,0.4,28,28,28,96.611,1,32.6,5,0,0,-18.77,14.28,0,5,32.58,0,0,0,0,0,0,0,37.699,0,0,0,3,0,0,0,2007.24,0,0,0,0,0,0,,0,NONE,0,0,0,0,0,0,0,0,0,0,0,2778.02,0,0,0,0,0,0,0,0,0,5.71,0,0,0,0,0,0,0,0,0,0,0,0,0,0,0,0,0,VALID,0,0,0,0,0,1,0,0,0,0,0,0,0,0,0,0,0,0,0,0,0.42,322.5,2,0,0.08,0.08,52,10.71,0.1,0.08,5.04,FLYING,CF1-J,0:/Integrated Flight Computer/aircraft/cf1_j_cfg.ks (inferred preloaded)
5.32,APPROACH,FLY_TO_FIX,171.15,74.22,-96.93,2584.42,2761.85,-57.67,-17.8,0.19,19.1,38.564,0,0,-15.802,1,0.6,4.5,0.75,0.35,0.0168,0.4,28,28,28,96.893,1,32.65,5,0,0,-18.64,13.55,0,5,32.63,0,0,0,0,0,0,0,37.662,0,0,0,3,0,0,0,2005.26,0,0,0,0,0,0,,0,NONE,0,0,0,0,0,0,0,0,0,0,0,2761.85,0,0,0,0,0,0,0,0,0,5.71,0,0,0,0,0,0,0,0,0,0,0,0,0,0,0,0,0,VALID,0,0,0,0,0,1,0,0,0,0,0,0,0,0,0,0,0,0,0,0,0.39,323.17,2,0,0.1,0.1,55,10.71,0.1,0.08,5.32,FLYING,CF1-J,0:/Integrated Flight Computer/aircraft/cf1_j_cfg.ks (inferred preloaded)
5.6,APPROACH,FLY_TO_FIX,171.66,74.45,-97.21,2562.84,2745.74,-57.43,-17.74,0.1,19.83,37.114,0,0,-15.566,1,0.6,4.5,0.75,0.35,0.0168,0.4,28,28,28,97.173,1,32.7,5,0,0,-18.52,12.87,0,5,32.69,0,0,0,0,0,0,0,37.624,0,0,0,3,0,0,0,2003.31,0,0,0,0,0,0,,0,NONE,0,0,0,0,0,0,0,0,0,0,0,2745.74,0,0,0,0,0,0,0,0,0,5.71,0,0,0,0,0,0,0,0,0,0,0,0,0,0,0,0,0,VALID,0,0,0,0,0,1,0,0,0,0,0,0,0,0,0,0,0,0,0,0,0.36,323.83,2,0,0.08,0.08,58,10.71,0.1,0.08,5.6,FLYING,CF1-J,0:/Integrated Flight Computer/aircraft/cf1_j_cfg.ks (inferred preloaded)
5.88,APPROACH,FLY_TO_FIX,172.17,74.67,-97.5,2543.36,2729.7,-57.2,-17.7,0.02,20.56,36.02,0,0,-15.334,1,0.6,4.5,0.75,0.35,0.0168,0.4,28,28,28,97.461,1,32.75,5,0,0,-18.39,12.19,0,5,32.74,0,0,0,0,0,0,0,37.587,0,0,0,3,0,0,0,2001.37,0,0,0,0,0,0,,0,NONE,0,0,0,0,0,0,0,0,0,0,0,2729.7,0,0,0,0,0,0,0,0,0,5.71,0,0,0,0,0,0,0,0,0,0,0,0,0,0,0,0,0,VALID,0,0,0,0,0,1,0,0,0,0,0,0,0,0,0,0,0,0,0,0,0.34,324.49,2,0,0.1,0.1,61,10.71,0.1,0.08,5.88,FLYING,CF1-J,0:/Integrated Flight Computer/aircraft/cf1_j_cfg.ks (inferred preloaded)
6.16,APPROACH,FLY_TO_FIX,172.67,74.9,-97.78,2524.75,2713.72,-56.97,-17.65,-0.05,21.23,34.679,0,0,-15.105,1,0.6,4.5,0.75,0.35,0.0168,0.4,28,28,28,97.742,1,32.8,5,0,0,-18.27,11.56,0,5,32.79,0,0,0,0,0,0,0,37.551,0,0,0,3,0,0,0,1999.45,0,0,0,0,0,0,,0,NONE,0,0,0,0,0,0,0,0,0,0,0,2713.72,0,0,0,0,0,0,0,0,0,5.71,0,0,0,0,0,0,0,0,0,0,0,0,0,0,0,0,0,VALID,0,0,0,0,0,1,0,0,0,0,0,0,0,0,0,0,0,0,0,0,0.32,325.15,2,0,0.08,0.08,64,10.71,0.1,0.08,6.16,FLYING,CF1-J,0:/Integrated Flight Computer/aircraft/cf1_j_cfg.ks (inferred preloaded)
6.44,APPROACH,FLY_TO_FIX,173.18,75.12,-98.06,2507.05,2697.81,-56.74,-17.6,-0.12,21.88,33.329,0,0,-14.88,1,0.6,4.5,0.75,0.35,0.0168,0.4,28,28,28,98.023,1,32.84,5,0,0,-18.16,10.96,0,5,32.83,0,0,0,0,0,0,0,37.514,0,0,0,3,0,0,0,1997.55,0,0,0,0,0,0,,0,NONE,0,0,0,0,0,0,0,0,0,0,0,2697.81,0,0,0,0,0,0,0,0,0,5.71,0,0,0,0,0,0,0,0,0,0,0,0,0,0,0,0,0,VALID,0,0,0,0,0,1,0,0,0,0,0,0,0,0,0,0,0,0,0,0,0.3,325.81,2,0,0.1,0.1,67,10.71,0.1,0.08,6.44,FLYING,CF1-J,0:/Integrated Flight Computer/aircraft/cf1_j_cfg.ks (inferred preloaded)
6.72,APPROACH,FLY_TO_FIX,173.69,75.34,-98.34,2488.01,2681.96,-56.52,-17.57,-0.19,22.51,32.217,0,0,-14.658,1,0.6,4.5,0.75,0.35,0.0168,0.4,28,28,28,98.308,1,32.89,5,0,0,-18.04,10.38,0,5,32.88,0,0,0,0,0,0,0,37.478,0,0,0,3,0,0,0,1995.66,0,0,0,0,0,0,,0,NONE,0,0,0,0,0,0,0,0,0,0,0,2681.96,0,0,0,0,0,0,0,0,0,5.71,0,0,0,0,0,0,0,0,0,0,0,0,0,0,0,0,0,VALID,0,0,0,0,0,1,0,0,0,0,0,0,0,0,0,0,0,0,0,0,0.28,326.47,2,0,0.08,0.08,70,10.71,0.1,0.08,6.72,FLYING,CF1-J,0:/Integrated Flight Computer/aircraft/cf1_j_cfg.ks (inferred preloaded)
7,APPROACH,FLY_TO_FIX,174.19,75.57,-98.62,2469.05,2666.17,-56.3,-17.52,-0.25,23.1,30.904,0,0,-14.439,1,0.6,4.5,0.75,0.35,0.0168,0.4,28,28,28,98.586,1,32.93,5,0,0,-17.93,9.83,0,5,32.92,0,0,0,0,0,0,0,37.443,0,0,0,3,0,0,0,1993.79,0,0,0,0,0,0,,0,NONE,0,0,0,0,0,0,0,0,0,0,0,2666.17,0,0,0,0,0,0,0,0,0,5.71,0,0,0,0,0,0,0,0,0,0,0,0,0,0,0,0,0,VALID,0,0,0,0,0,1,0,0,0,0,0,0,0,0,0,0,0,0,0,0,0.26,327.13,2,0,0.1,0.1,73,10.71,0.1,0.08,7,FLYING,CF1-J,0:/Integrated Flight Computer/aircraft/cf1_j_cfg.ks (inferred preloaded)
7.28,APPROACH,FLY_TO_FIX,174.69,75.79,-98.9,2450.51,2650.44,-56.09,-17.48,-0.31,23.66,29.74,0,0,-14.223,1,0.6,4.5,0.75,0.35,0.0168,0.4,28,28,28,98.867,1,32.97,5,0,0,-17.82,9.31,0,5,32.96,0,0,0,0,0,0,0,37.407,0,0,0,3,0,0,0,1991.93,0,0,0,0,0,0,,0,NONE,0,0,0,0,0,0,0,0,0,0,0,2650.44,0,0,0,0,0,0,0,0,0,5.71,0,0,0,0,0,0,0,0,0,0,0,0,0,0,0,0,0,VALID,0,0,0,0,0,1,0,0,0,0,0,0,0,0,0,0,0,0,0,0,0.24,327.79,2,0,0.08,0.08,76,10.71,0.1,0.08,7.28,FLYING,CF1-J,0:/Integrated Flight Computer/aircraft/cf1_j_cfg.ks (inferred preloaded)
7.56,APPROACH,FLY_TO_FIX,175.2,76.02,-99.18,2433.81,2634.77,-55.88,-17.44,-0.36,24.2,28.583,0,0,-14.011,1,0.6,4.5,0.75,0.35,0.0168,0.4,28,28,28,99.145,1,33.01,5,0,0,-17.71,8.81,0,5,33,0,0,0,0,0,0,0,37.372,0,0,0,3,0,0,0,1990.09,0,0,0,0,0,0,,0,NONE,0,0,0,0,0,0,0,0,0,0,0,2634.77,0,0,0,0,0,0,0,0,0,5.71,0,0,0,0,0,0,0,0,0,0,0,0,0,0,0,0,0,VALID,0,0,0,0,0,1,0,0,0,0,0,0,0,0,0,0,0,0,0,0,0.22,328.46,2,0,0.1,0.1,79,10.71,0.1,0.08,7.56,FLYING,CF1-J,0:/Integrated Flight Computer/aircraft/cf1_j_cfg.ks (inferred preloaded)
7.84,APPROACH,FLY_TO_FIX,175.7,76.24,-99.46,2417.92,2619.16,-55.69,-17.4,-0.41,24.71,27.415,0,0,-13.802,1,0.6,4.5,0.75,0.35,0.0168,0.4,28,28,28,99.42,1,33.04,5,0,0,-17.6,8.33,0,5,33.04,0,0,0,0,0,0,0,37.337,0,0,0,3,0,0,0,1988.26,0,0,0,0,0,0,,0,NONE,0,0,0,0,0,0,0,0,0,0,0,2619.16,0,0,0,0,0,0,0,0,0,5.71,0,0,0,0,0,0,0,0,0,0,0,0,0,0,0,0,0,VALID,0,0,0,0,0,1,0,0,0,0,0,0,0,0,0,0,0,0,0,0,0.21,329.12,2,0,0.08,0.08,82,10.71,0.1,0.08,7.84,FLYING,CF1-J,0:/Integrated Flight Computer/aircraft/cf1_j_cfg.ks (inferred preloaded)
8.12,APPROACH,FLY_TO_FIX,176.19,76.46,-99.73,2402.6,2603.6,-55.5,-17.36,-0.46,25.2,26.297,0,0,-13.596,1,0.6,4.5,0.75,0.35,0.0168,0.4,28,28,28,99.695,1,33.08,5,0,0,-17.5,7.88,0,5,33.07,0,0,0,0,0,0,0,37.303,0,0,0,3,0,0,0,1986.44,0,0,0,0,0,0,,0,NONE,0,0,0,0,0,0,0,0,0,0,0,2603.6,0,0,0,0,0,0,0,0,0,5.71,0,0,0,0,0,0,0,0,0,0,0,0,0,0,0,0,0,VALID,0,0,0,0,0,1,0,0,0,0,0,0,0,0,0,0,0,0,0,0,0.2,329.78,2,0,0.1,0.1,85,10.71,0.1,0.08,8.12,FLYING,CF1-J,0:/Integrated Flight Computer/aircraft/cf1_j_cfg.ks (inferred preloaded)
8.4,APPROACH,FLY_TO_FIX,176.69,76.69,-100,2383.98,2588.09,-55.32,-17.32,-0.51,25.67,25.181,0,0,-13.393,1,0.6,4.5,0.75,0.35,0.0168,0.4,28,28,28,99.967,1,33.11,5,0,0,-17.4,7.44,0,5,33.1,0,0,0,0,0,0,0,37.268,0,0,0,3,0,0,0,1984.64,0,0,0,0,0,0,,0,NONE,0,0,0,0,0,0,0,0,0,0,0,2588.09,0,0,0,0,0,0,0,0,0,5.71,0,0,0,0,0,0,0,0,0,0,0,0,0,0,0,0,0,VALID,0,0,0,0,0,1,0,0,0,0,0,0,0,0,0,0,0,0,0,0,0.18,330.44,2,0,0.08,0.08,88,10.71,0.1,0.08,8.4,FLYING,CF1-J,0:/Integrated Flight Computer/aircraft/cf1_j_cfg.ks (inferred preloaded)
8.68,APPROACH,FLY_TO_FIX,177.18,76.91,-100.27,2366.75,2572.63,-55.14,-17.28,-0.55,26.11,24.089,0,0,-13.193,1,0.6,4.5,0.75,0.35,0.0168,0.4,28,28,28,100.236,1,33.15,5,0,0,-17.3,7.03,0,5,33.14,0,0,0,0,0,0,0,37.234,0,0,0,3,0,0,0,1982.85,0,0,0,0,0,0,,0,NONE,0,0,0,0,0,0,0,0,0,0,0,2572.63,0,0,0,0,0,0,0,0,0,5.71,0,0,0,0,0,0,0,0,0,0,0,0,0,0,0,0,0,VALID,0,0,0,0,0,1,0,0,0,0,0,0,0,0,0,0,0,0,0,0,0.17,331.11,2,0,0.1,0.1,91,10.71,0.1,0.08,8.68,FLYING,CF1-J,0:/Integrated Flight Computer/aircraft/cf1_j_cfg.ks (inferred preloaded)
8.96,APPROACH,FLY_TO_FIX,177.67,77.14,-100.54,2349.38,2557.22,-54.97,-17.25,-0.59,26.54,23.008,0,0,-12.996,1,0.6,4.5,0.75,0.35,0.0168,0.4,28,28,28,100.503,1,33.18,5,0,0,-17.21,6.64,0,5,33.17,0,0,0,0,0,0,0,37.2,0,0,0,3,0,0,0,1981.07,0,0,0,0,0,0,,0,NONE,0,0,0,0,0,0,0,0,0,0,0,2557.22,0,0,0,0,0,0,0,0,0,5.71,0,0,0,0,0,0,0,0,0,0,0,0,0,0,0,0,0,VALID,0,0,0,0,0,1,0,0,0,0,0,0,0,0,0,0,0,0,0,0,0.16,331.77,2,0,0.08,0.08,94,10.71,0.1,0.08,8.96,FLYING,CF1-J,0:/Integrated Flight Computer/aircraft/cf1_j_cfg.ks (inferred preloaded)
9.24,APPROACH,FLY_TO_FIX,178.16,77.36,-100.8,2332.97,2541.86,-54.81,-17.21,-0.62,26.94,21.949,0,0,-12.802,1,0.6,4.5,0.75,0.35,0.0168,0.4,28,28,28,100.766,1,33.21,5,0,0,-17.11,6.27,0,5,33.2,0,0,0,0,0,0,0,37.166,0,0,0,3,0,0,0,1979.29,0,0,0,0,0,0,,0,NONE,0,0,0,0,0,0,0,0,0,0,0,2541.86,0,0,0,0,0,0,0,0,0,5.71,0,0,0,0,0,0,0,0,0,0,0,0,0,0,0,0,0,VALID,0,0,0,0,0,1,0,0,0,0,0,0,0,0,0,0,0,0,0,0,0.15,332.44,2,0,0.1,0.1,97,10.71,0.1,0.08,9.24,FLYING,CF1-J,0:/Integrated Flight Computer/aircraft/cf1_j_cfg.ks (inferred preloaded)
9.52,APPROACH,FLY_TO_FIX,178.65,77.58,-101.06,2316.42,2526.54,-54.65,-17.17,-0.66,27.32,20.919,0,0,-12.611,1,0.6,4.5,0.75,0.35,0.0168,0.4,28,28,28,101.027,1,33.23,5,0,0,-17.02,5.91,0,5,33.23,0,0,0,0,0,0,0,37.133,0,0,0,3,0,0,0,1977.53,0,0,0,0,0,0,,0,NONE,0,0,0,0,0,0,0,0,0,0,0,2526.54,0,0,0,0,0,0,0,0,0,5.71,0,0,0,0,0,0,0,0,0,0,0,0,0,0,0,0,0,VALID,0,0,0,0,0,1,0,0,0,0,0,0,0,0,0,0,0,0,0,0,0.14,333.1,2,0,0.08,0.08,100,10.71,0.1,0.08,9.52,FLYING,CF1-J,0:/Integrated Flight Computer/aircraft/cf1_j_cfg.ks (inferred preloaded)
9.8,APPROACH,FLY_TO_FIX,179.13,77.81,-101.32,2299.5,2511.27,-54.5,-17.14,-0.69,27.69,19.911,0,0,-12.423,1,0.6,4.5,0.75,0.35,0.0168,0.4,28,28,28,101.284,1,33.26,5,0,0,-16.93,5.58,0,5,33.25,0,0,0,0,0,0,0,37.099,0,0,0,3,0,0,0,1975.78,0,0,0,0,0,0,,0,NONE,0,0,0,0,0,0,0,0,0,0,0,2511.27,0,0,0,0,0,0,0,0,0,5.71,0,0,0,0,0,0,0,0,0,0,0,0,0,0,0,0,0,VALID,0,0,0,0,0,1,0,0,0,0,0,0,0,0,0,0,0,0,0,0,0.13,333.77,2,0,0.1,0.1,103,10.71,0.1,0.08,9.8,FLYING,CF1-J,0:/Integrated Flight Computer/aircraft/cf1_j_cfg.ks (inferred preloaded)
10.08,APPROACH,FLY_TO_FIX,179.6,78.03,-101.57,2283.89,2496.03,-54.35,-17.1,-0.72,28.03,18.915,0,0,-12.237,1,0.6,4.5,0.75,0.35,0.0168,0.4,28,28,28,101.538,1,33.29,5,0,0,-16.85,5.26,0,5,33.28,0,0,0,0,0,0,0,37.066,0,0,0,3,0,0,0,1974.04,0,0,0,0,0,0,,0,NONE,0,0,0,0,0,0,0,0,0,0,0,2496.03,0,0,0,0,0,0,0,0,0,5.71,0,0,0,0,0,0,0,0,0,0,0,0,0,0,0,0,0,VALID,0,0,0,0,0,1,0,0,0,0,0,0,0,0,0,0,0,0,0,0,0.12,334.44,2,0,0.08,0.08,106,10.71,0.1,0.08,10.08,FLYING,CF1-J,0:/Integrated Flight Computer/aircraft/cf1_j_cfg.ks (inferred preloaded)
10.36,APPROACH,FLY_TO_FIX,180.08,78.26,-101.82,2264.18,2480.84,-54.21,-17.07,-0.75,28.36,17.953,0,0,-12.055,1,0.6,4.5,0.75,0.35,0.0168,0.4,28,28,28,101.789,1,33.31,5,0,0,-16.77,4.95,0,5,33.31,0,0,0,0,0,0,0,37.033,0,0,0,3,0,0,0,1972.31,0,0,0,0,0,0,,0,NONE,0,0,0,0,0,0,0,0,0,0,0,2480.84,0,0,0,0,0,0,0,0,0,5.71,0,0,0,0,0,0,0,0,0,0,0,0,0,0,0,0,0,VALID,0,0,0,0,0,1,0,0,0,0,0,0,0,0,0,0,0,0,0,0,0.11,335.1,2,0,0.1,0.1,109,10.71,0.1,0.08,10.36,FLYING,CF1-J,0:/Integrated Flight Computer/aircraft/cf1_j_cfg.ks (inferred preloaded)
10.64,APPROACH,FLY_TO_FIX,180.55,78.48,-102.07,2242.76,2465.68,-54.08,-17.03,-0.78,28.67,17.032,0,0,-11.875,1,0.6,4.5,0.75,0.35,0.0168,0.4,28,28,28,102.037,1,33.34,5,0,0,-16.68,4.67,0,5,33.33,0,0,0,0,0,0,0,37,0,0,0,3,0,0,0,1970.58,0,0,0,0,0,0,,0,NONE,0,0,0,0,0,0,0,0,0,0,0,2465.68,0,0,0,0,0,0,0,0,0,5.71,0,0,0,0,0,0,0,0,0,0,0,0,0,0,0,0,0,VALID,0,0,0,0,0,1,0,0,0,0,0,0,0,0,0,0,0,0,0,0,0.11,335.77,2,0,0.08,0.08,112,10.71,0.1,0.08,10.64,FLYING,CF1-J,0:/Integrated Flight Computer/aircraft/cf1_j_cfg.ks (inferred preloaded)
10.92,APPROACH,FLY_TO_FIX,181.02,78.7,-102.32,2219.96,2450.57,-53.95,-17,-0.81,28.97,16.14,0,0,-11.698,1,0.6,4.5,0.75,0.35,0.0168,0.4,28,28,28,102.282,1,33.36,5,0,0,-16.61,4.39,0,5,33.35,0,0,0,0,0,0,0,36.967,0,0,0,3,0,0,0,1968.86,0,0,0,0,0,0,,0,NONE,0,0,0,0,0,0,0,0,0,0,0,2450.57,0,0,0,0,0,0,0,0,0,5.71,0,0,0,0,0,0,0,0,0,0,0,0,0,0,0,0,0,VALID,0,0,0,0,0,1,0,0,0,0,0,0,0,0,0,0,0,0,0,0,0.1,336.44,2,0,0.1,0.1,115,10.71,0.1,0.08,10.92,FLYING,CF1-J,0:/Integrated Flight Computer/aircraft/cf1_j_cfg.ks (inferred preloaded)
11.2,APPROACH,FLY_TO_FIX,181.48,78.93,-102.56,2197.52,2435.48,-53.82,-16.97,-0.83,29.25,15.288,0,0,-11.523,1,0.6,4.5,0.75,0.35,0.0168,0.4,28,28,28,102.524,1,33.38,5,0,0,-16.53,4.13,0,5,33.38,0,0,0,0,0,0,0,36.934,0,0,0,3,0,0,0,1967.15,0,0,0,0,0,0,,0,NONE,0,0,0,0,0,0,0,0,0,0,0,2435.48,0,0,0,0,0,0,0,0,0,5.71,0,0,0,0,0,0,0,0,0,0,0,0,0,0,0,0,0,VALID,0,0,0,0,0,1,0,0,0,0,0,0,0,0,0,0,0,0,0,0,0.09,337.11,2,0,0.08,0.08,118,10.71,0.1,0.08,11.2,FLYING,CF1-J,0:/Integrated Flight Computer/aircraft/cf1_j_cfg.ks (inferred preloaded)
11.48,APPROACH,FLY_TO_FIX,181.95,79.15,-102.8,2174.7,2420.43,-53.71,-16.94,-0.86,29.51,14.468,0,0,-11.351,1,0.6,4.5,0.75,0.35,0.0168,0.4,28,28,28,102.762,1,33.4,5,0,0,-16.46,3.89,0,5,33.4,0,0,0,0,0,0,0,36.902,0,0,0,3,0,0,0,1965.44,0,0,0,0,0,0,,0,NONE,0,0,0,0,0,0,0,0,0,0,0,2420.43,0,0,0,0,0,0,0,0,0,5.71,0,0,0,0,0,0,0,0,0,0,0,0,0,0,0,0,0,VALID,0,0,0,0,0,1,0,0,0,0,0,0,0,0,0,0,0,0,0,0,0.09,337.78,2,0,0.1,0.1,121,10.71,0.1,0.08,11.48,FLYING,CF1-J,0:/Integrated Flight Computer/aircraft/cf1_j_cfg.ks (inferred preloaded)
11.76,APPROACH,FLY_TO_FIX,182.41,79.38,-103.03,2153.16,2405.42,-53.6,-16.91,-0.88,29.77,13.67,0,0,-11.182,1,0.6,4.5,0.75,0.35,0.0168,0.4,28,28,28,102.997,1,33.43,5,0,0,-16.38,3.66,0,5,33.42,0,0,0,0,0,0,0,36.869,0,0,0,3,0,0,0,1963.74,0,0,0,0,0,0,,0,NONE,0,0,0,0,0,0,0,0,0,0,0,2405.42,0,0,0,0,0,0,0,0,0,5.71,0,0,0,0,0,0,0,0,0,0,0,0,0,0,0,0,0,VALID,0,0,0,0,0,1,0,0,0,0,0,0,0,0,0,0,0,0,0,0,0.08,338.45,2,0,0.08,0.08,124,10.71,0.1,0.08,11.76,FLYING,CF1-J,0:/Integrated Flight Computer/aircraft/cf1_j_cfg.ks (inferred preloaded)
12.04,APPROACH,FLY_TO_FIX,182.86,79.6,-103.26,2134.51,2390.43,-53.49,-16.88,-0.9,30,12.907,0,0,-11.015,1,0.6,4.5,0.75,0.35,0.0168,0.4,28,28,28,103.229,1,33.45,5,0,0,-16.32,3.44,0,5,33.44,0,0,0,0,0,0,0,36.837,0,0,0,3,0,0,0,1962.05,0,0,0,0,0,0,,0,NONE,0,0,0,0,0,0,0,0,0,0,0,2390.43,0,0,0,0,0,0,0,0,0,5.71,0,0,0,0,0,0,0,0,0,0,0,0,0,0,0,0,0,VALID,0,0,0,0,0,1,0,0,0,0,0,0,0,0,0,0,0,0,0,0,0.08,339.12,2,0,0.1,0.1,127,10.71,0.1,0.08,12.04,FLYING,CF1-J,0:/Integrated Flight Computer/aircraft/cf1_j_cfg.ks (inferred preloaded)
12.32,APPROACH,FLY_TO_FIX,183.31,79.82,-103.49,2117.34,2375.47,-53.39,-16.85,-0.92,30.23,12.179,0,0,-10.85,1,0.6,4.5,0.75,0.35,0.0168,0.4,28,28,28,103.458,1,33.46,5,0,0,-16.25,3.23,0,5,33.46,0,0,0,0,0,0,0,36.805,0,0,0,3,0,0,0,1960.36,0,0,0,0,0,0,,0,NONE,0,0,0,0,0,0,0,0,0,0,0,2375.47,0,0,0,0,0,0,0,0,0,5.71,0,0,0,0,0,0,0,0,0,0,0,0,0,0,0,0,0,VALID,0,0,0,0,0,1,0,0,0,0,0,0,0,0,0,0,0,0,0,0,0.07,339.79,2,0,0.08,0.08,130,10.71,0.1,0.08,12.32,FLYING,CF1-J,0:/Integrated Flight Computer/aircraft/cf1_j_cfg.ks (inferred preloaded)
12.6,APPROACH,FLY_TO_FIX,183.76,80.05,-103.72,2097.93,2360.54,-53.3,-16.82,-0.94,30.44,11.487,0,0,-10.688,1,0.6,4.5,0.75,0.35,0.0168,0.4,28,28,28,103.684,1,33.48,5,0,0,-16.18,3.04,0,5,33.48,0,0,0,0,0,0,0,36.773,0,0,0,3,0,0,0,1958.68,0,0,0,0,0,0,,0,NONE,0,0,0,0,0,0,0,0,0,0,0,2360.54,0,0,0,0,0,0,0,0,0,5.71,0,0,0,0,0,0,0,0,0,0,0,0,0,0,0,0,0,VALID,0,0,0,0,0,1,0,0,0,0,0,0,0,0,0,0,0,0,0,0,0.07,340.46,2,0,0.1,0.1,133,10.71,0.1,0.08,12.6,FLYING,CF1-J,0:/Integrated Flight Computer/aircraft/cf1_j_cfg.ks (inferred preloaded)
12.88,APPROACH,FLY_TO_FIX,184.21,80.27,-103.94,2078.38,2345.63,-53.21,-16.79,-0.96,30.65,10.821,0,0,-10.529,1,0.6,4.5,0.75,0.35,0.0168,0.4,28,28,28,103.907,1,33.5,5,0,0,-16.12,2.86,0,5,33.5,0,0,0,0,0,0,0,36.741,0,0,0,3,0,0,0,1957,0,0,0,0,0,0,,0,NONE,0,0,0,0,0,0,0,0,0,0,0,2345.63,0,0,0,0,0,0,0,0,0,5.71,0,0,0,0,0,0,0,0,0,0,0,0,0,0,0,0,0,VALID,0,0,0,0,0,1,0,0,0,0,0,0,0,0,0,0,0,0,0,0,0.06,341.13,2,0,0.08,0.08,136,10.71,0.1,0.08,12.88,FLYING,CF1-J,0:/Integrated Flight Computer/aircraft/cf1_j_cfg.ks (inferred preloaded)
13.16,APPROACH,FLY_TO_FIX,184.65,80.5,-104.16,2059.65,2330.75,-53.13,-16.77,-0.98,30.84,10.175,0,0,-10.372,1,0.6,4.5,0.75,0.35,0.0168,0.4,28,28,28,104.127,1,33.52,5,0,0,-16.06,2.68,0,5,33.51,0,0,0,0,0,0,0,36.709,0,0,0,3,0,0,0,1955.33,0,0,0,0,0,0,,0,NONE,0,0,0,0,0,0,0,0,0,0,0,2330.75,0,0,0,0,0,0,0,0,0,5.71,0,0,0,0,0,0,0,0,0,0,0,0,0,0,0,0,0,VALID,0,0,0,0,0,1,0,0,0,0,0,0,0,0,0,0,0,0,0,0,0.06,341.81,2,0,0.1,0.1,139,10.71,0.1,0.08,13.16,FLYING,CF1-J,0:/Integrated Flight Computer/aircraft/cf1_j_cfg.ks (inferred preloaded)
13.44,APPROACH,FLY_TO_FIX,185.1,80.72,-104.38,2041.91,2315.88,-53.05,-16.74,-1,31.02,9.56,0,0,-10.217,1,0.6,4.5,0.75,0.35,0.0168,0.4,28,28,28,104.344,1,33.54,5,0,0,-16,2.52,0,5,33.53,0,0,0,0,0,0,0,36.677,0,0,0,3,0,0,0,1953.66,0,0,0,0,0,0,,0,NONE,0,0,0,0,0,0,0,0,0,0,0,2315.88,0,0,0,0,0,0,0,0,0,5.71,0,0,0,0,0,0,0,0,0,0,0,0,0,0,0,0,0,VALID,0,0,0,0,0,1,0,0,0,0,0,0,0,0,0,0,0,0,0,0,0.05,342.48,2,0,0.08,0.08,142,10.71,0.1,0.08,13.44,FLYING,CF1-J,0:/Integrated Flight Computer/aircraft/cf1_j_cfg.ks (inferred preloaded)
13.72,APPROACH,FLY_TO_FIX,185.53,80.94,-104.59,2022.48,2301.04,-52.98,-16.72,-1.01,31.19,8.973,0,0,-10.064,1,0.6,4.5,0.75,0.35,0.0168,0.4,28,28,28,104.558,1,33.55,5,0,0,-15.95,2.37,0,5,33.55,0,0,0,0,0,0,0,36.645,0,0,0,3,0,0,0,1951.99,0,0,0,0,0,0,,0,NONE,0,0,0,0,0,0,0,0,0,0,0,2301.04,0,0,0,0,0,0,0,0,0,5.71,0,0,0,0,0,0,0,0,0,0,0,0,0,0,0,0,0,VALID,0,0,0,0,0,1,0,0,0,0,0,0,0,0,0,0,0,0,0,0,0.05,343.16,2,0,0.1,0.1,145,10.71,0.1,0.08,13.72,FLYING,CF1-J,0:/Integrated Flight Computer/aircraft/cf1_j_cfg.ks (inferred preloaded)
14,APPROACH,FLY_TO_FIX,185.97,81.17,-104.8,2002.71,2286.22,-52.92,-16.7,-1.03,31.35,8.42,0,0,-9.914,1,0.6,4.5,0.75,0.35,0.0168,0.4,28,28,28,104.769,1,33.57,5,0,0,-15.89,2.22,0,5,33.56,0,0,0,0,0,0,0,36.613,0,0,0,3,0,0,0,1950.33,0,0,0,0,0,0,,0,NONE,0,0,0,0,0,0,0,0,0,0,0,2286.22,0,0,0,0,0,0,0,0,0,5.71,0,0,0,0,0,0,0,0,0,0,0,0,0,0,0,0,0,VALID,0,0,0,0,0,1,0,0,0,0,0,0,0,0,0,0,0,0,0,0,0.05,343.83,2,0,0.08,0.08,148,10.71,0.1,0.08,14,FLYING,CF1-J,0:/Integrated Flight Computer/aircraft/cf1_j_cfg.ks (inferred preloaded)
14.32,APPROACH,FLY_TO_FIX,186.45,81.42,-105.03,1980.27,2269.17,-52.85,-16.68,-1.05,31.51,7.838,0,0,-9.717,1,0.6,4.5,0.75,0.35,0.0168,0.4,28,28,28,104.997,1,33.58,5,0,0,-15.83,2.07,0,5,33.58,0,0,0,0,0,0,0,36.578,0,0,0,3,0,0,0,1948.48,0,0,0,0,0,0,,0,NONE,0,0,0,0,0,0,0,0,0,0,0,2269.17,0,0,0,0,0,0,0,0,0,5.71,0,0,0,0,0,0,0,0,0,0,0,0,0,0,0,0,0,VALID,0,0,0,0,0,1,0,0,0,0,0,0,0,0,0,0,0,0,0,0,0.04,344.6,2,0,0.071,0.071,152,12.4,0.1,0.06,14.32,FLYING,CF1-J,0:/Integrated Flight Computer/aircraft/cf1_j_cfg.ks (inferred preloaded)
14.68,APPROACH,FLY_TO_FIX,186.96,81.69,-105.27,1957.64,2250.22,-52.78,-16.65,-1.06,31.68,7.234,0,0,-9.572,1,0.6,4.5,0.75,0.35,0.0168,0.4,28,28,28,105.223,1,33.6,5,0,0,-15.78,1.92,0,5,33.6,0,0,0,0,0,0,0,36.539,0,0,0,3,0,0,0,1946.43,0,0,0,0,0,0,,0,NONE,0,0,0,0,0,0,0,0,0,0,0,2250.22,0,0,0,0,0,0,0,0,0,5.71,0,0,0,0,0,0,0,0,0,0,0,0,0,0,0,0,0,VALID,0,0,0,0,0,1,0,0,0,0,0,0,0,0,0,0,0,0,0,0,0.04,345.46,2,0,0.124,0.124,155,8.36,0.124,0.071,14.68,FLYING,CF1-J,0:/Integrated Flight Computer/aircraft/cf1_j_cfg.ks (inferred preloaded)
14.94,APPROACH,FLY_TO_FIX,187.35,81.9,-105.45,1940.92,2236.65,-52.74,-16.63,-1.07,31.8,6.814,0,0,-9.477,1,0.6,4.5,0.75,0.35,0.0168,0.4,28,28,28,105.403,1,33.62,5,0,0,-15.73,1.82,0,5,33.61,0,0,0,0,0,0,0,36.51,0,0,0,3,0,0,0,1944.93,0,0,0,0,0,0,,0,NONE,0,0,0,0,0,0,0,0,0,0,0,2236.65,0,0,0,0,0,0,0,0,0,5.71,0,0,0,0,0,0,0,0,0,0,0,0,0,0,0,0,0,VALID,0,0,0,0,0,1,0,0,0,0,0,0,0,0,0,0,0,0,0,0,0.04,346.08,2,0,0.129,0.129,157,7.77,0.129,0.124,14.94,FLYING,CF1-J,0:/Integrated Flight Computer/aircraft/cf1_j_cfg.ks (inferred preloaded)
15.21,APPROACH,FLY_TO_FIX,187.75,82.11,-105.64,1922.89,2222.53,-52.69,-16.61,-1.09,31.91,6.401,0,0,-9.382,1,0.6,4.5,0.75,0.35,0.0168,0.4,28,28,28,105.589,1,33.63,5,0,0,-15.69,1.71,0,5,33.63,0,0,0,0,0,0,0,36.481,0,0,0,3,0,0,0,1943.37,0,0,0,0,0,0,,0,NONE,0,0,0,0,0,0,0,0,0,0,0,2222.53,0,0,0,0,0,0,0,0,0,5.71,0,0,0,0,0,0,0,0,0,0,0,0,0,0,0,0,0,VALID,0,0,0,0,0,1,0,0,0,0,0,0,0,0,0,0,0,0,0,0,0.03,346.73,2,0,0.134,0.134,159,7.47,0.134,0.129,15.21,FLYING,CF1-J,0:/Integrated Flight Computer/aircraft/cf1_j_cfg.ks (inferred preloaded)
15.48,APPROACH,FLY_TO_FIX,188.16,82.33,-105.83,1905.87,2207.9,-52.64,-16.59,-1.1,32.03,6,0,0,-9.289,1,0.6,4.5,0.75,0.35,0.0168,0.4,28,28,28,105.78,1,33.64,5,0,0,-15.64,1.61,0,5,33.64,0,0,0,0,0,0,0,36.45,0,0,0,3,0,0,0,1941.74,0,0,0,0,0,0,,0,NONE,0,0,0,0,0,0,0,0,0,0,0,2207.9,0,0,0,0,0,0,0,0,0,5.71,0,0,0,0,0,0,0,0,0,0,0,0,0,0,0,0,0,VALID,0,0,0,0,0,1,0,0,0,0,0,0,0,0,0,0,0,0,0,0,0,347.41,2,0,0.139,0.139,161,7.2,0.139,0.134,15.48,FLYING,CF1-J,0:/Integrated Flight Computer/aircraft/cf1_j_cfg.ks (inferred preloaded)
15.76,APPROACH,FLY_TO_FIX,188.58,82.56,-106.03,1888.41,2193.17,-52.6,-16.58,-1.11,32.14,5.609,0,0,-9.196,1,0.6,4.5,0.75,0.35,0.0168,0.4,28,28,28,105.973,1,33.66,5,0,0,-15.6,1.51,0,5,33.65,0,0,0,0,0,0,0,36.418,0,0,0,3,0,0,0,1940.1,0,0,0,0,0,0,,0,NONE,0,0,0,0,0,0,0,0,0,0,0,2193.17,0,0,0,0,0,0,0,0,0,5.71,0,0,0,0,0,0,0,0,0,0,0,0,0,0,0,0,0,VALID,0,0,0,0,0,1,0,0,0,0,0,0,0,0,0,0,0,0,0,0,0,348.09,2,0,0.14,0.14,163,7.14,0.14,0.139,15.76,FLYING,CF1-J,0:/Integrated Flight Computer/aircraft/cf1_j_cfg.ks (inferred preloaded)
16.04,APPROACH,FLY_TO_FIX,189,82.78,-106.22,1871.95,2178.44,-52.57,-16.56,-1.12,32.25,5.237,0,0,-9.104,1,0.6,4.5,0.75,0.35,0.0168,0.4,28,28,28,106.166,1,33.67,5,0,0,-15.55,1.42,0,5,33.67,0,0,0,0,0,0,0,36.387,0,0,0,3,0,0,0,1938.45,0,0,0,0,0,0,,0,NONE,0,0,0,0,0,0,0,0,0,0,0,2178.44,0,0,0,0,0,0,0,0,0,5.71,0,0,0,0,0,0,0,0,0,0,0,0,0,0,0,0,0,VALID,0,0,0,0,0,1,0,0,0,0,0,0,0,0,0,0,0,0,0,0,0,348.78,2,0,0.14,0.14,165,7.14,0.14,0.14,16.04,FLYING,CF1-J,0:/Integrated Flight Computer/aircraft/cf1_j_cfg.ks (inferred preloaded)
16.32,APPROACH,FLY_TO_FIX,189.41,83,-106.41,1856.92,2163.73,-52.53,-16.55,-1.14,32.35,4.887,0,0,-9.014,1,0.6,4.5,0.75,0.35,0.0168,0.4,28,28,28,106.357,1,33.68,5,0,0,-15.51,1.33,0,5,33.68,0,0,0,0,0,0,0,36.355,0,0,0,3,0,0,0,1936.81,0,0,0,0,0,0,,0,NONE,0,0,0,0,0,0,0,0,0,0,0,2163.73,0,0,0,0,0,0,0,0,0,5.71,0,0,0,0,0,0,0,0,0,0,0,0,0,0,0,0,0,VALID,0,0,0,0,0,1,0,0,0,0,0,0,0,0,0,0,0,0,0,0,0,349.47,2,0,0.14,0.14,167,7.14,0.14,0.14,16.32,FLYING,CF1-J,0:/Integrated Flight Computer/aircraft/cf1_j_cfg.ks (inferred preloaded)
16.6,APPROACH,FLY_TO_FIX,189.82,83.23,-106.6,1843.88,2149.03,-52.51,-16.53,-1.15,32.45,4.563,0,0,-8.924,1,0.6,4.5,0.75,0.35,0.0168,0.4,28,28,28,106.544,1,33.69,5,0,0,-15.47,1.25,0,5,33.69,0,0,0,0,0,0,0,36.324,0,0,0,3,0,0,0,1935.17,0,0,0,0,0,0,,0,NONE,0,0,0,0,0,0,0,0,0,0,0,2149.03,0,0,0,0,0,0,0,0,0,5.71,0,0,0,0,0,0,0,0,0,0,0,0,0,0,0,0,0,VALID,0,0,0,0,0,1,0,0,0,0,0,0,0,0,0,0,0,0,0,0,0,350.16,2,0,0.14,0.14,169,7.14,0.14,0.14,16.6,FLYING,CF1-J,0:/Integrated Flight Computer/aircraft/cf1_j_cfg.ks (inferred preloaded)
16.88,APPROACH,FLY_TO_FIX,190.23,83.45,-106.78,1831.9,2134.33,-52.48,-16.52,-1.16,32.54,4.252,0,0,-8.835,1,0.6,4.5,0.75,0.35,0.0168,0.4,28,28,28,106.73,1,33.71,5,0,0,-15.43,1.17,0,5,33.7,0,0,0,0,0,0,0,36.293,0,0,0,3,0,0,0,1933.53,0,0,0,0,0,0,,0,NONE,0,0,0,0,0,0,0,0,0,0,0,2134.33,0,0,0,0,0,0,0,0,0,5.71,0,0,0,0,0,0,0,0,0,0,0,0,0,0,0,0,0,VALID,0,0,0,0,0,1,0,0,0,0,0,0,0,0,0,0,0,0,0,0,0,350.85,2,0,0.14,0.14,171,7.14,0.14,0.14,16.88,FLYING,CF1-J,0:/Integrated Flight Computer/aircraft/cf1_j_cfg.ks (inferred preloaded)
17.16,APPROACH,FLY_TO_FIX,190.64,83.68,-106.96,1821.28,2119.64,-52.46,-16.51,-1.17,32.62,3.952,0,0,-8.747,1,0.6,4.5,0.75,0.35,0.0168,0.4,28,28,28,106.913,1,33.72,5,0,0,-15.39,1.09,0,5,33.71,0,0,0,0,0,0,0,36.262,0,0,0,3,0,0,0,1931.89,0,0,0,0,0,0,,0,NONE,0,0,0,0,0,0,0,0,0,0,0,2119.64,0,0,0,0,0,0,0,0,0,5.71,0,0,0,0,0,0,0,0,0,0,0,0,0,0,0,0,0,VALID,0,0,0,0,0,1,0,0,0,0,0,0,0,0,0,0,0,0,0,0,0,351.54,2,0,0.14,0.14,173,7.14,0.14,0.14,17.16,FLYING,CF1-J,0:/Integrated Flight Computer/aircraft/cf1_j_cfg.ks (inferred preloaded)
17.44,APPROACH,FLY_TO_FIX,191.04,83.9,-107.14,1811.61,2104.96,-52.44,-16.5,-1.18,32.71,3.672,0,0,-8.659,1,0.6,4.5,0.75,0.35,0.0168,0.4,28,28,28,107.094,1,33.73,5,0,0,-15.36,1.02,0,5,33.73,0,0,0,0,0,0,0,36.23,0,0,0,3,0,0,0,1930.25,0,0,0,0,0,0,,0,NONE,0,0,0,0,0,0,0,0,0,0,0,2104.96,0,0,0,0,0,0,0,0,0,5.71,0,0,0,0,0,0,0,0,0,0,0,0,0,0,0,0,0,VALID,0,0,0,0,0,1,0,0,0,0,0,0,0,0,0,0,0,0,0,0,0,352.24,2,0,0.14,0.14,175,7.14,0.14,0.14,17.44,FLYING,CF1-J,0:/Integrated Flight Computer/aircraft/cf1_j_cfg.ks (inferred preloaded)
17.72,APPROACH,FLY_TO_FIX,191.45,84.12,-107.32,1803.12,2090.28,-52.43,-16.49,-1.19,32.78,3.41,0,0,-8.573,1,0.6,4.5,0.75,0.35,0.0168,0.4,28,28,28,107.273,1,33.74,5,0,0,-15.32,0.96,0,5,33.74,0,0,0,0,0,0,0,36.199,0,0,0,3,0,0,0,1928.62,0,0,0,0,0,0,,0,NONE,0,0,0,0,0,0,0,0,0,0,0,2090.28,0,0,0,0,0,0,0,0,0,5.71,0,0,0,0,0,0,0,0,0,0,0,0,0,0,0,0,0,VALID,0,0,0,0,0,1,0,0,0,0,0,0,0,0,0,0,0,0,0,0,0,352.94,2,0,0.14,0.14,177,7.14,0.14,0.14,17.72,FLYING,CF1-J,0:/Integrated Flight Computer/aircraft/cf1_j_cfg.ks (inferred preloaded)
18,APPROACH,FLY_TO_FIX,191.85,84.35,-107.5,1794.3,2075.6,-52.42,-16.48,-1.2,32.86,3.159,0,0,-8.487,1,0.6,4.5,0.75,0.35,0.0168,0.4,28,28,28,107.45,1,33.75,5,0,0,-15.29,0.9,0,5,33.75,0,0,0,0,0,0,0,36.168,0,0,0,3,0,0,0,1926.98,0,0,0,0,0,0,,0,NONE,0,0,0,0,0,0,0,0,0,0,0,2075.6,0,0,0,0,0,0,0,0,0,5.71,0,0,0,0,0,0,0,0,0,0,0,0,0,0,0,0,0,VALID,0,0,0,0,0,1,0,0,0,0,0,0,0,0,0,0,0,0,0,0,0,353.63,2,0,0.14,0.14,179,7.14,0.14,0.14,18,FLYING,CF1-J,0:/Integrated Flight Computer/aircraft/cf1_j_cfg.ks (inferred preloaded)
18.28,APPROACH,FLY_TO_FIX,192.25,84.57,-107.67,1784.45,2060.93,-52.41,-16.47,-1.21,32.93,2.925,0,0,-8.403,1,0.6,4.5,0.75,0.35,0.0168,0.4,28,28,28,107.625,1,33.76,5,0,0,-15.26,0.84,0,5,33.76,0,0,0,0,0,0,0,36.137,0,0,0,3,0,0,0,1925.35,0,0,0,0,0,0,,0,NONE,0,0,0,0,0,0,0,0,0,0,0,2060.93,0,0,0,0,0,0,0,0,0,5.71,0,0,0,0,0,0,0,0,0,0,0,0,0,0,0,0,0,VALID,0,0,0,0,0,1,0,0,0,0,0,0,0,0,0,0,0,0,0,0,0,354.34,2,0,0.14,0.14,181,7.14,0.14,0.14,18.28,FLYING,CF1-J,0:/Integrated Flight Computer/aircraft/cf1_j_cfg.ks (inferred preloaded)
18.56,APPROACH,FLY_TO_FIX,192.64,84.8,-107.85,1773.3,2046.25,-52.4,-16.46,-1.22,32.99,2.704,0,0,-8.319,1,0.6,4.5,0.75,0.35,0.0168,0.4,28,28,28,107.797,1,33.77,5,0,0,-15.23,0.78,0,5,33.77,0,0,0,0,0,0,0,36.106,0,0,0,3,0,0,0,1923.72,0,0,0,0,0,0,,0,NONE,0,0,0,0,0,0,0,0,0,0,0,2046.25,0,0,0,0,0,0,0,0,0,5.71,0,0,0,0,0,0,0,0,0,0,0,0,0,0,0,0,0,VALID,0,0,0,0,0,1,0,0,0,0,0,0,0,0,0,0,0,0,0,0,0,355.04,2,0,0.14,0.14,183,7.14,0.14,0.14,18.56,FLYING,CF1-J,0:/Integrated Flight Computer/aircraft/cf1_j_cfg.ks (inferred preloaded)
18.84,APPROACH,FLY_TO_FIX,193.04,85,-108.04,1765.7,2031.58,-52.4,-16.46,-1.23,33.05,2.494,0,0,-8.236,1,0.6,4.5,0.75,0.35,0.0168,0.4,28,28,28,107.987,1,33.78,5,0,0,-15.2,0.73,0,5,33.78,0,0,0,0,0,0,0,36.074,0,0,0,3,0,0,0,1922.08,0,0,0,0,0,0,,0,NONE,0,0,0,0,0,0,0,0,0,0,0,2031.58,0,0,0,0,0,0,0,0,0,5.71,0,0,0,0,0,0,0,0,0,0,0,0,0,0,0,0,0,VALID,0,0,0,0,0,1,0,0,0,0,0,0,0,0,0,0,0,0,0,0,0,355.74,2,0,0.14,0.14,185,7.14,0.14,0.14,18.84,FLYING,CF1-J,0:/Integrated Flight Computer/aircraft/cf1_j_cfg.ks (inferred preloaded)
19.12,APPROACH,FLY_TO_FIX,193.43,85,-108.43,1755.4,2016.91,-52.4,-16.45,-1.24,33.11,2.297,0,0,-8.154,1,0.6,4.5,0.75,0.35,0.0168,0.4,28,28,28,108.38,1,33.79,5,0,0,-15.17,0.68,0,5,33.79,0,0,0,0,0,0,0,36.043,0,0,0,3,0,0,0,1920.45,0,0,0,0,0,0,,0,NONE,0,0,0,0,0,0,0,0,0,0,0,2016.91,0,0,0,0,0,0,0,0,0,5.71,0,0,0,0,0,0,0,0,0,0,0,0,0,0,0,0,0,VALID,0,0,0,0,0,1,0,0,0,0,0,0,0,0,0,0,0,0,0,0,0,356.45,2,0,0.14,0.14,187,7.14,0.14,0.14,19.12,FLYING,CF1-J,0:/Integrated Flight Computer/aircraft/cf1_j_cfg.ks (inferred preloaded)
19.4,APPROACH,FLY_TO_FIX,193.82,85,-108.82,1745.21,2002.24,-52.4,-16.45,-1.24,33.17,2.112,0,0,-8.072,1,0.6,4.5,0.75,0.35,0.0168,0.4,28,28,28,108.771,1,33.8,5,0,0,-15.14,0.64,0,5,33.8,0,0,0,0,0,0,0,36.012,0,0,0,3,0,0,0,1918.82,0,0,0,0,0,0,,0,NONE,0,0,0,0,0,0,0,0,0,0,0,2002.24,0,0,0,0,0,0,0,0,0,5.71,0,0,0,0,0,0,0,0,0,0,0,0,0,0,0,0,0,VALID,0,0,0,0,0,1,0,0,0,0,0,0,0,0,0,0,0,0,0,0,0,357.16,2,0,0.14,0.14,189,7.14,0.14,0.14,19.4,FLYING,CF1-J,0:/Integrated Flight Computer/aircraft/cf1_j_cfg.ks (inferred preloaded)
19.68,APPROACH,FLY_TO_FIX,194.21,85,-109.21,1734.37,1987.57,-52.4,-16.44,-1.25,33.22,1.931,0,0,-7.992,1,0.6,4.5,0.75,0.35,0.0168,0.4,28,28,28,109.16,1,33.81,5,0,0,-15.11,0.59,0,5,33.81,0,0,0,0,0,0,0,35.981,0,0,0,3,0,0,0,1917.19,0,0,0,0,0,0,,0,NONE,0,0,0,0,0,0,0,0,0,0,0,1987.57,0,0,0,0,0,0,0,0,0,5.71,0,0,0,0,0,0,0,0,0,0,0,0,0,0,0,0,0,VALID,0,0,0,0,0,1,0,0,0,0,0,0,0,0,0,0,0,0,0,0,0,357.87,2,0,0.14,0.14,191,7.14,0.14,0.14,19.68,FLYING,CF1-J,0:/Integrated Flight Computer/aircraft/cf1_j_cfg.ks (inferred preloaded)
19.96,APPROACH,FLY_TO_FIX,194.59,85,-109.59,1720.15,1972.89,-52.41,-16.44,-1.26,33.27,1.723,0,0,-7.912,1,0.6,4.5,0.75,0.35,0.0168,0.4,28,28,28,109.546,1,33.82,5,0,0,-15.08,0.56,0,5,33.82,0,0,0,0,0,0,0,35.95,0,0,0,3,0,0,0,1915.56,0,0,0,0,0,0,,0,NONE,0,0,0,0,0,0,0,0,0,0,0,1972.89,0,0,0,0,0,0,0,0,0,5.71,0,0,0,0,0,0,0,0,0,0,0,0,0,0,0,0,0,VALID,0,0,0,0,0,1,0,0,0,0,0,0,0,0,0,0,0,0,0,0,0,358.58,2,0,0.14,0.14,193,7.14,0.14,0.14,19.96,FLYING,CF1-J,0:/Integrated Flight Computer/aircraft/cf1_j_cfg.ks (inferred preloaded)
20.24,APPROACH,FLY_TO_FIX,194.98,85,-109.98,1707.86,1958.21,-52.42,-16.44,-1.27,33.31,1.503,0,0,-7.833,1,0.6,4.5,0.75,0.35,0.0168,0.4,28,28,28,109.931,1,33.83,5,0,0,-15.06,0.52,0,5,33.83,0,0,0,0,0,0,0,35.919,0,0,0,3,0,0,0,1913.93,0,0,0,0,0,0,,0,NONE,0,0,0,0,0,0,0,0,0,0,0,1958.21,0,0,0,0,0,0,0,0,0,5.71,0,0,0,0,0,0,0,0,0,0,0,0,0,0,0,0,0,VALID,0,0,0,0,0,1,0,0,0,0,0,0,0,0,0,0,0,0,0,0,0,359.3,2,0,0.14,0.14,195,7.14,0.14,0.14,20.24,FLYING,CF1-J,0:/Integrated Flight Computer/aircraft/cf1_j_cfg.ks (inferred preloaded)
20.52,APPROACH,FLY_TO_FIX,195.36,85,-110.36,1694.38,1943.53,-52.44,-16.43,-1.28,33.35,1.292,0,0,-7.755,1,0.6,4.5,0.75,0.35,0.0168,0.4,28,28,28,110.315,1,33.84,5,0,0,-15.03,0.49,0,5,33.84,0,0,0,0,0,0,0,35.888,0,0,0,3,0,0,0,1912.3,0,0,0,0,0,0,,0,NONE,0,0,0,0,0,0,0,0,0,0,0,1943.53,0,0,0,0,0,0,0,0,0,5.71,0,0,0,0,0,0,0,0,0,0,0,0,0,0,0,0,0,VALID,0,0,0,0,0,1,0,0,0,0,0,0,0,0,0,0,0,0,0,0,0,360.02,2,0,0.14,0.14,197,7.14,0.14,0.14,20.52,FLYING,CF1-J,0:/Integrated Flight Computer/aircraft/cf1_j_cfg.ks (inferred preloaded)
20.8,APPROACH,FLY_TO_FIX,195.74,85,-110.74,1678.48,1928.85,-52.46,-16.43,-1.29,33.39,1.094,0,0,-7.678,1,0.6,4.5,0.75,0.35,0.0168,0.4,28,28,28,110.697,1,33.85,5,0,0,-15.01,0.46,0,5,33.85,0,0,0,0,0,0,0,35.857,0,0,0,3,0,0,0,1910.67,0,0,0,0,0,0,,0,NONE,0,0,0,0,0,0,0,0,0,0,0,1928.85,0,0,0,0,0,0,0,0,0,5.71,0,0,0,0,0,0,0,0,0,0,0,0,0,0,0,0,0,VALID,0,0,0,0,0,1,0,0,0,0,0,0,0,0,0,0,0,0,0,0,0,360.74,2,0,0.14,0.14,199,7.14,0.14,0.14,20.8,FLYING,CF1-J,0:/Integrated Flight Computer/aircraft/cf1_j_cfg.ks (inferred preloaded)
21.08,APPROACH,FLY_TO_FIX,196.12,85,-111.12,1662.68,1914.16,-52.47,-16.43,-1.3,33.43,0.916,0,0,-7.601,1,0.6,4.5,0.75,0.35,0.0168,0.4,28,28,28,111.077,1,33.86,5,0,0,-14.98,0.43,0,5,33.86,0,0,0,0,0,0,0,35.826,0,0,0,3,0,0,0,1909.04,0,0,0,0,0,0,,0,NONE,0,0,0,0,0,0,0,0,0,0,0,1914.16,0,0,0,0,0,0,0,0,0,5.71,0,0,0,0,0,0,0,0,0,0,0,0,0,0,0,0,0,VALID,0,0,0,0,0,1,0,0,0,0,0,0,0,0,0,0,0,0,0,0,0,361.46,2,0,0.14,0.14,201,7.14,0.14,0.14,21.08,FLYING,CF1-J,0:/Integrated Flight Computer/aircraft/cf1_j_cfg.ks (inferred preloaded)
21.36,APPROACH,FLY_TO_FIX,196.5,85,-111.5,1647.65,1899.46,-52.5,-16.43,-1.3,33.47,0.755,0,0,-7.525,1,0.6,4.5,0.75,0.35,0.0168,0.4,28,28,28,111.456,1,33.87,5,0,0,-14.96,0.4,0,5,33.87,0,0,0,0,0,0,0,35.794,0,0,0,3,0,0,0,1907.4,0,0,0,0,0,0,,0,NONE,0,0,0,0,0,0,0,0,0,0,0,1899.46,0,0,0,0,0,0,0,0,0,5.71,0,0,0,0,0,0,0,0,0,0,0,0,0,0,0,0,0,VALID,0,0,0,0,0,1,0,0,0,0,0,0,0,0,0,0,0,0,0,0,0,362.18,2,0,0.14,0.14,203,7.14,0.14,0.14,21.36,FLYING,CF1-J,0:/Integrated Flight Computer/aircraft/cf1_j_cfg.ks (inferred preloaded)
21.64,APPROACH,FLY_TO_FIX,196.88,85,-111.88,1632.91,1884.76,-52.52,-16.43,-1.31,33.5,0.612,0,0,-7.45,1,0.6,4.5,0.75,0.35,0.0168,0.4,28,28,28,111.833,1,33.88,5,0,0,-14.94,0.38,0,5,33.88,0,0,0,0,0,0,0,35.763,0,0,0,3,0,0,0,1905.77,0,0,0,0,0,0,,0,NONE,0,0,0,0,0,0,0,0,0,0,0,1884.76,0,0,0,0,0,0,0,0,0,5.71,0,0,0,0,0,0,0,0,0,0,0,0,0,0,0,0,0,VALID,0,0,0,0,0,1,0,0,0,0,0,0,0,0,0,0,0,0,0,0,0,362.91,2,0,0.14,0.14,205,7.14,0.14,0.14,21.64,FLYING,CF1-J,0:/Integrated Flight Computer/aircraft/cf1_j_cfg.ks (inferred preloaded)
21.92,APPROACH,FLY_TO_FIX,197.26,85,-112.26,1616.88,1870.05,-52.54,-16.43,-1.32,33.53,0.487,0,0,-7.376,1,0.6,4.5,0.75,0.35,0.0168,0.4,28,28,28,112.208,1,33.89,5,0,0,-14.92,0.36,0,5,33.89,0,0,0,0,0,0,0,35.732,0,0,0,3,0,0,0,1904.14,0,0,0,0,0,0,,0,NONE,0,0,0,0,0,0,0,0,0,0,0,1870.05,0,0,0,0,0,0,0,0,0,5.71,0,0,0,0,0,0,0,0,0,0,0,0,0,0,0,0,0,VALID,0,0,0,0,0,1,0,0,0,0,0,0,0,0,0,0,0,0,0,0,0,363.64,2,0,0.14,0.14,207,7.14,0.14,0.14,21.92,FLYING,CF1-J,0:/Integrated Flight Computer/aircraft/cf1_j_cfg.ks (inferred preloaded)
22.2,APPROACH,FLY_TO_FIX,197.63,85,-112.63,1603.67,1855.33,-52.56,-16.43,-1.32,33.56,0.376,0,0,-7.302,1,0.6,4.5,0.75,0.35,0.0168,0.4,28,28,28,112.582,1,33.9,5,0,0,-14.9,0.34,0,5,33.9,0,0,0,0,0,0,0,35.701,0,0,0,3,0,0,0,1902.51,0,0,0,0,0,0,,0,NONE,0,0,0,0,0,0,0,0,0,0,0,1855.33,0,0,0,0,0,0,0,0,0,5.71,0,0,0,0,0,0,0,0,0,0,0,0,0,0,0,0,0,VALID,0,0,0,0,0,1,0,0,0,0,0,0,0,0,0,0,0,0,0,0,0,364.37,2,0,0.14,0.14,209,7.14,0.14,0.14,22.2,FLYING,CF1-J,0:/Integrated Flight Computer/aircraft/cf1_j_cfg.ks (inferred preloaded)
22.48,APPROACH,FLY_TO_FIX,198,85,-113,1591.03,1840.61,-52.59,-16.43,-1.33,33.59,0.281,0,0,-7.23,1,0.6,4.5,0.75,0.35,0.0168,0.4,28,28,28,112.955,1,33.91,5,0,0,-14.88,0.32,0,5,33.91,0,0,0,0,0,0,0,35.67,0,0,0,3,0,0,0,1900.88,0,0,0,0,0,0,,0,NONE,0,0,0,0,0,0,0,0,0,0,0,1840.61,0,0,0,0,0,0,0,0,0,5.71,0,0,0,0,0,0,0,0,0,0,0,0,0,0,0,0,0,VALID,0,0,0,0,0,1,0,0,0,0,0,0,0,0,0,0,0,0,0,0,0,365.1,2,0,0.14,0.14,211,7.14,0.14,0.14,22.48,FLYING,CF1-J,0:/Integrated Flight Computer/aircraft/cf1_j_cfg.ks (inferred preloaded)
22.76,APPROACH,FLY_TO_FIX,198.37,85,-113.37,1580.9,1825.88,-52.61,-16.44,-1.34,33.62,0.194,0,0,-7.158,1,0.6,4.5,0.75,0.35,0.0168,0.4,28,28,28,113.326,1,33.92,5,0,0,-14.86,0.3,0,5,33.92,0,0,0,0,0,0,0,35.639,0,0,0,3,0,0,0,1899.25,0,0,0,0,0,0,,0,NONE,0,0,0,0,0,0,0,0,0,0,0,1825.88,0,0,0,0,0,0,0,0,0,5.71,0,0,0,0,0,0,0,0,0,0,0,0,0,0,0,0,0,VALID,0,0,0,0,0,1,0,0,0,0,0,0,0,0,0,0,0,0,0,0,0,365.84,2,0,0.14,0.14,213,7.14,0.14,0.14,22.76,FLYING,CF1-J,0:/Integrated Flight Computer/aircraft/cf1_j_cfg.ks (inferred preloaded)
23.04,APPROACH,FLY_TO_FIX,198.74,85,-113.74,1570.23,1811.15,-52.64,-16.44,-1.34,33.64,0.121,0,0,-7.086,1,0.6,4.5,0.75,0.35,0.0168,0.4,28,28,28,113.695,1,33.93,5,0,0,-14.84,0.28,0,5,33.93,0,0,0,0,0,0,0,35.608,0,0,0,3,0,0,0,1897.62,0,0,0,0,0,0,,0,NONE,0,0,0,0,0,0,0,0,0,0,0,1811.15,0,0,0,0,0,0,0,0,0,5.71,0,0,0,0,0,0,0,0,0,0,0,0,0,0,0,0,0,VALID,0,0,0,0,0,1,0,0,0,0,0,0,0,0,0,0,0,0,0,0,0,366.58,2,0,0.14,0.14,215,7.14,0.14,0.14,23.04,FLYING,CF1-J,0:/Integrated Flight Computer/aircraft/cf1_j_cfg.ks (inferred preloaded)
23.32,APPROACH,FLY_TO_FIX,199.11,85,-114.11,1558.09,1796.4,-52.66,-16.43,-1.35,33.67,0.055,0,0,-7.015,1,0.6,4.5,0.75,0.35,0.0168,0.4,28,28,28,114.063,1,33.94,5,0,0,-14.82,0.27,0,5,33.93,0,0,0,0,0,0,0,35.576,0,0,0,3,0,0,0,1895.98,0,0,0,0,0,0,,0,NONE,0,0,0,0,0,0,0,0,0,0,0,1796.4,0,0,0,0,0,0,0,0,0,5.71,0,0,0,0,0,0,0,0,0,0,0,0,0,0,0,0,0,VALID,0,0,0,0,0,1,0,0,0,0,0,0,0,0,0,0,0,0,0,0,0,367.32,2,0,0.14,0.14,217,7.14,0.14,0.14,23.32,FLYING,CF1-J,0:/Integrated Flight Computer/aircraft/cf1_j_cfg.ks (inferred preloaded)
23.6,APPROACH,FLY_TO_FIX,199.48,85,-114.48,1545.79,1781.65,-52.69,-16.44,-1.36,33.69,-0.003,0,0,-6.945,1,0.6,4.5,0.75,0.35,0.0168,0.4,28,28,28,114.43,1,33.94,5,0,0,-14.8,0.26,0,5,33.94,0,0,0,0,0,0,0,35.545,0,0,0,3,0,0,0,1894.35,0,0,0,0,0,0,,0,NONE,0,0,0,0,0,0,0,0,0,0,0,1781.65,0,0,0,0,0,0,0,0,0,5.71,0,0,0,0,0,0,0,0,0,0,0,0,0,0,0,0,0,VALID,0,0,0,0,0,1,0,0,0,0,0,0,0,0,0,0,0,0,0,0,0,368.07,2,0,0.14,0.14,219,7.14,0.14,0.14,23.6,FLYING,CF1-J,0:/Integrated Flight Computer/aircraft/cf1_j_cfg.ks (inferred preloaded)
23.88,APPROACH,FLY_TO_FIX,199.84,85,-114.84,1532.07,1766.89,-52.72,-16.44,-1.36,33.71,-0.056,0,0,-6.876,1,0.6,4.5,0.75,0.35,0.0168,0.4,28,28,28,114.795,1,33.95,5,0,0,-14.78,0.24,0,5,33.95,0,0,0,0,0,0,0,35.514,0,0,0,3,0,0,0,1892.72,0,0,0,0,0,0,,0,NONE,0,0,0,0,0,0,0,0,0,0,0,1766.89,0,0,0,0,0,0,0,0,0,5.71,0,0,0,0,0,0,0,0,0,0,0,0,0,0,0,0,0,VALID,0,0,0,0,0,1,0,0,0,0,0,0,0,0,0,0,0,0,0,0,0,368.81,2,0,0.14,0.14,221,7.14,0.14,0.14,23.88,FLYING,CF1-J,0:/Integrated Flight Computer/aircraft/cf1_j_cfg.ks (inferred preloaded)
24.16,APPROACH,FLY_TO_FIX,200.2,85,-115.2,1515.93,1752.13,-52.74,-16.44,-1.37,33.73,-0.103,0,0,-6.808,1,0.6,4.5,0.75,0.35,0.0168,0.4,28,28,28,115.158,1,33.96,5,0,0,-14.76,0.23,0,5,33.96,0,0,0,0,0,0,0,35.483,0,0,0,3,0,0,0,1891.08,0,0,0,0,0,0,,0,NONE,0,0,0,0,0,0,0,0,0,0,0,1752.13,0,0,0,0,0,0,0,0,0,5.71,0,0,0,0,0,0,0,0,0,0,0,0,0,0,0,0,0,VALID,0,0,0,0,0,1,0,0,0,0,0,0,0,0,0,0,0,0,0,0,0,369.56,2,0,0.14,0.14,223,7.14,0.14,0.14,24.16,FLYING,CF1-J,0:/Integrated Flight Computer/aircraft/cf1_j_cfg.ks (inferred preloaded)
24.44,APPROACH,FLY_TO_FIX,200.57,85,-115.57,1499.23,1737.35,-52.78,-16.44,-1.37,33.75,-0.141,0,0,-6.74,1,0.6,4.5,0.75,0.35,0.0168,0.4,28,28,28,115.52,1,33.97,5,0,0,-14.75,0.22,0,5,33.97,0,0,0,0,0,0,0,35.452,0,0,0,3,0,0,0,1889.45,0,0,0,0,0,0,,0,NONE,0,0,0,0,0,0,0,0,0,0,0,1737.35,0,0,0,0,0,0,0,0,0,5.71,0,0,0,0,0,0,0,0,0,0,0,0,0,0,0,0,0,VALID,0,0,0,0,0,1,0,0,0,0,0,0,0,0,0,0,0,0,0,0,0,370.31,2,0,0.14,0.14,225,7.14,0.14,0.14,24.44,FLYING,CF1-J,0:/Integrated Flight Computer/aircraft/cf1_j_cfg.ks (inferred preloaded)
24.72,APPROACH,FLY_TO_FIX,200.93,85,-115.93,1484.53,1722.57,-52.8,-16.45,-1.38,33.77,-0.18,0,0,-6.672,1,0.6,4.5,0.75,0.35,0.0168,0.4,28,28,28,115.881,1,33.98,5,0,0,-14.73,0.21,0,5,33.98,0,0,0,0,0,0,0,35.421,0,0,0,3,0,0,0,1887.81,0,0,0,0,0,0,,0,NONE,0,0,0,0,0,0,0,0,0,0,0,1722.57,0,0,0,0,0,0,0,0,0,5.71,0,0,0,0,0,0,0,0,0,0,0,0,0,0,0,0,0,VALID,0,0,0,0,0,1,0,0,0,0,0,0,0,0,0,0,0,0,0,0,0,371.07,2,0,0.14,0.14,227,7.14,0.14,0.14,24.72,FLYING,CF1-J,0:/Integrated Flight Computer/aircraft/cf1_j_cfg.ks (inferred preloaded)
25,APPROACH,FLY_TO_FIX,201.28,85,-116.28,1469.13,1707.78,-52.83,-16.45,-1.38,33.78,-0.215,0,0,-6.606,1,0.6,4.5,0.75,0.35,0.0168,0.4,28,28,28,116.24,1,33.99,5,0,0,-14.71,0.21,0,5,33.99,0,0,0,0,0,0,0,35.389,0,0,0,3,0,0,0,1886.18,0,0,0,0,0,0,,0,NONE,0,0,0,0,0,0,0,0,0,0,0,1707.78,0,0,0,0,0,0,0,0,0,5.71,0,0,0,0,0,0,0,0,0,0,0,0,0,0,0,0,0,VALID,0,0,0,0,0,1,0,0,0,0,0,0,0,0,0,0,0,0,0,0,0,371.83,2,0,0.14,0.14,229,7.14,0.14,0.14,25,FLYING,CF1-J,0:/Integrated Flight Computer/aircraft/cf1_j_cfg.ks (inferred preloaded)
25.28,APPROACH,FLY_TO_FIX,201.64,85,-116.64,1452.34,1692.98,-52.85,-16.45,-1.39,33.8,-0.243,0,0,-6.54,1,0.6,4.5,0.75,0.35,0.0168,0.4,28,28,28,116.597,1,34,5,0,0,-14.69,0.2,0,5,34,0,0,0,0,0,0,0,35.358,0,0,0,3,0,0,0,1884.54,0,0,0,0,0,0,,0,NONE,0,0,0,0,0,0,0,0,0,0,0,1692.98,0,0,0,0,0,0,0,0,0,5.71,0,0,0,0,0,0,0,0,0,0,0,0,0,0,0,0,0,VALID,0,0,0,0,0,1,0,0,0,0,0,0,0,0,0,0,0,0,0,0,0,372.58,2,0,0.14,0.14,231,7.14,0.14,0.14,25.28,FLYING,CF1-J,0:/Integrated Flight Computer/aircraft/cf1_j_cfg.ks (inferred preloaded)
25.56,APPROACH,FLY_TO_FIX,202,85,-117,1437.54,1678.18,-52.88,-16.45,-1.39,33.82,-0.27,0,0,-6.475,1,0.6,4.5,0.75,0.35,0.0168,0.4,28,28,28,116.953,1,34.01,5,0,0,-14.67,0.19,0,5,34.01,0,0,0,0,0,0,0,35.327,0,0,0,3,0,0,0,1882.91,0,0,0,0,0,0,,0,NONE,0,0,0,0,0,0,0,0,0,0,0,1678.18,0,0,0,0,0,0,0,0,0,5.71,0,0,0,0,0,0,0,0,0,0,0,0,0,0,0,0,0,VALID,0,0,0,0,0,1,0,0,0,0,0,0,0,0,0,0,0,0,0,0,0,373.35,2,0,0.14,0.14,233,7.14,0.14,0.14,25.56,FLYING,CF1-J,0:/Integrated Flight Computer/aircraft/cf1_j_cfg.ks (inferred preloaded)
25.84,APPROACH,FLY_TO_FIX,202.35,85,-117.35,1422.41,1663.37,-52.91,-16.45,-1.4,33.83,-0.294,0,0,-6.41,1,0.6,4.5,0.75,0.35,0.0168,0.4,28,28,28,117.308,1,34.02,5,0,0,-14.66,0.18,0,5,34.01,0,0,0,0,0,0,0,35.296,0,0,0,3,0,0,0,1881.27,0,0,0,0,0,0,,0,NONE,0,0,0,0,0,0,0,0,0,0,0,1663.37,0,0,0,0,0,0,0,0,0,5.71,0,0,0,0,0,0,0,0,0,0,0,0,0,0,0,0,0,VALID,0,0,0,0,0,1,0,0,0,0,0,0,0,0,0,0,0,0,0,0,0,374.11,2,0,0.14,0.14,235,7.14,0.14,0.14,25.84,FLYING,CF1-J,0:/Integrated Flight Computer/aircraft/cf1_j_cfg.ks (inferred preloaded)
26.12,APPROACH,FLY_TO_FIX,202.71,85,-117.71,1409.17,1648.55,-52.94,-16.45,-1.41,33.85,-0.318,0,0,-6.346,1,0.6,4.5,0.75,0.35,0.0168,0.4,28,28,28,117.661,1,34.02,5,0,0,-14.64,0.18,0,5,34.02,0,0,0,0,0,0,0,35.265,0,0,0,3,0,0,0,1879.64,0,0,0,0,0,0,,0,NONE,0,0,0,0,0,0,0,0,0,0,0,1648.55,0,0,0,0,0,0,0,0,0,5.71,0,0,0,0,0,0,0,0,0,0,0,0,0,0,0,0,0,VALID,0,0,0,0,0,1,0,0,0,0,0,0,0,0,0,0,0,0,0,0,0,374.88,2,0,0.14,0.14,237,7.14,0.14,0.14,26.12,FLYING,CF1-J,0:/Integrated Flight Computer/aircraft/cf1_j_cfg.ks (inferred preloaded)
26.4,APPROACH,FLY_TO_FIX,203.06,85,-118.06,1392.89,1633.72,-52.97,-16.46,-1.41,33.86,-0.338,0,0,-6.283,1,0.6,4.5,0.75,0.35,0.0168,0.4,28,28,28,118.013,1,34.03,5,0,0,-14.62,0.17,0,5,34.03,0,0,0,0,0,0,0,35.233,0,0,0,3,0,0,0,1878,0,0,0,0,0,0,,0,NONE,0,0,0,0,0,0,0,0,0,0,0,1633.72,0,0,0,0,0,0,0,0,0,5.71,0,0,0,0,0,0,0,0,0,0,0,0,0,0,0,0,0,VALID,0,0,0,0,0,1,0,0,0,0,0,0,0,0,0,0,0,0,0,0,0,375.65,2,0,0.14,0.14,239,7.14,0.14,0.14,26.4,FLYING,CF1-J,0:/Integrated Flight Computer/aircraft/cf1_j_cfg.ks (inferred preloaded)
26.68,APPROACH,FLY_TO_FIX,203.41,85,-118.41,1376.01,1618.89,-52.99,-16.46,-1.42,33.88,-0.356,0,0,-6.22,1,0.6,4.5,0.75,0.35,0.0168,0.4,28,28,28,118.363,1,34.04,5,0,0,-14.61,0.16,0,5,34.04,0,0,0,0,0,0,0,35.202,0,0,0,3,0,0,0,1876.36,0,0,0,0,0,0,,0,NONE,0,0,0,0,0,0,0,0,0,0,0,1618.89,0,0,0,0,0,0,0,0,0,5.71,0,0,0,0,0,0,0,0,0,0,0,0,0,0,0,0,0,VALID,0,0,0,0,0,1,0,0,0,0,0,0,0,0,0,0,0,0,0,0,0,376.42,2,0,0.14,0.14,241,7.14,0.14,0.14,26.68,FLYING,CF1-J,0:/Integrated Flight Computer/aircraft/cf1_j_cfg.ks (inferred preloaded)
26.96,APPROACH,FLY_TO_FIX,203.76,85,-118.76,1359.78,1604.04,-53.02,-16.46,-1.42,33.89,-0.373,0,0,-6.158,1,0.6,4.5,0.75,0.35,0.0168,0.4,28,28,28,118.712,1,34.05,5,0,0,-14.59,0.16,0,5,34.05,0,0,0,0,0,0,0,35.171,0,0,0,3,0,0,0,1874.72,0,0,0,0,0,0,,0,NONE,0,0,0,0,0,0,0,0,0,0,0,1604.04,0,0,0,0,0,0,0,0,0,5.71,0,0,0,0,0,0,0,0,0,0,0,0,0,0,0,0,0,VALID,0,0,0,0,0,1,0,0,0,0,0,0,0,0,0,0,0,0,0,0,0,377.2,2,0,0.14,0.14,243,7.14,0.14,0.14,26.96,FLYING,CF1-J,0:/Integrated Flight Computer/aircraft/cf1_j_cfg.ks (inferred preloaded)
27.24,APPROACH,FLY_TO_FIX,204.1,85,-119.1,1343.56,1589.19,-53.05,-16.47,-1.43,33.91,-0.393,0,0,-6.097,1,0.6,4.5,0.75,0.35,0.0168,0.4,28,28,28,119.06,1,34.06,5,0,0,-14.57,0.15,0,5,34.06,0,0,0,0,0,0,0,35.14,0,0,0,3,0,0,0,1873.08,0,0,0,0,0,0,,0,NONE,0,0,0,0,0,0,0,0,0,0,0,1589.19,0,0,0,0,0,0,0,0,0,5.71,0,0,0,0,0,0,0,0,0,0,0,0,0,0,0,0,0,VALID,0,0,0,0,0,1,0,0,0,0,0,0,0,0,0,0,0,0,0,0,0,377.98,2,0,0.14,0.14,245,7.14,0.14,0.14,27.24,FLYING,CF1-J,0:/Integrated Flight Computer/aircraft/cf1_j_cfg.ks (inferred preloaded)
27.52,APPROACH,FLY_TO_FIX,204.45,85,-119.45,1326.99,1574.33,-53.08,-16.47,-1.43,33.92,-0.411,0,0,-6.036,1,0.6,4.5,0.75,0.35,0.0168,0.4,28,28,28,119.406,1,34.07,5,0,0,-14.56,0.15,0,5,34.07,0,0,0,0,0,0,0,35.108,0,0,0,3,0,0,0,1871.45,0,0,0,0,0,0,,0,NONE,0,0,0,0,0,0,0,0,0,0,0,1574.33,0,0,0,0,0,0,0,0,0,5.71,0,0,0,0,0,0,0,0,0,0,0,0,0,0,0,0,0,VALID,0,0,0,0,0,1,0,0,0,0,0,0,0,0,0,0,0,0,0,0,0,378.76,2,0,0.14,0.14,247,7.14,0.14,0.14,27.52,FLYING,CF1-J,0:/Integrated Flight Computer/aircraft/cf1_j_cfg.ks (inferred preloaded)
27.8,APPROACH,FLY_TO_FIX,204.79,85,-119.79,1309.38,1559.47,-53.1,-16.47,-1.44,33.93,-0.427,0,0,-5.976,1,0.6,4.5,0.75,0.35,0.0168,0.4,28,28,28,119.75,1,34.08,5,0,0,-14.54,0.14,0,5,34.08,0,0,0,0,0,0,0,35.077,0,0,0,3,0,0,0,1869.81,0,0,0,0,0,0,,0,NONE,0,0,0,0,0,0,0,0,0,0,0,1559.47,0,0,0,0,0,0,0,0,0,5.71,0,0,0,0,0,0,0,0,0,0,0,0,0,0,0,0,0,VALID,0,0,0,0,0,1,0,0,0,0,0,0,0,0,0,0,0,0,0,0,0,379.54,2,0,0.14,0.14,249,7.14,0.14,0.14,27.8,FLYING,CF1-J,0:/Integrated Flight Computer/aircraft/cf1_j_cfg.ks (inferred preloaded)
28.08,APPROACH,FLY_TO_FIX,205.14,85,-120.14,1292.47,1544.66,-53.16,-16.29,-1.05,33.94,-0.426,0,0,-5.916,1,0.6,4.5,0.75,0.35,0.0168,0.4,28,28,28,120.094,1,34.09,5,0,0,-14.56,0.14,0,5,34.09,0,0,0,0,0,0,0,35.046,0,0,0,3,0,0,0,1868.17,0,0,0,0,0,0,,0,NONE,0,0,0,0,0,0,0,0,0,0,0,1544.66,0,0,0,0,0,0,0,0,0,5.71,0,0,0,0,0,0,0,0,0,0,0,0,0,0,0,0,0,VALID,0,0,0,0,0,1,0,0,0,0,0,0,0,0,0,0,0,0,0,0,0,380.33,2,0,0.14,0.14,251,7.14,0.14,0.14,28.08,FLYING,CF1-J,0:/Integrated Flight Computer/aircraft/cf1_j_cfg.ks (inferred preloaded)
28.36,APPROACH,FLY_TO_FIX,205.45,85,-120.45,1276.84,1530.09,-51.75,-15.39,-0.65,33.95,-0.354,0,0,-5.857,1,0.6,4.5,0.75,0.35,0.0168,0.4,28,28,28,120.415,1,34.09,5,0,0,-14.24,0.14,0,5,34.09,0,0,0,0,0,0,0,35.014,0,0,0,3,0,0,0,1866.53,0,0,0,0,0,0,,0,NONE,0,0,0,0,0,0,0,0,0,0,0,1530.09,0,0,0,0,0,0,0,0,0,5.71,0,0,0,0,0,0,0,0,0,0,0,0,0,0,0,0,0,VALID,0,0,0,0,0,1,0,0,0,0,0,0,0,0,0,0,0,0,0,0,0,381.11,2,0,0.14,0.14,253,7.14,0.14,0.14,28.36,FLYING,CF1-J,0:/Integrated Flight Computer/aircraft/cf1_j_cfg.ks (inferred preloaded)
28.64,APPROACH,FLY_TO_FIX,205.69,85,-120.69,1260.49,1515.89,-50.35,-14.99,-0.68,33.97,-0.303,0,0,-5.799,1,0.6,4.5,0.75,0.35,0.0168,0.4,28,28,28,120.663,1,34.1,5,0,0,-13.85,0.14,0,5,34.1,0,0,0,0,0,0,0,34.983,0,0,0,3,0,0,0,1864.88,0,0,0,0,0,0,,0,NONE,0,0,0,0,0,0,0,0,0,0,0,1515.89,0,0,0,0,0,0,0,0,0,5.71,0,0,0,0,0,0,0,0,0,0,0,0,0,0,0,0,0,VALID,0,0,0,0,0,1,0,0,0,0,0,0,0,0,0,0,0,0,0,0,0,381.86,2,0,0.14,0.14,255,7.14,0.14,0.14,28.64,FLYING,CF1-J,0:/Integrated Flight Computer/aircraft/cf1_j_cfg.ks (inferred preloaded)
28.92,APPROACH,FLY_TO_FIX,205.9,85,-120.9,1243.2,1502.07,-48.94,-14.59,-0.67,33.98,-0.274,0,0,-5.741,1,0.6,4.5,0.75,0.35,0.0168,0.4,28,28,28,120.879,1,34.11,5,0,0,-13.47,0.13,0,5,34.11,0,0,0,0,0,0,0,34.952,0,0,0,3,0,0,0,1863.24,0,0,0,0,0,0,,0,NONE,0,0,0,0,0,0,0,0,0,0,0,1502.07,0,0,0,0,0,0,0,0,0,5.71,0,0,0,0,0,0,0,0,0,0,0,0,0,0,0,0,0,VALID,0,0,0,0,0,1,0,0,0,0,0,0,0,0,0,0,0,0,0,0,0,382.6,2,0,0.14,0.14,257,7.14,0.14,0.14,28.92,FLYING,CF1-J,0:/Integrated Flight Computer/aircraft/cf1_j_cfg.ks (inferred preloaded)
29.2,APPROACH,FLY_TO_FIX,206.09,85,-121.09,1228.22,1488.65,-47.53,-14.18,-0.67,33.99,-0.257,0,0,-5.684,1,0.6,4.5,0.75,0.35,0.0168,0.4,28,28,28,121.069,1,34.12,5,0,0,-13.08,0.13,0,5,34.12,0,0,0,0,0,0,0,34.92,0,0,0,3,0,0,0,1861.59,0,0,0,0,0,0,,0,NONE,0,0,0,0,0,0,0,0,0,0,0,1488.65,0,0,0,0,0,0,0,0,0,5.71,0,0,0,0,0,0,0,0,0,0,0,0,0,0,0,0,0,VALID,0,0,0,0,0,1,0,0,0,0,0,0,0,0,0,0,0,0,0,0,0,383.32,2,0,0.14,0.14,259,7.14,0.14,0.14,29.2,FLYING,CF1-J,0:/Integrated Flight Computer/aircraft/cf1_j_cfg.ks (inferred preloaded)
29.48,APPROACH,FLY_TO_FIX,206.25,85,-121.25,1213.32,1475.63,-46.11,-13.77,-0.67,34,-0.247,0,0,-5.627,1,0.6,4.5,0.75,0.35,0.0168,0.4,28,28,28,121.232,1,34.13,5,0,0,-12.7,0.13,0,5,34.13,0,0,0,0,0,0,0,34.889,0,0,0,3,0,0,0,1859.94,0,0,0,0,0,0,,0,NONE,0,0,0,0,0,0,0,0,0,0,0,1475.63,0,0,0,0,0,0,0,0,0,5.71,0,0,0,0,0,0,0,0,0,0,0,0,0,0,0,0,0,VALID,0,0,0,0,0,1,0,0,0,0,0,0,0,0,0,0,0,0,0,0,0,384.02,2,0,0.14,0.14,261,7.14,0.14,0.14,29.48,FLYING,CF1-J,0:/Integrated Flight Computer/aircraft/cf1_j_cfg.ks (inferred preloaded)
29.76,APPROACH,FLY_TO_FIX,206.38,85,-121.38,1198.09,1463.01,-44.68,-13.37,-0.67,34.02,-0.244,0,0,-5.571,1,0.6,4.5,0.75,0.35,0.0168,0.4,28,28,28,121.367,1,34.14,5,0,0,-12.31,0.12,0,5,34.14,0,0,0,0,0,0,0,34.857,0,0,0,3,0,0,0,1858.29,0,0,0,0,0,0,,0,NONE,0,0,0,0,0,0,0,0,0,0,0,1463.01,0,0,0,0,0,0,0,0,0,5.71,0,0,0,0,0,0,0,0,0,0,0,0,0,0,0,0,0,VALID,0,0,0,0,0,1,0,0,0,0,0,0,0,0,0,0,0,0,0,0,0,384.69,2,0,0.14,0.14,263,7.14,0.14,0.14,29.76,FLYING,CF1-J,0:/Integrated Flight Computer/aircraft/cf1_j_cfg.ks (inferred preloaded)
30.04,APPROACH,FLY_TO_FIX,206.49,85,-121.49,1192.63,1450.79,-43.23,-12.95,-0.67,34.03,-0.247,0,0,-5.515,1,0.6,4.5,0.75,0.35,0.0168,0.4,28,28,28,121.475,1,34.15,5,0,0,-11.92,0.12,0,5,34.15,0,0,0,0,0,0,0,34.826,0,0,0,3,0,0,0,1856.64,0,0,0,0,0,0,,0,NONE,0,0,0,0,0,0,0,0,0,0,0,1450.79,0,0,0,0,0,0,0,0,0,5.71,0,0,0,0,0,0,0,0,0,0,0,0,0,0,0,0,0,VALID,0,0,0,0,0,1,0,0,0,0,0,0,0,0,0,0,0,0,0,0,0,385.35,2,0,0.14,0.14,265,7.14,0.14,0.14,30.04,FLYING,CF1-J,0:/Integrated Flight Computer/aircraft/cf1_j_cfg.ks (inferred preloaded)
30.32,APPROACH,FLY_TO_FIX,206.56,85,-121.56,1184.96,1439.07,-41.73,-12.21,-0.13,34.04,-0.223,0,0,-5.46,1,0.6,4.5,0.75,0.35,0.0168,0.4,28,28,28,121.556,1,34.16,5,0,0,-11.57,0.12,0,5,34.16,0,0,0,0,0,0,0,34.794,0,0,0,3,0,0,0,1854.98,0,0,0,0,0,0,,0,NONE,0,0,0,0,0,0,0,0,0,0,0,1439.07,0,0,0,0,0,0,0,0,0,5.71,0,0,0,0,0,0,0,0,0,0,0,0,0,0,0,0,0,VALID,0,0,0,0,0,1,0,0,0,0,0,0,0,0,0,0,0,0,0,0,0,385.98,2,0,0.14,0.14,267,7.14,0.14,0.14,30.32,FLYING,CF1-J,0:/Integrated Flight Computer/aircraft/cf1_j_cfg.ks (inferred preloaded)
30.6,APPROACH,FLY_TO_FIX,206.55,85,-121.55,1175.83,1428.04,-38.53,-10.93,0.09,34.05,-0.171,0,0,-5.406,1,0.6,4.5,0.75,0.35,0.0168,0.4,28,28,28,121.558,1,34.16,5,0,0,-10.76,0.11,0,5,34.16,0,0,0,0,0,0,0,34.763,0,0,0,3,0,0,0,1853.33,0,0,0,0,0,0,,0,NONE,0,0,0,0,0,0,0,0,0,0,0,1428.04,0,0,0,0,0,0,0,0,0,5.71,0,0,0,0,0,0,0,0,0,0,0,0,0,0,0,0,0,VALID,0,0,0,0,0,1,0,0,0,0,0,0,0,0,0,0,0,0,0,0,0,386.58,2,0,0.14,0.14,269,7.14,0.14,0.14,30.6,FLYING,CF1-J,0:/Integrated Flight Computer/aircraft/cf1_j_cfg.ks (inferred preloaded)
30.88,APPROACH,FLY_TO_FIX,206.43,85,-121.43,1167.67,1417.78,-35.86,-10.32,-0.03,34.07,-0.14,0,0,-5.352,1,0.6,4.5,0.75,0.35,0.0168,0.4,28,28,28,121.444,1,34.17,5,0,0,-10.03,0.11,0,5,34.17,0,0,0,0,0,0,0,34.731,0,0,0,3,0,0,0,1851.67,0,0,0,0,0,0,,0,NONE,0,0,0,0,0,0,0,0,0,0,0,1417.78,0,0,0,0,0,0,0,0,0,5.71,0,0,0,0,0,0,0,0,0,0,0,0,0,0,0,0,0,VALID,0,0,0,0,0,1,0,0,0,0,0,0,0,0,0,0,0,0,0,0,0,387.13,2,0,0.14,0.14,271,7.14,0.14,0.14,30.88,FLYING,CF1-J,0:/Integrated Flight Computer/aircraft/cf1_j_cfg.ks (inferred preloaded)
31.16,APPROACH,FLY_TO_FIX,206.28,85,-121.28,1157.38,1408.24,-33.31,-9.69,-0.13,34.08,-0.126,0,0,-5.298,1,0.6,4.5,0.75,0.35,0.0168,0.4,28,28,28,121.302,1,34.18,5,0,0,-9.34,0.1,0,5,34.18,0,0,0,0,0,0,0,34.699,0,0,0,3,0,0,0,1850.01,0,0,0,0,0,0,,0,NONE,0,0,0,0,0,0,0,0,0,0,0,1408.24,0,0,0,0,0,0,0,0,0,5.71,0,0,0,0,0,0,0,0,0,0,0,0,0,0,0,0,0,VALID,0,0,0,0,0,1,0,0,0,0,0,0,0,0,0,0,0,0,0,0,0,387.64,2,0,0.14,0.14,273,7.14,0.14,0.14,31.16,FLYING,CF1-J,0:/Integrated Flight Computer/aircraft/cf1_j_cfg.ks (inferred preloaded)
31.44,APPROACH,FLY_TO_FIX,206.11,85,-121.11,1145.13,1399.37,-30.98,-9.12,-0.22,34.1,-0.117,0,0,-5.246,1,0.6,4.5,0.75,0.35,0.0168,0.4,28,28,28,121.13,1,34.19,5,0,0,-8.7,0.09,0,5,34.19,0,0,0,0,0,0,0,34.668,0,0,0,3,0,0,0,1848.35,0,0,0,0,0,0,,0,NONE,0,0,0,0,0,0,0,0,0,0,0,1399.37,0,0,0,0,0,0,0,0,0,5.71,0,0,0,0,0,0,0,0,0,0,0,0,0,0,0,0,0,VALID,0,0,0,0,0,1,0,0,0,0,0,0,0,0,0,0,0,0,0,0,0,388.11,2,0,0.14,0.14,275,7.14,0.14,0.14,31.44,FLYING,CF1-J,0:/Integrated Flight Computer/aircraft/cf1_j_cfg.ks (inferred preloaded)
