t_s,phase,subphase,ias_ms,vapp_ms,spd_err_ms,agl_m,gear_h_m,vs_ms,pitch_deg,aoa_deg,hdg_deg,bank_deg,thr_cmd,thr_cur,thr_intg,at_gain,at_tau_s,at_a_up,at_a_dn,at_kp_thr,at_ki_spd,at_thr_slew,as_cmd_deg,as_cap_deg,as_raw_deg,as_spd_err_ms,as_active,aa_hdg_cmd_deg,aa_fpa_cmd_deg,aa_fbw,aa_dir,actual_fpa_deg,ftf_hdg_err_deg,ftf_fix_idx,kos_steer_pit_deg,kos_steer_hdg_deg,aa_dir_vx,aa_dir_vy,aa_dir_vz,aa_dir_pitch_deg,aa_dir_hdg_deg,ils_loc_m,ils_gs_m,ils_dist_km,loc_corr_deg,gs_corr_deg,gs_latched,active_gs_ang_deg,ils_intercept_alt_m,d_gs_ms,fpa_preclamped_deg,gs_nom_alt_m,flare_fpa_cmd,flare_tgt_vs,flare_frac,flare_mode,flare_auth_limited,flare_vs_err,flare_fpa_err,flare_pitch_err,flare_pitch_in_cmd,elev_defl_avg_deg,elev_defl_max_deg,elev_defl_n,flare_ctrl_h_m,flare_req_up_a,flare_thr_floor,flare_tecs_et_err,flare_tecs_eb_err,flare_tecs_h_ref,flare_tecs_v_ref,flare_gamma_ref,flare_gamma_eb_term,flare_gamma_unsat,steer_hdg_deg,steer_blend,ro_loc_corr_deg,ro_hdg_err_deg,ro_yaw_tgt,ro_yaw_scale,ro_yaw_gate,yaw_cmd,roll_cmd,pitch_cmd,ro_pitch_tgt_deg,ro_pitch_err_deg,ro_pitch_ff,ro_roll_assist,flaps_cur,flaps_tgt,asc_j_ab,asc_j_rk,asc_validity,asc_q_pa,asc_q_raw_pa,asc_mach,asc_apo_m,asc_drag_n,asc_w_prop,asc_edot_aero,asc_edot_orb,asc_pitch_bias,asc_blend,asc_spooling,asc_ab_thr_ratio,asc_ab_t_now,asc_ab_t_avail,asc_ab_ign_on,asc_ab_flameouts,asc_rk_t_now,asc_rk_t_avail,asc_rk_ign_on,asc_rk_flameouts,ship_thrust,ship_avail_thrust,ship_ign_on,ship_flameouts,ifc_raw_dt_s,ifc_dt_s,ifc_loop_n,ifc_hz_est,ifc_raw_dt_max_s,ifc_raw_dt_min_s,phase_el_s,status,craft_name,cfg_file
0.16,APPROACH,ILS_TRACK,154.37,152,-2.37,741.67,662.74,-12.4,10.68,15.03,269.82,0.342,0,0,0,0,0,0,0,0,0,0,0,0,0,0,0,0,0,1,0,-4.61,0,0,0,90,0,0,0,0,0,7.05,-488.38,22.058,0,0,0,3,741.67,0,0,1230.29,0,0,0,,0,0,0,0,0,0,0,0,662.74,0,0,0,0,0,0,0,0,0,269.81,0,0,0,0,0,0,0,0,0,0,0,0,0,0,0,0,0,VALID,0,0,0,0,0,1,0,0,0,0,0,0,0,0,0,0,0,0,0,0,298.99,1081.69,2,0,0.14,0.14,1,3.7,0.14,0.02,0.16,FLYING,X10-H,0:/Integrated Flight Computer/aircraft/x10_h_cfg.ks (inferred preloaded)
0.46,APPROACH,ILS_TRACK,154.47,152,-2.47,738.07,659.15,-11.74,10.84,14.93,269.8,0.127,0,0,0,1,0.6,2.106,0.75,0.35,0.0168,0.4,1.117,21.193,1.117,2.475,1,269.91,0,0,1,-4.38,0,0,0,269.93,1,-0.0015,0.004,0,269.91,6.84,-489.34,22.012,-0.086,0,0,3,741.67,-3.536,0,1227.89,0,0,0,,0,0,0,0,0,0,0,0,659.15,0,0,0,0,0,0,0,0,0,269.81,0,0,0,0,0,0,0,0,0,0,0,0,0,1,3,0,0,VALID,0,0,0,0,0,1,0,0,0,0,0,0,0,0,0,0,0,0,0,0,269.28,1082.38,2,0,0.08,0.08,4,10,0.14,0.08,0.46,FLYING,X10-H,0:/Integrated Flight Computer/aircraft/x10_h_cfg.ks (inferred preloaded)
0.76,APPROACH,ILS_TRACK,154.35,152,-2.35,734.19,655.73,-11.11,9.49,13.22,269.75,0.04,0,0,0,1,0.6,3.746,0.75,0.35,0.0168,0.4,0.986,21.226,0.986,2.359,1,269.92,0,0,1,-4.13,0,0,0,269.92,1,-0.0014,0.0039,0,269.92,6.62,-490.59,21.963,-0.079,0,0,3,741.67,-4.671,0,1225.33,0,0,0,,0,0,0,0,0,0,0,0,655.73,0,0,0,0,0,0,0,0,0,269.81,0,0,0,0,0,0,0,0,0,0,0,0,0,1,3,0,0,VALID,0,0,0,0,0,1,0,0,0,0,0,0,0,0,0,0,0,0,0,0,242.29,1082.09,2,0,0.08,0.08,7,10,0.12,0.08,0.76,FLYING,X10-H,0:/Integrated Flight Computer/aircraft/x10_h_cfg.ks (inferred preloaded)
1.12,APPROACH,ILS_TRACK,154.51,152,-2.51,729.3,651.65,-11.42,6.54,10.36,269.76,0.187,0,0,0,1,0.6,4.5,0.75,0.35,0.0168,0.4,1.134,21.189,1.134,2.49,1,269.94,0,0,1,-4.21,0,0,0,269.93,1,-0.0011,0.0038,0,269.94,6.34,-492.4,21.904,-0.064,0,0,3,741.67,-5.026,0,1222.25,0,0,0,,0,0,0,0,0,0,0,0,651.65,0,0,0,0,0,0,0,0,0,269.81,0,0,0,0,0,0,0,0,0,0,0,0,0,2,3,0,0,VALID,0,0,0,0,0,1,0,0,0,0,0,0,0,0,0,0,0,0,0,0,213.68,1083.03,2,0,0.12,0.12,10,8.33,0.12,0.08,1.12,FLYING,X10-H,0:/Integrated Flight Computer/aircraft/x10_h_cfg.ks (inferred preloaded)
1.46,APPROACH,ILS_TRACK,154.91,152,-2.91,724.49,647.62,-12.33,3.79,7.92,269.75,-0.001,0,0,0,1,0.6,4.5,0.75,0.35,0.0168,0.4,1.573,21.079,1.573,2.88,1,269.94,0,0,1,-4.5,0,0,0,269.93,1,-0.001,0.0037,0,269.94,6.09,-494.27,21.849,-0.059,0,0,3,741.67,-5.718,0,1219.33,0,0,0,,0,0,0,0,0,0,0,0,647.62,0,0,0,0,0,0,0,0,0,269.81,0,0,0,0,0,0,0,0,0,0,0,0,0,3,3,0,0,VALID,0,0,0,0,0,1,0,0,0,0,0,0,0,0,0,0,0,0,0,0,189.96,1085,2,0,0.1,0.1,13,8.82,0.12,0.1,1.46,FLYING,X10-H,0:/Integrated Flight Computer/aircraft/x10_h_cfg.ks (inferred preloaded)
1.74,APPROACH,ILS_TRACK,155.32,152,-3.32,720.43,643.96,-13.62,2.21,6.84,269.72,-0.121,0,0,0,1,0.6,4.5,0.75,0.35,0.0168,0.4,2.033,20.963,2.033,3.294,1,269.96,0,0,1,-4.94,0,0,0,269.94,1,-0.0007,0.0037,0,269.96,5.88,-495.91,21.803,-0.038,0,0,3,741.67,-5.9,0,1216.93,0,0,0,,0,0,0,0,0,0,0,0,643.96,0,0,0,0,0,0,0,0,0,269.81,0,0,0,0,0,0,0,0,0,0,0,0,0,3,3,0,0,VALID,0,0,0,0,0,1,0,0,0,0,0,0,0,0,0,0,0,0,0,0,172.49,1087.03,2,0,0.08,0.08,16,10.71,0.1,0.08,1.74,FLYING,X10-H,0:/Integrated Flight Computer/aircraft/x10_h_cfg.ks (inferred preloaded)
2.04,APPROACH,ILS_TRACK,155.73,152,-3.73,716.1,639.64,-15.06,1.95,7.19,269.72,-0.083,0,0,0,1,0.6,4.5,0.75,0.35,0.0168,0.4,2.483,20.847,2.483,3.704,1,269.97,0,0,1,-5.46,0,0,0,269.96,1,-0.0004,0.0036,0,269.97,5.66,-497.67,21.754,-0.026,0,0,3,741.67,-5.803,0,1214.35,0,0,0,,0,0,0,0,0,0,0,0,639.64,0,0,0,0,0,0,0,0,0,269.81,0,0,0,0,0,0,0,0,0,0,0,0,0,3,3,0,0,VALID,0,0,0,0,0,1,0,0,0,0,0,0,0,0,0,0,0,0,0,0,155.54,1089.1,2,0,0.08,0.08,19,10,0.12,0.08,2.04,FLYING,X10-H,0:/Integrated Flight Computer/aircraft/x10_h_cfg.ks (inferred preloaded)
2.34,APPROACH,ILS_TRACK,156.03,152,-4.03,711.84,634.94,-16.21,3.3,9.05,269.72,-0.069,0,0,0,1,0.6,4.5,0.75,0.35,0.0168,0.4,2.82,20.76,2.82,4.013,1,269.98,0,0,1,-5.89,0,0,0,269.97,1,-0.0004,0.0035,0,269.98,5.43,-499.36,21.704,-0.024,0,0,3,741.67,-5.504,0,1211.77,0,0,0,,0,0,0,0,0,0,0,0,634.94,0,0,0,0,0,0,0,0,0,269.81,0,0,0,0,0,0,0,0,0,0,0,0,0,3,3,0,0,VALID,0,0,0,0,0,1,0,0,0,0,0,0,0,0,0,0,0,0,0,0,140.2,1090.76,2,0,0.08,0.08,22,10,0.12,0.08,2.34,FLYING,X10-H,0:/Integrated Flight Computer/aircraft/x10_h_cfg.ks (inferred preloaded)
2.64,APPROACH,ILS_TRACK,156.16,152,-4.16,707.66,630.02,-16.56,5.87,11.79,269.73,0.015,0,0,0,1,0.6,4.5,0.75,0.35,0.0168,0.4,2.974,20.72,2.974,4.155,1,269.97,0,0,1,-6.06,0,0,0,269.98,1,-0.0005,0.0034,0,269.97,5.2,-500.96,21.655,-0.031,0,0,3,741.67,-5.337,0,1209.18,0,0,0,,0,0,0,0,0,0,0,0,630.02,0,0,0,0,0,0,0,0,0,269.81,0,0,0,0,0,0,0,0,0,0,0,0,0,3,3,0,0,VALID,0,0,0,0,0,1,0,0,0,0,0,0,0,0,0,0,0,0,0,0,126.3,1091.73,2,0,0.08,0.08,25,10,0.12,0.08,2.64,FLYING,X10-H,0:/Integrated Flight Computer/aircraft/x10_h_cfg.ks (inferred preloaded)
2.94,APPROACH,ILS_TRACK,156,152,-4,703.4,625.12,-16.17,8.21,13.97,269.76,0.143,0,0,0,1,0.6,4.5,0.75,0.35,0.0168,0.4,2.83,20.757,2.83,4.022,1,269.99,0,0,1,-5.94,0,0,0,269.98,1,-0.0002,0.0033,0,269.99,4.97,-502.63,21.606,-0.013,0,0,3,741.67,-5.68,0,1206.6,0,0,0,,0,0,0,0,0,0,0,0,625.12,0,0,0,0,0,0,0,0,0,269.81,0,0,0,0,0,0,0,0,0,0,0,0,0,3,3,0,0,VALID,0,0,0,0,0,1,0,0,0,0,0,0,0,0,0,0,0,0,0,0,113.65,1091.47,2,0,0.08,0.08,28,10,0.12,0.08,2.94,FLYING,X10-H,0:/Integrated Flight Computer/aircraft/x10_h_cfg.ks (inferred preloaded)
3.24,APPROACH,ILS_TRACK,155.57,152,-3.57,699.21,620.36,-15.52,10.18,15.74,269.8,0.309,0,0,0,1,0.6,4.5,0.75,0.35,0.0168,0.4,2.377,20.874,2.377,3.607,1,270.01,0,0,1,-5.74,0,0,0,269.99,1,0.0001,0.0032,0,270.01,4.74,-504.27,21.557,0.008,0,0,3,741.67,-5.238,0,1204.03,0,0,0,,0,0,0,0,0,0,0,0,620.36,0,0,0,0,0,0,0,0,0,269.81,0,0,0,0,0,0,0,0,0,0,0,0,0,3,3,0,0,VALID,0,0,0,0,0,1,0,0,0,0,0,0,0,0,0,0,0,0,0,0,102.15,1090,2,0,0.08,0.08,31,10,0.12,0.08,3.24,FLYING,X10-H,0:/Integrated Flight Computer/aircraft/x10_h_cfg.ks (inferred preloaded)
3.54,APPROACH,ILS_TRACK,154.85,152,-2.85,695.17,615.88,-14.45,11.84,17.02,269.86,0.469,0.12,0,-0.949,1,0.6,4.5,0.75,0.35,0.0168,0.4,0,21.071,0,2.909,0,270.01,0,0,1,-5.38,0,0,0,270,1,0.0002,0.0032,0,270.01,4.51,-505.76,21.508,0.013,0,0,3,741.67,-4.819,0,1201.46,0,0,0,,0,0,0,0,0,0,0,0,615.88,0,0,0,0,0,0,0,0,0,269.81,0,0,0,0,0,0,0,0,0,0,0,0,0,3,3,0,0,VALID,0,0,0,0,0,1,0,0,0,0,0,0,0,0,0,0,0,0,0,0,95.47,1087.29,2,0,0.08,0.08,34,10,0.12,0.08,3.54,FLYING,X10-H,0:/Integrated Flight Computer/aircraft/x10_h_cfg.ks (inferred preloaded)
3.84,APPROACH,ILS_TRACK,153.93,152,-1.93,691.3,611.73,-13.23,12.86,17.6,269.92,0.587,0.24,0,-1.641,1,0.6,4.5,0.75,0.35,0.0168,0.4,0,21.328,0,1.997,0,270,0,0,1,-4.97,0,0,0,270,1,0,0.0031,0,270,4.3,-507.11,21.459,0.001,0,0,3,741.67,-4.275,0,1198.91,0,0,0,,0,0,0,0,0,0,0,0,611.73,0,0,0,0,0,0,0,0,0,269.81,0,0,0,0,0,0,0,0,0,0,0,0,0,3,3,0,0,VALID,0,0,0,0,0,1,0,0,0,0,0,0,0,0,0,0,0,0,0,0,99.23,1083.68,2,0,0.08,0.08,37,10,0.12,0.08,3.84,FLYING,X10-H,0:/Integrated Flight Computer/aircraft/x10_h_cfg.ks (inferred preloaded)
4.14,APPROACH,ILS_TRACK,152.95,152,-0.95,687.65,607.95,-12.05,13.36,17.69,269.97,0.661,0.36,0,-2.042,1,0.6,4.5,0.75,0.35,0.0168,0.4,0,21.606,0,1.012,0,270,0,0,1,-4.56,0,0,0,270.01,1,0.0001,0.003,0,270,4.09,-508.25,21.411,0.003,0,0,3,741.67,-3.518,0,1196.37,0,0,0,,0,0,0,0,0,0,0,0,607.95,0,0,0,0,0,0,0,0,0,269.81,0,0,0,0,0,0,0,0,0,0,0,0,0,3,3,0,0,VALID,0,0,0,0,0,1,0,0,0,0,0,0,0,0,0,0,0,0,0,0,110.25,1079.78,2,0,0.08,0.08,40,10,0.12,0.08,4.14,FLYING,X10-H,0:/Integrated Flight Computer/aircraft/x10_h_cfg.ks (inferred preloaded)
4.44,APPROACH,ILS_TRACK,151.99,152,0.01,684.32,604.51,-10.96,13.76,17.73,270,0.71,0.48,0,-2.151,1,0.6,4.5,0.75,0.35,0.0168,0.4,0,21.877,0,0.049,0,269.99,0,0,1,-4.18,0,0,0,270,1,-0.0002,0.0029,0,269.99,3.91,-509.1,21.362,-0.013,0,0,3,741.67,-2.408,0,1193.84,0,0,0,,0,0,0,0,0,0,0,0,604.51,0,0,0,0,0,0,0,0,0,269.81,0,0,0,0,0,0,0,0,0,0,0,0,0,3,3,0,0,VALID,0,0,0,0,0,1,0,0,0,0,0,0,0,0,0,0,0,0,0,0,128.07,1075.97,2,0,0.08,0.08,43,10,0.12,0.08,4.44,FLYING,X10-H,0:/Integrated Flight Computer/aircraft/x10_h_cfg.ks (inferred preloaded)
4.74,APPROACH,ILS_TRACK,151.03,152,0.97,681.26,601.42,-9.76,13.94,17.46,270.03,0.724,0.6,0,-2.119,1,0.6,4.5,0.75,0.35,0.0168,0.4,0,22.147,0,-0.91,0,270,0,0,1,-3.75,0,0,0,269.99,1,0,0.0028,0,270,3.74,-509.68,21.314,0.002,0,0,3,741.67,-1.706,0,1191.33,0,0,0,,0,0,0,0,0,0,0,0,601.42,0,0,0,0,0,0,0,0,0,269.81,0,0,0,0,0,0,0,0,0,0,0,0,0,3,3,0,0,VALID,0,0,0,0,0,1,0,0,0,0,0,0,0,0,0,0,0,0,0,0,152.21,1072.17,2,0,0.08,0.08,46,10,0.12,0.08,4.74,FLYING,X10-H,0:/Integrated Flight Computer/aircraft/x10_h_cfg.ks (inferred preloaded)
5.04,APPROACH,ILS_TRACK,150.17,152,1.83,678.45,598.66,-8.74,13.77,16.94,270.04,0.719,0.72,0,-2.087,1,0.6,4.5,0.75,0.35,0.0168,0.4,0,22.391,0,-1.773,0,269.98,0,0,1,-3.38,0,0,0,269.98,1,-0.0003,0.0028,0,269.98,3.58,-510.03,21.267,-0.015,0,0,3,741.67,-0.833,0,1188.84,0,0,0,,0,0,0,0,0,0,0,0,598.66,0,0,0,0,0,0,0,0,0,269.81,0,0,0,0,0,0,0,0,0,0,0,0,0,3,3,0,0,VALID,0,0,0,0,0,1,0,0,0,0,0,0,0,0,0,0,0,0,0,0,182.3,1068.8,2,0,0.08,0.08,49,10,0.12,0.08,5.04,FLYING,X10-H,0:/Integrated Flight Computer/aircraft/x10_h_cfg.ks (inferred preloaded)
5.34,APPROACH,ILS_TRACK,149.46,152,2.54,675.9,596.19,-7.79,13.51,16.33,270.04,0.677,0.84,0,-2.056,1,0.6,4.5,0.75,0.35,0.0168,0.4,0,22.595,0,-2.497,0,269.98,0,0,1,-3.02,0,0,0,269.97,1,-0.0003,0.0027,0,269.98,3.45,-510.13,21.219,-0.019,0,0,3,741.67,-0.044,0,1186.35,0,0,0,,0,0,0,0,0,0,0,0,596.19,0,0,0,0,0,0,0,0,0,269.81,0,0,0,0,0,0,0,0,0,0,0,0,0,3,3,0,0,VALID,0,0,0,0,0,1,0,0,0,0,0,0,0,0,0,0,0,0,0,0,217.99,1066,2,0,0.08,0.08,52,10,0.12,0.08,5.34,FLYING,X10-H,0:/Integrated Flight Computer/aircraft/x10_h_cfg.ks (inferred preloaded)
5.64,APPROACH,ILS_TRACK,148.91,152,3.09,673.61,593.98,-6.99,13.2,15.75,270.03,0.625,0.96,0,-1.791,1,0.6,4.5,0.75,0.35,0.0168,0.4,0,22.753,0,-3.058,0,269.97,0,0,1,-2.73,0,0,0,269.96,1,-0.0005,0.0026,0,269.97,3.32,-509.98,21.172,-0.027,0,0,3,741.67,0.841,0,1183.88,0,0,0,,0,0,0,0,0,0,0,0,593.98,0,0,0,0,0,0,0,0,0,269.81,0,0,0,0,0,0,0,0,0,0,0,0,0,3,3,0,0,VALID,0,0,0,0,0,1,0,0,0,0,0,0,0,0,0,0,0,0,0,0,259,1063.87,2,0,0.08,0.08,55,10,0.12,0.08,5.64,FLYING,X10-H,0:/Integrated Flight Computer/aircraft/x10_h_cfg.ks (inferred preloaded)
5.94,APPROACH,ILS_TRACK,148.52,152,3.48,671.56,592.02,-6.22,12.91,15.17,270.03,0.566,0.8668,0,-0.789,1,0.6,4.5,0.75,0.35,0.0168,0.4,0,22.867,0,-3.463,0,269.94,0,0,1,-2.43,0,0,0,269.96,1,-0.001,0.0025,0,269.94,3.21,-509.59,21.125,-0.055,0,0,3,741.67,1.514,0,1181.41,0,0,0,,0,0,0,0,0,0,0,0,592.02,0,0,0,0,0,0,0,0,0,269.81,0,0,0,0,0,0,0,0,0,0,0,0,0,3,3,0,0,VALID,0,0,0,0,0,1,0,0,0,0,0,0,0,0,0,0,0,0,0,0,301.67,1062.38,2,0,0.08,0.08,58,10,0.12,0.08,5.94,FLYING,X10-H,0:/Integrated Flight Computer/aircraft/x10_h_cfg.ks (inferred preloaded)
6.24,APPROACH,ILS_TRACK,148.29,152,3.71,669.75,590.26,-5.52,12.73,14.75,270.01,0.496,0.7468,0,0.301,1,0.6,4.5,0.75,0.35,0.0168,0.4,0,22.933,0,-3.697,0,269.96,0,0,1,-2.17,0,0,0,269.96,1,-0.0007,0.0024,0,269.96,3.11,-508.96,21.078,-0.039,0,0,3,741.67,2.373,0,1178.94,0,0,0,,0,0,0,0,0,0,0,0,590.26,0,0,0,0,0,0,0,0,0,269.81,0,0,0,0,0,0,0,0,0,0,0,0,0,3,3,0,0,VALID,0,0,0,0,0,1,0,0,0,0,0,0,0,0,0,0,0,0,0,0,335.55,1061.58,2,0,0.08,0.08,61,10,0.12,0.08,6.24,FLYING,X10-H,0:/Integrated Flight Computer/aircraft/x10_h_cfg.ks (inferred preloaded)
6.54,APPROACH,ILS_TRACK,148.16,152,3.84,668.1,588.72,-4.82,12.37,14.12,270.01,0.437,0.6268,0,1.44,1,0.6,4.5,0.75,0.35,0.0168,0.4,0,22.972,0,-3.835,0,269.96,0,0,1,-1.89,0,0,0,269.96,1,-0.0007,0.0024,0,269.96,3.02,-508.17,21.031,-0.039,0,0,3,741.67,2.819,0,1176.48,0,0,0,,0,0,0,0,0,0,0,0,588.72,0,0,0,0,0,0,0,0,0,269.81,0,0,0,0,0,0,0,0,0,0,0,0,0,3,3,0,0,VALID,0,0,0,0,0,1,0,0,0,0,0,0,0,0,0,0,0,0,0,0,360.09,1061.15,2,0,0.08,0.08,64,10,0.12,0.08,6.54,FLYING,X10-H,0:/Integrated Flight Computer/aircraft/x10_h_cfg.ks (inferred preloaded)
6.9,APPROACH,ILS_TRACK,148.16,152,3.84,666.37,587.11,-4.14,11.97,13.47,269.99,0.367,0.4828,0,2.826,1,0.6,4.5,0.75,0.35,0.0168,0.4,0,22.973,0,-3.841,0,269.95,0,0,1,-1.64,0,0,0,269.95,1,-0.0008,0.0023,0,269.95,2.92,-506.97,20.975,-0.047,0,0,3,741.67,3.587,0,1173.52,0,0,0,,0,0,0,0,0,0,0,0,587.11,0,0,0,0,0,0,0,0,0,269.81,0,0,0,0,0,0,0,0,0,0,0,0,0,3,3,0,0,VALID,0,0,0,0,0,1,0,0,0,0,0,0,0,0,0,0,0,0,0,0,378.28,1061.28,2,0,0.12,0.12,67,8.33,0.12,0.08,6.9,FLYING,X10-H,0:/Integrated Flight Computer/aircraft/x10_h_cfg.ks (inferred preloaded)
7.24,APPROACH,ILS_TRACK,148.24,152,3.76,664.93,585.8,-3.58,11.5,12.79,269.98,0.305,0.3719,0,4.118,1,0.6,4.5,0.75,0.35,0.0168,0.4,0,22.953,0,-3.768,0,269.95,0,0,1,-1.41,0,0,0,269.95,1,-0.0009,0.0022,0,269.95,2.84,-505.64,20.921,-0.049,0,0,3,741.67,4.099,0,1170.73,0,0,0,,0,0,0,0,0,0,0,0,585.8,0,0,0,0,0,0,0,0,0,269.81,0,0,0,0,0,0,0,0,0,0,0,0,0,3,3,0,0,VALID,0,0,0,0,0,1,0,0,0,0,0,0,0,0,0,0,0,0,0,0,385,1061.7,2,0,0.1,0.1,70,8.82,0.12,0.1,7.24,FLYING,X10-H,0:/Integrated Flight Computer/aircraft/x10_h_cfg.ks (inferred preloaded)
7.52,APPROACH,ILS_TRACK,148.35,152,3.65,663.87,584.86,-3.19,11.12,12.26,269.97,0.259,0.2964,0,5.153,1,0.6,4.5,0.75,0.35,0.0168,0.4,0,22.922,0,-3.66,0,269.93,0,0,1,-1.25,0,0,0,269.94,1,-0.0012,0.0021,0,269.93,2.78,-504.41,20.877,-0.066,0,0,3,741.67,4.508,0,1168.43,0,0,0,,0,0,0,0,0,0,0,0,584.86,0,0,0,0,0,0,0,0,0,269.81,0,0,0,0,0,0,0,0,0,0,0,0,0,3,3,0,0,VALID,0,0,0,0,0,1,0,0,0,0,0,0,0,0,0,0,0,0,0,0,383.82,1062.22,2,0,0.08,0.08,73,10.71,0.1,0.08,7.52,FLYING,X10-H,0:/Integrated Flight Computer/aircraft/x10_h_cfg.ks (inferred preloaded)
7.82,APPROACH,ILS_TRACK,148.47,152,3.53,662.81,583.97,-2.85,10.52,11.52,269.97,0.212,0.2563,0,6.227,1,0.6,4.5,0.75,0.35,0.0168,0.4,0,22.887,0,-3.536,0,269.96,0,0,1,-1.11,0,0,0,269.95,1,-0.0007,0.002,0,269.96,2.71,-503.02,20.83,-0.043,0,0,3,741.67,4.727,0,1165.96,0,0,0,,0,0,0,0,0,0,0,0,583.97,0,0,0,0,0,0,0,0,0,269.81,0,0,0,0,0,0,0,0,0,0,0,0,0,3,3,0,0,VALID,0,0,0,0,0,1,0,0,0,0,0,0,0,0,0,0,0,0,0,0,376.14,1062.8,2,0,0.08,0.08,76,10,0.12,0.08,7.82,FLYING,X10-H,0:/Integrated Flight Computer/aircraft/x10_h_cfg.ks (inferred preloaded)
8.12,APPROACH,ILS_TRACK,148.64,152,3.36,661.93,583.11,-2.89,10.34,11.42,269.96,0.187,0.2177,0,7.255,1,0.6,4.5,0.75,0.35,0.0168,0.4,0,22.842,0,-3.375,0,269.94,0,0,1,-1.11,0,0,0,269.95,1,-0.0011,0.002,0,269.94,2.65,-501.45,20.783,-0.062,0,0,3,741.67,5.549,0,1163.49,0,0,0,,0,0,0,0,0,0,0,0,583.11,0,0,0,0,0,0,0,0,0,269.81,0,0,0,0,0,0,0,0,0,0,0,0,0,3,3,0,0,VALID,0,0,0,0,0,1,0,0,0,0,0,0,0,0,0,0,0,0,0,0,364.86,1063.54,2,0,0.08,0.08,79,10,0.12,0.08,8.12,FLYING,X10-H,0:/Integrated Flight Computer/aircraft/x10_h_cfg.ks (inferred preloaded)
8.42,APPROACH,ILS_TRACK,148.72,152,3.28,661.19,582.32,-2.43,10.6,11.48,269.96,0.15,0.2496,0,8.245,1,0.6,4.5,0.75,0.35,0.0168,0.4,0,22.815,0,-3.28,0,269.94,0,0,1,-0.95,0,0,0,269.95,1,-0.0011,0.0019,0,269.94,2.59,-499.72,20.736,-0.062,0,0,3,741.67,5.676,0,1161.02,0,0,0,,0,0,0,0,0,0,0,0,582.32,0,0,0,0,0,0,0,0,0,269.81,0,0,0,0,0,0,0,0,0,0,0,0,0,3,3,0,0,VALID,0,0,0,0,0,1,0,0,0,0,0,0,0,0,0,0,0,0,0,0,352,1063.96,2,0,0.08,0.08,82,10,0.12,0.08,8.42,FLYING,X10-H,0:/Integrated Flight Computer/aircraft/x10_h_cfg.ks (inferred preloaded)
8.72,APPROACH,ILS_TRACK,148.79,152,3.21,660.46,581.63,-2.22,10.47,11.27,269.96,0.125,0.2783,0,9.217,1,0.6,4.5,0.75,0.35,0.0168,0.4,0,22.796,0,-3.212,0,269.95,0,0,1,-0.86,0,0,0,269.95,1,-0.0009,0.0018,0,269.95,2.53,-497.99,20.689,-0.054,0,0,3,741.67,5.853,0,1158.54,0,0,0,,0,0,0,0,0,0,0,0,581.63,0,0,0,0,0,0,0,0,0,269.81,0,0,0,0,0,0,0,0,0,0,0,0,0,3,3,0,0,VALID,0,0,0,0,0,1,0,0,0,0,0,0,0,0,0,0,0,0,0,0,344.43,1064.31,2,0,0.08,0.08,85,10,0.12,0.08,8.72,FLYING,X10-H,0:/Integrated Flight Computer/aircraft/x10_h_cfg.ks (inferred preloaded)
9.02,APPROACH,ILS_TRACK,148.86,152,3.14,659.83,580.98,-1.99,10.51,11.24,269.95,0.109,0.3013,0,10.166,1,0.6,4.5,0.75,0.35,0.0168,0.4,0,22.777,0,-3.144,0,269.95,0,0,1,-0.79,0,0,0,269.94,1,-0.0009,0.0017,0,269.95,2.48,-496.16,20.642,-0.052,0,0,3,741.67,6.217,0,1156.07,0,0,0,,0,0,0,0,0,0,0,0,580.98,0,0,0,0,0,0,0,0,0,269.81,0,0,0,0,0,0,0,0,0,0,0,0,0,3,3,0,0,VALID,0,0,0,0,0,1,0,0,0,0,0,0,0,0,0,0,0,0,0,0,340.25,1064.64,2,0,0.08,0.08,88,10,0.12,0.08,9.02,FLYING,X10-H,0:/Integrated Flight Computer/aircraft/x10_h_cfg.ks (inferred preloaded)
9.32,APPROACH,ILS_TRACK,148.91,152,3.09,659.23,580.41,-1.8,10.42,11.08,269.95,0.098,0.3271,0,11.1,1,0.6,4.5,0.75,0.35,0.0168,0.4,0,22.763,0,-3.095,0,269.95,0,0,1,-0.71,0,0,0,269.95,1,-0.0009,0.0016,0,269.95,2.42,-494.29,20.594,-0.052,0,0,3,741.67,6.345,0,1153.59,0,0,0,,0,0,0,0,0,0,0,0,580.41,0,0,0,0,0,0,0,0,0,269.81,0,0,0,0,0,0,0,0,0,0,0,0,0,3,3,0,0,VALID,0,0,0,0,0,1,0,0,0,0,0,0,0,0,0,0,0,0,0,0,339.32,1064.89,2,0,0.08,0.08,91,10,0.12,0.08,9.32,FLYING,X10-H,0:/Integrated Flight Computer/aircraft/x10_h_cfg.ks (inferred preloaded)
9.62,APPROACH,ILS_TRACK,148.97,152,3.03,658.7,579.89,-1.64,10.38,10.97,269.95,0.092,0.3377,0,12.016,1,0.6,4.5,0.75,0.35,0.0168,0.4,0,22.745,0,-3.03,0,269.95,0,0,1,-0.64,0,0,0,269.95,1,-0.0009,0.0016,0,269.95,2.37,-492.35,20.547,-0.051,0,0,3,741.67,6.518,0,1151.12,0,0,0,,0,0,0,0,0,0,0,0,579.89,0,0,0,0,0,0,0,0,0,269.81,0,0,0,0,0,0,0,0,0,0,0,0,0,3,3,0,0,VALID,0,0,0,0,0,1,0,0,0,0,0,0,0,0,0,0,0,0,0,0,340.14,1065.2,2,0,0.08,0.08,94,10,0.12,0.08,9.62,FLYING,X10-H,0:/Integrated Flight Computer/aircraft/x10_h_cfg.ks (inferred preloaded)
9.92,APPROACH,ILS_TRACK,149.05,152,2.95,658.23,579.42,-1.47,10.38,10.92,269.95,0.085,0.3418,0,12.911,1,0.6,4.5,0.75,0.35,0.0168,0.4,0,22.724,0,-2.956,0,269.95,0,0,1,-0.59,0,0,0,269.95,1,-0.0009,0.0015,0,269.95,2.32,-490.35,20.5,-0.05,0,0,3,741.67,6.77,0,1148.64,0,0,0,,0,0,0,0,0,0,0,0,579.42,0,0,0,0,0,0,0,0,0,269.81,0,0,0,0,0,0,0,0,0,0,0,0,0,3,3,0,0,VALID,0,0,0,0,0,1,0,0,0,0,0,0,0,0,0,0,0,0,0,0,341.53,1065.54,2,0,0.08,0.08,97,10,0.12,0.08,9.92,FLYING,X10-H,0:/Integrated Flight Computer/aircraft/x10_h_cfg.ks (inferred preloaded)
10.22,APPROACH,ILS_TRACK,149.12,152,2.88,657.77,579.01,-1.33,10.21,10.69,269.95,0.074,0.3486,0,13.784,1,0.6,4.5,0.75,0.35,0.0168,0.4,0,22.704,0,-2.886,0,269.96,0,0,1,-0.52,0,0,0,269.95,1,-0.0008,0.0014,0,269.96,2.27,-488.34,20.453,-0.045,0,0,3,741.67,6.775,0,1146.16,0,0,0,,0,0,0,0,0,0,0,0,579.01,0,0,0,0,0,0,0,0,0,269.81,0,0,0,0,0,0,0,0,0,0,0,0,0,3,3,0,0,VALID,0,0,0,0,0,1,0,0,0,0,0,0,0,0,0,0,0,0,0,0,343.23,1065.88,2,0,0.08,0.08,100,10,0.12,0.08,10.22,FLYING,X10-H,0:/Integrated Flight Computer/aircraft/x10_h_cfg.ks (inferred preloaded)
10.52,APPROACH,ILS_TRACK,149.22,152,2.78,657.39,578.61,-1.22,10.27,10.73,269.95,0.071,0.3391,0,14.629,1,0.6,4.5,0.75,0.35,0.0168,0.4,0,22.675,0,-2.783,0,269.95,0,0,1,-0.49,0,0,0,269.95,1,-0.0008,0.0013,0,269.95,2.22,-486.24,20.405,-0.047,0,0,3,741.67,7.125,0,1143.68,0,0,0,,0,0,0,0,0,0,0,0,578.61,0,0,0,0,0,0,0,0,0,269.81,0,0,0,0,0,0,0,0,0,0,0,0,0,3,3,0,0,VALID,0,0,0,0,0,1,0,0,0,0,0,0,0,0,0,0,0,0,0,0,344.86,1066.33,2,0,0.08,0.08,103,10,0.12,0.08,10.52,FLYING,X10-H,0:/Integrated Flight Computer/aircraft/x10_h_cfg.ks (inferred preloaded)
10.82,APPROACH,ILS_TRACK,149.3,152,2.7,656.99,578.28,-1.11,10.03,10.42,269.95,0.065,0.3501,0,15.45,1,0.6,4.5,0.75,0.35,0.0168,0.4,0,22.653,0,-2.706,0,269.95,0,0,1,-0.42,0,0,0,269.96,1,-0.0009,0.0012,0,269.95,2.18,-484.17,20.358,-0.05,0,0,3,741.67,6.925,0,1141.2,0,0,0,,0,0,0,0,0,0,0,0,578.28,0,0,0,0,0,0,0,0,0,269.81,0,0,0,0,0,0,0,0,0,0,0,0,0,3,3,0,0,VALID,0,0,0,0,0,1,0,0,0,0,0,0,0,0,0,0,0,0,0,0,346.31,1066.69,2,0,0.08,0.08,106,10,0.12,0.08,10.82,FLYING,X10-H,0:/Integrated Flight Computer/aircraft/x10_h_cfg.ks (inferred preloaded)
11.12,APPROACH,ILS_TRACK,149.42,152,2.58,656.67,577.95,-0.99,10.1,10.46,269.95,0.06,0.3365,0,16.237,1,0.6,4.5,0.75,0.35,0.0168,0.4,0,22.62,0,-2.586,0,269.95,0,0,1,-0.4,0,0,0,269.96,1,-0.0008,0.0012,0,269.95,2.13,-482,20.311,-0.045,0,0,3,741.67,7.248,0,1138.72,0,0,0,,0,0,0,0,0,0,0,0,577.95,0,0,0,0,0,0,0,0,0,269.81,0,0,0,0,0,0,0,0,0,0,0,0,0,3,3,0,0,VALID,0,0,0,0,0,1,0,0,0,0,0,0,0,0,0,0,0,0,0,0,347.74,1067.21,2,0,0.08,0.08,109,10,0.12,0.08,11.12,FLYING,X10-H,0:/Integrated Flight Computer/aircraft/x10_h_cfg.ks (inferred preloaded)
11.42,APPROACH,ILS_TRACK,149.54,152,2.46,656.34,577.66,-0.96,9.96,10.31,269.95,0.057,0.3303,0,16.992,1,0.6,4.5,0.75,0.35,0.0168,0.4,0,22.588,0,-2.473,0,269.96,0,0,1,-0.38,0,0,0,269.95,1,-0.0007,0.0011,0,269.96,2.08,-479.85,20.263,-0.038,0,0,3,741.67,7.277,0,1136.24,0,0,0,,0,0,0,0,0,0,0,0,577.66,0,0,0,0,0,0,0,0,0,269.81,0,0,0,0,0,0,0,0,0,0,0,0,0,3,3,0,0,VALID,0,0,0,0,0,1,0,0,0,0,0,0,0,0,0,0,0,0,0,0,348.69,1067.71,2,0,0.08,0.08,112,10,0.12,0.08,11.42,FLYING,X10-H,0:/Integrated Flight Computer/aircraft/x10_h_cfg.ks (inferred preloaded)
11.72,APPROACH,ILS_TRACK,149.67,152,2.33,656.06,577.38,-0.87,9.93,10.24,269.95,0.055,0.3168,0,17.706,1,0.6,4.5,0.75,0.35,0.0168,0.4,0,22.549,0,-2.335,0,269.95,0,0,1,-0.34,0,0,0,269.96,1,-0.0008,0.001,0,269.95,2.04,-477.65,20.216,-0.046,0,0,3,741.67,7.341,0,1133.75,0,0,0,,0,0,0,0,0,0,0,0,577.38,0,0,0,0,0,0,0,0,0,269.81,0,0,0,0,0,0,0,0,0,0,0,0,0,3,3,0,0,VALID,0,0,0,0,0,1,0,0,0,0,0,0,0,0,0,0,0,0,0,0,348.81,1068.31,2,0,0.08,0.08,115,10,0.12,0.08,11.72,FLYING,X10-H,0:/Integrated Flight Computer/aircraft/x10_h_cfg.ks (inferred preloaded)
12.02,APPROACH,ILS_TRACK,149.81,152,2.19,655.79,577.12,-0.82,9.88,10.17,269.95,0.053,0.3091,0,18.378,1,0.6,4.5,0.75,0.35,0.0168,0.4,0,22.51,0,-2.196,0,269.95,0,0,1,-0.31,0,0,0,269.96,1,-0.0008,0.0009,0,269.95,1.99,-475.44,20.168,-0.045,0,0,3,741.67,7.387,0,1131.26,0,0,0,,0,0,0,0,0,0,0,0,577.12,0,0,0,0,0,0,0,0,0,269.81,0,0,0,0,0,0,0,0,0,0,0,0,0,3,3,0,0,VALID,0,0,0,0,0,1,0,0,0,0,0,0,0,0,0,0,0,0,0,0,347.79,1068.91,2,0,0.08,0.08,118,10,0.12,0.08,12.02,FLYING,X10-H,0:/Integrated Flight Computer/aircraft/x10_h_cfg.ks (inferred preloaded)
12.32,APPROACH,ILS_TRACK,149.95,152,2.05,655.54,576.88,-0.76,9.87,10.13,269.95,0.049,0.3069,0,19.009,1,0.6,4.5,0.75,0.35,0.0168,0.4,0,22.471,0,-2.058,0,269.96,0,0,1,-0.29,0,0,0,269.96,1,-0.0007,0.0008,0,269.96,1.95,-473.2,20.121,-0.04,0,0,3,741.67,7.457,0,1128.77,0,0,0,,0,0,0,0,0,0,0,0,576.88,0,0,0,0,0,0,0,0,0,269.81,0,0,0,0,0,0,0,0,0,0,0,0,0,3,3,0,0,VALID,0,0,0,0,0,1,0,0,0,0,0,0,0,0,0,0,0,0,0,0,346.14,1069.5,2,0,0.08,0.08,121,10,0.12,0.08,12.32,FLYING,X10-H,0:/Integrated Flight Computer/aircraft/x10_h_cfg.ks (inferred preloaded)
12.62,APPROACH,ILS_TRACK,150.08,152,1.92,655.31,576.65,-0.69,9.85,10.08,269.95,0.046,0.3101,0,19.6,1,0.6,4.5,0.75,0.35,0.0168,0.4,0,22.434,0,-1.927,0,269.96,0,0,1,-0.26,0,0,0,269.96,1,-0.0007,0.0008,0,269.96,1.9,-470.94,20.073,-0.039,0,0,3,741.67,7.504,0,1126.28,0,0,0,,0,0,0,0,0,0,0,0,576.65,0,0,0,0,0,0,0,0,0,269.81,0,0,0,0,0,0,0,0,0,0,0,0,0,3,3,0,0,VALID,0,0,0,0,0,1,0,0,0,0,0,0,0,0,0,0,0,0,0,0,344.56,1070.07,2,0,0.08,0.08,124,10,0.12,0.08,12.62,FLYING,X10-H,0:/Integrated Flight Computer/aircraft/x10_h_cfg.ks (inferred preloaded)
12.92,APPROACH,ILS_TRACK,150.21,152,1.79,655.12,576.43,-0.75,9.91,10.2,269.96,0.047,0.3083,0,20,1,0.6,4.5,0.75,0.35,0.0168,0.4,0,22.397,0,-1.797,0,269.96,0,0,1,-0.3,0,0,0,269.96,1,-0.0007,0.0007,0,269.96,1.86,-468.65,20.026,-0.041,0,0,3,741.67,7.821,0,1123.78,0,0,0,,0,0,0,0,0,0,0,0,576.43,0,0,0,0,0,0,0,0,0,269.81,0,0,0,0,0,0,0,0,0,0,0,0,0,3,3,0,0,VALID,0,0,0,0,0,1,0,0,0,0,0,0,0,0,0,0,0,0,0,0,343.55,1070.63,2,0,0.08,0.08,127,10,0.12,0.08,12.92,FLYING,X10-H,0:/Integrated Flight Computer/aircraft/x10_h_cfg.ks (inferred preloaded)
13.22,APPROACH,ILS_TRACK,150.3,152,1.7,654.89,576.25,-0.56,9.79,9.97,269.96,0.044,0.3267,0,20,1,0.6,4.5,0.75,0.35,0.0168,0.4,0,22.372,0,-1.706,0,269.96,0,0,1,-0.21,0,0,0,269.96,1,-0.0007,0.0006,0,269.96,1.82,-466.37,19.978,-0.04,0,0,3,741.67,7.464,0,1121.29,0,0,0,,0,0,0,0,0,0,0,0,576.25,0,0,0,0,0,0,0,0,0,269.81,0,0,0,0,0,0,0,0,0,0,0,0,0,3,3,0,0,VALID,0,0,0,0,0,1,0,0,0,0,0,0,0,0,0,0,0,0,0,0,342.74,1071.02,2,0,0.08,0.08,130,10,0.12,0.08,13.22,FLYING,X10-H,0:/Integrated Flight Computer/aircraft/x10_h_cfg.ks (inferred preloaded)
13.52,APPROACH,ILS_TRACK,150.43,152,1.57,654.71,576.06,-0.59,9.81,10.04,269.96,0.045,0.3062,0,20,1,0.6,4.5,0.75,0.35,0.0168,0.4,0,22.335,0,-1.576,0,269.97,0,0,1,-0.24,0,0,0,269.97,1,-0.0006,0.0005,0,269.97,1.77,-464.05,19.93,-0.035,0,0,3,741.67,7.865,0,1118.79,0,0,0,,0,0,0,0,0,0,0,0,576.06,0,0,0,0,0,0,0,0,0,269.81,0,0,0,0,0,0,0,0,0,0,0,0,0,3,3,0,0,VALID,0,0,0,0,0,1,0,0,0,0,0,0,0,0,0,0,0,0,0,0,342.84,1071.58,2,0,0.08,0.08,133,10,0.12,0.08,13.52,FLYING,X10-H,0:/Integrated Flight Computer/aircraft/x10_h_cfg.ks (inferred preloaded)
13.82,APPROACH,ILS_TRACK,150.55,152,1.45,654.53,575.89,-0.62,9.75,9.98,269.96,0.044,0.3002,0,20,1,0.6,4.5,0.75,0.35,0.0168,0.4,0,22.303,0,-1.463,0,269.97,0,0,1,-0.22,0,0,0,269.96,1,-0.0005,0.0005,0,269.97,1.73,-461.74,19.883,-0.026,0,0,3,741.67,7.774,0,1116.29,0,0,0,,0,0,0,0,0,0,0,0,575.89,0,0,0,0,0,0,0,0,0,269.81,0,0,0,0,0,0,0,0,0,0,0,0,0,3,3,0,0,VALID,0,0,0,0,0,1,0,0,0,0,0,0,0,0,0,0,0,0,0,0,341.57,1072.08,2,0,0.08,0.08,136,10,0.12,0.08,13.82,FLYING,X10-H,0:/Integrated Flight Computer/aircraft/x10_h_cfg.ks (inferred preloaded)
14.12,APPROACH,ILS_TRACK,150.65,152,1.35,654.4,575.73,-0.39,9.94,10.07,269.96,0.04,0.3049,0,20,1,0.6,4.5,0.75,0.35,0.0168,0.4,0,22.273,0,-1.357,0,269.97,0,0,1,-0.16,0,0,0,269.96,1,-0.0006,0.0004,0,269.97,1.69,-459.36,19.835,-0.032,0,0,3,741.67,7.805,0,1113.79,0,0,0,,0,0,0,0,0,0,0,0,575.73,0,0,0,0,0,0,0,0,0,269.81,0,0,0,0,0,0,0,0,0,0,0,0,0,3,3,0,0,VALID,0,0,0,0,0,1,0,0,0,0,0,0,0,0,0,0,0,0,0,0,339.44,1072.51,2,0,0.08,0.08,139,10,0.12,0.08,14.12,FLYING,X10-H,0:/Integrated Flight Computer/aircraft/x10_h_cfg.ks (inferred preloaded)
14.42,APPROACH,ILS_TRACK,150.74,152,1.26,654.2,575.61,-0.47,9.63,9.79,269.96,0.04,0.3042,0,20,1,0.6,4.5,0.75,0.35,0.0168,0.4,0,22.249,0,-1.269,0,269.97,0,0,1,-0.17,0,0,0,269.97,1,-0.0005,0.0003,0,269.97,1.65,-457.06,19.787,-0.031,0,0,3,741.67,7.726,0,1111.28,0,0,0,,0,0,0,0,0,0,0,0,575.61,0,0,0,0,0,0,0,0,0,269.81,0,0,0,0,0,0,0,0,0,0,0,0,0,3,3,0,0,VALID,0,0,0,0,0,1,0,0,0,0,0,0,0,0,0,0,0,0,0,0,338.85,1072.91,2,0,0.08,0.08,142,10,0.12,0.08,14.42,FLYING,X10-H,0:/Integrated Flight Computer/aircraft/x10_h_cfg.ks (inferred preloaded)
14.72,APPROACH,ILS_TRACK,150.86,152,1.14,654.08,575.46,-0.42,9.71,9.85,269.96,0.038,0.2876,0,20,1,0.6,4.5,0.75,0.35,0.0168,0.4,0,22.215,0,-1.148,0,269.97,0,0,1,-0.16,0,0,0,269.97,1,-0.0005,0.0002,0,269.97,1.61,-454.68,19.739,-0.03,0,0,3,741.67,7.914,0,1108.78,0,0,0,,0,0,0,0,0,0,0,0,575.46,0,0,0,0,0,0,0,0,0,269.81,0,0,0,0,0,0,0,0,0,0,0,0,0,3,3,0,0,VALID,0,0,0,0,0,1,0,0,0,0,0,0,0,0,0,0,0,0,0,0,337.13,1073.42,2,0,0.08,0.08,145,10,0.12,0.08,14.72,FLYING,X10-H,0:/Integrated Flight Computer/aircraft/x10_h_cfg.ks (inferred preloaded)
15.02,APPROACH,ILS_TRACK,150.97,152,1.03,653.95,575.34,-0.41,9.68,9.83,269.96,0.038,0.2794,0,20,1,0.6,4.5,0.75,0.35,0.0168,0.4,0,22.183,0,-1.037,0,269.97,0,0,1,-0.15,0,0,0,269.97,1,-0.0005,0.0001,0,269.97,1.57,-452.31,19.691,-0.03,0,0,3,741.67,7.89,0,1106.27,0,0,0,,0,0,0,0,0,0,0,0,575.34,0,0,0,0,0,0,0,0,0,269.81,0,0,0,0,0,0,0,0,0,0,0,0,0,3,3,0,0,VALID,0,0,0,0,0,1,0,0,0,0,0,0,0,0,0,0,0,0,0,0,334.23,1073.9,2,0,0.08,0.08,148,10,0.12,0.08,15.02,FLYING,X10-H,0:/Integrated Flight Computer/aircraft/x10_h_cfg.ks (inferred preloaded)
15.32,APPROACH,ILS_TRACK,151.07,152,0.93,653.81,575.22,-0.37,9.64,9.76,269.96,0.037,0.2782,0,20,1,0.6,4.5,0.75,0.35,0.0168,0.4,0,22.154,0,-0.935,0,269.98,0,0,1,-0.13,0,0,0,269.97,1,-0.0004,0.0001,0,269.98,1.53,-449.93,19.644,-0.023,0,0,3,741.67,7.858,0,1103.76,0,0,0,,0,0,0,0,0,0,0,0,575.22,0,0,0,0,0,0,0,0,0,269.81,0,0,0,0,0,0,0,0,0,0,0,0,0,3,3,0,0,VALID,0,0,0,0,0,1,0,0,0,0,0,0,0,0,0,0,0,0,0,0,330.79,1074.33,2,0,0.08,0.08,151,10,0.12,0.08,15.32,FLYING,X10-H,0:/Integrated Flight Computer/aircraft/x10_h_cfg.ks (inferred preloaded)
15.62,APPROACH,ILS_TRACK,151.17,152,0.83,653.71,575.1,-0.34,9.68,9.8,269.96,0.036,0.2791,0,20,1,0.6,4.5,0.75,0.35,0.0168,0.4,0,22.128,0,-0.84,0,269.97,0,0,1,-0.13,0,0,0,269.97,1,-0.0005,0,0,269.97,1.49,-447.53,19.596,-0.028,0,0,3,741.67,8.001,0,1101.25,0,0,0,,0,0,0,0,0,0,0,0,575.1,0,0,0,0,0,0,0,0,0,269.81,0,0,0,0,0,0,0,0,0,0,0,0,0,3,3,0,0,VALID,0,0,0,0,0,1,0,0,0,0,0,0,0,0,0,0,0,0,0,0,327.6,1074.74,2,0,0.08,0.08,154,10,0.12,0.08,15.62,FLYING,X10-H,0:/Integrated Flight Computer/aircraft/x10_h_cfg.ks (inferred preloaded)
15.92,APPROACH,ILS_TRACK,151.25,152,0.75,653.6,574.99,-0.32,9.68,9.78,269.96,0.037,0.2833,0,20,1,0.6,4.5,0.75,0.35,0.0168,0.4,0,22.105,0,-0.759,0,269.98,0,0,1,-0.12,0,0,0,269.98,1,-0.0004,-0.0001,0,269.98,1.45,-445.13,19.548,-0.025,0,0,3,741.67,8.021,0,1098.74,0,0,0,,0,0,0,0,0,0,0,0,574.99,0,0,0,0,0,0,0,0,0,269.81,0,0,0,0,0,0,0,0,0,0,0,0,0,3,3,0,0,VALID,0,0,0,0,0,1,0,0,0,0,0,0,0,0,0,0,0,0,0,0,325.09,1075.09,2,0,0.08,0.08,157,10,0.12,0.08,15.92,FLYING,X10-H,0:/Integrated Flight Computer/aircraft/x10_h_cfg.ks (inferred preloaded)
16.22,APPROACH,ILS_TRACK,151.32,152,0.68,653.49,574.89,-0.31,9.65,9.76,269.96,0.036,0.2851,0,20,1,0.6,4.5,0.75,0.35,0.0168,0.4,0,22.083,0,-0.682,0,269.97,0,0,1,-0.12,0,0,0,269.98,1,-0.0005,-0.0002,0,269.97,1.41,-442.72,19.5,-0.027,0,0,3,741.67,8.039,0,1096.23,0,0,0,,0,0,0,0,0,0,0,0,574.89,0,0,0,0,0,0,0,0,0,269.81,0,0,0,0,0,0,0,0,0,0,0,0,0,3,3,0,0,VALID,0,0,0,0,0,1,0,0,0,0,0,0,0,0,0,0,0,0,0,0,323.24,1075.42,2,0,0.08,0.08,160,10,0.12,0.08,16.22,FLYING,X10-H,0:/Integrated Flight Computer/aircraft/x10_h_cfg.ks (inferred preloaded)
16.52,APPROACH,ILS_TRACK,151.4,152,0.6,653.4,574.8,-0.3,9.64,9.75,269.96,0.036,0.2848,0,20,1,0.6,4.5,0.75,0.35,0.0168,0.4,0,22.062,0,-0.606,0,269.98,0,0,1,-0.11,0,0,0,269.98,1,-0.0003,-0.0003,0,269.98,1.37,-440.3,19.452,-0.018,0,0,3,741.67,8.072,0,1093.72,0,0,0,,0,0,0,0,0,0,0,0,574.8,0,0,0,0,0,0,0,0,0,269.81,0,0,0,0,0,0,0,0,0,0,0,0,0,3,3,0,0,VALID,0,0,0,0,0,1,0,0,0,0,0,0,0,0,0,0,0,0,0,0,321.66,1075.75,2,0,0.08,0.08,163,10,0.12,0.08,16.52,FLYING,X10-H,0:/Integrated Flight Computer/aircraft/x10_h_cfg.ks (inferred preloaded)
16.82,APPROACH,ILS_TRACK,151.47,152,0.53,653.31,574.71,-0.28,9.64,9.75,269.96,0.036,0.2857,0,20,1,0.6,4.5,0.75,0.35,0.0168,0.4,0,22.042,0,-0.535,0,269.98,0,0,1,-0.12,0,0,0,269.98,1,-0.0004,-0.0003,0,269.98,1.33,-437.88,19.404,-0.021,0,0,3,741.67,8.116,0,1091.2,0,0,0,,0,0,0,0,0,0,0,0,574.71,0,0,0,0,0,0,0,0,0,269.81,0,0,0,0,0,0,0,0,0,0,0,0,0,3,3,0,0,VALID,0,0,0,0,0,1,0,0,0,0,0,0,0,0,0,0,0,0,0,0,320.23,1076.05,2,0,0.08,0.08,166,10,0.12,0.08,16.82,FLYING,X10-H,0:/Integrated Flight Computer/aircraft/x10_h_cfg.ks (inferred preloaded)
17.12,APPROACH,ILS_TRACK,151.54,152,0.46,653.22,574.63,-0.26,9.63,9.72,269.96,0.035,0.2862,0,20,1,0.6,4.5,0.75,0.35,0.0168,0.4,0,22.023,0,-0.469,0,269.98,0,0,1,-0.1,0,0,0,269.98,1,-0.0003,-0.0004,0,269.98,1.3,-435.45,19.356,-0.02,0,0,3,741.67,8.115,0,1088.69,0,0,0,,0,0,0,0,0,0,0,0,574.63,0,0,0,0,0,0,0,0,0,269.81,0,0,0,0,0,0,0,0,0,0,0,0,0,3,3,0,0,VALID,0,0,0,0,0,1,0,0,0,0,0,0,0,0,0,0,0,0,0,0,319.06,1076.33,2,0,0.08,0.08,169,10,0.12,0.08,17.12,FLYING,X10-H,0:/Integrated Flight Computer/aircraft/x10_h_cfg.ks (inferred preloaded)
17.42,APPROACH,ILS_TRACK,151.6,152,0.4,653.14,574.55,-0.24,9.62,9.7,269.96,0.035,0.2868,0,20,1,0.6,4.5,0.75,0.35,0.0168,0.4,0,22.005,0,-0.406,0,269.98,0,0,1,-0.09,0,0,0,269.98,1,-0.0004,-0.0005,0,269.98,1.26,-433.01,19.308,-0.023,0,0,3,741.67,8.107,0,1086.17,0,0,0,,0,0,0,0,0,0,0,0,574.55,0,0,0,0,0,0,0,0,0,269.81,0,0,0,0,0,0,0,0,0,0,0,0,0,3,3,0,0,VALID,0,0,0,0,0,1,0,0,0,0,0,0,0,0,0,0,0,0,0,0,318.01,1076.6,2,0,0.08,0.08,172,10,0.12,0.08,17.42,FLYING,X10-H,0:/Integrated Flight Computer/aircraft/x10_h_cfg.ks (inferred preloaded)
17.72,APPROACH,ILS_TRACK,151.66,152,0.34,653.07,574.48,-0.24,9.61,9.69,269.96,0.035,0.2859,0,20,1,0.6,4.5,0.75,0.35,0.0168,0.4,0,21.988,0,-0.346,0,269.98,0,0,1,-0.09,0,0,0,269.98,1,-0.0004,-0.0006,0,269.98,1.22,-430.57,19.26,-0.021,0,0,3,741.67,8.14,0,1083.65,0,0,0,,0,0,0,0,0,0,0,0,574.48,0,0,0,0,0,0,0,0,0,269.81,0,0,0,0,0,0,0,0,0,0,0,0,0,3,3,0,0,VALID,0,0,0,0,0,1,0,0,0,0,0,0,0,0,0,0,0,0,0,0,317.13,1076.86,2,0,0.08,0.08,175,10,0.12,0.08,17.72,FLYING,X10-H,0:/Integrated Flight Computer/aircraft/x10_h_cfg.ks (inferred preloaded)
18.02,APPROACH,ILS_TRACK,151.71,152,0.29,653.01,574.41,-0.2,9.63,9.71,269.96,0.035,0.2864,0,20,1,0.6,4.5,0.75,0.35,0.0168,0.4,0,21.972,0,-0.289,0,269.98,0,0,1,-0.09,0,0,0,269.99,1,-0.0003,-0.0007,0,269.98,1.18,-428.12,19.212,-0.019,0,0,3,741.67,8.22,0,1081.13,0,0,0,,0,0,0,0,0,0,0,0,574.41,0,0,0,0,0,0,0,0,0,269.81,0,0,0,0,0,0,0,0,0,0,0,0,0,3,3,0,0,VALID,0,0,0,0,0,1,0,0,0,0,0,0,0,0,0,0,0,0,0,0,316.27,1077.1,2,0,0.08,0.08,178,10,0.12,0.08,18.02,FLYING,X10-H,0:/Integrated Flight Computer/aircraft/x10_h_cfg.ks (inferred preloaded)
18.32,APPROACH,ILS_TRACK,151.77,152,0.23,652.94,574.35,-0.18,9.61,9.67,269.96,0.034,0.2872,0,20,1,0.6,4.5,0.75,0.35,0.0168,0.4,0,21.958,0,-0.238,0,269.99,0,0,1,-0.07,0,0,0,269.98,1,-0.0002,-0.0007,0,269.99,1.15,-425.66,19.164,-0.011,0,0,3,741.67,8.187,0,1078.61,0,0,0,,0,0,0,0,0,0,0,0,574.35,0,0,0,0,0,0,0,0,0,269.81,0,0,0,0,0,0,0,0,0,0,0,0,0,3,3,0,0,VALID,0,0,0,0,0,1,0,0,0,0,0,0,0,0,0,0,0,0,0,0,315.6,1077.33,2,0,0.08,0.08,181,10,0.12,0.08,18.32,FLYING,X10-H,0:/Integrated Flight Computer/aircraft/x10_h_cfg.ks (inferred preloaded)
18.62,APPROACH,ILS_TRACK,151.82,152,0.18,652.89,574.3,-0.18,9.6,9.67,269.96,0.034,0.2849,0,20,1,0.6,4.5,0.75,0.35,0.0168,0.4,0,21.943,0,-0.184,0,269.98,0,0,1,-0.07,0,0,0,269.99,1,-0.0003,-0.0008,0,269.98,1.11,-423.2,19.116,-0.017,0,0,3,741.67,8.214,0,1076.09,0,0,0,,0,0,0,0,0,0,0,0,574.3,0,0,0,0,0,0,0,0,0,269.81,0,0,0,0,0,0,0,0,0,0,0,0,0,3,3,0,0,VALID,0,0,0,0,0,1,0,0,0,0,0,0,0,0,0,0,0,0,0,0,314.99,1077.56,2,0,0.08,0.08,184,10,0.12,0.08,18.62,FLYING,X10-H,0:/Integrated Flight Computer/aircraft/x10_h_cfg.ks (inferred preloaded)
18.92,APPROACH,ILS_TRACK,151.87,152,0.13,652.83,574.25,-0.16,9.6,9.66,269.96,0.034,0.2822,0,20,1,0.6,4.5,0.75,0.35,0.0168,0.4,0,21.928,0,-0.131,0,269.99,0,0,1,-0.06,0,0,0,269.98,1,-0.0002,-0.0009,0,269.99,1.08,-420.73,19.067,-0.01,0,0,3,741.67,8.238,0,1073.57,0,0,0,,0,0,0,0,0,0,0,0,574.25,0,0,0,0,0,0,0,0,0,269.81,0,0,0,0,0,0,0,0,0,0,0,0,0,3,3,0,0,VALID,0,0,0,0,0,1,0,0,0,0,0,0,0,0,0,0,0,0,0,0,314.16,1077.78,2,0,0.08,0.08,187,10,0.12,0.08,18.92,FLYING,X10-H,0:/Integrated Flight Computer/aircraft/x10_h_cfg.ks (inferred preloaded)
19.22,APPROACH,ILS_TRACK,151.92,152,0.08,652.79,574.2,-0.16,9.59,9.65,269.96,0.034,0.2815,0,20,1,0.6,4.5,0.75,0.35,0.0168,0.4,0,21.914,0,-0.082,0,269.99,0,0,1,-0.06,0,0,0,269.99,1,-0.0002,-0.001,0,269.99,1.04,-418.26,19.019,-0.013,0,0,3,741.67,8.246,0,1071.05,0,0,0,,0,0,0,0,0,0,0,0,574.2,0,0,0,0,0,0,0,0,0,269.81,0,0,0,0,0,0,0,0,0,0,0,0,0,3,3,0,0,VALID,0,0,0,0,0,1,0,0,0,0,0,0,0,0,0,0,0,0,0,0,313.18,1078,2,0,0.08,0.08,190,10,0.12,0.08,19.22,FLYING,X10-H,0:/Integrated Flight Computer/aircraft/x10_h_cfg.ks (inferred preloaded)
19.52,APPROACH,ILS_TRACK,151.97,152,0.03,652.74,574.16,-0.13,9.59,9.63,269.96,0.033,0.2829,0,20,1,0.6,4.5,0.75,0.35,0.0168,0.4,0,21.901,0,-0.037,0,269.99,0,0,1,-0.05,0,0,0,269.99,1,-0.0002,-0.0011,0,269.99,1.01,-415.78,18.971,-0.013,0,0,3,741.67,8.253,0,1068.53,0,0,0,,0,0,0,0,0,0,0,0,574.16,0,0,0,0,0,0,0,0,0,269.81,0,0,0,0,0,0,0,0,0,0,0,0,0,3,3,0,0,VALID,0,0,0,0,0,1,0,0,0,0,0,0,0,0,0,0,0,0,0,0,312.28,1078.18,2,0,0.08,0.08,193,10,0.12,0.08,19.52,FLYING,X10-H,0:/Integrated Flight Computer/aircraft/x10_h_cfg.ks (inferred preloaded)
19.82,APPROACH,ILS_TRACK,152.01,152,-0.01,652.71,574.12,-0.1,9.59,9.63,269.96,0.032,0.2835,0,20,1,0.6,4.5,0.75,0.35,0.0168,0.4,0,21.89,0,0.005,0,269.99,0,0,1,-0.04,0,0,0,269.98,1,-0.0002,-0.0011,0,269.99,0.97,-413.29,18.923,-0.009,0,0,3,741.67,8.306,0,1066,0,0,0,,0,0,0,0,0,0,0,0,574.12,0,0,0,0,0,0,0,0,0,269.81,0,0,0,0,0,0,0,0,0,0,0,0,0,3,3,0,0,VALID,0,0,0,0,0,1,0,0,0,0,0,0,0,0,0,0,0,0,0,0,311.6,1078.36,2,0,0.08,0.08,196,10,0.12,0.08,19.82,FLYING,X10-H,0:/Integrated Flight Computer/aircraft/x10_h_cfg.ks (inferred preloaded)
20.12,APPROACH,ILS_TRACK,152.05,152,-0.05,652.67,574.09,-0.1,9.58,9.62,269.96,0.032,0.2825,0,19.99,1,0.6,4.5,0.75,0.35,0.0168,0.4,0,21.878,0,0.045,0,269.99,0,0,1,-0.04,0,0,0,269.99,1,-0.0001,-0.0012,0,269.99,0.94,-410.8,18.875,-0.008,0,0,3,741.67,8.309,0,1063.48,0,0,0,,0,0,0,0,0,0,0,0,574.09,0,0,0,0,0,0,0,0,0,269.81,0,0,0,0,0,0,0,0,0,0,0,0,0,3,3,0,0,VALID,0,0,0,0,0,1,0,0,0,0,0,0,0,0,0,0,0,0,0,0,311.04,1078.54,2,0,0.08,0.08,199,10,0.12,0.08,20.12,FLYING,X10-H,0:/Integrated Flight Computer/aircraft/x10_h_cfg.ks (inferred preloaded)
20.42,APPROACH,ILS_TRACK,152.09,152,-0.09,652.64,574.06,-0.09,9.58,9.61,269.96,0.031,0.2805,0,19.968,1,0.6,4.5,0.75,0.35,0.0168,0.4,0,21.867,0,0.086,0,270,0,0,1,-0.03,0,0,0,269.99,1,0,-0.0013,0,270,0.9,-408.31,18.827,0.002,0,0,3,741.67,8.325,0,1060.96,0,0,0,,0,0,0,0,0,0,0,0,574.06,0,0,0,0,0,0,0,0,0,269.81,0,0,0,0,0,0,0,0,0,0,0,0,0,3,3,0,0,VALID,0,0,0,0,0,1,0,0,0,0,0,0,0,0,0,0,0,0,0,0,310.39,1078.71,2,0,0.08,0.08,202,10,0.12,0.08,20.42,FLYING,X10-H,0:/Integrated Flight Computer/aircraft/x10_h_cfg.ks (inferred preloaded)
20.72,APPROACH,ILS_TRACK,152.13,152,-0.13,652.62,574.04,-0.08,9.58,9.61,269.96,0.031,0.2791,0,19.934,1,0.6,4.5,0.75,0.35,0.0168,0.4,0,21.856,0,0.125,0,269.99,0,0,1,-0.03,0,0,0,270,1,-0.0002,-0.0014,0,269.99,0.87,-405.81,18.779,-0.009,0,0,3,741.67,8.34,0,1058.43,0,0,0,,0,0,0,0,0,0,0,0,574.04,0,0,0,0,0,0,0,0,0,269.81,0,0,0,0,0,0,0,0,0,0,0,0,0,3,3,0,0,VALID,0,0,0,0,0,1,0,0,0,0,0,0,0,0,0,0,0,0,0,0,309.6,1078.88,2,0,0.08,0.08,205,10,0.12,0.08,20.72,FLYING,X10-H,0:/Integrated Flight Computer/aircraft/x10_h_cfg.ks (inferred preloaded)
21.02,APPROACH,ILS_TRACK,152.16,152,-0.16,652.6,574.02,-0.06,9.58,9.6,269.96,0.03,0.2782,0,19.889,1,0.6,4.5,0.75,0.35,0.0168,0.4,0,21.845,0,0.162,0,270,0,0,1,-0.02,0,0,0,269.99,1,0,-0.0015,0,270,0.84,-403.3,18.73,-0.002,0,0,3,741.67,8.358,0,1055.9,0,0,0,,0,0,0,0,0,0,0,0,574.02,0,0,0,0,0,0,0,0,0,269.81,0,0,0,0,0,0,0,0,0,0,0,0,0,3,3,0,0,VALID,0,0,0,0,0,1,0,0,0,0,0,0,0,0,0,0,0,0,0,0,308.76,1079.03,2,0,0.08,0.08,208,10,0.12,0.08,21.02,FLYING,X10-H,0:/Integrated Flight Computer/aircraft/x10_h_cfg.ks (inferred preloaded)
21.32,APPROACH,ILS_TRACK,152.2,152,-0.2,652.58,574,-0.05,9.57,9.59,269.96,0.031,0.2779,0,19.834,1,0.6,4.5,0.75,0.35,0.0168,0.4,0,21.836,0,0.195,0,270,0,0,1,-0.02,0,0,0,269.99,1,-0.0001,-0.0016,0,270,0.8,-400.8,18.682,-0.003,0,0,3,741.67,8.394,0,1053.38,0,0,0,,0,0,0,0,0,0,0,0,574,0,0,0,0,0,0,0,0,0,269.81,0,0,0,0,0,0,0,0,0,0,0,0,0,3,3,0,0,VALID,0,0,0,0,0,1,0,0,0,0,0,0,0,0,0,0,0,0,0,0,307.93,1079.17,2,0,0.08,0.08,211,10,0.12,0.08,21.32,FLYING,X10-H,0:/Integrated Flight Computer/aircraft/x10_h_cfg.ks (inferred preloaded)
21.62,APPROACH,ILS_TRACK,152.23,152,-0.23,652.57,573.99,-0.02,9.58,9.58,269.96,0.031,0.2781,0,19.77,1,0.6,4.5,0.75,0.35,0.0168,0.4,0,21.828,0,0.225,0,270,0,0,1,-0.01,0,0,0,269.99,1,0,-0.0016,0,270,0.77,-398.28,18.634,0,0,0,3,741.67,8.407,0,1050.85,0,0,0,,0,0,0,0,0,0,0,0,573.99,0,0,0,0,0,0,0,0,0,269.81,0,0,0,0,0,0,0,0,0,0,0,0,0,3,3,0,0,VALID,0,0,0,0,0,1,0,0,0,0,0,0,0,0,0,0,0,0,0,0,307.17,1079.3,2,0,0.08,0.08,214,10,0.12,0.08,21.62,FLYING,X10-H,0:/Integrated Flight Computer/aircraft/x10_h_cfg.ks (inferred preloaded)
21.92,APPROACH,ILS_TRACK,152.25,152,-0.25,652.56,573.98,-0.03,9.58,9.6,269.96,0.031,0.2797,0,19.697,1,0.6,4.5,0.75,0.35,0.0168,0.4,0,21.821,0,0.25,0,270,0,0,1,-0.01,0,0,0,269.99,1,-0.0001,-0.0017,0,270,0.74,-395.76,18.586,-0.004,0,0,3,741.67,8.396,0,1048.32,0,0,0,,0,0,0,0,0,0,0,0,573.98,0,0,0,0,0,0,0,0,0,269.81,0,0,0,0,0,0,0,0,0,0,0,0,0,3,3,0,0,VALID,0,0,0,0,0,1,0,0,0,0,0,0,0,0,0,0,0,0,0,0,306.53,1079.41,2,0,0.08,0.08,217,10,0.12,0.08,21.92,FLYING,X10-H,0:/Integrated Flight Computer/aircraft/x10_h_cfg.ks (inferred preloaded)
22.22,APPROACH,ILS_TRACK,152.27,152,-0.27,652.56,573.97,-0.02,9.58,9.59,269.96,0.031,0.2796,0,19.618,1,0.6,4.5,0.75,0.35,0.0168,0.4,0,21.814,0,0.273,0,270,0,0,1,-0.01,0,0,0,270,1,0,-0.0018,0,270,0.7,-393.24,18.537,0,0,0,3,741.67,8.416,0,1045.8,0,0,0,,0,0,0,0,0,0,0,0,573.97,0,0,0,0,0,0,0,0,0,269.81,0,0,0,0,0,0,0,0,0,0,0,0,0,3,3,0,0,VALID,0,0,0,0,0,1,0,0,0,0,0,0,0,0,0,0,0,0,0,0,306.1,1079.51,2,0,0.08,0.08,220,10,0.12,0.08,22.22,FLYING,X10-H,0:/Integrated Flight Computer/aircraft/x10_h_cfg.ks (inferred preloaded)
22.52,APPROACH,ILS_TRACK,152.3,152,-0.3,652.56,573.97,0.01,9.58,9.58,269.97,0.03,0.2793,0,19.531,1,0.6,4.5,0.75,0.35,0.0168,0.4,0,21.808,0,0.295,0,270,0,0,1,0,0,0,0,270,1,0,-0.0019,0,270,0.67,-390.71,18.489,0.002,0,0,3,741.67,8.431,0,1043.27,0,0,0,,0,0,0,0,0,0,0,0,573.97,0,0,0,0,0,0,0,0,0,269.81,0,0,0,0,0,0,0,0,0,0,0,0,0,3,3,0,0,VALID,0,0,0,0,0,1,0,0,0,0,0,0,0,0,0,0,0,0,0,0,305.69,1079.6,2,0,0.08,0.08,223,10,0.12,0.08,22.52,FLYING,X10-H,0:/Integrated Flight Computer/aircraft/x10_h_cfg.ks (inferred preloaded)
22.82,APPROACH,ILS_TRACK,152.32,152,-0.32,652.56,573.98,0,9.57,9.57,269.97,0.031,0.2776,0,19.438,1,0.6,4.5,0.75,0.35,0.0168,0.4,0,21.802,0,0.317,0,270,0,0,1,0.01,0,0,0,270,1,0,-0.002,0,270,0.64,-388.18,18.441,0.001,0,0,3,741.67,8.419,0,1040.74,0,0,0,,0,0,0,0,0,0,0,0,573.98,0,0,0,0,0,0,0,0,0,269.81,0,0,0,0,0,0,0,0,0,0,0,0,0,3,3,0,0,VALID,0,0,0,0,0,1,0,0,0,0,0,0,0,0,0,0,0,0,0,0,305.26,1079.69,2,0,0.08,0.08,226,10,0.12,0.08,22.82,FLYING,X10-H,0:/Integrated Flight Computer/aircraft/x10_h_cfg.ks (inferred preloaded)
23.12,APPROACH,ILS_TRACK,152.34,152,-0.34,652.57,573.98,0.02,9.57,9.56,269.97,0.03,0.2765,0,19.339,1,0.6,4.5,0.75,0.35,0.0168,0.4,0,21.796,0,0.337,0,270,0,0,1,0.01,0,0,0,270,1,0.0001,-0.002,0,270,0.6,-385.65,18.393,0.003,0,0,3,741.67,8.431,0,1038.21,0,0,0,,0,0,0,0,0,0,0,0,573.98,0,0,0,0,0,0,0,0,0,269.81,0,0,0,0,0,0,0,0,0,0,0,0,0,3,3,0,0,VALID,0,0,0,0,0,1,0,0,0,0,0,0,0,0,0,0,0,0,0,0,304.67,1079.77,2,0,0.08,0.08,229,10,0.12,0.08,23.12,FLYING,X10-H,0:/Integrated Flight Computer/aircraft/x10_h_cfg.ks (inferred preloaded)
23.42,APPROACH,ILS_TRACK,152.36,152,-0.36,652.58,573.99,0.03,9.58,9.57,269.97,0.032,0.2757,0,19.234,1,0.6,4.5,0.75,0.35,0.0168,0.4,0,21.791,0,0.354,0,270,0,0,1,0.02,0,0,0,270,1,0,-0.0021,0,270,0.57,-383.11,18.344,-0.003,0,0,3,741.67,8.457,0,1035.68,0,0,0,,0,0,0,0,0,0,0,0,573.99,0,0,0,0,0,0,0,0,0,269.81,0,0,0,0,0,0,0,0,0,0,0,0,0,3,3,0,0,VALID,0,0,0,0,0,1,0,0,0,0,0,0,0,0,0,0,0,0,0,0,304.04,1079.85,2,0,0.08,0.08,232,10,0.12,0.08,23.42,FLYING,X10-H,0:/Integrated Flight Computer/aircraft/x10_h_cfg.ks (inferred preloaded)
23.72,APPROACH,ILS_TRACK,152.37,152,-0.37,652.59,574.01,0.06,9.59,9.57,269.97,0.032,0.2753,0,19.125,1,0.6,4.5,0.75,0.35,0.0168,0.4,0,21.787,0,0.37,0,270.01,0,0,1,0.02,0,0,0,270.01,1,0.0001,-0.0022,0,270.01,0.54,-380.56,18.296,0.006,0,0,3,741.67,8.507,0,1033.15,0,0,0,,0,0,0,0,0,0,0,0,574.01,0,0,0,0,0,0,0,0,0,269.81,0,0,0,0,0,0,0,0,0,0,0,0,0,3,3,0,0,VALID,0,0,0,0,0,1,0,0,0,0,0,0,0,0,0,0,0,0,0,0,303.39,1079.91,2,0,0.08,0.08,235,10,0.12,0.08,23.72,FLYING,X10-H,0:/Integrated Flight Computer/aircraft/x10_h_cfg.ks (inferred preloaded)
24.02,APPROACH,ILS_TRACK,152.38,152,-0.38,652.61,574.02,0.06,9.58,9.56,269.97,0.032,0.2744,0,19.011,1,0.6,4.5,0.75,0.35,0.0168,0.4,0,21.783,0,0.384,0,270,0,0,1,0.02,0,0,0,270.01,1,0.0001,-0.0023,0,270,0.51,-378.02,18.248,0.003,0,0,3,741.67,8.489,0,1030.62,0,0,0,,0,0,0,0,0,0,0,0,574.02,0,0,0,0,0,0,0,0,0,269.81,0,0,0,0,0,0,0,0,0,0,0,0,0,3,3,0,0,VALID,0,0,0,0,0,1,0,0,0,0,0,0,0,0,0,0,0,0,0,0,302.77,1079.97,2,0,0.08,0.08,238,10,0.12,0.08,24.02,FLYING,X10-H,0:/Integrated Flight Computer/aircraft/x10_h_cfg.ks (inferred preloaded)
24.32,APPROACH,ILS_TRACK,152.4,152,-0.4,652.63,574.05,0.08,9.59,9.55,269.97,0.032,0.274,0,18.894,1,0.6,4.5,0.75,0.35,0.0168,0.4,0,21.779,0,0.395,0,270.01,0,0,1,0.03,0,0,0,270.01,1,0.0003,-0.0024,0,270.01,0.48,-375.47,18.2,0.015,0,0,3,741.67,8.501,0,1028.09,0,0,0,,0,0,0,0,0,0,0,0,574.05,0,0,0,0,0,0,0,0,0,269.81,0,0,0,0,0,0,0,0,0,0,0,0,0,3,3,0,0,VALID,0,0,0,0,0,1,0,0,0,0,0,0,0,0,0,0,0,0,0,0,302.1,1080.01,2,0,0.08,0.08,241,10,0.12,0.08,24.32,FLYING,X10-H,0:/Integrated Flight Computer/aircraft/x10_h_cfg.ks (inferred preloaded)
24.62,APPROACH,ILS_TRACK,152.4,152,-0.4,652.66,574.07,0.06,9.58,9.57,269.97,0.034,0.2748,0,18.773,1,0.6,4.5,0.75,0.35,0.0168,0.4,0,21.777,0,0.403,0,270.01,0,0,1,0.03,0,0,0,270.01,1,0.0001,-0.0024,0,270.01,0.45,-372.91,18.151,0.007,0,0,3,741.67,8.517,0,1025.56,0,0,0,,0,0,0,0,0,0,0,0,574.07,0,0,0,0,0,0,0,0,0,269.81,0,0,0,0,0,0,0,0,0,0,0,0,0,3,3,0,0,VALID,0,0,0,0,0,1,0,0,0,0,0,0,0,0,0,0,0,0,0,0,301.49,1080.05,2,0,0.08,0.08,244,10,0.12,0.08,24.62,FLYING,X10-H,0:/Integrated Flight Computer/aircraft/x10_h_cfg.ks (inferred preloaded)
24.92,APPROACH,ILS_TRACK,152.41,152,-0.41,652.68,574.1,0.08,9.58,9.55,269.97,0.036,0.2755,0,18.651,1,0.6,4.5,0.75,0.35,0.0168,0.4,0,21.776,0,0.408,0,270.01,0,0,1,0.03,0,0,0,270,1,0.0001,-0.0025,0,270.01,0.42,-370.36,18.103,0.008,0,0,3,741.67,8.53,0,1023.03,0,0,0,,0,0,0,0,0,0,0,0,574.1,0,0,0,0,0,0,0,0,0,269.81,0,0,0,0,0,0,0,0,0,0,0,0,0,3,3,0,0,VALID,0,0,0,0,0,1,0,0,0,0,0,0,0,0,0,0,0,0,0,0,301.05,1080.07,2,0,0.08,0.08,247,10,0.12,0.08,24.92,FLYING,X10-H,0:/Integrated Flight Computer/aircraft/x10_h_cfg.ks (inferred preloaded)
25.22,APPROACH,ILS_TRACK,152.42,152,-0.42,652.71,574.13,0.1,9.59,9.56,269.97,0.035,0.2739,0,18.527,1,0.6,4.5,0.75,0.35,0.0168,0.4,0,21.774,0,0.415,0,270.01,0,0,1,0.04,0,0,0,270.01,1,0.0002,-0.0026,0,270.01,0.39,-367.8,18.055,0.009,0,0,3,741.67,8.531,0,1020.5,0,0,0,,0,0,0,0,0,0,0,0,574.13,0,0,0,0,0,0,0,0,0,269.81,0,0,0,0,0,0,0,0,0,0,0,0,0,3,3,0,0,VALID,0,0,0,0,0,1,0,0,0,0,0,0,0,0,0,0,0,0,0,0,300.64,1080.09,2,0,0.08,0.08,250,10,0.12,0.08,25.22,FLYING,X10-H,0:/Integrated Flight Computer/aircraft/x10_h_cfg.ks (inferred preloaded)
25.52,APPROACH,ILS_TRACK,152.42,152,-0.42,652.75,574.16,0.11,9.59,9.55,269.97,0.035,0.2732,0,18.402,1,0.6,4.5,0.75,0.35,0.0168,0.4,0,21.773,0,0.419,0,270.01,0,0,1,0.05,0,0,0,270.01,1,0.0001,-0.0027,0,270.01,0.36,-365.23,18.007,0.008,0,0,3,741.67,8.543,0,1017.97,0,0,0,,0,0,0,0,0,0,0,0,574.16,0,0,0,0,0,0,0,0,0,269.81,0,0,0,0,0,0,0,0,0,0,0,0,0,3,3,0,0,VALID,0,0,0,0,0,1,0,0,0,0,0,0,0,0,0,0,0,0,0,0,300.13,1080.11,2,0,0.08,0.08,253,10,0.12,0.08,25.52,FLYING,X10-H,0:/Integrated Flight Computer/aircraft/x10_h_cfg.ks (inferred preloaded)
25.82,APPROACH,ILS_TRACK,152.42,152,-0.42,652.79,574.2,0.12,9.59,9.55,269.97,0.037,0.2736,0,18.276,1,0.6,4.5,0.75,0.35,0.0168,0.4,0,21.772,0,0.421,0,270.01,0,0,1,0.05,0,0,0,270.02,1,0.0001,-0.0028,0,270.01,0.33,-362.66,17.958,0.007,0,0,3,741.67,8.555,0,1015.44,0,0,0,,0,0,0,0,0,0,0,0,574.2,0,0,0,0,0,0,0,0,0,269.81,0,0,0,0,0,0,0,0,0,0,0,0,0,3,3,0,0,VALID,0,0,0,0,0,1,0,0,0,0,0,0,0,0,0,0,0,0,0,0,299.62,1080.11,2,0,0.08,0.08,256,10,0.12,0.08,25.82,FLYING,X10-H,0:/Integrated Flight Computer/aircraft/x10_h_cfg.ks (inferred preloaded)
26.12,APPROACH,ILS_TRACK,152.42,152,-0.42,652.83,574.24,0.14,9.6,9.55,269.97,0.038,0.2725,0,18.149,1,0.6,4.5,0.75,0.35,0.0168,0.4,0,21.772,0,0.422,0,270.02,0,0,1,0.05,0,0,0,270.02,1,0.0003,-0.0028,0,270.02,0.3,-360.09,17.91,0.015,0,0,3,741.67,8.591,0,1012.91,0,0,0,,0,0,0,0,0,0,0,0,574.24,0,0,0,0,0,0,0,0,0,269.81,0,0,0,0,0,0,0,0,0,0,0,0,0,3,3,0,0,VALID,0,0,0,0,0,1,0,0,0,0,0,0,0,0,0,0,0,0,0,0,299.16,1080.11,2,0,0.08,0.08,259,10,0.12,0.08,26.12,FLYING,X10-H,0:/Integrated Flight Computer/aircraft/x10_h_cfg.ks (inferred preloaded)
26.42,APPROACH,ILS_TRACK,152.42,152,-0.42,652.87,574.28,0.14,9.6,9.56,269.97,0.041,0.2712,0,18.022,1,0.6,4.5,0.75,0.35,0.0168,0.4,0,21.772,0,0.423,0,270.01,0,0,1,0.05,0,0,0,270.02,1,0.0002,-0.0029,0,270.01,0.27,-357.52,17.862,0.014,0,0,3,741.67,8.574,0,1010.38,0,0,0,,0,0,0,0,0,0,0,0,574.28,0,0,0,0,0,0,0,0,0,269.81,0,0,0,0,0,0,0,0,0,0,0,0,0,3,3,0,0,VALID,0,0,0,0,0,1,0,0,0,0,0,0,0,0,0,0,0,0,0,0,298.64,1080.11,2,0,0.08,0.08,262,10,0.12,0.08,26.42,FLYING,X10-H,0:/Integrated Flight Computer/aircraft/x10_h_cfg.ks (inferred preloaded)
26.72,APPROACH,ILS_TRACK,152.42,152,-0.42,652.91,574.32,0.16,9.6,9.55,269.97,0.042,0.2708,0,17.895,1,0.6,4.5,0.75,0.35,0.0168,0.4,0,21.772,0,0.422,0,270.02,0,0,1,0.06,0,0,0,270.01,1,0.0003,-0.003,0,270.02,0.24,-354.94,17.813,0.02,0,0,3,741.67,8.59,0,1007.85,0,0,0,,0,0,0,0,0,0,0,0,574.32,0,0,0,0,0,0,0,0,0,269.81,0,0,0,0,0,0,0,0,0,0,0,0,0,3,3,0,0,VALID,0,0,0,0,0,1,0,0,0,0,0,0,0,0,0,0,0,0,0,0,298.05,1080.1,2,0,0.08,0.08,265,10,0.12,0.08,26.72,FLYING,X10-H,0:/Integrated Flight Computer/aircraft/x10_h_cfg.ks (inferred preloaded)
27.02,APPROACH,ILS_TRACK,152.42,152,-0.42,652.97,574.37,0.14,9.61,9.57,269.97,0.045,0.2713,0,17.769,1,0.6,4.5,0.75,0.35,0.0168,0.4,0,21.773,0,0.419,0,270.02,0,0,1,0.05,0,0,0,270.02,1,0.0003,-0.0031,0,270.02,0.21,-352.36,17.765,0.016,0,0,3,741.67,8.62,0,1005.32,0,0,0,,0,0,0,0,0,0,0,0,574.37,0,0,0,0,0,0,0,0,0,269.81,0,0,0,0,0,0,0,0,0,0,0,0,0,3,3,0,0,VALID,0,0,0,0,0,1,0,0,0,0,0,0,0,0,0,0,0,0,0,0,297.48,1080.08,2,0,0.08,0.08,268,10,0.12,0.08,27.02,FLYING,X10-H,0:/Integrated Flight Computer/aircraft/x10_h_cfg.ks (inferred preloaded)
27.32,APPROACH,ILS_TRACK,152.41,152,-0.41,653.02,574.42,0.15,9.61,9.57,269.97,0.047,0.2745,0,17.646,1,0.6,4.5,0.75,0.35,0.0168,0.4,0,21.776,0,0.409,0,270.01,0,0,1,0.05,0,0,0,270.02,1,0.0001,-0.0032,0,270.01,0.19,-349.78,17.717,0.008,0,0,3,741.67,8.627,0,1002.79,0,0,0,,0,0,0,0,0,0,0,0,574.42,0,0,0,0,0,0,0,0,0,269.81,0,0,0,0,0,0,0,0,0,0,0,0,0,3,3,0,0,VALID,0,0,0,0,0,1,0,0,0,0,0,0,0,0,0,0,0,0,0,0,297.11,1080.04,2,0,0.08,0.08,271,10,0.12,0.08,27.32,FLYING,X10-H,0:/Integrated Flight Computer/aircraft/x10_h_cfg.ks (inferred preloaded)
27.62,APPROACH,ILS_TRACK,152.4,152,-0.4,653.07,574.48,0.18,9.62,9.56,269.97,0.047,0.2758,0,17.525,1,0.6,4.5,0.75,0.35,0.0168,0.4,0,21.779,0,0.398,0,270.01,0,0,1,0.07,0,0,0,270.03,1,0.0003,-0.0032,0,270.01,0.16,-347.2,17.669,0.015,0,0,3,741.67,8.627,0,1000.26,0,0,0,,0,0,0,0,0,0,0,0,574.48,0,0,0,0,0,0,0,0,0,269.81,0,0,0,0,0,0,0,0,0,0,0,0,0,3,3,0,0,VALID,0,0,0,0,0,1,0,0,0,0,0,0,0,0,0,0,0,0,0,0,297.07,1079.99,2,0,0.08,0.08,274,10,0.12,0.08,27.62,FLYING,X10-H,0:/Integrated Flight Computer/aircraft/x10_h_cfg.ks (inferred preloaded)
27.92,APPROACH,ILS_TRACK,152.39,152,-0.39,653.13,574.53,0.18,9.62,9.55,269.98,0.048,0.2734,0,17.407,1,0.6,4.5,0.75,0.35,0.0168,0.4,0,21.78,0,0.392,0,270.01,0,0,1,0.07,0,0,0,270.02,1,0.0003,-0.0033,0,270.01,0.13,-344.61,17.62,0.014,0,0,3,741.67,8.613,0,997.73,0,0,0,,0,0,0,0,0,0,0,0,574.53,0,0,0,0,0,0,0,0,0,269.81,0,0,0,0,0,0,0,0,0,0,0,0,0,3,3,0,0,VALID,0,0,0,0,0,1,0,0,0,0,0,0,0,0,0,0,0,0,0,0,297.05,1079.96,2,0,0.08,0.08,277,10,0.12,0.08,27.92,FLYING,X10-H,0:/Integrated Flight Computer/aircraft/x10_h_cfg.ks (inferred preloaded)
28.22,APPROACH,ILS_TRACK,152.38,152,-0.38,653.19,574.59,0.21,9.62,9.55,269.98,0.049,0.2726,0,17.291,1,0.6,4.5,0.75,0.35,0.0168,0.4,0,21.783,0,0.384,0,270.02,0,0,1,0.08,0,0,0,270.02,1,0.0003,-0.0034,0,270.02,0.1,-342.02,17.572,0.018,0,0,3,741.67,8.613,0,995.2,0,0,0,,0,0,0,0,0,0,0,0,574.59,0,0,0,0,0,0,0,0,0,269.81,0,0,0,0,0,0,0,0,0,0,0,0,0,3,3,0,0,VALID,0,0,0,0,0,1,0,0,0,0,0,0,0,0,0,0,0,0,0,0,296.82,1079.92,2,0,0.08,0.08,280,10,0.12,0.08,28.22,FLYING,X10-H,0:/Integrated Flight Computer/aircraft/x10_h_cfg.ks (inferred preloaded)
28.52,APPROACH,ILS_TRACK,152.37,152,-0.37,653.25,574.65,0.2,9.63,9.55,269.98,0.049,0.2721,0,17.178,1,0.6,4.5,0.75,0.35,0.0168,0.4,0,21.785,0,0.375,0,270.02,0,0,1,0.08,0,0,0,270.01,1,0.0003,-0.0035,0,270.02,0.08,-339.43,17.524,0.017,0,0,3,741.67,8.627,0,992.67,0,0,0,,0,0,0,0,0,0,0,0,574.65,0,0,0,0,0,0,0,0,0,269.81,0,0,0,0,0,0,0,0,0,0,0,0,0,3,3,0,0,VALID,0,0,0,0,0,1,0,0,0,0,0,0,0,0,0,0,0,0,0,0,296.55,1079.88,2,0,0.08,0.08,283,10,0.12,0.08,28.52,FLYING,X10-H,0:/Integrated Flight Computer/aircraft/x10_h_cfg.ks (inferred preloaded)
28.82,APPROACH,ILS_TRACK,152.36,152,-0.36,653.32,574.71,0.19,9.63,9.57,269.98,0.05,0.2728,0,17.067,1,0.6,4.5,0.75,0.35,0.0168,0.4,0,21.788,0,0.364,0,270.02,0,0,1,0.07,0,0,0,270.01,1,0.0003,-0.0036,0,270.02,0.06,-336.84,17.476,0.017,0,0,3,741.67,8.653,0,990.14,0,0,0,,0,0,0,0,0,0,0,0,574.71,0,0,0,0,0,0,0,0,0,269.81,0,0,0,0,0,0,0,0,0,0,0,0,0,3,3,0,0,VALID,0,0,0,0,0,1,0,0,0,0,0,0,0,0,0,0,0,0,0,0,296.24,1079.82,2,0,0.08,0.08,286,10,0.12,0.08,28.82,FLYING,X10-H,0:/Integrated Flight Computer/aircraft/x10_h_cfg.ks (inferred preloaded)
29.12,APPROACH,ILS_TRACK,152.35,152,-0.35,653.38,574.78,0.2,9.61,9.54,269.98,0.051,0.2747,0,16.961,1,0.6,4.5,0.75,0.35,0.0168,0.4,0,21.792,0,0.349,0,270.02,0,0,1,0.08,0,0,0,270.02,1,0.0003,-0.0036,0,270.02,0.03,-334.25,17.427,0.018,0,0,3,741.67,8.63,0,987.62,0,0,0,,0,0,0,0,0,0,0,0,574.78,0,0,0,0,0,0,0,0,0,269.81,0,0,0,0,0,0,0,0,0,0,0,0,0,3,3,0,0,VALID,0,0,0,0,0,1,0,0,0,0,0,0,0,0,0,0,0,0,0,0,296.1,1079.76,2,0,0.08,0.08,289,10,0.12,0.08,29.12,FLYING,X10-H,0:/Integrated Flight Computer/aircraft/x10_h_cfg.ks (inferred preloaded)
29.42,APPROACH,ILS_TRACK,152.34,152,-0.34,653.45,574.85,0.24,9.64,9.55,269.98,0.051,0.2737,0,16.858,1,0.6,4.5,0.75,0.35,0.0168,0.4,0,21.796,0,0.338,0,270.02,0,0,1,0.09,0,0,0,270.02,1,0.0003,-0.0037,0,270.02,0.01,-331.65,17.379,0.015,0,0,3,741.67,8.645,0,985.09,0,0,0,,0,0,0,0,0,0,0,0,574.85,0,0,0,0,0,0,0,0,0,269.81,0,0,0,0,0,0,0,0,0,0,0,0,0,3,3,0,0,VALID,0,0,0,0,0,1,0,0,0,0,0,0,0,0,0,0,0,0,0,0,296.06,1079.7,2,0,0.08,0.08,292,10,0.12,0.08,29.42,FLYING,X10-H,0:/Integrated Flight Computer/aircraft/x10_h_cfg.ks (inferred preloaded)
29.72,APPROACH,ILS_TRACK,152.33,152,-0.33,653.52,574.92,0.24,9.64,9.56,269.98,0.051,0.2717,0,16.759,1,0.6,4.5,0.75,0.35,0.0168,0.4,0,21.799,0,0.328,0,270.02,0,0,1,0.09,0,0,0,270.01,1,0.0003,-0.0038,0,270.02,-0.02,-329.05,17.331,0.019,0,0,3,741.67,8.666,0,982.56,0,0,0,,0,0,0,0,0,0,0,0,574.92,0,0,0,0,0,0,0,0,0,269.81,0,0,0,0,0,0,0,0,0,0,0,0,0,3,3,0,0,VALID,0,0,0,0,0,1,0,0,0,0,0,0,0,0,0,0,0,0,0,0,295.94,1079.65,2,0,0.08,0.08,295,10,0.12,0.08,29.72,FLYING,X10-H,0:/Integrated Flight Computer/aircraft/x10_h_cfg.ks (inferred preloaded)
30.02,APPROACH,ILS_TRACK,152.32,152,-0.32,653.59,574.99,0.24,9.64,9.55,269.98,0.053,0.2703,0,16.663,1,0.6,4.5,0.75,0.35,0.0168,0.4,0,21.801,0,0.317,0,270.02,0,0,1,0.09,0,0,0,270.02,1,0.0003,-0.0039,0,270.02,-0.04,-326.45,17.283,0.019,0,0,3,741.67,8.667,0,980.03,0,0,0,,0,0,0,0,0,0,0,0,574.99,0,0,0,0,0,0,0,0,0,269.81,0,0,0,0,0,0,0,0,0,0,0,0,0,3,3,0,0,VALID,0,0,0,0,0,1,0,0,0,0,0,0,0,0,0,0,0,0,0,0,295.62,1079.61,2,0,0.08,0.08,298,10,0.12,0.08,30.02,FLYING,X10-H,0:/Integrated Flight Computer/aircraft/x10_h_cfg.ks (inferred preloaded)
30.32,APPROACH,ILS_TRACK,152.3,152,-0.3,653.66,575.06,0.22,9.63,9.55,269.98,0.055,0.2711,0,16.57,1,0.6,4.5,0.75,0.35,0.0168,0.4,0,21.805,0,0.305,0,270.01,0,0,1,0.09,0,0,0,270.03,1,0.0002,-0.004,0,270.01,-0.06,-323.85,17.234,0.01,0,0,3,741.67,8.658,0,977.5,0,0,0,,0,0,0,0,0,0,0,0,575.06,0,0,0,0,0,0,0,0,0,269.81,0,0,0,0,0,0,0,0,0,0,0,0,0,3,3,0,0,VALID,0,0,0,0,0,1,0,0,0,0,0,0,0,0,0,0,0,0,0,0,295.22,1079.54,2,0,0.08,0.08,301,10,0.12,0.08,30.32,FLYING,X10-H,0:/Integrated Flight Computer/aircraft/x10_h_cfg.ks (inferred preloaded)
30.62,APPROACH,ILS_TRACK,152.29,152,-0.29,653.74,575.14,0.26,9.65,9.56,269.98,0.056,0.2719,0,16.481,1,0.6,4.5,0.75,0.35,0.0168,0.4,0,21.809,0,0.29,0,270.02,0,0,1,0.1,0,0,0,270.02,1,0.0003,-0.004,0,270.02,-0.08,-321.24,17.186,0.015,0,0,3,741.67,8.681,0,974.97,0,0,0,,0,0,0,0,0,0,0,0,575.14,0,0,0,0,0,0,0,0,0,269.81,0,0,0,0,0,0,0,0,0,0,0,0,0,3,3,0,0,VALID,0,0,0,0,0,1,0,0,0,0,0,0,0,0,0,0,0,0,0,0,294.95,1079.48,2,0,0.08,0.08,304,10,0.12,0.08,30.62,FLYING,X10-H,0:/Integrated Flight Computer/aircraft/x10_h_cfg.ks (inferred preloaded)
30.92,APPROACH,ILS_TRACK,152.28,152,-0.28,653.82,575.21,0.25,9.66,9.58,269.98,0.056,0.272,0,16.397,1,0.6,4.5,0.75,0.35,0.0168,0.4,0,21.813,0,0.277,0,270.02,0,0,1,0.09,0,0,0,270.02,1,0.0004,-0.0041,0,270.02,-0.1,-318.63,17.138,0.023,0,0,3,741.67,8.695,0,972.44,0,0,0,,0,0,0,0,0,0,0,0,575.21,0,0,0,0,0,0,0,0,0,269.81,0,0,0,0,0,0,0,0,0,0,0,0,0,3,3,0,0,VALID,0,0,0,0,0,1,0,0,0,0,0,0,0,0,0,0,0,0,0,0,294.77,1079.41,2,0,0.08,0.08,307,10,0.12,0.08,30.92,FLYING,X10-H,0:/Integrated Flight Computer/aircraft/x10_h_cfg.ks (inferred preloaded)
31.22,APPROACH,ILS_TRACK,152.26,152,-0.26,653.9,575.29,0.26,9.66,9.57,269.98,0.055,0.2738,0,16.317,1,0.6,4.5,0.75,0.35,0.0168,0.4,0,21.818,0,0.26,0,270.02,0,0,1,0.1,0,0,0,270.02,1,0.0004,-0.0042,0,270.02,-0.12,-316.03,17.09,0.021,0,0,3,741.67,8.683,0,969.92,0,0,0,,0,0,0,0,0,0,0,0,575.29,0,0,0,0,0,0,0,0,0,269.81,0,0,0,0,0,0,0,0,0,0,0,0,0,3,3,0,0,VALID,0,0,0,0,0,1,0,0,0,0,0,0,0,0,0,0,0,0,0,0,294.68,1079.34,2,0,0.08,0.08,310,10,0.12,0.08,31.22,FLYING,X10-H,0:/Integrated Flight Computer/aircraft/x10_h_cfg.ks (inferred preloaded)
31.52,APPROACH,ILS_TRACK,152.24,152,-0.24,653.98,575.37,0.31,9.69,9.57,269.99,0.056,0.2751,0,16.243,1,0.6,4.5,0.75,0.35,0.0168,0.4,0,21.823,0,0.242,0,270.02,0,0,1,0.11,0,0,0,270.02,1,0.0003,-0.0043,0,270.02,-0.14,-313.41,17.041,0.018,0,0,3,741.67,8.714,0,967.39,0,0,0,,0,0,0,0,0,0,0,0,575.37,0,0,0,0,0,0,0,0,0,269.81,0,0,0,0,0,0,0,0,0,0,0,0,0,3,3,0,0,VALID,0,0,0,0,0,1,0,0,0,0,0,0,0,0,0,0,0,0,0,0,294.71,1079.25,2,0,0.08,0.08,313,10,0.12,0.08,31.52,FLYING,X10-H,0:/Integrated Flight Computer/aircraft/x10_h_cfg.ks (inferred preloaded)
31.82,APPROACH,ILS_TRACK,152.22,152,-0.22,654.07,575.45,0.28,9.68,9.59,269.99,0.056,0.2772,0,16.175,1,0.6,4.5,0.75,0.35,0.0168,0.4,0,21.829,0,0.221,0,270.02,0,0,1,0.09,0,0,0,270.03,1,0.0003,-0.0044,0,270.02,-0.16,-310.81,16.993,0.018,0,0,3,741.67,8.78,0,964.86,0,0,0,,0,0,0,0,0,0,0,0,575.45,0,0,0,0,0,0,0,0,0,269.81,0,0,0,0,0,0,0,0,0,0,0,0,0,3,3,0,0,VALID,0,0,0,0,0,1,0,0,0,0,0,0,0,0,0,0,0,0,0,0,294.91,1079.16,2,0,0.08,0.08,316,10,0.12,0.08,31.82,FLYING,X10-H,0:/Integrated Flight Computer/aircraft/x10_h_cfg.ks (inferred preloaded)
32.12,APPROACH,ILS_TRACK,152.2,152,-0.2,654.15,575.54,0.29,9.67,9.57,269.99,0.056,0.2782,0,16.113,1,0.6,4.5,0.75,0.35,0.0168,0.4,0,21.834,0,0.201,0,270.02,0,0,1,0.11,0,0,0,270.02,1,0.0003,-0.0044,0,270.02,-0.18,-308.2,16.945,0.018,0,0,3,741.67,8.715,0,962.33,0,0,0,,0,0,0,0,0,0,0,0,575.54,0,0,0,0,0,0,0,0,0,269.81,0,0,0,0,0,0,0,0,0,0,0,0,0,3,3,0,0,VALID,0,0,0,0,0,1,0,0,0,0,0,0,0,0,0,0,0,0,0,0,295.21,1079.07,2,0,0.08,0.08,319,10,0.12,0.08,32.12,FLYING,X10-H,0:/Integrated Flight Computer/aircraft/x10_h_cfg.ks (inferred preloaded)
32.42,APPROACH,ILS_TRACK,152.18,152,-0.18,654.23,575.62,0.27,9.64,9.54,269.99,0.057,0.277,0,16.056,1,0.6,4.5,0.75,0.35,0.0168,0.4,0,21.839,0,0.185,0,270.02,0,0,1,0.11,0,0,0,270.02,1,0.0004,-0.0045,0,270.02,-0.2,-305.59,16.897,0.022,0,0,3,741.67,8.653,0,959.81,0,0,0,,0,0,0,0,0,0,0,0,575.62,0,0,0,0,0,0,0,0,0,269.81,0,0,0,0,0,0,0,0,0,0,0,0,0,3,3,0,0,VALID,0,0,0,0,0,1,0,0,0,0,0,0,0,0,0,0,0,0,0,0,295.45,1078.99,2,0,0.08,0.08,322,10,0.12,0.08,32.42,FLYING,X10-H,0:/Integrated Flight Computer/aircraft/x10_h_cfg.ks (inferred preloaded)
32.72,APPROACH,ILS_TRACK,152.16,152,-0.16,654.32,575.71,0.3,9.68,9.57,269.99,0.056,0.2805,0,16.004,1,0.6,4.5,0.75,0.35,0.0168,0.4,0,21.845,0,0.165,0,270.03,0,0,1,0.12,0,0,0,270.03,1,0.0004,-0.0046,0,270.03,-0.22,-302.97,16.848,0.025,0,0,3,741.67,8.661,0,957.28,0,0,0,,0,0,0,0,0,0,0,0,575.71,0,0,0,0,0,0,0,0,0,269.81,0,0,0,0,0,0,0,0,0,0,0,0,0,3,3,0,0,VALID,0,0,0,0,0,1,0,0,0,0,0,0,0,0,0,0,0,0,0,0,295.61,1078.9,2,0,0.08,0.08,325,10,0.12,0.08,32.72,FLYING,X10-H,0:/Integrated Flight Computer/aircraft/x10_h_cfg.ks (inferred preloaded)
