t_s,phase,subphase,ias_ms,vapp_ms,spd_err_ms,agl_m,vs_ms,pitch_deg,aoa_deg,hdg_deg,bank_deg,thr_cmd,thr_cur,thr_intg,at_gain,at_tau_s,at_a_up,at_a_dn,at_kp_thr,at_ki_spd,at_thr_slew,as_cmd_deg,as_cap_deg,as_raw_deg,as_spd_err_ms,as_active,aa_hdg_cmd_deg,aa_fpa_cmd_deg,aa_fbw,aa_dir,actual_fpa_deg,ftf_hdg_err_deg,ftf_fix_idx,kos_steer_pit_deg,kos_steer_hdg_deg,aa_dir_vx,aa_dir_vy,aa_dir_vz,aa_dir_pitch_deg,aa_dir_hdg_deg,ils_loc_m,ils_gs_m,ils_dist_km,loc_corr_deg,gs_corr_deg,gs_latched,active_gs_ang_deg,ils_intercept_alt_m,d_gs_ms,fpa_preclamped_deg,gs_nom_alt_m,flare_fpa_cmd,flare_tgt_vs,flare_frac,steer_hdg_deg,steer_blend,ro_loc_corr_deg,ro_hdg_err_deg,ro_yaw_tgt,ro_yaw_scale,ro_yaw_gate,yaw_cmd,roll_cmd,pitch_cmd,ro_pitch_tgt_deg,ro_pitch_err_deg,ro_pitch_ff,ro_roll_assist,flaps_cur,flaps_tgt,asc_j_ab,asc_j_rk,asc_validity,asc_q_pa,asc_q_raw_pa,asc_mach,asc_apo_m,asc_drag_n,asc_w_prop,asc_edot_aero,asc_edot_orb,asc_pitch_bias,asc_blend,asc_spooling,asc_ab_thr_ratio,asc_ab_t_now,asc_ab_t_avail,asc_ab_ign_on,asc_ab_flameouts,asc_rk_t_now,asc_rk_t_avail,asc_rk_ign_on,asc_rk_flameouts,ship_thrust,ship_avail_thrust,ship_ign_on,ship_flameouts,ifc_raw_dt_s,ifc_dt_s,ifc_loop_n,ifc_hz_est,ifc_raw_dt_max_s,ifc_raw_dt_min_s,phase_el_s,status,craft_name,cfg_file
0.22,TAKEOFF,TO_PREFLIGHT,0.34,80,79.66,3.61,0,-0.18,0.09,89.51,0.088,0.072,0,0,0,0,0,0,0,0,0,0,0,0,0,0,90.4,0,1,0,-0.09,0,0,0,90,0,0,0,0,0,0,0,0,0,0,0,3,0,0,0,69,0,0,0,90.4,1,0,-0.889,0,0,1,0,0,0,0,0,0,0,0,1,0,0,VALID,0,0,0,0,0,1,0,0,0,0,0,0,0,0,0,0,0,0,0,0,0,490.04,2,0,0.18,0.18,1,3.45,0.18,0.02,0.04,LANDED,CF1-J,0:/Integrated Flight Computer/aircraft/cf1_j_cfg.ks (inferred preloaded)
0.48,TAKEOFF,TO_PREFLIGHT,0.34,80,79.66,3.61,0,-0.2,-0.1,89.5,0.095,0.12,0,0,0,0,0,0,0,0,0,0,0,0,0,0,90.4,0,1,0,0.02,0,0,0,90,0,0,0,0,0,0,0,0,0,0,0,3,0,0,0,69,0,0,0,90.4,1,0,-0.894,0,0,1,0,0,0,0,0,0,0,1,1,0,0,VALID,0,0,0,0,0,1,0,0,0,0,0,0,0,0,0,0,0,0,0,0,0.44,490.04,2,0,0.04,0.04,6,19.23,0.18,0.04,0.3,LANDED,CF1-J,0:/Integrated Flight Computer/aircraft/cf1_j_cfg.ks (inferred preloaded)
0.74,TAKEOFF,TO_PREFLIGHT,0.21,80,79.79,3.6,0.01,-0.27,-3.16,89.49,0.113,0.224,0,0,0,0,0,0,0,0,0,0,0,0,0,0,90.4,0,1,0,0.34,0,0,0,90,0,0,0,0,0,0,0,0,0,0,0,3,0,0,0,69,0,0,0,90.4,1,0,-0.894,0,0,1,0,0,0,0,0,0,0,1,1,0,0,VALID,0,0,0,0,0,1,0,0,0,0,0,0,0,0,0,0,0,0,0,0,1.53,490.07,2,0,0.04,0.04,11,19.23,0.08,0.04,0.56,LANDED,CF1-J,0:/Integrated Flight Computer/aircraft/cf1_j_cfg.ks (inferred preloaded)
1,TAKEOFF,TO_PREFLIGHT,0.02,80,79.98,3.61,-0.01,-0.23,14.4,89.48,0.124,0.328,0,0,0,0,0,0,0,0,0,0,0,0,0,0,90.4,0,1,0,-0.7,0,0,0,90,0,0,0,0,0,0,0,0,0,0,0,3,0,0,0,69,0,0,0,90.4,1,0,-0.894,0,0,1,0,0,0,0,0,0,0,1,1,0,0,VALID,0,0,0,0,0,1,0,0,0,0,0,0,0,0,0,0,0,0,0,0,3.4,490.11,2,0,0.04,0.04,16,19.23,0.08,0.04,0.82,LANDED,CF1-J,0:/Integrated Flight Computer/aircraft/cf1_j_cfg.ks (inferred preloaded)
1.26,TAKEOFF,TO_PREFLIGHT,0.04,80,79.96,3.62,0,-0.12,2.28,89.46,0.119,0.432,0,0,0,0,0,0,0,0,0,0,0,0,0,0,90.4,0,1,0,0.12,0,0,0,90,0,0,0,0,0,0,0,0,0,0,0,3,0,0,0,69,0,0,0,90.4,1,0,-0.894,0,0,1,0,0,0,0,0,0,0,1,1,0,0,VALID,0,0,0,0,0,1,0,0,0,0,0,0,0,0,0,0,0,0,0,0,6.02,490.11,2,0,0.04,0.04,21,19.23,0.08,0.04,1.08,LANDED,CF1-J,0:/Integrated Flight Computer/aircraft/cf1_j_cfg.ks (inferred preloaded)
1.52,TAKEOFF,TO_PREFLIGHT,0.03,80,79.97,3.61,0.01,-0.2,-12.44,89.45,0.105,0.536,0,0,0,0,0,0,0,0,0,0,0,0,0,0,90.4,0,1,0,0.43,0,0,0,90,0,0,0,0,0,0,0,0,0,0,0,3,0,0,0,69,0,0,0,90.4,1,0,-0.894,0,0,1,0,0,0,0,0,0,0,1,1,0,0,VALID,0,0,0,0,0,1,0,0,0,0,0,0,0,0,0,0,0,0,0,0,9.4,490.11,2,0,0.04,0.04,26,19.23,0.08,0.04,1.34,LANDED,CF1-J,0:/Integrated Flight Computer/aircraft/cf1_j_cfg.ks (inferred preloaded)
1.78,TAKEOFF,TO_PREFLIGHT,0.02,80,79.98,3.61,0,-0.23,9.03,89.44,0.097,0.64,0,0,0,0,0,0,0,0,0,0,0,0,0,0,90.4,0,1,0,-0.18,0,0,0,90,0,0,0,0,0,0,0,0,0,0,0,3,0,0,0,69,0,0,0,90.4,1,0,-0.894,0,0,1,0,0,0,0,0,0,0,1,1,0,0,VALID,0,0,0,0,0,1,0,0,0,0,0,0,0,0,0,0,0,0,0,0,13.51,490.11,2,0,0.04,0.04,31,19.23,0.08,0.04,1.6,LANDED,CF1-J,0:/Integrated Flight Computer/aircraft/cf1_j_cfg.ks (inferred preloaded)
2.04,TAKEOFF,TO_PREFLIGHT,0.01,80,79.99,3.61,0,-0.18,60.89,89.43,0.1,0.744,0,0,0,0,0,0,0,0,0,0,0,0,0,0,90.4,0,1,0,-0.18,0,0,0,90,0,0,0,0,0,0,0,0,0,0,0,3,0,0,0,69,0,0,0,90.4,1,0,-0.894,0,0,1,0,0,0,0,0,0,0,1,1,0,0,VALID,0,0,0,0,0,1,0,0,0,0,0,0,0,0,0,0,0,0,0,0,18.34,490.11,2,0,0.04,0.04,36,19.23,0.08,0.04,1.86,LANDED,CF1-J,0:/Integrated Flight Computer/aircraft/cf1_j_cfg.ks (inferred preloaded)
2.36,TAKEOFF,TO_PREFLIGHT,0.02,80,79.98,3.61,0,-0.2,-5.98,89.42,0.112,0.872,0,0,0,0,0,0,0,0,0,0,0,0,0,0,90.4,0,1,0,0.18,0,0,0,90,0,0,0,0,0,0,0,0,0,0,0,3,0,0,0,69,0,0,0,90.4,1,0,-0.894,0,0,1,0,0,0,0,0,0,0,1,1,0,0,VALID,0,0,0,0,0,1,0,0,0,0,0,0,0,0,0,0,0,0,0,0,25.27,490.11,2,0,0.08,0.08,41,15.63,0.08,0.04,2.18,LANDED,CF1-J,0:/Integrated Flight Computer/aircraft/cf1_j_cfg.ks (inferred preloaded)
2.64,TAKEOFF,TO_PREFLIGHT,0.03,80,79.97,3.61,0,-0.23,2.03,89.41,0.118,0.984,0,0,0,0,0,0,0,0,0,0,0,0,0,0,90.4,0,1,0,-0.04,0,0,0,90,0,0,0,0,0,0,0,0,0,0,0,3,0,0,0,69,0,0,0,90.4,1,0,-0.894,0,0,1,0,0,0,0,0,0,0,1,1,0,0,VALID,0,0,0,0,0,1,0,0,0,0,0,0,0,0,0,0,0,0,0,0,32.19,490.11,2,0,0.08,0.08,45,14.29,0.08,0.06,2.46,LANDED,CF1-J,0:/Integrated Flight Computer/aircraft/cf1_j_cfg.ks (inferred preloaded)
2.92,TAKEOFF,TO_PREFLIGHT,0.02,80,79.98,3.61,0,-0.22,1.31,89.4,0.113,1,0,0,0,0,0,0,0,0,0,0,0,0,0,0,90.4,0,1,0,-0.04,0,0,0,90,0,0,0,0,0,0,0,0,0,0,0,3,0,0,0,69,0,0,0,90.4,1,0,-0.894,0,0,1,0,0,0,0,0,0,0,1,1,0,0,VALID,0,0,0,0,0,1,0,0,0,0,0,0,0,0,0,0,0,0,0,0,39.74,490.11,2,0,0.08,0.08,49,14.29,0.08,0.06,2.74,LANDED,CF1-J,0:/Integrated Flight Computer/aircraft/cf1_j_cfg.ks (inferred preloaded)
3.2,TAKEOFF,TO_PREFLIGHT,0.03,80,79.97,3.61,0,-0.23,-1.54,89.38,0.105,1,0,0,0,0,0,0,0,0,0,0,0,0,0,0,90.4,0,1,0,0.11,0,0,0,90,0,0,0,0,0,0,0,0,0,0,0,3,0,0,0,69,0,0,0,90.4,1,0,-0.894,0,0,1,0,0,0,0,0,0,0,1,1,0,0,VALID,0,0,0,0,0,1,0,0,0,0,0,0,0,0,0,0,0,0,0,0,47.25,490.11,2,0,0.08,0.08,53,14.29,0.08,0.06,3.02,LANDED,CF1-J,0:/Integrated Flight Computer/aircraft/cf1_j_cfg.ks (inferred preloaded)
3.48,TAKEOFF,TO_GROUND_ROLL,0.05,80,79.95,3.61,0,-0.22,0.73,89.37,0.102,1,0,0,0,0,0,0,0,0,0,0,0,0,0,0,90.41,0,1,0,-0.13,0,0,0,90,0,0,0,0,0,0,0,0,0,0,0,3,0,0,0,69,0,0,0,90.41,1,0,-1.037,0.0117,0.25,1,0.0117,0,0,0,0,0,0,1,1,0,0,VALID,0,0,0,0,0,1,0,0,0,0,0,0,0,0,0,0,0,0,0,0,54.63,490.1,2,0,0.08,0.08,57,14.29,0.08,0.06,3.32,LANDED,CF1-J,0:/Integrated Flight Computer/aircraft/cf1_j_cfg.ks (inferred preloaded)
3.76,TAKEOFF,TO_GROUND_ROLL,0.27,80,79.73,3.62,-0.01,-0.12,1.33,89.36,0.106,1,0,0,0,0,0,0,0,0,0,0,0,0,0,0,90.41,0,1,0,-0.46,0,0,0,90,0,0,0,0,0,0,0,0,0,0,0,3,0,0,0,69,0,0,0,90.41,1,0,-1.049,0.0118,0.25,1,0.0118,0,0,0,0,0,0,1,1,0,0,VALID,0,0,0,0,0,1,0,0,0,0,0,0,0,0,0,0,0,0,0,0,61.88,490.05,2,0,0.08,0.08,61,14.29,0.08,0.06,3.6,LANDED,CF1-J,0:/Integrated Flight Computer/aircraft/cf1_j_cfg.ks (inferred preloaded)
4.04,TAKEOFF,TO_GROUND_ROLL,0.6,80,79.4,3.61,0,-0.17,-0.46,89.35,0.112,1,0,0,0,0,0,0,0,0,0,0,0,0,0,0,90.41,0,1,0,0.14,0,0,0,90,0,0,0,0,0,0,0,0,0,0,0,3,0,0,0,69,0,0,0,90.41,1,0,-1.055,0.0119,0.25,1,0.0119,0,0,0,0,0,0,1,1,0,0,VALID,0,0,0,0,0,1,0,0,0,0,0,0,0,0,0,0,0,0,0,0,69.01,489.97,2,0,0.08,0.08,65,14.29,0.08,0.06,3.88,LANDED,CF1-J,0:/Integrated Flight Computer/aircraft/cf1_j_cfg.ks (inferred preloaded)
4.32,TAKEOFF,TO_GROUND_ROLL,0.97,80,79.03,3.62,-0.01,-0.16,0.41,89.35,0.113,1,0,0,0,0,0,0,0,0,0,0,0,0,0,0,90.4,0,1,0,-0.67,0,0,0,90,0,0,0,0,0,0,0,0,0,0,0,3,0,0,0,69,0,0,0,90.4,1,0,-1.05,0.0118,0.25,1,0.0118,0,0,0,0,0,0,1,1,0,0,VALID,0,0,0,0,0,1,0,0,0,0,0,0,0,0,0,0,0,0,0,0,76.01,489.89,2,0,0.08,0.08,69,14.29,0.08,0.06,4.16,LANDED,CF1-J,0:/Integrated Flight Computer/aircraft/cf1_j_cfg.ks (inferred preloaded)
4.6,TAKEOFF,TO_GROUND_ROLL,1.37,80,78.63,3.62,-0.01,-0.14,0.08,89.36,0.109,1,0,0,0,0,0,0,0,0,0,0,0,0,0,0,90.39,0,1,0,-0.24,0,0,0,90,0,0,0,0,0,0,0,0,0,0,0,3,0,0,0,69,0,0,0,90.39,1,0,-1.035,0.0116,0.25,1,0.0116,0,0,0,0,0,0,1,1,0,0,VALID,0,0,0,0,0,1,0,0,0,0,0,0,0,0,0,0,0,0,0,0,82.9,489.79,2,0,0.08,0.08,73,14.29,0.08,0.06,4.44,LANDED,CF1-J,0:/Integrated Flight Computer/aircraft/cf1_j_cfg.ks (inferred preloaded)
4.88,TAKEOFF,TO_GROUND_ROLL,1.81,80,78.19,3.62,-0.01,-0.16,0.13,89.37,0.105,1,0,0,0,0,0,0,0,0,0,0,0,0,0,0,90.39,0,1,0,-0.36,0,0,0,90,0,0,0,0,0,0,0,0,0,0,0,3,0,0,0,69,0,0,0,90.39,1,0,-1.011,0.0114,0.25,1,0.0114,0,0,0,0,0,0,1,1,0,0,VALID,0,0,0,0,0,1,0,0,0,0,0,0,0,0,0,0,0,0,0,0,89.66,489.69,2,0,0.08,0.08,77,14.29,0.08,0.06,4.72,LANDED,CF1-J,0:/Integrated Flight Computer/aircraft/cf1_j_cfg.ks (inferred preloaded)
5.16,TAKEOFF,TO_GROUND_ROLL,2.28,80,77.72,3.62,-0.02,-0.14,0.2,89.4,0.105,1,0,0,0,0,0,0,0,0,0,0,0,0,0,0,90.38,0,1,0,-0.38,0,0,0,90,0,0,0,0,0,0,0,0,0,0,0,3,0,0,0,69,0,0,0,90.38,1,0,-0.976,0.011,0.25,1,0.011,0,0,0,0,0,0,1,1,0,0,VALID,0,0,0,0,0,1,0,0,0,0,0,0,0,0,0,0,0,0,0,0,96.31,489.57,2,0,0.08,0.08,81,14.29,0.08,0.06,5,LANDED,CF1-J,0:/Integrated Flight Computer/aircraft/cf1_j_cfg.ks (inferred preloaded)
5.44,TAKEOFF,TO_GROUND_ROLL,2.79,80,77.21,3.62,-0.02,-0.15,0.14,89.44,0.106,1,0,0,0,0,0,0,0,0,0,0,0,0,0,0,90.37,0,1,0,-0.33,0,0,0,90,0,0,0,0,0,0,0,0,0,0,0,3,0,0,0,69,0,0,0,90.37,1,0,-0.932,0.0105,0.25,1,0.0105,0,0,0,0,0,0,1,1,0,0,VALID,0,0,0,0,0,1,0,0,0,0,0,0,0,0,0,0,0,0,0,0,102.83,489.45,2,0,0.08,0.08,85,14.29,0.08,0.06,5.28,LANDED,CF1-J,0:/Integrated Flight Computer/aircraft/cf1_j_cfg.ks (inferred preloaded)
5.72,TAKEOFF,TO_GROUND_ROLL,3.33,80,76.67,3.62,-0.02,-0.14,0.18,89.49,0.107,1,0,0,0,0,0,0,0,0,0,0,0,0,0,0,90.36,0,1,0,-0.35,0,0,0,90,0,0,0,0,0,0,0,0,0,0,0,3,0,0,0,69,0,0,0,90.36,1,0,-0.879,0.0099,0.25,1,0.0099,0,0,0,0,0,0,1,1,0,0,VALID,0,0,0,0,0,1,0,0,0,0,0,0,0,0,0,0,0,0,0,0,109.25,489.31,2,0,0.08,0.08,89,14.29,0.08,0.06,5.56,LANDED,CF1-J,0:/Integrated Flight Computer/aircraft/cf1_j_cfg.ks (inferred preloaded)
6,TAKEOFF,TO_GROUND_ROLL,3.9,80,76.1,3.62,-0.02,-0.14,0.17,89.54,0.105,1,0,0,0,0,0,0,0,0,0,0,0,0,0,0,90.36,0,1,0,-0.34,0,0,0,90,0,0,0,0,0,0,0,0,0,0,0,3,0,0,0,69,0,0,0,90.36,1,0,-0.819,0.0092,0.25,1,0.0092,0,0,0,0,0,0,1,1,0,0,VALID,0,0,0,0,0,1,0,0,0,0,0,0,0,0,0,0,0,0,0,0,115.55,489.16,2,0,0.08,0.08,93,14.29,0.08,0.06,5.84,LANDED,CF1-J,0:/Integrated Flight Computer/aircraft/cf1_j_cfg.ks (inferred preloaded)
6.28,TAKEOFF,TO_GROUND_ROLL,4.5,80,75.5,3.62,-0.03,-0.14,0.16,89.6,0.102,1,0,0,0,0,0,0,0,0,0,0,0,0,0,0,90.35,0,1,0,-0.34,0,0,0,90,0,0,0,0,0,0,0,0,0.001,0,0,3,0,0,0,69,0,0,0,90.35,1,0.001,-0.753,0.0085,0.25,1,0.0085,0,0,0,0,0,0,1,1,0,0,VALID,0,0,0,0,0,1,0,0,0,0,0,0,0,0,0,0,0,0,0,0,121.74,489,2,0,0.08,0.08,97,14.29,0.08,0.06,6.12,LANDED,CF1-J,0:/Integrated Flight Computer/aircraft/cf1_j_cfg.ks (inferred preloaded)
6.56,TAKEOFF,TO_GROUND_ROLL,5.14,80,74.86,3.62,-0.03,-0.14,0.17,89.67,0.099,1,0,0,0,0,0,0,0,0,0,0,0,0,0,0,90.35,0,1,0,-0.34,0,0,0,90,0,0,0,0,0,0,0,0,0.001,0,0,3,0,0,0,69,0,0,0,90.35,1,0.001,-0.683,0.0077,0.25,1,0.0077,0,0,0,0,0,0,1,1,0,0,VALID,0,0,0,0,0,1,0,0,0,0,0,0,0,0,0,0,0,0,0,0,127.82,488.83,2,0,0.08,0.08,101,14.29,0.08,0.06,6.4,LANDED,CF1-J,0:/Integrated Flight Computer/aircraft/cf1_j_cfg.ks (inferred preloaded)
6.84,TAKEOFF,TO_GROUND_ROLL,5.8,80,74.2,3.62,-0.03,-0.13,0.17,89.74,0.097,1,0,0,0,0,0,0,0,0,0,0,0,0,0,0,90.35,0,1,0,-0.33,0,0,0,90,0,0,0,0,0,0,0,0,0.001,0,0,3,0,0,0,69,0,0,0,90.35,1,0.001,-0.61,0.0069,0.25,1,0.0069,0,0,0,0,0,0,1,1,0,0,VALID,0,0,0,0,0,1,0,0,0,0,0,0,0,0,0,0,0,0,0,0,133.78,488.64,2,0,0.08,0.08,105,14.29,0.08,0.06,6.68,LANDED,CF1-J,0:/Integrated Flight Computer/aircraft/cf1_j_cfg.ks (inferred preloaded)
7.12,TAKEOFF,TO_GROUND_ROLL,6.49,80,73.51,3.62,-0.04,-0.13,0.17,89.81,0.097,1,0,0,0,0,0,0,0,0,0,0,0,0,0,0,90.35,0,1,0,-0.33,0,0,0,90,0,0,0,0,0,0,0,0,0.001,0,0,3,0,0,0,69,0,0,0,90.35,1,0.001,-0.538,0.0061,0.25,1,0.0061,0,0,0,0,0,0,1,1,0,0,VALID,0,0,0,0,0,1,0,0,0,0,0,0,0,0,0,0,0,0,0,0,139.64,488.45,2,0,0.08,0.08,109,14.29,0.08,0.06,6.96,LANDED,CF1-J,0:/Integrated Flight Computer/aircraft/cf1_j_cfg.ks (inferred preloaded)
7.4,TAKEOFF,TO_GROUND_ROLL,7.22,80,72.78,3.62,-0.04,-0.13,0.17,89.88,0.096,1,0,0,0,0,0,0,0,0,0,0,0,0,0,0,90.35,0,1,0,-0.33,0,0,0,90,0,0,0,0,0,0,0,0,0.001,0,0,3,0,0,0,69,0,0,0,90.35,1,0.001,-0.467,0.0053,0.25,1,0.0053,0,0,0,0,0,0,1,1,0,0,VALID,0,0,0,0,0,1,0,0,0,0,0,0,0,0,0,0,0,0,0,0,145.4,488.24,2,0,0.08,0.08,113,14.29,0.08,0.06,7.24,LANDED,CF1-J,0:/Integrated Flight Computer/aircraft/cf1_j_cfg.ks (inferred preloaded)
7.68,TAKEOFF,TO_GROUND_ROLL,7.97,80,72.03,3.62,-0.05,-0.13,0.17,89.95,0.094,1,0,0,0,0,0,0,0,0,0,0,0,0,0,0,90.35,0,1,0,-0.33,0,0,0,90,0,0,0,0,0,0,0,0,0.001,0,0,3,0,0,0,69,0,0,0,90.35,1,0.001,-0.399,0.0045,0.25,1,0.0045,0,0,0,0,0,0,1,1,0,0,VALID,0,0,0,0,0,1,0,0,0,0,0,0,0,0,0,0,0,0,0,0,151.04,488.01,2,0,0.08,0.08,117,14.29,0.08,0.06,7.52,LANDED,CF1-J,0:/Integrated Flight Computer/aircraft/cf1_j_cfg.ks (inferred preloaded)
7.96,TAKEOFF,TO_GROUND_ROLL,8.75,80,71.25,3.62,-0.05,-0.13,0.18,90.02,0.092,1,0,0,0,0,0,0,0,0,0,0,0,0,0,0,90.35,0,1,0,-0.34,0,0,0,90,0,0,0,0,0,0,0,0,0.001,0,0,3,0,0,0,69,0,0,0,90.35,1,0.001,-0.335,0.0035,0.25,1,0.0035,0,0,0,0,0,0,1,1,0,0,VALID,0,0,0,0,0,1,0,0,0,0,0,0,0,0,0,0,0,0,0,0,156.58,487.77,2,0,0.08,0.08,121,14.29,0.08,0.06,7.8,LANDED,CF1-J,0:/Integrated Flight Computer/aircraft/cf1_j_cfg.ks (inferred preloaded)
8.24,TAKEOFF,TO_GROUND_ROLL,9.56,80,70.44,3.62,-0.05,-0.12,0.18,90.08,0.092,1,0,0,0,0,0,0,0,0,0,0,0,0,0,0,90.36,0,1,0,-0.33,0,0,0,90,0,0,0,0,0,0,0,0,0.001,0,0,3,0,0,0,69,0,0,0,90.36,1,0.001,-0.278,0.0027,0.25,1,0.0027,0,0,0,0,0,0,1,1,0,0,VALID,0,0,0,0,0,1,0,0,0,0,0,0,0,0,0,0,0,0,0,0,162.02,487.52,2,0,0.08,0.08,125,14.29,0.08,0.06,8.08,LANDED,CF1-J,0:/Integrated Flight Computer/aircraft/cf1_j_cfg.ks (inferred preloaded)
8.52,TAKEOFF,TO_GROUND_ROLL,10.4,80,69.6,3.62,-0.06,-0.12,0.18,90.14,0.093,1,0,0,0,0,0,0,0,0,0,0,0,0,0,0,90.36,0,1,0,-0.33,0,0,0,90,0,0,0,0,0,0,0,0,0.001,0,0,3,0,0,0,69,0,0,0,90.36,1,0.001,-0.228,0.0021,0.25,1,0.0021,0,0,0,0,0,0,1,1,0,0,VALID,0,0,0,0,0,1,0,0,0,0,0,0,0,0,0,0,0,0,0,0,167.36,487.26,2,0,0.08,0.08,129,14.29,0.08,0.06,8.36,LANDED,CF1-J,0:/Integrated Flight Computer/aircraft/cf1_j_cfg.ks (inferred preloaded)
8.8,TAKEOFF,TO_GROUND_ROLL,11.26,80,68.74,3.62,-0.06,-0.12,0.18,90.18,0.093,1,0,0,0,0,0,0,0,0,0,0,0,0,0,0,90.37,0,1,0,-0.32,0,0,0,90,0,0,0,0,0,0,0,0,0,0,0,3,0,0,0,69,0,0,0,90.37,1,0,-0.185,0.0016,0.25,1,0.0016,0,0,0,0,0,0,1,1,0,0,VALID,0,0,0,0,0,1,0,0,0,0,0,0,0,0,0,0,0,0,0,0,172.59,486.97,2,0,0.08,0.08,133,14.29,0.08,0.06,8.64,LANDED,CF1-J,0:/Integrated Flight Computer/aircraft/cf1_j_cfg.ks (inferred preloaded)
9.08,TAKEOFF,TO_GROUND_ROLL,12.15,80,67.85,3.62,-0.07,-0.12,0.19,90.22,0.093,1,0,0,0,0,0,0,0,0,0,0,0,0,0,0,90.37,0,1,0,-0.33,0,0,0,90,0,0,0,0,0,0,0,0,0,0,0,3,0,0,0,69,0,0,0,90.37,1,0,-0.15,0.0012,0.25,1,0.0012,0,0,0,0,0,0,1,1,0,0,VALID,0,0,0,0,0,1,0,0,0,0,0,0,0,0,0,0,0,0,0,0,177.72,486.68,2,0,0.08,0.08,137,14.29,0.08,0.06,8.92,LANDED,CF1-J,0:/Integrated Flight Computer/aircraft/cf1_j_cfg.ks (inferred preloaded)
9.36,TAKEOFF,TO_GROUND_ROLL,13.06,80,66.94,3.62,-0.07,-0.12,0.19,90.26,0.095,1,0,0,0,0,0,0,0,0,0,0,0,0,0,0,90.38,0,1,0,-0.33,0,0,0,90,0,0,0,0,0,0,0,0,0,0,0,3,0,0,0,69,0,0,0,90.38,1,0,-0.121,0.0009,0.25,1,0.0009,0,0,0,0,0,0,1,1,0,0,VALID,0,0,0,0,0,1,0,0,0,0,0,0,0,0,0,0,0,0,0,0,182.76,486.36,2,0,0.08,0.08,141,14.29,0.08,0.06,9.2,LANDED,CF1-J,0:/Integrated Flight Computer/aircraft/cf1_j_cfg.ks (inferred preloaded)
9.64,TAKEOFF,TO_GROUND_ROLL,14,80,66,3.62,-0.08,-0.12,0.18,90.28,0.096,1,0,0,0,0,0,0,0,0,0,0,0,0,0,0,90.38,0,1,0,-0.32,0,0,0,90,0,0,0,0,0,0,0,0,-0.001,0,0,3,0,0,0,69,0,0,0,90.38,1,-0.001,-0.099,0.0007,0.25,1,0.0007,0,0,0,0,0,0,1,1,0,0,VALID,0,0,0,0,0,1,0,0,0,0,0,0,0,0,0,0,0,0,0,0,187.69,486.04,2,0,0.08,0.08,145,14.29,0.08,0.06,9.48,LANDED,CF1-J,0:/Integrated Flight Computer/aircraft/cf1_j_cfg.ks (inferred preloaded)
9.92,TAKEOFF,TO_GROUND_ROLL,14.96,80,65.04,3.62,-0.08,-0.11,0.19,90.3,0.097,1,0,0,0,0,0,0,0,0,0,0,0,0,0,0,90.39,0,1,0,-0.33,0,0,0,90,0,0,0,0,0,0,0,0,-0.001,0,0,3,0,0,0,69,0,0,0,90.39,1,-0.001,-0.081,0.0006,0.25,1,0.0006,0,0,0,0,0,0,1,1,0,0,VALID,0,0,0,0,0,1,0,0,0,0,0,0,0,0,0,0,0,0,0,0,192.53,485.69,2,0,0.08,0.08,149,14.29,0.08,0.06,9.76,LANDED,CF1-J,0:/Integrated Flight Computer/aircraft/cf1_j_cfg.ks (inferred preloaded)
10.2,TAKEOFF,TO_GROUND_ROLL,15.95,80,64.05,3.62,-0.09,-0.11,0.19,90.32,0.098,1,0,0,0,0,0,0,0,0,0,0,0,0,0,0,90.39,0,1,0,-0.32,0,0,0,90,0,0,0,0,0,0,0,0,-0.002,0,0,3,0,0,0,69,0,0,0,90.39,1,-0.002,-0.069,0.0005,0.25,1,0.0005,0,0,0,0,0,0,1,1,0,0,VALID,0,0,0,0,0,1,0,0,0,0,0,0,0,0,0,0,0,0,0,0,197.27,485.33,2,0,0.08,0.08,153,14.29,0.08,0.06,10.04,LANDED,CF1-J,0:/Integrated Flight Computer/aircraft/cf1_j_cfg.ks (inferred preloaded)
10.48,TAKEOFF,TO_GROUND_ROLL,16.96,80,63.04,3.62,-0.1,-0.11,0.19,90.33,0.099,1,0,0,0,0,0,0,0,0,0,0,0,0,0,0,90.39,0,1,0,-0.32,0,0,0.01,90,0,0,0,0,0,0,0,0,-0.002,0,0,3,0,0,0,69,0,0,0,90.39,1,-0.002,-0.059,0.0004,0.25,1,0.0004,0,0,0,0,0,0,1,1,0,0,VALID,0,0,0,0,0,1,0,0,0,0,0,0,0,0,0,0,0,0,0,0,201.91,484.95,2,0,0.08,0.08,157,14.29,0.08,0.06,10.32,LANDED,CF1-J,0:/Integrated Flight Computer/aircraft/cf1_j_cfg.ks (inferred preloaded)
10.76,TAKEOFF,TO_GROUND_ROLL,17.99,80,62.01,3.62,-0.1,-0.11,0.19,90.34,0.1,1,0,0,0,0,0,0,0,0,0,0,0,0,0,0,90.39,0,1,0,-0.32,0,0,0.01,90,0,0,0,0,0,0,0,0,-0.003,0,0,3,0,0,0,69,0,0,0,90.39,1,-0.003,-0.053,0.0004,0.25,1,0.0004,0,0,0,0,0,0,1,1,0,0,VALID,0,0,0,0,0,1,0,0,0,0,0,0,0,0,0,0,0,0,0,0,206.46,484.55,2,0,0.08,0.08,161,14.29,0.08,0.06,10.6,LANDED,CF1-J,0:/Integrated Flight Computer/aircraft/cf1_j_cfg.ks (inferred preloaded)
11.04,TAKEOFF,TO_GROUND_ROLL,19.05,80,60.95,3.62,-0.11,-0.11,0.19,90.34,0.101,1,0,0,0,0,0,0,0,0,0,0,0,0,0,0,90.39,0,1,0,-0.32,0,0,0.01,90,0,0,0,0,0,0,0,0,-0.004,0,0,3,0,0,0,69,0,0,0,90.39,1,-0.004,-0.048,0.0003,0.25,1,0.0003,0,0,0,0,0,0,1,1,0,0,VALID,0,0,0,0,0,1,0,0,0,0,0,0,0,0,0,0,0,0,0,0,210.92,484.14,2,0,0.08,0.08,165,14.29,0.08,0.06,10.88,LANDED,CF1-J,0:/Integrated Flight Computer/aircraft/cf1_j_cfg.ks (inferred preloaded)
11.32,TAKEOFF,TO_GROUND_ROLL,20.12,80,59.88,3.62,-0.11,-0.1,0.2,90.35,0.101,1,0,0,0,0,0,0,0,0,0,0,0,0,0,0,90.39,0,1,0,-0.32,0,0,0.01,90,0,0,0,0,0,0,0,0,-0.004,0,0,3,0,0,0,69,0,0,0,90.39,1,-0.004,-0.045,0.0003,0.251,0,0.0003,0,0,0,0,0,0,1,1,0,0,VALID,0,0,0,0,0,1,0,0,0,0,0,0,0,0,0,0,0,0,0,0,215.28,483.71,2,0,0.08,0.08,169,14.29,0.08,0.06,11.16,LANDED,CF1-J,0:/Integrated Flight Computer/aircraft/cf1_j_cfg.ks (inferred preloaded)
11.6,TAKEOFF,TO_GROUND_ROLL,21.22,80,58.78,3.63,-0.12,-0.1,0.2,90.35,0.101,1,0,0,0,0,0,0,0,0,0,0,0,0,0,0,90.39,0,1,0,-0.32,0,0,0.01,90,0,0,0,0,0,0,0,0,-0.005,0,0,3,0,0,0,69,0,0,0,90.39,1,-0.005,-0.043,0.0003,0.263,0,0.0003,0,0,0,0,0,0,1,1,0,0,VALID,0,0,0,0,0,1,0,0,0,0,0,0,0,0,0,0,0,0,0,0,219.56,483.26,2,0,0.08,0.08,173,14.29,0.08,0.06,11.44,LANDED,CF1-J,0:/Integrated Flight Computer/aircraft/cf1_j_cfg.ks (inferred preloaded)
11.88,TAKEOFF,TO_GROUND_ROLL,22.34,80,57.66,3.63,-0.12,-0.1,0.2,90.35,0.102,1,0,0,0,0,0,0,0,0,0,0,0,0,0,0,90.39,0,1,0,-0.32,0,0,0.01,90,0,0,0,0,0,0,0,0,-0.006,0,0,3,0,0,0,69,0,0,0,90.39,1,-0.006,-0.042,0.0003,0.275,0,0.0003,0,0,0,0,0,0,1,1,0,0,VALID,0,0,0,0,0,1,0,0,0,0,0,0,0,0,0,0,0,0,0,0,223.74,482.8,2,0,0.08,0.08,177,14.29,0.08,0.06,11.72,LANDED,CF1-J,0:/Integrated Flight Computer/aircraft/cf1_j_cfg.ks (inferred preloaded)
12.16,TAKEOFF,TO_GROUND_ROLL,23.48,80,56.52,3.63,-0.13,-0.1,0.2,90.35,0.103,1,0,0,0,0,0,0,0,0,0,0,0,0,0,0,90.39,0,1,0,-0.31,0,0,0.01,90,0,0,0,0,0,0,0,0,-0.007,0,0,3,0,0,0,69,0,0,0,90.39,1,-0.007,-0.041,0.0003,0.287,0,0.0003,0,0,0,0,0,0,1,1,0,0,VALID,0,0,0,0,0,1,0,0,0,0,0,0,0,0,0,0,0,0,0,0,227.83,482.31,2,0,0.08,0.08,181,14.29,0.08,0.06,12,LANDED,CF1-J,0:/Integrated Flight Computer/aircraft/cf1_j_cfg.ks (inferred preloaded)
12.44,TAKEOFF,TO_GROUND_ROLL,24.64,80,55.36,3.63,-0.14,-0.1,0.2,90.35,0.103,1,0,0,0,0,0,0,0,0,0,0,0,0,0,0,90.39,0,1,0,-0.32,0,0,0.01,90,0,0,0,0,0,0,0,0,-0.008,0,0,3,0,0,0,69,0,0,0,90.39,1,-0.008,-0.04,0.0003,0.3,0,0.0003,0,0,0,0,0,0,1,1,0,0,VALID,0,0,0,0,0,1,0,0,0,0,0,0,0,0,0,0,0,0,0,0,231.83,481.81,2,0,0.08,0.08,185,14.29,0.08,0.06,12.28,LANDED,CF1-J,0:/Integrated Flight Computer/aircraft/cf1_j_cfg.ks (inferred preloaded)
12.72,TAKEOFF,TO_GROUND_ROLL,25.81,80,54.19,3.63,-0.14,-0.09,0.2,90.35,0.103,1,0,0,0,0,0,0,0,0,0,0,0,0,0,0,90.39,0,1,0,-0.31,0,0,0.01,90,0,0,0,0,0,0,0,0,-0.009,0,0,3,0,0,0,69,0,0,0,90.39,1,-0.009,-0.039,0.0003,0.312,0,0.0003,0,0,0,0,0,0,1,1,0,0,VALID,0,0,0,0,0,1,0,0,0,0,0,0,0,0,0,0,0,0,0,0,235.74,481.29,2,0,0.08,0.08,189,14.29,0.08,0.06,12.56,LANDED,CF1-J,0:/Integrated Flight Computer/aircraft/cf1_j_cfg.ks (inferred preloaded)
13,TAKEOFF,TO_GROUND_ROLL,27.01,80,52.99,3.63,-0.15,-0.09,0.2,90.35,0.102,1,0,0,0,0,0,0,0,0,0,0,0,0,0,0,90.39,0,1,0,-0.31,0,0,0.01,90,0,0,0,0,0,0,0,0,-0.01,0,0,3,0,0,0,69,0,0,0,90.39,1,-0.01,-0.038,0.0003,0.325,0,0.0003,0,0,0,0,0,0,1,1,0,0,VALID,0,0,0,0,0,1,0,0,0,0,0,0,0,0,0,0,0,0,0,0,239.57,480.75,2,0,0.08,0.08,193,14.29,0.08,0.06,12.84,LANDED,CF1-J,0:/Integrated Flight Computer/aircraft/cf1_j_cfg.ks (inferred preloaded)
13.28,TAKEOFF,TO_GROUND_ROLL,28.22,80,51.78,3.63,-0.15,-0.09,0.21,90.35,0.101,1,0,0,0,0,0,0,0,0,0,0,0,0,0,0,90.39,0,1,0,-0.31,0,0,0.01,90,0,0,0,0,0,0,0,0,-0.011,0,0,3,0,0,0,69,0,0,0,90.39,1,-0.011,-0.036,0.0003,0.338,0,0.0003,0,0,0,0,0,0,1,1,0,0,VALID,0,0,0,0,0,1,0,0,0,0,0,0,0,0,0,0,0,0,0,0,243.31,480.19,2,0,0.08,0.08,197,14.29,0.08,0.06,13.12,LANDED,CF1-J,0:/Integrated Flight Computer/aircraft/cf1_j_cfg.ks (inferred preloaded)
13.56,TAKEOFF,TO_GROUND_ROLL,29.46,80,50.54,3.63,-0.16,-0.09,0.21,90.35,0.101,1,0,0,0,0,0,0,0,0,0,0,0,0,0,0,90.39,0,1,0,-0.31,0,0,0.01,90,0,0,0,0,0,0,0,0,-0.012,0,0,3,0,0,0,69,0,0,0,90.39,1,-0.012,-0.035,0.0003,0.351,0,0.0003,0,0,0,0,0,0,1,1,0,0,VALID,0,0,0,0,0,1,0,0,0,0,0,0,0,0,0,0,0,0,0,0,246.96,479.61,2,0,0.08,0.08,201,14.29,0.08,0.06,13.4,LANDED,CF1-J,0:/Integrated Flight Computer/aircraft/cf1_j_cfg.ks (inferred preloaded)
13.84,TAKEOFF,TO_GROUND_ROLL,30.71,80,49.29,3.63,-0.17,-0.08,0.21,90.35,0.101,1,0,0,0,0,0,0,0,0,0,0,0,0,0,0,90.39,0,1,0,-0.31,0,0,0.01,90,0,0,0,0,0,0,0,0,-0.013,0,0,3,0,0,0,69,0,0,0,90.39,1,-0.013,-0.033,0.0003,0.365,0,0.0003,0,0,0,0,0,0,1,1,0,0,VALID,0,0,0,0,0,1,0,0,0,0,0,0,0,0,0,0,0,0,0,0,250.53,479.02,2,0,0.08,0.08,205,14.29,0.08,0.06,13.68,LANDED,CF1-J,0:/Integrated Flight Computer/aircraft/cf1_j_cfg.ks (inferred preloaded)
14.12,TAKEOFF,TO_GROUND_ROLL,31.97,80,48.03,3.63,-0.17,-0.08,0.21,90.35,0.101,1,0,0,0,0,0,0,0,0,0,0,0,0,0,0,90.39,0,1,0,-0.31,0,0,0.01,90,0,0,0,0,0,0,0,0,-0.014,0,0,3,0,0,0,69,0,0,0,90.39,1,-0.014,-0.033,0.0003,0.378,0,0.0003,0,0,0,0,0,0,1,1,0,0,VALID,0,0,0,0,0,1,0,0,0,0,0,0,0,0,0,0,0,0,0,0,254.01,478.4,2,0,0.08,0.08,209,14.29,0.08,0.06,13.96,LANDED,CF1-J,0:/Integrated Flight Computer/aircraft/cf1_j_cfg.ks (inferred preloaded)
14.4,TAKEOFF,TO_GROUND_ROLL,33.25,80,46.75,3.63,-0.18,-0.08,0.21,90.35,0.101,1,0,0,0,0,0,0,0,0,0,0,0,0,0,0,90.39,0,1,0,-0.31,0,0,0.01,90,0,0,0,0,0,0,0,0,-0.015,0,0,3,0,0,0,69,0,0,0,90.39,1,-0.015,-0.034,0.0004,0.392,0,0.0004,0,0,0,0,0,0,1,1,0,0,VALID,0,0,0,0,0,1,0,0,0,0,0,0,0,0,0,0,0,0,0,0,257.41,477.77,2,0,0.08,0.08,213,14.29,0.08,0.06,14.24,LANDED,CF1-J,0:/Integrated Flight Computer/aircraft/cf1_j_cfg.ks (inferred preloaded)
14.68,TAKEOFF,TO_GROUND_ROLL,34.55,80,45.45,3.63,-0.18,-0.08,0.21,90.35,0.102,1,0,0,0,0,0,0,0,0,0,0,0,0,0,0,90.39,0,1,0,-0.31,0,0,0.02,90,0,0,0,0,0,0,0,0,-0.017,0,0,3,0,0,0,69,0,0,0,90.39,1,-0.017,-0.035,0.0004,0.406,0,0.0004,0,0,0,0,0,0,1,1,0,0,VALID,0,0,0,0,0,1,0,0,0,0,0,0,0,0,0,0,0,0,0,0,260.73,477.12,2,0,0.08,0.08,217,14.29,0.08,0.06,14.52,LANDED,CF1-J,0:/Integrated Flight Computer/aircraft/cf1_j_cfg.ks (inferred preloaded)
14.96,TAKEOFF,TO_GROUND_ROLL,35.86,80,44.14,3.63,-0.19,-0.07,0.21,90.35,0.103,1,0,0,0,0,0,0,0,0,0,0,0,0,0,0,90.38,0,1,0,-0.3,0,0,0.02,90,0,0,0,0,0,0,0,0,-0.018,0,0,3,0,0,0,69,0,0,0,90.38,1,-0.018,-0.036,0.0004,0.42,0,0.0004,0,0,0,0,0,0,1,1,0,0,VALID,0,0,0,0,0,1,0,0,0,0,0,0,0,0,0,0,0,0,0,0,263.97,476.45,2,0,0.08,0.08,221,14.29,0.08,0.06,14.8,LANDED,CF1-J,0:/Integrated Flight Computer/aircraft/cf1_j_cfg.ks (inferred preloaded)
15.24,TAKEOFF,TO_GROUND_ROLL,37.19,80,42.81,3.63,-0.2,-0.07,0.21,90.35,0.103,1,0,0,0,0,0,0,0,0,0,0,0,0,0,0,90.38,0,1,0,-0.3,0,0,0.02,90,0,0,0,0,0,0,0,0,-0.019,0,0,3,0,0,0,69,0,0,0,90.38,1,-0.019,-0.037,0.0004,0.434,0,0.0004,0,0,0,0,0,0,1,1,0,0,VALID,0,0,0,0,0,1,0,0,0,0,0,0,0,0,0,0,0,0,0,0,267.13,475.76,2,0,0.08,0.08,225,14.29,0.08,0.06,15.08,LANDED,CF1-J,0:/Integrated Flight Computer/aircraft/cf1_j_cfg.ks (inferred preloaded)
15.52,TAKEOFF,TO_GROUND_ROLL,38.53,80,41.47,3.63,-0.2,-0.07,0.22,90.34,0.102,1,0,0,0,0,0,0,0,0,0,0,0,0,0,0,90.38,0,1,0,-0.3,0,0,0.02,90,0,0,0,0,0,0,0,0,-0.021,0,0,3,0,0,0,69,0,0,0,90.38,1,-0.021,-0.038,0.0005,0.449,0,0.0005,0,0,0,0,0,0,1,1,0,0,VALID,0,0,0,0,0,1,0,0,0,0,0,0,0,0,0,0,0,0,0,0,270.21,475.06,2,0,0.08,0.08,229,14.29,0.08,0.06,15.36,LANDED,CF1-J,0:/Integrated Flight Computer/aircraft/cf1_j_cfg.ks (inferred preloaded)
15.8,TAKEOFF,TO_GROUND_ROLL,39.89,80,40.11,3.63,-0.21,-0.07,0.22,90.34,0.102,1,0,0,0,0,0,0,0,0,0,0,0,0,0,0,90.38,0,1,0,-0.3,0,0,0.02,90,0,0,0,0,0,0,0,0,-0.022,0,0,3,0,0,0,69,0,0,0,90.38,1,-0.022,-0.038,0.0005,0.463,0,0.0005,0,0,0,0,0,0,1,1,0,0,VALID,0,0,0,0,0,1,0,0,0,0,0,0,0,0,0,0,0,0,0,0,273.21,474.34,2,0,0.08,0.08,233,14.29,0.08,0.06,15.64,LANDED,CF1-J,0:/Integrated Flight Computer/aircraft/cf1_j_cfg.ks (inferred preloaded)
16.08,TAKEOFF,TO_GROUND_ROLL,41.25,80,38.75,3.63,-0.22,-0.07,0.22,90.34,0.102,1,0,0,0,0,0,0,0,0,0,0,0,0,0,0,90.38,0,1,0,-0.3,0,0,0.02,90,0,0,0,0,0,0,0,0,-0.024,0,0,3,0,0,0,69,0,0,0,90.38,1,-0.024,-0.039,0.0005,0.478,0,0.0005,0,0,0,0,0,0,1,1,0,0,VALID,0,0,0,0,0,1,0,0,0,0,0,0,0,0,0,0,0,0,0,0,276.13,473.6,2,0,0.08,0.08,237,14.29,0.08,0.06,15.92,LANDED,CF1-J,0:/Integrated Flight Computer/aircraft/cf1_j_cfg.ks (inferred preloaded)
16.36,TAKEOFF,TO_GROUND_ROLL,42.63,80,37.37,3.63,-0.22,-0.06,0.22,90.34,0.102,1,0,0,0,0,0,0,0,0,0,0,0,0,0,0,90.38,0,1,0,-0.3,0,0,0.02,90,0,0,0,0,0,0,0,0,-0.025,0,0,3,0,0,0,69,0,0,0,90.38,1,-0.025,-0.041,0.0005,0.493,0,0.0005,0,0,0,0,0,0,1,1,0,0,VALID,0,0,0,0,0,1,0,0,0,0,0,0,0,0,0,0,0,0,0,0,278.98,472.84,2,0,0.08,0.08,241,14.29,0.08,0.06,16.2,LANDED,CF1-J,0:/Integrated Flight Computer/aircraft/cf1_j_cfg.ks (inferred preloaded)
16.64,TAKEOFF,TO_GROUND_ROLL,44.03,80,35.97,3.63,-0.23,-0.06,0.22,90.33,0.102,1,0,0,0,0,0,0,0,0,0,0,0,0,0,0,90.38,0,1,0,-0.3,0,0,0.02,90,0,0,0,0,0,0,0,0,-0.027,0,0,3,0,0,0,69,0,0,0,90.38,1,-0.027,-0.043,0.0006,0.507,0,0.0006,0,0,0,0,0,0,1,1,0,0,VALID,0,0,0,0,0,1,0,0,0,0,0,0,0,0,0,0,0,0,0,0,281.75,472.06,2,0,0.08,0.08,245,14.29,0.08,0.06,16.48,LANDED,CF1-J,0:/Integrated Flight Computer/aircraft/cf1_j_cfg.ks (inferred preloaded)
16.92,TAKEOFF,TO_GROUND_ROLL,45.43,80,34.57,3.63,-0.23,-0.06,0.22,90.33,0.102,1,0,0,0,0,0,0,0,0,0,0,0,0,0,0,90.38,0,1,0,-0.3,0,0,0.02,90,0,0,0,0,0,0,0,0,-0.028,0,0,3,0,0,0,69,0,0,0,90.38,1,-0.028,-0.047,0.0007,0.522,0,0.0007,0,0,0,0,0,0,1,1,0,0,VALID,0,0,0,0,0,1,0,0,0,0,0,0,0,0,0,0,0,0,0,0,284.45,471.27,2,0,0.08,0.08,249,14.29,0.08,0.06,16.76,LANDED,CF1-J,0:/Integrated Flight Computer/aircraft/cf1_j_cfg.ks (inferred preloaded)
17.2,TAKEOFF,TO_GROUND_ROLL,46.85,80,33.15,3.63,-0.24,-0.06,0.22,90.32,0.104,1,0,0,0,0,0,0,0,0,0,0,0,0,0,0,90.37,0,1,0,-0.29,0,0,0.03,90,0,0,0,0,0,0,0,0,-0.03,0,0,3,0,0,0,69,0,0,0,90.37,1,-0.03,-0.052,0.0008,0.538,0,0.0008,0,0,0,0,0,0,1,1,0,0,VALID,0,0,0,0,0,1,0,0,0,0,0,0,0,0,0,0,0,0,0,0,287.07,470.47,2,0,0.08,0.08,253,14.29,0.08,0.06,17.04,LANDED,CF1-J,0:/Integrated Flight Computer/aircraft/cf1_j_cfg.ks (inferred preloaded)
17.48,TAKEOFF,TO_GROUND_ROLL,48.27,80,31.73,3.64,-0.25,-0.05,0.23,90.32,0.106,1,0,0,0,0,0,0,0,0,0,0,0,0,0,0,90.37,0,1,0,-0.29,0,0,0.03,90,0,0,0,0,0,0,0,0,-0.031,0,0,3,0,0,0,69,0,0,0,90.37,1,-0.031,-0.058,0.0009,0.553,0,0.0009,0,0,0,0,0,0,1,1,0,0,VALID,0,0,0,0,0,1,0,0,0,0,0,0,0,0,0,0,0,0,0,0,289.62,469.64,2,0,0.08,0.08,257,14.29,0.08,0.06,17.32,LANDED,CF1-J,0:/Integrated Flight Computer/aircraft/cf1_j_cfg.ks (inferred preloaded)
17.76,TAKEOFF,TO_GROUND_ROLL,49.71,80,30.29,3.64,-0.25,-0.05,0.23,90.31,0.107,1,0,0,0,0,0,0,0,0,0,0,0,0,0,0,90.37,0,1,0,-0.29,0,0,0.03,90,0,0,0,0,0,0,0,0,-0.033,0,0,3,0,0,0,69,0,0,0,90.37,1,-0.033,-0.066,0.0011,0.568,0,0.0011,0,0,0,0,0,0,1,1,0,0,VALID,0,0,0,0,0,1,0,0,0,0,0,0,0,0,0,0,0,0,0,0,292.1,468.81,2,0,0.08,0.08,261,14.29,0.08,0.06,17.6,LANDED,CF1-J,0:/Integrated Flight Computer/aircraft/cf1_j_cfg.ks (inferred preloaded)
18.04,TAKEOFF,TO_GROUND_ROLL,51.16,80,28.84,3.64,-0.26,-0.05,0.23,90.3,0.109,1,0,0,0,0,0,0,0,0,0,0,0,0,0,0,90.37,0,1,0,-0.29,0,0,0.03,90,0,0,0,0,0,0,0,0,-0.035,0,0,3,0,0,0,69,0,0,0,90.37,1,-0.035,-0.077,0.0013,0.584,0,0.0013,0,0,0,0,0,0,1,1,0,0,VALID,0,0,0,0,0,1,0,0,0,0,0,0,0,0,0,0,0,0,0,0,294.51,467.95,2,0,0.08,0.08,265,14.29,0.08,0.06,17.88,LANDED,CF1-J,0:/Integrated Flight Computer/aircraft/cf1_j_cfg.ks (inferred preloaded)
18.32,TAKEOFF,TO_GROUND_ROLL,52.62,80,27.38,3.64,-0.26,-0.03,0.24,90.28,0.112,1,0,0,0,0,0,0,0,0,0,0,0,0,0,0,90.37,0,1,0,-0.29,0,0,0.03,90,0,0,0,0,0,0,0,0,-0.036,0,0,3,0,0,0,69,0,0,0,90.37,1,-0.036,-0.091,0.0016,0.599,0,0.0016,0,0,0,0,0,0,1,1,0,0,VALID,0,0,0,0,0,1,0,0,0,0,0,0,0,0,0,0,0,0,0,0,296.85,467.08,2,0,0.08,0.08,269,14.29,0.08,0.06,18.16,LANDED,CF1-J,0:/Integrated Flight Computer/aircraft/cf1_j_cfg.ks (inferred preloaded)
18.6,TAKEOFF,TO_GROUND_ROLL,54.08,80,25.92,3.65,-0.27,0,0.27,90.27,0.114,1,0,0,0,0,0,0,0,0,0,0,0,0,0,0,90.37,0,1,0,-0.28,0,0,0.03,90,0,0,0,0,0,0,0,0,-0.038,0,0,3,0,0,0,69,0,0,0,90.37,1,-0.038,-0.104,0.0019,0.615,0,0.0019,0,0,0,0,0,0,1,1,0,0,VALID,0,0,0,0,0,1,0,0,0,0,0,0,0,0,0,0,0,0,0,0,299.13,466.2,2,0,0.08,0.08,273,14.29,0.08,0.06,18.44,LANDED,CF1-J,0:/Integrated Flight Computer/aircraft/cf1_j_cfg.ks (inferred preloaded)
18.88,TAKEOFF,TO_GROUND_ROLL,55.56,80,24.44,3.66,-0.27,0.06,0.32,90.25,0.115,1,0,0,0,0,0,0,0,0,0,0,0,0,0,0,90.37,0,1,0,-0.28,0,0,0.03,90,0,0,0,0,0,0,0,0,-0.039,0,0,3,0,0,0,69,0,0,0,90.37,1,-0.039,-0.117,0.0023,0.631,0,0.0023,0,0,0,0,0,0,1,1,0,0,VALID,0,0,0,0,0,1,0,0,0,0,0,0,0,0,0,0,0,0,0,0,301.33,465.31,2,0,0.08,0.08,277,14.29,0.08,0.06,18.72,LANDED,CF1-J,0:/Integrated Flight Computer/aircraft/cf1_j_cfg.ks (inferred preloaded)
19.16,TAKEOFF,TO_GROUND_ROLL,57.04,80,22.96,3.68,-0.22,0.12,0.3,90.24,0.113,1,0,0,0,0,0,0,0,0,0,0,0,0,0,0,90.37,0,1,0,-0.22,0,0,0.04,90,0,0,0,0,0,0,0,0,-0.041,0,0,3,0,0,0,69,0,0,0,90.37,1,-0.041,-0.131,0.0027,0.647,0,0.0027,0,0,0,0,0,0,1,1,0,0,VALID,0,0,0,0,0,1,0,0,0,0,0,0,0,0,0,0,0,0,0,0,303.47,464.4,2,0,0.08,0.08,281,14.29,0.08,0.06,19,LANDED,CF1-J,0:/Integrated Flight Computer/aircraft/cf1_j_cfg.ks (inferred preloaded)
19.44,TAKEOFF,TO_GROUND_ROLL,58.53,80,21.47,3.7,-0.27,0.24,0.5,90.22,0.11,1,0,0,0,0,0,0,0,0,0,0,0,0,0,0,90.37,0,1,0,-0.27,0,0,0.04,90,0,0,0,0,0,0,0,0,-0.042,0,0,3,0,0,0,69,0,0,0,90.37,1,-0.042,-0.143,0.003,0.663,0,0.003,0,0,0,0,0,0,1,1,0,0,VALID,0,0,0,0,0,1,0,0,0,0,0,0,0,0,0,0,0,0,0,0,305.55,463.48,2,0,0.08,0.08,285,14.29,0.08,0.06,19.28,LANDED,CF1-J,0:/Integrated Flight Computer/aircraft/cf1_j_cfg.ks (inferred preloaded)
19.72,TAKEOFF,TO_GROUND_ROLL,60.02,80,19.98,3.72,-0.3,0.35,0.62,90.21,0.107,1,0,0,0,0,0,0,0,0,0,0,0,0,0,0,90.37,0,1,0,-0.28,0,0,0.04,90,0,0,0,0,0,0,0,0,-0.043,0,0,3,0,0,0,69,0,0,0,90.37,1,-0.043,-0.155,0.0034,0.679,0,0.0034,0,0,0,0,0,0,1,1,0,0,VALID,0,0,0,0,0,1,0,0,0,0,0,0,0,0,0,0,0,0,0,0,307.56,462.54,2,0,0.08,0.08,289,14.29,0.08,0.06,19.56,LANDED,CF1-J,0:/Integrated Flight Computer/aircraft/cf1_j_cfg.ks (inferred preloaded)
20,TAKEOFF,TO_GROUND_ROLL,61.52,80,18.48,3.74,-0.29,0.45,0.7,90.2,0.107,1,0,0,0,0,0,0,0,0,0,0,0,0,0,0,90.36,0,1,0,-0.27,0,0,0.04,90,0,0,0,0,0,0,0,0,-0.045,0,0,3,0,0,0,69,0,0,0,90.36,1,-0.045,-0.165,0.0038,0.695,0,0.0038,0,0,0,0,0,0,1,1,0,0,VALID,0,0,0,0,0,1,0,0,0,0,0,0,0,0,0,0,0,0,0,0,309.52,461.6,2,0,0.08,0.08,293,14.29,0.08,0.06,19.84,LANDED,CF1-J,0:/Integrated Flight Computer/aircraft/cf1_j_cfg.ks (inferred preloaded)
20.28,TAKEOFF,TO_GROUND_ROLL,63.03,80,16.97,3.75,-0.3,0.52,0.77,90.19,0.106,1,0,0,0,0,0,0,0,0,0,0,0,0,0,0,90.36,0,1,0,-0.27,0,0,0.04,90,0,0,0,0,0,0,0,0,-0.046,0,0,3,0,0,0,69,0,0,0,90.36,1,-0.046,-0.174,0.0042,0.711,0,0.0042,0,0,0,0,0,0,1,1,0,0,VALID,0,0,0,0,0,1,0,0,0,0,0,0,0,0,0,0,0,0,0,0,311.41,460.65,2,0,0.08,0.08,297,14.29,0.08,0.06,20.12,LANDED,CF1-J,0:/Integrated Flight Computer/aircraft/cf1_j_cfg.ks (inferred preloaded)
20.56,TAKEOFF,TO_GROUND_ROLL,64.54,80,15.46,3.76,-0.31,0.55,0.81,90.18,0.105,1,0,0,0,0,0,0,0,0,0,0,0,0,0,0,90.36,0,1,0,-0.27,0,0,0.04,90,0,0,0,0,0,0,0,0,-0.047,0,0,3,0,0,0,69,0,0,0,90.36,1,-0.047,-0.182,0.0045,0.727,0,0.0045,0,0,0,0,0,0,1,1,0,0,VALID,0,0,0,0,0,1,0,0,0,0,0,0,0,0,0,0,0,0,0,0,313.24,459.68,2,0,0.08,0.08,301,14.29,0.08,0.06,20.4,LANDED,CF1-J,0:/Integrated Flight Computer/aircraft/cf1_j_cfg.ks (inferred preloaded)
20.84,TAKEOFF,TO_GROUND_ROLL,66.05,80,13.95,3.76,-0.31,0.58,0.84,90.17,0.102,1,0,0,0,0,0,0,0,0,0,0,0,0,0,0,90.36,0,1,0,-0.27,0,0,0.05,90,0,0,0,0,0,0,0,0,-0.048,0,0,3,0,0,0,69,0,0,0,90.36,1,-0.048,-0.188,0.0048,0.743,0,0.0048,0,0,0,0,0,0,1,1,0,0,VALID,0,0,0,0,0,1,0,0,0,0,0,0,0,0,0,0,0,0,0,0,315.02,458.71,2,0,0.08,0.08,305,14.29,0.08,0.06,20.68,LANDED,CF1-J,0:/Integrated Flight Computer/aircraft/cf1_j_cfg.ks (inferred preloaded)
21.12,TAKEOFF,TO_GROUND_ROLL,67.57,80,12.43,3.77,-0.39,0.64,0.97,90.16,0.1,1,0,0,0,0,0,0,0,0,0,0,0,0,0,0,90.35,0,1,0,-0.33,0,0,0.05,90,0,0,0,0,0,0,0,0,-0.05,0,0,3,0,0,0,69,0,0,0,90.35,1,-0.05,-0.192,0.005,0.76,0,0.005,0,0,0,0,0,0,1,1,0,0,VALID,0,0,0,0,0,1,0,0,0,0,0,0,0,0,0,0,0,0,0,0,316.73,457.73,2,0,0.08,0.08,309,14.29,0.08,0.06,20.96,LANDED,CF1-J,0:/Integrated Flight Computer/aircraft/cf1_j_cfg.ks (inferred preloaded)
21.42,TAKEOFF,TO_ROTATE,69.2,80,10.8,3.78,-0.34,0.67,0.93,90.16,0.098,1,0,0,0,0,0,0,0,0,0,0,0,0,0,0,90.35,1.071,1,0,-0.27,0,0,0.05,90,0,0,0,0,0,0,0,0,-0.051,0,0,3,0,0,0,69,0,0,0,90.35,1,-0.051,-0.197,0.0053,0.776,0,0.0053,0,0.12,1.071,0.4,0.08,0,1,1,0,0,VALID,0,0,0,0,0,1,0,0,0,0,0,0,0,0,0,0,0,0,0,0,318.51,456.67,2,0,0.08,0.08,313,13.33,0.08,0.06,21.24,LANDED,CF1-J,0:/Integrated Flight Computer/aircraft/cf1_j_cfg.ks (inferred preloaded)
21.7,TAKEOFF,TO_ROTATE,70.73,80,9.27,3.8,-0.3,0.77,1,90.15,0.097,1,0,0,0,0,0,0,0,0,0,0,0,0,0,0,90.35,1.911,1,0,-0.24,0,0,0.05,90,0,0,0,0,0,0,0,0,-0.052,0,0,3,0,0,0,69,0,0,0,90.35,1,-0.052,-0.199,0.0055,0.792,0,0.0055,0,0.1712,1.911,1.14,0.08,0,1,1,0,0,VALID,0,0,0,0,0,1,0,0,0,0,0,0,0,0,0,0,0,0,0,0,320.12,455.67,2,0,0.08,0.08,317,14.29,0.08,0.06,21.52,LANDED,CF1-J,0:/Integrated Flight Computer/aircraft/cf1_j_cfg.ks (inferred preloaded)
21.98,TAKEOFF,TO_ROTATE,72.25,80,7.75,3.84,-0.32,0.98,1.22,90.15,0.095,1,0,0,0,0,0,0,0,0,0,0,0,0,0,0,90.35,2.751,1,0,-0.25,0,0,0.05,90,0,0,0,0,0,0,0,0,-0.053,0,0,3,0,0,0,69,0,0,0,90.35,1,-0.053,-0.199,0.0056,0.809,0,0.0056,0,0.2221,2.751,1.776,0.08,0,1,1,0,0,VALID,0,0,0,0,0,1,0,0,0,0,0,0,0,0,0,0,0,0,0,0,321.67,454.67,2,0,0.08,0.08,321,14.29,0.08,0.06,21.8,LANDED,CF1-J,0:/Integrated Flight Computer/aircraft/cf1_j_cfg.ks (inferred preloaded)
22.28,TAKEOFF,TO_ROTATE,73.88,80,6.12,3.89,-0.3,1.29,1.52,90.15,0.089,1,0,0,0,0,0,0,0,0,0,0,0,0,0,0,90.35,3.651,1,0,-0.24,0,0,0.06,90,0,0,0,0,0,0,0,0,-0.054,0,0,3,0,0,0,69,0,0,0,90.35,1,-0.054,-0.197,0.0057,0.826,0,0.0057,0,0.2685,3.651,2.356,0.08,0,1,1,0,0,VALID,0,0,0,0,0,1,0,0,0,0,0,0,0,0,0,0,0,0,0,0,323.28,453.59,2,0,0.08,0.08,325,13.33,0.08,0.06,22.1,LANDED,CF1-J,0:/Integrated Flight Computer/aircraft/cf1_j_cfg.ks (inferred preloaded)
22.56,TAKEOFF,TO_ROTATE,75.4,80,4.6,3.97,-0.26,1.66,1.86,90.15,0.08,1,0,0,0,0,0,0,0,0,0,0,0,0,0,0,90.34,4.491,1,0,-0.2,0,0,0.06,90,0,0,0,0,0,0,0,0,-0.056,0,0,3,0,0,0,69,0,0,0,90.34,1,-0.056,-0.191,0.0055,0.842,0,0.0055,0,0.3061,4.491,2.827,0.08,0,1,1,0,0,VALID,0,0,0,0,0,1,0,0,0,0,0,0,0,0,0,0,0,0,0,0,324.73,452.59,2,0,0.08,0.08,329,14.29,0.08,0.06,22.38,LANDED,CF1-J,0:/Integrated Flight Computer/aircraft/cf1_j_cfg.ks (inferred preloaded)
22.84,TAKEOFF,TO_ROTATE,76.9,80,3.1,4.1,-0.33,2.15,2.36,90.16,0.072,1,0,0,0,0,0,0,0,0,0,0,0,0,0,0,90.34,5.331,1,0,-0.22,0,0,0.06,90,0,0,0,0,0,0,0,0,-0.057,0,0,3,0,0,0,69,0,0,0,90.34,1,-0.057,-0.184,0.0054,0.858,0,0.0054,0,0.3342,5.331,3.178,0.08,0,1,1,0,0,VALID,0,0,0,0,0,1,0,0,0,0,0,0,0,0,0,0,0,0,0,0,326.14,451.59,2,0,0.08,0.08,333,14.29,0.08,0.06,22.66,LANDED,CF1-J,0:/Integrated Flight Computer/aircraft/cf1_j_cfg.ks (inferred preloaded)
23.12,TAKEOFF,TO_ROTATE,78.38,80,1.62,4.26,-0.13,3.01,3.1,90.16,0.078,1,0,0,0,0,0,0,0,0,0,0,0,0,0,0,90.34,6.171,1,0,-0.1,0,0,0.06,90,0,0,0,0,0,0,0,0,-0.058,0,0,3,0,0,0,69,0,0,0,90.34,1,-0.058,-0.174,0.0051,0.874,0,0.0051,0,0.333,6.171,3.162,0.08,0,1,1,0,0,VALID,0,0,0,0,0,1,0,0,0,0,0,0,0,0,0,0,0,0,0,0,327.51,450.6,2,0,0.08,0.08,337,14.29,0.08,0.06,22.94,LANDED,CF1-J,0:/Integrated Flight Computer/aircraft/cf1_j_cfg.ks (inferred preloaded)
23.4,TAKEOFF,TO_ROTATE,79.83,80,0.17,4.47,-0.24,4.08,4.26,90.17,0.076,1,0,0,0,0,0,0,0,0,0,0,0,0,0,0,90.33,7.011,1,0,-0.18,0,0,0.07,90,0,0,0,0,0,0,0,0,-0.059,0,0,3,0,0,0,69,0,0,0,90.33,1,-0.059,-0.164,0.0048,0.89,0,0.0048,0,0.3144,7.011,2.93,0.08,0,1,1,0,0,VALID,0,0,0,0,0,1,0,0,0,0,0,0,0,0,0,0,0,0,0,0,328.85,449.63,2,0,0.08,0.08,341,14.29,0.08,0.06,23.22,LANDED,CF1-J,0:/Integrated Flight Computer/aircraft/cf1_j_cfg.ks (inferred preloaded)
23.68,TAKEOFF,TO_ROTATE,81.21,80,-1.21,4.73,-0.1,5.31,5.39,90.18,0.069,1,0,0,0,0,0,0,0,0,0,0,0,0,0,0,90.33,7.851,1,0,-0.08,0,0,0.07,90,0,0,0,0,0,0,0,0,-0.061,0,0,3,0,0,0,69,0,0,0,90.33,1,-0.061,-0.154,0.0046,0.905,0,0.0046,0,0.2832,7.851,2.54,0.08,0,1,1,0,0,VALID,0,0,0,0,0,1,0,0,0,0,0,0,0,0,0,0,0,0,0,0,330.18,448.69,2,0,0.08,0.08,345,14.29,0.08,0.06,23.5,LANDED,CF1-J,0:/Integrated Flight Computer/aircraft/cf1_j_cfg.ks (inferred preloaded)
23.94,TAKEOFF,TO_ROTATE,82.43,80,-2.43,5.01,0.37,6.41,6.15,90.18,0.034,1,0,0,0,0,0,0,0,0,0,0,0,0,0,0,90.4,8.691,0,1,0.25,0,0,8.45,90.4,0.6312,-0.0068,0.7756,8.69,90.4,0,0,0,0,0,0,3,0,0,0,69,0,0,0,90.4,1,0,-0.221,0,0,3,0,0,0,8.691,2.276,0,0,1,1,0,0,VALID,0,0,0,0,0,1,0,0,0,0,0,0,0,0,0,0,0,0,0,0,331.4,447.87,2,0,0.08,0.08,349,15.38,0.08,0.06,23.76,FLYING,CF1-J,0:/Integrated Flight Computer/aircraft/cf1_j_cfg.ks (inferred preloaded)
24.22,TAKEOFF,TO_ROTATE,83.68,80,-3.68,5.39,1.07,6.86,6.16,90.18,0.077,1,0,0,0,0,0,0,0,0,0,0,0,0,0,0,90.4,9.531,0,1,0.73,0,0,9.29,90.4,0.6425,-0.0068,0.7663,9.53,90.4,0,0,0,0,0,0,3,0,0,0,69,0,0,0,90.4,1,0,-0.22,0,0,3,0,0,0,9.531,2.669,0,0,1,1,0,0,VALID,0,0,0,0,0,1,0,0,0,0,0,0,0,0,0,0,0,0,0,0,332.71,447.01,2,0,0.08,0.08,353,14.29,0.08,0.06,24.04,FLYING,CF1-J,0:/Integrated Flight Computer/aircraft/cf1_j_cfg.ks (inferred preloaded)
24.5,TAKEOFF,TO_ROTATE,84.9,80,-4.9,5.96,1.9,7.2,6.02,90.19,0.106,1,0,0,0,0,0,0,0,0,0,0,0,0,0,0,90.4,10,0,1,1.28,0,0,10,90.4,0.6487,-0.0067,0.761,10,90.4,0,0,0,0,0,0,3,0,0,0,69,0,0,0,90.4,1,0,-0.213,0,0,3,0,0,0,10,2.797,0,0,1,1,0,0,VALID,0,0,0,0,0,1,0,0,0,0,0,0,0,0,0,0,0,0,0,0,333.97,446.16,2,0,0.08,0.08,357,14.29,0.08,0.06,24.32,FLYING,CF1-J,0:/Integrated Flight Computer/aircraft/cf1_j_cfg.ks (inferred preloaded)
24.78,TAKEOFF,TO_CLIMB,86.1,80,-6.1,6.6,2.65,6.43,4.82,90.19,0.117,0.912,0,0,0,0,0,0,0,0,0,0,0,0,0,0,90.4,7.474,0,1,1.76,0,0,7.35,90.4,0.6145,-0.0068,0.7889,7.47,90.4,0,0,0,0,0,0,3,0,0,0,69,0,0,0,90.4,1,0,-0.211,0,0,3,0,0,0,10,2.878,0,0,1,1,0,0,VALID,0,0,0,0,0,1,0,0,0,0,0,0,0,0,0,0,0,0,0,0,335.09,445.3,2,0,0.08,0.08,361,14.29,0.08,0.06,24.6,FLYING,CF1-J,0:/Integrated Flight Computer/aircraft/cf1_j_cfg.ks (inferred preloaded)
25.06,TAKEOFF,TO_CLIMB,87.37,80,-7.37,7.42,2.89,6.09,4.27,90.19,0.118,0.8763,0,0,0,0,0,0,0,0,0,0,0,0,0,0,90.4,7.922,0,1,1.89,0,0,7.8,90.4,0.6206,-0.0068,0.7841,7.92,90.4,0,0,0,0,0,0,3,0,0,0,69,0,0,0,90.4,1,0,-0.209,0,0,3,0,0,0,10,2.878,0,0,1,1,0,0,VALID,0,0,0,0,0,1,0,0,0,0,0,0,0,0,0,0,0,0,0,0,335.5,444.39,2,0,0.08,0.08,365,14.29,0.08,0.06,24.88,FLYING,CF1-J,0:/Integrated Flight Computer/aircraft/cf1_j_cfg.ks (inferred preloaded)
25.34,TAKEOFF,TO_CLIMB,88.64,80,-8.64,8.38,3.34,5.97,3.93,90.19,0.119,0.8636,0,0,0,0,0,0,0,0,0,0,0,0,0,0,90.4,8,0,1,2.16,0,0,8,90.4,0.6216,-0.0068,0.7833,8,90.4,0,0,0,0,0,0,3,0,0,0,69,0,0,0,90.4,1,0,-0.207,0,0,3,0,0,0,10,2.878,0,0,1,1,0,0,VALID,0,0,0,0,0,1,0,0,0,0,0,0,0,0,0,0,0,0,0,0,335.68,443.47,2,0,0.08,0.08,369,14.29,0.08,0.06,25.16,FLYING,CF1-J,0:/Integrated Flight Computer/aircraft/cf1_j_cfg.ks (inferred preloaded)
25.62,TAKEOFF,TO_CLIMB,89.92,80,-9.92,9.41,3.59,5.69,3.51,90.2,0.119,0.8508,0,0,0,0,0,0,0,0,0,0,0,0,0,0,90.4,8,0,1,2.29,0,0,8,90.4,0.6216,-0.0068,0.7833,8,90.4,0,0,0,0,0,0,3,0,0,0,69,0,0,0,90.4,1,0,-0.205,0,0,3,0,0,0,10,2.878,0,0,1,1,0,0,VALID,0,0,0,0,0,1,0,0,0,0,0,0,0,0,0,0,0,0,0,0,335.74,442.54,2,0,0.08,0.08,373,14.29,0.08,0.06,25.44,FLYING,CF1-J,0:/Integrated Flight Computer/aircraft/cf1_j_cfg.ks (inferred preloaded)
25.9,TAKEOFF,TO_CLIMB,91.21,80,-11.21,10.54,3.84,5.56,3.25,90.2,0.12,0.8379,0,0,0,0,0,0,0,0,0,0,0,0,0,0,90.4,8,0,1,2.41,0,0,8,90.4,0.6216,-0.0068,0.7833,8,90.4,0,0,0,0,0,0,3,0,0,0,69,0,0,0,90.4,1,0,-0.202,0,0,3,0,0,0,10,2.878,0,0,1,1,0,0,VALID,0,0,0,0,0,1,0,0,0,0,0,0,0,0,0,0,0,0,0,0,335.68,441.6,2,0,0.08,0.08,377,14.29,0.08,0.06,25.72,FLYING,CF1-J,0:/Integrated Flight Computer/aircraft/cf1_j_cfg.ks (inferred preloaded)
26.18,TAKEOFF,TO_CLIMB,92.5,80,-12.5,11.73,4.08,5.45,3.03,90.2,0.12,0.825,0,0,0,0,0,0,0,0,0,0,0,0,0,0,90.4,8,0,1,2.53,0,0,8,90.4,0.6215,-0.0068,0.7834,8,90.4,0,0,0,0,0,0,3,0,0,0,69,0,0,0,90.4,1,0,-0.2,0,0,3,0,0,0,10,2.878,0,0,1,1,0,0,VALID,0,0,0,0,0,1,0,0,0,0,0,0,0,0,0,0,0,0,0,0,335.51,440.65,2,0,0.08,0.08,381,14.29,0.08,0.06,26,FLYING,CF1-J,0:/Integrated Flight Computer/aircraft/cf1_j_cfg.ks (inferred preloaded)
26.46,TAKEOFF,TO_CLIMB,93.79,80,-13.79,13,4.32,5.35,2.82,90.2,0.12,0.8121,0,0,0,0,0,0,0,0,0,0,0,0,0,0,90.4,8,0,1,2.64,0,0,8,90.4,0.6215,-0.0068,0.7834,8,90.4,0,0,0,0,0,0,3,0,0,0,69,0,0,0,90.4,1,0,-0.197,0,0,3,0,0,0,10,2.878,0,0,1,1,0,0,VALID,0,0,0,0,0,1,0,0,0,0,0,0,0,0,0,0,0,0,0,0,335.24,439.7,2,0,0.08,0.08,385,14.29,0.08,0.06,26.28,FLYING,CF1-J,0:/Integrated Flight Computer/aircraft/cf1_j_cfg.ks (inferred preloaded)
26.74,TAKEOFF,TO_CLIMB,95.07,80,-15.07,14.33,4.56,5.26,2.63,90.21,0.12,0.7993,0,0,0,0,0,0,0,0,0,0,0,0,0,0,90.4,8,0,1,2.75,0,0,8,90.4,0.6215,-0.0068,0.7834,8,90.4,0,0,0,0,0,0,3,0,0,0,69,0,0,0,90.4,1,0,-0.194,0,0,3,0,0,0,10,2.878,0,0,1,1,0,0,VALID,0,0,0,0,0,1,0,0,0,0,0,0,0,0,0,0,0,0,0,0,334.85,438.75,2,0,0.08,0.08,389,14.29,0.08,0.06,26.56,FLYING,CF1-J,0:/Integrated Flight Computer/aircraft/cf1_j_cfg.ks (inferred preloaded)
27.02,TAKEOFF,TO_CLIMB,96.36,80,-16.36,15.73,4.79,5.19,2.46,90.21,0.12,0.7864,0,0,0,0,0,0,0,0,0,0,0,0,0,0,90.4,8,0,1,2.84,0,0,8,90.4,0.6214,-0.0068,0.7834,8,90.4,0,0,0,0,0,0,3,0,0,0,69,0,0,0,90.4,1,0,-0.192,0,0,3,0,0,0,10,2.878,0,0,1,1,0,0,VALID,0,0,0,0,0,1,0,0,0,0,0,0,0,0,0,0,0,0,0,0,334.37,437.8,2,0,0.08,0.08,393,14.29,0.08,0.06,26.84,FLYING,CF1-J,0:/Integrated Flight Computer/aircraft/cf1_j_cfg.ks (inferred preloaded)
27.3,TAKEOFF,TO_CLIMB,97.63,80,-17.63,17.2,5.02,5.11,2.29,90.21,0.121,0.78,0,0,0,0,0,0,0,0,0,0,0,0,0,0,90.4,8,0,1,2.94,0,0,8,90.4,0.6214,-0.0068,0.7835,8,90.4,0,0,0,0,0,0,3,0,0,0,69,0,0,0,90.4,1,0,-0.189,0,0,3,0,0,0,10,2.878,0,0,1,1,0,0,VALID,0,0,0,0,0,1,0,0,0,0,0,0,0,0,0,0,0,0,0,0,333.79,436.85,2,0,0.08,0.08,397,14.29,0.08,0.06,27.12,FLYING,CF1-J,0:/Integrated Flight Computer/aircraft/cf1_j_cfg.ks (inferred preloaded)
27.58,TAKEOFF,TO_CLIMB,98.9,80,-18.9,18.73,5.25,5.04,2.12,90.21,0.12,0.78,0,0,0,0,0,0,0,0,0,0,0,0,0,0,90.4,8,0,1,3.04,0,0,8,90.4,0.6214,-0.0068,0.7835,8,90.4,0,0,0,0,0,0,3,0,0,0,69,0,0,0,90.4,1,0,-0.186,0,0,3,0,0,0,10,2.878,0,0,1,1,0,0,VALID,0,0,0,0,0,1,0,0,0,0,0,0,0,0,0,0,0,0,0,0,333.19,435.91,2,0,0.08,0.08,401,14.29,0.08,0.06,27.4,FLYING,CF1-J,0:/Integrated Flight Computer/aircraft/cf1_j_cfg.ks (inferred preloaded)
27.86,TAKEOFF,TO_CLIMB,100.16,80,-20.16,20.33,5.49,4.98,1.96,90.22,0.119,0.78,0,0,0,0,0,0,0,0,0,0,0,0,0,0,90.4,8,0,1,3.14,0,0,8,90.4,0.6213,-0.0068,0.7835,8,90.4,0,0,0,0,0,0,3,0,0,0,69,0,0,0,90.4,1,0,-0.184,0,0,3,0,0,0,10,2.878,0,0,1,1,0,0,VALID,0,0,0,0,0,1,0,0,0,0,0,0,0,0,0,0,0,0,0,0,332.58,434.96,2,0,0.08,0.08,405,14.29,0.08,0.06,27.68,FLYING,CF1-J,0:/Integrated Flight Computer/aircraft/cf1_j_cfg.ks (inferred preloaded)
28.14,TAKEOFF,TO_CLIMB,101.42,80,-21.42,21.99,5.72,4.92,1.81,90.22,0.119,0.78,0,0,0,0,0,0,0,0,0,0,0,0,0,0,90.4,8,0,1,3.23,0,0,8,90.4,0.6213,-0.0068,0.7836,8,90.4,0,0,0,0,0,0,3,0,0,0,69,0,0,0,90.4,1,0,-0.181,0,0,3,0,0,0,10,2.878,0,0,1,1,0,0,VALID,0,0,0,0,0,1,0,0,0,0,0,0,0,0,0,0,0,0,0,0,331.97,434.02,2,0,0.08,0.08,409,14.29,0.08,0.06,27.96,FLYING,CF1-J,0:/Integrated Flight Computer/aircraft/cf1_j_cfg.ks (inferred preloaded)
28.42,TAKEOFF,TO_CLIMB,102.67,80,-22.67,23.72,5.95,4.85,1.66,90.22,0.118,0.78,0,0,0,0,0,0,0,0,0,0,0,0,0,0,90.4,8,0,1,3.32,0,0,8,90.4,0.6212,-0.0068,0.7836,8,90.4,0,0,0,0,0,0,3,0,0,0,69,0,0,0,90.4,1,0,-0.178,0,0,3,0,0,0,10,2.878,0,0,1,1,0,0,VALID,0,0,0,0,0,1,0,0,0,0,0,0,0,0,0,0,0,0,0,0,331.36,433.07,2,0,0.08,0.08,413,14.29,0.08,0.06,28.24,FLYING,CF1-J,0:/Integrated Flight Computer/aircraft/cf1_j_cfg.ks (inferred preloaded)
28.7,TAKEOFF,TO_CLIMB,103.92,80,-23.92,25.51,6.18,4.79,1.51,90.22,0.118,0.78,0,0,0,0,0,0,0,0,0,0,0,0,0,0,90.4,8,0,1,3.4,0,0,8,90.4,0.6212,-0.0068,0.7836,8,90.4,0,0,0,0,0,0,3,0,0,0,69,0,0,0,90.4,1,0,-0.176,0,0,3,0,0,0,10,2.878,0,0,1,1,0,0,VALID,0,0,0,0,0,1,0,0,0,0,0,0,0,0,0,0,0,0,0,0,330.75,432.13,2,0,0.08,0.08,417,14.29,0.08,0.06,28.52,FLYING,CF1-J,0:/Integrated Flight Computer/aircraft/cf1_j_cfg.ks (inferred preloaded)
28.98,TAKEOFF,TO_CLIMB,105.16,80,-25.16,27.37,6.41,4.74,1.37,90.23,0.118,0.78,0,0,0,0,0,0,0,0,0,0,0,0,0,0,90.4,8,0,1,3.49,0,0,8,90.4,0.6212,-0.0068,0.7837,8,90.4,0,0,0,0,0,0,3,0,0,0,69,0,0,0,90.4,1,0,-0.173,0,0,3,0,0,0,10,2.878,0,0,1,1,0,0,VALID,0,0,0,0,0,1,0,0,0,0,0,0,0,0,0,0,0,0,0,0,330.13,431.2,2,0,0.08,0.08,421,14.29,0.08,0.06,28.8,FLYING,CF1-J,0:/Integrated Flight Computer/aircraft/cf1_j_cfg.ks (inferred preloaded)
29.26,TAKEOFF,TO_CLIMB,106.39,80,-26.39,29.29,6.64,4.7,1.25,90.23,0.118,0.78,0,0,0,0,0,0,0,0,0,0,0,0,0,0,90.4,8,0,1,3.57,0,0,8,90.4,0.6211,-0.0068,0.7837,8,90.4,0,0,0,0,0,0,3,0,0,0,69,0,0,0,90.4,1,0,-0.171,0,0,3,0,0,0,10,2.878,0,0,1,1,0,0,VALID,0,0,0,0,0,1,0,0,0,0,0,0,0,0,0,0,0,0,0,0,329.52,430.26,2,0,0.08,0.08,425,14.29,0.08,0.06,29.08,FLYING,CF1-J,0:/Integrated Flight Computer/aircraft/cf1_j_cfg.ks (inferred preloaded)
29.54,TAKEOFF,TO_CLIMB,107.62,80,-27.62,31.28,6.87,4.66,1.13,90.23,0.118,0.78,0,0,0,0,0,0,0,0,0,0,0,0,0,0,90.4,8,0,1,3.65,0,0,8,90.4,0.6211,-0.0068,0.7837,8,90.4,0,0,0,0,0,0,3,0,0,0,69,0,0,0,90.4,1,0,-0.168,0,0,3,0,0,0,10,2.878,0,0,1,1,0,0,VALID,0,0,0,0,0,1,0,0,0,0,0,0,0,0,0,0,0,0,0,0,328.91,429.33,2,0,0.08,0.08,429,14.29,0.08,0.06,29.36,FLYING,CF1-J,0:/Integrated Flight Computer/aircraft/cf1_j_cfg.ks (inferred preloaded)
29.82,TAKEOFF,TO_CLIMB,108.83,80,-28.83,33.33,7.1,4.62,1.01,90.23,0.117,0.78,0,0,0,0,0,0,0,0,0,0,0,0,0,0,90.4,8,0,1,3.73,0,0,8,90.4,0.621,-0.0068,0.7837,8,90.4,0,0,0,0,0,0,3,0,0,0,69,0,0,0,90.4,1,0,-0.166,0,0,3,0,0,0,10,2.878,0,0,1,1,0,0,VALID,0,0,0,0,0,1,0,0,0,0,0,0,0,0,0,0,0,0,0,0,328.3,428.4,2,0,0.08,0.08,433,14.29,0.08,0.06,29.64,FLYING,CF1-J,0:/Integrated Flight Computer/aircraft/cf1_j_cfg.ks (inferred preloaded)
30.1,TAKEOFF,TO_CLIMB,110.05,80,-30.05,35.45,7.34,4.58,0.9,90.24,0.116,0.78,0,0,0,0,0,0,0,0,0,0,0,0,0,0,90.4,8,0,1,3.82,0,0,8,90.4,0.621,-0.0068,0.7838,8,90.4,0,0,0,0,0,0,3,0,0,0,69,0,0,0,90.4,1,0,-0.163,0,0,3,0,0,0,10,2.878,0,0,1,1,0,0,VALID,0,0,0,0,0,1,0,0,0,0,0,0,0,0,0,0,0,0,0,0,327.69,427.48,2,0,0.08,0.08,437,14.29,0.08,0.06,29.92,FLYING,CF1-J,0:/Integrated Flight Computer/aircraft/cf1_j_cfg.ks (inferred preloaded)
30.38,TAKEOFF,TO_CLIMB,111.25,80,-31.25,37.63,7.58,4.54,0.77,90.24,0.117,0.78,0,0,0,0,0,0,0,0,0,0,0,0,0,0,90.4,8,0,1,3.9,0,0,8,90.4,0.621,-0.0068,0.7838,8,90.4,0,0,0,0,0,0,3,0,0,0,69,0,0,0,90.4,1,0,-0.16,0,0,3,0,0,0,10,2.878,0,0,1,1,0,0,VALID,0,0,0,0,0,1,0,0,0,0,0,0,0,0,0,0,0,0,0,0,327.08,426.56,2,0,0.08,0.08,441,14.29,0.08,0.06,30.2,FLYING,CF1-J,0:/Integrated Flight Computer/aircraft/cf1_j_cfg.ks (inferred preloaded)
30.66,TAKEOFF,TO_CLIMB,112.45,80,-32.45,39.88,7.81,4.51,0.66,90.24,0.117,0.78,0,0,0,0,0,0,0,0,0,0,0,0,0,0,90.4,8,0,1,3.97,0,0,8,90.4,0.6209,-0.0068,0.7838,8,90.4,0,0,0,0,0,0,3,0,0,0,69,0,0,0,90.4,1,0,-0.158,0,0,3,0,0,0,10,2.878,0,0,1,1,0,0,VALID,0,0,0,0,0,1,0,0,0,0,0,0,0,0,0,0,0,0,0,0,326.47,425.64,2,0,0.08,0.08,445,14.29,0.08,0.06,30.48,FLYING,CF1-J,0:/Integrated Flight Computer/aircraft/cf1_j_cfg.ks (inferred preloaded)
30.94,TAKEOFF,TO_CLIMB,113.64,80,-33.64,42.19,8.04,4.48,0.56,90.24,0.116,0.78,0,0,0,0,0,0,0,0,0,0,0,0,0,0,90.4,8,0,1,4.05,0,0,8,90.4,0.6209,-0.0068,0.7839,8,90.4,0,0,0,0,0,0,3,0,0,0,69,0,0,0,90.4,1,0,-0.155,0,0,3,0,0,0,10,2.878,0,0,1,1,0,0,VALID,0,0,0,0,0,1,0,0,0,0,0,0,0,0,0,0,0,0,0,0,325.86,424.73,2,0,0.08,0.08,449,14.29,0.08,0.06,30.76,FLYING,CF1-J,0:/Integrated Flight Computer/aircraft/cf1_j_cfg.ks (inferred preloaded)
31.22,TAKEOFF,TO_CLIMB,114.82,80,-34.82,44.57,8.27,4.45,0.47,90.25,0.116,0.78,0,0,0,0,0,0,0,0,0,0,0,0,0,0,90.4,8,0,1,4.12,0,0,8,90.4,0.6208,-0.0068,0.7839,8,90.4,0,0,0,0,0,0,3,0,0,0,69,0,0,0,90.4,1,0,-0.152,0,0,3,0,0,0,10,2.878,0,0,1,1,0,0,VALID,0,0,0,0,0,1,0,0,0,0,0,0,0,0,0,0,0,0,0,0,325.26,423.82,2,0,0.08,0.08,453,14.29,0.08,0.06,31.04,FLYING,CF1-J,0:/Integrated Flight Computer/aircraft/cf1_j_cfg.ks (inferred preloaded)
31.5,TAKEOFF,TO_CLIMB,116,80,-36,47.01,8.5,4.42,0.36,90.25,0.115,0.78,0,0,0,0,0,0,0,0,0,0,0,0,0,0,90.4,8,0,1,4.19,0,0,8,90.4,0.6208,-0.0068,0.784,8,90.4,0,0,0,0,0,0,3,0,0,0,69,0,0,0,90.4,1,0,-0.15,0,0,3,0,0,0,10,2.878,0,0,1,1,0,0,VALID,0,0,0,0,0,1,0,0,0,0,0,0,0,0,0,0,0,0,0,0,324.66,422.92,2,0,0.08,0.08,457,14.29,0.08,0.06,31.32,FLYING,CF1-J,0:/Integrated Flight Computer/aircraft/cf1_j_cfg.ks (inferred preloaded)
31.78,TAKEOFF,TO_CLIMB,117.16,80,-37.16,49.51,8.73,4.4,0.27,90.25,0.115,0.78,0,0,0,0,0,0,0,0,0,0,0,0,0,0,90.4,8,0,1,4.26,0,0,8,90.4,0.6207,-0.0068,0.784,8,90.4,0,0,0,0,0,0,3,0,0,0,69,0,0,0,90.4,1,0,-0.147,0,0,3,0,0,0,10,2.878,0,0,1,1,0,0,VALID,0,0,0,0,0,1,0,0,0,0,0,0,0,0,0,0,0,0,0,0,324.05,422.02,2,0,0.08,0.08,461,14.29,0.08,0.06,31.6,FLYING,CF1-J,0:/Integrated Flight Computer/aircraft/cf1_j_cfg.ks (inferred preloaded)
32.06,TAKEOFF,TO_CLIMB,118.32,80,-38.32,52.08,8.96,4.38,0.18,90.26,0.115,0.78,0,0,0,0,0,0,0,0,0,0,0,0,0,0,90.4,8,0,1,4.33,0,0,8,90.4,0.6207,-0.0068,0.784,8,90.4,0,0,0,0,0,0,3,0,0,0,69,0,0,0,90.4,1,0,-0.145,0,0,3,0,0,0,10,2.878,0,0,1,1,0,0,VALID,0,0,0,0,0,1,0,0,0,0,0,0,0,0,0,0,0,0,0,0,323.46,421.13,2,0,0.08,0.08,465,14.29,0.08,0.06,31.88,FLYING,CF1-J,0:/Integrated Flight Computer/aircraft/cf1_j_cfg.ks (inferred preloaded)
32.34,TAKEOFF,TO_CLIMB,119.47,80,-39.47,54.72,9.19,4.36,0.1,90.26,0.115,0.78,0,0,0,0,0,0,0,0,0,0,0,0,0,0,90.4,8,0,1,4.4,0,0,8,90.4,0.6207,-0.0068,0.7841,8,90.4,0,0,0,0,0,0,3,0,0,0,69,0,0,0,90.4,1,0,-0.142,0,0,3,0,0,0,10,2.878,0,0,1,1,0,0,VALID,0,0,0,0,0,1,0,0,0,0,0,0,0,0,0,0,0,0,0,0,322.86,420.24,2,0,0.08,0.08,469,14.29,0.08,0.06,32.16,FLYING,CF1-J,0:/Integrated Flight Computer/aircraft/cf1_j_cfg.ks (inferred preloaded)
32.62,TAKEOFF,TO_CLIMB,120.61,80,-40.61,57.41,9.42,4.35,0.02,90.26,0.113,0.78,0,0,0,0,0,0,0,0,0,0,0,0,0,0,90.4,8,0,1,4.47,0,0,8,90.4,0.6206,-0.0068,0.7841,8,90.4,0,0,0,0,0,0,3,0,0,0,69,0,0,0,90.4,1,0,-0.14,0,0,3,0,0,0,10,2.878,0,0,1,1,0,0,VALID,0,0,0,0,0,1,0,0,0,0,0,0,0,0,0,0,0,0,0,0,322.27,419.36,2,0,0.08,0.08,473,14.29,0.08,0.06,32.44,FLYING,CF1-J,0:/Integrated Flight Computer/aircraft/cf1_j_cfg.ks (inferred preloaded)
32.9,TAKEOFF,TO_CLIMB,121.74,80,-41.74,60.17,9.65,4.34,-0.06,90.26,0.113,0.78,0,0,0,0,0,0,0,0,0,0,0,0,0,0,90.4,8,0,1,4.53,0,0,8,90.4,0.6206,-0.0068,0.7841,8,90.4,0,0,0,0,0,0,3,0,0,0,69,0,0,0,90.4,1,0,-0.137,0,0,3,0,0,0,10,2.878,0,0,1,1,0,0,VALID,0,0,0,0,0,1,0,0,0,0,0,0,0,0,0,0,0,0,0,0,321.68,418.49,2,0,0.08,0.08,477,14.29,0.08,0.06,32.72,FLYING,CF1-J,0:/Integrated Flight Computer/aircraft/cf1_j_cfg.ks (inferred preloaded)
33.18,TAKEOFF,TO_CLIMB,122.87,80,-42.87,63,9.88,4.32,-0.14,90.27,0.112,0.78,0,0,0,0,0,0,0,0,0,0,0,0,0,0,90.4,8,0,1,4.6,0,0,8,90.4,0.6205,-0.0068,0.7842,8,90.4,0,0,0,0,0,0,3,0,0,0,69,0,0,0,90.4,1,0,-0.135,0,0,3,0,0,0,10,2.878,0,0,1,1,0,0,VALID,0,0,0,0,0,1,0,0,0,0,0,0,0,0,0,0,0,0,0,0,321.09,417.62,2,0,0.08,0.08,481,14.29,0.08,0.06,33,FLYING,CF1-J,0:/Integrated Flight Computer/aircraft/cf1_j_cfg.ks (inferred preloaded)
33.46,TAKEOFF,TO_CLIMB,123.98,80,-43.98,65.89,10.11,4.32,-0.21,90.27,0.111,0.78,0,0,0,0,0,0,0,0,0,0,0,0,0,0,90.4,8,0,1,4.66,0,0,8,90.4,0.6205,-0.0068,0.7842,8,90.4,0,0,0,0,0,0,3,0,0,0,69,0,0,0,90.4,1,0,-0.132,0,0,3,0,0,0,10,2.878,0,0,1,1,0,0,VALID,0,0,0,0,0,1,0,0,0,0,0,0,0,0,0,0,0,0,0,0,320.5,416.76,2,0,0.08,0.08,485,14.29,0.08,0.06,33.28,FLYING,CF1-J,0:/Integrated Flight Computer/aircraft/cf1_j_cfg.ks (inferred preloaded)
33.74,TAKEOFF,TO_CLIMB,125.09,80,-45.09,68.84,10.34,4.31,-0.28,90.27,0.11,0.78,0,0,0,0,0,0,0,0,0,0,0,0,0,0,90.4,8,0,1,4.73,0,0,8,90.4,0.6204,-0.0068,0.7842,8,90.4,0,0,0,0,0,0,3,0,0,0,69,0,0,0,90.4,1,0,-0.13,0,0,3,0,0,0,10,2.878,0,0,1,1,0,0,VALID,0,0,0,0,0,1,0,0,0,0,0,0,0,0,0,0,0,0,0,0,319.92,415.9,2,0,0.08,0.08,489,14.29,0.08,0.06,33.56,FLYING,CF1-J,0:/Integrated Flight Computer/aircraft/cf1_j_cfg.ks (inferred preloaded)
34.02,TAKEOFF,TO_CLIMB,126.18,80,-46.18,71.85,10.58,4.3,-0.35,90.27,0.11,0.78,0,0,0,0,0,0,0,0,0,0,0,0,0,0,90.4,8,0,1,4.79,0,0,8,90.4,0.6204,-0.0068,0.7843,8,90.4,0,0,0,0,0,0,3,0,0,0,69,0,0,0,90.4,1,0,-0.128,0,0,3,0,0,0,10,2.878,0,0,1,1,0,0,VALID,0,0,0,0,0,1,0,0,0,0,0,0,0,0,0,0,0,0,0,0,319.34,415.06,2,0,0.08,0.08,493,14.29,0.08,0.06,33.84,FLYING,CF1-J,0:/Integrated Flight Computer/aircraft/cf1_j_cfg.ks (inferred preloaded)
34.3,TAKEOFF,TO_CLIMB,127.27,80,-47.27,74.93,10.81,4.3,-0.42,90.27,0.109,0.78,0,0,0,0,0,0,0,0,0,0,0,0,0,0,90.4,8,0,1,4.85,0,0,8,90.4,0.6203,-0.0068,0.7843,8,90.4,0,0,0,0,0,0,3,0,0,0,69,0,0,0,90.4,1,0,-0.125,0,0,3,0,0,0,10,2.878,0,0,1,1,0,0,VALID,0,0,0,0,0,1,0,0,0,0,0,0,0,0,0,0,0,0,0,0,318.77,414.21,2,0,0.08,0.08,497,14.29,0.08,0.06,34.12,FLYING,CF1-J,0:/Integrated Flight Computer/aircraft/cf1_j_cfg.ks (inferred preloaded)
34.58,TAKEOFF,TO_CLIMB,128.35,80,-48.35,78.07,11.04,4.3,-0.48,90.28,0.109,0.78,0,0,0,0,0,0,0,0,0,0,0,0,0,0,90.4,8,0,1,4.92,0,0,8,90.4,0.6203,-0.0068,0.7844,8,90.4,0,0,0,0,0,0,3,0,0,0,69,0,0,0,90.4,1,0,-0.123,0,0,3,0,0,0,10,2.878,0,0,1,1,0,0,VALID,0,0,0,0,0,1,0,0,0,0,0,0,0,0,0,0,0,0,0,0,318.2,413.38,2,0,0.08,0.08,501,14.29,0.08,0.06,34.4,FLYING,CF1-J,0:/Integrated Flight Computer/aircraft/cf1_j_cfg.ks (inferred preloaded)
34.86,TAKEOFF,TO_CLIMB,129.42,80,-49.42,81.28,11.27,4.29,-0.55,90.28,0.109,0.78,0,0,0,0,0,0,0,0,0,0,0,0,0,0,90.4,8,0,1,4.98,0,0,8,90.4,0.6202,-0.0068,0.7844,8,90.4,0,0,0,0,0,0,3,0,0,0,69,0,0,0,90.4,1,0,-0.121,0,0,3,0,0,0,10,2.878,0,0,1,1,0,0,VALID,0,0,0,0,0,1,0,0,0,0,0,0,0,0,0,0,0,0,0,0,317.63,412.55,2,0,0.08,0.08,505,14.29,0.08,0.06,34.68,FLYING,CF1-J,0:/Integrated Flight Computer/aircraft/cf1_j_cfg.ks (inferred preloaded)
35.14,TAKEOFF,TO_CLIMB,130.48,80,-50.48,84.55,11.5,4.29,-0.61,90.28,0.109,0.78,0,0,0,0,0,0,0,0,0,0,0,0,0,0,90.4,8,0,1,5.04,0,0,8,90.4,0.6202,-0.0068,0.7844,8,90.4,0,0,0,0,0,0,3,0,0,0,69,0,0,0,90.4,1,0,-0.118,0,0,3,0,0,0,10,2.878,0,0,1,1,0,0,VALID,0,0,0,0,0,1,0,0,0,0,0,0,0,0,0,0,0,0,0,0,317.07,411.72,2,0,0.08,0.08,509,14.29,0.08,0.06,34.96,FLYING,CF1-J,0:/Integrated Flight Computer/aircraft/cf1_j_cfg.ks (inferred preloaded)
35.42,TAKEOFF,TO_CLIMB,131.53,80,-51.53,87.88,11.73,4.29,-0.67,90.28,0.108,0.78,0,0,0,0,0,0,0,0,0,0,0,0,0,0,90.4,8,0,1,5.1,0,0,8,90.4,0.6201,-0.0068,0.7845,8,90.4,0,0,0,0,0,0,3,0,0,0,69,0,0,0,90.4,1,0,-0.116,0,0,3,0,0,0,10,2.878,0,0,1,1,0,0,VALID,0,0,0,0,0,1,0,0,0,0,0,0,0,0,0,0,0,0,0,0,316.51,410.91,2,0,0.08,0.08,513,14.29,0.08,0.06,35.24,FLYING,CF1-J,0:/Integrated Flight Computer/aircraft/cf1_j_cfg.ks (inferred preloaded)
35.7,TAKEOFF,TO_CLIMB,132.58,80,-52.58,91.28,11.96,4.29,-0.73,90.29,0.107,0.78,0,0,0,0,0,0,0,0,0,0,0,0,0,0,90.4,8,0,1,5.15,0,0,8,90.4,0.6201,-0.0068,0.7845,8,90.4,0,0,0,0,0,0,3,0,0,0,69,0,0,0,90.4,1,0,-0.114,0,0,3,0,0,0,10,2.878,0,0,1,1,0,0,VALID,0,0,0,0,0,1,0,0,0,0,0,0,0,0,0,0,0,0,0,0,315.95,410.1,2,0,0.08,0.08,517,14.29,0.08,0.06,35.52,FLYING,CF1-J,0:/Integrated Flight Computer/aircraft/cf1_j_cfg.ks (inferred preloaded)
35.98,TAKEOFF,TO_CLIMB,133.61,80,-53.61,94.73,12.19,4.29,-0.78,90.29,0.106,0.78,0,0,0,0,0,0,0,0,0,0,0,0,0,0,90.4,8,0,1,5.21,0,0,8,90.4,0.62,-0.0068,0.7845,8,90.4,0,0,0,0,0,0,3,0,0,0,69,0,0,0,90.4,1,0,-0.111,0,0,3,0,0,0,10,2.878,0,0,1,1,0,0,VALID,0,0,0,0,0,1,0,0,0,0,0,0,0,0,0,0,0,0,0,0,315.39,409.29,2,0,0.08,0.08,521,14.29,0.08,0.06,35.8,FLYING,CF1-J,0:/Integrated Flight Computer/aircraft/cf1_j_cfg.ks (inferred preloaded)
36.26,TAKEOFF,TO_CLIMB,134.64,80,-54.64,98.25,12.41,4.29,-0.84,90.29,0.105,0.78,0,0,0,0,0,0,0,0,0,0,0,0,0,0,90.4,8,0,1,5.27,0,0,8,90.4,0.62,-0.0068,0.7846,8,90.4,0,0,0,0,0,0,3,0,0,0,69,0,0,0,90.4,1,0,-0.109,0,0,3,0,0,0,10,2.878,0,0,1,1,0,0,VALID,0,0,0,0,0,1,0,0,0,0,0,0,0,0,0,0,0,0,0,0,314.84,408.49,2,0,0.08,0.08,525,14.29,0.08,0.06,36.08,FLYING,CF1-J,0:/Integrated Flight Computer/aircraft/cf1_j_cfg.ks (inferred preloaded)
36.54,TAKEOFF,TO_CLIMB,135.65,80,-55.65,101.83,12.64,4.29,-0.89,90.29,0.104,0.78,0,0,0,0,0,0,0,0,0,0,0,0,0,0,90.4,8,0,1,5.32,0,0,8,90.4,0.6199,-0.0068,0.7846,8,90.4,0,0,0,0,0,0,3,0,0,0,69,0,0,0,90.4,1,0,-0.107,0,0,3,0,0,0,10,2.878,0,0,1,1,0,0,VALID,0,0,0,0,0,1,0,0,0,0,0,0,0,0,0,0,0,0,0,0,314.3,407.7,2,0,0.08,0.08,529,14.29,0.08,0.06,36.36,FLYING,CF1-J,0:/Integrated Flight Computer/aircraft/cf1_j_cfg.ks (inferred preloaded)
36.82,TAKEOFF,TO_CLIMB,136.66,80,-56.66,105.47,12.86,4.3,-0.94,90.3,0.101,0.78,0,0,0,0,0,0,0,0,0,0,0,0,0,0,90.4,8,0,1,5.38,0,0,8,90.4,0.6199,-0.0068,0.7847,8,90.4,0,0,0,0,0,0,3,0,0,0,69,0,0,0,90.4,1,0,-0.105,0,0,3,0,0,0,10,2.878,0,0,1,1,0,0,VALID,0,0,0,0,0,1,0,0,0,0,0,0,0,0,0,0,0,0,0,0,313.76,406.92,2,0,0.08,0.08,533,14.29,0.08,0.06,36.64,FLYING,CF1-J,0:/Integrated Flight Computer/aircraft/cf1_j_cfg.ks (inferred preloaded)
37.1,TAKEOFF,TO_CLIMB,137.66,80,-57.66,109.17,13.09,4.31,-0.98,90.3,0.101,0.78,0,0,0,0,0,0,0,0,0,0,0,0,0,0,90.4,8,0,1,5.43,0,0,8,90.4,0.6198,-0.0068,0.7847,8,90.4,0,0,0,0,0,0,3,0,0,0,69,0,0,0,90.4,1,0,-0.103,0,0,3,0,0,0,10,2.878,0,0,1,1,0,0,VALID,0,0,0,0,0,1,0,0,0,0,0,0,0,0,0,0,0,0,0,0,313.22,406.14,2,0,0.08,0.08,537,14.29,0.08,0.06,36.92,FLYING,CF1-J,0:/Integrated Flight Computer/aircraft/cf1_j_cfg.ks (inferred preloaded)
37.38,TAKEOFF,TO_CLIMB,138.65,80,-58.65,112.93,13.32,4.31,-1.03,90.3,0.101,0.78,0,0,0,0,0,0,0,0,0,0,0,0,0,0,90.4,8,0,1,5.49,0,0,8,90.4,0.6198,-0.0068,0.7847,8,90.4,0,0,0,0,0,0,3,0,0,0,69,0,0,0,90.4,1,0,-0.1,0,0,3,0,0,0,10,2.878,0,0,1,1,0,0,VALID,0,0,0,0,0,1,0,0,0,0,0,0,0,0,0,0,0,0,0,0,312.68,405.37,2,0,0.08,0.08,541,14.29,0.08,0.06,37.2,FLYING,CF1-J,0:/Integrated Flight Computer/aircraft/cf1_j_cfg.ks (inferred preloaded)
37.66,TAKEOFF,TO_CLIMB,139.63,80,-59.63,116.75,13.54,4.32,-1.08,90.3,0.1,0.78,0,0,0,0,0,0,0,0,0,0,0,0,0,0,90.4,8,0,1,5.54,0,0,8,90.4,0.6197,-0.0068,0.7848,8,90.4,0,0,0,0,0,0,3,0,0,0,69,0,0,0,90.4,1,0,-0.099,0,0,3,0,0,0,10,2.878,0,0,1,1,0,0,VALID,0,0,0,0,0,1,0,0,0,0,0,0,0,0,0,0,0,0,0,0,312.15,404.61,2,0,0.08,0.08,545,14.29,0.08,0.06,37.48,FLYING,CF1-J,0:/Integrated Flight Computer/aircraft/cf1_j_cfg.ks (inferred preloaded)
37.94,TAKEOFF,TO_CLIMB,140.6,80,-60.6,120.64,13.76,4.32,-1.13,90.3,0.099,0.78,0,0,0,0,0,0,0,0,0,0,0,0,0,0,90.4,8,0,1,5.59,0,0,8,90.4,0.6197,-0.0068,0.7848,8,90.4,0,0,0,0,0,0,3,0,0,0,69,0,0,0,90.4,1,0,-0.097,0,0,3,0,0,0,10,2.878,0,0,1,1,0,0,VALID,0,0,0,0,0,1,0,0,0,0,0,0,0,0,0,0,0,0,0,0,311.63,403.85,2,0,0.08,0.08,549,14.29,0.08,0.06,37.76,FLYING,CF1-J,0:/Integrated Flight Computer/aircraft/cf1_j_cfg.ks (inferred preloaded)
38.22,TAKEOFF,TO_CLIMB,141.57,80,-61.57,124.58,13.98,4.33,-1.17,90.31,0.098,0.78,0,0,0,0,0,0,0,0,0,0,0,0,0,0,90.4,8,0,1,5.64,0,0,8,90.4,0.6196,-0.0068,0.7849,8,90.4,0,0,0,0,0,0,3,0,0,0,69,0,0,0,90.4,1,0,-0.095,0,0,3,0,0,0,10,2.878,0,0,1,1,0,0,VALID,0,0,0,0,0,1,0,0,0,0,0,0,0,0,0,0,0,0,0,0,311.1,403.1,2,0,0.08,0.08,553,14.29,0.08,0.06,38.04,FLYING,CF1-J,0:/Integrated Flight Computer/aircraft/cf1_j_cfg.ks (inferred preloaded)
38.5,TAKEOFF,TO_CLIMB,142.52,80,-62.52,128.58,14.2,4.34,-1.21,90.31,0.097,0.78,0,0,0,0,0,0,0,0,0,0,0,0,0,0,90.4,8,0,1,5.69,0,0,8,90.4,0.6196,-0.0068,0.7849,8,90.4,0,0,0,0,0,0,3,0,0,0,69,0,0,0,90.4,1,0,-0.093,0,0,3,0,0,0,10,2.878,0,0,1,1,0,0,VALID,0,0,0,0,0,1,0,0,0,0,0,0,0,0,0,0,0,0,0,0,310.58,402.35,2,0,0.08,0.08,557,14.29,0.08,0.06,38.32,FLYING,CF1-J,0:/Integrated Flight Computer/aircraft/cf1_j_cfg.ks (inferred preloaded)
