t_s,phase,subphase,ias_ms,vapp_ms,spd_err_ms,agl_m,vs_ms,pitch_deg,aoa_deg,hdg_deg,bank_deg,thr_cmd,thr_cur,thr_intg,at_gain,at_tau_s,at_a_up,at_a_dn,at_kp_thr,at_ki_spd,at_thr_slew,aa_hdg_cmd_deg,aa_fpa_cmd_deg,aa_fbw,aa_dir,actual_fpa_deg,ftf_hdg_err_deg,ftf_fix_idx,kos_steer_pit_deg,kos_steer_hdg_deg,aa_dir_vx,aa_dir_vy,aa_dir_vz,aa_dir_pitch_deg,aa_dir_hdg_deg,ils_loc_m,ils_gs_m,ils_dist_km,loc_corr_deg,gs_corr_deg,flare_fpa_cmd,flare_tgt_vs,flare_frac,steer_hdg_deg,steer_blend,ro_loc_corr_deg,ro_hdg_err_deg,ro_yaw_tgt,ro_yaw_scale,ro_yaw_gate,yaw_cmd,roll_cmd,pitch_cmd,ro_pitch_tgt_deg,ro_pitch_err_deg,ro_pitch_ff,ro_roll_assist,flaps_cur,flaps_tgt,asc_j_ab,asc_j_rk,asc_validity,asc_q_pa,asc_q_raw_pa,asc_mach,asc_apo_m,asc_drag_n,asc_w_prop,asc_edot_aero,asc_edot_orb,asc_pitch_bias,asc_blend,asc_spooling,asc_ab_thr_ratio,asc_ab_t_now,asc_ab_t_avail,asc_ab_ign_on,asc_ab_flameouts,asc_rk_t_now,asc_rk_t_avail,asc_rk_ign_on,asc_rk_flameouts,ship_thrust,ship_avail_thrust,ship_ign_on,ship_flameouts,ifc_raw_dt_s,ifc_dt_s,ifc_loop_n,ifc_hz_est,ifc_raw_dt_max_s,ifc_raw_dt_min_s,phase_el_s,status
0.12,TAKEOFF,TO_PREFLIGHT,0.3,80,79.7,3.77,-0.21,0.32,42.03,88.56,0.114,0.032,0,0,0,0,0,0,0,0,0,90.4,0,1,0,-12.79,0,0,0,90,0,0,0,0,0,0,0,0,0,0,0,0,0,90.4,1,0,-1.841,0,0,1,0,0,0,0,0,0,0,0,2,0,0,VALID,0,0,0,0,0,1,0,0,0,0,0,0,0,0,0,0,0,0,0,0,0,887.94,2,0,0.08,0.08,1,3.45,0.08,0.02,0.04,LANDED
0.38,TAKEOFF,TO_PREFLIGHT,0.26,80,79.74,3.55,0.17,-0.61,-34.27,88.53,0.137,0.12,0,0,0,0,0,0,0,0,0,90.4,0,1,0,9.41,0,0,0,90,0,0,0,0,0,0,0,0,0,0,0,0,0,90.4,1,0,-1.853,0,0,1,0,0,0,0,0,0,0,1,2,0,0,VALID,0,0,0,0,0,1,0,0,0,0,0,0,0,0,0,0,0,0,0,0,2.07,887.94,2,0,0.04,0.04,6,19.23,0.12,0.04,0.3,LANDED
0.64,TAKEOFF,TO_PREFLIGHT,0.27,80,79.73,3.71,-0.04,0.03,40.36,88.5,0.106,0.224,0,0,0,0,0,0,0,0,0,90.4,0,1,0,-2.48,0,0,0,90,0,0,0,0,0,0,0,0,0,0,0,0,0,90.4,1,0,-1.853,0,0,1,0,0,0,0,0,0,0,1,2,0,0,VALID,0,0,0,0,0,1,0,0,0,0,0,0,0,0,0,0,0,0,0,0,8.5,887.94,2,0,0.04,0.04,11,19.23,0.08,0.04,0.56,LANDED
0.94,TAKEOFF,TO_PREFLIGHT,0.15,80,79.85,3.56,-0.18,-0.58,43.49,88.47,0.114,0.344,0,0,0,0,0,0,0,0,0,90.4,0,1,0,-10.45,0,0,0,90,0,0,0,0,0,0,0,0,0,0,0,0,0,90.4,1,0,-1.853,0,0,1,0,0,0,0,0,0,0,2,2,0,0,VALID,0,0,0,0,0,1,0,0,0,0,0,0,0,0,0,0,0,0,0,0,21.3,887.94,2,0,0.06,0.06,16,16.67,0.08,0.04,0.86,LANDED
1.24,TAKEOFF,TO_PREFLIGHT,0.07,80,79.93,3.65,0.02,-0.2,-6.71,88.46,0.141,0.464,0,0,0,0,0,0,0,0,0,90.4,0,1,0,1.01,0,0,0,90,0,0,0,0,0,0,0,0,0,0,0,0,0,90.4,1,0,-1.853,0,0,1,0,0,0,0,0,0,0,2,2,0,0,VALID,0,0,0,0,0,1,0,0,0,0,0,0,0,0,0,0,0,0,0,0,39.68,887.94,2,0,0.08,0.08,22,20,0.08,0.04,1.16,LANDED
1.52,TAKEOFF,TO_PREFLIGHT,0.05,80,79.95,3.6,0.02,-0.38,-12.02,88.45,0.118,0.576,0,0,0,0,0,0,0,0,0,90.4,0,1,0,0.94,0,0,0,90,0,0,0,0,0,0,0,0,0,0,0,0,0,90.4,1,0,-1.853,0,0,1,0,0,0,0,0,0,0,2,2,0,0,VALID,0,0,0,0,0,1,0,0,0,0,0,0,0,0,0,0,0,0,0,0,61.38,887.94,2,0,0.04,0.04,28,21.43,0.08,0.04,1.44,LANDED
1.8,TAKEOFF,TO_PREFLIGHT,0.02,80,79.98,3.6,-0.02,-0.34,55.58,88.45,0.106,0.688,0,0,0,0,0,0,0,0,0,90.4,0,1,0,-0.87,0,0,0,90,0,0,0,0,0,0,0,0,0,0,0,0,0,90.4,1,0,-1.853,0,0,1,0,0,0,0,0,0,0,2,2,0,0,VALID,0,0,0,0,0,1,0,0,0,0,0,0,0,0,0,0,0,0,0,0,87.29,887.94,2,0,0.04,0.04,33,17.86,0.08,0.04,1.72,LANDED
2.06,TAKEOFF,TO_PREFLIGHT,0.02,80,79.98,3.6,0.01,-0.35,-16.13,88.44,0.121,0.792,0,0,0,0,0,0,0,0,0,90.4,0,1,0,0.66,0,0,0,90,0,0,0,0,0,0,0,0,0,0,0,0,0,90.4,1,0,-1.853,0,0,1,0,0,0,0,0,0,0,2,2,0,0,VALID,0,0,0,0,0,1,0,0,0,0,0,0,0,0,0,0,0,0,0,0,115.01,887.94,2,0,0.04,0.04,38,19.23,0.08,0.04,1.98,LANDED
2.32,TAKEOFF,TO_PREFLIGHT,0.05,80,79.95,3.6,0,-0.38,-2.17,88.44,0.125,0.896,0,0,0,0,0,0,0,0,0,90.4,0,1,0,-0.05,0,0,0,90,0,0,0,0,0,0,0,0,0,0,0,0,0,90.4,1,0,-1.853,0,0,1,0,0,0,0,0,0,0,2,2,0,0,VALID,0,0,0,0,0,1,0,0,0,0,0,0,0,0,0,0,0,0,0,0,145.94,887.94,2,0,0.06,0.06,42,15.38,0.08,0.04,2.24,LANDED
2.58,TAKEOFF,TO_PREFLIGHT,0.03,80,79.97,3.6,-0.01,-0.37,8.85,88.44,0.113,1,0,0,0,0,0,0,0,0,0,90.4,0,1,0,-0.29,0,0,0,90,0,0,0,0,0,0,0,0,0,0,0,0,0,90.4,1,0,-1.853,0,0,1,0,0,0,0,0,0,0,2,2,0,0,VALID,0,0,0,0,0,1,0,0,0,0,0,0,0,0,0,0,0,0,0,0,179.95,887.94,2,0,0.06,0.06,46,15.38,0.08,0.04,2.5,LANDED
2.84,TAKEOFF,TO_PREFLIGHT,0.05,80,79.95,3.59,0.01,-0.38,-7.72,88.43,0.115,1,0,0,0,0,0,0,0,0,0,90.4,0,1,0,0.42,0,0,0,90,0,0,0,0,0,0,0,0,0,0,0,0,0,90.4,1,0,-1.853,0,0,1,0,0,0,0,0,0,0,2,2,0,0,VALID,0,0,0,0,0,1,0,0,0,0,0,0,0,0,0,0,0,0,0,0,215.73,887.94,2,0,0.06,0.06,50,15.38,0.08,0.04,2.76,LANDED
3.1,TAKEOFF,TO_PREFLIGHT,0.07,80,79.93,3.59,0,-0.4,1.15,88.42,0.121,1,0,0,0,0,0,0,0,0,0,90.4,0,1,0,-0.14,0,0,0,90,0,0,0,0,0,0,0,0,0,0,0,0,0,90.4,1,0,-1.853,0,0,1,0,0,0,0,0,0,0,2,2,0,0,VALID,0,0,0,0,0,1,0,0,0,0,0,0,0,0,0,0,0,0,0,0,249.85,887.94,2,0,0.06,0.06,54,15.38,0.08,0.04,3.02,LANDED
3.36,TAKEOFF,TO_PREFLIGHT,0.07,80,79.93,3.59,0,-0.4,-0.43,88.41,0.118,1,0,0,0,0,0,0,0,0,0,90.4,0,1,0,0.03,0,0,0,90,0,0,0,0,0,0,0,0,0,0,0,0,0,90.4,1,0,-1.853,0,0,1,0,0,0,0,0,0,0,2,2,0,0,VALID,0,0,0,0,0,1,0,0,0,0,0,0,0,0,0,0,0,0,0,0,282.25,887.93,2,0,0.06,0.06,58,15.38,0.08,0.04,3.28,LANDED
3.62,TAKEOFF,TO_PREFLIGHT,0.09,80,79.91,3.58,0,-0.43,-0.4,88.4,0.116,1,0,0,0,0,0,0,0,0,0,90.4,0,1,0,0.08,0,0,0,90,0,0,0,0,0,0,0,0,0,0,0,0,0,90.4,1,0,-1.853,0,0,1,0,0,0,0,0,0,0,2,2,0,0,VALID,0,0,0,0,0,1,0,0,0,0,0,0,0,0,0,0,0,0,0,0,313,887.93,2,0,0.06,0.06,62,15.38,0.08,0.04,3.54,LANDED
3.88,TAKEOFF,TO_PREFLIGHT,0.1,80,79.9,3.58,0,-0.43,-0.26,88.39,0.119,1,0,0,0,0,0,0,0,0,0,90.4,0,1,0,-0.08,0,0,0,90,0,0,0,0,0,0,0,0,0,0,0,0,0,90.4,1,0,-1.853,0,0,1,0,0,0,0,0,0,0,2,2,0,0,VALID,0,0,0,0,0,1,0,0,0,0,0,0,0,0,0,0,0,0,0,0,342.19,887.93,2,0,0.06,0.06,66,15.38,0.08,0.04,3.8,LANDED
4.14,TAKEOFF,TO_PREFLIGHT,0.1,80,79.9,3.58,0,-0.44,0.21,88.38,0.12,1,0,0,0,0,0,0,0,0,0,90.4,0,1,0,-0.04,0,0,0,90,0,0,0,0,0,0,0,0,0,0,0,0,0,90.4,1,0,-1.853,0,0,1,0,0,0,0,0,0,0,2,2,0,0,VALID,0,0,0,0,0,1,0,0,0,0,0,0,0,0,0,0,0,0,0,0,369.9,887.93,2,0,0.06,0.06,70,15.38,0.08,0.04,4.06,LANDED
4.4,TAKEOFF,TO_PREFLIGHT,0.11,80,79.89,3.58,0,-0.45,-1.48,88.37,0.119,1,0,0,0,0,0,0,0,0,0,90.4,0,1,0,0.09,0,0,0,90,0,0,0,0,0,0,0,0,0,0,0,0,0,90.4,1,0,-1.853,0,0,1,0,0,0,0,0,0,0,2,2,0,0,VALID,0,0,0,0,0,1,0,0,0,0,0,0,0,0,0,0,0,0,0,0,396.2,887.93,2,0,0.06,0.06,74,15.38,0.08,0.04,4.32,LANDED
4.66,TAKEOFF,TO_PREFLIGHT,0.12,80,79.88,3.57,0,-0.45,0.04,88.35,0.118,1,0,0,0,0,0,0,0,0,0,90.4,0,1,0,-0.05,0,0,0,90,0,0,0,0,0,0,0,0,0,0,0,0,0,90.4,1,0,-1.853,0,0,1,0,0,0,0,0,0,0,2,2,0,0,VALID,0,0,0,0,0,1,0,0,0,0,0,0,0,0,0,0,0,0,0,0,421.16,887.93,2,0,0.06,0.06,78,15.38,0.08,0.04,4.58,LANDED
4.92,TAKEOFF,TO_PREFLIGHT,0.13,80,79.87,3.57,0,-0.45,-0.36,88.34,0.118,1,0,0,0,0,0,0,0,0,0,90.4,0,1,0,-0.03,0,0,0,90,0,0,0,0,0,0,0,0,0,0,0,0,0,90.4,1,0,-1.853,0,0,1,0,0,0,0,0,0,0,2,2,0,0,VALID,0,0,0,0,0,1,0,0,0,0,0,0,0,0,0,0,0,0,0,0,444.86,887.93,2,0,0.06,0.06,82,15.38,0.08,0.04,4.84,LANDED
5.18,TAKEOFF,TO_PREFLIGHT,0.14,80,79.86,3.57,0,-0.46,-0.32,88.32,0.119,1,0,0,0,0,0,0,0,0,0,90.4,0,1,0,-0.02,0,0,0,90,0,0,0,0,0,0,0,0,0,0,0,0,0,90.4,1,0,-1.853,0,0,1,0,0,0,0,0,0,0,2,2,0,0,VALID,0,0,0,0,0,1,0,0,0,0,0,0,0,0,0,0,0,0,0,0,467.35,887.93,2,0,0.06,0.06,86,15.38,0.08,0.04,5.1,LANDED
5.44,TAKEOFF,TO_PREFLIGHT,0.14,80,79.86,3.57,0,-0.46,-0.25,88.31,0.119,1,0,0,0,0,0,0,0,0,0,90.4,0,1,0,-0.04,0,0,0,90,0,0,0,0,0,0,0,0,0,0,0,0,0,90.4,1,0,-1.853,0,0,1,0,0,0,0,0,0,0,2,2,0,0,VALID,0,0,0,0,0,1,0,0,0,0,0,0,0,0,0,0,0,0,0,0,488.71,887.93,2,0,0.06,0.06,90,15.38,0.08,0.04,5.36,LANDED
5.7,TAKEOFF,TO_PREFLIGHT,0.15,80,79.85,3.57,0,-0.46,-0.32,88.29,0.12,1,0,0,0,0,0,0,0,0,0,90.4,0,1,0,0,0,0,0,90,0,0,0,0,0,0,0,0,0,0,0,0,0,90.4,1,0,-1.853,0,0,1,0,0,0,0,0,0,0,2,2,0,0,VALID,0,0,0,0,0,1,0,0,0,0,0,0,0,0,0,0,0,0,0,0,508.97,887.93,2,0,0.06,0.06,94,15.38,0.08,0.04,5.62,LANDED
5.96,TAKEOFF,TO_PREFLIGHT,0.16,80,79.84,3.57,0,-0.47,-0.29,88.27,0.119,1,0,0,0,0,0,0,0,0,0,90.4,0,1,0,-0.06,0,0,0,90,0,0,0,0,0,0,0,0,0,0,0,0,0,90.4,1,0,-1.853,0,0,1,0,0,0,0,0,0,0,2,2,0,0,VALID,0,0,0,0,0,1,0,0,0,0,0,0,0,0,0,0,0,0,0,0,528.21,887.93,2,0,0.06,0.06,98,15.38,0.08,0.04,5.88,LANDED
6.22,TAKEOFF,TO_PREFLIGHT,0.16,80,79.84,3.57,0,-0.47,-0.07,88.25,0.119,1,0,0,0,0,0,0,0,0,0,90.4,0,1,0,-0.06,0,0,0,90,0,0,0,0,0,0,0,0,0,0,0,0,0,90.4,1,0,-1.853,0,0,1,0,0,0,0,0,0,0,2,2,0,0,VALID,0,0,0,0,0,1,0,0,0,0,0,0,0,0,0,0,0,0,0,0,546.47,887.92,2,0,0.06,0.06,102,15.38,0.08,0.04,6.14,LANDED
6.48,TAKEOFF,TO_PREFLIGHT,0.17,80,79.83,3.57,0,-0.47,-0.5,88.23,0.12,1,0,0,0,0,0,0,0,0,0,90.4,0,1,0,0.02,0,0,0,90,0,0,0,0,0,0,0,0,0,0,0,0,0,90.4,1,0,-1.853,0,0,1,0,0,0,0,0,0,0,2,2,0,0,VALID,0,0,0,0,0,1,0,0,0,0,0,0,0,0,0,0,0,0,0,0,563.81,887.92,2,0,0.06,0.06,106,15.38,0.08,0.04,6.4,LANDED
6.74,TAKEOFF,TO_PREFLIGHT,0.17,80,79.83,3.57,0,-0.47,-0.1,88.21,0.12,1,0,0,0,0,0,0,0,0,0,90.4,0,1,0,-0.07,0,0,0,90,0,0,0,0,0,0,0,0,0,0,0,0,0,90.4,1,0,-1.853,0,0,1,0,0,0,0,0,0,0,2,2,0,0,VALID,0,0,0,0,0,1,0,0,0,0,0,0,0,0,0,0,0,0,0,0,580.26,887.92,2,0,0.06,0.06,110,15.38,0.08,0.04,6.66,LANDED
7,TAKEOFF,TO_PREFLIGHT,0.18,80,79.82,3.57,0,-0.48,-0.18,88.19,0.119,1,0,0,0,0,0,0,0,0,0,90.4,0,1,0,-0.07,0,0,0,90,0,0,0,0,0,0,0,0,0,0,0,0,0,90.4,1,0,-1.853,0,0,1,0,0,0,0,0,0,0,2,2,0,0,VALID,0,0,0,0,0,1,0,0,0,0,0,0,0,0,0,0,0,0,0,0,595.88,887.92,2,0,0.06,0.06,114,15.38,0.08,0.04,6.92,LANDED
7.26,TAKEOFF,TO_PREFLIGHT,0.19,80,79.81,3.57,0,-0.48,-0.31,88.17,0.12,1,0,0,0,0,0,0,0,0,0,90.4,0,1,0,-0.03,0,0,0,90,0,0,0,0,0,0,0,0,0,0,0,0,0,90.4,1,0,-1.853,0,0,1,0,0,0,0,0,0,0,2,2,0,0,VALID,0,0,0,0,0,1,0,0,0,0,0,0,0,0,0,0,0,0,0,0,610.71,887.92,2,0,0.06,0.06,118,15.38,0.08,0.04,7.18,LANDED
7.52,TAKEOFF,TO_PREFLIGHT,0.21,80,79.79,3.57,0,-0.48,-0.12,88.14,0.121,1,0,0,0,0,0,0,0,0,0,90.4,0,1,0,-0.08,0,0,0,90,0,0,0,0,0,0,0,0,0,0,0,0,0,90.4,1,0,-1.853,0,0,1,0,0,0,0,0,0,0,2,2,0,0,VALID,0,0,0,0,0,1,0,0,0,0,0,0,0,0,0,0,0,0,0,0,624.78,887.92,2,0,0.06,0.06,122,15.38,0.08,0.04,7.44,LANDED
7.78,TAKEOFF,TO_PREFLIGHT,0.25,80,79.75,3.57,0,-0.48,-0.06,88.11,0.12,1,0,0,0,0,0,0,0,0,0,90.4,0,1,0,-0.1,0,0,0,90,0,0,0,0,0,0,0,0,0,0,0,0,0,90.4,1,0,-1.853,0,0,1,0,0,0,0,0,0,0,2,2,0,0,VALID,0,0,0,0,0,1,0,0,0,0,0,0,0,0,0,0,0,0,0,0,638.14,887.92,2,0,0.06,0.06,126,15.38,0.08,0.04,7.7,LANDED
8.04,TAKEOFF,TO_PREFLIGHT,0.32,80,79.68,3.57,0,-0.48,-0.25,88.09,0.12,1,0,0,0,0,0,0,0,0,0,90.4,0,1,0,-0.09,0,0,0,90,0,0,0,0,0,0,0,0,0,0,0,0,0,90.4,1,0,-1.853,0,0,1,0,0,0,0,0,0,0,2,2,0,0,VALID,0,0,0,0,0,1,0,0,0,0,0,0,0,0,0,0,0,0,0,0,650.82,887.92,2,0,0.06,0.06,130,15.38,0.08,0.04,7.96,LANDED
8.3,TAKEOFF,TO_PREFLIGHT,0.4,80,79.6,3.57,0,-0.48,-0.17,88.06,0.12,1,0,0,0,0,0,0,0,0,0,90.4,0,1,0,-0.16,0,0,0,90,0,0,0,0,0,0,0,0,0,0,0,0,0,90.4,1,0,-1.853,0,0,1,0,0,0,0,0,0,0,2,2,0,0,VALID,0,0,0,0,0,1,0,0,0,0,0,0,0,0,0,0,0,0,0,0,662.86,887.92,2,0,0.06,0.06,134,15.38,0.08,0.04,8.22,LANDED
8.56,TAKEOFF,TO_PREFLIGHT,0.5,80,79.5,3.57,0,-0.48,-0.18,88.03,0.12,1,0,0,0,0,0,0,0,0,0,90.4,0,1,0,-0.16,0,0,0,90,0,0,0,0,0,0,0,0,0,0,0,0,0,90.4,1,0,-1.853,0,0,1,0,0,0,0,0,0,0,2,2,0,0,VALID,0,0,0,0,0,1,0,0,0,0,0,0,0,0,0,0,0,0,0,0,674.28,887.92,2,0,0.06,0.06,138,15.38,0.08,0.04,8.48,LANDED
8.82,TAKEOFF,TO_GROUND_ROLL,0.62,80,79.38,3.57,0,-0.48,-0.16,88,0.121,1,0,0,0,0,0,0,0,0,0,90.4,0,1,0,-0.23,0,0,0,90,0,0,0,0,0,0,0,0,0,0,0,0,0,90.4,1,0,-1.853,0,0,1,0,0,0,0,0,0,0,2,2,0,0,VALID,0,0,0,0,0,1,0,0,0,0,0,0,0,0,0,0,0,0,0,0,685.13,887.91,2,0,0.06,0.06,142,15.38,0.08,0.04,8.74,LANDED
9.1,TAKEOFF,TO_GROUND_ROLL,1.08,80,78.92,3.61,-0.04,-0.32,1.08,87.98,0.115,1,0,0,0,0,0,0,0,0,0,90.4,0,1,0,-2.2,0,0,0,90,0,0,0,0,0,0,0,0,0,0,0,0,0,90.4,1,0,-2.425,0.0648,0.561,0,0.0648,0,0,0,0,0,0,2,2,0,0,VALID,0,0,0,0,0,1,0,0,0,0,0,0,0,0,0,0,0,0,0,0,696.19,887.91,2,0,0.06,0.06,146,14.29,0.08,0.06,9.04,LANDED
9.38,TAKEOFF,TO_GROUND_ROLL,2.21,80,77.79,3.6,0.02,-0.33,-0.62,87.99,0.109,1,0,0,0,0,0,0,0,0,0,90.39,0,1,0,0.55,0,0,0,90,0,0,0,0,0,0,0,0,0,0,0,0,0,90.39,1,0,-2.399,0.0644,0.572,0,0.0644,0,0,0,0,0,0,2,2,0,0,VALID,0,0,0,0,0,1,0,0,0,0,0,0,0,0,0,0,0,0,0,0,706.64,887.89,2,0,0.06,0.06,150,14.29,0.08,0.06,9.32,LANDED
9.66,TAKEOFF,TO_GROUND_ROLL,3.43,80,76.57,3.61,-0.05,-0.35,0.22,88.01,0.116,1,0,0,0,0,0,0,0,0,0,90.39,0,1,0,-0.81,0,0,0,90,0,0,0,0,0,0,0,0,0,0,0,0,0,90.39,1,0,-2.385,0.0655,0.584,0,0.0655,0,0,0,0,0,0,2,2,0,0,VALID,0,0,0,0,0,1,0,0,0,0,0,0,0,0,0,0,0,0,0,0,716.5,887.85,2,0,0.06,0.06,154,14.29,0.08,0.06,9.6,LANDED
9.94,TAKEOFF,TO_GROUND_ROLL,4.66,80,75.34,3.61,-0.01,-0.31,-0.09,88.02,0.114,1,0,0,0,0,0,0,0,0,0,90.39,0,1,0,-0.18,0,0,0,90,0,0,0,0,0,0,0,0,0,0,0,0,0,90.39,1,0,-2.372,0.0666,0.597,0,0.0666,0,0,0,0,0,0,2,2,0,0,VALID,0,0,0,0,0,1,0,0,0,0,0,0,0,0,0,0,0,0,0,0,725.8,887.79,2,0,0.06,0.06,158,14.29,0.08,0.06,9.88,LANDED
10.22,TAKEOFF,TO_GROUND_ROLL,5.91,80,74.09,3.6,-0.04,-0.35,-0.05,88.03,0.11,1,0,0,0,0,0,0,0,0,0,90.39,0,1,0,-0.37,0,0,0,90,0,0,0,0,0,0,0,0,0,0,0,0,0,90.39,1,0,-2.356,0.0674,0.609,0,0.0674,0,0,0,0,0,0,2,2,0,0,VALID,0,0,0,0,0,1,0,0,0,0,0,0,0,0,0,0,0,0,0,0,734.58,887.72,2,0,0.06,0.06,162,14.29,0.08,0.06,10.16,LANDED
10.5,TAKEOFF,TO_GROUND_ROLL,7.18,80,72.82,3.61,-0.05,-0.32,0.03,88.05,0.112,1,0,0,0,0,0,0,0,0,0,90.39,0,1,0,-0.37,0,0,0,90,0,0,0,0,0,0,0,0,0,0,0,0,0,90.39,1,0,-2.343,0.0685,0.622,0,0.0685,0,0,0,0,0,0,2,2,0,0,VALID,0,0,0,0,0,1,0,0,0,0,0,0,0,0,0,0,0,0,0,0,742.87,887.64,2,0,0.06,0.06,166,14.29,0.08,0.06,10.44,LANDED
10.78,TAKEOFF,TO_GROUND_ROLL,8.46,80,71.54,3.61,-0.04,-0.34,-0.09,88.06,0.112,1,0,0,0,0,0,0,0,0,0,90.39,0,1,0,-0.28,0,0,0,90,0,0,0,0,0,0,0,0,0,0,0,0,0,90.39,1,0,-2.327,0.0694,0.635,0,0.0694,0,0,0,0,0,0,2,2,0,0,VALID,0,0,0,0,0,1,0,0,0,0,0,0,0,0,0,0,0,0,0,0,750.68,887.53,2,0,0.06,0.06,170,14.29,0.08,0.06,10.72,LANDED
11.06,TAKEOFF,TO_GROUND_ROLL,9.75,80,70.25,3.61,-0.06,-0.33,0.01,88.08,0.111,1,0,0,0,0,0,0,0,0,0,90.39,0,1,0,-0.38,0,0,0,90,0,0,0,0,0,0,0,0,0,0,0,0,0,90.39,1,0,-2.312,0.0703,0.648,0,0.0703,0,0,0,0,0,0,2,2,0,0,VALID,0,0,0,0,0,1,0,0,0,0,0,0,0,0,0,0,0,0,0,0,758.05,887.42,2,0,0.06,0.06,174,14.29,0.08,0.06,11,LANDED
11.34,TAKEOFF,TO_GROUND_ROLL,11.06,80,68.94,3.61,-0.06,-0.33,-0.06,88.09,0.11,1,0,0,0,0,0,0,0,0,0,90.39,0,1,0,-0.29,0,0,0,90,0,0,0,0,0,0,0,0,0,0,0,0,0,90.39,1,0,-2.297,0.0712,0.661,0,0.0712,0,0,0,0,0,0,2,2,0,0,VALID,0,0,0,0,0,1,0,0,0,0,0,0,0,0,0,0,0,0,0,0,765,887.28,2,0,0.06,0.06,178,14.29,0.08,0.06,11.28,LANDED
11.62,TAKEOFF,TO_GROUND_ROLL,12.37,80,67.63,3.61,-0.07,-0.33,-0.02,88.11,0.11,1,0,0,0,0,0,0,0,0,0,90.39,0,1,0,-0.34,0,0,0,90,0,0,0,0,0,0,0,0,0,0,0,0,0,90.39,1,0,-2.281,0.0722,0.674,0,0.0722,0,0,0,0,0,0,2,2,0,0,VALID,0,0,0,0,0,1,0,0,0,0,0,0,0,0,0,0,0,0,0,0,771.54,887.14,2,0,0.06,0.06,182,14.29,0.08,0.06,11.56,LANDED
11.9,TAKEOFF,TO_GROUND_ROLL,13.7,80,66.3,3.61,-0.08,-0.33,-0.03,88.12,0.109,1,0,0,0,0,0,0,0,0,0,90.39,0,1,0,-0.32,0,0,0,90,0,0,0,0,0,0,0,0,0,0,0,0,0,90.39,1,0,-2.265,0.0731,0.687,0,0.0731,0,0,0,0,0,0,2,2,0,0,VALID,0,0,0,0,0,1,0,0,0,0,0,0,0,0,0,0,0,0,0,0,777.71,886.97,2,0,0.06,0.06,186,14.29,0.08,0.06,11.84,LANDED
12.18,TAKEOFF,TO_GROUND_ROLL,15.04,80,64.96,3.61,-0.08,-0.33,-0.03,88.14,0.109,1,0,0,0,0,0,0,0,0,0,90.39,0,1,0,-0.32,0,0,0,90,0,0,0,0,0,0,0,0,0,0,0,0,0,90.39,1,0,-2.249,0.0739,0.7,0,0.0739,0,0,0,0,0,0,2,2,0,0,VALID,0,0,0,0,0,1,0,0,0,0,0,0,0,0,0,0,0,0,0,0,783.52,886.8,2,0,0.06,0.06,190,14.29,0.08,0.06,12.12,LANDED
12.46,TAKEOFF,TO_GROUND_ROLL,16.39,80,63.61,3.61,-0.09,-0.33,-0.03,88.16,0.109,1,0,0,0,0,0,0,0,0,0,90.39,0,1,0,-0.32,0,0,0,90,0,0,0,0,0,0,0,0,0,0,0,0,0,90.39,1,0,-2.233,0.0748,0.714,0,0.0748,0,0,0,0,0,0,2,2,0,0,VALID,0,0,0,0,0,1,0,0,0,0,0,0,0,0,0,0,0,0,0,0,788.99,886.61,2,0,0.06,0.06,194,14.29,0.08,0.06,12.4,LANDED
12.74,TAKEOFF,TO_GROUND_ROLL,17.74,80,62.26,3.61,-0.1,-0.33,-0.04,88.17,0.108,1,0,0,0,0,0,0,0,0,0,90.39,0,1,0,-0.32,0,0,0,90,0,0,0,0,0,0,0,0,0,0,0,0,0,90.39,1,0,-2.217,0.0757,0.727,0,0.0757,0,0,0,0,0,0,2,2,0,0,VALID,0,0,0,0,0,1,0,0,0,0,0,0,0,0,0,0,0,0,0,0,794.14,886.41,2,0,0.06,0.06,198,14.29,0.08,0.06,12.68,LANDED
13.02,TAKEOFF,TO_GROUND_ROLL,19.11,80,60.89,3.61,-0.11,-0.33,-0.03,88.19,0.108,1,0,0,0,0,0,0,0,0,0,90.39,0,1,0,-0.32,0,0,0,90,0,0,0,0,0,0,0,0,0,0,0,0,0,90.39,1,0,-2.201,0.0765,0.741,0,0.0765,0,0,0,0,0,0,2,2,0,0,VALID,0,0,0,0,0,1,0,0,0,0,0,0,0,0,0,0,0,0,0,0,798.99,886.2,2,0,0.06,0.06,202,14.29,0.08,0.06,12.96,LANDED
13.3,TAKEOFF,TO_GROUND_ROLL,20.48,80,59.52,3.61,-0.11,-0.33,-0.03,88.21,0.108,1,0,0,0,0,0,0,0,0,0,90.39,0,1,0,-0.32,0,0,0,90,0,0,0,0,0,0,0,0,0,0,0,0,0,90.39,1,0,-2.184,0.0773,0.755,0,0.0773,0,0,0,0,0,0,2,2,0,0,VALID,0,0,0,0,0,1,0,0,0,0,0,0,0,0,0,0,0,0,0,0,803.55,885.98,2,0,0.06,0.06,206,14.29,0.08,0.06,13.24,LANDED
13.58,TAKEOFF,TO_GROUND_ROLL,21.86,80,58.14,3.61,-0.12,-0.33,-0.03,88.22,0.107,1,0,0,0,0,0,0,0,0,0,90.39,0,1,0,-0.32,0,0,0.01,90,0,0,0,0,0,0,0,0,0,0,0,0,0,90.39,1,0,-2.168,0.0781,0.769,0,0.0781,0,0,0,0,0,0,2,2,0,0,VALID,0,0,0,0,0,1,0,0,0,0,0,0,0,0,0,0,0,0,0,0,807.84,885.75,2,0,0.06,0.06,210,14.29,0.08,0.06,13.52,LANDED
13.86,TAKEOFF,TO_GROUND_ROLL,23.25,80,56.75,3.61,-0.13,-0.33,-0.03,88.24,0.105,1,0,0,0,0,0,0,0,0,0,90.39,0,1,0,-0.32,0,0,0.01,90,0,0,0,0,0,0,0,0,0,0,0,0,0,90.39,1,0,-2.151,0.0789,0.783,0,0.0789,0,0,0,0,0,0,2,2,0,0,VALID,0,0,0,0,0,1,0,0,0,0,0,0,0,0,0,0,0,0,0,0,811.87,885.51,2,0,0.06,0.06,214,14.29,0.08,0.06,13.8,LANDED
14.14,TAKEOFF,TO_GROUND_ROLL,24.65,80,55.35,3.61,-0.14,-0.33,-0.03,88.25,0.106,1,0,0,0,0,0,0,0,0,0,90.39,0,1,0,-0.31,0,0,0.01,90,0,0,0,0,0,0,0,0,0,0,0,0,0,90.39,1,0,-2.134,0.0797,0.796,0,0.0797,0,0,0,0,0,0,2,2,0,0,VALID,0,0,0,0,0,1,0,0,0,0,0,0,0,0,0,0,0,0,0,0,815.66,885.26,2,0,0.06,0.06,218,14.29,0.08,0.06,14.08,LANDED
14.42,TAKEOFF,TO_GROUND_ROLL,26.05,80,53.95,3.61,-0.14,-0.33,-0.03,88.27,0.106,1,0,0,0,0,0,0,0,0,0,90.39,0,1,0,-0.31,0,0,0.01,90,0,0,0,0,0,0,0,0,0,0,0,0,0,90.39,1,0,-2.118,0.0804,0.811,0,0.0804,0,0,0,0,0,0,2,2,0,0,VALID,0,0,0,0,0,1,0,0,0,0,0,0,0,0,0,0,0,0,0,0,819.22,885.01,2,0,0.06,0.06,222,14.29,0.08,0.06,14.36,LANDED
14.7,TAKEOFF,TO_GROUND_ROLL,27.46,80,52.54,3.61,-0.15,-0.33,-0.03,88.29,0.104,1,0,0,0,0,0,0,0,0,0,90.39,0,1,0,-0.31,0,0,0.01,90,0,0,0,0,0,0,0,0,0,0,0,0,0,90.39,1,0,-2.101,0.0812,0.825,0,0.0812,0,0,0,0,0,0,2,2,0,0,VALID,0,0,0,0,0,1,0,0,0,0,0,0,0,0,0,0,0,0,0,0,822.57,884.75,2,0,0.06,0.06,226,14.29,0.08,0.06,14.64,LANDED
14.98,TAKEOFF,TO_GROUND_ROLL,28.87,80,51.13,3.61,-0.16,-0.33,-0.03,88.31,0.105,1,0,0,0,0,0,0,0,0,0,90.39,0,1,0,-0.31,0,0,0.01,90,0,0,0,0,0,0,0,0,0,0,0,0,0,90.39,1,0,-2.084,0.0819,0.839,0,0.0819,0,0,0,0,0,0,2,2,0,0,VALID,0,0,0,0,0,1,0,0,0,0,0,0,0,0,0,0,0,0,0,0,825.72,884.48,2,0,0.06,0.06,230,14.29,0.08,0.06,14.92,LANDED
15.26,TAKEOFF,TO_GROUND_ROLL,30.29,80,49.71,3.61,-0.16,-0.33,-0.03,88.32,0.105,1,0,0,0,0,0,0,0,0,0,90.39,0,1,0,-0.31,0,0,0.01,90,0,0,0,0,0,0,0,0,0,0,0,0,0,90.39,1,0,-2.067,0.0826,0.853,0,0.0826,0,0,0,0,0,0,2,2,0,0,VALID,0,0,0,0,0,1,0,0,0,0,0,0,0,0,0,0,0,0,0,0,828.67,884.21,2,0,0.06,0.06,234,14.29,0.08,0.06,15.2,LANDED
15.54,TAKEOFF,TO_GROUND_ROLL,31.72,80,48.28,3.61,-0.17,-0.33,-0.03,88.34,0.103,1,0,0,0,0,0,0,0,0,0,90.39,0,1,0,-0.31,0,0,0.01,90,0,0,0,0,0,0,0,0,0,0,0,0,0,90.39,1,0,-2.05,0.0832,0.867,0,0.0832,0,0,0,0,0,0,2,2,0,0,VALID,0,0,0,0,0,1,0,0,0,0,0,0,0,0,0,0,0,0,0,0,831.45,883.94,2,0,0.06,0.06,238,14.29,0.08,0.06,15.48,LANDED
15.82,TAKEOFF,TO_GROUND_ROLL,33.15,80,46.85,3.61,-0.18,-0.33,-0.03,88.36,0.103,1,0,0,0,0,0,0,0,0,0,90.39,0,1,0,-0.31,0,0,0.01,90,0,0,0,0,0,0,0,0,0,0,0,0,0,90.39,1,0,-2.032,0.0839,0.881,0,0.0839,0,0,0,0,0,0,2,2,0,0,VALID,0,0,0,0,0,1,0,0,0,0,0,0,0,0,0,0,0,0,0,0,834.05,883.66,2,0,0.06,0.06,242,14.29,0.08,0.06,15.76,LANDED
16.1,TAKEOFF,TO_GROUND_ROLL,34.58,80,45.42,3.61,-0.19,-0.32,-0.03,88.37,0.103,1,0,0,0,0,0,0,0,0,0,90.39,0,1,0,-0.31,0,0,0.01,90,0,0,0,0,0,0,0,0,0,0,0,0,0,90.39,1,0,-2.015,0.0845,0.896,0,0.0845,0,0,0,0,0,0,2,2,0,0,VALID,0,0,0,0,0,1,0,0,0,0,0,0,0,0,0,0,0,0,0,0,836.5,883.38,2,0,0.06,0.06,246,14.29,0.08,0.06,16.04,LANDED
16.38,TAKEOFF,TO_GROUND_ROLL,36.02,80,43.98,3.61,-0.19,-0.32,-0.03,88.39,0.103,1,0,0,0,0,0,0,0,0,0,90.39,0,1,0,-0.31,0,0,0.01,90,0,0,0,0,0,0,0,0,0,0,0,0,0,90.39,1,0,-1.998,0.0851,0.91,0,0.0851,0,0,0,0,0,0,2,2,0,0,VALID,0,0,0,0,0,1,0,0,0,0,0,0,0,0,0,0,0,0,0,0,838.8,883.11,2,0,0.06,0.06,250,14.29,0.08,0.06,16.32,LANDED
16.66,TAKEOFF,TO_GROUND_ROLL,37.46,80,42.54,3.61,-0.2,-0.32,-0.03,88.41,0.102,1,0,0,0,0,0,0,0,0,0,90.39,0,1,0,-0.3,0,0,0.01,90,0,0,0,0,0,0,0,0,0,0,0,0,0,90.39,1,0,-1.981,0.0857,0.925,0,0.0857,0,0,0,0,0,0,2,2,0,0,VALID,0,0,0,0,0,1,0,0,0,0,0,0,0,0,0,0,0,0,0,0,840.95,882.83,2,0,0.06,0.06,254,14.29,0.08,0.06,16.6,LANDED
16.94,TAKEOFF,TO_GROUND_ROLL,38.9,80,41.1,3.61,-0.21,-0.32,-0.03,88.43,0.101,1,0,0,0,0,0,0,0,0,0,90.39,0,1,0,-0.3,0,0,0.02,90,0,0,0,0,0,0,0,0,0,0,0,0,0,90.39,1,0,-1.964,0.0863,0.939,0,0.0863,0,0,0,0,0,0,2,2,0,0,VALID,0,0,0,0,0,1,0,0,0,0,0,0,0,0,0,0,0,0,0,0,842.98,882.56,2,0,0.06,0.06,258,14.29,0.08,0.06,16.88,LANDED
17.22,TAKEOFF,TO_GROUND_ROLL,40.35,80,39.65,3.61,-0.21,-0.32,-0.04,88.44,0.101,1,0,0,0,0,0,0,0,0,0,90.39,0,1,0,-0.3,0,0,0.02,90,0,0,0,0,0,0,0,0,0,0,0,0,0,90.39,1,0,-1.946,0.0868,0.953,0,0.0868,0,0,0,0,0,0,2,2,0,0,VALID,0,0,0,0,0,1,0,0,0,0,0,0,0,0,0,0,0,0,0,0,844.88,882.29,2,0,0.06,0.06,262,14.29,0.08,0.06,17.16,LANDED
17.5,TAKEOFF,TO_GROUND_ROLL,41.8,80,38.2,3.61,-0.22,-0.32,-0.03,88.46,0.101,1,0,0,0,0,0,0,0,0,0,90.39,0,1,0,-0.3,0,0,0.02,90,0,0,0,0,0,0,0,0,0,0,0,0,0,90.39,1,0,-1.929,0.0873,0.968,0,0.0873,0,0,0,0,0,0,2,2,0,0,VALID,0,0,0,0,0,1,0,0,0,0,0,0,0,0,0,0,0,0,0,0,846.67,882.02,2,0,0.06,0.06,266,14.29,0.08,0.06,17.44,LANDED
17.78,TAKEOFF,TO_GROUND_ROLL,43.25,80,36.75,3.61,-0.23,-0.32,-0.04,88.48,0.1,1,0,0,0,0,0,0,0,0,0,90.39,0,1,0,-0.3,0,0,0.02,90,0,0,0,0,0,0,0,0,0,0,0,0,0,90.39,1,0,-1.912,0.0879,0.983,0,0.0879,0,0,0,0,0,0,2,2,0,0,VALID,0,0,0,0,0,1,0,0,0,0,0,0,0,0,0,0,0,0,0,0,848.34,881.76,2,0,0.06,0.06,270,14.29,0.08,0.06,17.72,LANDED
18.06,TAKEOFF,TO_GROUND_ROLL,44.71,80,35.29,3.61,-0.23,-0.32,-0.04,88.49,0.1,1,0,0,0,0,0,0,0,0,0,90.39,0,1,0,-0.3,0,0,0.02,90,0,0,0,0,0,0,0,0,0,0,0,0,0,90.39,1,0,-1.895,0.0884,0.997,0,0.0884,0,0,0,0,0,0,2,2,0,0,VALID,0,0,0,0,0,1,0,0,0,0,0,0,0,0,0,0,0,0,0,0,849.92,881.51,2,0,0.06,0.06,274,14.29,0.08,0.06,18,LANDED
18.34,TAKEOFF,TO_GROUND_ROLL,46.17,80,33.83,3.61,-0.24,-0.32,-0.03,88.51,0.1,1,0,0,0,0,0,0,0,0,0,90.39,0,1,0,-0.3,0,0,0.02,90,0,0,0,0,0,0,0,0,0,0,0,0,0,90.39,1,0,-1.878,0.0878,1,0,0.0878,0,0,0,0,0,0,2,2,0,0,VALID,0,0,0,0,0,1,0,0,0,0,0,0,0,0,0,0,0,0,0,0,851.41,881.26,2,0,0.06,0.06,278,14.29,0.08,0.06,18.28,LANDED
18.62,TAKEOFF,TO_GROUND_ROLL,47.63,80,32.37,3.61,-0.24,-0.32,-0.04,88.53,0.099,1,0,0,0,0,0,0,0,0,0,90.39,0,1,0,-0.29,0,0,0.02,90,0,0,0,0,0,0,0,0,0,0,0,0,0,90.39,1,0,-1.861,0.0871,1,0,0.0871,0,0,0,0,0,0,2,2,0,0,VALID,0,0,0,0,0,1,0,0,0,0,0,0,0,0,0,0,0,0,0,0,852.81,881.02,2,0,0.06,0.06,282,14.29,0.08,0.06,18.56,LANDED
18.9,TAKEOFF,TO_GROUND_ROLL,49.1,80,30.9,3.61,-0.25,-0.32,-0.04,88.54,0.1,1,0,0,0,0,0,0,0,0,0,90.39,0,1,0,-0.29,0,0,0.02,90,0,0,0,0,0,0,0,0,0,0,0,0,0,90.39,1,0,-1.845,0.0863,1,0,0.0863,0,0,0,0,0,0,2,2,0,0,VALID,0,0,0,0,0,1,0,0,0,0,0,0,0,0,0,0,0,0,0,0,854.13,880.8,2,0,0.06,0.06,286,14.29,0.08,0.06,18.84,LANDED
19.18,TAKEOFF,TO_GROUND_ROLL,50.56,80,29.44,3.61,-0.26,-0.32,-0.04,88.56,0.099,1,0,0,0,0,0,0,0,0,0,90.39,0,1,0,-0.29,0,0,0.03,90,0,0,0,0,0,0,0,0,0,0,0,0,0,90.39,1,0,-1.829,0.0856,1,0,0.0856,0,0,0,0,0,0,2,2,0,0,VALID,0,0,0,0,0,1,0,0,0,0,0,0,0,0,0,0,0,0,0,0,855.37,880.58,2,0,0.06,0.06,290,14.29,0.08,0.06,19.12,LANDED
19.46,TAKEOFF,TO_GROUND_ROLL,52.03,80,27.97,3.61,-0.26,-0.32,-0.04,88.58,0.099,1,0,0,0,0,0,0,0,0,0,90.39,0,1,0,-0.29,0,0,0.03,90,0,0,0,0,0,0,0,0,0,0,0,0,0,90.39,1,0,-1.814,0.0849,1,0,0.0849,0,0,0,0,0,0,2,2,0,0,VALID,0,0,0,0,0,1,0,0,0,0,0,0,0,0,0,0,0,0,0,0,856.55,880.37,2,0,0.06,0.06,294,14.29,0.08,0.06,19.4,LANDED
19.74,TAKEOFF,TO_GROUND_ROLL,53.5,80,26.5,3.61,-0.27,-0.31,-0.04,88.59,0.099,1,0,0,0,0,0,0,0,0,0,90.39,0,1,0,-0.29,0,0,0.03,90,0,0,0,0,0,0,0,0,0,0,0,0,0,90.39,1,0,-1.799,0.0842,1,0,0.0842,0,0,0,0,0,0,2,2,0,0,VALID,0,0,0,0,0,1,0,0,0,0,0,0,0,0,0,0,0,0,0,0,857.66,880.18,2,0,0.06,0.06,298,14.29,0.08,0.06,19.68,LANDED
20.02,TAKEOFF,TO_GROUND_ROLL,54.98,80,25.02,3.61,-0.27,-0.31,-0.04,88.61,0.099,1,0,0,0,0,0,0,0,0,0,90.39,0,1,0,-0.29,0,0,0.03,90,0,0,0,0,0,0,0,0,0,0,0,0,0,90.39,1,0,-1.784,0.0836,1,0,0.0836,0,0,0,0,0,0,2,2,0,0,VALID,0,0,0,0,0,1,0,0,0,0,0,0,0,0,0,0,0,0,0,0,858.72,880.01,2,0,0.06,0.06,302,14.29,0.08,0.06,19.96,LANDED
20.3,TAKEOFF,TO_GROUND_ROLL,56.45,80,23.55,3.61,-0.28,-0.31,-0.04,88.62,0.1,1,0,0,0,0,0,0,0,0,0,90.39,0,1,0,-0.28,0,0,0.03,90,0,0,0,0,0,0,0,0,0,0,0,0,0,90.39,1,0,-1.77,0.0829,1,0,0.0829,0,0,0,0,0,0,2,2,0,0,VALID,0,0,0,0,0,1,0,0,0,0,0,0,0,0,0,0,0,0,0,0,859.72,879.84,2,0,0.06,0.06,306,14.29,0.08,0.06,20.24,LANDED
20.58,TAKEOFF,TO_GROUND_ROLL,57.93,80,22.07,3.61,-0.29,-0.31,-0.04,88.64,0.099,1,0,0,0,0,0,0,0,0,0,90.39,0,1,0,-0.28,0,0,0.03,90,0,0,0,0,0,0,0,0,0,0,0,0,0,90.39,1,0,-1.756,0.0823,1,0,0.0823,0,0,0,0,0,0,2,2,0,0,VALID,0,0,0,0,0,1,0,0,0,0,0,0,0,0,0,0,0,0,0,0,860.68,879.7,2,0,0.06,0.06,310,14.29,0.08,0.06,20.52,LANDED
20.86,TAKEOFF,TO_GROUND_ROLL,59.4,80,20.6,3.61,-0.29,-0.31,-0.04,88.65,0.099,1,0,0,0,0,0,0,0,0,0,90.39,0,1,0,-0.28,0,0,0.03,90,0,0,0,0,0,0,0,0,0,0,0,0,0,90.39,1,0,-1.741,0.0815,1,0,0.0815,0,0,0,0,0,0,2,2,0,0,VALID,0,0,0,0,0,1,0,0,0,0,0,0,0,0,0,0,0,0,0,0,861.59,879.57,2,0,0.06,0.06,314,14.29,0.08,0.06,20.8,LANDED
21.14,TAKEOFF,TO_GROUND_ROLL,60.88,80,19.12,3.61,-0.3,-0.31,-0.04,88.66,0.099,1,0,0,0,0,0,0,0,0,0,90.39,0,1,0,-0.28,0,0,0.04,90,0,0,0,0,0,0,0,0,0,0,0,0,0,90.39,1,0,-1.729,0.0811,1,0,0.0811,0,0,0,0,0,0,2,2,0,0,VALID,0,0,0,0,0,1,0,0,0,0,0,0,0,0,0,0,0,0,0,0,862.46,879.46,2,0,0.06,0.06,318,14.29,0.08,0.06,21.08,LANDED
21.42,TAKEOFF,TO_GROUND_ROLL,62.36,80,17.64,3.61,-0.3,-0.31,-0.04,88.68,0.099,1,0,0,0,0,0,0,0,0,0,90.39,0,1,0,-0.28,0,0,0.04,90,0,0,0,0,0,0,0,0,0,0,0,0,0,90.39,1,0,-1.716,0.0805,1,0,0.0805,0,0,0,0,0,0,2,2,0,0,VALID,0,0,0,0,0,1,0,0,0,0,0,0,0,0,0,0,0,0,0,0,863.3,879.37,2,0,0.06,0.06,322,14.29,0.08,0.06,21.36,LANDED
21.7,TAKEOFF,TO_GROUND_ROLL,63.85,80,16.15,3.61,-0.31,-0.31,-0.04,88.69,0.099,1,0,0,0,0,0,0,0,0,0,90.39,0,1,0,-0.28,0,0,0.04,90,0,0,0,0,0,0,0,0,0,0,0,0,0,90.39,1,0,-1.703,0.0799,1,0,0.0799,0,0,0,0,0,0,2,2,0,0,VALID,0,0,0,0,0,1,0,0,0,0,0,0,0,0,0,0,0,0,0,0,864.11,879.3,2,0,0.06,0.06,326,14.29,0.08,0.06,21.64,LANDED
21.98,TAKEOFF,TO_GROUND_ROLL,65.33,80,14.67,3.61,-0.31,-0.3,-0.04,88.7,0.099,1,0,0,0,0,0,0,0,0,0,90.39,0,1,0,-0.27,0,0,0.04,90,0,0,0,0,0,0,0,0,0,0,0,0,0,90.39,1,0,-1.691,0.0793,1,0,0.0793,0,0,0,0,0,0,2,2,0,0,VALID,0,0,0,0,0,1,0,0,0,0,0,0,0,0,0,0,0,0,0,0,864.89,879.26,2,0,0.06,0.06,330,14.29,0.08,0.06,21.92,LANDED
22.26,TAKEOFF,TO_GROUND_ROLL,66.81,80,13.19,3.61,-0.32,-0.3,-0.04,88.71,0.099,1,0,0,0,0,0,0,0,0,0,90.39,0,1,0,-0.27,0,0,0.04,90,0,0,0,0,0,0,0,0,0,0,0,0,0,90.39,1,0,-1.678,0.0787,1,0,0.0787,0,0,0,0,0,0,2,2,0,0,VALID,0,0,0,0,0,1,0,0,0,0,0,0,0,0,0,0,0,0,0,0,865.65,879.23,2,0,0.06,0.06,334,14.29,0.08,0.06,22.2,LANDED
22.54,TAKEOFF,TO_GROUND_ROLL,68.3,80,11.7,3.61,-0.32,-0.3,-0.04,88.73,0.099,1,0,0,0,0,0,0,0,0,0,90.39,0,1,0,-0.27,0,0,0.05,90,0,0,0,0,0,0,0,0,0,0,0,0,0,90.39,1,0,-1.667,0.0782,1,0,0.0782,0,0,0,0,0,0,2,2,0,0,VALID,0,0,0,0,0,1,0,0,0,0,0,0,0,0,0,0,0,0,0,0,866.39,879.24,2,0,0.06,0.06,338,14.29,0.08,0.06,22.48,LANDED
22.82,TAKEOFF,TO_GROUND_ROLL,69.79,80,10.21,3.61,-0.33,-0.3,-0.04,88.74,0.099,1,0,0,0,0,0,0,0,0,0,90.39,0,1,0,-0.27,0,0,0.05,90,0,0,0,0,0,0,0,0,0,0,0,0,0,90.39,1,0,-1.656,0.0778,1,0,0.0778,0,0,0,0,0,0,2,2,0,0,VALID,0,0,0,0,0,1,0,0,0,0,0,0,0,0,0,0,0,0,0,0,867.32,879.5,2,0,0.06,0.06,342,14.29,0.08,0.06,22.76,LANDED
23.1,TAKEOFF,TO_GROUND_ROLL,71.28,80,8.72,3.6,-0.32,-0.29,-0.04,88.75,0.099,1,0,0,0,0,0,0,0,0,0,90.39,0,1,0,-0.26,0,0,0.05,90,0,0,0,0,0,0,0,0,0,0,0,0,0,90.39,1,0,-1.644,0.0771,1,0,0.0771,0,0,0,0,0,0,2,2,0,0,VALID,0,0,0,0,0,1,0,0,0,0,0,0,0,0,0,0,0,0,0,0,868.56,880.1,2,0,0.06,0.06,346,14.29,0.08,0.06,23.04,LANDED
23.38,TAKEOFF,TO_GROUND_ROLL,72.77,80,7.23,3.61,-0.34,-0.3,-0.05,88.76,0.099,1,0,0,0,0,0,0,0,0,0,90.39,0,1,0,-0.27,0,0,0.05,90,0,0,0,0,0,0,0,0,0,0,0,0,0,90.39,1,0,-1.636,0.077,1,0,0.077,0,0,0,0,0,0,2,2,0,0,VALID,0,0,0,0,0,1,0,0,0,0,0,0,0,0,0,0,0,0,0,0,870.09,881.04,2,0,0.06,0.06,350,14.29,0.08,0.06,23.32,LANDED
23.66,TAKEOFF,TO_GROUND_ROLL,74.26,80,5.74,3.61,-0.34,-0.29,-0.04,88.77,0.101,1,0,0,0,0,0,0,0,0,0,90.39,0,1,0,-0.26,0,0,0.05,90,0,0,0,0,0,0,0,0,0,0,0,0,0,90.39,1,0,-1.624,0.0763,1,0,0.0763,0,0,0,0,0,0,2,2,0,0,VALID,0,0,0,0,0,1,0,0,0,0,0,0,0,0,0,0,0,0,0,0,871.91,882.31,2,0,0.06,0.06,354,14.29,0.08,0.06,23.6,LANDED
23.94,TAKEOFF,TO_GROUND_ROLL,75.76,80,4.24,3.6,-0.34,-0.3,-0.05,88.78,0.097,1,0,0,0,0,0,0,0,0,0,90.39,0,1,0,-0.26,0,0,0.06,90,0,0,0,0,0,0,0,0,0,0,0,0,0,90.39,1,0,-1.615,0.0759,1,0,0.0759,0,0,0,0,0,0,2,2,0,0,VALID,0,0,0,0,0,1,0,0,0,0,0,0,0,0,0,0,0,0,0,0,874.02,883.89,2,0,0.06,0.06,358,14.29,0.08,0.06,23.88,LANDED
24.22,TAKEOFF,TO_GROUND_ROLL,77.26,80,2.74,3.61,-0.35,-0.3,-0.05,88.79,0.099,1,0,0,0,0,0,0,0,0,0,90.39,0,1,0,-0.26,0,0,0.06,90,0,0,0,0,0,0,0,0,0,0,0,0,0,90.39,1,0,-1.604,0.0754,1,0,0.0754,0,0,0,0,0,0,2,2,0,0,VALID,0,0,0,0,0,1,0,0,0,0,0,0,0,0,0,0,0,0,0,0,876.4,885.78,2,0,0.06,0.06,362,14.29,0.08,0.06,24.16,LANDED
24.5,TAKEOFF,TO_GROUND_ROLL,78.76,80,1.24,3.61,-0.35,-0.29,-0.04,88.8,0.099,1,0,0,0,0,0,0,0,0,0,90.39,0,1,0,-0.25,0,0,0.06,90,0,0,0,0,0,0,0,0,0,0,0,0,0,90.39,1,0,-1.595,0.075,1,0,0.075,0,0,0,0,0,0,2,2,0,0,VALID,0,0,0,0,0,1,0,0,0,0,0,0,0,0,0,0,0,0,0,0,879.05,887.97,2,0,0.06,0.06,366,14.29,0.08,0.06,24.44,LANDED
24.78,TAKEOFF,TO_GROUND_ROLL,80.27,80,-0.27,3.6,-0.35,-0.29,-0.05,88.81,0.098,1,0,0,0,0,0,0,0,0,0,90.39,0,1,0,-0.25,0,0,0.06,90,0,0,0,0,0,0,0,0,0,0,0,0,0,90.39,1,0,-1.585,0.0745,1,0,0.0745,0,0,0,0,0,0,2,2,0,0,VALID,0,0,0,0,0,1,0,0,0,0,0,0,0,0,0,0,0,0,0,0,881.97,890.46,2,0,0.06,0.06,370,14.29,0.08,0.06,24.72,LANDED
25.06,TAKEOFF,TO_GROUND_ROLL,81.78,80,-1.78,3.61,-0.36,-0.29,-0.05,88.82,0.099,1,0,0,0,0,0,0,0,0,0,90.39,0,1,0,-0.25,0,0,0.06,90,0,0,0,0,0,0,0,0,0,0,0,0,0,90.39,1,0,-1.575,0.0741,1,0,0.0741,0,0,0,0,0,0,2,2,0,0,VALID,0,0,0,0,0,1,0,0,0,0,0,0,0,0,0,0,0,0,0,0,885.14,893.22,2,0,0.06,0.06,374,14.29,0.08,0.06,25,LANDED
25.34,TAKEOFF,TO_GROUND_ROLL,83.3,80,-3.3,3.6,-0.36,-0.29,-0.05,88.83,0.099,1,0,0,0,0,0,0,0,0,0,90.39,0,1,0,-0.25,0,0,0.07,90,0,0,0,0,0,0,0,0,0,0,0,0,0,90.39,1,0,-1.566,0.0737,1,0,0.0737,0,0,0,0,0,0,2,2,0,0,VALID,0,0,0,0,0,1,0,0,0,0,0,0,0,0,0,0,0,0,0,0,888.57,896.27,2,0,0.06,0.06,378,14.29,0.08,0.06,25.28,LANDED
25.62,TAKEOFF,TO_GROUND_ROLL,84.83,80,-4.83,3.61,-0.36,-0.29,-0.05,88.84,0.099,1,0,0,0,0,0,0,0,0,0,90.39,0,1,0,-0.25,0,0,0.07,90,0,0,0,0,0,0,0,0,0,0,0,0,0,90.39,1,0,-1.557,0.0733,1,0,0.0733,0,0,0,0,0,0,2,2,0,0,VALID,0,0,0,0,0,1,0,0,0,0,0,0,0,0,0,0,0,0,0,0,892.24,899.58,2,0,0.06,0.06,382,14.29,0.08,0.06,25.56,LANDED
25.9,TAKEOFF,TO_GROUND_ROLL,86.36,80,-6.36,3.6,-0.36,-0.28,-0.05,88.85,0.099,1,0,0,0,0,0,0,0,0,0,90.39,0,1,0,-0.24,0,0,0.07,90,0,0,0,0,0,0,0,0,0,0,0,0,0,90.39,1,0,-1.549,0.0729,1,0,0.0729,0,0,0,0,0,0,2,2,0,0,VALID,0,0,0,0,0,1,0,0,0,0,0,0,0,0,0,0,0,0,0,0,896.15,903.14,2,0,0.06,0.06,386,14.29,0.08,0.06,25.84,LANDED
26.18,TAKEOFF,TO_GROUND_ROLL,87.9,80,-7.9,3.6,-0.37,-0.28,-0.05,88.85,0.099,1,0,0,0,0,0,0,0,0,0,90.39,0,1,0,-0.24,0,0,0.07,90,0,0,0,0,0,0,0,0,0,0,0,0,0,90.39,1,0,-1.54,0.0725,1,0,0.0725,0,0,0,0,0,0,2,2,0,0,VALID,0,0,0,0,0,1,0,0,0,0,0,0,0,0,0,0,0,0,0,0,900.3,906.96,2,0,0.06,0.06,390,14.29,0.08,0.06,26.12,LANDED
26.46,TAKEOFF,TO_GROUND_ROLL,89.45,80,-9.45,3.6,-0.37,-0.28,-0.05,88.86,0.099,1,0,0,0,0,0,0,0,0,0,90.39,0,1,0,-0.24,0,0,0.08,90,0,0,0,0,0,0,0,0,0,0,0,0,0,90.39,1,0,-1.532,0.0721,1,0,0.0721,0,0,0,0,0,0,2,2,0,0,VALID,0,0,0,0,0,1,0,0,0,0,0,0,0,0,0,0,0,0,0,0,904.66,911.03,2,0,0.06,0.06,394,14.29,0.08,0.06,26.4,LANDED
26.74,TAKEOFF,TO_GROUND_ROLL,91,80,-11,3.6,-0.37,-0.28,-0.05,88.87,0.098,1,0,0,0,0,0,0,0,0,0,90.39,0,1,0,-0.23,0,0,0.08,90,0,0,0,0,0,0,0,0,0,0,0,0,0,90.39,1,0,-1.523,0.0717,1,0,0.0717,0,0,0,0,0,0,2,2,0,0,VALID,0,0,0,0,0,1,0,0,0,0,0,0,0,0,0,0,0,0,0,0,909.25,915.33,2,0,0.06,0.06,398,14.29,0.08,0.06,26.68,LANDED
27.02,TAKEOFF,TO_GROUND_ROLL,92.56,80,-12.56,3.6,-0.37,-0.28,-0.05,88.88,0.098,1,0,0,0,0,0,0,0,0,0,90.4,0,1,0,-0.23,0,0,0.08,90,0,0,0,0,0,0,0,0,0,0,0,0,0,90.4,1,0,-1.516,0.0714,1,0,0.0714,0,0,0,0,0,0,2,2,0,0,VALID,0,0,0,0,0,1,0,0,0,0,0,0,0,0,0,0,0,0,0,0,914.05,919.85,2,0,0.06,0.06,402,14.29,0.08,0.06,26.96,LANDED
27.3,TAKEOFF,TO_GROUND_ROLL,94.13,80,-14.13,3.6,-0.38,-0.28,-0.05,88.89,0.097,1,0,0,0,0,0,0,0,0,0,90.4,0,1,0,-0.23,0,0,0.08,90,0,0,0,0,0,0,0,0,0,0,0,0,0,90.4,1,0,-1.508,0.071,1,0,0.071,0,0,0,0,0,0,2,2,0,0,VALID,0,0,0,0,0,1,0,0,0,0,0,0,0,0,0,0,0,0,0,0,919.05,924.6,2,0,0.06,0.06,406,14.29,0.08,0.06,27.24,LANDED
27.58,TAKEOFF,TO_GROUND_ROLL,95.71,80,-15.71,3.6,-0.38,-0.27,-0.05,88.9,0.095,1,0,0,0,0,0,0,0,0,0,90.4,0,1,0,-0.23,0,0,0.09,90,0,0,0,0,0,0,0,0,0,0,0,0,0,90.4,1,0,-1.501,0.0707,1,0,0.0707,0,0,0,0,0,0,2,2,0,0,VALID,0,0,0,0,0,1,0,0,0,0,0,0,0,0,0,0,0,0,0,0,924.25,929.55,2,0,0.06,0.06,410,14.29,0.08,0.06,27.52,LANDED
27.86,TAKEOFF,TO_GROUND_ROLL,97.3,80,-17.3,3.6,-0.38,-0.27,-0.06,88.9,0.095,1,0,0,0,0,0,0,0,0,0,90.4,0,1,0,-0.22,0,0,0.09,90,0,0,0,0,0,0,0,0,0,0,0,0,0,90.4,1,0,-1.493,0.0703,1,0,0.0703,0,0,0,0,0,0,2,2,0,0,VALID,0,0,0,0,0,1,0,0,0,0,0,0,0,0,0,0,0,0,0,0,929.63,934.71,2,0,0.06,0.06,414,14.29,0.08,0.06,27.8,LANDED
28.14,TAKEOFF,TO_GROUND_ROLL,98.9,80,-18.9,3.6,-0.38,-0.27,-0.06,88.91,0.094,1,0,0,0,0,0,0,0,0,0,90.4,0,1,0,-0.22,0,0,0.09,90,0,0,0,0,0,0,0,0,0,0,0,0,0,90.4,1,0,-1.487,0.0702,1,0,0.0702,0,0,0,0,0,0,2,2,0,0,VALID,0,0,0,0,0,1,0,0,0,0,0,0,0,0,0,0,0,0,0,0,935.2,940.06,2,0,0.06,0.06,418,14.29,0.08,0.06,28.08,LANDED
28.42,TAKEOFF,TO_GROUND_ROLL,100.5,80,-20.5,3.6,-0.38,-0.27,-0.06,88.92,0.093,1,0,0,0,0,0,0,0,0,0,90.4,0,1,0,-0.22,0,0,0.09,90,0,0,0,0,0,0,0,0,0,0,0,0,0,90.4,1,0,-1.479,0.0697,1,0,0.0697,0,0,0,0,0,0,2,2,0,0,VALID,0,0,0,0,0,1,0,0,0,0,0,0,0,0,0,0,0,0,0,0,940.94,945.59,2,0,0.06,0.06,422,14.29,0.08,0.06,28.36,LANDED
28.7,TAKEOFF,TO_GROUND_ROLL,102.12,80,-22.12,3.6,-0.39,-0.27,-0.05,88.92,0.092,1,0,0,0,0,0,0,0,0,0,90.4,0,1,0,-0.22,0,0,0.1,90,0,0,0,0,0,0,0,0,0,0,0,0,0,90.4,1,0,-1.472,0.0693,1,0,0.0693,0,0,0,0,0,0,2,2,0,0,VALID,0,0,0,0,0,1,0,0,0,0,0,0,0,0,0,0,0,0,0,0,946.84,951.3,2,0,0.06,0.06,426,14.29,0.08,0.06,28.64,LANDED
28.98,TAKEOFF,TO_GROUND_ROLL,103.75,80,-23.75,3.61,-0.38,-0.26,-0.06,88.93,0.089,1,0,0,0,0,0,0,0,0,0,90.4,0,1,0,-0.21,0,0,0.1,90,0,0,0,0,0,0,0,0,0,0,0,0,0,90.4,1,0,-1.467,0.0692,1,0,0.0692,0,0,0,0,0,0,2,2,0,0,VALID,0,0,0,0,0,1,0,0,0,0,0,0,0,0,0,0,0,0,0,0,952.9,957.17,2,0,0.06,0.06,430,14.29,0.08,0.06,28.92,LANDED
29.26,TAKEOFF,TO_GROUND_ROLL,105.39,80,-25.39,3.6,-0.38,-0.26,-0.06,88.94,0.091,1,0,0,0,0,0,0,0,0,0,90.4,0,1,0,-0.21,0,0,0.1,90,0,0,0,0,0,0,0,0,0,0,0,0,0,90.4,1,0,-1.46,0.0688,1,0,0.0688,0,0,0,0,0,0,2,2,0,0,VALID,0,0,0,0,0,1,0,0,0,0,0,0,0,0,0,0,0,0,0,0,959.1,963.19,2,0,0.06,0.06,434,14.29,0.08,0.06,29.2,LANDED
29.54,TAKEOFF,TO_GROUND_ROLL,107.04,80,-27.04,3.61,-0.38,-0.25,-0.05,88.94,0.089,1,0,0,0,0,0,0,0,0,0,90.4,0,1,0,-0.21,0,0,0.11,90,0,0,0,0,0,0,0,0,0,0,0,0,0,90.4,1,0,-1.454,0.0686,1,0,0.0686,0,0,0,0,0,0,2,2,0,0,VALID,0,0,0,0,0,1,0,0,0,0,0,0,0,0,0,0,0,0,0,0,965.43,969.36,2,0,0.06,0.06,438,14.29,0.08,0.06,29.48,LANDED
29.82,TAKEOFF,TO_GROUND_ROLL,108.7,80,-28.7,3.6,-0.38,-0.26,-0.06,88.95,0.088,1,0,0,0,0,0,0,0,0,0,90.4,0,1,0,-0.2,0,0,0.11,90,0,0,0,0,0,0,0,0,0,0,0,0,0,90.4,1,0,-1.449,0.0683,1,0,0.0683,0,0,0,0,0,0,2,2,0,0,VALID,0,0,0,0,0,1,0,0,0,0,0,0,0,0,0,0,0,0,0,0,971.89,975.66,2,0,0.06,0.06,442,14.29,0.08,0.06,29.76,LANDED
30.1,TAKEOFF,TO_GROUND_ROLL,110.37,80,-30.37,3.6,-0.38,-0.25,-0.06,88.95,0.088,1,0,0,0,0,0,0,0,0,0,90.4,0,1,0,-0.2,0,0,0.11,90,0,0,0,0,0,0,0,0,0,0,0,0,0,90.4,1,0,-1.442,0.068,1,0,0.068,0,0,0,0,0,0,2,2,0,0,VALID,0,0,0,0,0,1,0,0,0,0,0,0,0,0,0,0,0,0,0,0,978.46,982.08,2,0,0.06,0.06,446,14.29,0.08,0.06,30.04,LANDED
30.38,TAKEOFF,TO_GROUND_ROLL,112.05,80,-32.05,3.6,-0.38,-0.25,-0.06,88.96,0.087,1,0,0,0,0,0,0,0,0,0,90.4,0,1,0,-0.19,0,0,0.12,90,0,0,0,0,0,0,0,0,0,0,0,0,0,90.4,1,0,-1.437,0.0678,1,0,0.0678,0,0,0,0,0,0,2,2,0,0,VALID,0,0,0,0,0,1,0,0,0,0,0,0,0,0,0,0,0,0,0,0,985.13,988.6,2,0,0.06,0.06,450,14.29,0.08,0.06,30.32,LANDED
30.66,TAKEOFF,TO_GROUND_ROLL,113.75,80,-33.75,3.6,-0.38,-0.25,-0.06,88.97,0.086,1,0,0,0,0,0,0,0,0,0,90.4,0,1,0,-0.19,0,0,0.12,90,0,0,0,0,0,0,0,0,0,0,0,0,0,90.4,1,0,-1.431,0.0675,1,0,0.0675,0,0,0,0,0,0,2,2,0,0,VALID,0,0,0,0,0,1,0,0,0,0,0,0,0,0,0,0,0,0,0,0,991.89,995.22,2,0,0.06,0.06,454,14.29,0.08,0.06,30.6,LANDED
30.94,TAKEOFF,TO_GROUND_ROLL,115.46,80,-35.46,3.6,-0.38,-0.25,-0.06,88.97,0.085,1,0,0,0,0,0,0,0,0,0,90.4,0,1,0,-0.19,0,0,0.12,90,0,0,0,0,0,0,0,0,0,0,0,0,0,90.4,1,0,-1.425,0.0673,1,0,0.0673,0,0,0,0,0,0,2,2,0,0,VALID,0,0,0,0,0,1,0,0,0,0,0,0,0,0,0,0,0,0,0,0,998.73,1001.92,2,0,0.06,0.06,458,14.29,0.08,0.06,30.88,LANDED
31.22,TAKEOFF,TO_GROUND_ROLL,117.18,80,-37.18,3.6,-0.38,-0.24,-0.06,88.98,0.085,1,0,0,0,0,0,0,0,0,0,90.4,0,1,0,-0.19,0,0,0.12,90,0,0,0,0,0,0,0,0,0,0,0,0,0,90.4,1,0,-1.419,0.0669,1,0,0.0669,0,0,0,0,0,0,2,2,0,0,VALID,0,0,0,0,0,1,0,0,0,0,0,0,0,0,0,0,0,0,0,0,1005.62,1008.69,2,0,0.06,0.06,462,14.29,0.08,0.06,31.16,LANDED
31.5,TAKEOFF,TO_GROUND_ROLL,118.91,80,-38.91,3.6,-0.38,-0.24,-0.06,88.98,0.084,1,0,0,0,0,0,0,0,0,0,90.4,0,1,0,-0.18,0,0,0.13,90,0,0,0,0,0,0,0,0,0,0,0,0,0,90.4,1,0,-1.413,0.0667,1,0,0.0667,0,0,0,0,0,0,2,2,0,0,VALID,0,0,0,0,0,1,0,0,0,0,0,0,0,0,0,0,0,0,0,0,1012.57,1015.52,2,0,0.06,0.06,466,14.29,0.08,0.06,31.44,LANDED
31.78,TAKEOFF,TO_GROUND_ROLL,120.65,80,-40.65,3.6,-0.38,-0.24,-0.07,88.99,0.083,1,0,0,0,0,0,0,0,0,0,90.4,0,1,0,-0.18,0,0,0.13,90,0,0,0,0,0,0,0,0,0,0,0,0,0,90.4,1,0,-1.407,0.0664,1,0,0.0664,0,0,0,0,0,0,2,2,0,0,VALID,0,0,0,0,0,1,0,0,0,0,0,0,0,0,0,0,0,0,0,0,1019.54,1022.38,2,0,0.06,0.06,470,14.29,0.08,0.06,31.72,LANDED
32.06,TAKEOFF,TO_GROUND_ROLL,122.41,80,-42.41,3.6,-0.37,-0.24,-0.07,88.99,0.082,1,0,0,0,0,0,0,0,0,0,90.4,0,1,0,-0.18,0,0,0.13,90,0,0,0,0,0,0,0,0,0,0,0,0,0,90.4,1,0,-1.401,0.0661,1,0,0.0661,0,0,0,0,0,0,2,2,0,0,VALID,0,0,0,0,0,1,0,0,0,0,0,0,0,0,0,0,0,0,0,0,1026.54,1029.26,2,0,0.06,0.06,474,14.29,0.08,0.06,32,LANDED
32.34,TAKEOFF,TO_GROUND_ROLL,124.18,80,-44.18,3.6,-0.37,-0.24,-0.07,89,0.081,1,0,0,0,0,0,0,0,0,0,90.4,0,1,0,-0.17,0,0,0.14,90,0,0,0,0,0,0,0,0,0,0,0,0,0,90.4,1,0,-1.395,0.0658,1,0,0.0658,0,0,0,0,0,0,2,2,0,0,VALID,0,0,0,0,0,1,0,0,0,0,0,0,0,0,0,0,0,0,0,0,1033.53,1036.15,2,0,0.06,0.06,478,14.29,0.08,0.06,32.28,LANDED
32.62,TAKEOFF,TO_GROUND_ROLL,125.97,80,-45.97,3.6,-0.37,-0.23,-0.07,89.01,0.08,1,0,0,0,0,0,0,0,0,0,90.4,0,1,0,-0.17,0,0,0.14,90,0,0,0,0,0,0,0,0,0,0,0,0,0,90.4,1,0,-1.389,0.0655,1,0,0.0655,0,0,0,0,0,0,2,2,0,0,VALID,0,0,0,0,0,1,0,0,0,0,0,0,0,0,0,0,0,0,0,0,1040.51,1043.02,2,0,0.06,0.06,482,14.29,0.08,0.06,32.56,LANDED
32.9,TAKEOFF,TO_GROUND_ROLL,127.76,80,-47.76,3.62,-0.14,-0.19,-0.14,89.01,0.079,1,0,0,0,0,0,0,0,0,0,90.4,0,1,0,-0.06,0,0,0.14,90,0,0,0,0,0,0,0,0,0,0,0,0,0,90.4,1,0,-1.388,0.0659,1,0,0.0659,0,0,0,0,0,0,2,2,0,0,VALID,0,0,0,0,0,1,0,0,0,0,0,0,0,0,0,0,0,0,0,0,1047.46,1049.87,2,0,0.06,0.06,486,14.29,0.08,0.06,32.84,LANDED
33.18,TAKEOFF,TO_GROUND_ROLL,129.57,80,-49.57,3.58,-0.48,-0.31,-0.1,89.01,0.096,1,0,0,0,0,0,0,0,0,0,90.4,0,1,0,-0.21,0,0,0.15,90,0,0,0,0,0,0,0,0,0,0,0,0,0,90.4,1,0,-1.394,0.0663,1,0,0.0663,0,0,0,0,0,0,2,2,0,0,VALID,0,0,0,0,0,1,0,0,0,0,0,0,0,0,0,0,0,0,0,0,1054.35,1056.67,2,0,0.06,0.06,490,14.29,0.08,0.06,33.12,LANDED
33.48,TAKEOFF,TO_ROTATE,131.52,80,-51.52,3.63,-0.34,-0.14,0,89.01,0.078,1,0,0,0,0,0,0,0,0,0,90.4,0.456,1,0,-0.14,0,0,0.15,90,0,0,0,0,0,0,0,0,0,0,0,0,0,90.4,1,0,-1.395,0.0667,1,0,0.0667,0,0.1581,0.456,0.601,0.08,0,2,2,0,0,VALID,0,0,0,0,0,1,0,0,0,0,0,0,0,0,0,0,0,0,0,0,1061.81,1064.04,2,0,0.06,0.06,494,13.33,0.08,0.06,33.4,LANDED
33.76,TAKEOFF,TO_ROTATE,133.35,80,-53.35,3.6,-0.36,-0.24,-0.09,89,0.091,1,0,0,0,0,0,0,0,0,0,90.4,1.464,1,0,-0.16,0,0,0.16,90,0,0,0,0,0,0,0,0,0,0,0,0,0,90.4,1,0,-1.408,0.0675,1,0,0.0675,0,0.3012,1.464,1.702,0.08,0,2,2,0,0,VALID,0,0,0,0,0,1,0,0,0,0,0,0,0,0,0,0,0,0,0,0,1068.9,1071.05,2,0,0.06,0.06,498,14.29,0.08,0.06,33.68,LANDED
34.04,TAKEOFF,TO_ROTATE,135.2,80,-55.2,3.62,-0.37,-0.13,0.02,89,0.083,1,0,0,0,0,0,0,0,0,0,90.4,2.472,1,0,-0.16,0,0,0.16,90,0,0,0,0,0,0,0,0,0,0,0,0,0,90.4,1,0,-1.405,0.0668,1,0,0.0668,0,0.4184,2.472,2.603,0.08,0,2,2,0,0,VALID,0,0,0,0,0,1,0,0,0,0,0,0,0,0,0,0,0,0,0,0,1076.11,1078.19,2,0,0.06,0.06,502,14.29,0.08,0.06,33.96,LANDED
34.32,TAKEOFF,TO_ROTATE,137.05,80,-57.05,3.62,-0.34,-0.15,-0.01,88.98,0.083,1,0,0,0,0,0,0,0,0,0,90.41,3.48,1,0,-0.14,0,0,0.16,90,0,0,0,0,0,0,0,0,0,0,0,0,0,90.41,1,0,-1.426,0.069,1,0,0.069,0,0.552,3.48,3.631,0.08,0,2,2,0,0,VALID,0,0,0,0,0,1,0,0,0,0,0,0,0,0,0,0,0,0,0,0,1083.44,1085.45,2,0,0.06,0.06,506,14.29,0.08,0.06,34.24,LANDED
34.6,TAKEOFF,TO_ROTATE,138.91,80,-58.91,3.63,-0.37,-0.1,0.05,88.97,0.1,1,0,0,0,0,0,0,0,0,0,90.41,4.488,1,0,-0.15,0,0,0.17,90,0,0,0,0,0,0,0,0,0,0,0,0,0,90.41,1,0,-1.444,0.0701,1,0,0.0701,0,0.6768,4.488,4.591,0.08,0,2,2,0,0,VALID,0,0,0,0,0,1,0,0,0,0,0,0,0,0,0,0,0,0,0,0,1090.87,1092.83,2,0,0.06,0.06,510,14.29,0.08,0.06,34.52,LANDED
34.88,TAKEOFF,TO_ROTATE,140.78,80,-60.78,3.63,-0.33,-0.08,0.05,88.94,0.1,1,0,0,0,0,0,0,0,0,0,90.42,5.496,1,0,-0.14,0,0,0.17,90,0,0,0,0,0,0,0,0,0,0,0,0,0,90.42,1,0,-1.486,0.0736,1,0,0.0736,0,0.72,5.496,5.575,0.08,0,2,2,0,0,VALID,0,0,0,0,0,1,0,0,0,0,0,0,0,0,0,0,0,0,0,0,1098.41,1100.3,2,0,0.06,0.06,514,14.29,0.08,0.06,34.8,LANDED
35.16,TAKEOFF,TO_ROTATE,142.65,80,-62.65,3.63,-0.34,-0.08,0.06,88.89,0.119,1,0,0,0,0,0,0,0,0,0,90.43,6.504,1,0,-0.14,0,0,0.17,90,0,0,0,0,0,0,0,0,0,0,0,0,0,90.43,1,0,-1.542,0.0774,1,0,0.0774,0,0.72,6.504,6.581,0.08,0,2,2,0,0,VALID,0,0,0,0,0,1,0,0,0,0,0,0,0,0,0,0,0,0,0,0,1106.04,1107.88,2,0,0.06,0.06,518,14.29,0.08,0.06,35.08,LANDED
35.44,TAKEOFF,TO_ROTATE,144.54,80,-64.54,3.63,-0.33,-0.06,0.06,88.84,0.122,1,0,0,0,0,0,0,0,0,0,90.44,7.512,1,0,-0.13,0,0,0.18,90,0,0,0,0,0,0,0,0,0,0,0,0,0,90.44,1,0,-1.598,0.0803,1,0,0.0803,0,0.72,7.512,7.576,0.08,0,2,2,0,0,VALID,0,0,0,0,0,1,0,0,0,0,0,0,0,0,0,0,0,0,0,0,1113.8,1115.58,2,0,0.06,0.06,522,14.29,0.08,0.06,35.36,LANDED
35.72,TAKEOFF,TO_ROTATE,146.44,80,-66.44,3.63,-0.32,-0.06,0.06,88.78,0.119,1,0,0,0,0,0,0,0,0,0,90.44,8.52,1,0,-0.12,0,0,0.18,90,0,0,0,0,0,0,0,0,0,0,0,0,0,90.44,1,0,-1.659,0.0836,1,0,0.0836,0,0.72,8.52,8.584,0.08,0,2,2,0,0,VALID,0,0,0,0,0,1,0,0,0,0,0,0,0,0,0,0,0,0,0,0,1121.69,1123.42,2,0,0.06,0.06,526,14.29,0.08,0.06,35.64,LANDED
36,TAKEOFF,TO_ROTATE,148.35,80,-68.35,3.64,-0.31,-0.05,0.06,88.72,0.124,1,0,0,0,0,0,0,0,0,0,90.44,9.528,1,0,-0.12,0,0,0.19,90,0,0,0,0,0,0,0,0,0,0,0,0,0,90.44,1,0,-1.72,0.0866,1,0,0.0866,0,0.72,9.528,9.583,0.08,0,2,2,0,0,VALID,0,0,0,0,0,1,0,0,0,0,0,0,0,0,0,0,0,0,0,0,1129.71,1131.4,2,0,0.06,0.06,530,14.29,0.08,0.06,35.92,LANDED
36.28,TAKEOFF,TO_ROTATE,150.27,80,-70.27,3.64,-0.31,-0.05,0.06,88.66,0.123,1,0,0,0,0,0,0,0,0,0,90.44,10.536,1,0,-0.12,0,0,0.19,90,0,0,0,0,0,0,0,0,0,0,0,0,0,90.44,1,0,-1.782,0.0896,1,0,0.0896,0,0.72,10.536,10.587,0.08,0,2,2,0,0,VALID,0,0,0,0,0,1,0,0,0,0,0,0,0,0,0,0,0,0,0,0,1137.87,1139.52,2,0,0.06,0.06,534,14.29,0.08,0.06,36.2,LANDED
36.56,TAKEOFF,TO_ROTATE,152.21,80,-72.21,3.63,-0.34,-0.03,0.11,88.6,0.124,1,0,0,0,0,0,0,0,0,0,90.43,11.5,1,0,-0.14,0,0,0.19,90,0,0,0,0,0,0,0,0,0,0,0,0,0,90.43,1,0,-1.835,0.0915,1,0,0.0915,0,0.72,11.5,11.528,0.08,0,2,2,0,0,VALID,0,0,0,0,0,1,0,0,0,0,0,0,0,0,0,0,0,0,0,0,1146.18,1147.78,2,0,0.06,0.06,538,14.29,0.08,0.06,36.48,LANDED
36.84,TAKEOFF,TO_ROTATE,154.16,80,-74.16,3.66,-0.24,0.01,0.09,88.55,0.108,1,0,0,0,0,0,0,0,0,0,90.44,11.5,1,0,-0.08,0,0,0.2,90,0,0,0,0,0,0,0,0,0,0,0,0,0,90.44,1,0,-1.89,0.0945,1,0,0.0945,0,0.72,11.5,11.491,0.08,0,2,2,0,0,VALID,0,0,0,0,0,1,0,0,0,0,0,0,0,0,0,0,0,0,0,0,1154.62,1156.19,2,0,0.06,0.06,542,14.29,0.08,0.06,36.76,LANDED
37.12,TAKEOFF,TO_ROTATE,156.13,80,-76.13,3.64,-0.33,-0.01,0.12,88.48,0.13,1,0,0,0,0,0,0,0,0,0,90.44,11.5,1,0,-0.13,0,0,0.2,90,0,0,0,0,0,0,0,0,0,0,0,0,0,90.44,1,0,-1.96,0.0985,1,0,0.0985,0,0.72,11.5,11.507,0.08,0,2,2,0,0,VALID,0,0,0,0,0,1,0,0,0,0,0,0,0,0,0,0,0,0,0,0,1163.21,1164.74,2,0,0.06,0.06,546,14.29,0.08,0.06,37.04,LANDED
37.4,TAKEOFF,TO_ROTATE,158.12,80,-78.12,3.64,-0.24,-0.03,0.05,88.42,0.133,1,0,0,0,0,0,0,0,0,0,90.44,11.5,1,0,-0.08,0,0,0.21,90,0,0,0,0,0,0,0,0,0,0,0,0,0,90.44,1,0,-2.026,0.1015,1,0,0.1015,0,0.72,11.5,11.531,0.08,0,2,2,0,0,VALID,0,0,0,0,0,1,0,0,0,0,0,0,0,0,0,0,0,0,0,0,1171.94,1173.44,2,0,0.06,0.06,550,14.29,0.08,0.06,37.32,LANDED
37.68,TAKEOFF,TO_ROTATE,160.12,80,-80.12,3.64,-0.29,-0.03,0.07,88.35,0.116,1,0,0,0,0,0,0,0,0,0,90.44,11.5,1,0,-0.1,0,0,0.21,90,0,0,0,0,0,0,0,0,0,0,0,0,0,90.44,1,0,-2.089,0.1043,1,0,0.1043,0,0.72,11.5,11.53,0.08,0,2,2,0,0,VALID,0,0,0,0,0,1,0,0,0,0,0,0,0,0,0,0,0,0,0,0,1180.83,1182.29,2,0,0.06,0.06,554,14.29,0.08,0.06,37.6,LANDED
37.96,TAKEOFF,TO_ROTATE,162.13,80,-82.13,3.65,-0.23,0.01,0.09,88.29,0.12,1,0,0,0,0,0,0,0,0,0,90.44,11.5,1,0,-0.08,0,0,0.22,90,0,0,0,0,0,0,0,0,0,0,0,0,0,90.44,1,0,-2.152,0.1074,1,0,0.1074,0,0.72,11.5,11.489,0.08,0,2,2,0,0,VALID,0,0,0,0,0,1,0,0,0,0,0,0,0,0,0,0,0,0,0,0,1189.86,1191.3,2,0,0.06,0.06,558,14.29,0.08,0.06,37.88,LANDED
38.24,TAKEOFF,TO_ROTATE,164.17,80,-84.17,3.65,-0.26,0.02,0.11,88.22,0.13,1,0,0,0,0,0,0,0,0,0,90.44,11.5,1,0,-0.09,0,0,0.22,90,0,0,0,0,0,0,0,0,0,0,0,0,0,90.44,1,0,-2.223,0.1112,1,0,0.1112,0,0.72,11.5,11.479,0.08,0,2,2,0,0,VALID,0,0,0,0,0,1,0,0,0,0,0,0,0,0,0,0,0,0,0,0,1199.05,1200.46,2,0,0.06,0.06,562,14.29,0.08,0.06,38.16,LANDED
38.52,TAKEOFF,TO_ROTATE,166.22,80,-86.22,3.65,-0.22,0.04,0.11,88.15,0.128,1,0,0,0,0,0,0,0,0,0,90.44,11.5,1,0,-0.08,0,0,0.22,90,0,0,0,0,0,0,0,0,0,0,0,0,0,90.44,1,0,-2.292,0.1144,1,0,0.1144,0,0.72,11.5,11.464,0.08,0,2,2,0,0,VALID,0,0,0,0,0,1,0,0,0,0,0,0,0,0,0,0,0,0,0,0,1208.39,1209.78,2,0,0.06,0.06,566,14.29,0.08,0.06,38.44,LANDED
38.8,TAKEOFF,TO_ROTATE,168.28,80,-88.28,3.66,-0.22,0.06,0.13,88.08,0.123,1,0,0,0,0,0,0,0,0,0,90.44,11.5,1,0,-0.08,0,0,0.23,90,0,0,0,0,0,0,0,0,0,0,0,0,0,90.44,1,0,-2.358,0.1174,1,0,0.1174,0,0.72,11.5,11.441,0.08,0,2,2,0,0,VALID,0,0,0,0,0,1,0,0,0,0,0,0,0,0,0,0,0,0,0,0,1217.89,1219.26,2,0,0.06,0.06,570,14.29,0.08,0.06,38.72,LANDED
39.08,TAKEOFF,TO_ROTATE,170.37,80,-90.37,3.67,-0.2,0.1,0.17,88.02,0.124,1,0,0,0,0,0,0,0,0,0,90.44,11.5,1,0,-0.07,0,0,0.23,90,0,0,0,0,0,0,0,0,0,0,0,0,0,90.44,1,0,-2.422,0.1203,1,0,0.1203,0,0.72,11.5,11.399,0.08,0,2,2,0,0,VALID,0,0,0,0,0,1,0,0,0,0,0,0,0,0,0,0,0,0,0,0,1227.55,1228.9,2,0,0.06,0.06,574,14.29,0.08,0.06,39,LANDED
39.36,TAKEOFF,TO_ROTATE,172.47,80,-92.47,3.69,-0.19,0.15,0.22,87.96,0.122,1,0,0,0,0,0,0,0,0,0,90.44,11.5,1,0,-0.06,0,0,0.24,90,0,0,0,0,0,0,0,0,0,0,0,0,0,90.44,1,0,-2.483,0.1228,1,0,0.1228,0,0.72,11.5,11.345,0.08,0,2,2,0,0,VALID,0,0,0,0,0,1,0,0,0,0,0,0,0,0,0,0,0,0,0,0,1237.37,1238.7,2,0,0.06,0.06,578,14.29,0.08,0.06,39.28,LANDED
39.64,TAKEOFF,TO_ROTATE,174.58,80,-94.58,3.72,-0.08,0.2,0.23,87.9,0.117,1,0,0,0,0,0,0,0,0,0,90.44,11.5,1,0,-0.03,0,0,0.24,90,0,0,0,0,0,0,0,0,0,0,0,0,0,90.44,1,0,-2.538,0.1251,1,0,0.1251,0,0.72,11.5,11.298,0.08,0,2,2,0,0,VALID,0,0,0,0,0,1,0,0,0,0,0,0,0,0,0,0,0,0,0,0,1247.35,1248.66,2,0,0.06,0.06,582,14.29,0.08,0.06,39.56,LANDED
39.92,TAKEOFF,TO_ROTATE,176.72,80,-96.72,3.77,-0.22,0.35,0.42,87.85,0.116,1,0,0,0,0,0,0,0,0,0,90.43,11.5,1,0,-0.07,0,0,0.25,90,0,0,0,0,0,0,0,0,0,0,0,0,0,90.43,1,0,-2.584,0.1266,1,0,0.1266,0,0.72,11.5,11.149,0.08,0,2,2,0,0,VALID,0,0,0,0,0,1,0,0,0,0,0,0,0,0,0,0,0,0,0,0,1257.51,1258.8,2,0,0.06,0.06,586,14.29,0.08,0.06,39.84,LANDED
40.2,TAKEOFF,TO_ROTATE,178.88,80,-98.88,3.85,-0.09,0.59,0.62,87.8,0.115,1,0,0,0,0,0,0,0,0,0,90.43,11.5,1,0,-0.03,0,0,0.25,90,0,0,0,0,0,0,0,0,0,0,0,0,0,90.43,1,0,-2.634,0.1291,1,0,0.1291,0,0.72,11.5,10.906,0.08,0,2,2,0,0,VALID,0,0,0,0,0,1,0,0,0,0,0,0,0,0,0,0,0,0,0,0,1267.83,1269.11,2,0,0.06,0.06,590,14.29,0.08,0.06,40.12,LANDED
40.48,TAKEOFF,TO_ROTATE,181.05,80,-101.05,3.94,-0.15,0.87,0.92,87.75,0.131,1,0,0,0,0,0,0,0,0,0,90.42,11.5,1,0,-0.05,0,0,0.26,90,0,0,0,0,0,0,0,0,0,0,0,0,0,90.42,1,0,-2.671,0.1299,1,0,0.1299,0,0.72,11.5,10.627,0.08,0,2,2,0,0,VALID,0,0,0,0,0,1,0,0,0,0,0,0,0,0,0,0,0,0,0,0,1278.32,1279.59,2,0,0.06,0.06,594,14.29,0.08,0.06,40.4,LANDED
40.76,TAKEOFF,TO_ROTATE,183.24,80,-103.24,4.03,-0.09,1.14,1.17,87.72,0.127,1,0,0,0,0,0,0,0,0,0,90.42,11.5,1,0,-0.03,0,0,0.26,90,0,0,0,0,0,0,0,0,0,0,0,0,0,90.42,1,0,-2.692,0.1299,1,0,0.1299,0,0.72,11.5,10.361,0.08,0,2,2,0,0,VALID,0,0,0,0,0,1,0,0,0,0,0,0,0,0,0,0,0,0,0,0,1288.98,1290.23,2,0,0.06,0.06,598,14.29,0.08,0.06,40.68,LANDED
41.04,TAKEOFF,TO_ROTATE,185.45,80,-105.45,4.03,-0.13,1.24,1.29,87.73,-0.448,1,0,0,0,0,0,0,0,0,0,90.35,11.5,1,0,-0.04,0,0,0.27,90,0,0,0,0,0,0,0,0,0,0,0,0,0,90.35,1,0,-2.621,0.1188,1,0,0.1188,0,0.72,11.5,10.255,0.08,0,2,2,0,0,VALID,0,0,0,0,0,1,0,0,0,0,0,0,0,0,0,0,0,0,0,0,1299.8,1301.05,2,0,0.06,0.06,602,14.29,0.08,0.06,40.96,LANDED
41.32,TAKEOFF,TO_ROTATE,187.68,80,-107.68,3.84,-0.97,1.01,1.29,87.81,-1.694,1,0,0,0,0,0,0,0,0,0,90.37,11.5,1,0,-0.29,0,0,0.27,90,0,0,0,0,0,0,0,0,0,0,0,0,0,90.37,1,0,-2.558,0.1179,1,0,0.1179,0,0.72,11.5,10.49,0.08,0,2,2,0,0,VALID,0,0,0,0,0,1,0,0,0,0,0,0,0,0,0,0,0,0,0,0,1310.83,1312.08,2,0,0.06,0.06,606,14.29,0.08,0.06,41.24,LANDED
41.6,TAKEOFF,TO_ROTATE,189.95,80,-109.95,3.9,-1.41,0.67,1.03,87.94,-6.787,1,0,0,0,0,0,0,0,0,0,90.26,11.5,1,0,-0.41,0,0,0.28,90,0,0,0,0,0,0,0,0,0,0,0,0,0,90.26,1,0,-2.315,0.0919,1,0,0.0919,0,0.72,11.5,10.833,0.08,0,2,2,0,0,VALID,0,0,0,0,0,1,0,0,0,0,0,0,0,0,0,0,0,0,0,0,1322.11,1323.34,2,0,0.06,0.06,610,14.29,0.08,0.06,41.52,LANDED
41.88,TAKEOFF,TO_ROTATE,192.24,80,-112.24,7.4,-2.42,0.09,0.64,88.08,-15.283,1,0,0,0,0,0,0,0,0,0,90.41,11.5,1,0,-0.7,0,0,0.28,90,0,0,0,0,0,0,0,0,0,0,0,0,0,90.41,1,0,-2.326,0.1111,1,0,0.1111,0,0.72,11.5,11.411,0.08,0,2,2,0,0,VALID,0,0,0,0,0,1,0,0,0,0,0,0,0,0,0,0,0,0,0,0,1333.62,1334.86,2,0,0.06,0.06,614,14.29,0.08,0.06,41.8,LANDED
42.14,TAKEOFF,TO_ROTATE,194.4,80,-114.4,7.2,-4.17,0.94,1.79,87.64,-24.895,1,0,0,0,0,0,0,0,0,0,90.4,11.5,0,1,-1.23,0,0,12.87,90.4,-0.9011,-0.0066,-0.4335,13.29,90.4,0,0,0,0,0,0,0,0,90.4,1,0,-2.763,0,0,3,0,0,0,11.5,10.561,0,0,2,2,0,0,VALID,0,0,0,0,0,1,0,0,0,0,0,0,0,0,0,0,0,0,0,0,1344.59,1345.84,2,0,0.06,0.06,618,15.38,0.08,0.06,42.06,FLYING
42.44,TAKEOFF,TO_ROTATE,196.91,80,-116.91,6.05,-4.03,1.96,3.19,86.62,-33.225,1,0,0,0,0,0,0,0,0,0,91.24,11.5,1,0,-1.24,0,0,13.3,90.4,-0.9011,-0.0066,-0.4335,13.29,90.4,0,0,0,0,0,0,0,0,91.24,1,0,-4.625,0.3251,1,0,0.3251,0,0.72,11.5,9.541,0.08,0,2,2,0,0,VALID,0,0,0,0,0,1,0,0,0,0,0,0,0,0,0,0,0,0,0,0,1357.67,1358.7,2,0,0.06,0.06,622,13.33,0.08,0.06,42.36,LANDED
42.72,TAKEOFF,TO_ROTATE,198.37,80,-118.37,4.84,-4.96,0.87,3.67,84.32,-37.658,1,0,0,0,0,0,0,0,0,0,97.3,11.5,0,1,-1.48,0,0,14.92,90.4,-0.913,-0.0065,-0.4079,14.92,90.4,0,0,0,0,0,0,0,0,97.3,1,0,-12.979,0.4,1,0,0.18,0,0.156,11.5,10.634,0.08,0,2,2,0,0,VALID,0,0,0,0,0,1,0,0,0,0,0,0,0,0,0,0,0,0,0,0,1365,1366.26,2,0,0.06,0.06,626,14.29,0.08,0.06,42.64,LANDED
43.02,TAKEOFF,TO_ROTATE,200.14,80,-120.14,2.8,-3.71,-3.78,-2.16,84.82,-26.645,1,0,0,0,0,0,0,0,0,0,89.11,11.5,1,0,-1.02,0,0,14.93,90.4,-0.913,-0.0065,-0.4079,14.92,90.4,0,0,0,0,0,0,0,0,89.11,1,0,-4.285,0.0419,1,0,0.0419,0,0.72,11.5,15.277,0.08,0,2,2,0,0,VALID,0,0,0,0,0,1,0,0,0,0,0,0,0,0,0,0,0,0,0,0,687.27,687.63,1,0,0.06,0.06,630,13.33,0.1,0.06,42.94,LANDED
43.3,TAKEOFF,TO_ROTATE,198.7,80,-118.7,3.67,1.6,-0.39,-0.71,85.15,-5.391,1,0,0,0,0,0,0,0,0,0,91.57,11.5,1,0,0.4,0,0,14.94,90.4,-0.913,-0.0065,-0.4079,14.92,90.4,0,0,0,0,0,0,0,0,91.57,1,0,-6.423,0.4,1,0,0.4,0,0.72,11.5,11.893,0.08,0,2,2,0,0,VALID,0,0,0,0,0,1,0,0,0,0,0,0,0,0,0,0,0,0,0,0,684.23,684,1,0,0.06,0.06,634,14.29,0.08,0.06,43.22,LANDED
43.58,TAKEOFF,TO_ROTATE,199.48,80,-119.48,6.96,0.91,6.28,4.16,81.37,17.985,1,0,0,0,0,0,0,0,0,0,92.92,11.5,1,0,0.27,0,0,14.94,90.4,-0.913,-0.0065,-0.4079,14.92,90.4,0,0,0,0,0,0,0,0,92.92,1,0,-11.541,0.4,1,0,0.4,0,0.72,11.5,5.219,0.08,0,2,2,0,0,VALID,0,0,0,0,0,1,0,0,0,0,0,0,0,0,0,0,0,0,0,0,685.75,686.07,1,0,0.06,0.06,638,14.29,0.08,0.06,43.5,LANDED
43.86,TAKEOFF,TO_ROTATE,199.71,80,-119.71,9.75,0.73,12.95,5.61,78.2,35.743,1,0,0,0,0,0,0,0,0,0,92.1,11.5,1,0,0.23,0,0,14.95,90.4,-0.913,-0.0065,-0.4079,14.92,90.4,0,0,0,0,0,0,0,0,92.1,1,0,-13.891,0.4,1,0,0.4,0,-0.008,11.5,-1.447,0.08,0,2,2,0,0,VALID,0,0,0,0,0,1,0,0,0,0,0,0,0,0,0,0,0,0,0,0,686.63,686.73,1,0,0.06,0.06,642,14.29,0.08,0.06,43.78,LANDED
44.12,TAKEOFF,TO_ROTATE,198.05,80,-118.05,11.06,0.63,16.3,2.67,76.84,50.35,1,0,0,0,0,0,0,0,0,0,90.4,11.5,0,1,0.18,0,0,15,90.4,-0.9074,-0.0065,-0.4203,14.17,90.4,0,0,0,0,0,0,0,0,90.4,1,0,-13.559,0,0,3,0,0,0,11.5,-4.803,0,0,2,2,0,0,VALID,0,0,0,0,0,1,0,0,0,0,0,0,0,0,0,0,0,0,0,0,0,0,0,0,0.06,0.06,646,15.38,0.08,0.06,44.04,FLYING
44.38,TAKEOFF,TO_ROTATE,196.66,80,-116.66,11.45,0.83,16.97,-0.78,76.89,59.193,1,0,0,0,0,0,0,0,0,0,90.4,11.5,0,1,0.24,0,0,11.19,90.4,-0.8804,-0.0067,-0.4742,10.72,90.4,0,0,0,0,0,0,0,0,90.4,1,0,-13.505,0,0,3,0,0,0,11.5,-5.465,0,0,2,2,0,0,VALID,0,0,0,0,0,1,0,0,0,0,0,0,0,0,0,0,0,0,0,0,0,0,0,0,0.06,0.06,650,15.38,0.08,0.04,44.3,FLYING
44.64,TAKEOFF,TO_ROTATE,195.52,80,-115.52,11.18,0.27,15.84,-1.42,77.62,62.243,1,0,0,0,0,0,0,0,0,0,90.4,11.5,0,1,0.08,0,0,10.02,90.4,-0.875,-0.0067,-0.4842,10.08,90.4,0,0,0,0,0,0,0,0,90.4,1,0,-12.777,0,0,3,0,0,0,11.5,-4.342,0,0,2,2,0,0,VALID,0,0,0,0,0,1,0,0,0,0,0,0,0,0,0,0,0,0,0,0,0,0,0,0,0.06,0.06,654,15.38,0.08,0.04,44.56,FLYING
44.9,TAKEOFF,TO_ROTATE,194.43,80,-114.43,10.49,-0.66,13.36,0.04,79.35,61.604,1,0,0,0,0,0,0,0,0,0,90.4,11.5,0,1,-0.19,0,0,11.06,90.4,-0.887,-0.0067,-0.4617,11.54,90.4,0,0,0,0,0,0,0,0,90.4,1,0,-11.047,0,0,3,0,0,0,11.5,-1.859,0,0,2,2,0,0,VALID,0,0,0,0,0,1,0,0,0,0,0,0,0,0,0,0,0,0,0,0,0,0,0,0,0.06,0.06,658,15.38,0.08,0.04,44.82,FLYING
45.16,TAKEOFF,TO_ROTATE,193.47,80,-113.47,9.24,-1.94,10.13,2.42,82.09,58.008,1,0,0,0,0,0,0,0,0,0,90.4,11.5,0,1,-0.57,0,0,13.37,90.4,-0.9054,-0.0065,-0.4245,13.92,90.4,0,0,0,0,0,0,0,0,90.4,1,0,-8.312,0,0,3,0,0,0,11.5,1.37,0,0,2,2,0,0,VALID,0,0,0,0,0,1,0,0,0,0,0,0,0,0,0,0,0,0,0,0,0,0,0,0,0.06,0.06,662,15.38,0.08,0.04,45.08,FLYING
45.42,TAKEOFF,TO_ROTATE,192.51,80,-112.51,6.54,-3.59,6.64,4.76,85.68,51.737,1,0,0,0,0,0,0,0,0,0,90.4,11.5,0,1,-1.07,0,0,15.73,90.4,-0.9219,-0.0064,-0.3874,16.26,90.4,0,0,0,0,0,0,0,0,90.4,1,0,-4.722,0,0,3,0,0,0,11.5,4.859,0,0,2,2,0,0,VALID,0,0,0,0,0,1,0,0,0,0,0,0,0,0,0,0,0,0,0,0,0,0,0,0,0.06,0.06,666,15.38,0.08,0.04,45.34,FLYING
45.72,TAKEOFF,TO_ROTATE,190.76,80,-110.76,4.44,-1.53,0.35,0.94,87.75,9.699,1,0,0,0,0,0,0,0,0,0,89.99,11.5,1,0,-0.4,0,0,16.26,90.4,-0.9219,-0.0064,-0.3874,16.26,90.4,0,0,0,0,0,0,0,0,89.99,1,0,-2.238,0.0545,1,0,0.0545,0,0.72,11.5,11.146,0.08,0,2,2,0,0,VALID,0,0,0,0,0,1,0,0,0,0,0,0,0,0,0,0,0,0,0,0,0,0,0,0,0.06,0.06,670,13.33,0.08,0.06,45.64,LANDED
46,TAKEOFF,TO_ROTATE,189.01,80,-109.01,3.1,3.2,-6.87,-6.29,90.32,-47.912,1,0,0,0,0,0,0,0,0,0,88.23,11.5,1,0,-1.42,0,0,10.54,90.4,-0.8787,-0.0067,-0.4774,10.54,90.4,0,0,0,0,0,0,0,0,88.23,1,0,2.087,0,0,3,0,0,0.52,11.5,18.373,0.08,0,2,2,0,0,VALID,0,0,0,0,0,1,0,0,0,0,0,0,0,0,0,0,0,0,0,0,0,0,0,0,0.06,0.06,674,14.29,0.1,0.04,45.92,FLYING
