t_s,phase,subphase,ias_ms,vapp_ms,spd_err_ms,agl_m,vs_ms,pitch_deg,aoa_deg,hdg_deg,bank_deg,thr_cmd,thr_cur,thr_intg,at_gain,at_tau_s,at_a_up,at_a_dn,at_kp_thr,at_ki_spd,at_thr_slew,aa_hdg_cmd_deg,aa_fpa_cmd_deg,aa_fbw,aa_dir,actual_fpa_deg,ftf_hdg_err_deg,ftf_fix_idx,kos_steer_pit_deg,kos_steer_hdg_deg,aa_dir_vx,aa_dir_vy,aa_dir_vz,aa_dir_pitch_deg,aa_dir_hdg_deg,ils_loc_m,ils_gs_m,ils_dist_km,loc_corr_deg,gs_corr_deg,gs_latched,active_gs_ang_deg,ils_intercept_alt_m,d_gs_ms,fpa_preclamped_deg,gs_nom_alt_m,flare_fpa_cmd,flare_tgt_vs,flare_frac,steer_hdg_deg,steer_blend,ro_loc_corr_deg,ro_hdg_err_deg,ro_yaw_tgt,ro_yaw_scale,ro_yaw_gate,yaw_cmd,roll_cmd,pitch_cmd,ro_pitch_tgt_deg,ro_pitch_err_deg,ro_pitch_ff,ro_roll_assist,flaps_cur,flaps_tgt,asc_j_ab,asc_j_rk,asc_validity,asc_q_pa,asc_q_raw_pa,asc_mach,asc_apo_m,asc_drag_n,asc_w_prop,asc_edot_aero,asc_edot_orb,asc_pitch_bias,asc_blend,asc_spooling,asc_ab_thr_ratio,asc_ab_t_now,asc_ab_t_avail,asc_ab_ign_on,asc_ab_flameouts,asc_rk_t_now,asc_rk_t_avail,asc_rk_ign_on,asc_rk_flameouts,ship_thrust,ship_avail_thrust,ship_ign_on,ship_flameouts,ifc_raw_dt_s,ifc_dt_s,ifc_loop_n,ifc_hz_est,ifc_raw_dt_max_s,ifc_raw_dt_min_s,phase_el_s,status,craft_name,cfg_file
0.12,TAKEOFF,TO_PREFLIGHT,0,80,80,3.64,0,0.14,32.75,86.68,0.128,0.04,0,0,0,0,0,0,0,0,0,90.4,0,1,0,-0.03,0,0,0,90,0,0,0,0,0,0,0,0,0,0,0,3,0,0,0,69,0,0,0,90.4,1,0,-3.719,0,0,1,0,0,0,0,0,0,0,0,1,0,0,VALID,0,0,0,0,0,1,0,0,0,0,0,0,0,0,0,0,0,0,0,0,0,517.95,2,0,0.1,0.1,1,3.45,0.1,0.02,0.02,PRELAUNCH,CF1-G,0:/Integrated Flight Computer/aircraft/cf1_g_cfg.ks (inferred preloaded)
0.38,TAKEOFF,TO_PREFLIGHT,0,80,80,3.64,0,0.14,32.66,86.67,0.127,0.112,0,0,0,0,0,0,0,0,0,90.4,0,1,0,-0.06,0,0,0,90,0,0,0,0,0,0,0,0,0,0,0,3,0,0,0,69,0,0,0,90.4,1,0,-3.722,0,0,1,0,0,0,0,0,0,0,1,1,0,0,VALID,0,0,0,0,0,1,0,0,0,0,0,0,0,0,0,0,0,0,0,0,0.35,517.95,2,0,0.04,0.04,6,19.23,0.1,0.04,0.28,PRELAUNCH,CF1-G,0:/Integrated Flight Computer/aircraft/cf1_g_cfg.ks (inferred preloaded)
0.64,TAKEOFF,TO_PREFLIGHT,0,80,80,3.64,0,0.14,-37,86.66,0.127,0.216,0,0,0,0,0,0,0,0,0,90.4,0,1,0,0.05,0,0,0,90,0,0,0,0,0,0,0,0,0,0,0,3,0,0,0,69,0,0,0,90.4,1,0,-3.722,0,0,1,0,0,0,0,0,0,0,1,1,0,0,VALID,0,0,0,0,0,1,0,0,0,0,0,0,0,0,0,0,0,0,0,0,1.44,517.95,2,0,0.04,0.04,11,19.23,0.08,0.04,0.54,PRELAUNCH,CF1-G,0:/Integrated Flight Computer/aircraft/cf1_g_cfg.ks (inferred preloaded)
0.9,TAKEOFF,TO_PREFLIGHT,0,80,80,3.64,0,0.14,-15.98,86.66,0.128,0.32,0,0,0,0,0,0,0,0,0,90.4,0,1,0,0.03,0,0,0,90,0,0,0,0,0,0,0,0,0,0,0,3,0,0,0,69,0,0,0,90.4,1,0,-3.722,0,0,1,0,0,0,0,0,0,0,1,1,0,0,VALID,0,0,0,0,0,1,0,0,0,0,0,0,0,0,0,0,0,0,0,0,3.35,517.95,2,0,0.04,0.04,16,19.23,0.08,0.04,0.8,PRELAUNCH,CF1-G,0:/Integrated Flight Computer/aircraft/cf1_g_cfg.ks (inferred preloaded)
1.16,TAKEOFF,TO_PREFLIGHT,0,80,80,3.64,0,0.14,11.83,86.65,0.13,0.424,0,0,0,0,0,0,0,0,0,90.4,0,1,0,-0.03,0,0,0,90,0,0,0,0,0,0,0,0,0,0,0,3,0,0,0,69,0,0,0,90.4,1,0,-3.722,0,0,1,0,0,0,0,0,0,0,1,1,0,0,VALID,0,0,0,0,0,1,0,0,0,0,0,0,0,0,0,0,0,0,0,0,6.07,517.95,2,0,0.04,0.04,21,19.23,0.08,0.04,1.06,PRELAUNCH,CF1-G,0:/Integrated Flight Computer/aircraft/cf1_g_cfg.ks (inferred preloaded)
1.42,TAKEOFF,TO_PREFLIGHT,0.01,80,79.99,3.64,0,0.14,-5.75,86.64,0.13,0.528,0,0,0,0,0,0,0,0,0,90.4,0,1,0,0.02,0,0,0,90,0,0,0,0,0,0,0,0,0,0,0,3,0,0,0,69,0,0,0,90.4,1,0,-3.722,0,0,1,0,0,0,0,0,0,0,1,1,0,0,VALID,0,0,0,0,0,1,0,0,0,0,0,0,0,0,0,0,0,0,0,0,9.57,517.94,2,0,0.04,0.04,26,19.23,0.08,0.04,1.32,PRELAUNCH,CF1-G,0:/Integrated Flight Computer/aircraft/cf1_g_cfg.ks (inferred preloaded)
1.68,TAKEOFF,TO_PREFLIGHT,0.01,80,79.99,3.64,0,0.13,-3.4,86.63,0.129,0.632,0,0,0,0,0,0,0,0,0,90.4,0,1,0,0.03,0,0,0,90,0,0,0,0,0,0,0,0,0,0,0,3,0,0,0,69,0,0,0,90.4,1,0,-3.722,0,0,1,0,0,0,0,0,0,0,1,1,0,0,VALID,0,0,0,0,0,1,0,0,0,0,0,0,0,0,0,0,0,0,0,0,13.86,517.94,2,0,0.04,0.04,31,19.23,0.08,0.04,1.58,PRELAUNCH,CF1-G,0:/Integrated Flight Computer/aircraft/cf1_g_cfg.ks (inferred preloaded)
1.94,TAKEOFF,TO_PREFLIGHT,0.01,80,79.99,3.64,0,0.13,1.49,86.62,0.128,0.736,0,0,0,0,0,0,0,0,0,90.4,0,1,0,0.02,0,0,0,90,0,0,0,0,0,0,0,0,0,0,0,3,0,0,0,69,0,0,0,90.4,1,0,-3.722,0,0,1,0,0,0,0,0,0,0,1,1,0,0,VALID,0,0,0,0,0,1,0,0,0,0,0,0,0,0,0,0,0,0,0,0,18.91,517.94,2,0,0.04,0.04,36,19.23,0.08,0.04,1.84,PRELAUNCH,CF1-G,0:/Integrated Flight Computer/aircraft/cf1_g_cfg.ks (inferred preloaded)
2.26,TAKEOFF,TO_PREFLIGHT,0.02,80,79.98,3.64,0,0.12,-0.52,86.61,0.128,0.864,0,0,0,0,0,0,0,0,0,90.4,0,1,0,-0.03,0,0,0,90,0,0,0,0,0,0,0,0,0,0,0,3,0,0,0,69,0,0,0,90.4,1,0,-3.722,0,0,1,0,0,0,0,0,0,0,1,1,0,0,VALID,0,0,0,0,0,1,0,0,0,0,0,0,0,0,0,0,0,0,0,0,26.17,517.94,2,0,0.08,0.08,41,15.63,0.08,0.04,2.16,PRELAUNCH,CF1-G,0:/Integrated Flight Computer/aircraft/cf1_g_cfg.ks (inferred preloaded)
2.54,TAKEOFF,TO_PREFLIGHT,0.02,80,79.98,3.63,0,0.12,-2.73,86.61,0.129,0.976,0,0,0,0,0,0,0,0,0,90.4,0,1,0,0.05,0,0,0,90,0,0,0,0,0,0,0,0,0,0,0,3,0,0,0,69,0,0,0,90.4,1,0,-3.722,0,0,1,0,0,0,0,0,0,0,1,1,0,0,VALID,0,0,0,0,0,1,0,0,0,0,0,0,0,0,0,0,0,0,0,0,33.41,517.94,2,0,0.08,0.08,45,14.29,0.08,0.06,2.44,PRELAUNCH,CF1-G,0:/Integrated Flight Computer/aircraft/cf1_g_cfg.ks (inferred preloaded)
2.82,TAKEOFF,TO_PREFLIGHT,0.02,80,79.98,3.63,0,0.11,-2.08,86.6,0.13,1,0,0,0,0,0,0,0,0,0,90.4,0,1,0,0.06,0,0,0,90,0,0,0,0,0,0,0,0,0,0,0,3,0,0,0,69,0,0,0,90.4,1,0,-3.722,0,0,1,0,0,0,0,0,0,0,1,1,0,0,VALID,0,0,0,0,0,1,0,0,0,0,0,0,0,0,0,0,0,0,0,0,41.38,517.94,2,0,0.08,0.08,49,14.29,0.08,0.06,2.72,PRELAUNCH,CF1-G,0:/Integrated Flight Computer/aircraft/cf1_g_cfg.ks (inferred preloaded)
3.1,TAKEOFF,TO_PREFLIGHT,0.03,80,79.97,3.63,0,0.1,0.05,86.59,0.13,1,0,0,0,0,0,0,0,0,0,90.4,0,1,0,0.02,0,0,0,90,0,0,0,0,0,0,0,0,0,0,0,3,0,0,0,69,0,0,0,90.4,1,0,-3.722,0,0,1,0,0,0,0,0,0,0,1,1,0,0,VALID,0,0,0,0,0,1,0,0,0,0,0,0,0,0,0,0,0,0,0,0,49.32,517.93,2,0,0.08,0.08,53,14.29,0.08,0.06,3,PRELAUNCH,CF1-G,0:/Integrated Flight Computer/aircraft/cf1_g_cfg.ks (inferred preloaded)
3.38,TAKEOFF,TO_GROUND_ROLL,0.04,80,79.96,3.63,0,0.11,1.43,86.59,0.129,1,0,0,0,0,0,0,0,0,0,90.4,0,1,0,-0.16,0,0,0,90,0,0,0,0,0,0,0,0,0,0,0,3,0,0,0,69,0,0,0,90.4,1,0,-3.818,0,0,3,0,0,0,0,0,0,0,1,1,0,0,VALID,0,0,0,0,0,1,0,0,0,0,0,0,0,0,0,0,0,0,0,0,57.13,517.93,2,0,0.08,0.08,57,14.29,0.08,0.06,3.3,PRELAUNCH,CF1-G,0:/Integrated Flight Computer/aircraft/cf1_g_cfg.ks (inferred preloaded)
3.66,TAKEOFF,TO_GROUND_ROLL,0.23,80,79.77,3.65,0,0.22,1.55,86.58,0.126,1,0,0,0,0,0,0,0,0,0,90.41,0,1,0,-0.22,0,0,0,90,0,0,0,0,0,0,0,0,0,0,0,3,0,0,0,69,0,0,0,90.41,1,0,-3.827,0,0,3,0,0,0,0,0,0,0,1,1,0,0,VALID,0,0,0,0,0,1,0,0,0,0,0,0,0,0,0,0,0,0,0,0,64.81,517.89,2,0,0.08,0.08,61,14.29,0.08,0.06,3.58,PRELAUNCH,CF1-G,0:/Integrated Flight Computer/aircraft/cf1_g_cfg.ks (inferred preloaded)
3.94,TAKEOFF,TO_GROUND_ROLL,0.5,80,79.5,3.67,0.05,0.32,0.25,86.56,0.126,1,0,0,0,0,0,0,0,0,0,90.41,0,1,0,2.69,0,0,0,90,0,0,0,0,0,0,0,0,0.001,0,0,3,0,0,0,69,0,0,0,90.41,1,0.001,-3.85,0,0,3,0,0,0,0,0,0,0,1,1,0,0,VALID,0,0,0,0,0,1,0,0,0,0,0,0,0,0,0,0,0,0,0,0,72.35,517.82,2,0,0.08,0.08,65,14.29,0.08,0.06,3.86,PRELAUNCH,CF1-G,0:/Integrated Flight Computer/aircraft/cf1_g_cfg.ks (inferred preloaded)
4.22,TAKEOFF,TO_GROUND_ROLL,0.81,80,79.19,3.7,-0.1,0.39,5.96,86.54,0.126,1,0,0,0,0,0,0,0,0,0,90.42,0,1,0,-5.89,0,0,0,90,0,0,0,0,0,0,0,0,0.001,0,0,3,0,0,0,69,0,0,0,90.42,1,0.001,-3.882,0,0,3,0,0,0,0,0,0,0,1,1,0,0,VALID,0,0,0,0,0,1,0,0,0,0,0,0,0,0,0,0,0,0,0,0,79.77,517.74,2,0,0.08,0.08,69,14.29,0.08,0.06,4.14,PRELAUNCH,CF1-G,0:/Integrated Flight Computer/aircraft/cf1_g_cfg.ks (inferred preloaded)
4.5,TAKEOFF,TO_GROUND_ROLL,1.14,80,78.86,3.7,0.04,0.39,-1.7,86.51,0.127,1,0,0,0,0,0,0,0,0,0,90.43,0,1,0,1.91,0,0,0,90,0,0,0,0,0,0,0,0,0.001,0,0,3,0,0,0,69,0,0,0,90.43,1,0.001,-3.919,0,0,3,0,0,0,0,0,0,0,1,1,0,0,VALID,0,0,0,0,0,1,0,0,0,0,0,0,0,0,0,0,0,0,0,0,87.05,517.66,2,0,0.08,0.08,73,14.29,0.08,0.06,4.42,PRELAUNCH,CF1-G,0:/Integrated Flight Computer/aircraft/cf1_g_cfg.ks (inferred preloaded)
4.78,TAKEOFF,TO_GROUND_ROLL,1.5,80,78.5,3.68,-0.01,0.32,0.89,86.47,0.129,1,0,0,0,0,0,0,0,0,0,90.43,0,1,0,-0.33,0,0,0,90,0,0,0,0,0,0,0,0,0.002,0,0,3,0,0,0,69,0,0,0,90.43,1,0.002,-3.962,0,0,3,0,0,0,0,0,0,0,1,1,0,0,VALID,0,0,0,0,0,1,0,0,0,0,0,0,0,0,0,0,0,0,0,0,94.21,517.57,2,0,0.08,0.08,77,14.29,0.08,0.06,4.7,PRELAUNCH,CF1-G,0:/Integrated Flight Computer/aircraft/cf1_g_cfg.ks (inferred preloaded)
5.06,TAKEOFF,TO_GROUND_ROLL,1.9,80,78.1,3.67,-0.02,0.24,0.78,86.42,0.131,1,0,0,0,0,0,0,0,0,0,90.44,0,1,0,-0.69,0,0,0,90,0,0,0,0,0,0,0,0,0.002,0,0,3,0,0,0,69,0,0,0,90.44,1,0.002,-4.011,0,0,3,0,0,0,0,0,0,0,1,1,0,0,VALID,0,0,0,0,0,1,0,0,0,0,0,0,0,0,0,0,0,0,0,0,101.25,517.47,2,0,0.08,0.08,81,14.29,0.08,0.06,4.98,PRELAUNCH,CF1-G,0:/Integrated Flight Computer/aircraft/cf1_g_cfg.ks (inferred preloaded)
5.34,TAKEOFF,TO_GROUND_ROLL,2.32,80,77.68,3.66,-0.01,0.18,0.3,86.38,0.131,1,0,0,0,0,0,0,0,0,0,90.44,0,1,0,-0.14,0,0,0,90,0,0,0,0,0,0,0,0,0.003,0,0,3,0,0,0,69,0,0,0,90.44,1,0.003,-4.064,0.0457,0.25,1,0.0457,0,0,0,0,0,0,1,1,0,0,VALID,0,0,0,0,0,1,0,0,0,0,0,0,0,0,0,0,0,0,0,0,108.17,517.36,2,0,0.08,0.08,85,14.29,0.08,0.06,5.26,LANDED,CF1-G,0:/Integrated Flight Computer/aircraft/cf1_g_cfg.ks (inferred preloaded)
5.62,TAKEOFF,TO_GROUND_ROLL,2.77,80,77.23,3.65,0,0.25,0.5,86.33,0.129,1,0,0,0,0,0,0,0,0,0,90.43,0,1,0,-0.04,0,0,0,90,0,0,0,0,0,0,0,0,0.004,0,0,3,0,0,0,69,0,0,0,90.43,1,0.004,-4.106,0.0462,0.25,1,0.0462,0,0,0,0,0,0,1,1,0,0,VALID,0,0,0,0,0,1,0,0,0,0,0,0,0,0,0,0,0,0,0,0,114.96,517.24,2,0,0.08,0.08,89,14.29,0.08,0.06,5.54,LANDED,CF1-G,0:/Integrated Flight Computer/aircraft/cf1_g_cfg.ks (inferred preloaded)
5.9,TAKEOFF,TO_GROUND_ROLL,3.24,80,76.76,3.7,0.12,0.41,-1.77,86.29,0.133,1,0,0,0,0,0,0,0,0,0,90.44,0,1,0,2.18,0,0,0,90,0,0,0,0,0,0,0,0,0.006,0,0,3,0,0,0,69,0,0,0,90.44,1,0.006,-4.152,0.0467,0.25,1,0.0467,0,0,0,0,0,0,1,1,0,0,VALID,0,0,0,0,0,1,0,0,0,0,0,0,0,0,0,0,0,0,0,0,121.64,517.11,2,0,0.08,0.08,93,14.29,0.08,0.06,5.82,LANDED,CF1-G,0:/Integrated Flight Computer/aircraft/cf1_g_cfg.ks (inferred preloaded)
6.18,TAKEOFF,TO_GROUND_ROLL,3.74,80,76.26,3.72,-0.05,0.57,1.56,86.24,0.131,1,0,0,0,0,0,0,0,0,0,90.44,0,1,0,-0.76,0,0,0,90,0,0,0,0,0,0,0,0,0.007,0,0,3,0,0,0,69,0,0,0,90.44,1,0.007,-4.205,0.0473,0.25,1,0.0473,0,0,0,0,0,0,1,1,0,0,VALID,0,0,0,0,0,1,0,0,0,0,0,0,0,0,0,0,0,0,0,0,128.2,516.98,2,0,0.08,0.08,97,14.29,0.08,0.06,6.1,LANDED,CF1-G,0:/Integrated Flight Computer/aircraft/cf1_g_cfg.ks (inferred preloaded)
6.46,TAKEOFF,TO_GROUND_ROLL,4.27,80,75.73,3.74,-0.04,0.66,1.1,86.19,0.13,1,0,0,0,0,0,0,0,0,0,90.45,0,1,0,-0.6,0,0,0,90,0,0,0,0,0,0,0,0,0.009,0,0,3,0,0,0,69,0,0,0,90.45,1,0.009,-4.261,0.0479,0.25,1,0.0479,0,0,0,0,0,0,1,1,0,0,VALID,0,0,0,0,0,1,0,0,0,0,0,0,0,0,0,0,0,0,0,0,134.64,516.83,2,0,0.08,0.08,101,14.29,0.08,0.06,6.38,LANDED,CF1-G,0:/Integrated Flight Computer/aircraft/cf1_g_cfg.ks (inferred preloaded)
6.74,TAKEOFF,TO_GROUND_ROLL,4.82,80,75.18,3.74,-0.01,0.67,0.73,86.13,0.133,1,0,0,0,0,0,0,0,0,0,90.45,0,1,0,-0.07,0,0,0,90,0,0,0,0,0,0,0,0,0.011,0,0,3,0,0,0,69,0,0,0,90.45,1,0.011,-4.318,0.0486,0.25,1,0.0486,0,0,0,0,0,0,1,1,0,0,VALID,0,0,0,0,0,1,0,0,0,0,0,0,0,0,0,0,0,0,0,0,140.97,516.67,2,0,0.08,0.08,105,14.29,0.08,0.06,6.66,LANDED,CF1-G,0:/Integrated Flight Computer/aircraft/cf1_g_cfg.ks (inferred preloaded)
7.02,TAKEOFF,TO_GROUND_ROLL,5.4,80,74.6,3.73,-0.04,0.6,0.99,86.08,0.136,1,0,0,0,0,0,0,0,0,0,90.45,0,1,0,-0.39,0,0,0,90,0,0,0,0,0,0,0,0,0.013,0,0,3,0,0,0,69,0,0,0,90.45,1,0.013,-4.378,0.0493,0.25,1,0.0493,0,0,0,0,0,0,1,1,0,0,VALID,0,0,0,0,0,1,0,0,0,0,0,0,0,0,0,0,0,0,0,0,147.18,516.5,2,0,0.08,0.08,109,14.29,0.08,0.06,6.94,LANDED,CF1-G,0:/Integrated Flight Computer/aircraft/cf1_g_cfg.ks (inferred preloaded)
7.3,TAKEOFF,TO_GROUND_ROLL,6.01,80,73.99,3.71,-0.03,0.5,0.79,86.02,0.138,1,0,0,0,0,0,0,0,0,0,90.46,0,1,0,-0.32,0,0,0,90,0,0,0,0,0,0,0,0,0.015,0,0,3,0,0,0,69,0,0,0,90.46,1,0.015,-4.44,0.0499,0.25,1,0.0499,0,0,0,0,0,0,1,1,0,0,VALID,0,0,0,0,0,1,0,0,0,0,0,0,0,0,0,0,0,0,0,0,153.29,516.33,2,0,0.08,0.08,113,14.29,0.08,0.06,7.22,LANDED,CF1-G,0:/Integrated Flight Computer/aircraft/cf1_g_cfg.ks (inferred preloaded)
7.58,TAKEOFF,TO_GROUND_ROLL,6.63,80,73.37,3.7,-0.03,0.42,0.69,85.96,0.137,1,0,0,0,0,0,0,0,0,0,90.46,0,1,0,-0.29,0,0,0,90,0,0,0,0,0,0,0,0,0.018,0,0,3,0,0,0,69,0,0,0,90.46,1,0.018,-4.504,0.0507,0.25,1,0.0507,0,0,0,0,0,0,1,1,0,0,VALID,0,0,0,0,0,1,0,0,0,0,0,0,0,0,0,0,0,0,0,0,159.28,516.14,2,0,0.08,0.08,117,14.29,0.08,0.06,7.5,LANDED,CF1-G,0:/Integrated Flight Computer/aircraft/cf1_g_cfg.ks (inferred preloaded)
7.86,TAKEOFF,TO_GROUND_ROLL,7.28,80,72.72,3.7,-0.04,0.4,0.71,85.89,0.137,1,0,0,0,0,0,0,0,0,0,90.47,0,1,0,-0.33,0,0,0,90,0,0,0,0,0,0,0,0,0.021,0,0,3,0,0,0,69,0,0,0,90.47,1,0.021,-4.571,0.0514,0.25,1,0.0514,0,0,0,0,0,0,1,1,0,0,VALID,0,0,0,0,0,1,0,0,0,0,0,0,0,0,0,0,0,0,0,0,165.17,515.94,2,0,0.08,0.08,121,14.29,0.08,0.06,7.78,LANDED,CF1-G,0:/Integrated Flight Computer/aircraft/cf1_g_cfg.ks (inferred preloaded)
8.14,TAKEOFF,TO_GROUND_ROLL,7.96,80,72.04,3.71,-0.05,0.46,0.76,85.83,0.139,1,0,0,0,0,0,0,0,0,0,90.47,0,1,0,-0.33,0,0,0,90,0,0,0,0,0,0,0,0,0.024,0,0,3,0,0,0,69,0,0,0,90.47,1,0.024,-4.639,0.0522,0.25,1,0.0522,0,0,0,0,0,0,1,1,0,0,VALID,0,0,0,0,0,1,0,0,0,0,0,0,0,0,0,0,0,0,0,0,170.94,515.72,2,0,0.08,0.08,125,14.29,0.08,0.06,8.06,LANDED,CF1-G,0:/Integrated Flight Computer/aircraft/cf1_g_cfg.ks (inferred preloaded)
8.42,TAKEOFF,TO_GROUND_ROLL,8.66,80,71.34,3.73,-0.05,0.58,0.87,85.77,0.142,1,0,0,0,0,0,0,0,0,0,90.47,0,1,0,-0.32,0,0,0,90,0,0,0,0,0,0,0,0,0.028,0,0,3,0,0,0,69,0,0,0,90.47,1,0.028,-4.709,0.053,0.25,1,0.053,0,0,0,0,0,0,1,1,0,0,VALID,0,0,0,0,0,1,0,0,0,0,0,0,0,0,0,0,0,0,0,0,176.62,515.5,2,0,0.08,0.08,129,14.29,0.08,0.06,8.34,LANDED,CF1-G,0:/Integrated Flight Computer/aircraft/cf1_g_cfg.ks (inferred preloaded)
8.7,TAKEOFF,TO_GROUND_ROLL,9.38,80,70.62,3.75,-0.05,0.72,1.01,85.7,0.142,1,0,0,0,0,0,0,0,0,0,90.48,0,1,0,-0.33,0,0,0,90,0,0,0,0,0,0,0,0,0.032,0,0,3,0,0,0,69,0,0,0,90.48,1,0.032,-4.78,0.0538,0.25,1,0.0538,0,0,0,0,0,0,1,1,0,0,VALID,0,0,0,0,0,1,0,0,0,0,0,0,0,0,0,0,0,0,0,0,182.18,515.26,2,0,0.08,0.08,133,14.29,0.08,0.06,8.62,LANDED,CF1-G,0:/Integrated Flight Computer/aircraft/cf1_g_cfg.ks (inferred preloaded)
8.98,TAKEOFF,TO_GROUND_ROLL,10.12,80,69.88,3.77,-0.06,0.83,1.12,85.63,0.143,1,0,0,0,0,0,0,0,0,0,90.48,0,1,0,-0.32,0,0,0,90,0,0,0,0,0,0,0,0,0.036,0,0,3,0,0,0,69,0,0,0,90.48,1,0.036,-4.851,0.0546,0.25,1,0.0546,0,0,0,0,0,0,1,1,0,0,VALID,0,0,0,0,0,1,0,0,0,0,0,0,0,0,0,0,0,0,0,0,187.64,515.02,2,0,0.08,0.08,137,14.29,0.08,0.06,8.9,LANDED,CF1-G,0:/Integrated Flight Computer/aircraft/cf1_g_cfg.ks (inferred preloaded)
9.26,TAKEOFF,TO_GROUND_ROLL,10.88,80,69.12,3.78,-0.06,0.88,1.17,85.57,0.144,1,0,0,0,0,0,0,0,0,0,90.49,0,1,0,-0.31,0,0,0,90,0,0,0,0,0,0,0,0,0.041,0,0,3,0,0,0,69,0,0,0,90.49,1,0.041,-4.92,0.0554,0.25,1,0.0554,0,0,0,0,0,0,1,1,0,0,VALID,0,0,0,0,0,1,0,0,0,0,0,0,0,0,0,0,0,0,0,0,193,514.75,2,0,0.08,0.08,141,14.29,0.08,0.06,9.18,LANDED,CF1-G,0:/Integrated Flight Computer/aircraft/cf1_g_cfg.ks (inferred preloaded)
9.54,TAKEOFF,TO_GROUND_ROLL,11.66,80,68.34,3.78,-0.06,0.86,1.16,85.5,0.146,1,0,0,0,0,0,0,0,0,0,90.49,0,1,0,-0.32,0,0,0,90,0,0,0,0,0,0,0,0,0.046,0,0,3,0,0,0,69,0,0,0,90.49,1,0.046,-4.989,0.0561,0.25,1,0.0561,0,0,0,0,0,0,1,1,0,0,VALID,0,0,0,0,0,1,0,0,0,0,0,0,0,0,0,0,0,0,0,0,198.26,514.48,2,0,0.08,0.08,145,14.29,0.08,0.06,9.46,LANDED,CF1-G,0:/Integrated Flight Computer/aircraft/cf1_g_cfg.ks (inferred preloaded)
9.82,TAKEOFF,TO_GROUND_ROLL,12.47,80,67.53,3.77,-0.07,0.81,1.1,85.44,0.147,1,0,0,0,0,0,0,0,0,0,90.5,0,1,0,-0.31,0,0,0,90,0,0,0,0,0,0,0,0,0.052,0,0,3,0,0,0,69,0,0,0,90.5,1,0.052,-5.057,0.0569,0.25,1,0.0569,0,0,0,0,0,0,1,1,0,0,VALID,0,0,0,0,0,1,0,0,0,0,0,0,0,0,0,0,0,0,0,0,203.42,514.19,2,0,0.08,0.08,149,14.29,0.08,0.06,9.74,LANDED,CF1-G,0:/Integrated Flight Computer/aircraft/cf1_g_cfg.ks (inferred preloaded)
10.1,TAKEOFF,TO_GROUND_ROLL,13.3,80,66.7,3.75,-0.07,0.74,1.04,85.38,0.147,1,0,0,0,0,0,0,0,0,0,90.5,0,1,0,-0.31,0,0,0,90,0,0,0,0,0,0,0,0,0.058,0,0,3,0,0,0,69,0,0,0,90.5,1,0.058,-5.124,0.0576,0.25,1,0.0576,0,0,0,0,0,0,1,1,0,0,VALID,0,0,0,0,0,1,0,0,0,0,0,0,0,0,0,0,0,0,0,0,208.48,513.89,2,0,0.08,0.08,153,14.29,0.08,0.06,10.02,LANDED,CF1-G,0:/Integrated Flight Computer/aircraft/cf1_g_cfg.ks (inferred preloaded)
10.38,TAKEOFF,TO_GROUND_ROLL,14.14,80,65.86,3.75,-0.08,0.7,1,85.32,0.148,1,0,0,0,0,0,0,0,0,0,90.51,0,1,0,-0.31,0,0,0,90,0,0,0,0,0,0,0,0,0.065,0,0,3,0,0,0,69,0,0,0,90.51,1,0.065,-5.192,0.0584,0.25,1,0.0584,0,0,0,0,0,0,1,1,0,0,VALID,0,0,0,0,0,1,0,0,0,0,0,0,0,0,0,0,0,0,0,0,213.44,513.58,2,0,0.08,0.08,157,14.29,0.08,0.06,10.3,LANDED,CF1-G,0:/Integrated Flight Computer/aircraft/cf1_g_cfg.ks (inferred preloaded)
10.66,TAKEOFF,TO_GROUND_ROLL,15,80,65,3.75,-0.08,0.72,1.01,85.26,0.149,1,0,0,0,0,0,0,0,0,0,90.52,0,1,0,-0.31,0,0,0,90,0,0,0,0,0,0,0,0,0.072,0,0,3,0,0,0,69,0,0,0,90.52,1,0.072,-5.259,0.0592,0.25,1,0.0592,0,0,0,0,0,0,1,1,0,0,VALID,0,0,0,0,0,1,0,0,0,0,0,0,0,0,0,0,0,0,0,0,218.31,513.25,2,0,0.08,0.08,161,14.29,0.08,0.06,10.58,LANDED,CF1-G,0:/Integrated Flight Computer/aircraft/cf1_g_cfg.ks (inferred preloaded)
10.94,TAKEOFF,TO_GROUND_ROLL,15.89,80,64.11,3.76,-0.09,0.79,1.08,85.2,0.151,1,0,0,0,0,0,0,0,0,0,90.52,0,1,0,-0.31,0,0,0.01,90,0,0,0,0,0,0,0,0,0.08,0,0,3,0,0,0,69,0,0,0,90.52,1,0.08,-5.326,0.0599,0.25,1,0.0599,0,0,0,0,0,0,1,1,0,0,VALID,0,0,0,0,0,1,0,0,0,0,0,0,0,0,0,0,0,0,0,0,223.07,512.91,2,0,0.08,0.08,165,14.29,0.08,0.06,10.86,LANDED,CF1-G,0:/Integrated Flight Computer/aircraft/cf1_g_cfg.ks (inferred preloaded)
11.22,TAKEOFF,TO_GROUND_ROLL,16.79,80,63.21,3.78,-0.09,0.88,1.17,85.14,0.152,1,0,0,0,0,0,0,0,0,0,90.53,0,1,0,-0.31,0,0,0.01,90,0,0,0,0,0,0,0,0,0.088,0,0,3,0,0,0,69,0,0,0,90.53,1,0.088,-5.393,0.0607,0.25,1,0.0607,0,0,0,0,0,0,1,1,0,0,VALID,0,0,0,0,0,1,0,0,0,0,0,0,0,0,0,0,0,0,0,0,227.75,512.55,2,0,0.08,0.08,169,14.29,0.08,0.06,11.14,LANDED,CF1-G,0:/Integrated Flight Computer/aircraft/cf1_g_cfg.ks (inferred preloaded)
11.5,TAKEOFF,TO_GROUND_ROLL,17.71,80,62.29,3.79,-0.1,0.98,1.26,85.08,0.152,1,0,0,0,0,0,0,0,0,0,90.54,0,1,0,-0.31,0,0,0.01,90,0,0,0,0,0,0,0,0,0.097,0,0,3,0,0,0,69,0,0,0,90.54,1,0.097,-5.458,0.0614,0.25,1,0.0614,0,0,0,0,0,0,1,1,0,0,VALID,0,0,0,0,0,1,0,0,0,0,0,0,0,0,0,0,0,0,0,0,232.33,512.18,2,0,0.08,0.08,173,14.29,0.08,0.06,11.42,LANDED,CF1-G,0:/Integrated Flight Computer/aircraft/cf1_g_cfg.ks (inferred preloaded)
11.78,TAKEOFF,TO_GROUND_ROLL,18.65,80,61.35,3.81,-0.1,1.05,1.33,85.02,0.152,1,0,0,0,0,0,0,0,0,0,90.55,0,1,0,-0.31,0,0,0.01,90,0,0,0,0,0,0,0,0,0.106,0,0,3,0,0,0,69,0,0,0,90.55,1,0.106,-5.521,0.0621,0.25,1,0.0621,0,0,0,0,0,0,1,1,0,0,VALID,0,0,0,0,0,1,0,0,0,0,0,0,0,0,0,0,0,0,0,0,236.82,511.8,2,0,0.08,0.08,177,14.29,0.08,0.06,11.7,LANDED,CF1-G,0:/Integrated Flight Computer/aircraft/cf1_g_cfg.ks (inferred preloaded)
12.06,TAKEOFF,TO_GROUND_ROLL,19.61,80,60.39,3.81,-0.11,1.07,1.36,84.97,0.152,1,0,0,0,0,0,0,0,0,0,90.55,0,1,0,-0.31,0,0,0.01,90,0,0,0,0,0,0,0,0,0.116,0,0,3,0,0,0,69,0,0,0,90.55,1,0.116,-5.581,0.0628,0.25,1,0.0628,0,0,0,0,0,0,1,1,0,0,VALID,0,0,0,0,0,1,0,0,0,0,0,0,0,0,0,0,0,0,0,0,241.21,511.39,2,0,0.08,0.08,181,14.29,0.08,0.06,11.98,LANDED,CF1-G,0:/Integrated Flight Computer/aircraft/cf1_g_cfg.ks (inferred preloaded)
12.34,TAKEOFF,TO_GROUND_ROLL,20.58,80,59.42,3.81,-0.11,1.05,1.34,84.92,0.153,1,0,0,0,0,0,0,0,0,0,90.56,0,1,0,-0.3,0,0,0.01,90,0,0,0,0,0,0,0,0,0.127,0,0,3,0,0,0,69,0,0,0,90.56,1,0.127,-5.64,0.065,0.256,0,0.065,0,0,0,0,0,0,1,1,0,0,VALID,0,0,0,0,0,1,0,0,0,0,0,0,0,0,0,0,0,0,0,0,245.52,510.98,2,0,0.08,0.08,185,14.29,0.08,0.06,12.26,LANDED,CF1-G,0:/Integrated Flight Computer/aircraft/cf1_g_cfg.ks (inferred preloaded)
12.62,TAKEOFF,TO_GROUND_ROLL,21.57,80,58.43,3.8,-0.11,1.01,1.3,84.87,0.152,1,0,0,0,0,0,0,0,0,0,90.57,0,1,0,-0.3,0,0,0.01,90,0,0,0,0,0,0,0,0,0.138,0,0,3,0,0,0,69,0,0,0,90.57,1,0.138,-5.697,0.0684,0.267,0,0.0684,0,0,0,0,0,0,1,1,0,0,VALID,0,0,0,0,0,1,0,0,0,0,0,0,0,0,0,0,0,0,0,0,249.73,510.55,2,0,0.08,0.08,189,14.29,0.08,0.06,12.54,LANDED,CF1-G,0:/Integrated Flight Computer/aircraft/cf1_g_cfg.ks (inferred preloaded)
12.9,TAKEOFF,TO_GROUND_ROLL,22.57,80,57.43,3.79,-0.12,0.98,1.27,84.83,0.153,1,0,0,0,0,0,0,0,0,0,90.58,0,1,0,-0.3,0,0,0.01,90,0,0,0,0,0,0,0,0,0.15,0,0,3,0,0,0,69,0,0,0,90.58,1,0.15,-5.752,0.0718,0.278,0,0.0718,0,0,0,0,0,0,1,1,0,0,VALID,0,0,0,0,0,1,0,0,0,0,0,0,0,0,0,0,0,0,0,0,253.86,510.1,2,0,0.08,0.08,193,14.29,0.08,0.06,12.82,LANDED,CF1-G,0:/Integrated Flight Computer/aircraft/cf1_g_cfg.ks (inferred preloaded)
13.18,TAKEOFF,TO_GROUND_ROLL,23.59,80,56.41,3.79,-0.12,0.98,1.26,84.79,0.153,1,0,0,0,0,0,0,0,0,0,90.59,0,1,0,-0.3,0,0,0.01,90,0,0,0,0,0,0,0,0,0.162,0,0,3,0,0,0,69,0,0,0,90.59,1,0.162,-5.806,0.0754,0.289,0,0.0754,0,0,0,0,0,0,1,1,0,0,VALID,0,0,0,0,0,1,0,0,0,0,0,0,0,0,0,0,0,0,0,0,257.9,509.64,2,0,0.08,0.08,197,14.29,0.08,0.06,13.1,LANDED,CF1-G,0:/Integrated Flight Computer/aircraft/cf1_g_cfg.ks (inferred preloaded)
13.46,TAKEOFF,TO_GROUND_ROLL,24.63,80,55.37,3.8,-0.13,1.01,1.3,84.75,0.153,1,0,0,0,0,0,0,0,0,0,90.6,0,1,0,-0.3,0,0,0.01,90,0,0,0,0,0,0,0,0,0.175,0,0,3,0,0,0,69,0,0,0,90.6,1,0.175,-5.858,0.079,0.3,0,0.079,0,0,0,0,0,0,1,1,0,0,VALID,0,0,0,0,0,1,0,0,0,0,0,0,0,0,0,0,0,0,0,0,261.85,509.17,2,0,0.08,0.08,201,14.29,0.08,0.06,13.38,LANDED,CF1-G,0:/Integrated Flight Computer/aircraft/cf1_g_cfg.ks (inferred preloaded)
13.74,TAKEOFF,TO_GROUND_ROLL,25.68,80,54.32,3.81,-0.13,1.07,1.35,84.71,0.152,1,0,0,0,0,0,0,0,0,0,90.62,0,1,0,-0.3,0,0,0.01,90,0,0,0,0,0,0,0,0,0.189,0,0,3,0,0,0,69,0,0,0,90.62,1,0.189,-5.908,0.0827,0.311,0,0.0827,0,0,0,0,0,0,1,1,0,0,VALID,0,0,0,0,0,1,0,0,0,0,0,0,0,0,0,0,0,0,0,0,265.72,508.67,2,0,0.08,0.08,205,14.29,0.08,0.06,13.66,LANDED,CF1-G,0:/Integrated Flight Computer/aircraft/cf1_g_cfg.ks (inferred preloaded)
14.02,TAKEOFF,TO_GROUND_ROLL,26.75,80,53.25,3.82,-0.14,1.14,1.42,84.67,0.151,1,0,0,0,0,0,0,0,0,0,90.63,0,1,0,-0.3,0,0,0.01,90,0,0,0,0,0,0,0,0,0.203,0,0,3,0,0,0,69,0,0,0,90.63,1,0.203,-5.956,0.0864,0.322,0,0.0864,0,0,0,0,0,0,1,1,0,0,VALID,0,0,0,0,0,1,0,0,0,0,0,0,0,0,0,0,0,0,0,0,269.5,508.17,2,0,0.08,0.08,209,14.29,0.08,0.06,13.94,LANDED,CF1-G,0:/Integrated Flight Computer/aircraft/cf1_g_cfg.ks (inferred preloaded)
14.3,TAKEOFF,TO_GROUND_ROLL,27.83,80,52.17,3.83,-0.15,1.2,1.48,84.64,0.15,1,0,0,0,0,0,0,0,0,0,90.64,0,1,0,-0.3,0,0,0.01,90,0,0,0,0,0,0,0,0,0.218,0,0,3,0,0,0,69,0,0,0,90.64,1,0.218,-6,0.0902,0.334,0,0.0902,0,0,0,0,0,0,1,1,0,0,VALID,0,0,0,0,0,1,0,0,0,0,0,0,0,0,0,0,0,0,0,0,273.2,507.64,2,0,0.08,0.08,213,14.29,0.08,0.06,14.22,LANDED,CF1-G,0:/Integrated Flight Computer/aircraft/cf1_g_cfg.ks (inferred preloaded)
14.58,TAKEOFF,TO_GROUND_ROLL,28.93,80,51.07,3.84,-0.15,1.23,1.51,84.61,0.148,1,0,0,0,0,0,0,0,0,0,90.65,0,1,0,-0.3,0,0,0.01,90,0,0,0,0,0,0,0,0,0.234,0,0,3,0,0,0,69,0,0,0,90.65,1,0.234,-6.042,0.094,0.346,0,0.094,0,0,0,0,0,0,1,1,0,0,VALID,0,0,0,0,0,1,0,0,0,0,0,0,0,0,0,0,0,0,0,0,276.81,507.11,2,0,0.08,0.08,217,14.29,0.08,0.06,14.5,LANDED,CF1-G,0:/Integrated Flight Computer/aircraft/cf1_g_cfg.ks (inferred preloaded)
14.86,TAKEOFF,TO_GROUND_ROLL,30.04,80,49.96,3.84,-0.16,1.24,1.52,84.59,0.146,1,0,0,0,0,0,0,0,0,0,90.67,0,1,0,-0.3,0,0,0.01,90,0,0,0,0,0,0,0,0,0.25,0,0,3,0,0,0,69,0,0,0,90.67,1,0.25,-6.079,0.0978,0.358,0,0.0978,0,0,0,0,0,0,1,1,0,0,VALID,0,0,0,0,0,1,0,0,0,0,0,0,0,0,0,0,0,0,0,0,280.35,506.55,2,0,0.08,0.08,221,14.29,0.08,0.06,14.78,LANDED,CF1-G,0:/Integrated Flight Computer/aircraft/cf1_g_cfg.ks (inferred preloaded)
15.14,TAKEOFF,TO_GROUND_ROLL,31.16,80,48.84,3.84,-0.16,1.23,1.51,84.57,0.145,1,0,0,0,0,0,0,0,0,0,90.68,0,1,0,-0.29,0,0,0.01,90,0,0,0,0,0,0,0,0,0.268,0,0,3,0,0,0,69,0,0,0,90.68,1,0.268,-6.112,0.1017,0.37,0,0.1017,0,0,0,0,0,0,1,1,0,0,VALID,0,0,0,0,0,1,0,0,0,0,0,0,0,0,0,0,0,0,0,0,283.8,505.98,2,0,0.08,0.08,225,14.29,0.08,0.06,15.06,LANDED,CF1-G,0:/Integrated Flight Computer/aircraft/cf1_g_cfg.ks (inferred preloaded)
15.42,TAKEOFF,TO_GROUND_ROLL,32.29,80,47.71,3.84,-0.17,1.22,1.5,84.55,0.143,1,0,0,0,0,0,0,0,0,0,90.7,0,1,0,-0.29,0,0,0.02,90,0,0,0,0,0,0,0,0,0.285,0,0,3,0,0,0,69,0,0,0,90.7,1,0.285,-6.143,0.1055,0.382,0,0.1055,0,0,0,0,0,0,1,1,0,0,VALID,0,0,0,0,0,1,0,0,0,0,0,0,0,0,0,0,0,0,0,0,287.17,505.4,2,0,0.08,0.08,229,14.29,0.08,0.06,15.34,LANDED,CF1-G,0:/Integrated Flight Computer/aircraft/cf1_g_cfg.ks (inferred preloaded)
15.7,TAKEOFF,TO_GROUND_ROLL,33.44,80,46.56,3.84,-0.17,1.22,1.5,84.54,0.14,1,0,0,0,0,0,0,0,0,0,90.71,0,1,0,-0.29,0,0,0.02,90,0,0,0,0,0,0,0,0,0.304,0,0,3,0,0,0,69,0,0,0,90.71,1,0.304,-6.171,0.1094,0.394,0,0.1094,0,0,0,0,0,0,1,1,0,0,VALID,0,0,0,0,0,1,0,0,0,0,0,0,0,0,0,0,0,0,0,0,290.47,504.8,2,0,0.08,0.08,233,14.29,0.08,0.06,15.62,LANDED,CF1-G,0:/Integrated Flight Computer/aircraft/cf1_g_cfg.ks (inferred preloaded)
15.98,TAKEOFF,TO_GROUND_ROLL,34.6,80,45.4,3.84,-0.18,1.24,1.52,84.53,0.137,1,0,0,0,0,0,0,0,0,0,90.73,0,1,0,-0.29,0,0,0.02,90,0,0,0,0,0,0,0,0,0.323,0,0,3,0,0,0,69,0,0,0,90.73,1,0.323,-6.194,0.1133,0.406,0,0.1133,0,0,0,0,0,0,1,1,0,0,VALID,0,0,0,0,0,1,0,0,0,0,0,0,0,0,0,0,0,0,0,0,293.68,504.18,2,0,0.08,0.08,237,14.29,0.08,0.06,15.9,LANDED,CF1-G,0:/Integrated Flight Computer/aircraft/cf1_g_cfg.ks (inferred preloaded)
16.26,TAKEOFF,TO_GROUND_ROLL,35.77,80,44.23,3.85,-0.18,1.28,1.55,84.53,0.134,1,0,0,0,0,0,0,0,0,0,90.74,0,1,0,-0.29,0,0,0.02,90,0,0,0,0,0,0,0,0,0.343,0,0,3,0,0,0,69,0,0,0,90.74,1,0.343,-6.214,0.1172,0.419,0,0.1172,0,0,0,0,0,0,1,1,0,0,VALID,0,0,0,0,0,1,0,0,0,0,0,0,0,0,0,0,0,0,0,0,296.82,503.55,2,0,0.08,0.08,241,14.29,0.08,0.06,16.18,LANDED,CF1-G,0:/Integrated Flight Computer/aircraft/cf1_g_cfg.ks (inferred preloaded)
16.54,TAKEOFF,TO_GROUND_ROLL,36.96,80,43.04,3.85,-0.19,1.32,1.59,84.53,0.131,1,0,0,0,0,0,0,0,0,0,90.76,0,1,0,-0.29,0,0,0.02,90,0,0,0,0,0,0,0,0,0.363,0,0,3,0,0,0,69,0,0,0,90.76,1,0.363,-6.229,0.121,0.432,0,0.121,0,0,0,0,0,0,1,1,0,0,VALID,0,0,0,0,0,1,0,0,0,0,0,0,0,0,0,0,0,0,0,0,299.88,502.9,2,0,0.08,0.08,245,14.29,0.08,0.06,16.46,LANDED,CF1-G,0:/Integrated Flight Computer/aircraft/cf1_g_cfg.ks (inferred preloaded)
16.82,TAKEOFF,TO_GROUND_ROLL,38.15,80,41.85,3.86,-0.19,1.36,1.63,84.54,0.127,1,0,0,0,0,0,0,0,0,0,90.78,0,1,0,-0.29,0,0,0.02,90,0,0,0,0,0,0,0,0,0.385,0,0,3,0,0,0,69,0,0,0,90.78,1,0.385,-6.241,0.1248,0.444,0,0.1248,0,0,0,0,0,0,1,1,0,0,VALID,0,0,0,0,0,1,0,0,0,0,0,0,0,0,0,0,0,0,0,0,302.87,502.24,2,0,0.08,0.08,249,14.29,0.08,0.06,16.74,LANDED,CF1-G,0:/Integrated Flight Computer/aircraft/cf1_g_cfg.ks (inferred preloaded)
17.1,TAKEOFF,TO_GROUND_ROLL,39.36,80,40.64,3.87,-0.2,1.39,1.66,84.55,0.122,1,0,0,0,0,0,0,0,0,0,90.8,0,1,0,-0.29,0,0,0.02,90,0,0,0,0,0,0,0,0,0.406,0,0,3,0,0,0,69,0,0,0,90.8,1,0.406,-6.246,0.1286,0.457,0,0.1286,0,0,0,0,0,0,1,1,0,0,VALID,0,0,0,0,0,1,0,0,0,0,0,0,0,0,0,0,0,0,0,0,305.78,501.57,2,0,0.08,0.08,253,14.29,0.08,0.06,17.02,LANDED,CF1-G,0:/Integrated Flight Computer/aircraft/cf1_g_cfg.ks (inferred preloaded)
17.38,TAKEOFF,TO_GROUND_ROLL,40.57,80,39.43,3.87,-0.2,1.41,1.68,84.57,0.117,1,0,0,0,0,0,0,0,0,0,90.82,0,1,0,-0.29,0,0,0.02,90,0,0,0,0,0,0,0,0,0.429,0,0,3,0,0,0,69,0,0,0,90.82,1,0.429,-6.248,0.1323,0.47,0,0.1323,0,0,0,0,0,0,1,1,0,0,VALID,0,0,0,0,0,1,0,0,0,0,0,0,0,0,0,0,0,0,0,0,308.62,500.88,2,0,0.08,0.08,257,14.29,0.08,0.06,17.3,LANDED,CF1-G,0:/Integrated Flight Computer/aircraft/cf1_g_cfg.ks (inferred preloaded)
17.66,TAKEOFF,TO_GROUND_ROLL,41.8,80,38.2,3.87,-0.21,1.41,1.68,84.59,0.112,1,0,0,0,0,0,0,0,0,0,90.83,0,1,0,-0.29,0,0,0.02,90,0,0,0,0,0,0,0,0,0.452,0,0,3,0,0,0,69,0,0,0,90.83,1,0.452,-6.244,0.1359,0.484,0,0.1359,0,0,0,0,0,0,1,1,0,0,VALID,0,0,0,0,0,1,0,0,0,0,0,0,0,0,0,0,0,0,0,0,311.39,500.17,2,0,0.08,0.08,261,14.29,0.08,0.06,17.58,LANDED,CF1-G,0:/Integrated Flight Computer/aircraft/cf1_g_cfg.ks (inferred preloaded)
17.94,TAKEOFF,TO_GROUND_ROLL,43.03,80,36.97,3.87,-0.21,1.42,1.68,84.62,0.107,1,0,0,0,0,0,0,0,0,0,90.85,0,1,0,-0.28,0,0,0.03,90,0,0,0,0,0,0,0,0,0.475,0,0,3,0,0,0,69,0,0,0,90.85,1,0.475,-6.235,0.1394,0.497,0,0.1394,0,0,0,0,0,0,1,1,0,0,VALID,0,0,0,0,0,1,0,0,0,0,0,0,0,0,0,0,0,0,0,0,314.09,499.45,2,0,0.08,0.08,265,14.29,0.08,0.06,17.86,LANDED,CF1-G,0:/Integrated Flight Computer/aircraft/cf1_g_cfg.ks (inferred preloaded)
18.22,TAKEOFF,TO_GROUND_ROLL,44.28,80,35.72,3.87,-0.22,1.43,1.69,84.65,0.101,1,0,0,0,0,0,0,0,0,0,90.87,0,1,0,-0.28,0,0,0.03,90,0,0,0,0,0,0,0,0,0.499,0,0,3,0,0,0,69,0,0,0,90.87,1,0.499,-6.221,0.1428,0.51,0,0.1428,0,0,0,0,0,0,1,1,0,0,VALID,0,0,0,0,0,1,0,0,0,0,0,0,0,0,0,0,0,0,0,0,316.71,498.72,2,0,0.08,0.08,269,14.29,0.08,0.06,18.14,LANDED,CF1-G,0:/Integrated Flight Computer/aircraft/cf1_g_cfg.ks (inferred preloaded)
18.5,TAKEOFF,TO_GROUND_ROLL,45.53,80,34.47,3.88,-0.22,1.44,1.71,84.69,0.095,1,0,0,0,0,0,0,0,0,0,90.89,0,1,0,-0.28,0,0,0.03,90,0,0,0,0,0,0,0,0,0.524,0,0,3,0,0,0,69,0,0,0,90.89,1,0.524,-6.202,0.1461,0.524,0,0.1461,0,0,0,0,0,0,1,1,0,0,VALID,0,0,0,0,0,1,0,0,0,0,0,0,0,0,0,0,0,0,0,0,319.27,497.97,2,0,0.08,0.08,273,14.29,0.08,0.06,18.42,LANDED,CF1-G,0:/Integrated Flight Computer/aircraft/cf1_g_cfg.ks (inferred preloaded)
18.78,TAKEOFF,TO_GROUND_ROLL,46.8,80,33.2,3.88,-0.23,1.47,1.73,84.74,0.088,1,0,0,0,0,0,0,0,0,0,90.91,0,1,0,-0.28,0,0,0.03,90,0,0,0,0,0,0,0,0,0.549,0,0,3,0,0,0,69,0,0,0,90.91,1,0.549,-6.177,0.1493,0.537,0,0.1493,0,0,0,0,0,0,1,1,0,0,VALID,0,0,0,0,0,1,0,0,0,0,0,0,0,0,0,0,0,0,0,0,321.76,497.21,2,0,0.08,0.08,277,14.29,0.08,0.06,18.7,LANDED,CF1-G,0:/Integrated Flight Computer/aircraft/cf1_g_cfg.ks (inferred preloaded)
19.06,TAKEOFF,TO_GROUND_ROLL,48.07,80,31.93,3.88,-0.23,1.5,1.76,84.79,0.081,1,0,0,0,0,0,0,0,0,0,90.94,0,1,0,-0.28,0,0,0.03,90,0,0,0,0,0,0,0,0,0.575,0,0,3,0,0,0,69,0,0,0,90.94,1,0.575,-6.148,0.1524,0.551,0,0.1524,0,0,0,0,0,0,1,1,0,0,VALID,0,0,0,0,0,1,0,0,0,0,0,0,0,0,0,0,0,0,0,0,324.18,496.44,2,0,0.08,0.08,281,14.29,0.08,0.06,18.98,LANDED,CF1-G,0:/Integrated Flight Computer/aircraft/cf1_g_cfg.ks (inferred preloaded)
19.34,TAKEOFF,TO_GROUND_ROLL,49.35,80,30.65,3.89,-0.24,1.52,1.79,84.85,0.074,1,0,0,0,0,0,0,0,0,0,90.96,0,1,0,-0.28,0,0,0.03,90,0,0,0,0,0,0,0,0,0.6,0,0,3,0,0,0,69,0,0,0,90.96,1,0.6,-6.111,0.1552,0.564,0,0.1552,0,0,0,0,0,0,1,1,0,0,VALID,0,0,0,0,0,1,0,0,0,0,0,0,0,0,0,0,0,0,0,0,326.53,495.65,2,0,0.08,0.08,285,14.29,0.08,0.06,19.26,LANDED,CF1-G,0:/Integrated Flight Computer/aircraft/cf1_g_cfg.ks (inferred preloaded)
19.62,TAKEOFF,TO_GROUND_ROLL,50.64,80,29.36,3.89,-0.24,1.55,1.81,84.91,0.066,1,0,0,0,0,0,0,0,0,0,90.98,0,1,0,-0.27,0,0,0.03,90,0,0,0,0,0,0,0,0,0.627,0,0,3,0,0,0,69,0,0,0,90.98,1,0.627,-6.071,0.158,0.578,0,0.158,0,0,0,0,0,0,1,1,0,0,VALID,0,0,0,0,0,1,0,0,0,0,0,0,0,0,0,0,0,0,0,0,328.82,494.85,2,0,0.08,0.08,289,14.29,0.08,0.06,19.54,LANDED,CF1-G,0:/Integrated Flight Computer/aircraft/cf1_g_cfg.ks (inferred preloaded)
19.9,TAKEOFF,TO_GROUND_ROLL,51.93,80,28.07,3.9,-0.25,1.56,1.82,84.98,0.058,1,0,0,0,0,0,0,0,0,0,91,0,1,0,-0.27,0,0,0.03,90,0,0,0,0,0,0,0,0,0.653,0,0,3,0,0,0,69,0,0,0,91,1,0.653,-6.025,0.1605,0.592,0,0.1605,0,0,0,0,0,0,1,1,0,0,VALID,0,0,0,0,0,1,0,0,0,0,0,0,0,0,0,0,0,0,0,0,331.05,494.04,2,0,0.08,0.08,293,14.29,0.08,0.06,19.82,LANDED,CF1-G,0:/Integrated Flight Computer/aircraft/cf1_g_cfg.ks (inferred preloaded)
20.18,TAKEOFF,TO_GROUND_ROLL,53.23,80,26.77,3.9,-0.25,1.57,1.83,85.05,0.051,1,0,0,0,0,0,0,0,0,0,91.03,0,1,0,-0.27,0,0,0.04,90,0,0,0,0,0,0,0,0,0.68,0,0,3,0,0,0,69,0,0,0,91.03,1,0.68,-5.974,0.1629,0.606,0,0.1629,0,0,0,0,0,0,1,1,0,0,VALID,0,0,0,0,0,1,0,0,0,0,0,0,0,0,0,0,0,0,0,0,333.21,493.22,2,0,0.08,0.08,297,14.29,0.08,0.06,20.1,LANDED,CF1-G,0:/Integrated Flight Computer/aircraft/cf1_g_cfg.ks (inferred preloaded)
20.46,TAKEOFF,TO_GROUND_ROLL,54.54,80,25.46,3.9,-0.26,1.58,1.84,85.13,0.043,1,0,0,0,0,0,0,0,0,0,91.05,0,1,0,-0.27,0,0,0.04,90,0,0,0,0,0,0,0,0,0.707,0,0,3,0,0,0,69,0,0,0,91.05,1,0.707,-5.917,0.1651,0.62,0,0.1651,0,0,0,0,0,0,1,1,0,0,VALID,0,0,0,0,0,1,0,0,0,0,0,0,0,0,0,0,0,0,0,0,335.31,492.38,2,0,0.08,0.08,301,14.29,0.08,0.06,20.38,LANDED,CF1-G,0:/Integrated Flight Computer/aircraft/cf1_g_cfg.ks (inferred preloaded)
20.74,TAKEOFF,TO_GROUND_ROLL,55.86,80,24.14,3.9,-0.26,1.6,1.85,85.22,0.033,1,0,0,0,0,0,0,0,0,0,91.07,0,1,0,-0.27,0,0,0.04,90,0,0,0,0,0,0,0,0,0.735,0,0,3,0,0,0,69,0,0,0,91.07,1,0.735,-5.856,0.1671,0.634,0,0.1671,0,0,0,0,0,0,1,1,0,0,VALID,0,0,0,0,0,1,0,0,0,0,0,0,0,0,0,0,0,0,0,0,337.35,491.53,2,0,0.08,0.08,305,14.29,0.08,0.06,20.66,LANDED,CF1-G,0:/Integrated Flight Computer/aircraft/cf1_g_cfg.ks (inferred preloaded)
21.02,TAKEOFF,TO_GROUND_ROLL,57.18,80,22.82,3.91,-0.26,1.62,1.87,85.31,0.013,1,0,0,0,0,0,0,0,0,0,91.1,0,1,0,-0.26,0,0,0.04,90,0,0,0,0,0,0,0,0,0.762,0,0,3,0,0,0,69,0,0,0,91.1,1,0.762,-5.792,0.169,0.648,0,0.169,0,0,0,0,0,0,1,1,0,0,VALID,0,0,0,0,0,1,0,0,0,0,0,0,0,0,0,0,0,0,0,0,339.33,490.68,2,0,0.08,0.08,309,14.29,0.08,0.06,20.94,LANDED,CF1-G,0:/Integrated Flight Computer/aircraft/cf1_g_cfg.ks (inferred preloaded)
21.3,TAKEOFF,TO_GROUND_ROLL,58.51,80,21.49,3.92,-0.27,1.67,1.91,85.4,-0.018,1,0,0,0,0,0,0,0,0,0,91.12,0,1,0,-0.26,0,0,0.04,90,0,0,0,0,0,0,0,0,0.79,0,0,3,0,0,0,69,0,0,0,91.12,1,0.79,-5.723,0.1707,0.663,0,0.1707,0,0,0,0,0,0,1,1,0,0,VALID,0,0,0,0,0,1,0,0,0,0,0,0,0,0,0,0,0,0,0,0,341.25,489.81,2,0,0.08,0.08,313,14.29,0.08,0.06,21.22,LANDED,CF1-G,0:/Integrated Flight Computer/aircraft/cf1_g_cfg.ks (inferred preloaded)
21.58,TAKEOFF,TO_GROUND_ROLL,59.84,80,20.16,3.93,-0.27,1.73,1.97,85.49,-0.057,1,0,0,0,0,0,0,0,0,0,91.15,0,1,0,-0.26,0,0,0.04,90,0,0,0,0,0,0,0,0,0.818,0,0,3,0,0,0,69,0,0,0,91.15,1,0.818,-5.654,0.1722,0.677,0,0.1722,0,0,0,0,0,0,1,1,0,0,VALID,0,0,0,0,0,1,0,0,0,0,0,0,0,0,0,0,0,0,0,0,343.11,488.93,2,0,0.08,0.08,317,14.29,0.08,0.06,21.5,LANDED,CF1-G,0:/Integrated Flight Computer/aircraft/cf1_g_cfg.ks (inferred preloaded)
21.86,TAKEOFF,TO_GROUND_ROLL,61.18,80,18.82,3.96,-0.29,1.94,2.16,85.59,-0.101,1,0,0,0,0,0,0,0,0,0,91.18,0,1,0,-0.27,0,0,0.05,90,0,0,0,0,0,0,0,0,0.845,0,0,3,0,0,0,69,0,0,0,91.18,1,0.845,-5.583,0.1737,0.691,0,0.1737,0,0,0,0,0,0,1,1,0,0,VALID,0,0,0,0,0,1,0,0,0,0,0,0,0,0,0,0,0,0,0,0,344.91,488.04,2,0,0.08,0.08,321,14.29,0.08,0.06,21.78,LANDED,CF1-G,0:/Integrated Flight Computer/aircraft/cf1_g_cfg.ks (inferred preloaded)
22.14,TAKEOFF,TO_GROUND_ROLL,62.51,80,17.49,4.15,0.01,2.84,2.77,85.69,-0.145,1,0,0,0,0,0,0,0,0,0,91.2,0,1,0,0.01,0,0,0.05,90,0,0,0,0,0,0,0,0,0.873,0,0,3,0,0,0,69,0,0,0,91.2,1,0.873,-5.514,0.1751,0.705,0,0.1751,0,0,0,0,0,0,1,1,0,0,VALID,0,0,0,0,0,1,0,0,0,0,0,0,0,0,0,0,0,0,0,0,346.67,487.15,2,0,0.08,0.08,325,14.29,0.08,0.06,22.06,LANDED,CF1-G,0:/Integrated Flight Computer/aircraft/cf1_g_cfg.ks (inferred preloaded)
22.42,TAKEOFF,TO_GROUND_ROLL,63.83,80,16.17,4.44,-0.38,4.24,4.44,85.8,-0.075,1,0,0,0,0,0,0,0,0,0,91.22,0,1,0,-0.34,0,0,0.05,90,0,0,0,0,0,0,0,0,0.901,0,0,3,0,0,0,69,0,0,0,91.22,1,0.901,-5.418,0.1754,0.72,0,0.1754,0,0,0,0,0,0,1,1,0,0,VALID,0,0,0,0,0,1,0,0,0,0,0,0,0,0,0,0,0,0,0,0,348.37,486.26,2,0,0.08,0.08,329,14.29,0.08,0.06,22.34,LANDED,CF1-G,0:/Integrated Flight Computer/aircraft/cf1_g_cfg.ks (inferred preloaded)
22.7,TAKEOFF,TO_GROUND_ROLL,65.13,80,14.87,4.72,-0.08,5.74,5.71,85.91,-0.024,1,0,0,0,0,0,0,0,0,0,91.25,0,1,0,-0.07,0,0,0.05,90,0,0,0,0,0,0,0,0,0.928,0,0,3,0,0,0,69,0,0,0,91.25,1,0.928,-5.331,0.176,0.734,0,0.176,0,0,0,0,0,0,1,1,0,0,VALID,0,0,0,0,0,1,0,0,0,0,0,0,0,0,0,0,0,0,0,0,350.04,485.38,2,0,0.08,0.08,333,14.29,0.08,0.06,22.62,LANDED,CF1-G,0:/Integrated Flight Computer/aircraft/cf1_g_cfg.ks (inferred preloaded)
22.98,TAKEOFF,TO_GROUND_ROLL,66.38,80,13.62,4.98,-0.3,7.17,7.33,86.05,0.007,1,0,0,0,0,0,0,0,0,0,91.26,0,1,0,-0.26,0,0,0.05,90,0,0,0,0,0,0,0,0,0.955,0,0,3,0,0,0,69,0,0,0,91.26,1,0.955,-5.211,0.1752,0.747,0,0.1752,0,0,0,0,0,0,1,1,0,0,VALID,0,0,0,0,0,1,0,0,0,0,0,0,0,0,0,0,0,0,0,0,351.67,484.53,2,0,0.08,0.08,337,14.29,0.08,0.06,22.9,LANDED,CF1-G,0:/Integrated Flight Computer/aircraft/cf1_g_cfg.ks (inferred preloaded)
23.26,TAKEOFF,TO_GROUND_ROLL,67.59,80,12.41,5.22,-0.23,8.42,8.51,86.18,-0.064,1,0,0,0,0,0,0,0,0,0,91.29,0,1,0,-0.19,0,0,0.05,90,0,0,0,0,0,0,0,0,0.982,0,0,3,0,0,0,69,0,0,0,91.29,1,0.982,-5.107,0.1746,0.76,0,0.1746,0,0,0,0,0,0,1,1,0,0,VALID,0,0,0,0,0,1,0,0,0,0,0,0,0,0,0,0,0,0,0,0,353.28,483.7,2,0,0.08,0.08,341,14.29,0.08,0.06,23.18,LANDED,CF1-G,0:/Integrated Flight Computer/aircraft/cf1_g_cfg.ks (inferred preloaded)
23.54,TAKEOFF,TO_GROUND_ROLL,68.73,80,11.27,5.4,-0.27,9.47,9.62,86.33,-0.074,1,0,0,0,0,0,0,0,0,0,91.29,0,1,0,-0.23,0,0,0.06,90,0,0,0,0,0,0,0,0,1.009,0,0,3,0,0,0,69,0,0,0,91.29,1,1.009,-4.956,0.1722,0.772,0,0.1722,0,0,0,0,0,0,1,1,0,0,VALID,0,0,0,0,0,1,0,0,0,0,0,0,0,0,0,0,0,0,0,0,354.88,482.92,2,0,0.08,0.08,345,14.29,0.08,0.06,23.46,LANDED,CF1-G,0:/Integrated Flight Computer/aircraft/cf1_g_cfg.ks (inferred preloaded)
23.82,TAKEOFF,TO_GROUND_ROLL,69.83,80,10.17,5.55,-0.23,10.24,10.38,86.51,-0.074,1,0,0,0,0,0,0,0,0,0,91.31,0,1,0,-0.19,0,0,0.06,90,0,0,0,0,0,0,0,0,1.036,0,0,3,0,0,0,69,0,0,0,91.31,1,1.036,-4.807,0.1696,0.784,0,0.1696,0,0,0,0,0,0,1,1,0,0,VALID,0,0,0,0,0,1,0,0,0,0,0,0,0,0,0,0,0,0,0,0,356.45,482.16,2,0,0.08,0.08,349,14.29,0.08,0.06,23.74,LANDED,CF1-G,0:/Integrated Flight Computer/aircraft/cf1_g_cfg.ks (inferred preloaded)
24.1,TAKEOFF,TO_ROTATE,70.88,80,9.12,5.66,-0.14,10.71,10.81,86.68,-0.127,1,0,0,0,0,0,0,0,0,0,90.4,10,1,0,-0.12,0,0,0.06,90,-0.7057,-0.0067,-0.7085,10,90.4,0,0,0,0,0,0,3,0,0,0,69,0,0,0,90.4,1,0,-3.721,0,0,3,0,0,0,10,-0.71,0,0,1,1,0,0,VALID,0,0,0,0,0,1,0,0,0,0,0,0,0,0,0,0,0,0,0,0,358.01,481.43,2,0,0.08,0.08,353,14.29,0.08,0.06,24,FLYING,CF1-G,0:/Integrated Flight Computer/aircraft/cf1_g_cfg.ks (inferred preloaded)
24.38,TAKEOFF,TO_ROTATE,71.9,80,8.1,5.76,0.09,10.84,10.78,86.83,-0.034,1,0,0,0,0,0,0,0,0,0,90.4,10,0,1,0.07,0,0,10,90.4,-0.7057,-0.0067,-0.7085,10,90.4,0,0,0,0,0,0,3,0,0,0,69,0,0,0,90.4,1,0,-3.575,0,0,3,0,0,0,10,-0.841,0,0,1,1,0,0,VALID,0,0,0,0,0,1,0,0,0,0,0,0,0,0,0,0,0,0,0,0,359.53,480.72,2,0,0.08,0.08,357,14.29,0.08,0.06,24.28,FLYING,CF1-G,0:/Integrated Flight Computer/aircraft/cf1_g_cfg.ks (inferred preloaded)
24.66,TAKEOFF,TO_ROTATE,72.91,80,7.09,5.92,0.32,10.92,10.68,86.76,0.123,1,0,0,0,0,0,0,0,0,0,90.4,10,0,1,0.25,0,0,10,90.4,-0.7057,-0.0067,-0.7085,10,90.4,0,0,0,0,0,0,3,0,0,0,69,0,0,0,90.4,1,0,-3.641,0,0,3,0,0,0,10,-0.917,0,0,1,1,0,0,VALID,0,0,0,0,0,1,0,0,0,0,0,0,0,0,0,0,0,0,0,0,361.02,480.01,2,0,0.08,0.08,361,14.29,0.08,0.06,24.56,FLYING,CF1-G,0:/Integrated Flight Computer/aircraft/cf1_g_cfg.ks (inferred preloaded)
24.94,TAKEOFF,TO_ROTATE,73.92,80,6.08,6.15,0.66,10.95,10.49,86.54,-0.033,1,0,0,0,0,0,0,0,0,0,90.4,10,0,1,0.51,0,0,10,90.4,-0.7056,-0.0067,-0.7085,10,90.4,0,0,0,0,0,0,3,0,0,0,69,0,0,0,90.4,1,0,-3.864,0,0,3,0,0,0,10,-0.948,0,0,1,1,0,0,VALID,0,0,0,0,0,1,0,0,0,0,0,0,0,0,0,0,0,0,0,0,362.46,479.29,2,0,0.08,0.08,365,14.29,0.08,0.06,24.84,FLYING,CF1-G,0:/Integrated Flight Computer/aircraft/cf1_g_cfg.ks (inferred preloaded)
25.22,TAKEOFF,TO_ROTATE,74.92,80,5.08,6.44,0.98,10.75,10.06,86.38,-0.213,1,0,0,0,0,0,0,0,0,0,90.4,10,0,1,0.75,0,0,10,90.4,-0.7056,-0.0067,-0.7086,10,90.4,0,0,0,0,0,0,3,0,0,0,69,0,0,0,90.4,1,0,-4.016,0,0,3,0,0,0,10,-0.75,0,0,1,1,0,0,VALID,0,0,0,0,0,1,0,0,0,0,0,0,0,0,0,0,0,0,0,0,363.86,478.57,2,0,0.08,0.08,369,14.29,0.08,0.06,25.12,FLYING,CF1-G,0:/Integrated Flight Computer/aircraft/cf1_g_cfg.ks (inferred preloaded)
25.5,TAKEOFF,TO_CLIMB,75.93,80,4.07,6.81,1.3,10.5,9.59,86.3,-0.317,1,0,0,0,0,0,0,0,0,0,90.4,10.46,0,1,0.98,0,0,10,90.4,-0.7113,-0.0067,-0.7029,10.46,90.4,0,0,0,0,0,0,3,0,0,0,69,0,0,0,90.4,1,0,-4.103,0,0,3,0,0,0,10,-0.588,0,0,1,1,0,0,VALID,0,0,0,0,0,1,0,0,0,0,0,0,0,0,0,0,0,0,0,0,365.22,477.84,2,0,0.08,0.08,373,14.29,0.08,0.06,25.4,FLYING,CF1-G,0:/Integrated Flight Computer/aircraft/cf1_g_cfg.ks (inferred preloaded)
25.78,TAKEOFF,TO_CLIMB,76.96,80,3.04,7.25,1.55,10.19,9.1,86.23,-0.506,1,0,0,0,0,0,0,0,0,0,90.4,10.012,0,1,1.16,0,0,10.14,90.4,-0.7057,-0.0067,-0.7085,10.01,90.4,0,0,0,0,0,0,3,0,0,0,69,0,0,0,90.4,1,0,-4.165,0,0,3,0,0,0,10,-0.588,0,0,1,1,0,0,VALID,0,0,0,0,0,1,0,0,0,0,0,0,0,0,0,0,0,0,0,0,366.52,477.08,2,0,0.08,0.08,377,14.29,0.08,0.06,25.68,FLYING,CF1-G,0:/Integrated Flight Computer/aircraft/cf1_g_cfg.ks (inferred preloaded)
26.06,TAKEOFF,TO_CLIMB,77.99,80,2.01,7.85,1.75,10.51,9.26,86.22,-0.263,1,0,0,0,0,0,0,0,0,0,90.4,9.564,0,1,1.28,0,0,9.69,90.4,-0.7001,-0.0067,-0.714,9.56,90.4,0,0,0,0,0,0,3,0,0,0,69,0,0,0,90.4,1,0,-4.181,0,0,3,0,0,0,10,-0.588,0,0,1,1,0,0,VALID,0,0,0,0,0,1,0,0,0,0,0,0,0,0,0,0,0,0,0,0,367.77,476.32,2,0,0.08,0.08,381,14.29,0.08,0.06,25.96,FLYING,CF1-G,0:/Integrated Flight Computer/aircraft/cf1_g_cfg.ks (inferred preloaded)
26.34,TAKEOFF,TO_CLIMB,78.98,80,1.02,8.54,2.24,10.71,9.17,86.33,0.702,1,0,0,0,0,0,0,0,0,0,90.4,9.116,0,1,1.63,0,0,9.24,90.4,-0.6945,-0.0068,-0.7195,9.12,90.4,0,0,0,0,0,0,3,0,0,0,69,0,0,0,90.4,1,0,-4.074,0,0,3,0,0,0,10,-0.588,0,0,1,1,0,0,VALID,0,0,0,0,0,1,0,0,0,0,0,0,0,0,0,0,0,0,0,0,369,475.58,2,0,0.08,0.08,385,14.29,0.08,0.06,26.24,FLYING,CF1-G,0:/Integrated Flight Computer/aircraft/cf1_g_cfg.ks (inferred preloaded)
26.62,TAKEOFF,TO_CLIMB,79.98,80,0.02,9.29,2.65,10.56,8.76,86.5,1.461,1,0,0,0,0,0,0,0,0,0,90.4,8.668,0,1,1.9,0,0,8.8,90.4,-0.6888,-0.0068,-0.7249,8.67,90.4,0,0,0,0,0,0,3,0,0,0,69,0,0,0,90.4,1,0,-3.904,0,0,3,0,0,0,10,-0.588,0,0,1,1,0,0,VALID,0,0,0,0,0,1,0,0,0,0,0,0,0,0,0,0,0,0,0,0,370.19,474.82,2,0,0.08,0.08,389,14.29,0.08,0.06,26.52,FLYING,CF1-G,0:/Integrated Flight Computer/aircraft/cf1_g_cfg.ks (inferred preloaded)
26.9,TAKEOFF,TO_CLIMB,80.99,80,-0.99,10.16,3.04,10.42,8.38,86.63,1.818,0.9901,0,0,0,0,0,0,0,0,0,90.4,8.22,0,1,2.15,0,0,8.35,90.4,-0.6831,-0.0068,-0.7303,8.22,90.4,0,0,0,0,0,0,3,0,0,0,69,0,0,0,90.4,1,0,-3.772,0,0,3,0,0,0,10,-0.588,0,0,1,1,0,0,VALID,0,0,0,0,0,1,0,0,0,0,0,0,0,0,0,0,0,0,0,0,371.31,474.05,2,0,0.08,0.08,393,14.29,0.08,0.06,26.8,FLYING,CF1-G,0:/Integrated Flight Computer/aircraft/cf1_g_cfg.ks (inferred preloaded)
27.18,TAKEOFF,TO_CLIMB,82.01,80,-2.01,11.13,3.41,10.28,8.02,86.74,2.121,0.9799,0,0,0,0,0,0,0,0,0,90.4,8,0,1,2.38,0,0,8,90.4,-0.6803,-0.0068,-0.7329,8,90.4,0,0,0,0,0,0,3,0,0,0,69,0,0,0,90.4,1,0,-3.664,0,0,3,0,0,0,10,-0.588,0,0,1,1,0,0,VALID,0,0,0,0,0,1,0,0,0,0,0,0,0,0,0,0,0,0,0,0,372.31,473.26,2,0,0.08,0.08,397,14.29,0.08,0.06,27.08,FLYING,CF1-G,0:/Integrated Flight Computer/aircraft/cf1_g_cfg.ks (inferred preloaded)
27.46,TAKEOFF,TO_CLIMB,83.04,80,-3.04,12.21,3.76,10.17,7.71,86.84,2.38,0.9696,0,0,0,0,0,0,0,0,0,90.4,8,0,1,2.59,0,0,8,90.4,-0.6802,-0.0068,-0.733,8,90.4,0,0,0,0,0,0,3,0,0,0,69,0,0,0,90.4,1,0,-3.562,0,0,3,0,0,0,10,-0.588,0,0,1,1,0,0,VALID,0,0,0,0,0,1,0,0,0,0,0,0,0,0,0,0,0,0,0,0,373.18,472.46,2,0,0.08,0.08,401,14.29,0.08,0.06,27.36,FLYING,CF1-G,0:/Integrated Flight Computer/aircraft/cf1_g_cfg.ks (inferred preloaded)
27.74,TAKEOFF,TO_CLIMB,84.07,80,-4.07,13.42,4.11,10.1,7.43,86.94,2.598,0.9593,0,0,0,0,0,0,0,0,0,90.4,8,0,1,2.8,0,0,8,90.4,-0.6802,-0.0068,-0.733,8,90.4,0,0,0,0,0,0,3,0,0,0,69,0,0,0,90.4,1,0,-3.462,0,0,3,0,0,0,10,-0.588,0,0,1,1,0,0,VALID,0,0,0,0,0,1,0,0,0,0,0,0,0,0,0,0,0,0,0,0,373.94,471.65,2,0,0.08,0.08,405,14.29,0.08,0.06,27.64,FLYING,CF1-G,0:/Integrated Flight Computer/aircraft/cf1_g_cfg.ks (inferred preloaded)
28.02,TAKEOFF,TO_CLIMB,85.07,80,-5.07,15.04,4.59,9.88,6.96,87.03,2.781,0.9493,0,0,0,0,0,0,0,0,0,90.4,8,0,1,3.09,0,0,8,90.4,-0.6802,-0.0068,-0.733,8,90.4,0,0,0,0,0,0,3,0,0,0,69,0,0,0,90.4,1,0,-3.369,0,0,3,0,0,0,10,-0.588,0,0,1,1,0,0,VALID,0,0,0,0,0,1,0,0,0,0,0,0,0,0,0,0,0,0,0,0,374.59,470.85,2,0,0.08,0.08,409,14.29,0.08,0.06,27.92,FLYING,CF1-G,0:/Integrated Flight Computer/aircraft/cf1_g_cfg.ks (inferred preloaded)
28.3,TAKEOFF,TO_CLIMB,86.09,80,-6.09,16.79,4.91,9.77,6.64,87.12,2.878,0.9391,0,0,0,0,0,0,0,0,0,90.4,8,0,1,3.26,0,0,8,90.4,-0.6801,-0.0068,-0.733,8,90.4,0,0,0,0,0,0,3,0,0,0,69,0,0,0,90.4,1,0,-3.276,0,0,3,0,0,0,10,-0.588,0,0,1,1,0,0,VALID,0,0,0,0,0,1,0,0,0,0,0,0,0,0,0,0,0,0,0,0,375.13,470.03,2,0,0.08,0.08,413,14.29,0.08,0.06,28.2,FLYING,CF1-G,0:/Integrated Flight Computer/aircraft/cf1_g_cfg.ks (inferred preloaded)
28.58,TAKEOFF,TO_CLIMB,87.11,80,-7.11,18.24,5.34,9.68,6.34,87.21,2.985,0.9289,0,0,0,0,0,0,0,0,0,90.4,8,0,1,3.51,0,0,8,90.4,-0.6801,-0.0068,-0.7331,8,90.4,0,0,0,0,0,0,3,0,0,0,69,0,0,0,90.4,1,0,-3.186,0,0,3,0,0,0,10,-0.588,0,0,1,1,0,0,VALID,0,0,0,0,0,1,0,0,0,0,0,0,0,0,0,0,0,0,0,0,375.56,469.21,2,0,0.08,0.08,417,14.29,0.08,0.06,28.48,FLYING,CF1-G,0:/Integrated Flight Computer/aircraft/cf1_g_cfg.ks (inferred preloaded)
28.86,TAKEOFF,TO_CLIMB,88.13,80,-8.13,19.56,5.66,9.52,6,87.31,3.095,0.9187,0,0,0,0,0,0,0,0,0,90.4,8,0,1,3.68,0,0,8,90.4,-0.6801,-0.0068,-0.7331,8,90.4,0,0,0,0,0,0,3,0,0,0,69,0,0,0,90.4,1,0,-3.094,0,0,3,0,0,0,10,-0.588,0,0,1,1,0,0,VALID,0,0,0,0,0,1,0,0,0,0,0,0,0,0,0,0,0,0,0,0,375.88,468.37,2,0,0.08,0.08,421,14.29,0.08,0.06,28.76,FLYING,CF1-G,0:/Integrated Flight Computer/aircraft/cf1_g_cfg.ks (inferred preloaded)
29.14,TAKEOFF,TO_CLIMB,89.16,80,-9.16,21.06,5.99,9.45,5.77,87.4,3.182,0.9084,0,0,0,0,0,0,0,0,0,90.4,8,0,1,3.84,0,0,8,90.4,-0.6801,-0.0068,-0.7331,8,90.4,0,0,0,0,0,0,3,0,0,0,69,0,0,0,90.4,1,0,-2.998,0,0,3,0,0,0,10,-0.588,0,0,1,1,0,0,VALID,0,0,0,0,0,1,0,0,0,0,0,0,0,0,0,0,0,0,0,0,376.09,467.52,2,0,0.08,0.08,425,14.29,0.08,0.06,29.04,FLYING,CF1-G,0:/Integrated Flight Computer/aircraft/cf1_g_cfg.ks (inferred preloaded)
29.42,TAKEOFF,TO_CLIMB,90.18,80,-10.18,22.87,6.29,9.39,5.56,87.5,3.244,0.8982,0,0,0,0,0,0,0,0,0,90.4,8,0,1,3.99,0,0,8,90.4,-0.68,-0.0068,-0.7332,8,90.4,0,0,0,0,0,0,3,0,0,0,69,0,0,0,90.4,1,0,-2.903,0,0,3,0,0,0,10,-0.588,0,0,1,1,0,0,VALID,0,0,0,0,0,1,0,0,0,0,0,0,0,0,0,0,0,0,0,0,376.19,466.67,2,0,0.08,0.08,429,14.29,0.08,0.06,29.32,FLYING,CF1-G,0:/Integrated Flight Computer/aircraft/cf1_g_cfg.ks (inferred preloaded)
29.7,TAKEOFF,TO_CLIMB,91.23,80,-11.23,24.77,6.53,9.53,5.6,87.6,3.291,0.8877,0,0,0,0,0,0,0,0,0,90.4,8,0,1,4.1,0,0,8,90.4,-0.68,-0.0068,-0.7332,8,90.4,0,0,0,0,0,0,3,0,0,0,69,0,0,0,90.4,1,0,-2.797,0,0,3,0,0,0,10,-0.588,0,0,1,1,0,0,VALID,0,0,0,0,0,1,0,0,0,0,0,0,0,0,0,0,0,0,0,0,376.19,465.8,2,0,0.08,0.08,433,14.29,0.08,0.06,29.6,FLYING,CF1-G,0:/Integrated Flight Computer/aircraft/cf1_g_cfg.ks (inferred preloaded)
29.98,TAKEOFF,TO_CLIMB,92.25,80,-12.25,26.76,6.87,9.64,5.56,87.71,3.323,0.8775,0,0,0,0,0,0,0,0,0,90.4,8,0,1,4.26,0,0,8,90.4,-0.68,-0.0068,-0.7332,8,90.4,0,0,0,0,0,0,3,0,0,0,69,0,0,0,90.4,1,0,-2.695,0,0,3,0,0,0,10,-0.588,0,0,1,1,0,0,VALID,0,0,0,0,0,1,0,0,0,0,0,0,0,0,0,0,0,0,0,0,376.1,464.94,2,0,0.08,0.08,437,14.29,0.08,0.06,29.88,FLYING,CF1-G,0:/Integrated Flight Computer/aircraft/cf1_g_cfg.ks (inferred preloaded)
30.26,TAKEOFF,TO_CLIMB,93.27,80,-13.27,28.81,7.22,9.55,5.31,87.8,3.35,0.8673,0,0,0,0,0,0,0,0,0,90.4,8,0,1,4.42,0,0,8,90.4,-0.6799,-0.0068,-0.7332,8,90.4,0,0,0,0,0,0,3,0,0,0,69,0,0,0,90.4,1,0,-2.604,0,0,3,0,0,0,10,-0.588,0,0,1,1,0,0,VALID,0,0,0,0,0,1,0,0,0,0,0,0,0,0,0,0,0,0,0,0,375.92,464.08,2,0,0.08,0.08,441,14.29,0.08,0.06,30.16,FLYING,CF1-G,0:/Integrated Flight Computer/aircraft/cf1_g_cfg.ks (inferred preloaded)
30.54,TAKEOFF,TO_CLIMB,94.29,80,-14.29,30.96,7.54,9.5,5.1,87.89,3.371,0.8571,0,0,0,0,0,0,0,0,0,90.4,8,0,1,4.57,0,0,8,90.4,-0.6799,-0.0068,-0.7333,8,90.4,0,0,0,0,0,0,3,0,0,0,69,0,0,0,90.4,1,0,-2.513,0,0,3,0,0,0,10,-0.588,0,0,1,1,0,0,VALID,0,0,0,0,0,1,0,0,0,0,0,0,0,0,0,0,0,0,0,0,375.64,463.22,2,0,0.08,0.08,445,14.29,0.08,0.06,30.44,FLYING,CF1-G,0:/Integrated Flight Computer/aircraft/cf1_g_cfg.ks (inferred preloaded)
30.82,TAKEOFF,TO_CLIMB,95.31,80,-15.31,34.92,7.87,9.46,4.92,87.98,3.38,0.8469,0,0,0,0,0,0,0,0,0,90.4,8,0,1,4.72,0,0,8,90.4,-0.6799,-0.0068,-0.7333,8,90.4,0,0,0,0,0,0,3,0,0,0,69,0,0,0,90.4,1,0,-2.422,0,0,3,0,0,0,10,-0.588,0,0,1,1,0,0,VALID,0,0,0,0,0,1,0,0,0,0,0,0,0,0,0,0,0,0,0,0,375.27,462.35,2,0,0.08,0.08,449,14.29,0.08,0.06,30.72,FLYING,CF1-G,0:/Integrated Flight Computer/aircraft/cf1_g_cfg.ks (inferred preloaded)
31.1,TAKEOFF,TO_CLIMB,96.32,80,-16.32,42.26,8.19,9.42,4.74,88.07,3.377,0.8368,0,0,0,0,0,0,0,0,0,90.4,8,0,1,4.86,0,0,8,90.4,-0.6798,-0.0068,-0.7333,8,90.4,0,0,0,0,0,0,3,0,0,0,69,0,0,0,90.4,1,0,-2.333,0,0,3,0,0,0,10,-0.588,0,0,1,1,0,0,VALID,0,0,0,0,0,1,0,0,0,0,0,0,0,0,0,0,0,0,0,0,374.82,461.47,2,0,0.08,0.08,453,14.29,0.08,0.06,31,FLYING,CF1-G,0:/Integrated Flight Computer/aircraft/cf1_g_cfg.ks (inferred preloaded)
31.38,TAKEOFF,TO_CLIMB,97.33,80,-17.33,45.47,8.51,9.37,4.56,88.15,3.364,0.8267,0,0,0,0,0,0,0,0,0,90.4,8,0,1,5,0,0,8,90.4,-0.6798,-0.0068,-0.7334,8,90.4,0,0,0,0,0,0,3,0,0,0,69,0,0,0,90.4,1,0,-2.245,0,0,3,0,0,0,10,-0.588,0,0,1,1,0,0,VALID,0,0,0,0,0,1,0,0,0,0,0,0,0,0,0,0,0,0,0,0,374.28,460.6,2,0,0.08,0.08,457,14.29,0.08,0.06,31.28,FLYING,CF1-G,0:/Integrated Flight Computer/aircraft/cf1_g_cfg.ks (inferred preloaded)
31.66,TAKEOFF,TO_CLIMB,98.33,80,-18.33,47.89,8.83,9.33,4.39,88.24,3.343,0.8167,0,0,0,0,0,0,0,0,0,90.4,8,0,1,5.13,0,0,8,90.4,-0.6798,-0.0068,-0.7334,8,90.4,0,0,0,0,0,0,3,0,0,0,69,0,0,0,90.4,1,0,-2.16,0,0,3,0,0,0,10,-0.588,0,0,1,1,0,0,VALID,0,0,0,0,0,1,0,0,0,0,0,0,0,0,0,0,0,0,0,0,373.66,459.72,2,0,0.08,0.08,461,14.29,0.08,0.06,31.56,FLYING,CF1-G,0:/Integrated Flight Computer/aircraft/cf1_g_cfg.ks (inferred preloaded)
31.94,TAKEOFF,TO_CLIMB,99.33,80,-19.33,50.41,9.14,9.3,4.23,88.32,3.313,0.8067,0,0,0,0,0,0,0,0,0,90.4,8,0,1,5.26,0,0,8,90.4,-0.6797,-0.0068,-0.7334,8,90.4,0,0,0,0,0,0,3,0,0,0,69,0,0,0,90.4,1,0,-2.076,0,0,3,0,0,0,10,-0.588,0,0,1,1,0,0,VALID,0,0,0,0,0,1,0,0,0,0,0,0,0,0,0,0,0,0,0,0,372.94,458.84,2,0,0.08,0.08,465,14.29,0.08,0.06,31.84,FLYING,CF1-G,0:/Integrated Flight Computer/aircraft/cf1_g_cfg.ks (inferred preloaded)
32.22,TAKEOFF,TO_CLIMB,100.33,80,-20.33,53.01,9.45,9.26,4.07,88.41,3.276,0.7967,0,0,0,0,0,0,0,0,0,90.4,8,0,1,5.38,0,0,8,90.4,-0.6797,-0.0068,-0.7335,8,90.4,0,0,0,0,0,0,3,0,0,0,69,0,0,0,90.4,1,0,-1.995,0,0,3,0,0,0,10,-0.588,0,0,1,1,0,0,VALID,0,0,0,0,0,1,0,0,0,0,0,0,0,0,0,0,0,0,0,0,371.97,457.96,2,0,0.08,0.08,469,14.29,0.08,0.06,32.12,FLYING,CF1-G,0:/Integrated Flight Computer/aircraft/cf1_g_cfg.ks (inferred preloaded)
32.5,TAKEOFF,TO_CLIMB,101.32,80,-21.32,55.71,9.75,9.23,3.92,88.49,3.234,0.7868,0,0,0,0,0,0,0,0,0,90.4,8,0,1,5.5,0,0,8,90.4,-0.6797,-0.0068,-0.7335,8,90.4,0,0,0,0,0,0,3,0,0,0,69,0,0,0,90.4,1,0,-1.915,0,0,3,0,0,0,10,-0.588,0,0,1,1,0,0,VALID,0,0,0,0,0,1,0,0,0,0,0,0,0,0,0,0,0,0,0,0,370.71,457.08,2,0,0.08,0.08,473,14.29,0.08,0.06,32.4,FLYING,CF1-G,0:/Integrated Flight Computer/aircraft/cf1_g_cfg.ks (inferred preloaded)
32.78,TAKEOFF,TO_CLIMB,102.3,80,-22.3,58.49,10.06,9.2,3.78,88.56,3.186,0.78,0,0,0,0,0,0,0,0,0,90.4,8,0,1,5.61,0,0,8,90.4,-0.6796,-0.0068,-0.7335,8,90.4,0,0,0,0,0,0,3,0,0,0,69,0,0,0,90.4,1,0,-1.837,0,0,3,0,0,0,10,-0.588,0,0,1,1,0,0,VALID,0,0,0,0,0,1,0,0,0,0,0,0,0,0,0,0,0,0,0,0,369.18,456.21,2,0,0.08,0.08,477,14.29,0.08,0.06,32.68,FLYING,CF1-G,0:/Integrated Flight Computer/aircraft/cf1_g_cfg.ks (inferred preloaded)
33.06,TAKEOFF,TO_CLIMB,103.27,80,-23.27,61.36,10.35,9.17,3.64,88.64,3.133,0.78,0,0,0,0,0,0,0,0,0,90.4,8,0,1,5.73,0,0,8,90.4,-0.6796,-0.0068,-0.7336,8,90.4,0,0,0,0,0,0,3,0,0,0,69,0,0,0,90.4,1,0,-1.762,0,0,3,0,0,0,10,-0.588,0,0,1,1,0,0,VALID,0,0,0,0,0,1,0,0,0,0,0,0,0,0,0,0,0,0,0,0,367.57,455.33,2,0,0.08,0.08,481,14.29,0.08,0.06,32.96,FLYING,CF1-G,0:/Integrated Flight Computer/aircraft/cf1_g_cfg.ks (inferred preloaded)
33.34,TAKEOFF,TO_CLIMB,104.23,80,-24.23,64.3,10.65,9.14,3.5,88.71,3.076,0.78,0,0,0,0,0,0,0,0,0,90.4,8,0,1,5.83,0,0,8,90.4,-0.6795,-0.0068,-0.7336,8,90.4,0,0,0,0,0,0,3,0,0,0,69,0,0,0,90.4,1,0,-1.688,0,0,3,0,0,0,10,-0.588,0,0,1,1,0,0,VALID,0,0,0,0,0,1,0,0,0,0,0,0,0,0,0,0,0,0,0,0,366.03,454.46,2,0,0.08,0.08,485,14.29,0.08,0.06,33.24,FLYING,CF1-G,0:/Integrated Flight Computer/aircraft/cf1_g_cfg.ks (inferred preloaded)
33.62,TAKEOFF,TO_CLIMB,105.19,80,-25.19,63.03,10.94,9.12,3.37,88.78,3.015,0.78,0,0,0,0,0,0,0,0,0,90.4,8,0,1,5.94,0,0,8,90.4,-0.6795,-0.0068,-0.7336,8,90.4,0,0,0,0,0,0,3,0,0,0,69,0,0,0,90.4,1,0,-1.617,0,0,3,0,0,0,10,-0.588,0,0,1,1,0,0,VALID,0,0,0,0,0,1,0,0,0,0,0,0,0,0,0,0,0,0,0,0,364.55,453.59,2,0,0.08,0.08,489,14.29,0.08,0.06,33.52,FLYING,CF1-G,0:/Integrated Flight Computer/aircraft/cf1_g_cfg.ks (inferred preloaded)
33.9,TAKEOFF,TO_CLIMB,106.13,80,-26.13,64.14,11.22,9.09,3.25,88.85,2.952,0.78,0,0,0,0,0,0,0,0,0,90.4,8,0,1,6.04,0,0,8,90.4,-0.6795,-0.0068,-0.7337,8,90.4,0,0,0,0,0,0,3,0,0,0,69,0,0,0,90.4,1,0,-1.548,0,0,3,0,0,0,10,-0.588,0,0,1,1,0,0,VALID,0,0,0,0,0,1,0,0,0,0,0,0,0,0,0,0,0,0,0,0,363.13,452.72,2,0,0.08,0.08,493,14.29,0.08,0.06,33.8,FLYING,CF1-G,0:/Integrated Flight Computer/aircraft/cf1_g_cfg.ks (inferred preloaded)
34.18,TAKEOFF,TO_CLIMB,107.07,80,-27.07,67.4,11.51,9.06,3.13,88.92,2.887,0.78,0,0,0,0,0,0,0,0,0,90.4,8,0,1,6.13,0,0,8,90.4,-0.6794,-0.0068,-0.7337,8,90.4,0,0,0,0,0,0,3,0,0,0,69,0,0,0,90.4,1,0,-1.48,0,0,3,0,0,0,10,-0.588,0,0,1,1,0,0,VALID,0,0,0,0,0,1,0,0,0,0,0,0,0,0,0,0,0,0,0,0,361.76,451.86,2,0,0.08,0.08,497,14.29,0.08,0.06,34.08,FLYING,CF1-G,0:/Integrated Flight Computer/aircraft/cf1_g_cfg.ks (inferred preloaded)
34.46,TAKEOFF,TO_CLIMB,108,80,-28,70.74,11.78,9.04,3.01,88.98,2.818,0.78,0,0,0,0,0,0,0,0,0,90.4,8,0,1,6.23,0,0,8,90.4,-0.6794,-0.0068,-0.7337,8,90.4,0,0,0,0,0,0,3,0,0,0,69,0,0,0,90.4,1,0,-1.415,0,0,3,0,0,0,10,-0.588,0,0,1,1,0,0,VALID,0,0,0,0,0,1,0,0,0,0,0,0,0,0,0,0,0,0,0,0,360.45,451,2,0,0.08,0.08,501,14.29,0.08,0.06,34.36,FLYING,CF1-G,0:/Integrated Flight Computer/aircraft/cf1_g_cfg.ks (inferred preloaded)
34.74,TAKEOFF,TO_CLIMB,108.92,80,-28.92,74.16,12.05,9.01,2.89,89.05,2.746,0.78,0,0,0,0,0,0,0,0,0,90.4,8,0,1,6.32,0,0,8,90.4,-0.6794,-0.0068,-0.7338,8,90.4,0,0,0,0,0,0,3,0,0,0,69,0,0,0,90.4,1,0,-1.353,0,0,3,0,0,0,10,-0.588,0,0,1,1,0,0,VALID,0,0,0,0,0,1,0,0,0,0,0,0,0,0,0,0,0,0,0,0,359.18,450.14,2,0,0.08,0.08,505,14.29,0.08,0.06,34.64,FLYING,CF1-G,0:/Integrated Flight Computer/aircraft/cf1_g_cfg.ks (inferred preloaded)
35.02,TAKEOFF,TO_CLIMB,109.84,80,-29.84,77.65,12.32,8.99,2.79,89.11,2.674,0.78,0,0,0,0,0,0,0,0,0,90.4,8,0,1,6.4,0,0,8,90.4,-0.6793,-0.0068,-0.7338,8,90.4,0,0,0,0,0,0,3,0,0,0,69,0,0,0,90.4,1,0,-1.292,0,0,3,0,0,0,10,-0.588,0,0,1,1,0,0,VALID,0,0,0,0,0,1,0,0,0,0,0,0,0,0,0,0,0,0,0,0,357.95,449.28,2,0,0.08,0.08,509,14.29,0.08,0.06,34.92,FLYING,CF1-G,0:/Integrated Flight Computer/aircraft/cf1_g_cfg.ks (inferred preloaded)
35.3,TAKEOFF,TO_CLIMB,110.75,80,-30.75,81.22,12.59,8.97,2.68,89.17,2.603,0.78,0,0,0,0,0,0,0,0,0,90.4,8,0,1,6.48,0,0,8,90.4,-0.6793,-0.0068,-0.7339,8,90.4,0,0,0,0,0,0,3,0,0,0,69,0,0,0,90.4,1,0,-1.233,0,0,3,0,0,0,10,-0.588,0,0,1,1,0,0,VALID,0,0,0,0,0,1,0,0,0,0,0,0,0,0,0,0,0,0,0,0,356.76,448.42,2,0,0.08,0.08,513,14.29,0.08,0.06,35.2,FLYING,CF1-G,0:/Integrated Flight Computer/aircraft/cf1_g_cfg.ks (inferred preloaded)
35.58,TAKEOFF,TO_CLIMB,111.65,80,-31.65,84.85,12.85,8.94,2.58,89.22,2.531,0.78,0,0,0,0,0,0,0,0,0,90.4,8,0,1,6.56,0,0,8,90.4,-0.6792,-0.0068,-0.7339,8,90.4,0,0,0,0,0,0,3,0,0,0,69,0,0,0,90.4,1,0,-1.177,0,0,3,0,0,0,10,-0.588,0,0,1,1,0,0,VALID,0,0,0,0,0,1,0,0,0,0,0,0,0,0,0,0,0,0,0,0,355.62,447.57,2,0,0.08,0.08,517,14.29,0.08,0.06,35.48,FLYING,CF1-G,0:/Integrated Flight Computer/aircraft/cf1_g_cfg.ks (inferred preloaded)
35.86,TAKEOFF,TO_CLIMB,112.54,80,-32.54,88.56,13.11,8.92,2.48,89.28,2.457,0.78,0,0,0,0,0,0,0,0,0,90.4,8,0,1,6.64,0,0,8,90.4,-0.6792,-0.0068,-0.7339,8,90.4,0,0,0,0,0,0,3,0,0,0,69,0,0,0,90.4,1,0,-1.122,0,0,3,0,0,0,10,-0.588,0,0,1,1,0,0,VALID,0,0,0,0,0,1,0,0,0,0,0,0,0,0,0,0,0,0,0,0,354.5,446.72,2,0,0.08,0.08,521,14.29,0.08,0.06,35.76,FLYING,CF1-G,0:/Integrated Flight Computer/aircraft/cf1_g_cfg.ks (inferred preloaded)
36.14,TAKEOFF,TO_CLIMB,113.43,80,-33.43,92.34,13.35,8.9,2.38,89.33,2.383,0.78,0,0,0,0,0,0,0,0,0,90.4,8,0,1,6.71,0,0,8,90.4,-0.6792,-0.0068,-0.734,8,90.4,0,0,0,0,0,0,3,0,0,0,69,0,0,0,90.4,1,0,-1.07,0,0,3,0,0,0,10,-0.588,0,0,1,1,0,0,VALID,0,0,0,0,0,1,0,0,0,0,0,0,0,0,0,0,0,0,0,0,353.42,445.87,2,0,0.08,0.08,525,14.29,0.08,0.06,36.04,FLYING,CF1-G,0:/Integrated Flight Computer/aircraft/cf1_g_cfg.ks (inferred preloaded)
36.42,TAKEOFF,TO_CLIMB,114.31,80,-34.31,96.19,13.6,8.87,2.29,89.38,2.308,0.78,0,0,0,0,0,0,0,0,0,90.4,8,0,1,6.79,0,0,8,90.4,-0.6791,-0.0068,-0.734,8,90.4,0,0,0,0,0,0,3,0,0,0,69,0,0,0,90.4,1,0,-1.019,0,0,3,0,0,0,10,-0.588,0,0,1,1,0,0,VALID,0,0,0,0,0,1,0,0,0,0,0,0,0,0,0,0,0,0,0,0,352.38,445.03,2,0,0.08,0.08,529,14.29,0.08,0.06,36.32,FLYING,CF1-G,0:/Integrated Flight Computer/aircraft/cf1_g_cfg.ks (inferred preloaded)
36.7,TAKEOFF,TO_CLIMB,115.19,80,-35.19,100.11,13.85,8.85,2.2,89.43,2.234,0.78,0,0,0,0,0,0,0,0,0,90.4,8,0,1,6.86,0,0,8,90.4,-0.6791,-0.0068,-0.734,8,90.4,0,0,0,0,0,0,3,0,0,0,69,0,0,0,90.4,1,0,-0.97,0,0,3,0,0,0,10,-0.588,0,0,1,1,0,0,VALID,0,0,0,0,0,1,0,0,0,0,0,0,0,0,0,0,0,0,0,0,351.36,444.19,2,0,0.08,0.08,533,14.29,0.08,0.06,36.6,FLYING,CF1-G,0:/Integrated Flight Computer/aircraft/cf1_g_cfg.ks (inferred preloaded)
36.98,TAKEOFF,TO_CLIMB,116.06,80,-36.06,104.29,14.09,8.83,2.11,89.48,2.162,0.78,0,0,0,0,0,0,0,0,0,90.4,8,0,1,6.92,0,0,8,90.4,-0.679,-0.0068,-0.7341,8,90.4,0,0,0,0,0,0,3,0,0,0,69,0,0,0,90.4,1,0,-0.923,0,0,3,0,0,0,10,-0.588,0,0,1,1,0,0,VALID,0,0,0,0,0,1,0,0,0,0,0,0,0,0,0,0,0,0,0,0,350.37,443.35,2,0,0.08,0.08,537,14.29,0.08,0.06,36.88,FLYING,CF1-G,0:/Integrated Flight Computer/aircraft/cf1_g_cfg.ks (inferred preloaded)
37.26,TAKEOFF,TO_CLIMB,116.92,80,-36.92,113.52,14.33,8.81,2.02,89.52,2.089,0.78,0,0,0,0,0,0,0,0,0,90.4,8,0,1,6.99,0,0,8,90.4,-0.679,-0.0068,-0.7341,8,90.4,0,0,0,0,0,0,3,0,0,0,69,0,0,0,90.4,1,0,-0.878,0,0,3,0,0,0,10,-0.588,0,0,1,1,0,0,VALID,0,0,0,0,0,1,0,0,0,0,0,0,0,0,0,0,0,0,0,0,349.4,442.51,2,0,0.08,0.08,541,14.29,0.08,0.06,37.16,FLYING,CF1-G,0:/Integrated Flight Computer/aircraft/cf1_g_cfg.ks (inferred preloaded)
37.54,TAKEOFF,TO_CLIMB,117.78,80,-37.78,117.54,14.56,8.79,1.94,89.56,2.016,0.78,0,0,0,0,0,0,0,0,0,90.4,8,0,1,7.05,0,0,8,90.4,-0.679,-0.0068,-0.7342,8,90.4,0,0,0,0,0,0,3,0,0,0,69,0,0,0,90.4,1,0,-0.835,0,0,3,0,0,0,10,-0.588,0,0,1,1,0,0,VALID,0,0,0,0,0,1,0,0,0,0,0,0,0,0,0,0,0,0,0,0,348.46,441.68,2,0,0.08,0.08,545,14.29,0.08,0.06,37.44,FLYING,CF1-G,0:/Integrated Flight Computer/aircraft/cf1_g_cfg.ks (inferred preloaded)
37.82,TAKEOFF,TO_CLIMB,118.63,80,-38.63,121.62,14.79,8.76,1.86,89.61,1.945,0.78,0,0,0,0,0,0,0,0,0,90.4,8,0,1,7.11,0,0,8,90.4,-0.6789,-0.0068,-0.7342,8,90.4,0,0,0,0,0,0,3,0,0,0,69,0,0,0,90.4,1,0,-0.794,0,0,3,0,0,0,10,-0.588,0,0,1,1,0,0,VALID,0,0,0,0,0,1,0,0,0,0,0,0,0,0,0,0,0,0,0,0,347.54,440.84,2,0,0.08,0.08,549,14.29,0.08,0.06,37.72,FLYING,CF1-G,0:/Integrated Flight Computer/aircraft/cf1_g_cfg.ks (inferred preloaded)
38.1,TAKEOFF,TO_CLIMB,119.47,80,-39.47,125.8,15.02,8.74,1.78,89.65,1.875,0.78,0,0,0,0,0,0,0,0,0,90.4,8,0,1,7.16,0,0,8,90.4,-0.6789,-0.0068,-0.7342,8,90.4,0,0,0,0,0,0,3,0,0,0,69,0,0,0,90.4,1,0,-0.754,0,0,3,0,0,0,10,-0.588,0,0,1,1,0,0,VALID,0,0,0,0,0,1,0,0,0,0,0,0,0,0,0,0,0,0,0,0,346.64,440.01,2,0,0.08,0.08,553,14.29,0.08,0.06,38,FLYING,CF1-G,0:/Integrated Flight Computer/aircraft/cf1_g_cfg.ks (inferred preloaded)
38.38,TAKEOFF,TO_CLIMB,120.31,80,-40.31,130.05,15.24,8.72,1.71,89.68,1.805,0.78,0,0,0,0,0,0,0,0,0,90.4,8,0,1,7.22,0,0,8,90.4,-0.6788,-0.0068,-0.7343,8,90.4,0,0,0,0,0,0,3,0,0,0,69,0,0,0,90.4,1,0,-0.716,0,0,3,0,0,0,10,-0.588,0,0,1,1,0,0,VALID,0,0,0,0,0,1,0,0,0,0,0,0,0,0,0,0,0,0,0,0,345.76,439.19,2,0,0.08,0.08,557,14.29,0.08,0.06,38.28,FLYING,CF1-G,0:/Integrated Flight Computer/aircraft/cf1_g_cfg.ks (inferred preloaded)
38.66,TAKEOFF,TO_CLIMB,121.15,80,-41.15,134.34,15.45,8.7,1.63,89.72,1.737,0.78,0,0,0,0,0,0,0,0,0,90.4,8,0,1,7.27,0,0,8,90.4,-0.6788,-0.0068,-0.7343,8,90.4,0,0,0,0,0,0,3,0,0,0,69,0,0,0,90.4,1,0,-0.68,0,0,3,0,0,0,10,-0.588,0,0,1,1,0,0,VALID,0,0,0,0,0,1,0,0,0,0,0,0,0,0,0,0,0,0,0,0,344.89,438.36,2,0,0.08,0.08,561,14.29,0.08,0.06,38.56,FLYING,CF1-G,0:/Integrated Flight Computer/aircraft/cf1_g_cfg.ks (inferred preloaded)
38.94,TAKEOFF,TO_CLIMB,121.98,80,-41.98,138.7,15.67,8.67,1.56,89.75,1.67,0.78,0,0,0,0,0,0,0,0,0,90.4,8,0,1,7.32,0,0,8,90.4,-0.6787,-0.0068,-0.7343,8,90.4,0,0,0,0,0,0,3,0,0,0,69,0,0,0,90.4,1,0,-0.645,0,0,3,0,0,0,10,-0.588,0,0,1,1,0,0,VALID,0,0,0,0,0,1,0,0,0,0,0,0,0,0,0,0,0,0,0,0,344.05,437.54,2,0,0.08,0.08,565,14.29,0.08,0.06,38.84,FLYING,CF1-G,0:/Integrated Flight Computer/aircraft/cf1_g_cfg.ks (inferred preloaded)
39.22,TAKEOFF,TO_CLIMB,122.8,80,-42.8,143.1,15.88,8.65,1.49,89.79,1.604,0.78,0,0,0,0,0,0,0,0,0,90.4,8,0,1,7.37,0,0,8,90.4,-0.6787,-0.0068,-0.7344,8,90.4,0,0,0,0,0,0,3,0,0,0,69,0,0,0,90.4,1,0,-0.612,0,0,3,0,0,0,10,-0.588,0,0,1,1,0,0,VALID,0,0,0,0,0,1,0,0,0,0,0,0,0,0,0,0,0,0,0,0,343.22,436.72,2,0,0.08,0.08,569,14.29,0.08,0.06,39.12,FLYING,CF1-G,0:/Integrated Flight Computer/aircraft/cf1_g_cfg.ks (inferred preloaded)
39.5,TAKEOFF,TO_CLIMB,123.62,80,-43.62,147.54,16.08,8.63,1.42,89.82,1.541,0.78,0,0,0,0,0,0,0,0,0,90.4,8,0,1,7.41,0,0,8,90.4,-0.6787,-0.0068,-0.7344,8,90.4,0,0,0,0,0,0,3,0,0,0,69,0,0,0,90.4,1,0,-0.58,0,0,3,0,0,0,10,-0.588,0,0,1,1,0,0,VALID,0,0,0,0,0,1,0,0,0,0,0,0,0,0,0,0,0,0,0,0,342.41,435.91,2,0,0.08,0.08,573,14.29,0.08,0.06,39.4,FLYING,CF1-G,0:/Integrated Flight Computer/aircraft/cf1_g_cfg.ks (inferred preloaded)
