t_s,phase,subphase,ias_ms,vapp_ms,spd_err_ms,agl_m,vs_ms,pitch_deg,aoa_deg,hdg_deg,bank_deg,thr_cmd,thr_intg,aa_hdg_cmd_deg,aa_fpa_cmd_deg,ils_loc_m,ils_gs_m,ils_dist_km,loc_corr_deg,gs_corr_deg,flare_fpa_cmd,flare_tgt_vs,flare_frac,steer_hdg_deg,steer_blend,ro_loc_corr_deg,ro_hdg_err_deg,ro_yaw_tgt,ro_yaw_scale,ro_yaw_gate,yaw_cmd,roll_cmd,pitch_cmd,ro_pitch_tgt_deg,ro_pitch_err_deg,ro_pitch_ff,ro_roll_assist,flaps_cur,flaps_tgt,phase_el_s,status
0.2,APPROACH,FLY_TO_FIX,214.57,200,-14.57,2977.21,-11.25,2.09,4.81,270.02,1.495,0,-1.163,149.2,-6,0,0,0,0,0,0,0,0,270,0,0,0,0,0,0,0,0,0,0,0,0,0,0,1,0.24,FLYING
0.42,APPROACH,ILS_TRACK,214.86,200,-14.86,2974.17,-12.33,0.57,3.46,269.99,2.041,0,-4.432,232.44,-6,0,0,0,0,0,0,0,0,270,0,0,0,0,0,0,0,0,0,0,0,0,0,0,1,0.44,FLYING
0.64,APPROACH,ILS_TRACK,215.14,200,-15.14,2971.1,-13.64,-0.11,3,269.88,4.978,0,-7.762,245.4,-7,20218.15,142.29,52.652,-23783.894,-560.105,0,0,0,270,0,0,0,0,0,0,0,0,0,0,0,0,0,1,1,0.66,FLYING
0.84,APPROACH,ILS_TRACK,215.36,200,-15.36,2968.3,-14.8,0.08,3.49,269.53,10.832,0,-11.137,245.4,-7,20218,142.37,52.597,-808.547,-42.991,0,0,0,270,0,0,0,0,0,0,0,0,0,0,0,0,0,1,1,0.88,FLYING
1.04,APPROACH,ILS_TRACK,215.54,200,-15.54,2965.43,-15.5,0.7,4.34,269,15.494,0,-14.241,245.4,-7,20217.86,142.14,52.547,-808.545,-41.733,0,0,0,270,0,0,0,0,0,0,0,0,0,0,0,0,0,1,1,1.08,FLYING
1.26,APPROACH,ILS_TRACK,215.69,200,-15.69,2961.95,-15.83,0.6,4.41,268.57,20.648,0,-17.691,245.4,-7,20217.64,141.61,52.492,-808.454,-40.555,0,0,0,270,0,0,0,0,0,0,0,0,0,0,0,0,0,1,1,1.3,FLYING
1.46,APPROACH,ILS_TRACK,215.79,200,-15.79,2958.49,-16.46,-0.22,3.78,268.39,26.213,0,-20,245.4,-7,20217.34,140.8,52.442,-808.315,-39.016,0,0,0,270,0,0,0,0,0,0,0,0,0,0,0,0,0,1,1,1.5,FLYING
1.66,APPROACH,ILS_TRACK,215.9,200,-15.9,2954.87,-17.45,-0.99,3.33,268.15,32.029,0,-20,245.4,-7,20216.93,139.82,52.393,-808.172,-38.031,0,0,0,270,0,0,0,0,0,0,0,0,0,0,0,0,0,1,1,1.7,FLYING
1.86,APPROACH,ILS_TRACK,215.99,200,-15.99,2951.14,-18.48,-1.44,3.26,267.79,35.365,0,-20,245.4,-7,20216.43,138.73,52.343,-808.024,-37.254,0,0,0,270,0,0,0,0,0,0,0,0,0,0,0,0,0,1,1,1.9,FLYING
2.06,APPROACH,ILS_TRACK,216.07,200,-16.07,2947.13,-19.33,-2.17,2.72,267.83,35.479,0,-20,245.4,-7,20215.77,137.41,52.293,-807.816,-35.93,0,0,0,270,0,0,0,0,0,0,0,0,0,0,0,0,0,1,1,2.1,FLYING
2.28,APPROACH,ILS_TRACK,216.09,200,-16.09,2942.27,-20.45,-3.82,1.03,268.65,32.562,0,-20,245.4,-7,20214.86,135.51,52.238,-807.551,-33.753,0,0,0,270,0,0,0,0,0,0,0,0,0,0,0,0,0,1,1,2.32,FLYING
2.48,APPROACH,ILS_TRACK,216.19,200,-16.19,2937.49,-22,-5.65,-0.74,269.58,30.403,0,-20,245.4,-7,20213.9,133.4,52.188,-807.367,-31.568,0,0,0,270,0,0,0,0,0,0,0,0,0,0,0,0,0,1,1,2.52,FLYING
2.68,APPROACH,ILS_TRACK,216.28,200,-16.28,2932.43,-23.97,-7.17,-1.98,270.19,29.421,0,-20,245.4,-7,20212.94,131.01,52.138,-807.307,-29.736,0,0,0,270,0,0,0,0,0,0,0,0,0,0,0,0,0,1,1,2.72,FLYING
2.88,APPROACH,ILS_TRACK,216.33,200,-16.33,2927.14,-26.14,-8.06,-2.42,270.38,27.233,0,-20,245.4,-7,20211.99,128.37,52.089,-807.299,-27.966,0,0,0,270,0,0,0,0,0,0,0,0,0,0,0,0,0,1,1,2.92,FLYING
3.08,APPROACH,ILS_TRACK,216.34,200,-16.34,2921.62,-28.31,-8.22,-2.01,270.13,25.521,0,-20,245.4,-7,20211.08,125.5,52.039,-807.306,-26.177,0,0,0,270,0,0,0,0,0,0,0,0,0,0,0,0,0,1,1,3.12,FLYING
3.3,APPROACH,ILS_TRACK,216.33,200,-16.33,2915.33,-30.44,-7.56,-0.69,269.45,26.655,0,-20,245.4,-7,20210.11,122.11,51.984,-807.294,-24.282,0,0,0,270,0,0,0,0,0,0,0,0,0,0,0,0,0,1,1,3.34,FLYING
3.5,APPROACH,ILS_TRACK,216.29,200,-16.29,2909.44,-32,-6.26,1.21,268.43,29.748,0,-20,245.4,-7,20209.21,118.84,51.935,-807.246,-22.596,0,0,0,270,0,0,0,0,0,0,0,0,0,0,0,0,0,1,1,3.54,FLYING
3.7,APPROACH,ILS_TRACK,216.23,200,-16.23,2903.42,-33,-4.5,3.6,266.98,32.653,0,-20,245.4,-7,20208.27,115.45,51.885,-807.162,-21.073,0,0,0,270,0,0,0,0,0,0,0,0,0,0,0,0,0,1,1,3.74,FLYING
3.9,APPROACH,ILS_TRACK,216.15,200,-16.15,2897.2,-33.27,-3.09,5.52,265.56,35.76,0,-20,245.4,-7,20207.22,111.87,51.836,-806.967,-19.251,0,0,0,270,0,0,0,0,0,0,0,0,0,0,0,0,0,1,1,3.94,FLYING
4.1,APPROACH,ILS_TRACK,215.97,200,-15.97,2890.73,-33.36,-2.44,6.46,264.62,36.745,0,-20,245.4,-7,20205.93,108.03,51.786,-806.635,-17.037,0,0,0,270,0,0,0,0,0,0,0,0,0,0,0,0,0,1,1,4.14,FLYING
4.32,APPROACH,ILS_TRACK,215.67,200,-15.67,2883.46,-33.51,-2.11,6.94,264,35.438,0,-20,245.4,-7,20204.2,103.63,51.732,-806.204,-15.07,0,0,0,270,0,0,0,0,0,0,0,0,0,0,0,0,0,1,1,4.36,FLYING
4.52,APPROACH,ILS_TRACK,215.34,200,-15.34,2876.85,-33.56,-1.79,7.3,263.55,35.535,0,-20,245.4,-7,20202.35,99.59,51.683,-805.775,-13.715,0,0,0,270,0,0,0,0,0,0,0,0,0,0,0,0,0,1,1,4.56,FLYING
4.72,APPROACH,ILS_TRACK,214.94,200,-14.94,2870.24,-33.51,-1.45,7.74,262.95,38.037,0,-20,245.4,-7,20200.24,95.55,51.634,-805.374,-12.528,0,0,0,270,0,0,0,0,0,0,0,0,0,0,0,0,0,1,1,4.76,FLYING
4.92,APPROACH,ILS_TRACK,214.48,200,-14.48,2863.66,-33.43,-1.08,8.35,262.04,41.308,0,-20,245.4,-7,20197.88,91.53,51.585,-804.959,-11.37,0,0,0,270,0,0,0,0,0,0,0,0,0,0,0,0,0,1,1,4.96,FLYING
5.12,APPROACH,ILS_TRACK,213.96,200,-13.96,2857.09,-33.3,-0.74,9.08,260.87,44.084,0,-20,245.4,-7,20195.23,87.52,51.536,-804.499,-10.212,0,0,0,270,0,0,0,0,0,0,0,0,0,0,0,0,0,1,1,5.16,FLYING
5.34,APPROACH,ILS_TRACK,213.36,200,-13.36,2849.83,-33.15,-0.57,9.67,259.69,45.468,0,-20,245.4,-7,20191.91,83.07,51.482,-803.905,-8.764,0,0,0,270,0,0,0,0,0,0,0,0,0,0,0,0,0,1,1,5.38,FLYING
5.54,APPROACH,ILS_TRACK,212.76,200,-12.76,2843.23,-33.02,-0.52,10,258.8,45.783,0,-20,245.4,-7,20188.49,79.02,51.434,-803.266,-7.472,0,0,0,270,0,0,0,0,0,0,0,0,0,0,0,0,0,1,1,5.58,FLYING
5.74,APPROACH,ILS_TRACK,212.13,200,-12.13,2836.63,-32.9,-0.54,10.14,258.11,45.822,0,-20,245.4,-7,20184.67,74.95,51.385,-802.607,-6.231,0,0,0,270,0,0,0,0,0,0,0,0,0,0,0,0,0,1,1,5.78,FLYING
5.94,APPROACH,ILS_TRACK,211.48,200,-11.48,2830.05,-32.81,-0.57,10.19,257.54,45.691,0,-20,245.4,-7,20180.44,70.89,51.337,-801.939,-5.035,0,0,0,270,0,0,0,0,0,0,0,0,0,0,0,0,0,1,1,5.98,FLYING
6.14,APPROACH,ILS_TRACK,210.82,200,-10.82,2823.5,-32.72,-0.56,10.2,257.05,45.451,0,-20,245.4,-6.888,20175.83,66.85,51.289,-801.261,-3.888,0,0,0,270,0,0,0,0,0,0,0,0,0,0,0,0,0,1,1,6.18,FLYING
6.36,APPROACH,ILS_TRACK,210.1,200,-10.1,2816.33,-32.6,-0.51,10.22,256.56,45.055,0,-20,245.4,-5.651,20170.3,62.43,51.237,-800.533,-2.651,0,0,0,270,0,0,0,0,0,0,0,0,0,0,0,0,0,1,1,6.4,FLYING
6.56,APPROACH,ILS_TRACK,209.44,200,-9.44,2809.84,-32.49,-0.47,10.19,256.17,44.141,0,-20,245.4,-4.486,20164.88,58.42,51.189,-799.818,-1.486,0,0,0,270,0,0,0,0,0,0,0,0,0,0,0,0,0,1,1,6.6,FLYING
6.76,APPROACH,ILS_TRACK,208.76,200,-8.76,2803.39,-32.4,-0.31,10.23,255.81,41.797,0,-20,245.4,-3.443,20159.08,54.45,51.142,-799.119,-0.443,0,0,0,270,0,0,0,0,0,0,0,0,0,0,0,0,0,1,1,6.8,FLYING
6.96,APPROACH,ILS_TRACK,208.08,200,-8.08,2797.03,-32.22,0.05,10.41,255.45,39.264,0,-20,245.4,-2.539,20152.93,50.54,51.095,-798.426,0.461,0,0,0,270,0,0,0,0,0,0,0,0,0,0,0,0,0,1,1,7,FLYING
7.16,APPROACH,ILS_TRACK,207.39,200,-7.39,2790.77,-31.89,0.57,10.7,255.11,36.772,0,-20,245.4,-1.737,20146.43,46.72,51.048,-797.733,1.263,0,0,0,270,0,0,0,0,0,0,0,0,0,0,0,0,0,1,1,7.2,FLYING
7.38,APPROACH,ILS_TRACK,206.62,200,-6.62,2783.95,-31.34,1.02,10.8,254.94,34.181,0,-20,245.4,-0.737,20138.9,42.59,50.996,-796.997,2.263,0,0,0,270,0,0,0,0,0,0,0,0,0,0,0,0,0,1,1,7.42,FLYING
7.58,APPROACH,ILS_TRACK,205.9,200,-5.9,2777.85,-30.84,1.42,10.87,254.83,31.976,0,-20,245.4,0,20131.73,38.91,50.95,-796.303,3.054,0,0,0,270,0,0,0,0,0,0,0,0,0,0,0,0,0,1,1,7.62,FLYING
7.78,APPROACH,ILS_TRACK,205.17,200,-5.17,2771.89,-30.26,1.91,11.04,254.71,29.833,0,-20,245.4,0,20124.27,35.34,50.903,-795.649,3.657,0,0,0,270,0,0,0,0,0,0,0,0,0,0,0,0,0,1,1,7.82,FLYING
7.98,APPROACH,ILS_TRACK,204.43,200,-4.43,2766.02,-29.52,2.27,11.06,254.66,28.696,0,-20,245.4,0,20116.54,31.88,50.857,-794.999,4.287,0,0,0,270,0,0,0,0,0,0,0,0,0,0,0,0,0,1,1,8.02,FLYING
8.18,APPROACH,ILS_TRACK,203.68,200,-3.68,2760.28,-28.88,2.56,11.09,254.57,28.203,0,-20,245.4,0,20108.56,28.51,50.811,-794.374,4.913,0,0,0,270,0,0,0,0,0,0,0,0,0,0,0,0,0,1,1,8.22,FLYING
8.4,APPROACH,ILS_TRACK,202.85,200,-2.85,2754.1,-28.11,2.87,11.12,254.4,27.676,0,-20,245.4,0,20099.52,24.95,50.761,-793.702,5.464,0,0,0,270,0,0,0,0,0,0,0,0,0,0,0,0,0,1,1,8.44,FLYING
8.6,APPROACH,ILS_TRACK,202.1,200,-2.1,2748.61,-27.47,3.09,11.14,254.22,27.23,0,-20,245.4,0,20091.06,21.82,50.715,-793.065,5.957,0,0,0,270,0,0,0,0,0,0,0,0,0,0,0,0,0,1,1,8.64,FLYING
8.8,APPROACH,ILS_TRACK,201.34,200,-1.34,2743.24,-26.79,3.26,11.09,254.04,26.795,0,-20,245.4,0,20082.37,18.81,50.67,-792.442,6.421,0,0,0,270,0,0,0,0,0,0,0,0,0,0,0,0,0,1,1,8.84,FLYING
9,APPROACH,ILS_TRACK,200.59,200,-0.59,2738,-26.22,3.44,11.11,253.83,26.385,0,-20,245.4,0,20073.47,15.9,50.625,-791.812,6.858,0,0,0,270,0,0,0,0,0,0,0,0,0,0,0,0,0,1,1,9.04,FLYING
9.2,APPROACH,ILS_TRACK,199.84,200,0.16,2732.88,-25.53,3.6,11.07,253.63,25.925,0,-19.983,245.4,0,20064.36,13.12,50.58,-791.19,7.201,0,0,0,270,0,0,0,0,0,0,0,0,0,0,0,0,0,1,1,9.24,FLYING
9.42,APPROACH,ILS_TRACK,199.02,200,0.98,2727.36,-24.9,3.66,10.95,253.45,25.472,0,-19.785,245.4,0,20054.1,10.15,50.531,-790.505,7.754,0,0,0,270,0,0,0,0,0,0,0,0,0,0,0,0,0,1,1,9.46,FLYING
9.62,APPROACH,ILS_TRACK,198.28,200,1.72,2722.49,-24.36,3.86,11,253.22,25.021,0,-19.456,245.4,0,20044.57,7.59,50.486,-789.871,7.967,0,0,0,270,0,0,0,0,0,0,0,0,0,0,0,0,0,1,1,9.66,FLYING
9.82,APPROACH,ILS_TRACK,197.55,200,2.45,2717.72,-23.77,3.98,10.96,253.03,24.571,0,-18.98,245.4,0,20034.86,5.12,50.442,-789.248,8.322,0,0,0,270,0,0,0,0,0,0,0,0,0,0,0,0,0,1,1,9.86,FLYING
10.02,APPROACH,ILS_TRACK,196.81,200,3.19,2713.07,-23.22,4.14,10.96,252.83,24.132,0,-18.357,245.4,0,20024.95,2.76,50.398,-788.619,8.612,0,0,0,270,0,0,0,0,0,0,0,0,0,0,0,0,0,1,1,10.06,FLYING
10.22,APPROACH,ILS_TRACK,196.08,200,3.92,2708.53,-22.68,4.3,10.97,252.63,23.706,0.0006,-17.587,245.4,0,20014.88,0.5,50.354,-787.996,8.889,0,0,0,270,0,0,0,0,0,0,0,0,0,0,0,0,0,1,1,10.26,FLYING
10.44,APPROACH,ILS_TRACK,195.28,200,4.72,2703.66,-22.09,4.44,10.95,252.43,23.246,0.0571,-16.564,245.4,0,20003.58,-1.88,50.306,-787.313,9.21,0,0,0,270,0,0,0,0,0,0,0,0,0,0,0,0,0,1,1,10.48,FLYING
10.64,APPROACH,ILS_TRACK,194.55,200,5.45,2699.31,-21.46,4.46,10.78,252.32,22.682,0.1101,-15.487,245.4,0,19993.15,-3.95,50.262,-786.681,9.478,0,0,0,270,0,0,0,0,0,0,0,0,0,0,0,0,0,1,1,10.68,FLYING
10.84,APPROACH,ILS_TRACK,193.84,200,6.16,2694.99,-20.97,4.18,10.32,252.34,22.144,0.1639,-14.269,245.4,0,19982.54,-6.01,50.219,-786.047,10.035,0,0,0,270,0,0,0,0,0,0,0,0,0,0,0,0,0,1,1,10.88,FLYING
11.04,APPROACH,ILS_TRACK,193.18,200,6.82,2690.78,-20.67,3.99,10.02,252.29,21.944,0.2167,-12.917,245.4,0,19971.79,-7.98,50.176,-785.427,10.304,0,0,0,270,0,0,0,0,0,0,0,0,0,0,0,0,0,1,1,11.08,FLYING
11.24,APPROACH,ILS_TRACK,192.54,200,7.46,2686.7,-20.46,4.1,10.07,252.08,21.916,0.2696,-11.438,245.4,0,19960.91,-9.84,50.133,-784.831,10.382,0,0,0,270,0,0,0,0,0,0,0,0,0,0,0,0,0,1,1,11.28,FLYING
11.46,APPROACH,ILS_TRACK,191.85,200,8.15,2682.38,-20.2,4.64,10.6,251.64,21.891,0.3291,-9.658,245.4,0,19948.79,-11.72,50.086,-784.184,10.361,0,0,0,270,0,0,0,0,0,0,0,0,0,0,0,0,0,1,1,11.5,FLYING
11.66,APPROACH,ILS_TRACK,191.23,200,8.77,2678.56,-19.66,5.19,11.06,251.24,21.838,0.3843,-7.915,245.4,0,19937.63,-13.32,50.043,-783.559,10.392,0,0,0,270,0,0,0,0,0,0,0,0,0,0,0,0,0,1,1,11.7,FLYING
11.86,APPROACH,ILS_TRACK,190.61,200,9.39,2674.79,-19.11,5.53,11.29,250.91,21.834,0.4402,-6.051,245.4,0,19926.32,-14.88,50.001,-782.916,10.714,0,0,0,270,0,0,0,0,0,0,0,0,0,0,0,0,0,1,1,11.9,FLYING
12.06,APPROACH,ILS_TRACK,190.02,200,9.98,2671.09,-18.54,5.75,11.37,250.64,21.699,0.4971,-4.066,245.4,0,19914.85,-16.38,49.958,-782.258,10.9,0,0,0,270,0,0,0,0,0,0,0,0,0,0,0,0,0,1,1,12.1,FLYING
12.26,APPROACH,ILS_TRACK,189.45,200,10.55,2667.47,-18.05,5.84,11.34,250.44,21.477,0.5537,-1.966,245.4,0,19903.23,-17.82,49.916,-781.599,11.089,0,0,0,270,0,0,0,0,0,0,0,0,0,0,0,0,0,1,1,12.3,FLYING
12.48,APPROACH,ILS_TRACK,188.87,200,11.13,2663.6,-17.49,5.97,11.31,250.23,21.176,0.615,0.471,245.4,0,19890.27,-19.29,49.87,-780.88,11.134,0,0,0,270,0,0,0,0,0,0,0,0,0,0,0,0,0,1,1,12.52,FLYING
12.68,APPROACH,ILS_TRACK,188.4,200,11.6,2660.19,-17.02,6.08,11.29,250.04,20.905,0.6691,2.783,245.4,0,19878.32,-20.53,49.828,-780.203,11.141,0,0,0,270,0,0,0,0,0,0,0,0,0,0,0,0,0,1,1,12.72,FLYING
12.88,APPROACH,ILS_TRACK,187.97,200,12.03,2656.87,-16.55,6.2,11.27,249.86,20.652,0.7214,5.18,245.4,0,19866.23,-21.69,49.787,-779.532,11.138,0,0,0,270,0,0,0,0,0,0,0,0,0,0,0,0,0,1,1,12.92,FLYING
13.08,APPROACH,ILS_TRACK,187.61,200,12.39,2653.64,-16.09,6.32,11.27,249.67,20.441,0.7716,7.652,245.4,0,19853.99,-22.76,49.745,-778.854,11.093,0,0,0,270,0,0,0,0,0,0,0,0,0,0,0,0,0,1,1,13.12,FLYING
13.28,APPROACH,ILS_TRACK,187.29,200,12.71,2650.51,-15.62,6.45,11.26,249.48,20.279,0.8196,10.188,245.4,0,19841.6,-23.74,49.704,-778.176,11.039,0,0,0,270,0,0,0,0,0,0,0,0,0,0,0,0,0,1,1,13.32,FLYING
13.5,APPROACH,ILS_TRACK,187.01,200,12.99,2647.18,-15.11,6.59,11.27,249.25,20.16,0.8695,13.04,245.4,0,19827.79,-24.71,49.658,-777.421,10.961,0,0,0,270,0,0,0,0,0,0,0,0,0,0,0,0,0,1,1,13.54,FLYING
13.7,APPROACH,ILS_TRACK,186.82,200,13.18,2644.24,-14.65,6.72,11.26,249.03,20.1,0.9119,15.672,245.4,0,19815.08,-25.51,49.617,-776.712,10.838,0,0,0,270,0,0,0,0,0,0,0,0,0,0,0,0,0,1,1,13.74,FLYING
13.9,APPROACH,ILS_TRACK,186.69,200,13.31,2641.4,-14.18,6.83,11.25,248.81,20.079,0.9513,18.331,245.4,0,19802.21,-26.22,49.576,-776.002,10.704,0,0,0,270,0,0,0,0,0,0,0,0,0,0,0,0,0,1,1,13.94,FLYING
14.1,APPROACH,ILS_TRACK,186.62,200,13.38,2638.64,-13.72,6.93,11.23,248.59,20.101,0.9755,20,245.4,0,19789.18,-26.84,49.535,-775.282,10.545,0,0,0,270,0,0,0,0,0,0,0,0,0,0,0,0,0,1,1,14.14,FLYING
14.3,APPROACH,ILS_TRACK,186.62,200,13.38,2635.99,-13.26,7.05,11.24,248.34,20.153,0.976,20,245.4,0,19775.98,-27.37,49.494,-774.546,10.327,0,0,0,270,0,0,0,0,0,0,0,0,0,0,0,0,0,1,1,14.34,FLYING
14.52,APPROACH,ILS_TRACK,186.69,200,13.31,2633.16,-12.74,7.11,11.16,248.09,20.26,0.9728,20,245.4,0,19761.27,-27.86,49.449,-773.734,10.13,0,0,0,270,0,0,0,0,0,0,0,0,0,0,0,0,0,1,1,14.56,FLYING
14.72,APPROACH,ILS_TRACK,186.81,200,13.19,2630.7,-12.26,7.25,11.18,247.83,20.378,0.9662,20,245.4,0,19747.72,-28.19,49.408,-772.967,9.794,0,0,0,270,0,0,0,0,0,0,0,0,0,0,0,0,0,1,1,14.76,FLYING
14.92,APPROACH,ILS_TRACK,187,200,13,2628.34,-11.78,7.38,11.2,247.56,20.546,0.9564,20,245.4,0,19733.98,-28.43,49.367,-772.191,9.489,0,0,0,270,0,0,0,0,0,0,0,0,0,0,0,0,0,1,1,14.96,FLYING
15.12,APPROACH,ILS_TRACK,187.23,200,12.77,2626.07,-11.3,7.5,11.2,247.28,20.75,0.9437,20,245.4,0,19720.07,-28.58,49.326,-771.404,9.162,0,0,0,270,0,0,0,0,0,0,0,0,0,0,0,0,0,1,1,15.16,FLYING
15.32,APPROACH,ILS_TRACK,187.52,200,12.48,2623.89,-10.8,7.61,11.18,247,20.978,0.9281,20,245.4,0,19705.95,-28.63,49.286,-770.597,8.792,0,0,0,270,0,0,0,0,0,0,0,0,0,0,0,0,0,1,1,15.36,FLYING
15.54,APPROACH,ILS_TRACK,187.89,200,12.11,2621.62,-10.23,7.72,11.16,246.69,21.25,0.9079,20,245.4,0,19690.2,-28.57,49.241,-769.707,8.36,0,0,0,270,0,0,0,0,0,0,0,0,0,0,0,0,0,1,1,15.58,FLYING
15.74,APPROACH,ILS_TRACK,188.28,200,11.72,2619.65,-9.73,7.81,11.13,246.4,21.511,0.8871,20,245.4,0,19675.66,-28.42,49.2,-768.855,7.902,0,0,0,270,0,0,0,0,0,0,0,0,0,0,0,0,0,1,1,15.78,FLYING
15.94,APPROACH,ILS_TRACK,188.7,200,11.3,2617.75,-9.24,7.92,11.12,246.09,21.787,0.8639,20,245.4,0,19660.82,-28.15,49.159,-767.879,7.397,0,0,0,270,0,0,0,0,0,0,0,0,0,0,0,0,0,1,1,15.99,FLYING
16.27,APPROACH,ILS_TRACK,189.26,200,10.74,2614.95,-8.38,8.1,11.11,245.55,22.173,0.8349,20,245.4,0,19639.69,-27.61,49.101,-761.512,6.285,0,0,0,270,0,0,0,0,0,0,0,0,0,0,0,0,0,1,1,16.36,FLYING
16.7,APPROACH,ILS_TRACK,190.19,200,9.81,2611.65,-7.22,8.32,11.06,244.86,22.783,0.7861,20,245.4,0,19607.5,-26.4,49.015,-763.848,5.465,0,0,0,270,0,0,0,0,0,0,0,0,0,0,0,0,0,1,1,16.81,FLYING
17.22,APPROACH,ILS_TRACK,191.49,200,8.51,2608.39,-5.86,8.59,11.01,244.03,23.458,0.717,20,245.4,0,19567.68,-24.33,48.913,-761.539,3.789,0,0,0,270,0,0,0,0,0,0,0,0,0,0,0,0,0,1,1,17.34,FLYING
17.7,APPROACH,ILS_TRACK,192.88,200,7.12,2605.97,-4.44,8.69,10.74,243.45,23.817,0.6418,20,245.4,-0.888,19527.93,-21.71,48.814,-760.251,2.112,0,0,0,270,0,0,0,0,0,0,0,0,0,0,0,0,0,1,1,17.82,FLYING
18.24,APPROACH,ILS_TRACK,194.58,200,5.42,2603.5,-3.36,6.82,8.4,243.72,23.54,0.5496,20,245.4,-2.778,19481.41,-18.4,48.703,-755.999,0.222,0,0,0,270,0,0,0,0,0,0,0,0,0,0,0,0,0,1,1,18.36,FLYING
18.72,APPROACH,ILS_TRACK,196.45,200,3.55,2601.15,-3.17,3.7,4.92,244.68,26.091,0.4496,20,245.4,-3.363,19438.54,-15.41,48.603,-755.213,-0.363,0,0,0,270,0,0,0,0,0,0,0,0,0,0,0,0,0,1,1,18.84,FLYING
19.26,APPROACH,ILS_TRACK,199.07,200,0.93,2597.98,-5.74,1.1,2.8,245.03,24.109,0.3082,20,245.4,-3.781,19388.88,-12.57,48.491,-750.722,-0.781,0,0,0,270,0,0,0,0,0,0,0,0,0,0,0,0,0,1,1,19.38,FLYING
19.73,APPROACH,ILS_TRACK,201.66,200,-1.66,2594.42,-8.22,0.28,2.42,245.17,18.118,0.159,19.36,245.4,-2.954,19343.71,-10.67,48.39,-750.227,0.046,0,0,0,270,0,0,0,0,0,0,0,0,0,0,0,0,0,1,1,19.84,FLYING
20.15,APPROACH,ILS_TRACK,204.38,200,-4.38,2590.97,-10.01,2.06,4.58,244.88,10.804,0,17.275,245.4,-2.449,19299.09,-9.28,48.291,-749.65,0.551,0,0,0,270,0,0,0,0,0,0,0,0,0,0,0,0,0,1,1,20.22,FLYING
20.38,APPROACH,ILS_TRACK,205.84,200,-5.84,2588.93,-10.11,2.91,5.4,244.94,7.125,0,15.514,245.4,-1.997,19274.1,-8.66,48.236,-750.616,1.003,0,0,0,270,0,0,0,0,0,0,0,0,0,0,0,0,0,1,1,20.42,FLYING
20.58,APPROACH,ILS_TRACK,206.64,200,-6.64,2587.05,-10.23,3.44,5.93,245.07,4.857,0,14.201,245.4,-1.989,19254.5,-8.3,48.194,-745.678,1.011,0,0,0,270,0,0,0,0,0,0,0,0,0,0,0,0,0,1,1,20.62,FLYING
20.78,APPROACH,ILS_TRACK,207.27,200,-7.27,2585.22,-10.35,4.23,6.73,245.13,4.112,0,12.757,245.4,-2.246,19234.82,-7.89,48.151,-744.791,0.754,0,0,0,270,0,0,0,0,0,0,0,0,0,0,0,0,0,1,1,20.82,FLYING
20.98,APPROACH,ILS_TRACK,207.77,200,-7.77,2583.43,-9.78,5.02,7.38,245.14,3.408,0,11.212,245.4,-2.669,19215.07,-7.42,48.108,-743.918,0.331,0,0,0,270,0,0,0,0,0,0,0,0,0,0,0,0,0,1,1,21.02,FLYING
21.2,APPROACH,ILS_TRACK,208.11,200,-8.11,2581.24,-8.88,4.49,6.63,245.23,2.935,0,9.434,245.4,-2.125,19193.29,-7.08,48.06,-742.98,0.875,0,0,0,270,0,0,0,0,0,0,0,0,0,0,0,0,0,1,1,21.24,FLYING
21.4,APPROACH,ILS_TRACK,208.41,200,-8.41,2579.1,-8.79,3.16,5.27,245.31,2.385,0,7.76,245.4,-1.443,19173.44,-6.94,48.017,-742.123,1.557,0,0,0,270,0,0,0,0,0,0,0,0,0,0,0,0,0,1,1,21.44,FLYING
21.6,APPROACH,ILS_TRACK,208.77,200,-8.77,2576.96,-9.23,1.99,4.2,245.38,2.062,0,6.012,245.4,-1.418,19153.55,-6.83,47.974,-741.273,1.582,0,0,0,270,0,0,0,0,0,0,0,0,0,0,0,0,0,1,1,21.64,FLYING
21.8,APPROACH,ILS_TRACK,209.09,200,-9.09,2574.88,-9.97,1.44,3.82,245.39,1.833,0,4.199,245.4,-1.664,19133.62,-6.66,47.931,-740.441,1.336,0,0,0,270,0,0,0,0,0,0,0,0,0,0,0,0,0,1,1,21.84,FLYING
22,APPROACH,ILS_TRACK,209.34,200,-9.34,2572.87,-10.71,1.68,4.24,245.38,1.643,0,2.336,245.4,-2.043,19113.67,-6.42,47.888,-739.611,0.957,0,0,0,270,0,0,0,0,0,0,0,0,0,0,0,0,0,1,1,22.04,FLYING
22.22,APPROACH,ILS_TRACK,209.52,200,-9.52,2570.76,-11.25,2.8,5.49,245.35,1.468,0,0.244,245.4,-2.528,19091.71,-6.05,47.84,-738.712,0.472,0,0,0,270,0,0,0,0,0,0,0,0,0,0,0,0,0,1,1,22.26,FLYING
22.43,APPROACH,ILS_TRACK,209.63,200,-9.63,2568.75,-10.87,3.78,6.37,245.34,1.169,0,-1.681,245.4,-2.721,19071.44,-5.69,47.796,-737.536,0.279,0,0,0,270,0,0,0,0,0,0,0,0,0,0,0,0,0,1,1,22.47,FLYING
22.67,APPROACH,ILS_TRACK,209.63,200,-9.63,2566.05,-10.41,3.49,5.97,245.37,0.891,0,-3.843,245.4,-1.892,19047.62,-5.54,47.745,-735.374,1.108,0,0,0,270,0,0,0,0,0,0,0,0,0,0,0,0,0,1,1,22.73,FLYING
22.94,APPROACH,ILS_TRACK,209.63,200,-9.63,2563.08,-10.63,2.97,5.51,245.38,0.78,0,-6.191,245.4,-1.55,19021.73,-5.48,47.689,-734.337,1.45,0,0,0,270,0,0,0,0,0,0,0,0,0,0,0,0,0,1,1,23.01,FLYING
23.27,APPROACH,ILS_TRACK,209.53,200,-9.53,2559.76,-11.1,3.62,6.27,245.37,0.643,0,-8.974,245.4,-2.103,18990.82,-5.23,47.622,-733.112,0.897,0,0,0,270,0,0,0,0,0,0,0,0,0,0,0,0,0,1,1,23.35,FLYING
23.67,APPROACH,ILS_TRACK,209.21,200,-9.21,2555.67,-10.32,4.27,6.74,245.37,0.496,0,-12.536,245.4,-2.581,18951.28,-4.75,47.536,-732.386,0.419,0,0,0,270,0,0,0,0,0,0,0,0,0,0,0,0,0,1,1,23.75,FLYING
24.03,APPROACH,ILS_TRACK,208.82,200,-8.82,2551.78,-10.14,3.4,5.83,245.39,0.33,0,-15.727,245.4,-2.025,18915.37,-4.57,47.459,-731.682,0.975,0,0,0,270,0,0,0,0,0,0,0,0,0,0,0,0,0,1,1,24.11,FLYING
24.39,APPROACH,ILS_TRACK,208.36,200,-8.36,2548.13,-10.58,3.7,6.24,245.39,0.261,0,-18.758,245.4,-2.453,18879.53,-4.24,47.381,-730.293,0.547,0,0,0,270,0,0,0,0,0,0,0,0,0,0,0,0,0,1,1,24.47,FLYING
24.79,APPROACH,ILS_TRACK,207.72,200,-7.72,2544.08,-10,3.89,6.3,245.4,0.15,0,-20,245.4,-2.896,18839.82,-3.74,47.296,-728.772,0.104,0,0,0,270,0,0,0,0,0,0,0,0,0,0,0,0,0,1,1,24.87,FLYING
25.15,APPROACH,ILS_TRACK,207.13,200,-7.13,2540.21,-10.1,2.91,5.35,245.4,0.145,0,-20,245.4,-2.331,18804.17,-3.56,47.219,-727.408,0.669,0,0,0,270,0,0,0,0,0,0,0,0,0,0,0,0,0,1,1,25.23,FLYING
25.51,APPROACH,ILS_TRACK,206.51,200,-6.51,2536.52,-10.77,3.21,5.82,245.4,0.099,0,-20,245.4,-2.618,18768.61,-3.29,47.142,-726.056,0.382,0,0,0,270,0,0,0,0,0,0,0,0,0,0,0,0,0,1,1,25.59,FLYING
25.91,APPROACH,ILS_TRACK,205.75,200,-5.75,2532.41,-10.56,3.72,6.29,245.4,0.055,0,-20,245.4,-2.913,18729.24,-2.89,47.057,-724.563,0.087,0,0,0,270,0,0,0,0,0,0,0,0,0,0,0,0,0,1,1,25.99,FLYING
26.27,APPROACH,ILS_TRACK,205.04,200,-5.04,2528.51,-10.55,3.29,5.86,245.4,0.05,0,-20,245.4,-2.439,18693.93,-2.77,46.981,-723.231,0.561,0,0,0,270,0,0,0,0,0,0,0,0,0,0,0,0,0,1,1,26.35,FLYING
26.63,APPROACH,ILS_TRACK,204.28,200,-4.28,2524.76,-10.89,3.75,6.42,245.4,0.033,0,-20,245.4,-2.62,18658.73,-2.59,46.905,-721.909,0.38,0,0,0,270,0,0,0,0,0,0,0,0,0,0,0,0,0,1,1,26.71,FLYING
27.03,APPROACH,ILS_TRACK,203.37,200,-3.37,2520.53,-10.68,3.97,6.6,245.4,0.02,0,-20,245.4,-2.703,18619.78,-2.38,46.821,-720.445,0.297,0,0,0,270,0,0,0,0,0,0,0,0,0,0,0,0,0,1,1,27.11,FLYING
27.39,APPROACH,ILS_TRACK,202.53,200,-2.53,2516.71,-10.62,4.02,6.64,245.4,0.015,0,-20,245.4,-2.599,18584.86,-2.26,46.745,-719.146,0.401,0,0,0,270,0,0,0,0,0,0,0,0,0,0,0,0,0,1,1,27.47,FLYING
27.75,APPROACH,ILS_TRACK,201.67,200,-1.67,2512.93,-10.56,4.13,6.75,245.4,0.01,0,-20,245.4,-2.683,18550.08,-2.12,46.67,-717.851,0.317,0,0,0,270,0,0,0,0,0,0,0,0,0,0,0,0,0,1,1,27.83,FLYING
28.15,APPROACH,ILS_TRACK,200.68,200,-0.68,2508.74,-10.5,4.19,6.81,245.4,0.002,0,-20,245.4,-2.714,18511.61,-1.97,46.587,-716.416,0.286,0,0,0,270,0,0,0,0,0,0,0,0,0,0,0,0,0,1,1,28.23,FLYING
28.51,APPROACH,ILS_TRACK,199.77,200,0.23,2504.99,-10.45,4.25,6.87,245.4,-0.003,0,-19.953,245.4,-2.763,18477.13,-1.83,46.513,-715.143,0.237,0,0,0,270,0,0,0,0,0,0,0,0,0,0,0,0,0,1,1,28.59,FLYING
28.87,APPROACH,ILS_TRACK,198.84,200,1.16,2501.24,-10.42,4.28,6.9,245.39,-0.008,0,-19.574,245.4,-2.79,18442.8,-1.69,46.439,-713.873,0.21,0,0,0,270,0,0,0,0,0,0,0,0,0,0,0,0,0,1,1,28.95,FLYING
29.27,APPROACH,ILS_TRACK,197.8,200,2.2,2497.1,-10.39,4.35,6.98,245.39,-0.018,0,-18.738,245.4,-2.829,18404.83,-1.55,46.357,-712.464,0.171,0,0,0,270,0,0,0,0,0,0,0,0,0,0,0,0,0,1,1,29.35,FLYING
29.63,APPROACH,ILS_TRACK,196.86,200,3.14,2493.38,-10.39,4.39,7.03,245.39,-0.024,0,-17.645,245.4,-2.83,18370.82,-1.43,46.284,-711.214,0.17,0,0,0,270,0,0,0,0,0,0,0,0,0,0,0,0,0,1,1,29.71,FLYING
29.99,APPROACH,ILS_TRACK,195.91,200,4.09,2489.67,-10.37,4.48,7.12,245.39,-0.028,0.0249,-16.209,245.4,-2.86,18336.97,-1.31,46.211,-709.968,0.14,0,0,0,270,0,0,0,0,0,0,0,0,0,0,0,0,0,1,1,30.07,FLYING
30.39,APPROACH,ILS_TRACK,194.84,200,5.16,2485.54,-10.36,4.54,7.19,245.39,-0.03,0.1077,-14.188,245.4,-2.842,18299.53,-1.21,46.13,-708.585,0.158,0,0,0,270,0,0,0,0,0,0,0,0,0,0,0,0,0,1,1,30.47,FLYING
30.75,APPROACH,ILS_TRACK,193.88,200,6.12,2481.84,-10.36,4.64,7.31,245.39,-0.035,0.1864,-12.024,245.4,-2.856,18266,-1.12,46.058,-707.355,0.144,0,0,0,270,0,0,0,0,0,0,0,0,0,0,0,0,0,1,1,30.83,FLYING
31.11,APPROACH,ILS_TRACK,192.95,200,7.05,2478.14,-10.33,4.71,7.38,245.39,-0.036,0.2678,-9.523,245.4,-2.832,18232.63,-1.06,45.986,-706.127,0.168,0,0,0,270,0,0,0,0,0,0,0,0,0,0,0,0,0,1,1,31.19,FLYING
31.51,APPROACH,ILS_TRACK,191.98,200,8.02,2474.04,-10.31,4.8,7.48,245.39,-0.04,0.3599,-6.351,245.4,-2.842,18195.71,-0.99,45.906,-704.753,0.158,0,0,0,270,0,0,0,0,0,0,0,0,0,0,0,0,0,1,1,31.59,FLYING
31.87,APPROACH,ILS_TRACK,191.18,200,8.82,2470.34,-10.28,4.85,7.53,245.39,-0.042,0.4421,-3.206,245.4,-2.816,18162.62,-0.94,45.835,-703.528,0.184,0,0,0,270,0,0,0,0,0,0,0,0,0,0,0,0,0,1,1,31.95,FLYING
32.23,APPROACH,ILS_TRACK,190.48,200,9.52,2466.66,-10.26,4.92,7.6,245.39,-0.042,0.5222,0.197,245.4,-2.826,18129.65,-0.9,45.764,-702.288,0.174,0,0,0,270,0,0,0,0,0,0,0,0,0,0,0,0,0,1,1,32.31,FLYING
32.63,APPROACH,ILS_TRACK,189.84,200,10.16,2462.57,-10.23,4.94,7.62,245.39,-0.043,0.6067,4.239,245.4,-2.808,18093.13,-0.87,45.685,-700.9,0.192,0,0,0,270,0,0,0,0,0,0,0,0,0,0,0,0,0,1,1,32.71,FLYING
32.99,APPROACH,ILS_TRACK,189.41,200,10.59,2458.9,-10.2,4.95,7.64,245.39,-0.045,0.6768,8.038,245.4,-2.815,18060.33,-0.84,45.614,-699.642,0.185,0,0,0,270,0,0,0,0,0,0,0,0,0,0,0,0,0,1,1,33.07,FLYING
33.35,APPROACH,ILS_TRACK,189.13,200,10.87,2455.23,-10.18,4.93,7.62,245.39,-0.049,0.7397,11.942,245.4,-2.806,18027.59,-0.81,45.544,-698.367,0.194,0,0,0,270,0,0,0,0,0,0,0,0,0,0,0,0,0,1,1,33.43,FLYING
33.75,APPROACH,ILS_TRACK,189.03,200,10.97,2451.15,-10.17,4.9,7.58,245.39,-0.052,0.7993,16.33,245.4,-2.816,17991.24,-0.79,45.466,-696.929,0.184,0,0,0,270,0,0,0,0,0,0,0,0,0,0,0,0,0,1,1,33.83,FLYING
34.11,APPROACH,ILS_TRACK,189.12,200,10.88,2447.47,-10.16,4.84,7.51,245.39,-0.053,0.8392,20,245.4,-2.813,17958.52,-0.77,45.395,-695.615,0.187,0,0,0,270,0,0,0,0,0,0,0,0,0,0,0,0,0,1,1,34.19,FLYING
34.47,APPROACH,ILS_TRACK,189.41,200,10.59,2443.79,-10.16,4.76,7.43,245.39,-0.055,0.8247,20,245.4,-2.824,17925.75,-0.75,45.324,-694.279,0.176,0,0,0,270,0,0,0,0,0,0,0,0,0,0,0,0,0,1,1,34.55,FLYING
34.87,APPROACH,ILS_TRACK,189.95,200,10.05,2439.69,-10.18,4.65,7.32,245.39,-0.056,0.7963,20,245.4,-2.826,17889.27,-0.73,45.246,-692.767,0.174,0,0,0,270,0,0,0,0,0,0,0,0,0,0,0,0,0,1,1,34.95,FLYING
35.23,APPROACH,ILS_TRACK,190.63,200,9.37,2435.99,-10.21,4.55,7.21,245.39,-0.06,0.76,20,245.4,-2.839,17856.33,-0.7,45.175,-691.378,0.161,0,0,0,270,0,0,0,0,0,0,0,0,0,0,0,0,0,1,1,35.31,FLYING
35.59,APPROACH,ILS_TRACK,191.47,200,8.53,2432.27,-10.25,4.42,7.08,245.39,-0.062,0.7146,20,245.4,-2.841,17823.26,-0.68,45.104,-689.968,0.159,0,0,0,270,0,0,0,0,0,0,0,0,0,0,0,0,0,1,1,35.67,FLYING
35.99,APPROACH,ILS_TRACK,192.58,200,7.42,2428.12,-10.28,4.28,6.94,245.39,-0.064,0.6547,20,245.4,-2.854,17786.35,-0.66,45.024,-688.382,0.146,0,0,0,270,0,0,0,0,0,0,0,0,0,0,0,0,0,1,1,36.07,FLYING
36.35,APPROACH,ILS_TRACK,193.7,200,6.3,2424.37,-10.36,4.16,6.82,245.39,-0.066,0.5936,20,245.4,-2.851,17752.95,-0.64,44.952,-686.924,0.149,0,0,0,270,0,0,0,0,0,0,0,0,0,0,0,0,0,1,1,36.43,FLYING
36.71,APPROACH,ILS_TRACK,194.92,200,5.08,2420.59,-10.42,4.04,6.71,245.39,-0.067,0.527,20,245.4,-2.867,17719.36,-0.61,44.88,-685.452,0.133,0,0,0,270,0,0,0,0,0,0,0,0,0,0,0,0,0,1,1,36.79,FLYING
37.11,APPROACH,ILS_TRACK,196.36,200,3.64,2416.37,-10.5,3.9,6.57,245.39,-0.069,0.4483,20,245.4,-2.858,17681.82,-0.6,44.799,-683.808,0.142,0,0,0,270,0,0,0,0,0,0,0,0,0,0,0,0,0,1,1,37.19,FLYING
37.47,APPROACH,ILS_TRACK,197.7,200,2.3,2412.54,-10.58,3.8,6.47,245.39,-0.072,0.3746,20,245.4,-2.87,17647.82,-0.58,44.726,-682.298,0.13,0,0,0,270,0,0,0,0,0,0,0,0,0,0,0,0,0,1,1,37.55,FLYING
37.83,APPROACH,ILS_TRACK,199.06,200,0.94,2408.69,-10.66,3.69,6.36,245.39,-0.077,0.3,20,245.4,-2.86,17613.61,-0.56,44.652,-680.788,0.14,0,0,0,270,0,0,0,0,0,0,0,0,0,0,0,0,0,1,1,37.91,FLYING
38.23,APPROACH,ILS_TRACK,200.53,200,-0.53,2404.38,-10.74,3.6,6.28,245.39,-0.077,0.2168,19.845,245.4,-2.874,17575.36,-0.54,44.569,-679.112,0.126,0,0,0,270,0,0,0,0,0,0,0,0,0,0,0,0,0,1,1,38.31,FLYING
38.59,APPROACH,ILS_TRACK,201.78,200,-1.78,2400.48,-10.81,3.51,6.19,245.4,-0.08,0.1404,19.252,245.4,-2.861,17540.75,-0.54,44.495,-677.591,0.139,0,0,0,270,0,0,0,0,0,0,0,0,0,0,0,0,0,1,1,38.67,FLYING
38.95,APPROACH,ILS_TRACK,202.92,200,-2.92,2396.56,-10.88,3.47,6.16,245.4,-0.08,0.0649,18.244,245.4,-2.873,17505.96,-0.52,44.42,-676.08,0.127,0,0,0,270,0,0,0,0,0,0,0,0,0,0,0,0,0,1,1,39.03,FLYING
39.35,APPROACH,ILS_TRACK,204.01,200,-4.01,2392.18,-10.94,3.41,6.11,245.4,-0.08,0,16.68,245.4,-2.861,17467.13,-0.51,44.336,-674.419,0.139,0,0,0,270,0,0,0,0,0,0,0,0,0,0,0,0,0,1,1,39.43,FLYING
39.71,APPROACH,ILS_TRACK,204.8,200,-4.8,2388.22,-10.99,3.4,6.1,245.4,-0.08,0,14.98,245.4,-2.867,17432.07,-0.51,44.261,-672.932,0.133,0,0,0,270,0,0,0,0,0,0,0,0,0,0,0,0,0,1,1,39.79,FLYING
40.07,APPROACH,ILS_TRACK,205.39,200,-5.39,2384.25,-11.03,3.39,6.09,245.4,-0.081,0,13.061,245.4,-2.856,17396.92,-0.5,44.185,-671.466,0.144,0,0,0,270,0,0,0,0,0,0,0,0,0,0,0,0,0,1,1,40.15,FLYING
40.47,APPROACH,ILS_TRACK,205.81,200,-5.81,2379.84,-11.06,3.4,6.1,245.4,-0.082,0,10.749,245.4,-2.858,17357.8,-0.5,44.101,-669.86,0.142,0,0,0,270,0,0,0,0,0,0,0,0,0,0,0,0,0,1,1,40.55,FLYING
40.83,APPROACH,ILS_TRACK,206.02,200,-6.02,2375.86,-11.07,3.41,6.12,245.4,-0.078,0,8.588,245.4,-2.847,17322.56,-0.5,44.025,-668.433,0.153,0,0,0,270,0,0,0,0,0,0,0,0,0,0,0,0,0,1,1,40.91,FLYING
41.19,APPROACH,ILS_TRACK,206.07,200,-6.07,2371.88,-11.08,3.44,6.15,245.4,-0.079,0,6.403,245.4,-2.846,17287.32,-0.5,43.949,-667.021,0.154,0,0,0,270,0,0,0,0,0,0,0,0,0,0,0,0,0,1,1,41.27,FLYING
41.59,APPROACH,ILS_TRACK,205.97,200,-5.97,2367.46,-11.08,3.47,6.18,245.4,-0.077,0,4.008,245.4,-2.839,17248.19,-0.51,43.865,-665.469,0.161,0,0,0,270,0,0,0,0,0,0,0,0,0,0,0,0,0,1,1,41.67,FLYING
41.93,APPROACH,ILS_TRACK,205.76,200,-5.76,2363.63,-11.06,3.51,6.22,245.4,-0.062,0,1.926,245.4,-2.838,17213.56,-0.51,43.79,-664.478,0.162,0,0,0,270,0,0,0,0,0,0,0,0,0,0,0,0,0,1,1,42,FLYING
42.18,APPROACH,ILS_TRACK,205.46,200,-5.46,2360.94,-11.03,3.51,6.21,245.4,-0.022,0,0.111,245.4,-2.836,17186.6,-0.51,43.732,-667.092,0.164,0,0,0,270,0,0,0,0,0,0,0,0,0,0,0,0,0,1,1,42.22,FLYING
42.38,APPROACH,ILS_TRACK,205.24,200,-5.24,2358.74,-11.06,3.55,6.27,245.39,-0.024,0,-0.941,245.4,-2.844,17167.1,-0.51,43.69,-662.313,0.156,0,0,0,270,0,0,0,0,0,0,0,0,0,0,0,0,0,1,1,42.42,FLYING
42.6,APPROACH,ILS_TRACK,204.98,200,-4.98,2356.32,-11.03,3.58,6.29,245.39,-0.026,0,-2.042,245.4,-2.846,17145.68,-0.51,43.644,-661.487,0.154,0,0,0,270,0,0,0,0,0,0,0,0,0,0,0,0,0,1,1,42.64,FLYING
42.8,APPROACH,ILS_TRACK,204.71,200,-4.71,2354.12,-11.02,3.6,6.32,245.39,-0.03,0,-2.989,245.4,-2.839,17126.23,-0.52,43.602,-660.739,0.161,0,0,0,270,0,0,0,0,0,0,0,0,0,0,0,0,0,1,1,42.84,FLYING
43,APPROACH,ILS_TRACK,204.43,200,-4.43,2351.93,-11,3.64,6.35,245.39,-0.031,0,-3.88,245.4,-2.847,17106.81,-0.52,43.56,-659.996,0.153,0,0,0,270,0,0,0,0,0,0,0,0,0,0,0,0,0,1,1,43.04,FLYING
43.2,APPROACH,ILS_TRACK,204.12,200,-4.12,2349.74,-10.99,3.66,6.37,245.39,-0.032,0,-4.711,245.4,-2.833,17087.42,-0.52,43.518,-659.254,0.167,0,0,0,270,0,0,0,0,0,0,0,0,0,0,0,0,0,1,1,43.24,FLYING
43.4,APPROACH,ILS_TRACK,203.79,200,-3.79,2347.56,-10.97,3.7,6.42,245.39,-0.034,0,-5.475,245.4,-2.855,17068.06,-0.52,43.477,-658.519,0.145,0,0,0,270,0,0,0,0,0,0,0,0,0,0,0,0,0,1,1,43.44,FLYING
43.62,APPROACH,ILS_TRACK,203.41,200,-3.41,2345.15,-10.96,3.69,6.41,245.39,-0.036,0,-6.234,245.4,-2.805,17046.8,-0.53,43.431,-657.711,0.195,0,0,0,270,0,0,0,0,0,0,0,0,0,0,0,0,0,1,1,43.66,FLYING
43.82,APPROACH,ILS_TRACK,203.04,200,-3.04,2342.98,-10.94,3.78,6.5,245.39,-0.037,0,-6.85,245.4,-2.88,17027.5,-0.52,43.389,-656.979,0.12,0,0,0,270,0,0,0,0,0,0,0,0,0,0,0,0,0,1,1,43.86,FLYING
44.02,APPROACH,ILS_TRACK,202.67,200,-2.67,2340.78,-10.88,3.71,6.42,245.4,-0.038,0,-7.391,245.4,-2.775,17008.24,-0.53,43.348,-656.254,0.225,0,0,0,270,0,0,0,0,0,0,0,0,0,0,0,0,0,1,1,44.06,FLYING
44.22,APPROACH,ILS_TRACK,202.27,200,-2.27,2338.61,-10.98,3.78,6.51,245.4,-0.038,0,-7.853,245.4,-2.8,16989.01,-0.54,43.306,-655.529,0.2,0,0,0,270,0,0,0,0,0,0,0,0,0,0,0,0,0,1,1,44.26,FLYING
44.42,APPROACH,ILS_TRACK,201.86,200,-1.86,2336.46,-10.91,3.88,6.61,245.4,-0.038,0,-8.232,245.4,-2.9,16969.83,-0.53,43.265,-654.808,0.1,0,0,0,270,0,0,0,0,0,0,0,0,0,0,0,0,0,1,1,44.46,FLYING
44.64,APPROACH,ILS_TRACK,201.4,200,-1.4,2334.05,-10.83,3.79,6.51,245.4,-0.04,0,-8.55,245.4,-2.737,16948.76,-0.55,43.22,-654.015,0.263,0,0,0,270,0,0,0,0,0,0,0,0,0,0,0,0,0,1,1,44.68,FLYING
44.84,APPROACH,ILS_TRACK,200.97,200,-0.97,2331.88,-10.95,3.84,6.59,245.4,-0.04,0,-8.752,245.4,-2.749,16929.66,-0.57,43.178,-653.304,0.251,0,0,0,270,0,0,0,0,0,0,0,0,0,0,0,0,0,1,1,44.88,FLYING
45.04,APPROACH,ILS_TRACK,200.51,200,-0.51,2329.74,-10.89,4,6.74,245.4,-0.04,0,-8.863,245.4,-2.9,16910.59,-0.56,43.137,-652.591,0.1,0,0,0,270,0,0,0,0,0,0,0,0,0,0,0,0,0,1,1,45.08,FLYING
45.24,APPROACH,ILS_TRACK,200.07,200,-0.07,2327.56,-10.78,3.93,6.65,245.4,-0.042,0,-8.885,245.4,-2.729,16891.56,-0.58,43.096,-651.879,0.271,0,0,0,270,0,0,0,0,0,0,0,0,0,0,0,0,0,1,1,45.28,FLYING
45.44,APPROACH,ILS_TRACK,199.61,200,0.39,2325.4,-10.89,3.93,6.68,245.4,-0.041,0,-8.816,245.4,-2.678,16872.58,-0.62,43.055,-651.175,0.322,0,0,0,270,0,0,0,0,0,0,0,0,0,0,0,0,0,1,1,45.48,FLYING
45.66,APPROACH,ILS_TRACK,199.07,200,0.93,2323.06,-10.85,4.14,6.89,245.4,-0.043,0,-8.623,245.4,-2.873,16851.75,-0.6,43.011,-650.396,0.127,0,0,0,270,0,0,0,0,0,0,0,0,0,0,0,0,0,1,1,45.7,FLYING
45.86,APPROACH,ILS_TRACK,198.6,200,1.4,2320.89,-10.74,4.09,6.82,245.4,-0.044,0,-8.353,245.4,-2.709,16832.86,-0.63,42.97,-649.7,0.291,0,0,0,270,0,0,0,0,0,0,0,0,0,0,0,0,0,1,1,45.9,FLYING
46.06,APPROACH,ILS_TRACK,198.12,200,1.88,2318.74,-10.83,4.11,6.86,245.4,-0.04,0.0051,-7.986,245.4,-2.666,16814.01,-0.66,42.929,-648.996,0.334,0,0,0,270,0,0,0,0,0,0,0,0,0,0,0,0,0,1,1,46.1,FLYING
46.26,APPROACH,ILS_TRACK,197.61,200,2.39,2316.62,-10.79,4.28,7.03,245.4,-0.04,0.0384,-7.518,245.4,-2.834,16795.2,-0.65,42.889,-648.304,0.166,0,0,0,270,0,0,0,0,0,0,0,0,0,0,0,0,0,1,1,46.3,FLYING
46.46,APPROACH,ILS_TRACK,197.12,200,2.88,2314.47,-10.69,4.25,6.98,245.4,-0.04,0.0724,-6.951,245.4,-2.696,16776.44,-0.68,42.848,-647.609,0.304,0,0,0,270,0,0,0,0,0,0,0,0,0,0,0,0,0,1,1,46.5,FLYING
46.68,APPROACH,ILS_TRACK,196.57,200,3.43,2312.14,-10.75,4.32,7.08,245.4,-0.037,0.1116,-6.207,245.4,-2.695,16755.86,-0.7,42.804,-646.843,0.305,0,0,0,270,0,0,0,0,0,0,0,0,0,0,0,0,0,1,1,46.72,FLYING
46.88,APPROACH,ILS_TRACK,196.07,200,3.93,2310.02,-10.68,4.43,7.17,245.4,-0.038,0.1484,-5.43,245.4,-2.782,16737.2,-0.71,42.764,-646.159,0.218,0,0,0,270,0,0,0,0,0,0,0,0,0,0,0,0,0,1,1,46.92,FLYING
47.08,APPROACH,ILS_TRACK,195.58,200,4.42,2307.9,-10.64,4.44,7.18,245.4,-0.037,0.1855,-4.557,245.4,-2.698,16718.57,-0.73,42.724,-645.467,0.302,0,0,0,270,0,0,0,0,0,0,0,0,0,0,0,0,0,1,1,47.12,FLYING
47.28,APPROACH,ILS_TRACK,195.11,200,4.89,2305.8,-10.6,4.52,7.26,245.4,-0.037,0.2236,-3.587,245.4,-2.747,16700,-0.74,42.684,-644.778,0.253,0,0,0,270,0,0,0,0,0,0,0,0,0,0,0,0,0,1,1,47.32,FLYING
47.48,APPROACH,ILS_TRACK,194.65,200,5.35,2303.69,-10.57,4.54,7.28,245.4,-0.036,0.2616,-2.526,245.4,-2.712,16681.46,-0.75,42.644,-644.088,0.288,0,0,0,270,0,0,0,0,0,0,0,0,0,0,0,0,0,1,1,47.52,FLYING
47.7,APPROACH,ILS_TRACK,194.16,200,5.84,2301.38,-10.52,4.59,7.32,245.4,-0.036,0.3037,-1.251,245.4,-2.741,16661.12,-0.76,42.6,-643.327,0.259,0,0,0,270,0,0,0,0,0,0,0,0,0,0,0,0,0,1,1,47.74,FLYING
47.9,APPROACH,ILS_TRACK,193.75,200,6.25,2299.29,-10.48,4.62,7.34,245.4,-0.036,0.3416,-0.008,245.4,-2.73,16642.67,-0.77,42.56,-642.641,0.27,0,0,0,270,0,0,0,0,0,0,0,0,0,0,0,0,0,1,1,47.94,FLYING
48.1,APPROACH,ILS_TRACK,193.36,200,6.64,2297.21,-10.45,4.65,7.37,245.4,-0.033,0.379,1.313,245.4,-2.741,16624.25,-0.78,42.52,-641.947,0.259,0,0,0,270,0,0,0,0,0,0,0,0,0,0,0,0,0,1,1,48.14,FLYING
48.3,APPROACH,ILS_TRACK,193,200,7,2295.13,-10.42,4.67,7.39,245.4,-0.033,0.4157,2.706,245.4,-2.743,16605.86,-0.78,42.481,-641.256,0.257,0,0,0,270,0,0,0,0,0,0,0,0,0,0,0,0,0,1,1,48.34,FLYING
48.5,APPROACH,ILS_TRACK,192.67,200,7.33,2293.05,-10.39,4.69,7.4,245.4,-0.033,0.4515,4.166,245.4,-2.754,16587.51,-0.78,42.441,-640.56,0.246,0,0,0,270,0,0,0,0,0,0,0,0,0,0,0,0,0,1,1,48.54,FLYING
48.72,APPROACH,ILS_TRACK,192.35,200,7.65,2290.78,-10.36,4.7,7.41,245.4,-0.033,0.4895,5.844,245.4,-2.755,16567.35,-0.79,42.398,-639.788,0.245,0,0,0,270,0,0,0,0,0,0,0,0,0,0,0,0,0,1,1,48.76,FLYING
48.92,APPROACH,ILS_TRACK,192.1,200,7.9,2288.71,-10.33,4.71,7.42,245.4,-0.032,0.5225,7.42,245.4,-2.765,16549.05,-0.79,42.358,-639.087,0.235,0,0,0,270,0,0,0,0,0,0,0,0,0,0,0,0,0,1,1,48.96,FLYING
49.12,APPROACH,ILS_TRACK,191.88,200,8.12,2286.65,-10.31,4.71,7.41,245.4,-0.032,0.5538,9.039,245.4,-2.764,16530.77,-0.79,42.319,-638.383,0.236,0,0,0,270,0,0,0,0,0,0,0,0,0,0,0,0,0,1,1,49.16,FLYING
49.32,APPROACH,ILS_TRACK,191.71,200,8.29,2284.59,-10.28,4.71,7.41,245.4,-0.033,0.5833,10.694,245.4,-2.775,16512.51,-0.78,42.28,-637.674,0.225,0,0,0,270,0,0,0,0,0,0,0,0,0,0,0,0,0,1,1,49.36,FLYING
49.52,APPROACH,ILS_TRACK,191.59,200,8.41,2282.53,-10.27,4.7,7.39,245.4,-0.033,0.6106,12.374,245.4,-2.776,16494.27,-0.78,42.24,-636.96,0.224,0,0,0,270,0,0,0,0,0,0,0,0,0,0,0,0,0,1,1,49.56,FLYING
49.74,APPROACH,ILS_TRACK,191.5,200,8.5,2280.27,-10.25,4.68,7.38,245.4,-0.032,0.6381,14.243,245.4,-2.785,16474.2,-0.78,42.197,-636.168,0.215,0,0,0,270,0,0,0,0,0,0,0,0,0,0,0,0,0,1,1,49.78,FLYING
49.94,APPROACH,ILS_TRACK,191.47,200,8.53,2278.22,-10.23,4.66,7.35,245.4,-0.031,0.6604,15.948,245.4,-2.787,16455.97,-0.77,42.158,-635.449,0.213,0,0,0,270,0,0,0,0,0,0,0,0,0,0,0,0,0,1,1,49.98,FLYING
50.14,APPROACH,ILS_TRACK,191.49,200,8.51,2276.16,-10.22,4.64,7.32,245.4,-0.027,0.6802,17.651,245.4,-2.795,16437.74,-0.77,42.119,-634.718,0.205,0,0,0,270,0,0,0,0,0,0,0,0,0,0,0,0,0,1,1,50.18,FLYING
50.34,APPROACH,ILS_TRACK,191.56,200,8.44,2274.11,-10.22,4.59,7.27,245.4,-0.025,0.6971,19.342,245.4,-2.784,16419.5,-0.76,42.079,-633.984,0.216,0,0,0,270,0,0,0,0,0,0,0,0,0,0,0,0,0,1,1,50.38,FLYING
50.54,APPROACH,ILS_TRACK,191.67,200,8.33,2272.06,-10.22,4.57,7.25,245.4,-0.023,0.6988,20,245.4,-2.815,16401.26,-0.75,42.04,-633.245,0.185,0,0,0,270,0,0,0,0,0,0,0,0,0,0,0,0,0,1,1,50.58,FLYING
50.76,APPROACH,ILS_TRACK,191.86,200,8.14,2269.79,-10.23,4.51,7.19,245.4,-0.023,0.6889,20,245.4,-2.789,16381.17,-0.75,41.997,-632.427,0.211,0,0,0,270,0,0,0,0,0,0,0,0,0,0,0,0,0,1,1,50.8,FLYING
50.96,APPROACH,ILS_TRACK,192.08,200,7.92,2267.74,-10.22,4.48,7.16,245.4,-0.023,0.6772,20,245.4,-2.829,16362.9,-0.74,41.957,-631.671,0.171,0,0,0,270,0,0,0,0,0,0,0,0,0,0,0,0,0,1,1,51,FLYING
51.16,APPROACH,ILS_TRACK,192.34,200,7.66,2265.68,-10.24,4.41,7.09,245.41,-0.022,0.6628,20,245.4,-2.791,16344.61,-0.73,41.918,-630.917,0.209,0,0,0,270,0,0,0,0,0,0,0,0,0,0,0,0,0,1,1,51.2,FLYING
51.36,APPROACH,ILS_TRACK,192.65,200,7.35,2263.63,-10.24,4.4,7.08,245.41,-0.023,0.6462,20,245.4,-2.849,16326.29,-0.72,41.878,-630.152,0.151,0,0,0,270,0,0,0,0,0,0,0,0,0,0,0,0,0,1,1,51.4,FLYING
51.56,APPROACH,ILS_TRACK,193,200,7,2261.55,-10.25,4.29,6.97,245.41,-0.021,0.6273,20,245.4,-2.781,16307.94,-0.72,41.839,-629.385,0.219,0,0,0,270,0,0,0,0,0,0,0,0,0,0,0,0,0,1,1,51.6,FLYING
51.78,APPROACH,ILS_TRACK,193.42,200,6.58,2259.3,-10.27,4.36,7.03,245.41,-0.019,0.6043,20,245.4,-2.903,16287.72,-0.69,41.795,-628.534,0.097,0,0,0,270,0,0,0,0,0,0,0,0,0,0,0,0,0,1,1,51.82,FLYING
51.98,APPROACH,ILS_TRACK,193.83,200,6.17,2257.2,-10.21,4.13,6.78,245.41,-0.019,0.582,20,245.4,-2.733,16269.31,-0.7,41.756,-627.755,0.267,0,0,0,270,0,0,0,0,0,0,0,0,0,0,0,0,0,1,1,52.02,FLYING
52.18,APPROACH,ILS_TRACK,194.28,200,5.72,2255.12,-10.46,4.12,6.83,245.41,-0.019,0.5572,20,245.4,-2.775,16250.86,-0.71,41.716,-626.97,0.225,0,0,0,270,0,0,0,0,0,0,0,0,0,0,0,0,0,1,1,52.22,FLYING
52.38,APPROACH,ILS_TRACK,194.74,200,5.26,2253.07,-10.31,4.19,6.86,245.41,-0.021,0.5318,20,245.4,-2.968,16232.37,-0.66,41.676,-626.185,0.032,0,0,0,270,0,0,0,0,0,0,0,0,0,0,0,0,0,1,1,52.42,FLYING
52.58,APPROACH,ILS_TRACK,195.24,200,4.76,2250.94,-10.26,3.91,6.56,245.41,-0.014,0.5047,20,245.4,-2.683,16213.84,-0.69,41.636,-625.391,0.317,0,0,0,270,0,0,0,0,0,0,0,0,0,0,0,0,0,1,1,52.62,FLYING
52.8,APPROACH,ILS_TRACK,195.82,200,4.18,2248.62,-10.57,3.82,6.55,245.41,-0.013,0.4727,20,245.4,-2.695,16193.41,-0.72,41.592,-624.519,0.305,0,0,0,270,0,0,0,0,0,0,0,0,0,0,0,0,0,1,1,52.84,FLYING
53,APPROACH,ILS_TRACK,196.35,200,3.65,2246.56,-10.53,4,6.71,245.41,-0.014,0.4436,20,245.4,-2.969,16174.79,-0.67,41.552,-623.714,0.031,0,0,0,270,0,0,0,0,0,0,0,0,0,0,0,0,0,1,1,53.04,FLYING
53.2,APPROACH,ILS_TRACK,196.9,200,3.1,2244.41,-10.39,3.79,6.45,245.41,-0.011,0.4135,20,245.4,-2.714,16156.12,-0.69,41.512,-622.915,0.286,0,0,0,270,0,0,0,0,0,0,0,0,0,0,0,0,0,1,1,53.24,FLYING
53.4,APPROACH,ILS_TRACK,197.47,200,2.53,2242.27,-10.65,3.64,6.36,245.41,-0.011,0.3823,20,245.4,-2.607,16137.41,-0.74,41.471,-622.105,0.393,0,0,0,270,0,0,0,0,0,0,0,0,0,0,0,0,0,1,1,53.44,FLYING
53.6,APPROACH,ILS_TRACK,198.03,200,1.97,2240.19,-10.7,3.87,6.6,245.41,-0.011,0.3516,20,245.4,-2.915,16118.65,-0.7,41.431,-621.299,0.085,0,0,0,270,0,0,0,0,0,0,0,0,0,0,0,0,0,1,1,53.64,FLYING
53.82,APPROACH,ILS_TRACK,198.64,200,1.36,2237.81,-10.55,3.7,6.39,245.41,-0.008,0.3179,20,245.4,-2.71,16097.96,-0.72,41.386,-620.41,0.29,0,0,0,270,0,0,0,0,0,0,0,0,0,0,0,0,0,1,1,53.86,FLYING
54.02,APPROACH,ILS_TRACK,199.2,200,0.8,2235.66,-10.79,3.66,6.39,245.41,-0.008,0.2868,20,245.4,-2.642,16079.11,-0.76,41.346,-619.595,0.358,0,0,0,270,0,0,0,0,0,0,0,0,0,0,0,0,0,1,1,54.06,FLYING
54.22,APPROACH,ILS_TRACK,199.75,200,0.25,2233.55,-10.72,3.78,6.5,245.41,-0.008,0.257,20,245.4,-2.862,16060.21,-0.74,41.305,-618.786,0.138,0,0,0,270,0,0,0,0,0,0,0,0,0,0,0,0,0,1,1,54.26,FLYING
54.42,APPROACH,ILS_TRACK,200.28,200,-0.28,2231.37,-10.67,3.63,6.33,245.41,-0.006,0.227,19.955,245.4,-2.662,16041.27,-0.76,41.264,-617.97,0.338,0,0,0,270,0,0,0,0,0,0,0,0,0,0,0,0,0,1,1,54.46,FLYING
54.62,APPROACH,ILS_TRACK,200.79,200,-0.79,2229.23,-10.81,3.69,6.41,245.41,-0.006,0.197,19.807,245.4,-2.739,16022.28,-0.77,41.223,-617.16,0.261,0,0,0,270,0,0,0,0,0,0,0,0,0,0,0,0,0,1,1,54.66,FLYING
54.84,APPROACH,ILS_TRACK,201.32,200,-1.32,2226.86,-10.76,3.68,6.38,245.41,-0.008,0.1645,19.527,245.4,-2.772,16001.35,-0.77,41.178,-616.271,0.228,0,0,0,270,0,0,0,0,0,0,0,0,0,0,0,0,0,1,1,54.88,FLYING
55.04,APPROACH,ILS_TRACK,201.77,200,-1.77,2224.7,-10.76,3.65,6.35,245.41,-0.008,0.1352,19.182,245.4,-2.743,15982.29,-0.78,41.137,-615.462,0.257,0,0,0,270,0,0,0,0,0,0,0,0,0,0,0,0,0,1,1,55.08,FLYING
55.24,APPROACH,ILS_TRACK,202.19,200,-2.19,2222.55,-10.77,3.64,6.34,245.41,-0.008,0.1068,18.752,245.4,-2.769,15963.19,-0.78,41.096,-614.653,0.231,0,0,0,270,0,0,0,0,0,0,0,0,0,0,0,0,0,1,1,55.28,FLYING
55.44,APPROACH,ILS_TRACK,202.57,200,-2.57,2220.39,-10.77,3.61,6.31,245.41,-0.008,0.0795,18.245,245.4,-2.77,15944.06,-0.78,41.055,-613.849,0.23,0,0,0,270,0,0,0,0,0,0,0,0,0,0,0,0,0,1,1,55.48,FLYING
55.64,APPROACH,ILS_TRACK,202.91,200,-2.91,2218.23,-10.77,3.6,6.29,245.41,-0.009,0.0537,17.669,245.4,-2.792,15924.9,-0.77,41.014,-613.048,0.208,0,0,0,270,0,0,0,0,0,0,0,0,0,0,0,0,0,1,1,55.68,FLYING
55.86,APPROACH,ILS_TRACK,203.23,200,-3.23,2215.85,-10.78,3.57,6.26,245.41,-0.005,0.0272,16.963,245.4,-2.791,15903.8,-0.76,40.968,-612.174,0.209,0,0,0,270,0,0,0,0,0,0,0,0,0,0,0,0,0,1,1,55.9,FLYING
56.06,APPROACH,ILS_TRACK,203.48,200,-3.48,2213.7,-10.78,3.57,6.26,245.41,-0.006,0.0053,16.273,245.4,-2.822,15884.6,-0.75,40.927,-611.381,0.178,0,0,0,270,0,0,0,0,0,0,0,0,0,0,0,0,0,1,1,56.1,FLYING
56.26,APPROACH,ILS_TRACK,203.67,200,-3.67,2211.53,-10.81,3.53,6.23,245.41,-0.004,0,15.542,245.4,-2.794,15865.38,-0.75,40.885,-610.592,0.206,0,0,0,270,0,0,0,0,0,0,0,0,0,0,0,0,0,1,1,56.3,FLYING
56.46,APPROACH,ILS_TRACK,203.81,200,-3.81,2209.38,-10.75,3.58,6.26,245.41,-0.005,0,14.782,245.4,-2.889,15846.15,-0.72,40.844,-609.813,0.111,0,0,0,270,0,0,0,0,0,0,0,0,0,0,0,0,0,1,1,56.5,FLYING
56.66,APPROACH,ILS_TRACK,203.9,200,-3.9,2207.19,-10.75,3.41,6.09,245.41,-0.001,0,14.003,245.4,-2.713,15826.92,-0.74,40.802,-609.032,0.287,0,0,0,270,0,0,0,0,0,0,0,0,0,0,0,0,0,1,1,56.7,FLYING
56.88,APPROACH,ILS_TRACK,203.94,200,-3.94,2204.83,-10.91,3.52,6.24,245.41,-0.001,0,13.136,245.4,-2.846,15805.76,-0.72,40.757,-608.187,0.154,0,0,0,270,0,0,0,0,0,0,0,0,0,0,0,0,0,1,1,56.92,FLYING
57.08,APPROACH,ILS_TRACK,203.94,200,-3.94,2202.67,-10.8,3.52,6.21,245.41,-0.003,0,12.348,245.4,-2.865,15786.52,-0.7,40.715,-607.417,0.135,0,0,0,270,0,0,0,0,0,0,0,0,0,0,0,0,0,1,1,57.12,FLYING
57.28,APPROACH,ILS_TRACK,203.9,200,-3.9,2200.51,-10.84,3.54,6.24,245.41,0,0,11.567,245.4,-2.815,15767.29,-0.7,40.674,-606.656,0.185,0,0,0,270,0,0,0,0,0,0,0,0,0,0,0,0,0,1,1,57.32,FLYING
57.48,APPROACH,ILS_TRACK,203.82,200,-3.82,2198.35,-10.85,3.6,6.31,245.41,-0.001,0,10.801,245.4,-2.853,15748.07,-0.68,40.633,-605.897,0.147,0,0,0,270,0,0,0,0,0,0,0,0,0,0,0,0,0,1,1,57.52,FLYING
57.68,APPROACH,ILS_TRACK,203.71,200,-3.71,2196.18,-10.82,3.56,6.26,245.41,-0.002,0,10.056,245.4,-2.784,15728.86,-0.68,40.591,-605.142,0.216,0,0,0,270,0,0,0,0,0,0,0,0,0,0,0,0,0,1,1,57.72,FLYING
57.9,APPROACH,ILS_TRACK,203.54,200,-3.54,2193.82,-10.84,3.66,6.37,245.41,-0.004,0,9.274,245.4,-2.872,15707.75,-0.66,40.546,-604.316,0.128,0,0,0,270,0,0,0,0,0,0,0,0,0,0,0,0,0,1,1,57.94,FLYING
58.1,APPROACH,ILS_TRACK,203.36,200,-3.36,2191.64,-10.78,3.57,6.26,245.41,-0.003,0,8.598,245.4,-2.762,15688.57,-0.67,40.504,-603.573,0.238,0,0,0,270,0,0,0,0,0,0,0,0,0,0,0,0,0,1,1,58.14,FLYING
58.3,APPROACH,ILS_TRACK,203.15,200,-3.15,2189.48,-10.9,3.63,6.36,245.41,-0.003,0,7.963,245.4,-2.794,15669.42,-0.67,40.463,-602.832,0.206,0,0,0,270,0,0,0,0,0,0,0,0,0,0,0,0,0,1,1,58.34,FLYING
58.5,APPROACH,ILS_TRACK,202.91,200,-2.91,2187.34,-10.82,3.72,6.44,245.41,-0.004,0,7.376,245.4,-2.891,15650.28,-0.65,40.422,-602.092,0.109,0,0,0,270,0,0,0,0,0,0,0,0,0,0,0,0,0,1,1,58.54,FLYING
58.7,APPROACH,ILS_TRACK,202.65,200,-2.65,2185.16,-10.75,3.63,6.33,245.41,-0.003,0,6.84,245.4,-2.742,15631.17,-0.67,40.381,-601.36,0.258,0,0,0,270,0,0,0,0,0,0,0,0,0,0,0,0,0,1,1,58.74,FLYING
58.92,APPROACH,ILS_TRACK,202.34,200,-2.34,2182.8,-10.88,3.69,6.43,245.41,-0.004,0,6.319,245.4,-2.77,15610.18,-0.67,40.336,-600.552,0.23,0,0,0,270,0,0,0,0,0,0,0,0,0,0,0,0,0,1,1,58.96,FLYING
59.12,APPROACH,ILS_TRACK,202.03,200,-2.03,2180.66,-10.82,3.81,6.53,245.41,-0.005,0,5.907,245.4,-2.889,15591.13,-0.65,40.294,-599.829,0.111,0,0,0,270,0,0,0,0,0,0,0,0,0,0,0,0,0,1,1,59.16,FLYING
59.32,APPROACH,ILS_TRACK,201.71,200,-1.71,2178.49,-10.73,3.73,6.43,245.41,-0.003,0,5.559,245.4,-2.732,15572.1,-0.67,40.254,-599.102,0.268,0,0,0,270,0,0,0,0,0,0,0,0,0,0,0,0,0,1,1,59.36,FLYING
59.52,APPROACH,ILS_TRACK,201.36,200,-1.36,2176.34,-10.85,3.74,6.48,245.41,-0.003,0,5.279,245.4,-2.712,15553.11,-0.69,40.213,-598.383,0.288,0,0,0,270,0,0,0,0,0,0,0,0,0,0,0,0,0,1,1,59.56,FLYING
59.72,APPROACH,ILS_TRACK,200.99,200,-0.99,2174.22,-10.8,3.9,6.63,245.41,-0.004,0.0042,5.073,245.4,-2.883,15534.15,-0.67,40.172,-597.663,0.117,0,0,0,270,0,0,0,0,0,0,0,0,0,0,0,0,0,1,1,59.76,FLYING
59.94,APPROACH,ILS_TRACK,200.58,200,-0.58,2171.84,-10.71,3.83,6.54,245.41,-0.002,0.025,4.936,245.4,-2.712,15513.33,-0.69,40.127,-596.877,0.288,0,0,0,270,0,0,0,0,0,0,0,0,0,0,0,0,0,1,1,59.98,FLYING
60.14,APPROACH,ILS_TRACK,200.19,200,-0.19,2169.7,-10.82,3.89,6.64,245.41,-0.003,0.0459,4.889,245.4,-2.723,15494.44,-0.71,40.086,-596.167,0.277,0,0,0,270,0,0,0,0,0,0,0,0,0,0,0,0,0,1,1,60.18,FLYING
60.34,APPROACH,ILS_TRACK,199.78,200,0.22,2167.58,-10.75,4.02,6.75,245.41,-0.005,0.0688,4.925,245.4,-2.844,15475.59,-0.69,40.046,-595.46,0.156,0,0,0,270,0,0,0,0,0,0,0,0,0,0,0,0,0,1,1,60.38,FLYING
60.54,APPROACH,ILS_TRACK,199.38,200,0.62,2165.43,-10.68,3.98,6.7,245.41,-0.005,0.0922,5.04,245.4,-2.7,15456.77,-0.72,40.005,-594.753,0.3,0,0,0,270,0,0,0,0,0,0,0,0,0,0,0,0,0,1,1,60.58,FLYING
60.74,APPROACH,ILS_TRACK,198.97,200,1.03,2163.31,-10.74,4.06,6.81,245.41,-0.005,0.1171,5.237,245.4,-2.741,15437.99,-0.73,39.965,-594.046,0.259,0,0,0,270,0,0,0,0,0,0,0,0,0,0,0,0,0,1,1,60.78,FLYING
60.96,APPROACH,ILS_TRACK,198.53,200,1.47,2160.98,-10.67,4.14,6.87,245.41,-0.007,0.1455,5.553,245.4,-2.782,15417.38,-0.73,39.92,-593.269,0.218,0,0,0,270,0,0,0,0,0,0,0,0,0,0,0,0,0,1,1,61,FLYING
61.16,APPROACH,ILS_TRACK,198.13,200,1.87,2158.86,-10.64,4.17,6.9,245.41,-0.007,0.1718,5.919,245.4,-2.734,15398.68,-0.74,39.88,-592.57,0.266,0,0,0,270,0,0,0,0,0,0,0,0,0,0,0,0,0,1,1,61.2,FLYING
61.36,APPROACH,ILS_TRACK,197.74,200,2.26,2156.75,-10.61,4.22,6.94,245.41,-0.009,0.1986,6.364,245.4,-2.761,15380.01,-0.74,39.84,-591.866,0.239,0,0,0,270,0,0,0,0,0,0,0,0,0,0,0,0,0,1,1,61.4,FLYING
61.56,APPROACH,ILS_TRACK,197.36,200,2.64,2154.64,-10.57,4.24,6.96,245.41,-0.009,0.2257,6.884,245.4,-2.748,15361.38,-0.75,39.8,-591.164,0.252,0,0,0,270,0,0,0,0,0,0,0,0,0,0,0,0,0,1,1,61.6,FLYING
61.76,APPROACH,ILS_TRACK,196.99,200,3.01,2152.54,-10.54,4.28,6.99,245.41,-0.01,0.2531,7.478,245.4,-2.761,15342.78,-0.75,39.76,-590.46,0.239,0,0,0,270,0,0,0,0,0,0,0,0,0,0,0,0,0,1,1,61.8,FLYING
61.98,APPROACH,ILS_TRACK,196.61,200,3.39,2150.23,-10.51,4.3,7.01,245.41,-0.012,0.2831,8.216,245.4,-2.763,15322.35,-0.75,39.716,-589.687,0.237,0,0,0,270,0,0,0,0,0,0,0,0,0,0,0,0,0,1,1,62.02,FLYING
62.18,APPROACH,ILS_TRACK,196.28,200,3.72,2148.14,-10.48,4.32,7.03,245.41,-0.012,0.3101,8.953,245.4,-2.77,15303.82,-0.76,39.676,-588.985,0.23,0,0,0,270,0,0,0,0,0,0,0,0,0,0,0,0,0,1,1,62.22,FLYING
62.38,APPROACH,ILS_TRACK,195.98,200,4.02,2146.05,-10.45,4.34,7.05,245.41,-0.012,0.3367,9.752,245.4,-2.774,15285.31,-0.76,39.636,-588.278,0.226,0,0,0,270,0,0,0,0,0,0,0,0,0,0,0,0,0,1,1,62.42,FLYING
