t_s,phase,subphase,ias_ms,vapp_ms,spd_err_ms,agl_m,gear_h_m,vs_ms,pitch_deg,aoa_deg,hdg_deg,bank_deg,thr_cmd,thr_cur,thr_intg,at_gain,at_tau_s,at_a_up,at_a_dn,at_kp_thr,at_ki_spd,at_thr_slew,as_cmd_deg,as_cap_deg,as_raw_deg,as_spd_err_ms,as_active,aa_hdg_cmd_deg,aa_fpa_cmd_deg,aa_fbw,aa_dir,actual_fpa_deg,ftf_hdg_err_deg,ftf_fix_idx,kos_steer_pit_deg,kos_steer_hdg_deg,aa_dir_vx,aa_dir_vy,aa_dir_vz,aa_dir_pitch_deg,aa_dir_hdg_deg,ils_loc_m,ils_gs_m,ils_dist_km,loc_corr_deg,gs_corr_deg,gs_latched,active_gs_ang_deg,ils_intercept_alt_m,d_gs_ms,fpa_preclamped_deg,gs_nom_alt_m,flare_fpa_cmd,flare_tgt_vs,flare_frac,flare_mode,flare_auth_limited,flare_vs_err,flare_fpa_err,flare_pitch_err,flare_req_up_a,flare_thr_floor,flare_tecs_et_err,flare_tecs_eb_err,flare_tecs_h_ref,flare_tecs_v_ref,steer_hdg_deg,steer_blend,ro_loc_corr_deg,ro_hdg_err_deg,ro_yaw_tgt,ro_yaw_scale,ro_yaw_gate,yaw_cmd,roll_cmd,pitch_cmd,ro_pitch_tgt_deg,ro_pitch_err_deg,ro_pitch_ff,ro_roll_assist,flaps_cur,flaps_tgt,asc_j_ab,asc_j_rk,asc_validity,asc_q_pa,asc_q_raw_pa,asc_mach,asc_apo_m,asc_drag_n,asc_w_prop,asc_edot_aero,asc_edot_orb,asc_pitch_bias,asc_blend,asc_spooling,asc_ab_thr_ratio,asc_ab_t_now,asc_ab_t_avail,asc_ab_ign_on,asc_ab_flameouts,asc_rk_t_now,asc_rk_t_avail,asc_rk_ign_on,asc_rk_flameouts,ship_thrust,ship_avail_thrust,ship_ign_on,ship_flameouts,ifc_raw_dt_s,ifc_dt_s,ifc_loop_n,ifc_hz_est,ifc_raw_dt_max_s,ifc_raw_dt_min_s,phase_el_s,status,craft_name,cfg_file
0.16,APPROACH,ILS_TRACK,155.17,152,-3.17,667.87,592.99,-21.36,6.9,14.39,270.01,0.128,0,0,0,0,0,0,0,0,0,0,0,0,0,0,0,0,0,1,0,-7.85,0,0,0,90,0,0,0,0,0,-0.01,-21.8,11.742,0,0,0,3,667.87,0,0,689.67,0,0,0,,0,0,0,0,0,0,0,0,0,0,270.01,0,0,0,0,0,0,0,0,0,0,0,0,0,0,0,0,0,VALID,0,0,0,0,0,1,0,0,0,0,0,0,0,0,0,0,0,0,0,0,258.14,1092.48,2,0,0.14,0.14,1,3.7,0.14,0.02,0.16,FLYING,X10-F,0:/Integrated Flight Computer/aircraft/x10_f_cfg.ks (inferred preloaded)
0.42,APPROACH,ILS_TRACK,155.41,152,-3.41,662.35,587.48,-21.03,6.93,14.28,270.03,0.047,0,0,0,1,0.6,1.486,0.75,0.35,0.0168,0.4,2.149,20.933,2.149,3.399,1,270,0,0,1,-7.73,0,0,0,270.02,0.5857,0,0.8105,0,270,-0.01,-24.59,11.706,-0.003,17.563,1,3,667.87,-12.731,0,687.8,0,0,0,,0,0,0,0,0,0,0,0,0,0,270.01,0,0,0,0,0,0,0,0,0,0,0,0,0,1,3,0,0,VALID,0,0,0,0,0,1,0,0,0,0,0,0,0,0,0,0,0,0,0,0,235.94,1093.95,2,0,0.12,0.12,3,7.69,0.14,0.12,0.42,FLYING,X10-F,0:/Integrated Flight Computer/aircraft/x10_f_cfg.ks (inferred preloaded)
0.68,APPROACH,ILS_TRACK,155.47,152,-3.47,656.65,582.11,-20.53,6.1,13.18,270.01,0.03,0,0,0,1,0.6,2.746,0.75,0.35,0.0168,0.4,2.232,20.912,2.232,3.475,1,269.99,0,0,1,-7.55,0,0,0,270,0.5857,-0.0002,0.8105,0,269.99,0,-28.03,11.664,-0.009,19.193,1,3,667.87,-13.479,0,685.58,0,0,0,,0,0,0,0,0,0,0,0,0,0,270.01,0,0,0,0,0,0,0,0,0,0,0,0,0,1,3,0,0,VALID,0,0,0,0,0,1,0,0,0,0,0,0,0,0,0,0,0,0,0,0,215.49,1094.61,2,0,0.12,0.12,5,7.69,0.14,0.12,0.68,FLYING,X10-F,0:/Integrated Flight Computer/aircraft/x10_f_cfg.ks (inferred preloaded)
0.94,APPROACH,ILS_TRACK,155.58,152,-3.58,650.75,576.82,-20.67,4.21,11.28,270.01,0.013,0,0,0,1,0.6,3.812,0.75,0.35,0.0168,0.4,2.322,20.889,2.322,3.556,1,269.99,0,0,1,-7.55,0,0,0,269.99,0.5858,-0.0001,0.8105,0,269.99,0.01,-31.7,11.622,-0.007,20.907,1,3,667.87,-14.246,0,683.37,0,0,0,,0,0,0,0,0,0,0,0,0,0,270.01,0,0,0,0,0,0,0,0,0,0,0,0,0,2,3,0,0,VALID,0,0,0,0,0,1,0,0,0,0,0,0,0,0,0,0,0,0,0,0,196.82,1095.44,2,0,0.12,0.12,7,7.69,0.14,0.12,0.94,FLYING,X10-F,0:/Integrated Flight Computer/aircraft/x10_f_cfg.ks (inferred preloaded)
1.3,APPROACH,ILS_TRACK,156.07,152,-4.07,642.38,569.34,-21.32,1.44,8.7,270.01,0.01,0,0,0,1,0.6,4.5,0.75,0.35,0.0168,0.4,2.851,20.752,2.851,4.042,1,269.99,0,0,1,-7.75,0,0,0,270,0.5859,-0.0001,0.8104,0,269.99,0.01,-36.96,11.563,-0.007,23.046,1,3,667.87,-14.946,0,680.29,0,0,0,,0,0,0,0,0,0,0,0,0,0,270.01,0,0,0,0,0,0,0,0,0,0,0,0,0,3,3,0,0,VALID,0,0,0,0,0,1,0,0,0,0,0,0,0,0,0,0,0,0,0,0,173.86,1098.12,2,0,0.12,0.12,10,8.33,0.12,0.12,1.3,FLYING,X10-F,0:/Integrated Flight Computer/aircraft/x10_f_cfg.ks (inferred preloaded)
1.66,APPROACH,ILS_TRACK,156.73,152,-4.73,633.53,561.33,-22.75,-1.82,5.89,270.01,0.017,0,0,0,1,0.6,4.5,0.75,0.35,0.0168,0.4,3.541,20.571,3.541,4.685,1,269.99,0,0,1,-8.19,0,0,0,269.99,0.5859,-0.0001,0.8103,0,269.99,0.02,-42.68,11.504,-0.007,25.831,1,3,667.87,-16.283,0,677.21,0,0,0,,0,0,0,0,0,0,0,0,0,0,270.01,0,0,0,0,0,0,0,0,0,0,0,0,0,3,3,0,0,VALID,0,0,0,0,0,1,0,0,0,0,0,0,0,0,0,0,0,0,0,0,153.67,1101.5,2,0,0.12,0.12,13,8.33,0.12,0.12,1.66,FLYING,X10-F,0:/Integrated Flight Computer/aircraft/x10_f_cfg.ks (inferred preloaded)
2.02,APPROACH,ILS_TRACK,157.48,152,-5.48,624.4,552.64,-25.01,-3.81,4.76,270.01,0.013,0,0,0,1,0.6,4.5,0.75,0.35,0.0168,0.4,4.338,20.357,4.338,5.443,1,269.99,0,0,1,-8.94,0,0,0,269.99,0.586,-0.0001,0.8103,0,269.99,0.03,-48.7,11.445,-0.006,28.116,1,3,667.87,-16.884,0,674.12,0,0,0,,0,0,0,0,0,0,0,0,0,0,270.01,0,0,0,0,0,0,0,0,0,0,0,0,0,3,3,0,0,VALID,0,0,0,0,0,1,0,0,0,0,0,0,0,0,0,0,0,0,0,0,135.9,1105.42,2,0,0.12,0.12,16,8.33,0.12,0.12,2.02,FLYING,X10-F,0:/Integrated Flight Computer/aircraft/x10_f_cfg.ks (inferred preloaded)
2.38,APPROACH,ILS_TRACK,158.17,152,-6.17,615.11,543.23,-27.19,-3.59,5.85,270.01,0.007,0,0,0,1,0.6,4.5,0.75,0.35,0.0168,0.4,5.052,20.162,5.052,6.135,1,269.99,0,0,1,-9.68,0,0,0,269.99,0.5861,-0.0001,0.8102,0,269.99,0.04,-54.88,11.386,-0.008,30.301,1,3,667.87,-17.297,0,671.03,0,0,0,,0,0,0,0,0,0,0,0,0,0,270.01,0,0,0,0,0,0,0,0,0,0,0,0,0,3,3,0,0,VALID,0,0,0,0,0,1,0,0,0,0,0,0,0,0,0,0,0,0,0,0,120.16,1109.14,2,0,0.12,0.12,19,8.33,0.12,0.12,2.38,FLYING,X10-F,0:/Integrated Flight Computer/aircraft/x10_f_cfg.ks (inferred preloaded)
2.74,APPROACH,ILS_TRACK,158.71,152,-6.71,605.75,533.25,-28.72,-1.23,8.84,270.01,-0.002,0,0,0,1,0.6,4.5,0.75,0.35,0.0168,0.4,5.613,20.005,5.613,6.691,1,269.99,0,0,1,-10.22,0,0,0,269.99,0.5862,-0.0001,0.8102,0,269.99,0.05,-61.14,11.327,-0.005,32.247,1,3,667.87,-17.382,0,667.93,0,0,0,,0,0,0,0,0,0,0,0,0,0,270.01,0,0,0,0,0,0,0,0,0,0,0,0,0,3,3,0,0,VALID,0,0,0,0,0,1,0,0,0,0,0,0,0,0,0,0,0,0,0,0,106.2,1112.34,2,0,0.12,0.12,22,8.33,0.12,0.12,2.74,FLYING,X10-F,0:/Integrated Flight Computer/aircraft/x10_f_cfg.ks (inferred preloaded)
3.1,APPROACH,ILS_TRACK,158.94,152,-6.94,596.48,522.79,-28.94,2.7,12.92,270,-0.012,0,0,0,1,0.6,4.5,0.75,0.35,0.0168,0.4,5.863,19.935,5.863,6.941,1,269.99,0,0,1,-10.34,0,0,0,269.99,0.5863,-0.0002,0.8101,0,269.99,0.05,-67.32,11.268,-0.009,33.878,1,3,667.87,-17.103,0,664.83,0,0,0,,0,0,0,0,0,0,0,0,0,0,270.01,0,0,0,0,0,0,0,0,0,0,0,0,0,3,3,0,0,VALID,0,0,0,0,0,1,0,0,0,0,0,0,0,0,0,0,0,0,0,0,93.75,1114.2,2,0,0.12,0.12,25,8.33,0.12,0.12,3.1,FLYING,X10-F,0:/Integrated Flight Computer/aircraft/x10_f_cfg.ks (inferred preloaded)
3.36,APPROACH,ILS_TRACK,158.74,152,-6.74,589.71,515.31,-28.16,5.1,15,270,-0.016,0,0,0,1,0.6,4.5,0.75,0.35,0.0168,0.4,5.693,19.983,5.693,6.77,1,269.99,0,0,1,-10.1,0,0,0,269.99,0.5863,-0.0001,0.8101,0,269.99,0.06,-71.84,11.225,-0.008,35.537,1,3,667.87,-17.482,0,662.59,0,0,0,,0,0,0,0,0,0,0,0,0,0,270.01,0,0,0,0,0,0,0,0,0,0,0,0,0,3,3,0,0,VALID,0,0,0,0,0,1,0,0,0,0,0,0,0,0,0,0,0,0,0,0,85.56,1113.95,2,0,0.12,0.12,27,7.69,0.14,0.12,3.36,FLYING,X10-F,0:/Integrated Flight Computer/aircraft/x10_f_cfg.ks (inferred preloaded)
3.72,APPROACH,ILS_TRACK,158.1,152,-6.1,580.42,505.35,-26.98,7.28,16.79,270,-0.016,0,0,0,1,0.6,4.5,0.75,0.35,0.0168,0.4,5.058,20.16,5.058,6.142,1,269.99,0,0,1,-9.73,0,0,0,269.99,0.5864,-0.0001,0.81,0,269.99,0.06,-78.07,11.167,-0.005,37.051,1,3,667.87,-17.036,0,659.5,0,0,0,,0,0,0,0,0,0,0,0,0,0,270.01,0,0,0,0,0,0,0,0,0,0,0,0,0,3,3,0,0,VALID,0,0,0,0,0,1,0,0,0,0,0,0,0,0,0,0,0,0,0,0,75.27,1111.96,2,0,0.12,0.12,30,8.33,0.12,0.12,3.72,FLYING,X10-F,0:/Integrated Flight Computer/aircraft/x10_f_cfg.ks (inferred preloaded)
4.08,APPROACH,ILS_TRACK,157.15,152,-5.15,571.58,495.83,-25.71,9.5,18.63,270,-0.02,0.144,0,-1.998,1,0.6,4.5,0.75,0.35,0.0168,0.4,0,20.423,0,5.21,0,269.99,0,0,1,-9.34,0,0,0,269.99,0.5865,-0.0001,0.81,0,269.99,0.07,-83.89,11.108,-0.007,37.746,1,3,667.87,-15.725,0,656.43,0,0,0,,0,0,0,0,0,0,0,0,0,0,270.01,0,0,0,0,0,0,0,0,0,0,0,0,0,3,3,0,0,VALID,0,0,0,0,0,1,0,0,0,0,0,0,0,0,0,0,0,0,0,0,71.4,1108.6,2,0,0.12,0.12,33,8.33,0.12,0.12,4.08,FLYING,X10-F,0:/Integrated Flight Computer/aircraft/x10_f_cfg.ks (inferred preloaded)
4.44,APPROACH,ILS_TRACK,155.76,152,-3.76,563.13,486.91,-23.62,11.21,19.61,270,-0.023,0.288,0,-3.561,1,0.6,4.5,0.75,0.35,0.0168,0.4,0,20.805,0,3.854,0,269.99,0,0,1,-8.71,0,0,0,270,0.5866,-0.0001,0.8099,0,269.99,0.08,-89.32,11.05,-0.007,38.693,1,3,667.87,-14.871,0,653.37,0,0,0,,0,0,0,0,0,0,0,0,0,0,270.01,0,0,0,0,0,0,0,0,0,0,0,0,0,3,3,0,0,VALID,0,0,0,0,0,1,0,0,0,0,0,0,0,0,0,0,0,0,0,0,80.33,1103.36,2,0,0.12,0.12,36,8.33,0.12,0.12,4.44,FLYING,X10-F,0:/Integrated Flight Computer/aircraft/x10_f_cfg.ks (inferred preloaded)
4.8,APPROACH,ILS_TRACK,154.26,152,-2.26,554.99,478.79,-21.75,11.27,19.02,270,-0.018,0.432,0,-4.574,1,0.6,4.5,0.75,0.35,0.0168,0.4,0,21.233,0,2.334,0,269.99,0,0,1,-8.08,0,0,0,269.99,0.5866,-0.0001,0.8098,0,269.99,0.08,-94.47,10.992,-0.006,39.473,1,3,667.87,-13.916,0,650.34,0,0,0,,0,0,0,0,0,0,0,0,0,0,270.01,0,0,0,0,0,0,0,0,0,0,0,0,0,3,3,0,0,VALID,0,0,0,0,0,1,0,0,0,0,0,0,0,0,0,0,0,0,0,0,99.47,1097.56,2,0,0.12,0.12,39,8.33,0.12,0.12,4.8,FLYING,X10-F,0:/Integrated Flight Computer/aircraft/x10_f_cfg.ks (inferred preloaded)
5.16,APPROACH,ILS_TRACK,153.01,152,-1.01,547.27,471.21,-20.52,10.82,18.16,270,-0.015,0.576,0,-5.107,1,0.6,4.5,0.75,0.35,0.0168,0.4,0,21.588,0,1.074,0,269.99,0,0,1,-7.67,0,0,0,269.99,0.5867,-0.0001,0.8098,0,269.99,0.08,-99.23,10.934,-0.005,40.069,1,3,667.87,-12.876,0,647.34,0,0,0,,0,0,0,0,0,0,0,0,0,0,270.01,0,0,0,0,0,0,0,0,0,0,0,0,0,3,3,0,0,VALID,0,0,0,0,0,1,0,0,0,0,0,0,0,0,0,0,0,0,0,0,128.12,1092.82,2,0,0.12,0.12,42,8.33,0.12,0.12,5.16,FLYING,X10-F,0:/Integrated Flight Computer/aircraft/x10_f_cfg.ks (inferred preloaded)
5.52,APPROACH,ILS_TRACK,151.95,152,0.05,539.92,464.02,-19.59,10.29,17.34,270,-0.011,0.72,0,-5.232,1,0.6,4.5,0.75,0.35,0.0168,0.4,0,21.889,0,0.006,0,270,0,0,1,-7.37,0,0,0,270,0.5868,0,0.8097,0,270,0.08,-103.63,10.877,-0.002,40.623,1,3,667.87,-11.918,0,644.35,0,0,0,,0,0,0,0,0,0,0,0,0,0,270.01,0,0,0,0,0,0,0,0,0,0,0,0,0,3,3,0,0,VALID,0,0,0,0,0,1,0,0,0,0,0,0,0,0,0,0,0,0,0,0,165.53,1088.92,2,0,0.12,0.12,45,8.33,0.12,0.12,5.52,FLYING,X10-F,0:/Integrated Flight Computer/aircraft/x10_f_cfg.ks (inferred preloaded)
5.78,APPROACH,ILS_TRACK,151.34,152,0.66,534.83,459.01,-19.03,10,16.88,270,-0.009,0.824,0,-5.131,1,0.6,4.5,0.75,0.35,0.0168,0.4,0,22.066,0,-0.62,0,270,0,0,1,-7.19,0,0,0,269.99,0.5869,-0.0001,0.8097,0,270,0.09,-106.6,10.836,-0.004,40.985,1,3,667.87,-11.255,0,642.2,0,0,0,,0,0,0,0,0,0,0,0,0,0,270.01,0,0,0,0,0,0,0,0,0,0,0,0,0,3,3,0,0,VALID,0,0,0,0,0,1,0,0,0,0,0,0,0,0,0,0,0,0,0,0,197.54,1086.72,2,0,0.12,0.12,47,7.69,0.14,0.12,5.78,FLYING,X10-F,0:/Integrated Flight Computer/aircraft/x10_f_cfg.ks (inferred preloaded)
6.14,APPROACH,ILS_TRACK,150.68,152,1.32,528.06,452.29,-18.37,9.82,16.51,270,-0.008,0.8457,0,-4.741,1,0.6,4.5,0.75,0.35,0.0168,0.4,0,22.255,0,-1.293,0,270,0,0,1,-6.97,0,0,0,270,0.5869,-0.0001,0.8096,0,270,0.09,-110.44,10.78,-0.003,41.424,1,3,667.87,-10.365,0,639.24,0,0,0,,0,0,0,0,0,0,0,0,0,0,270.01,0,0,0,0,0,0,0,0,0,0,0,0,0,3,3,0,0,VALID,0,0,0,0,0,1,0,0,0,0,0,0,0,0,0,0,0,0,0,0,248.08,1084.48,2,0,0.12,0.12,50,8.33,0.12,0.12,6.14,FLYING,X10-F,0:/Integrated Flight Computer/aircraft/x10_f_cfg.ks (inferred preloaded)
6.5,APPROACH,ILS_TRACK,150.21,152,1.79,521.63,445.8,-17.73,9.99,16.49,270,-0.006,0.7052,0,-4.156,1,0.6,4.5,0.75,0.35,0.0168,0.4,0,22.39,0,-1.772,0,270,0,0,1,-6.76,0,0,0,270,0.587,0,0.8096,0,270,0.09,-113.96,10.724,-0.003,41.753,1,3,667.87,-9.458,0,636.29,0,0,0,,0,0,0,0,0,0,0,0,0,0,270.01,0,0,0,0,0,0,0,0,0,0,0,0,0,3,3,0,0,VALID,0,0,0,0,0,1,0,0,0,0,0,0,0,0,0,0,0,0,0,0,291.18,1083.03,2,0,0.12,0.12,53,8.33,0.12,0.12,6.5,FLYING,X10-F,0:/Integrated Flight Computer/aircraft/x10_f_cfg.ks (inferred preloaded)
6.86,APPROACH,ILS_TRACK,149.83,152,2.17,515.55,439.53,-17.02,10.54,16.82,270,-0.005,0.6019,0,-3.427,1,0.6,4.5,0.75,0.35,0.0168,0.4,0,22.496,0,-2.145,0,269.99,0,0,1,-6.51,0,0,0,270,0.5871,-0.0001,0.8095,0,269.99,0.09,-117.13,10.667,-0.006,41.933,1,3,667.87,-8.493,0,633.34,0,0,0,,0,0,0,0,0,0,0,0,0,0,270.01,0,0,0,0,0,0,0,0,0,0,0,0,0,3,3,0,0,VALID,0,0,0,0,0,1,0,0,0,0,0,0,0,0,0,0,0,0,0,0,321.3,1081.99,2,0,0.12,0.12,56,8.33,0.12,0.12,6.86,FLYING,X10-F,0:/Integrated Flight Computer/aircraft/x10_f_cfg.ks (inferred preloaded)
7.22,APPROACH,ILS_TRACK,149.47,152,2.53,509.85,433.54,-16.18,11.45,17.45,270,-0.004,0.5685,0,-2.568,1,0.6,4.5,0.75,0.35,0.0168,0.4,0,22.599,0,-2.512,0,270,0,0,1,-6.21,0,0,0,270,0.5872,0,0.8095,0,270,0.09,-119.94,10.611,0,41.929,1,3,667.87,-7.435,0,630.4,0,0,0,,0,0,0,0,0,0,0,0,0,0,270.01,0,0,0,0,0,0,0,0,0,0,0,0,0,3,3,0,0,VALID,0,0,0,0,0,1,0,0,0,0,0,0,0,0,0,0,0,0,0,0,342.89,1080.95,2,0,0.12,0.12,59,8.33,0.12,0.12,7.22,FLYING,X10-F,0:/Integrated Flight Computer/aircraft/x10_f_cfg.ks (inferred preloaded)
7.58,APPROACH,ILS_TRACK,149.03,152,2.97,504.57,427.89,-15.14,12.66,18.32,270,-0.003,0.6118,0,-1.561,1,0.6,4.5,0.75,0.35,0.0168,0.4,0,22.722,0,-2.947,0,270,0,0,1,-5.85,0,0,0,270,0.5872,-0.0001,0.8094,0,270,0.08,-122.33,10.555,-0.004,41.695,1,3,667.87,-6.245,0,627.47,0,0,0,,0,0,0,0,0,0,0,0,0,0,270.01,0,0,0,0,0,0,0,0,0,0,0,0,0,3,3,0,0,VALID,0,0,0,0,0,1,0,0,0,0,0,0,0,0,0,0,0,0,0,0,361.96,1079.58,2,0,0.12,0.12,62,8.33,0.12,0.12,7.58,FLYING,X10-F,0:/Integrated Flight Computer/aircraft/x10_f_cfg.ks (inferred preloaded)
7.94,APPROACH,ILS_TRACK,148.47,152,3.53,499.72,422.7,-13.69,13.84,18.98,270,-0.002,0.7209,0,-0.372,1,0.6,4.5,0.75,0.35,0.0168,0.4,0,22.876,0,-3.494,0,270,0,0,1,-5.33,0,0,0,270,0.5873,0,0.8094,0,270,0.08,-124.31,10.499,0,41.375,1,3,667.87,-5.104,0,624.54,0,0,0,,0,0,0,0,0,0,0,0,0,0,270.01,0,0,0,0,0,0,0,0,0,0,0,0,0,3,3,0,0,VALID,0,0,0,0,0,1,0,0,0,0,0,0,0,0,0,0,0,0,0,0,384.27,1077.73,2,0,0.12,0.12,65,8.33,0.12,0.12,7.94,FLYING,X10-F,0:/Integrated Flight Computer/aircraft/x10_f_cfg.ks (inferred preloaded)
8.2,APPROACH,ILS_TRACK,148.03,152,3.97,496.43,419.3,-12.43,14.31,18.95,270,-0.002,0.8118,0,0.623,1,0.6,4.5,0.75,0.35,0.0168,0.4,0,23.001,0,-3.939,0,270,0,0,1,-4.87,0,0,0,269.99,0.5874,0,0.8093,0,270,0.08,-125.51,10.459,0,41.221,1,3,667.87,-4.461,0,622.44,0,0,0,,0,0,0,0,0,0,0,0,0,0,270.01,0,0,0,0,0,0,0,0,0,0,0,0,0,3,3,0,0,VALID,0,0,0,0,0,1,0,0,0,0,0,0,0,0,0,0,0,0,0,0,404.44,1076.15,2,0,0.12,0.12,67,7.69,0.14,0.12,8.2,FLYING,X10-F,0:/Integrated Flight Computer/aircraft/x10_f_cfg.ks (inferred preloaded)
8.56,APPROACH,ILS_TRACK,147.52,152,4.48,492.18,415.1,-11.04,14.19,18.29,270,0.002,0.8586,0,2.174,1,0.6,4.5,0.75,0.35,0.0168,0.4,0,23.148,0,-4.461,0,270,0,0,1,-4.34,0,0,0,270,0.5874,0,0.8093,0,270,0.08,-126.89,10.404,0,40.855,1,3,667.87,-3.484,0,619.53,0,0,0,,0,0,0,0,0,0,0,0,0,0,270.01,0,0,0,0,0,0,0,0,0,0,0,0,0,3,3,0,0,VALID,0,0,0,0,0,1,0,0,0,0,0,0,0,0,0,0,0,0,0,0,438.26,1074.39,2,0,0.12,0.12,70,8.33,0.12,0.12,8.56,FLYING,X10-F,0:/Integrated Flight Computer/aircraft/x10_f_cfg.ks (inferred preloaded)
8.92,APPROACH,ILS_TRACK,147.25,152,4.75,488.33,411.34,-9.97,13.87,17.59,270,0.004,0.7853,0,3.854,1,0.6,4.5,0.75,0.35,0.0168,0.4,0,23.227,0,-4.742,0,270,0,0,1,-3.91,0,0,0,270,0.5875,0,0.8092,0,270,0.08,-127.88,10.348,-0.003,40.241,1,3,667.87,-2.344,0,616.62,0,0,0,,0,0,0,0,0,0,0,0,0,0,270.01,0,0,0,0,0,0,0,0,0,0,0,0,0,3,3,0,0,VALID,0,0,0,0,0,1,0,0,0,0,0,0,0,0,0,0,0,0,0,0,470.45,1073.59,2,0,0.12,0.12,73,8.33,0.12,0.12,8.92,FLYING,X10-F,0:/Integrated Flight Computer/aircraft/x10_f_cfg.ks (inferred preloaded)
9.28,APPROACH,ILS_TRACK,147.15,152,4.85,484.9,407.96,-8.83,13.7,16.99,270,0.005,0.6782,0,5.588,1,0.6,4.5,0.75,0.35,0.0168,0.4,0,23.256,0,-4.844,0,270,0,0,1,-3.48,0,0,0,270,0.5876,0,0.8092,0,270,0.07,-128.46,10.293,-0.001,39.588,1,3,667.87,-1.314,0,613.72,0,0,0,,0,0,0,0,0,0,0,0,0,0,270.01,0,0,0,0,0,0,0,0,0,0,0,0,0,3,3,0,0,VALID,0,0,0,0,0,1,0,0,0,0,0,0,0,0,0,0,0,0,0,0,493.89,1073.47,2,0,0.12,0.12,76,8.33,0.12,0.12,9.28,FLYING,X10-F,0:/Integrated Flight Computer/aircraft/x10_f_cfg.ks (inferred preloaded)
9.64,APPROACH,ILS_TRACK,147.22,152,4.78,481.77,404.96,-8,13.26,16.23,270,0.008,0.5519,0,7.324,1,0.6,4.5,0.75,0.35,0.0168,0.4,0,23.24,0,-4.787,0,270,0,0,1,-3.14,0,0,0,270,0.5877,0,0.8091,0,270,0.07,-128.72,10.238,-0.002,38.941,1,3,667.87,-0.406,0,610.82,0,0,0,,0,0,0,0,0,0,0,0,0,0,270.01,0,0,0,0,0,0,0,0,0,0,0,0,0,3,3,0,0,VALID,0,0,0,0,0,1,0,0,0,0,0,0,0,0,0,0,0,0,0,0,507.92,1073.99,2,0,0.12,0.12,79,8.33,0.12,0.12,9.64,FLYING,X10-F,0:/Integrated Flight Computer/aircraft/x10_f_cfg.ks (inferred preloaded)
10,APPROACH,ILS_TRACK,147.4,152,4.6,478.98,402.23,-7.17,13.1,15.75,270,0.009,0.44,0,9.006,1,0.6,4.5,0.75,0.35,0.0168,0.4,0,23.191,0,-4.614,0,270,0,0,1,-2.82,0,0,0,270,0.5877,0,0.8091,0,270,0.07,-128.63,10.182,0,38.195,1,3,667.87,0.492,0,607.91,0,0,0,,0,0,0,0,0,0,0,0,0,0,270.01,0,0,0,0,0,0,0,0,0,0,0,0,0,3,3,0,0,VALID,0,0,0,0,0,1,0,0,0,0,0,0,0,0,0,0,0,0,0,0,511.42,1074.94,2,0,0.12,0.12,82,8.33,0.12,0.12,10,FLYING,X10-F,0:/Integrated Flight Computer/aircraft/x10_f_cfg.ks (inferred preloaded)
10.36,APPROACH,ILS_TRACK,147.63,152,4.37,476.47,399.77,-6.61,12.9,15.36,270,0.013,0.3581,0,10.615,1,0.6,4.5,0.75,0.35,0.0168,0.4,0,23.127,0,-4.387,0,270,0,0,1,-2.58,0,0,0,270,0.5878,0,0.809,0,270,0.07,-128.27,10.127,0,37.427,1,3,667.87,1.316,0,605,0,0,0,,0,0,0,0,0,0,0,0,0,0,270.01,0,0,0,0,0,0,0,0,0,0,0,0,0,3,3,0,0,VALID,0,0,0,0,0,1,0,0,0,0,0,0,0,0,0,0,0,0,0,0,504.35,1076.09,2,0,0.12,0.12,85,8.33,0.12,0.12,10.36,FLYING,X10-F,0:/Integrated Flight Computer/aircraft/x10_f_cfg.ks (inferred preloaded)
10.62,APPROACH,ILS_TRACK,147.78,152,4.22,474.81,398.14,-6,12.8,15.01,270,0.013,0.3378,0,11.724,1,0.6,4.5,0.75,0.35,0.0168,0.4,0,23.083,0,-4.232,0,270,0,0,1,-2.35,0,0,0,270,0.5879,0,0.809,0,270,0.07,-127.84,10.086,0.001,36.991,1,3,667.87,1.7,0,602.9,0,0,0,,0,0,0,0,0,0,0,0,0,0,270.01,0,0,0,0,0,0,0,0,0,0,0,0,0,3,3,0,0,VALID,0,0,0,0,0,1,0,0,0,0,0,0,0,0,0,0,0,0,0,0,493.92,1076.85,2,0,0.12,0.12,87,7.69,0.14,0.12,10.62,FLYING,X10-F,0:/Integrated Flight Computer/aircraft/x10_f_cfg.ks (inferred preloaded)
10.98,APPROACH,ILS_TRACK,148,152,4,472.67,396.09,-5.44,12.52,14.53,270,0.014,0.3168,0,13.194,1,0.6,4.5,0.75,0.35,0.0168,0.4,0,23.021,0,-4.009,0,270,0,0,1,-2.14,0,0,0,270,0.5879,0,0.8089,0,270,0.06,-127.08,10.031,-0.002,36.271,1,3,667.87,2.316,0,599.98,0,0,0,,0,0,0,0,0,0,0,0,0,0,270.01,0,0,0,0,0,0,0,0,0,0,0,0,0,3,3,0,0,VALID,0,0,0,0,0,1,0,0,0,0,0,0,0,0,0,0,0,0,0,0,478.02,1077.95,2,0,0.12,0.12,90,8.33,0.12,0.12,10.98,FLYING,X10-F,0:/Integrated Flight Computer/aircraft/x10_f_cfg.ks (inferred preloaded)
11.34,APPROACH,ILS_TRACK,148.21,152,3.79,470.72,394.21,-5.09,12.23,14.11,270,0.015,0.3164,0,14.587,1,0.6,4.5,0.75,0.35,0.0168,0.4,0,22.962,0,-3.799,0,270,0,0,1,-1.98,0,0,0,270,0.588,0,0.8089,0,270,0.06,-126.14,9.975,0,35.581,1,3,667.87,2.825,0,597.06,0,0,0,,0,0,0,0,0,0,0,0,0,0,270.01,0,0,0,0,0,0,0,0,0,0,0,0,0,3,3,0,0,VALID,0,0,0,0,0,1,0,0,0,0,0,0,0,0,0,0,0,0,0,0,462.25,1078.96,2,0,0.12,0.12,93,8.33,0.12,0.12,11.34,FLYING,X10-F,0:/Integrated Flight Computer/aircraft/x10_f_cfg.ks (inferred preloaded)
11.7,APPROACH,ILS_TRACK,148.38,152,3.62,468.99,392.43,-4.61,12.41,14.14,270,0.015,0.3413,0,15.911,1,0.6,4.5,0.75,0.35,0.0168,0.4,0,22.913,0,-3.626,0,270,0,0,1,-1.83,0,0,0,270,0.5881,0,0.8088,0,270,0.06,-124.95,9.919,-0.002,34.701,1,3,667.87,3.482,0,594.13,0,0,0,,0,0,0,0,0,0,0,0,0,0,270.01,0,0,0,0,0,0,0,0,0,0,0,0,0,3,3,0,0,VALID,0,0,0,0,0,1,0,0,0,0,0,0,0,0,0,0,0,0,0,0,448.8,1079.81,2,0,0.12,0.12,96,8.33,0.12,0.12,11.7,FLYING,X10-F,0:/Integrated Flight Computer/aircraft/x10_f_cfg.ks (inferred preloaded)
12.06,APPROACH,ILS_TRACK,148.48,152,3.52,467.37,391,-3.6,11.89,13.19,270,0.015,0.3975,0,17.196,1,0.6,4.5,0.75,0.35,0.0168,0.4,0,22.886,0,-3.532,0,270,0,0,1,-1.43,0,0,0,270,0.5882,0,0.8087,0,270,0.06,-123.66,9.863,0.001,34.134,1,3,667.87,3.706,0,591.21,0,0,0,,0,0,0,0,0,0,0,0,0,0,270.01,0,0,0,0,0,0,0,0,0,0,0,0,0,3,3,0,0,VALID,0,0,0,0,0,1,0,0,0,0,0,0,0,0,0,0,0,0,0,0,442.37,1080.33,2,0,0.12,0.12,99,8.33,0.12,0.12,12.06,FLYING,X10-F,0:/Integrated Flight Computer/aircraft/x10_f_cfg.ks (inferred preloaded)
12.42,APPROACH,ILS_TRACK,148.71,152,3.29,465.82,389.87,-3.05,10.53,11.57,270,0.017,0.3615,0,18.419,1,0.6,4.5,0.75,0.35,0.0168,0.4,0,22.824,0,-3.311,0,270,0,0,1,-1.17,0,0,0,270,0.5882,0,0.8087,0,270,0.05,-122.29,9.807,-0.002,33.573,1,3,667.87,3.893,0,588.28,0,0,0,,0,0,0,0,0,0,0,0,0,0,270.01,0,0,0,0,0,0,0,0,0,0,0,0,0,3,3,0,0,VALID,0,0,0,0,0,1,0,0,0,0,0,0,0,0,0,0,0,0,0,0,440.6,1081.37,2,0,0.12,0.12,102,8.33,0.12,0.12,12.42,FLYING,X10-F,0:/Integrated Flight Computer/aircraft/x10_f_cfg.ks (inferred preloaded)
12.78,APPROACH,ILS_TRACK,149.16,152,2.84,464.49,388.78,-3.16,9.63,10.77,270,0.018,0.2238,0,19.507,1,0.6,4.5,0.75,0.35,0.0168,0.4,0,22.699,0,-2.867,0,270,0,0,1,-1.2,0,0,0,270,0.5883,0,0.8086,0,270,0.05,-120.71,9.751,-0.002,32.486,1,3,667.87,4.658,0,585.34,0,0,0,,0,0,0,0,0,0,0,0,0,0,270.01,0,0,0,0,0,0,0,0,0,0,0,0,0,3,3,0,0,VALID,0,0,0,0,0,1,0,0,0,0,0,0,0,0,0,0,0,0,0,0,430.11,1083.31,2,0,0.12,0.12,105,8.33,0.12,0.12,12.78,FLYING,X10-F,0:/Integrated Flight Computer/aircraft/x10_f_cfg.ks (inferred preloaded)
13.04,APPROACH,ILS_TRACK,149.48,152,2.52,463.7,387.95,-3.16,9.71,10.88,270,0.018,0.1645,0,20,1,0.6,4.5,0.75,0.35,0.0168,0.4,0,22.608,0,-2.546,0,270,0,0,1,-1.21,0,0,0,270,0.5884,0,0.8086,0,270,0.05,-119.39,9.711,-0.001,31.683,1,3,667.87,5.168,0,583.21,0,0,0,,0,0,0,0,0,0,0,0,0,0,270.01,0,0,0,0,0,0,0,0,0,0,0,0,0,3,3,0,0,VALID,0,0,0,0,0,1,0,0,0,0,0,0,0,0,0,0,0,0,0,0,413.26,1084.71,2,0,0.12,0.12,107,7.69,0.14,0.12,13.04,FLYING,X10-F,0:/Integrated Flight Computer/aircraft/x10_f_cfg.ks (inferred preloaded)
13.4,APPROACH,ILS_TRACK,149.81,152,2.19,462.68,386.85,-2.91,9.97,11.04,270,0.017,0.1529,0,20,1,0.6,4.5,0.75,0.35,0.0168,0.4,0,22.512,0,-2.203,0,270,0,0,1,-1.11,0,0,0,270,0.5884,0,0.8085,0,270,0.05,-117.47,9.654,-0.002,30.978,1,3,667.87,5.328,0,580.26,0,0,0,,0,0,0,0,0,0,0,0,0,0,270.01,0,0,0,0,0,0,0,0,0,0,0,0,0,3,3,0,0,VALID,0,0,0,0,0,1,0,0,0,0,0,0,0,0,0,0,0,0,0,0,384.5,1086.2,2,0,0.12,0.12,110,8.33,0.12,0.12,13.4,FLYING,X10-F,0:/Integrated Flight Computer/aircraft/x10_f_cfg.ks (inferred preloaded)
13.76,APPROACH,ILS_TRACK,150.01,152,1.99,461.72,385.85,-2.57,10.16,11.09,270,0.016,0.2064,0,20,1,0.6,4.5,0.75,0.35,0.0168,0.4,0,22.452,0,-1.991,0,270,0,0,1,-0.99,0,0,0,270,0.5885,0,0.8085,0,270,0.05,-115.48,9.598,0,30.238,1,3,667.87,5.506,0,577.3,0,0,0,,0,0,0,0,0,0,0,0,0,0,270.01,0,0,0,0,0,0,0,0,0,0,0,0,0,3,3,0,0,VALID,0,0,0,0,0,1,0,0,0,0,0,0,0,0,0,0,0,0,0,0,360.13,1087.13,2,0,0.12,0.12,113,8.33,0.12,0.12,13.76,FLYING,X10-F,0:/Integrated Flight Computer/aircraft/x10_f_cfg.ks (inferred preloaded)
14.12,APPROACH,ILS_TRACK,150.14,152,1.86,460.82,384.92,-2.51,10.18,11.12,270,0.015,0.2685,0,20,1,0.6,4.5,0.75,0.35,0.0168,0.4,0,22.416,0,-1.865,0,270,0,0,1,-0.98,0,0,0,270,0.5886,0,0.8084,0,270,0.05,-113.43,9.542,0.002,29.329,1,3,667.87,5.877,0,574.34,0,0,0,,0,0,0,0,0,0,0,0,0,0,270.01,0,0,0,0,0,0,0,0,0,0,0,0,0,3,3,0,0,VALID,0,0,0,0,0,1,0,0,0,0,0,0,0,0,0,0,0,0,0,0,347,1087.74,2,0,0.12,0.12,116,8.33,0.12,0.12,14.12,FLYING,X10-F,0:/Integrated Flight Computer/aircraft/x10_f_cfg.ks (inferred preloaded)
14.48,APPROACH,ILS_TRACK,150.21,152,1.79,459.97,384.09,-2.16,10.18,10.96,270,0.013,0.3288,0,20,1,0.6,4.5,0.75,0.35,0.0168,0.4,0,22.397,0,-1.797,0,270,0,0,1,-0.84,0,0,0,270,0.5887,0,0.8084,0,270,0.05,-111.32,9.485,-0.001,28.677,1,3,667.87,5.898,0,571.38,0,0,0,,0,0,0,0,0,0,0,0,0,0,270.01,0,0,0,0,0,0,0,0,0,0,0,0,0,3,3,0,0,VALID,0,0,0,0,0,1,0,0,0,0,0,0,0,0,0,0,0,0,0,0,343.16,1088.08,2,0,0.12,0.12,119,8.33,0.12,0.12,14.48,FLYING,X10-F,0:/Integrated Flight Computer/aircraft/x10_f_cfg.ks (inferred preloaded)
14.84,APPROACH,ILS_TRACK,150.29,152,1.71,459.18,383.34,-1.99,10.07,10.78,270,0.013,0.3487,0,20,1,0.6,4.5,0.75,0.35,0.0168,0.4,0,22.374,0,-1.715,0,270,0,0,1,-0.76,0,0,0,270,0.5887,0,0.8083,0,270,0.05,-109.16,9.429,-0.001,27.892,1,3,667.87,6.069,0,568.42,0,0,0,,0,0,0,0,0,0,0,0,0,0,270.01,0,0,0,0,0,0,0,0,0,0,0,0,0,3,3,0,0,VALID,0,0,0,0,0,1,0,0,0,0,0,0,0,0,0,0,0,0,0,0,344.83,1088.48,2,0,0.12,0.12,122,8.33,0.12,0.12,14.84,FLYING,X10-F,0:/Integrated Flight Computer/aircraft/x10_f_cfg.ks (inferred preloaded)
15.2,APPROACH,ILS_TRACK,150.39,152,1.61,458.47,382.63,-1.87,10.05,10.74,270,0.015,0.3457,0,20,1,0.6,4.5,0.75,0.35,0.0168,0.4,0,22.346,0,-1.615,0,270,0,0,1,-0.73,0,0,0,270,0.5888,0,0.8083,0,270,0.05,-106.91,9.372,-0.001,26.992,1,3,667.87,6.353,0,565.46,0,0,0,,0,0,0,0,0,0,0,0,0,0,270.01,0,0,0,0,0,0,0,0,0,0,0,0,0,3,3,0,0,VALID,0,0,0,0,0,1,0,0,0,0,0,0,0,0,0,0,0,0,0,0,347.46,1088.97,2,0,0.12,0.12,125,8.33,0.12,0.12,15.2,FLYING,X10-F,0:/Integrated Flight Computer/aircraft/x10_f_cfg.ks (inferred preloaded)
15.46,APPROACH,ILS_TRACK,150.47,152,1.53,457.99,382.15,-1.83,10.03,10.7,270,0.014,0.3412,0,20,1,0.6,4.5,0.75,0.35,0.0168,0.4,0,22.325,0,-1.542,0,270,0,0,1,-0.71,0,0,0,270,0.5889,0,0.8082,0,270,0.05,-105.26,9.331,-0.002,26.445,1,3,667.87,6.418,0,563.32,0,0,0,,0,0,0,0,0,0,0,0,0,0,270.01,0,0,0,0,0,0,0,0,0,0,0,0,0,3,3,0,0,VALID,0,0,0,0,0,1,0,0,0,0,0,0,0,0,0,0,0,0,0,0,349.08,1089.32,2,0,0.12,0.12,127,7.69,0.14,0.12,15.46,FLYING,X10-F,0:/Integrated Flight Computer/aircraft/x10_f_cfg.ks (inferred preloaded)
15.82,APPROACH,ILS_TRACK,150.58,152,1.42,457.37,381.52,-1.76,10.02,10.68,270,0.012,0.3262,0,20,1,0.6,4.5,0.75,0.35,0.0168,0.4,0,22.292,0,-1.423,0,270,0,0,1,-0.67,0,0,0,270,0.589,-0.0001,0.8082,0,270,0.05,-102.93,9.275,-0.003,25.6,1,3,667.87,6.598,0,560.35,0,0,0,,0,0,0,0,0,0,0,0,0,0,270.01,0,0,0,0,0,0,0,0,0,0,0,0,0,3,3,0,0,VALID,0,0,0,0,0,1,0,0,0,0,0,0,0,0,0,0,0,0,0,0,350.6,1089.87,2,0,0.12,0.12,130,8.33,0.12,0.12,15.82,FLYING,X10-F,0:/Integrated Flight Computer/aircraft/x10_f_cfg.ks (inferred preloaded)
16.18,APPROACH,ILS_TRACK,150.68,152,1.32,456.77,380.96,-1.49,9.96,10.49,270,0.012,0.3276,0,20,1,0.6,4.5,0.75,0.35,0.0168,0.4,0,22.265,0,-1.326,0,270,0,0,1,-0.56,0,0,0,270,0.589,0,0.8081,0,270,0.05,-100.55,9.218,-0.002,24.928,1,3,667.87,6.545,0,557.39,0,0,0,,0,0,0,0,0,0,0,0,0,0,270.01,0,0,0,0,0,0,0,0,0,0,0,0,0,3,3,0,0,VALID,0,0,0,0,0,1,0,0,0,0,0,0,0,0,0,0,0,0,0,0,350.99,1090.32,2,0,0.12,0.12,133,8.33,0.12,0.12,16.18,FLYING,X10-F,0:/Integrated Flight Computer/aircraft/x10_f_cfg.ks (inferred preloaded)
16.54,APPROACH,ILS_TRACK,150.82,152,1.18,456.23,380.44,-1.38,9.89,10.38,270,0.01,0.3026,0,20,1,0.6,4.5,0.75,0.35,0.0168,0.4,0,22.226,0,-1.188,0,270,0,0,1,-0.52,0,0,0,270,0.5891,0,0.8081,0,270,0.05,-98.12,9.161,-0.002,24.05,1,3,667.87,6.733,0,554.42,0,0,0,,0,0,0,0,0,0,0,0,0,0,270.01,0,0,0,0,0,0,0,0,0,0,0,0,0,3,3,0,0,VALID,0,0,0,0,0,1,0,0,0,0,0,0,0,0,0,0,0,0,0,0,350.58,1090.94,2,0,0.12,0.12,136,8.33,0.12,0.12,16.54,FLYING,X10-F,0:/Integrated Flight Computer/aircraft/x10_f_cfg.ks (inferred preloaded)
16.9,APPROACH,ILS_TRACK,150.95,152,1.05,455.74,379.95,-1.29,9.9,10.36,270,0.009,0.286,0,20,1,0.6,4.5,0.75,0.35,0.0168,0.4,0,22.187,0,-1.052,0,270,0,0,1,-0.49,0,0,0,270,0.5892,-0.0001,0.808,0,270,0.05,-95.65,9.105,-0.003,23.178,1,3,667.87,6.895,0,551.44,0,0,0,,0,0,0,0,0,0,0,0,0,0,270.01,0,0,0,0,0,0,0,0,0,0,0,0,0,3,3,0,0,VALID,0,0,0,0,0,1,0,0,0,0,0,0,0,0,0,0,0,0,0,0,347.52,1091.55,2,0,0.12,0.12,139,8.33,0.12,0.12,16.9,FLYING,X10-F,0:/Integrated Flight Computer/aircraft/x10_f_cfg.ks (inferred preloaded)
17.26,APPROACH,ILS_TRACK,151.07,152,0.93,455.28,379.5,-1.15,9.89,10.3,270,0.01,0.2832,0,20,1,0.6,4.5,0.75,0.35,0.0168,0.4,0,22.154,0,-0.935,0,270,0,0,1,-0.44,0,0,0,270,0.5893,-0.0001,0.8079,0,270,0.05,-93.13,9.048,-0.004,22.366,1,3,667.87,6.966,0,548.47,0,0,0,,0,0,0,0,0,0,0,0,0,0,270.01,0,0,0,0,0,0,0,0,0,0,0,0,0,3,3,0,0,VALID,0,0,0,0,0,1,0,0,0,0,0,0,0,0,0,0,0,0,0,0,343.18,1092.08,2,0,0.12,0.12,142,8.33,0.12,0.12,17.26,FLYING,X10-F,0:/Integrated Flight Computer/aircraft/x10_f_cfg.ks (inferred preloaded)
17.62,APPROACH,ILS_TRACK,151.18,152,0.82,454.85,379.07,-1.09,9.85,10.25,270,0.011,0.2809,0,20,1,0.6,4.5,0.75,0.35,0.0168,0.4,0,22.124,0,-0.825,0,270,0,0,1,-0.43,0,0,0,270,0.5893,0,0.8079,0,270,0.05,-90.59,8.991,-0.002,21.455,1,3,667.87,7.152,0,545.49,0,0,0,,0,0,0,0,0,0,0,0,0,0,270.01,0,0,0,0,0,0,0,0,0,0,0,0,0,3,3,0,0,VALID,0,0,0,0,0,1,0,0,0,0,0,0,0,0,0,0,0,0,0,0,339.39,1092.57,2,0,0.12,0.12,145,8.33,0.12,0.12,17.62,FLYING,X10-F,0:/Integrated Flight Computer/aircraft/x10_f_cfg.ks (inferred preloaded)
17.88,APPROACH,ILS_TRACK,151.25,152,0.75,454.55,378.79,-1.15,9.78,10.2,270,0.011,0.2828,0,20,1,0.6,4.5,0.75,0.35,0.0168,0.4,0,22.104,0,-0.757,0,270,0,0,1,-0.43,0,0,0,270,0.5894,0,0.8078,0,270,0.05,-88.75,8.95,-0.002,20.909,1,3,667.87,7.143,0,543.34,0,0,0,,0,0,0,0,0,0,0,0,0,0,270.01,0,0,0,0,0,0,0,0,0,0,0,0,0,3,3,0,0,VALID,0,0,0,0,0,1,0,0,0,0,0,0,0,0,0,0,0,0,0,0,336.8,1092.89,2,0,0.12,0.12,147,7.69,0.14,0.12,17.88,FLYING,X10-F,0:/Integrated Flight Computer/aircraft/x10_f_cfg.ks (inferred preloaded)
18.24,APPROACH,ILS_TRACK,151.34,152,0.66,454.18,378.4,-1.06,9.82,10.2,270,0.01,0.2877,0,20,1,0.6,4.5,0.75,0.35,0.0168,0.4,0,22.079,0,-0.669,0,270,0,0,1,-0.39,0,0,0,270,0.5895,0,0.8078,0,270,0.05,-86.14,8.893,-0.003,20.081,1,3,667.87,7.203,0,540.36,0,0,0,,0,0,0,0,0,0,0,0,0,0,270.01,0,0,0,0,0,0,0,0,0,0,0,0,0,3,3,0,0,VALID,0,0,0,0,0,1,0,0,0,0,0,0,0,0,0,0,0,0,0,0,333.6,1093.29,2,0,0.12,0.12,150,8.33,0.12,0.12,18.24,FLYING,X10-F,0:/Integrated Flight Computer/aircraft/x10_f_cfg.ks (inferred preloaded)
18.6,APPROACH,ILS_TRACK,151.42,152,0.58,453.82,378.05,-1,9.8,10.17,270,0.01,0.291,0,20,1,0.6,4.5,0.75,0.35,0.0168,0.4,0,22.057,0,-0.589,0,270,0,0,1,-0.38,0,0,0,270,0.5895,0,0.8077,0,270,0.05,-83.53,8.836,-0.002,19.223,1,3,667.87,7.294,0,537.38,0,0,0,,0,0,0,0,0,0,0,0,0,0,270.01,0,0,0,0,0,0,0,0,0,0,0,0,0,3,3,0,0,VALID,0,0,0,0,0,1,0,0,0,0,0,0,0,0,0,0,0,0,0,0,331.5,1093.65,2,0,0.12,0.12,153,8.33,0.12,0.12,18.6,FLYING,X10-F,0:/Integrated Flight Computer/aircraft/x10_f_cfg.ks (inferred preloaded)
18.96,APPROACH,ILS_TRACK,151.49,152,0.51,453.48,377.71,-0.92,9.81,10.16,270,0.011,0.2914,0,20,1,0.6,4.5,0.75,0.35,0.0168,0.4,0,22.035,0,-0.512,0,270,0,0,1,-0.36,0,0,0,270,0.5896,0,0.8077,0,270,0.05,-80.88,8.779,-0.001,18.331,1,3,667.87,7.415,0,534.4,0,0,0,,0,0,0,0,0,0,0,0,0,0,270.01,0,0,0,0,0,0,0,0,0,0,0,0,0,3,3,0,0,VALID,0,0,0,0,0,1,0,0,0,0,0,0,0,0,0,0,0,0,0,0,330.08,1094,2,0,0.12,0.12,156,8.33,0.12,0.12,18.96,FLYING,X10-F,0:/Integrated Flight Computer/aircraft/x10_f_cfg.ks (inferred preloaded)
19.32,APPROACH,ILS_TRACK,151.56,152,0.44,453.16,377.39,-0.88,9.79,10.12,270,0.011,0.2933,0,20,1,0.6,4.5,0.75,0.35,0.0168,0.4,0,22.016,0,-0.445,0,270,0,0,1,-0.34,0,0,0,270,0.5897,0,0.8076,0,270,0.05,-78.22,8.722,-0.002,17.491,1,3,667.87,7.468,0,531.41,0,0,0,,0,0,0,0,0,0,0,0,0,0,270.01,0,0,0,0,0,0,0,0,0,0,0,0,0,3,3,0,0,VALID,0,0,0,0,0,1,0,0,0,0,0,0,0,0,0,0,0,0,0,0,329.13,1094.31,2,0,0.12,0.12,159,8.33,0.12,0.12,19.32,FLYING,X10-F,0:/Integrated Flight Computer/aircraft/x10_f_cfg.ks (inferred preloaded)
19.68,APPROACH,ILS_TRACK,151.62,152,0.38,452.86,377.09,-0.77,9.81,10.1,270,0.01,0.2928,0,20,1,0.6,4.5,0.75,0.35,0.0168,0.4,0,21.998,0,-0.378,0,270,0,0,1,-0.31,0,0,0,270,0.5898,0,0.8076,0,270,0.05,-75.53,8.665,-0.002,16.637,1,3,667.87,7.527,0,528.43,0,0,0,,0,0,0,0,0,0,0,0,0,0,270.01,0,0,0,0,0,0,0,0,0,0,0,0,0,3,3,0,0,VALID,0,0,0,0,0,1,0,0,0,0,0,0,0,0,0,0,0,0,0,0,328.36,1094.61,2,0,0.12,0.12,162,8.33,0.12,0.12,19.68,FLYING,X10-F,0:/Integrated Flight Computer/aircraft/x10_f_cfg.ks (inferred preloaded)
20.04,APPROACH,ILS_TRACK,151.69,152,0.31,452.57,376.82,-0.72,9.77,10.03,270,0.01,0.2916,0,20,1,0.6,4.5,0.75,0.35,0.0168,0.4,0,21.98,0,-0.315,0,270,0,0,1,-0.28,0,0,0,270,0.5899,0,0.8075,0,270,0.05,-72.83,8.608,-0.003,15.811,1,3,667.87,7.549,0,525.44,0,0,0,,0,0,0,0,0,0,0,0,0,0,270.01,0,0,0,0,0,0,0,0,0,0,0,0,0,3,3,0,0,VALID,0,0,0,0,0,1,0,0,0,0,0,0,0,0,0,0,0,0,0,0,327.69,1094.9,2,0,0.12,0.12,165,8.33,0.12,0.12,20.04,FLYING,X10-F,0:/Integrated Flight Computer/aircraft/x10_f_cfg.ks (inferred preloaded)
20.3,APPROACH,ILS_TRACK,151.74,152,0.26,452.39,376.62,-0.79,9.78,10.09,270,0.01,0.2882,0,20,1,0.6,4.5,0.75,0.35,0.0168,0.4,0,21.966,0,-0.266,0,270,0,0,1,-0.3,0,0,0,270,0.5899,0,0.8075,0,270,0.05,-70.87,8.567,-0.001,15.152,1,3,667.87,7.635,0,523.28,0,0,0,,0,0,0,0,0,0,0,0,0,0,270.01,0,0,0,0,0,0,0,0,0,0,0,0,0,3,3,0,0,VALID,0,0,0,0,0,1,0,0,0,0,0,0,0,0,0,0,0,0,0,0,327.01,1095.12,2,0,0.12,0.12,167,7.69,0.14,0.12,20.3,FLYING,X10-F,0:/Integrated Flight Computer/aircraft/x10_f_cfg.ks (inferred preloaded)
20.66,APPROACH,ILS_TRACK,151.78,152,0.22,452.12,376.38,-0.7,9.7,9.95,270,0.01,0.2959,0,20,1,0.6,4.5,0.75,0.35,0.0168,0.4,0,21.953,0,-0.221,0,270,0,0,1,-0.25,0,0,0,270,0.59,0,0.8074,0,270,0.05,-68.15,8.51,0,14.425,1,3,667.87,7.524,0,520.29,0,0,0,,0,0,0,0,0,0,0,0,0,0,270.01,0,0,0,0,0,0,0,0,0,0,0,0,0,3,3,0,0,VALID,0,0,0,0,0,1,0,0,0,0,0,0,0,0,0,0,0,0,0,0,326.11,1095.33,2,0,0.12,0.12,170,8.33,0.12,0.12,20.66,FLYING,X10-F,0:/Integrated Flight Computer/aircraft/x10_f_cfg.ks (inferred preloaded)
21.02,APPROACH,ILS_TRACK,151.85,152,0.15,451.89,376.13,-0.66,9.76,10.01,270,0.011,0.287,0,20,1,0.6,4.5,0.75,0.35,0.0168,0.4,0,21.934,0,-0.154,0,270,0,0,1,-0.26,0,0,0,270,0.5901,0,0.8074,0,270,0.05,-65.39,8.453,-0.002,13.457,1,3,667.87,7.698,0,517.3,0,0,0,,0,0,0,0,0,0,0,0,0,0,270.01,0,0,0,0,0,0,0,0,0,0,0,0,0,3,3,0,0,VALID,0,0,0,0,0,1,0,0,0,0,0,0,0,0,0,0,0,0,0,0,325.5,1095.63,2,0,0.12,0.12,173,8.33,0.12,0.12,21.02,FLYING,X10-F,0:/Integrated Flight Computer/aircraft/x10_f_cfg.ks (inferred preloaded)
21.38,APPROACH,ILS_TRACK,151.91,152,0.09,451.68,375.9,-0.64,9.79,10.04,270,0.01,0.2844,0,20,1,0.6,4.5,0.75,0.35,0.0168,0.4,0,21.918,0,-0.096,0,270,0,0,1,-0.25,0,0,0,270,0.5901,0,0.8073,0,270,0.05,-62.62,8.396,-0.002,12.564,1,3,667.87,7.776,0,514.31,0,0,0,,0,0,0,0,0,0,0,0,0,0,270.01,0,0,0,0,0,0,0,0,0,0,0,0,0,3,3,0,0,VALID,0,0,0,0,0,1,0,0,0,0,0,0,0,0,0,0,0,0,0,0,324.26,1095.9,2,0,0.12,0.12,176,8.33,0.12,0.12,21.38,FLYING,X10-F,0:/Integrated Flight Computer/aircraft/x10_f_cfg.ks (inferred preloaded)
21.74,APPROACH,ILS_TRACK,151.95,152,0.05,451.45,375.7,-0.63,9.73,9.96,270,0.009,0.2909,0,20,1,0.6,4.5,0.75,0.35,0.0168,0.4,0,21.907,0,-0.057,0,270,0,0,1,-0.23,0,0,0,270,0.5902,0,0.8072,0,270,0.05,-59.85,8.339,-0.001,11.78,1,3,667.87,7.719,0,511.32,0,0,0,,0,0,0,0,0,0,0,0,0,0,270.01,0,0,0,0,0,0,0,0,0,0,0,0,0,3,3,0,0,VALID,0,0,0,0,0,1,0,0,0,0,0,0,0,0,0,0,0,0,0,0,323.33,1096.08,2,0,0.12,0.12,179,8.33,0.12,0.12,21.74,FLYING,X10-F,0:/Integrated Flight Computer/aircraft/x10_f_cfg.ks (inferred preloaded)
22.1,APPROACH,ILS_TRACK,151.99,152,0.01,451.25,375.5,-0.56,9.72,9.92,270,0.01,0.2939,0,20,1,0.6,4.5,0.75,0.35,0.0168,0.4,0,21.896,0,-0.018,0,270,0,0,1,-0.2,0,0,0,269.99,0.5903,0,0.8072,0,270,0.05,-57.06,8.282,0,10.949,1,3,667.87,7.712,0,508.33,0,0,0,,0,0,0,0,0,0,0,0,0,0,270.01,0,0,0,0,0,0,0,0,0,0,0,0,0,3,3,0,0,VALID,0,0,0,0,0,1,0,0,0,0,0,0,0,0,0,0,0,0,0,0,322.87,1096.26,2,0,0.12,0.12,182,8.33,0.12,0.12,22.1,FLYING,X10-F,0:/Integrated Flight Computer/aircraft/x10_f_cfg.ks (inferred preloaded)
22.46,APPROACH,ILS_TRACK,152.03,152,-0.03,451.06,375.32,-0.52,9.72,9.91,270,0.01,0.2891,0,19.994,1,0.6,4.5,0.75,0.35,0.0168,0.4,0,21.882,0,0.03,0,270,0,0,1,-0.2,0,0,0,270,0.5904,0,0.8071,0,270,0.05,-54.26,8.225,-0.001,10.05,1,3,667.87,7.784,0,505.34,0,0,0,,0,0,0,0,0,0,0,0,0,0,270.01,0,0,0,0,0,0,0,0,0,0,0,0,0,3,3,0,0,VALID,0,0,0,0,0,1,0,0,0,0,0,0,0,0,0,0,0,0,0,0,322.53,1096.48,2,0,0.12,0.12,185,8.33,0.12,0.12,22.46,FLYING,X10-F,0:/Integrated Flight Computer/aircraft/x10_f_cfg.ks (inferred preloaded)
22.72,APPROACH,ILS_TRACK,152.07,152,-0.07,450.93,375.19,-0.5,9.71,9.9,270,0.01,0.2839,0,19.979,1,0.6,4.5,0.75,0.35,0.0168,0.4,0,21.872,0,0.068,0,270,0,0,1,-0.19,0,0,0,270,0.5904,0,0.8071,0,270,0.05,-52.22,8.184,0,9.408,1,3,667.87,7.824,0,503.18,0,0,0,,0,0,0,0,0,0,0,0,0,0,270.01,0,0,0,0,0,0,0,0,0,0,0,0,0,3,3,0,0,VALID,0,0,0,0,0,1,0,0,0,0,0,0,0,0,0,0,0,0,0,0,321.99,1096.65,2,0,0.12,0.12,187,7.69,0.14,0.12,22.72,FLYING,X10-F,0:/Integrated Flight Computer/aircraft/x10_f_cfg.ks (inferred preloaded)
23.08,APPROACH,ILS_TRACK,152.12,152,-0.12,450.76,375.02,-0.51,9.69,9.89,270,0.009,0.2781,0,19.942,1,0.6,4.5,0.75,0.35,0.0168,0.4,0,21.857,0,0.12,0,270,0,0,1,-0.2,0,0,0,270,0.5905,-0.0001,0.807,0,270,0.05,-49.41,8.126,-0.003,8.52,1,3,667.87,7.877,0,500.18,0,0,0,,0,0,0,0,0,0,0,0,0,0,270.01,0,0,0,0,0,0,0,0,0,0,0,0,0,3,3,0,0,VALID,0,0,0,0,0,1,0,0,0,0,0,0,0,0,0,0,0,0,0,0,320.58,1096.88,2,0,0.12,0.12,190,8.33,0.12,0.12,23.08,FLYING,X10-F,0:/Integrated Flight Computer/aircraft/x10_f_cfg.ks (inferred preloaded)
23.44,APPROACH,ILS_TRACK,152.16,152,-0.16,450.6,374.85,-0.45,9.73,9.9,270,0.01,0.2784,0,19.889,1,0.6,4.5,0.75,0.35,0.0168,0.4,0,21.846,0,0.161,0,270,0,0,1,-0.18,0,0,0,270,0.5906,0,0.807,0,270,0.05,-46.57,8.069,-0.002,7.629,1,3,667.87,7.927,0,497.19,0,0,0,,0,0,0,0,0,0,0,0,0,0,270.01,0,0,0,0,0,0,0,0,0,0,0,0,0,3,3,0,0,VALID,0,0,0,0,0,1,0,0,0,0,0,0,0,0,0,0,0,0,0,0,318.86,1097.07,2,0,0.12,0.12,193,8.33,0.12,0.12,23.44,FLYING,X10-F,0:/Integrated Flight Computer/aircraft/x10_f_cfg.ks (inferred preloaded)
23.8,APPROACH,ILS_TRACK,152.2,152,-0.2,450.45,374.7,-0.41,9.75,9.91,270,0.011,0.2804,0,19.823,1,0.6,4.5,0.75,0.35,0.0168,0.4,0,21.836,0,0.195,0,270,0,0,1,-0.17,0,0,0,270,0.5907,0,0.8069,0,270,0.05,-43.72,8.012,-0.002,6.74,1,3,667.87,7.972,0,494.19,0,0,0,,0,0,0,0,0,0,0,0,0,0,270.01,0,0,0,0,0,0,0,0,0,0,0,0,0,3,3,0,0,VALID,0,0,0,0,0,1,0,0,0,0,0,0,0,0,0,0,0,0,0,0,317.52,1097.22,2,0,0.12,0.12,196,8.33,0.12,0.12,23.8,FLYING,X10-F,0:/Integrated Flight Computer/aircraft/x10_f_cfg.ks (inferred preloaded)
24.16,APPROACH,ILS_TRACK,152.22,152,-0.22,450.3,374.56,-0.36,9.73,9.86,270,0.011,0.2841,0,19.748,1,0.6,4.5,0.75,0.35,0.0168,0.4,0,21.829,0,0.219,0,270,0,0,1,-0.15,0,0,0,270,0.5907,0,0.8069,0,270,0.04,-40.88,7.955,0,5.89,1,3,667.87,7.966,0,491.19,0,0,0,,0,0,0,0,0,0,0,0,0,0,270.01,0,0,0,0,0,0,0,0,0,0,0,0,0,3,3,0,0,VALID,0,0,0,0,0,1,0,0,0,0,0,0,0,0,0,0,0,0,0,0,316.76,1097.33,2,0,0.12,0.12,199,8.33,0.12,0.12,24.16,FLYING,X10-F,0:/Integrated Flight Computer/aircraft/x10_f_cfg.ks (inferred preloaded)
24.52,APPROACH,ILS_TRACK,152.25,152,-0.25,450.16,374.42,-0.35,9.73,9.85,270,0.01,0.2832,0,19.663,1,0.6,4.5,0.75,0.35,0.0168,0.4,0,21.821,0,0.246,0,270,0,0,1,-0.14,0,0,0,270,0.5908,0,0.8068,0,270,0.04,-38.02,7.898,-0.001,5.01,1,3,667.87,7.994,0,488.2,0,0,0,,0,0,0,0,0,0,0,0,0,0,270.01,0,0,0,0,0,0,0,0,0,0,0,0,0,3,3,0,0,VALID,0,0,0,0,0,1,0,0,0,0,0,0,0,0,0,0,0,0,0,0,316.32,1097.46,2,0,0.12,0.12,202,8.33,0.12,0.12,24.52,FLYING,X10-F,0:/Integrated Flight Computer/aircraft/x10_f_cfg.ks (inferred preloaded)
24.88,APPROACH,ILS_TRACK,152.27,152,-0.27,450.03,374.29,-0.34,9.72,9.83,270,0.009,0.2831,0,19.569,1,0.6,4.5,0.75,0.35,0.0168,0.4,0,21.815,0,0.271,0,270,0,0,1,-0.12,0,0,0,270,0.5909,0,0.8068,0,270,0.05,-35.15,7.841,-0.003,4.194,1,3,667.87,7.94,0,485.2,0,0,0,,0,0,0,0,0,0,0,0,0,0,270.01,0,0,0,0,0,0,0,0,0,0,0,0,0,3,3,0,0,VALID,0,0,0,0,0,1,0,0,0,0,0,0,0,0,0,0,0,0,0,0,315.72,1097.57,2,0,0.12,0.12,205,8.33,0.12,0.12,24.88,FLYING,X10-F,0:/Integrated Flight Computer/aircraft/x10_f_cfg.ks (inferred preloaded)
25.14,APPROACH,ILS_TRACK,152.29,152,-0.29,449.94,374.2,-0.3,9.71,9.82,270,0.009,0.282,0,19.495,1,0.6,4.5,0.75,0.35,0.0168,0.4,0,21.81,0,0.288,0,270,0,0,1,-0.11,0,0,0,270,0.5909,0,0.8067,0,270,0.04,-33.08,7.799,-0.001,3.547,1,3,667.87,7.971,0,483.03,0,0,0,,0,0,0,0,0,0,0,0,0,0,270.01,0,0,0,0,0,0,0,0,0,0,0,0,0,3,3,0,0,VALID,0,0,0,0,0,1,0,0,0,0,0,0,0,0,0,0,0,0,0,0,315.27,1097.65,2,0,0.12,0.12,207,7.69,0.14,0.12,25.14,FLYING,X10-F,0:/Integrated Flight Computer/aircraft/x10_f_cfg.ks (inferred preloaded)
25.5,APPROACH,ILS_TRACK,152.31,152,-0.31,449.82,374.09,-0.26,9.7,9.78,270,0.008,0.2818,0,19.386,1,0.6,4.5,0.75,0.35,0.0168,0.4,0,21.804,0,0.308,0,270,-0.313,0,1,-0.1,0,0,-0.09,270,0.5954,0,0.8034,-0.31,270,0.04,-30.2,7.742,0,2.687,1,3,667.87,7.968,-0.313,480.04,0,0,0,,0,0,0,0,0,0,0,0,0,0,270.01,0,0,0,0,0,0,0,0,0,0,0,0,0,3,3,0,0,VALID,0,0,0,0,0,1,0,0,0,0,0,0,0,0,0,0,0,0,0,0,314.56,1097.74,2,0,0.12,0.12,210,8.33,0.12,0.12,25.5,FLYING,X10-F,0:/Integrated Flight Computer/aircraft/x10_f_cfg.ks (inferred preloaded)
25.86,APPROACH,ILS_TRACK,152.33,152,-0.33,449.63,374.01,-0.12,9.38,9.38,270,0.008,0.2801,0,19.271,1,0.6,4.5,0.75,0.35,0.0168,0.4,0,21.799,0,0.328,0,270,-0.955,0,1,-0.05,0,0,-0.83,270,0.6045,-0.0001,0.7966,-0.96,270,0.05,-27.38,7.685,-0.003,2.045,1,3,667.87,7.712,-0.955,477.04,0,0,0,,0,0,0,0,0,0,0,0,0,0,270.01,0,0,0,0,0,0,0,0,0,0,0,0,0,3,3,0,0,VALID,0,0,0,0,0,1,0,0,0,0,0,0,0,0,0,0,0,0,0,0,313.89,1097.82,2,0,0.12,0.12,213,8.33,0.12,0.12,25.86,FLYING,X10-F,0:/Integrated Flight Computer/aircraft/x10_f_cfg.ks (inferred preloaded)
26.22,APPROACH,ILS_TRACK,152.4,152,-0.4,449.34,373.94,-0.43,8.63,8.77,270,0.011,0.2484,0,19.14,1,0.6,4.5,0.75,0.35,0.0168,0.4,0,21.78,0,0.394,0,270,-1.66,0,1,-0.15,0,0,-1.31,270,0.6143,0,0.7891,-1.66,270,0.04,-24.67,7.628,-0.002,1.34,1,3,667.87,7.577,-1.66,474.04,0,0,0,,0,0,0,0,0,0,0,0,0,0,270.01,0,0,0,0,0,0,0,0,0,0,0,0,0,3,3,0,0,VALID,0,0,0,0,0,1,0,0,0,0,0,0,0,0,0,0,0,0,0,0,312.73,1098.13,2,0,0.12,0.12,216,8.33,0.12,0.12,26.22,FLYING,X10-F,0:/Integrated Flight Computer/aircraft/x10_f_cfg.ks (inferred preloaded)
26.58,APPROACH,ILS_TRACK,152.52,152,-0.52,448.95,373.8,-0.56,7.9,8.04,270,0.009,0.2061,0,18.972,1,0.6,4.5,0.75,0.35,0.0168,0.4,0,21.748,0,0.507,0,270,-2.057,0,1,-0.19,0,0,-1.98,270,0.6198,0,0.7847,-2.06,270,0.04,-22.03,7.57,-0.001,0.943,1,3,667.87,7.084,-2.057,471.04,0,0,0,,0,0,0,0,0,0,0,0,0,0,270.01,0,0,0,0,0,0,0,0,0,0,0,0,0,3,3,0,0,VALID,0,0,0,0,0,1,0,0,0,0,0,0,0,0,0,0,0,0,0,0,306.45,1098.62,2,0,0.12,0.12,219,8.33,0.12,0.12,26.58,FLYING,X10-F,0:/Integrated Flight Computer/aircraft/x10_f_cfg.ks (inferred preloaded)
26.94,APPROACH,ILS_TRACK,152.68,152,-0.68,448.51,373.47,-1.16,7.45,7.86,270,0.011,0.1486,0,18.748,1,0.6,4.5,0.75,0.35,0.0168,0.4,0,21.7,0,0.676,0,270,-2.912,0,1,-0.43,0,0,-2.6,270,0.6315,0,0.7753,-2.91,270,0.04,-19.47,7.513,0,0.088,1,3,667.87,7.192,-2.912,468.03,0,0,0,,0,0,0,0,0,0,0,0,0,0,270.01,0,0,0,0,0,0,0,0,0,0,0,0,0,3,3,0,0,VALID,0,0,0,0,0,1,0,0,0,0,0,0,0,0,0,0,0,0,0,0,294.57,1099.35,2,0,0.12,0.12,222,8.33,0.12,0.12,26.94,FLYING,X10-F,0:/Integrated Flight Computer/aircraft/x10_f_cfg.ks (inferred preloaded)
27.3,APPROACH,ILS_TRACK,152.83,152,-0.83,447.89,373.01,-1.59,6.96,7.49,270,0.011,0.1239,0,18.471,1,0.6,4.5,0.75,0.35,0.0168,0.4,0,21.66,0,0.819,0,270,-3.083,0,1,-0.56,0,0,-2.95,270,0.6339,-0.0001,0.7734,-3.08,270,0.04,-17.06,7.456,-0.001,-0.083,1,3,667.87,6.503,-3.083,465.03,0,0,0,,0,0,0,0,0,0,0,0,0,0,270.01,0,0,0,0,0,0,0,0,0,0,0,0,0,3,3,0,0,VALID,0,0,0,0,0,1,0,0,0,0,0,0,0,0,0,0,0,0,0,0,278.32,1099.99,2,0,0.12,0.12,225,8.33,0.12,0.12,27.3,FLYING,X10-F,0:/Integrated Flight Computer/aircraft/x10_f_cfg.ks (inferred preloaded)
27.56,APPROACH,ILS_TRACK,152.93,152,-0.93,447.37,372.55,-1.94,6.77,7.45,270,0.011,0.1103,0,18.238,1,0.6,4.5,0.75,0.35,0.0168,0.4,0,21.631,0,0.921,0,270,-3.465,0,1,-0.72,0,0,-3.32,270,0.6391,-0.0001,0.7691,-3.47,270,0.04,-15.4,7.414,-0.002,-0.465,1,3,667.87,6.355,-3.465,462.85,0,0,0,,0,0,0,0,0,0,0,0,0,0,270.01,0,0,0,0,0,0,0,0,0,0,0,0,0,3,3,0,0,VALID,0,0,0,0,0,1,0,0,0,0,0,0,0,0,0,0,0,0,0,0,265.76,1100.45,2,0,0.12,0.12,227,7.69,0.14,0.12,27.56,FLYING,X10-F,0:/Integrated Flight Computer/aircraft/x10_f_cfg.ks (inferred preloaded)
27.92,APPROACH,ILS_TRACK,153.03,152,-1.03,446.45,371.76,-2.58,6.33,7.23,270,0.012,0.1128,0,17.881,1,0.6,4.5,0.75,0.35,0.0168,0.4,0,21.602,0,1.024,0,270,-3.608,0,1,-0.93,0,0,-3.45,270,0.6411,-0.0001,0.7675,-3.61,270,0.04,-13.28,7.357,-0.001,-0.608,1,3,667.87,5.742,-3.608,459.84,0,0,0,,0,0,0,0,0,0,0,0,0,0,270.01,0,0,0,0,0,0,0,0,0,0,0,0,0,3,3,0,0,VALID,0,0,0,0,0,1,0,0,0,0,0,0,0,0,0,0,0,0,0,0,248.87,1100.93,2,0,0.12,0.12,230,8.33,0.12,0.12,27.92,FLYING,X10-F,0:/Integrated Flight Computer/aircraft/x10_f_cfg.ks (inferred preloaded)
28.28,APPROACH,ILS_TRACK,153.08,152,-1.08,445.4,370.74,-3.03,6.24,7.3,270,0.01,0.134,0,17.498,1,0.6,4.5,0.75,0.35,0.0168,0.4,0,21.587,0,1.079,0,270,-3.785,0,1,-1.11,0,0,-3.88,270,0.6435,-0.0001,0.7654,-3.79,270,0.04,-11.3,7.299,-0.001,-0.785,1,3,667.87,5.219,-3.785,456.83,0,0,0,,0,0,0,0,0,0,0,0,0,0,270.01,0,0,0,0,0,0,0,0,0,0,0,0,0,3,3,0,0,VALID,0,0,0,0,0,1,0,0,0,0,0,0,0,0,0,0,0,0,0,0,234.81,1101.24,2,0,0.12,0.12,233,8.33,0.12,0.12,28.28,FLYING,X10-F,0:/Integrated Flight Computer/aircraft/x10_f_cfg.ks (inferred preloaded)
28.64,APPROACH,ILS_TRACK,153.1,152,-1.1,444.16,369.52,-3.62,6.18,7.48,270,0.01,0.1579,0,17.103,1,0.6,4.5,0.75,0.35,0.0168,0.4,0,21.581,0,1.101,0,270,-4.071,0,1,-1.35,0,0,-3.96,270,0.6474,-0.0001,0.7621,-4.07,270,0.04,-9.51,7.242,-0.001,-1.071,1,3,667.87,4.906,-4.071,453.82,0,0,0,,0,0,0,0,0,0,0,0,0,0,270.01,0,0,0,0,0,0,0,0,0,0,0,0,0,3,3,0,0,VALID,0,0,0,0,0,1,0,0,0,0,0,0,0,0,0,0,0,0,0,0,225.26,1101.42,2,0,0.12,0.12,236,8.33,0.12,0.12,28.64,FLYING,X10-F,0:/Integrated Flight Computer/aircraft/x10_f_cfg.ks (inferred preloaded)
29,APPROACH,ILS_TRACK,153.09,152,-1.09,442.66,368.15,-4.16,5.76,7.21,270,0.01,0.1838,0,16.711,1,0.6,4.5,0.75,0.35,0.0168,0.4,0,21.585,0,1.086,0,270,-3.839,0,1,-1.52,0,0,-3.8,270,0.6444,-0.0001,0.7647,-3.84,270,0.04,-7.98,7.184,-0.002,-0.839,1,3,667.87,4.041,-3.839,450.81,0,0,0,,0,0,0,0,0,0,0,0,0,0,270.01,0,0,0,0,0,0,0,0,0,0,0,0,0,3,3,0,0,VALID,0,0,0,0,0,1,0,0,0,0,0,0,0,0,0,0,0,0,0,0,220.59,1101.47,2,0,0.12,0.12,239,8.33,0.12,0.12,29,FLYING,X10-F,0:/Integrated Flight Computer/aircraft/x10_f_cfg.ks (inferred preloaded)
29.36,APPROACH,ILS_TRACK,153.07,152,-1.07,441.09,366.5,-4.79,5.97,7.71,270,0.009,0.1981,0,16.323,1,0.6,4.5,0.75,0.35,0.0168,0.4,0,21.59,0,1.069,0,270,-4.255,0,1,-1.79,0,0,-4.15,270,0.65,-0.0001,0.7599,-4.26,270,0.04,-6.53,7.127,-0.002,-1.255,1,3,667.87,4.017,-4.255,447.8,0,0,0,,0,0,0,0,0,0,0,0,0,0,270.01,0,0,0,0,0,0,0,0,0,0,0,0,0,3,3,0,0,VALID,0,0,0,0,0,1,0,0,0,0,0,0,0,0,0,0,0,0,0,0,218.77,1101.52,2,0,0.12,0.12,242,8.33,0.12,0.12,29.36,FLYING,X10-F,0:/Integrated Flight Computer/aircraft/x10_f_cfg.ks (inferred preloaded)
29.72,APPROACH,ILS_TRACK,153.02,152,-1.02,439.24,364.74,-5.14,5.72,7.54,270,0.009,0.2166,0,15.95,1,0.6,4.5,0.75,0.35,0.0168,0.4,0,21.603,0,1.023,0,270,-3.819,0,1,-1.9,0,0,-3.87,270,0.6443,-0.0001,0.7648,-3.82,270,0.04,-5.34,7.07,-0.002,-0.819,1,3,667.87,3.026,-3.819,444.79,0,0,0,,0,0,0,0,0,0,0,0,0,0,270.01,0,0,0,0,0,0,0,0,0,0,0,0,0,3,3,0,0,VALID,0,0,0,0,0,1,0,0,0,0,0,0,0,0,0,0,0,0,0,0,219.29,1101.47,2,0,0.12,0.12,245,8.33,0.12,0.12,29.72,FLYING,X10-F,0:/Integrated Flight Computer/aircraft/x10_f_cfg.ks (inferred preloaded)
29.98,APPROACH,ILS_TRACK,153.02,152,-1.02,437.85,363.32,-5.71,5.74,7.8,270,0.01,0.208,0,15.684,1,0.6,4.5,0.75,0.35,0.0168,0.4,0,21.604,0,1.019,0,270,-4.063,0,1,-2.11,0,0,-3.91,270,0.6476,-0.0001,0.762,-4.06,270,0.04,-4.56,7.028,0,-1.063,1,3,667.87,3.038,-4.063,442.62,0,0,0,,0,0,0,0,0,0,0,0,0,0,270.01,0,0,0,0,0,0,0,0,0,0,0,0,0,3,3,0,0,VALID,0,0,0,0,0,1,0,0,0,0,0,0,0,0,0,0,0,0,0,0,220.14,1101.56,2,0,0.12,0.12,247,7.69,0.14,0.12,29.98,FLYING,X10-F,0:/Integrated Flight Computer/aircraft/x10_f_cfg.ks (inferred preloaded)
30.34,APPROACH,ILS_TRACK,152.97,152,-0.97,435.8,361.24,-5.87,5.94,8.02,270,0.008,0.2207,0,15.327,1,0.6,4.5,0.75,0.35,0.0168,0.4,0,21.617,0,0.972,0,270,-3.833,0,1,-2.18,0,0,-4.06,270,0.6446,-0.0001,0.7645,-3.83,270,0.04,-3.57,6.971,-0.002,-0.833,1,3,667.87,2.381,-3.833,439.61,0,0,0,,0,0,0,0,0,0,0,0,0,0,270.01,0,0,0,0,0,0,0,0,0,0,0,0,0,3,3,0,0,VALID,0,0,0,0,0,1,0,0,0,0,0,0,0,0,0,0,0,0,0,0,220.92,1101.53,2,0,0.12,0.12,250,8.33,0.12,0.12,30.34,FLYING,X10-F,0:/Integrated Flight Computer/aircraft/x10_f_cfg.ks (inferred preloaded)
30.7,APPROACH,ILS_TRACK,152.95,152,-0.95,433.59,359.01,-6.46,5.92,8.26,270,0.011,0.21,0,14.982,1,0.6,4.5,0.75,0.35,0.0168,0.4,0,21.622,0,0.953,0,270,-3.971,0,1,-2.4,0,0,-3.83,270,0.6465,-0.0001,0.7629,-3.97,270,0.04,-2.77,6.913,0,-0.971,1,3,667.87,2.254,-3.971,436.61,0,0,0,,0,0,0,0,0,0,0,0,0,0,270.01,0,0,0,0,0,0,0,0,0,0,0,0,0,3,3,0,0,VALID,0,0,0,0,0,1,0,0,0,0,0,0,0,0,0,0,0,0,0,0,222.24,1101.64,2,0,0.12,0.12,253,8.33,0.12,0.12,30.7,FLYING,X10-F,0:/Integrated Flight Computer/aircraft/x10_f_cfg.ks (inferred preloaded)
31.06,APPROACH,ILS_TRACK,152.9,152,-0.9,431.22,356.68,-6.55,5.88,8.2,270,0.009,0.2223,0,14.651,1,0.6,4.5,0.75,0.35,0.0168,0.4,0,21.637,0,0.9,0,270,-3.582,0,1,-2.44,0,0,-3.79,270,0.6414,-0.0001,0.7672,-3.58,270,0.04,-2.11,6.856,-0.001,-0.582,1,3,667.87,1.518,-3.582,433.6,0,0,0,,0,0,0,0,0,0,0,0,0,0,270.01,0,0,0,0,0,0,0,0,0,0,0,0,0,3,3,0,0,VALID,0,0,0,0,0,1,0,0,0,0,0,0,0,0,0,0,0,0,0,0,223.01,1101.6,2,0,0.12,0.12,256,8.33,0.12,0.12,31.06,FLYING,X10-F,0:/Integrated Flight Computer/aircraft/x10_f_cfg.ks (inferred preloaded)
31.42,APPROACH,ILS_TRACK,152.89,152,-0.89,428.75,354.21,-7.19,5.78,8.38,270,0.011,0.2025,0,14.329,1,0.6,4.5,0.75,0.35,0.0168,0.4,0,21.64,0,0.891,0,270,-3.752,0,1,-2.66,0,0,-3.62,270,0.6437,0,0.7652,-3.75,270,0.04,-1.58,6.799,0,-0.752,1,3,667.87,1.533,-3.752,430.6,0,0,0,,0,0,0,0,0,0,0,0,0,0,270.01,0,0,0,0,0,0,0,0,0,0,0,0,0,3,3,0,0,VALID,0,0,0,0,0,1,0,0,0,0,0,0,0,0,0,0,0,0,0,0,224.03,1101.77,2,0,0.12,0.12,259,8.33,0.12,0.12,31.42,FLYING,X10-F,0:/Integrated Flight Computer/aircraft/x10_f_cfg.ks (inferred preloaded)
31.78,APPROACH,ILS_TRACK,152.84,152,-0.84,426.23,351.6,-7.26,6.13,8.73,270,0.009,0.2127,0,14.018,1,0.6,4.5,0.75,0.35,0.0168,0.4,0,21.653,0,0.843,0,270,-3.574,0,1,-2.71,0,0,-3.78,270,0.6414,-0.0001,0.7672,-3.57,270,0.04,-1.08,6.742,-0.002,-0.574,1,3,667.87,1.122,-3.574,427.6,0,0,0,,0,0,0,0,0,0,0,0,0,0,270.01,0,0,0,0,0,0,0,0,0,0,0,0,0,3,3,0,0,VALID,0,0,0,0,0,1,0,0,0,0,0,0,0,0,0,0,0,0,0,0,224.1,1101.77,2,0,0.12,0.12,262,8.33,0.12,0.12,31.78,FLYING,X10-F,0:/Integrated Flight Computer/aircraft/x10_f_cfg.ks (inferred preloaded)
32.14,APPROACH,ILS_TRACK,152.8,152,-0.8,423.61,348.91,-7.57,6.31,9.05,270,0.009,0.2125,0,13.725,1,0.6,4.5,0.75,0.35,0.0168,0.4,0,21.665,0,0.802,0,270,-3.68,0,1,-2.84,0,0,-3.58,270,0.6429,-0.0001,0.7659,-3.68,270,0.03,-0.7,6.684,-0.001,-0.68,1,3,667.87,1.112,-3.68,424.6,0,0,0,,0,0,0,0,0,0,0,0,0,0,270.01,0,0,0,0,0,0,0,0,0,0,0,0,0,3,3,0,0,VALID,0,0,0,0,0,1,0,0,0,0,0,0,0,0,0,0,0,0,0,0,224.78,1101.83,2,0,0.12,0.12,265,8.33,0.12,0.12,32.14,FLYING,X10-F,0:/Integrated Flight Computer/aircraft/x10_f_cfg.ks (inferred preloaded)
32.4,APPROACH,ILS_TRACK,152.74,152,-0.74,421.63,346.95,-7.57,6.29,9,270,0.008,0.2277,0,13.527,1,0.6,4.5,0.75,0.35,0.0168,0.4,0,21.681,0,0.745,0,270,-3.364,0,1,-2.83,0,0,-3.55,270,0.6388,0,0.7694,-3.36,270,0.03,-0.5,6.643,0,-0.364,1,3,667.87,0.642,-3.364,422.43,0,0,0,,0,0,0,0,0,0,0,0,0,0,270.01,0,0,0,0,0,0,0,0,0,0,0,0,0,3,3,0,0,VALID,0,0,0,0,0,1,0,0,0,0,0,0,0,0,0,0,0,0,0,0,225.38,1101.74,2,0,0.12,0.12,267,7.69,0.14,0.12,32.4,FLYING,X10-F,0:/Integrated Flight Computer/aircraft/x10_f_cfg.ks (inferred preloaded)
32.76,APPROACH,ILS_TRACK,152.69,152,-0.69,418.89,344.15,-7.88,6.43,9.3,270,0.009,0.2271,0,13.271,1,0.6,4.5,0.75,0.35,0.0168,0.4,0,21.696,0,0.692,0,270,-3.574,0,1,-2.96,0,0,-3.45,270,0.6416,-0.0001,0.767,-3.57,270,0.03,-0.24,6.586,-0.001,-0.574,1,3,667.87,0.809,-3.574,419.44,0,0,0,,0,0,0,0,0,0,0,0,0,0,270.01,0,0,0,0,0,0,0,0,0,0,0,0,0,3,3,0,0,VALID,0,0,0,0,0,1,0,0,0,0,0,0,0,0,0,0,0,0,0,0,227.05,1101.75,2,0,0.12,0.12,270,8.33,0.12,0.12,32.76,FLYING,X10-F,0:/Integrated Flight Computer/aircraft/x10_f_cfg.ks (inferred preloaded)
33.12,APPROACH,ILS_TRACK,152.61,152,-0.61,416.05,341.33,-7.91,6.41,9.25,270,0.009,0.2428,0,13.042,1,0.6,4.5,0.75,0.35,0.0168,0.4,0,21.72,0,0.608,0,270,-3.255,0,1,-2.95,0,0,-3.3,270,0.6374,0,0.7705,-3.26,270,0.03,-0.07,6.529,0.001,-0.255,1,3,667.87,0.346,-3.255,416.44,0,0,0,,0,0,0,0,0,0,0,0,0,0,270.01,0,0,0,0,0,0,0,0,0,0,0,0,0,3,3,0,0,VALID,0,0,0,0,0,1,0,0,0,0,0,0,0,0,0,0,0,0,0,0,229.08,1101.63,2,0,0.12,0.12,273,8.33,0.12,0.12,33.12,FLYING,X10-F,0:/Integrated Flight Computer/aircraft/x10_f_cfg.ks (inferred preloaded)
33.48,APPROACH,ILS_TRACK,152.54,152,-0.54,413.24,338.43,-8,6.7,9.6,270,0.008,0.2424,0,12.838,1,0.6,4.5,0.75,0.35,0.0168,0.4,0,21.737,0,0.545,0,270,-3.469,0,1,-3.02,0,0,-3.47,270,0.6404,-0.0001,0.7681,-3.47,270,0.03,0.11,6.472,-0.002,-0.469,1,3,667.87,0.544,-3.469,413.45,0,0,0,,0,0,0,0,0,0,0,0,0,0,270.01,0,0,0,0,0,0,0,0,0,0,0,0,0,3,3,0,0,VALID,0,0,0,0,0,1,0,0,0,0,0,0,0,0,0,0,0,0,0,0,231.56,1101.6,2,0,0.12,0.12,276,8.33,0.12,0.12,33.48,FLYING,X10-F,0:/Integrated Flight Computer/aircraft/x10_f_cfg.ks (inferred preloaded)
33.84,APPROACH,ILS_TRACK,152.45,152,-0.45,410.3,335.56,-8.1,6.48,9.39,270,0.009,0.2548,0,12.666,1,0.6,4.5,0.75,0.35,0.0168,0.4,0,21.763,0,0.454,0,270,-3.147,0,1,-3.03,0,0,-3.12,270,0.6361,-0.0001,0.7716,-3.15,270,0.03,0.17,6.414,-0.001,-0.147,1,3,667.87,0.121,-3.147,410.46,0,0,0,,0,0,0,0,0,0,0,0,0,0,270.01,0,0,0,0,0,0,0,0,0,0,0,0,0,3,3,0,0,VALID,0,0,0,0,0,1,0,0,0,0,0,0,0,0,0,0,0,0,0,0,234.69,1101.46,2,0,0.12,0.12,279,8.33,0.12,0.12,33.84,FLYING,X10-F,0:/Integrated Flight Computer/aircraft/x10_f_cfg.ks (inferred preloaded)
34.2,APPROACH,ILS_TRACK,152.39,152,-0.39,407.44,332.6,-8.14,6.79,9.74,270,0.009,0.2483,0,12.515,1,0.6,4.5,0.75,0.35,0.0168,0.4,0,21.779,0,0.397,0,270,-3.378,0,1,-3.08,0,0,-3.41,270,0.6393,0,0.769,-3.38,270,0.03,0.29,6.357,0,-0.378,1,3,667.87,0.364,-3.378,407.47,0,0,0,,0,0,0,0,0,0,0,0,0,0,270.01,0,0,0,0,0,0,0,0,0,0,0,0,0,3,3,0,0,VALID,0,0,0,0,0,1,0,0,0,0,0,0,0,0,0,0,0,0,0,0,237.57,1101.46,2,0,0.12,0.12,282,8.33,0.12,0.12,34.2,FLYING,X10-F,0:/Integrated Flight Computer/aircraft/x10_f_cfg.ks (inferred preloaded)
34.56,APPROACH,ILS_TRACK,152.32,152,-0.32,404.47,329.66,-8.27,6.68,9.67,270,0.011,0.2522,0,12.392,1,0.6,4.5,0.75,0.35,0.0168,0.4,0,21.8,0,0.323,0,270,-3.162,0,1,-3.09,0,0,-3.1,270,0.6365,-0.0001,0.7713,-3.16,270,0.03,0.31,6.3,-0.001,-0.162,1,3,667.87,0.084,-3.162,404.48,0,0,0,,0,0,0,0,0,0,0,0,0,0,270.01,0,0,0,0,0,0,0,0,0,0,0,0,0,3,3,0,0,VALID,0,0,0,0,0,1,0,0,0,0,0,0,0,0,0,0,0,0,0,0,240.51,1101.4,2,0,0.12,0.12,285,8.33,0.12,0.12,34.56,FLYING,X10-F,0:/Integrated Flight Computer/aircraft/x10_f_cfg.ks (inferred preloaded)
34.82,APPROACH,ILS_TRACK,152.28,152,-0.28,402.37,327.51,-8.19,6.89,9.85,270,0.009,0.2489,0,12.315,1,0.6,4.5,0.75,0.35,0.0168,0.4,0,21.811,0,0.284,0,270,-3.288,0,1,-3.09,0,0,-3.31,270,0.6382,-0.0001,0.7699,-3.29,270,0.03,0.38,6.259,-0.001,-0.288,1,3,667.87,0.219,-3.288,402.33,0,0,0,,0,0,0,0,0,0,0,0,0,0,270.01,0,0,0,0,0,0,0,0,0,0,0,0,0,3,3,0,0,VALID,0,0,0,0,0,1,0,0,0,0,0,0,0,0,0,0,0,0,0,0,242.35,1101.4,2,0,0.12,0.12,287,7.69,0.14,0.12,34.82,FLYING,X10-F,0:/Integrated Flight Computer/aircraft/x10_f_cfg.ks (inferred preloaded)
35.18,APPROACH,ILS_TRACK,152.22,152,-0.22,399.4,324.55,-8.33,6.82,9.85,270,0.011,0.2474,0,12.229,1,0.6,4.5,0.75,0.35,0.0168,0.4,0,21.827,0,0.226,0,270,-3.193,0,1,-3.12,0,0,-3.1,270,0.637,-0.0001,0.7709,-3.19,270,0.03,0.39,6.202,-0.001,-0.193,1,3,667.87,0.097,-3.193,399.34,0,0,0,,0,0,0,0,0,0,0,0,0,0,270.01,0,0,0,0,0,0,0,0,0,0,0,0,0,3,3,0,0,VALID,0,0,0,0,0,1,0,0,0,0,0,0,0,0,0,0,0,0,0,0,244.81,1101.41,2,0,0.12,0.12,290,8.33,0.12,0.12,35.18,FLYING,X10-F,0:/Integrated Flight Computer/aircraft/x10_f_cfg.ks (inferred preloaded)
35.54,APPROACH,ILS_TRACK,152.17,152,-0.17,396.43,321.58,-8.2,6.83,9.79,270,0.009,0.2504,0,12.161,1,0.6,4.5,0.75,0.35,0.0168,0.4,0,21.844,0,0.168,0,270,-3.05,0,1,-3.08,0,0,-3.16,270,0.6352,0,0.7724,-3.05,270,0.02,0.4,6.145,0,-0.05,1,3,667.87,-0.089,-3.05,396.36,0,0,0,,0,0,0,0,0,0,0,0,0,0,270.01,0,0,0,0,0,0,0,0,0,0,0,0,0,3,3,0,0,VALID,0,0,0,0,0,1,0,0,0,0,0,0,0,0,0,0,0,0,0,0,246.7,1101.41,2,0,0.12,0.12,293,8.33,0.12,0.12,35.54,FLYING,X10-F,0:/Integrated Flight Computer/aircraft/x10_f_cfg.ks (inferred preloaded)
35.9,APPROACH,ILS_TRACK,152.13,152,-0.13,393.48,318.6,-8.24,6.93,9.92,270,0.01,0.2381,0,12.107,1,0.6,4.5,0.75,0.35,0.0168,0.4,0,21.852,0,0.138,0,270,-3.24,0,1,-3.11,0,0,-3.22,270,0.6378,0,0.7702,-3.24,270,0.02,0.43,6.089,0,-0.24,1,3,667.87,0.138,-3.24,393.38,0,0,0,,0,0,0,0,0,0,0,0,0,0,270.01,0,0,0,0,0,0,0,0,0,0,0,0,0,3,3,0,0,VALID,0,0,0,0,0,1,0,0,0,0,0,0,0,0,0,0,0,0,0,0,248.35,1101.53,2,0,0.12,0.12,296,8.33,0.12,0.12,35.9,FLYING,X10-F,0:/Integrated Flight Computer/aircraft/x10_f_cfg.ks (inferred preloaded)
36.26,APPROACH,ILS_TRACK,152.1,152,-0.1,390.5,315.62,-8.33,6.9,9.94,270,0.012,0.2345,0,12.068,1,0.6,4.5,0.75,0.35,0.0168,0.4,0,21.862,0,0.101,0,270,-3.191,0,1,-3.14,0,0,-3.09,270,0.6372,0,0.7707,-3.19,270,0.02,0.43,6.032,0,-0.191,1,3,667.87,0.077,-3.191,390.4,0,0,0,,0,0,0,0,0,0,0,0,0,0,270.01,0,0,0,0,0,0,0,0,0,0,0,0,0,3,3,0,0,VALID,0,0,0,0,0,1,0,0,0,0,0,0,0,0,0,0,0,0,0,0,249.45,1101.63,2,0,0.12,0.12,299,8.33,0.12,0.12,36.26,FLYING,X10-F,0:/Integrated Flight Computer/aircraft/x10_f_cfg.ks (inferred preloaded)
36.62,APPROACH,ILS_TRACK,152.07,152,-0.07,387.53,312.65,-8.3,6.92,9.93,270,0.011,0.2331,0,12.04,1,0.6,4.5,0.75,0.35,0.0168,0.4,0,21.872,0,0.067,0,270,-3.141,0,1,-3.12,0,0,-3.1,270,0.6366,0,0.7712,-3.14,270,0.02,0.44,5.975,0,-0.141,1,3,667.87,0.012,-3.141,387.42,0,0,0,,0,0,0,0,0,0,0,0,0,0,270.01,0,0,0,0,0,0,0,0,0,0,0,0,0,3,3,0,0,VALID,0,0,0,0,0,1,0,0,0,0,0,0,0,0,0,0,0,0,0,0,250.1,1101.74,2,0,0.12,0.12,302,8.33,0.12,0.12,36.62,FLYING,X10-F,0:/Integrated Flight Computer/aircraft/x10_f_cfg.ks (inferred preloaded)
36.98,APPROACH,ILS_TRACK,152.04,152,-0.04,384.55,309.67,-8.31,6.92,9.94,270,0.011,0.2283,0,12.022,1,0.6,4.5,0.75,0.35,0.0168,0.4,0,21.879,0,0.044,0,270,-3.138,0,1,-3.12,0,0,-3.11,270,0.6366,-0.0001,0.7712,-3.14,270,0.02,0.44,5.918,-0.001,-0.138,1,3,667.87,0.006,-3.138,384.44,0,0,0,,0,0,0,0,0,0,0,0,0,0,270.01,0,0,0,0,0,0,0,0,0,0,0,0,0,3,3,0,0,VALID,0,0,0,0,0,1,0,0,0,0,0,0,0,0,0,0,0,0,0,0,250.48,1101.89,2,0,0.12,0.12,305,8.33,0.12,0.12,36.98,FLYING,X10-F,0:/Integrated Flight Computer/aircraft/x10_f_cfg.ks (inferred preloaded)
37.24,APPROACH,ILS_TRACK,152.02,152,-0.02,382.4,307.53,-8.22,6.93,9.9,270,0.01,0.2301,0,12.014,1,0.6,4.5,0.75,0.35,0.0168,0.4,0,21.885,0,0.022,0,270,-3.096,0,1,-3.09,0,0,-3.2,270,0.6361,0,0.7716,-3.1,270,0.02,0.45,5.877,0.003,-0.096,1,3,667.87,-0.049,-3.096,382.29,0,0,0,,0,0,0,0,0,0,0,0,0,0,270.01,0,0,0,0,0,0,0,0,0,0,0,0,0,3,3,0,0,VALID,0,0,0,0,0,1,0,0,0,0,0,0,0,0,0,0,0,0,0,0,250.43,1101.97,2,0,0.12,0.12,307,7.69,0.14,0.12,37.24,FLYING,X10-F,0:/Integrated Flight Computer/aircraft/x10_f_cfg.ks (inferred preloaded)
37.6,APPROACH,ILS_TRACK,152,152,0,379.44,304.55,-8.21,6.96,9.93,270,0.01,0.2292,0,12.012,1,0.6,4.5,0.75,0.35,0.0168,0.4,0,21.892,0,-0.003,0,270,-3.157,0,1,-3.1,0,0,-3.2,270,0.637,-0.0001,0.7708,-3.16,270,0.02,0.46,5.82,-0.002,-0.157,1,3,667.87,0.025,-3.157,379.31,0,0,0,,0,0,0,0,0,0,0,0,0,0,270.01,0,0,0,0,0,0,0,0,0,0,0,0,0,3,3,0,0,VALID,0,0,0,0,0,1,0,0,0,0,0,0,0,0,0,0,0,0,0,0,250.61,1102.11,2,0,0.12,0.12,310,8.33,0.12,0.12,37.6,FLYING,X10-F,0:/Integrated Flight Computer/aircraft/x10_f_cfg.ks (inferred preloaded)
37.96,APPROACH,ILS_TRACK,151.97,152,0.03,376.47,301.57,-8.25,6.97,9.96,270,0.01,0.2287,0,12.019,1,0.6,4.5,0.75,0.35,0.0168,0.4,0,21.898,0,-0.027,0,270,-3.213,0,1,-3.12,0,0,-3.14,270,0.6378,0,0.7702,-3.21,270,0.02,0.46,5.763,0,-0.213,1,3,667.87,0.093,-3.213,376.33,0,0,0,,0,0,0,0,0,0,0,0,0,0,270.01,0,0,0,0,0,0,0,0,0,0,0,0,0,3,3,0,0,VALID,0,0,0,0,0,1,0,0,0,0,0,0,0,0,0,0,0,0,0,0,250.84,1102.26,2,0,0.12,0.12,313,8.33,0.12,0.12,37.96,FLYING,X10-F,0:/Integrated Flight Computer/aircraft/x10_f_cfg.ks (inferred preloaded)
38.32,APPROACH,ILS_TRACK,151.95,152,0.05,373.49,298.6,-8.28,6.95,9.97,270,0.011,0.2301,0,12.036,1,0.6,4.5,0.75,0.35,0.0168,0.4,0,21.906,0,-0.053,0,270,-3.192,0,1,-3.13,0,0,-3.1,270,0.6376,0,0.7703,-3.19,270,0.01,0.46,5.707,0.001,-0.192,1,3,667.87,0.066,-3.192,373.36,0,0,0,,0,0,0,0,0,0,0,0,0,0,270.01,0,0,0,0,0,0,0,0,0,0,0,0,0,3,3,0,0,VALID,0,0,0,0,0,1,0,0,0,0,0,0,0,0,0,0,0,0,0,0,251.11,1102.4,2,0,0.12,0.12,316,8.33,0.12,0.12,38.32,FLYING,X10-F,0:/Integrated Flight Computer/aircraft/x10_f_cfg.ks (inferred preloaded)
38.68,APPROACH,ILS_TRACK,151.92,152,0.08,370.52,295.63,-8.3,6.94,9.96,270,0.012,0.2314,0,12.061,1,0.6,4.5,0.75,0.35,0.0168,0.4,0,21.913,0,-0.077,0,270,-3.163,0,1,-3.13,0,0,-3.09,270,0.6373,0,0.7706,-3.16,270,0.01,0.46,5.65,0,-0.163,1,3,667.87,0.031,-3.163,370.39,0,0,0,,0,0,0,0,0,0,0,0,0,0,270.01,0,0,0,0,0,0,0,0,0,0,0,0,0,3,3,0,0,VALID,0,0,0,0,0,1,0,0,0,0,0,0,0,0,0,0,0,0,0,0,251.43,1102.55,2,0,0.12,0.12,319,8.33,0.12,0.12,38.68,FLYING,X10-F,0:/Integrated Flight Computer/aircraft/x10_f_cfg.ks (inferred preloaded)
39.04,APPROACH,ILS_TRACK,151.9,152,0.1,367.55,292.66,-8.26,6.97,9.97,270,0.012,0.2324,0,12.094,1,0.6,4.5,0.75,0.35,0.0168,0.4,0,21.919,0,-0.099,0,270,-3.17,0,1,-3.12,0,0,-3.11,270,0.6375,-0.0001,0.7705,-3.17,270,0.01,0.47,5.593,-0.001,-0.17,1,3,667.87,0.037,-3.17,367.41,0,0,0,,0,0,0,0,0,0,0,0,0,0,270.01,0,0,0,0,0,0,0,0,0,0,0,0,0,3,3,0,0,VALID,0,0,0,0,0,1,0,0,0,0,0,0,0,0,0,0,0,0,0,0,251.78,1102.71,2,0,0.12,0.12,322,8.33,0.12,0.12,39.04,FLYING,X10-F,0:/Integrated Flight Computer/aircraft/x10_f_cfg.ks (inferred preloaded)
