t_s,phase,subphase,ias_ms,vapp_ms,spd_err_ms,agl_m,gear_h_m,vs_ms,pitch_deg,aoa_deg,hdg_deg,bank_deg,thr_cmd,thr_cur,thr_intg,at_gain,at_tau_s,at_a_up,at_a_dn,at_kp_thr,at_ki_spd,at_thr_slew,as_cmd_deg,as_cap_deg,as_raw_deg,as_spd_err_ms,as_active,aa_hdg_cmd_deg,aa_fpa_cmd_deg,aa_fbw,aa_dir,actual_fpa_deg,ftf_hdg_err_deg,ftf_fix_idx,kos_steer_pit_deg,kos_steer_hdg_deg,aa_dir_vx,aa_dir_vy,aa_dir_vz,aa_dir_pitch_deg,aa_dir_hdg_deg,ils_loc_m,ils_gs_m,ils_dist_km,loc_corr_deg,gs_corr_deg,gs_latched,active_gs_ang_deg,ils_intercept_alt_m,d_gs_ms,fpa_preclamped_deg,gs_nom_alt_m,flare_fpa_cmd,flare_tgt_vs,flare_frac,flare_mode,flare_auth_limited,flare_vs_err,flare_fpa_err,flare_pitch_err,flare_req_up_a,flare_thr_floor,flare_tecs_et_err,flare_tecs_eb_err,flare_tecs_h_ref,flare_tecs_v_ref,flare_gamma_ref,flare_gamma_eb_term,flare_gamma_unsat,steer_hdg_deg,steer_blend,ro_loc_corr_deg,ro_hdg_err_deg,ro_yaw_tgt,ro_yaw_scale,ro_yaw_gate,yaw_cmd,roll_cmd,pitch_cmd,ro_pitch_tgt_deg,ro_pitch_err_deg,ro_pitch_ff,ro_roll_assist,flaps_cur,flaps_tgt,asc_j_ab,asc_j_rk,asc_validity,asc_q_pa,asc_q_raw_pa,asc_mach,asc_apo_m,asc_drag_n,asc_w_prop,asc_edot_aero,asc_edot_orb,asc_pitch_bias,asc_blend,asc_spooling,asc_ab_thr_ratio,asc_ab_t_now,asc_ab_t_avail,asc_ab_ign_on,asc_ab_flameouts,asc_rk_t_now,asc_rk_t_avail,asc_rk_ign_on,asc_rk_flameouts,ship_thrust,ship_avail_thrust,ship_ign_on,ship_flameouts,ifc_raw_dt_s,ifc_dt_s,ifc_loop_n,ifc_hz_est,ifc_raw_dt_max_s,ifc_raw_dt_min_s,phase_el_s,status,craft_name,cfg_file
0.16,APPROACH,ILS_TRACK,154.54,152,-2.54,737.99,659.84,-11.79,11.49,15.66,269.85,0.322,0,0,0,0,0,0,0,0,0,0,0,0,0,0,0,0,0,1,0,-4.38,0,0,0,90,0,0,0,0,0,6.78,-489.21,21.999,0,0,0,3,737.99,0,0,1227.21,0,0,0,,0,0,0,0,0,0,0,0,0,0,0,0,0,269.84,0,0,0,0,0,0,0,0,0,0,0,0,0,0,0,0,0,VALID,0,0,0,0,0,1,0,0,0,0,0,0,0,0,0,0,0,0,0,0,299.49,1082.68,2,0,0.14,0.14,1,3.7,0.14,0.02,0.18,FLYING,X10-H,0:/Integrated Flight Computer/aircraft/x10_h_cfg.ks (inferred preloaded)
0.44,APPROACH,ILS_TRACK,154.53,152,-2.53,734.87,656.89,-11.06,11.79,15.63,269.84,0.261,0,0,0,1,0.6,1.463,0.75,0.35,0.0168,0.4,1.183,21.177,1.183,2.533,1,269.91,0,0,1,-4.14,0,0,0,255.8,0.6219,-0.0015,0.7831,0,269.91,6.6,-489.83,21.96,-0.087,0,0,3,737.99,-2.63,0,1225.15,0,0,0,,0,0,0,0,0,0,0,0,0,0,0,0,0,269.84,0,0,0,0,0,0,0,0,0,0,0,0,0,1,3,0,0,VALID,0,0,0,0,0,1,0,0,0,0,0,0,0,0,0,0,0,0,0,0,273.43,1082.9,2,0,0.12,0.12,3,7.69,0.14,0.12,0.44,FLYING,X10-H,0:/Integrated Flight Computer/aircraft/x10_h_cfg.ks (inferred preloaded)
0.68,APPROACH,ILS_TRACK,154.35,152,-2.35,732.05,654.12,-10.28,11.04,14.38,269.8,0.166,0,0,0,1,0.6,2.7,0.75,0.35,0.0168,0.4,0.971,21.23,0.971,2.346,1,269.93,0,0,1,-3.85,0,0,0,269.92,0.6219,-0.0012,0.7831,0,269.93,6.42,-490.64,21.917,-0.071,0,0,3,737.99,-3.322,0,1222.93,0,0,0,,0,0,0,0,0,0,0,0,0,0,0,0,0,269.84,0,0,0,0,0,0,0,0,0,0,0,0,0,1,3,0,0,VALID,0,0,0,0,0,1,0,0,0,0,0,0,0,0,0,0,0,0,0,0,249.44,1082.29,2,0,0.12,0.12,5,7.69,0.14,0.12,0.7,FLYING,X10-H,0:/Integrated Flight Computer/aircraft/x10_h_cfg.ks (inferred preloaded)
0.94,APPROACH,ILS_TRACK,154.22,152,-2.22,728.85,651.45,-10.14,9.13,12.38,269.8,0.281,0,0,0,1,0.6,3.746,0.75,0.35,0.0168,0.4,0.832,21.264,0.832,2.224,1,269.94,0,0,1,-3.75,0,0,0,269.92,0.622,-0.001,0.783,0,269.94,6.23,-491.61,21.875,-0.06,0,0,3,737.99,-3.776,0,1220.71,0,0,0,,0,0,0,0,0,0,0,0,0,0,0,0,0,269.84,0,0,0,0,0,0,0,0,0,0,0,0,0,2,3,0,0,VALID,0,0,0,0,0,1,0,0,0,0,0,0,0,0,0,0,0,0,0,0,227.57,1081.94,2,0,0.12,0.12,7,7.69,0.14,0.12,0.96,FLYING,X10-H,0:/Integrated Flight Computer/aircraft/x10_h_cfg.ks (inferred preloaded)
1.22,APPROACH,ILS_TRACK,154.36,152,-2.36,725.45,648.77,-10.47,7.35,10.79,269.81,0.262,0,0,0,1,0.6,4.5,0.75,0.35,0.0168,0.4,0.987,21.226,0.987,2.36,1,269.93,0,0,1,-3.85,0,0,0,269.93,0.622,-0.0013,0.783,0,269.93,6.05,-492.56,21.833,-0.074,0,0,3,737.99,-3.583,0,1218.48,0,0,0,,0,0,0,0,0,0,0,0,0,0,0,0,0,269.84,0,0,0,0,0,0,0,0,0,0,0,0,0,3,3,0,0,VALID,0,0,0,0,0,1,0,0,0,0,0,0,0,0,0,0,0,0,0,0,207.85,1082.7,2,0,0.12,0.12,9,7.69,0.14,0.12,1.22,FLYING,X10-H,0:/Integrated Flight Computer/aircraft/x10_h_cfg.ks (inferred preloaded)
1.46,APPROACH,ILS_TRACK,154.55,152,-2.55,722.63,645.96,-11.12,6.33,10.15,269.79,0.148,0,0,0,1,0.6,4.5,0.75,0.35,0.0168,0.4,1.203,21.172,1.203,2.552,1,269.94,0,0,1,-4.08,0,0,0,269.94,0.6221,-0.0011,0.7829,0,269.94,5.87,-493.4,21.79,-0.063,0,0,3,737.99,-3.117,0,1216.26,0,0,0,,0,0,0,0,0,0,0,0,0,0,0,0,0,269.84,0,0,0,0,0,0,0,0,0,0,0,0,0,3,3,0,0,VALID,0,0,0,0,0,1,0,0,0,0,0,0,0,0,0,0,0,0,0,0,189.88,1083.72,2,0,0.12,0.12,11,7.69,0.14,0.12,1.48,FLYING,X10-H,0:/Integrated Flight Computer/aircraft/x10_h_cfg.ks (inferred preloaded)
1.72,APPROACH,ILS_TRACK,154.71,152,-2.71,719.71,642.98,-11.8,6.41,10.65,269.77,0.059,0,0,0,1,0.6,4.5,0.75,0.35,0.0168,0.4,1.379,21.128,1.379,2.708,1,269.94,0,0,1,-4.33,0,0,0,269.94,0.6222,-0.0011,0.7829,0,269.94,5.69,-494.1,21.748,-0.062,0,0,3,737.99,-2.526,0,1214.03,0,0,0,,0,0,0,0,0,0,0,0,0,0,0,0,0,269.84,0,0,0,0,0,0,0,0,0,0,0,0,0,3,3,0,0,VALID,0,0,0,0,0,1,0,0,0,0,0,0,0,0,0,0,0,0,0,0,173.46,1084.61,2,0,0.12,0.12,13,7.69,0.14,0.12,1.74,FLYING,X10-H,0:/Integrated Flight Computer/aircraft/x10_h_cfg.ks (inferred preloaded)
1.98,APPROACH,ILS_TRACK,154.76,152,-2.76,716.98,639.86,-12.26,7.63,12.2,269.76,0.007,0,0,0,1,0.6,4.5,0.75,0.35,0.0168,0.4,1.443,21.112,1.443,2.765,1,269.94,0,0,1,-4.51,0,0,0,269.95,0.6222,-0.001,0.7829,0,269.94,5.51,-494.63,21.705,-0.057,0,0,3,737.99,-1.825,0,1211.81,0,0,0,,0,0,0,0,0,0,0,0,0,0,0,0,0,269.84,0,0,0,0,0,0,0,0,0,0,0,0,0,3,3,0,0,VALID,0,0,0,0,0,1,0,0,0,0,0,0,0,0,0,0,0,0,0,0,158.4,1085.11,2,0,0.12,0.12,15,7.69,0.14,0.12,2,FLYING,X10-H,0:/Integrated Flight Computer/aircraft/x10_h_cfg.ks (inferred preloaded)
2.24,APPROACH,ILS_TRACK,154.66,152,-2.66,714.35,636.7,-12.01,9.54,13.99,269.75,-0.011,0,0,0,1,0.6,4.5,0.75,0.35,0.0168,0.4,1.321,21.142,1.321,2.656,1,269.96,0,0,1,-4.47,0,0,0,269.96,0.6223,-0.0008,0.7828,0,269.96,5.33,-495.03,21.663,-0.045,0,0,3,737.99,-1.58,0,1209.58,0,0,0,,0,0,0,0,0,0,0,0,0,0,0,0,0,269.84,0,0,0,0,0,0,0,0,0,0,0,0,0,3,3,0,0,VALID,0,0,0,0,0,1,0,0,0,0,0,0,0,0,0,0,0,0,0,0,144.56,1084.91,2,0,0.12,0.12,17,7.69,0.14,0.12,2.26,FLYING,X10-H,0:/Integrated Flight Computer/aircraft/x10_h_cfg.ks (inferred preloaded)
2.5,APPROACH,ILS_TRACK,154.31,152,-2.31,711.65,633.66,-11.49,10.87,15.06,269.76,0.053,0,0,0,1,0.6,4.5,0.75,0.35,0.0168,0.4,0.934,21.239,0.934,2.314,1,269.97,0,0,1,-4.29,0,0,0,269.96,0.6223,-0.0005,0.7828,0,269.97,5.15,-495.5,21.62,-0.029,0,0,3,737.99,-1.836,0,1207.36,0,0,0,,0,0,0,0,0,0,0,0,0,0,0,0,0,269.84,0,0,0,0,0,0,0,0,0,0,0,0,0,3,3,0,0,VALID,0,0,0,0,0,1,0,0,0,0,0,0,0,0,0,0,0,0,0,0,131.8,1083.7,2,0,0.12,0.12,19,7.69,0.14,0.12,2.52,FLYING,X10-H,0:/Integrated Flight Computer/aircraft/x10_h_cfg.ks (inferred preloaded)
2.76,APPROACH,ILS_TRACK,153.85,152,-1.85,709.05,630.74,-11,11.94,16,269.8,0.216,0.104,0,-0.523,1,0.6,4.5,0.75,0.35,0.0168,0.4,0,21.369,0,1.853,0,269.97,0,0,1,-4.11,0,0,0,269.97,0.6224,-0.0004,0.7827,0,269.97,4.97,-495.91,21.578,-0.025,0,0,3,737.99,-1.362,0,1205.15,0,0,0,,0,0,0,0,0,0,0,0,0,0,0,0,0,269.84,0,0,0,0,0,0,0,0,0,0,0,0,0,3,3,0,0,VALID,0,0,0,0,0,1,0,0,0,0,0,0,0,0,0,0,0,0,0,0,121.79,1081.97,2,0,0.12,0.12,21,7.69,0.14,0.12,2.78,FLYING,X10-H,0:/Integrated Flight Computer/aircraft/x10_h_cfg.ks (inferred preloaded)
3.02,APPROACH,ILS_TRACK,153.25,152,-1.25,706.64,627.98,-10.19,13.22,16.93,269.85,0.397,0.208,0,-0.903,1,0.6,4.5,0.75,0.35,0.0168,0.4,0,21.539,0,1.25,0,269.97,0,0,1,-3.86,0,0,0,269.98,0.6224,-0.0005,0.7827,0,269.97,4.79,-496.11,21.536,-0.028,0,0,3,737.99,-0.682,0,1202.94,0,0,0,,0,0,0,0,0,0,0,0,0,0,0,0,0,269.84,0,0,0,0,0,0,0,0,0,0,0,0,0,3,3,0,0,VALID,0,0,0,0,0,1,0,0,0,0,0,0,0,0,0,0,0,0,0,0,121.38,1079.63,2,0,0.12,0.12,23,7.69,0.14,0.12,3.04,FLYING,X10-H,0:/Integrated Flight Computer/aircraft/x10_h_cfg.ks (inferred preloaded)
3.28,APPROACH,ILS_TRACK,152.46,152,-0.46,704.28,625.47,-9.18,13.86,17.16,269.91,0.536,0.312,0,-1.092,1,0.6,4.5,0.75,0.35,0.0168,0.4,0,21.761,0,0.462,0,269.98,0,0,1,-3.5,0,0,0,269.99,0.6225,-0.0004,0.7826,0,269.98,4.62,-496.28,21.494,-0.022,0,0,3,737.99,-0.612,0,1200.74,0,0,0,,0,0,0,0,0,0,0,0,0,0,0,0,0,269.84,0,0,0,0,0,0,0,0,0,0,0,0,0,3,3,0,0,VALID,0,0,0,0,0,1,0,0,0,0,0,0,0,0,0,0,0,0,0,0,127.25,1076.48,2,0,0.12,0.12,25,7.69,0.14,0.12,3.3,FLYING,X10-H,0:/Integrated Flight Computer/aircraft/x10_h_cfg.ks (inferred preloaded)
3.54,APPROACH,ILS_TRACK,151.69,152,0.31,702.03,623.19,-8.34,13.93,16.93,269.96,0.633,0.416,0,-1.074,1,0.6,4.5,0.75,0.35,0.0168,0.4,0,21.979,0,-0.312,0,269.97,0,0,1,-3.19,0,0,0,269.98,0.6225,-0.0005,0.7826,0,269.97,4.45,-496.36,21.452,-0.03,0,0,3,737.99,-0.148,0,1198.56,0,0,0,,0,0,0,0,0,0,0,0,0,0,0,0,0,269.84,0,0,0,0,0,0,0,0,0,0,0,0,0,3,3,0,0,VALID,0,0,0,0,0,1,0,0,0,0,0,0,0,0,0,0,0,0,0,0,138.44,1073.38,2,0,0.12,0.12,27,7.69,0.14,0.12,3.56,FLYING,X10-H,0:/Integrated Flight Computer/aircraft/x10_h_cfg.ks (inferred preloaded)
3.8,APPROACH,ILS_TRACK,150.98,152,1.02,699.94,621.13,-7.57,13.86,16.58,269.99,0.679,0.52,0,-0.869,1,0.6,4.5,0.75,0.35,0.0168,0.4,0,22.177,0,-1.016,0,269.97,0,0,1,-2.91,0,0,0,269.98,0.6226,-0.0004,0.7825,0,269.97,4.3,-496.28,21.411,-0.025,0,0,3,737.99,0.476,0,1196.38,0,0,0,,0,0,0,0,0,0,0,0,0,0,0,0,0,269.84,0,0,0,0,0,0,0,0,0,0,0,0,0,3,3,0,0,VALID,0,0,0,0,0,1,0,0,0,0,0,0,0,0,0,0,0,0,0,0,154.68,1070.56,2,0,0.12,0.12,29,7.69,0.14,0.12,3.82,FLYING,X10-H,0:/Integrated Flight Computer/aircraft/x10_h_cfg.ks (inferred preloaded)
4.06,APPROACH,ILS_TRACK,150.34,152,1.66,698.03,619.26,-6.85,13.7,16.17,270.01,0.691,0.624,0,-0.491,1,0.6,4.5,0.75,0.35,0.0168,0.4,0,22.357,0,-1.655,0,269.97,0,0,1,-2.65,0,0,0,269.96,0.6226,-0.0006,0.7825,0,269.97,4.16,-496.04,21.369,-0.032,0,0,3,737.99,1.082,0,1194.21,0,0,0,,0,0,0,0,0,0,0,0,0,0,0,0,0,269.84,0,0,0,0,0,0,0,0,0,0,0,0,0,3,3,0,0,VALID,0,0,0,0,0,1,0,0,0,0,0,0,0,0,0,0,0,0,0,0,175.66,1068.02,2,0,0.12,0.12,31,7.69,0.14,0.12,4.08,FLYING,X10-H,0:/Integrated Flight Computer/aircraft/x10_h_cfg.ks (inferred preloaded)
4.32,APPROACH,ILS_TRACK,149.79,152,2.21,696.28,617.57,-6.24,13.5,15.75,270.02,0.678,0.728,0,0.039,1,0.6,4.5,0.75,0.35,0.0168,0.4,0,22.514,0,-2.212,0,269.96,0,0,1,-2.42,0,0,0,269.97,0.6227,-0.0007,0.7825,0,269.96,4.03,-495.64,21.328,-0.039,0,0,3,737.99,1.701,0,1192.05,0,0,0,,0,0,0,0,0,0,0,0,0,0,0,0,0,269.84,0,0,0,0,0,0,0,0,0,0,0,0,0,3,3,0,0,VALID,0,0,0,0,0,1,0,0,0,0,0,0,0,0,0,0,0,0,0,0,201.16,1065.81,2,0,0.12,0.12,33,7.69,0.14,0.12,4.34,FLYING,X10-H,0:/Integrated Flight Computer/aircraft/x10_h_cfg.ks (inferred preloaded)
4.58,APPROACH,ILS_TRACK,149.33,152,2.67,694.71,616.03,-5.61,13.39,15.43,270.02,0.648,0.832,0,0.697,1,0.6,4.5,0.75,0.35,0.0168,0.4,0,22.645,0,-2.675,0,269.95,0,0,1,-2.19,0,0,0,269.96,0.6228,-0.0008,0.7824,0,269.95,3.91,-495.07,21.287,-0.046,0,0,3,737.99,2.339,0,1189.9,0,0,0,,0,0,0,0,0,0,0,0,0,0,0,0,0,269.84,0,0,0,0,0,0,0,0,0,0,0,0,0,3,3,0,0,VALID,0,0,0,0,0,1,0,0,0,0,0,0,0,0,0,0,0,0,0,0,230.93,1064,2,0,0.12,0.12,35,7.69,0.14,0.12,4.6,FLYING,X10-H,0:/Integrated Flight Computer/aircraft/x10_h_cfg.ks (inferred preloaded)
4.84,APPROACH,ILS_TRACK,148.94,152,3.06,693.24,614.65,-5.06,13.08,14.9,270.01,0.602,0.9084,0,1.463,1,0.6,4.5,0.75,0.35,0.0168,0.4,0,22.754,0,-3.061,0,269.95,0,0,1,-1.97,0,0,0,269.95,0.6228,-0.0009,0.7824,0,269.95,3.81,-494.4,21.246,-0.05,0,0,3,737.99,2.706,0,1187.75,0,0,0,,0,0,0,0,0,0,0,0,0,0,0,0,0,269.84,0,0,0,0,0,0,0,0,0,0,0,0,0,3,3,0,0,VALID,0,0,0,0,0,1,0,0,0,0,0,0,0,0,0,0,0,0,0,0,264.76,1062.49,2,0,0.12,0.12,37,7.69,0.14,0.12,4.86,FLYING,X10-H,0:/Integrated Flight Computer/aircraft/x10_h_cfg.ks (inferred preloaded)
5.1,APPROACH,ILS_TRACK,148.69,152,3.31,691.91,613.41,-4.54,12.78,14.42,270.01,0.55,0.8222,0,2.305,1,0.6,4.5,0.75,0.35,0.0168,0.4,0,22.824,0,-3.312,0,269.94,0,0,1,-1.78,0,0,0,269.95,0.6229,-0.0011,0.7823,0,269.94,3.71,-493.6,21.205,-0.06,0,0,3,737.99,3.226,0,1185.6,0,0,0,,0,0,0,0,0,0,0,0,0,0,0,0,0,269.84,0,0,0,0,0,0,0,0,0,0,0,0,0,3,3,0,0,VALID,0,0,0,0,0,1,0,0,0,0,0,0,0,0,0,0,0,0,0,0,299.14,1061.54,2,0,0.12,0.12,39,7.69,0.14,0.12,5.12,FLYING,X10-H,0:/Integrated Flight Computer/aircraft/x10_h_cfg.ks (inferred preloaded)
5.36,APPROACH,ILS_TRACK,148.55,152,3.45,690.71,612.29,-4.14,12.48,13.99,270,0.493,0.7253,0,3.193,1,0.6,4.5,0.75,0.35,0.0168,0.4,0,22.863,0,-3.45,0,269.94,0,0,1,-1.62,0,0,0,269.95,0.6229,-0.001,0.7823,0,269.94,3.62,-492.66,21.164,-0.056,0,0,3,737.99,3.748,0,1183.46,0,0,0,,0,0,0,0,0,0,0,0,0,0,0,0,0,269.84,0,0,0,0,0,0,0,0,0,0,0,0,0,3,3,0,0,VALID,0,0,0,0,0,1,0,0,0,0,0,0,0,0,0,0,0,0,0,0,327.27,1061.04,2,0,0.12,0.12,41,7.69,0.14,0.12,5.38,FLYING,X10-H,0:/Integrated Flight Computer/aircraft/x10_h_cfg.ks (inferred preloaded)
5.62,APPROACH,ILS_TRACK,148.5,152,3.5,689.64,611.28,-3.68,12.28,13.61,269.99,0.444,0.6213,0,4.1,1,0.6,4.5,0.75,0.35,0.0168,0.4,0,22.878,0,-3.502,0,269.93,0,0,1,-1.44,0,0,0,269.94,0.623,-0.0012,0.7822,0,269.93,3.53,-491.6,21.123,-0.067,0,0,3,737.99,4.168,0,1181.32,0,0,0,,0,0,0,0,0,0,0,0,0,0,0,0,0,269.84,0,0,0,0,0,0,0,0,0,0,0,0,0,3,3,0,0,VALID,0,0,0,0,0,1,0,0,0,0,0,0,0,0,0,0,0,0,0,0,348.68,1060.9,2,0,0.12,0.12,43,7.69,0.14,0.12,5.64,FLYING,X10-H,0:/Integrated Flight Computer/aircraft/x10_h_cfg.ks (inferred preloaded)
5.88,APPROACH,ILS_TRACK,148.51,152,3.49,688.65,610.38,-3.31,11.99,13.19,269.98,0.389,0.5173,0,5.011,1,0.6,4.5,0.75,0.35,0.0168,0.4,0,22.875,0,-3.491,0,269.94,0,0,1,-1.3,0,0,0,269.94,0.623,-0.0011,0.7822,0,269.94,3.46,-490.45,21.082,-0.064,0,0,3,737.99,4.544,0,1179.18,0,0,0,,0,0,0,0,0,0,0,0,0,0,0,0,0,269.84,0,0,0,0,0,0,0,0,0,0,0,0,0,3,3,0,0,VALID,0,0,0,0,0,1,0,0,0,0,0,0,0,0,0,0,0,0,0,0,363.49,1061.02,2,0,0.12,0.12,45,7.69,0.14,0.12,5.9,FLYING,X10-H,0:/Integrated Flight Computer/aircraft/x10_h_cfg.ks (inferred preloaded)
6.14,APPROACH,ILS_TRACK,148.58,152,3.42,687.77,609.58,-2.95,11.72,12.78,269.98,0.342,0.4268,0,5.907,1,0.6,4.5,0.75,0.35,0.0168,0.4,0,22.856,0,-3.424,0,269.93,0,0,1,-1.16,0,0,0,269.94,0.6231,-0.0012,0.7822,0,269.93,3.38,-489.2,21.042,-0.068,0,0,3,737.99,4.91,0,1177.03,0,0,0,,0,0,0,0,0,0,0,0,0,0,0,0,0,269.84,0,0,0,0,0,0,0,0,0,0,0,0,0,3,3,0,0,VALID,0,0,0,0,0,1,0,0,0,0,0,0,0,0,0,0,0,0,0,0,372.18,1061.35,2,0,0.12,0.12,47,7.69,0.14,0.12,6.16,FLYING,X10-H,0:/Integrated Flight Computer/aircraft/x10_h_cfg.ks (inferred preloaded)
6.4,APPROACH,ILS_TRACK,148.67,152,3.33,686.95,608.86,-2.6,11.38,12.3,269.97,0.297,0.3563,0,6.781,1,0.6,4.5,0.75,0.35,0.0168,0.4,0,22.828,0,-3.327,0,269.93,0,0,1,-1.02,0,0,0,269.94,0.6231,-0.0012,0.7821,0,269.93,3.31,-487.88,21.001,-0.066,0,0,3,737.99,5.155,0,1174.89,0,0,0,,0,0,0,0,0,0,0,0,0,0,0,0,0,269.84,0,0,0,0,0,0,0,0,0,0,0,0,0,3,3,0,0,VALID,0,0,0,0,0,1,0,0,0,0,0,0,0,0,0,0,0,0,0,0,375.81,1061.81,2,0,0.12,0.12,49,7.69,0.14,0.12,6.42,FLYING,X10-H,0:/Integrated Flight Computer/aircraft/x10_h_cfg.ks (inferred preloaded)
6.66,APPROACH,ILS_TRACK,148.8,152,3.2,686.23,608.21,-2.33,11.11,11.95,269.96,0.259,0.2958,0,7.624,1,0.6,4.5,0.75,0.35,0.0168,0.4,0,22.792,0,-3.198,0,269.93,0,0,1,-0.93,0,0,0,269.93,0.6232,-0.0012,0.7821,0,269.93,3.25,-486.46,20.96,-0.07,0,0,3,737.99,5.56,0,1172.74,0,0,0,,0,0,0,0,0,0,0,0,0,0,0,0,0,269.84,0,0,0,0,0,0,0,0,0,0,0,0,0,3,3,0,0,VALID,0,0,0,0,0,1,0,0,0,0,0,0,0,0,0,0,0,0,0,0,375.16,1062.39,2,0,0.12,0.12,51,7.69,0.14,0.12,6.68,FLYING,X10-H,0:/Integrated Flight Computer/aircraft/x10_h_cfg.ks (inferred preloaded)
6.92,APPROACH,ILS_TRACK,148.93,152,3.07,685.55,607.64,-2.15,10.76,11.53,269.96,0.219,0.2616,0,8.434,1,0.6,4.5,0.75,0.35,0.0168,0.4,0,22.757,0,-3.075,0,269.94,0,0,1,-0.84,0,0,0,269.93,0.6232,-0.0011,0.782,0,269.94,3.18,-484.99,20.919,-0.064,0,0,3,737.99,5.745,0,1170.59,0,0,0,,0,0,0,0,0,0,0,0,0,0,0,0,0,269.84,0,0,0,0,0,0,0,0,0,0,0,0,0,3,3,0,0,VALID,0,0,0,0,0,1,0,0,0,0,0,0,0,0,0,0,0,0,0,0,369.63,1062.94,2,0,0.12,0.12,53,7.69,0.14,0.12,6.94,FLYING,X10-H,0:/Integrated Flight Computer/aircraft/x10_h_cfg.ks (inferred preloaded)
7.18,APPROACH,ILS_TRACK,149.05,152,2.95,684.92,607.12,-1.93,10.37,11.04,269.95,0.186,0.2409,0,9.212,1,0.6,4.5,0.75,0.35,0.0168,0.4,0,22.723,0,-2.951,0,269.94,0,0,1,-0.74,0,0,0,269.93,0.6233,-0.001,0.782,0,269.94,3.12,-483.48,20.878,-0.058,0,0,3,737.99,5.835,0,1168.44,0,0,0,,0,0,0,0,0,0,0,0,0,0,0,0,0,269.84,0,0,0,0,0,0,0,0,0,0,0,0,0,3,3,0,0,VALID,0,0,0,0,0,1,0,0,0,0,0,0,0,0,0,0,0,0,0,0,361.42,1063.49,2,0,0.12,0.12,55,7.69,0.14,0.12,7.2,FLYING,X10-H,0:/Integrated Flight Computer/aircraft/x10_h_cfg.ks (inferred preloaded)
7.44,APPROACH,ILS_TRACK,149.17,152,2.83,684.4,606.61,-1.99,10.22,10.95,269.95,0.163,0.2268,0,9.956,1,0.6,4.5,0.75,0.35,0.0168,0.4,0,22.687,0,-2.825,0,269.93,0,0,1,-0.76,0,0,0,269.93,0.6233,-0.0013,0.7819,0,269.93,3.07,-481.86,20.837,-0.074,0,0,3,737.99,6.394,0,1166.29,0,0,0,,0,0,0,0,0,0,0,0,0,0,0,0,0,269.84,0,0,0,0,0,0,0,0,0,0,0,0,0,3,3,0,0,VALID,0,0,0,0,0,1,0,0,0,0,0,0,0,0,0,0,0,0,0,0,352.12,1064.06,2,0,0.12,0.12,57,7.69,0.14,0.12,7.46,FLYING,X10-H,0:/Integrated Flight Computer/aircraft/x10_h_cfg.ks (inferred preloaded)
7.7,APPROACH,ILS_TRACK,149.24,152,2.76,683.99,606.13,-1.66,10.55,11.17,269.95,0.134,0.2484,0,10.677,1,0.6,4.5,0.75,0.35,0.0168,0.4,0,22.668,0,-2.756,0,269.94,0,0,1,-0.67,0,0,0,269.93,0.6234,-0.0011,0.7819,0,269.94,3.01,-480.11,20.796,-0.062,0,0,3,737.99,6.715,0,1164.14,0,0,0,,0,0,0,0,0,0,0,0,0,0,0,0,0,269.84,0,0,0,0,0,0,0,0,0,0,0,0,0,3,3,0,0,VALID,0,0,0,0,0,1,0,0,0,0,0,0,0,0,0,0,0,0,0,0,342.78,1064.39,2,0,0.12,0.12,59,7.69,0.14,0.12,7.72,FLYING,X10-H,0:/Integrated Flight Computer/aircraft/x10_h_cfg.ks (inferred preloaded)
7.96,APPROACH,ILS_TRACK,149.25,152,2.75,683.52,605.74,-1.48,10.3,10.81,269.95,0.118,0.301,0,11.393,1,0.6,4.5,0.75,0.35,0.0168,0.4,0,22.665,0,-2.748,0,269.93,0,0,1,-0.57,0,0,0,269.93,0.6234,-0.0012,0.7819,0,269.93,2.96,-478.44,20.754,-0.068,0,0,3,737.99,6.44,0,1161.99,0,0,0,,0,0,0,0,0,0,0,0,0,0,0,0,0,269.84,0,0,0,0,0,0,0,0,0,0,0,0,0,3,3,0,0,VALID,0,0,0,0,0,1,0,0,0,0,0,0,0,0,0,0,0,0,0,0,337.04,1064.45,2,0,0.12,0.12,61,7.69,0.14,0.12,7.98,FLYING,X10-H,0:/Integrated Flight Computer/aircraft/x10_h_cfg.ks (inferred preloaded)
8.22,APPROACH,ILS_TRACK,149.31,152,2.69,683.14,605.34,-1.52,10.3,10.88,269.94,0.099,0.3086,0,12.096,1,0.6,4.5,0.75,0.35,0.0168,0.4,0,22.648,0,-2.686,0,269.93,0,0,1,-0.59,0,0,0,269.93,0.6235,-0.0012,0.7818,0,269.93,2.91,-476.66,20.713,-0.067,0,0,3,737.99,6.983,0,1159.83,0,0,0,,0,0,0,0,0,0,0,0,0,0,0,0,0,269.84,0,0,0,0,0,0,0,0,0,0,0,0,0,3,3,0,0,VALID,0,0,0,0,0,1,0,0,0,0,0,0,0,0,0,0,0,0,0,0,335.68,1064.74,2,0,0.12,0.12,63,7.69,0.14,0.12,8.24,FLYING,X10-H,0:/Integrated Flight Computer/aircraft/x10_h_cfg.ks (inferred preloaded)
8.48,APPROACH,ILS_TRACK,149.33,152,2.67,682.77,605,-1.16,10.29,10.69,269.94,0.086,0.3406,0,12.79,1,0.6,4.5,0.75,0.35,0.0168,0.4,0,22.643,0,-2.67,0,269.93,0,0,1,-0.45,0,0,0,269.94,0.6236,-0.0012,0.7818,0,269.93,2.85,-474.87,20.672,-0.07,0,0,3,737.99,6.742,0,1157.68,0,0,0,,0,0,0,0,0,0,0,0,0,0,0,0,0,269.84,0,0,0,0,0,0,0,0,0,0,0,0,0,3,3,0,0,VALID,0,0,0,0,0,1,0,0,0,0,0,0,0,0,0,0,0,0,0,0,335.39,1064.83,2,0,0.12,0.12,65,7.69,0.14,0.12,8.5,FLYING,X10-H,0:/Integrated Flight Computer/aircraft/x10_h_cfg.ks (inferred preloaded)
8.74,APPROACH,ILS_TRACK,149.39,152,2.61,682.38,604.7,-1.18,9.94,10.35,269.94,0.075,0.3452,0,13.477,1,0.6,4.5,0.75,0.35,0.0168,0.4,0,22.628,0,-2.615,0,269.93,0,0,1,-0.45,0,0,0,269.94,0.6236,-0.0012,0.7817,0,269.93,2.81,-473.12,20.631,-0.071,0,0,3,737.99,6.823,0,1155.52,0,0,0,,0,0,0,0,0,0,0,0,0,0,0,0,0,269.84,0,0,0,0,0,0,0,0,0,0,0,0,0,3,3,0,0,VALID,0,0,0,0,0,1,0,0,0,0,0,0,0,0,0,0,0,0,0,0,336.99,1065.08,2,0,0.12,0.12,67,7.69,0.14,0.12,8.76,FLYING,X10-H,0:/Integrated Flight Computer/aircraft/x10_h_cfg.ks (inferred preloaded)
9,APPROACH,ILS_TRACK,149.47,152,2.53,682.11,604.38,-1.22,10.05,10.52,269.94,0.063,0.3322,0,14.141,1,0.6,4.5,0.75,0.35,0.0168,0.4,0,22.604,0,-2.53,0,269.95,0,0,1,-0.49,0,0,0,269.94,0.6237,-0.0009,0.7817,0,269.95,2.75,-471.24,20.59,-0.052,0,0,3,737.99,7.355,0,1153.37,0,0,0,,0,0,0,0,0,0,0,0,0,0,0,0,0,269.84,0,0,0,0,0,0,0,0,0,0,0,0,0,3,3,0,0,VALID,0,0,0,0,0,1,0,0,0,0,0,0,0,0,0,0,0,0,0,0,338.53,1065.46,2,0,0.12,0.12,69,7.69,0.14,0.12,9.02,FLYING,X10-H,0:/Integrated Flight Computer/aircraft/x10_h_cfg.ks (inferred preloaded)
9.26,APPROACH,ILS_TRACK,149.52,152,2.48,681.81,604.1,-1,10.06,10.41,269.94,0.059,0.3428,0,14.789,1,0.6,4.5,0.75,0.35,0.0168,0.4,0,22.588,0,-2.475,0,269.95,0,0,1,-0.39,0,0,0,269.93,0.6237,-0.0009,0.7817,0,269.95,2.7,-469.38,20.549,-0.053,0,0,3,737.99,7.097,0,1151.21,0,0,0,,0,0,0,0,0,0,0,0,0,0,0,0,0,269.84,0,0,0,0,0,0,0,0,0,0,0,0,0,3,3,0,0,VALID,0,0,0,0,0,1,0,0,0,0,0,0,0,0,0,0,0,0,0,0,339.49,1065.71,2,0,0.12,0.12,71,7.69,0.14,0.12,9.28,FLYING,X10-H,0:/Integrated Flight Computer/aircraft/x10_h_cfg.ks (inferred preloaded)
9.52,APPROACH,ILS_TRACK,149.62,152,2.38,681.52,603.84,-1.02,9.92,10.28,269.94,0.057,0.3317,0,15.417,1,0.6,4.5,0.75,0.35,0.0168,0.4,0,22.563,0,-2.383,0,269.94,0,0,1,-0.38,0,0,0,269.94,0.6238,-0.001,0.7816,0,269.94,2.65,-467.51,20.508,-0.055,0,0,3,737.99,7.223,0,1149.06,0,0,0,,0,0,0,0,0,0,0,0,0,0,0,0,0,269.84,0,0,0,0,0,0,0,0,0,0,0,0,0,3,3,0,0,VALID,0,0,0,0,0,1,0,0,0,0,0,0,0,0,0,0,0,0,0,0,340.82,1066.11,2,0,0.12,0.12,73,7.69,0.14,0.12,9.54,FLYING,X10-H,0:/Integrated Flight Computer/aircraft/x10_h_cfg.ks (inferred preloaded)
9.78,APPROACH,ILS_TRACK,149.71,152,2.29,681.29,603.59,-0.87,10.02,10.34,269.94,0.054,0.3243,0,16.02,1,0.6,4.5,0.75,0.35,0.0168,0.4,0,22.537,0,-2.291,0,269.95,0,0,1,-0.35,0,0,0,269.93,0.6238,-0.0009,0.7816,0,269.95,2.61,-465.59,20.467,-0.052,0,0,3,737.99,7.394,0,1146.9,0,0,0,,0,0,0,0,0,0,0,0,0,0,0,0,0,269.84,0,0,0,0,0,0,0,0,0,0,0,0,0,3,3,0,0,VALID,0,0,0,0,0,1,0,0,0,0,0,0,0,0,0,0,0,0,0,0,341.5,1066.52,2,0,0.12,0.12,75,7.69,0.14,0.12,9.8,FLYING,X10-H,0:/Integrated Flight Computer/aircraft/x10_h_cfg.ks (inferred preloaded)
10.04,APPROACH,ILS_TRACK,149.79,152,2.21,681.03,603.36,-0.91,9.87,10.2,269.94,0.054,0.3253,0,16.602,1,0.6,4.5,0.75,0.35,0.0168,0.4,0,22.513,0,-2.206,0,269.94,0,0,1,-0.34,0,0,0,269.94,0.6239,-0.001,0.7815,0,269.94,2.56,-463.69,20.425,-0.058,0,0,3,737.99,7.349,0,1144.74,0,0,0,,0,0,0,0,0,0,0,0,0,0,0,0,0,269.84,0,0,0,0,0,0,0,0,0,0,0,0,0,3,3,0,0,VALID,0,0,0,0,0,1,0,0,0,0,0,0,0,0,0,0,0,0,0,0,341.94,1066.89,2,0,0.12,0.12,77,7.69,0.14,0.12,10.06,FLYING,X10-H,0:/Integrated Flight Computer/aircraft/x10_h_cfg.ks (inferred preloaded)
10.3,APPROACH,ILS_TRACK,149.89,152,2.11,680.84,603.14,-0.75,10.02,10.29,269.94,0.052,0.3202,0,17.158,1,0.6,4.5,0.75,0.35,0.0168,0.4,0,22.486,0,-2.112,0,269.94,0,0,1,-0.31,0,0,0,269.94,0.6239,-0.001,0.7815,0,269.94,2.52,-461.72,20.384,-0.056,0,0,3,737.99,7.544,0,1142.58,0,0,0,,0,0,0,0,0,0,0,0,0,0,0,0,0,269.84,0,0,0,0,0,0,0,0,0,0,0,0,0,3,3,0,0,VALID,0,0,0,0,0,1,0,0,0,0,0,0,0,0,0,0,0,0,0,0,342.22,1067.3,2,0,0.12,0.12,79,7.69,0.14,0.12,10.32,FLYING,X10-H,0:/Integrated Flight Computer/aircraft/x10_h_cfg.ks (inferred preloaded)
10.56,APPROACH,ILS_TRACK,149.97,152,2.03,680.59,602.95,-0.74,9.8,10.05,269.94,0.051,0.3274,0,17.695,1,0.6,4.5,0.75,0.35,0.0168,0.4,0,22.463,0,-2.032,0,269.95,0,0,1,-0.28,0,0,0,269.95,0.624,-0.0009,0.7814,0,269.95,2.47,-459.81,20.343,-0.051,0,0,3,737.99,7.382,0,1140.41,0,0,0,,0,0,0,0,0,0,0,0,0,0,0,0,0,269.84,0,0,0,0,0,0,0,0,0,0,0,0,0,3,3,0,0,VALID,0,0,0,0,0,1,0,0,0,0,0,0,0,0,0,0,0,0,0,0,342.48,1067.65,2,0,0.12,0.12,81,7.69,0.14,0.12,10.58,FLYING,X10-H,0:/Integrated Flight Computer/aircraft/x10_h_cfg.ks (inferred preloaded)
10.82,APPROACH,ILS_TRACK,150.08,152,1.92,680.41,602.75,-0.74,9.84,10.13,269.94,0.05,0.3129,0,18.203,1,0.6,4.5,0.75,0.35,0.0168,0.4,0,22.431,0,-1.917,0,269.94,0,0,1,-0.3,0,0,0,269.94,0.624,-0.001,0.7814,0,269.94,2.43,-457.83,20.302,-0.057,0,0,3,737.99,7.697,0,1138.25,0,0,0,,0,0,0,0,0,0,0,0,0,0,0,0,0,269.84,0,0,0,0,0,0,0,0,0,0,0,0,0,3,3,0,0,VALID,0,0,0,0,0,1,0,0,0,0,0,0,0,0,0,0,0,0,0,0,342.79,1068.14,2,0,0.12,0.12,83,7.69,0.14,0.12,10.84,FLYING,X10-H,0:/Integrated Flight Computer/aircraft/x10_h_cfg.ks (inferred preloaded)
11.08,APPROACH,ILS_TRACK,150.18,152,1.82,680.21,602.57,-0.67,9.81,10.05,269.94,0.05,0.3113,0,18.684,1,0.6,4.5,0.75,0.35,0.0168,0.4,0,22.403,0,-1.817,0,269.95,0,0,1,-0.26,0,0,0,269.95,0.6241,-0.0008,0.7814,0,269.95,2.38,-455.86,20.26,-0.046,0,0,3,737.99,7.59,0,1136.09,0,0,0,,0,0,0,0,0,0,0,0,0,0,0,0,0,269.84,0,0,0,0,0,0,0,0,0,0,0,0,0,3,3,0,0,VALID,0,0,0,0,0,1,0,0,0,0,0,0,0,0,0,0,0,0,0,0,342.21,1068.58,2,0,0.12,0.12,85,7.69,0.14,0.12,11.1,FLYING,X10-H,0:/Integrated Flight Computer/aircraft/x10_h_cfg.ks (inferred preloaded)
11.34,APPROACH,ILS_TRACK,150.3,152,1.7,680.04,602.39,-0.65,9.8,10.05,269.95,0.052,0.3027,0,19.136,1,0.6,4.5,0.75,0.35,0.0168,0.4,0,22.371,0,-1.703,0,269.95,0,0,1,-0.26,0,0,0,269.94,0.6241,-0.001,0.7813,0,269.95,2.34,-453.87,20.219,-0.055,0,0,3,737.99,7.709,0,1133.92,0,0,0,,0,0,0,0,0,0,0,0,0,0,0,0,0,269.84,0,0,0,0,0,0,0,0,0,0,0,0,0,3,3,0,0,VALID,0,0,0,0,0,1,0,0,0,0,0,0,0,0,0,0,0,0,0,0,341.38,1069.07,2,0,0.12,0.12,87,7.69,0.14,0.12,11.36,FLYING,X10-H,0:/Integrated Flight Computer/aircraft/x10_h_cfg.ks (inferred preloaded)
11.6,APPROACH,ILS_TRACK,150.4,152,1.6,679.86,602.24,-0.61,9.74,9.95,269.95,0.052,0.3026,0,19.561,1,0.6,4.5,0.75,0.35,0.0168,0.4,0,22.342,0,-1.6,0,269.95,0,0,1,-0.23,0,0,0,269.95,0.6242,-0.0008,0.7813,0,269.95,2.29,-451.88,20.178,-0.047,0,0,3,737.99,7.654,0,1131.75,0,0,0,,0,0,0,0,0,0,0,0,0,0,0,0,0,269.84,0,0,0,0,0,0,0,0,0,0,0,0,0,3,3,0,0,VALID,0,0,0,0,0,1,0,0,0,0,0,0,0,0,0,0,0,0,0,0,339.98,1069.51,2,0,0.12,0.12,89,7.69,0.14,0.12,11.62,FLYING,X10-H,0:/Integrated Flight Computer/aircraft/x10_h_cfg.ks (inferred preloaded)
11.86,APPROACH,ILS_TRACK,150.51,152,1.49,679.71,602.08,-0.58,9.73,9.94,269.95,0.053,0.2996,0,19.958,1,0.6,4.5,0.75,0.35,0.0168,0.4,0,22.312,0,-1.493,0,269.95,0,0,1,-0.22,0,0,0,269.95,0.6243,-0.0009,0.7812,0,269.95,2.24,-449.86,20.136,-0.049,0,0,3,737.99,7.726,0,1129.58,0,0,0,,0,0,0,0,0,0,0,0,0,0,0,0,0,269.84,0,0,0,0,0,0,0,0,0,0,0,0,0,3,3,0,0,VALID,0,0,0,0,0,1,0,0,0,0,0,0,0,0,0,0,0,0,0,0,338.59,1069.98,2,0,0.12,0.12,91,7.69,0.14,0.12,11.88,FLYING,X10-H,0:/Integrated Flight Computer/aircraft/x10_h_cfg.ks (inferred preloaded)
12.12,APPROACH,ILS_TRACK,150.61,152,1.39,679.56,601.93,-0.51,9.75,9.93,269.95,0.054,0.2948,0,20,1,0.6,4.5,0.75,0.35,0.0168,0.4,0,22.283,0,-1.392,0,269.96,0,0,1,-0.2,0,0,0,269.95,0.6243,-0.0008,0.7812,0,269.96,2.2,-447.84,20.095,-0.044,0,0,3,737.99,7.771,0,1127.41,0,0,0,,0,0,0,0,0,0,0,0,0,0,0,0,0,269.84,0,0,0,0,0,0,0,0,0,0,0,0,0,3,3,0,0,VALID,0,0,0,0,0,1,0,0,0,0,0,0,0,0,0,0,0,0,0,0,337.04,1070.41,2,0,0.12,0.12,93,7.69,0.14,0.12,12.14,FLYING,X10-H,0:/Integrated Flight Computer/aircraft/x10_h_cfg.ks (inferred preloaded)
12.38,APPROACH,ILS_TRACK,150.71,152,1.29,679.42,601.79,-0.55,9.71,9.92,269.95,0.056,0.2901,0,20,1,0.6,4.5,0.75,0.35,0.0168,0.4,0,22.255,0,-1.293,0,269.96,0,0,1,-0.21,0,0,0,269.95,0.6244,-0.0008,0.7811,0,269.96,2.16,-445.81,20.053,-0.045,0,0,3,737.99,7.858,0,1125.24,0,0,0,,0,0,0,0,0,0,0,0,0,0,0,0,0,269.84,0,0,0,0,0,0,0,0,0,0,0,0,0,3,3,0,0,VALID,0,0,0,0,0,1,0,0,0,0,0,0,0,0,0,0,0,0,0,0,335.27,1070.84,2,0,0.12,0.12,95,7.69,0.14,0.12,12.4,FLYING,X10-H,0:/Integrated Flight Computer/aircraft/x10_h_cfg.ks (inferred preloaded)
12.64,APPROACH,ILS_TRACK,150.8,152,1.2,679.28,601.67,-0.5,9.7,9.87,269.95,0.053,0.2889,0,20,1,0.6,4.5,0.75,0.35,0.0168,0.4,0,22.23,0,-1.202,0,269.96,0,0,1,-0.18,0,0,0,269.95,0.6244,-0.0007,0.7811,0,269.96,2.12,-443.77,20.012,-0.041,0,0,3,737.99,7.813,0,1123.07,0,0,0,,0,0,0,0,0,0,0,0,0,0,0,0,0,269.84,0,0,0,0,0,0,0,0,0,0,0,0,0,3,3,0,0,VALID,0,0,0,0,0,1,0,0,0,0,0,0,0,0,0,0,0,0,0,0,333.2,1071.23,2,0,0.12,0.12,97,7.69,0.14,0.12,12.66,FLYING,X10-H,0:/Integrated Flight Computer/aircraft/x10_h_cfg.ks (inferred preloaded)
12.9,APPROACH,ILS_TRACK,150.89,152,1.11,679.16,601.54,-0.45,9.7,9.85,269.95,0.053,0.2856,0,20,1,0.6,4.5,0.75,0.35,0.0168,0.4,0,22.204,0,-1.111,0,269.95,0,0,1,-0.17,0,0,0,269.95,0.6245,-0.0008,0.781,0,269.95,2.08,-441.72,19.97,-0.047,0,0,3,737.99,7.875,0,1120.89,0,0,0,,0,0,0,0,0,0,0,0,0,0,0,0,0,269.84,0,0,0,0,0,0,0,0,0,0,0,0,0,3,3,0,0,VALID,0,0,0,0,0,1,0,0,0,0,0,0,0,0,0,0,0,0,0,0,331.16,1071.62,2,0,0.12,0.12,99,7.69,0.14,0.12,12.92,FLYING,X10-H,0:/Integrated Flight Computer/aircraft/x10_h_cfg.ks (inferred preloaded)
13.16,APPROACH,ILS_TRACK,150.98,152,1.02,679.03,601.42,-0.45,9.67,9.83,269.95,0.051,0.2841,0,20,1,0.6,4.5,0.75,0.35,0.0168,0.4,0,22.18,0,-1.025,0,269.96,0,0,1,-0.17,0,0,0,269.96,0.6245,-0.0007,0.781,0,269.96,2.04,-439.67,19.929,-0.04,0,0,3,737.99,7.907,0,1118.71,0,0,0,,0,0,0,0,0,0,0,0,0,0,0,0,0,269.84,0,0,0,0,0,0,0,0,0,0,0,0,0,3,3,0,0,VALID,0,0,0,0,0,1,0,0,0,0,0,0,0,0,0,0,0,0,0,0,329.06,1071.99,2,0,0.12,0.12,101,7.69,0.14,0.12,13.18,FLYING,X10-H,0:/Integrated Flight Computer/aircraft/x10_h_cfg.ks (inferred preloaded)
13.42,APPROACH,ILS_TRACK,151.06,152,0.94,678.92,601.31,-0.4,9.67,9.8,269.95,0.052,0.2843,0,20,1,0.6,4.5,0.75,0.35,0.0168,0.4,0,22.157,0,-0.945,0,269.96,0,0,1,-0.15,0,0,0,269.96,0.6246,-0.0008,0.781,0,269.96,2,-437.61,19.887,-0.044,0,0,3,737.99,7.91,0,1116.54,0,0,0,,0,0,0,0,0,0,0,0,0,0,0,0,0,269.84,0,0,0,0,0,0,0,0,0,0,0,0,0,3,3,0,0,VALID,0,0,0,0,0,1,0,0,0,0,0,0,0,0,0,0,0,0,0,0,327.01,1072.34,2,0,0.12,0.12,103,7.69,0.14,0.12,13.44,FLYING,X10-H,0:/Integrated Flight Computer/aircraft/x10_h_cfg.ks (inferred preloaded)
13.68,APPROACH,ILS_TRACK,151.13,152,0.87,678.82,601.21,-0.4,9.66,9.81,269.95,0.052,0.2847,0,20,1,0.6,4.5,0.75,0.35,0.0168,0.4,0,22.136,0,-0.869,0,269.96,0,0,1,-0.15,0,0,0,269.96,0.6246,-0.0008,0.7809,0,269.96,1.96,-435.54,19.846,-0.043,0,0,3,737.99,7.983,0,1114.36,0,0,0,,0,0,0,0,0,0,0,0,0,0,0,0,0,269.84,0,0,0,0,0,0,0,0,0,0,0,0,0,3,3,0,0,VALID,0,0,0,0,0,1,0,0,0,0,0,0,0,0,0,0,0,0,0,0,325.17,1072.66,2,0,0.12,0.12,105,7.69,0.14,0.12,13.7,FLYING,X10-H,0:/Integrated Flight Computer/aircraft/x10_h_cfg.ks (inferred preloaded)
13.94,APPROACH,ILS_TRACK,151.2,152,0.8,678.71,601.11,-0.38,9.65,9.78,269.95,0.05,0.2871,0,20,1,0.6,4.5,0.75,0.35,0.0168,0.4,0,22.116,0,-0.8,0,269.96,0,0,1,-0.14,0,0,0,269.96,0.6247,-0.0007,0.7809,0,269.96,1.92,-433.46,19.804,-0.041,0,0,3,737.99,7.976,0,1112.18,0,0,0,,0,0,0,0,0,0,0,0,0,0,0,0,0,269.84,0,0,0,0,0,0,0,0,0,0,0,0,0,3,3,0,0,VALID,0,0,0,0,0,1,0,0,0,0,0,0,0,0,0,0,0,0,0,0,323.57,1072.96,2,0,0.12,0.12,107,7.69,0.14,0.12,13.96,FLYING,X10-H,0:/Integrated Flight Computer/aircraft/x10_h_cfg.ks (inferred preloaded)
14.2,APPROACH,ILS_TRACK,151.27,152,0.73,678.62,601.01,-0.34,9.66,9.78,269.95,0.051,0.2873,0,20,1,0.6,4.5,0.75,0.35,0.0168,0.4,0,22.097,0,-0.732,0,269.96,0,0,1,-0.13,0,0,0,269.96,0.6247,-0.0007,0.7808,0,269.96,1.88,-431.38,19.763,-0.041,0,0,3,737.99,8.016,0,1110,0,0,0,,0,0,0,0,0,0,0,0,0,0,0,0,0,269.84,0,0,0,0,0,0,0,0,0,0,0,0,0,3,3,0,0,VALID,0,0,0,0,0,1,0,0,0,0,0,0,0,0,0,0,0,0,0,0,322.29,1073.25,2,0,0.12,0.12,109,7.69,0.14,0.12,14.22,FLYING,X10-H,0:/Integrated Flight Computer/aircraft/x10_h_cfg.ks (inferred preloaded)
14.46,APPROACH,ILS_TRACK,151.33,152,0.67,678.53,600.93,-0.33,9.64,9.75,269.95,0.05,0.2878,0,20,1,0.6,4.5,0.75,0.35,0.0168,0.4,0,22.079,0,-0.668,0,269.96,0,0,1,-0.12,0,0,0,269.96,0.6248,-0.0006,0.7808,0,269.96,1.84,-429.29,19.721,-0.035,0,0,3,737.99,8.027,0,1107.82,0,0,0,,0,0,0,0,0,0,0,0,0,0,0,0,0,269.84,0,0,0,0,0,0,0,0,0,0,0,0,0,3,3,0,0,VALID,0,0,0,0,0,1,0,0,0,0,0,0,0,0,0,0,0,0,0,0,321.16,1073.53,2,0,0.12,0.12,111,7.69,0.14,0.12,14.48,FLYING,X10-H,0:/Integrated Flight Computer/aircraft/x10_h_cfg.ks (inferred preloaded)
14.72,APPROACH,ILS_TRACK,151.39,152,0.61,678.44,600.84,-0.3,9.63,9.73,269.96,0.049,0.2883,0,20,1,0.6,4.5,0.75,0.35,0.0168,0.4,0,22.062,0,-0.607,0,269.97,0,0,1,-0.11,0,0,0,269.96,0.6248,-0.0005,0.7807,0,269.97,1.81,-427.19,19.679,-0.031,0,0,3,737.99,8.049,0,1105.64,0,0,0,,0,0,0,0,0,0,0,0,0,0,0,0,0,269.84,0,0,0,0,0,0,0,0,0,0,0,0,0,3,3,0,0,VALID,0,0,0,0,0,1,0,0,0,0,0,0,0,0,0,0,0,0,0,0,320.16,1073.79,2,0,0.12,0.12,113,7.69,0.14,0.12,14.74,FLYING,X10-H,0:/Integrated Flight Computer/aircraft/x10_h_cfg.ks (inferred preloaded)
14.98,APPROACH,ILS_TRACK,151.45,152,0.55,678.36,600.76,-0.3,9.63,9.73,269.96,0.05,0.2886,0,20,1,0.6,4.5,0.75,0.35,0.0168,0.4,0,22.046,0,-0.549,0,269.96,0,0,1,-0.11,0,0,0,269.97,0.6249,-0.0007,0.7807,0,269.96,1.77,-425.09,19.638,-0.039,0,0,3,737.99,8.116,0,1103.46,0,0,0,,0,0,0,0,0,0,0,0,0,0,0,0,0,269.84,0,0,0,0,0,0,0,0,0,0,0,0,0,3,3,0,0,VALID,0,0,0,0,0,1,0,0,0,0,0,0,0,0,0,0,0,0,0,0,319.33,1074.04,2,0,0.12,0.12,115,7.69,0.14,0.12,15,FLYING,X10-H,0:/Integrated Flight Computer/aircraft/x10_h_cfg.ks (inferred preloaded)
15.24,APPROACH,ILS_TRACK,151.51,152,0.49,678.28,600.69,-0.29,9.62,9.72,269.96,0.05,0.289,0,20,1,0.6,4.5,0.75,0.35,0.0168,0.4,0,22.03,0,-0.494,0,269.96,0,0,1,-0.11,0,0,0,269.96,0.625,-0.0006,0.7807,0,269.96,1.73,-422.98,19.596,-0.036,0,0,3,737.99,8.098,0,1101.27,0,0,0,,0,0,0,0,0,0,0,0,0,0,0,0,0,269.84,0,0,0,0,0,0,0,0,0,0,0,0,0,3,3,0,0,VALID,0,0,0,0,0,1,0,0,0,0,0,0,0,0,0,0,0,0,0,0,318.6,1074.28,2,0,0.12,0.12,117,7.69,0.14,0.12,15.26,FLYING,X10-H,0:/Integrated Flight Computer/aircraft/x10_h_cfg.ks (inferred preloaded)
15.5,APPROACH,ILS_TRACK,151.56,152,0.44,678.21,600.62,-0.23,9.62,9.7,269.96,0.049,0.2885,0,20,1,0.6,4.5,0.75,0.35,0.0168,0.4,0,22.015,0,-0.44,0,269.97,0,0,1,-0.09,0,0,0,269.97,0.625,-0.0006,0.7806,0,269.97,1.7,-420.87,19.554,-0.032,0,0,3,737.99,8.117,0,1099.09,0,0,0,,0,0,0,0,0,0,0,0,0,0,0,0,0,269.84,0,0,0,0,0,0,0,0,0,0,0,0,0,3,3,0,0,VALID,0,0,0,0,0,1,0,0,0,0,0,0,0,0,0,0,0,0,0,0,317.93,1074.51,2,0,0.12,0.12,119,7.69,0.14,0.12,15.52,FLYING,X10-H,0:/Integrated Flight Computer/aircraft/x10_h_cfg.ks (inferred preloaded)
15.76,APPROACH,ILS_TRACK,151.61,152,0.39,678.14,600.55,-0.23,9.61,9.69,269.96,0.047,0.2876,0,20,1,0.6,4.5,0.75,0.35,0.0168,0.4,0,22,0,-0.388,0,269.96,0,0,1,-0.1,0,0,0,269.96,0.6251,-0.0006,0.7806,0,269.96,1.66,-418.76,19.513,-0.036,0,0,3,737.99,8.172,0,1096.9,0,0,0,,0,0,0,0,0,0,0,0,0,0,0,0,0,269.84,0,0,0,0,0,0,0,0,0,0,0,0,0,3,3,0,0,VALID,0,0,0,0,0,1,0,0,0,0,0,0,0,0,0,0,0,0,0,0,317.31,1074.74,2,0,0.12,0.12,121,7.69,0.14,0.12,15.78,FLYING,X10-H,0:/Integrated Flight Computer/aircraft/x10_h_cfg.ks (inferred preloaded)
16.02,APPROACH,ILS_TRACK,151.66,152,0.34,678.08,600.49,-0.26,9.59,9.68,269.96,0.046,0.2872,0,20,1,0.6,4.5,0.75,0.35,0.0168,0.4,0,21.986,0,-0.338,0,269.97,0,0,1,-0.09,0,0,0,269.97,0.6251,-0.0005,0.7805,0,269.97,1.63,-416.63,19.471,-0.03,0,0,3,737.99,8.175,0,1094.72,0,0,0,,0,0,0,0,0,0,0,0,0,0,0,0,0,269.84,0,0,0,0,0,0,0,0,0,0,0,0,0,3,3,0,0,VALID,0,0,0,0,0,1,0,0,0,0,0,0,0,0,0,0,0,0,0,0,316.67,1074.96,2,0,0.12,0.12,123,7.69,0.14,0.12,16.04,FLYING,X10-H,0:/Integrated Flight Computer/aircraft/x10_h_cfg.ks (inferred preloaded)
16.28,APPROACH,ILS_TRACK,151.71,152,0.29,678.02,600.43,-0.21,9.6,9.67,269.96,0.048,0.2888,0,20,1,0.6,4.5,0.75,0.35,0.0168,0.4,0,21.974,0,-0.294,0,269.97,0,0,1,-0.08,0,0,0,269.97,0.6252,-0.0005,0.7805,0,269.97,1.59,-414.51,19.429,-0.031,0,0,3,737.99,8.147,0,1092.53,0,0,0,,0,0,0,0,0,0,0,0,0,0,0,0,0,269.84,0,0,0,0,0,0,0,0,0,0,0,0,0,3,3,0,0,VALID,0,0,0,0,0,1,0,0,0,0,0,0,0,0,0,0,0,0,0,0,316.01,1075.15,2,0,0.12,0.12,125,7.69,0.14,0.12,16.3,FLYING,X10-H,0:/Integrated Flight Computer/aircraft/x10_h_cfg.ks (inferred preloaded)
16.54,APPROACH,ILS_TRACK,151.75,152,0.25,677.97,600.38,-0.2,9.6,9.68,269.96,0.047,0.2866,0,20,1,0.6,4.5,0.75,0.35,0.0168,0.4,0,21.96,0,-0.245,0,269.97,0,0,1,-0.08,0,0,0,269.97,0.6252,-0.0005,0.7804,0,269.97,1.56,-412.37,19.388,-0.029,0,0,3,737.99,8.235,0,1090.35,0,0,0,,0,0,0,0,0,0,0,0,0,0,0,0,0,269.84,0,0,0,0,0,0,0,0,0,0,0,0,0,3,3,0,0,VALID,0,0,0,0,0,1,0,0,0,0,0,0,0,0,0,0,0,0,0,0,315.55,1075.36,2,0,0.12,0.12,127,7.69,0.14,0.12,16.56,FLYING,X10-H,0:/Integrated Flight Computer/aircraft/x10_h_cfg.ks (inferred preloaded)
16.8,APPROACH,ILS_TRACK,151.8,152,0.2,677.92,600.33,-0.21,9.57,9.65,269.96,0.048,0.2857,0,20,1,0.6,4.5,0.75,0.35,0.0168,0.4,0,21.947,0,-0.2,0,269.97,0,0,1,-0.07,0,0,0,269.97,0.6253,-0.0005,0.7804,0,269.97,1.53,-410.24,19.346,-0.027,0,0,3,737.99,8.204,0,1088.16,0,0,0,,0,0,0,0,0,0,0,0,0,0,0,0,0,269.84,0,0,0,0,0,0,0,0,0,0,0,0,0,3,3,0,0,VALID,0,0,0,0,0,1,0,0,0,0,0,0,0,0,0,0,0,0,0,0,314.96,1075.55,2,0,0.12,0.12,129,7.69,0.14,0.12,16.82,FLYING,X10-H,0:/Integrated Flight Computer/aircraft/x10_h_cfg.ks (inferred preloaded)
17.06,APPROACH,ILS_TRACK,151.84,152,0.16,677.87,600.28,-0.16,9.59,9.65,269.96,0.047,0.2841,0,20,1,0.6,4.5,0.75,0.35,0.0168,0.4,0,21.935,0,-0.156,0,269.96,0,0,1,-0.06,0,0,0,269.97,0.6253,-0.0006,0.7804,0,269.96,1.5,-408.1,19.304,-0.036,0,0,3,737.99,8.23,0,1085.97,0,0,0,,0,0,0,0,0,0,0,0,0,0,0,0,0,269.84,0,0,0,0,0,0,0,0,0,0,0,0,0,3,3,0,0,VALID,0,0,0,0,0,1,0,0,0,0,0,0,0,0,0,0,0,0,0,0,314.29,1075.74,2,0,0.12,0.12,131,7.69,0.14,0.12,17.08,FLYING,X10-H,0:/Integrated Flight Computer/aircraft/x10_h_cfg.ks (inferred preloaded)
17.32,APPROACH,ILS_TRACK,151.89,152,0.11,677.83,600.24,-0.16,9.59,9.65,269.96,0.044,0.2822,0,20,1,0.6,4.5,0.75,0.35,0.0168,0.4,0,21.922,0,-0.111,0,269.97,0,0,1,-0.06,0,0,0,269.98,0.6254,-0.0005,0.7803,0,269.97,1.46,-405.95,19.262,-0.028,0,0,3,737.99,8.269,0,1083.78,0,0,0,,0,0,0,0,0,0,0,0,0,0,0,0,0,269.84,0,0,0,0,0,0,0,0,0,0,0,0,0,3,3,0,0,VALID,0,0,0,0,0,1,0,0,0,0,0,0,0,0,0,0,0,0,0,0,313.55,1075.93,2,0,0.12,0.12,133,7.69,0.14,0.12,17.34,FLYING,X10-H,0:/Integrated Flight Computer/aircraft/x10_h_cfg.ks (inferred preloaded)
17.58,APPROACH,ILS_TRACK,151.93,152,0.07,677.79,600.2,-0.16,9.58,9.64,269.96,0.044,0.2814,0,20,1,0.6,4.5,0.75,0.35,0.0168,0.4,0,21.911,0,-0.07,0,269.97,0,0,1,-0.06,0,0,0,269.97,0.6254,-0.0005,0.7803,0,269.97,1.43,-403.8,19.221,-0.028,0,0,3,737.99,8.259,0,1081.59,0,0,0,,0,0,0,0,0,0,0,0,0,0,0,0,0,269.84,0,0,0,0,0,0,0,0,0,0,0,0,0,3,3,0,0,VALID,0,0,0,0,0,1,0,0,0,0,0,0,0,0,0,0,0,0,0,0,312.72,1076.11,2,0,0.12,0.12,135,7.69,0.14,0.12,17.6,FLYING,X10-H,0:/Integrated Flight Computer/aircraft/x10_h_cfg.ks (inferred preloaded)
17.84,APPROACH,ILS_TRACK,151.97,152,0.03,677.75,600.17,-0.13,9.58,9.62,269.96,0.042,0.2813,0,20,1,0.6,4.5,0.75,0.35,0.0168,0.4,0,21.9,0,-0.031,0,269.97,0,0,1,-0.05,0,0,0,269.97,0.6255,-0.0004,0.7802,0,269.97,1.4,-401.65,19.179,-0.025,0,0,3,737.99,8.28,0,1079.41,0,0,0,,0,0,0,0,0,0,0,0,0,0,0,0,0,269.84,0,0,0,0,0,0,0,0,0,0,0,0,0,3,3,0,0,VALID,0,0,0,0,0,1,0,0,0,0,0,0,0,0,0,0,0,0,0,0,311.89,1076.28,2,0,0.12,0.12,137,7.69,0.14,0.12,17.86,FLYING,X10-H,0:/Integrated Flight Computer/aircraft/x10_h_cfg.ks (inferred preloaded)
18.1,APPROACH,ILS_TRACK,152.01,152,-0.01,677.71,600.14,-0.1,9.56,9.6,269.96,0.042,0.2812,0,20,1,0.6,4.5,0.75,0.35,0.0168,0.4,0,21.889,0,0.006,0,269.97,0,0,1,-0.04,0,0,0,269.98,0.6256,-0.0005,0.7802,0,269.97,1.37,-399.5,19.137,-0.026,0,0,3,737.99,8.266,0,1077.22,0,0,0,,0,0,0,0,0,0,0,0,0,0,0,0,0,269.84,0,0,0,0,0,0,0,0,0,0,0,0,0,3,3,0,0,VALID,0,0,0,0,0,1,0,0,0,0,0,0,0,0,0,0,0,0,0,0,311.12,1076.44,2,0,0.12,0.12,139,7.69,0.14,0.12,18.12,FLYING,X10-H,0:/Integrated Flight Computer/aircraft/x10_h_cfg.ks (inferred preloaded)
18.36,APPROACH,ILS_TRACK,152.04,152,-0.04,677.69,600.11,-0.09,9.58,9.62,269.96,0.042,0.2807,0,19.992,1,0.6,4.5,0.75,0.35,0.0168,0.4,0,21.879,0,0.042,0,269.97,0,0,1,-0.04,0,0,0,269.97,0.6256,-0.0005,0.7801,0,269.97,1.34,-397.33,19.095,-0.027,0,0,3,737.99,8.358,0,1075.02,0,0,0,,0,0,0,0,0,0,0,0,0,0,0,0,0,269.84,0,0,0,0,0,0,0,0,0,0,0,0,0,3,3,0,0,VALID,0,0,0,0,0,1,0,0,0,0,0,0,0,0,0,0,0,0,0,0,310.41,1076.59,2,0,0.12,0.12,141,7.69,0.14,0.12,18.38,FLYING,X10-H,0:/Integrated Flight Computer/aircraft/x10_h_cfg.ks (inferred preloaded)
18.62,APPROACH,ILS_TRACK,152.07,152,-0.07,677.66,600.08,-0.08,9.57,9.59,269.96,0.042,0.2828,0,19.975,1,0.6,4.5,0.75,0.35,0.0168,0.4,0,21.871,0,0.072,0,269.98,0,0,1,-0.03,0,0,0,269.97,0.6257,-0.0003,0.7801,0,269.98,1.31,-395.17,19.053,-0.02,0,0,3,737.99,8.329,0,1072.83,0,0,0,,0,0,0,0,0,0,0,0,0,0,0,0,0,269.84,0,0,0,0,0,0,0,0,0,0,0,0,0,3,3,0,0,VALID,0,0,0,0,0,1,0,0,0,0,0,0,0,0,0,0,0,0,0,0,309.79,1076.72,2,0,0.12,0.12,143,7.69,0.14,0.12,18.64,FLYING,X10-H,0:/Integrated Flight Computer/aircraft/x10_h_cfg.ks (inferred preloaded)
18.88,APPROACH,ILS_TRACK,152.1,152,-0.1,677.64,600.06,-0.07,9.57,9.6,269.97,0.043,0.2829,0,19.952,1,0.6,4.5,0.75,0.35,0.0168,0.4,0,21.862,0,0.102,0,269.98,0,0,1,-0.03,0,0,0,269.97,0.6257,-0.0004,0.78,0,269.98,1.28,-393,19.012,-0.02,0,0,3,737.99,8.348,0,1070.64,0,0,0,,0,0,0,0,0,0,0,0,0,0,0,0,0,269.84,0,0,0,0,0,0,0,0,0,0,0,0,0,3,3,0,0,VALID,0,0,0,0,0,1,0,0,0,0,0,0,0,0,0,0,0,0,0,0,309.37,1076.85,2,0,0.12,0.12,145,7.69,0.14,0.12,18.9,FLYING,X10-H,0:/Integrated Flight Computer/aircraft/x10_h_cfg.ks (inferred preloaded)
19.14,APPROACH,ILS_TRACK,152.13,152,-0.13,677.62,600.04,-0.09,9.56,9.59,269.97,0.044,0.2821,0,19.92,1,0.6,4.5,0.75,0.35,0.0168,0.4,0,21.854,0,0.132,0,269.98,0,0,1,-0.03,0,0,0,269.98,0.6258,-0.0003,0.78,0,269.98,1.25,-390.83,18.97,-0.017,0,0,3,737.99,8.357,0,1068.45,0,0,0,,0,0,0,0,0,0,0,0,0,0,0,0,0,269.84,0,0,0,0,0,0,0,0,0,0,0,0,0,3,3,0,0,VALID,0,0,0,0,0,1,0,0,0,0,0,0,0,0,0,0,0,0,0,0,309,1076.97,2,0,0.12,0.12,147,7.69,0.14,0.12,19.16,FLYING,X10-H,0:/Integrated Flight Computer/aircraft/x10_h_cfg.ks (inferred preloaded)
19.4,APPROACH,ILS_TRACK,152.16,152,-0.16,677.6,600.02,-0.05,9.57,9.59,269.97,0.042,0.2808,0,19.881,1,0.6,4.5,0.75,0.35,0.0168,0.4,0,21.846,0,0.161,0,269.97,0,0,1,-0.02,0,0,0,269.98,0.6258,-0.0006,0.78,0,269.97,1.22,-388.66,18.928,-0.032,0,0,3,737.99,8.363,0,1066.26,0,0,0,,0,0,0,0,0,0,0,0,0,0,0,0,0,269.84,0,0,0,0,0,0,0,0,0,0,0,0,0,3,3,0,0,VALID,0,0,0,0,0,1,0,0,0,0,0,0,0,0,0,0,0,0,0,0,308.55,1077.1,2,0,0.12,0.12,149,7.69,0.14,0.12,19.42,FLYING,X10-H,0:/Integrated Flight Computer/aircraft/x10_h_cfg.ks (inferred preloaded)
19.66,APPROACH,ILS_TRACK,152.19,152,-0.19,677.59,600.01,-0.05,9.58,9.59,269.97,0.04,0.2791,0,19.834,1,0.6,4.5,0.75,0.35,0.0168,0.4,0,21.837,0,0.19,0,269.98,0,0,1,-0.02,0,0,0,269.98,0.6259,-0.0004,0.7799,0,269.98,1.2,-386.48,18.886,-0.024,0,0,3,737.99,8.409,0,1064.07,0,0,0,,0,0,0,0,0,0,0,0,0,0,0,0,0,269.84,0,0,0,0,0,0,0,0,0,0,0,0,0,3,3,0,0,VALID,0,0,0,0,0,1,0,0,0,0,0,0,0,0,0,0,0,0,0,0,308.02,1077.22,2,0,0.12,0.12,151,7.69,0.14,0.12,19.68,FLYING,X10-H,0:/Integrated Flight Computer/aircraft/x10_h_cfg.ks (inferred preloaded)
19.92,APPROACH,ILS_TRACK,152.22,152,-0.22,677.58,600,-0.04,9.56,9.58,269.97,0.04,0.2788,0,19.78,1,0.6,4.5,0.75,0.35,0.0168,0.4,0,21.83,0,0.215,0,269.97,0,0,1,-0.01,0,0,0,269.99,0.6259,-0.0005,0.7799,0,269.97,1.17,-384.3,18.844,-0.026,0,0,3,737.99,8.384,0,1061.87,0,0,0,,0,0,0,0,0,0,0,0,0,0,0,0,0,269.84,0,0,0,0,0,0,0,0,0,0,0,0,0,3,3,0,0,VALID,0,0,0,0,0,1,0,0,0,0,0,0,0,0,0,0,0,0,0,0,307.41,1077.33,2,0,0.12,0.12,153,7.69,0.14,0.12,19.94,FLYING,X10-H,0:/Integrated Flight Computer/aircraft/x10_h_cfg.ks (inferred preloaded)
20.18,APPROACH,ILS_TRACK,152.24,152,-0.24,677.57,599.99,-0.03,9.57,9.59,269.97,0.039,0.2777,0,19.719,1,0.6,4.5,0.75,0.35,0.0168,0.4,0,21.823,0,0.24,0,269.98,0,0,1,-0.02,0,0,0,269.98,0.626,-0.0003,0.7798,0,269.98,1.14,-382.11,18.802,-0.017,0,0,3,737.99,8.422,0,1059.68,0,0,0,,0,0,0,0,0,0,0,0,0,0,0,0,0,269.84,0,0,0,0,0,0,0,0,0,0,0,0,0,3,3,0,0,VALID,0,0,0,0,0,1,0,0,0,0,0,0,0,0,0,0,0,0,0,0,306.79,1077.44,2,0,0.12,0.12,155,7.69,0.14,0.12,20.2,FLYING,X10-H,0:/Integrated Flight Computer/aircraft/x10_h_cfg.ks (inferred preloaded)
20.44,APPROACH,ILS_TRACK,152.26,152,-0.26,677.56,599.98,-0.02,9.55,9.57,269.97,0.038,0.2785,0,19.653,1,0.6,4.5,0.75,0.35,0.0168,0.4,0,21.817,0,0.261,0,269.99,0,0,1,-0.01,0,0,0,269.97,0.626,-0.0002,0.7798,0,269.99,1.11,-379.93,18.761,-0.012,0,0,3,737.99,8.421,0,1057.49,0,0,0,,0,0,0,0,0,0,0,0,0,0,0,0,0,269.84,0,0,0,0,0,0,0,0,0,0,0,0,0,3,3,0,0,VALID,0,0,0,0,0,1,0,0,0,0,0,0,0,0,0,0,0,0,0,0,306.18,1077.53,2,0,0.12,0.12,157,7.69,0.14,0.12,20.46,FLYING,X10-H,0:/Integrated Flight Computer/aircraft/x10_h_cfg.ks (inferred preloaded)
20.7,APPROACH,ILS_TRACK,152.28,152,-0.28,677.56,599.98,-0.03,9.56,9.57,269.97,0.038,0.2776,0,19.582,1,0.6,4.5,0.75,0.35,0.0168,0.4,0,21.811,0,0.282,0,269.99,0,0,1,0,0,0,0,269.98,0.6261,-0.0002,0.7797,0,269.99,1.08,-377.73,18.719,-0.014,0,0,3,737.99,8.424,0,1055.29,0,0,0,,0,0,0,0,0,0,0,0,0,0,0,0,0,269.84,0,0,0,0,0,0,0,0,0,0,0,0,0,3,3,0,0,VALID,0,0,0,0,0,1,0,0,0,0,0,0,0,0,0,0,0,0,0,0,305.63,1077.62,2,0,0.12,0.12,159,7.69,0.14,0.12,20.72,FLYING,X10-H,0:/Integrated Flight Computer/aircraft/x10_h_cfg.ks (inferred preloaded)
20.96,APPROACH,ILS_TRACK,152.3,152,-0.3,677.56,599.98,0.01,9.55,9.55,269.97,0.038,0.2797,0,19.506,1,0.6,4.5,0.75,0.35,0.0168,0.4,0,21.807,0,0.297,0,269.98,0,0,1,0.01,0,0,0,269.98,0.6262,-0.0004,0.7797,0,269.98,1.06,-375.54,18.677,-0.024,0,0,3,737.99,8.396,0,1053.1,0,0,0,,0,0,0,0,0,0,0,0,0,0,0,0,0,269.84,0,0,0,0,0,0,0,0,0,0,0,0,0,3,3,0,0,VALID,0,0,0,0,0,1,0,0,0,0,0,0,0,0,0,0,0,0,0,0,305.08,1077.68,2,0,0.12,0.12,161,7.69,0.14,0.12,20.98,FLYING,X10-H,0:/Integrated Flight Computer/aircraft/x10_h_cfg.ks (inferred preloaded)
21.22,APPROACH,ILS_TRACK,152.31,152,-0.31,677.57,599.98,0.02,9.57,9.56,269.97,0.037,0.2786,0,19.425,1,0.6,4.5,0.75,0.35,0.0168,0.4,0,21.802,0,0.314,0,269.98,0,0,1,0,0,0,0,269.99,0.6262,-0.0004,0.7797,0,269.98,1.04,-373.34,18.635,-0.023,0,0,3,737.99,8.462,0,1050.9,0,0,0,,0,0,0,0,0,0,0,0,0,0,0,0,0,269.84,0,0,0,0,0,0,0,0,0,0,0,0,0,3,3,0,0,VALID,0,0,0,0,0,1,0,0,0,0,0,0,0,0,0,0,0,0,0,0,304.74,1077.75,2,0,0.12,0.12,163,7.69,0.14,0.12,21.24,FLYING,X10-H,0:/Integrated Flight Computer/aircraft/x10_h_cfg.ks (inferred preloaded)
21.48,APPROACH,ILS_TRACK,152.33,152,-0.33,677.57,599.99,0.03,9.57,9.57,269.97,0.037,0.277,0,19.341,1,0.6,4.5,0.75,0.35,0.0168,0.4,0,21.798,0,0.331,0,269.98,0,0,1,0.01,0,0,0,269.98,0.6263,-0.0003,0.7796,0,269.98,1.01,-371.14,18.593,-0.017,0,0,3,737.99,8.493,0,1048.71,0,0,0,,0,0,0,0,0,0,0,0,0,0,0,0,0,269.84,0,0,0,0,0,0,0,0,0,0,0,0,0,3,3,0,0,VALID,0,0,0,0,0,1,0,0,0,0,0,0,0,0,0,0,0,0,0,0,304.35,1077.82,2,0,0.12,0.12,165,7.69,0.14,0.12,21.5,FLYING,X10-H,0:/Integrated Flight Computer/aircraft/x10_h_cfg.ks (inferred preloaded)
21.74,APPROACH,ILS_TRACK,152.35,152,-0.35,677.58,600,0.03,9.57,9.56,269.97,0.037,0.2756,0,19.252,1,0.6,4.5,0.75,0.35,0.0168,0.4,0,21.793,0,0.347,0,269.98,0,0,1,0.01,0,0,0,269.99,0.6263,-0.0004,0.7796,0,269.98,0.99,-368.94,18.551,-0.021,0,0,3,737.99,8.473,0,1046.52,0,0,0,,0,0,0,0,0,0,0,0,0,0,0,0,0,269.84,0,0,0,0,0,0,0,0,0,0,0,0,0,3,3,0,0,VALID,0,0,0,0,0,1,0,0,0,0,0,0,0,0,0,0,0,0,0,0,303.85,1077.89,2,0,0.12,0.12,167,7.69,0.14,0.12,21.76,FLYING,X10-H,0:/Integrated Flight Computer/aircraft/x10_h_cfg.ks (inferred preloaded)
22,APPROACH,ILS_TRACK,152.36,152,-0.36,677.59,600.01,0.05,9.58,9.56,269.97,0.038,0.2739,0,19.159,1,0.6,4.5,0.75,0.35,0.0168,0.4,0,21.789,0,0.363,0,269.99,0,0,1,0.02,0,0,0,269.99,0.6264,-0.0003,0.7795,0,269.99,0.96,-366.73,18.509,-0.014,0,0,3,737.99,8.49,0,1044.32,0,0,0,,0,0,0,0,0,0,0,0,0,0,0,0,0,269.84,0,0,0,0,0,0,0,0,0,0,0,0,0,3,3,0,0,VALID,0,0,0,0,0,1,0,0,0,0,0,0,0,0,0,0,0,0,0,0,303.24,1077.96,2,0,0.12,0.12,169,7.69,0.14,0.12,22.02,FLYING,X10-H,0:/Integrated Flight Computer/aircraft/x10_h_cfg.ks (inferred preloaded)
22.26,APPROACH,ILS_TRACK,152.38,152,-0.38,677.61,600.02,0.06,9.58,9.56,269.97,0.04,0.2729,0,19.062,1,0.6,4.5,0.75,0.35,0.0168,0.4,0,21.785,0,0.376,0,269.99,0,0,1,0.02,0,0,0,269.98,0.6264,-0.0002,0.7795,0,269.99,0.94,-364.52,18.467,-0.01,0,0,3,737.99,8.505,0,1042.13,0,0,0,,0,0,0,0,0,0,0,0,0,0,0,0,0,269.84,0,0,0,0,0,0,0,0,0,0,0,0,0,3,3,0,0,VALID,0,0,0,0,0,1,0,0,0,0,0,0,0,0,0,0,0,0,0,0,302.54,1078.01,2,0,0.12,0.12,171,7.69,0.14,0.12,22.28,FLYING,X10-H,0:/Integrated Flight Computer/aircraft/x10_h_cfg.ks (inferred preloaded)
22.52,APPROACH,ILS_TRACK,152.39,152,-0.39,677.63,600.04,0.07,9.58,9.55,269.97,0.042,0.2724,0,18.962,1,0.6,4.5,0.75,0.35,0.0168,0.4,0,21.782,0,0.388,0,269.98,0,0,1,0.03,0,0,0,269.99,0.6265,-0.0003,0.7794,0,269.98,0.91,-362.31,18.426,-0.02,0,0,3,737.99,8.51,0,1039.93,0,0,0,,0,0,0,0,0,0,0,0,0,0,0,0,0,269.84,0,0,0,0,0,0,0,0,0,0,0,0,0,3,3,0,0,VALID,0,0,0,0,0,1,0,0,0,0,0,0,0,0,0,0,0,0,0,0,301.81,1078.06,2,0,0.12,0.12,173,7.69,0.14,0.12,22.54,FLYING,X10-H,0:/Integrated Flight Computer/aircraft/x10_h_cfg.ks (inferred preloaded)
22.78,APPROACH,ILS_TRACK,152.4,152,-0.4,677.65,600.06,0.08,9.58,9.55,269.97,0.041,0.2723,0,18.86,1,0.6,4.5,0.75,0.35,0.0168,0.4,0,21.779,0,0.397,0,269.99,0,0,1,0.03,0,0,0,269.98,0.6265,-0.0001,0.7794,0,269.99,0.89,-360.09,18.384,-0.008,0,0,3,737.99,8.524,0,1037.73,0,0,0,,0,0,0,0,0,0,0,0,0,0,0,0,0,269.84,0,0,0,0,0,0,0,0,0,0,0,0,0,3,3,0,0,VALID,0,0,0,0,0,1,0,0,0,0,0,0,0,0,0,0,0,0,0,0,301.11,1078.1,2,0,0.12,0.12,175,7.69,0.14,0.12,22.8,FLYING,X10-H,0:/Integrated Flight Computer/aircraft/x10_h_cfg.ks (inferred preloaded)
23.04,APPROACH,ILS_TRACK,152.4,152,-0.4,677.67,600.08,0.09,9.58,9.55,269.97,0.042,0.2724,0,18.755,1,0.6,4.5,0.75,0.35,0.0168,0.4,0,21.777,0,0.404,0,269.99,0,0,1,0.03,0,0,0,269.99,0.6266,-0.0002,0.7794,0,269.99,0.87,-357.87,18.342,-0.011,0,0,3,737.99,8.536,0,1035.54,0,0,0,,0,0,0,0,0,0,0,0,0,0,0,0,0,269.84,0,0,0,0,0,0,0,0,0,0,0,0,0,3,3,0,0,VALID,0,0,0,0,0,1,0,0,0,0,0,0,0,0,0,0,0,0,0,0,300.46,1078.13,2,0,0.12,0.12,177,7.69,0.14,0.12,23.06,FLYING,X10-H,0:/Integrated Flight Computer/aircraft/x10_h_cfg.ks (inferred preloaded)
23.3,APPROACH,ILS_TRACK,152.41,152,-0.41,677.69,600.11,0.1,9.59,9.55,269.97,0.042,0.2728,0,18.649,1,0.6,4.5,0.75,0.35,0.0168,0.4,0,21.775,0,0.41,0,269.99,0,0,1,0.04,0,0,0,269.99,0.6266,-0.0002,0.7793,0,269.99,0.84,-355.65,18.3,-0.014,0,0,3,737.99,8.543,0,1033.34,0,0,0,,0,0,0,0,0,0,0,0,0,0,0,0,0,269.84,0,0,0,0,0,0,0,0,0,0,0,0,0,3,3,0,0,VALID,0,0,0,0,0,1,0,0,0,0,0,0,0,0,0,0,0,0,0,0,299.88,1078.15,2,0,0.12,0.12,179,7.69,0.14,0.12,23.32,FLYING,X10-H,0:/Integrated Flight Computer/aircraft/x10_h_cfg.ks (inferred preloaded)
23.56,APPROACH,ILS_TRACK,152.41,152,-0.41,677.72,600.13,0.11,9.59,9.55,269.98,0.043,0.2732,0,18.542,1,0.6,4.5,0.75,0.35,0.0168,0.4,0,21.774,0,0.413,0,269.99,0,0,1,0.04,0,0,0,269.99,0.6267,-0.0002,0.7793,0,269.99,0.82,-353.43,18.258,-0.011,0,0,3,737.99,8.552,0,1031.15,0,0,0,,0,0,0,0,0,0,0,0,0,0,0,0,0,269.84,0,0,0,0,0,0,0,0,0,0,0,0,0,3,3,0,0,VALID,0,0,0,0,0,1,0,0,0,0,0,0,0,0,0,0,0,0,0,0,299.37,1078.16,2,0,0.12,0.12,181,7.69,0.14,0.12,23.58,FLYING,X10-H,0:/Integrated Flight Computer/aircraft/x10_h_cfg.ks (inferred preloaded)
23.82,APPROACH,ILS_TRACK,152.42,152,-0.42,677.75,600.16,0.12,9.59,9.55,269.98,0.043,0.2738,0,18.434,1,0.6,4.5,0.75,0.35,0.0168,0.4,0,21.774,0,0.415,0,269.99,0,0,1,0.04,0,0,0,269.99,0.6268,-0.0002,0.7792,0,269.99,0.8,-351.2,18.216,-0.014,0,0,3,737.99,8.56,0,1028.95,0,0,0,,0,0,0,0,0,0,0,0,0,0,0,0,0,269.84,0,0,0,0,0,0,0,0,0,0,0,0,0,3,3,0,0,VALID,0,0,0,0,0,1,0,0,0,0,0,0,0,0,0,0,0,0,0,0,298.97,1078.17,2,0,0.12,0.12,183,7.69,0.14,0.12,23.84,FLYING,X10-H,0:/Integrated Flight Computer/aircraft/x10_h_cfg.ks (inferred preloaded)
24.08,APPROACH,ILS_TRACK,152.42,152,-0.42,677.78,600.2,0.12,9.59,9.55,269.98,0.044,0.2739,0,18.326,1,0.6,4.5,0.75,0.35,0.0168,0.4,0,21.774,0,0.416,0,269.99,0,0,1,0.05,0,0,0,269.99,0.6268,-0.0001,0.7792,0,269.99,0.78,-348.97,18.174,-0.008,0,0,3,737.99,8.571,0,1026.76,0,0,0,,0,0,0,0,0,0,0,0,0,0,0,0,0,269.84,0,0,0,0,0,0,0,0,0,0,0,0,0,3,3,0,0,VALID,0,0,0,0,0,1,0,0,0,0,0,0,0,0,0,0,0,0,0,0,298.64,1078.17,2,0,0.12,0.12,185,7.69,0.14,0.12,24.1,FLYING,X10-H,0:/Integrated Flight Computer/aircraft/x10_h_cfg.ks (inferred preloaded)
24.34,APPROACH,ILS_TRACK,152.42,152,-0.42,677.82,600.23,0.14,9.6,9.55,269.98,0.046,0.2737,0,18.218,1,0.6,4.5,0.75,0.35,0.0168,0.4,0,21.774,0,0.416,0,270,0,0,1,0.05,0,0,0,269.99,0.6269,-0.0001,0.7791,0,270,0.76,-346.74,18.132,-0.005,0,0,3,737.99,8.583,0,1024.56,0,0,0,,0,0,0,0,0,0,0,0,0,0,0,0,0,269.84,0,0,0,0,0,0,0,0,0,0,0,0,0,3,3,0,0,VALID,0,0,0,0,0,1,0,0,0,0,0,0,0,0,0,0,0,0,0,0,298.34,1078.17,2,0,0.12,0.12,187,7.69,0.14,0.12,24.36,FLYING,X10-H,0:/Integrated Flight Computer/aircraft/x10_h_cfg.ks (inferred preloaded)
24.6,APPROACH,ILS_TRACK,152.42,152,-0.42,677.86,600.27,0.15,9.6,9.55,269.98,0.046,0.2733,0,18.109,1,0.6,4.5,0.75,0.35,0.0168,0.4,0,21.774,0,0.416,0,269.99,0,0,1,0.05,0,0,0,269.99,0.6269,-0.0001,0.7791,0,269.99,0.74,-344.51,18.09,-0.007,0,0,3,737.99,8.594,0,1022.36,0,0,0,,0,0,0,0,0,0,0,0,0,0,0,0,0,269.84,0,0,0,0,0,0,0,0,0,0,0,0,0,3,3,0,0,VALID,0,0,0,0,0,1,0,0,0,0,0,0,0,0,0,0,0,0,0,0,298.05,1078.16,2,0,0.12,0.12,189,7.69,0.14,0.12,24.62,FLYING,X10-H,0:/Integrated Flight Computer/aircraft/x10_h_cfg.ks (inferred preloaded)
24.86,APPROACH,ILS_TRACK,152.41,152,-0.41,677.9,600.31,0.15,9.6,9.55,269.98,0.044,0.273,0,18.001,1,0.6,4.5,0.75,0.35,0.0168,0.4,0,21.774,0,0.414,0,269.99,0,0,1,0.06,0,0,0,269.99,0.627,-0.0002,0.779,0,269.99,0.72,-342.28,18.048,-0.009,0,0,3,737.99,8.598,0,1020.17,0,0,0,,0,0,0,0,0,0,0,0,0,0,0,0,0,269.84,0,0,0,0,0,0,0,0,0,0,0,0,0,3,3,0,0,VALID,0,0,0,0,0,1,0,0,0,0,0,0,0,0,0,0,0,0,0,0,297.74,1078.15,2,0,0.12,0.12,191,7.69,0.14,0.12,24.88,FLYING,X10-H,0:/Integrated Flight Computer/aircraft/x10_h_cfg.ks (inferred preloaded)
25.12,APPROACH,ILS_TRACK,152.41,152,-0.41,677.94,600.35,0.15,9.59,9.53,269.98,0.043,0.2729,0,17.894,1,0.6,4.5,0.75,0.35,0.0168,0.4,0,21.775,0,0.411,0,269.99,0,0,1,0.06,0,0,0,269.98,0.627,-0.0001,0.779,0,269.99,0.7,-340.04,18.007,-0.006,0,0,3,737.99,8.592,0,1017.97,0,0,0,,0,0,0,0,0,0,0,0,0,0,0,0,0,269.84,0,0,0,0,0,0,0,0,0,0,0,0,0,3,3,0,0,VALID,0,0,0,0,0,1,0,0,0,0,0,0,0,0,0,0,0,0,0,0,297.44,1078.14,2,0,0.12,0.12,193,7.69,0.14,0.12,25.14,FLYING,X10-H,0:/Integrated Flight Computer/aircraft/x10_h_cfg.ks (inferred preloaded)
25.38,APPROACH,ILS_TRACK,152.41,152,-0.41,677.98,600.39,0.16,9.6,9.55,269.98,0.044,0.2736,0,17.788,1,0.6,4.5,0.75,0.35,0.0168,0.4,0,21.776,0,0.406,0,269.99,0,0,1,0.06,0,0,0,269.99,0.6271,-0.0001,0.779,0,269.99,0.68,-337.8,17.965,-0.008,0,0,3,737.99,8.638,0,1015.78,0,0,0,,0,0,0,0,0,0,0,0,0,0,0,0,0,269.84,0,0,0,0,0,0,0,0,0,0,0,0,0,3,3,0,0,VALID,0,0,0,0,0,1,0,0,0,0,0,0,0,0,0,0,0,0,0,0,297.15,1078.11,2,0,0.12,0.12,195,7.69,0.14,0.12,25.4,FLYING,X10-H,0:/Integrated Flight Computer/aircraft/x10_h_cfg.ks (inferred preloaded)
25.64,APPROACH,ILS_TRACK,152.4,152,-0.4,678.03,600.44,0.18,9.6,9.54,269.98,0.044,0.2738,0,17.683,1,0.6,4.5,0.75,0.35,0.0168,0.4,0,21.778,0,0.401,0,269.99,0,0,1,0.07,0,0,0,269.99,0.6271,-0.0002,0.7789,0,269.99,0.66,-335.56,17.923,-0.009,0,0,3,737.99,8.605,0,1013.58,0,0,0,,0,0,0,0,0,0,0,0,0,0,0,0,0,269.84,0,0,0,0,0,0,0,0,0,0,0,0,0,3,3,0,0,VALID,0,0,0,0,0,1,0,0,0,0,0,0,0,0,0,0,0,0,0,0,296.95,1078.08,2,0,0.12,0.12,197,7.69,0.14,0.12,25.66,FLYING,X10-H,0:/Integrated Flight Computer/aircraft/x10_h_cfg.ks (inferred preloaded)
25.9,APPROACH,ILS_TRACK,152.4,152,-0.4,678.08,600.48,0.19,9.62,9.55,269.98,0.045,0.2731,0,17.58,1,0.6,4.5,0.75,0.35,0.0168,0.4,0,21.779,0,0.396,0,270,0,0,1,0.07,0,0,0,269.99,0.6272,-0.0001,0.7789,0,270,0.64,-333.31,17.881,-0.004,0,0,3,737.99,8.639,0,1011.39,0,0,0,,0,0,0,0,0,0,0,0,0,0,0,0,0,269.84,0,0,0,0,0,0,0,0,0,0,0,0,0,3,3,0,0,VALID,0,0,0,0,0,1,0,0,0,0,0,0,0,0,0,0,0,0,0,0,296.77,1078.06,2,0,0.12,0.12,199,7.69,0.14,0.12,25.92,FLYING,X10-H,0:/Integrated Flight Computer/aircraft/x10_h_cfg.ks (inferred preloaded)
26.16,APPROACH,ILS_TRACK,152.39,152,-0.39,678.12,600.53,0.19,9.61,9.54,269.98,0.045,0.2726,0,17.478,1,0.6,4.5,0.75,0.35,0.0168,0.4,0,21.781,0,0.39,0,269.99,0,0,1,0.07,0,0,0,269.99,0.6272,-0.0001,0.7788,0,269.99,0.63,-331.07,17.839,-0.008,0,0,3,737.99,8.632,0,1009.19,0,0,0,,0,0,0,0,0,0,0,0,0,0,0,0,0,269.84,0,0,0,0,0,0,0,0,0,0,0,0,0,3,3,0,0,VALID,0,0,0,0,0,1,0,0,0,0,0,0,0,0,0,0,0,0,0,0,296.56,1078.03,2,0,0.12,0.12,201,7.69,0.14,0.12,26.18,FLYING,X10-H,0:/Integrated Flight Computer/aircraft/x10_h_cfg.ks (inferred preloaded)
26.42,APPROACH,ILS_TRACK,152.38,152,-0.38,678.18,600.58,0.18,9.61,9.55,269.98,0.045,0.2729,0,17.378,1,0.6,4.5,0.75,0.35,0.0168,0.4,0,21.783,0,0.382,0,270,0,0,1,0.08,0,0,0,269.99,0.6273,-0.0001,0.7788,0,270,0.61,-328.82,17.797,-0.004,0,0,3,737.99,8.629,0,1007,0,0,0,,0,0,0,0,0,0,0,0,0,0,0,0,0,269.84,0,0,0,0,0,0,0,0,0,0,0,0,0,3,3,0,0,VALID,0,0,0,0,0,1,0,0,0,0,0,0,0,0,0,0,0,0,0,0,296.31,1077.99,2,0,0.12,0.12,203,7.69,0.14,0.12,26.44,FLYING,X10-H,0:/Integrated Flight Computer/aircraft/x10_h_cfg.ks (inferred preloaded)
26.68,APPROACH,ILS_TRACK,152.37,152,-0.37,678.23,600.64,0.18,9.61,9.55,269.98,0.046,0.2735,0,17.28,1,0.6,4.5,0.75,0.35,0.0168,0.4,0,21.786,0,0.373,0,269.99,0,0,1,0.08,0,0,0,269.99,0.6274,-0.0002,0.7787,0,269.99,0.6,-326.57,17.755,-0.013,0,0,3,737.99,8.635,0,1004.8,0,0,0,,0,0,0,0,0,0,0,0,0,0,0,0,0,269.84,0,0,0,0,0,0,0,0,0,0,0,0,0,3,3,0,0,VALID,0,0,0,0,0,1,0,0,0,0,0,0,0,0,0,0,0,0,0,0,296.11,1077.95,2,0,0.12,0.12,205,7.69,0.14,0.12,26.7,FLYING,X10-H,0:/Integrated Flight Computer/aircraft/x10_h_cfg.ks (inferred preloaded)
26.94,APPROACH,ILS_TRACK,152.36,152,-0.36,678.28,600.69,0.21,9.6,9.52,269.98,0.046,0.2756,0,17.185,1,0.6,4.5,0.75,0.35,0.0168,0.4,0,21.789,0,0.36,0,270,0,0,1,0.08,0,0,0,269.99,0.6274,-0.0001,0.7787,0,270,0.58,-324.33,17.713,-0.004,0,0,3,737.99,8.607,0,1002.6,0,0,0,,0,0,0,0,0,0,0,0,0,0,0,0,0,269.84,0,0,0,0,0,0,0,0,0,0,0,0,0,3,3,0,0,VALID,0,0,0,0,0,1,0,0,0,0,0,0,0,0,0,0,0,0,0,0,295.99,1077.89,2,0,0.12,0.12,207,7.69,0.14,0.12,26.96,FLYING,X10-H,0:/Integrated Flight Computer/aircraft/x10_h_cfg.ks (inferred preloaded)
27.2,APPROACH,ILS_TRACK,152.35,152,-0.35,678.35,600.75,0.26,9.66,9.57,269.98,0.044,0.2759,0,17.093,1,0.6,4.5,0.75,0.35,0.0168,0.4,0,21.793,0,0.349,0,269.99,0,0,1,0.09,0,0,0,269.99,0.6275,-0.0002,0.7786,0,269.99,0.56,-322.06,17.671,-0.011,0,0,3,737.99,8.701,0,1000.41,0,0,0,,0,0,0,0,0,0,0,0,0,0,0,0,0,269.84,0,0,0,0,0,0,0,0,0,0,0,0,0,3,3,0,0,VALID,0,0,0,0,0,1,0,0,0,0,0,0,0,0,0,0,0,0,0,0,296.01,1077.84,2,0,0.12,0.12,209,7.69,0.14,0.12,27.22,FLYING,X10-H,0:/Integrated Flight Computer/aircraft/x10_h_cfg.ks (inferred preloaded)
27.46,APPROACH,ILS_TRACK,152.33,152,-0.33,678.4,600.81,0.19,9.6,9.53,269.99,0.042,0.2783,0,17.006,1,0.6,4.5,0.75,0.35,0.0168,0.4,0,21.797,0,0.334,0,269.99,0,0,1,0.08,0,0,0,269.99,0.6275,-0.0001,0.7786,0,269.99,0.55,-319.82,17.63,-0.008,0,0,3,737.99,8.662,0,998.21,0,0,0,,0,0,0,0,0,0,0,0,0,0,0,0,0,269.84,0,0,0,0,0,0,0,0,0,0,0,0,0,3,3,0,0,VALID,0,0,0,0,0,1,0,0,0,0,0,0,0,0,0,0,0,0,0,0,296.13,1077.77,2,0,0.12,0.12,211,7.69,0.14,0.12,27.48,FLYING,X10-H,0:/Integrated Flight Computer/aircraft/x10_h_cfg.ks (inferred preloaded)
27.72,APPROACH,ILS_TRACK,152.32,152,-0.32,678.46,600.86,0.24,9.64,9.55,269.99,0.042,0.277,0,16.921,1,0.6,4.5,0.75,0.35,0.0168,0.4,0,21.8,0,0.323,0,269.99,0,0,1,0.09,0,0,0,269.99,0.6276,-0.0002,0.7786,0,269.99,0.54,-317.56,17.588,-0.011,0,0,3,737.99,8.653,0,996.02,0,0,0,,0,0,0,0,0,0,0,0,0,0,0,0,0,269.84,0,0,0,0,0,0,0,0,0,0,0,0,0,3,3,0,0,VALID,0,0,0,0,0,1,0,0,0,0,0,0,0,0,0,0,0,0,0,0,296.28,1077.72,2,0,0.12,0.12,213,7.69,0.14,0.12,27.74,FLYING,X10-H,0:/Integrated Flight Computer/aircraft/x10_h_cfg.ks (inferred preloaded)
27.98,APPROACH,ILS_TRACK,152.31,152,-0.31,678.52,600.92,0.24,9.63,9.55,269.99,0.042,0.2747,0,16.838,1,0.6,4.5,0.75,0.35,0.0168,0.4,0,21.802,0,0.315,0,270,0,0,1,0.09,0,0,0,269.99,0.6276,-0.0001,0.7785,0,270,0.52,-315.31,17.546,-0.005,0,0,3,737.99,8.681,0,993.83,0,0,0,,0,0,0,0,0,0,0,0,0,0,0,0,0,269.84,0,0,0,0,0,0,0,0,0,0,0,0,0,3,3,0,0,VALID,0,0,0,0,0,1,0,0,0,0,0,0,0,0,0,0,0,0,0,0,296.37,1077.68,2,0,0.12,0.12,215,7.69,0.14,0.12,28,FLYING,X10-H,0:/Integrated Flight Computer/aircraft/x10_h_cfg.ks (inferred preloaded)
28.24,APPROACH,ILS_TRACK,152.31,152,-0.31,678.59,600.99,0.24,9.64,9.55,269.99,0.042,0.2723,0,16.758,1,0.6,4.5,0.75,0.35,0.0168,0.4,0,21.804,0,0.308,0,269.99,0,0,1,0.09,0,0,0,269.99,0.6277,-0.0002,0.7785,0,269.99,0.51,-313.05,17.504,-0.01,0,0,3,737.99,8.685,0,991.63,0,0,0,,0,0,0,0,0,0,0,0,0,0,0,0,0,269.84,0,0,0,0,0,0,0,0,0,0,0,0,0,3,3,0,0,VALID,0,0,0,0,0,1,0,0,0,0,0,0,0,0,0,0,0,0,0,0,296.29,1077.65,2,0,0.12,0.12,217,7.69,0.14,0.12,28.26,FLYING,X10-H,0:/Integrated Flight Computer/aircraft/x10_h_cfg.ks (inferred preloaded)
28.5,APPROACH,ILS_TRACK,152.3,152,-0.3,678.65,601.05,0.24,9.64,9.55,269.99,0.041,0.2706,0,16.679,1,0.6,4.5,0.75,0.35,0.0168,0.4,0,21.806,0,0.3,0,269.99,0,0,1,0.09,0,0,0,269.99,0.6277,-0.0002,0.7784,0,269.99,0.5,-310.79,17.462,-0.01,0,0,3,737.99,8.688,0,989.44,0,0,0,,0,0,0,0,0,0,0,0,0,0,0,0,0,269.84,0,0,0,0,0,0,0,0,0,0,0,0,0,3,3,0,0,VALID,0,0,0,0,0,1,0,0,0,0,0,0,0,0,0,0,0,0,0,0,296.01,1077.61,2,0,0.12,0.12,219,7.69,0.14,0.12,28.52,FLYING,X10-H,0:/Integrated Flight Computer/aircraft/x10_h_cfg.ks (inferred preloaded)
28.76,APPROACH,ILS_TRACK,152.29,152,-0.29,678.72,601.12,0.27,9.64,9.55,269.99,0.04,0.2696,0,16.603,1,0.6,4.5,0.75,0.35,0.0168,0.4,0,21.809,0,0.292,0,270,0,0,1,0.1,0,0,0,269.99,0.6278,-0.0001,0.7784,0,270,0.48,-308.53,17.42,-0.003,0,0,3,737.99,8.694,0,987.24,0,0,0,,0,0,0,0,0,0,0,0,0,0,0,0,0,269.84,0,0,0,0,0,0,0,0,0,0,0,0,0,3,3,0,0,VALID,0,0,0,0,0,1,0,0,0,0,0,0,0,0,0,0,0,0,0,0,295.59,1077.57,2,0,0.12,0.12,221,7.69,0.14,0.12,28.78,FLYING,X10-H,0:/Integrated Flight Computer/aircraft/x10_h_cfg.ks (inferred preloaded)
