t_s,phase,subphase,ias_ms,vapp_ms,spd_err_ms,agl_m,vs_ms,pitch_deg,aoa_deg,hdg_deg,bank_deg,thr_cmd,thr_cur,thr_intg,at_gain,at_tau_s,at_a_up,at_a_dn,at_kp_thr,at_ki_spd,at_thr_slew,aa_hdg_cmd_deg,aa_fpa_cmd_deg,aa_fbw,aa_dir,actual_fpa_deg,ftf_hdg_err_deg,ftf_fix_idx,kos_steer_pit_deg,kos_steer_hdg_deg,aa_dir_vx,aa_dir_vy,aa_dir_vz,aa_dir_pitch_deg,aa_dir_hdg_deg,ils_loc_m,ils_gs_m,ils_dist_km,loc_corr_deg,gs_corr_deg,flare_fpa_cmd,flare_tgt_vs,flare_frac,steer_hdg_deg,steer_blend,ro_loc_corr_deg,ro_hdg_err_deg,ro_yaw_tgt,ro_yaw_scale,ro_yaw_gate,yaw_cmd,roll_cmd,pitch_cmd,ro_pitch_tgt_deg,ro_pitch_err_deg,ro_pitch_ff,ro_roll_assist,flaps_cur,flaps_tgt,asc_j_ab,asc_j_rk,asc_validity,asc_q_pa,asc_q_raw_pa,asc_mach,asc_apo_m,asc_drag_n,asc_w_prop,asc_edot_aero,asc_edot_orb,asc_pitch_bias,asc_blend,asc_spooling,asc_ab_thr_ratio,asc_ab_t_now,asc_ab_t_avail,asc_ab_ign_on,asc_ab_flameouts,asc_rk_t_now,asc_rk_t_avail,asc_rk_ign_on,asc_rk_flameouts,ship_thrust,ship_avail_thrust,ship_ign_on,ship_flameouts,ifc_raw_dt_s,ifc_dt_s,ifc_loop_n,ifc_hz_est,ifc_raw_dt_max_s,ifc_raw_dt_min_s,phase_el_s,status,craft_name,cfg_file
0.1,APPROACH,ILS_TRACK,77.29,73,-4.29,2239.58,-5.32,7.25,10.61,271.56,1.959,0,0,0,0,0,0,0,0,0,0,0,0,1,0,-3.94,0,0,0,90,0,0,0,0,0,0,0,33.618,0,0,0,0,0,271.55,0,0,0,0,0,0,0,0,0,0,0,0,0,0,0,0,0,VALID,0,0,0,0,0,1,0,0,0,0,0,0,0,0,0,0,0,0,0,0,208.08,361.33,2,0,0.1,0.1,1,3.7,0.1,0.02,0.1,FLYING,CF1-F,0:/Integrated Flight Computer/aircraft/cf1_f_cfg.ks (inferred preloaded)
0.38,APPROACH,ILS_TRACK,77.74,73,-4.74,2238.12,-4.92,7.09,10.17,271.63,1.723,0,0,0,0,0,0,0,0,0,0,269.71,-5.038,0,0,-3.64,0,0,-5.04,269.73,0,0,0,0,0,3.64,407.6,33.595,-0.686,0,0,0,0,271.55,0,0,0,0,0,0,0,0,0,0,0,0,0,1,1,0,0,VALID,0,0,0,0,0,1,0,0,0,0,0,0,0,0,0,0,0,0,0,0,193.85,361.1,2,0,0.06,0.06,4,10.71,0.1,0.06,0.38,FLYING,CF1-F,0:/Integrated Flight Computer/aircraft/cf1_f_cfg.ks (inferred preloaded)
0.64,APPROACH,ILS_TRACK,78.11,73,-5.11,2236.9,-4.69,7.2,10.13,271.85,1.091,0,0,0,0,0,0,0,0,0,0,269.69,-5.038,0,0,-3.45,0,0,-5.04,269.69,0,0,0,0,0,4.21,407.61,33.571,-0.711,0,0,0,0,271.55,0,0,0,0,0,0,0,0,0,0,0,0,0,1,1,0,0,VALID,0,0,0,0,0,1,0,0,0,0,0,0,0,0,0,0,0,0,0,0,181.53,360.92,2,0,0.1,0.1,7,11.54,0.1,0.06,0.64,FLYING,CF1-F,0:/Integrated Flight Computer/aircraft/cf1_f_cfg.ks (inferred preloaded)
0.92,APPROACH,ILS_TRACK,78.44,73,-5.44,2235.67,-4.16,7.34,9.95,272.02,0.028,0,0,0,0,0,0,0,0,0,0,269.64,-5.039,0,0,-3.07,0,0,-5.04,269.63,0,0,0,0,0,4.84,407.73,33.545,-0.763,0,0,0,0,271.55,0,0,0,0,0,0,0,0,0,0,0,0,0,1,1,0,0,VALID,0,0,0,0,0,1,0,0,0,0,0,0,0,0,0,0,0,0,0,0,169.15,360.76,2,0,0.08,0.08,11,14.29,0.1,0.06,0.92,FLYING,CF1-F,0:/Integrated Flight Computer/aircraft/cf1_f_cfg.ks (inferred preloaded)
1.2,APPROACH,ILS_TRACK,78.71,73,-5.71,2234.38,-3.86,6.3,8.68,271.92,-0.75,0,0,0,0,0,0,0,0,0,0,269.61,-5.039,0,0,-2.81,0,0,-5.04,269.57,0,0,0,0,0,5.5,407.79,33.52,-0.794,0,0,0,0,271.55,0,0,0,0,0,0,0,0,0,0,0,0,0,1,1,0,0,VALID,0,0,0,0,0,1,0,0,0,0,0,0,0,0,0,0,0,0,0,0,157.63,360.63,2,0,0.08,0.08,15,14.29,0.08,0.06,1.2,FLYING,CF1-F,0:/Integrated Flight Computer/aircraft/cf1_f_cfg.ks (inferred preloaded)
1.48,APPROACH,ILS_TRACK,78.98,73,-5.98,2233.21,-3.99,5.75,8.2,271.71,-1.158,0,0,0,0,0,0,0,0,0,0,269.57,-5.04,0,0,-2.88,0,0,-5.04,269.57,0,0,0,0,0,6.16,407.96,33.494,-0.826,0,0,0,0,271.55,0,0,0,0,0,0,0,0,0,0,0,0,0,1,1,0,0,VALID,0,0,0,0,0,1,0,0,0,0,0,0,0,0,0,0,0,0,0,0,146.89,360.5,2,0,0.08,0.08,19,14.29,0.08,0.06,1.48,FLYING,CF1-F,0:/Integrated Flight Computer/aircraft/cf1_f_cfg.ks (inferred preloaded)
1.76,APPROACH,ILS_TRACK,79.15,73,-6.15,2232.19,-3.98,6.32,8.77,271.59,-1.276,0,0,0,0,0,0,0,0,0,0,269.58,-5.041,0,0,-2.88,0,0,-5.04,269.55,0,0,0,0,0,6.8,408.29,33.468,-0.82,0,0,0,0,271.55,0,0,0,0,0,0,0,0,0,0,0,0,0,1,1,0,0,VALID,0,0,0,0,0,1,0,0,0,0,0,0,0,0,0,0,0,0,0,0,136.91,360.44,2,0,0.08,0.08,23,14.29,0.08,0.06,1.76,FLYING,CF1-F,0:/Integrated Flight Computer/aircraft/cf1_f_cfg.ks (inferred preloaded)
2.04,APPROACH,ILS_TRACK,79.14,73,-6.14,2231.33,-3.82,7.57,9.94,271.5,-1.378,0,0,0,0,0,0,0,0,0,0,269.56,-5.044,0,0,-2.78,0,0,-5.04,269.56,0,0,0,0,0,7.42,408.77,33.442,-0.842,0,0,0,0,271.55,0,0,0,0,0,0,0,0,0,0,0,0,0,1,1,0,0,VALID,0,0,0,0,0,1,0,0,0,0,0,0,0,0,0,0,0,0,0,0,127.65,360.5,2,0,0.08,0.08,27,14.29,0.08,0.06,2.04,FLYING,CF1-F,0:/Integrated Flight Computer/aircraft/cf1_f_cfg.ks (inferred preloaded)
2.32,APPROACH,ILS_TRACK,78.95,73,-5.95,2230.68,-3.2,9.63,11.66,271.4,-1.476,0,0,0,0,0,0,0,0,0,0,269.54,-5.047,0,0,-2.37,0,0,-5.05,269.54,0,0,0,0,0,8.02,409.47,33.416,-0.856,0,0,0,0,271.55,0,0,0,0,0,0,0,0,0,0,0,0,0,1,1,0,0,VALID,0,0,0,0,0,1,0,0,0,0,0,0,0,0,0,0,0,0,0,0,119.05,360.66,2,0,0.08,0.08,31,14.29,0.08,0.06,2.32,FLYING,CF1-F,0:/Integrated Flight Computer/aircraft/cf1_f_cfg.ks (inferred preloaded)
2.6,APPROACH,ILS_TRACK,78.58,73,-5.58,2230.06,-2.11,10.44,11.8,271.31,-1.556,0,0,0,0,0,0,0,0,0,0,269.57,-5.051,0,0,-1.59,0,0,-5.05,269.56,0,0,0,0,0,8.59,410.2,33.39,-0.829,0,0,0,0,271.55,0,0,0,0,0,0,0,0,0,0,0,0,0,1,1,0,0,VALID,0,0,0,0,0,1,0,0,0,0,0,0,0,0,0,0,0,0,0,0,111.07,360.94,2,0,0.08,0.08,35,14.29,0.08,0.06,2.6,FLYING,CF1-F,0:/Integrated Flight Computer/aircraft/cf1_f_cfg.ks (inferred preloaded)
2.88,APPROACH,ILS_TRACK,78.14,73,-5.14,2229.47,-1.38,9.79,10.68,271.27,-1.615,0,0,0,0,0,0,0,0,0,0,269.53,-5.055,0,0,-1.04,0,0,-5.05,269.59,0,0,0,0,0,9.13,410.94,33.365,-0.865,0,0,0,0,271.55,0,0,0,0,0,0,0,0,0,0,0,0,0,1,1,0,0,VALID,0,0,0,0,0,1,0,0,0,0,0,0,0,0,0,0,0,0,0,0,103.63,361.25,2,0,0.08,0.08,39,14.29,0.08,0.06,2.88,FLYING,CF1-F,0:/Integrated Flight Computer/aircraft/cf1_f_cfg.ks (inferred preloaded)
3.16,APPROACH,ILS_TRACK,77.72,73,-4.72,2228.91,-0.95,8.37,8.97,271.26,-1.657,0,0,0,0,0,0,0,0,0,0,269.56,-5.059,0,0,-0.71,0,0,-5.06,269.56,0,0,0,0,0,9.64,411.72,33.339,-0.837,0,0,0,0,271.55,0,0,0,0,0,0,0,0,0,0,0,0,0,1,1,0,0,VALID,0,0,0,0,0,1,0,0,0,0,0,0,0,0,0,0,0,0,0,0,96.68,361.54,2,0,0.08,0.08,43,14.29,0.08,0.06,3.16,FLYING,CF1-F,0:/Integrated Flight Computer/aircraft/cf1_f_cfg.ks (inferred preloaded)
3.44,APPROACH,ILS_TRACK,77.37,73,-4.37,2228.45,-1.11,7.24,7.93,271.24,-1.685,0,0,0,0,0,0,0,0,0,0,269.58,-5.063,0,0,-0.81,0,0,-5.06,269.55,0,0,0,0,0,10.13,412.57,33.314,-0.82,0,0,0,0,271.55,0,0,0,0,0,0,0,0,0,0,0,0,0,1,1,0,0,VALID,0,0,0,0,0,1,0,0,0,0,0,0,0,0,0,0,0,0,0,0,90.19,361.78,2,0,0.08,0.08,47,14.29,0.08,0.06,3.44,FLYING,CF1-F,0:/Integrated Flight Computer/aircraft/cf1_f_cfg.ks (inferred preloaded)
3.72,APPROACH,ILS_TRACK,77.03,73,-4.03,2228.1,-1.28,7.18,7.99,271.19,-1.703,0,0,0,0,0,0,0,0,0,0,269.56,-5.068,0,0,-0.95,0,0,-5.07,269.59,0,0,0,0,0,10.59,413.55,33.289,-0.842,0,0,0,0,271.55,0,0,0,0,0,0,0,0,0,0,0,0,0,1,1,0,0,VALID,0,0,0,0,0,1,0,0,0,0,0,0,0,0,0,0,0,0,0,0,84.14,362.02,2,0,0.08,0.08,51,14.29,0.08,0.06,3.72,FLYING,CF1-F,0:/Integrated Flight Computer/aircraft/cf1_f_cfg.ks (inferred preloaded)
4,APPROACH,ILS_TRACK,76.67,73,-3.67,2227.69,-1.41,6.96,7.85,271.14,-1.706,0,0,0,0,0,0,0,0,0,0,269.59,-5.072,0,0,-1.04,0,0,-5.07,269.57,0,0,0,0,0,11.02,414.46,33.263,-0.814,0,0,0,0,271.55,0,0,0,0,0,0,0,0,0,0,0,0,0,1,1,0,0,VALID,0,0,0,0,0,1,0,0,0,0,0,0,0,0,0,0,0,0,0,0,78.49,362.27,2,0,0.08,0.08,55,14.29,0.08,0.06,4,FLYING,CF1-F,0:/Integrated Flight Computer/aircraft/cf1_f_cfg.ks (inferred preloaded)
4.28,APPROACH,ILS_TRACK,76.31,73,-3.31,2227.27,-1.61,6.99,8.01,271.09,-1.697,0,0,0,0,0,0,0,0,0,0,269.59,-5.077,0,0,-1.2,0,0,-5.07,269.58,0,0,0,0,0,11.44,415.35,33.238,-0.814,0,0,0,0,271.55,0,0,0,0,0,0,0,0,0,0,0,0,0,1,1,0,0,VALID,0,0,0,0,0,1,0,0,0,0,0,0,0,0,0,0,0,0,0,0,73.22,362.53,2,0,0.08,0.08,59,14.29,0.08,0.06,4.28,FLYING,CF1-F,0:/Integrated Flight Computer/aircraft/cf1_f_cfg.ks (inferred preloaded)
4.56,APPROACH,ILS_TRACK,75.93,73,-2.93,2226.81,-1.77,7.1,8.23,271.04,-1.68,0,0,0,0,0,0,0,0,0,0,269.59,-5.081,0,0,-1.33,0,0,-5.08,269.59,0,0,0,0,0,11.83,416.2,33.213,-0.814,0,0,0,0,271.55,0,0,0,0,0,0,0,0,0,0,0,0,0,1,1,0,0,VALID,0,0,0,0,0,1,0,0,0,0,0,0,0,0,0,0,0,0,0,0,68.31,362.79,2,0,0.08,0.08,63,14.29,0.08,0.06,4.56,FLYING,CF1-F,0:/Integrated Flight Computer/aircraft/cf1_f_cfg.ks (inferred preloaded)
4.84,APPROACH,ILS_TRACK,75.54,73,-2.54,2226.31,-1.91,7.19,8.43,270.99,-1.658,0,0,0,0,0,0,0,0,0,0,269.6,-5.085,0,0,-1.44,0,0,-5.08,269.59,0,0,0,0,0,12.19,417,33.189,-0.8,0,0,0,0,271.55,0,0,0,0,0,0,0,0,0,0,0,0,0,1,1,0,0,VALID,0,0,0,0,0,1,0,0,0,0,0,0,0,0,0,0,0,0,0,0,63.73,363.07,2,0,0.08,0.08,67,14.29,0.08,0.06,4.84,FLYING,CF1-F,0:/Integrated Flight Computer/aircraft/cf1_f_cfg.ks (inferred preloaded)
5.12,APPROACH,ILS_TRACK,75.14,73,-2.14,2225.77,-2.05,7.28,8.61,270.94,-1.629,0,0,0,0,0,0,0,0,0,0,269.59,-5.089,0,0,-1.56,0,0,-5.09,269.6,0,0,0,0,0,12.54,417.76,33.164,-0.808,0,0,0,0,271.55,0,0,0,0,0,0,0,0,0,0,0,0,0,1,1,0,0,VALID,0,0,0,0,0,1,0,0,0,0,0,0,0,0,0,0,0,0,0,0,59.46,363.36,2,0,0.08,0.08,71,14.29,0.08,0.06,5.12,FLYING,CF1-F,0:/Integrated Flight Computer/aircraft/cf1_f_cfg.ks (inferred preloaded)
5.4,APPROACH,ILS_TRACK,74.72,73,-1.72,2225.19,-2.17,7.35,8.76,270.89,-1.597,0,0,0,0,0,0,0,0,0,0,269.59,-5.092,0,0,-1.66,0,0,-5.09,269.6,0,0,0,0,0,12.86,418.46,33.14,-0.807,0,0,0,0,271.55,0,0,0,0,0,0,0,0,0,0,0,0,0,1,1,0,0,VALID,0,0,0,0,0,1,0,0,0,0,0,0,0,0,0,0,0,0,0,0,55.47,363.66,2,0,0.08,0.08,75,14.29,0.08,0.06,5.4,FLYING,CF1-F,0:/Integrated Flight Computer/aircraft/cf1_f_cfg.ks (inferred preloaded)
5.68,APPROACH,ILS_TRACK,74.29,73,-1.29,2224.53,-2.29,7.13,8.63,270.85,-1.56,0,0,0,0,0,0,0,0,0,0,269.62,-5.095,0,0,-1.75,0,0,-5.09,269.61,0,0,0,0,0,13.16,419.08,33.115,-0.781,0,0,0,0,271.55,0,0,0,0,0,0,0,0,0,0,0,0,0,1,1,0,0,VALID,0,0,0,0,0,1,0,0,0,0,0,0,0,0,0,0,0,0,0,0,51.76,363.97,2,0,0.08,0.08,79,14.29,0.08,0.06,5.68,FLYING,CF1-F,0:/Integrated Flight Computer/aircraft/cf1_f_cfg.ks (inferred preloaded)
5.96,APPROACH,ILS_TRACK,73.87,73,-0.87,2223.8,-2.51,6.8,8.45,270.82,-1.52,0,0,0,0,0,0,0,0,0,0,269.63,-5.098,0,0,-1.93,0,0,-5.1,269.6,0,0,0,0,0,13.44,419.63,33.091,-0.769,0,0,0,0,271.55,0,0,0,0,0,0,0,0,0,0,0,0,0,1,1,0,0,VALID,0,0,0,0,0,1,0,0,0,0,0,0,0,0,0,0,0,0,0,0,48.29,364.28,2,0,0.08,0.08,83,14.29,0.08,0.06,5.96,FLYING,CF1-F,0:/Integrated Flight Computer/aircraft/cf1_f_cfg.ks (inferred preloaded)
6.24,APPROACH,ILS_TRACK,73.46,73,-0.46,2222.99,-2.79,6.46,8.3,270.79,-1.478,0,0,0,0,0,0,0,0,0,0,269.64,-5.1,0,0,-2.16,0,0,-5.1,269.62,0,0,0,0,0,13.7,420.09,33.067,-0.763,0,0,0,0,271.55,0,0,0,0,0,0,0,0,0,0,0,0,0,1,1,0,0,VALID,0,0,0,0,0,1,0,0,0,0,0,0,0,0,0,0,0,0,0,0,45.06,364.58,2,0,0.08,0.08,87,14.29,0.08,0.06,6.24,FLYING,CF1-F,0:/Integrated Flight Computer/aircraft/cf1_f_cfg.ks (inferred preloaded)
6.52,APPROACH,ILS_TRACK,73.06,73,-0.06,2222.1,-3.12,6.08,8.15,270.76,-1.435,0,0,0,0,0,0,0,0,0,0,269.63,-5.102,0,0,-2.42,0,0,-5.1,269.64,0,0,0,0,0,13.94,420.46,33.043,-0.773,0,0,0,0,271.55,0,0,0,0,0,0,0,0,0,0,0,0,0,1,1,0,0,VALID,0,0,0,0,0,1,0,0,0,0,0,0,0,0,0,0,0,0,0,0,42.04,364.88,2,0,0.08,0.08,91,14.29,0.08,0.06,6.52,FLYING,CF1-F,0:/Integrated Flight Computer/aircraft/cf1_f_cfg.ks (inferred preloaded)
6.8,APPROACH,ILS_TRACK,72.67,73,0.33,2221.1,-3.5,5.67,8,270.73,-1.39,0,0,0,0,0,0,0,0,0,0,269.63,-5.104,0,0,-2.74,0,0,-5.1,269.67,0,0,0,0,0,14.16,420.72,33.019,-0.772,0,0,0,0,271.55,0,0,0,0,0,0,0,0,0,0,0,0,0,1,1,0,0,VALID,0,0,0,0,0,1,0,0,0,0,0,0,0,0,0,0,0,0,0,0,39.22,365.17,2,0,0.08,0.08,95,14.29,0.08,0.06,6.8,FLYING,CF1-F,0:/Integrated Flight Computer/aircraft/cf1_f_cfg.ks (inferred preloaded)
7.08,APPROACH,ILS_TRACK,72.3,73,0.7,2219.98,-3.94,5.22,7.86,270.7,-1.345,0,0,0,0,0,0,0,0,0,0,269.66,-5.104,0,0,-3.09,0,0,-5.1,269.65,0,0,0,0,0,14.36,420.85,32.995,-0.745,0,0,0,0,271.55,0,0,0,0,0,0,0,0,0,0,0,0,0,1,1,0,0,VALID,0,0,0,0,0,1,0,0,0,0,0,0,0,0,0,0,0,0,0,0,36.59,365.46,2,0,0.08,0.08,99,14.29,0.08,0.06,7.08,FLYING,CF1-F,0:/Integrated Flight Computer/aircraft/cf1_f_cfg.ks (inferred preloaded)
7.36,APPROACH,ILS_TRACK,71.95,73,1.05,2218.72,-4.42,4.75,7.72,270.67,-1.299,0,0,0,0,0,0,0,0,0,0,269.66,-5.104,0,0,-3.48,0,0,-5.1,269.65,0,0,0,0,0,14.55,420.84,32.972,-0.736,0,0,0,0,271.55,0,0,0,0,0,0,0,0,0,0,0,0,0,1,1,0,0,VALID,0,0,0,0,0,1,0,0,0,0,0,0,0,0,0,0,0,0,0,0,34.14,365.75,2,0,0.08,0.08,103,14.29,0.08,0.06,7.36,FLYING,CF1-F,0:/Integrated Flight Computer/aircraft/cf1_f_cfg.ks (inferred preloaded)
7.64,APPROACH,ILS_TRACK,71.61,73,1.39,2217.32,-4.95,4.24,7.58,270.65,-1.254,0,0,0,0,0,0,0,0,0,0,269.64,-5.103,0,0,-3.92,0,0,-5.1,269.67,0,0,0,0,0,14.73,420.67,32.948,-0.76,0,0,0,0,271.55,0,0,0,0,0,0,0,0,0,0,0,0,0,1,1,0,0,VALID,0,0,0,0,0,1,0,0,0,0,0,0,0,0,0,0,0,0,0,0,31.85,366.03,2,0,0.08,0.08,107,14.29,0.08,0.06,7.64,FLYING,CF1-F,0:/Integrated Flight Computer/aircraft/cf1_f_cfg.ks (inferred preloaded)
7.92,APPROACH,ILS_TRACK,71.29,73,1.71,2215.78,-5.52,3.82,7.57,270.62,-1.207,0,0,0,0,0,0,0,0,0,0,269.67,-5.102,0,0,-4.39,0,0,-5.1,269.66,0,0,0,0,0,14.89,420.37,32.925,-0.731,0,0,0,0,271.55,0,0,0,0,0,0,0,0,0,0,0,0,0,1,1,0,0,VALID,0,0,0,0,0,1,0,0,0,0,0,0,0,0,0,0,0,0,0,0,29.71,366.3,2,0,0.08,0.08,111,14.29,0.08,0.06,7.92,FLYING,CF1-F,0:/Integrated Flight Computer/aircraft/cf1_f_cfg.ks (inferred preloaded)
8.2,APPROACH,ILS_TRACK,70.98,73,2.02,2214.12,-6.18,3.72,7.93,270.59,-1.161,0,0,0,0,0,0,0,0,0,0,269.67,-5.1,0,0,-4.94,0,0,-5.1,269.67,0,0,0,0,0,15.03,419.94,32.902,-0.727,0,0,0,0,271.55,0,0,0,0,0,0,0,0,0,0,0,0,0,1,1,0,0,VALID,0,0,0,0,0,1,0,0,0,0,0,0,0,0,0,0,0,0,0,0,27.72,366.58,2,0,0.08,0.08,115,14.29,0.08,0.06,8.2,FLYING,CF1-F,0:/Integrated Flight Computer/aircraft/cf1_f_cfg.ks (inferred preloaded)
8.48,APPROACH,ILS_TRACK,70.67,73,2.33,2212.48,-6.74,4.67,9.31,270.54,-1.116,0,0,0,0,0,0,0,0,0,0,269.69,-5.098,0,0,-5.43,0,0,-5.1,269.69,0,0,0,0,0,15.17,419.5,32.879,-0.713,0,0,0,0,271.55,0,0,0,0,0,0,0,0,0,0,0,0,0,1,1,0,0,VALID,0,0,0,0,0,1,0,0,0,0,0,0,0,0,0,0,0,0,0,0,25.86,366.86,2,0,0.08,0.08,119,14.29,0.08,0.06,8.48,FLYING,CF1-F,0:/Integrated Flight Computer/aircraft/cf1_f_cfg.ks (inferred preloaded)
8.76,APPROACH,ILS_TRACK,70.31,73,2.69,2210.76,-6.83,5.85,10.6,270.49,-1.072,0,0,0,0,0,0,0,0,0,0,269.69,-5.095,0,0,-5.55,0,0,-5.1,269.68,0,0,0,0,0,15.28,419,32.856,-0.71,0,0,0,0,271.55,0,0,0,0,0,0,0,0,0,0,0,0,0,1,1,0,0,VALID,0,0,0,0,0,1,0,0,0,0,0,0,0,0,0,0,0,0,0,0,24.13,367.18,2,0,0.08,0.08,123,14.29,0.08,0.06,8.76,FLYING,CF1-F,0:/Integrated Flight Computer/aircraft/cf1_f_cfg.ks (inferred preloaded)
9.04,APPROACH,ILS_TRACK,69.9,73,3.1,2208.85,-6.82,5.9,10.66,270.46,-1.028,0,0,0,0,0,0,0,0,0,0,269.7,-5.091,0,0,-5.57,0,0,-5.09,269.7,0,0,0,0,0,15.39,418.3,32.833,-0.702,0,0,0,0,271.55,0,0,0,0,0,0,0,0,0,0,0,0,0,1,1,0,0,VALID,0,0,0,0,0,1,0,0,0,0,0,0,0,0,0,0,0,0,0,0,22.52,367.54,2,0,0.08,0.08,127,14.29,0.08,0.06,9.04,FLYING,CF1-F,0:/Integrated Flight Computer/aircraft/cf1_f_cfg.ks (inferred preloaded)
9.32,APPROACH,ILS_TRACK,69.5,73,3.5,2206.88,-7.03,5.67,10.6,270.44,-0.985,0,0,0,0,0,0,0,0,0,0,269.69,-5.088,0,0,-5.76,0,0,-5.09,269.71,0,0,0,0,0,15.48,417.51,32.81,-0.708,0,0,0,0,271.55,0,0,0,0,0,0,0,0,0,0,0,0,0,1,1,0,0,VALID,0,0,0,0,0,1,0,0,0,0,0,0,0,0,0,0,0,0,0,0,21.01,367.88,2,0,0.08,0.08,131,14.29,0.08,0.06,9.32,FLYING,CF1-F,0:/Integrated Flight Computer/aircraft/cf1_f_cfg.ks (inferred preloaded)
9.6,APPROACH,ILS_TRACK,69.11,73,3.89,2204.96,-7.27,6.13,11.26,270.4,-0.943,0,0,0,0,0,0,0,0,0,0,269.71,-5.084,0,0,-6,0,0,-5.08,269.71,0,0,0,0,0,15.56,416.77,32.787,-0.689,0,0,0,0,271.55,0,0,0,0,0,0,0,0,0,0,0,0,0,1,1,0,0,VALID,0,0,0,0,0,1,0,0,0,0,0,0,0,0,0,0,0,0,0,0,19.6,368.23,2,0,0.08,0.08,135,14.29,0.08,0.06,9.6,FLYING,CF1-F,0:/Integrated Flight Computer/aircraft/cf1_f_cfg.ks (inferred preloaded)
9.88,APPROACH,ILS_TRACK,68.7,73,4.3,2203.03,-7.29,6.82,12,270.37,-0.902,0,0,0,0,0,0,0,0,0,0,269.72,-5.08,0,0,-6.05,0,0,-5.08,269.71,0,0,0,0,0,15.63,416.03,32.765,-0.684,0,0,0,0,271.55,0,0,0,0,0,0,0,0,0,0,0,0,0,1,1,0,0,VALID,0,0,0,0,0,1,0,0,0,0,0,0,0,0,0,0,0,0,0,0,18.29,368.58,2,0,0.08,0.08,139,14.29,0.08,0.06,9.88,FLYING,CF1-F,0:/Integrated Flight Computer/aircraft/cf1_f_cfg.ks (inferred preloaded)
10.16,APPROACH,ILS_TRACK,68.27,73,4.73,2201.06,-7.26,7.22,12.42,270.34,-0.863,0,0,0,0,0,0,0,0,0,0,269.73,-5.076,0,0,-6.07,0,0,-5.08,269.72,0,0,0,0,0,15.68,415.23,32.743,-0.669,0,0,0,0,271.55,0,0,0,0,0,0,0,0,0,0,0,0,0,1,1,0,0,VALID,0,0,0,0,0,1,0,0,0,0,0,0,0,0,0,0,0,0,0,0,17.07,368.96,2,0,0.08,0.08,143,14.29,0.08,0.06,10.16,FLYING,CF1-F,0:/Integrated Flight Computer/aircraft/cf1_f_cfg.ks (inferred preloaded)
10.44,APPROACH,ILS_TRACK,67.83,73,5.17,2199.08,-7.22,7.49,12.7,270.31,-0.824,0,0,0,0,0,0,0,0,0,0,269.74,-5.072,0,0,-6.08,0,0,-5.07,269.74,0,0,0,0,0,15.72,414.41,32.721,-0.656,0,0,0,0,271.55,0,0,0,0,0,0,0,0,0,0,0,0,0,1,1,0,0,VALID,0,0,0,0,0,1,0,0,0,0,0,0,0,0,0,0,0,0,0,0,21.44,369.34,2,0,0.08,0.08,147,14.29,0.08,0.06,10.44,FLYING,CF1-F,0:/Integrated Flight Computer/aircraft/cf1_f_cfg.ks (inferred preloaded)
10.72,APPROACH,ILS_TRACK,67.4,73,5.6,2197.1,-7.19,7.7,12.92,270.29,-0.786,0,0,0,0,0,0,0,0,0,0,269.74,-5.068,0,0,-6.09,0,0,-5.07,269.75,0,0,0,0,0,15.75,413.58,32.698,-0.658,0,0,0,0,271.55,0,0,0,0,0,0,0,0,0,0,0,0,0,1,1,0,0,VALID,0,0,0,0,0,1,0,0,0,0,0,0,0,0,0,0,0,0,0,0,26.21,369.7,2,0,0.08,0.08,151,14.29,0.08,0.06,10.72,FLYING,CF1-F,0:/Integrated Flight Computer/aircraft/cf1_f_cfg.ks (inferred preloaded)
11,APPROACH,ILS_TRACK,67,73,6,2195.12,-7.16,7.89,13.12,270.27,-0.75,0,0,0,0,0,0,0,0,0,0,269.77,-5.064,0,0,-6.1,0,0,-5.06,269.75,0,0,0,0,0,15.76,412.75,32.677,-0.632,0,0,0,0,271.55,0,0,0,0,0,0,0,0,0,0,0,0,0,1,1,0,0,VALID,0,0,0,0,0,1,0,0,0,0,0,0,0,0,0,0,0,0,0,0,30.87,370.06,2,0,0.08,0.08,155,14.29,0.08,0.06,11,FLYING,CF1-F,0:/Integrated Flight Computer/aircraft/cf1_f_cfg.ks (inferred preloaded)
11.28,APPROACH,ILS_TRACK,66.62,73,6.38,2193.15,-7.13,8.07,13.31,270.25,-0.715,0,0,0,0,0,0,0,0,0,0,269.77,-5.06,0,0,-6.11,0,0,-5.06,269.74,0,0,0,0,0,15.77,411.92,32.655,-0.627,0,0,0,0,271.55,0,0,0,0,0,0,0,0,0,0,0,0,0,1,1,0,0,VALID,0,0,0,0,0,1,0,0,0,0,0,0,0,0,0,0,0,0,0,0,35.42,370.4,2,0,0.08,0.08,159,14.29,0.08,0.06,11.28,FLYING,CF1-F,0:/Integrated Flight Computer/aircraft/cf1_f_cfg.ks (inferred preloaded)
11.56,APPROACH,ILS_TRACK,66.26,73,6.74,2191.19,-7.11,8.25,13.49,270.23,-0.681,0,0,0,0,0,0,0,0,0,0,269.77,-5.055,0,0,-6.12,0,0,-5.06,269.79,0,0,0,0,0,15.77,411.09,32.633,-0.631,0,0,0,0,271.55,0,0,0,0,0,0,0,0,0,0,0,0,0,1,1,0,0,VALID,0,0,0,0,0,1,0,0,0,0,0,0,0,0,0,0,0,0,0,0,39.88,370.72,2,0,0.08,0.08,163,14.29,0.08,0.06,11.56,FLYING,CF1-F,0:/Integrated Flight Computer/aircraft/cf1_f_cfg.ks (inferred preloaded)
11.84,APPROACH,ILS_TRACK,65.93,73,7.07,2189.23,-7.08,8.41,13.66,270.21,-0.648,0,0,0,0,0,0,0,0,0,0,269.78,-5.051,0,0,-6.13,0,0,-5.05,269.78,0,0,0,0,0,15.76,410.26,32.612,-0.625,0,0,0,0,271.55,0,0,0,0,0,0,0,0,0,0,0,0,0,1,1,0,0,VALID,0,0,0,0,0,1,0,0,0,0,0,0,0,0,0,0,0,0,0,0,44.23,371.02,2,0,0.08,0.08,167,14.29,0.08,0.06,11.84,FLYING,CF1-F,0:/Integrated Flight Computer/aircraft/cf1_f_cfg.ks (inferred preloaded)
12.12,APPROACH,ILS_TRACK,65.63,73,7.37,2187.28,-7.06,8.56,13.82,270.19,-0.616,0,0,0,0,0,0,0,0,0,0,269.79,-5.047,0,0,-6.14,0,0,-5.05,269.8,0,0,0,0,0,15.74,409.44,32.59,-0.605,0,0,0,0,271.55,0,0,0,0,0,0,0,0,0,0,0,0,0,1,1,0,0,VALID,0,0,0,0,0,1,0,0,0,0,0,0,0,0,0,0,0,0,0,0,48.48,371.31,2,0,0.08,0.08,171,14.29,0.08,0.06,12.12,FLYING,CF1-F,0:/Integrated Flight Computer/aircraft/cf1_f_cfg.ks (inferred preloaded)
12.4,APPROACH,ILS_TRACK,65.37,73,7.63,2185.33,-7.04,8.7,13.96,270.17,-0.585,0,0,0,0,0,0,0,0,0,0,269.81,-5.043,0,0,-6.14,0,0,-5.04,269.78,0,0,0,0,0,15.71,408.61,32.569,-0.586,0,0,0,0,271.55,0,0,0,0,0,0,0,0,0,0,0,0,0,1,1,0,0,VALID,0,0,0,0,0,1,0,0,0,0,0,0,0,0,0,0,0,0,0,0,52.64,371.56,2,0,0.08,0.08,175,14.29,0.08,0.06,12.4,FLYING,CF1-F,0:/Integrated Flight Computer/aircraft/cf1_f_cfg.ks (inferred preloaded)
12.68,APPROACH,ILS_TRACK,65.18,73,7.82,2183.38,-7.02,8.83,14.09,270.16,-0.554,0,0,0,0,0,0,0,0,0,0,269.81,-5.039,0,0,-6.15,0,0,-5.04,269.81,0,0,0,0,0,15.67,407.77,32.548,-0.592,0,0,0,0,271.55,0,0,0,0,0,0,0,0,0,0,0,0,0,1,1,0,0,VALID,0,0,0,0,0,1,0,0,0,0,0,0,0,0,0,0,0,0,0,0,56.69,371.78,2,0,0.08,0.08,179,14.29,0.08,0.06,12.68,FLYING,CF1-F,0:/Integrated Flight Computer/aircraft/cf1_f_cfg.ks (inferred preloaded)
12.96,APPROACH,ILS_TRACK,65.05,73,7.95,2181.43,-7.01,8.93,14.19,270.14,-0.524,0,0,0,0,0,0,0,0,0,0,269.81,-5.035,0,0,-6.15,0,0,-5.04,269.82,0,0,0,0,0,15.63,406.94,32.526,-0.587,0,0,0,0,271.55,0,0,0,0,0,0,0,0,0,0,0,0,0,1,1,0,0,VALID,0,0,0,0,0,1,0,0,0,0,0,0,0,0,0,0,0,0,0,0,60.64,371.94,2,0,0.08,0.08,183,14.29,0.08,0.06,12.96,FLYING,CF1-F,0:/Integrated Flight Computer/aircraft/cf1_f_cfg.ks (inferred preloaded)
13.24,APPROACH,ILS_TRACK,64.98,73,8.02,2179.48,-6.99,8.98,14.23,270.13,-0.494,0,0,0,0,0,0,0,0,0,0,269.82,-5.03,0,0,-6.14,0,0,-5.03,269.81,0,0,0,0,0,15.58,406.1,32.505,-0.576,0,0,0,0,271.55,0,0,0,0,0,0,0,0,0,0,0,0,0,1,1,0,0,VALID,0,0,0,0,0,1,0,0,0,0,0,0,0,0,0,0,0,0,0,0,64.5,372.08,2,0,0.08,0.08,187,14.29,0.08,0.06,13.24,FLYING,CF1-F,0:/Integrated Flight Computer/aircraft/cf1_f_cfg.ks (inferred preloaded)
13.52,APPROACH,ILS_TRACK,64.93,73,8.07,2177.52,-6.98,8.98,14.23,270.12,-0.464,0,0,0,0,0,0,0,0,0,0,269.83,-5.026,0,0,-6.14,0,0,-5.03,269.84,0,0,0,0,0,15.51,405.25,32.484,-0.572,0,0,0,0,271.55,0,0,0,0,0,0,0,0,0,0,0,0,0,1,1,0,0,VALID,0,0,0,0,0,1,0,0,0,0,0,0,0,0,0,0,0,0,0,0,68.26,372.2,2,0,0.08,0.08,191,14.29,0.08,0.06,13.52,FLYING,CF1-F,0:/Integrated Flight Computer/aircraft/cf1_f_cfg.ks (inferred preloaded)
13.8,APPROACH,ILS_TRACK,64.9,73,8.1,2175.57,-6.97,8.97,14.21,270.11,-0.435,0,0,0,0,0,0,0,0,0,0,269.83,-5.022,0,0,-6.13,0,0,-5.02,269.85,0,0,0,0,0,15.45,404.41,32.463,-0.568,0,0,0,0,271.55,0,0,0,0,0,0,0,0,0,0,0,0,0,1,1,0,0,VALID,0,0,0,0,0,1,0,0,0,0,0,0,0,0,0,0,0,0,0,0,71.94,372.31,2,0,0.08,0.08,195,14.29,0.08,0.06,13.8,FLYING,CF1-F,0:/Integrated Flight Computer/aircraft/cf1_f_cfg.ks (inferred preloaded)
14.08,APPROACH,ILS_TRACK,64.88,73,8.12,2173.62,-6.96,8.95,14.19,270.1,-0.406,0,0,0,0,0,0,0,0,0,0,269.88,-5.018,0,0,-6.13,0,0,-5.02,269.83,0,0,0,0,0,15.37,403.56,32.442,-0.524,0,0,0,0,271.55,0,0,0,0,0,0,0,0,0,0,0,0,0,1,1,0,0,VALID,0,0,0,0,0,1,0,0,0,0,0,0,0,0,0,0,0,0,0,0,75.52,372.42,2,0,0.08,0.08,199,14.29,0.08,0.06,14.08,FLYING,CF1-F,0:/Integrated Flight Computer/aircraft/cf1_f_cfg.ks (inferred preloaded)
14.36,APPROACH,ILS_TRACK,64.87,73,8.13,2171.66,-6.96,8.92,14.16,270.09,-0.38,0,0,0,0,0,0,0,0,0,0,269.86,-5.014,0,0,-6.12,0,0,-5.01,269.86,0,0,0,0,0,15.3,402.72,32.42,-0.536,0,0,0,0,271.55,0,0,0,0,0,0,0,0,0,0,0,0,0,1,1,0,0,VALID,0,0,0,0,0,1,0,0,0,0,0,0,0,0,0,0,0,0,0,0,79.02,372.51,2,0,0.08,0.08,203,14.29,0.08,0.06,14.36,FLYING,CF1-F,0:/Integrated Flight Computer/aircraft/cf1_f_cfg.ks (inferred preloaded)
14.64,APPROACH,ILS_TRACK,64.88,73,8.12,2169.71,-6.95,8.89,14.12,270.08,-0.354,0,0,0,0,0,0,0,0,0,0,269.87,-5.009,0,0,-6.11,0,0,-5.01,269.88,0,0,0,0,0,15.21,401.87,32.399,-0.531,0,0,0,0,271.55,0,0,0,0,0,0,0,0,0,0,0,0,0,1,1,0,0,VALID,0,0,0,0,0,1,0,0,0,0,0,0,0,0,0,0,0,0,0,0,82.44,372.59,2,0,0.08,0.08,207,14.29,0.08,0.06,14.64,FLYING,CF1-F,0:/Integrated Flight Computer/aircraft/cf1_f_cfg.ks (inferred preloaded)
14.92,APPROACH,ILS_TRACK,64.9,73,8.1,2167.76,-6.95,8.85,14.07,270.08,-0.329,0,0,0,0,0,0,0,0,0,0,269.86,-5.005,0,0,-6.11,0,0,-5.01,269.88,0,0,0,0,0,15.13,401.03,32.378,-0.536,0,0,0,0,271.55,0,0,0,0,0,0,0,0,0,0,0,0,0,1,1,0,0,VALID,0,0,0,0,0,1,0,0,0,0,0,0,0,0,0,0,0,0,0,0,85.77,372.67,2,0,0.08,0.08,211,14.29,0.08,0.06,14.92,FLYING,CF1-F,0:/Integrated Flight Computer/aircraft/cf1_f_cfg.ks (inferred preloaded)
15.2,APPROACH,ILS_TRACK,64.93,73,8.07,2165.8,-6.94,8.8,14.02,270.07,-0.306,0,0,0,0,0,0,0,0,0,0,269.89,-5.001,0,0,-6.1,0,0,-5,269.89,0,0,0,0,0,15.03,400.19,32.357,-0.515,0,0,0,0,271.55,0,0,0,0,0,0,0,0,0,0,0,0,0,1,1,0,0,VALID,0,0,0,0,0,1,0,0,0,0,0,0,0,0,0,0,0,0,0,0,89.02,372.73,2,0,0.08,0.08,215,14.29,0.08,0.06,15.2,FLYING,CF1-F,0:/Integrated Flight Computer/aircraft/cf1_f_cfg.ks (inferred preloaded)
15.48,APPROACH,ILS_TRACK,64.98,73,8.02,2163.85,-6.94,8.75,13.97,270.06,-0.284,0,0,0,0,0,0,0,0,0,0,269.9,-4.997,0,0,-6.1,0,0,-5,269.88,0,0,0,0,0,14.93,399.34,32.336,-0.502,0,0,0,0,271.55,0,0,0,0,0,0,0,0,0,0,0,0,0,1,1,0,0,VALID,0,0,0,0,0,1,0,0,0,0,0,0,0,0,0,0,0,0,0,0,92.2,372.79,2,0,0.08,0.08,219,14.29,0.08,0.06,15.48,FLYING,CF1-F,0:/Integrated Flight Computer/aircraft/cf1_f_cfg.ks (inferred preloaded)
15.76,APPROACH,ILS_TRACK,65.04,73,7.96,2161.9,-6.94,8.69,13.9,270.06,-0.264,0,0,0,0,0,0,0,0,0,0,269.9,-4.993,0,0,-6.09,0,0,-4.99,269.89,0,0,0,0,0,14.83,398.5,32.315,-0.499,0,0,0,0,271.55,0,0,0,0,0,0,0,0,0,0,0,0,0,1,1,0,0,VALID,0,0,0,0,0,1,0,0,0,0,0,0,0,0,0,0,0,0,0,0,95.29,372.84,2,0,0.08,0.08,223,14.29,0.08,0.06,15.76,FLYING,CF1-F,0:/Integrated Flight Computer/aircraft/cf1_f_cfg.ks (inferred preloaded)
16.04,APPROACH,ILS_TRACK,65.11,73,7.89,2159.94,-6.94,8.63,13.83,270.05,-0.244,0,0,0,0,0,0,0,0,0,0,269.91,-4.988,0,0,-6.08,0,0,-4.99,269.93,0,0,0,0,0,14.72,397.66,32.293,-0.491,0,0,0,0,271.55,0,0,0,0,0,0,0,0,0,0,0,0,0,1,1,0,0,VALID,0,0,0,0,0,1,0,0,0,0,0,0,0,0,0,0,0,0,0,0,98.31,372.88,2,0,0.08,0.08,227,14.29,0.08,0.06,16.04,FLYING,CF1-F,0:/Integrated Flight Computer/aircraft/cf1_f_cfg.ks (inferred preloaded)
16.32,APPROACH,ILS_TRACK,65.19,73,7.81,2157.99,-6.94,8.56,13.76,270.05,-0.226,0,0,0,0,0,0,0,0,0,0,269.92,-4.984,0,0,-6.08,0,0,-4.98,269.91,0,0,0,0,0,14.61,396.82,32.272,-0.485,0,0,0,0,271.55,0,0,0,0,0,0,0,0,0,0,0,0,0,1,1,0,0,VALID,0,0,0,0,0,1,0,0,0,0,0,0,0,0,0,0,0,0,0,0,101.26,372.92,2,0,0.08,0.08,231,14.29,0.08,0.06,16.32,FLYING,CF1-F,0:/Integrated Flight Computer/aircraft/cf1_f_cfg.ks (inferred preloaded)
16.6,APPROACH,ILS_TRACK,65.29,73,7.71,2156.03,-6.94,8.48,13.67,270.04,-0.208,0,0,0,0,0,0,0,0,0,0,269.92,-4.98,0,0,-6.07,0,0,-4.98,269.94,0,0,0,0,0,14.49,395.98,32.251,-0.477,0,0,0,0,271.55,0,0,0,0,0,0,0,0,0,0,0,0,0,1,1,0,0,VALID,0,0,0,0,0,1,0,0,0,0,0,0,0,0,0,0,0,0,0,0,104.13,372.94,2,0,0.08,0.08,235,14.29,0.08,0.06,16.6,FLYING,CF1-F,0:/Integrated Flight Computer/aircraft/cf1_f_cfg.ks (inferred preloaded)
16.88,APPROACH,ILS_TRACK,65.4,73,7.6,2154.07,-6.95,8.4,13.59,270.04,-0.192,0,0,0,0,0,0,0,0,0,0,269.94,-4.976,0,0,-6.06,0,0,-4.98,269.92,0,0,0,0,0,14.38,395.13,32.23,-0.458,0,0,0,0,271.55,0,0,0,0,0,0,0,0,0,0,0,0,0,1,1,0,0,VALID,0,0,0,0,0,1,0,0,0,0,0,0,0,0,0,0,0,0,0,0,106.94,372.96,2,0,0.08,0.08,239,14.29,0.08,0.06,16.88,FLYING,CF1-F,0:/Integrated Flight Computer/aircraft/cf1_f_cfg.ks (inferred preloaded)
17.16,APPROACH,ILS_TRACK,65.52,73,7.48,2152.11,-6.95,8.31,13.49,270.03,-0.177,0,0,0,0,0,0,0,0,0,0,269.94,-4.971,0,0,-6.05,0,0,-4.97,269.95,0,0,0,0,0,14.26,394.29,32.208,-0.461,0,0,0,0,271.55,0,0,0,0,0,0,0,0,0,0,0,0,0,1,1,0,0,VALID,0,0,0,0,0,1,0,0,0,0,0,0,0,0,0,0,0,0,0,0,109.67,372.97,2,0,0.08,0.08,243,14.29,0.08,0.06,17.16,FLYING,CF1-F,0:/Integrated Flight Computer/aircraft/cf1_f_cfg.ks (inferred preloaded)
17.44,APPROACH,ILS_TRACK,65.66,73,7.34,2150.15,-6.95,8.22,13.4,270.03,-0.163,0,0,0,0,0,0,0,0,0,0,269.94,-4.967,0,0,-6.05,0,0,-4.97,269.94,0,0,0,0,0,14.14,393.45,32.187,-0.46,0,0,0,0,271.55,0,0,0,0,0,0,0,0,0,0,0,0,0,1,1,0,0,VALID,0,0,0,0,0,1,0,0,0,0,0,0,0,0,0,0,0,0,0,0,112.33,372.97,2,0,0.08,0.08,247,14.29,0.08,0.06,17.44,FLYING,CF1-F,0:/Integrated Flight Computer/aircraft/cf1_f_cfg.ks (inferred preloaded)
17.74,APPROACH,ILS_TRACK,65.81,73,7.19,2148.05,-6.96,8.12,13.29,270.03,-0.149,0,0,0,0,0,0,0,0,0,0,269.95,-4.963,0,0,-6.04,0,0,-4.96,269.96,0,0,0,0,0,14,392.55,32.164,-0.454,0,0,0,0,271.55,0,0,0,0,0,0,0,0,0,0,0,0,0,1,1,0,0,VALID,0,0,0,0,0,1,0,0,0,0,0,0,0,0,0,0,0,0,0,0,115.24,372.96,2,0,0.1,0.1,251,13.33,0.1,0.06,17.74,FLYING,CF1-F,0:/Integrated Flight Computer/aircraft/cf1_f_cfg.ks (inferred preloaded)
18.06,APPROACH,ILS_TRACK,65.99,73,7.01,2145.8,-6.97,8,13.16,270.02,-0.134,0,0,0,0,0,0,0,0,0,0,269.96,-4.958,0,0,-6.03,0,0,-4.96,269.98,0,0,0,0,0,13.85,391.59,32.139,-0.443,0,0,0,0,271.55,0,0,0,0,0,0,0,0,0,0,0,0,0,1,1,0,0,VALID,0,0,0,0,0,1,0,0,0,0,0,0,0,0,0,0,0,0,0,0,118.37,372.95,2,0,0.1,0.1,255,12.5,0.1,0.06,18.06,FLYING,CF1-F,0:/Integrated Flight Computer/aircraft/cf1_f_cfg.ks (inferred preloaded)
18.4,APPROACH,ILS_TRACK,66.21,73,6.79,2143.41,-6.97,7.87,13.02,270.02,-0.121,0,0,0,0,0,0,0,0,0,0,269.96,-4.953,0,0,-6.01,0,0,-4.95,269.96,0,0,0,0,0,13.7,390.57,32.113,-0.435,0,0,0,0,271.55,0,0,0,0,0,0,0,0,0,0,0,0,0,1,1,0,0,VALID,0,0,0,0,0,1,0,0,0,0,0,0,0,0,0,0,0,0,0,0,121.69,372.92,2,0,0.1,0.1,259,11.76,0.1,0.06,18.4,FLYING,CF1-F,0:/Integrated Flight Computer/aircraft/cf1_f_cfg.ks (inferred preloaded)
18.7,APPROACH,ILS_TRACK,66.41,73,6.59,2141.29,-6.98,7.75,12.89,270.02,-0.11,0,0,0,0,0,0,0,0,0,0,269.97,-4.948,0,0,-6,0,0,-4.95,269.97,0,0,0,0,0,13.55,389.67,32.09,-0.432,0,0,0,0,271.55,0,0,0,0,0,0,0,0,0,0,0,0,0,1,1,0,0,VALID,0,0,0,0,0,1,0,0,0,0,0,0,0,0,0,0,0,0,0,0,124.35,372.88,2,0,0.1,0.1,263,13.33,0.1,0.06,18.7,FLYING,CF1-F,0:/Integrated Flight Computer/aircraft/cf1_f_cfg.ks (inferred preloaded)
19.02,APPROACH,ILS_TRACK,66.63,73,6.37,2139.04,-6.99,7.62,12.75,270.02,-0.099,0,0,0,0,0,0,0,0,0,0,269.98,-4.944,0,0,-5.99,0,0,-4.94,269.99,0,0,0,0,0,13.39,388.71,32.065,-0.42,0,0,0,0,271.55,0,0,0,0,0,0,0,0,0,0,0,0,0,1,1,0,0,VALID,0,0,0,0,0,1,0,0,0,0,0,0,0,0,0,0,0,0,0,0,127.24,372.84,2,0,0.1,0.1,267,12.5,0.1,0.06,19.02,FLYING,CF1-F,0:/Integrated Flight Computer/aircraft/cf1_f_cfg.ks (inferred preloaded)
19.36,APPROACH,ILS_TRACK,66.89,73,6.11,2136.63,-7.01,7.48,12.6,270.01,-0.088,0,0,0,0,0,0,0,0,0,0,270,-4.938,0,0,-5.98,0,0,-4.94,270,0,0,0,0,0,13.22,387.68,32.039,-0.401,0,0,0,0,271.55,0,0,0,0,0,0,0,0,0,0,0,0,0,1,1,0,0,VALID,0,0,0,0,0,1,0,0,0,0,0,0,0,0,0,0,0,0,0,0,130.34,372.78,2,0,0.1,0.1,271,11.76,0.1,0.06,19.36,FLYING,CF1-F,0:/Integrated Flight Computer/aircraft/cf1_f_cfg.ks (inferred preloaded)
19.64,APPROACH,ILS_TRACK,67.12,73,5.88,2134.63,-7,7.24,12.33,270.01,-0.079,0,0,0,0,0,0,0,0,0,0,270.01,-4.934,0,0,-5.95,0,0,-4.93,270,0,0,0,0,0,13.08,386.83,32.017,-0.393,0,0,0,0,271.55,0,0,0,0,0,0,0,0,0,0,0,0,0,1,1,0,0,VALID,0,0,0,0,0,1,0,0,0,0,0,0,0,0,0,0,0,0,0,0,132.48,372.72,2,0,0.08,0.08,275,14.29,0.1,0.06,19.64,FLYING,CF1-F,0:/Integrated Flight Computer/aircraft/cf1_f_cfg.ks (inferred preloaded)
19.96,APPROACH,ILS_TRACK,67.4,73,5.6,2132.31,-7.05,6.86,11.97,270.01,-0.07,0,0,0,0,0,0,0,0,0,0,270.01,-4.929,0,0,-5.97,0,0,-4.93,270.02,0,0,0,0,0,12.91,385.83,31.992,-0.387,0,0,0,0,271.55,0,0,0,0,0,0,0,0,0,0,0,0,0,1,1,0,0,VALID,0,0,0,0,0,1,0,0,0,0,0,0,0,0,0,0,0,0,0,0,135.14,372.64,2,0,0.1,0.1,279,12.5,0.1,0.06,19.96,FLYING,CF1-F,0:/Integrated Flight Computer/aircraft/cf1_f_cfg.ks (inferred preloaded)
20.28,APPROACH,ILS_TRACK,67.71,73,5.29,2129.99,-7.18,6.54,11.71,270.01,-0.062,0,0,0,0,0,0,0,0,0,0,270.02,-4.924,0,0,-6.04,0,0,-4.92,270.04,0,0,0,0,0,12.74,384.82,31.967,-0.383,0,0,0,0,271.55,0,0,0,0,0,0,0,0,0,0,0,0,0,1,1,0,0,VALID,0,0,0,0,0,1,0,0,0,0,0,0,0,0,0,0,0,0,0,0,137.71,372.55,2,0,0.1,0.1,283,12.5,0.1,0.06,20.28,FLYING,CF1-F,0:/Integrated Flight Computer/aircraft/cf1_f_cfg.ks (inferred preloaded)
20.6,APPROACH,ILS_TRACK,68.03,73,4.97,2127.71,-7.25,6.73,11.94,270.01,-0.056,0,0,0,0,0,0,0,0,0,0,270.04,-4.919,0,0,-6.09,0,0,-4.92,270.01,0,0,0,0,0,12.57,383.86,31.942,-0.358,0,0,0,0,271.55,0,0,0,0,0,0,0,0,0,0,0,0,0,1,1,0,0,VALID,0,0,0,0,0,1,0,0,0,0,0,0,0,0,0,0,0,0,0,0,139.26,372.44,2,0,0.1,0.1,287,12.5,0.1,0.06,20.6,FLYING,CF1-F,0:/Integrated Flight Computer/aircraft/cf1_f_cfg.ks (inferred preloaded)
20.88,APPROACH,ILS_TRACK,68.3,73,4.7,2125.67,-7.24,6.66,11.85,270,-0.05,0,0,0,0,0,0,0,0,0,0,270.03,-4.915,0,0,-6.05,0,0,-4.92,270.03,0,0,0,0,0,12.43,382.99,31.919,-0.372,0,0,0,0,271.55,0,0,0,0,0,0,0,0,0,0,0,0,0,1,1,0,0,VALID,0,0,0,0,0,1,0,0,0,0,0,0,0,0,0,0,0,0,0,0,141.17,372.36,2,0,0.08,0.08,291,14.29,0.1,0.06,20.88,FLYING,CF1-F,0:/Integrated Flight Computer/aircraft/cf1_f_cfg.ks (inferred preloaded)
21.16,APPROACH,ILS_TRACK,68.59,73,4.41,2123.61,-7.25,6.52,11.69,270,-0.045,0,0,0,0,0,0,0,0,0,0,270.05,-4.911,0,0,-6.03,0,0,-4.91,270.04,0,0,0,0,0,12.27,382.1,31.897,-0.355,0,0,0,0,271.55,0,0,0,0,0,0,0,0,0,0,0,0,0,1,1,0,0,VALID,0,0,0,0,0,1,0,0,0,0,0,0,0,0,0,0,0,0,0,0,143.03,372.26,2,0,0.08,0.08,295,14.29,0.08,0.06,21.16,FLYING,CF1-F,0:/Integrated Flight Computer/aircraft/cf1_f_cfg.ks (inferred preloaded)
21.44,APPROACH,ILS_TRACK,68.88,73,4.12,2121.56,-7.26,6.38,11.54,270,-0.04,0,0,0,0,0,0,0,0,0,0,270.05,-4.906,0,0,-6.02,0,0,-4.91,270.03,0,0,0,0,0,12.12,381.22,31.875,-0.347,0,0,0,0,271.55,0,0,0,0,0,0,0,0,0,0,0,0,0,1,1,0,0,VALID,0,0,0,0,0,1,0,0,0,0,0,0,0,0,0,0,0,0,0,0,144.84,372.16,2,0,0.08,0.08,299,14.29,0.08,0.06,21.44,FLYING,CF1-F,0:/Integrated Flight Computer/aircraft/cf1_f_cfg.ks (inferred preloaded)
21.72,APPROACH,ILS_TRACK,69.19,73,3.81,2119.5,-7.28,6.24,11.39,270,-0.035,0,0,0,0,0,0,0,0,0,0,270.06,-4.902,0,0,-6.01,0,0,-4.9,270.07,0,0,0,0,0,11.97,380.34,31.852,-0.339,0,0,0,0,271.55,0,0,0,0,0,0,0,0,0,0,0,0,0,1,1,0,0,VALID,0,0,0,0,0,1,0,0,0,0,0,0,0,0,0,0,0,0,0,0,146.6,372.06,2,0,0.08,0.08,303,14.29,0.08,0.06,21.72,FLYING,CF1-F,0:/Integrated Flight Computer/aircraft/cf1_f_cfg.ks (inferred preloaded)
22,APPROACH,ILS_TRACK,69.5,73,3.5,2117.44,-7.29,6.1,11.24,270,-0.03,0,0,0,0,0,0,0,0,0,0,270.08,-4.897,0,0,-5.99,0,0,-4.9,270.06,0,0,0,0,0,11.81,379.46,31.83,-0.325,0,0,0,0,271.55,0,0,0,0,0,0,0,0,0,0,0,0,0,1,1,0,0,VALID,0,0,0,0,0,1,0,0,0,0,0,0,0,0,0,0,0,0,0,0,148.32,371.94,2,0,0.08,0.08,307,14.29,0.08,0.06,22,FLYING,CF1-F,0:/Integrated Flight Computer/aircraft/cf1_f_cfg.ks (inferred preloaded)
22.28,APPROACH,ILS_TRACK,69.83,73,3.17,2115.37,-7.31,5.96,11.08,270,-0.026,0,0,0,0,0,0,0,0,0,0,270.07,-4.893,0,0,-5.98,0,0,-4.89,270.1,0,0,0,0,0,11.65,378.58,31.807,-0.331,0,0,0,0,271.55,0,0,0,0,0,0,0,0,0,0,0,0,0,1,1,0,0,VALID,0,0,0,0,0,1,0,0,0,0,0,0,0,0,0,0,0,0,0,0,149.99,371.83,2,0,0.08,0.08,311,14.29,0.08,0.06,22.28,FLYING,CF1-F,0:/Integrated Flight Computer/aircraft/cf1_f_cfg.ks (inferred preloaded)
22.56,APPROACH,ILS_TRACK,70.16,73,2.84,2113.29,-7.33,5.82,10.93,270,-0.022,0,0,0,0,0,0,0,0,0,0,270.08,-4.888,0,0,-5.96,0,0,-4.89,270.08,0,0,0,0,0,11.49,377.7,31.784,-0.324,0,0,0,0,271.55,0,0,0,0,0,0,0,0,0,0,0,0,0,1,1,0,0,VALID,0,0,0,0,0,1,0,0,0,0,0,0,0,0,0,0,0,0,0,0,151.61,371.7,2,0,0.08,0.08,315,14.29,0.08,0.06,22.56,FLYING,CF1-F,0:/Integrated Flight Computer/aircraft/cf1_f_cfg.ks (inferred preloaded)
22.84,APPROACH,ILS_TRACK,70.5,73,2.5,2111.21,-7.35,5.67,10.77,270,-0.017,0,0,0,0,0,0,0,0,0,0,270.09,-4.884,0,0,-5.95,0,0,-4.88,270.11,0,0,0,0,0,11.33,376.82,31.761,-0.311,0,0,0,0,271.55,0,0,0,0,0,0,0,0,0,0,0,0,0,1,1,0,0,VALID,0,0,0,0,0,1,0,0,0,0,0,0,0,0,0,0,0,0,0,0,153.19,371.57,2,0,0.08,0.08,319,14.29,0.08,0.06,22.84,FLYING,CF1-F,0:/Integrated Flight Computer/aircraft/cf1_f_cfg.ks (inferred preloaded)
23.12,APPROACH,ILS_TRACK,70.85,73,2.15,2109.13,-7.36,5.53,10.62,270,-0.014,0,0,0,0,0,0,0,0,0,0,270.1,-4.88,0,0,-5.94,0,0,-4.88,270.1,0,0,0,0,0,11.17,375.94,31.738,-0.301,0,0,0,0,271.55,0,0,0,0,0,0,0,0,0,0,0,0,0,1,1,0,0,VALID,0,0,0,0,0,1,0,0,0,0,0,0,0,0,0,0,0,0,0,0,154.73,371.44,2,0,0.08,0.08,323,14.29,0.08,0.06,23.12,FLYING,CF1-F,0:/Integrated Flight Computer/aircraft/cf1_f_cfg.ks (inferred preloaded)
23.4,APPROACH,ILS_TRACK,71.21,73,1.79,2107.04,-7.38,5.38,10.46,270,-0.01,0,0,0,0,0,0,0,0,0,0,270.1,-4.875,0,0,-5.92,0,0,-4.88,270.1,0,0,0,0,0,11.01,375.06,31.715,-0.302,0,0,0,0,271.55,0,0,0,0,0,0,0,0,0,0,0,0,0,1,1,0,0,VALID,0,0,0,0,0,1,0,0,0,0,0,0,0,0,0,0,0,0,0,0,156.22,371.3,2,0,0.08,0.08,327,14.29,0.08,0.06,23.4,FLYING,CF1-F,0:/Integrated Flight Computer/aircraft/cf1_f_cfg.ks (inferred preloaded)
23.68,APPROACH,ILS_TRACK,71.57,73,1.43,2104.94,-7.4,5.24,10.3,270,-0.006,0,0,0,0,0,0,0,0,0,0,270.11,-4.871,0,0,-5.91,0,0,-4.87,270.11,0,0,0,0,0,10.84,374.18,31.692,-0.288,0,0,0,0,271.55,0,0,0,0,0,0,0,0,0,0,0,0,0,1,1,0,0,VALID,0,0,0,0,0,1,0,0,0,0,0,0,0,0,0,0,0,0,0,0,157.68,371.15,2,0,0.08,0.08,331,14.29,0.08,0.06,23.68,FLYING,CF1-F,0:/Integrated Flight Computer/aircraft/cf1_f_cfg.ks (inferred preloaded)
23.96,APPROACH,ILS_TRACK,71.95,73,1.05,2102.84,-7.43,5.09,10.15,270,-0.002,0,0,0,0,0,0,0,0,0,0,270.12,-4.867,0,0,-5.89,0,0,-4.87,270.12,0,0,0,0,0,10.67,373.3,31.669,-0.279,0,0,0,0,271.55,0,0,0,0,0,0,0,0,0,0,0,0,0,1,1,0,0,VALID,0,0,0,0,0,1,0,0,0,0,0,0,0,0,0,0,0,0,0,0,159.09,371,2,0,0.08,0.08,335,14.29,0.08,0.06,23.96,FLYING,CF1-F,0:/Integrated Flight Computer/aircraft/cf1_f_cfg.ks (inferred preloaded)
24.24,APPROACH,ILS_TRACK,72.33,73,0.67,2100.73,-7.45,4.95,9.99,270,0.002,0,0,0,0,0,0,0,0,0,0,270.12,-4.862,0,0,-5.88,0,0,-4.86,270.14,0,0,0,0,0,10.51,372.42,31.645,-0.278,0,0,0,0,271.55,0,0,0,0,0,0,0,0,0,0,0,0,0,1,1,0,0,VALID,0,0,0,0,0,1,0,0,0,0,0,0,0,0,0,0,0,0,0,0,160.47,370.84,2,0,0.08,0.08,339,14.29,0.08,0.06,24.24,FLYING,CF1-F,0:/Integrated Flight Computer/aircraft/cf1_f_cfg.ks (inferred preloaded)
24.52,APPROACH,ILS_TRACK,72.73,73,0.27,2098.62,-7.47,4.8,9.83,270,0.005,0,0,0,0,0,0,0,0,0,0,270.13,-4.858,0,0,-5.87,0,0,-4.86,270.15,0,0,0,0,0,10.34,371.54,31.622,-0.267,0,0,0,0,271.55,0,0,0,0,0,0,0,0,0,0,0,0,0,1,1,0,0,VALID,0,0,0,0,0,1,0,0,0,0,0,0,0,0,0,0,0,0,0,0,161.81,370.68,2,0,0.08,0.08,343,14.29,0.08,0.06,24.52,FLYING,CF1-F,0:/Integrated Flight Computer/aircraft/cf1_f_cfg.ks (inferred preloaded)
24.8,APPROACH,ILS_TRACK,73.12,73,-0.12,2096.5,-7.49,4.66,9.68,270,0.009,0,0,0,0,0,0,0,0,0,0,270.15,-4.853,0,0,-5.85,0,0,-4.85,270.14,0,0,0,0,0,10.17,370.67,31.598,-0.255,0,0,0,0,271.55,0,0,0,0,0,0,0,0,0,0,0,0,0,1,1,0,0,VALID,0,0,0,0,0,1,0,0,0,0,0,0,0,0,0,0,0,0,0,0,163.11,370.51,2,0,0.08,0.08,347,14.29,0.08,0.06,24.8,FLYING,CF1-F,0:/Integrated Flight Computer/aircraft/cf1_f_cfg.ks (inferred preloaded)
25.08,APPROACH,ILS_TRACK,73.53,73,-0.53,2094.38,-7.52,4.51,9.52,270,0.012,0,0,0,0,0,0,0,0,0,0,270.16,-4.849,0,0,-5.84,0,0,-4.85,270.15,0,0,0,0,0,10,369.79,31.574,-0.244,0,0,0,0,271.55,0,0,0,0,0,0,0,0,0,0,0,0,0,1,1,0,0,VALID,0,0,0,0,0,1,0,0,0,0,0,0,0,0,0,0,0,0,0,0,164.37,370.34,2,0,0.08,0.08,351,14.29,0.08,0.06,25.08,FLYING,CF1-F,0:/Integrated Flight Computer/aircraft/cf1_f_cfg.ks (inferred preloaded)
25.36,APPROACH,ILS_TRACK,73.95,73,-0.95,2092.24,-7.54,4.37,9.37,270,0.016,0,0,0,0,0,0,0,0,0,0,270.17,-4.845,0,0,-5.82,0,0,-4.85,270.15,0,0,0,0,0,9.83,368.91,31.55,-0.229,0,0,0,0,271.55,0,0,0,0,0,0,0,0,0,0,0,0,0,1,1,0,0,VALID,0,0,0,0,0,1,0,0,0,0,0,0,0,0,0,0,0,0,0,0,165.6,370.17,2,0,0.08,0.08,355,14.29,0.08,0.06,25.36,FLYING,CF1-F,0:/Integrated Flight Computer/aircraft/cf1_f_cfg.ks (inferred preloaded)
25.64,APPROACH,ILS_TRACK,74.37,73,-1.37,2090.1,-7.57,4.22,9.21,270,0.019,0,0,0,0,0,0,0,0,0,0,270.16,-4.84,0,0,-5.81,0,0,-4.84,270.18,0,0,0,0,0,9.66,368.03,31.526,-0.245,0,0,0,0,271.55,0,0,0,0,0,0,0,0,0,0,0,0,0,1,1,0,0,VALID,0,0,0,0,0,1,0,0,0,0,0,0,0,0,0,0,0,0,0,0,166.79,369.99,2,0,0.08,0.08,359,14.29,0.08,0.06,25.64,FLYING,CF1-F,0:/Integrated Flight Computer/aircraft/cf1_f_cfg.ks (inferred preloaded)
25.92,APPROACH,ILS_TRACK,74.8,73,-1.8,2087.96,-7.59,4.08,9.05,270,0.023,0,0,0,0,0,0,0,0,0,0,270.18,-4.836,0,0,-5.8,0,0,-4.84,270.17,0,0,0,0,0,9.49,367.16,31.502,-0.221,0,0,0,0,271.55,0,0,0,0,0,0,0,0,0,0,0,0,0,1,1,0,0,VALID,0,0,0,0,0,1,0,0,0,0,0,0,0,0,0,0,0,0,0,0,167.95,369.8,2,0,0.08,0.08,363,14.29,0.08,0.06,25.92,FLYING,CF1-F,0:/Integrated Flight Computer/aircraft/cf1_f_cfg.ks (inferred preloaded)
26.2,APPROACH,ILS_TRACK,75.23,73,-2.23,2085.8,-7.62,3.93,8.9,270,0.027,0,0,0,0,0,0,0,0,0,0,270.19,-4.831,0,0,-5.78,0,0,-4.83,270.17,0,0,0,0,0,9.31,366.28,31.478,-0.207,0,0,0,0,271.55,0,0,0,0,0,0,0,0,0,0,0,0,0,1,1,0,0,VALID,0,0,0,0,0,1,0,0,0,0,0,0,0,0,0,0,0,0,0,0,169.08,369.61,2,0,0.08,0.08,367,14.29,0.08,0.06,26.2,FLYING,CF1-F,0:/Integrated Flight Computer/aircraft/cf1_f_cfg.ks (inferred preloaded)
26.48,APPROACH,ILS_TRACK,75.68,73,-2.68,2083.64,-7.64,3.79,8.75,270,0.03,0,0,0,0,0,0,0,0,0,0,270.18,-4.827,0,0,-5.77,0,0,-4.83,270.19,0,0,0,0,0,9.14,365.4,31.453,-0.218,0,0,0,0,271.55,0,0,0,0,0,0,0,0,0,0,0,0,0,1,1,0,0,VALID,0,0,0,0,0,1,0,0,0,0,0,0,0,0,0,0,0,0,0,0,170.17,369.42,2,0,0.08,0.08,371,14.29,0.08,0.06,26.48,FLYING,CF1-F,0:/Integrated Flight Computer/aircraft/cf1_f_cfg.ks (inferred preloaded)
26.78,APPROACH,ILS_TRACK,76.16,73,-3.16,2081.32,-7.67,3.64,8.59,270,0.034,0,0,0,0,0,0,0,0,0,0,270.2,-4.822,0,0,-5.75,0,0,-4.82,270.21,0,0,0,0,0,8.95,364.46,31.427,-0.204,0,0,0,0,271.55,0,0,0,0,0,0,0,0,0,0,0,0,0,1,1,0,0,VALID,0,0,0,0,0,1,0,0,0,0,0,0,0,0,0,0,0,0,0,0,171.46,369.21,2,0,0.1,0.1,375,13.33,0.1,0.06,26.78,FLYING,CF1-F,0:/Integrated Flight Computer/aircraft/cf1_f_cfg.ks (inferred preloaded)
27.08,APPROACH,ILS_TRACK,76.65,73,-3.65,2078.98,-7.7,3.49,8.42,270,0.039,0,0,0,0,0,0,0,0,0,0,270.2,-4.818,0,0,-5.74,0,0,-4.82,270.21,0,0,0,0,0,8.76,363.52,31.4,-0.196,0,0,0,0,271.55,0,0,0,0,0,0,0,0,0,0,0,0,0,1,1,0,0,VALID,0,0,0,0,0,1,0,0,0,0,0,0,0,0,0,0,0,0,0,0,172.72,368.99,2,0,0.08,0.08,379,13.33,0.1,0.06,27.08,FLYING,CF1-F,0:/Integrated Flight Computer/aircraft/cf1_f_cfg.ks (inferred preloaded)
27.4,APPROACH,ILS_TRACK,77.19,73,-4.19,2076.49,-7.73,3.32,8.24,270,0.044,0,0,0,0,0,0,0,0,0,0,270.21,-4.813,0,0,-5.72,0,0,-4.81,270.23,0,0,0,0,0,8.56,362.52,31.372,-0.195,0,0,0,0,271.55,0,0,0,0,0,0,0,0,0,0,0,0,0,1,1,0,0,VALID,0,0,0,0,0,1,0,0,0,0,0,0,0,0,0,0,0,0,0,0,175.23,368.75,2,0,0.1,0.1,383,12.5,0.1,0.06,27.4,FLYING,CF1-F,0:/Integrated Flight Computer/aircraft/cf1_f_cfg.ks (inferred preloaded)
27.7,APPROACH,ILS_TRACK,77.7,73,-4.7,2074.13,-7.77,3.17,8.08,270,0.048,0,0,0,0,0,0,0,0,0,0,270.23,-4.808,0,0,-5.71,0,0,-4.81,270.21,0,0,0,0,0,8.37,361.58,31.345,-0.169,0,0,0,0,271.55,0,0,0,0,0,0,0,0,0,0,0,0,0,1,1,0,0,VALID,0,0,0,0,0,1,0,0,0,0,0,0,0,0,0,0,0,0,0,0,176.37,368.52,2,0,0.08,0.08,387,13.33,0.1,0.06,27.7,FLYING,CF1-F,0:/Integrated Flight Computer/aircraft/cf1_f_cfg.ks (inferred preloaded)
28,APPROACH,ILS_TRACK,78.22,73,-5.22,2071.77,-7.8,3.02,7.92,270.01,0.052,0,0,0,0,0,0,0,0,0,0,270.23,-4.803,0,0,-5.69,0,0,-4.8,270.24,0,0,0,0,0,8.18,360.64,31.318,-0.169,0,0,0,0,271.55,0,0,0,0,0,0,0,0,0,0,0,0,0,1,1,0,0,VALID,0,0,0,0,0,1,0,0,0,0,0,0,0,0,0,0,0,0,0,0,177.47,368.28,2,0,0.1,0.1,391,13.33,0.1,0.06,28,FLYING,CF1-F,0:/Integrated Flight Computer/aircraft/cf1_f_cfg.ks (inferred preloaded)
28.3,APPROACH,ILS_TRACK,78.75,73,-5.75,2069.4,-7.83,2.88,7.76,270.01,0.058,0,0,0,0,0,0,0,0,0,0,270.24,-4.798,0,0,-5.68,0,0,-4.8,270.23,0,0,0,0,0,7.98,359.7,31.29,-0.16,0,0,0,0,271.55,0,0,0,0,0,0,0,0,0,0,0,0,0,1,1,0,0,VALID,0,0,0,0,0,1,0,0,0,0,0,0,0,0,0,0,0,0,0,0,178.54,368.04,2,0,0.08,0.08,395,13.33,0.1,0.06,28.3,FLYING,CF1-F,0:/Integrated Flight Computer/aircraft/cf1_f_cfg.ks (inferred preloaded)
28.62,APPROACH,ILS_TRACK,79.32,73,-6.32,2066.86,-7.87,2.72,7.6,270.01,0.063,0,0,0,0,0,0,0,0,0,0,270.25,-4.793,0,0,-5.67,0,0,-4.79,270.24,0,0,0,0,0,7.78,358.69,31.261,-0.152,0,0,0,0,271.55,0,0,0,0,0,0,0,0,0,0,0,0,0,1,1,0,0,VALID,0,0,0,0,0,1,0,0,0,0,0,0,0,0,0,0,0,0,0,0,178.7,367.78,2,0,0.1,0.1,399,12.5,0.1,0.06,28.62,FLYING,CF1-F,0:/Integrated Flight Computer/aircraft/cf1_f_cfg.ks (inferred preloaded)
28.9,APPROACH,ILS_TRACK,79.82,73,-6.82,2064.63,-7.9,2.59,7.45,270.01,0.068,0,0,0,0,0,0,0,0,0,0,270.26,-4.789,0,0,-5.65,0,0,-4.79,270.26,0,0,0,0,0,7.59,357.81,31.235,-0.143,0,0,0,0,271.55,0,0,0,0,0,0,0,0,0,0,0,0,0,1,1,0,0,VALID,0,0,0,0,0,1,0,0,0,0,0,0,0,0,0,0,0,0,0,0,179.51,367.55,2,0,0.08,0.08,403,14.29,0.1,0.06,28.9,FLYING,CF1-F,0:/Integrated Flight Computer/aircraft/cf1_f_cfg.ks (inferred preloaded)
29.18,APPROACH,ILS_TRACK,80.33,73,-7.33,2062.39,-7.93,2.46,7.31,270.01,0.073,0,0,0,0,0,0,0,0,0,0,270.27,-4.785,0,0,-5.64,0,0,-4.79,270.27,0,0,0,0,0,7.41,356.93,31.209,-0.126,0,0,0,0,271.55,0,0,0,0,0,0,0,0,0,0,0,0,0,1,1,0,0,VALID,0,0,0,0,0,1,0,0,0,0,0,0,0,0,0,0,0,0,0,0,180.3,367.32,2,0,0.08,0.08,407,14.29,0.08,0.06,29.18,FLYING,CF1-F,0:/Integrated Flight Computer/aircraft/cf1_f_cfg.ks (inferred preloaded)
29.46,APPROACH,ILS_TRACK,80.84,73,-7.84,2060.15,-7.97,2.32,7.17,270.02,0.078,0,0,0,0,0,0,0,0,0,0,270.27,-4.78,0,0,-5.63,0,0,-4.78,270.28,0,0,0,0,0,7.23,356.05,31.183,-0.129,0,0,0,0,271.55,0,0,0,0,0,0,0,0,0,0,0,0,0,1,1,0,0,VALID,0,0,0,0,0,1,0,0,0,0,0,0,0,0,0,0,0,0,0,0,181.06,367.08,2,0,0.08,0.08,411,14.29,0.08,0.06,29.46,FLYING,CF1-F,0:/Integrated Flight Computer/aircraft/cf1_f_cfg.ks (inferred preloaded)
29.74,APPROACH,ILS_TRACK,81.36,73,-8.36,2057.89,-8,2.19,7.03,270.02,0.083,0,0,0,0,0,0,0,0,0,0,270.29,-4.776,0,0,-5.62,0,0,-4.78,270.27,0,0,0,0,0,7.05,355.17,31.157,-0.114,0,0,0,0,271.55,0,0,0,0,0,0,0,0,0,0,0,0,0,1,1,0,0,VALID,0,0,0,0,0,1,0,0,0,0,0,0,0,0,0,0,0,0,0,0,181.8,366.85,2,0,0.08,0.08,415,14.29,0.08,0.06,29.74,FLYING,CF1-F,0:/Integrated Flight Computer/aircraft/cf1_f_cfg.ks (inferred preloaded)
30.04,APPROACH,ILS_TRACK,81.92,73,-8.92,2055.46,-8.03,2.06,6.88,270.02,0.089,0,0,0,0,0,0,0,0,0,0,270.29,-4.771,0,0,-5.6,0,0,-4.77,270.29,0,0,0,0,0,6.85,354.23,31.129,-0.112,0,0,0,0,271.55,0,0,0,0,0,0,0,0,0,0,0,0,0,1,1,0,0,VALID,0,0,0,0,0,1,0,0,0,0,0,0,0,0,0,0,0,0,0,0,182.73,366.59,2,0,0.08,0.08,419,13.33,0.1,0.06,30.04,FLYING,CF1-F,0:/Integrated Flight Computer/aircraft/cf1_f_cfg.ks (inferred preloaded)
30.34,APPROACH,ILS_TRACK,82.49,73,-9.49,2053.02,-8.07,1.92,6.74,270.02,0.095,0,0,0,0,0,0,0,0,0,0,270.28,-4.766,0,0,-5.59,0,0,-4.77,270.3,0,0,0,0,0,6.67,353.28,31.1,-0.121,0,0,0,0,271.55,0,0,0,0,0,0,0,0,0,0,0,0,0,1,1,0,0,VALID,0,0,0,0,0,1,0,0,0,0,0,0,0,0,0,0,0,0,0,0,183.63,366.32,2,0,0.08,0.08,423,13.33,0.1,0.06,30.34,FLYING,CF1-F,0:/Integrated Flight Computer/aircraft/cf1_f_cfg.ks (inferred preloaded)
30.62,APPROACH,ILS_TRACK,83.02,73,-10.02,2050.73,-8.11,1.79,6.6,270.03,0.102,0,0,0,0,0,0,0,0,0,0,270.31,-4.762,0,0,-5.58,0,0,-4.76,270.3,0,0,0,0,0,6.48,352.4,31.074,-0.091,0,0,0,0,271.55,0,0,0,0,0,0,0,0,0,0,0,0,0,1,1,0,0,VALID,0,0,0,0,0,1,0,0,0,0,0,0,0,0,0,0,0,0,0,0,184.29,366.08,2,0,0.08,0.08,427,14.29,0.08,0.06,30.62,FLYING,CF1-F,0:/Integrated Flight Computer/aircraft/cf1_f_cfg.ks (inferred preloaded)
30.9,APPROACH,ILS_TRACK,83.56,73,-10.56,2048.43,-8.14,1.67,6.47,270.03,0.108,0,0,0,0,0,0,0,0,0,0,270.3,-4.758,0,0,-5.57,0,0,-4.76,270.33,0,0,0,0,0,6.3,351.52,31.047,-0.096,0,0,0,0,271.55,0,0,0,0,0,0,0,0,0,0,0,0,0,1,1,0,0,VALID,0,0,0,0,0,1,0,0,0,0,0,0,0,0,0,0,0,0,0,0,184.93,365.83,2,0,0.08,0.08,431,14.29,0.08,0.06,30.9,FLYING,CF1-F,0:/Integrated Flight Computer/aircraft/cf1_f_cfg.ks (inferred preloaded)
31.18,APPROACH,ILS_TRACK,84.1,73,-11.1,2046.13,-8.18,1.54,6.33,270.03,0.114,0,0,0,0,0,0,0,0,0,0,270.33,-4.753,0,0,-5.55,0,0,-4.75,270.3,0,0,0,0,0,6.11,350.63,31.019,-0.074,0,0,0,0,271.55,0,0,0,0,0,0,0,0,0,0,0,0,0,1,1,0,0,VALID,0,0,0,0,0,1,0,0,0,0,0,0,0,0,0,0,0,0,0,0,185.54,365.57,2,0,0.08,0.08,435,14.29,0.08,0.06,31.18,FLYING,CF1-F,0:/Integrated Flight Computer/aircraft/cf1_f_cfg.ks (inferred preloaded)
31.48,APPROACH,ILS_TRACK,84.69,73,-11.69,2043.64,-8.22,1.41,6.19,270.04,0.12,0,0,0,0,0,0,0,0,0,0,270.32,-4.748,0,0,-5.54,0,0,-4.75,270.31,0,0,0,0,0,5.92,349.68,30.99,-0.076,0,0,0,0,271.55,0,0,0,0,0,0,0,0,0,0,0,0,0,1,1,0,0,VALID,0,0,0,0,0,1,0,0,0,0,0,0,0,0,0,0,0,0,0,0,186.35,365.3,2,0,0.1,0.1,439,13.33,0.1,0.06,31.48,FLYING,CF1-F,0:/Integrated Flight Computer/aircraft/cf1_f_cfg.ks (inferred preloaded)
31.78,APPROACH,ILS_TRACK,85.29,73,-12.29,2041.15,-8.26,1.28,6.05,270.04,0.127,0,0,0,0,0,0,0,0,0,0,270.34,-4.744,0,0,-5.53,0,0,-4.74,270.32,0,0,0,0,0,5.72,348.73,30.961,-0.058,0,0,0,0,271.55,0,0,0,0,0,0,0,0,0,0,0,0,0,1,1,0,0,VALID,0,0,0,0,0,1,0,0,0,0,0,0,0,0,0,0,0,0,0,0,187.13,365.02,2,0,0.08,0.08,443,13.33,0.1,0.06,31.78,FLYING,CF1-F,0:/Integrated Flight Computer/aircraft/cf1_f_cfg.ks (inferred preloaded)
32.12,APPROACH,ILS_TRACK,85.97,73,-12.97,2038.31,-8.3,1.13,5.89,270.04,0.136,0,0,0,0,0,0,0,0,0,0,270.34,-4.738,0,0,-5.52,0,0,-4.74,270.36,0,0,0,0,0,5.5,347.65,30.927,-0.062,0,0,0,0,271.55,0,0,0,0,0,0,0,0,0,0,0,0,0,1,1,0,0,VALID,0,0,0,0,0,1,0,0,0,0,0,0,0,0,0,0,0,0,0,0,189.41,364.71,2,0,0.1,0.1,447,11.76,0.1,0.06,32.12,FLYING,CF1-F,0:/Integrated Flight Computer/aircraft/cf1_f_cfg.ks (inferred preloaded)
32.4,APPROACH,ILS_TRACK,86.54,73,-13.54,2035.96,-8.34,1.01,5.76,270.05,0.142,0,0,0,0,0,0,0,0,0,0,270.35,-4.734,0,0,-5.51,0,0,-4.73,270.36,0,0,0,0,0,5.32,346.76,30.899,-0.055,0,0,0,0,271.55,0,0,0,0,0,0,0,0,0,0,0,0,0,1,1,0,0,VALID,0,0,0,0,0,1,0,0,0,0,0,0,0,0,0,0,0,0,0,0,189.89,364.44,2,0,0.08,0.08,451,14.29,0.1,0.06,32.4,FLYING,CF1-F,0:/Integrated Flight Computer/aircraft/cf1_f_cfg.ks (inferred preloaded)
32.68,APPROACH,ILS_TRACK,87.11,73,-14.11,2033.6,-8.38,0.89,5.64,270.05,0.149,0,0,0,0,0,0,0,0,0,0,270.36,-4.729,0,0,-5.5,0,0,-4.73,270.36,0,0,0,0,0,5.14,345.87,30.871,-0.044,0,0,0,0,271.55,0,0,0,0,0,0,0,0,0,0,0,0,0,1,1,0,0,VALID,0,0,0,0,0,1,0,0,0,0,0,0,0,0,0,0,0,0,0,0,190.36,364.17,2,0,0.08,0.08,455,14.29,0.08,0.06,32.68,FLYING,CF1-F,0:/Integrated Flight Computer/aircraft/cf1_f_cfg.ks (inferred preloaded)
32.96,APPROACH,ILS_TRACK,87.69,73,-14.69,2031.22,-8.42,0.77,5.51,270.06,0.156,0,0,0,0,0,0,0,0,0,0,270.36,-4.725,0,0,-5.48,0,0,-4.73,270.36,0,0,0,0,0,4.96,344.98,30.843,-0.044,0,0,0,0,271.55,0,0,0,0,0,0,0,0,0,0,0,0,0,1,1,0,0,VALID,0,0,0,0,0,1,0,0,0,0,0,0,0,0,0,0,0,0,0,0,190.81,363.9,2,0,0.08,0.08,459,14.29,0.08,0.06,32.96,FLYING,CF1-F,0:/Integrated Flight Computer/aircraft/cf1_f_cfg.ks (inferred preloaded)
33.24,APPROACH,ILS_TRACK,88.27,73,-15.27,2028.84,-8.46,0.66,5.39,270.06,0.163,0,0,0,0,0,0,0,0,0,0,270.36,-4.72,0,0,-5.47,0,0,-4.72,270.37,0,0,0,0,0,4.78,344.08,30.815,-0.037,0,0,0,0,271.55,0,0,0,0,0,0,0,0,0,0,0,0,0,1,1,0,0,VALID,0,0,0,0,0,1,0,0,0,0,0,0,0,0,0,0,0,0,0,0,191.24,363.63,2,0,0.08,0.08,463,14.29,0.08,0.06,33.24,FLYING,CF1-F,0:/Integrated Flight Computer/aircraft/cf1_f_cfg.ks (inferred preloaded)
33.52,APPROACH,ILS_TRACK,88.86,73,-15.86,2026.45,-8.5,0.55,5.27,270.06,0.169,0,0,0,0,0,0,0,0,0,0,270.38,-4.716,0,0,-5.46,0,0,-4.72,270.38,0,0,0,0,0,4.6,343.19,30.786,-0.025,0,0,0,0,271.55,0,0,0,0,0,0,0,0,0,0,0,0,0,1,1,0,0,VALID,0,0,0,0,0,1,0,0,0,0,0,0,0,0,0,0,0,0,0,0,191.66,363.36,2,0,0.08,0.08,467,14.29,0.08,0.06,33.52,FLYING,CF1-F,0:/Integrated Flight Computer/aircraft/cf1_f_cfg.ks (inferred preloaded)
33.8,APPROACH,ILS_TRACK,89.45,73,-16.45,2024.04,-8.54,0.43,5.15,270.07,0.175,0,0,0,0,0,0,0,0,0,0,270.39,-4.711,0,0,-5.45,0,0,-4.71,270.37,0,0,0,0,0,4.43,342.29,30.757,-0.014,0,0,0,0,271.55,0,0,0,0,0,0,0,0,0,0,0,0,0,1,1,0,0,VALID,0,0,0,0,0,1,0,0,0,0,0,0,0,0,0,0,0,0,0,0,192.06,363.08,2,0,0.08,0.08,471,14.29,0.08,0.06,33.8,FLYING,CF1-F,0:/Integrated Flight Computer/aircraft/cf1_f_cfg.ks (inferred preloaded)
34.08,APPROACH,ILS_TRACK,90.04,73,-17.04,2021.63,-8.58,0.32,5.03,270.07,0.181,0,0,0,0,0,0,0,0,0,0,270.39,-4.707,0,0,-5.44,0,0,-4.71,270.39,0,0,0,0,0,4.25,341.39,30.728,-0.009,0,0,0,0,271.55,0,0,0,0,0,0,0,0,0,0,0,0,0,1,1,0,0,VALID,0,0,0,0,0,1,0,0,0,0,0,0,0,0,0,0,0,0,0,0,192.45,362.81,2,0,0.08,0.08,475,14.29,0.08,0.06,34.08,FLYING,CF1-F,0:/Integrated Flight Computer/aircraft/cf1_f_cfg.ks (inferred preloaded)
34.36,APPROACH,ILS_TRACK,90.64,73,-17.64,2019.2,-8.62,0.22,4.92,270.08,0.187,0,0,0,0,0,0,0,0,0,0,270.4,-4.702,0,0,-5.43,0,0,-4.7,270.39,0,0,0,0,0,4.07,340.49,30.699,-0.001,0,0,0,0,271.55,0,0,0,0,0,0,0,0,0,0,0,0,0,1,1,0,0,VALID,0,0,0,0,0,1,0,0,0,0,0,0,0,0,0,0,0,0,0,0,192.82,362.53,2,0,0.08,0.08,479,14.29,0.08,0.06,34.36,FLYING,CF1-F,0:/Integrated Flight Computer/aircraft/cf1_f_cfg.ks (inferred preloaded)
34.64,APPROACH,ILS_TRACK,91.24,73,-18.24,2016.76,-8.66,0.11,4.8,270.08,0.192,0,0,0,0,0,0,0,0,0,0,270.41,-4.698,0,0,-5.42,0,0,-4.7,270.4,0,0,0,0,0,3.9,339.59,30.67,0.005,0,0,0,0,271.55,0,0,0,0,0,0,0,0,0,0,0,0,0,1,1,0,0,VALID,0,0,0,0,0,1,0,0,0,0,0,0,0,0,0,0,0,0,0,0,193.19,362.25,2,0,0.08,0.08,483,14.29,0.08,0.06,34.64,FLYING,CF1-F,0:/Integrated Flight Computer/aircraft/cf1_f_cfg.ks (inferred preloaded)
34.92,APPROACH,ILS_TRACK,91.84,73,-18.84,2014.31,-8.7,0,4.69,270.09,0.197,0,0,0,0,0,0,0,0,0,0,270.41,-4.693,0,0,-5.42,0,0,-4.69,270.41,0,0,0,0,0,3.73,338.69,30.64,0.007,0,0,0,0,271.55,0,0,0,0,0,0,0,0,0,0,0,0,0,1,1,0,0,VALID,0,0,0,0,0,1,0,0,0,0,0,0,0,0,0,0,0,0,0,0,193.53,361.97,2,0,0.08,0.08,487,14.29,0.08,0.06,34.92,FLYING,CF1-F,0:/Integrated Flight Computer/aircraft/cf1_f_cfg.ks (inferred preloaded)
35.2,APPROACH,ILS_TRACK,92.45,73,-19.45,2011.85,-8.75,-0.1,4.58,270.09,0.203,0,0,0,0,0,0,0,0,0,0,270.4,-4.689,0,0,-5.41,0,0,-4.69,270.42,0,0,0,0,0,3.56,337.78,30.611,0.001,0,0,0,0,271.55,0,0,0,0,0,0,0,0,0,0,0,0,0,1,1,0,0,VALID,0,0,0,0,0,1,0,0,0,0,0,0,0,0,0,0,0,0,0,0,193.87,361.69,2,0,0.08,0.08,491,14.29,0.08,0.06,35.2,FLYING,CF1-F,0:/Integrated Flight Computer/aircraft/cf1_f_cfg.ks (inferred preloaded)
35.48,APPROACH,ILS_TRACK,93.05,73,-20.05,2009.38,-8.79,-0.2,4.47,270.1,0.209,0,0,0,0,0,0,0,0,0,0,270.42,-4.684,0,0,-5.4,0,0,-4.68,270.41,0,0,0,0,0,3.39,336.88,30.581,0.019,0,0,0,0,271.55,0,0,0,0,0,0,0,0,0,0,0,0,0,1,1,0,0,VALID,0,0,0,0,0,1,0,0,0,0,0,0,0,0,0,0,0,0,0,0,194.19,361.41,2,0,0.08,0.08,495,14.29,0.08,0.06,35.48,FLYING,CF1-F,0:/Integrated Flight Computer/aircraft/cf1_f_cfg.ks (inferred preloaded)
35.76,APPROACH,ILS_TRACK,93.66,73,-20.66,2006.89,-8.83,-0.3,4.36,270.1,0.213,0,0,0,0,0,0,0,0,0,0,270.42,-4.68,0,0,-5.39,0,0,-4.68,270.41,0,0,0,0,0,3.22,335.97,30.551,0.02,0,0,0,0,271.55,0,0,0,0,0,0,0,0,0,0,0,0,0,1,1,0,0,VALID,0,0,0,0,0,1,0,0,0,0,0,0,0,0,0,0,0,0,0,0,194.5,361.13,2,0,0.08,0.08,499,14.29,0.08,0.06,35.76,FLYING,CF1-F,0:/Integrated Flight Computer/aircraft/cf1_f_cfg.ks (inferred preloaded)
36.04,APPROACH,ILS_TRACK,94.28,73,-21.28,2004.4,-8.87,-0.4,4.26,270.11,0.218,0,0,0,0,0,0,0,0,0,0,270.44,-4.675,0,0,-5.38,0,0,-4.68,270.41,0,0,0,0,0,3.05,335.06,30.521,0.038,0,0,0,0,271.55,0,0,0,0,0,0,0,0,0,0,0,0,0,1,1,0,0,VALID,0,0,0,0,0,1,0,0,0,0,0,0,0,0,0,0,0,0,0,0,194.79,360.85,2,0,0.08,0.08,503,14.29,0.08,0.06,36.04,FLYING,CF1-F,0:/Integrated Flight Computer/aircraft/cf1_f_cfg.ks (inferred preloaded)
36.32,APPROACH,ILS_TRACK,94.89,73,-21.89,2001.89,-8.92,-0.5,4.15,270.11,0.222,0,0,0,0,0,0,0,0,0,0,270.44,-4.671,0,0,-5.37,0,0,-4.67,270.42,0,0,0,0,0,2.89,334.15,30.49,0.037,0,0,0,0,271.55,0,0,0,0,0,0,0,0,0,0,0,0,0,1,1,0,0,VALID,0,0,0,0,0,1,0,0,0,0,0,0,0,0,0,0,0,0,0,0,195.08,360.57,2,0,0.08,0.08,507,14.29,0.08,0.06,36.32,FLYING,CF1-F,0:/Integrated Flight Computer/aircraft/cf1_f_cfg.ks (inferred preloaded)
36.6,APPROACH,ILS_TRACK,95.51,73,-22.51,1999.37,-8.96,-0.6,4.05,270.12,0.227,0,0,0,0,0,0,0,0,0,0,270.44,-4.666,0,0,-5.36,0,0,-4.67,270.44,0,0,0,0,0,2.73,333.23,30.46,0.036,0,0,0,0,271.55,0,0,0,0,0,0,0,0,0,0,0,0,0,1,1,0,0,VALID,0,0,0,0,0,1,0,0,0,0,0,0,0,0,0,0,0,0,0,0,195.35,360.29,2,0,0.08,0.08,511,14.29,0.08,0.06,36.6,FLYING,CF1-F,0:/Integrated Flight Computer/aircraft/cf1_f_cfg.ks (inferred preloaded)
36.88,APPROACH,ILS_TRACK,96.13,73,-23.13,1996.83,-9.01,-0.69,3.95,270.12,0.232,0,0,0,0,0,0,0,0,0,0,270.44,-4.662,0,0,-5.35,0,0,-4.66,270.45,0,0,0,0,0,2.56,332.32,30.429,0.039,0,0,0,0,271.55,0,0,0,0,0,0,0,0,0,0,0,0,0,1,1,0,0,VALID,0,0,0,0,0,1,0,0,0,0,0,0,0,0,0,0,0,0,0,0,195.61,360.01,2,0,0.08,0.08,515,14.29,0.08,0.06,36.88,FLYING,CF1-F,0:/Integrated Flight Computer/aircraft/cf1_f_cfg.ks (inferred preloaded)
37.16,APPROACH,ILS_TRACK,96.76,73,-23.76,1994.29,-9.05,-0.79,3.85,270.13,0.236,0,0,0,0,0,0,0,0,0,0,270.45,-4.657,0,0,-5.34,0,0,-4.66,270.44,0,0,0,0,0,2.41,331.4,30.398,0.048,0,0,0,0,271.55,0,0,0,0,0,0,0,0,0,0,0,0,0,1,1,0,0,VALID,0,0,0,0,0,1,0,0,0,0,0,0,0,0,0,0,0,0,0,0,195.86,359.73,2,0,0.08,0.08,519,14.29,0.08,0.06,37.16,FLYING,CF1-F,0:/Integrated Flight Computer/aircraft/cf1_f_cfg.ks (inferred preloaded)
37.44,APPROACH,ILS_TRACK,97.38,73,-24.38,1991.73,-9.1,-0.88,3.75,270.13,0.239,0,0,0,0,0,0,0,0,0,0,270.44,-4.652,0,0,-5.34,0,0,-4.65,270.45,0,0,0,0,0,2.25,330.48,30.367,0.041,0,0,0,0,271.55,0,0,0,0,0,0,0,0,0,0,0,0,0,1,1,0,0,VALID,0,0,0,0,0,1,0,0,0,0,0,0,0,0,0,0,0,0,0,0,196.1,359.44,2,0,0.08,0.08,523,14.29,0.08,0.06,37.44,FLYING,CF1-F,0:/Integrated Flight Computer/aircraft/cf1_f_cfg.ks (inferred preloaded)
37.72,APPROACH,ILS_TRACK,98.01,73,-25.01,1989.16,-9.14,-0.97,3.66,270.14,0.242,0,0,0,0,0,0,0,0,0,0,270.46,-4.648,0,0,-5.33,0,0,-4.65,270.45,0,0,0,0,0,2.09,329.55,30.335,0.059,0,0,0,0,271.55,0,0,0,0,0,0,0,0,0,0,0,0,0,1,1,0,0,VALID,0,0,0,0,0,1,0,0,0,0,0,0,0,0,0,0,0,0,0,0,196.34,359.16,2,0,0.08,0.08,527,14.29,0.08,0.06,37.72,FLYING,CF1-F,0:/Integrated Flight Computer/aircraft/cf1_f_cfg.ks (inferred preloaded)
38,APPROACH,ILS_TRACK,98.64,73,-25.64,1986.58,-9.19,-1.06,3.56,270.14,0.246,0,0,0,0,0,0,0,0,0,0,270.44,-4.643,0,0,-5.32,0,0,-4.64,270.47,0,0,0,0,0,1.94,328.63,30.304,0.044,0,0,0,0,271.55,0,0,0,0,0,0,0,0,0,0,0,0,0,1,1,0,0,VALID,0,0,0,0,0,1,0,0,0,0,0,0,0,0,0,0,0,0,0,0,196.56,358.88,2,0,0.08,0.08,531,14.29,0.08,0.06,38,FLYING,CF1-F,0:/Integrated Flight Computer/aircraft/cf1_f_cfg.ks (inferred preloaded)
38.28,APPROACH,ILS_TRACK,99.27,73,-26.27,1983.99,-9.23,-1.14,3.47,270.15,0.249,0,0,0,0,0,0,0,0,0,0,270.46,-4.638,0,0,-5.31,0,0,-4.64,270.47,0,0,0,0,0,1.79,327.7,30.272,0.06,0,0,0,0,271.55,0,0,0,0,0,0,0,0,0,0,0,0,0,1,1,0,0,VALID,0,0,0,0,0,1,0,0,0,0,0,0,0,0,0,0,0,0,0,0,196.77,358.6,2,0,0.08,0.08,535,14.29,0.08,0.06,38.28,FLYING,CF1-F,0:/Integrated Flight Computer/aircraft/cf1_f_cfg.ks (inferred preloaded)
38.56,APPROACH,ILS_TRACK,99.91,73,-26.91,1981.38,-9.28,-1.23,3.38,270.16,0.252,0,0,0,0,0,0,0,0,0,0,270.47,-4.634,0,0,-5.31,0,0,-4.63,270.46,0,0,0,0,0,1.64,326.77,30.24,0.068,0,0,0,0,271.55,0,0,0,0,0,0,0,0,0,0,0,0,0,1,1,0,0,VALID,0,0,0,0,0,1,0,0,0,0,0,0,0,0,0,0,0,0,0,0,196.97,358.32,2,0,0.08,0.08,539,14.29,0.08,0.06,38.56,FLYING,CF1-F,0:/Integrated Flight Computer/aircraft/cf1_f_cfg.ks (inferred preloaded)
38.84,APPROACH,ILS_TRACK,100.55,73,-27.55,1978.76,-9.32,-1.32,3.29,270.16,0.253,0,0,0,0,0,0,0,0,0,0,270.47,-4.629,0,0,-5.3,0,0,-4.63,270.45,0,0,0,0,0,1.5,325.84,30.208,0.069,0,0,0,0,271.55,0,0,0,0,0,0,0,0,0,0,0,0,0,1,1,0,0,VALID,0,0,0,0,0,1,0,0,0,0,0,0,0,0,0,0,0,0,0,0,197.17,358.04,2,0,0.08,0.08,543,14.29,0.08,0.06,38.84,FLYING,CF1-F,0:/Integrated Flight Computer/aircraft/cf1_f_cfg.ks (inferred preloaded)
39.12,APPROACH,ILS_TRACK,101.18,73,-28.18,1976.13,-9.37,-1.4,3.2,270.17,0.254,0,0,0,0,0,0,0,0,0,0,270.47,-4.624,0,0,-5.29,0,0,-4.62,270.48,0,0,0,0,0,1.35,324.9,30.175,0.066,0,0,0,0,271.55,0,0,0,0,0,0,0,0,0,0,0,0,0,1,1,0,0,VALID,0,0,0,0,0,1,0,0,0,0,0,0,0,0,0,0,0,0,0,0,197.35,357.76,2,0,0.08,0.08,547,14.29,0.08,0.06,39.12,FLYING,CF1-F,0:/Integrated Flight Computer/aircraft/cf1_f_cfg.ks (inferred preloaded)
39.4,APPROACH,ILS_TRACK,101.82,73,-28.82,1973.49,-9.42,-1.48,3.12,270.17,0.259,0,0,0,0,0,0,0,0,0,0,270.46,-4.62,0,0,-5.28,0,0,-4.62,270.49,0,0,0,0,0,1.21,323.96,30.143,0.055,0,0,0,0,271.55,0,0,0,0,0,0,0,0,0,0,0,0,0,1,1,0,0,VALID,0,0,0,0,0,1,0,0,0,0,0,0,0,0,0,0,0,0,0,0,197.53,357.48,2,0,0.08,0.08,551,14.29,0.08,0.06,39.4,FLYING,CF1-F,0:/Integrated Flight Computer/aircraft/cf1_f_cfg.ks (inferred preloaded)
39.68,APPROACH,ILS_TRACK,102.47,73,-29.47,1970.83,-9.46,-1.56,3.03,270.18,0.263,0,0,0,0,0,0,0,0,0,0,270.48,-4.615,0,0,-5.28,0,0,-4.62,270.51,0,0,0,0,0,1.07,323.02,30.11,0.077,0,0,0,0,271.55,0,0,0,0,0,0,0,0,0,0,0,0,0,1,1,0,0,VALID,0,0,0,0,0,1,0,0,0,0,0,0,0,0,0,0,0,0,0,0,197.7,357.2,2,0,0.08,0.08,555,14.29,0.08,0.06,39.68,FLYING,CF1-F,0:/Integrated Flight Computer/aircraft/cf1_f_cfg.ks (inferred preloaded)
39.96,APPROACH,ILS_TRACK,103.11,73,-30.11,1968.16,-9.51,-1.64,2.95,270.18,0.265,0,0,0,0,0,0,0,0,0,0,270.48,-4.61,0,0,-5.27,0,0,-4.61,270.49,0,0,0,0,0,0.94,322.08,30.077,0.083,0,0,0,0,271.55,0,0,0,0,0,0,0,0,0,0,0,0,0,1,1,0,0,VALID,0,0,0,0,0,1,0,0,0,0,0,0,0,0,0,0,0,0,0,0,197.86,356.92,2,0,0.08,0.08,559,14.29,0.08,0.06,39.96,FLYING,CF1-F,0:/Integrated Flight Computer/aircraft/cf1_f_cfg.ks (inferred preloaded)
40.24,APPROACH,ILS_TRACK,103.75,73,-30.75,1965.47,-9.56,-1.72,2.86,270.19,0.265,0,0,0,0,0,0,0,0,0,0,270.49,-4.606,0,0,-5.26,0,0,-4.61,270.47,0,0,0,0,0,0.81,321.13,30.044,0.086,0,0,0,0,271.55,0,0,0,0,0,0,0,0,0,0,0,0,0,1,1,0,0,VALID,0,0,0,0,0,1,0,0,0,0,0,0,0,0,0,0,0,0,0,0,198.01,356.64,2,0,0.08,0.08,563,14.29,0.08,0.06,40.24,FLYING,CF1-F,0:/Integrated Flight Computer/aircraft/cf1_f_cfg.ks (inferred preloaded)
40.52,APPROACH,ILS_TRACK,104.4,73,-31.4,1962.78,-9.61,-1.8,2.78,270.19,0.267,0,0,0,0,0,0,0,0,0,0,270.48,-4.601,0,0,-5.26,0,0,-4.6,270.49,0,0,0,0,0,0.67,320.18,30.011,0.081,0,0,0,0,271.55,0,0,0,0,0,0,0,0,0,0,0,0,0,1,1,0,0,VALID,0,0,0,0,0,1,0,0,0,0,0,0,0,0,0,0,0,0,0,0,198.15,356.37,2,0,0.08,0.08,567,14.29,0.08,0.06,40.52,FLYING,CF1-F,0:/Integrated Flight Computer/aircraft/cf1_f_cfg.ks (inferred preloaded)
40.82,APPROACH,ILS_TRACK,105.09,73,-32.09,1959.87,-9.65,-1.88,2.7,270.2,0.268,0,0,0,0,0,0,0,0,0,0,270.48,-4.596,0,0,-5.25,0,0,-4.6,270.48,0,0,0,0,0,0.54,319.16,29.975,0.085,0,0,0,0,271.55,0,0,0,0,0,0,0,0,0,0,0,0,0,2,2,0,0,VALID,0,0,0,0,0,1,0,0,0,0,0,0,0,0,0,0,0,0,0,0,198.47,356.07,2,0,0.1,0.1,571,13.33,0.1,0.06,40.82,FLYING,CF1-F,0:/Integrated Flight Computer/aircraft/cf1_f_cfg.ks (inferred preloaded)
41.12,APPROACH,ILS_TRACK,105.78,73,-32.78,1956.95,-9.69,-1.98,2.58,270.21,0.267,0,0,0,0,0,0,0,0,0,0,270.49,-4.591,0,0,-5.23,0,0,-4.59,270.49,0,0,0,0,0,0.4,318.14,29.939,0.095,0,0,0,0,271.55,0,0,0,0,0,0,0,0,0,0,0,0,0,2,2,0,0,VALID,0,0,0,0,0,1,0,0,0,0,0,0,0,0,0,0,0,0,0,0,198.77,355.78,2,0,0.08,0.08,575,13.33,0.1,0.06,41.12,FLYING,CF1-F,0:/Integrated Flight Computer/aircraft/cf1_f_cfg.ks (inferred preloaded)
