t_s,phase,subphase,ias_ms,vapp_ms,spd_err_ms,agl_m,vs_ms,pitch_deg,aoa_deg,hdg_deg,bank_deg,thr_cmd,thr_intg,aa_hdg_cmd_deg,aa_fpa_cmd_deg,ils_loc_m,ils_gs_m,ils_dist_km,loc_corr_deg,gs_corr_deg,flare_fpa_cmd,flare_tgt_vs,flare_frac,steer_hdg_deg,steer_blend,ro_loc_corr_deg,ro_hdg_err_deg,ro_yaw_tgt,ro_yaw_scale,ro_yaw_gate,yaw_cmd,roll_cmd,pitch_cmd,ro_pitch_tgt_deg,ro_pitch_err_deg,ro_pitch_ff,ro_roll_assist,flaps_cur,flaps_tgt,phase_el_s,status
1,APPROACH,FLY_TO_FIX,184.25,80.4,-103.85,1101.57,28.49,7.67,-0.65,90.45,-0.014,0,-20,213.27,2.006,0,0,0,0,0,0,0,0,90.45,0,0,0,0,0,0,0,0,0,0,0,0,0,0,0,1.04,FLYING
1.74,APPROACH,FLY_TO_FIX,184.9,80.8,-104.1,1122.14,28.63,7.59,-0.69,90.8,-9.677,0,-20,213.64,1.904,0,0,0,0,0,0,0,0,90.45,0,0,0,0,0,0,0,0,0,0,0,0,0,0,0,1.78,FLYING
2.44,APPROACH,FLY_TO_FIX,184.9,81.2,-103.7,1142,28.09,7.07,-0.88,91.34,-27.138,0,-20,214,1.804,0,0,0,0,0,0,0,0,90.45,0,0,0,0,0,0,0,0,0,0,0,0,0,0,0,2.48,FLYING
3.28,APPROACH,FLY_TO_FIX,184.49,81.6,-102.89,1164.81,25.51,8.21,1.56,94.58,-49.368,0,-20,214.4,1.697,0,0,0,0,0,0,0,0,90.45,0,0,0,0,0,0,0,0,0,0,0,0,0,0,0,3.34,FLYING
4.44,APPROACH,FLY_TO_FIX,179.75,82,-97.75,1200.61,33.59,12.26,8.56,112.79,-69.339,0,-20,214.99,1.526,0,0,0,0,0,0,0,0,90.45,0,0,0,0,0,0,0,0,0,0,0,0,0,0,0,4.51,FLYING
5.63,APPROACH,FLY_TO_FIX,171.22,82.4,-88.82,1242.41,35.56,13.38,10.03,130.23,-72.177,0.2,-20,215.64,1.319,0,0,0,0,0,0,0,0,90.45,0,0,0,0,0,0,0,0,0,0,0,0,0,0,0,5.7,FLYING
6.82,APPROACH,FLY_TO_FIX,161.42,82.8,-78.62,1283.89,33.64,12.99,11.03,148.15,-74.7,0.4,-20,216.28,1.11,0,0,0,0,0,0,0,0,90.45,0,0,0,0,0,0,0,0,0,0,0,0,0,0,0,6.89,FLYING
8.08,APPROACH,FLY_TO_FIX,152,83.2,-68.8,1322.81,28.27,11.39,11.2,165.55,-76.952,0.6,-20,216.88,0.911,0,0,0,0,0,0,0,0,90.45,0,0,0,0,0,0,0,0,0,0,0,0,0,1,1,8.11,FLYING
9.34,APPROACH,FLY_TO_FIX,143.8,83.6,-60.2,1353.65,21.37,9.32,9.07,178.9,-77.128,0.8,-20,217.42,0.747,0,0,0,0,0,0,0,0,90.45,0,0,0,0,0,0,0,0,0,0,0,0,0,1,1,9.41,FLYING
10.53,APPROACH,FLY_TO_FIX,139.45,84,-55.45,1375.4,16.12,7.89,6.16,186.87,-72.341,1,-20,217.8,0.634,0,0,0,0,0,0,0,0,90.45,0,0,0,0,0,0,0,0,0,0,0,0,0,1,1,10.6,FLYING
11.72,APPROACH,FLY_TO_FIX,137.19,84,-53.19,1391.81,12.21,6.55,4.31,193.19,-65.798,1,-20,218.12,0.549,0,0,0,0,0,0,0,0,90.45,0,0,0,0,0,0,0,0,0,0,0,0,0,1,1,11.79,FLYING
12.91,APPROACH,FLY_TO_FIX,136.28,84,-52.28,1404.18,9.22,5.35,3.13,198.35,-58.283,0.804,-20,218.37,0.486,0,0,0,0,0,0,0,0,90.45,0,0,0,0,0,0,0,0,0,0,0,0,0,1,1,12.98,FLYING
14.13,APPROACH,FLY_TO_FIX,136.27,84,-52.27,1413.75,6.95,4.31,2.3,202.65,-49.987,0.604,-20,218.57,0.436,0,0,0,0,0,0,0,0,90.45,0,0,0,0,0,0,0,0,0,0,0,0,0,1,1,14.2,FLYING
15.32,APPROACH,FLY_TO_FIX,136.82,84,-52.82,1420.81,5.35,3.47,1.73,206.04,-42.049,0.404,-20,218.73,0.4,0,0,0,0,0,0,0,0,90.45,0,0,0,0,0,0,0,0,0,0,0,0,0,1,1,15.39,FLYING
16.55,APPROACH,FLY_TO_FIX,137.69,84,-53.69,1426.43,4.15,2.75,1.31,208.93,-35.375,0.204,-20,218.86,0.371,0,0,0,0,0,0,0,0,90.45,0,0,0,0,0,0,0,0,0,0,0,0,0,1,1,16.62,FLYING
17.74,APPROACH,FLY_TO_FIX,138.49,84,-54.49,1430.7,3.28,2.26,1.07,211.18,-28.568,0.004,-20,218.96,0.349,0,0,0,0,0,0,0,0,90.45,0,0,0,0,0,0,0,0,0,0,0,0,0,1,1,17.81,FLYING
18.96,APPROACH,FLY_TO_FIX,138.92,84,-54.92,1434.19,2.59,1.9,0.92,213.06,-22.395,0,-20,219.04,0.331,0,0,0,0,0,0,0,0,90.45,0,0,0,0,0,0,0,0,0,0,0,0,0,1,1,19.03,FLYING
20.19,APPROACH,FLY_TO_FIX,138.78,84,-54.78,1436.98,2.09,1.65,0.87,214.6,-17.967,0,-20,219.1,0.317,0,0,0,0,0,0,0,0,90.45,0,0,0,0,0,0,0,0,0,0,0,0,0,1,1,20.26,FLYING
21.41,APPROACH,FLY_TO_FIX,138.24,84,-54.24,1439.25,1.7,1.51,0.87,215.82,-14.059,0,-20,219.15,0.305,0,0,0,0,0,0,0,0,90.45,0,0,0,0,0,0,0,0,0,0,0,0,0,1,1,21.48,FLYING
22.64,APPROACH,FLY_TO_FIX,137.38,84,-53.38,1441.12,1.41,1.46,0.92,216.75,-10.572,0,-20,219.18,0.295,0,0,0,0,0,0,0,0,90.45,0,0,0,0,0,0,0,0,0,0,0,0,0,1,1,22.71,FLYING
23.86,APPROACH,FLY_TO_FIX,136.29,84,-52.29,1442.72,1.22,1.45,0.99,217.45,-7.721,0,-20,219.21,0.287,0,0,0,0,0,0,0,0,90.45,0,0,0,0,0,0,0,0,0,0,0,0,0,1,1,23.93,FLYING
25.09,APPROACH,FLY_TO_FIX,135.03,84,-51.03,1444.12,1.09,1.49,1.07,217.97,-5.543,0,-20,219.22,0.28,0,0,0,0,0,0,0,0,90.45,0,0,0,0,0,0,0,0,0,0,0,0,0,1,1,25.16,FLYING
26.31,APPROACH,FLY_TO_FIX,133.66,84,-49.66,1445.4,0.99,1.56,1.17,218.34,-3.942,0,-20,219.24,0.274,0,0,0,0,0,0,0,0,90.45,0,0,0,0,0,0,0,0,0,0,0,0,0,1,1,26.38,FLYING
27.54,APPROACH,FLY_TO_FIX,132.19,84,-48.19,1446.58,0.92,1.64,1.27,218.61,-2.791,0,-20,219.25,0.268,0,0,0,0,0,0,0,0,90.45,0,0,0,0,0,0,0,0,0,0,0,0,0,1,1,27.61,FLYING
28.76,APPROACH,FLY_TO_FIX,130.67,84,-46.67,1447.68,0.86,1.73,1.39,218.8,-1.906,0,-20,219.25,0.262,0,0,0,0,0,0,0,0,90.45,0,0,0,0,0,0,0,0,0,0,0,0,0,1,1,28.83,FLYING
29.99,APPROACH,FLY_TO_FIX,129.11,84,-45.11,1448.73,0.82,1.84,1.51,218.92,-1.167,0,-20,219.26,0.257,0,0,0,0,0,0,0,0,90.45,0,0,0,0,0,0,0,0,0,0,0,0,0,1,1,30.06,FLYING
31.21,APPROACH,FLY_TO_FIX,127.52,84,-43.52,1449.74,0.79,1.96,1.64,218.99,-0.714,0.0231,-20,219.26,0.252,0,0,0,0,0,0,0,0,90.45,0,0,0,0,0,0,0,0,0,0,0,0,0,1,1,31.28,FLYING
32.44,APPROACH,FLY_TO_FIX,125.93,84,-41.93,1450.7,0.76,2.08,1.77,219.04,-0.469,0.0551,-20,219.26,0.247,0,0,0,0,0,0,0,0,90.45,0,0,0,0,0,0,0,0,0,0,0,0,0,1,1,32.51,FLYING
33.63,APPROACH,FLY_TO_FIX,124.4,84,-40.4,1451.61,0.74,2.2,1.89,219.08,-0.333,0.0742,-20,219.27,0.242,0,0,0,0,0,0,0,0,90.45,0,0,0,0,0,0,0,0,0,0,0,0,0,1,1,33.7,FLYING
34.85,APPROACH,FLY_TO_FIX,122.86,84,-38.86,1452.52,0.71,2.33,2.03,219.1,-0.252,0.0906,-20,219.27,0.238,0,0,0,0,0,0,0,0,90.45,0,0,0,0,0,0,0,0,0,0,0,0,0,1,1,34.92,FLYING
36.04,APPROACH,FLY_TO_FIX,121.4,84,-37.4,1453.38,0.69,2.45,2.16,219.12,-0.202,0.0954,-20,219.27,0.234,0,0,0,0,0,0,0,0,90.45,0,0,0,0,0,0,0,0,0,0,0,0,0,1,1,36.11,FLYING
37.27,APPROACH,FLY_TO_FIX,119.94,84,-35.94,1454.23,0.67,2.58,2.29,219.14,-0.167,0.0992,-20,219.27,0.229,0,0,0,0,0,0,0,0,90.45,0,0,0,0,0,0,0,0,0,0,0,0,0,1,1,37.34,FLYING
38.49,APPROACH,FLY_TO_FIX,118.57,84,-34.57,1455.06,0.66,2.71,2.42,219.16,-0.143,0.0981,-20,219.27,0.225,0,0,0,0,0,0,0,0,90.45,0,0,0,0,0,0,0,0,0,0,0,0,0,2,2,38.53,FLYING
39.75,APPROACH,FLY_TO_FIX,117.03,84,-33.03,1455.95,0.74,2.73,2.4,219.17,-0.129,0.1047,-20,219.27,0.221,0,0,0,0,0,0,0,0,90.45,0,0,0,0,0,0,0,0,0,0,0,0,0,2,2,39.82,FLYING
40.94,APPROACH,FLY_TO_FIX,115.51,84,-31.51,1456.87,0.8,2.73,2.38,219.18,-0.122,0.1119,-20,219.28,0.216,0,0,0,0,0,0,0,0,90.45,0,0,0,0,0,0,0,0,0,0,0,0,0,2,2,41.01,FLYING
42.13,APPROACH,FLY_TO_FIX,113.89,84,-29.89,1457.85,0.82,2.77,2.4,219.19,-0.117,0.1281,-20,219.28,0.211,0,0,0,0,0,0,0,0,90.45,0,0,0,0,0,0,0,0,0,0,0,0,0,2,2,42.2,FLYING
43.32,APPROACH,FLY_TO_FIX,112.3,84,-28.3,1458.79,0.74,2.91,2.57,219.2,-0.103,0.1395,-20,219.28,0.207,0,0,0,0,0,0,0,0,90.45,0,0,0,0,0,0,0,0,0,0,0,0,0,2,2,43.39,FLYING
44.55,APPROACH,FLY_TO_FIX,110.71,84,-26.71,1459.68,0.68,3.08,2.76,219.21,-0.089,0.1476,-20,219.28,0.202,0,0,0,0,0,0,0,0,90.45,0,0,0,0,0,0,0,0,0,0,0,0,0,2,2,44.62,FLYING
45.74,APPROACH,FLY_TO_FIX,109.22,84,-25.22,1460.49,0.63,3.25,2.95,219.22,-0.077,0.1444,-20,219.28,0.198,0,0,0,0,0,0,0,0,90.45,0,0,0,0,0,0,0,0,0,0,0,0,0,2,2,45.81,FLYING
46.93,APPROACH,FLY_TO_FIX,107.78,84,-23.78,1461.25,0.6,3.42,3.13,219.23,-0.07,0.1369,-20,219.28,0.194,0,0,0,0,0,0,0,0,90.45,0,0,0,0,0,0,0,0,0,0,0,0,0,2,2,47,FLYING
48.12,APPROACH,FLY_TO_FIX,106.38,84,-22.38,1461.97,0.57,3.6,3.32,219.24,-0.064,0.1266,-20,219.28,0.191,0,0,0,0,0,0,0,0,90.45,0,0,0,0,0,0,0,0,0,0,0,0,0,2,2,48.19,FLYING
49.31,APPROACH,FLY_TO_FIX,105.01,84,-21.01,1462.65,0.54,3.77,3.5,219.24,-0.058,0.1149,-20,219.28,0.187,0,0,0,0,0,0,0,0,90.45,0,0,0,0,0,0,0,0,0,0,0,0,0,2,2,49.38,FLYING
50.5,APPROACH,FLY_TO_FIX,103.68,84,-19.68,1463.31,0.51,3.95,3.69,219.25,-0.054,0.1027,-20,219.28,0.184,0,0,0,0,0,0,0,0,90.45,0,0,0,0,0,0,0,0,0,0,0,0,0,2,2,50.57,FLYING
51.69,APPROACH,FLY_TO_FIX,102.36,84,-18.36,1463.93,0.49,4.13,3.88,219.25,-0.051,0.0912,-20,219.28,0.181,0,0,0,0,0,0,0,0,90.45,0,0,0,0,0,0,0,0,0,0,0,0,0,2,2,51.76,FLYING
52.88,APPROACH,FLY_TO_FIX,101.05,84,-17.05,1464.52,0.46,4.33,4.09,219.26,-0.048,0.0808,-20,219.28,0.178,0,0,0,0,0,0,0,0,90.45,0,0,0,0,0,0,0,0,0,0,0,0,0,2,2,52.95,FLYING
54.07,APPROACH,FLY_TO_FIX,99.75,84,-15.75,1465.08,0.43,4.52,4.3,219.26,-0.047,0.0721,-20,219.28,0.175,0,0,0,0,0,0,0,0,90.45,0,0,0,0,0,0,0,0,0,0,0,0,0,2,2,54.14,FLYING
55.26,APPROACH,FLY_TO_FIX,98.43,84,-14.43,1465.6,0.4,4.74,4.52,219.27,-0.044,0.0661,-20,219.28,0.172,0,0,0,0,0,0,0,0,90.45,0,0,0,0,0,0,0,0,0,0,0,0,0,2,2,55.33,FLYING
56.45,APPROACH,FLY_TO_FIX,97.09,84,-13.09,1466.1,0.37,4.96,4.76,219.27,-0.042,0.0634,-20,219.28,0.17,0,0,0,0,0,0,0,0,90.45,0,0,0,0,0,0,0,0,0,0,0,0,0,2,2,56.52,FLYING
57.64,APPROACH,FLY_TO_FIX,95.73,84,-11.73,1466.56,0.34,5.2,5.01,219.28,-0.04,0.0679,-20,219.28,0.167,0,0,0,0,0,0,0,0,90.45,0,0,0,0,0,0,0,0,0,0,0,0,0,2,2,57.71,FLYING
58.83,APPROACH,FLY_TO_FIX,94.35,84,-10.35,1466.98,0.31,5.46,5.28,219.28,-0.04,0.0696,-20,219.28,0.165,0,0,0,0,0,0,0,0,90.45,0,0,0,0,0,0,0,0,0,0,0,0,0,2,2,58.9,FLYING
60.05,APPROACH,FLY_TO_FIX,92.91,84,-8.91,1467.38,0.27,5.73,5.57,219.28,-0.04,0.0764,-20,219.29,0.163,0,0,0,0,0,0,0,0,90.45,0,0,0,0,0,0,0,0,0,0,0,0,0,2,2,60.12,FLYING
61.28,APPROACH,FLY_TO_FIX,91.46,84,-7.46,1467.74,0.24,6.03,5.88,219.29,-0.039,0.0828,-20,219.29,0.162,0,0,0,0,0,0,0,0,90.45,0,0,0,0,0,0,0,0,0,0,0,0,0,2,2,61.35,FLYING
62.5,APPROACH,FLY_TO_FIX,90.01,84,-6.01,1468.06,0.21,6.34,6.21,219.29,-0.038,0.161,-20,219.29,0.16,0,0,0,0,0,0,0,0,90.45,0,0,0,0,0,0,0,0,0,0,0,0,0,2,2,62.57,FLYING
63.73,APPROACH,FLY_TO_FIX,88.56,84,-4.56,1468.36,0.18,6.66,6.54,219.29,-0.038,0.2373,-20,219.29,0.158,0,0,0,0,0,0,0,0,90.45,0,0,0,0,0,0,0,0,0,0,0,0,0,2,2,63.8,FLYING
64.95,APPROACH,FLY_TO_FIX,87.16,84,-3.16,1468.62,0.16,6.98,6.87,219.29,-0.039,0.3068,-20,219.29,0.157,0,0,0,0,0,0,0,0,90.45,0,0,0,0,0,0,0,0,0,0,0,0,0,2,2,65.02,FLYING
66.18,APPROACH,FLY_TO_FIX,85.83,84,-1.83,1468.85,0.14,7.3,7.2,219.3,-0.037,0.3657,-20,219.29,0.156,0,0,0,0,0,0,0,0,90.45,0,0,0,0,0,0,0,0,0,0,0,0,0,2,2,66.25,FLYING
67.4,APPROACH,FLY_TO_FIX,84.59,84,-0.59,1469.06,0.12,7.6,7.51,219.3,-0.036,0.4115,-20,219.29,0.155,0,0,0,0,0,0,0,0,90.45,0,0,0,0,0,0,0,0,0,0,0,0,0,2,2,67.47,FLYING
68.63,APPROACH,FLY_TO_FIX,83.47,84,0.53,1469.24,0.1,7.87,7.8,219.3,-0.036,0.4463,-19.752,219.29,0.154,0,0,0,0,0,0,0,0,90.45,0,0,0,0,0,0,0,0,0,0,0,0,0,2,2,68.7,FLYING
69.82,APPROACH,FLY_TO_FIX,82.51,84,1.49,1469.39,0.09,8.12,8.05,219.31,-0.035,0.4686,-19.019,219.29,0.153,0,0,0,0,0,0,0,0,90.45,0,0,0,0,0,0,0,0,0,0,0,0,0,2,2,69.89,FLYING
71.01,APPROACH,FLY_TO_FIX,81.67,84,2.33,1469.53,0.08,8.33,8.28,219.31,-0.035,0.484,-17.866,219.29,0.152,0,0,0,0,0,0,0,0,90.45,0,0,0,0,0,0,0,0,0,0,0,0,0,2,2,71.08,FLYING
72.2,APPROACH,FLY_TO_FIX,80.96,84,3.04,1469.66,0.08,8.52,8.46,219.31,-0.034,0.4929,-16.355,219.29,0.152,0,0,0,0,0,0,0,0,90.45,0,0,0,0,0,0,0,0,0,0,0,0,0,2,2,72.27,FLYING
73.39,APPROACH,FLY_TO_FIX,80.37,84,3.63,1469.78,0.08,8.67,8.62,219.31,-0.033,0.4956,-14.548,219.29,0.151,0,0,0,0,0,0,0,0,90.45,0,0,0,0,0,0,0,0,0,0,0,0,0,2,2,73.46,FLYING
74.58,APPROACH,FLY_TO_FIX,79.9,84,4.1,1469.89,0.08,8.79,8.74,219.32,-0.032,0.493,-12.506,219.28,0.151,0,0,0,0,0,0,0,0,90.45,0,0,0,0,0,0,0,0,0,0,0,0,0,2,2,74.65,FLYING
75.77,APPROACH,FLY_TO_FIX,79.55,84,4.45,1470.01,0.09,8.89,8.82,219.32,-0.032,0.4857,-10.284,219.28,0.15,0,0,0,0,0,0,0,0,90.45,0,0,0,0,0,0,0,0,0,0,0,0,0,2,2,75.84,FLYING
76.96,APPROACH,FLY_TO_FIX,79.3,84,4.7,1470.14,0.1,8.95,8.88,219.32,-0.031,0.4746,-7.935,219.28,0.149,0,0,0,0,0,0,0,0,90.45,0,0,0,0,0,0,0,0,0,0,0,0,0,2,2,77.03,FLYING
78.15,APPROACH,FLY_TO_FIX,79.14,84,4.86,1470.28,0.12,8.98,8.91,219.32,-0.031,0.4607,-5.506,219.28,0.149,0,0,0,0,0,0,0,0,90.45,0,0,0,0,0,0,0,0,0,0,0,0,0,2,2,78.22,FLYING
79.34,APPROACH,FLY_TO_FIX,79.07,84,4.93,1470.43,0.14,9,8.91,219.33,-0.031,0.4448,-3.04,219.28,0.148,0,0,0,0,0,0,0,0,90.45,0,0,0,0,0,0,0,0,0,0,0,0,0,2,2,79.41,FLYING
80.53,APPROACH,FLY_TO_FIX,79.07,84,4.93,1470.6,0.15,8.99,8.89,219.33,-0.03,0.4279,-0.572,219.28,0.147,0,0,0,0,0,0,0,0,90.45,0,0,0,0,0,0,0,0,0,0,0,0,0,2,2,80.6,FLYING
81.72,APPROACH,FLY_TO_FIX,79.13,84,4.87,1470.79,0.17,8.97,8.86,219.33,-0.03,0.4108,1.867,219.28,0.146,0,0,0,0,0,0,0,0,90.45,0,0,0,0,0,0,0,0,0,0,0,0,0,2,2,81.79,FLYING
82.91,APPROACH,FLY_TO_FIX,79.24,84,4.76,1471,0.19,8.94,8.81,219.33,-0.03,0.3942,4.251,219.28,0.145,0,0,0,0,0,0,0,0,90.45,0,0,0,0,0,0,0,0,0,0,0,0,0,2,2,82.98,FLYING
84.1,APPROACH,FLY_TO_FIX,79.38,84,4.62,1471.24,0.22,8.89,8.76,219.34,-0.03,0.3788,6.561,219.28,0.144,0,0,0,0,0,0,0,0,90.45,0,0,0,0,0,0,0,0,0,0,0,0,0,2,2,84.17,FLYING
85.29,APPROACH,FLY_TO_FIX,79.56,84,4.44,1471.5,0.24,8.84,8.69,219.34,-0.03,0.3649,8.782,219.28,0.143,0,0,0,0,0,0,0,0,90.45,0,0,0,0,0,0,0,0,0,0,0,0,0,2,2,85.36,FLYING
86.48,APPROACH,FLY_TO_FIX,79.76,84,4.24,1471.79,0.26,8.79,8.62,219.34,-0.029,0.3529,10.903,219.28,0.141,0,0,0,0,0,0,0,0,90.45,0,0,0,0,0,0,0,0,0,0,0,0,0,2,2,86.55,FLYING
87.67,APPROACH,FLY_TO_FIX,79.98,84,4.02,1472.11,0.28,8.73,8.55,219.34,-0.027,0.343,12.918,219.28,0.14,0,0,0,0,0,0,0,0,90.45,0,0,0,0,0,0,0,0,0,0,0,0,0,2,2,87.74,FLYING
88.86,APPROACH,FLY_TO_FIX,80.2,84,3.8,1472.45,0.3,8.67,8.48,219.34,-0.023,0.3352,14.821,219.28,0.138,0,0,0,0,0,0,0,0,90.45,0,0,0,0,0,0,0,0,0,0,0,0,0,2,2,88.93,FLYING
90.05,APPROACH,FLY_TO_FIX,80.43,84,3.57,1472.81,0.33,8.62,8.41,219.34,-0.024,0.3295,16.612,219.28,0.136,0,0,0,0,0,0,0,0,90.45,0,0,0,0,0,0,0,0,0,0,0,0,0,2,2,90.12,FLYING
91.24,APPROACH,FLY_TO_FIX,80.64,84,3.36,1473.2,0.34,8.56,8.35,219.35,-0.023,0.3266,18.293,219.28,0.134,0,0,0,0,0,0,0,0,90.45,0,0,0,0,0,0,0,0,0,0,0,0,0,2,2,91.31,FLYING
92.43,APPROACH,FLY_TO_FIX,80.85,84,3.15,1473.61,0.36,8.51,8.29,219.35,-0.02,0.3265,19.87,219.28,0.132,0,0,0,0,0,0,0,0,90.45,0,0,0,0,0,0,0,0,0,0,0,0,0,2,2,92.5,FLYING
93.62,APPROACH,FLY_TO_FIX,81.05,84,2.95,1474.04,0.38,8.46,8.23,219.35,-0.017,0.3126,20,219.28,0.13,0,0,0,0,0,0,0,0,90.45,0,0,0,0,0,0,0,0,0,0,0,0,0,2,2,93.69,FLYING
94.84,APPROACH,FLY_TO_FIX,81.23,84,2.77,1474.51,0.39,8.42,8.18,219.35,-0.015,0.3,20,219.28,0.128,0,0,0,0,0,0,0,0,90.45,0,0,0,0,0,0,0,0,0,0,0,0,0,2,2,94.91,FLYING
96.07,APPROACH,FLY_TO_FIX,81.38,84,2.62,1474.99,0.4,8.39,8.14,219.35,-0.014,0.2935,20,219.28,0.125,0,0,0,0,0,0,0,0,90.45,0,0,0,0,0,0,0,0,0,0,0,0,0,2,2,96.14,FLYING
97.29,APPROACH,FLY_TO_FIX,81.48,84,2.52,1475.48,0.41,8.38,8.12,219.35,-0.012,0.2939,20,219.28,0.123,0,0,0,0,0,0,0,0,90.45,0,0,0,0,0,0,0,0,0,0,0,0,0,2,2,97.36,FLYING
98.52,APPROACH,FLY_TO_FIX,81.54,84,2.46,1475.98,0.41,8.37,8.11,219.35,-0.01,0.2995,20,219.27,0.12,0,0,0,0,0,0,0,0,90.45,0,0,0,0,0,0,0,0,0,0,0,0,0,2,2,98.59,FLYING
99.74,APPROACH,FLY_TO_FIX,81.57,84,2.43,1476.49,0.42,8.36,8.1,219.35,-0.01,0.3075,20,219.27,0.118,0,0,0,0,0,0,0,0,90.45,0,0,0,0,0,0,0,0,0,0,0,0,0,2,2,99.81,FLYING
100.97,APPROACH,FLY_TO_FIX,81.59,84,2.41,1477.01,0.42,8.36,8.1,219.35,-0.01,0.315,20,219.27,0.115,0,0,0,0,0,0,0,0,90.45,0,0,0,0,0,0,0,0,0,0,0,0,0,2,2,101.04,FLYING
102.19,APPROACH,FLY_TO_FIX,81.61,84,2.39,1477.52,0.42,8.35,8.09,219.35,-0.007,0.3206,20,219.27,0.113,0,0,0,0,0,0,0,0,90.45,0,0,0,0,0,0,0,0,0,0,0,0,0,2,2,102.26,FLYING
103.42,APPROACH,FLY_TO_FIX,81.64,84,2.36,1478.04,0.43,8.34,8.08,219.35,-0.007,0.3239,20,219.27,0.11,0,0,0,0,0,0,0,0,90.45,0,0,0,0,0,0,0,0,0,0,0,0,0,2,2,103.49,FLYING
104.64,APPROACH,FLY_TO_FIX,81.68,84,2.32,1478.56,0.43,8.33,8.06,219.34,-0.006,0.3252,20,219.27,0.107,0,0,0,0,0,0,0,0,90.45,0,0,0,0,0,0,0,0,0,0,0,0,0,2,2,104.71,FLYING
105.87,APPROACH,FLY_TO_FIX,81.73,84,2.27,1479.09,0.43,8.32,8.05,219.34,-0.006,0.3244,20,219.27,0.105,0,0,0,0,0,0,0,0,90.45,0,0,0,0,0,0,0,0,0,0,0,0,0,2,2,105.94,FLYING
107.09,APPROACH,FLY_TO_FIX,81.78,84,2.22,1479.62,0.43,8.3,8.03,219.34,-0.004,0.3221,20,219.27,0.102,0,0,0,0,0,0,0,0,90.45,0,0,0,0,0,0,0,0,0,0,0,0,0,2,2,107.16,FLYING
108.32,APPROACH,FLY_TO_FIX,81.84,84,2.16,1480.15,0.44,8.28,8.01,219.34,-0.004,0.3185,20,219.27,0.1,0,0,0,0,0,0,0,0,90.45,0,0,0,0,0,0,0,0,0,0,0,0,0,2,2,108.39,FLYING
109.54,APPROACH,FLY_TO_FIX,81.91,84,2.09,1480.68,0.44,8.26,7.99,219.34,-0.002,0.3141,20,219.27,0.097,0,0,0,0,0,0,0,0,90.45,0,0,0,0,0,0,0,0,0,0,0,0,0,2,2,109.61,FLYING
110.77,APPROACH,FLY_TO_FIX,81.99,84,2.01,1481.21,0.44,8.24,7.96,219.34,-0.001,0.3093,20,219.26,0.094,0,0,0,0,0,0,0,0,90.45,0,0,0,0,0,0,0,0,0,0,0,0,0,2,2,110.84,FLYING
111.99,APPROACH,FLY_TO_FIX,82.06,84,1.94,1481.74,0.44,8.22,7.94,219.34,-0.002,0.3046,20,219.26,0.092,0,0,0,0,0,0,0,0,90.45,0,0,0,0,0,0,0,0,0,0,0,0,0,2,2,112.06,FLYING
113.22,APPROACH,FLY_TO_FIX,82.12,84,1.88,1482.28,0.44,8.2,7.93,219.34,-0.003,0.3011,20,219.26,0.089,0,0,0,0,0,0,0,0,90.45,0,0,0,0,0,0,0,0,0,0,0,0,0,2,2,113.29,FLYING
114.44,APPROACH,FLY_TO_FIX,82.18,84,1.82,1482.81,0.44,8.18,7.91,219.34,-0.002,0.2995,20,219.26,0.086,0,0,0,0,0,0,0,0,90.45,0,0,0,0,0,0,0,0,0,0,0,0,0,2,2,114.51,FLYING
115.67,APPROACH,FLY_TO_FIX,82.22,84,1.78,1483.34,0.43,8.17,7.9,219.33,-0.001,0.2997,20,219.26,0.084,0,0,0,0,0,0,0,0,90.45,0,0,0,0,0,0,0,0,0,0,0,0,0,2,2,115.74,FLYING
116.89,APPROACH,FLY_TO_FIX,82.25,84,1.75,1483.87,0.43,8.16,7.9,219.33,-0.004,0.3013,20,219.26,0.081,0,0,0,0,0,0,0,0,90.45,0,0,0,0,0,0,0,0,0,0,0,0,0,2,2,116.96,FLYING
118.12,APPROACH,FLY_TO_FIX,82.27,84,1.73,1484.4,0.43,8.16,7.89,219.33,-0.002,0.3035,20,219.26,0.078,0,0,0,0,0,0,0,0,90.45,0,0,0,0,0,0,0,0,0,0,0,0,0,2,2,118.19,FLYING
119.34,APPROACH,FLY_TO_FIX,82.29,84,1.71,1484.92,0.43,8.15,7.89,219.33,0,0.3053,20,219.26,0.076,0,0,0,0,0,0,0,0,90.45,0,0,0,0,0,0,0,0,0,0,0,0,0,2,2,119.41,FLYING
120.57,APPROACH,FLY_TO_FIX,82.31,84,1.69,1485.44,0.42,8.14,7.88,219.33,-0.002,0.3065,20,219.26,0.073,0,0,0,0,0,0,0,0,90.45,0,0,0,0,0,0,0,0,0,0,0,0,0,2,2,120.64,FLYING
122.51,APPROACH,FLY_TO_FIX,82.34,84,1.66,1486.22,0.37,8.14,7.91,219.33,0.01,0.3048,20,219.25,0.07,0,0,0,0,0,0,0,0,90.45,0,0,0,0,0,0,0,0,0,0,0,0,0,2,2,122.67,FLYING
125.31,APPROACH,FLY_TO_FIX,82.4,84,1.6,1487.27,0.38,8.13,7.9,219.33,0.017,0.2994,20,219.25,0.064,0,0,0,0,0,0,0,0,90.45,0,0,0,0,0,0,0,0,0,0,0,0,0,2,2,125.47,FLYING
128.11,APPROACH,FLY_TO_FIX,82.45,84,1.55,1488.33,0.38,8.12,7.89,219.34,0.018,0.2964,20,219.25,0.059,0,0,0,0,0,0,0,0,90.45,0,0,0,0,0,0,0,0,0,0,0,0,0,2,2,128.27,FLYING
130.91,APPROACH,FLY_TO_FIX,82.46,84,1.54,1489.39,0.38,8.12,7.89,219.34,0.02,0.2987,20,219.24,0.054,0,0,0,0,0,0,0,0,90.45,0,0,0,0,0,0,0,0,0,0,0,0,0,2,2,131.07,FLYING
133.71,APPROACH,FLY_TO_FIX,82.45,84,1.55,1490.43,0.37,8.12,7.89,219.33,0.025,0.3043,20,219.24,0.048,0,0,0,0,0,0,0,0,90.45,0,0,0,0,0,0,0,0,0,0,0,0,0,2,2,133.87,FLYING
136.51,APPROACH,FLY_TO_FIX,82.44,84,1.56,1491.45,0.36,8.11,7.89,219.33,0.029,0.3084,20,219.23,0.043,0,0,0,0,0,0,0,0,90.45,0,0,0,0,0,0,0,0,0,0,0,0,0,2,2,136.67,FLYING
139.31,APPROACH,FLY_TO_FIX,82.45,84,1.55,1492.44,0.36,8.1,7.89,219.33,0.031,0.3093,20,219.23,0.038,0,0,0,0,0,0,0,0,90.45,0,0,0,0,0,0,0,0,0,0,0,0,0,2,2,139.47,FLYING
142.11,APPROACH,FLY_TO_FIX,82.48,84,1.52,1493.43,0.35,8.09,7.87,219.33,0.034,0.3064,20,219.22,0.033,0,0,0,0,0,0,0,0,90.45,0,0,0,0,0,0,0,0,0,0,0,0,0,2,2,142.27,FLYING
144.91,APPROACH,FLY_TO_FIX,82.53,84,1.47,1494.4,0.35,8.07,7.86,219.32,0.037,0.3009,20,219.22,0.029,0,0,0,0,0,0,0,0,90.45,0,0,0,0,0,0,0,0,0,0,0,0,0,2,2,145.07,FLYING
147.71,APPROACH,FLY_TO_FIX,82.58,84,1.42,1495.36,0.34,8.05,7.84,219.32,0.035,0.2953,20,219.21,0.024,0,0,0,0,0,0,0,0,90.45,0,0,0,0,0,0,0,0,0,0,0,0,0,2,2,147.87,FLYING
150.51,APPROACH,FLY_TO_FIX,82.61,84,1.39,1496.3,0.33,8.04,7.84,219.31,0.039,0.2941,20,219.2,0.019,0,0,0,0,0,0,0,0,90.45,0,0,0,0,0,0,0,0,0,0,0,0,0,2,2,150.67,FLYING
153.31,APPROACH,FLY_TO_FIX,82.59,84,1.41,1497.2,0.32,8.04,7.85,219.31,0.042,0.2993,20,219.19,0.014,0,0,0,0,0,0,0,0,90.45,0,0,0,0,0,0,0,0,0,0,0,0,0,2,2,153.47,FLYING
156.11,APPROACH,FLY_TO_FIX,82.56,84,1.44,1498.08,0.31,8.04,7.85,219.3,0.039,0.3063,20,219.18,0.01,0,0,0,0,0,0,0,0,90.45,0,0,0,0,0,0,0,0,0,0,0,0,0,2,2,156.27,FLYING
158.91,APPROACH,FLY_TO_FIX,82.54,84,1.46,1498.93,0.3,8.04,7.86,219.3,0.044,0.3102,20,219.17,0.006,0,0,0,0,0,0,0,0,90.45,0,0,0,0,0,0,0,0,0,0,0,0,0,2,2,159.07,FLYING
161.71,APPROACH,FLY_TO_FIX,82.55,84,1.45,1499.75,0.29,8.03,7.85,219.29,0.047,0.3095,20,219.16,0.002,0,0,0,0,0,0,0,0,90.45,0,0,0,0,0,0,0,0,0,0,0,0,0,2,2,161.87,FLYING
164.51,APPROACH,FLY_TO_FIX,82.59,84,1.41,1500.55,0.29,8.01,7.84,219.28,0.049,0.3045,20,219.15,-0.002,0,0,0,0,0,0,0,0,90.45,0,0,0,0,0,0,0,0,0,0,0,0,0,2,2,164.67,FLYING
167.31,APPROACH,FLY_TO_FIX,82.65,84,1.35,1501.34,0.28,7.99,7.82,219.27,0.053,0.2969,20,219.13,-0.006,0,0,0,0,0,0,0,0,90.45,0,0,0,0,0,0,0,0,0,0,0,0,0,2,2,167.47,FLYING
170.11,APPROACH,FLY_TO_FIX,82.7,84,1.3,1502.12,0.28,7.98,7.81,219.26,0.058,0.2912,20,219.11,-0.01,0,0,0,0,0,0,0,0,90.45,0,0,0,0,0,0,0,0,0,0,0,0,0,2,2,170.27,FLYING
172.91,APPROACH,FLY_TO_FIX,82.71,84,1.29,1502.87,0.26,7.97,7.81,219.25,0.065,0.2929,20,219.08,-0.014,0,0,0,0,0,0,0,0,90.45,0,0,0,0,0,0,0,0,0,0,0,0,0,2,2,173.07,FLYING
175.79,APPROACH,FLY_TO_FIX,82.67,84,1.33,1503.61,0.25,7.99,7.84,219.22,0.397,0.3011,20,93.76,-2.918,0,0,0,0,0,0,0,0,90.45,0,0,0,0,0,0,0,0,0,0,0,0,0,2,2,175.95,FLYING
178.08,APPROACH,FLY_TO_FIX,82.49,84,1.51,1503.74,-0.54,7.18,7.81,214.46,22.472,0.3296,20,93.03,-2.919,0,0,0,0,0,0,0,0,90.45,0,0,0,0,0,0,0,0,0,0,0,0,0,2,2,178.18,FLYING
179.42,APPROACH,FLY_TO_FIX,81.96,84,2.04,1503.42,-0.41,8.4,10.63,206.39,37.905,0.4034,20,92.58,-2.917,0,0,0,0,0,0,0,0,90.45,0,0,0,0,0,0,0,0,0,0,0,0,0,2,2,179.47,FLYING
180.21,APPROACH,FLY_TO_FIX,81.44,84,2.56,1502.9,-0.73,7.74,11.19,201.12,43.524,0.4694,20,92.32,-2.915,0,0,0,0,0,0,0,0,90.45,0,0,0,0,0,0,0,0,0,0,0,0,0,2,2,180.26,FLYING
181.41,APPROACH,FLY_TO_FIX,80.84,84,3.16,1501.06,-1.93,7.09,11.72,194.03,44.436,0.5373,20,91.95,-2.907,0,0,0,0,0,0,0,0,90.45,0,0,0,0,0,0,0,0,0,0,0,0,0,2,2,181.48,FLYING
182.44,APPROACH,FLY_TO_FIX,80.47,84,3.53,1498.42,-2.9,6.76,11.89,188.62,43.68,0.5663,20,91.61,-2.895,0,0,0,0,0,0,0,0,90.45,0,0,0,0,0,0,0,0,0,0,0,0,0,2,2,182.53,FLYING
184.86,APPROACH,FLY_TO_FIX,80.21,84,3.79,1488.62,-4.91,5.63,11.95,175.63,43.578,0.5776,20,90.84,-2.851,0,0,0,0,0,0,0,0,90.45,0,0,0,0,0,0,0,0,0,0,0,0,0,2,2,185.02,FLYING
187.66,APPROACH,FLY_TO_FIX,81.01,84,2.99,1471.57,-6.94,4.38,11.79,160.87,43.14,0.4335,20,89.85,-2.769,0,0,0,0,0,0,0,0,90.45,0,0,0,0,0,0,0,0,0,0,0,0,0,2,2,187.82,FLYING
190.46,APPROACH,FLY_TO_FIX,82.54,84,1.46,1449.87,-8.3,3.51,11.75,145.15,43.689,0.2335,20,88.89,-2.663,0,0,0,0,0,0,0,0,90.45,0,0,0,0,0,0,0,0,0,0,0,0,0,2,2,190.62,FLYING
193.26,APPROACH,FLY_TO_FIX,83.73,84,0.27,1425.3,-9.1,3.06,11.7,130.1,43.538,0.0382,20,88.01,-2.541,0,0,0,0,0,0,0,0,90.45,0,0,0,0,0,0,0,0,0,0,0,0,0,2,2,193.42,FLYING
196.06,APPROACH,FLY_TO_FIX,83.37,84,0.63,1399.31,-9.38,3.13,11.29,116.14,37.907,0.1265,20,87.27,-2.411,0,0,0,0,0,0,0,0,90.45,0,0,0,0,0,0,0,0,0,0,0,0,0,2,2,196.22,FLYING
198.86,APPROACH,FLY_TO_FIX,82.28,84,1.72,1374.05,-8.67,3.71,10.26,107.19,28.973,0.3204,20,86.73,-2.284,0,0,0,0,0,0,0,0,90.45,0,0,0,0,0,0,0,0,0,0,0,0,0,2,2,199.02,FLYING
201.66,APPROACH,FLY_TO_FIX,81.49,84,2.51,1351.13,-7.74,4.17,9.61,100.44,20.935,0.4416,20,86.33,-2.168,0,0,0,0,0,0,0,0,90.45,0,0,0,0,0,0,0,0,0,0,0,0,0,2,2,201.82,FLYING
204.46,APPROACH,FLY_TO_FIX,81.37,84,2.63,1330.85,-6.82,4.5,9.1,95.56,15.533,0.4477,20,86.05,-2.065,0,0,0,0,0,0,0,0,90.45,0,0,0,0,0,0,0,0,0,0,0,0,0,2,2,204.62,FLYING
207.26,APPROACH,FLY_TO_FIX,81.89,84,2.11,1312.97,-6.01,4.67,8.59,92.07,11.158,0.3564,20,85.86,-1.974,0,0,0,0,0,0,0,0,90.45,0,0,0,0,0,0,0,0,0,0,0,0,0,2,2,207.42,FLYING
210.06,APPROACH,FLY_TO_FIX,82.82,84,1.18,1297.26,-5.26,4.78,8.11,89.76,7.553,0.2155,20,85.73,-1.895,0,0,0,0,0,0,0,0,90.45,0,0,0,0,0,0,0,0,0,0,0,0,0,2,2,210.22,FLYING
212.86,APPROACH,FLY_TO_FIX,83.67,84,0.33,1283.5,-4.63,4.92,7.79,88.22,5.024,0.1034,20,85.65,-1.825,0,0,0,0,0,0,0,0,90.45,0,0,0,0,0,0,0,0,0,0,0,0,0,2,2,213.02,FLYING
215.66,APPROACH,FLY_TO_FIX,83.71,84,0.29,1271.37,-4.12,5.26,7.8,87.18,3.325,0.1237,20,85.59,-1.763,0,0,0,0,0,0,0,0,90.45,0,0,0,0,0,0,0,0,0,0,0,0,0,2,2,215.82,FLYING
218.46,APPROACH,FLY_TO_FIX,82.8,84,1.2,1260.5,-3.73,5.74,8.06,86.52,2.084,0.2835,20,85.56,-1.708,0,0,0,0,0,0,0,0,90.45,0,0,0,0,0,0,0,0,0,0,0,0,0,2,2,218.62,FLYING
221.26,APPROACH,FLY_TO_FIX,81.65,84,2.35,1250.6,-3.41,6.2,8.35,86.11,1.282,0.4594,20,85.53,-1.658,0,0,0,0,0,0,0,0,90.45,0,0,0,0,0,0,0,0,0,0,0,0,0,2,2,221.42,FLYING
224.06,APPROACH,FLY_TO_FIX,80.87,84,3.13,1241.51,-3.14,6.49,8.49,85.87,0.783,0.5577,20,85.52,-1.613,0,0,0,0,0,0,0,0,90.45,0,0,0,0,0,0,0,0,0,0,0,0,0,2,2,224.22,FLYING
226.86,APPROACH,FLY_TO_FIX,80.81,84,3.19,1233.07,-2.91,6.51,8.38,85.73,0.429,0.5381,20,85.51,-1.57,0,0,0,0,0,0,0,0,90.45,0,0,0,0,0,0,0,0,0,0,0,0,0,2,2,227.02,FLYING
229.66,APPROACH,FLY_TO_FIX,81.54,84,2.46,1225.15,-2.73,6.32,8.06,85.66,0.226,0.4042,20,85.51,-1.53,0,0,0,0,0,0,0,0,90.45,0,0,0,0,0,0,0,0,0,0,0,0,0,2,2,229.82,FLYING
232.46,APPROACH,FLY_TO_FIX,82.81,84,1.19,1217.67,-2.58,6.04,7.66,85.62,0.133,0.2068,20,85.5,-1.493,0,0,0,0,0,0,0,0,90.45,0,0,0,0,0,0,0,0,0,0,0,0,0,2,2,232.62,FLYING
235.26,APPROACH,FLY_TO_FIX,83.88,84,0.12,1210.55,-2.49,5.9,7.43,85.59,0.095,0.0629,20,85.5,-1.457,0,0,0,0,0,0,0,0,90.45,0,0,0,0,0,0,0,0,0,0,0,0,0,2,2,235.42,FLYING
238.06,APPROACH,FLY_TO_FIX,83.7,84,0.3,1203.65,-2.47,6.11,7.63,85.57,0.078,0.1199,20,85.5,-1.422,0,0,0,0,0,0,0,0,90.45,0,0,0,0,0,0,0,0,0,0,0,0,0,2,2,238.22,FLYING
240.86,APPROACH,FLY_TO_FIX,82.33,84,1.67,1196.81,-2.47,6.53,8.07,85.55,0.073,0.3199,20,85.49,-1.388,0,0,0,0,0,0,0,0,90.45,0,0,0,0,0,0,0,0,0,0,0,0,0,2,2,241.02,FLYING
243.66,APPROACH,FLY_TO_FIX,80.84,84,3.16,1190.01,-2.43,6.95,8.5,85.53,0.072,0.5199,20,85.49,-1.354,0,0,0,0,0,0,0,0,90.45,0,0,0,0,0,0,0,0,0,0,0,0,0,2,2,243.82,FLYING
246.46,APPROACH,FLY_TO_FIX,79.89,84,4.11,1183.34,-2.36,7.18,8.71,85.51,0.062,0.6795,20,85.49,-1.32,0,0,0,0,0,0,0,0,90.45,0,0,0,0,0,0,0,0,0,0,0,0,0,2,2,246.62,FLYING
249.26,APPROACH,FLY_TO_FIX,79.89,84,4.11,1176.88,-2.24,7.12,8.58,85.49,0.051,0.6371,20,85.49,-1.288,0,0,0,0,0,0,0,0,90.45,0,0,0,0,0,0,0,0,0,0,0,0,0,2,2,249.42,FLYING
252.06,APPROACH,FLY_TO_FIX,80.96,84,3.04,1170.75,-2.1,6.8,8.16,85.48,0.048,0.443,20,85.49,-1.257,0,0,0,0,0,0,0,0,90.45,0,0,0,0,0,0,0,0,0,0,0,0,0,2,2,252.22,FLYING
254.86,APPROACH,FLY_TO_FIX,82.72,84,1.28,1165.02,-1.95,6.38,7.62,85.47,0.042,0.243,20,85.49,-1.228,0,0,0,0,0,0,0,0,90.45,0,0,0,0,0,0,0,0,0,0,0,0,0,2,2,255.02,FLYING
257.66,APPROACH,FLY_TO_FIX,84.28,84,-0.28,1159.67,-1.85,6.12,7.27,85.46,0.04,0.043,19.878,85.49,-1.201,0,0,0,0,0,0,0,0,90.45,0,0,0,0,0,0,0,0,0,0,0,0,0,2,2,257.82,FLYING
260.46,APPROACH,FLY_TO_FIX,84.39,84,-0.39,1154.53,-1.85,6.28,7.41,85.45,0.035,0,19.67,85.49,-1.176,0,0,0,0,0,0,0,0,90.45,0,0,0,0,0,0,0,0,0,0,0,0,0,2,2,260.62,FLYING
263.26,APPROACH,FLY_TO_FIX,82.61,84,1.39,1149.35,-1.93,6.86,8.06,85.44,0.035,0.2,20,85.49,-1.15,0,0,0,0,0,0,0,0,90.45,0,0,0,0,0,0,0,0,0,0,0,0,0,2,2,263.42,FLYING
266.06,APPROACH,FLY_TO_FIX,79.98,84,4.02,1143.97,-1.99,7.61,8.88,85.43,0.03,0.4,20,85.49,-1.123,0,0,0,0,0,0,0,0,90.45,0,0,0,0,0,0,0,0,0,0,0,0,0,2,2,266.22,FLYING
268.86,APPROACH,FLY_TO_FIX,77.69,84,6.31,1138.47,-2.01,8.28,9.6,85.42,0.018,0.6,20,85.49,-1.096,0,0,0,0,0,0,0,0,90.45,0,0,0,0,0,0,0,0,0,0,0,0,0,2,2,269.02,FLYING
271.66,APPROACH,FLY_TO_FIX,76.21,84,7.79,1132.97,-1.96,8.69,10.02,85.42,0.011,0.8,20,85.49,-1.068,0,0,0,0,0,0,0,0,90.45,0,0,0,0,0,0,0,0,0,0,0,0,0,2,2,271.82,FLYING
274.46,APPROACH,FLY_TO_FIX,75.94,84,8.06,1127.67,-1.82,8.67,9.92,85.42,0.013,1,20,85.49,-1.041,0,0,0,0,0,0,0,0,90.45,0,0,0,0,0,0,0,0,0,0,0,0,0,2,2,274.62,FLYING
277.26,APPROACH,FLY_TO_FIX,77.27,84,6.73,1122.75,-1.61,8.11,9.22,85.41,0.02,0.8,20,85.5,-1.016,0,0,0,0,0,0,0,0,90.45,0,0,0,0,0,0,0,0,0,0,0,0,0,2,2,277.42,FLYING
280.06,APPROACH,FLY_TO_FIX,80.18,84,3.82,1118.44,-1.36,7.26,8.17,85.41,0.019,0.6,20,85.5,-0.995,0,0,0,0,0,0,0,0,90.45,0,0,0,0,0,0,0,0,0,0,0,0,0,2,2,280.22,FLYING
282.86,APPROACH,FLY_TO_FIX,83.96,84,0.04,1114.82,-1.13,6.35,7.07,85.41,-0.007,0.4,20,85.5,-0.976,0,0,0,0,0,0,0,0,90.45,0,0,0,0,0,0,0,0,0,0,0,0,0,2,2,283.02,FLYING
285.66,APPROACH,FLY_TO_FIX,87.72,84,-3.72,1111.76,-0.99,5.58,6.19,85.42,-0.035,0.2,18.187,85.5,-0.96,0,0,0,0,0,0,0,0,90.45,0,0,0,0,0,0,0,0,0,0,0,0,0,2,2,285.82,FLYING
288.46,APPROACH,FLY_TO_FIX,90.26,84,-6.26,1108.93,-1,5.17,5.76,85.43,-0.035,0,15.078,85.51,-0.946,0,0,0,0,0,0,0,0,90.45,0,0,0,0,0,0,0,0,0,0,0,0,0,2,2,288.62,FLYING
291.26,APPROACH,FLY_TO_FIX,90.5,84,-6.5,1105.96,-1.13,5.25,5.89,85.43,-0.025,0,11.814,85.51,-0.932,0,0,0,0,0,0,0,0,90.45,0,0,0,0,0,0,0,0,0,0,0,0,0,2,2,291.42,FLYING
294.06,APPROACH,FLY_TO_FIX,88.55,84,-4.55,1102.64,-1.29,5.71,6.46,85.44,-0.002,0,9.5,85.51,-0.915,0,0,0,0,0,0,0,0,90.45,0,0,0,0,0,0,0,0,0,0,0,0,0,2,2,294.22,FLYING
296.86,APPROACH,FLY_TO_FIX,85.48,84,-1.48,1098.93,-1.45,6.44,7.3,85.43,0.018,0.0212,8.709,85.52,-0.897,0,0,0,0,0,0,0,0,90.45,0,0,0,0,0,0,0,0,0,0,0,0,0,2,2,297.02,FLYING
299.66,APPROACH,FLY_TO_FIX,81.88,84,2.12,1094.79,-1.61,7.4,8.4,85.43,0.014,0.2212,9.715,85.52,-0.876,0,0,0,0,0,0,0,0,90.45,0,0,0,0,0,0,0,0,0,0,0,0,0,2,2,299.82,FLYING
302.46,APPROACH,FLY_TO_FIX,78.25,84,5.75,1090.27,-1.73,8.45,9.58,85.43,-0.005,0.4212,12.541,85.53,-0.854,0,0,0,0,0,0,0,0,90.45,0,0,0,0,0,0,0,0,0,0,0,0,0,2,2,302.62,FLYING
305.26,APPROACH,FLY_TO_FIX,75.09,84,8.91,1085.51,-1.77,9.5,10.71,85.44,-0.017,0.6212,16.954,85.53,-0.83,0,0,0,0,0,0,0,0,90.45,0,0,0,0,0,0,0,0,0,0,0,0,0,2,2,305.42,FLYING
308.06,APPROACH,FLY_TO_FIX,72.83,84,11.17,1080.75,-1.71,10.28,11.49,85.45,-0.02,0.8212,20,85.54,-0.806,0,0,0,0,0,0,0,0,90.45,0,0,0,0,0,0,0,0,0,0,0,0,0,2,2,308.22,FLYING
310.86,APPROACH,FLY_TO_FIX,71.86,84,12.14,1076.19,-1.56,10.52,11.66,85.45,-0.012,1,20,85.54,-0.783,0,0,0,0,0,0,0,0,90.45,0,0,0,0,0,0,0,0,0,0,0,0,0,2,2,311.02,FLYING
313.66,APPROACH,FLY_TO_FIX,72.56,84,11.44,1072.05,-1.33,10.05,11.03,85.45,0.001,1,20,85.55,-0.762,0,0,0,0,0,0,0,0,90.45,0,0,0,0,0,0,0,0,0,0,0,0,0,2,2,313.82,FLYING
316.46,APPROACH,FLY_TO_FIX,75.1,84,8.9,1068.51,-1.08,8.98,9.77,85.44,0.016,0.8392,20,85.55,-0.744,0,0,0,0,0,0,0,0,90.45,0,0,0,0,0,0,0,0,0,0,0,0,0,2,2,316.61,FLYING
317.98,APPROACH,FLY_TO_FIX,77.57,84,6.43,1066.84,-0.96,8.19,8.85,85.44,-0.006,0.6392,20,85.56,-0.735,0,0,0,0,0,0,0,0,90.45,0,0,0,0,0,0,0,0,0,0,0,0,0,2,2,318.03,FLYING
318.73,APPROACH,FLY_TO_FIX,78.79,84,5.21,1066.08,-0.93,7.83,8.45,85.44,-0.02,0.4392,20,85.56,-0.731,0,0,0,0,0,0,0,0,90.45,0,0,0,0,0,0,0,0,0,0,0,0,0,2,2,318.77,FLYING
319.45,APPROACH,FLY_TO_FIX,79.91,84,4.09,1065.36,-0.91,7.52,8.13,85.44,-0.029,0.2392,20,85.56,-0.727,0,0,0,0,0,0,0,0,90.45,0,0,0,0,0,0,0,0,0,0,0,0,0,2,2,319.49,FLYING
320.17,APPROACH,FLY_TO_FIX,80.92,84,3.08,1064.67,-0.91,7.29,7.89,85.44,-0.036,0.089,20,85.56,-0.724,0,0,0,0,0,0,0,0,90.45,0,0,0,0,0,0,0,0,0,0,0,0,0,2,2,320.22,FLYING
321.34,APPROACH,FLY_TO_FIX,82.06,84,1.94,1063.58,-0.9,7.13,7.7,85.44,-0.044,0,20,85.57,-0.719,0,0,0,0,0,0,0,0,90.45,0,0,0,0,0,0,0,0,0,0,0,0,0,2,2,321.41,FLYING
322.57,APPROACH,FLY_TO_FIX,82.63,84,1.37,1062.47,-0.9,7.11,7.68,85.45,-0.048,0,20,85.57,-0.713,0,0,0,0,0,0,0,0,90.45,0,0,0,0,0,0,0,0,0,0,0,0,0,2,2,322.64,FLYING
323.79,APPROACH,FLY_TO_FIX,82.55,84,1.45,1061.37,-0.92,7.25,7.82,85.45,-0.05,0.041,20,85.58,-0.707,0,0,0,0,0,0,0,0,90.45,0,0,0,0,0,0,0,0,0,0,0,0,0,2,2,323.86,FLYING
325.02,APPROACH,FLY_TO_FIX,82,84,2,1060.28,-0.93,7.47,8.06,85.45,-0.052,0.1765,20,85.58,-0.702,0,0,0,0,0,0,0,0,90.45,0,0,0,0,0,0,0,0,0,0,0,0,0,2,2,325.09,FLYING
326.24,APPROACH,FLY_TO_FIX,81.23,84,2.77,1059.18,-0.94,7.7,8.29,85.46,-0.052,0.3235,20,85.59,-0.697,0,0,0,0,0,0,0,0,90.45,0,0,0,0,0,0,0,0,0,0,0,0,0,2,2,326.31,FLYING
327.47,APPROACH,FLY_TO_FIX,80.48,84,3.52,1058.06,-0.94,7.91,8.51,85.46,-0.05,0.4466,20,85.59,-0.691,0,0,0,0,0,0,0,0,90.45,0,0,0,0,0,0,0,0,0,0,0,0,0,2,2,327.54,FLYING
328.69,APPROACH,FLY_TO_FIX,79.83,84,4.17,1056.93,-0.94,8.08,8.69,85.46,-0.049,0.5391,20,85.6,-0.685,0,0,0,0,0,0,0,0,90.45,0,0,0,0,0,0,0,0,0,0,0,0,0,2,2,328.76,FLYING
329.92,APPROACH,FLY_TO_FIX,79.32,84,4.68,1055.81,-0.93,8.2,8.82,85.46,-0.049,0.5979,20,85.6,-0.68,0,0,0,0,0,0,0,0,90.45,0,0,0,0,0,0,0,0,0,0,0,0,0,2,2,329.99,FLYING
331.14,APPROACH,FLY_TO_FIX,78.99,84,5.01,1054.68,-0.92,8.27,8.88,85.47,-0.049,0.623,20,85.61,-0.674,0,0,0,0,0,0,0,0,90.45,0,0,0,0,0,0,0,0,0,0,0,0,0,2,2,331.21,FLYING
332.37,APPROACH,FLY_TO_FIX,78.86,84,5.14,1053.55,-0.91,8.27,8.87,85.47,-0.046,0.6169,20,85.62,-0.668,0,0,0,0,0,0,0,0,90.45,0,0,0,0,0,0,0,0,0,0,0,0,0,2,2,332.44,FLYING
333.59,APPROACH,FLY_TO_FIX,78.92,84,5.08,1052.44,-0.89,8.22,8.81,85.47,-0.049,0.5842,20,85.63,-0.663,0,0,0,0,0,0,0,0,90.45,0,0,0,0,0,0,0,0,0,0,0,0,0,2,2,333.66,FLYING
334.82,APPROACH,FLY_TO_FIX,79.17,84,4.83,1051.35,-0.87,8.12,8.69,85.48,-0.053,0.5308,20,85.63,-0.657,0,0,0,0,0,0,0,0,90.45,0,0,0,0,0,0,0,0,0,0,0,0,0,2,2,334.89,FLYING
336.04,APPROACH,FLY_TO_FIX,79.55,84,4.45,1050.28,-0.84,7.98,8.54,85.48,-0.059,0.4636,20,85.64,-0.652,0,0,0,0,0,0,0,0,90.45,0,0,0,0,0,0,0,0,0,0,0,0,0,2,2,336.11,FLYING
337.27,APPROACH,FLY_TO_FIX,80.05,84,3.95,1049.24,-0.82,7.83,8.36,85.48,-0.067,0.3897,20,85.65,-0.647,0,0,0,0,0,0,0,0,90.45,0,0,0,0,0,0,0,0,0,0,0,0,0,2,2,337.34,FLYING
338.49,APPROACH,FLY_TO_FIX,80.61,84,3.39,1048.22,-0.8,7.66,8.19,85.49,-0.072,0.3156,20,85.67,-0.642,0,0,0,0,0,0,0,0,90.45,0,0,0,0,0,0,0,0,0,0,0,0,0,2,2,338.56,FLYING
339.72,APPROACH,ILS_TRACK,81.17,84,2.83,1047.2,-0.78,7.51,8.02,85.5,-0.08,0.2492,20,85.68,-0.637,0,0,0,0,0,0,0,0,90.45,0,0,0,0,0,0,0,0,0,0,0,0,0,2,2,339.79,FLYING
341.15,APPROACH,ILS_TRACK,81.72,84,2.28,1046.1,-0.77,7.42,7.91,85.51,-0.144,0.1946,20,114,-7,-196.51,57.05,16.318,106.116,-108.395,0,0,0,90.45,0,0,0,0,0,0,0,0,0,0,0,0,0,2,2,341.22,FLYING
342.48,APPROACH,ILS_TRACK,81.91,84,2.09,1044.76,-1.31,6.22,7.11,86.83,-9.005,0.1956,20,100.71,-7,-203.64,62.03,16.199,11.708,-26.582,0,0,0,90.45,0,0,0,0,0,0,0,0,0,0,0,0,0,2,2,342.55,FLYING
343.81,APPROACH,ILS_TRACK,82.14,84,1.86,1041.99,-2.64,5.19,7.21,89.8,-16.469,0.1912,20,100.05,-7,-209.01,65.83,16.08,11.046,-25.817,0,0,0,90.45,0,0,0,0,0,0,0,0,0,0,0,0,0,2,2,343.88,FLYING
345.14,APPROACH,ILS_TRACK,82.4,84,1.6,1037.37,-3.99,4.35,7.15,91.6,-15.065,0.1808,20,97.98,-7,-210.15,67.77,15.96,8.977,-23.447,0,0,0,90.45,0,0,0,0,0,0,0,0,0,0,0,0,0,2,2,345.21,FLYING
346.51,APPROACH,ILS_TRACK,82.65,84,1.35,1030.89,-5.21,3.7,7.11,92.59,-10.121,0.1716,20,95.71,-7,-207.01,67.99,15.837,6.712,-20.742,0,0,0,90.45,0,0,0,0,0,0,0,0,0,0,0,0,0,2,2,346.58,FLYING
347.87,APPROACH,ILS_TRACK,82.94,84,1.06,1022.93,-6.23,3.24,7.2,93.06,-5.586,0.1557,20,93.92,-7,-200.78,66.7,15.714,4.917,-17.943,0,0,0,90.45,0,0,0,0,0,0,0,0,0,0,0,0,0,2,2,347.94,FLYING
349.24,APPROACH,ILS_TRACK,83.28,84,0.72,1013.77,-7.03,2.81,7.24,93.2,-2.426,0.1336,20,92.71,-7,-192.77,64.17,15.591,3.706,-15.216,0,0,0,90.45,0,0,0,0,0,0,0,0,0,0,0,0,0,2,2,349.31,FLYING
350.6,APPROACH,ILS_TRACK,83.58,83.6,0.02,1003.64,-7.69,2.45,7.28,93.22,-0.675,0.0959,20,91.93,-7,-183.92,60.66,15.467,2.932,-12.576,0,0,0,90.45,0,0,0,0,0,0,0,0,0,0,0,0,0,2,2,350.67,FLYING
352,APPROACH,ILS_TRACK,83.8,83.2,-0.6,992.41,-8.25,2.17,7.34,93.05,0.711,0.0681,19.704,91.29,-7,-174.54,56.21,15.34,2.291,-9.74,0,0,0,90.45,0,0,0,0,0,0,0,0,0,0,0,0,0,2,2,352.07,FLYING
353.33,APPROACH,ILS_TRACK,83.87,82.8,-1.07,981.09,-8.69,1.98,7.42,92.77,1.604,0.0582,19.17,91.24,-7,-165.77,51.32,15.219,2.244,-7.571,0,0,0,90.45,0,0,0,0,0,0,0,0,0,0,0,0,0,2,2,353.4,FLYING
354.66,APPROACH,ILS_TRACK,83.79,82.4,-1.39,969.26,-9.05,1.84,7.52,92.5,1.858,0.0636,18.47,91.13,-7,-157.43,45.89,15.098,2.129,-5.078,0,0,0,90.45,0,0,0,0,0,0,0,0,0,0,0,0,0,2,2,354.73,FLYING
355.99,APPROACH,ILS_TRACK,83.61,82,-1.61,957.01,-9.37,1.84,7.7,92.25,1.814,0.0783,17.66,91.1,-5.592,-149.65,40.01,14.978,2.096,-2.592,0,0,0,90.45,0,0,0,0,0,0,0,0,0,0,0,0,0,2,2,356.06,FLYING
357.36,APPROACH,ILS_TRACK,83.27,81.6,-1.67,944.36,-9.29,2.31,8.15,92.01,1.598,0.108,16.814,91,-3.205,-142.26,33.8,14.855,1.996,-0.205,0,0,0,90.45,0,0,0,0,0,0,0,0,0,0,0,0,0,2,2,357.43,FLYING
358.72,APPROACH,ILS_TRACK,82.73,81.2,-1.53,932.27,-8.66,3.35,8.84,91.79,1.371,0.1604,16.034,91.01,-2.114,-135.45,27.99,14.732,2.011,0.886,0,0,0,90.45,0,0,0,0,0,0,0,0,0,0,0,0,0,2,2,358.79,FLYING
360.09,APPROACH,ILS_TRACK,82.01,80.8,-1.21,921.2,-7.79,4.16,9.17,91.62,1.117,0.2301,15.409,91.02,-2.152,-129.16,23.13,14.611,2.022,0.848,0,0,0,90.45,0,0,0,0,0,0,0,0,0,0,0,0,0,2,2,360.16,FLYING
361.45,APPROACH,ILS_TRACK,81.25,80.4,-0.85,911.18,-7.03,4.63,9.23,91.49,0.891,0.2976,14.965,91.02,-2.625,-123.32,19.28,14.49,2.015,0.375,0,0,0,90.45,0,0,0,0,0,0,0,0,0,0,0,0,0,2,2,361.52,FLYING
362.82,APPROACH,ILS_TRACK,80.56,80,-0.56,901.97,-6.53,4.96,9.25,91.39,0.714,0.3484,14.677,90.98,-2.975,-117.85,16.22,14.371,1.981,0.025,0,0,0,90.45,0,0,0,0,0,0,0,0,0,0,0,0,0,2,2,362.89,FLYING
364.18,APPROACH,ILS_TRACK,79.95,80,0.05,893.32,-6.2,5.22,9.31,91.3,0.589,0.3996,14.693,90.92,-3.093,-112.68,13.71,14.252,1.922,-0.093,0,0,0,90.45,0,0,0,0,0,0,0,0,0,0,0,0,0,2,2,364.25,FLYING
365.55,APPROACH,ILS_TRACK,79.48,80,0.52,885.08,-5.94,5.45,9.4,91.22,0.51,0.4303,14.949,90.85,-3.072,-107.75,11.58,14.134,1.846,-0.072,0,0,0,90.45,0,0,0,0,0,0,0,0,0,0,0,0,0,2,2,365.62,FLYING
366.91,APPROACH,ILS_TRACK,79.15,80,0.85,877.18,-5.71,5.64,9.44,91.15,0.471,0.4407,15.373,90.76,-3.02,-103.03,9.76,14.017,1.76,-0.02,0,0,0,90.45,0,0,0,0,0,0,0,0,0,0,0,0,0,2,2,366.98,FLYING
368.28,APPROACH,ILS_TRACK,78.96,80,1.04,869.55,-5.5,5.76,9.44,91.07,0.456,0.4318,15.889,90.67,-2.988,-98.49,8.22,13.9,1.668,0.012,0,0,0,90.45,0,0,0,0,0,0,0,0,0,0,0,0,0,2,2,368.35,FLYING
369.64,APPROACH,ILS_TRACK,78.93,80,1.07,862.18,-5.33,5.83,9.4,90.99,0.46,0.4059,16.424,90.57,-2.988,-94.11,6.91,13.784,1.575,0.012,0,0,0,90.45,0,0,0,0,0,0,0,0,0,0,0,0,0,2,2,369.71,FLYING
371.01,APPROACH,ILS_TRACK,79.03,80,0.97,855.01,-5.18,5.84,9.3,90.91,0.474,0.3663,16.911,90.49,-3.014,-89.89,5.83,13.667,1.486,-0.014,0,0,0,90.45,0,0,0,0,0,0,0,0,0,0,0,0,0,2,2,371.08,FLYING
372.37,APPROACH,ILS_TRACK,79.24,80,0.76,848.02,-5.06,5.8,9.18,90.83,0.487,0.3172,17.295,90.4,-3.048,-85.82,4.93,13.551,1.399,-0.048,0,0,0,90.45,0,0,0,0,0,0,0,0,0,0,0,0,0,2,2,372.44,FLYING
373.77,APPROACH,ILS_TRACK,79.54,80,0.46,840.99,-4.98,5.74,9.05,90.75,0.488,0.262,17.533,90.27,-3.041,-81.81,4.18,13.43,1.268,-0.041,0,0,0,90.45,0,0,0,0,0,0,0,0,0,0,0,0,0,2,2,373.84,FLYING
375.24,APPROACH,ILS_TRACK,79.88,80,0.12,833.72,-4.9,5.68,8.92,90.65,0.529,0.2048,17.597,90.09,-3.022,-77.78,3.53,13.304,1.093,-0.022,0,0,0,90.45,0,0,0,0,0,0,0,0,0,0,0,0,0,2,2,375.31,FLYING
376.64,APPROACH,ILS_TRACK,80.18,80,-0.18,826.9,-4.83,5.62,8.82,90.55,0.592,0.1617,17.511,90.13,-3.128,-74.11,3.04,13.183,1.131,-0.128,0,0,0,90.45,0,0,0,0,0,0,0,0,0,0,0,0,0,2,2,376.71,FLYING
378.04,APPROACH,ILS_TRACK,80.33,80,-0.33,820.15,-4.81,5.63,8.8,90.48,0.487,0.1442,17.348,90.09,-3.142,-70.64,2.63,13.062,1.09,-0.142,0,0,0,90.45,0,0,0,0,0,0,0,0,0,0,0,0,0,2,2,378.11,FLYING
379.44,APPROACH,ILS_TRACK,80.29,80,-0.29,813.44,-4.79,5.69,8.85,90.41,0.404,0.1577,17.203,90.05,-3.113,-67.35,2.28,12.94,1.049,-0.113,0,0,0,90.45,0,0,0,0,0,0,0,0,0,0,0,0,0,2,2,379.51,FLYING
380.91,APPROACH,ILS_TRACK,80.07,80,-0.07,806.45,-4.76,5.81,8.96,90.35,0.353,0.1965,17.166,89.92,-3.037,-64.06,1.94,12.813,0.919,-0.037,0,0,0,90.45,0,0,0,0,0,0,0,0,0,0,0,0,0,2,2,380.98,FLYING
382.35,APPROACH,ILS_TRACK,79.77,80,0.23,799.68,-4.7,5.93,9.06,90.28,0.385,0.2427,17.275,89.91,-3.024,-61.01,1.64,12.689,0.912,-0.024,0,0,0,90.45,0,0,0,0,0,0,0,0,0,0,0,0,0,2,2,382.42,FLYING
383.75,APPROACH,ILS_TRACK,79.5,80,0.5,793.14,-4.66,6.03,9.14,90.22,0.338,0.2826,17.524,89.91,-3.025,-58.17,1.4,12.569,0.912,-0.025,0,0,0,90.45,0,0,0,0,0,0,0,0,0,0,0,0,0,2,2,383.82,FLYING
385.15,APPROACH,ILS_TRACK,79.26,80,0.74,786.66,-4.62,6.11,9.2,90.18,0.275,0.3133,17.891,89.87,-3.017,-55.48,1.19,12.449,0.872,-0.017,0,0,0,90.45,0,0,0,0,0,0,0,0,0,0,0,0,0,2,2,385.22,FLYING
386.55,APPROACH,ILS_TRACK,79.09,80,0.91,780.23,-4.58,6.16,9.24,90.14,0.242,0.3324,18.346,89.83,-3.015,-52.9,1.01,12.33,0.826,-0.015,0,0,0,90.45,0,0,0,0,0,0,0,0,0,0,0,0,0,2,2,386.62,FLYING
387.95,APPROACH,ILS_TRACK,79,80,1,773.84,-4.55,6.19,9.24,90.1,0.228,0.339,18.847,89.78,-3.022,-50.42,0.86,12.211,0.777,-0.022,0,0,0,90.45,0,0,0,0,0,0,0,0,0,0,0,0,0,2,2,388.02,FLYING
389.35,APPROACH,ILS_TRACK,78.99,80,1.01,767.49,-4.52,6.18,9.22,90.06,0.227,0.3331,19.35,89.73,-3.04,-48.03,0.74,12.092,0.726,-0.04,0,0,0,90.45,0,0,0,0,0,0,0,0,0,0,0,0,0,2,2,389.42,FLYING
390.78,APPROACH,ILS_TRACK,79.08,80,0.92,761.01,-4.5,6.14,9.17,90.01,0.236,0.3156,19.81,89.65,-3.061,-45.67,0.66,11.97,0.647,-0.061,0,0,0,90.45,0,0,0,0,0,0,0,0,0,0,0,0,0,2,2,390.85,FLYING
392.18,APPROACH,ILS_TRACK,79.25,80,0.75,754.71,-4.49,6.08,9.09,89.96,0.259,0.2873,20,89.63,-3.092,-43.46,0.6,11.85,0.632,-0.092,0,0,0,90.45,0,0,0,0,0,0,0,0,0,0,0,0,0,2,2,392.25,FLYING
393.58,APPROACH,ILS_TRACK,79.47,80,0.53,748.41,-4.49,6,9,89.92,0.252,0.2523,20,89.59,-3.119,-41.34,0.57,11.731,0.593,-0.119,0,0,0,90.45,0,0,0,0,0,0,0,0,0,0,0,0,0,2,2,393.65,FLYING
394.98,APPROACH,ILS_TRACK,79.73,80,0.27,742.12,-4.49,5.92,8.91,89.87,0.249,0.2169,20,89.56,-3.142,-39.31,0.55,11.611,0.557,-0.142,0,0,0,90.45,0,0,0,0,0,0,0,0,0,0,0,0,0,2,2,395.05,FLYING
396.38,APPROACH,ILS_TRACK,79.97,80,0.03,735.81,-4.5,5.85,8.84,89.83,0.244,0.1879,20,89.52,-3.161,-37.36,0.55,11.491,0.523,-0.161,0,0,0,90.45,0,0,0,0,0,0,0,0,0,0,0,0,0,2,2,396.45,FLYING
397.78,APPROACH,ILS_TRACK,80.12,80,-0.12,729.5,-4.51,5.82,8.82,89.79,0.238,0.1745,19.941,89.49,-3.17,-35.51,0.55,11.37,0.493,-0.17,0,0,0,90.45,0,0,0,0,0,0,0,0,0,0,0,0,0,2,2,397.85,FLYING
399.18,APPROACH,ILS_TRACK,80.15,80,-0.15,723.18,-4.52,5.84,8.84,89.75,0.227,0.1806,19.867,89.47,-3.163,-33.74,0.55,11.25,0.467,-0.163,0,0,0,90.45,0,0,0,0,0,0,0,0,0,0,0,0,0,2,2,399.25,FLYING
400.58,APPROACH,ILS_TRACK,80.07,80,-0.07,716.86,-4.52,5.88,8.88,89.71,0.209,0.2021,19.832,89.44,-3.145,-32.07,0.54,11.129,0.445,-0.145,0,0,0,90.45,0,0,0,0,0,0,0,0,0,0,0,0,0,2,2,400.65,FLYING
402.02,APPROACH,ILS_TRACK,79.93,80,0.07,710.38,-4.52,5.92,8.93,89.68,0.188,0.2291,19.864,89.4,-3.122,-30.44,0.52,11.006,0.402,-0.122,0,0,0,90.45,0,0,0,0,0,0,0,0,0,0,0,0,0,2,2,402.09,FLYING
403.42,APPROACH,ILS_TRACK,79.8,80,0.2,704.07,-4.51,5.97,8.98,89.64,0.182,0.252,19.96,89.4,-3.108,-28.93,0.49,10.886,0.403,-0.108,0,0,0,90.45,0,0,0,0,0,0,0,0,0,0,0,0,0,2,2,403.49,FLYING
404.82,APPROACH,ILS_TRACK,79.7,80,0.3,697.77,-4.5,6,9.01,89.61,0.157,0.2678,20,89.38,-3.102,-27.49,0.47,10.767,0.381,-0.102,0,0,0,90.45,0,0,0,0,0,0,0,0,0,0,0,0,0,2,2,404.89,FLYING
406.22,APPROACH,ILS_TRACK,79.63,80,0.37,691.49,-4.48,6.01,9.02,89.59,0.142,0.2757,20,89.36,-3.104,-26.12,0.45,10.647,0.361,-0.104,0,0,0,90.45,0,0,0,0,0,0,0,0,0,0,0,0,0,2,2,406.29,FLYING
407.62,APPROACH,ILS_TRACK,79.61,80,0.39,685.22,-4.47,6.01,9.01,89.56,0.134,0.2759,20,89.34,-3.113,-24.82,0.44,10.527,0.339,-0.113,0,0,0,90.45,0,0,0,0,0,0,0,0,0,0,0,0,0,2,2,407.69,FLYING
409.02,APPROACH,ILS_TRACK,79.63,80,0.37,678.96,-4.47,6,8.99,89.54,0.132,0.2692,20,89.32,-3.125,-23.56,0.44,10.408,0.316,-0.125,0,0,0,90.45,0,0,0,0,0,0,0,0,0,0,0,0,0,2,2,409.09,FLYING
410.42,APPROACH,ILS_TRACK,79.7,80,0.3,672.7,-4.46,5.97,8.96,89.51,0.129,0.257,20,89.3,-3.14,-22.37,0.44,10.289,0.297,-0.14,0,0,0,90.45,0,0,0,0,0,0,0,0,0,0,0,0,0,2,2,410.49,FLYING
411.82,APPROACH,ILS_TRACK,79.81,80,0.19,666.45,-4.46,5.93,8.92,89.49,0.128,0.2412,20,89.28,-3.155,-21.22,0.45,10.169,0.277,-0.155,0,0,0,90.45,0,0,0,0,0,0,0,0,0,0,0,0,0,2,2,411.89,FLYING
413.22,APPROACH,ILS_TRACK,79.94,80,0.06,660.19,-4.46,5.89,8.87,89.46,0.126,0.2237,20,89.26,-3.17,-20.13,0.47,10.049,0.261,-0.17,0,0,0,90.45,0,0,0,0,0,0,0,0,0,0,0,0,0,2,2,413.29,FLYING
414.62,APPROACH,ILS_TRACK,80.07,80,-0.07,653.93,-4.47,5.84,8.83,89.44,0.124,0.2069,19.968,89.24,-3.182,-19.1,0.49,9.929,0.245,-0.182,0,0,0,90.45,0,0,0,0,0,0,0,0,0,0,0,0,0,2,2,414.69,FLYING
416.02,APPROACH,ILS_TRACK,80.18,80,-0.18,647.67,-4.48,5.82,8.8,89.41,0.121,0.1945,19.878,89.23,-3.19,-18.11,0.51,9.809,0.231,-0.19,0,0,0,90.45,0,0,0,0,0,0,0,0,0,0,0,0,0,2,2,416.09,FLYING
417.42,APPROACH,ILS_TRACK,80.24,80,-0.24,641.39,-4.48,5.81,8.8,89.39,0.113,0.1914,19.759,89.22,-3.193,-17.17,0.53,9.689,0.218,-0.193,0,0,0,90.45,0,0,0,0,0,0,0,0,0,0,0,0,0,2,2,417.49,FLYING
418.82,APPROACH,ILS_TRACK,80.23,80,-0.23,635.12,-4.49,5.82,8.81,89.37,0.107,0.198,19.644,89.21,-3.187,-16.28,0.55,9.569,0.208,-0.187,0,0,0,90.45,0,0,0,0,0,0,0,0,0,0,0,0,0,2,2,418.89,FLYING
420.22,APPROACH,ILS_TRACK,80.17,80,-0.17,628.83,-4.49,5.84,8.84,89.35,0.097,0.2105,19.557,89.2,-3.176,-15.45,0.55,9.449,0.198,-0.176,0,0,0,90.45,0,0,0,0,0,0,0,0,0,0,0,0,0,2,2,420.29,FLYING
421.62,APPROACH,ILS_TRACK,80.1,80,-0.1,622.55,-4.49,5.87,8.87,89.33,0.088,0.2237,19.506,89.19,-3.166,-14.65,0.55,9.33,0.189,-0.166,0,0,0,90.45,0,0,0,0,0,0,0,0,0,0,0,0,0,2,2,421.69,FLYING
423.02,APPROACH,ILS_TRACK,80.04,80,-0.04,616.28,-4.48,5.89,8.89,89.31,0.079,0.2344,19.488,89.18,-3.16,-13.9,0.55,9.21,0.179,-0.16,0,0,0,90.45,0,0,0,0,0,0,0,0,0,0,0,0,0,2,2,423.09,FLYING
424.42,APPROACH,ILS_TRACK,79.99,80,0.01,610.01,-4.48,5.9,8.9,89.3,0.071,0.2415,19.494,89.17,-3.159,-13.18,0.55,9.09,0.171,-0.159,0,0,0,90.45,0,0,0,0,0,0,0,0,0,0,0,0,0,2,2,424.49,FLYING
425.82,APPROACH,ILS_TRACK,79.96,80,0.04,603.75,-4.47,5.91,8.9,89.28,0.065,0.2446,19.515,89.16,-3.161,-12.51,0.55,8.971,0.161,-0.161,0,0,0,90.45,0,0,0,0,0,0,0,0,0,0,0,0,0,2,2,425.89,FLYING
427.22,APPROACH,ILS_TRACK,79.96,80,0.04,597.5,-4.46,5.9,8.9,89.27,0.062,0.2436,19.537,89.15,-3.167,-11.86,0.55,8.852,0.152,-0.167,0,0,0,90.45,0,0,0,0,0,0,0,0,0,0,0,0,0,2,2,427.29,FLYING
428.62,APPROACH,ILS_TRACK,79.98,80,0.02,591.25,-4.46,5.89,8.88,89.25,0.06,0.2388,19.547,89.14,-3.175,-11.25,0.55,8.732,0.143,-0.175,0,0,0,90.45,0,0,0,0,0,0,0,0,0,0,0,0,0,2,2,428.69,FLYING
430.02,APPROACH,ILS_TRACK,80.03,80,-0.03,585,-4.46,5.87,8.86,89.24,0.057,0.231,19.534,89.14,-3.183,-10.67,0.56,8.613,0.135,-0.183,0,0,0,90.45,0,0,0,0,0,0,0,0,0,0,0,0,0,2,2,430.09,FLYING
431.42,APPROACH,ILS_TRACK,80.09,80,-0.09,578.76,-4.46,5.85,8.84,89.22,0.058,0.2211,19.488,89.13,-3.192,-10.12,0.57,8.493,0.129,-0.192,0,0,0,90.45,0,0,0,0,0,0,0,0,0,0,0,0,0,2,2,431.49,FLYING
432.82,APPROACH,ILS_TRACK,80.17,80,-0.17,572.51,-4.46,5.82,8.81,89.21,0.054,0.2103,19.405,89.12,-3.199,-9.59,0.59,8.374,0.122,-0.199,0,0,0,90.45,0,0,0,0,0,0,0,0,0,0,0,0,0,2,2,432.89,FLYING
434.22,APPROACH,ILS_TRACK,80.24,80,-0.24,566.26,-4.46,5.8,8.79,89.2,0.051,0.2008,19.285,89.12,-3.205,-9.1,0.6,8.254,0.118,-0.205,0,0,0,90.45,0,0,0,0,0,0,0,0,0,0,0,0,0,2,2,434.29,FLYING
435.62,APPROACH,ILS_TRACK,80.29,80,-0.29,560.01,-4.47,5.79,8.78,89.19,0.047,0.1959,19.141,89.11,-3.208,-8.64,0.62,8.135,0.113,-0.208,0,0,0,90.45,0,0,0,0,0,0,0,0,0,0,0,0,0,2,2,435.69,FLYING
437.02,APPROACH,ILS_TRACK,80.29,80,-0.29,553.75,-4.47,5.8,8.79,89.17,0.043,0.1973,18.996,89.11,-3.206,-8.2,0.63,8.015,0.109,-0.206,0,0,0,90.45,0,0,0,0,0,0,0,0,0,0,0,0,0,2,2,437.09,FLYING
438.42,APPROACH,ILS_TRACK,80.26,80,-0.26,547.34,-4.47,5.83,8.82,89.16,0.038,0.2041,18.867,89.11,-2.902,-7.78,0.48,7.896,0.105,0.098,0,0,0,90.45,0,0,0,0,0,0,0,0,0,0,0,0,0,3,3,438.49,FLYING
439.92,APPROACH,ILS_TRACK,80.1,80,-0.1,540.82,-4.35,5.67,8.62,89.15,0.029,0.2277,18.813,89.09,-3.516,-7.37,0.67,7.767,0.087,-0.516,0,0,0,90.45,0,0,0,0,0,0,0,0,0,0,0,0,0,3,3,439.99,FLYING
441.32,APPROACH,ILS_TRACK,79.84,80,0.16,534.61,-4.46,5.42,8.41,89.14,0.041,0.2646,18.884,89.1,-3.259,-7.01,0.7,7.648,0.099,-0.259,0,0,0,90.45,0,0,0,0,0,0,0,0,0,0,0,0,0,3,3,441.39,FLYING
442.72,APPROACH,ILS_TRACK,79.49,80,0.51,528.45,-4.39,5.56,8.55,89.13,0.035,0.3148,19.133,89.1,-3.295,-6.67,0.75,7.53,0.097,-0.295,0,0,0,90.45,0,0,0,0,0,0,0,0,0,0,0,0,0,3,3,442.79,FLYING
444.12,APPROACH,ILS_TRACK,79.19,80,0.81,522.28,-4.41,5.63,8.63,89.12,0.031,0.3526,19.533,89.1,-3.254,-6.35,0.76,7.412,0.096,-0.254,0,0,0,90.45,0,0,0,0,0,0,0,0,0,0,0,0,0,3,3,444.19,FLYING
445.56,APPROACH,ILS_TRACK,78.98,80,1.02,515.96,-4.41,5.68,8.69,89.11,0.027,0.3752,20,89.09,-3.209,-6.05,0.75,7.292,0.092,-0.209,0,0,0,90.45,0,0,0,0,0,0,0,0,0,0,0,0,0,3,3,445.63,FLYING
446.96,APPROACH,ILS_TRACK,78.87,80,1.13,509.79,-4.41,5.7,8.71,89.11,0.018,0.3749,20,89.09,-3.172,-5.78,0.72,7.174,0.095,-0.172,0,0,0,90.45,0,0,0,0,0,0,0,0,0,0,0,0,0,3,3,447.03,FLYING
448.36,APPROACH,ILS_TRACK,78.87,80,1.13,503.62,-4.4,5.69,8.69,89.1,0.013,0.3598,20,89.09,-3.163,-5.52,0.7,7.057,0.093,-0.163,0,0,0,90.45,0,0,0,0,0,0,0,0,0,0,0,0,0,3,3,448.43,FLYING
449.76,APPROACH,ILS_TRACK,78.97,80,1.03,497.46,-4.39,5.64,8.64,89.1,0.008,0.3333,20,89.09,-3.175,-5.28,0.68,6.94,0.09,-0.175,0,0,0,90.45,0,0,0,0,0,0,0,0,0,0,0,0,0,3,3,449.83,FLYING
451.16,APPROACH,ILS_TRACK,79.14,80,0.86,491.31,-4.38,5.58,8.57,89.09,0.008,0.2995,20,89.09,-3.199,-5.05,0.68,6.823,0.087,-0.199,0,0,0,90.45,0,0,0,0,0,0,0,0,0,0,0,0,0,3,3,451.23,FLYING
452.59,APPROACH,ILS_TRACK,79.37,80,0.63,485,-4.39,5.49,8.48,89.08,0.006,0.2619,20,89.08,-3.224,-4.83,0.69,6.702,0.083,-0.224,0,0,0,90.45,0,0,0,0,0,0,0,0,0,0,0,0,0,3,3,452.66,FLYING
453.99,APPROACH,ILS_TRACK,79.62,80,0.38,478.84,-4.4,5.41,8.4,89.08,0.006,0.2275,20,89.08,-3.238,-4.62,0.7,6.584,0.082,-0.238,0,0,0,90.45,0,0,0,0,0,0,0,0,0,0,0,0,0,3,3,454.06,FLYING
455.39,APPROACH,ILS_TRACK,79.81,80,0.19,472.66,-4.41,5.36,8.35,89.07,0.004,0.2042,20,89.08,-3.244,-4.43,0.72,6.466,0.081,-0.244,0,0,0,90.45,0,0,0,0,0,0,0,0,0,0,0,0,0,3,3,455.46,FLYING
456.79,APPROACH,ILS_TRACK,79.88,80,0.12,466.47,-4.43,5.36,8.36,89.07,0.002,0.201,20,89.08,-3.241,-4.25,0.73,6.348,0.079,-0.241,0,0,0,90.45,0,0,0,0,0,0,0,0,0,0,0,0,0,3,3,456.86,FLYING
458.19,APPROACH,ILS_TRACK,79.83,80,0.17,460.27,-4.43,5.4,8.4,89.06,0.001,0.2172,20,89.08,-3.227,-4.08,0.74,6.229,0.077,-0.227,0,0,0,90.45,0,0,0,0,0,0,0,0,0,0,0,0,0,3,3,458.26,FLYING
459.59,APPROACH,ILS_TRACK,79.69,80,0.31,454.07,-4.43,5.45,8.46,89.06,-0.001,0.2435,20,89.08,-3.206,-3.92,0.73,6.111,0.077,-0.206,0,0,0,90.45,0,0,0,0,0,0,0,0,0,0,0,0,0,3,3,459.66,FLYING
460.99,APPROACH,ILS_TRACK,79.54,80,0.46,447.88,-4.43,5.5,8.51,89.05,-0.002,0.2689,20,89.08,-3.187,-3.77,0.71,5.993,0.076,-0.187,0,0,0,90.45,0,0,0,0,0,0,0,0,0,0,0,0,0,3,3,461.06,FLYING
462.39,APPROACH,ILS_TRACK,79.4,80,0.6,441.7,-4.42,5.54,8.55,89.05,-0.002,0.2882,20,89.07,-3.175,-3.63,0.69,5.876,0.075,-0.175,0,0,0,90.45,0,0,0,0,0,0,0,0,0,0,0,0,0,3,3,462.46,FLYING
463.79,APPROACH,ILS_TRACK,79.3,80,0.7,435.53,-4.41,5.57,8.58,89.05,-0.003,0.2999,20,89.07,-3.168,-3.5,0.67,5.758,0.075,-0.168,0,0,0,90.45,0,0,0,0,0,0,0,0,0,0,0,0,0,3,3,463.86,FLYING
465.23,APPROACH,ILS_TRACK,79.25,80,0.75,429.21,-4.4,5.58,8.58,89.04,-0.004,0.3035,20,89.07,-3.167,-3.37,0.65,5.638,0.073,-0.167,0,0,0,90.45,0,0,0,0,0,0,0,0,0,0,0,0,0,3,3,465.3,FLYING
466.66,APPROACH,ILS_TRACK,79.25,80,0.75,422.91,-4.39,5.57,8.57,89.04,-0.004,0.299,20,89.07,-3.173,-3.26,0.64,5.518,0.073,-0.173,0,0,0,90.45,0,0,0,0,0,0,0,0,0,0,0,0,0,3,3,466.73,FLYING
468.1,APPROACH,ILS_TRACK,79.29,80,0.71,416.61,-4.38,5.55,8.54,89.03,-0.006,0.2878,20,89.07,-3.184,-3.15,0.64,5.398,0.073,-0.184,0,0,0,90.45,0,0,0,0,0,0,0,0,0,0,0,0,0,3,3,468.17,FLYING
469.53,APPROACH,ILS_TRACK,79.39,80,0.61,410.32,-4.38,5.51,8.5,89.03,-0.007,0.272,20,89.07,-3.195,-3.05,0.64,5.278,0.074,-0.195,0,0,0,90.45,0,0,0,0,0,0,0,0,0,0,0,0,0,3,3,469.6,FLYING
470.97,APPROACH,ILS_TRACK,79.51,80,0.49,404.02,-4.38,5.47,8.46,89.03,-0.01,0.2537,20,89.07,-3.205,-2.96,0.65,5.158,0.074,-0.205,0,0,0,90.45,0,0,0,0,0,0,0,0,0,0,0,0,0,3,3,471.04,FLYING
472.4,APPROACH,ILS_TRACK,79.64,80,0.36,397.72,-4.39,5.42,8.41,89.03,-0.013,0.2356,20,89.07,-3.212,-2.88,0.66,5.037,0.074,-0.212,0,0,0,90.45,0,0,0,0,0,0,0,0,0,0,0,0,0,3,3,472.47,FLYING
473.7,APPROACH,ILS_TRACK,79.75,80,0.25,392.01,-4.39,5.39,8.38,89.02,-0.014,0.223,20,89.08,-3.216,-2.81,0.67,4.923,0.076,-0.216,0,0,0,90.45,0,0,0,0,0,0,0,0,0,0,0,0,0,3,3,473.75,FLYING
474.54,APPROACH,ILS_TRACK,79.8,80,0.2,388.32,-4.4,5.37,8.37,89.02,-0.017,0.2218,20,89.09,-3.211,-2.77,0.67,4.85,0.089,-0.211,0,0,0,90.45,0,0,0,0,0,0,0,0,0,0,0,0,0,3,3,474.58,FLYING
475.36,APPROACH,ILS_TRACK,79.82,80,0.18,384.71,-4.4,5.38,8.37,89.02,-0.022,0.2247,20,89.09,-3.211,-2.73,0.68,4.781,0.089,-0.211,0,0,0,90.45,0,0,0,0,0,0,0,0,0,0,0,0,0,3,3,475.4,FLYING
476.18,APPROACH,ILS_TRACK,79.81,80,0.19,381.1,-4.4,5.38,8.38,89.02,-0.025,0.2299,20,89.09,-3.208,-2.69,0.68,4.712,0.089,-0.208,0,0,0,90.45,0,0,0,0,0,0,0,0,0,0,0,0,0,3,3,476.22,FLYING
477.19,APPROACH,ILS_TRACK,79.8,80,0.2,376.66,-4.41,5.4,8.4,89.02,-0.025,0.236,20,89.09,-3.205,-2.65,0.68,4.635,0.085,-0.205,0,0,0,90.45,0,0,0,0,0,0,0,0,0,0,0,0,0,3,3,477.26,FLYING
478.62,APPROACH,ILS_TRACK,79.76,80,0.24,370.34,-4.41,5.41,8.41,89.02,-0.025,0.2443,20,89.07,-3.196,-2.59,0.68,4.514,0.073,-0.196,0,0,0,90.45,0,0,0,0,0,0,0,0,0,0,0,0,0,3,3,478.69,FLYING
480.06,APPROACH,ILS_TRACK,79.73,80,0.27,364.02,-4.4,5.42,8.42,89.02,-0.023,0.251,20,89.07,-3.19,-2.53,0.67,4.394,0.071,-0.19,0,0,0,90.45,0,0,0,0,0,0,0,0,0,0,0,0,0,3,3,480.13,FLYING
481.49,APPROACH,ILS_TRACK,79.7,80,0.3,357.71,-4.4,5.43,8.43,89.02,-0.021,0.2552,20,89.07,-3.188,-2.47,0.66,4.274,0.07,-0.188,0,0,0,90.45,0,0,0,0,0,0,0,0,0,0,0,0,0,3,3,481.56,FLYING
482.93,APPROACH,ILS_TRACK,79.69,80,0.31,351.4,-4.39,5.43,8.43,89.02,-0.021,0.2567,20,89.07,-3.188,-2.42,0.66,4.153,0.069,-0.188,0,0,0,90.45,0,0,0,0,0,0,0,0,0,0,0,0,0,3,3,483,FLYING
484.36,APPROACH,ILS_TRACK,79.7,80,0.3,345.1,-4.39,5.42,8.42,89.02,-0.021,0.2556,20,89.07,-3.19,-2.36,0.65,4.033,0.069,-0.19,0,0,0,90.45,0,0,0,0,0,0,0,0,0,0,0,0,0,3,3,484.43,FLYING
485.8,APPROACH,ILS_TRACK,79.72,80,0.28,338.79,-4.39,5.41,8.41,89.01,-0.02,0.2522,20,89.07,-3.193,-2.32,0.65,3.913,0.069,-0.193,0,0,0,90.45,0,0,0,0,0,0,0,0,0,0,0,0,0,3,3,485.87,FLYING
487.23,APPROACH,ILS_TRACK,79.76,80,0.24,332.5,-4.39,5.4,8.4,89.01,-0.019,0.2472,20,89.07,-3.195,-2.27,0.65,3.793,0.069,-0.195,0,0,0,90.45,0,0,0,0,0,0,0,0,0,0,0,0,0,3,3,487.3,FLYING
488.67,APPROACH,ILS_TRACK,79.81,80,0.19,326.2,-4.39,5.38,8.38,89.01,-0.019,0.2413,20,89.07,-3.198,-2.23,0.65,3.672,0.069,-0.198,0,0,0,90.45,0,0,0,0,0,0,0,0,0,0,0,0,0,3,3,488.74,FLYING
490.1,APPROACH,ILS_TRACK,79.86,80,0.14,319.9,-4.39,5.37,8.36,89.01,-0.02,0.2355,20,89.07,-3.201,-2.19,0.66,3.552,0.069,-0.201,0,0,0,90.45,0,0,0,0,0,0,0,0,0,0,0,0,0,3,3,490.17,FLYING
491.54,APPROACH,ILS_TRACK,79.9,80,0.1,313.6,-4.39,5.36,8.35,89.01,-0.022,0.2315,20,89.07,-3.203,-2.16,0.66,3.432,0.07,-0.203,0,0,0,90.45,0,0,0,0,0,0,0,0,0,0,0,0,0,3,3,491.61,FLYING
492.97,APPROACH,ILS_TRACK,79.92,80,0.08,307.3,-4.39,5.35,8.35,89.01,-0.022,0.2308,20,89.07,-3.203,-2.13,0.66,3.312,0.07,-0.203,0,0,0,90.45,0,0,0,0,0,0,0,0,0,0,0,0,0,3,3,493.04,FLYING
494.41,APPROACH,ILS_TRACK,79.92,80,0.08,301,-4.39,5.36,8.36,89.01,-0.024,0.2335,20,89.07,-3.202,-2.1,0.66,3.191,0.071,-0.202,0,0,0,90.45,0,0,0,0,0,0,0,0,0,0,0,0,0,3,3,494.48,FLYING
495.84,APPROACH,ILS_TRACK,79.9,80,0.1,294.7,-4.39,5.36,8.36,89.01,-0.026,0.2377,20,89.07,-3.198,-2.08,0.66,3.071,0.071,-0.198,0,0,0,90.45,0,0,0,0,0,0,0,0,0,0,0,0,0,3,3,495.91,FLYING
497.28,APPROACH,ILS_TRACK,79.89,80,0.11,288.4,-4.39,5.37,8.37,89.01,-0.026,0.2415,20,89.07,-3.195,-2.06,0.66,2.951,0.071,-0.195,0,0,0,90.45,0,0,0,0,0,0,0,0,0,0,0,0,0,3,3,497.35,FLYING
498.68,APPROACH,ILS_TRACK,79.88,80,0.12,282.26,-4.39,5.37,8.37,89.01,-0.026,0.2441,20,89.07,-3.192,-2.03,0.66,2.834,0.071,-0.192,0,0,0,90.45,0,0,0,0,0,0,0,0,0,0,0,0,0,3,3,498.75,FLYING
500.11,APPROACH,ILS_TRACK,79.87,80,0.13,275.97,-4.38,5.37,8.37,89.01,-0.026,0.2451,20,89.07,-3.192,-2.01,0.65,2.714,0.07,-0.192,0,0,0,90.45,0,0,0,0,0,0,0,0,0,0,0,0,0,3,3,500.18,FLYING
501.55,APPROACH,ILS_TRACK,79.88,80,0.12,269.68,-4.38,5.37,8.37,89.01,-0.026,0.2447,20,89.07,-3.192,-2,0.65,2.594,0.071,-0.192,0,0,0,90.45,0,0,0,0,0,0,0,0,0,0,0,0,0,3,3,501.62,FLYING
502.98,APPROACH,ILS_TRACK,79.89,80,0.11,263.39,-4.38,5.36,8.36,89,-0.025,0.2429,20,89.07,-3.193,-1.98,0.65,2.474,0.07,-0.193,0,0,0,90.45,0,0,0,0,0,0,0,0,0,0,0,0,0,3,3,503.05,FLYING
504.42,APPROACH,ILS_TRACK,79.91,80,0.09,257.1,-4.38,5.35,8.35,89,-0.026,0.2402,20,89.07,-3.195,-1.96,0.65,2.354,0.071,-0.195,0,0,0,90.45,0,0,0,0,0,0,0,0,0,0,0,0,0,3,3,504.49,FLYING
505.85,APPROACH,ILS_TRACK,79.94,80,0.06,250.82,-4.38,5.34,8.34,89,-0.026,0.2369,20,89.07,-3.197,-1.95,0.65,2.234,0.071,-0.197,0,0,0,90.45,0,0,0,0,0,0,0,0,0,0,0,0,0,3,3,505.92,FLYING
507.29,APPROACH,ILS_TRACK,79.97,80,0.03,244.54,-4.38,5.34,8.33,89,-0.026,0.2336,20,89.07,-3.198,-1.94,0.65,2.114,0.071,-0.198,0,0,0,90.45,0,0,0,0,0,0,0,0,0,0,0,0,0,3,3,507.36,FLYING
508.72,APPROACH,ILS_TRACK,80,80,0,238.26,-4.38,5.33,8.33,89,-0.026,0.2314,20,89.07,-3.2,-1.92,0.66,1.994,0.071,-0.2,0,0,0,90.45,0,0,0,0,0,0,0,0,0,0,0,0,0,3,3,508.79,FLYING
510.16,APPROACH,ILS_TRACK,80.01,80,-0.01,231.97,-4.38,5.33,8.33,89,-0.025,0.2311,19.996,89.07,-3.2,-1.91,0.66,1.874,0.072,-0.2,0,0,0,90.45,0,0,0,0,0,0,0,0,0,0,0,0,0,3,3,510.23,FLYING
511.59,APPROACH,ILS_TRACK,80.01,80,-0.01,225.69,-4.38,5.33,8.33,89,-0.024,0.2325,19.991,89.07,-3.199,-1.91,0.66,1.755,0.072,-0.199,0,0,0,90.45,0,0,0,0,0,0,0,0,0,0,0,0,0,3,3,511.66,FLYING
513.03,APPROACH,ILS_TRACK,80,80,0,219.41,-4.38,5.33,8.33,89,-0.025,0.2348,19.989,89.07,-3.197,-1.9,0.66,1.635,0.073,-0.197,0,0,0,90.45,0,0,0,0,0,0,0,0,0,0,0,0,0,3,3,513.1,FLYING
514.46,APPROACH,ILS_TRACK,80,80,0,213.14,-4.37,5.33,8.33,89,-0.028,0.2369,19.991,89.07,-3.195,-1.89,0.66,1.515,0.073,-0.195,0,0,0,90.45,0,0,0,0,0,0,0,0,0,0,0,0,0,3,3,514.53,FLYING
515.81,APPROACH,ILS_TRACK,79.99,80,0.01,207.25,-4.37,5.33,8.33,89,-0.028,0.2383,19.995,89.07,-3.193,-1.89,0.65,1.398,0.073,-0.193,0,0,0,90.45,0,0,0,0,0,0,0,0,0,0,0,0,0,3,3,515.86,FLYING
516.72,APPROACH,ILS_TRACK,79.99,80,0.01,203.27,-4.37,5.32,8.32,89,-0.029,0.2389,19.999,89.07,-3.194,-1.89,0.65,1.319,0.074,-0.194,0,0,0,90.45,0,0,0,0,0,0,0,0,0,0,0,0,0,3,3,516.76,FLYING
517.56,APPROACH,ILS_TRACK,79.99,80,0.01,199.6,-4.37,5.32,8.32,89,-0.03,0.2388,20,89.07,-3.193,-1.89,0.65,1.249,0.075,-0.193,0,0,0,90.45,0,0,0,0,0,0,0,0,0,0,0,0,0,3,3,517.6,FLYING
518.4,APPROACH,ILS_TRACK,80,80,0,195.93,-4.37,5.32,8.32,89,-0.031,0.2384,20,89.07,-3.192,-1.88,0.65,1.179,0.075,-0.192,0,0,0,90.45,0,0,0,0,0,0,0,0,0,0,0,0,0,3,3,518.44,FLYING
519.24,APPROACH,ILS_TRACK,80.01,80,-0.01,192.25,-4.37,5.31,8.32,89,-0.031,0.2377,19.998,89.07,-3.19,-1.88,0.65,1.109,0.075,-0.19,0,0,0,90.45,0,0,0,0,0,0,0,0,0,0,0,0,0,3,3,519.28,FLYING
520.08,APPROACH,ILS_TRACK,80.01,80,-0.01,188.58,-4.37,5.31,8.31,89,-0.032,0.2367,19.991,89.07,-3.189,-1.88,0.64,1.039,0.075,-0.189,0,0,0,90.45,0,0,0,0,0,0,0,0,0,0,0,0,0,3,3,520.12,FLYING
520.92,APPROACH,ILS_TRACK,80.02,80,-0.02,184.91,-4.37,5.31,8.31,89,-0.033,0.2355,19.979,89.07,-3.187,-1.88,0.64,0.969,0.075,-0.187,0,0,0,90.45,0,0,0,0,0,0,0,0,0,0,0,0,0,3,3,520.96,FLYING
521.76,APPROACH,ILS_TRACK,80.04,80,-0.04,181.24,-4.37,5.3,8.31,89,-0.032,0.2342,19.961,89.07,-3.186,-1.88,0.64,0.899,0.075,-0.186,0,0,0,90.45,0,0,0,0,0,0,0,0,0,0,0,0,0,3,3,521.8,FLYING
522.6,APPROACH,ILS_TRACK,80.05,80,-0.05,176.35,-4.37,5.3,8.3,89,-0.032,0.2328,19.937,89.07,-3.186,-1.88,0.64,0.829,0.075,-0.186,0,0,0,90.45,0,0,0,0,0,0,0,0,0,0,0,0,0,3,3,522.64,FLYING
523.42,APPROACH,ILS_TRACK,80.06,80,-0.06,151.04,-4.37,5.3,8.3,89,-0.033,0.2316,19.908,89.07,-3.185,-1.88,0.63,0.761,0.075,-0.185,0,0,0,90.45,0,0,0,0,0,0,0,0,0,0,0,0,0,3,3,523.46,FLYING
524.24,APPROACH,ILS_TRACK,80.07,80,-0.07,143.33,-4.37,5.3,8.3,89,-0.033,0.2306,19.874,89.07,-3.185,-1.88,0.63,0.693,0.075,-0.185,0,0,0,90.45,0,0,0,0,0,0,0,0,0,0,0,0,0,3,3,524.28,FLYING
525.06,APPROACH,ILS_TRACK,80.08,80,-0.08,125.67,-4.37,5.29,8.3,89,-0.034,0.23,19.837,89.07,-3.185,-1.88,0.63,0.624,0.075,-0.185,0,0,0,90.45,0,0,0,0,0,0,0,0,0,0,0,0,0,3,3,525.1,FLYING
525.88,APPROACH,ILS_TRACK,80.08,80,-0.08,106.91,-4.37,5.29,8.3,89,-0.034,0.2298,19.797,89.07,-3.184,-1.88,0.63,0.556,0.075,-0.184,0,0,0,90.45,0,0,0,0,0,0,0,0,0,0,0,0,0,3,3,525.92,FLYING
526.7,APPROACH,ILS_TRACK,80.08,80,-0.08,94.5,-4.37,5.29,8.3,89,-0.035,0.2299,19.757,89.07,-3.184,-1.88,0.62,0.488,0.075,-0.184,0,0,0,90.45,0,0,0,0,0,0,0,0,0,0,0,0,0,3,3,526.74,FLYING
527.54,APPROACH,ILS_TRACK,80.08,80,-0.08,83.06,-4.37,5.3,8.3,89,-0.034,0.2302,19.717,89.07,-3.184,-1.88,0.62,0.418,0.075,-0.184,0,0,0,90.45,0,0,0,0,0,0,0,0,0,0,0,0,0,3,3,527.58,FLYING
528.38,APPROACH,ILS_TRACK,80.08,80,-0.08,71.61,-4.36,5.3,8.3,89.01,-0.034,0.2307,19.679,89.07,-3.184,-1.88,0.62,0.348,0.074,-0.184,0,0,0,90.45,0,0,0,0,0,0,0,0,0,0,0,0,0,3,3,528.42,FLYING
529.22,APPROACH,ILS_TRACK,80.07,79.6,-0.47,39.63,-4.36,5.3,8.3,89.01,-0.034,0.2088,19.443,89.07,-3.183,-1.87,0.62,0.278,0.074,-0.183,0,0,0,90.45,0,0,0,0,0,0,0,0,0,0,0,0,0,3,3,529.26,FLYING
530.02,APPROACH,ILS_TRACK,80.06,79.2,-0.86,11.92,-4.36,5.31,8.31,89.01,-0.034,0.1855,19.013,89.07,-3.185,-1.87,0.62,0.211,0.074,-0.185,0,0,0,90.45,0,0,0,0,0,0,0,0,0,0,0,0,0,3,3,530.06,FLYING
530.84,FLARE,,80.01,80,-0.01,8.33,-4.36,5.34,8.34,89.01,-0.034,0.1646,18.404,89.07,-3.187,-1.87,0.62,0.143,0.074,-0.187,-3.119,0,0,90.45,0,0,0,0,0,0,0,0,0,0,0,0,0,3,3,0.04,FLYING
531.62,FLARE,,79.92,80,0.08,5.08,-4.36,5.39,8.39,89.01,-0.034,0.068,16.935,89,-2.384,-1.87,0.62,0.143,0.074,-0.187,-2.384,-2.5,0.352,90.45,0,0,0,0,0,0,0,0,0,0,0,0,0,3,3,0.82,FLYING
532.34,FLARE,,79.33,80,0.67,4.52,0.14,2.05,1.93,88.98,-0.14,0.1455,15.778,89,-3.112,-1.87,0.62,0.143,0.074,-0.187,-3.112,-2.488,0.467,90.45,0,0,0,0,0,0,0,0,0,0,0,0,0,3,3,1.54,FLYING
