t_s,phase,subphase,ias_ms,vapp_ms,spd_err_ms,agl_m,gear_h_m,vs_ms,pitch_deg,aoa_deg,hdg_deg,bank_deg,thr_cmd,thr_cur,thr_intg,at_gain,at_tau_s,at_a_up,at_a_dn,at_kp_thr,at_ki_spd,at_thr_slew,as_cmd_deg,as_cap_deg,as_raw_deg,as_spd_err_ms,as_active,aa_hdg_cmd_deg,aa_fpa_cmd_deg,aa_fbw,aa_dir,actual_fpa_deg,ftf_hdg_err_deg,ftf_fix_idx,kos_steer_pit_deg,kos_steer_hdg_deg,aa_dir_vx,aa_dir_vy,aa_dir_vz,aa_dir_pitch_deg,aa_dir_hdg_deg,ils_loc_m,ils_gs_m,ils_dist_km,loc_corr_deg,gs_corr_deg,gs_latched,active_gs_ang_deg,ils_intercept_alt_m,d_gs_ms,fpa_preclamped_deg,gs_nom_alt_m,flare_fpa_cmd,flare_tgt_vs,flare_frac,flare_round_blend_h,flare_round_blend_ttg,flare_round_blend,flare_mode,flare_auth_limited,flare_auth_reason,flare_vs_err,flare_fpa_err,flare_pitch_err,flare_theta_cmd_raw,flare_theta_cmd_clamped,flare_theta_clamp_active,flare_aoa_clamp_active,flare_pitch_in_cmd,elev_defl_avg_deg,elev_defl_max_deg,elev_defl_n,flare_ctrl_h_m,flare_req_up_a,flare_thr_floor,flare_tecs_et_err,flare_tecs_eb_err,flare_tecs_h_ref,flare_tecs_v_ref,flare_gamma_ref,flare_gamma_eb_term,flare_gamma_unsat,steer_hdg_deg,steer_blend,ro_loc_corr_deg,ro_hdg_err_deg,ro_yaw_tgt,ro_yaw_scale,ro_yaw_gate,yaw_cmd,roll_cmd,pitch_cmd,ro_pitch_tgt_deg,ro_pitch_err_deg,ro_pitch_ff,ro_roll_assist,flaps_cur,flaps_tgt,asc_j_ab,asc_j_rk,asc_validity,asc_q_pa,asc_q_raw_pa,asc_mach,asc_apo_m,asc_drag_n,asc_w_prop,asc_edot_aero,asc_edot_orb,asc_pitch_bias,asc_blend,asc_spooling,asc_ab_thr_ratio,asc_ab_t_now,asc_ab_t_avail,asc_ab_ign_on,asc_ab_flameouts,asc_rk_t_now,asc_rk_t_avail,asc_rk_ign_on,asc_rk_flameouts,ship_thrust,ship_avail_thrust,ship_ign_on,ship_flameouts,ifc_raw_dt_s,ifc_dt_s,ifc_loop_n,ifc_hz_est,ifc_raw_dt_max_s,ifc_raw_dt_min_s,phase_el_s,status,craft_name,cfg_file
4.58,TAKEOFF,TO_PREFLIGHT,0,80,80,3.61,2.65,0,0,3.06,90.61,0.049,0.08,0,0,0,0,0,0,0,0,0,0,0,0,0,0,90.4,0,1,0,0,0,0,0,90,0,0,0,0,0,0,0,0,0,0,0,3,0,0,0,69,0,0,0,0,0,0,,0,NONE,0,0,0,0,0,0,0,0,0,0,0,2.65,0,0,0,0,0,0,0,0,0,90.4,1,0,0.21,0,0,1,0,0,0,0,0,0,0,0,1,0,0,VALID,0,0,0,0,0,1,0,0,0,0,0,0,0,0,0,0,0,0,0,0,0,494.43,2,0,0.2,0.2,1,0.22,0.2,0.02,4.38,LANDED,CF1-J,0:/Integrated Flight Computer/aircraft/cf1_j_cfg.ks (inferred preloaded)
4.86,TAKEOFF,TO_PREFLIGHT,0,80,80,3.61,2.65,0,0,-75.02,90.65,0.05,0.36,0,0,0,0,0,0,0,0,0,0,0,0,0,0,90.4,0,1,0,0.01,0,0,0,90,0,0,0,0,0,0,0,0,0,0,0,3,0,0,0,69,0,0,0,0,0,0,,0,NONE,0,0,0,0,0,0,0,0,0,0,0,2.65,0,0,0,0,0,0,0,0,0,90.4,1,0,0.21,0,0,1,0,0,0,0,0,0,0,1,1,0,0,VALID,0,0,0,0,0,1,0,0,0,0,0,0,0,0,0,0,0,0,0,0,1.6,494.43,2,0,0.06,0.06,5,14.29,4.46,0.06,4.68,LANDED,CF1-J,0:/Integrated Flight Computer/aircraft/cf1_j_cfg.ks (inferred preloaded)
5.16,TAKEOFF,TO_PREFLIGHT,0,80,80,3.61,2.65,0,0,-3.42,90.65,0.049,0.48,0,0,0,0,0,0,0,0,0,0,0,0,0,0,90.4,0,1,0,0,0,0,0,90,0,0,0,0,0,0,0,0,0,0,0,3,0,0,0,69,0,0,0,0,0,0,,0,NONE,0,0,0,0,0,0,0,0,0,0,0,2.65,0,0,0,0,0,0,0,0,0,90.4,1,0,0.21,0,0,1,0,0,0,0,0,0,0,1,1,0,0,VALID,0,0,0,0,0,1,0,0,0,0,0,0,0,0,0,0,0,0,0,0,5.02,494.43,2,0,0.06,0.06,10,16.67,0.08,0.04,4.98,LANDED,CF1-J,0:/Integrated Flight Computer/aircraft/cf1_j_cfg.ks (inferred preloaded)
5.42,TAKEOFF,TO_PREFLIGHT,0.01,80,79.99,3.61,2.65,0,-0.01,-6.27,90.65,0.05,0.584,0,0,0,0,0,0,0,0,0,0,0,0,0,0,90.4,0,1,0,0.04,0,0,0,90,0,0,0,0,0,0,0,0,0,0,0,3,0,0,0,69,0,0,0,0,0,0,,0,NONE,0,0,0,0,0,0,0,0,0,0,0,2.65,0,0,0,0,0,0,0,0,0,90.4,1,0,0.21,0,0,1,0,0,0,0,0,0,0,1,1,0,0,VALID,0,0,0,0,0,1,0,0,0,0,0,0,0,0,0,0,0,0,0,0,8.78,494.43,2,0,0.04,0.04,14,15.38,0.08,0.04,5.24,LANDED,CF1-J,0:/Integrated Flight Computer/aircraft/cf1_j_cfg.ks (inferred preloaded)
5.7,TAKEOFF,TO_PREFLIGHT,0.01,80,79.99,3.61,2.65,0,-0.01,-0.54,90.66,0.051,0.696,0,0,0,0,0,0,0,0,0,0,0,0,0,0,90.4,0,1,0,0.01,0,0,0,90,0,0,0,0,0,0,0,0,0,0,0,3,0,0,0,69,0,0,0,0,0,0,,0,NONE,0,0,0,0,0,0,0,0,0,0,0,2.65,0,0,0,0,0,0,0,0,0,90.4,1,0,0.21,0,0,1,0,0,0,0,0,0,0,1,1,0,0,VALID,0,0,0,0,0,1,0,0,0,0,0,0,0,0,0,0,0,0,0,0,13.67,494.43,2,0,0.06,0.06,18,14.29,0.08,0.04,5.52,LANDED,CF1-J,0:/Integrated Flight Computer/aircraft/cf1_j_cfg.ks (inferred preloaded)
6,TAKEOFF,TO_PREFLIGHT,0.01,80,79.99,3.61,2.65,0,-0.02,-2.58,90.66,0.052,0.816,0,0,0,0,0,0,0,0,0,0,0,0,0,0,90.4,0,1,0,0.03,0,0,0,90,0,0,0,0,0,0,0,0,0,0,0,3,0,0,0,69,0,0,0,0,0,0,,0,NONE,0,0,0,0,0,0,0,0,0,0,0,2.65,0,0,0,0,0,0,0,0,0,90.4,1,0,0.21,0,0,1,0,0,0,0,0,0,0,1,1,0,0,VALID,0,0,0,0,0,1,0,0,0,0,0,0,0,0,0,0,0,0,0,0,19.85,494.42,2,0,0.06,0.06,23,16.67,0.08,0.04,5.82,LANDED,CF1-J,0:/Integrated Flight Computer/aircraft/cf1_j_cfg.ks (inferred preloaded)
6.28,TAKEOFF,TO_PREFLIGHT,0.02,80,79.98,3.61,2.65,0,-0.03,-0.1,90.66,0.051,0.928,0,0,0,0,0,0,0,0,0,0,0,0,0,0,90.4,0,1,0,0,0,0,0,90,0,0,0,0,0,0,0,0,0,0,0,3,0,0,0,69,0,0,0,0,0,0,,0,NONE,0,0,0,0,0,0,0,0,0,0,0,2.65,0,0,0,0,0,0,0,0,0,90.4,1,0,0.21,0,0,1,0,0,0,0,0,0,0,1,1,0,0,VALID,0,0,0,0,0,1,0,0,0,0,0,0,0,0,0,0,0,0,0,0,26.46,494.42,2,0,0.04,0.04,28,17.86,0.08,0.04,6.1,LANDED,CF1-J,0:/Integrated Flight Computer/aircraft/cf1_j_cfg.ks (inferred preloaded)
6.54,TAKEOFF,TO_PREFLIGHT,0.02,80,79.98,3.61,2.64,0,-0.03,-1.36,90.66,0.05,1,0,0,0,0,0,0,0,0,0,0,0,0,0,0,90.4,0,1,0,0.03,0,0,0,90,0,0,0,0,0,0,0,0,0,0,0,3,0,0,0,69,0,0,0,0,0,0,,0,NONE,0,0,0,0,0,0,0,0,0,0,0,2.64,0,0,0,0,0,0,0,0,0,90.4,1,0,0.21,0,0,1,0,0,0,0,0,0,0,1,1,0,0,VALID,0,0,0,0,0,1,0,0,0,0,0,0,0,0,0,0,0,0,0,0,33.34,494.42,2,0,0.08,0.08,32,15.38,0.08,0.04,6.36,LANDED,CF1-J,0:/Integrated Flight Computer/aircraft/cf1_j_cfg.ks (inferred preloaded)
6.82,TAKEOFF,TO_PREFLIGHT,0.03,80,79.97,3.61,2.64,0,-0.04,-0.58,90.66,0.051,1,0,0,0,0,0,0,0,0,0,0,0,0,0,0,90.4,0,1,0,0.04,0,0,0,90,0,0,0,0,0,0,0,0,0,0,0,3,0,0,0,69,0,0,0,0,0,0,,0,NONE,0,0,0,0,0,0,0,0,0,0,0,2.64,0,0,0,0,0,0,0,0,0,90.4,1,0,0.21,0,0,1,0,0,0,0,0,0,0,1,1,0,0,VALID,0,0,0,0,0,1,0,0,0,0,0,0,0,0,0,0,0,0,0,0,41.03,494.42,2,0,0.08,0.08,36,14.29,0.08,0.06,6.64,LANDED,CF1-J,0:/Integrated Flight Computer/aircraft/cf1_j_cfg.ks (inferred preloaded)
7.1,TAKEOFF,TO_GROUND_ROLL,0.03,80,79.97,3.61,2.64,0,-0.05,-0.47,90.67,0.051,1,0,0,0,0,0,0,0,0,0,0,0,0,0,0,90.4,0,1,0,0.01,0,0,0,90,0,0,0,0,0,0,0,0,0,0,0,3,0,0,0,69,0,0,0,0,0,0,,0,NONE,0,0,0,0,0,0,0,0,0,0,0,2.64,0,0,0,0,0,0,0,0,0,90.4,1,0,0.21,0,0,1,0,0,0,0,0,0,0,1,1,0,0,VALID,0,0,0,0,0,1,0,0,0,0,0,0,0,0,0,0,0,0,0,0,48.59,494.42,2,0,0.08,0.08,40,14.29,0.08,0.06,6.92,LANDED,CF1-J,0:/Integrated Flight Computer/aircraft/cf1_j_cfg.ks (inferred preloaded)
7.4,TAKEOFF,TO_GROUND_ROLL,0.12,80,79.88,3.62,2.65,-0.01,0.02,2.65,90.67,0.051,1,0,0,0,0,0,0,0,0,0,0,0,0,0,0,90.4,0,1,0,-0.58,0,0,0,90,0,0,0,0,0,0,0,0,0,0,0,3,0,0,0,69,0,0,0,0,0,0,,0,NONE,0,0,0,0,0,0,0,0,0,0,0,2.65,0,0,0,0,0,0,0,0,0,90.4,1,0,0.27,-0.0026,0.25,1,-0.0026,0,0,0,0,0,0,1,1,0,0,VALID,0,0,0,0,0,1,0,0,0,0,0,0,0,0,0,0,0,0,0,0,56.02,494.4,2,0,0.08,0.08,44,14.29,0.08,0.06,7.2,LANDED,CF1-J,0:/Integrated Flight Computer/aircraft/cf1_j_cfg.ks (inferred preloaded)
7.68,TAKEOFF,TO_GROUND_ROLL,0.39,80,79.61,3.62,2.65,0.01,0.04,-0.63,90.67,0.051,1,0,0,0,0,0,0,0,0,0,0,0,0,0,0,90.4,0,1,0,0.35,0,0,0,90,0,0,0,0,0,0,0,0,0,0,0,3,0,0,0,69,0,0,0,0,0,0,,0,NONE,0,0,0,0,0,0,0,0,0,0,0,2.65,0,0,0,0,0,0,0,0,0,90.4,1,0,0.273,-0.0026,0.25,1,-0.0026,0,0,0,0,0,0,1,1,0,0,VALID,0,0,0,0,0,1,0,0,0,0,0,0,0,0,0,0,0,0,0,0,63.32,494.34,2,0,0.08,0.08,48,14.29,0.08,0.06,7.48,LANDED,CF1-J,0:/Integrated Flight Computer/aircraft/cf1_j_cfg.ks (inferred preloaded)
7.96,TAKEOFF,TO_GROUND_ROLL,0.7,80,79.3,3.61,2.65,0,0,0.3,90.67,0.05,1,0,0,0,0,0,0,0,0,0,0,0,0,0,0,90.4,0,1,0,-0.26,0,0,0,90,0,0,0,0,0,0,0,0,0,0,0,3,0,0,0,69,0,0,0,0,0,0,,0,NONE,0,0,0,0,0,0,0,0,0,0,0,2.65,0,0,0,0,0,0,0,0,0,90.4,1,0,0.275,-0.0027,0.25,1,-0.0027,0,0,0,0,0,0,1,1,0,0,VALID,0,0,0,0,0,1,0,0,0,0,0,0,0,0,0,0,0,0,0,0,70.49,494.26,2,0,0.08,0.08,52,14.29,0.08,0.06,7.76,LANDED,CF1-J,0:/Integrated Flight Computer/aircraft/cf1_j_cfg.ks (inferred preloaded)
8.24,TAKEOFF,TO_GROUND_ROLL,1.05,80,78.95,3.62,2.65,-0.01,0.04,0.27,90.67,0.05,1,0,0,0,0,0,0,0,0,0,0,0,0,0,0,90.4,0,1,0,-0.28,0,0,0,90,0,0,0,0,0,0,0,0,0,0,0,3,0,0,0,69,0,0,0,0,0,0,,0,NONE,0,0,0,0,0,0,0,0,0,0,0,2.65,0,0,0,0,0,0,0,0,0,90.4,1,0,0.273,-0.0026,0.25,1,-0.0026,0,0,0,0,0,0,1,1,0,0,VALID,0,0,0,0,0,1,0,0,0,0,0,0,0,0,0,0,0,0,0,0,77.54,494.18,2,0,0.08,0.08,56,14.29,0.08,0.06,8.04,LANDED,CF1-J,0:/Integrated Flight Computer/aircraft/cf1_j_cfg.ks (inferred preloaded)
8.52,TAKEOFF,TO_GROUND_ROLL,1.44,80,78.56,3.62,2.65,0,0.02,0.06,90.67,0.051,1,0,0,0,0,0,0,0,0,0,0,0,0,0,0,90.4,0,1,0,-0.05,0,0,0,90,0,0,0,0,0,0,0,0,0,0,0,3,0,0,0,69,0,0,0,0,0,0,,0,NONE,0,0,0,0,0,0,0,0,0,0,0,2.65,0,0,0,0,0,0,0,0,0,90.4,1,0,0.271,-0.0026,0.25,1,-0.0026,0,0,0,0,0,0,1,1,0,0,VALID,0,0,0,0,0,1,0,0,0,0,0,0,0,0,0,0,0,0,0,0,84.47,494.09,2,0,0.08,0.08,60,14.29,0.08,0.06,8.32,LANDED,CF1-J,0:/Integrated Flight Computer/aircraft/cf1_j_cfg.ks (inferred preloaded)
8.8,TAKEOFF,TO_GROUND_ROLL,1.85,80,78.15,3.62,2.65,-0.01,0.03,0.19,90.67,0.051,1,0,0,0,0,0,0,0,0,0,0,0,0,0,0,90.4,0,1,0,-0.19,0,0,0,90,0,0,0,0,0,0,0,0,0,0,0,3,0,0,0,69,0,0,0,0,0,0,,0,NONE,0,0,0,0,0,0,0,0,0,0,0,2.65,0,0,0,0,0,0,0,0,0,90.4,1,0,0.265,-0.0025,0.25,1,-0.0025,0,0,0,0,0,0,1,1,0,0,VALID,0,0,0,0,0,1,0,0,0,0,0,0,0,0,0,0,0,0,0,0,91.28,493.99,2,0,0.08,0.08,64,14.29,0.08,0.06,8.6,LANDED,CF1-J,0:/Integrated Flight Computer/aircraft/cf1_j_cfg.ks (inferred preloaded)
9.08,TAKEOFF,TO_GROUND_ROLL,2.3,80,77.7,3.62,2.65,0,0.03,0.14,90.66,0.051,1,0,0,0,0,0,0,0,0,0,0,0,0,0,0,90.4,0,1,0,-0.12,0,0,0,90,0,0,0,0,0,0,0,0,0,0,0,3,0,0,0,69,0,0,0,0,0,0,,0,NONE,0,0,0,0,0,0,0,0,0,0,0,2.65,0,0,0,0,0,0,0,0,0,90.4,1,0,0.257,-0.0024,0.25,1,-0.0024,0,0,0,0,0,0,1,1,0,0,VALID,0,0,0,0,0,1,0,0,0,0,0,0,0,0,0,0,0,0,0,0,97.97,493.88,2,0,0.08,0.08,68,14.29,0.08,0.06,8.88,LANDED,CF1-J,0:/Integrated Flight Computer/aircraft/cf1_j_cfg.ks (inferred preloaded)
9.36,TAKEOFF,TO_GROUND_ROLL,2.79,80,77.21,3.62,2.65,-0.01,0.03,0.16,90.65,0.051,1,0,0,0,0,0,0,0,0,0,0,0,0,0,0,90.41,0,1,0,-0.14,0,0,0,90,0,0,0,0,0,0,0,0,-0.001,0,0,3,0,0,0,69,0,0,0,0,0,0,,0,NONE,0,0,0,0,0,0,0,0,0,0,0,2.65,0,0,0,0,0,0,0,0,0,90.41,1,-0.001,0.246,-0.0023,0.25,1,-0.0023,0,0,0,0,0,0,1,1,0,0,VALID,0,0,0,0,0,1,0,0,0,0,0,0,0,0,0,0,0,0,0,0,104.55,493.75,2,0,0.08,0.08,72,14.29,0.08,0.06,9.16,LANDED,CF1-J,0:/Integrated Flight Computer/aircraft/cf1_j_cfg.ks (inferred preloaded)
9.64,TAKEOFF,TO_GROUND_ROLL,3.3,80,76.7,3.62,2.65,-0.01,0.04,0.17,90.64,0.051,1,0,0,0,0,0,0,0,0,0,0,0,0,0,0,90.41,0,1,0,-0.15,0,0,0,90,0,0,0,0,0,0,0,0,-0.001,0,0,3,0,0,0,69,0,0,0,0,0,0,,0,NONE,0,0,0,0,0,0,0,0,0,0,0,2.65,0,0,0,0,0,0,0,0,0,90.41,1,-0.001,0.233,-0.0021,0.25,1,-0.0021,0,0,0,0,0,0,1,1,0,0,VALID,0,0,0,0,0,1,0,0,0,0,0,0,0,0,0,0,0,0,0,0,111.01,493.62,2,0,0.08,0.08,76,14.29,0.08,0.06,9.44,LANDED,CF1-J,0:/Integrated Flight Computer/aircraft/cf1_j_cfg.ks (inferred preloaded)
9.92,TAKEOFF,TO_GROUND_ROLL,3.85,80,76.15,3.62,2.64,-0.01,0.04,0.15,90.63,0.052,1,0,0,0,0,0,0,0,0,0,0,0,0,0,0,90.41,0,1,0,-0.13,0,0,0,90,0,0,0,0,0,0,0,0,-0.001,0,0,3,0,0,0,69,0,0,0,0,0,0,,0,NONE,0,0,0,0,0,0,0,0,0,0,0,2.64,0,0,0,0,0,0,0,0,0,90.41,1,-0.001,0.219,-0.002,0.25,1,-0.002,0,0,0,0,0,0,1,1,0,0,VALID,0,0,0,0,0,1,0,0,0,0,0,0,0,0,0,0,0,0,0,0,117.35,493.48,2,0,0.08,0.08,80,14.29,0.08,0.06,9.72,LANDED,CF1-J,0:/Integrated Flight Computer/aircraft/cf1_j_cfg.ks (inferred preloaded)
10.2,TAKEOFF,TO_GROUND_ROLL,4.42,80,75.58,3.62,2.64,-0.01,0.04,0.16,90.61,0.052,1,0,0,0,0,0,0,0,0,0,0,0,0,0,0,90.41,0,1,0,-0.13,0,0,0,90,0,0,0,0,0,0,0,0,-0.001,0,0,3,0,0,0,69,0,0,0,0,0,0,,0,NONE,0,0,0,0,0,0,0,0,0,0,0,2.64,0,0,0,0,0,0,0,0,0,90.41,1,-0.001,0.203,-0.0018,0.25,1,-0.0018,0,0,0,0,0,0,1,1,0,0,VALID,0,0,0,0,0,1,0,0,0,0,0,0,0,0,0,0,0,0,0,0,123.58,493.32,2,0,0.08,0.08,84,14.29,0.08,0.06,10,LANDED,CF1-J,0:/Integrated Flight Computer/aircraft/cf1_j_cfg.ks (inferred preloaded)
10.46,TAKEOFF,TO_GROUND_ROLL,5.03,80,74.97,3.62,2.64,-0.01,0.04,0.16,90.6,0.053,1,0,0,0,0,0,0,0,0,0,0,0,0,0,0,90.41,0,1,0,-0.14,0,0,0,90,0,0,0,0,0,0,0,0,-0.002,0,0,3,0,0,0,69,0,0,0,0,0,0,,0,NONE,0,0,0,0,0,0,0,0,0,0,0,2.64,0,0,0,0,0,0,0,0,0,90.41,1,-0.002,0.186,-0.0016,0.25,1,-0.0016,0,0,0,0,0,0,1,1,0,0,VALID,0,0,0,0,0,1,0,0,0,0,0,0,0,0,0,0,0,0,0,0,129.7,493.16,2,0,0.08,0.08,88,14.29,0.08,0.06,10.28,LANDED,CF1-J,0:/Integrated Flight Computer/aircraft/cf1_j_cfg.ks (inferred preloaded)
10.74,TAKEOFF,TO_GROUND_ROLL,5.66,80,74.34,3.62,2.63,-0.01,0.04,0.16,90.58,0.053,1,0,0,0,0,0,0,0,0,0,0,0,0,0,0,90.41,0,1,0,-0.13,0,0,0,90,0,0,0,0,0,0,0,0,-0.002,0,0,3,0,0,0,69,0,0,0,0,0,0,,0,NONE,0,0,0,0,0,0,0,0,0,0,0,2.63,0,0,0,0,0,0,0,0,0,90.41,1,-0.002,0.168,-0.0014,0.25,1,-0.0014,0,0,0,0,0,0,1,1,0,0,VALID,0,0,0,0,0,1,0,0,0,0,0,0,0,0,0,0,0,0,0,0,135.71,492.98,2,0,0.08,0.08,92,14.29,0.08,0.06,10.56,LANDED,CF1-J,0:/Integrated Flight Computer/aircraft/cf1_j_cfg.ks (inferred preloaded)
11.02,TAKEOFF,TO_GROUND_ROLL,6.32,80,73.68,3.62,2.63,-0.02,0.04,0.17,90.56,0.053,1,0,0,0,0,0,0,0,0,0,0,0,0,0,0,90.41,0,1,0,-0.14,0,0,0,90,0,0,0,0,0,0,0,0,-0.002,0,0,3,0,0,0,69,0,0,0,0,0,0,,0,NONE,0,0,0,0,0,0,0,0,0,0,0,2.63,0,0,0,0,0,0,0,0,0,90.41,1,-0.002,0.15,-0.0012,0.25,1,-0.0012,0,0,0,0,0,0,1,1,0,0,VALID,0,0,0,0,0,1,0,0,0,0,0,0,0,0,0,0,0,0,0,0,141.61,492.79,2,0,0.08,0.08,96,14.29,0.08,0.06,10.84,LANDED,CF1-J,0:/Integrated Flight Computer/aircraft/cf1_j_cfg.ks (inferred preloaded)
11.3,TAKEOFF,TO_GROUND_ROLL,7.02,80,72.98,3.62,2.63,-0.02,0.05,0.17,90.54,0.053,1,0,0,0,0,0,0,0,0,0,0,0,0,0,0,90.41,0,1,0,-0.13,0,0,0,90,0,0,0,0,0,0,0,0,-0.003,0,0,3,0,0,0,69,0,0,0,0,0,0,,0,NONE,0,0,0,0,0,0,0,0,0,0,0,2.63,0,0,0,0,0,0,0,0,0,90.41,1,-0.003,0.132,-0.001,0.25,1,-0.001,0,0,0,0,0,0,1,1,0,0,VALID,0,0,0,0,0,1,0,0,0,0,0,0,0,0,0,0,0,0,0,0,147.41,492.59,2,0,0.08,0.08,100,14.29,0.08,0.06,11.12,LANDED,CF1-J,0:/Integrated Flight Computer/aircraft/cf1_j_cfg.ks (inferred preloaded)
11.58,TAKEOFF,TO_GROUND_ROLL,7.74,80,72.26,3.62,2.62,-0.02,0.05,0.17,90.52,0.054,1,0,0,0,0,0,0,0,0,0,0,0,0,0,0,90.41,0,1,0,-0.13,0,0,0,90,0,0,0,0,0,0,0,0,-0.003,0,0,3,0,0,0,69,0,0,0,0,0,0,,0,NONE,0,0,0,0,0,0,0,0,0,0,0,2.62,0,0,0,0,0,0,0,0,0,90.41,1,-0.003,0.115,-0.0009,0.25,1,-0.0009,0,0,0,0,0,0,1,1,0,0,VALID,0,0,0,0,0,1,0,0,0,0,0,0,0,0,0,0,0,0,0,0,153.1,492.38,2,0,0.08,0.08,104,14.29,0.08,0.06,11.4,LANDED,CF1-J,0:/Integrated Flight Computer/aircraft/cf1_j_cfg.ks (inferred preloaded)
11.86,TAKEOFF,TO_GROUND_ROLL,8.48,80,71.52,3.62,2.62,-0.02,0.05,0.17,90.51,0.054,1,0,0,0,0,0,0,0,0,0,0,0,0,0,0,90.41,0,1,0,-0.13,0,0,0,90,0,0,0,0,0,0,0,0,-0.004,0,0,3,0,0,0,69,0,0,0,0,0,0,,0,NONE,0,0,0,0,0,0,0,0,0,0,0,2.62,0,0,0,0,0,0,0,0,0,90.41,1,-0.004,0.099,-0.0007,0.25,1,-0.0007,0,0,0,0,0,0,1,1,0,0,VALID,0,0,0,0,0,1,0,0,0,0,0,0,0,0,0,0,0,0,0,0,158.68,492.15,2,0,0.08,0.08,108,14.29,0.08,0.06,11.68,LANDED,CF1-J,0:/Integrated Flight Computer/aircraft/cf1_j_cfg.ks (inferred preloaded)
12.14,TAKEOFF,TO_GROUND_ROLL,9.26,80,70.74,3.62,2.61,-0.02,0.05,0.17,90.49,0.054,1,0,0,0,0,0,0,0,0,0,0,0,0,0,0,90.41,0,1,0,-0.13,0,0,0,90,0,0,0,0,0,0,0,0,-0.004,0,0,3,0,0,0,69,0,0,0,0,0,0,,0,NONE,0,0,0,0,0,0,0,0,0,0,0,2.61,0,0,0,0,0,0,0,0,0,90.41,1,-0.004,0.085,-0.0006,0.25,1,-0.0006,0,0,0,0,0,0,1,1,0,0,VALID,0,0,0,0,0,1,0,0,0,0,0,0,0,0,0,0,0,0,0,0,164.16,491.91,2,0,0.08,0.08,112,14.29,0.08,0.06,11.96,LANDED,CF1-J,0:/Integrated Flight Computer/aircraft/cf1_j_cfg.ks (inferred preloaded)
12.42,TAKEOFF,TO_GROUND_ROLL,10.05,80,69.95,3.62,2.61,-0.02,0.05,0.17,90.48,0.054,1,0,0,0,0,0,0,0,0,0,0,0,0,0,0,90.41,0,1,0,-0.13,0,0,0,90,0,0,0,0,0,0,0,0,-0.005,0,0,3,0,0,0,69,0,0,0,0,0,0,,0,NONE,0,0,0,0,0,0,0,0,0,0,0,2.61,0,0,0,0,0,0,0,0,0,90.41,1,-0.005,0.072,-0.0005,0.25,1,-0.0005,0,0,0,0,0,0,1,1,0,0,VALID,0,0,0,0,0,1,0,0,0,0,0,0,0,0,0,0,0,0,0,0,169.53,491.65,2,0,0.08,0.08,116,14.29,0.08,0.06,12.24,LANDED,CF1-J,0:/Integrated Flight Computer/aircraft/cf1_j_cfg.ks (inferred preloaded)
12.7,TAKEOFF,TO_GROUND_ROLL,10.88,80,69.12,3.62,2.6,-0.02,0.05,0.18,90.46,0.053,1,0,0,0,0,0,0,0,0,0,0,0,0,0,0,90.4,0,1,0,-0.13,0,0,0,90,0,0,0,0,0,0,0,0,-0.005,0,0,3,0,0,0,69,0,0,0,0,0,0,,0,NONE,0,0,0,0,0,0,0,0,0,0,0,2.6,0,0,0,0,0,0,0,0,0,90.4,1,-0.005,0.061,-0.0004,0.25,1,-0.0004,0,0,0,0,0,0,1,1,0,0,VALID,0,0,0,0,0,1,0,0,0,0,0,0,0,0,0,0,0,0,0,0,174.81,491.38,2,0,0.08,0.08,120,14.29,0.08,0.06,12.52,LANDED,CF1-J,0:/Integrated Flight Computer/aircraft/cf1_j_cfg.ks (inferred preloaded)
12.98,TAKEOFF,TO_GROUND_ROLL,11.73,80,68.27,3.62,2.59,-0.03,0.06,0.18,90.45,0.053,1,0,0,0,0,0,0,0,0,0,0,0,0,0,0,90.4,0,1,0,-0.13,0,0,0,90,0,0,0,0,0,0,0,0,-0.006,0,0,3,0,0,0,69,0,0,0,0,0,0,,0,NONE,0,0,0,0,0,0,0,0,0,0,0,2.59,0,0,0,0,0,0,0,0,0,90.4,1,-0.006,0.052,-0.0004,0.25,1,-0.0004,0,0,0,0,0,0,1,1,0,0,VALID,0,0,0,0,0,1,0,0,0,0,0,0,0,0,0,0,0,0,0,0,179.98,491.1,2,0,0.08,0.08,124,14.29,0.08,0.06,12.8,LANDED,CF1-J,0:/Integrated Flight Computer/aircraft/cf1_j_cfg.ks (inferred preloaded)
13.26,TAKEOFF,TO_GROUND_ROLL,12.6,80,67.4,3.62,2.59,-0.03,0.06,0.18,90.44,0.053,1,0,0,0,0,0,0,0,0,0,0,0,0,0,0,90.4,0,1,0,-0.13,0,0,0,90,0,0,0,0,0,0,0,0,-0.006,0,0,3,0,0,0,69,0,0,0,0,0,0,,0,NONE,0,0,0,0,0,0,0,0,0,0,0,2.59,0,0,0,0,0,0,0,0,0,90.4,1,-0.006,0.044,-0.0003,0.25,1,-0.0003,0,0,0,0,0,0,1,1,0,0,VALID,0,0,0,0,0,1,0,0,0,0,0,0,0,0,0,0,0,0,0,0,185.06,490.8,2,0,0.08,0.08,128,14.29,0.08,0.06,13.08,LANDED,CF1-J,0:/Integrated Flight Computer/aircraft/cf1_j_cfg.ks (inferred preloaded)
13.54,TAKEOFF,TO_GROUND_ROLL,13.5,80,66.5,3.62,2.58,-0.03,0.06,0.18,90.44,0.053,1,0,0,0,0,0,0,0,0,0,0,0,0,0,0,90.4,0,1,0,-0.13,0,0,0,90,0,0,0,0,0,0,0,0,-0.007,0,0,3,0,0,0,69,0,0,0,0,0,0,,0,NONE,0,0,0,0,0,0,0,0,0,0,0,2.58,0,0,0,0,0,0,0,0,0,90.4,1,-0.007,0.037,-0.0002,0.25,1,-0.0002,0,0,0,0,0,0,1,1,0,0,VALID,0,0,0,0,0,1,0,0,0,0,0,0,0,0,0,0,0,0,0,0,190.03,490.49,2,0,0.08,0.08,132,14.29,0.08,0.06,13.36,LANDED,CF1-J,0:/Integrated Flight Computer/aircraft/cf1_j_cfg.ks (inferred preloaded)
13.82,TAKEOFF,TO_GROUND_ROLL,14.42,80,65.58,3.62,2.57,-0.03,0.06,0.18,90.43,0.053,1,0,0,0,0,0,0,0,0,0,0,0,0,0,0,90.4,0,1,0,-0.13,0,0,0,90,0,0,0,0,0,0,0,0,-0.007,0,0,3,0,0,0,69,0,0,0,0,0,0,,0,NONE,0,0,0,0,0,0,0,0,0,0,0,2.57,0,0,0,0,0,0,0,0,0,90.4,1,-0.007,0.032,-0.0002,0.25,1,-0.0002,0,0,0,0,0,0,1,1,0,0,VALID,0,0,0,0,0,1,0,0,0,0,0,0,0,0,0,0,0,0,0,0,194.91,490.16,2,0,0.08,0.08,136,14.29,0.08,0.06,13.64,LANDED,CF1-J,0:/Integrated Flight Computer/aircraft/cf1_j_cfg.ks (inferred preloaded)
14.1,TAKEOFF,TO_GROUND_ROLL,15.37,80,64.63,3.62,2.56,-0.03,0.06,0.18,90.42,0.052,1,0,0,0,0,0,0,0,0,0,0,0,0,0,0,90.4,0,1,0,-0.13,0,0,0,90,0,0,0,0,0,0,0,0,-0.008,0,0,3,0,0,0,69,0,0,0,0,0,0,,0,NONE,0,0,0,0,0,0,0,0,0,0,0,2.56,0,0,0,0,0,0,0,0,0,90.4,1,-0.008,0.028,-0.0002,0.25,1,-0.0002,0,0,0,0,0,0,1,1,0,0,VALID,0,0,0,0,0,1,0,0,0,0,0,0,0,0,0,0,0,0,0,0,199.69,489.81,2,0,0.08,0.08,140,14.29,0.08,0.06,13.92,LANDED,CF1-J,0:/Integrated Flight Computer/aircraft/cf1_j_cfg.ks (inferred preloaded)
14.38,TAKEOFF,TO_GROUND_ROLL,16.34,80,63.66,3.62,2.55,-0.04,0.07,0.18,90.42,0.052,1,0,0,0,0,0,0,0,0,0,0,0,0,0,0,90.39,0,1,0,-0.13,0,0,0,90,0,0,0,0,0,0,0,0,-0.009,0,0,3,0,0,0,69,0,0,0,0,0,0,,0,NONE,0,0,0,0,0,0,0,0,0,0,0,2.55,0,0,0,0,0,0,0,0,0,90.39,1,-0.009,0.025,-0.0002,0.25,1,-0.0002,0,0,0,0,0,0,1,1,0,0,VALID,0,0,0,0,0,1,0,0,0,0,0,0,0,0,0,0,0,0,0,0,204.38,489.45,2,0,0.08,0.08,144,14.29,0.08,0.06,14.2,LANDED,CF1-J,0:/Integrated Flight Computer/aircraft/cf1_j_cfg.ks (inferred preloaded)
14.66,TAKEOFF,TO_GROUND_ROLL,17.32,80,62.68,3.62,2.54,-0.04,0.07,0.19,90.42,0.052,1,0,0,0,0,0,0,0,0,0,0,0,0,0,0,90.39,0,1,0,-0.13,0,0,0.01,90,0,0,0,0,0,0,0,0,-0.009,0,0,3,0,0,0,69,0,0,0,0,0,0,,0,NONE,0,0,0,0,0,0,0,0,0,0,0,2.54,0,0,0,0,0,0,0,0,0,90.39,1,-0.009,0.022,-0.0001,0.25,1,-0.0001,0,0,0,0,0,0,1,1,0,0,VALID,0,0,0,0,0,1,0,0,0,0,0,0,0,0,0,0,0,0,0,0,208.97,489.07,2,0,0.08,0.08,148,14.29,0.08,0.06,14.48,LANDED,CF1-J,0:/Integrated Flight Computer/aircraft/cf1_j_cfg.ks (inferred preloaded)
14.94,TAKEOFF,TO_GROUND_ROLL,18.33,80,61.67,3.62,2.53,-0.04,0.07,0.19,90.41,0.052,1,0,0,0,0,0,0,0,0,0,0,0,0,0,0,90.39,0,1,0,-0.12,0,0,0.01,90,0,0,0,0,0,0,0,0,-0.01,0,0,3,0,0,0,69,0,0,0,0,0,0,,0,NONE,0,0,0,0,0,0,0,0,0,0,0,2.53,0,0,0,0,0,0,0,0,0,90.39,1,-0.01,0.021,-0.0001,0.25,1,-0.0001,0,0,0,0,0,0,1,1,0,0,VALID,0,0,0,0,0,1,0,0,0,0,0,0,0,0,0,0,0,0,0,0,213.47,488.68,2,0,0.08,0.08,152,14.29,0.08,0.06,14.76,LANDED,CF1-J,0:/Integrated Flight Computer/aircraft/cf1_j_cfg.ks (inferred preloaded)
15.22,TAKEOFF,TO_GROUND_ROLL,19.37,80,60.63,3.62,2.52,-0.04,0.07,0.19,90.41,0.051,1,0,0,0,0,0,0,0,0,0,0,0,0,0,0,90.39,0,1,0,-0.12,0,0,0.01,90,0,0,0,0,0,0,0,0,-0.011,0,0,3,0,0,0,69,0,0,0,0,0,0,,0,NONE,0,0,0,0,0,0,0,0,0,0,0,2.52,0,0,0,0,0,0,0,0,0,90.39,1,-0.011,0.022,-0.0001,0.25,1,-0.0001,0,0,0,0,0,0,1,1,0,0,VALID,0,0,0,0,0,1,0,0,0,0,0,0,0,0,0,0,0,0,0,0,217.87,488.27,2,0,0.08,0.08,156,14.29,0.08,0.06,15.04,LANDED,CF1-J,0:/Integrated Flight Computer/aircraft/cf1_j_cfg.ks (inferred preloaded)
15.52,TAKEOFF,TO_GROUND_ROLL,20.42,80,59.58,3.62,2.51,-0.04,0.07,0.19,90.41,0.05,1,0,0,0,0,0,0,0,0,0,0,0,0,0,0,90.39,0,1,0,-0.12,0,0,0.01,90,0,0,0,0,0,0,0,0,-0.012,0,0,3,0,0,0,69,0,0,0,0,0,0,,0,NONE,0,0,0,0,0,0,0,0,0,0,0,2.51,0,0,0,0,0,0,0,0,0,90.39,1,-0.012,0.024,-0.0002,0.254,0,-0.0002,0,0,0,0,0,0,1,1,0,0,VALID,0,0,0,0,0,1,0,0,0,0,0,0,0,0,0,0,0,0,0,0,222.19,487.84,2,0,0.08,0.08,160,14.29,0.08,0.06,15.32,LANDED,CF1-J,0:/Integrated Flight Computer/aircraft/cf1_j_cfg.ks (inferred preloaded)
15.8,TAKEOFF,TO_GROUND_ROLL,21.49,80,58.51,3.62,2.5,-0.05,0.07,0.19,90.41,0.05,1,0,0,0,0,0,0,0,0,0,0,0,0,0,0,90.39,0,1,0,-0.12,0,0,0.01,90,0,0,0,0,0,0,0,0,-0.013,0,0,3,0,0,0,69,0,0,0,0,0,0,,0,NONE,0,0,0,0,0,0,0,0,0,0,0,2.5,0,0,0,0,0,0,0,0,0,90.39,1,-0.013,0.024,-0.0002,0.266,0,-0.0002,0,0,0,0,0,0,1,1,0,0,VALID,0,0,0,0,0,1,0,0,0,0,0,0,0,0,0,0,0,0,0,0,226.41,487.39,2,0,0.08,0.08,164,14.29,0.08,0.06,15.6,LANDED,CF1-J,0:/Integrated Flight Computer/aircraft/cf1_j_cfg.ks (inferred preloaded)
16.08,TAKEOFF,TO_GROUND_ROLL,22.58,80,57.42,3.62,2.48,-0.05,0.08,0.19,90.41,0.05,1,0,0,0,0,0,0,0,0,0,0,0,0,0,0,90.39,0,1,0,-0.12,0,0,0.01,90,0,0,0,0,0,0,0,0,-0.014,0,0,3,0,0,0,69,0,0,0,0,0,0,,0,NONE,0,0,0,0,0,0,0,0,0,0,0,2.48,0,0,0,0,0,0,0,0,0,90.39,1,-0.014,0.022,-0.0002,0.278,0,-0.0002,0,0,0,0,0,0,1,1,0,0,VALID,0,0,0,0,0,1,0,0,0,0,0,0,0,0,0,0,0,0,0,0,230.54,486.93,2,0,0.08,0.08,168,14.29,0.08,0.06,15.88,LANDED,CF1-J,0:/Integrated Flight Computer/aircraft/cf1_j_cfg.ks (inferred preloaded)
16.36,TAKEOFF,TO_GROUND_ROLL,23.69,80,56.31,3.62,2.47,-0.05,0.08,0.19,90.41,0.052,1,0,0,0,0,0,0,0,0,0,0,0,0,0,0,90.39,0,1,0,-0.12,0,0,0.01,90,0,0,0,0,0,0,0,0,-0.015,0,0,3,0,0,0,69,0,0,0,0,0,0,,0,NONE,0,0,0,0,0,0,0,0,0,0,0,2.47,0,0,0,0,0,0,0,0,0,90.39,1,-0.015,0.02,-0.0002,0.29,0,-0.0002,0,0,0,0,0,0,1,1,0,0,VALID,0,0,0,0,0,1,0,0,0,0,0,0,0,0,0,0,0,0,0,0,234.59,486.45,2,0,0.08,0.08,172,14.29,0.08,0.06,16.16,LANDED,CF1-J,0:/Integrated Flight Computer/aircraft/cf1_j_cfg.ks (inferred preloaded)
16.64,TAKEOFF,TO_GROUND_ROLL,24.82,80,55.18,3.62,2.46,-0.05,0.08,0.19,90.4,0.052,1,0,0,0,0,0,0,0,0,0,0,0,0,0,0,90.39,0,1,0,-0.12,0,0,0.01,90,0,0,0,0,0,0,0,0,-0.016,0,0,3,0,0,0,69,0,0,0,0,0,0,,0,NONE,0,0,0,0,0,0,0,0,0,0,0,2.46,0,0,0,0,0,0,0,0,0,90.39,1,-0.016,0.019,-0.0002,0.302,0,-0.0002,0,0,0,0,0,0,1,1,0,0,VALID,0,0,0,0,0,1,0,0,0,0,0,0,0,0,0,0,0,0,0,0,238.54,485.95,2,0,0.08,0.08,176,14.29,0.08,0.06,16.44,LANDED,CF1-J,0:/Integrated Flight Computer/aircraft/cf1_j_cfg.ks (inferred preloaded)
16.92,TAKEOFF,TO_GROUND_ROLL,25.97,80,54.03,3.63,2.44,-0.05,0.08,0.2,90.4,0.052,1,0,0,0,0,0,0,0,0,0,0,0,0,0,0,90.38,0,1,0,-0.12,0,0,0.01,90,0,0,0,0,0,0,0,0,-0.017,0,0,3,0,0,0,69,0,0,0,0,0,0,,0,NONE,0,0,0,0,0,0,0,0,0,0,0,2.44,0,0,0,0,0,0,0,0,0,90.38,1,-0.017,0.021,-0.0002,0.314,0,-0.0002,0,0,0,0,0,0,1,1,0,0,VALID,0,0,0,0,0,1,0,0,0,0,0,0,0,0,0,0,0,0,0,0,242.41,485.44,2,0,0.08,0.08,180,14.29,0.08,0.06,16.72,LANDED,CF1-J,0:/Integrated Flight Computer/aircraft/cf1_j_cfg.ks (inferred preloaded)
17.2,TAKEOFF,TO_GROUND_ROLL,27.13,80,52.87,3.63,2.43,-0.06,0.08,0.2,90.4,0.05,1,0,0,0,0,0,0,0,0,0,0,0,0,0,0,90.38,0,1,0,-0.12,0,0,0.01,90,0,0,0,0,0,0,0,0,-0.018,0,0,3,0,0,0,69,0,0,0,0,0,0,,0,NONE,0,0,0,0,0,0,0,0,0,0,0,2.43,0,0,0,0,0,0,0,0,0,90.38,1,-0.018,0.024,-0.0002,0.326,0,-0.0002,0,0,0,0,0,0,1,1,0,0,VALID,0,0,0,0,0,1,0,0,0,0,0,0,0,0,0,0,0,0,0,0,246.19,484.91,2,0,0.08,0.08,184,14.29,0.08,0.06,17,LANDED,CF1-J,0:/Integrated Flight Computer/aircraft/cf1_j_cfg.ks (inferred preloaded)
17.48,TAKEOFF,TO_GROUND_ROLL,28.31,80,51.69,3.63,2.41,-0.06,0.09,0.2,90.4,0.048,1,0,0,0,0,0,0,0,0,0,0,0,0,0,0,90.38,0,1,0,-0.12,0,0,0.01,90,0,0,0,0,0,0,0,0,-0.019,0,0,3,0,0,0,69,0,0,0,0,0,0,,0,NONE,0,0,0,0,0,0,0,0,0,0,0,2.41,0,0,0,0,0,0,0,0,0,90.38,1,-0.019,0.022,-0.0002,0.339,0,-0.0002,0,0,0,0,0,0,1,1,0,0,VALID,0,0,0,0,0,1,0,0,0,0,0,0,0,0,0,0,0,0,0,0,249.89,484.36,2,0,0.08,0.08,188,14.29,0.08,0.06,17.28,LANDED,CF1-J,0:/Integrated Flight Computer/aircraft/cf1_j_cfg.ks (inferred preloaded)
17.76,TAKEOFF,TO_GROUND_ROLL,29.51,80,50.49,3.63,2.39,-0.06,0.09,0.2,90.4,0.05,1,0,0,0,0,0,0,0,0,0,0,0,0,0,0,90.38,0,1,0,-0.12,0,0,0.01,90,0,0,0,0,0,0,0,0,-0.02,0,0,3,0,0,0,69,0,0,0,0,0,0,,0,NONE,0,0,0,0,0,0,0,0,0,0,0,2.39,0,0,0,0,0,0,0,0,0,90.38,1,-0.02,0.022,-0.0002,0.352,0,-0.0002,0,0,0,0,0,0,1,1,0,0,VALID,0,0,0,0,0,1,0,0,0,0,0,0,0,0,0,0,0,0,0,0,253.5,483.79,2,0,0.08,0.08,192,14.29,0.08,0.06,17.56,LANDED,CF1-J,0:/Integrated Flight Computer/aircraft/cf1_j_cfg.ks (inferred preloaded)
18.04,TAKEOFF,TO_GROUND_ROLL,30.72,80,49.28,3.63,2.38,-0.06,0.09,0.2,90.4,0.051,1,0,0,0,0,0,0,0,0,0,0,0,0,0,0,90.38,0,1,0,-0.12,0,0,0.01,90,0,0,0,0,0,0,0,0,-0.021,0,0,3,0,0,0,69,0,0,0,0,0,0,,0,NONE,0,0,0,0,0,0,0,0,0,0,0,2.38,0,0,0,0,0,0,0,0,0,90.38,1,-0.021,0.023,-0.0002,0.365,0,-0.0002,0,0,0,0,0,0,1,1,0,0,VALID,0,0,0,0,0,1,0,0,0,0,0,0,0,0,0,0,0,0,0,0,257.03,483.2,2,0,0.08,0.08,196,14.29,0.08,0.06,17.84,LANDED,CF1-J,0:/Integrated Flight Computer/aircraft/cf1_j_cfg.ks (inferred preloaded)
18.32,TAKEOFF,TO_GROUND_ROLL,31.95,80,48.05,3.63,2.36,-0.06,0.09,0.2,90.4,0.051,1,0,0,0,0,0,0,0,0,0,0,0,0,0,0,90.38,0,1,0,-0.11,0,0,0.01,90,0,0,0,0,0,0,0,0,-0.023,0,0,3,0,0,0,69,0,0,0,0,0,0,,0,NONE,0,0,0,0,0,0,0,0,0,0,0,2.36,0,0,0,0,0,0,0,0,0,90.38,1,-0.023,0.021,-0.0002,0.378,0,-0.0002,0,0,0,0,0,0,1,1,0,0,VALID,0,0,0,0,0,1,0,0,0,0,0,0,0,0,0,0,0,0,0,0,260.48,482.6,2,0,0.08,0.08,200,14.29,0.08,0.06,18.12,LANDED,CF1-J,0:/Integrated Flight Computer/aircraft/cf1_j_cfg.ks (inferred preloaded)
18.6,TAKEOFF,TO_GROUND_ROLL,33.2,80,46.8,3.63,2.34,-0.07,0.09,0.2,90.4,0.051,1,0,0,0,0,0,0,0,0,0,0,0,0,0,0,90.38,0,1,0,-0.11,0,0,0.02,90,0,0,0,0,0,0,0,0,-0.024,0,0,3,0,0,0,69,0,0,0,0,0,0,,0,NONE,0,0,0,0,0,0,0,0,0,0,0,2.34,0,0,0,0,0,0,0,0,0,90.38,1,-0.024,0.021,-0.0002,0.391,0,-0.0002,0,0,0,0,0,0,1,1,0,0,VALID,0,0,0,0,0,1,0,0,0,0,0,0,0,0,0,0,0,0,0,0,263.84,481.98,2,0,0.08,0.08,204,14.29,0.08,0.06,18.4,LANDED,CF1-J,0:/Integrated Flight Computer/aircraft/cf1_j_cfg.ks (inferred preloaded)
18.88,TAKEOFF,TO_GROUND_ROLL,34.46,80,45.54,3.63,2.32,-0.07,0.1,0.2,90.4,0.05,1,0,0,0,0,0,0,0,0,0,0,0,0,0,0,90.38,0,1,0,-0.11,0,0,0.02,90,0,0,0,0,0,0,0,0,-0.026,0,0,3,0,0,0,69,0,0,0,0,0,0,,0,NONE,0,0,0,0,0,0,0,0,0,0,0,2.32,0,0,0,0,0,0,0,0,0,90.38,1,-0.026,0.019,-0.0002,0.405,0,-0.0002,0,0,0,0,0,0,1,1,0,0,VALID,0,0,0,0,0,1,0,0,0,0,0,0,0,0,0,0,0,0,0,0,267.12,481.34,2,0,0.08,0.08,208,14.29,0.08,0.06,18.68,LANDED,CF1-J,0:/Integrated Flight Computer/aircraft/cf1_j_cfg.ks (inferred preloaded)
19.16,TAKEOFF,TO_GROUND_ROLL,35.73,80,44.27,3.63,2.3,-0.07,0.1,0.2,90.39,0.051,1,0,0,0,0,0,0,0,0,0,0,0,0,0,0,90.37,0,1,0,-0.11,0,0,0.02,90,0,0,0,0,0,0,0,0,-0.027,0,0,3,0,0,0,69,0,0,0,0,0,0,,0,NONE,0,0,0,0,0,0,0,0,0,0,0,2.3,0,0,0,0,0,0,0,0,0,90.37,1,-0.027,0.02,-0.0002,0.419,0,-0.0002,0,0,0,0,0,0,1,1,0,0,VALID,0,0,0,0,0,1,0,0,0,0,0,0,0,0,0,0,0,0,0,0,270.33,480.69,2,0,0.08,0.08,212,14.29,0.08,0.06,18.96,LANDED,CF1-J,0:/Integrated Flight Computer/aircraft/cf1_j_cfg.ks (inferred preloaded)
19.44,TAKEOFF,TO_GROUND_ROLL,37.02,80,42.98,3.63,2.29,-0.07,0.1,0.21,90.39,0.05,1,0,0,0,0,0,0,0,0,0,0,0,0,0,0,90.37,0,1,0,-0.11,0,0,0.02,90,0,0,0,0,0,0,0,0,-0.028,0,0,3,0,0,0,69,0,0,0,0,0,0,,0,NONE,0,0,0,0,0,0,0,0,0,0,0,2.29,0,0,0,0,0,0,0,0,0,90.37,1,-0.028,0.021,-0.0002,0.432,0,-0.0002,0,0,0,0,0,0,1,1,0,0,VALID,0,0,0,0,0,1,0,0,0,0,0,0,0,0,0,0,0,0,0,0,273.45,480.01,2,0,0.08,0.08,216,14.29,0.08,0.06,19.24,LANDED,CF1-J,0:/Integrated Flight Computer/aircraft/cf1_j_cfg.ks (inferred preloaded)
19.72,TAKEOFF,TO_GROUND_ROLL,38.32,80,41.68,3.63,2.27,-0.07,0.1,0.21,90.39,0.049,1,0,0,0,0,0,0,0,0,0,0,0,0,0,0,90.37,0,1,0,-0.11,0,0,0.02,90,0,0,0,0,0,0,0,0,-0.03,0,0,3,0,0,0,69,0,0,0,0,0,0,,0,NONE,0,0,0,0,0,0,0,0,0,0,0,2.27,0,0,0,0,0,0,0,0,0,90.37,1,-0.03,0.022,-0.0003,0.446,0,-0.0003,0,0,0,0,0,0,1,1,0,0,VALID,0,0,0,0,0,1,0,0,0,0,0,0,0,0,0,0,0,0,0,0,276.5,479.32,2,0,0.08,0.08,220,14.29,0.08,0.06,19.52,LANDED,CF1-J,0:/Integrated Flight Computer/aircraft/cf1_j_cfg.ks (inferred preloaded)
20,TAKEOFF,TO_GROUND_ROLL,39.64,80,40.36,3.63,2.25,-0.07,0.11,0.21,90.39,0.048,1,0,0,0,0,0,0,0,0,0,0,0,0,0,0,90.37,0,1,0,-0.11,0,0,0.02,90,0,0,0,0,0,0,0,0,-0.031,0,0,3,0,0,0,69,0,0,0,0,0,0,,0,NONE,0,0,0,0,0,0,0,0,0,0,0,2.25,0,0,0,0,0,0,0,0,0,90.37,1,-0.031,0.024,-0.0003,0.46,0,-0.0003,0,0,0,0,0,0,1,1,0,0,VALID,0,0,0,0,0,1,0,0,0,0,0,0,0,0,0,0,0,0,0,0,279.47,478.62,2,0,0.08,0.08,224,14.29,0.08,0.06,19.8,LANDED,CF1-J,0:/Integrated Flight Computer/aircraft/cf1_j_cfg.ks (inferred preloaded)
20.28,TAKEOFF,TO_GROUND_ROLL,40.96,80,39.04,3.63,2.22,-0.08,0.11,0.21,90.39,0.049,1,0,0,0,0,0,0,0,0,0,0,0,0,0,0,90.37,0,1,0,-0.11,0,0,0.02,90,0,0,0,0,0,0,0,0,-0.033,0,0,3,0,0,0,69,0,0,0,0,0,0,,0,NONE,0,0,0,0,0,0,0,0,0,0,0,2.22,0,0,0,0,0,0,0,0,0,90.37,1,-0.033,0.022,-0.0003,0.475,0,-0.0003,0,0,0,0,0,0,1,1,0,0,VALID,0,0,0,0,0,1,0,0,0,0,0,0,0,0,0,0,0,0,0,0,282.36,477.89,2,0,0.08,0.08,228,14.29,0.08,0.06,20.08,LANDED,CF1-J,0:/Integrated Flight Computer/aircraft/cf1_j_cfg.ks (inferred preloaded)
20.56,TAKEOFF,TO_GROUND_ROLL,42.3,80,37.7,3.63,2.2,-0.08,0.11,0.21,90.39,0.05,1,0,0,0,0,0,0,0,0,0,0,0,0,0,0,90.37,0,1,0,-0.1,0,0,0.02,90,0,0,0,0,0,0,0,0,-0.035,0,0,3,0,0,0,69,0,0,0,0,0,0,,0,NONE,0,0,0,0,0,0,0,0,0,0,0,2.2,0,0,0,0,0,0,0,0,0,90.37,1,-0.035,0.022,-0.0003,0.489,0,-0.0003,0,0,0,0,0,0,1,1,0,0,VALID,0,0,0,0,0,1,0,0,0,0,0,0,0,0,0,0,0,0,0,0,285.18,477.15,2,0,0.08,0.08,232,14.29,0.08,0.06,20.36,LANDED,CF1-J,0:/Integrated Flight Computer/aircraft/cf1_j_cfg.ks (inferred preloaded)
20.84,TAKEOFF,TO_GROUND_ROLL,43.65,80,36.35,3.63,2.18,-0.08,0.11,0.21,90.39,0.05,1,0,0,0,0,0,0,0,0,0,0,0,0,0,0,90.36,0,1,0,-0.1,0,0,0.02,90,0,0,0,0,0,0,0,0,-0.036,0,0,3,0,0,0,69,0,0,0,0,0,0,,0,NONE,0,0,0,0,0,0,0,0,0,0,0,2.18,0,0,0,0,0,0,0,0,0,90.36,1,-0.036,0.024,-0.0003,0.503,0,-0.0003,0,0,0,0,0,0,1,1,0,0,VALID,0,0,0,0,0,1,0,0,0,0,0,0,0,0,0,0,0,0,0,0,287.93,476.4,2,0,0.08,0.08,236,14.29,0.08,0.06,20.64,LANDED,CF1-J,0:/Integrated Flight Computer/aircraft/cf1_j_cfg.ks (inferred preloaded)
21.12,TAKEOFF,TO_GROUND_ROLL,45.01,80,34.99,3.63,2.16,-0.08,0.11,0.21,90.39,0.049,1,0,0,0,0,0,0,0,0,0,0,0,0,0,0,90.36,0,1,0,-0.1,0,0,0.03,90,0,0,0,0,0,0,0,0,-0.038,0,0,3,0,0,0,69,0,0,0,0,0,0,,0,NONE,0,0,0,0,0,0,0,0,0,0,0,2.16,0,0,0,0,0,0,0,0,0,90.36,1,-0.038,0.026,-0.0004,0.518,0,-0.0004,0,0,0,0,0,0,1,1,0,0,VALID,0,0,0,0,0,1,0,0,0,0,0,0,0,0,0,0,0,0,0,0,290.6,475.63,2,0,0.08,0.08,240,14.29,0.08,0.06,20.92,LANDED,CF1-J,0:/Integrated Flight Computer/aircraft/cf1_j_cfg.ks (inferred preloaded)
21.4,TAKEOFF,TO_GROUND_ROLL,46.38,80,33.62,3.63,2.14,-0.08,0.12,0.21,90.39,0.047,1,0,0,0,0,0,0,0,0,0,0,0,0,0,0,90.36,0,1,0,-0.1,0,0,0.03,90,0,0,0,0,0,0,0,0,-0.04,0,0,3,0,0,0,69,0,0,0,0,0,0,,0,NONE,0,0,0,0,0,0,0,0,0,0,0,2.14,0,0,0,0,0,0,0,0,0,90.36,1,-0.04,0.027,-0.0004,0.533,0,-0.0004,0,0,0,0,0,0,1,1,0,0,VALID,0,0,0,0,0,1,0,0,0,0,0,0,0,0,0,0,0,0,0,0,293.2,474.84,2,0,0.08,0.08,244,14.29,0.08,0.06,21.2,LANDED,CF1-J,0:/Integrated Flight Computer/aircraft/cf1_j_cfg.ks (inferred preloaded)
21.68,TAKEOFF,TO_GROUND_ROLL,47.77,80,32.23,3.63,2.12,-0.08,0.12,0.21,90.39,0.047,1,0,0,0,0,0,0,0,0,0,0,0,0,0,0,90.36,0,1,0,-0.1,0,0,0.03,90,0,0,0,0,0,0,0,0,-0.042,0,0,3,0,0,0,69,0,0,0,0,0,0,,0,NONE,0,0,0,0,0,0,0,0,0,0,0,2.12,0,0,0,0,0,0,0,0,0,90.36,1,-0.042,0.03,-0.0004,0.548,0,-0.0004,0,0,0,0,0,0,1,1,0,0,VALID,0,0,0,0,0,1,0,0,0,0,0,0,0,0,0,0,0,0,0,0,295.73,474.04,2,0,0.08,0.08,248,14.29,0.08,0.06,21.48,LANDED,CF1-J,0:/Integrated Flight Computer/aircraft/cf1_j_cfg.ks (inferred preloaded)
21.96,TAKEOFF,TO_GROUND_ROLL,49.16,80,30.84,3.63,2.09,-0.08,0.12,0.22,90.39,0.046,1,0,0,0,0,0,0,0,0,0,0,0,0,0,0,90.36,0,1,0,-0.1,0,0,0.03,90,0,0,0,0,0,0,0,0,-0.044,0,0,3,0,0,0,69,0,0,0,0,0,0,,0,NONE,0,0,0,0,0,0,0,0,0,0,0,2.09,0,0,0,0,0,0,0,0,0,90.36,1,-0.044,0.032,-0.0005,0.562,0,-0.0005,0,0,0,0,0,0,1,1,0,0,VALID,0,0,0,0,0,1,0,0,0,0,0,0,0,0,0,0,0,0,0,0,298.19,473.22,2,0,0.08,0.08,252,14.29,0.08,0.06,21.76,LANDED,CF1-J,0:/Integrated Flight Computer/aircraft/cf1_j_cfg.ks (inferred preloaded)
22.24,TAKEOFF,TO_GROUND_ROLL,50.56,80,29.44,3.63,2.07,-0.09,0.12,0.22,90.39,0.046,1,0,0,0,0,0,0,0,0,0,0,0,0,0,0,90.35,0,1,0,-0.1,0,0,0.03,90,0,0,0,0,0,0,0,0,-0.046,0,0,3,0,0,0,69,0,0,0,0,0,0,,0,NONE,0,0,0,0,0,0,0,0,0,0,0,2.07,0,0,0,0,0,0,0,0,0,90.35,1,-0.046,0.035,-0.0005,0.577,0,-0.0005,0,0,0,0,0,0,1,1,0,0,VALID,0,0,0,0,0,1,0,0,0,0,0,0,0,0,0,0,0,0,0,0,300.58,472.39,2,0,0.08,0.08,256,14.29,0.08,0.06,22.04,LANDED,CF1-J,0:/Integrated Flight Computer/aircraft/cf1_j_cfg.ks (inferred preloaded)
22.52,TAKEOFF,TO_GROUND_ROLL,51.97,80,28.03,3.63,2.05,-0.09,0.13,0.22,90.39,0.046,1,0,0,0,0,0,0,0,0,0,0,0,0,0,0,90.35,0,1,0,-0.1,0,0,0.03,90,0,0,0,0,0,0,0,0,-0.048,0,0,3,0,0,0,69,0,0,0,0,0,0,,0,NONE,0,0,0,0,0,0,0,0,0,0,0,2.05,0,0,0,0,0,0,0,0,0,90.35,1,-0.048,0.039,-0.0006,0.593,0,-0.0006,0,0,0,0,0,0,1,1,0,0,VALID,0,0,0,0,0,1,0,0,0,0,0,0,0,0,0,0,0,0,0,0,302.9,471.54,2,0,0.08,0.08,260,14.29,0.08,0.06,22.32,LANDED,CF1-J,0:/Integrated Flight Computer/aircraft/cf1_j_cfg.ks (inferred preloaded)
22.8,TAKEOFF,TO_GROUND_ROLL,53.39,80,26.61,3.64,2.02,-0.09,0.13,0.22,90.39,0.044,1,0,0,0,0,0,0,0,0,0,0,0,0,0,0,90.35,0,1,0,-0.09,0,0,0.03,90,0,0,0,0,0,0,0,0,-0.05,0,0,3,0,0,0,69,0,0,0,0,0,0,,0,NONE,0,0,0,0,0,0,0,0,0,0,0,2.02,0,0,0,0,0,0,0,0,0,90.35,1,-0.05,0.045,-0.0007,0.608,0,-0.0007,0,0,0,0,0,0,1,1,0,0,VALID,0,0,0,0,0,1,0,0,0,0,0,0,0,0,0,0,0,0,0,0,305.15,470.68,2,0,0.08,0.08,264,14.29,0.08,0.06,22.6,LANDED,CF1-J,0:/Integrated Flight Computer/aircraft/cf1_j_cfg.ks (inferred preloaded)
23.08,TAKEOFF,TO_GROUND_ROLL,54.82,80,25.18,3.64,2,-0.09,0.13,0.22,90.4,0.042,1,0,0,0,0,0,0,0,0,0,0,0,0,0,0,90.34,0,1,0,-0.09,0,0,0.03,90,0,0,0,0,0,0,0,0,-0.052,0,0,3,0,0,0,69,0,0,0,0,0,0,,0,NONE,0,0,0,0,0,0,0,0,0,0,0,2,0,0,0,0,0,0,0,0,0,90.34,1,-0.052,0.053,-0.0009,0.623,0,-0.0009,0,0,0,0,0,0,1,1,0,0,VALID,0,0,0,0,0,1,0,0,0,0,0,0,0,0,0,0,0,0,0,0,307.34,469.81,2,0,0.08,0.08,268,14.29,0.08,0.06,22.88,LANDED,CF1-J,0:/Integrated Flight Computer/aircraft/cf1_j_cfg.ks (inferred preloaded)
23.36,TAKEOFF,TO_GROUND_ROLL,56.26,80,23.74,3.64,1.97,-0.09,0.14,0.23,90.4,0.039,1,0,0,0,0,0,0,0,0,0,0,0,0,0,0,90.34,0,1,0,-0.09,0,0,0.04,90,0,0,0,0,0,0,0,0,-0.054,0,0,3,0,0,0,69,0,0,0,0,0,0,,0,NONE,0,0,0,0,0,0,0,0,0,0,0,1.97,0,0,0,0,0,0,0,0,0,90.34,1,-0.054,0.063,-0.0011,0.638,0,-0.0011,0,0,0,0,0,0,1,1,0,0,VALID,0,0,0,0,0,1,0,0,0,0,0,0,0,0,0,0,0,0,0,0,309.47,468.92,2,0,0.08,0.08,272,14.29,0.08,0.06,23.16,LANDED,CF1-J,0:/Integrated Flight Computer/aircraft/cf1_j_cfg.ks (inferred preloaded)
23.64,TAKEOFF,TO_GROUND_ROLL,57.7,80,22.3,3.64,1.95,-0.09,0.16,0.25,90.41,0.036,1,0,0,0,0,0,0,0,0,0,0,0,0,0,0,90.34,0,1,0,-0.09,0,0,0.04,90,0,0,0,0,0,0,0,0,-0.057,0,0,3,0,0,0,69,0,0,0,0,0,0,,0,NONE,0,0,0,0,0,0,0,0,0,0,0,1.95,0,0,0,0,0,0,0,0,0,90.34,1,-0.057,0.074,-0.0014,0.654,0,-0.0014,0,0,0,0,0,0,1,1,0,0,VALID,0,0,0,0,0,1,0,0,0,0,0,0,0,0,0,0,0,0,0,0,311.53,468.02,2,0,0.08,0.08,276,14.29,0.08,0.06,23.44,LANDED,CF1-J,0:/Integrated Flight Computer/aircraft/cf1_j_cfg.ks (inferred preloaded)
23.92,TAKEOFF,TO_GROUND_ROLL,59.15,80,20.85,3.65,1.94,-0.09,0.21,0.29,90.42,0.034,1,0,0,0,0,0,0,0,0,0,0,0,0,0,0,90.33,0,1,0,-0.08,0,0,0.04,90,0,0,0,0,0,0,0,0,-0.059,0,0,3,0,0,0,69,0,0,0,0,0,0,,0,NONE,0,0,0,0,0,0,0,0,0,0,0,1.94,0,0,0,0,0,0,0,0,0,90.33,1,-0.059,0.086,-0.0017,0.669,0,-0.0017,0,0,0,0,0,0,1,1,0,0,VALID,0,0,0,0,0,1,0,0,0,0,0,0,0,0,0,0,0,0,0,0,313.53,467.11,2,0,0.08,0.08,280,14.29,0.08,0.06,23.72,LANDED,CF1-J,0:/Integrated Flight Computer/aircraft/cf1_j_cfg.ks (inferred preloaded)
24.2,TAKEOFF,TO_GROUND_ROLL,60.6,80,19.4,3.66,1.92,-0.05,0.27,0.31,90.43,0.033,1,0,0,0,0,0,0,0,0,0,0,0,0,0,0,90.33,0,1,0,-0.04,0,0,0.04,90,0,0,0,0,0,0,0,0,-0.062,0,0,3,0,0,0,69,0,0,0,0,0,0,,0,NONE,0,0,0,0,0,0,0,0,0,0,0,1.92,0,0,0,0,0,0,0,0,0,90.33,1,-0.062,0.097,-0.002,0.685,0,-0.002,0,0,0,0,0,0,1,1,0,0,VALID,0,0,0,0,0,1,0,0,0,0,0,0,0,0,0,0,0,0,0,0,315.47,466.19,2,0,0.08,0.08,284,14.29,0.08,0.06,24,LANDED,CF1-J,0:/Integrated Flight Computer/aircraft/cf1_j_cfg.ks (inferred preloaded)
24.48,TAKEOFF,TO_GROUND_ROLL,62.07,80,17.93,3.69,1.92,-0.13,0.35,0.47,90.44,0.036,1,0,0,0,0,0,0,0,0,0,0,0,0,0,0,90.33,0,1,0,-0.12,0,0,0.04,90,0,0,0,0,0,0,0,0,-0.065,0,0,3,0,0,0,69,0,0,0,0,0,0,,0,NONE,0,0,0,0,0,0,0,0,0,0,0,1.92,0,0,0,0,0,0,0,0,0,90.33,1,-0.065,0.11,-0.0023,0.701,0,-0.0023,0,0,0,0,0,0,1,1,0,0,VALID,0,0,0,0,0,1,0,0,0,0,0,0,0,0,0,0,0,0,0,0,317.34,465.25,2,0,0.08,0.08,288,14.29,0.08,0.06,24.28,LANDED,CF1-J,0:/Integrated Flight Computer/aircraft/cf1_j_cfg.ks (inferred preloaded)
24.76,TAKEOFF,TO_GROUND_ROLL,63.53,80,16.47,3.71,1.92,-0.07,0.47,0.52,90.45,0.038,1,0,0,0,0,0,0,0,0,0,0,0,0,0,0,90.33,0,1,0,-0.06,0,0,0.04,90,0,0,0,0,0,0,0,0,-0.067,0,0,3,0,0,0,69,0,0,0,0,0,0,,0,NONE,0,0,0,0,0,0,0,0,0,0,0,1.92,0,0,0,0,0,0,0,0,0,90.33,1,-0.067,0.121,-0.0027,0.716,0,-0.0027,0,0,0,0,0,0,1,1,0,0,VALID,0,0,0,0,0,1,0,0,0,0,0,0,0,0,0,0,0,0,0,0,319.16,464.31,2,0,0.08,0.08,292,14.29,0.08,0.06,24.56,LANDED,CF1-J,0:/Integrated Flight Computer/aircraft/cf1_j_cfg.ks (inferred preloaded)
25.04,TAKEOFF,TO_GROUND_ROLL,65,80,15,3.73,1.91,-0.08,0.57,0.64,90.46,0.038,1,0,0,0,0,0,0,0,0,0,0,0,0,0,0,90.32,0,1,0,-0.07,0,0,0.05,90,0,0,0,0,0,0,0,0,-0.07,0,0,3,0,0,0,69,0,0,0,0,0,0,,0,NONE,0,0,0,0,0,0,0,0,0,0,0,1.91,0,0,0,0,0,0,0,0,0,90.32,1,-0.07,0.131,-0.003,0.732,0,-0.003,0,0,0,0,0,0,1,1,0,0,VALID,0,0,0,0,0,1,0,0,0,0,0,0,0,0,0,0,0,0,0,0,320.92,463.36,2,0,0.08,0.08,296,14.29,0.08,0.06,24.84,LANDED,CF1-J,0:/Integrated Flight Computer/aircraft/cf1_j_cfg.ks (inferred preloaded)
25.32,TAKEOFF,TO_GROUND_ROLL,66.48,80,13.52,3.74,1.89,-0.18,0.65,0.8,90.46,0.036,1,0,0,0,0,0,0,0,0,0,0,0,0,0,0,90.32,0,1,0,-0.16,0,0,0.05,90,0,0,0,0,0,0,0,0,-0.073,0,0,3,0,0,0,69,0,0,0,0,0,0,,0,NONE,0,0,0,0,0,0,0,0,0,0,0,1.89,0,0,0,0,0,0,0,0,0,90.32,1,-0.073,0.14,-0.0034,0.748,0,-0.0034,0,0,0,0,0,0,1,1,0,0,VALID,0,0,0,0,0,1,0,0,0,0,0,0,0,0,0,0,0,0,0,0,322.63,462.4,2,0,0.08,0.08,300,14.29,0.08,0.06,25.12,LANDED,CF1-J,0:/Integrated Flight Computer/aircraft/cf1_j_cfg.ks (inferred preloaded)
25.6,TAKEOFF,TO_GROUND_ROLL,67.83,80,12.17,3.77,1.9,-0.18,0.86,1.01,90.18,0.018,1,0,0,0,0,0,0,0,0,0,0,0,0,0,0,90.61,0,1,0,-0.15,0,0,0.05,90,0,0,0,0,0,0,0,0,-0.073,0,0,3,0,0,0,69,0,0,0,0,0,0,,0,NONE,0,0,0,0,0,0,0,0,0,0,0,1.9,0,0,0,0,0,0,0,0,0,90.61,1,-0.073,-0.428,0.0147,0.762,0,0.0147,0,0,0,0,0,0,1,1,0,0,VALID,0,0,0,0,0,1,0,0,0,0,0,0,0,0,0,0,0,0,0,0,324.34,461.51,2,0,0.08,0.08,304,14.29,0.08,0.06,25.4,LANDED,CF1-J,0:/Integrated Flight Computer/aircraft/cf1_j_cfg.ks (inferred preloaded)
25.88,TAKEOFF,TO_ROTATE,69.41,80,10.59,3.8,1.9,-0.1,0.96,1.02,89.86,0.024,1,0,0,0,0,0,0,0,0,0,0,0,0,0,0,90.49,1.557,1,0,-0.07,0,0,0.05,90,0,0,0,0,0,0,0,0,-0.074,0,0,3,0,0,0,69,0,0,0,0,0,0,,0,NONE,0,0,0,0,0,0,0,0.1281,0,0,0,1.9,0,0,0,0,0,0,0,0,0,90.49,1,-0.074,-0.63,0.0221,0.778,0,0.0221,0,0.1281,1.557,0.601,0.08,0,1,1,0,0,VALID,0,0,0,0,0,1,0,0,0,0,0,0,0,0,0,0,0,0,0,0,326.05,460.47,2,0,0.08,0.08,308,13.33,0.08,0.06,25.68,LANDED,CF1-J,0:/Integrated Flight Computer/aircraft/cf1_j_cfg.ks (inferred preloaded)
26.16,TAKEOFF,TO_ROTATE,70.89,80,9.11,3.8,1.87,-0.07,0.99,1.04,89.69,0.332,1,0,0,0,0,0,0,0,0,0,0,0,0,0,0,90.42,2.397,1,0,-0.06,0,0,0.05,90,0,0,0,0,0,0,0,0,-0.073,0,0,3,0,0,0,69,0,0,0,0,0,0,,0,NONE,0,0,0,0,0,0,0,0.1925,0,0,0,1.87,0,0,0,0,0,0,0,0,0,90.42,1,-0.073,-0.725,0.0259,0.794,0,0.0259,0,0.1925,2.397,1.406,0.08,0,1,1,0,0,VALID,0,0,0,0,0,1,0,0,0,0,0,0,0,0,0,0,0,0,0,0,327.6,459.49,2,0,0.08,0.08,312,14.29,0.08,0.06,25.96,LANDED,CF1-J,0:/Integrated Flight Computer/aircraft/cf1_j_cfg.ks (inferred preloaded)
26.44,TAKEOFF,TO_ROTATE,72.37,80,7.63,3.82,1.87,-0.08,1.06,1.13,89.63,0.349,1,0,0,0,0,0,0,0,0,0,0,0,0,0,0,90.36,3.237,1,0,-0.07,0,0,0.06,90,0,0,0,0,0,0,0,0,-0.07,0,0,3,0,0,0,69,0,0,0,0,0,0,,0,NONE,0,0,0,0,0,0,0,0.2538,0,0,0,1.87,0,0,0,0,0,0,0,0,0,90.36,1,-0.07,-0.725,0.0264,0.81,0,0.0264,0,0.2538,3.237,2.173,0.08,0,1,1,0,0,VALID,0,0,0,0,0,1,0,0,0,0,0,0,0,0,0,0,0,0,0,0,329.09,458.51,2,0,0.08,0.08,316,14.29,0.08,0.06,26.24,LANDED,CF1-J,0:/Integrated Flight Computer/aircraft/cf1_j_cfg.ks (inferred preloaded)
26.72,TAKEOFF,TO_ROTATE,73.85,80,6.15,3.85,1.88,-0.07,1.26,1.31,89.62,0.092,1,0,0,0,0,0,0,0,0,0,0,0,0,0,0,90.33,4.077,1,0,-0.05,0,0,0.06,90,0,0,0,0,0,0,0,0,-0.067,0,0,3,0,0,0,69,0,0,0,0,0,0,,0,NONE,0,0,0,0,0,0,0,0.3054,0,0,0,1.88,0,0,0,0,0,0,0,0,0,90.33,1,-0.067,-0.711,0.0264,0.826,0,0.0264,0,0.3054,4.077,2.818,0.08,0,1,1,0,0,VALID,0,0,0,0,0,1,0,0,0,0,0,0,0,0,0,0,0,0,0,0,330.53,457.52,2,0,0.08,0.08,320,14.29,0.08,0.06,26.52,LANDED,CF1-J,0:/Integrated Flight Computer/aircraft/cf1_j_cfg.ks (inferred preloaded)
27,TAKEOFF,TO_ROTATE,75.33,80,4.67,3.91,1.91,-0.04,1.55,1.58,89.62,-0.109,1,0,0,0,0,0,0,0,0,0,0,0,0,0,0,90.34,4.917,1,0,-0.03,0,0,0.06,90,0,0,0,0,0,0,0,0,-0.064,0,0,3,0,0,0,69,0,0,0,0,0,0,,0,NONE,0,0,0,0,0,0,0,0.3496,0,0,0,1.91,0,0,0,0,0,0,0,0,0,90.34,1,-0.064,-0.718,0.0272,0.842,0,0.0272,0,0.3496,4.917,3.37,0.08,0,1,1,0,0,VALID,0,0,0,0,0,1,0,0,0,0,0,0,0,0,0,0,0,0,0,0,331.93,456.53,2,0,0.08,0.08,324,14.29,0.08,0.06,26.8,LANDED,CF1-J,0:/Integrated Flight Computer/aircraft/cf1_j_cfg.ks (inferred preloaded)
27.28,TAKEOFF,TO_ROTATE,76.8,80,3.2,3.99,1.97,0.09,1.93,1.87,89.61,-0.143,1,0,0,0,0,0,0,0,0,0,0,0,0,0,0,90.34,5.757,1,0,0.06,0,0,0.06,90,0,0,0,0,0,0,0,0,-0.061,0,0,3,0,0,0,69,0,0,0,0,0,0,,0,NONE,0,0,0,0,0,0,0,0.3863,0,0,0,1.97,0,0,0,0,0,0,0,0,0,90.34,1,-0.061,-0.732,0.0282,0.857,0,0.0282,0,0.3863,5.757,3.828,0.08,0,1,1,0,0,VALID,0,0,0,0,0,1,0,0,0,0,0,0,0,0,0,0,0,0,0,0,333.29,455.54,2,0,0.08,0.08,328,14.29,0.08,0.06,27.08,LANDED,CF1-J,0:/Integrated Flight Computer/aircraft/cf1_j_cfg.ks (inferred preloaded)
27.56,TAKEOFF,TO_ROTATE,78.26,80,1.74,4.13,2.08,-0.07,2.51,2.55,89.61,-0.009,1,0,0,0,0,0,0,0,0,0,0,0,0,0,0,90.34,6.597,1,0,-0.04,0,0,0.06,90,0,0,0,0,0,0,0,0,-0.058,0,0,3,0,0,0,69,0,0,0,0,0,0,,0,NONE,0,0,0,0,0,0,0,0.4073,0,0,0,2.08,0,0,0,0,0,0,0,0,0,90.34,1,-0.058,-0.73,0.0287,0.873,0,0.0287,0,0.4073,6.597,4.091,0.08,0,1,1,0,0,VALID,0,0,0,0,0,1,0,0,0,0,0,0,0,0,0,0,0,0,0,0,334.6,454.55,2,0,0.08,0.08,332,14.29,0.08,0.06,27.36,LANDED,CF1-J,0:/Integrated Flight Computer/aircraft/cf1_j_cfg.ks (inferred preloaded)
27.84,TAKEOFF,TO_ROTATE,79.69,80,0.31,4.3,2.24,0.1,3.41,3.34,89.62,0.114,1,0,0,0,0,0,0,0,0,0,0,0,0,0,0,90.34,7.437,1,0,0.08,0,0,0.07,90,0,0,0,0,0,0,0,0,-0.055,0,0,3,0,0,0,69,0,0,0,0,0,0,,0,NONE,0,0,0,0,0,0,0,0.4019,0,0,0,2.24,0,0,0,0,0,0,0,0,0,90.34,1,-0.055,-0.718,0.0287,0.888,0,0.0287,0,0.4019,7.437,4.024,0.08,0,1,1,0,0,VALID,0,0,0,0,0,1,0,0,0,0,0,0,0,0,0,0,0,0,0,0,335.88,453.58,2,0,0.08,0.08,336,14.29,0.08,0.06,27.64,LANDED,CF1-J,0:/Integrated Flight Computer/aircraft/cf1_j_cfg.ks (inferred preloaded)
28.12,TAKEOFF,TO_ROTATE,81.08,80,-1.08,4.51,2.5,0.93,4.4,3.74,89.64,0.094,1,0,0,0,0,0,0,0,0,0,0,0,0,0,0,90.33,8.277,1,0,0.68,0,0,0.07,90,0,0,0,0,0,0,0,0,-0.052,0,0,3,0,0,0,69,0,0,0,0,0,0,,0,NONE,0,0,0,0,0,0,0,0.3902,0,0,0,2.5,0,0,0,0,0,0,0,0,0,90.33,1,-0.052,-0.696,0.0283,0.903,0,0.0283,0,0.3902,8.277,3.877,0.08,0,1,1,0,0,VALID,0,0,0,0,0,1,0,0,0,0,0,0,0,0,0,0,0,0,0,0,337.13,452.63,2,0,0.08,0.08,340,14.29,0.08,0.06,27.92,LANDED,CF1-J,0:/Integrated Flight Computer/aircraft/cf1_j_cfg.ks (inferred preloaded)
28.38,TAKEOFF,TO_ROTATE,82.33,80,-2.33,4.86,2.83,0.74,5.32,4.77,89.65,0.048,1,0,0,0,0,0,0,0,0,0,0,0,0,0,0,90.4,9.117,0,1,0.52,0,0,8.88,90.4,-0.699,-0.007,-0.7151,9.12,90.4,0,0,0,0,0,0,3,0,0,0,69,0,0,0,0,0,0,,0,NONE,0,0,0,0,0,0,0,0,0,0,0,2.83,0,0,0,0,0,0,0,0,0,90.4,1,0,-0.747,0,0,3,0,0,0,9.117,3.797,0,0,1,1,0,0,VALID,0,0,0,0,0,1,0,0,0,0,0,0,0,0,0,0,0,0,0,0,338.27,451.76,2,0,0.08,0.08,344,15.38,0.08,0.06,28.2,FLYING,CF1-J,0:/Integrated Flight Computer/aircraft/cf1_j_cfg.ks (inferred preloaded)
28.66,TAKEOFF,TO_ROTATE,83.62,80,-3.62,5.17,3.12,0.97,5.57,4.94,89.62,0.031,1,0,0,0,0,0,0,0,0,0,0,0,0,0,0,90.4,9.957,0,1,0.66,0,0,9.72,90.4,-0.7094,-0.007,-0.7048,9.96,90.4,0,0,0,0,0,0,3,0,0,0,69,0,0,0,0,0,0,,0,NONE,0,0,0,0,0,0,0,0,0,0,0,3.12,0,0,0,0,0,0,0,0,0,90.4,1,0,-0.776,0,0,3,0,0,0,9.957,4.386,0,0,1,1,0,0,VALID,0,0,0,0,0,1,0,0,0,0,0,0,0,0,0,0,0,0,0,0,339.49,450.86,2,0,0.08,0.08,348,14.29,0.08,0.06,28.48,FLYING,CF1-J,0:/Integrated Flight Computer/aircraft/cf1_j_cfg.ks (inferred preloaded)
28.94,TAKEOFF,TO_CLIMB,84.9,80,-4.9,5.49,3.42,1.15,5.62,4.88,89.62,0.042,0.912,0,0,0,0,0,0,0,0,0,0,0,0,0,0,90.4,5.928,0,1,0.78,0,0,5.8,90.4,-0.6581,-0.007,-0.7529,5.93,90.4,0,0,0,0,0,0,3,0,0,0,69,0,0,0,0,0,0,,0,NONE,0,0,0,0,0,0,0,0,0,0,0,3.42,0,0,0,0,0,0,0,0,0,90.4,1,0,-0.778,0,0,3,0,0,0,10,4.424,0,0,1,1,0,0,VALID,0,0,0,0,0,1,0,0,0,0,0,0,0,0,0,0,0,0,0,0,340.56,449.97,2,0,0.08,0.08,352,14.29,0.08,0.06,28.76,FLYING,CF1-J,0:/Integrated Flight Computer/aircraft/cf1_j_cfg.ks (inferred preloaded)
29.22,TAKEOFF,TO_CLIMB,86.18,80,-6.18,5.88,3.79,1.41,5.71,4.81,89.63,0.076,0.8882,0,0,0,0,0,0,0,0,0,0,0,0,0,0,90.4,6.376,0,1,0.94,0,0,6.25,90.4,-0.6639,-0.007,-0.7478,6.38,90.4,0,0,0,0,0,0,3,0,0,0,69,0,0,0,0,0,0,,0,NONE,0,0,0,0,0,0,0,0,0,0,0,3.79,0,0,0,0,0,0,0,0,0,90.4,1,0,-0.774,0,0,3,0,0,0,10,4.424,0,0,1,1,0,0,VALID,0,0,0,0,0,1,0,0,0,0,0,0,0,0,0,0,0,0,0,0,341,449.08,2,0,0.08,0.08,356,14.29,0.08,0.06,29.04,FLYING,CF1-J,0:/Integrated Flight Computer/aircraft/cf1_j_cfg.ks (inferred preloaded)
29.5,TAKEOFF,TO_CLIMB,87.44,80,-7.44,6.36,4.25,1.73,5.82,4.74,89.63,0.122,0.8756,0,0,0,0,0,0,0,0,0,0,0,0,0,0,90.4,6.824,0,1,1.13,0,0,6.7,90.4,-0.6697,-0.007,-0.7426,6.82,90.4,0,0,0,0,0,0,3,0,0,0,69,0,0,0,0,0,0,,0,NONE,0,0,0,0,0,0,0,0,0,0,0,4.25,0,0,0,0,0,0,0,0,0,90.4,1,0,-0.767,0,0,3,0,0,0,10,4.424,0,0,1,1,0,0,VALID,0,0,0,0,0,1,0,0,0,0,0,0,0,0,0,0,0,0,0,0,341.26,448.19,2,0,0.08,0.08,360,14.29,0.08,0.06,29.32,FLYING,CF1-J,0:/Integrated Flight Computer/aircraft/cf1_j_cfg.ks (inferred preloaded)
29.78,TAKEOFF,TO_CLIMB,88.68,80,-8.68,6.94,4.81,2.1,5.94,4.64,89.64,0.173,0.8632,0,0,0,0,0,0,0,0,0,0,0,0,0,0,90.4,7.272,0,1,1.36,0,0,7.14,90.4,-0.6755,-0.007,-0.7374,7.27,90.4,0,0,0,0,0,0,3,0,0,0,69,0,0,0,0,0,0,,0,NONE,0,0,0,0,0,0,0,0,0,0,0,4.81,0,0,0,0,0,0,0,0,0,90.4,1,0,-0.759,0,0,3,0,0,0,10,4.424,0,0,1,1,0,0,VALID,0,0,0,0,0,1,0,0,0,0,0,0,0,0,0,0,0,0,0,0,341.42,447.3,2,0,0.08,0.08,364,14.29,0.08,0.06,29.6,FLYING,CF1-J,0:/Integrated Flight Computer/aircraft/cf1_j_cfg.ks (inferred preloaded)
30.06,TAKEOFF,TO_CLIMB,89.92,80,-9.92,7.62,5.48,2.52,6.06,4.51,89.65,0.224,0.8508,0,0,0,0,0,0,0,0,0,0,0,0,0,0,90.4,7.72,0,1,1.61,0,0,7.59,90.4,-0.6812,-0.007,-0.7321,7.72,90.4,0,0,0,0,0,0,3,0,0,0,69,0,0,0,0,0,0,,0,NONE,0,0,0,0,0,0,0,0,0,0,0,5.48,0,0,0,0,0,0,0,0,0,90.4,1,0,-0.749,0,0,3,0,0,0,10,4.424,0,0,1,1,0,0,VALID,0,0,0,0,0,1,0,0,0,0,0,0,0,0,0,0,0,0,0,0,341.46,446.41,2,0,0.08,0.08,368,14.29,0.08,0.06,29.88,FLYING,CF1-J,0:/Integrated Flight Computer/aircraft/cf1_j_cfg.ks (inferred preloaded)
30.34,TAKEOFF,TO_CLIMB,91.14,80,-11.14,8.43,6.27,2.99,6.17,4.37,89.66,0.268,0.8386,0,0,0,0,0,0,0,0,0,0,0,0,0,0,90.4,8,0,1,1.88,0,0,8,90.4,-0.6847,-0.007,-0.7288,8,90.4,0,0,0,0,0,0,3,0,0,0,69,0,0,0,0,0,0,,0,NONE,0,0,0,0,0,0,0,0,0,0,0,6.27,0,0,0,0,0,0,0,0,0,90.4,1,0,-0.739,0,0,3,0,0,0,10,4.424,0,0,1,1,0,0,VALID,0,0,0,0,0,1,0,0,0,0,0,0,0,0,0,0,0,0,0,0,341.4,445.53,2,0,0.08,0.08,372,14.29,0.08,0.06,30.16,FLYING,CF1-J,0:/Integrated Flight Computer/aircraft/cf1_j_cfg.ks (inferred preloaded)
30.62,TAKEOFF,TO_CLIMB,92.35,80,-12.35,9.37,7.2,3.47,6.28,4.2,89.67,0.301,0.8265,0,0,0,0,0,0,0,0,0,0,0,0,0,0,90.4,8,0,1,2.15,0,0,8,90.4,-0.6847,-0.007,-0.7288,8,90.4,0,0,0,0,0,0,3,0,0,0,69,0,0,0,0,0,0,,0,NONE,0,0,0,0,0,0,0,0,0,0,0,7.2,0,0,0,0,0,0,0,0,0,90.4,1,0,-0.729,0,0,3,0,0,0,10,4.424,0,0,1,1,0,0,VALID,0,0,0,0,0,1,0,0,0,0,0,0,0,0,0,0,0,0,0,0,341.24,444.64,2,0,0.08,0.08,376,14.29,0.08,0.06,30.44,FLYING,CF1-J,0:/Integrated Flight Computer/aircraft/cf1_j_cfg.ks (inferred preloaded)
30.9,TAKEOFF,TO_CLIMB,93.54,80,-13.54,10.45,8.26,3.98,6.38,4.04,89.68,0.312,0.8146,0,0,0,0,0,0,0,0,0,0,0,0,0,0,90.4,8,0,1,2.44,0,0,8,90.4,-0.6847,-0.007,-0.7288,8,90.4,0,0,0,0,0,0,3,0,0,0,69,0,0,0,0,0,0,,0,NONE,0,0,0,0,0,0,0,0,0,0,0,8.26,0,0,0,0,0,0,0,0,0,90.4,1,0,-0.72,0,0,3,0,0,0,10,4.424,0,0,1,1,0,0,VALID,0,0,0,0,0,1,0,0,0,0,0,0,0,0,0,0,0,0,0,0,340.98,443.76,2,0,0.08,0.08,380,14.29,0.08,0.06,30.72,FLYING,CF1-J,0:/Integrated Flight Computer/aircraft/cf1_j_cfg.ks (inferred preloaded)
31.18,TAKEOFF,TO_CLIMB,94.71,80,-14.71,11.68,9.5,4.58,6.57,3.89,89.69,0.336,0.8029,0,0,0,0,0,0,0,0,0,0,0,0,0,0,90.4,8,0,1,2.77,0,0,8,90.4,-0.6846,-0.007,-0.7289,8,90.4,0,0,0,0,0,0,3,0,0,0,69,0,0,0,0,0,0,,0,NONE,0,0,0,0,0,0,0,0,0,0,0,9.5,0,0,0,0,0,0,0,0,0,90.4,1,0,-0.711,0,0,3,0,0,0,10,4.424,0,0,1,1,0,0,VALID,0,0,0,0,0,1,0,0,0,0,0,0,0,0,0,0,0,0,0,0,340.63,442.88,2,0,0.08,0.08,384,14.29,0.08,0.06,31,FLYING,CF1-J,0:/Integrated Flight Computer/aircraft/cf1_j_cfg.ks (inferred preloaded)
31.46,TAKEOFF,TO_CLIMB,95.86,80,-15.86,13.12,10.92,5.23,6.86,3.84,89.71,0.418,0.7914,0,0,0,0,0,0,0,0,0,0,0,0,0,0,90.4,8,0,1,3.12,0,0,8,90.4,-0.6846,-0.007,-0.7289,8,90.4,0,0,0,0,0,0,3,0,0,0,69,0,0,0,0,0,0,,0,NONE,0,0,0,0,0,0,0,0,0,0,0,10.92,0,0,0,0,0,0,0,0,0,90.4,1,0,-0.692,0,0,3,0,0,0,10,4.424,0,0,1,1,0,0,VALID,0,0,0,0,0,1,0,0,0,0,0,0,0,0,0,0,0,0,0,0,340.19,442.01,2,0,0.08,0.08,388,14.29,0.08,0.06,31.28,FLYING,CF1-J,0:/Integrated Flight Computer/aircraft/cf1_j_cfg.ks (inferred preloaded)
31.74,TAKEOFF,TO_CLIMB,96.98,80,-16.98,14.7,12.49,6.01,6.8,3.42,89.73,0.521,0.7802,0,0,0,0,0,0,0,0,0,0,0,0,0,0,90.4,8,0,1,3.55,0,0,8,90.4,-0.6846,-0.007,-0.7289,8,90.4,0,0,0,0,0,0,3,0,0,0,69,0,0,0,0,0,0,,0,NONE,0,0,0,0,0,0,0,0,0,0,0,12.49,0,0,0,0,0,0,0,0,0,90.4,1,0,-0.673,0,0,3,0,0,0,10,4.424,0,0,1,1,0,0,VALID,0,0,0,0,0,1,0,0,0,0,0,0,0,0,0,0,0,0,0,0,339.66,441.14,2,0,0.08,0.08,392,14.29,0.08,0.06,31.56,FLYING,CF1-J,0:/Integrated Flight Computer/aircraft/cf1_j_cfg.ks (inferred preloaded)
32.02,TAKEOFF,TO_CLIMB,98.1,80,-18.1,16.41,14.19,6.43,6.44,2.8,89.75,0.625,0.78,0,0,0,0,0,0,0,0,0,0,0,0,0,0,90.4,8,0,1,3.75,0,0,8,90.4,-0.6845,-0.007,-0.729,8,90.4,0,0,0,0,0,0,3,0,0,0,69,0,0,0,0,0,0,,0,NONE,0,0,0,0,0,0,0,0,0,0,0,14.19,0,0,0,0,0,0,0,0,0,90.4,1,0,-0.655,0,0,3,0,0,0,10,4.424,0,0,1,1,0,0,VALID,0,0,0,0,0,1,0,0,0,0,0,0,0,0,0,0,0,0,0,0,339.07,440.27,2,0,0.08,0.08,396,14.29,0.08,0.06,31.84,FLYING,CF1-J,0:/Integrated Flight Computer/aircraft/cf1_j_cfg.ks (inferred preloaded)
32.3,TAKEOFF,TO_CLIMB,99.24,80,-19.24,18.31,16.08,6.9,6.57,2.73,89.77,0.715,0.78,0,0,0,0,0,0,0,0,0,0,0,0,0,0,90.4,8,0,1,3.98,0,0,8,90.4,-0.6845,-0.007,-0.729,8,90.4,0,0,0,0,0,0,3,0,0,0,69,0,0,0,0,0,0,,0,NONE,0,0,0,0,0,0,0,0,0,0,0,16.08,0,0,0,0,0,0,0,0,0,90.4,1,0,-0.632,0,0,3,0,0,0,10,4.424,0,0,1,1,0,0,VALID,0,0,0,0,0,1,0,0,0,0,0,0,0,0,0,0,0,0,0,0,338.45,439.37,2,0,0.08,0.08,400,14.29,0.08,0.06,32.12,FLYING,CF1-J,0:/Integrated Flight Computer/aircraft/cf1_j_cfg.ks (inferred preloaded)
32.58,TAKEOFF,TO_CLIMB,100.36,80,-20.36,20.29,18.06,7.33,6.41,2.38,89.79,0.757,0.78,0,0,0,0,0,0,0,0,0,0,0,0,0,0,90.4,8,0,1,4.18,0,0,8,90.4,-0.6845,-0.007,-0.729,8,90.4,0,0,0,0,0,0,3,0,0,0,69,0,0,0,0,0,0,,0,NONE,0,0,0,0,0,0,0,0,0,0,0,18.06,0,0,0,0,0,0,0,0,0,90.4,1,0,-0.614,0,0,3,0,0,0,10,4.424,0,0,1,1,0,0,VALID,0,0,0,0,0,1,0,0,0,0,0,0,0,0,0,0,0,0,0,0,337.84,438.48,2,0,0.08,0.08,404,14.29,0.08,0.06,32.4,FLYING,CF1-J,0:/Integrated Flight Computer/aircraft/cf1_j_cfg.ks (inferred preloaded)
32.86,TAKEOFF,TO_CLIMB,101.5,80,-21.5,22.4,20.16,7.58,6.5,2.35,89.8,0.761,0.78,0,0,0,0,0,0,0,0,0,0,0,0,0,0,90.4,8,0,1,4.27,0,0,8,90.4,-0.6844,-0.007,-0.7291,8,90.4,0,0,0,0,0,0,3,0,0,0,69,0,0,0,0,0,0,,0,NONE,0,0,0,0,0,0,0,0,0,0,0,20.16,0,0,0,0,0,0,0,0,0,90.4,1,0,-0.596,0,0,3,0,0,0,10,4.424,0,0,1,1,0,0,VALID,0,0,0,0,0,1,0,0,0,0,0,0,0,0,0,0,0,0,0,0,337.22,437.58,2,0,0.08,0.08,408,14.29,0.08,0.06,32.68,FLYING,CF1-J,0:/Integrated Flight Computer/aircraft/cf1_j_cfg.ks (inferred preloaded)
33.14,TAKEOFF,TO_CLIMB,102.62,80,-22.62,24.59,22.34,7.95,6.49,2.19,89.82,0.765,0.78,0,0,0,0,0,0,0,0,0,0,0,0,0,0,90.4,8,0,1,4.43,0,0,8,90.4,-0.6844,-0.007,-0.7291,8,90.4,0,0,0,0,0,0,3,0,0,0,69,0,0,0,0,0,0,,0,NONE,0,0,0,0,0,0,0,0,0,0,0,22.34,0,0,0,0,0,0,0,0,0,90.4,1,0,-0.579,0,0,3,0,0,0,10,4.424,0,0,1,1,0,0,VALID,0,0,0,0,0,1,0,0,0,0,0,0,0,0,0,0,0,0,0,0,336.59,436.68,2,0,0.08,0.08,412,14.29,0.08,0.06,32.96,FLYING,CF1-J,0:/Integrated Flight Computer/aircraft/cf1_j_cfg.ks (inferred preloaded)
33.42,TAKEOFF,TO_CLIMB,103.74,80,-23.74,26.94,24.62,8.29,6.5,2.06,89.84,0.766,0.78,0,0,0,0,0,0,0,0,0,0,0,0,0,0,90.4,8,0,1,4.57,0,0,8,90.4,-0.6843,-0.007,-0.7291,8,90.4,0,0,0,0,0,0,3,0,0,0,69,0,0,0,0,0,0,,0,NONE,0,0,0,0,0,0,0,0,0,0,0,24.62,0,0,0,0,0,0,0,0,0,90.4,1,0,-0.56,0,0,3,0,0,0,10,4.424,0,0,1,1,0,0,VALID,0,0,0,0,0,1,0,0,0,0,0,0,0,0,0,0,0,0,0,0,335.97,435.78,2,0,0.08,0.08,416,14.29,0.08,0.06,33.24,FLYING,CF1-J,0:/Integrated Flight Computer/aircraft/cf1_j_cfg.ks (inferred preloaded)
33.7,TAKEOFF,TO_CLIMB,104.85,80,-24.85,29.31,26.99,8.63,6.49,1.92,89.86,0.761,0.78,0,0,0,0,0,0,0,0,0,0,0,0,0,0,90.4,8,0,1,4.71,0,0,8,90.4,-0.6843,-0.007,-0.7292,8,90.4,0,0,0,0,0,0,3,0,0,0,69,0,0,0,0,0,0,,0,NONE,0,0,0,0,0,0,0,0,0,0,0,26.99,0,0,0,0,0,0,0,0,0,90.4,1,0,-0.542,0,0,3,0,0,0,10,4.424,0,0,1,1,0,0,VALID,0,0,0,0,0,1,0,0,0,0,0,0,0,0,0,0,0,0,0,0,335.34,434.89,2,0,0.08,0.08,420,14.29,0.08,0.06,33.52,FLYING,CF1-J,0:/Integrated Flight Computer/aircraft/cf1_j_cfg.ks (inferred preloaded)
33.98,TAKEOFF,TO_CLIMB,105.95,80,-25.95,31.78,29.45,8.97,6.49,1.79,89.88,0.754,0.78,0,0,0,0,0,0,0,0,0,0,0,0,0,0,90.4,8,0,1,4.84,0,0,8,90.4,-0.6843,-0.007,-0.7292,8,90.4,0,0,0,0,0,0,3,0,0,0,69,0,0,0,0,0,0,,0,NONE,0,0,0,0,0,0,0,0,0,0,0,29.45,0,0,0,0,0,0,0,0,0,90.4,1,0,-0.525,0,0,3,0,0,0,10,4.424,0,0,1,1,0,0,VALID,0,0,0,0,0,1,0,0,0,0,0,0,0,0,0,0,0,0,0,0,334.72,433.99,2,0,0.08,0.08,424,14.29,0.08,0.06,33.8,FLYING,CF1-J,0:/Integrated Flight Computer/aircraft/cf1_j_cfg.ks (inferred preloaded)
34.26,TAKEOFF,TO_CLIMB,107.04,80,-27.04,34.34,32.02,9.31,6.48,1.66,89.89,0.746,0.78,0,0,0,0,0,0,0,0,0,0,0,0,0,0,90.4,8,0,1,4.97,0,0,8,90.4,-0.6842,-0.007,-0.7292,8,90.4,0,0,0,0,0,0,3,0,0,0,69,0,0,0,0,0,0,,0,NONE,0,0,0,0,0,0,0,0,0,0,0,32.02,0,0,0,0,0,0,0,0,0,90.4,1,0,-0.507,0,0,3,0,0,0,10,4.424,0,0,1,1,0,0,VALID,0,0,0,0,0,1,0,0,0,0,0,0,0,0,0,0,0,0,0,0,334.09,433.1,2,0,0.08,0.08,428,14.29,0.08,0.06,34.08,FLYING,CF1-J,0:/Integrated Flight Computer/aircraft/cf1_j_cfg.ks (inferred preloaded)
34.54,TAKEOFF,TO_CLIMB,108.13,80,-28.13,36.99,34.67,9.64,6.47,1.52,89.91,0.734,0.78,0,0,0,0,0,0,0,0,0,0,0,0,0,0,90.4,8,0,1,5.09,0,0,8,90.4,-0.6842,-0.007,-0.7293,8,90.4,0,0,0,0,0,0,3,0,0,0,69,0,0,0,0,0,0,,0,NONE,0,0,0,0,0,0,0,0,0,0,0,34.67,0,0,0,0,0,0,0,0,0,90.4,1,0,-0.49,0,0,3,0,0,0,10,4.424,0,0,1,1,0,0,VALID,0,0,0,0,0,1,0,0,0,0,0,0,0,0,0,0,0,0,0,0,333.47,432.21,2,0,0.08,0.08,432,14.29,0.08,0.06,34.36,FLYING,CF1-J,0:/Integrated Flight Computer/aircraft/cf1_j_cfg.ks (inferred preloaded)
34.82,TAKEOFF,TO_CLIMB,109.2,80,-29.2,39.73,37.41,9.96,6.46,1.39,89.93,0.721,0.78,0,0,0,0,0,0,0,0,0,0,0,0,0,0,90.4,8,0,1,5.21,0,0,8,90.4,-0.6842,-0.007,-0.7293,8,90.4,0,0,0,0,0,0,3,0,0,0,69,0,0,0,0,0,0,,0,NONE,0,0,0,0,0,0,0,0,0,0,0,37.41,0,0,0,0,0,0,0,0,0,90.4,1,0,-0.473,0,0,3,0,0,0,10,4.424,0,0,1,1,0,0,VALID,0,0,0,0,0,1,0,0,0,0,0,0,0,0,0,0,0,0,0,0,332.84,431.32,2,0,0.08,0.08,436,14.29,0.08,0.06,34.64,FLYING,CF1-J,0:/Integrated Flight Computer/aircraft/cf1_j_cfg.ks (inferred preloaded)
35.1,TAKEOFF,TO_CLIMB,110.27,80,-30.27,42.56,40.25,10.28,6.45,1.28,89.94,0.708,0.78,0,0,0,0,0,0,0,0,0,0,0,0,0,0,90.4,8,0,1,5.32,0,0,8,90.4,-0.6841,-0.007,-0.7293,8,90.4,0,0,0,0,0,0,3,0,0,0,69,0,0,0,0,0,0,,0,NONE,0,0,0,0,0,0,0,0,0,0,0,40.25,0,0,0,0,0,0,0,0,0,90.4,1,0,-0.457,0,0,3,0,0,0,10,4.424,0,0,1,1,0,0,VALID,0,0,0,0,0,1,0,0,0,0,0,0,0,0,0,0,0,0,0,0,332.22,430.43,2,0,0.08,0.08,440,14.29,0.08,0.06,34.92,FLYING,CF1-J,0:/Integrated Flight Computer/aircraft/cf1_j_cfg.ks (inferred preloaded)
35.38,TAKEOFF,TO_CLIMB,111.33,80,-31.33,45.48,43.17,10.59,6.44,1.16,89.96,0.692,0.78,0,0,0,0,0,0,0,0,0,0,0,0,0,0,90.4,8,0,1,5.43,0,0,8,90.4,-0.6841,-0.007,-0.7294,8,90.4,0,0,0,0,0,0,3,0,0,0,69,0,0,0,0,0,0,,0,NONE,0,0,0,0,0,0,0,0,0,0,0,43.17,0,0,0,0,0,0,0,0,0,90.4,1,0,-0.441,0,0,3,0,0,0,10,4.424,0,0,1,1,0,0,VALID,0,0,0,0,0,1,0,0,0,0,0,0,0,0,0,0,0,0,0,0,331.6,429.55,2,0,0.08,0.08,444,14.29,0.08,0.06,35.2,FLYING,CF1-J,0:/Integrated Flight Computer/aircraft/cf1_j_cfg.ks (inferred preloaded)
35.66,TAKEOFF,TO_CLIMB,112.39,80,-32.39,48.48,46.18,10.9,6.43,1.04,89.97,0.675,0.78,0,0,0,0,0,0,0,0,0,0,0,0,0,0,90.4,8,0,1,5.54,0,0,8,90.4,-0.684,-0.007,-0.7294,8,90.4,0,0,0,0,0,0,3,0,0,0,69,0,0,0,0,0,0,,0,NONE,0,0,0,0,0,0,0,0,0,0,0,46.18,0,0,0,0,0,0,0,0,0,90.4,1,0,-0.425,0,0,3,0,0,0,10,4.424,0,0,1,1,0,0,VALID,0,0,0,0,0,1,0,0,0,0,0,0,0,0,0,0,0,0,0,0,330.97,428.66,2,0,0.08,0.08,448,14.29,0.08,0.06,35.48,FLYING,CF1-J,0:/Integrated Flight Computer/aircraft/cf1_j_cfg.ks (inferred preloaded)
35.94,TAKEOFF,TO_CLIMB,113.43,80,-33.43,51.59,49.28,11.2,6.43,0.94,89.99,0.658,0.78,0,0,0,0,0,0,0,0,0,0,0,0,0,0,90.4,8,0,1,5.64,0,0,8,90.4,-0.684,-0.007,-0.7294,8,90.4,0,0,0,0,0,0,3,0,0,0,69,0,0,0,0,0,0,,0,NONE,0,0,0,0,0,0,0,0,0,0,0,49.28,0,0,0,0,0,0,0,0,0,90.4,1,0,-0.41,0,0,3,0,0,0,10,4.424,0,0,1,1,0,0,VALID,0,0,0,0,0,1,0,0,0,0,0,0,0,0,0,0,0,0,0,0,330.35,427.79,2,0,0.08,0.08,452,14.29,0.08,0.06,35.76,FLYING,CF1-J,0:/Integrated Flight Computer/aircraft/cf1_j_cfg.ks (inferred preloaded)
36.22,TAKEOFF,TO_CLIMB,114.47,80,-34.47,54.75,52.45,11.49,6.42,0.83,90,0.641,0.78,0,0,0,0,0,0,0,0,0,0,0,0,0,0,90.4,8,0,1,5.73,0,0,8,90.4,-0.684,-0.007,-0.7295,8,90.4,0,0,0,0,0,0,3,0,0,0,69,0,0,0,0,0,0,,0,NONE,0,0,0,0,0,0,0,0,0,0,0,52.45,0,0,0,0,0,0,0,0,0,90.4,1,0,-0.396,0,0,3,0,0,0,10,4.424,0,0,1,1,0,0,VALID,0,0,0,0,0,1,0,0,0,0,0,0,0,0,0,0,0,0,0,0,329.73,426.91,2,0,0.08,0.08,456,14.29,0.08,0.06,36.04,FLYING,CF1-J,0:/Integrated Flight Computer/aircraft/cf1_j_cfg.ks (inferred preloaded)
36.5,TAKEOFF,TO_CLIMB,115.5,80,-35.5,58,55.71,11.78,6.41,0.74,90.02,0.623,0.78,0,0,0,0,0,0,0,0,0,0,0,0,0,0,90.4,8,0,1,5.82,0,0,8,90.4,-0.6839,-0.007,-0.7295,8,90.4,0,0,0,0,0,0,3,0,0,0,69,0,0,0,0,0,0,,0,NONE,0,0,0,0,0,0,0,0,0,0,0,55.71,0,0,0,0,0,0,0,0,0,90.4,1,0,-0.382,0,0,3,0,0,0,10,4.424,0,0,1,1,0,0,VALID,0,0,0,0,0,1,0,0,0,0,0,0,0,0,0,0,0,0,0,0,329.11,426.04,2,0,0.08,0.08,460,14.29,0.08,0.06,36.32,FLYING,CF1-J,0:/Integrated Flight Computer/aircraft/cf1_j_cfg.ks (inferred preloaded)
36.78,TAKEOFF,TO_CLIMB,116.52,80,-36.52,61.32,59.06,12.07,6.4,0.64,90.03,0.606,0.78,0,0,0,0,0,0,0,0,0,0,0,0,0,0,90.4,8,0,1,5.91,0,0,8,90.4,-0.6839,-0.007,-0.7296,8,90.4,0,0,0,0,0,0,3,0,0,0,69,0,0,0,0,0,0,,0,NONE,0,0,0,0,0,0,0,0,0,0,0,59.06,0,0,0,0,0,0,0,0,0,90.4,1,0,-0.368,0,0,3,0,0,0,10,4.424,0,0,1,1,0,0,VALID,0,0,0,0,0,1,0,0,0,0,0,0,0,0,0,0,0,0,0,0,328.49,425.17,2,0,0.08,0.08,464,14.29,0.08,0.06,36.6,FLYING,CF1-J,0:/Integrated Flight Computer/aircraft/cf1_j_cfg.ks (inferred preloaded)
37.06,TAKEOFF,TO_CLIMB,117.54,80,-37.54,64.72,62.48,12.35,6.39,0.55,90.05,0.589,0.78,0,0,0,0,0,0,0,0,0,0,0,0,0,0,90.4,8,0,1,6,0,0,8,90.4,-0.6838,-0.007,-0.7296,8,90.4,0,0,0,0,0,0,3,0,0,0,69,0,0,0,0,0,0,,0,NONE,0,0,0,0,0,0,0,0,0,0,0,62.48,0,0,0,0,0,0,0,0,0,90.4,1,0,-0.355,0,0,3,0,0,0,10,4.424,0,0,1,1,0,0,VALID,0,0,0,0,0,1,0,0,0,0,0,0,0,0,0,0,0,0,0,0,327.88,424.3,2,0,0.08,0.08,468,14.29,0.08,0.06,36.88,FLYING,CF1-J,0:/Integrated Flight Computer/aircraft/cf1_j_cfg.ks (inferred preloaded)
37.34,TAKEOFF,TO_CLIMB,118.54,80,-38.54,68.2,65.97,12.63,6.39,0.46,90.06,0.571,0.78,0,0,0,0,0,0,0,0,0,0,0,0,0,0,90.4,8,0,1,6.08,0,0,8,90.4,-0.6838,-0.007,-0.7296,8,90.4,0,0,0,0,0,0,3,0,0,0,69,0,0,0,0,0,0,,0,NONE,0,0,0,0,0,0,0,0,0,0,0,65.97,0,0,0,0,0,0,0,0,0,90.4,1,0,-0.342,0,0,3,0,0,0,10,4.424,0,0,1,1,0,0,VALID,0,0,0,0,0,1,0,0,0,0,0,0,0,0,0,0,0,0,0,0,327.26,423.44,2,0,0.08,0.08,472,14.29,0.08,0.06,37.16,FLYING,CF1-J,0:/Integrated Flight Computer/aircraft/cf1_j_cfg.ks (inferred preloaded)
37.62,TAKEOFF,TO_CLIMB,119.54,80,-39.54,71.75,69.55,12.9,6.38,0.37,90.07,0.554,0.78,0,0,0,0,0,0,0,0,0,0,0,0,0,0,90.4,8,0,1,6.16,0,0,8,90.4,-0.6838,-0.007,-0.7297,8,90.4,0,0,0,0,0,0,3,0,0,0,69,0,0,0,0,0,0,,0,NONE,0,0,0,0,0,0,0,0,0,0,0,69.55,0,0,0,0,0,0,0,0,0,90.4,1,0,-0.33,0,0,3,0,0,0,10,4.424,0,0,1,1,0,0,VALID,0,0,0,0,0,1,0,0,0,0,0,0,0,0,0,0,0,0,0,0,326.65,422.58,2,0,0.08,0.08,476,14.29,0.08,0.06,37.44,FLYING,CF1-J,0:/Integrated Flight Computer/aircraft/cf1_j_cfg.ks (inferred preloaded)
