t_s,phase,subphase,ias_ms,vapp_ms,spd_err_ms,agl_m,vs_ms,pitch_deg,aoa_deg,hdg_deg,bank_deg,thr_cmd,thr_cur,thr_intg,at_gain,at_tau_s,at_a_up,at_a_dn,at_kp_thr,at_ki_spd,at_thr_slew,aa_hdg_cmd_deg,aa_fpa_cmd_deg,aa_fbw,aa_dir,actual_fpa_deg,ftf_hdg_err_deg,ftf_fix_idx,kos_steer_pit_deg,kos_steer_hdg_deg,aa_dir_vx,aa_dir_vy,aa_dir_vz,aa_dir_pitch_deg,aa_dir_hdg_deg,ils_loc_m,ils_gs_m,ils_dist_km,loc_corr_deg,gs_corr_deg,gs_latched,active_gs_ang_deg,ils_intercept_alt_m,d_gs_ms,fpa_preclamped_deg,gs_nom_alt_m,flare_fpa_cmd,flare_tgt_vs,flare_frac,steer_hdg_deg,steer_blend,ro_loc_corr_deg,ro_hdg_err_deg,ro_yaw_tgt,ro_yaw_scale,ro_yaw_gate,yaw_cmd,roll_cmd,pitch_cmd,ro_pitch_tgt_deg,ro_pitch_err_deg,ro_pitch_ff,ro_roll_assist,flaps_cur,flaps_tgt,asc_j_ab,asc_j_rk,asc_validity,asc_q_pa,asc_q_raw_pa,asc_mach,asc_apo_m,asc_drag_n,asc_w_prop,asc_edot_aero,asc_edot_orb,asc_pitch_bias,asc_blend,asc_spooling,asc_ab_thr_ratio,asc_ab_t_now,asc_ab_t_avail,asc_ab_ign_on,asc_ab_flameouts,asc_rk_t_now,asc_rk_t_avail,asc_rk_ign_on,asc_rk_flameouts,ship_thrust,ship_avail_thrust,ship_ign_on,ship_flameouts,ifc_raw_dt_s,ifc_dt_s,ifc_loop_n,ifc_hz_est,ifc_raw_dt_max_s,ifc_raw_dt_min_s,phase_el_s,status,craft_name,cfg_file
0.12,TAKEOFF,TO_PREFLIGHT,0.21,80,79.79,3.61,0.02,-0.24,-6.82,90.11,0.092,0.04,0,0,0,0,0,0,0,0,0,90.4,0,1,0,1.47,0,0,0,90,0,0,0,0,0,0,0,0,0,0,0,3,0,0,0,69,0,0,0,90.4,1,0,-0.289,0,0,1,0,0,0,0,0,0,0,0,1,0,0,VALID,0,0,0,0,0,1,0,0,0,0,0,0,0,0,0,0,0,0,0,0,0,518.07,2,0,0.1,0.1,1,3.45,0.1,0.02,0.02,PRELAUNCH,CF1-H,0:/Integrated Flight Computer/aircraft/cf1_h_cfg.ks (inferred preloaded)
0.38,TAKEOFF,TO_PREFLIGHT,0.21,80,79.79,3.61,-0.04,-0.22,9.89,90.12,0.108,0.112,0,0,0,0,0,0,0,0,0,90.4,0,1,0,-2.02,0,0,0,90,0,0,0,0,0,0,0,0,0,0,0,3,0,0,0,69,0,0,0,90.4,1,0,-0.286,0,0,1,0,0,0,0,0,0,0,1,1,0,0,VALID,0,0,0,0,0,1,0,0,0,0,0,0,0,0,0,0,0,0,0,0,0.35,518.07,2,0,0.04,0.04,6,19.23,0.1,0.04,0.28,PRELAUNCH,CF1-H,0:/Integrated Flight Computer/aircraft/cf1_h_cfg.ks (inferred preloaded)
0.64,TAKEOFF,TO_PREFLIGHT,0.08,80,79.92,3.61,0.02,-0.22,-51.66,90.12,0.117,0.216,0,0,0,0,0,0,0,0,0,90.4,0,1,0,0.96,0,0,0,90,0,0,0,0,0,0,0,0,0,0,0,3,0,0,0,69,0,0,0,90.4,1,0,-0.286,0,0,1,0,0,0,0,0,0,0,1,1,0,0,VALID,0,0,0,0,0,1,0,0,0,0,0,0,0,0,0,0,0,0,0,0,1.44,518.1,2,0,0.04,0.04,11,19.23,0.08,0.04,0.54,PRELAUNCH,CF1-H,0:/Integrated Flight Computer/aircraft/cf1_h_cfg.ks (inferred preloaded)
0.9,TAKEOFF,TO_PREFLIGHT,0,80,80,3.61,-0.02,-0.21,70.8,90.13,0.113,0.32,0,0,0,0,0,0,0,0,0,90.4,0,1,0,-0.87,0,0,0,90,0,0,0,0,0,0,0,0,0,0,0,3,0,0,0,69,0,0,0,90.4,1,0,-0.286,0,0,1,0,0,0,0,0,0,0,1,1,0,0,VALID,0,0,0,0,0,1,0,0,0,0,0,0,0,0,0,0,0,0,0,0,3.35,518.12,2,0,0.04,0.04,16,19.23,0.08,0.04,0.8,PRELAUNCH,CF1-H,0:/Integrated Flight Computer/aircraft/cf1_h_cfg.ks (inferred preloaded)
1.16,TAKEOFF,TO_PREFLIGHT,0.02,80,79.98,3.62,-0.01,-0.17,78.11,90.13,0.1,0.424,0,0,0,0,0,0,0,0,0,90.4,0,1,0,-0.8,0,0,0,90,0,0,0,0,0,0,0,0,0,0,0,3,0,0,0,69,0,0,0,90.4,1,0,-0.286,0,0,1,0,0,0,0,0,0,0,1,1,0,0,VALID,0,0,0,0,0,1,0,0,0,0,0,0,0,0,0,0,0,0,0,0,6.07,518.11,2,0,0.04,0.04,21,19.23,0.08,0.04,1.06,PRELAUNCH,CF1-H,0:/Integrated Flight Computer/aircraft/cf1_h_cfg.ks (inferred preloaded)
1.42,TAKEOFF,TO_PREFLIGHT,0.01,80,79.99,3.62,0,-0.17,-9.57,90.13,0.092,0.528,0,0,0,0,0,0,0,0,0,90.4,0,1,0,0.23,0,0,0,90,0,0,0,0,0,0,0,0,0,0,0,3,0,0,0,69,0,0,0,90.4,1,0,-0.286,0,0,1,0,0,0,0,0,0,0,1,1,0,0,VALID,0,0,0,0,0,1,0,0,0,0,0,0,0,0,0,0,0,0,0,0,9.57,518.12,2,0,0.04,0.04,26,19.23,0.08,0.04,1.32,PRELAUNCH,CF1-H,0:/Integrated Flight Computer/aircraft/cf1_h_cfg.ks (inferred preloaded)
1.68,TAKEOFF,TO_PREFLIGHT,0.01,80,79.99,3.61,0,-0.18,9.52,90.13,0.096,0.632,0,0,0,0,0,0,0,0,0,90.4,0,1,0,-0.17,0,0,0,90,0,0,0,0,0,0,0,0,0,0,0,3,0,0,0,69,0,0,0,90.4,1,0,-0.286,0,0,1,0,0,0,0,0,0,0,1,1,0,0,VALID,0,0,0,0,0,1,0,0,0,0,0,0,0,0,0,0,0,0,0,0,13.86,518.12,2,0,0.04,0.04,31,19.23,0.08,0.04,1.58,PRELAUNCH,CF1-H,0:/Integrated Flight Computer/aircraft/cf1_h_cfg.ks (inferred preloaded)
1.94,TAKEOFF,TO_PREFLIGHT,0.02,80,79.98,3.61,0,-0.2,-13.22,90.13,0.107,0.736,0,0,0,0,0,0,0,0,0,90.4,0,1,0,0.27,0,0,0,90,0,0,0,0,0,0,0,0,0,0,0,3,0,0,0,69,0,0,0,90.4,1,0,-0.286,0,0,1,0,0,0,0,0,0,0,1,1,0,0,VALID,0,0,0,0,0,1,0,0,0,0,0,0,0,0,0,0,0,0,0,0,18.92,518.11,2,0,0.04,0.04,36,19.23,0.08,0.04,1.84,PRELAUNCH,CF1-H,0:/Integrated Flight Computer/aircraft/cf1_h_cfg.ks (inferred preloaded)
2.26,TAKEOFF,TO_PREFLIGHT,0.02,80,79.98,3.61,0,-0.2,3.47,90.13,0.114,0.864,0,0,0,0,0,0,0,0,0,90.4,0,1,0,-0.05,0,0,0,90,0,0,0,0,0,0,0,0,0,0,0,3,0,0,0,69,0,0,0,90.4,1,0,-0.286,0,0,1,0,0,0,0,0,0,0,1,1,0,0,VALID,0,0,0,0,0,1,0,0,0,0,0,0,0,0,0,0,0,0,0,0,26.18,518.11,2,0,0.08,0.08,41,15.63,0.08,0.04,2.16,PRELAUNCH,CF1-H,0:/Integrated Flight Computer/aircraft/cf1_h_cfg.ks (inferred preloaded)
2.54,TAKEOFF,TO_PREFLIGHT,0.02,80,79.98,3.61,0,-0.2,-0.86,90.14,0.11,0.976,0,0,0,0,0,0,0,0,0,90.4,0,1,0,0.01,0,0,0,90,0,0,0,0,0,0,0,0,0,0,0,3,0,0,0,69,0,0,0,90.4,1,0,-0.286,0,0,1,0,0,0,0,0,0,0,1,1,0,0,VALID,0,0,0,0,0,1,0,0,0,0,0,0,0,0,0,0,0,0,0,0,33.42,518.11,2,0,0.08,0.08,45,14.29,0.08,0.06,2.44,PRELAUNCH,CF1-H,0:/Integrated Flight Computer/aircraft/cf1_h_cfg.ks (inferred preloaded)
2.82,TAKEOFF,TO_PREFLIGHT,0.03,80,79.97,3.61,0,-0.22,-2.01,90.14,0.102,1,0,0,0,0,0,0,0,0,0,90.4,0,1,0,0.07,0,0,0,90,0,0,0,0,0,0,0,0,0,0,0,3,0,0,0,69,0,0,0,90.4,1,0,-0.286,0,0,1,0,0,0,0,0,0,0,1,1,0,0,VALID,0,0,0,0,0,1,0,0,0,0,0,0,0,0,0,0,0,0,0,0,41.39,518.11,2,0,0.08,0.08,49,14.29,0.08,0.06,2.72,PRELAUNCH,CF1-H,0:/Integrated Flight Computer/aircraft/cf1_h_cfg.ks (inferred preloaded)
3.1,TAKEOFF,TO_PREFLIGHT,0.04,80,79.96,3.61,0,-0.22,-0.22,90.14,0.098,1,0,0,0,0,0,0,0,0,0,90.4,0,1,0,0,0,0,0,90,0,0,0,0,0,0,0,0,0,0,0,3,0,0,0,69,0,0,0,90.4,1,0,-0.286,0,0,1,0,0,0,0,0,0,0,1,1,0,0,VALID,0,0,0,0,0,1,0,0,0,0,0,0,0,0,0,0,0,0,0,0,49.34,518.11,2,0,0.08,0.08,53,14.29,0.08,0.06,3,PRELAUNCH,CF1-H,0:/Integrated Flight Computer/aircraft/cf1_h_cfg.ks (inferred preloaded)
3.38,TAKEOFF,TO_GROUND_ROLL,0.05,80,79.95,3.61,0,-0.21,0.31,90.14,0.101,1,0,0,0,0,0,0,0,0,0,90.4,0,1,0,-0.12,0,0,0,90,0,0,0,0,0,0,0,0,0,0,0,3,0,0,0,69,0,0,0,90.4,1,0,-0.256,0,0,3,0,0,0,0,0,0,0,1,1,0,0,VALID,0,0,0,0,0,1,0,0,0,0,0,0,0,0,0,0,0,0,0,0,57.15,518.1,2,0,0.08,0.08,57,14.29,0.08,0.06,3.3,PRELAUNCH,CF1-H,0:/Integrated Flight Computer/aircraft/cf1_h_cfg.ks (inferred preloaded)
3.66,TAKEOFF,TO_GROUND_ROLL,0.27,80,79.73,3.62,-0.01,-0.11,1.3,90.15,0.107,1,0,0,0,0,0,0,0,0,0,90.4,0,1,0,-0.43,0,0,0,90,0,0,0,0,0,0,0,0,0,0,0,3,0,0,0,69,0,0,0,90.4,1,0,-0.248,0,0,3,0,0,0,0,0,0,0,1,1,0,0,VALID,0,0,0,0,0,1,0,0,0,0,0,0,0,0,0,0,0,0,0,0,64.83,518.05,2,0,0.08,0.08,61,14.29,0.08,0.06,3.58,PRELAUNCH,CF1-H,0:/Integrated Flight Computer/aircraft/cf1_h_cfg.ks (inferred preloaded)
3.94,TAKEOFF,TO_GROUND_ROLL,0.61,80,79.39,3.62,0,-0.16,-0.39,90.16,0.11,1,0,0,0,0,0,0,0,0,0,90.39,0,1,0,0.11,0,0,0,90,0,0,0,0,0,0,0,0,0,0,0,3,0,0,0,69,0,0,0,90.39,1,0,-0.237,0,0,3,0,0,0,0,0,0,0,1,1,0,0,VALID,0,0,0,0,0,1,0,0,0,0,0,0,0,0,0,0,0,0,0,0,72.37,517.97,2,0,0.08,0.08,65,14.29,0.08,0.06,3.86,PRELAUNCH,CF1-H,0:/Integrated Flight Computer/aircraft/cf1_h_cfg.ks (inferred preloaded)
4.22,TAKEOFF,TO_GROUND_ROLL,0.98,80,79.02,3.62,-0.01,-0.15,0.4,90.17,0.106,1,0,0,0,0,0,0,0,0,0,90.39,0,1,0,-0.64,0,0,0,90,0,0,0,0,0,0,0,0,0,0,0,3,0,0,0,69,0,0,0,90.39,1,0,-0.224,0,0,3,0,0,0,0,0,0,0,1,1,0,0,VALID,0,0,0,0,0,1,0,0,0,0,0,0,0,0,0,0,0,0,0,0,79.79,517.88,2,0,0.08,0.08,69,14.29,0.08,0.06,4.14,PRELAUNCH,CF1-H,0:/Integrated Flight Computer/aircraft/cf1_h_cfg.ks (inferred preloaded)
4.5,TAKEOFF,TO_GROUND_ROLL,1.39,80,78.61,3.62,-0.01,-0.13,0.11,90.18,0.102,1,0,0,0,0,0,0,0,0,0,90.39,0,1,0,-0.27,0,0,0,90,0,0,0,0,0,0,0,0,0,0,0,3,0,0,0,69,0,0,0,90.39,1,0,-0.209,0,0,3,0,0,0,0,0,0,0,1,1,0,0,VALID,0,0,0,0,0,1,0,0,0,0,0,0,0,0,0,0,0,0,0,0,87.07,517.77,2,0,0.08,0.08,73,14.29,0.08,0.06,4.42,PRELAUNCH,CF1-H,0:/Integrated Flight Computer/aircraft/cf1_h_cfg.ks (inferred preloaded)
4.78,TAKEOFF,TO_GROUND_ROLL,1.83,80,78.17,3.62,-0.01,-0.15,0.15,90.2,0.1,1,0,0,0,0,0,0,0,0,0,90.39,0,1,0,-0.35,0,0,0,90,0,0,0,0,0,0,0,0,0,0,0,3,0,0,0,69,0,0,0,90.39,1,0,-0.191,0,0,3,0,0,0,0,0,0,0,1,1,0,0,VALID,0,0,0,0,0,1,0,0,0,0,0,0,0,0,0,0,0,0,0,0,94.23,517.66,2,0,0.08,0.08,77,14.29,0.08,0.06,4.7,PRELAUNCH,CF1-H,0:/Integrated Flight Computer/aircraft/cf1_h_cfg.ks (inferred preloaded)
5.06,TAKEOFF,TO_GROUND_ROLL,2.31,80,77.69,3.62,-0.02,-0.13,0.21,90.21,0.103,1,0,0,0,0,0,0,0,0,0,90.39,0,1,0,-0.37,0,0,0,90,0,0,0,0,0,0,0,0,0,0,0,3,0,0,0,69,0,0,0,90.39,1,0,-0.172,0.0014,0.25,1,0.0014,0,0,0,0,0,0,1,1,0,0,VALID,0,0,0,0,0,1,0,0,0,0,0,0,0,0,0,0,0,0,0,0,101.27,517.54,2,0,0.08,0.08,81,14.29,0.08,0.06,4.98,LANDED,CF1-H,0:/Integrated Flight Computer/aircraft/cf1_h_cfg.ks (inferred preloaded)
5.34,TAKEOFF,TO_GROUND_ROLL,2.82,80,77.18,3.62,-0.02,-0.13,0.15,90.23,0.105,1,0,0,0,0,0,0,0,0,0,90.39,0,1,0,-0.32,0,0,0,90,0,0,0,0,0,0,0,0,0,0,0,3,0,0,0,69,0,0,0,90.39,1,0,-0.152,0.0012,0.25,1,0.0012,0,0,0,0,0,0,1,1,0,0,VALID,0,0,0,0,0,1,0,0,0,0,0,0,0,0,0,0,0,0,0,0,108.18,517.4,2,0,0.08,0.08,85,14.29,0.08,0.06,5.26,LANDED,CF1-H,0:/Integrated Flight Computer/aircraft/cf1_h_cfg.ks (inferred preloaded)
5.62,TAKEOFF,TO_GROUND_ROLL,3.36,80,76.64,3.62,-0.02,-0.13,0.19,90.25,0.106,1,0,0,0,0,0,0,0,0,0,90.39,0,1,0,-0.36,0,0,0,90,0,0,0,0,0,0,0,0,0,0,0,3,0,0,0,69,0,0,0,90.39,1,0,-0.131,0.001,0.25,1,0.001,0,0,0,0,0,0,1,1,0,0,VALID,0,0,0,0,0,1,0,0,0,0,0,0,0,0,0,0,0,0,0,0,114.97,517.25,2,0,0.08,0.08,89,14.29,0.08,0.06,5.54,LANDED,CF1-H,0:/Integrated Flight Computer/aircraft/cf1_h_cfg.ks (inferred preloaded)
5.9,TAKEOFF,TO_GROUND_ROLL,3.94,80,76.06,3.62,-0.02,-0.13,0.18,90.27,0.103,1,0,0,0,0,0,0,0,0,0,90.38,0,1,0,-0.34,0,0,0,90,0,0,0,0,0,0,0,0,0,0,0,3,0,0,0,69,0,0,0,90.38,1,0,-0.11,0.0008,0.25,1,0.0008,0,0,0,0,0,0,1,1,0,0,VALID,0,0,0,0,0,1,0,0,0,0,0,0,0,0,0,0,0,0,0,0,121.64,517.1,2,0,0.08,0.08,93,14.29,0.08,0.06,5.82,LANDED,CF1-H,0:/Integrated Flight Computer/aircraft/cf1_h_cfg.ks (inferred preloaded)
6.18,TAKEOFF,TO_GROUND_ROLL,4.55,80,75.45,3.62,-0.03,-0.13,0.18,90.3,0.1,1,0,0,0,0,0,0,0,0,0,90.38,0,1,0,-0.33,0,0,0,90,0,0,0,0,0,0,0,0,0,0,0,3,0,0,0,69,0,0,0,90.38,1,0,-0.088,0.0007,0.25,1,0.0007,0,0,0,0,0,0,1,1,0,0,VALID,0,0,0,0,0,1,0,0,0,0,0,0,0,0,0,0,0,0,0,0,128.19,516.92,2,0,0.08,0.08,97,14.29,0.08,0.06,6.1,LANDED,CF1-H,0:/Integrated Flight Computer/aircraft/cf1_h_cfg.ks (inferred preloaded)
6.46,TAKEOFF,TO_GROUND_ROLL,5.2,80,74.8,3.62,-0.03,-0.12,0.18,90.32,0.1,1,0,0,0,0,0,0,0,0,0,90.38,0,1,0,-0.34,0,0,0,90,0,0,0,0,0,0,0,0,0,0,0,3,0,0,0,69,0,0,0,90.38,1,0,-0.067,0.0005,0.25,1,0.0005,0,0,0,0,0,0,1,1,0,0,VALID,0,0,0,0,0,1,0,0,0,0,0,0,0,0,0,0,0,0,0,0,134.62,516.74,2,0,0.08,0.08,101,14.29,0.08,0.06,6.38,LANDED,CF1-H,0:/Integrated Flight Computer/aircraft/cf1_h_cfg.ks (inferred preloaded)
6.74,TAKEOFF,TO_GROUND_ROLL,5.87,80,74.13,3.62,-0.03,-0.12,0.18,90.34,0.101,1,0,0,0,0,0,0,0,0,0,90.39,0,1,0,-0.33,0,0,0,90,0,0,0,0,0,0,0,0,-0.001,0,0,3,0,0,0,69,0,0,0,90.39,1,-0.001,-0.047,0.0003,0.25,1,0.0003,0,0,0,0,0,0,1,1,0,0,VALID,0,0,0,0,0,1,0,0,0,0,0,0,0,0,0,0,0,0,0,0,140.93,516.54,2,0,0.08,0.08,105,14.29,0.08,0.06,6.66,LANDED,CF1-H,0:/Integrated Flight Computer/aircraft/cf1_h_cfg.ks (inferred preloaded)
7.02,TAKEOFF,TO_GROUND_ROLL,6.58,80,73.42,3.62,-0.04,-0.12,0.19,90.36,0.102,1,0,0,0,0,0,0,0,0,0,90.39,0,1,0,-0.34,0,0,0,90,0,0,0,0,0,0,0,0,-0.001,0,0,3,0,0,0,69,0,0,0,90.39,1,-0.001,-0.029,0.0002,0.25,1,0.0002,0,0,0,0,0,0,1,1,0,0,VALID,0,0,0,0,0,1,0,0,0,0,0,0,0,0,0,0,0,0,0,0,147.14,516.33,2,0,0.08,0.08,109,14.29,0.08,0.06,6.94,LANDED,CF1-H,0:/Integrated Flight Computer/aircraft/cf1_h_cfg.ks (inferred preloaded)
7.3,TAKEOFF,TO_GROUND_ROLL,7.31,80,72.69,3.62,-0.04,-0.12,0.19,90.37,0.102,1,0,0,0,0,0,0,0,0,0,90.39,0,1,0,-0.33,0,0,0,90,0,0,0,0,0,0,0,0,-0.001,0,0,3,0,0,0,69,0,0,0,90.39,1,-0.001,-0.013,0.0001,0.25,1,0.0001,0,0,0,0,0,0,1,1,0,0,VALID,0,0,0,0,0,1,0,0,0,0,0,0,0,0,0,0,0,0,0,0,153.22,516.1,2,0,0.08,0.08,113,14.29,0.08,0.06,7.22,LANDED,CF1-H,0:/Integrated Flight Computer/aircraft/cf1_h_cfg.ks (inferred preloaded)
7.58,TAKEOFF,TO_GROUND_ROLL,8.07,80,71.93,3.62,-0.05,-0.12,0.19,90.39,0.101,1,0,0,0,0,0,0,0,0,0,90.39,0,1,0,-0.33,0,0,0,90,0,0,0,0,0,0,0,0,-0.001,0,0,3,0,0,0,69,0,0,0,90.39,1,-0.001,0.001,0,0.25,1,0,0,0,0,0,0,0,1,1,0,0,VALID,0,0,0,0,0,1,0,0,0,0,0,0,0,0,0,0,0,0,0,0,159.2,515.86,2,0,0.08,0.08,117,14.29,0.08,0.06,7.5,LANDED,CF1-H,0:/Integrated Flight Computer/aircraft/cf1_h_cfg.ks (inferred preloaded)
7.86,TAKEOFF,TO_GROUND_ROLL,8.87,80,71.13,3.62,-0.05,-0.11,0.19,90.4,0.1,1,0,0,0,0,0,0,0,0,0,90.39,0,1,0,-0.33,0,0,0,90,0,0,0,0,0,0,0,0,-0.002,0,0,3,0,0,0,69,0,0,0,90.39,1,-0.002,0.014,-0.0001,0.25,1,-0.0001,0,0,0,0,0,0,1,1,0,0,VALID,0,0,0,0,0,1,0,0,0,0,0,0,0,0,0,0,0,0,0,0,165.06,515.6,2,0,0.08,0.08,121,14.29,0.08,0.06,7.78,LANDED,CF1-H,0:/Integrated Flight Computer/aircraft/cf1_h_cfg.ks (inferred preloaded)
8.14,TAKEOFF,TO_GROUND_ROLL,9.69,80,70.31,3.62,-0.06,-0.11,0.19,90.41,0.101,1,0,0,0,0,0,0,0,0,0,90.4,0,1,0,-0.33,0,0,0,90,0,0,0,0,0,0,0,0,-0.002,0,0,3,0,0,0,69,0,0,0,90.4,1,-0.002,0.012,-0.0001,0.25,1,-0.0001,0,0,0,0,0,0,1,1,0,0,VALID,0,0,0,0,0,1,0,0,0,0,0,0,0,0,0,0,0,0,0,0,170.82,515.33,2,0,0.08,0.08,125,14.29,0.08,0.06,8.06,LANDED,CF1-H,0:/Integrated Flight Computer/aircraft/cf1_h_cfg.ks (inferred preloaded)
8.42,TAKEOFF,TO_GROUND_ROLL,10.54,80,69.46,3.62,-0.06,-0.11,0.2,90.41,0.102,1,0,0,0,0,0,0,0,0,0,90.39,0,1,0,-0.33,0,0,0,90,0,0,0,0,0,0,0,0,-0.002,0,0,3,0,0,0,69,0,0,0,90.39,1,-0.002,0.018,-0.0001,0.25,1,-0.0001,0,0,0,0,0,0,1,1,0,0,VALID,0,0,0,0,0,1,0,0,0,0,0,0,0,0,0,0,0,0,0,0,176.46,515.05,2,0,0.08,0.08,129,14.29,0.08,0.06,8.34,LANDED,CF1-H,0:/Integrated Flight Computer/aircraft/cf1_h_cfg.ks (inferred preloaded)
8.7,TAKEOFF,TO_GROUND_ROLL,11.42,80,68.58,3.62,-0.07,-0.11,0.2,90.42,0.104,1,0,0,0,0,0,0,0,0,0,90.39,0,1,0,-0.33,0,0,0,90,0,0,0,0,0,0,0,0,-0.003,0,0,3,0,0,0,69,0,0,0,90.39,1,-0.003,0.027,-0.0002,0.25,1,-0.0002,0,0,0,0,0,0,1,1,0,0,VALID,0,0,0,0,0,1,0,0,0,0,0,0,0,0,0,0,0,0,0,0,182,514.74,2,0,0.08,0.08,133,14.29,0.08,0.06,8.62,LANDED,CF1-H,0:/Integrated Flight Computer/aircraft/cf1_h_cfg.ks (inferred preloaded)
8.98,TAKEOFF,TO_GROUND_ROLL,12.32,80,67.68,3.62,-0.07,-0.1,0.2,90.43,0.103,1,0,0,0,0,0,0,0,0,0,90.39,0,1,0,-0.33,0,0,0,90,0,0,0,0,0,0,0,0,-0.003,0,0,3,0,0,0,69,0,0,0,90.39,1,-0.003,0.034,-0.0002,0.25,1,-0.0002,0,0,0,0,0,0,1,1,0,0,VALID,0,0,0,0,0,1,0,0,0,0,0,0,0,0,0,0,0,0,0,0,187.43,514.42,2,0,0.08,0.08,137,14.29,0.08,0.06,8.9,LANDED,CF1-H,0:/Integrated Flight Computer/aircraft/cf1_h_cfg.ks (inferred preloaded)
9.26,TAKEOFF,TO_GROUND_ROLL,13.25,80,66.75,3.62,-0.07,-0.1,0.2,90.43,0.101,1,0,0,0,0,0,0,0,0,0,90.39,0,1,0,-0.32,0,0,0,90,0,0,0,0,0,0,0,0,-0.004,0,0,3,0,0,0,69,0,0,0,90.39,1,-0.004,0.039,-0.0003,0.25,1,-0.0003,0,0,0,0,0,0,1,1,0,0,VALID,0,0,0,0,0,1,0,0,0,0,0,0,0,0,0,0,0,0,0,0,192.75,514.08,2,0,0.08,0.08,141,14.29,0.08,0.06,9.18,LANDED,CF1-H,0:/Integrated Flight Computer/aircraft/cf1_h_cfg.ks (inferred preloaded)
9.54,TAKEOFF,TO_GROUND_ROLL,14.2,80,65.8,3.63,-0.08,-0.1,0.2,90.44,0.1,1,0,0,0,0,0,0,0,0,0,90.39,0,1,0,-0.32,0,0,0,90,0,0,0,0,0,0,0,0,-0.005,0,0,3,0,0,0,69,0,0,0,90.39,1,-0.005,0.043,-0.0003,0.25,1,-0.0003,0,0,0,0,0,0,1,1,0,0,VALID,0,0,0,0,0,1,0,0,0,0,0,0,0,0,0,0,0,0,0,0,197.98,513.73,2,0,0.08,0.08,145,14.29,0.08,0.06,9.46,LANDED,CF1-H,0:/Integrated Flight Computer/aircraft/cf1_h_cfg.ks (inferred preloaded)
9.82,TAKEOFF,TO_GROUND_ROLL,15.18,80,64.82,3.63,-0.09,-0.1,0.21,90.44,0.101,1,0,0,0,0,0,0,0,0,0,90.39,0,1,0,-0.33,0,0,0,90,0,0,0,0,0,0,0,0,-0.005,0,0,3,0,0,0,69,0,0,0,90.39,1,-0.005,0.044,-0.0003,0.25,1,-0.0003,0,0,0,0,0,0,1,1,0,0,VALID,0,0,0,0,0,1,0,0,0,0,0,0,0,0,0,0,0,0,0,0,203.09,513.35,2,0,0.08,0.08,149,14.29,0.08,0.06,9.74,LANDED,CF1-H,0:/Integrated Flight Computer/aircraft/cf1_h_cfg.ks (inferred preloaded)
10.1,TAKEOFF,TO_GROUND_ROLL,16.19,80,63.81,3.63,-0.09,-0.1,0.21,90.44,0.103,1,0,0,0,0,0,0,0,0,0,90.39,0,1,0,-0.32,0,0,0,90,0,0,0,0,0,0,0,0,-0.006,0,0,3,0,0,0,69,0,0,0,90.39,1,-0.006,0.045,-0.0003,0.25,1,-0.0003,0,0,0,0,0,0,1,1,0,0,VALID,0,0,0,0,0,1,0,0,0,0,0,0,0,0,0,0,0,0,0,0,208.11,512.96,2,0,0.08,0.08,153,14.29,0.08,0.06,10.02,LANDED,CF1-H,0:/Integrated Flight Computer/aircraft/cf1_h_cfg.ks (inferred preloaded)
10.38,TAKEOFF,TO_GROUND_ROLL,17.22,80,62.78,3.63,-0.1,-0.09,0.21,90.44,0.105,1,0,0,0,0,0,0,0,0,0,90.39,0,1,0,-0.32,0,0,0.01,90,0,0,0,0,0,0,0,0,-0.007,0,0,3,0,0,0,69,0,0,0,90.39,1,-0.007,0.044,-0.0003,0.25,1,-0.0003,0,0,0,0,0,0,1,1,0,0,VALID,0,0,0,0,0,1,0,0,0,0,0,0,0,0,0,0,0,0,0,0,213.02,512.55,2,0,0.08,0.08,157,14.29,0.08,0.06,10.3,LANDED,CF1-H,0:/Integrated Flight Computer/aircraft/cf1_h_cfg.ks (inferred preloaded)
10.66,TAKEOFF,TO_GROUND_ROLL,18.27,80,61.73,3.63,-0.1,-0.09,0.21,90.44,0.104,1,0,0,0,0,0,0,0,0,0,90.39,0,1,0,-0.32,0,0,0.01,90,0,0,0,0,0,0,0,0,-0.008,0,0,3,0,0,0,69,0,0,0,90.39,1,-0.008,0.043,-0.0003,0.25,1,-0.0003,0,0,0,0,0,0,1,1,0,0,VALID,0,0,0,0,0,1,0,0,0,0,0,0,0,0,0,0,0,0,0,0,217.83,512.12,2,0,0.08,0.08,161,14.29,0.08,0.06,10.58,LANDED,CF1-H,0:/Integrated Flight Computer/aircraft/cf1_h_cfg.ks (inferred preloaded)
10.94,TAKEOFF,TO_GROUND_ROLL,19.34,80,60.66,3.63,-0.11,-0.09,0.21,90.43,0.103,1,0,0,0,0,0,0,0,0,0,90.39,0,1,0,-0.32,0,0,0.01,90,0,0,0,0,0,0,0,0,-0.008,0,0,3,0,0,0,69,0,0,0,90.39,1,-0.008,0.042,-0.0003,0.25,1,-0.0003,0,0,0,0,0,0,1,1,0,0,VALID,0,0,0,0,0,1,0,0,0,0,0,0,0,0,0,0,0,0,0,0,222.54,511.68,2,0,0.08,0.08,165,14.29,0.08,0.06,10.86,LANDED,CF1-H,0:/Integrated Flight Computer/aircraft/cf1_h_cfg.ks (inferred preloaded)
11.22,TAKEOFF,TO_GROUND_ROLL,20.44,80,59.56,3.63,-0.11,-0.09,0.21,90.43,0.103,1,0,0,0,0,0,0,0,0,0,90.39,0,1,0,-0.32,0,0,0.01,90,0,0,0,0,0,0,0,0,-0.009,0,0,3,0,0,0,69,0,0,0,90.39,1,-0.009,0.04,-0.0003,0.255,0,-0.0003,0,0,0,0,0,0,1,1,0,0,VALID,0,0,0,0,0,1,0,0,0,0,0,0,0,0,0,0,0,0,0,0,227.16,511.21,2,0,0.08,0.08,169,14.29,0.08,0.06,11.14,LANDED,CF1-H,0:/Integrated Flight Computer/aircraft/cf1_h_cfg.ks (inferred preloaded)
11.5,TAKEOFF,TO_GROUND_ROLL,21.56,80,58.44,3.63,-0.12,-0.09,0.21,90.43,0.103,1,0,0,0,0,0,0,0,0,0,90.39,0,1,0,-0.32,0,0,0.01,90,0,0,0,0,0,0,0,0,-0.01,0,0,3,0,0,0,69,0,0,0,90.39,1,-0.01,0.039,-0.0003,0.267,0,-0.0003,0,0,0,0,0,0,1,1,0,0,VALID,0,0,0,0,0,1,0,0,0,0,0,0,0,0,0,0,0,0,0,0,231.67,510.72,2,0,0.08,0.08,173,14.29,0.08,0.06,11.42,LANDED,CF1-H,0:/Integrated Flight Computer/aircraft/cf1_h_cfg.ks (inferred preloaded)
11.78,TAKEOFF,TO_GROUND_ROLL,22.7,80,57.3,3.63,-0.13,-0.08,0.21,90.43,0.104,1,0,0,0,0,0,0,0,0,0,90.39,0,1,0,-0.32,0,0,0.01,90,0,0,0,0,0,0,0,0,-0.011,0,0,3,0,0,0,69,0,0,0,90.39,1,-0.011,0.038,-0.0003,0.279,0,-0.0003,0,0,0,0,0,0,1,1,0,0,VALID,0,0,0,0,0,1,0,0,0,0,0,0,0,0,0,0,0,0,0,0,236.09,510.22,2,0,0.08,0.08,177,14.29,0.08,0.06,11.7,LANDED,CF1-H,0:/Integrated Flight Computer/aircraft/cf1_h_cfg.ks (inferred preloaded)
12.06,TAKEOFF,TO_GROUND_ROLL,23.86,80,56.14,3.63,-0.13,-0.08,0.22,90.43,0.105,1,0,0,0,0,0,0,0,0,0,90.39,0,1,0,-0.32,0,0,0.01,90,0,0,0,0,0,0,0,0,-0.012,0,0,3,0,0,0,69,0,0,0,90.39,1,-0.012,0.037,-0.0003,0.291,0,-0.0003,0,0,0,0,0,0,1,1,0,0,VALID,0,0,0,0,0,1,0,0,0,0,0,0,0,0,0,0,0,0,0,0,240.41,509.69,2,0,0.08,0.08,181,14.29,0.08,0.06,11.98,LANDED,CF1-H,0:/Integrated Flight Computer/aircraft/cf1_h_cfg.ks (inferred preloaded)
12.34,TAKEOFF,TO_GROUND_ROLL,25.05,80,54.95,3.63,-0.14,-0.08,0.22,90.42,0.104,1,0,0,0,0,0,0,0,0,0,90.39,0,1,0,-0.32,0,0,0.01,90,0,0,0,0,0,0,0,0,-0.013,0,0,3,0,0,0,69,0,0,0,90.39,1,-0.013,0.037,-0.0003,0.304,0,-0.0003,0,0,0,0,0,0,1,1,0,0,VALID,0,0,0,0,0,1,0,0,0,0,0,0,0,0,0,0,0,0,0,0,244.64,509.14,2,0,0.08,0.08,185,14.29,0.08,0.06,12.26,LANDED,CF1-H,0:/Integrated Flight Computer/aircraft/cf1_h_cfg.ks (inferred preloaded)
12.62,TAKEOFF,TO_GROUND_ROLL,26.25,80,53.75,3.63,-0.14,-0.08,0.22,90.42,0.103,1,0,0,0,0,0,0,0,0,0,90.39,0,1,0,-0.31,0,0,0.01,90,0,0,0,0,0,0,0,0,-0.014,0,0,3,0,0,0,69,0,0,0,90.39,1,-0.014,0.036,-0.0003,0.317,0,-0.0003,0,0,0,0,0,0,1,1,0,0,VALID,0,0,0,0,0,1,0,0,0,0,0,0,0,0,0,0,0,0,0,0,248.77,508.58,2,0,0.08,0.08,189,14.29,0.08,0.06,12.54,LANDED,CF1-H,0:/Integrated Flight Computer/aircraft/cf1_h_cfg.ks (inferred preloaded)
12.9,TAKEOFF,TO_GROUND_ROLL,27.47,80,52.53,3.63,-0.15,-0.08,0.22,90.42,0.103,1,0,0,0,0,0,0,0,0,0,90.39,0,1,0,-0.31,0,0,0.01,90,0,0,0,0,0,0,0,0,-0.015,0,0,3,0,0,0,69,0,0,0,90.39,1,-0.015,0.036,-0.0003,0.33,0,-0.0003,0,0,0,0,0,0,1,1,0,0,VALID,0,0,0,0,0,1,0,0,0,0,0,0,0,0,0,0,0,0,0,0,252.81,507.99,2,0,0.08,0.08,193,14.29,0.08,0.06,12.82,LANDED,CF1-H,0:/Integrated Flight Computer/aircraft/cf1_h_cfg.ks (inferred preloaded)
13.18,TAKEOFF,TO_GROUND_ROLL,28.71,80,51.29,3.63,-0.16,-0.08,0.22,90.42,0.103,1,0,0,0,0,0,0,0,0,0,90.38,0,1,0,-0.31,0,0,0.01,90,0,0,0,0,0,0,0,0,-0.017,0,0,3,0,0,0,69,0,0,0,90.38,1,-0.017,0.036,-0.0003,0.343,0,-0.0003,0,0,0,0,0,0,1,1,0,0,VALID,0,0,0,0,0,1,0,0,0,0,0,0,0,0,0,0,0,0,0,0,256.76,507.38,2,0,0.08,0.08,197,14.29,0.08,0.06,13.1,LANDED,CF1-H,0:/Integrated Flight Computer/aircraft/cf1_h_cfg.ks (inferred preloaded)
13.46,TAKEOFF,TO_GROUND_ROLL,29.97,80,50.03,3.63,-0.16,-0.07,0.22,90.42,0.103,1,0,0,0,0,0,0,0,0,0,90.38,0,1,0,-0.31,0,0,0.01,90,0,0,0,0,0,0,0,0,-0.018,0,0,3,0,0,0,69,0,0,0,90.38,1,-0.018,0.036,-0.0003,0.357,0,-0.0003,0,0,0,0,0,0,1,1,0,0,VALID,0,0,0,0,0,1,0,0,0,0,0,0,0,0,0,0,0,0,0,0,260.62,506.75,2,0,0.08,0.08,201,14.29,0.08,0.06,13.38,LANDED,CF1-H,0:/Integrated Flight Computer/aircraft/cf1_h_cfg.ks (inferred preloaded)
13.74,TAKEOFF,TO_GROUND_ROLL,31.25,80,48.75,3.63,-0.17,-0.07,0.22,90.42,0.104,1,0,0,0,0,0,0,0,0,0,90.38,0,1,0,-0.31,0,0,0.01,90,0,0,0,0,0,0,0,0,-0.019,0,0,3,0,0,0,69,0,0,0,90.38,1,-0.019,0.036,-0.0004,0.371,0,-0.0004,0,0,0,0,0,0,1,1,0,0,VALID,0,0,0,0,0,1,0,0,0,0,0,0,0,0,0,0,0,0,0,0,264.38,506.1,2,0,0.08,0.08,205,14.29,0.08,0.06,13.66,LANDED,CF1-H,0:/Integrated Flight Computer/aircraft/cf1_h_cfg.ks (inferred preloaded)
14.02,TAKEOFF,TO_GROUND_ROLL,32.55,80,47.45,3.63,-0.18,-0.07,0.22,90.42,0.103,1,0,0,0,0,0,0,0,0,0,90.38,0,1,0,-0.31,0,0,0.01,90,0,0,0,0,0,0,0,0,-0.021,0,0,3,0,0,0,69,0,0,0,90.38,1,-0.021,0.038,-0.0004,0.384,0,-0.0004,0,0,0,0,0,0,1,1,0,0,VALID,0,0,0,0,0,1,0,0,0,0,0,0,0,0,0,0,0,0,0,0,268.06,505.43,2,0,0.08,0.08,209,14.29,0.08,0.06,13.94,LANDED,CF1-H,0:/Integrated Flight Computer/aircraft/cf1_h_cfg.ks (inferred preloaded)
14.3,TAKEOFF,TO_GROUND_ROLL,33.86,80,46.14,3.63,-0.18,-0.07,0.22,90.42,0.102,1,0,0,0,0,0,0,0,0,0,90.38,0,1,0,-0.31,0,0,0.02,90,0,0,0,0,0,0,0,0,-0.022,0,0,3,0,0,0,69,0,0,0,90.38,1,-0.022,0.039,-0.0004,0.399,0,-0.0004,0,0,0,0,0,0,1,1,0,0,VALID,0,0,0,0,0,1,0,0,0,0,0,0,0,0,0,0,0,0,0,0,271.65,504.74,2,0,0.08,0.08,213,14.29,0.08,0.06,14.22,LANDED,CF1-H,0:/Integrated Flight Computer/aircraft/cf1_h_cfg.ks (inferred preloaded)
14.58,TAKEOFF,TO_GROUND_ROLL,35.19,80,44.81,3.63,-0.19,-0.07,0.22,90.42,0.102,1,0,0,0,0,0,0,0,0,0,90.38,0,1,0,-0.31,0,0,0.02,90,0,0,0,0,0,0,0,0,-0.023,0,0,3,0,0,0,69,0,0,0,90.38,1,-0.023,0.039,-0.0004,0.413,0,-0.0004,0,0,0,0,0,0,1,1,0,0,VALID,0,0,0,0,0,1,0,0,0,0,0,0,0,0,0,0,0,0,0,0,275.14,504.03,2,0,0.08,0.08,217,14.29,0.08,0.06,14.5,LANDED,CF1-H,0:/Integrated Flight Computer/aircraft/cf1_h_cfg.ks (inferred preloaded)
14.86,TAKEOFF,TO_GROUND_ROLL,36.54,80,43.46,3.63,-0.19,-0.06,0.22,90.42,0.103,1,0,0,0,0,0,0,0,0,0,90.38,0,1,0,-0.31,0,0,0.02,90,0,0,0,0,0,0,0,0,-0.025,0,0,3,0,0,0,69,0,0,0,90.38,1,-0.025,0.039,-0.0005,0.427,0,-0.0005,0,0,0,0,0,0,1,1,0,0,VALID,0,0,0,0,0,1,0,0,0,0,0,0,0,0,0,0,0,0,0,0,278.56,503.3,2,0,0.08,0.08,221,14.29,0.08,0.06,14.78,LANDED,CF1-H,0:/Integrated Flight Computer/aircraft/cf1_h_cfg.ks (inferred preloaded)
15.14,TAKEOFF,TO_GROUND_ROLL,37.9,80,42.1,3.63,-0.2,-0.06,0.22,90.41,0.103,1,0,0,0,0,0,0,0,0,0,90.37,0,1,0,-0.3,0,0,0.02,90,0,0,0,0,0,0,0,0,-0.027,0,0,3,0,0,0,69,0,0,0,90.37,1,-0.027,0.039,-0.0005,0.442,0,-0.0005,0,0,0,0,0,0,1,1,0,0,VALID,0,0,0,0,0,1,0,0,0,0,0,0,0,0,0,0,0,0,0,0,281.88,502.55,2,0,0.08,0.08,225,14.29,0.08,0.06,15.06,LANDED,CF1-H,0:/Integrated Flight Computer/aircraft/cf1_h_cfg.ks (inferred preloaded)
15.42,TAKEOFF,TO_GROUND_ROLL,39.27,80,40.73,3.63,-0.21,-0.06,0.22,90.41,0.104,1,0,0,0,0,0,0,0,0,0,90.37,0,1,0,-0.3,0,0,0.02,90,0,0,0,0,0,0,0,0,-0.028,0,0,3,0,0,0,69,0,0,0,90.37,1,-0.028,0.04,-0.0005,0.457,0,-0.0005,0,0,0,0,0,0,1,1,0,0,VALID,0,0,0,0,0,1,0,0,0,0,0,0,0,0,0,0,0,0,0,0,285.13,501.78,2,0,0.08,0.08,229,14.29,0.08,0.06,15.34,LANDED,CF1-H,0:/Integrated Flight Computer/aircraft/cf1_h_cfg.ks (inferred preloaded)
15.7,TAKEOFF,TO_GROUND_ROLL,40.67,80,39.33,3.63,-0.21,-0.06,0.23,90.41,0.103,1,0,0,0,0,0,0,0,0,0,90.37,0,1,0,-0.3,0,0,0.02,90,0,0,0,0,0,0,0,0,-0.03,0,0,3,0,0,0,69,0,0,0,90.37,1,-0.03,0.04,-0.0005,0.471,0,-0.0005,0,0,0,0,0,0,1,1,0,0,VALID,0,0,0,0,0,1,0,0,0,0,0,0,0,0,0,0,0,0,0,0,288.28,500.99,2,0,0.08,0.08,233,14.29,0.08,0.06,15.62,LANDED,CF1-H,0:/Integrated Flight Computer/aircraft/cf1_h_cfg.ks (inferred preloaded)
15.98,TAKEOFF,TO_GROUND_ROLL,42.07,80,37.93,3.63,-0.22,-0.06,0.23,90.41,0.103,1,0,0,0,0,0,0,0,0,0,90.37,0,1,0,-0.3,0,0,0.02,90,0,0,0,0,0,0,0,0,-0.032,0,0,3,0,0,0,69,0,0,0,90.37,1,-0.032,0.041,-0.0005,0.486,0,-0.0005,0,0,0,0,0,0,1,1,0,0,VALID,0,0,0,0,0,1,0,0,0,0,0,0,0,0,0,0,0,0,0,0,291.36,500.18,2,0,0.08,0.08,237,14.29,0.08,0.06,15.9,LANDED,CF1-H,0:/Integrated Flight Computer/aircraft/cf1_h_cfg.ks (inferred preloaded)
16.26,TAKEOFF,TO_GROUND_ROLL,43.49,80,36.51,3.63,-0.23,-0.06,0.23,90.41,0.102,1,0,0,0,0,0,0,0,0,0,90.37,0,1,0,-0.3,0,0,0.02,90,0,0,0,0,0,0,0,0,-0.033,0,0,3,0,0,0,69,0,0,0,90.37,1,-0.033,0.043,-0.0006,0.502,0,-0.0006,0,0,0,0,0,0,1,1,0,0,VALID,0,0,0,0,0,1,0,0,0,0,0,0,0,0,0,0,0,0,0,0,294.35,499.35,2,0,0.08,0.08,241,14.29,0.08,0.06,16.18,LANDED,CF1-H,0:/Integrated Flight Computer/aircraft/cf1_h_cfg.ks (inferred preloaded)
16.54,TAKEOFF,TO_GROUND_ROLL,44.93,80,35.07,3.63,-0.23,-0.06,0.23,90.41,0.102,1,0,0,0,0,0,0,0,0,0,90.36,0,1,0,-0.3,0,0,0.02,90,0,0,0,0,0,0,0,0,-0.035,0,0,3,0,0,0,69,0,0,0,90.36,1,-0.035,0.045,-0.0006,0.517,0,-0.0006,0,0,0,0,0,0,1,1,0,0,VALID,0,0,0,0,0,1,0,0,0,0,0,0,0,0,0,0,0,0,0,0,297.27,498.5,2,0,0.08,0.08,245,14.29,0.08,0.06,16.46,LANDED,CF1-H,0:/Integrated Flight Computer/aircraft/cf1_h_cfg.ks (inferred preloaded)
16.82,TAKEOFF,TO_GROUND_ROLL,46.37,80,33.63,3.63,-0.24,-0.05,0.23,90.41,0.101,1,0,0,0,0,0,0,0,0,0,90.36,0,1,0,-0.3,0,0,0.03,90,0,0,0,0,0,0,0,0,-0.037,0,0,3,0,0,0,69,0,0,0,90.36,1,-0.037,0.048,-0.0007,0.533,0,-0.0007,0,0,0,0,0,0,1,1,0,0,VALID,0,0,0,0,0,1,0,0,0,0,0,0,0,0,0,0,0,0,0,0,300.1,497.63,2,0,0.08,0.08,249,14.29,0.08,0.06,16.74,LANDED,CF1-H,0:/Integrated Flight Computer/aircraft/cf1_h_cfg.ks (inferred preloaded)
17.1,TAKEOFF,TO_GROUND_ROLL,47.83,80,32.17,3.63,-0.25,-0.05,0.23,90.41,0.1,1,0,0,0,0,0,0,0,0,0,90.36,0,1,0,-0.29,0,0,0.03,90,0,0,0,0,0,0,0,0,-0.039,0,0,3,0,0,0,69,0,0,0,90.36,1,-0.039,0.051,-0.0008,0.548,0,-0.0008,0,0,0,0,0,0,1,1,0,0,VALID,0,0,0,0,0,1,0,0,0,0,0,0,0,0,0,0,0,0,0,0,302.85,496.75,2,0,0.08,0.08,253,14.29,0.08,0.06,17.02,LANDED,CF1-H,0:/Integrated Flight Computer/aircraft/cf1_h_cfg.ks (inferred preloaded)
17.38,TAKEOFF,TO_GROUND_ROLL,49.31,80,30.69,3.63,-0.25,-0.05,0.23,90.41,0.1,1,0,0,0,0,0,0,0,0,0,90.36,0,1,0,-0.29,0,0,0.03,90,0,0,0,0,0,0,0,0,-0.041,0,0,3,0,0,0,69,0,0,0,90.36,1,-0.041,0.055,-0.0009,0.564,0,-0.0009,0,0,0,0,0,0,1,1,0,0,VALID,0,0,0,0,0,1,0,0,0,0,0,0,0,0,0,0,0,0,0,0,305.53,495.84,2,0,0.08,0.08,257,14.29,0.08,0.06,17.3,LANDED,CF1-H,0:/Integrated Flight Computer/aircraft/cf1_h_cfg.ks (inferred preloaded)
17.66,TAKEOFF,TO_GROUND_ROLL,50.79,80,29.21,3.63,-0.26,-0.05,0.23,90.42,0.099,1,0,0,0,0,0,0,0,0,0,90.35,0,1,0,-0.29,0,0,0.03,90,0,0,0,0,0,0,0,0,-0.043,0,0,3,0,0,0,69,0,0,0,90.35,1,-0.043,0.061,-0.001,0.58,0,-0.001,0,0,0,0,0,0,1,1,0,0,VALID,0,0,0,0,0,1,0,0,0,0,0,0,0,0,0,0,0,0,0,0,308.13,494.92,2,0,0.08,0.08,261,14.29,0.08,0.06,17.58,LANDED,CF1-H,0:/Integrated Flight Computer/aircraft/cf1_h_cfg.ks (inferred preloaded)
17.94,TAKEOFF,TO_GROUND_ROLL,52.29,80,27.71,3.64,-0.26,-0.05,0.23,90.42,0.097,1,0,0,0,0,0,0,0,0,0,90.35,0,1,0,-0.29,0,0,0.03,90,0,0,0,0,0,0,0,0,-0.045,0,0,3,0,0,0,69,0,0,0,90.35,1,-0.045,0.068,-0.0012,0.596,0,-0.0012,0,0,0,0,0,0,1,1,0,0,VALID,0,0,0,0,0,1,0,0,0,0,0,0,0,0,0,0,0,0,0,0,310.65,493.98,2,0,0.08,0.08,265,14.29,0.08,0.06,17.86,LANDED,CF1-H,0:/Integrated Flight Computer/aircraft/cf1_h_cfg.ks (inferred preloaded)
18.22,TAKEOFF,TO_GROUND_ROLL,53.79,80,26.21,3.64,-0.27,-0.05,0.23,90.42,0.095,1,0,0,0,0,0,0,0,0,0,90.35,0,1,0,-0.29,0,0,0.03,90,0,0,0,0,0,0,0,0,-0.048,0,0,3,0,0,0,69,0,0,0,90.35,1,-0.048,0.077,-0.0014,0.612,0,-0.0014,0,0,0,0,0,0,1,1,0,0,VALID,0,0,0,0,0,1,0,0,0,0,0,0,0,0,0,0,0,0,0,0,313.1,493.02,2,0,0.08,0.08,269,14.29,0.08,0.06,18.14,LANDED,CF1-H,0:/Integrated Flight Computer/aircraft/cf1_h_cfg.ks (inferred preloaded)
18.5,TAKEOFF,TO_GROUND_ROLL,55.31,80,24.69,3.64,-0.28,-0.05,0.23,90.43,0.093,1,0,0,0,0,0,0,0,0,0,90.34,0,1,0,-0.29,0,0,0.03,90,0,0,0,0,0,0,0,0,-0.05,0,0,3,0,0,0,69,0,0,0,90.34,1,-0.05,0.089,-0.0016,0.628,0,-0.0016,0,0,0,0,0,0,1,1,0,0,VALID,0,0,0,0,0,1,0,0,0,0,0,0,0,0,0,0,0,0,0,0,315.48,492.05,2,0,0.08,0.08,273,14.29,0.08,0.06,18.42,LANDED,CF1-H,0:/Integrated Flight Computer/aircraft/cf1_h_cfg.ks (inferred preloaded)
18.78,TAKEOFF,TO_GROUND_ROLL,56.84,80,23.16,3.64,-0.28,-0.04,0.23,90.44,0.089,1,0,0,0,0,0,0,0,0,0,90.34,0,1,0,-0.28,0,0,0.04,90,0,0,0,0,0,0,0,0,-0.053,0,0,3,0,0,0,69,0,0,0,90.34,1,-0.053,0.103,-0.002,0.645,0,-0.002,0,0,0,0,0,0,1,1,0,0,VALID,0,0,0,0,0,1,0,0,0,0,0,0,0,0,0,0,0,0,0,0,317.79,491.06,2,0,0.08,0.08,277,14.29,0.08,0.06,18.7,LANDED,CF1-H,0:/Integrated Flight Computer/aircraft/cf1_h_cfg.ks (inferred preloaded)
19.06,TAKEOFF,TO_GROUND_ROLL,58.38,80,21.62,3.64,-0.29,-0.03,0.23,90.46,0.086,1,0,0,0,0,0,0,0,0,0,90.34,0,1,0,-0.28,0,0,0.04,90,0,0,0,0,0,0,0,0,-0.055,0,0,3,0,0,0,69,0,0,0,90.34,1,-0.055,0.12,-0.0025,0.661,0,-0.0025,0,0,0,0,0,0,1,1,0,0,VALID,0,0,0,0,0,1,0,0,0,0,0,0,0,0,0,0,0,0,0,0,320.02,490.05,2,0,0.08,0.08,281,14.29,0.08,0.06,18.98,LANDED,CF1-H,0:/Integrated Flight Computer/aircraft/cf1_h_cfg.ks (inferred preloaded)
19.34,TAKEOFF,TO_GROUND_ROLL,59.92,80,20.08,3.64,-0.29,-0.01,0.25,90.47,0.082,1,0,0,0,0,0,0,0,0,0,90.33,0,1,0,-0.28,0,0,0.04,90,0,0,0,0,0,0,0,0,-0.058,0,0,3,0,0,0,69,0,0,0,90.33,1,-0.058,0.138,-0.003,0.678,0,-0.003,0,0,0,0,0,0,1,1,0,0,VALID,0,0,0,0,0,1,0,0,0,0,0,0,0,0,0,0,0,0,0,0,322.19,489.03,2,0,0.08,0.08,285,14.29,0.08,0.06,19.26,LANDED,CF1-H,0:/Integrated Flight Computer/aircraft/cf1_h_cfg.ks (inferred preloaded)
19.62,TAKEOFF,TO_GROUND_ROLL,61.48,80,18.52,3.65,-0.3,0.02,0.28,90.48,0.08,1,0,0,0,0,0,0,0,0,0,90.33,0,1,0,-0.28,0,0,0.04,90,0,0,0,0,0,0,0,0,-0.061,0,0,3,0,0,0,69,0,0,0,90.33,1,-0.061,0.156,-0.0036,0.694,0,-0.0036,0,0,0,0,0,0,1,1,0,0,VALID,0,0,0,0,0,1,0,0,0,0,0,0,0,0,0,0,0,0,0,0,324.28,488,2,0,0.08,0.08,289,14.29,0.08,0.06,19.54,LANDED,CF1-H,0:/Integrated Flight Computer/aircraft/cf1_h_cfg.ks (inferred preloaded)
19.9,TAKEOFF,TO_GROUND_ROLL,63.04,80,16.96,3.66,-0.3,0.06,0.32,90.5,0.08,1,0,0,0,0,0,0,0,0,0,90.33,0,1,0,-0.27,0,0,0.04,90,0,0,0,0,0,0,0,0,-0.064,0,0,3,0,0,0,69,0,0,0,90.33,1,-0.064,0.174,-0.0042,0.711,0,-0.0042,0,0,0,0,0,0,1,1,0,0,VALID,0,0,0,0,0,1,0,0,0,0,0,0,0,0,0,0,0,0,0,0,326.31,486.95,2,0,0.08,0.08,293,14.29,0.08,0.06,19.82,LANDED,CF1-H,0:/Integrated Flight Computer/aircraft/cf1_h_cfg.ks (inferred preloaded)
20.18,TAKEOFF,TO_GROUND_ROLL,64.61,80,15.39,3.67,-0.23,0.1,0.27,90.51,0.082,1,0,0,0,0,0,0,0,0,0,90.32,0,1,0,-0.2,0,0,0.04,90,0,0,0,0,0,0,0,0,-0.067,0,0,3,0,0,0,69,0,0,0,90.32,1,-0.067,0.192,-0.0048,0.728,0,-0.0048,0,0,0,0,0,0,1,1,0,0,VALID,0,0,0,0,0,1,0,0,0,0,0,0,0,0,0,0,0,0,0,0,328.27,485.89,2,0,0.08,0.08,297,14.29,0.08,0.06,20.1,LANDED,CF1-H,0:/Integrated Flight Computer/aircraft/cf1_h_cfg.ks (inferred preloaded)
20.46,TAKEOFF,TO_GROUND_ROLL,66.2,80,13.8,3.68,-0.31,0.17,0.44,90.53,0.084,1,0,0,0,0,0,0,0,0,0,90.32,0,1,0,-0.27,0,0,0.05,90,0,0,0,0,0,0,0,0,-0.071,0,0,3,0,0,0,69,0,0,0,90.32,1,-0.071,0.208,-0.0055,0.745,0,-0.0055,0,0,0,0,0,0,1,1,0,0,VALID,0,0,0,0,0,1,0,0,0,0,0,0,0,0,0,0,0,0,0,0,330.17,484.82,2,0,0.08,0.08,301,14.29,0.08,0.06,20.38,LANDED,CF1-H,0:/Integrated Flight Computer/aircraft/cf1_h_cfg.ks (inferred preloaded)
20.74,TAKEOFF,TO_GROUND_ROLL,67.78,80,12.22,3.7,-0.33,0.24,0.49,90.54,0.086,1,0,0,0,0,0,0,0,0,0,90.32,0,1,0,-0.28,0,0,0.05,90,0,0,0,0,0,0,0,0,-0.074,0,0,3,0,0,0,69,0,0,0,90.32,1,-0.074,0.224,-0.0062,0.762,0,-0.0062,0,0,0,0,0,0,1,1,0,0,VALID,0,0,0,0,0,1,0,0,0,0,0,0,0,0,0,0,0,0,0,0,332.01,483.73,2,0,0.08,0.08,305,14.29,0.08,0.06,20.66,LANDED,CF1-H,0:/Integrated Flight Computer/aircraft/cf1_h_cfg.ks (inferred preloaded)
21.02,TAKEOFF,TO_GROUND_ROLL,69.38,80,10.62,3.7,-0.24,0.29,0.49,90.55,0.086,1,0,0,0,0,0,0,0,0,0,90.31,0,1,0,-0.2,0,0,0.05,90,0,0,0,0,0,0,0,0,-0.078,0,0,3,0,0,0,69,0,0,0,90.31,1,-0.078,0.238,-0.0069,0.779,0,-0.0069,0,0,0,0,0,0,1,1,0,0,VALID,0,0,0,0,0,1,0,0,0,0,0,0,0,0,0,0,0,0,0,0,333.78,482.64,2,0,0.08,0.08,309,14.29,0.08,0.06,20.94,LANDED,CF1-H,0:/Integrated Flight Computer/aircraft/cf1_h_cfg.ks (inferred preloaded)
21.32,TAKEOFF,TO_ROTATE,71.09,80,8.91,3.71,-0.35,0.31,0.59,90.56,0.086,1,0,0,0,0,0,0,0,0,0,90.31,0.717,1,0,-0.29,0,0,0.05,90,0,0,0,0,0,0,0,0,-0.082,0,0,3,0,0,0,69,0,0,0,90.31,1,-0.082,0.252,-0.0076,0.796,0,-0.0076,0,0.12,0.717,0.405,0.08,0,1,1,0,0,VALID,0,0,0,0,0,1,0,0,0,0,0,0,0,0,0,0,0,0,0,0,335.61,481.45,2,0,0.08,0.08,313,13.33,0.08,0.06,21.22,LANDED,CF1-H,0:/Integrated Flight Computer/aircraft/cf1_h_cfg.ks (inferred preloaded)
21.6,TAKEOFF,TO_ROTATE,72.7,80,7.3,3.72,-0.33,0.36,0.61,90.57,0.087,1,0,0,0,0,0,0,0,0,0,90.31,1.557,1,0,-0.26,0,0,0.05,90,0,0,0,0,0,0,0,0,-0.086,0,0,3,0,0,0,69,0,0,0,90.31,1,-0.086,0.266,-0.0083,0.813,0,-0.0083,0,0.1758,1.557,1.198,0.08,0,1,1,0,0,VALID,0,0,0,0,0,1,0,0,0,0,0,0,0,0,0,0,0,0,0,0,337.26,480.33,2,0,0.08,0.08,317,14.29,0.08,0.06,21.5,LANDED,CF1-H,0:/Integrated Flight Computer/aircraft/cf1_h_cfg.ks (inferred preloaded)
21.88,TAKEOFF,TO_ROTATE,74.31,80,5.69,3.75,-0.32,0.51,0.75,90.58,0.087,1,0,0,0,0,0,0,0,0,0,90.3,2.397,1,0,-0.25,0,0,0.06,90,0,0,0,0,0,0,0,0,-0.091,0,0,3,0,0,0,69,0,0,0,90.3,1,-0.091,0.278,-0.009,0.831,0,-0.009,0,0.2308,2.397,1.885,0.08,0,1,1,0,0,VALID,0,0,0,0,0,1,0,0,0,0,0,0,0,0,0,0,0,0,0,0,338.85,479.21,2,0,0.08,0.08,321,14.29,0.08,0.06,21.78,LANDED,CF1-H,0:/Integrated Flight Computer/aircraft/cf1_h_cfg.ks (inferred preloaded)
22.18,TAKEOFF,TO_ROTATE,76.04,80,3.96,3.8,-0.33,0.79,1.03,90.59,0.089,1,0,0,0,0,0,0,0,0,0,90.3,3.297,1,0,-0.25,0,0,0.06,90,0,0,0,0,0,0,0,0,-0.095,0,0,3,0,0,0,69,0,0,0,90.3,1,-0.095,0.29,-0.0097,0.849,0,-0.0097,0,0.2803,3.297,2.503,0.08,0,1,1,0,0,VALID,0,0,0,0,0,1,0,0,0,0,0,0,0,0,0,0,0,0,0,0,340.5,478,2,0,0.08,0.08,325,13.33,0.08,0.06,22.08,LANDED,CF1-H,0:/Integrated Flight Computer/aircraft/cf1_h_cfg.ks (inferred preloaded)
22.46,TAKEOFF,TO_ROTATE,77.65,80,2.35,3.86,-0.33,1.1,1.34,90.6,0.09,1,0,0,0,0,0,0,0,0,0,90.3,4.137,1,0,-0.24,0,0,0.06,90,0,0,0,0,0,0,0,0,-0.1,0,0,3,0,0,0,69,0,0,0,90.3,1,-0.1,0.298,-0.0103,0.866,0,-0.0103,0,0.3226,4.137,3.032,0.08,0,1,1,0,0,VALID,0,0,0,0,0,1,0,0,0,0,0,0,0,0,0,0,0,0,0,0,341.97,476.86,2,0,0.08,0.08,329,14.29,0.08,0.06,22.36,LANDED,CF1-H,0:/Integrated Flight Computer/aircraft/cf1_h_cfg.ks (inferred preloaded)
22.74,TAKEOFF,TO_ROTATE,79.26,80,0.74,3.91,-0.32,1.39,1.61,90.6,0.091,1,0,0,0,0,0,0,0,0,0,90.29,4.977,1,0,-0.23,0,0,0.06,90,0,0,0,0,0,0,0,0,-0.105,0,0,3,0,0,0,69,0,0,0,90.29,1,-0.105,0.305,-0.0109,0.884,0,-0.0109,0,0.3673,4.977,3.592,0.08,0,1,1,0,0,VALID,0,0,0,0,0,1,0,0,0,0,0,0,0,0,0,0,0,0,0,0,343.4,475.72,2,0,0.08,0.08,333,14.29,0.08,0.06,22.64,LANDED,CF1-H,0:/Integrated Flight Computer/aircraft/cf1_h_cfg.ks (inferred preloaded)
23.02,TAKEOFF,TO_ROTATE,80.86,80,-0.86,3.97,-0.31,1.65,1.86,90.6,0.092,1,0,0,0,0,0,0,0,0,0,90.29,5.817,1,0,-0.22,0,0,0.06,90,0,0,0,0,0,0,0,0,-0.109,0,0,3,0,0,0,69,0,0,0,90.29,1,-0.109,0.311,-0.0113,0.901,0,-0.0113,0,0.4132,5.817,4.165,0.08,0,1,1,0,0,VALID,0,0,0,0,0,1,0,0,0,0,0,0,0,0,0,0,0,0,0,0,344.79,474.59,2,0,0.08,0.08,337,14.29,0.08,0.06,22.92,LANDED,CF1-H,0:/Integrated Flight Computer/aircraft/cf1_h_cfg.ks (inferred preloaded)
23.3,TAKEOFF,TO_ROTATE,82.46,80,-2.46,4.07,-0.32,1.98,2.16,90.6,0.094,1,0,0,0,0,0,0,0,0,0,90.28,6.657,1,0,-0.19,0,0,0.07,90,0,0,0,0,0,0,0,0,-0.114,0,0,3,0,0,0,69,0,0,0,90.28,1,-0.114,0.317,-0.0119,0.918,0,-0.0119,0,0.45,6.657,4.677,0.08,0,1,1,0,0,VALID,0,0,0,0,0,1,0,0,0,0,0,0,0,0,0,0,0,0,0,0,346.12,473.45,2,0,0.08,0.08,341,14.29,0.08,0.06,23.2,LANDED,CF1-H,0:/Integrated Flight Computer/aircraft/cf1_h_cfg.ks (inferred preloaded)
23.58,TAKEOFF,TO_ROTATE,84.05,80,-4.05,4.18,-0.18,2.64,2.77,90.6,0.093,1,0,0,0,0,0,0,0,0,0,90.28,7.497,1,0,-0.14,0,0,0.07,90,0,0,0,0,0,0,0,0,-0.119,0,0,3,0,0,0,69,0,0,0,90.28,1,-0.119,0.32,-0.0123,0.935,0,-0.0123,0,0.45,7.497,4.854,0.08,0,1,1,0,0,VALID,0,0,0,0,0,1,0,0,0,0,0,0,0,0,0,0,0,0,0,0,347.41,472.32,2,0,0.08,0.08,345,14.29,0.08,0.06,23.48,LANDED,CF1-H,0:/Integrated Flight Computer/aircraft/cf1_h_cfg.ks (inferred preloaded)
23.86,TAKEOFF,TO_ROTATE,85.61,80,-5.61,4.36,-0.3,3.48,3.68,90.6,0.093,1,0,0,0,0,0,0,0,0,0,90.28,8.337,1,0,-0.2,0,0,0.07,90,0,0,0,0,0,0,0,0,-0.125,0,0,3,0,0,0,69,0,0,0,90.28,1,-0.125,0.325,-0.0128,0.952,0,-0.0128,0,0.45,8.337,4.853,0.08,0,1,1,0,0,VALID,0,0,0,0,0,1,0,0,0,0,0,0,0,0,0,0,0,0,0,0,348.67,471.2,2,0,0.08,0.08,349,14.29,0.08,0.06,23.76,LANDED,CF1-H,0:/Integrated Flight Computer/aircraft/cf1_h_cfg.ks (inferred preloaded)
24.14,TAKEOFF,TO_ROTATE,87.13,80,-7.13,4.56,-0.2,4.51,4.64,90.6,0.086,1,0,0,0,0,0,0,0,0,0,90.27,9.177,1,0,-0.14,0,0,0.07,90,0,0,0,0,0,0,0,0,-0.13,0,0,3,0,0,0,69,0,0,0,90.27,1,-0.13,0.327,-0.0131,0.968,0,-0.0131,0,0.45,9.177,4.669,0.08,0,1,1,0,0,VALID,0,0,0,0,0,1,0,0,0,0,0,0,0,0,0,0,0,0,0,0,349.9,470.12,2,0,0.08,0.08,353,14.29,0.08,0.06,24.04,LANDED,CF1-H,0:/Integrated Flight Computer/aircraft/cf1_h_cfg.ks (inferred preloaded)
24.4,TAKEOFF,TO_ROTATE,88.48,80,-8.48,4.79,0.05,5.55,5.48,90.59,0.066,1,0,0,0,0,0,0,0,0,0,90.4,10,1,0,0.03,0,0,0.08,90,-1,-0.0067,0.006,10,90.4,0,0,0,0,0,0,3,0,0,0,69,0,0,0,90.4,1,0,0.192,0,0,3,0,0,0,10,4.445,0,0,1,1,0,0,VALID,0,0,0,0,0,1,0,0,0,0,0,0,0,0,0,0,0,0,0,0,351.04,469.14,2,0,0.08,0.08,357,15.38,0.08,0.06,24.3,FLYING,CF1-H,0:/Integrated Flight Computer/aircraft/cf1_h_cfg.ks (inferred preloaded)
24.68,TAKEOFF,TO_ROTATE,89.88,80,-9.88,5.09,0.72,6.09,5.66,90.61,0.085,1,0,0,0,0,0,0,0,0,0,90.4,10,0,1,0.46,0,0,10,90.4,-1,-0.0067,0.0059,10,90.4,0,0,0,0,0,0,3,0,0,0,69,0,0,0,90.4,1,0,0.21,0,0,3,0,0,0,10,3.914,0,0,1,1,0,0,VALID,0,0,0,0,0,1,0,0,0,0,0,0,0,0,0,0,0,0,0,0,352.24,468.13,2,0,0.08,0.08,361,14.29,0.08,0.06,24.58,FLYING,CF1-H,0:/Integrated Flight Computer/aircraft/cf1_h_cfg.ks (inferred preloaded)
24.96,TAKEOFF,TO_ROTATE,91.25,80,-11.25,5.53,1.38,6.32,5.5,90.61,0.043,1,0,0,0,0,0,0,0,0,0,90.4,10,0,1,0.87,0,0,10,90.4,-1,-0.0067,0.0059,10,90.4,0,0,0,0,0,0,3,0,0,0,69,0,0,0,90.4,1,0,0.207,0,0,3,0,0,0,10,3.68,0,0,1,1,0,0,VALID,0,0,0,0,0,1,0,0,0,0,0,0,0,0,0,0,0,0,0,0,353.41,467.13,2,0,0.08,0.08,365,14.29,0.08,0.06,24.86,FLYING,CF1-H,0:/Integrated Flight Computer/aircraft/cf1_h_cfg.ks (inferred preloaded)
25.24,TAKEOFF,TO_CLIMB,92.61,80,-12.61,6.14,2.06,6.43,5.22,90.6,0.007,0.968,0,0,0,0,0,0,0,0,0,90.4,6.514,0,1,1.27,0,0,10,90.4,-0.9985,-0.0069,-0.055,6.51,90.4,0,0,0,0,0,0,3,0,0,0,69,0,0,0,90.4,1,0,0.205,0,0,3,0,0,0,10,3.614,0,0,1,1,0,0,VALID,0,0,0,0,0,1,0,0,0,0,0,0,0,0,0,0,0,0,0,0,354.54,466.12,2,0,0.08,0.08,369,14.29,0.08,0.06,25.14,FLYING,CF1-H,0:/Integrated Flight Computer/aircraft/cf1_h_cfg.ks (inferred preloaded)
25.52,TAKEOFF,TO_CLIMB,93.97,80,-13.97,6.93,2.79,6.42,4.83,90.6,-0.039,0.8603,0,0,0,0,0,0,0,0,0,90.4,6.962,0,1,1.7,0,0,6.84,90.4,-0.9989,-0.0068,-0.0472,6.96,90.4,0,0,0,0,0,0,3,0,0,0,69,0,0,0,90.4,1,0,0.201,0,0,3,0,0,0,10,3.614,0,0,1,1,0,0,VALID,0,0,0,0,0,1,0,0,0,0,0,0,0,0,0,0,0,0,0,0,355.18,465.1,2,0,0.08,0.08,373,14.29,0.08,0.06,25.42,FLYING,CF1-H,0:/Integrated Flight Computer/aircraft/cf1_h_cfg.ks (inferred preloaded)
25.8,TAKEOFF,TO_CLIMB,95.34,80,-15.34,7.85,3.3,6.07,4.18,90.6,-0.076,0.8466,0,0,0,0,0,0,0,0,0,90.4,7.41,0,1,1.98,0,0,7.28,90.4,-0.9992,-0.0068,-0.0394,7.41,90.4,0,0,0,0,0,0,3,0,0,0,69,0,0,0,90.4,1,0,0.197,0,0,3,0,0,0,10,3.614,0,0,1,1,0,0,VALID,0,0,0,0,0,1,0,0,0,0,0,0,0,0,0,0,0,0,0,0,355.14,464.06,2,0,0.08,0.08,377,14.29,0.08,0.06,25.7,FLYING,CF1-H,0:/Integrated Flight Computer/aircraft/cf1_h_cfg.ks (inferred preloaded)
26.08,TAKEOFF,TO_CLIMB,96.72,80,-16.72,8.94,3.71,6.11,4,90.59,-0.099,0.8328,0,0,0,0,0,0,0,0,0,90.4,7.858,0,1,2.2,0,0,7.73,90.4,-0.9995,-0.0068,-0.0317,7.86,90.4,0,0,0,0,0,0,3,0,0,0,69,0,0,0,90.4,1,0,0.194,0,0,3,0,0,0,10,3.614,0,0,1,1,0,0,VALID,0,0,0,0,0,1,0,0,0,0,0,0,0,0,0,0,0,0,0,0,354.94,463.01,2,0,0.08,0.08,381,14.29,0.08,0.06,25.98,FLYING,CF1-H,0:/Integrated Flight Computer/aircraft/cf1_h_cfg.ks (inferred preloaded)
26.36,TAKEOFF,TO_CLIMB,98.09,80,-18.09,10.19,4.19,6.38,4.03,90.59,-0.132,0.8191,0,0,0,0,0,0,0,0,0,90.4,8,0,1,2.45,0,0,8,90.4,-0.9995,-0.0068,-0.0292,8,90.4,0,0,0,0,0,0,3,0,0,0,69,0,0,0,90.4,1,0,0.19,0,0,3,0,0,0,10,3.614,0,0,1,1,0,0,VALID,0,0,0,0,0,1,0,0,0,0,0,0,0,0,0,0,0,0,0,0,354.61,461.95,2,0,0.08,0.08,385,14.29,0.08,0.06,26.26,FLYING,CF1-H,0:/Integrated Flight Computer/aircraft/cf1_h_cfg.ks (inferred preloaded)
26.64,TAKEOFF,TO_CLIMB,99.45,80,-19.45,11.55,4.75,6.43,3.8,90.58,-0.162,0.8055,0,0,0,0,0,0,0,0,0,90.4,8,0,1,2.73,0,0,8,90.4,-0.9995,-0.0068,-0.0293,8,90.4,0,0,0,0,0,0,3,0,0,0,69,0,0,0,90.4,1,0,0.184,0,0,3,0,0,0,10,3.614,0,0,1,1,0,0,VALID,0,0,0,0,0,1,0,0,0,0,0,0,0,0,0,0,0,0,0,0,354.18,460.9,2,0,0.08,0.08,389,14.29,0.08,0.06,26.54,FLYING,CF1-H,0:/Integrated Flight Computer/aircraft/cf1_h_cfg.ks (inferred preloaded)
26.92,TAKEOFF,TO_CLIMB,100.79,80,-20.79,13.1,5.32,6.64,3.73,90.58,-0.192,0.7921,0,0,0,0,0,0,0,0,0,90.4,8,0,1,3.02,0,0,8,90.4,-0.9995,-0.0068,-0.0293,8,90.4,0,0,0,0,0,0,3,0,0,0,69,0,0,0,90.4,1,0,0.177,0,0,3,0,0,0,10,3.614,0,0,1,1,0,0,VALID,0,0,0,0,0,1,0,0,0,0,0,0,0,0,0,0,0,0,0,0,353.63,459.85,2,0,0.08,0.08,393,14.29,0.08,0.06,26.82,FLYING,CF1-H,0:/Integrated Flight Computer/aircraft/cf1_h_cfg.ks (inferred preloaded)
27.2,TAKEOFF,TO_CLIMB,102.12,80,-22.12,14.79,5.89,6.72,3.54,90.57,-0.219,0.78,0,0,0,0,0,0,0,0,0,90.4,8,0,1,3.3,0,0,8,90.4,-0.9995,-0.0068,-0.0294,8,90.4,0,0,0,0,0,0,3,0,0,0,69,0,0,0,90.4,1,0,0.171,0,0,3,0,0,0,10,3.614,0,0,1,1,0,0,VALID,0,0,0,0,0,1,0,0,0,0,0,0,0,0,0,0,0,0,0,0,352.98,458.8,2,0,0.08,0.08,397,14.29,0.08,0.06,27.1,FLYING,CF1-H,0:/Integrated Flight Computer/aircraft/cf1_h_cfg.ks (inferred preloaded)
27.48,TAKEOFF,TO_CLIMB,103.43,80,-23.43,16.67,6.52,6.89,3.42,90.56,-0.245,0.78,0,0,0,0,0,0,0,0,0,90.4,8,0,1,3.61,0,0,8,90.4,-0.9995,-0.0068,-0.0294,8,90.4,0,0,0,0,0,0,3,0,0,0,69,0,0,0,90.4,1,0,0.164,0,0,3,0,0,0,10,3.614,0,0,1,1,0,0,VALID,0,0,0,0,0,1,0,0,0,0,0,0,0,0,0,0,0,0,0,0,352.26,457.75,2,0,0.08,0.08,401,14.29,0.08,0.06,27.38,FLYING,CF1-H,0:/Integrated Flight Computer/aircraft/cf1_h_cfg.ks (inferred preloaded)
27.76,TAKEOFF,TO_CLIMB,104.73,80,-24.73,18.71,7.1,7.04,3.29,90.56,-0.269,0.78,0,0,0,0,0,0,0,0,0,90.4,8,0,1,3.88,0,0,8,90.4,-0.9995,-0.0068,-0.0295,8,90.4,0,0,0,0,0,0,3,0,0,0,69,0,0,0,90.4,1,0,0.155,0,0,3,0,0,0,10,3.614,0,0,1,1,0,0,VALID,0,0,0,0,0,1,0,0,0,0,0,0,0,0,0,0,0,0,0,0,351.54,456.71,2,0,0.08,0.08,405,14.29,0.08,0.06,27.66,FLYING,CF1-H,0:/Integrated Flight Computer/aircraft/cf1_h_cfg.ks (inferred preloaded)
28.04,TAKEOFF,TO_CLIMB,106.01,80,-26.01,20.93,7.78,7.2,3.15,90.55,-0.293,0.78,0,0,0,0,0,0,0,0,0,90.4,8,0,1,4.2,0,0,8,90.4,-0.9995,-0.0068,-0.0295,8,90.4,0,0,0,0,0,0,3,0,0,0,69,0,0,0,90.4,1,0,0.146,0,0,3,0,0,0,10,3.614,0,0,1,1,0,0,VALID,0,0,0,0,0,1,0,0,0,0,0,0,0,0,0,0,0,0,0,0,350.82,455.67,2,0,0.08,0.08,409,14.29,0.08,0.06,27.94,FLYING,CF1-H,0:/Integrated Flight Computer/aircraft/cf1_h_cfg.ks (inferred preloaded)
28.32,TAKEOFF,TO_CLIMB,107.28,80,-27.28,23.34,8.41,7.39,3.06,90.54,-0.314,0.78,0,0,0,0,0,0,0,0,0,90.4,8,0,1,4.48,0,0,8,90.4,-0.9995,-0.0068,-0.0296,8,90.4,0,0,0,0,0,0,3,0,0,0,69,0,0,0,90.4,1,0,0.137,0,0,3,0,0,0,10,3.614,0,0,1,1,0,0,VALID,0,0,0,0,0,1,0,0,0,0,0,0,0,0,0,0,0,0,0,0,350.09,454.63,2,0,0.08,0.08,413,14.29,0.08,0.06,28.22,FLYING,CF1-H,0:/Integrated Flight Computer/aircraft/cf1_h_cfg.ks (inferred preloaded)
28.6,TAKEOFF,TO_CLIMB,108.52,80,-28.52,25.92,9.11,7.52,2.89,90.53,-0.334,0.78,0,0,0,0,0,0,0,0,0,90.4,8,0,1,4.8,0,0,8,90.4,-0.9995,-0.0068,-0.0296,8,90.4,0,0,0,0,0,0,3,0,0,0,69,0,0,0,90.4,1,0,0.127,0,0,3,0,0,0,10,3.614,0,0,1,1,0,0,VALID,0,0,0,0,0,1,0,0,0,0,0,0,0,0,0,0,0,0,0,0,349.37,453.59,2,0,0.08,0.08,417,14.29,0.08,0.06,28.5,FLYING,CF1-H,0:/Integrated Flight Computer/aircraft/cf1_h_cfg.ks (inferred preloaded)
28.88,TAKEOFF,TO_CLIMB,109.76,80,-29.76,28.69,9.75,7.63,2.72,90.52,-0.347,0.78,0,0,0,0,0,0,0,0,0,90.4,8,0,1,5.08,0,0,8,90.4,-0.9995,-0.0068,-0.0297,8,90.4,0,0,0,0,0,0,3,0,0,0,69,0,0,0,90.4,1,0,0.118,0,0,3,0,0,0,10,3.614,0,0,1,1,0,0,VALID,0,0,0,0,0,1,0,0,0,0,0,0,0,0,0,0,0,0,0,0,348.65,452.56,2,0,0.08,0.08,421,14.29,0.08,0.06,28.78,FLYING,CF1-H,0:/Integrated Flight Computer/aircraft/cf1_h_cfg.ks (inferred preloaded)
29.16,TAKEOFF,TO_CLIMB,110.98,80,-30.98,31.64,10.4,7.74,2.55,90.51,-0.356,0.78,0,0,0,0,0,0,0,0,0,90.4,8,0,1,5.35,0,0,8,90.4,-0.9995,-0.0068,-0.0297,8,90.4,0,0,0,0,0,0,3,0,0,0,69,0,0,0,90.4,1,0,0.109,0,0,3,0,0,0,10,3.614,0,0,1,1,0,0,VALID,0,0,0,0,0,1,0,0,0,0,0,0,0,0,0,0,0,0,0,0,347.92,451.52,2,0,0.08,0.08,425,14.29,0.08,0.06,29.06,FLYING,CF1-H,0:/Integrated Flight Computer/aircraft/cf1_h_cfg.ks (inferred preloaded)
29.44,TAKEOFF,TO_CLIMB,112.19,80,-32.19,34.76,11.04,7.83,2.38,90.5,-0.36,0.78,0,0,0,0,0,0,0,0,0,90.4,8,0,1,5.62,0,0,8,90.4,-0.9995,-0.0068,-0.0298,8,90.4,0,0,0,0,0,0,3,0,0,0,69,0,0,0,90.4,1,0,0.1,0,0,3,0,0,0,10,3.614,0,0,1,1,0,0,VALID,0,0,0,0,0,1,0,0,0,0,0,0,0,0,0,0,0,0,0,0,347.2,450.49,2,0,0.08,0.08,429,14.29,0.08,0.06,29.34,FLYING,CF1-H,0:/Integrated Flight Computer/aircraft/cf1_h_cfg.ks (inferred preloaded)
29.72,TAKEOFF,TO_CLIMB,113.39,80,-33.39,38.06,11.65,7.89,2.2,90.49,-0.362,0.78,0,0,0,0,0,0,0,0,0,90.4,8,0,1,5.87,0,0,8,90.4,-0.9995,-0.0068,-0.0299,8,90.4,0,0,0,0,0,0,3,0,0,0,69,0,0,0,90.4,1,0,0.091,0,0,3,0,0,0,10,3.614,0,0,1,1,0,0,VALID,0,0,0,0,0,1,0,0,0,0,0,0,0,0,0,0,0,0,0,0,346.47,449.46,2,0,0.08,0.08,433,14.29,0.08,0.06,29.62,FLYING,CF1-H,0:/Integrated Flight Computer/aircraft/cf1_h_cfg.ks (inferred preloaded)
30,TAKEOFF,TO_CLIMB,114.58,80,-34.58,41.52,12.22,7.94,2.03,90.48,-0.361,0.78,0,0,0,0,0,0,0,0,0,90.4,8,0,1,6.09,0,0,8,90.4,-0.9995,-0.0068,-0.0299,8,90.4,0,0,0,0,0,0,3,0,0,0,69,0,0,0,90.4,1,0,0.083,0,0,3,0,0,0,10,3.614,0,0,1,1,0,0,VALID,0,0,0,0,0,1,0,0,0,0,0,0,0,0,0,0,0,0,0,0,345.75,448.42,2,0,0.08,0.08,437,14.29,0.08,0.06,29.9,FLYING,CF1-H,0:/Integrated Flight Computer/aircraft/cf1_h_cfg.ks (inferred preloaded)
30.28,TAKEOFF,TO_CLIMB,115.76,80,-35.76,45.13,12.77,7.98,1.87,90.48,-0.354,0.78,0,0,0,0,0,0,0,0,0,90.4,8,0,1,6.3,0,0,8,90.4,-0.9995,-0.0068,-0.03,8,90.4,0,0,0,0,0,0,3,0,0,0,69,0,0,0,90.4,1,0,0.075,0,0,3,0,0,0,10,3.614,0,0,1,1,0,0,VALID,0,0,0,0,0,1,0,0,0,0,0,0,0,0,0,0,0,0,0,0,345.02,447.39,2,0,0.08,0.08,441,14.29,0.08,0.06,30.18,FLYING,CF1-H,0:/Integrated Flight Computer/aircraft/cf1_h_cfg.ks (inferred preloaded)
30.56,TAKEOFF,TO_CLIMB,116.93,80,-36.93,48.88,13.28,8.01,1.71,90.47,-0.344,0.78,0,0,0,0,0,0,0,0,0,90.4,8,0,1,6.48,0,0,8,90.4,-0.9995,-0.0068,-0.03,8,90.4,0,0,0,0,0,0,3,0,0,0,69,0,0,0,90.4,1,0,0.068,0,0,3,0,0,0,10,3.614,0,0,1,1,0,0,VALID,0,0,0,0,0,1,0,0,0,0,0,0,0,0,0,0,0,0,0,0,344.29,446.36,2,0,0.08,0.08,445,14.29,0.08,0.06,30.46,FLYING,CF1-H,0:/Integrated Flight Computer/aircraft/cf1_h_cfg.ks (inferred preloaded)
30.84,TAKEOFF,TO_CLIMB,118.09,80,-38.09,52.78,13.77,8.03,1.56,90.46,-0.329,0.78,0,0,0,0,0,0,0,0,0,90.4,8,0,1,6.65,0,0,8,90.4,-0.9995,-0.0068,-0.0301,8,90.4,0,0,0,0,0,0,3,0,0,0,69,0,0,0,90.4,1,0,0.061,0,0,3,0,0,0,10,3.614,0,0,1,1,0,0,VALID,0,0,0,0,0,1,0,0,0,0,0,0,0,0,0,0,0,0,0,0,343.56,445.33,2,0,0.08,0.08,449,14.29,0.08,0.06,30.74,FLYING,CF1-H,0:/Integrated Flight Computer/aircraft/cf1_h_cfg.ks (inferred preloaded)
31.12,TAKEOFF,TO_CLIMB,119.24,80,-39.24,56.78,14.23,8.03,1.41,90.45,-0.313,0.78,0,0,0,0,0,0,0,0,0,90.4,8,0,1,6.8,0,0,8,90.4,-0.9995,-0.0068,-0.0301,8,90.4,0,0,0,0,0,0,3,0,0,0,69,0,0,0,90.4,1,0,0.055,0,0,3,0,0,0,10,3.614,0,0,1,1,0,0,VALID,0,0,0,0,0,1,0,0,0,0,0,0,0,0,0,0,0,0,0,0,342.83,444.3,2,0,0.08,0.08,453,14.29,0.08,0.06,31.02,FLYING,CF1-H,0:/Integrated Flight Computer/aircraft/cf1_h_cfg.ks (inferred preloaded)
31.4,TAKEOFF,TO_CLIMB,120.39,80,-40.39,60.93,14.66,8.04,1.28,90.45,-0.293,0.78,0,0,0,0,0,0,0,0,0,90.4,8,0,1,6.94,0,0,8,90.4,-0.9995,-0.0068,-0.0302,8,90.4,0,0,0,0,0,0,3,0,0,0,69,0,0,0,90.4,1,0,0.049,0,0,3,0,0,0,10,3.614,0,0,1,1,0,0,VALID,0,0,0,0,0,1,0,0,0,0,0,0,0,0,0,0,0,0,0,0,342.1,443.27,2,0,0.08,0.08,457,14.29,0.08,0.06,31.3,FLYING,CF1-H,0:/Integrated Flight Computer/aircraft/cf1_h_cfg.ks (inferred preloaded)
31.68,TAKEOFF,TO_CLIMB,121.54,80,-41.54,65.19,15.06,8.05,1.17,90.44,-0.274,0.78,0,0,0,0,0,0,0,0,0,90.4,8,0,1,7.07,0,0,8,90.4,-0.9995,-0.0068,-0.0302,8,90.4,0,0,0,0,0,0,3,0,0,0,69,0,0,0,90.4,1,0,0.043,0,0,3,0,0,0,10,3.614,0,0,1,1,0,0,VALID,0,0,0,0,0,1,0,0,0,0,0,0,0,0,0,0,0,0,0,0,341.37,442.24,2,0,0.08,0.08,461,14.29,0.08,0.06,31.58,FLYING,CF1-H,0:/Integrated Flight Computer/aircraft/cf1_h_cfg.ks (inferred preloaded)
31.96,TAKEOFF,TO_CLIMB,122.67,80,-42.67,69.56,15.45,8.05,1.05,90.44,-0.253,0.78,0,0,0,0,0,0,0,0,0,90.4,8,0,1,7.18,0,0,8,90.4,-0.9995,-0.0068,-0.0303,8,90.4,0,0,0,0,0,0,3,0,0,0,69,0,0,0,90.4,1,0,0.038,0,0,3,0,0,0,10,3.614,0,0,1,1,0,0,VALID,0,0,0,0,0,1,0,0,0,0,0,0,0,0,0,0,0,0,0,0,340.64,441.22,2,0,0.08,0.08,465,14.29,0.08,0.06,31.86,FLYING,CF1-H,0:/Integrated Flight Computer/aircraft/cf1_h_cfg.ks (inferred preloaded)
32.24,TAKEOFF,TO_CLIMB,123.8,80,-43.8,74.03,15.82,8.05,0.95,90.43,-0.233,0.78,0,0,0,0,0,0,0,0,0,90.4,8,0,1,7.28,0,0,8,90.4,-0.9995,-0.0068,-0.0304,8,90.4,0,0,0,0,0,0,3,0,0,0,69,0,0,0,90.4,1,0,0.034,0,0,3,0,0,0,10,3.614,0,0,1,1,0,0,VALID,0,0,0,0,0,1,0,0,0,0,0,0,0,0,0,0,0,0,0,0,339.91,440.2,2,0,0.08,0.08,469,14.29,0.08,0.06,32.14,FLYING,CF1-H,0:/Integrated Flight Computer/aircraft/cf1_h_cfg.ks (inferred preloaded)
32.52,TAKEOFF,TO_CLIMB,124.92,80,-44.92,78.61,16.17,8.03,0.84,90.43,-0.212,0.78,0,0,0,0,0,0,0,0,0,90.4,8,0,1,7.38,0,0,8,90.4,-0.9995,-0.0068,-0.0304,8,90.4,0,0,0,0,0,0,3,0,0,0,69,0,0,0,90.4,1,0,0.029,0,0,3,0,0,0,10,3.614,0,0,1,1,0,0,VALID,0,0,0,0,0,1,0,0,0,0,0,0,0,0,0,0,0,0,0,0,339.18,439.18,2,0,0.08,0.08,473,14.29,0.08,0.06,32.42,FLYING,CF1-H,0:/Integrated Flight Computer/aircraft/cf1_h_cfg.ks (inferred preloaded)
32.8,TAKEOFF,TO_CLIMB,126.03,80,-46.03,83.27,16.5,8.01,0.74,90.43,-0.191,0.78,0,0,0,0,0,0,0,0,0,90.4,8,0,1,7.46,0,0,8,90.4,-0.9995,-0.0068,-0.0305,8,90.4,0,0,0,0,0,0,3,0,0,0,69,0,0,0,90.4,1,0,0.026,0,0,3,0,0,0,10,3.614,0,0,1,1,0,0,VALID,0,0,0,0,0,1,0,0,0,0,0,0,0,0,0,0,0,0,0,0,338.46,438.17,2,0,0.08,0.08,477,14.29,0.08,0.06,32.7,FLYING,CF1-H,0:/Integrated Flight Computer/aircraft/cf1_h_cfg.ks (inferred preloaded)
33.08,TAKEOFF,TO_CLIMB,127.14,80,-47.14,88.02,16.81,8,0.65,90.42,-0.17,0.78,0,0,0,0,0,0,0,0,0,90.4,8,0,1,7.53,0,0,8,90.4,-0.9995,-0.0068,-0.0305,8,90.4,0,0,0,0,0,0,3,0,0,0,69,0,0,0,90.4,1,0,0.022,0,0,3,0,0,0,10,3.614,0,0,1,1,0,0,VALID,0,0,0,0,0,1,0,0,0,0,0,0,0,0,0,0,0,0,0,0,337.74,437.16,2,0,0.08,0.08,481,14.29,0.08,0.06,32.98,FLYING,CF1-H,0:/Integrated Flight Computer/aircraft/cf1_h_cfg.ks (inferred preloaded)
33.36,TAKEOFF,TO_CLIMB,128.24,80,-48.24,92.86,17.1,7.96,0.54,90.42,-0.149,0.78,0,0,0,0,0,0,0,0,0,90.4,8,0,1,7.6,0,0,8,90.4,-0.9995,-0.0068,-0.0306,8,90.4,0,0,0,0,0,0,3,0,0,0,69,0,0,0,90.4,1,0,0.02,0,0,3,0,0,0,10,3.614,0,0,1,1,0,0,VALID,0,0,0,0,0,1,0,0,0,0,0,0,0,0,0,0,0,0,0,0,337.01,436.16,2,0,0.08,0.08,485,14.29,0.08,0.06,33.26,FLYING,CF1-H,0:/Integrated Flight Computer/aircraft/cf1_h_cfg.ks (inferred preloaded)
33.64,TAKEOFF,TO_CLIMB,129.34,80,-49.34,97.77,17.38,7.91,0.45,90.42,-0.129,0.78,0,0,0,0,0,0,0,0,0,90.4,8,0,1,7.65,0,0,8,90.4,-0.9995,-0.0068,-0.0307,8,90.4,0,0,0,0,0,0,3,0,0,0,69,0,0,0,90.4,1,0,0.017,0,0,3,0,0,0,10,3.614,0,0,1,1,0,0,VALID,0,0,0,0,0,1,0,0,0,0,0,0,0,0,0,0,0,0,0,0,336.29,435.16,2,0,0.08,0.08,489,14.29,0.08,0.06,33.54,FLYING,CF1-H,0:/Integrated Flight Computer/aircraft/cf1_h_cfg.ks (inferred preloaded)
33.92,TAKEOFF,TO_CLIMB,130.43,80,-50.43,102.75,17.62,7.88,0.37,90.42,-0.108,0.78,0,0,0,0,0,0,0,0,0,90.4,8,0,1,7.69,0,0,8,90.4,-0.9995,-0.0068,-0.0307,8,90.4,0,0,0,0,0,0,3,0,0,0,69,0,0,0,90.4,1,0,0.015,0,0,3,0,0,0,10,3.614,0,0,1,1,0,0,VALID,0,0,0,0,0,1,0,0,0,0,0,0,0,0,0,0,0,0,0,0,335.58,434.16,2,0,0.08,0.08,493,14.29,0.08,0.06,33.82,FLYING,CF1-H,0:/Integrated Flight Computer/aircraft/cf1_h_cfg.ks (inferred preloaded)
34.2,TAKEOFF,TO_CLIMB,131.52,80,-51.52,107.79,17.85,7.85,0.3,90.41,-0.091,0.78,0,0,0,0,0,0,0,0,0,90.4,8,0,1,7.73,0,0,8,90.4,-0.9995,-0.0068,-0.0308,8,90.4,0,0,0,0,0,0,3,0,0,0,69,0,0,0,90.4,1,0,0.013,0,0,3,0,0,0,10,3.614,0,0,1,1,0,0,VALID,0,0,0,0,0,1,0,0,0,0,0,0,0,0,0,0,0,0,0,0,334.86,433.17,2,0,0.08,0.08,497,14.29,0.08,0.06,34.1,FLYING,CF1-H,0:/Integrated Flight Computer/aircraft/cf1_h_cfg.ks (inferred preloaded)
34.48,TAKEOFF,TO_CLIMB,132.6,80,-52.6,112.9,18.08,7.82,0.23,90.41,-0.077,0.78,0,0,0,0,0,0,0,0,0,90.4,8,0,1,7.77,0,0,8,90.4,-0.9995,-0.0068,-0.0309,8,90.4,0,0,0,0,0,0,3,0,0,0,69,0,0,0,90.4,1,0,0.012,0,0,3,0,0,0,10,3.614,0,0,1,1,0,0,VALID,0,0,0,0,0,1,0,0,0,0,0,0,0,0,0,0,0,0,0,0,334.15,432.18,2,0,0.08,0.08,501,14.29,0.08,0.06,34.38,FLYING,CF1-H,0:/Integrated Flight Computer/aircraft/cf1_h_cfg.ks (inferred preloaded)
34.76,TAKEOFF,TO_CLIMB,133.67,80,-53.67,118.07,18.3,7.79,0.17,90.41,-0.065,0.78,0,0,0,0,0,0,0,0,0,90.4,8,0,1,7.8,0,0,8,90.4,-0.9995,-0.0068,-0.0309,8,90.4,0,0,0,0,0,0,3,0,0,0,69,0,0,0,90.4,1,0,0.01,0,0,3,0,0,0,10,3.614,0,0,1,1,0,0,VALID,0,0,0,0,0,1,0,0,0,0,0,0,0,0,0,0,0,0,0,0,333.45,431.21,2,0,0.08,0.08,505,14.29,0.08,0.06,34.66,FLYING,CF1-H,0:/Integrated Flight Computer/aircraft/cf1_h_cfg.ks (inferred preloaded)
35.04,TAKEOFF,TO_CLIMB,134.74,80,-54.74,123.35,18.52,7.76,0.11,90.41,-0.056,0.78,0,0,0,0,0,0,0,0,0,90.4,8,0,1,7.83,0,0,8,90.4,-0.9995,-0.0068,-0.031,8,90.4,0,0,0,0,0,0,3,0,0,0,69,0,0,0,90.4,1,0,0.009,0,0,3,0,0,0,10,3.614,0,0,1,1,0,0,VALID,0,0,0,0,0,1,0,0,0,0,0,0,0,0,0,0,0,0,0,0,332.74,430.23,2,0,0.08,0.08,509,14.29,0.08,0.06,34.94,FLYING,CF1-H,0:/Integrated Flight Computer/aircraft/cf1_h_cfg.ks (inferred preloaded)
35.32,TAKEOFF,TO_CLIMB,135.8,80,-55.8,128.63,18.73,7.72,0.05,90.41,-0.048,0.78,0,0,0,0,0,0,0,0,0,90.4,8,0,1,7.85,0,0,8,90.4,-0.9995,-0.0068,-0.031,8,90.4,0,0,0,0,0,0,3,0,0,0,69,0,0,0,90.4,1,0,0.008,0,0,3,0,0,0,10,3.614,0,0,1,1,0,0,VALID,0,0,0,0,0,1,0,0,0,0,0,0,0,0,0,0,0,0,0,0,332.05,429.27,2,0,0.08,0.08,513,14.29,0.08,0.06,35.22,FLYING,CF1-H,0:/Integrated Flight Computer/aircraft/cf1_h_cfg.ks (inferred preloaded)
35.6,TAKEOFF,TO_CLIMB,136.86,80,-56.86,133.98,18.93,7.69,0,90.41,-0.044,0.78,0,0,0,0,0,0,0,0,0,90.4,8,0,1,7.88,0,0,8,90.4,-0.9995,-0.0068,-0.0311,8,90.4,0,0,0,0,0,0,3,0,0,0,69,0,0,0,90.4,1,0,0.007,0,0,3,0,0,0,10,3.614,0,0,1,1,0,0,VALID,0,0,0,0,0,1,0,0,0,0,0,0,0,0,0,0,0,0,0,0,331.35,428.31,2,0,0.08,0.08,517,14.29,0.08,0.06,35.5,FLYING,CF1-H,0:/Integrated Flight Computer/aircraft/cf1_h_cfg.ks (inferred preloaded)
35.88,TAKEOFF,TO_CLIMB,137.91,80,-57.91,139.37,19.13,7.66,-0.06,90.41,-0.039,0.78,0,0,0,0,0,0,0,0,0,90.4,8,0,1,7.9,0,0,8,90.4,-0.9995,-0.0068,-0.0312,8,90.4,0,0,0,0,0,0,3,0,0,0,69,0,0,0,90.4,1,0,0.006,0,0,3,0,0,0,10,3.614,0,0,1,1,0,0,VALID,0,0,0,0,0,1,0,0,0,0,0,0,0,0,0,0,0,0,0,0,330.66,427.36,2,0,0.08,0.08,521,14.29,0.08,0.06,35.78,FLYING,CF1-H,0:/Integrated Flight Computer/aircraft/cf1_h_cfg.ks (inferred preloaded)
36.16,TAKEOFF,TO_CLIMB,138.95,80,-58.95,144.82,19.33,7.63,-0.11,90.41,-0.037,0.78,0,0,0,0,0,0,0,0,0,90.4,8,0,1,7.92,0,0,8,90.4,-0.9995,-0.0068,-0.0312,8,90.4,0,0,0,0,0,0,3,0,0,0,69,0,0,0,90.4,1,0,0.006,0,0,3,0,0,0,10,3.614,0,0,1,1,0,0,VALID,0,0,0,0,0,1,0,0,0,0,0,0,0,0,0,0,0,0,0,0,329.97,426.41,2,0,0.08,0.08,525,14.29,0.08,0.06,36.06,FLYING,CF1-H,0:/Integrated Flight Computer/aircraft/cf1_h_cfg.ks (inferred preloaded)
36.44,TAKEOFF,TO_CLIMB,139.99,80,-59.99,150.33,19.52,7.6,-0.16,90.41,-0.034,0.78,0,0,0,0,0,0,0,0,0,90.4,8,0,1,7.94,0,0,8,90.4,-0.9995,-0.0068,-0.0313,8,90.4,0,0,0,0,0,0,3,0,0,0,69,0,0,0,90.4,1,0,0.005,0,0,3,0,0,0,10,3.614,0,0,1,1,0,0,VALID,0,0,0,0,0,1,0,0,0,0,0,0,0,0,0,0,0,0,0,0,329.29,425.47,2,0,0.08,0.08,529,14.29,0.08,0.06,36.34,FLYING,CF1-H,0:/Integrated Flight Computer/aircraft/cf1_h_cfg.ks (inferred preloaded)
36.72,TAKEOFF,TO_CLIMB,141.02,80,-61.02,155.88,19.71,7.57,-0.21,90.4,-0.031,0.78,0,0,0,0,0,0,0,0,0,90.4,8,0,1,7.96,0,0,8,90.4,-0.9995,-0.0068,-0.0314,8,90.4,0,0,0,0,0,0,3,0,0,0,69,0,0,0,90.4,1,0,0.005,0,0,3,0,0,0,10,3.614,0,0,1,1,0,0,VALID,0,0,0,0,0,1,0,0,0,0,0,0,0,0,0,0,0,0,0,0,328.61,424.54,2,0,0.08,0.08,533,14.29,0.08,0.06,36.62,FLYING,CF1-H,0:/Integrated Flight Computer/aircraft/cf1_h_cfg.ks (inferred preloaded)
37,TAKEOFF,TO_CLIMB,142.05,80,-62.05,161.49,19.89,7.54,-0.25,90.4,-0.029,0.78,0,0,0,0,0,0,0,0,0,90.4,8,0,1,7.97,0,0,8,90.4,-0.9995,-0.0068,-0.0314,8,90.4,0,0,0,0,0,0,3,0,0,0,69,0,0,0,90.4,1,0,0.005,0,0,3,0,0,0,10,3.614,0,0,1,1,0,0,VALID,0,0,0,0,0,1,0,0,0,0,0,0,0,0,0,0,0,0,0,0,327.94,423.62,2,0,0.08,0.08,537,14.29,0.08,0.06,36.9,FLYING,CF1-H,0:/Integrated Flight Computer/aircraft/cf1_h_cfg.ks (inferred preloaded)
37.28,TAKEOFF,TO_CLIMB,143.07,80,-63.07,167.09,20.08,7.51,-0.3,90.4,-0.027,0.78,0,0,0,0,0,0,0,0,0,90.4,8,0,1,7.99,0,0,8,90.4,-0.9995,-0.0068,-0.0315,8,90.4,0,0,0,0,0,0,3,0,0,0,69,0,0,0,90.4,1,0,0.004,0,0,3,0,0,0,10,3.614,0,0,1,1,0,0,VALID,0,0,0,0,0,1,0,0,0,0,0,0,0,0,0,0,0,0,0,0,327.27,422.7,2,0,0.08,0.08,541,14.29,0.08,0.06,37.18,FLYING,CF1-H,0:/Integrated Flight Computer/aircraft/cf1_h_cfg.ks (inferred preloaded)
37.56,TAKEOFF,TO_CLIMB,144.08,80,-64.08,172.8,20.26,7.48,-0.34,90.4,-0.025,0.78,0,0,0,0,0,0,0,0,0,90.4,8,0,1,8,0,0,8,90.4,-0.9995,-0.0068,-0.0316,8,90.4,0,0,0,0,0,0,3,0,0,0,69,0,0,0,90.4,1,0,0.004,0,0,3,0,0,0,10,3.614,0,0,1,1,0,0,VALID,0,0,0,0,0,1,0,0,0,0,0,0,0,0,0,0,0,0,0,0,326.61,421.79,2,0,0.08,0.08,545,14.29,0.08,0.06,37.46,FLYING,CF1-H,0:/Integrated Flight Computer/aircraft/cf1_h_cfg.ks (inferred preloaded)
37.84,TAKEOFF,TO_CLIMB,145.09,80,-65.09,178.56,20.44,7.46,-0.38,90.4,-0.023,0.78,0,0,0,0,0,0,0,0,0,90.4,8,0,1,8.02,0,0,8,90.4,-0.9995,-0.0068,-0.0316,8,90.4,0,0,0,0,0,0,3,0,0,0,69,0,0,0,90.4,1,0,0.004,0,0,3,0,0,0,10,3.614,0,0,1,1,0,0,VALID,0,0,0,0,0,1,0,0,0,0,0,0,0,0,0,0,0,0,0,0,325.95,420.89,2,0,0.08,0.08,549,14.29,0.08,0.06,37.74,FLYING,CF1-H,0:/Integrated Flight Computer/aircraft/cf1_h_cfg.ks (inferred preloaded)
38.12,TAKEOFF,TO_CLIMB,146.09,80,-66.09,184.36,20.61,7.43,-0.42,90.4,-0.022,0.78,0,0,0,0,0,0,0,0,0,90.4,8,0,1,8.03,0,0,8,90.4,-0.9995,-0.0068,-0.0317,8,90.4,0,0,0,0,0,0,3,0,0,0,69,0,0,0,90.4,1,0,0.004,0,0,3,0,0,0,10,3.614,0,0,1,1,0,0,VALID,0,0,0,0,0,1,0,0,0,0,0,0,0,0,0,0,0,0,0,0,325.3,419.99,2,0,0.08,0.08,553,14.29,0.08,0.06,38.02,FLYING,CF1-H,0:/Integrated Flight Computer/aircraft/cf1_h_cfg.ks (inferred preloaded)
38.4,TAKEOFF,TO_CLIMB,147.09,80,-67.09,190.22,20.79,7.4,-0.46,90.4,-0.021,0.78,0,0,0,0,0,0,0,0,0,90.4,8,0,1,8.04,0,0,8,90.4,-0.9995,-0.0068,-0.0318,8,90.4,0,0,0,0,0,0,3,0,0,0,69,0,0,0,90.4,1,0,0.004,0,0,3,0,0,0,10,3.614,0,0,1,1,0,0,VALID,0,0,0,0,0,1,0,0,0,0,0,0,0,0,0,0,0,0,0,0,324.65,419.11,2,0,0.08,0.08,557,14.29,0.08,0.06,38.3,FLYING,CF1-H,0:/Integrated Flight Computer/aircraft/cf1_h_cfg.ks (inferred preloaded)
38.68,TAKEOFF,TO_CLIMB,148.08,80,-68.08,196.07,20.96,7.38,-0.5,90.4,-0.019,0.78,0,0,0,0,0,0,0,0,0,90.4,8,0,1,8.06,0,0,8,90.4,-0.9995,-0.0068,-0.0319,8,90.4,0,0,0,0,0,0,3,0,0,0,69,0,0,0,90.4,1,0,0.004,0,0,3,0,0,0,10,3.614,0,0,1,1,0,0,VALID,0,0,0,0,0,1,0,0,0,0,0,0,0,0,0,0,0,0,0,0,324,418.22,2,0,0.08,0.08,561,14.29,0.08,0.06,38.58,FLYING,CF1-H,0:/Integrated Flight Computer/aircraft/cf1_h_cfg.ks (inferred preloaded)
38.96,TAKEOFF,TO_CLIMB,149.07,80,-69.07,202.03,21.13,7.35,-0.54,90.4,-0.018,0.78,0,0,0,0,0,0,0,0,0,90.4,8,0,1,8.07,0,0,8,90.4,-0.9995,-0.0068,-0.0319,8,90.4,0,0,0,0,0,0,3,0,0,0,69,0,0,0,90.4,1,0,0.004,0,0,3,0,0,0,10,3.614,0,0,1,1,0,0,VALID,0,0,0,0,0,1,0,0,0,0,0,0,0,0,0,0,0,0,0,0,323.36,417.35,2,0,0.08,0.08,565,14.29,0.08,0.06,38.86,FLYING,CF1-H,0:/Integrated Flight Computer/aircraft/cf1_h_cfg.ks (inferred preloaded)
39.24,TAKEOFF,TO_CLIMB,150.05,80,-70.05,208.03,21.3,7.32,-0.58,90.4,-0.017,0.78,0,0,0,0,0,0,0,0,0,90.4,8,0,1,8.08,0,0,8,90.4,-0.9995,-0.0068,-0.032,8,90.4,0,0,0,0,0,0,3,0,0,0,69,0,0,0,90.4,1,0,0.004,0,0,3,0,0,0,10,3.614,0,0,1,1,0,0,VALID,0,0,0,0,0,1,0,0,0,0,0,0,0,0,0,0,0,0,0,0,322.73,416.49,2,0,0.08,0.08,569,14.29,0.08,0.06,39.14,FLYING,CF1-H,0:/Integrated Flight Computer/aircraft/cf1_h_cfg.ks (inferred preloaded)
