t_s,phase,subphase,ias_ms,vapp_ms,spd_err_ms,agl_m,vs_ms,pitch_deg,aoa_deg,hdg_deg,bank_deg,thr_cmd,thr_cur,thr_intg,at_gain,at_tau_s,at_a_up,at_a_dn,at_kp_thr,at_ki_spd,at_thr_slew,aa_hdg_cmd_deg,aa_fpa_cmd_deg,aa_fbw,aa_dir,actual_fpa_deg,ftf_hdg_err_deg,ftf_fix_idx,kos_steer_pit_deg,kos_steer_hdg_deg,aa_dir_vx,aa_dir_vy,aa_dir_vz,aa_dir_pitch_deg,aa_dir_hdg_deg,ils_loc_m,ils_gs_m,ils_dist_km,loc_corr_deg,gs_corr_deg,flare_fpa_cmd,flare_tgt_vs,flare_frac,steer_hdg_deg,steer_blend,ro_loc_corr_deg,ro_hdg_err_deg,ro_yaw_tgt,ro_yaw_scale,ro_yaw_gate,yaw_cmd,roll_cmd,pitch_cmd,ro_pitch_tgt_deg,ro_pitch_err_deg,ro_pitch_ff,ro_roll_assist,flaps_cur,flaps_tgt,asc_j_ab,asc_j_rk,asc_validity,asc_q_pa,asc_q_raw_pa,asc_mach,asc_apo_m,asc_drag_n,asc_w_prop,asc_edot_aero,asc_edot_orb,asc_pitch_bias,asc_blend,asc_spooling,asc_ab_thr_ratio,asc_ab_t_now,asc_ab_t_avail,asc_ab_ign_on,asc_ab_flameouts,asc_rk_t_now,asc_rk_t_avail,asc_rk_ign_on,asc_rk_flameouts,ship_thrust,ship_avail_thrust,ship_ign_on,ship_flameouts,ifc_raw_dt_s,ifc_dt_s,ifc_loop_n,ifc_hz_est,ifc_raw_dt_max_s,ifc_raw_dt_min_s,phase_el_s,status,craft_name,cfg_file
0.12,APPROACH,FLY_TO_FIX,234.41,73.08,-161.33,1448.48,-10.82,-4.06,-1.57,89.88,-0.921,0,0,0,1,0.6,0.9,0.75,0.35,0.0168,0.4,179.88,0,1,0,-2.64,177.97,0,0,90,0,0,0,0,0,0,0,55.265,0,0,0,0,0,89.89,0,0,0,0,0,0,0,0,0,0,0,0,0,0,0,0,0,VALID,0,0,0,0,0,1,0,0,0,0,0,0,0,0,0,0,0,0,0,0,72.85,348.92,2,0,0.1,0.1,1,3.45,0.1,0.02,0.12,FLYING,CF1-F,0:/Integrated Flight Computer/aircraft/cf1_f_cfg.ks (inferred preloaded)
0.42,APPROACH,FLY_TO_FIX,234.61,73.32,-161.29,1445.28,-10.61,-4,-1.55,89.89,-0.54,0,0,0,1,0.6,1.508,0.75,0.35,0.0168,0.4,179.89,0,0,0,-2.59,177.97,0,0,179.89,0,0,0,0,0,0,0,55.339,0,0,0,0,0,89.89,0,0,0,0,0,0,0,0,0,0,0,0,0,0,0,0,0,VALID,0,0,0,0,0,1,0,0,0,0,0,0,0,0,0,0,0,0,0,0,67.6,349.07,2,0,0.06,0.06,5,13.33,0.1,0.06,0.42,FLYING,CF1-F,0:/Integrated Flight Computer/aircraft/cf1_f_cfg.ks (inferred preloaded)
0.72,APPROACH,FLY_TO_FIX,234.74,73.56,-161.18,1442.14,-10.4,-3.96,-1.56,89.95,2.004,0,0,0,1,0.6,2.335,0.75,0.35,0.0168,0.4,179.95,0,0,0,-2.54,177.91,0,0,179.92,0,0,0,0,0,0,0,55.414,0,0,0,0,0,89.89,0,0,0,0,0,0,0,0,0,0,0,0,0,0,0,0,0,VALID,0,0,0,0,0,1,0,0,0,0,0,0,0,0,0,0,0,0,0,0,62.73,349.21,2,0,0.08,0.08,9,13.33,0.08,0.06,0.72,FLYING,CF1-F,0:/Integrated Flight Computer/aircraft/cf1_f_cfg.ks (inferred preloaded)
1,APPROACH,FLY_TO_FIX,234.66,73.78,-160.88,1439.25,-10.23,-3.97,-1.57,90.11,8.116,0,0,0,1,0.6,2.928,0.75,0.35,0.0168,0.4,180.11,0,0,0,-2.5,177.76,0,0,180.07,0,0,0,0,0,0,0,55.483,0,0,0,0,0,89.89,0,0,0,0,0,0,0,0,0,0,0,0,0,0,0,0,0,VALID,0,0,0,0,0,1,0,0,0,0,0,0,0,0,0,0,0,0,0,0,58.5,349.31,2,0,0.06,0.06,13,14.29,0.08,0.06,1,FLYING,CF1-F,0:/Integrated Flight Computer/aircraft/cf1_f_cfg.ks (inferred preloaded)
1.28,APPROACH,FLY_TO_FIX,234.49,74.01,-160.49,1436.4,-10.13,-4.03,-1.57,90.27,16.045,0,0,0,1,0.6,3.353,0.75,0.35,0.0168,0.4,180.27,0,0,0,-2.47,177.61,0,0,180.23,0,0,0,0,0,0,0,55.552,0,0,0,0,0,89.89,0,0,0,0,0,0,0,0,0,0,0,0,0,0,0,0,0,VALID,0,0,0,0,0,1,0,0,0,0,0,0,0,0,0,0,0,0,0,0,54.55,349.39,2,0,0.06,0.06,17,14.29,0.08,0.06,1.28,FLYING,CF1-F,0:/Integrated Flight Computer/aircraft/cf1_f_cfg.ks (inferred preloaded)
1.56,APPROACH,FLY_TO_FIX,234.28,74.23,-160.05,1433.56,-10.18,-4.18,-1.62,90.39,24.663,0,0,0,1,0.6,3.658,0.75,0.35,0.0168,0.4,180.39,0,0,0,-2.49,177.49,0,0,180.37,0,0,0,0,0,0,0,55.621,0,0,0,0,0,89.89,0,0,0,0,0,0,0,0,0,0,0,0,0,0,0,0,0,VALID,0,0,0,0,0,1,0,0,0,0,0,0,0,0,0,0,0,0,0,0,50.86,349.46,2,0,0.06,0.06,21,14.29,0.08,0.06,1.56,FLYING,CF1-F,0:/Integrated Flight Computer/aircraft/cf1_f_cfg.ks (inferred preloaded)
1.84,APPROACH,FLY_TO_FIX,234.04,74.46,-159.59,1430.62,-11.08,-4.43,-1.61,90.47,33.502,0,0,0,1,0.6,3.876,0.75,0.35,0.0168,0.4,180.47,0,0,0,-2.68,177.42,0,0,180.33,0,0,0,0,0,0,0,55.69,0,0,0,0,0,89.89,0,0,0,0,0,0,0,0,0,0,0,0,0,0,0,0,0,VALID,0,0,0,0,0,1,0,0,0,0,0,0,0,0,0,0,0,0,0,0,47.42,349.54,2,0,0.06,0.06,25,14.29,0.08,0.06,1.84,FLYING,CF1-F,0:/Integrated Flight Computer/aircraft/cf1_f_cfg.ks (inferred preloaded)
2.12,APPROACH,FLY_TO_FIX,233.75,74.68,-159.07,1428.13,-9.02,-2.05,0.97,92.64,42.392,0,0,-12.566,1,0.6,4.033,0.75,0.35,0.0168,0.4,182.64,0,0,0,-2.28,175.26,0,0,182.24,0,0,0,0,0,0,0,55.759,0,0,0,0,0,89.89,0,0,0,0,0,0,0,0,0,0,0,0,0,0,0,0,0,VALID,0,0,0,0,0,1,0,0,0,0,0,0,0,0,0,0,0,0,0,0,44.22,349.61,2,0,0.06,0.06,29,14.29,0.08,0.06,2.12,FLYING,CF1-F,0:/Integrated Flight Computer/aircraft/cf1_f_cfg.ks (inferred preloaded)
2.4,APPROACH,FLY_TO_FIX,233.21,74.9,-158.31,1426.23,-5.98,-1.42,1.06,94.04,51.252,0,0,-19.9,1,0.6,4.146,0.75,0.35,0.0168,0.4,184.04,0,0,0,-1.52,173.87,0,0,183.68,0,0,0,0,0,0,0,55.828,0,0,0,0,0,89.89,0,0,0,0,0,0,0,0,0,0,0,0,0,0,0,0,0,VALID,0,0,0,0,0,1,0,0,0,0,0,0,0,0,0,0,0,0,0,0,41.22,349.61,2,0,0.06,0.06,33,14.29,0.08,0.06,2.4,FLYING,CF1-F,0:/Integrated Flight Computer/aircraft/cf1_f_cfg.ks (inferred preloaded)
2.68,APPROACH,FLY_TO_FIX,232.63,75.13,-157.51,1425.02,-3.81,-1,1.22,95.77,59.754,0.0003,0,-20,1,0.6,4.226,0.892,0.35,0.0168,0.4,185.77,0,0,0,-0.97,172.15,0,0,185.39,0,0,0,0,0,0,0,55.897,0,0,0,0,0,89.89,0,0,0,0,0,0,0,0,0,0,0,0,0,0,0,0,0,VALID,0,0,0,0,0,1,0,0,0,0,0,0,0,0,0,0,0,0,0,0,38.44,349.58,2,0,0.06,0.06,37,14.29,0.08,0.06,2.68,FLYING,CF1-F,0:/Integrated Flight Computer/aircraft/cf1_f_cfg.ks (inferred preloaded)
2.96,APPROACH,FLY_TO_FIX,232.17,75.35,-156.81,1424.24,-2.52,-0.72,1.31,97.6,65.835,0,0,-19.603,1,0.6,4.284,1.053,0.35,0.0168,0.4,187.6,0,0,0,-0.64,170.34,0,0,187.21,0,0,0,0,0,0,0,55.965,0,0,0,0,0,89.89,0,0,0,0,0,0,0,0,0,0,0,0,0,0,0,0,0,VALID,0,0,0,0,0,1,0,0,0,0,0,0,0,0,0,0,0,0,0,0,35.85,349.54,2,0,0.06,0.06,41,14.29,0.08,0.06,2.96,FLYING,CF1-F,0:/Integrated Flight Computer/aircraft/cf1_f_cfg.ks (inferred preloaded)
3.24,APPROACH,FLY_TO_FIX,231.75,75.58,-156.17,1423.7,-1.87,-0.49,1.32,99.44,69.411,0,0,-19.214,1,0.6,4.325,1.166,0.35,0.0168,0.4,189.44,0,0,0,-0.47,168.52,0,0,189.05,0,0,0,0,0,0,0,56.033,0,0,0,0,0,89.89,0,0,0,0,0,0,0,0,0,0,0,0,0,0,0,0,0,VALID,0,0,0,0,0,1,0,0,0,0,0,0,0,0,0,0,0,0,0,0,33.42,349.5,2,0,0.06,0.06,45,14.29,0.08,0.06,3.24,FLYING,CF1-F,0:/Integrated Flight Computer/aircraft/cf1_f_cfg.ks (inferred preloaded)
3.52,APPROACH,FLY_TO_FIX,231.34,75.8,-155.54,1423.28,-1.54,-0.24,1.31,101.29,70.394,0,0,-18.832,1,0.6,4.354,1.244,0.35,0.0168,0.4,191.29,0,0,0,-0.39,166.71,0,0,190.89,0,0,0,0,0,0,0,56.101,0,0,0,0,0,89.89,0,0,0,0,0,0,0,0,0,0,0,0,0,0,0,0,0,VALID,0,0,0,0,0,1,0,0,0,0,0,0,0,0,0,0,0,0,0,0,31.15,349.46,2,0,0.06,0.06,49,14.29,0.08,0.06,3.52,FLYING,CF1-F,0:/Integrated Flight Computer/aircraft/cf1_f_cfg.ks (inferred preloaded)
3.8,APPROACH,FLY_TO_FIX,230.93,76.02,-154.9,1422.92,-1.3,-0.05,1.3,103.15,70.918,0,0,-18.459,1,0.6,4.375,1.304,0.35,0.0168,0.4,193.15,0,0,0,-0.33,164.88,0,0,192.75,0,0,0,0,0,0,0,56.168,0,0,0,0,0,89.89,0,0,0,0,0,0,0,0,0,0,0,0,0,0,0,0,0,VALID,0,0,0,0,0,1,0,0,0,0,0,0,0,0,0,0,0,0,0,0,29.03,349.42,2,0,0.06,0.06,53,14.29,0.08,0.06,3.8,FLYING,CF1-F,0:/Integrated Flight Computer/aircraft/cf1_f_cfg.ks (inferred preloaded)
4.08,APPROACH,FLY_TO_FIX,230.51,76.25,-154.26,1422.6,-1.14,0.06,1.29,105.03,71.259,0,0,-18.092,1,0.6,4.39,1.355,0.35,0.0168,0.4,195.03,0,0,0,-0.29,163.03,0,0,194.63,0,0,0,0,0,0,0,56.234,0,0,0,0,0,89.89,0,0,0,0,0,0,0,0,0,0,0,0,0,0,0,0,0,VALID,0,0,0,0,0,1,0,0,0,0,0,0,0,0,0,0,0,0,0,0,27.06,349.37,2,0,0.06,0.06,57,14.29,0.08,0.06,4.08,FLYING,CF1-F,0:/Integrated Flight Computer/aircraft/cf1_f_cfg.ks (inferred preloaded)
4.36,APPROACH,FLY_TO_FIX,230.08,76.47,-153.61,1422.31,-1.04,0.12,1.28,106.91,71.457,0,0,-17.733,1,0.6,4.4,1.4,0.35,0.0168,0.4,196.91,0,0,0,-0.26,161.19,0,0,196.51,0,0,0,0,0,0,0,56.3,0,0,0,0,0,89.89,0,0,0,0,0,0,0,0,0,0,0,0,0,0,0,0,0,VALID,0,0,0,0,0,1,0,0,0,0,0,0,0,0,0,0,0,0,0,0,25.22,349.32,2,0,0.06,0.06,61,14.29,0.08,0.06,4.36,FLYING,CF1-F,0:/Integrated Flight Computer/aircraft/cf1_f_cfg.ks (inferred preloaded)
4.64,APPROACH,FLY_TO_FIX,229.65,76.7,-152.96,1422.04,-0.97,0.16,1.28,108.81,71.566,0,0,-17.381,1,0.6,4.407,1.441,0.35,0.0168,0.4,198.81,0,0,0,-0.24,159.35,0,0,198.4,0,0,0,0,0,0,0,56.366,0,0,0,0,0,89.89,0,0,0,0,0,0,0,0,0,0,0,0,0,0,0,0,0,VALID,0,0,0,0,0,1,0,0,0,0,0,0,0,0,0,0,0,0,0,0,23.51,349.27,2,0,0.06,0.06,65,14.29,0.08,0.06,4.64,FLYING,CF1-F,0:/Integrated Flight Computer/aircraft/cf1_f_cfg.ks (inferred preloaded)
4.92,APPROACH,FLY_TO_FIX,229.22,76.92,-152.3,1421.78,-0.93,0.19,1.3,110.73,71.654,0,0,-17.036,1,0.6,4.412,1.479,0.35,0.0168,0.4,200.73,0,0,0,-0.23,157.48,0,0,200.32,0,0,0,0,0,0,0,56.43,0,0,0,0,0,89.89,0,0,0,0,0,0,0,0,0,0,0,0,0,0,0,0,0,VALID,0,0,0,0,0,1,0,0,0,0,0,0,0,0,0,0,0,0,0,0,21.92,349.22,2,0,0.06,0.06,69,14.29,0.08,0.06,4.92,FLYING,CF1-F,0:/Integrated Flight Computer/aircraft/cf1_f_cfg.ks (inferred preloaded)
5.2,APPROACH,FLY_TO_FIX,228.77,77,-151.77,1421.53,-0.9,0.23,1.42,112.74,71.775,0,0,-16.698,1,0.6,4.416,1.515,0.35,0.0168,0.4,202.74,0,0,0,-0.23,155.52,0,0,202.28,0,0,0,0,0,0,0,56.494,0,0,0,0,0,89.89,0,0,0,0,0,0,0,0,0,0,0,0,0,0,0,0,0,VALID,0,0,0,0,0,1,0,0,0,0,0,0,0,0,0,0,0,0,0,0,20.43,349.17,2,0,0.06,0.06,73,14.29,0.08,0.06,5.2,FLYING,CF1-F,0:/Integrated Flight Computer/aircraft/cf1_f_cfg.ks (inferred preloaded)
5.5,APPROACH,FLY_TO_FIX,228.27,77,-151.27,1421.28,-0.83,0.23,1.36,114.78,71.86,0,0,-16.366,1,0.6,4.418,1.554,0.35,0.0168,0.4,204.78,0,0,0,-0.21,153.55,0,0,204.38,0,0,0,0,0,0,0,56.561,0,0,0,0,0,89.89,0,0,0,0,0,0,0,0,0,0,0,0,0,0,0,0,0,VALID,0,0,0,0,0,1,0,0,0,0,0,0,0,0,0,0,0,0,0,0,18.94,349.11,2,0,0.06,0.06,77,13.33,0.08,0.06,5.5,FLYING,CF1-F,0:/Integrated Flight Computer/aircraft/cf1_f_cfg.ks (inferred preloaded)
5.82,APPROACH,FLY_TO_FIX,227.73,77,-150.73,1421.02,-0.77,0.27,1.43,117.08,71.928,0,0,-16.042,1,0.6,4.419,1.594,0.35,0.0168,0.4,207.08,0,0,0,-0.19,151.32,0,0,206.56,0,0,0,0,0,0,0,56.631,0,0,0,0,0,89.89,0,0,0,0,0,0,0,0,0,0,0,0,0,0,0,0,0,VALID,0,0,0,0,0,1,0,0,0,0,0,0,0,0,0,0,0,0,0,0,17.48,349.05,2,0,0.08,0.08,81,12.5,0.1,0.06,5.82,FLYING,CF1-F,0:/Integrated Flight Computer/aircraft/cf1_f_cfg.ks (inferred preloaded)
6.1,APPROACH,FLY_TO_FIX,227.25,77,-150.25,1420.81,-0.75,0.29,1.47,119.06,71.948,0,0,-15.723,1,0.6,4.42,1.634,0.35,0.0168,0.4,209.06,0,0,0,-0.19,149.41,0,0,208.64,0,0,0,0,0,0,0,56.691,0,0,0,0,0,89.89,0,0,0,0,0,0,0,0,0,0,0,0,0,0,0,0,0,VALID,0,0,0,0,0,1,0,0,0,0,0,0,0,0,0,0,0,0,0,0,16.29,348.99,2,0,0.06,0.06,85,14.29,0.08,0.06,6.1,FLYING,CF1-F,0:/Integrated Flight Computer/aircraft/cf1_f_cfg.ks (inferred preloaded)
6.4,APPROACH,FLY_TO_FIX,226.73,77,-149.73,1420.58,-0.76,0.27,1.4,121.06,71.939,0,0,-15.411,1,0.6,4.421,1.672,0.35,0.0168,0.4,211.06,0,0,0,-0.19,147.48,0,0,210.63,0,0,0,0,0,0,0,56.754,0,0,0,0,0,89.89,0,0,0,0,0,0,0,0,0,0,0,0,0,0,0,0,0,VALID,0,0,0,0,0,1,0,0,0,0,0,0,0,0,0,0,0,0,0,0,15.11,348.94,2,0,0.06,0.06,89,13.33,0.08,0.06,6.4,FLYING,CF1-F,0:/Integrated Flight Computer/aircraft/cf1_f_cfg.ks (inferred preloaded)
6.72,APPROACH,FLY_TO_FIX,226.17,77,-149.17,1420.35,-0.72,0.3,1.5,123.39,72.012,0,0,-15.105,1,0.6,4.421,1.706,0.35,0.0168,0.4,213.39,0,0,0,-0.18,145.24,0,0,212.83,0,0,0,0,0,0,0,56.82,0,0,0,0,0,89.89,0,0,0,0,0,0,0,0,0,0,0,0,0,0,0,0,0,VALID,0,0,0,0,0,1,0,0,0,0,0,0,0,0,0,0,0,0,0,0,13.94,348.87,2,0,0.08,0.08,93,12.5,0.1,0.06,6.72,FLYING,CF1-F,0:/Integrated Flight Computer/aircraft/cf1_f_cfg.ks (inferred preloaded)
7.02,APPROACH,FLY_TO_FIX,225.63,77,-148.63,1420.14,-0.7,0.31,1.52,125.53,72.078,0,0,-14.805,1,0.6,4.42,1.742,0.35,0.0168,0.4,215.53,0,0,0,-0.18,143.19,0,0,215.1,0,0,0,0,0,0,0,56.881,0,0,0,0,0,89.89,0,0,0,0,0,0,0,0,0,0,0,0,0,0,0,0,0,VALID,0,0,0,0,0,1,0,0,0,0,0,0,0,0,0,0,0,0,0,0,12.93,348.81,2,0,0.06,0.06,97,13.33,0.1,0.06,7.02,FLYING,CF1-F,0:/Integrated Flight Computer/aircraft/cf1_f_cfg.ks (inferred preloaded)
7.32,APPROACH,FLY_TO_FIX,225.09,77,-148.09,1419.93,-0.7,0.32,1.53,127.64,72.096,0,0,-14.511,1,0.6,4.42,1.776,0.35,0.0168,0.4,217.64,0,0,0,-0.18,141.17,0,0,217.22,0,0,0,0,0,0,0,56.939,0,0,0,0,0,89.89,0,0,0,0,0,0,0,0,0,0,0,0,0,0,0,0,0,VALID,0,0,0,0,0,1,0,0,0,0,0,0,0,0,0,0,0,0,0,0,11.99,348.75,2,0,0.06,0.06,101,13.33,0.08,0.06,7.32,FLYING,CF1-F,0:/Integrated Flight Computer/aircraft/cf1_f_cfg.ks (inferred preloaded)
7.64,APPROACH,FLY_TO_FIX,224.5,77,-147.5,1419.71,-0.7,0.32,1.55,129.9,72.08,0,0,-14.223,1,0.6,4.42,1.807,0.35,0.0168,0.4,219.9,0,0,0,-0.18,139.01,0,0,219.33,0,0,0,0,0,0,0,57,0,0,0,0,0,89.89,0,0,0,0,0,0,0,0,0,0,0,0,0,0,0,0,0,VALID,0,0,0,0,0,1,0,0,0,0,0,0,0,0,0,0,0,0,0,0,11.07,348.69,2,0,0.08,0.08,105,12.5,0.1,0.06,7.64,FLYING,CF1-F,0:/Integrated Flight Computer/aircraft/cf1_f_cfg.ks (inferred preloaded)
7.92,APPROACH,FLY_TO_FIX,223.99,77,-146.99,1419.51,-0.72,0.32,1.54,131.86,72.034,0,0,-13.941,1,0.6,4.419,1.836,0.35,0.0168,0.4,221.86,0,0,0,-0.18,137.15,0,0,221.43,0,0,0,0,0,0,0,57.052,0,0,0,0,0,89.89,0,0,0,0,0,0,0,0,0,0,0,0,0,0,0,0,0,VALID,0,0,0,0,0,1,0,0,0,0,0,0,0,0,0,0,0,0,0,0,10.32,348.64,2,0,0.06,0.06,109,14.29,0.08,0.06,7.92,FLYING,CF1-F,0:/Integrated Flight Computer/aircraft/cf1_f_cfg.ks (inferred preloaded)
8.22,APPROACH,FLY_TO_FIX,223.45,77,-146.45,1419.29,-0.74,0.32,1.56,133.96,71.975,0,0,-13.664,1,0.6,4.418,1.86,0.35,0.0168,0.4,223.96,0,0,0,-0.19,135.14,0,0,223.54,0,0,0,0,0,0,0,57.105,0,0,0,0,0,89.89,0,0,0,0,0,0,0,0,0,0,0,0,0,0,0,0,0,VALID,0,0,0,0,0,1,0,0,0,0,0,0,0,0,0,0,0,0,0,0,9.57,348.58,2,0,0.06,0.06,113,13.33,0.08,0.06,8.22,FLYING,CF1-F,0:/Integrated Flight Computer/aircraft/cf1_f_cfg.ks (inferred preloaded)
8.54,APPROACH,FLY_TO_FIX,222.86,77,-145.86,1419.05,-0.76,0.32,1.56,136.19,71.898,0,0,-13.393,1,0.6,4.418,1.882,0.35,0.0168,0.4,226.19,0,0,0,-0.19,133.02,0,0,225.64,0,0,0,0,0,0,0,57.16,0,0,0,0,0,89.89,0,0,0,0,0,0,0,0,0,0,0,0,0,0,0,0,0,VALID,0,0,0,0,0,1,0,0,0,0,0,0,0,0,0,0,0,0,0,0,8.83,348.52,2,0,0.08,0.08,117,12.5,0.1,0.06,8.54,FLYING,CF1-F,0:/Integrated Flight Computer/aircraft/cf1_f_cfg.ks (inferred preloaded)
8.82,APPROACH,FLY_TO_FIX,222.35,77,-145.35,1418.83,-0.78,0.32,1.57,138.16,71.829,0,0,-13.127,1,0.6,4.417,1.901,0.35,0.0168,0.4,228.16,0,0,0,-0.2,131.16,0,0,227.74,0,0,0,0,0,0,0,57.207,0,0,0,0,0,89.89,0,0,0,0,0,0,0,0,0,0,0,0,0,0,0,0,0,VALID,0,0,0,0,0,1,0,0,0,0,0,0,0,0,0,0,0,0,0,0,8.23,348.48,2,0,0.06,0.06,121,14.29,0.08,0.06,8.82,FLYING,CF1-F,0:/Integrated Flight Computer/aircraft/cf1_f_cfg.ks (inferred preloaded)
9.12,APPROACH,FLY_TO_FIX,221.8,77,-144.8,1418.59,-0.8,0.32,1.58,140.25,71.753,0,0,-12.867,1,0.6,4.417,1.917,0.35,0.0168,0.4,230.25,0,0,0,-0.21,129.18,0,0,229.83,0,0,0,0,0,0,0,57.255,0,0,0,0,0,89.89,0,0,0,0,0,0,0,0,0,0,0,0,0,0,0,0,0,VALID,0,0,0,0,0,1,0,0,0,0,0,0,0,0,0,0,0,0,0,0,7.63,348.42,2,0,0.06,0.06,125,13.33,0.08,0.06,9.12,FLYING,CF1-F,0:/Integrated Flight Computer/aircraft/cf1_f_cfg.ks (inferred preloaded)
9.44,APPROACH,FLY_TO_FIX,221.22,77,-144.22,1418.33,-0.83,0.32,1.58,142.46,71.649,0,0,-12.611,1,0.6,4.416,1.931,0.35,0.0168,0.4,232.46,0,0,0,-0.21,127.09,0,0,231.91,0,0,0,0,0,0,0,57.303,0,0,0,0,0,89.89,0,0,0,0,0,0,0,0,0,0,0,0,0,0,0,0,0,VALID,0,0,0,0,0,1,0,0,0,0,0,0,0,0,0,0,0,0,0,0,7.04,348.37,2,0,0.08,0.08,129,12.5,0.1,0.06,9.44,FLYING,CF1-F,0:/Integrated Flight Computer/aircraft/cf1_f_cfg.ks (inferred preloaded)
9.74,APPROACH,FLY_TO_FIX,220.67,77,-143.67,1418.08,-0.85,0.32,1.6,144.55,71.561,0,0,-12.361,1,0.6,4.415,1.943,0.35,0.0168,0.4,234.55,0,0,0,-0.22,125.12,0,0,234.13,0,0,0,0,0,0,0,57.347,0,0,0,0,0,89.89,0,0,0,0,0,0,0,0,0,0,0,0,0,0,0,0,0,VALID,0,0,0,0,0,1,0,0,0,0,0,0,0,0,0,0,0,0,0,0,6.53,348.32,2,0,0.06,0.06,133,13.33,0.1,0.06,9.74,FLYING,CF1-F,0:/Integrated Flight Computer/aircraft/cf1_f_cfg.ks (inferred preloaded)
10.04,APPROACH,FLY_TO_FIX,220.12,77,-143.12,1417.82,-0.87,0.32,1.6,146.63,71.477,0,0,-12.115,1,0.6,4.415,1.953,0.35,0.0168,0.4,236.63,0,0,0,-0.23,123.16,0,0,236.21,0,0,0,0,0,0,0,57.388,0,0,0,0,0,89.89,0,0,0,0,0,0,0,0,0,0,0,0,0,0,0,0,0,VALID,0,0,0,0,0,1,0,0,0,0,0,0,0,0,0,0,0,0,0,0,6.06,348.28,2,0,0.06,0.06,137,13.33,0.08,0.06,10.04,FLYING,CF1-F,0:/Integrated Flight Computer/aircraft/cf1_f_cfg.ks (inferred preloaded)
10.34,APPROACH,FLY_TO_FIX,219.58,77,-142.58,1417.56,-0.88,0.31,1.61,148.7,71.387,0,0,-11.875,1,0.6,4.414,1.961,0.35,0.0168,0.4,238.7,0,0,0,-0.23,121.21,0,0,238.28,0,0,0,0,0,0,0,57.428,0,0,0,0,0,89.89,0,0,0,0,0,0,0,0,0,0,0,0,0,0,0,0,0,VALID,0,0,0,0,0,1,0,0,0,0,0,0,0,0,0,0,0,0,0,0,5.62,348.23,2,0,0.06,0.06,141,13.33,0.1,0.06,10.34,FLYING,CF1-F,0:/Integrated Flight Computer/aircraft/cf1_f_cfg.ks (inferred preloaded)
10.64,APPROACH,FLY_TO_FIX,219.03,77,-142.03,1417.29,-0.9,0.31,1.61,150.76,71.289,0,0,-11.639,1,0.6,4.413,1.968,0.35,0.0168,0.4,240.76,0,0,0,-0.24,119.27,0,0,240.21,0,0,0,0,0,0,0,57.465,0,0,0,0,0,89.89,0,0,0,0,0,0,0,0,0,0,0,0,0,0,0,0,0,VALID,0,0,0,0,0,1,0,0,0,0,0,0,0,0,0,0,0,0,0,0,5.21,348.19,2,0,0.08,0.08,145,13.33,0.08,0.06,10.64,FLYING,CF1-F,0:/Integrated Flight Computer/aircraft/cf1_f_cfg.ks (inferred preloaded)
10.92,APPROACH,FLY_TO_FIX,218.52,77,-141.52,1417.03,-0.92,0.31,1.62,152.69,71.2,0,0,-11.408,1,0.6,4.413,1.973,0.35,0.0168,0.4,242.69,0,0,0,-0.24,117.46,0,0,242.28,0,0,0,0,0,0,0,57.497,0,0,0,0,0,89.89,0,0,0,0,0,0,0,0,0,0,0,0,0,0,0,0,0,VALID,0,0,0,0,0,1,0,0,0,0,0,0,0,0,0,0,0,0,0,0,4.86,348.15,2,0,0.06,0.06,149,14.29,0.08,0.06,10.92,FLYING,CF1-F,0:/Integrated Flight Computer/aircraft/cf1_f_cfg.ks (inferred preloaded)
11.22,APPROACH,FLY_TO_FIX,217.98,77,-140.98,1416.75,-0.93,0.32,1.64,154.76,71.122,0,0,-11.182,1,0.6,4.412,1.978,0.35,0.0168,0.4,244.76,0,0,0,-0.25,115.52,0,0,244.35,0,0,0,0,0,0,0,57.53,0,0,0,0,0,89.89,0,0,0,0,0,0,0,0,0,0,0,0,0,0,0,0,0,VALID,0,0,0,0,0,1,0,0,0,0,0,0,0,0,0,0,0,0,0,0,4.5,348.11,2,0,0.06,0.06,153,13.33,0.08,0.06,11.22,FLYING,CF1-F,0:/Integrated Flight Computer/aircraft/cf1_f_cfg.ks (inferred preloaded)
11.52,APPROACH,FLY_TO_FIX,217.43,77,-140.43,1416.47,-0.95,0.31,1.63,156.8,71.027,0,0,-10.96,1,0.6,4.412,1.981,0.35,0.0168,0.4,246.8,0,0,0,-0.25,113.61,0,0,246.39,0,0,0,0,0,0,0,57.56,0,0,0,0,0,89.89,0,0,0,0,0,0,0,0,0,0,0,0,0,0,0,0,0,VALID,0,0,0,0,0,1,0,0,0,0,0,0,0,0,0,0,0,0,0,0,4.18,348.07,2,0,0.06,0.06,157,13.33,0.1,0.06,11.52,FLYING,CF1-F,0:/Integrated Flight Computer/aircraft/cf1_f_cfg.ks (inferred preloaded)
11.8,APPROACH,FLY_TO_FIX,216.92,77,-139.92,1416.2,-0.96,0.31,1.65,158.72,70.936,0,0,-10.742,1,0.6,4.411,1.983,0.35,0.0168,0.4,248.72,0,0,0,-0.25,111.81,0,0,248.31,0,0,0,0,0,0,0,57.587,0,0,0,0,0,89.89,0,0,0,0,0,0,0,0,0,0,0,0,0,0,0,0,0,VALID,0,0,0,0,0,1,0,0,0,0,0,0,0,0,0,0,0,0,0,0,3.89,348.03,2,0,0.06,0.06,161,14.29,0.08,0.06,11.8,FLYING,CF1-F,0:/Integrated Flight Computer/aircraft/cf1_f_cfg.ks (inferred preloaded)
12.08,APPROACH,FLY_TO_FIX,216.42,77,-139.42,1415.93,-0.97,0.32,1.66,160.64,70.857,0,0,-10.529,1,0.6,4.411,1.985,0.35,0.0168,0.4,250.64,0,0,0,-0.26,110.02,0,0,250.23,0,0,0,0,0,0,0,57.611,0,0,0,0,0,89.89,0,0,0,0,0,0,0,0,0,0,0,0,0,0,0,0,0,VALID,0,0,0,0,0,1,0,0,0,0,0,0,0,0,0,0,0,0,0,0,3.63,348,2,0,0.06,0.06,165,14.29,0.08,0.06,12.08,FLYING,CF1-F,0:/Integrated Flight Computer/aircraft/cf1_f_cfg.ks (inferred preloaded)
12.36,APPROACH,FLY_TO_FIX,215.91,77,-138.91,1415.66,-0.98,0.32,1.67,162.55,70.786,0,0,-10.32,1,0.6,4.41,1.986,0.35,0.0168,0.4,252.55,0,0,0,-0.26,108.23,0,0,252.14,0,0,0,0,0,0,0,57.633,0,0,0,0,0,89.89,0,0,0,0,0,0,0,0,0,0,0,0,0,0,0,0,0,VALID,0,0,0,0,0,1,0,0,0,0,0,0,0,0,0,0,0,0,0,0,3.38,347.96,2,0,0.06,0.06,169,14.29,0.08,0.06,12.36,FLYING,CF1-F,0:/Integrated Flight Computer/aircraft/cf1_f_cfg.ks (inferred preloaded)
12.64,APPROACH,FLY_TO_FIX,215.4,77,-138.4,1415.38,-1,0.32,1.66,164.44,70.695,0,0,-10.115,1,0.6,4.41,1.987,0.35,0.0168,0.4,254.44,0,0,0,-0.26,106.46,0,0,254.03,0,0,0,0,0,0,0,57.654,0,0,0,0,0,89.89,0,0,0,0,0,0,0,0,0,0,0,0,0,0,0,0,0,VALID,0,0,0,0,0,1,0,0,0,0,0,0,0,0,0,0,0,0,0,0,3.15,347.93,2,0,0.06,0.06,173,14.29,0.08,0.06,12.64,FLYING,CF1-F,0:/Integrated Flight Computer/aircraft/cf1_f_cfg.ks (inferred preloaded)
12.92,APPROACH,FLY_TO_FIX,214.9,77,-137.9,1415.1,-1.01,0.32,1.67,166.34,70.597,0,0,-9.914,1,0.6,4.409,1.986,0.35,0.0168,0.4,256.34,0,0,0,-0.27,104.69,0,0,255.93,0,0,0,0,0,0,0,57.672,0,0,0,0,0,89.89,0,0,0,0,0,0,0,0,0,0,0,0,0,0,0,0,0,VALID,0,0,0,0,0,1,0,0,0,0,0,0,0,0,0,0,0,0,0,0,2.94,347.9,2,0,0.06,0.06,177,14.29,0.08,0.06,12.92,FLYING,CF1-F,0:/Integrated Flight Computer/aircraft/cf1_f_cfg.ks (inferred preloaded)
13.2,APPROACH,FLY_TO_FIX,214.4,77,-137.4,1414.81,-1.02,0.32,1.68,168.24,70.514,0,0,-9.717,1,0.6,4.409,1.985,0.35,0.0168,0.4,258.24,0,0,0,-0.27,102.92,0,0,257.84,0,0,0,0,0,0,0,57.688,0,0,0,0,0,89.89,0,0,0,0,0,0,0,0,0,0,0,0,0,0,0,0,0,VALID,0,0,0,0,0,1,0,0,0,0,0,0,0,0,0,0,0,0,0,0,2.74,347.87,2,0,0.06,0.06,181,14.29,0.08,0.06,13.2,FLYING,CF1-F,0:/Integrated Flight Computer/aircraft/cf1_f_cfg.ks (inferred preloaded)
13.48,APPROACH,FLY_TO_FIX,213.9,77,-136.9,1414.52,-1.03,0.32,1.69,170.12,70.417,0,0,-9.525,1,0.6,4.409,1.983,0.35,0.0168,0.4,260.12,0,0,0,-0.28,101.16,0,0,259.72,0,0,0,0,0,0,0,57.702,0,0,0,0,0,89.89,0,0,0,0,0,0,0,0,0,0,0,0,0,0,0,0,0,VALID,0,0,0,0,0,1,0,0,0,0,0,0,0,0,0,0,0,0,0,0,2.55,347.84,2,0,0.06,0.06,185,14.29,0.08,0.06,13.48,FLYING,CF1-F,0:/Integrated Flight Computer/aircraft/cf1_f_cfg.ks (inferred preloaded)
13.76,APPROACH,FLY_TO_FIX,213.4,77,-136.4,1414.23,-1.04,0.32,1.7,172.02,70.333,0,0,-9.336,1,0.6,4.408,1.98,0.35,0.0168,0.4,262.02,0,0,0,-0.28,99.4,0,0,261.61,0,0,0,0,0,0,0,57.714,0,0,0,0,0,89.89,0,0,0,0,0,0,0,0,0,0,0,0,0,0,0,0,0,VALID,0,0,0,0,0,1,0,0,0,0,0,0,0,0,0,0,0,0,0,0,2.38,347.82,2,0,0.06,0.06,189,14.29,0.08,0.06,13.76,FLYING,CF1-F,0:/Integrated Flight Computer/aircraft/cf1_f_cfg.ks (inferred preloaded)
14.04,APPROACH,FLY_TO_FIX,212.9,77,-135.9,1413.94,-1.05,0.32,1.7,173.89,70.237,0,0,-9.15,1,0.6,4.408,1.978,0.35,0.0168,0.4,263.89,0,0,0,-0.28,97.66,0,0,263.49,0,0,0,0,0,0,0,57.724,0,0,0,0,0,89.89,0,0,0,0,0,0,0,0,0,0,0,0,0,0,0,0,0,VALID,0,0,0,0,0,1,0,0,0,0,0,0,0,0,0,0,0,0,0,0,2.22,347.79,2,0,0.06,0.06,193,14.29,0.08,0.06,14.04,FLYING,CF1-F,0:/Integrated Flight Computer/aircraft/cf1_f_cfg.ks (inferred preloaded)
14.32,APPROACH,FLY_TO_FIX,212.4,77,-135.4,1413.65,-1.06,0.33,1.72,175.78,70.151,0,0,-8.969,1,0.6,4.407,1.974,0.35,0.0168,0.4,265.78,0,0,0,-0.29,95.89,0,0,265.38,0,0,0,0,0,0,0,57.732,0,0,0,0,0,89.89,0,0,0,0,0,0,0,0,0,0,0,0,0,0,0,0,0,VALID,0,0,0,0,0,1,0,0,0,0,0,0,0,0,0,0,0,0,0,0,2.07,347.77,2,0,0.06,0.06,197,14.29,0.08,0.06,14.32,FLYING,CF1-F,0:/Integrated Flight Computer/aircraft/cf1_f_cfg.ks (inferred preloaded)
14.6,APPROACH,FLY_TO_FIX,211.91,77,-134.91,1413.35,-1.07,0.33,1.71,177.65,70.063,0,0,-8.791,1,0.6,4.407,1.971,0.35,0.0168,0.4,267.65,0,0,0,-0.29,94.16,0,0,267.25,0,0,0,0,0,0,0,57.737,0,0,0,0,0,89.89,0,0,0,0,0,0,0,0,0,0,0,0,0,0,0,0,0,VALID,0,0,0,0,0,1,0,0,0,0,0,0,0,0,0,0,0,0,0,0,1.93,347.74,2,0,0.06,0.06,201,14.29,0.08,0.06,14.6,FLYING,CF1-F,0:/Integrated Flight Computer/aircraft/cf1_f_cfg.ks (inferred preloaded)
14.88,APPROACH,FLY_TO_FIX,211.41,77,-134.41,1413.05,-1.08,0.33,1.72,179.51,69.968,0,0,-8.616,1,0.6,4.407,1.967,0.35,0.0168,0.4,269.51,0,0,0,-0.29,92.42,0,0,269.11,0,0,0,0,0,0,0,57.741,0,0,0,0,0,89.89,0,0,0,0,0,0,0,0,0,0,0,0,0,0,0,0,0,VALID,0,0,0,0,0,1,0,0,0,0,0,0,0,0,0,0,0,0,0,0,1.8,347.72,2,0,0.06,0.06,205,14.29,0.08,0.06,14.88,FLYING,CF1-F,0:/Integrated Flight Computer/aircraft/cf1_f_cfg.ks (inferred preloaded)
15.16,APPROACH,FLY_TO_FIX,210.92,77,-133.92,1412.74,-1.08,0.33,1.73,181.39,69.879,0,0,-8.445,1,0.6,4.407,1.963,0.35,0.0168,0.4,271.39,0,0,0,-0.29,90.68,0,0,270.99,0,0,0,0,0,0,0,57.743,0,0,0,0,0,89.89,0,0,0,0,0,0,0,0,0,0,0,0,0,0,0,0,0,VALID,0,0,0,0,0,1,0,0,0,0,0,0,0,0,0,0,0,0,0,0,1.68,347.7,2,0,0.06,0.06,209,14.29,0.08,0.06,15.16,FLYING,CF1-F,0:/Integrated Flight Computer/aircraft/cf1_f_cfg.ks (inferred preloaded)
15.46,APPROACH,FLY_TO_FIX,210.4,77,-133.4,1412.42,-1.09,0.34,1.74,183.39,69.791,0,0,-8.277,1,0.6,4.406,1.959,0.35,0.0168,0.4,272.2,0,0,0,-0.3,88.82,0,0,272.17,0,0,0,0,0,0,0,57.742,0,0,0,0,0,89.89,0,0,0,0,0,0,0,0,0,0,0,0,0,0,0,0,0,VALID,0,0,0,0,0,1,0,0,0,0,0,0,0,0,0,0,0,0,0,0,1.55,347.68,2,0,0.08,0.08,213,13.33,0.08,0.06,15.46,FLYING,CF1-F,0:/Integrated Flight Computer/aircraft/cf1_f_cfg.ks (inferred preloaded)
15.74,APPROACH,FLY_TO_FIX,209.91,77,-132.91,1412.11,-1.1,0.34,1.74,185.24,69.694,0,0,-8.113,1,0.6,4.406,1.954,0.35,0.0168,0.4,272.33,0,0,0,-0.3,87.1,0,0,272.3,0,0,0,0,0,0,0,57.74,0,0,0,0,0,89.89,0,0,0,0,0,0,0,0,0,0,0,0,0,0,0,0,0,VALID,0,0,0,0,0,1,0,0,0,0,0,0,0,0,0,0,0,0,0,0,1.45,347.66,2,0,0.06,0.06,217,14.29,0.08,0.06,15.74,FLYING,CF1-F,0:/Integrated Flight Computer/aircraft/cf1_f_cfg.ks (inferred preloaded)
16.04,APPROACH,FLY_TO_FIX,209.38,77,-132.38,1411.78,-1.11,0.34,1.75,187.22,69.588,0,0,-7.952,1,0.6,4.406,1.949,0.35,0.0168,0.4,272.47,0,0,0,-0.3,85.25,0,0,272.44,0,0,0,0,0,0,0,57.735,0,0,0,0,0,89.89,0,0,0,0,0,0,0,0,0,0,0,0,0,0,0,0,0,VALID,0,0,0,0,0,1,0,0,0,0,0,0,0,0,0,0,0,0,0,0,1.34,347.64,2,0,0.06,0.06,221,13.33,0.08,0.06,16.04,FLYING,CF1-F,0:/Integrated Flight Computer/aircraft/cf1_f_cfg.ks (inferred preloaded)
16.36,APPROACH,FLY_TO_FIX,208.83,77,-131.83,1411.42,-1.11,0.34,1.77,189.35,69.495,0,0,-7.794,1,0.6,4.405,1.944,0.35,0.0168,0.4,272.62,0,0,0,-0.3,83.27,0,0,272.58,0,0,0,0,0,0,0,57.727,0,0,0,0,0,89.89,0,0,0,0,0,0,0,0,0,0,0,0,0,0,0,0,0,VALID,0,0,0,0,0,1,0,0,0,0,0,0,0,0,0,0,0,0,0,0,1.24,347.63,2,0,0.08,0.08,225,12.5,0.1,0.06,16.36,FLYING,CF1-F,0:/Integrated Flight Computer/aircraft/cf1_f_cfg.ks (inferred preloaded)
16.64,APPROACH,FLY_TO_FIX,208.34,77,-131.34,1411.11,-1.11,0.34,1.77,191.19,69.41,0,0,-7.639,1,0.6,4.405,1.939,0.35,0.0168,0.4,272.74,0,0,0,-0.31,81.56,0,0,272.72,0,0,0,0,0,0,0,57.718,0,0,0,0,0,89.89,0,0,0,0,0,0,0,0,0,0,0,0,0,0,0,0,0,VALID,0,0,0,0,0,1,0,0,0,0,0,0,0,0,0,0,0,0,0,0,1.16,347.61,2,0,0.06,0.06,229,14.29,0.08,0.06,16.64,FLYING,CF1-F,0:/Integrated Flight Computer/aircraft/cf1_f_cfg.ks (inferred preloaded)
16.94,APPROACH,FLY_TO_FIX,207.83,77,-130.83,1410.77,-1.13,0.35,1.77,193.15,69.3,0,0,-7.488,1,0.6,4.405,1.933,0.35,0.0168,0.4,272.88,0,0,0,-0.31,79.73,0,0,272.85,0,0,0,0,0,0,0,57.706,0,0,0,0,0,89.89,0,0,0,0,0,0,0,0,0,0,0,0,0,0,0,0,0,VALID,0,0,0,0,0,1,0,0,0,0,0,0,0,0,0,0,0,0,0,0,1.07,347.6,2,0,0.06,0.06,233,13.33,0.08,0.06,16.94,FLYING,CF1-F,0:/Integrated Flight Computer/aircraft/cf1_f_cfg.ks (inferred preloaded)
17.26,APPROACH,FLY_TO_FIX,207.28,77,-130.28,1410.41,-1.13,0.35,1.79,195.27,69.202,0,0,-7.339,1,0.6,4.405,1.928,0.35,0.0168,0.4,273.02,0,0,0,-0.31,77.76,0,0,272.99,0,0,0,0,0,0,0,57.691,0,0,0,0,0,89.89,0,0,0,0,0,0,0,0,0,0,0,0,0,0,0,0,0,VALID,0,0,0,0,0,1,0,0,0,0,0,0,0,0,0,0,0,0,0,0,0.99,347.58,2,0,0.08,0.08,237,12.5,0.1,0.06,17.26,FLYING,CF1-F,0:/Integrated Flight Computer/aircraft/cf1_f_cfg.ks (inferred preloaded)
17.56,APPROACH,FLY_TO_FIX,206.76,77,-129.76,1410.07,-1.13,0.35,1.79,197.22,69.119,0,0,-7.193,1,0.6,4.405,1.922,0.35,0.0168,0.4,273.16,0,0,0,-0.31,75.93,0,0,273.13,0,0,0,0,0,0,0,57.675,0,0,0,0,0,89.89,0,0,0,0,0,0,0,0,0,0,0,0,0,0,0,0,0,VALID,0,0,0,0,0,1,0,0,0,0,0,0,0,0,0,0,0,0,0,0,0.92,347.57,2,0,0.06,0.06,241,13.33,0.1,0.06,17.56,FLYING,CF1-F,0:/Integrated Flight Computer/aircraft/cf1_f_cfg.ks (inferred preloaded)
17.86,APPROACH,FLY_TO_FIX,206.25,77,-129.25,1409.73,-1.14,0.35,1.78,199.17,69.002,0,0,-7.051,1,0.6,4.404,1.916,0.35,0.0168,0.4,273.29,0,0,0,-0.32,74.12,0,0,273.27,0,0,0,0,0,0,0,57.657,0,0,0,0,0,89.89,0,0,0,0,0,0,0,0,0,0,0,0,0,0,0,0,0,VALID,0,0,0,0,0,1,0,0,0,0,0,0,0,0,0,0,0,0,0,0,0.85,347.56,2,0,0.06,0.06,245,13.33,0.08,0.06,17.86,FLYING,CF1-F,0:/Integrated Flight Computer/aircraft/cf1_f_cfg.ks (inferred preloaded)
18.18,APPROACH,FLY_TO_FIX,205.71,77,-128.71,1409.36,-1.15,0.36,1.81,201.26,68.878,0,0,-6.911,1,0.6,4.404,1.91,0.35,0.0168,0.4,273.43,0,0,0,-0.32,72.17,0,0,273.4,0,0,0,0,0,0,0,57.635,0,0,0,0,0,89.89,0,0,0,0,0,0,0,0,0,0,0,0,0,0,0,0,0,VALID,0,0,0,0,0,1,0,0,0,0,0,0,0,0,0,0,0,0,0,0,0.79,347.55,2,0,0.08,0.08,249,12.5,0.1,0.06,18.18,FLYING,CF1-F,0:/Integrated Flight Computer/aircraft/cf1_f_cfg.ks (inferred preloaded)
18.46,APPROACH,FLY_TO_FIX,205.24,77,-128.24,1409.04,-1.16,0.36,1.8,203.07,68.786,0,0,-6.774,1,0.6,4.404,1.903,0.35,0.0168,0.4,273.55,0,0,0,-0.32,70.49,0,0,273.53,0,0,0,0,0,0,0,57.614,0,0,0,0,0,89.89,0,0,0,0,0,0,0,0,0,0,0,0,0,0,0,0,0,VALID,0,0,0,0,0,1,0,0,0,0,0,0,0,0,0,0,0,0,0,0,0.73,347.54,2,0,0.06,0.06,253,14.29,0.08,0.06,18.46,FLYING,CF1-F,0:/Integrated Flight Computer/aircraft/cf1_f_cfg.ks (inferred preloaded)
18.76,APPROACH,FLY_TO_FIX,204.73,77,-127.73,1408.69,-1.16,0.36,1.81,205.01,68.682,0,0,-6.639,1,0.6,4.404,1.896,0.35,0.0168,0.4,273.68,0,0,0,-0.32,68.67,0,0,273.66,0,0,0,0,0,0,0,57.589,0,0,0,0,0,89.89,0,0,0,0,0,0,0,0,0,0,0,0,0,0,0,0,0,VALID,0,0,0,0,0,1,0,0,0,0,0,0,0,0,0,0,0,0,0,0,0.68,347.54,2,0,0.06,0.06,257,13.33,0.08,0.06,18.76,FLYING,CF1-F,0:/Integrated Flight Computer/aircraft/cf1_f_cfg.ks (inferred preloaded)
19.08,APPROACH,FLY_TO_FIX,204.2,77,-127.2,1408.32,-1.17,0.37,1.82,207.09,68.574,0,0,-6.507,1,0.6,4.404,1.889,0.35,0.0168,0.4,273.82,0,0,0,-0.33,66.73,0,0,273.78,0,0,0,0,0,0,0,57.56,0,0,0,0,0,89.89,0,0,0,0,0,0,0,0,0,0,0,0,0,0,0,0,0,VALID,0,0,0,0,0,1,0,0,0,0,0,0,0,0,0,0,0,0,0,0,0.63,347.53,2,0,0.08,0.08,261,12.5,0.1,0.06,19.08,FLYING,CF1-F,0:/Integrated Flight Computer/aircraft/cf1_f_cfg.ks (inferred preloaded)
19.36,APPROACH,FLY_TO_FIX,203.73,77,-126.73,1407.99,-1.17,0.38,1.84,208.9,68.494,0,0,-6.378,1,0.6,4.404,1.882,0.35,0.0168,0.4,273.94,0,0,0,-0.33,65.03,0,0,273.91,0,0,0,0,0,0,0,57.534,0,0,0,0,0,89.89,0,0,0,0,0,0,0,0,0,0,0,0,0,0,0,0,0,VALID,0,0,0,0,0,1,0,0,0,0,0,0,0,0,0,0,0,0,0,0,0.58,347.53,2,0,0.06,0.06,265,14.29,0.08,0.06,19.36,FLYING,CF1-F,0:/Integrated Flight Computer/aircraft/cf1_f_cfg.ks (inferred preloaded)
19.66,APPROACH,FLY_TO_FIX,203.23,77,-126.23,1407.64,-1.17,0.37,1.83,210.82,68.406,0,0,-6.252,1,0.6,4.404,1.876,0.35,0.0168,0.4,274.06,0,0,0,-0.33,63.24,0,0,274.03,0,0,0,0,0,0,0,57.503,0,0,0,0,0,89.89,0,0,0,0,0,0,0,0,0,0,0,0,0,0,0,0,0,VALID,0,0,0,0,0,1,0,0,0,0,0,0,0,0,0,0,0,0,0,0,0.54,347.53,2,0,0.06,0.06,269,13.33,0.08,0.06,19.66,FLYING,CF1-F,0:/Integrated Flight Computer/aircraft/cf1_f_cfg.ks (inferred preloaded)
19.98,APPROACH,FLY_TO_FIX,202.7,77,-125.7,1407.27,-1.17,0.38,1.85,212.89,68.298,0,0,-6.127,1,0.6,4.404,1.87,0.35,0.0168,0.4,274.19,0,0,0,-0.33,61.3,0,0,274.16,0,0,0,0,0,0,0,57.469,0,0,0,0,0,89.89,0,0,0,0,0,0,0,0,0,0,0,0,0,0,0,0,0,VALID,0,0,0,0,0,1,0,0,0,0,0,0,0,0,0,0,0,0,0,0,0.5,347.52,2,0,0.08,0.08,273,12.5,0.1,0.06,19.98,FLYING,CF1-F,0:/Integrated Flight Computer/aircraft/cf1_f_cfg.ks (inferred preloaded)
20.28,APPROACH,FLY_TO_FIX,202.2,77,-125.2,1406.92,-1.17,0.38,1.85,214.81,68.205,0,0,-6.006,1,0.6,4.404,1.863,0.35,0.0168,0.4,274.31,0,0,0,-0.33,59.5,0,0,274.28,0,0,0,0,0,0,0,57.435,0,0,0,0,0,89.89,0,0,0,0,0,0,0,0,0,0,0,0,0,0,0,0,0,VALID,0,0,0,0,0,1,0,0,0,0,0,0,0,0,0,0,0,0,0,0,0.46,347.52,2,0,0.06,0.06,277,13.33,0.1,0.06,20.28,FLYING,CF1-F,0:/Integrated Flight Computer/aircraft/cf1_f_cfg.ks (inferred preloaded)
20.58,APPROACH,FLY_TO_FIX,201.71,77,-124.71,1406.56,-1.18,0.38,1.85,216.72,68.097,0,0,-5.887,1,0.6,4.403,1.857,0.35,0.0168,0.4,274.43,0,0,0,-0.34,57.71,0,0,274.4,0,0,0,0,0,0,0,57.399,0,0,0,0,0,89.89,0,0,0,0,0,0,0,0,0,0,0,0,0,0,0,0,0,VALID,0,0,0,0,0,1,0,0,0,0,0,0,0,0,0,0,0,0,0,0,0.43,347.53,2,0,0.06,0.06,281,13.33,0.08,0.06,20.58,FLYING,CF1-F,0:/Integrated Flight Computer/aircraft/cf1_f_cfg.ks (inferred preloaded)
20.9,APPROACH,FLY_TO_FIX,201.18,77,-124.18,1406.18,-1.18,0.39,1.87,218.76,67.991,0,0,-5.77,1,0.6,4.403,1.85,0.35,0.0168,0.4,274.55,0,0,0,-0.34,55.79,0,0,274.52,0,0,0,0,0,0,0,57.359,0,0,0,0,0,89.89,0,0,0,0,0,0,0,0,0,0,0,0,0,0,0,0,0,VALID,0,0,0,0,0,1,0,0,0,0,0,0,0,0,0,0,0,0,0,0,0.4,347.53,2,0,0.08,0.08,285,12.5,0.1,0.06,20.9,FLYING,CF1-F,0:/Integrated Flight Computer/aircraft/cf1_f_cfg.ks (inferred preloaded)
21.18,APPROACH,FLY_TO_FIX,200.72,77,-123.72,1405.85,-1.18,0.4,1.88,220.56,67.91,0,0,-5.655,1,0.6,4.403,1.843,0.35,0.0168,0.4,274.65,0,0,0,-0.34,54.1,0,0,274.63,0,0,0,0,0,0,0,57.322,0,0,0,0,0,89.89,0,0,0,0,0,0,0,0,0,0,0,0,0,0,0,0,0,VALID,0,0,0,0,0,1,0,0,0,0,0,0,0,0,0,0,0,0,0,0,0.37,347.53,2,0,0.06,0.06,289,14.29,0.08,0.06,21.18,FLYING,CF1-F,0:/Integrated Flight Computer/aircraft/cf1_f_cfg.ks (inferred preloaded)
21.48,APPROACH,FLY_TO_FIX,200.23,77,-123.23,1405.5,-1.19,0.4,1.88,222.45,67.807,0,0,-5.543,1,0.6,4.403,1.837,0.35,0.0168,0.4,274.76,0,0,0,-0.34,52.32,0,0,274.74,0,0,0,0,0,0,0,57.281,0,0,0,0,0,89.89,0,0,0,0,0,0,0,0,0,0,0,0,0,0,0,0,0,VALID,0,0,0,0,0,1,0,0,0,0,0,0,0,0,0,0,0,0,0,0,0.34,347.53,2,0,0.06,0.06,293,13.33,0.08,0.06,21.48,FLYING,CF1-F,0:/Integrated Flight Computer/aircraft/cf1_f_cfg.ks (inferred preloaded)
21.8,APPROACH,FLY_TO_FIX,199.71,77,-122.71,1405.12,-1.19,0.4,1.88,224.47,67.693,0,0,-5.433,1,0.6,4.404,1.83,0.35,0.0168,0.4,274.88,0,0,0,-0.34,50.41,0,0,274.85,0,0,0,0,0,0,0,57.236,0,0,0,0,0,89.89,0,0,0,0,0,0,0,0,0,0,0,0,0,0,0,0,0,VALID,0,0,0,0,0,1,0,0,0,0,0,0,0,0,0,0,0,0,0,0,0.32,347.54,2,0,0.08,0.08,297,12.5,0.1,0.06,21.8,FLYING,CF1-F,0:/Integrated Flight Computer/aircraft/cf1_f_cfg.ks (inferred preloaded)
22.08,APPROACH,FLY_TO_FIX,199.26,77,-122.26,1404.78,-1.19,0.41,1.9,226.26,67.611,0,0,-5.325,1,0.6,4.404,1.823,0.35,0.0168,0.4,274.98,0,0,0,-0.34,48.72,0,0,274.95,0,0,0,0,0,0,0,57.195,0,0,0,0,0,89.89,0,0,0,0,0,0,0,0,0,0,0,0,0,0,0,0,0,VALID,0,0,0,0,0,1,0,0,0,0,0,0,0,0,0,0,0,0,0,0,0.3,347.55,2,0,0.06,0.06,301,14.29,0.08,0.06,22.08,FLYING,CF1-F,0:/Integrated Flight Computer/aircraft/cf1_f_cfg.ks (inferred preloaded)
22.38,APPROACH,FLY_TO_FIX,198.78,77,-121.78,1404.43,-1.19,0.41,1.9,228.14,67.517,0,0,-5.219,1,0.6,4.404,1.817,0.35,0.0168,0.4,275.08,0,0,0,-0.34,46.94,0,0,275.06,0,0,0,0,0,0,0,57.15,0,0,0,0,0,89.89,0,0,0,0,0,0,0,0,0,0,0,0,0,0,0,0,0,VALID,0,0,0,0,0,1,0,0,0,0,0,0,0,0,0,0,0,0,0,0,0.27,347.55,2,0,0.06,0.06,305,13.33,0.08,0.06,22.38,FLYING,CF1-F,0:/Integrated Flight Computer/aircraft/cf1_f_cfg.ks (inferred preloaded)
22.7,APPROACH,FLY_TO_FIX,198.26,77,-121.26,1404.05,-1.2,0.41,1.9,230.15,67.405,0,0,-5.116,1,0.6,4.404,1.81,0.35,0.0168,0.4,275.18,0,0,0,-0.35,45.04,0,0,275.16,0,0,0,0,0,0,0,57.1,0,0,0,0,0,89.89,0,0,0,0,0,0,0,0,0,0,0,0,0,0,0,0,0,VALID,0,0,0,0,0,1,0,0,0,0,0,0,0,0,0,0,0,0,0,0,0.25,347.56,2,0,0.08,0.08,309,12.5,0.1,0.06,22.7,FLYING,CF1-F,0:/Integrated Flight Computer/aircraft/cf1_f_cfg.ks (inferred preloaded)
23,APPROACH,FLY_TO_FIX,197.78,77,-120.78,1403.69,-1.2,0.41,1.9,232.02,67.273,0,0,-5.014,1,0.6,4.404,1.803,0.35,0.0168,0.4,275.28,0.05,0,0,-0.35,43.26,0,0.05,275.26,0,0,0,0,0,0,0,57.052,0,0,0,0,0,89.89,0,0,0,0,0,0,0,0,0,0,0,0,0,0,0,0,0,VALID,0,0,0,0,0,1,0,0,0,0,0,0,0,0,0,0,0,0,0,0,0.23,347.57,2,0,0.06,0.06,313,13.33,0.1,0.06,23,FLYING,CF1-F,0:/Integrated Flight Computer/aircraft/cf1_f_cfg.ks (inferred preloaded)
23.3,APPROACH,FLY_TO_FIX,197.31,77,-120.31,1403.33,-1.21,0.43,1.92,233.9,67.12,0,0,-4.915,1,0.6,4.404,1.796,0.35,0.0168,0.4,275.37,0.055,0,0,-0.35,41.48,0,0.06,275.35,0,0,0,0,0,0,0,57.003,0,0,0,0,0,89.89,0,0,0,0,0,0,0,0,0,0,0,0,0,0,0,0,0,VALID,0,0,0,0,0,1,0,0,0,0,0,0,0,0,0,0,0,0,0,0,0.22,347.59,2,0,0.06,0.06,317,13.33,0.08,0.06,23.3,FLYING,CF1-F,0:/Integrated Flight Computer/aircraft/cf1_f_cfg.ks (inferred preloaded)
23.6,APPROACH,FLY_TO_FIX,196.83,77,-119.83,1402.97,-1.19,0.43,1.93,235.77,67.007,0,0,-4.817,1,0.6,4.404,1.788,0.35,0.0168,0.4,275.46,0.054,0,0,-0.35,39.69,0,0.05,275.45,0,0,0,0,0,0,0,56.953,0,0,0,0,0,89.89,0,0,0,0,0,0,0,0,0,0,0,0,0,0,0,0,0,VALID,0,0,0,0,0,1,0,0,0,0,0,0,0,0,0,0,0,0,0,0,0.2,347.6,2,0,0.06,0.06,321,13.33,0.1,0.06,23.6,FLYING,CF1-F,0:/Integrated Flight Computer/aircraft/cf1_f_cfg.ks (inferred preloaded)
23.9,APPROACH,FLY_TO_FIX,196.36,77,-119.36,1402.61,-1.19,0.44,1.93,237.63,66.899,0,0,-4.721,1,0.6,4.404,1.782,0.35,0.0168,0.4,275.55,0.053,0,0,-0.35,37.92,0,0.05,275.53,0,0,0,0,0,0,0,56.901,0,0,0,0,0,89.89,0,0,0,0,0,0,0,0,0,0,0,0,0,0,0,0,0,VALID,0,0,0,0,0,1,0,0,0,0,0,0,0,0,0,0,0,0,0,0,0.19,347.61,2,0,0.08,0.08,325,13.33,0.08,0.06,23.9,FLYING,CF1-F,0:/Integrated Flight Computer/aircraft/cf1_f_cfg.ks (inferred preloaded)
24.18,APPROACH,FLY_TO_FIX,195.92,77,-118.92,1402.28,-1.17,0.45,1.95,239.39,66.815,0,0,-4.628,1,0.6,4.404,1.775,0.35,0.0168,0.4,275.63,0.05,0,0,-0.34,36.24,0,0.05,275.61,0,0,0,0,0,0,0,56.852,0,0,0,0,0,89.89,0,0,0,0,0,0,0,0,0,0,0,0,0,0,0,0,0,VALID,0,0,0,0,0,1,0,0,0,0,0,0,0,0,0,0,0,0,0,0,0.17,347.62,2,0,0.06,0.06,329,14.29,0.08,0.06,24.18,FLYING,CF1-F,0:/Integrated Flight Computer/aircraft/cf1_f_cfg.ks (inferred preloaded)
24.48,APPROACH,FLY_TO_FIX,195.45,77,-118.45,1401.93,-1.17,0.45,1.94,241.24,66.722,0,0,-4.536,1,0.6,4.404,1.769,0.35,0.0168,0.4,275.71,0.05,0,0,-0.34,34.47,0,0.05,275.69,0,0,0,0,0,0,0,56.799,0,0,0,0,0,89.89,0,0,0,0,0,0,0,0,0,0,0,0,0,0,0,0,0,VALID,0,0,0,0,0,1,0,0,0,0,0,0,0,0,0,0,0,0,0,0,0.16,347.64,2,0,0.06,0.06,333,13.33,0.08,0.06,24.48,FLYING,CF1-F,0:/Integrated Flight Computer/aircraft/cf1_f_cfg.ks (inferred preloaded)
24.78,APPROACH,FLY_TO_FIX,194.98,77,-117.98,1401.58,-1.15,0.46,1.96,243.1,66.63,0,0,-4.446,1,0.6,4.405,1.763,0.35,0.0168,0.4,275.79,0.047,0,0,-0.34,32.68,0,0.05,275.77,0,0,0,0,0,0,0,56.745,0,0,0,0,0,89.89,0,0,0,0,0,0,0,0,0,0,0,0,0,0,0,0,0,VALID,0,0,0,0,0,1,0,0,0,0,0,0,0,0,0,0,0,0,0,0,0.15,347.65,2,0,0.06,0.06,337,13.33,0.1,0.06,24.78,FLYING,CF1-F,0:/Integrated Flight Computer/aircraft/cf1_f_cfg.ks (inferred preloaded)
25.06,APPROACH,FLY_TO_FIX,194.54,77,-117.54,1401.26,-1.14,0.47,1.96,244.82,66.543,0,0,-4.358,1,0.6,4.405,1.757,0.35,0.0168,0.4,275.86,0.047,0,0,-0.34,31.03,0,0.05,275.84,0,0,0,0,0,0,0,56.693,0,0,0,0,0,89.89,0,0,0,0,0,0,0,0,0,0,0,0,0,0,0,0,0,VALID,0,0,0,0,0,1,0,0,0,0,0,0,0,0,0,0,0,0,0,0,0.14,347.67,2,0,0.06,0.06,341,14.29,0.08,0.06,25.06,FLYING,CF1-F,0:/Integrated Flight Computer/aircraft/cf1_f_cfg.ks (inferred preloaded)
25.34,APPROACH,FLY_TO_FIX,194.1,77,-117.1,1400.94,-1.14,0.47,1.96,246.54,66.444,0,0,-4.271,1,0.6,4.405,1.751,0.35,0.0168,0.4,275.92,0.048,0,0,-0.34,29.38,0,0.05,275.91,0,0,0,0,0,0,0,56.641,0,0,0,0,0,89.89,0,0,0,0,0,0,0,0,0,0,0,0,0,0,0,0,0,VALID,0,0,0,0,0,1,0,0,0,0,0,0,0,0,0,0,0,0,0,0,0.13,347.69,2,0,0.06,0.06,345,14.29,0.08,0.06,25.34,FLYING,CF1-F,0:/Integrated Flight Computer/aircraft/cf1_f_cfg.ks (inferred preloaded)
25.62,APPROACH,FLY_TO_FIX,193.67,77,-116.67,1400.63,-1.13,0.49,1.98,248.28,66.36,0,0,-4.186,1,0.6,4.405,1.745,0.35,0.0168,0.4,275.98,0.045,0,0,-0.33,27.7,0,0.05,275.97,0,0,0,0,0,0,0,56.588,0,0,0,0,0,89.89,0,0,0,0,0,0,0,0,0,0,0,0,0,0,0,0,0,VALID,0,0,0,0,0,1,0,0,0,0,0,0,0,0,0,0,0,0,0,0,0.12,347.71,2,0,0.06,0.06,349,14.29,0.08,0.06,25.62,FLYING,CF1-F,0:/Integrated Flight Computer/aircraft/cf1_f_cfg.ks (inferred preloaded)
25.9,APPROACH,FLY_TO_FIX,193.24,77,-116.24,1400.3,-1.11,0.43,1.83,249.86,66.239,0,0,-4.103,1,0.6,4.405,1.739,0.35,0.0168,0.4,276.04,0.041,0,0,-0.33,26.18,0,0.04,276.03,0,0,0,0,0,0,0,56.535,0,0,0,0,0,89.89,0,0,0,0,0,0,0,0,0,0,0,0,0,0,0,0,0,VALID,0,0,0,0,0,1,0,0,0,0,0,0,0,0,0,0,0,0,0,0,0.11,347.74,2,0,0.06,0.06,353,14.29,0.08,0.06,25.9,FLYING,CF1-F,0:/Integrated Flight Computer/aircraft/cf1_f_cfg.ks (inferred preloaded)
26.18,APPROACH,FLY_TO_FIX,192.83,77,-115.83,1399.95,-1.27,0.33,1.61,251.25,65.732,0,0,-4.022,1,0.6,4.406,1.727,0.35,0.0168,0.4,276.1,0.087,0,0,-0.37,24.85,0,0.08,276.09,0,0,0,0,0,0,0,56.481,0,0,0,0,0,89.89,0,0,0,0,0,0,0,0,0,0,0,0,0,0,0,0,0,VALID,0,0,0,0,0,1,0,0,0,0,0,0,0,0,0,0,0,0,0,0,0.11,347.76,2,0,0.06,0.06,357,14.29,0.08,0.06,26.18,FLYING,CF1-F,0:/Integrated Flight Computer/aircraft/cf1_f_cfg.ks (inferred preloaded)
26.46,APPROACH,FLY_TO_FIX,192.46,77,-115.46,1399.55,-1.44,0.26,1.45,252.63,64.808,0,0,-3.942,1,0.6,4.406,1.703,0.35,0.0168,0.4,276.15,0.141,0,0,-0.43,23.53,0,0.13,276.14,0,0,0,0,0,0,0,56.426,0,0,0,0,0,89.89,0,0,0,0,0,0,0,0,0,0,0,0,0,0,0,0,0,VALID,0,0,0,0,0,1,0,0,0,0,0,0,0,0,0,0,0,0,0,0,0.1,347.79,2,0,0.06,0.06,361,14.29,0.08,0.06,26.46,FLYING,CF1-F,0:/Integrated Flight Computer/aircraft/cf1_f_cfg.ks (inferred preloaded)
26.74,APPROACH,FLY_TO_FIX,192.08,77,-115.08,1399.1,-1.59,0.23,1.27,253.89,62.73,0,0,-3.864,1,0.6,4.406,1.674,0.35,0.0168,0.4,276.21,0.19,0,0,-0.47,22.32,0,0.18,276.19,0,0,0,0,0,0,0,56.372,0,0,0,0,0,89.89,0,0,0,0,0,0,0,0,0,0,0,0,0,0,0,0,0,VALID,0,0,0,0,0,1,0,0,0,0,0,0,0,0,0,0,0,0,0,0,0.09,347.82,2,0,0.06,0.06,365,14.29,0.08,0.06,26.74,FLYING,CF1-F,0:/Integrated Flight Computer/aircraft/cf1_f_cfg.ks (inferred preloaded)
27.02,APPROACH,FLY_TO_FIX,191.75,77,-114.75,1398.62,-1.68,0.15,1.11,255.11,61.568,0,0,-3.787,1,0.6,4.407,1.635,0.35,0.0168,0.4,276.25,0.219,0,0,-0.5,21.15,0,0.21,276.24,0,0,0,0,0,0,0,56.316,0,0,0,0,0,89.89,0,0,0,0,0,0,0,0,0,0,0,0,0,0,0,0,0,VALID,0,0,0,0,0,1,0,0,0,0,0,0,0,0,0,0,0,0,0,0,0.09,347.85,2,0,0.06,0.06,369,14.29,0.08,0.06,27.02,FLYING,CF1-F,0:/Integrated Flight Computer/aircraft/cf1_f_cfg.ks (inferred preloaded)
27.3,APPROACH,FLY_TO_FIX,191.42,77,-114.42,1398.12,-1.77,0.11,0.96,256.24,59.418,0,0,-3.712,1,0.6,4.407,1.591,0.35,0.0168,0.4,276.3,0.25,0,0,-0.53,20.06,0,0.25,276.29,0,0,0,0,0,0,0,56.261,0,0,0,0,0,89.89,0,0,0,0,0,0,0,0,0,0,0,0,0,0,0,0,0,VALID,0,0,0,0,0,1,0,0,0,0,0,0,0,0,0,0,0,0,0,0,0.08,347.88,2,0,0.06,0.06,373,14.29,0.08,0.06,27.3,FLYING,CF1-F,0:/Integrated Flight Computer/aircraft/cf1_f_cfg.ks (inferred preloaded)
27.58,APPROACH,FLY_TO_FIX,191.13,77,-114.13,1397.59,-1.84,0.02,0.81,257.34,58.129,0,0,-3.638,1,0.6,4.407,1.54,0.35,0.0168,0.4,276.34,0.271,0,0,-0.55,19,0,0.26,276.33,0,0,0,0,0,0,0,56.205,0,0,0,0,0,89.89,0,0,0,0,0,0,0,0,0,0,0,0,0,0,0,0,0,VALID,0,0,0,0,0,1,0,0,0,0,0,0,0,0,0,0,0,0,0,0,0.07,347.92,2,0,0.06,0.06,377,14.29,0.08,0.06,27.58,FLYING,CF1-F,0:/Integrated Flight Computer/aircraft/cf1_f_cfg.ks (inferred preloaded)
27.86,APPROACH,FLY_TO_FIX,190.84,77,-113.84,1397.06,-1.86,-0.02,0.69,258.37,56.163,0,0,-3.566,1,0.6,4.408,1.488,0.35,0.0168,0.4,276.38,0.282,0,0,-0.56,18.01,0,0.28,276.37,0,0,0,0,0,0,0,56.149,0,0,0,0,0,89.89,0,0,0,0,0,0,0,0,0,0,0,0,0,0,0,0,0,VALID,0,0,0,0,0,1,0,0,0,0,0,0,0,0,0,0,0,0,0,0,0.07,347.95,2,0,0.06,0.06,381,14.29,0.08,0.06,27.86,FLYING,CF1-F,0:/Integrated Flight Computer/aircraft/cf1_f_cfg.ks (inferred preloaded)
28.14,APPROACH,FLY_TO_FIX,190.57,77,-113.57,1396.51,-1.9,-0.09,0.57,259.36,54.488,0,0,-3.495,1,0.6,4.408,1.432,0.35,0.0168,0.4,276.42,0.297,0,0,-0.57,17.07,0,0.29,276.41,0,0,0,0,0,0,0,56.093,0,0,0,0,0,89.89,0,0,0,0,0,0,0,0,0,0,0,0,0,0,0,0,0,VALID,0,0,0,0,0,1,0,0,0,0,0,0,0,0,0,0,0,0,0,0,0.06,347.99,2,0,0.06,0.06,385,14.29,0.08,0.06,28.14,FLYING,CF1-F,0:/Integrated Flight Computer/aircraft/cf1_f_cfg.ks (inferred preloaded)
28.42,APPROACH,FLY_TO_FIX,190.31,77,-113.31,1395.96,-1.88,-0.14,0.45,260.29,52.917,0,0,-3.426,1,0.6,4.409,1.379,0.35,0.0168,0.4,276.46,0.294,0,0,-0.57,16.17,0,0.29,276.45,0,0,0,0,0,0,0,56.037,0,0,0,0,0,89.89,0,0,0,0,0,0,0,0,0,0,0,0,0,0,0,0,0,VALID,0,0,0,0,0,1,0,0,0,0,0,0,0,0,0,0,0,0,0,0,0.06,348.03,2,0,0.06,0.06,389,14.29,0.08,0.06,28.42,FLYING,CF1-F,0:/Integrated Flight Computer/aircraft/cf1_f_cfg.ks (inferred preloaded)
28.7,APPROACH,FLY_TO_FIX,190.05,77,-113.05,1395.42,-1.89,-0.19,0.35,261.17,50.841,0,0,-3.358,1,0.6,4.409,1.326,0.35,0.0168,0.4,276.49,0.302,0,0,-0.57,15.32,0,0.3,276.48,0,0,0,0,0,0,0,55.981,0,0,0,0,0,89.89,0,0,0,0,0,0,0,0,0,0,0,0,0,0,0,0,0,VALID,0,0,0,0,0,1,0,0,0,0,0,0,0,0,0,0,0,0,0,0,0.06,348.06,2,0,0.06,0.06,393,14.29,0.08,0.06,28.7,FLYING,CF1-F,0:/Integrated Flight Computer/aircraft/cf1_f_cfg.ks (inferred preloaded)
28.98,APPROACH,FLY_TO_FIX,189.82,77,-112.82,1394.87,-1.87,-0.26,0.25,262.02,49.523,0,0,-3.291,1,0.6,4.409,1.275,0.35,0.0168,0.4,276.52,0.297,0,0,-0.56,14.51,0,0.3,276.52,0,0,0,0,0,0,0,55.924,0,0,0,0,0,89.89,0,0,0,0,0,0,0,0,0,0,0,0,0,0,0,0,0,VALID,0,0,0,0,0,1,0,0,0,0,0,0,0,0,0,0,0,0,0,0,0.05,348.1,2,0,0.06,0.06,397,14.29,0.08,0.06,28.98,FLYING,CF1-F,0:/Integrated Flight Computer/aircraft/cf1_f_cfg.ks (inferred preloaded)
29.26,APPROACH,FLY_TO_FIX,189.57,77,-112.57,1394.33,-1.85,-0.29,0.17,262.81,47.384,0,0,-3.226,1,0.6,4.41,1.229,0.35,0.0168,0.4,276.56,0.293,0,0,-0.56,13.75,0,0.3,276.55,0,0,0,0,0,0,0,55.868,0,0,0,0,0,89.89,0,0,0,0,0,0,0,0,0,0,0,0,0,0,0,0,0,VALID,0,0,0,0,0,1,0,0,0,0,0,0,0,0,0,0,0,0,0,0,0.05,348.14,2,0,0.06,0.06,401,14.29,0.08,0.06,29.26,FLYING,CF1-F,0:/Integrated Flight Computer/aircraft/cf1_f_cfg.ks (inferred preloaded)
29.54,APPROACH,FLY_TO_FIX,189.35,77,-112.35,1393.8,-1.83,-0.36,0.08,263.57,45.909,0,0,-3.162,1,0.6,4.41,1.182,0.35,0.0168,0.4,276.58,0.29,0,0,-0.55,13.01,0,0.29,276.58,0,0,0,0,0,0,0,55.811,0,0,0,0,0,89.89,0,0,0,0,0,0,0,0,0,0,0,0,0,0,0,0,0,VALID,0,0,0,0,0,1,0,0,0,0,0,0,0,0,0,0,0,0,0,0,0.05,348.17,2,0,0.06,0.06,405,14.29,0.08,0.06,29.54,FLYING,CF1-F,0:/Integrated Flight Computer/aircraft/cf1_f_cfg.ks (inferred preloaded)
29.82,APPROACH,FLY_TO_FIX,189.12,77,-112.12,1393.28,-1.78,-0.39,0.01,264.29,44.007,0,0,-3.099,1,0.6,4.411,1.143,0.35,0.0168,0.4,276.61,0.278,0,0,-0.54,12.33,0,0.28,276.61,0,0,0,0,0,0,0,55.755,0,0,0,0,0,89.89,0,0,0,0,0,0,0,0,0,0,0,0,0,0,0,0,0,VALID,0,0,0,0,0,1,0,0,0,0,0,0,0,0,0,0,0,0,0,0,0.04,348.21,2,0,0.06,0.06,409,14.29,0.08,0.06,29.82,FLYING,CF1-F,0:/Integrated Flight Computer/aircraft/cf1_f_cfg.ks (inferred preloaded)
30.1,APPROACH,FLY_TO_FIX,188.9,77,-111.9,1392.77,-1.76,-0.44,-0.07,264.97,42.218,0,0,-3.037,1,0.6,4.411,1.103,0.35,0.0168,0.4,276.64,0.274,0,0,-0.53,11.67,0,0.28,276.63,0,0,0,0,0,0,0,55.698,0,0,0,0,0,89.89,0,0,0,0,0,0,0,0,0,0,0,0,0,0,0,0,0,VALID,0,0,0,0,0,1,0,0,0,0,0,0,0,0,0,0,0,0,0,0,0.04,348.24,2,0,0.06,0.06,413,14.29,0.08,0.06,30.1,FLYING,CF1-F,0:/Integrated Flight Computer/aircraft/cf1_f_cfg.ks (inferred preloaded)
30.38,APPROACH,FLY_TO_FIX,188.68,77,-111.68,1392.28,-1.7,-0.48,-0.13,265.62,40.72,0,0,-2.977,1,0.6,4.412,1.069,0.35,0.0168,0.4,276.66,0.259,0,0,-0.52,11.04,0,0.26,276.66,0,0,0,0,0,0,0,55.642,0,0,0,0,0,89.89,0,0,0,0,0,0,0,0,0,0,0,0,0,0,0,0,0,VALID,0,0,0,0,0,1,0,0,0,0,0,0,0,0,0,0,0,0,0,0,0.04,348.28,2,0,0.06,0.06,417,14.29,0.08,0.06,30.38,FLYING,CF1-F,0:/Integrated Flight Computer/aircraft/cf1_f_cfg.ks (inferred preloaded)
30.66,APPROACH,FLY_TO_FIX,188.46,77,-111.46,1391.79,-1.66,-0.51,-0.19,266.23,38.654,0,0,-2.918,1,0.6,4.412,1.037,0.35,0.0168,0.4,276.68,0.251,0,0,-0.51,10.46,0,0.26,276.68,0,0,0,0,0,0,0,55.585,0,0,0,0,0,89.89,0,0,0,0,0,0,0,0,0,0,0,0,0,0,0,0,0,VALID,0,0,0,0,0,1,0,0,0,0,0,0,0,0,0,0,0,0,0,0,0,348.32,2,0,0.06,0.06,421,14.29,0.08,0.06,30.66,FLYING,CF1-F,0:/Integrated Flight Computer/aircraft/cf1_f_cfg.ks (inferred preloaded)
30.94,APPROACH,FLY_TO_FIX,188.26,77,-111.26,1391.32,-1.61,-0.56,-0.24,266.83,37.432,0,0,-2.86,1,0.6,4.413,1.007,0.35,0.0168,0.4,276.71,0.237,0,0,-0.49,9.88,0,0.24,276.7,0,0,0,0,0,0,0,55.529,0,0,0,0,0,89.89,0,0,0,0,0,0,0,0,0,0,0,0,0,0,0,0,0,VALID,0,0,0,0,0,1,0,0,0,0,0,0,0,0,0,0,0,0,0,0,0,348.35,2,0,0.06,0.06,425,14.29,0.08,0.06,30.94,FLYING,CF1-F,0:/Integrated Flight Computer/aircraft/cf1_f_cfg.ks (inferred preloaded)
31.22,APPROACH,FLY_TO_FIX,188.04,77,-111.04,1390.87,-1.56,-0.58,-0.28,267.37,35.434,0,0,-2.803,1,0.6,4.413,0.981,0.35,0.0168,0.4,276.73,0.225,0,0,-0.48,9.35,0,0.23,276.72,0,0,0,0,0,0,0,55.472,0,0,0,0,0,89.89,0,0,0,0,0,0,0,0,0,0,0,0,0,0,0,0,0,VALID,0,0,0,0,0,1,0,0,0,0,0,0,0,0,0,0,0,0,0,0,0,348.39,2,0,0.06,0.06,429,14.29,0.08,0.06,31.22,FLYING,CF1-F,0:/Integrated Flight Computer/aircraft/cf1_f_cfg.ks (inferred preloaded)
31.5,APPROACH,FLY_TO_FIX,187.85,77,-110.85,1390.43,-1.52,-0.63,-0.33,267.92,34.212,0,0,-2.748,1,0.6,4.413,0.955,0.35,0.0168,0.4,276.75,0.214,0,0,-0.46,8.83,0,0.22,276.74,0,0,0,0,0,0,0,55.416,0,0,0,0,0,89.89,0,0,0,0,0,0,0,0,0,0,0,0,0,0,0,0,0,VALID,0,0,0,0,0,1,0,0,0,0,0,0,0,0,0,0,0,0,0,0,0,348.42,2,0,0.06,0.06,433,14.29,0.08,0.06,31.5,FLYING,CF1-F,0:/Integrated Flight Computer/aircraft/cf1_f_cfg.ks (inferred preloaded)
31.78,APPROACH,FLY_TO_FIX,187.64,77,-110.64,1390,-1.46,-0.65,-0.37,268.42,32.462,0,0,-2.693,1,0.6,4.414,0.934,0.35,0.0168,0.4,276.76,0.199,0,0,-0.45,8.35,0,0.2,276.76,0,0,0,0,0,0,0,55.359,0,0,0,0,0,89.89,0,0,0,0,0,0,0,0,0,0,0,0,0,0,0,0,0,VALID,0,0,0,0,0,1,0,0,0,0,0,0,0,0,0,0,0,0,0,0,0,348.45,2,0,0.06,0.06,437,14.29,0.08,0.06,31.78,FLYING,CF1-F,0:/Integrated Flight Computer/aircraft/cf1_f_cfg.ks (inferred preloaded)
32.06,APPROACH,FLY_TO_FIX,187.44,77,-110.44,1389.59,-1.43,-0.68,-0.4,268.9,31.072,0,0,-2.64,1,0.6,4.414,0.912,0.35,0.0168,0.4,276.78,0.191,0,0,-0.44,7.88,0,0.19,276.78,0,0,0,0,0,0,0,55.303,0,0,0,0,0,89.89,0,0,0,0,0,0,0,0,0,0,0,0,0,0,0,0,0,VALID,0,0,0,0,0,1,0,0,0,0,0,0,0,0,0,0,0,0,0,0,0,348.49,2,0,0.06,0.06,441,14.29,0.08,0.06,32.06,FLYING,CF1-F,0:/Integrated Flight Computer/aircraft/cf1_f_cfg.ks (inferred preloaded)
32.34,APPROACH,FLY_TO_FIX,187.24,77,-110.24,1389.19,-1.37,-0.7,-0.43,269.36,29.631,0,0,-2.587,1,0.6,4.415,0.894,0.35,0.0168,0.4,276.8,0.176,0,0,-0.42,7.44,0,0.18,276.79,0,0,0,0,0,0,0,55.247,0,0,0,0,0,89.89,0,0,0,0,0,0,0,0,0,0,0,0,0,0,0,0,0,VALID,0,0,0,0,0,1,0,0,0,0,0,0,0,0,0,0,0,0,0,0,0,348.52,2,0,0.06,0.06,445,14.29,0.08,0.06,32.34,FLYING,CF1-F,0:/Integrated Flight Computer/aircraft/cf1_f_cfg.ks (inferred preloaded)
32.62,APPROACH,FLY_TO_FIX,187.05,77,-110.05,1388.8,-1.33,-0.72,-0.46,269.79,28.216,0,0,-2.536,1,0.6,4.415,0.875,0.35,0.0168,0.4,276.81,0.167,0,0,-0.41,7.02,0,0.17,276.81,0,0,0,0,0,0,0,55.19,0,0,0,0,0,89.89,0,0,0,0,0,0,0,0,0,0,0,0,0,0,0,0,0,VALID,0,0,0,0,0,1,0,0,0,0,0,0,0,0,0,0,0,0,0,0,0,348.55,2,0,0.06,0.06,449,14.29,0.08,0.06,32.62,FLYING,CF1-F,0:/Integrated Flight Computer/aircraft/cf1_f_cfg.ks (inferred preloaded)
32.9,APPROACH,FLY_TO_FIX,186.86,77,-109.86,1388.43,-1.29,-0.75,-0.49,270.22,27.057,0,0,-2.486,1,0.6,4.416,0.858,0.35,0.0168,0.4,276.83,0.156,0,0,-0.4,6.61,0,0.16,276.82,0,0,0,0,0,0,0,55.134,0,0,0,0,0,89.89,0,0,0,0,0,0,0,0,0,0,0,0,0,0,0,0,0,VALID,0,0,0,0,0,1,0,0,0,0,0,0,0,0,0,0,0,0,0,0,0,348.59,2,0,0.06,0.06,453,14.29,0.08,0.06,32.9,FLYING,CF1-F,0:/Integrated Flight Computer/aircraft/cf1_f_cfg.ks (inferred preloaded)
33.18,APPROACH,FLY_TO_FIX,186.66,77,-109.66,1388.06,-1.25,-0.76,-0.51,270.61,25.685,0,0,-2.436,1,0.6,4.416,0.844,0.35,0.0168,0.4,276.84,0.145,0,0,-0.38,6.23,0,0.15,276.84,0,0,0,0,0,0,0,55.078,0,0,0,0,0,89.89,0,0,0,0,0,0,0,0,0,0,0,0,0,0,0,0,0,VALID,0,0,0,0,0,1,0,0,0,0,0,0,0,0,0,0,0,0,0,0,0,348.62,2,0,0.06,0.06,457,14.29,0.08,0.06,33.18,FLYING,CF1-F,0:/Integrated Flight Computer/aircraft/cf1_f_cfg.ks (inferred preloaded)
33.46,APPROACH,FLY_TO_FIX,186.47,77,-109.47,1387.71,-1.21,-0.78,-0.53,270.98,24.411,0,0,-2.388,1,0.6,4.416,0.83,0.35,0.0168,0.4,276.85,0.136,0,0,-0.37,5.87,0,0.14,276.85,0,0,0,0,0,0,0,55.022,0,0,0,0,0,89.89,0,0,0,0,0,0,0,0,0,0,0,0,0,0,0,0,0,VALID,0,0,0,0,0,1,0,0,0,0,0,0,0,0,0,0,0,0,0,0,0,348.65,2,0,0.06,0.06,461,14.29,0.08,0.06,33.46,FLYING,CF1-F,0:/Integrated Flight Computer/aircraft/cf1_f_cfg.ks (inferred preloaded)
33.74,APPROACH,FLY_TO_FIX,186.29,77,-109.29,1387.37,-1.17,-0.79,-0.55,271.34,23.328,0,0,-2.34,1,0.6,4.417,0.817,0.35,0.0168,0.4,276.87,0.125,0,0,-0.36,5.52,0,0.13,276.86,0,0,0,0,0,0,0,54.966,0,0,0,0,0,89.89,0,0,0,0,0,0,0,0,0,0,0,0,0,0,0,0,0,VALID,0,0,0,0,0,1,0,0,0,0,0,0,0,0,0,0,0,0,0,0,0,348.68,2,0,0.06,0.06,465,14.29,0.08,0.06,33.74,FLYING,CF1-F,0:/Integrated Flight Computer/aircraft/cf1_f_cfg.ks (inferred preloaded)
34.02,APPROACH,FLY_TO_FIX,186.1,77,-109.1,1387.05,-1.14,-0.81,-0.56,271.68,22.164,0,0,-2.294,1,0.6,4.417,0.805,0.35,0.0168,0.4,276.88,0.117,0,0,-0.35,5.2,0,0.12,276.87,0,0,0,0,0,0,0,54.91,0,0,0,0,0,89.89,0,0,0,0,0,0,0,0,0,0,0,0,0,0,0,0,0,VALID,0,0,0,0,0,1,0,0,0,0,0,0,0,0,0,0,0,0,0,0,0,348.72,2,0,0.06,0.06,469,14.29,0.08,0.06,34.02,FLYING,CF1-F,0:/Integrated Flight Computer/aircraft/cf1_f_cfg.ks (inferred preloaded)
34.3,APPROACH,FLY_TO_FIX,185.92,77,-108.92,1386.73,-1.1,-0.82,-0.58,272,21.056,0,0,-2.249,1,0.6,4.418,0.793,0.35,0.0168,0.4,276.89,0.108,0,0,-0.34,4.89,0,0.11,276.89,0,0,0,0,0,0,0,54.854,0,0,0,0,0,89.89,0,0,0,0,0,0,0,0,0,0,0,0,0,0,0,0,0,VALID,0,0,0,0,0,1,0,0,0,0,0,0,0,0,0,0,0,0,0,0,0,348.75,2,0,0.06,0.06,473,14.29,0.08,0.06,34.3,FLYING,CF1-F,0:/Integrated Flight Computer/aircraft/cf1_f_cfg.ks (inferred preloaded)
34.58,APPROACH,FLY_TO_FIX,185.73,77,-108.73,1386.42,-1.07,-0.82,-0.59,272.31,20.031,0,0,-2.204,1,0.6,4.418,0.783,0.35,0.0168,0.4,276.9,0.1,0,0,-0.33,4.59,0,0.1,276.9,0,0,0,0,0,0,0,54.798,0,0,0,0,0,89.89,0,0,0,0,0,0,0,0,0,0,0,0,0,0,0,0,0,VALID,0,0,0,0,0,1,0,0,0,0,0,0,0,0,0,0,0,0,0,0,0,348.78,2,0,0.06,0.06,477,14.29,0.08,0.06,34.58,FLYING,CF1-F,0:/Integrated Flight Computer/aircraft/cf1_f_cfg.ks (inferred preloaded)
34.86,APPROACH,FLY_TO_FIX,185.55,77,-108.55,1386.12,-1.04,-0.83,-0.6,272.6,18.999,0,0,-2.16,1,0.6,4.419,0.773,0.35,0.0168,0.4,276.91,0.092,0,0,-0.32,4.31,0,0.09,276.91,0,0,0,0,0,0,0,54.742,0,0,0,0,0,89.89,0,0,0,0,0,0,0,0,0,0,0,0,0,0,0,0,0,VALID,0,0,0,0,0,1,0,0,0,0,0,0,0,0,0,0,0,0,0,0,0,348.81,2,0,0.06,0.06,481,14.29,0.08,0.06,34.86,FLYING,CF1-F,0:/Integrated Flight Computer/aircraft/cf1_f_cfg.ks (inferred preloaded)
35.14,APPROACH,FLY_TO_FIX,185.37,77,-108.37,1385.83,-1.01,-0.84,-0.61,272.87,17.972,0,0,-2.117,1,0.6,4.419,0.764,0.35,0.0168,0.4,276.92,0.084,0,0,-0.31,4.04,0,0.09,276.91,0,0,0,0,0,0,0,54.686,0,0,0,0,0,89.89,0,0,0,0,0,0,0,0,0,0,0,0,0,0,0,0,0,VALID,0,0,0,0,0,1,0,0,0,0,0,0,0,0,0,0,0,0,0,0,0,348.84,2,0,0.06,0.06,485,14.29,0.08,0.06,35.14,FLYING,CF1-F,0:/Integrated Flight Computer/aircraft/cf1_f_cfg.ks (inferred preloaded)
35.42,APPROACH,FLY_TO_FIX,185.19,77,-108.19,1385.55,-0.98,-0.84,-0.62,273.13,16.964,0,0,-2.075,1,0.6,4.419,0.757,0.35,0.0168,0.4,276.92,0.076,0,0,-0.3,3.79,0,0.08,276.92,0,0,0,0,0,0,0,54.631,0,0,0,0,0,89.89,0,0,0,0,0,0,0,0,0,0,0,0,0,0,0,0,0,VALID,0,0,0,0,0,1,0,0,0,0,0,0,0,0,0,0,0,0,0,0,0,348.87,2,0,0.06,0.06,489,14.29,0.08,0.06,35.42,FLYING,CF1-F,0:/Integrated Flight Computer/aircraft/cf1_f_cfg.ks (inferred preloaded)
35.7,APPROACH,FLY_TO_FIX,185.01,77,-108.01,1385.28,-0.95,-0.85,-0.62,273.38,15.986,0,0,-2.034,1,0.6,4.42,0.75,0.35,0.0168,0.4,276.93,0.068,0,0,-0.29,3.55,0,0.07,276.93,0,0,0,0,0,0,0,54.575,0,0,0,0,0,89.89,0,0,0,0,0,0,0,0,0,0,0,0,0,0,0,0,0,VALID,0,0,0,0,0,1,0,0,0,0,0,0,0,0,0,0,0,0,0,0,0,348.9,2,0,0.06,0.06,493,14.29,0.08,0.06,35.7,FLYING,CF1-F,0:/Integrated Flight Computer/aircraft/cf1_f_cfg.ks (inferred preloaded)
35.98,APPROACH,FLY_TO_FIX,184.83,77,-107.83,1385.02,-0.92,-0.85,-0.63,273.61,15.043,0,0,-1.994,1,0.6,4.42,0.75,0.35,0.0168,0.4,276.94,0.061,0,0,-0.28,3.33,0,0.06,276.94,0,0,0,0,0,0,0,54.519,0,0,0,0,0,89.89,0,0,0,0,0,0,0,0,0,0,0,0,0,0,0,0,0,VALID,0,0,0,0,0,1,0,0,0,0,0,0,0,0,0,0,0,0,0,0,0,348.93,2,0,0.06,0.06,497,14.29,0.08,0.06,35.98,FLYING,CF1-F,0:/Integrated Flight Computer/aircraft/cf1_f_cfg.ks (inferred preloaded)
36.26,APPROACH,FLY_TO_FIX,184.65,77,-107.65,1384.76,-0.89,-0.85,-0.63,273.83,14.137,0,0,-1.954,1,0.6,4.421,0.75,0.35,0.0168,0.4,276.95,0.053,0,0,-0.28,3.12,0,0.06,276.94,0,0,0,0,0,0,0,54.464,0,0,0,0,0,89.89,0,0,0,0,0,0,0,0,0,0,0,0,0,0,0,0,0,VALID,0,0,0,0,0,1,0,0,0,0,0,0,0,0,0,0,0,0,0,0,0,348.96,2,0,0.06,0.06,501,14.29,0.08,0.06,36.26,FLYING,CF1-F,0:/Integrated Flight Computer/aircraft/cf1_f_cfg.ks (inferred preloaded)
36.54,APPROACH,FLY_TO_FIX,184.47,77,-107.47,1384.52,-0.86,-0.85,-0.64,274.04,13.272,0,0,-1.915,1,0.6,4.421,0.75,0.35,0.0168,0.4,276.95,0.045,0,0,-0.27,2.92,0,0.05,276.95,0,0,0,0,0,0,0,54.408,0,0,0,0,0,89.89,0,0,0,0,0,0,0,0,0,0,0,0,0,0,0,0,0,VALID,0,0,0,0,0,1,0,0,0,0,0,0,0,0,0,0,0,0,0,0,0,348.99,2,0,0.06,0.06,505,14.29,0.08,0.06,36.54,FLYING,CF1-F,0:/Integrated Flight Computer/aircraft/cf1_f_cfg.ks (inferred preloaded)
36.82,APPROACH,FLY_TO_FIX,184.29,77,-107.29,1384.28,-0.83,-0.85,-0.64,274.23,12.449,0,0,-1.877,1,0.6,4.421,0.75,0.35,0.0168,0.4,276.96,0.037,0,0,-0.26,2.73,0,0.04,276.96,0,0,0,0,0,0,0,54.353,0,0,0,0,0,89.89,0,0,0,0,0,0,0,0,0,0,0,0,0,0,0,0,0,VALID,0,0,0,0,0,1,0,0,0,0,0,0,0,0,0,0,0,0,0,0,0,349.03,2,0,0.06,0.06,509,14.29,0.08,0.06,36.82,FLYING,CF1-F,0:/Integrated Flight Computer/aircraft/cf1_f_cfg.ks (inferred preloaded)
37.1,APPROACH,FLY_TO_FIX,184.11,77,-107.11,1384.05,-0.8,-0.84,-0.64,274.41,11.668,0,0,-1.84,1,0.6,4.422,0.75,0.35,0.0168,0.4,276.96,0.029,0,0,-0.25,2.55,0,0.03,276.96,0,0,0,0,0,0,0,54.298,0,0,0,0,0,89.89,0,0,0,0,0,0,0,0,0,0,0,0,0,0,0,0,0,VALID,0,0,0,0,0,1,0,0,0,0,0,0,0,0,0,0,0,0,0,0,0,349.06,2,0,0.06,0.06,513,14.29,0.08,0.06,37.1,FLYING,CF1-F,0:/Integrated Flight Computer/aircraft/cf1_f_cfg.ks (inferred preloaded)
37.38,APPROACH,FLY_TO_FIX,183.93,77,-106.93,1383.84,-0.77,-0.84,-0.64,274.59,10.928,0,0,-1.803,1,0.6,4.422,0.75,0.35,0.0168,0.4,276.97,0.022,0,0,-0.24,2.38,0,0.02,276.97,0,0,0,0,0,0,0,54.242,0,0,0,0,0,89.89,0,0,0,0,0,0,0,0,0,0,0,0,0,0,0,0,0,VALID,0,0,0,0,0,1,0,0,0,0,0,0,0,0,0,0,0,0,0,0,0,349.09,2,0,0.06,0.06,517,14.29,0.08,0.06,37.38,FLYING,CF1-F,0:/Integrated Flight Computer/aircraft/cf1_f_cfg.ks (inferred preloaded)
37.66,APPROACH,FLY_TO_FIX,183.75,77,-106.75,1383.62,-0.74,-0.84,-0.65,274.75,10.23,0,0,-1.768,1,0.6,4.422,0.75,0.35,0.0168,0.4,276.97,0.015,0,0,-0.23,2.23,0,0.02,276.97,0,0,0,0,0,0,0,54.187,0,0,0,0,0,89.89,0,0,0,0,0,0,0,0,0,0,0,0,0,0,0,0,0,VALID,0,0,0,0,0,1,0,0,0,0,0,0,0,0,0,0,0,0,0,0,0,349.12,2,0,0.06,0.06,521,14.29,0.08,0.06,37.66,FLYING,CF1-F,0:/Integrated Flight Computer/aircraft/cf1_f_cfg.ks (inferred preloaded)
37.94,APPROACH,FLY_TO_FIX,183.57,77,-106.57,1383.42,-0.72,-0.83,-0.65,274.9,9.571,0,0,-1.733,1,0.6,4.423,0.75,0.35,0.0168,0.4,276.98,0.008,0,0,-0.22,2.08,0,0.01,276.98,0,0,0,0,0,0,0,54.132,0,0,0,0,0,89.89,0,0,0,0,0,0,0,0,0,0,0,0,0,0,0,0,0,VALID,0,0,0,0,0,1,0,0,0,0,0,0,0,0,0,0,0,0,0,0,0,349.15,2,0,0.06,0.06,525,14.29,0.08,0.06,37.94,FLYING,CF1-F,0:/Integrated Flight Computer/aircraft/cf1_f_cfg.ks (inferred preloaded)
38.22,APPROACH,FLY_TO_FIX,183.39,77,-106.39,1383.22,-0.69,-0.83,-0.65,275.04,8.95,0,0,-1.698,1,0.6,4.423,0.75,0.35,0.0168,0.4,276.98,0.001,0,0,-0.22,1.94,0,0,276.98,0,0,0,0,0,0,0,54.077,0,0,0,0,0,89.89,0,0,0,0,0,0,0,0,0,0,0,0,0,0,0,0,0,VALID,0,0,0,0,0,1,0,0,0,0,0,0,0,0,0,0,0,0,0,0,0,349.18,2,0,0.06,0.06,529,14.29,0.08,0.06,38.22,FLYING,CF1-F,0:/Integrated Flight Computer/aircraft/cf1_f_cfg.ks (inferred preloaded)
38.5,APPROACH,FLY_TO_FIX,183.21,77,-106.21,1383.03,-0.67,-0.82,-0.65,275.17,8.366,0,0,-1.664,1,0.6,4.424,0.75,0.35,0.0168,0.4,276.99,-0.005,0,0,-0.21,1.81,0,0,276.99,0,0,0,0,0,0,0,54.022,0,0,0,0,0,89.89,0,0,0,0,0,0,0,0,0,0,0,0,0,0,0,0,0,VALID,0,0,0,0,0,1,0,0,0,0,0,0,0,0,0,0,0,0,0,0,0,349.21,2,0,0.06,0.06,533,14.29,0.08,0.06,38.5,FLYING,CF1-F,0:/Integrated Flight Computer/aircraft/cf1_f_cfg.ks (inferred preloaded)
38.78,APPROACH,FLY_TO_FIX,183.03,77,-106.03,1382.85,-0.64,-0.82,-0.65,275.3,7.817,0,0,-1.631,1,0.6,4.424,0.75,0.35,0.0168,0.4,276.99,-0.011,0,0,-0.2,1.69,0,-0.01,276.99,0,0,0,0,0,0,0,53.967,0,0,0,0,0,89.89,0,0,0,0,0,0,0,0,0,0,0,0,0,0,0,0,0,VALID,0,0,0,0,0,1,0,0,0,0,0,0,0,0,0,0,0,0,0,0,0,349.24,2,0,0.06,0.06,537,14.29,0.08,0.06,38.78,FLYING,CF1-F,0:/Integrated Flight Computer/aircraft/cf1_f_cfg.ks (inferred preloaded)
39.06,APPROACH,FLY_TO_FIX,182.86,77,-105.86,1382.67,-0.62,-0.81,-0.64,275.41,7.302,0,0,-1.599,1,0.6,4.424,0.75,0.35,0.0168,0.4,276.99,-0.016,0,0,-0.2,1.58,0,-0.01,276.99,0,0,0,0,0,0,0,53.912,0,0,0,0,0,89.89,0,0,0,0,0,0,0,0,0,0,0,0,0,0,0,0,0,VALID,0,0,0,0,0,1,0,0,0,0,0,0,0,0,0,0,0,0,0,0,0,349.27,2,0,0.06,0.06,541,14.29,0.08,0.06,39.06,FLYING,CF1-F,0:/Integrated Flight Computer/aircraft/cf1_f_cfg.ks (inferred preloaded)
39.34,APPROACH,FLY_TO_FIX,182.68,77,-105.68,1382.5,-0.6,-0.81,-0.64,275.52,6.819,0,0,-1.567,1,0.6,4.425,0.75,0.35,0.0168,0.4,277,-0.022,0,0,-0.19,1.48,0,-0.02,277,0,0,0,0,0,0,0,53.857,0,0,0,0,0,89.89,0,0,0,0,0,0,0,0,0,0,0,0,0,0,0,0,0,VALID,0,0,0,0,0,1,0,0,0,0,0,0,0,0,0,0,0,0,0,0,0,349.3,2,0,0.06,0.06,545,14.29,0.08,0.06,39.34,FLYING,CF1-F,0:/Integrated Flight Computer/aircraft/cf1_f_cfg.ks (inferred preloaded)
39.62,APPROACH,FLY_TO_FIX,182.5,77,-105.5,1382.34,-0.58,-0.8,-0.64,275.62,6.367,0,0,-1.536,1,0.6,4.425,0.75,0.35,0.0168,0.4,277,-0.027,0,0,-0.18,1.38,0,-0.02,277,0,0,0,0,0,0,0,53.802,0,0,0,0,0,89.89,0,0,0,0,0,0,0,0,0,0,0,0,0,0,0,0,0,VALID,0,0,0,0,0,1,0,0,0,0,0,0,0,0,0,0,0,0,0,0,0,349.33,2,0,0.06,0.06,549,14.29,0.08,0.06,39.62,FLYING,CF1-F,0:/Integrated Flight Computer/aircraft/cf1_f_cfg.ks (inferred preloaded)
39.9,APPROACH,FLY_TO_FIX,182.32,77,-105.32,1382.18,-0.56,-0.8,-0.64,275.72,5.944,0,0,-1.506,1,0.6,4.426,0.75,0.35,0.0168,0.4,277,-0.031,0,0,-0.18,1.28,0,-0.03,277,0,0,0,0,0,0,0,53.748,0,0,0,0,0,89.89,0,0,0,0,0,0,0,0,0,0,0,0,0,0,0,0,0,VALID,0,0,0,0,0,1,0,0,0,0,0,0,0,0,0,0,0,0,0,0,0,349.36,2,0,0.06,0.06,553,14.29,0.08,0.06,39.9,FLYING,CF1-F,0:/Integrated Flight Computer/aircraft/cf1_f_cfg.ks (inferred preloaded)
40.18,APPROACH,FLY_TO_FIX,182.14,77,-105.14,1382.02,-0.55,-0.79,-0.64,275.81,5.548,0,0,-1.476,1,0.6,4.426,0.75,0.35,0.0168,0.4,277,-0.035,0,0,-0.17,1.2,0,-0.03,277,0,0,0,0,0,0,0,53.693,0,0,0,0,0,89.89,0,0,0,0,0,0,0,0,0,0,0,0,0,0,0,0,0,VALID,0,0,0,0,0,1,0,0,0,0,0,0,0,0,0,0,0,0,0,0,0,349.39,2,0,0.06,0.06,557,14.29,0.08,0.06,40.18,FLYING,CF1-F,0:/Integrated Flight Computer/aircraft/cf1_f_cfg.ks (inferred preloaded)
