t_s,phase,subphase,ias_ms,vapp_ms,spd_err_ms,agl_m,vs_ms,pitch_deg,aoa_deg,hdg_deg,bank_deg,thr_cmd,thr_cur,thr_intg,at_gain,at_tau_s,at_a_up,at_a_dn,at_kp_thr,at_ki_spd,at_thr_slew,aa_hdg_cmd_deg,aa_fpa_cmd_deg,aa_fbw,aa_dir,actual_fpa_deg,ftf_hdg_err_deg,ftf_fix_idx,kos_steer_pit_deg,kos_steer_hdg_deg,aa_dir_vx,aa_dir_vy,aa_dir_vz,aa_dir_pitch_deg,aa_dir_hdg_deg,ils_loc_m,ils_gs_m,ils_dist_km,loc_corr_deg,gs_corr_deg,flare_fpa_cmd,flare_tgt_vs,flare_frac,steer_hdg_deg,steer_blend,ro_loc_corr_deg,ro_hdg_err_deg,ro_yaw_tgt,ro_yaw_scale,ro_yaw_gate,yaw_cmd,roll_cmd,pitch_cmd,ro_pitch_tgt_deg,ro_pitch_err_deg,ro_pitch_ff,ro_roll_assist,flaps_cur,flaps_tgt,asc_j_ab,asc_j_rk,asc_validity,asc_q_pa,asc_q_raw_pa,asc_mach,asc_apo_m,asc_drag_n,asc_w_prop,asc_edot_aero,asc_edot_orb,asc_pitch_bias,asc_blend,asc_spooling,asc_ab_thr_ratio,asc_ab_t_now,asc_ab_t_avail,asc_ab_ign_on,asc_ab_flameouts,asc_rk_t_now,asc_rk_t_avail,asc_rk_ign_on,asc_rk_flameouts,ship_thrust,ship_avail_thrust,ship_ign_on,ship_flameouts,ifc_raw_dt_s,ifc_dt_s,ifc_loop_n,ifc_hz_est,ifc_raw_dt_max_s,ifc_raw_dt_min_s,phase_el_s,status,craft_name,cfg_file
0.12,TAKEOFF,TO_PREFLIGHT,0.39,80,79.61,3.85,0.16,0.3,-37.95,88.86,0.104,0.032,0,0,0,0,0,0,0,0,0,90.4,0,1,0,13.38,0,0,0,90,0,0,0,0,0,0,0,0,0,0,0,0,0,90.4,1,0,-1.536,0,0,1,0,0,0,0,0,0,0,0,2,0,0,VALID,0,0,0,0,0,1,0,0,0,0,0,0,0,0,0,0,0,0,0,0,0,887.94,2,0,0.08,0.08,1,3.45,0.08,0.02,0.04,LANDED,X10-G,0:/Integrated Flight Computer/aircraft/x10_g_cfg.ks (inferred preloaded)
0.38,TAKEOFF,TO_PREFLIGHT,0.4,80,79.6,3.57,-0.25,-0.43,44,88.83,0.155,0.12,0,0,0,0,0,0,0,0,0,90.4,0,1,0,-14.16,0,0,0,90,0,0,0,0,0,0,0,0,0,0,0,0,0,90.4,1,0,-1.548,0,0,1,0,0,0,0,0,0,0,1,2,0,0,VALID,0,0,0,0,0,1,0,0,0,0,0,0,0,0,0,0,0,0,0,0,2.07,887.94,2,0,0.04,0.04,6,19.23,0.12,0.04,0.3,LANDED,X10-G,0:/Integrated Flight Computer/aircraft/x10_g_cfg.ks (inferred preloaded)
0.64,TAKEOFF,TO_PREFLIGHT,0.24,80,79.76,3.66,0.05,-0.21,-31.96,88.81,0.154,0.224,0,0,0,0,0,0,0,0,0,90.4,0,1,0,2.99,0,0,0,90,0,0,0,0,0,0,0,0,0,0,0,0,0,90.4,1,0,-1.548,0,0,1,0,0,0,0,0,0,0,1,2,0,0,VALID,0,0,0,0,0,1,0,0,0,0,0,0,0,0,0,0,0,0,0,0,8.5,887.94,2,0,0.04,0.04,11,19.23,0.08,0.04,0.56,LANDED,X10-G,0:/Integrated Flight Computer/aircraft/x10_g_cfg.ks (inferred preloaded)
0.94,TAKEOFF,TO_PREFLIGHT,0.11,80,79.89,3.58,0.04,-0.38,-5.1,88.8,0.082,0.344,0,0,0,0,0,0,0,0,0,90.4,0,1,0,2.43,0,0,0,90,0,0,0,0,0,0,0,0,0,0,0,0,0,90.4,1,0,-1.548,0,0,1,0,0,0,0,0,0,0,2,2,0,0,VALID,0,0,0,0,0,1,0,0,0,0,0,0,0,0,0,0,0,0,0,0,21.3,887.94,2,0,0.06,0.06,16,16.67,0.08,0.04,0.86,LANDED,X10-G,0:/Integrated Flight Computer/aircraft/x10_g_cfg.ks (inferred preloaded)
1.24,TAKEOFF,TO_PREFLIGHT,0.04,80,79.96,3.61,-0.07,-0.34,69.39,88.8,0.111,0.464,0,0,0,0,0,0,0,0,0,90.4,0,1,0,-4,0,0,0,90,0,0,0,0,0,0,0,0,0,0,0,0,0,90.4,1,0,-1.548,0,0,1,0,0,0,0,0,0,0,2,2,0,0,VALID,0,0,0,0,0,1,0,0,0,0,0,0,0,0,0,0,0,0,0,0,39.68,887.94,2,0,0.08,0.08,22,20,0.08,0.04,1.16,LANDED,X10-G,0:/Integrated Flight Computer/aircraft/x10_g_cfg.ks (inferred preloaded)
1.52,TAKEOFF,TO_PREFLIGHT,0.03,80,79.97,3.61,0.04,-0.31,-80.59,88.8,0.129,0.576,0,0,0,0,0,0,0,0,0,90.4,0,1,0,2.06,0,0,0,90,0,0,0,0,0,0,0,0,0,0,0,0,0,90.4,1,0,-1.548,0,0,1,0,0,0,0,0,0,0,2,2,0,0,VALID,0,0,0,0,0,1,0,0,0,0,0,0,0,0,0,0,0,0,0,0,61.38,887.94,2,0,0.04,0.04,28,21.43,0.08,0.04,1.44,LANDED,X10-G,0:/Integrated Flight Computer/aircraft/x10_g_cfg.ks (inferred preloaded)
1.8,TAKEOFF,TO_PREFLIGHT,0.04,80,79.96,3.6,-0.01,-0.37,10.46,88.8,0.106,0.688,0,0,0,0,0,0,0,0,0,90.4,0,1,0,-0.72,0,0,0,90,0,0,0,0,0,0,0,0,0,0,0,0,0,90.4,1,0,-1.548,0,0,1,0,0,0,0,0,0,0,2,2,0,0,VALID,0,0,0,0,0,1,0,0,0,0,0,0,0,0,0,0,0,0,0,0,87.29,887.94,2,0,0.04,0.04,33,17.86,0.08,0.04,1.72,LANDED,X10-G,0:/Integrated Flight Computer/aircraft/x10_g_cfg.ks (inferred preloaded)
2.06,TAKEOFF,TO_PREFLIGHT,0.02,80,79.98,3.6,0,-0.35,-5.64,88.8,0.108,0.792,0,0,0,0,0,0,0,0,0,90.4,0,1,0,0.15,0,0,0,90,0,0,0,0,0,0,0,0,0,0,0,0,0,90.4,1,0,-1.548,0,0,1,0,0,0,0,0,0,0,2,2,0,0,VALID,0,0,0,0,0,1,0,0,0,0,0,0,0,0,0,0,0,0,0,0,115.01,887.94,2,0,0.04,0.04,38,19.23,0.08,0.04,1.98,LANDED,X10-G,0:/Integrated Flight Computer/aircraft/x10_g_cfg.ks (inferred preloaded)
2.32,TAKEOFF,TO_PREFLIGHT,0.03,80,79.97,3.6,0,-0.36,0.25,88.8,0.118,0.896,0,0,0,0,0,0,0,0,0,90.4,0,1,0,-0.02,0,0,0,90,0,0,0,0,0,0,0,0,0,0,0,0,0,90.4,1,0,-1.548,0,0,1,0,0,0,0,0,0,0,2,2,0,0,VALID,0,0,0,0,0,1,0,0,0,0,0,0,0,0,0,0,0,0,0,0,145.94,887.94,2,0,0.06,0.06,42,15.38,0.08,0.04,2.24,LANDED,X10-G,0:/Integrated Flight Computer/aircraft/x10_g_cfg.ks (inferred preloaded)
2.58,TAKEOFF,TO_PREFLIGHT,0.05,80,79.95,3.6,0,-0.38,-5.91,88.8,0.115,1,0,0,0,0,0,0,0,0,0,90.4,0,1,0,0.24,0,0,0,90,0,0,0,0,0,0,0,0,0,0,0,0,0,90.4,1,0,-1.548,0,0,1,0,0,0,0,0,0,0,2,2,0,0,VALID,0,0,0,0,0,1,0,0,0,0,0,0,0,0,0,0,0,0,0,0,179.95,887.94,2,0,0.06,0.06,46,15.38,0.08,0.04,2.5,LANDED,X10-G,0:/Integrated Flight Computer/aircraft/x10_g_cfg.ks (inferred preloaded)
2.84,TAKEOFF,TO_PREFLIGHT,0.05,80,79.95,3.6,0,-0.38,3.9,88.8,0.111,1,0,0,0,0,0,0,0,0,0,90.4,0,1,0,-0.23,0,0,0,90,0,0,0,0,0,0,0,0,0,0,0,0,0,90.4,1,0,-1.548,0,0,1,0,0,0,0,0,0,0,2,2,0,0,VALID,0,0,0,0,0,1,0,0,0,0,0,0,0,0,0,0,0,0,0,0,215.73,887.94,2,0,0.06,0.06,50,15.38,0.08,0.04,2.76,LANDED,X10-G,0:/Integrated Flight Computer/aircraft/x10_g_cfg.ks (inferred preloaded)
3.1,TAKEOFF,TO_PREFLIGHT,0.06,80,79.94,3.59,0,-0.39,-3.94,88.79,0.113,1,0,0,0,0,0,0,0,0,0,90.4,0,1,0,0.12,0,0,0,90,0,0,0,0,0,0,0,0,0,0,0,0,0,90.4,1,0,-1.548,0,0,1,0,0,0,0,0,0,0,2,2,0,0,VALID,0,0,0,0,0,1,0,0,0,0,0,0,0,0,0,0,0,0,0,0,249.86,887.94,2,0,0.06,0.06,54,15.38,0.08,0.04,3.02,LANDED,X10-G,0:/Integrated Flight Computer/aircraft/x10_g_cfg.ks (inferred preloaded)
3.36,TAKEOFF,TO_PREFLIGHT,0.08,80,79.92,3.58,0,-0.42,-2.08,88.79,0.115,1,0,0,0,0,0,0,0,0,0,90.4,0,1,0,0.18,0,0,0,90,0,0,0,0,0,0,0,0,0,0,0,0,0,90.4,1,0,-1.548,0,0,1,0,0,0,0,0,0,0,2,2,0,0,VALID,0,0,0,0,0,1,0,0,0,0,0,0,0,0,0,0,0,0,0,0,282.25,887.94,2,0,0.06,0.06,58,15.38,0.08,0.04,3.28,LANDED,X10-G,0:/Integrated Flight Computer/aircraft/x10_g_cfg.ks (inferred preloaded)
3.62,TAKEOFF,TO_PREFLIGHT,0.08,80,79.92,3.58,0,-0.42,1.2,88.78,0.113,1,0,0,0,0,0,0,0,0,0,90.4,0,1,0,-0.15,0,0,0,90,0,0,0,0,0,0,0,0,0,0,0,0,0,90.4,1,0,-1.548,0,0,1,0,0,0,0,0,0,0,2,2,0,0,VALID,0,0,0,0,0,1,0,0,0,0,0,0,0,0,0,0,0,0,0,0,313,887.93,2,0,0.06,0.06,62,15.38,0.08,0.04,3.54,LANDED,X10-G,0:/Integrated Flight Computer/aircraft/x10_g_cfg.ks (inferred preloaded)
3.88,TAKEOFF,TO_PREFLIGHT,0.09,80,79.91,3.58,0,-0.43,-1.26,88.78,0.112,1,0,0,0,0,0,0,0,0,0,90.4,0,1,0,0.09,0,0,0,90,0,0,0,0,0,0,0,0,0,0,0,0,0,90.4,1,0,-1.548,0,0,1,0,0,0,0,0,0,0,2,2,0,0,VALID,0,0,0,0,0,1,0,0,0,0,0,0,0,0,0,0,0,0,0,0,342.19,887.93,2,0,0.06,0.06,66,15.38,0.08,0.04,3.8,LANDED,X10-G,0:/Integrated Flight Computer/aircraft/x10_g_cfg.ks (inferred preloaded)
4.14,TAKEOFF,TO_PREFLIGHT,0.11,80,79.89,3.58,0,-0.44,-0.56,88.77,0.114,1,0,0,0,0,0,0,0,0,0,90.4,0,1,0,0.02,0,0,0,90,0,0,0,0,0,0,0,0,0,0,0,0,0,90.4,1,0,-1.548,0,0,1,0,0,0,0,0,0,0,2,2,0,0,VALID,0,0,0,0,0,1,0,0,0,0,0,0,0,0,0,0,0,0,0,0,369.9,887.93,2,0,0.06,0.06,70,15.38,0.08,0.04,4.06,LANDED,X10-G,0:/Integrated Flight Computer/aircraft/x10_g_cfg.ks (inferred preloaded)
4.4,TAKEOFF,TO_PREFLIGHT,0.11,80,79.89,3.58,0,-0.44,-0.14,88.76,0.114,1,0,0,0,0,0,0,0,0,0,90.4,0,1,0,-0.04,0,0,0,90,0,0,0,0,0,0,0,0,0,0,0,0,0,90.4,1,0,-1.548,0,0,1,0,0,0,0,0,0,0,2,2,0,0,VALID,0,0,0,0,0,1,0,0,0,0,0,0,0,0,0,0,0,0,0,0,396.2,887.93,2,0,0.06,0.06,74,15.38,0.08,0.04,4.32,LANDED,X10-G,0:/Integrated Flight Computer/aircraft/x10_g_cfg.ks (inferred preloaded)
4.66,TAKEOFF,TO_PREFLIGHT,0.12,80,79.88,3.58,0,-0.45,-0.38,88.75,0.113,1,0,0,0,0,0,0,0,0,0,90.4,0,1,0,-0.01,0,0,0,90,0,0,0,0,0,0,0,0,0,0,0,0,0,90.4,1,0,-1.548,0,0,1,0,0,0,0,0,0,0,2,2,0,0,VALID,0,0,0,0,0,1,0,0,0,0,0,0,0,0,0,0,0,0,0,0,421.16,887.93,2,0,0.06,0.06,78,15.38,0.08,0.04,4.58,LANDED,X10-G,0:/Integrated Flight Computer/aircraft/x10_g_cfg.ks (inferred preloaded)
4.92,TAKEOFF,TO_PREFLIGHT,0.13,80,79.87,3.57,0,-0.45,-0.44,88.74,0.114,1,0,0,0,0,0,0,0,0,0,90.4,0,1,0,-0.01,0,0,0,90,0,0,0,0,0,0,0,0,0,0,0,0,0,90.4,1,0,-1.548,0,0,1,0,0,0,0,0,0,0,2,2,0,0,VALID,0,0,0,0,0,1,0,0,0,0,0,0,0,0,0,0,0,0,0,0,444.86,887.93,2,0,0.06,0.06,82,15.38,0.08,0.04,4.84,LANDED,X10-G,0:/Integrated Flight Computer/aircraft/x10_g_cfg.ks (inferred preloaded)
5.18,TAKEOFF,TO_PREFLIGHT,0.14,80,79.86,3.57,0,-0.45,-0.15,88.73,0.114,1,0,0,0,0,0,0,0,0,0,90.4,0,1,0,-0.05,0,0,0,90,0,0,0,0,0,0,0,0,0,0,0,0,0,90.4,1,0,-1.548,0,0,1,0,0,0,0,0,0,0,2,2,0,0,VALID,0,0,0,0,0,1,0,0,0,0,0,0,0,0,0,0,0,0,0,0,467.35,887.93,2,0,0.06,0.06,86,15.38,0.08,0.04,5.1,LANDED,X10-G,0:/Integrated Flight Computer/aircraft/x10_g_cfg.ks (inferred preloaded)
5.44,TAKEOFF,TO_PREFLIGHT,0.14,80,79.86,3.57,0,-0.46,-0.43,88.72,0.115,1,0,0,0,0,0,0,0,0,0,90.4,0,1,0,-0.01,0,0,0,90,0,0,0,0,0,0,0,0,0,0,0,0,0,90.4,1,0,-1.548,0,0,1,0,0,0,0,0,0,0,2,2,0,0,VALID,0,0,0,0,0,1,0,0,0,0,0,0,0,0,0,0,0,0,0,0,488.71,887.93,2,0,0.06,0.06,90,15.38,0.08,0.04,5.36,LANDED,X10-G,0:/Integrated Flight Computer/aircraft/x10_g_cfg.ks (inferred preloaded)
5.7,TAKEOFF,TO_PREFLIGHT,0.15,80,79.85,3.57,0,-0.46,-0.08,88.71,0.115,1,0,0,0,0,0,0,0,0,0,90.4,0,1,0,-0.05,0,0,0,90,0,0,0,0,0,0,0,0,0,0,0,0,0,90.4,1,0,-1.548,0,0,1,0,0,0,0,0,0,0,2,2,0,0,VALID,0,0,0,0,0,1,0,0,0,0,0,0,0,0,0,0,0,0,0,0,508.97,887.93,2,0,0.06,0.06,94,15.38,0.08,0.04,5.62,LANDED,X10-G,0:/Integrated Flight Computer/aircraft/x10_g_cfg.ks (inferred preloaded)
5.96,TAKEOFF,TO_PREFLIGHT,0.16,80,79.84,3.57,0,-0.46,-0.22,88.7,0.115,1,0,0,0,0,0,0,0,0,0,90.4,0,1,0,-0.03,0,0,0,90,0,0,0,0,0,0,0,0,0,0,0,0,0,90.4,1,0,-1.548,0,0,1,0,0,0,0,0,0,0,2,2,0,0,VALID,0,0,0,0,0,1,0,0,0,0,0,0,0,0,0,0,0,0,0,0,528.21,887.93,2,0,0.06,0.06,98,15.38,0.08,0.04,5.88,LANDED,X10-G,0:/Integrated Flight Computer/aircraft/x10_g_cfg.ks (inferred preloaded)
6.22,TAKEOFF,TO_PREFLIGHT,0.16,80,79.84,3.57,0,-0.47,-0.4,88.69,0.115,1,0,0,0,0,0,0,0,0,0,90.4,0,1,0,-0.02,0,0,0,90,0,0,0,0,0,0,0,0,0,0,0,0,0,90.4,1,0,-1.548,0,0,1,0,0,0,0,0,0,0,2,2,0,0,VALID,0,0,0,0,0,1,0,0,0,0,0,0,0,0,0,0,0,0,0,0,546.48,887.93,2,0,0.06,0.06,102,15.38,0.08,0.04,6.14,LANDED,X10-G,0:/Integrated Flight Computer/aircraft/x10_g_cfg.ks (inferred preloaded)
6.48,TAKEOFF,TO_PREFLIGHT,0.17,80,79.83,3.57,0,-0.47,-0.06,88.67,0.115,1,0,0,0,0,0,0,0,0,0,90.4,0,1,0,-0.1,0,0,0,90,0,0,0,0,0,0,0,0,0,0,0,0,0,90.4,1,0,-1.548,0,0,1,0,0,0,0,0,0,0,2,2,0,0,VALID,0,0,0,0,0,1,0,0,0,0,0,0,0,0,0,0,0,0,0,0,563.81,887.92,2,0,0.06,0.06,106,15.38,0.08,0.04,6.4,LANDED,X10-G,0:/Integrated Flight Computer/aircraft/x10_g_cfg.ks (inferred preloaded)
6.74,TAKEOFF,TO_PREFLIGHT,0.18,80,79.82,3.57,0,-0.47,-0.48,88.66,0.115,1,0,0,0,0,0,0,0,0,0,90.4,0,1,0,-0.01,0,0,0,90,0,0,0,0,0,0,0,0,0,0,0,0,0,90.4,1,0,-1.548,0,0,1,0,0,0,0,0,0,0,2,2,0,0,VALID,0,0,0,0,0,1,0,0,0,0,0,0,0,0,0,0,0,0,0,0,580.26,887.92,2,0,0.06,0.06,110,15.38,0.08,0.04,6.66,LANDED,X10-G,0:/Integrated Flight Computer/aircraft/x10_g_cfg.ks (inferred preloaded)
7,TAKEOFF,TO_PREFLIGHT,0.19,80,79.81,3.57,0,-0.47,-0.08,88.64,0.114,1,0,0,0,0,0,0,0,0,0,90.4,0,1,0,-0.07,0,0,0,90,0,0,0,0,0,0,0,0,0,0,0,0,0,90.4,1,0,-1.548,0,0,1,0,0,0,0,0,0,0,2,2,0,0,VALID,0,0,0,0,0,1,0,0,0,0,0,0,0,0,0,0,0,0,0,0,595.88,887.92,2,0,0.06,0.06,114,15.38,0.08,0.04,6.92,LANDED,X10-G,0:/Integrated Flight Computer/aircraft/x10_g_cfg.ks (inferred preloaded)
7.26,TAKEOFF,TO_PREFLIGHT,0.2,80,79.8,3.57,0,-0.47,-0.23,88.62,0.113,1,0,0,0,0,0,0,0,0,0,90.4,0,1,0,-0.04,0,0,0,90,0,0,0,0,0,0,0,0,0,0,0,0,0,90.4,1,0,-1.548,0,0,1,0,0,0,0,0,0,0,2,2,0,0,VALID,0,0,0,0,0,1,0,0,0,0,0,0,0,0,0,0,0,0,0,0,610.71,887.92,2,0,0.06,0.06,118,15.38,0.08,0.04,7.18,LANDED,X10-G,0:/Integrated Flight Computer/aircraft/x10_g_cfg.ks (inferred preloaded)
7.52,TAKEOFF,TO_PREFLIGHT,0.22,80,79.78,3.57,0,-0.47,-0.13,88.59,0.115,1,0,0,0,0,0,0,0,0,0,90.4,0,1,0,-0.1,0,0,0,90,0,0,0,0,0,0,0,0,0,0,0,0,0,90.4,1,0,-1.548,0,0,1,0,0,0,0,0,0,0,2,2,0,0,VALID,0,0,0,0,0,1,0,0,0,0,0,0,0,0,0,0,0,0,0,0,624.78,887.92,2,0,0.06,0.06,122,15.38,0.08,0.04,7.44,LANDED,X10-G,0:/Integrated Flight Computer/aircraft/x10_g_cfg.ks (inferred preloaded)
7.78,TAKEOFF,TO_PREFLIGHT,0.26,80,79.74,3.57,0,-0.47,-0.2,88.57,0.115,1,0,0,0,0,0,0,0,0,0,90.4,0,1,0,-0.08,0,0,0,90,0,0,0,0,0,0,0,0,0,0,0,0,0,90.4,1,0,-1.548,0,0,1,0,0,0,0,0,0,0,2,2,0,0,VALID,0,0,0,0,0,1,0,0,0,0,0,0,0,0,0,0,0,0,0,0,638.14,887.92,2,0,0.06,0.06,126,15.38,0.08,0.04,7.7,LANDED,X10-G,0:/Integrated Flight Computer/aircraft/x10_g_cfg.ks (inferred preloaded)
8.04,TAKEOFF,TO_PREFLIGHT,0.33,80,79.67,3.57,0,-0.47,-0.17,88.55,0.115,1,0,0,0,0,0,0,0,0,0,90.4,0,1,0,-0.11,0,0,0,90,0,0,0,0,0,0,0,0,0,0,0,0,0,90.4,1,0,-1.548,0,0,1,0,0,0,0,0,0,0,2,2,0,0,VALID,0,0,0,0,0,1,0,0,0,0,0,0,0,0,0,0,0,0,0,0,650.82,887.92,2,0,0.06,0.06,130,15.38,0.08,0.04,7.96,LANDED,X10-G,0:/Integrated Flight Computer/aircraft/x10_g_cfg.ks (inferred preloaded)
8.3,TAKEOFF,TO_PREFLIGHT,0.41,80,79.59,3.57,0,-0.47,-0.12,88.53,0.115,1,0,0,0,0,0,0,0,0,0,90.4,0,1,0,-0.17,0,0,0,90,0,0,0,0,0,0,0,0,0,0,0,0,0,90.4,1,0,-1.548,0,0,1,0,0,0,0,0,0,0,2,2,0,0,VALID,0,0,0,0,0,1,0,0,0,0,0,0,0,0,0,0,0,0,0,0,662.86,887.92,2,0,0.06,0.06,134,15.38,0.08,0.04,8.22,LANDED,X10-G,0:/Integrated Flight Computer/aircraft/x10_g_cfg.ks (inferred preloaded)
8.56,TAKEOFF,TO_PREFLIGHT,0.52,80,79.48,3.57,0,-0.47,-0.18,88.5,0.115,1,0,0,0,0,0,0,0,0,0,90.4,0,1,0,-0.17,0,0,0,90,0,0,0,0,0,0,0,0,0,0,0,0,0,90.4,1,0,-1.548,0,0,1,0,0,0,0,0,0,0,2,2,0,0,VALID,0,0,0,0,0,1,0,0,0,0,0,0,0,0,0,0,0,0,0,0,674.28,887.92,2,0,0.06,0.06,138,15.38,0.08,0.04,8.48,LANDED,X10-G,0:/Integrated Flight Computer/aircraft/x10_g_cfg.ks (inferred preloaded)
8.82,TAKEOFF,TO_GROUND_ROLL,0.63,80,79.37,3.57,0,-0.48,-0.21,88.48,0.116,1,0,0,0,0,0,0,0,0,0,90.4,0,1,0,-0.19,0,0,0,90,0,0,0,0,0,0,0,0,0,0,0,0,0,90.4,1,0,-1.548,0,0,1,0,0,0,0,0,0,0,2,2,0,0,VALID,0,0,0,0,0,1,0,0,0,0,0,0,0,0,0,0,0,0,0,0,685.13,887.91,2,0,0.06,0.06,142,15.38,0.08,0.04,8.74,LANDED,X10-G,0:/Integrated Flight Computer/aircraft/x10_g_cfg.ks (inferred preloaded)
9.1,TAKEOFF,TO_GROUND_ROLL,1.09,80,78.91,3.61,-0.04,-0.31,1.09,88.47,0.107,1,0,0,0,0,0,0,0,0,0,90.39,0,1,0,-2.22,0,0,0,90,0,0,0,0,0,0,0,0,0.001,0,0,0,0,90.39,1,0.001,-1.923,0.1927,0.561,0,0.1927,0,0,0,0,0,0,2,2,0,0,VALID,0,0,0,0,0,1,0,0,0,0,0,0,0,0,0,0,0,0,0,0,696.19,887.91,2,0,0.06,0.06,146,14.29,0.08,0.06,9.04,LANDED,X10-G,0:/Integrated Flight Computer/aircraft/x10_g_cfg.ks (inferred preloaded)
9.38,TAKEOFF,TO_GROUND_ROLL,2.22,80,77.78,3.61,0.02,-0.33,-0.61,88.51,0.081,1,0,0,0,0,0,0,0,0,0,90.37,0,1,0,0.55,0,0,0,90,0,0,0,0,0,0,0,0,0.002,0,0,0,0,90.37,1,0.002,-1.862,0.1859,0.572,0,0.1859,0,0,0,0,0,0,2,2,0,0,VALID,0,0,0,0,0,1,0,0,0,0,0,0,0,0,0,0,0,0,0,0,706.64,887.89,2,0,0.06,0.06,150,14.29,0.08,0.06,9.32,LANDED,X10-G,0:/Integrated Flight Computer/aircraft/x10_g_cfg.ks (inferred preloaded)
9.66,TAKEOFF,TO_GROUND_ROLL,3.44,80,76.56,3.61,-0.05,-0.35,0.23,88.55,0.092,1,0,0,0,0,0,0,0,0,0,90.38,0,1,0,-0.8,0,0,0,90,0,0,0,0,0,0,0,0,0.004,0,0,0,0,90.38,1,0.004,-1.835,0.1891,0.584,0,0.1891,0,0,0,0,0,0,2,2,0,0,VALID,0,0,0,0,0,1,0,0,0,0,0,0,0,0,0,0,0,0,0,0,716.5,887.85,2,0,0.06,0.06,154,14.29,0.08,0.06,9.6,LANDED,X10-G,0:/Integrated Flight Computer/aircraft/x10_g_cfg.ks (inferred preloaded)
9.94,TAKEOFF,TO_GROUND_ROLL,4.67,80,75.33,3.61,-0.01,-0.31,-0.09,88.58,0.097,1,0,0,0,0,0,0,0,0,0,90.39,0,1,0,-0.18,0,0,0,90,0,0,0,0,0,0,0,0,0.005,0,0,0,0,90.39,1,0.005,-1.807,0.19,0.597,0,0.19,0,0,0,0,0,0,2,2,0,0,VALID,0,0,0,0,0,1,0,0,0,0,0,0,0,0,0,0,0,0,0,0,725.8,887.79,2,0,0.06,0.06,158,14.29,0.08,0.06,9.88,LANDED,X10-G,0:/Integrated Flight Computer/aircraft/x10_g_cfg.ks (inferred preloaded)
10.22,TAKEOFF,TO_GROUND_ROLL,5.92,80,74.08,3.6,-0.04,-0.35,-0.05,88.61,0.088,1,0,0,0,0,0,0,0,0,0,90.38,0,1,0,-0.37,0,0,0,90,0,0,0,0,0,0,0,0,0.007,0,0,0,0,90.38,1,0.007,-1.772,0.1897,0.609,0,0.1897,0,0,0,0,0,0,2,2,0,0,VALID,0,0,0,0,0,1,0,0,0,0,0,0,0,0,0,0,0,0,0,0,734.58,887.72,2,0,0.06,0.06,162,14.29,0.08,0.06,10.16,LANDED,X10-G,0:/Integrated Flight Computer/aircraft/x10_g_cfg.ks (inferred preloaded)
10.5,TAKEOFF,TO_GROUND_ROLL,7.19,80,72.81,3.61,-0.05,-0.32,0.03,88.65,0.088,1,0,0,0,0,0,0,0,0,0,90.39,0,1,0,-0.37,0,0,0,90,0,0,0,0,0,0,0,0,0.01,0,0,0,0,90.39,1,0.01,-1.742,0.1906,0.622,0,0.1906,0,0,0,0,0,0,2,2,0,0,VALID,0,0,0,0,0,1,0,0,0,0,0,0,0,0,0,0,0,0,0,0,742.87,887.64,2,0,0.06,0.06,166,14.29,0.08,0.06,10.44,LANDED,X10-G,0:/Integrated Flight Computer/aircraft/x10_g_cfg.ks (inferred preloaded)
10.78,TAKEOFF,TO_GROUND_ROLL,8.46,80,71.54,3.61,-0.04,-0.34,-0.08,88.68,0.09,1,0,0,0,0,0,0,0,0,0,90.39,0,1,0,-0.28,0,0,0,90,0,0,0,0,0,0,0,0,0.013,0,0,0,0,90.39,1,0.013,-1.708,0.1903,0.635,0,0.1903,0,0,0,0,0,0,2,2,0,0,VALID,0,0,0,0,0,1,0,0,0,0,0,0,0,0,0,0,0,0,0,0,750.68,887.53,2,0,0.06,0.06,170,14.29,0.08,0.06,10.72,LANDED,X10-G,0:/Integrated Flight Computer/aircraft/x10_g_cfg.ks (inferred preloaded)
11.06,TAKEOFF,TO_GROUND_ROLL,9.76,80,70.24,3.61,-0.06,-0.33,0.01,88.72,0.088,1,0,0,0,0,0,0,0,0,0,90.39,0,1,0,-0.38,0,0,0,90,0,0,0,0,0,0,0,0,0.016,0,0,0,0,90.39,1,0.016,-1.678,0.1908,0.648,0,0.1908,0,0,0,0,0,0,2,2,0,0,VALID,0,0,0,0,0,1,0,0,0,0,0,0,0,0,0,0,0,0,0,0,758.05,887.42,2,0,0.06,0.06,174,14.29,0.08,0.06,11,LANDED,X10-G,0:/Integrated Flight Computer/aircraft/x10_g_cfg.ks (inferred preloaded)
11.34,TAKEOFF,TO_GROUND_ROLL,11.06,80,68.94,3.61,-0.06,-0.33,-0.05,88.75,0.086,1,0,0,0,0,0,0,0,0,0,90.4,0,1,0,-0.3,0,0,0,90,0,0,0,0,0,0,0,0,0.02,0,0,0,0,90.4,1,0.02,-1.645,0.1905,0.661,0,0.1905,0,0,0,0,0,0,2,2,0,0,VALID,0,0,0,0,0,1,0,0,0,0,0,0,0,0,0,0,0,0,0,0,765,887.28,2,0,0.06,0.06,178,14.29,0.08,0.06,11.28,LANDED,X10-G,0:/Integrated Flight Computer/aircraft/x10_g_cfg.ks (inferred preloaded)
11.62,TAKEOFF,TO_GROUND_ROLL,12.38,80,67.62,3.61,-0.07,-0.33,-0.02,88.79,0.087,1,0,0,0,0,0,0,0,0,0,90.4,0,1,0,-0.34,0,0,0,90,0,0,0,0,0,0,0,0,0.023,0,0,0,0,90.4,1,0.023,-1.613,0.1905,0.674,0,0.1905,0,0,0,0,0,0,2,2,0,0,VALID,0,0,0,0,0,1,0,0,0,0,0,0,0,0,0,0,0,0,0,0,771.54,887.14,2,0,0.06,0.06,182,14.29,0.08,0.06,11.56,LANDED,X10-G,0:/Integrated Flight Computer/aircraft/x10_g_cfg.ks (inferred preloaded)
11.9,TAKEOFF,TO_GROUND_ROLL,13.7,80,66.3,3.61,-0.08,-0.33,-0.03,88.82,0.086,1,0,0,0,0,0,0,0,0,0,90.4,0,1,0,-0.32,0,0,0,90,0,0,0,0,0,0,0,0,0.028,0,0,0,0,90.4,1,0.028,-1.581,0.1903,0.687,0,0.1903,0,0,0,0,0,0,2,2,0,0,VALID,0,0,0,0,0,1,0,0,0,0,0,0,0,0,0,0,0,0,0,0,777.71,886.97,2,0,0.06,0.06,186,14.29,0.08,0.06,11.84,LANDED,X10-G,0:/Integrated Flight Computer/aircraft/x10_g_cfg.ks (inferred preloaded)
12.18,TAKEOFF,TO_GROUND_ROLL,15.04,80,64.96,3.61,-0.09,-0.33,-0.03,88.86,0.085,1,0,0,0,0,0,0,0,0,0,90.41,0,1,0,-0.33,0,0,0,90,0,0,0,0,0,0,0,0,0.032,0,0,0,0,90.41,1,0.032,-1.549,0.1898,0.7,0,0.1898,0,0,0,0,0,0,2,2,0,0,VALID,0,0,0,0,0,1,0,0,0,0,0,0,0,0,0,0,0,0,0,0,783.52,886.8,2,0,0.06,0.06,190,14.29,0.08,0.06,12.12,LANDED,X10-G,0:/Integrated Flight Computer/aircraft/x10_g_cfg.ks (inferred preloaded)
12.46,TAKEOFF,TO_GROUND_ROLL,16.39,80,63.61,3.61,-0.09,-0.33,-0.02,88.9,0.084,1,0,0,0,0,0,0,0,0,0,90.41,0,1,0,-0.33,0,0,0,90,0,0,0,0,0,0,0,0,0.037,0,0,0,0,90.41,1,0.037,-1.518,0.1895,0.714,0,0.1895,0,0,0,0,0,0,2,2,0,0,VALID,0,0,0,0,0,1,0,0,0,0,0,0,0,0,0,0,0,0,0,0,788.99,886.61,2,0,0.06,0.06,194,14.29,0.08,0.06,12.4,LANDED,X10-G,0:/Integrated Flight Computer/aircraft/x10_g_cfg.ks (inferred preloaded)
12.74,TAKEOFF,TO_GROUND_ROLL,17.74,80,62.26,3.61,-0.1,-0.33,-0.03,88.93,0.084,1,0,0,0,0,0,0,0,0,0,90.42,0,1,0,-0.32,0,0,0,90,0,0,0,0,0,0,0,0,0.041,0,0,0,0,90.42,1,0.041,-1.486,0.1888,0.727,0,0.1888,0,0,0,0,0,0,2,2,0,0,VALID,0,0,0,0,0,1,0,0,0,0,0,0,0,0,0,0,0,0,0,0,794.14,886.41,2,0,0.06,0.06,198,14.29,0.08,0.06,12.68,LANDED,X10-G,0:/Integrated Flight Computer/aircraft/x10_g_cfg.ks (inferred preloaded)
13.02,TAKEOFF,TO_GROUND_ROLL,19.11,80,60.89,3.61,-0.11,-0.33,-0.02,88.97,0.082,1,0,0,0,0,0,0,0,0,0,90.42,0,1,0,-0.32,0,0,0,90,0,0,0,0,0,0,0,0,0.046,0,0,0,0,90.42,1,0.046,-1.454,0.1882,0.741,0,0.1882,0,0,0,0,0,0,2,2,0,0,VALID,0,0,0,0,0,1,0,0,0,0,0,0,0,0,0,0,0,0,0,0,798.99,886.2,2,0,0.06,0.06,202,14.29,0.08,0.06,12.96,LANDED,X10-G,0:/Integrated Flight Computer/aircraft/x10_g_cfg.ks (inferred preloaded)
13.3,TAKEOFF,TO_GROUND_ROLL,20.48,80,59.52,3.61,-0.11,-0.33,-0.03,89.01,0.082,1,0,0,0,0,0,0,0,0,0,90.43,0,1,0,-0.32,0,0,0,90,0,0,0,0,0,0,0,0,0.052,0,0,0,0,90.43,1,0.052,-1.423,0.1874,0.755,0,0.1874,0,0,0,0,0,0,2,2,0,0,VALID,0,0,0,0,0,1,0,0,0,0,0,0,0,0,0,0,0,0,0,0,803.55,885.98,2,0,0.06,0.06,206,14.29,0.08,0.06,13.24,LANDED,X10-G,0:/Integrated Flight Computer/aircraft/x10_g_cfg.ks (inferred preloaded)
13.58,TAKEOFF,TO_GROUND_ROLL,21.86,80,58.14,3.61,-0.12,-0.33,-0.03,89.04,0.081,1,0,0,0,0,0,0,0,0,0,90.43,0,1,0,-0.32,0,0,0.01,90,0,0,0,0,0,0,0,0,0.057,0,0,0,0,90.43,1,0.057,-1.392,0.1865,0.769,0,0.1865,0,0,0,0,0,0,2,2,0,0,VALID,0,0,0,0,0,1,0,0,0,0,0,0,0,0,0,0,0,0,0,0,807.84,885.75,2,0,0.06,0.06,210,14.29,0.08,0.06,13.52,LANDED,X10-G,0:/Integrated Flight Computer/aircraft/x10_g_cfg.ks (inferred preloaded)
13.86,TAKEOFF,TO_GROUND_ROLL,23.25,80,56.75,3.61,-0.13,-0.33,-0.03,89.08,0.081,1,0,0,0,0,0,0,0,0,0,90.44,0,1,0,-0.32,0,0,0.01,90,0,0,0,0,0,0,0,0,0.062,0,0,0,0,90.44,1,0.062,-1.361,0.1855,0.783,0,0.1855,0,0,0,0,0,0,2,2,0,0,VALID,0,0,0,0,0,1,0,0,0,0,0,0,0,0,0,0,0,0,0,0,811.87,885.51,2,0,0.06,0.06,214,14.29,0.08,0.06,13.8,LANDED,X10-G,0:/Integrated Flight Computer/aircraft/x10_g_cfg.ks (inferred preloaded)
14.14,TAKEOFF,TO_GROUND_ROLL,24.65,80,55.35,3.61,-0.14,-0.33,-0.03,89.11,0.08,1,0,0,0,0,0,0,0,0,0,90.44,0,1,0,-0.32,0,0,0.01,90,0,0,0,0,0,0,0,0,0.068,0,0,0,0,90.44,1,0.068,-1.33,0.1845,0.796,0,0.1845,0,0,0,0,0,0,2,2,0,0,VALID,0,0,0,0,0,1,0,0,0,0,0,0,0,0,0,0,0,0,0,0,815.66,885.26,2,0,0.06,0.06,218,14.29,0.08,0.06,14.08,LANDED,X10-G,0:/Integrated Flight Computer/aircraft/x10_g_cfg.ks (inferred preloaded)
14.42,TAKEOFF,TO_GROUND_ROLL,26.05,80,53.95,3.61,-0.14,-0.33,-0.03,89.15,0.08,1,0,0,0,0,0,0,0,0,0,90.45,0,1,0,-0.32,0,0,0.01,90,0,0,0,0,0,0,0,0,0.074,0,0,0,0,90.45,1,0.074,-1.299,0.1832,0.81,0,0.1832,0,0,0,0,0,0,2,2,0,0,VALID,0,0,0,0,0,1,0,0,0,0,0,0,0,0,0,0,0,0,0,0,819.23,885.01,2,0,0.06,0.06,222,14.29,0.08,0.06,14.36,LANDED,X10-G,0:/Integrated Flight Computer/aircraft/x10_g_cfg.ks (inferred preloaded)
14.7,TAKEOFF,TO_GROUND_ROLL,27.46,80,52.54,3.61,-0.15,-0.33,-0.03,89.19,0.079,1,0,0,0,0,0,0,0,0,0,90.46,0,1,0,-0.31,0,0,0.01,90,0,0,0,0,0,0,0,0,0.079,0,0,0,0,90.46,1,0.079,-1.269,0.1819,0.825,0,0.1819,0,0,0,0,0,0,2,2,0,0,VALID,0,0,0,0,0,1,0,0,0,0,0,0,0,0,0,0,0,0,0,0,822.57,884.75,2,0,0.06,0.06,226,14.29,0.08,0.06,14.64,LANDED,X10-G,0:/Integrated Flight Computer/aircraft/x10_g_cfg.ks (inferred preloaded)
14.98,TAKEOFF,TO_GROUND_ROLL,28.87,80,51.13,3.61,-0.16,-0.33,-0.03,89.22,0.079,1,0,0,0,0,0,0,0,0,0,90.46,0,1,0,-0.32,0,0,0.01,90,0,0,0,0,0,0,0,0,0.085,0,0,0,0,90.46,1,0.085,-1.239,0.1806,0.839,0,0.1806,0,0,0,0,0,0,2,2,0,0,VALID,0,0,0,0,0,1,0,0,0,0,0,0,0,0,0,0,0,0,0,0,825.72,884.48,2,0,0.06,0.06,230,14.29,0.08,0.06,14.92,LANDED,X10-G,0:/Integrated Flight Computer/aircraft/x10_g_cfg.ks (inferred preloaded)
15.26,TAKEOFF,TO_GROUND_ROLL,30.29,80,49.71,3.61,-0.16,-0.32,-0.03,89.26,0.078,1,0,0,0,0,0,0,0,0,0,90.47,0,1,0,-0.31,0,0,0.01,90,0,0,0,0,0,0,0,0,0.091,0,0,0,0,90.47,1,0.091,-1.209,0.1791,0.853,0,0.1791,0,0,0,0,0,0,2,2,0,0,VALID,0,0,0,0,0,1,0,0,0,0,0,0,0,0,0,0,0,0,0,0,828.67,884.21,2,0,0.06,0.06,234,14.29,0.08,0.06,15.2,LANDED,X10-G,0:/Integrated Flight Computer/aircraft/x10_g_cfg.ks (inferred preloaded)
15.54,TAKEOFF,TO_GROUND_ROLL,31.71,80,48.29,3.61,-0.17,-0.32,-0.03,89.29,0.077,1,0,0,0,0,0,0,0,0,0,90.47,0,1,0,-0.31,0,0,0.01,90,0,0,0,0,0,0,0,0,0.096,0,0,0,0,90.47,1,0.096,-1.18,0.1776,0.867,0,0.1776,0,0,0,0,0,0,2,2,0,0,VALID,0,0,0,0,0,1,0,0,0,0,0,0,0,0,0,0,0,0,0,0,831.45,883.94,2,0,0.06,0.06,238,14.29,0.08,0.06,15.48,LANDED,X10-G,0:/Integrated Flight Computer/aircraft/x10_g_cfg.ks (inferred preloaded)
15.82,TAKEOFF,TO_GROUND_ROLL,33.14,80,46.86,3.61,-0.18,-0.32,-0.03,89.33,0.077,1,0,0,0,0,0,0,0,0,0,90.48,0,1,0,-0.31,0,0,0.01,90,0,0,0,0,0,0,0,0,0.102,0,0,0,0,90.48,1,0.102,-1.15,0.1758,0.881,0,0.1758,0,0,0,0,0,0,2,2,0,0,VALID,0,0,0,0,0,1,0,0,0,0,0,0,0,0,0,0,0,0,0,0,834.05,883.66,2,0,0.06,0.06,242,14.29,0.08,0.06,15.76,LANDED,X10-G,0:/Integrated Flight Computer/aircraft/x10_g_cfg.ks (inferred preloaded)
16.1,TAKEOFF,TO_GROUND_ROLL,34.57,80,45.43,3.61,-0.19,-0.32,-0.03,89.36,0.077,1,0,0,0,0,0,0,0,0,0,90.49,0,1,0,-0.31,0,0,0.01,90,0,0,0,0,0,0,0,0,0.108,0,0,0,0,90.49,1,0.108,-1.121,0.1742,0.896,0,0.1742,0,0,0,0,0,0,2,2,0,0,VALID,0,0,0,0,0,1,0,0,0,0,0,0,0,0,0,0,0,0,0,0,836.5,883.39,2,0,0.06,0.06,246,14.29,0.08,0.06,16.04,LANDED,X10-G,0:/Integrated Flight Computer/aircraft/x10_g_cfg.ks (inferred preloaded)
16.38,TAKEOFF,TO_GROUND_ROLL,36.01,80,43.99,3.61,-0.19,-0.32,-0.03,89.4,0.076,1,0,0,0,0,0,0,0,0,0,90.49,0,1,0,-0.31,0,0,0.01,90,0,0,0,0,0,0,0,0,0.113,0,0,0,0,90.49,1,0.113,-1.092,0.1722,0.91,0,0.1722,0,0,0,0,0,0,2,2,0,0,VALID,0,0,0,0,0,1,0,0,0,0,0,0,0,0,0,0,0,0,0,0,838.8,883.11,2,0,0.06,0.06,250,14.29,0.08,0.06,16.32,LANDED,X10-G,0:/Integrated Flight Computer/aircraft/x10_g_cfg.ks (inferred preloaded)
16.66,TAKEOFF,TO_GROUND_ROLL,37.45,80,42.55,3.61,-0.2,-0.32,-0.03,89.43,0.076,1,0,0,0,0,0,0,0,0,0,90.5,0,1,0,-0.31,0,0,0.01,90,0,0,0,0,0,0,0,0,0.119,0,0,0,0,90.5,1,0.119,-1.064,0.1703,0.924,0,0.1703,0,0,0,0,0,0,2,2,0,0,VALID,0,0,0,0,0,1,0,0,0,0,0,0,0,0,0,0,0,0,0,0,840.95,882.83,2,0,0.06,0.06,254,14.29,0.08,0.06,16.6,LANDED,X10-G,0:/Integrated Flight Computer/aircraft/x10_g_cfg.ks (inferred preloaded)
16.94,TAKEOFF,TO_GROUND_ROLL,38.89,80,41.11,3.61,-0.21,-0.32,-0.03,89.47,0.076,1,0,0,0,0,0,0,0,0,0,90.5,0,1,0,-0.31,0,0,0.02,90,0,0,0,0,0,0,0,0,0.124,0,0,0,0,90.5,1,0.124,-1.036,0.1683,0.939,0,0.1683,0,0,0,0,0,0,2,2,0,0,VALID,0,0,0,0,0,1,0,0,0,0,0,0,0,0,0,0,0,0,0,0,842.98,882.56,2,0,0.06,0.06,258,14.29,0.08,0.06,16.88,LANDED,X10-G,0:/Integrated Flight Computer/aircraft/x10_g_cfg.ks (inferred preloaded)
17.22,TAKEOFF,TO_GROUND_ROLL,40.34,80,39.66,3.61,-0.21,-0.32,-0.03,89.5,0.075,1,0,0,0,0,0,0,0,0,0,90.51,0,1,0,-0.3,0,0,0.02,90,0,0,0,0,0,0,0,0,0.129,0,0,0,0,90.51,1,0.129,-1.008,0.1661,0.953,0,0.1661,0,0,0,0,0,0,2,2,0,0,VALID,0,0,0,0,0,1,0,0,0,0,0,0,0,0,0,0,0,0,0,0,844.88,882.29,2,0,0.06,0.06,262,14.29,0.08,0.06,17.16,LANDED,X10-G,0:/Integrated Flight Computer/aircraft/x10_g_cfg.ks (inferred preloaded)
17.5,TAKEOFF,TO_GROUND_ROLL,41.79,80,38.21,3.61,-0.22,-0.32,-0.03,89.53,0.075,1,0,0,0,0,0,0,0,0,0,90.51,0,1,0,-0.3,0,0,0.02,90,0,0,0,0,0,0,0,0,0.134,0,0,0,0,90.51,1,0.134,-0.98,0.1641,0.968,0,0.1641,0,0,0,0,0,0,2,2,0,0,VALID,0,0,0,0,0,1,0,0,0,0,0,0,0,0,0,0,0,0,0,0,846.67,882.02,2,0,0.06,0.06,266,14.29,0.08,0.06,17.44,LANDED,X10-G,0:/Integrated Flight Computer/aircraft/x10_g_cfg.ks (inferred preloaded)
17.78,TAKEOFF,TO_GROUND_ROLL,43.24,80,36.76,3.61,-0.23,-0.32,-0.03,89.56,0.075,1,0,0,0,0,0,0,0,0,0,90.52,0,1,0,-0.3,0,0,0.02,90,0,0,0,0,0,0,0,0,0.139,0,0,0,0,90.52,1,0.139,-0.953,0.1618,0.982,0,0.1618,0,0,0,0,0,0,2,2,0,0,VALID,0,0,0,0,0,1,0,0,0,0,0,0,0,0,0,0,0,0,0,0,848.35,881.76,2,0,0.06,0.06,270,14.29,0.08,0.06,17.72,LANDED,X10-G,0:/Integrated Flight Computer/aircraft/x10_g_cfg.ks (inferred preloaded)
18.06,TAKEOFF,TO_GROUND_ROLL,44.7,80,35.3,3.61,-0.23,-0.32,-0.03,89.6,0.075,1,0,0,0,0,0,0,0,0,0,90.52,0,1,0,-0.3,0,0,0.02,90,0,0,0,0,0,0,0,0,0.143,0,0,0,0,90.52,1,0.143,-0.927,0.1596,0.997,0,0.1596,0,0,0,0,0,0,2,2,0,0,VALID,0,0,0,0,0,1,0,0,0,0,0,0,0,0,0,0,0,0,0,0,849.93,881.51,2,0,0.06,0.06,274,14.29,0.08,0.06,18,LANDED,X10-G,0:/Integrated Flight Computer/aircraft/x10_g_cfg.ks (inferred preloaded)
18.34,TAKEOFF,TO_GROUND_ROLL,46.16,80,33.84,3.61,-0.24,-0.32,-0.03,89.63,0.075,1,0,0,0,0,0,0,0,0,0,90.53,0,1,0,-0.3,0,0,0.02,90,0,0,0,0,0,0,0,0,0.147,0,0,0,0,90.53,1,0.147,-0.9,0.1555,1,0,0.1555,0,0,0,0,0,0,2,2,0,0,VALID,0,0,0,0,0,1,0,0,0,0,0,0,0,0,0,0,0,0,0,0,851.41,881.26,2,0,0.06,0.06,278,14.29,0.08,0.06,18.28,LANDED,X10-G,0:/Integrated Flight Computer/aircraft/x10_g_cfg.ks (inferred preloaded)
18.62,TAKEOFF,TO_GROUND_ROLL,47.62,80,32.38,3.61,-0.25,-0.32,-0.03,89.66,0.075,1,0,0,0,0,0,0,0,0,0,90.53,0,1,0,-0.3,0,0,0.02,90,0,0,0,0,0,0,0,0,0.152,0,0,0,0,90.53,1,0.152,-0.875,0.1511,1,0,0.1511,0,0,0,0,0,0,2,2,0,0,VALID,0,0,0,0,0,1,0,0,0,0,0,0,0,0,0,0,0,0,0,0,852.81,881.03,2,0,0.06,0.06,282,14.29,0.08,0.06,18.56,LANDED,X10-G,0:/Integrated Flight Computer/aircraft/x10_g_cfg.ks (inferred preloaded)
18.9,TAKEOFF,TO_GROUND_ROLL,49.09,80,30.91,3.61,-0.25,-0.32,-0.03,89.69,0.076,1,0,0,0,0,0,0,0,0,0,90.54,0,1,0,-0.3,0,0,0.02,90,0,0,0,0,0,0,0,0,0.155,0,0,0,0,90.54,1,0.155,-0.851,0.147,1,0,0.147,0,0,0,0,0,0,2,2,0,0,VALID,0,0,0,0,0,1,0,0,0,0,0,0,0,0,0,0,0,0,0,0,854.13,880.8,2,0,0.06,0.06,286,14.29,0.08,0.06,18.84,LANDED,X10-G,0:/Integrated Flight Computer/aircraft/x10_g_cfg.ks (inferred preloaded)
19.18,TAKEOFF,TO_GROUND_ROLL,50.55,80,29.45,3.61,-0.26,-0.31,-0.03,89.71,0.076,1,0,0,0,0,0,0,0,0,0,90.54,0,1,0,-0.29,0,0,0.03,90,0,0,0,0,0,0,0,0,0.159,0,0,0,0,90.54,1,0.159,-0.827,0.1429,1,0,0.1429,0,0,0,0,0,0,2,2,0,0,VALID,0,0,0,0,0,1,0,0,0,0,0,0,0,0,0,0,0,0,0,0,855.37,880.58,2,0,0.06,0.06,290,14.29,0.08,0.06,19.12,LANDED,X10-G,0:/Integrated Flight Computer/aircraft/x10_g_cfg.ks (inferred preloaded)
19.46,TAKEOFF,TO_GROUND_ROLL,52.02,80,27.98,3.61,-0.27,-0.31,-0.03,89.74,0.077,1,0,0,0,0,0,0,0,0,0,90.55,0,1,0,-0.29,0,0,0.03,90,0,0,0,0,0,0,0,0,0.162,0,0,0,0,90.55,1,0.162,-0.804,0.1389,1,0,0.1389,0,0,0,0,0,0,2,2,0,0,VALID,0,0,0,0,0,1,0,0,0,0,0,0,0,0,0,0,0,0,0,0,856.55,880.38,2,0,0.06,0.06,294,14.29,0.08,0.06,19.4,LANDED,X10-G,0:/Integrated Flight Computer/aircraft/x10_g_cfg.ks (inferred preloaded)
19.74,TAKEOFF,TO_GROUND_ROLL,53.49,80,26.51,3.61,-0.27,-0.31,-0.03,89.77,0.077,1,0,0,0,0,0,0,0,0,0,90.55,0,1,0,-0.29,0,0,0.03,90,0,0,0,0,0,0,0,0,0.165,0,0,0,0,90.55,1,0.165,-0.781,0.1351,1,0,0.1351,0,0,0,0,0,0,2,2,0,0,VALID,0,0,0,0,0,1,0,0,0,0,0,0,0,0,0,0,0,0,0,0,857.66,880.19,2,0,0.06,0.06,298,14.29,0.08,0.06,19.68,LANDED,X10-G,0:/Integrated Flight Computer/aircraft/x10_g_cfg.ks (inferred preloaded)
20.02,TAKEOFF,TO_GROUND_ROLL,54.96,80,25.04,3.61,-0.28,-0.31,-0.03,89.79,0.078,1,0,0,0,0,0,0,0,0,0,90.55,0,1,0,-0.29,0,0,0.03,90,0,0,0,0,0,0,0,0,0.168,0,0,0,0,90.55,1,0.168,-0.761,0.1317,1,0,0.1317,0,0,0,0,0,0,2,2,0,0,VALID,0,0,0,0,0,1,0,0,0,0,0,0,0,0,0,0,0,0,0,0,858.72,880.01,2,0,0.06,0.06,302,14.29,0.08,0.06,19.96,LANDED,X10-G,0:/Integrated Flight Computer/aircraft/x10_g_cfg.ks (inferred preloaded)
20.3,TAKEOFF,TO_GROUND_ROLL,56.44,80,23.56,3.61,-0.28,-0.31,-0.04,89.82,0.08,1,0,0,0,0,0,0,0,0,0,90.56,0,1,0,-0.29,0,0,0.03,90,0,0,0,0,0,0,0,0,0.171,0,0,0,0,90.56,1,0.171,-0.739,0.1279,1,0,0.1279,0,0,0,0,0,0,2,2,0,0,VALID,0,0,0,0,0,1,0,0,0,0,0,0,0,0,0,0,0,0,0,0,859.72,879.85,2,0,0.06,0.06,306,14.29,0.08,0.06,20.24,LANDED,X10-G,0:/Integrated Flight Computer/aircraft/x10_g_cfg.ks (inferred preloaded)
20.58,TAKEOFF,TO_GROUND_ROLL,57.91,80,22.09,3.61,-0.29,-0.31,-0.04,89.84,0.081,1,0,0,0,0,0,0,0,0,0,90.56,0,1,0,-0.29,0,0,0.03,90,0,0,0,0,0,0,0,0,0.173,0,0,0,0,90.56,1,0.173,-0.718,0.1241,1,0,0.1241,0,0,0,0,0,0,2,2,0,0,VALID,0,0,0,0,0,1,0,0,0,0,0,0,0,0,0,0,0,0,0,0,860.68,879.7,2,0,0.06,0.06,310,14.29,0.08,0.06,20.52,LANDED,X10-G,0:/Integrated Flight Computer/aircraft/x10_g_cfg.ks (inferred preloaded)
20.86,TAKEOFF,TO_GROUND_ROLL,59.39,80,20.61,3.61,-0.29,-0.31,-0.04,89.86,0.082,1,0,0,0,0,0,0,0,0,0,90.56,0,1,0,-0.28,0,0,0.03,90,0,0,0,0,0,0,0,0,0.175,0,0,0,0,90.56,1,0.175,-0.698,0.1208,1,0,0.1208,0,0,0,0,0,0,2,2,0,0,VALID,0,0,0,0,0,1,0,0,0,0,0,0,0,0,0,0,0,0,0,0,861.59,879.57,2,0,0.06,0.06,314,14.29,0.08,0.06,20.8,LANDED,X10-G,0:/Integrated Flight Computer/aircraft/x10_g_cfg.ks (inferred preloaded)
21.14,TAKEOFF,TO_GROUND_ROLL,60.87,80,19.13,3.61,-0.3,-0.31,-0.04,89.88,0.084,1,0,0,0,0,0,0,0,0,0,90.56,0,1,0,-0.28,0,0,0.04,90,0,0,0,0,0,0,0,0,0.176,0,0,0,0,90.56,1,0.176,-0.679,0.1176,1,0,0.1176,0,0,0,0,0,0,2,2,0,0,VALID,0,0,0,0,0,1,0,0,0,0,0,0,0,0,0,0,0,0,0,0,862.46,879.46,2,0,0.06,0.06,318,14.29,0.08,0.06,21.08,LANDED,X10-G,0:/Integrated Flight Computer/aircraft/x10_g_cfg.ks (inferred preloaded)
21.42,TAKEOFF,TO_GROUND_ROLL,62.35,80,17.65,3.61,-0.3,-0.31,-0.04,89.91,0.085,1,0,0,0,0,0,0,0,0,0,90.56,0,1,0,-0.28,0,0,0.04,90,0,0,0,0,0,0,0,0,0.178,0,0,0,0,90.56,1,0.178,-0.659,0.1142,1,0,0.1142,0,0,0,0,0,0,2,2,0,0,VALID,0,0,0,0,0,1,0,0,0,0,0,0,0,0,0,0,0,0,0,0,863.3,879.37,2,0,0.06,0.06,322,14.29,0.08,0.06,21.36,LANDED,X10-G,0:/Integrated Flight Computer/aircraft/x10_g_cfg.ks (inferred preloaded)
21.7,TAKEOFF,TO_GROUND_ROLL,63.83,80,16.17,3.61,-0.31,-0.3,-0.04,89.93,0.087,1,0,0,0,0,0,0,0,0,0,90.57,0,1,0,-0.28,0,0,0.04,90,0,0,0,0,0,0,0,0,0.179,0,0,0,0,90.57,1,0.179,-0.639,0.1105,1,0,0.1105,0,0,0,0,0,0,2,2,0,0,VALID,0,0,0,0,0,1,0,0,0,0,0,0,0,0,0,0,0,0,0,0,864.11,879.31,2,0,0.06,0.06,326,14.29,0.08,0.06,21.64,LANDED,X10-G,0:/Integrated Flight Computer/aircraft/x10_g_cfg.ks (inferred preloaded)
21.98,TAKEOFF,TO_GROUND_ROLL,65.32,80,14.68,3.61,-0.32,-0.3,-0.04,89.95,0.088,1,0,0,0,0,0,0,0,0,0,90.57,0,1,0,-0.28,0,0,0.04,90,0,0,0,0,0,0,0,0,0.179,0,0,0,0,90.57,1,0.179,-0.621,0.1075,1,0,0.1075,0,0,0,0,0,0,2,2,0,0,VALID,0,0,0,0,0,1,0,0,0,0,0,0,0,0,0,0,0,0,0,0,864.89,879.26,2,0,0.06,0.06,330,14.29,0.08,0.06,21.92,LANDED,X10-G,0:/Integrated Flight Computer/aircraft/x10_g_cfg.ks (inferred preloaded)
22.26,TAKEOFF,TO_GROUND_ROLL,66.8,80,13.2,3.61,-0.32,-0.3,-0.04,89.97,0.09,1,0,0,0,0,0,0,0,0,0,90.57,0,1,0,-0.27,0,0,0.04,90,0,0,0,0,0,0,0,0,0.18,0,0,0,0,90.57,1,0.18,-0.602,0.1042,1,0,0.1042,0,0,0,0,0,0,2,2,0,0,VALID,0,0,0,0,0,1,0,0,0,0,0,0,0,0,0,0,0,0,0,0,865.65,879.24,2,0,0.06,0.06,334,14.29,0.08,0.06,22.2,LANDED,X10-G,0:/Integrated Flight Computer/aircraft/x10_g_cfg.ks (inferred preloaded)
22.54,TAKEOFF,TO_GROUND_ROLL,68.29,80,11.71,3.61,-0.32,-0.3,-0.04,89.98,0.091,1,0,0,0,0,0,0,0,0,0,90.57,0,1,0,-0.27,0,0,0.05,90,0,0,0,0,0,0,0,0,0.18,0,0,0,0,90.57,1,0.18,-0.583,0.1011,1,0,0.1011,0,0,0,0,0,0,2,2,0,0,VALID,0,0,0,0,0,1,0,0,0,0,0,0,0,0,0,0,0,0,0,0,866.4,879.24,2,0,0.06,0.06,338,14.29,0.08,0.06,22.48,LANDED,X10-G,0:/Integrated Flight Computer/aircraft/x10_g_cfg.ks (inferred preloaded)
22.82,TAKEOFF,TO_GROUND_ROLL,69.77,80,10.23,3.61,-0.33,-0.3,-0.04,90,0.093,1,0,0,0,0,0,0,0,0,0,90.57,0,1,0,-0.27,0,0,0.05,90,0,0,0,0,0,0,0,0,0.179,0,0,0,0,90.57,1,0.179,-0.565,0.098,1,0,0.098,0,0,0,0,0,0,2,2,0,0,VALID,0,0,0,0,0,1,0,0,0,0,0,0,0,0,0,0,0,0,0,0,867.32,879.5,2,0,0.06,0.06,342,14.29,0.08,0.06,22.76,LANDED,X10-G,0:/Integrated Flight Computer/aircraft/x10_g_cfg.ks (inferred preloaded)
23.1,TAKEOFF,TO_GROUND_ROLL,71.26,80,8.74,3.61,-0.34,-0.3,-0.04,90.02,0.095,1,0,0,0,0,0,0,0,0,0,90.57,0,1,0,-0.27,0,0,0.05,90,0,0,0,0,0,0,0,0,0.179,0,0,0,0,90.57,1,0.179,-0.548,0.0946,1,0,0.0946,0,0,0,0,0,0,2,2,0,0,VALID,0,0,0,0,0,1,0,0,0,0,0,0,0,0,0,0,0,0,0,0,868.55,880.1,2,0,0.06,0.06,346,14.29,0.08,0.06,23.04,LANDED,X10-G,0:/Integrated Flight Computer/aircraft/x10_g_cfg.ks (inferred preloaded)
23.38,TAKEOFF,TO_GROUND_ROLL,72.75,80,7.25,3.61,-0.33,-0.29,-0.04,90.04,0.094,1,0,0,0,0,0,0,0,0,0,90.57,0,1,0,-0.26,0,0,0.05,90,0,0,0,0,0,0,0,0,0.178,0,0,0,0,90.57,1,0.178,-0.531,0.0927,1,0,0.0927,0,0,0,0,0,0,2,2,0,0,VALID,0,0,0,0,0,1,0,0,0,0,0,0,0,0,0,0,0,0,0,0,870.08,881.03,2,0,0.06,0.06,350,14.29,0.08,0.06,23.32,LANDED,X10-G,0:/Integrated Flight Computer/aircraft/x10_g_cfg.ks (inferred preloaded)
23.66,TAKEOFF,TO_GROUND_ROLL,74.25,80,5.75,3.61,-0.34,-0.3,-0.04,90.05,0.099,1,0,0,0,0,0,0,0,0,0,90.56,0,1,0,-0.26,0,0,0.05,90,0,0,0,0,0,0,0,0,0.176,0,0,0,0,90.56,1,0.176,-0.511,0.0876,1,0,0.0876,0,0,0,0,0,0,2,2,0,0,VALID,0,0,0,0,0,1,0,0,0,0,0,0,0,0,0,0,0,0,0,0,871.9,882.29,2,0,0.06,0.06,354,14.29,0.08,0.06,23.6,LANDED,X10-G,0:/Integrated Flight Computer/aircraft/x10_g_cfg.ks (inferred preloaded)
23.94,TAKEOFF,TO_GROUND_ROLL,75.74,80,4.26,3.61,-0.35,-0.29,-0.04,90.07,0.098,1,0,0,0,0,0,0,0,0,0,90.57,0,1,0,-0.26,0,0,0.06,90,0,0,0,0,0,0,0,0,0.174,0,0,0,0,90.57,1,0.174,-0.496,0.0867,1,0,0.0867,0,0,0,0,0,0,2,2,0,0,VALID,0,0,0,0,0,1,0,0,0,0,0,0,0,0,0,0,0,0,0,0,874,883.87,2,0,0.06,0.06,358,14.29,0.08,0.06,23.88,LANDED,X10-G,0:/Integrated Flight Computer/aircraft/x10_g_cfg.ks (inferred preloaded)
24.22,TAKEOFF,TO_GROUND_ROLL,77.24,80,2.76,3.61,-0.35,-0.29,-0.04,90.08,0.101,1,0,0,0,0,0,0,0,0,0,90.56,0,1,0,-0.26,0,0,0.06,90,0,0,0,0,0,0,0,0,0.172,0,0,0,0,90.56,1,0.172,-0.478,0.0826,1,0,0.0826,0,0,0,0,0,0,2,2,0,0,VALID,0,0,0,0,0,1,0,0,0,0,0,0,0,0,0,0,0,0,0,0,876.38,885.76,2,0,0.06,0.06,362,14.29,0.08,0.06,24.16,LANDED,X10-G,0:/Integrated Flight Computer/aircraft/x10_g_cfg.ks (inferred preloaded)
24.5,TAKEOFF,TO_GROUND_ROLL,78.75,80,1.25,3.61,-0.36,-0.29,-0.04,90.1,0.102,1,0,0,0,0,0,0,0,0,0,90.56,0,1,0,-0.26,0,0,0.06,90,0,0,0,0,0,0,0,0,0.17,0,0,0,0,90.56,1,0.17,-0.462,0.0801,1,0,0.0801,0,0,0,0,0,0,2,2,0,0,VALID,0,0,0,0,0,1,0,0,0,0,0,0,0,0,0,0,0,0,0,0,879.03,887.95,2,0,0.06,0.06,366,14.29,0.08,0.06,24.44,LANDED,X10-G,0:/Integrated Flight Computer/aircraft/x10_g_cfg.ks (inferred preloaded)
24.78,TAKEOFF,TO_GROUND_ROLL,80.26,80,-0.26,3.61,-0.36,-0.28,-0.04,90.11,0.104,1,0,0,0,0,0,0,0,0,0,90.56,0,1,0,-0.25,0,0,0.06,90,0,0,0,0,0,0,0,0,0.167,0,0,0,0,90.56,1,0.167,-0.447,0.0776,1,0,0.0776,0,0,0,0,0,0,2,2,0,0,VALID,0,0,0,0,0,1,0,0,0,0,0,0,0,0,0,0,0,0,0,0,881.94,890.43,2,0,0.06,0.06,370,14.29,0.08,0.06,24.72,LANDED,X10-G,0:/Integrated Flight Computer/aircraft/x10_g_cfg.ks (inferred preloaded)
25.06,TAKEOFF,TO_GROUND_ROLL,81.77,80,-1.77,3.61,-0.36,-0.29,-0.05,90.13,0.106,1,0,0,0,0,0,0,0,0,0,90.56,0,1,0,-0.25,0,0,0.06,90,0,0,0,0,0,0,0,0,0.164,0,0,0,0,90.56,1,0.164,-0.429,0.0743,1,0,0.0743,0,0,0,0,0,0,2,2,0,0,VALID,0,0,0,0,0,1,0,0,0,0,0,0,0,0,0,0,0,0,0,0,885.12,893.2,2,0,0.06,0.06,374,14.29,0.08,0.06,25,LANDED,X10-G,0:/Integrated Flight Computer/aircraft/x10_g_cfg.ks (inferred preloaded)
25.34,TAKEOFF,TO_GROUND_ROLL,83.29,80,-3.29,3.61,-0.36,-0.28,-0.04,90.14,0.107,1,0,0,0,0,0,0,0,0,0,90.55,0,1,0,-0.25,0,0,0.07,90,0,0,0,0,0,0,0,0,0.161,0,0,0,0,90.55,1,0.161,-0.414,0.0721,1,0,0.0721,0,0,0,0,0,0,2,2,0,0,VALID,0,0,0,0,0,1,0,0,0,0,0,0,0,0,0,0,0,0,0,0,888.54,896.24,2,0,0.06,0.06,378,14.29,0.08,0.06,25.28,LANDED,X10-G,0:/Integrated Flight Computer/aircraft/x10_g_cfg.ks (inferred preloaded)
25.62,TAKEOFF,TO_GROUND_ROLL,84.82,80,-4.82,3.61,-0.36,-0.28,-0.04,90.15,0.109,1,0,0,0,0,0,0,0,0,0,90.55,0,1,0,-0.25,0,0,0.07,90,0,0,0,0,0,0,0,0,0.157,0,0,0,0,90.55,1,0.157,-0.397,0.0687,1,0,0.0687,0,0,0,0,0,0,2,2,0,0,VALID,0,0,0,0,0,1,0,0,0,0,0,0,0,0,0,0,0,0,0,0,892.21,899.54,2,0,0.06,0.06,382,14.29,0.08,0.06,25.56,LANDED,X10-G,0:/Integrated Flight Computer/aircraft/x10_g_cfg.ks (inferred preloaded)
25.9,TAKEOFF,TO_GROUND_ROLL,86.35,80,-6.35,3.61,-0.37,-0.28,-0.04,90.16,0.11,1,0,0,0,0,0,0,0,0,0,90.55,0,1,0,-0.25,0,0,0.07,90,0,0,0,0,0,0,0,0,0.153,0,0,0,0,90.55,1,0.153,-0.382,0.0665,1,0,0.0665,0,0,0,0,0,0,2,2,0,0,VALID,0,0,0,0,0,1,0,0,0,0,0,0,0,0,0,0,0,0,0,0,896.12,903.11,2,0,0.06,0.06,386,14.29,0.08,0.06,25.84,LANDED,X10-G,0:/Integrated Flight Computer/aircraft/x10_g_cfg.ks (inferred preloaded)
26.18,TAKEOFF,TO_GROUND_ROLL,87.89,80,-7.89,3.61,-0.37,-0.28,-0.04,90.17,0.112,1,0,0,0,0,0,0,0,0,0,90.54,0,1,0,-0.24,0,0,0.07,90,0,0,0,0,0,0,0,0,0.149,0,0,0,0,90.54,1,0.149,-0.367,0.0636,1,0,0.0636,0,0,0,0,0,0,2,2,0,0,VALID,0,0,0,0,0,1,0,0,0,0,0,0,0,0,0,0,0,0,0,0,900.26,906.93,2,0,0.06,0.06,390,14.29,0.08,0.06,26.12,LANDED,X10-G,0:/Integrated Flight Computer/aircraft/x10_g_cfg.ks (inferred preloaded)
26.46,TAKEOFF,TO_GROUND_ROLL,89.43,80,-9.43,3.61,-0.37,-0.28,-0.05,90.19,0.114,1,0,0,0,0,0,0,0,0,0,90.54,0,1,0,-0.24,0,0,0.08,90,0,0,0,0,0,0,0,0,0.144,0,0,0,0,90.54,1,0.144,-0.352,0.0611,1,0,0.0611,0,0,0,0,0,0,2,2,0,0,VALID,0,0,0,0,0,1,0,0,0,0,0,0,0,0,0,0,0,0,0,0,904.62,910.99,2,0,0.06,0.06,394,14.29,0.08,0.06,26.4,LANDED,X10-G,0:/Integrated Flight Computer/aircraft/x10_g_cfg.ks (inferred preloaded)
26.74,TAKEOFF,TO_GROUND_ROLL,90.99,80,-10.99,3.61,-0.38,-0.27,-0.05,90.2,0.115,1,0,0,0,0,0,0,0,0,0,90.53,0,1,0,-0.24,0,0,0.08,90,0,0,0,0,0,0,0,0,0.139,0,0,0,0,90.53,1,0.139,-0.337,0.0585,1,0,0.0585,0,0,0,0,0,0,2,2,0,0,VALID,0,0,0,0,0,1,0,0,0,0,0,0,0,0,0,0,0,0,0,0,909.21,915.28,2,0,0.06,0.06,398,14.29,0.08,0.06,26.68,LANDED,X10-G,0:/Integrated Flight Computer/aircraft/x10_g_cfg.ks (inferred preloaded)
27.02,TAKEOFF,TO_GROUND_ROLL,92.55,80,-12.55,3.61,-0.38,-0.27,-0.05,90.21,0.117,1,0,0,0,0,0,0,0,0,0,90.53,0,1,0,-0.23,0,0,0.08,90,0,0,0,0,0,0,0,0,0.134,0,0,0,0,90.53,1,0.134,-0.322,0.0557,1,0,0.0557,0,0,0,0,0,0,2,2,0,0,VALID,0,0,0,0,0,1,0,0,0,0,0,0,0,0,0,0,0,0,0,0,914,919.81,2,0,0.06,0.06,402,14.29,0.08,0.06,26.96,LANDED,X10-G,0:/Integrated Flight Computer/aircraft/x10_g_cfg.ks (inferred preloaded)
27.3,TAKEOFF,TO_GROUND_ROLL,94.12,80,-14.12,3.61,-0.38,-0.27,-0.05,90.21,0.119,1,0,0,0,0,0,0,0,0,0,90.52,0,1,0,-0.23,0,0,0.08,90,0,0,0,0,0,0,0,0,0.128,0,0,0,0,90.52,1,0.128,-0.308,0.0535,1,0,0.0535,0,0,0,0,0,0,2,2,0,0,VALID,0,0,0,0,0,1,0,0,0,0,0,0,0,0,0,0,0,0,0,0,919,924.55,2,0,0.06,0.06,406,14.29,0.08,0.06,27.24,LANDED,X10-G,0:/Integrated Flight Computer/aircraft/x10_g_cfg.ks (inferred preloaded)
27.58,TAKEOFF,TO_GROUND_ROLL,95.7,80,-15.7,3.61,-0.38,-0.27,-0.05,90.22,0.121,1,0,0,0,0,0,0,0,0,0,90.52,0,1,0,-0.23,0,0,0.09,90,0,0,0,0,0,0,0,0,0.122,0,0,0,0,90.52,1,0.122,-0.294,0.0511,1,0,0.0511,0,0,0,0,0,0,2,2,0,0,VALID,0,0,0,0,0,1,0,0,0,0,0,0,0,0,0,0,0,0,0,0,924.2,929.5,2,0,0.06,0.06,410,14.29,0.08,0.06,27.52,LANDED,X10-G,0:/Integrated Flight Computer/aircraft/x10_g_cfg.ks (inferred preloaded)
27.86,TAKEOFF,TO_GROUND_ROLL,97.28,80,-17.28,3.61,-0.38,-0.27,-0.05,90.23,0.122,1,0,0,0,0,0,0,0,0,0,90.51,0,1,0,-0.23,0,0,0.09,90,0,0,0,0,0,0,0,0,0.116,0,0,0,0,90.51,1,0.116,-0.28,0.0488,1,0,0.0488,0,0,0,0,0,0,2,2,0,0,VALID,0,0,0,0,0,1,0,0,0,0,0,0,0,0,0,0,0,0,0,0,929.58,934.66,2,0,0.06,0.06,414,14.29,0.08,0.06,27.8,LANDED,X10-G,0:/Integrated Flight Computer/aircraft/x10_g_cfg.ks (inferred preloaded)
28.14,TAKEOFF,TO_GROUND_ROLL,98.88,80,-18.88,3.61,-0.38,-0.26,-0.05,90.24,0.124,1,0,0,0,0,0,0,0,0,0,90.5,0,1,0,-0.22,0,0,0.09,90,0,0,0,0,0,0,0,0,0.109,0,0,0,0,90.5,1,0.109,-0.266,0.0465,1,0,0.0465,0,0,0,0,0,0,2,2,0,0,VALID,0,0,0,0,0,1,0,0,0,0,0,0,0,0,0,0,0,0,0,0,935.15,940.01,2,0,0.06,0.06,418,14.29,0.08,0.06,28.08,LANDED,X10-G,0:/Integrated Flight Computer/aircraft/x10_g_cfg.ks (inferred preloaded)
28.42,TAKEOFF,TO_GROUND_ROLL,100.49,80,-20.49,3.61,-0.39,-0.26,-0.05,90.24,0.126,1,0,0,0,0,0,0,0,0,0,90.5,0,1,0,-0.22,0,0,0.09,90,0,0,0,0,0,0,0,0,0.102,0,0,0,0,90.5,1,0.102,-0.253,0.0441,1,0,0.0441,0,0,0,0,0,0,2,2,0,0,VALID,0,0,0,0,0,1,0,0,0,0,0,0,0,0,0,0,0,0,0,0,940.89,945.54,2,0,0.06,0.06,422,14.29,0.08,0.06,28.36,LANDED,X10-G,0:/Integrated Flight Computer/aircraft/x10_g_cfg.ks (inferred preloaded)
28.7,TAKEOFF,TO_GROUND_ROLL,102.11,80,-22.11,3.62,-0.34,-0.25,-0.07,90.25,0.13,1,0,0,0,0,0,0,0,0,0,90.49,0,1,0,-0.19,0,0,0.1,90,0,0,0,0,0,0,0,0,0.095,0,0,0,0,90.49,1,0.095,-0.243,0.0428,1,0,0.0428,0,0,0,0,0,0,2,2,0,0,VALID,0,0,0,0,0,1,0,0,0,0,0,0,0,0,0,0,0,0,0,0,946.79,951.24,2,0,0.06,0.06,426,14.29,0.08,0.06,28.64,LANDED,X10-G,0:/Integrated Flight Computer/aircraft/x10_g_cfg.ks (inferred preloaded)
28.98,TAKEOFF,TO_GROUND_ROLL,103.73,80,-23.73,3.6,-0.41,-0.28,-0.06,90.26,0.123,1,0,0,0,0,0,0,0,0,0,90.48,0,1,0,-0.23,0,0,0.1,90,0,0,0,0,0,0,0,0,0.087,0,0,0,0,90.48,1,0.087,-0.223,0.0389,1,0,0.0389,0,0,0,0,0,0,2,2,0,0,VALID,0,0,0,0,0,1,0,0,0,0,0,0,0,0,0,0,0,0,0,0,952.84,957.11,2,0,0.06,0.06,430,14.29,0.08,0.06,28.92,LANDED,X10-G,0:/Integrated Flight Computer/aircraft/x10_g_cfg.ks (inferred preloaded)
29.26,TAKEOFF,TO_GROUND_ROLL,105.37,80,-25.37,3.61,-0.38,-0.24,-0.03,90.26,0.133,1,0,0,0,0,0,0,0,0,0,90.47,0,1,0,-0.21,0,0,0.1,90,0,0,0,0,0,0,0,0,0.08,0,0,0,0,90.47,1,0.08,-0.215,0.0371,1,0,0.0371,0,0,0,0,0,0,2,2,0,0,VALID,0,0,0,0,0,1,0,0,0,0,0,0,0,0,0,0,0,0,0,0,959.04,963.13,2,0,0.06,0.06,434,14.29,0.08,0.06,29.2,LANDED,X10-G,0:/Integrated Flight Computer/aircraft/x10_g_cfg.ks (inferred preloaded)
29.54,TAKEOFF,TO_GROUND_ROLL,107.02,80,-27.02,3.6,-0.39,-0.27,-0.07,90.27,0.127,1,0,0,0,0,0,0,0,0,0,90.47,0,1,0,-0.21,0,0,0.11,90,0,0,0,0,0,0,0,0,0.072,0,0,0,0,90.47,1,0.072,-0.198,0.0347,1,0,0.0347,0,0,0,0,0,0,2,2,0,0,VALID,0,0,0,0,0,1,0,0,0,0,0,0,0,0,0,0,0,0,0,0,965.37,969.3,2,0,0.06,0.06,438,14.29,0.08,0.06,29.48,LANDED,X10-G,0:/Integrated Flight Computer/aircraft/x10_g_cfg.ks (inferred preloaded)
29.82,TAKEOFF,TO_GROUND_ROLL,108.68,80,-28.68,3.61,-0.39,-0.24,-0.04,90.27,0.133,1,0,0,0,0,0,0,0,0,0,90.46,0,1,0,-0.21,0,0,0.11,90,0,0,0,0,0,0,0,0,0.063,0,0,0,0,90.46,1,0.063,-0.191,0.0333,1,0,0.0333,0,0,0,0,0,0,2,2,0,0,VALID,0,0,0,0,0,1,0,0,0,0,0,0,0,0,0,0,0,0,0,0,971.83,975.6,2,0,0.06,0.06,442,14.29,0.08,0.06,29.76,LANDED,X10-G,0:/Integrated Flight Computer/aircraft/x10_g_cfg.ks (inferred preloaded)
30.1,TAKEOFF,TO_GROUND_ROLL,110.35,80,-30.35,3.6,-0.38,-0.26,-0.06,90.28,0.132,1,0,0,0,0,0,0,0,0,0,90.45,0,1,0,-0.2,0,0,0.11,90,0,0,0,0,0,0,0,0,0.055,0,0,0,0,90.45,1,0.055,-0.175,0.0293,1,0,0.0293,0,0,0,0,0,0,2,2,0,0,VALID,0,0,0,0,0,1,0,0,0,0,0,0,0,0,0,0,0,0,0,0,978.4,982.02,2,0,0.06,0.06,446,14.29,0.08,0.06,30.04,LANDED,X10-G,0:/Integrated Flight Computer/aircraft/x10_g_cfg.ks (inferred preloaded)
30.38,TAKEOFF,TO_GROUND_ROLL,112.04,80,-32.04,3.61,-0.39,-0.24,-0.05,90.28,0.132,1,0,0,0,0,0,0,0,0,0,90.45,0,1,0,-0.2,0,0,0.12,90,0,0,0,0,0,0,0,0,0.046,0,0,0,0,90.45,1,0.046,-0.169,0.0287,1,0,0.0287,0,0,0,0,0,0,2,2,0,0,VALID,0,0,0,0,0,1,0,0,0,0,0,0,0,0,0,0,0,0,0,0,985.07,988.54,2,0,0.06,0.06,450,14.29,0.08,0.06,30.32,LANDED,X10-G,0:/Integrated Flight Computer/aircraft/x10_g_cfg.ks (inferred preloaded)
30.66,TAKEOFF,TO_GROUND_ROLL,113.73,80,-33.73,3.61,-0.38,-0.25,-0.06,90.28,0.134,1,0,0,0,0,0,0,0,0,0,90.44,0,1,0,-0.19,0,0,0.12,90,0,0,0,0,0,0,0,0,0.037,0,0,0,0,90.44,1,0.037,-0.155,0.0252,1,0,0.0252,0,0,0,0,0,0,2,2,0,0,VALID,0,0,0,0,0,1,0,0,0,0,0,0,0,0,0,0,0,0,0,0,991.83,995.16,2,0,0.06,0.06,454,14.29,0.08,0.06,30.6,LANDED,X10-G,0:/Integrated Flight Computer/aircraft/x10_g_cfg.ks (inferred preloaded)
30.94,TAKEOFF,TO_GROUND_ROLL,115.44,80,-35.44,3.61,-0.39,-0.24,-0.06,90.28,0.132,1,0,0,0,0,0,0,0,0,0,90.43,0,1,0,-0.19,0,0,0.12,90,0,0,0,0,0,0,0,0,0.028,0,0,0,0,90.43,1,0.028,-0.147,0.0242,1,0,0.0242,0,0,0,0,0,0,2,2,0,0,VALID,0,0,0,0,0,1,0,0,0,0,0,0,0,0,0,0,0,0,0,0,998.67,1001.86,2,0,0.06,0.06,458,14.29,0.08,0.06,30.88,LANDED,X10-G,0:/Integrated Flight Computer/aircraft/x10_g_cfg.ks (inferred preloaded)
31.22,TAKEOFF,TO_GROUND_ROLL,117.16,80,-37.16,3.61,-0.38,-0.24,-0.06,90.28,0.135,1,0,0,0,0,0,0,0,0,0,90.42,0,1,0,-0.19,0,0,0.12,90,0,0,0,0,0,0,0,0,0.019,0,0,0,0,90.42,1,0.019,-0.137,0.0218,1,0,0.0218,0,0,0,0,0,0,2,2,0,0,VALID,0,0,0,0,0,1,0,0,0,0,0,0,0,0,0,0,0,0,0,0,1005.56,1008.63,2,0,0.06,0.06,462,14.29,0.08,0.06,31.16,LANDED,X10-G,0:/Integrated Flight Computer/aircraft/x10_g_cfg.ks (inferred preloaded)
31.5,TAKEOFF,TO_GROUND_ROLL,118.89,80,-38.89,3.61,-0.38,-0.24,-0.06,90.28,0.133,1,0,0,0,0,0,0,0,0,0,90.41,0,1,0,-0.19,0,0,0.13,90,0,0,0,0,0,0,0,0,0.01,0,0,0,0,90.41,1,0.01,-0.129,0.0209,1,0,0.0209,0,0,0,0,0,0,2,2,0,0,VALID,0,0,0,0,0,1,0,0,0,0,0,0,0,0,0,0,0,0,0,0,1012.51,1015.46,2,0,0.06,0.06,466,14.29,0.08,0.06,31.44,LANDED,X10-G,0:/Integrated Flight Computer/aircraft/x10_g_cfg.ks (inferred preloaded)
31.78,TAKEOFF,TO_GROUND_ROLL,120.64,80,-40.64,3.61,-0.38,-0.23,-0.06,90.28,0.135,1,0,0,0,0,0,0,0,0,0,90.4,0,1,0,-0.18,0,0,0.13,90,0,0,0,0,0,0,0,0,0,0,0,0,0,90.4,1,0,-0.122,0.0193,1,0,0.0193,0,0,0,0,0,0,2,2,0,0,VALID,0,0,0,0,0,1,0,0,0,0,0,0,0,0,0,0,0,0,0,0,1019.48,1022.32,2,0,0.06,0.06,470,14.29,0.08,0.06,31.72,LANDED,X10-G,0:/Integrated Flight Computer/aircraft/x10_g_cfg.ks (inferred preloaded)
32.06,TAKEOFF,TO_GROUND_ROLL,122.4,80,-42.4,3.61,-0.38,-0.23,-0.06,90.28,0.135,1,0,0,0,0,0,0,0,0,0,90.39,0,1,0,-0.18,0,0,0.13,90,0,0,0,0,0,0,0,0,-0.01,0,0,0,0,90.39,1,-0.01,-0.114,0.0179,1,0,0.0179,0,0,0,0,0,0,2,2,0,0,VALID,0,0,0,0,0,1,0,0,0,0,0,0,0,0,0,0,0,0,0,0,1026.48,1029.2,2,0,0.06,0.06,474,14.29,0.08,0.06,32,LANDED,X10-G,0:/Integrated Flight Computer/aircraft/x10_g_cfg.ks (inferred preloaded)
32.34,TAKEOFF,TO_GROUND_ROLL,124.17,80,-44.17,3.61,-0.38,-0.23,-0.06,90.28,0.135,1,0,0,0,0,0,0,0,0,0,90.38,0,1,0,-0.17,0,0,0.14,90,0,0,0,0,0,0,0,0,-0.019,0,0,0,0,90.38,1,-0.019,-0.107,0.017,1,0,0.017,0,0,0,0,0,0,2,2,0,0,VALID,0,0,0,0,0,1,0,0,0,0,0,0,0,0,0,0,0,0,0,0,1033.47,1036.09,2,0,0.06,0.06,478,14.29,0.08,0.06,32.28,LANDED,X10-G,0:/Integrated Flight Computer/aircraft/x10_g_cfg.ks (inferred preloaded)
32.62,TAKEOFF,TO_GROUND_ROLL,125.95,80,-45.95,3.61,-0.37,-0.23,-0.06,90.27,0.136,1,0,0,0,0,0,0,0,0,0,90.37,0,1,0,-0.17,0,0,0.14,90,0,0,0,0,0,0,0,0,-0.029,0,0,0,0,90.37,1,-0.029,-0.1,0.0156,1,0,0.0156,0,0,0,0,0,0,2,2,0,0,VALID,0,0,0,0,0,1,0,0,0,0,0,0,0,0,0,0,0,0,0,0,1040.45,1042.96,2,0,0.06,0.06,482,14.29,0.08,0.06,32.56,LANDED,X10-G,0:/Integrated Flight Computer/aircraft/x10_g_cfg.ks (inferred preloaded)
32.9,TAKEOFF,TO_GROUND_ROLL,127.75,80,-47.75,3.59,-0.73,-0.28,0.05,90.27,0.133,1,0,0,0,0,0,0,0,0,0,90.36,0,1,0,-0.33,0,0,0.14,90,0,0,0,0,0,0,0,0,-0.039,0,0,0,0,90.36,1,-0.039,-0.092,0.0136,1,0,0.0136,0,0,0,0,0,0,2,2,0,0,VALID,0,0,0,0,0,1,0,0,0,0,0,0,0,0,0,0,0,0,0,0,1047.4,1049.81,2,0,0.06,0.06,486,14.29,0.08,0.06,32.84,LANDED,X10-G,0:/Integrated Flight Computer/aircraft/x10_g_cfg.ks (inferred preloaded)
33.18,TAKEOFF,TO_GROUND_ROLL,129.55,80,-49.55,3.64,-0.18,-0.1,-0.03,90.25,0.148,1,0,0,0,0,0,0,0,0,0,90.37,0,1,0,-0.08,0,0,0.15,90,0,0,0,0,0,0,0,0,-0.048,0,0,0,0,90.37,1,-0.048,-0.117,0.0224,1,0,0.0224,0,0,0,0,0,0,2,2,0,0,VALID,0,0,0,0,0,1,0,0,0,0,0,0,0,0,0,0,0,0,0,0,1054.3,1056.62,2,0,0.06,0.06,490,14.29,0.08,0.06,33.12,LANDED,X10-G,0:/Integrated Flight Computer/aircraft/x10_g_cfg.ks (inferred preloaded)
33.48,TAKEOFF,TO_ROTATE,131.5,80,-51.5,3.57,-0.44,-0.33,-0.14,90.28,0.108,1,0,0,0,0,0,0,0,0,0,90.32,0.565,1,0,-0.19,0,0,0.15,90,0,0,0,0,0,0,0,0,-0.058,0,0,0,0,90.32,1,-0.058,-0.032,-0.0023,1,0,-0.0023,0,0.1964,0.565,0.895,0.08,0,2,2,0,0,VALID,0,0,0,0,0,1,0,0,0,0,0,0,0,0,0,0,0,0,0,0,1061.76,1063.99,2,0,0.06,0.06,494,13.33,0.08,0.06,33.4,LANDED,X10-G,0:/Integrated Flight Computer/aircraft/x10_g_cfg.ks (inferred preloaded)
33.76,TAKEOFF,TO_ROTATE,133.34,80,-53.34,3.64,-0.37,-0.09,0.07,90.27,0.137,1,0,0,0,0,0,0,0,0,0,90.34,1.573,1,0,-0.16,0,0,0.16,90,0,0,0,0,0,0,0,0,-0.068,0,0,0,0,90.34,1,-0.068,-0.077,0.0145,1,0,0.0145,0,0.2958,1.573,1.66,0.08,0,2,2,0,0,VALID,0,0,0,0,0,1,0,0,0,0,0,0,0,0,0,0,0,0,0,0,1068.85,1071,2,0,0.06,0.06,498,14.29,0.08,0.06,33.68,LANDED,X10-G,0:/Integrated Flight Computer/aircraft/x10_g_cfg.ks (inferred preloaded)
34.04,TAKEOFF,TO_ROTATE,135.18,80,-55.18,3.6,-0.34,-0.21,-0.07,90.31,0.125,1,0,0,0,0,0,0,0,0,0,90.28,2.581,1,0,-0.14,0,0,0.16,90,0,0,0,0,0,0,0,0,-0.079,0,0,0,0,90.28,1,-0.079,0.031,-0.0132,1,0,-0.0132,0,0.4432,2.581,2.794,0.08,0,2,2,0,0,VALID,0,0,0,0,0,1,0,0,0,0,0,0,0,0,0,0,0,0,0,0,1076.05,1078.14,2,0,0.06,0.06,502,14.29,0.08,0.06,33.96,LANDED,X10-G,0:/Integrated Flight Computer/aircraft/x10_g_cfg.ks (inferred preloaded)
34.32,TAKEOFF,TO_ROTATE,137.04,80,-57.04,3.63,-0.39,-0.1,0.06,90.34,0.1,1,0,0,0,0,0,0,0,0,0,90.3,3.589,1,0,-0.17,0,0,0.16,90,0,0,0,0,0,0,0,0,-0.091,0,0,0,0,90.3,1,-0.091,0.04,-0.0081,1,0,-0.0081,0,0.56,3.589,3.693,0.08,0,2,2,0,0,VALID,0,0,0,0,0,1,0,0,0,0,0,0,0,0,0,0,0,0,0,0,1083.38,1085.4,2,0,0.06,0.06,506,14.29,0.08,0.06,34.24,LANDED,X10-G,0:/Integrated Flight Computer/aircraft/x10_g_cfg.ks (inferred preloaded)
34.6,TAKEOFF,TO_ROTATE,138.9,80,-58.9,3.63,-0.33,-0.11,0.02,90.39,0.131,1,0,0,0,0,0,0,0,0,0,90.25,4.597,1,0,-0.13,0,0,0.17,90,0,0,0,0,0,0,0,0,-0.105,0,0,0,0,90.25,1,-0.105,0.143,-0.0379,1,0,-0.0379,0,0.6915,4.597,4.704,0.08,0,2,2,0,0,VALID,0,0,0,0,0,1,0,0,0,0,0,0,0,0,0,0,0,0,0,0,1090.81,1092.77,2,0,0.06,0.06,510,14.29,0.08,0.06,34.52,LANDED,X10-G,0:/Integrated Flight Computer/aircraft/x10_g_cfg.ks (inferred preloaded)
34.88,TAKEOFF,TO_ROTATE,140.76,80,-60.76,3.63,-0.37,-0.08,0.06,90.47,0.075,1,0,0,0,0,0,0,0,0,0,90.23,5.605,1,0,-0.15,0,0,0.17,90,0,0,0,0,0,0,0,0,-0.12,0,0,0,0,90.23,1,-0.12,0.241,-0.0597,1,0,-0.0597,0,0.72,5.605,5.688,0.08,0,2,2,0,0,VALID,0,0,0,0,0,1,0,0,0,0,0,0,0,0,0,0,0,0,0,0,1098.35,1100.24,2,0,0.06,0.06,514,14.29,0.08,0.06,34.8,LANDED,X10-G,0:/Integrated Flight Computer/aircraft/x10_g_cfg.ks (inferred preloaded)
35.16,TAKEOFF,TO_ROTATE,142.64,80,-62.64,3.64,-0.33,-0.06,0.06,90.54,0.097,1,0,0,0,0,0,0,0,0,0,90.21,6.613,1,0,-0.13,0,0,0.17,90,0,0,0,0,0,0,0,0,-0.139,0,0,0,0,90.21,1,-0.139,0.335,-0.0771,1,0,-0.0771,0,0.72,6.613,6.676,0.08,0,2,2,0,0,VALID,0,0,0,0,0,1,0,0,0,0,0,0,0,0,0,0,0,0,0,0,1105.98,1107.81,2,0,0.06,0.06,518,14.29,0.08,0.06,35.08,LANDED,X10-G,0:/Integrated Flight Computer/aircraft/x10_g_cfg.ks (inferred preloaded)
35.44,TAKEOFF,TO_ROTATE,144.52,80,-64.52,3.63,-0.34,-0.07,0.06,90.63,0.104,1,0,0,0,0,0,0,0,0,0,90.18,7.621,1,0,-0.14,0,0,0.18,90,0,0,0,0,0,0,0,0,-0.161,0,0,0,0,90.18,1,-0.161,0.45,-0.0999,1,0,-0.0999,0,0.72,7.621,7.694,0.08,0,2,2,0,0,VALID,0,0,0,0,0,1,0,0,0,0,0,0,0,0,0,0,0,0,0,0,1113.74,1115.52,2,0,0.06,0.06,522,14.29,0.08,0.06,35.36,LANDED,X10-G,0:/Integrated Flight Computer/aircraft/x10_g_cfg.ks (inferred preloaded)
35.72,TAKEOFF,TO_ROTATE,146.42,80,-66.42,3.64,-0.33,-0.05,0.07,90.71,0.09,1,0,0,0,0,0,0,0,0,0,90.16,8.629,1,0,-0.13,0,0,0.18,90,0,0,0,0,0,0,0,0,-0.187,0,0,0,0,90.16,1,-0.187,0.548,-0.115,1,0,-0.115,0,0.72,8.629,8.681,0.08,0,2,2,0,0,VALID,0,0,0,0,0,1,0,0,0,0,0,0,0,0,0,0,0,0,0,0,1121.62,1123.36,2,0,0.06,0.06,526,14.29,0.08,0.06,35.64,LANDED,X10-G,0:/Integrated Flight Computer/aircraft/x10_g_cfg.ks (inferred preloaded)
36,TAKEOFF,TO_ROTATE,148.33,80,-68.33,3.63,-0.32,-0.06,0.06,90.79,0.109,1,0,0,0,0,0,0,0,0,0,90.14,9.637,1,0,-0.12,0,0,0.19,90,0,0,0,0,0,0,0,0,-0.215,0,0,0,0,90.14,1,-0.215,0.651,-0.1329,1,0,-0.1329,0,0.72,9.637,9.696,0.08,0,2,2,0,0,VALID,0,0,0,0,0,1,0,0,0,0,0,0,0,0,0,0,0,0,0,0,1129.65,1131.33,2,0,0.06,0.06,530,14.29,0.08,0.06,35.92,LANDED,X10-G,0:/Integrated Flight Computer/aircraft/x10_g_cfg.ks (inferred preloaded)
36.28,TAKEOFF,TO_ROTATE,150.25,80,-70.25,3.64,-0.32,-0.04,0.07,90.86,0.111,1,0,0,0,0,0,0,0,0,0,90.11,10.645,1,0,-0.12,0,0,0.19,90,0,0,0,0,0,0,0,0,-0.247,0,0,0,0,90.11,1,-0.247,0.749,-0.1497,1,0,-0.1497,0,0.72,10.645,10.689,0.08,0,2,2,0,0,VALID,0,0,0,0,0,1,0,0,0,0,0,0,0,0,0,0,0,0,0,0,1137.81,1139.45,2,0,0.06,0.06,534,14.29,0.08,0.06,36.2,LANDED,X10-G,0:/Integrated Flight Computer/aircraft/x10_g_cfg.ks (inferred preloaded)
36.56,TAKEOFF,TO_ROTATE,152.19,80,-72.19,3.67,-0.26,0.01,0.1,90.91,0.115,1,0,0,0,0,0,0,0,0,0,90.09,11.5,1,0,-0.08,0,0,0.19,90,0,0,0,0,0,0,0,0,-0.282,0,0,0,0,90.09,1,-0.282,0.825,-0.1582,1,0,-0.1582,0,0.72,11.5,11.487,0.08,0,2,2,0,0,VALID,0,0,0,0,0,1,0,0,0,0,0,0,0,0,0,0,0,0,0,0,1146.1,1147.7,2,0,0.06,0.06,538,14.29,0.08,0.06,36.48,LANDED,X10-G,0:/Integrated Flight Computer/aircraft/x10_g_cfg.ks (inferred preloaded)
36.84,TAKEOFF,TO_ROTATE,154.14,80,-74.14,3.66,-0.35,0.06,0.19,90.97,0.123,1,0,0,0,0,0,0,0,0,0,90.05,11.5,1,0,-0.14,0,0,0.2,90,0,0,0,0,0,0,0,0,-0.319,0,0,0,0,90.05,1,-0.319,0.92,-0.1778,1,0,-0.1778,0,0.72,11.5,11.443,0.08,0,2,2,0,0,VALID,0,0,0,0,0,1,0,0,0,0,0,0,0,0,0,0,0,0,0,0,1154.54,1156.11,2,0,0.06,0.06,542,14.29,0.08,0.06,36.76,LANDED,X10-G,0:/Integrated Flight Computer/aircraft/x10_g_cfg.ks (inferred preloaded)
37.12,TAKEOFF,TO_ROTATE,156.11,80,-76.11,3.66,-0.25,0.02,0.11,91.03,0.103,1,0,0,0,0,0,0,0,0,0,90,11.5,1,0,-0.09,0,0,0.2,90,0,0,0,0,0,0,0,0,-0.358,0,0,0,0,90,1,-0.358,1.034,-0.2009,1,0,-0.2009,0,0.72,11.5,11.479,0.08,0,2,2,0,0,VALID,0,0,0,0,0,1,0,0,0,0,0,0,0,0,0,0,0,0,0,0,1163.12,1164.65,2,0,0.06,0.06,546,14.29,0.08,0.06,37.04,LANDED,X10-G,0:/Integrated Flight Computer/aircraft/x10_g_cfg.ks (inferred preloaded)
37.4,TAKEOFF,TO_ROTATE,158.1,80,-78.1,3.64,-0.33,-0.02,0.1,91.08,0.118,1,0,0,0,0,0,0,0,0,0,89.97,11.5,1,0,-0.12,0,0,0.21,90,0,0,0,0,0,0,0,0,-0.401,0,0,0,0,89.97,1,-0.401,1.11,-0.2081,1,0,-0.2081,0,0.72,11.5,11.517,0.08,0,2,2,0,0,VALID,0,0,0,0,0,1,0,0,0,0,0,0,0,0,0,0,0,0,0,0,1171.85,1173.35,2,0,0.06,0.06,550,14.29,0.08,0.06,37.32,LANDED,X10-G,0:/Integrated Flight Computer/aircraft/x10_g_cfg.ks (inferred preloaded)
37.68,TAKEOFF,TO_ROTATE,160.1,80,-80.1,3.65,-0.25,-0.01,0.08,91.12,0.136,1,0,0,0,0,0,0,0,0,0,89.93,11.5,1,0,-0.09,0,0,0.21,90,0,0,0,0,0,0,0,0,-0.446,0,0,0,0,89.93,1,-0.446,1.192,-0.2233,1,0,-0.2233,0,0.72,11.5,11.506,0.08,0,2,2,0,0,VALID,0,0,0,0,0,1,0,0,0,0,0,0,0,0,0,0,0,0,0,0,1180.73,1182.2,2,0,0.06,0.06,554,14.29,0.08,0.06,37.6,LANDED,X10-G,0:/Integrated Flight Computer/aircraft/x10_g_cfg.ks (inferred preloaded)
37.96,TAKEOFF,TO_ROTATE,162.11,80,-82.11,3.65,-0.29,0.02,0.12,91.16,0.115,1,0,0,0,0,0,0,0,0,0,89.88,11.5,1,0,-0.1,0,0,0.22,90,0,0,0,0,0,0,0,0,-0.493,0,0,0,0,89.88,1,-0.493,1.282,-0.2393,1,0,-0.2393,0,0.72,11.5,11.481,0.08,0,2,2,0,0,VALID,0,0,0,0,0,1,0,0,0,0,0,0,0,0,0,0,0,0,0,0,1189.76,1191.19,2,0,0.06,0.06,558,14.29,0.08,0.06,37.88,LANDED,X10-G,0:/Integrated Flight Computer/aircraft/x10_g_cfg.ks (inferred preloaded)
38.24,TAKEOFF,TO_ROTATE,164.14,80,-84.14,3.66,-0.24,0.05,0.14,91.19,0.133,1,0,0,0,0,0,0,0,0,0,89.84,11.5,1,0,-0.08,0,0,0.22,90,0,0,0,0,0,0,0,0,-0.542,0,0,0,0,89.84,1,-0.542,1.354,-0.2494,1,0,-0.2494,0,0.72,11.5,11.445,0.08,0,2,2,0,0,VALID,0,0,0,0,0,1,0,0,0,0,0,0,0,0,0,0,0,0,0,0,1198.93,1200.35,2,0,0.06,0.06,562,14.29,0.08,0.06,38.16,LANDED,X10-G,0:/Integrated Flight Computer/aircraft/x10_g_cfg.ks (inferred preloaded)
38.52,TAKEOFF,TO_ROTATE,166.19,80,-86.19,3.68,-0.25,0.1,0.19,91.22,0.136,1,0,0,0,0,0,0,0,0,0,89.79,11.5,1,0,-0.09,0,0,0.22,90,0,0,0,0,0,0,0,0,-0.593,0,0,0,0,89.79,1,-0.593,1.43,-0.2627,1,0,-0.2627,0,0.72,11.5,11.399,0.08,0,2,2,0,0,VALID,0,0,0,0,0,1,0,0,0,0,0,0,0,0,0,0,0,0,0,0,1208.26,1209.65,2,0,0.06,0.06,566,14.29,0.08,0.06,38.44,LANDED,X10-G,0:/Integrated Flight Computer/aircraft/x10_g_cfg.ks (inferred preloaded)
38.8,TAKEOFF,TO_ROTATE,168.25,80,-88.25,3.7,-0.23,0.17,0.24,91.24,0.133,1,0,0,0,0,0,0,0,0,0,89.74,11.5,1,0,-0.08,0,0,0.23,90,0,0,0,0,0,0,0,0,-0.646,0,0,0,0,89.74,1,-0.646,1.496,-0.2725,1,0,-0.2725,0,0.72,11.5,11.333,0.08,0,2,2,0,0,VALID,0,0,0,0,0,1,0,0,0,0,0,0,0,0,0,0,0,0,0,0,1217.75,1219.11,2,0,0.06,0.06,570,14.29,0.08,0.06,38.72,LANDED,X10-G,0:/Integrated Flight Computer/aircraft/x10_g_cfg.ks (inferred preloaded)
39.08,TAKEOFF,TO_ROTATE,170.33,80,-90.33,3.74,-0.06,0.24,0.26,91.25,0.139,1,0,0,0,0,0,0,0,0,0,89.69,11.5,1,0,-0.02,0,0,0.23,90,0,0,0,0,0,0,0,0,-0.699,0,0,0,0,89.69,1,-0.699,1.557,-0.2828,1,0,-0.2828,0,0.72,11.5,11.263,0.08,0,2,2,0,0,VALID,0,0,0,0,0,1,0,0,0,0,0,0,0,0,0,0,0,0,0,0,1227.39,1228.73,2,0,0.06,0.06,574,14.29,0.08,0.06,39,LANDED,X10-G,0:/Integrated Flight Computer/aircraft/x10_g_cfg.ks (inferred preloaded)
39.36,TAKEOFF,TO_ROTATE,172.43,80,-92.43,3.8,-0.3,0.43,0.53,91.25,0.132,1,0,0,0,0,0,0,0,0,0,89.65,11.5,1,0,-0.1,0,0,0.24,90,0,0,0,0,0,0,0,0,-0.754,0,0,0,0,89.65,1,-0.754,1.6,-0.2854,1,0,-0.2854,0,0.72,11.5,11.074,0.08,0,2,2,0,0,VALID,0,0,0,0,0,1,0,0,0,0,0,0,0,0,0,0,0,0,0,0,1237.19,1238.52,2,0,0.06,0.06,578,14.29,0.08,0.06,39.28,LANDED,X10-G,0:/Integrated Flight Computer/aircraft/x10_g_cfg.ks (inferred preloaded)
39.64,TAKEOFF,TO_ROTATE,174.54,80,-94.54,3.89,-0.11,0.69,0.72,91.25,0.15,1,0,0,0,0,0,0,0,0,0,89.59,11.5,1,0,-0.03,0,0,0.24,90,0,0,0,0,0,0,0,0,-0.81,0,0,0,0,89.59,1,-0.81,1.657,-0.2987,1,0,-0.2987,0,0.72,11.5,10.811,0.08,0,2,2,0,0,VALID,0,0,0,0,0,1,0,0,0,0,0,0,0,0,0,0,0,0,0,0,1247.16,1248.46,2,0,0.06,0.06,582,14.29,0.08,0.06,39.56,LANDED,X10-G,0:/Integrated Flight Computer/aircraft/x10_g_cfg.ks (inferred preloaded)
39.92,TAKEOFF,TO_ROTATE,176.67,80,-96.67,3.98,-0.21,0.97,1.04,91.24,0.128,1,0,0,0,0,0,0,0,0,0,89.55,11.5,1,0,-0.07,0,0,0.25,90,0,0,0,0,0,0,0,0,-0.865,0,0,0,0,89.55,1,-0.865,1.686,-0.298,1,0,-0.298,0,0.72,11.5,10.533,0.08,0,2,2,0,0,VALID,0,0,0,0,0,1,0,0,0,0,0,0,0,0,0,0,0,0,0,0,1257.28,1258.57,2,0,0.06,0.06,586,14.29,0.08,0.06,39.84,LANDED,X10-G,0:/Integrated Flight Computer/aircraft/x10_g_cfg.ks (inferred preloaded)
40.2,TAKEOFF,TO_ROTATE,178.82,80,-98.82,4.05,-0.13,1.21,1.25,91.2,0.158,1,0,0,0,0,0,0,0,0,0,89.5,11.5,1,0,-0.04,0,0,0.25,90,0,0,0,0,0,0,0,0,-0.92,0,0,0,0,89.5,1,-0.92,1.703,-0.2998,1,0,-0.2998,0,0.72,11.5,10.292,0.08,0,2,2,0,0,VALID,0,0,0,0,0,1,0,0,0,0,0,0,0,0,0,0,0,0,0,0,1267.56,1268.84,2,0,0.06,0.06,590,14.29,0.08,0.06,40.12,LANDED,X10-G,0:/Integrated Flight Computer/aircraft/x10_g_cfg.ks (inferred preloaded)
40.48,TAKEOFF,TO_ROTATE,180.98,80,-100.98,4.11,-0.17,1.38,1.44,91.17,0.137,1,0,0,0,0,0,0,0,0,0,89.45,11.5,1,0,-0.06,0,0,0.26,90,0,0,0,0,0,0,0,0,-0.974,0,0,0,0,89.45,1,-0.974,1.718,-0.3009,1,0,-0.3009,0,0.72,11.5,10.12,0.08,0,2,2,0,0,VALID,0,0,0,0,0,1,0,0,0,0,0,0,0,0,0,0,0,0,0,0,1278,1279.27,2,0,0.06,0.06,594,14.29,0.08,0.06,40.4,LANDED,X10-G,0:/Integrated Flight Computer/aircraft/x10_g_cfg.ks (inferred preloaded)
