t_s,phase,subphase,ias_ms,vapp_ms,spd_err_ms,agl_m,vs_ms,pitch_deg,aoa_deg,hdg_deg,bank_deg,thr_cmd,thr_cur,thr_intg,at_gain,at_tau_s,at_a_up,at_a_dn,at_kp_thr,at_ki_spd,at_thr_slew,aa_hdg_cmd_deg,aa_fpa_cmd_deg,aa_fbw,aa_dir,actual_fpa_deg,ftf_hdg_err_deg,ftf_fix_idx,kos_steer_pit_deg,kos_steer_hdg_deg,aa_dir_vx,aa_dir_vy,aa_dir_vz,aa_dir_pitch_deg,aa_dir_hdg_deg,ils_loc_m,ils_gs_m,ils_dist_km,loc_corr_deg,gs_corr_deg,flare_fpa_cmd,flare_tgt_vs,flare_frac,steer_hdg_deg,steer_blend,ro_loc_corr_deg,ro_hdg_err_deg,ro_yaw_tgt,ro_yaw_scale,ro_yaw_gate,yaw_cmd,roll_cmd,pitch_cmd,ro_pitch_tgt_deg,ro_pitch_err_deg,ro_pitch_ff,ro_roll_assist,flaps_cur,flaps_tgt,asc_j_ab,asc_j_rk,asc_validity,asc_q_pa,asc_q_raw_pa,asc_mach,asc_apo_m,asc_drag_n,asc_w_prop,asc_edot_aero,asc_edot_orb,asc_pitch_bias,asc_blend,asc_spooling,asc_ab_thr_ratio,asc_ab_t_now,asc_ab_t_avail,asc_ab_ign_on,asc_ab_flameouts,asc_rk_t_now,asc_rk_t_avail,asc_rk_ign_on,asc_rk_flameouts,ship_thrust,ship_avail_thrust,ship_ign_on,ship_flameouts,ifc_raw_dt_s,ifc_dt_s,ifc_loop_n,ifc_hz_est,ifc_raw_dt_max_s,ifc_raw_dt_min_s,phase_el_s,status,craft_name,cfg_file
0.12,TAKEOFF,TO_PREFLIGHT,0.47,80,79.53,3.64,-0.05,0.09,4.63,90.37,0.1,0.04,0,0,0,0,0,0,0,0,0,90.4,0,1,0,-2.23,0,0,0,90,0,0,0,0,0,0,0,0,0,0,0,0,0,90.4,1,0,-0.032,0,0,1,0,0,0,0,0,0,0,0,1,0,0,VALID,0,0,0,0,0,1,0,0,0,0,0,0,0,0,0,0,0,0,0,0,0,519.91,2,0,0.1,0.1,1,3.45,0.1,0.02,0.02,PRELAUNCH,CF1-F,0:/Integrated Flight Computer/aircraft/cf1_f_cfg.ks (inferred preloaded)
0.38,TAKEOFF,TO_PREFLIGHT,0.47,80,79.53,3.69,0.16,0.39,-13.32,90.37,0.096,0.112,0,0,0,0,0,0,0,0,0,90.4,0,1,0,8.96,0,0,0,90,0,0,0,0,0,0,0,0,0,0,0,0,0,90.4,1,0,-0.03,0,0,1,0,0,0,0,0,0,0,1,1,0,0,VALID,0,0,0,0,0,1,0,0,0,0,0,0,0,0,0,0,0,0,0,0,0.35,519.9,2,0,0.04,0.04,6,19.23,0.1,0.04,0.28,PRELAUNCH,CF1-F,0:/Integrated Flight Computer/aircraft/cf1_f_cfg.ks (inferred preloaded)
0.64,TAKEOFF,TO_PREFLIGHT,0.39,80,79.61,3.68,-0.12,0.29,18.58,90.38,0.1,0.216,0,0,0,0,0,0,0,0,0,90.4,0,1,0,-6.72,0,0,0,90,0,0,0,0,0,0,0,0,0,0,0,0,0,90.4,1,0,-0.03,0,0,1,0,0,0,0,0,0,0,1,1,0,0,VALID,0,0,0,0,0,1,0,0,0,0,0,0,0,0,0,0,0,0,0,0,1.45,519.92,2,0,0.04,0.04,11,19.23,0.08,0.04,0.54,PRELAUNCH,CF1-F,0:/Integrated Flight Computer/aircraft/cf1_f_cfg.ks (inferred preloaded)
0.9,TAKEOFF,TO_PREFLIGHT,0.2,80,79.8,3.6,0.03,-0.13,-10.07,90.39,0.107,0.32,0,0,0,0,0,0,0,0,0,90.4,0,1,0,1.67,0,0,0,90,0,0,0,0,0,0,0,0,0,0,0,0,0,90.4,1,0,-0.03,0,0,1,0,0,0,0,0,0,0,1,1,0,0,VALID,0,0,0,0,0,1,0,0,0,0,0,0,0,0,0,0,0,0,0,0,3.36,519.97,2,0,0.04,0.04,16,19.23,0.08,0.04,0.8,PRELAUNCH,CF1-F,0:/Integrated Flight Computer/aircraft/cf1_f_cfg.ks (inferred preloaded)
1.16,TAKEOFF,TO_PREFLIGHT,0.06,80,79.94,3.64,-0.1,0.11,38.81,90.4,0.108,0.424,0,0,0,0,0,0,0,0,0,90.4,0,1,0,-5.58,0,0,0,90,0,0,0,0,0,0,0,0,0,0,0,0,0,90.4,1,0,-0.03,0,0,1,0,0,0,0,0,0,0,1,1,0,0,VALID,0,0,0,0,0,1,0,0,0,0,0,0,0,0,0,0,0,0,0,0,6.09,520,2,0,0.04,0.04,21,19.23,0.08,0.04,1.06,PRELAUNCH,CF1-F,0:/Integrated Flight Computer/aircraft/cf1_f_cfg.ks (inferred preloaded)
1.42,TAKEOFF,TO_PREFLIGHT,0.06,80,79.94,3.68,0.09,0.37,-38.41,90.4,0.105,0.528,0,0,0,0,0,0,0,0,0,90.4,0,1,0,4.94,0,0,0,90,0,0,0,0,0,0,0,0,0,0,0,0,0,90.4,1,0,-0.03,0,0,1,0,0,0,0,0,0,0,1,1,0,0,VALID,0,0,0,0,0,1,0,0,0,0,0,0,0,0,0,0,0,0,0,0,9.61,520,2,0,0.04,0.04,26,19.23,0.08,0.04,1.32,PRELAUNCH,CF1-F,0:/Integrated Flight Computer/aircraft/cf1_f_cfg.ks (inferred preloaded)
1.68,TAKEOFF,TO_PREFLIGHT,0.07,80,79.93,3.71,-0.11,0.43,89.48,90.4,0.101,0.632,0,0,0,0,0,0,0,0,0,90.4,0,1,0,-6.07,0,0,0,90,0,0,0,0,0,0,0,0,0,0,0,0,0,90.4,1,0,-0.03,0,0,1,0,0,0,0,0,0,0,1,1,0,0,VALID,0,0,0,0,0,1,0,0,0,0,0,0,0,0,0,0,0,0,0,0,13.91,520,2,0,0.04,0.04,31,19.23,0.08,0.04,1.58,PRELAUNCH,CF1-F,0:/Integrated Flight Computer/aircraft/cf1_f_cfg.ks (inferred preloaded)
1.94,TAKEOFF,TO_PREFLIGHT,0.05,80,79.95,3.68,0.07,0.28,-47.53,90.4,0.1,0.736,0,0,0,0,0,0,0,0,0,90.4,0,1,0,3.76,0,0,0,90,0,0,0,0,0,0,0,0,0,0,0,0,0,90.4,1,0,-0.03,0,0,1,0,0,0,0,0,0,0,1,1,0,0,VALID,0,0,0,0,0,1,0,0,0,0,0,0,0,0,0,0,0,0,0,0,18.99,520,2,0,0.04,0.04,36,19.23,0.08,0.04,1.84,PRELAUNCH,CF1-F,0:/Integrated Flight Computer/aircraft/cf1_f_cfg.ks (inferred preloaded)
2.26,TAKEOFF,TO_PREFLIGHT,0.12,80,79.88,3.61,-0.04,-0.03,34.06,90.4,0.102,0.864,0,0,0,0,0,0,0,0,0,90.4,0,1,0,-2.1,0,0,0,90,0,0,0,0,0,0,0,0,0,0,0,0,0,90.4,1,0,-0.03,0,0,1,0,0,0,0,0,0,0,1,1,0,0,VALID,0,0,0,0,0,1,0,0,0,0,0,0,0,0,0,0,0,0,0,0,26.27,519.98,2,0,0.08,0.08,41,15.63,0.08,0.04,2.16,PRELAUNCH,CF1-F,0:/Integrated Flight Computer/aircraft/cf1_f_cfg.ks (inferred preloaded)
2.54,TAKEOFF,TO_PREFLIGHT,0.03,80,79.97,3.64,-0.05,0.1,45.84,90.41,0.105,0.976,0,0,0,0,0,0,0,0,0,90.4,0,1,0,-2.61,0,0,0,90,0,0,0,0,0,0,0,0,0,0,0,0,0,90.4,1,0,-0.03,0,0,1,0,0,0,0,0,0,0,1,1,0,0,VALID,0,0,0,0,0,1,0,0,0,0,0,0,0,0,0,0,0,0,0,0,33.55,520,2,0,0.08,0.08,45,14.29,0.08,0.06,2.44,PRELAUNCH,CF1-F,0:/Integrated Flight Computer/aircraft/cf1_f_cfg.ks (inferred preloaded)
2.82,TAKEOFF,TO_PREFLIGHT,0.02,80,79.98,3.64,0.03,0.13,-38.63,90.41,0.106,1,0,0,0,0,0,0,0,0,0,90.4,0,1,0,1.55,0,0,0,90,0,0,0,0,0,0,0,0,0,0,0,0,0,90.4,1,0,-0.03,0,0,1,0,0,0,0,0,0,0,1,1,0,0,VALID,0,0,0,0,0,1,0,0,0,0,0,0,0,0,0,0,0,0,0,0,41.54,520.01,2,0,0.08,0.08,49,14.29,0.08,0.06,2.72,PRELAUNCH,CF1-F,0:/Integrated Flight Computer/aircraft/cf1_f_cfg.ks (inferred preloaded)
3.1,TAKEOFF,TO_PREFLIGHT,0.06,80,79.94,3.63,0,0.03,-2.42,90.42,0.105,1,0,0,0,0,0,0,0,0,0,90.4,0,1,0,0.11,0,0,0,90,0,0,0,0,0,0,0,0,0,0,0,0,0,90.4,1,0,-0.03,0,0,1,0,0,0,0,0,0,0,1,1,0,0,VALID,0,0,0,0,0,1,0,0,0,0,0,0,0,0,0,0,0,0,0,0,49.52,520,2,0,0.08,0.08,53,14.29,0.08,0.06,3,PRELAUNCH,CF1-F,0:/Integrated Flight Computer/aircraft/cf1_f_cfg.ks (inferred preloaded)
3.38,TAKEOFF,TO_GROUND_ROLL,0.03,80,79.97,3.63,-0.01,0.08,13.03,90.42,0.103,1,0,0,0,0,0,0,0,0,0,90.4,0,1,0,-0.86,0,0,0,90,0,0,0,0,0,0,0,0,0,0,0,0,0,90.4,1,0,0.023,0,0,3,0,0,0,0,0,0,0,1,1,0,0,VALID,0,0,0,0,0,1,0,0,0,0,0,0,0,0,0,0,0,0,0,0,57.36,520,2,0,0.08,0.08,57,14.29,0.08,0.06,3.3,PRELAUNCH,CF1-F,0:/Integrated Flight Computer/aircraft/cf1_f_cfg.ks (inferred preloaded)
3.66,TAKEOFF,TO_GROUND_ROLL,0.21,80,79.79,3.65,0,0.2,-0.29,90.43,0.102,1,0,0,0,0,0,0,0,0,0,90.39,0,1,0,0.28,0,0,0,90,0,0,0,0,0,0,0,0,0,0,0,0,0,90.39,1,0,0.033,0,0,3,0,0,0,0,0,0,0,1,1,0,0,VALID,0,0,0,0,0,1,0,0,0,0,0,0,0,0,0,0,0,0,0,0,65.07,519.96,2,0,0.08,0.08,61,14.29,0.08,0.06,3.58,PRELAUNCH,CF1-F,0:/Integrated Flight Computer/aircraft/cf1_f_cfg.ks (inferred preloaded)
3.94,TAKEOFF,TO_GROUND_ROLL,0.48,80,79.52,3.66,-0.01,0.24,0.85,90.44,0.104,1,0,0,0,0,0,0,0,0,0,90.39,0,1,0,-0.42,0,0,0,90,0,0,0,0,0,0,0,0,0,0,0,0,0,90.39,1,0,0.045,0,0,3,0,0,0,0,0,0,0,1,1,0,0,VALID,0,0,0,0,0,1,0,0,0,0,0,0,0,0,0,0,0,0,0,0,72.64,519.89,2,0,0.08,0.08,65,14.29,0.08,0.06,3.86,PRELAUNCH,CF1-F,0:/Integrated Flight Computer/aircraft/cf1_f_cfg.ks (inferred preloaded)
4.22,TAKEOFF,TO_GROUND_ROLL,0.79,80,79.21,3.66,0,0.26,0.41,90.45,0.104,1,0,0,0,0,0,0,0,0,0,90.39,0,1,0,-0.15,0,0,0,90,0,0,0,0,0,0,0,0,0,0,0,0,0,90.39,1,0,0.059,0,0,3,0,0,0,0,0,0,0,1,1,0,0,VALID,0,0,0,0,0,1,0,0,0,0,0,0,0,0,0,0,0,0,0,0,80.09,519.82,2,0,0.08,0.08,69,14.29,0.08,0.06,4.14,PRELAUNCH,CF1-F,0:/Integrated Flight Computer/aircraft/cf1_f_cfg.ks (inferred preloaded)
4.5,TAKEOFF,TO_GROUND_ROLL,1.13,80,78.87,3.68,0.02,0.25,-1.88,90.46,0.102,1,0,0,0,0,0,0,0,0,0,90.39,0,1,0,0.79,0,0,0,90,0,0,0,0,0,0,0,0,0,0,0,0,0,90.39,1,0,0.074,0,0,3,0,0,0,0,0,0,0,1,1,0,0,VALID,0,0,0,0,0,1,0,0,0,0,0,0,0,0,0,0,0,0,0,0,87.4,519.73,2,0,0.08,0.08,73,14.29,0.08,0.06,4.42,PRELAUNCH,CF1-F,0:/Integrated Flight Computer/aircraft/cf1_f_cfg.ks (inferred preloaded)
4.78,TAKEOFF,TO_GROUND_ROLL,1.49,80,78.51,3.66,0.03,0.21,-0.37,90.48,0.101,1,0,0,0,0,0,0,0,0,0,90.39,0,1,0,1.15,0,0,0,90,0,0,0,0,0,0,0,0,0,0,0,0,0,90.39,1,0,0.09,0,0,3,0,0,0,0,0,0,0,1,1,0,0,VALID,0,0,0,0,0,1,0,0,0,0,0,0,0,0,0,0,0,0,0,0,94.59,519.64,2,0,0.08,0.08,77,14.29,0.08,0.06,4.7,PRELAUNCH,CF1-F,0:/Integrated Flight Computer/aircraft/cf1_f_cfg.ks (inferred preloaded)
5.06,TAKEOFF,TO_GROUND_ROLL,1.89,80,78.11,3.66,-0.04,0.17,1.26,90.49,0.101,1,0,0,0,0,0,0,0,0,0,90.39,0,1,0,-1.16,0,0,0,90,0,0,0,0,0,0,0,0,0,0,0,0,0,90.39,1,0,0.107,0,0,3,0,0,0,0,0,0,0,1,1,0,0,VALID,0,0,0,0,0,1,0,0,0,0,0,0,0,0,0,0,0,0,0,0,101.66,519.54,2,0,0.08,0.08,81,14.29,0.08,0.06,4.98,PRELAUNCH,CF1-F,0:/Integrated Flight Computer/aircraft/cf1_f_cfg.ks (inferred preloaded)
5.34,TAKEOFF,TO_GROUND_ROLL,2.31,80,77.69,3.65,0.01,0.22,0.17,90.51,0.103,1,0,0,0,0,0,0,0,0,0,90.39,0,1,0,0.28,0,0,0,90,0,0,0,0,0,0,0,0,0,0,0,0,0,90.39,1,0,0.124,-0.001,0.25,1,-0.001,0,0,0,0,0,0,1,1,0,0,VALID,0,0,0,0,0,1,0,0,0,0,0,0,0,0,0,0,0,0,0,0,108.6,519.43,2,0,0.08,0.08,85,14.29,0.08,0.06,5.26,LANDED,CF1-F,0:/Integrated Flight Computer/aircraft/cf1_f_cfg.ks (inferred preloaded)
5.62,TAKEOFF,TO_GROUND_ROLL,2.76,80,77.24,3.68,0.1,0.32,-0.95,90.53,0.106,1,0,0,0,0,0,0,0,0,0,90.39,0,1,0,2.12,0,0,0,90,0,0,0,0,0,0,0,0,0,0,0,0,0,90.39,1,0,0.142,-0.0011,0.25,1,-0.0011,0,0,0,0,0,0,1,1,0,0,VALID,0,0,0,0,0,1,0,0,0,0,0,0,0,0,0,0,0,0,0,0,115.42,519.31,2,0,0.08,0.08,89,14.29,0.08,0.06,5.54,LANDED,CF1-F,0:/Integrated Flight Computer/aircraft/cf1_f_cfg.ks (inferred preloaded)
5.9,TAKEOFF,TO_GROUND_ROLL,3.24,80,76.76,3.7,-0.11,0.43,2.2,90.55,0.103,1,0,0,0,0,0,0,0,0,0,90.39,0,1,0,-1.87,0,0,0,90,0,0,0,0,0,0,0,0,-0.001,0,0,0,0,90.39,1,-0.001,0.161,-0.0013,0.25,1,-0.0013,0,0,0,0,0,0,1,1,0,0,VALID,0,0,0,0,0,1,0,0,0,0,0,0,0,0,0,0,0,0,0,0,122.13,519.18,2,0,0.08,0.08,93,14.29,0.08,0.06,5.82,LANDED,CF1-F,0:/Integrated Flight Computer/aircraft/cf1_f_cfg.ks (inferred preloaded)
6.18,TAKEOFF,TO_GROUND_ROLL,3.74,80,76.26,3.71,0,0.48,0.33,90.57,0.098,1,0,0,0,0,0,0,0,0,0,90.39,0,1,0,-0.03,0,0,0,90,0,0,0,0,0,0,0,0,-0.001,0,0,0,0,90.39,1,-0.001,0.179,-0.0015,0.25,1,-0.0015,0,0,0,0,0,0,1,1,0,0,VALID,0,0,0,0,0,1,0,0,0,0,0,0,0,0,0,0,0,0,0,0,128.71,519.04,2,0,0.08,0.08,97,14.29,0.08,0.06,6.1,LANDED,CF1-F,0:/Integrated Flight Computer/aircraft/cf1_f_cfg.ks (inferred preloaded)
6.46,TAKEOFF,TO_GROUND_ROLL,4.27,80,75.73,3.71,-0.01,0.48,0.71,90.58,0.097,1,0,0,0,0,0,0,0,0,0,90.39,0,1,0,-0.17,0,0,0,90,0,0,0,0,0,0,0,0,-0.001,0,0,0,0,90.39,1,-0.001,0.196,-0.0017,0.25,1,-0.0017,0,0,0,0,0,0,1,1,0,0,VALID,0,0,0,0,0,1,0,0,0,0,0,0,0,0,0,0,0,0,0,0,135.18,518.89,2,0,0.08,0.08,101,14.29,0.08,0.06,6.38,LANDED,CF1-F,0:/Integrated Flight Computer/aircraft/cf1_f_cfg.ks (inferred preloaded)
6.74,TAKEOFF,TO_GROUND_ROLL,4.83,80,75.17,3.7,-0.04,0.43,0.87,90.6,0.1,1,0,0,0,0,0,0,0,0,0,90.39,0,1,0,-0.49,0,0,0,90,0,0,0,0,0,0,0,0,-0.001,0,0,0,0,90.39,1,-0.001,0.213,-0.0019,0.25,1,-0.0019,0,0,0,0,0,0,1,1,0,0,VALID,0,0,0,0,0,1,0,0,0,0,0,0,0,0,0,0,0,0,0,0,141.53,518.74,2,0,0.08,0.08,105,14.29,0.08,0.06,6.66,LANDED,CF1-F,0:/Integrated Flight Computer/aircraft/cf1_f_cfg.ks (inferred preloaded)
7.02,TAKEOFF,TO_GROUND_ROLL,5.41,80,74.59,3.69,-0.03,0.38,0.63,90.62,0.102,1,0,0,0,0,0,0,0,0,0,90.39,0,1,0,-0.28,0,0,0,90,0,0,0,0,0,0,0,0,-0.002,0,0,0,0,90.39,1,-0.002,0.229,-0.0021,0.25,1,-0.0021,0,0,0,0,0,0,1,1,0,0,VALID,0,0,0,0,0,1,0,0,0,0,0,0,0,0,0,0,0,0,0,0,147.77,518.57,2,0,0.08,0.08,109,14.29,0.08,0.06,6.94,LANDED,CF1-F,0:/Integrated Flight Computer/aircraft/cf1_f_cfg.ks (inferred preloaded)
7.3,TAKEOFF,TO_GROUND_ROLL,6.01,80,73.99,3.69,-0.03,0.35,0.66,90.63,0.101,1,0,0,0,0,0,0,0,0,0,90.39,0,1,0,-0.32,0,0,0,90,0,0,0,0,0,0,0,0,-0.002,0,0,0,0,90.39,1,-0.002,0.246,-0.0023,0.25,1,-0.0023,0,0,0,0,0,0,1,1,0,0,VALID,0,0,0,0,0,1,0,0,0,0,0,0,0,0,0,0,0,0,0,0,153.9,518.39,2,0,0.08,0.08,113,14.29,0.08,0.06,7.22,LANDED,CF1-F,0:/Integrated Flight Computer/aircraft/cf1_f_cfg.ks (inferred preloaded)
7.58,TAKEOFF,TO_GROUND_ROLL,6.64,80,73.36,3.69,-0.04,0.36,0.68,90.65,0.099,1,0,0,0,0,0,0,0,0,0,90.39,0,1,0,-0.34,0,0,0,90,0,0,0,0,0,0,0,0,-0.002,0,0,0,0,90.39,1,-0.002,0.262,-0.0025,0.25,1,-0.0025,0,0,0,0,0,0,1,1,0,0,VALID,0,0,0,0,0,1,0,0,0,0,0,0,0,0,0,0,0,0,0,0,159.92,518.2,2,0,0.08,0.08,117,14.29,0.08,0.06,7.5,LANDED,CF1-F,0:/Integrated Flight Computer/aircraft/cf1_f_cfg.ks (inferred preloaded)
7.86,TAKEOFF,TO_GROUND_ROLL,7.3,80,72.7,3.7,-0.04,0.43,0.72,90.66,0.098,1,0,0,0,0,0,0,0,0,0,90.39,0,1,0,-0.32,0,0,0,90,0,0,0,0,0,0,0,0,-0.003,0,0,0,0,90.39,1,-0.003,0.278,-0.0027,0.25,1,-0.0027,0,0,0,0,0,0,1,1,0,0,VALID,0,0,0,0,0,1,0,0,0,0,0,0,0,0,0,0,0,0,0,0,165.83,517.99,2,0,0.08,0.08,121,14.29,0.08,0.06,7.78,LANDED,CF1-F,0:/Integrated Flight Computer/aircraft/cf1_f_cfg.ks (inferred preloaded)
8.14,TAKEOFF,TO_GROUND_ROLL,7.97,80,72.03,3.72,-0.05,0.52,0.82,90.68,0.098,1,0,0,0,0,0,0,0,0,0,90.39,0,1,0,-0.33,0,0,0,90,0,0,0,0,0,0,0,0,-0.004,0,0,0,0,90.39,1,-0.004,0.294,-0.0029,0.25,1,-0.0029,0,0,0,0,0,0,1,1,0,0,VALID,0,0,0,0,0,1,0,0,0,0,0,0,0,0,0,0,0,0,0,0,171.63,517.78,2,0,0.08,0.08,125,14.29,0.08,0.06,8.06,LANDED,CF1-F,0:/Integrated Flight Computer/aircraft/cf1_f_cfg.ks (inferred preloaded)
8.42,TAKEOFF,TO_GROUND_ROLL,8.68,80,71.32,3.73,-0.05,0.62,0.91,90.69,0.099,1,0,0,0,0,0,0,0,0,0,90.39,0,1,0,-0.33,0,0,0,90,0,0,0,0,0,0,0,0,-0.004,0,0,0,0,90.39,1,-0.004,0.309,-0.0031,0.25,1,-0.0031,0,0,0,0,0,0,1,1,0,0,VALID,0,0,0,0,0,1,0,0,0,0,0,0,0,0,0,0,0,0,0,0,177.32,517.55,2,0,0.08,0.08,129,14.29,0.08,0.06,8.34,LANDED,CF1-F,0:/Integrated Flight Computer/aircraft/cf1_f_cfg.ks (inferred preloaded)
8.7,TAKEOFF,TO_GROUND_ROLL,9.4,80,70.6,3.75,-0.05,0.69,0.99,90.71,0.099,1,0,0,0,0,0,0,0,0,0,90.39,0,1,0,-0.32,0,0,0,90,0,0,0,0,0,0,0,0,-0.005,0,0,0,0,90.39,1,-0.005,0.322,-0.0033,0.25,1,-0.0033,0,0,0,0,0,0,1,1,0,0,VALID,0,0,0,0,0,1,0,0,0,0,0,0,0,0,0,0,0,0,0,0,182.91,517.31,2,0,0.08,0.08,133,14.29,0.08,0.06,8.62,LANDED,CF1-F,0:/Integrated Flight Computer/aircraft/cf1_f_cfg.ks (inferred preloaded)
8.98,TAKEOFF,TO_GROUND_ROLL,10.14,80,69.86,3.75,-0.06,0.72,1.02,90.72,0.097,1,0,0,0,0,0,0,0,0,0,90.39,0,1,0,-0.33,0,0,0,90,0,0,0,0,0,0,0,0,-0.006,0,0,0,0,90.39,1,-0.006,0.333,-0.0035,0.25,1,-0.0035,0,0,0,0,0,0,1,1,0,0,VALID,0,0,0,0,0,1,0,0,0,0,0,0,0,0,0,0,0,0,0,0,188.39,517.06,2,0,0.08,0.08,137,14.29,0.08,0.06,8.9,LANDED,CF1-F,0:/Integrated Flight Computer/aircraft/cf1_f_cfg.ks (inferred preloaded)
9.26,TAKEOFF,TO_GROUND_ROLL,10.91,80,69.09,3.75,-0.06,0.71,1.02,90.73,0.098,1,0,0,0,0,0,0,0,0,0,90.39,0,1,0,-0.33,0,0,0,90,0,0,0,0,0,0,0,0,-0.006,0,0,0,0,90.39,1,-0.006,0.344,-0.0036,0.25,1,-0.0036,0,0,0,0,0,0,1,1,0,0,VALID,0,0,0,0,0,1,0,0,0,0,0,0,0,0,0,0,0,0,0,0,193.77,516.8,2,0,0.08,0.08,141,14.29,0.08,0.06,9.18,LANDED,CF1-F,0:/Integrated Flight Computer/aircraft/cf1_f_cfg.ks (inferred preloaded)
9.54,TAKEOFF,TO_GROUND_ROLL,11.7,80,68.3,3.74,-0.07,0.68,0.98,90.74,0.099,1,0,0,0,0,0,0,0,0,0,90.39,0,1,0,-0.32,0,0,0,90,0,0,0,0,0,0,0,0,-0.007,0,0,0,0,90.39,1,-0.007,0.353,-0.0038,0.25,1,-0.0038,0,0,0,0,0,0,1,1,0,0,VALID,0,0,0,0,0,1,0,0,0,0,0,0,0,0,0,0,0,0,0,0,199.05,516.52,2,0,0.08,0.08,145,14.29,0.08,0.06,9.46,LANDED,CF1-F,0:/Integrated Flight Computer/aircraft/cf1_f_cfg.ks (inferred preloaded)
9.82,TAKEOFF,TO_GROUND_ROLL,12.51,80,67.49,3.74,-0.07,0.64,0.95,90.75,0.1,1,0,0,0,0,0,0,0,0,0,90.39,0,1,0,-0.33,0,0,0,90,0,0,0,0,0,0,0,0,-0.008,0,0,0,0,90.39,1,-0.008,0.36,-0.0039,0.25,1,-0.0039,0,0,0,0,0,0,1,1,0,0,VALID,0,0,0,0,0,1,0,0,0,0,0,0,0,0,0,0,0,0,0,0,204.23,516.23,2,0,0.08,0.08,149,14.29,0.08,0.06,9.74,LANDED,CF1-F,0:/Integrated Flight Computer/aircraft/cf1_f_cfg.ks (inferred preloaded)
10.1,TAKEOFF,TO_GROUND_ROLL,13.33,80,66.67,3.74,-0.08,0.64,0.94,90.75,0.099,1,0,0,0,0,0,0,0,0,0,90.39,0,1,0,-0.33,0,0,0,90,0,0,0,0,0,0,0,0,-0.009,0,0,0,0,90.39,1,-0.009,0.368,-0.004,0.25,1,-0.004,0,0,0,0,0,0,1,1,0,0,VALID,0,0,0,0,0,1,0,0,0,0,0,0,0,0,0,0,0,0,0,0,209.31,515.93,2,0,0.08,0.08,153,14.29,0.08,0.06,10.02,LANDED,CF1-F,0:/Integrated Flight Computer/aircraft/cf1_f_cfg.ks (inferred preloaded)
10.38,TAKEOFF,TO_GROUND_ROLL,14.18,80,65.82,3.74,-0.08,0.67,0.97,90.76,0.098,1,0,0,0,0,0,0,0,0,0,90.39,0,1,0,-0.32,0,0,0,90,0,0,0,0,0,0,0,0,-0.01,0,0,0,0,90.39,1,-0.01,0.374,-0.0041,0.25,1,-0.0041,0,0,0,0,0,0,1,1,0,0,VALID,0,0,0,0,0,1,0,0,0,0,0,0,0,0,0,0,0,0,0,0,214.29,515.61,2,0,0.08,0.08,157,14.29,0.08,0.06,10.3,LANDED,CF1-F,0:/Integrated Flight Computer/aircraft/cf1_f_cfg.ks (inferred preloaded)
10.66,TAKEOFF,TO_GROUND_ROLL,15.05,80,64.95,3.75,-0.08,0.73,1.03,90.76,0.099,1,0,0,0,0,0,0,0,0,0,90.39,0,1,0,-0.32,0,0,0,90,0,0,0,0,0,0,0,0,-0.011,0,0,0,0,90.39,1,-0.011,0.379,-0.0042,0.25,1,-0.0042,0,0,0,0,0,0,1,1,0,0,VALID,0,0,0,0,0,1,0,0,0,0,0,0,0,0,0,0,0,0,0,0,219.17,515.28,2,0,0.08,0.08,161,14.29,0.08,0.06,10.58,LANDED,CF1-F,0:/Integrated Flight Computer/aircraft/cf1_f_cfg.ks (inferred preloaded)
10.94,TAKEOFF,TO_GROUND_ROLL,15.94,80,64.06,3.77,-0.09,0.8,1.1,90.77,0.1,1,0,0,0,0,0,0,0,0,0,90.38,0,1,0,-0.32,0,0,0.01,90,0,0,0,0,0,0,0,0,-0.013,0,0,0,0,90.38,1,-0.013,0.384,-0.0042,0.25,1,-0.0042,0,0,0,0,0,0,1,1,0,0,VALID,0,0,0,0,0,1,0,0,0,0,0,0,0,0,0,0,0,0,0,0,223.96,514.94,2,0,0.08,0.08,165,14.29,0.08,0.06,10.86,LANDED,CF1-F,0:/Integrated Flight Computer/aircraft/cf1_f_cfg.ks (inferred preloaded)
11.22,TAKEOFF,TO_GROUND_ROLL,16.84,80,63.16,3.78,-0.09,0.87,1.17,90.77,0.1,1,0,0,0,0,0,0,0,0,0,90.38,0,1,0,-0.32,0,0,0.01,90,0,0,0,0,0,0,0,0,-0.014,0,0,0,0,90.38,1,-0.014,0.387,-0.0043,0.25,1,-0.0043,0,0,0,0,0,0,1,1,0,0,VALID,0,0,0,0,0,1,0,0,0,0,0,0,0,0,0,0,0,0,0,0,228.65,514.58,2,0,0.08,0.08,169,14.29,0.08,0.06,11.14,LANDED,CF1-F,0:/Integrated Flight Computer/aircraft/cf1_f_cfg.ks (inferred preloaded)
11.5,TAKEOFF,TO_GROUND_ROLL,17.77,80,62.23,3.79,-0.1,0.91,1.21,90.77,0.1,1,0,0,0,0,0,0,0,0,0,90.38,0,1,0,-0.32,0,0,0.01,90,0,0,0,0,0,0,0,0,-0.015,0,0,0,0,90.38,1,-0.015,0.388,-0.0043,0.25,1,-0.0043,0,0,0,0,0,0,1,1,0,0,VALID,0,0,0,0,0,1,0,0,0,0,0,0,0,0,0,0,0,0,0,0,233.25,514.2,2,0,0.08,0.08,173,14.29,0.08,0.06,11.42,LANDED,CF1-F,0:/Integrated Flight Computer/aircraft/cf1_f_cfg.ks (inferred preloaded)
11.78,TAKEOFF,TO_GROUND_ROLL,18.71,80,61.29,3.79,-0.1,0.93,1.23,90.77,0.1,1,0,0,0,0,0,0,0,0,0,90.38,0,1,0,-0.32,0,0,0.01,90,0,0,0,0,0,0,0,0,-0.017,0,0,0,0,90.38,1,-0.017,0.388,-0.0043,0.25,1,-0.0043,0,0,0,0,0,0,1,1,0,0,VALID,0,0,0,0,0,1,0,0,0,0,0,0,0,0,0,0,0,0,0,0,237.75,513.81,2,0,0.08,0.08,177,14.29,0.08,0.06,11.7,LANDED,CF1-F,0:/Integrated Flight Computer/aircraft/cf1_f_cfg.ks (inferred preloaded)
12.06,TAKEOFF,TO_GROUND_ROLL,19.67,80,60.33,3.79,-0.11,0.92,1.22,90.77,0.101,1,0,0,0,0,0,0,0,0,0,90.38,0,1,0,-0.32,0,0,0.01,90,0,0,0,0,0,0,0,0,-0.018,0,0,0,0,90.38,1,-0.018,0.387,-0.0043,0.25,1,-0.0043,0,0,0,0,0,0,1,1,0,0,VALID,0,0,0,0,0,1,0,0,0,0,0,0,0,0,0,0,0,0,0,0,242.16,513.41,2,0,0.08,0.08,181,14.29,0.08,0.06,11.98,LANDED,CF1-F,0:/Integrated Flight Computer/aircraft/cf1_f_cfg.ks (inferred preloaded)
12.34,TAKEOFF,TO_GROUND_ROLL,20.65,80,59.35,3.78,-0.11,0.91,1.21,90.77,0.102,1,0,0,0,0,0,0,0,0,0,90.38,0,1,0,-0.32,0,0,0.01,90,0,0,0,0,0,0,0,0,-0.02,0,0,0,0,90.38,1,-0.02,0.384,-0.0044,0.257,0,-0.0044,0,0,0,0,0,0,1,1,0,0,VALID,0,0,0,0,0,1,0,0,0,0,0,0,0,0,0,0,0,0,0,0,246.48,512.99,2,0,0.08,0.08,185,14.29,0.08,0.06,12.26,LANDED,CF1-F,0:/Integrated Flight Computer/aircraft/cf1_f_cfg.ks (inferred preloaded)
12.62,TAKEOFF,TO_GROUND_ROLL,21.64,80,58.36,3.78,-0.12,0.9,1.2,90.76,0.103,1,0,0,0,0,0,0,0,0,0,90.38,0,1,0,-0.32,0,0,0.01,90,0,0,0,0,0,0,0,0,-0.022,0,0,0,0,90.38,1,-0.022,0.38,-0.0045,0.268,0,-0.0045,0,0,0,0,0,0,1,1,0,0,VALID,0,0,0,0,0,1,0,0,0,0,0,0,0,0,0,0,0,0,0,0,250.72,512.56,2,0,0.08,0.08,189,14.29,0.08,0.06,12.54,LANDED,CF1-F,0:/Integrated Flight Computer/aircraft/cf1_f_cfg.ks (inferred preloaded)
12.9,TAKEOFF,TO_GROUND_ROLL,22.65,80,57.35,3.78,-0.12,0.91,1.21,90.76,0.104,1,0,0,0,0,0,0,0,0,0,90.38,0,1,0,-0.32,0,0,0.01,90,0,0,0,0,0,0,0,0,-0.023,0,0,0,0,90.38,1,-0.023,0.376,-0.0046,0.278,0,-0.0046,0,0,0,0,0,0,1,1,0,0,VALID,0,0,0,0,0,1,0,0,0,0,0,0,0,0,0,0,0,0,0,0,254.86,512.11,2,0,0.08,0.08,193,14.29,0.08,0.06,12.82,LANDED,CF1-F,0:/Integrated Flight Computer/aircraft/cf1_f_cfg.ks (inferred preloaded)
13.18,TAKEOFF,TO_GROUND_ROLL,23.68,80,56.32,3.79,-0.13,0.94,1.24,90.75,0.103,1,0,0,0,0,0,0,0,0,0,90.38,0,1,0,-0.31,0,0,0.01,90,0,0,0,0,0,0,0,0,-0.025,0,0,0,0,90.38,1,-0.025,0.37,-0.0047,0.289,0,-0.0047,0,0,0,0,0,0,1,1,0,0,VALID,0,0,0,0,0,1,0,0,0,0,0,0,0,0,0,0,0,0,0,0,258.91,511.64,2,0,0.08,0.08,197,14.29,0.08,0.06,13.1,LANDED,CF1-F,0:/Integrated Flight Computer/aircraft/cf1_f_cfg.ks (inferred preloaded)
13.46,TAKEOFF,TO_GROUND_ROLL,24.72,80,55.28,3.8,-0.14,1,1.29,90.74,0.104,1,0,0,0,0,0,0,0,0,0,90.38,0,1,0,-0.31,0,0,0.01,90,0,0,0,0,0,0,0,0,-0.027,0,0,0,0,90.38,1,-0.027,0.364,-0.0047,0.301,0,-0.0047,0,0,0,0,0,0,1,1,0,0,VALID,0,0,0,0,0,1,0,0,0,0,0,0,0,0,0,0,0,0,0,0,262.88,511.16,2,0,0.08,0.08,201,14.29,0.08,0.06,13.38,LANDED,CF1-F,0:/Integrated Flight Computer/aircraft/cf1_f_cfg.ks (inferred preloaded)
13.74,TAKEOFF,TO_GROUND_ROLL,25.78,80,54.22,3.81,-0.14,1.05,1.34,90.73,0.104,1,0,0,0,0,0,0,0,0,0,90.38,0,1,0,-0.31,0,0,0.01,90,0,0,0,0,0,0,0,0,-0.029,0,0,0,0,90.38,1,-0.029,0.356,-0.0048,0.312,0,-0.0048,0,0,0,0,0,0,1,1,0,0,VALID,0,0,0,0,0,1,0,0,0,0,0,0,0,0,0,0,0,0,0,0,266.76,510.66,2,0,0.08,0.08,205,14.29,0.08,0.06,13.66,LANDED,CF1-F,0:/Integrated Flight Computer/aircraft/cf1_f_cfg.ks (inferred preloaded)
14.02,TAKEOFF,TO_GROUND_ROLL,26.85,80,53.15,3.82,-0.15,1.09,1.39,90.72,0.105,1,0,0,0,0,0,0,0,0,0,90.38,0,1,0,-0.31,0,0,0.01,90,0,0,0,0,0,0,0,0,-0.031,0,0,0,0,90.38,1,-0.031,0.348,-0.0048,0.323,0,-0.0048,0,0,0,0,0,0,1,1,0,0,VALID,0,0,0,0,0,1,0,0,0,0,0,0,0,0,0,0,0,0,0,0,270.55,510.15,2,0,0.08,0.08,209,14.29,0.08,0.06,13.94,LANDED,CF1-F,0:/Integrated Flight Computer/aircraft/cf1_f_cfg.ks (inferred preloaded)
14.3,TAKEOFF,TO_GROUND_ROLL,27.93,80,52.07,3.82,-0.15,1.12,1.41,90.71,0.106,1,0,0,0,0,0,0,0,0,0,90.37,0,1,0,-0.31,0,0,0.01,90,0,0,0,0,0,0,0,0,-0.033,0,0,0,0,90.37,1,-0.033,0.338,-0.0047,0.335,0,-0.0047,0,0,0,0,0,0,1,1,0,0,VALID,0,0,0,0,0,1,0,0,0,0,0,0,0,0,0,0,0,0,0,0,274.27,509.62,2,0,0.08,0.08,213,14.29,0.08,0.06,14.22,LANDED,CF1-F,0:/Integrated Flight Computer/aircraft/cf1_f_cfg.ks (inferred preloaded)
14.58,TAKEOFF,TO_GROUND_ROLL,29.03,80,50.97,3.82,-0.16,1.13,1.42,90.7,0.107,1,0,0,0,0,0,0,0,0,0,90.37,0,1,0,-0.31,0,0,0.01,90,0,0,0,0,0,0,0,0,-0.035,0,0,0,0,90.37,1,-0.035,0.327,-0.0047,0.347,0,-0.0047,0,0,0,0,0,0,1,1,0,0,VALID,0,0,0,0,0,1,0,0,0,0,0,0,0,0,0,0,0,0,0,0,277.89,509.08,2,0,0.08,0.08,217,14.29,0.08,0.06,14.5,LANDED,CF1-F,0:/Integrated Flight Computer/aircraft/cf1_f_cfg.ks (inferred preloaded)
14.86,TAKEOFF,TO_GROUND_ROLL,30.15,80,49.85,3.82,-0.16,1.13,1.42,90.69,0.107,1,0,0,0,0,0,0,0,0,0,90.37,0,1,0,-0.31,0,0,0.01,90,0,0,0,0,0,0,0,0,-0.037,0,0,0,0,90.37,1,-0.037,0.316,-0.0046,0.359,0,-0.0046,0,0,0,0,0,0,1,1,0,0,VALID,0,0,0,0,0,1,0,0,0,0,0,0,0,0,0,0,0,0,0,0,281.44,508.52,2,0,0.08,0.08,221,14.29,0.08,0.06,14.78,LANDED,CF1-F,0:/Integrated Flight Computer/aircraft/cf1_f_cfg.ks (inferred preloaded)
15.14,TAKEOFF,TO_GROUND_ROLL,31.27,80,48.73,3.82,-0.17,1.13,1.42,90.67,0.109,1,0,0,0,0,0,0,0,0,0,90.37,0,1,0,-0.31,0,0,0.01,90,0,0,0,0,0,0,0,0,-0.039,0,0,0,0,90.37,1,-0.039,0.304,-0.0045,0.371,0,-0.0045,0,0,0,0,0,0,1,1,0,0,VALID,0,0,0,0,0,1,0,0,0,0,0,0,0,0,0,0,0,0,0,0,284.9,507.95,2,0,0.08,0.08,225,14.29,0.08,0.06,15.06,LANDED,CF1-F,0:/Integrated Flight Computer/aircraft/cf1_f_cfg.ks (inferred preloaded)
15.42,TAKEOFF,TO_GROUND_ROLL,32.41,80,47.59,3.82,-0.17,1.14,1.43,90.66,0.11,1,0,0,0,0,0,0,0,0,0,90.37,0,1,0,-0.31,0,0,0.02,90,0,0,0,0,0,0,0,0,-0.042,0,0,0,0,90.37,1,-0.042,0.291,-0.0044,0.383,0,-0.0044,0,0,0,0,0,0,1,1,0,0,VALID,0,0,0,0,0,1,0,0,0,0,0,0,0,0,0,0,0,0,0,0,288.29,507.36,2,0,0.08,0.08,229,14.29,0.08,0.06,15.34,LANDED,CF1-F,0:/Integrated Flight Computer/aircraft/cf1_f_cfg.ks (inferred preloaded)
15.7,TAKEOFF,TO_GROUND_ROLL,33.57,80,46.43,3.83,-0.18,1.16,1.45,90.64,0.11,1,0,0,0,0,0,0,0,0,0,90.37,0,1,0,-0.31,0,0,0.02,90,0,0,0,0,0,0,0,0,-0.044,0,0,0,0,90.37,1,-0.044,0.278,-0.0043,0.395,0,-0.0043,0,0,0,0,0,0,1,1,0,0,VALID,0,0,0,0,0,1,0,0,0,0,0,0,0,0,0,0,0,0,0,0,291.59,506.75,2,0,0.08,0.08,233,14.29,0.08,0.06,15.62,LANDED,CF1-F,0:/Integrated Flight Computer/aircraft/cf1_f_cfg.ks (inferred preloaded)
15.98,TAKEOFF,TO_GROUND_ROLL,34.73,80,45.27,3.83,-0.18,1.2,1.48,90.63,0.11,1,0,0,0,0,0,0,0,0,0,90.37,0,1,0,-0.3,0,0,0.02,90,0,0,0,0,0,0,0,0,-0.046,0,0,0,0,90.37,1,-0.046,0.264,-0.0041,0.408,0,-0.0041,0,0,0,0,0,0,1,1,0,0,VALID,0,0,0,0,0,1,0,0,0,0,0,0,0,0,0,0,0,0,0,0,294.82,506.13,2,0,0.08,0.08,237,14.29,0.08,0.06,15.9,LANDED,CF1-F,0:/Integrated Flight Computer/aircraft/cf1_f_cfg.ks (inferred preloaded)
16.26,TAKEOFF,TO_GROUND_ROLL,35.91,80,44.09,3.84,-0.19,1.24,1.52,90.61,0.11,1,0,0,0,0,0,0,0,0,0,90.36,0,1,0,-0.3,0,0,0.02,90,0,0,0,0,0,0,0,0,-0.048,0,0,0,0,90.36,1,-0.048,0.25,-0.0039,0.42,0,-0.0039,0,0,0,0,0,0,1,1,0,0,VALID,0,0,0,0,0,1,0,0,0,0,0,0,0,0,0,0,0,0,0,0,297.97,505.49,2,0,0.08,0.08,241,14.29,0.08,0.06,16.18,LANDED,CF1-F,0:/Integrated Flight Computer/aircraft/cf1_f_cfg.ks (inferred preloaded)
16.54,TAKEOFF,TO_GROUND_ROLL,37.09,80,42.91,3.85,-0.19,1.27,1.56,90.6,0.111,1,0,0,0,0,0,0,0,0,0,90.36,0,1,0,-0.3,0,0,0.02,90,0,0,0,0,0,0,0,0,-0.051,0,0,0,0,90.36,1,-0.051,0.236,-0.0038,0.433,0,-0.0038,0,0,0,0,0,0,1,1,0,0,VALID,0,0,0,0,0,1,0,0,0,0,0,0,0,0,0,0,0,0,0,0,301.04,504.84,2,0,0.08,0.08,245,14.29,0.08,0.06,16.46,LANDED,CF1-F,0:/Integrated Flight Computer/aircraft/cf1_f_cfg.ks (inferred preloaded)
16.82,TAKEOFF,TO_GROUND_ROLL,38.29,80,41.71,3.85,-0.2,1.3,1.58,90.58,0.112,1,0,0,0,0,0,0,0,0,0,90.36,0,1,0,-0.3,0,0,0.02,90,0,0,0,0,0,0,0,0,-0.053,0,0,0,0,90.36,1,-0.053,0.221,-0.0036,0.446,0,-0.0036,0,0,0,0,0,0,1,1,0,0,VALID,0,0,0,0,0,1,0,0,0,0,0,0,0,0,0,0,0,0,0,0,304.03,504.17,2,0,0.08,0.08,249,14.29,0.08,0.06,16.74,LANDED,CF1-F,0:/Integrated Flight Computer/aircraft/cf1_f_cfg.ks (inferred preloaded)
17.1,TAKEOFF,TO_GROUND_ROLL,39.5,80,40.5,3.86,-0.21,1.32,1.6,90.56,0.112,1,0,0,0,0,0,0,0,0,0,90.36,0,1,0,-0.3,0,0,0.02,90,0,0,0,0,0,0,0,0,-0.055,0,0,0,0,90.36,1,-0.055,0.207,-0.0034,0.459,0,-0.0034,0,0,0,0,0,0,1,1,0,0,VALID,0,0,0,0,0,1,0,0,0,0,0,0,0,0,0,0,0,0,0,0,306.96,503.49,2,0,0.08,0.08,253,14.29,0.08,0.06,17.02,LANDED,CF1-F,0:/Integrated Flight Computer/aircraft/cf1_f_cfg.ks (inferred preloaded)
17.38,TAKEOFF,TO_GROUND_ROLL,40.72,80,39.28,3.86,-0.21,1.33,1.61,90.55,0.113,1,0,0,0,0,0,0,0,0,0,90.35,0,1,0,-0.3,0,0,0.02,90,0,0,0,0,0,0,0,0,-0.058,0,0,0,0,90.35,1,-0.058,0.192,-0.0031,0.472,0,-0.0031,0,0,0,0,0,0,1,1,0,0,VALID,0,0,0,0,0,1,0,0,0,0,0,0,0,0,0,0,0,0,0,0,309.8,502.79,2,0,0.08,0.08,257,14.29,0.08,0.06,17.3,LANDED,CF1-F,0:/Integrated Flight Computer/aircraft/cf1_f_cfg.ks (inferred preloaded)
17.66,TAKEOFF,TO_GROUND_ROLL,41.96,80,38.04,3.86,-0.22,1.34,1.62,90.53,0.113,1,0,0,0,0,0,0,0,0,0,90.35,0,1,0,-0.3,0,0,0.02,90,0,0,0,0,0,0,0,0,-0.06,0,0,0,0,90.35,1,-0.06,0.178,-0.0029,0.485,0,-0.0029,0,0,0,0,0,0,1,1,0,0,VALID,0,0,0,0,0,1,0,0,0,0,0,0,0,0,0,0,0,0,0,0,312.58,502.08,2,0,0.08,0.08,261,14.29,0.08,0.06,17.58,LANDED,CF1-F,0:/Integrated Flight Computer/aircraft/cf1_f_cfg.ks (inferred preloaded)
17.94,TAKEOFF,TO_GROUND_ROLL,43.2,80,36.8,3.86,-0.22,1.35,1.63,90.51,0.112,1,0,0,0,0,0,0,0,0,0,90.35,0,1,0,-0.29,0,0,0.03,90,0,0,0,0,0,0,0,0,-0.062,0,0,0,0,90.35,1,-0.062,0.164,-0.0027,0.499,0,-0.0027,0,0,0,0,0,0,1,1,0,0,VALID,0,0,0,0,0,1,0,0,0,0,0,0,0,0,0,0,0,0,0,0,315.28,501.36,2,0,0.08,0.08,265,14.29,0.08,0.06,17.86,LANDED,CF1-F,0:/Integrated Flight Computer/aircraft/cf1_f_cfg.ks (inferred preloaded)
18.22,TAKEOFF,TO_GROUND_ROLL,44.45,80,35.55,3.86,-0.23,1.37,1.65,90.5,0.112,1,0,0,0,0,0,0,0,0,0,90.35,0,1,0,-0.29,0,0,0.03,90,0,0,0,0,0,0,0,0,-0.065,0,0,0,0,90.35,1,-0.065,0.15,-0.0025,0.512,0,-0.0025,0,0,0,0,0,0,1,1,0,0,VALID,0,0,0,0,0,1,0,0,0,0,0,0,0,0,0,0,0,0,0,0,317.92,500.62,2,0,0.08,0.08,269,14.29,0.08,0.06,18.14,LANDED,CF1-F,0:/Integrated Flight Computer/aircraft/cf1_f_cfg.ks (inferred preloaded)
18.5,TAKEOFF,TO_GROUND_ROLL,45.71,80,34.29,3.87,-0.23,1.39,1.67,90.48,0.113,1,0,0,0,0,0,0,0,0,0,90.34,0,1,0,-0.29,0,0,0.03,90,0,0,0,0,0,0,0,0,-0.067,0,0,0,0,90.34,1,-0.067,0.137,-0.0023,0.525,0,-0.0023,0,0,0,0,0,0,1,1,0,0,VALID,0,0,0,0,0,1,0,0,0,0,0,0,0,0,0,0,0,0,0,0,320.48,499.86,2,0,0.08,0.08,273,14.29,0.08,0.06,18.42,LANDED,CF1-F,0:/Integrated Flight Computer/aircraft/cf1_f_cfg.ks (inferred preloaded)
18.78,TAKEOFF,TO_GROUND_ROLL,46.97,80,33.03,3.87,-0.24,1.42,1.69,90.47,0.114,1,0,0,0,0,0,0,0,0,0,90.34,0,1,0,-0.29,0,0,0.03,90,0,0,0,0,0,0,0,0,-0.069,0,0,0,0,90.34,1,-0.069,0.124,-0.0021,0.539,0,-0.0021,0,0,0,0,0,0,1,1,0,0,VALID,0,0,0,0,0,1,0,0,0,0,0,0,0,0,0,0,0,0,0,0,322.98,499.09,2,0,0.08,0.08,277,14.29,0.08,0.06,18.7,LANDED,CF1-F,0:/Integrated Flight Computer/aircraft/cf1_f_cfg.ks (inferred preloaded)
19.06,TAKEOFF,TO_GROUND_ROLL,48.25,80,31.75,3.88,-0.24,1.45,1.72,90.45,0.113,1,0,0,0,0,0,0,0,0,0,90.34,0,1,0,-0.29,0,0,0.03,90,0,0,0,0,0,0,0,0,-0.071,0,0,0,0,90.34,1,-0.071,0.112,-0.0019,0.553,0,-0.0019,0,0,0,0,0,0,1,1,0,0,VALID,0,0,0,0,0,1,0,0,0,0,0,0,0,0,0,0,0,0,0,0,325.4,498.31,2,0,0.08,0.08,281,14.29,0.08,0.06,18.98,LANDED,CF1-F,0:/Integrated Flight Computer/aircraft/cf1_f_cfg.ks (inferred preloaded)
19.34,TAKEOFF,TO_GROUND_ROLL,49.54,80,30.46,3.88,-0.25,1.47,1.74,90.44,0.112,1,0,0,0,0,0,0,0,0,0,90.34,0,1,0,-0.29,0,0,0.03,90,0,0,0,0,0,0,0,0,-0.074,0,0,0,0,90.34,1,-0.074,0.102,-0.0017,0.566,0,-0.0017,0,0,0,0,0,0,1,1,0,0,VALID,0,0,0,0,0,1,0,0,0,0,0,0,0,0,0,0,0,0,0,0,327.76,497.52,2,0,0.08,0.08,285,14.29,0.08,0.06,19.26,LANDED,CF1-F,0:/Integrated Flight Computer/aircraft/cf1_f_cfg.ks (inferred preloaded)
19.62,TAKEOFF,TO_GROUND_ROLL,50.83,80,29.17,3.89,-0.25,1.49,1.76,90.42,0.111,1,0,0,0,0,0,0,0,0,0,90.33,0,1,0,-0.29,0,0,0.03,90,0,0,0,0,0,0,0,0,-0.076,0,0,0,0,90.33,1,-0.076,0.092,-0.0016,0.58,0,-0.0016,0,0,0,0,0,0,1,1,0,0,VALID,0,0,0,0,0,1,0,0,0,0,0,0,0,0,0,0,0,0,0,0,330.06,496.71,2,0,0.08,0.08,289,14.29,0.08,0.06,19.54,LANDED,CF1-F,0:/Integrated Flight Computer/aircraft/cf1_f_cfg.ks (inferred preloaded)
19.9,TAKEOFF,TO_GROUND_ROLL,52.13,80,27.87,3.89,-0.26,1.5,1.77,90.41,0.111,1,0,0,0,0,0,0,0,0,0,90.33,0,1,0,-0.28,0,0,0.03,90,0,0,0,0,0,0,0,0,-0.078,0,0,0,0,90.33,1,-0.078,0.083,-0.0014,0.594,0,-0.0014,0,0,0,0,0,0,1,1,0,0,VALID,0,0,0,0,0,1,0,0,0,0,0,0,0,0,0,0,0,0,0,0,332.29,495.89,2,0,0.08,0.08,293,14.29,0.08,0.06,19.82,LANDED,CF1-F,0:/Integrated Flight Computer/aircraft/cf1_f_cfg.ks (inferred preloaded)
20.18,TAKEOFF,TO_GROUND_ROLL,53.44,80,26.56,3.89,-0.26,1.51,1.78,90.4,0.11,1,0,0,0,0,0,0,0,0,0,90.33,0,1,0,-0.28,0,0,0.04,90,0,0,0,0,0,0,0,0,-0.08,0,0,0,0,90.33,1,-0.08,0.076,-0.0013,0.608,0,-0.0013,0,0,0,0,0,0,1,1,0,0,VALID,0,0,0,0,0,1,0,0,0,0,0,0,0,0,0,0,0,0,0,0,334.46,495.06,2,0,0.08,0.08,297,14.29,0.08,0.06,20.1,LANDED,CF1-F,0:/Integrated Flight Computer/aircraft/cf1_f_cfg.ks (inferred preloaded)
20.46,TAKEOFF,TO_GROUND_ROLL,54.75,80,25.25,3.89,-0.27,1.53,1.8,90.39,0.109,1,0,0,0,0,0,0,0,0,0,90.32,0,1,0,-0.28,0,0,0.04,90,0,0,0,0,0,0,0,0,-0.083,0,0,0,0,90.32,1,-0.083,0.069,-0.0012,0.622,0,-0.0012,0,0,0,0,0,0,1,1,0,0,VALID,0,0,0,0,0,1,0,0,0,0,0,0,0,0,0,0,0,0,0,0,336.56,494.22,2,0,0.08,0.08,301,14.29,0.08,0.06,20.38,LANDED,CF1-F,0:/Integrated Flight Computer/aircraft/cf1_f_cfg.ks (inferred preloaded)
20.74,TAKEOFF,TO_GROUND_ROLL,56.07,80,23.93,3.9,-0.27,1.55,1.81,90.38,0.108,1,0,0,0,0,0,0,0,0,0,90.32,0,1,0,-0.28,0,0,0.04,90,0,0,0,0,0,0,0,0,-0.085,0,0,0,0,90.32,1,-0.085,0.064,-0.0011,0.636,0,-0.0011,0,0,0,0,0,0,1,1,0,0,VALID,0,0,0,0,0,1,0,0,0,0,0,0,0,0,0,0,0,0,0,0,338.61,493.36,2,0,0.08,0.08,305,14.29,0.08,0.06,20.66,LANDED,CF1-F,0:/Integrated Flight Computer/aircraft/cf1_f_cfg.ks (inferred preloaded)
21.02,TAKEOFF,TO_GROUND_ROLL,57.4,80,22.6,3.9,-0.28,1.57,1.83,90.38,0.106,1,0,0,0,0,0,0,0,0,0,90.32,0,1,0,-0.28,0,0,0.04,90,0,0,0,0,0,0,0,0,-0.087,0,0,0,0,90.32,1,-0.087,0.06,-0.0011,0.651,0,-0.0011,0,0,0,0,0,0,1,1,0,0,VALID,0,0,0,0,0,1,0,0,0,0,0,0,0,0,0,0,0,0,0,0,340.59,492.5,2,0,0.08,0.08,309,14.29,0.08,0.06,20.94,LANDED,CF1-F,0:/Integrated Flight Computer/aircraft/cf1_f_cfg.ks (inferred preloaded)
21.3,TAKEOFF,TO_GROUND_ROLL,58.73,80,21.27,3.9,-0.28,1.59,1.85,90.37,0.105,1,0,0,0,0,0,0,0,0,0,90.31,0,1,0,-0.28,0,0,0.04,90,0,0,0,0,0,0,0,0,-0.089,0,0,0,0,90.31,1,-0.089,0.058,-0.0011,0.665,0,-0.0011,0,0,0,0,0,0,1,1,0,0,VALID,0,0,0,0,0,1,0,0,0,0,0,0,0,0,0,0,0,0,0,0,342.51,491.62,2,0,0.08,0.08,313,14.29,0.08,0.06,21.22,LANDED,CF1-F,0:/Integrated Flight Computer/aircraft/cf1_f_cfg.ks (inferred preloaded)
21.58,TAKEOFF,TO_GROUND_ROLL,60.07,80,19.93,3.91,-0.29,1.61,1.87,90.37,0.104,1,0,0,0,0,0,0,0,0,0,90.31,0,1,0,-0.27,0,0,0.04,90,0,0,0,0,0,0,0,0,-0.092,0,0,0,0,90.31,1,-0.092,0.057,-0.0011,0.679,0,-0.0011,0,0,0,0,0,0,1,1,0,0,VALID,0,0,0,0,0,1,0,0,0,0,0,0,0,0,0,0,0,0,0,0,344.38,490.74,2,0,0.08,0.08,317,14.29,0.08,0.06,21.5,LANDED,CF1-F,0:/Integrated Flight Computer/aircraft/cf1_f_cfg.ks (inferred preloaded)
21.86,TAKEOFF,TO_GROUND_ROLL,61.42,80,18.58,3.91,-0.29,1.63,1.88,90.37,0.102,1,0,0,0,0,0,0,0,0,0,90.31,0,1,0,-0.27,0,0,0.05,90,0,0,0,0,0,0,0,0,-0.094,0,0,0,0,90.31,1,-0.094,0.058,-0.0011,0.694,0,-0.0011,0,0,0,0,0,0,1,1,0,0,VALID,0,0,0,0,0,1,0,0,0,0,0,0,0,0,0,0,0,0,0,0,346.18,489.84,2,0,0.08,0.08,321,14.29,0.08,0.06,21.78,LANDED,CF1-F,0:/Integrated Flight Computer/aircraft/cf1_f_cfg.ks (inferred preloaded)
22.14,TAKEOFF,TO_GROUND_ROLL,62.76,80,17.24,3.93,-0.38,1.65,1.9,90.36,0.102,1,0,0,0,0,0,0,0,0,0,90.3,0,1,0,-0.34,0,0,0.05,90,0,0,0,0,0,0,0,0,-0.096,0,0,0,0,90.3,1,-0.096,0.062,-0.0012,0.708,0,-0.0012,0,0,0,0,0,0,1,1,0,0,VALID,0,0,0,0,0,1,0,0,0,0,0,0,0,0,0,0,0,0,0,0,347.94,488.93,2,0,0.08,0.08,325,14.29,0.08,0.06,22.06,LANDED,CF1-F,0:/Integrated Flight Computer/aircraft/cf1_f_cfg.ks (inferred preloaded)
22.42,TAKEOFF,TO_GROUND_ROLL,64.12,80,15.88,3.92,-0.26,1.72,1.94,90.37,0.102,1,0,0,0,0,0,0,0,0,0,90.3,0,1,0,-0.23,0,0,0.05,90,0,0,0,0,0,0,0,0,-0.099,0,0,0,0,90.3,1,-0.099,0.064,-0.0013,0.723,0,-0.0013,0,0,0,0,0,0,1,1,0,0,VALID,0,0,0,0,0,1,0,0,0,0,0,0,0,0,0,0,0,0,0,0,349.63,488.02,2,0,0.08,0.08,329,14.29,0.08,0.06,22.34,LANDED,CF1-F,0:/Integrated Flight Computer/aircraft/cf1_f_cfg.ks (inferred preloaded)
22.7,TAKEOFF,TO_GROUND_ROLL,65.48,80,14.52,3.95,-0.3,1.79,2.04,90.37,0.099,1,0,0,0,0,0,0,0,0,0,90.3,0,1,0,-0.27,0,0,0.05,90,0,0,0,0,0,0,0,0,-0.101,0,0,0,0,90.3,1,-0.101,0.068,-0.0014,0.737,0,-0.0014,0,0,0,0,0,0,1,1,0,0,VALID,0,0,0,0,0,1,0,0,0,0,0,0,0,0,0,0,0,0,0,0,351.28,487.1,2,0,0.08,0.08,333,14.29,0.08,0.06,22.62,LANDED,CF1-F,0:/Integrated Flight Computer/aircraft/cf1_f_cfg.ks (inferred preloaded)
22.98,TAKEOFF,TO_GROUND_ROLL,66.84,80,13.16,3.97,-0.29,1.94,2.17,90.37,0.097,1,0,0,0,0,0,0,0,0,0,90.29,0,1,0,-0.25,0,0,0.05,90,0,0,0,0,0,0,0,0,-0.104,0,0,0,0,90.29,1,-0.104,0.073,-0.0016,0.752,0,-0.0016,0,0,0,0,0,0,1,1,0,0,VALID,0,0,0,0,0,1,0,0,0,0,0,0,0,0,0,0,0,0,0,0,352.87,486.17,2,0,0.08,0.08,337,14.29,0.08,0.06,22.9,LANDED,CF1-F,0:/Integrated Flight Computer/aircraft/cf1_f_cfg.ks (inferred preloaded)
23.26,TAKEOFF,TO_GROUND_ROLL,68.2,80,11.8,4.03,-0.05,2.12,2.16,90.37,0.094,1,0,0,0,0,0,0,0,0,0,90.29,0,1,0,-0.04,0,0,0.05,90,0,0,0,0,0,0,0,0,-0.106,0,0,0,0,90.29,1,-0.106,0.077,-0.0017,0.766,0,-0.0017,0,0,0,0,0,0,1,1,0,0,VALID,0,0,0,0,0,1,0,0,0,0,0,0,0,0,0,0,0,0,0,0,354.41,485.23,2,0,0.08,0.08,341,14.29,0.08,0.06,23.18,LANDED,CF1-F,0:/Integrated Flight Computer/aircraft/cf1_f_cfg.ks (inferred preloaded)
23.54,TAKEOFF,TO_GROUND_ROLL,69.56,80,10.44,4.09,-0.45,2.44,2.77,90.37,0.096,1,0,0,0,0,0,0,0,0,0,90.29,0,1,0,-0.37,0,0,0.06,90,0,0,0,0,0,0,0,0,-0.109,0,0,0,0,90.29,1,-0.109,0.084,-0.0019,0.781,0,-0.0019,0,0,0,0,0,0,1,1,0,0,VALID,0,0,0,0,0,1,0,0,0,0,0,0,0,0,0,0,0,0,0,0,355.9,484.29,2,0,0.08,0.08,345,14.29,0.08,0.06,23.46,LANDED,CF1-F,0:/Integrated Flight Computer/aircraft/cf1_f_cfg.ks (inferred preloaded)
23.84,TAKEOFF,TO_ROTATE,71.02,80,8.98,4.18,-0.24,2.83,3,90.38,0.095,1,0,0,0,0,0,0,0,0,0,90.29,3.054,1,0,-0.17,0,0,0.06,90,0,0,0,0,0,0,0,0,-0.112,0,0,0,0,90.29,1,-0.112,0.089,-0.0021,0.796,0,-0.0021,0,0.12,3.054,0.222,0.08,0,1,1,0,0,VALID,0,0,0,0,0,1,0,0,0,0,0,0,0,0,0,0,0,0,0,0,357.44,483.28,2,0,0.08,0.08,349,13.33,0.08,0.06,23.74,LANDED,CF1-F,0:/Integrated Flight Computer/aircraft/cf1_f_cfg.ks (inferred preloaded)
24.12,TAKEOFF,TO_ROTATE,72.37,80,7.63,4.28,-0.27,3.4,3.62,90.38,0.097,1,0,0,0,0,0,0,0,0,0,90.28,3.894,1,0,-0.23,0,0,0.06,90,0,0,0,0,0,0,0,0,-0.114,0,0,0,0,90.28,1,-0.114,0.096,-0.0023,0.81,0,-0.0023,0,0.12,3.894,0.496,0.08,0,1,1,0,0,VALID,0,0,0,0,0,1,0,0,0,0,0,0,0,0,0,0,0,0,0,0,358.84,482.34,2,0,0.08,0.08,353,14.29,0.08,0.06,24.02,LANDED,CF1-F,0:/Integrated Flight Computer/aircraft/cf1_f_cfg.ks (inferred preloaded)
24.42,TAKEOFF,TO_ROTATE,73.8,80,6.2,4.45,-0.3,4.2,4.42,90.38,0.094,1,0,0,0,0,0,0,0,0,0,90.28,4.794,1,0,-0.23,0,0,0.06,90,0,0,0,0,0,0,0,0,-0.117,0,0,0,0,90.28,1,-0.117,0.102,-0.0025,0.825,0,-0.0025,0,0.1279,4.794,0.599,0.08,0,1,1,0,0,VALID,0,0,0,0,0,1,0,0,0,0,0,0,0,0,0,0,0,0,0,0,360.29,481.33,2,0,0.08,0.08,357,13.33,0.08,0.06,24.32,LANDED,CF1-F,0:/Integrated Flight Computer/aircraft/cf1_f_cfg.ks (inferred preloaded)
24.7,TAKEOFF,TO_ROTATE,75.11,80,4.89,4.63,-0.23,5.16,5.33,90.39,0.092,1,0,0,0,0,0,0,0,0,0,90.28,5.634,1,0,-0.18,0,0,0.07,90,0,0,0,0,0,0,0,0,-0.12,0,0,0,0,90.28,1,-0.12,0.109,-0.0028,0.839,0,-0.0028,0,0.12,5.634,0.475,0.08,0,1,1,0,0,VALID,0,0,0,0,0,1,0,0,0,0,0,0,0,0,0,0,0,0,0,0,361.62,480.41,2,0,0.08,0.08,361,14.29,0.08,0.06,24.6,LANDED,CF1-F,0:/Integrated Flight Computer/aircraft/cf1_f_cfg.ks (inferred preloaded)
24.98,TAKEOFF,TO_ROTATE,76.38,80,3.62,4.84,-0.28,6.27,6.47,90.39,0.09,1,0,0,0,0,0,0,0,0,0,90.27,6.474,1,0,-0.21,0,0,0.07,90,0,0,0,0,0,0,0,0,-0.123,0,0,0,0,90.27,1,-0.123,0.115,-0.003,0.853,0,-0.003,0,0.12,6.474,0.204,0.08,0,1,1,0,0,VALID,0,0,0,0,0,1,0,0,0,0,0,0,0,0,0,0,0,0,0,0,362.92,479.51,2,0,0.08,0.08,365,14.29,0.08,0.06,24.88,LANDED,CF1-F,0:/Integrated Flight Computer/aircraft/cf1_f_cfg.ks (inferred preloaded)
25.26,TAKEOFF,TO_ROTATE,77.59,80,2.41,5.06,-0.26,7.46,7.64,90.39,0.09,1,0,0,0,0,0,0,0,0,0,90.27,7.314,1,0,-0.19,0,0,0.07,90,0,0,0,0,0,0,0,0,-0.126,0,0,0,0,90.27,1,-0.126,0.12,-0.0032,0.866,0,-0.0032,0,0.0685,7.314,-0.144,0.08,0,1,1,0,0,VALID,0,0,0,0,0,1,0,0,0,0,0,0,0,0,0,0,0,0,0,0,364.21,478.65,2,0,0.08,0.08,369,14.29,0.08,0.06,25.16,LANDED,CF1-F,0:/Integrated Flight Computer/aircraft/cf1_f_cfg.ks (inferred preloaded)
25.54,TAKEOFF,TO_ROTATE,78.75,80,1.25,5.28,-0.17,8.6,8.73,90.39,0.075,1,0,0,0,0,0,0,0,0,0,90.27,8.154,1,0,-0.14,0,0,0.07,90,0,0,0,0,0,0,0,0,-0.129,0,0,0,0,90.27,1,-0.129,0.12,-0.0033,0.879,0,-0.0033,0,0.0445,8.154,-0.443,0.08,0,1,1,0,0,VALID,0,0,0,0,0,1,0,0,0,0,0,0,0,0,0,0,0,0,0,0,365.49,477.84,2,0,0.08,0.08,373,14.29,0.08,0.06,25.44,LANDED,CF1-F,0:/Integrated Flight Computer/aircraft/cf1_f_cfg.ks (inferred preloaded)
25.8,TAKEOFF,TO_ROTATE,79.75,80,0.25,5.51,0.25,9.43,9.26,90.39,0.071,1,0,0,0,0,0,0,0,0,0,90.4,8.994,0,1,0.18,0,0,17.93,90.4,-0.8535,-0.0064,-0.5211,18.25,90.4,0,0,0,0,0,0,0,0,90.4,1,0,-0.005,0,0,3,0,0,0,8.994,-0.44,0,0,1,1,0,0,VALID,0,0,0,0,0,1,0,0,0,0,0,0,0,0,0,0,0,0,0,0,366.67,477.12,2,0,0.08,0.08,377,15.38,0.08,0.06,25.7,FLYING,CF1-F,0:/Integrated Flight Computer/aircraft/cf1_f_cfg.ks (inferred preloaded)
26.08,TAKEOFF,TO_ROTATE,80.78,80,-0.78,5.79,0.8,9.63,9.1,90.4,0.064,1,0,0,0,0,0,0,0,0,0,90.4,9.834,0,1,0.57,0,0,18.77,90.4,-0.8596,-0.0064,-0.5109,18.94,90.4,0,0,0,0,0,0,0,0,90.4,1,0,-0.001,0,0,3,0,0,0,9.834,0.202,0,0,1,1,0,0,VALID,0,0,0,0,0,1,0,0,0,0,0,0,0,0,0,0,0,0,0,0,367.94,476.37,2,0,0.08,0.08,381,14.29,0.08,0.06,25.98,FLYING,CF1-F,0:/Integrated Flight Computer/aircraft/cf1_f_cfg.ks (inferred preloaded)
26.36,TAKEOFF,TO_ROTATE,81.81,80,-1.81,6.19,1.34,9.65,8.78,90.4,0.055,1,0,0,0,0,0,0,0,0,0,90.4,10,0,1,0.94,0,0,18.88,90.4,-0.8582,-0.0064,-0.5133,18.78,90.4,0,0,0,0,0,0,0,0,90.4,1,0,-0.001,0,0,3,0,0,0,10,0.347,0,0,1,1,0,0,VALID,0,0,0,0,0,1,0,0,0,0,0,0,0,0,0,0,0,0,0,0,369.16,475.61,2,0,0.08,0.08,385,14.29,0.08,0.06,26.26,FLYING,CF1-F,0:/Integrated Flight Computer/aircraft/cf1_f_cfg.ks (inferred preloaded)
26.64,TAKEOFF,TO_CLIMB,82.83,80,-2.83,6.75,1.84,9.72,8.51,90.4,0.048,0.9717,0,0,0,0,0,0,0,0,0,90.4,9.44,0,1,1.27,0,0,18.14,90.4,-0.8507,-0.0064,-0.5257,17.95,90.4,0,0,0,0,0,0,0,0,90.4,1,0,-0.001,0,0,3,0,0,0,10,0.336,0,0,1,1,0,0,VALID,0,0,0,0,0,1,0,0,0,0,0,0,0,0,0,0,0,0,0,0,370.31,474.85,2,0,0.08,0.08,389,14.29,0.08,0.06,26.54,FLYING,CF1-F,0:/Integrated Flight Computer/aircraft/cf1_f_cfg.ks (inferred preloaded)
26.92,TAKEOFF,TO_CLIMB,83.86,80,-3.86,7.48,2.33,9.95,8.4,90.4,0.042,0.9614,0,0,0,0,0,0,0,0,0,90.4,8.992,0,1,1.59,0,0,17.49,90.4,-0.8454,-0.0064,-0.534,17.39,90.4,0,0,0,0,0,0,0,0,90.4,1,0,-0.001,0,0,3,0,0,0,10,0.336,0,0,1,1,0,0,VALID,0,0,0,0,0,1,0,0,0,0,0,0,0,0,0,0,0,0,0,0,371.21,474.07,2,0,0.08,0.08,393,14.29,0.08,0.06,26.82,FLYING,CF1-F,0:/Integrated Flight Computer/aircraft/cf1_f_cfg.ks (inferred preloaded)
27.2,TAKEOFF,TO_CLIMB,84.86,80,-4.86,8.46,2.97,10.85,8.9,90.4,0.038,0.9514,0,0,0,0,0,0,0,0,0,90.4,8.544,0,1,2.01,0,0,17.44,90.4,-0.8459,-0.0064,-0.5333,17.44,90.4,0,0,0,0,0,0,0,0,90.4,1,0,-0.001,0,0,3,0,0,0,10,0.336,0,0,1,1,0,0,VALID,0,0,0,0,0,1,0,0,0,0,0,0,0,0,0,0,0,0,0,0,371.99,473.3,2,0,0.08,0.08,397,14.29,0.08,0.06,27.1,FLYING,CF1-F,0:/Integrated Flight Computer/aircraft/cf1_f_cfg.ks (inferred preloaded)
27.48,TAKEOFF,TO_CLIMB,85.8,80,-5.8,9.61,3.87,11.35,8.87,90.4,0.034,0.942,0,0,0,0,0,0,0,0,0,90.4,8.096,0,1,2.58,0,0,17.14,90.4,-0.8414,-0.0065,-0.5403,16.97,90.4,0,0,0,0,0,0,0,0,90.4,1,0,-0.001,0,0,3,0,0,0,10,0.336,0,0,1,1,0,0,VALID,0,0,0,0,0,1,0,0,0,0,0,0,0,0,0,0,0,0,0,0,372.7,472.56,2,0,0.08,0.08,401,14.29,0.08,0.06,27.38,FLYING,CF1-F,0:/Integrated Flight Computer/aircraft/cf1_f_cfg.ks (inferred preloaded)
27.76,TAKEOFF,TO_CLIMB,86.71,80,-6.71,10.96,4.74,11.59,8.58,90.4,0.031,0.9329,0,0,0,0,0,0,0,0,0,90.4,8,0,1,3.13,0,0,16.66,90.4,-0.8378,-0.0065,-0.546,16.58,90.4,0,0,0,0,0,0,0,0,90.4,1,0,-0.001,0,0,3,0,0,0,10,0.336,0,0,1,1,0,0,VALID,0,0,0,0,0,1,0,0,0,0,0,0,0,0,0,0,0,0,0,0,373.31,471.82,2,0,0.08,0.08,405,14.29,0.08,0.06,27.66,FLYING,CF1-F,0:/Integrated Flight Computer/aircraft/cf1_f_cfg.ks (inferred preloaded)
28.04,TAKEOFF,TO_CLIMB,87.61,80,-7.61,12.57,5.6,11.89,8.37,90.4,0.027,0.9239,0,0,0,0,0,0,0,0,0,90.4,8,0,1,3.66,0,0,16.42,90.4,-0.8357,-0.0065,-0.5491,16.37,90.4,0,0,0,0,0,0,0,0,90.4,1,0,-0.001,0,0,3,0,0,0,10,0.336,0,0,1,1,0,0,VALID,0,0,0,0,0,1,0,0,0,0,0,0,0,0,0,0,0,0,0,0,373.81,471.08,2,0,0.08,0.08,409,14.29,0.08,0.06,27.94,FLYING,CF1-F,0:/Integrated Flight Computer/aircraft/cf1_f_cfg.ks (inferred preloaded)
28.32,TAKEOFF,TO_CLIMB,88.49,80,-8.49,14.39,6.53,12.06,8.02,90.4,0.026,0.9151,0,0,0,0,0,0,0,0,0,90.4,8,0,1,4.22,0,0,16.18,90.4,-0.8324,-0.0065,-0.5542,16.02,90.4,0,0,0,0,0,0,0,0,90.4,1,0,-0.001,0,0,3,0,0,0,10,0.336,0,0,1,1,0,0,VALID,0,0,0,0,0,1,0,0,0,0,0,0,0,0,0,0,0,0,0,0,374.22,470.33,2,0,0.08,0.08,413,14.29,0.08,0.06,28.22,FLYING,CF1-F,0:/Integrated Flight Computer/aircraft/cf1_f_cfg.ks (inferred preloaded)
28.6,TAKEOFF,TO_CLIMB,89.37,80,-9.37,16.41,7.31,11.93,7.43,90.4,0.024,0.9063,0,0,0,0,0,0,0,0,0,90.4,8,0,1,4.67,0,0,15.57,90.4,-0.8266,-0.0065,-0.5628,15.43,90.4,0,0,0,0,0,0,0,0,90.4,1,0,-0.002,0,0,3,0,0,0,10,0.336,0,0,1,1,0,0,VALID,0,0,0,0,0,1,0,0,0,0,0,0,0,0,0,0,0,0,0,0,374.54,469.56,2,0,0.08,0.08,417,14.29,0.08,0.06,28.5,FLYING,CF1-F,0:/Integrated Flight Computer/aircraft/cf1_f_cfg.ks (inferred preloaded)
28.88,TAKEOFF,TO_CLIMB,90.26,80,-10.26,18.66,8.02,11.97,7.08,90.4,0.024,0.8974,0,0,0,0,0,0,0,0,0,90.4,8,0,1,5.07,0,0,15.18,90.4,-0.8231,-0.0066,-0.5679,15.08,90.4,0,0,0,0,0,0,0,0,90.4,1,0,-0.002,0,0,3,0,0,0,10,0.336,0,0,1,1,0,0,VALID,0,0,0,0,0,1,0,0,0,0,0,0,0,0,0,0,0,0,0,0,374.75,468.78,2,0,0.08,0.08,421,14.29,0.08,0.06,28.78,FLYING,CF1-F,0:/Integrated Flight Computer/aircraft/cf1_f_cfg.ks (inferred preloaded)
29.16,TAKEOFF,TO_CLIMB,91.15,80,-11.15,21.11,8.7,12.03,6.77,90.4,0.023,0.8885,0,0,0,0,0,0,0,0,0,90.4,8,0,1,5.45,0,0,14.85,90.4,-0.82,-0.0066,-0.5724,14.77,90.4,0,0,0,0,0,0,0,0,90.4,1,0,-0.002,0,0,3,0,0,0,10,0.336,0,0,1,1,0,0,VALID,0,0,0,0,0,1,0,0,0,0,0,0,0,0,0,0,0,0,0,0,374.86,467.98,2,0,0.08,0.08,425,14.29,0.08,0.06,29.06,FLYING,CF1-F,0:/Integrated Flight Computer/aircraft/cf1_f_cfg.ks (inferred preloaded)
29.44,TAKEOFF,TO_CLIMB,92.04,80,-12.04,23.75,9.36,12.09,6.48,90.4,0.021,0.8796,0,0,0,0,0,0,0,0,0,90.4,8,0,1,5.8,0,0,14.56,90.4,-0.817,-0.0066,-0.5766,14.48,90.4,0,0,0,0,0,0,0,0,90.4,1,0,-0.002,0,0,3,0,0,0,10,0.336,0,0,1,1,0,0,VALID,0,0,0,0,0,1,0,0,0,0,0,0,0,0,0,0,0,0,0,0,374.88,467.17,2,0,0.08,0.08,429,14.29,0.08,0.06,29.34,FLYING,CF1-F,0:/Integrated Flight Computer/aircraft/cf1_f_cfg.ks (inferred preloaded)
29.72,TAKEOFF,TO_CLIMB,92.92,80,-12.92,26.57,9.98,12.14,6.21,90.4,0.02,0.8708,0,0,0,0,0,0,0,0,0,90.4,8,0,1,6.13,0,0,14.28,90.4,-0.8143,-0.0066,-0.5805,14.21,90.4,0,0,0,0,0,0,0,0,90.4,1,0,-0.002,0,0,3,0,0,0,10,0.336,0,0,1,1,0,0,VALID,0,0,0,0,0,1,0,0,0,0,0,0,0,0,0,0,0,0,0,0,374.81,466.36,2,0,0.08,0.08,433,14.29,0.08,0.06,29.62,FLYING,CF1-F,0:/Integrated Flight Computer/aircraft/cf1_f_cfg.ks (inferred preloaded)
30,TAKEOFF,TO_CLIMB,93.8,80,-13.8,29.55,10.59,12.19,5.95,90.4,0.019,0.862,0,0,0,0,0,0,0,0,0,90.4,8,0,1,6.44,0,0,14.02,90.4,-0.8116,-0.0066,-0.5842,13.95,90.4,0,0,0,0,0,0,0,0,90.4,1,0,-0.002,0,0,3,0,0,0,10,0.336,0,0,1,1,0,0,VALID,0,0,0,0,0,1,0,0,0,0,0,0,0,0,0,0,0,0,0,0,374.65,465.53,2,0,0.08,0.08,437,14.29,0.08,0.06,29.9,FLYING,CF1-F,0:/Integrated Flight Computer/aircraft/cf1_f_cfg.ks (inferred preloaded)
30.28,TAKEOFF,TO_CLIMB,94.67,80,-14.67,32.71,11.17,12.23,5.71,90.4,0.019,0.8533,0,0,0,0,0,0,0,0,0,90.4,8,0,1,6.73,0,0,13.77,90.4,-0.8091,-0.0066,-0.5876,13.71,90.4,0,0,0,0,0,0,0,0,90.4,1,0,-0.002,0,0,3,0,0,0,10,0.336,0,0,1,1,0,0,VALID,0,0,0,0,0,1,0,0,0,0,0,0,0,0,0,0,0,0,0,0,374.41,464.7,2,0,0.08,0.08,441,14.29,0.08,0.06,30.18,FLYING,CF1-F,0:/Integrated Flight Computer/aircraft/cf1_f_cfg.ks (inferred preloaded)
30.56,TAKEOFF,TO_CLIMB,95.53,80,-15.53,36.02,11.74,12.27,5.47,90.4,0.019,0.8447,0,0,0,0,0,0,0,0,0,90.4,8,0,1,7.01,0,0,13.55,90.4,-0.8067,-0.0066,-0.5909,13.47,90.4,0,0,0,0,0,0,0,0,90.4,1,0,-0.002,0,0,3,0,0,0,10,0.336,0,0,1,1,0,0,VALID,0,0,0,0,0,1,0,0,0,0,0,0,0,0,0,0,0,0,0,0,374.09,463.87,2,0,0.08,0.08,445,14.29,0.08,0.06,30.46,FLYING,CF1-F,0:/Integrated Flight Computer/aircraft/cf1_f_cfg.ks (inferred preloaded)
30.84,TAKEOFF,TO_CLIMB,96.39,80,-16.39,39.48,12.28,12.25,5.2,90.4,0.017,0.8361,0,0,0,0,0,0,0,0,0,90.4,8,0,1,7.26,0,0,13.28,90.4,-0.8039,-0.0066,-0.5948,13.2,90.4,0,0,0,0,0,0,0,0,90.4,1,0,-0.003,0,0,3,0,0,0,10,0.336,0,0,1,1,0,0,VALID,0,0,0,0,0,1,0,0,0,0,0,0,0,0,0,0,0,0,0,0,373.7,463.03,2,0,0.08,0.08,449,14.29,0.08,0.06,30.74,FLYING,CF1-F,0:/Integrated Flight Computer/aircraft/cf1_f_cfg.ks (inferred preloaded)
31.12,TAKEOFF,TO_CLIMB,97.25,80,-17.25,43.08,12.77,12.26,4.98,90.4,0.017,0.8275,0,0,0,0,0,0,0,0,0,90.4,8,0,1,7.48,0,0,13.04,90.4,-0.8015,-0.0066,-0.5979,12.98,90.4,0,0,0,0,0,0,0,0,90.4,1,0,-0.004,0,0,3,0,0,0,10,0.336,0,0,1,1,0,0,VALID,0,0,0,0,0,1,0,0,0,0,0,0,0,0,0,0,0,0,0,0,373.22,462.18,2,0,0.08,0.08,453,14.29,0.08,0.06,31.02,FLYING,CF1-F,0:/Integrated Flight Computer/aircraft/cf1_f_cfg.ks (inferred preloaded)
31.4,TAKEOFF,TO_CLIMB,98.1,80,-18.1,46.82,13.26,12.27,4.79,90.4,0.017,0.819,0,0,0,0,0,0,0,0,0,90.4,8,0,1,7.7,0,0,12.84,90.4,-0.7995,-0.0066,-0.6007,12.79,90.4,0,0,0,0,0,0,0,0,90.4,1,0,-0.004,0,0,3,0,0,0,10,0.336,0,0,1,1,0,0,VALID,0,0,0,0,0,1,0,0,0,0,0,0,0,0,0,0,0,0,0,0,372.67,461.33,2,0,0.08,0.08,457,14.29,0.08,0.06,31.3,FLYING,CF1-F,0:/Integrated Flight Computer/aircraft/cf1_f_cfg.ks (inferred preloaded)
31.68,TAKEOFF,TO_CLIMB,98.95,80,-18.95,50.7,13.73,12.26,4.58,90.39,0.016,0.8105,0,0,0,0,0,0,0,0,0,90.4,8,0,1,7.9,0,0,12.64,90.4,-0.7973,-0.0067,-0.6036,12.58,90.4,0,0,0,0,0,0,0,0,90.4,1,0,-0.005,0,0,3,0,0,0,10,0.336,0,0,1,1,0,0,VALID,0,0,0,0,0,1,0,0,0,0,0,0,0,0,0,0,0,0,0,0,372.06,460.47,2,0,0.08,0.08,461,14.29,0.08,0.06,31.58,FLYING,CF1-F,0:/Integrated Flight Computer/aircraft/cf1_f_cfg.ks (inferred preloaded)
31.96,TAKEOFF,TO_CLIMB,99.79,80,-19.79,54.69,14.16,12.26,4.4,90.39,0.016,0.8021,0,0,0,0,0,0,0,0,0,90.4,8,0,1,8.08,0,0,12.45,90.4,-0.7953,-0.0067,-0.6062,12.4,90.4,0,0,0,0,0,0,0,0,90.4,1,0,-0.006,0,0,3,0,0,0,10,0.336,0,0,1,1,0,0,VALID,0,0,0,0,0,1,0,0,0,0,0,0,0,0,0,0,0,0,0,0,371.35,459.61,2,0,0.08,0.08,465,14.29,0.08,0.06,31.86,FLYING,CF1-F,0:/Integrated Flight Computer/aircraft/cf1_f_cfg.ks (inferred preloaded)
32.24,TAKEOFF,TO_CLIMB,100.63,80,-20.63,58.81,14.59,12.25,4.21,90.39,0.016,0.7937,0,0,0,0,0,0,0,0,0,90.4,8,0,1,8.25,0,0,12.26,90.4,-0.7933,-0.0067,-0.6088,12.21,90.4,0,0,0,0,0,0,0,0,90.4,1,0,-0.005,0,0,3,0,0,0,10,0.336,0,0,1,1,0,0,VALID,0,0,0,0,0,1,0,0,0,0,0,0,0,0,0,0,0,0,0,0,370.41,458.75,2,0,0.08,0.08,469,14.29,0.08,0.06,32.14,FLYING,CF1-F,0:/Integrated Flight Computer/aircraft/cf1_f_cfg.ks (inferred preloaded)
32.52,TAKEOFF,TO_CLIMB,101.46,80,-21.46,63.04,14.99,12.25,4.05,90.4,0.016,0.7854,0,0,0,0,0,0,0,0,0,90.4,8,0,1,8.41,0,0,12.1,90.4,-0.7916,-0.0067,-0.611,12.05,90.4,0,0,0,0,0,0,0,0,90.4,1,0,-0.005,0,0,3,0,0,0,10,0.336,0,0,1,1,0,0,VALID,0,0,0,0,0,1,0,0,0,0,0,0,0,0,0,0,0,0,0,0,369.23,457.89,2,0,0.08,0.08,473,14.29,0.08,0.06,32.42,FLYING,CF1-F,0:/Integrated Flight Computer/aircraft/cf1_f_cfg.ks (inferred preloaded)
32.8,TAKEOFF,TO_CLIMB,102.28,80,-22.28,67.39,15.39,12.24,3.9,90.4,0.016,0.78,0,0,0,0,0,0,0,0,0,90.4,8,0,1,8.56,0,0,11.95,90.4,-0.7899,-0.0067,-0.6131,11.9,90.4,0,0,0,0,0,0,0,0,90.4,1,0,-0.005,0,0,3,0,0,0,10,0.336,0,0,1,1,0,0,VALID,0,0,0,0,0,1,0,0,0,0,0,0,0,0,0,0,0,0,0,0,367.83,457.02,2,0,0.08,0.08,477,14.29,0.08,0.06,32.7,FLYING,CF1-F,0:/Integrated Flight Computer/aircraft/cf1_f_cfg.ks (inferred preloaded)
33.08,TAKEOFF,TO_CLIMB,103.09,80,-23.09,71.84,15.77,12.23,3.75,90.4,0.017,0.78,0,0,0,0,0,0,0,0,0,90.4,8,0,1,8.7,0,0,11.79,90.4,-0.7883,-0.0067,-0.6153,11.75,90.4,0,0,0,0,0,0,0,0,90.4,1,0,-0.004,0,0,3,0,0,0,10,0.336,0,0,1,1,0,0,VALID,0,0,0,0,0,1,0,0,0,0,0,0,0,0,0,0,0,0,0,0,366.37,456.16,2,0,0.08,0.08,481,14.29,0.08,0.06,32.98,FLYING,CF1-F,0:/Integrated Flight Computer/aircraft/cf1_f_cfg.ks (inferred preloaded)
33.36,TAKEOFF,TO_CLIMB,103.89,80,-23.89,76.39,16.13,12.21,3.6,90.4,0.016,0.78,0,0,0,0,0,0,0,0,0,90.4,8,0,1,8.82,0,0,11.64,90.4,-0.7866,-0.0067,-0.6174,11.6,90.4,0,0,0,0,0,0,0,0,90.4,1,0,-0.004,0,0,3,0,0,0,10,0.336,0,0,1,1,0,0,VALID,0,0,0,0,0,1,0,0,0,0,0,0,0,0,0,0,0,0,0,0,364.97,455.3,2,0,0.08,0.08,485,14.29,0.08,0.06,33.26,FLYING,CF1-F,0:/Integrated Flight Computer/aircraft/cf1_f_cfg.ks (inferred preloaded)
33.64,TAKEOFF,TO_CLIMB,104.69,80,-24.69,81.05,16.47,12.18,3.45,90.4,0.017,0.78,0,0,0,0,0,0,0,0,0,90.4,8,0,1,8.94,0,0,11.49,90.4,-0.785,-0.0067,-0.6194,11.45,90.4,0,0,0,0,0,0,0,0,90.4,1,0,-0.004,0,0,3,0,0,0,10,0.336,0,0,1,1,0,0,VALID,0,0,0,0,0,1,0,0,0,0,0,0,0,0,0,0,0,0,0,0,363.62,454.44,2,0,0.08,0.08,489,14.29,0.08,0.06,33.54,FLYING,CF1-F,0:/Integrated Flight Computer/aircraft/cf1_f_cfg.ks (inferred preloaded)
33.92,TAKEOFF,TO_CLIMB,105.48,80,-25.48,85.79,16.8,12.15,3.31,90.4,0.016,0.78,0,0,0,0,0,0,0,0,0,90.4,8,0,1,9.05,0,0,11.35,90.4,-0.7835,-0.0067,-0.6214,11.31,90.4,0,0,0,0,0,0,0,0,90.4,1,0,-0.003,0,0,3,0,0,0,10,0.336,0,0,1,1,0,0,VALID,0,0,0,0,0,1,0,0,0,0,0,0,0,0,0,0,0,0,0,0,362.31,453.58,2,0,0.08,0.08,493,14.29,0.08,0.06,33.82,FLYING,CF1-F,0:/Integrated Flight Computer/aircraft/cf1_f_cfg.ks (inferred preloaded)
34.2,TAKEOFF,TO_CLIMB,106.26,80,-26.26,90.62,17.11,12.11,3.18,90.4,0.016,0.78,0,0,0,0,0,0,0,0,0,90.4,8,0,1,9.14,0,0,11.22,90.4,-0.782,-0.0067,-0.6232,11.18,90.4,0,0,0,0,0,0,0,0,90.4,1,0,-0.003,0,0,3,0,0,0,10,0.336,0,0,1,1,0,0,VALID,0,0,0,0,0,1,0,0,0,0,0,0,0,0,0,0,0,0,0,0,361.05,452.72,2,0,0.08,0.08,497,14.29,0.08,0.06,34.1,FLYING,CF1-F,0:/Integrated Flight Computer/aircraft/cf1_f_cfg.ks (inferred preloaded)
34.48,TAKEOFF,TO_CLIMB,107.04,80,-27.04,95.53,17.4,12.07,3.06,90.4,0.016,0.78,0,0,0,0,0,0,0,0,0,90.4,8,0,1,9.23,0,0,11.09,90.4,-0.7806,-0.0067,-0.625,11.06,90.4,0,0,0,0,0,0,0,0,90.4,1,0,-0.003,0,0,3,0,0,0,10,0.336,0,0,1,1,0,0,VALID,0,0,0,0,0,1,0,0,0,0,0,0,0,0,0,0,0,0,0,0,359.83,451.86,2,0,0.08,0.08,501,14.29,0.08,0.06,34.38,FLYING,CF1-F,0:/Integrated Flight Computer/aircraft/cf1_f_cfg.ks (inferred preloaded)
34.76,TAKEOFF,TO_CLIMB,107.81,80,-27.81,100.52,17.68,12.05,2.95,90.4,0.016,0.78,0,0,0,0,0,0,0,0,0,90.4,8,0,1,9.31,0,0,10.98,90.4,-0.7794,-0.0067,-0.6265,10.95,90.4,0,0,0,0,0,0,0,0,90.4,1,0,-0.002,0,0,3,0,0,0,10,0.336,0,0,1,1,0,0,VALID,0,0,0,0,0,1,0,0,0,0,0,0,0,0,0,0,0,0,0,0,358.65,451,2,0,0.08,0.08,505,14.29,0.08,0.06,34.66,FLYING,CF1-F,0:/Integrated Flight Computer/aircraft/cf1_f_cfg.ks (inferred preloaded)
35.04,TAKEOFF,TO_CLIMB,108.57,80,-28.57,105.59,17.96,12.02,2.84,90.4,0.014,0.78,0,0,0,0,0,0,0,0,0,90.4,8,0,1,9.39,0,0,10.87,90.4,-0.7782,-0.0067,-0.628,10.84,90.4,0,0,0,0,0,0,0,0,90.4,1,0,-0.002,0,0,3,0,0,0,10,0.336,0,0,1,1,0,0,VALID,0,0,0,0,0,1,0,0,0,0,0,0,0,0,0,0,0,0,0,0,357.51,450.14,2,0,0.08,0.08,509,14.29,0.08,0.06,34.94,FLYING,CF1-F,0:/Integrated Flight Computer/aircraft/cf1_f_cfg.ks (inferred preloaded)
35.32,TAKEOFF,TO_CLIMB,109.33,80,-29.33,110.72,18.21,11.97,2.72,90.4,0.014,0.78,0,0,0,0,0,0,0,0,0,90.4,8,0,1,9.46,0,0,10.76,90.4,-0.7769,-0.0067,-0.6296,10.72,90.4,0,0,0,0,0,0,0,0,90.4,1,0,-0.002,0,0,3,0,0,0,10,0.336,0,0,1,1,0,0,VALID,0,0,0,0,0,1,0,0,0,0,0,0,0,0,0,0,0,0,0,0,356.4,449.29,2,0,0.08,0.08,513,14.29,0.08,0.06,35.22,FLYING,CF1-F,0:/Integrated Flight Computer/aircraft/cf1_f_cfg.ks (inferred preloaded)
35.6,TAKEOFF,TO_CLIMB,110.08,80,-30.08,115.93,18.46,11.93,2.62,90.4,0.014,0.78,0,0,0,0,0,0,0,0,0,90.4,8,0,1,9.52,0,0,10.65,90.4,-0.7757,-0.0067,-0.631,10.62,90.4,0,0,0,0,0,0,0,0,90.4,1,0,-0.002,0,0,3,0,0,0,10,0.336,0,0,1,1,0,0,VALID,0,0,0,0,0,1,0,0,0,0,0,0,0,0,0,0,0,0,0,0,355.32,448.43,2,0,0.08,0.08,517,14.29,0.08,0.06,35.5,FLYING,CF1-F,0:/Integrated Flight Computer/aircraft/cf1_f_cfg.ks (inferred preloaded)
35.88,TAKEOFF,TO_CLIMB,110.83,80,-30.83,121.21,18.7,11.89,2.53,90.4,0.014,0.78,0,0,0,0,0,0,0,0,0,90.4,8,0,1,9.58,0,0,10.56,90.4,-0.7747,-0.0067,-0.6323,10.53,90.4,0,0,0,0,0,0,0,0,90.4,1,0,-0.001,0,0,3,0,0,0,10,0.336,0,0,1,1,0,0,VALID,0,0,0,0,0,1,0,0,0,0,0,0,0,0,0,0,0,0,0,0,354.28,447.58,2,0,0.08,0.08,521,14.29,0.08,0.06,35.78,FLYING,CF1-F,0:/Integrated Flight Computer/aircraft/cf1_f_cfg.ks (inferred preloaded)
36.16,TAKEOFF,TO_CLIMB,111.57,80,-31.57,126.55,18.93,11.85,2.44,90.4,0.015,0.78,0,0,0,0,0,0,0,0,0,90.4,8,0,1,9.63,0,0,10.46,90.4,-0.7736,-0.0067,-0.6336,10.44,90.4,0,0,0,0,0,0,0,0,90.4,1,0,-0.001,0,0,3,0,0,0,10,0.336,0,0,1,1,0,0,VALID,0,0,0,0,0,1,0,0,0,0,0,0,0,0,0,0,0,0,0,0,353.26,446.73,2,0,0.08,0.08,525,14.29,0.08,0.06,36.06,FLYING,CF1-F,0:/Integrated Flight Computer/aircraft/cf1_f_cfg.ks (inferred preloaded)
36.44,TAKEOFF,TO_CLIMB,112.3,80,-32.3,131.95,19.15,11.8,2.34,90.4,0.014,0.78,0,0,0,0,0,0,0,0,0,90.4,8,0,1,9.68,0,0,10.36,90.4,-0.7725,-0.0067,-0.635,10.34,90.4,0,0,0,0,0,0,0,0,90.4,1,0,-0.001,0,0,3,0,0,0,10,0.336,0,0,1,1,0,0,VALID,0,0,0,0,0,1,0,0,0,0,0,0,0,0,0,0,0,0,0,0,352.26,445.88,2,0,0.08,0.08,529,14.29,0.08,0.06,36.34,FLYING,CF1-F,0:/Integrated Flight Computer/aircraft/cf1_f_cfg.ks (inferred preloaded)
36.72,TAKEOFF,TO_CLIMB,113.04,80,-33.04,137.4,19.36,11.74,2.24,90.4,0.014,0.78,0,0,0,0,0,0,0,0,0,90.4,8,0,1,9.72,0,0,10.27,90.4,-0.7714,-0.0067,-0.6364,10.24,90.4,0,0,0,0,0,0,0,0,90.4,1,0,0,0,0,3,0,0,0,10,0.336,0,0,1,1,0,0,VALID,0,0,0,0,0,1,0,0,0,0,0,0,0,0,0,0,0,0,0,0,351.29,445.03,2,0,0.08,0.08,533,14.29,0.08,0.06,36.62,FLYING,CF1-F,0:/Integrated Flight Computer/aircraft/cf1_f_cfg.ks (inferred preloaded)
37,TAKEOFF,TO_CLIMB,113.76,80,-33.76,142.92,19.55,11.69,2.15,90.4,0.013,0.78,0,0,0,0,0,0,0,0,0,90.4,8,0,1,9.75,0,0,10.18,90.4,-0.7704,-0.0067,-0.6376,10.15,90.4,0,0,0,0,0,0,0,0,90.4,1,0,0,0,0,3,0,0,0,10,0.336,0,0,1,1,0,0,VALID,0,0,0,0,0,1,0,0,0,0,0,0,0,0,0,0,0,0,0,0,350.34,444.18,2,0,0.08,0.08,537,14.29,0.08,0.06,36.9,FLYING,CF1-F,0:/Integrated Flight Computer/aircraft/cf1_f_cfg.ks (inferred preloaded)
37.28,TAKEOFF,TO_CLIMB,114.49,80,-34.49,148.48,19.74,11.63,2.07,90.4,0.012,0.78,0,0,0,0,0,0,0,0,0,90.4,8,0,1,9.78,0,0,10.09,90.4,-0.7694,-0.0067,-0.6388,10.07,90.4,0,0,0,0,0,0,0,0,90.4,1,0,0,0,0,3,0,0,0,10,0.336,0,0,1,1,0,0,VALID,0,0,0,0,0,1,0,0,0,0,0,0,0,0,0,0,0,0,0,0,349.42,443.34,2,0,0.08,0.08,541,14.29,0.08,0.06,37.18,FLYING,CF1-F,0:/Integrated Flight Computer/aircraft/cf1_f_cfg.ks (inferred preloaded)
37.56,TAKEOFF,TO_CLIMB,115.21,80,-35.21,154.06,19.91,11.56,1.97,90.4,0.011,0.78,0,0,0,0,0,0,0,0,0,90.4,8,0,1,9.81,0,0,10,90.4,-0.7683,-0.0068,-0.6401,9.97,90.4,0,0,0,0,0,0,0,0,90.4,1,0,0,0,0,3,0,0,0,10,0.336,0,0,1,1,0,0,VALID,0,0,0,0,0,1,0,0,0,0,0,0,0,0,0,0,0,0,0,0,348.51,442.49,2,0,0.08,0.08,545,14.29,0.08,0.06,37.46,FLYING,CF1-F,0:/Integrated Flight Computer/aircraft/cf1_f_cfg.ks (inferred preloaded)
37.84,TAKEOFF,TO_CLIMB,115.92,80,-35.92,159.74,20.07,11.49,1.89,90.4,0.011,0.78,0,0,0,0,0,0,0,0,0,90.4,8,0,1,9.82,0,0,9.91,90.4,-0.7673,-0.0068,-0.6412,9.89,90.4,0,0,0,0,0,0,0,0,90.4,1,0,0.001,0,0,3,0,0,0,10,0.336,0,0,1,1,0,0,VALID,0,0,0,0,0,1,0,0,0,0,0,0,0,0,0,0,0,0,0,0,347.62,441.65,2,0,0.08,0.08,549,14.29,0.08,0.06,37.74,FLYING,CF1-F,0:/Integrated Flight Computer/aircraft/cf1_f_cfg.ks (inferred preloaded)
38.12,TAKEOFF,TO_CLIMB,116.64,80,-36.64,165.43,20.23,11.43,1.82,90.4,0.011,0.78,0,0,0,0,0,0,0,0,0,90.4,8,0,1,9.84,0,0,9.84,90.4,-0.7665,-0.0068,-0.6423,9.82,90.4,0,0,0,0,0,0,0,0,90.4,1,0,0.001,0,0,3,0,0,0,10,0.336,0,0,1,1,0,0,VALID,0,0,0,0,0,1,0,0,0,0,0,0,0,0,0,0,0,0,0,0,346.75,440.81,2,0,0.08,0.08,553,14.29,0.08,0.06,38.02,FLYING,CF1-F,0:/Integrated Flight Computer/aircraft/cf1_f_cfg.ks (inferred preloaded)
38.4,TAKEOFF,TO_CLIMB,117.35,80,-37.35,171.15,20.37,11.38,1.75,90.4,0.01,0.78,0,0,0,0,0,0,0,0,0,90.4,8,0,1,9.85,0,0,9.77,90.4,-0.7657,-0.0068,-0.6432,9.75,90.4,0,0,0,0,0,0,0,0,90.4,1,0,0.001,0,0,3,0,0,0,10,0.336,0,0,1,1,0,0,VALID,0,0,0,0,0,1,0,0,0,0,0,0,0,0,0,0,0,0,0,0,345.9,439.97,2,0,0.08,0.08,557,14.29,0.08,0.06,38.3,FLYING,CF1-F,0:/Integrated Flight Computer/aircraft/cf1_f_cfg.ks (inferred preloaded)
38.68,TAKEOFF,TO_CLIMB,118.06,80,-38.06,176.95,20.52,11.32,1.69,90.4,0.01,0.78,0,0,0,0,0,0,0,0,0,90.4,8,0,1,9.86,0,0,9.71,90.4,-0.7649,-0.0068,-0.6441,9.69,90.4,0,0,0,0,0,0,0,0,90.4,1,0,0.002,0,0,3,0,0,0,10,0.336,0,0,1,1,0,0,VALID,0,0,0,0,0,1,0,0,0,0,0,0,0,0,0,0,0,0,0,0,345.06,439.14,2,0,0.08,0.08,561,14.29,0.08,0.06,38.58,FLYING,CF1-F,0:/Integrated Flight Computer/aircraft/cf1_f_cfg.ks (inferred preloaded)
38.96,TAKEOFF,TO_CLIMB,118.76,80,-38.76,182.78,20.66,11.27,1.63,90.4,0.01,0.78,0,0,0,0,0,0,0,0,0,90.4,8,0,1,9.87,0,0,9.64,90.4,-0.7642,-0.0068,-0.6449,9.63,90.4,0,0,0,0,0,0,0,0,90.4,1,0,0.002,0,0,3,0,0,0,10,0.336,0,0,1,1,0,0,VALID,0,0,0,0,0,1,0,0,0,0,0,0,0,0,0,0,0,0,0,0,344.24,438.3,2,0,0.08,0.08,565,14.29,0.08,0.06,38.86,FLYING,CF1-F,0:/Integrated Flight Computer/aircraft/cf1_f_cfg.ks (inferred preloaded)
39.24,TAKEOFF,TO_CLIMB,119.46,80,-39.46,188.65,20.8,11.22,1.57,90.4,0.009,0.78,0,0,0,0,0,0,0,0,0,90.4,8,0,1,9.88,0,0,9.59,90.4,-0.7636,-0.0068,-0.6457,9.57,90.4,0,0,0,0,0,0,0,0,90.4,1,0,0.002,0,0,3,0,0,0,10,0.336,0,0,1,1,0,0,VALID,0,0,0,0,0,1,0,0,0,0,0,0,0,0,0,0,0,0,0,0,343.43,437.47,2,0,0.08,0.08,569,14.29,0.08,0.06,39.14,FLYING,CF1-F,0:/Integrated Flight Computer/aircraft/cf1_f_cfg.ks (inferred preloaded)
39.52,TAKEOFF,TO_CLIMB,120.16,80,-40.16,194.53,20.94,11.17,1.51,90.4,0.009,0.78,0,0,0,0,0,0,0,0,0,90.4,8,0,1,9.89,0,0,9.53,90.4,-0.7629,-0.0068,-0.6465,9.51,90.4,0,0,0,0,0,0,0,0,90.4,1,0,0.002,0,0,3,0,0,0,10,0.336,0,0,1,1,0,0,VALID,0,0,0,0,0,1,0,0,0,0,0,0,0,0,0,0,0,0,0,0,342.63,436.64,2,0,0.08,0.08,573,14.29,0.08,0.06,39.42,FLYING,CF1-F,0:/Integrated Flight Computer/aircraft/cf1_f_cfg.ks (inferred preloaded)
39.8,TAKEOFF,TO_CLIMB,120.85,80,-40.85,200.46,21.07,11.12,1.45,90.4,0.008,0.78,0,0,0,0,0,0,0,0,0,90.4,8,0,1,9.89,0,0,9.47,90.4,-0.7622,-0.0068,-0.6474,9.45,90.4,0,0,0,0,0,0,0,0,90.4,1,0,0.003,0,0,3,0,0,0,10,0.336,0,0,1,1,0,0,VALID,0,0,0,0,0,1,0,0,0,0,0,0,0,0,0,0,0,0,0,0,341.85,435.81,2,0,0.08,0.08,577,14.29,0.08,0.06,39.7,FLYING,CF1-F,0:/Integrated Flight Computer/aircraft/cf1_f_cfg.ks (inferred preloaded)
40.08,TAKEOFF,TO_CLIMB,121.54,80,-41.54,206.43,21.21,11.06,1.39,90.4,0.009,0.78,0,0,0,0,0,0,0,0,0,90.4,8,0,1,9.9,0,0,9.41,90.4,-0.7614,-0.0068,-0.6482,9.39,90.4,0,0,0,0,0,0,0,0,90.4,1,0,0.003,0,0,3,0,0,0,10,0.336,0,0,1,1,0,0,VALID,0,0,0,0,0,1,0,0,0,0,0,0,0,0,0,0,0,0,0,0,341.07,434.99,2,0,0.08,0.08,581,14.29,0.08,0.06,39.98,FLYING,CF1-F,0:/Integrated Flight Computer/aircraft/cf1_f_cfg.ks (inferred preloaded)
40.36,TAKEOFF,TO_CLIMB,122.23,80,-42.23,212.41,21.33,11,1.33,90.4,0.008,0.78,0,0,0,0,0,0,0,0,0,90.4,8,0,1,9.9,0,0,9.35,90.4,-0.7607,-0.0068,-0.649,9.33,90.4,0,0,0,0,0,0,0,0,90.4,1,0,0.003,0,0,3,0,0,0,10,0.336,0,0,1,1,0,0,VALID,0,0,0,0,0,1,0,0,0,0,0,0,0,0,0,0,0,0,0,0,340.31,434.17,2,0,0.08,0.08,585,14.29,0.08,0.06,40.26,FLYING,CF1-F,0:/Integrated Flight Computer/aircraft/cf1_f_cfg.ks (inferred preloaded)
