t_s,phase,subphase,ias_ms,vapp_ms,spd_err_ms,agl_m,vs_ms,pitch_deg,aoa_deg,hdg_deg,bank_deg,thr_cmd,thr_cur,thr_intg,at_gain,at_tau_s,at_a_up,at_a_dn,at_kp_thr,at_ki_spd,at_thr_slew,aa_hdg_cmd_deg,aa_fpa_cmd_deg,aa_fbw,aa_dir,actual_fpa_deg,ftf_hdg_err_deg,ftf_fix_idx,kos_steer_pit_deg,kos_steer_hdg_deg,aa_dir_vx,aa_dir_vy,aa_dir_vz,aa_dir_pitch_deg,aa_dir_hdg_deg,ils_loc_m,ils_gs_m,ils_dist_km,loc_corr_deg,gs_corr_deg,flare_fpa_cmd,flare_tgt_vs,flare_frac,steer_hdg_deg,steer_blend,ro_loc_corr_deg,ro_hdg_err_deg,ro_yaw_tgt,ro_yaw_scale,ro_yaw_gate,yaw_cmd,roll_cmd,pitch_cmd,ro_pitch_tgt_deg,ro_pitch_err_deg,ro_pitch_ff,ro_roll_assist,flaps_cur,flaps_tgt,asc_j_ab,asc_j_rk,asc_validity,asc_q_pa,asc_q_raw_pa,asc_mach,asc_apo_m,asc_drag_n,asc_w_prop,asc_edot_aero,asc_edot_orb,asc_pitch_bias,asc_blend,asc_spooling,asc_ab_thr_ratio,asc_ab_t_now,asc_ab_t_avail,asc_ab_ign_on,asc_ab_flameouts,asc_rk_t_now,asc_rk_t_avail,asc_rk_ign_on,asc_rk_flameouts,ship_thrust,ship_avail_thrust,ship_ign_on,ship_flameouts,ifc_raw_dt_s,ifc_dt_s,ifc_loop_n,ifc_hz_est,ifc_raw_dt_max_s,ifc_raw_dt_min_s,phase_el_s,status,craft_name,cfg_file
0.12,TAKEOFF,TO_PREFLIGHT,0.36,80,79.64,3.75,0,0.62,-8.1,90.02,0.095,0.04,0,0,0,0,0,0,0,0,0,90.4,0,1,0,3.07,0,0,0,90,0,0,0,0,0,0,0,0,0,0,0,0,0,90.4,1,0,-0.384,0,0,1,0,0,0,0,0,0,0,0,1,0,0,VALID,0,0,0,0,0,1,0,0,0,0,0,0,0,0,0,0,0,0,0,0,0,519.91,2,0,0.1,0.1,1,3.45,0.1,0.02,0.02,PRELAUNCH,CF1-F,0:/Integrated Flight Computer/aircraft/cf1_f_cfg.ks (inferred preloaded)
0.38,TAKEOFF,TO_PREFLIGHT,0.34,80,79.66,3.72,0.07,0.55,-6.08,90.02,0.119,0.112,0,0,0,0,0,0,0,0,0,90.4,0,1,0,3.77,0,0,0,90,0,0,0,0,0,0,0,0,0,0,0,0,0,90.4,1,0,-0.383,0,0,1,0,0,0,0,0,0,0,1,1,0,0,VALID,0,0,0,0,0,1,0,0,0,0,0,0,0,0,0,0,0,0,0,0,0.35,519.91,2,0,0.04,0.04,6,19.23,0.1,0.04,0.28,PRELAUNCH,CF1-F,0:/Integrated Flight Computer/aircraft/cf1_f_cfg.ks (inferred preloaded)
0.64,TAKEOFF,TO_PREFLIGHT,0.26,80,79.74,3.63,-0.06,0.03,16.98,90.02,0.167,0.216,0,0,0,0,0,0,0,0,0,90.4,0,1,0,-3.31,0,0,0,90,0,0,0,0,0,0,0,0,0,0,0,0,0,90.4,1,0,-0.383,0,0,1,0,0,0,0,0,0,0,1,1,0,0,VALID,0,0,0,0,0,1,0,0,0,0,0,0,0,0,0,0,0,0,0,0,1.45,519.93,2,0,0.04,0.04,11,19.23,0.08,0.04,0.54,PRELAUNCH,CF1-F,0:/Integrated Flight Computer/aircraft/cf1_f_cfg.ks (inferred preloaded)
0.9,TAKEOFF,TO_PREFLIGHT,0.08,80,79.92,3.62,-0.02,-0.04,5.51,90.02,0.155,0.32,0,0,0,0,0,0,0,0,0,90.4,0,1,0,-1.27,0,0,0,90,0,0,0,0,0,0,0,0,0,0,0,0,0,90.4,1,0,-0.383,0,0,1,0,0,0,0,0,0,0,1,1,0,0,VALID,0,0,0,0,0,1,0,0,0,0,0,0,0,0,0,0,0,0,0,0,3.36,519.97,2,0,0.04,0.04,16,19.23,0.08,0.04,0.8,PRELAUNCH,CF1-F,0:/Integrated Flight Computer/aircraft/cf1_f_cfg.ks (inferred preloaded)
1.16,TAKEOFF,TO_PREFLIGHT,0.14,80,79.86,3.66,0,0.28,10.72,90.03,0.103,0.424,0,0,0,0,0,0,0,0,0,90.4,0,1,0,-0.07,0,0,0,90,0,0,0,0,0,0,0,0,0,0,0,0,0,90.4,1,0,-0.383,0,0,1,0,0,0,0,0,0,0,1,1,0,0,VALID,0,0,0,0,0,1,0,0,0,0,0,0,0,0,0,0,0,0,0,0,6.09,519.96,2,0,0.04,0.04,21,19.23,0.08,0.04,1.06,PRELAUNCH,CF1-F,0:/Integrated Flight Computer/aircraft/cf1_f_cfg.ks (inferred preloaded)
1.42,TAKEOFF,TO_PREFLIGHT,0.12,80,79.88,3.72,0.1,0.47,-73.43,90.03,0.069,0.528,0,0,0,0,0,0,0,0,0,90.4,0,1,0,5.67,0,0,0,90,0,0,0,0,0,0,0,0,0,0,0,0,0,90.4,1,0,-0.383,0,0,1,0,0,0,0,0,0,0,1,1,0,0,VALID,0,0,0,0,0,1,0,0,0,0,0,0,0,0,0,0,0,0,0,0,9.61,519.96,2,0,0.04,0.04,26,19.23,0.08,0.04,1.32,PRELAUNCH,CF1-F,0:/Integrated Flight Computer/aircraft/cf1_f_cfg.ks (inferred preloaded)
1.68,TAKEOFF,TO_PREFLIGHT,0.07,80,79.93,3.7,0,0.43,35.62,90.03,0.082,0.632,0,0,0,0,0,0,0,0,0,90.4,0,1,0,-0.11,0,0,0,90,0,0,0,0,0,0,0,0,0,0,0,0,0,90.4,1,0,-0.383,0,0,1,0,0,0,0,0,0,0,1,1,0,0,VALID,0,0,0,0,0,1,0,0,0,0,0,0,0,0,0,0,0,0,0,0,13.91,519.97,2,0,0.04,0.04,31,19.23,0.08,0.04,1.58,PRELAUNCH,CF1-F,0:/Integrated Flight Computer/aircraft/cf1_f_cfg.ks (inferred preloaded)
1.94,TAKEOFF,TO_PREFLIGHT,0.08,80,79.92,3.66,-0.03,0.17,9.83,90.04,0.121,0.736,0,0,0,0,0,0,0,0,0,90.4,0,1,0,-1.53,0,0,0,90,0,0,0,0,0,0,0,0,0,0,0,0,0,90.4,1,0,-0.383,0,0,1,0,0,0,0,0,0,0,1,1,0,0,VALID,0,0,0,0,0,1,0,0,0,0,0,0,0,0,0,0,0,0,0,0,18.99,519.97,2,0,0.04,0.04,36,19.23,0.08,0.04,1.84,PRELAUNCH,CF1-F,0:/Integrated Flight Computer/aircraft/cf1_f_cfg.ks (inferred preloaded)
2.26,TAKEOFF,TO_PREFLIGHT,0.08,80,79.92,3.62,0.03,0,-66.02,90.04,0.141,0.864,0,0,0,0,0,0,0,0,0,90.4,0,1,0,1.8,0,0,0,90,0,0,0,0,0,0,0,0,0,0,0,0,0,90.4,1,0,-0.383,0,0,1,0,0,0,0,0,0,0,1,1,0,0,VALID,0,0,0,0,0,1,0,0,0,0,0,0,0,0,0,0,0,0,0,0,26.27,519.97,2,0,0.08,0.08,41,15.63,0.08,0.04,2.16,PRELAUNCH,CF1-F,0:/Integrated Flight Computer/aircraft/cf1_f_cfg.ks (inferred preloaded)
2.54,TAKEOFF,TO_PREFLIGHT,0.05,80,79.95,3.64,-0.03,0.15,75.51,90.04,0.121,0.976,0,0,0,0,0,0,0,0,0,90.4,0,1,0,-1.67,0,0,0,90,0,0,0,0,0,0,0,0,0,0,0,0,0,90.4,1,0,-0.383,0,0,1,0,0,0,0,0,0,0,1,1,0,0,VALID,0,0,0,0,0,1,0,0,0,0,0,0,0,0,0,0,0,0,0,0,33.54,519.98,2,0,0.08,0.08,45,14.29,0.08,0.06,2.44,PRELAUNCH,CF1-F,0:/Integrated Flight Computer/aircraft/cf1_f_cfg.ks (inferred preloaded)
2.82,TAKEOFF,TO_PREFLIGHT,0.03,80,79.97,3.64,0.01,0.12,-10.88,90.04,0.106,1,0,0,0,0,0,0,0,0,0,90.4,0,1,0,0.39,0,0,0,90,0,0,0,0,0,0,0,0,0,0,0,0,0,90.4,1,0,-0.383,0,0,1,0,0,0,0,0,0,0,1,1,0,0,VALID,0,0,0,0,0,1,0,0,0,0,0,0,0,0,0,0,0,0,0,0,41.54,519.98,2,0,0.08,0.08,49,14.29,0.08,0.06,2.72,PRELAUNCH,CF1-F,0:/Integrated Flight Computer/aircraft/cf1_f_cfg.ks (inferred preloaded)
3.1,TAKEOFF,TO_PREFLIGHT,0.05,80,79.95,3.63,0.01,0.04,-10.93,90.05,0.129,1,0,0,0,0,0,0,0,0,0,90.4,0,1,0,0.29,0,0,0,90,0,0,0,0,0,0,0,0,0,0,0,0,0,90.4,1,0,-0.383,0,0,1,0,0,0,0,0,0,0,1,1,0,0,VALID,0,0,0,0,0,1,0,0,0,0,0,0,0,0,0,0,0,0,0,0,49.52,519.98,2,0,0.08,0.08,53,14.29,0.08,0.06,3,PRELAUNCH,CF1-F,0:/Integrated Flight Computer/aircraft/cf1_f_cfg.ks (inferred preloaded)
3.38,TAKEOFF,TO_GROUND_ROLL,0.03,80,79.97,3.63,-0.01,0.1,13.69,90.05,0.16,1,0,0,0,0,0,0,0,0,0,90.4,0,1,0,-0.8,0,0,0,90,0,0,0,0,0,0,0,0,0,0,0,0,0,90.4,1,0,-0.348,0,0,3,0,0,0,0,0,0,0,1,1,0,0,VALID,0,0,0,0,0,1,0,0,0,0,0,0,0,0,0,0,0,0,0,0,57.36,519.98,2,0,0.08,0.08,57,14.29,0.08,0.06,3.3,PRELAUNCH,CF1-F,0:/Integrated Flight Computer/aircraft/cf1_f_cfg.ks (inferred preloaded)
3.66,TAKEOFF,TO_GROUND_ROLL,0.21,80,79.79,3.65,0.01,0.21,-0.41,90.05,0.17,1,0,0,0,0,0,0,0,0,0,90.4,0,1,0,0.29,0,0,0,90,0,0,0,0,0,0,0,0,0,0,0,0,0,90.4,1,0,-0.346,0,0,3,0,0,0,0,0,0,0,1,1,0,0,VALID,0,0,0,0,0,1,0,0,0,0,0,0,0,0,0,0,0,0,0,0,65.07,519.94,2,0,0.08,0.08,61,14.29,0.08,0.06,3.58,PRELAUNCH,CF1-F,0:/Integrated Flight Computer/aircraft/cf1_f_cfg.ks (inferred preloaded)
3.94,TAKEOFF,TO_GROUND_ROLL,0.48,80,79.52,3.66,-0.01,0.26,0.88,90.05,0.153,1,0,0,0,0,0,0,0,0,0,90.4,0,1,0,-0.4,0,0,0,90,0,0,0,0,0,0,0,0,0,0,0,0,0,90.4,1,0,-0.345,0,0,3,0,0,0,0,0,0,0,1,1,0,0,VALID,0,0,0,0,0,1,0,0,0,0,0,0,0,0,0,0,0,0,0,0,72.64,519.87,2,0,0.08,0.08,65,14.29,0.08,0.06,3.86,PRELAUNCH,CF1-F,0:/Integrated Flight Computer/aircraft/cf1_f_cfg.ks (inferred preloaded)
4.22,TAKEOFF,TO_GROUND_ROLL,0.79,80,79.21,3.69,0.06,0.29,-5.57,90.06,0.12,1,0,0,0,0,0,0,0,0,0,90.4,0,1,0,3.53,0,0,0,90,0,0,0,0,0,0,0,0,0,0,0,0,0,90.4,1,0,-0.344,0,0,3,0,0,0,0,0,0,0,1,1,0,0,VALID,0,0,0,0,0,1,0,0,0,0,0,0,0,0,0,0,0,0,0,0,80.08,519.79,2,0,0.08,0.08,69,14.29,0.08,0.06,4.14,PRELAUNCH,CF1-F,0:/Integrated Flight Computer/aircraft/cf1_f_cfg.ks (inferred preloaded)
4.5,TAKEOFF,TO_GROUND_ROLL,1.13,80,78.87,3.67,0.02,0.25,0.18,90.06,0.081,1,0,0,0,0,0,0,0,0,0,90.4,0,1,0,1.03,0,0,0,90,0,0,0,0,0,0,0,0,0,0,0,0,0,90.4,1,0,-0.342,0,0,3,0,0,0,0,0,0,0,1,1,0,0,VALID,0,0,0,0,0,1,0,0,0,0,0,0,0,0,0,0,0,0,0,0,87.4,519.71,2,0,0.08,0.08,73,14.29,0.08,0.06,4.42,PRELAUNCH,CF1-F,0:/Integrated Flight Computer/aircraft/cf1_f_cfg.ks (inferred preloaded)
4.78,TAKEOFF,TO_GROUND_ROLL,1.49,80,78.51,3.66,-0.04,0.18,1.59,90.06,0.082,1,0,0,0,0,0,0,0,0,0,90.4,0,1,0,-1.67,0,0,0,90,0,0,0,0,0,0,0,0,0,0,0,0,0,90.4,1,0,-0.336,0,0,3,0,0,0,0,0,0,0,1,1,0,0,VALID,0,0,0,0,0,1,0,0,0,0,0,0,0,0,0,0,0,0,0,0,94.59,519.62,2,0,0.08,0.08,77,14.29,0.08,0.06,4.7,PRELAUNCH,CF1-F,0:/Integrated Flight Computer/aircraft/cf1_f_cfg.ks (inferred preloaded)
5.06,TAKEOFF,TO_GROUND_ROLL,1.89,80,78.11,3.64,-0.05,0.16,1.98,90.07,0.114,1,0,0,0,0,0,0,0,0,0,90.4,0,1,0,-1.44,0,0,0,90,0,0,0,0,0,0,0,0,0,0,0,0,0,90.4,1,0,-0.328,0,0,3,0,0,0,0,0,0,0,1,1,0,0,VALID,0,0,0,0,0,1,0,0,0,0,0,0,0,0,0,0,0,0,0,0,101.65,519.52,2,0,0.08,0.08,81,14.29,0.08,0.06,4.98,PRELAUNCH,CF1-F,0:/Integrated Flight Computer/aircraft/cf1_f_cfg.ks (inferred preloaded)
5.34,TAKEOFF,TO_GROUND_ROLL,2.31,80,77.69,3.66,-0.02,0.25,0.48,90.07,0.135,1,0,0,0,0,0,0,0,0,0,90.4,0,1,0,-0.39,0,0,0,90,0,0,0,0,0,0,0,0,0,0,0,0,0,90.4,1,0,-0.321,0.0033,0.25,1,0.0033,0,0,0,0,0,0,1,1,0,0,VALID,0,0,0,0,0,1,0,0,0,0,0,0,0,0,0,0,0,0,0,0,108.6,519.41,2,0,0.08,0.08,85,14.29,0.08,0.06,5.26,LANDED,CF1-F,0:/Integrated Flight Computer/aircraft/cf1_f_cfg.ks (inferred preloaded)
5.62,TAKEOFF,TO_GROUND_ROLL,2.76,80,77.24,3.69,0.15,0.37,-2.57,90.08,0.126,1,0,0,0,0,0,0,0,0,0,90.4,0,1,0,3.1,0,0,0,90,0,0,0,0,0,0,0,0,0,0,0,0,0,90.4,1,0,-0.316,0.0032,0.25,1,0.0032,0,0,0,0,0,0,1,1,0,0,VALID,0,0,0,0,0,1,0,0,0,0,0,0,0,0,0,0,0,0,0,0,115.42,519.29,2,0,0.08,0.08,89,14.29,0.08,0.06,5.54,LANDED,CF1-F,0:/Integrated Flight Computer/aircraft/cf1_f_cfg.ks (inferred preloaded)
5.9,TAKEOFF,TO_GROUND_ROLL,3.24,80,76.76,3.7,-0.06,0.46,1.84,90.08,0.096,1,0,0,0,0,0,0,0,0,0,90.4,0,1,0,-1.1,0,0,0,90,0,0,0,0,0,0,0,0,0,0,0,0,0,90.4,1,0,-0.312,0.0032,0.25,1,0.0032,0,0,0,0,0,0,1,1,0,0,VALID,0,0,0,0,0,1,0,0,0,0,0,0,0,0,0,0,0,0,0,0,122.12,519.16,2,0,0.08,0.08,93,14.29,0.08,0.06,5.82,LANDED,CF1-F,0:/Integrated Flight Computer/aircraft/cf1_f_cfg.ks (inferred preloaded)
6.18,TAKEOFF,TO_GROUND_ROLL,3.74,80,76.26,3.72,-0.04,0.49,0.9,90.09,0.087,1,0,0,0,0,0,0,0,0,0,90.4,0,1,0,-0.63,0,0,0,90,0,0,0,0,0,0,0,0,0,0,0,0,0,90.4,1,0,-0.306,0.0031,0.25,1,0.0031,0,0,0,0,0,0,1,1,0,0,VALID,0,0,0,0,0,1,0,0,0,0,0,0,0,0,0,0,0,0,0,0,128.7,519.02,2,0,0.08,0.08,97,14.29,0.08,0.06,6.1,LANDED,CF1-F,0:/Integrated Flight Computer/aircraft/cf1_f_cfg.ks (inferred preloaded)
6.46,TAKEOFF,TO_GROUND_ROLL,4.27,80,75.73,3.71,0,0.46,0.49,90.1,0.104,1,0,0,0,0,0,0,0,0,0,90.4,0,1,0,-0.02,0,0,0,90,0,0,0,0,0,0,0,0,0,0,0,0,0,90.4,1,0,-0.299,0.003,0.25,1,0.003,0,0,0,0,0,0,1,1,0,0,VALID,0,0,0,0,0,1,0,0,0,0,0,0,0,0,0,0,0,0,0,0,135.17,518.87,2,0,0.08,0.08,101,14.29,0.08,0.06,6.38,LANDED,CF1-F,0:/Integrated Flight Computer/aircraft/cf1_f_cfg.ks (inferred preloaded)
6.74,TAKEOFF,TO_GROUND_ROLL,4.83,80,75.17,3.7,-0.04,0.4,0.83,90.1,0.121,1,0,0,0,0,0,0,0,0,0,90.4,0,1,0,-0.44,0,0,0,90,0,0,0,0,0,0,0,0,0,0,0,0,0,90.4,1,0,-0.292,0.0029,0.25,1,0.0029,0,0,0,0,0,0,1,1,0,0,VALID,0,0,0,0,0,1,0,0,0,0,0,0,0,0,0,0,0,0,0,0,141.53,518.71,2,0,0.08,0.08,105,14.29,0.08,0.06,6.66,LANDED,CF1-F,0:/Integrated Flight Computer/aircraft/cf1_f_cfg.ks (inferred preloaded)
7.02,TAKEOFF,TO_GROUND_ROLL,5.41,80,74.59,3.69,-0.03,0.34,0.63,90.11,0.118,1,0,0,0,0,0,0,0,0,0,90.4,0,1,0,-0.34,0,0,0,90,0,0,0,0,0,0,0,0,0,0,0,0,0,90.4,1,0,-0.287,0.0028,0.25,1,0.0028,0,0,0,0,0,0,1,1,0,0,VALID,0,0,0,0,0,1,0,0,0,0,0,0,0,0,0,0,0,0,0,0,147.77,518.54,2,0,0.08,0.08,109,14.29,0.08,0.06,6.94,LANDED,CF1-F,0:/Integrated Flight Computer/aircraft/cf1_f_cfg.ks (inferred preloaded)
7.3,TAKEOFF,TO_GROUND_ROLL,6.01,80,73.99,3.68,-0.03,0.31,0.59,90.11,0.102,1,0,0,0,0,0,0,0,0,0,90.4,0,1,0,-0.3,0,0,0,90,0,0,0,0,0,0,0,0,0,0,0,0,0,90.4,1,0,-0.283,0.0028,0.25,1,0.0028,0,0,0,0,0,0,1,1,0,0,VALID,0,0,0,0,0,1,0,0,0,0,0,0,0,0,0,0,0,0,0,0,153.89,518.36,2,0,0.08,0.08,113,14.29,0.08,0.06,7.22,LANDED,CF1-F,0:/Integrated Flight Computer/aircraft/cf1_f_cfg.ks (inferred preloaded)
7.58,TAKEOFF,TO_GROUND_ROLL,6.64,80,73.36,3.69,-0.04,0.35,0.67,90.12,0.096,1,0,0,0,0,0,0,0,0,0,90.4,0,1,0,-0.34,0,0,0,90,0,0,0,0,0,0,0,0,0,0,0,0,0,90.4,1,0,-0.277,0.0027,0.25,1,0.0027,0,0,0,0,0,0,1,1,0,0,VALID,0,0,0,0,0,1,0,0,0,0,0,0,0,0,0,0,0,0,0,0,159.91,518.17,2,0,0.08,0.08,117,14.29,0.08,0.06,7.5,LANDED,CF1-F,0:/Integrated Flight Computer/aircraft/cf1_f_cfg.ks (inferred preloaded)
7.86,TAKEOFF,TO_GROUND_ROLL,7.3,80,72.7,3.7,-0.04,0.43,0.73,90.13,0.104,1,0,0,0,0,0,0,0,0,0,90.4,0,1,0,-0.33,0,0,0,90,0,0,0,0,0,0,0,0,0,0,0,0,0,90.4,1,0,-0.27,0.0026,0.25,1,0.0026,0,0,0,0,0,0,1,1,0,0,VALID,0,0,0,0,0,1,0,0,0,0,0,0,0,0,0,0,0,0,0,0,165.82,517.97,2,0,0.08,0.08,121,14.29,0.08,0.06,7.78,LANDED,CF1-F,0:/Integrated Flight Computer/aircraft/cf1_f_cfg.ks (inferred preloaded)
8.14,TAKEOFF,TO_GROUND_ROLL,7.97,80,72.03,3.72,-0.05,0.55,0.84,90.13,0.114,1,0,0,0,0,0,0,0,0,0,90.4,0,1,0,-0.33,0,0,0,90,0,0,0,0,0,0,0,0,0,0,0,0,0,90.4,1,0,-0.263,0.0025,0.25,1,0.0025,0,0,0,0,0,0,1,1,0,0,VALID,0,0,0,0,0,1,0,0,0,0,0,0,0,0,0,0,0,0,0,0,171.62,517.76,2,0,0.08,0.08,125,14.29,0.08,0.06,8.06,LANDED,CF1-F,0:/Integrated Flight Computer/aircraft/cf1_f_cfg.ks (inferred preloaded)
8.42,TAKEOFF,TO_GROUND_ROLL,8.67,80,71.33,3.74,-0.05,0.65,0.95,90.14,0.113,1,0,0,0,0,0,0,0,0,0,90.4,0,1,0,-0.33,0,0,0,90,0,0,0,0,0,0,0,0,0,0,0,0,0,90.4,1,0,-0.258,0.0024,0.25,1,0.0024,0,0,0,0,0,0,1,1,0,0,VALID,0,0,0,0,0,1,0,0,0,0,0,0,0,0,0,0,0,0,0,0,177.31,517.53,2,0,0.08,0.08,129,14.29,0.08,0.06,8.34,LANDED,CF1-F,0:/Integrated Flight Computer/aircraft/cf1_f_cfg.ks (inferred preloaded)
8.7,TAKEOFF,TO_GROUND_ROLL,9.4,80,70.6,3.75,-0.05,0.71,1.01,90.14,0.105,1,0,0,0,0,0,0,0,0,0,90.4,0,1,0,-0.33,0,0,0,90,0,0,0,0,0,0,0,0,0,0,0,0,0,90.4,1,0,-0.253,0.0024,0.25,1,0.0024,0,0,0,0,0,0,1,1,0,0,VALID,0,0,0,0,0,1,0,0,0,0,0,0,0,0,0,0,0,0,0,0,182.9,517.29,2,0,0.08,0.08,133,14.29,0.08,0.06,8.62,LANDED,CF1-F,0:/Integrated Flight Computer/aircraft/cf1_f_cfg.ks (inferred preloaded)
8.98,TAKEOFF,TO_GROUND_ROLL,10.14,80,69.86,3.75,-0.06,0.72,1.03,90.15,0.101,1,0,0,0,0,0,0,0,0,0,90.4,0,1,0,-0.32,0,0,0,90,0,0,0,0,0,0,0,0,0,0,0,0,0,90.4,1,0,-0.248,0.0023,0.25,1,0.0023,0,0,0,0,0,0,1,1,0,0,VALID,0,0,0,0,0,1,0,0,0,0,0,0,0,0,0,0,0,0,0,0,188.38,517.04,2,0,0.08,0.08,137,14.29,0.08,0.06,8.9,LANDED,CF1-F,0:/Integrated Flight Computer/aircraft/cf1_f_cfg.ks (inferred preloaded)
9.26,TAKEOFF,TO_GROUND_ROLL,10.91,80,69.09,3.75,-0.06,0.69,1,90.15,0.105,1,0,0,0,0,0,0,0,0,0,90.4,0,1,0,-0.32,0,0,0,90,0,0,0,0,0,0,0,0,-0.001,0,0,0,0,90.4,1,-0.001,-0.242,0.0022,0.25,1,0.0022,0,0,0,0,0,0,1,1,0,0,VALID,0,0,0,0,0,1,0,0,0,0,0,0,0,0,0,0,0,0,0,0,193.76,516.78,2,0,0.08,0.08,141,14.29,0.08,0.06,9.18,LANDED,CF1-F,0:/Integrated Flight Computer/aircraft/cf1_f_cfg.ks (inferred preloaded)
9.54,TAKEOFF,TO_GROUND_ROLL,11.7,80,68.3,3.74,-0.07,0.65,0.95,90.16,0.11,1,0,0,0,0,0,0,0,0,0,90.4,0,1,0,-0.32,0,0,0,90,0,0,0,0,0,0,0,0,-0.001,0,0,0,0,90.4,1,-0.001,-0.237,0.0022,0.25,1,0.0022,0,0,0,0,0,0,1,1,0,0,VALID,0,0,0,0,0,1,0,0,0,0,0,0,0,0,0,0,0,0,0,0,199.04,516.5,2,0,0.08,0.08,145,14.29,0.08,0.06,9.46,LANDED,CF1-F,0:/Integrated Flight Computer/aircraft/cf1_f_cfg.ks (inferred preloaded)
9.82,TAKEOFF,TO_GROUND_ROLL,12.5,80,67.5,3.73,-0.07,0.61,0.92,90.16,0.11,1,0,0,0,0,0,0,0,0,0,90.4,0,1,0,-0.32,0,0,0,90,0,0,0,0,0,0,0,0,-0.001,0,0,0,0,90.4,1,-0.001,-0.232,0.0021,0.25,1,0.0021,0,0,0,0,0,0,1,1,0,0,VALID,0,0,0,0,0,1,0,0,0,0,0,0,0,0,0,0,0,0,0,0,204.22,516.21,2,0,0.08,0.08,149,14.29,0.08,0.06,9.74,LANDED,CF1-F,0:/Integrated Flight Computer/aircraft/cf1_f_cfg.ks (inferred preloaded)
10.1,TAKEOFF,TO_GROUND_ROLL,13.33,80,66.67,3.73,-0.08,0.62,0.92,90.17,0.106,1,0,0,0,0,0,0,0,0,0,90.4,0,1,0,-0.32,0,0,0,90,0,0,0,0,0,0,0,0,-0.001,0,0,0,0,90.4,1,-0.001,-0.228,0.0021,0.25,1,0.0021,0,0,0,0,0,0,1,1,0,0,VALID,0,0,0,0,0,1,0,0,0,0,0,0,0,0,0,0,0,0,0,0,209.3,515.91,2,0,0.08,0.08,153,14.29,0.08,0.06,10.02,LANDED,CF1-F,0:/Integrated Flight Computer/aircraft/cf1_f_cfg.ks (inferred preloaded)
10.38,TAKEOFF,TO_GROUND_ROLL,14.18,80,65.82,3.74,-0.08,0.66,0.96,90.17,0.103,1,0,0,0,0,0,0,0,0,0,90.4,0,1,0,-0.32,0,0,0,90,0,0,0,0,0,0,0,0,-0.001,0,0,0,0,90.4,1,-0.001,-0.223,0.002,0.25,1,0.002,0,0,0,0,0,0,1,1,0,0,VALID,0,0,0,0,0,1,0,0,0,0,0,0,0,0,0,0,0,0,0,0,214.28,515.59,2,0,0.08,0.08,157,14.29,0.08,0.06,10.3,LANDED,CF1-F,0:/Integrated Flight Computer/aircraft/cf1_f_cfg.ks (inferred preloaded)
10.66,TAKEOFF,TO_GROUND_ROLL,15.05,80,64.95,3.75,-0.08,0.73,1.03,90.18,0.105,1,0,0,0,0,0,0,0,0,0,90.4,0,1,0,-0.32,0,0,0,90,0,0,0,0,0,0,0,0,-0.002,0,0,0,0,90.4,1,-0.002,-0.218,0.002,0.25,1,0.002,0,0,0,0,0,0,1,1,0,0,VALID,0,0,0,0,0,1,0,0,0,0,0,0,0,0,0,0,0,0,0,0,219.16,515.26,2,0,0.08,0.08,161,14.29,0.08,0.06,10.58,LANDED,CF1-F,0:/Integrated Flight Computer/aircraft/cf1_f_cfg.ks (inferred preloaded)
10.94,TAKEOFF,TO_GROUND_ROLL,15.94,80,64.06,3.77,-0.09,0.82,1.11,90.18,0.108,1,0,0,0,0,0,0,0,0,0,90.39,0,1,0,-0.32,0,0,0.01,90,0,0,0,0,0,0,0,0,-0.002,0,0,0,0,90.39,1,-0.002,-0.214,0.0019,0.25,1,0.0019,0,0,0,0,0,0,1,1,0,0,VALID,0,0,0,0,0,1,0,0,0,0,0,0,0,0,0,0,0,0,0,0,223.95,514.92,2,0,0.08,0.08,165,14.29,0.08,0.06,10.86,LANDED,CF1-F,0:/Integrated Flight Computer/aircraft/cf1_f_cfg.ks (inferred preloaded)
11.22,TAKEOFF,TO_GROUND_ROLL,16.84,80,63.16,3.78,-0.09,0.89,1.18,90.19,0.108,1,0,0,0,0,0,0,0,0,0,90.39,0,1,0,-0.32,0,0,0.01,90,0,0,0,0,0,0,0,0,-0.002,0,0,0,0,90.39,1,-0.002,-0.21,0.0019,0.25,1,0.0019,0,0,0,0,0,0,1,1,0,0,VALID,0,0,0,0,0,1,0,0,0,0,0,0,0,0,0,0,0,0,0,0,228.64,514.56,2,0,0.08,0.08,169,14.29,0.08,0.06,11.14,LANDED,CF1-F,0:/Integrated Flight Computer/aircraft/cf1_f_cfg.ks (inferred preloaded)
11.5,TAKEOFF,TO_GROUND_ROLL,17.77,80,62.23,3.79,-0.1,0.92,1.22,90.19,0.106,1,0,0,0,0,0,0,0,0,0,90.39,0,1,0,-0.32,0,0,0.01,90,0,0,0,0,0,0,0,0,-0.003,0,0,0,0,90.39,1,-0.003,-0.206,0.0018,0.25,1,0.0018,0,0,0,0,0,0,1,1,0,0,VALID,0,0,0,0,0,1,0,0,0,0,0,0,0,0,0,0,0,0,0,0,233.24,514.18,2,0,0.08,0.08,173,14.29,0.08,0.06,11.42,LANDED,CF1-F,0:/Integrated Flight Computer/aircraft/cf1_f_cfg.ks (inferred preloaded)
11.78,TAKEOFF,TO_GROUND_ROLL,18.71,80,61.29,3.79,-0.1,0.93,1.23,90.19,0.104,1,0,0,0,0,0,0,0,0,0,90.39,0,1,0,-0.32,0,0,0.01,90,0,0,0,0,0,0,0,0,-0.003,0,0,0,0,90.39,1,-0.003,-0.202,0.0018,0.25,1,0.0018,0,0,0,0,0,0,1,1,0,0,VALID,0,0,0,0,0,1,0,0,0,0,0,0,0,0,0,0,0,0,0,0,237.74,513.79,2,0,0.08,0.08,177,14.29,0.08,0.06,11.7,LANDED,CF1-F,0:/Integrated Flight Computer/aircraft/cf1_f_cfg.ks (inferred preloaded)
12.06,TAKEOFF,TO_GROUND_ROLL,19.67,80,60.33,3.78,-0.11,0.91,1.21,90.2,0.105,1,0,0,0,0,0,0,0,0,0,90.39,0,1,0,-0.32,0,0,0.01,90,0,0,0,0,0,0,0,0,-0.003,0,0,0,0,90.39,1,-0.003,-0.198,0.0017,0.25,1,0.0017,0,0,0,0,0,0,1,1,0,0,VALID,0,0,0,0,0,1,0,0,0,0,0,0,0,0,0,0,0,0,0,0,242.15,513.39,2,0,0.08,0.08,181,14.29,0.08,0.06,11.98,LANDED,CF1-F,0:/Integrated Flight Computer/aircraft/cf1_f_cfg.ks (inferred preloaded)
12.34,TAKEOFF,TO_GROUND_ROLL,20.65,80,59.35,3.78,-0.11,0.89,1.19,90.2,0.106,1,0,0,0,0,0,0,0,0,0,90.39,0,1,0,-0.32,0,0,0.01,90,0,0,0,0,0,0,0,0,-0.004,0,0,0,0,90.39,1,-0.004,-0.195,0.0017,0.257,0,0.0017,0,0,0,0,0,0,1,1,0,0,VALID,0,0,0,0,0,1,0,0,0,0,0,0,0,0,0,0,0,0,0,0,246.47,512.97,2,0,0.08,0.08,185,14.29,0.08,0.06,12.26,LANDED,CF1-F,0:/Integrated Flight Computer/aircraft/cf1_f_cfg.ks (inferred preloaded)
12.62,TAKEOFF,TO_GROUND_ROLL,21.64,80,58.36,3.78,-0.12,0.88,1.18,90.2,0.107,1,0,0,0,0,0,0,0,0,0,90.39,0,1,0,-0.32,0,0,0.01,90,0,0,0,0,0,0,0,0,-0.004,0,0,0,0,90.39,1,-0.004,-0.191,0.0018,0.268,0,0.0018,0,0,0,0,0,0,1,1,0,0,VALID,0,0,0,0,0,1,0,0,0,0,0,0,0,0,0,0,0,0,0,0,250.71,512.54,2,0,0.08,0.08,189,14.29,0.08,0.06,12.54,LANDED,CF1-F,0:/Integrated Flight Computer/aircraft/cf1_f_cfg.ks (inferred preloaded)
12.9,TAKEOFF,TO_GROUND_ROLL,22.65,80,57.35,3.78,-0.12,0.9,1.19,90.21,0.106,1,0,0,0,0,0,0,0,0,0,90.39,0,1,0,-0.31,0,0,0.01,90,0,0,0,0,0,0,0,0,-0.005,0,0,0,0,90.39,1,-0.005,-0.188,0.0018,0.278,0,0.0018,0,0,0,0,0,0,1,1,0,0,VALID,0,0,0,0,0,1,0,0,0,0,0,0,0,0,0,0,0,0,0,0,254.85,512.09,2,0,0.08,0.08,193,14.29,0.08,0.06,12.82,LANDED,CF1-F,0:/Integrated Flight Computer/aircraft/cf1_f_cfg.ks (inferred preloaded)
13.18,TAKEOFF,TO_GROUND_ROLL,23.67,80,56.33,3.79,-0.13,0.94,1.24,90.21,0.105,1,0,0,0,0,0,0,0,0,0,90.39,0,1,0,-0.31,0,0,0.01,90,0,0,0,0,0,0,0,0,-0.005,0,0,0,0,90.39,1,-0.005,-0.185,0.0018,0.289,0,0.0018,0,0,0,0,0,0,1,1,0,0,VALID,0,0,0,0,0,1,0,0,0,0,0,0,0,0,0,0,0,0,0,0,258.9,511.62,2,0,0.08,0.08,197,14.29,0.08,0.06,13.1,LANDED,CF1-F,0:/Integrated Flight Computer/aircraft/cf1_f_cfg.ks (inferred preloaded)
13.46,TAKEOFF,TO_GROUND_ROLL,24.72,80,55.28,3.8,-0.14,1,1.29,90.21,0.105,1,0,0,0,0,0,0,0,0,0,90.39,0,1,0,-0.31,0,0,0.01,90,0,0,0,0,0,0,0,0,-0.005,0,0,0,0,90.39,1,-0.005,-0.182,0.0019,0.301,0,0.0019,0,0,0,0,0,0,1,1,0,0,VALID,0,0,0,0,0,1,0,0,0,0,0,0,0,0,0,0,0,0,0,0,262.87,511.14,2,0,0.08,0.08,201,14.29,0.08,0.06,13.38,LANDED,CF1-F,0:/Integrated Flight Computer/aircraft/cf1_f_cfg.ks (inferred preloaded)
13.74,TAKEOFF,TO_GROUND_ROLL,25.77,80,54.23,3.81,-0.14,1.06,1.35,90.21,0.106,1,0,0,0,0,0,0,0,0,0,90.39,0,1,0,-0.31,0,0,0.01,90,0,0,0,0,0,0,0,0,-0.006,0,0,0,0,90.39,1,-0.006,-0.179,0.0019,0.312,0,0.0019,0,0,0,0,0,0,1,1,0,0,VALID,0,0,0,0,0,1,0,0,0,0,0,0,0,0,0,0,0,0,0,0,266.75,510.64,2,0,0.08,0.08,205,14.29,0.08,0.06,13.66,LANDED,CF1-F,0:/Integrated Flight Computer/aircraft/cf1_f_cfg.ks (inferred preloaded)
14.02,TAKEOFF,TO_GROUND_ROLL,26.84,80,53.16,3.82,-0.15,1.1,1.39,90.22,0.106,1,0,0,0,0,0,0,0,0,0,90.39,0,1,0,-0.31,0,0,0.01,90,0,0,0,0,0,0,0,0,-0.007,0,0,0,0,90.39,1,-0.007,-0.176,0.0019,0.323,0,0.0019,0,0,0,0,0,0,1,1,0,0,VALID,0,0,0,0,0,1,0,0,0,0,0,0,0,0,0,0,0,0,0,0,270.54,510.13,2,0,0.08,0.08,209,14.29,0.08,0.06,13.94,LANDED,CF1-F,0:/Integrated Flight Computer/aircraft/cf1_f_cfg.ks (inferred preloaded)
14.3,TAKEOFF,TO_GROUND_ROLL,27.93,80,52.07,3.82,-0.15,1.12,1.42,90.22,0.106,1,0,0,0,0,0,0,0,0,0,90.39,0,1,0,-0.31,0,0,0.01,90,0,0,0,0,0,0,0,0,-0.007,0,0,0,0,90.39,1,-0.007,-0.174,0.002,0.335,0,0.002,0,0,0,0,0,0,1,1,0,0,VALID,0,0,0,0,0,1,0,0,0,0,0,0,0,0,0,0,0,0,0,0,274.25,509.6,2,0,0.08,0.08,213,14.29,0.08,0.06,14.22,LANDED,CF1-F,0:/Integrated Flight Computer/aircraft/cf1_f_cfg.ks (inferred preloaded)
14.58,TAKEOFF,TO_GROUND_ROLL,29.03,80,50.97,3.82,-0.16,1.12,1.42,90.22,0.105,1,0,0,0,0,0,0,0,0,0,90.39,0,1,0,-0.31,0,0,0.01,90,0,0,0,0,0,0,0,0,-0.008,0,0,0,0,90.39,1,-0.008,-0.171,0.002,0.347,0,0.002,0,0,0,0,0,0,1,1,0,0,VALID,0,0,0,0,0,1,0,0,0,0,0,0,0,0,0,0,0,0,0,0,277.88,509.06,2,0,0.08,0.08,217,14.29,0.08,0.06,14.5,LANDED,CF1-F,0:/Integrated Flight Computer/aircraft/cf1_f_cfg.ks (inferred preloaded)
14.86,TAKEOFF,TO_GROUND_ROLL,30.14,80,49.86,3.82,-0.16,1.12,1.41,90.22,0.105,1,0,0,0,0,0,0,0,0,0,90.39,0,1,0,-0.31,0,0,0.01,90,0,0,0,0,0,0,0,0,-0.008,0,0,0,0,90.39,1,-0.008,-0.169,0.002,0.359,0,0.002,0,0,0,0,0,0,1,1,0,0,VALID,0,0,0,0,0,1,0,0,0,0,0,0,0,0,0,0,0,0,0,0,281.43,508.5,2,0,0.08,0.08,221,14.29,0.08,0.06,14.78,LANDED,CF1-F,0:/Integrated Flight Computer/aircraft/cf1_f_cfg.ks (inferred preloaded)
15.14,TAKEOFF,TO_GROUND_ROLL,31.27,80,48.73,3.82,-0.17,1.12,1.41,90.22,0.106,1,0,0,0,0,0,0,0,0,0,90.39,0,1,0,-0.31,0,0,0.01,90,0,0,0,0,0,0,0,0,-0.009,0,0,0,0,90.39,1,-0.009,-0.166,0.0021,0.371,0,0.0021,0,0,0,0,0,0,1,1,0,0,VALID,0,0,0,0,0,1,0,0,0,0,0,0,0,0,0,0,0,0,0,0,284.89,507.93,2,0,0.08,0.08,225,14.29,0.08,0.06,15.06,LANDED,CF1-F,0:/Integrated Flight Computer/aircraft/cf1_f_cfg.ks (inferred preloaded)
15.42,TAKEOFF,TO_GROUND_ROLL,32.41,80,47.59,3.82,-0.17,1.13,1.42,90.22,0.106,1,0,0,0,0,0,0,0,0,0,90.39,0,1,0,-0.31,0,0,0.02,90,0,0,0,0,0,0,0,0,-0.01,0,0,0,0,90.39,1,-0.01,-0.164,0.0021,0.383,0,0.0021,0,0,0,0,0,0,1,1,0,0,VALID,0,0,0,0,0,1,0,0,0,0,0,0,0,0,0,0,0,0,0,0,288.28,507.34,2,0,0.08,0.08,229,14.29,0.08,0.06,15.34,LANDED,CF1-F,0:/Integrated Flight Computer/aircraft/cf1_f_cfg.ks (inferred preloaded)
15.7,TAKEOFF,TO_GROUND_ROLL,33.56,80,46.44,3.83,-0.18,1.16,1.44,90.23,0.106,1,0,0,0,0,0,0,0,0,0,90.39,0,1,0,-0.3,0,0,0.02,90,0,0,0,0,0,0,0,0,-0.011,0,0,0,0,90.39,1,-0.011,-0.162,0.0021,0.395,0,0.0021,0,0,0,0,0,0,1,1,0,0,VALID,0,0,0,0,0,1,0,0,0,0,0,0,0,0,0,0,0,0,0,0,291.58,506.73,2,0,0.08,0.08,233,14.29,0.08,0.06,15.62,LANDED,CF1-F,0:/Integrated Flight Computer/aircraft/cf1_f_cfg.ks (inferred preloaded)
15.98,TAKEOFF,TO_GROUND_ROLL,34.73,80,45.27,3.83,-0.18,1.2,1.48,90.23,0.105,1,0,0,0,0,0,0,0,0,0,90.39,0,1,0,-0.3,0,0,0.02,90,0,0,0,0,0,0,0,0,-0.011,0,0,0,0,90.39,1,-0.011,-0.16,0.0021,0.408,0,0.0021,0,0,0,0,0,0,1,1,0,0,VALID,0,0,0,0,0,1,0,0,0,0,0,0,0,0,0,0,0,0,0,0,294.81,506.11,2,0,0.08,0.08,237,14.29,0.08,0.06,15.9,LANDED,CF1-F,0:/Integrated Flight Computer/aircraft/cf1_f_cfg.ks (inferred preloaded)
16.26,TAKEOFF,TO_GROUND_ROLL,35.9,80,44.1,3.84,-0.19,1.24,1.52,90.23,0.105,1,0,0,0,0,0,0,0,0,0,90.39,0,1,0,-0.3,0,0,0.02,90,0,0,0,0,0,0,0,0,-0.012,0,0,0,0,90.39,1,-0.012,-0.158,0.0022,0.42,0,0.0022,0,0,0,0,0,0,1,1,0,0,VALID,0,0,0,0,0,1,0,0,0,0,0,0,0,0,0,0,0,0,0,0,297.95,505.47,2,0,0.08,0.08,241,14.29,0.08,0.06,16.18,LANDED,CF1-F,0:/Integrated Flight Computer/aircraft/cf1_f_cfg.ks (inferred preloaded)
16.54,TAKEOFF,TO_GROUND_ROLL,37.09,80,42.91,3.85,-0.19,1.28,1.56,90.23,0.105,1,0,0,0,0,0,0,0,0,0,90.39,0,1,0,-0.3,0,0,0.02,90,0,0,0,0,0,0,0,0,-0.013,0,0,0,0,90.39,1,-0.013,-0.156,0.0022,0.433,0,0.0022,0,0,0,0,0,0,1,1,0,0,VALID,0,0,0,0,0,1,0,0,0,0,0,0,0,0,0,0,0,0,0,0,301.03,504.82,2,0,0.08,0.08,245,14.29,0.08,0.06,16.46,LANDED,CF1-F,0:/Integrated Flight Computer/aircraft/cf1_f_cfg.ks (inferred preloaded)
16.82,TAKEOFF,TO_GROUND_ROLL,38.29,80,41.71,3.85,-0.2,1.3,1.58,90.23,0.105,1,0,0,0,0,0,0,0,0,0,90.39,0,1,0,-0.3,0,0,0.02,90,0,0,0,0,0,0,0,0,-0.014,0,0,0,0,90.39,1,-0.014,-0.154,0.0022,0.446,0,0.0022,0,0,0,0,0,0,1,1,0,0,VALID,0,0,0,0,0,1,0,0,0,0,0,0,0,0,0,0,0,0,0,0,304.02,504.15,2,0,0.08,0.08,249,14.29,0.08,0.06,16.74,LANDED,CF1-F,0:/Integrated Flight Computer/aircraft/cf1_f_cfg.ks (inferred preloaded)
17.1,TAKEOFF,TO_GROUND_ROLL,39.5,80,40.5,3.85,-0.21,1.31,1.6,90.23,0.105,1,0,0,0,0,0,0,0,0,0,90.38,0,1,0,-0.3,0,0,0.02,90,0,0,0,0,0,0,0,0,-0.015,0,0,0,0,90.38,1,-0.015,-0.151,0.0023,0.459,0,0.0023,0,0,0,0,0,0,1,1,0,0,VALID,0,0,0,0,0,1,0,0,0,0,0,0,0,0,0,0,0,0,0,0,306.94,503.47,2,0,0.08,0.08,253,14.29,0.08,0.06,17.02,LANDED,CF1-F,0:/Integrated Flight Computer/aircraft/cf1_f_cfg.ks (inferred preloaded)
17.38,TAKEOFF,TO_GROUND_ROLL,40.72,80,39.28,3.86,-0.21,1.32,1.6,90.23,0.105,1,0,0,0,0,0,0,0,0,0,90.38,0,1,0,-0.3,0,0,0.02,90,0,0,0,0,0,0,0,0,-0.016,0,0,0,0,90.38,1,-0.016,-0.149,0.0023,0.472,0,0.0023,0,0,0,0,0,0,1,1,0,0,VALID,0,0,0,0,0,1,0,0,0,0,0,0,0,0,0,0,0,0,0,0,309.79,502.77,2,0,0.08,0.08,257,14.29,0.08,0.06,17.3,LANDED,CF1-F,0:/Integrated Flight Computer/aircraft/cf1_f_cfg.ks (inferred preloaded)
17.66,TAKEOFF,TO_GROUND_ROLL,41.95,80,38.05,3.86,-0.22,1.33,1.61,90.24,0.105,1,0,0,0,0,0,0,0,0,0,90.38,0,1,0,-0.3,0,0,0.02,90,0,0,0,0,0,0,0,0,-0.017,0,0,0,0,90.38,1,-0.017,-0.147,0.0023,0.485,0,0.0023,0,0,0,0,0,0,1,1,0,0,VALID,0,0,0,0,0,1,0,0,0,0,0,0,0,0,0,0,0,0,0,0,312.57,502.06,2,0,0.08,0.08,261,14.29,0.08,0.06,17.58,LANDED,CF1-F,0:/Integrated Flight Computer/aircraft/cf1_f_cfg.ks (inferred preloaded)
17.94,TAKEOFF,TO_GROUND_ROLL,43.19,80,36.81,3.86,-0.22,1.34,1.62,90.24,0.104,1,0,0,0,0,0,0,0,0,0,90.38,0,1,0,-0.29,0,0,0.03,90,0,0,0,0,0,0,0,0,-0.018,0,0,0,0,90.38,1,-0.018,-0.144,0.0023,0.498,0,0.0023,0,0,0,0,0,0,1,1,0,0,VALID,0,0,0,0,0,1,0,0,0,0,0,0,0,0,0,0,0,0,0,0,315.27,501.34,2,0,0.08,0.08,265,14.29,0.08,0.06,17.86,LANDED,CF1-F,0:/Integrated Flight Computer/aircraft/cf1_f_cfg.ks (inferred preloaded)
18.22,TAKEOFF,TO_GROUND_ROLL,44.44,80,35.56,3.86,-0.23,1.36,1.64,90.24,0.104,1,0,0,0,0,0,0,0,0,0,90.38,0,1,0,-0.29,0,0,0.03,90,0,0,0,0,0,0,0,0,-0.019,0,0,0,0,90.38,1,-0.019,-0.142,0.0023,0.512,0,0.0023,0,0,0,0,0,0,1,1,0,0,VALID,0,0,0,0,0,1,0,0,0,0,0,0,0,0,0,0,0,0,0,0,317.91,500.6,2,0,0.08,0.08,269,14.29,0.08,0.06,18.14,LANDED,CF1-F,0:/Integrated Flight Computer/aircraft/cf1_f_cfg.ks (inferred preloaded)
18.5,TAKEOFF,TO_GROUND_ROLL,45.7,80,34.3,3.87,-0.23,1.39,1.67,90.24,0.105,1,0,0,0,0,0,0,0,0,0,90.38,0,1,0,-0.29,0,0,0.03,90,0,0,0,0,0,0,0,0,-0.02,0,0,0,0,90.38,1,-0.02,-0.139,0.0023,0.525,0,0.0023,0,0,0,0,0,0,1,1,0,0,VALID,0,0,0,0,0,1,0,0,0,0,0,0,0,0,0,0,0,0,0,0,320.47,499.84,2,0,0.08,0.08,273,14.29,0.08,0.06,18.42,LANDED,CF1-F,0:/Integrated Flight Computer/aircraft/cf1_f_cfg.ks (inferred preloaded)
18.78,TAKEOFF,TO_GROUND_ROLL,46.97,80,33.03,3.87,-0.24,1.42,1.69,90.24,0.104,1,0,0,0,0,0,0,0,0,0,90.38,0,1,0,-0.29,0,0,0.03,90,0,0,0,0,0,0,0,0,-0.021,0,0,0,0,90.38,1,-0.021,-0.137,0.0024,0.539,0,0.0024,0,0,0,0,0,0,1,1,0,0,VALID,0,0,0,0,0,1,0,0,0,0,0,0,0,0,0,0,0,0,0,0,322.96,499.08,2,0,0.08,0.08,277,14.29,0.08,0.06,18.7,LANDED,CF1-F,0:/Integrated Flight Computer/aircraft/cf1_f_cfg.ks (inferred preloaded)
19.06,TAKEOFF,TO_GROUND_ROLL,48.25,80,31.75,3.88,-0.24,1.45,1.72,90.24,0.103,1,0,0,0,0,0,0,0,0,0,90.38,0,1,0,-0.29,0,0,0.03,90,0,0,0,0,0,0,0,0,-0.022,0,0,0,0,90.38,1,-0.022,-0.134,0.0023,0.553,0,0.0023,0,0,0,0,0,0,1,1,0,0,VALID,0,0,0,0,0,1,0,0,0,0,0,0,0,0,0,0,0,0,0,0,325.39,498.29,2,0,0.08,0.08,281,14.29,0.08,0.06,18.98,LANDED,CF1-F,0:/Integrated Flight Computer/aircraft/cf1_f_cfg.ks (inferred preloaded)
19.34,TAKEOFF,TO_GROUND_ROLL,49.53,80,30.47,3.88,-0.25,1.47,1.74,90.24,0.103,1,0,0,0,0,0,0,0,0,0,90.38,0,1,0,-0.29,0,0,0.03,90,0,0,0,0,0,0,0,0,-0.023,0,0,0,0,90.38,1,-0.023,-0.131,0.0023,0.566,0,0.0023,0,0,0,0,0,0,1,1,0,0,VALID,0,0,0,0,0,1,0,0,0,0,0,0,0,0,0,0,0,0,0,0,327.75,497.5,2,0,0.08,0.08,285,14.29,0.08,0.06,19.26,LANDED,CF1-F,0:/Integrated Flight Computer/aircraft/cf1_f_cfg.ks (inferred preloaded)
19.62,TAKEOFF,TO_GROUND_ROLL,50.82,80,29.18,3.89,-0.25,1.48,1.75,90.25,0.103,1,0,0,0,0,0,0,0,0,0,90.37,0,1,0,-0.29,0,0,0.03,90,0,0,0,0,0,0,0,0,-0.024,0,0,0,0,90.37,1,-0.024,-0.127,0.0023,0.58,0,0.0023,0,0,0,0,0,0,1,1,0,0,VALID,0,0,0,0,0,1,0,0,0,0,0,0,0,0,0,0,0,0,0,0,330.05,496.69,2,0,0.08,0.08,289,14.29,0.08,0.06,19.54,LANDED,CF1-F,0:/Integrated Flight Computer/aircraft/cf1_f_cfg.ks (inferred preloaded)
19.9,TAKEOFF,TO_GROUND_ROLL,52.13,80,27.87,3.89,-0.26,1.5,1.77,90.25,0.103,1,0,0,0,0,0,0,0,0,0,90.37,0,1,0,-0.28,0,0,0.03,90,0,0,0,0,0,0,0,0,-0.026,0,0,0,0,90.37,1,-0.026,-0.124,0.0023,0.594,0,0.0023,0,0,0,0,0,0,1,1,0,0,VALID,0,0,0,0,0,1,0,0,0,0,0,0,0,0,0,0,0,0,0,0,332.28,495.87,2,0,0.08,0.08,293,14.29,0.08,0.06,19.82,LANDED,CF1-F,0:/Integrated Flight Computer/aircraft/cf1_f_cfg.ks (inferred preloaded)
20.18,TAKEOFF,TO_GROUND_ROLL,53.43,80,26.57,3.89,-0.26,1.51,1.78,90.25,0.102,1,0,0,0,0,0,0,0,0,0,90.37,0,1,0,-0.28,0,0,0.04,90,0,0,0,0,0,0,0,0,-0.027,0,0,0,0,90.37,1,-0.027,-0.12,0.0023,0.608,0,0.0023,0,0,0,0,0,0,1,1,0,0,VALID,0,0,0,0,0,1,0,0,0,0,0,0,0,0,0,0,0,0,0,0,334.45,495.04,2,0,0.08,0.08,297,14.29,0.08,0.06,20.1,LANDED,CF1-F,0:/Integrated Flight Computer/aircraft/cf1_f_cfg.ks (inferred preloaded)
20.46,TAKEOFF,TO_GROUND_ROLL,54.75,80,25.25,3.89,-0.27,1.52,1.79,90.25,0.102,1,0,0,0,0,0,0,0,0,0,90.37,0,1,0,-0.28,0,0,0.04,90,0,0,0,0,0,0,0,0,-0.028,0,0,0,0,90.37,1,-0.028,-0.117,0.0022,0.622,0,0.0022,0,0,0,0,0,0,1,1,0,0,VALID,0,0,0,0,0,1,0,0,0,0,0,0,0,0,0,0,0,0,0,0,336.55,494.2,2,0,0.08,0.08,301,14.29,0.08,0.06,20.38,LANDED,CF1-F,0:/Integrated Flight Computer/aircraft/cf1_f_cfg.ks (inferred preloaded)
20.74,TAKEOFF,TO_GROUND_ROLL,56.07,80,23.93,3.9,-0.27,1.54,1.81,90.26,0.101,1,0,0,0,0,0,0,0,0,0,90.37,0,1,0,-0.28,0,0,0.04,90,0,0,0,0,0,0,0,0,-0.03,0,0,0,0,90.37,1,-0.03,-0.112,0.0022,0.636,0,0.0022,0,0,0,0,0,0,1,1,0,0,VALID,0,0,0,0,0,1,0,0,0,0,0,0,0,0,0,0,0,0,0,0,338.59,493.35,2,0,0.08,0.08,305,14.29,0.08,0.06,20.66,LANDED,CF1-F,0:/Integrated Flight Computer/aircraft/cf1_f_cfg.ks (inferred preloaded)
21.02,TAKEOFF,TO_GROUND_ROLL,57.4,80,22.6,3.9,-0.28,1.56,1.83,90.26,0.101,1,0,0,0,0,0,0,0,0,0,90.37,0,1,0,-0.28,0,0,0.04,90,0,0,0,0,0,0,0,0,-0.031,0,0,0,0,90.37,1,-0.031,-0.108,0.0021,0.651,0,0.0021,0,0,0,0,0,0,1,1,0,0,VALID,0,0,0,0,0,1,0,0,0,0,0,0,0,0,0,0,0,0,0,0,340.58,492.48,2,0,0.08,0.08,309,14.29,0.08,0.06,20.94,LANDED,CF1-F,0:/Integrated Flight Computer/aircraft/cf1_f_cfg.ks (inferred preloaded)
21.3,TAKEOFF,TO_GROUND_ROLL,58.73,80,21.27,3.9,-0.28,1.59,1.85,90.26,0.1,1,0,0,0,0,0,0,0,0,0,90.36,0,1,0,-0.27,0,0,0.04,90,0,0,0,0,0,0,0,0,-0.033,0,0,0,0,90.36,1,-0.033,-0.103,0.0021,0.665,0,0.0021,0,0,0,0,0,0,1,1,0,0,VALID,0,0,0,0,0,1,0,0,0,0,0,0,0,0,0,0,0,0,0,0,342.5,491.6,2,0,0.08,0.08,313,14.29,0.08,0.06,21.22,LANDED,CF1-F,0:/Integrated Flight Computer/aircraft/cf1_f_cfg.ks (inferred preloaded)
21.58,TAKEOFF,TO_GROUND_ROLL,60.07,80,19.93,3.91,-0.29,1.61,1.87,90.26,0.1,1,0,0,0,0,0,0,0,0,0,90.36,0,1,0,-0.27,0,0,0.04,90,0,0,0,0,0,0,0,0,-0.034,0,0,0,0,90.36,1,-0.034,-0.098,0.002,0.679,0,0.002,0,0,0,0,0,0,1,1,0,0,VALID,0,0,0,0,0,1,0,0,0,0,0,0,0,0,0,0,0,0,0,0,344.36,490.72,2,0,0.08,0.08,317,14.29,0.08,0.06,21.5,LANDED,CF1-F,0:/Integrated Flight Computer/aircraft/cf1_f_cfg.ks (inferred preloaded)
21.86,TAKEOFF,TO_GROUND_ROLL,61.41,80,18.59,3.91,-0.29,1.62,1.88,90.27,0.099,1,0,0,0,0,0,0,0,0,0,90.36,0,1,0,-0.27,0,0,0.05,90,0,0,0,0,0,0,0,0,-0.036,0,0,0,0,90.36,1,-0.036,-0.094,0.0019,0.694,0,0.0019,0,0,0,0,0,0,1,1,0,0,VALID,0,0,0,0,0,1,0,0,0,0,0,0,0,0,0,0,0,0,0,0,346.17,489.82,2,0,0.08,0.08,321,14.29,0.08,0.06,21.78,LANDED,CF1-F,0:/Integrated Flight Computer/aircraft/cf1_f_cfg.ks (inferred preloaded)
22.14,TAKEOFF,TO_GROUND_ROLL,62.76,80,17.24,3.93,-0.29,1.68,1.99,90.27,0.098,1,0,0,0,0,0,0,0,0,0,90.36,0,1,0,-0.26,0,0,0.05,90,0,0,0,0,0,0,0,0,-0.038,0,0,0,0,90.36,1,-0.038,-0.087,0.0018,0.708,0,0.0018,0,0,0,0,0,0,1,1,0,0,VALID,0,0,0,0,0,1,0,0,0,0,0,0,0,0,0,0,0,0,0,0,347.92,488.92,2,0,0.08,0.08,325,14.29,0.08,0.06,22.06,LANDED,CF1-F,0:/Integrated Flight Computer/aircraft/cf1_f_cfg.ks (inferred preloaded)
22.42,TAKEOFF,TO_GROUND_ROLL,64.11,80,15.89,3.94,-0.3,1.76,2.02,90.28,0.097,1,0,0,0,0,0,0,0,0,0,90.36,0,1,0,-0.27,0,0,0.05,90,0,0,0,0,0,0,0,0,-0.039,0,0,0,0,90.36,1,-0.039,-0.082,0.0017,0.723,0,0.0017,0,0,0,0,0,0,1,1,0,0,VALID,0,0,0,0,0,1,0,0,0,0,0,0,0,0,0,0,0,0,0,0,349.62,488,2,0,0.08,0.08,329,14.29,0.08,0.06,22.34,LANDED,CF1-F,0:/Integrated Flight Computer/aircraft/cf1_f_cfg.ks (inferred preloaded)
22.7,TAKEOFF,TO_GROUND_ROLL,65.47,80,14.53,3.96,-0.28,1.86,2.09,90.28,0.096,1,0,0,0,0,0,0,0,0,0,90.36,0,1,0,-0.25,0,0,0.05,90,0,0,0,0,0,0,0,0,-0.041,0,0,0,0,90.36,1,-0.041,-0.077,0.0016,0.737,0,0.0016,0,0,0,0,0,0,1,1,0,0,VALID,0,0,0,0,0,1,0,0,0,0,0,0,0,0,0,0,0,0,0,0,351.27,487.08,2,0,0.08,0.08,333,14.29,0.08,0.06,22.62,LANDED,CF1-F,0:/Integrated Flight Computer/aircraft/cf1_f_cfg.ks (inferred preloaded)
22.98,TAKEOFF,TO_GROUND_ROLL,66.83,80,13.17,3.99,-0.3,2.01,2.25,90.28,0.094,1,0,0,0,0,0,0,0,0,0,90.35,0,1,0,-0.26,0,0,0.05,90,0,0,0,0,0,0,0,0,-0.043,0,0,0,0,90.35,1,-0.043,-0.071,0.0015,0.752,0,0.0015,0,0,0,0,0,0,1,1,0,0,VALID,0,0,0,0,0,1,0,0,0,0,0,0,0,0,0,0,0,0,0,0,352.86,486.15,2,0,0.08,0.08,337,14.29,0.08,0.06,22.9,LANDED,CF1-F,0:/Integrated Flight Computer/aircraft/cf1_f_cfg.ks (inferred preloaded)
23.26,TAKEOFF,TO_GROUND_ROLL,68.19,80,11.81,4.06,-0.16,2.19,2.27,90.29,0.095,1,0,0,0,0,0,0,0,0,0,90.35,0,1,0,-0.14,0,0,0.05,90,0,0,0,0,0,0,0,0,-0.045,0,0,0,0,90.35,1,-0.045,-0.065,0.0014,0.766,0,0.0014,0,0,0,0,0,0,1,1,0,0,VALID,0,0,0,0,0,1,0,0,0,0,0,0,0,0,0,0,0,0,0,0,354.4,485.21,2,0,0.08,0.08,341,14.29,0.08,0.06,23.18,LANDED,CF1-F,0:/Integrated Flight Computer/aircraft/cf1_f_cfg.ks (inferred preloaded)
23.54,TAKEOFF,TO_GROUND_ROLL,69.55,80,10.45,4.11,-0.3,2.55,2.8,90.29,0.095,1,0,0,0,0,0,0,0,0,0,90.35,0,1,0,-0.25,0,0,0.06,90,0,0,0,0,0,0,0,0,-0.047,0,0,0,0,90.35,1,-0.047,-0.059,0.0013,0.781,0,0.0013,0,0,0,0,0,0,1,1,0,0,VALID,0,0,0,0,0,1,0,0,0,0,0,0,0,0,0,0,0,0,0,0,355.89,484.28,2,0,0.08,0.08,345,14.29,0.08,0.06,23.46,LANDED,CF1-F,0:/Integrated Flight Computer/aircraft/cf1_f_cfg.ks (inferred preloaded)
23.84,TAKEOFF,TO_ROTATE,71,80,9,4.21,-0.35,2.95,3.21,90.3,0.097,1,0,0,0,0,0,0,0,0,0,90.35,3.155,1,0,-0.26,0,0,0.06,90,0,0,0,0,0,0,0,0,-0.049,0,0,0,0,90.35,1,-0.049,-0.053,0.0012,0.795,0,0.0012,0,0.12,3.155,0.201,0.08,0,1,1,0,0,VALID,0,0,0,0,0,1,0,0,0,0,0,0,0,0,0,0,0,0,0,0,357.43,483.27,2,0,0.08,0.08,349,13.33,0.08,0.06,23.74,LANDED,CF1-F,0:/Integrated Flight Computer/aircraft/cf1_f_cfg.ks (inferred preloaded)
24.12,TAKEOFF,TO_ROTATE,72.35,80,7.65,4.31,-0.22,3.53,3.7,90.3,0.095,1,0,0,0,0,0,0,0,0,0,90.35,3.995,1,0,-0.18,0,0,0.06,90,0,0,0,0,0,0,0,0,-0.051,0,0,0,0,90.35,1,-0.051,-0.046,0.001,0.81,0,0.001,0,0.12,3.995,0.468,0.08,0,1,1,0,0,VALID,0,0,0,0,0,1,0,0,0,0,0,0,0,0,0,0,0,0,0,0,358.83,482.33,2,0,0.08,0.08,353,14.29,0.08,0.06,24.02,LANDED,CF1-F,0:/Integrated Flight Computer/aircraft/cf1_f_cfg.ks (inferred preloaded)
24.42,TAKEOFF,TO_ROTATE,73.78,80,6.22,4.47,-0.31,4.34,4.57,90.3,0.091,1,0,0,0,0,0,0,0,0,0,90.34,4.895,1,0,-0.24,0,0,0.06,90,0,0,0,0,0,0,0,0,-0.053,0,0,0,0,90.34,1,-0.053,-0.04,0.0009,0.825,0,0.0009,0,0.1243,4.895,0.554,0.08,0,1,1,0,0,VALID,0,0,0,0,0,1,0,0,0,0,0,0,0,0,0,0,0,0,0,0,360.29,481.33,2,0,0.08,0.08,357,13.33,0.08,0.06,24.32,LANDED,CF1-F,0:/Integrated Flight Computer/aircraft/cf1_f_cfg.ks (inferred preloaded)
24.7,TAKEOFF,TO_ROTATE,75.08,80,4.92,4.66,-0.25,5.3,5.48,90.31,0.089,1,0,0,0,0,0,0,0,0,0,90.34,5.735,1,0,-0.19,0,0,0.07,90,0,0,0,0,0,0,0,0,-0.056,0,0,0,0,90.34,1,-0.056,-0.034,0.0008,0.839,0,0.0008,0,0.12,5.735,0.436,0.08,0,1,1,0,0,VALID,0,0,0,0,0,1,0,0,0,0,0,0,0,0,0,0,0,0,0,0,361.62,480.41,2,0,0.08,0.08,361,14.29,0.08,0.06,24.6,LANDED,CF1-F,0:/Integrated Flight Computer/aircraft/cf1_f_cfg.ks (inferred preloaded)
24.98,TAKEOFF,TO_ROTATE,76.35,80,3.65,4.86,-0.27,6.41,6.6,90.31,0.086,1,0,0,0,0,0,0,0,0,0,90.34,6.575,1,0,-0.2,0,0,0.07,90,0,0,0,0,0,0,0,0,-0.058,0,0,0,0,90.34,1,-0.058,-0.027,0.0006,0.853,0,0.0006,0,0.12,6.575,0.168,0.08,0,1,1,0,0,VALID,0,0,0,0,0,1,0,0,0,0,0,0,0,0,0,0,0,0,0,0,362.92,479.52,2,0,0.08,0.08,365,14.29,0.08,0.06,24.88,LANDED,CF1-F,0:/Integrated Flight Computer/aircraft/cf1_f_cfg.ks (inferred preloaded)
25.26,TAKEOFF,TO_ROTATE,77.56,80,2.44,5.09,-0.28,7.58,7.77,90.32,0.084,1,0,0,0,0,0,0,0,0,0,90.34,7.415,1,0,-0.2,0,0,0.07,90,0,0,0,0,0,0,0,0,-0.06,0,0,0,0,90.34,1,-0.06,-0.022,0.0005,0.866,0,0.0005,0,0.067,7.415,-0.163,0.08,0,1,1,0,0,VALID,0,0,0,0,0,1,0,0,0,0,0,0,0,0,0,0,0,0,0,0,364.21,478.66,2,0,0.08,0.08,369,14.29,0.08,0.06,25.16,LANDED,CF1-F,0:/Integrated Flight Computer/aircraft/cf1_f_cfg.ks (inferred preloaded)
25.54,TAKEOFF,TO_ROTATE,78.7,80,1.3,5.3,-0.16,8.69,8.82,90.32,0.066,1,0,0,0,0,0,0,0,0,0,90.34,8.255,1,0,-0.13,0,0,0.07,90,0,0,0,0,0,0,0,0,-0.063,0,0,0,0,90.34,1,-0.063,-0.021,0.0005,0.878,0,0.0005,0,0.045,8.255,-0.437,0.08,0,1,1,0,0,VALID,0,0,0,0,0,1,0,0,0,0,0,0,0,0,0,0,0,0,0,0,365.5,477.85,2,0,0.08,0.08,373,14.29,0.08,0.06,25.44,LANDED,CF1-F,0:/Integrated Flight Computer/aircraft/cf1_f_cfg.ks (inferred preloaded)
25.8,TAKEOFF,TO_ROTATE,79.7,80,0.3,5.53,0.27,9.5,9.3,90.32,0.043,1,0,0,0,0,0,0,0,0,0,90.4,9.095,0,1,0.2,0,0,18.09,90.4,-0.9663,-0.0064,0.2573,18.4,90.4,0,0,0,0,0,0,0,0,90.4,1,0,-0.085,0,0,3,0,0,0,9.095,-0.402,0,0,1,1,0,0,VALID,0,0,0,0,0,1,0,0,0,0,0,0,0,0,0,0,0,0,0,0,366.69,477.13,2,0,0.08,0.08,377,15.38,0.08,0.06,25.7,FLYING,CF1-F,0:/Integrated Flight Computer/aircraft/cf1_f_cfg.ks (inferred preloaded)
26.08,TAKEOFF,TO_ROTATE,80.73,80,-0.73,5.81,0.83,9.68,9.13,90.32,0.042,1,0,0,0,0,0,0,0,0,0,90.4,9.935,0,1,0.59,0,0,18.9,90.4,-0.9633,-0.0064,0.2685,19.07,90.4,0,0,0,0,0,0,0,0,90.4,1,0,-0.084,0,0,3,0,0,0,9.935,0.257,0,0,1,1,0,0,VALID,0,0,0,0,0,1,0,0,0,0,0,0,0,0,0,0,0,0,0,0,367.95,476.39,2,0,0.08,0.08,381,14.29,0.08,0.06,25.98,FLYING,CF1-F,0:/Integrated Flight Computer/aircraft/cf1_f_cfg.ks (inferred preloaded)
26.36,TAKEOFF,TO_ROTATE,81.76,80,-1.76,6.22,1.36,9.69,8.79,90.32,0.041,1,0,0,0,0,0,0,0,0,0,90.4,10,0,1,0.95,0,0,18.89,90.4,-0.9645,-0.0064,0.2638,18.79,90.4,0,0,0,0,0,0,0,0,90.4,1,0,-0.084,0,0,3,0,0,0,10,0.314,0,0,1,1,0,0,VALID,0,0,0,0,0,1,0,0,0,0,0,0,0,0,0,0,0,0,0,0,369.17,475.63,2,0,0.08,0.08,385,14.29,0.08,0.06,26.26,FLYING,CF1-F,0:/Integrated Flight Computer/aircraft/cf1_f_cfg.ks (inferred preloaded)
26.64,TAKEOFF,TO_CLIMB,82.78,80,-2.78,6.79,1.88,9.77,8.54,90.32,0.038,0.9722,0,0,0,0,0,0,0,0,0,90.4,9.497,0,1,1.3,0,0,18.23,90.4,-0.9679,-0.0064,0.2511,18.04,90.4,0,0,0,0,0,0,0,0,90.4,1,0,-0.083,0,0,3,0,0,0,10,0.279,0,0,1,1,0,0,VALID,0,0,0,0,0,1,0,0,0,0,0,0,0,0,0,0,0,0,0,0,370.33,474.86,2,0,0.08,0.08,389,14.29,0.08,0.06,26.54,FLYING,CF1-F,0:/Integrated Flight Computer/aircraft/cf1_f_cfg.ks (inferred preloaded)
26.92,TAKEOFF,TO_CLIMB,83.8,80,-3.8,7.55,2.34,10.15,8.57,90.32,0.039,0.962,0,0,0,0,0,0,0,0,0,90.4,9.049,0,1,1.6,0,0,17.64,90.4,-0.9698,-0.0064,0.244,17.62,90.4,0,0,0,0,0,0,0,0,90.4,1,0,-0.082,0,0,3,0,0,0,10,0.279,0,0,1,1,0,0,VALID,0,0,0,0,0,1,0,0,0,0,0,0,0,0,0,0,0,0,0,0,371.23,474.09,2,0,0.08,0.08,393,14.29,0.08,0.06,26.82,FLYING,CF1-F,0:/Integrated Flight Computer/aircraft/cf1_f_cfg.ks (inferred preloaded)
27.2,TAKEOFF,TO_CLIMB,84.79,80,-4.79,8.56,3.08,11.13,9.11,90.32,0.042,0.9521,0,0,0,0,0,0,0,0,0,90.4,8.601,0,1,2.08,0,0,17.74,90.4,-0.9694,-0.0064,0.2455,17.71,90.4,0,0,0,0,0,0,0,0,90.4,1,0,-0.081,0,0,3,0,0,0,10,0.279,0,0,1,1,0,0,VALID,0,0,0,0,0,1,0,0,0,0,0,0,0,0,0,0,0,0,0,0,372.02,473.33,2,0,0.08,0.08,397,14.29,0.08,0.06,27.1,FLYING,CF1-F,0:/Integrated Flight Computer/aircraft/cf1_f_cfg.ks (inferred preloaded)
27.48,TAKEOFF,TO_CLIMB,85.71,80,-5.71,9.74,4.02,11.6,9.02,90.32,0.041,0.9429,0,0,0,0,0,0,0,0,0,90.4,8.153,0,1,2.68,0,0,17.37,90.4,-0.9716,-0.0065,0.2364,17.18,90.4,0,0,0,0,0,0,0,0,90.4,1,0,-0.08,0,0,3,0,0,0,10,0.279,0,0,1,1,0,0,VALID,0,0,0,0,0,1,0,0,0,0,0,0,0,0,0,0,0,0,0,0,372.74,472.6,2,0,0.08,0.08,401,14.29,0.08,0.06,27.38,FLYING,CF1-F,0:/Integrated Flight Computer/aircraft/cf1_f_cfg.ks (inferred preloaded)
27.76,TAKEOFF,TO_CLIMB,86.61,80,-6.61,11.14,4.92,11.84,8.71,90.32,0.04,0.9339,0,0,0,0,0,0,0,0,0,90.4,8,0,1,3.25,0,0,16.8,90.4,-0.9735,-0.0065,0.2285,16.71,90.4,0,0,0,0,0,0,0,0,90.4,1,0,-0.08,0,0,3,0,0,0,10,0.279,0,0,1,1,0,0,VALID,0,0,0,0,0,1,0,0,0,0,0,0,0,0,0,0,0,0,0,0,373.36,471.87,2,0,0.08,0.08,405,14.29,0.08,0.06,27.66,FLYING,CF1-F,0:/Integrated Flight Computer/aircraft/cf1_f_cfg.ks (inferred preloaded)
28.04,TAKEOFF,TO_CLIMB,87.49,80,-7.49,12.79,5.81,12.09,8.44,90.32,0.04,0.9251,0,0,0,0,0,0,0,0,0,90.4,8,0,1,3.8,0,0,16.51,90.4,-0.9746,-0.0065,0.2237,16.44,90.4,0,0,0,0,0,0,0,0,90.4,1,0,-0.079,0,0,3,0,0,0,10,0.279,0,0,1,1,0,0,VALID,0,0,0,0,0,1,0,0,0,0,0,0,0,0,0,0,0,0,0,0,373.88,471.13,2,0,0.08,0.08,409,14.29,0.08,0.06,27.94,FLYING,CF1-F,0:/Integrated Flight Computer/aircraft/cf1_f_cfg.ks (inferred preloaded)
28.32,TAKEOFF,TO_CLIMB,88.37,80,-8.37,14.65,6.69,12.41,8.23,90.32,0.04,0.9163,0,0,0,0,0,0,0,0,0,90.4,8,0,1,4.33,0,0,16.28,90.4,-0.9754,-0.0065,0.2203,16.23,90.4,0,0,0,0,0,0,0,0,90.4,1,0,-0.079,0,0,3,0,0,0,10,0.279,0,0,1,1,0,0,VALID,0,0,0,0,0,1,0,0,0,0,0,0,0,0,0,0,0,0,0,0,374.31,470.38,2,0,0.08,0.08,413,14.29,0.08,0.06,28.22,FLYING,CF1-F,0:/Integrated Flight Computer/aircraft/cf1_f_cfg.ks (inferred preloaded)
28.6,TAKEOFF,TO_CLIMB,89.22,80,-9.22,16.8,7.61,12.72,8.02,90.32,0.04,0.9078,0,0,0,0,0,0,0,0,0,90.4,8,0,1,4.87,0,0,16.09,90.4,-0.9762,-0.0065,0.2166,16.02,90.4,0,0,0,0,0,0,0,0,90.4,1,0,-0.079,0,0,3,0,0,0,10,0.279,0,0,1,1,0,0,VALID,0,0,0,0,0,1,0,0,0,0,0,0,0,0,0,0,0,0,0,0,374.64,469.63,2,0,0.08,0.08,417,14.29,0.08,0.06,28.5,FLYING,CF1-F,0:/Integrated Flight Computer/aircraft/cf1_f_cfg.ks (inferred preloaded)
28.88,TAKEOFF,TO_CLIMB,90.06,80,-10.06,19.21,8.54,12.97,7.75,90.32,0.043,0.8994,0,0,0,0,0,0,0,0,0,90.4,8,0,1,5.41,0,0,15.85,90.4,-0.9773,-0.0065,0.212,15.75,90.4,0,0,0,0,0,0,0,0,90.4,1,0,-0.078,0,0,3,0,0,0,10,0.279,0,0,1,1,0,0,VALID,0,0,0,0,0,1,0,0,0,0,0,0,0,0,0,0,0,0,0,0,374.88,468.88,2,0,0.08,0.08,421,14.29,0.08,0.06,28.78,FLYING,CF1-F,0:/Integrated Flight Computer/aircraft/cf1_f_cfg.ks (inferred preloaded)
29.16,TAKEOFF,TO_CLIMB,90.88,80,-10.88,21.8,9.42,12.78,7.08,90.32,0.049,0.8912,0,0,0,0,0,0,0,0,0,90.4,8,0,1,5.92,0,0,15.28,90.4,-0.9797,-0.0065,0.2005,15.08,90.4,0,0,0,0,0,0,0,0,90.4,1,0,-0.077,0,0,3,0,0,0,10,0.279,0,0,1,1,0,0,VALID,0,0,0,0,0,1,0,0,0,0,0,0,0,0,0,0,0,0,0,0,375.04,468.11,2,0,0.08,0.08,425,14.29,0.08,0.06,29.06,FLYING,CF1-F,0:/Integrated Flight Computer/aircraft/cf1_f_cfg.ks (inferred preloaded)
29.44,TAKEOFF,TO_CLIMB,91.73,80,-11.73,24.63,10.11,12.73,6.65,90.32,0.054,0.8827,0,0,0,0,0,0,0,0,0,90.4,8,0,1,6.29,0,0,14.75,90.4,-0.9812,-0.0066,0.193,14.65,90.4,0,0,0,0,0,0,0,0,90.4,1,0,-0.075,0,0,3,0,0,0,10,0.279,0,0,1,1,0,0,VALID,0,0,0,0,0,1,0,0,0,0,0,0,0,0,0,0,0,0,0,0,375.09,467.32,2,0,0.08,0.08,429,14.29,0.08,0.06,29.34,FLYING,CF1-F,0:/Integrated Flight Computer/aircraft/cf1_f_cfg.ks (inferred preloaded)
29.72,TAKEOFF,TO_CLIMB,92.58,80,-12.58,27.66,10.78,12.79,6.36,90.33,0.059,0.8742,0,0,0,0,0,0,0,0,0,90.4,8,0,1,6.64,0,0,14.44,90.4,-0.9822,-0.0066,0.188,14.36,90.4,0,0,0,0,0,0,0,0,90.4,1,0,-0.074,0,0,3,0,0,0,10,0.279,0,0,1,1,0,0,VALID,0,0,0,0,0,1,0,0,0,0,0,0,0,0,0,0,0,0,0,0,375.06,466.52,2,0,0.08,0.08,433,14.29,0.08,0.06,29.62,FLYING,CF1-F,0:/Integrated Flight Computer/aircraft/cf1_f_cfg.ks (inferred preloaded)
30,TAKEOFF,TO_CLIMB,93.42,80,-13.42,30.88,11.43,12.86,6.09,90.33,0.063,0.8658,0,0,0,0,0,0,0,0,0,90.4,8,0,1,6.98,0,0,14.17,90.4,-0.983,-0.0066,0.1834,14.09,90.4,0,0,0,0,0,0,0,0,90.4,1,0,-0.072,0,0,3,0,0,0,10,0.279,0,0,1,1,0,0,VALID,0,0,0,0,0,1,0,0,0,0,0,0,0,0,0,0,0,0,0,0,374.93,465.7,2,0,0.08,0.08,437,14.29,0.08,0.06,29.9,FLYING,CF1-F,0:/Integrated Flight Computer/aircraft/cf1_f_cfg.ks (inferred preloaded)
30.28,TAKEOFF,TO_CLIMB,94.25,80,-14.25,34.28,12.06,12.92,5.84,90.33,0.066,0.8575,0,0,0,0,0,0,0,0,0,90.4,8,0,1,7.29,0,0,13.91,90.4,-0.9838,-0.0066,0.179,13.84,90.4,0,0,0,0,0,0,0,0,90.4,1,0,-0.071,0,0,3,0,0,0,10,0.279,0,0,1,1,0,0,VALID,0,0,0,0,0,1,0,0,0,0,0,0,0,0,0,0,0,0,0,0,374.73,464.88,2,0,0.08,0.08,441,14.29,0.08,0.06,30.18,FLYING,CF1-F,0:/Integrated Flight Computer/aircraft/cf1_f_cfg.ks (inferred preloaded)
30.56,TAKEOFF,TO_CLIMB,95.09,80,-15.09,37.85,12.64,12.99,5.62,90.33,0.068,0.8491,0,0,0,0,0,0,0,0,0,90.4,8,0,1,7.57,0,0,13.68,90.4,-0.9845,-0.0066,0.1753,13.62,90.4,0,0,0,0,0,0,0,0,90.4,1,0,-0.069,0,0,3,0,0,0,10,0.279,0,0,1,1,0,0,VALID,0,0,0,0,0,1,0,0,0,0,0,0,0,0,0,0,0,0,0,0,374.45,464.06,2,0,0.08,0.08,445,14.29,0.08,0.06,30.46,FLYING,CF1-F,0:/Integrated Flight Computer/aircraft/cf1_f_cfg.ks (inferred preloaded)
30.84,TAKEOFF,TO_CLIMB,95.91,80,-15.91,41.58,13.22,13.05,5.42,90.33,0.07,0.8409,0,0,0,0,0,0,0,0,0,90.4,8,0,1,7.85,0,0,13.48,90.4,-0.9851,-0.0066,0.1717,13.42,90.4,0,0,0,0,0,0,0,0,90.4,1,0,-0.067,0,0,3,0,0,0,10,0.279,0,0,1,1,0,0,VALID,0,0,0,0,0,1,0,0,0,0,0,0,0,0,0,0,0,0,0,0,374.09,463.22,2,0,0.08,0.08,449,14.29,0.08,0.06,30.74,FLYING,CF1-F,0:/Integrated Flight Computer/aircraft/cf1_f_cfg.ks (inferred preloaded)
31.12,TAKEOFF,TO_CLIMB,96.73,80,-16.73,45.46,13.78,13.09,5.2,90.33,0.072,0.8327,0,0,0,0,0,0,0,0,0,90.4,8,0,1,8.11,0,0,13.27,90.4,-0.9858,-0.0066,0.1679,13.2,90.4,0,0,0,0,0,0,0,0,90.4,1,0,-0.066,0,0,3,0,0,0,10,0.279,0,0,1,1,0,0,VALID,0,0,0,0,0,1,0,0,0,0,0,0,0,0,0,0,0,0,0,0,373.65,462.38,2,0,0.08,0.08,453,14.29,0.08,0.06,31.02,FLYING,CF1-F,0:/Integrated Flight Computer/aircraft/cf1_f_cfg.ks (inferred preloaded)
31.4,TAKEOFF,TO_CLIMB,97.54,80,-17.54,49.5,14.32,13.11,4.98,90.34,0.075,0.8246,0,0,0,0,0,0,0,0,0,90.4,8,0,1,8.35,0,0,13.04,90.4,-0.9864,-0.0066,0.1641,12.98,90.4,0,0,0,0,0,0,0,0,90.4,1,0,-0.064,0,0,3,0,0,0,10,0.279,0,0,1,1,0,0,VALID,0,0,0,0,0,1,0,0,0,0,0,0,0,0,0,0,0,0,0,0,373.15,461.54,2,0,0.08,0.08,457,14.29,0.08,0.06,31.3,FLYING,CF1-F,0:/Integrated Flight Computer/aircraft/cf1_f_cfg.ks (inferred preloaded)
31.68,TAKEOFF,TO_CLIMB,98.35,80,-18.35,53.67,14.82,13.12,4.77,90.34,0.076,0.8165,0,0,0,0,0,0,0,0,0,90.4,8,0,1,8.57,0,0,12.83,90.4,-0.987,-0.0066,0.1604,12.77,90.4,0,0,0,0,0,0,0,0,90.4,1,0,-0.062,0,0,3,0,0,0,10,0.279,0,0,1,1,0,0,VALID,0,0,0,0,0,1,0,0,0,0,0,0,0,0,0,0,0,0,0,0,372.57,460.69,2,0,0.08,0.08,461,14.29,0.08,0.06,31.58,FLYING,CF1-F,0:/Integrated Flight Computer/aircraft/cf1_f_cfg.ks (inferred preloaded)
31.96,TAKEOFF,TO_CLIMB,99.15,80,-19.15,57.99,15.3,13.12,4.57,90.34,0.077,0.8085,0,0,0,0,0,0,0,0,0,90.4,8,0,1,8.77,0,0,12.63,90.4,-0.9876,-0.0067,0.1569,12.57,90.4,0,0,0,0,0,0,0,0,90.4,1,0,-0.06,0,0,3,0,0,0,10,0.279,0,0,1,1,0,0,VALID,0,0,0,0,0,1,0,0,0,0,0,0,0,0,0,0,0,0,0,0,371.93,459.84,2,0,0.08,0.08,465,14.29,0.08,0.06,31.86,FLYING,CF1-F,0:/Integrated Flight Computer/aircraft/cf1_f_cfg.ks (inferred preloaded)
32.24,TAKEOFF,TO_CLIMB,99.95,80,-19.95,62.43,15.76,13.11,4.36,90.34,0.079,0.8005,0,0,0,0,0,0,0,0,0,90.4,8,0,1,8.96,0,0,12.42,90.4,-0.9882,-0.0067,0.1533,12.36,90.4,0,0,0,0,0,0,0,0,90.4,1,0,-0.058,0,0,3,0,0,0,10,0.279,0,0,1,1,0,0,VALID,0,0,0,0,0,1,0,0,0,0,0,0,0,0,0,0,0,0,0,0,371.16,458.98,2,0,0.08,0.08,469,14.29,0.08,0.06,32.14,FLYING,CF1-F,0:/Integrated Flight Computer/aircraft/cf1_f_cfg.ks (inferred preloaded)
32.52,TAKEOFF,TO_CLIMB,100.74,80,-20.74,66.99,16.19,13.1,4.18,90.34,0.08,0.7926,0,0,0,0,0,0,0,0,0,90.4,8,0,1,9.13,0,0,12.24,90.4,-0.9886,-0.0067,0.1501,12.18,90.4,0,0,0,0,0,0,0,0,90.4,1,0,-0.056,0,0,3,0,0,0,10,0.279,0,0,1,1,0,0,VALID,0,0,0,0,0,1,0,0,0,0,0,0,0,0,0,0,0,0,0,0,370.16,458.12,2,0,0.08,0.08,473,14.29,0.08,0.06,32.42,FLYING,CF1-F,0:/Integrated Flight Computer/aircraft/cf1_f_cfg.ks (inferred preloaded)
32.8,TAKEOFF,TO_CLIMB,101.53,80,-21.53,71.67,16.6,13.08,4.01,90.35,0.081,0.7847,0,0,0,0,0,0,0,0,0,90.4,8,0,1,9.29,0,0,12.06,90.4,-0.9891,-0.0067,0.147,12.01,90.4,0,0,0,0,0,0,0,0,90.4,1,0,-0.053,0,0,3,0,0,0,10,0.279,0,0,1,1,0,0,VALID,0,0,0,0,0,1,0,0,0,0,0,0,0,0,0,0,0,0,0,0,368.93,457.26,2,0,0.08,0.08,477,14.29,0.08,0.06,32.7,FLYING,CF1-F,0:/Integrated Flight Computer/aircraft/cf1_f_cfg.ks (inferred preloaded)
33.08,TAKEOFF,TO_CLIMB,102.31,80,-22.31,76.46,16.99,13.05,3.84,90.35,0.082,0.78,0,0,0,0,0,0,0,0,0,90.4,8,0,1,9.43,0,0,11.89,90.4,-0.9895,-0.0067,0.1442,11.84,90.4,0,0,0,0,0,0,0,0,90.4,1,0,-0.051,0,0,3,0,0,0,10,0.279,0,0,1,1,0,0,VALID,0,0,0,0,0,1,0,0,0,0,0,0,0,0,0,0,0,0,0,0,367.5,456.4,2,0,0.08,0.08,481,14.29,0.08,0.06,32.98,FLYING,CF1-F,0:/Integrated Flight Computer/aircraft/cf1_f_cfg.ks (inferred preloaded)
33.36,TAKEOFF,TO_CLIMB,103.08,80,-23.08,81.36,17.35,13.02,3.68,90.35,0.082,0.78,0,0,0,0,0,0,0,0,0,90.4,8,0,1,9.56,0,0,11.73,90.4,-0.9899,-0.0067,0.1414,11.68,90.4,0,0,0,0,0,0,0,0,90.4,1,0,-0.049,0,0,3,0,0,0,10,0.279,0,0,1,1,0,0,VALID,0,0,0,0,0,1,0,0,0,0,0,0,0,0,0,0,0,0,0,0,366.03,455.54,2,0,0.08,0.08,485,14.29,0.08,0.06,33.26,FLYING,CF1-F,0:/Integrated Flight Computer/aircraft/cf1_f_cfg.ks (inferred preloaded)
33.64,TAKEOFF,TO_CLIMB,103.84,80,-23.84,86.35,17.7,12.99,3.54,90.35,0.083,0.78,0,0,0,0,0,0,0,0,0,90.4,8,0,1,9.67,0,0,11.58,90.4,-0.9903,-0.0067,0.1388,11.54,90.4,0,0,0,0,0,0,0,0,90.4,1,0,-0.047,0,0,3,0,0,0,10,0.279,0,0,1,1,0,0,VALID,0,0,0,0,0,1,0,0,0,0,0,0,0,0,0,0,0,0,0,0,364.62,454.68,2,0,0.08,0.08,489,14.29,0.08,0.06,33.54,FLYING,CF1-F,0:/Integrated Flight Computer/aircraft/cf1_f_cfg.ks (inferred preloaded)
33.92,TAKEOFF,TO_CLIMB,104.6,80,-24.6,91.43,18.02,12.95,3.39,90.36,0.083,0.78,0,0,0,0,0,0,0,0,0,90.4,8,0,1,9.78,0,0,11.43,90.4,-0.9907,-0.0067,0.1362,11.39,90.4,0,0,0,0,0,0,0,0,90.4,1,0,-0.045,0,0,3,0,0,0,10,0.279,0,0,1,1,0,0,VALID,0,0,0,0,0,1,0,0,0,0,0,0,0,0,0,0,0,0,0,0,363.26,453.82,2,0,0.08,0.08,493,14.29,0.08,0.06,33.82,FLYING,CF1-F,0:/Integrated Flight Computer/aircraft/cf1_f_cfg.ks (inferred preloaded)
34.2,TAKEOFF,TO_CLIMB,105.35,80,-25.35,96.6,18.33,12.9,3.25,90.36,0.084,0.78,0,0,0,0,0,0,0,0,0,90.4,8,0,1,9.87,0,0,11.29,90.4,-0.991,-0.0067,0.1337,11.25,90.4,0,0,0,0,0,0,0,0,90.4,1,0,-0.043,0,0,3,0,0,0,10,0.279,0,0,1,1,0,0,VALID,0,0,0,0,0,1,0,0,0,0,0,0,0,0,0,0,0,0,0,0,361.95,452.96,2,0,0.08,0.08,497,14.29,0.08,0.06,34.1,FLYING,CF1-F,0:/Integrated Flight Computer/aircraft/cf1_f_cfg.ks (inferred preloaded)
34.48,TAKEOFF,TO_CLIMB,106.09,80,-26.09,101.85,18.61,12.85,3.12,90.36,0.084,0.78,0,0,0,0,0,0,0,0,0,90.4,8,0,1,9.95,0,0,11.16,90.4,-0.9913,-0.0067,0.1314,11.12,90.4,0,0,0,0,0,0,0,0,90.4,1,0,-0.041,0,0,3,0,0,0,10,0.279,0,0,1,1,0,0,VALID,0,0,0,0,0,1,0,0,0,0,0,0,0,0,0,0,0,0,0,0,360.68,452.1,2,0,0.08,0.08,501,14.29,0.08,0.06,34.38,FLYING,CF1-F,0:/Integrated Flight Computer/aircraft/cf1_f_cfg.ks (inferred preloaded)
34.76,TAKEOFF,TO_CLIMB,106.83,80,-26.83,107.17,18.88,12.8,2.99,90.36,0.084,0.78,0,0,0,0,0,0,0,0,0,90.4,8,0,1,10.02,0,0,11.03,90.4,-0.9916,-0.0067,0.1292,10.99,90.4,0,0,0,0,0,0,0,0,90.4,1,0,-0.039,0,0,3,0,0,0,10,0.279,0,0,1,1,0,0,VALID,0,0,0,0,0,1,0,0,0,0,0,0,0,0,0,0,0,0,0,0,359.45,451.24,2,0,0.08,0.08,505,14.29,0.08,0.06,34.66,FLYING,CF1-F,0:/Integrated Flight Computer/aircraft/cf1_f_cfg.ks (inferred preloaded)
35.04,TAKEOFF,TO_CLIMB,107.56,80,-27.56,112.57,19.13,12.75,2.88,90.36,0.084,0.78,0,0,0,0,0,0,0,0,0,90.4,8,0,1,10.09,0,0,10.91,90.4,-0.9919,-0.0067,0.1271,10.88,90.4,0,0,0,0,0,0,0,0,90.4,1,0,-0.037,0,0,3,0,0,0,10,0.279,0,0,1,1,0,0,VALID,0,0,0,0,0,1,0,0,0,0,0,0,0,0,0,0,0,0,0,0,358.27,450.38,2,0,0.08,0.08,509,14.29,0.08,0.06,34.94,FLYING,CF1-F,0:/Integrated Flight Computer/aircraft/cf1_f_cfg.ks (inferred preloaded)
35.32,TAKEOFF,TO_CLIMB,108.29,80,-28.29,118.03,19.37,12.69,2.77,90.37,0.084,0.78,0,0,0,0,0,0,0,0,0,90.4,8,0,1,10.14,0,0,10.8,90.4,-0.9921,-0.0067,0.1252,10.77,90.4,0,0,0,0,0,0,0,0,90.4,1,0,-0.035,0,0,3,0,0,0,10,0.279,0,0,1,1,0,0,VALID,0,0,0,0,0,1,0,0,0,0,0,0,0,0,0,0,0,0,0,0,357.12,449.53,2,0,0.08,0.08,513,14.29,0.08,0.06,35.22,FLYING,CF1-F,0:/Integrated Flight Computer/aircraft/cf1_f_cfg.ks (inferred preloaded)
35.6,TAKEOFF,TO_CLIMB,109.01,80,-29.01,123.55,19.6,12.63,2.66,90.37,0.083,0.78,0,0,0,0,0,0,0,0,0,90.4,8,0,1,10.19,0,0,10.69,90.4,-0.9924,-0.0067,0.1232,10.66,90.4,0,0,0,0,0,0,0,0,90.4,1,0,-0.033,0,0,3,0,0,0,10,0.279,0,0,1,1,0,0,VALID,0,0,0,0,0,1,0,0,0,0,0,0,0,0,0,0,0,0,0,0,356,448.67,2,0,0.08,0.08,517,14.29,0.08,0.06,35.5,FLYING,CF1-F,0:/Integrated Flight Computer/aircraft/cf1_f_cfg.ks (inferred preloaded)
35.88,TAKEOFF,TO_CLIMB,109.73,80,-29.73,129.14,19.81,12.57,2.55,90.37,0.083,0.78,0,0,0,0,0,0,0,0,0,90.4,8,0,1,10.23,0,0,10.58,90.4,-0.9926,-0.0067,0.1213,10.55,90.4,0,0,0,0,0,0,0,0,90.4,1,0,-0.031,0,0,3,0,0,0,10,0.279,0,0,1,1,0,0,VALID,0,0,0,0,0,1,0,0,0,0,0,0,0,0,0,0,0,0,0,0,354.92,447.82,2,0,0.08,0.08,521,14.29,0.08,0.06,35.78,FLYING,CF1-F,0:/Integrated Flight Computer/aircraft/cf1_f_cfg.ks (inferred preloaded)
36.16,TAKEOFF,TO_CLIMB,110.44,80,-30.44,134.77,20,12.48,2.43,90.37,0.079,0.78,0,0,0,0,0,0,0,0,0,90.4,8,0,1,10.27,0,0,10.47,90.4,-0.9929,-0.0067,0.1192,10.43,90.4,0,0,0,0,0,0,0,0,90.4,1,0,-0.029,0,0,3,0,0,0,10,0.279,0,0,1,1,0,0,VALID,0,0,0,0,0,1,0,0,0,0,0,0,0,0,0,0,0,0,0,0,353.86,446.96,2,0,0.08,0.08,525,14.29,0.08,0.06,36.06,FLYING,CF1-F,0:/Integrated Flight Computer/aircraft/cf1_f_cfg.ks (inferred preloaded)
36.44,TAKEOFF,TO_CLIMB,111.15,80,-31.15,140.46,20.17,12.39,2.32,90.37,0.072,0.78,0,0,0,0,0,0,0,0,0,90.4,8,0,1,10.29,0,0,10.35,90.4,-0.9931,-0.0067,0.1173,10.32,90.4,0,0,0,0,0,0,0,0,90.4,1,0,-0.027,0,0,3,0,0,0,10,0.279,0,0,1,1,0,0,VALID,0,0,0,0,0,1,0,0,0,0,0,0,0,0,0,0,0,0,0,0,352.84,446.11,2,0,0.08,0.08,529,14.29,0.08,0.06,36.34,FLYING,CF1-F,0:/Integrated Flight Computer/aircraft/cf1_f_cfg.ks (inferred preloaded)
36.72,TAKEOFF,TO_CLIMB,111.86,80,-31.86,146.19,20.33,12.32,2.23,90.37,0.064,0.78,0,0,0,0,0,0,0,0,0,90.4,8,0,1,10.3,0,0,10.26,90.4,-0.9933,-0.0067,0.1157,10.23,90.4,0,0,0,0,0,0,0,0,90.4,1,0,-0.026,0,0,3,0,0,0,10,0.279,0,0,1,1,0,0,VALID,0,0,0,0,0,1,0,0,0,0,0,0,0,0,0,0,0,0,0,0,351.84,445.26,2,0,0.08,0.08,533,14.29,0.08,0.06,36.62,FLYING,CF1-F,0:/Integrated Flight Computer/aircraft/cf1_f_cfg.ks (inferred preloaded)
37,TAKEOFF,TO_CLIMB,112.57,80,-32.57,151.96,20.48,12.25,2.16,90.37,0.056,0.78,0,0,0,0,0,0,0,0,0,90.4,8,0,1,10.31,0,0,10.18,90.4,-0.9934,-0.0067,0.1143,10.16,90.4,0,0,0,0,0,0,0,0,90.4,1,0,-0.025,0,0,3,0,0,0,10,0.279,0,0,1,1,0,0,VALID,0,0,0,0,0,1,0,0,0,0,0,0,0,0,0,0,0,0,0,0,350.86,444.41,2,0,0.08,0.08,537,14.29,0.08,0.06,36.9,FLYING,CF1-F,0:/Integrated Flight Computer/aircraft/cf1_f_cfg.ks (inferred preloaded)
37.28,TAKEOFF,TO_CLIMB,113.27,80,-33.27,157.82,20.62,12.19,2.09,90.38,0.047,0.78,0,0,0,0,0,0,0,0,0,90.4,8,0,1,10.32,0,0,10.11,90.4,-0.9936,-0.0067,0.113,10.09,90.4,0,0,0,0,0,0,0,0,90.4,1,0,-0.024,0,0,3,0,0,0,10,0.279,0,0,1,1,0,0,VALID,0,0,0,0,0,1,0,0,0,0,0,0,0,0,0,0,0,0,0,0,349.91,443.56,2,0,0.08,0.08,541,14.29,0.08,0.06,37.18,FLYING,CF1-F,0:/Integrated Flight Computer/aircraft/cf1_f_cfg.ks (inferred preloaded)
37.56,TAKEOFF,TO_CLIMB,113.97,80,-33.97,163.63,20.77,12.13,2.02,90.38,0.04,0.78,0,0,0,0,0,0,0,0,0,90.4,8,0,1,10.33,0,0,10.04,90.4,-0.9937,-0.0067,0.1118,10.02,90.4,0,0,0,0,0,0,0,0,90.4,1,0,-0.023,0,0,3,0,0,0,10,0.279,0,0,1,1,0,0,VALID,0,0,0,0,0,1,0,0,0,0,0,0,0,0,0,0,0,0,0,0,348.98,442.71,2,0,0.08,0.08,545,14.29,0.08,0.06,37.46,FLYING,CF1-F,0:/Integrated Flight Computer/aircraft/cf1_f_cfg.ks (inferred preloaded)
37.84,TAKEOFF,TO_CLIMB,114.66,80,-34.66,169.58,20.91,12.07,1.95,90.38,0.037,0.78,0,0,0,0,0,0,0,0,0,90.4,8,0,1,10.34,0,0,9.98,90.4,-0.9938,-0.0068,0.1106,9.95,90.4,0,0,0,0,0,0,0,0,90.4,1,0,-0.022,0,0,3,0,0,0,10,0.279,0,0,1,1,0,0,VALID,0,0,0,0,0,1,0,0,0,0,0,0,0,0,0,0,0,0,0,0,348.07,441.87,2,0,0.08,0.08,549,14.29,0.08,0.06,37.74,FLYING,CF1-F,0:/Integrated Flight Computer/aircraft/cf1_f_cfg.ks (inferred preloaded)
38.12,TAKEOFF,TO_CLIMB,115.36,80,-35.36,175.48,21.05,12,1.88,90.38,0.035,0.78,0,0,0,0,0,0,0,0,0,90.4,8,0,1,10.34,0,0,9.91,90.4,-0.994,-0.0068,0.1093,9.88,90.4,0,0,0,0,0,0,0,0,90.4,1,0,-0.021,0,0,3,0,0,0,10,0.279,0,0,1,1,0,0,VALID,0,0,0,0,0,1,0,0,0,0,0,0,0,0,0,0,0,0,0,0,347.18,441.03,2,0,0.08,0.08,553,14.29,0.08,0.06,38.02,FLYING,CF1-F,0:/Integrated Flight Computer/aircraft/cf1_f_cfg.ks (inferred preloaded)
38.4,TAKEOFF,TO_CLIMB,116.04,80,-36.04,181.45,21.18,11.93,1.81,90.38,0.035,0.78,0,0,0,0,0,0,0,0,0,90.4,8,0,1,10.35,0,0,9.84,90.4,-0.9941,-0.0068,0.108,9.81,90.4,0,0,0,0,0,0,0,0,90.4,1,0,-0.02,0,0,3,0,0,0,10,0.279,0,0,1,1,0,0,VALID,0,0,0,0,0,1,0,0,0,0,0,0,0,0,0,0,0,0,0,0,346.31,440.19,2,0,0.08,0.08,557,14.29,0.08,0.06,38.3,FLYING,CF1-F,0:/Integrated Flight Computer/aircraft/cf1_f_cfg.ks (inferred preloaded)
38.68,TAKEOFF,TO_CLIMB,116.73,80,-36.73,187.44,21.31,11.85,1.74,90.38,0.035,0.78,0,0,0,0,0,0,0,0,0,90.4,8,0,1,10.35,0,0,9.76,90.4,-0.9943,-0.0068,0.1067,9.74,90.4,0,0,0,0,0,0,0,0,90.4,1,0,-0.02,0,0,3,0,0,0,10,0.279,0,0,1,1,0,0,VALID,0,0,0,0,0,1,0,0,0,0,0,0,0,0,0,0,0,0,0,0,345.45,439.35,2,0,0.08,0.08,561,14.29,0.08,0.06,38.58,FLYING,CF1-F,0:/Integrated Flight Computer/aircraft/cf1_f_cfg.ks (inferred preloaded)
38.96,TAKEOFF,TO_CLIMB,117.41,80,-37.41,193.5,21.42,11.77,1.66,90.38,0.035,0.78,0,0,0,0,0,0,0,0,0,90.4,8,0,1,10.34,0,0,9.69,90.4,-0.9944,-0.0068,0.1053,9.66,90.4,0,0,0,0,0,0,0,0,90.4,1,0,-0.019,0,0,3,0,0,0,10,0.279,0,0,1,1,0,0,VALID,0,0,0,0,0,1,0,0,0,0,0,0,0,0,0,0,0,0,0,0,344.61,438.52,2,0,0.08,0.08,565,14.29,0.08,0.06,38.86,FLYING,CF1-F,0:/Integrated Flight Computer/aircraft/cf1_f_cfg.ks (inferred preloaded)
39.24,TAKEOFF,TO_CLIMB,118.09,80,-38.09,199.52,21.53,11.68,1.58,90.38,0.036,0.78,0,0,0,0,0,0,0,0,0,90.4,8,0,1,10.33,0,0,9.61,90.4,-0.9946,-0.0068,0.1039,9.58,90.4,0,0,0,0,0,0,0,0,90.4,1,0,-0.018,0,0,3,0,0,0,10,0.279,0,0,1,1,0,0,VALID,0,0,0,0,0,1,0,0,0,0,0,0,0,0,0,0,0,0,0,0,343.79,437.68,2,0,0.08,0.08,569,14.29,0.08,0.06,39.14,FLYING,CF1-F,0:/Integrated Flight Computer/aircraft/cf1_f_cfg.ks (inferred preloaded)
39.52,TAKEOFF,TO_CLIMB,118.77,80,-38.77,205.61,21.61,11.59,1.51,90.38,0.036,0.78,0,0,0,0,0,0,0,0,0,90.4,8,0,1,10.31,0,0,9.53,90.4,-0.9947,-0.0068,0.1025,9.51,90.4,0,0,0,0,0,0,0,0,90.4,1,0,-0.017,0,0,3,0,0,0,10,0.279,0,0,1,1,0,0,VALID,0,0,0,0,0,1,0,0,0,0,0,0,0,0,0,0,0,0,0,0,342.97,436.85,2,0,0.08,0.08,573,14.29,0.08,0.06,39.42,FLYING,CF1-F,0:/Integrated Flight Computer/aircraft/cf1_f_cfg.ks (inferred preloaded)
39.8,TAKEOFF,TO_CLIMB,119.45,80,-39.45,211.71,21.69,11.5,1.44,90.38,0.036,0.78,0,0,0,0,0,0,0,0,0,90.4,8,0,1,10.29,0,0,9.46,90.4,-0.9948,-0.0068,0.1013,9.44,90.4,0,0,0,0,0,0,0,0,90.4,1,0,-0.016,0,0,3,0,0,0,10,0.279,0,0,1,1,0,0,VALID,0,0,0,0,0,1,0,0,0,0,0,0,0,0,0,0,0,0,0,0,342.17,436.02,2,0,0.08,0.08,577,14.29,0.08,0.06,39.7,FLYING,CF1-F,0:/Integrated Flight Computer/aircraft/cf1_f_cfg.ks (inferred preloaded)
40.08,TAKEOFF,TO_CLIMB,120.13,80,-40.13,217.83,21.77,11.42,1.38,90.39,0.036,0.78,0,0,0,0,0,0,0,0,0,90.4,8,0,1,10.27,0,0,9.4,90.4,-0.9949,-0.0068,0.1003,9.38,90.4,0,0,0,0,0,0,0,0,90.4,1,0,-0.015,0,0,3,0,0,0,10,0.279,0,0,1,1,0,0,VALID,0,0,0,0,0,1,0,0,0,0,0,0,0,0,0,0,0,0,0,0,341.39,435.19,2,0,0.08,0.08,581,14.29,0.08,0.06,39.98,FLYING,CF1-F,0:/Integrated Flight Computer/aircraft/cf1_f_cfg.ks (inferred preloaded)
40.36,TAKEOFF,TO_CLIMB,120.8,80,-40.8,224.02,21.84,11.33,1.33,90.39,0.036,0.78,0,0,0,0,0,0,0,0,0,90.4,8,0,1,10.25,0,0,9.34,90.4,-0.995,-0.0068,0.0992,9.33,90.4,0,0,0,0,0,0,0,0,90.4,1,0,-0.014,0,0,3,0,0,0,10,0.279,0,0,1,1,0,0,VALID,0,0,0,0,0,1,0,0,0,0,0,0,0,0,0,0,0,0,0,0,340.61,434.37,2,0,0.08,0.08,585,14.29,0.08,0.06,40.26,FLYING,CF1-F,0:/Integrated Flight Computer/aircraft/cf1_f_cfg.ks (inferred preloaded)
40.64,TAKEOFF,TO_CLIMB,121.48,80,-41.48,230.16,21.9,11.25,1.27,90.39,0.036,0.78,0,0,0,0,0,0,0,0,0,90.4,8,0,1,10.22,0,0,9.29,90.4,-0.9952,-0.0068,0.0981,9.27,90.4,0,0,0,0,0,0,0,0,90.4,1,0,-0.013,0,0,3,0,0,0,10,0.279,0,0,1,1,0,0,VALID,0,0,0,0,0,1,0,0,0,0,0,0,0,0,0,0,0,0,0,0,339.85,433.54,2,0,0.08,0.08,589,14.29,0.08,0.06,40.54,FLYING,CF1-F,0:/Integrated Flight Computer/aircraft/cf1_f_cfg.ks (inferred preloaded)
