t_s,phase,subphase,ias_ms,vapp_ms,spd_err_ms,agl_m,vs_ms,pitch_deg,aoa_deg,hdg_deg,bank_deg,thr_cmd,thr_cur,thr_intg,at_gain,at_tau_s,at_a_up,at_a_dn,at_kp_thr,at_ki_spd,at_thr_slew,aa_hdg_cmd_deg,aa_fpa_cmd_deg,ils_loc_m,ils_gs_m,ils_dist_km,loc_corr_deg,gs_corr_deg,flare_fpa_cmd,flare_tgt_vs,flare_frac,steer_hdg_deg,steer_blend,ro_loc_corr_deg,ro_hdg_err_deg,ro_yaw_tgt,ro_yaw_scale,ro_yaw_gate,yaw_cmd,roll_cmd,pitch_cmd,ro_pitch_tgt_deg,ro_pitch_err_deg,ro_pitch_ff,ro_roll_assist,flaps_cur,flaps_tgt,asc_j_ab,asc_j_rk,asc_validity,asc_q_pa,asc_q_raw_pa,asc_mach,asc_apo_m,asc_drag_n,asc_w_prop,asc_edot_aero,asc_edot_orb,asc_pitch_bias,asc_blend,asc_spooling,asc_ab_thr_ratio,asc_ab_t_now,asc_ab_t_avail,asc_ab_ign_on,asc_ab_flameouts,asc_rk_t_now,asc_rk_t_avail,asc_rk_ign_on,asc_rk_flameouts,ship_thrust,ship_avail_thrust,ship_ign_on,ship_flameouts,ifc_raw_dt_s,ifc_dt_s,ifc_loop_n,ifc_hz_est,ifc_raw_dt_max_s,ifc_raw_dt_min_s,phase_el_s,status
1.2,APPROACH,FLY_TO_FIX,239.71,140.8,-98.91,1260.11,-5.26,3.72,5.21,268.08,-4.221,0,0,0,1,0.6,0.9,0.75,0.35,0.0168,0.4,256.33,0.406,0,0,55.788,0,0,0,0,0,268.23,0,0,0,0,0,0,0,0,0,0,0,0,0,0,0,0,0,VALID,0,0,0,0,0,1,0,0,0,0,0,0,0,0,0,0,0,0,0,0,282.46,3841.7,6,0,0.94,0.5,1,1.96,0.94,0.02,1.24,FLYING
1.92,APPROACH,FLY_TO_FIX,238.29,141.6,-96.69,1263.34,-1.29,7.95,13.02,267.32,-4.165,0,0,0,1,0.6,1.391,0.75,0.35,0.0168,0.4,256.24,0.401,0,0,55.608,0,0,0,0,0,268.23,0,0,0,0,0,0,0,0,0,0,0,0,0,0,0,0,0,VALID,0,0,0,0,0,1,0,0,0,0,0,0,0,0,0,0,0,0,0,0,216.81,3827.12,6,0,0.68,0.5,2,1.39,0.94,0.68,1.96,FLYING
2.68,APPROACH,FLY_TO_FIX,231.41,142.4,-89.01,1274.36,14.96,18.9,18,264.86,-4.132,0.2,0,-20,1,0.6,1.989,0.802,0.35,0.0168,0.4,256.16,0.355,0,0,55.421,0,0,0,0,0,268.23,0,0,0,0,0,0,0,0,0,0,0,0,0,0,0,0,0,VALID,0,0,0,0,0,1,0,0,0,0,0,0,0,0,0,0,0,0,0,0,161.33,3749.58,6,0,0.76,0.5,3,1.32,0.76,0.68,2.72,FLYING
3.4,APPROACH,FLY_TO_FIX,222.77,143.2,-79.57,1294.42,30.52,24.61,19.5,262.68,-4.212,0.4,0,-20,1,0.6,2.52,0.802,0.35,0.0168,0.4,256.08,0.268,0,0,55.249,0,0,0,0,0,268.23,0,0,0,0,0,0,0,0,0,0,0,0,0,0,0,0,0,VALID,0,0,0,0,0,1,0,0,0,0,0,0,0,0,0,0,0,0,0,0,231.02,3648.77,6,0,0.72,0.5,4,1.43,0.76,0.72,3.44,FLYING
4.12,APPROACH,FLY_TO_FIX,213.61,144,-69.61,1324.08,44.32,28.96,19.57,261.33,-4.128,0.6,0,-20,1,0.6,2.988,0.802,0.35,0.0168,0.4,256.01,0.131,0,0,55.085,0,0,0,0,0,268.23,0,0,0,0,0,0,0,0,0,0,0,0,0,0,0,0,0,VALID,0,0,0,0,0,1,0,0,0,0,0,0,0,0,0,0,0,0,0,0,381.59,3536.71,6,0,0.72,0.5,5,1.43,0.72,0.72,4.16,FLYING
4.84,APPROACH,FLY_TO_FIX,204.98,144.8,-60.18,1362.64,56.08,32.62,19.57,260.52,-4.067,0.8,0,-20,1,0.6,3.398,0.802,0.35,0.0168,0.4,255.94,0,0,0,54.928,0,0,0,0,0,268.23,0,0,0,0,0,0,0,0,0,0,0,0,0,0,0,0,0,VALID,0,0,0,0,0,1,0,0,0,0,0,0,0,0,0,0,0,0,0,0,594.21,3427.21,6,0,0.72,0.5,6,1.43,0.72,0.72,4.88,FLYING
5.56,APPROACH,FLY_TO_FIX,196.95,145.6,-51.35,1408.8,66.1,36.1,19.57,260.19,-3.778,1,0,-20,1,0.6,3.755,0.802,0.35,0.0168,0.4,255.88,0,0,0,54.779,0,0,0,0,0,268.23,0,0,0,0,0,0,0,0,0,0,0,0,0,0,0,0,0,VALID,0,0,0,0,0,1,0,0,0,0,0,0,0,0,0,0,0,0,0,0,853.78,3322.61,6,0,0.72,0.5,7,1.43,0.72,0.72,5.6,FLYING
6.28,APPROACH,FLY_TO_FIX,189.58,146.4,-43.18,1461.48,74.8,39.39,19.58,259.9,-3.584,1,0,-20,1,0.6,4.065,0.802,0.35,0.0168,0.4,255.82,0,0,0,54.637,0,0,0,0,0,268.23,0,0,0,0,0,0,0,0,0,0,0,0,0,0,0,0,0,VALID,0,0,0,0,0,1,0,0,0,0,0,0,0,0,0,0,0,0,0,0,1148.7,3224.87,6,0,0.72,0.5,8,1.43,0.72,0.72,6.32,FLYING
7,APPROACH,FLY_TO_FIX,182.84,147.2,-35.64,1519.84,82.36,42.53,19.57,259.59,-3.429,1,0,-20,1,0.6,4.334,0.802,0.35,0.0168,0.4,255.76,0,0,0,54.503,0,0,0,0,0,268.23,0,0,0,0,0,0,0,0,0,0,0,0,0,0,0,0,0,VALID,0,0,0,0,0,1,0,0,0,0,0,0,0,0,0,0,0,0,0,0,1387.75,3134.09,6,0,0.72,0.5,9,1.43,0.72,0.72,7.04,FLYING
7.74,APPROACH,FLY_TO_FIX,176.42,148,-28.42,1584.93,89.06,45.61,19.57,259.27,-3.207,1,0,-20,1,0.6,4.5,0.802,0.35,0.0168,0.4,255.71,0,0,0,54.372,0,0,0,0,0,268.23,0,0,0,0,0,0,0,0,0,0,0,0,0,0,0,0,0,VALID,0,0,0,0,0,1,0,0,0,0,0,0,0,0,0,0,0,0,0,0,1583.46,3046.98,6,0,0.74,0.5,10,1.39,0.74,0.72,7.78,FLYING
8.48,APPROACH,FLY_TO_FIX,170.41,148.8,-21.61,1654.47,94.8,48.59,19.57,259.12,-2.731,1,0,-20,1,0.6,4.5,0.802,0.35,0.0168,0.4,255.66,0,0,0,54.248,0,0,0,0,0,268.23,0,0,0,0,0,0,0,0,0,0,0,0,0,0,0,0,0,VALID,0,0,0,0,0,1,0,0,0,0,0,0,0,0,0,0,0,0,0,0,1737.3,2964.83,6,0,0.74,0.5,11,1.39,0.74,0.74,8.52,FLYING
9.2,APPROACH,FLY_TO_FIX,164.87,149,-15.87,1725.74,99.54,51.35,19.58,259.01,-2.393,1,0,-20,1,0.6,4.5,0.802,0.35,0.0168,0.4,255.61,0,0,0,54.134,0,0,0,0,0,268.23,0,0,0,0,0,0,0,0,0,0,0,0,0,0,0,0,0,VALID,0,0,0,0,0,1,0,0,0,0,0,0,0,0,0,0,0,0,0,0,1853.86,2889.04,6,0,0.72,0.5,12,1.43,0.74,0.72,9.24,FLYING
9.94,APPROACH,FLY_TO_FIX,159.44,149,-10.44,1802.13,103.62,54.06,19.58,258.86,-2.131,1,0,-20,1,0.6,4.5,0.802,0.35,0.0168,0.4,255.56,0,0,0,54.023,0,0,0,0,0,268.23,0,0,0,0,0,0,0,0,0,0,0,0,0,0,0,0,0,VALID,0,0,0,0,0,1,0,0,0,0,0,0,0,0,0,0,0,0,0,0,1945.38,2814.66,6,0,0.74,0.5,13,1.39,0.74,0.72,9.98,FLYING
10.68,APPROACH,FLY_TO_FIX,154.22,149,-5.22,1881.13,106.96,56.65,19.58,258.73,-1.881,1,0,-20,1,0.6,4.5,0.802,0.35,0.0168,0.4,255.52,0,0,0,53.919,0,0,0,0,0,268.23,0,0,0,0,0,0,0,0,0,0,0,0,0,0,0,0,0,VALID,0,0,0,0,0,1,0,0,0,0,0,0,0,0,0,0,0,0,0,0,2013.09,2743.32,6,0,0.74,0.5,14,1.39,0.74,0.74,10.72,FLYING
11.4,APPROACH,FLY_TO_FIX,149.3,149,-0.3,1960.01,109.54,59.06,19.58,258.64,-1.654,1,0,-20,1,0.6,4.5,0.802,0.35,0.0168,0.4,255.48,0,0,0,53.823,0,0,0,0,0,268.23,0,0,0,0,0,0,0,0,0,0,0,0,0,0,0,0,0,VALID,0,0,0,0,0,1,0,0,0,0,0,0,0,0,0,0,0,0,0,0,2060.03,2676.53,6,0,0.72,0.5,15,1.43,0.74,0.72,11.44,FLYING
12.14,APPROACH,FLY_TO_FIX,144.4,149,4.6,2042.68,111.57,61.43,19.58,258.54,-1.481,1,0,-19.9,1,0.6,4.5,0.802,0.35,0.0168,0.4,255.44,0,0,0,53.731,0,0,0,0,0,268.23,0,0,0,0,0,0,0,0,0,0,0,0,0,0,0,0,0,VALID,0,0,0,0,0,1,0,0,0,0,0,0,0,0,0,0,0,0,0,0,2092.13,2610.28,6,0,0.74,0.5,16,1.39,0.74,0.72,12.18,FLYING
12.86,APPROACH,FLY_TO_FIX,139.74,149,9.26,2124.26,112.98,63.64,19.58,258.44,-1.321,1,0,-19.8,1,0.6,4.5,0.802,0.35,0.0168,0.4,255.4,0,0,0,53.646,0,0,0,0,0,268.23,0,0,0,0,0,0,0,0,0,0,0,0,0,0,0,0,0,VALID,0,0,0,0,0,1,0,0,0,0,0,0,0,0,0,0,0,0,0,0,2110.32,2547.91,6,0,0.72,0.5,17,1.43,0.74,0.72,12.9,FLYING
13.58,APPROACH,FLY_TO_FIX,135.18,149,13.82,2206.58,113.86,65.76,19.58,258.4,-1.157,1,0,-19.701,1,0.6,4.5,0.802,0.35,0.0168,0.4,255.36,0,0,0,53.566,0,0,0,0,0,268.23,0,0,0,0,0,0,0,0,0,0,0,0,0,0,0,0,0,VALID,0,0,0,0,0,1,0,0,0,0,0,0,0,0,0,0,0,0,0,0,2117.92,2487.53,6,0,0.72,0.5,18,1.43,0.72,0.72,13.62,FLYING
14.3,APPROACH,FLY_TO_FIX,130.72,149,18.28,2289.27,114.27,67.78,19.58,258.39,-0.998,1,0,-19.603,1,0.6,4.5,0.802,0.35,0.0168,0.4,255.33,0,0,0,53.492,0,0,0,0,0,268.23,0,0,0,0,0,0,0,0,0,0,0,0,0,0,0,0,0,VALID,0,0,0,0,0,1,0,0,0,0,0,0,0,0,0,0,0,0,0,0,2116.82,2429.03,6,0,0.72,0.5,19,1.39,0.72,0.72,14.34,FLYING
15.02,APPROACH,FLY_TO_FIX,126.34,149,22.66,2372.03,114.23,69.71,19.58,258.42,-0.853,1,0,-19.505,1,0.6,4.5,0.802,0.35,0.0168,0.4,255.29,0,0,0,53.422,0,0,0,0,0,268.23,0,0,0,0,0,0,0,0,0,0,0,0,0,0,0,0,0,VALID,0,0,0,0,0,1,0,0,0,0,0,0,0,0,0,0,0,0,0,0,2108.61,2372.38,6,0,0.72,0.5,20,1.39,0.72,0.72,15.06,FLYING
15.74,APPROACH,FLY_TO_FIX,122.03,149,26.97,2454.54,113.78,71.55,19.58,258.46,-0.727,1,0,-19.407,1,0.6,4.5,0.802,0.35,0.0168,0.4,255.26,0,0,0,53.356,0,0,0,0,0,268.23,0,0,0,0,0,0,0,0,0,0,0,0,0,0,0,0,0,VALID,0,0,0,0,0,1,0,0,0,0,0,0,0,0,0,0,0,0,0,0,2094.69,2317.54,6,0,0.72,0.5,21,1.39,0.72,0.72,15.78,FLYING
16.46,APPROACH,FLY_TO_FIX,117.78,149,31.22,2536.54,112.96,73.32,19.58,258.64,-0.556,1,0,-19.31,1,0.6,4.5,0.802,0.35,0.0168,0.4,255.23,0,0,0,53.295,0,0,0,0,0,268.23,0,0,0,0,0,0,0,0,0,0,0,0,0,0,0,0,0,VALID,0,0,0,0,0,1,0,0,0,0,0,0,0,0,0,0,0,0,0,0,2076.19,2264.51,6,0,0.72,0.5,22,1.39,0.72,0.72,16.5,FLYING
17.18,APPROACH,FLY_TO_FIX,113.6,149,35.4,2617.76,111.79,75,19.58,258.95,-0.389,1,0,-19.214,1,0.6,4.5,0.802,0.35,0.0168,0.4,255.2,0,0,0,53.238,0,0,0,0,0,268.23,0,0,0,0,0,0,0,0,0,0,0,0,0,0,0,0,0,VALID,0,0,0,0,0,1,0,0,0,0,0,0,0,0,0,0,0,0,0,0,2054.17,2213.32,6,0,0.72,0.5,23,1.39,0.72,0.72,17.22,FLYING
17.9,APPROACH,FLY_TO_FIX,109.49,149,39.51,2697.97,110.3,76.6,19.58,259.38,-0.218,1,0,-19.118,1,0.6,4.5,0.802,0.35,0.0168,0.4,255.17,0,0,0,53.185,0,0,0,0,0,268.23,0,0,0,0,0,0,0,0,0,0,0,0,0,0,0,0,0,VALID,0,0,0,0,0,1,0,0,0,0,0,0,0,0,0,0,0,0,0,0,2029.51,2164.05,6,0,0.72,0.5,24,1.39,0.72,0.72,17.94,FLYING
18.62,APPROACH,FLY_TO_FIX,105.43,149,43.57,2776.97,108.53,78.12,19.58,259.95,-0.058,1,0,-19.022,1,0.6,4.5,0.802,0.35,0.0168,0.4,255.14,0,0,0,53.135,0,0,0,0,0,268.23,0,0,0,0,0,0,0,0,0,0,0,0,0,0,0,0,0,VALID,0,0,0,0,0,1,0,0,0,0,0,0,0,0,0,0,0,0,0,0,2002.97,2116.74,6,0,0.72,0.5,25,1.39,0.72,0.72,18.66,FLYING
19.34,APPROACH,FLY_TO_FIX,101.44,149,47.56,2854.55,106.5,79.56,19.58,260.74,0.106,1,0,-18.927,1,0.6,4.5,0.802,0.35,0.0168,0.4,255.11,0,0,0,53.089,0,0,0,0,0,268.23,0,0,0,0,0,0,0,0,0,0,0,0,0,0,0,0,0,VALID,0,0,0,0,0,1,0,0,0,0,0,0,0,0,0,0,0,0,0,0,1974.78,2070.96,6,0,0.72,0.5,26,1.39,0.72,0.72,19.38,FLYING
20.06,APPROACH,FLY_TO_FIX,97.5,149,51.5,2930.55,104.23,80.91,19.58,261.92,0.289,1,0,-18.832,1,0.6,4.5,0.802,0.35,0.0168,0.4,255.09,0,0,0,53.046,0,0,0,0,0,268.23,0,0,0,0,0,0,0,0,0,0,0,0,0,0,0,0,0,VALID,0,0,0,0,0,1,0,0,0,0,0,0,0,0,0,0,0,0,0,0,1944.77,2026.06,6,0,0.72,0.5,27,1.39,0.72,0.72,20.1,FLYING
20.78,APPROACH,FLY_TO_FIX,93.62,149,55.38,3004.81,101.75,82.19,19.58,263.48,0.462,1,0,-18.738,1,0.6,4.5,0.802,0.35,0.0168,0.4,255.06,0,0,0,53.006,0,0,0,0,0,268.23,0,0,0,0,0,0,0,0,0,0,0,0,0,0,0,0,0,VALID,0,0,0,0,0,1,0,0,0,0,0,0,0,0,0,0,0,0,0,0,1913.71,1982.41,6,0,0.72,0.5,28,1.39,0.72,0.72,20.82,FLYING
21.5,APPROACH,FLY_TO_FIX,89.79,149,59.21,3077.18,99.07,83.37,19.58,265.72,0.652,1,0,-18.645,1,0.6,4.5,0.802,0.35,0.0168,0.4,255.04,0,0,0,52.97,0,0,0,0,0,268.23,0,0,0,0,0,0,0,0,0,0,0,0,0,0,0,0,0,VALID,0,0,0,0,0,1,0,0,0,0,0,0,0,0,0,0,0,0,0,0,1882.29,1940.37,6,0,0.72,0.5,29,1.39,0.72,0.72,21.54,FLYING
22.22,APPROACH,FLY_TO_FIX,86.02,149,62.98,3147.54,96.22,84.47,19.58,269.08,0.869,1,0,-18.551,1,0.6,4.5,0.802,0.35,0.0168,0.4,255.01,0,0,0,52.935,0,0,0,0,0,268.23,0,0,0,0,0,0,0,0,0,0,0,0,0,0,0,0,0,VALID,0,0,0,0,0,1,0,0,0,0,0,0,0,0,0,0,0,0,0,0,1851.21,1900.33,6,0,0.72,0.5,30,1.39,0.72,0.72,22.26,FLYING
22.94,APPROACH,FLY_TO_FIX,82.3,149,66.7,3215.77,93.22,85.45,19.58,274.3,1.126,1,0,-18.459,1,0.6,4.5,0.802,0.35,0.0168,0.4,254.99,0,0,0,52.904,0,0,0,0,0,268.23,0,0,0,0,0,0,0,0,0,0,0,0,0,0,0,0,0,VALID,0,0,0,0,0,1,0,0,0,0,0,0,0,0,0,0,0,0,0,0,1821.09,1862.67,6,0,0.72,0.5,31,1.39,0.72,0.72,22.98,FLYING
23.66,APPROACH,FLY_TO_FIX,78.63,149,70.37,3281.76,90.08,86.29,19.58,282.72,1.441,1,0,-18.366,1,0.6,4.5,0.802,0.35,0.0168,0.4,254.96,0,0,0,52.874,0,0,0,0,0,268.23,0,0,0,0,0,0,0,0,0,0,0,0,0,0,0,0,0,VALID,0,0,0,0,0,1,0,0,0,0,0,0,0,0,0,0,0,0,0,0,1792.54,1827.8,6,0,0.72,0.5,32,1.39,0.72,0.72,23.7,FLYING
24.38,APPROACH,FLY_TO_FIX,75.02,149,73.98,3345.44,86.82,86.93,19.58,295.16,1.777,1,0,-18.274,1,0.6,4.5,0.802,0.35,0.0168,0.4,254.94,0,0,0,52.847,0,0,0,0,0,268.23,0,0,0,0,0,0,0,0,0,0,0,0,0,0,0,0,0,VALID,0,0,0,0,0,1,0,0,0,0,0,0,0,0,0,0,0,0,0,0,1766.16,1796.1,6,0,0.72,0.5,33,1.39,0.72,0.72,24.42,FLYING
25.1,APPROACH,FLY_TO_FIX,71.47,149,77.53,3406.72,83.46,87.29,19.58,311.94,2.146,1,0,-18.183,1,0.6,4.5,0.802,0.35,0.0168,0.4,254.92,0,0,0,52.822,0,0,0,0,0,268.23,0,0,0,0,0,0,0,0,0,0,0,0,0,0,0,0,0,VALID,0,0,0,0,0,1,0,0,0,0,0,0,0,0,0,0,0,0,0,0,1742.48,1767.97,6,0,0.72,0.5,34,1.39,0.72,0.72,25.14,FLYING
25.82,APPROACH,FLY_TO_FIX,67.97,149,81.03,3465.54,80.02,87.29,19.58,330.23,2.552,1,0,-18.092,1,0.6,4.5,0.802,0.35,0.0168,0.4,254.89,0,0,0,52.798,0,0,0,0,0,268.23,0,0,0,0,0,0,0,0,0,0,0,0,0,0,0,0,0,VALID,0,0,0,0,0,1,0,0,0,0,0,0,0,0,0,0,0,0,0,0,1722.01,1743.78,6,0,0.72,0.5,35,1.39,0.72,0.72,25.86,FLYING
26.54,APPROACH,FLY_TO_FIX,64.54,149,84.46,3521.84,76.51,86.99,19.58,345.57,3.006,1,0,-18.002,1,0.6,4.5,0.802,0.35,0.0168,0.4,254.87,0,0,0,52.776,0,0,0,0,0,268.23,0,0,0,0,0,0,0,0,0,0,0,0,0,0,0,0,0,VALID,0,0,0,0,0,1,0,0,0,0,0,0,0,0,0,0,0,0,0,0,1705.21,1723.87,6,0,0.72,0.5,36,1.39,0.72,0.72,26.58,FLYING
27.26,APPROACH,FLY_TO_FIX,61.17,149,87.83,3575.58,72.95,86.46,19.58,356.06,3.522,1,0,-17.912,1,0.6,4.5,0.802,0.35,0.0168,0.4,254.85,0,0,0,52.756,0,0,0,0,0,268.23,0,0,0,0,0,0,0,0,0,0,0,0,0,0,0,0,0,VALID,0,0,0,0,0,1,0,0,0,0,0,0,0,0,0,0,0,0,0,0,1692.49,1708.56,6,0,0.72,0.5,37,1.39,0.72,0.72,27.3,FLYING
27.98,APPROACH,FLY_TO_FIX,57.87,149,91.13,3626.73,69.34,85.79,19.58,2.39,4.108,1,0,-17.822,1,0.6,4.5,0.802,0.35,0.0168,0.4,254.82,0,0,0,52.737,0,0,0,0,0,268.23,0,0,0,0,0,0,0,0,0,0,0,0,0,0,0,0,0,VALID,0,0,0,0,0,1,0,0,0,0,0,0,0,0,0,0,0,0,0,0,1684.21,1698.12,6,0,0.72,0.5,38,1.39,0.72,0.72,28.02,FLYING
28.7,APPROACH,FLY_TO_FIX,54.64,149,94.36,3675.26,65.72,85.02,19.58,5.82,4.779,1,0,-17.733,1,0.6,4.5,0.802,0.35,0.0168,0.4,254.8,0,0,0,52.72,0,0,0,0,0,268.23,0,0,0,0,0,0,0,0,0,0,0,0,0,0,0,0,0,VALID,0,0,0,0,0,1,0,0,0,0,0,0,0,0,0,0,0,0,0,0,1680.66,1692.78,6,0,0.72,0.5,39,1.39,0.72,0.72,28.74,FLYING
29.42,APPROACH,FLY_TO_FIX,51.49,149,97.51,3721.17,62.08,84.17,19.58,7.29,5.556,1,0,-17.644,1,0.6,4.5,0.802,0.35,0.0168,0.4,254.78,0,0,0,52.703,0,0,0,0,0,268.23,0,0,0,0,0,0,0,0,0,0,0,0,0,0,0,0,0,VALID,0,0,0,0,0,1,0,0,0,0,0,0,0,0,0,0,0,0,0,0,1682.05,1692.67,6,0,0.72,0.5,40,1.39,0.72,0.72,29.46,FLYING
30.14,APPROACH,FLY_TO_FIX,48.42,149,100.58,3764.44,58.45,83.21,19.58,7.42,6.457,1,0,-17.556,1,0.6,4.5,0.802,0.35,0.0168,0.4,254.75,0,0,0,52.688,0,0,0,0,0,268.23,0,0,0,0,0,0,0,0,0,0,0,0,0,0,0,0,0,VALID,0,0,0,0,0,1,0,0,0,0,0,0,0,0,0,0,0,0,0,0,1686.74,1695.99,6,0,0.72,0.5,41,1.39,0.72,0.72,30.18,FLYING
30.86,APPROACH,FLY_TO_FIX,45.44,149,103.56,3805.07,54.83,82.14,19.58,6.62,7.513,1,0,-17.468,1,0.6,4.483,0.802,0.35,0.0168,0.4,254.73,0,0,0,52.673,0,0,0,0,0,268.23,0,0,0,0,0,0,0,0,0,0,0,0,0,0,0,0,0,VALID,0,0,0,0,0,1,0,0,0,0,0,0,0,0,0,0,0,0,0,0,1691.65,1699.7,6,0,0.72,0.5,42,1.39,0.72,0.72,30.9,FLYING
31.58,APPROACH,FLY_TO_FIX,42.55,149,106.45,3843.06,51.21,80.9,19.58,5.17,8.753,1,0,-17.381,1,0.6,4.447,0.802,0.35,0.0168,0.4,254.71,0,0,0,52.66,0,0,0,0,0,268.23,0,0,0,0,0,0,0,0,0,0,0,0,0,0,0,0,0,VALID,0,0,0,0,0,1,0,0,0,0,0,0,0,0,0,0,0,0,0,0,1696.71,1703.71,6,0,0.72,0.5,43,1.39,0.72,0.72,31.62,FLYING
32.3,APPROACH,FLY_TO_FIX,39.75,149,109.25,3878.39,47.59,79.46,19.58,3.28,10.229,1,0,-17.294,1,0.6,4.414,0.802,0.35,0.0168,0.4,254.68,0,0,0,52.647,0,0,0,0,0,268.23,0,0,0,0,0,0,0,0,0,0,0,0,0,0,0,0,0,VALID,0,0,0,0,0,1,0,0,0,0,0,0,0,0,0,0,0,0,0,0,1701.86,1707.96,6,0,0.72,0.5,44,1.39,0.72,0.72,32.34,FLYING
33.02,APPROACH,FLY_TO_FIX,37.04,149,111.96,3911.04,43.99,77.74,19.58,1.11,11.996,1,0,-17.208,1,0.6,4.386,0.802,0.35,0.0168,0.4,254.66,0,0,0,52.634,0,0,0,0,0,268.23,0,0,0,0,0,0,0,0,0,0,0,0,0,0,0,0,0,VALID,0,0,0,0,0,1,0,0,0,0,0,0,0,0,0,0,0,0,0,0,1707.08,1712.39,6,0,0.72,0.5,45,1.39,0.72,0.72,33.06,FLYING
33.74,APPROACH,FLY_TO_FIX,34.44,149,114.56,3940.98,40.38,75.67,19.57,358.81,14.132,1,0,-17.122,1,0.6,4.36,0.802,0.35,0.0168,0.4,254.63,0,0,0,52.623,0,0,0,0,0,268.23,0,0,0,0,0,0,0,0,0,0,0,0,0,0,0,0,0,VALID,0,0,0,0,0,1,0,0,0,0,0,0,0,0,0,0,0,0,0,0,1712.29,1716.92,6,0,0.72,0.5,46,1.39,0.72,0.72,33.78,FLYING
34.46,APPROACH,FLY_TO_FIX,31.96,149,117.04,3968.14,36.77,73.12,19.57,356.5,16.733,1,0,-17.036,1,0.6,4.337,0.802,0.35,0.0168,0.4,254.6,0,0,0,52.611,0,0,0,0,0,268.23,0,0,0,0,0,0,0,0,0,0,0,0,0,0,0,0,0,VALID,0,0,0,0,0,1,0,0,0,0,0,0,0,0,0,0,0,0,0,0,1717.44,1721.47,6,0,0.72,0.5,47,1.39,0.72,0.72,34.5,FLYING
35.18,APPROACH,FLY_TO_FIX,29.62,149,119.38,3992.44,33.13,70.01,19.57,354.31,19.898,1,0,-16.951,1,0.6,4.318,0.802,0.35,0.0168,0.4,254.57,0,0,0,52.6,0,0,0,0,0,268.23,0,0,0,0,0,0,0,0,0,0,0,0,0,0,0,0,0,VALID,0,0,0,0,0,1,0,0,0,0,0,0,0,0,0,0,0,0,0,0,1722.42,1725.93,6,0,0.72,0.5,48,1.39,0.72,0.72,35.22,FLYING
35.9,APPROACH,FLY_TO_FIX,27.48,149,121.52,4013.77,29.45,66.23,19.57,352.32,23.724,1,0,-16.866,1,0.6,4.3,0.802,0.35,0.0168,0.4,254.54,0,0,0,52.59,0,0,0,0,0,268.23,0,0,0,0,0,0,0,0,0,0,0,0,0,0,0,0,0,VALID,0,0,0,0,0,1,0,0,0,0,0,0,0,0,0,0,0,0,0,0,1727.09,1730.15,6,0,0.72,0.5,49,1.39,0.72,0.72,35.94,FLYING
36.62,APPROACH,FLY_TO_FIX,25.59,149,123.41,4031.95,25.7,61.71,19.56,350.61,28.276,1,0,-16.782,1,0.6,4.285,0.802,0.35,0.0168,0.4,254.51,0,0,0,52.579,0,0,0,0,0,268.23,0,0,0,0,0,0,0,0,0,0,0,0,0,0,0,0,0,VALID,0,0,0,0,0,1,0,0,0,0,0,0,0,0,0,0,0,0,0,0,1731.28,1733.93,6,0,0.72,0.5,50,1.39,0.72,0.72,36.66,FLYING
37.34,APPROACH,FLY_TO_FIX,24.04,149,124.96,4046.81,21.82,56.4,19.56,349.26,33.592,1,0,-16.698,1,0.6,4.271,0.802,0.35,0.0168,0.4,254.48,0,0,0,52.569,0,0,0,0,0,268.23,0,0,0,0,0,0,0,0,0,0,0,0,0,0,0,0,0,VALID,0,0,0,0,0,1,0,0,0,0,0,0,0,0,0,0,0,0,0,0,1734.71,1737,6,0,0.72,0.5,51,1.39,0.72,0.72,37.38,FLYING
38.06,APPROACH,FLY_TO_FIX,22.94,149,126.06,4058.14,17.76,50.36,19.57,348.31,39.643,1,0,-16.614,1,0.6,4.259,0.802,0.35,0.0168,0.4,254.44,0,0,0,52.559,0,0,0,0,0,268.23,0,0,0,0,0,0,0,0,0,0,0,0,0,0,0,0,0,VALID,0,0,0,0,0,1,0,0,0,0,0,0,0,0,0,0,0,0,0,0,1737.05,1739.01,6,0,0.72,0.5,52,1.39,0.72,0.72,38.1,FLYING
38.78,APPROACH,FLY_TO_FIX,22.43,149,126.57,4065.68,13.48,43.58,19.57,347.86,46.419,1,0,-16.531,1,0.6,4.248,0.802,0.35,0.0168,0.4,254.4,0,0,0,52.548,0,0,0,0,0,268.23,0,0,0,0,0,0,0,0,0,0,0,0,0,0,0,0,0,VALID,0,0,0,0,0,1,0,0,0,0,0,0,0,0,0,0,0,0,0,0,1737.93,1739.59,6,0,0.72,0.5,53,1.39,0.72,0.72,38.82,FLYING
39.5,APPROACH,FLY_TO_FIX,22.62,149,126.38,4069.07,8.98,35.97,19.55,347.97,54.033,1,0,-16.449,1,0.6,4.238,0.802,0.35,0.0168,0.4,254.35,0,0,0,52.538,0,0,0,0,0,268.23,0,0,0,0,0,0,0,0,0,0,0,0,0,0,0,0,0,VALID,0,0,0,0,0,1,0,0,0,0,0,0,0,0,0,0,0,0,0,0,1737.04,1738.42,6,0,0.72,0.5,54,1.39,0.72,0.72,39.54,FLYING
40.22,APPROACH,FLY_TO_FIX,23.6,149,125.4,4067.88,4.11,27.22,19.5,348.73,62.776,1,0,-16.366,1,0.6,4.228,0.802,0.35,0.0168,0.4,254.3,0,0,0,52.527,0,0,0,0,0,268.23,0,0,0,0,0,0,0,0,0,0,0,0,0,0,0,0,0,VALID,0,0,0,0,0,1,0,0,0,0,0,0,0,0,0,0,0,0,0,0,1734.12,1735.24,6,0,0.72,0.5,55,1.39,0.72,0.72,40.26,FLYING
40.94,APPROACH,FLY_TO_FIX,25.44,149,123.56,4061.73,-1.25,17.29,19.34,350.19,72.695,1,0,-16.285,1,0.6,4.218,0.802,0.35,0.0168,0.4,254.25,0,0,0,52.515,0,0,0,0,0,268.23,0,0,0,0,0,0,0,0,0,0,0,0,0,0,0,0,0,VALID,0,0,0,0,0,1,0,0,0,0,0,0,0,0,0,0,0,0,0,0,1729.03,1729.92,6,0,0.72,0.5,56,1.39,0.72,0.72,40.98,FLYING
41.66,APPROACH,FLY_TO_FIX,28.12,149,120.88,4050.35,-7.23,6.16,19.13,352.25,83.749,1,0,-16.203,1,0.6,4.207,0.802,0.35,0.0168,0.4,254.19,0,0,0,52.503,0,0,0,0,0,268.23,0,0,0,0,0,0,0,0,0,0,0,0,0,0,0,0,0,VALID,0,0,0,0,0,1,0,0,0,0,0,0,0,0,0,0,0,0,0,0,1721.83,1722.52,6,0,0.72,0.5,57,1.39,0.72,0.72,41.7,FLYING
42.38,APPROACH,FLY_TO_FIX,31.6,149,117.4,4033.53,-13.93,-6.17,19.13,354.98,83.74,1,0,20,1,0.6,4.196,0.802,0.35,0.0168,0.4,254.12,0,0,0,52.491,0,0,0,0,0,268.23,0,0,0,0,0,0,0,0,0,0,0,0,0,0,0,0,0,VALID,0,0,0,0,0,1,0,0,0,0,0,0,0,0,0,0,0,0,0,0,1712.78,1713.29,6,0,0.72,0.5,58,1.39,0.72,0.72,42.42,FLYING
43.12,APPROACH,FLY_TO_FIX,35.97,149,113.03,4010.81,-22.22,-19.91,19.38,358.56,70.09,0.8,0,20,1,0.6,4.183,0.802,0.35,0.0168,0.4,254.05,0,0,0,52.479,0,0,0,0,0,268.23,0,0,0,0,0,0,0,0,0,0,0,0,0,0,0,0,0,VALID,0,0,0,0,0,1,0,0,0,0,0,0,0,0,0,0,0,0,0,0,1701.84,1702.21,6,0,0.74,0.5,59,1.39,0.74,0.72,43.16,FLYING
43.86,APPROACH,FLY_TO_FIX,40.93,149,108.07,3983.18,-31.37,-33.03,19.57,3.01,56.926,0.6,0,20,1,0.6,4.17,0.802,0.35,0.0168,0.4,253.97,0,0,0,52.468,0,0,0,0,0,268.23,0,0,0,0,0,0,0,0,0,0,0,0,0,0,0,0,0,VALID,0,0,0,0,0,1,0,0,0,0,0,0,0,0,0,0,0,0,0,0,1611.71,1690.35,6,0,0.74,0.5,60,1.39,0.74,0.74,43.9,FLYING
44.6,APPROACH,FLY_TO_FIX,46.24,149,102.76,3950.42,-40.86,-44.98,19.65,8.23,44.796,0.4,0,20,1,0.6,4.155,0.802,0.35,0.0168,0.4,253.89,0,0,0,52.457,0,0,0,0,0,268.23,0,0,0,0,0,0,0,0,0,0,0,0,0,0,0,0,0,VALID,0,0,0,0,0,1,0,0,0,0,0,0,0,0,0,0,0,0,0,0,1461.76,1678.72,6,0,0.74,0.5,61,1.39,0.74,0.74,44.64,FLYING
45.34,APPROACH,FLY_TO_FIX,51.69,149,97.31,3912.4,-50.32,-55.6,19.75,14.91,33.79,0.2,0,20,1,0.6,4.139,0.802,0.35,0.0168,0.4,253.8,0,0,0,52.447,0,0,0,0,0,268.23,0,0,0,0,0,0,0,0,0,0,0,0,0,0,0,0,0,VALID,0,0,0,0,0,1,0,0,0,0,0,0,0,0,0,0,0,0,0,0,1268.7,1668.68,6,0,0.74,0.5,62,1.39,0.74,0.74,45.38,FLYING
46.08,APPROACH,FLY_TO_FIX,57.1,149,91.9,3868.99,-59.53,-64.66,19.84,24.53,23.946,0,0,20,1,0.6,4.125,0.802,0.35,0.0168,0.4,253.72,0,0,0,52.438,0,0,0,0,0,268.23,0,0,0,0,0,0,0,0,0,0,0,0,0,0,0,0,0,VALID,0,0,0,0,0,1,0,0,0,0,0,0,0,0,0,0,0,0,0,0,1050.7,1671.31,6,0,0.74,0.5,63,1.39,0.74,0.74,46.12,FLYING
46.82,APPROACH,FLY_TO_FIX,62.34,149,86.66,3820.19,-68.24,-71.63,19.89,39.62,15.415,0,0,20,1,0.6,4.115,0.77,0.35,0.0168,0.4,253.63,0,0,0,52.432,0,0,0,0,0,268.23,0,0,0,0,0,0,0,0,0,0,0,0,0,0,0,0,0,VALID,0,0,0,0,0,1,0,0,0,0,0,0,0,0,0,0,0,0,0,0,812,1687.93,6,0,0.74,0.5,64,1.35,0.74,0.74,46.86,FLYING
47.56,APPROACH,FLY_TO_FIX,67.35,149,81.65,3766.07,-76.37,-75.75,20,62.7,8.193,0,0,20,1,0.6,4.111,0.75,0.35,0.0168,0.4,253.55,0,0,0,52.427,0,0,0,0,0,268.23,0,0,0,0,0,0,0,0,0,0,0,0,0,0,0,0,0,VALID,0,0,0,0,0,1,0,0,0,0,0,0,0,0,0,0,0,0,0,0,630.1,1714.73,6,0,0.74,0.5,65,1.35,0.74,0.74,47.6,FLYING
48.3,APPROACH,FLY_TO_FIX,72.12,149,76.88,3706.73,-83.89,-76.44,19.88,89.38,2.222,0,0,20,1,0.6,4.113,0.75,0.35,0.0168,0.4,253.47,0,0,0,52.423,0,0,0,0,0,268.23,0,0,0,0,0,0,0,0,0,0,0,0,0,0,0,0,0,VALID,0,0,0,0,0,1,0,0,0,0,0,0,0,0,0,0,0,0,0,0,491.03,1748.51,6,0,0.74,0.5,66,1.35,0.74,0.74,48.34,FLYING
49.04,APPROACH,FLY_TO_FIX,76.71,149,72.29,3642.3,-90.86,-75.02,19.32,109.58,-2.553,0,0,20,1,0.6,4.123,0.75,0.35,0.0168,0.4,253.4,0,0,0,52.422,0,0,0,0,0,268.23,0,0,0,0,0,0,0,0,0,0,0,0,0,0,0,0,0,VALID,0,0,0,0,0,1,0,0,0,0,0,0,0,0,0,0,0,0,0,0,383.67,1787.03,6,0,0.74,0.5,67,1.35,0.74,0.74,49.08,FLYING
49.78,APPROACH,FLY_TO_FIX,81.18,149,67.82,3572.94,-97.39,-73.16,18.58,122.23,-6.082,0,0,20,1,0.6,4.139,0.75,0.35,0.0168,0.4,253.33,0,0,0,52.424,0,0,0,0,0,268.23,0,0,0,0,0,0,0,0,0,0,0,0,0,0,0,0,0,VALID,0,0,0,0,0,1,0,0,0,0,0,0,0,0,0,0,0,0,0,0,300.31,1829.09,6,0,0.74,0.5,68,1.35,0.74,0.74,49.82,FLYING
50.52,APPROACH,FLY_TO_FIX,85.57,149,63.43,3499.02,-103.48,-71.15,18.74,129.2,-8.316,0,0,20,1,0.6,4.163,0.75,0.35,0.0168,0.4,253.27,0,0,0,52.427,0,0,0,0,0,268.23,0,0,0,0,0,0,0,0,0,0,0,0,0,0,0,0,0,VALID,0,0,0,0,0,1,0,0,0,0,0,0,0,0,0,0,0,0,0,0,235.32,1873.66,6,0,0.74,0.5,69,1.35,0.74,0.74,50.56,FLYING
51.26,APPROACH,FLY_TO_FIX,89.87,149,59.13,3420.8,-109.11,-69.03,19.35,131.95,-9.289,0,0,20,1,0.6,4.194,0.75,0.35,0.0168,0.4,253.22,0,0,0,52.433,0,0,0,0,0,268.23,0,0,0,0,0,0,0,0,0,0,0,0,0,0,0,0,0,VALID,0,0,0,0,0,1,0,0,0,0,0,0,0,0,0,0,0,0,0,0,184.47,1919.6,6,0,0.74,0.5,70,1.35,0.74,0.74,51.3,FLYING
52,APPROACH,FLY_TO_FIX,94.13,149,54.87,3338.34,-114.4,-67.58,18.87,132.58,-9.321,0,0,20,1,0.6,4.231,0.75,0.35,0.0168,0.4,253.17,0,0,0,52.442,0,0,0,0,0,268.23,0,0,0,0,0,0,0,0,0,0,0,0,0,0,0,0,0,VALID,0,0,0,0,0,1,0,0,0,0,0,0,0,0,0,0,0,0,0,0,144.64,1966.67,6,0,0.74,0.5,71,1.35,0.74,0.74,52.04,FLYING
52.74,APPROACH,FLY_TO_FIX,98.43,149,50.57,3251.94,-119.4,-66.68,17.8,131.76,-8.821,0,0,20,1,0.6,4.274,0.75,0.35,0.0168,0.4,253.13,0,0,0,52.453,0,0,0,0,0,268.23,0,0,0,0,0,0,0,0,0,0,0,0,0,0,0,0,0,VALID,0,0,0,0,0,1,0,0,0,0,0,0,0,0,0,0,0,0,0,0,113.43,2014.9,6,0,0.74,0.5,72,1.35,0.74,0.74,52.78,FLYING
53.48,APPROACH,FLY_TO_FIX,103.01,149,45.99,3161.6,-124.46,-66.79,15.29,130.07,-8.456,0,0,20,1,0.6,4.323,0.75,0.35,0.0168,0.4,253.1,0,0,0,52.467,0,0,0,0,0,268.23,0,0,0,0,0,0,0,0,0,0,0,0,0,0,0,0,0,VALID,0,0,0,0,0,1,0,0,0,0,0,0,0,0,0,0,0,0,0,0,89.06,2066.58,6,0,0.74,0.5,73,1.35,0.74,0.74,53.52,FLYING
54.22,APPROACH,FLY_TO_FIX,107.86,149,41.14,3067.88,-129.51,-66.52,14.97,125.92,-7.522,0,0,20,1,0.6,4.38,0.75,0.35,0.0168,0.4,253.07,0,0,0,52.484,0,0,0,0,0,268.23,0,0,0,0,0,0,0,0,0,0,0,0,0,0,0,0,0,VALID,0,0,0,0,0,1,0,0,0,0,0,0,0,0,0,0,0,0,0,0,70.03,2122.67,6,0,0.74,0.5,74,1.35,0.74,0.74,54.26,FLYING
54.96,APPROACH,FLY_TO_FIX,112.74,149,36.26,2971.36,-134.12,-64.04,17.12,118.83,-5.756,0,0,20,1,0.6,4.442,0.75,0.35,0.0168,0.4,253.05,0,0,0,52.503,0,0,0,0,0,268.23,0,0,0,0,0,0,0,0,0,0,0,0,0,0,0,0,0,VALID,0,0,0,0,0,1,0,0,0,0,0,0,0,0,0,0,0,0,0,0,55.11,2181.01,6,0,0.74,0.5,75,1.35,0.74,0.74,55,FLYING
55.7,APPROACH,FLY_TO_FIX,117.36,149,31.64,2872.01,-137.77,-59.99,18.97,110.91,-3.231,0,0,20,1,0.6,4.5,0.75,0.35,0.0168,0.4,253.04,0,0,0,52.525,0,0,0,0,0,268.23,0,0,0,0,0,0,0,0,0,0,0,0,0,0,0,0,0,VALID,0,0,0,0,0,1,0,0,0,0,0,0,0,0,0,0,0,0,0,0,43.32,2237.78,6,0,0.74,0.5,76,1.35,0.74,0.74,55.74,FLYING
56.44,APPROACH,FLY_TO_FIX,121.79,149,27.21,2770.05,-140.74,-56.82,19.51,102.92,0.155,0,0,20,1,0.6,4.5,0.75,0.35,0.0168,0.4,253.03,0,0,0,52.552,0,0,0,0,0,268.23,0,0,0,0,0,0,0,0,0,0,0,0,0,0,0,0,0,VALID,0,0,0,0,0,1,0,0,0,0,0,0,0,0,0,0,0,0,0,0,34.02,2293.43,6,0,0.74,0.5,77,1.35,0.74,0.74,56.48,FLYING
57.18,APPROACH,FLY_TO_FIX,126.23,149,22.77,2666.2,-143.18,-53.93,19.6,94.75,4.148,0,0,20,1,0.6,4.5,0.75,0.35,0.0168,0.4,253.04,0,0,0,52.583,0,0,0,0,0,268.23,0,0,0,0,0,0,0,0,0,0,0,0,0,0,0,0,0,VALID,0,0,0,0,0,1,0,0,0,0,0,0,0,0,0,0,0,0,0,0,26.73,2350.24,6,0,0.74,0.5,78,1.35,0.74,0.74,57.22,FLYING
57.92,APPROACH,FLY_TO_FIX,130.53,149,18.47,2560.97,-144.97,-50.82,19.61,87.8,8.013,0,0,20,1,0.6,4.5,0.75,0.35,0.0168,0.4,253.04,0,0,0,52.619,0,0,0,0,0,268.23,0,0,0,0,0,0,0,0,0,0,0,0,0,0,0,0,0,VALID,0,0,0,0,0,1,0,0,0,0,0,0,0,0,0,0,0,0,0,0,20.99,2406.24,6,0,0.74,0.5,79,1.35,0.74,0.74,57.96,FLYING
58.66,APPROACH,FLY_TO_FIX,134.6,149,14.4,2454.77,-146.03,-47.62,19.6,82.74,11.247,0,0,20,1,0.6,4.5,0.75,0.35,0.0168,0.4,253.06,0,0,0,52.66,0,0,0,0,0,268.23,0,0,0,0,0,0,0,0,0,0,0,0,0,0,0,0,0,VALID,0,0,0,0,0,1,0,0,0,0,0,0,0,0,0,0,0,0,0,0,16.46,2460,6,0,0.74,0.5,80,1.35,0.74,0.74,58.7,FLYING
59.4,APPROACH,FLY_TO_FIX,138.34,149,10.66,2348,-146.37,-44.6,19.59,79.77,13.534,0,0,20,1,0.6,4.5,0.75,0.35,0.0168,0.4,253.08,0,0,0,52.706,0,0,0,0,0,268.23,0,0,0,0,0,0,0,0,0,0,0,0,0,0,0,0,0,VALID,0,0,0,0,0,1,0,0,0,0,0,0,0,0,0,0,0,0,0,0,12.89,2510.34,6,0,0.74,0.5,81,1.35,0.74,0.74,59.44,FLYING
60.14,APPROACH,FLY_TO_FIX,141.69,149,7.31,2240.7,-146.05,-42.17,19.01,78.83,14.707,0,0,20,1,0.6,4.5,0.75,0.35,0.0168,0.4,253.1,0,0,0,52.758,0,0,0,0,0,268.23,0,0,0,0,0,0,0,0,0,0,0,0,0,0,0,0,0,VALID,0,0,0,0,0,1,0,0,0,0,0,0,0,0,0,0,0,0,0,0,10.08,2556.18,6,0,0.74,0.5,82,1.35,0.74,0.74,60.18,FLYING
60.88,APPROACH,FLY_TO_FIX,145.25,149,3.75,2132.33,-146.06,-42.04,16.14,78.4,15.094,0,0,20,1,0.6,4.5,0.75,0.35,0.0168,0.4,253.13,0,0,0,52.814,0,0,0,0,0,268.23,0,0,0,0,0,0,0,0,0,0,0,0,0,0,0,0,0,VALID,0,0,0,0,0,1,0,0,0,0,0,0,0,0,0,0,0,0,0,0,7.89,2605.02,6,0,0.74,0.5,83,1.35,0.74,0.74,60.92,FLYING
61.62,APPROACH,FLY_TO_FIX,149.18,149,-0.18,2024.3,-147.01,-42.39,15.61,78.34,15.126,0,0,20,1,0.6,4.5,0.75,0.35,0.0168,0.4,253.17,0,0,0,52.874,0,0,0,0,0,268.23,0,0,0,0,0,0,0,0,0,0,0,0,0,0,0,0,0,VALID,0,0,0,0,0,1,0,0,0,0,0,0,0,0,0,0,0,0,0,0,6.18,2659.23,6,0,0.74,0.5,84,1.35,0.74,0.74,61.66,FLYING
62.36,APPROACH,FLY_TO_FIX,152.74,149,-3.74,1917.5,-146.74,-39.68,17.85,79.84,15.121,0,0,19.9,1,0.6,4.5,0.75,0.35,0.0168,0.4,253.2,0,0,0,52.939,0,0,0,0,0,268.23,0,0,0,0,0,0,0,0,0,0,0,0,0,0,0,0,0,VALID,0,0,0,0,0,1,0,0,0,0,0,0,0,0,0,0,0,0,0,0,4.84,2709.48,6,0,0.74,0.5,85,1.39,0.74,0.74,62.4,FLYING
63.08,APPROACH,FLY_TO_FIX,155.46,149,-6.46,1814.19,-144.49,-36.02,18.74,81.92,15.091,0,0,19.8,1,0.6,4.5,0.75,0.35,0.0168,0.4,253.25,0,0,0,53.005,0,0,0,0,0,268.23,0,0,0,0,0,0,0,0,0,0,0,0,0,0,0,0,0,VALID,0,0,0,0,0,1,0,0,0,0,0,0,0,0,0,0,0,0,0,0,3.8,2749.23,6,0,0.72,0.5,86,1.43,0.74,0.72,63.12,FLYING
63.8,APPROACH,FLY_TO_FIX,158.06,149,-9.06,1710.92,-142.28,-35.17,16.48,83.4,14.775,0,0,19.701,1,0.6,4.5,0.75,0.35,0.0168,0.4,253.29,0,0,0,53.077,0,0,0,0,0,268.23,0,0,0,0,0,0,0,0,0,0,0,0,0,0,0,0,0,VALID,0,0,0,0,0,1,0,0,0,0,0,0,0,0,0,0,0,0,0,0,2.99,2787.42,6,0,0.72,0.5,87,1.43,0.72,0.72,63.84,FLYING
64.52,APPROACH,FLY_TO_FIX,161.09,149,-12.09,1609.36,-141.32,-35.31,16.15,84.92,14.176,0,0,19.603,1,0.6,4.5,0.75,0.35,0.0168,0.4,253.35,0,0,0,53.152,0,0,0,0,0,268.23,0,0,0,0,0,0,0,0,0,0,0,0,0,0,0,0,0,VALID,0,0,0,0,0,1,0,0,0,0,0,0,0,0,0,0,0,0,0,0,2.35,2831.75,6,0,0.72,0.5,88,1.43,0.72,0.72,64.56,FLYING
65.24,APPROACH,FLY_TO_FIX,163.63,149,-14.63,1510.51,-138.67,-32.45,18.09,87.44,13.603,0,0,19.505,1,0.6,4.5,0.75,0.35,0.0168,0.4,253.41,0,0,0,53.231,0,0,0,0,0,268.23,0,0,0,0,0,0,0,0,0,0,0,0,0,0,0,0,0,VALID,0,0,0,0,0,1,0,0,0,0,0,0,0,0,0,0,0,0,0,0,1.85,2870.49,6,0,0.72,0.5,89,1.43,0.72,0.72,65.28,FLYING
65.96,APPROACH,FLY_TO_FIX,165.55,149,-16.55,1412.86,-134.3,-29.79,16.97,89.87,13.14,0,0,19.407,1,0.6,4.5,0.75,0.35,0.0168,0.4,253.47,0,0,0,53.315,0,0,0,0,0,268.23,0,0,0,0,0,0,0,0,0,0,0,0,0,0,0,0,0,VALID,0,0,0,0,0,1,0,0,0,0,0,0,0,0,0,0,0,0,0,0,1.45,2901.24,6,0,0.72,0.5,90,1.43,0.72,0.72,66,FLYING
66.68,APPROACH,FLY_TO_FIX,168.29,149,-19.29,1316.32,-131.79,-30.77,13.94,91.63,12.489,0,0,19.31,1,0.6,4.5,0.75,0.35,0.0168,0.4,253.54,0.009,0,0,53.402,0,0,0,0,0,268.23,0,0,0,0,0,0,0,0,0,0,0,0,0,0,0,0,0,VALID,0,0,0,0,0,1,0,0,0,0,0,0,0,0,0,0,0,0,0,0,1.14,2942.64,6,0,0.72,0.5,91,1.43,0.72,0.72,66.72,FLYING
67.4,APPROACH,FLY_TO_FIX,171.85,149,-22.85,1221.94,-130.66,-31.69,12.78,93.33,11.798,0,0,19.214,1,0.6,4.5,0.75,0.35,0.0168,0.4,253.62,0.484,0,0,53.494,0,0,0,0,0,268.23,0,0,0,0,0,0,0,0,0,0,0,0,0,0,0,0,0,VALID,0,0,0,0,0,1,0,0,0,0,0,0,0,0,0,0,0,0,0,0,0.81,2995.25,6,0,0.72,0.5,92,1.43,0.72,0.72,67.44,FLYING
68.12,APPROACH,FLY_TO_FIX,174.8,149,-25.8,1131.65,-128.21,-28.8,16.38,95.57,11.295,0,0,19.118,1,0.6,4.5,0.75,0.35,0.0168,0.4,253.7,0.941,0,0,53.589,0,0,0,0,0,268.23,0,0,0,0,0,0,0,0,0,0,0,0,0,0,0,0,0,VALID,0,0,0,0,0,1,0,0,0,0,0,0,0,0,0,0,0,0,0,0,0.64,3040.84,6,0,0.72,0.5,93,1.43,0.72,0.72,68.16,FLYING
68.84,APPROACH,FLY_TO_FIX,176.2,149,-27.2,1044.87,-122.02,-23.08,19.16,97.87,11.191,0,0,19.022,1,0.6,4.5,0.75,0.35,0.0168,0.4,253.79,1.379,0,0,53.687,0,0,0,0,0,268.23,0,0,0,0,0,0,0,0,0,0,0,0,0,0,0,0,0,VALID,0,0,0,0,0,1,0,0,0,0,0,0,0,0,0,0,0,0,0,0,0.5,3066.51,6,0,0.72,0.5,94,1.43,0.72,0.72,68.88,FLYING
69.56,APPROACH,FLY_TO_FIX,176.37,149,-27.37,962.08,-114.31,-19.07,19.59,99.32,11.344,0,0,18.927,1,0.6,4.5,0.75,0.35,0.0168,0.4,253.89,1.798,0,0,53.79,0,0,0,0,0,268.23,0,0,0,0,0,0,0,0,0,0,0,0,0,0,0,0,0,VALID,0,0,0,0,0,1,0,0,0,0,0,0,0,0,0,0,0,0,0,0,0.39,3075.93,6,0,0.72,0.5,95,1.43,0.72,0.72,69.6,FLYING
70.28,APPROACH,FLY_TO_FIX,176.17,149,-27.17,884.67,-106.41,-16.16,19.6,100.22,11.59,0,0,18.832,1,0.6,4.5,0.75,0.35,0.0168,0.4,253.99,2.193,0,0,53.895,0,0,0,0,0,268.23,0,0,0,0,0,0,0,0,0,0,0,0,0,0,0,0,0,VALID,0,0,0,0,0,1,0,0,0,0,0,0,0,0,0,0,0,0,0,0,0.31,3080.5,6,0,0.72,0.5,96,1.43,0.72,0.72,70.32,FLYING
71,APPROACH,FLY_TO_FIX,175.64,149,-26.64,813,-98.36,-13.32,19.6,100.91,11.891,0,0,18.738,1,0.6,4.5,0.75,0.35,0.0168,0.4,254.11,2.558,0,0,54.003,0,0,0,0,0,268.23,0,0,0,0,0,0,0,0,0,0,0,0,0,0,0,0,0,VALID,0,0,0,0,0,1,0,0,0,0,0,0,0,0,0,0,0,0,0,0,0.24,3080.47,6,0,0.72,0.5,97,1.43,0.72,0.72,71.04,FLYING
71.72,APPROACH,FLY_TO_FIX,174.81,149,-25.81,747.13,-90.26,-10.54,19.6,101.51,12.215,0,0,18.645,1,0.6,4.5,0.75,0.35,0.0168,0.4,254.22,2.895,0,0,54.114,0,0,0,0,0,268.23,0,0,0,0,0,0,0,0,0,0,0,0,0,0,0,0,0,VALID,0,0,0,0,0,1,0,0,0,0,0,0,0,0,0,0,0,0,0,0,0,3076.22,6,0,0.72,0.5,98,1.43,0.72,0.72,71.76,FLYING
72.44,APPROACH,FLY_TO_FIX,173.67,149,-24.67,686.99,-82.2,-7.87,19.6,102.37,12.47,0,0,18.551,1,0.6,4.5,0.75,0.35,0.0168,0.4,254.35,3.203,0,0,54.226,0,0,0,0,0,268.23,0,0,0,0,0,0,0,0,0,0,0,0,0,0,0,0,0,VALID,0,0,0,0,0,1,0,0,0,0,0,0,0,0,0,0,0,0,0,0,0,3067.74,6,0,0.72,0.5,99,1.43,0.72,0.72,72.48,FLYING
73.16,APPROACH,FLY_TO_FIX,172.22,149,-23.22,632.54,-74.26,-5.34,19.6,103.49,12.668,0,0,18.459,1,0.6,4.5,0.75,0.35,0.0168,0.4,254.48,3.482,0,0,54.339,0,0,0,0,0,268.23,0,0,0,0,0,0,0,0,0,0,0,0,0,0,0,0,0,VALID,0,0,0,0,0,1,0,0,0,0,0,0,0,0,0,0,0,0,0,0,0,3054.86,6,0,0.72,0.5,100,1.43,0.72,0.72,73.2,FLYING
73.88,APPROACH,FLY_TO_FIX,170.51,149,-21.51,583.67,-66.56,-2.9,19.6,104.62,12.929,0.0399,0,7.603,1,0.6,4.5,0.75,0.35,0.0168,0.4,254.61,3.733,0,0,54.452,0,0,0,0,0,268.23,0,0,0,0,0,0,0,0,0,0,0,0,0,0,0,0,0,VALID,0,0,0,0,0,1,0,0,0,0,0,0,0,0,0,0,0,0,0,0,0,3038.35,6,0,0.72,0.5,101,1.39,0.72,0.72,73.92,FLYING
74.6,APPROACH,FLY_TO_FIX,168.57,149,-19.57,540.17,-59.13,-0.56,19.6,105.79,13.217,0.1065,0,-2.297,1,0.6,4.5,0.75,0.35,0.0168,0.4,254.75,3.957,0,0,54.566,0,0,0,0,0,268.23,0,0,0,0,0,0,0,0,0,0,0,0,0,0,0,0,0,VALID,0,0,0,0,0,1,0,0,0,0,0,0,0,0,0,0,0,0,0,0,15.77,3018.52,6,0,0.72,0.5,102,1.39,0.72,0.72,74.64,FLYING
75.32,APPROACH,FLY_TO_FIX,166.48,149,-17.48,501.82,-52.05,1.67,19.6,106.98,13.528,0.1678,0,-11.155,1,0.6,4.5,0.75,0.35,0.0168,0.4,254.89,4.155,0,0,54.679,0,0,0,0,0,268.23,0,0,0,0,0,0,0,0,0,0,0,0,0,0,0,0,0,VALID,0,0,0,0,0,1,0,0,0,0,0,0,0,0,0,0,0,0,0,0,55.74,2996.27,6,0,0.72,0.5,103,1.43,0.72,0.72,75.36,FLYING
76.04,APPROACH,FLY_TO_FIX,164.28,149,-15.28,468.36,-45.34,3.81,19.6,108.18,13.824,0.2205,0,-18.918,1,0.6,4.5,0.75,0.35,0.0168,0.4,255.03,4.329,0,0,54.791,0,0,0,0,0,268.23,0,0,0,0,0,0,0,0,0,0,0,0,0,0,0,0,0,VALID,0,0,0,0,0,1,0,0,0,0,0,0,0,0,0,0,0,0,0,0,114.28,2972.44,6,0,0.72,0.5,104,1.43,0.72,0.72,76.08,FLYING
76.76,APPROACH,FLY_TO_FIX,162.03,149,-13.03,439.5,-39.02,5.85,19.6,109.4,14.167,0.3562,0,-20,1,0.6,4.5,0.75,0.35,0.0168,0.4,255.17,4.479,0,0,54.902,0,0,0,0,0,268.23,0,0,0,0,0,0,0,0,0,0,0,0,0,0,0,0,0,VALID,0,0,0,0,0,1,0,0,0,0,0,0,0,0,0,0,0,0,0,0,184.9,2947.72,6,0,0.72,0.5,105,1.43,0.72,0.72,76.8,FLYING
77.48,APPROACH,FLY_TO_FIX,159.79,149,-10.79,414.98,-33.09,7.79,19.6,110.64,14.527,0.4797,0,-20,1,0.6,4.5,0.75,0.35,0.0168,0.4,255.32,4.606,0,0,55.011,0,0,0,0,0,268.23,0,0,0,0,0,0,0,0,0,0,0,0,0,0,0,0,0,VALID,0,0,0,0,0,1,0,0,0,0,0,0,0,0,0,0,0,0,0,0,297.25,2922.83,6,0,0.72,0.5,106,1.43,0.72,0.72,77.52,FLYING
78.2,APPROACH,FLY_TO_FIX,157.63,149,-8.63,394.42,-27.46,9.6,19.4,111.88,14.892,0.5679,0,-20,1,0.6,4.5,0.75,0.35,0.0168,0.4,255.47,4.714,0,0,55.12,0,0,0,0,0,268.23,0,0,0,0,0,0,0,0,0,0,0,0,0,0,0,0,0,VALID,0,0,0,0,0,1,0,0,0,0,0,0,0,0,0,0,0,0,0,0,440.82,2898.71,6,0,0.72,0.5,107,1.43,0.72,0.72,78.24,FLYING
78.92,APPROACH,FLY_TO_FIX,155.73,149,-6.73,377.24,-22.56,10.85,18.75,113,15.238,0.6076,0,-20,1,0.6,4.5,0.75,0.35,0.0168,0.4,255.62,4.804,0,0,55.226,0,0,0,0,0,268.23,0,0,0,0,0,0,0,0,0,0,0,0,0,0,0,0,0,VALID,0,0,0,0,0,1,0,0,0,0,0,0,0,0,0,0,0,0,0,0,597.49,2877.49,6,0,0.72,0.5,108,1.43,0.72,0.72,78.96,FLYING
79.64,APPROACH,FLY_TO_FIX,154.32,149,-5.32,362.57,-18.22,11.24,17.03,113.87,15.579,0.5728,0,-20,1,0.6,4.5,0.75,0.35,0.0168,0.4,255.77,4.88,0,0,55.331,0,0,0,0,0,268.23,0,0,0,0,0,0,0,0,0,0,0,0,0,0,0,0,0,VALID,0,0,0,0,0,1,0,0,0,0,0,0,0,0,0,0,0,0,0,0,747.64,2861.9,6,0,0.72,0.5,109,1.43,0.72,0.72,79.68,FLYING
80.36,APPROACH,FLY_TO_FIX,153.77,149,-4.77,349.94,-15.21,10.57,14.86,114.38,15.932,0.429,0,-20,1,0.6,4.5,0.75,0.35,0.0168,0.4,255.93,4.945,0,0,55.435,0,0,0,0,0,268.23,0,0,0,0,0,0,0,0,0,0,0,0,0,0,0,0,0,VALID,0,0,0,0,0,1,0,0,0,0,0,0,0,0,0,0,0,0,0,0,866.12,2856.63,6,0,0.72,0.5,110,1.43,0.72,0.72,80.4,FLYING
81.08,APPROACH,FLY_TO_FIX,154.04,149,-5.04,338.61,-13.51,9.22,12.59,114.64,16.23,0.229,0,-20,1,0.6,4.5,0.75,0.35,0.0168,0.4,256.08,5,0,0,55.537,0,0,0,0,0,268.23,0,0,0,0,0,0,0,0,0,0,0,0,0,0,0,0,0,VALID,0,0,0,0,0,1,0,0,0,0,0,0,0,0,0,0,0,0,0,0,917.14,2860.99,6,0,0.72,0.5,111,1.43,0.72,0.72,81.12,FLYING
81.8,APPROACH,FLY_TO_FIX,154.91,149,-5.91,327.8,-13.08,7.45,10.44,114.73,16.471,0.029,0,-19.9,1,0.6,4.5,0.75,0.35,0.0168,0.4,256.24,5,0,0,55.64,0,0,0,0,0,268.23,0,0,0,0,0,0,0,0,0,0,0,0,0,0,0,0,0,VALID,0,0,0,0,0,1,0,0,0,0,0,0,0,0,0,0,0,0,0,0,862.87,2872.58,6,0,0.72,0.5,112,1.43,0.72,0.72,81.84,FLYING
82.52,APPROACH,FLY_TO_FIX,156.06,149,-7.06,316.73,-13.86,5.49,8.59,114.72,16.677,0,0,-19.8,1,0.6,4.5,0.75,0.35,0.0168,0.4,256.4,5,0,0,55.743,0,0,0,0,0,268.23,0,0,0,0,0,0,0,0,0,0,0,0,0,0,0,0,0,VALID,0,0,0,0,0,1,0,0,0,0,0,0,0,0,0,0,0,0,0,0,690.9,2887.74,6,0,0.72,0.5,113,1.39,0.72,0.72,82.56,FLYING
83.24,APPROACH,FLY_TO_FIX,157.27,149,-8.27,304.78,-15.57,3.53,7.16,114.69,16.807,0,0,-19.701,1,0.6,4.5,0.75,0.35,0.0168,0.4,256.56,5,0,0,55.845,0,0,0,0,0,268.23,0,0,0,0,0,0,0,0,0,0,0,0,0,0,0,0,0,VALID,0,0,0,0,0,1,0,0,0,0,0,0,0,0,0,0,0,0,0,0,535.96,2903.67,6,0,0.72,0.5,114,1.43,0.72,0.72,83.28,FLYING
83.96,APPROACH,FLY_TO_FIX,158.49,149,-9.49,291.39,-18.01,1.65,6.1,114.67,16.915,0,0,-19.603,1,0.6,4.5,0.75,0.35,0.0168,0.4,256.73,5,0,0,55.949,0,0,0,0,0,268.23,0,0,0,0,0,0,0,0,0,0,0,0,0,0,0,0,0,VALID,0,0,0,0,0,1,0,0,0,0,0,0,0,0,0,0,0,0,0,0,415.55,2920.15,6,0,0.72,0.5,115,1.43,0.72,0.72,84,FLYING
84.68,APPROACH,FLY_TO_FIX,159.74,149,-10.74,276.1,-20.96,-0.1,5.41,114.78,17.013,0,0,-19.505,1,0.6,4.5,0.75,0.35,0.0168,0.4,256.89,5,0,0,56.052,0,0,0,0,0,268.23,0,0,0,0,0,0,0,0,0,0,0,0,0,0,0,0,0,VALID,0,0,0,0,0,1,0,0,0,0,0,0,0,0,0,0,0,0,0,0,322.3,2937.13,6,0,0.72,0.5,116,1.43,0.72,0.72,84.72,FLYING
85.4,APPROACH,FLY_TO_FIX,161.05,149,-12.05,258.65,-24.31,-1.78,5.01,115.24,17.049,0,0,-19.407,1,0.6,4.5,0.75,0.35,0.0168,0.4,257.05,5,0,0,56.155,0,0,0,0,0,268.23,0,0,0,0,0,0,0,0,0,0,0,0,0,0,0,0,0,VALID,0,0,0,0,0,1,0,0,0,0,0,0,0,0,0,0,0,0,0,0,250.12,2955.35,6,0,0.72,0.5,117,1.43,0.72,0.72,85.44,FLYING
86.12,APPROACH,FLY_TO_FIX,162.4,149,-13.4,238.99,-27.83,-3.14,4.85,115.33,17.143,0,0,-19.31,1,0.6,4.5,0.75,0.35,0.0168,0.4,257.22,5,0,0,56.259,0,0,0,0,0,268.23,0,0,0,0,0,0,0,0,0,0,0,0,0,0,0,0,0,VALID,0,0,0,0,0,1,0,0,0,0,0,0,0,0,0,0,0,0,0,0,194.2,2974.47,6,0,0.72,0.5,118,1.43,0.72,0.72,86.16,FLYING
86.84,APPROACH,FLY_TO_FIX,163.81,149,-14.81,216.99,-31.18,-4.15,4.88,115.01,17.228,0,0,-19.214,1,0.6,4.5,0.75,0.35,0.0168,0.4,257.38,5,0,0,56.363,0,0,0,0,0,268.23,0,0,0,0,0,0,0,0,0,0,0,0,0,0,0,0,0,VALID,0,0,0,0,0,1,0,0,0,0,0,0,0,0,0,0,0,0,0,0,150.86,2994.64,6,0,0.72,0.5,119,1.43,0.72,0.72,86.88,FLYING
87.58,APPROACH,FLY_TO_FIX,165.24,149,-16.24,191.9,-34.45,-5.18,5.04,115.32,17.171,0,0,-19.118,1,0.6,4.5,0.75,0.35,0.0168,0.4,257.55,5,0,0,56.47,0,0,0,0,0,268.23,0,0,0,0,0,0,0,0,0,0,0,0,0,0,0,0,0,VALID,0,0,0,0,0,1,0,0,0,0,0,0,0,0,0,0,0,0,0,0,116.41,3015.59,6,0,0.74,0.5,120,1.39,0.74,0.72,87.62,FLYING
88.3,APPROACH,FLY_TO_FIX,166.8,149,-17.8,165.15,-37.66,-6.27,5.26,116.44,17.114,0,0,-19.022,1,0.6,4.5,0.75,0.35,0.0168,0.4,257.72,5,0,0,56.575,0,0,0,0,0,268.23,0,0,0,0,0,0,0,0,0,0,0,0,0,0,0,0,0,VALID,0,0,0,0,0,1,0,0,0,0,0,0,0,0,0,0,0,0,0,0,90.54,3038.58,6,0,0.72,0.5,121,1.39,0.74,0.72,88.34,FLYING
89.02,APPROACH,FLY_TO_FIX,168.44,149,-19.44,136.34,-40.69,-7.18,5.51,117.38,17.075,0,0,-18.927,1,0.6,4.5,0.75,0.35,0.0168,0.4,257.88,5,0,0,56.679,0,0,0,0,0,268.23,0,0,0,0,0,0,0,0,0,0,0,0,0,0,0,0,0,VALID,0,0,0,0,0,1,0,0,0,0,0,0,0,0,0,0,0,0,0,0,70.46,3062.87,6,0,0.72,0.5,122,1.39,0.72,0.72,89.06,FLYING
89.74,APPROACH,FLY_TO_FIX,170.12,149,-21.12,105.61,-43.5,-7.81,5.76,117.77,17.111,0,0,-18.832,1,0.6,4.5,0.75,0.35,0.0168,0.4,258.05,5,0,0,56.783,0,0,0,0,0,268.23,0,0,0,0,0,0,0,0,0,0,0,0,0,0,0,0,0,VALID,0,0,0,0,0,1,0,0,0,0,0,0,0,0,0,0,0,0,0,0,54.87,3088.24,6,0,0.72,0.5,123,1.39,0.72,0.72,89.78,FLYING
90.46,APPROACH,FLY_TO_FIX,171.87,149,-22.87,73.15,-45.96,-8.17,6.02,117.64,17.22,0,0,-18.738,1,0.6,4.5,0.75,0.35,0.0168,0.4,258.21,5,0,0,56.888,0,0,0,0,0,268.23,0,0,0,0,0,0,0,0,0,0,0,0,0,0,0,0,0,VALID,0,0,0,0,0,1,0,0,0,0,0,0,0,0,0,0,0,0,0,0,42.74,3114.74,6,0,0.72,0.5,124,1.39,0.72,0.72,90.5,FLYING
91.18,APPROACH,FLY_TO_FIX,173.65,149,-24.65,39.07,-48.06,-8.43,6.23,117.58,17.279,0,0,-18.645,1,0.6,4.5,0.75,0.35,0.0168,0.4,258.38,5,0,0,56.992,0,0,0,0,0,268.23,0,0,0,0,0,0,0,0,0,0,0,0,0,0,0,0,0,VALID,0,0,0,0,0,1,0,0,0,0,0,0,0,0,0,0,0,0,0,0,33.31,3142.13,6,0,0.72,0.5,125,1.39,0.72,0.72,91.22,FLYING
91.9,APPROACH,FLY_TO_FIX,175.46,149,-26.46,3.56,-49.9,-8.73,6.37,117.71,17.348,0,0,-18.551,1,0.6,4.5,0.75,0.35,0.0168,0.4,258.55,5,0,0,57.097,0,0,0,0,0,268.23,0,0,0,0,0,0,0,0,0,0,0,0,0,0,0,0,0,VALID,0,0,0,0,0,1,0,0,0,0,0,0,0,0,0,0,0,0,0,0,25.97,3170.13,6,0,0.72,0.5,126,1.39,0.72,0.72,91.94,SPLASHED
92.62,APPROACH,FLY_TO_FIX,18.35,149,130.65,0.92,22,-3.39,-26.39,301.07,-79.299,0.2,0,-18.459,1,0.6,4.5,0.75,0.35,0.0168,0.4,258.7,5,0,0,57.194,0,0,0,0,0,268.23,0,0,0,0,0,0,0,0,0,0,0,0,0,0,0,0,0,VALID,0,0,0,0,0,1,0,0,0,0,0,0,0,0,0,0,0,0,0,0,0,0,0,0,0.74,0.5,127,1.35,0.74,0.72,92.66,SPLASHED
93.34,APPROACH,FLY_TO_FIX,15.91,149,133.09,14.14,14.87,-27.38,-5.45,263.42,-59.479,0.4,0,20,1,0.6,4.5,0.75,0.35,0.0168,0.4,258.7,5,0,0,57.197,0,0,0,0,0,268.23,0,0,0,0,0,0,0,0,0,0,0,0,0,0,0,0,0,VALID,0,0,0,0,0,1,0,0,0,0,0,0,0,0,0,0,0,0,0,0,0,0,0,0,0.72,0.5,128,1.39,0.74,0.72,93.38,FLYING
94.06,APPROACH,FLY_TO_FIX,9.45,149,139.55,22.23,7.79,-56.3,-12.2,168.67,-10.298,0.6,0,19.9,1,0.6,4.5,0.75,0.35,0.0168,0.4,258.71,5,0,0,57.199,0,0,0,0,0,268.23,0,0,0,0,0,0,0,0,0,0,0,0,0,0,0,0,0,VALID,0,0,0,0,0,1,0,0,0,0,0,0,0,0,0,0,0,0,0,0,0,0,0,0,0.72,0.5,129,1.39,0.72,0.72,94.1,FLYING
94.78,APPROACH,FLY_TO_FIX,4.41,149,144.59,25.24,0.76,60.38,-7.08,56.96,7.838,0.8,0,19.8,1,0.6,4.5,0.75,0.35,0.0168,0.4,258.71,5,0,0,57.202,0,0,0,0,0,268.23,0,0,0,0,0,0,0,0,0,0,0,0,0,0,0,0,0,VALID,0,0,0,0,0,1,0,0,0,0,0,0,0,0,0,0,0,0,0,0,0,0,0,0,0.72,0.5,130,1.39,0.72,0.72,94.82,FLYING
95.5,APPROACH,FLY_TO_FIX,6.42,149,142.58,23.18,-6.26,-58.87,62.57,191.53,-2.703,1,0,19.701,1,0.6,4.5,0.75,0.35,0.0168,0.4,258.71,5,0,0,57.205,0,0,0,0,0,268.23,0,0,0,0,0,0,0,0,0,0,0,0,0,0,0,0,0,VALID,0,0,0,0,0,1,0,0,0,0,0,0,0,0,0,0,0,0,0,0,0,0,0,0,0.72,0.5,131,1.39,0.72,0.72,95.54,FLYING
96.22,APPROACH,FLY_TO_FIX,12.4,149,136.6,16.09,-13.24,30.53,25.27,301.13,-52.064,1,0,19.603,1,0.6,4.298,0.75,0.35,0.0168,0.4,258.72,5,0,0,57.208,0,0,0,0,0,268.23,0,0,0,0,0,0,0,0,0,0,0,0,0,0,0,0,0,VALID,0,0,0,0,0,1,0,0,0,0,0,0,0,0,0,0,0,0,0,0,0,0,0,0,0.72,0.5,132,1.39,0.72,0.72,96.26,FLYING
96.94,APPROACH,FLY_TO_FIX,18.84,149,130.16,3.99,-20.12,34.08,87.99,70.61,28.068,0.8767,0,20,1,0.6,3.954,0.75,0.35,0.0168,0.4,258.72,5,0,0,57.211,0,0,0,0,0,268.23,0,0,0,0,0,0,0,0,0,0,0,0,0,0,0,0,0,VALID,0,0,0,0,0,1,0,0,0,0,0,0,0,0,0,0,0,0,0,0,0,0,0,0,0.72,0.5,133,1.39,0.72,0.72,96.98,FLYING
97.66,APPROACH,FLY_TO_FIX,9.68,149,139.32,-0.13,14.74,20.43,-30.14,112.3,12.846,1,0,19.9,1,0.6,3.638,0.75,0.35,0.0168,0.4,258.72,5,0,0,57.213,0,0,0,0,0,268.23,0,0,0,0,0,0,0,0,0,0,0,0,0,0,0,0,0,VALID,0,0,0,0,0,1,0,0,0,0,0,0,0,0,0,0,0,0,0,0,0,0,0,0,0.72,0.5,134,1.39,0.72,0.72,97.7,SPLASHED
98.38,APPROACH,FLY_TO_FIX,10.62,149,138.38,9.26,9.56,18.98,-60.77,115.26,-9.981,0.8277,0,20,1,0.6,3.347,0.75,0.35,0.0168,0.4,258.73,5,0,0,57.215,0,0,0,0,0,268.23,0,0,0,0,0,0,0,0,0,0,0,0,0,0,0,0,0,VALID,0,0,0,0,0,1,0,0,0,0,0,0,0,0,0,0,0,0,0,0,0,0,0,0,0.72,0.5,135,1.39,0.72,0.72,98.42,FLYING
99.1,APPROACH,FLY_TO_FIX,4.42,149,144.58,13.53,2.5,9.14,-42.3,118.33,-9.49,1,0,19.9,1,0.6,3.079,0.75,0.35,0.0168,0.4,258.73,5,0,0,57.217,0,0,0,0,0,268.23,0,0,0,0,0,0,0,0,0,0,0,0,0,0,0,0,0,VALID,0,0,0,0,0,1,0,0,0,0,0,0,0,0,0,0,0,0,0,0,0,0,0,0,0.72,0.5,136,1.39,0.72,0.72,99.14,FLYING
99.82,APPROACH,FLY_TO_FIX,4.33,149,144.67,12.73,-4.52,-20.03,28.39,107.1,-7.379,1,0,19.8,1,0.6,2.833,0.75,0.35,0.0168,0.4,258.73,5,0,0,57.218,0,0,0,0,0,268.23,0,0,0,0,0,0,0,0,0,0,0,0,0,0,0,0,0,VALID,0,0,0,0,0,1,0,0,0,0,0,0,0,0,0,0,0,0,0,0,0,0,0,0,0.72,0.5,137,1.39,0.72,0.72,99.86,FLYING
100.54,APPROACH,FLY_TO_FIX,10.45,149,138.55,6.88,-11.52,-38.38,40.41,91.41,0.314,0.8,0,20,1,0.6,2.606,0.75,0.35,0.0168,0.4,258.73,5,0,0,57.22,0,0,0,0,0,268.23,0,0,0,0,0,0,0,0,0,0,0,0,0,0,0,0,0,VALID,0,0,0,0,0,1,0,0,0,0,0,0,0,0,0,0,0,0,0,0,0,0,0,0,0.72,0.5,138,1.39,0.72,0.72,100.58,FLYING
101.26,APPROACH,FLY_TO_FIX,6.86,149,142.14,-0.84,-1.77,-38.81,0,94.47,-1.209,0.8305,0,20,1,0.6,2.398,0.75,0.35,0.0168,0.4,258.74,5,0,0,57.222,0,0,0,0,0,268.23,0,0,0,0,0,0,0,0,0,0,0,0,0,0,0,0,0,VALID,0,0,0,0,0,1,0,0,0,0,0,0,0,0,0,0,0,0,0,0,0,0,0,0,0.72,0.5,139,1.39,0.72,0.72,101.3,SPLASHED
101.98,APPROACH,FLY_TO_FIX,7.58,149,141.42,4.15,6.61,50.49,83.6,280.19,-4.196,0.9943,0,20,1,0.6,2.206,0.75,0.35,0.0168,0.4,258.74,5,0,0,57.223,0,0,0,0,0,268.23,0,0,0,0,0,0,0,0,0,0,0,0,0,0,0,0,0,VALID,0,0,0,0,0,1,0,0,0,0,0,0,0,0,0,0,0,0,0,0,0,0,0,0,0.72,0.5,140,1.39,0.72,0.72,102.02,FLYING
102.7,APPROACH,FLY_TO_FIX,1.7,149,147.3,6.3,-0.42,-43,-61.36,289.39,-1.584,1,0,19.9,1,0.6,2.029,0.75,0.35,0.0168,0.4,258.74,5,0,0,57.224,0,0,0,0,0,268.23,0,0,0,0,0,0,0,0,0,0,0,0,0,0,0,0,0,VALID,0,0,0,0,0,1,0,0,0,0,0,0,0,0,0,0,0,0,0,0,0,0,0,0,0.72,0.5,141,1.39,0.72,0.72,102.74,FLYING
103.42,APPROACH,FLY_TO_FIX,4.96,149,144.04,3.83,-5.25,-52.11,-37.36,338.48,21.353,1,0,19.8,1,0.6,1.867,0.75,0.35,0.0168,0.4,258.74,5,0,0,57.225,0,0,0,0,0,268.23,0,0,0,0,0,0,0,0,0,0,0,0,0,0,0,0,0,VALID,0,0,0,0,0,1,0,0,0,0,0,0,0,0,0,0,0,0,0,0,0,0,0,0,0.72,0.5,142,1.39,0.72,0.72,103.46,SPLASHED
104.14,APPROACH,FLY_TO_FIX,3.56,149,145.44,0.57,-1.85,9.94,0,57.35,76.799,1,0,19.701,1,0.6,1.718,0.75,0.35,0.0168,0.4,258.74,5,0,0,57.226,0,0,0,0,0,268.23,0,0,0,0,0,0,0,0,0,0,0,0,0,0,0,0,0,VALID,0,0,0,0,0,1,0,0,0,0,0,0,0,0,0,0,0,0,0,0,0,0,0,0,0.72,0.5,143,1.39,0.72,0.72,104.18,SPLASHED
104.86,APPROACH,FLY_TO_FIX,2.3,149,146.7,1.87,1.94,13.57,0,201.37,-26.874,1,0,19.603,1,0.6,1.58,0.75,0.35,0.0168,0.4,258.74,5,0,0,57.226,0,0,0,0,0,268.23,0,0,0,0,0,0,0,0,0,0,0,0,0,0,0,0,0,VALID,0,0,0,0,0,1,0,0,0,0,0,0,0,0,0,0,0,0,0,0,0,0,0,0,0.72,0.5,144,1.39,0.72,0.72,104.9,SPLASHED
105.58,APPROACH,FLY_TO_FIX,1.56,149,147.44,2.11,-2.44,0.61,0,303.06,31.781,1,0,19.505,1,0.6,1.454,0.75,0.35,0.0168,0.4,258.74,5,0,0,57.226,0,0,0,0,0,268.23,0,0,0,0,0,0,0,0,0,0,0,0,0,0,0,0,0,VALID,0,0,0,0,0,1,0,0,0,0,0,0,0,0,0,0,0,0,0,0,0,0,0,0,0.72,0.5,145,1.39,0.72,0.72,105.62,SPLASHED
106.3,APPROACH,FLY_TO_FIX,0.37,149,148.63,0.49,1.98,8.37,0,53.58,-7.902,1,0,19.407,1,0.6,1.338,0.75,0.35,0.0168,0.4,258.75,5,0,0,57.227,0,0,0,0,0,268.23,0,0,0,0,0,0,0,0,0,0,0,0,0,0,0,0,0,VALID,0,0,0,0,0,1,0,0,0,0,0,0,0,0,0,0,0,0,0,0,0,0,0,0,0.72,0.5,146,1.39,0.72,0.72,106.34,SPLASHED
107.02,APPROACH,FLY_TO_FIX,1.32,149,147.68,2.6,0.33,1.02,0,142.71,-3.202,0.9602,0,20,1,0.6,1.231,0.75,0.35,0.0168,0.4,258.75,5,0,0,57.227,0,0,0,0,0,268.23,0,0,0,0,0,0,0,0,0,0,0,0,0,0,0,0,0,VALID,0,0,0,0,0,1,0,0,0,0,0,0,0,0,0,0,0,0,0,0,0,0,0,0,0.72,0.5,147,1.39,0.72,0.72,107.06,SPLASHED
107.74,APPROACH,FLY_TO_FIX,2.9,149,146.1,1.15,-2.11,10,0,208.85,2.058,0.7602,0,20,1,0.6,1.132,0.75,0.35,0.0168,0.4,258.75,5,0,0,57.227,0,0,0,0,0,268.23,0,0,0,0,0,0,0,0,0,0,0,0,0,0,0,0,0,VALID,0,0,0,0,0,1,0,0,0,0,0,0,0,0,0,0,0,0,0,0,0,0,0,0,0.72,0.5,148,1.39,0.72,0.72,107.78,SPLASHED
108.46,APPROACH,FLY_TO_FIX,1.41,149,147.59,1.88,0.54,28.43,0,253.38,-9.51,0.883,0,20,1,0.6,1.042,0.75,0.35,0.0168,0.4,258.75,5,0,0,57.227,0,0,0,0,0,268.23,0,0,0,0,0,0,0,0,0,0,0,0,0,0,0,0,0,VALID,0,0,0,0,0,1,0,0,0,0,0,0,0,0,0,0,0,0,0,0,0,0,0,0,0.72,0.5,149,1.39,0.72,0.72,108.5,SPLASHED
109.18,APPROACH,FLY_TO_FIX,1.88,149,147.12,0.72,-0.97,37.94,0,258.03,-0.859,0.7596,0,20,1,0.6,0.958,0.75,0.35,0.0168,0.4,258.75,5,0,0,57.227,0,0,0,0,0,268.23,0,0,0,0,0,0,0,0,0,0,0,0,0,0,0,0,0,VALID,0,0,0,0,0,1,0,0,0,0,0,0,0,0,0,0,0,0,0,0,0,0,0,0,0.72,0.5,150,1.39,0.72,0.72,109.22,SPLASHED
109.9,APPROACH,FLY_TO_FIX,2.2,149,146.8,1.97,1.75,73.74,0,114.28,12.136,0.7053,0,20,1,0.6,0.9,0.75,0.35,0.0168,0.4,258.75,5,0,0,57.227,0,0,0,0,0,268.23,0,0,0,0,0,0,0,0,0,0,0,0,0,0,0,0,0,VALID,0,0,0,0,0,1,0,0,0,0,0,0,0,0,0,0,0,0,0,0,0,0,0,0,0.72,0.5,151,1.39,0.72,0.72,109.94,SPLASHED
110.62,APPROACH,FLY_TO_FIX,3.07,149,145.93,1.08,-3.75,19.16,0,66.92,3.208,0.6779,0,20,1,0.6,0.9,0.75,0.35,0.0168,0.4,258.75,5,0,0,57.227,0,0,0,0,0,268.23,0,0,0,0,0,0,0,0,0,0,0,0,0,0,0,0,0,VALID,0,0,0,0,0,1,0,0,0,0,0,0,0,0,0,0,0,0,0,0,0,0,0,0,0.72,0.5,152,1.39,0.72,0.72,110.66,SPLASHED
111.34,APPROACH,FLY_TO_FIX,4.93,149,144.07,1.96,4.4,11.13,0,78.46,1.67,0.4779,0,20,1,0.6,0.9,0.75,0.35,0.0168,0.4,258.75,5,0,0,57.227,0,0,0,0,0,268.23,0,0,0,0,0,0,0,0,0,0,0,0,0,0,0,0,0,VALID,0,0,0,0,0,1,0,0,0,0,0,0,0,0,0,0,0,0,0,0,0,0,0,0,0.72,0.5,153,1.39,0.72,0.72,111.38,SPLASHED
112.06,APPROACH,FLY_TO_FIX,1.6,149,147.4,2.46,-2.65,-13.88,0,106.79,0.501,0.6779,0,20,1,0.6,0.9,0.75,0.35,0.0168,0.4,258.75,5,0,0,57.227,0,0,0,0,0,268.23,0,0,0,0,0,0,0,0,0,0,0,0,0,0,0,0,0,VALID,0,0,0,0,0,1,0,0,0,0,0,0,0,0,0,0,0,0,0,0,0,0,0,0,0.72,0.5,154,1.39,0.72,0.72,112.1,SPLASHED
112.78,APPROACH,FLY_TO_FIX,2.55,149,146.45,-0.13,0.13,3.33,0,123.62,-0.037,0.4779,0,20,1,0.6,0.9,0.75,0.35,0.0168,0.4,258.75,5,0,0,57.227,0,0,0,0,0,268.23,0,0,0,0,0,0,0,0,0,0,0,0,0,0,0,0,0,VALID,0,0,0,0,0,1,0,0,0,0,0,0,0,0,0,0,0,0,0,0,0,0,0,0,0.72,0.5,155,1.39,0.72,0.72,112.82,SPLASHED
113.5,APPROACH,FLY_TO_FIX,0.99,149,148.01,1.58,-0.04,-0.2,0,120.87,0.298,0.6779,0,20,1,0.6,0.9,0.75,0.35,0.0168,0.4,258.75,5,0,0,57.227,0,0,0,0,0,268.23,0,0,0,0,0,0,0,0,0,0,0,0,0,0,0,0,0,VALID,0,0,0,0,0,1,0,0,0,0,0,0,0,0,0,0,0,0,0,0,0,0,0,0,0.72,0.5,156,1.39,0.72,0.72,113.54,SPLASHED
114.22,APPROACH,FLY_TO_FIX,0.73,149,148.27,0.7,0.46,3.38,0,109.66,0.735,0.8172,0,20,1,0.6,0.9,0.75,0.35,0.0168,0.4,258.75,5,0,0,57.227,0,0,0,0,0,268.23,0,0,0,0,0,0,0,0,0,0,0,0,0,0,0,0,0,VALID,0,0,0,0,0,1,0,0,0,0,0,0,0,0,0,0,0,0,0,0,0,0,0,0,0.72,0.5,157,1.39,0.72,0.72,114.26,SPLASHED
114.94,APPROACH,FLY_TO_FIX,1.03,149,147.97,0.79,-1.43,-0.37,0,102.67,0.442,0.9014,0,20,1,0.6,0.9,0.75,0.35,0.0168,0.4,258.75,5,0,0,57.227,0,0,0,0,0,268.23,0,0,0,0,0,0,0,0,0,0,0,0,0,0,0,0,0,VALID,0,0,0,0,0,1,0,0,0,0,0,0,0,0,0,0,0,0,0,0,0,0,0,0,0.72,0.5,158,1.39,0.72,0.72,114.98,SPLASHED
115.66,APPROACH,FLY_TO_FIX,1.79,149,147.21,1.09,1.54,4.88,0,103.42,0.346,0.7014,0,20,1,0.6,0.9,0.75,0.35,0.0168,0.4,258.75,5,0,0,57.227,0,0,0,0,0,268.23,0,0,0,0,0,0,0,0,0,0,0,0,0,0,0,0,0,VALID,0,0,0,0,0,1,0,0,0,0,0,0,0,0,0,0,0,0,0,0,0,0,0,0,0.72,0.5,159,1.39,0.72,0.72,115.7,SPLASHED
116.38,APPROACH,FLY_TO_FIX,0.27,149,148.73,1.24,-0.28,0.52,0,106.4,0.463,0.8995,0,20,1,0.6,0.9,0.75,0.35,0.0168,0.4,258.75,5,0,0,57.227,0,0,0,0,0,268.23,0,0,0,0,0,0,0,0,0,0,0,0,0,0,0,0,0,VALID,0,0,0,0,0,1,0,0,0,0,0,0,0,0,0,0,0,0,0,0,0,0,0,0,0.72,0.5,160,1.39,0.72,0.72,116.42,SPLASHED
117.1,APPROACH,FLY_TO_FIX,1.03,149,147.97,0.84,-1.37,-0.09,0,106.42,0.42,0.7673,0,20,1,0.6,0.9,0.75,0.35,0.0168,0.4,258.75,5,0,0,57.227,0,0,0,0,0,268.23,0,0,0,0,0,0,0,0,0,0,0,0,0,0,0,0,0,VALID,0,0,0,0,0,1,0,0,0,0,0,0,0,0,0,0,0,0,0,0,0,0,0,0,0.72,0.5,161,1.39,0.72,0.72,117.14,SPLASHED
117.82,APPROACH,FLY_TO_FIX,0.57,149,148.43,0.52,0.52,3.88,0,103.1,0.297,0.8029,0,20,1,0.6,0.9,0.75,0.35,0.0168,0.4,258.75,5,0,0,57.227,0,0,0,0,0,268.23,0,0,0,0,0,0,0,0,0,0,0,0,0,0,0,0,0,VALID,0,0,0,0,0,1,0,0,0,0,0,0,0,0,0,0,0,0,0,0,0,0,0,0,0.72,0.5,162,1.39,0.72,0.72,117.86,SPLASHED
118.54,APPROACH,FLY_TO_FIX,0.34,149,148.66,0.57,0.8,1.16,0,99.29,0.416,0.8229,0,20,1,0.6,0.9,0.75,0.35,0.0168,0.4,258.75,5,0,0,57.227,0,0,0,0,0,268.23,0,0,0,0,0,0,0,0,0,0,0,0,0,0,0,0,0,VALID,0,0,0,0,0,1,0,0,0,0,0,0,0,0,0,0,0,0,0,0,0,0,0,0,0.72,0.5,163,1.39,0.72,0.72,118.58,SPLASHED
119.26,APPROACH,FLY_TO_FIX,0.07,149,148.93,0.8,0.13,-0.39,0,97.13,0.4,0.7814,0,20,1,0.6,0.9,0.75,0.35,0.0168,0.4,258.75,5,0,0,57.227,0,0,0,0,0,268.23,0,0,0,0,0,0,0,0,0,0,0,0,0,0,0,0,0,VALID,0,0,0,0,0,1,0,0,0,0,0,0,0,0,0,0,0,0,0,0,0,0,0,0,0.72,0.5,164,1.39,0.72,0.72,119.3,SPLASHED
119.98,APPROACH,FLY_TO_FIX,0.23,149,148.77,1.13,0.02,0.89,0,96.55,0.322,0.7147,0,20,1,0.6,0.9,0.75,0.35,0.0168,0.4,258.75,5,0,0,57.227,0,0,0,0,0,268.23,0,0,0,0,0,0,0,0,0,0,0,0,0,0,0,0,0,VALID,0,0,0,0,0,1,0,0,0,0,0,0,0,0,0,0,0,0,0,0,0,0,0,0,0.72,0.5,165,1.39,0.72,0.72,120.02,SPLASHED
120.7,APPROACH,FLY_TO_FIX,0.02,149,148.98,1.08,-0.21,1.99,0,96.31,0.35,0.7496,0,20,1,0.6,0.9,0.75,0.35,0.0168,0.4,258.75,5,0,0,57.227,0,0,0,0,0,268.23,0,0,0,0,0,0,0,0,0,0,0,0,0,0,0,0,0,VALID,0,0,0,0,0,1,0,0,0,0,0,0,0,0,0,0,0,0,0,0,0,0,0,0,0.72,0.5,166,1.39,0.72,0.72,120.74,SPLASHED
121.42,APPROACH,FLY_TO_FIX,0.21,149,148.79,0.68,0.38,1.14,0,95.51,0.398,0.6551,0,20,1,0.6,0.9,0.75,0.35,0.0168,0.4,258.75,5,0,0,57.227,0,0,0,0,0,268.23,0,0,0,0,0,0,0,0,0,0,0,0,0,0,0,0,0,VALID,0,0,0,0,0,1,0,0,0,0,0,0,0,0,0,0,0,0,0,0,0,0,0,0,0.72,0.5,167,1.39,0.72,0.72,121.46,SPLASHED
122.14,APPROACH,FLY_TO_FIX,0.14,149,148.86,0.98,-0.39,-0.02,0,94.29,0.313,0.7227,0,20,1,0.6,0.9,0.75,0.35,0.0168,0.4,258.75,5,0,0,57.227,0,0,0,0,0,268.23,0,0,0,0,0,0,0,0,0,0,0,0,0,0,0,0,0,VALID,0,0,0,0,0,1,0,0,0,0,0,0,0,0,0,0,0,0,0,0,0,0,0,0,0.72,0.5,168,1.39,0.72,0.72,122.18,SPLASHED
122.86,APPROACH,FLY_TO_FIX,0.47,149,148.53,1.01,0.17,3.22,0,93.27,0.21,0.6494,0,20,1,0.6,0.9,0.75,0.35,0.0168,0.4,258.75,5,0,0,57.227,0,0,0,0,0,268.23,0,0,0,0,0,0,0,0,0,0,0,0,0,0,0,0,0,VALID,0,0,0,0,0,1,0,0,0,0,0,0,0,0,0,0,0,0,0,0,0,0,0,0,0.72,0.5,169,1.39,0.72,0.72,122.9,SPLASHED
123.58,APPROACH,FLY_TO_FIX,0.03,149,148.97,0.78,0.5,1.65,0,92.69,0.226,0.676,0,20,1,0.6,0.9,0.75,0.35,0.0168,0.4,258.75,5,0,0,57.227,0,0,0,0,0,268.23,0,0,0,0,0,0,0,0,0,0,0,0,0,0,0,0,0,VALID,0,0,0,0,0,1,0,0,0,0,0,0,0,0,0,0,0,0,0,0,0,0,0,0,0.72,0.5,170,1.39,0.72,0.72,123.62,SPLASHED
124.3,APPROACH,FLY_TO_FIX,0.85,149,148.15,0.72,-1.01,-1.05,0,92.38,0.203,0.6243,0,20,1,0.6,0.9,0.75,0.35,0.0168,0.4,258.75,5,0,0,57.227,0,0,0,0,0,268.23,0,0,0,0,0,0,0,0,0,0,0,0,0,0,0,0,0,VALID,0,0,0,0,0,1,0,0,0,0,0,0,0,0,0,0,0,0,0,0,0,0,0,0,0.72,0.5,171,1.39,0.72,0.72,124.34,SPLASHED
125.02,APPROACH,FLY_TO_FIX,0.61,149,148.39,0.74,0.41,2.69,0,92.08,0.113,0.6288,0,20,1,0.6,0.9,0.75,0.35,0.0168,0.4,258.75,5,0,0,57.227,0,0,0,0,0,268.23,0,0,0,0,0,0,0,0,0,0,0,0,0,0,0,0,0,VALID,0,0,0,0,0,1,0,0,0,0,0,0,0,0,0,0,0,0,0,0,0,0,0,0,0.72,0.5,172,1.39,0.72,0.72,125.06,SPLASHED
125.74,APPROACH,FLY_TO_FIX,0.29,149,148.71,0.83,0.57,1.34,0,91.7,0.114,0.7089,0,20,1,0.6,0.9,0.75,0.35,0.0168,0.4,258.75,5,0,0,57.227,0,0,0,0,0,268.23,0,0,0,0,0,0,0,0,0,0,0,0,0,0,0,0,0,VALID,0,0,0,0,0,1,0,0,0,0,0,0,0,0,0,0,0,0,0,0,0,0,0,0,0.72,0.5,173,1.39,0.72,0.72,125.78,SPLASHED
126.46,APPROACH,FLY_TO_FIX,0.03,149,148.97,1.13,-0.2,0.16,0,91.31,0.08,0.6938,0,20,1,0.6,0.9,0.75,0.35,0.0168,0.4,258.75,5,0,0,57.227,0,0,0,0,0,268.23,0,0,0,0,0,0,0,0,0,0,0,0,0,0,0,0,0,VALID,0,0,0,0,0,1,0,0,0,0,0,0,0,0,0,0,0,0,0,0,0,0,0,0,0.72,0.5,174,1.39,0.72,0.72,126.5,SPLASHED
127.18,APPROACH,FLY_TO_FIX,0.07,149,148.93,1.08,-0.5,2.26,0,91.02,0.042,0.6896,0,20,1,0.6,0.9,0.75,0.35,0.0168,0.4,258.75,5,0,0,57.227,0,0,0,0,0,268.23,0,0,0,0,0,0,0,0,0,0,0,0,0,0,0,0,0,VALID,0,0,0,0,0,1,0,0,0,0,0,0,0,0,0,0,0,0,0,0,0,0,0,0,0.72,0.5,175,1.39,0.72,0.72,127.22,SPLASHED
127.9,APPROACH,FLY_TO_FIX,0.38,149,148.62,0.43,0.37,1.83,0,90.84,0.021,0.5737,0,20,1,0.6,0.9,0.75,0.35,0.0168,0.4,258.75,5,0,0,57.227,0,0,0,0,0,268.23,0,0,0,0,0,0,0,0,0,0,0,0,0,0,0,0,0,VALID,0,0,0,0,0,1,0,0,0,0,0,0,0,0,0,0,0,0,0,0,0,0,0,0,0.72,0.5,176,1.39,0.72,0.72,127.94,SPLASHED
128.62,APPROACH,FLY_TO_FIX,0.09,149,148.91,0.83,0.04,0.27,0,90.72,-0.005,0.6808,0,20,1,0.6,0.9,0.75,0.35,0.0168,0.4,258.75,5,0,0,57.227,0,0,0,0,0,268.23,0,0,0,0,0,0,0,0,0,0,0,0,0,0,0,0,0,VALID,0,0,0,0,0,1,0,0,0,0,0,0,0,0,0,0,0,0,0,0,0,0,0,0,0.72,0.5,177,1.39,0.72,0.72,128.66,SPLASHED
129.34,APPROACH,FLY_TO_FIX,0.65,149,148.35,1.35,0.09,2.23,0,90.6,-0.021,0.5749,0,20,1,0.6,0.9,0.75,0.35,0.0168,0.4,258.75,5,0,0,57.227,0,0,0,0,0,268.23,0,0,0,0,0,0,0,0,0,0,0,0,0,0,0,0,0,VALID,0,0,0,0,0,1,0,0,0,0,0,0,0,0,0,0,0,0,0,0,0,0,0,0,0.72,0.5,178,1.39,0.72,0.72,129.38,SPLASHED
130.06,APPROACH,FLY_TO_FIX,1.1,149,147.9,0.46,-0.3,-0.42,0,90.47,-0.052,0.503,0,20,1,0.6,0.9,0.75,0.35,0.0168,0.4,258.75,5,0,0,57.227,0,0,0,0,0,268.23,0,0,0,0,0,0,0,0,0,0,0,0,0,0,0,0,0,VALID,0,0,0,0,0,1,0,0,0,0,0,0,0,0,0,0,0,0,0,0,0,0,0,0,0.72,0.5,179,1.39,0.72,0.72,130.1,SPLASHED
130.78,APPROACH,FLY_TO_FIX,0.16,149,148.84,0.66,-0.31,0.11,0,90.37,-0.064,0.703,0,20,1,0.6,0.9,0.75,0.35,0.0168,0.4,258.75,5,0,0,57.227,0,0,0,0,0,268.23,0,0,0,0,0,0,0,0,0,0,0,0,0,0,0,0,0,VALID,0,0,0,0,0,1,0,0,0,0,0,0,0,0,0,0,0,0,0,0,0,0,0,0,0.72,0.5,180,1.39,0.72,0.72,130.82,SPLASHED
131.5,APPROACH,FLY_TO_FIX,0.71,149,148.29,0.89,0.61,2.18,0,90.29,-0.071,0.6335,0,20,1,0.6,0.9,0.75,0.35,0.0168,0.4,258.75,5,0,0,57.227,0,0,0,0,0,268.23,0,0,0,0,0,0,0,0,0,0,0,0,0,0,0,0,0,VALID,0,0,0,0,0,1,0,0,0,0,0,0,0,0,0,0,0,0,0,0,0,0,0,0,0.72,0.5,181,1.39,0.72,0.72,131.54,SPLASHED
132.22,APPROACH,FLY_TO_FIX,0.45,149,148.55,1.12,0.57,1.64,0,90.24,-0.103,0.6914,0,20,1,0.6,0.9,0.75,0.35,0.0168,0.4,258.75,5,0,0,57.227,0,0,0,0,0,268.23,0,0,0,0,0,0,0,0,0,0,0,0,0,0,0,0,0,VALID,0,0,0,0,0,1,0,0,0,0,0,0,0,0,0,0,0,0,0,0,0,0,0,0,0.72,0.5,182,1.39,0.72,0.72,132.26,SPLASHED
132.94,APPROACH,FLY_TO_FIX,0.12,149,148.88,1.22,0.1,0.32,0,90.19,-0.122,0.7212,0,20,1,0.6,0.9,0.75,0.35,0.0168,0.4,258.75,5,0,0,57.227,0,0,0,0,0,268.23,0,0,0,0,0,0,0,0,0,0,0,0,0,0,0,0,0,VALID,0,0,0,0,0,1,0,0,0,0,0,0,0,0,0,0,0,0,0,0,0,0,0,0,0.72,0.5,183,1.39,0.72,0.72,132.98,SPLASHED
133.66,APPROACH,FLY_TO_FIX,1.43,149,147.57,0.52,-1.37,-0.97,0,90.14,-0.139,0.5299,0,20,1,0.6,0.9,0.75,0.35,0.0168,0.4,258.75,5,0,0,57.227,0,0,0,0,0,268.23,0,0,0,0,0,0,0,0,0,0,0,0,0,0,0,0,0,VALID,0,0,0,0,0,1,0,0,0,0,0,0,0,0,0,0,0,0,0,0,0,0,0,0,0.72,0.5,184,1.39,0.72,0.72,133.7,SPLASHED
134.38,APPROACH,FLY_TO_FIX,0.45,149,148.55,0.68,0.08,1.87,0,90.11,-0.109,0.6422,0,20,1,0.6,0.9,0.75,0.35,0.0168,0.4,258.75,5,0,0,57.227,0,0,0,0,0,268.23,0,0,0,0,0,0,0,0,0,0,0,0,0,0,0,0,0,VALID,0,0,0,0,0,1,0,0,0,0,0,0,0,0,0,0,0,0,0,0,0,0,0,0,0.72,0.5,185,1.39,0.72,0.72,134.42,SPLASHED
135.1,APPROACH,FLY_TO_FIX,0.57,149,148.43,0.68,1.02,2.37,0,90.08,-0.141,0.7113,0,20,1,0.6,0.9,0.75,0.35,0.0168,0.4,258.75,5,0,0,57.227,0,0,0,0,0,268.23,0,0,0,0,0,0,0,0,0,0,0,0,0,0,0,0,0,VALID,0,0,0,0,0,1,0,0,0,0,0,0,0,0,0,0,0,0,0,0,0,0,0,0,0.72,0.5,186,1.39,0.72,0.72,135.14,SPLASHED
135.82,APPROACH,FLY_TO_FIX,0.29,149,148.71,1.11,0.52,0.1,0,90.07,-0.156,0.6942,0,20,1,0.6,0.9,0.75,0.35,0.0168,0.4,258.75,5,0,0,57.227,0,0,0,0,0,268.23,0,0,0,0,0,0,0,0,0,0,0,0,0,0,0,0,0,VALID,0,0,0,0,0,1,0,0,0,0,0,0,0,0,0,0,0,0,0,0,0,0,0,0,0.72,0.5,187,1.39,0.72,0.72,135.86,SPLASHED
136.54,APPROACH,FLY_TO_FIX,0.53,149,148.47,1.31,-1.01,-0.03,0,90.05,-0.144,0.69,0,20,1,0.6,0.9,0.75,0.35,0.0168,0.4,258.75,5,0,0,57.227,0,0,0,0,0,268.23,0,0,0,0,0,0,0,0,0,0,0,0,0,0,0,0,0,VALID,0,0,0,0,0,1,0,0,0,0,0,0,0,0,0,0,0,0,0,0,0,0,0,0,0.72,0.5,188,1.39,0.72,0.72,136.58,SPLASHED
137.26,APPROACH,FLY_TO_FIX,0.02,149,148.98,0.68,0.43,2.86,0,90.02,-0.144,0.6521,0,20,1,0.6,0.9,0.75,0.35,0.0168,0.4,258.75,5,0,0,57.227,0,0,0,0,0,268.23,0,0,0,0,0,0,0,0,0,0,0,0,0,0,0,0,0,VALID,0,0,0,0,0,1,0,0,0,0,0,0,0,0,0,0,0,0,0,0,0,0,0,0,0.72,0.5,189,1.39,0.72,0.72,137.3,SPLASHED
137.98,APPROACH,FLY_TO_FIX,1.26,149,147.74,0.26,-1.31,-1.23,0,90.02,-0.177,0.5546,0,20,1,0.6,0.9,0.75,0.35,0.0168,0.4,258.75,5,0,0,57.227,0,0,0,0,0,268.23,0,0,0,0,0,0,0,0,0,0,0,0,0,0,0,0,0,VALID,0,0,0,0,0,1,0,0,0,0,0,0,0,0,0,0,0,0,0,0,0,0,0,0,0.72,0.5,190,1.39,0.72,0.72,138.02,SPLASHED
138.7,APPROACH,FLY_TO_FIX,1,149,148,0.6,0.62,2.31,0,90.02,-0.125,0.5678,0,20,1,0.6,0.9,0.75,0.35,0.0168,0.4,258.75,5,0,0,57.227,0,0,0,0,0,268.23,0,0,0,0,0,0,0,0,0,0,0,0,0,0,0,0,0,VALID,0,0,0,0,0,1,0,0,0,0,0,0,0,0,0,0,0,0,0,0,0,0,0,0,0.72,0.5,191,1.39,0.72,0.72,138.74,SPLASHED
139.42,APPROACH,FLY_TO_FIX,0.99,149,148.01,0.89,1.49,2.17,0,90.01,-0.162,0.6667,0,20,1,0.6,0.9,0.75,0.35,0.0168,0.4,258.75,5,0,0,57.227,0,0,0,0,0,268.23,0,0,0,0,0,0,0,0,0,0,0,0,0,0,0,0,0,VALID,0,0,0,0,0,1,0,0,0,0,0,0,0,0,0,0,0,0,0,0,0,0,0,0,0.72,0.5,192,1.39,0.72,0.72,139.46,SPLASHED
140.14,APPROACH,FLY_TO_FIX,0.23,149,148.77,1.66,-0.19,0.02,0,90.01,-0.164,0.6619,0,20,1,0.6,0.9,0.75,0.35,0.0168,0.4,258.75,5,0,0,57.227,0,0,0,0,0,268.23,0,0,0,0,0,0,0,0,0,0,0,0,0,0,0,0,0,VALID,0,0,0,0,0,1,0,0,0,0,0,0,0,0,0,0,0,0,0,0,0,0,0,0,0.72,0.5,193,1.39,0.72,0.72,140.18,SPLASHED
140.86,APPROACH,FLY_TO_FIX,1.35,149,147.65,0.73,-0.81,0.13,0,89.99,-0.176,0.5126,0,20,1,0.6,0.9,0.75,0.35,0.0168,0.4,258.75,5,0,0,57.227,0,0,0,0,0,268.23,0,0,0,0,0,0,0,0,0,0,0,0,0,0,0,0,0,VALID,0,0,0,0,0,1,0,0,0,0,0,0,0,0,0,0,0,0,0,0,0,0,0,0,0.72,0.5,194,1.39,0.72,0.72,140.9,SPLASHED
141.58,APPROACH,FLY_TO_FIX,0.93,149,148.07,0.45,-1.32,-0.31,0,90,-0.147,0.6769,0,20,1,0.6,0.9,0.75,0.35,0.0168,0.4,258.75,5,0,0,57.227,0,0,0,0,0,268.23,0,0,0,0,0,0,0,0,0,0,0,0,0,0,0,0,0,VALID,0,0,0,0,0,1,0,0,0,0,0,0,0,0,0,0,0,0,0,0,0,0,0,0,0.72,0.5,195,1.39,0.72,0.72,141.62,SPLASHED
142.3,APPROACH,FLY_TO_FIX,1.73,149,147.27,0.58,1.69,4.68,0,89.99,-0.117,0.5644,0,20,1,0.6,0.9,0.75,0.35,0.0168,0.4,258.75,5,0,0,57.227,0,0,0,0,0,268.23,0,0,0,0,0,0,0,0,0,0,0,0,0,0,0,0,0,VALID,0,0,0,0,0,1,0,0,0,0,0,0,0,0,0,0,0,0,0,0,0,0,0,0,0.72,0.5,196,1.39,0.72,0.72,142.34,SPLASHED
143.02,APPROACH,FLY_TO_FIX,0.23,149,148.77,0.85,0.66,0.68,0,89.99,-0.159,0.7644,0,20,1,0.6,0.9,0.75,0.35,0.0168,0.4,258.75,5,0,0,57.227,0,0,0,0,0,268.23,0,0,0,0,0,0,0,0,0,0,0,0,0,0,0,0,0,VALID,0,0,0,0,0,1,0,0,0,0,0,0,0,0,0,0,0,0,0,0,0,0,0,0,0.72,0.5,197,1.39,0.72,0.72,143.06,SPLASHED
143.74,APPROACH,FLY_TO_FIX,0.25,149,148.75,1.23,0.24,0.35,0,89.99,-0.143,0.7136,0,20,1,0.6,0.9,0.75,0.35,0.0168,0.4,258.75,5,0,0,57.227,0,0,0,0,0,268.23,0,0,0,0,0,0,0,0,0,0,0,0,0,0,0,0,0,VALID,0,0,0,0,0,1,0,0,0,0,0,0,0,0,0,0,0,0,0,0,0,0,0,0,0.72,0.5,198,1.39,0.72,0.72,143.78,SPLASHED
144.46,APPROACH,FLY_TO_FIX,0.82,149,148.18,1.07,-1.03,-0.23,0,89.99,-0.139,0.658,0,20,1,0.6,0.9,0.75,0.35,0.0168,0.4,258.75,5,0,0,57.227,0,0,0,0,0,268.23,0,0,0,0,0,0,0,0,0,0,0,0,0,0,0,0,0,VALID,0,0,0,0,0,1,0,0,0,0,0,0,0,0,0,0,0,0,0,0,0,0,0,0,0.72,0.5,199,1.39,0.72,0.72,144.5,SPLASHED
145.18,APPROACH,FLY_TO_FIX,0.34,149,148.66,0.37,-0.03,1.85,0,89.99,-0.128,0.6546,0,20,1,0.6,0.9,0.75,0.35,0.0168,0.4,258.75,5,0,0,57.227,0,0,0,0,0,268.23,0,0,0,0,0,0,0,0,0,0,0,0,0,0,0,0,0,VALID,0,0,0,0,0,1,0,0,0,0,0,0,0,0,0,0,0,0,0,0,0,0,0,0,0.72,0.5,200,1.39,0.72,0.72,145.22,SPLASHED
