t_s,phase,subphase,ias_ms,vapp_ms,spd_err_ms,agl_m,vs_ms,pitch_deg,aoa_deg,hdg_deg,bank_deg,thr_cmd,thr_intg,aa_hdg_cmd_deg,aa_fpa_cmd_deg,ils_loc_m,ils_gs_m,ils_dist_km,loc_corr_deg,gs_corr_deg,flare_fpa_cmd,flare_tgt_vs,flare_frac,steer_hdg_deg,steer_blend,ro_loc_corr_deg,ro_hdg_err_deg,ro_yaw_tgt,ro_yaw_scale,ro_yaw_gate,yaw_cmd,roll_cmd,pitch_cmd,ro_pitch_tgt_deg,ro_pitch_err_deg,ro_pitch_ff,ro_roll_assist,flaps_cur,flaps_tgt,phase_el_s,status
0.2,APPROACH,FLY_TO_FIX,78.52,76,-2.52,538.78,-22.2,-19.39,-4.22,270.41,0.071,0,-0.198,174.12,4.804,0,0,0,0,0,0,0,0,270.4,0,0,0,0,0,0,0,0,0,0,0,0,0,0,1,0.24,FLYING
0.42,APPROACH,ILS_TRACK,79.04,76,-3.04,533.33,-26,-21.28,-3.48,270.41,0.039,0,-0.856,104.19,-0.227,0,0,0,0,0,0,0,0,270.4,0,0,0,0,0,0,0,0,0,0,0,0,0,0,1,0.46,FLYING
0.64,APPROACH,ILS_TRACK,79.66,76,-3.66,527.12,-29.63,-21.89,-1.89,270.41,-0.026,0,-1.649,272.72,0,-1.97,-29.03,9.299,2.316,114.262,0,0,0,270.4,0,0,0,0,0,0,0,0,0,0,0,0,0,1,1,0.68,FLYING
0.84,APPROACH,ILS_TRACK,80.3,76,-4.3,521.01,-32.01,-19.89,1.56,270.43,-0.283,0,-2.58,270.48,0,-1.97,-34.23,9.283,0.077,29.172,0,0,0,270.4,0,0,0,0,0,0,0,0,0,0,0,0,0,1,1,0.88,FLYING
1.04,APPROACH,ILS_TRACK,80.95,76,-4.95,514.74,-32.8,-15.36,6.34,270.48,-0.402,0,-3.557,270.48,0,-1.97,-39.65,9.267,0.077,33.6,0,0,0,270.4,0,0,0,0,0,0,0,0,0,0,0,0,0,1,1,1.08,FLYING
1.28,APPROACH,ILS_TRACK,81.58,76,-5.58,507.33,-31.32,-10.13,10.5,270.5,-0.306,0,-4.888,270.47,0,-1.96,-46.09,9.247,0.073,35.292,0,0,0,270.4,0,0,0,0,0,0,0,0,0,0,0,0,0,1,1,1.32,FLYING
1.48,APPROACH,ILS_TRACK,81.85,76,-5.85,501.44,-28.93,-7.35,11.76,270.5,-0.233,0,-6.055,270.47,0,-1.95,-51.16,9.231,0.066,35.628,0,0,0,270.4,0,0,0,0,0,0,0,0,0,0,0,0,0,1,1,1.52,FLYING
1.7,APPROACH,ILS_TRACK,81.94,76,-5.94,495.45,-26.24,-5.6,11.66,270.5,-0.167,0,-7.28,270.46,0,-1.93,-56.09,9.213,0.057,35.928,0,0,0,270.4,0,0,0,0,0,0,0,0,0,0,0,0,0,1,1,1.76,FLYING
1.96,APPROACH,ILS_TRACK,81.95,76,-5.95,489.3,-23.31,-3.9,11.4,270.49,-0.103,0,-8.591,270.45,0,-1.91,-61.06,9.193,0.051,36.393,0,0,0,270.4,0,0,0,0,0,0,0,0,0,0,0,0,0,1,1,2.02,FLYING
2.26,APPROACH,ILS_TRACK,81.88,76,-5.88,482.94,-20.19,-2.48,10.73,270.48,-0.044,0,-10.217,270.45,0,-1.88,-66.15,9.168,0.047,34.572,0,0,0,270.4,0,0,0,0,0,0,0,0,0,0,0,0,0,1,1,2.33,FLYING
2.64,APPROACH,ILS_TRACK,81.72,76,-5.72,476,-16.72,-0.98,9.98,270.48,0.011,0,-12.424,270.44,0,-1.84,-71.61,9.136,0.044,32.82,0,0,0,270.4,0,0,0,0,0,0,0,0,0,0,0,0,0,1,1,2.71,FLYING
2.96,APPROACH,ILS_TRACK,81.54,76,-5.54,471.23,-14.32,0.04,9.41,270.47,0.042,0,-14.177,270.44,0,-1.8,-75.14,9.109,0.041,31.508,0,0,0,270.4,0,0,0,0,0,0,0,0,0,0,0,0,0,1,1,3.03,FLYING
3.27,APPROACH,ILS_TRACK,81.34,76,-5.34,467.15,-12.25,0.91,8.96,270.48,0.069,0,-15.867,270.44,0,-1.76,-77.95,9.082,0.038,30.537,0,0,0,270.4,0,0,0,0,0,0,0,0,0,0,0,0,0,1,1,3.34,FLYING
3.66,APPROACH,ILS_TRACK,81.05,76,-5.05,462.95,-10.13,1.78,8.45,270.47,0.09,0,-17.822,270.44,0,-1.71,-80.57,9.049,0.037,29.617,0,0,0,270.4,0,0,0,0,0,0,0,0,0,0,0,0,0,1,1,3.73,FLYING
3.97,APPROACH,ILS_TRACK,80.78,76,-4.78,460.06,-8.67,2.41,8.14,270.47,0.105,0,-19.338,270.44,0,-1.67,-82.15,9.022,0.035,28.658,0,0,0,270.4,0,0,0,0,0,0,0,0,0,0,0,0,0,1,1,4.04,FLYING
4.29,APPROACH,ILS_TRACK,80.49,76,-4.49,457.58,-7.43,2.96,7.88,270.46,0.112,0,-20,270.44,0,-1.63,-83.3,8.995,0.035,27.919,0,0,0,270.4,0,0,0,0,0,0,0,0,0,0,0,0,0,1,1,4.36,FLYING
4.67,APPROACH,ILS_TRACK,80.09,76,-4.09,455.03,-6.15,3.53,7.63,270.46,0.118,0,-20,270.43,0,-1.58,-84.23,8.962,0.034,27.182,0,0,0,270.4,0,0,0,0,0,0,0,0,0,0,0,0,0,1,1,4.74,FLYING
4.99,APPROACH,ILS_TRACK,79.74,76,-3.74,453.28,-5.28,3.94,7.47,270.46,0.118,0,-20,270.43,0,-1.55,-84.64,8.935,0.035,26.456,0,0,0,270.4,0,0,0,0,0,0,0,0,0,0,0,0,0,1,1,5.06,FLYING
5.3,APPROACH,ILS_TRACK,79.37,76,-3.37,451.77,-4.53,4.29,7.33,270.45,0.117,0,-20,270.43,0,-1.52,-84.81,8.909,0.035,25.862,0,0,0,270.4,0,0,0,0,0,0,0,0,0,0,0,0,0,1,1,5.37,FLYING
5.69,APPROACH,ILS_TRACK,78.91,76,-2.91,450.22,-3.76,4.66,7.19,270.45,0.114,0,-20,270.44,0,-1.48,-84.72,8.877,0.035,25.234,0,0,0,270.4,0,0,0,0,0,0,0,0,0,0,0,0,0,1,1,5.76,FLYING
6,APPROACH,ILS_TRACK,78.52,76,-2.52,449.15,-3.23,4.92,7.11,270.44,0.112,0,-20,270.44,0,-1.45,-84.45,8.85,0.035,24.649,0,0,0,270.4,0,0,0,0,0,0,0,0,0,0,0,0,0,1,1,6.07,FLYING
6.32,APPROACH,ILS_TRACK,78.13,76,-2.13,448.22,-2.78,5.15,7.05,270.45,0.103,0,-20,270.44,0,-1.42,-84.03,8.824,0.036,24.145,0,0,0,270.4,0,0,0,0,0,0,0,0,0,0,0,0,0,1,1,6.39,FLYING
6.7,APPROACH,ILS_TRACK,77.64,76,-1.64,447.27,-2.32,5.4,7,270.44,0.09,0,-20,270.44,0,-1.39,-83.35,8.792,0.036,23.591,0,0,0,270.4,0,0,0,0,0,0,0,0,0,0,0,0,0,1,1,6.77,FLYING
7.02,APPROACH,ILS_TRACK,77.23,76,-1.23,446.6,-2.01,5.59,6.97,270.44,0.081,0,-20,270.44,0,-1.37,-82.68,8.766,0.036,23.098,0,0,0,270.4,0,0,0,0,0,0,0,0,0,0,0,0,0,1,1,7.09,FLYING
7.33,APPROACH,ILS_TRACK,76.81,76,-0.81,446.03,-1.74,5.76,6.96,270.44,0.074,0,-20,270.44,0,-1.35,-81.92,8.741,0.036,22.653,0,0,0,270.4,0,0,0,0,0,0,0,0,0,0,0,0,0,1,1,7.4,FLYING
7.72,APPROACH,ILS_TRACK,76.3,76,-0.3,445.43,-1.47,5.95,6.97,270.44,0.062,0,-20,270.44,0,-1.32,-80.9,8.709,0.037,22.145,0,0,0,270.4,0,0,0,0,0,0,0,0,0,0,0,0,0,1,1,7.79,FLYING
8.03,APPROACH,ILS_TRACK,75.88,76,0.12,445.01,-1.28,6.09,6.98,270.44,0.059,0,-19.976,270.44,0,-1.3,-80,8.684,0.036,21.709,0,0,0,270.4,0,0,0,0,0,0,0,0,0,0,0,0,0,1,1,8.1,FLYING
8.35,APPROACH,ILS_TRACK,75.45,76,0.55,444.65,-1.12,6.23,7.01,270.44,0.05,0,-19.819,270.43,0,-1.28,-79.05,8.658,0.035,21.301,0,0,0,270.4,0,0,0,0,0,0,0,0,0,0,0,0,0,1,1,8.42,FLYING
8.73,APPROACH,ILS_TRACK,74.93,76,1.07,444.26,-0.95,6.37,7.04,270.44,0.044,0,-19.425,270.43,0,-1.26,-77.83,8.628,0.035,20.824,0,0,0,270.4,0,0,0,0,0,0,0,0,0,0,0,0,0,1,1,8.8,FLYING
9.05,APPROACH,ILS_TRACK,74.5,76,1.5,443.99,-0.84,6.5,7.09,270.44,0.04,0,-18.966,270.44,0,-1.24,-76.8,8.603,0.036,20.424,0,0,0,270.4,0,0,0,0,0,0,0,0,0,0,0,0,0,1,1,9.12,FLYING
9.36,APPROACH,ILS_TRACK,74.06,76,1.94,443.75,-0.74,6.6,7.13,270.44,0.035,0,-18.371,270.43,0,-1.22,-75.75,8.578,0.034,20.04,0,0,0,270.4,0,0,0,0,0,0,0,0,0,0,0,0,0,1,1,9.43,FLYING
9.75,APPROACH,ILS_TRACK,73.53,76,2.47,443.49,-0.65,6.71,7.18,270.44,0.034,0,-17.439,270.43,0,-1.2,-74.43,8.548,0.034,19.59,0,0,0,270.4,0,0,0,0,0,0,0,0,0,0,0,0,0,1,1,9.82,FLYING
10.06,APPROACH,ILS_TRACK,73.09,76,2.91,443.3,-0.59,6.8,7.23,270.44,0.033,0,-16.539,270.43,0,-1.18,-73.33,8.523,0.034,19.222,0,0,0,270.4,0,0,0,0,0,0,0,0,0,0,0,0,0,1,1,10.13,FLYING
10.38,APPROACH,ILS_TRACK,72.66,76,3.34,443.13,-0.55,6.89,7.28,270.44,0.032,0,-15.502,270.43,0,-1.17,-72.23,8.499,0.032,18.869,0,0,0,270.4,0,0,0,0,0,0,0,0,0,0,0,0,0,1,1,10.45,FLYING
10.76,APPROACH,ILS_TRACK,72.12,76,3.88,442.94,-0.5,7,7.37,270.44,0.032,0.0421,-14.028,270.43,0,-1.14,-70.88,8.469,0.032,18.445,0,0,0,270.4,0,0,0,0,0,0,0,0,0,0,0,0,0,1,1,10.83,FLYING
11.08,APPROACH,ILS_TRACK,71.69,76,4.31,442.79,-0.47,7.09,7.43,270.44,0.031,0.0823,-12.685,270.43,0,-1.13,-69.76,8.445,0.031,18.102,0,0,0,270.4,0,0,0,0,0,0,0,0,0,0,0,0,0,1,1,11.15,FLYING
11.39,APPROACH,ILS_TRACK,71.25,76,4.75,442.65,-0.44,7.18,7.51,270.44,0.03,0.1241,-11.204,270.43,0,-1.11,-68.65,8.421,0.031,17.765,0,0,0,270.4,0,0,0,0,0,0,0,0,0,0,0,0,0,1,1,11.46,FLYING
11.78,APPROACH,ILS_TRACK,70.72,76,5.28,442.49,-0.42,7.28,7.59,270.44,0.03,0.1773,-9.191,270.43,0,-1.09,-67.29,8.392,0.03,17.357,0,0,0,270.4,0,0,0,0,0,0,0,0,0,0,0,0,0,1,1,11.85,FLYING
12.09,APPROACH,ILS_TRACK,70.3,76,5.7,442.37,-0.4,7.37,7.67,270.44,0.029,0.2221,-7.41,270.43,0,-1.07,-66.17,8.368,0.029,17.027,0,0,0,270.4,0,0,0,0,0,0,0,0,0,0,0,0,0,1,1,12.16,FLYING
12.41,APPROACH,ILS_TRACK,69.88,76,6.12,442.25,-0.39,7.45,7.74,270.44,0.027,0.268,-5.497,270.43,0,-1.05,-65.06,8.345,0.029,16.7,0,0,0,270.4,0,0,0,0,0,0,0,0,0,0,0,0,0,1,1,12.48,FLYING
12.79,APPROACH,ILS_TRACK,69.39,76,6.61,442.11,-0.37,7.56,7.84,270.44,0.027,0.3256,-2.969,270.43,0,-1.03,-63.71,8.316,0.027,16.302,0,0,0,270.4,0,0,0,0,0,0,0,0,0,0,0,0,0,1,1,12.86,FLYING
13.11,APPROACH,ILS_TRACK,69,76,7,442,-0.36,7.63,7.9,270.44,0.026,0.3734,-0.777,270.43,0,-1.01,-62.61,8.293,0.026,15.979,0,0,0,270.4,0,0,0,0,0,0,0,0,0,0,0,0,0,1,1,13.18,FLYING
13.42,APPROACH,ILS_TRACK,68.63,76,7.37,441.9,-0.35,7.71,7.98,270.44,0.025,0.4217,1.533,270.43,0,-1,-61.51,8.27,0.026,15.657,0,0,0,270.4,0,0,0,0,0,0,0,0,0,0,0,0,0,1,1,13.49,FLYING
13.81,APPROACH,ILS_TRACK,68.2,76,7.8,441.77,-0.34,7.8,8.06,270.45,0.026,0.4815,4.523,270.42,0,-0.97,-60.17,8.242,0.023,15.264,0,0,0,270.4,0,0,0,0,0,0,0,0,0,0,0,0,0,1,1,13.88,FLYING
14.12,APPROACH,ILS_TRACK,67.86,76,8.14,441.67,-0.33,7.87,8.12,270.45,0.026,0.5304,7.075,270.42,0,-0.95,-59.07,8.219,0.023,14.945,0,0,0,270.4,0,0,0,0,0,0,0,0,0,0,0,0,0,1,1,14.19,FLYING
14.44,APPROACH,ILS_TRACK,67.56,76,8.44,441.57,-0.32,7.93,8.18,270.45,0.026,0.5792,9.724,270.42,0,-0.93,-57.98,8.197,0.021,14.624,0,0,0,270.4,0,0,0,0,0,0,0,0,0,0,0,0,0,1,1,14.51,FLYING
14.82,APPROACH,ILS_TRACK,67.22,76,8.78,441.45,-0.31,8,8.24,270.45,0.031,0.6387,13.095,270.42,0,-0.91,-56.65,8.169,0.021,14.233,0,0,0,270.4,0,0,0,0,0,0,0,0,0,0,0,0,0,1,1,14.89,FLYING
15.14,APPROACH,ILS_TRACK,66.97,76,9.03,441.36,-0.3,8.06,8.29,270.45,0.034,0.6866,15.932,270.42,0,-0.89,-55.57,8.147,0.019,13.912,0,0,0,270.4,0,0,0,0,0,0,0,0,0,0,0,0,0,1,1,15.21,FLYING
15.45,APPROACH,ILS_TRACK,66.74,76,9.26,441.27,-0.29,8.1,8.33,270.45,0.034,0.7338,18.84,270.42,0,-0.87,-54.48,8.124,0.018,13.59,0,0,0,270.4,0,0,0,0,0,0,0,0,0,0,0,0,0,1,1,15.52,FLYING
15.84,APPROACH,ILS_TRACK,66.52,76,9.48,441.16,-0.28,8.15,8.37,270.45,0.034,0.7605,20,270.42,0,-0.84,-53.16,8.097,0.017,13.195,0,0,0,270.4,0,0,0,0,0,0,0,0,0,0,0,0,0,1,1,15.91,FLYING
16.15,APPROACH,ILS_TRACK,66.37,76,9.63,441.08,-0.27,8.17,8.39,270.45,0.035,0.769,20,270.42,0,-0.82,-52.07,8.075,0.015,12.871,0,0,0,270.4,0,0,0,0,0,0,0,0,0,0,0,0,0,1,1,16.22,FLYING
16.47,APPROACH,ILS_TRACK,66.25,76,9.75,441,-0.26,8.2,8.41,270.45,0.036,0.7756,20,270.41,0,-0.8,-50.99,8.052,0.014,12.543,0,0,0,270.4,0,0,0,0,0,0,0,0,0,0,0,0,0,1,1,16.54,FLYING
16.85,APPROACH,ILS_TRACK,66.15,76,9.85,440.9,-0.25,8.22,8.41,270.45,0.037,0.7813,20,270.41,0,-0.77,-49.66,8.025,0.013,12.142,0,0,0,270.4,0,0,0,0,0,0,0,0,0,0,0,0,0,1,1,16.92,FLYING
17.17,APPROACH,ILS_TRACK,66.11,76,9.89,440.83,-0.23,8.22,8.41,270.46,0.038,0.784,20,270.41,0,-0.75,-48.57,8.003,0.011,11.808,0,0,0,270.4,0,0,0,0,0,0,0,0,0,0,0,0,0,1,1,17.24,FLYING
17.48,APPROACH,ILS_TRACK,66.09,76,9.91,440.76,-0.22,8.22,8.41,270.46,0.038,0.785,20,270.41,0,-0.72,-47.48,7.981,0.011,11.474,0,0,0,270.4,0,0,0,0,0,0,0,0,0,0,0,0,0,1,1,17.55,FLYING
17.87,APPROACH,ILS_TRACK,66.11,76,9.89,440.67,-0.21,8.22,8.39,270.46,0.041,0.784,20,270.41,0,-0.69,-46.14,7.954,0.008,11.062,0,0,0,270.4,0,0,0,0,0,0,0,0,0,0,0,0,0,1,1,17.94,FLYING
18.18,APPROACH,ILS_TRACK,66.16,76,9.84,440.61,-0.19,8.21,8.36,270.46,0.044,0.7814,20,270.41,0,-0.67,-45.04,7.931,0.007,10.719,0,0,0,270.4,0,0,0,0,0,0,0,0,0,0,0,0,0,1,1,18.25,FLYING
18.5,APPROACH,ILS_TRACK,66.24,76,9.76,440.55,-0.18,8.19,8.34,270.46,0.044,0.7773,20,270.41,0,-0.64,-43.94,7.909,0.007,10.375,0,0,0,270.4,0,0,0,0,0,0,0,0,0,0,0,0,0,1,1,18.57,FLYING
18.88,APPROACH,ILS_TRACK,66.37,76,9.63,440.48,-0.16,8.16,8.3,270.46,0.044,0.7702,20,270.4,0,-0.61,-42.58,7.882,0.005,9.951,0,0,0,270.4,0,0,0,0,0,0,0,0,0,0,0,0,0,1,1,18.95,FLYING
19.2,APPROACH,ILS_TRACK,66.51,76,9.49,440.43,-0.15,8.13,8.26,270.46,0.044,0.7629,20,270.4,0,-0.59,-41.46,7.86,0.003,9.597,0,0,0,270.4,0,0,0,0,0,0,0,0,0,0,0,0,0,1,1,19.27,FLYING
19.51,APPROACH,ILS_TRACK,66.67,76,9.33,440.38,-0.14,8.1,8.22,270.46,0.045,0.7542,20,270.4,0,-0.56,-40.34,7.837,0.002,9.242,0,0,0,270.4,0,0,0,0,0,0,0,0,0,0,0,0,0,1,1,19.58,FLYING
19.9,APPROACH,ILS_TRACK,66.9,76,9.1,440.33,-0.12,8.06,8.16,270.46,0.046,0.7419,20,270.4,0,-0.53,-38.95,7.81,0.001,8.805,0,0,0,270.4,0,0,0,0,0,0,0,0,0,0,0,0,0,1,1,19.97,FLYING
20.21,APPROACH,ILS_TRACK,67.11,76,8.89,440.29,-0.1,8.02,8.11,270.46,0.047,0.7305,20,270.4,0,-0.5,-37.81,7.787,-0.001,8.44,0,0,0,270.4,0,0,0,0,0,0,0,0,0,0,0,0,0,1,1,20.28,FLYING
20.53,APPROACH,ILS_TRACK,67.34,76,8.66,440.26,-0.09,7.97,8.05,270.46,0.048,0.718,20,270.4,0,-0.48,-36.66,7.765,-0.002,8.073,0,0,0,270.4,0,0,0,0,0,0,0,0,0,0,0,0,0,1,1,20.6,FLYING
20.91,APPROACH,ILS_TRACK,67.64,76,8.36,440.23,-0.07,7.92,7.98,270.46,0.048,0.7014,20,270.4,0,-0.44,-35.24,7.737,-0.003,7.622,0,0,0,270.4,0,0,0,0,0,0,0,0,0,0,0,0,0,1,1,20.98,FLYING
21.23,APPROACH,ILS_TRACK,67.91,76,8.09,440.21,-0.05,7.87,7.92,270.46,0.046,0.6867,20,270.39,0,-0.42,-34.07,7.714,-0.005,7.244,0,0,0,270.4,0,0,0,0,0,0,0,0,0,0,0,0,0,1,1,21.3,FLYING
21.54,APPROACH,ILS_TRACK,68.19,76,7.81,440.19,-0.04,7.82,7.85,270.46,0.046,0.6712,20,270.39,0,-0.39,-32.88,7.691,-0.006,6.865,0,0,0,270.4,0,0,0,0,0,0,0,0,0,0,0,0,0,1,1,21.61,FLYING
21.93,APPROACH,ILS_TRACK,68.56,76,7.44,440.17,-0.02,7.76,7.78,270.46,0.046,0.6511,20,270.39,0,-0.36,-31.43,7.663,-0.008,6.398,0,0,0,270.4,0,0,0,0,0,0,0,0,0,0,0,0,0,1,1,22,FLYING
22.24,APPROACH,ILS_TRACK,68.87,76,7.13,440.17,0,7.7,7.71,270.46,0.048,0.634,20,270.39,0,-0.33,-30.22,7.64,-0.008,6.008,0,0,0,270.4,0,0,0,0,0,0,0,0,0,0,0,0,0,1,1,22.31,FLYING
22.56,APPROACH,ILS_TRACK,69.2,76,6.8,440.17,0.01,7.66,7.65,270.46,0.048,0.6162,20,270.39,0,-0.3,-29.01,7.617,-0.011,5.616,0,0,0,270.4,0,0,0,0,0,0,0,0,0,0,0,0,0,1,1,22.63,FLYING
22.94,APPROACH,ILS_TRACK,69.6,76,6.4,440.17,0.03,7.59,7.57,270.46,0.047,0.5938,20,270.39,0,-0.27,-27.51,7.588,-0.011,5.136,0,0,0,270.4,0,0,0,0,0,0,0,0,0,0,0,0,0,1,1,23.01,FLYING
23.26,APPROACH,ILS_TRACK,69.95,76,6.05,440.18,0.05,7.54,7.5,270.46,0.048,0.575,20,270.39,0,-0.24,-26.27,7.565,-0.012,4.733,0,0,0,270.4,0,0,0,0,0,0,0,0,0,0,0,0,0,1,1,23.33,FLYING
23.57,APPROACH,ILS_TRACK,70.3,76,5.7,440.2,0.07,7.48,7.43,270.46,0.049,0.5559,20,270.39,0,-0.21,-25.02,7.541,-0.013,4.328,0,0,0,270.4,0,0,0,0,0,0,0,0,0,0,0,0,0,1,1,23.64,FLYING
23.96,APPROACH,ILS_TRACK,70.73,76,5.27,440.22,0.09,7.41,7.35,270.46,0.051,0.5321,20,270.39,0,-0.18,-23.47,7.512,-0.015,3.833,0,0,0,270.4,0,0,0,0,0,0,0,0,0,0,0,0,0,1,1,24.03,FLYING
24.27,APPROACH,ILS_TRACK,71.09,76,4.91,440.25,0.1,7.36,7.29,270.46,0.053,0.5124,20,270.39,0,-0.15,-22.2,7.488,-0.015,3.418,0,0,0,270.4,0,0,0,0,0,0,0,0,0,0,0,0,0,1,1,24.34,FLYING
24.59,APPROACH,ILS_TRACK,71.45,76,4.55,440.28,0.12,7.31,7.22,270.46,0.057,0.4926,20,270.38,0,-0.12,-20.91,7.464,-0.017,3.004,0,0,0,270.4,0,0,0,0,0,0,0,0,0,0,0,0,0,1,1,24.66,FLYING
24.97,APPROACH,ILS_TRACK,71.89,76,4.11,440.33,0.14,7.2,7.14,270.46,0.062,0.4684,20,270.38,-0.505,-0.09,-19.32,7.435,-0.018,2.495,0,0,0,270.4,0,0,0,0,0,0,0,0,0,0,0,0,0,1,1,25.04,FLYING
25.29,APPROACH,ILS_TRACK,72.25,76,3.75,440.35,0.07,6.9,6.88,270.44,0.132,0.4485,20,270.38,-0.881,-0.07,-18.03,7.411,-0.018,2.119,0,0,0,270.4,0,0,0,0,0,0,0,0,0,0,0,0,0,1,1,25.36,FLYING
25.6,APPROACH,ILS_TRACK,72.62,76,3.38,440.34,-0.04,6.67,6.75,270.43,0.179,0.4282,20,270.38,-1.222,-0.04,-16.75,7.386,-0.019,1.778,0,0,0,270.4,0,0,0,0,0,0,0,0,0,0,0,0,0,1,1,25.67,FLYING
25.99,APPROACH,ILS_TRACK,73.07,76,2.93,440.27,-0.24,6.37,6.59,270.42,0.21,0.4034,20,270.38,-1.568,-0.01,-15.24,7.356,-0.018,1.432,0,0,0,270.4,0,0,0,0,0,0,0,0,0,0,0,0,0,1,1,26.06,FLYING
26.3,APPROACH,ILS_TRACK,73.44,76,2.56,440.15,-0.44,6.1,6.46,270.41,0.215,0.3832,20,270.38,-1.782,0.01,-14.06,7.332,-0.016,1.218,0,0,0,270.4,0,0,0,0,0,0,0,0,0,0,0,0,0,1,1,26.37,FLYING
26.62,APPROACH,ILS_TRACK,73.8,76,2.2,439.95,-0.66,5.85,6.37,270.41,0.212,0.3633,20,270.39,-1.968,0.02,-12.93,7.307,-0.014,1.032,0,0,0,270.4,0,0,0,0,0,0,0,0,0,0,0,0,0,1,1,26.69,FLYING
27,APPROACH,ILS_TRACK,74.23,76,1.77,439.62,-0.96,5.58,6.31,270.4,0.194,0.3395,20,270.39,-2.166,0.04,-11.65,7.276,-0.012,0.834,0,0,0,270.4,0,0,0,0,0,0,0,0,0,0,0,0,0,1,1,27.07,FLYING
27.32,APPROACH,ILS_TRACK,74.57,76,1.43,439.27,-1.2,5.36,6.25,270.4,0.172,0.3208,20,270.39,-2.262,0.05,-10.68,7.251,-0.01,0.738,0,0,0,270.4,0,0,0,0,0,0,0,0,0,0,0,0,0,1,1,27.39,FLYING
27.63,APPROACH,ILS_TRACK,74.89,76,1.11,438.83,-1.43,5.17,6.22,270.4,0.147,0.3028,20,270.39,-2.357,0.06,-9.78,7.226,-0.008,0.643,0,0,0,270.4,0,0,0,0,0,0,0,0,0,0,0,0,0,1,1,27.7,FLYING
28.02,APPROACH,ILS_TRACK,75.27,76,0.73,438.21,-1.71,4.96,6.2,270.4,0.115,0.282,20,270.39,-2.469,0.06,-8.77,7.196,-0.006,0.531,0,0,0,270.4,0,0,0,0,0,0,0,0,0,0,0,0,0,1,1,28.09,FLYING
28.33,APPROACH,ILS_TRACK,75.56,76,0.44,437.62,-1.93,4.79,6.18,270.39,0.093,0.2662,20,270.4,-2.512,0.07,-8.02,7.17,-0.005,0.488,0,0,0,270.4,0,0,0,0,0,0,0,0,0,0,0,0,0,1,1,28.4,FLYING
28.65,APPROACH,ILS_TRACK,75.82,76,0.18,436.97,-2.13,4.64,6.17,270.4,0.071,0.2513,20,270.4,-2.564,0.07,-7.32,7.145,-0.003,0.436,0,0,0,270.4,0,0,0,0,0,0,0,0,0,0,0,0,0,1,1,28.72,FLYING
29.03,APPROACH,ILS_TRACK,76.12,76,-0.12,436.09,-2.36,4.48,6.17,270.39,0.051,0.2342,19.963,270.4,-2.633,0.07,-6.55,7.114,-0.003,0.367,0,0,0,270.4,0,0,0,0,0,0,0,0,0,0,0,0,0,1,1,29.1,FLYING
29.35,APPROACH,ILS_TRACK,76.34,76,-0.34,435.31,-2.54,4.36,6.16,270.4,0.04,0.2207,19.862,270.4,-2.651,0.07,-5.98,7.088,-0.002,0.349,0,0,0,270.4,0,0,0,0,0,0,0,0,0,0,0,0,0,1,1,29.42,FLYING
29.66,APPROACH,ILS_TRACK,76.55,76,-0.55,434.47,-2.7,4.25,6.16,270.39,0.028,0.2075,19.696,270.4,-2.682,0.06,-5.46,7.062,-0.002,0.318,0,0,0,270.4,0,0,0,0,0,0,0,0,0,0,0,0,0,1,1,29.73,FLYING
30.05,APPROACH,ILS_TRACK,76.76,76,-0.76,433.39,-2.88,4.14,6.17,270.4,0.024,0.1919,19.409,270.4,-2.727,0.06,-4.89,7.031,-0.001,0.273,0,0,0,270.4,0,0,0,0,0,0,0,0,0,0,0,0,0,1,1,30.12,FLYING
30.36,APPROACH,ILS_TRACK,76.92,76,-0.92,432.45,-3.01,4.06,6.17,270.39,0.015,0.1798,19.124,270.4,-2.737,0.06,-4.47,7.005,-0.001,0.263,0,0,0,270.4,0,0,0,0,0,0,0,0,0,0,0,0,0,1,1,30.43,FLYING
30.68,APPROACH,ILS_TRACK,77.05,76,-1.05,431.48,-3.13,3.98,6.18,270.4,0.008,0.1683,18.797,270.4,-2.759,0.06,-4.08,6.979,-0.001,0.241,0,0,0,270.4,0,0,0,0,0,0,0,0,0,0,0,0,0,1,1,30.75,FLYING
31.06,APPROACH,ILS_TRACK,77.19,76,-1.19,430.24,-3.26,3.93,6.21,270.39,0.006,0.1553,18.343,270.4,-2.793,0.06,-3.65,6.948,0,0.207,0,0,0,270.4,0,0,0,0,0,0,0,0,0,0,0,0,0,1,1,31.13,FLYING
31.38,APPROACH,ILS_TRACK,77.28,76,-1.28,429.2,-3.34,3.88,6.21,270.4,0.005,0.1455,17.943,270.4,-2.808,0.05,-3.33,6.922,-0.001,0.192,0,0,0,270.4,0,0,0,0,0,0,0,0,0,0,0,0,0,1,1,31.45,FLYING
31.69,APPROACH,ILS_TRACK,77.35,76,-1.35,428.13,-3.42,3.84,6.22,270.4,0.003,0.1366,17.521,270.4,-2.834,0.05,-3.04,6.896,0,0.166,0,0,0,270.4,0,0,0,0,0,0,0,0,0,0,0,0,0,1,1,31.76,FLYING
32.08,APPROACH,ILS_TRACK,77.4,76,-1.4,426.79,-3.5,3.79,6.24,270.4,-0.002,0.1269,16.982,270.4,-2.871,0.05,-2.71,6.864,-0.001,0.129,0,0,0,270.4,0,0,0,0,0,0,0,0,0,0,0,0,0,1,1,32.15,FLYING
32.39,APPROACH,ILS_TRACK,77.43,76,-1.43,425.68,-3.56,3.76,6.24,270.4,-0.002,0.1199,16.533,270.4,-2.889,0.05,-2.46,6.838,0,0.111,0,0,0,270.4,0,0,0,0,0,0,0,0,0,0,0,0,0,1,1,32.46,FLYING
32.71,APPROACH,ILS_TRACK,77.44,76,-1.44,424.54,-3.62,3.73,6.25,270.4,-0.002,0.1139,16.08,270.4,-2.912,0.05,-2.23,6.813,-0.001,0.088,0,0,0,270.4,0,0,0,0,0,0,0,0,0,0,0,0,0,1,1,32.78,FLYING
33.09,APPROACH,ILS_TRACK,77.42,76,-1.42,423.14,-3.68,3.7,6.27,270.4,-0.002,0.1079,15.531,270.4,-2.941,0.04,-1.98,6.781,-0.001,0.059,0,0,0,270.4,0,0,0,0,0,0,0,0,0,0,0,0,0,1,1,33.16,FLYING
33.41,APPROACH,ILS_TRACK,77.4,76,-1.4,421.97,-3.72,3.68,6.27,270.4,-0.003,0.104,15.09,270.4,-2.954,0.04,-1.78,6.755,-0.001,0.046,0,0,0,270.4,0,0,0,0,0,0,0,0,0,0,0,0,0,1,1,33.48,FLYING
33.72,APPROACH,ILS_TRACK,77.36,76,-1.36,420.79,-3.77,3.66,6.29,270.4,-0.002,0.101,14.66,270.4,-2.971,0.04,-1.61,6.729,-0.001,0.029,0,0,0,270.4,0,0,0,0,0,0,0,0,0,0,0,0,0,1,1,33.79,FLYING
34.11,APPROACH,ILS_TRACK,77.29,76,-1.29,419.33,-3.81,3.65,6.31,270.4,-0.003,0.0986,14.161,270.4,-2.992,0.04,-1.41,6.697,-0.001,0.008,0,0,0,270.4,0,0,0,0,0,0,0,0,0,0,0,0,0,1,1,34.18,FLYING
34.42,APPROACH,ILS_TRACK,77.22,76,-1.22,418.12,-3.85,3.64,6.32,270.4,-0.001,0.0976,13.774,270.4,-3,0.04,-1.26,6.672,-0.001,0,0,0,0,270.4,0,0,0,0,0,0,0,0,0,0,0,0,0,1,1,34.49,FLYING
34.74,APPROACH,ILS_TRACK,77.14,76,-1.14,416.9,-3.88,3.63,6.34,270.4,-0.003,0.0975,13.41,270.4,-3.012,0.04,-1.12,6.646,-0.002,-0.012,0,0,0,270.4,0,0,0,0,0,0,0,0,0,0,0,0,0,1,1,34.81,FLYING
35.12,APPROACH,ILS_TRACK,77.04,76,-1.04,415.4,-3.91,3.63,6.37,270.4,-0.002,0.0985,13.007,270.4,-3.026,0.04,-0.97,6.614,-0.002,-0.026,0,0,0,270.4,0,0,0,0,0,0,0,0,0,0,0,0,0,1,1,35.19,FLYING
35.44,APPROACH,ILS_TRACK,76.94,76,-0.94,414.16,-3.94,3.62,6.38,270.4,0,0.1001,12.707,270.4,-3.031,0.04,-0.86,6.589,-0.002,-0.031,0,0,0,270.4,0,0,0,0,0,0,0,0,0,0,0,0,0,1,1,35.51,FLYING
35.75,APPROACH,ILS_TRACK,76.84,76,-0.84,412.92,-3.96,3.62,6.4,270.4,-0.001,0.1025,12.439,270.4,-3.039,0.04,-0.75,6.563,-0.002,-0.039,0,0,0,270.4,0,0,0,0,0,0,0,0,0,0,0,0,0,1,1,35.82,FLYING
36.14,APPROACH,ILS_TRACK,76.71,76,-0.71,411.39,-3.98,3.63,6.43,270.4,0,0.1063,12.162,270.4,-3.049,0.05,-0.64,6.532,-0.002,-0.049,0,0,0,270.4,0,0,0,0,0,0,0,0,0,0,0,0,0,1,1,36.21,FLYING
36.45,APPROACH,ILS_TRACK,76.6,76,-0.6,410.13,-4,3.63,6.45,270.4,0.002,0.1101,11.97,270.4,-3.053,0.05,-0.55,6.506,-0.004,-0.053,0,0,0,270.4,0,0,0,0,0,0,0,0,0,0,0,0,0,1,1,36.52,FLYING
36.77,APPROACH,ILS_TRACK,76.48,76,-0.48,408.87,-4.02,3.63,6.47,270.4,0.004,0.1144,11.813,270.4,-3.058,0.05,-0.47,6.48,-0.003,-0.058,0,0,0,270.4,0,0,0,0,0,0,0,0,0,0,0,0,0,1,1,36.84,FLYING
37.15,APPROACH,ILS_TRACK,76.35,76,-0.35,407.32,-4.03,3.64,6.49,270.4,0.004,0.1204,11.675,270.4,-3.065,0.05,-0.38,6.449,-0.004,-0.065,0,0,0,270.4,0,0,0,0,0,0,0,0,0,0,0,0,0,1,1,37.22,FLYING
37.47,APPROACH,ILS_TRACK,76.23,76,-0.23,406.05,-4.05,3.65,6.51,270.41,0.002,0.1257,11.598,270.4,-3.067,0.05,-0.32,6.424,-0.004,-0.067,0,0,0,270.4,0,0,0,0,0,0,0,0,0,0,0,0,0,1,1,37.54,FLYING
37.78,APPROACH,ILS_TRACK,76.12,76,-0.12,404.77,-4.06,3.66,6.53,270.41,0.002,0.1314,11.556,270.4,-3.07,0.06,-0.26,6.398,-0.004,-0.07,0,0,0,270.4,0,0,0,0,0,0,0,0,0,0,0,0,0,1,1,37.85,FLYING
38.17,APPROACH,ILS_TRACK,75.98,76,0.02,403.21,-4.07,3.67,6.55,270.41,0.003,0.1388,11.557,270.4,-3.074,0.06,-0.2,6.367,-0.004,-0.074,0,0,0,270.4,0,0,0,0,0,0,0,0,0,0,0,0,0,1,1,38.24,FLYING
38.48,APPROACH,ILS_TRACK,75.88,76,0.12,401.93,-4.08,3.67,6.57,270.41,0.006,0.1453,11.593,270.4,-3.075,0.06,-0.15,6.342,-0.004,-0.075,0,0,0,270.4,0,0,0,0,0,0,0,0,0,0,0,0,0,1,1,38.55,FLYING
38.8,APPROACH,ILS_TRACK,75.77,76,0.23,400.64,-4.08,3.68,6.59,270.41,0.008,0.1521,11.662,270.39,-3.076,0.06,-0.11,6.317,-0.005,-0.076,0,0,0,270.4,0,0,0,0,0,0,0,0,0,0,0,0,0,1,1,38.87,FLYING
39.18,APPROACH,ILS_TRACK,75.64,76,0.36,399.07,-4.09,3.69,6.61,270.41,0.009,0.1608,11.797,270.39,-3.078,0.07,-0.06,6.286,-0.005,-0.078,0,0,0,270.4,0,0,0,0,0,0,0,0,0,0,0,0,0,1,1,39.25,FLYING
39.5,APPROACH,ILS_TRACK,75.54,76,0.46,397.78,-4.1,3.7,6.63,270.41,0.01,0.1682,11.939,270.39,-3.078,0.07,-0.03,6.26,-0.005,-0.078,0,0,0,270.4,0,0,0,0,0,0,0,0,0,0,0,0,0,1,1,39.57,FLYING
39.81,APPROACH,ILS_TRACK,75.44,76,0.56,396.49,-4.1,3.71,6.64,270.41,0.012,0.1758,12.114,270.39,-3.078,0.07,0,6.235,-0.006,-0.078,0,0,0,270.4,0,0,0,0,0,0,0,0,0,0,0,0,0,1,1,39.88,FLYING
40.2,APPROACH,ILS_TRACK,75.32,76,0.68,394.91,-4.11,3.72,6.67,270.41,0.011,0.1854,12.372,270.39,-3.079,0.08,0.04,6.204,-0.006,-0.079,0,0,0,270.4,0,0,0,0,0,0,0,0,0,0,0,0,0,1,1,40.27,FLYING
40.51,APPROACH,ILS_TRACK,75.23,76,0.77,393.61,-4.11,3.73,6.68,270.41,0.011,0.1934,12.613,270.39,-3.078,0.08,0.06,6.179,-0.007,-0.078,0,0,0,270.4,0,0,0,0,0,0,0,0,0,0,0,0,0,1,1,40.58,FLYING
40.83,APPROACH,ILS_TRACK,75.14,76,0.86,392.32,-4.11,3.74,6.69,270.41,0.009,0.2016,12.882,270.39,-3.077,0.09,0.08,6.154,-0.007,-0.077,0,0,0,270.4,0,0,0,0,0,0,0,0,0,0,0,0,0,1,1,40.9,FLYING
41.21,APPROACH,ILS_TRACK,75.03,76,0.97,390.73,-4.12,3.75,6.71,270.41,0.009,0.2117,13.251,270.39,-3.077,0.09,0.1,6.124,-0.007,-0.077,0,0,0,270.4,0,0,0,0,0,0,0,0,0,0,0,0,0,1,1,41.28,FLYING
41.53,APPROACH,ILS_TRACK,74.95,76,1.05,389.44,-4.12,3.76,6.72,270.41,0.01,0.22,13.577,270.39,-3.076,0.1,0.12,6.098,-0.007,-0.076,0,0,0,270.4,0,0,0,0,0,0,0,0,0,0,0,0,0,1,1,41.6,FLYING
41.84,APPROACH,ILS_TRACK,74.88,76,1.12,388.14,-4.12,3.76,6.73,270.41,0.012,0.2283,13.928,270.39,-3.075,0.1,0.13,6.073,-0.007,-0.075,0,0,0,270.4,0,0,0,0,0,0,0,0,0,0,0,0,0,1,1,41.91,FLYING
42.23,APPROACH,ILS_TRACK,74.8,76,1.2,386.56,-4.12,3.77,6.75,270.41,0.014,0.2385,14.388,270.39,-3.074,0.11,0.15,6.043,-0.008,-0.074,0,0,0,270.4,0,0,0,0,0,0,0,0,0,0,0,0,0,1,1,42.3,FLYING
42.54,APPROACH,ILS_TRACK,74.73,76,1.27,385.26,-4.12,3.78,6.76,270.41,0.014,0.2467,14.785,270.39,-3.073,0.11,0.16,6.018,-0.008,-0.073,0,0,0,270.4,0,0,0,0,0,0,0,0,0,0,0,0,0,1,1,42.61,FLYING
42.86,APPROACH,ILS_TRACK,74.68,76,1.32,383.96,-4.12,3.79,6.77,270.41,0.016,0.2548,15.2,270.39,-3.072,0.12,0.17,5.993,-0.008,-0.072,0,0,0,270.4,0,0,0,0,0,0,0,0,0,0,0,0,0,1,1,42.93,FLYING
43.24,APPROACH,ILS_TRACK,74.62,76,1.38,382.37,-4.12,3.79,6.77,270.41,0.017,0.2646,15.731,270.39,-3.071,0.12,0.17,5.963,-0.009,-0.071,0,0,0,270.4,0,0,0,0,0,0,0,0,0,0,0,0,0,1,1,43.31,FLYING
43.56,APPROACH,ILS_TRACK,74.57,76,1.43,381.07,-4.12,3.8,6.78,270.41,0.018,0.2724,16.179,270.39,-3.07,0.13,0.18,5.938,-0.01,-0.07,0,0,0,270.4,0,0,0,0,0,0,0,0,0,0,0,0,0,1,1,43.63,FLYING
43.87,APPROACH,ILS_TRACK,74.54,76,1.46,379.78,-4.12,3.8,6.78,270.41,0.018,0.2799,16.639,270.39,-3.069,0.13,0.19,5.913,-0.009,-0.069,0,0,0,270.4,0,0,0,0,0,0,0,0,0,0,0,0,0,1,1,43.94,FLYING
44.26,APPROACH,ILS_TRACK,74.5,76,1.5,378.19,-4.12,3.8,6.79,270.41,0.017,0.2888,17.214,270.39,-3.069,0.14,0.19,5.882,-0.01,-0.069,0,0,0,270.4,0,0,0,0,0,0,0,0,0,0,0,0,0,1,1,44.33,FLYING
44.57,APPROACH,ILS_TRACK,74.48,76,1.52,376.89,-4.12,3.8,6.79,270.41,0.017,0.2957,17.691,270.39,-3.068,0.14,0.2,5.858,-0.01,-0.068,0,0,0,270.4,0,0,0,0,0,0,0,0,0,0,0,0,0,1,1,44.64,FLYING
44.89,APPROACH,ILS_TRACK,74.47,76,1.53,375.59,-4.13,3.8,6.79,270.41,0.017,0.3022,18.173,270.39,-3.068,0.15,0.2,5.833,-0.011,-0.068,0,0,0,270.4,0,0,0,0,0,0,0,0,0,0,0,0,0,1,1,44.96,FLYING
45.27,APPROACH,ILS_TRACK,74.46,76,1.54,374,-4.13,3.8,6.79,270.41,0.014,0.3097,18.765,270.39,-3.068,0.16,0.2,5.802,-0.011,-0.068,0,0,0,270.4,0,0,0,0,0,0,0,0,0,0,0,0,0,1,1,45.34,FLYING
45.59,APPROACH,ILS_TRACK,74.47,76,1.53,372.7,-4.13,3.8,6.79,270.41,0.015,0.3153,19.248,270.39,-3.068,0.16,0.2,5.777,-0.011,-0.068,0,0,0,270.4,0,0,0,0,0,0,0,0,0,0,0,0,0,1,1,45.66,FLYING
45.9,APPROACH,ILS_TRACK,74.48,76,1.52,371.4,-4.13,3.79,6.79,270.41,0.017,0.3205,19.728,270.39,-3.068,0.17,0.21,5.753,-0.011,-0.068,0,0,0,270.4,0,0,0,0,0,0,0,0,0,0,0,0,0,1,1,45.97,FLYING
46.29,APPROACH,ILS_TRACK,74.5,76,1.5,369.81,-4.13,3.79,6.78,270.41,0.015,0.3225,20,270.39,-3.069,0.18,0.21,5.722,-0.012,-0.069,0,0,0,270.4,0,0,0,0,0,0,0,0,0,0,0,0,0,1,1,46.36,FLYING
46.6,APPROACH,ILS_TRACK,74.53,76,1.47,368.51,-4.13,3.78,6.78,270.41,0.017,0.321,20,270.39,-3.069,0.18,0.21,5.697,-0.013,-0.069,0,0,0,270.4,0,0,0,0,0,0,0,0,0,0,0,0,0,1,1,46.67,FLYING
46.92,APPROACH,ILS_TRACK,74.57,76,1.43,367.21,-4.13,3.78,6.77,270.41,0.016,0.319,20,270.39,-3.07,0.19,0.21,5.673,-0.012,-0.07,0,0,0,270.4,0,0,0,0,0,0,0,0,0,0,0,0,0,1,1,46.99,FLYING
47.3,APPROACH,ILS_TRACK,74.62,76,1.38,365.62,-4.13,3.77,6.76,270.41,0.015,0.3161,20,270.39,-3.072,0.2,0.22,5.642,-0.013,-0.072,0,0,0,270.4,0,0,0,0,0,0,0,0,0,0,0,0,0,1,1,47.37,FLYING
47.62,APPROACH,ILS_TRACK,74.67,76,1.33,364.32,-4.13,3.76,6.75,270.41,0.015,0.3133,20,270.39,-3.074,0.2,0.22,5.617,-0.013,-0.074,0,0,0,270.4,0,0,0,0,0,0,0,0,0,0,0,0,0,1,1,47.69,FLYING
47.93,APPROACH,ILS_TRACK,74.73,76,1.27,363.01,-4.14,3.75,6.74,270.41,0.017,0.3101,20,270.39,-3.075,0.21,0.22,5.592,-0.013,-0.075,0,0,0,270.4,0,0,0,0,0,0,0,0,0,0,0,0,0,1,1,48,FLYING
48.32,APPROACH,ILS_TRACK,74.81,76,1.19,361.42,-4.14,3.73,6.72,270.41,0.018,0.3057,20,270.39,-3.077,0.22,0.23,5.562,-0.014,-0.077,0,0,0,270.4,0,0,0,0,0,0,0,0,0,0,0,0,0,1,1,48.39,FLYING
48.63,APPROACH,ILS_TRACK,74.88,76,1.12,360.11,-4.14,3.72,6.71,270.42,0.017,0.3018,20,270.39,-3.08,0.22,0.23,5.537,-0.014,-0.08,0,0,0,270.4,0,0,0,0,0,0,0,0,0,0,0,0,0,1,1,48.7,FLYING
48.95,APPROACH,ILS_TRACK,74.96,76,1.04,358.81,-4.14,3.71,6.7,270.41,0.017,0.2976,20,270.39,-3.081,0.23,0.24,5.512,-0.015,-0.081,0,0,0,270.4,0,0,0,0,0,0,0,0,0,0,0,0,0,1,1,49.02,FLYING
49.33,APPROACH,ILS_TRACK,75.06,76,0.94,357.21,-4.15,3.69,6.68,270.42,0.018,0.2921,20,270.39,-3.084,0.24,0.24,5.481,-0.015,-0.084,0,0,0,270.4,0,0,0,0,0,0,0,0,0,0,0,0,0,1,1,49.4,FLYING
49.65,APPROACH,ILS_TRACK,75.15,76,0.85,355.9,-4.15,3.68,6.67,270.41,0.019,0.2874,20,270.38,-3.086,0.24,0.25,5.456,-0.015,-0.086,0,0,0,270.4,0,0,0,0,0,0,0,0,0,0,0,0,0,1,1,49.72,FLYING
49.96,APPROACH,ILS_TRACK,75.24,76,0.76,354.59,-4.16,3.67,6.65,270.41,0.023,0.2824,20,270.39,-3.088,0.25,0.25,5.431,-0.015,-0.088,0,0,0,270.4,0,0,0,0,0,0,0,0,0,0,0,0,0,1,1,50.03,FLYING
50.35,APPROACH,ILS_TRACK,75.35,76,0.65,352.99,-4.16,3.65,6.63,270.41,0.022,0.2761,20,270.38,-3.091,0.26,0.26,5.4,-0.016,-0.091,0,0,0,270.4,0,0,0,0,0,0,0,0,0,0,0,0,0,1,1,50.42,FLYING
50.66,APPROACH,ILS_TRACK,75.45,76,0.55,351.68,-4.17,3.63,6.62,270.41,0.024,0.2707,20,270.38,-3.093,0.27,0.26,5.375,-0.016,-0.093,0,0,0,270.4,0,0,0,0,0,0,0,0,0,0,0,0,0,1,1,50.73,FLYING
50.98,APPROACH,ILS_TRACK,75.55,76,0.45,350.36,-4.17,3.61,6.6,270.41,0.024,0.2652,20,270.38,-3.095,0.27,0.27,5.35,-0.016,-0.095,0,0,0,270.4,0,0,0,0,0,0,0,0,0,0,0,0,0,1,1,51.05,FLYING
51.36,APPROACH,ILS_TRACK,75.68,76,0.32,348.76,-4.18,3.59,6.58,270.41,0.025,0.2583,20,270.38,-3.097,0.28,0.28,5.319,-0.017,-0.097,0,0,0,270.4,0,0,0,0,0,0,0,0,0,0,0,0,0,1,1,51.43,FLYING
51.68,APPROACH,ILS_TRACK,75.78,76,0.22,347.44,-4.18,3.58,6.56,270.41,0.027,0.2526,20,270.38,-3.098,0.29,0.28,5.294,-0.016,-0.098,0,0,0,270.4,0,0,0,0,0,0,0,0,0,0,0,0,0,1,1,51.75,FLYING
51.99,APPROACH,ILS_TRACK,75.89,76,0.11,346.12,-4.19,3.56,6.55,270.41,0.031,0.2468,20,270.38,-3.1,0.29,0.29,5.269,-0.016,-0.1,0,0,0,270.4,0,0,0,0,0,0,0,0,0,0,0,0,0,1,1,52.06,FLYING
52.38,APPROACH,ILS_TRACK,76.02,76,-0.02,344.5,-4.19,3.54,6.53,270.41,0.031,0.2396,19.997,270.38,-3.102,0.3,0.29,5.238,-0.017,-0.102,0,0,0,270.4,0,0,0,0,0,0,0,0,0,0,0,0,0,1,1,52.45,FLYING
52.69,APPROACH,ILS_TRACK,76.13,76,-0.13,343.18,-4.2,3.52,6.51,270.41,0.031,0.2333,19.962,270.38,-3.103,0.31,0.3,5.213,-0.017,-0.103,0,0,0,270.4,0,0,0,0,0,0,0,0,0,0,0,0,0,1,1,52.76,FLYING
53.01,APPROACH,ILS_TRACK,76.23,76,-0.23,341.86,-4.21,3.51,6.49,270.41,0.028,0.2266,19.892,270.38,-3.105,0.31,0.3,5.187,-0.017,-0.105,0,0,0,270.4,0,0,0,0,0,0,0,0,0,0,0,0,0,1,1,53.08,FLYING
53.39,APPROACH,ILS_TRACK,76.36,76,-0.36,340.23,-4.21,3.49,6.48,270.41,0.027,0.218,19.758,270.38,-3.106,0.32,0.31,5.156,-0.017,-0.106,0,0,0,270.4,0,0,0,0,0,0,0,0,0,0,0,0,0,1,1,53.46,FLYING
53.71,APPROACH,ILS_TRACK,76.46,76,-0.46,338.9,-4.22,3.47,6.46,270.41,0.028,0.2107,19.617,270.38,-3.106,0.32,0.31,5.131,-0.017,-0.106,0,0,0,270.4,0,0,0,0,0,0,0,0,0,0,0,0,0,1,1,53.78,FLYING
54.02,APPROACH,ILS_TRACK,76.56,76,-0.56,337.57,-4.23,3.46,6.45,270.41,0.03,0.2033,19.445,270.38,-3.107,0.33,0.32,5.105,-0.018,-0.107,0,0,0,270.4,0,0,0,0,0,0,0,0,0,0,0,0,0,1,1,54.09,FLYING
54.41,APPROACH,ILS_TRACK,76.67,76,-0.67,335.94,-4.23,3.44,6.43,270.41,0.029,0.1942,19.193,270.38,-3.107,0.33,0.32,5.074,-0.017,-0.107,0,0,0,270.4,0,0,0,0,0,0,0,0,0,0,0,0,0,1,1,54.48,FLYING
54.72,APPROACH,ILS_TRACK,76.75,76,-0.75,334.61,-4.24,3.43,6.42,270.41,0.029,0.1869,18.96,270.38,-3.107,0.34,0.33,5.048,-0.017,-0.107,0,0,0,270.4,0,0,0,0,0,0,0,0,0,0,0,0,0,1,1,54.79,FLYING
55.04,APPROACH,ILS_TRACK,76.82,76,-0.82,333.27,-4.25,3.42,6.41,270.41,0.028,0.1796,18.703,270.38,-3.106,0.34,0.33,5.023,-0.017,-0.106,0,0,0,270.4,0,0,0,0,0,0,0,0,0,0,0,0,0,1,1,55.11,FLYING
55.42,APPROACH,ILS_TRACK,76.9,76,-0.9,331.63,-4.25,3.41,6.41,270.4,0.028,0.171,18.358,270.38,-3.106,0.35,0.33,4.992,-0.017,-0.106,0,0,0,270.4,0,0,0,0,0,0,0,0,0,0,0,0,0,1,1,55.49,FLYING
55.74,APPROACH,ILS_TRACK,76.96,76,-0.96,330.29,-4.26,3.4,6.4,270.41,0.028,0.1643,18.058,270.38,-3.105,0.35,0.33,4.966,-0.017,-0.105,0,0,0,270.4,0,0,0,0,0,0,0,0,0,0,0,0,0,1,1,55.81,FLYING
56.05,APPROACH,ILS_TRACK,77.01,76,-1.01,328.95,-4.26,3.4,6.39,270.4,0.03,0.1579,17.743,270.38,-3.103,0.36,0.34,4.94,-0.017,-0.103,0,0,0,270.4,0,0,0,0,0,0,0,0,0,0,0,0,0,1,1,56.12,FLYING
56.44,APPROACH,ILS_TRACK,77.05,76,-1.05,327.31,-4.27,3.39,6.39,270.4,0.031,0.1506,17.34,270.38,-3.101,0.36,0.34,4.909,-0.017,-0.101,0,0,0,270.4,0,0,0,0,0,0,0,0,0,0,0,0,0,1,1,56.51,FLYING
56.75,APPROACH,ILS_TRACK,77.07,76,-1.07,325.96,-4.27,3.39,6.39,270.4,0.03,0.1451,17.003,270.38,-3.099,0.36,0.34,4.883,-0.017,-0.099,0,0,0,270.4,0,0,0,0,0,0,0,0,0,0,0,0,0,1,1,56.82,FLYING
57.07,APPROACH,ILS_TRACK,77.09,76,-1.09,324.62,-4.27,3.39,6.39,270.4,0.028,0.1401,16.66,270.38,-3.097,0.36,0.33,4.858,-0.017,-0.097,0,0,0,270.4,0,0,0,0,0,0,0,0,0,0,0,0,0,1,1,57.14,FLYING
57.45,APPROACH,ILS_TRACK,77.09,76,-1.09,322.97,-4.27,3.38,6.39,270.4,0.029,0.1347,16.239,270.38,-3.094,0.37,0.33,4.826,-0.017,-0.094,0,0,0,270.4,0,0,0,0,0,0,0,0,0,0,0,0,0,1,1,57.52,FLYING
57.77,APPROACH,ILS_TRACK,77.09,76,-1.09,321.63,-4.27,3.39,6.39,270.4,0.029,0.1308,15.896,270.38,-3.092,0.37,0.33,4.801,-0.016,-0.092,0,0,0,270.4,0,0,0,0,0,0,0,0,0,0,0,0,0,1,1,57.84,FLYING
58.08,APPROACH,ILS_TRACK,77.07,76,-1.07,320.28,-4.28,3.39,6.4,270.4,0.027,0.1276,15.557,270.38,-3.089,0.37,0.33,4.775,-0.016,-0.089,0,0,0,270.4,0,0,0,0,0,0,0,0,0,0,0,0,0,1,1,58.15,FLYING
58.47,APPROACH,ILS_TRACK,77.04,76,-1.04,318.63,-4.28,3.39,6.4,270.4,0.026,0.1244,15.155,270.38,-3.085,0.37,0.32,4.744,-0.016,-0.085,0,0,0,270.4,0,0,0,0,0,0,0,0,0,0,0,0,0,1,1,58.54,FLYING
58.78,APPROACH,ILS_TRACK,77.01,76,-1.01,317.29,-4.28,3.4,6.41,270.4,0.025,0.1224,14.836,270.38,-3.082,0.37,0.32,4.718,-0.016,-0.082,0,0,0,270.4,0,0,0,0,0,0,0,0,0,0,0,0,0,1,1,58.85,FLYING
59.1,APPROACH,ILS_TRACK,76.97,76,-0.97,315.94,-4.28,3.41,6.42,270.4,0.024,0.1209,14.53,270.38,-3.079,0.38,0.31,4.693,-0.016,-0.079,0,0,0,270.4,0,0,0,0,0,0,0,0,0,0,0,0,0,1,1,59.17,FLYING
59.48,APPROACH,ILS_TRACK,76.91,76,-0.91,314.3,-4.27,3.41,6.43,270.4,0.024,0.12,14.179,270.38,-3.075,0.38,0.3,4.661,-0.015,-0.075,0,0,0,270.4,0,0,0,0,0,0,0,0,0,0,0,0,0,1,1,59.55,FLYING
59.8,APPROACH,ILS_TRACK,76.85,76,-0.85,312.95,-4.27,3.42,6.44,270.4,0.021,0.1199,13.91,270.38,-3.071,0.38,0.3,4.636,-0.016,-0.071,0,0,0,270.4,0,0,0,0,0,0,0,0,0,0,0,0,0,1,1,59.87,FLYING
60.11,APPROACH,ILS_TRACK,76.79,76,-0.79,311.6,-4.27,3.43,6.45,270.4,0.02,0.1203,13.66,270.38,-3.067,0.38,0.29,4.61,-0.015,-0.067,0,0,0,270.4,0,0,0,0,0,0,0,0,0,0,0,0,0,1,1,60.18,FLYING
60.5,APPROACH,ILS_TRACK,76.7,76,-0.7,309.96,-4.27,3.44,6.46,270.4,0.019,0.1215,13.386,270.38,-3.063,0.38,0.28,4.579,-0.016,-0.063,0,0,0,270.4,0,0,0,0,0,0,0,0,0,0,0,0,0,1,1,60.57,FLYING
60.81,APPROACH,ILS_TRACK,76.63,76,-0.63,308.62,-4.26,3.45,6.47,270.4,0.019,0.123,13.184,270.38,-3.059,0.38,0.27,4.554,-0.015,-0.059,0,0,0,270.4,0,0,0,0,0,0,0,0,0,0,0,0,0,1,1,60.88,FLYING
61.13,APPROACH,ILS_TRACK,76.56,76,-0.56,307.28,-4.26,3.47,6.49,270.4,0.019,0.125,13.006,270.38,-3.055,0.38,0.26,4.528,-0.015,-0.055,0,0,0,270.4,0,0,0,0,0,0,0,0,0,0,0,0,0,1,1,61.2,FLYING
61.51,APPROACH,ILS_TRACK,76.46,76,-0.46,305.64,-4.26,3.48,6.5,270.4,0.019,0.128,12.825,270.38,-3.051,0.38,0.25,4.497,-0.015,-0.051,0,0,0,270.4,0,0,0,0,0,0,0,0,0,0,0,0,0,1,1,61.58,FLYING
61.83,APPROACH,ILS_TRACK,76.38,76,-0.38,304.3,-4.25,3.49,6.51,270.4,0.02,0.1309,12.702,270.38,-3.046,0.38,0.24,4.472,-0.015,-0.046,0,0,0,270.4,0,0,0,0,0,0,0,0,0,0,0,0,0,1,1,61.9,FLYING
62.14,APPROACH,ILS_TRACK,76.3,76,-0.3,302.96,-4.25,3.5,6.53,270.4,0.018,0.1341,12.603,270.38,-3.043,0.38,0.23,4.446,-0.015,-0.043,0,0,0,270.4,0,0,0,0,0,0,0,0,0,0,0,0,0,1,1,62.21,FLYING
62.53,APPROACH,ILS_TRACK,76.21,76,-0.21,301.32,-4.25,3.52,6.54,270.4,0.015,0.1384,12.521,270.38,-3.038,0.38,0.22,4.415,-0.016,-0.038,0,0,0,270.4,0,0,0,0,0,0,0,0,0,0,0,0,0,1,1,62.6,FLYING
62.84,APPROACH,ILS_TRACK,76.13,76,-0.13,299.99,-4.24,3.53,6.55,270.4,0.015,0.1423,12.478,270.38,-3.034,0.38,0.2,4.39,-0.015,-0.034,0,0,0,270.4,0,0,0,0,0,0,0,0,0,0,0,0,0,1,1,62.91,FLYING
63.16,APPROACH,ILS_TRACK,76.05,76,-0.05,298.65,-4.24,3.54,6.57,270.4,0.014,0.1464,12.46,270.39,-3.03,0.38,0.19,4.365,-0.015,-0.03,0,0,0,270.4,0,0,0,0,0,0,0,0,0,0,0,0,0,1,1,63.23,FLYING
63.54,APPROACH,ILS_TRACK,75.95,76,0.05,297.03,-4.23,3.55,6.58,270.4,0.014,0.1519,12.476,270.38,-3.026,0.38,0.18,4.334,-0.015,-0.026,0,0,0,270.4,0,0,0,0,0,0,0,0,0,0,0,0,0,1,1,63.61,FLYING
63.86,APPROACH,ILS_TRACK,75.88,76,0.12,295.69,-4.23,3.57,6.59,270.4,0.013,0.1565,12.512,270.38,-3.022,0.38,0.17,4.309,-0.016,-0.022,0,0,0,270.4,0,0,0,0,0,0,0,0,0,0,0,0,0,1,1,63.93,FLYING
64.17,APPROACH,ILS_TRACK,75.8,76,0.2,294.36,-4.22,3.58,6.6,270.4,0.012,0.1614,12.573,270.38,-3.019,0.38,0.16,4.284,-0.015,-0.019,0,0,0,270.4,0,0,0,0,0,0,0,0,0,0,0,0,0,1,1,64.24,FLYING
64.56,APPROACH,ILS_TRACK,75.71,76,0.29,292.74,-4.22,3.59,6.62,270.4,0.011,0.1678,12.682,270.38,-3.014,0.38,0.14,4.253,-0.016,-0.014,0,0,0,270.4,0,0,0,0,0,0,0,0,0,0,0,0,0,1,1,64.63,FLYING
64.87,APPROACH,ILS_TRACK,75.64,76,0.36,291.41,-4.21,3.6,6.63,270.4,0.011,0.1731,12.794,270.38,-3.011,0.38,0.13,4.228,-0.015,-0.011,0,0,0,270.4,0,0,0,0,0,0,0,0,0,0,0,0,0,1,1,64.94,FLYING
65.19,APPROACH,ILS_TRACK,75.57,76,0.43,290.09,-4.21,3.61,6.64,270.4,0.011,0.1786,12.928,270.38,-3.008,0.38,0.12,4.203,-0.016,-0.008,0,0,0,270.4,0,0,0,0,0,0,0,0,0,0,0,0,0,1,1,65.26,FLYING
65.57,APPROACH,ILS_TRACK,75.48,76,0.52,288.47,-4.2,3.63,6.65,270.4,0.008,0.1855,13.124,270.38,-3.004,0.38,0.11,4.172,-0.016,-0.004,0,0,0,270.4,0,0,0,0,0,0,0,0,0,0,0,0,0,1,1,65.64,FLYING
65.89,APPROACH,ILS_TRACK,75.42,76,0.58,287.14,-4.2,3.64,6.66,270.4,0.008,0.1913,13.305,270.38,-3.001,0.38,0.1,4.147,-0.016,-0.001,0,0,0,270.4,0,0,0,0,0,0,0,0,0,0,0,0,0,1,1,65.96,FLYING
66.2,APPROACH,ILS_TRACK,75.36,76,0.64,285.82,-4.19,3.65,6.67,270.4,0.008,0.1971,13.506,270.38,-2.999,0.38,0.09,4.122,-0.016,0.001,0,0,0,270.4,0,0,0,0,0,0,0,0,0,0,0,0,0,1,1,66.27,FLYING
66.59,APPROACH,ILS_TRACK,75.28,76,0.72,284.21,-4.19,3.66,6.68,270.4,0.01,0.2044,13.779,270.38,-2.995,0.39,0.07,4.092,-0.017,0.005,0,0,0,270.4,0,0,0,0,0,0,0,0,0,0,0,0,0,1,1,66.66,FLYING
66.9,APPROACH,ILS_TRACK,75.23,76,0.77,282.89,-4.18,3.67,6.69,270.4,0.01,0.2103,14.02,270.38,-2.993,0.39,0.06,4.067,-0.016,0.007,0,0,0,270.4,0,0,0,0,0,0,0,0,0,0,0,0,0,1,1,66.97,FLYING
67.22,APPROACH,ILS_TRACK,75.18,76,0.82,281.57,-4.18,3.67,6.7,270.4,0.011,0.2163,14.277,270.38,-2.991,0.39,0.05,4.042,-0.017,0.009,0,0,0,270.4,0,0,0,0,0,0,0,0,0,0,0,0,0,1,1,67.29,FLYING
67.6,APPROACH,ILS_TRACK,75.12,76,0.88,279.97,-4.18,3.68,6.7,270.4,0.014,0.2235,14.614,270.38,-2.989,0.39,0.04,4.011,-0.017,0.011,0,0,0,270.4,0,0,0,0,0,0,0,0,0,0,0,0,0,1,1,67.67,FLYING
67.92,APPROACH,ILS_TRACK,75.08,76,0.92,278.65,-4.17,3.69,6.71,270.4,0.014,0.2294,14.903,270.38,-2.988,0.39,0.03,3.986,-0.017,0.012,0,0,0,270.4,0,0,0,0,0,0,0,0,0,0,0,0,0,1,1,67.99,FLYING
68.23,APPROACH,ILS_TRACK,75.04,76,0.96,277.34,-4.17,3.7,6.72,270.41,0.014,0.2352,15.205,270.38,-2.986,0.4,0.02,3.961,-0.018,0.014,0,0,0,270.4,0,0,0,0,0,0,0,0,0,0,0,0,0,1,1,68.3,FLYING
68.62,APPROACH,ILS_TRACK,75,76,1,275.74,-4.16,3.7,6.72,270.4,0.014,0.2421,15.59,270.38,-2.985,0.4,0.02,3.931,-0.018,0.015,0,0,0,270.4,0,0,0,0,0,0,0,0,0,0,0,0,0,1,1,68.69,FLYING
68.93,APPROACH,ILS_TRACK,74.97,76,1.03,274.43,-4.16,3.71,6.72,270.41,0.013,0.2476,15.914,270.38,-2.985,0.4,0.01,3.906,-0.018,0.015,0,0,0,270.4,0,0,0,0,0,0,0,0,0,0,0,0,0,1,1,69,FLYING
69.25,APPROACH,ILS_TRACK,74.94,76,1.06,273.12,-4.15,3.71,6.73,270.4,0.014,0.2529,16.246,270.38,-2.985,0.4,0,3.881,-0.018,0.015,0,0,0,270.4,0,0,0,0,0,0,0,0,0,0,0,0,0,1,1,69.32,FLYING
69.63,APPROACH,ILS_TRACK,74.92,76,1.08,271.52,-4.15,3.72,6.73,270.41,0.014,0.2591,16.66,270.38,-2.985,0.41,0,3.851,-0.018,0.015,0,0,0,270.4,0,0,0,0,0,0,0,0,0,0,0,0,0,1,1,69.7,FLYING
69.95,APPROACH,ILS_TRACK,74.91,76,1.09,270.21,-4.15,3.72,6.73,270.4,0.014,0.2639,17.003,270.38,-2.986,0.41,-0.01,3.826,-0.019,0.014,0,0,0,270.4,0,0,0,0,0,0,0,0,0,0,0,0,0,1,1,70.02,FLYING
70.26,APPROACH,ILS_TRACK,74.9,76,1.1,268.91,-4.14,3.72,6.73,270.41,0.013,0.2685,17.349,270.38,-2.987,0.41,-0.01,3.801,-0.019,0.013,0,0,0,270.4,0,0,0,0,0,0,0,0,0,0,0,0,0,1,1,70.33,FLYING
70.65,APPROACH,ILS_TRACK,74.9,76,1.1,267.31,-4.14,3.72,6.73,270.4,0.013,0.2737,17.772,270.38,-2.988,0.42,-0.02,3.771,-0.019,0.012,0,0,0,270.4,0,0,0,0,0,0,0,0,0,0,0,0,0,1,1,70.72,FLYING
70.96,APPROACH,ILS_TRACK,74.91,76,1.09,266.01,-4.14,3.73,6.73,270.41,0.013,0.2776,18.116,270.38,-2.99,0.42,-0.02,3.746,-0.019,0.01,0,0,0,270.4,0,0,0,0,0,0,0,0,0,0,0,0,0,1,1,71.03,FLYING
71.28,APPROACH,ILS_TRACK,74.92,76,1.08,264.71,-4.13,3.73,6.73,270.41,0.014,0.2811,18.458,270.38,-2.992,0.42,-0.02,3.721,-0.02,0.008,0,0,0,270.4,0,0,0,0,0,0,0,0,0,0,0,0,0,1,1,71.35,FLYING
71.66,APPROACH,ILS_TRACK,74.94,76,1.06,263.12,-4.13,3.72,6.72,270.41,0.014,0.2849,18.867,270.38,-2.995,0.43,-0.02,3.691,-0.02,0.005,0,0,0,270.4,0,0,0,0,0,0,0,0,0,0,0,0,0,1,1,71.73,FLYING
71.98,APPROACH,ILS_TRACK,74.96,76,1.04,261.82,-4.13,3.72,6.72,270.41,0.013,0.2876,19.196,270.38,-2.998,0.43,-0.02,3.666,-0.02,0.002,0,0,0,270.4,0,0,0,0,0,0,0,0,0,0,0,0,0,1,1,72.05,FLYING
72.29,APPROACH,ILS_TRACK,74.99,76,1.01,260.51,-4.13,3.72,6.71,270.41,0.017,0.2899,19.515,270.38,-3.001,0.43,-0.02,3.641,-0.02,-0.001,0,0,0,270.4,0,0,0,0,0,0,0,0,0,0,0,0,0,1,1,72.36,FLYING
72.68,APPROACH,ILS_TRACK,75.03,76,0.97,258.93,-4.12,3.71,6.7,270.41,0.014,0.2921,19.889,270.38,-3.005,0.44,-0.01,3.611,-0.02,-0.005,0,0,0,270.4,0,0,0,0,0,0,0,0,0,0,0,0,0,1,1,72.75,FLYING
72.99,APPROACH,ILS_TRACK,75.07,76,0.93,257.63,-4.12,3.71,6.69,270.41,0.016,0.2912,20,270.38,-3.009,0.44,-0.01,3.586,-0.02,-0.009,0,0,0,270.4,0,0,0,0,0,0,0,0,0,0,0,0,0,1,1,73.06,FLYING
73.31,APPROACH,ILS_TRACK,75.12,76,0.88,256.33,-4.12,3.7,6.69,270.41,0.016,0.2887,20,270.38,-3.014,0.45,0,3.561,-0.021,-0.014,0,0,0,270.4,0,0,0,0,0,0,0,0,0,0,0,0,0,1,1,73.38,FLYING
73.69,APPROACH,ILS_TRACK,75.18,76,0.82,254.74,-4.12,3.69,6.67,270.41,0.018,0.2852,20,270.38,-3.02,0.45,0.01,3.53,-0.021,-0.02,0,0,0,270.4,0,0,0,0,0,0,0,0,0,0,0,0,0,1,1,73.76,FLYING
74.01,APPROACH,ILS_TRACK,75.24,76,0.76,253.44,-4.12,3.68,6.66,270.41,0.018,0.2821,20,270.38,-3.025,0.46,0.02,3.505,-0.021,-0.025,0,0,0,270.4,0,0,0,0,0,0,0,0,0,0,0,0,0,1,1,74.08,FLYING
74.32,APPROACH,ILS_TRACK,75.3,76,0.7,252.14,-4.12,3.68,6.65,270.41,0.018,0.2787,20,270.38,-3.03,0.46,0.02,3.481,-0.022,-0.03,0,0,0,270.4,0,0,0,0,0,0,0,0,0,0,0,0,0,1,1,74.39,FLYING
74.71,APPROACH,ILS_TRACK,75.38,76,0.62,250.56,-4.12,3.66,6.64,270.41,0.02,0.2743,20,270.38,-3.036,0.46,0.04,3.45,-0.022,-0.036,0,0,0,270.4,0,0,0,0,0,0,0,0,0,0,0,0,0,1,1,74.78,FLYING
75.02,APPROACH,ILS_TRACK,75.46,76,0.54,249.26,-4.12,3.65,6.63,270.41,0.021,0.2704,20,270.38,-3.042,0.47,0.05,3.425,-0.022,-0.042,0,0,0,270.4,0,0,0,0,0,0,0,0,0,0,0,0,0,1,1,75.09,FLYING
75.34,APPROACH,ILS_TRACK,75.53,76,0.47,247.96,-4.12,3.64,6.61,270.41,0.023,0.2663,20,270.38,-3.048,0.47,0.06,3.4,-0.022,-0.048,0,0,0,270.4,0,0,0,0,0,0,0,0,0,0,0,0,0,1,1,75.41,FLYING
75.72,APPROACH,ILS_TRACK,75.62,76,0.38,246.37,-4.13,3.63,6.6,270.41,0.025,0.2611,20,270.38,-3.055,0.48,0.08,3.369,-0.022,-0.055,0,0,0,270.4,0,0,0,0,0,0,0,0,0,0,0,0,0,1,1,75.79,FLYING
76.04,APPROACH,ILS_TRACK,75.71,76,0.29,245.07,-4.13,3.62,6.58,270.41,0.026,0.2567,20,270.38,-3.06,0.48,0.09,3.344,-0.022,-0.06,0,0,0,270.4,0,0,0,0,0,0,0,0,0,0,0,0,0,1,1,76.11,FLYING
76.35,APPROACH,ILS_TRACK,75.79,76,0.21,243.77,-4.13,3.6,6.57,270.41,0.026,0.2521,20,270.38,-3.066,0.49,0.1,3.319,-0.023,-0.066,0,0,0,270.4,0,0,0,0,0,0,0,0,0,0,0,0,0,1,1,76.42,FLYING
76.74,APPROACH,ILS_TRACK,75.89,76,0.11,242.18,-4.14,3.59,6.55,270.4,0.026,0.2464,20,270.38,-3.072,0.49,0.12,3.289,-0.022,-0.072,0,0,0,270.4,0,0,0,0,0,0,0,0,0,0,0,0,0,1,1,76.81,FLYING
77.05,APPROACH,ILS_TRACK,75.98,76,0.02,240.87,-4.14,3.57,6.54,270.4,0.029,0.2417,20,270.38,-3.076,0.49,0.13,3.263,-0.023,-0.076,0,0,0,270.4,0,0,0,0,0,0,0,0,0,0,0,0,0,1,1,77.12,FLYING
77.37,APPROACH,ILS_TRACK,76.07,76,-0.07,239.57,-4.14,3.56,6.53,270.4,0.03,0.2366,19.982,270.38,-3.081,0.5,0.15,3.238,-0.023,-0.081,0,0,0,270.4,0,0,0,0,0,0,0,0,0,0,0,0,0,1,1,77.44,FLYING
77.75,APPROACH,ILS_TRACK,76.18,76,-0.18,237.97,-4.15,3.54,6.51,270.4,0.032,0.2299,19.918,270.38,-3.085,0.5,0.17,3.207,-0.022,-0.085,0,0,0,270.4,0,0,0,0,0,0,0,0,0,0,0,0,0,1,1,77.82,FLYING
78.07,APPROACH,ILS_TRACK,76.27,76,-0.27,236.66,-4.16,3.53,6.49,270.4,0.032,0.224,19.837,270.38,-3.089,0.5,0.18,3.182,-0.022,-0.089,0,0,0,270.4,0,0,0,0,0,0,0,0,0,0,0,0,0,1,1,78.14,FLYING
78.38,APPROACH,ILS_TRACK,76.36,76,-0.36,235.35,-4.16,3.51,6.48,270.4,0.03,0.2177,19.728,270.38,-3.092,0.51,0.19,3.157,-0.022,-0.092,0,0,0,270.4,0,0,0,0,0,0,0,0,0,0,0,0,0,1,1,78.45,FLYING
78.77,APPROACH,ILS_TRACK,76.46,76,-0.46,233.74,-4.17,3.49,6.46,270.4,0.029,0.2097,19.553,270.38,-3.096,0.51,0.21,3.126,-0.022,-0.096,0,0,0,270.4,0,0,0,0,0,0,0,0,0,0,0,0,0,1,1,78.84,FLYING
79.08,APPROACH,ILS_TRACK,76.55,76,-0.55,232.43,-4.18,3.48,6.45,270.4,0.029,0.203,19.384,270.38,-3.098,0.51,0.22,3.101,-0.022,-0.098,0,0,0,270.4,0,0,0,0,0,0,0,0,0,0,0,0,0,1,1,79.15,FLYING
79.4,APPROACH,ILS_TRACK,76.63,76,-0.63,231.11,-4.18,3.47,6.44,270.4,0.029,0.1961,19.188,270.38,-3.1,0.51,0.23,3.075,-0.022,-0.1,0,0,0,270.4,0,0,0,0,0,0,0,0,0,0,0,0,0,1,1,79.47,FLYING
79.78,APPROACH,ILS_TRACK,76.72,76,-0.72,229.5,-4.19,3.45,6.43,270.4,0.027,0.1877,18.914,270.38,-3.102,0.51,0.25,3.044,-0.022,-0.102,0,0,0,270.4,0,0,0,0,0,0,0,0,0,0,0,0,0,1,1,79.85,FLYING
80.1,APPROACH,ILS_TRACK,76.79,76,-0.79,228.18,-4.2,3.44,6.42,270.4,0.027,0.181,18.667,270.38,-3.102,0.51,0.26,3.019,-0.021,-0.102,0,0,0,270.4,0,0,0,0,0,0,0,0,0,0,0,0,0,1,1,80.17,FLYING
80.41,APPROACH,ILS_TRACK,76.85,76,-0.85,226.85,-4.2,3.43,6.41,270.4,0.027,0.1743,18.401,270.38,-3.103,0.52,0.27,2.993,-0.022,-0.103,0,0,0,270.4,0,0,0,0,0,0,0,0,0,0,0,0,0,1,1,80.48,FLYING
80.8,APPROACH,ILS_TRACK,76.92,76,-0.92,225.23,-4.21,3.42,6.4,270.4,0.025,0.1665,18.05,270.38,-3.103,0.52,0.28,2.962,-0.021,-0.103,0,0,0,270.4,0,0,0,0,0,0,0,0,0,0,0,0,0,1,1,80.87,FLYING
81.11,APPROACH,ILS_TRACK,76.96,76,-0.96,223.91,-4.21,3.41,6.4,270.4,0.024,0.1603,17.748,270.38,-3.103,0.52,0.28,2.937,-0.021,-0.103,0,0,0,270.4,0,0,0,0,0,0,0,0,0,0,0,0,0,1,1,81.18,FLYING
81.43,APPROACH,ILS_TRACK,77,76,-1,222.58,-4.22,3.41,6.39,270.4,0.022,0.1546,17.435,270.38,-3.102,0.52,0.29,2.911,-0.021,-0.102,0,0,0,270.4,0,0,0,0,0,0,0,0,0,0,0,0,0,1,1,81.5,FLYING
81.81,APPROACH,ILS_TRACK,77.03,76,-1.03,220.95,-4.22,3.4,6.39,270.4,0.024,0.148,17.04,270.38,-3.101,0.52,0.29,2.88,-0.021,-0.101,0,0,0,270.4,0,0,0,0,0,0,0,0,0,0,0,0,0,1,1,81.88,FLYING
82.13,APPROACH,ILS_TRACK,77.05,76,-1.05,219.62,-4.23,3.4,6.39,270.4,0.022,0.1431,16.711,270.38,-3.099,0.52,0.3,2.855,-0.021,-0.099,0,0,0,270.4,0,0,0,0,0,0,0,0,0,0,0,0,0,1,1,82.2,FLYING
82.44,APPROACH,ILS_TRACK,77.05,76,-1.05,218.29,-4.23,3.4,6.39,270.4,0.021,0.1387,16.38,270.38,-3.098,0.52,0.3,2.829,-0.021,-0.098,0,0,0,270.4,0,0,0,0,0,0,0,0,0,0,0,0,0,1,1,82.51,FLYING
82.83,APPROACH,ILS_TRACK,77.05,76,-1.05,216.66,-4.23,3.4,6.4,270.4,0.02,0.134,15.976,270.38,-3.095,0.52,0.3,2.798,-0.021,-0.095,0,0,0,270.4,0,0,0,0,0,0,0,0,0,0,0,0,0,1,1,82.9,FLYING
83.14,APPROACH,ILS_TRACK,77.04,76,-1.04,215.33,-4.24,3.4,6.4,270.4,0.02,0.1307,15.649,270.38,-3.093,0.52,0.3,2.773,-0.021,-0.093,0,0,0,270.4,0,0,0,0,0,0,0,0,0,0,0,0,0,1,1,83.21,FLYING
83.46,APPROACH,ILS_TRACK,77.02,76,-1.02,213.99,-4.24,3.4,6.4,270.4,0.019,0.1279,15.328,270.38,-3.09,0.52,0.3,2.747,-0.02,-0.09,0,0,0,270.4,0,0,0,0,0,0,0,0,0,0,0,0,0,1,1,83.53,FLYING
83.84,APPROACH,ILS_TRACK,76.98,76,-0.98,212.36,-4.24,3.41,6.41,270.4,0.018,0.1253,14.949,270.38,-3.088,0.52,0.3,2.716,-0.02,-0.088,0,0,0,270.4,0,0,0,0,0,0,0,0,0,0,0,0,0,1,1,83.91,FLYING
84.16,APPROACH,ILS_TRACK,76.94,76,-0.94,211.03,-4.24,3.41,6.42,270.4,0.017,0.1238,14.651,270.38,-3.085,0.51,0.3,2.691,-0.02,-0.085,0,0,0,270.4,0,0,0,0,0,0,0,0,0,0,0,0,0,1,1,84.23,FLYING
84.47,APPROACH,ILS_TRACK,76.9,76,-0.9,209.69,-4.24,3.42,6.43,270.39,0.018,0.1228,14.367,270.38,-3.081,0.51,0.3,2.665,-0.02,-0.081,0,0,0,270.4,0,0,0,0,0,0,0,0,0,0,0,0,0,1,1,84.54,FLYING
84.86,APPROACH,ILS_TRACK,76.83,76,-0.83,208.06,-4.24,3.43,6.44,270.4,0.016,0.1223,14.043,270.38,-3.078,0.51,0.29,2.634,-0.02,-0.078,0,0,0,270.4,0,0,0,0,0,0,0,0,0,0,0,0,0,1,1,84.93,FLYING
85.17,APPROACH,ILS_TRACK,76.78,76,-0.78,206.73,-4.24,3.44,6.45,270.39,0.016,0.1225,13.796,270.38,-3.074,0.51,0.29,2.609,-0.02,-0.074,0,0,0,270.4,0,0,0,0,0,0,0,0,0,0,0,0,0,1,1,85.24,FLYING
85.49,APPROACH,ILS_TRACK,76.71,76,-0.71,205.39,-4.23,3.44,6.46,270.4,0.016,0.1231,13.569,270.38,-3.071,0.51,0.28,2.584,-0.02,-0.071,0,0,0,270.4,0,0,0,0,0,0,0,0,0,0,0,0,0,1,1,85.56,FLYING
85.87,APPROACH,ILS_TRACK,76.63,76,-0.63,203.76,-4.23,3.46,6.47,270.4,0.016,0.1247,13.322,270.38,-3.067,0.51,0.27,2.553,-0.02,-0.067,0,0,0,270.4,0,0,0,0,0,0,0,0,0,0,0,0,0,1,1,85.94,FLYING
86.19,APPROACH,ILS_TRACK,76.56,76,-0.56,202.43,-4.23,3.47,6.48,270.4,0.015,0.1264,13.143,270.38,-3.063,0.51,0.27,2.527,-0.02,-0.063,0,0,0,270.4,0,0,0,0,0,0,0,0,0,0,0,0,0,1,1,86.26,FLYING
86.5,APPROACH,ILS_TRACK,76.49,76,-0.49,201.1,-4.23,3.48,6.49,270.4,0.017,0.1285,12.986,270.38,-3.059,0.51,0.26,2.502,-0.02,-0.059,0,0,0,270.4,0,0,0,0,0,0,0,0,0,0,0,0,0,1,1,86.57,FLYING
86.89,APPROACH,ILS_TRACK,76.4,76,-0.4,199.47,-4.22,3.49,6.51,270.4,0.016,0.1316,12.83,270.38,-3.055,0.51,0.25,2.471,-0.02,-0.055,0,0,0,270.4,0,0,0,0,0,0,0,0,0,0,0,0,0,1,1,86.96,FLYING
87.2,APPROACH,ILS_TRACK,76.32,76,-0.32,198.15,-4.22,3.5,6.52,270.39,0.016,0.1345,12.725,270.38,-3.051,0.51,0.24,2.446,-0.02,-0.051,0,0,0,270.4,0,0,0,0,0,0,0,0,0,0,0,0,0,1,1,87.27,FLYING
87.52,APPROACH,ILS_TRACK,76.25,76,-0.25,196.82,-4.22,3.51,6.53,270.4,0.016,0.1377,12.645,270.38,-3.047,0.51,0.23,2.421,-0.019,-0.047,0,0,0,270.4,0,0,0,0,0,0,0,0,0,0,0,0,0,1,1,87.59,FLYING
87.9,APPROACH,ILS_TRACK,76.15,76,-0.15,195.2,-4.21,3.52,6.55,270.39,0.016,0.1421,12.583,270.38,-3.042,0.51,0.22,2.39,-0.02,-0.042,0,0,0,270.4,0,0,0,0,0,0,0,0,0,0,0,0,0,1,1,87.97,FLYING
88.22,APPROACH,ILS_TRACK,76.08,76,-0.08,193.87,-4.21,3.54,6.56,270.4,0.015,0.1459,12.555,270.38,-3.038,0.5,0.21,2.365,-0.02,-0.038,0,0,0,270.4,0,0,0,0,0,0,0,0,0,0,0,0,0,1,1,88.29,FLYING
88.53,APPROACH,ILS_TRACK,76,76,0,192.54,-4.21,3.55,6.57,270.4,0.012,0.1499,12.551,270.38,-3.034,0.5,0.2,2.34,-0.02,-0.034,0,0,0,270.4,0,0,0,0,0,0,0,0,0,0,0,0,0,1,1,88.6,FLYING
88.92,APPROACH,ILS_TRACK,75.91,76,0.09,190.93,-4.2,3.56,6.58,270.4,0.011,0.1552,12.581,270.38,-3.029,0.5,0.19,2.309,-0.02,-0.029,0,0,0,270.4,0,0,0,0,0,0,0,0,0,0,0,0,0,1,1,88.99,FLYING
89.23,APPROACH,ILS_TRACK,75.84,76,0.16,189.6,-4.2,3.57,6.59,270.4,0.011,0.1598,12.628,270.38,-3.026,0.5,0.18,2.284,-0.02,-0.026,0,0,0,270.4,0,0,0,0,0,0,0,0,0,0,0,0,0,1,1,89.3,FLYING
89.55,APPROACH,ILS_TRACK,75.77,76,0.23,188.28,-4.2,3.58,6.61,270.4,0.011,0.1645,12.698,270.38,-3.022,0.5,0.17,2.259,-0.02,-0.022,0,0,0,270.4,0,0,0,0,0,0,0,0,0,0,0,0,0,1,1,89.62,FLYING
89.93,APPROACH,ILS_TRACK,75.69,76,0.31,186.67,-4.19,3.59,6.62,270.4,0.009,0.1706,12.815,270.38,-3.018,0.5,0.15,2.229,-0.02,-0.018,0,0,0,270.4,0,0,0,0,0,0,0,0,0,0,0,0,0,1,1,90,FLYING
90.25,APPROACH,ILS_TRACK,75.62,76,0.38,185.35,-4.19,3.6,6.63,270.4,0.01,0.1757,12.933,270.38,-3.014,0.5,0.14,2.204,-0.02,-0.014,0,0,0,270.4,0,0,0,0,0,0,0,0,0,0,0,0,0,1,1,90.32,FLYING
90.56,APPROACH,ILS_TRACK,75.55,76,0.45,184.03,-4.18,3.61,6.64,270.4,0.009,0.181,13.071,270.38,-3.01,0.5,0.13,2.179,-0.02,-0.01,0,0,0,270.4,0,0,0,0,0,0,0,0,0,0,0,0,0,1,1,90.63,FLYING
90.95,APPROACH,ILS_TRACK,75.48,76,0.52,182.42,-4.18,3.62,6.65,270.4,0.01,0.1876,13.27,270.38,-3.006,0.5,0.12,2.149,-0.02,-0.006,0,0,0,270.4,0,0,0,0,0,0,0,0,0,0,0,0,0,1,1,91.02,FLYING
91.26,APPROACH,ILS_TRACK,75.42,76,0.58,181.11,-4.17,3.63,6.66,270.4,0.011,0.1931,13.451,270.38,-3.003,0.5,0.11,2.124,-0.02,-0.003,0,0,0,270.4,0,0,0,0,0,0,0,0,0,0,0,0,0,1,1,91.33,FLYING
91.58,APPROACH,ILS_TRACK,75.36,76,0.64,179.8,-4.17,3.64,6.67,270.4,0.013,0.1986,13.65,270.38,-3,0.5,0.09,2.099,-0.021,0,0,0,0,270.4,0,0,0,0,0,0,0,0,0,0,0,0,0,1,1,91.65,FLYING
91.96,APPROACH,ILS_TRACK,75.3,76,0.7,178.19,-4.17,3.65,6.68,270.4,0.012,0.2055,13.919,270.38,-2.997,0.5,0.08,2.068,-0.021,0.003,0,0,0,270.4,0,0,0,0,0,0,0,0,0,0,0,0,0,1,1,92.03,FLYING
92.28,APPROACH,ILS_TRACK,75.25,76,0.75,176.88,-4.16,3.66,6.68,270.4,0.011,0.2111,14.155,270.38,-2.994,0.5,0.07,2.044,-0.021,0.006,0,0,0,270.4,0,0,0,0,0,0,0,0,0,0,0,0,0,1,1,92.35,FLYING
92.59,APPROACH,ILS_TRACK,75.2,76,0.8,175.57,-4.16,3.67,6.69,270.4,0.013,0.2167,14.406,270.38,-2.992,0.51,0.06,2.019,-0.021,0.008,0,0,0,270.4,0,0,0,0,0,0,0,0,0,0,0,0,0,1,1,92.66,FLYING
92.98,APPROACH,ILS_TRACK,75.15,76,0.85,173.97,-4.15,3.68,6.7,270.4,0.013,0.2234,14.733,270.38,-2.99,0.51,0.05,1.989,-0.021,0.01,0,0,0,270.4,0,0,0,0,0,0,0,0,0,0,0,0,0,1,1,93.05,FLYING
93.29,APPROACH,ILS_TRACK,75.11,76,0.89,172.66,-4.15,3.68,6.7,270.4,0.014,0.2289,15.012,270.38,-2.988,0.51,0.04,1.964,-0.021,0.012,0,0,0,270.4,0,0,0,0,0,0,0,0,0,0,0,0,0,1,1,93.36,FLYING
93.61,APPROACH,ILS_TRACK,75.08,76,0.92,171.36,-4.15,3.69,6.71,270.4,0.015,0.2342,15.302,270.38,-2.987,0.51,0.03,1.939,-0.021,0.013,0,0,0,270.4,0,0,0,0,0,0,0,0,0,0,0,0,0,1,1,93.68,FLYING
93.99,APPROACH,ILS_TRACK,75.04,76,0.96,169.76,-4.14,3.7,6.71,270.4,0.015,0.2406,15.67,270.38,-2.985,0.51,0.02,1.909,-0.021,0.015,0,0,0,270.4,0,0,0,0,0,0,0,0,0,0,0,0,0,1,1,94.06,FLYING
94.31,APPROACH,ILS_TRACK,75.02,76,0.98,168.46,-4.14,3.7,6.72,270.4,0.015,0.2457,15.979,270.38,-2.985,0.51,0.01,1.884,-0.022,0.015,0,0,0,270.4,0,0,0,0,0,0,0,0,0,0,0,0,0,1,1,94.38,FLYING
94.62,APPROACH,ILS_TRACK,75,76,1,167.16,-4.13,3.7,6.72,270.4,0.013,0.2505,16.294,270.38,-2.985,0.51,0.01,1.859,-0.022,0.015,0,0,0,270.4,0,0,0,0,0,0,0,0,0,0,0,0,0,1,1,94.69,FLYING
94.99,APPROACH,ILS_TRACK,74.98,76,1.02,165.65,-4.13,3.71,6.72,270.4,0.014,0.2561,16.68,270.38,-2.985,0.52,0,1.83,-0.022,0.015,0,0,0,270.4,0,0,0,0,0,0,0,0,0,0,0,0,0,1,1,95.05,FLYING
95.25,APPROACH,ILS_TRACK,74.97,76,1.03,164.58,-4.13,3.71,6.72,270.4,0.014,0.26,16.965,270.38,-2.986,0.52,-0.01,1.809,-0.022,0.014,0,0,0,270.4,0,0,0,0,0,0,0,0,0,0,0,0,0,1,1,95.3,FLYING
95.49,APPROACH,ILS_TRACK,74.97,76,1.03,163.58,-4.12,3.71,6.72,270.4,0.014,0.2635,17.236,270.38,-2.987,0.52,-0.01,1.79,-0.022,0.013,0,0,0,270.4,0,0,0,0,0,0,0,0,0,0,0,0,0,1,1,95.53,FLYING
95.69,APPROACH,ILS_TRACK,74.97,76,1.03,162.76,-4.12,3.71,6.72,270.4,0.014,0.2662,17.463,270.38,-2.989,0.52,-0.01,1.773,-0.022,0.011,0,0,0,270.4,0,0,0,0,0,0,0,0,0,0,0,0,0,1,1,95.73,FLYING
95.93,APPROACH,ILS_TRACK,74.97,76,1.03,161.77,-4.12,3.71,6.72,270.4,0.013,0.2691,17.709,270.38,-2.99,0.52,-0.01,1.754,-0.022,0.01,0,0,0,270.4,0,0,0,0,0,0,0,0,0,0,0,0,0,1,1,95.97,FLYING
96.13,APPROACH,ILS_TRACK,74.98,76,1.02,160.95,-4.12,3.71,6.72,270.4,0.011,0.2713,17.914,270.38,-2.991,0.52,-0.01,1.739,-0.022,0.009,0,0,0,270.4,0,0,0,0,0,0,0,0,0,0,0,0,0,1,1,96.17,FLYING
96.33,APPROACH,ILS_TRACK,74.98,76,1.02,160.13,-4.11,3.71,6.71,270.4,0.011,0.2733,18.117,270.38,-2.993,0.52,-0.01,1.723,-0.023,0.007,0,0,0,270.4,0,0,0,0,0,0,0,0,0,0,0,0,0,1,1,96.37,FLYING
96.53,APPROACH,ILS_TRACK,74.99,76,1.01,159.3,-4.11,3.71,6.71,270.4,0.011,0.2752,18.319,270.38,-2.994,0.53,-0.01,1.707,-0.023,0.006,0,0,0,270.4,0,0,0,0,0,0,0,0,0,0,0,0,0,1,1,96.57,FLYING
96.73,APPROACH,ILS_TRACK,75,76,1,158.48,-4.11,3.71,6.71,270.4,0.011,0.277,18.518,270.38,-2.996,0.53,-0.01,1.692,-0.023,0.004,0,0,0,270.4,0,0,0,0,0,0,0,0,0,0,0,0,0,1,1,96.77,FLYING
96.97,APPROACH,ILS_TRACK,75.02,76,0.98,157.49,-4.11,3.71,6.71,270.4,0.013,0.2789,18.753,270.38,-2.998,0.53,-0.01,1.673,-0.023,0.002,0,0,0,270.4,0,0,0,0,0,0,0,0,0,0,0,0,0,1,1,97.01,FLYING
97.17,APPROACH,ILS_TRACK,75.04,76,0.96,156.67,-4.11,3.71,6.7,270.4,0.013,0.2804,18.946,270.38,-3,0.53,-0.01,1.657,-0.023,0,0,0,0,270.4,0,0,0,0,0,0,0,0,0,0,0,0,0,1,1,97.21,FLYING
97.37,APPROACH,ILS_TRACK,75.06,76,0.94,155.85,-4.11,3.71,6.7,270.4,0.014,0.2816,19.135,270.38,-3.001,0.53,-0.01,1.642,-0.023,-0.001,0,0,0,270.4,0,0,0,0,0,0,0,0,0,0,0,0,0,1,1,97.41,FLYING
97.57,APPROACH,ILS_TRACK,75.08,76,0.92,155.03,-4.11,3.7,6.7,270.4,0.015,0.2827,19.32,270.38,-3.003,0.53,-0.01,1.626,-0.023,-0.003,0,0,0,270.4,0,0,0,0,0,0,0,0,0,0,0,0,0,1,1,97.61,FLYING
97.77,APPROACH,ILS_TRACK,75.1,76,0.9,154.21,-4.1,3.7,6.69,270.4,0.014,0.2837,19.501,270.38,-3.006,0.54,-0.01,1.61,-0.024,-0.006,0,0,0,270.4,0,0,0,0,0,0,0,0,0,0,0,0,0,1,1,97.81,FLYING
98.01,APPROACH,ILS_TRACK,75.13,76,0.87,153.22,-4.1,3.7,6.69,270.41,0.015,0.2845,19.71,270.38,-3.008,0.54,-0.01,1.591,-0.024,-0.008,0,0,0,270.4,0,0,0,0,0,0,0,0,0,0,0,0,0,1,1,98.05,FLYING
98.21,APPROACH,ILS_TRACK,75.16,76,0.84,152.4,-4.1,3.69,6.68,270.4,0.017,0.2851,19.88,270.38,-3.011,0.54,0,1.576,-0.024,-0.011,0,0,0,270.4,0,0,0,0,0,0,0,0,0,0,0,0,0,1,1,98.25,FLYING
98.41,APPROACH,ILS_TRACK,75.19,76,0.81,151.58,-4.1,3.69,6.68,270.4,0.017,0.2849,20,270.38,-3.013,0.54,0,1.56,-0.024,-0.013,0,0,0,270.4,0,0,0,0,0,0,0,0,0,0,0,0,0,1,1,98.45,FLYING
98.61,APPROACH,ILS_TRACK,75.22,76,0.78,150.76,-4.1,3.69,6.67,270.41,0.017,0.2832,20,270.38,-3.016,0.54,0,1.544,-0.024,-0.016,0,0,0,270.4,0,0,0,0,0,0,0,0,0,0,0,0,0,1,1,98.65,FLYING
98.81,APPROACH,ILS_TRACK,75.25,76,0.75,149.94,-4.1,3.68,6.66,270.4,0.017,0.2814,20,270.38,-3.019,0.54,0.01,1.528,-0.024,-0.019,0,0,0,270.4,0,0,0,0,0,0,0,0,0,0,0,0,0,1,1,98.85,FLYING
99.05,APPROACH,ILS_TRACK,75.29,76,0.71,148.96,-4.1,3.68,6.66,270.41,0.018,0.279,20,270.38,-3.022,0.55,0.01,1.509,-0.024,-0.022,0,0,0,270.4,0,0,0,0,0,0,0,0,0,0,0,0,0,1,1,99.09,FLYING
99.25,APPROACH,ILS_TRACK,75.33,76,0.67,148.14,-4.1,3.67,6.65,270.4,0.019,0.277,20,270.38,-3.025,0.55,0.02,1.494,-0.024,-0.025,0,0,0,270.4,0,0,0,0,0,0,0,0,0,0,0,0,0,1,1,99.29,FLYING
99.45,APPROACH,ILS_TRACK,75.37,76,0.63,147.32,-4.1,3.66,6.64,270.4,0.02,0.2748,20,270.38,-3.028,0.55,0.02,1.478,-0.024,-0.028,0,0,0,270.4,0,0,0,0,0,0,0,0,0,0,0,0,0,1,1,99.49,FLYING
99.65,APPROACH,ILS_TRACK,75.41,76,0.59,146.49,-4.1,3.66,6.64,270.4,0.019,0.2726,20,270.38,-3.031,0.55,0.03,1.462,-0.025,-0.031,0,0,0,270.4,0,0,0,0,0,0,0,0,0,0,0,0,0,1,1,99.69,FLYING
99.85,APPROACH,ILS_TRACK,75.45,76,0.55,145.67,-4.1,3.65,6.63,270.4,0.02,0.2703,20,270.38,-3.034,0.55,0.04,1.446,-0.024,-0.034,0,0,0,270.4,0,0,0,0,0,0,0,0,0,0,0,0,0,1,1,99.89,FLYING
100.09,APPROACH,ILS_TRACK,75.51,76,0.49,144.69,-4.1,3.64,6.62,270.4,0.02,0.2674,20,270.38,-3.037,0.56,0.04,1.427,-0.025,-0.037,0,0,0,270.4,0,0,0,0,0,0,0,0,0,0,0,0,0,1,1,100.13,FLYING
100.29,APPROACH,ILS_TRACK,75.55,76,0.45,143.87,-4.1,3.64,6.61,270.4,0.02,0.2649,20,270.38,-3.04,0.56,0.05,1.412,-0.024,-0.04,0,0,0,270.4,0,0,0,0,0,0,0,0,0,0,0,0,0,1,1,100.33,FLYING
100.49,APPROACH,ILS_TRACK,75.6,76,0.4,143.05,-4.11,3.63,6.6,270.4,0.02,0.2623,20,270.38,-3.043,0.56,0.06,1.396,-0.025,-0.043,0,0,0,270.4,0,0,0,0,0,0,0,0,0,0,0,0,0,1,1,100.53,FLYING
100.69,APPROACH,ILS_TRACK,75.65,76,0.35,142.22,-4.11,3.62,6.6,270.4,0.02,0.2597,20,270.38,-3.046,0.56,0.06,1.38,-0.025,-0.046,0,0,0,270.4,0,0,0,0,0,0,0,0,0,0,0,0,0,1,1,100.73,FLYING
100.89,APPROACH,ILS_TRACK,75.7,76,0.3,141.4,-4.11,3.62,6.59,270.4,0.021,0.257,20,270.38,-3.049,0.56,0.07,1.364,-0.025,-0.049,0,0,0,270.4,0,0,0,0,0,0,0,0,0,0,0,0,0,1,1,100.93,FLYING
101.13,APPROACH,ILS_TRACK,75.76,76,0.24,140.42,-4.11,3.61,6.58,270.4,0.022,0.2537,20,270.38,-3.052,0.57,0.08,1.345,-0.025,-0.052,0,0,0,270.4,0,0,0,0,0,0,0,0,0,0,0,0,0,1,1,101.17,FLYING
101.33,APPROACH,ILS_TRACK,75.81,76,0.19,139.59,-4.11,3.6,6.57,270.4,0.023,0.2509,20,270.38,-3.055,0.57,0.09,1.329,-0.025,-0.055,0,0,0,270.4,0,0,0,0,0,0,0,0,0,0,0,0,0,1,1,101.37,FLYING
101.53,APPROACH,ILS_TRACK,75.86,76,0.14,138.77,-4.11,3.59,6.56,270.4,0.025,0.248,20,270.38,-3.058,0.57,0.09,1.314,-0.025,-0.058,0,0,0,270.4,0,0,0,0,0,0,0,0,0,0,0,0,0,1,1,101.57,FLYING
101.73,APPROACH,ILS_TRACK,75.91,76,0.09,137.95,-4.12,3.58,6.55,270.4,0.024,0.2451,20,270.38,-3.061,0.57,0.1,1.298,-0.025,-0.061,0,0,0,270.4,0,0,0,0,0,0,0,0,0,0,0,0,0,1,1,101.77,FLYING
101.93,APPROACH,ILS_TRACK,75.97,76,0.03,137.12,-4.12,3.57,6.54,270.4,0.025,0.2422,20,270.38,-3.063,0.57,0.11,1.282,-0.025,-0.063,0,0,0,270.4,0,0,0,0,0,0,0,0,0,0,0,0,0,1,1,101.97,FLYING
102.17,APPROACH,ILS_TRACK,76.03,76,-0.03,136.13,-4.12,3.56,6.53,270.4,0.026,0.2386,19.994,270.38,-3.066,0.57,0.12,1.263,-0.025,-0.066,0,0,0,270.4,0,0,0,0,0,0,0,0,0,0,0,0,0,1,1,102.21,FLYING
102.37,APPROACH,ILS_TRACK,76.08,76,-0.08,135.31,-4.12,3.55,6.53,270.4,0.026,0.2354,19.978,270.38,-3.068,0.58,0.13,1.247,-0.025,-0.068,0,0,0,270.4,0,0,0,0,0,0,0,0,0,0,0,0,0,1,1,102.41,FLYING
102.57,APPROACH,ILS_TRACK,76.14,76,-0.14,134.48,-4.13,3.55,6.52,270.4,0.027,0.2321,19.952,270.38,-3.071,0.58,0.13,1.231,-0.025,-0.071,0,0,0,270.4,0,0,0,0,0,0,0,0,0,0,0,0,0,1,1,102.61,FLYING
102.77,APPROACH,ILS_TRACK,76.19,76,-0.19,133.65,-4.13,3.54,6.51,270.4,0.027,0.2286,19.914,270.38,-3.073,0.58,0.14,1.215,-0.025,-0.073,0,0,0,270.4,0,0,0,0,0,0,0,0,0,0,0,0,0,1,1,102.81,FLYING
102.97,APPROACH,ILS_TRACK,76.25,76,-0.25,132.83,-4.13,3.53,6.5,270.4,0.028,0.225,19.865,270.38,-3.075,0.58,0.15,1.199,-0.024,-0.075,0,0,0,270.4,0,0,0,0,0,0,0,0,0,0,0,0,0,1,1,103.01,FLYING
103.21,APPROACH,ILS_TRACK,76.32,76,-0.32,131.83,-4.14,3.52,6.49,270.4,0.028,0.2205,19.791,270.38,-3.077,0.58,0.16,1.18,-0.025,-0.077,0,0,0,270.4,0,0,0,0,0,0,0,0,0,0,0,0,0,1,1,103.25,FLYING
103.41,APPROACH,ILS_TRACK,76.37,76,-0.37,131.01,-4.14,3.51,6.48,270.4,0.028,0.2166,19.718,270.38,-3.079,0.58,0.16,1.164,-0.025,-0.079,0,0,0,270.4,0,0,0,0,0,0,0,0,0,0,0,0,0,1,1,103.45,FLYING
