t_s,phase,subphase,ias_ms,vapp_ms,spd_err_ms,agl_m,gear_h_m,vs_ms,pitch_deg,aoa_deg,hdg_deg,bank_deg,thr_cmd,thr_cur,thr_intg,at_gain,at_tau_s,at_a_up,at_a_dn,at_kp_thr,at_ki_spd,at_thr_slew,as_cmd_deg,as_cap_deg,as_raw_deg,as_spd_err_ms,as_active,aa_hdg_cmd_deg,aa_fpa_cmd_deg,aa_fbw,aa_dir,actual_fpa_deg,ftf_hdg_err_deg,ftf_fix_idx,kos_steer_pit_deg,kos_steer_hdg_deg,aa_dir_vx,aa_dir_vy,aa_dir_vz,aa_dir_pitch_deg,aa_dir_hdg_deg,ils_loc_m,ils_gs_m,ils_dist_km,loc_corr_deg,gs_corr_deg,gs_latched,active_gs_ang_deg,ils_intercept_alt_m,d_gs_ms,fpa_preclamped_deg,gs_nom_alt_m,flare_fpa_cmd,flare_tgt_vs,flare_frac,flare_mode,flare_auth_limited,flare_vs_err,flare_fpa_err,flare_pitch_err,flare_req_up_a,flare_thr_floor,steer_hdg_deg,steer_blend,ro_loc_corr_deg,ro_hdg_err_deg,ro_yaw_tgt,ro_yaw_scale,ro_yaw_gate,yaw_cmd,roll_cmd,pitch_cmd,ro_pitch_tgt_deg,ro_pitch_err_deg,ro_pitch_ff,ro_roll_assist,flaps_cur,flaps_tgt,asc_j_ab,asc_j_rk,asc_validity,asc_q_pa,asc_q_raw_pa,asc_mach,asc_apo_m,asc_drag_n,asc_w_prop,asc_edot_aero,asc_edot_orb,asc_pitch_bias,asc_blend,asc_spooling,asc_ab_thr_ratio,asc_ab_t_now,asc_ab_t_avail,asc_ab_ign_on,asc_ab_flameouts,asc_rk_t_now,asc_rk_t_avail,asc_rk_ign_on,asc_rk_flameouts,ship_thrust,ship_avail_thrust,ship_ign_on,ship_flameouts,ifc_raw_dt_s,ifc_dt_s,ifc_loop_n,ifc_hz_est,ifc_raw_dt_max_s,ifc_raw_dt_min_s,phase_el_s,status,craft_name,cfg_file
0.16,APPROACH,ILS_TRACK,155.15,152,-3.15,669.18,589.44,-21.34,6.94,14.42,269.97,-0.199,0,0,0,0,0,0,0,0,0,0,0,0,0,0,0,0,0,1,0,-7.84,0,0,0,90,0,0,0,0,0,-0.02,-21,11.752,0,0,0,3,669.18,0,0,690.18,0,0,0,,0,0,0,0,0,0,269.97,0,0,0,0,0,0,0,0,0,0,0,0,0,0,0,0,0,VALID,0,0,0,0,0,1,0,0,0,0,0,0,0,0,0,0,0,0,0,0,258.13,1092.28,2,0,0.14,0.14,1,3.7,0.14,0.02,0.16,FLYING,X10-F,0:/Integrated Flight Computer/aircraft/x10_f_cfg.ks (inferred preloaded)
0.42,APPROACH,ILS_TRACK,155.38,152,-3.38,663.65,583.94,-20.99,6.92,14.25,269.95,-0.169,0,0,0,1,0.6,1.486,0.75,0.35,0.0168,0.4,2.117,20.941,2.117,3.37,1,270.01,0,0,1,-7.72,0,0,0,270.05,0.3542,0.0001,0.9352,0,270.01,-0.03,-23.8,11.716,0.008,17.361,1,3,669.18,-12.776,0,688.3,0,0,0,,0,0,0,0,0,0,269.97,0,0,0,0,0,0,0,0,0,0,0,0,0,1,3,0,0,VALID,0,0,0,0,0,1,0,0,0,0,0,0,0,0,0,0,0,0,0,0,235.92,1093.72,2,0,0.12,0.12,3,7.69,0.14,0.12,0.42,FLYING,X10-F,0:/Integrated Flight Computer/aircraft/x10_f_cfg.ks (inferred preloaded)
0.68,APPROACH,ILS_TRACK,155.45,152,-3.45,657.94,578.58,-20.52,6.03,13.11,269.95,-0.123,0,0,0,1,0.6,2.745,0.75,0.35,0.0168,0.4,2.209,20.918,2.209,3.454,1,270.01,0,0,1,-7.54,0,0,0,270.01,0.3543,0.0002,0.9351,0,270.01,-0.03,-27.25,11.674,0.01,18.993,1,3,669.18,-13.522,0,686.09,0,0,0,,0,0,0,0,0,0,269.97,0,0,0,0,0,0,0,0,0,0,0,0,0,1,3,0,0,VALID,0,0,0,0,0,1,0,0,0,0,0,0,0,0,0,0,0,0,0,0,215.48,1094.42,2,0,0.12,0.12,5,7.69,0.14,0.12,0.68,FLYING,X10-F,0:/Integrated Flight Computer/aircraft/x10_f_cfg.ks (inferred preloaded)
0.94,APPROACH,ILS_TRACK,155.53,152,-3.53,651.98,573.31,-20.6,3.95,10.97,269.97,-0.074,0,0,0,1,0.6,3.812,0.75,0.35,0.0168,0.4,2.272,20.901,2.272,3.511,1,270.01,0,0,1,-7.52,0,0,0,270.01,0.3543,0.0003,0.9351,0,270.01,-0.05,-30.96,11.632,0.015,20.881,1,3,669.18,-14.49,0,683.87,0,0,0,,0,0,0,0,0,0,269.97,0,0,0,0,0,0,0,0,0,0,0,0,0,2,3,0,0,VALID,0,0,0,0,0,1,0,0,0,0,0,0,0,0,0,0,0,0,0,0,196.79,1095.13,2,0,0.12,0.12,7,7.69,0.14,0.12,0.94,FLYING,X10-F,0:/Integrated Flight Computer/aircraft/x10_f_cfg.ks (inferred preloaded)
1.3,APPROACH,ILS_TRACK,156.08,152,-4.08,643.56,565.79,-21.56,1.02,8.37,269.98,-0.037,0,0,0,1,0.6,4.5,0.75,0.35,0.0168,0.4,2.853,20.751,2.853,4.044,1,270.02,0,0,1,-7.82,0,0,0,270.01,0.3544,0.0003,0.9351,0,270.02,-0.06,-36.29,11.573,0.017,22.92,1,3,669.18,-15.041,0,680.8,0,0,0,,0,0,0,0,0,0,269.97,0,0,0,0,0,0,0,0,0,0,0,0,0,3,3,0,0,VALID,0,0,0,0,0,1,0,0,0,0,0,0,0,0,0,0,0,0,0,0,173.86,1098.04,2,0,0.12,0.12,10,8.33,0.12,0.12,1.3,FLYING,X10-F,0:/Integrated Flight Computer/aircraft/x10_f_cfg.ks (inferred preloaded)
1.66,APPROACH,ILS_TRACK,156.76,152,-4.76,634.95,557.66,-23.26,-1.01,6.99,269.98,-0.053,0,0,0,1,0.6,4.5,0.75,0.35,0.0168,0.4,3.58,20.56,3.58,4.722,1,270.01,0,0,1,-8.37,0,0,0,270.02,0.3545,0.0003,0.935,0,270.01,-0.08,-41.81,11.514,0.015,24.864,1,3,669.18,-15.403,0,677.72,0,0,0,,0,0,0,0,0,0,269.97,0,0,0,0,0,0,0,0,0,0,0,0,0,3,3,0,0,VALID,0,0,0,0,0,1,0,0,0,0,0,0,0,0,0,0,0,0,0,0,153.7,1101.57,2,0,0.12,0.12,13,8.33,0.12,0.12,1.66,FLYING,X10-F,0:/Integrated Flight Computer/aircraft/x10_f_cfg.ks (inferred preloaded)
2.02,APPROACH,ILS_TRACK,157.39,152,-5.39,626.29,548.96,-25.02,-1.05,7.65,269.97,-0.039,0,0,0,1,0.6,4.5,0.75,0.35,0.0168,0.4,4.249,20.381,4.249,5.357,1,270.02,0,0,1,-8.97,0,0,0,270.02,0.3546,0.0003,0.935,0,270.02,-0.1,-47.38,11.455,0.018,26.609,1,3,669.18,-15.494,0,674.63,0,0,0,,0,0,0,0,0,0,269.97,0,0,0,0,0,0,0,0,0,0,0,0,0,3,3,0,0,VALID,0,0,0,0,0,1,0,0,0,0,0,0,0,0,0,0,0,0,0,0,135.87,1104.97,2,0,0.12,0.12,16,8.33,0.12,0.12,2.02,FLYING,X10-F,0:/Integrated Flight Computer/aircraft/x10_f_cfg.ks (inferred preloaded)
2.38,APPROACH,ILS_TRACK,157.86,152,-5.86,617.66,539.73,-26.25,0.92,10.16,269.98,-0.018,0,0,0,1,0.6,4.5,0.75,0.35,0.0168,0.4,4.751,20.245,4.751,5.841,1,270.02,0,0,1,-9.41,0,0,0,270.02,0.3547,0.0003,0.935,0,270.02,-0.12,-52.93,11.396,0.019,28.134,1,3,669.18,-15.321,0,671.54,0,0,0,,0,0,0,0,0,0,269.97,0,0,0,0,0,0,0,0,0,0,0,0,0,3,3,0,0,VALID,0,0,0,0,0,1,0,0,0,0,0,0,0,0,0,0,0,0,0,0,120.04,1107.77,2,0,0.12,0.12,19,8.33,0.12,0.12,2.38,FLYING,X10-F,0:/Integrated Flight Computer/aircraft/x10_f_cfg.ks (inferred preloaded)
2.74,APPROACH,ILS_TRACK,158.01,152,-6.01,609.17,530.13,-26.29,4.38,13.69,269.98,0.004,0,0,0,1,0.6,4.5,0.75,0.35,0.0168,0.4,4.926,20.197,4.926,6.012,1,270.02,0,0,1,-9.48,0,0,0,270.02,0.3548,0.0004,0.9349,0,270.02,-0.14,-58.34,11.337,0.02,29.467,1,3,669.18,-14.958,0,668.45,0,0,0,,0,0,0,0,0,0,269.97,0,0,0,0,0,0,0,0,0,0,0,0,0,3,3,0,0,VALID,0,0,0,0,0,1,0,0,0,0,0,0,0,0,0,0,0,0,0,0,105.93,1109.21,2,0,0.12,0.12,22,8.33,0.12,0.12,2.74,FLYING,X10-F,0:/Integrated Flight Computer/aircraft/x10_f_cfg.ks (inferred preloaded)
3.1,APPROACH,ILS_TRACK,157.62,152,-5.62,600.62,520.8,-25.26,7.03,15.94,269.98,0.027,0,0,0,1,0.6,4.5,0.75,0.35,0.0168,0.4,4.553,20.299,4.553,5.649,1,270.02,0,0,1,-9.14,0,0,0,270.02,0.3549,0.0004,0.9349,0,270.02,-0.16,-63.79,11.278,0.022,31.285,1,3,669.18,-15.184,0,665.36,0,0,0,,0,0,0,0,0,0,269.97,0,0,0,0,0,0,0,0,0,0,0,0,0,3,3,0,0,VALID,0,0,0,0,0,1,0,0,0,0,0,0,0,0,0,0,0,0,0,0,93.28,1108.28,2,0,0.12,0.12,25,8.33,0.12,0.12,3.1,FLYING,X10-F,0:/Integrated Flight Computer/aircraft/x10_f_cfg.ks (inferred preloaded)
3.36,APPROACH,ILS_TRACK,157.13,152,-5.13,594.61,514.3,-24.49,8.56,17.24,269.99,0.051,0,0,0,1,0.6,4.5,0.75,0.35,0.0168,0.4,4.061,20.432,4.061,5.177,1,270.02,0,0,1,-8.9,0,0,0,270.02,0.355,0.0004,0.9349,0,270.02,-0.18,-67.62,11.236,0.024,31.877,1,3,669.18,-14.489,0,663.14,0,0,0,,0,0,0,0,0,0,269.97,0,0,0,0,0,0,0,0,0,0,0,0,0,3,3,0,0,VALID,0,0,0,0,0,1,0,0,0,0,0,0,0,0,0,0,0,0,0,0,85.02,1106.71,2,0,0.12,0.12,27,7.69,0.14,0.12,3.36,FLYING,X10-F,0:/Integrated Flight Computer/aircraft/x10_f_cfg.ks (inferred preloaded)
3.72,APPROACH,ILS_TRACK,156.14,152,-4.14,586.67,505.68,-23.15,10.81,19.09,270,0.074,0.144,0,-1.642,1,0.6,4.5,0.75,0.35,0.0168,0.4,0,20.705,0,4.208,0,270.02,0,0,1,-8.5,0,0,0,270.02,0.3551,0.0004,0.9348,0,270.02,-0.2,-72.54,11.177,0.023,32.383,1,3,669.18,-13.277,0,660.07,0,0,0,,0,0,0,0,0,0,269.97,0,0,0,0,0,0,0,0,0,0,0,0,0,3,3,0,0,VALID,0,0,0,0,0,1,0,0,0,0,0,0,0,0,0,0,0,0,0,0,80.07,1103.13,2,0,0.12,0.12,30,8.33,0.12,0.12,3.72,FLYING,X10-F,0:/Integrated Flight Computer/aircraft/x10_f_cfg.ks (inferred preloaded)
4.08,APPROACH,ILS_TRACK,154.72,152,-2.72,579.05,497.73,-21.06,12.07,19.6,270.01,0.076,0.288,0,-2.829,1,0.6,4.5,0.75,0.35,0.0168,0.4,0,21.102,0,2.799,0,270.02,0,0,1,-7.82,0,0,0,270.03,0.3551,0.0003,0.9348,0,270.02,-0.22,-77.15,11.119,0.018,33.206,1,3,669.18,-12.577,0,657.02,0,0,0,,0,0,0,0,0,0,269.97,0,0,0,0,0,0,0,0,0,0,0,0,0,3,3,0,0,VALID,0,0,0,0,0,1,0,0,0,0,0,0,0,0,0,0,0,0,0,0,88.25,1097.64,2,0,0.12,0.12,33,8.33,0.12,0.12,4.08,FLYING,X10-F,0:/Integrated Flight Computer/aircraft/x10_f_cfg.ks (inferred preloaded)
4.44,APPROACH,ILS_TRACK,153.32,152,-1.32,571.81,490.49,-19.41,12.15,19.1,270.01,0.084,0.432,0,-3.494,1,0.6,4.5,0.75,0.35,0.0168,0.4,0,21.498,0,1.394,0,270.03,0,0,1,-7.26,0,0,0,270.02,0.3552,0.0005,0.9348,0,270.03,-0.24,-81.41,11.062,0.027,33.606,1,3,669.18,-11.477,0,654,0,0,0,,0,0,0,0,0,0,269.97,0,0,0,0,0,0,0,0,0,0,0,0,0,3,3,0,0,VALID,0,0,0,0,0,1,0,0,0,0,0,0,0,0,0,0,0,0,0,0,106.71,1092.26,2,0,0.12,0.12,36,8.33,0.12,0.12,4.44,FLYING,X10-F,0:/Integrated Flight Computer/aircraft/x10_f_cfg.ks (inferred preloaded)
4.8,APPROACH,ILS_TRACK,152.09,152,-0.09,564.96,483.73,-18.26,11.86,18.44,270.01,0.089,0.576,0,-3.695,1,0.6,4.5,0.75,0.35,0.0168,0.4,0,21.848,0,0.151,0,270.02,0,0,1,-6.88,0,0,0,270.02,0.3553,0.0004,0.9347,0,270.02,-0.26,-85.31,11.004,0.024,33.984,1,3,669.18,-10.49,0,651.01,0,0,0,,0,0,0,0,0,0,269.97,0,0,0,0,0,0,0,0,0,0,0,0,0,3,3,0,0,VALID,0,0,0,0,0,1,0,0,0,0,0,0,0,0,0,0,0,0,0,0,134.66,1087.55,2,0,0.12,0.12,39,8.33,0.12,0.12,4.8,FLYING,X10-F,0:/Integrated Flight Computer/aircraft/x10_f_cfg.ks (inferred preloaded)
5.16,APPROACH,ILS_TRACK,151.01,152,0.99,558.46,477.34,-17.36,11.51,17.8,270.01,0.088,0.72,0,-3.639,1,0.6,4.5,0.75,0.35,0.0168,0.4,0,22.153,0,-0.931,0,270.02,0,0,1,-6.59,0,0,0,270.02,0.3554,0.0004,0.9347,0,270.02,-0.27,-88.86,10.948,0.021,34.319,1,3,669.18,-9.575,0,648.03,0,0,0,,0,0,0,0,0,0,269.97,0,0,0,0,0,0,0,0,0,0,0,0,0,3,3,0,0,VALID,0,0,0,0,0,1,0,0,0,0,0,0,0,0,0,0,0,0,0,0,171.35,1083.54,2,0,0.12,0.12,42,8.33,0.12,0.12,5.16,FLYING,X10-F,0:/Integrated Flight Computer/aircraft/x10_f_cfg.ks (inferred preloaded)
5.52,APPROACH,ILS_TRACK,150.15,152,1.85,552.3,471.24,-16.6,11.3,17.36,270.01,0.088,0.864,0,-3.585,1,0.6,4.5,0.75,0.35,0.0168,0.4,0,22.4,0,-1.808,0,270.02,0,0,1,-6.34,0,0,0,270.02,0.3555,0.0004,0.9347,0,270.02,-0.29,-92.09,10.891,0.021,34.57,1,3,669.18,-8.678,0,645.07,0,0,0,,0,0,0,0,0,0,269.97,0,0,0,0,0,0,0,0,0,0,0,0,0,3,3,0,0,VALID,0,0,0,0,0,1,0,0,0,0,0,0,0,0,0,0,0,0,0,0,216.17,1080.38,2,0,0.12,0.12,45,8.33,0.12,0.12,5.52,FLYING,X10-F,0:/Integrated Flight Computer/aircraft/x10_f_cfg.ks (inferred preloaded)
5.78,APPROACH,ILS_TRACK,149.65,152,2.35,548.07,466.99,-16.1,11.31,17.21,270.01,0.088,0.968,0,-3.289,1,0.6,4.5,0.75,0.35,0.0168,0.4,0,22.544,0,-2.318,0,270.02,0,0,1,-6.17,0,0,0,270.02,0.3556,0.0003,0.9347,0,270.02,-0.3,-94.23,10.85,0.019,34.692,1,3,669.18,-8.03,0,642.94,0,0,0,,0,0,0,0,0,0,269.97,0,0,0,0,0,0,0,0,0,0,0,0,0,3,3,0,0,VALID,0,0,0,0,0,1,0,0,0,0,0,0,0,0,0,0,0,0,0,0,253.18,1078.63,2,0,0.12,0.12,47,7.69,0.14,0.12,5.78,FLYING,X10-F,0:/Integrated Flight Computer/aircraft/x10_f_cfg.ks (inferred preloaded)
6.14,APPROACH,ILS_TRACK,149.11,152,2.89,542.5,461.32,-15.4,11.6,17.28,270.01,0.089,0.8654,0,-2.318,1,0.6,4.5,0.75,0.35,0.0168,0.4,0,22.699,0,-2.867,0,270.02,0,0,1,-5.93,0,0,0,270.02,0.3557,0.0003,0.9346,0,270.02,-0.31,-96.9,10.794,0.02,34.744,1,3,669.18,-7.094,0,639.99,0,0,0,,0,0,0,0,0,0,269.97,0,0,0,0,0,0,0,0,0,0,0,0,0,3,3,0,0,VALID,0,0,0,0,0,1,0,0,0,0,0,0,0,0,0,0,0,0,0,0,305.51,1076.83,2,0,0.12,0.12,50,8.33,0.12,0.12,6.14,FLYING,X10-F,0:/Integrated Flight Computer/aircraft/x10_f_cfg.ks (inferred preloaded)
6.5,APPROACH,ILS_TRACK,148.69,152,3.31,537.3,455.91,-14.62,12.25,17.68,270.02,0.09,0.7691,0,-1.183,1,0.6,4.5,0.75,0.35,0.0168,0.4,0,22.818,0,-3.289,0,270.02,0,0,1,-5.65,0,0,0,270.02,0.3557,0.0003,0.9346,0,270.02,-0.32,-99.21,10.738,0.018,34.622,1,3,669.18,-6.074,0,637.06,0,0,0,,0,0,0,0,0,0,269.97,0,0,0,0,0,0,0,0,0,0,0,0,0,3,3,0,0,VALID,0,0,0,0,0,1,0,0,0,0,0,0,0,0,0,0,0,0,0,0,346.46,1075.53,2,0,0.12,0.12,53,8.33,0.12,0.12,6.5,FLYING,X10-F,0:/Integrated Flight Computer/aircraft/x10_f_cfg.ks (inferred preloaded)
6.86,APPROACH,ILS_TRACK,148.3,152,3.7,532.41,450.87,-13.48,12.82,17.82,270.02,0.082,0.7295,0,0.095,1,0.6,4.5,0.75,0.35,0.0168,0.4,0,22.928,0,-3.679,0,270.02,0,0,1,-5.23,0,0,0,270.02,0.3558,0.0004,0.9346,0,270.02,-0.33,-101.2,10.682,0.022,34.589,1,3,669.18,-5.287,0,634.14,0,0,0,,0,0,0,0,0,0,269.97,0,0,0,0,0,0,0,0,0,0,0,0,0,3,3,0,0,VALID,0,0,0,0,0,1,0,0,0,0,0,0,0,0,0,0,0,0,0,0,378.5,1074.34,2,0,0.12,0.12,56,8.33,0.12,0.12,6.86,FLYING,X10-F,0:/Integrated Flight Computer/aircraft/x10_f_cfg.ks (inferred preloaded)
7.22,APPROACH,ILS_TRACK,147.98,152,4.02,527.89,446.19,-12.51,13.3,17.98,270.02,0.083,0.6992,0,1.499,1,0.6,4.5,0.75,0.35,0.0168,0.4,0,23.019,0,-4.003,0,270.01,0,0,1,-4.87,0,0,0,270.02,0.3559,0.0003,0.9345,0,270.01,-0.34,-102.85,10.627,0.015,34.211,1,3,669.18,-4.196,0,631.21,0,0,0,,0,0,0,0,0,0,269.97,0,0,0,0,0,0,0,0,0,0,0,0,0,3,3,0,0,VALID,0,0,0,0,0,1,0,0,0,0,0,0,0,0,0,0,0,0,0,0,405.58,1073.39,2,0,0.12,0.12,59,8.33,0.12,0.12,7.22,FLYING,X10-F,0:/Integrated Flight Computer/aircraft/x10_f_cfg.ks (inferred preloaded)
7.58,APPROACH,ILS_TRACK,147.67,152,4.33,523.81,441.87,-11.49,14.1,18.43,270.02,0.084,0.702,0,3.014,1,0.6,4.5,0.75,0.35,0.0168,0.4,0,23.107,0,-4.314,0,270.02,0,0,1,-4.49,0,0,0,270.02,0.356,0.0003,0.9345,0,270.02,-0.34,-104.06,10.571,0.018,33.566,1,3,669.18,-2.936,0,628.3,0,0,0,,0,0,0,0,0,0,269.97,0,0,0,0,0,0,0,0,0,0,0,0,0,3,3,0,0,VALID,0,0,0,0,0,1,0,0,0,0,0,0,0,0,0,0,0,0,0,0,429.1,1072.46,2,0,0.12,0.12,62,8.33,0.12,0.12,7.58,FLYING,X10-F,0:/Integrated Flight Computer/aircraft/x10_f_cfg.ks (inferred preloaded)
7.94,APPROACH,ILS_TRACK,147.31,152,4.69,520.23,437.94,-10.3,15.25,19.17,270.02,0.087,0.7529,0,4.65,1,0.6,4.5,0.75,0.35,0.0168,0.4,0,23.206,0,-4.667,0,270.02,0,0,1,-4.05,0,0,0,270.02,0.3561,0.0003,0.9345,0,270.02,-0.35,-104.79,10.516,0.016,32.675,1,3,669.18,-1.549,0,625.39,0,0,0,,0,0,0,0,0,0,269.97,0,0,0,0,0,0,0,0,0,0,0,0,0,3,3,0,0,VALID,0,0,0,0,0,1,0,0,0,0,0,0,0,0,0,0,0,0,0,0,452.01,1071.32,2,0,0.12,0.12,65,8.33,0.12,0.12,7.94,FLYING,X10-F,0:/Integrated Flight Computer/aircraft/x10_f_cfg.ks (inferred preloaded)
8.2,APPROACH,ILS_TRACK,146.96,152,5.04,517.92,435.43,-8.91,16.02,19.39,270.03,0.086,0.8339,0,5.926,1,0.6,4.5,0.75,0.35,0.0168,0.4,0,23.301,0,-5.003,0,270.02,0,0,1,-3.56,0,0,0,270.02,0.3561,0.0003,0.9344,0,270.02,-0.35,-105.03,10.476,0.017,32.133,1,3,669.18,-0.782,0,623.29,0,0,0,,0,0,0,0,0,0,269.97,0,0,0,0,0,0,0,0,0,0,0,0,0,3,3,0,0,VALID,0,0,0,0,0,1,0,0,0,0,0,0,0,0,0,0,0,0,0,0,470.11,1070.1,2,0,0.12,0.12,67,7.69,0.14,0.12,8.2,FLYING,X10-F,0:/Integrated Flight Computer/aircraft/x10_f_cfg.ks (inferred preloaded)
8.56,APPROACH,ILS_TRACK,146.44,152,5.56,514.87,432.59,-7.14,15.48,18.1,270.03,0.087,0.9676,0,7.861,1,0.6,4.5,0.75,0.35,0.0168,0.4,0,23.451,0,-5.537,0,270.02,0,0,1,-2.84,0,0,0,270.02,0.3562,0.0003,0.9344,0,270.02,-0.35,-105.2,10.42,0.016,31.833,1,3,669.18,-0.342,0,620.39,0,0,0,,0,0,0,0,0,0,269.97,0,0,0,0,0,0,0,0,0,0,0,0,0,3,3,0,0,VALID,0,0,0,0,0,1,0,0,0,0,0,0,0,0,0,0,0,0,0,0,501.63,1068.19,2,0,0.12,0.12,70,8.33,0.12,0.12,8.56,FLYING,X10-F,0:/Integrated Flight Computer/aircraft/x10_f_cfg.ks (inferred preloaded)
8.92,APPROACH,ILS_TRACK,146.4,152,5.6,512.14,430.23,-6.23,14.22,16.5,270.02,0.086,0.8443,0,9.884,1,0.6,4.5,0.75,0.35,0.0168,0.4,0,23.472,0,-5.61,0,270.02,0,0,1,-2.47,0,0,0,270.01,0.3563,0.0003,0.9344,0,270.02,-0.35,-105.08,10.365,0.016,30.958,1,3,669.18,0.707,0,617.5,0,0,0,,0,0,0,0,0,0,269.97,0,0,0,0,0,0,0,0,0,0,0,0,0,3,3,0,0,VALID,0,0,0,0,0,1,0,0,0,0,0,0,0,0,0,0,0,0,0,0,536.17,1068.17,2,0,0.12,0.12,73,8.33,0.12,0.12,8.92,FLYING,X10-F,0:/Integrated Flight Computer/aircraft/x10_f_cfg.ks (inferred preloaded)
9.28,APPROACH,ILS_TRACK,146.66,152,5.34,509.8,428.11,-5.51,13.45,15.49,270.02,0.08,0.7003,0,11.849,1,0.6,4.5,0.75,0.35,0.0168,0.4,0,23.4,0,-5.356,0,270.01,0,0,1,-2.21,0,0,0,270.01,0.3564,0.0002,0.9343,0,270.01,-0.35,-104.55,10.31,0.013,29.902,1,3,669.18,1.83,0,614.6,0,0,0,,0,0,0,0,0,0,269.97,0,0,0,0,0,0,0,0,0,0,0,0,0,3,3,0,0,VALID,0,0,0,0,0,1,0,0,0,0,0,0,0,0,0,0,0,0,0,0,559.22,1069.43,2,0,0.12,0.12,76,8.33,0.12,0.12,9.28,FLYING,X10-F,0:/Integrated Flight Computer/aircraft/x10_f_cfg.ks (inferred preloaded)
9.64,APPROACH,ILS_TRACK,147.1,152,4.9,507.71,426.26,-4.99,12.61,14.43,270.02,0.072,0.5563,0,13.681,1,0.6,4.5,0.75,0.35,0.0168,0.4,0,23.28,0,-4.928,0,270.01,0,0,1,-1.96,0,0,0,270.01,0.3565,0.0002,0.9343,0,270.01,-0.35,-103.77,10.254,0.013,29.202,1,3,669.18,2.412,0,611.7,0,0,0,,0,0,0,0,0,0,269.97,0,0,0,0,0,0,0,0,0,0,0,0,0,3,3,0,0,VALID,0,0,0,0,0,1,0,0,0,0,0,0,0,0,0,0,0,0,0,0,570.4,1071.38,2,0,0.12,0.12,79,8.33,0.12,0.12,9.64,FLYING,X10-F,0:/Integrated Flight Computer/aircraft/x10_f_cfg.ks (inferred preloaded)
10,APPROACH,ILS_TRACK,147.68,152,4.32,505.91,424.51,-4.79,12.36,14.14,270.02,0.067,0.4123,0,15.317,1,0.6,4.5,0.75,0.35,0.0168,0.4,0,23.116,0,-4.348,0,270.01,0,0,1,-1.86,0,0,0,270.01,0.3566,0.0002,0.9343,0,270.01,-0.34,-102.69,10.199,0.011,28.165,1,3,669.18,3.303,0,608.78,0,0,0,,0,0,0,0,0,0,269.97,0,0,0,0,0,0,0,0,0,0,0,0,0,3,3,0,0,VALID,0,0,0,0,0,1,0,0,0,0,0,0,0,0,0,0,0,0,0,0,568.88,1073.92,2,0,0.12,0.12,82,8.33,0.12,0.12,10,FLYING,X10-F,0:/Integrated Flight Computer/aircraft/x10_f_cfg.ks (inferred preloaded)
10.36,APPROACH,ILS_TRACK,148.21,152,3.79,504.38,422.89,-3.92,12.73,14.19,270.02,0.06,0.2683,0,16.749,1,0.6,4.5,0.75,0.35,0.0168,0.4,0,22.965,0,-3.81,0,270.01,0,0,1,-1.58,0,0,0,270.01,0.3567,0.0002,0.9342,0,270.01,-0.34,-101.31,10.143,0.01,27.207,1,3,669.18,3.983,0,605.85,0,0,0,,0,0,0,0,0,0,269.97,0,0,0,0,0,0,0,0,0,0,0,0,0,3,3,0,0,VALID,0,0,0,0,0,1,0,0,0,0,0,0,0,0,0,0,0,0,0,0,549.82,1076.25,2,0,0.12,0.12,85,8.33,0.12,0.12,10.36,FLYING,X10-F,0:/Integrated Flight Computer/aircraft/x10_f_cfg.ks (inferred preloaded)
10.62,APPROACH,ILS_TRACK,148.47,152,3.53,503.3,422.02,-3.08,12.14,13.21,270.02,0.052,0.1643,0,17.689,1,0.6,4.5,0.75,0.35,0.0168,0.4,0,22.893,0,-3.555,0,270.01,0,0,1,-1.21,0,0,0,270.01,0.3567,0.0002,0.9342,0,270.01,-0.34,-100.28,10.102,0.009,26.912,1,3,669.18,3.965,0,603.74,0,0,0,,0,0,0,0,0,0,269.97,0,0,0,0,0,0,0,0,0,0,0,0,0,3,3,0,0,VALID,0,0,0,0,0,1,0,0,0,0,0,0,0,0,0,0,0,0,0,0,525.84,1077.37,2,0,0.12,0.12,87,7.69,0.14,0.12,10.62,FLYING,X10-F,0:/Integrated Flight Computer/aircraft/x10_f_cfg.ks (inferred preloaded)
10.98,APPROACH,ILS_TRACK,148.96,152,3.04,501.89,421.08,-2.48,10.65,11.47,270.01,0.045,0.0906,0,18.853,1,0.6,4.5,0.75,0.35,0.0168,0.4,0,22.756,0,-3.069,0,270.01,0,0,1,-0.96,0,0,0,270.01,0.3568,0.0002,0.9342,0,270.01,-0.33,-98.75,10.046,0.009,26.186,1,3,669.18,4.301,0,600.8,0,0,0,,0,0,0,0,0,0,269.97,0,0,0,0,0,0,0,0,0,0,0,0,0,3,3,0,0,VALID,0,0,0,0,0,1,0,0,0,0,0,0,0,0,0,0,0,0,0,0,481.71,1079.48,2,0,0.12,0.12,90,8.33,0.12,0.12,10.98,FLYING,X10-F,0:/Integrated Flight Computer/aircraft/x10_f_cfg.ks (inferred preloaded)
11.34,APPROACH,ILS_TRACK,149.52,152,2.48,500.73,420.17,-2.71,9.66,10.63,270.01,0.037,0.017,0,19.822,1,0.6,4.5,0.75,0.35,0.0168,0.4,0,22.597,0,-2.507,0,270.01,0,0,1,-1.02,0,0,0,270.01,0.3569,0.0002,0.9341,0,270.01,-0.32,-97.01,9.99,0.009,24.961,1,3,669.18,5.176,0,597.84,0,0,0,,0,0,0,0,0,0,269.97,0,0,0,0,0,0,0,0,0,0,0,0,0,3,3,0,0,VALID,0,0,0,0,0,1,0,0,0,0,0,0,0,0,0,0,0,0,0,0,433.75,1081.88,2,0,0.12,0.12,93,8.33,0.12,0.12,11.34,FLYING,X10-F,0:/Integrated Flight Computer/aircraft/x10_f_cfg.ks (inferred preloaded)
11.7,APPROACH,ILS_TRACK,149.92,152,2.08,499.87,419.12,-2.93,10.14,11.27,270.01,0.034,0.0423,0,20,1,0.6,4.5,0.75,0.35,0.0168,0.4,0,22.482,0,-2.097,0,270.01,0,0,1,-1.12,0,0,0,270.01,0.357,0.0001,0.9341,0,270.01,-0.32,-94.93,9.934,0.007,23.664,1,3,669.18,6.019,0,594.89,0,0,0,,0,0,0,0,0,0,269.97,0,0,0,0,0,0,0,0,0,0,0,0,0,3,3,0,0,VALID,0,0,0,0,0,1,0,0,0,0,0,0,0,0,0,0,0,0,0,0,385.1,1083.63,2,0,0.12,0.12,96,8.33,0.12,0.12,11.7,FLYING,X10-F,0:/Integrated Flight Computer/aircraft/x10_f_cfg.ks (inferred preloaded)
12.06,APPROACH,ILS_TRACK,150.05,152,1.95,499.11,418.16,-2.38,10.89,11.78,270.01,0.032,0.1709,0,20,1,0.6,4.5,0.75,0.35,0.0168,0.4,0,22.44,0,-1.949,0,270.01,0,0,1,-0.93,0,0,0,270.01,0.3571,0.0001,0.9341,0,270.01,-0.31,-92.73,9.877,0.008,22.966,1,3,669.18,6.066,0,591.92,0,0,0,,0,0,0,0,0,0,269.97,0,0,0,0,0,0,0,0,0,0,0,0,0,3,3,0,0,VALID,0,0,0,0,0,1,0,0,0,0,0,0,0,0,0,0,0,0,0,0,349.31,1084.28,2,0,0.12,0.12,99,8.33,0.12,0.12,12.06,FLYING,X10-F,0:/Integrated Flight Computer/aircraft/x10_f_cfg.ks (inferred preloaded)
12.42,APPROACH,ILS_TRACK,150.03,152,1.97,498.31,417.41,-1.86,10.81,11.47,270.01,0.028,0.3149,0,20,1,0.6,4.5,0.75,0.35,0.0168,0.4,0,22.447,0,-1.972,0,270.01,0,0,1,-0.73,0,0,0,270.01,0.3572,0.0001,0.934,0,270.01,-0.3,-90.56,9.82,0.008,22.347,1,3,669.18,6.026,0,588.96,0,0,0,,0,0,0,0,0,0,269.97,0,0,0,0,0,0,0,0,0,0,0,0,0,3,3,0,0,VALID,0,0,0,0,0,1,0,0,0,0,0,0,0,0,0,0,0,0,0,0,335.16,1084.23,2,0,0.12,0.12,102,8.33,0.12,0.12,12.42,FLYING,X10-F,0:/Integrated Flight Computer/aircraft/x10_f_cfg.ks (inferred preloaded)
12.78,APPROACH,ILS_TRACK,150.03,152,1.97,497.57,416.79,-1.67,10.4,10.99,270.01,0.026,0.404,0,20,1,0.6,4.5,0.75,0.35,0.0168,0.4,0,22.447,0,-1.973,0,270,0,0,1,-0.64,0,0,0,270.01,0.3573,0.0001,0.934,0,270,-0.3,-88.35,9.764,0.005,21.523,1,3,669.18,6.228,0,586,0,0,0,,0,0,0,0,0,0,269.97,0,0,0,0,0,0,0,0,0,0,0,0,0,3,3,0,0,VALID,0,0,0,0,0,1,0,0,0,0,0,0,0,0,0,0,0,0,0,0,338.16,1084.28,2,0,0.12,0.12,105,8.33,0.12,0.12,12.78,FLYING,X10-F,0:/Integrated Flight Computer/aircraft/x10_f_cfg.ks (inferred preloaded)
13.04,APPROACH,ILS_TRACK,150.07,152,1.93,497.12,416.35,-1.65,10.33,10.94,270.01,0.024,0.4075,0,20,1,0.6,4.5,0.75,0.35,0.0168,0.4,0,22.436,0,-1.935,0,270.01,0,0,1,-0.65,0,0,0,270.01,0.3573,0.0001,0.934,0,270.01,-0.29,-86.67,9.723,0.007,20.739,1,3,669.18,6.579,0,583.86,0,0,0,,0,0,0,0,0,0,269.97,0,0,0,0,0,0,0,0,0,0,0,0,0,3,3,0,0,VALID,0,0,0,0,0,1,0,0,0,0,0,0,0,0,0,0,0,0,0,0,343.35,1084.48,2,0,0.12,0.12,107,7.69,0.14,0.12,13.04,FLYING,X10-F,0:/Integrated Flight Computer/aircraft/x10_f_cfg.ks (inferred preloaded)
13.4,APPROACH,ILS_TRACK,150.14,152,1.86,496.55,415.79,-1.54,10.27,10.85,270.01,0.023,0.3984,0,20,1,0.6,4.5,0.75,0.35,0.0168,0.4,0,22.416,0,-1.865,0,270.01,0,0,1,-0.6,0,0,0,270.01,0.3574,0.0001,0.9339,0,270.01,-0.29,-84.28,9.667,0.006,19.885,1,3,669.18,6.75,0,580.89,0,0,0,,0,0,0,0,0,0,269.97,0,0,0,0,0,0,0,0,0,0,0,0,0,3,3,0,0,VALID,0,0,0,0,0,1,0,0,0,0,0,0,0,0,0,0,0,0,0,0,350.38,1084.83,2,0,0.12,0.12,110,8.33,0.12,0.12,13.4,FLYING,X10-F,0:/Integrated Flight Computer/aircraft/x10_f_cfg.ks (inferred preloaded)
13.76,APPROACH,ILS_TRACK,150.24,152,1.76,496.03,415.3,-1.34,10.2,10.69,270.01,0.022,0.3812,0,20,1,0.6,4.5,0.75,0.35,0.0168,0.4,0,22.39,0,-1.773,0,270.01,0,0,1,-0.51,0,0,0,270.01,0.3575,0.0001,0.9339,0,270.01,-0.28,-81.84,9.61,0.008,19.116,1,3,669.18,6.794,0,577.93,0,0,0,,0,0,0,0,0,0,269.97,0,0,0,0,0,0,0,0,0,0,0,0,0,3,3,0,0,VALID,0,0,0,0,0,1,0,0,0,0,0,0,0,0,0,0,0,0,0,0,355.86,1085.27,2,0,0.12,0.12,113,8.33,0.12,0.12,13.76,FLYING,X10-F,0:/Integrated Flight Computer/aircraft/x10_f_cfg.ks (inferred preloaded)
14.12,APPROACH,ILS_TRACK,150.36,152,1.64,495.56,414.87,-1.14,10.11,10.5,270.01,0.021,0.3537,0,20,1,0.6,4.5,0.75,0.35,0.0168,0.4,0,22.356,0,-1.649,0,270.01,0,0,1,-0.43,0,0,0,270.01,0.3576,0.0001,0.9339,0,270.01,-0.28,-79.34,9.553,0.008,18.312,1,3,669.18,6.864,0,574.96,0,0,0,,0,0,0,0,0,0,269.97,0,0,0,0,0,0,0,0,0,0,0,0,0,3,3,0,0,VALID,0,0,0,0,0,1,0,0,0,0,0,0,0,0,0,0,0,0,0,0,359.23,1085.82,2,0,0.12,0.12,116,8.33,0.12,0.12,14.12,FLYING,X10-F,0:/Integrated Flight Computer/aircraft/x10_f_cfg.ks (inferred preloaded)
14.48,APPROACH,ILS_TRACK,150.51,152,1.49,495.13,414.46,-0.99,10.04,10.39,270.01,0.02,0.3175,0,20,1,0.6,4.5,0.75,0.35,0.0168,0.4,0,22.312,0,-1.494,0,270.01,0,0,1,-0.38,0,0,0,270.01,0.3577,0.0001,0.9338,0,270.01,-0.27,-76.8,9.497,0.008,17.389,1,3,669.18,7.064,0,571.99,0,0,0,,0,0,0,0,0,0,269.97,0,0,0,0,0,0,0,0,0,0,0,0,0,3,3,0,0,VALID,0,0,0,0,0,1,0,0,0,0,0,0,0,0,0,0,0,0,0,0,360.05,1086.5,2,0,0.12,0.12,119,8.33,0.12,0.12,14.48,FLYING,X10-F,0:/Integrated Flight Computer/aircraft/x10_f_cfg.ks (inferred preloaded)
14.84,APPROACH,ILS_TRACK,150.68,152,1.32,494.75,414.09,-1.03,9.96,10.35,270.01,0.02,0.2849,0,20,1,0.6,4.5,0.75,0.35,0.0168,0.4,0,22.265,0,-1.327,0,270.01,0,0,1,-0.41,0,0,0,270.01,0.3578,0.0001,0.9338,0,270.01,-0.27,-74.23,9.44,0.008,16.415,1,3,669.18,7.316,0,569.01,0,0,0,,0,0,0,0,0,0,269.97,0,0,0,0,0,0,0,0,0,0,0,0,0,3,3,0,0,VALID,0,0,0,0,0,1,0,0,0,0,0,0,0,0,0,0,0,0,0,0,357.57,1087.24,2,0,0.12,0.12,122,8.33,0.12,0.12,14.84,FLYING,X10-F,0:/Integrated Flight Computer/aircraft/x10_f_cfg.ks (inferred preloaded)
15.2,APPROACH,ILS_TRACK,150.84,152,1.16,494.39,413.74,-0.94,9.96,10.31,270.01,0.019,0.2694,0,20,1,0.6,4.5,0.75,0.35,0.0168,0.4,0,22.221,0,-1.17,0,270.01,0,0,1,-0.37,0,0,0,270.01,0.3578,0.0001,0.9338,0,270.01,-0.26,-71.6,9.383,0.009,15.598,1,3,669.18,7.354,0,566.04,0,0,0,,0,0,0,0,0,0,269.97,0,0,0,0,0,0,0,0,0,0,0,0,0,3,3,0,0,VALID,0,0,0,0,0,1,0,0,0,0,0,0,0,0,0,0,0,0,0,0,351.68,1087.92,2,0,0.12,0.12,125,8.33,0.12,0.12,15.2,FLYING,X10-F,0:/Integrated Flight Computer/aircraft/x10_f_cfg.ks (inferred preloaded)
15.46,APPROACH,ILS_TRACK,150.94,152,1.06,494.14,413.51,-0.92,9.87,10.2,270.01,0.019,0.269,0,20,1,0.6,4.5,0.75,0.35,0.0168,0.4,0,22.193,0,-1.072,0,270.01,0,0,1,-0.34,0,0,0,270.01,0.3579,0.0001,0.9338,0,270.01,-0.26,-69.71,9.342,0.007,15.075,1,3,669.18,7.297,0,563.88,0,0,0,,0,0,0,0,0,0,269.97,0,0,0,0,0,0,0,0,0,0,0,0,0,3,3,0,0,VALID,0,0,0,0,0,1,0,0,0,0,0,0,0,0,0,0,0,0,0,0,346.72,1088.35,2,0,0.12,0.12,127,7.69,0.14,0.12,15.46,FLYING,X10-F,0:/Integrated Flight Computer/aircraft/x10_f_cfg.ks (inferred preloaded)
15.83,APPROACH,ILS_TRACK,151.05,152,0.95,493.82,413.19,-0.9,9.86,10.19,270.01,0.018,0.2755,0,20,1,0.6,4.5,0.75,0.35,0.0168,0.4,0,22.161,0,-0.96,0,270.01,0,0,1,-0.32,0,0,0,270.01,0.358,0.0001,0.9337,0,270.01,-0.25,-67.15,9.287,0.007,14.236,1,3,669.18,7.386,0,561.02,0,0,0,,0,0,0,0,0,0,269.97,0,0,0,0,0,0,0,0,0,0,0,0,0,3,3,0,0,VALID,0,0,0,0,0,1,0,0,0,0,0,0,0,0,0,0,0,0,0,0,340.28,1088.85,2,0,0.132,0.132,130,8.2,0.132,0.101,15.83,FLYING,X10-F,0:/Integrated Flight Computer/aircraft/x10_f_cfg.ks (inferred preloaded)
16.17,APPROACH,ILS_TRACK,151.13,152,0.87,493.55,412.91,-0.78,9.95,10.21,270.01,0.014,0.2845,0,20,1,0.6,4.5,0.75,0.35,0.0168,0.4,0,22.138,0,-0.877,0,270.01,0,0,1,-0.29,0,0,0,270.01,0.3581,0.0001,0.9337,0,270.01,-0.25,-64.66,9.235,0.007,13.442,1,3,669.18,7.445,0,558.27,0,0,0,,0,0,0,0,0,0,269.97,0,0,0,0,0,0,0,0,0,0,0,0,0,3,3,0,0,VALID,0,0,0,0,0,1,0,0,0,0,0,0,0,0,0,0,0,0,0,0,335.92,1089.21,2,0,0.175,0.175,132,5.86,0.175,0.132,16.17,FLYING,X10-F,0:/Integrated Flight Computer/aircraft/x10_f_cfg.ks (inferred preloaded)
16.52,APPROACH,ILS_TRACK,151.2,152,0.8,493.3,412.6,-0.83,10.05,10.38,270,0.014,0.2927,0,20,1,0.6,4.5,0.75,0.35,0.0168,0.4,0,22.117,0,-0.802,0,270.01,0,0,1,-0.34,0,0,0,270.01,0.3582,0.0001,0.9337,0,270.01,-0.25,-62.03,9.18,0.007,12.504,1,3,669.18,7.629,0,555.37,0,0,0,,0,0,0,0,0,0,269.97,0,0,0,0,0,0,0,0,0,0,0,0,0,3,3,0,0,VALID,0,0,0,0,0,1,0,0,0,0,0,0,0,0,0,0,0,0,0,0,333.24,1089.55,2,0,0.175,0.175,134,5.71,0.175,0.175,16.52,FLYING,X10-F,0:/Integrated Flight Computer/aircraft/x10_f_cfg.ks (inferred preloaded)
16.87,APPROACH,ILS_TRACK,151.26,152,0.74,493.04,412.33,-0.75,10.11,10.4,270,0.015,0.3048,0,20,1,0.6,4.5,0.75,0.35,0.0168,0.4,0,22.101,0,-0.747,0,270.01,0,0,1,-0.3,0,0,0,270.01,0.3583,0.0001,0.9336,0,270.01,-0.25,-59.38,9.124,0.008,11.77,1,3,669.18,7.556,0,552.47,0,0,0,,0,0,0,0,0,0,269.97,0,0,0,0,0,0,0,0,0,0,0,0,0,3,3,0,0,VALID,0,0,0,0,0,1,0,0,0,0,0,0,0,0,0,0,0,0,0,0,331.93,1089.8,2,0,0.175,0.175,136,5.71,0.175,0.175,16.87,FLYING,X10-F,0:/Integrated Flight Computer/aircraft/x10_f_cfg.ks (inferred preloaded)
17.22,APPROACH,ILS_TRACK,151.31,152,0.69,492.78,412.09,-0.69,10.1,10.35,270,0.017,0.3124,0,20,1,0.6,4.5,0.75,0.35,0.0168,0.4,0,22.087,0,-0.694,0,270.01,0,0,1,-0.26,0,0,0,270.01,0.3583,0.0002,0.9336,0,270.01,-0.25,-56.73,9.069,0.01,10.959,1,3,669.18,7.576,0,549.56,0,0,0,,0,0,0,0,0,0,269.97,0,0,0,0,0,0,0,0,0,0,0,0,0,3,3,0,0,VALID,0,0,0,0,0,1,0,0,0,0,0,0,0,0,0,0,0,0,0,0,332.07,1090.04,2,0,0.175,0.175,138,5.71,0.175,0.175,17.22,FLYING,X10-F,0:/Integrated Flight Computer/aircraft/x10_f_cfg.ks (inferred preloaded)
17.57,APPROACH,ILS_TRACK,151.37,152,0.63,492.55,411.86,-0.62,10.09,10.32,270,0.017,0.314,0,20,1,0.6,4.5,0.75,0.35,0.0168,0.4,0,22.071,0,-0.638,0,270.01,0,0,1,-0.25,0,0,0,270.01,0.3584,0.0002,0.9336,0,270.01,-0.25,-54.07,9.013,0.012,10.119,1,3,669.18,7.626,0,546.66,0,0,0,,0,0,0,0,0,0,269.97,0,0,0,0,0,0,0,0,0,0,0,0,0,3,3,0,0,VALID,0,0,0,0,0,1,0,0,0,0,0,0,0,0,0,0,0,0,0,0,332.74,1090.3,2,0,0.175,0.175,140,5.71,0.175,0.175,17.57,FLYING,X10-F,0:/Integrated Flight Computer/aircraft/x10_f_cfg.ks (inferred preloaded)
17.92,APPROACH,ILS_TRACK,151.43,152,0.57,492.32,411.64,-0.6,10.05,10.26,270,0.018,0.3127,0,20,1,0.6,4.5,0.75,0.35,0.0168,0.4,0,22.054,0,-0.579,0,270.01,0,0,1,-0.22,0,0,0,270.01,0.3585,0.0002,0.9335,0,270.01,-0.25,-51.39,8.958,0.012,9.279,1,3,669.18,7.671,0,543.75,0,0,0,,0,0,0,0,0,0,269.97,0,0,0,0,0,0,0,0,0,0,0,0,0,3,3,0,0,VALID,0,0,0,0,0,1,0,0,0,0,0,0,0,0,0,0,0,0,0,0,333.46,1090.57,2,0,0.175,0.175,142,5.71,0.175,0.175,17.92,FLYING,X10-F,0:/Integrated Flight Computer/aircraft/x10_f_cfg.ks (inferred preloaded)
18.27,APPROACH,ILS_TRACK,151.49,152,0.51,492.12,411.44,-0.57,10.03,10.24,270,0.02,0.3093,0,20,1,0.6,4.5,0.75,0.35,0.0168,0.4,0,22.037,0,-0.518,0,270.01,0,0,1,-0.21,0,0,0,270.01,0.3586,0.0002,0.9335,0,270.01,-0.25,-48.69,8.902,0.012,8.452,1,3,669.18,7.693,0,540.85,0,0,0,,0,0,0,0,0,0,269.97,0,0,0,0,0,0,0,0,0,0,0,0,0,3,3,0,0,VALID,0,0,0,0,0,1,0,0,0,0,0,0,0,0,0,0,0,0,0,0,334.01,1090.84,2,0,0.175,0.175,144,5.71,0.175,0.175,18.27,FLYING,X10-F,0:/Integrated Flight Computer/aircraft/x10_f_cfg.ks (inferred preloaded)
18.62,APPROACH,ILS_TRACK,151.56,152,0.44,491.93,411.26,-0.52,10.02,10.2,270,0.023,0.303,0,20,1,0.6,4.5,0.75,0.35,0.0168,0.4,0,22.018,0,-0.451,0,270.01,0,0,1,-0.19,0,0,0,270.01,0.3587,0.0002,0.9335,0,270.01,-0.26,-45.97,8.847,0.013,7.585,1,3,669.18,7.76,0,537.94,0,0,0,,0,0,0,0,0,0,269.97,0,0,0,0,0,0,0,0,0,0,0,0,0,3,3,0,0,VALID,0,0,0,0,0,1,0,0,0,0,0,0,0,0,0,0,0,0,0,0,334.27,1091.14,2,0,0.175,0.175,146,5.71,0.175,0.175,18.62,FLYING,X10-F,0:/Integrated Flight Computer/aircraft/x10_f_cfg.ks (inferred preloaded)
18.97,APPROACH,ILS_TRACK,151.63,152,0.37,491.75,411.08,-0.48,10.02,10.21,270,0.025,0.2963,0,20,1,0.6,4.5,0.75,0.35,0.0168,0.4,0,21.998,0,-0.381,0,270.02,0,0,1,-0.2,0,0,0,270.01,0.3588,0.0003,0.9334,0,270.02,-0.26,-43.25,8.791,0.016,6.731,1,3,669.18,7.803,0,535.03,0,0,0,,0,0,0,0,0,0,269.97,0,0,0,0,0,0,0,0,0,0,0,0,0,3,3,0,0,VALID,0,0,0,0,0,1,0,0,0,0,0,0,0,0,0,0,0,0,0,0,333.8,1091.45,2,0,0.175,0.175,148,5.71,0.175,0.175,18.97,FLYING,X10-F,0:/Integrated Flight Computer/aircraft/x10_f_cfg.ks (inferred preloaded)
19.32,APPROACH,ILS_TRACK,151.69,152,0.31,491.58,410.91,-0.45,10.01,10.17,270,0.026,0.2916,0,20,1,0.6,4.5,0.75,0.35,0.0168,0.4,0,21.979,0,-0.314,0,270.02,0,0,1,-0.17,0,0,0,270.02,0.3589,0.0003,0.9334,0,270.02,-0.27,-40.51,8.736,0.015,5.871,1,3,669.18,7.852,0,532.12,0,0,0,,0,0,0,0,0,0,269.97,0,0,0,0,0,0,0,0,0,0,0,0,0,3,3,0,0,VALID,0,0,0,0,0,1,0,0,0,0,0,0,0,0,0,0,0,0,0,0,332.59,1091.75,2,0,0.175,0.175,150,5.71,0.175,0.175,19.32,FLYING,X10-F,0:/Integrated Flight Computer/aircraft/x10_f_cfg.ks (inferred preloaded)
19.67,APPROACH,ILS_TRACK,151.75,152,0.25,491.42,410.75,-0.48,9.99,10.17,270,0.027,0.2885,0,20,1,0.6,4.5,0.75,0.35,0.0168,0.4,0,21.962,0,-0.251,0,270.02,0,0,1,-0.17,0,0,0,270.02,0.3589,0.0003,0.9334,0,270.02,-0.28,-37.76,8.68,0.016,5.05,1,3,669.18,7.848,0,529.21,0,0,0,,0,0,0,0,0,0,269.97,0,0,0,0,0,0,0,0,0,0,0,0,0,3,3,0,0,VALID,0,0,0,0,0,1,0,0,0,0,0,0,0,0,0,0,0,0,0,0,330.94,1092.02,2,0,0.175,0.175,152,5.71,0.175,0.175,19.67,FLYING,X10-F,0:/Integrated Flight Computer/aircraft/x10_f_cfg.ks (inferred preloaded)
20.02,APPROACH,ILS_TRACK,151.81,152,0.19,491.27,410.61,-0.4,10.01,10.15,269.99,0.028,0.2878,0,20,1,0.6,4.5,0.75,0.35,0.0168,0.4,0,21.946,0,-0.195,0,270.02,0,0,1,-0.16,0,0,0,270.02,0.359,0.0003,0.9333,0,270.02,-0.29,-34.99,8.625,0.016,4.182,1,3,669.18,7.895,0,526.3,0,0,0,,0,0,0,0,0,0,269.97,0,0,0,0,0,0,0,0,0,0,0,0,0,3,3,0,0,VALID,0,0,0,0,0,1,0,0,0,0,0,0,0,0,0,0,0,0,0,0,329.16,1092.27,2,0,0.175,0.175,154,5.71,0.175,0.175,20.02,FLYING,X10-F,0:/Integrated Flight Computer/aircraft/x10_f_cfg.ks (inferred preloaded)
20.37,APPROACH,ILS_TRACK,151.86,152,0.14,491.13,410.47,-0.41,9.99,10.14,269.99,0.031,0.2881,0,20,1,0.6,4.5,0.75,0.35,0.0168,0.4,0,21.931,0,-0.144,0,270.02,0,0,1,-0.14,0,0,0,270.02,0.3591,0.0003,0.9333,0,270.02,-0.3,-32.22,8.569,0.02,3.338,1,3,669.18,7.911,0,523.38,0,0,0,,0,0,0,0,0,0,269.97,0,0,0,0,0,0,0,0,0,0,0,0,0,3,3,0,0,VALID,0,0,0,0,0,1,0,0,0,0,0,0,0,0,0,0,0,0,0,0,327.51,1092.49,2,0,0.175,0.175,156,5.71,0.175,0.175,20.37,FLYING,X10-F,0:/Integrated Flight Computer/aircraft/x10_f_cfg.ks (inferred preloaded)
20.72,APPROACH,ILS_TRACK,151.91,152,0.09,491,410.34,-0.35,9.97,10.08,269.99,0.032,0.2895,0,20,1,0.6,4.5,0.75,0.35,0.0168,0.4,0,21.919,0,-0.098,0,270.02,-0.508,0,1,-0.12,0,0,-0.11,270.02,0.3675,0.0003,0.93,-0.51,270.02,-0.31,-29.44,8.514,0.02,2.492,1,3,669.18,7.926,-0.508,520.47,0,0,0,,0,0,0,0,0,0,269.97,0,0,0,0,0,0,0,0,0,0,0,0,0,3,3,0,0,VALID,0,0,0,0,0,1,0,0,0,0,0,0,0,0,0,0,0,0,0,0,326.11,1092.69,2,0,0.175,0.175,158,5.71,0.175,0.175,20.72,FLYING,X10-F,0:/Integrated Flight Computer/aircraft/x10_f_cfg.ks (inferred preloaded)
21.07,APPROACH,ILS_TRACK,151.94,152,0.06,490.77,410.28,-0.16,9.59,9.56,269.99,0.051,0.2922,0,20,1,0.6,4.5,0.75,0.35,0.0168,0.4,0,21.908,0,-0.06,0,270.02,-1.092,0,1,-0.06,0,0,-0.88,270.02,0.377,0.0003,0.9262,-1.09,270.02,-0.32,-26.73,8.458,0.021,1.908,1,3,669.18,7.639,-1.092,517.55,0,0,0,,0,0,0,0,0,0,269.97,0,0,0,0,0,0,0,0,0,0,0,0,0,3,3,0,0,VALID,0,0,0,0,0,1,0,0,0,0,0,0,0,0,0,0,0,0,0,0,325.08,1092.85,2,0,0.175,0.175,160,5.71,0.175,0.175,21.07,FLYING,X10-F,0:/Integrated Flight Computer/aircraft/x10_f_cfg.ks (inferred preloaded)
21.42,APPROACH,ILS_TRACK,152.03,152,-0.03,490.41,410.22,-0.27,8.67,8.63,270,0.098,0.2745,0,19.997,1,0.6,4.5,0.75,0.35,0.0168,0.4,0,21.886,0,0.019,0,270.02,-1.611,0,1,-0.08,0,0,-1.32,270.02,0.3855,0.0004,0.9227,-1.61,270.02,-0.33,-24.15,8.402,0.021,1.389,1,3,669.18,7.318,-1.611,514.64,0,0,0,,0,0,0,0,0,0,269.97,0,0,0,0,0,0,0,0,0,0,0,0,0,3,3,0,0,VALID,0,0,0,0,0,1,0,0,0,0,0,0,0,0,0,0,0,0,0,0,324.31,1093.22,2,0,0.175,0.175,162,5.71,0.175,0.175,21.42,FLYING,X10-F,0:/Integrated Flight Computer/aircraft/x10_f_cfg.ks (inferred preloaded)
21.77,APPROACH,ILS_TRACK,152.21,152,-0.21,489.96,410.04,-0.89,7.67,7.91,270,0.136,0.2212,0,19.947,1,0.6,4.5,0.75,0.35,0.0168,0.4,0,21.837,0,0.19,0,270.02,-2.155,0,1,-0.27,0,0,-1.79,270.02,0.3943,0.0004,0.919,-2.16,270.02,-0.34,-21.67,8.347,0.023,0.845,1,3,669.18,7.071,-2.155,511.72,0,0,0,,0,0,0,0,0,0,269.97,0,0,0,0,0,0,0,0,0,0,0,0,0,3,3,0,0,VALID,0,0,0,0,0,1,0,0,0,0,0,0,0,0,0,0,0,0,0,0,320.67,1093.97,2,0,0.175,0.175,164,5.71,0.175,0.175,21.77,FLYING,X10-F,0:/Integrated Flight Computer/aircraft/x10_f_cfg.ks (inferred preloaded)
22.12,APPROACH,ILS_TRACK,152.43,152,-0.43,489.44,409.67,-1.27,7.19,7.58,270.01,0.145,0.16,0,19.823,1,0.6,4.5,0.75,0.35,0.0168,0.4,0,21.775,0,0.411,0,270.02,-2.671,0,1,-0.44,0,0,-2.55,270.02,0.4026,0.0003,0.9154,-2.67,270.02,-0.35,-19.24,8.291,0.022,0.329,1,3,669.18,6.803,-2.671,508.8,0,0,0,,0,0,0,0,0,0,269.97,0,0,0,0,0,0,0,0,0,0,0,0,0,3,3,0,0,VALID,0,0,0,0,0,1,0,0,0,0,0,0,0,0,0,0,0,0,0,0,310.53,1094.94,2,0,0.175,0.175,166,5.71,0.175,0.175,22.12,FLYING,X10-F,0:/Integrated Flight Computer/aircraft/x10_f_cfg.ks (inferred preloaded)
22.47,APPROACH,ILS_TRACK,152.68,152,-0.68,488.7,409.14,-1.74,6.57,7.09,270.01,0.155,0.1016,0,19.615,1,0.6,4.5,0.75,0.35,0.0168,0.4,0,21.705,0,0.659,0,270.02,-2.905,0,1,-0.62,0,0,-2.79,270.02,0.4065,0.0003,0.9137,-2.91,270.02,-0.36,-17,8.235,0.021,0.095,1,3,669.18,6.257,-2.905,505.87,0,0,0,,0,0,0,0,0,0,269.97,0,0,0,0,0,0,0,0,0,0,0,0,0,3,3,0,0,VALID,0,0,0,0,0,1,0,0,0,0,0,0,0,0,0,0,0,0,0,0,293.87,1096.03,2,0,0.175,0.175,168,5.71,0.175,0.175,22.47,FLYING,X10-F,0:/Integrated Flight Computer/aircraft/x10_f_cfg.ks (inferred preloaded)
22.82,APPROACH,ILS_TRACK,152.93,152,-0.93,487.69,408.42,-2.52,5.63,6.41,270.01,0.169,0.0572,0,19.32,1,0.6,4.5,0.75,0.35,0.0168,0.4,0,21.636,0,0.903,0,270.02,-2.845,0,1,-0.87,0,0,-2.85,270.02,0.4056,0.0003,0.9141,-2.85,270.02,-0.37,-15.03,8.179,0.021,0.155,1,3,669.18,5.443,-2.845,502.94,0,0,0,,0,0,0,0,0,0,269.97,0,0,0,0,0,0,0,0,0,0,0,0,0,3,3,0,0,VALID,0,0,0,0,0,1,0,0,0,0,0,0,0,0,0,0,0,0,0,0,272.07,1097.11,2,0,0.175,0.175,170,5.71,0.175,0.175,22.82,FLYING,X10-F,0:/Integrated Flight Computer/aircraft/x10_f_cfg.ks (inferred preloaded)
23.17,APPROACH,ILS_TRACK,153.12,152,-1.12,486.62,407.32,-3.62,5.42,6.73,270.01,0.172,0.0387,0,18.949,1,0.6,4.5,0.75,0.35,0.0168,0.4,0,21.58,0,1.105,0,270.02,-3.296,0,1,-1.27,0,0,-3.02,270.02,0.4129,0.0003,0.9108,-3.3,270.02,-0.38,-13.17,8.123,0.019,-0.296,1,3,669.18,5.31,-3.296,500,0,0,0,,0,0,0,0,0,0,269.97,0,0,0,0,0,0,0,0,0,0,0,0,0,3,3,0,0,VALID,0,0,0,0,0,1,0,0,0,0,0,0,0,0,0,0,0,0,0,0,247.43,1098,2,0,0.175,0.175,172,5.71,0.175,0.175,23.17,FLYING,X10-F,0:/Integrated Flight Computer/aircraft/x10_f_cfg.ks (inferred preloaded)
23.52,APPROACH,ILS_TRACK,153.2,152,-1.2,485.37,405.97,-3.99,5.93,7.33,270.02,0.16,0.0664,0,18.536,1,0.6,4.5,0.75,0.35,0.0168,0.4,0,21.554,0,1.195,0,270.02,-3.406,0,1,-1.46,0,0,-3.54,270.02,0.4147,0.0003,0.91,-3.41,270.02,-0.38,-11.41,8.067,0.018,-0.406,1,3,669.18,4.787,-3.406,497.07,0,0,0,,0,0,0,0,0,0,269.97,0,0,0,0,0,0,0,0,0,0,0,0,0,3,3,0,0,VALID,0,0,0,0,0,1,0,0,0,0,0,0,0,0,0,0,0,0,0,0,224.39,1098.46,2,0,0.175,0.175,174,5.71,0.175,0.175,23.52,FLYING,X10-F,0:/Integrated Flight Computer/aircraft/x10_f_cfg.ks (inferred preloaded)
23.87,APPROACH,ILS_TRACK,153.21,152,-1.21,483.86,404.44,-4.7,5.89,7.57,270.02,0.15,0.1109,0,18.112,1,0.6,4.5,0.75,0.35,0.0168,0.4,0,21.549,0,1.212,0,270.02,-3.248,0,1,-1.7,0,0,-3.18,270.02,0.4123,0.0003,0.9111,-3.25,270.02,-0.38,-9.96,8.011,0.018,-0.248,1,3,669.18,4.046,-3.248,494.13,0,0,0,,0,0,0,0,0,0,269.97,0,0,0,0,0,0,0,0,0,0,0,0,0,3,3,0,0,VALID,0,0,0,0,0,1,0,0,0,0,0,0,0,0,0,0,0,0,0,0,207.73,1098.63,2,0,0.175,0.175,176,5.71,0.175,0.175,23.87,FLYING,X10-F,0:/Integrated Flight Computer/aircraft/x10_f_cfg.ks (inferred preloaded)
24.22,APPROACH,ILS_TRACK,153.13,152,-1.13,482.24,402.71,-5.04,6.29,8.09,270.02,0.132,0.1731,0,17.704,1,0.6,4.5,0.75,0.35,0.0168,0.4,0,21.568,0,1.144,0,270.02,-3.385,0,1,-1.86,0,0,-3.43,270.02,0.4145,0.0002,0.91,-3.39,270.02,-0.38,-8.61,7.955,0.016,-0.385,1,3,669.18,3.711,-3.385,491.2,0,0,0,,0,0,0,0,0,0,269.97,0,0,0,0,0,0,0,0,0,0,0,0,0,3,3,0,0,VALID,0,0,0,0,0,1,0,0,0,0,0,0,0,0,0,0,0,0,0,0,198.99,1098.45,2,0,0.175,0.175,178,5.71,0.175,0.175,24.22,FLYING,X10-F,0:/Integrated Flight Computer/aircraft/x10_f_cfg.ks (inferred preloaded)
24.57,APPROACH,ILS_TRACK,153.01,152,-1.01,480.44,400.85,-5.51,6.43,8.43,270.02,0.119,0.2336,0,17.333,1,0.6,4.5,0.75,0.35,0.0168,0.4,0,21.601,0,1.027,0,270.01,-3.342,0,1,-2.04,0,0,-3.25,270.01,0.4139,0.0002,0.9103,-3.34,270.01,-0.38,-7.46,7.899,0.015,-0.342,1,3,669.18,3.227,-3.342,488.27,0,0,0,,0,0,0,0,0,0,269.97,0,0,0,0,0,0,0,0,0,0,0,0,0,3,3,0,0,VALID,0,0,0,0,0,1,0,0,0,0,0,0,0,0,0,0,0,0,0,0,198.63,1098.09,2,0,0.175,0.175,180,5.71,0.175,0.175,24.57,FLYING,X10-F,0:/Integrated Flight Computer/aircraft/x10_f_cfg.ks (inferred preloaded)
24.92,APPROACH,ILS_TRACK,152.87,152,-0.87,478.49,398.88,-5.74,6.56,8.61,270.02,0.104,0.2836,0,17.01,1,0.6,4.5,0.75,0.35,0.0168,0.4,0,21.641,0,0.886,0,270.01,-3.275,0,1,-2.13,0,0,-3.35,270.01,0.413,0.0002,0.9108,-3.28,270.01,-0.38,-6.45,7.843,0.015,-0.275,1,3,669.18,2.763,-3.275,485.34,0,0,0,,0,0,0,0,0,0,269.97,0,0,0,0,0,0,0,0,0,0,0,0,0,3,3,0,0,VALID,0,0,0,0,0,1,0,0,0,0,0,0,0,0,0,0,0,0,0,0,203.08,1097.65,2,0,0.175,0.175,182,5.71,0.175,0.175,24.92,FLYING,X10-F,0:/Integrated Flight Computer/aircraft/x10_f_cfg.ks (inferred preloaded)
25.27,APPROACH,ILS_TRACK,152.74,152,-0.74,476.44,396.8,-6.08,6.65,8.83,270.02,0.091,0.3145,0,16.735,1,0.6,4.5,0.75,0.35,0.0168,0.4,0,21.679,0,0.753,0,270.01,-3.339,0,1,-2.26,0,0,-3.26,270.01,0.4141,0.0002,0.9102,-3.34,270.01,-0.38,-5.56,7.787,0.013,-0.339,1,3,669.18,2.509,-3.339,482.41,0,0,0,,0,0,0,0,0,0,269.97,0,0,0,0,0,0,0,0,0,0,0,0,0,3,3,0,0,VALID,0,0,0,0,0,1,0,0,0,0,0,0,0,0,0,0,0,0,0,0,210.71,1097.26,2,0,0.175,0.175,184,5.71,0.175,0.175,25.27,FLYING,X10-F,0:/Integrated Flight Computer/aircraft/x10_f_cfg.ks (inferred preloaded)
25.62,APPROACH,ILS_TRACK,152.62,152,-0.62,474.27,394.63,-6.36,6.64,8.92,270.02,0.081,0.3301,0,16.503,1,0.6,4.5,0.75,0.35,0.0168,0.4,0,21.712,0,0.635,0,270.01,-3.256,0,1,-2.35,0,0,-3.29,270.01,0.4128,0.0002,0.9108,-3.26,270.01,-0.38,-4.79,7.732,0.013,-0.256,1,3,669.18,2.114,-3.256,479.49,0,0,0,,0,0,0,0,0,0,269.97,0,0,0,0,0,0,0,0,0,0,0,0,0,3,3,0,0,VALID,0,0,0,0,0,1,0,0,0,0,0,0,0,0,0,0,0,0,0,0,219.97,1096.94,2,0,0.175,0.175,186,5.71,0.175,0.175,25.62,FLYING,X10-F,0:/Integrated Flight Computer/aircraft/x10_f_cfg.ks (inferred preloaded)
25.97,APPROACH,ILS_TRACK,152.53,152,-0.53,472.02,392.38,-6.45,6.73,9.01,270.01,0.073,0.3332,0,16.307,1,0.6,4.5,0.75,0.35,0.0168,0.4,0,21.739,0,0.539,0,270.01,-3.289,0,1,-2.41,0,0,-3.38,270.01,0.4134,0.0002,0.9105,-3.29,270.01,-0.37,-4.08,7.676,0.013,-0.289,1,3,669.18,1.892,-3.289,476.57,0,0,0,,0,0,0,0,0,0,269.97,0,0,0,0,0,0,0,0,0,0,0,0,0,3,3,0,0,VALID,0,0,0,0,0,1,0,0,0,0,0,0,0,0,0,0,0,0,0,0,229.6,1096.72,2,0,0.175,0.175,188,5.71,0.175,0.175,25.97,FLYING,X10-F,0:/Integrated Flight Computer/aircraft/x10_f_cfg.ks (inferred preloaded)
26.32,APPROACH,ILS_TRACK,152.47,152,-0.47,469.68,390.05,-6.88,6.59,9.07,270.01,0.07,0.3228,0,16.136,1,0.6,4.5,0.75,0.35,0.0168,0.4,0,21.757,0,0.474,0,270.01,-3.268,0,1,-2.55,0,0,-3.16,270.01,0.4132,0.0002,0.9106,-3.27,270.01,-0.37,-3.51,7.62,0.012,-0.268,1,3,669.18,1.651,-3.268,473.65,0,0,0,,0,0,0,0,0,0,269.97,0,0,0,0,0,0,0,0,0,0,0,0,0,3,3,0,0,VALID,0,0,0,0,0,1,0,0,0,0,0,0,0,0,0,0,0,0,0,0,238.71,1096.65,2,0,0.175,0.175,190,5.71,0.175,0.175,26.32,FLYING,X10-F,0:/Integrated Flight Computer/aircraft/x10_f_cfg.ks (inferred preloaded)
26.67,APPROACH,ILS_TRACK,152.43,152,-0.43,467.27,387.65,-6.86,6.7,9.12,270.01,0.065,0.3081,0,15.982,1,0.6,4.5,0.75,0.35,0.0168,0.4,0,21.769,0,0.431,0,270.01,-3.226,0,1,-2.56,0,0,-3.41,270.01,0.4126,0.0002,0.9109,-3.23,270.01,-0.37,-2.96,7.565,0.012,-0.226,1,3,669.18,1.394,-3.226,470.73,0,0,0,,0,0,0,0,0,0,269.97,0,0,0,0,0,0,0,0,0,0,0,0,0,3,3,0,0,VALID,0,0,0,0,0,1,0,0,0,0,0,0,0,0,0,0,0,0,0,0,246.34,1096.67,2,0,0.175,0.175,192,5.71,0.175,0.175,26.67,FLYING,X10-F,0:/Integrated Flight Computer/aircraft/x10_f_cfg.ks (inferred preloaded)
27.02,APPROACH,ILS_TRACK,152.43,152,-0.43,464.78,385.17,-7.29,6.5,9.14,270.01,0.065,0.2828,0,15.834,1,0.6,4.5,0.75,0.35,0.0168,0.4,0,21.771,0,0.424,0,270.01,-3.201,0,1,-2.7,0,0,-3.09,270.01,0.4123,0.0002,0.9111,-3.2,270.01,-0.36,-2.55,7.509,0.012,-0.201,1,3,669.18,1.207,-3.201,467.82,0,0,0,,0,0,0,0,0,0,269.97,0,0,0,0,0,0,0,0,0,0,0,0,0,3,3,0,0,VALID,0,0,0,0,0,1,0,0,0,0,0,0,0,0,0,0,0,0,0,0,252.33,1096.86,2,0,0.175,0.175,194,5.71,0.175,0.175,27.02,FLYING,X10-F,0:/Integrated Flight Computer/aircraft/x10_f_cfg.ks (inferred preloaded)
27.37,APPROACH,ILS_TRACK,152.44,152,-0.44,462.26,382.61,-7.26,6.76,9.34,270.01,0.06,0.2586,0,15.682,1,0.6,4.5,0.75,0.35,0.0168,0.4,0,21.768,0,0.436,0,270.01,-3.266,0,1,-2.73,0,0,-3.37,270.01,0.4134,0.0002,0.9105,-3.27,270.01,-0.36,-2.12,7.453,0.012,-0.266,1,3,669.18,1.128,-3.266,464.9,0,0,0,,0,0,0,0,0,0,269.97,0,0,0,0,0,0,0,0,0,0,0,0,0,3,3,0,0,VALID,0,0,0,0,0,1,0,0,0,0,0,0,0,0,0,0,0,0,0,0,256.01,1097.12,2,0,0.175,0.175,196,5.71,0.175,0.175,27.37,FLYING,X10-F,0:/Integrated Flight Computer/aircraft/x10_f_cfg.ks (inferred preloaded)
27.72,APPROACH,ILS_TRACK,152.46,152,-0.46,459.64,380.01,-7.6,6.58,9.32,270.01,0.061,0.238,0,15.525,1,0.6,4.5,0.75,0.35,0.0168,0.4,0,21.763,0,0.455,0,270.01,-3.123,0,1,-2.82,0,0,-3.06,270.01,0.4112,0.0002,0.9115,-3.12,270.01,-0.36,-1.83,7.398,0.011,-0.123,1,3,669.18,0.84,-3.123,461.98,0,0,0,,0,0,0,0,0,0,269.97,0,0,0,0,0,0,0,0,0,0,0,0,0,3,3,0,0,VALID,0,0,0,0,0,1,0,0,0,0,0,0,0,0,0,0,0,0,0,0,257.75,1097.42,2,0,0.175,0.175,198,5.71,0.175,0.175,27.72,FLYING,X10-F,0:/Integrated Flight Computer/aircraft/x10_f_cfg.ks (inferred preloaded)
28.07,APPROACH,ILS_TRACK,152.47,152,-0.47,457.04,377.33,-7.54,6.94,9.65,270.01,0.055,0.2241,0,15.36,1,0.6,4.5,0.75,0.35,0.0168,0.4,0,21.757,0,0.475,0,270.01,-3.298,0,1,-2.85,0,0,-3.32,270.01,0.4141,0.0002,0.9102,-3.3,270.01,-0.36,-1.49,7.342,0.012,-0.298,1,3,669.18,0.931,-3.298,459.07,0,0,0,,0,0,0,0,0,0,269.97,0,0,0,0,0,0,0,0,0,0,0,0,0,3,3,0,0,VALID,0,0,0,0,0,1,0,0,0,0,0,0,0,0,0,0,0,0,0,0,257.65,1097.71,2,0,0.175,0.175,200,5.71,0.175,0.175,28.07,FLYING,X10-F,0:/Integrated Flight Computer/aircraft/x10_f_cfg.ks (inferred preloaded)
28.42,APPROACH,ILS_TRACK,152.47,152,-0.47,454.31,374.66,-7.77,6.69,9.48,270.01,0.054,0.2246,0,15.196,1,0.6,4.5,0.75,0.35,0.0168,0.4,0,21.759,0,0.467,0,270.01,-3.027,0,1,-2.89,0,0,-3.02,270.01,0.4098,0.0002,0.9122,-3.03,270.01,-0.35,-1.3,7.286,0.013,-0.027,1,3,669.18,0.521,-3.027,456.15,0,0,0,,0,0,0,0,0,0,269.97,0,0,0,0,0,0,0,0,0,0,0,0,0,3,3,0,0,VALID,0,0,0,0,0,1,0,0,0,0,0,0,0,0,0,0,0,0,0,0,256.51,1097.9,2,0,0.175,0.175,202,5.71,0.175,0.175,28.42,FLYING,X10-F,0:/Integrated Flight Computer/aircraft/x10_f_cfg.ks (inferred preloaded)
28.77,APPROACH,ILS_TRACK,152.47,152,-0.47,451.66,371.9,-7.82,7.06,9.91,270.01,0.05,0.219,0,15.03,1,0.6,4.5,0.75,0.35,0.0168,0.4,0,21.758,0,0.473,0,270.01,-3.341,0,1,-2.96,0,0,-3.2,270.01,0.4149,0.0002,0.9099,-3.34,270.01,-0.35,-1.04,7.231,0.015,-0.341,1,3,669.18,0.815,-3.341,453.24,0,0,0,,0,0,0,0,0,0,269.97,0,0,0,0,0,0,0,0,0,0,0,0,0,3,3,0,0,VALID,0,0,0,0,0,1,0,0,0,0,0,0,0,0,0,0,0,0,0,0,255.13,1098.14,2,0,0.175,0.175,204,5.71,0.175,0.175,28.77,FLYING,X10-F,0:/Integrated Flight Computer/aircraft/x10_f_cfg.ks (inferred preloaded)
29.12,APPROACH,ILS_TRACK,152.43,152,-0.43,448.84,369.19,-7.81,6.78,9.54,270.01,0.05,0.2333,0,14.875,1,0.6,4.5,0.75,0.35,0.0168,0.4,0,21.769,0,0.434,0,270.01,-2.901,0,1,-2.91,0,0,-3.08,270.01,0.408,0.0002,0.913,-2.9,270.01,-0.35,-0.92,7.175,0.013,0.099,1,3,669.18,0.219,-2.901,450.33,0,0,0,,0,0,0,0,0,0,269.97,0,0,0,0,0,0,0,0,0,0,0,0,0,3,3,0,0,VALID,0,0,0,0,0,1,0,0,0,0,0,0,0,0,0,0,0,0,0,0,253.84,1098.19,2,0,0.175,0.175,206,5.71,0.175,0.175,29.12,FLYING,X10-F,0:/Integrated Flight Computer/aircraft/x10_f_cfg.ks (inferred preloaded)
29.47,APPROACH,ILS_TRACK,152.43,152,-0.43,446.1,366.38,-8.15,6.81,9.81,270.01,0.043,0.2276,0,14.725,1,0.6,4.5,0.75,0.35,0.0168,0.4,0,21.77,0,0.429,0,270.01,-3.183,0,1,-3.05,0,0,-2.98,270.01,0.4126,0.0002,0.9109,-3.18,270.01,-0.35,-0.77,7.12,0.013,-0.183,1,3,669.18,0.519,-3.183,447.41,0,0,0,,0,0,0,0,0,0,269.97,0,0,0,0,0,0,0,0,0,0,0,0,0,3,3,0,0,VALID,0,0,0,0,0,1,0,0,0,0,0,0,0,0,0,0,0,0,0,0,253.94,1098.41,2,0,0.175,0.175,208,5.71,0.175,0.175,29.47,FLYING,X10-F,0:/Integrated Flight Computer/aircraft/x10_f_cfg.ks (inferred preloaded)
29.82,APPROACH,ILS_TRACK,152.4,152,-0.4,443.31,363.58,-7.95,7.03,9.86,270.01,0.038,0.2344,0,14.581,1,0.6,4.5,0.75,0.35,0.0168,0.4,0,21.778,0,0.4,0,270.01,-3.051,0,1,-2.98,0,0,-3.27,270.01,0.4106,0.0002,0.9118,-3.05,270.01,-0.35,-0.62,7.064,0.014,-0.051,1,3,669.18,0.297,-3.051,444.5,0,0,0,,0,0,0,0,0,0,269.97,0,0,0,0,0,0,0,0,0,0,0,0,0,3,3,0,0,VALID,0,0,0,0,0,1,0,0,0,0,0,0,0,0,0,0,0,0,0,0,253.64,1098.51,2,0,0.175,0.175,210,5.71,0.175,0.175,29.82,FLYING,X10-F,0:/Integrated Flight Computer/aircraft/x10_f_cfg.ks (inferred preloaded)
30.17,APPROACH,ILS_TRACK,152.37,152,-0.37,440.5,360.75,-8.2,6.95,9.93,270.01,0.039,0.2364,0,14.448,1,0.6,4.5,0.75,0.35,0.0168,0.4,0,21.785,0,0.375,0,270.01,-3.072,0,1,-3.06,0,0,-2.94,270.01,0.411,0.0002,0.9116,-3.07,270.01,-0.35,-0.54,7.009,0.014,-0.072,1,3,669.18,0.293,-3.072,441.59,0,0,0,,0,0,0,0,0,0,269.97,0,0,0,0,0,0,0,0,0,0,0,0,0,3,3,0,0,VALID,0,0,0,0,0,1,0,0,0,0,0,0,0,0,0,0,0,0,0,0,253.97,1098.64,2,0,0.175,0.175,212,5.71,0.175,0.175,30.17,FLYING,X10-F,0:/Integrated Flight Computer/aircraft/x10_f_cfg.ks (inferred preloaded)
30.52,APPROACH,ILS_TRACK,152.34,152,-0.34,437.68,357.91,-8.03,7.13,10.01,270,0.037,0.2403,0,14.324,1,0.6,4.5,0.75,0.35,0.0168,0.4,0,21.794,0,0.345,0,270.02,-3.068,0,1,-3.02,0,0,-3.2,270.01,0.411,0.0002,0.9116,-3.07,270.02,-0.35,-0.42,6.953,0.015,-0.068,1,3,669.18,0.245,-3.068,438.68,0,0,0,,0,0,0,0,0,0,269.97,0,0,0,0,0,0,0,0,0,0,0,0,0,3,3,0,0,VALID,0,0,0,0,0,1,0,0,0,0,0,0,0,0,0,0,0,0,0,0,254.41,1098.74,2,0,0.175,0.175,214,5.71,0.175,0.175,30.52,FLYING,X10-F,0:/Integrated Flight Computer/aircraft/x10_f_cfg.ks (inferred preloaded)
30.87,APPROACH,ILS_TRACK,152.31,152,-0.31,434.86,355.07,-8.16,7.13,10.1,270,0.037,0.2429,0,14.212,1,0.6,4.5,0.75,0.35,0.0168,0.4,0,21.802,0,0.314,0,270.02,-3.124,0,1,-3.08,0,0,-2.99,270.02,0.412,0.0002,0.9112,-3.13,270.02,-0.35,-0.35,6.897,0.015,-0.124,1,3,669.18,0.287,-3.124,435.77,0,0,0,,0,0,0,0,0,0,269.97,0,0,0,0,0,0,0,0,0,0,0,0,0,3,3,0,0,VALID,0,0,0,0,0,1,0,0,0,0,0,0,0,0,0,0,0,0,0,0,255.13,1098.85,2,0,0.175,0.175,216,5.71,0.175,0.175,30.87,FLYING,X10-F,0:/Integrated Flight Computer/aircraft/x10_f_cfg.ks (inferred preloaded)
31.22,APPROACH,ILS_TRACK,152.28,152,-0.28,432.02,352.23,-8.12,7.15,10.1,270,0.038,0.2464,0,14.111,1,0.6,4.5,0.75,0.35,0.0168,0.4,0,21.812,0,0.28,0,270.02,-3.059,0,1,-3.06,0,0,-3.1,270.02,0.411,0.0002,0.9116,-3.06,270.02,-0.35,-0.28,6.842,0.015,-0.059,1,3,669.18,0.177,-3.059,432.86,0,0,0,,0,0,0,0,0,0,269.97,0,0,0,0,0,0,0,0,0,0,0,0,0,3,3,0,0,VALID,0,0,0,0,0,1,0,0,0,0,0,0,0,0,0,0,0,0,0,0,256,1098.94,2,0,0.175,0.175,218,5.71,0.175,0.175,31.22,FLYING,X10-F,0:/Integrated Flight Computer/aircraft/x10_f_cfg.ks (inferred preloaded)
31.57,APPROACH,ILS_TRACK,152.25,152,-0.25,429.18,349.39,-8.1,7.17,10.09,270,0.039,0.2461,0,14.02,1,0.6,4.5,0.75,0.35,0.0168,0.4,0,21.82,0,0.253,0,270.02,-3.086,0,1,-3.04,0,0,-3.11,270.02,0.4116,0.0002,0.9114,-3.09,270.02,-0.36,-0.2,6.787,0.016,-0.086,1,3,669.18,0.184,-3.086,429.96,0,0,0,,0,0,0,0,0,0,269.97,0,0,0,0,0,0,0,0,0,0,0,0,0,3,3,0,0,VALID,0,0,0,0,0,1,0,0,0,0,0,0,0,0,0,0,0,0,0,0,257.02,1099.06,2,0,0.175,0.175,220,5.71,0.175,0.175,31.57,FLYING,X10-F,0:/Integrated Flight Computer/aircraft/x10_f_cfg.ks (inferred preloaded)
31.92,APPROACH,ILS_TRACK,152.23,152,-0.23,426.35,346.55,-8.1,7.18,10.1,270,0.039,0.2445,0,13.937,1,0.6,4.5,0.75,0.35,0.0168,0.4,0,21.826,0,0.23,0,270.02,-3.108,0,1,-3.05,0,0,-3.11,270.02,0.412,0.0003,0.9112,-3.11,270.02,-0.36,-0.14,6.731,0.017,-0.108,1,3,669.18,0.186,-3.108,427.05,0,0,0,,0,0,0,0,0,0,269.97,0,0,0,0,0,0,0,0,0,0,0,0,0,3,3,0,0,VALID,0,0,0,0,0,1,0,0,0,0,0,0,0,0,0,0,0,0,0,0,257.95,1099.2,2,0,0.175,0.175,222,5.71,0.175,0.175,31.92,FLYING,X10-F,0:/Integrated Flight Computer/aircraft/x10_f_cfg.ks (inferred preloaded)
32.27,APPROACH,ILS_TRACK,152.21,152,-0.21,423.51,343.72,-8.11,7.16,10.09,270,0.04,0.2407,0,13.861,1,0.6,4.5,0.75,0.35,0.0168,0.4,0,21.831,0,0.213,0,270.02,-3.124,0,1,-3.05,0,0,-3.12,270.02,0.4123,0.0003,0.911,-3.12,270.02,-0.37,-0.07,6.676,0.018,-0.124,1,3,669.18,0.182,-3.124,424.15,0,0,0,,0,0,0,0,0,0,269.97,0,0,0,0,0,0,0,0,0,0,0,0,0,3,3,0,0,VALID,0,0,0,0,0,1,0,0,0,0,0,0,0,0,0,0,0,0,0,0,258.68,1099.36,2,0,0.175,0.175,224,5.71,0.175,0.175,32.27,FLYING,X10-F,0:/Integrated Flight Computer/aircraft/x10_f_cfg.ks (inferred preloaded)
32.62,APPROACH,ILS_TRACK,152.2,152,-0.2,420.67,340.88,-8.11,7.15,10.08,270,0.041,0.2362,0,13.79,1,0.6,4.5,0.75,0.35,0.0168,0.4,0,21.834,0,0.202,0,270.02,-3.14,0,1,-3.05,0,0,-3.13,270.02,0.4127,0.0003,0.9109,-3.14,270.02,-0.37,-0.01,6.62,0.019,-0.14,1,3,669.18,0.178,-3.14,421.24,0,0,0,,0,0,0,0,0,0,269.97,0,0,0,0,0,0,0,0,0,0,0,0,0,3,3,0,0,VALID,0,0,0,0,0,1,0,0,0,0,0,0,0,0,0,0,0,0,0,0,259.08,1099.55,2,0,0.175,0.175,226,5.71,0.175,0.175,32.62,FLYING,X10-F,0:/Integrated Flight Computer/aircraft/x10_f_cfg.ks (inferred preloaded)
32.97,APPROACH,ILS_TRACK,152.19,152,-0.19,417.82,338.04,-8.12,7.13,10.07,270,0.042,0.2318,0,13.721,1,0.6,4.5,0.75,0.35,0.0168,0.4,0,21.836,0,0.194,0,270.02,-3.153,0,1,-3.05,0,0,-3.15,270.02,0.4129,0.0003,0.9108,-3.15,270.02,-0.38,0.05,6.565,0.019,-0.153,1,3,669.18,0.171,-3.153,418.34,0,0,0,,0,0,0,0,0,0,269.97,0,0,0,0,0,0,0,0,0,0,0,0,0,3,3,0,0,VALID,0,0,0,0,0,1,0,0,0,0,0,0,0,0,0,0,0,0,0,0,259.08,1099.75,2,0,0.175,0.175,228,5.71,0.175,0.175,32.97,FLYING,X10-F,0:/Integrated Flight Computer/aircraft/x10_f_cfg.ks (inferred preloaded)
33.32,APPROACH,ILS_TRACK,152.19,152,-0.19,414.98,335.2,-8.13,7.12,10.06,270,0.046,0.2283,0,13.655,1,0.6,4.5,0.75,0.35,0.0168,0.4,0,21.838,0,0.187,0,270.02,-3.163,0,1,-3.06,0,0,-3.16,270.02,0.4132,0.0003,0.9106,-3.16,270.02,-0.38,0.11,6.509,0.019,-0.163,1,3,669.18,0.162,-3.163,415.44,0,0,0,,0,0,0,0,0,0,269.97,0,0,0,0,0,0,0,0,0,0,0,0,0,3,3,0,0,VALID,0,0,0,0,0,1,0,0,0,0,0,0,0,0,0,0,0,0,0,0,258.57,1099.96,2,0,0.175,0.175,230,5.71,0.175,0.175,33.32,FLYING,X10-F,0:/Integrated Flight Computer/aircraft/x10_f_cfg.ks (inferred preloaded)
33.67,APPROACH,ILS_TRACK,152.18,152,-0.18,412.13,332.35,-8.14,7.11,10.06,270,0.046,0.2259,0,13.591,1,0.6,4.5,0.75,0.35,0.0168,0.4,0,21.84,0,0.18,0,270.02,-3.173,0,1,-3.06,0,0,-3.16,270.02,0.4134,0.0003,0.9105,-3.17,270.02,-0.39,0.16,6.454,0.021,-0.173,1,3,669.18,0.154,-3.173,412.53,0,0,0,,0,0,0,0,0,0,269.97,0,0,0,0,0,0,0,0,0,0,0,0,0,3,3,0,0,VALID,0,0,0,0,0,1,0,0,0,0,0,0,0,0,0,0,0,0,0,0,257.7,1100.16,2,0,0.175,0.175,232,5.71,0.175,0.175,33.67,FLYING,X10-F,0:/Integrated Flight Computer/aircraft/x10_f_cfg.ks (inferred preloaded)
34.02,APPROACH,ILS_TRACK,152.17,152,-0.17,409.28,329.5,-8.15,7.11,10.06,270,0.049,0.2253,0,13.531,1,0.6,4.5,0.75,0.35,0.0168,0.4,0,21.843,0,0.171,0,270.02,-3.179,0,1,-3.06,0,0,-3.18,270.02,0.4136,0.0003,0.9104,-3.18,270.02,-0.4,0.22,6.399,0.022,-0.179,1,3,669.18,0.143,-3.179,409.63,0,0,0,,0,0,0,0,0,0,269.97,0,0,0,0,0,0,0,0,0,0,0,0,0,3,3,0,0,VALID,0,0,0,0,0,1,0,0,0,0,0,0,0,0,0,0,0,0,0,0,256.66,1100.36,2,0,0.175,0.175,234,5.71,0.175,0.175,34.02,FLYING,X10-F,0:/Integrated Flight Computer/aircraft/x10_f_cfg.ks (inferred preloaded)
34.37,APPROACH,ILS_TRACK,152.16,152,-0.16,406.42,326.65,-8.16,7.11,10.06,270,0.053,0.2263,0,13.474,1,0.6,4.5,0.75,0.35,0.0168,0.4,0,21.846,0,0.158,0,270.02,-3.182,0,1,-3.07,0,0,-3.18,270.02,0.4138,0.0004,0.9104,-3.18,270.02,-0.41,0.26,6.343,0.023,-0.182,1,3,669.18,0.129,-3.182,406.73,0,0,0,,0,0,0,0,0,0,269.97,0,0,0,0,0,0,0,0,0,0,0,0,0,3,3,0,0,VALID,0,0,0,0,0,1,0,0,0,0,0,0,0,0,0,0,0,0,0,0,255.71,1100.54,2,0,0.175,0.175,236,5.71,0.175,0.175,34.37,FLYING,X10-F,0:/Integrated Flight Computer/aircraft/x10_f_cfg.ks (inferred preloaded)
34.72,APPROACH,ILS_TRACK,152.14,152,-0.14,403.56,323.79,-8.17,7.1,10.06,270,0.056,0.2283,0,13.423,1,0.6,4.5,0.75,0.35,0.0168,0.4,0,21.851,0,0.142,0,270.02,-3.186,0,1,-3.07,0,0,-3.18,270.02,0.4139,0.0004,0.9103,-3.19,270.02,-0.42,0.3,6.288,0.023,-0.186,1,3,669.18,0.118,-3.186,403.83,0,0,0,,0,0,0,0,0,0,269.97,0,0,0,0,0,0,0,0,0,0,0,0,0,3,3,0,0,VALID,0,0,0,0,0,1,0,0,0,0,0,0,0,0,0,0,0,0,0,0,255.01,1100.71,2,0,0.175,0.175,238,5.71,0.175,0.175,34.72,FLYING,X10-F,0:/Integrated Flight Computer/aircraft/x10_f_cfg.ks (inferred preloaded)
35.07,APPROACH,ILS_TRACK,152.12,152,-0.12,400.7,320.93,-8.19,7.11,10.07,270,0.059,0.2308,0,13.378,1,0.6,4.5,0.75,0.35,0.0168,0.4,0,21.856,0,0.124,0,270.02,-3.19,0,1,-3.08,0,0,-3.18,270.02,0.414,0.0004,0.9103,-3.19,270.02,-0.43,0.34,6.233,0.024,-0.19,1,3,669.18,0.109,-3.19,400.93,0,0,0,,0,0,0,0,0,0,269.97,0,0,0,0,0,0,0,0,0,0,0,0,0,3,3,0,0,VALID,0,0,0,0,0,1,0,0,0,0,0,0,0,0,0,0,0,0,0,0,254.67,1100.87,2,0,0.175,0.175,240,5.71,0.175,0.175,35.07,FLYING,X10-F,0:/Integrated Flight Computer/aircraft/x10_f_cfg.ks (inferred preloaded)
35.42,APPROACH,ILS_TRACK,152.1,152,-0.1,397.83,318.06,-8.2,7.11,10.08,270,0.06,0.2334,0,13.34,1,0.6,4.5,0.75,0.35,0.0168,0.4,0,21.862,0,0.104,0,270.02,-3.188,0,1,-3.08,0,0,-3.19,270.02,0.4141,0.0004,0.9102,-3.19,270.02,-0.44,0.38,6.177,0.024,-0.188,1,3,669.18,0.093,-3.188,398.03,0,0,0,,0,0,0,0,0,0,269.97,0,0,0,0,0,0,0,0,0,0,0,0,0,3,3,0,0,VALID,0,0,0,0,0,1,0,0,0,0,0,0,0,0,0,0,0,0,0,0,254.67,1101.02,2,0,0.175,0.175,242,5.71,0.175,0.175,35.42,FLYING,X10-F,0:/Integrated Flight Computer/aircraft/x10_f_cfg.ks (inferred preloaded)
35.77,APPROACH,ILS_TRACK,152.08,152,-0.08,394.97,315.19,-8.21,7.12,10.09,270,0.061,0.2356,0,13.309,1,0.6,4.5,0.75,0.35,0.0168,0.4,0,21.867,0,0.084,0,270.03,-3.189,0,1,-3.09,0,0,-3.19,270.02,0.4142,0.0004,0.9102,-3.19,270.03,-0.45,0.41,6.122,0.025,-0.189,1,3,669.18,0.083,-3.189,395.13,0,0,0,,0,0,0,0,0,0,269.97,0,0,0,0,0,0,0,0,0,0,0,0,0,3,3,0,0,VALID,0,0,0,0,0,1,0,0,0,0,0,0,0,0,0,0,0,0,0,0,254.89,1101.18,2,0,0.175,0.175,244,5.71,0.175,0.175,35.77,FLYING,X10-F,0:/Integrated Flight Computer/aircraft/x10_f_cfg.ks (inferred preloaded)
36.12,APPROACH,ILS_TRACK,152.06,152,-0.06,392.09,312.32,-8.21,7.12,10.09,270,0.064,0.2374,0,13.285,1,0.6,4.5,0.75,0.35,0.0168,0.4,0,21.873,0,0.064,0,270.03,-3.186,0,1,-3.09,0,0,-3.19,270.02,0.4142,0.0004,0.9102,-3.19,270.03,-0.46,0.43,6.067,0.027,-0.186,1,3,669.18,0.071,-3.186,392.24,0,0,0,,0,0,0,0,0,0,269.97,0,0,0,0,0,0,0,0,0,0,0,0,0,3,3,0,0,VALID,0,0,0,0,0,1,0,0,0,0,0,0,0,0,0,0,0,0,0,0,255.26,1101.33,2,0,0.175,0.175,246,5.71,0.175,0.175,36.12,FLYING,X10-F,0:/Integrated Flight Computer/aircraft/x10_f_cfg.ks (inferred preloaded)
36.47,APPROACH,ILS_TRACK,152.04,152,-0.04,389.22,309.44,-8.22,7.12,10.1,270,0.063,0.2384,0,13.267,1,0.6,4.5,0.75,0.35,0.0168,0.4,0,21.878,0,0.045,0,270.03,-3.185,0,1,-3.09,0,0,-3.18,270.03,0.4143,0.0004,0.9101,-3.19,270.03,-0.47,0.45,6.011,0.026,-0.185,1,3,669.18,0.061,-3.185,389.34,0,0,0,,0,0,0,0,0,0,269.97,0,0,0,0,0,0,0,0,0,0,0,0,0,3,3,0,0,VALID,0,0,0,0,0,1,0,0,0,0,0,0,0,0,0,0,0,0,0,0,255.73,1101.49,2,0,0.175,0.175,248,5.71,0.175,0.175,36.47,FLYING,X10-F,0:/Integrated Flight Computer/aircraft/x10_f_cfg.ks (inferred preloaded)
36.82,APPROACH,ILS_TRACK,152.03,152,-0.03,386.34,306.56,-8.22,7.12,10.11,270,0.066,0.2389,0,13.256,1,0.6,4.5,0.75,0.35,0.0168,0.4,0,21.883,0,0.028,0,270.03,-3.185,0,1,-3.1,0,0,-3.18,270.03,0.4144,0.0004,0.9101,-3.19,270.03,-0.48,0.47,5.956,0.027,-0.185,1,3,669.18,0.053,-3.185,386.44,0,0,0,,0,0,0,0,0,0,269.97,0,0,0,0,0,0,0,0,0,0,0,0,0,3,3,0,0,VALID,0,0,0,0,0,1,0,0,0,0,0,0,0,0,0,0,0,0,0,0,256.24,1101.66,2,0,0.175,0.175,250,5.71,0.175,0.175,36.82,FLYING,X10-F,0:/Integrated Flight Computer/aircraft/x10_f_cfg.ks (inferred preloaded)
37.17,APPROACH,ILS_TRACK,152.01,152,-0.01,383.46,303.68,-8.23,7.13,10.11,270,0.068,0.239,0,13.251,1,0.6,4.5,0.75,0.35,0.0168,0.4,0,21.888,0,0.012,0,270.03,-3.183,0,1,-3.1,0,0,-3.18,270.03,0.4144,0.0004,0.9101,-3.18,270.03,-0.49,0.49,5.901,0.027,-0.183,1,3,669.18,0.044,-3.183,383.55,0,0,0,,0,0,0,0,0,0,269.97,0,0,0,0,0,0,0,0,0,0,0,0,0,3,3,0,0,VALID,0,0,0,0,0,1,0,0,0,0,0,0,0,0,0,0,0,0,0,0,256.75,1101.83,2,0,0.175,0.175,252,5.71,0.175,0.175,37.17,FLYING,X10-F,0:/Integrated Flight Computer/aircraft/x10_f_cfg.ks (inferred preloaded)
37.52,APPROACH,ILS_TRACK,152,152,0,380.58,300.8,-8.23,7.13,10.12,270,0.069,0.2388,0,13.25,1,0.6,4.5,0.75,0.35,0.0168,0.4,0,21.891,0,-0.002,0,270.03,-3.181,0,1,-3.1,0,0,-3.18,270.03,0.4145,0.0004,0.9101,-3.18,270.03,-0.5,0.5,5.846,0.028,-0.181,1,3,669.18,0.038,-3.181,380.65,0,0,0,,0,0,0,0,0,0,269.97,0,0,0,0,0,0,0,0,0,0,0,0,0,3,3,0,0,VALID,0,0,0,0,0,1,0,0,0,0,0,0,0,0,0,0,0,0,0,0,257.24,1102.02,2,0,0.175,0.175,254,5.71,0.175,0.175,37.52,FLYING,X10-F,0:/Integrated Flight Computer/aircraft/x10_f_cfg.ks (inferred preloaded)
37.87,APPROACH,ILS_TRACK,151.98,152,0.02,377.7,297.92,-8.24,7.13,10.12,270,0.07,0.2384,0,13.254,1,0.6,4.5,0.75,0.35,0.0168,0.4,0,21.895,0,-0.014,0,270.03,-3.179,0,1,-3.1,0,0,-3.18,270.03,0.4145,0.0004,0.91,-3.18,270.03,-0.51,0.51,5.791,0.028,-0.179,1,3,669.18,0.03,-3.179,377.76,0,0,0,,0,0,0,0,0,0,269.97,0,0,0,0,0,0,0,0,0,0,0,0,0,3,3,0,0,VALID,0,0,0,0,0,1,0,0,0,0,0,0,0,0,0,0,0,0,0,0,257.68,1102.2,2,0,0.175,0.175,256,5.71,0.175,0.175,37.87,FLYING,X10-F,0:/Integrated Flight Computer/aircraft/x10_f_cfg.ks (inferred preloaded)
38.22,APPROACH,ILS_TRACK,151.97,152,0.03,374.82,295.03,-8.24,7.13,10.12,270,0.071,0.2378,0,13.262,1,0.6,4.5,0.75,0.35,0.0168,0.4,0,21.898,0,-0.025,0,270.03,-3.177,0,1,-3.1,0,0,-3.18,270.03,0.4146,0.0004,0.91,-3.18,270.03,-0.52,0.52,5.735,0.028,-0.177,1,3,669.18,0.025,-3.177,374.87,0,0,0,,0,0,0,0,0,0,269.97,0,0,0,0,0,0,0,0,0,0,0,0,0,3,3,0,0,VALID,0,0,0,0,0,1,0,0,0,0,0,0,0,0,0,0,0,0,0,0,258.06,1102.4,2,0,0.175,0.175,258,5.71,0.175,0.175,38.22,FLYING,X10-F,0:/Integrated Flight Computer/aircraft/x10_f_cfg.ks (inferred preloaded)
38.57,APPROACH,ILS_TRACK,151.96,152,0.04,371.93,292.15,-8.24,7.13,10.12,270,0.072,0.2372,0,13.273,1,0.6,4.5,0.75,0.35,0.0168,0.4,0,21.901,0,-0.034,0,270.03,-3.175,0,1,-3.1,0,0,-3.17,270.03,0.4146,0.0005,0.91,-3.18,270.03,-0.53,0.53,5.68,0.03,-0.175,1,3,669.18,0.019,-3.175,371.98,0,0,0,,0,0,0,0,0,0,269.97,0,0,0,0,0,0,0,0,0,0,0,0,0,3,3,0,0,VALID,0,0,0,0,0,1,0,0,0,0,0,0,0,0,0,0,0,0,0,0,258.38,1102.6,2,0,0.175,0.175,260,5.71,0.175,0.175,38.57,FLYING,X10-F,0:/Integrated Flight Computer/aircraft/x10_f_cfg.ks (inferred preloaded)
