t_s,phase,subphase,ias_ms,vapp_ms,spd_err_ms,agl_m,vs_ms,pitch_deg,aoa_deg,hdg_deg,bank_deg,thr_cmd,thr_intg,aa_hdg_cmd_deg,aa_fpa_cmd_deg,ils_loc_m,ils_gs_m,ils_dist_km,loc_corr_deg,gs_corr_deg,flare_fpa_cmd,flare_tgt_vs,flare_frac,steer_hdg_deg,steer_blend,ro_loc_corr_deg,ro_hdg_err_deg,ro_yaw_tgt,ro_yaw_scale,ro_yaw_gate,yaw_cmd,roll_cmd,pitch_cmd,ro_pitch_tgt_deg,ro_pitch_err_deg,ro_pitch_ff,ro_roll_assist,flaps_cur,flaps_tgt,phase_el_s,status
0.18,TAKEOFF,TO_PREFLIGHT,0.25,80,79.75,4.48,-0.03,2.93,8.94,89.92,-0.047,0,0,0,0,0,0,0,0,0,0,0,0,89.93,0,0,0,0,0,0,0,0,0,0,0,0,0,0,1,0.22,LANDED
0.34,TAKEOFF,TO_PREFLIGHT,0.25,80,79.75,4.61,-0.03,3.39,10.08,89.9,-0.047,0,0,0,0,0,0,0,0,0,0,0,0,89.93,0,0,0,0,0,0,0,0,0,0,0,0,0,0,1,0.36,LANDED
0.5,TAKEOFF,TO_PREFLIGHT,0.21,80,79.79,4.73,-0.03,3.81,13.48,89.89,-0.048,0,0,0,0,0,0,0,0,0,0,0,0,89.93,0,0,0,0,0,0,0,0,0,0,0,0,0,1,1,0.54,LANDED
0.66,TAKEOFF,TO_PREFLIGHT,0.13,80,79.87,4.81,-0.02,4.11,39.2,89.88,-0.046,0,0,0,0,0,0,0,0,0,0,0,0,89.93,0,0,0,0,0,0,0,0,0,0,0,0,0,1,1,0.68,LANDED
0.82,TAKEOFF,TO_PREFLIGHT,0.03,80,79.97,4.86,-0.01,4.28,0.1,89.86,-0.045,0,0,0,0,0,0,0,0,0,0,0,0,89.93,0,0,0,0,0,0,0,0,0,0,0,0,0,1,1,0.84,LANDED
0.98,TAKEOFF,TO_PREFLIGHT,0.1,80,79.9,4.89,0,4.39,-3.17,89.85,-0.044,0,0,0,0,0,0,0,0,0,0,0,0,89.93,0,0,0,0,0,0,0,0,0,0,0,0,0,1,1,1,LANDED
1.16,TAKEOFF,TO_PREFLIGHT,0.04,80,79.96,4.92,-0.01,4.48,11.59,89.85,-0.048,0,0,0,0,0,0,0,0,0,0,0,0,89.93,0,0,0,0,0,0,0,0,0,0,0,0,0,1,1,1.18,LANDED
1.32,TAKEOFF,TO_PREFLIGHT,0.02,80,79.98,4.92,0,4.5,12.37,89.84,-0.05,0,0,0,0,0,0,0,0,0,0,0,0,89.93,0,0,0,0,0,0,0,0,0,0,0,0,0,1,1,1.34,LANDED
1.48,TAKEOFF,TO_PREFLIGHT,0.02,80,79.98,4.91,0,4.47,-59.41,89.84,-0.047,0,0,0,0,0,0,0,0,0,0,0,0,89.93,0,0,0,0,0,0,0,0,0,0,0,0,0,1,1,1.5,LANDED
1.64,TAKEOFF,TO_PREFLIGHT,0.01,80,79.99,4.89,0.01,4.4,-14.17,89.83,-0.047,0,0,0,0,0,0,0,0,0,0,0,0,89.93,0,0,0,0,0,0,0,0,0,0,0,0,0,1,1,1.66,LANDED
1.8,TAKEOFF,TO_PREFLIGHT,0.03,80,79.97,4.86,0.01,4.29,-5.83,89.82,-0.048,0,0,0,0,0,0,0,0,0,0,0,0,89.93,0,0,0,0,0,0,0,0,0,0,0,0,0,1,1,1.82,LANDED
1.96,TAKEOFF,TO_PREFLIGHT,0.05,80,79.95,4.82,0.01,4.13,-4.82,89.82,-0.048,0,0,0,0,0,0,0,0,0,0,0,0,89.93,0,0,0,0,0,0,0,0,0,0,0,0,0,1,1,1.98,LANDED
2.12,TAKEOFF,TO_GROUND_ROLL,0.06,80,79.94,4.76,0.01,3.94,-6.35,89.81,-0.046,0,0,0,0,0,0,0,0,0,0,0,0,89.93,0,0,0,0,0,0,0,0,0,0,0,0,0,1,1,2.16,LANDED
2.32,TAKEOFF,TO_GROUND_ROLL,0.08,80,79.92,4.69,0.01,3.66,-6.57,89.8,-0.047,0.08,0,0,0,0,0,0,0,0,0,0,0,89.93,0,0,0,0,0,0,0,0,0,0,0,0,0,1,1,2.36,LANDED
2.48,TAKEOFF,TO_GROUND_ROLL,0.08,80,79.92,4.62,0.01,3.41,-6.33,89.8,-0.047,0.144,0,0,0,0,0,0,0,0,0,0,0,89.93,0,0,0,0,0,0,0,0,0,0,0,0,0,1,1,2.52,LANDED
2.64,TAKEOFF,TO_GROUND_ROLL,0.09,80,79.91,4.54,0.02,3.15,-6.58,89.79,-0.045,0.208,0,0,0,0,0,0,0,0,0,0,0,89.93,0,0,0,0,0,0,0,0,0,0,0,0,0,1,1,2.68,LANDED
2.8,TAKEOFF,TO_GROUND_ROLL,0.09,80,79.91,4.47,0.02,2.89,-6.4,89.79,-0.045,0.272,0,0,0,0,0,0,0,0,0,0,0,89.93,0,0,0,0,0,0,0,0,0,0,0,0,0,1,1,2.84,LANDED
2.96,TAKEOFF,TO_GROUND_ROLL,0.09,80,79.91,4.4,0.01,2.64,-5.56,89.78,-0.045,0.336,0,0,0,0,0,0,0,0,0,0,0,89.93,0,0,0,0,0,0,0,0,0,0,0,0,0,1,1,3,LANDED
3.12,TAKEOFF,TO_GROUND_ROLL,0.09,80,79.91,4.33,0.01,2.41,-4.54,89.77,-0.045,0.4,0,0,0,0,0,0,0,0,0,0,0,89.93,0,0,0,0,0,0,0,0,0,0,0,0,0,1,1,3.16,LANDED
3.28,TAKEOFF,TO_GROUND_ROLL,0.1,80,79.9,4.27,0.01,2.2,-3.59,89.77,-0.045,0.464,0,0,0,0,0,0,0,0,0,0,0,89.93,0,0,0,0,0,0,0,0,0,0,0,0,0,1,1,3.32,LANDED
3.48,TAKEOFF,TO_GROUND_ROLL,0.1,80,79.9,4.21,0.01,1.99,-2.09,89.76,-0.045,0.544,0,0,0,0,0,0,0,0,0,0,0,89.93,0,0,0,0,0,0,0,0,0,0,0,0,0,1,1,3.52,LANDED
3.64,TAKEOFF,TO_GROUND_ROLL,0.1,80,79.9,4.18,0.01,1.86,-0.81,89.75,-0.045,0.608,0,0,0,0,0,0,0,0,0,0,0,89.93,0,0,0,0,0,0,0,0,0,0,0,0,0,1,1,3.68,LANDED
3.8,TAKEOFF,TO_GROUND_ROLL,0.11,80,79.89,4.16,0,1.79,0.36,89.74,-0.045,0.672,0,0,0,0,0,0,0,0,0,0,0,89.93,0,0,0,0,0,0,0,0,0,0,0,0,0,1,1,3.84,LANDED
3.96,TAKEOFF,TO_GROUND_ROLL,0.11,80,79.89,4.15,0,1.76,1.44,89.74,-0.045,0.736,0,0,0,0,0,0,0,0,0,0,0,89.93,0,0,0,0,0,0,0,0,0,0,0,0,0,1,1,4,LANDED
4.12,TAKEOFF,TO_GROUND_ROLL,0.11,80,79.89,4.15,0,1.78,2.66,89.73,-0.045,0.8,0,0,0,0,0,0,0,0,0,0,0,89.93,0,0,0,0,0,0,0,0,0,0,0,0,0,1,1,4.16,LANDED
4.28,TAKEOFF,TO_GROUND_ROLL,0.12,80,79.88,4.17,0,1.85,3.86,89.72,-0.045,0.864,0,0,0,0,0,0,0,0,0,0,0,89.93,0,0,0,0,0,0,0,0,0,0,0,0,0,1,1,4.32,LANDED
4.44,TAKEOFF,TO_GROUND_ROLL,0.12,80,79.88,4.21,-0.01,1.96,4.92,89.71,-0.045,0.928,0,0,0,0,0,0,0,0,0,0,0,89.93,0,0,0,0,0,0,0,0,0,0,0,0,0,1,1,4.48,LANDED
4.64,TAKEOFF,TO_GROUND_ROLL,0.12,80,79.88,4.26,-0.01,2.15,6.14,89.7,-0.045,1,0,0,0,0,0,0,0,0,0,0,0,89.93,0,0,0,0,0,0,0,0,0,0,0,0,0,1,1,4.68,LANDED
4.8,TAKEOFF,TO_GROUND_ROLL,0.13,80,79.87,4.31,-0.01,2.34,7.03,89.69,-0.045,1,0,0,0,0,0,0,0,0,0,0,0,89.93,0,0,0,0,0,0,0,0,0,0,0,0,0,1,1,4.84,LANDED
4.96,TAKEOFF,TO_GROUND_ROLL,0.13,80,79.87,4.38,-0.01,2.56,7.76,89.69,-0.045,1,0,0,0,0,0,0,0,0,0,0,0,89.93,0,0,0,0,0,0,0,0,0,0,0,0,0,1,1,5,LANDED
5.12,TAKEOFF,TO_GROUND_ROLL,0.13,80,79.87,4.44,-0.01,2.79,8.15,89.68,-0.045,1,0,0,0,0,0,0,0,0,0,0,0,89.93,0,0,0,0,0,0,0,0,0,0,0,0,0,1,1,5.16,LANDED
5.28,TAKEOFF,TO_GROUND_ROLL,0.14,80,79.86,4.51,-0.01,3.02,8.6,89.67,-0.045,1,0,0,0,0,0,0,0,0,0,0,0,89.93,0,0,0,0,0,0,0,0,0,0,0,0,0,1,1,5.32,LANDED
5.44,TAKEOFF,TO_GROUND_ROLL,0.14,80,79.86,4.57,-0.01,3.25,8.72,89.66,-0.046,1,0,0,0,0,0,0,0,0,0,0,0,89.93,0,0,0,0,0,0,0,0,0,0,0,0,0,1,1,5.48,LANDED
5.6,TAKEOFF,TO_GROUND_ROLL,0.14,80,79.86,4.63,-0.01,3.47,8.72,89.65,-0.046,1,0,0,0,0,0,0,0,0,0,0,0,89.93,0,0,0,0,0,0,0,0,0,0,0,0,0,1,1,5.64,LANDED
5.8,TAKEOFF,TO_GROUND_ROLL,0.15,80,79.85,4.7,-0.01,3.71,8.19,89.63,-0.046,1,0,0,0,0,0,0,0,0,0,0,0,89.93,0,0,0,0,0,0,0,0,0,0,0,0,0,1,1,5.84,LANDED
5.96,TAKEOFF,TO_GROUND_ROLL,0.15,80,79.85,4.75,-0.01,3.87,7.61,89.62,-0.046,1,0,0,0,0,0,0,0,0,0,0,0,89.93,0,0,0,0,0,0,0,0,0,0,0,0,0,1,1,6,LANDED
6.12,TAKEOFF,TO_GROUND_ROLL,0.15,80,79.85,4.78,-0.01,4,6.83,89.61,-0.046,1,0,0,0,0,0,0,0,0,0,0,0,89.93,0,0,0,0,0,0,0,0,0,0,0,0,0,1,1,6.16,LANDED
6.28,TAKEOFF,TO_GROUND_ROLL,0.16,80,79.84,4.81,-0.01,4.09,6.02,89.6,-0.046,1,0,0,0,0,0,0,0,0,0,0,0,89.93,0,0,0,0,0,0,0,0,0,0,0,0,0,1,1,6.32,LANDED
6.44,TAKEOFF,TO_GROUND_ROLL,0.16,80,79.84,4.82,0,4.13,5.01,89.59,-0.046,1,0,0,0,0,0,0,0,0,0,0,0,89.93,0,0,0,0,0,0,0,0,0,0,0,0,0,1,1,6.48,LANDED
6.6,TAKEOFF,TO_GROUND_ROLL,0.16,80,79.84,4.82,0,4.13,3.92,89.58,-0.046,1,0,0,0,0,0,0,0,0,0,0,0,89.93,0,0,0,0,0,0,0,0,0,0,0,0,0,1,1,6.64,LANDED
6.76,TAKEOFF,TO_GROUND_ROLL,0.17,80,79.83,4.81,0,4.09,3,89.57,-0.046,1,0,0,0,0,0,0,0,0,0,0,0,89.93,0,0,0,0,0,0,0,0,0,0,0,0,0,1,1,6.8,LANDED
6.96,TAKEOFF,TO_GROUND_ROLL,0.17,80,79.83,4.78,0.01,3.98,1.91,89.55,-0.046,1,0,0,0,0,0,0,0,0,0,0,0,89.93,0,0,0,0,0,0,0,0,0,0,0,0,0,1,1,7,LANDED
7.12,TAKEOFF,TO_GROUND_ROLL,0.17,80,79.83,4.74,0.01,3.85,1.07,89.54,-0.046,1,0,0,0,0,0,0,0,0,0,0,0,89.93,0,0,0,0,0,0,0,0,0,0,0,0,0,1,1,7.16,LANDED
7.28,TAKEOFF,TO_GROUND_ROLL,0.18,80,79.82,4.69,0.01,3.69,0.52,89.52,-0.046,1,0,0,0,0,0,0,0,0,0,0,0,89.93,0,0,0,0,0,0,0,0,0,0,0,0,0,1,1,7.32,LANDED
7.44,TAKEOFF,TO_GROUND_ROLL,0.18,80,79.82,4.64,0.01,3.51,0.06,89.51,-0.046,1,0,0,0,0,0,0,0,0,0,0,0,89.93,0,0,0,0,0,0,0,0,0,0,0,0,0,1,1,7.48,LANDED
7.6,TAKEOFF,TO_GROUND_ROLL,0.18,80,79.82,4.59,0.01,3.31,-0.21,89.5,-0.046,1,0,0,0,0,0,0,0,0,0,0,0,89.93,0,0,0,0,0,0,0,0,0,0,0,0,0,1,1,7.64,LANDED
7.76,TAKEOFF,TO_GROUND_ROLL,0.19,80,79.81,4.53,0.01,3.1,-0.43,89.48,-0.046,1,0,0,0,0,0,0,0,0,0,0,0,89.93,0,0,0,0,0,0,0,0,0,0,0,0,0,1,1,7.8,LANDED
7.92,TAKEOFF,TO_GROUND_ROLL,0.19,80,79.81,4.47,0.01,2.89,-0.46,89.47,-0.046,1,0,0,0,0,0,0,0,0,0,0,0,89.93,0,0,0,0,0,0,0,0,0,0,0,0,0,1,1,7.96,LANDED
8.12,TAKEOFF,TO_GROUND_ROLL,0.19,80,79.81,4.4,0.01,2.64,-0.26,89.45,-0.046,1,0,0,0,0,0,0,0,0,0,0,0,89.93,0,0,0,0,0,0,0,0,0,0,0,0,0,1,1,8.16,LANDED
8.28,TAKEOFF,TO_GROUND_ROLL,0.2,80,79.8,4.35,0.01,2.46,0.03,89.44,-0.045,1,0,0,0,0,0,0,0,0,0,0,0,89.93,0,0,0,0,0,0,0,0,0,0,0,0,0,1,1,8.32,LANDED
8.44,TAKEOFF,TO_GROUND_ROLL,0.2,80,79.8,4.3,0.01,2.3,0.27,89.42,-0.046,1,0,0,0,0,0,0,0,0,0,0,0,89.93,0,0,0,0,0,0,0,0,0,0,0,0,0,1,1,8.48,LANDED
8.6,TAKEOFF,TO_GROUND_ROLL,0.2,80,79.8,4.27,0.01,2.18,0.61,89.41,-0.046,1,0,0,0,0,0,0,0,0,0,0,0,89.93,0,0,0,0,0,0,0,0,0,0,0,0,0,1,1,8.64,LANDED
8.76,TAKEOFF,TO_GROUND_ROLL,0.21,80,79.79,4.24,0,2.08,1.03,89.39,-0.046,1,0,0,0,0,0,0,0,0,0,0,0,89.93,0,0,0,0,0,0,0,0,0,0,0,0,0,1,1,8.8,LANDED
8.92,TAKEOFF,TO_GROUND_ROLL,0.21,80,79.79,4.22,0,2.03,1.59,89.37,-0.046,1,0,0,0,0,0,0,0,0,0,0,0,89.93,0,0,0,0,0,0,0,0,0,0,0,0,0,1,1,8.96,LANDED
9.08,TAKEOFF,TO_GROUND_ROLL,0.21,80,79.79,4.22,0,2.01,2.11,89.36,-0.046,1,0,0,0,0,0,0,0,0,0,0,0,89.93,0,0,0,0,0,0,0,0,0,0,0,0,0,1,1,9.12,LANDED
9.28,TAKEOFF,TO_GROUND_ROLL,0.22,80,79.78,4.23,0,2.04,2.68,89.34,-0.046,1,0,0,0,0,0,0,0,0,0,0,0,89.93,0,0,0,0,0,0,0,0,0,0,0,0,0,1,1,9.32,LANDED
9.44,TAKEOFF,TO_GROUND_ROLL,0.22,80,79.78,4.25,0,2.11,3.15,89.32,-0.046,1,0,0,0,0,0,0,0,0,0,0,0,89.93,0,0,0,0,0,0,0,0,0,0,0,0,0,1,1,9.48,LANDED
9.6,TAKEOFF,TO_GROUND_ROLL,0.22,80,79.78,4.28,-0.01,2.21,3.84,89.3,-0.046,1,0,0,0,0,0,0,0,0,0,0,0,89.93,0,0,0,0,0,0,0,0,0,0,0,0,0,1,1,9.64,LANDED
9.76,TAKEOFF,TO_GROUND_ROLL,0.23,80,79.77,4.31,-0.01,2.35,4.36,89.29,-0.046,1,0,0,0,0,0,0,0,0,0,0,0,89.93,0,0,0,0,0,0,0,0,0,0,0,0,0,1,1,9.8,LANDED
9.92,TAKEOFF,TO_GROUND_ROLL,0.23,80,79.77,4.36,-0.01,2.5,4.72,89.27,-0.045,1,0,0,0,0,0,0,0,0,0,0,0,89.93,0,0,0,0,0,0,0,0,0,0,0,0,0,1,1,9.96,LANDED
10.08,TAKEOFF,TO_GROUND_ROLL,0.23,80,79.77,4.41,-0.01,2.67,5.11,89.25,-0.046,1,0,0,0,0,0,0,0,0,0,0,0,89.93,0,0,0,0,0,0,0,0,0,0,0,0,0,1,1,10.12,LANDED
10.24,TAKEOFF,TO_GROUND_ROLL,0.24,80,79.76,4.46,-0.01,2.86,5.49,89.23,-0.046,1,0,0,0,0,0,0,0,0,0,0,0,89.93,0,0,0,0,0,0,0,0,0,0,0,0,0,1,1,10.28,LANDED
10.44,TAKEOFF,TO_GROUND_ROLL,0.24,80,79.76,4.53,-0.01,3.09,5.76,89.21,-0.047,1,0,0,0,0,0,0,0,0,0,0,0,89.93,0,0,0,0,0,0,0,0,0,0,0,0,0,1,1,10.48,LANDED
10.6,TAKEOFF,TO_GROUND_ROLL,0.24,80,79.76,4.58,-0.01,3.27,5.81,89.19,-0.047,1,0,0,0,0,0,0,0,0,0,0,0,89.93,0,0,0,0,0,0,0,0,0,0,0,0,0,1,1,10.64,LANDED
10.76,TAKEOFF,TO_GROUND_ROLL,0.25,80,79.75,4.62,-0.01,3.44,5.82,89.17,-0.047,1,0,0,0,0,0,0,0,0,0,0,0,89.93,0,0,0,0,0,0,0,0,0,0,0,0,0,1,1,10.8,LANDED
10.92,TAKEOFF,TO_GROUND_ROLL,0.25,80,79.75,4.67,-0.01,3.59,5.71,89.15,-0.047,1,0,0,0,0,0,0,0,0,0,0,0,89.93,0,0,0,0,0,0,0,0,0,0,0,0,0,1,1,10.96,LANDED
11.08,TAKEOFF,TO_GROUND_ROLL,0.25,80,79.75,4.7,-0.01,3.72,5.5,89.13,-0.047,1,0,0,0,0,0,0,0,0,0,0,0,89.93,0,0,0,0,0,0,0,0,0,0,0,0,0,1,1,11.12,LANDED
11.24,TAKEOFF,TO_GROUND_ROLL,0.26,80,79.74,4.73,-0.01,3.82,5.22,89.11,-0.047,1,0,0,0,0,0,0,0,0,0,0,0,89.93,0,0,0,0,0,0,0,0,0,0,0,0,0,1,1,11.28,LANDED
11.4,TAKEOFF,TO_GROUND_ROLL,0.26,80,79.74,4.75,0,3.88,4.75,89.09,-0.047,1,0,0,0,0,0,0,0,0,0,0,0,89.93,0,0,0,0,0,0,0,0,0,0,0,0,0,1,1,11.44,LANDED
11.6,TAKEOFF,TO_GROUND_ROLL,0.26,80,79.74,4.76,0,3.91,4.17,89.07,-0.047,1,0,0,0,0,0,0,0,0,0,0,0,89.93,0,0,0,0,0,0,0,0,0,0,0,0,0,1,1,11.64,LANDED
11.76,TAKEOFF,TO_GROUND_ROLL,0.27,80,79.73,4.75,0,3.9,3.71,89.05,-0.047,1,0,0,0,0,0,0,0,0,0,0,0,89.93,0,0,0,0,0,0,0,0,0,0,0,0,0,1,1,11.8,LANDED
11.92,TAKEOFF,TO_GROUND_ROLL,0.27,80,79.73,4.74,0,3.85,3.21,89.02,-0.048,1,0,0,0,0,0,0,0,0,0,0,0,89.93,0,0,0,0,0,0,0,0,0,0,0,0,0,1,1,11.96,LANDED
12.08,TAKEOFF,TO_GROUND_ROLL,0.27,80,79.73,4.72,0,3.77,2.81,89,-0.048,1,0,0,0,0,0,0,0,0,0,0,0,89.93,0,0,0,0,0,0,0,0,0,0,0,0,0,1,1,12.12,LANDED
12.24,TAKEOFF,TO_GROUND_ROLL,0.28,80,79.72,4.69,0.01,3.67,2.38,88.98,-0.048,1,0,0,0,0,0,0,0,0,0,0,0,89.93,0,0,0,0,0,0,0,0,0,0,0,0,0,1,1,12.28,LANDED
12.4,TAKEOFF,TO_GROUND_ROLL,0.28,80,79.72,4.65,0.01,3.54,2.01,88.96,-0.048,1,0,0,0,0,0,0,0,0,0,0,0,89.93,0,0,0,0,0,0,0,0,0,0,0,0,0,1,1,12.44,LANDED
12.56,TAKEOFF,TO_GROUND_ROLL,0.28,80,79.72,4.61,0.01,3.39,1.66,88.94,-0.048,1,0,0,0,0,0,0,0,0,0,0,0,89.93,0,0,0,0,0,0,0,0,0,0,0,0,0,1,1,12.6,LANDED
12.76,TAKEOFF,TO_GROUND_ROLL,0.29,80,79.71,4.55,0.01,3.18,1.42,88.91,-0.047,1,0,0,0,0,0,0,0,0,0,0,0,89.93,0,0,0,0,0,0,0,0,0,0,0,0,0,1,1,12.8,LANDED
12.92,TAKEOFF,TO_GROUND_ROLL,0.29,80,79.71,4.5,0.01,3.02,1.3,88.88,-0.048,1,0,0,0,0,0,0,0,0,0,0,0,89.93,0,0,0,0,0,0,0,0,0,0,0,0,0,1,1,12.96,LANDED
13.08,TAKEOFF,TO_GROUND_ROLL,0.29,80,79.71,4.46,0.01,2.85,1.2,88.86,-0.047,1,0,0,0,0,0,0,0,0,0,0,0,89.93,0,0,0,0,0,0,0,0,0,0,0,0,0,1,1,13.12,LANDED
13.24,TAKEOFF,TO_GROUND_ROLL,0.3,80,79.7,4.41,0.01,2.7,1.23,88.84,-0.047,1,0,0,0,0,0,0,0,0,0,0,0,89.93,0,0,0,0,0,0,0,0,0,0,0,0,0,1,1,13.28,LANDED
13.4,TAKEOFF,TO_GROUND_ROLL,0.3,80,79.7,4.37,0.01,2.55,1.29,88.81,-0.047,1,0,0,0,0,0,0,0,0,0,0,0,89.93,0,0,0,0,0,0,0,0,0,0,0,0,0,1,1,13.44,LANDED
13.56,TAKEOFF,TO_GROUND_ROLL,0.3,80,79.7,4.34,0.01,2.43,1.43,88.79,-0.047,1,0,0,0,0,0,0,0,0,0,0,0,89.93,0,0,0,0,0,0,0,0,0,0,0,0,0,1,1,13.6,LANDED
13.76,TAKEOFF,TO_GROUND_ROLL,0.31,80,79.69,4.31,0,2.31,1.6,88.76,-0.047,1,0,0,0,0,0,0,0,0,0,0,0,89.93,0,0,0,0,0,0,0,0,0,0,0,0,0,1,1,13.8,LANDED
13.92,TAKEOFF,TO_GROUND_ROLL,0.31,80,79.69,4.29,0,2.25,1.86,88.73,-0.047,1,0,0,0,0,0,0,0,0,0,0,0,89.93,0,0,0,0,0,0,0,0,0,0,0,0,0,1,1,13.96,LANDED
14.08,TAKEOFF,TO_GROUND_ROLL,0.31,80,79.69,4.28,0,2.22,2.13,88.71,-0.047,1,0,0,0,0,0,0,0,0,0,0,0,89.93,0,0,0,0,0,0,0,0,0,0,0,0,0,1,1,14.12,LANDED
14.24,TAKEOFF,TO_GROUND_ROLL,0.32,80,79.68,4.28,0,2.22,2.42,88.68,-0.047,1,0,0,0,0,0,0,0,0,0,0,0,89.93,0,0,0,0,0,0,0,0,0,0,0,0,0,1,1,14.28,LANDED
14.4,TAKEOFF,TO_GROUND_ROLL,0.32,80,79.68,4.29,0,2.24,2.67,88.66,-0.047,1,0,0,0,0,0,0,0,0,0,0,0,89.93,0,0,0,0,0,0,0,0,0,0,0,0,0,1,1,14.44,LANDED
14.56,TAKEOFF,TO_GROUND_ROLL,0.32,80,79.68,4.3,0,2.3,3.02,88.63,-0.047,1,0,0,0,0,0,0,0,0,0,0,0,89.93,0,0,0,0,0,0,0,0,0,0,0,0,0,1,1,14.6,LANDED
14.76,TAKEOFF,TO_GROUND_ROLL,0.33,80,79.67,4.33,-0.01,2.41,3.45,88.6,-0.047,1,0,0,0,0,0,0,0,0,0,0,0,89.93,0,0,0,0,0,0,0,0,0,0,0,0,0,1,1,14.8,LANDED
14.92,TAKEOFF,TO_GROUND_ROLL,0.33,80,79.67,4.37,-0.01,2.53,3.74,88.57,-0.047,1,0,0,0,0,0,0,0,0,0,0,0,89.93,0,0,0,0,0,0,0,0,0,0,0,0,0,1,1,14.96,LANDED
15.08,TAKEOFF,TO_GROUND_ROLL,0.33,80,79.67,4.4,-0.01,2.66,4.02,88.54,-0.048,1,0,0,0,0,0,0,0,0,0,0,0,89.93,0,0,0,0,0,0,0,0,0,0,0,0,0,1,1,15.12,LANDED
15.24,TAKEOFF,TO_GROUND_ROLL,0.34,80,79.66,4.44,-0.01,2.8,4.29,88.52,-0.048,1,0,0,0,0,0,0,0,0,0,0,0,89.93,0,0,0,0,0,0,0,0,0,0,0,0,0,1,1,15.28,LANDED
15.4,TAKEOFF,TO_GROUND_ROLL,0.34,80,79.66,4.49,-0.01,2.95,4.51,88.49,-0.048,1,0,0,0,0,0,0,0,0,0,0,0,89.93,0,0,0,0,0,0,0,0,0,0,0,0,0,1,1,15.44,LANDED
15.56,TAKEOFF,TO_GROUND_ROLL,0.34,80,79.66,4.53,-0.01,3.1,4.65,88.46,-0.048,1,0,0,0,0,0,0,0,0,0,0,0,89.93,0,0,0,0,0,0,0,0,0,0,0,0,0,1,1,15.6,LANDED
15.76,TAKEOFF,TO_GROUND_ROLL,0.35,80,79.65,4.58,-0.01,3.28,4.71,88.43,-0.049,1,0,0,0,0,0,0,0,0,0,0,0,89.93,0,0,0,0,0,0,0,0,0,0,0,0,0,1,1,15.8,LANDED
15.92,TAKEOFF,TO_GROUND_ROLL,0.35,80,79.65,4.61,-0.01,3.41,4.75,88.4,-0.049,1,0,0,0,0,0,0,0,0,0,0,0,89.93,0,0,0,0,0,0,0,0,0,0,0,0,0,1,1,15.96,LANDED
16.08,TAKEOFF,TO_GROUND_ROLL,0.35,80,79.65,4.65,-0.01,3.52,4.69,88.38,-0.049,1,0,0,0,0,0,0,0,0,0,0,0,89.93,0,0,0,0,0,0,0,0,0,0,0,0,0,1,1,16.12,LANDED
16.24,TAKEOFF,TO_GROUND_ROLL,0.36,80,79.64,4.67,-0.01,3.61,4.59,88.36,-0.049,1,0,0,0,0,0,0,0,0,0,0,0,89.93,0,0,0,0,0,0,0,0,0,0,0,0,0,1,1,16.28,LANDED
16.4,TAKEOFF,TO_GROUND_ROLL,0.36,80,79.64,4.69,0,3.68,4.41,88.34,-0.049,1,0,0,0,0,0,0,0,0,0,0,0,89.93,0,0,0,0,0,0,0,0,0,0,0,0,0,1,1,16.44,LANDED
16.56,TAKEOFF,TO_GROUND_ROLL,0.36,80,79.64,4.7,0,3.72,4.15,88.32,-0.049,1,0,0,0,0,0,0,0,0,0,0,0,89.93,0,0,0,0,0,0,0,0,0,0,0,0,0,1,1,16.6,LANDED
16.76,TAKEOFF,TO_GROUND_ROLL,0.37,80,79.63,4.71,0,3.73,3.84,88.3,-0.049,1,0,0,0,0,0,0,0,0,0,0,0,89.93,0,0,0,0,0,0,0,0,0,0,0,0,0,1,1,16.8,LANDED
16.92,TAKEOFF,TO_GROUND_ROLL,0.37,80,79.63,4.7,0,3.71,3.59,88.28,-0.049,1,0,0,0,0,0,0,0,0,0,0,0,89.93,0,0,0,0,0,0,0,0,0,0,0,0,0,1,1,16.96,LANDED
17.08,TAKEOFF,TO_GROUND_ROLL,0.37,80,79.63,4.69,0,3.66,3.28,88.27,-0.049,1,0,0,0,0,0,0,0,0,0,0,0,89.93,0,0,0,0,0,0,0,0,0,0,0,0,0,1,1,17.12,LANDED
17.24,TAKEOFF,TO_GROUND_ROLL,0.38,80,79.62,4.67,0,3.59,2.99,88.25,-0.049,1,0,0,0,0,0,0,0,0,0,0,0,89.93,0,0,0,0,0,0,0,0,0,0,0,0,0,1,1,17.28,LANDED
17.4,TAKEOFF,TO_GROUND_ROLL,0.38,80,79.62,4.64,0.01,3.5,2.74,88.23,-0.049,1,0,0,0,0,0,0,0,0,0,0,0,89.93,0,0,0,0,0,0,0,0,0,0,0,0,0,1,1,17.44,LANDED
17.56,TAKEOFF,TO_GROUND_ROLL,0.38,80,79.62,4.61,0.01,3.39,2.52,88.21,-0.049,1,0,0,0,0,0,0,0,0,0,0,0,89.93,0,0,0,0,0,0,0,0,0,0,0,0,0,1,1,17.6,LANDED
17.76,TAKEOFF,TO_GROUND_ROLL,0.39,80,79.61,4.56,0.01,3.23,2.27,88.19,-0.049,1,0,0,0,0,0,0,0,0,0,0,0,89.93,0,0,0,0,0,0,0,0,0,0,0,0,0,1,1,17.8,LANDED
17.92,TAKEOFF,TO_GROUND_ROLL,0.39,80,79.61,4.53,0.01,3.1,2.1,88.17,-0.049,1,0,0,0,0,0,0,0,0,0,0,0,89.93,0,0,0,0,0,0,0,0,0,0,0,0,0,1,1,17.96,LANDED
18.08,TAKEOFF,TO_GROUND_ROLL,0.39,80,79.61,4.49,0.01,2.97,2.03,88.15,-0.049,1,0,0,0,0,0,0,0,0,0,0,0,89.93,0,0,0,0,0,0,0,0,0,0,0,0,0,1,1,18.12,LANDED
18.24,TAKEOFF,TO_GROUND_ROLL,0.4,80,79.6,4.45,0.01,2.84,1.95,88.13,-0.049,1,0,0,0,0,0,0,0,0,0,0,0,89.93,0,0,0,0,0,0,0,0,0,0,0,0,0,1,1,18.28,LANDED
18.4,TAKEOFF,TO_GROUND_ROLL,0.4,80,79.6,4.42,0.01,2.71,1.91,88.11,-0.049,1,0,0,0,0,0,0,0,0,0,0,0,89.93,0,0,0,0,0,0,0,0,0,0,0,0,0,1,1,18.44,LANDED
18.56,TAKEOFF,TO_GROUND_ROLL,0.4,80,79.6,4.39,0.01,2.61,1.91,88.09,-0.049,1,0,0,0,0,0,0,0,0,0,0,0,89.93,0,0,0,0,0,0,0,0,0,0,0,0,0,1,1,18.6,LANDED
18.76,TAKEOFF,TO_GROUND_ROLL,0.43,80,79.57,4.36,0,2.5,1.98,88.07,-0.048,1,0,0,0,0,0,0,0,0,0,0,0,89.93,0,0,0,0,0,0,0,0,0,0,0,0,0,1,1,18.8,LANDED
18.92,TAKEOFF,TO_GROUND_ROLL,0.51,80,79.49,4.34,0,2.43,2.16,88.05,-0.049,1,0,0,0,0,0,0,0,0,0,0,0,89.93,0,0,0,0,0,0,0,0,0,0,0,0,0,1,1,18.96,LANDED
19.08,TAKEOFF,TO_GROUND_ROLL,0.62,80,79.38,4.33,0,2.39,2.34,88.03,-0.049,1,0,0,0,0,0,0,0,0,0,0,0,89.93,0,0,0,0,0,0,0,0,0,0,0,0,0,1,1,19.12,LANDED
19.24,TAKEOFF,TO_GROUND_ROLL,0.77,80,79.23,4.32,0,2.38,2.43,88.01,-0.049,1,0,0,0,0,0,0,0,0,0,0,0,89.93,0,0,0,0,0,0,0,0,0,0,0,0,0,1,1,19.28,LANDED
19.4,TAKEOFF,TO_GROUND_ROLL,0.95,80,79.05,4.33,0,2.39,2.52,87.98,-0.049,1,0,0,0,0,0,0,0,0,0,0,0,89.93,0,0,0,0,0,0,0,0,0,0,0,0,0,1,1,19.44,LANDED
19.56,TAKEOFF,TO_GROUND_ROLL,1.18,80,78.82,4.34,0,2.42,2.61,87.96,-0.049,1,0,0,0,0,0,0,0,0,0,0,0,89.93,0,0,0,0,0,0,0,0,0,0,0,0,0,1,1,19.6,LANDED
19.76,TAKEOFF,TO_GROUND_ROLL,1.51,80,78.49,4.36,-0.01,2.5,2.72,87.94,-0.049,1,0,0,0,0,0,0,0,0,0,0,0,89.93,0,0,0,0,0,0,0,0,0,0,0,0,0,1,1,19.8,LANDED
19.92,TAKEOFF,TO_GROUND_ROLL,1.81,80,78.19,4.38,-0.01,2.58,2.82,87.91,-0.05,1,0,0,0,0,0,0,0,0,0,0,0,89.93,0,0,0,0,0,0,0,0,0,0,0,0,0,1,1,19.96,LANDED
20.08,TAKEOFF,TO_GROUND_ROLL,2.14,80,77.86,4.41,-0.01,2.68,2.92,87.89,-0.05,1,0,0,0,0,0,0,0,0,0,0,0,89.93,0,0,0,0,0,0,0,0,0,0,0,0,0,1,1,20.12,LANDED
20.24,TAKEOFF,TO_GROUND_ROLL,2.51,80,77.49,4.44,-0.01,2.79,3.03,87.87,-0.05,1,0,0,0,0,0,0,0,0,0,0,0,89.93,0,0,0,0,0,0,0,0,0,0,0,0,0,1,1,20.28,LANDED
20.4,TAKEOFF,TO_GROUND_ROLL,2.91,80,77.09,4.48,-0.01,2.91,3.14,87.84,-0.05,1,0,0,0,0,0,0,0,0,0,0,0,89.93,0,0,0,0,0,0,0,0,0,0,0,0,0,1,1,20.44,LANDED
20.56,TAKEOFF,TO_GROUND_ROLL,3.33,80,76.67,4.51,-0.01,3.04,3.25,87.82,-0.05,1,0,0,0,0,0,0,0,0,0,0,0,89.93,0,0,0,0,0,0,0,0,0,0,0,0,0,1,1,20.6,LANDED
20.76,TAKEOFF,TO_GROUND_ROLL,3.91,80,76.09,4.55,-0.02,3.19,3.39,87.79,-0.051,1,0,0,0,0,0,0,0,0,0,0,0,89.93,0,0,0,0,0,0,0,0,0,0,0,0,0,1,1,20.8,LANDED
20.92,TAKEOFF,TO_GROUND_ROLL,4.4,80,75.6,4.59,-0.02,3.3,3.48,87.76,-0.051,1,0,0,0,0,0,0,0,0,0,0,0,89.93,0,0,0,0,0,0,0,0,0,0,0,0,0,1,1,20.96,LANDED
21.08,TAKEOFF,TO_GROUND_ROLL,4.92,80,75.08,4.61,-0.02,3.4,3.57,87.74,-0.052,1,0,0,0,0,0,0,0,0,0,0,0,89.93,0,0,0,0,0,0,0,0,0,0,0,0,0,1,1,21.12,LANDED
21.24,TAKEOFF,TO_GROUND_ROLL,5.46,80,74.54,4.64,-0.02,3.48,3.64,87.71,-0.052,1,0,0,0,0,0,0,0,0,0,0,0,89.93,0,0,0,0,0,0,0,0,0,0,0,0,0,1,1,21.28,LANDED
21.4,TAKEOFF,TO_GROUND_ROLL,6.03,80,73.97,4.66,-0.02,3.55,3.69,87.68,-0.052,1,0,0,0,0,0,0,0,0,0,0,0,89.93,0,0,0,0,0,0,0,0,0,0,0,0,0,1,1,21.44,LANDED
21.56,TAKEOFF,TO_GROUND_ROLL,6.62,80,73.38,4.67,-0.02,3.59,3.72,87.66,-0.053,1,0,0,0,0,0,0,0,0,0,0,0,89.93,0,0,0,0,0,0,0,0,0,0,0,0,0,1,1,21.6,LANDED
21.76,TAKEOFF,TO_GROUND_ROLL,7.39,80,72.61,4.67,-0.02,3.61,3.73,87.62,-0.054,1,0,0,0,0,0,0,0,0,0,0,0,89.93,0,0,0,0,0,0,0,0,0,0,0,0,0,1,1,21.8,LANDED
21.92,TAKEOFF,TO_GROUND_ROLL,8.04,80,71.96,4.67,-0.02,3.6,3.71,87.59,-0.054,1,0,0,0,0,0,0,0,0,0,0,0,89.93,0,0,0,0,0,0,0,0,0,0,0,0,0,1,1,21.96,LANDED
22.08,TAKEOFF,TO_GROUND_ROLL,8.7,80,71.3,4.66,-0.02,3.57,3.67,87.56,-0.054,1,0,0,0,0,0,0,0,0,0,0,0,89.93,0,0,0,0,0,0,0,0,0,0,0,0,0,1,1,22.12,LANDED
22.24,TAKEOFF,TO_GROUND_ROLL,9.39,80,70.61,4.65,-0.02,3.52,3.62,87.52,-0.054,1,0,0,0,0,0,0,0,0,0,0,0,89.93,0,0,0,0,0,0,0,0,0,0,0,0,0,1,1,22.28,LANDED
22.4,TAKEOFF,TO_GROUND_ROLL,10.1,80,69.9,4.63,-0.02,3.45,3.54,87.49,-0.055,1,0,0,0,0,0,0,0,0,0,0,0,89.93,0,0,0,0,0,0,0,0,0,0,0,0,0,1,1,22.44,LANDED
22.56,TAKEOFF,TO_GROUND_ROLL,10.83,80,69.17,4.6,-0.02,3.36,3.45,87.46,-0.056,1,0,0,0,0,0,0,0,0,0,0,0,89.93,0,0,0,0,0,0,0,0,0,0,0,0,0,1,1,22.6,LANDED
22.76,TAKEOFF,TO_GROUND_ROLL,11.77,80,68.23,4.57,-0.02,3.23,3.32,87.41,-0.056,1,0,0,0,0,0,0,0,0,0,0,0,89.93,0,0,0,0,0,0,0,0,0,0,0,0,0,1,1,22.8,LANDED
22.92,TAKEOFF,TO_GROUND_ROLL,12.54,80,67.46,4.54,-0.02,3.12,3.22,87.37,-0.057,1,0,0,0,0,0,0,0,0,0,0,0,89.93,0,0,0,0,0,0,0,0,0,0,0,0,0,1,1,22.96,LANDED
23.08,TAKEOFF,TO_GROUND_ROLL,13.33,80,66.67,4.51,-0.02,3.01,3.11,87.33,-0.057,1,0,0,0,0,0,0,0,0,0,0,0,89.93,0,0,0,0,0,0,0,0,0,0,0,0,0,1,1,23.12,LANDED
23.24,TAKEOFF,TO_GROUND_ROLL,14.13,80,65.87,4.47,-0.03,2.91,3,87.29,-0.058,1,0,0,0,0,0,0,0,0,0,0,0,89.93,0,0,0,0,0,0,0,0,0,0,0,0,0,1,1,23.28,LANDED
23.4,TAKEOFF,TO_GROUND_ROLL,14.95,80,65.05,4.45,-0.03,2.8,2.9,87.25,-0.059,1,0,0,0,0,0,0,0,0,0,0,0,89.93,0,0,0,0,0,0,0,0,0,0,0,0,0,1,1,23.44,LANDED
23.56,TAKEOFF,TO_GROUND_ROLL,15.79,80,64.21,4.42,-0.03,2.71,2.81,87.2,-0.06,1,0,0,0,0,0,0,0,0,0,0,0,89.93,0,0,0,0,0,0,0,0,0,0,0,0,0,1,1,23.6,LANDED
23.76,TAKEOFF,TO_GROUND_ROLL,16.86,80,63.14,4.39,-0.03,2.62,2.72,87.14,-0.061,1,0,0,0,0,0,0,0,0,0,0,0,89.93,0,0,0,0,0,0,0,0,0,0,0,0,0,1,1,23.8,LANDED
23.92,TAKEOFF,TO_GROUND_ROLL,17.74,80,62.26,4.38,-0.04,2.56,2.67,87.08,-0.063,1,0,0,0,0,0,0,0,0,0,0,0,89.93,0,0,0,0,0,0,0,0,0,0,0,0,0,1,1,23.96,LANDED
24.08,TAKEOFF,TO_GROUND_ROLL,18.63,80,61.37,4.37,-0.04,2.52,2.63,87.03,-0.064,1,0,0,0,0,0,0,0,0,0,0,0,89.93,0,0,0,0,0,0,0,0,0,0,0,0,0,1,1,24.12,LANDED
24.24,TAKEOFF,TO_GROUND_ROLL,19.53,80,60.47,4.36,-0.04,2.5,2.62,86.97,-0.066,1,0,0,0,0,0,0,0,0,0,0,0,89.93,0,0,0,0,0,0,0,0,0,0,0,0,0,1,1,24.28,LANDED
24.4,TAKEOFF,TO_GROUND_ROLL,20.45,80,59.55,4.36,-0.04,2.5,2.62,86.91,-0.067,1,0,0,0,0,0,0,0,0,0,0,0,89.93,0,0,0,0,0,0,0,0,0,0,0,0,0,1,1,24.44,LANDED
24.56,TAKEOFF,TO_GROUND_ROLL,21.38,80,58.62,4.37,-0.05,2.53,2.64,86.84,-0.069,1,0,0,0,0,0,0,0,0,0,0,0,89.93,0,0,0,0,0,0,0,0,0,0,0,0,0,1,1,24.6,LANDED
24.76,TAKEOFF,TO_GROUND_ROLL,22.56,80,57.44,4.38,-0.05,2.58,2.7,86.75,-0.072,1,0,0,0,0,0,0,0,0,0,0,0,89.93,0,0,0,0,0,0,0,0,0,0,0,0,0,1,1,24.8,LANDED
24.92,TAKEOFF,TO_GROUND_ROLL,23.52,80,56.48,4.4,-0.05,2.64,2.76,86.67,-0.075,1,0,0,0,0,0,0,0,0,0,0,0,89.93,0,0,0,0,0,0,0,0,0,0,0,0,0,1,1,24.96,LANDED
25.08,TAKEOFF,TO_GROUND_ROLL,24.49,80,55.51,4.42,-0.06,2.71,2.83,86.59,-0.077,1,0,0,0,0,0,0,0,0,0,0,0,89.93,0,0,0,0,0,0,0,0,0,0,0,0,0,1,1,25.12,LANDED
25.24,TAKEOFF,TO_GROUND_ROLL,25.47,80,54.53,4.44,-0.06,2.79,2.91,86.5,-0.081,1,0,0,0,0,0,0,0,0,0,0,0,89.93,0,0,0,0,0,0,0,0,0,0,0,0,0,1,1,25.28,LANDED
25.4,TAKEOFF,TO_GROUND_ROLL,26.46,80,53.54,4.47,-0.06,2.88,3,86.4,-0.084,1,0,0,0,0,0,0,0,0,0,0,0,89.93,0,0,0,0,0,0,0,0,0,0,0,0,0,1,1,25.44,LANDED
25.56,TAKEOFF,TO_GROUND_ROLL,27.46,80,52.54,4.49,-0.06,2.97,3.09,86.3,-0.088,1,0,0,0,0,0,0,0,0,0,0,0,89.93,0,0,0,0,0,0,0,0,0,0,0,0,0,1,1,25.6,LANDED
25.76,TAKEOFF,TO_GROUND_ROLL,28.73,80,51.27,4.52,-0.06,3.08,3.19,86.16,-0.094,1,0,0,0,0,0,0,0,0,0,0,0,89.93,0,0,0,0,0,0,0,0,0,0,0,0,0,1,1,25.8,LANDED
25.92,TAKEOFF,TO_GROUND_ROLL,29.76,80,50.24,4.55,-0.07,3.15,3.27,86.03,-0.099,1,0,0,0,0,0,0,0,0,0,0,0,89.93,0,0,0,0,0,0,0,0,0,0,0,0,0,1,1,25.96,LANDED
26.08,TAKEOFF,TO_GROUND_ROLL,30.79,80,49.21,4.56,-0.07,3.22,3.34,85.89,-0.105,1,0,0,0,0,0,0,0,0,0,0,0,89.93,0,0,0,0,0,0,0,0,0,0,0,0,0,1,1,26.12,LANDED
26.24,TAKEOFF,TO_GROUND_ROLL,31.83,80,48.17,4.58,-0.07,3.27,3.39,85.74,-0.113,1,0,0,0,0,0,0,0,0,0,0,0,89.93,0,0,0,0,0,0,0,0,0,0,0,0,0,1,1,26.28,LANDED
26.4,TAKEOFF,TO_GROUND_ROLL,32.89,80,47.11,4.59,-0.07,3.31,3.42,85.58,-0.124,1,0,0,0,0,0,0,0,0,0,0,0,89.93,0,0,0,0,0,0,0,0,0,0,0,0,0,1,1,26.44,LANDED
26.56,TAKEOFF,TO_GROUND_ROLL,33.95,80,46.05,4.6,-0.07,3.33,3.44,85.4,-0.137,1,0,0,0,0,0,0,0,0,0,0,0,89.93,0,0,0,0,0,0,0,0,0,0,0,0,0,1,1,26.6,LANDED
26.76,TAKEOFF,TO_GROUND_ROLL,35.29,80,44.71,4.6,-0.07,3.33,3.44,85.16,-0.15,1,0,0,0,0,0,0,0,0,0,0,0,89.93,0,0,0,0,0,0,0,0,0,0,0,0,0,1,1,26.8,LANDED
26.92,TAKEOFF,TO_GROUND_ROLL,36.37,80,43.63,4.59,-0.07,3.31,3.41,84.96,-0.159,1,0,0,0,0,0,0,0,0,0,0,0,89.93,0,0,0,0,0,0,0,0,0,0,0,0,0,1,1,26.96,LANDED
27.08,TAKEOFF,TO_GROUND_ROLL,37.46,80,42.54,4.58,-0.07,3.27,3.37,84.76,-0.164,1,0,0,0,0,0,0,0,0,0,0,0,89.93,0,0,0,0,0,0,0,0,0,0,0,0,0,1,1,27.12,LANDED
27.24,TAKEOFF,TO_GROUND_ROLL,38.55,80,41.45,4.56,-0.07,3.22,3.32,84.56,-0.131,1,0,0,0,0,0,0,0,0,0,0,0,89.93,0,0,0,0,0,0,0,0,0,0,0,0,0,1,1,27.28,LANDED
27.4,TAKEOFF,TO_GROUND_ROLL,39.66,80,40.34,4.55,-0.07,3.16,3.26,84.38,-0.11,1,0,0,0,0,0,0,0,0,0,0,0,89.93,0,0,0,0,0,0,0,0,0,0,0,0,0,1,1,27.44,LANDED
27.56,TAKEOFF,TO_GROUND_ROLL,40.77,80,39.23,4.53,-0.07,3.09,3.19,84.2,-0.116,1,0,0,0,0,0,0,0,0,0,0,0,89.93,0,0,0,0,0,0,0,0,0,0,0,0,0,1,1,27.6,LANDED
27.76,TAKEOFF,TO_GROUND_ROLL,42.17,80,37.83,4.5,-0.08,2.99,3.09,84,-0.129,1,0,0,0,0,0,0,0,0,0,0,0,89.93,0,0,0,0,0,0,0,0,0,0,0,0,0,1,1,27.8,LANDED
27.92,TAKEOFF,TO_GROUND_ROLL,43.29,80,36.71,4.48,-0.08,2.91,3.01,83.85,-0.128,1,0,0,0,0,0,0,0,0,0,0,0,89.93,0,0,0,0,0,0,0,0,0,0,0,0,0,1,1,27.96,LANDED
28.08,TAKEOFF,TO_GROUND_ROLL,44.43,80,35.57,4.45,-0.08,2.83,2.93,83.71,-0.123,1,0,0,0,0,0,0,0,0,0,0,0,89.93,0,0,0,0,0,0,0,0,0,0,0,0,0,1,1,28.12,LANDED
28.24,TAKEOFF,TO_GROUND_ROLL,45.56,80,34.44,4.43,-0.08,2.76,2.85,83.57,-0.122,1,0,0,0,0,0,0,0,0,0,0,0,89.93,0,0,0,0,0,0,0,0,0,0,0,0,0,1,1,28.28,LANDED
28.4,TAKEOFF,TO_GROUND_ROLL,46.71,80,33.29,4.41,-0.08,2.69,2.78,83.45,-0.124,1,0,0,0,0,0,0,0,0,0,0,0,89.93,0,0,0,0,0,0,0,0,0,0,0,0,0,1,1,28.44,LANDED
28.56,TAKEOFF,TO_GROUND_ROLL,47.86,80,32.14,4.39,-0.08,2.62,2.72,83.33,-0.125,1,0,0,0,0,0,0,0,0,0,0,0,89.93,0,0,0,0,0,0,0,0,0,0,0,0,0,1,1,28.6,LANDED
28.76,TAKEOFF,TO_GROUND_ROLL,49.31,80,30.69,4.37,-0.09,2.56,2.65,83.19,-0.124,1,0,0,0,0,0,0,0,0,0,0,0,89.93,0,0,0,0,0,0,0,0,0,0,0,0,0,1,1,28.8,LANDED
28.92,TAKEOFF,TO_GROUND_ROLL,50.47,80,29.53,4.36,-0.09,2.52,2.61,83.09,-0.124,1,0,0,0,0,0,0,0,0,0,0,0,89.93,0,0,0,0,0,0,0,0,0,0,0,0,0,1,1,28.96,LANDED
29.08,TAKEOFF,TO_GROUND_ROLL,51.64,80,28.36,4.35,-0.09,2.49,2.58,82.99,-0.123,1,0,0,0,0,0,0,0,0,0,0,0,89.93,0,0,0,0,0,0,0,0,0,0,0,0,0,1,1,29.12,LANDED
29.24,TAKEOFF,TO_GROUND_ROLL,52.82,80,27.18,4.35,-0.09,2.47,2.56,82.9,-0.123,1,0,0,0,0,0,0,0,0,0,0,0,89.93,0,0,0,0,0,0,0,0,0,0,0,0,0,1,1,29.28,LANDED
29.4,TAKEOFF,TO_GROUND_ROLL,54,80,26,4.35,-0.09,2.46,2.56,82.84,-0.12,1,0,0,0,0,0,0,0,0,0,0,0,89.93,0,0,0,0,0,0,0,0,0,0,0,0,0,1,1,29.44,LANDED
29.56,TAKEOFF,TO_GROUND_ROLL,55.17,80,24.83,4.35,-0.09,2.47,2.56,82.97,0.022,1,0,0,0,0,0,0,0,0,0,0,0,89.93,0,0,0,0,0,0,0,0,0,0,0,0,0,1,1,29.6,LANDED
29.76,TAKEOFF,TO_GROUND_ROLL,56.64,80,23.36,4.35,-0.1,2.49,2.58,83.34,0.31,1,0,0,0,0,0,0,0,0,0,0,0,89.93,0,0,0,0,0,0,0,0,0,0,0,0,0,1,1,29.8,LANDED
29.92,TAKEOFF,TO_GROUND_ROLL,57.83,80,22.17,4.37,-0.1,2.53,2.62,83.68,0.196,1,0,0,0,0,0,0,0,0,0,0,0,89.93,0,0,0,0,0,0,0,0,0,0,0,0,0,1,1,29.96,LANDED
30.08,TAKEOFF,TO_GROUND_ROLL,59.03,80,20.97,4.39,0.01,2.59,2.59,84.01,-0.05,1,0,0,0,0,0,0,0,0,0,0,0,89.93,0,0,0,0,0,0,0,0,0,0,0,0,0,1,1,30.12,LANDED
30.24,TAKEOFF,TO_GROUND_ROLL,60.23,80,19.77,4.41,-0.16,2.67,2.81,84.36,0.02,1,0,0,0,0,0,0,0,0,0,0,0,89.93,0,0,0,0,0,0,0,0,0,0,0,0,0,1,1,30.28,LANDED
30.4,TAKEOFF,TO_GROUND_ROLL,61.42,80,18.58,4.42,-0.18,2.73,2.88,84.9,0.229,1,0,0,0,0,0,0,0,0,0,0,0,89.93,0,0,0,0,0,0,0,0,0,0,0,0,0,1,1,30.44,LANDED
30.56,TAKEOFF,TO_GROUND_ROLL,62.61,80,17.39,4.44,-0.07,2.8,2.84,85.63,0.278,1,0,0,0,0,0,0,0,0,0,0,0,89.93,0,0,0,0,0,0,0,0,0,0,0,0,0,1,1,30.6,LANDED
30.76,TAKEOFF,TO_GROUND_ROLL,64.11,80,15.89,4.42,-0.4,2.83,3.16,86.58,0.922,1,0,0,0,0,0,0,0,0,0,0,0,89.93,0,0,0,0,0,0,0,0,0,0,0,0,0,1,1,30.8,LANDED
30.92,TAKEOFF,TO_GROUND_ROLL,65.31,80,14.69,4.42,0.23,2.83,2.62,87.31,0.302,1,0,0,0,0,0,0,0,0,0,0,0,89.93,0,0,0,0,0,0,0,0,0,0,0,0,0,1,1,30.96,LANDED
31.08,TAKEOFF,TO_GROUND_ROLL,66.5,80,13.5,4.46,-0.14,2.84,2.96,88.03,0.447,1,0,0,0,0,0,0,0,0,0,0,0,89.93,0,0,0,0,0,0,0,0,0,0,0,0,0,1,1,31.12,LANDED
31.24,TAKEOFF,TO_GROUND_ROLL,67.72,80,12.28,4.42,-0.35,2.81,3.08,88.78,0.879,1,0,0,0,0,0,0,0,0,0,0,0,89.93,0,0,0,0,0,0,0,0,0,0,0,0,0,1,1,31.28,LANDED
31.4,TAKEOFF,TO_GROUND_ROLL,68.94,80,11.06,4.4,-0.09,2.8,2.86,89.64,0.529,1,0,0,0,0,0,0,0,0,0,0,0,89.93,0,0,0,0,0,0,0,0,0,0,0,0,0,1,1,31.44,LANDED
31.56,TAKEOFF,TO_GROUND_ROLL,70.16,80,9.84,4.42,0.03,2.82,2.78,90.49,0.713,1,0,0,0,0,0,0,0,0,0,0,0,89.93,0,0,0,0,0,0,0,0,0,0,0,0,0,1,1,31.6,LANDED
31.76,TAKEOFF,TO_GROUND_ROLL,71.69,80,8.31,4.43,-0.17,2.84,2.96,91.53,0.631,1,0,0,0,0,0,0,0,0,0,0,0,89.93,0,0,0,0,0,0,0,0,0,0,0,0,0,1,1,31.8,LANDED
31.92,TAKEOFF,TO_GROUND_ROLL,72.91,80,7.09,4.42,-0.18,2.84,2.97,92.17,0.612,1,0,0,0,0,0,0,0,0,0,0,0,89.93,0,0,0,0,0,0,0,0,0,0,0,0,0,1,1,31.96,LANDED
32.08,TAKEOFF,TO_GROUND_ROLL,74.13,80,5.87,4.43,-0.08,2.85,2.91,92.64,0.679,1,0,0,0,0,0,0,0,0,0,0,0,89.93,0,0,0,0,0,0,0,0,0,0,0,0,0,1,1,32.12,LANDED
32.24,TAKEOFF,TO_GROUND_ROLL,75.37,80,4.63,4.38,-0.56,2.81,3.22,93.04,1.435,1,0,0,0,0,0,0,0,0,0,0,0,89.93,0,0,0,0,0,0,0,0,0,0,0,0,0,1,1,32.28,LANDED
32.4,TAKEOFF,TO_GROUND_ROLL,76.62,80,3.38,4.25,-0.29,2.55,2.79,93.27,2.313,1,0,0,0,0,0,0,0,0,0,0,0,89.93,0,0,0,0,0,0,0,0,0,0,0,0,0,1,1,32.44,LANDED
32.56,TAKEOFF,TO_GROUND_ROLL,77.86,80,2.14,4.17,0.79,2.05,1.64,93.29,1.176,1,0,0,0,0,0,0,0,0,0,0,0,89.93,0,0,0,0,0,0,0,0,0,0,0,0,0,1,1,32.6,LANDED
32.76,TAKEOFF,TO_GROUND_ROLL,79.45,80,0.55,4.1,0.46,1.22,0.98,93.18,-0.765,1,0,0,0,0,0,0,0,0,0,0,0,89.93,0,0,0,0,0,0,0,0,0,0,0,0,0,1,1,32.8,LANDED
32.92,TAKEOFF,TO_GROUND_ROLL,80.72,80,-0.72,3.91,-0.42,0.66,0.94,93.04,-0.649,1,0,0,0,0,0,0,0,0,0,0,0,89.93,0,0,0,0,0,0,0,0,0,0,0,0,0,1,1,32.96,LANDED
33.08,TAKEOFF,TO_GROUND_ROLL,82.01,80,-2.01,3.65,-0.67,0.08,0.52,92.86,-0.009,1,0,0,0,0,0,0,0,0,0,0,0,89.93,0,0,0,0,0,0,0,0,0,0,0,0,0,1,1,33.12,LANDED
33.24,TAKEOFF,TO_GROUND_ROLL,83.27,80,-3.27,3.59,0.04,-0.04,-0.07,92.67,-0.588,1,0,0,0,0,0,0,0,0,0,0,0,89.93,0,0,0,0,0,0,0,0,0,0,0,0,0,1,1,33.28,LANDED
33.4,TAKEOFF,TO_GROUND_ROLL,84.53,80,-4.53,3.7,-0.04,0.25,0.28,92.51,-0.528,1,0,0,0,0,0,0,0,0,0,0,0,89.93,0,0,0,0,0,0,0,0,0,0,0,0,0,1,1,33.44,LANDED
33.56,TAKEOFF,TO_GROUND_ROLL,85.83,80,-5.83,3.79,-0.08,0.55,0.6,92.27,-0.329,1,0,0,0,0,0,0,0,0,0,0,0,89.93,0,0,0,0,0,0,0,0,0,0,0,0,0,1,1,33.6,LANDED
33.76,TAKEOFF,TO_GROUND_ROLL,87.47,80,-7.47,3.94,-0.05,1.08,1.06,91.95,-0.283,1,0,0,0,0,0,0,0,0,0,0,0,89.93,0,0,0,0,0,0,0,0,0,0,0,0,0,1,1,33.8,LANDED
33.92,TAKEOFF,TO_GROUND_ROLL,88.79,80,-8.79,4.06,-0.16,1.49,1.53,91.71,-0.306,1,0,0,0,0,0,0,0,0,0,0,0,89.93,0,0,0,0,0,0,0,0,0,0,0,0,0,1,1,33.96,LANDED
34.08,TAKEOFF,TO_GROUND_ROLL,90.12,80,-10.12,4.17,-0.14,1.9,1.94,91.49,-0.32,1,0,0,0,0,0,0,0,0,0,0,0,89.93,0,0,0,0,0,0,0,0,0,0,0,0,0,1,1,34.12,LANDED
34.24,TAKEOFF,TO_GROUND_ROLL,91.45,80,-11.45,4.29,-0.08,2.31,2.3,91.28,-0.294,1,0,0,0,0,0,0,0,0,0,0,0,89.93,0,0,0,0,0,0,0,0,0,0,0,0,0,1,1,34.28,LANDED
34.4,TAKEOFF,TO_GROUND_ROLL,92.79,80,-12.79,4.4,-0.09,2.67,2.68,91.17,-0.22,1,0,0,0,0,0,0,0,0,0,0,0,89.93,0,0,0,0,0,0,0,0,0,0,0,0,0,1,1,34.44,LANDED
34.56,TAKEOFF,TO_GROUND_ROLL,94.13,80,-14.13,4.49,-0.12,2.96,3,91.1,-0.124,1,0,0,0,0,0,0,0,0,0,0,0,89.93,0,0,0,0,0,0,0,0,0,0,0,0,0,1,1,34.6,LANDED
34.76,TAKEOFF,TO_ROTATE,95.82,80,-15.82,4.56,-0.1,3.2,3.24,91.04,-0.159,1,0,0,0,0,0,0,0,0,0,0,0,89.93,0,0,0,0,0,0,0,0,0,0,0,0,0,1,1,34.8,LANDED
34.96,TAKEOFF,TO_ROTATE,97.53,80,-17.53,4.59,-0.11,3.3,3.36,91,-0.179,1,0,90.4,3.706,0,0,0,0,0,0,0,0,89.93,0,0,0,0,0,0,0,0,0,0,0,0,0,1,1,35,LANDED
35.14,TAKEOFF,TO_ROTATE,99.07,80,-19.07,4.59,-0.1,3.28,3.34,90.98,-0.164,1,0,90.4,4.246,0,0,0,0,0,0,0,0,89.93,0,0,0,0,0,0,0,0,0,0,0,0,0,1,1,35.18,LANDED
35.32,TAKEOFF,TO_ROTATE,100.63,80,-20.63,4.55,-0.1,3.15,3.23,90.98,-0.105,1,0,90.4,4.786,0,0,0,0,0,0,0,0,89.93,0,0,0,0,0,0,0,0,0,0,0,0,0,1,1,35.36,LANDED
35.5,TAKEOFF,TO_CLIMB,102.2,80,-22.2,4.48,-0.12,2.9,2.99,90.99,-0.04,1,0,90.4,5.326,0,0,0,0,0,0,0,0,89.93,0,0,0,0,0,0,0,0,0,0,0,0,0,1,1,35.54,FLYING
35.68,TAKEOFF,TO_CLIMB,103.79,80,-23.79,4.26,-1.59,2.69,3.46,90.99,-0.036,1,0,90.4,8,0,0,0,0,0,0,0,0,89.93,0,0,0,0,0,0,0,0,0,0,0,0,0,1,1,35.72,FLYING
35.9,TAKEOFF,TO_CLIMB,105.23,80,-25.23,3.91,-0.09,1.79,1.86,90.98,-0.04,1,0,90.4,8,0,0,0,0,0,0,0,0,89.93,0,0,0,0,0,0,0,0,0,0,0,0,0,1,1,35.94,LANDED
36.08,TAKEOFF,TO_CLIMB,106.4,80,-26.4,3.49,-0.18,0.46,0.72,90.97,-0.027,1,0,90.4,8,0,0,0,0,0,0,0,0,89.93,0,0,0,0,0,0,0,0,0,0,0,0,0,1,1,36.12,LANDED
36.26,TAKEOFF,TO_CLIMB,107.6,80,-27.6,3.11,0.23,-0.81,-0.96,90.97,-0.033,1,0,90.4,8,0,0,0,0,0,0,0,0,89.93,0,0,0,0,0,0,0,0,0,0,0,0,0,1,1,36.3,LANDED
36.44,TAKEOFF,TO_CLIMB,108.72,80,-28.72,3.15,-0.02,-0.62,-0.57,90.97,-0.02,1,0,90.4,8,0,0,0,0,0,0,0,0,89.93,0,0,0,0,0,0,0,0,0,0,0,0,0,1,1,36.48,LANDED
36.62,TAKEOFF,TO_CLIMB,109.93,80,-29.93,3.09,-0.09,-0.81,-0.77,90.98,-0.027,0.928,0,90.4,8,0,0,0,0,0,0,0,0,89.93,0,0,0,0,0,0,0,0,0,0,0,0,0,1,1,36.66,LANDED
36.8,TAKEOFF,TO_CLIMB,111.18,80,-31.18,3.06,-0.12,-0.89,-0.82,90.98,-0.034,0.856,0,90.4,8,0,0,0,0,0,0,0,0,89.93,0,0,0,0,0,0,0,0,0,0,0,0,0,1,1,36.84,LANDED
37.02,TAKEOFF,TO_CLIMB,112.7,80,-32.7,3.01,-0.14,-1.02,-0.94,90.98,-0.038,0.768,0,90.4,8,0,0,0,0,0,0,0,0,89.93,0,0,0,0,0,0,0,0,0,0,0,0,0,1,1,37.06,LANDED
37.2,TAKEOFF,TO_CLIMB,113.95,80,-33.95,2.95,-0.18,-1.15,-1.05,91.01,-0.033,0.696,0,90.4,8,0,0,0,0,0,0,0,0,89.93,0,0,0,0,0,0,0,0,0,0,0,0,0,1,1,37.24,LANDED
37.38,TAKEOFF,TO_CLIMB,115.18,80,-35.18,2.89,-0.2,-1.29,-1.18,91.01,-0.028,0.624,0,90.4,8,0,0,0,0,0,0,0,0,89.93,0,0,0,0,0,0,0,0,0,0,0,0,0,1,1,37.42,FLYING
37.56,TAKEOFF,TO_CLIMB,116.4,80,-36.4,2.82,-0.25,-1.44,-1.3,91,-0.03,0.552,0,90.4,8,0,0,0,0,0,0,0,0,89.93,0,0,0,0,0,0,0,0,0,0,0,0,0,1,1,37.6,LANDED
37.74,TAKEOFF,TO_CLIMB,117.59,80,-37.59,2.74,-0.26,-1.59,-1.45,91,-0.023,0.48,0,90.4,8,0,0,0,0,0,0,0,0,89.93,0,0,0,0,0,0,0,0,0,0,0,0,0,1,1,37.78,FLYING
37.92,TAKEOFF,TO_CLIMB,118.73,80,-38.73,2.65,-0.31,-1.74,-1.58,90.99,-0.018,0.408,0,90.4,8,0,0,0,0,0,0,0,0,89.93,0,0,0,0,0,0,0,0,0,0,0,0,0,1,1,37.96,LANDED
38.14,TAKEOFF,TO_CLIMB,120.08,80,-40.08,2.54,-0.35,-1.9,-1.73,90.98,-0.023,0.32,0,90.4,8,0,0,0,0,0,0,0,0,89.93,0,0,0,0,0,0,0,0,0,0,0,0,0,1,1,38.18,FLYING
38.32,TAKEOFF,TO_CLIMB,121.13,80,-41.13,2.44,-0.39,-2.03,-1.84,90.97,-0.014,0.248,0,90.4,8,0,0,0,0,0,0,0,0,89.93,0,0,0,0,0,0,0,0,0,0,0,0,0,1,1,38.36,LANDED
38.5,TAKEOFF,TO_CLIMB,122.12,80,-42.12,2.35,-0.44,-2.13,-1.93,90.98,-0.026,0.176,0,90.4,8,0,0,0,0,0,0,0,0,89.93,0,0,0,0,0,0,0,0,0,0,0,0,0,1,1,38.54,LANDED
38.68,TAKEOFF,TO_CLIMB,123.06,80,-43.06,2.25,-0.47,-2.21,-1.99,90.99,-0.021,0.104,0,90.4,8,0,0,0,0,0,0,0,0,89.93,0,0,0,0,0,0,0,0,0,0,0,0,0,1,1,38.72,FLYING
38.86,TAKEOFF,TO_CLIMB,123.93,80,-43.93,2.15,-0.51,-2.26,-2.03,90.97,-0.023,0.032,0,90.4,8,0,0,0,0,0,0,0,0,89.93,0,0,0,0,0,0,0,0,0,0,0,0,0,1,1,38.9,LANDED
39.04,TAKEOFF,TO_CLIMB,124.74,80,-44.74,2.05,-0.55,-2.28,-2.04,90.95,-0.021,0,0,90.4,8,0,0,0,0,0,0,0,0,89.93,0,0,0,0,0,0,0,0,0,0,0,0,0,1,1,39.08,LANDED
39.26,TAKEOFF,TO_CLIMB,125.63,80,-45.63,1.94,-0.6,-2.29,-2.04,90.96,-0.001,0,0,90.4,8,0,0,0,0,0,0,0,0,89.93,0,0,0,0,0,0,0,0,0,0,0,0,0,1,1,39.3,LANDED
39.44,TAKEOFF,TO_CLIMB,126.29,80,-46.29,1.85,-0.66,-2.21,-1.92,90.98,-0.029,0,0,90.4,8,0,0,0,0,0,0,0,0,89.93,0,0,0,0,0,0,0,0,0,0,0,0,0,1,1,39.48,LANDED
39.62,TAKEOFF,TO_CLIMB,126.86,80,-46.86,1.81,-0.67,-1.87,-1.65,90.96,-0.037,0,0,90.4,8,0,0,0,0,0,0,0,0,89.93,0,0,0,0,0,0,0,0,0,0,0,0,0,1,1,39.66,FLYING
39.8,TAKEOFF,TO_CLIMB,127.34,80,-47.34,1.81,-0.78,-1.59,-1.29,90.94,-0.035,0,0,90.4,8,0,0,0,0,0,0,0,0,89.93,0,0,0,0,0,0,0,0,0,0,0,0,0,1,1,39.84,LANDED
39.98,TAKEOFF,TO_CLIMB,127.88,80,-47.88,1.66,-0.65,-1.68,-1.38,90.92,-0.032,0,0,90.4,8,0,0,0,0,0,0,0,0,89.93,0,0,0,0,0,0,0,0,0,0,0,0,0,1,1,40.02,LANDED
40.16,TAKEOFF,TO_CLIMB,128.29,80,-48.29,1.59,-0.72,-1.5,-1.21,90.89,-0.028,0,0,90.4,8,0,0,0,0,0,0,0,0,89.93,0,0,0,0,0,0,0,0,0,0,0,0,0,1,1,40.2,LANDED
40.38,TAKEOFF,TO_CLIMB,128.71,80,-48.71,1.54,-0.67,-1.17,-0.91,90.87,-0.022,0,0,90.4,8,0,0,0,0,0,0,0,0,89.93,0,0,0,0,0,0,0,0,0,0,0,0,0,1,1,40.42,LANDED
40.56,TAKEOFF,TO_CLIMB,129.02,80,-49.02,1.52,-0.64,-0.84,-0.6,90.85,-0.036,0,0,90.4,8,0,0,0,0,0,0,0,0,89.93,0,0,0,0,0,0,0,0,0,0,0,0,0,1,1,40.6,LANDED
40.74,TAKEOFF,TO_CLIMB,129.27,80,-49.27,1.5,-0.63,-0.48,-0.25,90.84,-0.028,0,0,90.4,8,0,0,0,0,0,0,0,0,89.93,0,0,0,0,0,0,0,0,0,0,0,0,0,1,1,40.78,LANDED
40.92,TAKEOFF,TO_CLIMB,129.45,80,-49.45,1.54,-0.17,-0.08,-0.02,90.84,-0.054,0,0,90.4,8,0,0,0,0,0,0,0,0,89.93,0,0,0,0,0,0,0,0,0,0,0,0,0,1,1,40.96,LANDED
41.1,TAKEOFF,TO_CLIMB,129.52,80,-49.52,1.72,-0.11,0.61,0.56,90.85,-0.055,0,0,90.4,8,0,0,0,0,0,0,0,0,89.93,0,0,0,0,0,0,0,0,0,0,0,0,0,1,1,41.14,LANDED
41.28,TAKEOFF,TO_CLIMB,129.68,80,-49.68,1.92,-0.04,1.37,1.3,90.88,-0.051,0,0,90.4,8,0,0,0,0,0,0,0,0,89.93,0,0,0,0,0,0,0,0,0,0,0,0,0,1,1,41.32,LANDED
41.5,TAKEOFF,TO_CLIMB,129.8,80,-49.8,2.26,0,2.51,2.35,90.94,-0.032,0,0,90.4,8,0,0,0,0,0,0,0,0,89.93,0,0,0,0,0,0,0,0,0,0,0,0,0,1,1,41.54,LANDED
41.68,TAKEOFF,TO_CLIMB,129.63,80,-49.63,2.32,0.04,2.86,2.82,90.97,-0.198,0,0,90.4,8,0,0,0,0,0,0,0,0,89.93,0,0,0,0,0,0,0,0,0,0,0,0,0,1,1,41.72,FLYING
41.86,TAKEOFF,TO_CLIMB,129.21,80,-49.21,2.16,-0.37,2.48,2.72,90.99,-0.843,0,0,90.4,8,0,0,0,0,0,0,0,0,89.93,0,0,0,0,0,0,0,0,0,0,0,0,0,1,1,41.9,LANDED
42.04,TAKEOFF,TO_CLIMB,128.78,80,-48.78,1.84,-0.23,1.5,1.75,91.02,-1.443,0,0,90.4,8,0,0,0,0,0,0,0,0,89.93,0,0,0,0,0,0,0,0,0,0,0,0,0,1,1,42.08,LANDED
42.22,TAKEOFF,TO_CLIMB,128.23,80,-48.23,1.49,0.54,0.16,0.12,91.05,-1.394,0,0,90.4,8,0,0,0,0,0,0,0,0,89.93,0,0,0,0,0,0,0,0,0,0,0,0,0,1,1,42.26,LANDED
42.4,TAKEOFF,TO_CLIMB,127.54,80,-47.54,1.48,0.13,-0.12,-0.19,91.05,-0.703,0,0,90.4,8,0,0,0,0,0,0,0,0,89.93,0,0,0,0,0,0,0,0,0,0,0,0,0,1,1,42.44,LANDED
42.62,TAKEOFF,TO_CLIMB,126.95,80,-46.95,1.5,-0.17,0.15,0.2,91.03,-1.115,0,0,90.4,8,0,0,0,0,0,0,0,0,89.93,0,0,0,0,0,0,0,0,0,0,0,0,0,1,1,42.66,LANDED
42.8,TAKEOFF,TO_CLIMB,126.4,80,-46.4,1.51,0.12,0.27,0.24,91.01,-1.35,0,0,90.4,8,0,0,0,0,0,0,0,0,89.93,0,0,0,0,0,0,0,0,0,0,0,0,0,1,1,42.84,LANDED
42.98,TAKEOFF,TO_CLIMB,125.79,80,-45.79,1.5,0.27,0.12,0.02,90.97,-1.073,0,0,90.4,8,0,0,0,0,0,0,0,0,89.93,0,0,0,0,0,0,0,0,0,0,0,0,0,1,1,43.02,LANDED
43.16,TAKEOFF,TO_CLIMB,125.2,80,-45.2,1.49,0.14,0.02,-0.04,90.92,-0.866,0,0,90.4,8,0,0,0,0,0,0,0,0,89.93,0,0,0,0,0,0,0,0,0,0,0,0,0,1,1,43.2,LANDED
43.34,TAKEOFF,TO_CLIMB,124.6,80,-44.6,1.5,-0.06,0.15,0.15,90.89,-1.123,0,0,90.4,8,0,0,0,0,0,0,0,0,89.93,0,0,0,0,0,0,0,0,0,0,0,0,0,1,1,43.38,LANDED
43.52,TAKEOFF,TO_CLIMB,123.95,80,-43.95,1.51,0.09,0.23,0.2,90.88,-1.291,0,0,90.4,8,0,0,0,0,0,0,0,0,89.93,0,0,0,0,0,0,0,0,0,0,0,0,0,1,1,43.56,LANDED
43.74,TAKEOFF,TO_CLIMB,123.08,80,-43.08,1.51,0.15,0.21,0.15,90.89,-1.242,0,0,90.4,8,0,0,0,0,0,0,0,0,89.93,0,0,0,0,0,0,0,0,0,0,0,0,0,1,1,43.78,LANDED
43.92,TAKEOFF,TO_CLIMB,122.36,80,-42.36,1.51,0.1,0.2,0.15,90.91,-1.215,0,0,90.4,8,0,0,0,0,0,0,0,0,89.93,0,0,0,0,0,0,0,0,0,0,0,0,0,1,1,43.96,LANDED
44.1,TAKEOFF,TO_CLIMB,121.6,80,-41.6,1.51,0.08,0.22,0.18,90.93,-1.269,0,0,90.4,8,0,0,0,0,0,0,0,0,89.93,0,0,0,0,0,0,0,0,0,0,0,0,0,1,1,44.14,LANDED
44.28,TAKEOFF,TO_CLIMB,120.78,80,-40.78,1.51,0.07,0.26,0.22,90.94,-1.354,0,0,90.4,8,0,0,0,0,0,0,0,0,89.93,0,0,0,0,0,0,0,0,0,0,0,0,0,1,1,44.32,LANDED
44.46,TAKEOFF,TO_CLIMB,119.88,80,-39.88,1.51,0.09,0.32,0.28,90.93,-1.455,0,0,90.4,8,0,0,0,0,0,0,0,0,89.93,0,0,0,0,0,0,0,0,0,0,0,0,0,1,1,44.5,LANDED
44.64,TAKEOFF,TO_CLIMB,118.86,80,-38.86,1.51,0.17,0.31,0.23,90.88,-1.425,0,0,90.4,8,0,0,0,0,0,0,0,0,89.93,0,0,0,0,0,0,0,0,0,0,0,0,0,1,1,44.68,LANDED
44.86,TAKEOFF,TO_CLIMB,117.46,80,-37.46,1.51,0.14,0.27,0.19,90.75,-1.341,0,0,90.4,8,0,0,0,0,0,0,0,0,89.93,0,0,0,0,0,0,0,0,0,0,0,0,0,1,1,44.9,LANDED
45.04,TAKEOFF,TO_CLIMB,116.16,80,-36.16,1.51,0.1,0.29,0.23,90.57,-1.38,0,0,90.4,8,0,0,0,0,0,0,0,0,89.93,0,0,0,0,0,0,0,0,0,0,0,0,0,1,1,45.08,LANDED
45.22,TAKEOFF,TO_CLIMB,114.67,80,-34.67,1.51,0.13,0.32,0.23,90.29,-1.418,0,0,90.4,8,0,0,0,0,0,0,0,0,89.93,0,0,0,0,0,0,0,0,0,0,0,0,0,1,1,45.26,LANDED
45.4,TAKEOFF,TO_CLIMB,112.94,80,-32.94,1.51,0.16,0.3,0.2,89.92,-1.382,0,0,90.4,8,0,0,0,0,0,0,0,0,89.93,0,0,0,0,0,0,0,0,0,0,0,0,0,1,1,45.44,FLYING
45.58,TAKEOFF,TO_CLIMB,110.95,80,-30.95,1.51,0.16,0.27,0.15,89.44,-1.314,0.072,0,90.4,8,0,0,0,0,0,0,0,0,89.93,0,0,0,0,0,0,0,0,0,0,0,0,0,1,1,45.62,LANDED
45.76,TAKEOFF,TO_CLIMB,108.86,80,-28.86,1.51,0.11,0.28,0.16,88.89,-1.323,0.144,0,90.4,8,0,0,0,0,0,0,0,0,89.93,0,0,0,0,0,0,0,0,0,0,0,0,0,1,1,45.8,LANDED
45.98,TAKEOFF,TO_CLIMB,106.37,80,-26.37,1.51,0.12,0.32,0.18,88.17,-1.395,0.232,0,90.4,8,0,0,0,0,0,0,0,0,89.93,0,0,0,0,0,0,0,0,0,0,0,0,0,1,1,46.02,LANDED
46.16,TAKEOFF,TO_CLIMB,104.38,80,-24.38,1.51,0.16,0.32,0.15,87.59,-1.389,0.304,0,90.4,8,0,0,0,0,0,0,0,0,89.93,0,0,0,0,0,0,0,0,0,0,0,0,0,1,1,46.2,LANDED
46.34,TAKEOFF,TO_CLIMB,102.44,80,-22.44,1.51,0.16,0.3,0.12,87.06,-1.351,0.376,0,90.4,8,0,0,0,0,0,0,0,0,89.93,0,0,0,0,0,0,0,0,0,0,0,0,0,1,1,46.38,LANDED
46.52,TAKEOFF,TO_CLIMB,100.56,80,-20.56,1.51,0.13,0.3,0.12,86.6,-1.351,0.448,0,90.4,8,0,0,0,0,0,0,0,0,89.93,0,0,0,0,0,0,0,0,0,0,0,0,0,1,1,46.56,LANDED
46.7,TAKEOFF,TO_CLIMB,98.72,80,-18.72,1.51,0.14,0.32,0.13,86.23,-1.375,0.52,0,90.4,8,0,0,0,0,0,0,0,0,89.93,0,0,0,0,0,0,0,0,0,0,0,0,0,1,1,46.74,LANDED
46.88,TAKEOFF,TO_CLIMB,96.91,80,-16.91,1.51,0.15,0.32,0.11,85.97,-1.373,0.592,0,90.4,8,0,0,0,0,0,0,0,0,89.93,0,0,0,0,0,0,0,0,0,0,0,0,0,1,1,46.92,LANDED
47.1,TAKEOFF,TO_CLIMB,94.74,80,-14.74,1.51,0.15,0.31,0.1,85.81,-1.35,0.68,0,90.4,8,0,0,0,0,0,0,0,0,89.93,0,0,0,0,0,0,0,0,0,0,0,0,0,1,1,47.14,LANDED
47.28,TAKEOFF,TO_CLIMB,93.01,80,-13.01,1.51,0.14,0.32,0.11,85.81,-1.354,0.752,0,90.4,8,0,0,0,0,0,0,0,0,89.93,0,0,0,0,0,0,0,0,0,0,0,0,0,1,1,47.32,LANDED
47.46,TAKEOFF,TO_CLIMB,91.3,80,-11.3,1.51,0.14,0.33,0.12,85.92,-1.37,0.824,0,90.4,8,0,0,0,0,0,0,0,0,89.93,0,0,0,0,0,0,0,0,0,0,0,0,0,1,1,47.5,LANDED
47.64,TAKEOFF,TO_CLIMB,89.6,80,-9.6,1.51,0.13,0.34,0.13,86.15,-1.394,0.896,0,90.4,8,0,0,0,0,0,0,0,0,89.93,0,0,0,0,0,0,0,0,0,0,0,0,0,1,1,47.68,LANDED
47.82,TAKEOFF,TO_CLIMB,87.93,80,-7.93,1.51,0.13,0.35,0.15,86.48,-1.439,0.968,0,90.4,8,0,0,0,0,0,0,0,0,89.93,0,0,0,0,0,0,0,0,0,0,0,0,0,1,1,47.86,LANDED
48,TAKEOFF,TO_CLIMB,86.26,80,-6.26,1.51,0.15,0.36,0.16,86.89,-1.46,1,0,90.4,8,0,0,0,0,0,0,0,0,89.93,0,0,0,0,0,0,0,0,0,0,0,0,0,1,1,48.04,LANDED
48.22,TAKEOFF,TO_CLIMB,84.22,80,-4.22,1.51,0.15,0.36,0.17,87.5,-1.46,1,0,90.4,8,0,0,0,0,0,0,0,0,89.93,0,0,0,0,0,0,0,0,0,0,0,0,0,1,1,48.26,LANDED
48.4,TAKEOFF,TO_CLIMB,82.54,80,-2.54,1.51,0.14,0.37,0.2,88.06,-1.471,1,0,90.4,8,0,0,0,0,0,0,0,0,89.93,0,0,0,0,0,0,0,0,0,0,0,0,0,1,1,48.44,LANDED
48.58,TAKEOFF,TO_CLIMB,80.84,80,-0.84,1.51,0.15,0.37,0.2,88.67,-1.472,1,0,90.4,8,0,0,0,0,0,0,0,0,89.93,0,0,0,0,0,0,0,0,0,0,0,0,0,1,1,48.62,FLYING
48.76,TAKEOFF,TO_CLIMB,78.62,80,1.38,1.52,0.6,-0.21,-1.03,89.03,-10.521,1,0,90.4,8,0,0,0,0,0,0,0,0,89.93,0,0,0,0,0,0,0,0,0,0,0,0,0,1,1,48.8,FLYING
48.94,TAKEOFF,TO_CLIMB,76.96,80,3.04,1.42,-0.49,-0.27,-0.5,89.6,-16.46,1,0,90.4,8,0,0,0,0,0,0,0,0,89.93,0,0,0,0,0,0,0,0,0,0,0,0,0,1,1,48.98,LANDED
49.12,TAKEOFF,TO_CLIMB,75.16,80,4.84,1.46,-0.61,0.14,0.22,90.3,-14.874,1,0,90.4,8,0,0,0,0,0,0,0,0,89.93,0,0,0,0,0,0,0,0,0,0,0,0,0,1,1,49.16,LANDED
49.34,TAKEOFF,TO_CLIMB,72.93,80,7.07,1.54,-0.44,1.13,1.36,91.09,-9.185,1,0,90.4,8,0,0,0,0,0,0,0,0,89.93,0,0,0,0,0,0,0,0,0,0,0,0,0,1,1,49.38,LANDED
49.52,TAKEOFF,TO_CLIMB,71.85,80,8.15,1.62,-0.13,2.21,2.14,91.63,-4.782,1,0,90.4,8,0,0,0,0,0,0,0,0,89.93,0,0,0,0,0,0,0,0,0,0,0,0,0,1,1,49.56,FLYING
49.7,TAKEOFF,TO_CLIMB,71.42,80,8.58,1.71,0.14,3.61,3.45,92.15,-3.168,1,0,90.4,8,0,0,0,0,0,0,0,0,89.93,0,0,0,0,0,0,0,0,0,0,0,0,0,1,1,49.74,LANDED
49.88,TAKEOFF,TO_CLIMB,70.98,80,9.02,1.73,0.13,4.04,3.99,92.73,-2.999,1,0,90.4,8,0,0,0,0,0,0,0,0,89.93,0,0,0,0,0,0,0,0,0,0,0,0,0,1,1,49.92,LANDED
50.06,TAKEOFF,TO_CLIMB,70.56,80,9.44,1.72,0.13,3.78,3.85,93.33,-3.383,1,0,90.4,8,0,0,0,0,0,0,0,0,89.93,0,0,0,0,0,0,0,0,0,0,0,0,0,1,1,50.1,FLYING
50.24,TAKEOFF,TO_CLIMB,70.14,80,9.86,1.66,0.12,2.84,3.05,93.92,-4.059,1,0,90.4,8,0,0,0,0,0,0,0,0,89.93,0,0,0,0,0,0,0,0,0,0,0,0,0,1,1,50.28,LANDED
50.46,TAKEOFF,TO_CLIMB,69.62,80,10.38,1.53,0.1,0.75,1.19,94.58,-5.288,1,0,90.4,8,0,0,0,0,0,0,0,0,89.93,0,0,0,0,0,0,0,0,0,0,0,0,0,1,1,50.5,LANDED
50.64,TAKEOFF,TO_CLIMB,69.21,80,10.79,1.37,0.07,-1.84,-1.16,95.06,-6.475,1,0,90.4,8,0,0,0,0,0,0,0,0,89.93,0,0,0,0,0,0,0,0,0,0,0,0,0,1,1,50.68,LANDED
50.82,TAKEOFF,TO_CLIMB,68.79,80,11.21,1.35,-0.55,-5.38,-4.12,95.49,-7.609,1,0,90.4,8,0,0,0,0,0,0,0,0,89.93,0,0,0,0,0,0,0,0,0,0,0,0,0,1,1,50.86,FLYING
51,TAKEOFF,TO_CLIMB,68.64,80,11.36,1.89,-2.33,-9.13,-6.26,95.85,-8.971,1,0,90.4,8,0,0,0,0,0,0,0,0,89.93,0,0,0,0,0,0,0,0,0,0,0,0,0,1,1,51.04,FLYING
51.18,TAKEOFF,TO_CLIMB,68.69,80,11.31,2.13,-4.12,-12.84,-8.32,96.14,-10.218,1,0,90.4,8,0,0,0,0,0,0,0,0,89.93,0,0,0,0,0,0,0,0,0,0,0,0,0,1,1,51.22,FLYING
51.36,TAKEOFF,TO_CLIMB,68.77,80,11.23,2.03,-5.93,-16.57,-10.56,96.38,-9.481,1,0,90.4,8,0,0,0,0,0,0,0,0,89.93,0,0,0,0,0,0,0,0,0,0,0,0,0,1,1,51.4,FLYING
51.58,TAKEOFF,TO_CLIMB,68.93,80,11.07,1.47,-8.18,-21.23,-13.72,96.66,-6.102,1,0,90.4,8,0,0,0,0,0,0,0,0,89.93,0,0,0,0,0,0,0,0,0,0,0,0,0,1,1,51.62,FLYING
51.76,TAKEOFF,TO_CLIMB,69.09,80,10.91,3.58,-10.06,-25.22,-16.46,96.89,-3.693,1,0,90.4,8,0,0,0,0,0,0,0,0,89.93,0,0,0,0,0,0,0,0,0,0,0,0,0,1,1,51.8,FLYING
