t_s,phase,subphase,ias_ms,vapp_ms,spd_err_ms,agl_m,vs_ms,pitch_deg,aoa_deg,hdg_deg,bank_deg,thr_cmd,thr_cur,thr_intg,at_gain,at_tau_s,at_a_up,at_a_dn,at_kp_thr,at_ki_spd,at_thr_slew,as_cmd_deg,as_cap_deg,as_raw_deg,as_spd_err_ms,as_active,aa_hdg_cmd_deg,aa_fpa_cmd_deg,aa_fbw,aa_dir,actual_fpa_deg,ftf_hdg_err_deg,ftf_fix_idx,kos_steer_pit_deg,kos_steer_hdg_deg,aa_dir_vx,aa_dir_vy,aa_dir_vz,aa_dir_pitch_deg,aa_dir_hdg_deg,ils_loc_m,ils_gs_m,ils_dist_km,loc_corr_deg,gs_corr_deg,gs_latched,active_gs_ang_deg,ils_intercept_alt_m,d_gs_ms,fpa_preclamped_deg,gs_nom_alt_m,flare_fpa_cmd,flare_tgt_vs,flare_frac,steer_hdg_deg,steer_blend,ro_loc_corr_deg,ro_hdg_err_deg,ro_yaw_tgt,ro_yaw_scale,ro_yaw_gate,yaw_cmd,roll_cmd,pitch_cmd,ro_pitch_tgt_deg,ro_pitch_err_deg,ro_pitch_ff,ro_roll_assist,flaps_cur,flaps_tgt,asc_j_ab,asc_j_rk,asc_validity,asc_q_pa,asc_q_raw_pa,asc_mach,asc_apo_m,asc_drag_n,asc_w_prop,asc_edot_aero,asc_edot_orb,asc_pitch_bias,asc_blend,asc_spooling,asc_ab_thr_ratio,asc_ab_t_now,asc_ab_t_avail,asc_ab_ign_on,asc_ab_flameouts,asc_rk_t_now,asc_rk_t_avail,asc_rk_ign_on,asc_rk_flameouts,ship_thrust,ship_avail_thrust,ship_ign_on,ship_flameouts,ifc_raw_dt_s,ifc_dt_s,ifc_loop_n,ifc_hz_est,ifc_raw_dt_max_s,ifc_raw_dt_min_s,phase_el_s,status,craft_name,cfg_file
0.22,APPROACH,FLY_TO_FIX,71.55,70.14,-1.41,1275.53,0.04,9.87,9.84,281.36,0.061,0,0,0,1,0.6,0.9,0.75,0.35,0.0168,0.4,0,54.529,0,1.426,0,281.47,0.34,1,0,0.04,0.11,0,0,90,0,0,0,0,0,0,0,45.674,0,0,0,3,0,0,0,2467.98,0,0,0,281.36,0,0,0,0,0,0,0,0,0,0,0,0,0,0,0,0,0,VALID,0,0,0,0,0,1,0,0,0,0,0,0,0,0,0,0,0,0,0,0,32.03,387.14,2,0,0.18,0.18,1,3.45,0.18,0.02,0.22,FLYING,CF1-J,0:/Integrated Flight Computer/aircraft/cf1_j_cfg.ks (inferred preloaded)
0.52,APPROACH,FLY_TO_FIX,71.31,70.38,-0.92,1275.55,0,9.91,9.92,281.36,0.057,0.0621,0,-0.182,1,0.6,1.773,0.75,0.35,0.0168,0.4,0,54.603,0,0.94,0,281.47,0.352,0,0,0,0.11,0,0.35,281.47,0,0,0,0,0,0,0,45.653,0,0,0,3,0,0,0,2466.85,0,0,0,281.36,0,0,0,0,0,0,0,0,0,0,0,0,0,0,0,0,0,VALID,0,0,0,0,0,1,0,0,0,0,0,0,0,0,0,0,0,0,0,0,29.89,387.3,2,0,0.08,0.08,4,10,0.18,0.08,0.52,FLYING,CF1-J,0:/Integrated Flight Computer/aircraft/cf1_j_cfg.ks (inferred preloaded)
0.8,APPROACH,FLY_TO_FIX,71.07,70.61,-0.46,1275.58,0,10.08,10.08,281.36,0.056,0.1741,0,-0.359,1,0.6,2.764,0.75,0.35,0.0168,0.4,0,54.675,0,0.476,0,281.47,0.353,0,0,0,0.11,0,0.36,281.47,0,0,0,0,0,0,0,45.631,0,0,0,3,0,0,0,2465.71,0,0,0,281.36,0,0,0,0,0,0,0,0,0,0,0,0,0,0,0,0,0,VALID,0,0,0,0,0,1,0,0,0,0,0,0,0,0,0,0,0,0,0,0,29.83,387.45,2,0,0.1,0.1,7,10.71,0.1,0.08,0.8,FLYING,CF1-J,0:/Integrated Flight Computer/aircraft/cf1_j_cfg.ks (inferred preloaded)
1.06,APPROACH,FLY_TO_FIX,70.84,70.82,-0.02,1275.59,0,10.17,10.18,281.36,0.055,0.2521,0,-0.407,1,0.6,3.537,0.75,0.35,0.0168,0.4,0,54.743,0,0.041,0,281.47,0.354,0,0,0,0.11,0,0.35,281.47,0,0,0,0,0,0,0,45.611,0,0,0,3,0,0,0,2464.66,0,0,0,281.36,0,0,0,0,0,0,0,0,0,0,0,0,0,0,0,0,0,VALID,0,0,0,0,0,1,0,0,0,0,0,0,0,0,0,0,0,0,0,0,30.56,387.59,2,0,0.08,0.08,10,11.54,0.1,0.08,1.06,FLYING,CF1-J,0:/Integrated Flight Computer/aircraft/cf1_j_cfg.ks (inferred preloaded)
1.34,APPROACH,FLY_TO_FIX,70.6,71.04,0.44,1275.61,0,10.27,10.27,281.36,0.054,0.3073,0,-0.331,1,0.6,4.139,0.75,0.35,0.0168,0.4,0,54.816,0,-0.427,0,281.47,0.352,0,0,0,0.11,0,0.35,281.47,0,0,0,0,0,0,0,45.589,0,0,0,3,0,0,0,2463.53,0,0,0,281.36,0,0,0,0,0,0,0,0,0,0,0,0,0,0,0,0,0,VALID,0,0,0,0,0,1,0,0,0,0,0,0,0,0,0,0,0,0,0,0,31.79,387.75,2,0,0.1,0.1,13,10.71,0.1,0.08,1.34,FLYING,CF1-J,0:/Integrated Flight Computer/aircraft/cf1_j_cfg.ks (inferred preloaded)
1.6,APPROACH,FLY_TO_FIX,70.37,71.25,0.88,1275.62,0.01,10.34,10.34,281.36,0.053,0.3492,0,-0.144,1,0.6,4.5,0.75,0.35,0.0168,0.4,0,54.883,0,-0.859,0,281.47,0.351,0,0,0.01,0.11,0,0.35,281.47,0,0,0,0,0,0,0,45.569,0,0,0,3,0,0,0,2462.49,0,0,0,281.36,0,0,0,0,0,0,0,0,0,0,0,0,0,0,0,0,0,VALID,0,0,0,0,0,1,0,0,0,0,0,0,0,0,0,0,0,0,0,0,33.22,387.89,2,0,0.08,0.08,16,11.54,0.1,0.08,1.6,FLYING,CF1-J,0:/Integrated Flight Computer/aircraft/cf1_j_cfg.ks (inferred preloaded)
1.88,APPROACH,FLY_TO_FIX,70.14,71.47,1.34,1275.64,0.01,10.43,10.43,281.36,0.052,0.3885,0,0.182,1,0.6,4.5,0.75,0.35,0.0168,0.4,0,54.954,0,-1.319,0,281.47,0.351,0,0,0.01,0.11,0,0.35,281.47,0,0,0,0,0,0,0,45.548,0,0,0,3,0,0,0,2461.36,0,0,0,281.36,0,0,0,0,0,0,0,0,0,0,0,0,0,0,0,0,0,VALID,0,0,0,0,0,1,0,0,0,0,0,0,0,0,0,0,0,0,0,0,35,388.03,2,0,0.1,0.1,19,10.71,0.1,0.08,1.88,FLYING,CF1-J,0:/Integrated Flight Computer/aircraft/cf1_j_cfg.ks (inferred preloaded)
2.14,APPROACH,FLY_TO_FIX,69.92,71.68,1.76,1275.65,0.01,10.5,10.5,281.36,0.051,0.4218,0,0.598,1,0.6,4.5,0.75,0.35,0.0168,0.4,0,55,0,-1.74,0,281.48,0.351,0,0,0,0.11,0,0.35,281.47,0,0,0,0,0,0,0,45.528,0,0,0,3,0,0,0,2460.33,0,0,0,281.36,0,0,0,0,0,0,0,0,0,0,0,0,0,0,0,0,0,VALID,0,0,0,0,0,1,0,0,0,0,0,0,0,0,0,0,0,0,0,0,36.86,388.17,2,0,0.08,0.08,22,11.54,0.1,0.08,2.14,FLYING,CF1-J,0:/Integrated Flight Computer/aircraft/cf1_j_cfg.ks (inferred preloaded)
2.42,APPROACH,FLY_TO_FIX,69.7,71.9,2.2,1275.66,0.01,10.59,10.58,281.36,0.05,0.4566,0,1.169,1,0.6,4.5,0.75,0.35,0.0168,0.4,0,55,0,-2.186,0,281.48,0.35,0,0,0.01,0.11,0,0.35,281.48,0,0,0,0,0,0,0,45.507,0,0,0,3,0,0,0,2459.21,0,0,0,281.36,0,0,0,0,0,0,0,0,0,0,0,0,0,0,0,0,0,VALID,0,0,0,0,0,1,0,0,0,0,0,0,0,0,0,0,0,0,0,0,39.05,388.31,2,0,0.1,0.1,25,10.71,0.1,0.08,2.42,FLYING,CF1-J,0:/Integrated Flight Computer/aircraft/cf1_j_cfg.ks (inferred preloaded)
2.68,APPROACH,FLY_TO_FIX,69.5,72.11,2.61,1275.68,0.01,10.65,10.65,281.36,0.049,0.4877,0,1.809,1,0.6,4.5,0.75,0.35,0.0168,0.4,0,55,0,-2.593,0,281.48,0.349,0,0,0.01,0.11,0,0.35,281.48,0,0,0,0,0,0,0,45.487,0,0,0,3,0,0,0,2458.18,0,0,0,281.36,0,0,0,0,0,0,0,0,0,0,0,0,0,0,0,0,0,VALID,0,0,0,0,0,1,0,0,0,0,0,0,0,0,0,0,0,0,0,0,41.25,388.43,2,0,0.08,0.08,28,11.54,0.1,0.08,2.68,FLYING,CF1-J,0:/Integrated Flight Computer/aircraft/cf1_j_cfg.ks (inferred preloaded)
2.96,APPROACH,FLY_TO_FIX,69.3,72.34,3.04,1275.69,0.01,10.71,10.71,281.36,0.048,0.5211,0,2.615,1,0.6,4.5,0.75,0.35,0.0168,0.4,0,55,0,-3.022,0,281.48,0.349,0,0,0.01,0.11,0,0.35,281.48,0,0,0,0,0,0,0,45.466,0,0,0,3,0,0,0,2457.07,0,0,0,281.36,0,0,0,0,0,0,0,0,0,0,0,0,0,0,0,0,0,VALID,0,0,0,0,0,1,0,0,0,0,0,0,0,0,0,0,0,0,0,0,43.79,388.56,2,0,0.1,0.1,31,10.71,0.1,0.08,2.96,FLYING,CF1-J,0:/Integrated Flight Computer/aircraft/cf1_j_cfg.ks (inferred preloaded)
3.22,APPROACH,FLY_TO_FIX,69.12,72.54,3.42,1275.71,0.02,10.78,10.77,281.36,0.047,0.5513,0,3.469,1,0.6,4.5,0.75,0.35,0.0168,0.4,0,55,0,-3.41,0,281.48,0.347,0,0,0.02,0.11,0,0.35,281.48,0,0,0,0,0,0,0,45.447,0,0,0,3,0,0,0,2456.05,0,0,0,281.36,0,0,0,0,0,0,0,0,0,0,0,0,0,0,0,0,0,VALID,0,0,0,0,0,1,0,0,0,0,0,0,0,0,0,0,0,0,0,0,46.31,388.67,2,0,0.08,0.08,34,11.54,0.1,0.08,3.22,FLYING,CF1-J,0:/Integrated Flight Computer/aircraft/cf1_j_cfg.ks (inferred preloaded)
3.5,APPROACH,FLY_TO_FIX,68.94,72.77,3.83,1275.72,0.02,10.83,10.83,281.36,0.046,0.5844,0,4.5,1,0.6,4.5,0.75,0.35,0.0168,0.4,0,55,0,-3.818,0,281.48,0.348,0,0,0.01,0.11,0,0.35,281.48,0,0,0,0,0,0,0,45.426,0,0,0,3,0,0,0,2454.95,0,0,0,281.36,0,0,0,0,0,0,0,0,0,0,0,0,0,0,0,0,0,VALID,0,0,0,0,0,1,0,0,0,0,0,0,0,0,0,0,0,0,0,0,49.18,388.78,2,0,0.1,0.1,37,10.71,0.1,0.08,3.5,FLYING,CF1-J,0:/Integrated Flight Computer/aircraft/cf1_j_cfg.ks (inferred preloaded)
3.76,APPROACH,FLY_TO_FIX,68.78,72.98,4.2,1275.73,0.02,10.89,10.87,281.36,0.045,0.6139,0,5.556,1,0.6,4.5,0.75,0.35,0.0168,0.4,0,55,0,-4.184,0,281.48,0.346,0,0,0.02,0.11,0,0.35,281.48,0,0,0,0,0,0,0,45.406,0,0,0,3,0,0,0,2453.92,0,0,0,281.36,0,0,0,0,0,0,0,0,0,0,0,0,0,0,0,0,0,VALID,0,0,0,0,0,1,0,0,0,0,0,0,0,0,0,0,0,0,0,0,51.99,388.88,2,0,0.08,0.08,40,11.54,0.1,0.08,3.76,FLYING,CF1-J,0:/Integrated Flight Computer/aircraft/cf1_j_cfg.ks (inferred preloaded)
4.04,APPROACH,FLY_TO_FIX,68.62,73.2,4.58,1275.75,0.03,10.93,10.92,281.36,0.044,0.6465,0,6.8,1,0.6,4.5,0.75,0.35,0.0168,0.4,0,55,0,-4.566,0,281.48,0.345,0,0,0.02,0.11,0,0.35,281.48,0,0,0,0,0,0,0,45.385,0,0,0,3,0,0,0,2452.83,0,0,0,281.36,0,0,0,0,0,0,0,0,0,0,0,0,0,0,0,0,0,VALID,0,0,0,0,0,1,0,0,0,0,0,0,0,0,0,0,0,0,0,0,55.18,388.98,2,0,0.1,0.1,43,10.71,0.1,0.08,4.04,FLYING,CF1-J,0:/Integrated Flight Computer/aircraft/cf1_j_cfg.ks (inferred preloaded)
4.3,APPROACH,FLY_TO_FIX,68.49,73.41,4.92,1275.76,0.03,10.97,10.95,281.36,0.043,0.6752,0,8.047,1,0.6,4.5,0.75,0.35,0.0168,0.4,0,55,0,-4.908,0,281.48,0.343,0,0,0.03,0.12,0,0.34,281.48,0,0,0,0,0,0,0,45.366,0,0,0,3,0,0,0,2451.81,0,0,0,281.36,0,0,0,0,0,0,0,0,0,0,0,0,0,0,0,0,0,VALID,0,0,0,0,0,1,0,0,0,0,0,0,0,0,0,0,0,0,0,0,58.27,389.06,2,0,0.08,0.08,46,11.54,0.1,0.08,4.3,FLYING,CF1-J,0:/Integrated Flight Computer/aircraft/cf1_j_cfg.ks (inferred preloaded)
4.58,APPROACH,FLY_TO_FIX,68.36,73.63,5.27,1275.78,0.03,11,10.98,281.36,0.042,0.7067,0,9.488,1,0.6,4.5,0.75,0.35,0.0168,0.4,0,55,0,-5.262,0,281.48,0.343,0,0,0.03,0.12,0,0.34,281.48,0,0,0,0,0,0,0,45.345,0,0,0,3,0,0,0,2450.72,0,0,0,281.36,0,0,0,0,0,0,0,0,0,0,0,0,0,0,0,0,0,VALID,0,0,0,0,0,1,0,0,0,0,0,0,0,0,0,0,0,0,0,0,61.75,389.14,2,0,0.1,0.1,49,10.71,0.1,0.08,4.58,FLYING,CF1-J,0:/Integrated Flight Computer/aircraft/cf1_j_cfg.ks (inferred preloaded)
4.84,APPROACH,FLY_TO_FIX,68.26,73.84,5.58,1275.79,0.04,11.02,11,281.36,0.041,0.7338,0,10.91,1,0.6,4.5,0.75,0.35,0.0168,0.4,0,55,0,-5.575,0,281.48,0.341,0,0,0.03,0.12,0,0.34,281.48,0,0,0,0,0,0,0,45.326,0,0,0,3,0,0,0,2449.71,0,0,0,281.36,0,0,0,0,0,0,0,0,0,0,0,0,0,0,0,0,0,VALID,0,0,0,0,0,1,0,0,0,0,0,0,0,0,0,0,0,0,0,0,65.1,389.21,2,0,0.08,0.08,52,11.54,0.1,0.08,4.84,FLYING,CF1-J,0:/Integrated Flight Computer/aircraft/cf1_j_cfg.ks (inferred preloaded)
5.12,APPROACH,FLY_TO_FIX,68.16,74.06,5.9,1275.8,0.04,11.04,11.01,281.36,0.04,0.764,0,12.532,1,0.6,4.5,0.75,0.35,0.0168,0.4,0,55,0,-5.896,0,281.48,0.339,0,0,0.04,0.12,0,0.34,281.48,0,0,0,0,0,0,0,45.305,0,0,0,3,0,0,0,2448.62,0,0,0,281.36,0,0,0,0,0,0,0,0,0,0,0,0,0,0,0,0,0,VALID,0,0,0,0,0,1,0,0,0,0,0,0,0,0,0,0,0,0,0,0,68.84,389.27,2,0,0.1,0.1,55,10.71,0.1,0.08,5.12,FLYING,CF1-J,0:/Integrated Flight Computer/aircraft/cf1_j_cfg.ks (inferred preloaded)
5.38,APPROACH,FLY_TO_FIX,68.09,74.27,6.18,1275.82,0.05,11.06,11.02,281.36,0.039,0.7897,0,14.114,1,0.6,4.5,0.75,0.35,0.0168,0.4,0,55,0,-6.178,0,281.48,0.338,0,0,0.04,0.12,0,0.34,281.48,0,0,0,0,0,0,0,45.286,0,0,0,3,0,0,0,2447.61,0,0,0,281.36,0,0,0,0,0,0,0,0,0,0,0,0,0,0,0,0,0,VALID,0,0,0,0,0,1,0,0,0,0,0,0,0,0,0,0,0,0,0,0,72.43,389.31,2,0,0.08,0.08,58,11.54,0.1,0.08,5.38,FLYING,CF1-J,0:/Integrated Flight Computer/aircraft/cf1_j_cfg.ks (inferred preloaded)
5.66,APPROACH,FLY_TO_FIX,68.03,74.5,6.47,1275.83,0.05,11.06,11.02,281.36,0.037,0.8179,0,15.898,1,0.6,4.5,0.75,0.35,0.0168,0.4,0,55,0,-6.463,0,281.48,0.336,0,0,0.04,0.12,0,0.34,281.48,0,0,0,0,0,0,0,45.265,0,0,0,3,0,0,0,2446.52,0,0,0,281.36,0,0,0,0,0,0,0,0,0,0,0,0,0,0,0,0,0,VALID,0,0,0,0,0,1,0,0,0,0,0,0,0,0,0,0,0,0,0,0,76.4,389.35,2,0,0.1,0.1,61,10.71,0.1,0.08,5.66,FLYING,CF1-J,0:/Integrated Flight Computer/aircraft/cf1_j_cfg.ks (inferred preloaded)
5.92,APPROACH,FLY_TO_FIX,67.99,74.7,6.71,1275.84,0.06,11.05,11.01,281.36,0.036,0.8416,0,17.621,1,0.6,4.5,0.75,0.35,0.0168,0.4,0,55,0,-6.711,0,281.48,0.334,0,0,0.05,0.12,0,0.34,281.48,0,0,0,0,0,0,0,45.246,0,0,0,3,0,0,0,2445.51,0,0,0,281.36,0,0,0,0,0,0,0,0,0,0,0,0,0,0,0,0,0,VALID,0,0,0,0,0,1,0,0,0,0,0,0,0,0,0,0,0,0,0,0,80.19,389.37,2,0,0.08,0.08,64,11.54,0.1,0.08,5.92,FLYING,CF1-J,0:/Integrated Flight Computer/aircraft/cf1_j_cfg.ks (inferred preloaded)
6.2,APPROACH,FLY_TO_FIX,67.97,74.93,6.96,1275.86,0.07,11.04,10.99,281.36,0.035,0.8676,0,19.547,1,0.6,4.5,0.75,0.35,0.0168,0.4,0,55,0,-6.958,0,281.48,0.332,0,0,0.06,0.12,0,0.33,281.48,0,0,0,0,0,0,0,45.225,0,0,0,3,0,0,0,2444.42,0,0,0,281.36,0,0,0,0,0,0,0,0,0,0,0,0,0,0,0,0,0,VALID,0,0,0,0,0,1,0,0,0,0,0,0,0,0,0,0,0,0,0,0,84.37,389.38,2,0,0.1,0.1,67,10.71,0.1,0.08,6.2,FLYING,CF1-J,0:/Integrated Flight Computer/aircraft/cf1_j_cfg.ks (inferred preloaded)
6.46,APPROACH,FLY_TO_FIX,67.97,75.14,7.17,1275.87,0.07,11.02,10.96,281.36,0.034,0.8654,0,20,1,0.6,4.5,0.75,0.35,0.0168,0.4,0,55,0,-7.168,0,281.48,0.33,0,0,0.06,0.12,0,0.33,281.48,0,0,0,0,0,0,0,45.206,0,0,0,3,0,0,0,2443.41,0,0,0,281.36,0,0,0,0,0,0,0,0,0,0,0,0,0,0,0,0,0,VALID,0,0,0,0,0,1,0,0,0,0,0,0,0,0,0,0,0,0,0,0,88.3,389.38,2,0,0.08,0.08,70,11.54,0.1,0.08,6.46,FLYING,CF1-J,0:/Integrated Flight Computer/aircraft/cf1_j_cfg.ks (inferred preloaded)
6.74,APPROACH,FLY_TO_FIX,67.99,75.36,7.37,1275.89,0.08,10.98,10.92,281.35,0.033,0.8544,0,20,1,0.6,4.5,0.75,0.35,0.0168,0.4,0,55,0,-7.374,0,281.48,0.328,0,0,0.07,0.12,0,0.33,281.48,0,0,0,0,0,0,0,45.185,0,0,0,3,0,0,0,2442.33,0,0,0,281.36,0,0,0,0,0,0,0,0,0,0,0,0,0,0,0,0,0,VALID,0,0,0,0,0,1,0,0,0,0,0,0,0,0,0,0,0,0,0,0,92.42,389.37,2,0,0.1,0.1,73,10.71,0.1,0.08,6.74,FLYING,CF1-J,0:/Integrated Flight Computer/aircraft/cf1_j_cfg.ks (inferred preloaded)
7,APPROACH,FLY_TO_FIX,68.03,75.57,7.54,1275.91,0.09,10.95,10.87,281.35,0.032,0.8411,0,20,1,0.6,4.5,0.75,0.35,0.0168,0.4,0,55,0,-7.546,0,281.48,0.325,0,0,0.07,0.12,0,0.33,281.48,0,0,0,0,0,0,0,45.166,0,0,0,3,0,0,0,2441.32,0,0,0,281.36,0,0,0,0,0,0,0,0,0,0,0,0,0,0,0,0,0,VALID,0,0,0,0,0,1,0,0,0,0,0,0,0,0,0,0,0,0,0,0,96.12,389.34,2,0,0.08,0.08,76,11.54,0.1,0.08,7,FLYING,CF1-J,0:/Integrated Flight Computer/aircraft/cf1_j_cfg.ks (inferred preloaded)
7.28,APPROACH,FLY_TO_FIX,68.09,75.79,7.71,1275.92,0.1,10.9,10.82,281.35,0.031,0.8274,0,20,1,0.6,4.5,0.75,0.35,0.0168,0.4,0,55,0,-7.711,0,281.48,0.324,0,0,0.08,0.13,0,0.33,281.48,0,0,0,0,0,0,0,45.145,0,0,0,3,0,0,0,2440.23,0,0,0,281.36,0,0,0,0,0,0,0,0,0,0,0,0,0,0,0,0,0,VALID,0,0,0,0,0,1,0,0,0,0,0,0,0,0,0,0,0,0,0,0,99.94,389.3,2,0,0.1,0.1,79,10.71,0.1,0.08,7.28,FLYING,CF1-J,0:/Integrated Flight Computer/aircraft/cf1_j_cfg.ks (inferred preloaded)
7.54,APPROACH,FLY_TO_FIX,68.16,76,7.84,1275.94,0.1,10.85,10.77,281.35,0.03,0.8121,0,20,1,0.6,4.5,0.75,0.35,0.0168,0.4,0,55,0,-7.846,0,281.48,0.322,0,0,0.08,0.13,0,0.32,281.48,0,0,0,0,0,0,0,45.126,0,0,0,3,0,0,0,2439.22,0,0,0,281.36,0,0,0,0,0,0,0,0,0,0,0,0,0,0,0,0,0,VALID,0,0,0,0,0,1,0,0,0,0,0,0,0,0,0,0,0,0,0,0,103.35,389.26,2,0,0.08,0.08,82,11.54,0.1,0.08,7.54,FLYING,CF1-J,0:/Integrated Flight Computer/aircraft/cf1_j_cfg.ks (inferred preloaded)
7.82,APPROACH,FLY_TO_FIX,68.26,76.22,7.97,1275.96,0.11,10.79,10.7,281.35,0.029,0.7969,0,20,1,0.6,4.5,0.75,0.35,0.0168,0.4,0,55,0,-7.973,0,281.48,0.319,0,0,0.09,0.13,0,0.32,281.48,0,0,0,0,0,0,0,45.105,0,0,0,3,0,0,0,2438.13,0,0,0,281.36,0,0,0,0,0,0,0,0,0,0,0,0,0,0,0,0,0,VALID,0,0,0,0,0,1,0,0,0,0,0,0,0,0,0,0,0,0,0,0,106.85,389.19,2,0,0.1,0.1,85,10.71,0.1,0.08,7.82,FLYING,CF1-J,0:/Integrated Flight Computer/aircraft/cf1_j_cfg.ks (inferred preloaded)
8.08,APPROACH,FLY_TO_FIX,68.37,76.43,8.06,1275.98,0.12,10.73,10.64,281.35,0.028,0.7805,0,20,1,0.6,4.5,0.75,0.35,0.0168,0.4,0,55,0,-8.074,0,281.48,0.317,0,0,0.1,0.13,0,0.32,281.48,0,0,0,0,0,0,0,45.085,0,0,0,3,0,0,0,2437.12,0,0,0,281.36,0,0,0,0,0,0,0,0,0,0,0,0,0,0,0,0,0,VALID,0,0,0,0,0,1,0,0,0,0,0,0,0,0,0,0,0,0,0,0,109.95,389.12,2,0,0.08,0.08,88,11.54,0.1,0.08,8.08,FLYING,CF1-J,0:/Integrated Flight Computer/aircraft/cf1_j_cfg.ks (inferred preloaded)
8.36,APPROACH,FLY_TO_FIX,68.5,76.66,8.15,1276,0.13,10.66,10.56,281.35,0.027,0.7641,0,20,1,0.6,4.5,0.75,0.35,0.0168,0.4,0,55,0,-8.165,0,281.48,0.314,0,0,0.1,0.13,0,0.32,281.48,0,0,0,0,0,0,0,45.065,0,0,0,3,0,0,0,2436.02,0,0,0,281.36,0,0,0,0,0,0,0,0,0,0,0,0,0,0,0,0,0,VALID,0,0,0,0,0,1,0,0,0,0,0,0,0,0,0,0,0,0,0,0,113.13,389.04,2,0,0.1,0.1,91,10.71,0.1,0.08,8.36,FLYING,CF1-J,0:/Integrated Flight Computer/aircraft/cf1_j_cfg.ks (inferred preloaded)
8.62,APPROACH,FLY_TO_FIX,68.64,76.86,8.22,1276.03,0.13,10.6,10.49,281.35,0.026,0.7471,0,20,1,0.6,4.5,0.75,0.35,0.0168,0.4,0,55,0,-8.234,0,281.48,0.311,0,0,0.11,0.13,0,0.31,281.48,0,0,0,0,0,0,0,45.045,0,0,0,3,0,0,0,2435,0,0,0,281.36,0,0,0,0,0,0,0,0,0,0,0,0,0,0,0,0,0,VALID,0,0,0,0,0,1,0,0,0,0,0,0,0,0,0,0,0,0,0,0,115.93,388.95,2,0,0.08,0.08,94,11.54,0.1,0.08,8.62,FLYING,CF1-J,0:/Integrated Flight Computer/aircraft/cf1_j_cfg.ks (inferred preloaded)
8.9,APPROACH,FLY_TO_FIX,68.81,77.09,8.28,1276.05,0.14,10.52,10.41,281.35,0.025,0.73,0,20,1,0.6,4.5,0.75,0.35,0.0168,0.4,0,55,0,-8.292,0,281.48,0.309,0,0,0.12,0.13,0,0.31,281.48,0,0,0,0,0,0,0,45.024,0,0,0,3,0,0,0,2433.9,0,0,0,281.36,0,0,0,0,0,0,0,0,0,0,0,0,0,0,0,0,0,VALID,0,0,0,0,0,1,0,0,0,0,0,0,0,0,0,0,0,0,0,0,118.78,388.84,2,0,0.1,0.1,97,10.71,0.1,0.08,8.9,FLYING,CF1-J,0:/Integrated Flight Computer/aircraft/cf1_j_cfg.ks (inferred preloaded)
9.16,APPROACH,FLY_TO_FIX,68.98,77.3,8.32,1276.08,0.15,10.44,10.32,281.35,0.024,0.7124,0,20,1,0.6,4.5,0.75,0.35,0.0168,0.4,0,55,0,-8.331,0,281.48,0.306,0,0,0.13,0.13,0,0.31,281.48,0,0,0,0,0,0,0,45.005,0,0,0,3,0,0,0,2432.88,0,0,0,281.36,0,0,0,0,0,0,0,0,0,0,0,0,0,0,0,0,0,VALID,0,0,0,0,0,1,0,0,0,0,0,0,0,0,0,0,0,0,0,0,121.27,388.73,2,0,0.08,0.08,100,11.54,0.1,0.08,9.16,FLYING,CF1-J,0:/Integrated Flight Computer/aircraft/cf1_j_cfg.ks (inferred preloaded)
9.44,APPROACH,FLY_TO_FIX,69.18,77.52,8.34,1276.11,0.17,10.36,10.23,281.34,0.023,0.6949,0,20,1,0.6,4.5,0.75,0.35,0.0168,0.4,0,55,0,-8.358,0,281.48,0.302,0,0,0.14,0.13,0,0.3,281.48,0,0,0,0,0,0,0,44.984,0,0,0,3,0,0,0,2431.78,0,0,0,281.36,0,0,0,0,0,0,0,0,0,0,0,0,0,1,1,0,0,VALID,0,0,0,0,0,1,0,0,0,0,0,0,0,0,0,0,0,0,0,0,123.8,388.6,2,0,0.1,0.1,103,10.71,0.1,0.08,9.44,FLYING,CF1-J,0:/Integrated Flight Computer/aircraft/cf1_j_cfg.ks (inferred preloaded)
9.7,APPROACH,FLY_TO_FIX,69.37,77.73,8.36,1276.14,0.2,10.23,10.07,281.34,0.022,0.6793,0,20,1,0.6,4.5,0.75,0.35,0.0168,0.4,0,55,0,-8.373,0,281.48,0.292,0,0,0.16,0.14,0,0.3,281.48,0,0,0,0,0,0,0,44.964,0,0,0,3,0,0,0,2430.75,0,0,0,281.36,0,0,0,0,0,0,0,0,0,0,0,0,0,1,1,0,0,VALID,0,0,0,0,0,1,0,0,0,0,0,0,0,0,0,0,0,0,0,0,126,388.48,2,0,0.08,0.08,106,11.54,0.1,0.08,9.7,FLYING,CF1-J,0:/Integrated Flight Computer/aircraft/cf1_j_cfg.ks (inferred preloaded)
9.98,APPROACH,FLY_TO_FIX,69.59,77.95,8.36,1276.17,0.24,10.05,9.86,281.34,0.021,0.6657,0,20,1,0.6,4.5,0.75,0.35,0.0168,0.4,0,55,0,-8.381,0,281.48,0.28,0,0,0.19,0.14,0,0.29,281.48,0,0,0,0,0,0,0,44.943,0,0,0,3,0,0,0,2429.64,0,0,0,281.36,0,0,0,0,0,0,0,0,0,0,0,0,0,1,1,0,0,VALID,0,0,0,0,0,1,0,0,0,0,0,0,0,0,0,0,0,0,0,0,128.23,388.34,2,0,0.1,0.1,109,10.71,0.1,0.08,9.98,FLYING,CF1-J,0:/Integrated Flight Computer/aircraft/cf1_j_cfg.ks (inferred preloaded)
10.24,APPROACH,FLY_TO_FIX,69.8,78.16,8.36,1276.21,0.28,9.85,9.64,281.34,0.02,0.6522,0,20,1,0.6,4.5,0.75,0.35,0.0168,0.4,0,55,0,-8.378,0,281.48,0.27,0,0,0.22,0.14,0,0.27,281.48,0,0,0,0,0,0,0,44.923,0,0,0,3,0,0,0,2428.6,0,0,0,281.36,0,0,0,0,0,0,0,0,0,0,0,0,0,1,1,0,0,VALID,0,0,0,0,0,1,0,0,0,0,0,0,0,0,0,0,0,0,0,0,130.18,388.2,2,0,0.08,0.08,112,11.54,0.1,0.08,10.24,FLYING,CF1-J,0:/Integrated Flight Computer/aircraft/cf1_j_cfg.ks (inferred preloaded)
10.52,APPROACH,FLY_TO_FIX,70.04,78.38,8.35,1276.26,0.31,9.64,9.4,281.34,0.019,0.6384,0,20,1,0.6,4.5,0.75,0.35,0.0168,0.4,0,54.994,0,-8.365,0,281.48,0.259,0,0,0.25,0.14,0,0.26,281.48,0,0,0,0,0,0,0,44.902,0,0,0,3,0,0,0,2427.48,0,0,0,281.36,0,0,0,0,0,0,0,0,0,0,0,0,0,1,1,0,0,VALID,0,0,0,0,0,1,0,0,0,0,0,0,0,0,0,0,0,0,0,0,132.16,388.05,2,0,0.1,0.1,115,10.71,0.1,0.08,10.52,FLYING,CF1-J,0:/Integrated Flight Computer/aircraft/cf1_j_cfg.ks (inferred preloaded)
10.78,APPROACH,FLY_TO_FIX,70.27,78.59,8.33,1276.31,0.35,9.42,9.15,281.34,0.019,0.6244,0,20,1,0.6,4.5,0.75,0.35,0.0168,0.4,0,54.926,0,-8.344,0,281.48,0.248,0,0,0.28,0.14,0,0.25,281.48,0,0,0,0,0,0,0,44.882,0,0,0,3,0,0,0,2426.44,0,0,0,281.36,0,0,0,0,0,0,0,0,0,0,0,0,0,1,1,0,0,VALID,0,0,0,0,0,1,0,0,0,0,0,0,0,0,0,0,0,0,0,0,133.87,387.9,2,0,0.08,0.08,118,11.54,0.1,0.08,10.78,FLYING,CF1-J,0:/Integrated Flight Computer/aircraft/cf1_j_cfg.ks (inferred preloaded)
11.06,APPROACH,FLY_TO_FIX,70.52,78.82,8.29,1276.36,0.37,9.14,8.84,281.34,0.017,0.6096,0,20,1,0.6,4.5,0.75,0.35,0.0168,0.4,0,54.849,0,-8.311,0,281.48,0.238,0,0,0.3,0.14,0,0.24,281.48,0,0,0,0,0,0,0,44.86,0,0,0,3,0,0,0,2425.32,0,0,0,281.36,0,0,0,0,0,0,0,0,0,0,0,0,0,1,1,0,0,VALID,0,0,0,0,0,1,0,0,0,0,0,0,0,0,0,0,0,0,0,0,135.6,387.73,2,0,0.1,0.1,121,10.71,0.1,0.08,11.06,FLYING,CF1-J,0:/Integrated Flight Computer/aircraft/cf1_j_cfg.ks (inferred preloaded)
11.32,APPROACH,FLY_TO_FIX,70.77,79.02,8.25,1276.42,0.37,8.91,8.62,281.34,0.016,0.5948,0,20,1,0.6,4.5,0.75,0.35,0.0168,0.4,0,54.775,0,-8.272,0,281.48,0.238,0,0,0.3,0.14,0,0.24,281.48,0,0,0,0,0,0,0,44.84,0,0,0,3,0,0,0,2424.27,0,0,0,281.36,0,0,0,0,0,0,0,0,0,0,0,0,0,1,1,0,0,VALID,0,0,0,0,0,1,0,0,0,0,0,0,0,0,0,0,0,0,0,0,137.08,387.57,2,0,0.08,0.08,124,11.54,0.1,0.08,11.32,FLYING,CF1-J,0:/Integrated Flight Computer/aircraft/cf1_j_cfg.ks (inferred preloaded)
11.6,APPROACH,FLY_TO_FIX,71.04,79.25,8.2,1276.49,0.39,8.7,8.4,281.34,0.015,0.5809,0,20,1,0.6,4.5,0.75,0.35,0.0168,0.4,0,54.693,0,-8.223,0,281.48,0.234,0,0,0.31,0.14,0,0.24,281.48,0,0,0,0,0,0,0,44.819,0,0,0,3,0,0,0,2423.13,0,0,0,281.36,0,0,0,0,0,0,0,0,0,0,0,0,0,1,1,0,0,VALID,0,0,0,0,0,1,0,0,0,0,0,0,0,0,0,0,0,0,0,0,138.55,387.39,2,0,0.1,0.1,127,10.71,0.1,0.08,11.6,FLYING,CF1-J,0:/Integrated Flight Computer/aircraft/cf1_j_cfg.ks (inferred preloaded)
11.86,APPROACH,FLY_TO_FIX,71.3,79.46,8.15,1276.56,0.4,8.49,8.18,281.34,0.015,0.5692,0,20,1,0.6,4.5,0.75,0.35,0.0168,0.4,0,54.615,0,-8.173,0,281.48,0.229,0,0,0.32,0.15,0,0.23,281.48,0,0,0,0,0,0,0,44.798,0,0,0,3,0,0,0,2422.08,0,0,0,281.36,0,0,0,0,0,0,0,0,0,0,0,0,0,1,1,0,0,VALID,0,0,0,0,0,1,0,0,0,0,0,0,0,0,0,0,0,0,0,0,139.81,387.23,2,0,0.08,0.08,130,11.54,0.1,0.08,11.86,FLYING,CF1-J,0:/Integrated Flight Computer/aircraft/cf1_j_cfg.ks (inferred preloaded)
12.14,APPROACH,FLY_TO_FIX,71.58,79.68,8.1,1276.64,0.42,8.26,7.94,281.34,0.015,0.5587,0,20,1,0.6,4.5,0.75,0.35,0.0168,0.4,0,54.531,0,-8.116,0,281.48,0.224,0,0,0.33,0.15,0,0.23,281.48,0,0,0,0,0,0,0,44.777,0,0,0,3,0,0,0,2420.93,0,0,0,281.36,0,0,0,0,0,0,0,0,0,0,0,0,0,1,1,0,0,VALID,0,0,0,0,0,1,0,0,0,0,0,0,0,0,0,0,0,0,0,0,141.07,387.04,2,0,0.1,0.1,133,10.71,0.1,0.08,12.14,FLYING,CF1-J,0:/Integrated Flight Computer/aircraft/cf1_j_cfg.ks (inferred preloaded)
12.4,APPROACH,FLY_TO_FIX,71.85,79.89,8.04,1276.72,0.43,8.05,7.73,281.33,0.015,0.5497,0,20,1,0.6,4.5,0.75,0.35,0.0168,0.4,0,54.451,0,-8.06,0,281.48,0.219,0,0,0.34,0.15,0,0.22,281.48,0,0,0,0,0,0,0,44.756,0,0,0,3,0,0,0,2419.87,0,0,0,281.36,0,0,0,0,0,0,0,0,0,0,0,0,0,1,1,0,0,VALID,0,0,0,0,0,1,0,0,0,0,0,0,0,0,0,0,0,0,0,0,142.15,386.87,2,0,0.08,0.08,136,11.54,0.1,0.08,12.4,FLYING,CF1-J,0:/Integrated Flight Computer/aircraft/cf1_j_cfg.ks (inferred preloaded)
12.68,APPROACH,FLY_TO_FIX,72.14,80.11,7.98,1276.81,0.44,7.83,7.5,281.33,0.015,0.5418,0,20,1,0.6,4.5,0.75,0.35,0.0168,0.4,0,54.366,0,-7.997,0,281.48,0.216,0,0,0.35,0.15,0,0.22,281.48,0,0,0,0,0,0,0,44.734,0,0,0,3,0,0,0,2418.72,0,0,0,281.36,0,0,0,0,0,0,0,0,0,0,0,0,0,1,1,0,0,VALID,0,0,0,0,0,1,0,0,0,0,0,0,0,0,0,0,0,0,0,0,143.24,386.68,2,0,0.1,0.1,139,10.71,0.1,0.08,12.68,FLYING,CF1-J,0:/Integrated Flight Computer/aircraft/cf1_j_cfg.ks (inferred preloaded)
12.94,APPROACH,FLY_TO_FIX,72.41,80.32,7.91,1276.89,0.42,7.65,7.34,281.33,0.015,0.5329,0,20,1,0.6,4.5,0.75,0.35,0.0168,0.4,0,54.285,0,-7.936,0,281.48,0.218,0,0,0.34,0.15,0,0.22,281.48,0,0,0,0,0,0,0,44.714,0,0,0,3,0,0,0,2417.64,0,0,0,281.36,0,0,0,0,0,0,0,0,0,0,0,0,0,1,1,0,0,VALID,0,0,0,0,0,1,0,0,0,0,0,0,0,0,0,0,0,0,0,0,144.19,386.51,2,0,0.08,0.08,142,11.54,0.1,0.08,12.94,FLYING,CF1-J,0:/Integrated Flight Computer/aircraft/cf1_j_cfg.ks (inferred preloaded)
13.22,APPROACH,FLY_TO_FIX,72.71,80.54,7.84,1277,0.42,7.56,7.26,281.33,0.016,0.5197,0,20,1,0.6,4.5,0.75,0.35,0.0168,0.4,0,54.195,0,-7.86,0,281.48,0.223,0,0,0.33,0.15,0,0.22,281.48,0,0,0,0,0,0,0,44.692,0,0,0,3,0,0,0,2416.48,0,0,0,281.36,0,0,0,0,0,0,0,0,0,0,0,0,0,1,1,0,0,VALID,0,0,0,0,0,1,0,0,0,0,0,0,0,0,0,0,0,0,0,0,145.13,386.31,2,0,0.1,0.1,145,10.71,0.1,0.08,13.22,FLYING,CF1-J,0:/Integrated Flight Computer/aircraft/cf1_j_cfg.ks (inferred preloaded)
13.48,APPROACH,FLY_TO_FIX,72.99,80.75,7.76,1277.09,0.42,7.49,7.18,281.33,0.016,0.5065,0,20,1,0.6,4.5,0.75,0.35,0.0168,0.4,0,54.11,0,-7.784,0,281.48,0.221,0,0,0.33,0.15,0,0.22,281.48,0,0,0,0,0,0,0,44.671,0,0,0,3,0,0,0,2415.4,0,0,0,281.36,0,0,0,0,0,0,0,0,0,0,0,0,0,1,1,0,0,VALID,0,0,0,0,0,1,0,0,0,0,0,0,0,0,0,0,0,0,0,0,145.9,386.12,2,0,0.08,0.08,148,11.54,0.1,0.08,13.48,FLYING,CF1-J,0:/Integrated Flight Computer/aircraft/cf1_j_cfg.ks (inferred preloaded)
13.76,APPROACH,FLY_TO_FIX,73.3,80.98,7.67,1277.19,0.42,7.38,7.08,281.33,0.016,0.493,0,20,1,0.6,4.5,0.75,0.35,0.0168,0.4,0,54.016,0,-7.697,0,281.48,0.22,0,0,0.33,0.15,0,0.22,281.48,0,0,0,0,0,0,0,44.649,0,0,0,3,0,0,0,2414.23,0,0,0,281.36,0,0,0,0,0,0,0,0,0,0,0,0,0,1,1,0,0,VALID,0,0,0,0,0,1,0,0,0,0,0,0,0,0,0,0,0,0,0,0,146.63,385.92,2,0,0.1,0.1,151,10.71,0.1,0.08,13.76,FLYING,CF1-J,0:/Integrated Flight Computer/aircraft/cf1_j_cfg.ks (inferred preloaded)
14.02,APPROACH,FLY_TO_FIX,73.6,81.18,7.59,1277.29,0.42,7.29,6.99,281.33,0.017,0.4796,0,20,1,0.6,4.5,0.75,0.35,0.0168,0.4,0,53.928,0,-7.611,0,281.48,0.22,0,0,0.33,0.15,0,0.22,281.48,0,0,0,0,0,0,0,44.628,0,0,0,3,0,0,0,2413.14,0,0,0,281.36,0,0,0,0,0,0,0,0,0,0,0,0,0,1,1,0,0,VALID,0,0,0,0,0,1,0,0,0,0,0,0,0,0,0,0,0,0,0,0,147.21,385.73,2,0,0.08,0.08,154,11.54,0.1,0.08,14.02,FLYING,CF1-J,0:/Integrated Flight Computer/aircraft/cf1_j_cfg.ks (inferred preloaded)
14.3,APPROACH,FLY_TO_FIX,73.92,81.41,7.49,1277.39,0.42,7.19,6.89,281.33,0.017,0.466,0,20,1,0.6,4.5,0.75,0.35,0.0168,0.4,0,53.831,0,-7.512,0,281.48,0.218,0,0,0.33,0.15,0,0.22,281.48,0,0,0,0,0,0,0,44.605,0,0,0,3,0,0,0,2411.96,0,0,0,281.36,0,0,0,0,0,0,0,0,0,0,0,0,0,1,1,0,0,VALID,0,0,0,0,0,1,0,0,0,0,0,0,0,0,0,0,0,0,0,0,147.74,385.52,2,0,0.1,0.1,157,10.71,0.1,0.08,14.3,FLYING,CF1-J,0:/Integrated Flight Computer/aircraft/cf1_j_cfg.ks (inferred preloaded)
14.56,APPROACH,FLY_TO_FIX,74.22,81.62,7.39,1277.48,0.42,7.1,6.8,281.33,0.018,0.453,0,20,1,0.6,4.5,0.75,0.35,0.0168,0.4,0,53.74,0,-7.417,0,281.48,0.217,0,0,0.33,0.15,0,0.22,281.48,0,0,0,0,0,0,0,44.585,0,0,0,3,0,0,0,2410.86,0,0,0,281.36,0,0,0,0,0,0,0,0,0,0,0,0,0,1,1,0,0,VALID,0,0,0,0,0,1,0,0,0,0,0,0,0,0,0,0,0,0,0,0,148.13,385.32,2,0,0.08,0.08,160,11.54,0.1,0.08,14.56,FLYING,CF1-J,0:/Integrated Flight Computer/aircraft/cf1_j_cfg.ks (inferred preloaded)
14.84,APPROACH,FLY_TO_FIX,74.55,81.84,7.29,1277.59,0.43,7,6.7,281.33,0.018,0.4399,0,20,1,0.6,4.5,0.75,0.35,0.0168,0.4,0,53.641,0,-7.31,0,281.48,0.216,0,0,0.33,0.15,0,0.22,281.48,0,0,0,0,0,0,0,44.562,0,0,0,3,0,0,0,2409.68,0,0,0,281.36,0,0,0,0,0,0,0,0,0,0,0,0,0,1,1,0,0,VALID,0,0,0,0,0,1,0,0,0,0,0,0,0,0,0,0,0,0,0,0,148.47,385.1,2,0,0.1,0.1,163,10.71,0.1,0.08,14.84,FLYING,CF1-J,0:/Integrated Flight Computer/aircraft/cf1_j_cfg.ks (inferred preloaded)
15.1,APPROACH,FLY_TO_FIX,74.86,82.05,7.18,1277.68,0.43,6.91,6.61,281.33,0.018,0.4276,0,20,1,0.6,4.5,0.75,0.35,0.0168,0.4,0,53.548,0,-7.208,0,281.48,0.215,0,0,0.33,0.15,0,0.22,281.48,0,0,0,0,0,0,0,44.541,0,0,0,3,0,0,0,2408.57,0,0,0,281.36,0,0,0,0,0,0,0,0,0,0,0,0,0,1,1,0,0,VALID,0,0,0,0,0,1,0,0,0,0,0,0,0,0,0,0,0,0,0,0,148.7,384.9,2,0,0.08,0.08,166,11.54,0.1,0.08,15.1,FLYING,CF1-J,0:/Integrated Flight Computer/aircraft/cf1_j_cfg.ks (inferred preloaded)
15.38,APPROACH,FLY_TO_FIX,75.2,82.27,7.07,1277.79,0.43,6.81,6.51,281.33,0.018,0.4151,0,20,1,0.6,4.5,0.75,0.35,0.0168,0.4,0,53.447,0,-7.094,0,281.48,0.214,0,0,0.33,0.15,0,0.21,281.48,0,0,0,0,0,0,0,44.518,0,0,0,3,0,0,0,2407.37,0,0,0,281.36,0,0,0,0,0,0,0,0,0,0,0,0,0,1,1,0,0,VALID,0,0,0,0,0,1,0,0,0,0,0,0,0,0,0,0,0,0,0,0,148.85,384.68,2,0,0.1,0.1,169,10.71,0.1,0.08,15.38,FLYING,CF1-J,0:/Integrated Flight Computer/aircraft/cf1_j_cfg.ks (inferred preloaded)
15.64,APPROACH,FLY_TO_FIX,75.52,82.48,6.96,1277.89,0.43,6.73,6.42,281.33,0.019,0.4036,0,20,1,0.6,4.5,0.75,0.35,0.0168,0.4,0,53.352,0,-6.986,0,281.49,0.212,0,0,0.33,0.16,0,0.21,281.48,0,0,0,0,0,0,0,44.496,0,0,0,3,0,0,0,2406.25,0,0,0,281.36,0,0,0,0,0,0,0,0,0,0,0,0,0,1,1,0,0,VALID,0,0,0,0,0,1,0,0,0,0,0,0,0,0,0,0,0,0,0,0,148.92,384.47,2,0,0.08,0.08,172,11.54,0.1,0.08,15.64,FLYING,CF1-J,0:/Integrated Flight Computer/aircraft/cf1_j_cfg.ks (inferred preloaded)
15.92,APPROACH,FLY_TO_FIX,75.86,82.7,6.84,1277.99,0.44,6.63,6.33,281.33,0.02,0.3919,0,20,1,0.6,4.5,0.75,0.35,0.0168,0.4,0,53.249,0,-6.867,0,281.49,0.211,0,0,0.33,0.16,0,0.21,281.49,0,0,0,0,0,0,0,44.473,0,0,0,3,0,0,0,2405.04,0,0,0,281.36,0,0,0,0,0,0,0,0,0,0,0,0,0,1,1,0,0,VALID,0,0,0,0,0,1,0,0,0,0,0,0,0,0,0,0,0,0,0,0,148.92,384.25,2,0,0.1,0.1,175,10.71,0.1,0.08,15.92,FLYING,CF1-J,0:/Integrated Flight Computer/aircraft/cf1_j_cfg.ks (inferred preloaded)
16.18,APPROACH,FLY_TO_FIX,76.18,82.91,6.73,1278.09,0.44,6.55,6.24,281.33,0.019,0.3812,0,20,1,0.6,4.5,0.75,0.35,0.0168,0.4,0,53.153,0,-6.755,0,281.49,0.209,0,0,0.33,0.16,0,0.21,281.49,0,0,0,0,0,0,0,44.452,0,0,0,3,0,0,0,2403.91,0,0,0,281.36,0,0,0,0,0,0,0,0,0,0,0,0,0,1,1,0,0,VALID,0,0,0,0,0,1,0,0,0,0,0,0,0,0,0,0,0,0,0,0,148.84,384.04,2,0,0.08,0.08,178,11.54,0.1,0.08,16.18,FLYING,CF1-J,0:/Integrated Flight Computer/aircraft/cf1_j_cfg.ks (inferred preloaded)
16.46,APPROACH,FLY_TO_FIX,76.53,83.14,6.61,1278.2,0.44,6.46,6.15,281.33,0.019,0.3705,0,20,1,0.6,4.5,0.75,0.35,0.0168,0.4,0,53.049,0,-6.634,0,281.49,0.207,0,0,0.33,0.16,0,0.21,281.49,0,0,0,0,0,0,0,44.429,0,0,0,3,0,0,0,2402.69,0,0,0,281.36,0,0,0,0,0,0,0,0,0,0,0,0,0,1,1,0,0,VALID,0,0,0,0,0,1,0,0,0,0,0,0,0,0,0,0,0,0,0,0,148.51,383.81,2,0,0.1,0.1,181,10.71,0.1,0.08,16.46,FLYING,CF1-J,0:/Integrated Flight Computer/aircraft/cf1_j_cfg.ks (inferred preloaded)
16.72,APPROACH,FLY_TO_FIX,76.85,83.34,6.5,1278.31,0.45,6.37,6.07,281.33,0.02,0.3613,0,20,1,0.6,4.5,0.75,0.35,0.0168,0.4,0,52.953,0,-6.52,0,281.49,0.205,0,0,0.34,0.16,0,0.21,281.49,0,0,0,0,0,0,0,44.407,0,0,0,3,0,0,0,2401.55,0,0,0,281.36,0,0,0,0,0,0,0,0,0,0,0,0,0,1,1,0,0,VALID,0,0,0,0,0,1,0,0,0,0,0,0,0,0,0,0,0,0,0,0,147.97,383.6,2,0,0.08,0.08,184,11.54,0.1,0.08,16.72,FLYING,CF1-J,0:/Integrated Flight Computer/aircraft/cf1_j_cfg.ks (inferred preloaded)
17,APPROACH,FLY_TO_FIX,77.19,83.57,6.37,1278.42,0.45,6.29,5.98,281.33,0.022,0.3529,0,20,1,0.6,4.5,0.75,0.35,0.0168,0.4,0,52.849,0,-6.399,0,281.49,0.203,0,0,0.34,0.16,0,0.21,281.49,0,0,0,0,0,0,0,44.383,0,0,0,3,0,0,0,2400.32,0,0,0,281.36,0,0,0,0,0,0,0,0,0,0,0,0,0,1,1,0,0,VALID,0,0,0,0,0,1,0,0,0,0,0,0,0,0,0,0,0,0,0,0,147.19,383.38,2,0,0.1,0.1,187,10.71,0.1,0.08,17,FLYING,CF1-J,0:/Integrated Flight Computer/aircraft/cf1_j_cfg.ks (inferred preloaded)
17.26,APPROACH,FLY_TO_FIX,77.51,83.78,6.26,1278.52,0.46,6.21,5.9,281.33,0.023,0.3464,0,20,1,0.6,4.5,0.75,0.35,0.0168,0.4,0,52.754,0,-6.289,0,281.49,0.202,0,0,0.34,0.16,0,0.2,281.49,0,0,0,0,0,0,0,44.361,0,0,0,3,0,0,0,2399.17,0,0,0,281.36,0,0,0,0,0,0,0,0,0,0,0,0,0,1,1,0,0,VALID,0,0,0,0,0,1,0,0,0,0,0,0,0,0,0,0,0,0,0,0,146.32,383.17,2,0,0.08,0.08,190,11.54,0.1,0.08,17.26,FLYING,CF1-J,0:/Integrated Flight Computer/aircraft/cf1_j_cfg.ks (inferred preloaded)
17.54,APPROACH,FLY_TO_FIX,77.85,84,6.15,1278.64,0.46,6.12,5.81,281.33,0.024,0.3407,0,20,1,0.6,4.5,0.75,0.35,0.0168,0.4,0,52.652,0,-6.173,0,281.49,0.2,0,0,0.34,0.16,0,0.2,281.49,0,0,0,0,0,0,0,44.338,0,0,0,3,0,0,0,2397.93,0,0,0,281.36,0,0,0,0,0,0,0,0,0,0,0,0,0,1,1,0,0,VALID,0,0,0,0,0,1,0,0,0,0,0,0,0,0,0,0,0,0,0,0,145.27,382.94,2,0,0.1,0.1,193,10.71,0.1,0.08,17.54,FLYING,CF1-J,0:/Integrated Flight Computer/aircraft/cf1_j_cfg.ks (inferred preloaded)
17.8,APPROACH,FLY_TO_FIX,78.16,84.21,6.04,1278.75,0.47,6.05,5.73,281.33,0.025,0.3367,0,20,1,0.6,4.5,0.75,0.35,0.0168,0.4,0,52.558,0,-6.068,0,281.49,0.198,0,0,0.34,0.16,0,0.2,281.49,0,0,0,0,0,0,0,44.316,0,0,0,3,0,0,0,2396.78,0,0,0,281.36,0,0,0,0,0,0,0,0,0,0,0,0,0,1,1,0,0,VALID,0,0,0,0,0,1,0,0,0,0,0,0,0,0,0,0,0,0,0,0,144.23,382.74,2,0,0.08,0.08,196,11.54,0.1,0.08,17.8,FLYING,CF1-J,0:/Integrated Flight Computer/aircraft/cf1_j_cfg.ks (inferred preloaded)
18.08,APPROACH,FLY_TO_FIX,78.5,84.43,5.94,1278.87,0.47,5.97,5.65,281.33,0.026,0.333,0,20,1,0.6,4.5,0.75,0.35,0.0168,0.4,0,52.458,0,-5.959,0,281.49,0.196,0,0,0.34,0.16,0,0.2,281.49,0,0,0,0,0,0,0,44.292,0,0,0,3,0,0,0,2395.52,0,0,0,281.36,0,0,0,0,0,0,0,0,0,0,0,0,0,1,1,0,0,VALID,0,0,0,0,0,1,0,0,0,0,0,0,0,0,0,0,0,0,0,0,143.08,382.52,2,0,0.1,0.1,199,10.71,0.1,0.08,18.08,FLYING,CF1-J,0:/Integrated Flight Computer/aircraft/cf1_j_cfg.ks (inferred preloaded)
18.34,APPROACH,FLY_TO_FIX,78.8,84.64,5.84,1278.98,0.47,5.89,5.58,281.33,0.027,0.3306,0,20,1,0.6,4.5,0.75,0.35,0.0168,0.4,0,52.367,0,-5.862,0,281.49,0.195,0,0,0.34,0.16,0,0.2,281.49,0,0,0,0,0,0,0,44.27,0,0,0,3,0,0,0,2394.36,0,0,0,281.36,0,0,0,0,0,0,0,0,0,0,0,0,0,1,1,0,0,VALID,0,0,0,0,0,1,0,0,0,0,0,0,0,0,0,0,0,0,0,0,142,382.32,2,0,0.08,0.08,202,11.54,0.1,0.08,18.34,FLYING,CF1-J,0:/Integrated Flight Computer/aircraft/cf1_j_cfg.ks (inferred preloaded)
18.62,APPROACH,FLY_TO_FIX,79.13,84.86,5.74,1279.1,0.48,5.82,5.5,281.33,0.028,0.3282,0,20,1,0.6,4.5,0.75,0.35,0.0168,0.4,0,52.269,0,-5.761,0,281.49,0.193,0,0,0.34,0.16,0,0.19,281.49,0,0,0,0,0,0,0,44.245,0,0,0,3,0,0,0,2393.1,0,0,0,281.36,0,0,0,0,0,0,0,0,0,0,0,0,0,1,1,0,0,VALID,0,0,0,0,0,1,0,0,0,0,0,0,0,0,0,0,0,0,0,0,140.85,382.11,2,0,0.1,0.1,205,10.71,0.1,0.08,18.62,FLYING,CF1-J,0:/Integrated Flight Computer/aircraft/cf1_j_cfg.ks (inferred preloaded)
18.88,APPROACH,FLY_TO_FIX,79.42,85,5.58,1279.21,0.48,5.75,5.43,281.33,0.029,0.3218,0,20,1,0.6,4.5,0.75,0.35,0.0168,0.4,0,52.18,0,-5.599,0,281.49,0.192,0,0,0.35,0.16,0,0.19,281.49,0,0,0,0,0,0,0,44.223,0,0,0,3,0,0,0,2391.92,0,0,0,281.36,0,0,0,0,0,0,0,0,0,0,0,0,0,1,1,0,0,VALID,0,0,0,0,0,1,0,0,0,0,0,0,0,0,0,0,0,0,0,0,139.79,381.91,2,0,0.08,0.08,208,11.54,0.1,0.08,18.88,FLYING,CF1-J,0:/Integrated Flight Computer/aircraft/cf1_j_cfg.ks (inferred preloaded)
19.16,APPROACH,FLY_TO_FIX,79.74,85,5.26,1279.33,0.48,5.67,5.36,281.33,0.03,0.3046,0,20,1,0.6,4.5,0.75,0.35,0.0168,0.4,0,52.085,0,-5.282,0,281.49,0.19,0,0,0.35,0.16,0,0.19,281.49,0,0,0,0,0,0,0,44.199,0,0,0,3,0,0,0,2390.65,0,0,0,281.36,0,0,0,0,0,0,0,0,0,0,0,0,0,1,1,0,0,VALID,0,0,0,0,0,1,0,0,0,0,0,0,0,0,0,0,0,0,0,0,138.45,381.7,2,0,0.1,0.1,211,10.71,0.1,0.08,19.16,FLYING,CF1-J,0:/Integrated Flight Computer/aircraft/cf1_j_cfg.ks (inferred preloaded)
19.42,APPROACH,FLY_TO_FIX,80.03,85,4.97,1279.45,0.49,5.61,5.29,281.33,0.031,0.29,0,20,1,0.6,4.5,0.75,0.35,0.0168,0.4,0,51.998,0,-4.992,0,281.49,0.189,0,0,0.35,0.16,0,0.19,281.49,0,0,0,0,0,0,0,44.176,0,0,0,3,0,0,0,2389.47,0,0,0,281.36,0,0,0,0,0,0,0,0,0,0,0,0,0,1,1,0,0,VALID,0,0,0,0,0,1,0,0,0,0,0,0,0,0,0,0,0,0,0,0,136.89,381.51,2,0,0.08,0.08,214,11.54,0.1,0.08,19.42,FLYING,CF1-J,0:/Integrated Flight Computer/aircraft/cf1_j_cfg.ks (inferred preloaded)
19.7,APPROACH,FLY_TO_FIX,80.33,85,4.67,1279.58,0.49,5.54,5.23,281.33,0.032,0.2757,0,20,1,0.6,4.5,0.75,0.35,0.0168,0.4,0,51.906,0,-4.687,0,281.49,0.187,0,0,0.35,0.16,0,0.19,281.49,0,0,0,0,0,0,0,44.152,0,0,0,3,0,0,0,2388.19,0,0,0,281.36,0,0,0,0,0,0,0,0,0,0,0,0,0,1,1,0,0,VALID,0,0,0,0,0,1,0,0,0,0,0,0,0,0,0,0,0,0,0,0,134.94,381.31,2,0,0.1,0.1,217,10.71,0.1,0.08,19.7,FLYING,CF1-J,0:/Integrated Flight Computer/aircraft/cf1_j_cfg.ks (inferred preloaded)
19.96,APPROACH,FLY_TO_FIX,80.61,85,4.39,1279.69,0.49,5.48,5.17,281.33,0.034,0.265,0,20,1,0.6,4.5,0.75,0.35,0.0168,0.4,0,51.823,0,-4.411,0,281.49,0.186,0,0,0.35,0.16,0,0.19,281.49,0,0,0,0,0,0,0,44.129,0,0,0,3,0,0,0,2386.99,0,0,0,281.36,0,0,0,0,0,0,0,0,0,0,0,0,0,1,1,0,0,VALID,0,0,0,0,0,1,0,0,0,0,0,0,0,0,0,0,0,0,0,0,132.93,381.13,2,0,0.08,0.08,220,11.54,0.1,0.08,19.96,FLYING,CF1-J,0:/Integrated Flight Computer/aircraft/cf1_j_cfg.ks (inferred preloaded)
20.24,APPROACH,FLY_TO_FIX,80.9,85,4.1,1279.82,0.49,5.42,5.11,281.33,0.033,0.2548,0,20,1,0.6,4.5,0.75,0.35,0.0168,0.4,0,51.737,0,-4.123,0,281.49,0.185,0,0,0.35,0.16,0,0.19,281.49,0,0,0,0,0,0,0,44.104,0,0,0,3,0,0,0,2385.7,0,0,0,281.36,0,0,0,0,0,0,0,0,0,0,0,0,0,1,1,0,0,VALID,0,0,0,0,0,1,0,0,0,0,0,0,0,0,0,0,0,0,0,0,130.62,380.94,2,0,0.1,0.1,223,10.71,0.1,0.08,20.24,FLYING,CF1-J,0:/Integrated Flight Computer/aircraft/cf1_j_cfg.ks (inferred preloaded)
20.5,APPROACH,FLY_TO_FIX,81.15,85,3.85,1279.94,0.5,5.37,5.05,281.33,0.034,0.2479,0,20,1,0.6,4.5,0.75,0.35,0.0168,0.4,0,51.66,0,-3.865,0,281.49,0.184,0,0,0.35,0.16,0,0.18,281.49,0,0,0,0,0,0,0,44.081,0,0,0,3,0,0,0,2384.5,0,0,0,281.36,0,0,0,0,0,0,0,0,0,0,0,0,0,1,1,0,0,VALID,0,0,0,0,0,1,0,0,0,0,0,0,0,0,0,0,0,0,0,0,128.41,380.76,2,0,0.08,0.08,226,11.54,0.1,0.08,20.5,FLYING,CF1-J,0:/Integrated Flight Computer/aircraft/cf1_j_cfg.ks (inferred preloaded)
20.78,APPROACH,FLY_TO_FIX,81.42,85,3.58,1280.07,0.5,5.32,5,281.33,0.035,0.2411,0,20,1,0.6,4.5,0.75,0.35,0.0168,0.4,0,51.579,0,-3.597,0,281.49,0.183,0,0,0.35,0.16,0,0.18,281.49,0,0,0,0,0,0,0,44.057,0,0,0,3,0,0,0,2383.2,0,0,0,281.36,0,0,0,0,0,0,0,0,0,0,0,0,0,1,1,0,0,VALID,0,0,0,0,0,1,0,0,0,0,0,0,0,0,0,0,0,0,0,0,125.99,380.59,2,0,0.1,0.1,229,10.71,0.1,0.08,20.78,FLYING,CF1-J,0:/Integrated Flight Computer/aircraft/cf1_j_cfg.ks (inferred preloaded)
21.04,APPROACH,FLY_TO_FIX,81.66,85,3.34,1280.19,0.5,5.27,4.95,281.33,0.036,0.2369,0,20,1,0.6,4.5,0.75,0.35,0.0168,0.4,0,51.507,0,-3.358,0,281.49,0.182,0,0,0.35,0.16,0,0.18,281.49,0,0,0,0,0,0,0,44.034,0,0,0,3,0,0,0,2382,0,0,0,281.36,0,0,0,0,0,0,0,0,0,0,0,0,0,1,1,0,0,VALID,0,0,0,0,0,1,0,0,0,0,0,0,0,0,0,0,0,0,0,0,123.76,380.43,2,0,0.08,0.08,232,11.54,0.1,0.08,21.04,FLYING,CF1-J,0:/Integrated Flight Computer/aircraft/cf1_j_cfg.ks (inferred preloaded)
21.32,APPROACH,FLY_TO_FIX,81.91,85,3.09,1280.32,0.5,5.22,4.9,281.33,0.037,0.2325,0,20,1,0.6,4.5,0.75,0.35,0.0168,0.4,0,51.433,0,-3.111,0,281.49,0.18,0,0,0.35,0.16,0,0.18,281.49,0,0,0,0,0,0,0,44.009,0,0,0,3,0,0,0,2380.69,0,0,0,281.36,0,0,0,0,0,0,0,0,0,0,0,0,0,1,1,0,0,VALID,0,0,0,0,0,1,0,0,0,0,0,0,0,0,0,0,0,0,0,0,121.39,380.26,2,0,0.1,0.1,235,10.71,0.1,0.08,21.32,FLYING,CF1-J,0:/Integrated Flight Computer/aircraft/cf1_j_cfg.ks (inferred preloaded)
21.58,APPROACH,FLY_TO_FIX,82.12,85,2.88,1280.45,0.5,5.17,4.86,281.33,0.037,0.2299,0,20,1,0.6,4.5,0.75,0.35,0.0168,0.4,0,51.368,0,-2.892,0,281.49,0.179,0,0,0.35,0.16,0,0.18,281.49,0,0,0,0,0,0,0,43.986,0,0,0,3,0,0,0,2379.48,0,0,0,281.36,0,0,0,0,0,0,0,0,0,0,0,0,0,1,1,0,0,VALID,0,0,0,0,0,1,0,0,0,0,0,0,0,0,0,0,0,0,0,0,119.25,380.12,2,0,0.08,0.08,238,11.54,0.1,0.08,21.58,FLYING,CF1-J,0:/Integrated Flight Computer/aircraft/cf1_j_cfg.ks (inferred preloaded)
21.86,APPROACH,FLY_TO_FIX,82.35,85,2.65,1280.58,0.5,5.13,4.81,281.33,0.038,0.2268,0,20,1,0.6,4.5,0.75,0.35,0.0168,0.4,0,51.3,0,-2.665,0,281.49,0.178,0,0,0.35,0.16,0,0.18,281.49,0,0,0,0,0,0,0,43.961,0,0,0,3,0,0,0,2378.16,0,0,0,281.36,0,0,0,0,0,0,0,0,0,0,0,0,0,1,1,0,0,VALID,0,0,0,0,0,1,0,0,0,0,0,0,0,0,0,0,0,0,0,0,117.02,379.97,2,0,0.1,0.1,241,10.71,0.1,0.08,21.86,FLYING,CF1-J,0:/Integrated Flight Computer/aircraft/cf1_j_cfg.ks (inferred preloaded)
22.12,APPROACH,FLY_TO_FIX,82.55,85,2.45,1280.71,0.5,5.09,4.77,281.33,0.039,0.2252,0,20,1,0.6,4.5,0.75,0.35,0.0168,0.4,0,51.239,0,-2.464,0,281.49,0.177,0,0,0.35,0.16,0,0.18,281.49,0,0,0,0,0,0,0,43.937,0,0,0,3,0,0,0,2376.94,0,0,0,281.36,0,0,0,0,0,0,0,0,0,0,0,0,0,1,1,0,0,VALID,0,0,0,0,0,1,0,0,0,0,0,0,0,0,0,0,0,0,0,0,115.03,379.83,2,0,0.08,0.08,244,11.54,0.1,0.08,22.12,FLYING,CF1-J,0:/Integrated Flight Computer/aircraft/cf1_j_cfg.ks (inferred preloaded)
22.4,APPROACH,FLY_TO_FIX,82.76,85,2.24,1280.84,0.5,5.05,4.73,281.33,0.039,0.2228,0,20,1,0.6,4.5,0.75,0.35,0.0168,0.4,0,51.177,0,-2.257,0,281.49,0.176,0,0,0.35,0.16,0,0.18,281.49,0,0,0,0,0,0,0,43.912,0,0,0,3,0,0,0,2375.62,0,0,0,281.36,0,0,0,0,0,0,0,0,0,0,0,0,0,1,1,0,0,VALID,0,0,0,0,0,1,0,0,0,0,0,0,0,0,0,0,0,0,0,0,112.97,379.69,2,0,0.1,0.1,247,10.71,0.1,0.08,22.4,FLYING,CF1-J,0:/Integrated Flight Computer/aircraft/cf1_j_cfg.ks (inferred preloaded)
22.66,APPROACH,FLY_TO_FIX,82.94,85,2.06,1280.97,0.51,5.01,4.7,281.34,0.039,0.2216,0,20,1,0.6,4.5,0.75,0.35,0.0168,0.4,0,51.122,0,-2.073,0,281.49,0.175,0,0,0.35,0.16,0,0.18,281.49,0,0,0,0,0,0,0,43.889,0,0,0,3,0,0,0,2374.4,0,0,0,281.36,0,0,0,0,0,0,0,0,0,0,0,0,0,1,1,0,0,VALID,0,0,0,0,0,1,0,0,0,0,0,0,0,0,0,0,0,0,0,0,111.14,379.57,2,0,0.08,0.08,250,11.54,0.1,0.08,22.66,FLYING,CF1-J,0:/Integrated Flight Computer/aircraft/cf1_j_cfg.ks (inferred preloaded)
22.94,APPROACH,FLY_TO_FIX,83.13,85,1.87,1281.1,0.51,4.98,4.66,281.34,0.04,0.2195,0,20,1,0.6,4.5,0.75,0.35,0.0168,0.4,0,51.065,0,-1.883,0,281.49,0.174,0,0,0.35,0.16,0,0.18,281.49,0,0,0,0,0,0,0,43.863,0,0,0,3,0,0,0,2373.07,0,0,0,281.36,0,0,0,0,0,0,0,0,0,0,0,0,0,1,1,0,0,VALID,0,0,0,0,0,1,0,0,0,0,0,0,0,0,0,0,0,0,0,0,109.25,379.44,2,0,0.1,0.1,253,10.71,0.1,0.08,22.94,FLYING,CF1-J,0:/Integrated Flight Computer/aircraft/cf1_j_cfg.ks (inferred preloaded)
23.2,APPROACH,FLY_TO_FIX,83.3,85,1.7,1281.23,0.51,4.94,4.63,281.34,0.041,0.2186,0,20,1,0.6,4.5,0.75,0.35,0.0168,0.4,0,51.014,0,-1.715,0,281.49,0.174,0,0,0.35,0.16,0,0.17,281.49,0,0,0,0,0,0,0,43.84,0,0,0,3,0,0,0,2371.84,0,0,0,281.36,0,0,0,0,0,0,0,0,0,0,0,0,0,1,1,0,0,VALID,0,0,0,0,0,1,0,0,0,0,0,0,0,0,0,0,0,0,0,0,107.58,379.33,2,0,0.08,0.08,256,11.54,0.1,0.08,23.2,FLYING,CF1-J,0:/Integrated Flight Computer/aircraft/cf1_j_cfg.ks (inferred preloaded)
23.48,APPROACH,FLY_TO_FIX,83.47,85,1.53,1281.36,0.51,4.91,4.6,281.34,0.042,0.2167,0,20,1,0.6,4.5,0.75,0.35,0.0168,0.4,0,50.962,0,-1.541,0,281.49,0.173,0,0,0.35,0.16,0,0.17,281.49,0,0,0,0,0,0,0,43.814,0,0,0,3,0,0,0,2370.51,0,0,0,281.36,0,0,0,0,0,0,0,0,0,0,0,0,0,1,1,0,0,VALID,0,0,0,0,0,1,0,0,0,0,0,0,0,0,0,0,0,0,0,0,105.86,379.21,2,0,0.1,0.1,259,10.71,0.1,0.08,23.48,FLYING,CF1-J,0:/Integrated Flight Computer/aircraft/cf1_j_cfg.ks (inferred preloaded)
23.74,APPROACH,FLY_TO_FIX,83.62,85,1.38,1281.49,0.51,4.88,4.57,281.34,0.042,0.2158,0,20,1,0.6,4.5,0.75,0.35,0.0168,0.4,0,50.916,0,-1.387,0,281.49,0.172,0,0,0.35,0.16,0,0.17,281.49,0,0,0,0,0,0,0,43.791,0,0,0,3,0,0,0,2369.27,0,0,0,281.36,0,0,0,0,0,0,0,0,0,0,0,0,0,1,1,0,0,VALID,0,0,0,0,0,1,0,0,0,0,0,0,0,0,0,0,0,0,0,0,104.33,379.1,2,0,0.08,0.08,262,11.54,0.1,0.08,23.74,FLYING,CF1-J,0:/Integrated Flight Computer/aircraft/cf1_j_cfg.ks (inferred preloaded)
24.02,APPROACH,FLY_TO_FIX,83.78,85,1.22,1281.63,0.51,4.85,4.54,281.34,0.042,0.2142,0,20,1,0.6,4.5,0.75,0.35,0.0168,0.4,0,50.869,0,-1.229,0,281.49,0.171,0,0,0.35,0.16,0,0.17,281.49,0,0,0,0,0,0,0,43.765,0,0,0,3,0,0,0,2367.94,0,0,0,281.36,0,0,0,0,0,0,0,0,0,0,0,0,0,1,1,0,0,VALID,0,0,0,0,0,1,0,0,0,0,0,0,0,0,0,0,0,0,0,0,102.77,379,2,0,0.1,0.1,265,10.71,0.1,0.08,24.02,FLYING,CF1-J,0:/Integrated Flight Computer/aircraft/cf1_j_cfg.ks (inferred preloaded)
24.28,APPROACH,FLY_TO_FIX,83.92,85,1.08,1281.76,0.51,4.82,4.51,281.34,0.041,0.2133,0,20,1,0.6,4.5,0.75,0.35,0.0168,0.4,0,50.826,0,-1.088,0,281.49,0.171,0,0,0.35,0.16,0,0.17,281.49,0,0,0,0,0,0,0,43.742,0,0,0,3,0,0,0,2366.69,0,0,0,281.36,0,0,0,0,0,0,0,0,0,0,0,0,0,1,1,0,0,VALID,0,0,0,0,0,1,0,0,0,0,0,0,0,0,0,0,0,0,0,0,101.38,378.9,2,0,0.08,0.08,268,11.54,0.1,0.08,24.28,FLYING,CF1-J,0:/Integrated Flight Computer/aircraft/cf1_j_cfg.ks (inferred preloaded)
24.56,APPROACH,FLY_TO_FIX,84.07,85,0.93,1281.89,0.51,4.8,4.48,281.34,0.041,0.2118,0,20,1,0.6,4.5,0.75,0.35,0.0168,0.4,0,50.783,0,-0.942,0,281.49,0.17,0,0,0.35,0.15,0,0.17,281.49,0,0,0,0,0,0,0,43.716,0,0,0,3,0,0,0,2365.35,0,0,0,281.36,0,0,0,0,0,0,0,0,0,0,0,0,0,1,1,0,0,VALID,0,0,0,0,0,1,0,0,0,0,0,0,0,0,0,0,0,0,0,0,99.95,378.8,2,0,0.1,0.1,271,10.71,0.1,0.08,24.56,FLYING,CF1-J,0:/Integrated Flight Computer/aircraft/cf1_j_cfg.ks (inferred preloaded)
24.82,APPROACH,FLY_TO_FIX,84.2,85,0.8,1282.02,0.51,4.77,4.46,281.34,0.041,0.211,0,20,1,0.6,4.5,0.75,0.35,0.0168,0.4,0,50.744,0,-0.813,0,281.49,0.17,0,0,0.34,0.15,0,0.17,281.49,0,0,0,0,0,0,0,43.692,0,0,0,3,0,0,0,2364.11,0,0,0,281.36,0,0,0,0,0,0,0,0,0,0,0,0,0,1,1,0,0,VALID,0,0,0,0,0,1,0,0,0,0,0,0,0,0,0,0,0,0,0,0,98.68,378.71,2,0,0.08,0.08,274,11.54,0.1,0.08,24.82,FLYING,CF1-J,0:/Integrated Flight Computer/aircraft/cf1_j_cfg.ks (inferred preloaded)
25.1,APPROACH,FLY_TO_FIX,84.33,85,0.67,1282.16,0.5,4.75,4.43,281.34,0.042,0.2096,0,20,1,0.6,4.5,0.75,0.35,0.0168,0.4,0,50.704,0,-0.681,0,281.49,0.169,0,0,0.34,0.15,0,0.17,281.49,0,0,0,0,0,0,0,43.667,0,0,0,3,0,0,0,2362.76,0,0,0,281.36,0,0,0,0,0,0,0,0,0,0,0,0,0,1,1,0,0,VALID,0,0,0,0,0,1,0,0,0,0,0,0,0,0,0,0,0,0,0,0,97.37,378.62,2,0,0.1,0.1,277,10.71,0.1,0.08,25.1,FLYING,CF1-J,0:/Integrated Flight Computer/aircraft/cf1_j_cfg.ks (inferred preloaded)
25.36,APPROACH,FLY_TO_FIX,84.45,85,0.55,1282.29,0.5,4.72,4.41,281.34,0.042,0.2088,0,20,1,0.6,4.5,0.75,0.35,0.0168,0.4,0,50.669,0,-0.562,0,281.5,0.168,0,0,0.34,0.15,0,0.17,281.49,0,0,0,0,0,0,0,43.643,0,0,0,3,0,0,0,2361.52,0,0,0,281.36,0,0,0,0,0,0,0,0,0,0,0,0,0,1,1,0,0,VALID,0,0,0,0,0,1,0,0,0,0,0,0,0,0,0,0,0,0,0,0,96.21,378.54,2,0,0.08,0.08,280,11.54,0.1,0.08,25.36,FLYING,CF1-J,0:/Integrated Flight Computer/aircraft/cf1_j_cfg.ks (inferred preloaded)
25.64,APPROACH,FLY_TO_FIX,84.57,85,0.43,1282.42,0.51,4.7,4.39,281.34,0.042,0.2075,0,20,1,0.6,4.5,0.75,0.35,0.0168,0.4,0,50.632,0,-0.441,0,281.5,0.168,0,0,0.34,0.15,0,0.17,281.5,0,0,0,0,0,0,0,43.617,0,0,0,3,0,0,0,2360.17,0,0,0,281.36,0,0,0,0,0,0,0,0,0,0,0,0,0,1,1,0,0,VALID,0,0,0,0,0,1,0,0,0,0,0,0,0,0,0,0,0,0,0,0,95.01,378.45,2,0,0.1,0.1,283,10.71,0.1,0.08,25.64,FLYING,CF1-J,0:/Integrated Flight Computer/aircraft/cf1_j_cfg.ks (inferred preloaded)
25.9,APPROACH,FLY_TO_FIX,84.68,85,0.32,1282.55,0.5,4.68,4.37,281.34,0.042,0.2068,0,20,1,0.6,4.5,0.75,0.35,0.0168,0.4,0,50.6,0,-0.333,0,281.5,0.167,0,0,0.34,0.15,0,0.17,281.5,0,0,0,0,0,0,0,43.593,0,0,0,3,0,0,0,2358.91,0,0,0,281.36,0,0,0,0,0,0,0,0,0,0,0,0,0,1,1,0,0,VALID,0,0,0,0,0,1,0,0,0,0,0,0,0,0,0,0,0,0,0,0,93.95,378.38,2,0,0.08,0.08,286,11.54,0.1,0.08,25.9,FLYING,CF1-J,0:/Integrated Flight Computer/aircraft/cf1_j_cfg.ks (inferred preloaded)
26.18,APPROACH,FLY_TO_FIX,84.79,85,0.21,1282.69,0.5,4.66,4.35,281.34,0.042,0.2056,0,20,1,0.6,4.5,0.75,0.35,0.0168,0.4,0,50.566,0,-0.221,0,281.5,0.168,0,0,0.34,0.15,0,0.17,281.5,0,0,0,0,0,0,0,43.567,0,0,0,3,0,0,0,2357.56,0,0,0,281.36,0,0,0,0,0,0,0,0,0,0,0,0,0,1,1,0,0,VALID,0,0,0,0,0,1,0,0,0,0,0,0,0,0,0,0,0,0,0,0,92.86,378.3,2,0,0.1,0.1,289,10.71,0.1,0.08,26.18,FLYING,CF1-J,0:/Integrated Flight Computer/aircraft/cf1_j_cfg.ks (inferred preloaded)
26.44,APPROACH,FLY_TO_FIX,84.89,85,0.11,1282.82,0.5,4.64,4.33,281.34,0.042,0.205,0,20,1,0.6,4.5,0.75,0.35,0.0168,0.4,0,50.537,0,-0.122,0,281.5,0.167,0,0,0.34,0.15,0,0.17,281.5,0,0,0,0,0,0,0,43.543,0,0,0,3,0,0,0,2356.31,0,0,0,281.36,0,0,0,0,0,0,0,0,0,0,0,0,0,1,1,0,0,VALID,0,0,0,0,0,1,0,0,0,0,0,0,0,0,0,0,0,0,0,0,91.89,378.23,2,0,0.08,0.08,292,11.54,0.1,0.08,26.44,FLYING,CF1-J,0:/Integrated Flight Computer/aircraft/cf1_j_cfg.ks (inferred preloaded)
26.72,APPROACH,FLY_TO_FIX,84.99,85,0.01,1282.95,0.5,4.62,4.31,281.34,0.042,0.2039,0,20,1,0.6,4.5,0.75,0.35,0.0168,0.4,0,50.506,0,-0.02,0,281.5,0.166,0,0,0.34,0.15,0,0.17,281.5,0,0,0,0,0,0,0,43.518,0,0,0,3,0,0,0,2354.95,0,0,0,281.36,0,0,0,0,0,0,0,0,0,0,0,0,0,1,1,0,0,VALID,0,0,0,0,0,1,0,0,0,0,0,0,0,0,0,0,0,0,0,0,90.89,378.16,2,0,0.1,0.1,295,10.71,0.1,0.08,26.72,FLYING,CF1-J,0:/Integrated Flight Computer/aircraft/cf1_j_cfg.ks (inferred preloaded)
26.98,APPROACH,FLY_TO_FIX,85.08,85,-0.08,1283.08,0.5,4.6,4.3,281.34,0.042,0.2031,0,19.989,1,0.6,4.5,0.75,0.35,0.0168,0.4,0,50.479,0,0.07,0,281.5,0.166,0,0,0.34,0.15,0,0.17,281.5,0,0,0,0,0,0,0,43.494,0,0,0,3,0,0,0,2353.69,0,0,0,281.36,0,0,0,0,0,0,0,0,0,0,0,0,0,1,1,0,0,VALID,0,0,0,0,0,1,0,0,0,0,0,0,0,0,0,0,0,0,0,0,90,378.09,2,0,0.08,0.08,298,11.54,0.1,0.08,26.98,FLYING,CF1-J,0:/Integrated Flight Computer/aircraft/cf1_j_cfg.ks (inferred preloaded)
27.26,APPROACH,FLY_TO_FIX,85.17,85,-0.17,1283.22,0.5,4.58,4.28,281.35,0.042,0.2015,0,19.952,1,0.6,4.5,0.75,0.35,0.0168,0.4,0,50.451,0,0.164,0,281.5,0.165,0,0,0.34,0.15,0,0.17,281.5,0,0,0,0,0,0,0,43.468,0,0,0,3,0,0,0,2352.34,0,0,0,281.36,0,0,0,0,0,0,0,0,0,0,0,0,0,1,1,0,0,VALID,0,0,0,0,0,1,0,0,0,0,0,0,0,0,0,0,0,0,0,0,89.08,378.03,2,0,0.1,0.1,301,10.71,0.1,0.08,27.26,FLYING,CF1-J,0:/Integrated Flight Computer/aircraft/cf1_j_cfg.ks (inferred preloaded)
27.52,APPROACH,FLY_TO_FIX,85.25,85,-0.25,1283.34,0.5,4.57,4.27,281.35,0.042,0.2,0,19.895,1,0.6,4.5,0.75,0.35,0.0168,0.4,0,50.426,0,0.247,0,281.5,0.165,0,0,0.34,0.15,0,0.17,281.5,0,0,0,0,0,0,0,43.444,0,0,0,3,0,0,0,2351.08,0,0,0,281.36,0,0,0,0,0,0,0,0,0,0,0,0,0,1,1,0,0,VALID,0,0,0,0,0,1,0,0,0,0,0,0,0,0,0,0,0,0,0,0,88.24,377.97,2,0,0.08,0.08,304,11.54,0.1,0.08,27.52,FLYING,CF1-J,0:/Integrated Flight Computer/aircraft/cf1_j_cfg.ks (inferred preloaded)
27.8,APPROACH,FLY_TO_FIX,85.34,85,-0.34,1283.48,0.5,4.55,4.25,281.35,0.042,0.1978,0,19.81,1,0.6,4.5,0.75,0.35,0.0168,0.4,0,50.4,0,0.332,0,281.5,0.165,0,0,0.33,0.15,0,0.17,281.5,0,0,0,0,0,0,0,43.418,0,0,0,3,0,0,0,2349.72,0,0,0,281.36,0,0,0,0,0,0,0,0,0,0,0,0,0,1,1,0,0,VALID,0,0,0,0,0,1,0,0,0,0,0,0,0,0,0,0,0,0,0,0,87.36,377.91,2,0,0.1,0.1,307,10.71,0.1,0.08,27.8,FLYING,CF1-J,0:/Integrated Flight Computer/aircraft/cf1_j_cfg.ks (inferred preloaded)
28.06,APPROACH,FLY_TO_FIX,85.41,85,-0.41,1283.61,0.49,4.54,4.24,281.35,0.042,0.1958,0,19.71,1,0.6,4.5,0.75,0.35,0.0168,0.4,0,50.378,0,0.408,0,281.5,0.165,0,0,0.33,0.15,0,0.17,281.5,0,0,0,0,0,0,0,43.394,0,0,0,3,0,0,0,2348.45,0,0,0,281.36,0,0,0,0,0,0,0,0,0,0,0,0,0,1,1,0,0,VALID,0,0,0,0,0,1,0,0,0,0,0,0,0,0,0,0,0,0,0,0,86.54,377.85,2,0,0.08,0.08,310,11.54,0.1,0.08,28.06,FLYING,CF1-J,0:/Integrated Flight Computer/aircraft/cf1_j_cfg.ks (inferred preloaded)
28.34,APPROACH,FLY_TO_FIX,85.49,85,-0.49,1283.74,0.49,4.52,4.22,281.35,0.043,0.1932,0,19.582,1,0.6,4.5,0.75,0.35,0.0168,0.4,0,50.354,0,0.485,0,281.5,0.165,0,0,0.33,0.15,0,0.17,281.5,0,0,0,0,0,0,0,43.368,0,0,0,3,0,0,0,2347.09,0,0,0,281.36,0,0,0,0,0,0,0,0,0,0,0,0,0,1,1,0,0,VALID,0,0,0,0,0,1,0,0,0,0,0,0,0,0,0,0,0,0,0,0,85.65,377.8,2,0,0.1,0.1,313,10.71,0.1,0.08,28.34,FLYING,CF1-J,0:/Integrated Flight Computer/aircraft/cf1_j_cfg.ks (inferred preloaded)
28.6,APPROACH,FLY_TO_FIX,85.56,85,-0.56,1283.87,0.49,4.51,4.21,281.35,0.043,0.191,0,19.444,1,0.6,4.5,0.75,0.35,0.0168,0.4,0,50.334,0,0.553,0,281.5,0.164,0,0,0.33,0.15,0,0.17,281.5,0,0,0,0,0,0,0,43.343,0,0,0,3,0,0,0,2345.82,0,0,0,281.36,0,0,0,0,0,0,0,0,0,0,0,0,0,1,1,0,0,VALID,0,0,0,0,0,1,0,0,0,0,0,0,0,0,0,0,0,0,0,0,84.83,377.75,2,0,0.08,0.08,316,11.54,0.1,0.08,28.6,FLYING,CF1-J,0:/Integrated Flight Computer/aircraft/cf1_j_cfg.ks (inferred preloaded)
28.88,APPROACH,FLY_TO_FIX,85.63,85,-0.63,1284.01,0.49,4.5,4.2,281.35,0.043,0.1883,0,19.275,1,0.6,4.5,0.75,0.35,0.0168,0.4,0,50.313,0,0.623,0,281.5,0.164,0,0,0.33,0.15,0,0.16,281.5,0,0,0,0,0,0,0,43.317,0,0,0,3,0,0,0,2344.46,0,0,0,281.36,0,0,0,0,0,0,0,0,0,0,0,0,0,1,1,0,0,VALID,0,0,0,0,0,1,0,0,0,0,0,0,0,0,0,0,0,0,0,0,83.94,377.69,2,0,0.1,0.1,319,10.71,0.1,0.08,28.88,FLYING,CF1-J,0:/Integrated Flight Computer/aircraft/cf1_j_cfg.ks (inferred preloaded)
29.14,APPROACH,FLY_TO_FIX,85.69,85,-0.69,1284.13,0.49,4.48,4.19,281.35,0.042,0.1861,0,19.103,1,0.6,4.5,0.75,0.35,0.0168,0.4,0,50.295,0,0.684,0,281.5,0.164,0,0,0.33,0.15,0,0.16,281.5,0,0,0,0,0,0,0,43.293,0,0,0,3,0,0,0,2343.19,0,0,0,281.36,0,0,0,0,0,0,0,0,0,0,0,0,0,1,1,0,0,VALID,0,0,0,0,0,1,0,0,0,0,0,0,0,0,0,0,0,0,0,0,83.11,377.65,2,0,0.08,0.08,322,11.54,0.1,0.08,29.14,FLYING,CF1-J,0:/Integrated Flight Computer/aircraft/cf1_j_cfg.ks (inferred preloaded)
29.42,APPROACH,FLY_TO_FIX,85.75,85,-0.75,1284.27,0.49,4.47,4.18,281.35,0.042,0.1834,0,18.9,1,0.6,4.5,0.75,0.35,0.0168,0.4,0,50.276,0,0.745,0,281.5,0.163,0,0,0.33,0.15,0,0.16,281.5,0,0,0,0,0,0,0,43.267,0,0,0,3,0,0,0,2341.83,0,0,0,281.36,0,0,0,0,0,0,0,0,0,0,0,0,0,1,1,0,0,VALID,0,0,0,0,0,1,0,0,0,0,0,0,0,0,0,0,0,0,0,0,82.21,377.6,2,0,0.1,0.1,325,10.71,0.1,0.08,29.42,FLYING,CF1-J,0:/Integrated Flight Computer/aircraft/cf1_j_cfg.ks (inferred preloaded)
29.68,APPROACH,FLY_TO_FIX,85.8,85,-0.8,1284.39,0.49,4.46,4.17,281.35,0.042,0.1813,0,18.697,1,0.6,4.5,0.75,0.35,0.0168,0.4,0,50.26,0,0.799,0,281.5,0.163,0,0,0.33,0.15,0,0.16,281.5,0,0,0,0,0,0,0,43.243,0,0,0,3,0,0,0,2340.56,0,0,0,281.36,0,0,0,0,0,0,0,0,0,0,0,0,0,1,1,0,0,VALID,0,0,0,0,0,1,0,0,0,0,0,0,0,0,0,0,0,0,0,0,81.37,377.56,2,0,0.08,0.08,328,11.54,0.1,0.08,29.68,FLYING,CF1-J,0:/Integrated Flight Computer/aircraft/cf1_j_cfg.ks (inferred preloaded)
29.96,APPROACH,FLY_TO_FIX,85.86,85,-0.86,1284.53,0.49,4.45,4.16,281.35,0.042,0.1787,0,18.463,1,0.6,4.5,0.75,0.35,0.0168,0.4,0,50.244,0,0.852,0,281.5,0.164,0,0,0.32,0.15,0,0.16,281.5,0,0,0,0,0,0,0,43.217,0,0,0,3,0,0,0,2339.19,0,0,0,281.36,0,0,0,0,0,0,0,0,0,0,0,0,0,1,1,0,0,VALID,0,0,0,0,0,1,0,0,0,0,0,0,0,0,0,0,0,0,0,0,80.47,377.52,2,0,0.1,0.1,331,10.71,0.1,0.08,29.96,FLYING,CF1-J,0:/Integrated Flight Computer/aircraft/cf1_j_cfg.ks (inferred preloaded)
30.22,APPROACH,FLY_TO_FIX,85.9,85,-0.9,1284.65,0.48,4.44,4.15,281.35,0.043,0.1768,0,18.233,1,0.6,4.5,0.75,0.35,0.0168,0.4,0,50.231,0,0.898,0,281.5,0.163,0,0,0.32,0.15,0,0.16,281.5,0,0,0,0,0,0,0,43.193,0,0,0,3,0,0,0,2337.92,0,0,0,281.36,0,0,0,0,0,0,0,0,0,0,0,0,0,1,1,0,0,VALID,0,0,0,0,0,1,0,0,0,0,0,0,0,0,0,0,0,0,0,0,79.63,377.49,2,0,0.08,0.08,334,11.54,0.1,0.08,30.22,FLYING,CF1-J,0:/Integrated Flight Computer/aircraft/cf1_j_cfg.ks (inferred preloaded)
30.5,APPROACH,FLY_TO_FIX,85.95,85,-0.95,1284.78,0.48,4.44,4.15,281.35,0.042,0.1744,0,17.973,1,0.6,4.5,0.75,0.35,0.0168,0.4,0,50.217,0,0.943,0,281.5,0.163,0,0,0.32,0.15,0,0.16,281.5,0,0,0,0,0,0,0,43.166,0,0,0,3,0,0,0,2336.55,0,0,0,281.36,0,0,0,0,0,0,0,0,0,0,0,0,0,1,1,0,0,VALID,0,0,0,0,0,1,0,0,0,0,0,0,0,0,0,0,0,0,0,0,78.73,377.45,2,0,0.1,0.1,337,10.71,0.1,0.08,30.5,FLYING,CF1-J,0:/Integrated Flight Computer/aircraft/cf1_j_cfg.ks (inferred preloaded)
30.76,APPROACH,FLY_TO_FIX,85.98,85,-0.98,1284.91,0.48,4.43,4.14,281.35,0.043,0.1726,0,17.721,1,0.6,4.5,0.75,0.35,0.0168,0.4,0,50.206,0,0.981,0,281.5,0.163,0,0,0.32,0.15,0,0.16,281.5,0,0,0,0,0,0,0,43.142,0,0,0,3,0,0,0,2335.27,0,0,0,281.36,0,0,0,0,0,0,0,0,0,0,0,0,0,1,1,0,0,VALID,0,0,0,0,0,1,0,0,0,0,0,0,0,0,0,0,0,0,0,0,77.9,377.42,2,0,0.08,0.08,340,11.54,0.1,0.08,30.76,FLYING,CF1-J,0:/Integrated Flight Computer/aircraft/cf1_j_cfg.ks (inferred preloaded)
31.04,APPROACH,FLY_TO_FIX,86.02,85,-1.02,1285.04,0.48,4.42,4.14,281.35,0.043,0.1704,0,17.44,1,0.6,4.5,0.75,0.35,0.0168,0.4,0,50.195,0,1.018,0,281.5,0.163,0,0,0.32,0.15,0,0.16,281.5,0,0,0,0,0,0,0,43.116,0,0,0,3,0,0,0,2333.9,0,0,0,281.36,0,0,0,0,0,0,0,0,0,0,0,0,0,1,1,0,0,VALID,0,0,0,0,0,1,0,0,0,0,0,0,0,0,0,0,0,0,0,0,77.02,377.39,2,0,0.1,0.1,343,10.71,0.1,0.08,31.04,FLYING,CF1-J,0:/Integrated Flight Computer/aircraft/cf1_j_cfg.ks (inferred preloaded)
31.3,APPROACH,FLY_TO_FIX,86.05,85,-1.05,1285.16,0.48,4.42,4.13,281.36,0.043,0.1688,0,17.169,1,0.6,4.5,0.75,0.35,0.0168,0.4,0,50.185,0,1.049,0,281.5,0.163,0,0,0.32,0.15,0,0.16,281.5,0,0,0,0,0,0,0,43.092,0,0,0,3,0,0,0,2332.63,0,0,0,281.36,0,0,0,0,0,0,0,0,0,0,0,0,0,1,1,0,0,VALID,0,0,0,0,0,1,0,0,0,0,0,0,0,0,0,0,0,0,0,0,76.2,377.36,2,0,0.08,0.08,346,11.54,0.1,0.08,31.3,FLYING,CF1-J,0:/Integrated Flight Computer/aircraft/cf1_j_cfg.ks (inferred preloaded)
31.58,APPROACH,FLY_TO_FIX,86.08,85,-1.08,1285.3,0.47,4.41,4.13,281.36,0.042,0.1669,0,16.87,1,0.6,4.5,0.75,0.35,0.0168,0.4,0,50.177,0,1.078,0,281.5,0.163,0,0,0.32,0.15,0,0.16,281.5,0,0,0,0,0,0,0,43.066,0,0,0,3,0,0,0,2331.26,0,0,0,281.36,0,0,0,0,0,0,0,0,0,0,0,0,0,1,1,0,0,VALID,0,0,0,0,0,1,0,0,0,0,0,0,0,0,0,0,0,0,0,0,75.33,377.34,2,0,0.1,0.1,349,10.71,0.1,0.08,31.58,FLYING,CF1-J,0:/Integrated Flight Computer/aircraft/cf1_j_cfg.ks (inferred preloaded)
31.84,APPROACH,FLY_TO_FIX,86.1,85,-1.1,1285.42,0.47,4.41,4.13,281.36,0.042,0.1655,0,16.586,1,0.6,4.5,0.75,0.35,0.0168,0.4,0,50.17,0,1.101,0,281.5,0.163,0,0,0.31,0.15,0,0.16,281.5,0,0,0,0,0,0,0,43.041,0,0,0,3,0,0,0,2329.98,0,0,0,281.36,0,0,0,0,0,0,0,0,0,0,0,0,0,1,1,0,0,VALID,0,0,0,0,0,1,0,0,0,0,0,0,0,0,0,0,0,0,0,0,74.54,377.32,2,0,0.08,0.08,352,11.54,0.1,0.08,31.84,FLYING,CF1-J,0:/Integrated Flight Computer/aircraft/cf1_j_cfg.ks (inferred preloaded)
32.12,APPROACH,FLY_TO_FIX,86.12,85,-1.12,1285.55,0.47,4.4,4.12,281.36,0.042,0.1638,0,16.274,1,0.6,4.5,0.75,0.35,0.0168,0.4,0,50.164,0,1.121,0,281.5,0.163,0,0,0.31,0.15,0,0.16,281.5,0,0,0,0,0,0,0,43.015,0,0,0,3,0,0,0,2328.61,0,0,0,281.36,0,0,0,0,0,0,0,0,0,0,0,0,0,1,1,0,0,VALID,0,0,0,0,0,1,0,0,0,0,0,0,0,0,0,0,0,0,0,0,73.71,377.3,2,0,0.1,0.1,355,10.71,0.1,0.08,32.12,FLYING,CF1-J,0:/Integrated Flight Computer/aircraft/cf1_j_cfg.ks (inferred preloaded)
32.38,APPROACH,FLY_TO_FIX,86.14,85,-1.14,1285.67,0.47,4.4,4.12,281.36,0.042,0.1627,0,15.98,1,0.6,4.5,0.75,0.35,0.0168,0.4,0,50.159,0,1.137,0,281.5,0.163,0,0,0.31,0.15,0,0.16,281.5,0,0,0,0,0,0,0,42.991,0,0,0,3,0,0,0,2327.34,0,0,0,281.36,0,0,0,0,0,0,0,0,0,0,0,0,0,1,1,0,0,VALID,0,0,0,0,0,1,0,0,0,0,0,0,0,0,0,0,0,0,0,0,72.95,377.28,2,0,0.08,0.08,358,11.54,0.1,0.08,32.38,FLYING,CF1-J,0:/Integrated Flight Computer/aircraft/cf1_j_cfg.ks (inferred preloaded)
32.66,APPROACH,FLY_TO_FIX,86.15,85,-1.15,1285.8,0.47,4.4,4.12,281.36,0.042,0.1612,0,15.659,1,0.6,4.5,0.75,0.35,0.0168,0.4,0,50.155,0,1.151,0,281.5,0.164,0,0,0.31,0.14,0,0.16,281.5,0,0,0,0,0,0,0,42.965,0,0,0,3,0,0,0,2325.96,0,0,0,281.36,0,0,0,0,0,0,0,0,0,0,0,0,0,1,1,0,0,VALID,0,0,0,0,0,1,0,0,0,0,0,0,0,0,0,0,0,0,0,0,72.15,377.27,2,0,0.1,0.1,361,10.71,0.1,0.08,32.66,FLYING,CF1-J,0:/Integrated Flight Computer/aircraft/cf1_j_cfg.ks (inferred preloaded)
32.92,APPROACH,FLY_TO_FIX,86.16,85,-1.16,1285.92,0.46,4.4,4.12,281.36,0.042,0.1602,0,15.358,1,0.6,4.5,0.75,0.35,0.0168,0.4,0,50.152,0,1.159,0,281.5,0.163,0,0,0.31,0.14,0,0.16,281.5,0,0,0,0,0,0,0,42.94,0,0,0,3,0,0,0,2324.69,0,0,0,281.36,0,0,0,0,0,0,0,0,0,0,0,0,0,1,1,0,0,VALID,0,0,0,0,0,1,0,0,0,0,0,0,0,0,0,0,0,0,0,0,71.43,377.26,2,0,0.08,0.08,364,11.54,0.1,0.08,32.92,FLYING,CF1-J,0:/Integrated Flight Computer/aircraft/cf1_j_cfg.ks (inferred preloaded)
33.2,APPROACH,FLY_TO_FIX,86.17,85,-1.17,1286.05,0.46,4.4,4.12,281.36,0.042,0.159,0,15.032,1,0.6,4.5,0.75,0.35,0.0168,0.4,0,50.15,0,1.165,0,281.5,0.163,0,0,0.31,0.14,0,0.16,281.5,0,0,0,0,0,0,0,42.914,0,0,0,3,0,0,0,2323.32,0,0,0,281.36,0,0,0,0,0,0,0,0,0,0,0,0,0,1,1,0,0,VALID,0,0,0,0,0,1,0,0,0,0,0,0,0,0,0,0,0,0,0,0,70.67,377.25,2,0,0.1,0.1,367,10.71,0.1,0.08,33.2,FLYING,CF1-J,0:/Integrated Flight Computer/aircraft/cf1_j_cfg.ks (inferred preloaded)
33.46,APPROACH,FLY_TO_FIX,86.17,85,-1.17,1286.17,0.46,4.4,4.12,281.36,0.042,0.1583,0,14.729,1,0.6,4.5,0.75,0.35,0.0168,0.4,0,50.15,0,1.167,0,281.5,0.164,0,0,0.3,0.14,0,0.16,281.5,0,0,0,0,0,0,0,42.89,0,0,0,3,0,0,0,2322.04,0,0,0,281.36,0,0,0,0,0,0,0,0,0,0,0,0,0,1,1,0,0,VALID,0,0,0,0,0,1,0,0,0,0,0,0,0,0,0,0,0,0,0,0,69.99,377.24,2,0,0.08,0.08,370,11.54,0.1,0.08,33.46,FLYING,CF1-J,0:/Integrated Flight Computer/aircraft/cf1_j_cfg.ks (inferred preloaded)
33.74,APPROACH,FLY_TO_FIX,86.17,85,-1.17,1286.29,0.45,4.4,4.12,281.36,0.042,0.1573,0,14.402,1,0.6,4.5,0.75,0.35,0.0168,0.4,0,50.15,0,1.166,0,281.5,0.163,0,0,0.3,0.14,0,0.16,281.5,0,0,0,0,0,0,0,42.863,0,0,0,3,0,0,0,2320.67,0,0,0,281.36,0,0,0,0,0,0,0,0,0,0,0,0,0,1,1,0,0,VALID,0,0,0,0,0,1,0,0,0,0,0,0,0,0,0,0,0,0,0,0,69.29,377.23,2,0,0.1,0.1,373,10.71,0.1,0.08,33.74,FLYING,CF1-J,0:/Integrated Flight Computer/aircraft/cf1_j_cfg.ks (inferred preloaded)
34,APPROACH,FLY_TO_FIX,86.16,85,-1.16,1286.41,0.45,4.4,4.13,281.36,0.041,0.1568,0,14.099,1,0.6,4.5,0.75,0.35,0.0168,0.4,0,50.151,0,1.162,0,281.5,0.164,0,0,0.3,0.14,0,0.16,281.5,0,0,0,0,0,0,0,42.839,0,0,0,3,0,0,0,2319.39,0,0,0,281.36,0,0,0,0,0,0,0,0,0,0,0,0,0,1,1,0,0,VALID,0,0,0,0,0,1,0,0,0,0,0,0,0,0,0,0,0,0,0,0,68.65,377.23,2,0,0.08,0.08,376,11.54,0.1,0.08,34,FLYING,CF1-J,0:/Integrated Flight Computer/aircraft/cf1_j_cfg.ks (inferred preloaded)
34.28,APPROACH,FLY_TO_FIX,86.15,85,-1.15,1286.54,0.45,4.4,4.13,281.36,0.04,0.156,0,13.775,1,0.6,4.5,0.75,0.35,0.0168,0.4,0,50.154,0,1.155,0,281.5,0.164,0,0,0.3,0.14,0,0.17,281.5,0,0,0,0,0,0,0,42.813,0,0,0,3,0,0,0,2318.02,0,0,0,281.36,0,0,0,0,0,0,0,0,0,0,0,0,0,1,1,0,0,VALID,0,0,0,0,0,1,0,0,0,0,0,0,0,0,0,0,0,0,0,0,68,377.23,2,0,0.1,0.1,379,10.71,0.1,0.08,34.28,FLYING,CF1-J,0:/Integrated Flight Computer/aircraft/cf1_j_cfg.ks (inferred preloaded)
34.54,APPROACH,FLY_TO_FIX,86.14,85,-1.14,1286.66,0.45,4.4,4.13,281.36,0.04,0.1557,0,13.477,1,0.6,4.5,0.75,0.35,0.0168,0.4,0,50.157,0,1.145,0,281.51,0.164,0,0,0.3,0.14,0,0.16,281.5,0,0,0,0,0,0,0,42.789,0,0,0,3,0,0,0,2316.74,0,0,0,281.36,0,0,0,0,0,0,0,0,0,0,0,0,0,1,1,0,0,VALID,0,0,0,0,0,1,0,0,0,0,0,0,0,0,0,0,0,0,0,0,67.42,377.23,2,0,0.08,0.08,382,11.54,0.1,0.08,34.54,FLYING,CF1-J,0:/Integrated Flight Computer/aircraft/cf1_j_cfg.ks (inferred preloaded)
34.82,APPROACH,FLY_TO_FIX,86.13,85,-1.13,1286.78,0.45,4.4,4.14,281.36,0.04,0.1551,0,13.159,1,0.6,4.5,0.75,0.35,0.0168,0.4,0,50.161,0,1.131,0,281.51,0.164,0,0,0.3,0.14,0,0.16,281.51,0,0,0,0,0,0,0,42.762,0,0,0,3,0,0,0,2315.37,0,0,0,281.36,0,0,0,0,0,0,0,0,0,0,0,0,0,1,1,0,0,VALID,0,0,0,0,0,1,0,0,0,0,0,0,0,0,0,0,0,0,0,0,66.83,377.23,2,0,0.1,0.1,385,10.71,0.1,0.08,34.82,FLYING,CF1-J,0:/Integrated Flight Computer/aircraft/cf1_j_cfg.ks (inferred preloaded)
