t_s,phase,subphase,ias_ms,vapp_ms,spd_err_ms,agl_m,vs_ms,pitch_deg,aoa_deg,hdg_deg,bank_deg,thr_cmd,thr_cur,thr_intg,at_gain,at_tau_s,at_a_up,at_a_dn,at_kp_thr,at_ki_spd,at_thr_slew,aa_hdg_cmd_deg,aa_fpa_cmd_deg,aa_fbw,aa_dir,actual_fpa_deg,ftf_hdg_err_deg,ftf_fix_idx,kos_steer_pit_deg,kos_steer_hdg_deg,aa_dir_vx,aa_dir_vy,aa_dir_vz,aa_dir_pitch_deg,aa_dir_hdg_deg,ils_loc_m,ils_gs_m,ils_dist_km,loc_corr_deg,gs_corr_deg,gs_latched,active_gs_ang_deg,ils_intercept_alt_m,d_gs_ms,fpa_preclamped_deg,gs_nom_alt_m,flare_fpa_cmd,flare_tgt_vs,flare_frac,steer_hdg_deg,steer_blend,ro_loc_corr_deg,ro_hdg_err_deg,ro_yaw_tgt,ro_yaw_scale,ro_yaw_gate,yaw_cmd,roll_cmd,pitch_cmd,ro_pitch_tgt_deg,ro_pitch_err_deg,ro_pitch_ff,ro_roll_assist,flaps_cur,flaps_tgt,asc_j_ab,asc_j_rk,asc_validity,asc_q_pa,asc_q_raw_pa,asc_mach,asc_apo_m,asc_drag_n,asc_w_prop,asc_edot_aero,asc_edot_orb,asc_pitch_bias,asc_blend,asc_spooling,asc_ab_thr_ratio,asc_ab_t_now,asc_ab_t_avail,asc_ab_ign_on,asc_ab_flameouts,asc_rk_t_now,asc_rk_t_avail,asc_rk_ign_on,asc_rk_flameouts,ship_thrust,ship_avail_thrust,ship_ign_on,ship_flameouts,ifc_raw_dt_s,ifc_dt_s,ifc_loop_n,ifc_hz_est,ifc_raw_dt_max_s,ifc_raw_dt_min_s,phase_el_s,status,craft_name,cfg_file
0.12,TAKEOFF,TO_PREFLIGHT,0.2,80,79.8,3.63,-0.03,-0.11,11.81,90.24,0.051,0.04,0,0,0,0,0,0,0,0,0,90.4,0,1,0,-2.6,0,0,0,90,0,0,0,0,0,0,0,0,0,0,0,3,0,0,0,69,0,0,0,90.4,1,0,-0.159,0,0,1,0,0,0,0,0,0,0,0,1,0,0,VALID,0,0,0,0,0,1,0,0,0,0,0,0,0,0,0,0,0,0,0,0,0,518.07,2,0,0.1,0.1,1,3.45,0.1,0.02,0.02,PRELAUNCH,CF1-H,0:/Integrated Flight Computer/aircraft/cf1_h_cfg.ks (inferred preloaded)
0.38,TAKEOFF,TO_PREFLIGHT,0.2,80,79.8,3.61,0.01,-0.28,-5.15,90.26,0.141,0.112,0,0,0,0,0,0,0,0,0,90.4,0,1,0,0.34,0,0,0,90,0,0,0,0,0,0,0,0,0,0,0,3,0,0,0,69,0,0,0,90.4,1,0,-0.153,0,0,1,0,0,0,0,0,0,0,1,1,0,0,VALID,0,0,0,0,0,1,0,0,0,0,0,0,0,0,0,0,0,0,0,0,0.35,518.07,2,0,0.04,0.04,6,19.23,0.1,0.04,0.28,PRELAUNCH,CF1-H,0:/Integrated Flight Computer/aircraft/cf1_h_cfg.ks (inferred preloaded)
0.64,TAKEOFF,TO_PREFLIGHT,0.08,80,79.92,3.61,-0.01,-0.26,65.36,90.26,0.165,0.216,0,0,0,0,0,0,0,0,0,90.4,0,1,0,-0.84,0,0,0,90,0,0,0,0,0,0,0,0,0,0,0,3,0,0,0,69,0,0,0,90.4,1,0,-0.153,0,0,1,0,0,0,0,0,0,0,1,1,0,0,VALID,0,0,0,0,0,1,0,0,0,0,0,0,0,0,0,0,0,0,0,0,1.44,518.1,2,0,0.04,0.04,11,19.23,0.08,0.04,0.54,PRELAUNCH,CF1-H,0:/Integrated Flight Computer/aircraft/cf1_h_cfg.ks (inferred preloaded)
0.9,TAKEOFF,TO_PREFLIGHT,0.05,80,79.95,3.63,-0.01,-0.13,24.57,90.27,0.127,0.32,0,0,0,0,0,0,0,0,0,90.4,0,1,0,-0.66,0,0,0,90,0,0,0,0,0,0,0,0,0,0,0,3,0,0,0,69,0,0,0,90.4,1,0,-0.153,0,0,1,0,0,0,0,0,0,0,1,1,0,0,VALID,0,0,0,0,0,1,0,0,0,0,0,0,0,0,0,0,0,0,0,0,3.35,518.1,2,0,0.04,0.04,16,19.23,0.08,0.04,0.8,PRELAUNCH,CF1-H,0:/Integrated Flight Computer/aircraft/cf1_h_cfg.ks (inferred preloaded)
1.16,TAKEOFF,TO_PREFLIGHT,0.03,80,79.97,3.62,0,-0.19,-5,90.27,0.076,0.424,0,0,0,0,0,0,0,0,0,90.4,0,1,0,-0.14,0,0,0,90,0,0,0,0,0,0,0,0,0,0,0,3,0,0,0,69,0,0,0,90.4,1,0,-0.153,0,0,1,0,0,0,0,0,0,0,1,1,0,0,VALID,0,0,0,0,0,1,0,0,0,0,0,0,0,0,0,0,0,0,0,0,6.07,518.11,2,0,0.04,0.04,21,19.23,0.08,0.04,1.06,PRELAUNCH,CF1-H,0:/Integrated Flight Computer/aircraft/cf1_h_cfg.ks (inferred preloaded)
1.42,TAKEOFF,TO_PREFLIGHT,0.03,80,79.97,3.61,-0.02,-0.22,63.11,90.28,0.056,0.528,0,0,0,0,0,0,0,0,0,90.4,0,1,0,-0.91,0,0,0,90,0,0,0,0,0,0,0,0,0,0,0,3,0,0,0,69,0,0,0,90.4,1,0,-0.153,0,0,1,0,0,0,0,0,0,0,1,1,0,0,VALID,0,0,0,0,0,1,0,0,0,0,0,0,0,0,0,0,0,0,0,0,9.57,518.11,2,0,0.04,0.04,26,19.23,0.08,0.04,1.32,PRELAUNCH,CF1-H,0:/Integrated Flight Computer/aircraft/cf1_h_cfg.ks (inferred preloaded)
1.68,TAKEOFF,TO_PREFLIGHT,0.02,80,79.98,3.62,0,-0.14,8.73,90.3,0.08,0.632,0,0,0,0,0,0,0,0,0,90.4,0,1,0,-0.07,0,0,0,90,0,0,0,0,0,0,0,0,0,0,0,3,0,0,0,69,0,0,0,90.4,1,0,-0.153,0,0,1,0,0,0,0,0,0,0,1,1,0,0,VALID,0,0,0,0,0,1,0,0,0,0,0,0,0,0,0,0,0,0,0,0,13.86,518.11,2,0,0.04,0.04,31,19.23,0.08,0.04,1.58,PRELAUNCH,CF1-H,0:/Integrated Flight Computer/aircraft/cf1_h_cfg.ks (inferred preloaded)
1.94,TAKEOFF,TO_PREFLIGHT,0.02,80,79.98,3.61,0,-0.17,-2.85,90.31,0.121,0.736,0,0,0,0,0,0,0,0,0,90.4,0,1,0,0.13,0,0,0,90,0,0,0,0,0,0,0,0,0,0,0,3,0,0,0,69,0,0,0,90.4,1,0,-0.153,0,0,1,0,0,0,0,0,0,0,1,1,0,0,VALID,0,0,0,0,0,1,0,0,0,0,0,0,0,0,0,0,0,0,0,0,18.92,518.11,2,0,0.04,0.04,36,19.23,0.08,0.04,1.84,PRELAUNCH,CF1-H,0:/Integrated Flight Computer/aircraft/cf1_h_cfg.ks (inferred preloaded)
2.26,TAKEOFF,TO_PREFLIGHT,0.03,80,79.97,3.61,0,-0.23,0.82,90.32,0.143,0.864,0,0,0,0,0,0,0,0,0,90.4,0,1,0,-0.09,0,0,0,90,0,0,0,0,0,0,0,0,0,0,0,3,0,0,0,69,0,0,0,90.4,1,0,-0.153,0,0,1,0,0,0,0,0,0,0,1,1,0,0,VALID,0,0,0,0,0,1,0,0,0,0,0,0,0,0,0,0,0,0,0,0,26.17,518.11,2,0,0.08,0.08,41,15.63,0.08,0.04,2.16,PRELAUNCH,CF1-H,0:/Integrated Flight Computer/aircraft/cf1_h_cfg.ks (inferred preloaded)
2.54,TAKEOFF,TO_PREFLIGHT,0.02,80,79.98,3.61,0,-0.19,8.52,90.33,0.12,0.976,0,0,0,0,0,0,0,0,0,90.4,0,1,0,-0.11,0,0,0,90,0,0,0,0,0,0,0,0,0,0,0,3,0,0,0,69,0,0,0,90.4,1,0,-0.153,0,0,1,0,0,0,0,0,0,0,1,1,0,0,VALID,0,0,0,0,0,1,0,0,0,0,0,0,0,0,0,0,0,0,0,0,33.42,518.11,2,0,0.08,0.08,45,14.29,0.08,0.06,2.44,PRELAUNCH,CF1-H,0:/Integrated Flight Computer/aircraft/cf1_h_cfg.ks (inferred preloaded)
2.82,TAKEOFF,TO_PREFLIGHT,0.03,80,79.97,3.61,0,-0.21,-3.56,90.34,0.088,1,0,0,0,0,0,0,0,0,0,90.4,0,1,0,0.15,0,0,0,90,0,0,0,0,0,0,0,0,0,0,0,3,0,0,0,69,0,0,0,90.4,1,0,-0.153,0,0,1,0,0,0,0,0,0,0,1,1,0,0,VALID,0,0,0,0,0,1,0,0,0,0,0,0,0,0,0,0,0,0,0,0,41.39,518.1,2,0,0.08,0.08,49,14.29,0.08,0.06,2.72,PRELAUNCH,CF1-H,0:/Integrated Flight Computer/aircraft/cf1_h_cfg.ks (inferred preloaded)
3.1,TAKEOFF,TO_PREFLIGHT,0.04,80,79.96,3.61,0,-0.23,-0.98,90.35,0.079,1,0,0,0,0,0,0,0,0,0,90.4,0,1,0,0.02,0,0,0,90,0,0,0,0,0,0,0,0,0,0,0,3,0,0,0,69,0,0,0,90.4,1,0,-0.153,0,0,1,0,0,0,0,0,0,0,1,1,0,0,VALID,0,0,0,0,0,1,0,0,0,0,0,0,0,0,0,0,0,0,0,0,49.34,518.1,2,0,0.08,0.08,53,14.29,0.08,0.06,3,PRELAUNCH,CF1-H,0:/Integrated Flight Computer/aircraft/cf1_h_cfg.ks (inferred preloaded)
3.38,TAKEOFF,TO_GROUND_ROLL,0.05,80,79.95,3.61,0,-0.21,1.18,90.36,0.097,1,0,0,0,0,0,0,0,0,0,90.39,0,1,0,-0.18,0,0,0,90,0,0,0,0,0,0,0,0,0,0,0,3,0,0,0,69,0,0,0,90.39,1,0,-0.037,0,0,3,0,0,0,0,0,0,0,1,1,0,0,VALID,0,0,0,0,0,1,0,0,0,0,0,0,0,0,0,0,0,0,0,0,57.15,518.1,2,0,0.08,0.08,57,14.29,0.08,0.06,3.3,PRELAUNCH,CF1-H,0:/Integrated Flight Computer/aircraft/cf1_h_cfg.ks (inferred preloaded)
3.66,TAKEOFF,TO_GROUND_ROLL,0.27,80,79.73,3.62,-0.01,-0.11,1.2,90.36,0.12,1,0,0,0,0,0,0,0,0,0,90.39,0,1,0,-0.4,0,0,0,90,0,0,0,0,0,0,0,0,0,0,0,3,0,0,0,69,0,0,0,90.39,1,0,-0.029,0,0,3,0,0,0,0,0,0,0,1,1,0,0,VALID,0,0,0,0,0,1,0,0,0,0,0,0,0,0,0,0,0,0,0,0,64.83,518.05,2,0,0.08,0.08,61,14.29,0.08,0.06,3.58,PRELAUNCH,CF1-H,0:/Integrated Flight Computer/aircraft/cf1_h_cfg.ks (inferred preloaded)
3.94,TAKEOFF,TO_GROUND_ROLL,0.6,80,79.4,3.62,0,-0.16,-0.38,90.37,0.125,1,0,0,0,0,0,0,0,0,0,90.39,0,1,0,0.1,0,0,0,90,0,0,0,0,0,0,0,0,0,0,0,3,0,0,0,69,0,0,0,90.39,1,0,-0.019,0,0,3,0,0,0,0,0,0,0,1,1,0,0,VALID,0,0,0,0,0,1,0,0,0,0,0,0,0,0,0,0,0,0,0,0,72.37,517.97,2,0,0.08,0.08,65,14.29,0.08,0.06,3.86,PRELAUNCH,CF1-H,0:/Integrated Flight Computer/aircraft/cf1_h_cfg.ks (inferred preloaded)
4.22,TAKEOFF,TO_GROUND_ROLL,0.98,80,79.02,3.62,-0.01,-0.15,0.42,90.38,0.11,1,0,0,0,0,0,0,0,0,0,90.39,0,1,0,-0.66,0,0,0,90,0,0,0,0,0,0,0,0,0,0,0,3,0,0,0,69,0,0,0,90.39,1,0,-0.011,0,0,3,0,0,0,0,0,0,0,1,1,0,0,VALID,0,0,0,0,0,1,0,0,0,0,0,0,0,0,0,0,0,0,0,0,79.79,517.87,2,0,0.08,0.08,69,14.29,0.08,0.06,4.14,PRELAUNCH,CF1-H,0:/Integrated Flight Computer/aircraft/cf1_h_cfg.ks (inferred preloaded)
4.5,TAKEOFF,TO_GROUND_ROLL,1.38,80,78.62,3.62,-0.01,-0.13,0.1,90.38,0.094,1,0,0,0,0,0,0,0,0,0,90.4,0,1,0,-0.26,0,0,0,90,0,0,0,0,0,0,0,0,0,0,0,3,0,0,0,69,0,0,0,90.4,1,0,-0.018,0,0,3,0,0,0,0,0,0,0,1,1,0,0,VALID,0,0,0,0,0,1,0,0,0,0,0,0,0,0,0,0,0,0,0,0,87.07,517.77,2,0,0.08,0.08,73,14.29,0.08,0.06,4.42,PRELAUNCH,CF1-H,0:/Integrated Flight Computer/aircraft/cf1_h_cfg.ks (inferred preloaded)
4.78,TAKEOFF,TO_GROUND_ROLL,1.83,80,78.17,3.62,-0.01,-0.15,0.16,90.38,0.09,1,0,0,0,0,0,0,0,0,0,90.4,0,1,0,-0.37,0,0,0,90,0,0,0,0,0,0,0,0,0,0,0,3,0,0,0,69,0,0,0,90.4,1,0,-0.02,0,0,3,0,0,0,0,0,0,0,1,1,0,0,VALID,0,0,0,0,0,1,0,0,0,0,0,0,0,0,0,0,0,0,0,0,94.23,517.66,2,0,0.08,0.08,77,14.29,0.08,0.06,4.7,PRELAUNCH,CF1-H,0:/Integrated Flight Computer/aircraft/cf1_h_cfg.ks (inferred preloaded)
5.06,TAKEOFF,TO_GROUND_ROLL,2.3,80,77.7,3.62,-0.02,-0.13,0.21,90.38,0.103,1,0,0,0,0,0,0,0,0,0,90.4,0,1,0,-0.38,0,0,0,90,0,0,0,0,0,0,0,0,0,0,0,3,0,0,0,69,0,0,0,90.4,1,0,-0.012,0.0001,0.25,1,0.0001,0,0,0,0,0,0,1,1,0,0,VALID,0,0,0,0,0,1,0,0,0,0,0,0,0,0,0,0,0,0,0,0,101.27,517.54,2,0,0.08,0.08,81,14.29,0.08,0.06,4.98,LANDED,CF1-H,0:/Integrated Flight Computer/aircraft/cf1_h_cfg.ks (inferred preloaded)
5.34,TAKEOFF,TO_GROUND_ROLL,2.82,80,77.18,3.62,-0.02,-0.13,0.15,90.38,0.115,1,0,0,0,0,0,0,0,0,0,90.41,0,1,0,-0.32,0,0,0,90,0,0,0,0,0,0,0,0,0,0,0,3,0,0,0,69,0,0,0,90.41,1,0,-0.03,0.0002,0.25,1,0.0002,0,0,0,0,0,0,1,1,0,0,VALID,0,0,0,0,0,1,0,0,0,0,0,0,0,0,0,0,0,0,0,0,108.18,517.4,2,0,0.08,0.08,85,14.29,0.08,0.06,5.26,LANDED,CF1-H,0:/Integrated Flight Computer/aircraft/cf1_h_cfg.ks (inferred preloaded)
5.62,TAKEOFF,TO_GROUND_ROLL,3.36,80,76.64,3.62,-0.02,-0.13,0.19,90.37,0.115,1,0,0,0,0,0,0,0,0,0,90.4,0,1,0,-0.36,0,0,0,90,0,0,0,0,0,0,0,0,0,0,0,3,0,0,0,69,0,0,0,90.4,1,0,-0.023,0.0002,0.25,1,0.0002,0,0,0,0,0,0,1,1,0,0,VALID,0,0,0,0,0,1,0,0,0,0,0,0,0,0,0,0,0,0,0,0,114.97,517.25,2,0,0.08,0.08,89,14.29,0.08,0.06,5.54,LANDED,CF1-H,0:/Integrated Flight Computer/aircraft/cf1_h_cfg.ks (inferred preloaded)
5.9,TAKEOFF,TO_GROUND_ROLL,3.94,80,76.06,3.62,-0.02,-0.13,0.18,90.38,0.106,1,0,0,0,0,0,0,0,0,0,90.39,0,1,0,-0.34,0,0,0,90,0,0,0,0,0,0,0,0,0,0,0,3,0,0,0,69,0,0,0,90.39,1,0,-0.011,0.0001,0.25,1,0.0001,0,0,0,0,0,0,1,1,0,0,VALID,0,0,0,0,0,1,0,0,0,0,0,0,0,0,0,0,0,0,0,0,121.64,517.09,2,0,0.08,0.08,93,14.29,0.08,0.06,5.82,LANDED,CF1-H,0:/Integrated Flight Computer/aircraft/cf1_h_cfg.ks (inferred preloaded)
6.18,TAKEOFF,TO_GROUND_ROLL,4.55,80,75.45,3.62,-0.03,-0.13,0.18,90.38,0.1,1,0,0,0,0,0,0,0,0,0,90.41,0,1,0,-0.34,0,0,0,90,0,0,0,0,0,0,0,0,0,0,0,3,0,0,0,69,0,0,0,90.41,1,0,-0.03,0.0002,0.25,1,0.0002,0,0,0,0,0,0,1,1,0,0,VALID,0,0,0,0,0,1,0,0,0,0,0,0,0,0,0,0,0,0,0,0,128.19,516.92,2,0,0.08,0.08,97,14.29,0.08,0.06,6.1,LANDED,CF1-H,0:/Integrated Flight Computer/aircraft/cf1_h_cfg.ks (inferred preloaded)
6.46,TAKEOFF,TO_GROUND_ROLL,5.19,80,74.81,3.62,-0.03,-0.12,0.19,90.37,0.098,1,0,0,0,0,0,0,0,0,0,90.4,0,1,0,-0.34,0,0,0,90,0,0,0,0,0,0,0,0,-0.001,0,0,3,0,0,0,69,0,0,0,90.4,1,-0.001,-0.034,0.0002,0.25,1,0.0002,0,0,0,0,0,0,1,1,0,0,VALID,0,0,0,0,0,1,0,0,0,0,0,0,0,0,0,0,0,0,0,0,134.62,516.74,2,0,0.08,0.08,101,14.29,0.08,0.06,6.38,LANDED,CF1-H,0:/Integrated Flight Computer/aircraft/cf1_h_cfg.ks (inferred preloaded)
6.74,TAKEOFF,TO_GROUND_ROLL,5.87,80,74.13,3.62,-0.03,-0.12,0.18,90.37,0.105,1,0,0,0,0,0,0,0,0,0,90.39,0,1,0,-0.33,0,0,0,90,0,0,0,0,0,0,0,0,-0.001,0,0,3,0,0,0,69,0,0,0,90.39,1,-0.001,-0.022,0.0001,0.25,1,0.0001,0,0,0,0,0,0,1,1,0,0,VALID,0,0,0,0,0,1,0,0,0,0,0,0,0,0,0,0,0,0,0,0,140.93,516.54,2,0,0.08,0.08,105,14.29,0.08,0.06,6.66,LANDED,CF1-H,0:/Integrated Flight Computer/aircraft/cf1_h_cfg.ks (inferred preloaded)
7.02,TAKEOFF,TO_GROUND_ROLL,6.57,80,73.43,3.62,-0.04,-0.12,0.19,90.38,0.111,1,0,0,0,0,0,0,0,0,0,90.39,0,1,0,-0.33,0,0,0,90,0,0,0,0,0,0,0,0,-0.001,0,0,3,0,0,0,69,0,0,0,90.39,1,-0.001,-0.007,0,0.25,1,0,0,0,0,0,0,0,1,1,0,0,VALID,0,0,0,0,0,1,0,0,0,0,0,0,0,0,0,0,0,0,0,0,147.13,516.33,2,0,0.08,0.08,109,14.29,0.08,0.06,6.94,LANDED,CF1-H,0:/Integrated Flight Computer/aircraft/cf1_h_cfg.ks (inferred preloaded)
7.3,TAKEOFF,TO_GROUND_ROLL,7.31,80,72.69,3.62,-0.04,-0.12,0.19,90.4,0.109,1,0,0,0,0,0,0,0,0,0,90.39,0,1,0,-0.33,0,0,0,90,0,0,0,0,0,0,0,0,-0.001,0,0,3,0,0,0,69,0,0,0,90.39,1,-0.001,0.006,0,0.25,1,0,0,0,0,0,0,0,1,1,0,0,VALID,0,0,0,0,0,1,0,0,0,0,0,0,0,0,0,0,0,0,0,0,153.22,516.1,2,0,0.08,0.08,113,14.29,0.08,0.06,7.22,LANDED,CF1-H,0:/Integrated Flight Computer/aircraft/cf1_h_cfg.ks (inferred preloaded)
7.58,TAKEOFF,TO_GROUND_ROLL,8.07,80,71.93,3.62,-0.05,-0.12,0.19,90.4,0.103,1,0,0,0,0,0,0,0,0,0,90.4,0,1,0,-0.33,0,0,0,90,0,0,0,0,0,0,0,0,-0.002,0,0,3,0,0,0,69,0,0,0,90.4,1,-0.002,0.008,0,0.25,1,0,0,0,0,0,0,0,1,1,0,0,VALID,0,0,0,0,0,1,0,0,0,0,0,0,0,0,0,0,0,0,0,0,159.2,515.86,2,0,0.08,0.08,117,14.29,0.08,0.06,7.5,LANDED,CF1-H,0:/Integrated Flight Computer/aircraft/cf1_h_cfg.ks (inferred preloaded)
7.86,TAKEOFF,TO_GROUND_ROLL,8.86,80,71.14,3.62,-0.05,-0.11,0.19,90.41,0.099,1,0,0,0,0,0,0,0,0,0,90.39,0,1,0,-0.33,0,0,0,90,0,0,0,0,0,0,0,0,-0.002,0,0,3,0,0,0,69,0,0,0,90.39,1,-0.002,0.013,-0.0001,0.25,1,-0.0001,0,0,0,0,0,0,1,1,0,0,VALID,0,0,0,0,0,1,0,0,0,0,0,0,0,0,0,0,0,0,0,0,165.06,515.6,2,0,0.08,0.08,121,14.29,0.08,0.06,7.78,LANDED,CF1-H,0:/Integrated Flight Computer/aircraft/cf1_h_cfg.ks (inferred preloaded)
8.14,TAKEOFF,TO_GROUND_ROLL,9.69,80,70.31,3.62,-0.06,-0.11,0.19,90.41,0.102,1,0,0,0,0,0,0,0,0,0,90.4,0,1,0,-0.33,0,0,0,90,0,0,0,0,0,0,0,0,-0.002,0,0,3,0,0,0,69,0,0,0,90.4,1,-0.002,0.011,-0.0001,0.25,1,-0.0001,0,0,0,0,0,0,1,1,0,0,VALID,0,0,0,0,0,1,0,0,0,0,0,0,0,0,0,0,0,0,0,0,170.82,515.33,2,0,0.08,0.08,125,14.29,0.08,0.06,8.06,LANDED,CF1-H,0:/Integrated Flight Computer/aircraft/cf1_h_cfg.ks (inferred preloaded)
8.42,TAKEOFF,TO_GROUND_ROLL,10.54,80,69.46,3.62,-0.06,-0.11,0.2,90.41,0.107,1,0,0,0,0,0,0,0,0,0,90.4,0,1,0,-0.33,0,0,0,90,0,0,0,0,0,0,0,0,-0.003,0,0,3,0,0,0,69,0,0,0,90.4,1,-0.003,0.007,0,0.25,1,0,0,0,0,0,0,0,1,1,0,0,VALID,0,0,0,0,0,1,0,0,0,0,0,0,0,0,0,0,0,0,0,0,176.46,515.04,2,0,0.08,0.08,129,14.29,0.08,0.06,8.34,LANDED,CF1-H,0:/Integrated Flight Computer/aircraft/cf1_h_cfg.ks (inferred preloaded)
8.7,TAKEOFF,TO_GROUND_ROLL,11.41,80,68.59,3.62,-0.07,-0.11,0.2,90.41,0.109,1,0,0,0,0,0,0,0,0,0,90.39,0,1,0,-0.33,0,0,0,90,0,0,0,0,0,0,0,0,-0.003,0,0,3,0,0,0,69,0,0,0,90.39,1,-0.003,0.015,-0.0001,0.25,1,-0.0001,0,0,0,0,0,0,1,1,0,0,VALID,0,0,0,0,0,1,0,0,0,0,0,0,0,0,0,0,0,0,0,0,182,514.74,2,0,0.08,0.08,133,14.29,0.08,0.06,8.62,LANDED,CF1-H,0:/Integrated Flight Computer/aircraft/cf1_h_cfg.ks (inferred preloaded)
8.98,TAKEOFF,TO_GROUND_ROLL,12.32,80,67.68,3.62,-0.07,-0.1,0.2,90.41,0.107,1,0,0,0,0,0,0,0,0,0,90.39,0,1,0,-0.33,0,0,0,90,0,0,0,0,0,0,0,0,-0.004,0,0,3,0,0,0,69,0,0,0,90.39,1,-0.004,0.023,-0.0002,0.25,1,-0.0002,0,0,0,0,0,0,1,1,0,0,VALID,0,0,0,0,0,1,0,0,0,0,0,0,0,0,0,0,0,0,0,0,187.43,514.42,2,0,0.08,0.08,137,14.29,0.08,0.06,8.9,LANDED,CF1-H,0:/Integrated Flight Computer/aircraft/cf1_h_cfg.ks (inferred preloaded)
9.26,TAKEOFF,TO_GROUND_ROLL,13.24,80,66.76,3.62,-0.08,-0.1,0.2,90.42,0.102,1,0,0,0,0,0,0,0,0,0,90.39,0,1,0,-0.33,0,0,0,90,0,0,0,0,0,0,0,0,-0.004,0,0,3,0,0,0,69,0,0,0,90.39,1,-0.004,0.032,-0.0002,0.25,1,-0.0002,0,0,0,0,0,0,1,1,0,0,VALID,0,0,0,0,0,1,0,0,0,0,0,0,0,0,0,0,0,0,0,0,192.75,514.08,2,0,0.08,0.08,141,14.29,0.08,0.06,9.18,LANDED,CF1-H,0:/Integrated Flight Computer/aircraft/cf1_h_cfg.ks (inferred preloaded)
9.54,TAKEOFF,TO_GROUND_ROLL,14.2,80,65.8,3.63,-0.08,-0.1,0.2,90.43,0.099,1,0,0,0,0,0,0,0,0,0,90.39,0,1,0,-0.32,0,0,0,90,0,0,0,0,0,0,0,0,-0.005,0,0,3,0,0,0,69,0,0,0,90.39,1,-0.005,0.038,-0.0003,0.25,1,-0.0003,0,0,0,0,0,0,1,1,0,0,VALID,0,0,0,0,0,1,0,0,0,0,0,0,0,0,0,0,0,0,0,0,197.97,513.73,2,0,0.08,0.08,145,14.29,0.08,0.06,9.46,LANDED,CF1-H,0:/Integrated Flight Computer/aircraft/cf1_h_cfg.ks (inferred preloaded)
9.82,TAKEOFF,TO_GROUND_ROLL,15.18,80,64.82,3.63,-0.09,-0.1,0.21,90.43,0.101,1,0,0,0,0,0,0,0,0,0,90.39,0,1,0,-0.32,0,0,0,90,0,0,0,0,0,0,0,0,-0.006,0,0,3,0,0,0,69,0,0,0,90.39,1,-0.006,0.042,-0.0003,0.25,1,-0.0003,0,0,0,0,0,0,1,1,0,0,VALID,0,0,0,0,0,1,0,0,0,0,0,0,0,0,0,0,0,0,0,0,203.09,513.35,2,0,0.08,0.08,149,14.29,0.08,0.06,9.74,LANDED,CF1-H,0:/Integrated Flight Computer/aircraft/cf1_h_cfg.ks (inferred preloaded)
10.1,TAKEOFF,TO_GROUND_ROLL,16.18,80,63.82,3.63,-0.09,-0.1,0.21,90.44,0.105,1,0,0,0,0,0,0,0,0,0,90.39,0,1,0,-0.32,0,0,0,90,0,0,0,0,0,0,0,0,-0.006,0,0,3,0,0,0,69,0,0,0,90.39,1,-0.006,0.044,-0.0003,0.25,1,-0.0003,0,0,0,0,0,0,1,1,0,0,VALID,0,0,0,0,0,1,0,0,0,0,0,0,0,0,0,0,0,0,0,0,208.11,512.96,2,0,0.08,0.08,153,14.29,0.08,0.06,10.02,LANDED,CF1-H,0:/Integrated Flight Computer/aircraft/cf1_h_cfg.ks (inferred preloaded)
10.38,TAKEOFF,TO_GROUND_ROLL,17.21,80,62.79,3.63,-0.1,-0.09,0.21,90.44,0.107,1,0,0,0,0,0,0,0,0,0,90.39,0,1,0,-0.32,0,0,0.01,90,0,0,0,0,0,0,0,0,-0.007,0,0,3,0,0,0,69,0,0,0,90.39,1,-0.007,0.044,-0.0003,0.25,1,-0.0003,0,0,0,0,0,0,1,1,0,0,VALID,0,0,0,0,0,1,0,0,0,0,0,0,0,0,0,0,0,0,0,0,213.02,512.55,2,0,0.08,0.08,157,14.29,0.08,0.06,10.3,LANDED,CF1-H,0:/Integrated Flight Computer/aircraft/cf1_h_cfg.ks (inferred preloaded)
10.66,TAKEOFF,TO_GROUND_ROLL,18.27,80,61.73,3.63,-0.1,-0.09,0.21,90.44,0.107,1,0,0,0,0,0,0,0,0,0,90.39,0,1,0,-0.32,0,0,0.01,90,0,0,0,0,0,0,0,0,-0.008,0,0,3,0,0,0,69,0,0,0,90.39,1,-0.008,0.043,-0.0003,0.25,1,-0.0003,0,0,0,0,0,0,1,1,0,0,VALID,0,0,0,0,0,1,0,0,0,0,0,0,0,0,0,0,0,0,0,0,217.83,512.12,2,0,0.08,0.08,161,14.29,0.08,0.06,10.58,LANDED,CF1-H,0:/Integrated Flight Computer/aircraft/cf1_h_cfg.ks (inferred preloaded)
10.94,TAKEOFF,TO_GROUND_ROLL,19.34,80,60.66,3.63,-0.11,-0.09,0.21,90.43,0.105,1,0,0,0,0,0,0,0,0,0,90.39,0,1,0,-0.32,0,0,0.01,90,0,0,0,0,0,0,0,0,-0.009,0,0,3,0,0,0,69,0,0,0,90.39,1,-0.009,0.041,-0.0003,0.25,1,-0.0003,0,0,0,0,0,0,1,1,0,0,VALID,0,0,0,0,0,1,0,0,0,0,0,0,0,0,0,0,0,0,0,0,222.54,511.68,2,0,0.08,0.08,165,14.29,0.08,0.06,10.86,LANDED,CF1-H,0:/Integrated Flight Computer/aircraft/cf1_h_cfg.ks (inferred preloaded)
11.22,TAKEOFF,TO_GROUND_ROLL,20.44,80,59.56,3.63,-0.11,-0.09,0.21,90.43,0.105,1,0,0,0,0,0,0,0,0,0,90.39,0,1,0,-0.32,0,0,0.01,90,0,0,0,0,0,0,0,0,-0.01,0,0,3,0,0,0,69,0,0,0,90.39,1,-0.01,0.039,-0.0003,0.255,0,-0.0003,0,0,0,0,0,0,1,1,0,0,VALID,0,0,0,0,0,1,0,0,0,0,0,0,0,0,0,0,0,0,0,0,227.16,511.21,2,0,0.08,0.08,169,14.29,0.08,0.06,11.14,LANDED,CF1-H,0:/Integrated Flight Computer/aircraft/cf1_h_cfg.ks (inferred preloaded)
11.5,TAKEOFF,TO_GROUND_ROLL,21.56,80,58.44,3.63,-0.12,-0.09,0.21,90.43,0.105,1,0,0,0,0,0,0,0,0,0,90.39,0,1,0,-0.32,0,0,0.01,90,0,0,0,0,0,0,0,0,-0.01,0,0,3,0,0,0,69,0,0,0,90.39,1,-0.01,0.037,-0.0003,0.267,0,-0.0003,0,0,0,0,0,0,1,1,0,0,VALID,0,0,0,0,0,1,0,0,0,0,0,0,0,0,0,0,0,0,0,0,231.67,510.72,2,0,0.08,0.08,173,14.29,0.08,0.06,11.42,LANDED,CF1-H,0:/Integrated Flight Computer/aircraft/cf1_h_cfg.ks (inferred preloaded)
11.78,TAKEOFF,TO_GROUND_ROLL,22.7,80,57.3,3.63,-0.13,-0.08,0.21,90.43,0.107,1,0,0,0,0,0,0,0,0,0,90.39,0,1,0,-0.32,0,0,0.01,90,0,0,0,0,0,0,0,0,-0.011,0,0,3,0,0,0,69,0,0,0,90.39,1,-0.011,0.036,-0.0003,0.279,0,-0.0003,0,0,0,0,0,0,1,1,0,0,VALID,0,0,0,0,0,1,0,0,0,0,0,0,0,0,0,0,0,0,0,0,236.09,510.22,2,0,0.08,0.08,177,14.29,0.08,0.06,11.7,LANDED,CF1-H,0:/Integrated Flight Computer/aircraft/cf1_h_cfg.ks (inferred preloaded)
12.06,TAKEOFF,TO_GROUND_ROLL,23.86,80,56.14,3.63,-0.13,-0.08,0.22,90.42,0.107,1,0,0,0,0,0,0,0,0,0,90.39,0,1,0,-0.32,0,0,0.01,90,0,0,0,0,0,0,0,0,-0.012,0,0,3,0,0,0,69,0,0,0,90.39,1,-0.012,0.035,-0.0003,0.291,0,-0.0003,0,0,0,0,0,0,1,1,0,0,VALID,0,0,0,0,0,1,0,0,0,0,0,0,0,0,0,0,0,0,0,0,240.41,509.69,2,0,0.08,0.08,181,14.29,0.08,0.06,11.98,LANDED,CF1-H,0:/Integrated Flight Computer/aircraft/cf1_h_cfg.ks (inferred preloaded)
12.34,TAKEOFF,TO_GROUND_ROLL,25.04,80,54.96,3.63,-0.14,-0.08,0.22,90.42,0.106,1,0,0,0,0,0,0,0,0,0,90.39,0,1,0,-0.32,0,0,0.01,90,0,0,0,0,0,0,0,0,-0.013,0,0,3,0,0,0,69,0,0,0,90.39,1,-0.013,0.035,-0.0003,0.304,0,-0.0003,0,0,0,0,0,0,1,1,0,0,VALID,0,0,0,0,0,1,0,0,0,0,0,0,0,0,0,0,0,0,0,0,244.64,509.14,2,0,0.08,0.08,185,14.29,0.08,0.06,12.26,LANDED,CF1-H,0:/Integrated Flight Computer/aircraft/cf1_h_cfg.ks (inferred preloaded)
12.62,TAKEOFF,TO_GROUND_ROLL,26.25,80,53.75,3.63,-0.14,-0.08,0.22,90.42,0.105,1,0,0,0,0,0,0,0,0,0,90.39,0,1,0,-0.31,0,0,0.01,90,0,0,0,0,0,0,0,0,-0.015,0,0,3,0,0,0,69,0,0,0,90.39,1,-0.015,0.034,-0.0003,0.317,0,-0.0003,0,0,0,0,0,0,1,1,0,0,VALID,0,0,0,0,0,1,0,0,0,0,0,0,0,0,0,0,0,0,0,0,248.77,508.58,2,0,0.08,0.08,189,14.29,0.08,0.06,12.54,LANDED,CF1-H,0:/Integrated Flight Computer/aircraft/cf1_h_cfg.ks (inferred preloaded)
12.9,TAKEOFF,TO_GROUND_ROLL,27.47,80,52.53,3.63,-0.15,-0.08,0.22,90.42,0.105,1,0,0,0,0,0,0,0,0,0,90.39,0,1,0,-0.31,0,0,0.01,90,0,0,0,0,0,0,0,0,-0.016,0,0,3,0,0,0,69,0,0,0,90.39,1,-0.016,0.033,-0.0003,0.33,0,-0.0003,0,0,0,0,0,0,1,1,0,0,VALID,0,0,0,0,0,1,0,0,0,0,0,0,0,0,0,0,0,0,0,0,252.81,507.99,2,0,0.08,0.08,193,14.29,0.08,0.06,12.82,LANDED,CF1-H,0:/Integrated Flight Computer/aircraft/cf1_h_cfg.ks (inferred preloaded)
13.18,TAKEOFF,TO_GROUND_ROLL,28.71,80,51.29,3.63,-0.16,-0.08,0.22,90.42,0.106,1,0,0,0,0,0,0,0,0,0,90.38,0,1,0,-0.31,0,0,0.01,90,0,0,0,0,0,0,0,0,-0.017,0,0,3,0,0,0,69,0,0,0,90.38,1,-0.017,0.032,-0.0003,0.343,0,-0.0003,0,0,0,0,0,0,1,1,0,0,VALID,0,0,0,0,0,1,0,0,0,0,0,0,0,0,0,0,0,0,0,0,256.76,507.38,2,0,0.08,0.08,197,14.29,0.08,0.06,13.1,LANDED,CF1-H,0:/Integrated Flight Computer/aircraft/cf1_h_cfg.ks (inferred preloaded)
13.46,TAKEOFF,TO_GROUND_ROLL,29.97,80,50.03,3.63,-0.16,-0.07,0.22,90.41,0.106,1,0,0,0,0,0,0,0,0,0,90.38,0,1,0,-0.31,0,0,0.01,90,0,0,0,0,0,0,0,0,-0.018,0,0,3,0,0,0,69,0,0,0,90.38,1,-0.018,0.031,-0.0003,0.357,0,-0.0003,0,0,0,0,0,0,1,1,0,0,VALID,0,0,0,0,0,1,0,0,0,0,0,0,0,0,0,0,0,0,0,0,260.62,506.75,2,0,0.08,0.08,201,14.29,0.08,0.06,13.38,LANDED,CF1-H,0:/Integrated Flight Computer/aircraft/cf1_h_cfg.ks (inferred preloaded)
13.74,TAKEOFF,TO_GROUND_ROLL,31.25,80,48.75,3.63,-0.17,-0.07,0.22,90.41,0.106,1,0,0,0,0,0,0,0,0,0,90.38,0,1,0,-0.31,0,0,0.01,90,0,0,0,0,0,0,0,0,-0.019,0,0,3,0,0,0,69,0,0,0,90.38,1,-0.019,0.03,-0.0003,0.371,0,-0.0003,0,0,0,0,0,0,1,1,0,0,VALID,0,0,0,0,0,1,0,0,0,0,0,0,0,0,0,0,0,0,0,0,264.38,506.1,2,0,0.08,0.08,205,14.29,0.08,0.06,13.66,LANDED,CF1-H,0:/Integrated Flight Computer/aircraft/cf1_h_cfg.ks (inferred preloaded)
14.02,TAKEOFF,TO_GROUND_ROLL,32.54,80,47.46,3.63,-0.18,-0.07,0.22,90.41,0.106,1,0,0,0,0,0,0,0,0,0,90.38,0,1,0,-0.31,0,0,0.01,90,0,0,0,0,0,0,0,0,-0.021,0,0,3,0,0,0,69,0,0,0,90.38,1,-0.021,0.03,-0.0003,0.384,0,-0.0003,0,0,0,0,0,0,1,1,0,0,VALID,0,0,0,0,0,1,0,0,0,0,0,0,0,0,0,0,0,0,0,0,268.06,505.43,2,0,0.08,0.08,209,14.29,0.08,0.06,13.94,LANDED,CF1-H,0:/Integrated Flight Computer/aircraft/cf1_h_cfg.ks (inferred preloaded)
14.3,TAKEOFF,TO_GROUND_ROLL,33.86,80,46.14,3.63,-0.18,-0.07,0.22,90.41,0.106,1,0,0,0,0,0,0,0,0,0,90.38,0,1,0,-0.31,0,0,0.02,90,0,0,0,0,0,0,0,0,-0.022,0,0,3,0,0,0,69,0,0,0,90.38,1,-0.022,0.03,-0.0003,0.398,0,-0.0003,0,0,0,0,0,0,1,1,0,0,VALID,0,0,0,0,0,1,0,0,0,0,0,0,0,0,0,0,0,0,0,0,271.64,504.74,2,0,0.08,0.08,213,14.29,0.08,0.06,14.22,LANDED,CF1-H,0:/Integrated Flight Computer/aircraft/cf1_h_cfg.ks (inferred preloaded)
14.58,TAKEOFF,TO_GROUND_ROLL,35.19,80,44.81,3.63,-0.19,-0.07,0.22,90.41,0.105,1,0,0,0,0,0,0,0,0,0,90.38,0,1,0,-0.31,0,0,0.02,90,0,0,0,0,0,0,0,0,-0.024,0,0,3,0,0,0,69,0,0,0,90.38,1,-0.024,0.03,-0.0003,0.413,0,-0.0003,0,0,0,0,0,0,1,1,0,0,VALID,0,0,0,0,0,1,0,0,0,0,0,0,0,0,0,0,0,0,0,0,275.14,504.03,2,0,0.08,0.08,217,14.29,0.08,0.06,14.5,LANDED,CF1-H,0:/Integrated Flight Computer/aircraft/cf1_h_cfg.ks (inferred preloaded)
14.86,TAKEOFF,TO_GROUND_ROLL,36.53,80,43.47,3.63,-0.19,-0.07,0.22,90.41,0.105,1,0,0,0,0,0,0,0,0,0,90.38,0,1,0,-0.31,0,0,0.02,90,0,0,0,0,0,0,0,0,-0.025,0,0,3,0,0,0,69,0,0,0,90.38,1,-0.025,0.031,-0.0003,0.427,0,-0.0003,0,0,0,0,0,0,1,1,0,0,VALID,0,0,0,0,0,1,0,0,0,0,0,0,0,0,0,0,0,0,0,0,278.56,503.3,2,0,0.08,0.08,221,14.29,0.08,0.06,14.78,LANDED,CF1-H,0:/Integrated Flight Computer/aircraft/cf1_h_cfg.ks (inferred preloaded)
15.14,TAKEOFF,TO_GROUND_ROLL,37.89,80,42.11,3.63,-0.2,-0.06,0.22,90.41,0.105,1,0,0,0,0,0,0,0,0,0,90.37,0,1,0,-0.3,0,0,0.02,90,0,0,0,0,0,0,0,0,-0.027,0,0,3,0,0,0,69,0,0,0,90.37,1,-0.027,0.031,-0.0004,0.442,0,-0.0004,0,0,0,0,0,0,1,1,0,0,VALID,0,0,0,0,0,1,0,0,0,0,0,0,0,0,0,0,0,0,0,0,281.88,502.55,2,0,0.08,0.08,225,14.29,0.08,0.06,15.06,LANDED,CF1-H,0:/Integrated Flight Computer/aircraft/cf1_h_cfg.ks (inferred preloaded)
15.42,TAKEOFF,TO_GROUND_ROLL,39.27,80,40.73,3.63,-0.21,-0.06,0.22,90.4,0.105,1,0,0,0,0,0,0,0,0,0,90.37,0,1,0,-0.3,0,0,0.02,90,0,0,0,0,0,0,0,0,-0.028,0,0,3,0,0,0,69,0,0,0,90.37,1,-0.028,0.032,-0.0004,0.456,0,-0.0004,0,0,0,0,0,0,1,1,0,0,VALID,0,0,0,0,0,1,0,0,0,0,0,0,0,0,0,0,0,0,0,0,285.13,501.78,2,0,0.08,0.08,229,14.29,0.08,0.06,15.34,LANDED,CF1-H,0:/Integrated Flight Computer/aircraft/cf1_h_cfg.ks (inferred preloaded)
15.7,TAKEOFF,TO_GROUND_ROLL,40.66,80,39.34,3.63,-0.21,-0.06,0.23,90.4,0.105,1,0,0,0,0,0,0,0,0,0,90.37,0,1,0,-0.3,0,0,0.02,90,0,0,0,0,0,0,0,0,-0.03,0,0,3,0,0,0,69,0,0,0,90.37,1,-0.03,0.032,-0.0004,0.471,0,-0.0004,0,0,0,0,0,0,1,1,0,0,VALID,0,0,0,0,0,1,0,0,0,0,0,0,0,0,0,0,0,0,0,0,288.28,500.99,2,0,0.08,0.08,233,14.29,0.08,0.06,15.62,LANDED,CF1-H,0:/Integrated Flight Computer/aircraft/cf1_h_cfg.ks (inferred preloaded)
15.98,TAKEOFF,TO_GROUND_ROLL,42.07,80,37.93,3.63,-0.22,-0.06,0.23,90.4,0.105,1,0,0,0,0,0,0,0,0,0,90.37,0,1,0,-0.3,0,0,0.02,90,0,0,0,0,0,0,0,0,-0.032,0,0,3,0,0,0,69,0,0,0,90.37,1,-0.032,0.032,-0.0004,0.486,0,-0.0004,0,0,0,0,0,0,1,1,0,0,VALID,0,0,0,0,0,1,0,0,0,0,0,0,0,0,0,0,0,0,0,0,291.36,500.18,2,0,0.08,0.08,237,14.29,0.08,0.06,15.9,LANDED,CF1-H,0:/Integrated Flight Computer/aircraft/cf1_h_cfg.ks (inferred preloaded)
16.26,TAKEOFF,TO_GROUND_ROLL,43.49,80,36.51,3.63,-0.23,-0.06,0.23,90.4,0.105,1,0,0,0,0,0,0,0,0,0,90.37,0,1,0,-0.3,0,0,0.02,90,0,0,0,0,0,0,0,0,-0.033,0,0,3,0,0,0,69,0,0,0,90.37,1,-0.033,0.035,-0.0005,0.502,0,-0.0005,0,0,0,0,0,0,1,1,0,0,VALID,0,0,0,0,0,1,0,0,0,0,0,0,0,0,0,0,0,0,0,0,294.35,499.35,2,0,0.08,0.08,241,14.29,0.08,0.06,16.18,LANDED,CF1-H,0:/Integrated Flight Computer/aircraft/cf1_h_cfg.ks (inferred preloaded)
16.54,TAKEOFF,TO_GROUND_ROLL,44.92,80,35.08,3.63,-0.23,-0.06,0.23,90.4,0.104,1,0,0,0,0,0,0,0,0,0,90.36,0,1,0,-0.3,0,0,0.02,90,0,0,0,0,0,0,0,0,-0.035,0,0,3,0,0,0,69,0,0,0,90.36,1,-0.035,0.036,-0.0005,0.517,0,-0.0005,0,0,0,0,0,0,1,1,0,0,VALID,0,0,0,0,0,1,0,0,0,0,0,0,0,0,0,0,0,0,0,0,297.27,498.5,2,0,0.08,0.08,245,14.29,0.08,0.06,16.46,LANDED,CF1-H,0:/Integrated Flight Computer/aircraft/cf1_h_cfg.ks (inferred preloaded)
16.82,TAKEOFF,TO_GROUND_ROLL,46.37,80,33.63,3.63,-0.24,-0.05,0.23,90.4,0.104,1,0,0,0,0,0,0,0,0,0,90.36,0,1,0,-0.3,0,0,0.03,90,0,0,0,0,0,0,0,0,-0.037,0,0,3,0,0,0,69,0,0,0,90.36,1,-0.037,0.039,-0.0006,0.533,0,-0.0006,0,0,0,0,0,0,1,1,0,0,VALID,0,0,0,0,0,1,0,0,0,0,0,0,0,0,0,0,0,0,0,0,300.1,497.63,2,0,0.08,0.08,249,14.29,0.08,0.06,16.74,LANDED,CF1-H,0:/Integrated Flight Computer/aircraft/cf1_h_cfg.ks (inferred preloaded)
17.1,TAKEOFF,TO_GROUND_ROLL,47.83,80,32.17,3.63,-0.25,-0.05,0.23,90.4,0.104,1,0,0,0,0,0,0,0,0,0,90.36,0,1,0,-0.29,0,0,0.03,90,0,0,0,0,0,0,0,0,-0.039,0,0,3,0,0,0,69,0,0,0,90.36,1,-0.039,0.039,-0.0006,0.548,0,-0.0006,0,0,0,0,0,0,1,1,0,0,VALID,0,0,0,0,0,1,0,0,0,0,0,0,0,0,0,0,0,0,0,0,302.85,496.74,2,0,0.08,0.08,253,14.29,0.08,0.06,17.02,LANDED,CF1-H,0:/Integrated Flight Computer/aircraft/cf1_h_cfg.ks (inferred preloaded)
17.38,TAKEOFF,TO_GROUND_ROLL,49.3,80,30.7,3.63,-0.25,-0.05,0.23,90.4,0.103,1,0,0,0,0,0,0,0,0,0,90.36,0,1,0,-0.29,0,0,0.03,90,0,0,0,0,0,0,0,0,-0.041,0,0,3,0,0,0,69,0,0,0,90.36,1,-0.041,0.043,-0.0007,0.564,0,-0.0007,0,0,0,0,0,0,1,1,0,0,VALID,0,0,0,0,0,1,0,0,0,0,0,0,0,0,0,0,0,0,0,0,305.53,495.84,2,0,0.08,0.08,257,14.29,0.08,0.06,17.3,LANDED,CF1-H,0:/Integrated Flight Computer/aircraft/cf1_h_cfg.ks (inferred preloaded)
17.66,TAKEOFF,TO_GROUND_ROLL,50.79,80,29.21,3.63,-0.26,-0.05,0.23,90.4,0.103,1,0,0,0,0,0,0,0,0,0,90.35,0,1,0,-0.29,0,0,0.03,90,0,0,0,0,0,0,0,0,-0.043,0,0,3,0,0,0,69,0,0,0,90.35,1,-0.043,0.049,-0.0008,0.58,0,-0.0008,0,0,0,0,0,0,1,1,0,0,VALID,0,0,0,0,0,1,0,0,0,0,0,0,0,0,0,0,0,0,0,0,308.13,494.92,2,0,0.08,0.08,261,14.29,0.08,0.06,17.58,LANDED,CF1-H,0:/Integrated Flight Computer/aircraft/cf1_h_cfg.ks (inferred preloaded)
17.94,TAKEOFF,TO_GROUND_ROLL,52.28,80,27.72,3.64,-0.26,-0.05,0.23,90.41,0.102,1,0,0,0,0,0,0,0,0,0,90.35,0,1,0,-0.29,0,0,0.03,90,0,0,0,0,0,0,0,0,-0.045,0,0,3,0,0,0,69,0,0,0,90.35,1,-0.045,0.052,-0.0009,0.596,0,-0.0009,0,0,0,0,0,0,1,1,0,0,VALID,0,0,0,0,0,1,0,0,0,0,0,0,0,0,0,0,0,0,0,0,310.65,493.98,2,0,0.08,0.08,265,14.29,0.08,0.06,17.86,LANDED,CF1-H,0:/Integrated Flight Computer/aircraft/cf1_h_cfg.ks (inferred preloaded)
18.22,TAKEOFF,TO_GROUND_ROLL,53.79,80,26.21,3.64,-0.27,-0.05,0.23,90.41,0.1,1,0,0,0,0,0,0,0,0,0,90.35,0,1,0,-0.29,0,0,0.03,90,0,0,0,0,0,0,0,0,-0.047,0,0,3,0,0,0,69,0,0,0,90.35,1,-0.047,0.059,-0.001,0.612,0,-0.001,0,0,0,0,0,0,1,1,0,0,VALID,0,0,0,0,0,1,0,0,0,0,0,0,0,0,0,0,0,0,0,0,313.1,493.02,2,0,0.08,0.08,269,14.29,0.08,0.06,18.14,LANDED,CF1-H,0:/Integrated Flight Computer/aircraft/cf1_h_cfg.ks (inferred preloaded)
18.5,TAKEOFF,TO_GROUND_ROLL,55.31,80,24.69,3.64,-0.28,-0.05,0.23,90.41,0.098,1,0,0,0,0,0,0,0,0,0,90.35,0,1,0,-0.29,0,0,0.03,90,0,0,0,0,0,0,0,0,-0.05,0,0,3,0,0,0,69,0,0,0,90.35,1,-0.05,0.067,-0.0012,0.628,0,-0.0012,0,0,0,0,0,0,1,1,0,0,VALID,0,0,0,0,0,1,0,0,0,0,0,0,0,0,0,0,0,0,0,0,315.48,492.05,2,0,0.08,0.08,273,14.29,0.08,0.06,18.42,LANDED,CF1-H,0:/Integrated Flight Computer/aircraft/cf1_h_cfg.ks (inferred preloaded)
18.78,TAKEOFF,TO_GROUND_ROLL,56.83,80,23.17,3.64,-0.28,-0.04,0.23,90.42,0.096,1,0,0,0,0,0,0,0,0,0,90.34,0,1,0,-0.28,0,0,0.04,90,0,0,0,0,0,0,0,0,-0.052,0,0,3,0,0,0,69,0,0,0,90.34,1,-0.052,0.077,-0.0014,0.645,0,-0.0014,0,0,0,0,0,0,1,1,0,0,VALID,0,0,0,0,0,1,0,0,0,0,0,0,0,0,0,0,0,0,0,0,317.79,491.06,2,0,0.08,0.08,277,14.29,0.08,0.06,18.7,LANDED,CF1-H,0:/Integrated Flight Computer/aircraft/cf1_h_cfg.ks (inferred preloaded)
19.06,TAKEOFF,TO_GROUND_ROLL,58.37,80,21.63,3.64,-0.29,-0.03,0.23,90.43,0.093,1,0,0,0,0,0,0,0,0,0,90.34,0,1,0,-0.28,0,0,0.04,90,0,0,0,0,0,0,0,0,-0.055,0,0,3,0,0,0,69,0,0,0,90.34,1,-0.055,0.09,-0.0018,0.661,0,-0.0018,0,0,0,0,0,0,1,1,0,0,VALID,0,0,0,0,0,1,0,0,0,0,0,0,0,0,0,0,0,0,0,0,320.02,490.05,2,0,0.08,0.08,281,14.29,0.08,0.06,18.98,LANDED,CF1-H,0:/Integrated Flight Computer/aircraft/cf1_h_cfg.ks (inferred preloaded)
19.34,TAKEOFF,TO_GROUND_ROLL,59.92,80,20.08,3.64,-0.29,-0.01,0.25,90.44,0.091,1,0,0,0,0,0,0,0,0,0,90.34,0,1,0,-0.28,0,0,0.04,90,0,0,0,0,0,0,0,0,-0.057,0,0,3,0,0,0,69,0,0,0,90.34,1,-0.057,0.102,-0.0021,0.678,0,-0.0021,0,0,0,0,0,0,1,1,0,0,VALID,0,0,0,0,0,1,0,0,0,0,0,0,0,0,0,0,0,0,0,0,322.19,489.03,2,0,0.08,0.08,285,14.29,0.08,0.06,19.26,LANDED,CF1-H,0:/Integrated Flight Computer/aircraft/cf1_h_cfg.ks (inferred preloaded)
19.62,TAKEOFF,TO_GROUND_ROLL,61.47,80,18.53,3.65,-0.3,0.02,0.28,90.45,0.09,1,0,0,0,0,0,0,0,0,0,90.33,0,1,0,-0.28,0,0,0.04,90,0,0,0,0,0,0,0,0,-0.06,0,0,3,0,0,0,69,0,0,0,90.33,1,-0.06,0.116,-0.0025,0.694,0,-0.0025,0,0,0,0,0,0,1,1,0,0,VALID,0,0,0,0,0,1,0,0,0,0,0,0,0,0,0,0,0,0,0,0,324.28,488,2,0,0.08,0.08,289,14.29,0.08,0.06,19.54,LANDED,CF1-H,0:/Integrated Flight Computer/aircraft/cf1_h_cfg.ks (inferred preloaded)
19.9,TAKEOFF,TO_GROUND_ROLL,63.04,80,16.96,3.66,-0.3,0.06,0.32,90.46,0.089,1,0,0,0,0,0,0,0,0,0,90.33,0,1,0,-0.27,0,0,0.04,90,0,0,0,0,0,0,0,0,-0.063,0,0,3,0,0,0,69,0,0,0,90.33,1,-0.063,0.128,-0.0029,0.711,0,-0.0029,0,0,0,0,0,0,1,1,0,0,VALID,0,0,0,0,0,1,0,0,0,0,0,0,0,0,0,0,0,0,0,0,326.31,486.95,2,0,0.08,0.08,293,14.29,0.08,0.06,19.82,LANDED,CF1-H,0:/Integrated Flight Computer/aircraft/cf1_h_cfg.ks (inferred preloaded)
20.18,TAKEOFF,TO_GROUND_ROLL,64.61,80,15.39,3.67,-0.23,0.1,0.28,90.47,0.09,1,0,0,0,0,0,0,0,0,0,90.33,0,1,0,-0.2,0,0,0.04,90,0,0,0,0,0,0,0,0,-0.066,0,0,3,0,0,0,69,0,0,0,90.33,1,-0.066,0.141,-0.0033,0.728,0,-0.0033,0,0,0,0,0,0,1,1,0,0,VALID,0,0,0,0,0,1,0,0,0,0,0,0,0,0,0,0,0,0,0,0,328.27,485.89,2,0,0.08,0.08,297,14.29,0.08,0.06,20.1,LANDED,CF1-H,0:/Integrated Flight Computer/aircraft/cf1_h_cfg.ks (inferred preloaded)
20.46,TAKEOFF,TO_GROUND_ROLL,66.19,80,13.81,3.68,-0.31,0.18,0.44,90.48,0.092,1,0,0,0,0,0,0,0,0,0,90.32,0,1,0,-0.27,0,0,0.05,90,0,0,0,0,0,0,0,0,-0.069,0,0,3,0,0,0,69,0,0,0,90.32,1,-0.069,0.155,-0.0038,0.745,0,-0.0038,0,0,0,0,0,0,1,1,0,0,VALID,0,0,0,0,0,1,0,0,0,0,0,0,0,0,0,0,0,0,0,0,330.17,484.82,2,0,0.08,0.08,301,14.29,0.08,0.06,20.38,LANDED,CF1-H,0:/Integrated Flight Computer/aircraft/cf1_h_cfg.ks (inferred preloaded)
20.74,TAKEOFF,TO_GROUND_ROLL,67.78,80,12.22,3.7,-0.33,0.24,0.5,90.49,0.093,1,0,0,0,0,0,0,0,0,0,90.32,0,1,0,-0.28,0,0,0.05,90,0,0,0,0,0,0,0,0,-0.072,0,0,3,0,0,0,69,0,0,0,90.32,1,-0.072,0.167,-0.0042,0.762,0,-0.0042,0,0,0,0,0,0,1,1,0,0,VALID,0,0,0,0,0,1,0,0,0,0,0,0,0,0,0,0,0,0,0,0,332.01,483.73,2,0,0.08,0.08,305,14.29,0.08,0.06,20.66,LANDED,CF1-H,0:/Integrated Flight Computer/aircraft/cf1_h_cfg.ks (inferred preloaded)
21.02,TAKEOFF,TO_GROUND_ROLL,69.37,80,10.63,3.7,-0.23,0.3,0.49,90.5,0.092,1,0,0,0,0,0,0,0,0,0,90.32,0,1,0,-0.19,0,0,0.05,90,0,0,0,0,0,0,0,0,-0.076,0,0,3,0,0,0,69,0,0,0,90.32,1,-0.076,0.179,-0.0047,0.779,0,-0.0047,0,0,0,0,0,0,1,1,0,0,VALID,0,0,0,0,0,1,0,0,0,0,0,0,0,0,0,0,0,0,0,0,333.78,482.64,2,0,0.08,0.08,309,14.29,0.08,0.06,20.94,LANDED,CF1-H,0:/Integrated Flight Computer/aircraft/cf1_h_cfg.ks (inferred preloaded)
21.32,TAKEOFF,TO_ROTATE,71.09,80,8.91,3.71,-0.36,0.31,0.6,90.51,0.091,1,0,0,0,0,0,0,0,0,0,90.31,0.719,1,0,-0.3,0,0,0.05,90,0,0,0,0,0,0,0,0,-0.079,0,0,3,0,0,0,69,0,0,0,90.31,1,-0.079,0.19,-0.0052,0.796,0,-0.0052,0,0.12,0.719,0.405,0.08,0,1,1,0,0,VALID,0,0,0,0,0,1,0,0,0,0,0,0,0,0,0,0,0,0,0,0,335.61,481.45,2,0,0.08,0.08,313,13.33,0.08,0.06,21.22,LANDED,CF1-H,0:/Integrated Flight Computer/aircraft/cf1_h_cfg.ks (inferred preloaded)
21.6,TAKEOFF,TO_ROTATE,72.69,80,7.31,3.72,-0.33,0.36,0.61,90.51,0.092,1,0,0,0,0,0,0,0,0,0,90.31,1.559,1,0,-0.26,0,0,0.05,90,0,0,0,0,0,0,0,0,-0.083,0,0,3,0,0,0,69,0,0,0,90.31,1,-0.083,0.201,-0.0057,0.813,0,-0.0057,0,0.1759,1.559,1.199,0.08,0,1,1,0,0,VALID,0,0,0,0,0,1,0,0,0,0,0,0,0,0,0,0,0,0,0,0,337.26,480.33,2,0,0.08,0.08,317,14.29,0.08,0.06,21.5,LANDED,CF1-H,0:/Integrated Flight Computer/aircraft/cf1_h_cfg.ks (inferred preloaded)
21.88,TAKEOFF,TO_ROTATE,74.31,80,5.69,3.75,-0.32,0.51,0.75,90.52,0.093,1,0,0,0,0,0,0,0,0,0,90.31,2.399,1,0,-0.25,0,0,0.06,90,0,0,0,0,0,0,0,0,-0.087,0,0,3,0,0,0,69,0,0,0,90.31,1,-0.087,0.212,-0.0063,0.831,0,-0.0063,0,0.2308,2.399,1.885,0.08,0,1,1,0,0,VALID,0,0,0,0,0,1,0,0,0,0,0,0,0,0,0,0,0,0,0,0,338.85,479.21,2,0,0.08,0.08,321,14.29,0.08,0.06,21.78,LANDED,CF1-H,0:/Integrated Flight Computer/aircraft/cf1_h_cfg.ks (inferred preloaded)
22.18,TAKEOFF,TO_ROTATE,76.03,80,3.97,3.8,-0.33,0.8,1.03,90.53,0.094,1,0,0,0,0,0,0,0,0,0,90.3,3.299,1,0,-0.25,0,0,0.06,90,0,0,0,0,0,0,0,0,-0.091,0,0,3,0,0,0,69,0,0,0,90.3,1,-0.091,0.223,-0.0069,0.849,0,-0.0069,0,0.2802,3.299,2.503,0.08,0,1,1,0,0,VALID,0,0,0,0,0,1,0,0,0,0,0,0,0,0,0,0,0,0,0,0,340.5,478,2,0,0.08,0.08,325,13.33,0.08,0.06,22.08,LANDED,CF1-H,0:/Integrated Flight Computer/aircraft/cf1_h_cfg.ks (inferred preloaded)
22.46,TAKEOFF,TO_ROTATE,77.64,80,2.36,3.86,-0.33,1.11,1.34,90.53,0.095,1,0,0,0,0,0,0,0,0,0,90.3,4.139,1,0,-0.24,0,0,0.06,90,0,0,0,0,0,0,0,0,-0.095,0,0,3,0,0,0,69,0,0,0,90.3,1,-0.095,0.233,-0.0074,0.866,0,-0.0074,0,0.3224,4.139,3.03,0.08,0,1,1,0,0,VALID,0,0,0,0,0,1,0,0,0,0,0,0,0,0,0,0,0,0,0,0,341.98,476.86,2,0,0.08,0.08,329,14.29,0.08,0.06,22.36,LANDED,CF1-H,0:/Integrated Flight Computer/aircraft/cf1_h_cfg.ks (inferred preloaded)
22.74,TAKEOFF,TO_ROTATE,79.25,80,0.75,3.91,-0.31,1.39,1.61,90.54,0.095,1,0,0,0,0,0,0,0,0,0,90.3,4.979,1,0,-0.23,0,0,0.06,90,0,0,0,0,0,0,0,0,-0.099,0,0,3,0,0,0,69,0,0,0,90.3,1,-0.099,0.24,-0.0078,0.884,0,-0.0078,0,0.3671,4.979,3.589,0.08,0,1,1,0,0,VALID,0,0,0,0,0,1,0,0,0,0,0,0,0,0,0,0,0,0,0,0,343.41,475.73,2,0,0.08,0.08,333,14.29,0.08,0.06,22.64,LANDED,CF1-H,0:/Integrated Flight Computer/aircraft/cf1_h_cfg.ks (inferred preloaded)
23.02,TAKEOFF,TO_ROTATE,80.85,80,-0.85,3.97,-0.31,1.66,1.87,90.54,0.093,1,0,0,0,0,0,0,0,0,0,90.29,5.819,1,0,-0.22,0,0,0.06,90,0,0,0,0,0,0,0,0,-0.104,0,0,3,0,0,0,69,0,0,0,90.29,1,-0.104,0.246,-0.0083,0.901,0,-0.0083,0,0.4129,5.819,4.161,0.08,0,1,1,0,0,VALID,0,0,0,0,0,1,0,0,0,0,0,0,0,0,0,0,0,0,0,0,344.79,474.59,2,0,0.08,0.08,337,14.29,0.08,0.06,22.92,LANDED,CF1-H,0:/Integrated Flight Computer/aircraft/cf1_h_cfg.ks (inferred preloaded)
23.3,TAKEOFF,TO_ROTATE,82.45,80,-2.45,4.07,-0.35,1.99,2.19,90.54,0.095,1,0,0,0,0,0,0,0,0,0,90.29,6.659,1,0,-0.21,0,0,0.07,90,0,0,0,0,0,0,0,0,-0.108,0,0,3,0,0,0,69,0,0,0,90.29,1,-0.108,0.252,-0.0087,0.918,0,-0.0087,0,0.45,6.659,4.669,0.08,0,1,1,0,0,VALID,0,0,0,0,0,1,0,0,0,0,0,0,0,0,0,0,0,0,0,0,346.12,473.45,2,0,0.08,0.08,341,14.29,0.08,0.06,23.2,LANDED,CF1-H,0:/Integrated Flight Computer/aircraft/cf1_h_cfg.ks (inferred preloaded)
23.58,TAKEOFF,TO_ROTATE,84.04,80,-4.04,4.19,-0.18,2.65,2.78,90.54,0.094,1,0,0,0,0,0,0,0,0,0,90.29,7.499,1,0,-0.13,0,0,0.07,90,0,0,0,0,0,0,0,0,-0.113,0,0,3,0,0,0,69,0,0,0,90.29,1,-0.113,0.257,-0.0091,0.935,0,-0.0091,0,0.45,7.499,4.847,0.08,0,1,1,0,0,VALID,0,0,0,0,0,1,0,0,0,0,0,0,0,0,0,0,0,0,0,0,347.41,472.32,2,0,0.08,0.08,345,14.29,0.08,0.06,23.48,LANDED,CF1-H,0:/Integrated Flight Computer/aircraft/cf1_h_cfg.ks (inferred preloaded)
23.86,TAKEOFF,TO_ROTATE,85.6,80,-5.6,4.36,-0.29,3.5,3.69,90.54,0.095,1,0,0,0,0,0,0,0,0,0,90.28,8.339,1,0,-0.2,0,0,0.07,90,0,0,0,0,0,0,0,0,-0.117,0,0,3,0,0,0,69,0,0,0,90.28,1,-0.117,0.262,-0.0095,0.952,0,-0.0095,0,0.45,8.339,4.84,0.08,0,1,1,0,0,VALID,0,0,0,0,0,1,0,0,0,0,0,0,0,0,0,0,0,0,0,0,348.67,471.21,2,0,0.08,0.08,349,14.29,0.08,0.06,23.76,LANDED,CF1-H,0:/Integrated Flight Computer/aircraft/cf1_h_cfg.ks (inferred preloaded)
24.14,TAKEOFF,TO_ROTATE,87.12,80,-7.12,4.57,-0.21,4.52,4.65,90.54,0.089,1,0,0,0,0,0,0,0,0,0,90.28,9.179,1,0,-0.14,0,0,0.07,90,0,0,0,0,0,0,0,0,-0.122,0,0,3,0,0,0,69,0,0,0,90.28,1,-0.122,0.266,-0.0099,0.968,0,-0.0099,0,0.45,9.179,4.658,0.08,0,1,1,0,0,VALID,0,0,0,0,0,1,0,0,0,0,0,0,0,0,0,0,0,0,0,0,349.9,470.12,2,0,0.08,0.08,353,14.29,0.08,0.06,24.04,LANDED,CF1-H,0:/Integrated Flight Computer/aircraft/cf1_h_cfg.ks (inferred preloaded)
24.4,TAKEOFF,TO_ROTATE,88.47,80,-8.47,4.79,0.05,5.57,5.49,90.54,0.07,1,0,0,0,0,0,0,0,0,0,90.4,10,1,0,0.03,0,0,0.08,90,-0.9886,-0.0067,0.1503,10,90.4,0,0,0,0,0,0,3,0,0,0,69,0,0,0,90.4,1,0,0.14,0,0,3,0,0,0,10,4.434,0,0,1,1,0,0,VALID,0,0,0,0,0,1,0,0,0,0,0,0,0,0,0,0,0,0,0,0,351.04,469.15,2,0,0.08,0.08,357,15.38,0.08,0.06,24.3,FLYING,CF1-H,0:/Integrated Flight Computer/aircraft/cf1_h_cfg.ks (inferred preloaded)
24.68,TAKEOFF,TO_ROTATE,89.88,80,-9.88,5.09,0.72,6.08,5.65,90.55,0.062,1,0,0,0,0,0,0,0,0,0,90.4,10,0,1,0.46,0,0,10,90.4,-0.9886,-0.0067,0.1503,10,90.4,0,0,0,0,0,0,3,0,0,0,69,0,0,0,90.4,1,0,0.149,0,0,3,0,0,0,10,3.921,0,0,1,1,0,0,VALID,0,0,0,0,0,1,0,0,0,0,0,0,0,0,0,0,0,0,0,0,352.24,468.13,2,0,0.08,0.08,361,14.29,0.08,0.06,24.58,FLYING,CF1-H,0:/Integrated Flight Computer/aircraft/cf1_h_cfg.ks (inferred preloaded)
24.96,TAKEOFF,TO_ROTATE,91.25,80,-11.25,5.53,1.39,6.32,5.5,90.55,0.033,1,0,0,0,0,0,0,0,0,0,90.4,10,0,1,0.87,0,0,10,90.4,-0.9886,-0.0067,0.1502,10,90.4,0,0,0,0,0,0,3,0,0,0,69,0,0,0,90.4,1,0,0.148,0,0,3,0,0,0,10,3.683,0,0,1,1,0,0,VALID,0,0,0,0,0,1,0,0,0,0,0,0,0,0,0,0,0,0,0,0,353.42,467.13,2,0,0.08,0.08,365,14.29,0.08,0.06,24.86,FLYING,CF1-H,0:/Integrated Flight Computer/aircraft/cf1_h_cfg.ks (inferred preloaded)
25.24,TAKEOFF,TO_CLIMB,92.61,80,-12.61,6.14,2.05,6.43,5.21,90.55,0.005,0.968,0,0,0,0,0,0,0,0,0,90.4,6.502,0,1,1.27,0,0,10,90.4,-0.996,-0.0069,0.0896,6.5,90.4,0,0,0,0,0,0,3,0,0,0,69,0,0,0,90.4,1,0,0.147,0,0,3,0,0,0,10,3.626,0,0,1,1,0,0,VALID,0,0,0,0,0,1,0,0,0,0,0,0,0,0,0,0,0,0,0,0,354.55,466.12,2,0,0.08,0.08,369,14.29,0.08,0.06,25.14,FLYING,CF1-H,0:/Integrated Flight Computer/aircraft/cf1_h_cfg.ks (inferred preloaded)
25.52,TAKEOFF,TO_CLIMB,93.96,80,-13.96,6.96,2.81,6.59,4.99,90.54,-0.032,0.8604,0,0,0,0,0,0,0,0,0,90.4,6.95,0,1,1.71,0,0,6.82,90.4,-0.9952,-0.0068,0.0973,6.95,90.4,0,0,0,0,0,0,3,0,0,0,69,0,0,0,90.4,1,0,0.143,0,0,3,0,0,0,10,3.626,0,0,1,1,0,0,VALID,0,0,0,0,0,1,0,0,0,0,0,0,0,0,0,0,0,0,0,0,355.18,465.1,2,0,0.08,0.08,373,14.29,0.08,0.06,25.42,FLYING,CF1-H,0:/Integrated Flight Computer/aircraft/cf1_h_cfg.ks (inferred preloaded)
25.8,TAKEOFF,TO_CLIMB,95.32,80,-15.32,7.88,3.35,6.24,4.33,90.54,-0.062,0.8468,0,0,0,0,0,0,0,0,0,90.4,7.398,0,1,2.01,0,0,7.27,90.4,-0.9944,-0.0068,0.1051,7.4,90.4,0,0,0,0,0,0,3,0,0,0,69,0,0,0,90.4,1,0,0.14,0,0,3,0,0,0,10,3.626,0,0,1,1,0,0,VALID,0,0,0,0,0,1,0,0,0,0,0,0,0,0,0,0,0,0,0,0,355.15,464.07,2,0,0.08,0.08,377,14.29,0.08,0.06,25.7,FLYING,CF1-H,0:/Integrated Flight Computer/aircraft/cf1_h_cfg.ks (inferred preloaded)
26.08,TAKEOFF,TO_CLIMB,96.69,80,-16.69,9.03,3.84,6.47,4.29,90.54,-0.091,0.8331,0,0,0,0,0,0,0,0,0,90.4,7.846,0,1,2.27,0,0,7.72,90.4,-0.9936,-0.0068,0.1128,7.85,90.4,0,0,0,0,0,0,3,0,0,0,69,0,0,0,90.4,1,0,0.136,0,0,3,0,0,0,10,3.626,0,0,1,1,0,0,VALID,0,0,0,0,0,1,0,0,0,0,0,0,0,0,0,0,0,0,0,0,354.95,463.02,2,0,0.08,0.08,381,14.29,0.08,0.06,25.98,FLYING,CF1-H,0:/Integrated Flight Computer/aircraft/cf1_h_cfg.ks (inferred preloaded)
26.36,TAKEOFF,TO_CLIMB,98.04,80,-18.04,10.33,4.42,6.67,4.18,90.53,-0.118,0.8196,0,0,0,0,0,0,0,0,0,90.4,8,0,1,2.58,0,0,8,90.4,-0.9933,-0.0068,0.1154,8,90.4,0,0,0,0,0,0,3,0,0,0,69,0,0,0,90.4,1,0,0.132,0,0,3,0,0,0,10,3.626,0,0,1,1,0,0,VALID,0,0,0,0,0,1,0,0,0,0,0,0,0,0,0,0,0,0,0,0,354.64,461.98,2,0,0.08,0.08,385,14.29,0.08,0.06,26.26,FLYING,CF1-H,0:/Integrated Flight Computer/aircraft/cf1_h_cfg.ks (inferred preloaded)
26.64,TAKEOFF,TO_CLIMB,99.38,80,-19.38,11.78,5.07,6.86,4.05,90.53,-0.144,0.8062,0,0,0,0,0,0,0,0,0,90.4,8,0,1,2.92,0,0,8,90.4,-0.9933,-0.0068,0.1154,8,90.4,0,0,0,0,0,0,3,0,0,0,69,0,0,0,90.4,1,0,0.127,0,0,3,0,0,0,10,3.626,0,0,1,1,0,0,VALID,0,0,0,0,0,1,0,0,0,0,0,0,0,0,0,0,0,0,0,0,354.22,460.94,2,0,0.08,0.08,389,14.29,0.08,0.06,26.54,FLYING,CF1-H,0:/Integrated Flight Computer/aircraft/cf1_h_cfg.ks (inferred preloaded)
26.92,TAKEOFF,TO_CLIMB,100.7,80,-20.7,13.43,5.71,6.97,3.84,90.52,-0.166,0.793,0,0,0,0,0,0,0,0,0,90.4,8,0,1,3.25,0,0,8,90.4,-0.9933,-0.0068,0.1153,8,90.4,0,0,0,0,0,0,3,0,0,0,69,0,0,0,90.4,1,0,0.122,0,0,3,0,0,0,10,3.626,0,0,1,1,0,0,VALID,0,0,0,0,0,1,0,0,0,0,0,0,0,0,0,0,0,0,0,0,353.68,459.9,2,0,0.08,0.08,393,14.29,0.08,0.06,26.82,FLYING,CF1-H,0:/Integrated Flight Computer/aircraft/cf1_h_cfg.ks (inferred preloaded)
27.2,TAKEOFF,TO_CLIMB,102,80,-22,15.26,6.36,7.16,3.72,90.52,-0.187,0.78,0,0,0,0,0,0,0,0,0,90.4,8,0,1,3.57,0,0,8,90.4,-0.9933,-0.0068,0.1153,8,90.4,0,0,0,0,0,0,3,0,0,0,69,0,0,0,90.4,1,0,0.116,0,0,3,0,0,0,10,3.626,0,0,1,1,0,0,VALID,0,0,0,0,0,1,0,0,0,0,0,0,0,0,0,0,0,0,0,0,353.04,458.85,2,0,0.08,0.08,397,14.29,0.08,0.06,27.1,FLYING,CF1-H,0:/Integrated Flight Computer/aircraft/cf1_h_cfg.ks (inferred preloaded)
27.48,TAKEOFF,TO_CLIMB,103.29,80,-23.29,17.28,7.04,7.39,3.63,90.51,-0.208,0.78,0,0,0,0,0,0,0,0,0,90.4,8,0,1,3.9,0,0,8,90.4,-0.9933,-0.0068,0.1152,8,90.4,0,0,0,0,0,0,3,0,0,0,69,0,0,0,90.4,1,0,0.109,0,0,3,0,0,0,10,3.626,0,0,1,1,0,0,VALID,0,0,0,0,0,1,0,0,0,0,0,0,0,0,0,0,0,0,0,0,352.33,457.81,2,0,0.08,0.08,401,14.29,0.08,0.06,27.38,FLYING,CF1-H,0:/Integrated Flight Computer/aircraft/cf1_h_cfg.ks (inferred preloaded)
27.76,TAKEOFF,TO_CLIMB,104.56,80,-24.56,19.48,7.73,7.5,3.42,90.5,-0.224,0.78,0,0,0,0,0,0,0,0,0,90.4,8,0,1,4.23,0,0,8,90.4,-0.9933,-0.0068,0.1152,8,90.4,0,0,0,0,0,0,3,0,0,0,69,0,0,0,90.4,1,0,0.102,0,0,3,0,0,0,10,3.626,0,0,1,1,0,0,VALID,0,0,0,0,0,1,0,0,0,0,0,0,0,0,0,0,0,0,0,0,351.61,456.78,2,0,0.08,0.08,405,14.29,0.08,0.06,27.66,FLYING,CF1-H,0:/Integrated Flight Computer/aircraft/cf1_h_cfg.ks (inferred preloaded)
28.04,TAKEOFF,TO_CLIMB,105.82,80,-25.82,21.87,8.41,7.61,3.23,90.5,-0.235,0.78,0,0,0,0,0,0,0,0,0,90.4,8,0,1,4.54,0,0,8,90.4,-0.9933,-0.0068,0.1151,8,90.4,0,0,0,0,0,0,3,0,0,0,69,0,0,0,90.4,1,0,0.095,0,0,3,0,0,0,10,3.626,0,0,1,1,0,0,VALID,0,0,0,0,0,1,0,0,0,0,0,0,0,0,0,0,0,0,0,0,350.89,455.74,2,0,0.08,0.08,409,14.29,0.08,0.06,27.94,FLYING,CF1-H,0:/Integrated Flight Computer/aircraft/cf1_h_cfg.ks (inferred preloaded)
28.32,TAKEOFF,TO_CLIMB,107.07,80,-27.07,24.44,9.06,7.71,3.04,90.49,-0.243,0.78,0,0,0,0,0,0,0,0,0,90.4,8,0,1,4.84,0,0,8,90.4,-0.9933,-0.0068,0.1151,8,90.4,0,0,0,0,0,0,3,0,0,0,69,0,0,0,90.4,1,0,0.089,0,0,3,0,0,0,10,3.626,0,0,1,1,0,0,VALID,0,0,0,0,0,1,0,0,0,0,0,0,0,0,0,0,0,0,0,0,350.17,454.7,2,0,0.08,0.08,413,14.29,0.08,0.06,28.22,FLYING,CF1-H,0:/Integrated Flight Computer/aircraft/cf1_h_cfg.ks (inferred preloaded)
28.6,TAKEOFF,TO_CLIMB,108.3,80,-28.3,27.2,9.71,7.84,2.88,90.48,-0.249,0.78,0,0,0,0,0,0,0,0,0,90.4,8,0,1,5.12,0,0,8,90.4,-0.9933,-0.0068,0.115,8,90.4,0,0,0,0,0,0,3,0,0,0,69,0,0,0,90.4,1,0,0.082,0,0,3,0,0,0,10,3.626,0,0,1,1,0,0,VALID,0,0,0,0,0,1,0,0,0,0,0,0,0,0,0,0,0,0,0,0,349.45,453.67,2,0,0.08,0.08,417,14.29,0.08,0.06,28.5,FLYING,CF1-H,0:/Integrated Flight Computer/aircraft/cf1_h_cfg.ks (inferred preloaded)
28.88,TAKEOFF,TO_CLIMB,109.52,80,-29.52,30.13,10.37,7.9,2.66,90.48,-0.25,0.78,0,0,0,0,0,0,0,0,0,90.4,8,0,1,5.41,0,0,8,90.4,-0.9933,-0.0068,0.115,8,90.4,0,0,0,0,0,0,3,0,0,0,69,0,0,0,90.4,1,0,0.075,0,0,3,0,0,0,10,3.626,0,0,1,1,0,0,VALID,0,0,0,0,0,1,0,0,0,0,0,0,0,0,0,0,0,0,0,0,348.73,452.63,2,0,0.08,0.08,421,14.29,0.08,0.06,28.78,FLYING,CF1-H,0:/Integrated Flight Computer/aircraft/cf1_h_cfg.ks (inferred preloaded)
29.16,TAKEOFF,TO_CLIMB,110.73,80,-30.73,33.24,10.98,7.95,2.46,90.47,-0.251,0.78,0,0,0,0,0,0,0,0,0,90.4,8,0,1,5.66,0,0,8,90.4,-0.9934,-0.0068,0.1149,8,90.4,0,0,0,0,0,0,3,0,0,0,69,0,0,0,90.4,1,0,0.07,0,0,3,0,0,0,10,3.626,0,0,1,1,0,0,VALID,0,0,0,0,0,1,0,0,0,0,0,0,0,0,0,0,0,0,0,0,348,451.59,2,0,0.08,0.08,425,14.29,0.08,0.06,29.06,FLYING,CF1-H,0:/Integrated Flight Computer/aircraft/cf1_h_cfg.ks (inferred preloaded)
29.44,TAKEOFF,TO_CLIMB,111.93,80,-31.93,36.51,11.56,7.99,2.28,90.46,-0.252,0.78,0,0,0,0,0,0,0,0,0,90.4,8,0,1,5.9,0,0,8,90.4,-0.9934,-0.0068,0.1149,8,90.4,0,0,0,0,0,0,3,0,0,0,69,0,0,0,90.4,1,0,0.063,0,0,3,0,0,0,10,3.626,0,0,1,1,0,0,VALID,0,0,0,0,0,1,0,0,0,0,0,0,0,0,0,0,0,0,0,0,347.27,450.56,2,0,0.08,0.08,429,14.29,0.08,0.06,29.34,FLYING,CF1-H,0:/Integrated Flight Computer/aircraft/cf1_h_cfg.ks (inferred preloaded)
29.72,TAKEOFF,TO_CLIMB,113.12,80,-33.12,39.93,12.1,8.04,2.11,90.46,-0.251,0.78,0,0,0,0,0,0,0,0,0,90.4,8,0,1,6.11,0,0,8,90.4,-0.9934,-0.0068,0.1148,8,90.4,0,0,0,0,0,0,3,0,0,0,69,0,0,0,90.4,1,0,0.057,0,0,3,0,0,0,10,3.626,0,0,1,1,0,0,VALID,0,0,0,0,0,1,0,0,0,0,0,0,0,0,0,0,0,0,0,0,346.54,449.52,2,0,0.08,0.08,433,14.29,0.08,0.06,29.62,FLYING,CF1-H,0:/Integrated Flight Computer/aircraft/cf1_h_cfg.ks (inferred preloaded)
30,TAKEOFF,TO_CLIMB,114.31,80,-34.31,43.51,12.63,8.09,1.97,90.45,-0.247,0.78,0,0,0,0,0,0,0,0,0,90.4,8,0,1,6.31,0,0,8,90.4,-0.9934,-0.0068,0.1148,8,90.4,0,0,0,0,0,0,3,0,0,0,69,0,0,0,90.4,1,0,0.051,0,0,3,0,0,0,10,3.626,0,0,1,1,0,0,VALID,0,0,0,0,0,1,0,0,0,0,0,0,0,0,0,0,0,0,0,0,345.81,448.48,2,0,0.08,0.08,437,14.29,0.08,0.06,29.9,FLYING,CF1-H,0:/Integrated Flight Computer/aircraft/cf1_h_cfg.ks (inferred preloaded)
30.28,TAKEOFF,TO_CLIMB,115.48,80,-35.48,47.23,13.14,8.11,1.8,90.45,-0.238,0.78,0,0,0,0,0,0,0,0,0,90.4,8,0,1,6.49,0,0,8,90.4,-0.9934,-0.0068,0.1147,8,90.4,0,0,0,0,0,0,3,0,0,0,69,0,0,0,90.4,1,0,0.046,0,0,3,0,0,0,10,3.626,0,0,1,1,0,0,VALID,0,0,0,0,0,1,0,0,0,0,0,0,0,0,0,0,0,0,0,0,345.08,447.44,2,0,0.08,0.08,441,14.29,0.08,0.06,30.18,FLYING,CF1-H,0:/Integrated Flight Computer/aircraft/cf1_h_cfg.ks (inferred preloaded)
30.56,TAKEOFF,TO_CLIMB,116.65,80,-36.65,51.08,13.61,8.14,1.67,90.44,-0.227,0.78,0,0,0,0,0,0,0,0,0,90.4,8,0,1,6.66,0,0,8,90.4,-0.9934,-0.0068,0.1147,8,90.4,0,0,0,0,0,0,3,0,0,0,69,0,0,0,90.4,1,0,0.041,0,0,3,0,0,0,10,3.626,0,0,1,1,0,0,VALID,0,0,0,0,0,1,0,0,0,0,0,0,0,0,0,0,0,0,0,0,344.35,446.41,2,0,0.08,0.08,445,14.29,0.08,0.06,30.46,FLYING,CF1-H,0:/Integrated Flight Computer/aircraft/cf1_h_cfg.ks (inferred preloaded)
30.84,TAKEOFF,TO_CLIMB,117.81,80,-37.81,55.06,14.07,8.16,1.53,90.44,-0.214,0.78,0,0,0,0,0,0,0,0,0,90.4,8,0,1,6.81,0,0,8,90.4,-0.9934,-0.0068,0.1146,8,90.4,0,0,0,0,0,0,3,0,0,0,69,0,0,0,90.4,1,0,0.037,0,0,3,0,0,0,10,3.626,0,0,1,1,0,0,VALID,0,0,0,0,0,1,0,0,0,0,0,0,0,0,0,0,0,0,0,0,343.61,445.37,2,0,0.08,0.08,449,14.29,0.08,0.06,30.74,FLYING,CF1-H,0:/Integrated Flight Computer/aircraft/cf1_h_cfg.ks (inferred preloaded)
31.12,TAKEOFF,TO_CLIMB,118.96,80,-38.96,59.17,14.5,8.17,1.4,90.43,-0.201,0.78,0,0,0,0,0,0,0,0,0,90.4,8,0,1,6.95,0,0,8,90.4,-0.9934,-0.0068,0.1145,8,90.4,0,0,0,0,0,0,3,0,0,0,69,0,0,0,90.4,1,0,0.033,0,0,3,0,0,0,10,3.626,0,0,1,1,0,0,VALID,0,0,0,0,0,1,0,0,0,0,0,0,0,0,0,0,0,0,0,0,342.88,444.34,2,0,0.08,0.08,453,14.29,0.08,0.06,31.02,FLYING,CF1-H,0:/Integrated Flight Computer/aircraft/cf1_h_cfg.ks (inferred preloaded)
31.4,TAKEOFF,TO_CLIMB,120.1,80,-40.1,63.39,14.92,8.17,1.28,90.43,-0.187,0.78,0,0,0,0,0,0,0,0,0,90.4,8,0,1,7.08,0,0,8,90.4,-0.9934,-0.0068,0.1145,8,90.4,0,0,0,0,0,0,3,0,0,0,69,0,0,0,90.4,1,0,0.029,0,0,3,0,0,0,10,3.626,0,0,1,1,0,0,VALID,0,0,0,0,0,1,0,0,0,0,0,0,0,0,0,0,0,0,0,0,342.15,443.31,2,0,0.08,0.08,457,14.29,0.08,0.06,31.3,FLYING,CF1-H,0:/Integrated Flight Computer/aircraft/cf1_h_cfg.ks (inferred preloaded)
31.68,TAKEOFF,TO_CLIMB,121.24,80,-41.24,67.72,15.31,8.17,1.16,90.43,-0.173,0.78,0,0,0,0,0,0,0,0,0,90.4,8,0,1,7.2,0,0,8,90.4,-0.9934,-0.0068,0.1144,8,90.4,0,0,0,0,0,0,3,0,0,0,69,0,0,0,90.4,1,0,0.026,0,0,3,0,0,0,10,3.626,0,0,1,1,0,0,VALID,0,0,0,0,0,1,0,0,0,0,0,0,0,0,0,0,0,0,0,0,341.41,442.28,2,0,0.08,0.08,461,14.29,0.08,0.06,31.58,FLYING,CF1-H,0:/Integrated Flight Computer/aircraft/cf1_h_cfg.ks (inferred preloaded)
31.96,TAKEOFF,TO_CLIMB,122.37,80,-42.37,72.16,15.68,8.17,1.05,90.42,-0.158,0.78,0,0,0,0,0,0,0,0,0,90.4,8,0,1,7.3,0,0,8,90.4,-0.9934,-0.0068,0.1144,8,90.4,0,0,0,0,0,0,3,0,0,0,69,0,0,0,90.4,1,0,0.023,0,0,3,0,0,0,10,3.626,0,0,1,1,0,0,VALID,0,0,0,0,0,1,0,0,0,0,0,0,0,0,0,0,0,0,0,0,340.68,441.26,2,0,0.08,0.08,465,14.29,0.08,0.06,31.86,FLYING,CF1-H,0:/Integrated Flight Computer/aircraft/cf1_h_cfg.ks (inferred preloaded)
32.24,TAKEOFF,TO_CLIMB,123.49,80,-43.49,76.69,16.03,8.15,0.94,90.42,-0.144,0.78,0,0,0,0,0,0,0,0,0,90.4,8,0,1,7.4,0,0,8,90.4,-0.9934,-0.0068,0.1143,8,90.4,0,0,0,0,0,0,3,0,0,0,69,0,0,0,90.4,1,0,0.02,0,0,3,0,0,0,10,3.626,0,0,1,1,0,0,VALID,0,0,0,0,0,1,0,0,0,0,0,0,0,0,0,0,0,0,0,0,339.95,440.23,2,0,0.08,0.08,469,14.29,0.08,0.06,32.14,FLYING,CF1-H,0:/Integrated Flight Computer/aircraft/cf1_h_cfg.ks (inferred preloaded)
32.52,TAKEOFF,TO_CLIMB,124.61,80,-44.61,81.31,16.36,8.12,0.83,90.42,-0.129,0.78,0,0,0,0,0,0,0,0,0,90.4,8,0,1,7.48,0,0,8,90.4,-0.9934,-0.0068,0.1143,8,90.4,0,0,0,0,0,0,3,0,0,0,69,0,0,0,90.4,1,0,0.017,0,0,3,0,0,0,10,3.626,0,0,1,1,0,0,VALID,0,0,0,0,0,1,0,0,0,0,0,0,0,0,0,0,0,0,0,0,339.22,439.21,2,0,0.08,0.08,473,14.29,0.08,0.06,32.42,FLYING,CF1-H,0:/Integrated Flight Computer/aircraft/cf1_h_cfg.ks (inferred preloaded)
32.8,TAKEOFF,TO_CLIMB,125.72,80,-45.72,86.02,16.65,8.08,0.72,90.42,-0.113,0.78,0,0,0,0,0,0,0,0,0,90.4,8,0,1,7.54,0,0,8,90.4,-0.9934,-0.0068,0.1142,8,90.4,0,0,0,0,0,0,3,0,0,0,69,0,0,0,90.4,1,0,0.016,0,0,3,0,0,0,10,3.626,0,0,1,1,0,0,VALID,0,0,0,0,0,1,0,0,0,0,0,0,0,0,0,0,0,0,0,0,338.5,438.2,2,0,0.08,0.08,477,14.29,0.08,0.06,32.7,FLYING,CF1-H,0:/Integrated Flight Computer/aircraft/cf1_h_cfg.ks (inferred preloaded)
33.08,TAKEOFF,TO_CLIMB,126.82,80,-46.82,90.81,16.93,8.04,0.62,90.41,-0.098,0.78,0,0,0,0,0,0,0,0,0,90.4,8,0,1,7.61,0,0,8,90.4,-0.9934,-0.0068,0.1141,8,90.4,0,0,0,0,0,0,3,0,0,0,69,0,0,0,90.4,1,0,0.014,0,0,3,0,0,0,10,3.626,0,0,1,1,0,0,VALID,0,0,0,0,0,1,0,0,0,0,0,0,0,0,0,0,0,0,0,0,337.77,437.19,2,0,0.08,0.08,481,14.29,0.08,0.06,32.98,FLYING,CF1-H,0:/Integrated Flight Computer/aircraft/cf1_h_cfg.ks (inferred preloaded)
33.36,TAKEOFF,TO_CLIMB,127.93,80,-47.93,95.67,17.19,8,0.54,90.41,-0.084,0.78,0,0,0,0,0,0,0,0,0,90.4,8,0,1,7.65,0,0,8,90.4,-0.9934,-0.0068,0.1141,8,90.4,0,0,0,0,0,0,3,0,0,0,69,0,0,0,90.4,1,0,0.012,0,0,3,0,0,0,10,3.626,0,0,1,1,0,0,VALID,0,0,0,0,0,1,0,0,0,0,0,0,0,0,0,0,0,0,0,0,337.05,436.18,2,0,0.08,0.08,485,14.29,0.08,0.06,33.26,FLYING,CF1-H,0:/Integrated Flight Computer/aircraft/cf1_h_cfg.ks (inferred preloaded)
33.64,TAKEOFF,TO_CLIMB,129.02,80,-49.02,100.6,17.44,7.97,0.46,90.41,-0.073,0.78,0,0,0,0,0,0,0,0,0,90.4,8,0,1,7.7,0,0,8,90.4,-0.9935,-0.0068,0.114,8,90.4,0,0,0,0,0,0,3,0,0,0,69,0,0,0,90.4,1,0,0.011,0,0,3,0,0,0,10,3.626,0,0,1,1,0,0,VALID,0,0,0,0,0,1,0,0,0,0,0,0,0,0,0,0,0,0,0,0,336.33,435.18,2,0,0.08,0.08,489,14.29,0.08,0.06,33.54,FLYING,CF1-H,0:/Integrated Flight Computer/aircraft/cf1_h_cfg.ks (inferred preloaded)
33.92,TAKEOFF,TO_CLIMB,130.11,80,-50.11,105.6,17.67,7.93,0.38,90.41,-0.063,0.78,0,0,0,0,0,0,0,0,0,90.4,8,0,1,7.74,0,0,8,90.4,-0.9935,-0.0068,0.1139,8,90.4,0,0,0,0,0,0,3,0,0,0,69,0,0,0,90.4,1,0,0.009,0,0,3,0,0,0,10,3.626,0,0,1,1,0,0,VALID,0,0,0,0,0,1,0,0,0,0,0,0,0,0,0,0,0,0,0,0,335.61,434.18,2,0,0.08,0.08,493,14.29,0.08,0.06,33.82,FLYING,CF1-H,0:/Integrated Flight Computer/aircraft/cf1_h_cfg.ks (inferred preloaded)
34.2,TAKEOFF,TO_CLIMB,131.2,80,-51.2,110.66,17.9,7.9,0.31,90.41,-0.054,0.78,0,0,0,0,0,0,0,0,0,90.4,8,0,1,7.77,0,0,8,90.4,-0.9935,-0.0068,0.1139,8,90.4,0,0,0,0,0,0,3,0,0,0,69,0,0,0,90.4,1,0,0.008,0,0,3,0,0,0,10,3.626,0,0,1,1,0,0,VALID,0,0,0,0,0,1,0,0,0,0,0,0,0,0,0,0,0,0,0,0,334.89,433.19,2,0,0.08,0.08,497,14.29,0.08,0.06,34.1,FLYING,CF1-H,0:/Integrated Flight Computer/aircraft/cf1_h_cfg.ks (inferred preloaded)
34.48,TAKEOFF,TO_CLIMB,132.28,80,-52.28,115.78,18.12,7.87,0.25,90.41,-0.047,0.78,0,0,0,0,0,0,0,0,0,90.4,8,0,1,7.8,0,0,8,90.4,-0.9935,-0.0068,0.1138,8,90.4,0,0,0,0,0,0,3,0,0,0,69,0,0,0,90.4,1,0,0.007,0,0,3,0,0,0,10,3.626,0,0,1,1,0,0,VALID,0,0,0,0,0,1,0,0,0,0,0,0,0,0,0,0,0,0,0,0,334.18,432.2,2,0,0.08,0.08,501,14.29,0.08,0.06,34.38,FLYING,CF1-H,0:/Integrated Flight Computer/aircraft/cf1_h_cfg.ks (inferred preloaded)
34.76,TAKEOFF,TO_CLIMB,133.35,80,-53.35,120.96,18.34,7.83,0.18,90.41,-0.042,0.78,0,0,0,0,0,0,0,0,0,90.4,8,0,1,7.83,0,0,8,90.4,-0.9935,-0.0068,0.1138,8,90.4,0,0,0,0,0,0,3,0,0,0,69,0,0,0,90.4,1,0,0.007,0,0,3,0,0,0,10,3.626,0,0,1,1,0,0,VALID,0,0,0,0,0,1,0,0,0,0,0,0,0,0,0,0,0,0,0,0,333.47,431.22,2,0,0.08,0.08,505,14.29,0.08,0.06,34.66,FLYING,CF1-H,0:/Integrated Flight Computer/aircraft/cf1_h_cfg.ks (inferred preloaded)
35.04,TAKEOFF,TO_CLIMB,134.42,80,-54.42,126.18,18.54,7.8,0.12,90.41,-0.038,0.78,0,0,0,0,0,0,0,0,0,90.4,8,0,1,7.85,0,0,8,90.4,-0.9935,-0.0068,0.1137,8,90.4,0,0,0,0,0,0,3,0,0,0,69,0,0,0,90.4,1,0,0.006,0,0,3,0,0,0,10,3.626,0,0,1,1,0,0,VALID,0,0,0,0,0,1,0,0,0,0,0,0,0,0,0,0,0,0,0,0,332.77,430.25,2,0,0.08,0.08,509,14.29,0.08,0.06,34.94,FLYING,CF1-H,0:/Integrated Flight Computer/aircraft/cf1_h_cfg.ks (inferred preloaded)
35.32,TAKEOFF,TO_CLIMB,135.48,80,-55.48,131.48,18.75,7.76,0.07,90.41,-0.036,0.78,0,0,0,0,0,0,0,0,0,90.4,8,0,1,7.88,0,0,8,90.4,-0.9935,-0.0068,0.1136,8,90.4,0,0,0,0,0,0,3,0,0,0,69,0,0,0,90.4,1,0,0.006,0,0,3,0,0,0,10,3.626,0,0,1,1,0,0,VALID,0,0,0,0,0,1,0,0,0,0,0,0,0,0,0,0,0,0,0,0,332.07,429.28,2,0,0.08,0.08,513,14.29,0.08,0.06,35.22,FLYING,CF1-H,0:/Integrated Flight Computer/aircraft/cf1_h_cfg.ks (inferred preloaded)
35.6,TAKEOFF,TO_CLIMB,136.53,80,-56.53,136.82,18.95,7.73,0.01,90.41,-0.033,0.78,0,0,0,0,0,0,0,0,0,90.4,8,0,1,7.9,0,0,8,90.4,-0.9935,-0.0068,0.1136,8,90.4,0,0,0,0,0,0,3,0,0,0,69,0,0,0,90.4,1,0,0.005,0,0,3,0,0,0,10,3.626,0,0,1,1,0,0,VALID,0,0,0,0,0,1,0,0,0,0,0,0,0,0,0,0,0,0,0,0,331.37,428.32,2,0,0.08,0.08,517,14.29,0.08,0.06,35.5,FLYING,CF1-H,0:/Integrated Flight Computer/aircraft/cf1_h_cfg.ks (inferred preloaded)
35.88,TAKEOFF,TO_CLIMB,137.58,80,-57.58,142.22,19.14,7.7,-0.04,90.4,-0.03,0.78,0,0,0,0,0,0,0,0,0,90.4,8,0,1,7.92,0,0,8,90.4,-0.9935,-0.0068,0.1135,8,90.4,0,0,0,0,0,0,3,0,0,0,69,0,0,0,90.4,1,0,0.005,0,0,3,0,0,0,10,3.626,0,0,1,1,0,0,VALID,0,0,0,0,0,1,0,0,0,0,0,0,0,0,0,0,0,0,0,0,330.68,427.37,2,0,0.08,0.08,521,14.29,0.08,0.06,35.78,FLYING,CF1-H,0:/Integrated Flight Computer/aircraft/cf1_h_cfg.ks (inferred preloaded)
36.16,TAKEOFF,TO_CLIMB,138.62,80,-58.62,147.67,19.33,7.66,-0.09,90.4,-0.028,0.78,0,0,0,0,0,0,0,0,0,90.4,8,0,1,7.94,0,0,8,90.4,-0.9935,-0.0068,0.1134,8,90.4,0,0,0,0,0,0,3,0,0,0,69,0,0,0,90.4,1,0,0.005,0,0,3,0,0,0,10,3.626,0,0,1,1,0,0,VALID,0,0,0,0,0,1,0,0,0,0,0,0,0,0,0,0,0,0,0,0,330,426.42,2,0,0.08,0.08,525,14.29,0.08,0.06,36.06,FLYING,CF1-H,0:/Integrated Flight Computer/aircraft/cf1_h_cfg.ks (inferred preloaded)
36.44,TAKEOFF,TO_CLIMB,139.66,80,-59.66,153.22,19.52,7.63,-0.14,90.4,-0.025,0.78,0,0,0,0,0,0,0,0,0,90.4,8,0,1,7.96,0,0,8,90.4,-0.9935,-0.0068,0.1134,8,90.4,0,0,0,0,0,0,3,0,0,0,69,0,0,0,90.4,1,0,0.004,0,0,3,0,0,0,10,3.626,0,0,1,1,0,0,VALID,0,0,0,0,0,1,0,0,0,0,0,0,0,0,0,0,0,0,0,0,329.31,425.49,2,0,0.08,0.08,529,14.29,0.08,0.06,36.34,FLYING,CF1-H,0:/Integrated Flight Computer/aircraft/cf1_h_cfg.ks (inferred preloaded)
36.72,TAKEOFF,TO_CLIMB,140.69,80,-60.69,158.77,19.7,7.6,-0.19,90.4,-0.022,0.78,0,0,0,0,0,0,0,0,0,90.4,8,0,1,7.97,0,0,8,90.4,-0.9935,-0.0068,0.1133,8,90.4,0,0,0,0,0,0,3,0,0,0,69,0,0,0,90.4,1,0,0.004,0,0,3,0,0,0,10,3.626,0,0,1,1,0,0,VALID,0,0,0,0,0,1,0,0,0,0,0,0,0,0,0,0,0,0,0,0,328.63,424.55,2,0,0.08,0.08,533,14.29,0.08,0.06,36.62,FLYING,CF1-H,0:/Integrated Flight Computer/aircraft/cf1_h_cfg.ks (inferred preloaded)
37,TAKEOFF,TO_CLIMB,141.72,80,-61.72,164.33,19.89,7.57,-0.24,90.4,-0.02,0.78,0,0,0,0,0,0,0,0,0,90.4,8,0,1,7.99,0,0,8,90.4,-0.9935,-0.0068,0.1132,8,90.4,0,0,0,0,0,0,3,0,0,0,69,0,0,0,90.4,1,0,0.004,0,0,3,0,0,0,10,3.626,0,0,1,1,0,0,VALID,0,0,0,0,0,1,0,0,0,0,0,0,0,0,0,0,0,0,0,0,327.96,423.63,2,0,0.08,0.08,537,14.29,0.08,0.06,36.9,FLYING,CF1-H,0:/Integrated Flight Computer/aircraft/cf1_h_cfg.ks (inferred preloaded)
37.28,TAKEOFF,TO_CLIMB,142.74,80,-62.74,170.02,20.07,7.54,-0.28,90.4,-0.018,0.78,0,0,0,0,0,0,0,0,0,90.4,8,0,1,8,0,0,8,90.4,-0.9936,-0.0068,0.1132,8,90.4,0,0,0,0,0,0,3,0,0,0,69,0,0,0,90.4,1,0,0.004,0,0,3,0,0,0,10,3.626,0,0,1,1,0,0,VALID,0,0,0,0,0,1,0,0,0,0,0,0,0,0,0,0,0,0,0,0,327.29,422.71,2,0,0.08,0.08,541,14.29,0.08,0.06,37.18,FLYING,CF1-H,0:/Integrated Flight Computer/aircraft/cf1_h_cfg.ks (inferred preloaded)
37.56,TAKEOFF,TO_CLIMB,143.75,80,-63.75,175.72,20.24,7.51,-0.32,90.4,-0.016,0.78,0,0,0,0,0,0,0,0,0,90.4,8,0,1,8.02,0,0,8,90.4,-0.9936,-0.0068,0.1131,8,90.4,0,0,0,0,0,0,3,0,0,0,69,0,0,0,90.4,1,0,0.004,0,0,3,0,0,0,10,3.626,0,0,1,1,0,0,VALID,0,0,0,0,0,1,0,0,0,0,0,0,0,0,0,0,0,0,0,0,326.63,421.8,2,0,0.08,0.08,545,14.29,0.08,0.06,37.46,FLYING,CF1-H,0:/Integrated Flight Computer/aircraft/cf1_h_cfg.ks (inferred preloaded)
37.84,TAKEOFF,TO_CLIMB,144.76,80,-64.76,181.43,20.42,7.48,-0.37,90.4,-0.015,0.78,0,0,0,0,0,0,0,0,0,90.4,8,0,1,8.03,0,0,8,90.4,-0.9936,-0.0068,0.113,8,90.4,0,0,0,0,0,0,3,0,0,0,69,0,0,0,90.4,1,0,0.004,0,0,3,0,0,0,10,3.626,0,0,1,1,0,0,VALID,0,0,0,0,0,1,0,0,0,0,0,0,0,0,0,0,0,0,0,0,325.97,420.89,2,0,0.08,0.08,549,14.29,0.08,0.06,37.74,FLYING,CF1-H,0:/Integrated Flight Computer/aircraft/cf1_h_cfg.ks (inferred preloaded)
38.12,TAKEOFF,TO_CLIMB,145.76,80,-65.76,187.2,20.59,7.46,-0.4,90.4,-0.014,0.78,0,0,0,0,0,0,0,0,0,90.4,8,0,1,8.04,0,0,8,90.4,-0.9936,-0.0068,0.113,8,90.4,0,0,0,0,0,0,3,0,0,0,69,0,0,0,90.4,1,0,0.004,0,0,3,0,0,0,10,3.626,0,0,1,1,0,0,VALID,0,0,0,0,0,1,0,0,0,0,0,0,0,0,0,0,0,0,0,0,325.31,420,2,0,0.08,0.08,553,14.29,0.08,0.06,38.02,FLYING,CF1-H,0:/Integrated Flight Computer/aircraft/cf1_h_cfg.ks (inferred preloaded)
38.4,TAKEOFF,TO_CLIMB,146.76,80,-66.76,193.05,20.77,7.43,-0.44,90.4,-0.013,0.78,0,0,0,0,0,0,0,0,0,90.4,8,0,1,8.05,0,0,8,90.4,-0.9936,-0.0068,0.1129,8,90.4,0,0,0,0,0,0,3,0,0,0,69,0,0,0,90.4,1,0,0.004,0,0,3,0,0,0,10,3.626,0,0,1,1,0,0,VALID,0,0,0,0,0,1,0,0,0,0,0,0,0,0,0,0,0,0,0,0,324.66,419.11,2,0,0.08,0.08,557,14.29,0.08,0.06,38.3,FLYING,CF1-H,0:/Integrated Flight Computer/aircraft/cf1_h_cfg.ks (inferred preloaded)
38.68,TAKEOFF,TO_CLIMB,147.75,80,-67.75,198.97,20.94,7.4,-0.48,90.4,-0.012,0.78,0,0,0,0,0,0,0,0,0,90.4,8,0,1,8.07,0,0,8,90.4,-0.9936,-0.0068,0.1128,8,90.4,0,0,0,0,0,0,3,0,0,0,69,0,0,0,90.4,1,0,0.004,0,0,3,0,0,0,10,3.626,0,0,1,1,0,0,VALID,0,0,0,0,0,1,0,0,0,0,0,0,0,0,0,0,0,0,0,0,324.02,418.23,2,0,0.08,0.08,561,14.29,0.08,0.06,38.58,FLYING,CF1-H,0:/Integrated Flight Computer/aircraft/cf1_h_cfg.ks (inferred preloaded)
38.96,TAKEOFF,TO_CLIMB,148.74,80,-68.74,204.9,21.11,7.38,-0.52,90.4,-0.011,0.78,0,0,0,0,0,0,0,0,0,90.4,8,0,1,8.08,0,0,8,90.4,-0.9936,-0.0068,0.1128,8,90.4,0,0,0,0,0,0,3,0,0,0,69,0,0,0,90.4,1,0,0.004,0,0,3,0,0,0,10,3.626,0,0,1,1,0,0,VALID,0,0,0,0,0,1,0,0,0,0,0,0,0,0,0,0,0,0,0,0,323.38,417.35,2,0,0.08,0.08,565,14.29,0.08,0.06,38.86,FLYING,CF1-H,0:/Integrated Flight Computer/aircraft/cf1_h_cfg.ks (inferred preloaded)
39.24,TAKEOFF,TO_CLIMB,149.72,80,-69.72,210.83,21.28,7.35,-0.56,90.4,-0.009,0.78,0,0,0,0,0,0,0,0,0,90.4,8,0,1,8.09,0,0,8,90.4,-0.9936,-0.0068,0.1127,8,90.4,0,0,0,0,0,0,3,0,0,0,69,0,0,0,90.4,1,0,0.005,0,0,3,0,0,0,10,3.626,0,0,1,1,0,0,VALID,0,0,0,0,0,1,0,0,0,0,0,0,0,0,0,0,0,0,0,0,322.74,416.49,2,0,0.08,0.08,569,14.29,0.08,0.06,39.14,FLYING,CF1-H,0:/Integrated Flight Computer/aircraft/cf1_h_cfg.ks (inferred preloaded)
