t_s,phase,subphase,ias_ms,vapp_ms,spd_err_ms,agl_m,vs_ms,pitch_deg,aoa_deg,hdg_deg,bank_deg,thr_cmd,thr_cur,thr_intg,at_gain,at_tau_s,at_a_up,at_a_dn,at_kp_thr,at_ki_spd,at_thr_slew,aa_hdg_cmd_deg,aa_fpa_cmd_deg,aa_fbw,aa_dir,actual_fpa_deg,ftf_hdg_err_deg,ftf_fix_idx,kos_steer_pit_deg,kos_steer_hdg_deg,aa_dir_vx,aa_dir_vy,aa_dir_vz,aa_dir_pitch_deg,aa_dir_hdg_deg,ils_loc_m,ils_gs_m,ils_dist_km,loc_corr_deg,gs_corr_deg,flare_fpa_cmd,flare_tgt_vs,flare_frac,steer_hdg_deg,steer_blend,ro_loc_corr_deg,ro_hdg_err_deg,ro_yaw_tgt,ro_yaw_scale,ro_yaw_gate,yaw_cmd,roll_cmd,pitch_cmd,ro_pitch_tgt_deg,ro_pitch_err_deg,ro_pitch_ff,ro_roll_assist,flaps_cur,flaps_tgt,asc_j_ab,asc_j_rk,asc_validity,asc_q_pa,asc_q_raw_pa,asc_mach,asc_apo_m,asc_drag_n,asc_w_prop,asc_edot_aero,asc_edot_orb,asc_pitch_bias,asc_blend,asc_spooling,asc_ab_thr_ratio,asc_ab_t_now,asc_ab_t_avail,asc_ab_ign_on,asc_ab_flameouts,asc_rk_t_now,asc_rk_t_avail,asc_rk_ign_on,asc_rk_flameouts,ship_thrust,ship_avail_thrust,ship_ign_on,ship_flameouts,ifc_raw_dt_s,ifc_dt_s,ifc_loop_n,ifc_hz_est,ifc_raw_dt_max_s,ifc_raw_dt_min_s,phase_el_s,status,craft_name,cfg_file
0.12,APPROACH,FLY_TO_FIX,148.76,73.08,-75.68,1366.76,-0.35,0.37,0.49,277.22,0.003,0,0,0,1,0.6,0.9,0.75,0.35,0.0168,0.4,277.23,-0.018,1,0,-0.14,0.01,0,0,90,0,0,0,0,0,0,0,43.253,0,0,0,0,0,277.22,0,0,0,0,0,0,0,0,0,0,0,0,0,0,0,0,0,VALID,0,0,0,0,0,1,0,0,0,0,0,0,0,0,0,0,0,0,0,0,0,359.58,2,0,0.1,0.1,1,3.45,0.1,0.02,0.12,FLYING,CF1-F,0:/Integrated Flight Computer/aircraft/cf1_f_cfg.ks (inferred preloaded)
0.42,APPROACH,FLY_TO_FIX,148.61,73.32,-75.29,1366.66,-0.35,0.38,0.5,277.22,0.002,0,0,0,1,0.6,1.553,0.75,0.35,0.0168,0.4,277.23,-0.018,0,0,-0.14,0,0,-0.02,277.23,0,0,0,0,0,0,0,43.205,0,0,0,0,0,277.22,0,0,0,0,0,0,0,0,0,0,0,0,0,1,1,0,0,VALID,0,0,0,0,0,1,0,0,0,0,0,0,0,0,0,0,0,0,0,0,0,359.65,2,0,0.06,0.06,5,13.33,0.1,0.06,0.42,FLYING,CF1-F,0:/Integrated Flight Computer/aircraft/cf1_f_cfg.ks (inferred preloaded)
0.72,APPROACH,FLY_TO_FIX,148.45,73.56,-74.89,1366.56,-0.33,0.37,0.49,277.22,0.003,0,0,0,1,0.6,2.405,0.75,0.35,0.0168,0.4,277.23,-0.023,0,0,-0.13,0,0,-0.02,277.23,0,0,0,0,0,0,0,43.157,0,0,0,0,0,277.22,0,0,0,0,0,0,0,0,0,0,0,0,0,1,1,0,0,VALID,0,0,0,0,0,1,0,0,0,0,0,0,0,0,0,0,0,0,0,0,0,359.72,2,0,0.06,0.06,9,13.33,0.1,0.06,0.72,FLYING,CF1-F,0:/Integrated Flight Computer/aircraft/cf1_f_cfg.ks (inferred preloaded)
1,APPROACH,FLY_TO_FIX,148.29,73.78,-74.51,1366.46,-0.31,0.35,0.46,277.22,0.002,0,0,0,1,0.6,3.016,0.75,0.35,0.0168,0.4,277.23,-0.029,0,0,-0.12,0,0,-0.03,277.23,0,0,0,0,0,0,0,43.112,0,0,0,0,0,277.22,0,0,0,0,0,0,0,0,0,0,0,0,0,1,1,0,0,VALID,0,0,0,0,0,1,0,0,0,0,0,0,0,0,0,0,0,0,0,0,0,359.79,2,0,0.06,0.06,13,14.29,0.08,0.06,1,FLYING,CF1-F,0:/Integrated Flight Computer/aircraft/cf1_f_cfg.ks (inferred preloaded)
1.28,APPROACH,FLY_TO_FIX,148.14,74.01,-74.13,1366.37,-0.29,0.33,0.43,277.22,0.002,0,0,0,1,0.6,3.454,0.75,0.35,0.0168,0.4,277.23,-0.034,0,0,-0.11,0,0,-0.03,277.23,0,0,0,0,0,0,0,43.067,0,0,0,0,0,277.22,0,0,0,0,0,0,0,0,0,0,0,0,0,1,1,0,0,VALID,0,0,0,0,0,1,0,0,0,0,0,0,0,0,0,0,0,0,0,0,0,359.86,2,0,0.06,0.06,17,14.29,0.08,0.06,1.28,FLYING,CF1-F,0:/Integrated Flight Computer/aircraft/cf1_f_cfg.ks (inferred preloaded)
1.56,APPROACH,FLY_TO_FIX,147.97,74.23,-73.74,1366.29,-0.27,0.3,0.4,277.22,0.001,0,0,0,1,0.6,3.767,0.75,0.35,0.0168,0.4,277.23,-0.039,0,0,-0.11,0,0,-0.04,277.23,0,0,0,0,0,0,0,43.022,0,0,0,0,0,277.22,0,0,0,0,0,0,0,0,0,0,0,0,0,1,1,0,0,VALID,0,0,0,0,0,1,0,0,0,0,0,0,0,0,0,0,0,0,0,0,0,359.93,2,0,0.06,0.06,21,14.29,0.08,0.06,1.56,FLYING,CF1-F,0:/Integrated Flight Computer/aircraft/cf1_f_cfg.ks (inferred preloaded)
1.84,APPROACH,FLY_TO_FIX,147.8,74.46,-73.35,1366.21,-0.26,0.28,0.37,277.22,0.001,0,0,0,1,0.6,3.993,0.75,0.35,0.0168,0.4,277.23,-0.044,0,0,-0.1,0,0,-0.04,277.23,0,0,0,0,0,0,0,42.977,0,0,0,0,0,277.22,0,0,0,0,0,0,0,0,0,0,0,0,0,1,1,0,0,VALID,0,0,0,0,0,1,0,0,0,0,0,0,0,0,0,0,0,0,0,0,0,360.01,2,0,0.06,0.06,25,14.29,0.08,0.06,1.84,FLYING,CF1-F,0:/Integrated Flight Computer/aircraft/cf1_f_cfg.ks (inferred preloaded)
2.12,APPROACH,FLY_TO_FIX,147.63,74.68,-72.95,1366.14,-0.24,0.25,0.34,277.22,0.001,0,0,0,1,0.6,4.154,0.75,0.35,0.0168,0.4,277.23,-0.047,0,0,-0.09,0,0,-0.05,277.23,0,0,0,0,0,0,0,42.932,0,0,0,0,0,277.22,0,0,0,0,0,0,0,0,0,0,0,0,0,1,1,0,0,VALID,0,0,0,0,0,1,0,0,0,0,0,0,0,0,0,0,0,0,0,0,0,360.09,2,0,0.06,0.06,29,14.29,0.08,0.06,2.12,FLYING,CF1-F,0:/Integrated Flight Computer/aircraft/cf1_f_cfg.ks (inferred preloaded)
2.4,APPROACH,FLY_TO_FIX,147.45,74.9,-72.54,1366.07,-0.23,0.23,0.31,277.22,0,0,0,0,1,0.6,4.27,0.75,0.35,0.0168,0.4,277.23,-0.052,0,0,-0.09,0,0,-0.05,277.23,0,0,0,0,0,0,0,42.887,0,0,0,0,0,277.22,0,0,0,0,0,0,0,0,0,0,0,0,0,1,1,0,0,VALID,0,0,0,0,0,1,0,0,0,0,0,0,0,0,0,0,0,0,0,0,0,360.17,2,0,0.06,0.06,33,14.29,0.08,0.06,2.4,FLYING,CF1-F,0:/Integrated Flight Computer/aircraft/cf1_f_cfg.ks (inferred preloaded)
2.68,APPROACH,FLY_TO_FIX,147.26,75.13,-72.13,1366,-0.21,0.2,0.28,277.22,0,0,0,0,1,0.6,4.354,0.75,0.35,0.0168,0.4,277.23,-0.055,0,0,-0.08,0,0,-0.05,277.23,0,0,0,0,0,0,0,42.843,0,0,0,0,0,277.22,0,0,0,0,0,0,0,0,0,0,0,0,0,1,1,0,0,VALID,0,0,0,0,0,1,0,0,0,0,0,0,0,0,0,0,0,0,0,0,0,360.25,2,0,0.06,0.06,37,14.29,0.08,0.06,2.68,FLYING,CF1-F,0:/Integrated Flight Computer/aircraft/cf1_f_cfg.ks (inferred preloaded)
2.96,APPROACH,FLY_TO_FIX,147.06,75.35,-71.71,1365.94,-0.23,0.18,0.26,277.22,0,0,0,0,1,0.6,4.414,0.75,0.35,0.0168,0.4,277.23,-0.049,0,0,-0.09,0,0,-0.05,277.23,0,0,0,0,0,0,0,42.798,0,0,0,0,0,277.22,0,0,0,0,0,0,0,0,0,0,0,0,0,1,1,0,0,VALID,0,0,0,0,0,1,0,0,0,0,0,0,0,0,0,0,0,0,0,0,0,360.34,2,0,0.06,0.06,41,14.29,0.08,0.06,2.96,FLYING,CF1-F,0:/Integrated Flight Computer/aircraft/cf1_f_cfg.ks (inferred preloaded)
3.24,APPROACH,FLY_TO_FIX,146.86,75.58,-71.28,1365.93,-0.25,0.42,0.52,277.22,0,0,0,0,1,0.6,4.457,0.75,0.35,0.0168,0.4,277.23,-0.04,0,0,-0.1,0,0,-0.05,277.23,0,0,0,0,0,0,0,42.753,0,0,0,0,0,277.22,0,0,0,0,0,0,0,0,0,0,0,0,0,1,1,0,0,VALID,0,0,0,0,0,1,0,0,0,0,0,0,0,0,0,0,0,0,0,0,0,360.43,2,0,0.06,0.06,45,14.29,0.08,0.06,3.24,FLYING,CF1-F,0:/Integrated Flight Computer/aircraft/cf1_f_cfg.ks (inferred preloaded)
3.52,APPROACH,FLY_TO_FIX,146.61,75.8,-70.81,1365.96,0.33,0.62,0.51,277.22,0,0,0,-5.645,1,0.6,4.488,0.75,0.35,0.0168,0.4,277.23,-0.215,0,0,0.12,0,0,-0.18,277.23,0,0,0,0,0,0,0,42.709,0,0,0,0,0,277.22,0,0,0,0,0,0,0,0,0,0,0,0,0,1,1,0,0,VALID,0,0,0,0,0,1,0,0,0,0,0,0,0,0,0,0,0,0,0,0,0,360.54,2,0,0.06,0.06,49,14.29,0.08,0.06,3.52,FLYING,CF1-F,0:/Integrated Flight Computer/aircraft/cf1_f_cfg.ks (inferred preloaded)
3.8,APPROACH,FLY_TO_FIX,146.37,76.02,-70.34,1366.01,0.35,0.28,0.16,277.22,0,0,0,-5.533,1,0.6,4.5,0.75,0.35,0.0168,0.4,277.23,-0.224,0,0,0.14,0,0,-0.23,277.23,0,0,0,0,0,0,0,42.664,0,0,0,0,0,277.22,0,0,0,0,0,0,0,0,0,0,0,0,0,1,1,0,0,VALID,0,0,0,0,0,1,0,0,0,0,0,0,0,0,0,0,0,0,0,0,0,360.64,2,0,0.06,0.06,53,14.29,0.08,0.06,3.8,FLYING,CF1-F,0:/Integrated Flight Computer/aircraft/cf1_f_cfg.ks (inferred preloaded)
4.08,APPROACH,FLY_TO_FIX,146.13,76.25,-69.88,1366.1,0.31,0.25,0.14,277.22,0,0,0,-5.423,1,0.6,4.5,0.767,0.35,0.0168,0.4,277.23,-0.213,0,0,0.12,0,0,-0.21,277.23,0,0,0,0,0,0,0,42.62,0,0,0,0,0,277.22,0,0,0,0,0,0,0,0,0,0,0,0,0,1,1,0,0,VALID,0,0,0,0,0,1,0,0,0,0,0,0,0,0,0,0,0,0,0,0,0,360.74,2,0,0.06,0.06,57,14.29,0.08,0.06,4.08,FLYING,CF1-F,0:/Integrated Flight Computer/aircraft/cf1_f_cfg.ks (inferred preloaded)
4.36,APPROACH,FLY_TO_FIX,145.9,76.47,-69.43,1366.18,0.28,0.25,0.15,277.23,-0.001,0,0,-5.316,1,0.6,4.5,0.79,0.35,0.0168,0.4,277.23,-0.205,0,0,0.11,0,0,-0.21,277.23,0,0,0,0,0,0,0,42.576,0,0,0,0,0,277.22,0,0,0,0,0,0,0,0,0,0,0,0,0,1,1,0,0,VALID,0,0,0,0,0,1,0,0,0,0,0,0,0,0,0,0,0,0,0,0,0,360.83,2,0,0.06,0.06,61,14.29,0.08,0.06,4.36,FLYING,CF1-F,0:/Integrated Flight Computer/aircraft/cf1_f_cfg.ks (inferred preloaded)
4.64,APPROACH,FLY_TO_FIX,145.67,76.7,-68.97,1366.25,0.25,0.26,0.17,277.23,-0.001,0,0,-5.21,1,0.6,4.5,0.809,0.35,0.0168,0.4,277.23,-0.197,0,0,0.1,0,0,-0.2,277.23,0,0,0,0,0,0,0,42.532,0,0,0,0,0,277.22,0,0,0,0,0,0,0,0,0,0,0,0,0,1,1,0,0,VALID,0,0,0,0,0,1,0,0,0,0,0,0,0,0,0,0,0,0,0,0,0,360.93,2,0,0.06,0.06,65,14.29,0.08,0.06,4.64,FLYING,CF1-F,0:/Integrated Flight Computer/aircraft/cf1_f_cfg.ks (inferred preloaded)
4.92,APPROACH,FLY_TO_FIX,145.44,76.92,-68.52,1366.32,0.23,0.27,0.18,277.23,-0.001,0,0,-5.107,1,0.6,4.5,0.824,0.35,0.0168,0.4,277.23,-0.19,0,0,0.09,0,0,-0.19,277.23,0,0,0,0,0,0,0,42.487,0,0,0,0,0,277.22,0,0,0,0,0,0,0,0,0,0,0,0,0,1,1,0,0,VALID,0,0,0,0,0,1,0,0,0,0,0,0,0,0,0,0,0,0,0,0,0,361.03,2,0,0.06,0.06,69,14.29,0.08,0.06,4.92,FLYING,CF1-F,0:/Integrated Flight Computer/aircraft/cf1_f_cfg.ks (inferred preloaded)
5.2,APPROACH,FLY_TO_FIX,145.21,77,-68.21,1366.38,0.21,0.27,0.2,277.23,-0.001,0,0,-5.005,1,0.6,4.5,0.837,0.35,0.0168,0.4,277.23,-0.184,0,0,0.08,0,0,-0.18,277.23,0,0,0,0,0,0,0,42.443,0,0,0,0,0,277.22,0,0,0,0,0,0,0,0,0,0,0,0,0,1,1,0,0,VALID,0,0,0,0,0,1,0,0,0,0,0,0,0,0,0,0,0,0,0,0,0,361.13,2,0,0.06,0.06,73,14.29,0.08,0.06,5.2,FLYING,CF1-F,0:/Integrated Flight Computer/aircraft/cf1_f_cfg.ks (inferred preloaded)
5.48,APPROACH,FLY_TO_FIX,144.98,77,-67.98,1366.44,0.19,0.28,0.21,277.23,-0.001,0,0,-4.906,1,0.6,4.5,0.847,0.35,0.0168,0.4,277.23,-0.179,0,0,0.07,0,0,-0.18,277.23,0,0,0,0,0,0,0,42.399,0,0,0,0,0,277.22,0,0,0,0,0,0,0,0,0,0,0,0,0,1,1,0,0,VALID,0,0,0,0,0,1,0,0,0,0,0,0,0,0,0,0,0,0,0,0,0,361.23,2,0,0.06,0.06,77,14.29,0.08,0.06,5.48,FLYING,CF1-F,0:/Integrated Flight Computer/aircraft/cf1_f_cfg.ks (inferred preloaded)
5.78,APPROACH,FLY_TO_FIX,144.73,77,-67.73,1366.49,0.17,0.28,0.22,277.23,-0.002,0,0,-4.809,1,0.6,4.5,0.856,0.35,0.0168,0.4,277.23,-0.173,0,0,0.07,0,0,-0.17,277.23,0,0,0,0,0,0,0,42.352,0,0,0,0,0,277.22,0,0,0,0,0,0,0,0,0,0,0,0,0,1,1,0,0,VALID,0,0,0,0,0,1,0,0,0,0,0,0,0,0,0,0,0,0,0,0,0,361.34,2,0,0.06,0.06,81,13.33,0.08,0.06,5.78,FLYING,CF1-F,0:/Integrated Flight Computer/aircraft/cf1_f_cfg.ks (inferred preloaded)
6.1,APPROACH,FLY_TO_FIX,144.47,77,-67.47,1366.54,0.15,0.29,0.24,277.23,-0.002,0,0,-4.713,1,0.6,4.5,0.863,0.35,0.0168,0.4,277.23,-0.167,0,0,0.06,0,0,-0.17,277.23,0,0,0,0,0,0,0,42.302,0,0,0,0,0,277.22,0,0,0,0,0,0,0,0,0,0,0,0,0,1,1,0,0,VALID,0,0,0,0,0,1,0,0,0,0,0,0,0,0,0,0,0,0,0,0,0,361.45,2,0,0.08,0.08,85,12.5,0.1,0.06,6.1,FLYING,CF1-F,0:/Integrated Flight Computer/aircraft/cf1_f_cfg.ks (inferred preloaded)
6.38,APPROACH,FLY_TO_FIX,144.24,77,-67.24,1366.58,0.13,0.3,0.25,277.23,-0.003,0,0,-4.62,1,0.6,4.5,0.868,0.35,0.0168,0.4,277.23,-0.163,0,0,0.05,0,0,-0.16,277.23,0,0,0,0,0,0,0,42.258,0,0,0,0,0,277.22,0,0,0,0,0,0,0,0,0,0,0,0,0,1,1,0,0,VALID,0,0,0,0,0,1,0,0,0,0,0,0,0,0,0,0,0,0,0,0,0,361.55,2,0,0.06,0.06,89,14.29,0.08,0.06,6.38,FLYING,CF1-F,0:/Integrated Flight Computer/aircraft/cf1_f_cfg.ks (inferred preloaded)
6.68,APPROACH,FLY_TO_FIX,144,77,-67,1366.62,0.12,0.31,0.26,277.23,-0.003,0,0,-4.528,1,0.6,4.5,0.873,0.35,0.0168,0.4,277.23,-0.158,0,0,0.05,0,0,-0.16,277.23,0,0,0,0,0,0,0,42.211,0,0,0,0,0,277.22,0,0,0,0,0,0,0,0,0,0,0,0,0,1,1,0,0,VALID,0,0,0,0,0,1,0,0,0,0,0,0,0,0,0,0,0,0,0,0,0,361.66,2,0,0.06,0.06,93,13.33,0.08,0.06,6.68,FLYING,CF1-F,0:/Integrated Flight Computer/aircraft/cf1_f_cfg.ks (inferred preloaded)
7,APPROACH,FLY_TO_FIX,143.74,77,-66.74,1366.66,0.1,0.32,0.28,277.23,-0.003,0,0,-4.438,1,0.6,4.5,0.876,0.35,0.0168,0.4,277.23,-0.154,0,0,0.04,0,0,-0.15,277.23,0,0,0,0,0,0,0,42.161,0,0,0,0,0,277.22,0,0,0,0,0,0,0,0,0,0,0,0,0,1,1,0,0,VALID,0,0,0,0,0,1,0,0,0,0,0,0,0,0,0,0,0,0,0,0,0,361.78,2,0,0.08,0.08,97,12.5,0.1,0.06,7,FLYING,CF1-F,0:/Integrated Flight Computer/aircraft/cf1_f_cfg.ks (inferred preloaded)
7.28,APPROACH,FLY_TO_FIX,143.51,77,-66.51,1366.69,0.09,0.32,0.29,277.23,-0.004,0,0,-4.35,1,0.6,4.5,0.879,0.35,0.0168,0.4,277.23,-0.15,0,0,0.04,0,0,-0.15,277.23,0,0,0,0,0,0,0,42.118,0,0,0,0,0,277.22,0,0,0,0,0,0,0,0,0,0,0,0,0,1,1,0,0,VALID,0,0,0,0,0,1,0,0,0,0,0,0,0,0,0,0,0,0,0,0,0,361.88,2,0,0.06,0.06,101,14.29,0.08,0.06,7.28,FLYING,CF1-F,0:/Integrated Flight Computer/aircraft/cf1_f_cfg.ks (inferred preloaded)
7.58,APPROACH,FLY_TO_FIX,143.27,77,-66.27,1366.71,0.08,0.33,0.3,277.23,-0.004,0,0,-4.264,1,0.6,4.5,0.88,0.35,0.0168,0.4,277.23,-0.146,0,0,0.03,0,0,-0.15,277.23,0,0,0,0,0,0,0,42.071,0,0,0,0,0,277.22,0,0,0,0,0,0,0,0,0,0,0,0,0,1,1,0,0,VALID,0,0,0,0,0,1,0,0,0,0,0,0,0,0,0,0,0,0,0,0,0,361.99,2,0,0.06,0.06,105,13.33,0.08,0.06,7.58,FLYING,CF1-F,0:/Integrated Flight Computer/aircraft/cf1_f_cfg.ks (inferred preloaded)
7.9,APPROACH,FLY_TO_FIX,143.01,77,-66.01,1366.73,0.06,0.34,0.32,277.23,-0.004,0,0,-4.179,1,0.6,4.5,0.882,0.35,0.0168,0.4,277.23,-0.143,0,0,0.03,0,0,-0.14,277.23,0,0,0,0,0,0,0,42.021,0,0,0,0,0,277.22,0,0,0,0,0,0,0,0,0,0,0,0,0,1,1,0,0,VALID,0,0,0,0,0,1,0,0,0,0,0,0,0,0,0,0,0,0,0,0,0,362.11,2,0,0.08,0.08,109,12.5,0.1,0.06,7.9,FLYING,CF1-F,0:/Integrated Flight Computer/aircraft/cf1_f_cfg.ks (inferred preloaded)
8.2,APPROACH,FLY_TO_FIX,142.77,77,-65.77,1366.75,0.05,0.35,0.33,277.23,-0.004,0,0,-4.096,1,0.6,4.5,0.882,0.35,0.0168,0.4,277.23,-0.139,0,0,0.02,0,0,-0.14,277.23,0,0,0,0,0,0,0,41.975,0,0,0,0,0,277.22,0,0,0,0,0,0,0,0,0,0,0,0,0,1,1,0,0,VALID,0,0,0,0,0,1,0,0,0,0,0,0,0,0,0,0,0,0,0,0,0,362.22,2,0,0.06,0.06,113,13.33,0.1,0.06,8.2,FLYING,CF1-F,0:/Integrated Flight Computer/aircraft/cf1_f_cfg.ks (inferred preloaded)
8.5,APPROACH,FLY_TO_FIX,142.53,77,-65.53,1366.77,0.04,0.36,0.34,277.23,-0.003,0,0,-4.015,1,0.6,4.5,0.883,0.35,0.0168,0.4,277.23,-0.136,0,0,0.02,0,0,-0.14,277.23,0,0,0,0,0,0,0,41.928,0,0,0,0,0,277.22,0,0,0,0,0,0,0,0,0,0,0,0,0,1,1,0,0,VALID,0,0,0,0,0,1,0,0,0,0,0,0,0,0,0,0,0,0,0,0,0,362.33,2,0,0.06,0.06,117,13.33,0.08,0.06,8.5,FLYING,CF1-F,0:/Integrated Flight Computer/aircraft/cf1_f_cfg.ks (inferred preloaded)
8.82,APPROACH,FLY_TO_FIX,142.27,77,-65.27,1366.78,0.03,0.37,0.36,277.23,-0.003,0,0,-3.935,1,0.6,4.5,0.883,0.35,0.0168,0.4,277.23,-0.133,0,0,0.01,0,0,-0.13,277.23,0,0,0,0,0,0,0,41.879,0,0,0,0,0,277.22,0,0,0,0,0,0,0,0,0,0,0,0,0,1,1,0,0,VALID,0,0,0,0,0,1,0,0,0,0,0,0,0,0,0,0,0,0,0,0,0,362.45,2,0,0.08,0.08,121,12.5,0.1,0.06,8.82,FLYING,CF1-F,0:/Integrated Flight Computer/aircraft/cf1_f_cfg.ks (inferred preloaded)
9.12,APPROACH,FLY_TO_FIX,142.03,77,-65.03,1366.79,0.02,0.38,0.37,277.23,-0.003,0,0,-3.857,1,0.6,4.5,0.883,0.35,0.0168,0.4,277.23,-0.13,0,0,0.01,0,0,-0.13,277.23,0,0,0,0,0,0,0,41.832,0,0,0,0,0,277.22,0,0,0,0,0,0,0,0,0,0,0,0,0,1,1,0,0,VALID,0,0,0,0,0,1,0,0,0,0,0,0,0,0,0,0,0,0,0,0,0,362.56,2,0,0.06,0.06,125,13.33,0.1,0.06,9.12,FLYING,CF1-F,0:/Integrated Flight Computer/aircraft/cf1_f_cfg.ks (inferred preloaded)
9.42,APPROACH,FLY_TO_FIX,141.79,77,-64.79,1366.79,0.01,0.39,0.38,277.23,-0.003,0,0,-3.78,1,0.6,4.5,0.882,0.35,0.0168,0.4,277.23,-0.127,0,0,0,0,0,-0.13,277.23,0,0,0,0,0,0,0,41.786,0,0,0,0,0,277.22,0,0,0,0,0,0,0,0,0,0,0,0,0,1,1,0,0,VALID,0,0,0,0,0,1,0,0,0,0,0,0,0,0,0,0,0,0,0,0,0,362.67,2,0,0.06,0.06,129,13.33,0.08,0.06,9.42,FLYING,CF1-F,0:/Integrated Flight Computer/aircraft/cf1_f_cfg.ks (inferred preloaded)
9.74,APPROACH,FLY_TO_FIX,141.54,77,-64.54,1366.8,0,0.4,0.4,277.23,-0.003,0,0,-3.705,1,0.6,4.5,0.882,0.35,0.0168,0.4,277.23,-0.124,0,0,0,0,0,-0.12,277.23,0,0,0,0,0,0,0,41.737,0,0,0,0,0,277.22,0,0,0,0,0,0,0,0,0,0,0,0,0,1,1,0,0,VALID,0,0,0,0,0,1,0,0,0,0,0,0,0,0,0,0,0,0,0,0,0,362.79,2,0,0.08,0.08,133,12.5,0.1,0.06,9.74,FLYING,CF1-F,0:/Integrated Flight Computer/aircraft/cf1_f_cfg.ks (inferred preloaded)
10.02,APPROACH,FLY_TO_FIX,141.31,77,-64.31,1366.8,-0.01,0.41,0.41,277.23,-0.003,0,0,-3.632,1,0.6,4.5,0.881,0.35,0.0168,0.4,277.23,-0.122,0,0,0,0,0,-0.12,277.23,0,0,0,0,0,0,0,41.694,0,0,0,0,0,277.22,0,0,0,0,0,0,0,0,0,0,0,0,0,1,1,0,0,VALID,0,0,0,0,0,1,0,0,0,0,0,0,0,0,0,0,0,0,0,0,0,362.89,2,0,0.06,0.06,137,14.29,0.08,0.06,10.02,FLYING,CF1-F,0:/Integrated Flight Computer/aircraft/cf1_f_cfg.ks (inferred preloaded)
10.32,APPROACH,FLY_TO_FIX,141.08,77,-64.08,1366.8,-0.02,0.42,0.42,277.23,-0.003,0,0,-3.56,1,0.6,4.5,0.88,0.35,0.0168,0.4,277.23,-0.12,0,0,-0.01,0,0,-0.12,277.23,0,0,0,0,0,0,0,41.648,0,0,0,0,0,277.22,0,0,0,0,0,0,0,0,0,0,0,0,0,1,1,0,0,VALID,0,0,0,0,0,1,0,0,0,0,0,0,0,0,0,0,0,0,0,0,0,363,2,0,0.06,0.06,141,13.33,0.08,0.06,10.32,FLYING,CF1-F,0:/Integrated Flight Computer/aircraft/cf1_f_cfg.ks (inferred preloaded)
10.64,APPROACH,FLY_TO_FIX,140.82,77,-63.82,1366.79,-0.02,0.43,0.44,277.23,-0.003,0,0,-3.489,1,0.6,4.5,0.879,0.35,0.0168,0.4,277.23,-0.117,0,0,-0.01,0,0,-0.12,277.23,0,0,0,0,0,0,0,41.599,0,0,0,0,0,277.22,0,0,0,0,0,0,0,0,0,0,0,0,0,1,1,0,0,VALID,0,0,0,0,0,1,0,0,0,0,0,0,0,0,0,0,0,0,0,0,0,363.12,2,0,0.08,0.08,145,12.5,0.1,0.06,10.64,FLYING,CF1-F,0:/Integrated Flight Computer/aircraft/cf1_f_cfg.ks (inferred preloaded)
10.94,APPROACH,FLY_TO_FIX,140.58,77,-63.58,1366.79,-0.03,0.44,0.45,277.23,-0.004,0,0,-3.42,1,0.6,4.5,0.878,0.35,0.0168,0.4,277.23,-0.115,0,0,-0.01,0,0,-0.11,277.23,0,0,0,0,0,0,0,41.553,0,0,0,0,0,277.22,0,0,0,0,0,0,0,0,0,0,0,0,0,1,1,0,0,VALID,0,0,0,0,0,1,0,0,0,0,0,0,0,0,0,0,0,0,0,0,0,363.24,2,0,0.06,0.06,149,13.33,0.1,0.06,10.94,FLYING,CF1-F,0:/Integrated Flight Computer/aircraft/cf1_f_cfg.ks (inferred preloaded)
11.24,APPROACH,FLY_TO_FIX,140.35,77,-63.35,1366.78,-0.04,0.45,0.46,277.23,-0.004,0,0,-3.352,1,0.6,4.5,0.877,0.35,0.0168,0.4,277.23,-0.113,0,0,-0.02,0,0,-0.11,277.23,0,0,0,0,0,0,0,41.507,0,0,0,0,0,277.22,0,0,0,0,0,0,0,0,0,0,0,0,0,1,1,0,0,VALID,0,0,0,0,0,1,0,0,0,0,0,0,0,0,0,0,0,0,0,0,0,363.35,2,0,0.06,0.06,153,13.33,0.08,0.06,11.24,FLYING,CF1-F,0:/Integrated Flight Computer/aircraft/cf1_f_cfg.ks (inferred preloaded)
11.56,APPROACH,FLY_TO_FIX,140.09,77,-63.09,1366.77,-0.05,0.46,0.48,277.23,-0.004,0,0,-3.285,1,0.6,4.5,0.876,0.35,0.0168,0.4,277.23,-0.11,0,0,-0.02,0,0,-0.11,277.23,0,0,0,0,0,0,0,41.459,0,0,0,0,0,277.22,0,0,0,0,0,0,0,0,0,0,0,0,0,1,1,0,0,VALID,0,0,0,0,0,1,0,0,0,0,0,0,0,0,0,0,0,0,0,0,0,363.47,2,0,0.08,0.08,157,12.5,0.1,0.06,11.56,FLYING,CF1-F,0:/Integrated Flight Computer/aircraft/cf1_f_cfg.ks (inferred preloaded)
11.86,APPROACH,FLY_TO_FIX,139.86,77,-62.86,1366.75,-0.05,0.47,0.49,277.23,-0.004,0,0,-3.22,1,0.6,4.5,0.874,0.35,0.0168,0.4,277.23,-0.108,0,0,-0.02,0,0,-0.11,277.23,0,0,0,0,0,0,0,41.413,0,0,0,0,0,277.22,0,0,0,0,0,0,0,0,0,0,0,0,0,1,1,0,0,VALID,0,0,0,0,0,1,0,0,0,0,0,0,0,0,0,0,0,0,0,0,0,363.58,2,0,0.06,0.06,161,13.33,0.1,0.06,11.86,FLYING,CF1-F,0:/Integrated Flight Computer/aircraft/cf1_f_cfg.ks (inferred preloaded)
12.16,APPROACH,FLY_TO_FIX,139.62,77,-62.62,1366.74,-0.06,0.48,0.5,277.23,-0.004,0,0,-3.156,1,0.6,4.5,0.873,0.35,0.0168,0.4,277.23,-0.106,0,0,-0.02,0,0,-0.11,277.23,0,0,0,0,0,0,0,41.368,0,0,0,0,0,277.22,0,0,0,0,0,0,0,0,0,0,0,0,0,1,1,0,0,VALID,0,0,0,0,0,1,0,0,0,0,0,0,0,0,0,0,0,0,0,0,0,363.7,2,0,0.06,0.06,165,13.33,0.08,0.06,12.16,FLYING,CF1-F,0:/Integrated Flight Computer/aircraft/cf1_f_cfg.ks (inferred preloaded)
12.48,APPROACH,FLY_TO_FIX,139.37,77,-62.37,1366.72,-0.07,0.49,0.52,277.23,-0.003,0,0,-3.094,1,0.6,4.5,0.872,0.35,0.0168,0.4,277.23,-0.104,0,0,-0.03,0,0,-0.1,277.23,0,0,0,0,0,0,0,41.319,0,0,0,0,0,277.22,0,0,0,0,0,0,0,0,0,0,0,0,0,1,1,0,0,VALID,0,0,0,0,0,1,0,0,0,0,0,0,0,0,0,0,0,0,0,0,0,363.82,2,0,0.08,0.08,169,12.5,0.1,0.06,12.48,FLYING,CF1-F,0:/Integrated Flight Computer/aircraft/cf1_f_cfg.ks (inferred preloaded)
12.76,APPROACH,FLY_TO_FIX,139.15,77,-62.15,1366.7,-0.07,0.51,0.53,277.23,-0.003,0,0,-3.032,1,0.6,4.5,0.871,0.35,0.0168,0.4,277.23,-0.102,0,0,-0.03,0,0,-0.1,277.23,0,0,0,0,0,0,0,41.277,0,0,0,0,0,277.22,0,0,0,0,0,0,0,0,0,0,0,0,0,1,1,0,0,VALID,0,0,0,0,0,1,0,0,0,0,0,0,0,0,0,0,0,0,0,0,0,363.93,2,0,0.06,0.06,173,14.29,0.08,0.06,12.76,FLYING,CF1-F,0:/Integrated Flight Computer/aircraft/cf1_f_cfg.ks (inferred preloaded)
13.06,APPROACH,FLY_TO_FIX,138.92,77,-61.92,1366.68,-0.08,0.52,0.54,277.23,-0.002,0,0,-2.972,1,0.6,4.5,0.869,0.35,0.0168,0.4,277.23,-0.1,0,0,-0.03,0,0,-0.1,277.23,0,0,0,0,0,0,0,41.231,0,0,0,0,0,277.22,0,0,0,0,0,0,0,0,0,0,0,0,0,1,1,0,0,VALID,0,0,0,0,0,1,0,0,0,0,0,0,0,0,0,0,0,0,0,0,0,364.04,2,0,0.06,0.06,177,13.33,0.08,0.06,13.06,FLYING,CF1-F,0:/Integrated Flight Computer/aircraft/cf1_f_cfg.ks (inferred preloaded)
13.38,APPROACH,FLY_TO_FIX,138.67,77,-61.67,1366.66,-0.08,0.53,0.56,277.23,-0.002,0,0,-2.913,1,0.6,4.5,0.868,0.35,0.0168,0.4,277.23,-0.098,0,0,-0.03,0,0,-0.1,277.23,0,0,0,0,0,0,0,41.183,0,0,0,0,0,277.22,0,0,0,0,0,0,0,0,0,0,0,0,0,1,1,0,0,VALID,0,0,0,0,0,1,0,0,0,0,0,0,0,0,0,0,0,0,0,0,0,364.17,2,0,0.08,0.08,181,12.5,0.1,0.06,13.38,FLYING,CF1-F,0:/Integrated Flight Computer/aircraft/cf1_f_cfg.ks (inferred preloaded)
13.68,APPROACH,FLY_TO_FIX,138.43,77,-61.43,1366.63,-0.09,0.54,0.57,277.23,-0.003,0,0,-2.855,1,0.6,4.5,0.867,0.35,0.0168,0.4,277.23,-0.097,0,0,-0.04,0,0,-0.1,277.23,0,0,0,0,0,0,0,41.138,0,0,0,0,0,277.22,0,0,0,0,0,0,0,0,0,0,0,0,0,1,1,0,0,VALID,0,0,0,0,0,1,0,0,0,0,0,0,0,0,0,0,0,0,0,0,0,364.28,2,0,0.06,0.06,185,13.33,0.1,0.06,13.68,FLYING,CF1-F,0:/Integrated Flight Computer/aircraft/cf1_f_cfg.ks (inferred preloaded)
13.98,APPROACH,FLY_TO_FIX,138.2,77,-61.2,1366.61,-0.09,0.55,0.59,277.23,-0.003,0,0,-2.798,1,0.6,4.5,0.866,0.35,0.0168,0.4,277.23,-0.095,0,0,-0.04,0,0,-0.09,277.23,0,0,0,0,0,0,0,41.093,0,0,0,0,0,277.22,0,0,0,0,0,0,0,0,0,0,0,0,0,1,1,0,0,VALID,0,0,0,0,0,1,0,0,0,0,0,0,0,0,0,0,0,0,0,0,0,364.4,2,0,0.06,0.06,189,13.33,0.08,0.06,13.98,FLYING,CF1-F,0:/Integrated Flight Computer/aircraft/cf1_f_cfg.ks (inferred preloaded)
14.3,APPROACH,FLY_TO_FIX,137.95,77,-60.95,1366.58,-0.1,0.56,0.6,277.23,-0.003,0,0,-2.743,1,0.6,4.5,0.865,0.35,0.0168,0.4,277.23,-0.093,0,0,-0.04,0,0,-0.09,277.23,0,0,0,0,0,0,0,41.045,0,0,0,0,0,277.22,0,0,0,0,0,0,0,0,0,0,0,0,0,1,1,0,0,VALID,0,0,0,0,0,1,0,0,0,0,0,0,0,0,0,0,0,0,0,0,0,364.52,2,0,0.08,0.08,193,12.5,0.1,0.06,14.3,FLYING,CF1-F,0:/Integrated Flight Computer/aircraft/cf1_f_cfg.ks (inferred preloaded)
14.58,APPROACH,FLY_TO_FIX,137.73,77,-60.73,1366.55,-0.1,0.57,0.61,277.23,-0.003,0,0,-2.688,1,0.6,4.5,0.864,0.35,0.0168,0.4,277.23,-0.092,0,0,-0.04,0,0,-0.09,277.23,0,0,0,0,0,0,0,41.003,0,0,0,0,0,277.22,0,0,0,0,0,0,0,0,0,0,0,0,0,1,1,0,0,VALID,0,0,0,0,0,1,0,0,0,0,0,0,0,0,0,0,0,0,0,0,0,364.63,2,0,0.06,0.06,197,14.29,0.08,0.06,14.58,FLYING,CF1-F,0:/Integrated Flight Computer/aircraft/cf1_f_cfg.ks (inferred preloaded)
14.88,APPROACH,FLY_TO_FIX,137.49,77,-60.49,1366.52,-0.11,0.59,0.63,277.23,-0.003,0,0,-2.635,1,0.6,4.5,0.864,0.35,0.0168,0.4,277.23,-0.09,0,0,-0.05,0,0,-0.09,277.23,0,0,0,0,0,0,0,40.958,0,0,0,0,0,277.22,0,0,0,0,0,0,0,0,0,0,0,0,0,1,1,0,0,VALID,0,0,0,0,0,1,0,0,0,0,0,0,0,0,0,0,0,0,0,0,0,364.75,2,0,0.06,0.06,201,13.33,0.08,0.06,14.88,FLYING,CF1-F,0:/Integrated Flight Computer/aircraft/cf1_f_cfg.ks (inferred preloaded)
15.2,APPROACH,FLY_TO_FIX,137.25,77,-60.25,1366.49,-0.11,0.6,0.64,277.23,-0.004,0,0,-2.583,1,0.6,4.5,0.863,0.35,0.0168,0.4,277.23,-0.088,0,0,-0.05,0,0,-0.09,277.23,0,0,0,0,0,0,0,40.91,0,0,0,0,0,277.22,0,0,0,0,0,0,0,0,0,0,0,0,0,1,1,0,0,VALID,0,0,0,0,0,1,0,0,0,0,0,0,0,0,0,0,0,0,0,0,0,364.87,2,0,0.08,0.08,205,12.5,0.1,0.06,15.2,FLYING,CF1-F,0:/Integrated Flight Computer/aircraft/cf1_f_cfg.ks (inferred preloaded)
15.48,APPROACH,FLY_TO_FIX,137.03,77,-60.03,1366.46,-0.12,0.61,0.65,277.23,-0.004,0,0,-2.532,1,0.6,4.5,0.862,0.35,0.0168,0.4,277.23,-0.087,0,0,-0.05,0,0,-0.09,277.23,0,0,0,0,0,0,0,40.868,0,0,0,0,0,277.22,0,0,0,0,0,0,0,0,0,0,0,0,0,1,1,0,0,VALID,0,0,0,0,0,1,0,0,0,0,0,0,0,0,0,0,0,0,0,0,0,364.98,2,0,0.06,0.06,209,14.29,0.08,0.06,15.48,FLYING,CF1-F,0:/Integrated Flight Computer/aircraft/cf1_f_cfg.ks (inferred preloaded)
15.78,APPROACH,FLY_TO_FIX,136.79,77,-59.79,1366.42,-0.12,0.62,0.67,277.23,-0.004,0,0,-2.481,1,0.6,4.5,0.861,0.35,0.0168,0.4,277.23,-0.085,0,0,-0.05,0,0,-0.08,277.23,0,0,0,0,0,0,0,40.824,0,0,0,0,0,277.22,0,0,0,0,0,0,0,0,0,0,0,0,0,1,1,0,0,VALID,0,0,0,0,0,1,0,0,0,0,0,0,0,0,0,0,0,0,0,0,0,365.1,2,0,0.06,0.06,213,13.33,0.08,0.06,15.78,FLYING,CF1-F,0:/Integrated Flight Computer/aircraft/cf1_f_cfg.ks (inferred preloaded)
16.1,APPROACH,FLY_TO_FIX,136.54,77,-59.54,1366.38,-0.13,0.63,0.68,277.23,-0.004,0,0,-2.432,1,0.6,4.5,0.86,0.35,0.0168,0.4,277.23,-0.084,0,0,-0.05,0,0,-0.08,277.23,0,0,0,0,0,0,0,40.776,0,0,0,0,0,277.22,0,0,0,0,0,0,0,0,0,0,0,0,0,1,1,0,0,VALID,0,0,0,0,0,1,0,0,0,0,0,0,0,0,0,0,0,0,0,0,0,365.23,2,0,0.08,0.08,217,12.5,0.1,0.06,16.1,FLYING,CF1-F,0:/Integrated Flight Computer/aircraft/cf1_f_cfg.ks (inferred preloaded)
16.4,APPROACH,FLY_TO_FIX,136.31,77,-59.31,1366.35,-0.13,0.65,0.7,277.23,-0.004,0,0,-2.384,1,0.6,4.5,0.86,0.35,0.0168,0.4,277.23,-0.082,0,0,-0.06,0,0,-0.08,277.23,0,0,0,0,0,0,0,40.732,0,0,0,0,0,277.22,0,0,0,0,0,0,0,0,0,0,0,0,0,1,1,0,0,VALID,0,0,0,0,0,1,0,0,0,0,0,0,0,0,0,0,0,0,0,0,0,365.34,2,0,0.06,0.06,221,13.33,0.1,0.06,16.4,FLYING,CF1-F,0:/Integrated Flight Computer/aircraft/cf1_f_cfg.ks (inferred preloaded)
16.7,APPROACH,FLY_TO_FIX,136.08,77,-59.08,1366.31,-0.14,0.66,0.71,277.23,-0.004,0,0,-2.336,1,0.6,4.5,0.859,0.35,0.0168,0.4,277.23,-0.081,0,0,-0.06,0,0,-0.08,277.23,0,0,0,0,0,0,0,40.687,0,0,0,0,0,277.22,0,0,0,0,0,0,0,0,0,0,0,0,0,1,1,0,0,VALID,0,0,0,0,0,1,0,0,0,0,0,0,0,0,0,0,0,0,0,0,0,365.46,2,0,0.06,0.06,225,13.33,0.08,0.06,16.7,FLYING,CF1-F,0:/Integrated Flight Computer/aircraft/cf1_f_cfg.ks (inferred preloaded)
17.02,APPROACH,FLY_TO_FIX,135.83,77,-58.83,1366.27,-0.14,0.67,0.73,277.23,-0.005,0,0,-2.29,1,0.6,4.5,0.858,0.35,0.0168,0.4,277.23,-0.079,0,0,-0.06,0,0,-0.08,277.23,0,0,0,0,0,0,0,40.64,0,0,0,0,0,277.22,0,0,0,0,0,0,0,0,0,0,0,0,0,1,1,0,0,VALID,0,0,0,0,0,1,0,0,0,0,0,0,0,0,0,0,0,0,0,0,0,365.59,2,0,0.08,0.08,229,12.5,0.1,0.06,17.02,FLYING,CF1-F,0:/Integrated Flight Computer/aircraft/cf1_f_cfg.ks (inferred preloaded)
17.3,APPROACH,FLY_TO_FIX,135.61,77,-58.61,1366.23,-0.14,0.68,0.74,277.23,-0.005,0,0,-2.245,1,0.6,4.5,0.858,0.35,0.0168,0.4,277.23,-0.078,0,0,-0.06,0,0,-0.08,277.23,0,0,0,0,0,0,0,40.598,0,0,0,0,0,277.22,0,0,0,0,0,0,0,0,0,0,0,0,0,1,1,0,0,VALID,0,0,0,0,0,1,0,0,0,0,0,0,0,0,0,0,0,0,0,0,0,365.7,2,0,0.06,0.06,233,14.29,0.08,0.06,17.3,FLYING,CF1-F,0:/Integrated Flight Computer/aircraft/cf1_f_cfg.ks (inferred preloaded)
17.6,APPROACH,FLY_TO_FIX,135.38,77,-58.38,1366.19,-0.15,0.7,0.75,277.23,-0.005,0,0,-2.2,1,0.6,4.5,0.857,0.35,0.0168,0.4,277.23,-0.076,0,0,-0.06,0,0,-0.08,277.23,0,0,0,0,0,0,0,40.554,0,0,0,0,0,277.22,0,0,0,0,0,0,0,0,0,0,0,0,0,1,1,0,0,VALID,0,0,0,0,0,1,0,0,0,0,0,0,0,0,0,0,0,0,0,0,0,365.82,2,0,0.06,0.06,237,13.33,0.08,0.06,17.6,FLYING,CF1-F,0:/Integrated Flight Computer/aircraft/cf1_f_cfg.ks (inferred preloaded)
17.92,APPROACH,FLY_TO_FIX,135.13,77,-58.13,1366.14,-0.15,0.71,0.77,277.23,-0.006,0,0,-2.156,1,0.6,4.5,0.856,0.35,0.0168,0.4,277.23,-0.075,0,0,-0.06,0,0,-0.07,277.23,0,0,0,0,0,0,0,40.507,0,0,0,0,0,277.22,0,0,0,0,0,0,0,0,0,0,0,0,0,1,1,0,0,VALID,0,0,0,0,0,1,0,0,0,0,0,0,0,0,0,0,0,0,0,0,0,365.95,2,0,0.08,0.08,241,12.5,0.1,0.06,17.92,FLYING,CF1-F,0:/Integrated Flight Computer/aircraft/cf1_f_cfg.ks (inferred preloaded)
18.2,APPROACH,FLY_TO_FIX,134.92,77,-57.92,1366.1,-0.16,0.72,0.78,277.23,-0.007,0,0,-2.114,1,0.6,4.5,0.856,0.35,0.0168,0.4,277.23,-0.074,0,0,-0.07,0,0,-0.07,277.23,0,0,0,0,0,0,0,40.466,0,0,0,0,0,277.22,0,0,0,0,0,0,0,0,0,0,0,0,0,1,1,0,0,VALID,0,0,0,0,0,1,0,0,0,0,0,0,0,0,0,0,0,0,0,0,0,366.06,2,0,0.06,0.06,245,14.29,0.08,0.06,18.2,FLYING,CF1-F,0:/Integrated Flight Computer/aircraft/cf1_f_cfg.ks (inferred preloaded)
18.5,APPROACH,FLY_TO_FIX,134.68,77,-57.68,1366.05,-0.16,0.73,0.8,277.23,-0.007,0,0,-2.072,1,0.6,4.5,0.855,0.35,0.0168,0.4,277.23,-0.072,0,0,-0.07,0.01,0,-0.07,277.23,0,0,0,0,0,0,0,40.422,0,0,0,0,0,277.22,0,0,0,0,0,0,0,0,0,0,0,0,0,1,1,0,0,VALID,0,0,0,0,0,1,0,0,0,0,0,0,0,0,0,0,0,0,0,0,0,366.18,2,0,0.06,0.06,249,13.33,0.08,0.06,18.5,FLYING,CF1-F,0:/Integrated Flight Computer/aircraft/cf1_f_cfg.ks (inferred preloaded)
18.82,APPROACH,FLY_TO_FIX,134.44,77,-57.44,1366,-0.16,0.75,0.81,277.23,-0.007,0,0,-2.03,1,0.6,4.5,0.855,0.35,0.0168,0.4,277.23,-0.071,0,0,-0.07,0.01,0,-0.07,277.23,0,0,0,0,0,0,0,40.375,0,0,0,0,0,277.22,0,0,0,0,0,0,0,0,0,0,0,0,0,1,1,0,0,VALID,0,0,0,0,0,1,0,0,0,0,0,0,0,0,0,0,0,0,0,0,0,366.31,2,0,0.08,0.08,253,12.5,0.1,0.06,18.82,FLYING,CF1-F,0:/Integrated Flight Computer/aircraft/cf1_f_cfg.ks (inferred preloaded)
19.12,APPROACH,FLY_TO_FIX,134.2,77,-57.2,1365.96,-0.17,0.76,0.83,277.23,-0.007,0,0,-1.99,1,0.6,4.5,0.854,0.35,0.0168,0.4,277.23,-0.07,0,0,-0.07,0.01,0,-0.07,277.23,0,0,0,0,0,0,0,40.331,0,0,0,0,0,277.22,0,0,0,0,0,0,0,0,0,0,0,0,0,1,1,0,0,VALID,0,0,0,0,0,1,0,0,0,0,0,0,0,0,0,0,0,0,0,0,0,366.43,2,0,0.06,0.06,257,13.33,0.1,0.06,19.12,FLYING,CF1-F,0:/Integrated Flight Computer/aircraft/cf1_f_cfg.ks (inferred preloaded)
19.42,APPROACH,FLY_TO_FIX,133.97,77,-56.97,1365.91,-0.17,0.77,0.84,277.23,-0.007,0,0,-1.951,1,0.6,4.5,0.854,0.35,0.0168,0.4,277.23,-0.068,0,0,-0.07,0.01,0,-0.07,277.23,0,0,0,0,0,0,0,40.287,0,0,0,0,0,277.22,0,0,0,0,0,0,0,0,0,0,0,0,0,1,1,0,0,VALID,0,0,0,0,0,1,0,0,0,0,0,0,0,0,0,0,0,0,0,0,0,366.56,2,0,0.06,0.06,261,13.33,0.08,0.06,19.42,FLYING,CF1-F,0:/Integrated Flight Computer/aircraft/cf1_f_cfg.ks (inferred preloaded)
19.74,APPROACH,FLY_TO_FIX,133.72,77,-56.72,1365.85,-0.18,0.79,0.86,277.23,-0.007,0,0,-1.912,1,0.6,4.5,0.853,0.35,0.0168,0.4,277.23,-0.067,0,0,-0.07,0.01,0,-0.07,277.23,0,0,0,0,0,0,0,40.241,0,0,0,0,0,277.22,0,0,0,0,0,0,0,0,0,0,0,0,0,1,1,0,0,VALID,0,0,0,0,0,1,0,0,0,0,0,0,0,0,0,0,0,0,0,0,0,366.69,2,0,0.08,0.08,265,12.5,0.1,0.06,19.74,FLYING,CF1-F,0:/Integrated Flight Computer/aircraft/cf1_f_cfg.ks (inferred preloaded)
20.02,APPROACH,FLY_TO_FIX,133.51,77,-56.51,1365.81,-0.18,0.8,0.87,277.23,-0.008,0,0,-1.874,1,0.6,4.5,0.853,0.35,0.0168,0.4,277.23,-0.066,0,0,-0.08,0.01,0,-0.07,277.23,0,0,0,0,0,0,0,40.2,0,0,0,0,0,277.22,0,0,0,0,0,0,0,0,0,0,0,0,0,1,1,0,0,VALID,0,0,0,0,0,1,0,0,0,0,0,0,0,0,0,0,0,0,0,0,0,366.8,2,0,0.06,0.06,269,14.29,0.08,0.06,20.02,FLYING,CF1-F,0:/Integrated Flight Computer/aircraft/cf1_f_cfg.ks (inferred preloaded)
20.32,APPROACH,FLY_TO_FIX,133.28,77,-56.28,1365.76,-0.18,0.81,0.88,277.23,-0.008,0,0,-1.837,1,0.6,4.5,0.852,0.35,0.0168,0.4,277.23,-0.064,0,0,-0.08,0.01,0,-0.06,277.23,0,0,0,0,0,0,0,40.157,0,0,0,0,0,277.22,0,0,0,0,0,0,0,0,0,0,0,0,0,1,1,0,0,VALID,0,0,0,0,0,1,0,0,0,0,0,0,0,0,0,0,0,0,0,0,0,366.92,2,0,0.06,0.06,273,13.33,0.08,0.06,20.32,FLYING,CF1-F,0:/Integrated Flight Computer/aircraft/cf1_f_cfg.ks (inferred preloaded)
20.64,APPROACH,FLY_TO_FIX,133.03,77,-56.03,1365.7,-0.19,0.83,0.9,277.23,-0.008,0,0,-1.8,1,0.6,4.5,0.852,0.35,0.0168,0.4,277.23,-0.063,0,0,-0.08,0.01,0,-0.06,277.23,0,0,0,0,0,0,0,40.11,0,0,0,0,0,277.22,0,0,0,0,0,0,0,0,0,0,0,0,0,1,1,0,0,VALID,0,0,0,0,0,1,0,0,0,0,0,0,0,0,0,0,0,0,0,0,0,367.05,2,0,0.08,0.08,277,12.5,0.1,0.06,20.64,FLYING,CF1-F,0:/Integrated Flight Computer/aircraft/cf1_f_cfg.ks (inferred preloaded)
20.92,APPROACH,FLY_TO_FIX,132.81,77,-55.81,1365.65,-0.19,0.84,0.91,277.23,-0.009,0,0,-1.765,1,0.6,4.5,0.851,0.35,0.0168,0.4,277.23,-0.062,0,0,-0.08,0.01,0,-0.06,277.23,0,0,0,0,0,0,0,40.07,0,0,0,0,0,277.22,0,0,0,0,0,0,0,0,0,0,0,0,0,1,1,0,0,VALID,0,0,0,0,0,1,0,0,0,0,0,0,0,0,0,0,0,0,0,0,0,367.17,2,0,0.06,0.06,281,14.29,0.08,0.06,20.92,FLYING,CF1-F,0:/Integrated Flight Computer/aircraft/cf1_f_cfg.ks (inferred preloaded)
21.22,APPROACH,FLY_TO_FIX,132.58,77,-55.58,1365.59,-0.19,0.85,0.93,277.23,-0.01,0,0,-1.73,1,0.6,4.5,0.851,0.35,0.0168,0.4,277.23,-0.06,0,0,-0.08,0.01,0,-0.06,277.23,0,0,0,0,0,0,0,40.026,0,0,0,0,0,277.22,0,0,0,0,0,0,0,0,0,0,0,0,0,1,1,0,0,VALID,0,0,0,0,0,1,0,0,0,0,0,0,0,0,0,0,0,0,0,0,0,367.29,2,0,0.06,0.06,285,13.33,0.08,0.06,21.22,FLYING,CF1-F,0:/Integrated Flight Computer/aircraft/cf1_f_cfg.ks (inferred preloaded)
21.54,APPROACH,FLY_TO_FIX,132.34,77,-55.34,1365.53,-0.2,0.87,0.94,277.23,-0.01,0,0,-1.695,1,0.6,4.5,0.85,0.35,0.0168,0.4,277.23,-0.059,0,0,-0.08,0.01,0,-0.06,277.23,0,0,0,0,0,0,0,39.98,0,0,0,0,0,277.22,0,0,0,0,0,0,0,0,0,0,0,0,0,1,1,0,0,VALID,0,0,0,0,0,1,0,0,0,0,0,0,0,0,0,0,0,0,0,0,0,367.42,2,0,0.08,0.08,289,12.5,0.1,0.06,21.54,FLYING,CF1-F,0:/Integrated Flight Computer/aircraft/cf1_f_cfg.ks (inferred preloaded)
21.84,APPROACH,FLY_TO_FIX,132.1,77,-55.1,1365.48,-0.2,0.88,0.96,277.23,-0.01,0,0,-1.662,1,0.6,4.5,0.85,0.35,0.0168,0.4,277.23,-0.058,0,0,-0.09,0.01,0,-0.06,277.23,0,0,0,0,0,0,0,39.937,0,0,0,0,0,277.22,0,0,0,0,0,0,0,0,0,0,0,0,0,1,1,0,0,VALID,0,0,0,0,0,1,0,0,0,0,0,0,0,0,0,0,0,0,0,0,0,367.55,2,0,0.06,0.06,293,13.33,0.1,0.06,21.84,FLYING,CF1-F,0:/Integrated Flight Computer/aircraft/cf1_f_cfg.ks (inferred preloaded)
22.14,APPROACH,FLY_TO_FIX,131.87,77,-54.87,1365.42,-0.2,0.9,0.98,277.23,-0.01,0,0,-1.629,1,0.6,4.5,0.85,0.35,0.0168,0.4,277.23,-0.057,0,0,-0.09,0.01,0,-0.06,277.23,0,0,0,0,0,0,0,39.894,0,0,0,0,0,277.22,0,0,0,0,0,0,0,0,0,0,0,0,0,1,1,0,0,VALID,0,0,0,0,0,1,0,0,0,0,0,0,0,0,0,0,0,0,0,0,0,367.67,2,0,0.06,0.06,297,13.33,0.08,0.06,22.14,FLYING,CF1-F,0:/Integrated Flight Computer/aircraft/cf1_f_cfg.ks (inferred preloaded)
22.46,APPROACH,FLY_TO_FIX,131.63,77,-54.63,1365.36,-0.21,0.91,0.99,277.23,-0.01,0,0,-1.596,1,0.6,4.5,0.849,0.35,0.0168,0.4,277.23,-0.055,0,0,-0.09,0.01,0,-0.05,277.23,0,0,0,0,0,0,0,39.848,0,0,0,0,0,277.22,0,0,0,0,0,0,0,0,0,0,0,0,0,1,1,0,0,VALID,0,0,0,0,0,1,0,0,0,0,0,0,0,0,0,0,0,0,0,0,0,367.81,2,0,0.08,0.08,301,12.5,0.1,0.06,22.46,FLYING,CF1-F,0:/Integrated Flight Computer/aircraft/cf1_f_cfg.ks (inferred preloaded)
22.74,APPROACH,FLY_TO_FIX,131.41,77,-54.41,1365.3,-0.21,0.92,1.01,277.23,-0.01,0,0,-1.565,1,0.6,4.5,0.849,0.35,0.0168,0.4,277.23,-0.054,0,0,-0.09,0.01,0,-0.05,277.23,0,0,0,0,0,0,0,39.808,0,0,0,0,0,277.22,0,0,0,0,0,0,0,0,0,0,0,0,0,1,1,0,0,VALID,0,0,0,0,0,1,0,0,0,0,0,0,0,0,0,0,0,0,0,0,0,367.92,2,0,0.06,0.06,305,14.29,0.08,0.06,22.74,FLYING,CF1-F,0:/Integrated Flight Computer/aircraft/cf1_f_cfg.ks (inferred preloaded)
23.04,APPROACH,FLY_TO_FIX,131.18,77,-54.18,1365.24,-0.21,0.94,1.02,277.23,-0.01,0,0,-1.534,1,0.6,4.5,0.849,0.35,0.0168,0.4,277.23,-0.053,0,0,-0.09,0.01,0,-0.05,277.23,0,0,0,0,0,0,0,39.765,0,0,0,0,0,277.22,0,0,0,0,0,0,0,0,0,0,0,0,0,1,1,0,0,VALID,0,0,0,0,0,1,0,0,0,0,0,0,0,0,0,0,0,0,0,0,0,368.05,2,0,0.06,0.06,309,13.33,0.08,0.06,23.04,FLYING,CF1-F,0:/Integrated Flight Computer/aircraft/cf1_f_cfg.ks (inferred preloaded)
23.36,APPROACH,FLY_TO_FIX,130.93,77,-53.93,1365.17,-0.21,0.95,1.04,277.23,-0.01,0,0,-1.503,1,0.6,4.5,0.848,0.35,0.0168,0.4,277.23,-0.051,0,0,-0.09,0.01,0,-0.05,277.23,0,0,0,0,0,0,0,39.719,0,0,0,0,0,277.22,0,0,0,0,0,0,0,0,0,0,0,0,0,1,1,0,0,VALID,0,0,0,0,0,1,0,0,0,0,0,0,0,0,0,0,0,0,0,0,0,368.18,2,0,0.08,0.08,313,12.5,0.1,0.06,23.36,FLYING,CF1-F,0:/Integrated Flight Computer/aircraft/cf1_f_cfg.ks (inferred preloaded)
23.64,APPROACH,FLY_TO_FIX,130.72,77,-53.72,1365.12,-0.22,0.97,1.05,277.23,-0.01,0,0,-1.473,1,0.6,4.5,0.848,0.35,0.0168,0.4,277.23,-0.05,0,0,-0.1,0.01,0,-0.05,277.23,0,0,0,0,0,0,0,39.679,0,0,0,0,0,277.22,0,0,0,0,0,0,0,0,0,0,0,0,0,1,1,0,0,VALID,0,0,0,0,0,1,0,0,0,0,0,0,0,0,0,0,0,0,0,0,0,368.3,2,0,0.06,0.06,317,14.29,0.08,0.06,23.64,FLYING,CF1-F,0:/Integrated Flight Computer/aircraft/cf1_f_cfg.ks (inferred preloaded)
23.94,APPROACH,FLY_TO_FIX,130.49,77,-53.49,1365.05,-0.22,0.98,1.07,277.23,-0.01,0,0,-1.444,1,0.6,4.5,0.848,0.35,0.0168,0.4,277.23,-0.049,0,0,-0.1,0.01,0,-0.05,277.23,0,0,0,0,0,0,0,39.636,0,0,0,0,0,277.22,0,0,0,0,0,0,0,0,0,0,0,0,0,1,1,0,0,VALID,0,0,0,0,0,1,0,0,0,0,0,0,0,0,0,0,0,0,0,0,0,368.43,2,0,0.06,0.06,321,13.33,0.08,0.06,23.94,FLYING,CF1-F,0:/Integrated Flight Computer/aircraft/cf1_f_cfg.ks (inferred preloaded)
24.26,APPROACH,FLY_TO_FIX,130.24,77,-53.24,1364.98,-0.22,1,1.08,277.23,-0.009,0,0,-1.415,1,0.6,4.5,0.847,0.35,0.0168,0.4,277.23,-0.048,0,0,-0.1,0.01,0,-0.05,277.23,0,0,0,0,0,0,0,39.591,0,0,0,0,0,277.22,0,0,0,0,0,0,0,0,0,0,0,0,0,1,1,0,0,VALID,0,0,0,0,0,1,0,0,0,0,0,0,0,0,0,0,0,0,0,0,0,368.56,2,0,0.08,0.08,325,12.5,0.1,0.06,24.26,FLYING,CF1-F,0:/Integrated Flight Computer/aircraft/cf1_f_cfg.ks (inferred preloaded)
24.56,APPROACH,FLY_TO_FIX,130.01,77,-53.01,1364.92,-0.23,1.01,1.1,277.23,-0.009,0,0,-1.387,1,0.6,4.5,0.847,0.35,0.0168,0.4,277.23,-0.047,0,0,-0.1,0.01,0,-0.05,277.23,0,0,0,0,0,0,0,39.548,0,0,0,0,0,277.22,0,0,0,0,0,0,0,0,0,0,0,0,0,1,1,0,0,VALID,0,0,0,0,0,1,0,0,0,0,0,0,0,0,0,0,0,0,0,0,0,368.69,2,0,0.06,0.06,329,13.33,0.1,0.06,24.56,FLYING,CF1-F,0:/Integrated Flight Computer/aircraft/cf1_f_cfg.ks (inferred preloaded)
24.86,APPROACH,FLY_TO_FIX,129.78,77,-52.78,1364.85,-0.23,1.02,1.12,277.23,-0.01,0,0,-1.36,1,0.6,4.5,0.847,0.35,0.0168,0.4,277.23,-0.046,0,0,-0.1,0,0,-0.04,277.23,0,0,0,0,0,0,0,39.506,0,0,0,0,0,277.22,0,0,0,0,0,0,0,0,0,0,0,0,0,1,1,0,0,VALID,0,0,0,0,0,1,0,0,0,0,0,0,0,0,0,0,0,0,0,0,0,368.82,2,0,0.06,0.06,333,13.33,0.08,0.06,24.86,FLYING,CF1-F,0:/Integrated Flight Computer/aircraft/cf1_f_cfg.ks (inferred preloaded)
25.18,APPROACH,FLY_TO_FIX,129.54,77,-52.54,1364.78,-0.23,1.04,1.13,277.23,-0.01,0,0,-1.333,1,0.6,4.5,0.847,0.35,0.0168,0.4,277.23,-0.044,0,0,-0.1,0.01,0,-0.04,277.23,0,0,0,0,0,0,0,39.461,0,0,0,0,0,277.22,0,0,0,0,0,0,0,0,0,0,0,0,0,1,1,0,0,VALID,0,0,0,0,0,1,0,0,0,0,0,0,0,0,0,0,0,0,0,0,0,368.95,2,0,0.08,0.08,337,12.5,0.1,0.06,25.18,FLYING,CF1-F,0:/Integrated Flight Computer/aircraft/cf1_f_cfg.ks (inferred preloaded)
25.46,APPROACH,FLY_TO_FIX,129.32,77,-52.32,1364.72,-0.23,1.05,1.15,277.23,-0.01,0,0,-1.306,1,0.6,4.5,0.847,0.35,0.0168,0.4,277.23,-0.043,0,0,-0.1,0,0,-0.04,277.23,0,0,0,0,0,0,0,39.421,0,0,0,0,0,277.22,0,0,0,0,0,0,0,0,0,0,0,0,0,1,1,0,0,VALID,0,0,0,0,0,1,0,0,0,0,0,0,0,0,0,0,0,0,0,0,0,369.07,2,0,0.06,0.06,341,14.29,0.08,0.06,25.46,FLYING,CF1-F,0:/Integrated Flight Computer/aircraft/cf1_f_cfg.ks (inferred preloaded)
25.76,APPROACH,FLY_TO_FIX,129.09,77,-52.09,1364.65,-0.24,1.07,1.17,277.23,-0.011,0,0,-1.28,1,0.6,4.5,0.846,0.35,0.0168,0.4,277.23,-0.042,0,0,-0.11,0,0,-0.04,277.23,0,0,0,0,0,0,0,39.379,0,0,0,0,0,277.22,0,0,0,0,0,0,0,0,0,0,0,0,0,1,1,0,0,VALID,0,0,0,0,0,1,0,0,0,0,0,0,0,0,0,0,0,0,0,0,0,369.2,2,0,0.06,0.06,345,13.33,0.08,0.06,25.76,FLYING,CF1-F,0:/Integrated Flight Computer/aircraft/cf1_f_cfg.ks (inferred preloaded)
26.08,APPROACH,FLY_TO_FIX,128.84,77,-51.84,1364.58,-0.24,1.09,1.18,277.23,-0.011,0,0,-1.255,1,0.6,4.5,0.846,0.35,0.0168,0.4,277.23,-0.041,0,0,-0.11,0,0,-0.04,277.23,0,0,0,0,0,0,0,39.334,0,0,0,0,0,277.22,0,0,0,0,0,0,0,0,0,0,0,0,0,1,1,0,0,VALID,0,0,0,0,0,1,0,0,0,0,0,0,0,0,0,0,0,0,0,0,0,369.34,2,0,0.08,0.08,349,12.5,0.1,0.06,26.08,FLYING,CF1-F,0:/Integrated Flight Computer/aircraft/cf1_f_cfg.ks (inferred preloaded)
26.36,APPROACH,FLY_TO_FIX,128.63,77,-51.63,1364.51,-0.24,1.1,1.2,277.23,-0.011,0,0,-1.23,1,0.6,4.5,0.846,0.35,0.0168,0.4,277.23,-0.04,0,0,-0.11,0,0,-0.04,277.23,0,0,0,0,0,0,0,39.295,0,0,0,0,0,277.22,0,0,0,0,0,0,0,0,0,0,0,0,0,1,1,0,0,VALID,0,0,0,0,0,1,0,0,0,0,0,0,0,0,0,0,0,0,0,0,0,369.46,2,0,0.06,0.06,353,14.29,0.08,0.06,26.36,FLYING,CF1-F,0:/Integrated Flight Computer/aircraft/cf1_f_cfg.ks (inferred preloaded)
26.66,APPROACH,FLY_TO_FIX,128.4,77,-51.4,1364.44,-0.25,1.11,1.21,277.23,-0.011,0,0,-1.206,1,0.6,4.5,0.846,0.35,0.0168,0.4,277.23,-0.039,0,0,-0.11,0,0,-0.04,277.23,0,0,0,0,0,0,0,39.253,0,0,0,0,0,277.22,0,0,0,0,0,0,0,0,0,0,0,0,0,1,1,0,0,VALID,0,0,0,0,0,1,0,0,0,0,0,0,0,0,0,0,0,0,0,0,0,369.59,2,0,0.06,0.06,357,13.33,0.08,0.06,26.66,FLYING,CF1-F,0:/Integrated Flight Computer/aircraft/cf1_f_cfg.ks (inferred preloaded)
26.98,APPROACH,FLY_TO_FIX,128.15,77,-51.15,1364.36,-0.25,1.13,1.23,277.23,-0.012,0,0,-1.182,1,0.6,4.5,0.846,0.35,0.0168,0.4,277.23,-0.038,0,0,-0.11,0,0,-0.04,277.23,0,0,0,0,0,0,0,39.208,0,0,0,0,0,277.22,0,0,0,0,0,0,0,0,0,0,0,0,0,1,1,0,0,VALID,0,0,0,0,0,1,0,0,0,0,0,0,0,0,0,0,0,0,0,0,0,369.73,2,0,0.08,0.08,361,12.5,0.1,0.06,26.98,FLYING,CF1-F,0:/Integrated Flight Computer/aircraft/cf1_f_cfg.ks (inferred preloaded)
27.28,APPROACH,FLY_TO_FIX,127.92,77,-50.92,1364.29,-0.25,1.15,1.25,277.23,-0.012,0,0,-1.158,1,0.6,4.5,0.846,0.35,0.0168,0.4,277.23,-0.037,0,0,-0.11,0,0,-0.04,277.23,0,0,0,0,0,0,0,39.166,0,0,0,0,0,277.22,0,0,0,0,0,0,0,0,0,0,0,0,0,1,1,0,0,VALID,0,0,0,0,0,1,0,0,0,0,0,0,0,0,0,0,0,0,0,0,0,369.86,2,0,0.06,0.06,365,13.33,0.1,0.06,27.28,FLYING,CF1-F,0:/Integrated Flight Computer/aircraft/cf1_f_cfg.ks (inferred preloaded)
27.58,APPROACH,FLY_TO_FIX,127.69,77,-50.69,1364.22,-0.25,1.16,1.27,277.23,-0.012,0,0,-1.135,1,0.6,4.5,0.846,0.35,0.0168,0.4,277.23,-0.036,0,0,-0.11,0,0,-0.03,277.23,0,0,0,0,0,0,0,39.124,0,0,0,0,0,277.22,0,0,0,0,0,0,0,0,0,0,0,0,0,1,1,0,0,VALID,0,0,0,0,0,1,0,0,0,0,0,0,0,0,0,0,0,0,0,0,0,369.99,2,0,0.06,0.06,369,13.33,0.08,0.06,27.58,FLYING,CF1-F,0:/Integrated Flight Computer/aircraft/cf1_f_cfg.ks (inferred preloaded)
27.9,APPROACH,FLY_TO_FIX,127.45,77,-50.45,1364.14,-0.25,1.18,1.28,277.23,-0.012,0,0,-1.113,1,0.6,4.5,0.846,0.35,0.0168,0.4,277.23,-0.034,0,0,-0.11,0,0,-0.03,277.23,0,0,0,0,0,0,0,39.08,0,0,0,0,0,277.22,0,0,0,0,0,0,0,0,0,0,0,0,0,1,1,0,0,VALID,0,0,0,0,0,1,0,0,0,0,0,0,0,0,0,0,0,0,0,0,0,370.13,2,0,0.08,0.08,373,12.5,0.1,0.06,27.9,FLYING,CF1-F,0:/Integrated Flight Computer/aircraft/cf1_f_cfg.ks (inferred preloaded)
28.18,APPROACH,FLY_TO_FIX,127.23,77,-50.23,1364.07,-0.26,1.19,1.3,277.23,-0.012,0,0,-1.091,1,0.6,4.5,0.846,0.35,0.0168,0.4,277.23,-0.033,0,0,-0.12,0,0,-0.03,277.23,0,0,0,0,0,0,0,39.041,0,0,0,0,0,277.22,0,0,0,0,0,0,0,0,0,0,0,0,0,1,1,0,0,VALID,0,0,0,0,0,1,0,0,0,0,0,0,0,0,0,0,0,0,0,0,0,370.25,2,0,0.06,0.06,377,14.29,0.08,0.06,28.18,FLYING,CF1-F,0:/Integrated Flight Computer/aircraft/cf1_f_cfg.ks (inferred preloaded)
28.48,APPROACH,FLY_TO_FIX,127,77,-50,1364,-0.26,1.21,1.32,277.23,-0.012,0,0,-1.069,1,0.6,4.5,0.846,0.35,0.0168,0.4,277.23,-0.032,0,0,-0.12,0,0,-0.03,277.23,0,0,0,0,0,0,0,38.999,0,0,0,0,0,277.22,0,0,0,0,0,0,0,0,0,0,0,0,0,1,1,0,0,VALID,0,0,0,0,0,1,0,0,0,0,0,0,0,0,0,0,0,0,0,0,0,370.38,2,0,0.06,0.06,381,13.33,0.08,0.06,28.48,FLYING,CF1-F,0:/Integrated Flight Computer/aircraft/cf1_f_cfg.ks (inferred preloaded)
28.8,APPROACH,FLY_TO_FIX,126.75,77,-49.75,1363.92,-0.26,1.23,1.33,277.23,-0.011,0,0,-1.048,1,0.6,4.5,0.846,0.35,0.0168,0.4,277.23,-0.031,0,0,-0.12,0,0,-0.03,277.23,0,0,0,0,0,0,0,38.955,0,0,0,0,0,277.22,0,0,0,0,0,0,0,0,0,0,0,0,0,1,1,0,0,VALID,0,0,0,0,0,1,0,0,0,0,0,0,0,0,0,0,0,0,0,0,0,370.52,2,0,0.08,0.08,385,12.5,0.1,0.06,28.8,FLYING,CF1-F,0:/Integrated Flight Computer/aircraft/cf1_f_cfg.ks (inferred preloaded)
29.08,APPROACH,FLY_TO_FIX,126.54,77,-49.54,1363.85,-0.26,1.24,1.35,277.23,-0.011,0,0,-1.027,1,0.6,4.5,0.846,0.35,0.0168,0.4,277.23,-0.03,0,0,-0.12,0,0,-0.03,277.23,0,0,0,0,0,0,0,38.916,0,0,0,0,0,277.22,0,0,0,0,0,0,0,0,0,0,0,0,0,1,1,0,0,VALID,0,0,0,0,0,1,0,0,0,0,0,0,0,0,0,0,0,0,0,0,0,370.64,2,0,0.06,0.06,389,14.29,0.08,0.06,29.08,FLYING,CF1-F,0:/Integrated Flight Computer/aircraft/cf1_f_cfg.ks (inferred preloaded)
29.38,APPROACH,FLY_TO_FIX,126.31,77,-49.31,1363.77,-0.26,1.26,1.37,277.23,-0.011,0,0,-1.007,1,0.6,4.5,0.846,0.35,0.0168,0.4,277.23,-0.029,0,0,-0.12,0,0,-0.03,277.23,0,0,0,0,0,0,0,38.875,0,0,0,0,0,277.22,0,0,0,0,0,0,0,0,0,0,0,0,0,1,1,0,0,VALID,0,0,0,0,0,1,0,0,0,0,0,0,0,0,0,0,0,0,0,0,0,370.78,2,0,0.06,0.06,393,13.33,0.08,0.06,29.38,FLYING,CF1-F,0:/Integrated Flight Computer/aircraft/cf1_f_cfg.ks (inferred preloaded)
29.7,APPROACH,FLY_TO_FIX,126.06,77,-49.06,1363.69,-0.27,1.28,1.39,277.23,-0.012,0,0,-0.987,1,0.6,4.5,0.846,0.35,0.0168,0.4,277.23,-0.028,0,0,-0.12,0,0,-0.03,277.23,0,0,0,0,0,0,0,38.831,0,0,0,0,0,277.22,0,0,0,0,0,0,0,0,0,0,0,0,0,1,1,0,0,VALID,0,0,0,0,0,1,0,0,0,0,0,0,0,0,0,0,0,0,0,0,0,370.92,2,0,0.08,0.08,397,12.5,0.1,0.06,29.7,FLYING,CF1-F,0:/Integrated Flight Computer/aircraft/cf1_f_cfg.ks (inferred preloaded)
30,APPROACH,FLY_TO_FIX,125.83,77,-48.83,1363.61,-0.27,1.29,1.4,277.23,-0.012,0,0,-0.967,1,0.6,4.5,0.846,0.35,0.0168,0.4,277.23,-0.028,0,0,-0.12,0,0,-0.03,277.23,0,0,0,0,0,0,0,38.789,0,0,0,0,0,277.22,0,0,0,0,0,0,0,0,0,0,0,0,0,1,1,0,0,VALID,0,0,0,0,0,1,0,0,0,0,0,0,0,0,0,0,0,0,0,0,0,371.05,2,0,0.06,0.06,401,13.33,0.1,0.06,30,FLYING,CF1-F,0:/Integrated Flight Computer/aircraft/cf1_f_cfg.ks (inferred preloaded)
30.3,APPROACH,FLY_TO_FIX,125.6,77,-48.6,1363.53,-0.27,1.31,1.42,277.23,-0.012,0,0,-0.948,1,0.6,4.5,0.846,0.35,0.0168,0.4,277.23,-0.027,0,0,-0.12,0,0,-0.03,277.23,0,0,0,0,0,0,0,38.748,0,0,0,0,0,277.22,0,0,0,0,0,0,0,0,0,0,0,0,0,1,1,0,0,VALID,0,0,0,0,0,1,0,0,0,0,0,0,0,0,0,0,0,0,0,0,0,371.18,2,0,0.06,0.06,405,13.33,0.08,0.06,30.3,FLYING,CF1-F,0:/Integrated Flight Computer/aircraft/cf1_f_cfg.ks (inferred preloaded)
30.62,APPROACH,FLY_TO_FIX,125.35,77,-48.35,1363.45,-0.27,1.33,1.44,277.23,-0.013,0,0,-0.929,1,0.6,4.5,0.846,0.35,0.0168,0.4,277.23,-0.026,0,0,-0.12,0,0,-0.02,277.23,0,0,0,0,0,0,0,38.704,0,0,0,0,0,277.22,0,0,0,0,0,0,0,0,0,0,0,0,0,1,1,0,0,VALID,0,0,0,0,0,1,0,0,0,0,0,0,0,0,0,0,0,0,0,0,0,371.33,2,0,0.08,0.08,409,12.5,0.1,0.06,30.62,FLYING,CF1-F,0:/Integrated Flight Computer/aircraft/cf1_f_cfg.ks (inferred preloaded)
30.9,APPROACH,FLY_TO_FIX,125.14,77,-48.14,1363.37,-0.27,1.34,1.46,277.23,-0.013,0,0,-0.911,1,0.6,4.5,0.846,0.35,0.0168,0.4,277.23,-0.025,0,0,-0.13,0,0,-0.02,277.23,0,0,0,0,0,0,0,38.666,0,0,0,0,0,277.22,0,0,0,0,0,0,0,0,0,0,0,0,0,1,1,0,0,VALID,0,0,0,0,0,1,0,0,0,0,0,0,0,0,0,0,0,0,0,0,0,371.45,2,0,0.06,0.06,413,14.29,0.08,0.06,30.9,FLYING,CF1-F,0:/Integrated Flight Computer/aircraft/cf1_f_cfg.ks (inferred preloaded)
31.2,APPROACH,FLY_TO_FIX,124.91,77,-47.91,1363.29,-0.28,1.36,1.47,277.23,-0.013,0,0,-0.892,1,0.6,4.5,0.846,0.35,0.0168,0.4,277.23,-0.024,0,0,-0.13,0,0,-0.02,277.23,0,0,0,0,0,0,0,38.625,0,0,0,0,0,277.22,0,0,0,0,0,0,0,0,0,0,0,0,0,1,1,0,0,VALID,0,0,0,0,0,1,0,0,0,0,0,0,0,0,0,0,0,0,0,0,0,371.58,2,0,0.06,0.06,417,13.33,0.08,0.06,31.2,FLYING,CF1-F,0:/Integrated Flight Computer/aircraft/cf1_f_cfg.ks (inferred preloaded)
31.52,APPROACH,FLY_TO_FIX,124.66,77,-47.66,1363.21,-0.28,1.38,1.49,277.23,-0.013,0,0,-0.875,1,0.6,4.5,0.846,0.35,0.0168,0.4,277.23,-0.023,0,0,-0.13,0,0,-0.02,277.23,0,0,0,0,0,0,0,38.582,0,0,0,0,0,277.22,0,0,0,0,0,0,0,0,0,0,0,0,0,1,1,0,0,VALID,0,0,0,0,0,1,0,0,0,0,0,0,0,0,0,0,0,0,0,0,0,371.73,2,0,0.08,0.08,421,12.5,0.1,0.06,31.52,FLYING,CF1-F,0:/Integrated Flight Computer/aircraft/cf1_f_cfg.ks (inferred preloaded)
31.8,APPROACH,FLY_TO_FIX,124.44,77,-47.44,1363.13,-0.28,1.39,1.51,277.23,-0.013,0,0,-0.857,1,0.6,4.5,0.846,0.35,0.0168,0.4,277.23,-0.022,0,0,-0.13,0,0,-0.02,277.23,0,0,0,0,0,0,0,38.544,0,0,0,0,0,277.22,0,0,0,0,0,0,0,0,0,0,0,0,0,1,1,0,0,VALID,0,0,0,0,0,1,0,0,0,0,0,0,0,0,0,0,0,0,0,0,0,371.85,2,0,0.06,0.06,425,14.29,0.08,0.06,31.8,FLYING,CF1-F,0:/Integrated Flight Computer/aircraft/cf1_f_cfg.ks (inferred preloaded)
32.1,APPROACH,FLY_TO_FIX,124.21,77,-47.21,1363.05,-0.28,1.41,1.53,277.23,-0.013,0,0,-0.84,1,0.6,4.5,0.847,0.35,0.0168,0.4,277.23,-0.021,0,0,-0.13,0,0,-0.02,277.23,0,0,0,0,0,0,0,38.503,0,0,0,0,0,277.22,0,0,0,0,0,0,0,0,0,0,0,0,0,1,1,0,0,VALID,0,0,0,0,0,1,0,0,0,0,0,0,0,0,0,0,0,0,0,0,0,371.99,2,0,0.06,0.06,429,13.33,0.08,0.06,32.1,FLYING,CF1-F,0:/Integrated Flight Computer/aircraft/cf1_f_cfg.ks (inferred preloaded)
32.42,APPROACH,FLY_TO_FIX,123.97,77,-46.97,1362.97,-0.28,1.43,1.55,277.23,-0.013,0,0,-0.824,1,0.6,4.5,0.847,0.35,0.0168,0.4,277.23,-0.02,0,0,-0.13,0,0,-0.02,277.23,0,0,0,0,0,0,0,38.459,0,0,0,0,0,277.22,0,0,0,0,0,0,0,0,0,0,0,0,0,1,1,0,0,VALID,0,0,0,0,0,1,0,0,0,0,0,0,0,0,0,0,0,0,0,0,0,372.13,2,0,0.08,0.08,433,12.5,0.1,0.06,32.42,FLYING,CF1-F,0:/Integrated Flight Computer/aircraft/cf1_f_cfg.ks (inferred preloaded)
32.72,APPROACH,FLY_TO_FIX,123.74,77,-46.74,1362.88,-0.28,1.45,1.57,277.23,-0.012,0,0,-0.807,1,0.6,4.5,0.847,0.35,0.0168,0.4,277.23,-0.02,0,0,-0.13,0,0,-0.02,277.23,0,0,0,0,0,0,0,38.419,0,0,0,0,0,277.22,0,0,0,0,0,0,0,0,0,0,0,0,0,1,1,0,0,VALID,0,0,0,0,0,1,0,0,0,0,0,0,0,0,0,0,0,0,0,0,0,372.27,2,0,0.06,0.06,437,13.33,0.1,0.06,32.72,FLYING,CF1-F,0:/Integrated Flight Computer/aircraft/cf1_f_cfg.ks (inferred preloaded)
33.02,APPROACH,FLY_TO_FIX,123.5,77,-46.5,1362.8,-0.28,1.47,1.59,277.23,-0.012,0,0,-0.791,1,0.6,4.5,0.847,0.35,0.0168,0.4,277.23,-0.019,0,0,-0.13,0,0,-0.02,277.23,0,0,0,0,0,0,0,38.378,0,0,0,0,0,277.22,0,0,0,0,0,0,0,0,0,0,0,0,0,1,1,0,0,VALID,0,0,0,0,0,1,0,0,0,0,0,0,0,0,0,0,0,0,0,0,0,372.41,2,0,0.06,0.06,441,13.33,0.08,0.06,33.02,FLYING,CF1-F,0:/Integrated Flight Computer/aircraft/cf1_f_cfg.ks (inferred preloaded)
33.34,APPROACH,FLY_TO_FIX,123.26,77,-46.26,1362.71,-0.29,1.49,1.61,277.23,-0.011,0,0,-0.776,1,0.6,4.5,0.848,0.35,0.0168,0.4,277.23,-0.018,0,0,-0.13,0,0,-0.02,277.23,0,0,0,0,0,0,0,38.335,0,0,0,0,0,277.22,0,0,0,0,0,0,0,0,0,0,0,0,0,1,1,0,0,VALID,0,0,0,0,0,1,0,0,0,0,0,0,0,0,0,0,0,0,0,0,0,372.55,2,0,0.08,0.08,445,12.5,0.1,0.06,33.34,FLYING,CF1-F,0:/Integrated Flight Computer/aircraft/cf1_f_cfg.ks (inferred preloaded)
33.62,APPROACH,FLY_TO_FIX,123.04,77,-46.04,1362.64,-0.29,1.5,1.62,277.23,-0.012,0,0,-0.76,1,0.6,4.5,0.848,0.35,0.0168,0.4,277.23,-0.017,0,0,-0.13,0,0,-0.02,277.23,0,0,0,0,0,0,0,38.298,0,0,0,0,0,277.22,0,0,0,0,0,0,0,0,0,0,0,0,0,1,1,0,0,VALID,0,0,0,0,0,1,0,0,0,0,0,0,0,0,0,0,0,0,0,0,0,372.68,2,0,0.06,0.06,449,14.29,0.08,0.06,33.62,FLYING,CF1-F,0:/Integrated Flight Computer/aircraft/cf1_f_cfg.ks (inferred preloaded)
33.92,APPROACH,FLY_TO_FIX,122.81,77,-45.81,1362.55,-0.29,1.52,1.64,277.23,-0.012,0,0,-0.745,1,0.6,4.5,0.848,0.35,0.0168,0.4,277.23,-0.017,0,0,-0.13,0,0,-0.02,277.23,0,0,0,0,0,0,0,38.257,0,0,0,0,0,277.22,0,0,0,0,0,0,0,0,0,0,0,0,0,1,1,0,0,VALID,0,0,0,0,0,1,0,0,0,0,0,0,0,0,0,0,0,0,0,0,0,372.82,2,0,0.06,0.06,453,13.33,0.08,0.06,33.92,FLYING,CF1-F,0:/Integrated Flight Computer/aircraft/cf1_f_cfg.ks (inferred preloaded)
34.24,APPROACH,FLY_TO_FIX,122.56,77,-45.56,1362.47,-0.29,1.54,1.66,277.23,-0.012,0,0,-0.73,1,0.6,4.5,0.848,0.35,0.0168,0.4,277.23,-0.016,0,0,-0.14,0,0,-0.01,277.23,0,0,0,0,0,0,0,38.214,0,0,0,0,0,277.22,0,0,0,0,0,0,0,0,0,0,0,0,0,1,1,0,0,VALID,0,0,0,0,0,1,0,0,0,0,0,0,0,0,0,0,0,0,0,0,0,372.96,2,0,0.08,0.08,457,12.5,0.1,0.06,34.24,FLYING,CF1-F,0:/Integrated Flight Computer/aircraft/cf1_f_cfg.ks (inferred preloaded)
34.52,APPROACH,FLY_TO_FIX,122.34,77,-45.34,1362.39,-0.29,1.56,1.68,277.23,-0.012,0,0,-0.716,1,0.6,4.5,0.849,0.35,0.0168,0.4,277.23,-0.015,0,0,-0.14,0,0,-0.01,277.23,0,0,0,0,0,0,0,38.177,0,0,0,0,0,277.22,0,0,0,0,0,0,0,0,0,0,0,0,0,1,1,0,0,VALID,0,0,0,0,0,1,0,0,0,0,0,0,0,0,0,0,0,0,0,0,0,373.09,2,0,0.06,0.06,461,14.29,0.08,0.06,34.52,FLYING,CF1-F,0:/Integrated Flight Computer/aircraft/cf1_f_cfg.ks (inferred preloaded)
34.82,APPROACH,FLY_TO_FIX,122.11,77,-45.11,1362.3,-0.29,1.58,1.7,277.23,-0.012,0,0,-0.702,1,0.6,4.5,0.849,0.35,0.0168,0.4,277.23,-0.014,0,0,-0.14,0,0,-0.01,277.23,0,0,0,0,0,0,0,38.137,0,0,0,0,0,277.22,0,0,0,0,0,0,0,0,0,0,0,0,0,1,1,0,0,VALID,0,0,0,0,0,1,0,0,0,0,0,0,0,0,0,0,0,0,0,0,0,373.23,2,0,0.06,0.06,465,13.33,0.08,0.06,34.82,FLYING,CF1-F,0:/Integrated Flight Computer/aircraft/cf1_f_cfg.ks (inferred preloaded)
35.14,APPROACH,FLY_TO_FIX,121.86,77,-44.86,1362.21,-0.29,1.6,1.72,277.23,-0.012,0,0,-0.688,1,0.6,4.5,0.849,0.35,0.0168,0.4,277.23,-0.013,0,0,-0.14,0,0,-0.01,277.23,0,0,0,0,0,0,0,38.094,0,0,0,0,0,277.22,0,0,0,0,0,0,0,0,0,0,0,0,0,1,1,0,0,VALID,0,0,0,0,0,1,0,0,0,0,0,0,0,0,0,0,0,0,0,0,0,373.38,2,0,0.08,0.08,469,12.5,0.1,0.06,35.14,FLYING,CF1-F,0:/Integrated Flight Computer/aircraft/cf1_f_cfg.ks (inferred preloaded)
35.44,APPROACH,FLY_TO_FIX,121.63,77,-44.63,1362.13,-0.29,1.62,1.74,277.23,-0.013,0,0,-0.674,1,0.6,4.5,0.85,0.35,0.0168,0.4,277.23,-0.013,0,0,-0.14,0,0,-0.01,277.23,0,0,0,0,0,0,0,38.054,0,0,0,0,0,277.22,0,0,0,0,0,0,0,0,0,0,0,0,0,1,1,0,0,VALID,0,0,0,0,0,1,0,0,0,0,0,0,0,0,0,0,0,0,0,0,0,373.52,2,0,0.06,0.06,473,13.33,0.1,0.06,35.44,FLYING,CF1-F,0:/Integrated Flight Computer/aircraft/cf1_f_cfg.ks (inferred preloaded)
35.74,APPROACH,FLY_TO_FIX,121.4,77,-44.4,1362.04,-0.29,1.63,1.76,277.23,-0.013,0,0,-0.661,1,0.6,4.5,0.85,0.35,0.0168,0.4,277.23,-0.012,0,0,-0.14,0,0,-0.01,277.23,0,0,0,0,0,0,0,38.015,0,0,0,0,0,277.22,0,0,0,0,0,0,0,0,0,0,0,0,0,1,1,0,0,VALID,0,0,0,0,0,1,0,0,0,0,0,0,0,0,0,0,0,0,0,0,0,373.66,2,0,0.06,0.06,477,13.33,0.08,0.06,35.74,FLYING,CF1-F,0:/Integrated Flight Computer/aircraft/cf1_f_cfg.ks (inferred preloaded)
36.06,APPROACH,FLY_TO_FIX,121.15,77,-44.15,1361.95,-0.29,1.66,1.78,277.23,-0.013,0,0,-0.648,1,0.6,4.5,0.851,0.35,0.0168,0.4,277.23,-0.011,0,0,-0.14,0,0,-0.01,277.23,0,0,0,0,0,0,0,37.972,0,0,0,0,0,277.22,0,0,0,0,0,0,0,0,0,0,0,0,0,1,1,0,0,VALID,0,0,0,0,0,1,0,0,0,0,0,0,0,0,0,0,0,0,0,0,0,373.81,2,0,0.08,0.08,481,12.5,0.1,0.06,36.06,FLYING,CF1-F,0:/Integrated Flight Computer/aircraft/cf1_f_cfg.ks (inferred preloaded)
36.34,APPROACH,FLY_TO_FIX,120.93,77,-43.93,1361.87,-0.3,1.67,1.8,277.23,-0.013,0,0,-0.635,1,0.6,4.5,0.851,0.35,0.0168,0.4,277.23,-0.011,0,0,-0.14,0,0,-0.01,277.23,0,0,0,0,0,0,0,37.935,0,0,0,0,0,277.22,0,0,0,0,0,0,0,0,0,0,0,0,0,1,1,0,0,VALID,0,0,0,0,0,1,0,0,0,0,0,0,0,0,0,0,0,0,0,0,0,373.94,2,0,0.06,0.06,485,14.29,0.08,0.06,36.34,FLYING,CF1-F,0:/Integrated Flight Computer/aircraft/cf1_f_cfg.ks (inferred preloaded)
36.64,APPROACH,FLY_TO_FIX,120.7,77,-43.7,1361.79,-0.3,1.69,1.82,277.23,-0.013,0,0,-0.622,1,0.6,4.5,0.852,0.35,0.0168,0.4,277.23,-0.01,0,0,-0.14,0,0,-0.01,277.23,0,0,0,0,0,0,0,37.895,0,0,0,0,0,277.22,0,0,0,0,0,0,0,0,0,0,0,0,0,1,1,0,0,VALID,0,0,0,0,0,1,0,0,0,0,0,0,0,0,0,0,0,0,0,0,0,374.08,2,0,0.06,0.06,489,13.33,0.08,0.06,36.64,FLYING,CF1-F,0:/Integrated Flight Computer/aircraft/cf1_f_cfg.ks (inferred preloaded)
36.96,APPROACH,FLY_TO_FIX,120.45,77,-43.45,1361.7,-0.3,1.71,1.84,277.23,-0.013,0,0,-0.61,1,0.6,4.5,0.852,0.35,0.0168,0.4,277.23,-0.009,0,0,-0.14,0,0,-0.01,277.23,0,0,0,0,0,0,0,37.853,0,0,0,0,0,277.22,0,0,0,0,0,0,0,0,0,0,0,0,0,1,1,0,0,VALID,0,0,0,0,0,1,0,0,0,0,0,0,0,0,0,0,0,0,0,0,0,374.23,2,0,0.08,0.08,493,12.5,0.1,0.06,36.96,FLYING,CF1-F,0:/Integrated Flight Computer/aircraft/cf1_f_cfg.ks (inferred preloaded)
37.24,APPROACH,FLY_TO_FIX,120.23,77,-43.23,1361.62,-0.3,1.73,1.86,277.23,-0.013,0,0,-0.598,1,0.6,4.5,0.853,0.35,0.0168,0.4,277.23,-0.009,0,0,-0.14,0,0,-0.01,277.23,0,0,0,0,0,0,0,37.816,0,0,0,0,0,277.22,0,0,0,0,0,0,0,0,0,0,0,0,0,1,1,0,0,VALID,0,0,0,0,0,1,0,0,0,0,0,0,0,0,0,0,0,0,0,0,0,374.36,2,0,0.06,0.06,497,14.29,0.08,0.06,37.24,FLYING,CF1-F,0:/Integrated Flight Computer/aircraft/cf1_f_cfg.ks (inferred preloaded)
37.54,APPROACH,FLY_TO_FIX,120,77,-43,1361.53,-0.3,1.75,1.88,277.23,-0.014,0,0,-0.586,1,0.6,4.5,0.853,0.35,0.0168,0.4,277.23,-0.008,0,0,-0.14,0,0,-0.01,277.23,0,0,0,0,0,0,0,37.777,0,0,0,0,0,277.22,0,0,0,0,0,0,0,0,0,0,0,0,0,1,1,0,0,VALID,0,0,0,0,0,1,0,0,0,0,0,0,0,0,0,0,0,0,0,0,0,374.5,2,0,0.06,0.06,501,13.33,0.08,0.06,37.54,FLYING,CF1-F,0:/Integrated Flight Computer/aircraft/cf1_f_cfg.ks (inferred preloaded)
37.86,APPROACH,FLY_TO_FIX,119.75,77,-42.75,1361.44,-0.3,1.77,1.9,277.23,-0.014,0,0,-0.574,1,0.6,4.5,0.854,0.35,0.0168,0.4,277.23,-0.007,0,0,-0.14,0,0,-0.01,277.23,0,0,0,0,0,0,0,37.735,0,0,0,0,0,277.22,0,0,0,0,0,0,0,0,0,0,0,0,0,1,1,0,0,VALID,0,0,0,0,0,1,0,0,0,0,0,0,0,0,0,0,0,0,0,0,0,374.65,2,0,0.08,0.08,505,12.5,0.1,0.06,37.86,FLYING,CF1-F,0:/Integrated Flight Computer/aircraft/cf1_f_cfg.ks (inferred preloaded)
38.16,APPROACH,FLY_TO_FIX,119.52,77,-42.52,1361.35,-0.3,1.79,1.92,277.23,-0.014,0,0,-0.563,1,0.6,4.5,0.854,0.35,0.0168,0.4,277.23,-0.007,0,0,-0.14,0,0,-0.01,277.23,0,0,0,0,0,0,0,37.696,0,0,0,0,0,277.22,0,0,0,0,0,0,0,0,0,0,0,0,0,1,1,0,0,VALID,0,0,0,0,0,1,0,0,0,0,0,0,0,0,0,0,0,0,0,0,0,374.79,2,0,0.06,0.06,509,13.33,0.1,0.06,38.16,FLYING,CF1-F,0:/Integrated Flight Computer/aircraft/cf1_f_cfg.ks (inferred preloaded)
38.46,APPROACH,FLY_TO_FIX,119.28,77,-42.28,1361.26,-0.3,1.81,1.94,277.23,-0.014,0,0,-0.552,1,0.6,4.5,0.855,0.35,0.0168,0.4,277.23,-0.006,0,0,-0.14,0,0,-0.01,277.23,0,0,0,0,0,0,0,37.657,0,0,0,0,0,277.22,0,0,0,0,0,0,0,0,0,0,0,0,0,1,1,0,0,VALID,0,0,0,0,0,1,0,0,0,0,0,0,0,0,0,0,0,0,0,0,0,374.94,2,0,0.06,0.06,513,13.33,0.08,0.06,38.46,FLYING,CF1-F,0:/Integrated Flight Computer/aircraft/cf1_f_cfg.ks (inferred preloaded)
38.78,APPROACH,FLY_TO_FIX,119.03,77,-42.03,1361.17,-0.3,1.84,1.97,277.23,-0.014,0,0,-0.541,1,0.6,4.5,0.855,0.35,0.0168,0.4,277.23,-0.006,0,0,-0.14,0,0,0,277.23,0,0,0,0,0,0,0,37.615,0,0,0,0,0,277.22,0,0,0,0,0,0,0,0,0,0,0,0,0,1,1,0,0,VALID,0,0,0,0,0,1,0,0,0,0,0,0,0,0,0,0,0,0,0,0,0,375.09,2,0,0.08,0.08,517,12.5,0.1,0.06,38.78,FLYING,CF1-F,0:/Integrated Flight Computer/aircraft/cf1_f_cfg.ks (inferred preloaded)
39.06,APPROACH,FLY_TO_FIX,118.81,77,-41.81,1361.09,-0.3,1.86,1.99,277.23,-0.014,0,0,-0.53,1,0.6,4.5,0.856,0.35,0.0168,0.4,277.23,-0.005,0,0,-0.15,0,0,0,277.23,0,0,0,0,0,0,0,37.579,0,0,0,0,0,277.22,0,0,0,0,0,0,0,0,0,0,0,0,0,1,1,0,0,VALID,0,0,0,0,0,1,0,0,0,0,0,0,0,0,0,0,0,0,0,0,0,375.22,2,0,0.06,0.06,521,14.29,0.08,0.06,39.06,FLYING,CF1-F,0:/Integrated Flight Computer/aircraft/cf1_f_cfg.ks (inferred preloaded)
39.36,APPROACH,FLY_TO_FIX,118.58,77,-41.58,1361,-0.3,1.88,2.01,277.23,-0.013,0,0,-0.519,1,0.6,4.5,0.857,0.35,0.0168,0.4,277.23,-0.004,0,0,-0.15,0,0,0,277.23,0,0,0,0,0,0,0,37.54,0,0,0,0,0,277.22,0,0,0,0,0,0,0,0,0,0,0,0,0,1,1,0,0,VALID,0,0,0,0,0,1,0,0,0,0,0,0,0,0,0,0,0,0,0,0,0,375.37,2,0,0.06,0.06,525,13.33,0.08,0.06,39.36,FLYING,CF1-F,0:/Integrated Flight Computer/aircraft/cf1_f_cfg.ks (inferred preloaded)
39.68,APPROACH,FLY_TO_FIX,118.33,77,-41.33,1360.91,-0.3,1.9,2.03,277.23,-0.014,0,0,-0.509,1,0.6,4.5,0.857,0.35,0.0168,0.4,277.23,-0.004,0,0,-0.15,0,0,0,277.23,0,0,0,0,0,0,0,37.498,0,0,0,0,0,277.22,0,0,0,0,0,0,0,0,0,0,0,0,0,1,1,0,0,VALID,0,0,0,0,0,1,0,0,0,0,0,0,0,0,0,0,0,0,0,0,0,375.52,2,0,0.08,0.08,529,12.5,0.1,0.06,39.68,FLYING,CF1-F,0:/Integrated Flight Computer/aircraft/cf1_f_cfg.ks (inferred preloaded)
39.96,APPROACH,FLY_TO_FIX,118.11,77,-41.11,1360.83,-0.3,1.92,2.05,277.22,-0.013,0,0,-0.499,1,0.6,4.5,0.858,0.35,0.0168,0.4,277.23,-0.003,0,0,-0.15,0,0,0,277.23,0,0,0,0,0,0,0,37.462,0,0,0,0,0,277.22,0,0,0,0,0,0,0,0,0,0,0,0,0,1,1,0,0,VALID,0,0,0,0,0,1,0,0,0,0,0,0,0,0,0,0,0,0,0,0,0,375.65,2,0,0.06,0.06,533,14.29,0.08,0.06,39.96,FLYING,CF1-F,0:/Integrated Flight Computer/aircraft/cf1_f_cfg.ks (inferred preloaded)
40.26,APPROACH,FLY_TO_FIX,117.87,77,-40.87,1360.74,-0.3,1.94,2.07,277.22,-0.013,0,0,-0.489,1,0.6,4.5,0.859,0.35,0.0168,0.4,277.23,-0.003,0,0,-0.15,0,0,0,277.23,0,0,0,0,0,0,0,37.423,0,0,0,0,0,277.22,0,0,0,0,0,0,0,0,0,0,0,0,0,1,1,0,0,VALID,0,0,0,0,0,1,0,0,0,0,0,0,0,0,0,0,0,0,0,0,0,375.8,2,0,0.06,0.06,537,13.33,0.08,0.06,40.26,FLYING,CF1-F,0:/Integrated Flight Computer/aircraft/cf1_f_cfg.ks (inferred preloaded)
40.58,APPROACH,FLY_TO_FIX,117.62,77,-40.62,1360.65,-0.3,1.96,2.1,277.22,-0.012,0,0,-0.479,1,0.6,4.5,0.859,0.35,0.0168,0.4,277.23,-0.002,0,0,-0.15,0,0,0,277.23,0,0,0,0,0,0,0,37.382,0,0,0,0,0,277.22,0,0,0,0,0,0,0,0,0,0,0,0,0,1,1,0,0,VALID,0,0,0,0,0,1,0,0,0,0,0,0,0,0,0,0,0,0,0,0,0,375.95,2,0,0.08,0.08,541,12.5,0.1,0.06,40.58,FLYING,CF1-F,0:/Integrated Flight Computer/aircraft/cf1_f_cfg.ks (inferred preloaded)
40.88,APPROACH,FLY_TO_FIX,117.39,77,-40.39,1360.56,-0.3,1.99,2.12,277.22,-0.012,0,0,-0.47,1,0.6,4.5,0.86,0.35,0.0168,0.4,277.23,-0.001,0,0,-0.15,0,0,0,277.23,0,0,0,0,0,0,0,37.343,0,0,0,0,0,277.22,0,0,0,0,0,0,0,0,0,0,0,0,0,1,1,0,0,VALID,0,0,0,0,0,1,0,0,0,0,0,0,0,0,0,0,0,0,0,0,0,376.1,2,0,0.06,0.06,545,13.33,0.1,0.06,40.88,FLYING,CF1-F,0:/Integrated Flight Computer/aircraft/cf1_f_cfg.ks (inferred preloaded)
41.18,APPROACH,FLY_TO_FIX,117.15,77,-40.15,1360.47,-0.31,2.01,2.14,277.22,-0.012,0,0,-0.46,1,0.6,4.5,0.861,0.35,0.0168,0.4,277.23,-0.001,0,0,-0.15,0,0,0,277.23,0,0,0,0,0,0,0,37.305,0,0,0,0,0,277.22,0,0,0,0,0,0,0,0,0,0,0,0,0,1,1,0,0,VALID,0,0,0,0,0,1,0,0,0,0,0,0,0,0,0,0,0,0,0,0,0,376.24,2,0,0.06,0.06,549,13.33,0.08,0.06,41.18,FLYING,CF1-F,0:/Integrated Flight Computer/aircraft/cf1_f_cfg.ks (inferred preloaded)
41.5,APPROACH,FLY_TO_FIX,116.9,77,-39.9,1360.38,-0.31,2.03,2.17,277.22,-0.012,0,0,-0.451,1,0.6,4.5,0.861,0.35,0.0168,0.4,277.23,0,0,0,-0.15,0,0,0,277.23,0,0,0,0,0,0,0,37.264,0,0,0,0,0,277.22,0,0,0,0,0,0,0,0,0,0,0,0,0,1,1,0,0,VALID,0,0,0,0,0,1,0,0,0,0,0,0,0,0,0,0,0,0,0,0,0,376.4,2,0,0.08,0.08,553,12.5,0.1,0.06,41.5,FLYING,CF1-F,0:/Integrated Flight Computer/aircraft/cf1_f_cfg.ks (inferred preloaded)
41.78,APPROACH,FLY_TO_FIX,116.68,77,-39.68,1360.3,-0.31,2.05,2.19,277.22,-0.011,0,0,-0.442,1,0.6,4.5,0.862,0.35,0.0168,0.4,277.23,0,0,0,-0.15,0,0,0,277.23,0,0,0,0,0,0,0,37.228,0,0,0,0,0,277.22,0,0,0,0,0,0,0,0,0,0,0,0,0,1,1,0,0,VALID,0,0,0,0,0,1,0,0,0,0,0,0,0,0,0,0,0,0,0,0,0,376.54,2,0,0.06,0.06,557,14.29,0.08,0.06,41.78,FLYING,CF1-F,0:/Integrated Flight Computer/aircraft/cf1_f_cfg.ks (inferred preloaded)
42.08,APPROACH,FLY_TO_FIX,116.44,77,-39.44,1360.21,-0.31,2.07,2.21,277.22,-0.01,0,0,-0.434,1,0.6,4.5,0.863,0.35,0.0168,0.4,277.23,0.001,0,0,-0.15,0,0,0,277.23,0,0,0,0,0,0,0,37.19,0,0,0,0,0,277.22,0,0,0,0,0,0,0,0,0,0,0,0,0,1,1,0,0,VALID,0,0,0,0,0,1,0,0,0,0,0,0,0,0,0,0,0,0,0,0,0,376.68,2,0,0.06,0.06,561,13.33,0.08,0.06,42.08,FLYING,CF1-F,0:/Integrated Flight Computer/aircraft/cf1_f_cfg.ks (inferred preloaded)
42.4,APPROACH,FLY_TO_FIX,116.19,77,-39.19,1360.12,-0.31,2.1,2.23,277.22,-0.01,0,0,-0.425,1,0.6,4.5,0.864,0.35,0.0168,0.4,277.23,0.001,0,0,-0.15,0,0,0,277.23,0,0,0,0,0,0,0,37.149,0,0,0,0,0,277.22,0,0,0,0,0,0,0,0,0,0,0,0,0,1,1,0,0,VALID,0,0,0,0,0,1,0,0,0,0,0,0,0,0,0,0,0,0,0,0,0,376.84,2,0,0.08,0.08,565,12.5,0.1,0.06,42.4,FLYING,CF1-F,0:/Integrated Flight Computer/aircraft/cf1_f_cfg.ks (inferred preloaded)
