t_s,phase,subphase,ias_ms,vapp_ms,spd_err_ms,agl_m,vs_ms,pitch_deg,aoa_deg,hdg_deg,bank_deg,thr_cmd,thr_intg,aa_hdg_cmd_deg,aa_fpa_cmd_deg,ils_loc_m,ils_gs_m,ils_dist_km,loc_corr_deg,gs_corr_deg,flare_fpa_cmd,flare_tgt_vs,flare_frac,steer_hdg_deg,steer_blend,ro_loc_corr_deg,ro_hdg_err_deg,ro_yaw_tgt,ro_yaw_scale,ro_yaw_gate,yaw_cmd,roll_cmd,pitch_cmd,ro_pitch_tgt_deg,ro_pitch_err_deg,ro_pitch_ff,ro_roll_assist,flaps_cur,flaps_tgt,phase_el_s,status
0.26,APPROACH,FLY_TO_FIX,200.43,200.13,-0.3,2449.76,-29.21,-9.31,-1.89,269.35,-1.996,0.032,-0.015,18.01,-4.761,0,0,0,0,0,0,0,0,269.39,0,0,0,0,0,0,0,0,0,0,0,0,0,0,1,0.3,FLYING
0.54,APPROACH,ILS_TRACK,201.09,200.58,-0.52,2440.59,-32.76,-10.93,-2.76,269.43,-2.43,0.144,-0.146,110.8,-6,0,0,0,0,0,0,0,0,269.39,0,0,0,0,0,0,0,0,0,0,0,0,0,1,1,0.56,FLYING
0.8,APPROACH,ILS_TRACK,201.75,201.02,-0.73,2431.58,-35.78,-11.08,-2.21,269.43,-2.052,0.0726,-0.321,245.4,0,30.01,-43.16,45.953,-27.991,136.252,0,0,0,269.39,0,0,0,0,0,0,0,0,0,0,0,0,0,1,1,0.84,FLYING
1.06,APPROACH,ILS_TRACK,202.49,201.44,-1.05,2421.78,-38.16,-11.65,-2.12,269.45,-1.399,0,-0.566,270.12,0,29.09,-49.53,45.894,-0.284,34.458,0,0,0,269.39,0,0,0,0,0,0,0,0,0,0,0,0,0,1,1,1.1,FLYING
1.36,APPROACH,ILS_TRACK,203.34,201.92,-1.42,2409.39,-41.44,-13.14,-2.83,269.45,-0.91,0,-0.96,270.16,0,28.04,-58,45.826,-0.244,39.987,0,0,0,269.39,0,0,0,0,0,0,0,0,0,0,0,0,0,1,1,1.4,FLYING
1.62,APPROACH,ILS_TRACK,204.08,202.34,-1.74,2397.83,-44.3,-14.5,-3.47,269.46,-0.623,0,-1.383,270.2,0,27.12,-66.15,45.767,-0.204,44.931,0,0,0,269.39,0,0,0,0,0,0,0,0,0,0,0,0,0,1,1,1.66,FLYING
1.88,APPROACH,ILS_TRACK,204.78,201.92,-2.86,2385.41,-47.52,-16.2,-4.41,269.47,-0.434,0,-2.113,270.24,0,26.2,-75.16,45.708,-0.16,50.264,0,0,0,269.39,0,0,0,0,0,0,0,0,0,0,0,0,0,1,1,1.92,FLYING
2.14,APPROACH,ILS_TRACK,205.32,201.5,-3.82,2372.36,-51.19,-16.85,-4.28,269.48,-0.302,0,-3.097,270.27,0,25.28,-84.91,45.649,-0.127,55.478,0,0,0,269.39,0,0,0,0,0,0,0,0,0,0,0,0,0,1,1,2.18,FLYING
2.44,APPROACH,ILS_TRACK,205.9,201.02,-4.88,2356.64,-54.7,-15.99,-2.59,269.5,-0.193,0,-4.545,270.31,0,24.22,-96.8,45.581,-0.088,60.752,0,0,0,269.39,0,0,0,0,0,0,0,0,0,0,0,0,0,1,1,2.48,FLYING
2.7,APPROACH,ILS_TRACK,206.57,200.61,-5.97,2342.28,-57.08,-15.28,-1.3,269.51,-0.094,0,-6.083,270.35,0,23.3,-107.82,45.522,-0.045,66.26,0,0,0,269.39,0,0,0,0,0,0,0,0,0,0,0,0,0,1,1,2.74,FLYING
2.96,APPROACH,ILS_TRACK,207.2,201.02,-6.18,2327.34,-59.12,-14.61,-0.15,269.49,1.327,0,-7.677,270.39,0,22.38,-119.48,45.463,-0.013,71.726,0,0,0,269.39,0,0,0,0,0,0,0,0,0,0,0,0,0,1,1,3,FLYING
3.22,APPROACH,ILS_TRACK,207.74,201.44,-6.3,2312.08,-60.84,-13.34,1.48,269.46,1.137,0,-9.295,270.42,0,21.47,-131.57,45.404,0.022,76.67,0,0,0,269.39,0,0,0,0,0,0,0,0,0,0,0,0,0,1,1,3.26,FLYING
3.52,APPROACH,ILS_TRACK,208.21,201.92,-6.29,2294.33,-62,-10.81,4.24,269.52,-0.603,0,-11.165,270.48,0,20.4,-145.74,45.337,0.076,81.503,0,0,0,269.39,0,0,0,0,0,0,0,0,0,0,0,0,0,1,1,3.56,FLYING
3.78,APPROACH,ILS_TRACK,208.44,202.34,-6.1,2279.04,-62.05,-7.83,7.21,269.62,-0.947,0,-12.747,270.52,0,19.46,-158.01,45.278,0.119,85.161,0,0,0,269.39,0,0,0,0,0,0,0,0,0,0,0,0,0,1,1,3.82,FLYING
4.04,APPROACH,ILS_TRACK,208.43,202.75,-5.67,2263.84,-60.83,-5.14,9.71,269.72,-1.185,0,-14.228,270.55,0,18.54,-170.16,45.219,0.15,88.429,0,0,0,269.39,0,0,0,0,0,0,0,0,0,0,0,0,0,1,1,4.08,FLYING
4.3,APPROACH,ILS_TRACK,208.1,203.17,-4.93,2248.77,-59.01,-3.44,11.07,269.8,-1.345,0,-15.528,270.56,0,17.63,-182.22,45.161,0.164,91.787,0,0,0,269.39,0,0,0,0,0,0,0,0,0,0,0,0,0,1,1,4.34,FLYING
4.6,APPROACH,ILS_TRACK,207.44,203.65,-3.8,2231.73,-56.71,-2.42,11.62,269.87,-1.463,0,-16.697,270.58,0,16.62,-195.87,45.093,0.179,95.133,0,0,0,269.39,0,0,0,0,0,0,0,0,0,0,0,0,0,1,1,4.64,FLYING
4.86,APPROACH,ILS_TRACK,206.74,204.06,-2.68,2217.4,-54.76,-1.93,11.69,269.92,-1.528,0,-17.422,270.58,0,15.77,-207.3,45.034,0.185,97.363,0,0,0,269.39,0,0,0,0,0,0,0,0,0,0,0,0,0,1,1,4.9,FLYING
5.12,APPROACH,ILS_TRACK,205.97,204.48,-1.49,2203.55,-52.86,-1.51,11.68,269.96,-1.569,0,-17.841,270.58,0,14.96,-218.27,44.976,0.182,99.261,0,0,0,269.39,0,0,0,0,0,0,0,0,0,0,0,0,0,1,1,5.16,FLYING
5.38,APPROACH,ILS_TRACK,205.14,204.9,-0.24,2190.19,-50.97,-1.09,11.68,269.99,-1.59,0.0871,-17.938,270.59,0,14.17,-228.77,44.918,0.187,100.923,0,0,0,269.39,0,0,0,0,0,0,0,0,0,0,0,0,0,1,1,5.42,FLYING
5.68,APPROACH,ILS_TRACK,204.12,205.38,1.26,2175.39,-48.8,-0.62,11.66,270.03,-1.61,0.2071,-17.601,270.58,0,13.32,-240.28,44.851,0.183,102.773,0,0,0,269.39,0,0,0,0,0,0,0,0,0,0,0,0,0,1,1,5.72,FLYING
5.94,APPROACH,ILS_TRACK,203.2,205.79,2.59,2163.09,-46.84,-0.23,11.63,270.06,-1.614,0.3111,-16.964,270.58,0,12.6,-249.72,44.793,0.18,103.967,0,0,0,269.39,0,0,0,0,0,0,0,0,0,0,0,0,0,1,1,5.98,FLYING
6.2,APPROACH,ILS_TRACK,202.29,206.21,3.92,2151.26,-45.06,0.09,11.53,270.09,-1.62,0.4151,-15.981,270.58,0,11.92,-258.72,44.735,0.176,105.315,0,0,0,269.39,0,0,0,0,0,0,0,0,0,0,0,0,0,1,1,6.24,FLYING
6.46,APPROACH,ILS_TRACK,201.39,206.62,5.24,2139.95,-43.2,0.63,11.65,270.12,-1.614,0.5191,-14.655,270.57,0,11.28,-267.21,44.678,0.169,106.274,0,0,0,269.39,0,0,0,0,0,0,0,0,0,0,0,0,0,1,1,6.5,FLYING
6.76,APPROACH,ILS_TRACK,200.4,207.1,6.7,2127.43,-41.08,0.94,11.47,270.15,-1.616,0.6391,-12.682,270.56,0,10.58,-276.45,44.611,0.161,107.591,0,0,0,269.39,0,0,0,0,0,0,0,0,0,0,0,0,0,1,1,6.8,FLYING
7.02,APPROACH,ILS_TRACK,199.6,207.52,7.92,2117.12,-39.41,1.43,11.54,270.18,-1.605,0.7431,-10.655,270.55,0,10.01,-283.97,44.554,0.151,108.312,0,0,0,269.39,0,0,0,0,0,0,0,0,0,0,0,0,0,1,1,7.06,FLYING
7.28,APPROACH,ILS_TRACK,198.85,207.94,9.08,2107.28,-37.47,1.9,11.58,270.21,-1.585,0.8471,-8.321,270.54,0,9.46,-290.98,44.497,0.145,108.853,0,0,0,269.39,0,0,0,0,0,0,0,0,0,0,0,0,0,1,1,7.32,FLYING
7.54,APPROACH,ILS_TRACK,198.21,208.35,10.15,2097.87,-35.75,2.19,11.43,270.24,-1.58,0.9511,-5.708,270.53,0,8.95,-297.59,44.44,0.13,109.621,0,0,0,269.39,0,0,0,0,0,0,0,0,0,0,0,0,0,1,1,7.58,FLYING
7.84,APPROACH,ILS_TRACK,197.58,208.83,11.25,2087.64,-33.79,2.88,11.63,270.27,-1.548,1,-2.356,270.52,0,8.41,-304.61,44.375,0.117,110.098,0,0,0,269.39,0,0,0,0,0,0,0,0,0,0,0,0,0,1,1,7.88,FLYING
8.1,APPROACH,ILS_TRACK,197.18,209.25,12.07,2079.22,-31.95,3.2,11.51,270.29,-1.526,0.9946,0.768,270.51,0,7.96,-310.2,44.318,0.112,110.279,0,0,0,269.39,0,0,0,0,0,0,0,0,0,0,0,0,0,1,1,8.14,FLYING
8.36,APPROACH,ILS_TRACK,196.92,209.66,12.75,2071.26,-30.39,3.63,11.51,270.32,-1.507,0.9668,4.073,270.5,0,7.55,-315.39,44.262,0.098,110.575,0,0,0,269.39,0,0,0,0,0,0,0,0,0,0,0,0,0,1,1,8.4,FLYING
8.62,APPROACH,ILS_TRACK,196.75,210.08,13.33,2063.78,-28.54,4.21,11.65,270.35,-1.467,0.935,7.535,270.48,0,7.17,-320.07,44.205,0.077,110.415,0,0,0,269.39,0,0,0,0,0,0,0,0,0,0,0,0,0,1,1,8.66,FLYING
8.92,APPROACH,ILS_TRACK,196.69,210.56,13.87,2055.63,-26.59,4.53,11.45,270.36,-1.428,0.9038,11.696,270.47,0,6.76,-324.98,44.14,0.069,110.592,0,0,0,269.39,0,0,0,0,0,0,0,0,0,0,0,0,0,1,1,8.96,FLYING
9.18,APPROACH,ILS_TRACK,196.74,210.98,14.24,2049.11,-24.95,5.13,11.62,270.39,-1.386,0.8629,15.4,270.45,0,6.44,-328.73,44.083,0.052,110.159,0,0,0,269.39,0,0,0,0,0,0,0,0,0,0,0,0,0,1,1,9.22,FLYING
9.44,APPROACH,ILS_TRACK,196.85,211.39,14.54,2043.02,-23.19,5.65,11.67,270.41,-1.342,0.8284,19.186,270.44,0,6.15,-332,44.026,0.036,109.679,0,0,0,269.39,0,0,0,0,0,0,0,0,0,0,0,0,0,1,1,9.48,FLYING
9.7,APPROACH,ILS_TRACK,197.02,211.81,14.79,2037.38,-21.3,6.09,11.64,270.42,-1.289,0.7632,20,270.42,0,5.88,-334.83,43.969,0.022,109.136,0,0,0,269.39,0,0,0,0,0,0,0,0,0,0,0,0,0,1,1,9.74,FLYING
10,APPROACH,ILS_TRACK,197.28,212,14.72,2031.44,-19.34,6.54,11.55,270.44,-1.228,0.6915,20,270.41,0,5.6,-337.55,43.904,0.008,108.52,0,0,0,269.39,0,0,0,0,0,0,0,0,0,0,0,0,0,1,1,10.04,FLYING
10.26,APPROACH,ILS_TRACK,197.54,212,14.46,2026.83,-17.51,7.13,11.66,270.45,-1.16,0.6271,20,270.39,0,5.39,-339.36,43.847,-0.009,107.367,0,0,0,269.39,0,0,0,0,0,0,0,0,0,0,0,0,0,1,1,10.3,FLYING
10.52,APPROACH,ILS_TRACK,197.8,212,14.2,2022.69,-15.71,7.66,11.72,270.46,-1.079,0.5735,20,270.37,0,5.2,-340.7,43.79,-0.027,106.329,0,0,0,269.39,0,0,0,0,0,0,0,0,0,0,0,0,0,1,1,10.56,FLYING
10.78,APPROACH,ILS_TRACK,198.07,212,13.93,2019.01,-13.83,8.14,11.72,270.46,-0.98,0.5307,20,270.36,0,5.03,-341.56,43.732,-0.041,105.124,0,0,0,269.39,0,0,0,0,0,0,0,0,0,0,0,0,0,1,1,10.82,FLYING
11.08,APPROACH,ILS_TRACK,198.36,212,13.64,2015.33,-11.53,8.54,11.56,270.45,-0.844,0.4989,20,270.34,0,4.86,-341.96,43.666,-0.056,103.657,0,0,0,269.39,0,0,0,0,0,0,0,0,0,0,0,0,0,1,1,11.12,FLYING
11.34,APPROACH,ILS_TRACK,198.62,212,13.38,2012.55,-9.72,8.43,11,270.43,-0.693,0.4734,20,270.33,0,4.74,-341.88,43.609,-0.069,102.326,0,0,0,269.39,0,0,0,0,0,0,0,0,0,0,0,0,0,1,1,11.38,FLYING
11.6,APPROACH,ILS_TRACK,198.94,212,13.06,2010.13,-8.02,7.93,10.07,270.4,-0.524,0.4421,20,270.32,0,4.63,-341.42,43.552,-0.081,100.998,0,0,0,269.39,0,0,0,0,0,0,0,0,0,0,0,0,0,1,1,11.64,FLYING
11.86,APPROACH,ILS_TRACK,199.35,212,12.65,2008.03,-6.75,7.23,9.03,270.38,-0.36,0.3998,20,270.31,0,4.53,-340.63,43.494,-0.087,99.757,0,0,0,269.39,0,0,0,0,0,0,0,0,0,0,0,0,0,1,1,11.9,FLYING
12.16,APPROACH,ILS_TRACK,199.92,212,12.08,2006.01,-5.69,6.63,8.13,270.35,-0.202,0.3491,20,270.31,0,4.43,-339.3,43.427,-0.093,98.251,0,0,0,269.39,0,0,0,0,0,0,0,0,0,0,0,0,0,1,1,12.2,FLYING
12.42,APPROACH,ILS_TRACK,200.45,212,11.55,2004.56,-4.84,6.35,7.63,270.33,-0.083,0.3011,20,270.31,0,4.35,-337.81,43.37,-0.092,96.751,0,0,0,269.39,0,0,0,0,0,0,0,0,0,0,0,0,0,1,1,12.46,FLYING
12.68,APPROACH,ILS_TRACK,200.99,212,11.01,2003.31,-4.1,6,7.08,270.32,-0.009,0.2605,20,270.31,0,4.26,-336.09,43.312,-0.086,95.535,0,0,0,269.39,0,0,0,0,0,0,0,0,0,0,0,0,0,1,1,12.72,FLYING
12.94,APPROACH,ILS_TRACK,201.5,212,10.5,2002.25,-3.54,5.74,6.67,270.32,0.024,0.2315,20,270.31,0,4.18,-334.18,43.253,-0.087,94.379,0,0,0,269.39,0,0,0,0,0,0,0,0,0,0,0,0,0,1,1,12.98,FLYING
13.24,APPROACH,ILS_TRACK,202.05,212,9.95,2001.22,-2.99,5.53,6.31,270.32,0.043,0.2158,20,270.32,0,4.08,-331.75,43.186,-0.083,93.046,0,0,0,269.39,0,0,0,0,0,0,0,0,0,0,0,0,0,1,1,13.28,FLYING
13.5,APPROACH,ILS_TRACK,202.47,212,9.53,2000.47,-2.58,5.42,6.09,270.32,0.036,0.2128,20,270.32,0,3.99,-329.49,43.128,-0.076,91.894,0,0,0,269.39,0,0,0,0,0,0,0,0,0,0,0,0,0,1,1,13.54,FLYING
13.76,APPROACH,ILS_TRACK,202.84,212,9.16,1999.82,-2.21,5.32,5.89,270.32,0.008,0.2205,20,270.33,0,3.91,-327.11,43.069,-0.072,90.819,0,0,0,269.39,0,0,0,0,0,0,0,0,0,0,0,0,0,1,1,13.8,FLYING
14.02,APPROACH,ILS_TRACK,203.17,212,8.83,1999.24,-1.87,5.13,5.63,270.32,-0.024,0.2359,20,270.33,0,3.82,-324.65,43.011,-0.067,89.801,0,0,0,269.39,0,0,0,0,0,0,0,0,0,0,0,0,0,1,1,14.06,FLYING
14.32,APPROACH,ILS_TRACK,203.49,212,8.51,1998.66,-1.62,4.96,5.38,270.33,-0.052,0.2575,20,270.33,0,3.72,-321.7,42.943,-0.07,88.667,0,0,0,269.39,0,0,0,0,0,0,0,0,0,0,0,0,0,1,1,14.36,FLYING
14.58,APPROACH,ILS_TRACK,203.73,212,8.27,1998.23,-1.44,4.84,5.22,270.33,-0.062,0.2819,20,270.34,0,3.63,-319.08,42.884,-0.057,87.64,0,0,0,269.39,0,0,0,0,0,0,0,0,0,0,0,0,0,1,1,14.62,FLYING
14.84,APPROACH,ILS_TRACK,203.94,212,8.06,1997.86,-1.29,4.78,5.11,270.33,-0.09,0.3066,20,270.34,0,3.55,-316.39,42.825,-0.06,86.655,0,0,0,269.39,0,0,0,0,0,0,0,0,0,0,0,0,0,1,1,14.88,FLYING
15.1,APPROACH,ILS_TRACK,204.14,212,7.86,1997.52,-1.16,4.73,5.04,270.33,-0.097,0.3297,20,270.34,0,3.47,-313.66,42.767,-0.061,85.691,0,0,0,269.39,0,0,0,0,0,0,0,0,0,0,0,0,0,1,1,15.14,FLYING
15.4,APPROACH,ILS_TRACK,204.36,212,7.64,1997.17,-1.04,4.67,4.94,270.33,-0.101,0.3502,20,270.35,0,3.37,-310.46,42.699,-0.053,84.603,0,0,0,269.39,0,0,0,0,0,0,0,0,0,0,0,0,0,1,1,15.44,FLYING
15.66,APPROACH,ILS_TRACK,204.55,212,7.45,1996.9,-0.95,4.64,4.88,270.34,-0.104,0.3655,20,270.35,0,3.29,-307.65,42.64,-0.053,83.655,0,0,0,269.39,0,0,0,0,0,0,0,0,0,0,0,0,0,1,1,15.7,FLYING
15.92,APPROACH,ILS_TRACK,204.75,212,7.25,1996.65,-0.87,4.61,4.84,270.34,-0.106,0.368,20,270.35,0,3.21,-304.81,42.581,-0.051,82.715,0,0,0,269.39,0,0,0,0,0,0,0,0,0,0,0,0,0,1,1,15.96,FLYING
16.18,APPROACH,ILS_TRACK,204.95,212,7.05,1996.43,-0.79,4.59,4.8,270.34,-0.106,0.366,20,270.35,0,3.12,-301.95,42.522,-0.048,81.781,0,0,0,269.39,0,0,0,0,0,0,0,0,0,0,0,0,0,1,1,16.22,FLYING
16.48,APPROACH,ILS_TRACK,205.19,212,6.81,1996.19,-0.71,4.57,4.75,270.34,-0.107,0.359,20,270.35,0,3.04,-298.62,42.453,-0.047,80.708,0,0,0,269.39,0,0,0,0,0,0,0,0,0,0,0,0,0,1,1,16.52,FLYING
16.74,APPROACH,ILS_TRACK,205.41,212,6.59,1996,-0.67,4.54,4.71,270.34,-0.108,0.3509,20,270.36,0,2.96,-295.71,42.394,-0.044,79.766,0,0,0,269.39,0,0,0,0,0,0,0,0,0,0,0,0,0,1,1,16.78,FLYING
17,APPROACH,ILS_TRACK,205.64,212,6.36,1995.83,-0.6,4.53,4.68,270.34,-0.107,0.3412,20,270.36,0,2.88,-292.79,42.335,-0.041,78.83,0,0,0,269.39,0,0,0,0,0,0,0,0,0,0,0,0,0,1,1,17.04,FLYING
17.26,APPROACH,ILS_TRACK,205.86,212,6.14,1995.68,-0.55,4.51,4.65,270.34,-0.107,0.3304,20,270.36,0,2.81,-289.84,42.276,-0.04,77.891,0,0,0,269.39,0,0,0,0,0,0,0,0,0,0,0,0,0,1,1,17.3,FLYING
17.56,APPROACH,ILS_TRACK,206.12,212,5.88,1995.51,-0.49,4.49,4.62,270.35,-0.107,0.3179,20,270.36,0,2.72,-286.42,42.207,-0.039,76.81,0,0,0,269.39,0,0,0,0,0,0,0,0,0,0,0,0,0,1,1,17.6,FLYING
17.82,APPROACH,ILS_TRACK,206.34,212,5.66,1995.38,-0.46,4.48,4.59,270.35,-0.105,0.3077,20,270.36,0,2.65,-283.45,42.148,-0.038,75.87,0,0,0,269.39,0,0,0,0,0,0,0,0,0,0,0,0,0,1,1,17.86,FLYING
18.08,APPROACH,ILS_TRACK,206.55,212,5.45,1995.26,-0.42,4.47,4.58,270.35,-0.104,0.2994,20,270.37,0,2.58,-280.45,42.088,-0.033,74.918,0,0,0,269.39,0,0,0,0,0,0,0,0,0,0,0,0,0,1,1,18.12,FLYING
18.34,APPROACH,ILS_TRACK,206.75,212,5.25,1995.16,-0.38,4.46,4.56,270.35,-0.103,0.293,20,270.36,0,2.51,-277.44,42.029,-0.036,73.975,0,0,0,269.39,0,0,0,0,0,0,0,0,0,0,0,0,0,1,1,18.38,FLYING
18.64,APPROACH,ILS_TRACK,206.97,212,5.03,1995.04,-0.34,4.45,4.54,270.35,-0.096,0.2878,20,270.37,0,2.44,-273.95,41.96,-0.034,72.888,0,0,0,269.39,0,0,0,0,0,0,0,0,0,0,0,0,0,1,1,18.68,FLYING
18.9,APPROACH,ILS_TRACK,207.14,212,4.86,1994.96,-0.31,4.44,4.52,270.35,-0.092,0.2867,20,270.37,0,2.37,-270.92,41.9,-0.029,71.938,0,0,0,269.39,0,0,0,0,0,0,0,0,0,0,0,0,0,1,1,18.94,FLYING
19.16,APPROACH,ILS_TRACK,207.3,212,4.7,1994.88,-0.27,4.44,4.51,270.35,-0.091,0.2877,20,270.37,0,2.3,-267.87,41.841,-0.028,70.987,0,0,0,269.39,0,0,0,0,0,0,0,0,0,0,0,0,0,1,1,19.2,FLYING
19.42,APPROACH,ILS_TRACK,207.44,212,4.56,1994.81,-0.24,4.43,4.49,270.35,-0.088,0.2903,20,270.37,0,2.24,-264.82,41.781,-0.033,70.038,0,0,0,269.39,0,0,0,0,0,0,0,0,0,0,0,0,0,1,1,19.46,FLYING
19.72,APPROACH,ILS_TRACK,207.59,212,4.41,1994.74,-0.21,4.43,4.48,270.35,-0.082,0.2933,20,270.37,0,2.17,-261.28,41.712,-0.026,68.941,0,0,0,269.39,0,0,0,0,0,0,0,0,0,0,0,0,0,1,1,19.76,FLYING
19.98,APPROACH,ILS_TRACK,207.71,212,4.29,1994.69,-0.18,4.43,4.47,270.35,-0.081,0.2979,20,270.37,0,2.11,-258.2,41.652,-0.027,67.986,0,0,0,269.39,0,0,0,0,0,0,0,0,0,0,0,0,0,1,1,20.02,FLYING
20.24,APPROACH,ILS_TRACK,207.82,212,4.18,1994.65,-0.15,4.42,4.46,270.35,-0.08,0.3026,20,270.38,0,2.04,-255.11,41.593,-0.019,67.031,0,0,0,269.39,0,0,0,0,0,0,0,0,0,0,0,0,0,1,1,20.28,FLYING
20.5,APPROACH,ILS_TRACK,207.92,212,4.08,1994.61,-0.12,4.42,4.45,270.36,-0.08,0.3068,20,270.38,0,1.99,-252.01,41.533,-0.025,66.075,0,0,0,269.39,0,0,0,0,0,0,0,0,0,0,0,0,0,1,1,20.54,FLYING
20.8,APPROACH,ILS_TRACK,208.04,212,3.96,1994.58,-0.09,4.42,4.44,270.36,-0.076,0.3094,20,270.38,0,1.92,-248.43,41.464,-0.018,64.973,0,0,0,269.39,0,0,0,0,0,0,0,0,0,0,0,0,0,1,1,20.84,FLYING
21.06,APPROACH,ILS_TRACK,208.13,212,3.87,1994.55,-0.07,4.42,4.43,270.36,-0.074,0.3117,20,270.38,0,1.86,-245.31,41.404,-0.017,64.011,0,0,0,269.39,0,0,0,0,0,0,0,0,0,0,0,0,0,1,1,21.1,FLYING
21.32,APPROACH,ILS_TRACK,208.23,212,3.77,1994.54,-0.04,4.41,4.43,270.36,-0.074,0.3129,20,270.38,0,1.8,-242.19,41.344,-0.021,63.05,0,0,0,269.39,0,0,0,0,0,0,0,0,0,0,0,0,0,1,1,21.36,FLYING
21.58,APPROACH,ILS_TRACK,208.33,212,3.67,1994.53,-0.02,4.41,4.42,270.36,-0.07,0.3129,20,270.39,0,1.75,-239.06,41.284,-0.014,62.086,0,0,0,269.39,0,0,0,0,0,0,0,0,0,0,0,0,0,1,1,21.62,FLYING
21.88,APPROACH,ILS_TRACK,208.44,212,3.56,1994.53,0.01,4.41,4.41,270.36,-0.069,0.3112,20,270.38,0,1.68,-235.44,41.215,-0.016,60.975,0,0,0,269.39,0,0,0,0,0,0,0,0,0,0,0,0,0,1,1,21.92,FLYING
22.14,APPROACH,ILS_TRACK,208.53,212,3.47,1994.53,0.03,4.41,4.4,270.36,-0.068,0.3095,20,270.39,0,1.63,-232.29,41.155,-0.013,60.006,0,0,0,269.39,0,0,0,0,0,0,0,0,0,0,0,0,0,1,1,22.18,FLYING
22.4,APPROACH,ILS_TRACK,208.63,212,3.37,1994.54,0.05,4.4,4.39,270.36,-0.069,0.3072,20,270.39,0,1.58,-229.14,41.095,-0.011,59.037,0,0,0,269.39,0,0,0,0,0,0,0,0,0,0,0,0,0,1,1,22.44,FLYING
22.66,APPROACH,ILS_TRACK,208.72,212,3.28,1994.56,0.08,4.4,4.38,270.36,-0.069,0.3046,20,270.39,0,1.52,-225.98,41.035,-0.01,58.066,0,0,0,269.39,0,0,0,0,0,0,0,0,0,0,0,0,0,1,1,22.7,FLYING
22.96,APPROACH,ILS_TRACK,208.83,212,3.17,1994.58,0.1,4.4,4.38,270.36,-0.068,0.3014,20,270.39,0,1.46,-222.32,40.965,-0.009,56.945,0,0,0,269.39,0,0,0,0,0,0,0,0,0,0,0,0,0,1,1,23,FLYING
23.22,APPROACH,ILS_TRACK,208.92,212,3.08,1994.61,0.12,4.4,4.37,270.36,-0.069,0.299,20,270.39,0,1.41,-219.14,40.905,-0.007,55.97,0,0,0,269.39,0,0,0,0,0,0,0,0,0,0,0,0,0,1,1,23.26,FLYING
23.48,APPROACH,ILS_TRACK,209.01,212,2.99,1994.65,0.14,4.4,4.36,270.36,-0.071,0.297,20,270.4,0,1.36,-215.96,40.845,-0.004,54.994,0,0,0,269.39,0,0,0,0,0,0,0,0,0,0,0,0,0,1,1,23.52,FLYING
23.74,APPROACH,ILS_TRACK,209.09,212,2.91,1994.69,0.16,4.39,4.35,270.36,-0.073,0.2955,20,270.39,0,1.31,-212.77,40.785,-0.009,54.018,0,0,0,269.39,0,0,0,0,0,0,0,0,0,0,0,0,0,1,1,23.78,FLYING
24.04,APPROACH,ILS_TRACK,209.18,212,2.82,1994.74,0.19,4.39,4.35,270.37,-0.073,0.294,20,270.4,0,1.26,-209.08,40.715,-0.004,52.888,0,0,0,269.39,0,0,0,0,0,0,0,0,0,0,0,0,0,1,1,24.08,FLYING
24.3,APPROACH,ILS_TRACK,209.25,212,2.75,1994.79,0.21,4.39,4.34,270.37,-0.074,0.2937,20,270.4,0,1.21,-205.88,40.655,-0.001,51.908,0,0,0,269.39,0,0,0,0,0,0,0,0,0,0,0,0,0,1,1,24.34,FLYING
24.56,APPROACH,ILS_TRACK,209.32,212,2.68,1994.84,0.22,4.39,4.33,270.37,-0.077,0.2938,20,270.4,0,1.17,-202.67,40.595,-0.004,50.927,0,0,0,269.39,0,0,0,0,0,0,0,0,0,0,0,0,0,1,1,24.6,FLYING
24.82,APPROACH,ILS_TRACK,209.38,212,2.62,1994.9,0.24,4.39,4.33,270.37,-0.08,0.2943,20,270.4,0,1.12,-199.46,40.535,-0.002,49.945,0,0,0,269.39,0,0,0,0,0,0,0,0,0,0,0,0,0,1,1,24.86,FLYING
25.12,APPROACH,ILS_TRACK,209.45,212,2.55,1994.98,0.26,4.38,4.32,270.37,-0.082,0.2945,20,270.4,0,1.07,-195.74,40.465,-0.002,48.813,0,0,0,269.39,0,0,0,0,0,0,0,0,0,0,0,0,0,1,1,25.16,FLYING
25.38,APPROACH,ILS_TRACK,209.51,212,2.49,1995.05,0.28,4.38,4.31,270.37,-0.084,0.2954,20,270.4,0,1.03,-192.51,40.405,0.002,47.827,0,0,0,269.39,0,0,0,0,0,0,0,0,0,0,0,0,0,1,1,25.42,FLYING
25.64,APPROACH,ILS_TRACK,209.56,212,2.44,1995.12,0.29,4.38,4.31,270.37,-0.086,0.2963,20,270.4,0,0.99,-189.28,40.345,0.002,46.843,0,0,0,269.39,0,0,0,0,0,0,0,0,0,0,0,0,0,1,1,25.68,FLYING
25.9,APPROACH,ILS_TRACK,209.61,212,2.39,1995.2,0.31,4.38,4.3,270.37,-0.088,0.2971,20,270.4,0,0.95,-186.05,40.284,0,45.857,0,0,0,269.39,0,0,0,0,0,0,0,0,0,0,0,0,0,1,1,25.94,FLYING
26.2,APPROACH,ILS_TRACK,209.67,212,2.33,1995.29,0.33,4.38,4.3,270.37,-0.088,0.2973,20,270.4,0,0.9,-182.31,40.215,0.003,44.72,0,0,0,269.39,0,0,0,0,0,0,0,0,0,0,0,0,0,1,1,26.24,FLYING
26.46,APPROACH,ILS_TRACK,209.72,212,2.28,1995.38,0.34,4.37,4.29,270.38,-0.089,0.2976,20,270.4,0,0.86,-179.06,40.154,0.002,43.733,0,0,0,269.39,0,0,0,0,0,0,0,0,0,0,0,0,0,1,1,26.5,FLYING
26.72,APPROACH,ILS_TRACK,209.76,212,2.24,1995.47,0.35,4.37,4.29,270.38,-0.09,0.2978,20,270.41,0,0.82,-175.81,40.094,0.005,42.744,0,0,0,269.39,0,0,0,0,0,0,0,0,0,0,0,0,0,1,1,26.76,FLYING
26.98,APPROACH,ILS_TRACK,209.81,212,2.19,1995.56,0.36,4.37,4.28,270.38,-0.091,0.2976,20,270.4,0,0.79,-172.56,40.034,-0.002,41.758,0,0,0,269.39,0,0,0,0,0,0,0,0,0,0,0,0,0,1,1,27.02,FLYING
27.28,APPROACH,ILS_TRACK,209.86,212,2.14,1995.67,0.38,4.37,4.28,270.38,-0.093,0.297,20,270.41,0,0.74,-168.8,39.964,0.01,40.615,0,0,0,269.39,0,0,0,0,0,0,0,0,0,0,0,0,0,1,1,27.32,FLYING
27.54,APPROACH,ILS_TRACK,209.9,212,2.1,1995.77,0.39,4.36,4.27,270.38,-0.097,0.2964,20,270.4,0,0.71,-165.54,39.904,0.004,39.627,0,0,0,269.39,0,0,0,0,0,0,0,0,0,0,0,0,0,1,1,27.58,FLYING
27.8,APPROACH,ILS_TRACK,209.95,212,2.05,1995.87,0.4,4.36,4.26,270.38,-0.097,0.2958,20,270.4,0,0.68,-162.27,39.843,0.001,38.636,0,0,0,269.39,0,0,0,0,0,0,0,0,0,0,0,0,0,1,1,27.84,FLYING
28.06,APPROACH,ILS_TRACK,209.99,212,2.01,1995.97,0.41,4.36,4.26,270.38,-0.097,0.2952,20,270.41,0,0.65,-159,39.783,0.005,37.644,0,0,0,269.39,0,0,0,0,0,0,0,0,0,0,0,0,0,1,1,28.1,FLYING
28.36,APPROACH,ILS_TRACK,210.03,212,1.97,1996.1,0.42,4.36,4.26,270.38,-0.096,0.2942,20,270.41,0,0.61,-155.23,39.713,0.006,36.501,0,0,0,269.39,0,0,0,0,0,0,0,0,0,0,0,0,0,1,1,28.4,FLYING
28.62,APPROACH,ILS_TRACK,210.07,212,1.93,1996.21,0.43,4.36,4.25,270.39,-0.095,0.2937,20,270.4,0,0.59,-151.95,39.653,0.001,35.51,0,0,0,269.39,0,0,0,0,0,0,0,0,0,0,0,0,0,1,1,28.66,FLYING
28.88,APPROACH,ILS_TRACK,210.11,212,1.89,1996.32,0.44,4.35,4.25,270.39,-0.094,0.2932,20,270.41,0,0.56,-148.68,39.592,0.007,34.517,0,0,0,269.39,0,0,0,0,0,0,0,0,0,0,0,0,0,1,1,28.92,FLYING
29.14,APPROACH,ILS_TRACK,210.15,212,1.85,1996.43,0.45,4.35,4.24,270.39,-0.094,0.2928,20,270.4,0,0.53,-145.4,39.532,0.002,33.527,0,0,0,269.39,0,0,0,0,0,0,0,0,0,0,0,0,0,1,1,29.18,FLYING
29.44,APPROACH,ILS_TRACK,210.19,212,1.81,1996.56,0.46,4.35,4.24,270.39,-0.092,0.2924,20,270.41,0,0.5,-141.61,39.462,0.005,32.378,0,0,0,269.39,0,0,0,0,0,0,0,0,0,0,0,0,0,1,1,29.48,FLYING
29.7,APPROACH,ILS_TRACK,210.22,212,1.78,1996.68,0.46,4.35,4.24,270.39,-0.09,0.2922,20,270.41,0,0.48,-138.32,39.402,0.006,31.386,0,0,0,269.39,0,0,0,0,0,0,0,0,0,0,0,0,0,1,1,29.74,FLYING
29.96,APPROACH,ILS_TRACK,210.25,212,1.75,1996.8,0.47,4.35,4.23,270.39,-0.089,0.2923,20,270.4,0,0.46,-135.03,39.341,0.001,30.393,0,0,0,269.39,0,0,0,0,0,0,0,0,0,0,0,0,0,1,1,30,FLYING
30.22,APPROACH,ILS_TRACK,210.28,212,1.72,1996.92,0.48,4.35,4.23,270.39,-0.084,0.2923,20,270.41,0,0.43,-131.74,39.281,0.008,29.399,0,0,0,269.39,0,0,0,0,0,0,0,0,0,0,0,0,0,1,1,30.26,FLYING
30.52,APPROACH,ILS_TRACK,210.31,212,1.69,1997.06,0.48,4.34,4.23,270.39,-0.083,0.2923,20,270.4,0,0.41,-127.94,39.211,0.003,28.251,0,0,0,269.39,0,0,0,0,0,0,0,0,0,0,0,0,0,1,1,30.56,FLYING
30.78,APPROACH,ILS_TRACK,210.33,212,1.67,1997.19,0.49,4.34,4.22,270.39,-0.078,0.2924,20,270.4,0,0.39,-124.65,39.15,0.003,27.257,0,0,0,269.39,0,0,0,0,0,0,0,0,0,0,0,0,0,1,1,30.82,FLYING
31.04,APPROACH,ILS_TRACK,210.36,212,1.64,1997.31,0.49,4.34,4.22,270.39,-0.075,0.2926,20,270.4,0,0.37,-121.35,39.09,0.003,26.263,0,0,0,269.39,0,0,0,0,0,0,0,0,0,0,0,0,0,1,1,31.08,FLYING
31.3,APPROACH,ILS_TRACK,210.38,212,1.62,1997.44,0.5,4.34,4.22,270.39,-0.072,0.2927,20,270.41,0,0.35,-118.05,39.029,0.005,25.268,0,0,0,269.39,0,0,0,0,0,0,0,0,0,0,0,0,0,1,1,31.34,FLYING
31.6,APPROACH,ILS_TRACK,210.41,212,1.59,1997.59,0.5,4.34,4.22,270.39,-0.07,0.2926,20,270.4,0,0.33,-114.25,38.96,0.001,24.121,0,0,0,269.39,0,0,0,0,0,0,0,0,0,0,0,0,0,1,1,31.64,FLYING
31.86,APPROACH,ILS_TRACK,210.43,212,1.57,1997.72,0.51,4.34,4.21,270.4,-0.064,0.2927,20,270.4,0,0.32,-110.95,38.899,0.003,23.126,0,0,0,269.39,0,0,0,0,0,0,0,0,0,0,0,0,0,1,1,31.9,FLYING
32.12,APPROACH,ILS_TRACK,210.45,212,1.55,1997.85,0.51,4.34,4.21,270.4,-0.062,0.2929,20,270.4,0,0.3,-107.64,38.839,0.001,22.131,0,0,0,269.39,0,0,0,0,0,0,0,0,0,0,0,0,0,1,1,32.16,FLYING
32.38,APPROACH,ILS_TRACK,210.47,212,1.53,1997.98,0.51,4.34,4.21,270.4,-0.058,0.2928,20,270.4,0,0.29,-104.34,38.778,0.003,21.133,0,0,0,269.39,0,0,0,0,0,0,0,0,0,0,0,0,0,1,1,32.42,FLYING
32.68,APPROACH,ILS_TRACK,210.5,212,1.5,1998.14,0.52,4.33,4.21,270.4,-0.055,0.2924,20,270.4,0,0.27,-100.52,38.708,0.002,19.985,0,0,0,269.39,0,0,0,0,0,0,0,0,0,0,0,0,0,1,1,32.72,FLYING
32.94,APPROACH,ILS_TRACK,210.52,212,1.48,1998.27,0.52,4.33,4.21,270.4,-0.052,0.2922,20,270.41,0,0.25,-97.22,38.648,0.006,18.99,0,0,0,269.39,0,0,0,0,0,0,0,0,0,0,0,0,0,1,1,32.98,FLYING
33.2,APPROACH,ILS_TRACK,210.54,212,1.46,1998.4,0.53,4.33,4.2,270.4,-0.048,0.2919,20,270.4,0,0.25,-93.91,38.587,-0.004,17.995,0,0,0,269.39,0,0,0,0,0,0,0,0,0,0,0,0,0,1,1,33.24,FLYING
33.46,APPROACH,ILS_TRACK,210.55,212,1.45,1998.54,0.53,4.33,4.2,270.4,-0.039,0.2917,20,270.4,0,0.23,-90.6,38.526,0.004,17.002,0,0,0,269.39,0,0,0,0,0,0,0,0,0,0,0,0,0,1,1,33.5,FLYING
33.76,APPROACH,ILS_TRACK,210.57,212,1.43,1998.7,0.53,4.33,4.2,270.4,-0.037,0.2916,20,270.4,0,0.22,-86.78,38.457,-0.001,15.846,0,0,0,269.39,0,0,0,0,0,0,0,0,0,0,0,0,0,1,1,33.8,FLYING
34.02,APPROACH,ILS_TRACK,210.59,212,1.41,1998.83,0.53,4.33,4.2,270.4,-0.033,0.2913,20,270.4,0,0.21,-83.47,38.396,0.003,14.851,0,0,0,269.39,0,0,0,0,0,0,0,0,0,0,0,0,0,1,1,34.06,FLYING
34.28,APPROACH,ILS_TRACK,210.61,212,1.39,1998.97,0.53,4.33,4.2,270.4,-0.033,0.2911,20,270.4,0,0.2,-80.16,38.335,0.001,13.855,0,0,0,269.39,0,0,0,0,0,0,0,0,0,0,0,0,0,1,1,34.32,FLYING
34.54,APPROACH,ILS_TRACK,210.62,212,1.38,1999.11,0.54,4.33,4.2,270.4,-0.031,0.291,20,270.4,0,0.19,-76.84,38.275,0.001,12.858,0,0,0,269.39,0,0,0,0,0,0,0,0,0,0,0,0,0,1,1,34.58,FLYING
34.84,APPROACH,ILS_TRACK,210.64,212,1.36,1999.27,0.54,4.33,4.19,270.4,-0.03,0.2907,20,270.4,0,0.18,-73.02,38.205,0.002,11.709,0,0,0,269.39,0,0,0,0,0,0,0,0,0,0,0,0,0,1,1,34.88,FLYING
35.1,APPROACH,ILS_TRACK,210.66,212,1.34,1999.41,0.54,4.32,4.19,270.4,-0.03,0.2906,20,270.4,0,0.17,-69.7,38.144,0.003,10.713,0,0,0,269.39,0,0,0,0,0,0,0,0,0,0,0,0,0,1,1,35.14,FLYING
35.36,APPROACH,ILS_TRACK,210.67,212,1.33,1999.55,0.54,4.32,4.19,270.4,-0.03,0.2907,20,270.4,0,0.16,-66.39,38.084,0.001,9.714,0,0,0,269.39,0,0,0,0,0,0,0,0,0,0,0,0,0,1,1,35.4,FLYING
35.62,APPROACH,ILS_TRACK,210.68,211.58,0.9,1999.69,0.55,4.32,4.19,270.4,-0.027,0.2696,20,270.4,0,0.16,-63.07,38.023,-0.003,8.718,0,0,0,269.39,0,0,0,0,0,0,0,0,0,0,0,0,0,1,1,35.66,FLYING
35.92,APPROACH,ILS_TRACK,210.69,211.1,0.41,1999.85,0.55,4.32,4.19,270.4,-0.023,0.2461,20,270.4,0,0.15,-59.25,37.953,-0.001,7.568,0,0,0,269.39,0,0,0,0,0,0,0,0,0,0,0,0,0,1,1,35.96,FLYING
36.18,APPROACH,ILS_TRACK,210.7,210.69,-0.01,1999.99,0.55,4.32,4.19,270.4,-0.022,0.2274,19.998,270.4,0,0.15,-55.93,37.893,0.002,6.571,0,0,0,269.39,0,0,0,0,0,0,0,0,0,0,0,0,0,1,1,36.22,FLYING
36.44,APPROACH,ILS_TRACK,210.68,210.27,-0.41,2000.13,0.55,4.32,4.19,270.4,-0.021,0.2106,19.891,270.4,0,0.14,-52.61,37.832,0.001,5.574,0,0,0,269.39,0,0,0,0,0,0,0,0,0,0,0,0,0,1,1,36.48,FLYING
36.7,APPROACH,ILS_TRACK,210.64,209.86,-0.79,2000.28,0.55,4.33,4.19,270.4,-0.018,0.1968,19.684,270.4,0,0.14,-49.29,37.771,-0.003,4.577,0,0,0,269.39,0,0,0,0,0,0,0,0,0,0,0,0,0,1,1,36.74,FLYING
37,APPROACH,ILS_TRACK,210.57,209.38,-1.19,2000.44,0.55,4.34,4.2,270.4,-0.011,0.1834,19.322,270.4,0,0.13,-45.46,37.701,0.004,3.428,0,0,0,269.39,0,0,0,0,0,0,0,0,0,0,0,0,0,1,1,37.04,FLYING
37.26,APPROACH,ILS_TRACK,210.47,208.96,-1.51,2000.58,0.61,4.33,4.2,270.4,-0.011,0.1775,18.924,270.4,-0.565,0.12,-42.14,37.641,0,2.435,0,0,0,269.39,0,0,0,0,0,0,0,0,0,0,0,0,0,1,1,37.3,FLYING
37.52,APPROACH,ILS_TRACK,210.38,208.54,-1.84,2000.52,0.88,3.4,3.3,270.4,-0.009,0.1689,18.443,270.4,-1.223,0.11,-38.93,37.58,0.001,1.777,0,0,0,269.39,0,0,0,0,0,0,0,0,0,0,0,0,0,1,1,37.56,FLYING
37.78,APPROACH,ILS_TRACK,210.34,208.13,-2.21,2000.24,0.33,1.83,1.84,270.4,-0.016,0.1447,17.866,270.4,-1.314,0.11,-35.97,37.52,0.001,1.686,0,0,0,269.39,0,0,0,0,0,0,0,0,0,0,0,0,0,1,1,37.82,FLYING
38.08,APPROACH,ILS_TRACK,210.21,207.65,-2.56,1999.85,-1.05,0.89,1.14,270.4,-0.017,0.1279,17.091,270.4,-1.935,0.11,-32.69,37.45,-0.001,1.065,0,0,0,269.39,0,0,0,0,0,0,0,0,0,0,0,0,0,1,1,38.12,FLYING
38.34,APPROACH,ILS_TRACK,210.06,207.23,-2.83,1999.46,-1.96,0.97,1.44,270.4,-0.006,0.1267,16.352,270.4,-2.725,0.1,-29.87,37.39,0.002,0.275,0,0,0,269.39,0,0,0,0,0,0,0,0,0,0,0,0,0,1,1,38.38,FLYING
38.6,APPROACH,ILS_TRACK,210.02,206.82,-3.2,1998.65,-2.48,0.15,0.83,270.4,-0.005,0.0931,15.518,270.4,-2.668,0.1,-27.31,37.329,-0.002,0.332,0,0,0,269.39,0,0,0,0,0,0,0,0,0,0,0,0,0,1,1,38.64,FLYING
38.86,APPROACH,ILS_TRACK,209.95,206.4,-3.55,1997.52,-3.83,-0.91,0.06,270.4,-0.002,0.0606,14.59,270.4,-1.976,0.09,-25.19,37.269,0.003,1.024,0,0,0,269.39,0,0,0,0,0,0,0,0,0,0,0,0,0,1,1,38.9,FLYING
39.16,APPROACH,ILS_TRACK,209.71,205.92,-3.79,1996.07,-5.64,-0.96,0.36,270.4,-0.011,0.0574,13.44,270.4,-2.075,0.09,-22.95,37.199,-0.002,0.925,0,0,0,269.39,0,0,0,0,0,0,0,0,0,0,0,0,0,1,1,39.2,FLYING
39.42,APPROACH,ILS_TRACK,209.4,205.5,-3.89,1994.77,-6.85,0.26,1.81,270.4,-0.005,0.0804,12.415,270.4,-2.417,0.08,-21.09,37.139,0.004,0.583,0,0,0,269.39,0,0,0,0,0,0,0,0,0,0,0,0,0,1,1,39.46,FLYING
39.68,APPROACH,ILS_TRACK,209.15,205.09,-4.06,1993.23,-6.93,1.17,2.86,270.4,-0.007,0.0854,11.35,270.4,-2.607,0.08,-19.33,37.079,-0.002,0.393,0,0,0,269.39,0,0,0,0,0,0,0,0,0,0,0,0,0,1,1,39.72,FLYING
39.94,APPROACH,ILS_TRACK,208.91,204.67,-4.24,1991.3,-7.17,0.78,2.58,270.4,-0.002,0.0775,10.238,270.41,-1.761,0.07,-17.98,37.018,0.005,1.239,0,0,0,269.39,0,0,0,0,0,0,0,0,0,0,0,0,0,1,1,39.98,FLYING
40.24,APPROACH,ILS_TRACK,208.53,204.19,-4.34,1988.96,-8.02,0.56,2.51,270.4,-0.006,0.0818,8.92,270.4,-1.447,0.07,-16.68,36.949,0,1.553,0,0,0,269.39,0,0,0,0,0,0,0,0,0,0,0,0,0,1,1,40.28,FLYING
40.5,APPROACH,ILS_TRACK,208.08,203.78,-4.31,1986.98,-8.7,1.29,3.34,270.4,-0.006,0.1131,7.781,270.4,-1.821,0.06,-15.55,36.889,0,1.179,0,0,0,269.39,0,0,0,0,0,0,0,0,0,0,0,0,0,1,1,40.54,FLYING
40.76,APPROACH,ILS_TRACK,207.63,203.36,-4.27,1985.01,-8.6,2.28,4.38,270.4,0.002,0.1437,6.655,270.4,-2.356,0.06,-14.36,36.829,0.002,0.644,0,0,0,269.39,0,0,0,0,0,0,0,0,0,0,0,0,0,1,1,40.8,FLYING
41.02,APPROACH,ILS_TRACK,207.2,202.94,-4.26,1982.78,-8.31,2.14,4.24,270.4,-0.002,0.1553,5.53,270.4,-2.067,0.05,-13.36,36.77,0.005,0.933,0,0,0,269.39,0,0,0,0,0,0,0,0,0,0,0,0,0,1,1,41.06,FLYING
41.32,APPROACH,ILS_TRACK,206.68,202.46,-4.22,1980.18,-8.59,1.88,4.01,270.4,-0.006,0.1664,4.242,270.4,-1.886,0.05,-12.39,36.701,-0.001,1.114,0,0,0,269.39,0,0,0,0,0,0,0,0,0,0,0,0,0,1,1,41.36,FLYING
41.58,APPROACH,ILS_TRACK,206.16,202.05,-4.11,1978.05,-8.8,2.38,4.53,270.4,-0.002,0.1909,3.152,270.4,-2.43,0.05,-11.45,36.642,0.002,0.57,0,0,0,269.39,0,0,0,0,0,0,0,0,0,0,0,0,0,1,1,41.62,FLYING
41.84,APPROACH,ILS_TRACK,205.7,201.63,-4.07,1975.8,-8.34,2.3,4.45,270.4,0.001,0.1994,2.076,270.4,-2.775,0.04,-10.5,36.582,0.001,0.225,0,0,0,269.39,0,0,0,0,0,0,0,0,0,0,0,0,0,1,1,41.88,FLYING
42.1,APPROACH,ILS_TRACK,205.31,201.22,-4.1,1973.34,-8.42,1.25,3.44,270.4,-0.005,0.1858,0.996,270.4,-2.201,0.04,-9.81,36.523,0.003,0.799,0,0,0,269.39,0,0,0,0,0,0,0,0,0,0,0,0,0,1,1,42.14,FLYING
42.4,APPROACH,ILS_TRACK,204.87,200.74,-4.14,1970.48,-9.18,0.51,2.82,270.4,-0.008,0.1646,-0.263,270.4,-2.123,0.04,-9.11,36.455,0.002,0.877,0,0,0,269.39,0,0,0,0,0,0,0,0,0,0,0,0,0,1,1,42.44,FLYING
42.66,APPROACH,ILS_TRACK,204.45,200.32,-4.13,1968.09,-9.91,0.86,3.28,270.4,-0.009,0.156,-1.355,270.4,-2.493,0.03,-8.45,36.396,0.004,0.507,0,0,0,269.39,0,0,0,0,0,0,0,0,0,0,0,0,0,1,1,42.7,FLYING
42.92,APPROACH,ILS_TRACK,204.04,200,-4.04,1965.73,-10.01,1.75,4.24,270.4,-0.002,0.1531,-2.42,270.4,-2.97,0.03,-7.71,36.337,0.002,0.03,0,0,0,269.39,0,0,0,0,0,0,0,0,0,0,0,0,0,1,1,42.96,FLYING
43.18,APPROACH,ILS_TRACK,203.71,200,-3.71,1963.11,-9.8,1.53,4.05,270.4,-0.006,0.1457,-3.398,270.4,-2.595,0.03,-7.14,36.279,-0.001,0.405,0,0,0,269.39,0,0,0,0,0,0,0,0,0,0,0,0,0,1,1,43.22,FLYING
43.48,APPROACH,ILS_TRACK,203.31,200,-3.31,1960,-10.23,1.14,3.73,270.4,-0.011,0.1441,-4.408,270.4,-2.115,0.02,-6.72,36.211,0.005,0.885,0,0,0,269.39,0,0,0,0,0,0,0,0,0,0,0,0,0,1,1,43.52,FLYING
43.74,APPROACH,ILS_TRACK,202.89,200,-2.89,1957.39,-10.68,1.56,4.2,270.4,-0.014,0.1607,-5.176,270.4,-2.386,0.02,-6.31,36.153,0.001,0.614,0,0,0,269.39,0,0,0,0,0,0,0,0,0,0,0,0,0,1,1,43.78,FLYING
44,APPROACH,ILS_TRACK,202.47,200,-2.47,1954.83,-10.51,2.27,4.93,270.4,-0.006,0.1829,-5.834,270.4,-2.834,0.01,-5.79,36.094,0.003,0.166,0,0,0,269.39,0,0,0,0,0,0,0,0,0,0,0,0,0,1,1,44.04,FLYING
44.26,APPROACH,ILS_TRACK,202.1,200,-2.1,1952.08,-10.26,2.03,4.67,270.4,-0.01,0.1899,-6.395,270.4,-2.505,0.01,-5.43,36.036,0.004,0.495,0,0,0,269.39,0,0,0,0,0,0,0,0,0,0,0,0,0,1,1,44.3,FLYING
44.56,APPROACH,ILS_TRACK,201.65,200,-1.65,1948.91,-10.52,1.85,4.52,270.4,-0.012,0.2041,-6.91,270.4,-2.308,0,-5.11,35.969,0.004,0.692,0,0,0,269.39,0,0,0,0,0,0,0,0,0,0,0,0,0,1,1,44.6,FLYING
44.82,APPROACH,ILS_TRACK,201.21,200,-1.21,1946.31,-10.65,2.42,5.1,270.4,-0.01,0.2316,-7.243,270.4,-2.762,0.01,-4.73,35.911,-0.001,0.238,0,0,0,269.39,0,0,0,0,0,0,0,0,0,0,0,0,0,1,1,44.86,FLYING
45.08,APPROACH,ILS_TRACK,200.82,200,-0.82,1943.6,-10.16,2.38,5.04,270.4,-0.008,0.2493,-7.471,270.41,-2.967,0,-4.32,35.853,0.005,0.033,0,0,0,269.39,0,0,0,0,0,0,0,0,0,0,0,0,0,1,1,45.12,FLYING
45.34,APPROACH,ILS_TRACK,200.49,200,-0.49,1940.78,-10.23,1.73,4.4,270.4,-0.012,0.2524,-7.613,270.4,-2.433,0,-4.1,35.796,0,0.567,0,0,0,269.39,0,0,0,0,0,0,0,0,0,0,0,0,0,1,1,45.38,FLYING
45.64,APPROACH,ILS_TRACK,200.1,200,-0.1,1937.6,-10.67,1.61,4.32,270.4,-0.011,0.2618,-7.659,270.4,-2.562,0,-3.83,35.729,0.005,0.438,0,0,0,269.39,0,0,0,0,0,0,0,0,0,0,0,0,0,1,1,45.68,FLYING
45.9,APPROACH,ILS_TRACK,199.75,200,0.25,1934.96,-10.71,2.16,4.91,270.4,-0.006,0.2766,-7.607,270.4,-3.05,0,-3.48,35.671,0,-0.05,0,0,0,269.39,0,0,0,0,0,0,0,0,0,0,0,0,0,1,1,45.94,FLYING
46.16,APPROACH,ILS_TRACK,199.49,200,0.51,1932.15,-10.51,1.91,4.66,270.4,-0.006,0.2722,-7.484,270.4,-2.884,0,-3.2,35.614,-0.001,0.116,0,0,0,269.39,0,0,0,0,0,0,0,0,0,0,0,0,0,1,1,46.2,FLYING
46.42,APPROACH,ILS_TRACK,199.24,200,0.76,1929.32,-10.78,1.7,4.47,270.4,-0.008,0.2658,-7.298,270.41,-2.576,-0.01,-3.04,35.557,0.006,0.424,0,0,0,269.39,0,0,0,0,0,0,0,0,0,0,0,0,0,1,1,46.46,FLYING
46.72,APPROACH,ILS_TRACK,198.91,200,1.09,1926.19,-10.95,2.23,5.04,270.4,-0.005,0.2775,-6.984,270.4,-2.949,-0.01,-2.75,35.49,0.001,0.051,0,0,0,269.39,0,0,0,0,0,0,0,0,0,0,0,0,0,1,1,46.76,FLYING
46.98,APPROACH,ILS_TRACK,198.7,200,1.3,1923.36,-10.73,2.16,4.95,270.4,-0.006,0.2751,-6.653,270.4,-2.987,-0.01,-2.51,35.433,0.003,0.013,0,0,0,269.39,0,0,0,0,0,0,0,0,0,0,0,0,0,1,1,47.02,FLYING
47.24,APPROACH,ILS_TRACK,198.48,200,1.52,1920.55,-10.91,2.14,4.95,270.4,-0.008,0.2712,-6.268,270.4,-2.762,-0.02,-2.36,35.376,0.004,0.238,0,0,0,269.39,0,0,0,0,0,0,0,0,0,0,0,0,0,1,1,47.28,FLYING
47.5,APPROACH,ILS_TRACK,198.27,200,1.73,1917.77,-10.76,2.3,5.11,270.4,-0.001,0.2757,-5.826,270.4,-3.041,-0.01,-2.14,35.319,-0.002,-0.041,0,0,0,269.39,0,0,0,0,0,0,0,0,0,0,0,0,0,1,1,47.54,FLYING
47.8,APPROACH,ILS_TRACK,198.09,200,1.91,1914.46,-10.78,1.98,4.79,270.4,0.002,0.2693,-5.262,270.4,-2.843,-0.02,-1.98,35.253,0.004,0.157,0,0,0,269.39,0,0,0,0,0,0,0,0,0,0,0,0,0,1,1,47.84,FLYING
48.06,APPROACH,ILS_TRACK,197.91,200,2.09,1911.67,-10.98,2.15,4.98,270.4,0.003,0.2714,-4.726,270.4,-2.933,-0.02,-1.82,35.196,0,0.067,0,0,0,269.39,0,0,0,0,0,0,0,0,0,0,0,0,0,1,1,48.1,FLYING
48.32,APPROACH,ILS_TRACK,197.77,200,2.23,1908.87,-10.82,2.25,5.09,270.4,0.006,0.271,-4.15,270.4,-3.152,-0.02,-1.61,35.139,0.003,-0.152,0,0,0,269.39,0,0,0,0,0,0,0,0,0,0,0,0,0,1,1,48.36,FLYING
48.58,APPROACH,ILS_TRACK,197.66,200,2.34,1905.95,-10.8,1.85,4.69,270.4,0.002,0.2624,-3.546,270.4,-2.876,-0.02,-1.51,35.082,-0.001,0.124,0,0,0,269.39,0,0,0,0,0,0,0,0,0,0,0,0,0,1,1,48.62,FLYING
48.88,APPROACH,ILS_TRACK,197.52,200,2.48,1902.65,-11.19,1.84,4.72,270.4,0,0.2629,-2.808,270.4,-2.826,-0.02,-1.41,35.017,0.005,0.174,0,0,0,269.39,0,0,0,0,0,0,0,0,0,0,0,0,0,1,1,48.92,FLYING
49.14,APPROACH,ILS_TRACK,197.39,200,2.61,1899.85,-11.08,2.22,5.11,270.4,0.004,0.2706,-2.132,270.4,-3.199,-0.02,-1.23,34.96,0,-0.199,0,0,0,269.39,0,0,0,0,0,0,0,0,0,0,0,0,0,1,1,49.18,FLYING
49.4,APPROACH,ILS_TRACK,197.32,200,2.68,1896.9,-10.98,1.87,4.76,270.4,0.003,0.2634,-1.437,270.4,-2.892,-0.02,-1.15,34.903,0.001,0.108,0,0,0,269.39,0,0,0,0,0,0,0,0,0,0,0,0,0,1,1,49.44,FLYING
49.66,APPROACH,ILS_TRACK,197.24,200,2.76,1893.97,-11.29,1.74,4.67,270.4,0.001,0.2605,-0.722,270.4,-2.697,-0.02,-1.14,34.846,0.001,0.303,0,0,0,269.39,0,0,0,0,0,0,0,0,0,0,0,0,0,1,1,49.7,FLYING
49.96,APPROACH,ILS_TRACK,197.1,200,2.9,1890.71,-11.32,2.3,5.25,270.4,0.006,0.2749,0.144,270.4,-3.084,-0.02,-1,34.781,0.003,-0.084,0,0,0,269.39,0,0,0,0,0,0,0,0,0,0,0,0,0,1,1,50,FLYING
50.22,APPROACH,ILS_TRACK,197.04,200,2.96,1887.75,-11.14,2.11,5.04,270.4,0.002,0.2743,0.912,270.4,-2.931,-0.03,-0.93,34.724,0.003,0.069,0,0,0,269.39,0,0,0,0,0,0,0,0,0,0,0,0,0,1,1,50.26,FLYING
50.48,APPROACH,ILS_TRACK,196.97,200,3.03,1884.82,-11.36,2.08,5.02,270.4,-0.001,0.2756,1.696,270.4,-2.732,-0.03,-0.92,34.668,0,0.268,0,0,0,269.39,0,0,0,0,0,0,0,0,0,0,0,0,0,1,1,50.52,FLYING
50.74,APPROACH,ILS_TRACK,196.88,200,3.12,1881.96,-11.21,2.38,5.32,270.4,0.006,0.2874,2.505,270.4,-3.063,-0.02,-0.82,34.611,0,-0.063,0,0,0,269.39,0,0,0,0,0,0,0,0,0,0,0,0,0,1,1,50.78,FLYING
51.04,APPROACH,ILS_TRACK,196.85,200,3.15,1878.53,-11.17,2.07,5,270.4,0.002,0.2869,3.45,270.4,-2.83,-0.03,-0.8,34.546,0.004,0.17,0,0,0,269.39,0,0,0,0,0,0,0,0,0,0,0,0,0,1,1,51.08,FLYING
51.3,APPROACH,ILS_TRACK,196.78,200,3.22,1875.64,-11.33,2.22,5.17,270.4,0.003,0.2925,4.283,270.4,-2.861,-0.03,-0.77,34.489,0.001,0.139,0,0,0,269.39,0,0,0,0,0,0,0,0,0,0,0,0,0,1,1,51.34,FLYING
51.56,APPROACH,ILS_TRACK,196.76,200,3.24,1872.73,-11.17,2.28,5.22,270.4,0.004,0.2952,5.125,270.4,-3.051,-0.03,-0.68,34.433,0.004,-0.051,0,0,0,269.39,0,0,0,0,0,0,0,0,0,0,0,0,0,1,1,51.6,FLYING
51.82,APPROACH,ILS_TRACK,196.76,200,3.24,1869.8,-11.23,2.17,5.1,270.4,0.001,0.2911,5.968,270.4,-2.886,-0.03,-0.66,34.376,0.002,0.114,0,0,0,269.39,0,0,0,0,0,0,0,0,0,0,0,0,0,1,1,51.86,FLYING
52.12,APPROACH,ILS_TRACK,196.74,200,3.26,1866.46,-11.15,2.26,5.2,270.4,0.004,0.2961,6.947,270.4,-3.026,-0.03,-0.58,34.311,0,-0.026,0,0,0,269.39,0,0,0,0,0,0,0,0,0,0,0,0,0,1,1,52.16,FLYING
52.38,APPROACH,ILS_TRACK,196.76,200,3.24,1863.54,-11.23,2.22,5.15,270.4,0.001,0.2916,7.79,270.4,-2.953,-0.03,-0.54,34.254,0.003,0.047,0,0,0,269.39,0,0,0,0,0,0,0,0,0,0,0,0,0,1,1,52.42,FLYING
52.64,APPROACH,ILS_TRACK,196.77,200,3.23,1860.64,-11.12,2.25,5.17,270.4,0.003,0.2927,8.632,270.4,-3.065,-0.03,-0.48,34.198,0.001,-0.065,0,0,0,269.39,0,0,0,0,0,0,0,0,0,0,0,0,0,1,1,52.68,FLYING
52.9,APPROACH,ILS_TRACK,196.81,200,3.19,1857.72,-11.21,2.16,5.09,270.4,0,0.2881,9.463,270.4,-2.981,-0.03,-0.44,34.141,0.002,0.019,0,0,0,269.39,0,0,0,0,0,0,0,0,0,0,0,0,0,1,1,52.94,FLYING
53.2,APPROACH,ILS_TRACK,196.84,200,3.16,1854.38,-11.11,2.22,5.15,270.4,0.003,0.2908,10.415,270.4,-3.113,-0.03,-0.36,34.076,0.002,-0.113,0,0,0,269.39,0,0,0,0,0,0,0,0,0,0,0,0,0,1,1,53.24,FLYING
53.46,APPROACH,ILS_TRACK,196.89,200,3.11,1851.44,-11.18,2.06,4.99,270.4,0,0.2848,11.224,270.4,-2.996,-0.03,-0.33,34.02,0.001,0.004,0,0,0,269.39,0,0,0,0,0,0,0,0,0,0,0,0,0,1,1,53.5,FLYING
53.72,APPROACH,ILS_TRACK,196.92,200,3.08,1848.56,-11.15,2.18,5.12,270.4,0.003,0.2883,12.025,270.4,-3.129,-0.04,-0.26,33.963,0.003,-0.129,0,0,0,269.39,0,0,0,0,0,0,0,0,0,0,0,0,0,1,1,53.76,FLYING
53.98,APPROACH,ILS_TRACK,197,200,3,1845.61,-11.2,2,4.94,270.4,0.001,0.2825,12.809,270.4,-3.028,-0.03,-0.23,33.907,0.001,-0.028,0,0,0,269.39,0,0,0,0,0,0,0,0,0,0,0,0,0,1,1,54.02,FLYING
54.28,APPROACH,ILS_TRACK,197.05,200,2.95,1842.27,-11.2,2.15,5.09,270.4,0.004,0.2859,13.696,270.4,-3.127,-0.04,-0.16,33.841,0.003,-0.127,0,0,0,269.39,0,0,0,0,0,0,0,0,0,0,0,0,0,1,1,54.32,FLYING
54.54,APPROACH,ILS_TRACK,197.14,200,2.86,1839.33,-11.27,2.02,4.96,270.4,0.001,0.2798,14.443,270.4,-3.039,-0.04,-0.14,33.785,0.001,-0.039,0,0,0,269.39,0,0,0,0,0,0,0,0,0,0,0,0,0,1,1,54.58,FLYING
54.8,APPROACH,ILS_TRACK,197.19,200,2.81,1836.42,-11.22,2.13,5.08,270.4,0.004,0.2822,15.176,270.4,-3.135,-0.04,-0.08,33.728,0.002,-0.135,0,0,0,269.39,0,0,0,0,0,0,0,0,0,0,0,0,0,1,1,54.84,FLYING
55.06,APPROACH,ILS_TRACK,197.29,200,2.71,1833.46,-11.3,2,4.96,270.4,0.001,0.2764,15.884,270.4,-3.029,-0.04,-0.07,33.672,0.004,-0.029,0,0,0,269.39,0,0,0,0,0,0,0,0,0,0,0,0,0,1,1,55.1,FLYING
55.36,APPROACH,ILS_TRACK,197.36,200,2.64,1830.1,-11.23,2.12,5.08,270.4,0.004,0.2798,16.679,270.4,-3.142,-0.04,-0.01,33.607,0.002,-0.142,0,0,0,269.39,0,0,0,0,0,0,0,0,0,0,0,0,0,1,1,55.4,FLYING
55.62,APPROACH,ILS_TRACK,197.47,200,2.53,1827.13,-11.33,1.97,4.93,270.4,0,0.2736,17.341,270.4,-3.008,-0.04,-0.01,33.55,0.003,-0.008,0,0,0,269.39,0,0,0,0,0,0,0,0,0,0,0,0,0,1,1,55.66,FLYING
55.88,APPROACH,ILS_TRACK,197.53,200,2.47,1824.22,-11.28,2.1,5.07,270.4,0.003,0.2776,17.986,270.4,-3.136,-0.04,0.03,33.493,0,-0.136,0,0,0,269.39,0,0,0,0,0,0,0,0,0,0,0,0,0,1,1,55.92,FLYING
56.14,APPROACH,ILS_TRACK,197.64,200,2.36,1821.24,-11.35,1.96,4.93,270.4,0.001,0.2723,18.605,270.4,-3.028,-0.04,0.04,33.437,0.001,-0.028,0,0,0,269.39,0,0,0,0,0,0,0,0,0,0,0,0,0,1,1,56.18,FLYING
56.44,APPROACH,ILS_TRACK,197.73,200,2.27,1817.86,-11.3,2.08,5.05,270.4,0.003,0.2755,19.292,270.4,-3.128,-0.04,0.08,33.371,0.001,-0.128,0,0,0,269.39,0,0,0,0,0,0,0,0,0,0,0,0,0,1,1,56.48,FLYING
56.7,APPROACH,ILS_TRACK,197.83,200,2.17,1814.89,-11.39,1.98,4.95,270.4,0,0.27,19.858,270.4,-3.021,-0.04,0.08,33.315,0.002,-0.021,0,0,0,269.39,0,0,0,0,0,0,0,0,0,0,0,0,0,1,1,56.74,FLYING
56.96,APPROACH,ILS_TRACK,197.91,200,2.09,1811.96,-11.31,2.07,5.04,270.4,0.003,0.2685,20,270.4,-3.136,-0.04,0.11,33.258,0.001,-0.136,0,0,0,269.39,0,0,0,0,0,0,0,0,0,0,0,0,0,1,1,57,FLYING
57.22,APPROACH,ILS_TRACK,198.02,200,1.98,1808.98,-11.39,1.94,4.91,270.4,0,0.257,20,270.41,-3.014,-0.04,0.1,33.201,0.007,-0.014,0,0,0,269.39,0,0,0,0,0,0,0,0,0,0,0,0,0,1,1,57.26,FLYING
57.52,APPROACH,ILS_TRACK,198.12,200,1.88,1805.59,-11.33,2.06,5.03,270.4,0.003,0.2537,20,270.4,-3.135,-0.04,0.14,33.136,-0.002,-0.135,0,0,0,269.39,0,0,0,0,0,0,0,0,0,0,0,0,0,1,1,57.56,FLYING
57.78,APPROACH,ILS_TRACK,198.22,200,1.78,1802.6,-11.4,1.92,4.9,270.4,0.004,0.2436,20,270.4,-3.013,-0.04,0.13,33.079,0.001,-0.013,0,0,0,269.39,0,0,0,0,0,0,0,0,0,0,0,0,0,1,1,57.82,FLYING
58.04,APPROACH,ILS_TRACK,198.29,200,1.71,1799.66,-11.34,2.03,5.01,270.4,0.006,0.2445,20,270.4,-3.134,-0.04,0.16,33.023,0.005,-0.134,0,0,0,269.39,0,0,0,0,0,0,0,0,0,0,0,0,0,1,1,58.08,FLYING
58.3,APPROACH,ILS_TRACK,198.38,200,1.62,1796.68,-11.43,1.92,4.9,270.4,0.002,0.238,20,270.4,-3.023,-0.04,0.15,32.966,0.003,-0.023,0,0,0,269.39,0,0,0,0,0,0,0,0,0,0,0,0,0,1,1,58.34,FLYING
58.6,APPROACH,ILS_TRACK,198.45,200,1.55,1793.28,-11.35,2.02,5,270.4,0.006,0.2401,20,270.4,-3.136,-0.04,0.18,32.9,-0.002,-0.136,0,0,0,269.39,0,0,0,0,0,0,0,0,0,0,0,0,0,1,1,58.64,FLYING
58.86,APPROACH,ILS_TRACK,198.53,200,1.47,1790.29,-11.44,1.91,4.88,270.4,0.004,0.2361,20,270.41,-3.008,-0.04,0.17,32.844,0.006,-0.008,0,0,0,269.39,0,0,0,0,0,0,0,0,0,0,0,0,0,1,1,58.9,FLYING
59.12,APPROACH,ILS_TRACK,198.57,200,1.43,1787.34,-11.37,2.01,4.99,270.4,0.006,0.2423,20,270.4,-3.135,-0.04,0.19,32.787,0,-0.135,0,0,0,269.39,0,0,0,0,0,0,0,0,0,0,0,0,0,1,1,59.16,FLYING
59.38,APPROACH,ILS_TRACK,198.63,200,1.37,1784.35,-11.45,1.91,4.89,270.4,0.002,0.2405,20,270.4,-3.026,-0.04,0.18,32.73,0.002,-0.026,0,0,0,269.39,0,0,0,0,0,0,0,0,0,0,0,0,0,1,1,59.42,FLYING
59.68,APPROACH,ILS_TRACK,198.67,200,1.33,1780.95,-11.37,2,4.99,270.4,0.005,0.2465,20,270.4,-3.133,-0.05,0.21,32.665,0.004,-0.133,0,0,0,269.39,0,0,0,0,0,0,0,0,0,0,0,0,0,1,1,59.72,FLYING
59.94,APPROACH,ILS_TRACK,198.72,200,1.28,1777.96,-11.46,1.91,4.89,270.4,0,0.2453,20,270.4,-3.013,-0.04,0.19,32.608,0,-0.013,0,0,0,269.39,0,0,0,0,0,0,0,0,0,0,0,0,0,1,1,59.98,FLYING
60.2,APPROACH,ILS_TRACK,198.74,200,1.26,1775.01,-11.37,2,4.98,270.4,0.004,0.2526,20,270.4,-3.139,-0.04,0.22,32.551,0.001,-0.139,0,0,0,269.39,0,0,0,0,0,0,0,0,0,0,0,0,0,1,1,60.24,FLYING
60.46,APPROACH,ILS_TRACK,198.79,200,1.21,1772.01,-11.45,1.88,4.86,270.4,0.001,0.2505,20,270.4,-3.011,-0.04,0.2,32.494,0.002,-0.011,0,0,0,269.39,0,0,0,0,0,0,0,0,0,0,0,0,0,1,1,60.5,FLYING
60.76,APPROACH,ILS_TRACK,198.81,200,1.19,1768.61,-11.38,1.99,4.97,270.4,0.004,0.2566,20,270.4,-3.133,-0.04,0.23,32.429,0.001,-0.133,0,0,0,269.39,0,0,0,0,0,0,0,0,0,0,0,0,0,1,1,60.8,FLYING
61.02,APPROACH,ILS_TRACK,198.85,200,1.15,1765.61,-11.47,1.89,4.87,270.4,0,0.2532,20,270.4,-3.011,-0.04,0.21,32.372,0.002,-0.011,0,0,0,269.39,0,0,0,0,0,0,0,0,0,0,0,0,0,1,1,61.06,FLYING
61.28,APPROACH,ILS_TRACK,198.87,200,1.13,1762.66,-11.39,1.99,4.97,270.4,0.004,0.2581,20,270.4,-3.133,-0.05,0.23,32.315,0.004,-0.133,0,0,0,269.39,0,0,0,0,0,0,0,0,0,0,0,0,0,1,1,61.32,FLYING
61.54,APPROACH,ILS_TRACK,198.92,200,1.08,1759.66,-11.46,1.88,4.86,270.4,0,0.2536,20,270.4,-3.013,-0.04,0.21,32.259,-0.002,-0.013,0,0,0,269.39,0,0,0,0,0,0,0,0,0,0,0,0,0,1,1,61.58,FLYING
61.84,APPROACH,ILS_TRACK,198.95,200,1.05,1756.25,-11.38,1.97,4.96,270.4,0.003,0.2567,20,270.4,-3.127,-0.04,0.23,32.193,0.004,-0.127,0,0,0,269.39,0,0,0,0,0,0,0,0,0,0,0,0,0,1,1,61.88,FLYING
62.1,APPROACH,ILS_TRACK,199,200,1,1753.27,-11.48,1.9,4.88,270.4,0,0.2515,20,270.4,-3.016,-0.04,0.22,32.136,-0.001,-0.016,0,0,0,269.39,0,0,0,0,0,0,0,0,0,0,0,0,0,1,1,62.14,FLYING
62.36,APPROACH,ILS_TRACK,199.02,200,0.98,1750.31,-11.38,1.97,4.95,270.4,0.004,0.254,20,270.4,-3.135,-0.04,0.24,32.079,0.001,-0.135,0,0,0,269.39,0,0,0,0,0,0,0,0,0,0,0,0,0,1,1,62.4,FLYING
62.62,APPROACH,ILS_TRACK,199.07,200,0.93,1747.31,-11.47,1.86,4.84,270.4,0.002,0.2482,20,270.4,-3.009,-0.04,0.22,32.023,0.002,-0.009,0,0,0,269.39,0,0,0,0,0,0,0,0,0,0,0,0,0,1,1,62.66,FLYING
62.92,APPROACH,ILS_TRACK,199.1,200,0.9,1743.9,-11.38,1.96,4.94,270.4,0.004,0.2506,20,270.4,-3.136,-0.04,0.24,31.957,0.001,-0.136,0,0,0,269.39,0,0,0,0,0,0,0,0,0,0,0,0,0,1,1,62.96,FLYING
63.18,APPROACH,ILS_TRACK,199.15,200,0.85,1740.91,-11.47,1.86,4.84,270.4,0.002,0.2449,20,270.4,-3.011,-0.04,0.23,31.9,0.002,-0.011,0,0,0,269.39,0,0,0,0,0,0,0,0,0,0,0,0,0,1,1,63.22,FLYING
63.44,APPROACH,ILS_TRACK,199.16,200,0.84,1737.96,-11.37,1.95,4.93,270.4,0.004,0.2492,20,270.4,-3.145,-0.04,0.25,31.844,0,-0.145,0,0,0,269.39,0,0,0,0,0,0,0,0,0,0,0,0,0,1,1,63.48,FLYING
63.7,APPROACH,ILS_TRACK,199.21,200,0.79,1734.96,-11.47,1.83,4.81,270.4,0.002,0.244,20,270.4,-3,-0.04,0.23,31.787,0,0,0,0,0,269.39,0,0,0,0,0,0,0,0,0,0,0,0,0,1,1,63.74,FLYING
64,APPROACH,ILS_TRACK,199.23,200,0.77,1731.55,-11.39,1.95,4.94,270.4,0.005,0.2474,20,270.4,-3.135,-0.04,0.25,31.721,0.001,-0.135,0,0,0,269.39,0,0,0,0,0,0,0,0,0,0,0,0,0,1,1,64.04,FLYING
64.26,APPROACH,ILS_TRACK,199.27,200,0.73,1728.55,-11.47,1.84,4.82,270.4,0.002,0.2422,20,270.4,-3.01,-0.04,0.23,31.665,0.002,-0.01,0,0,0,269.39,0,0,0,0,0,0,0,0,0,0,0,0,0,1,1,64.3,FLYING
64.52,APPROACH,ILS_TRACK,199.28,200,0.72,1725.6,-11.4,1.94,4.93,270.4,0.004,0.2467,20,270.4,-3.124,-0.04,0.25,31.608,0,-0.124,0,0,0,269.39,0,0,0,0,0,0,0,0,0,0,0,0,0,1,1,64.56,FLYING
64.78,APPROACH,ILS_TRACK,199.32,200,0.68,1722.61,-11.49,1.86,4.85,270.4,0.002,0.2427,20,270.4,-3.023,-0.04,0.23,31.551,0.001,-0.023,0,0,0,269.39,0,0,0,0,0,0,0,0,0,0,0,0,0,1,1,64.82,FLYING
65.08,APPROACH,ILS_TRACK,199.34,200,0.66,1719.19,-11.39,1.94,4.93,270.4,0.005,0.2456,20,270.4,-3.121,-0.03,0.25,31.486,-0.001,-0.121,0,0,0,269.39,0,0,0,0,0,0,0,0,0,0,0,0,0,1,1,65.12,FLYING
65.34,APPROACH,ILS_TRACK,199.37,200,0.63,1716.2,-11.49,1.87,4.86,270.4,0.004,0.2424,20,270.4,-3.019,-0.03,0.23,31.429,0.001,-0.019,0,0,0,269.39,0,0,0,0,0,0,0,0,0,0,0,0,0,1,1,65.38,FLYING
65.6,APPROACH,ILS_TRACK,199.38,200,0.62,1713.24,-11.38,1.93,4.92,270.4,0.006,0.2464,20,270.4,-3.131,-0.03,0.25,31.372,0,-0.131,0,0,0,269.39,0,0,0,0,0,0,0,0,0,0,0,0,0,1,1,65.64,FLYING
65.86,APPROACH,ILS_TRACK,199.42,200,0.58,1710.25,-11.47,1.84,4.82,270.4,0.005,0.2429,20,270.4,-3.014,-0.04,0.23,31.315,0.005,-0.014,0,0,0,269.39,0,0,0,0,0,0,0,0,0,0,0,0,0,1,1,65.9,FLYING
66.16,APPROACH,ILS_TRACK,199.43,200,0.57,1706.84,-11.38,1.93,4.92,270.4,0.006,0.2469,20,270.4,-3.137,-0.03,0.25,31.25,-0.002,-0.137,0,0,0,269.39,0,0,0,0,0,0,0,0,0,0,0,0,0,1,1,66.2,FLYING
66.42,APPROACH,ILS_TRACK,199.46,200,0.54,1703.85,-11.45,1.8,4.78,270.4,0.004,0.243,20,270.4,-3.009,-0.03,0.23,31.193,0.002,-0.009,0,0,0,269.39,0,0,0,0,0,0,0,0,0,0,0,0,0,1,1,66.46,FLYING
66.68,APPROACH,ILS_TRACK,199.45,200,0.55,1700.9,-11.39,1.92,4.9,270.4,0.006,0.2485,20,270.4,-3.131,-0.03,0.25,31.136,-0.001,-0.131,0,0,0,269.39,0,0,0,0,0,0,0,0,0,0,0,0,0,1,1,66.72,FLYING
66.94,APPROACH,ILS_TRACK,199.48,200,0.52,1697.91,-11.47,1.83,4.82,270.4,0.003,0.2448,20,270.4,-3.032,-0.03,0.24,31.08,-0.002,-0.032,0,0,0,269.39,0,0,0,0,0,0,0,0,0,0,0,0,0,1,1,66.98,FLYING
67.24,APPROACH,ILS_TRACK,199.49,200,0.51,1694.49,-11.38,1.92,4.9,270.4,0.006,0.2481,20,270.4,-3.129,-0.03,0.26,31.014,0.002,-0.129,0,0,0,269.39,0,0,0,0,0,0,0,0,0,0,0,0,0,1,1,67.28,FLYING
67.5,APPROACH,ILS_TRACK,199.52,200,0.48,1691.51,-11.48,1.84,4.83,270.4,0.003,0.2442,20,270.4,-3.018,-0.03,0.24,30.957,0.001,-0.018,0,0,0,269.39,0,0,0,0,0,0,0,0,0,0,0,0,0,1,1,67.54,FLYING
67.76,APPROACH,ILS_TRACK,199.52,200,0.48,1688.55,-11.38,1.91,4.9,270.4,0.006,0.2481,20,270.4,-3.136,-0.03,0.26,30.901,-0.001,-0.136,0,0,0,269.39,0,0,0,0,0,0,0,0,0,0,0,0,0,1,1,67.8,FLYING
68.02,APPROACH,ILS_TRACK,199.55,200,0.45,1685.56,-11.47,1.81,4.8,270.4,0.003,0.2438,20,270.4,-3.011,-0.03,0.24,30.844,0,-0.011,0,0,0,269.39,0,0,0,0,0,0,0,0,0,0,0,0,0,1,1,68.06,FLYING
68.32,APPROACH,ILS_TRACK,199.55,200,0.45,1682.15,-11.38,1.91,4.9,270.4,0.006,0.2474,20,270.4,-3.134,-0.03,0.26,30.779,0.001,-0.134,0,0,0,269.39,0,0,0,0,0,0,0,0,0,0,0,0,0,1,1,68.36,FLYING
68.58,APPROACH,ILS_TRACK,199.58,200,0.42,1679.16,-11.46,1.82,4.8,270.4,0.005,0.243,20,270.4,-3.014,-0.03,0.24,30.722,0.001,-0.014,0,0,0,269.39,0,0,0,0,0,0,0,0,0,0,0,0,0,1,1,68.62,FLYING
68.84,APPROACH,ILS_TRACK,199.58,200,0.42,1676.21,-11.38,1.91,4.89,270.4,0.008,0.2474,20,270.4,-3.136,-0.02,0.26,30.665,-0.001,-0.136,0,0,0,269.39,0,0,0,0,0,0,0,0,0,0,0,0,0,1,1,68.88,FLYING
69.1,APPROACH,ILS_TRACK,199.61,200,0.39,1673.22,-11.46,1.8,4.79,270.4,0.005,0.2428,20,270.4,-3.015,-0.02,0.24,30.608,0,-0.015,0,0,0,269.39,0,0,0,0,0,0,0,0,0,0,0,0,0,1,1,69.14,FLYING
69.4,APPROACH,ILS_TRACK,199.61,200,0.39,1669.81,-11.38,1.9,4.88,270.4,0.008,0.2462,20,270.4,-3.127,-0.02,0.26,30.543,-0.001,-0.127,0,0,0,269.39,0,0,0,0,0,0,0,0,0,0,0,0,0,1,1,69.44,FLYING
69.66,APPROACH,ILS_TRACK,199.64,200,0.36,1666.82,-11.48,1.84,4.83,270.4,0.006,0.2421,20,270.4,-3.024,-0.02,0.24,30.486,0,-0.024,0,0,0,269.39,0,0,0,0,0,0,0,0,0,0,0,0,0,1,1,69.7,FLYING
69.92,APPROACH,ILS_TRACK,199.64,200,0.36,1663.87,-11.38,1.89,4.88,270.4,0.008,0.2451,20,270.4,-3.129,-0.02,0.26,30.43,-0.001,-0.129,0,0,0,269.39,0,0,0,0,0,0,0,0,0,0,0,0,0,1,1,69.96,FLYING
70.18,APPROACH,ILS_TRACK,199.66,200,0.34,1660.89,-11.48,1.84,4.83,270.4,0.006,0.2415,20,270.41,-3.028,-0.02,0.25,30.373,0.006,-0.028,0,0,0,269.39,0,0,0,0,0,0,0,0,0,0,0,0,0,1,1,70.22,FLYING
70.48,APPROACH,ILS_TRACK,199.67,200,0.33,1657.47,-11.36,1.89,4.88,270.4,0.009,0.2437,20,270.4,-3.131,-0.02,0.27,30.308,-0.003,-0.131,0,0,0,269.39,0,0,0,0,0,0,0,0,0,0,0,0,0,1,1,70.52,FLYING
70.74,APPROACH,ILS_TRACK,199.69,200,0.31,1654.49,-11.46,1.83,4.82,270.4,0.006,0.2408,20,270.4,-3.029,-0.02,0.25,30.251,0.001,-0.029,0,0,0,269.39,0,0,0,0,0,0,0,0,0,0,0,0,0,1,1,70.78,FLYING
71,APPROACH,ILS_TRACK,199.68,200,0.32,1651.54,-11.34,1.88,4.86,270.4,0.007,0.2456,20,270.4,-3.149,-0.02,0.27,30.194,0.003,-0.149,0,0,0,269.39,0,0,0,0,0,0,0,0,0,0,0,0,0,1,1,71.04,FLYING
71.26,APPROACH,ILS_TRACK,199.7,200,0.3,1648.56,-11.45,1.79,4.78,270.4,0.003,0.2418,20,270.4,-3.014,-0.02,0.25,30.138,-0.002,-0.014,0,0,0,269.39,0,0,0,0,0,0,0,0,0,0,0,0,0,1,1,71.3,FLYING
71.56,APPROACH,ILS_TRACK,199.7,200,0.3,1645.15,-11.35,1.88,4.87,270.4,0.006,0.2454,20,270.4,-3.15,-0.02,0.28,30.072,0.001,-0.15,0,0,0,269.39,0,0,0,0,0,0,0,0,0,0,0,0,0,1,1,71.6,FLYING
71.82,APPROACH,ILS_TRACK,199.73,200,0.27,1642.17,-11.44,1.78,4.76,270.4,0.004,0.2413,20,270.4,-3.02,-0.02,0.26,30.016,0.002,-0.02,0,0,0,269.39,0,0,0,0,0,0,0,0,0,0,0,0,0,1,1,71.86,FLYING
72.08,APPROACH,ILS_TRACK,199.72,200,0.28,1639.22,-11.37,1.87,4.86,270.4,0.007,0.2458,20,270.4,-3.14,-0.02,0.28,29.959,-0.001,-0.14,0,0,0,269.39,0,0,0,0,0,0,0,0,0,0,0,0,0,1,1,72.12,FLYING
72.34,APPROACH,ILS_TRACK,199.74,200,0.26,1636.23,-11.45,1.79,4.78,270.4,0.005,0.2416,20,270.4,-3.031,-0.02,0.26,29.902,0,-0.031,0,0,0,269.39,0,0,0,0,0,0,0,0,0,0,0,0,0,1,1,72.38,FLYING
72.64,APPROACH,ILS_TRACK,199.74,200,0.26,1632.83,-11.37,1.87,4.86,270.4,0.008,0.2448,20,270.4,-3.132,-0.02,0.28,29.837,0.001,-0.132,0,0,0,269.39,0,0,0,0,0,0,0,0,0,0,0,0,0,1,1,72.68,FLYING
72.9,APPROACH,ILS_TRACK,199.76,200,0.24,1629.85,-11.47,1.82,4.81,270.4,0.005,0.2412,20,270.4,-3.032,-0.02,0.26,29.78,0,-0.032,0,0,0,269.39,0,0,0,0,0,0,0,0,0,0,0,0,0,1,1,72.94,FLYING
73.16,APPROACH,ILS_TRACK,199.76,200,0.24,1626.9,-11.36,1.87,4.86,270.4,0.007,0.2444,20,270.4,-3.139,-0.02,0.28,29.724,0.001,-0.139,0,0,0,269.39,0,0,0,0,0,0,0,0,0,0,0,0,0,1,1,73.2,FLYING
73.42,APPROACH,ILS_TRACK,199.78,200,0.22,1623.92,-11.45,1.8,4.79,270.4,0.005,0.2408,20,270.4,-3.024,-0.02,0.26,29.667,-0.001,-0.024,0,0,0,269.39,0,0,0,0,0,0,0,0,0,0,0,0,0,1,1,73.46,FLYING
73.72,APPROACH,ILS_TRACK,199.77,200,0.23,1620.51,-11.35,1.87,4.86,270.4,0.007,0.2448,20,270.4,-3.137,-0.02,0.28,29.602,0.002,-0.137,0,0,0,269.39,0,0,0,0,0,0,0,0,0,0,0,0,0,1,1,73.76,FLYING
73.98,APPROACH,ILS_TRACK,199.78,200,0.22,1617.54,-11.45,1.81,4.8,270.4,0.005,0.2417,20,270.4,-3.03,-0.01,0.27,29.545,-0.001,-0.03,0,0,0,269.39,0,0,0,0,0,0,0,0,0,0,0,0,0,1,1,74.02,FLYING
74.24,APPROACH,ILS_TRACK,199.78,200,0.22,1614.58,-11.35,1.87,4.85,270.4,0.008,0.245,20,270.4,-3.142,-0.02,0.29,29.489,0.001,-0.142,0,0,0,269.39,0,0,0,0,0,0,0,0,0,0,0,0,0,1,1,74.28,FLYING
74.5,APPROACH,ILS_TRACK,199.8,200,0.2,1611.61,-11.45,1.8,4.79,270.4,0.005,0.2412,20,270.4,-3.031,-0.01,0.27,29.432,0,-0.031,0,0,0,269.39,0,0,0,0,0,0,0,0,0,0,0,0,0,1,1,74.54,FLYING
74.8,APPROACH,ILS_TRACK,199.8,200,0.2,1608.2,-11.34,1.87,4.85,270.4,0.008,0.2441,20,270.4,-3.142,-0.01,0.29,29.367,-0.001,-0.142,0,0,0,269.39,0,0,0,0,0,0,0,0,0,0,0,0,0,1,1,74.84,FLYING
75.06,APPROACH,ILS_TRACK,199.81,200,0.19,1605.23,-11.44,1.8,4.78,270.4,0.006,0.2406,20,270.4,-3.032,-0.02,0.27,29.31,0.003,-0.032,0,0,0,269.39,0,0,0,0,0,0,0,0,0,0,0,0,0,1,1,75.1,FLYING
75.32,APPROACH,ILS_TRACK,199.81,200,0.19,1602.28,-11.34,1.86,4.84,270.4,0.008,0.2443,20,270.4,-3.146,-0.01,0.29,29.254,-0.001,-0.146,0,0,0,269.39,0,0,0,0,0,0,0,0,0,0,0,0,0,1,1,75.36,FLYING
75.58,APPROACH,ILS_TRACK,199.83,200,0.17,1599.3,-11.44,1.78,4.76,270.4,0.005,0.2403,20,270.4,-3.029,-0.01,0.28,29.197,0,-0.029,0,0,0,269.39,0,0,0,0,0,0,0,0,0,0,0,0,0,1,1,75.62,FLYING
75.88,APPROACH,ILS_TRACK,199.82,200,0.18,1595.9,-11.34,1.86,4.85,270.4,0.007,0.2438,20,270.4,-3.145,-0.01,0.3,29.132,0.002,-0.145,0,0,0,269.39,0,0,0,0,0,0,0,0,0,0,0,0,0,1,1,75.92,FLYING
76.14,APPROACH,ILS_TRACK,199.84,200,0.16,1592.92,-11.44,1.78,4.77,270.4,0.003,0.24,20,270.4,-3.029,-0.01,0.28,29.076,-0.001,-0.029,0,0,0,269.39,0,0,0,0,0,0,0,0,0,0,0,0,0,1,1,76.18,FLYING
76.4,APPROACH,ILS_TRACK,199.83,200,0.17,1589.98,-11.35,1.86,4.85,270.4,0.006,0.2442,20,270.4,-3.143,-0.01,0.3,29.019,0,-0.143,0,0,0,269.39,0,0,0,0,0,0,0,0,0,0,0,0,0,1,1,76.44,FLYING
76.66,APPROACH,ILS_TRACK,199.85,200,0.15,1587,-11.43,1.77,4.76,270.4,0.002,0.2402,20,270.4,-3.029,-0.01,0.28,28.962,0,-0.029,0,0,0,269.39,0,0,0,0,0,0,0,0,0,0,0,0,0,1,1,76.7,FLYING
76.96,APPROACH,ILS_TRACK,199.84,200,0.16,1583.6,-11.34,1.85,4.84,270.4,0.006,0.2435,20,270.4,-3.136,-0.01,0.3,28.897,0,-0.136,0,0,0,269.39,0,0,0,0,0,0,0,0,0,0,0,0,0,1,1,77,FLYING
77.22,APPROACH,ILS_TRACK,199.86,200,0.14,1580.62,-11.44,1.79,4.77,270.4,0.003,0.2399,20,270.4,-3.027,-0.01,0.28,28.841,0.001,-0.027,0,0,0,269.39,0,0,0,0,0,0,0,0,0,0,0,0,0,1,1,77.26,FLYING
77.48,APPROACH,ILS_TRACK,199.85,200,0.15,1577.68,-11.34,1.85,4.84,270.4,0.004,0.2436,20,270.4,-3.139,-0.01,0.29,28.784,0,-0.139,0,0,0,269.39,0,0,0,0,0,0,0,0,0,0,0,0,0,1,1,77.52,FLYING
77.74,APPROACH,ILS_TRACK,199.87,200,0.13,1574.7,-11.44,1.78,4.77,270.4,0.001,0.2399,20,270.4,-3.025,-0.01,0.28,28.728,0.001,-0.025,0,0,0,269.39,0,0,0,0,0,0,0,0,0,0,0,0,0,1,1,77.78,FLYING
78.04,APPROACH,ILS_TRACK,199.86,200,0.14,1571.3,-11.34,1.85,4.84,270.4,0.003,0.243,20,270.4,-3.135,-0.01,0.29,28.663,0,-0.135,0,0,0,269.39,0,0,0,0,0,0,0,0,0,0,0,0,0,1,1,78.08,FLYING
78.3,APPROACH,ILS_TRACK,199.87,200,0.13,1568.33,-11.43,1.79,4.78,270.4,0.001,0.2398,20,270.4,-3.028,-0.01,0.28,28.606,0.001,-0.028,0,0,0,269.39,0,0,0,0,0,0,0,0,0,0,0,0,0,1,1,78.34,FLYING
78.56,APPROACH,ILS_TRACK,199.87,200,0.13,1565.38,-11.33,1.84,4.83,270.4,0.004,0.2435,20,270.4,-3.136,-0.01,0.29,28.55,0.002,-0.136,0,0,0,269.39,0,0,0,0,0,0,0,0,0,0,0,0,0,1,1,78.6,FLYING
78.82,APPROACH,ILS_TRACK,199.88,200,0.12,1562.41,-11.43,1.79,4.78,270.4,0,0.2401,20,270.4,-3.028,-0.01,0.27,28.493,-0.002,-0.028,0,0,0,269.39,0,0,0,0,0,0,0,0,0,0,0,0,0,1,1,78.86,FLYING
79.12,APPROACH,ILS_TRACK,199.88,200,0.12,1559.01,-11.33,1.85,4.84,270.4,0.003,0.243,20,270.4,-3.136,-0.01,0.29,28.428,0.001,-0.136,0,0,0,269.39,0,0,0,0,0,0,0,0,0,0,0,0,0,1,1,79.16,FLYING
79.38,APPROACH,ILS_TRACK,199.89,200,0.11,1556.04,-11.42,1.78,4.77,270.4,0.001,0.2399,20,270.4,-3.029,-0.01,0.27,28.372,0.003,-0.029,0,0,0,269.39,0,0,0,0,0,0,0,0,0,0,0,0,0,1,1,79.42,FLYING
79.64,APPROACH,ILS_TRACK,199.88,200,0.12,1553.1,-11.32,1.84,4.83,270.4,0.004,0.2436,20,270.4,-3.138,-0.01,0.29,28.315,0,-0.138,0,0,0,269.39,0,0,0,0,0,0,0,0,0,0,0,0,0,1,1,79.68,FLYING
79.9,APPROACH,ILS_TRACK,199.9,200,0.1,1550.13,-11.42,1.77,4.76,270.4,0.002,0.2399,20,270.4,-3.031,-0.01,0.27,28.259,0,-0.031,0,0,0,269.39,0,0,0,0,0,0,0,0,0,0,0,0,0,1,1,79.94,FLYING
80.2,APPROACH,ILS_TRACK,199.89,200,0.11,1546.73,-11.32,1.84,4.83,270.4,0.006,0.2427,20,270.4,-3.139,-0.01,0.29,28.194,-0.002,-0.139,0,0,0,269.39,0,0,0,0,0,0,0,0,0,0,0,0,0,1,1,80.24,FLYING
80.46,APPROACH,ILS_TRACK,199.9,200,0.1,1543.76,-11.41,1.77,4.76,270.4,0.003,0.2395,20,270.4,-3.034,-0.01,0.28,28.137,0.004,-0.034,0,0,0,269.39,0,0,0,0,0,0,0,0,0,0,0,0,0,1,1,80.5,FLYING
80.72,APPROACH,ILS_TRACK,199.9,200,0.1,1540.82,-11.31,1.83,4.82,270.4,0.006,0.2433,20,270.4,-3.142,-0.01,0.29,28.081,0.001,-0.142,0,0,0,269.39,0,0,0,0,0,0,0,0,0,0,0,0,0,1,1,80.76,FLYING
80.98,APPROACH,ILS_TRACK,199.91,200,0.09,1537.85,-11.42,1.77,4.76,270.4,0.003,0.2396,20,270.4,-3.029,-0.01,0.28,28.025,0,-0.029,0,0,0,269.39,0,0,0,0,0,0,0,0,0,0,0,0,0,1,1,81.02,FLYING
81.28,APPROACH,ILS_TRACK,199.9,200,0.1,1534.46,-11.31,1.84,4.82,270.4,0.006,0.2426,20,270.4,-3.139,-0.01,0.3,27.96,0.001,-0.139,0,0,0,269.39,0,0,0,0,0,0,0,0,0,0,0,0,0,1,1,81.32,FLYING
81.54,APPROACH,ILS_TRACK,199.92,200,0.08,1531.49,-11.41,1.76,4.75,270.4,0.004,0.2391,20,270.4,-3.027,-0.01,0.28,27.903,-0.003,-0.027,0,0,0,269.39,0,0,0,0,0,0,0,0,0,0,0,0,0,1,1,81.58,FLYING
81.8,APPROACH,ILS_TRACK,199.9,200,0.1,1528.55,-11.31,1.83,4.82,270.4,0.008,0.2438,20,270.4,-3.145,-0.01,0.3,27.847,-0.001,-0.145,0,0,0,269.39,0,0,0,0,0,0,0,0,0,0,0,0,0,1,1,81.84,FLYING
82.06,APPROACH,ILS_TRACK,199.92,200,0.08,1525.58,-11.4,1.75,4.74,270.4,0.006,0.2398,20,270.4,-3.024,-0.01,0.28,27.791,0.004,-0.024,0,0,0,269.39,0,0,0,0,0,0,0,0,0,0,0,0,0,1,1,82.1,FLYING
82.36,APPROACH,ILS_TRACK,199.91,200,0.09,1522.19,-11.31,1.83,4.82,270.4,0.008,0.2438,20,270.4,-3.142,-0.01,0.3,27.726,0,-0.142,0,0,0,269.39,0,0,0,0,0,0,0,0,0,0,0,0,0,1,1,82.4,FLYING
82.62,APPROACH,ILS_TRACK,199.92,200,0.08,1519.23,-11.4,1.75,4.74,270.4,0.006,0.24,20,270.4,-3.026,-0.01,0.28,27.669,-0.001,-0.026,0,0,0,269.39,0,0,0,0,0,0,0,0,0,0,0,0,0,1,1,82.66,FLYING
82.88,APPROACH,ILS_TRACK,199.91,200,0.09,1516.29,-11.3,1.83,4.82,270.4,0.009,0.2438,20,270.4,-3.143,-0.01,0.3,27.613,0,-0.143,0,0,0,269.39,0,0,0,0,0,0,0,0,0,0,0,0,0,1,1,82.92,FLYING
83.14,APPROACH,ILS_TRACK,199.93,200,0.07,1513.32,-11.4,1.74,4.73,270.4,0.006,0.2396,20,270.4,-3.027,-0.01,0.28,27.557,-0.001,-0.027,0,0,0,269.39,0,0,0,0,0,0,0,0,0,0,0,0,0,1,1,83.18,FLYING
83.44,APPROACH,ILS_TRACK,199.92,200,0.08,1509.93,-11.3,1.82,4.81,270.4,0.008,0.2425,20,270.4,-3.14,-0.01,0.3,27.492,0.002,-0.14,0,0,0,269.39,0,0,0,0,0,0,0,0,0,0,0,0,0,1,1,83.48,FLYING
83.7,APPROACH,ILS_TRACK,199.93,200,0.07,1506.97,-11.4,1.75,4.74,270.4,0.004,0.2386,20,270.4,-3.023,-0.01,0.28,27.435,0.001,-0.023,0,0,0,269.39,0,0,0,0,0,0,0,0,0,0,0,0,0,1,1,83.74,FLYING
83.96,APPROACH,ILS_TRACK,199.92,200,0.08,1504.03,-11.3,1.82,4.81,270.4,0.006,0.2426,20,270.4,-3.142,-0.01,0.29,27.379,-0.001,-0.142,0,0,0,269.39,0,0,0,0,0,0,0,0,0,0,0,0,0,1,1,84,FLYING
84.22,APPROACH,ILS_TRACK,199.94,200,0.06,1501.07,-11.4,1.75,4.74,270.4,0.003,0.2386,20,270.4,-3.025,-0.01,0.28,27.323,0.002,-0.025,0,0,0,269.39,0,0,0,0,0,0,0,0,0,0,0,0,0,1,1,84.26,FLYING
84.52,APPROACH,ILS_TRACK,199.93,200,0.07,1497.68,-11.3,1.82,4.82,270.4,0.005,0.2415,20,270.4,-3.133,-0.01,0.29,27.258,-0.001,-0.133,0,0,0,269.39,0,0,0,0,0,0,0,0,0,0,0,0,0,1,1,84.56,FLYING
84.78,APPROACH,ILS_TRACK,199.94,200,0.06,1494.72,-11.39,1.77,4.76,270.4,0.003,0.2382,20,270.4,-3.031,-0.01,0.28,27.202,0.002,-0.031,0,0,0,269.39,0,0,0,0,0,0,0,0,0,0,0,0,0,1,1,84.82,FLYING
85.04,APPROACH,ILS_TRACK,199.94,200,0.06,1491.78,-11.29,1.82,4.81,270.4,0.005,0.2417,20,270.4,-3.135,-0.01,0.29,27.145,0,-0.135,0,0,0,269.39,0,0,0,0,0,0,0,0,0,0,0,0,0,1,1,85.08,FLYING
85.3,APPROACH,ILS_TRACK,199.95,200,0.05,1488.82,-11.39,1.76,4.75,270.4,0.003,0.2383,20,270.4,-3.03,-0.01,0.27,27.089,-0.001,-0.03,0,0,0,269.39,0,0,0,0,0,0,0,0,0,0,0,0,0,1,1,85.34,FLYING
85.6,APPROACH,ILS_TRACK,199.94,200,0.06,1485.43,-11.28,1.82,4.81,270.4,0.007,0.2411,20,270.4,-3.135,-0.01,0.29,27.024,0,-0.135,0,0,0,269.39,0,0,0,0,0,0,0,0,0,0,0,0,0,1,1,85.64,FLYING
85.86,APPROACH,ILS_TRACK,199.95,200,0.05,1482.47,-11.38,1.76,4.75,270.4,0.004,0.2381,20,270.4,-3.032,-0.01,0.28,26.968,0.001,-0.032,0,0,0,269.39,0,0,0,0,0,0,0,0,0,0,0,0,0,1,1,85.9,FLYING
