t_s,phase,subphase,ias_ms,vapp_ms,spd_err_ms,agl_m,vs_ms,pitch_deg,aoa_deg,hdg_deg,bank_deg,thr_cmd,thr_cur,thr_intg,at_gain,at_tau_s,at_a_up,at_a_dn,at_kp_thr,at_ki_spd,at_thr_slew,aa_hdg_cmd_deg,aa_fpa_cmd_deg,aa_fbw,aa_dir,actual_fpa_deg,ftf_hdg_err_deg,ftf_fix_idx,kos_steer_pit_deg,kos_steer_hdg_deg,aa_dir_vx,aa_dir_vy,aa_dir_vz,aa_dir_pitch_deg,aa_dir_hdg_deg,ils_loc_m,ils_gs_m,ils_dist_km,loc_corr_deg,gs_corr_deg,gs_latched,active_gs_ang_deg,ils_intercept_alt_m,d_gs_ms,fpa_preclamped_deg,gs_nom_alt_m,flare_fpa_cmd,flare_tgt_vs,flare_frac,steer_hdg_deg,steer_blend,ro_loc_corr_deg,ro_hdg_err_deg,ro_yaw_tgt,ro_yaw_scale,ro_yaw_gate,yaw_cmd,roll_cmd,pitch_cmd,ro_pitch_tgt_deg,ro_pitch_err_deg,ro_pitch_ff,ro_roll_assist,flaps_cur,flaps_tgt,asc_j_ab,asc_j_rk,asc_validity,asc_q_pa,asc_q_raw_pa,asc_mach,asc_apo_m,asc_drag_n,asc_w_prop,asc_edot_aero,asc_edot_orb,asc_pitch_bias,asc_blend,asc_spooling,asc_ab_thr_ratio,asc_ab_t_now,asc_ab_t_avail,asc_ab_ign_on,asc_ab_flameouts,asc_rk_t_now,asc_rk_t_avail,asc_rk_ign_on,asc_rk_flameouts,ship_thrust,ship_avail_thrust,ship_ign_on,ship_flameouts,ifc_raw_dt_s,ifc_dt_s,ifc_loop_n,ifc_hz_est,ifc_raw_dt_max_s,ifc_raw_dt_min_s,phase_el_s,status,craft_name,cfg_file
0.12,TAKEOFF,TO_PREFLIGHT,0.49,80,79.51,3.62,0,-0.17,0.07,89.92,0.108,0.04,0,0,0,0,0,0,0,0,0,90.4,0,1,0,-0.12,0,0,0,90,0,0,0,0,0,0,0,0,0,0,0,3,0,0,0,69,0,0,0,90.4,1,0,-0.477,0,0,1,0,0,0,0,0,0,0,0,1,0,0,VALID,0,0,0,0,0,1,0,0,0,0,0,0,0,0,0,0,0,0,0,0,0,517.99,2,0,0.1,0.1,1,3.45,0.1,0.02,0.02,LANDED,CF1-H,0:/Integrated Flight Computer/aircraft/cf1_h_cfg.ks (inferred preloaded)
0.38,TAKEOFF,TO_PREFLIGHT,0.49,80,79.51,3.61,0,-0.19,-0.04,89.92,0.102,0.112,0,0,0,0,0,0,0,0,0,90.4,0,1,0,-0.02,0,0,0,90,0,0,0,0,0,0,0,0,0,0,0,3,0,0,0,69,0,0,0,90.4,1,0,-0.478,0,0,1,0,0,0,0,0,0,0,1,1,0,0,VALID,0,0,0,0,0,1,0,0,0,0,0,0,0,0,0,0,0,0,0,0,0.35,517.99,2,0,0.04,0.04,6,19.23,0.1,0.04,0.28,LANDED,CF1-H,0:/Integrated Flight Computer/aircraft/cf1_h_cfg.ks (inferred preloaded)
0.64,TAKEOFF,TO_PREFLIGHT,0.36,80,79.64,3.6,0,-0.26,-1.18,89.92,0.101,0.216,0,0,0,0,0,0,0,0,0,90.4,0,1,0,0.26,0,0,0,90,0,0,0,0,0,0,0,0,0,0,0,3,0,0,0,69,0,0,0,90.4,1,0,-0.478,0,0,1,0,0,0,0,0,0,0,1,1,0,0,VALID,0,0,0,0,0,1,0,0,0,0,0,0,0,0,0,0,0,0,0,0,1.44,518.02,2,0,0.04,0.04,11,19.23,0.08,0.04,0.54,LANDED,CF1-H,0:/Integrated Flight Computer/aircraft/cf1_h_cfg.ks (inferred preloaded)
0.9,TAKEOFF,TO_PREFLIGHT,0.07,80,79.93,3.6,0,-0.29,-2.5,89.91,0.105,0.32,0,0,0,0,0,0,0,0,0,90.4,0,1,0,0.08,0,0,0,90,0,0,0,0,0,0,0,0,0,0,0,3,0,0,0,69,0,0,0,90.4,1,0,-0.478,0,0,1,0,0,0,0,0,0,0,1,1,0,0,VALID,0,0,0,0,0,1,0,0,0,0,0,0,0,0,0,0,0,0,0,0,3.35,518.09,2,0,0.04,0.04,16,19.23,0.08,0.04,0.8,LANDED,CF1-H,0:/Integrated Flight Computer/aircraft/cf1_h_cfg.ks (inferred preloaded)
1.16,TAKEOFF,TO_PREFLIGHT,0.05,80,79.95,3.62,-0.02,-0.11,23.62,89.91,0.11,0.424,0,0,0,0,0,0,0,0,0,90.4,0,1,0,-1.12,0,0,0,90,0,0,0,0,0,0,0,0,0,0,0,3,0,0,0,69,0,0,0,90.4,1,0,-0.478,0,0,1,0,0,0,0,0,0,0,1,1,0,0,VALID,0,0,0,0,0,1,0,0,0,0,0,0,0,0,0,0,0,0,0,0,6.07,518.09,2,0,0.04,0.04,21,19.23,0.08,0.04,1.06,LANDED,CF1-H,0:/Integrated Flight Computer/aircraft/cf1_h_cfg.ks (inferred preloaded)
1.42,TAKEOFF,TO_PREFLIGHT,0.01,80,79.99,3.62,0.01,-0.14,-21.21,89.91,0.112,0.528,0,0,0,0,0,0,0,0,0,90.4,0,1,0,0.75,0,0,0,90,0,0,0,0,0,0,0,0,0,0,0,3,0,0,0,69,0,0,0,90.4,1,0,-0.478,0,0,1,0,0,0,0,0,0,0,1,1,0,0,VALID,0,0,0,0,0,1,0,0,0,0,0,0,0,0,0,0,0,0,0,0,9.57,518.1,2,0,0.04,0.04,26,19.23,0.08,0.04,1.32,LANDED,CF1-H,0:/Integrated Flight Computer/aircraft/cf1_h_cfg.ks (inferred preloaded)
1.68,TAKEOFF,TO_PREFLIGHT,0.04,80,79.96,3.61,0,-0.23,-4.66,89.9,0.11,0.632,0,0,0,0,0,0,0,0,0,90.4,0,1,0,0.07,0,0,0,90,0,0,0,0,0,0,0,0,0,0,0,3,0,0,0,69,0,0,0,90.4,1,0,-0.478,0,0,1,0,0,0,0,0,0,0,1,1,0,0,VALID,0,0,0,0,0,1,0,0,0,0,0,0,0,0,0,0,0,0,0,0,13.86,518.09,2,0,0.04,0.04,31,19.23,0.08,0.04,1.58,LANDED,CF1-H,0:/Integrated Flight Computer/aircraft/cf1_h_cfg.ks (inferred preloaded)
1.94,TAKEOFF,TO_PREFLIGHT,0,80,80,3.61,-0.01,-0.19,37,89.9,0.106,0.736,0,0,0,0,0,0,0,0,0,90.4,0,1,0,-0.39,0,0,0,90,0,0,0,0,0,0,0,0,0,0,0,3,0,0,0,69,0,0,0,90.4,1,0,-0.478,0,0,1,0,0,0,0,0,0,0,1,1,0,0,VALID,0,0,0,0,0,1,0,0,0,0,0,0,0,0,0,0,0,0,0,0,18.92,518.1,2,0,0.04,0.04,36,19.23,0.08,0.04,1.84,LANDED,CF1-H,0:/Integrated Flight Computer/aircraft/cf1_h_cfg.ks (inferred preloaded)
2.26,TAKEOFF,TO_PREFLIGHT,0.01,80,79.99,3.61,0,-0.18,-7.63,89.9,0.104,0.864,0,0,0,0,0,0,0,0,0,90.4,0,1,0,0.2,0,0,0,90,0,0,0,0,0,0,0,0,0,0,0,3,0,0,0,69,0,0,0,90.4,1,0,-0.478,0,0,1,0,0,0,0,0,0,0,1,1,0,0,VALID,0,0,0,0,0,1,0,0,0,0,0,0,0,0,0,0,0,0,0,0,26.17,518.1,2,0,0.08,0.08,41,15.63,0.08,0.04,2.16,LANDED,CF1-H,0:/Integrated Flight Computer/aircraft/cf1_h_cfg.ks (inferred preloaded)
2.54,TAKEOFF,TO_PREFLIGHT,0.03,80,79.97,3.61,0,-0.22,-3.85,89.9,0.106,0.976,0,0,0,0,0,0,0,0,0,90.4,0,1,0,0.08,0,0,0,90,0,0,0,0,0,0,0,0,0,0,0,3,0,0,0,69,0,0,0,90.4,1,0,-0.478,0,0,1,0,0,0,0,0,0,0,1,1,0,0,VALID,0,0,0,0,0,1,0,0,0,0,0,0,0,0,0,0,0,0,0,0,33.42,518.09,2,0,0.08,0.08,45,14.29,0.08,0.06,2.44,LANDED,CF1-H,0:/Integrated Flight Computer/aircraft/cf1_h_cfg.ks (inferred preloaded)
2.82,TAKEOFF,TO_PREFLIGHT,0.02,80,79.98,3.61,0,-0.21,4.54,89.9,0.109,1,0,0,0,0,0,0,0,0,0,90.4,0,1,0,-0.12,0,0,0,90,0,0,0,0,0,0,0,0,0,0,0,3,0,0,0,69,0,0,0,90.4,1,0,-0.478,0,0,1,0,0,0,0,0,0,0,1,1,0,0,VALID,0,0,0,0,0,1,0,0,0,0,0,0,0,0,0,0,0,0,0,0,41.39,518.09,2,0,0.08,0.08,49,14.29,0.08,0.06,2.72,LANDED,CF1-H,0:/Integrated Flight Computer/aircraft/cf1_h_cfg.ks (inferred preloaded)
3.1,TAKEOFF,TO_PREFLIGHT,0.03,80,79.97,3.61,0,-0.21,-0.97,89.89,0.11,1,0,0,0,0,0,0,0,0,0,90.4,0,1,0,0.04,0,0,0,90,0,0,0,0,0,0,0,0,0,0,0,3,0,0,0,69,0,0,0,90.4,1,0,-0.478,0,0,1,0,0,0,0,0,0,0,1,1,0,0,VALID,0,0,0,0,0,1,0,0,0,0,0,0,0,0,0,0,0,0,0,0,49.34,518.09,2,0,0.08,0.08,53,14.29,0.08,0.06,3,LANDED,CF1-H,0:/Integrated Flight Computer/aircraft/cf1_h_cfg.ks (inferred preloaded)
3.38,TAKEOFF,TO_GROUND_ROLL,0.06,80,79.94,3.61,0,-0.21,-0.53,89.89,0.108,1,0,0,0,0,0,0,0,0,0,90.4,0,1,0,-0.07,0,0,0,90,0,0,0,0,0,0,0,0,0,0,0,3,0,0,0,69,0,0,0,90.4,1,0,-0.513,0.0058,0.25,1,0.0058,0,0,0,0,0,0,1,1,0,0,VALID,0,0,0,0,0,1,0,0,0,0,0,0,0,0,0,0,0,0,0,0,57.15,518.08,2,0,0.08,0.08,57,14.29,0.08,0.06,3.3,LANDED,CF1-H,0:/Integrated Flight Computer/aircraft/cf1_h_cfg.ks (inferred preloaded)
3.66,TAKEOFF,TO_GROUND_ROLL,0.28,80,79.72,3.62,-0.01,-0.11,1.49,89.89,0.107,1,0,0,0,0,0,0,0,0,0,90.4,0,1,0,-0.51,0,0,0,90,0,0,0,0,0,0,0,0,0,0,0,3,0,0,0,69,0,0,0,90.4,1,0,-0.516,0.0058,0.25,1,0.0058,0,0,0,0,0,0,1,1,0,0,VALID,0,0,0,0,0,1,0,0,0,0,0,0,0,0,0,0,0,0,0,0,64.83,518.03,2,0,0.08,0.08,61,14.29,0.08,0.06,3.58,LANDED,CF1-H,0:/Integrated Flight Computer/aircraft/cf1_h_cfg.ks (inferred preloaded)
3.94,TAKEOFF,TO_GROUND_ROLL,0.61,80,79.39,3.62,0,-0.15,-0.4,89.89,0.108,1,0,0,0,0,0,0,0,0,0,90.4,0,1,0,0.13,0,0,0,90,0,0,0,0,0,0,0,0,0,0,0,3,0,0,0,69,0,0,0,90.4,1,0,-0.515,0.0058,0.25,1,0.0058,0,0,0,0,0,0,1,1,0,0,VALID,0,0,0,0,0,1,0,0,0,0,0,0,0,0,0,0,0,0,0,0,72.37,517.95,2,0,0.08,0.08,65,14.29,0.08,0.06,3.86,LANDED,CF1-H,0:/Integrated Flight Computer/aircraft/cf1_h_cfg.ks (inferred preloaded)
4.22,TAKEOFF,TO_GROUND_ROLL,0.98,80,79.02,3.62,-0.01,-0.15,0.41,89.89,0.109,1,0,0,0,0,0,0,0,0,0,90.4,0,1,0,-0.65,0,0,0,90,0,0,0,0,0,0,0,0,0,0,0,3,0,0,0,69,0,0,0,90.4,1,0,-0.508,0.0057,0.25,1,0.0057,0,0,0,0,0,0,1,1,0,0,VALID,0,0,0,0,0,1,0,0,0,0,0,0,0,0,0,0,0,0,0,0,79.78,517.86,2,0,0.08,0.08,69,14.29,0.08,0.06,4.14,LANDED,CF1-H,0:/Integrated Flight Computer/aircraft/cf1_h_cfg.ks (inferred preloaded)
4.5,TAKEOFF,TO_GROUND_ROLL,1.39,80,78.61,3.62,-0.01,-0.13,0.12,89.9,0.109,1,0,0,0,0,0,0,0,0,0,90.39,0,1,0,-0.27,0,0,0,90,0,0,0,0,0,0,0,0,0,0,0,3,0,0,0,69,0,0,0,90.39,1,0,-0.496,0.0056,0.25,1,0.0056,0,0,0,0,0,0,1,1,0,0,VALID,0,0,0,0,0,1,0,0,0,0,0,0,0,0,0,0,0,0,0,0,87.07,517.75,2,0,0.08,0.08,73,14.29,0.08,0.06,4.42,LANDED,CF1-H,0:/Integrated Flight Computer/aircraft/cf1_h_cfg.ks (inferred preloaded)
4.78,TAKEOFF,TO_GROUND_ROLL,1.83,80,78.17,3.62,-0.01,-0.15,0.15,89.91,0.108,1,0,0,0,0,0,0,0,0,0,90.39,0,1,0,-0.35,0,0,0,90,0,0,0,0,0,0,0,0,0,0,0,3,0,0,0,69,0,0,0,90.39,1,0,-0.481,0.0054,0.25,1,0.0054,0,0,0,0,0,0,1,1,0,0,VALID,0,0,0,0,0,1,0,0,0,0,0,0,0,0,0,0,0,0,0,0,94.23,517.64,2,0,0.08,0.08,77,14.29,0.08,0.06,4.7,LANDED,CF1-H,0:/Integrated Flight Computer/aircraft/cf1_h_cfg.ks (inferred preloaded)
5.06,TAKEOFF,TO_GROUND_ROLL,2.31,80,77.69,3.62,-0.02,-0.13,0.21,89.93,0.106,1,0,0,0,0,0,0,0,0,0,90.39,0,1,0,-0.39,0,0,0,90,0,0,0,0,0,0,0,0,0,0,0,3,0,0,0,69,0,0,0,90.39,1,0,-0.46,0.0052,0.25,1,0.0052,0,0,0,0,0,0,1,1,0,0,VALID,0,0,0,0,0,1,0,0,0,0,0,0,0,0,0,0,0,0,0,0,101.26,517.52,2,0,0.08,0.08,81,14.29,0.08,0.06,4.98,LANDED,CF1-H,0:/Integrated Flight Computer/aircraft/cf1_h_cfg.ks (inferred preloaded)
5.34,TAKEOFF,TO_GROUND_ROLL,2.82,80,77.18,3.62,-0.02,-0.13,0.15,89.95,0.105,1,0,0,0,0,0,0,0,0,0,90.38,0,1,0,-0.3,0,0,0,90,0,0,0,0,0,0,0,0,0,0,0,3,0,0,0,69,0,0,0,90.38,1,0,-0.435,0.0049,0.25,1,0.0049,0,0,0,0,0,0,1,1,0,0,VALID,0,0,0,0,0,1,0,0,0,0,0,0,0,0,0,0,0,0,0,0,108.17,517.38,2,0,0.08,0.08,85,14.29,0.08,0.06,5.26,LANDED,CF1-H,0:/Integrated Flight Computer/aircraft/cf1_h_cfg.ks (inferred preloaded)
5.62,TAKEOFF,TO_GROUND_ROLL,3.37,80,76.63,3.62,-0.02,-0.13,0.18,89.97,0.106,1,0,0,0,0,0,0,0,0,0,90.38,0,1,0,-0.35,0,0,0,90,0,0,0,0,0,0,0,0,0,0,0,3,0,0,0,69,0,0,0,90.38,1,0,-0.406,0.0046,0.25,1,0.0046,0,0,0,0,0,0,1,1,0,0,VALID,0,0,0,0,0,1,0,0,0,0,0,0,0,0,0,0,0,0,0,0,114.96,517.24,2,0,0.08,0.08,89,14.29,0.08,0.06,5.54,LANDED,CF1-H,0:/Integrated Flight Computer/aircraft/cf1_h_cfg.ks (inferred preloaded)
5.9,TAKEOFF,TO_GROUND_ROLL,3.95,80,76.05,3.62,-0.02,-0.12,0.19,90,0.106,1,0,0,0,0,0,0,0,0,0,90.38,0,1,0,-0.33,0,0,0,90,0,0,0,0,0,0,0,0,0,0,0,3,0,0,0,69,0,0,0,90.38,1,0,-0.374,0.0041,0.25,1,0.0041,0,0,0,0,0,0,1,1,0,0,VALID,0,0,0,0,0,1,0,0,0,0,0,0,0,0,0,0,0,0,0,0,121.63,517.08,2,0,0.08,0.08,93,14.29,0.08,0.06,5.82,LANDED,CF1-H,0:/Integrated Flight Computer/aircraft/cf1_h_cfg.ks (inferred preloaded)
6.18,TAKEOFF,TO_GROUND_ROLL,4.56,80,75.44,3.62,-0.03,-0.13,0.19,90.04,0.106,1,0,0,0,0,0,0,0,0,0,90.38,0,1,0,-0.34,0,0,0,90,0,0,0,0,0,0,0,0,0,0,0,3,0,0,0,69,0,0,0,90.38,1,0,-0.339,0.0036,0.25,1,0.0036,0,0,0,0,0,0,1,1,0,0,VALID,0,0,0,0,0,1,0,0,0,0,0,0,0,0,0,0,0,0,0,0,128.18,516.9,2,0,0.08,0.08,97,14.29,0.08,0.06,6.1,LANDED,CF1-H,0:/Integrated Flight Computer/aircraft/cf1_h_cfg.ks (inferred preloaded)
6.46,TAKEOFF,TO_GROUND_ROLL,5.2,80,74.8,3.62,-0.03,-0.12,0.2,90.07,0.103,1,0,0,0,0,0,0,0,0,0,90.37,0,1,0,-0.34,0,0,0,90,0,0,0,0,0,0,0,0,0,0,0,3,0,0,0,69,0,0,0,90.37,1,0,-0.303,0.003,0.25,1,0.003,0,0,0,0,0,0,1,1,0,0,VALID,0,0,0,0,0,1,0,0,0,0,0,0,0,0,0,0,0,0,0,0,134.61,516.72,2,0,0.08,0.08,101,14.29,0.08,0.06,6.38,LANDED,CF1-H,0:/Integrated Flight Computer/aircraft/cf1_h_cfg.ks (inferred preloaded)
6.74,TAKEOFF,TO_GROUND_ROLL,5.88,80,74.12,3.62,-0.03,-0.12,0.19,90.11,0.101,1,0,0,0,0,0,0,0,0,0,90.37,0,1,0,-0.34,0,0,0,90,0,0,0,0,0,0,0,0,0,0,0,3,0,0,0,69,0,0,0,90.37,1,0,-0.266,0.0026,0.25,1,0.0026,0,0,0,0,0,0,1,1,0,0,VALID,0,0,0,0,0,1,0,0,0,0,0,0,0,0,0,0,0,0,0,0,140.93,516.52,2,0,0.08,0.08,105,14.29,0.08,0.06,6.66,LANDED,CF1-H,0:/Integrated Flight Computer/aircraft/cf1_h_cfg.ks (inferred preloaded)
7.02,TAKEOFF,TO_GROUND_ROLL,6.58,80,73.42,3.62,-0.04,-0.12,0.19,90.14,0.1,1,0,0,0,0,0,0,0,0,0,90.37,0,1,0,-0.33,0,0,0,90,0,0,0,0,0,0,0,0,0,0,0,3,0,0,0,69,0,0,0,90.37,1,0,-0.23,0.0021,0.25,1,0.0021,0,0,0,0,0,0,1,1,0,0,VALID,0,0,0,0,0,1,0,0,0,0,0,0,0,0,0,0,0,0,0,0,147.13,516.31,2,0,0.08,0.08,109,14.29,0.08,0.06,6.94,LANDED,CF1-H,0:/Integrated Flight Computer/aircraft/cf1_h_cfg.ks (inferred preloaded)
7.3,TAKEOFF,TO_GROUND_ROLL,7.31,80,72.69,3.62,-0.04,-0.11,0.19,90.18,0.101,1,0,0,0,0,0,0,0,0,0,90.37,0,1,0,-0.33,0,0,0,90,0,0,0,0,0,0,0,0,0,0,0,3,0,0,0,69,0,0,0,90.37,1,0,-0.195,0.0017,0.25,1,0.0017,0,0,0,0,0,0,1,1,0,0,VALID,0,0,0,0,0,1,0,0,0,0,0,0,0,0,0,0,0,0,0,0,153.22,516.08,2,0,0.08,0.08,113,14.29,0.08,0.06,7.22,LANDED,CF1-H,0:/Integrated Flight Computer/aircraft/cf1_h_cfg.ks (inferred preloaded)
7.58,TAKEOFF,TO_GROUND_ROLL,8.08,80,71.92,3.62,-0.05,-0.11,0.19,90.21,0.101,1,0,0,0,0,0,0,0,0,0,90.38,0,1,0,-0.33,0,0,0,90,0,0,0,0,0,0,0,0,-0.001,0,0,3,0,0,0,69,0,0,0,90.38,1,-0.001,-0.161,0.0013,0.25,1,0.0013,0,0,0,0,0,0,1,1,0,0,VALID,0,0,0,0,0,1,0,0,0,0,0,0,0,0,0,0,0,0,0,0,159.19,515.84,2,0,0.08,0.08,117,14.29,0.08,0.06,7.5,LANDED,CF1-H,0:/Integrated Flight Computer/aircraft/cf1_h_cfg.ks (inferred preloaded)
7.86,TAKEOFF,TO_GROUND_ROLL,8.87,80,71.13,3.62,-0.05,-0.11,0.19,90.25,0.101,1,0,0,0,0,0,0,0,0,0,90.38,0,1,0,-0.33,0,0,0,90,0,0,0,0,0,0,0,0,-0.001,0,0,3,0,0,0,69,0,0,0,90.38,1,-0.001,-0.131,0.001,0.25,1,0.001,0,0,0,0,0,0,1,1,0,0,VALID,0,0,0,0,0,1,0,0,0,0,0,0,0,0,0,0,0,0,0,0,165.06,515.59,2,0,0.08,0.08,121,14.29,0.08,0.06,7.78,LANDED,CF1-H,0:/Integrated Flight Computer/aircraft/cf1_h_cfg.ks (inferred preloaded)
8.14,TAKEOFF,TO_GROUND_ROLL,9.69,80,70.31,3.62,-0.06,-0.11,0.2,90.28,0.1,1,0,0,0,0,0,0,0,0,0,90.38,0,1,0,-0.33,0,0,0,90,0,0,0,0,0,0,0,0,-0.001,0,0,3,0,0,0,69,0,0,0,90.38,1,-0.001,-0.103,0.0008,0.25,1,0.0008,0,0,0,0,0,0,1,1,0,0,VALID,0,0,0,0,0,1,0,0,0,0,0,0,0,0,0,0,0,0,0,0,170.81,515.31,2,0,0.08,0.08,125,14.29,0.08,0.06,8.06,LANDED,CF1-H,0:/Integrated Flight Computer/aircraft/cf1_h_cfg.ks (inferred preloaded)
8.42,TAKEOFF,TO_GROUND_ROLL,10.54,80,69.46,3.62,-0.06,-0.11,0.2,90.3,0.099,1,0,0,0,0,0,0,0,0,0,90.38,0,1,0,-0.33,0,0,0,90,0,0,0,0,0,0,0,0,-0.001,0,0,3,0,0,0,69,0,0,0,90.38,1,-0.001,-0.08,0.0006,0.25,1,0.0006,0,0,0,0,0,0,1,1,0,0,VALID,0,0,0,0,0,1,0,0,0,0,0,0,0,0,0,0,0,0,0,0,176.45,515.03,2,0,0.08,0.08,129,14.29,0.08,0.06,8.34,LANDED,CF1-H,0:/Integrated Flight Computer/aircraft/cf1_h_cfg.ks (inferred preloaded)
8.7,TAKEOFF,TO_GROUND_ROLL,11.42,80,68.58,3.62,-0.06,-0.1,0.2,90.32,0.099,1,0,0,0,0,0,0,0,0,0,90.38,0,1,0,-0.32,0,0,0,90,0,0,0,0,0,0,0,0,-0.002,0,0,3,0,0,0,69,0,0,0,90.38,1,-0.002,-0.06,0.0004,0.25,1,0.0004,0,0,0,0,0,0,1,1,0,0,VALID,0,0,0,0,0,1,0,0,0,0,0,0,0,0,0,0,0,0,0,0,181.99,514.72,2,0,0.08,0.08,133,14.29,0.08,0.06,8.62,LANDED,CF1-H,0:/Integrated Flight Computer/aircraft/cf1_h_cfg.ks (inferred preloaded)
8.98,TAKEOFF,TO_GROUND_ROLL,12.32,80,67.68,3.62,-0.07,-0.1,0.2,90.34,0.101,1,0,0,0,0,0,0,0,0,0,90.39,0,1,0,-0.33,0,0,0,90,0,0,0,0,0,0,0,0,-0.002,0,0,3,0,0,0,69,0,0,0,90.39,1,-0.002,-0.044,0.0003,0.25,1,0.0003,0,0,0,0,0,0,1,1,0,0,VALID,0,0,0,0,0,1,0,0,0,0,0,0,0,0,0,0,0,0,0,0,187.42,514.4,2,0,0.08,0.08,137,14.29,0.08,0.06,8.9,LANDED,CF1-H,0:/Integrated Flight Computer/aircraft/cf1_h_cfg.ks (inferred preloaded)
9.26,TAKEOFF,TO_GROUND_ROLL,13.25,80,66.75,3.62,-0.07,-0.1,0.2,90.36,0.102,1,0,0,0,0,0,0,0,0,0,90.39,0,1,0,-0.32,0,0,0,90,0,0,0,0,0,0,0,0,-0.003,0,0,3,0,0,0,69,0,0,0,90.39,1,-0.003,-0.031,0.0002,0.25,1,0.0002,0,0,0,0,0,0,1,1,0,0,VALID,0,0,0,0,0,1,0,0,0,0,0,0,0,0,0,0,0,0,0,0,192.75,514.06,2,0,0.08,0.08,141,14.29,0.08,0.06,9.18,LANDED,CF1-H,0:/Integrated Flight Computer/aircraft/cf1_h_cfg.ks (inferred preloaded)
9.54,TAKEOFF,TO_GROUND_ROLL,14.21,80,65.79,3.63,-0.08,-0.1,0.21,90.37,0.103,1,0,0,0,0,0,0,0,0,0,90.39,0,1,0,-0.32,0,0,0,90,0,0,0,0,0,0,0,0,-0.003,0,0,3,0,0,0,69,0,0,0,90.39,1,-0.003,-0.022,0.0001,0.25,1,0.0001,0,0,0,0,0,0,1,1,0,0,VALID,0,0,0,0,0,1,0,0,0,0,0,0,0,0,0,0,0,0,0,0,197.97,513.71,2,0,0.08,0.08,145,14.29,0.08,0.06,9.46,LANDED,CF1-H,0:/Integrated Flight Computer/aircraft/cf1_h_cfg.ks (inferred preloaded)
9.82,TAKEOFF,TO_GROUND_ROLL,15.19,80,64.81,3.63,-0.09,-0.1,0.21,90.38,0.103,1,0,0,0,0,0,0,0,0,0,90.39,0,1,0,-0.33,0,0,0,90,0,0,0,0,0,0,0,0,-0.004,0,0,3,0,0,0,69,0,0,0,90.39,1,-0.004,-0.014,0.0001,0.25,1,0.0001,0,0,0,0,0,0,1,1,0,0,VALID,0,0,0,0,0,1,0,0,0,0,0,0,0,0,0,0,0,0,0,0,203.08,513.34,2,0,0.08,0.08,149,14.29,0.08,0.06,9.74,LANDED,CF1-H,0:/Integrated Flight Computer/aircraft/cf1_h_cfg.ks (inferred preloaded)
10.1,TAKEOFF,TO_GROUND_ROLL,16.19,80,63.81,3.63,-0.09,-0.09,0.21,90.38,0.102,1,0,0,0,0,0,0,0,0,0,90.39,0,1,0,-0.32,0,0,0,90,0,0,0,0,0,0,0,0,-0.004,0,0,3,0,0,0,69,0,0,0,90.39,1,-0.004,-0.008,0,0.25,1,0,0,0,0,0,0,0,1,1,0,0,VALID,0,0,0,0,0,1,0,0,0,0,0,0,0,0,0,0,0,0,0,0,208.1,512.94,2,0,0.08,0.08,153,14.29,0.08,0.06,10.02,LANDED,CF1-H,0:/Integrated Flight Computer/aircraft/cf1_h_cfg.ks (inferred preloaded)
10.38,TAKEOFF,TO_GROUND_ROLL,17.22,80,62.78,3.63,-0.1,-0.09,0.21,90.39,0.103,1,0,0,0,0,0,0,0,0,0,90.39,0,1,0,-0.32,0,0,0.01,90,0,0,0,0,0,0,0,0,-0.005,0,0,3,0,0,0,69,0,0,0,90.39,1,-0.005,-0.005,0,0.25,1,0,0,0,0,0,0,0,1,1,0,0,VALID,0,0,0,0,0,1,0,0,0,0,0,0,0,0,0,0,0,0,0,0,213.01,512.53,2,0,0.08,0.08,157,14.29,0.08,0.06,10.3,LANDED,CF1-H,0:/Integrated Flight Computer/aircraft/cf1_h_cfg.ks (inferred preloaded)
10.66,TAKEOFF,TO_GROUND_ROLL,18.27,80,61.73,3.63,-0.1,-0.09,0.21,90.39,0.104,1,0,0,0,0,0,0,0,0,0,90.39,0,1,0,-0.32,0,0,0.01,90,0,0,0,0,0,0,0,0,-0.006,0,0,3,0,0,0,69,0,0,0,90.39,1,-0.006,-0.004,0,0.25,1,0,0,0,0,0,0,0,1,1,0,0,VALID,0,0,0,0,0,1,0,0,0,0,0,0,0,0,0,0,0,0,0,0,217.82,512.11,2,0,0.08,0.08,161,14.29,0.08,0.06,10.58,LANDED,CF1-H,0:/Integrated Flight Computer/aircraft/cf1_h_cfg.ks (inferred preloaded)
10.94,TAKEOFF,TO_GROUND_ROLL,19.35,80,60.65,3.63,-0.11,-0.09,0.21,90.39,0.106,1,0,0,0,0,0,0,0,0,0,90.39,0,1,0,-0.32,0,0,0.01,90,0,0,0,0,0,0,0,0,-0.007,0,0,3,0,0,0,69,0,0,0,90.39,1,-0.007,-0.005,0,0.25,1,0,0,0,0,0,0,0,1,1,0,0,VALID,0,0,0,0,0,1,0,0,0,0,0,0,0,0,0,0,0,0,0,0,222.53,511.66,2,0,0.08,0.08,165,14.29,0.08,0.06,10.86,LANDED,CF1-H,0:/Integrated Flight Computer/aircraft/cf1_h_cfg.ks (inferred preloaded)
11.22,TAKEOFF,TO_GROUND_ROLL,20.44,80,59.56,3.63,-0.11,-0.09,0.21,90.39,0.107,1,0,0,0,0,0,0,0,0,0,90.4,0,1,0,-0.32,0,0,0.01,90,0,0,0,0,0,0,0,0,-0.007,0,0,3,0,0,0,69,0,0,0,90.4,1,-0.007,-0.01,0.0001,0.255,0,0.0001,0,0,0,0,0,0,1,1,0,0,VALID,0,0,0,0,0,1,0,0,0,0,0,0,0,0,0,0,0,0,0,0,227.15,511.19,2,0,0.08,0.08,169,14.29,0.08,0.06,11.14,LANDED,CF1-H,0:/Integrated Flight Computer/aircraft/cf1_h_cfg.ks (inferred preloaded)
11.5,TAKEOFF,TO_GROUND_ROLL,21.56,80,58.44,3.63,-0.12,-0.08,0.22,90.38,0.107,1,0,0,0,0,0,0,0,0,0,90.39,0,1,0,-0.32,0,0,0.01,90,0,0,0,0,0,0,0,0,-0.008,0,0,3,0,0,0,69,0,0,0,90.39,1,-0.008,-0.009,0.0001,0.267,0,0.0001,0,0,0,0,0,0,1,1,0,0,VALID,0,0,0,0,0,1,0,0,0,0,0,0,0,0,0,0,0,0,0,0,231.66,510.7,2,0,0.08,0.08,173,14.29,0.08,0.06,11.42,LANDED,CF1-H,0:/Integrated Flight Computer/aircraft/cf1_h_cfg.ks (inferred preloaded)
11.78,TAKEOFF,TO_GROUND_ROLL,22.71,80,57.29,3.63,-0.13,-0.08,0.22,90.38,0.107,1,0,0,0,0,0,0,0,0,0,90.39,0,1,0,-0.32,0,0,0.01,90,0,0,0,0,0,0,0,0,-0.009,0,0,3,0,0,0,69,0,0,0,90.39,1,-0.009,-0.012,0.0001,0.279,0,0.0001,0,0,0,0,0,0,1,1,0,0,VALID,0,0,0,0,0,1,0,0,0,0,0,0,0,0,0,0,0,0,0,0,236.08,510.2,2,0,0.08,0.08,177,14.29,0.08,0.06,11.7,LANDED,CF1-H,0:/Integrated Flight Computer/aircraft/cf1_h_cfg.ks (inferred preloaded)
12.06,TAKEOFF,TO_GROUND_ROLL,23.87,80,56.13,3.63,-0.13,-0.08,0.22,90.37,0.107,1,0,0,0,0,0,0,0,0,0,90.4,0,1,0,-0.32,0,0,0.01,90,0,0,0,0,0,0,0,0,-0.01,0,0,3,0,0,0,69,0,0,0,90.4,1,-0.01,-0.025,0.0002,0.291,0,0.0002,0,0,0,0,0,0,1,1,0,0,VALID,0,0,0,0,0,1,0,0,0,0,0,0,0,0,0,0,0,0,0,0,240.4,509.67,2,0,0.08,0.08,181,14.29,0.08,0.06,11.98,LANDED,CF1-H,0:/Integrated Flight Computer/aircraft/cf1_h_cfg.ks (inferred preloaded)
12.34,TAKEOFF,TO_GROUND_ROLL,25.05,80,54.95,3.63,-0.14,-0.08,0.22,90.37,0.109,1,0,0,0,0,0,0,0,0,0,90.39,0,1,0,-0.31,0,0,0.01,90,0,0,0,0,0,0,0,0,-0.011,0,0,3,0,0,0,69,0,0,0,90.39,1,-0.011,-0.025,0.0002,0.304,0,0.0002,0,0,0,0,0,0,1,1,0,0,VALID,0,0,0,0,0,1,0,0,0,0,0,0,0,0,0,0,0,0,0,0,244.63,509.12,2,0,0.08,0.08,185,14.29,0.08,0.06,12.26,LANDED,CF1-H,0:/Integrated Flight Computer/aircraft/cf1_h_cfg.ks (inferred preloaded)
12.62,TAKEOFF,TO_GROUND_ROLL,26.25,80,53.75,3.63,-0.14,-0.08,0.22,90.37,0.108,1,0,0,0,0,0,0,0,0,0,90.39,0,1,0,-0.31,0,0,0.01,90,0,0,0,0,0,0,0,0,-0.012,0,0,3,0,0,0,69,0,0,0,90.39,1,-0.012,-0.02,0.0002,0.317,0,0.0002,0,0,0,0,0,0,1,1,0,0,VALID,0,0,0,0,0,1,0,0,0,0,0,0,0,0,0,0,0,0,0,0,248.76,508.56,2,0,0.08,0.08,189,14.29,0.08,0.06,12.54,LANDED,CF1-H,0:/Integrated Flight Computer/aircraft/cf1_h_cfg.ks (inferred preloaded)
12.9,TAKEOFF,TO_GROUND_ROLL,27.48,80,52.52,3.63,-0.15,-0.07,0.22,90.37,0.104,1,0,0,0,0,0,0,0,0,0,90.38,0,1,0,-0.31,0,0,0.01,90,0,0,0,0,0,0,0,0,-0.013,0,0,3,0,0,0,69,0,0,0,90.38,1,-0.013,-0.015,0.0001,0.33,0,0.0001,0,0,0,0,0,0,1,1,0,0,VALID,0,0,0,0,0,1,0,0,0,0,0,0,0,0,0,0,0,0,0,0,252.8,507.97,2,0,0.08,0.08,193,14.29,0.08,0.06,12.82,LANDED,CF1-H,0:/Integrated Flight Computer/aircraft/cf1_h_cfg.ks (inferred preloaded)
13.18,TAKEOFF,TO_GROUND_ROLL,28.72,80,51.28,3.63,-0.16,-0.07,0.22,90.37,0.1,1,0,0,0,0,0,0,0,0,0,90.39,0,1,0,-0.31,0,0,0.01,90,0,0,0,0,0,0,0,0,-0.014,0,0,3,0,0,0,69,0,0,0,90.39,1,-0.014,-0.013,0.0001,0.343,0,0.0001,0,0,0,0,0,0,1,1,0,0,VALID,0,0,0,0,0,1,0,0,0,0,0,0,0,0,0,0,0,0,0,0,256.75,507.36,2,0,0.08,0.08,197,14.29,0.08,0.06,13.1,LANDED,CF1-H,0:/Integrated Flight Computer/aircraft/cf1_h_cfg.ks (inferred preloaded)
13.46,TAKEOFF,TO_GROUND_ROLL,29.98,80,50.02,3.63,-0.16,-0.07,0.22,90.37,0.1,1,0,0,0,0,0,0,0,0,0,90.38,0,1,0,-0.31,0,0,0.01,90,0,0,0,0,0,0,0,0,-0.015,0,0,3,0,0,0,69,0,0,0,90.38,1,-0.015,-0.01,0.0001,0.357,0,0.0001,0,0,0,0,0,0,1,1,0,0,VALID,0,0,0,0,0,1,0,0,0,0,0,0,0,0,0,0,0,0,0,0,260.61,506.73,2,0,0.08,0.08,201,14.29,0.08,0.06,13.38,LANDED,CF1-H,0:/Integrated Flight Computer/aircraft/cf1_h_cfg.ks (inferred preloaded)
13.74,TAKEOFF,TO_GROUND_ROLL,31.25,80,48.75,3.63,-0.17,-0.07,0.22,90.38,0.104,1,0,0,0,0,0,0,0,0,0,90.38,0,1,0,-0.31,0,0,0.01,90,0,0,0,0,0,0,0,0,-0.016,0,0,3,0,0,0,69,0,0,0,90.38,1,-0.016,-0.007,0.0001,0.371,0,0.0001,0,0,0,0,0,0,1,1,0,0,VALID,0,0,0,0,0,1,0,0,0,0,0,0,0,0,0,0,0,0,0,0,264.37,506.08,2,0,0.08,0.08,205,14.29,0.08,0.06,13.66,LANDED,CF1-H,0:/Integrated Flight Computer/aircraft/cf1_h_cfg.ks (inferred preloaded)
14.02,TAKEOFF,TO_GROUND_ROLL,32.55,80,47.45,3.63,-0.18,-0.07,0.22,90.38,0.106,1,0,0,0,0,0,0,0,0,0,90.38,0,1,0,-0.31,0,0,0.01,90,0,0,0,0,0,0,0,0,-0.018,0,0,3,0,0,0,69,0,0,0,90.38,1,-0.018,-0.005,0,0.384,0,0,0,0,0,0,0,0,1,1,0,0,VALID,0,0,0,0,0,1,0,0,0,0,0,0,0,0,0,0,0,0,0,0,268.05,505.41,2,0,0.08,0.08,209,14.29,0.08,0.06,13.94,LANDED,CF1-H,0:/Integrated Flight Computer/aircraft/cf1_h_cfg.ks (inferred preloaded)
14.3,TAKEOFF,TO_GROUND_ROLL,33.86,80,46.14,3.63,-0.18,-0.07,0.22,90.38,0.106,1,0,0,0,0,0,0,0,0,0,90.38,0,1,0,-0.31,0,0,0.02,90,0,0,0,0,0,0,0,0,-0.019,0,0,3,0,0,0,69,0,0,0,90.38,1,-0.019,-0.005,0.0001,0.399,0,0.0001,0,0,0,0,0,0,1,1,0,0,VALID,0,0,0,0,0,1,0,0,0,0,0,0,0,0,0,0,0,0,0,0,271.63,504.72,2,0,0.08,0.08,213,14.29,0.08,0.06,14.22,LANDED,CF1-H,0:/Integrated Flight Computer/aircraft/cf1_h_cfg.ks (inferred preloaded)
14.58,TAKEOFF,TO_GROUND_ROLL,35.19,80,44.81,3.63,-0.19,-0.06,0.22,90.37,0.105,1,0,0,0,0,0,0,0,0,0,90.38,0,1,0,-0.31,0,0,0.02,90,0,0,0,0,0,0,0,0,-0.02,0,0,3,0,0,0,69,0,0,0,90.38,1,-0.02,-0.009,0.0001,0.413,0,0.0001,0,0,0,0,0,0,1,1,0,0,VALID,0,0,0,0,0,1,0,0,0,0,0,0,0,0,0,0,0,0,0,0,275.13,504.01,2,0,0.08,0.08,217,14.29,0.08,0.06,14.5,LANDED,CF1-H,0:/Integrated Flight Computer/aircraft/cf1_h_cfg.ks (inferred preloaded)
14.86,TAKEOFF,TO_GROUND_ROLL,36.54,80,43.46,3.63,-0.19,-0.06,0.23,90.37,0.106,1,0,0,0,0,0,0,0,0,0,90.38,0,1,0,-0.3,0,0,0.02,90,0,0,0,0,0,0,0,0,-0.022,0,0,3,0,0,0,69,0,0,0,90.38,1,-0.022,-0.008,0.0001,0.427,0,0.0001,0,0,0,0,0,0,1,1,0,0,VALID,0,0,0,0,0,1,0,0,0,0,0,0,0,0,0,0,0,0,0,0,278.55,503.28,2,0,0.08,0.08,221,14.29,0.08,0.06,14.78,LANDED,CF1-H,0:/Integrated Flight Computer/aircraft/cf1_h_cfg.ks (inferred preloaded)
15.14,TAKEOFF,TO_GROUND_ROLL,37.82,80,42.18,3.63,-0.2,-0.06,0.23,90.37,0.106,1,0,0,0,0,0,0,0,0,0,90.38,0,1,0,-0.31,0,0,0.02,90,0,0,0,0,0,0,0,0,-0.023,0,0,3,0,0,0,69,0,0,0,90.38,1,-0.023,-0.006,0.0001,0.441,0,0.0001,0,0,0,0,0,0,1,1,0,0,VALID,0,0,0,0,0,1,0,0,0,0,0,0,0,0,0,0,0,0,0,0,281.93,502.58,2,0,0.051,0.051,226,17.71,0.08,0.041,15.07,LANDED,CF1-H,0:/Integrated Flight Computer/aircraft/cf1_h_cfg.ks (inferred preloaded)
15.4,TAKEOFF,TO_GROUND_ROLL,39.02,80,40.98,3.63,-0.21,-0.06,0.23,90.37,0.107,1,0,0,0,0,0,0,0,0,0,90.38,0,1,0,-0.3,0,0,0.02,90,0,0,0,0,0,0,0,0,-0.024,0,0,3,0,0,0,69,0,0,0,90.38,1,-0.024,-0.008,0.0001,0.454,0,0.0001,0,0,0,0,0,0,1,1,0,0,VALID,0,0,0,0,0,1,0,0,0,0,0,0,0,0,0,0,0,0,0,0,284.99,501.9,2,0,0.053,0.053,230,15.33,0.079,0.051,15.33,LANDED,CF1-H,0:/Integrated Flight Computer/aircraft/cf1_h_cfg.ks (inferred preloaded)
15.68,TAKEOFF,TO_GROUND_ROLL,40.35,80,39.65,3.63,-0.21,-0.06,0.23,90.37,0.108,1,0,0,0,0,0,0,0,0,0,90.38,0,1,0,-0.3,0,0,0.02,90,0,0,0,0,0,0,0,0,-0.026,0,0,3,0,0,0,69,0,0,0,90.38,1,-0.026,-0.009,0.0001,0.468,0,0.0001,0,0,0,0,0,0,1,1,0,0,VALID,0,0,0,0,0,1,0,0,0,0,0,0,0,0,0,0,0,0,0,0,288.1,501.15,2,0,0.056,0.056,234,14.59,0.083,0.053,15.61,LANDED,CF1-H,0:/Integrated Flight Computer/aircraft/cf1_h_cfg.ks (inferred preloaded)
15.94,TAKEOFF,TO_GROUND_ROLL,41.61,80,38.39,3.63,-0.22,-0.05,0.23,90.37,0.109,1,0,0,0,0,0,0,0,0,0,90.37,0,1,0,-0.3,0,0,0.02,90,0,0,0,0,0,0,0,0,-0.027,0,0,3,0,0,0,69,0,0,0,90.37,1,-0.027,-0.008,0.0001,0.482,0,0.0001,0,0,0,0,0,0,1,1,0,0,VALID,0,0,0,0,0,1,0,0,0,0,0,0,0,0,0,0,0,0,0,0,290.97,500.43,2,0,0.088,0.088,237,11.59,0.114,0.056,15.87,LANDED,CF1-H,0:/Integrated Flight Computer/aircraft/cf1_h_cfg.ks (inferred preloaded)
16.23,TAKEOFF,TO_GROUND_ROLL,43.09,80,36.91,3.63,-0.22,-0.05,0.23,90.36,0.11,1,0,0,0,0,0,0,0,0,0,90.37,0,1,0,-0.3,0,0,0.02,90,0,0,0,0,0,0,0,0,-0.029,0,0,3,0,0,0,69,0,0,0,90.37,1,-0.029,-0.01,0.0001,0.497,0,0.0001,0,0,0,0,0,0,1,1,0,0,VALID,0,0,0,0,0,1,0,0,0,0,0,0,0,0,0,0,0,0,0,0,294.19,499.57,2,0,0.06,0.06,241,13.38,0.09,0.06,16.17,LANDED,CF1-H,0:/Integrated Flight Computer/aircraft/cf1_h_cfg.ks (inferred preloaded)
16.54,TAKEOFF,TO_GROUND_ROLL,44.64,80,35.36,3.63,-0.23,-0.05,0.23,90.36,0.109,1,0,0,0,0,0,0,0,0,0,90.37,0,1,0,-0.3,0,0,0.02,90,0,0,0,0,0,0,0,0,-0.031,0,0,3,0,0,0,69,0,0,0,90.37,1,-0.031,-0.008,0.0001,0.514,0,0.0001,0,0,0,0,0,0,1,1,0,0,VALID,0,0,0,0,0,1,0,0,0,0,0,0,0,0,0,0,0,0,0,0,297.43,498.65,2,0,0.063,0.063,245,12.94,0.093,0.06,16.48,LANDED,CF1-H,0:/Integrated Flight Computer/aircraft/cf1_h_cfg.ks (inferred preloaded)
16.8,TAKEOFF,TO_GROUND_ROLL,45.94,80,34.06,3.63,-0.24,-0.05,0.23,90.36,0.108,1,0,0,0,0,0,0,0,0,0,90.37,0,1,0,-0.3,0,0,0.03,90,0,0,0,0,0,0,0,0,-0.032,0,0,3,0,0,0,69,0,0,0,90.37,1,-0.032,-0.004,0.0001,0.528,0,0.0001,0,0,0,0,0,0,1,1,0,0,VALID,0,0,0,0,0,1,0,0,0,0,0,0,0,0,0,0,0,0,0,0,300.07,497.88,2,0,0.098,0.098,248,11.6,0.098,0.063,16.74,LANDED,CF1-H,0:/Integrated Flight Computer/aircraft/cf1_h_cfg.ks (inferred preloaded)
17.07,TAKEOFF,TO_GROUND_ROLL,47.3,80,32.7,3.63,-0.24,-0.05,0.23,90.37,0.106,1,0,0,0,0,0,0,0,0,0,90.36,0,1,0,-0.3,0,0,0.03,90,0,0,0,0,0,0,0,0,-0.034,0,0,3,0,0,0,69,0,0,0,90.36,1,-0.034,0.002,0,0.543,0,0,0,0,0,0,0,0,1,1,0,0,VALID,0,0,0,0,0,1,0,0,0,0,0,0,0,0,0,0,0,0,0,0,302.75,497.05,2,0,0.102,0.102,251,11.14,0.102,0.067,17.01,LANDED,CF1-H,0:/Integrated Flight Computer/aircraft/cf1_h_cfg.ks (inferred preloaded)
17.35,TAKEOFF,TO_GROUND_ROLL,48.73,80,31.27,3.63,-0.25,-0.04,0.23,90.37,0.105,1,0,0,0,0,0,0,0,0,0,90.36,0,1,0,-0.3,0,0,0.03,90,0,0,0,0,0,0,0,0,-0.036,0,0,3,0,0,0,69,0,0,0,90.36,1,-0.036,0.008,-0.0001,0.558,0,-0.0001,0,0,0,0,0,0,1,1,0,0,VALID,0,0,0,0,0,1,0,0,0,0,0,0,0,0,0,0,0,0,0,0,305.44,496.18,2,0,0.105,0.105,254,10.76,0.105,0.07,17.29,LANDED,CF1-H,0:/Integrated Flight Computer/aircraft/cf1_h_cfg.ks (inferred preloaded)
17.7,TAKEOFF,TO_GROUND_ROLL,50.58,80,29.42,3.64,-0.26,-0.04,0.23,90.37,0.105,1,0,0,0,0,0,0,0,0,0,90.36,0,1,0,-0.29,0,0,0.03,90,0,0,0,0,0,0,0,0,-0.038,0,0,3,0,0,0,69,0,0,0,90.36,1,-0.038,0.013,-0.0002,0.578,0,-0.0002,0,0,0,0,0,0,1,1,0,0,VALID,0,0,0,0,0,1,0,0,0,0,0,0,0,0,0,0,0,0,0,0,308.7,495.03,2,0,0.105,0.105,257,8.57,0.14,0.105,17.64,LANDED,CF1-H,0:/Integrated Flight Computer/aircraft/cf1_h_cfg.ks (inferred preloaded)
17.98,TAKEOFF,TO_GROUND_ROLL,52.07,80,27.93,3.64,-0.26,-0.04,0.23,90.38,0.106,1,0,0,0,0,0,0,0,0,0,90.36,0,1,0,-0.29,0,0,0.03,90,0,0,0,0,0,0,0,0,-0.04,0,0,3,0,0,0,69,0,0,0,90.36,1,-0.04,0.018,-0.0003,0.594,0,-0.0003,0,0,0,0,0,0,1,1,0,0,VALID,0,0,0,0,0,1,0,0,0,0,0,0,0,0,0,0,0,0,0,0,311.22,494.1,2,0,0.105,0.105,260,10.71,0.105,0.07,17.92,LANDED,CF1-H,0:/Integrated Flight Computer/aircraft/cf1_h_cfg.ks (inferred preloaded)
18.33,TAKEOFF,TO_GROUND_ROLL,53.96,80,26.04,3.64,-0.27,-0.04,0.23,90.38,0.106,1,0,0,0,0,0,0,0,0,0,90.35,0,1,0,-0.29,0,0,0.03,90,0,0,0,0,0,0,0,0,-0.043,0,0,3,0,0,0,69,0,0,0,90.35,1,-0.043,0.025,-0.0004,0.614,0,-0.0004,0,0,0,0,0,0,1,1,0,0,VALID,0,0,0,0,0,1,0,0,0,0,0,0,0,0,0,0,0,0,0,0,314.27,492.9,2,0,0.105,0.105,263,8.57,0.14,0.105,18.27,LANDED,CF1-H,0:/Integrated Flight Computer/aircraft/cf1_h_cfg.ks (inferred preloaded)
18.61,TAKEOFF,TO_GROUND_ROLL,55.48,80,24.52,3.64,-0.28,-0.04,0.23,90.38,0.104,1,0,0,0,0,0,0,0,0,0,90.35,0,1,0,-0.29,0,0,0.03,90,0,0,0,0,0,0,0,0,-0.045,0,0,3,0,0,0,69,0,0,0,90.35,1,-0.045,0.032,-0.0005,0.63,0,-0.0005,0,0,0,0,0,0,1,1,0,0,VALID,0,0,0,0,0,1,0,0,0,0,0,0,0,0,0,0,0,0,0,0,316.62,491.92,2,0,0.105,0.105,266,10.71,0.105,0.07,18.55,LANDED,CF1-H,0:/Integrated Flight Computer/aircraft/cf1_h_cfg.ks (inferred preloaded)
18.96,TAKEOFF,TO_GROUND_ROLL,57.39,80,22.61,3.64,-0.28,-0.03,0.24,90.39,0.102,1,0,0,0,0,0,0,0,0,0,90.35,0,1,0,-0.28,0,0,0.04,90,0,0,0,0,0,0,0,0,-0.048,0,0,3,0,0,0,69,0,0,0,90.35,1,-0.048,0.041,-0.0007,0.651,0,-0.0007,0,0,0,0,0,0,1,1,0,0,VALID,0,0,0,0,0,1,0,0,0,0,0,0,0,0,0,0,0,0,0,0,319.46,490.68,2,0,0.105,0.105,269,8.57,0.14,0.105,18.9,LANDED,CF1-H,0:/Integrated Flight Computer/aircraft/cf1_h_cfg.ks (inferred preloaded)
19.24,TAKEOFF,TO_GROUND_ROLL,58.94,80,21.06,3.64,-0.29,-0.01,0.26,90.39,0.102,1,0,0,0,0,0,0,0,0,0,90.35,0,1,0,-0.28,0,0,0.04,90,0,0,0,0,0,0,0,0,-0.05,0,0,3,0,0,0,69,0,0,0,90.35,1,-0.05,0.049,-0.0009,0.667,0,-0.0009,0,0,0,0,0,0,1,1,0,0,VALID,0,0,0,0,0,1,0,0,0,0,0,0,0,0,0,0,0,0,0,0,321.66,489.67,2,0,0.105,0.105,272,10.71,0.105,0.07,19.18,LANDED,CF1-H,0:/Integrated Flight Computer/aircraft/cf1_h_cfg.ks (inferred preloaded)
19.59,TAKEOFF,TO_GROUND_ROLL,60.88,80,19.12,3.65,-0.3,0.04,0.29,90.4,0.102,1,0,0,0,0,0,0,0,0,0,90.34,0,1,0,-0.28,0,0,0.04,90,0,0,0,0,0,0,0,0,-0.053,0,0,3,0,0,0,69,0,0,0,90.34,1,-0.053,0.058,-0.0011,0.688,0,-0.0011,0,0,0,0,0,0,1,1,0,0,VALID,0,0,0,0,0,1,0,0,0,0,0,0,0,0,0,0,0,0,0,0,324.3,488.39,2,0,0.105,0.105,275,8.57,0.14,0.105,19.53,LANDED,CF1-H,0:/Integrated Flight Computer/aircraft/cf1_h_cfg.ks (inferred preloaded)
19.87,TAKEOFF,TO_GROUND_ROLL,62.44,80,17.56,3.66,-0.3,0.08,0.33,90.41,0.101,1,0,0,0,0,0,0,0,0,0,90.34,0,1,0,-0.28,0,0,0.04,90,0,0,0,0,0,0,0,0,-0.055,0,0,3,0,0,0,69,0,0,0,90.34,1,-0.055,0.066,-0.0013,0.705,0,-0.0013,0,0,0,0,0,0,1,1,0,0,VALID,0,0,0,0,0,1,0,0,0,0,0,0,0,0,0,0,0,0,0,0,326.35,487.34,2,0,0.105,0.105,278,10.71,0.105,0.07,19.81,LANDED,CF1-H,0:/Integrated Flight Computer/aircraft/cf1_h_cfg.ks (inferred preloaded)
20.22,TAKEOFF,TO_GROUND_ROLL,64.4,80,15.6,3.68,-0.34,0.14,0.39,90.41,0.101,1,0,0,0,0,0,0,0,0,0,90.34,0,1,0,-0.3,0,0,0.04,90,0,0,0,0,0,0,0,0,-0.059,0,0,3,0,0,0,69,0,0,0,90.34,1,-0.059,0.074,-0.0015,0.726,0,-0.0015,0,0,0,0,0,0,1,1,0,0,VALID,0,0,0,0,0,1,0,0,0,0,0,0,0,0,0,0,0,0,0,0,328.8,486.02,2,0,0.105,0.105,281,8.57,0.14,0.105,20.16,LANDED,CF1-H,0:/Integrated Flight Computer/aircraft/cf1_h_cfg.ks (inferred preloaded)
20.5,TAKEOFF,TO_GROUND_ROLL,65.98,80,14.02,3.69,-0.29,0.22,0.45,90.42,0.101,1,0,0,0,0,0,0,0,0,0,90.33,0,1,0,-0.25,0,0,0.05,90,0,0,0,0,0,0,0,0,-0.062,0,0,3,0,0,0,69,0,0,0,90.33,1,-0.062,0.082,-0.0018,0.743,0,-0.0018,0,0,0,0,0,0,1,1,0,0,VALID,0,0,0,0,0,1,0,0,0,0,0,0,0,0,0,0,0,0,0,0,330.7,484.95,2,0,0.105,0.105,284,10.71,0.105,0.07,20.44,LANDED,CF1-H,0:/Integrated Flight Computer/aircraft/cf1_h_cfg.ks (inferred preloaded)
20.85,TAKEOFF,TO_GROUND_ROLL,67.97,80,12.03,3.71,-0.17,0.26,0.32,90.42,0.103,1,0,0,0,0,0,0,0,0,0,90.33,0,1,0,-0.15,0,0,0.05,90,0,0,0,0,0,0,0,0,-0.065,0,0,3,0,0,0,69,0,0,0,90.33,1,-0.065,0.09,-0.002,0.764,0,-0.002,0,0,0,0,0,0,1,1,0,0,VALID,0,0,0,0,0,1,0,0,0,0,0,0,0,0,0,0,0,0,0,0,332.97,483.59,2,0,0.105,0.105,287,8.57,0.14,0.105,20.79,LANDED,CF1-H,0:/Integrated Flight Computer/aircraft/cf1_h_cfg.ks (inferred preloaded)
21.13,TAKEOFF,TO_GROUND_ROLL,69.57,80,10.43,3.71,-0.29,0.33,0.59,90.43,0.1,1,0,0,0,0,0,0,0,0,0,90.33,0,1,0,-0.24,0,0,0.05,90,0,0,0,0,0,0,0,0,-0.068,0,0,3,0,0,0,69,0,0,0,90.33,1,-0.068,0.099,-0.0023,0.781,0,-0.0023,0,0,0,0,0,0,1,1,0,0,VALID,0,0,0,0,0,1,0,0,0,0,0,0,0,0,0,0,0,0,0,0,334.73,482.49,2,0,0.105,0.105,290,10.71,0.105,0.07,21.07,LANDED,CF1-H,0:/Integrated Flight Computer/aircraft/cf1_h_cfg.ks (inferred preloaded)
21.41,TAKEOFF,TO_ROTATE,71.17,80,8.83,3.72,-0.36,0.35,0.62,90.43,0.099,1,0,0,0,0,0,0,0,0,0,90.33,0.651,1,0,-0.29,0,0,0.05,90,0,0,0,0,0,0,0,0,-0.071,0,0,3,0,0,0,69,0,0,0,90.33,1,-0.071,0.104,-0.0025,0.796,0,-0.0025,0,0.12,0.651,0.303,0.08,0,1,1,0,0,VALID,0,0,0,0,0,1,0,0,0,0,0,0,0,0,0,0,0,0,0,0,336.42,481.38,2,0,0.105,0.105,292,7.14,0.14,0.105,21.31,LANDED,CF1-H,0:/Integrated Flight Computer/aircraft/cf1_h_cfg.ks (inferred preloaded)
21.76,TAKEOFF,TO_ROTATE,73.18,80,6.82,3.73,-0.33,0.41,0.65,90.44,0.101,1,0,0,0,0,0,0,0,0,0,90.32,1.701,1,0,-0.26,0,0,0.05,90,0,0,0,0,0,0,0,0,-0.075,0,0,3,0,0,0,69,0,0,0,90.32,1,-0.075,0.113,-0.0028,0.818,0,-0.0028,0,0.1836,1.701,1.295,0.08,0,1,1,0,0,VALID,0,0,0,0,0,1,0,0,0,0,0,0,0,0,0,0,0,0,0,0,338.45,479.98,2,0,0.105,0.105,295,8.57,0.14,0.105,21.66,LANDED,CF1-H,0:/Integrated Flight Computer/aircraft/cf1_h_cfg.ks (inferred preloaded)
22.11,TAKEOFF,TO_ROTATE,75.2,80,4.8,3.77,-0.33,0.62,0.85,90.44,0.101,1,0,0,0,0,0,0,0,0,0,90.32,2.751,1,0,-0.25,0,0,0.06,90,0,0,0,0,0,0,0,0,-0.079,0,0,3,0,0,0,69,0,0,0,90.32,1,-0.079,0.121,-0.0031,0.839,0,-0.0031,0,0.2508,2.751,2.135,0.08,0,1,1,0,0,VALID,0,0,0,0,0,1,0,0,0,0,0,0,0,0,0,0,0,0,0,0,340.4,478.57,2,0,0.105,0.105,298,8.57,0.14,0.105,22.01,LANDED,CF1-H,0:/Integrated Flight Computer/aircraft/cf1_h_cfg.ks (inferred preloaded)
22.46,TAKEOFF,TO_ROTATE,77.22,80,2.78,3.84,-0.33,0.96,1.2,90.44,0.099,1,0,0,0,0,0,0,0,0,0,90.31,3.801,1,0,-0.24,0,0,0.06,90,0,0,0,0,0,0,0,0,-0.083,0,0,3,0,0,0,69,0,0,0,90.31,1,-0.083,0.129,-0.0035,0.861,0,-0.0035,0,0.3069,3.801,2.836,0.08,0,1,1,0,0,VALID,0,0,0,0,0,1,0,0,0,0,0,0,0,0,0,0,0,0,0,0,342.26,477.15,2,0,0.105,0.105,301,8.57,0.14,0.105,22.36,LANDED,CF1-H,0:/Integrated Flight Computer/aircraft/cf1_h_cfg.ks (inferred preloaded)
22.78,TAKEOFF,TO_ROTATE,79.03,80,0.97,3.89,-0.33,1.29,1.52,90.45,0.097,1,0,0,0,0,0,0,0,0,0,90.31,4.746,1,0,-0.24,0,0,0.06,90,0,0,0,0,0,0,0,0,-0.087,0,0,3,0,0,0,69,0,0,0,90.31,1,-0.087,0.136,-0.0038,0.88,0,-0.0038,0,0.3567,4.746,3.459,0.08,0,1,1,0,0,VALID,0,0,0,0,0,1,0,0,0,0,0,0,0,0,0,0,0,0,0,0,343.86,475.86,2,0,0.105,0.105,304,9.52,0.105,0.105,22.68,LANDED,CF1-H,0:/Integrated Flight Computer/aircraft/cf1_h_cfg.ks (inferred preloaded)
23.13,TAKEOFF,TO_ROTATE,81.05,80,-1.05,3.96,-0.31,1.61,1.81,90.45,0.094,1,0,0,0,0,0,0,0,0,0,90.31,5.796,1,0,-0.22,0,0,0.07,90,0,0,0,0,0,0,0,0,-0.092,0,0,3,0,0,0,69,0,0,0,90.31,1,-0.092,0.145,-0.0042,0.902,0,-0.0042,0,0.4152,5.796,4.189,0.08,0,1,1,0,0,VALID,0,0,0,0,0,1,0,0,0,0,0,0,0,0,0,0,0,0,0,0,345.57,474.44,2,0,0.105,0.105,307,8.57,0.14,0.105,23.03,LANDED,CF1-H,0:/Integrated Flight Computer/aircraft/cf1_h_cfg.ks (inferred preloaded)
23.44,TAKEOFF,TO_ROTATE,82.85,80,-2.85,4.07,-0.24,1.98,2.08,90.45,0.091,1,0,0,0,0,0,0,0,0,0,90.3,6.741,1,0,-0.11,0,0,0.07,90,0,0,0,0,0,0,0,0,-0.096,0,0,3,0,0,0,69,0,0,0,90.3,1,-0.096,0.152,-0.0046,0.921,0,-0.0046,0,0.45,6.741,4.764,0.08,0,1,1,0,0,VALID,0,0,0,0,0,1,0,0,0,0,0,0,0,0,0,0,0,0,0,0,347.05,473.15,2,0,0.105,0.105,310,9.52,0.105,0.105,23.34,LANDED,CF1-H,0:/Integrated Flight Computer/aircraft/cf1_h_cfg.ks (inferred preloaded)
23.79,TAKEOFF,TO_ROTATE,84.84,80,-4.84,4.23,-0.18,2.82,2.94,90.46,0.093,1,0,0,0,0,0,0,0,0,0,90.3,7.791,1,0,-0.13,0,0,0.07,90,0,0,0,0,0,0,0,0,-0.101,0,0,3,0,0,0,69,0,0,0,90.3,1,-0.101,0.163,-0.0051,0.943,0,-0.0051,0,0.45,7.791,4.973,0.08,0,1,1,0,0,VALID,0,0,0,0,0,1,0,0,0,0,0,0,0,0,0,0,0,0,0,0,348.62,471.74,2,0,0.105,0.105,313,8.57,0.14,0.105,23.69,LANDED,CF1-H,0:/Integrated Flight Computer/aircraft/cf1_h_cfg.ks (inferred preloaded)
24.11,TAKEOFF,TO_ROTATE,86.59,80,-6.59,4.44,-0.25,3.84,4.01,90.46,0.091,1,0,0,0,0,0,0,0,0,0,90.29,8.736,1,0,-0.18,0,0,0.07,90,0,0,0,0,0,0,0,0,-0.105,0,0,3,0,0,0,69,0,0,0,90.29,1,-0.105,0.171,-0.0055,0.961,0,-0.0055,0,0.45,8.736,4.895,0.08,0,1,1,0,0,VALID,0,0,0,0,0,1,0,0,0,0,0,0,0,0,0,0,0,0,0,0,350,470.48,2,0,0.105,0.105,316,9.52,0.105,0.105,24.01,LANDED,CF1-H,0:/Integrated Flight Computer/aircraft/cf1_h_cfg.ks (inferred preloaded)
24.46,TAKEOFF,TO_ROTATE,88.48,80,-8.48,4.72,-0.05,5.13,5.2,90.47,0.078,1,0,0,0,0,0,0,0,0,0,90.29,9.786,1,0,-0.07,0,0,0.08,90,0,0,0,0,0,0,0,0,-0.11,0,0,3,0,0,0,69,0,0,0,90.29,1,-0.11,0.175,-0.0058,0.982,0,-0.0058,0,0.45,9.786,4.651,0.08,0,1,1,0,0,VALID,0,0,0,0,0,1,0,0,0,0,0,0,0,0,0,0,0,0,0,0,351.49,469.13,2,0,0.105,0.105,319,8.57,0.14,0.105,24.36,LANDED,CF1-H,0:/Integrated Flight Computer/aircraft/cf1_h_cfg.ks (inferred preloaded)
24.81,TAKEOFF,TO_ROTATE,90.27,80,-10.27,5.1,0.77,6.08,5.63,90.47,0.056,1,0,0,0,0,0,0,0,0,0,90.4,10,0,1,0.49,0,0,10,90.4,-0.828,-0.0067,0.5607,10,90.4,0,0,0,0,0,0,3,0,0,0,69,0,0,0,90.4,1,0,0.071,0,0,3,0,0,0,10,3.925,0,0,1,1,0,0,VALID,0,0,0,0,0,1,0,0,0,0,0,0,0,0,0,0,0,0,0,0,352.96,467.84,2,0,0.105,0.105,323,11.43,0.105,0.07,24.71,FLYING,CF1-H,0:/Integrated Flight Computer/aircraft/cf1_h_cfg.ks (inferred preloaded)
25.12,TAKEOFF,TO_ROTATE,91.81,80,-11.81,5.67,1.56,6.51,5.58,90.47,0.029,1,0,0,0,0,0,0,0,0,0,90.4,10,0,1,0.97,0,0,10,90.4,-0.828,-0.0067,0.5607,10,90.4,0,0,0,0,0,0,3,0,0,0,69,0,0,0,90.4,1,0,0.068,0,0,3,0,0,0,10,3.494,0,0,1,1,0,0,VALID,0,0,0,0,0,1,0,0,0,0,0,0,0,0,0,0,0,0,0,0,354.26,466.7,2,0,0.105,0.105,326,9.52,0.105,0.105,25.02,FLYING,CF1-H,0:/Integrated Flight Computer/aircraft/cf1_h_cfg.ks (inferred preloaded)
25.44,TAKEOFF,TO_CLIMB,93.33,80,-13.33,6.52,2.52,7.01,5.56,90.47,0.008,0.958,0,0,0,0,0,0,0,0,0,90.4,7.022,0,1,1.54,0,0,10,90.4,-0.856,-0.0068,0.5169,7.02,90.4,0,0,0,0,0,0,3,0,0,0,69,0,0,0,90.4,1,0,0.067,0,0,3,0,0,0,10,3.146,0,0,1,1,0,0,VALID,0,0,0,0,0,1,0,0,0,0,0,0,0,0,0,0,0,0,0,0,355.5,465.57,2,0,0.105,0.105,329,9.52,0.105,0.105,25.34,FLYING,CF1-H,0:/Integrated Flight Computer/aircraft/cf1_h_cfg.ks (inferred preloaded)
25.75,TAKEOFF,TO_CLIMB,94.82,80,-14.82,7.48,3.5,6.12,4.25,90.47,-0.006,0.8518,0,0,0,0,0,0,0,0,0,90.4,7.526,0,1,2.12,0,0,7.36,90.4,-0.8515,-0.0068,0.5243,7.53,90.4,0,0,0,0,0,0,3,0,0,0,69,0,0,0,90.4,1,0,0.067,0,0,3,0,0,0,10,3.146,0,0,1,1,0,0,VALID,0,0,0,0,0,1,0,0,0,0,0,0,0,0,0,0,0,0,0,0,356.21,464.44,2,0,0.105,0.105,332,9.52,0.105,0.105,25.65,FLYING,CF1-H,0:/Integrated Flight Computer/aircraft/cf1_h_cfg.ks (inferred preloaded)
26.07,TAKEOFF,TO_CLIMB,96.35,80,-16.35,8.68,3.74,5.73,3.62,90.47,-0.01,0.8365,0,0,0,0,0,0,0,0,0,90.4,8,0,1,2.22,0,0,7.86,90.4,-0.8472,-0.0068,0.5313,8,90.4,0,0,0,0,0,0,3,0,0,0,69,0,0,0,90.4,1,0,0.068,0,0,3,0,0,0,10,3.146,0,0,1,1,0,0,VALID,0,0,0,0,0,1,0,0,0,0,0,0,0,0,0,0,0,0,0,0,356.07,463.27,2,0,0.105,0.105,335,9.52,0.105,0.105,25.97,FLYING,CF1-H,0:/Integrated Flight Computer/aircraft/cf1_h_cfg.ks (inferred preloaded)
26.38,TAKEOFF,TO_CLIMB,97.93,80,-17.93,10.08,4.06,6.11,3.81,90.47,-0.024,0.8207,0,0,0,0,0,0,0,0,0,90.4,8,0,1,2.37,0,0,8,90.4,-0.8472,-0.0068,0.5313,8,90.4,0,0,0,0,0,0,3,0,0,0,69,0,0,0,90.4,1,0,0.067,0,0,3,0,0,0,10,3.146,0,0,1,1,0,0,VALID,0,0,0,0,0,1,0,0,0,0,0,0,0,0,0,0,0,0,0,0,355.72,462.05,2,0,0.105,0.105,338,9.52,0.105,0.105,26.28,FLYING,CF1-H,0:/Integrated Flight Computer/aircraft/cf1_h_cfg.ks (inferred preloaded)
26.7,TAKEOFF,TO_CLIMB,99.48,80,-19.48,11.7,4.64,6.72,4.08,90.46,-0.045,0.8052,0,0,0,0,0,0,0,0,0,90.4,8,0,1,2.67,0,0,8,90.4,-0.8472,-0.0068,0.5312,8,90.4,0,0,0,0,0,0,3,0,0,0,69,0,0,0,90.4,1,0,0.064,0,0,3,0,0,0,10,3.146,0,0,1,1,0,0,VALID,0,0,0,0,0,1,0,0,0,0,0,0,0,0,0,0,0,0,0,0,355.22,460.85,2,0,0.105,0.105,341,9.52,0.105,0.105,26.6,FLYING,CF1-H,0:/Integrated Flight Computer/aircraft/cf1_h_cfg.ks (inferred preloaded)
27.01,TAKEOFF,TO_CLIMB,100.98,80,-20.98,13.52,5.69,7.08,4.07,90.46,-0.067,0.7902,0,0,0,0,0,0,0,0,0,90.4,8,0,1,3.22,0,0,8,90.4,-0.8472,-0.0068,0.5312,8,90.4,0,0,0,0,0,0,3,0,0,0,69,0,0,0,90.4,1,0,0.061,0,0,3,0,0,0,10,3.146,0,0,1,1,0,0,VALID,0,0,0,0,0,1,0,0,0,0,0,0,0,0,0,0,0,0,0,0,354.59,459.68,2,0,0.105,0.105,344,9.52,0.105,0.105,26.91,FLYING,CF1-H,0:/Integrated Flight Computer/aircraft/cf1_h_cfg.ks (inferred preloaded)
27.33,TAKEOFF,TO_CLIMB,102.45,80,-22.45,15.49,6.34,6.63,3.23,90.46,-0.071,0.78,0,0,0,0,0,0,0,0,0,90.4,8,0,1,3.54,0,0,8,90.4,-0.8473,-0.0068,0.5311,8,90.4,0,0,0,0,0,0,3,0,0,0,69,0,0,0,90.4,1,0,0.06,0,0,3,0,0,0,10,3.146,0,0,1,1,0,0,VALID,0,0,0,0,0,1,0,0,0,0,0,0,0,0,0,0,0,0,0,0,353.84,458.51,2,0,0.105,0.105,347,9.52,0.105,0.105,27.23,FLYING,CF1-H,0:/Integrated Flight Computer/aircraft/cf1_h_cfg.ks (inferred preloaded)
27.64,TAKEOFF,TO_CLIMB,103.93,80,-23.93,17.72,6.93,6.76,3.1,90.46,-0.077,0.78,0,0,0,0,0,0,0,0,0,90.4,8,0,1,3.82,0,0,8,90.4,-0.8473,-0.0068,0.5311,8,90.4,0,0,0,0,0,0,3,0,0,0,69,0,0,0,90.4,1,0,0.059,0,0,3,0,0,0,10,3.146,0,0,1,1,0,0,VALID,0,0,0,0,0,1,0,0,0,0,0,0,0,0,0,0,0,0,0,0,353,457.32,2,0,0.105,0.105,350,9.52,0.105,0.105,27.54,FLYING,CF1-H,0:/Integrated Flight Computer/aircraft/cf1_h_cfg.ks (inferred preloaded)
27.96,TAKEOFF,TO_CLIMB,105.4,80,-25.4,20.13,7.51,6.81,2.9,90.46,-0.081,0.78,0,0,0,0,0,0,0,0,0,90.4,8,0,1,4.08,0,0,8,90.4,-0.8473,-0.0068,0.531,8,90.4,0,0,0,0,0,0,3,0,0,0,69,0,0,0,90.4,1,0,0.057,0,0,3,0,0,0,10,3.146,0,0,1,1,0,0,VALID,0,0,0,0,0,1,0,0,0,0,0,0,0,0,0,0,0,0,0,0,352.15,456.13,2,0,0.105,0.105,353,9.52,0.105,0.105,27.86,FLYING,CF1-H,0:/Integrated Flight Computer/aircraft/cf1_h_cfg.ks (inferred preloaded)
28.27,TAKEOFF,TO_CLIMB,106.86,80,-26.86,22.73,8.09,6.88,2.73,90.46,-0.083,0.78,0,0,0,0,0,0,0,0,0,90.4,8,0,1,4.33,0,0,8,90.4,-0.8474,-0.0068,0.531,8,90.4,0,0,0,0,0,0,3,0,0,0,69,0,0,0,90.4,1,0,0.056,0,0,3,0,0,0,10,3.146,0,0,1,1,0,0,VALID,0,0,0,0,0,1,0,0,0,0,0,0,0,0,0,0,0,0,0,0,351.31,454.94,2,0,0.105,0.105,356,9.52,0.105,0.105,28.17,FLYING,CF1-H,0:/Integrated Flight Computer/aircraft/cf1_h_cfg.ks (inferred preloaded)
28.59,TAKEOFF,TO_CLIMB,108.31,80,-28.31,25.5,8.66,6.95,2.55,90.45,-0.086,0.78,0,0,0,0,0,0,0,0,0,90.4,8,0,1,4.57,0,0,8,90.4,-0.8474,-0.0068,0.5309,8,90.4,0,0,0,0,0,0,3,0,0,0,69,0,0,0,90.4,1,0,0.054,0,0,3,0,0,0,10,3.146,0,0,1,1,0,0,VALID,0,0,0,0,0,1,0,0,0,0,0,0,0,0,0,0,0,0,0,0,350.46,453.75,2,0,0.105,0.105,359,9.52,0.105,0.105,28.49,FLYING,CF1-H,0:/Integrated Flight Computer/aircraft/cf1_h_cfg.ks (inferred preloaded)
28.9,TAKEOFF,TO_CLIMB,109.75,80,-29.75,28.46,9.21,7.01,2.39,90.45,-0.09,0.78,0,0,0,0,0,0,0,0,0,90.4,8,0,1,4.8,0,0,8,90.4,-0.8474,-0.0068,0.5309,8,90.4,0,0,0,0,0,0,3,0,0,0,69,0,0,0,90.4,1,0,0.051,0,0,3,0,0,0,10,3.146,0,0,1,1,0,0,VALID,0,0,0,0,0,1,0,0,0,0,0,0,0,0,0,0,0,0,0,0,349.61,452.57,2,0,0.105,0.105,362,9.52,0.105,0.105,28.8,FLYING,CF1-H,0:/Integrated Flight Computer/aircraft/cf1_h_cfg.ks (inferred preloaded)
29.22,TAKEOFF,TO_CLIMB,111.17,80,-31.17,31.58,9.77,7.09,2.25,90.45,-0.091,0.78,0,0,0,0,0,0,0,0,0,90.4,8,0,1,5.02,0,0,8,90.4,-0.8475,-0.0068,0.5308,8,90.4,0,0,0,0,0,0,3,0,0,0,69,0,0,0,90.4,1,0,0.048,0,0,3,0,0,0,10,3.146,0,0,1,1,0,0,VALID,0,0,0,0,0,1,0,0,0,0,0,0,0,0,0,0,0,0,0,0,348.76,451.38,2,0,0.105,0.105,365,9.52,0.105,0.105,29.12,FLYING,CF1-H,0:/Integrated Flight Computer/aircraft/cf1_h_cfg.ks (inferred preloaded)
29.53,TAKEOFF,TO_CLIMB,112.58,80,-32.58,34.88,10.32,7.15,2.09,90.44,-0.093,0.78,0,0,0,0,0,0,0,0,0,90.4,8,0,1,5.24,0,0,8,90.4,-0.8475,-0.0068,0.5308,8,90.4,0,0,0,0,0,0,3,0,0,0,69,0,0,0,90.4,1,0,0.045,0,0,3,0,0,0,10,3.146,0,0,1,1,0,0,VALID,0,0,0,0,0,1,0,0,0,0,0,0,0,0,0,0,0,0,0,0,347.91,450.2,2,0,0.105,0.105,368,9.52,0.105,0.105,29.43,FLYING,CF1-H,0:/Integrated Flight Computer/aircraft/cf1_h_cfg.ks (inferred preloaded)
29.85,TAKEOFF,TO_CLIMB,113.98,80,-33.98,38.35,10.86,7.2,1.95,90.44,-0.093,0.78,0,0,0,0,0,0,0,0,0,90.4,8,0,1,5.44,0,0,8,90.4,-0.8475,-0.0068,0.5307,8,90.4,0,0,0,0,0,0,3,0,0,0,69,0,0,0,90.4,1,0,0.042,0,0,3,0,0,0,10,3.146,0,0,1,1,0,0,VALID,0,0,0,0,0,1,0,0,0,0,0,0,0,0,0,0,0,0,0,0,347.06,449.02,2,0,0.105,0.105,371,9.52,0.105,0.105,29.75,FLYING,CF1-H,0:/Integrated Flight Computer/aircraft/cf1_h_cfg.ks (inferred preloaded)
30.16,TAKEOFF,TO_CLIMB,115.36,80,-35.36,41.99,11.4,7.25,1.8,90.44,-0.093,0.78,0,0,0,0,0,0,0,0,0,90.4,8,0,1,5.64,0,0,8,90.4,-0.8476,-0.0068,0.5307,8,90.4,0,0,0,0,0,0,3,0,0,0,69,0,0,0,90.4,1,0,0.039,0,0,3,0,0,0,10,3.146,0,0,1,1,0,0,VALID,0,0,0,0,0,1,0,0,0,0,0,0,0,0,0,0,0,0,0,0,346.21,447.85,2,0,0.105,0.105,374,9.52,0.105,0.105,30.06,FLYING,CF1-H,0:/Integrated Flight Computer/aircraft/cf1_h_cfg.ks (inferred preloaded)
30.48,TAKEOFF,TO_CLIMB,116.74,80,-36.74,45.79,11.92,7.3,1.66,90.44,-0.093,0.78,0,0,0,0,0,0,0,0,0,90.4,8,0,1,5.83,0,0,8,90.4,-0.8476,-0.0068,0.5306,8,90.4,0,0,0,0,0,0,3,0,0,0,69,0,0,0,90.4,1,0,0.036,0,0,3,0,0,0,10,3.146,0,0,1,1,0,0,VALID,0,0,0,0,0,1,0,0,0,0,0,0,0,0,0,0,0,0,0,0,345.37,446.67,2,0,0.105,0.105,377,9.52,0.105,0.105,30.38,FLYING,CF1-H,0:/Integrated Flight Computer/aircraft/cf1_h_cfg.ks (inferred preloaded)
30.79,TAKEOFF,TO_CLIMB,118.1,80,-38.1,49.75,12.42,7.34,1.53,90.43,-0.092,0.78,0,0,0,0,0,0,0,0,0,90.4,8,0,1,6.01,0,0,8,90.4,-0.8476,-0.0068,0.5306,8,90.4,0,0,0,0,0,0,3,0,0,0,69,0,0,0,90.4,1,0,0.033,0,0,3,0,0,0,10,3.146,0,0,1,1,0,0,VALID,0,0,0,0,0,1,0,0,0,0,0,0,0,0,0,0,0,0,0,0,344.52,445.51,2,0,0.105,0.105,380,9.52,0.105,0.105,30.69,FLYING,CF1-H,0:/Integrated Flight Computer/aircraft/cf1_h_cfg.ks (inferred preloaded)
31.11,TAKEOFF,TO_CLIMB,119.45,80,-39.45,53.84,12.92,7.37,1.4,90.43,-0.092,0.78,0,0,0,0,0,0,0,0,0,90.4,8,0,1,6.17,0,0,8,90.4,-0.8477,-0.0068,0.5305,8,90.4,0,0,0,0,0,0,3,0,0,0,69,0,0,0,90.4,1,0,0.03,0,0,3,0,0,0,10,3.146,0,0,1,1,0,0,VALID,0,0,0,0,0,1,0,0,0,0,0,0,0,0,0,0,0,0,0,0,343.68,444.34,2,0,0.105,0.105,383,9.52,0.105,0.105,31.01,FLYING,CF1-H,0:/Integrated Flight Computer/aircraft/cf1_h_cfg.ks (inferred preloaded)
31.42,TAKEOFF,TO_CLIMB,120.78,80,-40.78,58.1,13.4,7.41,1.28,90.43,-0.091,0.78,0,0,0,0,0,0,0,0,0,90.4,8,0,1,6.33,0,0,8,90.4,-0.8477,-0.0068,0.5305,8,90.4,0,0,0,0,0,0,3,0,0,0,69,0,0,0,90.4,1,0,0.028,0,0,3,0,0,0,10,3.146,0,0,1,1,0,0,VALID,0,0,0,0,0,1,0,0,0,0,0,0,0,0,0,0,0,0,0,0,342.84,443.18,2,0,0.105,0.105,386,9.52,0.105,0.105,31.32,FLYING,CF1-H,0:/Integrated Flight Computer/aircraft/cf1_h_cfg.ks (inferred preloaded)
31.74,TAKEOFF,TO_CLIMB,122.11,80,-42.11,62.52,13.88,7.43,1.14,90.43,-0.089,0.78,0,0,0,0,0,0,0,0,0,90.4,8,0,1,6.49,0,0,8,90.4,-0.8477,-0.0068,0.5304,8,90.4,0,0,0,0,0,0,3,0,0,0,69,0,0,0,90.4,1,0,0.026,0,0,3,0,0,0,10,3.146,0,0,1,1,0,0,VALID,0,0,0,0,0,1,0,0,0,0,0,0,0,0,0,0,0,0,0,0,342,442.03,2,0,0.105,0.105,389,9.52,0.105,0.105,31.64,FLYING,CF1-H,0:/Integrated Flight Computer/aircraft/cf1_h_cfg.ks (inferred preloaded)
32.05,TAKEOFF,TO_CLIMB,123.42,80,-43.42,67.08,14.34,7.45,1.02,90.42,-0.087,0.78,0,0,0,0,0,0,0,0,0,90.4,8,0,1,6.63,0,0,8,90.4,-0.8478,-0.0068,0.5303,8,90.4,0,0,0,0,0,0,3,0,0,0,69,0,0,0,90.4,1,0,0.024,0,0,3,0,0,0,10,3.146,0,0,1,1,0,0,VALID,0,0,0,0,0,1,0,0,0,0,0,0,0,0,0,0,0,0,0,0,341.16,440.88,2,0,0.105,0.105,392,9.52,0.105,0.105,31.95,FLYING,CF1-H,0:/Integrated Flight Computer/aircraft/cf1_h_cfg.ks (inferred preloaded)
32.37,TAKEOFF,TO_CLIMB,124.73,80,-44.73,71.78,14.77,7.47,0.91,90.42,-0.085,0.78,0,0,0,0,0,0,0,0,0,90.4,8,0,1,6.75,0,0,8,90.4,-0.8478,-0.0068,0.5303,8,90.4,0,0,0,0,0,0,3,0,0,0,69,0,0,0,90.4,1,0,0.022,0,0,3,0,0,0,10,3.146,0,0,1,1,0,0,VALID,0,0,0,0,0,1,0,0,0,0,0,0,0,0,0,0,0,0,0,0,340.33,439.73,2,0,0.105,0.105,395,9.52,0.105,0.105,32.27,FLYING,CF1-H,0:/Integrated Flight Computer/aircraft/cf1_h_cfg.ks (inferred preloaded)
32.68,TAKEOFF,TO_CLIMB,126.02,80,-46.02,76.61,15.2,7.49,0.81,90.42,-0.083,0.78,0,0,0,0,0,0,0,0,0,90.4,8,0,1,6.88,0,0,8,90.4,-0.8478,-0.0068,0.5302,8,90.4,0,0,0,0,0,0,3,0,0,0,69,0,0,0,90.4,1,0,0.02,0,0,3,0,0,0,10,3.146,0,0,1,1,0,0,VALID,0,0,0,0,0,1,0,0,0,0,0,0,0,0,0,0,0,0,0,0,339.49,438.59,2,0,0.105,0.105,398,9.52,0.105,0.105,32.58,FLYING,CF1-H,0:/Integrated Flight Computer/aircraft/cf1_h_cfg.ks (inferred preloaded)
33,TAKEOFF,TO_CLIMB,127.31,80,-47.31,81.58,15.61,7.5,0.71,90.42,-0.08,0.78,0,0,0,0,0,0,0,0,0,90.4,8,0,1,6.99,0,0,8,90.4,-0.8479,-0.0068,0.5302,8,90.4,0,0,0,0,0,0,3,0,0,0,69,0,0,0,90.4,1,0,0.019,0,0,3,0,0,0,10,3.146,0,0,1,1,0,0,VALID,0,0,0,0,0,1,0,0,0,0,0,0,0,0,0,0,0,0,0,0,338.67,437.45,2,0,0.105,0.105,401,9.52,0.105,0.105,32.9,FLYING,CF1-H,0:/Integrated Flight Computer/aircraft/cf1_h_cfg.ks (inferred preloaded)
33.31,TAKEOFF,TO_CLIMB,128.58,80,-48.58,86.67,16.01,7.52,0.62,90.42,-0.077,0.78,0,0,0,0,0,0,0,0,0,90.4,8,0,1,7.1,0,0,8,90.4,-0.8479,-0.0068,0.5301,8,90.4,0,0,0,0,0,0,3,0,0,0,69,0,0,0,90.4,1,0,0.017,0,0,3,0,0,0,10,3.146,0,0,1,1,0,0,VALID,0,0,0,0,0,1,0,0,0,0,0,0,0,0,0,0,0,0,0,0,337.84,436.32,2,0,0.105,0.105,404,9.52,0.105,0.105,33.21,FLYING,CF1-H,0:/Integrated Flight Computer/aircraft/cf1_h_cfg.ks (inferred preloaded)
33.63,TAKEOFF,TO_CLIMB,129.85,80,-49.85,91.88,16.4,7.53,0.53,90.42,-0.073,0.78,0,0,0,0,0,0,0,0,0,90.4,8,0,1,7.2,0,0,8,90.4,-0.8479,-0.0068,0.5301,8,90.4,0,0,0,0,0,0,3,0,0,0,69,0,0,0,90.4,1,0,0.016,0,0,3,0,0,0,10,3.146,0,0,1,1,0,0,VALID,0,0,0,0,0,1,0,0,0,0,0,0,0,0,0,0,0,0,0,0,337.02,435.2,2,0,0.105,0.105,407,9.52,0.105,0.105,33.53,FLYING,CF1-H,0:/Integrated Flight Computer/aircraft/cf1_h_cfg.ks (inferred preloaded)
33.94,TAKEOFF,TO_CLIMB,131.11,80,-51.11,97.2,16.78,7.54,0.44,90.41,-0.068,0.78,0,0,0,0,0,0,0,0,0,90.4,8,0,1,7.29,0,0,8,90.4,-0.848,-0.0068,0.53,8,90.4,0,0,0,0,0,0,3,0,0,0,69,0,0,0,90.4,1,0,0.015,0,0,3,0,0,0,10,3.146,0,0,1,1,0,0,VALID,0,0,0,0,0,1,0,0,0,0,0,0,0,0,0,0,0,0,0,0,336.2,434.08,2,0,0.105,0.105,410,9.52,0.105,0.105,33.84,FLYING,CF1-H,0:/Integrated Flight Computer/aircraft/cf1_h_cfg.ks (inferred preloaded)
34.26,TAKEOFF,TO_CLIMB,132.35,80,-52.35,102.64,17.14,7.54,0.36,90.41,-0.067,0.78,0,0,0,0,0,0,0,0,0,90.4,8,0,1,7.38,0,0,8,90.4,-0.848,-0.0068,0.5299,8,90.4,0,0,0,0,0,0,3,0,0,0,69,0,0,0,90.4,1,0,0.014,0,0,3,0,0,0,10,3.146,0,0,1,1,0,0,VALID,0,0,0,0,0,1,0,0,0,0,0,0,0,0,0,0,0,0,0,0,335.39,432.97,2,0,0.105,0.105,413,9.52,0.105,0.105,34.16,FLYING,CF1-H,0:/Integrated Flight Computer/aircraft/cf1_h_cfg.ks (inferred preloaded)
34.57,TAKEOFF,TO_CLIMB,133.59,80,-53.59,108.19,17.49,7.54,0.28,90.41,-0.064,0.78,0,0,0,0,0,0,0,0,0,90.4,8,0,1,7.46,0,0,8,90.4,-0.8481,-0.0068,0.5299,8,90.4,0,0,0,0,0,0,3,0,0,0,69,0,0,0,90.4,1,0,0.013,0,0,3,0,0,0,10,3.146,0,0,1,1,0,0,VALID,0,0,0,0,0,1,0,0,0,0,0,0,0,0,0,0,0,0,0,0,334.58,431.87,2,0,0.105,0.105,416,9.52,0.105,0.105,34.47,FLYING,CF1-H,0:/Integrated Flight Computer/aircraft/cf1_h_cfg.ks (inferred preloaded)
34.89,TAKEOFF,TO_CLIMB,134.81,80,-54.81,113.83,17.83,7.54,0.2,90.41,-0.062,0.78,0,0,0,0,0,0,0,0,0,90.4,8,0,1,7.53,0,0,8,90.4,-0.8481,-0.0068,0.5298,8,90.4,0,0,0,0,0,0,3,0,0,0,69,0,0,0,90.4,1,0,0.012,0,0,3,0,0,0,10,3.146,0,0,1,1,0,0,VALID,0,0,0,0,0,1,0,0,0,0,0,0,0,0,0,0,0,0,0,0,333.77,430.78,2,0,0.105,0.105,419,9.52,0.105,0.105,34.79,FLYING,CF1-H,0:/Integrated Flight Computer/aircraft/cf1_h_cfg.ks (inferred preloaded)
35.2,TAKEOFF,TO_CLIMB,136.03,80,-56.03,119.59,18.15,7.53,0.13,90.41,-0.06,0.78,0,0,0,0,0,0,0,0,0,90.4,8,0,1,7.6,0,0,8,90.4,-0.8481,-0.0068,0.5297,8,90.4,0,0,0,0,0,0,3,0,0,0,69,0,0,0,90.4,1,0,0.011,0,0,3,0,0,0,10,3.146,0,0,1,1,0,0,VALID,0,0,0,0,0,1,0,0,0,0,0,0,0,0,0,0,0,0,0,0,332.98,429.69,2,0,0.105,0.105,422,9.52,0.105,0.105,35.1,FLYING,CF1-H,0:/Integrated Flight Computer/aircraft/cf1_h_cfg.ks (inferred preloaded)
35.52,TAKEOFF,TO_CLIMB,137.23,80,-57.23,125.44,18.47,7.52,0.05,90.41,-0.059,0.78,0,0,0,0,0,0,0,0,0,90.4,8,0,1,7.67,0,0,8,90.4,-0.8482,-0.0068,0.5297,8,90.4,0,0,0,0,0,0,3,0,0,0,69,0,0,0,90.4,1,0,0.01,0,0,3,0,0,0,10,3.146,0,0,1,1,0,0,VALID,0,0,0,0,0,1,0,0,0,0,0,0,0,0,0,0,0,0,0,0,332.18,428.61,2,0,0.105,0.105,425,9.52,0.105,0.105,35.42,FLYING,CF1-H,0:/Integrated Flight Computer/aircraft/cf1_h_cfg.ks (inferred preloaded)
35.83,TAKEOFF,TO_CLIMB,138.43,80,-58.43,131.39,18.77,7.5,-0.03,90.41,-0.054,0.78,0,0,0,0,0,0,0,0,0,90.4,8,0,1,7.72,0,0,8,90.4,-0.8482,-0.0068,0.5296,8,90.4,0,0,0,0,0,0,3,0,0,0,69,0,0,0,90.4,1,0,0.009,0,0,3,0,0,0,10,3.146,0,0,1,1,0,0,VALID,0,0,0,0,0,1,0,0,0,0,0,0,0,0,0,0,0,0,0,0,331.39,427.54,2,0,0.105,0.105,428,9.52,0.105,0.105,35.73,FLYING,CF1-H,0:/Integrated Flight Computer/aircraft/cf1_h_cfg.ks (inferred preloaded)
36.15,TAKEOFF,TO_CLIMB,139.62,80,-59.62,137.42,19.04,7.48,-0.1,90.41,-0.051,0.78,0,0,0,0,0,0,0,0,0,90.4,8,0,1,7.77,0,0,8,90.4,-0.8482,-0.0068,0.5296,8,90.4,0,0,0,0,0,0,3,0,0,0,69,0,0,0,90.4,1,0,0.008,0,0,3,0,0,0,10,3.146,0,0,1,1,0,0,VALID,0,0,0,0,0,1,0,0,0,0,0,0,0,0,0,0,0,0,0,0,330.61,426.48,2,0,0.105,0.105,431,9.52,0.105,0.105,36.05,FLYING,CF1-H,0:/Integrated Flight Computer/aircraft/cf1_h_cfg.ks (inferred preloaded)
36.46,TAKEOFF,TO_CLIMB,140.8,80,-60.8,143.54,19.31,7.45,-0.16,90.41,-0.047,0.78,0,0,0,0,0,0,0,0,0,90.4,8,0,1,7.81,0,0,8,90.4,-0.8483,-0.0068,0.5295,8,90.4,0,0,0,0,0,0,3,0,0,0,69,0,0,0,90.4,1,0,0.007,0,0,3,0,0,0,10,3.146,0,0,1,1,0,0,VALID,0,0,0,0,0,1,0,0,0,0,0,0,0,0,0,0,0,0,0,0,329.83,425.42,2,0,0.105,0.105,434,9.52,0.105,0.105,36.36,FLYING,CF1-H,0:/Integrated Flight Computer/aircraft/cf1_h_cfg.ks (inferred preloaded)
36.78,TAKEOFF,TO_CLIMB,141.97,80,-61.97,149.73,19.56,7.43,-0.22,90.41,-0.041,0.78,0,0,0,0,0,0,0,0,0,90.4,8,0,1,7.85,0,0,8,90.4,-0.8483,-0.0068,0.5294,8,90.4,0,0,0,0,0,0,3,0,0,0,69,0,0,0,90.4,1,0,0.007,0,0,3,0,0,0,10,3.146,0,0,1,1,0,0,VALID,0,0,0,0,0,1,0,0,0,0,0,0,0,0,0,0,0,0,0,0,329.06,424.37,2,0,0.105,0.105,437,9.52,0.105,0.105,36.68,FLYING,CF1-H,0:/Integrated Flight Computer/aircraft/cf1_h_cfg.ks (inferred preloaded)
37.09,TAKEOFF,TO_CLIMB,143.13,80,-63.13,156.01,19.81,7.41,-0.28,90.41,-0.039,0.78,0,0,0,0,0,0,0,0,0,90.4,8,0,1,7.88,0,0,8,90.4,-0.8484,-0.0068,0.5294,8,90.4,0,0,0,0,0,0,3,0,0,0,69,0,0,0,90.4,1,0,0.007,0,0,3,0,0,0,10,3.146,0,0,1,1,0,0,VALID,0,0,0,0,0,1,0,0,0,0,0,0,0,0,0,0,0,0,0,0,328.29,423.34,2,0,0.105,0.105,440,9.52,0.105,0.105,36.99,FLYING,CF1-H,0:/Integrated Flight Computer/aircraft/cf1_h_cfg.ks (inferred preloaded)
37.41,TAKEOFF,TO_CLIMB,144.29,80,-64.29,162.4,20.04,7.38,-0.33,90.41,-0.034,0.78,0,0,0,0,0,0,0,0,0,90.4,8,0,1,7.91,0,0,8,90.4,-0.8484,-0.0068,0.5293,8,90.4,0,0,0,0,0,0,3,0,0,0,69,0,0,0,90.4,1,0,0.006,0,0,3,0,0,0,10,3.146,0,0,1,1,0,0,VALID,0,0,0,0,0,1,0,0,0,0,0,0,0,0,0,0,0,0,0,0,327.53,422.31,2,0,0.105,0.105,443,9.52,0.105,0.105,37.31,FLYING,CF1-H,0:/Integrated Flight Computer/aircraft/cf1_h_cfg.ks (inferred preloaded)
37.72,TAKEOFF,TO_CLIMB,145.44,80,-65.44,168.77,20.27,7.36,-0.38,90.41,-0.031,0.78,0,0,0,0,0,0,0,0,0,90.4,8,0,1,7.93,0,0,8,90.4,-0.8484,-0.0068,0.5292,8,90.4,0,0,0,0,0,0,3,0,0,0,69,0,0,0,90.4,1,0,0.006,0,0,3,0,0,0,10,3.146,0,0,1,1,0,0,VALID,0,0,0,0,0,1,0,0,0,0,0,0,0,0,0,0,0,0,0,0,326.78,421.29,2,0,0.105,0.105,446,9.52,0.105,0.105,37.62,FLYING,CF1-H,0:/Integrated Flight Computer/aircraft/cf1_h_cfg.ks (inferred preloaded)
38.04,TAKEOFF,TO_CLIMB,146.58,80,-66.58,175.25,20.49,7.33,-0.43,90.41,-0.025,0.78,0,0,0,0,0,0,0,0,0,90.4,8,0,1,7.96,0,0,8,90.4,-0.8485,-0.0068,0.5292,8,90.4,0,0,0,0,0,0,3,0,0,0,69,0,0,0,90.4,1,0,0.005,0,0,3,0,0,0,10,3.146,0,0,1,1,0,0,VALID,0,0,0,0,0,1,0,0,0,0,0,0,0,0,0,0,0,0,0,0,326.03,420.28,2,0,0.105,0.105,449,9.52,0.105,0.105,37.94,FLYING,CF1-H,0:/Integrated Flight Computer/aircraft/cf1_h_cfg.ks (inferred preloaded)
38.35,TAKEOFF,TO_CLIMB,147.71,80,-67.71,181.84,20.71,7.31,-0.48,90.41,-0.025,0.78,0,0,0,0,0,0,0,0,0,90.4,8,0,1,7.98,0,0,8,90.4,-0.8485,-0.0068,0.5291,8,90.4,0,0,0,0,0,0,3,0,0,0,69,0,0,0,90.4,1,0,0.006,0,0,3,0,0,0,10,3.146,0,0,1,1,0,0,VALID,0,0,0,0,0,1,0,0,0,0,0,0,0,0,0,0,0,0,0,0,325.29,419.28,2,0,0.105,0.105,452,9.52,0.105,0.105,38.25,FLYING,CF1-H,0:/Integrated Flight Computer/aircraft/cf1_h_cfg.ks (inferred preloaded)
38.67,TAKEOFF,TO_CLIMB,148.84,80,-68.84,188.41,20.92,7.29,-0.53,90.41,-0.022,0.78,0,0,0,0,0,0,0,0,0,90.4,8,0,1,8,0,0,8,90.4,-0.8486,-0.0068,0.529,8,90.4,0,0,0,0,0,0,3,0,0,0,69,0,0,0,90.4,1,0,0.006,0,0,3,0,0,0,10,3.146,0,0,1,1,0,0,VALID,0,0,0,0,0,1,0,0,0,0,0,0,0,0,0,0,0,0,0,0,324.55,418.29,2,0,0.105,0.105,455,9.52,0.105,0.105,38.57,FLYING,CF1-H,0:/Integrated Flight Computer/aircraft/cf1_h_cfg.ks (inferred preloaded)
38.98,TAKEOFF,TO_CLIMB,149.95,80,-69.95,195.09,21.13,7.26,-0.57,90.41,-0.021,0.78,0,0,0,0,0,0,0,0,0,90.4,8,0,1,8.02,0,0,8,90.4,-0.8486,-0.0068,0.529,8,90.4,0,0,0,0,0,0,3,0,0,0,69,0,0,0,90.4,1,0,0.005,0,0,3,0,0,0,10,3.146,0,0,1,1,0,0,VALID,0,0,0,0,0,1,0,0,0,0,0,0,0,0,0,0,0,0,0,0,323.82,417.31,2,0,0.105,0.105,458,9.52,0.105,0.105,38.88,FLYING,CF1-H,0:/Integrated Flight Computer/aircraft/cf1_h_cfg.ks (inferred preloaded)
39.3,TAKEOFF,TO_CLIMB,151.06,80,-71.06,201.82,21.34,7.24,-0.61,90.41,-0.02,0.78,0,0,0,0,0,0,0,0,0,90.4,8,0,1,8.04,0,0,8,90.4,-0.8487,-0.0068,0.5289,8,90.4,0,0,0,0,0,0,3,0,0,0,69,0,0,0,90.4,1,0,0.005,0,0,3,0,0,0,10,3.146,0,0,1,1,0,0,VALID,0,0,0,0,0,1,0,0,0,0,0,0,0,0,0,0,0,0,0,0,323.1,416.34,2,0,0.105,0.105,461,9.52,0.105,0.105,39.2,FLYING,CF1-H,0:/Integrated Flight Computer/aircraft/cf1_h_cfg.ks (inferred preloaded)
39.61,TAKEOFF,TO_CLIMB,152.16,80,-72.16,208.6,21.54,7.22,-0.65,90.41,-0.02,0.78,0,0,0,0,0,0,0,0,0,90.4,8,0,1,8.06,0,0,8,90.4,-0.8487,-0.0068,0.5288,8,90.4,0,0,0,0,0,0,3,0,0,0,69,0,0,0,90.4,1,0,0.006,0,0,3,0,0,0,10,3.146,0,0,1,1,0,0,VALID,0,0,0,0,0,1,0,0,0,0,0,0,0,0,0,0,0,0,0,0,322.39,415.37,2,0,0.105,0.105,464,9.52,0.105,0.105,39.51,FLYING,CF1-H,0:/Integrated Flight Computer/aircraft/cf1_h_cfg.ks (inferred preloaded)
39.93,TAKEOFF,TO_CLIMB,153.26,80,-73.26,215.5,21.74,7.19,-0.69,90.41,-0.019,0.78,0,0,0,0,0,0,0,0,0,90.4,8,0,1,8.08,0,0,8,90.4,-0.8487,-0.0068,0.5288,8,90.4,0,0,0,0,0,0,3,0,0,0,69,0,0,0,90.4,1,0,0.005,0,0,3,0,0,0,10,3.146,0,0,1,1,0,0,VALID,0,0,0,0,0,1,0,0,0,0,0,0,0,0,0,0,0,0,0,0,321.68,414.42,2,0,0.105,0.105,467,9.52,0.105,0.105,39.83,FLYING,CF1-H,0:/Integrated Flight Computer/aircraft/cf1_h_cfg.ks (inferred preloaded)
40.24,TAKEOFF,TO_CLIMB,154.34,80,-74.34,222.38,21.94,7.17,-0.73,90.41,-0.018,0.78,0,0,0,0,0,0,0,0,0,90.4,8,0,1,8.09,0,0,8,90.4,-0.8488,-0.0068,0.5287,8,90.4,0,0,0,0,0,0,3,0,0,0,69,0,0,0,90.4,1,0,0.005,0,0,3,0,0,0,10,3.146,0,0,1,1,0,0,VALID,0,0,0,0,0,1,0,0,0,0,0,0,0,0,0,0,0,0,0,0,320.98,413.48,2,0,0.105,0.105,470,9.52,0.105,0.105,40.14,FLYING,CF1-H,0:/Integrated Flight Computer/aircraft/cf1_h_cfg.ks (inferred preloaded)
40.56,TAKEOFF,TO_CLIMB,155.42,80,-75.42,229.37,22.14,7.15,-0.77,90.41,-0.017,0.78,0,0,0,0,0,0,0,0,0,90.4,8,0,1,8.11,0,0,8,90.4,-0.8488,-0.0068,0.5286,8,90.4,0,0,0,0,0,0,3,0,0,0,69,0,0,0,90.4,1,0,0.005,0,0,3,0,0,0,10,3.146,0,0,1,1,0,0,VALID,0,0,0,0,0,1,0,0,0,0,0,0,0,0,0,0,0,0,0,0,320.28,412.54,2,0,0.105,0.105,473,9.52,0.105,0.105,40.46,FLYING,CF1-H,0:/Integrated Flight Computer/aircraft/cf1_h_cfg.ks (inferred preloaded)
40.87,TAKEOFF,TO_CLIMB,156.49,80,-76.49,236.41,22.33,7.13,-0.8,90.41,-0.016,0.78,0,0,0,0,0,0,0,0,0,90.4,8,0,1,8.12,0,0,8,90.4,-0.8489,-0.0068,0.5285,8,90.4,0,0,0,0,0,0,3,0,0,0,69,0,0,0,90.4,1,0,0.005,0,0,3,0,0,0,10,3.146,0,0,1,1,0,0,VALID,0,0,0,0,0,1,0,0,0,0,0,0,0,0,0,0,0,0,0,0,319.59,411.62,2,0,0.105,0.105,476,9.52,0.105,0.105,40.77,FLYING,CF1-H,0:/Integrated Flight Computer/aircraft/cf1_h_cfg.ks (inferred preloaded)
41.19,TAKEOFF,TO_CLIMB,157.56,80,-77.56,243.46,22.52,7.11,-0.83,90.41,-0.015,0.78,0,0,0,0,0,0,0,0,0,90.4,8,0,1,8.13,0,0,8,90.4,-0.8489,-0.0068,0.5285,8,90.4,0,0,0,0,0,0,3,0,0,0,69,0,0,0,90.4,1,0,0.006,0,0,3,0,0,0,10,3.146,0,0,1,1,0,0,VALID,0,0,0,0,0,1,0,0,0,0,0,0,0,0,0,0,0,0,0,0,318.91,410.7,2,0,0.105,0.105,479,9.52,0.105,0.105,41.09,FLYING,CF1-H,0:/Integrated Flight Computer/aircraft/cf1_h_cfg.ks (inferred preloaded)
41.5,TAKEOFF,TO_CLIMB,158.61,80,-78.61,250.61,22.7,7.09,-0.87,90.41,-0.013,0.78,0,0,0,0,0,0,0,0,0,90.4,8,0,1,8.15,0,0,8,90.4,-0.849,-0.0068,0.5284,8,90.4,0,0,0,0,0,0,3,0,0,0,69,0,0,0,90.4,1,0,0.006,0,0,3,0,0,0,10,3.146,0,0,1,1,0,0,VALID,0,0,0,0,0,1,0,0,0,0,0,0,0,0,0,0,0,0,0,0,318.24,409.8,2,0,0.105,0.105,482,9.52,0.105,0.105,41.4,FLYING,CF1-H,0:/Integrated Flight Computer/aircraft/cf1_h_cfg.ks (inferred preloaded)
41.82,TAKEOFF,TO_CLIMB,159.66,80,-79.66,257.81,22.89,7.07,-0.9,90.41,-0.012,0.78,0,0,0,0,0,0,0,0,0,90.4,8,0,1,8.16,0,0,8,90.4,-0.849,-0.0068,0.5283,8,90.4,0,0,0,0,0,0,3,0,0,0,69,0,0,0,90.4,1,0,0.006,0,0,3,0,0,0,10,3.146,0,0,1,1,0,0,VALID,0,0,0,0,0,1,0,0,0,0,0,0,0,0,0,0,0,0,0,0,317.57,408.91,2,0,0.105,0.105,485,9.52,0.105,0.105,41.72,FLYING,CF1-H,0:/Integrated Flight Computer/aircraft/cf1_h_cfg.ks (inferred preloaded)
42.13,TAKEOFF,TO_CLIMB,160.71,80,-80.71,265.08,23.08,7.05,-0.93,90.41,-0.012,0.78,0,0,0,0,0,0,0,0,0,90.4,8,0,1,8.17,0,0,8,90.4,-0.8491,-0.0068,0.5283,8,90.4,0,0,0,0,0,0,3,0,0,0,69,0,0,0,90.4,1,0,0.006,0,0,3,0,0,0,10,3.146,0,0,1,1,0,0,VALID,0,0,0,0,0,1,0,0,0,0,0,0,0,0,0,0,0,0,0,0,316.91,408.02,2,0,0.105,0.105,488,9.52,0.105,0.105,42.03,FLYING,CF1-H,0:/Integrated Flight Computer/aircraft/cf1_h_cfg.ks (inferred preloaded)
