t_s,phase,subphase,ias_ms,vapp_ms,spd_err_ms,agl_m,gear_h_m,vs_ms,pitch_deg,aoa_deg,hdg_deg,bank_deg,thr_cmd,thr_cur,thr_intg,at_gain,at_tau_s,at_a_up,at_a_dn,at_kp_thr,at_ki_spd,at_thr_slew,as_cmd_deg,as_cap_deg,as_raw_deg,as_spd_err_ms,as_active,aa_hdg_cmd_deg,aa_fpa_cmd_deg,aa_fbw,aa_dir,actual_fpa_deg,ftf_hdg_err_deg,ftf_fix_idx,kos_steer_pit_deg,kos_steer_hdg_deg,aa_dir_vx,aa_dir_vy,aa_dir_vz,aa_dir_pitch_deg,aa_dir_hdg_deg,ils_loc_m,ils_gs_m,ils_dist_km,loc_corr_deg,gs_corr_deg,gs_latched,active_gs_ang_deg,ils_intercept_alt_m,d_gs_ms,fpa_preclamped_deg,gs_nom_alt_m,flare_fpa_cmd,flare_tgt_vs,flare_frac,flare_round_blend_h,flare_round_blend_ttg,flare_round_blend,flare_mode,flare_auth_limited,flare_auth_reason,flare_vs_err,flare_fpa_err,flare_pitch_err,flare_theta_cmd_raw,flare_theta_cmd_clamped,flare_theta_clamp_active,flare_aoa_clamp_active,flare_pitch_in_cmd,elev_defl_avg_deg,elev_defl_max_deg,elev_defl_n,flare_ctrl_h_m,flare_req_up_a,flare_thr_floor,flare_tecs_et_err,flare_tecs_eb_err,flare_tecs_h_ref,flare_tecs_v_ref,flare_gamma_ref,flare_gamma_eb_term,flare_gamma_unsat,steer_hdg_deg,steer_blend,ro_loc_corr_deg,ro_hdg_err_deg,ro_yaw_tgt,ro_yaw_scale,ro_yaw_gate,yaw_cmd,roll_cmd,pitch_cmd,ro_pitch_tgt_deg,ro_pitch_err_deg,ro_pitch_ff,ro_roll_assist,flaps_cur,flaps_tgt,asc_j_ab,asc_j_rk,asc_validity,asc_q_pa,asc_q_raw_pa,asc_mach,asc_apo_m,asc_drag_n,asc_w_prop,asc_edot_aero,asc_edot_orb,asc_pitch_bias,asc_blend,asc_spooling,asc_ab_thr_ratio,asc_ab_t_now,asc_ab_t_avail,asc_ab_ign_on,asc_ab_flameouts,asc_rk_t_now,asc_rk_t_avail,asc_rk_ign_on,asc_rk_flameouts,ship_thrust,ship_avail_thrust,ship_ign_on,ship_flameouts,ifc_raw_dt_s,ifc_dt_s,ifc_loop_n,ifc_hz_est,ifc_raw_dt_max_s,ifc_raw_dt_min_s,phase_el_s,status,craft_name,cfg_file
0.22,APPROACH,ILS_TRACK,101.4,88,-13.4,927.9,851.06,-17.73,-6.78,2.39,269.86,-0.413,0,0,0,0,0,0,0,0,0,0,0,0,0,0,0,0,0,1,0,-9.88,0,0,0,90,0,0,0,0,0,-0.3,-24.85,16.769,0,0,0,3,927.9,0,0,953.13,0,0,0,0,0,0,,0,NONE,0,0,0,0,0,0,0,0,0,0,0,851.06,0,0,0,0,0,0,0,0,0,269.87,0,0,0,0,0,0,0,0,0,0,0,0,0,0,0,0,0,VALID,0,0,0,0,0,1,0,0,0,0,0,0,0,0,0,0,0,0,0,0,258.99,1530.77,6,0,0.2,0.2,1,3.45,0.2,0.02,0.22,FLYING,C-1000F,0:/Integrated Flight Computer/aircraft/c_1000f_cfg.ks (inferred preloaded)
0.58,APPROACH,ILS_TRACK,102.17,88,-14.17,921.01,844.45,-19.31,-7.82,2.09,270.02,-0.248,0,0,0,1,0.6,1.399,0.75,0.35,0.0168,0.4,8.5,54.575,41.758,14.125,1,270.06,0,0,1,-10.61,0,0,0,270.03,0.9859,0.001,-0.1671,0,270.06,-0.34,-29.4,16.732,0.056,19.58,1,3,927.9,-13.449,0,951.18,0,0,0,0,0,0,,0,NONE,0,0,0,0,0,0,0,0,0,0,0,844.45,0,0,0,0,0,0,0,0,0,269.87,0,0,0,0,0,0,0,0,0,0,0,0,0,1,2,0,0,VALID,0,0,0,0,0,1,0,0,0,0,0,0,0,0,0,0,0,0,0,0,236.56,1530.21,6,0,0.12,0.12,4,8.33,0.2,0.1,0.6,FLYING,C-1000F,0:/Integrated Flight Computer/aircraft/c_1000f_cfg.ks (inferred preloaded)
0.94,APPROACH,ILS_TRACK,102.86,88,-14.86,914.2,837.16,-20.4,-6.43,4.17,269.91,-0.122,0,0,0,1,0.6,2.488,0.75,0.35,0.0168,0.4,17.5,54.435,43.958,14.824,1,270.02,0,0,1,-11.21,0,0,0,270.02,0.9859,0.0003,-0.1671,0,270.02,-0.36,-34.16,16.692,0.016,20.657,1,3,927.9,-13.013,0,949.1,0,0,0,0,0,0,,0,NONE,0,0,0,0,0,0,0,0,0,0,0,837.16,0,0,0,0,0,0,0,0,0,269.87,0,0,0,0,0,0,0,0,0,0,0,0,0,2,2,0,0,VALID,0,0,0,0,0,1,0,0,0,0,0,0,0,0,0,0,0,0,0,0,216.11,1529.93,6,0,0.12,0.12,7,8.33,0.12,0.12,0.96,FLYING,C-1000F,0:/Integrated Flight Computer/aircraft/c_1000f_cfg.ks (inferred preloaded)
1.3,APPROACH,ILS_TRACK,103.37,88,-15.37,907.33,829.79,-19.98,-4.54,5.75,269.88,-0.059,0,0,0,1,0.6,3.336,0.75,0.35,0.0168,0.4,26.5,54.331,45.589,15.345,1,270.05,0,0,1,-10.97,0,0,0,270.04,0.9859,0.001,-0.1672,0,270.05,-0.39,-38.93,16.653,0.054,22.426,1,3,927.9,-13.435,0,947.02,0,0,0,0,0,0,,0,NONE,0,0,0,0,0,0,0,0,0,0,0,829.79,0,0,0,0,0,0,0,0,0,269.87,0,0,0,0,0,0,0,0,0,0,0,0,0,2,2,0,0,VALID,0,0,0,0,0,1,0,0,0,0,0,0,0,0,0,0,0,0,0,0,197.49,1530.14,6,0,0.12,0.12,10,8.33,0.12,0.12,1.32,FLYING,C-1000F,0:/Integrated Flight Computer/aircraft/c_1000f_cfg.ks (inferred preloaded)
1.66,APPROACH,ILS_TRACK,103.62,88,-15.62,900.67,822.63,-19.2,-2.95,7,269.95,0.031,0,0,0,1,0.6,3.996,0.75,0.35,0.0168,0.4,35.5,54.277,46.43,15.614,1,270.04,0,0,1,-10.56,0,0,0,270.04,0.9859,0.0007,-0.1672,0,270.04,-0.43,-43.55,16.613,0.042,22.972,1,3,927.9,-12.384,0,944.93,0,0,0,0,0,0,,0,NONE,0,0,0,0,0,0,0,0,0,0,0,822.63,0,0,0,0,0,0,0,0,0,269.87,0,0,0,0,0,0,0,0,0,0,0,0,0,2,2,0,0,VALID,0,0,0,0,0,1,0,0,0,0,0,0,0,0,0,0,0,0,0,0,180.54,1530.95,6,0,0.12,0.12,13,8.33,0.12,0.12,1.68,FLYING,C-1000F,0:/Integrated Flight Computer/aircraft/c_1000f_cfg.ks (inferred preloaded)
1.92,APPROACH,ILS_TRACK,103.57,88,-15.57,896.18,817.71,-18,-1.37,7.97,269.95,0.071,0,0,0,1,0.6,4.354,0.75,0.35,0.0168,0.4,42,54.285,46.313,15.577,1,270.04,0,0,1,-9.98,0,0,0,270.04,0.9859,0.0008,-0.1673,0,270.04,-0.46,-46.56,16.584,0.045,23.041,1,3,927.9,-11.343,0,943.41,0,0,0,0,0,0,,0,NONE,0,0,0,0,0,0,0,0,0,0,0,817.71,0,0,0,0,0,0,0,0,0,269.87,0,0,0,0,0,0,0,0,0,0,0,0,0,2,2,0,0,VALID,0,0,0,0,0,1,0,0,0,0,0,0,0,0,0,0,0,0,0,0,169.27,1532.07,6,0,0.12,0.12,15,7.69,0.14,0.12,1.94,FLYING,C-1000F,0:/Integrated Flight Computer/aircraft/c_1000f_cfg.ks (inferred preloaded)
2.18,APPROACH,ILS_TRACK,103.35,88,-15.35,891.78,813.22,-16.58,-0.86,7.67,269.96,0.099,0,0,0,1,0.6,4.5,0.75,0.35,0.0168,0.4,45.679,54.325,45.679,15.374,1,270.05,0,0,1,-9.21,0,0,0,270.05,0.9859,0.0008,-0.1673,0,270.05,-0.49,-49.45,16.555,0.047,23.681,1,3,927.9,-11.056,0,941.9,0,0,0,0,0,0,,0,NONE,0,0,0,0,0,0,0,0,0,0,0,813.22,0,0,0,0,0,0,0,0,0,269.87,0,0,0,0,0,0,0,0,0,0,0,0,0,2,2,0,0,VALID,0,0,0,0,0,1,0,0,0,0,0,0,0,0,0,0,0,0,0,0,158.74,1533.52,6,0,0.12,0.12,17,7.69,0.14,0.12,2.2,FLYING,C-1000F,0:/Integrated Flight Computer/aircraft/c_1000f_cfg.ks (inferred preloaded)
2.44,APPROACH,ILS_TRACK,103.1,88,-15.1,887.63,809.06,-15.54,-0.86,7.16,269.96,0.119,0,0,0,1,0.6,4.5,0.75,0.35,0.0168,0.4,44.895,54.375,44.895,15.123,1,270.05,0,0,1,-8.64,0,0,0,270.04,0.9859,0.0008,-0.1674,0,270.05,-0.51,-52.14,16.526,0.048,23.649,1,3,927.9,-10.007,0,940.39,0,0,0,0,0,0,,0,NONE,0,0,0,0,0,0,0,0,0,0,0,809.06,0,0,0,0,0,0,0,0,0,269.87,0,0,0,0,0,0,0,0,0,0,0,0,0,2,2,0,0,VALID,0,0,0,0,0,1,0,0,0,0,0,0,0,0,0,0,0,0,0,0,148.87,1535.01,6,0,0.12,0.12,19,7.69,0.14,0.12,2.46,FLYING,C-1000F,0:/Integrated Flight Computer/aircraft/c_1000f_cfg.ks (inferred preloaded)
2.7,APPROACH,ILS_TRACK,102.83,88,-14.83,883.84,805.13,-14.52,-0.4,7.15,269.97,0.134,0,0,0,1,0.6,4.5,0.75,0.35,0.0168,0.4,44.041,54.43,44.041,14.851,1,270.04,0,0,1,-8.14,0,0,0,270.05,0.9859,0.0007,-0.1674,0,270.04,-0.54,-54.47,16.497,0.04,23.221,1,3,927.9,-8.599,0,938.88,0,0,0,0,0,0,,0,NONE,0,0,0,0,0,0,0,0,0,0,0,805.13,0,0,0,0,0,0,0,0,0,269.87,0,0,0,0,0,0,0,0,0,0,0,0,0,2,2,0,0,VALID,0,0,0,0,0,1,0,0,0,0,0,0,0,0,0,0,0,0,0,0,139.61,1536.5,6,0,0.12,0.12,21,7.69,0.14,0.12,2.72,FLYING,C-1000F,0:/Integrated Flight Computer/aircraft/c_1000f_cfg.ks (inferred preloaded)
2.96,APPROACH,ILS_TRACK,102.52,88,-14.52,880.24,801.51,-13.42,-0.28,6.67,269.97,0.142,0,0,-1.745,1,0.6,4.5,0.75,0.35,0.0168,0.4,43.066,54.492,43.066,14.54,1,270.05,0,0,1,-7.53,0,0,0,270.05,0.9859,0.0009,-0.1675,0,270.05,-0.56,-56.6,16.469,0.05,23.397,1,3,927.9,-8.023,0,937.38,0,0,0,0,0,0,,0,NONE,0,0,0,0,0,0,0,0,0,0,0,801.51,0,0,0,0,0,0,0,0,0,269.87,0,0,0,0,0,0,0,0,0,0,0,0,0,2,2,0,0,VALID,0,0,0,0,0,1,0,0,0,0,0,0,0,0,0,0,0,0,0,0,130.94,1538.04,6,0,0.12,0.12,23,7.69,0.14,0.12,2.98,FLYING,C-1000F,0:/Integrated Flight Computer/aircraft/c_1000f_cfg.ks (inferred preloaded)
3.22,APPROACH,ILS_TRACK,102.19,88,-14.19,876.88,798.13,-12.59,-0.23,6.33,269.97,0.148,0,0,-5.462,1,0.6,4.5,0.75,0.35,0.0168,0.4,42.051,54.556,42.051,14.218,1,270.04,0,0,1,-7.1,0,0,0,270.04,0.9859,0.0008,-0.1675,0,270.04,-0.58,-58.49,16.44,0.044,23.116,1,3,927.9,-6.961,0,935.87,0,0,0,0,0,0,,0,NONE,0,0,0,0,0,0,0,0,0,0,0,798.13,0,0,0,0,0,0,0,0,0,269.87,0,0,0,0,0,0,0,0,0,0,0,0,0,2,2,0,0,VALID,0,0,0,0,0,1,0,0,0,0,0,0,0,0,0,0,0,0,0,0,122.8,1539.55,6,0,0.12,0.12,25,7.69,0.14,0.12,3.24,FLYING,C-1000F,0:/Integrated Flight Computer/aircraft/c_1000f_cfg.ks (inferred preloaded)
3.48,APPROACH,ILS_TRACK,101.85,88,-13.85,873.76,794.97,-11.76,-0.07,6.06,269.98,0.15,0,0,-7.391,1,0.6,4.5,0.75,0.35,0.0168,0.4,40.984,54.624,40.984,13.88,1,270.04,0,0,1,-6.65,0,0,0,270.05,0.9859,0.0008,-0.1676,0,270.04,-0.61,-60.14,16.411,0.043,22.965,1,3,927.9,-6.153,0,934.37,0,0,0,0,0,0,,0,NONE,0,0,0,0,0,0,0,0,0,0,0,794.97,0,0,0,0,0,0,0,0,0,269.87,0,0,0,0,0,0,0,0,0,0,0,0,0,2,2,0,0,VALID,0,0,0,0,0,1,0,0,0,0,0,0,0,0,0,0,0,0,0,0,115.16,1541.05,6,0,0.12,0.12,27,7.69,0.14,0.12,3.5,FLYING,C-1000F,0:/Integrated Flight Computer/aircraft/c_1000f_cfg.ks (inferred preloaded)
3.74,APPROACH,ILS_TRACK,101.49,88,-13.49,870.85,792.01,-10.99,0.06,5.82,269.98,0.15,0,0,-9.261,1,0.6,4.5,0.75,0.35,0.0168,0.4,39.846,54.696,39.846,13.52,1,270.04,0,0,1,-6.24,0,0,0,270.04,0.9859,0.0007,-0.1676,0,270.04,-0.62,-61.6,16.383,0.042,22.781,1,3,927.9,-5.378,0,932.88,0,0,0,0,0,0,,0,NONE,0,0,0,0,0,0,0,0,0,0,0,792.01,0,0,0,0,0,0,0,0,0,269.87,0,0,0,0,0,0,0,0,0,0,0,0,0,2,2,0,0,VALID,0,0,0,0,0,1,0,0,0,0,0,0,0,0,0,0,0,0,0,0,108,1542.57,6,0,0.12,0.12,29,7.69,0.14,0.12,3.76,FLYING,C-1000F,0:/Integrated Flight Computer/aircraft/c_1000f_cfg.ks (inferred preloaded)
4,APPROACH,ILS_TRACK,101.11,88,-13.11,868.12,789.24,-10.27,0.18,5.59,269.98,0.15,0,0,-12.702,1,0.6,4.5,0.75,0.35,0.0168,0.4,38.639,54.772,38.639,13.14,1,270.04,0,0,1,-5.86,0,0,0,270.04,0.9858,0.0007,-0.1677,0,270.04,-0.64,-62.86,16.354,0.042,22.606,1,3,927.9,-4.684,0,931.39,0,0,0,0,0,0,,0,NONE,0,0,0,0,0,0,0,0,0,0,0,789.24,0,0,0,0,0,0,0,0,0,269.87,0,0,0,0,0,0,0,0,0,0,0,0,0,2,2,0,0,VALID,0,0,0,0,0,1,0,0,0,0,0,0,0,0,0,0,0,0,0,0,101.29,1544.11,6,0,0.12,0.12,31,7.69,0.14,0.12,4.02,FLYING,C-1000F,0:/Integrated Flight Computer/aircraft/c_1000f_cfg.ks (inferred preloaded)
4.26,APPROACH,ILS_TRACK,100.71,88,-12.71,865.57,786.65,-9.61,0.3,5.37,269.98,0.15,0,0,-14.167,1,0.6,4.5,0.75,0.35,0.0168,0.4,37.366,54.852,37.366,12.74,1,270.04,0,0,1,-5.5,0,0,0,270.04,0.9858,0.0007,-0.1677,0,270.04,-0.66,-63.95,16.326,0.038,22.407,1,3,927.9,-4.027,0,929.9,0,0,0,0,0,0,,0,NONE,0,0,0,0,0,0,0,0,0,0,0,786.65,0,0,0,0,0,0,0,0,0,269.87,0,0,0,0,0,0,0,0,0,0,0,0,0,2,2,0,0,VALID,0,0,0,0,0,1,0,0,0,0,0,0,0,0,0,0,0,0,0,0,95,1545.66,6,0,0.12,0.12,33,7.69,0.14,0.12,4.28,FLYING,C-1000F,0:/Integrated Flight Computer/aircraft/c_1000f_cfg.ks (inferred preloaded)
4.52,APPROACH,ILS_TRACK,100.29,88,-12.29,863.19,784.23,-9,0.42,5.19,269.98,0.148,0,0,-15.575,1,0.6,4.5,0.784,0.35,0.0168,0.4,36.031,54.936,36.031,12.322,1,270.05,0,0,1,-5.18,0,0,0,270.04,0.9858,0.0008,-0.1678,0,270.05,-0.67,-64.88,16.298,0.046,22.188,1,3,927.9,-3.405,0,928.42,0,0,0,0,0,0,,0,NONE,0,0,0,0,0,0,0,0,0,0,0,784.23,0,0,0,0,0,0,0,0,0,269.87,0,0,0,0,0,0,0,0,0,0,0,0,0,2,2,0,0,VALID,0,0,0,0,0,1,0,0,0,0,0,0,0,0,0,0,0,0,0,0,89.09,1547.22,6,0,0.12,0.12,35,7.69,0.14,0.12,4.54,FLYING,C-1000F,0:/Integrated Flight Computer/aircraft/c_1000f_cfg.ks (inferred preloaded)
4.78,APPROACH,ILS_TRACK,99.85,88,-11.85,860.96,781.96,-8.41,0.54,5.02,269.99,0.147,0,0,-15.42,1,0.6,4.5,0.854,0.35,0.0168,0.4,34.627,55,34.627,11.888,1,270.04,0,0,1,-4.86,0,0,0,270.04,0.9858,0.0007,-0.1678,0,270.04,-0.68,-65.66,16.27,0.04,21.977,1,3,927.9,-2.849,0,926.95,0,0,0,0,0,0,,0,NONE,0,0,0,0,0,0,0,0,0,0,0,781.96,0,0,0,0,0,0,0,0,0,269.87,0,0,0,0,0,0,0,0,0,0,0,0,0,2,2,0,0,VALID,0,0,0,0,0,1,0,0,0,0,0,0,0,0,0,0,0,0,0,0,83.56,1548.79,6,0,0.12,0.12,37,7.69,0.14,0.12,4.8,FLYING,C-1000F,0:/Integrated Flight Computer/aircraft/c_1000f_cfg.ks (inferred preloaded)
5.04,APPROACH,ILS_TRACK,99.41,88,-11.41,858.87,779.84,-7.87,0.63,4.84,269.99,0.145,0,0,-15.266,1,0.6,4.5,0.924,0.35,0.0168,0.4,33.139,55,33.139,11.442,1,270.04,0,0,1,-4.57,0,0,0,270.04,0.9858,0.0007,-0.1679,0,270.04,-0.7,-66.3,16.242,0.042,21.765,1,3,927.9,-2.342,0,925.48,0,0,0,0,0,0,,0,NONE,0,0,0,0,0,0,0,0,0,0,0,779.84,0,0,0,0,0,0,0,0,0,269.87,0,0,0,0,0,0,0,0,0,0,0,0,0,2,2,0,0,VALID,0,0,0,0,0,1,0,0,0,0,0,0,0,0,0,0,0,0,0,0,78.37,1550.36,6,0,0.12,0.12,39,7.69,0.14,0.12,5.06,FLYING,C-1000F,0:/Integrated Flight Computer/aircraft/c_1000f_cfg.ks (inferred preloaded)
5.3,APPROACH,ILS_TRACK,98.95,88,-10.95,856.91,777.86,-7.36,0.71,4.66,269.99,0.142,0,0,-15.114,1,0.6,4.5,0.993,0.35,0.0168,0.4,31.623,55,31.623,10.987,1,270.03,0,0,1,-4.3,0,0,0,270.04,0.9858,0.0006,-0.1679,0,270.03,-0.7,-66.82,16.214,0.034,21.539,1,3,927.9,-1.866,0,924.02,0,0,0,0,0,0,,0,NONE,0,0,0,0,0,0,0,0,0,0,0,777.86,0,0,0,0,0,0,0,0,0,269.87,0,0,0,0,0,0,0,0,0,0,0,0,0,2,2,0,0,VALID,0,0,0,0,0,1,0,0,0,0,0,0,0,0,0,0,0,0,0,0,73.5,1551.93,6,0,0.12,0.12,41,7.69,0.14,0.12,5.32,FLYING,C-1000F,0:/Integrated Flight Computer/aircraft/c_1000f_cfg.ks (inferred preloaded)
5.56,APPROACH,ILS_TRACK,98.49,88,-10.49,855.07,776,-6.91,0.74,4.47,269.99,0.138,0,0,-14.963,1,0.6,4.5,1.061,0.35,0.0168,0.4,30.087,55,30.087,10.526,1,270.04,0,0,1,-4.05,0,0,0,270.04,0.9858,0.0007,-0.1679,0,270.04,-0.72,-67.22,16.186,0.041,21.333,1,3,927.9,-1.457,0,922.57,0,0,0,0,0,0,,0,NONE,0,0,0,0,0,0,0,0,0,0,0,776,0,0,0,0,0,0,0,0,0,269.87,0,0,0,0,0,0,0,0,0,0,0,0,0,2,2,0,0,VALID,0,0,0,0,0,1,0,0,0,0,0,0,0,0,0,0,0,0,0,0,68.93,1553.49,6,0,0.12,0.12,43,7.69,0.14,0.12,5.58,FLYING,C-1000F,0:/Integrated Flight Computer/aircraft/c_1000f_cfg.ks (inferred preloaded)
5.82,APPROACH,ILS_TRACK,98.02,88,-10.02,853.33,774.26,-6.47,0.79,4.28,269.99,0.134,0,0,-14.814,1,0.6,4.5,1.126,0.35,0.0168,0.4,28.533,55,28.533,10.06,1,270.04,0,0,1,-3.81,0,0,0,270.03,0.9858,0.0007,-0.168,0,270.04,-0.72,-67.52,16.158,0.039,21.107,1,3,927.9,-1.064,0,921.12,0,0,0,0,0,0,,0,NONE,0,0,0,0,0,0,0,0,0,0,0,774.26,0,0,0,0,0,0,0,0,0,269.87,0,0,0,0,0,0,0,0,0,0,0,0,0,2,2,0,0,VALID,0,0,0,0,0,1,0,0,0,0,0,0,0,0,0,0,0,0,0,0,64.65,1555.04,6,0,0.12,0.12,45,7.69,0.14,0.12,5.84,FLYING,C-1000F,0:/Integrated Flight Computer/aircraft/c_1000f_cfg.ks (inferred preloaded)
6.08,APPROACH,ILS_TRACK,97.55,88,-9.55,851.7,772.62,-6.2,0.75,4.14,269.99,0.13,0,0,-14.666,1,0.6,4.5,1.189,0.35,0.0168,0.4,26.966,55,26.966,9.59,1,270.03,0,0,1,-3.65,0,0,0,270.04,0.9858,0.0006,-0.168,0,270.03,-0.73,-67.74,16.131,0.032,20.852,1,3,927.9,-0.663,0,919.68,0,0,0,0,0,0,,0,NONE,0,0,0,0,0,0,0,0,0,0,0,772.62,0,0,0,0,0,0,0,0,0,269.87,0,0,0,0,0,0,0,0,0,0,0,0,0,2,2,0,0,VALID,0,0,0,0,0,1,0,0,0,0,0,0,0,0,0,0,0,0,0,0,60.63,1556.58,6,0,0.12,0.12,47,7.69,0.14,0.12,6.1,FLYING,C-1000F,0:/Integrated Flight Computer/aircraft/c_1000f_cfg.ks (inferred preloaded)
6.34,APPROACH,ILS_TRACK,97.07,88,-9.07,850.22,771.03,-5.75,1.13,4.3,270,0.123,0,0,-14.519,1,0.6,4.5,1.25,0.35,0.0168,0.4,25.35,55,25.35,9.105,1,270.04,0,0,1,-3.44,0,0,0,270.03,0.9858,0.0006,-0.1681,0,270.04,-0.74,-67.79,16.104,0.036,20.444,1,3,927.9,-0.134,0,918.24,0,0,0,0,0,0,,0,NONE,0,0,0,0,0,0,0,0,0,0,0,771.03,0,0,0,0,0,0,0,0,0,269.87,0,0,0,0,0,0,0,0,0,0,0,0,0,2,2,0,0,VALID,0,0,0,0,0,1,0,0,0,0,0,0,0,0,0,0,0,0,0,0,56.86,1558.14,6,0,0.12,0.12,49,7.69,0.14,0.12,6.36,FLYING,C-1000F,0:/Integrated Flight Computer/aircraft/c_1000f_cfg.ks (inferred preloaded)
6.6,APPROACH,ILS_TRACK,96.55,88,-8.55,848.74,769.62,-5.37,0.95,3.89,270,0.12,0,0,-14.375,1,0.6,4.5,1.312,0.35,0.0168,0.4,23.632,55,23.632,8.59,1,270.03,0,0,1,-3.2,0,0,0,270.04,0.9858,0.0006,-0.1681,0,270.03,-0.74,-67.85,16.076,0.033,20.53,1,3,927.9,-0.218,0,916.81,0,0,0,0,0,0,,0,NONE,0,0,0,0,0,0,0,0,0,0,0,769.62,0,0,0,0,0,0,0,0,0,269.87,0,0,0,0,0,0,0,0,0,0,0,0,0,2,2,0,0,VALID,0,0,0,0,0,1,0,0,0,0,0,0,0,0,0,0,0,0,0,0,53.33,1559.76,6,0,0.12,0.12,51,7.69,0.14,0.12,6.62,FLYING,C-1000F,0:/Integrated Flight Computer/aircraft/c_1000f_cfg.ks (inferred preloaded)
6.86,APPROACH,ILS_TRACK,96.04,88,-8.04,847.39,768.24,-5.17,0.97,3.84,270,0.113,0,0,-14.231,1,0.6,4.5,1.372,0.35,0.0168,0.4,21.925,55,21.925,8.078,1,270.03,0,0,1,-3.1,0,0,0,270.03,0.9858,0.0006,-0.1682,0,270.03,-0.75,-67.81,16.049,0.034,20.089,1,3,927.9,0.316,0,915.39,0,0,0,0,0,0,,0,NONE,0,0,0,0,0,0,0,0,0,0,0,768.24,0,0,0,0,0,0,0,0,0,269.87,0,0,0,0,0,0,0,0,0,0,0,0,0,2,2,0,0,VALID,0,0,0,0,0,1,0,0,0,0,0,0,0,0,0,0,0,0,0,0,50.01,1561.36,6,0,0.12,0.12,53,7.69,0.14,0.12,6.88,FLYING,C-1000F,0:/Integrated Flight Computer/aircraft/c_1000f_cfg.ks (inferred preloaded)
7.12,APPROACH,ILS_TRACK,95.5,88,-7.5,846.14,766.92,-4.8,1.22,3.88,270,0.108,0,0,-14.089,1,0.6,4.5,1.432,0.35,0.0168,0.4,20.142,55,20.142,7.543,1,270.04,0,0,1,-2.91,0,0,0,270.03,0.9857,0.0006,-0.1682,0,270.04,-0.75,-67.65,16.022,0.036,19.792,1,3,927.9,0.627,0,913.98,0,0,0,0,0,0,,0,NONE,0,0,0,0,0,0,0,0,0,0,0,766.92,0,0,0,0,0,0,0,0,0,269.87,0,0,0,0,0,0,0,0,0,0,0,0,0,2,2,0,0,VALID,0,0,0,0,0,1,0,0,0,0,0,0,0,0,0,0,0,0,0,0,46.91,1563.01,6,0,0.12,0.12,55,7.69,0.14,0.12,7.14,FLYING,C-1000F,0:/Integrated Flight Computer/aircraft/c_1000f_cfg.ks (inferred preloaded)
7.38,APPROACH,ILS_TRACK,94.94,88,-6.94,844.93,765.71,-4.56,1.2,3.76,270,0.105,0,0,-13.949,1,0.6,4.5,1.494,0.35,0.0168,0.4,18.268,55,18.268,6.98,1,270.03,0,0,1,-2.77,0,0,0,270.03,0.9857,0.0006,-0.1683,0,270.03,-0.75,-67.47,15.995,0.033,19.592,1,3,927.9,0.81,0,912.57,0,0,0,0,0,0,,0,NONE,0,0,0,0,0,0,0,0,0,0,0,765.71,0,0,0,0,0,0,0,0,0,269.87,0,0,0,0,0,0,0,0,0,0,0,0,0,2,2,0,0,VALID,0,0,0,0,0,1,0,0,0,0,0,0,0,0,0,0,0,0,0,0,44,1564.7,6,0,0.12,0.12,57,7.69,0.14,0.12,7.4,FLYING,C-1000F,0:/Integrated Flight Computer/aircraft/c_1000f_cfg.ks (inferred preloaded)
7.64,APPROACH,ILS_TRACK,94.36,88,-6.36,843.78,764.58,-4.26,1.2,3.59,270,0.101,0.0262,0,-15.651,1,0.6,4.5,1.557,0.35,0.0168,0.4,16.336,55,16.336,6.401,1,270.03,0,0,1,-2.6,0,0,0,270.03,0.9857,0.0005,-0.1683,0,270.03,-0.75,-67.22,15.969,0.027,19.426,1,3,927.9,0.925,0,911.18,0,0,0,0,0,0,,0,NONE,0,0,0,0,0,0,0,0,0,0,0,764.58,0,0,0,0,0,0,0,0,0,269.87,0,0,0,0,0,0,0,0,0,0,0,0,0,2,2,0,0,VALID,0,0,0,0,0,1,0,0,0,0,0,0,0,0,0,0,0,0,0,0,41.54,1566.43,6,0,0.12,0.12,59,7.69,0.14,0.12,7.66,FLYING,C-1000F,0:/Integrated Flight Computer/aircraft/c_1000f_cfg.ks (inferred preloaded)
7.9,APPROACH,ILS_TRACK,93.77,88,-5.77,842.75,763.45,-4.19,1.36,3.77,270,0.095,0.0613,0,-17.2,1,0.6,4.5,1.621,0.35,0.0168,0.4,14.373,55,14.373,5.812,1,270.04,0,0,1,-2.56,0,0,0,270.03,0.9857,0.0006,-0.1683,0,270.04,-0.76,-66.89,15.942,0.037,18.917,1,3,927.9,1.438,0,909.79,0,0,0,0,0,0,,0,NONE,0,0,0,0,0,0,0,0,0,0,0,763.45,0,0,0,0,0,0,0,0,0,269.87,0,0,0,0,0,0,0,0,0,0,0,0,0,2,2,0,0,VALID,0,0,0,0,0,1,0,0,0,0,0,0,0,0,0,0,0,0,0,0,41.6,1568.17,6,0,0.12,0.12,61,7.69,0.14,0.12,7.92,FLYING,C-1000F,0:/Integrated Flight Computer/aircraft/c_1000f_cfg.ks (inferred preloaded)
8.16,APPROACH,ILS_TRACK,93.16,88,-5.16,841.91,762.3,-3.91,2.27,4.58,270,0.092,0.1025,0,-18.593,1,0.6,4.5,1.652,0.35,0.0168,0.4,7.873,55,0,5.205,1,270.03,0,0,1,-2.45,0,0,0,270.03,0.9857,0.0005,-0.1684,0,270.03,-0.76,-66.37,15.916,0.031,18.191,1,3,927.9,2.151,0,908.41,0,0,0,0,0,0,,0,NONE,0,0,0,0,0,0,0,0,0,0,0,762.3,0,0,0,0,0,0,0,0,0,269.87,0,0,0,0,0,0,0,0,0,0,0,0,0,2,2,0,0,VALID,0,0,0,0,0,1,0,0,0,0,0,0,0,0,0,0,0,0,0,0,42.65,1569.95,6,0,0.12,0.12,63,7.69,0.14,0.12,8.18,FLYING,C-1000F,0:/Integrated Flight Computer/aircraft/c_1000f_cfg.ks (inferred preloaded)
8.42,APPROACH,ILS_TRACK,92.51,88,-4.51,841.04,761.34,-3.29,2.69,4.57,270,0.087,0.1586,0,-19.822,1,0.6,4.5,1.652,0.35,0.0168,0.4,1.373,55,0,4.563,1,270.03,0,0,1,-2.09,0,0,0,270.03,0.9857,0.0005,-0.1684,0,270.03,-0.76,-65.86,15.89,0.031,18.287,1,3,927.9,1.839,0,907.04,0,0,0,0,0,0,,0,NONE,0,0,0,0,0,0,0,0,0,0,0,761.34,0,0,0,0,0,0,0,0,0,269.87,0,0,0,0,0,0,0,0,0,0,0,0,0,2,2,0,0,VALID,0,0,0,0,0,1,0,0,0,0,0,0,0,0,0,0,0,0,0,0,44.74,1571.81,6,0,0.12,0.12,65,7.69,0.14,0.12,8.44,FLYING,C-1000F,0:/Integrated Flight Computer/aircraft/c_1000f_cfg.ks (inferred preloaded)
8.68,APPROACH,ILS_TRACK,91.87,88,-3.87,840.04,760.63,-2.98,1.97,3.61,270,0.084,0.221,0,-20,1,0.6,4.5,1.652,0.35,0.0168,0.4,0,55,0,3.916,0,270.03,0,0,1,-1.86,0,0,0,270.03,0.9857,0.0006,-0.1685,0,270.03,-0.76,-65.48,15.864,0.034,18.539,1,3,927.9,1.382,0,905.68,0,0,0,0,0,0,,0,NONE,0,0,0,0,0,0,0,0,0,0,0,760.63,0,0,0,0,0,0,0,0,0,269.87,0,0,0,0,0,0,0,0,0,0,0,0,0,2,2,0,0,VALID,0,0,0,0,0,1,0,0,0,0,0,0,0,0,0,0,0,0,0,0,48.27,1573.64,6,0,0.12,0.12,67,7.69,0.14,0.12,8.7,FLYING,C-1000F,0:/Integrated Flight Computer/aircraft/c_1000f_cfg.ks (inferred preloaded)
8.94,APPROACH,ILS_TRACK,91.31,88,-3.31,839.09,759.9,-3.14,1.18,2.96,270,0.081,0.2329,0,-20,1,0.6,4.5,1.652,0.35,0.0168,0.4,0,55,0,3.352,0,270.03,0,0,1,-1.94,0,0,0,270.03,0.9857,0.0006,-0.1685,0,270.03,-0.76,-65.1,15.838,0.032,18.26,1,3,927.9,1.586,0,904.33,0,0,0,0,0,0,,0,NONE,0,0,0,0,0,0,0,0,0,0,0,759.9,0,0,0,0,0,0,0,0,0,269.87,0,0,0,0,0,0,0,0,0,0,0,0,0,2,2,0,0,VALID,0,0,0,0,0,1,0,0,0,0,0,0,0,0,0,0,0,0,0,0,53.03,1575.24,6,0,0.12,0.12,69,7.69,0.14,0.12,8.96,FLYING,C-1000F,0:/Integrated Flight Computer/aircraft/c_1000f_cfg.ks (inferred preloaded)
9.2,APPROACH,ILS_TRACK,90.79,88,-2.79,838.31,759.01,-3.44,1.32,3.36,270,0.079,0.2344,0,-20,1,0.6,4.5,1.652,0.35,0.0168,0.4,0,55,0,2.828,0,270.03,0,0,1,-2.14,0,0,0,270.03,0.9857,0.0005,-0.1686,0,270.03,-0.76,-64.57,15.812,0.031,17.597,1,3,927.9,2.216,0,902.98,0,0,0,0,0,0,,0,NONE,0,0,0,0,0,0,0,0,0,0,0,759.01,0,0,0,0,0,0,0,0,0,269.87,0,0,0,0,0,0,0,0,0,0,0,0,0,2,2,0,0,VALID,0,0,0,0,0,1,0,0,0,0,0,0,0,0,0,0,0,0,0,0,57.95,1576.77,6,0,0.12,0.12,71,7.69,0.14,0.12,9.22,FLYING,C-1000F,0:/Integrated Flight Computer/aircraft/c_1000f_cfg.ks (inferred preloaded)
9.46,APPROACH,ILS_TRACK,90.25,88,-2.25,837.67,758,-3.39,2.42,4.51,270.01,0.077,0.2566,0,-20,1,0.6,4.5,1.652,0.35,0.0168,0.4,0,55,0,2.29,0,270.03,0,0,1,-2.18,0,0,0,270.04,0.9857,0.0005,-0.1686,0,270.03,-0.76,-63.88,15.787,0.027,16.957,1,3,927.9,2.756,0,901.65,0,0,0,0,0,0,,0,NONE,0,0,0,0,0,0,0,0,0,0,0,758,0,0,0,0,0,0,0,0,0,269.87,0,0,0,0,0,0,0,0,0,0,0,0,0,2,2,0,0,VALID,0,0,0,0,0,1,0,0,0,0,0,0,0,0,0,0,0,0,0,0,62.93,1578.35,6,0,0.12,0.12,73,7.69,0.14,0.12,9.48,FLYING,C-1000F,0:/Integrated Flight Computer/aircraft/c_1000f_cfg.ks (inferred preloaded)
9.72,APPROACH,ILS_TRACK,89.67,88,-1.67,836.96,757.13,-2.96,3.06,4.83,270.01,0.073,0.3053,0,-20,1,0.6,4.5,1.652,0.35,0.0168,0.4,0,55,0,1.716,0,270.03,0,0,1,-1.93,0,0,0,270.03,0.9857,0.0005,-0.1686,0,270.03,-0.76,-63.24,15.762,0.028,17.132,1,3,927.9,2.298,0,900.32,0,0,0,0,0,0,,0,NONE,0,0,0,0,0,0,0,0,0,0,0,757.13,0,0,0,0,0,0,0,0,0,269.87,0,0,0,0,0,0,0,0,0,0,0,0,0,2,2,0,0,VALID,0,0,0,0,0,1,0,0,0,0,0,0,0,0,0,0,0,0,0,0,68.48,1580.01,6,0,0.12,0.12,75,7.69,0.14,0.12,9.74,FLYING,C-1000F,0:/Integrated Flight Computer/aircraft/c_1000f_cfg.ks (inferred preloaded)
9.98,APPROACH,ILS_TRACK,89.09,88,-1.09,836.19,756.41,-2.77,2.91,4.54,270.01,0.07,0.3544,0,-20,1,0.6,4.5,1.652,0.35,0.0168,0.4,0,55,0,1.131,0,270.03,0,0,1,-1.78,0,0,0,270.03,0.9857,0.0005,-0.1687,0,270.03,-0.76,-62.69,15.736,0.031,17.14,1,3,927.9,2.085,0,899,0,0,0,0,0,0,,0,NONE,0,0,0,0,0,0,0,0,0,0,0,756.41,0,0,0,0,0,0,0,0,0,269.87,0,0,0,0,0,0,0,0,0,0,0,0,0,2,2,0,0,VALID,0,0,0,0,0,1,0,0,0,0,0,0,0,0,0,0,0,0,0,0,75.21,1581.67,6,0,0.12,0.12,77,7.69,0.14,0.12,10,FLYING,C-1000F,0:/Integrated Flight Computer/aircraft/c_1000f_cfg.ks (inferred preloaded)
10.24,APPROACH,ILS_TRACK,88.54,88,-0.54,835.51,755.68,-2.71,3.01,4.65,270.01,0.069,0.3823,0,-20,1,0.6,4.5,1.652,0.35,0.0168,0.4,0,55,0,0.581,0,270.03,0,0,1,-1.76,0,0,0,270.03,0.9857,0.0005,-0.1687,0,270.03,-0.76,-62.07,15.711,0.029,16.621,1,3,927.9,2.501,0,897.68,0,0,0,0,0,0,,0,NONE,0,0,0,0,0,0,0,0,0,0,0,755.68,0,0,0,0,0,0,0,0,0,269.87,0,0,0,0,0,0,0,0,0,0,0,0,0,2,2,0,0,VALID,0,0,0,0,0,1,0,0,0,0,0,0,0,0,0,0,0,0,0,0,82.92,1583.23,6,0,0.12,0.12,79,7.69,0.14,0.12,10.26,FLYING,C-1000F,0:/Integrated Flight Computer/aircraft/c_1000f_cfg.ks (inferred preloaded)
10.5,APPROACH,ILS_TRACK,88,88,0,834.87,754.98,-2.57,3.22,4.78,270.01,0.067,0.4073,0,-20,1,0.6,4.5,1.652,0.35,0.0168,0.4,0,55,0,0.043,0,270.03,0,0,1,-1.69,0,0,0,270.03,0.9857,0.0005,-0.1688,0,270.03,-0.76,-61.41,15.686,0.031,16.37,1,3,927.9,2.567,0,896.38,0,0,0,0,0,0,,0,NONE,0,0,0,0,0,0,0,0,0,0,0,754.98,0,0,0,0,0,0,0,0,0,269.87,0,0,0,0,0,0,0,0,0,0,0,0,0,2,2,0,0,VALID,0,0,0,0,0,1,0,0,0,0,0,0,0,0,0,0,0,0,0,0,91.21,1584.77,6,0,0.12,0.12,81,7.69,0.14,0.12,10.52,FLYING,C-1000F,0:/Integrated Flight Computer/aircraft/c_1000f_cfg.ks (inferred preloaded)
10.76,APPROACH,ILS_TRACK,87.47,88,0.53,834.26,754.31,-2.45,3.4,4.9,270.01,0.067,0.4338,0,-19.907,1,0.6,4.5,1.652,0.35,0.0168,0.4,0,55,0,-0.487,0,270.03,0,0,1,-1.62,0,0,0,270.03,0.9856,0.0005,-0.1688,0,270.03,-0.76,-60.73,15.662,0.028,16.101,1,3,927.9,2.647,0,895.08,0,0,0,0,0,0,,0,NONE,0,0,0,0,0,0,0,0,0,0,0,754.31,0,0,0,0,0,0,0,0,0,269.87,0,0,0,0,0,0,0,0,0,0,0,0,0,2,2,0,0,VALID,0,0,0,0,0,1,0,0,0,0,0,0,0,0,0,0,0,0,0,0,100,1586.27,6,0,0.12,0.12,83,7.69,0.14,0.12,10.78,FLYING,C-1000F,0:/Integrated Flight Computer/aircraft/c_1000f_cfg.ks (inferred preloaded)
11.02,APPROACH,ILS_TRACK,86.95,88,1.05,833.68,753.67,-2.34,3.58,5.02,270.01,0.065,0.4616,0,-19.679,1,0.6,4.5,1.652,0.35,0.0168,0.4,0,55,0,-1.007,0,270.02,0,0,1,-1.55,0,0,0,270.03,0.9856,0.0004,-0.1688,0,270.02,-0.76,-60.02,15.637,0.025,15.822,1,3,927.9,2.732,0,893.79,0,0,0,0,0,0,,0,NONE,0,0,0,0,0,0,0,0,0,0,0,753.67,0,0,0,0,0,0,0,0,0,269.87,0,0,0,0,0,0,0,0,0,0,0,0,0,2,2,0,0,VALID,0,0,0,0,0,1,0,0,0,0,0,0,0,0,0,0,0,0,0,0,109.34,1587.74,6,0,0.12,0.12,85,7.69,0.14,0.12,11.04,FLYING,C-1000F,0:/Integrated Flight Computer/aircraft/c_1000f_cfg.ks (inferred preloaded)
11.28,APPROACH,ILS_TRACK,86.44,88,1.56,833.13,753.06,-2.23,3.75,5.13,270.01,0.062,0.4905,0,-19.317,1,0.6,4.5,1.652,0.35,0.0168,0.4,0,55,0,-1.517,0,270.02,0,0,1,-1.49,0,0,0,270.03,0.9856,0.0004,-0.1689,0,270.02,-0.75,-59.3,15.613,0.024,15.544,1,3,927.9,2.807,0,892.51,0,0,0,0,0,0,,0,NONE,0,0,0,0,0,0,0,0,0,0,0,753.06,0,0,0,0,0,0,0,0,0,269.87,0,0,0,0,0,0,0,0,0,0,0,0,0,2,2,0,0,VALID,0,0,0,0,0,1,0,0,0,0,0,0,0,0,0,0,0,0,0,0,119.23,1589.18,6,0,0.12,0.12,87,7.69,0.14,0.12,11.3,FLYING,C-1000F,0:/Integrated Flight Computer/aircraft/c_1000f_cfg.ks (inferred preloaded)
11.54,APPROACH,ILS_TRACK,85.95,88,2.05,832.6,752.48,-2.13,3.91,5.24,270.01,0.06,0.52,0,-18.825,1,0.6,4.5,1.652,0.35,0.0168,0.4,0,55,0,-2.016,0,270.02,0,0,1,-1.43,0,0,0,270.03,0.9856,0.0004,-0.1689,0,270.02,-0.75,-58.55,15.588,0.024,15.262,1,3,927.9,2.881,0,891.24,0,0,0,0,0,0,,0,NONE,0,0,0,0,0,0,0,0,0,0,0,752.48,0,0,0,0,0,0,0,0,0,269.87,0,0,0,0,0,0,0,0,0,0,0,0,0,2,2,0,0,VALID,0,0,0,0,0,1,0,0,0,0,0,0,0,0,0,0,0,0,0,0,129.7,1590.59,6,0,0.12,0.12,89,7.69,0.14,0.12,11.56,FLYING,C-1000F,0:/Integrated Flight Computer/aircraft/c_1000f_cfg.ks (inferred preloaded)
11.8,APPROACH,ILS_TRACK,85.46,88,2.54,832.1,751.93,-2.03,4.08,5.35,270.01,0.058,0.55,0,-18.205,1,0.6,4.5,1.652,0.35,0.0168,0.4,0,55,0,-2.503,0,270.03,0,0,1,-1.37,0,0,0,270.03,0.9856,0.0005,-0.169,0,270.03,-0.75,-57.79,15.564,0.027,14.978,1,3,927.9,2.95,0,889.97,0,0,0,0,0,0,,0,NONE,0,0,0,0,0,0,0,0,0,0,0,751.93,0,0,0,0,0,0,0,0,0,269.87,0,0,0,0,0,0,0,0,0,0,0,0,0,2,2,0,0,VALID,0,0,0,0,0,1,0,0,0,0,0,0,0,0,0,0,0,0,0,0,140.76,1591.96,6,0,0.12,0.12,91,7.69,0.14,0.12,11.82,FLYING,C-1000F,0:/Integrated Flight Computer/aircraft/c_1000f_cfg.ks (inferred preloaded)
12.06,APPROACH,ILS_TRACK,84.99,88,3.01,831.62,751.4,-1.94,4.24,5.46,270.01,0.057,0.5804,0,-17.462,1,0.6,4.5,1.652,0.35,0.0168,0.4,0,55,0,-2.978,0,270.03,0,0,1,-1.32,0,0,0,270.03,0.9856,0.0005,-0.169,0,270.03,-0.75,-57.01,15.54,0.028,14.693,1,3,927.9,3.013,0,888.71,0,0,0,0,0,0,,0,NONE,0,0,0,0,0,0,0,0,0,0,0,751.4,0,0,0,0,0,0,0,0,0,269.87,0,0,0,0,0,0,0,0,0,0,0,0,0,2,2,0,0,VALID,0,0,0,0,0,1,0,0,0,0,0,0,0,0,0,0,0,0,0,0,152.4,1593.29,6,0,0.12,0.12,93,7.69,0.14,0.12,12.08,FLYING,C-1000F,0:/Integrated Flight Computer/aircraft/c_1000f_cfg.ks (inferred preloaded)
12.32,APPROACH,ILS_TRACK,84.53,88,3.47,831.17,750.89,-1.85,4.4,5.57,270.01,0.056,0.611,0,-16.597,1,0.6,4.5,1.652,0.35,0.0168,0.4,0,55,0,-3.439,0,270.03,0,0,1,-1.26,0,0,0,270.03,0.9856,0.0005,-0.169,0,270.03,-0.75,-56.22,15.516,0.027,14.407,1,3,927.9,3.074,0,887.46,0,0,0,0,0,0,,0,NONE,0,0,0,0,0,0,0,0,0,0,0,750.89,0,0,0,0,0,0,0,0,0,269.87,0,0,0,0,0,0,0,0,0,0,0,0,0,2,2,0,0,VALID,0,0,0,0,0,1,0,0,0,0,0,0,0,0,0,0,0,0,0,0,164.63,1594.58,6,0,0.12,0.12,95,7.69,0.14,0.12,12.34,FLYING,C-1000F,0:/Integrated Flight Computer/aircraft/c_1000f_cfg.ks (inferred preloaded)
12.58,APPROACH,ILS_TRACK,84.08,88,3.92,830.74,750.41,-1.77,4.55,5.67,270.01,0.055,0.6418,0,-15.615,1,0.6,4.5,1.652,0.35,0.0168,0.4,0,55,0,-3.887,0,270.03,0,0,1,-1.21,0,0,0,270.03,0.9856,0.0006,-0.1691,0,270.03,-0.75,-55.41,15.492,0.032,14.119,1,3,927.9,3.129,0,886.21,0,0,0,0,0,0,,0,NONE,0,0,0,0,0,0,0,0,0,0,0,750.41,0,0,0,0,0,0,0,0,0,269.87,0,0,0,0,0,0,0,0,0,0,0,0,0,2,2,0,0,VALID,0,0,0,0,0,1,0,0,0,0,0,0,0,0,0,0,0,0,0,0,177.45,1595.84,6,0,0.12,0.12,97,7.69,0.14,0.12,12.6,FLYING,C-1000F,0:/Integrated Flight Computer/aircraft/c_1000f_cfg.ks (inferred preloaded)
12.84,APPROACH,ILS_TRACK,83.65,88,4.35,830.32,749.94,-1.69,4.7,5.78,270.01,0.055,0.6726,0,-14.52,1,0.6,4.5,1.652,0.35,0.0168,0.4,0,55,0,-4.32,0,270.03,0,0,1,-1.16,0,0,0,270.03,0.9856,0.0005,-0.1691,0,270.03,-0.74,-54.59,15.469,0.028,13.833,1,3,927.9,3.179,0,884.97,0,0,0,0,0,0,,0,NONE,0,0,0,0,0,0,0,0,0,0,0,749.94,0,0,0,0,0,0,0,0,0,269.87,0,0,0,0,0,0,0,0,0,0,0,0,0,2,2,0,0,VALID,0,0,0,0,0,1,0,0,0,0,0,0,0,0,0,0,0,0,0,0,190.85,1597.05,6,0,0.12,0.12,99,7.69,0.14,0.12,12.86,FLYING,C-1000F,0:/Integrated Flight Computer/aircraft/c_1000f_cfg.ks (inferred preloaded)
13.1,APPROACH,ILS_TRACK,83.23,88,4.77,829.92,749.5,-1.62,4.83,5.87,270.01,0.054,0.7031,0,-13.315,1,0.6,4.5,1.652,0.35,0.0168,0.4,0,55,0,-4.738,0,270.03,0,0,1,-1.12,0,0,0,270.03,0.9856,0.0005,-0.1692,0,270.03,-0.74,-53.75,15.445,0.028,13.549,1,3,927.9,3.221,0,883.73,0,0,0,0,0,0,,0,NONE,0,0,0,0,0,0,0,0,0,0,0,749.5,0,0,0,0,0,0,0,0,0,269.87,0,0,0,0,0,0,0,0,0,0,0,0,0,2,2,0,0,VALID,0,0,0,0,0,1,0,0,0,0,0,0,0,0,0,0,0,0,0,0,204.82,1598.22,6,0,0.12,0.12,101,7.69,0.14,0.12,13.12,FLYING,C-1000F,0:/Integrated Flight Computer/aircraft/c_1000f_cfg.ks (inferred preloaded)
13.36,APPROACH,ILS_TRACK,82.83,88,5.17,829.55,749.08,-1.55,4.97,5.97,270.01,0.053,0.7332,0,-12.004,1,0.6,4.5,1.652,0.35,0.0168,0.4,0,55,0,-5.139,0,270.03,0,0,1,-1.08,0,0,0,270.03,0.9856,0.0005,-0.1692,0,270.03,-0.74,-52.9,15.422,0.027,13.251,1,3,927.9,3.275,0,882.51,0,0,0,0,0,0,,0,NONE,0,0,0,0,0,0,0,0,0,0,0,749.08,0,0,0,0,0,0,0,0,0,269.87,0,0,0,0,0,0,0,0,0,0,0,0,0,2,2,0,0,VALID,0,0,0,0,0,1,0,0,0,0,0,0,0,0,0,0,0,0,0,0,219.34,1599.34,6,0,0.12,0.12,103,7.69,0.14,0.12,13.38,FLYING,C-1000F,0:/Integrated Flight Computer/aircraft/c_1000f_cfg.ks (inferred preloaded)
13.62,APPROACH,ILS_TRACK,82.45,88,5.55,829.18,748.67,-1.48,5.1,6.06,270.01,0.053,0.763,0,-10.592,1,0.6,4.5,1.652,0.35,0.0168,0.4,0,55,0,-5.524,0,270.03,0,0,1,-1.03,0,0,0,270.03,0.9856,0.0005,-0.1692,0,270.03,-0.74,-52.04,15.398,0.027,12.965,1,3,927.9,3.31,0,881.28,0,0,0,0,0,0,,0,NONE,0,0,0,0,0,0,0,0,0,0,0,748.67,0,0,0,0,0,0,0,0,0,269.87,0,0,0,0,0,0,0,0,0,0,0,0,0,2,2,0,0,VALID,0,0,0,0,0,1,0,0,0,0,0,0,0,0,0,0,0,0,0,0,234.4,1600.41,6,0,0.12,0.12,105,7.69,0.14,0.12,13.64,FLYING,C-1000F,0:/Integrated Flight Computer/aircraft/c_1000f_cfg.ks (inferred preloaded)
13.88,APPROACH,ILS_TRACK,82.08,88,5.92,828.84,748.29,-1.42,5.23,6.16,270.01,0.051,0.7924,0,-9.084,1,0.6,4.5,1.652,0.35,0.0168,0.4,0,55,0,-5.892,0,270.03,0,0,1,-1,0,0,0,270.02,0.9856,0.0006,-0.1693,0,270.03,-0.74,-51.17,15.375,0.033,12.663,1,3,927.9,3.361,0,880.07,0,0,0,0,0,0,,0,NONE,0,0,0,0,0,0,0,0,0,0,0,748.29,0,0,0,0,0,0,0,0,0,269.87,0,0,0,0,0,0,0,0,0,0,0,0,0,2,2,0,0,VALID,0,0,0,0,0,1,0,0,0,0,0,0,0,0,0,0,0,0,0,0,249.98,1601.44,6,0,0.12,0.12,107,7.69,0.14,0.12,13.9,FLYING,C-1000F,0:/Integrated Flight Computer/aircraft/c_1000f_cfg.ks (inferred preloaded)
14.14,APPROACH,ILS_TRACK,81.73,88,6.27,828.51,747.92,-1.35,5.36,6.24,270.01,0.05,0.8214,0,-7.483,1,0.6,4.5,1.652,0.35,0.0168,0.4,0,55,0,-6.242,0,270.03,0,0,1,-0.95,0,0,0,270.02,0.9856,0.0005,-0.1693,0,270.03,-0.73,-50.3,15.352,0.029,12.377,1,3,927.9,3.39,0,878.85,0,0,0,0,0,0,,0,NONE,0,0,0,0,0,0,0,0,0,0,0,747.92,0,0,0,0,0,0,0,0,0,269.87,0,0,0,0,0,0,0,0,0,0,0,0,0,2,2,0,0,VALID,0,0,0,0,0,1,0,0,0,0,0,0,0,0,0,0,0,0,0,0,266.06,1602.41,6,0,0.12,0.12,109,7.69,0.14,0.12,14.16,FLYING,C-1000F,0:/Integrated Flight Computer/aircraft/c_1000f_cfg.ks (inferred preloaded)
14.4,APPROACH,ILS_TRACK,81.4,88,6.6,828.19,747.56,-1.29,5.47,6.32,270.01,0.048,0.8496,0,-5.795,1,0.6,4.5,1.652,0.35,0.0168,0.4,0,55,0,-6.574,0,270.03,0,0,1,-0.92,0,0,0,270.03,0.9856,0.0005,-0.1694,0,270.03,-0.73,-49.41,15.329,0.03,12.076,1,3,927.9,3.432,0,877.65,0,0,0,0,0,0,,0,NONE,0,0,0,0,0,0,0,0,0,0,0,747.56,0,0,0,0,0,0,0,0,0,269.87,0,0,0,0,0,0,0,0,0,0,0,0,0,2,2,0,0,VALID,0,0,0,0,0,1,0,0,0,0,0,0,0,0,0,0,0,0,0,0,282.62,1603.34,6,0,0.12,0.12,111,7.69,0.14,0.12,14.42,FLYING,C-1000F,0:/Integrated Flight Computer/aircraft/c_1000f_cfg.ks (inferred preloaded)
14.66,APPROACH,ILS_TRACK,81.09,88,6.91,827.89,747.22,-1.23,5.58,6.39,270.01,0.047,0.8771,0,-4.024,1,0.6,4.5,1.652,0.35,0.0168,0.4,0,55,0,-6.887,0,270.02,0,0,1,-0.88,0,0,0,270.03,0.9855,0.0004,-0.1694,0,270.02,-0.73,-48.51,15.306,0.025,11.782,1,3,927.9,3.463,0,876.44,0,0,0,0,0,0,,0,NONE,0,0,0,0,0,0,0,0,0,0,0,747.22,0,0,0,0,0,0,0,0,0,269.87,0,0,0,0,0,0,0,0,0,0,0,0,0,2,2,0,0,VALID,0,0,0,0,0,1,0,0,0,0,0,0,0,0,0,0,0,0,0,0,299.63,1604.21,6,0,0.12,0.12,113,7.69,0.14,0.12,14.68,FLYING,C-1000F,0:/Integrated Flight Computer/aircraft/c_1000f_cfg.ks (inferred preloaded)
14.92,APPROACH,ILS_TRACK,80.8,88,7.2,827.6,746.9,-1.18,5.68,6.46,270.01,0.046,0.9037,0,-2.176,1,0.6,4.5,1.652,0.35,0.0168,0.4,0,55,0,-7.18,0,270.03,0,0,1,-0.84,0,0,0,270.02,0.9855,0.0005,-0.1694,0,270.03,-0.73,-47.6,15.283,0.031,11.482,1,3,927.9,3.498,0,875.24,0,0,0,0,0,0,,0,NONE,0,0,0,0,0,0,0,0,0,0,0,746.9,0,0,0,0,0,0,0,0,0,269.87,0,0,0,0,0,0,0,0,0,0,0,0,0,2,2,0,0,VALID,0,0,0,0,0,1,0,0,0,0,0,0,0,0,0,0,0,0,0,0,317.07,1605.03,6,0,0.12,0.12,115,7.69,0.14,0.12,14.94,FLYING,C-1000F,0:/Integrated Flight Computer/aircraft/c_1000f_cfg.ks (inferred preloaded)
15.18,APPROACH,ILS_TRACK,80.53,88,7.47,827.32,746.6,-1.12,5.77,6.51,270.01,0.046,0.9291,0,-0.256,1,0.6,4.5,1.652,0.35,0.0168,0.4,0,55,0,-7.452,0,270.03,0,0,1,-0.8,0,0,0,270.03,0.9855,0.0005,-0.1695,0,270.03,-0.72,-46.69,15.26,0.028,11.184,1,3,927.9,3.527,0,874.05,0,0,0,0,0,0,,0,NONE,0,0,0,0,0,0,0,0,0,0,0,746.6,0,0,0,0,0,0,0,0,0,269.87,0,0,0,0,0,0,0,0,0,0,0,0,0,2,2,0,0,VALID,0,0,0,0,0,1,0,0,0,0,0,0,0,0,0,0,0,0,0,0,334.9,1605.79,6,0,0.12,0.12,117,7.69,0.14,0.12,15.2,FLYING,C-1000F,0:/Integrated Flight Computer/aircraft/c_1000f_cfg.ks (inferred preloaded)
15.44,APPROACH,ILS_TRACK,80.28,88,7.72,827.05,746.3,-1.07,5.85,6.56,270.01,0.045,0.9534,0,1.731,1,0.6,4.5,1.652,0.35,0.0168,0.4,0,55,0,-7.704,0,270.03,0,0,1,-0.77,0,0,0,270.02,0.9855,0.0005,-0.1695,0,270.03,-0.72,-45.76,15.238,0.026,10.885,1,3,927.9,3.555,0,872.86,0,0,0,0,0,0,,0,NONE,0,0,0,0,0,0,0,0,0,0,0,746.3,0,0,0,0,0,0,0,0,0,269.87,0,0,0,0,0,0,0,0,0,0,0,0,0,2,2,0,0,VALID,0,0,0,0,0,1,0,0,0,0,0,0,0,0,0,0,0,0,0,0,353.1,1606.5,6,0,0.12,0.12,119,7.69,0.14,0.12,15.46,FLYING,C-1000F,0:/Integrated Flight Computer/aircraft/c_1000f_cfg.ks (inferred preloaded)
15.7,APPROACH,ILS_TRACK,80.05,88,7.95,826.8,746.02,-1.03,5.93,6.61,270.01,0.044,0.9765,0,3.78,1,0.6,4.5,1.652,0.35,0.0168,0.4,0,55,0,-7.935,0,270.03,0,0,1,-0.74,0,0,0,270.03,0.9855,0.0005,-0.1695,0,270.03,-0.72,-44.83,15.215,0.026,10.579,1,3,927.9,3.589,0,871.67,0,0,0,0,0,0,,0,NONE,0,0,0,0,0,0,0,0,0,0,0,746.02,0,0,0,0,0,0,0,0,0,269.87,0,0,0,0,0,0,0,0,0,0,0,0,0,2,2,0,0,VALID,0,0,0,0,0,1,0,0,0,0,0,0,0,0,0,0,0,0,0,0,371.62,1607.14,6,0,0.12,0.12,121,7.69,0.14,0.12,15.72,FLYING,C-1000F,0:/Integrated Flight Computer/aircraft/c_1000f_cfg.ks (inferred preloaded)
15.96,APPROACH,ILS_TRACK,79.84,88,8.16,826.56,745.76,-0.98,6,6.65,270.01,0.044,0.9984,0,5.884,1,0.6,4.5,1.652,0.35,0.0168,0.4,0,55,0,-8.143,0,270.02,0,0,1,-0.71,0,0,0,270.03,0.9855,0.0004,-0.1696,0,270.02,-0.71,-43.89,15.192,0.025,10.273,1,3,927.9,3.619,0,870.49,0,0,0,0,0,0,,0,NONE,0,0,0,0,0,0,0,0,0,0,0,745.76,0,0,0,0,0,0,0,0,0,269.87,0,0,0,0,0,0,0,0,0,0,0,0,0,2,2,0,0,VALID,0,0,0,0,0,1,0,0,0,0,0,0,0,0,0,0,0,0,0,0,390.42,1607.73,6,0,0.12,0.12,123,7.69,0.14,0.12,15.98,FLYING,C-1000F,0:/Integrated Flight Computer/aircraft/c_1000f_cfg.ks (inferred preloaded)
16.22,APPROACH,ILS_TRACK,79.66,88,8.34,826.32,745.5,-0.93,6.06,6.68,270.01,0.043,1,0,7.003,1,0.6,4.5,1.652,0.35,0.0168,0.4,0,55,0,-8.33,0,270.03,0,0,1,-0.68,0,0,0,270.03,0.9855,0.0005,-0.1696,0,270.03,-0.71,-42.95,15.17,0.028,9.968,1,3,927.9,3.646,0,869.3,0,0,0,0,0,0,,0,NONE,0,0,0,0,0,0,0,0,0,0,0,745.5,0,0,0,0,0,0,0,0,0,269.87,0,0,0,0,0,0,0,0,0,0,0,0,0,2,2,0,0,VALID,0,0,0,0,0,1,0,0,0,0,0,0,0,0,0,0,0,0,0,0,409.36,1608.26,6,0,0.12,0.12,125,7.69,0.14,0.12,16.24,FLYING,C-1000F,0:/Integrated Flight Computer/aircraft/c_1000f_cfg.ks (inferred preloaded)
16.48,APPROACH,ILS_TRACK,79.49,88,8.51,826.1,745.26,-0.89,6.11,6.71,270.01,0.042,1,0,8.142,1,0.6,4.5,1.652,0.35,0.0168,0.4,0,55,0,-8.495,0,270.03,0,0,1,-0.65,0,0,0,270.03,0.9855,0.0005,-0.1697,0,270.03,-0.71,-41.99,15.147,0.026,9.659,1,3,927.9,3.674,0,868.13,0,0,0,0,0,0,,0,NONE,0,0,0,0,0,0,0,0,0,0,0,745.26,0,0,0,0,0,0,0,0,0,269.87,0,0,0,0,0,0,0,0,0,0,0,0,0,2,2,0,0,VALID,0,0,0,0,0,1,0,0,0,0,0,0,0,0,0,0,0,0,0,0,428.06,1608.73,6,0,0.12,0.12,127,7.69,0.14,0.12,16.5,FLYING,C-1000F,0:/Integrated Flight Computer/aircraft/c_1000f_cfg.ks (inferred preloaded)
16.74,APPROACH,ILS_TRACK,79.35,88,8.65,825.88,745.03,-0.85,6.16,6.73,270.01,0.042,1,0,9.295,1,0.6,4.5,1.652,0.35,0.0168,0.4,0,55,0,-8.637,0,270.02,0,0,1,-0.62,0,0,0,270.02,0.9855,0.0004,-0.1697,0,270.02,-0.71,-41.03,15.125,0.024,9.347,1,3,927.9,3.704,0,866.95,0,0,0,0,0,0,,0,NONE,0,0,0,0,0,0,0,0,0,0,0,745.03,0,0,0,0,0,0,0,0,0,269.87,0,0,0,0,0,0,0,0,0,0,0,0,0,2,2,0,0,VALID,0,0,0,0,0,1,0,0,0,0,0,0,0,0,0,0,0,0,0,0,446.46,1609.14,6,0,0.12,0.12,129,7.69,0.14,0.12,16.76,FLYING,C-1000F,0:/Integrated Flight Computer/aircraft/c_1000f_cfg.ks (inferred preloaded)
17,APPROACH,ILS_TRACK,79.23,88,8.77,825.67,744.82,-0.8,6.19,6.73,270.01,0.041,1,0,10.461,1,0.6,4.5,1.652,0.35,0.0168,0.4,0,55,0,-8.758,0,270.03,0,0,1,-0.59,0,0,0,270.03,0.9855,0.0005,-0.1697,0,270.03,-0.7,-40.07,15.102,0.026,9.043,1,3,927.9,3.721,0,865.77,0,0,0,0,0,0,,0,NONE,0,0,0,0,0,0,0,0,0,0,0,744.82,0,0,0,0,0,0,0,0,0,269.87,0,0,0,0,0,0,0,0,0,0,0,0,0,2,2,0,0,VALID,0,0,0,0,0,1,0,0,0,0,0,0,0,0,0,0,0,0,0,0,464.57,1609.5,6,0,0.12,0.12,131,7.69,0.14,0.12,17.02,FLYING,C-1000F,0:/Integrated Flight Computer/aircraft/c_1000f_cfg.ks (inferred preloaded)
17.26,APPROACH,ILS_TRACK,79.14,88,8.86,825.47,744.61,-0.77,6.21,6.72,270.01,0.041,0.9996,0,11.637,1,0.6,4.5,1.652,0.35,0.0168,0.4,0,55,0,-8.857,0,270.03,0,0,1,-0.56,0,0,0,270.02,0.9855,0.0005,-0.1698,0,270.03,-0.7,-39.09,15.08,0.027,8.729,1,3,927.9,3.749,0,864.6,0,0,0,0,0,0,,0,NONE,0,0,0,0,0,0,0,0,0,0,0,744.61,0,0,0,0,0,0,0,0,0,269.87,0,0,0,0,0,0,0,0,0,0,0,0,0,2,2,0,0,VALID,0,0,0,0,0,1,0,0,0,0,0,0,0,0,0,0,0,0,0,0,482.39,1609.79,6,0,0.12,0.12,133,7.69,0.14,0.12,17.28,FLYING,C-1000F,0:/Integrated Flight Computer/aircraft/c_1000f_cfg.ks (inferred preloaded)
17.52,APPROACH,ILS_TRACK,79.06,88,8.94,825.28,744.41,-0.73,6.23,6.72,270.01,0.041,1,0,13.955,1,0.6,4.5,1.652,0.35,0.0168,0.4,0,55,0,-8.935,0,270.03,0,0,1,-0.54,0,0,0,270.02,0.9855,0.0005,-0.1698,0,270.03,-0.7,-38.11,15.058,0.029,8.413,1,3,927.9,3.777,0,863.43,0,0,0,0,0,0,,0,NONE,0,0,0,0,0,0,0,0,0,0,0,744.41,0,0,0,0,0,0,0,0,0,269.87,0,0,0,0,0,0,0,0,0,0,0,0,0,2,2,0,0,VALID,0,0,0,0,0,1,0,0,0,0,0,0,0,0,0,0,0,0,0,0,499.92,1610.03,6,0,0.12,0.12,135,7.69,0.14,0.12,17.54,FLYING,C-1000F,0:/Integrated Flight Computer/aircraft/c_1000f_cfg.ks (inferred preloaded)
17.78,APPROACH,ILS_TRACK,79.01,88,8.99,825.1,744.23,-0.7,6.23,6.7,270.01,0.039,1,0,14.965,1,0.6,4.5,1.652,0.35,0.0168,0.4,0,55,0,-8.992,0,270.03,0,0,1,-0.51,0,0,0,270.03,0.9855,0.0005,-0.1698,0,270.03,-0.7,-37.13,15.035,0.027,8.102,1,3,927.9,3.795,0,862.26,0,0,0,0,0,0,,0,NONE,0,0,0,0,0,0,0,0,0,0,0,744.23,0,0,0,0,0,0,0,0,0,269.87,0,0,0,0,0,0,0,0,0,0,0,0,0,2,2,0,0,VALID,0,0,0,0,0,1,0,0,0,0,0,0,0,0,0,0,0,0,0,0,517.18,1610.21,6,0,0.12,0.12,137,7.69,0.14,0.12,17.8,FLYING,C-1000F,0:/Integrated Flight Computer/aircraft/c_1000f_cfg.ks (inferred preloaded)
18.04,APPROACH,ILS_TRACK,78.97,88,9.03,824.92,744.05,-0.67,6.23,6.68,270.01,0.038,1,0,16.145,1,0.6,4.5,1.652,0.35,0.0168,0.4,0,55,0,-9.027,0,270.02,0,0,1,-0.49,0,0,0,270.02,0.9855,0.0004,-0.1699,0,270.02,-0.69,-36.14,15.013,0.022,7.788,1,3,927.9,3.817,0,861.08,0,0,0,0,0,0,,0,NONE,0,0,0,0,0,0,0,0,0,0,0,744.05,0,0,0,0,0,0,0,0,0,269.87,0,0,0,0,0,0,0,0,0,0,0,0,0,2,2,0,0,VALID,0,0,0,0,0,1,0,0,0,0,0,0,0,0,0,0,0,0,0,0,534.15,1610.33,6,0,0.12,0.12,139,7.69,0.14,0.12,18.06,FLYING,C-1000F,0:/Integrated Flight Computer/aircraft/c_1000f_cfg.ks (inferred preloaded)
18.3,APPROACH,ILS_TRACK,78.96,88,9.04,824.75,743.88,-0.64,6.22,6.65,270.01,0.037,1,0,18.496,1,0.6,4.5,1.652,0.35,0.0168,0.4,0,55,0,-9.042,0,270.03,0,0,1,-0.47,0,0,0,270.03,0.9855,0.0005,-0.1699,0,270.03,-0.69,-35.14,14.991,0.028,7.468,1,3,927.9,3.843,0,859.91,0,0,0,0,0,0,,0,NONE,0,0,0,0,0,0,0,0,0,0,0,743.88,0,0,0,0,0,0,0,0,0,269.87,0,0,0,0,0,0,0,0,0,0,0,0,0,2,2,0,0,VALID,0,0,0,0,0,1,0,0,0,0,0,0,0,0,0,0,0,0,0,0,550.84,1610.4,6,0,0.12,0.12,141,7.69,0.14,0.12,18.32,FLYING,C-1000F,0:/Integrated Flight Computer/aircraft/c_1000f_cfg.ks (inferred preloaded)
18.56,APPROACH,ILS_TRACK,78.96,88,9.04,824.58,743.72,-0.62,6.21,6.62,270.01,0.037,1,0,19.663,1,0.6,4.5,1.652,0.35,0.0168,0.4,0,55,0,-9.037,0,270.02,0,0,1,-0.45,0,0,0,270.02,0.9855,0.0004,-0.1699,0,270.02,-0.69,-34.14,14.968,0.024,7.149,1,3,927.9,3.866,0,858.74,0,0,0,0,0,0,,0,NONE,0,0,0,0,0,0,0,0,0,0,0,743.72,0,0,0,0,0,0,0,0,0,269.87,0,0,0,0,0,0,0,0,0,0,0,0,0,2,2,0,0,VALID,0,0,0,0,0,1,0,0,0,0,0,0,0,0,0,0,0,0,0,0,567.26,1610.42,6,0,0.12,0.12,143,7.69,0.14,0.12,18.58,FLYING,C-1000F,0:/Integrated Flight Computer/aircraft/c_1000f_cfg.ks (inferred preloaded)
18.82,APPROACH,ILS_TRACK,78.99,88,9.01,824.42,743.56,-0.59,6.19,6.59,270.01,0.035,0.9808,0,20,1,0.6,4.5,1.652,0.35,0.0168,0.4,0,55,0,-9.012,0,270.02,0,0,1,-0.43,0,0,0,270.03,0.9854,0.0004,-0.17,0,270.02,-0.69,-33.13,14.946,0.025,6.829,1,3,927.9,3.886,0,857.57,0,0,0,0,0,0,,0,NONE,0,0,0,0,0,0,0,0,0,0,0,743.56,0,0,0,0,0,0,0,0,0,269.87,0,0,0,0,0,0,0,0,0,0,0,0,0,2,2,0,0,VALID,0,0,0,0,0,1,0,0,0,0,0,0,0,0,0,0,0,0,0,0,583.36,1610.39,6,0,0.12,0.12,145,7.69,0.14,0.12,18.84,FLYING,C-1000F,0:/Integrated Flight Computer/aircraft/c_1000f_cfg.ks (inferred preloaded)
19.08,APPROACH,ILS_TRACK,79.04,88,8.96,824.26,743.41,-0.57,6.17,6.54,270.01,0.035,0.9508,0,20,1,0.6,4.5,1.652,0.35,0.0168,0.4,0,55,0,-8.968,0,270.03,0,0,1,-0.41,0,0,0,270.03,0.9854,0.0005,-0.17,0,270.03,-0.69,-32.11,14.924,0.027,6.506,1,3,927.9,3.91,0,856.4,0,0,0,0,0,0,,0,NONE,0,0,0,0,0,0,0,0,0,0,0,743.41,0,0,0,0,0,0,0,0,0,269.87,0,0,0,0,0,0,0,0,0,0,0,0,0,2,2,0,0,VALID,0,0,0,0,0,1,0,0,0,0,0,0,0,0,0,0,0,0,0,0,598.64,1610.3,6,0,0.12,0.12,147,7.69,0.14,0.12,19.1,FLYING,C-1000F,0:/Integrated Flight Computer/aircraft/c_1000f_cfg.ks (inferred preloaded)
19.34,APPROACH,ILS_TRACK,79.1,88,8.9,824.11,743.27,-0.54,6.14,6.5,270.01,0.034,0.9204,0,20,1,0.6,4.5,1.652,0.35,0.0168,0.4,0,55,0,-8.905,0,270.03,0,0,1,-0.4,0,0,0,270.02,0.9854,0.0005,-0.1701,0,270.03,-0.68,-31.09,14.901,0.029,6.182,1,3,927.9,3.932,0,855.23,0,0,0,0,0,0,,0,NONE,0,0,0,0,0,0,0,0,0,0,0,743.27,0,0,0,0,0,0,0,0,0,269.87,0,0,0,0,0,0,0,0,0,0,0,0,0,2,2,0,0,VALID,0,0,0,0,0,1,0,0,0,0,0,0,0,0,0,0,0,0,0,0,612.91,1610.17,6,0,0.12,0.12,149,7.69,0.14,0.12,19.36,FLYING,C-1000F,0:/Integrated Flight Computer/aircraft/c_1000f_cfg.ks (inferred preloaded)
19.6,APPROACH,ILS_TRACK,79.18,88,8.82,823.96,743.14,-0.52,6.11,6.45,270.01,0.033,0.8898,0,20,1,0.6,4.5,1.652,0.35,0.0168,0.4,0,55,0,-8.826,0,270.03,0,0,1,-0.38,0,0,0,270.03,0.9854,0.0005,-0.1701,0,270.03,-0.68,-30.07,14.879,0.026,5.856,1,3,927.9,3.955,0,854.05,0,0,0,0,0,0,,0,NONE,0,0,0,0,0,0,0,0,0,0,0,743.14,0,0,0,0,0,0,0,0,0,269.87,0,0,0,0,0,0,0,0,0,0,0,0,0,2,2,0,0,VALID,0,0,0,0,0,1,0,0,0,0,0,0,0,0,0,0,0,0,0,0,626.18,1609.99,6,0,0.12,0.12,151,7.69,0.14,0.12,19.62,FLYING,C-1000F,0:/Integrated Flight Computer/aircraft/c_1000f_cfg.ks (inferred preloaded)
19.86,APPROACH,ILS_TRACK,79.28,88,8.72,823.82,743.01,-0.5,6.07,6.4,270.01,0.032,0.8595,0,20,1,0.6,4.5,1.652,0.35,0.0168,0.4,0,55,0,-8.73,0,270.03,0,0,1,-0.36,0,0,0,270.02,0.9854,0.0005,-0.1701,0,270.03,-0.68,-29.03,14.856,0.027,5.526,1,3,927.9,3.98,0,852.88,0,0,0,0,0,0,,0,NONE,0,0,0,0,0,0,0,0,0,0,0,743.01,0,0,0,0,0,0,0,0,0,269.87,0,0,0,0,0,0,0,0,0,0,0,0,0,2,2,0,0,VALID,0,0,0,0,0,1,0,0,0,0,0,0,0,0,0,0,0,0,0,0,638.47,1609.77,6,0,0.12,0.12,153,7.69,0.14,0.12,19.88,FLYING,C-1000F,0:/Integrated Flight Computer/aircraft/c_1000f_cfg.ks (inferred preloaded)
20.12,APPROACH,ILS_TRACK,79.39,88,8.61,823.69,742.88,-0.48,6.03,6.34,270.01,0.032,0.8295,0,20,1,0.6,4.5,1.652,0.35,0.0168,0.4,0,55,0,-8.62,0,270.03,0,0,1,-0.35,0,0,0,270.02,0.9854,0.0004,-0.1702,0,270.03,-0.68,-27.99,14.834,0.025,5.195,1,3,927.9,4.003,0,851.7,0,0,0,0,0,0,,0,NONE,0,0,0,0,0,0,0,0,0,0,0,742.88,0,0,0,0,0,0,0,0,0,269.87,0,0,0,0,0,0,0,0,0,0,0,0,0,2,2,0,0,VALID,0,0,0,0,0,1,0,0,0,0,0,0,0,0,0,0,0,0,0,0,649.79,1609.51,6,0,0.12,0.12,155,7.69,0.14,0.12,20.14,FLYING,C-1000F,0:/Integrated Flight Computer/aircraft/c_1000f_cfg.ks (inferred preloaded)
20.38,APPROACH,ILS_TRACK,79.51,88,8.49,823.55,742.77,-0.46,5.99,6.29,270.01,0.031,0.8001,0,20,1,0.6,4.5,1.652,0.35,0.0168,0.4,0,55,0,-8.496,0,270.03,0,0,1,-0.33,0,0,0,270.02,0.9854,0.0005,-0.1702,0,270.03,-0.68,-26.95,14.811,0.028,4.862,1,3,927.9,4.028,0,850.52,0,0,0,0,0,0,,0,NONE,0,0,0,0,0,0,0,0,0,0,0,742.77,0,0,0,0,0,0,0,0,0,269.87,0,0,0,0,0,0,0,0,0,0,0,0,0,2,2,0,0,VALID,0,0,0,0,0,1,0,0,0,0,0,0,0,0,0,0,0,0,0,0,660.16,1609.21,6,0,0.12,0.12,157,7.69,0.14,0.12,20.4,FLYING,C-1000F,0:/Integrated Flight Computer/aircraft/c_1000f_cfg.ks (inferred preloaded)
20.64,APPROACH,ILS_TRACK,79.65,88,8.35,823.43,742.65,-0.44,5.94,6.23,270.01,0.03,0.7713,0,20,1,0.6,4.5,1.652,0.35,0.0168,0.4,0,55,0,-8.36,0,270.03,0,0,1,-0.32,0,0,0,270.02,0.9854,0.0005,-0.1702,0,270.03,-0.67,-25.9,14.789,0.027,4.526,1,3,927.9,4.053,0,849.34,0,0,0,0,0,0,,0,NONE,0,0,0,0,0,0,0,0,0,0,0,742.65,0,0,0,0,0,0,0,0,0,269.87,0,0,0,0,0,0,0,0,0,0,0,0,0,2,2,0,0,VALID,0,0,0,0,0,1,0,0,0,0,0,0,0,0,0,0,0,0,0,0,669.63,1608.88,6,0,0.12,0.12,159,7.69,0.14,0.12,20.66,FLYING,C-1000F,0:/Integrated Flight Computer/aircraft/c_1000f_cfg.ks (inferred preloaded)
20.9,APPROACH,ILS_TRACK,79.8,88,8.2,823.3,742.54,-0.42,5.89,6.17,270.01,0.029,0.7433,0,20,1,0.6,4.5,1.652,0.35,0.0168,0.4,0,55,0,-8.212,0,270.02,0,0,1,-0.31,0,0,0,270.02,0.9854,0.0004,-0.1703,0,270.02,-0.67,-24.84,14.766,0.025,4.19,1,3,927.9,4.076,0,848.16,0,0,0,0,0,0,,0,NONE,0,0,0,0,0,0,0,0,0,0,0,742.54,0,0,0,0,0,0,0,0,0,269.87,0,0,0,0,0,0,0,0,0,0,0,0,0,2,2,0,0,VALID,0,0,0,0,0,1,0,0,0,0,0,0,0,0,0,0,0,0,0,0,678.22,1608.52,6,0,0.12,0.12,161,7.69,0.14,0.12,20.92,FLYING,C-1000F,0:/Integrated Flight Computer/aircraft/c_1000f_cfg.ks (inferred preloaded)
21.16,APPROACH,ILS_TRACK,79.96,88,8.04,823.18,742.44,-0.41,5.84,6.11,270.01,0.028,0.716,0,20,1,0.6,4.5,1.652,0.35,0.0168,0.4,0,55,0,-8.055,0,270.03,0,0,1,-0.29,0,0,0,270.03,0.9854,0.0005,-0.1703,0,270.03,-0.67,-23.77,14.744,0.026,3.851,1,3,927.9,4.101,0,846.97,0,0,0,0,0,0,,0,NONE,0,0,0,0,0,0,0,0,0,0,0,742.44,0,0,0,0,0,0,0,0,0,269.87,0,0,0,0,0,0,0,0,0,0,0,0,0,2,2,0,0,VALID,0,0,0,0,0,1,0,0,0,0,0,0,0,0,0,0,0,0,0,0,685.96,1608.14,6,0,0.12,0.12,163,7.69,0.14,0.12,21.18,FLYING,C-1000F,0:/Integrated Flight Computer/aircraft/c_1000f_cfg.ks (inferred preloaded)
21.42,APPROACH,ILS_TRACK,80.13,88,7.87,823.07,742.34,-0.39,5.79,6.04,270,0.028,0.6895,0,20,1,0.6,4.5,1.652,0.35,0.0168,0.4,0,55,0,-7.888,0,270.02,0,0,1,-0.28,0,0,0,270.02,0.9854,0.0004,-0.1704,0,270.02,-0.67,-22.7,14.721,0.025,3.508,1,3,927.9,4.128,0,845.79,0,0,0,0,0,0,,0,NONE,0,0,0,0,0,0,0,0,0,0,0,742.34,0,0,0,0,0,0,0,0,0,269.87,0,0,0,0,0,0,0,0,0,0,0,0,0,2,2,0,0,VALID,0,0,0,0,0,1,0,0,0,0,0,0,0,0,0,0,0,0,0,0,692.88,1607.73,6,0,0.12,0.12,165,7.69,0.14,0.12,21.44,FLYING,C-1000F,0:/Integrated Flight Computer/aircraft/c_1000f_cfg.ks (inferred preloaded)
21.68,APPROACH,ILS_TRACK,80.3,88,7.7,822.96,742.25,-0.37,5.74,5.98,270,0.028,0.6639,0,20,1,0.6,4.5,1.652,0.35,0.0168,0.4,0,55,0,-7.713,0,270.03,0,0,1,-0.27,0,0,0,270.03,0.9854,0.0005,-0.1704,0,270.03,-0.67,-21.62,14.698,0.028,3.164,1,3,927.9,4.153,0,844.6,0,0,0,0,0,0,,0,NONE,0,0,0,0,0,0,0,0,0,0,0,742.25,0,0,0,0,0,0,0,0,0,269.87,0,0,0,0,0,0,0,0,0,0,0,0,0,2,2,0,0,VALID,0,0,0,0,0,1,0,0,0,0,0,0,0,0,0,0,0,0,0,0,699.03,1607.3,6,0,0.12,0.12,167,7.69,0.14,0.12,21.7,FLYING,C-1000F,0:/Integrated Flight Computer/aircraft/c_1000f_cfg.ks (inferred preloaded)
21.94,APPROACH,ILS_TRACK,80.48,88,7.52,822.85,742.16,-0.36,5.68,5.91,270,0.027,0.6391,0,20,1,0.6,4.5,1.652,0.35,0.0168,0.4,0,55,0,-7.531,0,270.03,-0.177,0,1,-0.26,0,0,-0.02,270.02,0.9848,0.0005,-0.1735,-0.18,270.03,-0.67,-20.54,14.676,0.027,2.823,1,3,927.9,4.174,-0.177,843.4,0,0,0,0,0,0,,0,NONE,0,0,0,0,0,0,0,0,0,0,0,742.16,0,0,0,0,0,0,0,0,0,269.87,0,0,0,0,0,0,0,0,0,0,0,0,0,2,2,0,0,VALID,0,0,0,0,0,1,0,0,0,0,0,0,0,0,0,0,0,0,0,0,704.43,1606.85,6,0,0.12,0.12,169,7.69,0.14,0.12,21.96,FLYING,C-1000F,0:/Integrated Flight Computer/aircraft/c_1000f_cfg.ks (inferred preloaded)
22.2,APPROACH,ILS_TRACK,80.67,88,7.33,822.74,742.08,-0.34,5.6,5.82,270,0.026,0.6152,0,20,1,0.6,4.5,1.652,0.35,0.0168,0.4,0,55,0,-7.343,0,270.03,-0.506,0,1,-0.24,0,0,-0.35,270.02,0.9838,0.0005,-0.1792,-0.51,270.03,-0.67,-19.45,14.653,0.027,2.494,1,3,927.9,4.178,-0.506,842.21,0,0,0,0,0,0,,0,NONE,0,0,0,0,0,0,0,0,0,0,0,742.08,0,0,0,0,0,0,0,0,0,269.87,0,0,0,0,0,0,0,0,0,0,0,0,0,2,2,0,0,VALID,0,0,0,0,0,1,0,0,0,0,0,0,0,0,0,0,0,0,0,0,709.12,1606.38,6,0,0.12,0.12,171,7.69,0.14,0.12,22.22,FLYING,C-1000F,0:/Integrated Flight Computer/aircraft/c_1000f_cfg.ks (inferred preloaded)
22.46,APPROACH,ILS_TRACK,80.87,88,7.13,822.62,742.01,-0.32,5.48,5.68,270,0.026,0.5914,0,20,1,0.6,4.5,1.652,0.35,0.0168,0.4,0,55,0,-7.148,0,270.02,-0.818,0,1,-0.23,0,0,-0.68,270.03,0.9828,0.0004,-0.1846,-0.82,270.02,-0.67,-18.37,14.63,0.025,2.182,1,3,927.9,4.161,-0.818,841.01,0,0,0,0,0,0,,0,NONE,0,0,0,0,0,0,0,0,0,0,0,742.01,0,0,0,0,0,0,0,0,0,269.87,0,0,0,0,0,0,0,0,0,0,0,0,0,2,2,0,0,VALID,0,0,0,0,0,1,0,0,0,0,0,0,0,0,0,0,0,0,0,0,713.13,1605.89,6,0,0.12,0.12,173,7.69,0.14,0.12,22.48,FLYING,C-1000F,0:/Integrated Flight Computer/aircraft/c_1000f_cfg.ks (inferred preloaded)
22.72,APPROACH,ILS_TRACK,81.07,88,6.93,822.49,741.94,-0.34,5.28,5.49,270,0.027,0.5666,0,20,1,0.6,4.5,1.652,0.35,0.0168,0.4,0,55,0,-6.945,0,270.02,-1.104,0,1,-0.24,0,0,-0.95,270.03,0.9819,0.0003,-0.1895,-1.1,270.02,-0.66,-17.3,14.607,0.02,1.896,1,3,927.9,4.117,-1.104,839.81,0,0,0,0,0,0,,0,NONE,0,0,0,0,0,0,0,0,0,0,0,741.94,0,0,0,0,0,0,0,0,0,269.87,0,0,0,0,0,0,0,0,0,0,0,0,0,2,2,0,0,VALID,0,0,0,0,0,1,0,0,0,0,0,0,0,0,0,0,0,0,0,0,716.47,1605.38,6,0,0.12,0.12,175,7.69,0.14,0.12,22.74,FLYING,C-1000F,0:/Integrated Flight Computer/aircraft/c_1000f_cfg.ks (inferred preloaded)
22.98,APPROACH,ILS_TRACK,81.29,88,6.71,822.35,741.86,-0.38,5.08,5.31,270,0.027,0.539,0,20,1,0.6,4.5,1.652,0.35,0.0168,0.4,0,55,0,-6.729,0,270.03,-1.406,0,1,-0.26,0,0,-1.27,270.03,0.9809,0.0004,-0.1947,-1.41,270.03,-0.67,-16.23,14.584,0.027,1.594,1,3,927.9,4.095,-1.406,838.61,0,0,0,0,0,0,,0,NONE,0,0,0,0,0,0,0,0,0,0,0,741.86,0,0,0,0,0,0,0,0,0,269.87,0,0,0,0,0,0,0,0,0,0,0,0,0,2,2,0,0,VALID,0,0,0,0,0,1,0,0,0,0,0,0,0,0,0,0,0,0,0,0,719.11,1604.84,6,0,0.12,0.12,177,7.69,0.14,0.12,23,FLYING,C-1000F,0:/Integrated Flight Computer/aircraft/c_1000f_cfg.ks (inferred preloaded)
23.24,APPROACH,ILS_TRACK,81.51,88,6.49,822.2,741.77,-0.44,4.89,5.16,270,0.028,0.5106,0,20,1,0.6,4.5,1.652,0.35,0.0168,0.4,0,55,0,-6.505,0,270.03,-1.693,0,1,-0.3,0,0,-1.56,270.03,0.9799,0.0004,-0.1997,-1.69,270.03,-0.67,-15.18,14.561,0.026,1.307,1,3,927.9,4.058,-1.693,837.4,0,0,0,0,0,0,,0,NONE,0,0,0,0,0,0,0,0,0,0,0,741.77,0,0,0,0,0,0,0,0,0,269.87,0,0,0,0,0,0,0,0,0,0,0,0,0,2,2,0,0,VALID,0,0,0,0,0,1,0,0,0,0,0,0,0,0,0,0,0,0,0,0,721,1604.29,6,0,0.12,0.12,179,7.69,0.14,0.12,23.26,FLYING,C-1000F,0:/Integrated Flight Computer/aircraft/c_1000f_cfg.ks (inferred preloaded)
23.5,APPROACH,ILS_TRACK,81.75,88,6.25,822.03,741.67,-0.52,4.7,5.01,270,0.03,0.4821,0,20,1,0.6,4.5,1.652,0.35,0.0168,0.4,0,55,0,-6.271,0,270.03,-1.957,0,1,-0.35,0,0,-1.83,270.03,0.9789,0.0004,-0.2042,-1.96,270.03,-0.67,-14.14,14.538,0.027,1.043,1,3,927.9,3.997,-1.957,836.19,0,0,0,0,0,0,,0,NONE,0,0,0,0,0,0,0,0,0,0,0,741.67,0,0,0,0,0,0,0,0,0,269.87,0,0,0,0,0,0,0,0,0,0,0,0,0,2,2,0,0,VALID,0,0,0,0,0,1,0,0,0,0,0,0,0,0,0,0,0,0,0,0,722.15,1603.71,6,0,0.12,0.12,181,7.69,0.14,0.12,23.52,FLYING,C-1000F,0:/Integrated Flight Computer/aircraft/c_1000f_cfg.ks (inferred preloaded)
23.76,APPROACH,ILS_TRACK,81.99,88,6.01,821.83,741.54,-0.61,4.5,4.87,270,0.031,0.4539,0,20,1,0.6,4.5,1.652,0.35,0.0168,0.4,0,55,0,-6.031,0,270.03,-2.202,0,1,-0.42,0,0,-2.09,270.03,0.978,0.0004,-0.2084,-2.2,270.03,-0.67,-13.11,14.515,0.027,0.798,1,3,927.9,3.92,-2.202,834.97,0,0,0,0,0,0,,0,NONE,0,0,0,0,0,0,0,0,0,0,0,741.54,0,0,0,0,0,0,0,0,0,269.87,0,0,0,0,0,0,0,0,0,0,0,0,0,2,2,0,0,VALID,0,0,0,0,0,1,0,0,0,0,0,0,0,0,0,0,0,0,0,0,722.56,1603.12,6,0,0.12,0.12,183,7.69,0.14,0.12,23.78,FLYING,C-1000F,0:/Integrated Flight Computer/aircraft/c_1000f_cfg.ks (inferred preloaded)
24.02,APPROACH,ILS_TRACK,82.24,88,5.76,821.61,741.38,-0.72,4.29,4.73,270,0.031,0.4262,0,20,1,0.6,4.5,1.652,0.35,0.0168,0.4,0,55,0,-5.784,0,270.03,-2.429,0,1,-0.49,0,0,-2.32,270.03,0.9772,0.0005,-0.2123,-2.43,270.03,-0.67,-12.11,14.491,0.031,0.571,1,3,927.9,3.828,-2.429,833.76,0,0,0,0,0,0,,0,NONE,0,0,0,0,0,0,0,0,0,0,0,741.38,0,0,0,0,0,0,0,0,0,269.87,0,0,0,0,0,0,0,0,0,0,0,0,0,2,2,0,0,VALID,0,0,0,0,0,1,0,0,0,0,0,0,0,0,0,0,0,0,0,0,721.91,1602.51,6,0,0.12,0.12,185,7.69,0.14,0.12,24.04,FLYING,C-1000F,0:/Integrated Flight Computer/aircraft/c_1000f_cfg.ks (inferred preloaded)
24.28,APPROACH,ILS_TRACK,82.49,88,5.51,821.36,741.2,-0.84,4.1,4.62,270,0.032,0.3993,0,20,1,0.6,4.5,1.652,0.35,0.0168,0.4,0,55,0,-5.531,0,270.03,-2.649,0,1,-0.57,0,0,-2.54,270.02,0.9764,0.0005,-0.2161,-2.65,270.03,-0.67,-11.13,14.468,0.028,0.351,1,3,927.9,3.736,-2.649,832.53,0,0,0,0,0,0,,0,NONE,0,0,0,0,0,0,0,0,0,0,0,741.2,0,0,0,0,0,0,0,0,0,269.87,0,0,0,0,0,0,0,0,0,0,0,0,0,2,2,0,0,VALID,0,0,0,0,0,1,0,0,0,0,0,0,0,0,0,0,0,0,0,0,718.71,1601.9,6,0,0.12,0.12,187,7.69,0.14,0.12,24.3,FLYING,C-1000F,0:/Integrated Flight Computer/aircraft/c_1000f_cfg.ks (inferred preloaded)
24.54,APPROACH,ILS_TRACK,82.74,88,5.26,821.08,740.98,-0.97,3.91,4.5,270,0.034,0.3749,0,20,1,0.6,4.5,1.652,0.35,0.0168,0.4,0,55,0,-5.277,0,270.03,-2.838,0,1,-0.66,0,0,-2.75,270.03,0.9756,0.0005,-0.2194,-2.84,270.03,-0.67,-10.19,14.445,0.031,0.162,1,3,927.9,3.617,-2.838,831.31,0,0,0,0,0,0,,0,NONE,0,0,0,0,0,0,0,0,0,0,0,740.98,0,0,0,0,0,0,0,0,0,269.87,0,0,0,0,0,0,0,0,0,0,0,0,0,2,2,0,0,VALID,0,0,0,0,0,1,0,0,0,0,0,0,0,0,0,0,0,0,0,0,713.02,1601.3,6,0,0.12,0.12,189,7.69,0.14,0.12,24.56,FLYING,C-1000F,0:/Integrated Flight Computer/aircraft/c_1000f_cfg.ks (inferred preloaded)
24.8,APPROACH,ILS_TRACK,83,88,5,820.76,740.72,-1.11,3.72,4.4,270,0.035,0.3536,0,20,1,0.6,4.5,1.652,0.35,0.0168,0.4,0,55,0,-5.024,0,270.02,-3.015,0,1,-0.75,0,0,-2.94,270.03,0.9749,0.0004,-0.2224,-3.02,270.02,-0.67,-9.27,14.421,0.023,-0.015,1,3,927.9,3.495,-3.015,830.08,0,0,0,0,0,0,,0,NONE,0,0,0,0,0,0,0,0,0,0,0,740.72,0,0,0,0,0,0,0,0,0,269.87,0,0,0,0,0,0,0,0,0,0,0,0,0,2,2,0,0,VALID,0,0,0,0,0,1,0,0,0,0,0,0,0,0,0,0,0,0,0,0,705.27,1600.7,6,0,0.12,0.12,191,7.69,0.14,0.12,24.82,FLYING,C-1000F,0:/Integrated Flight Computer/aircraft/c_1000f_cfg.ks (inferred preloaded)
25.06,APPROACH,ILS_TRACK,83.24,88,4.76,820.41,740.43,-1.26,3.53,4.3,270,0.035,0.3357,0,20,1,0.6,4.5,1.652,0.35,0.0168,0.4,0,55,0,-4.774,0,270.03,-3.18,0,1,-0.85,0,0,-3.11,270.03,0.9743,0.0005,-0.2253,-3.18,270.03,-0.67,-8.38,14.398,0.03,-0.18,1,3,927.9,3.369,-3.18,828.85,0,0,0,0,0,0,,0,NONE,0,0,0,0,0,0,0,0,0,0,0,740.43,0,0,0,0,0,0,0,0,0,269.87,0,0,0,0,0,0,0,0,0,0,0,0,0,2,2,0,0,VALID,0,0,0,0,0,1,0,0,0,0,0,0,0,0,0,0,0,0,0,0,695.91,1600.12,6,0,0.12,0.12,193,7.69,0.14,0.12,25.08,FLYING,C-1000F,0:/Integrated Flight Computer/aircraft/c_1000f_cfg.ks (inferred preloaded)
25.32,APPROACH,ILS_TRACK,83.49,88,4.51,820.02,740.1,-1.42,3.36,4.23,270,0.037,0.3212,0,20,1,0.6,4.5,1.652,0.35,0.0168,0.4,0,55,0,-4.531,0,270.03,-3.336,0,1,-0.96,0,0,-3.26,270.03,0.9737,0.0005,-0.228,-3.34,270.03,-0.68,-7.53,14.374,0.032,-0.336,1,3,927.9,3.245,-3.336,827.61,0,0,0,0,0,0,,0,NONE,0,0,0,0,0,0,0,0,0,0,0,740.1,0,0,0,0,0,0,0,0,0,269.87,0,0,0,0,0,0,0,0,0,0,0,0,0,2,2,0,0,VALID,0,0,0,0,0,1,0,0,0,0,0,0,0,0,0,0,0,0,0,0,685.39,1599.57,6,0,0.12,0.12,195,7.69,0.14,0.12,25.34,FLYING,C-1000F,0:/Integrated Flight Computer/aircraft/c_1000f_cfg.ks (inferred preloaded)
25.58,APPROACH,ILS_TRACK,83.72,88,4.28,819.58,739.72,-1.58,3.18,4.16,270,0.039,0.3102,0,20,1,0.6,4.5,1.652,0.35,0.0168,0.4,0,55,0,-4.295,0,270.03,-3.463,0,1,-1.06,0,0,-3.4,270.02,0.9732,0.0006,-0.2302,-3.46,270.03,-0.68,-6.72,14.351,0.035,-0.463,1,3,927.9,3.099,-3.463,826.37,0,0,0,0,0,0,,0,NONE,0,0,0,0,0,0,0,0,0,0,0,739.72,0,0,0,0,0,0,0,0,0,269.87,0,0,0,0,0,0,0,0,0,0,0,0,0,2,2,0,0,VALID,0,0,0,0,0,1,0,0,0,0,0,0,0,0,0,0,0,0,0,0,674.13,1599.04,6,0,0.12,0.12,197,7.69,0.14,0.12,25.6,FLYING,C-1000F,0:/Integrated Flight Computer/aircraft/c_1000f_cfg.ks (inferred preloaded)
25.84,APPROACH,ILS_TRACK,83.95,88,4.05,819.11,739.31,-1.75,3.01,4.09,270,0.039,0.3019,0,20,1,0.6,4.5,1.652,0.35,0.0168,0.4,0,55,0,-4.068,0,270.03,-3.575,0,1,-1.17,0,0,-3.52,270.03,0.9727,0.0005,-0.2321,-3.58,270.03,-0.68,-5.94,14.327,0.03,-0.575,1,3,927.9,2.948,-3.575,825.13,0,0,0,0,0,0,,0,NONE,0,0,0,0,0,0,0,0,0,0,0,739.31,0,0,0,0,0,0,0,0,0,269.87,0,0,0,0,0,0,0,0,0,0,0,0,0,2,2,0,0,VALID,0,0,0,0,0,1,0,0,0,0,0,0,0,0,0,0,0,0,0,0,662.52,1598.55,6,0,0.12,0.12,199,7.69,0.14,0.12,25.86,FLYING,C-1000F,0:/Integrated Flight Computer/aircraft/c_1000f_cfg.ks (inferred preloaded)
26.1,APPROACH,ILS_TRACK,84.17,88,3.83,818.6,738.84,-1.91,2.86,4.03,270,0.04,0.2959,0,20,1,0.6,4.5,1.652,0.35,0.0168,0.4,0,55,0,-3.85,0,270.03,-3.677,0,1,-1.29,0,0,-3.63,270.03,0.9723,0.0005,-0.2339,-3.68,270.03,-0.68,-5.21,14.303,0.029,-0.677,1,3,927.9,2.799,-3.677,823.89,0,0,0,0,0,0,,0,NONE,0,0,0,0,0,0,0,0,0,0,0,738.84,0,0,0,0,0,0,0,0,0,269.87,0,0,0,0,0,0,0,0,0,0,0,0,0,2,2,0,0,VALID,0,0,0,0,0,1,0,0,0,0,0,0,0,0,0,0,0,0,0,0,650.85,1598.09,6,0,0.12,0.12,201,7.69,0.14,0.12,26.12,FLYING,C-1000F,0:/Integrated Flight Computer/aircraft/c_1000f_cfg.ks (inferred preloaded)
26.36,APPROACH,ILS_TRACK,84.37,88,3.63,818.04,738.34,-2.09,2.71,3.99,270,0.042,0.2917,0,20,1,0.6,4.5,1.652,0.35,0.0168,0.4,0,55,0,-3.641,0,270.03,-3.767,0,1,-1.4,0,0,-3.73,270.03,0.9719,0.0004,-0.2354,-3.77,270.03,-0.68,-4.51,14.279,0.027,-0.767,1,3,927.9,2.648,-3.767,822.64,0,0,0,0,0,0,,0,NONE,0,0,0,0,0,0,0,0,0,0,0,738.34,0,0,0,0,0,0,0,0,0,269.87,0,0,0,0,0,0,0,0,0,0,0,0,0,2,2,0,0,VALID,0,0,0,0,0,1,0,0,0,0,0,0,0,0,0,0,0,0,0,0,639.36,1597.66,6,0,0.12,0.12,203,7.69,0.14,0.12,26.38,FLYING,C-1000F,0:/Integrated Flight Computer/aircraft/c_1000f_cfg.ks (inferred preloaded)
26.62,APPROACH,ILS_TRACK,84.57,88,3.43,817.44,737.79,-2.25,2.57,3.95,269.99,0.044,0.2894,0,20,1,0.6,4.5,1.652,0.35,0.0168,0.4,0,55,0,-3.442,0,270.03,-3.835,0,1,-1.51,0,0,-3.82,270.03,0.9716,0.0004,-0.2366,-3.83,270.03,-0.69,-3.85,14.255,0.026,-0.835,1,3,927.9,2.487,-3.835,821.39,0,0,0,0,0,0,,0,NONE,0,0,0,0,0,0,0,0,0,0,0,737.79,0,0,0,0,0,0,0,0,0,269.87,0,0,0,0,0,0,0,0,0,0,0,0,0,2,2,0,0,VALID,0,0,0,0,0,1,0,0,0,0,0,0,0,0,0,0,0,0,0,0,628.2,1597.26,6,0,0.12,0.12,205,7.69,0.14,0.12,26.64,FLYING,C-1000F,0:/Integrated Flight Computer/aircraft/c_1000f_cfg.ks (inferred preloaded)
26.88,APPROACH,ILS_TRACK,84.76,88,3.24,816.8,737.19,-2.42,2.43,3.91,269.99,0.046,0.2879,0,20,1,0.6,4.5,1.652,0.35,0.0168,0.4,0,55,0,-3.253,0,270.03,-3.905,0,1,-1.62,0,0,-3.88,270.03,0.9713,0.0005,-0.2379,-3.91,270.03,-0.69,-3.23,14.232,0.032,-0.905,1,3,927.9,2.342,-3.905,820.13,0,0,0,0,0,0,,0,NONE,0,0,0,0,0,0,0,0,0,0,0,737.19,0,0,0,0,0,0,0,0,0,269.87,0,0,0,0,0,0,0,0,0,0,0,0,0,2,2,0,0,VALID,0,0,0,0,0,1,0,0,0,0,0,0,0,0,0,0,0,0,0,0,617.55,1596.9,6,0,0.12,0.12,207,7.69,0.14,0.12,26.9,FLYING,C-1000F,0:/Integrated Flight Computer/aircraft/c_1000f_cfg.ks (inferred preloaded)
27.14,APPROACH,ILS_TRACK,84.94,88,3.06,816.12,736.55,-2.59,2.3,3.89,269.99,0.046,0.2872,0,20,1,0.6,4.5,1.652,0.35,0.0168,0.4,0,55,0,-3.072,0,270.03,-3.957,0,1,-1.73,0,0,-3.94,270.03,0.9711,0.0005,-0.2388,-3.96,270.03,-0.7,-2.65,14.208,0.034,-0.957,1,3,927.9,2.189,-3.957,818.87,0,0,0,0,0,0,,0,NONE,0,0,0,0,0,0,0,0,0,0,0,736.55,0,0,0,0,0,0,0,0,0,269.87,0,0,0,0,0,0,0,0,0,0,0,0,0,2,2,0,0,VALID,0,0,0,0,0,1,0,0,0,0,0,0,0,0,0,0,0,0,0,0,607.44,1596.58,6,0,0.12,0.12,209,7.69,0.14,0.12,27.16,FLYING,C-1000F,0:/Integrated Flight Computer/aircraft/c_1000f_cfg.ks (inferred preloaded)
