t_s,phase,subphase,ias_ms,vapp_ms,spd_err_ms,agl_m,gear_h_m,vs_ms,pitch_deg,aoa_deg,hdg_deg,bank_deg,thr_cmd,thr_cur,thr_intg,at_gain,at_tau_s,at_a_up,at_a_dn,at_kp_thr,at_ki_spd,at_thr_slew,as_cmd_deg,as_cap_deg,as_raw_deg,as_spd_err_ms,as_active,aa_hdg_cmd_deg,aa_fpa_cmd_deg,aa_fbw,aa_dir,actual_fpa_deg,ftf_hdg_err_deg,ftf_fix_idx,kos_steer_pit_deg,kos_steer_hdg_deg,aa_dir_vx,aa_dir_vy,aa_dir_vz,aa_dir_pitch_deg,aa_dir_hdg_deg,ils_loc_m,ils_gs_m,ils_dist_km,loc_corr_deg,gs_corr_deg,gs_latched,active_gs_ang_deg,ils_intercept_alt_m,d_gs_ms,fpa_preclamped_deg,gs_nom_alt_m,flare_fpa_cmd,flare_tgt_vs,flare_frac,flare_mode,flare_auth_limited,flare_vs_err,flare_fpa_err,flare_pitch_err,flare_req_up_a,flare_thr_floor,flare_tecs_et_err,flare_tecs_eb_err,flare_tecs_h_ref,flare_tecs_v_ref,flare_gamma_ref,flare_gamma_eb_term,flare_gamma_unsat,steer_hdg_deg,steer_blend,ro_loc_corr_deg,ro_hdg_err_deg,ro_yaw_tgt,ro_yaw_scale,ro_yaw_gate,yaw_cmd,roll_cmd,pitch_cmd,ro_pitch_tgt_deg,ro_pitch_err_deg,ro_pitch_ff,ro_roll_assist,flaps_cur,flaps_tgt,asc_j_ab,asc_j_rk,asc_validity,asc_q_pa,asc_q_raw_pa,asc_mach,asc_apo_m,asc_drag_n,asc_w_prop,asc_edot_aero,asc_edot_orb,asc_pitch_bias,asc_blend,asc_spooling,asc_ab_thr_ratio,asc_ab_t_now,asc_ab_t_avail,asc_ab_ign_on,asc_ab_flameouts,asc_rk_t_now,asc_rk_t_avail,asc_rk_ign_on,asc_rk_flameouts,ship_thrust,ship_avail_thrust,ship_ign_on,ship_flameouts,ifc_raw_dt_s,ifc_dt_s,ifc_loop_n,ifc_hz_est,ifc_raw_dt_max_s,ifc_raw_dt_min_s,phase_el_s,status,craft_name,cfg_file
0.16,APPROACH,ILS_TRACK,153.63,152,-1.63,745.2,666.18,-11.71,14.58,18.73,269.85,0.341,0,0,0,0,0,0,0,0,0,0,0,0,0,0,0,0,0,1,0,-4.39,0,0,0,90,0,0,0,0,0,7.18,-486.47,22.084,0,0,0,3,745.2,0,0,1231.67,0,0,0,,0,0,0,0,0,0,0,0,0,0,0,0,0,269.83,0,0,0,0,0,0,0,0,0,0,0,0,0,0,0,0,0,VALID,0,0,0,0,0,1,0,0,0,0,0,0,0,0,0,0,0,0,0,0,297.97,1078.36,2,0,0.14,0.14,1,3.7,0.14,0.02,0.16,FLYING,X10-H,0:/Integrated Flight Computer/aircraft/x10_h_cfg.ks (inferred preloaded)
0.42,APPROACH,ILS_TRACK,153.26,152,-1.26,742.65,663.34,-10.4,15.77,19.52,269.84,0.227,0.048,0,-0.156,1,0.6,1.455,0.75,0.35,0.0168,0.4,0,21.525,0,1.3,0,269.91,0,0,1,-3.96,0,0,0,254.91,0.4611,-0.0016,0.8874,0,269.91,7.01,-486.75,22.048,-0.091,0,0,3,745.2,-1.279,0,1229.8,0,0,0,,0,0,0,0,0,0,0,0,0,0,0,0,0,269.83,0,0,0,0,0,0,0,0,0,0,0,0,0,1,3,0,0,VALID,0,0,0,0,0,1,0,0,0,0,0,0,0,0,0,0,0,0,0,0,271.66,1077.02,2,0,0.12,0.12,3,7.69,0.14,0.12,0.42,FLYING,X10-H,0:/Integrated Flight Computer/aircraft/x10_h_cfg.ks (inferred preloaded)
0.68,APPROACH,ILS_TRACK,152.62,152,-0.62,740.08,660.82,-9.1,15.79,18.99,269.75,-0.169,0.152,0,-0.372,1,0.6,2.684,0.751,0.35,0.0168,0.4,0,21.702,0,0.67,0,269.89,0,0,1,-3.48,0,0,0,269.9,0.4611,-0.0019,0.8873,0,269.89,6.83,-487.12,22.006,-0.106,0,0,3,745.2,-1.428,0,1227.6,0,0,0,,0,0,0,0,0,0,0,0,0,0,0,0,0,269.83,0,0,0,0,0,0,0,0,0,0,0,0,0,1,3,0,0,VALID,0,0,0,0,0,1,0,0,0,0,0,0,0,0,0,0,0,0,0,0,253.63,1074.5,2,0,0.12,0.12,5,7.69,0.14,0.12,0.68,FLYING,X10-H,0:/Integrated Flight Computer/aircraft/x10_h_cfg.ks (inferred preloaded)
0.94,APPROACH,ILS_TRACK,151.93,152,0.07,737.4,658.59,-7.94,14.33,16.99,269.67,-0.29,0.256,0,-0.413,1,0.6,3.72,0.751,0.35,0.0168,0.4,0,21.895,0,-0.015,0,269.91,0,0,1,-3.05,0,0,0,269.91,0.4612,-0.0015,0.8873,0,269.91,6.65,-487.58,21.965,-0.085,0,0,3,745.2,-1.955,0,1225.4,0,0,0,,0,0,0,0,0,0,0,0,0,0,0,0,0,269.83,0,0,0,0,0,0,0,0,0,0,0,0,0,2,3,0,0,VALID,0,0,0,0,0,1,0,0,0,0,0,0,0,0,0,0,0,0,0,0,246.86,1071.74,2,0,0.12,0.12,7,7.69,0.14,0.12,0.94,FLYING,X10-H,0:/Integrated Flight Computer/aircraft/x10_h_cfg.ks (inferred preloaded)
1.3,APPROACH,ILS_TRACK,151.44,152,0.56,733.41,655.81,-7.52,10.02,12.43,269.63,-0.405,0.4,0,-0.248,1,0.6,4.5,0.751,0.35,0.0168,0.4,0,22.049,0,-0.561,0,269.94,0,0,1,-2.83,0,0,0,269.93,0.4613,-0.0011,0.8873,0,269.94,6.37,-488.52,21.907,-0.064,0,0,3,745.2,-2.756,0,1222.37,0,0,0,,0,0,0,0,0,0,0,0,0,0,0,0,0,269.83,0,0,0,0,0,0,0,0,0,0,0,0,0,3,3,0,0,VALID,0,0,0,0,0,1,0,0,0,0,0,0,0,0,0,0,0,0,0,0,251.25,1069.81,2,0,0.12,0.12,10,8.33,0.12,0.12,1.3,FLYING,X10-H,0:/Integrated Flight Computer/aircraft/x10_h_cfg.ks (inferred preloaded)
1.66,APPROACH,ILS_TRACK,151.79,152,0.21,729.51,652.93,-8.53,6.26,9.12,269.68,-0.107,0.3401,0,-0.112,1,0.6,4.5,0.751,0.35,0.0168,0.4,0,21.957,0,-0.235,0,269.96,0,0,1,-3.16,0,0,0,269.96,0.4613,-0.0007,0.8872,0,269.96,6.09,-489.41,21.849,-0.042,0,0,3,745.2,-2.274,0,1219.34,0,0,0,,0,0,0,0,0,0,0,0,0,0,0,0,0,269.83,0,0,0,0,0,0,0,0,0,0,0,0,0,3,3,0,0,VALID,0,0,0,0,0,1,0,0,0,0,0,0,0,0,0,0,0,0,0,0,264.38,1071.46,2,0,0.12,0.12,13,8.33,0.12,0.12,1.66,FLYING,X10-H,0:/Integrated Flight Computer/aircraft/x10_h_cfg.ks (inferred preloaded)
2.02,APPROACH,ILS_TRACK,152.4,152,-0.4,725.81,649.57,-10.06,4.79,8.32,269.72,0.038,0.1961,0,-0.105,1,0.6,4.5,0.751,0.35,0.0168,0.4,0,21.787,0,0.369,0,269.97,0,0,1,-3.71,0,0,0,269.96,0.4614,-0.0005,0.8872,0,269.97,5.79,-490.09,21.791,-0.026,0,0,3,745.2,-1.722,0,1216.3,0,0,0,,0,0,0,0,0,0,0,0,0,0,0,0,0,269.83,0,0,0,0,0,0,0,0,0,0,0,0,0,3,3,0,0,VALID,0,0,0,0,0,1,0,0,0,0,0,0,0,0,0,0,0,0,0,0,268.89,1074.28,2,0,0.12,0.12,16,8.33,0.12,0.12,2.02,FLYING,X10-H,0:/Integrated Flight Computer/aircraft/x10_h_cfg.ks (inferred preloaded)
2.38,APPROACH,ILS_TRACK,153.03,152,-1.03,722.27,645.71,-11.17,5.75,9.77,269.72,0.021,0.0521,0,-0.103,1,0.6,4.5,0.751,0.35,0.0168,0.4,0,21.611,0,0.995,0,269.99,0,0,1,-4.16,0,0,0,269.97,0.4615,-0.0002,0.8871,0,269.99,5.51,-490.59,21.733,-0.014,0,0,3,745.2,-1.269,0,1213.25,0,0,0,,0,0,0,0,0,0,0,0,0,0,0,0,0,269.83,0,0,0,0,0,0,0,0,0,0,0,0,0,3,3,0,0,VALID,0,0,0,0,0,1,0,0,0,0,0,0,0,0,0,0,0,0,0,0,257.38,1077.22,2,0,0.12,0.12,19,8.33,0.12,0.12,2.38,FLYING,X10-H,0:/Integrated Flight Computer/aircraft/x10_h_cfg.ks (inferred preloaded)
2.74,APPROACH,ILS_TRACK,153.46,152,-1.46,718.42,641.64,-11.38,6.63,10.65,269.73,0.132,0,0,-0.102,1,0.6,4.5,0.75,0.35,0.0168,0.4,0,21.485,0,1.439,0,269.99,0,0,1,-4.23,0,0,0,269.99,0.4616,-0.0002,0.8871,0,269.99,5.22,-491.33,21.674,-0.01,0,0,3,745.2,-2.471,0,1210.2,0,0,0,,0,0,0,0,0,0,0,0,0,0,0,0,0,269.83,0,0,0,0,0,0,0,0,0,0,0,0,0,3,3,0,0,VALID,0,0,0,0,0,1,0,0,0,0,0,0,0,0,0,0,0,0,0,0,230.27,1079.38,2,0,0.12,0.12,22,8.33,0.12,0.12,2.74,FLYING,X10-H,0:/Integrated Flight Computer/aircraft/x10_h_cfg.ks (inferred preloaded)
3.1,APPROACH,ILS_TRACK,153.75,152,-1.75,714.28,637.48,-11.65,6.7,10.79,269.76,0.268,0,0,-0.1,1,0.6,4.5,0.75,0.35,0.0168,0.4,0.272,21.402,0.272,1.735,1,270,0,0,1,-4.32,0,0,0,270,0.4617,0.0001,0.887,0,270,4.93,-492.38,21.616,0.004,0,0,3,745.2,-3.097,0,1207.14,0,0,0,,0,0,0,0,0,0,0,0,0,0,0,0,0,269.83,0,0,0,0,0,0,0,0,0,0,0,0,0,3,3,0,0,VALID,0,0,0,0,0,1,0,0,0,0,0,0,0,0,0,0,0,0,0,0,203.21,1080.93,2,0,0.12,0.12,25,8.33,0.12,0.12,3.1,FLYING,X10-H,0:/Integrated Flight Computer/aircraft/x10_h_cfg.ks (inferred preloaded)
3.36,APPROACH,ILS_TRACK,153.89,152,-1.89,711.21,634.42,-11.85,6.65,10.8,269.78,0.335,0,0,-0.099,1,0.6,4.5,0.75,0.35,0.0168,0.4,0.436,21.362,0.436,1.878,1,270.01,0,0,1,-4.39,0,0,0,270.01,0.4618,0.0001,0.887,0,270.01,4.72,-493.24,21.574,0.008,0,0,3,745.2,-3.333,0,1204.92,0,0,0,,0,0,0,0,0,0,0,0,0,0,0,0,0,269.83,0,0,0,0,0,0,0,0,0,0,0,0,0,3,3,0,0,VALID,0,0,0,0,0,1,0,0,0,0,0,0,0,0,0,0,0,0,0,0,185.62,1081.75,2,0,0.12,0.12,27,7.69,0.14,0.12,3.36,FLYING,X10-H,0:/Integrated Flight Computer/aircraft/x10_h_cfg.ks (inferred preloaded)
3.72,APPROACH,ILS_TRACK,153.98,152,-1.98,706.88,630.1,-12.08,6.57,10.8,269.8,0.399,0,0,-0.098,1,0.6,4.5,0.75,0.35,0.0168,0.4,0.555,21.333,0.555,1.981,1,270.02,0,0,1,-4.48,0,0,0,270.01,0.4618,0.0003,0.887,0,270.02,4.44,-494.49,21.515,0.018,0,0,3,745.2,-3.572,0,1201.86,0,0,0,,0,0,0,0,0,0,0,0,0,0,0,0,0,269.83,0,0,0,0,0,0,0,0,0,0,0,0,0,3,3,0,0,VALID,0,0,0,0,0,1,0,0,0,0,0,0,0,0,0,0,0,0,0,0,163.69,1082.49,2,0,0.12,0.12,30,8.33,0.12,0.12,3.72,FLYING,X10-H,0:/Integrated Flight Computer/aircraft/x10_h_cfg.ks (inferred preloaded)
4.08,APPROACH,ILS_TRACK,153.98,152,-1.98,702.47,625.71,-12.27,6.5,10.81,269.82,0.436,0,0,-0.096,1,0.6,4.5,0.75,0.35,0.0168,0.4,0.554,21.333,0.554,1.98,1,270.02,0,0,1,-4.55,0,0,0,270.02,0.4619,0.0004,0.8869,0,270.02,4.17,-495.83,21.457,0.023,0,0,3,745.2,-3.773,0,1198.79,0,0,0,,0,0,0,0,0,0,0,0,0,0,0,0,0,269.83,0,0,0,0,0,0,0,0,0,0,0,0,0,3,3,0,0,VALID,0,0,0,0,0,1,0,0,0,0,0,0,0,0,0,0,0,0,0,0,144.29,1082.79,2,0,0.12,0.12,33,8.33,0.12,0.12,4.08,FLYING,X10-H,0:/Integrated Flight Computer/aircraft/x10_h_cfg.ks (inferred preloaded)
4.44,APPROACH,ILS_TRACK,153.88,152,-1.88,698,621.26,-12.43,6.44,10.81,269.83,0.457,0,0,-0.095,1,0.6,4.5,0.75,0.35,0.0168,0.4,0.446,21.359,0.446,1.886,1,270.03,0,0,1,-4.61,0,0,0,270.02,0.462,0.0004,0.8869,0,270.03,3.91,-497.23,21.398,0.025,0,0,3,745.2,-3.933,0,1195.73,0,0,0,,0,0,0,0,0,0,0,0,0,0,0,0,0,269.83,0,0,0,0,0,0,0,0,0,0,0,0,0,3,3,0,0,VALID,0,0,0,0,0,1,0,0,0,0,0,0,0,0,0,0,0,0,0,0,127.14,1082.7,2,0,0.12,0.12,36,8.33,0.12,0.12,4.44,FLYING,X10-H,0:/Integrated Flight Computer/aircraft/x10_h_cfg.ks (inferred preloaded)
4.8,APPROACH,ILS_TRACK,153.69,152,-1.69,693.49,616.76,-12.55,6.39,10.81,269.84,0.463,0,0,-0.093,1,0.6,4.5,0.75,0.35,0.0168,0.4,0.239,21.41,0.239,1.707,1,270.03,0,0,1,-4.66,0,0,0,270.02,0.4621,0.0004,0.8868,0,270.03,3.66,-498.67,21.34,0.026,0,0,3,745.2,-4.067,0,1192.67,0,0,0,,0,0,0,0,0,0,0,0,0,0,0,0,0,269.83,0,0,0,0,0,0,0,0,0,0,0,0,0,3,3,0,0,VALID,0,0,0,0,0,1,0,0,0,0,0,0,0,0,0,0,0,0,0,0,112,1082.26,2,0,0.12,0.12,39,8.33,0.12,0.12,4.8,FLYING,X10-H,0:/Integrated Flight Computer/aircraft/x10_h_cfg.ks (inferred preloaded)
5.16,APPROACH,ILS_TRACK,153.43,152,-1.43,688.96,612.22,-12.61,6.41,10.86,269.85,0.467,0.0614,0,-0.451,1,0.6,4.5,0.75,0.35,0.0168,0.4,0,21.484,0,1.445,0,270.03,0,0,1,-4.7,0,0,0,270.03,0.4622,0.0005,0.8868,0,270.03,3.42,-500.15,21.282,0.027,0,0,3,745.2,-4.096,0,1189.62,0,0,0,,0,0,0,0,0,0,0,0,0,0,0,0,0,269.83,0,0,0,0,0,0,0,0,0,0,0,0,0,3,3,0,0,VALID,0,0,0,0,0,1,0,0,0,0,0,0,0,0,0,0,0,0,0,0,99.7,1081.46,2,0,0.12,0.12,42,8.33,0.12,0.12,5.16,FLYING,X10-H,0:/Integrated Flight Computer/aircraft/x10_h_cfg.ks (inferred preloaded)
5.5,APPROACH,ILS_TRACK,153.11,152,-1.11,684.63,607.92,-12.69,6.31,10.8,269.87,0.509,0.1535,0,-0.871,1,0.6,4.5,0.75,0.35,0.0168,0.4,0,21.573,0,1.127,0,270.04,0,0,1,-4.74,0,0,0,270.02,0.4623,0.0006,0.8867,0,270.04,3.2,-501.6,21.227,0.036,0,0,3,745.2,-4.218,0,1186.74,0,0,0,,0,0,0,0,0,0,0,0,0,0,0,0,0,269.83,0,0,0,0,0,0,0,0,0,0,0,0,0,3,3,0,0,VALID,0,0,0,0,0,1,0,0,0,0,0,0,0,0,0,0,0,0,0,0,98.6,1080.43,2,0,0.1,0.1,45,8.82,0.12,0.1,5.5,FLYING,X10-H,0:/Integrated Flight Computer/aircraft/x10_h_cfg.ks (inferred preloaded)
5.84,APPROACH,ILS_TRACK,152.78,152,-0.78,680.31,603.6,-12.71,6.3,10.81,269.88,0.519,0.215,0,-1.18,1,0.6,4.5,0.75,0.35,0.0168,0.4,0,21.665,0,0.8,0,270.03,0,0,1,-4.75,0,0,0,270.03,0.4623,0.0006,0.8867,0,270.03,2.99,-503.05,21.172,0.032,0,0,3,745.2,-4.287,0,1183.87,0,0,0,,0,0,0,0,0,0,0,0,0,0,0,0,0,269.83,0,0,0,0,0,0,0,0,0,0,0,0,0,3,3,0,0,VALID,0,0,0,0,0,1,0,0,0,0,0,0,0,0,0,0,0,0,0,0,104.32,1079.37,2,0,0.12,0.12,48,8.82,0.12,0.1,5.84,FLYING,X10-H,0:/Integrated Flight Computer/aircraft/x10_h_cfg.ks (inferred preloaded)
6.2,APPROACH,ILS_TRACK,152.43,152,-0.43,675.73,599.02,-12.71,6.29,10.81,269.89,0.513,0.2581,0,-1.384,1,0.6,4.5,0.75,0.35,0.0168,0.4,0,21.763,0,0.453,0,270.04,0,0,1,-4.77,0,0,0,270.03,0.4624,0.0006,0.8867,0,270.04,2.78,-504.6,21.114,0.037,0,0,3,745.2,-4.302,0,1180.84,0,0,0,,0,0,0,0,0,0,0,0,0,0,0,0,0,269.83,0,0,0,0,0,0,0,0,0,0,0,0,0,3,3,0,0,VALID,0,0,0,0,0,1,0,0,0,0,0,0,0,0,0,0,0,0,0,0,114.08,1078.25,2,0,0.12,0.12,51,8.33,0.12,0.12,6.2,FLYING,X10-H,0:/Integrated Flight Computer/aircraft/x10_h_cfg.ks (inferred preloaded)
6.56,APPROACH,ILS_TRACK,152.1,152,-0.1,671.16,594.44,-12.67,6.29,10.81,269.92,0.65,0.2868,0,-1.466,1,0.6,4.5,0.75,0.35,0.0168,0.4,0,21.858,0,0.117,0,270.03,0,0,1,-4.76,0,0,0,270.03,0.4625,0.0006,0.8866,0,270.03,2.58,-506.15,21.056,0.035,0,0,3,745.2,-4.284,0,1177.81,0,0,0,,0,0,0,0,0,0,0,0,0,0,0,0,0,269.83,0,0,0,0,0,0,0,0,0,0,0,0,0,3,3,0,0,VALID,0,0,0,0,0,1,0,0,0,0,0,0,0,0,0,0,0,0,0,0,126.05,1077.18,2,0,0.12,0.12,54,8.33,0.12,0.12,6.56,FLYING,X10-H,0:/Integrated Flight Computer/aircraft/x10_h_cfg.ks (inferred preloaded)
6.92,APPROACH,ILS_TRACK,151.78,152,0.22,666.61,589.88,-12.6,6.3,10.81,269.96,0.771,0.3053,0,-1.431,1,0.6,4.5,0.75,0.35,0.0168,0.4,0,21.948,0,-0.203,0,270.03,0,0,1,-4.75,0,0,0,270.04,0.4626,0.0005,0.8866,0,270.03,2.39,-507.68,20.999,0.031,0,0,3,745.2,-4.23,0,1174.79,0,0,0,,0,0,0,0,0,0,0,0,0,0,0,0,0,269.83,0,0,0,0,0,0,0,0,0,0,0,0,0,3,3,0,0,VALID,0,0,0,0,0,1,0,0,0,0,0,0,0,0,0,0,0,0,0,0,139.07,1076.18,2,0,0.12,0.12,57,8.33,0.12,0.12,6.92,FLYING,X10-H,0:/Integrated Flight Computer/aircraft/x10_h_cfg.ks (inferred preloaded)
7.28,APPROACH,ILS_TRACK,151.48,152,0.52,662.11,585.36,-12.5,6.34,10.83,269.99,0.812,0.3179,0,-1.285,1,0.6,4.5,0.75,0.35,0.0168,0.4,0,22.033,0,-0.505,0,270.02,0,0,1,-4.73,0,0,0,270.03,0.4627,0.0004,0.8865,0,270.02,2.22,-509.17,20.941,0.021,0,0,3,745.2,-4.112,0,1171.78,0,0,0,,0,0,0,0,0,0,0,0,0,0,0,0,0,269.83,0,0,0,0,0,0,0,0,0,0,0,0,0,3,3,0,0,VALID,0,0,0,0,0,1,0,0,0,0,0,0,0,0,0,0,0,0,0,0,152.41,1075.26,2,0,0.12,0.12,60,8.33,0.12,0.12,7.28,FLYING,X10-H,0:/Integrated Flight Computer/aircraft/x10_h_cfg.ks (inferred preloaded)
7.64,APPROACH,ILS_TRACK,151.19,152,0.81,657.64,580.89,-12.35,6.37,10.8,270.01,0.798,0.331,0,-1.033,1,0.6,4.5,0.75,0.35,0.0168,0.4,0,22.115,0,-0.795,0,270.02,0,0,1,-4.68,0,0,0,270.02,0.4628,0.0003,0.8865,0,270.02,2.07,-510.64,20.884,0.018,0,0,3,745.2,-3.997,0,1168.77,0,0,0,,0,0,0,0,0,0,0,0,0,0,0,0,0,269.83,0,0,0,0,0,0,0,0,0,0,0,0,0,3,3,0,0,VALID,0,0,0,0,0,1,0,0,0,0,0,0,0,0,0,0,0,0,0,0,165.79,1074.39,2,0,0.12,0.12,63,8.33,0.12,0.12,7.64,FLYING,X10-H,0:/Integrated Flight Computer/aircraft/x10_h_cfg.ks (inferred preloaded)
8,APPROACH,ILS_TRACK,150.92,152,1.08,653.25,576.48,-12.18,6.42,10.81,270.02,0.737,0.339,0,-0.682,1,0.6,4.5,0.75,0.35,0.0168,0.4,0,22.19,0,-1.062,0,270.01,0,0,1,-4.62,0,0,0,270.01,0.4629,0.0001,0.8864,0,270.01,1.94,-512.04,20.827,0.008,0,0,3,745.2,-3.846,0,1165.77,0,0,0,,0,0,0,0,0,0,0,0,0,0,0,0,0,269.83,0,0,0,0,0,0,0,0,0,0,0,0,0,3,3,0,0,VALID,0,0,0,0,0,1,0,0,0,0,0,0,0,0,0,0,0,0,0,0,179.05,1073.61,2,0,0.12,0.12,66,8.33,0.12,0.12,8,FLYING,X10-H,0:/Integrated Flight Computer/aircraft/x10_h_cfg.ks (inferred preloaded)
8.36,APPROACH,ILS_TRACK,150.69,152,1.31,648.91,572.14,-11.99,6.48,10.81,270.02,0.638,0.339,0,-0.242,1,0.6,4.5,0.75,0.35,0.0168,0.4,0,22.257,0,-1.298,0,270,0,0,1,-4.56,0,0,0,270.01,0.4629,0,0.8864,0,270,1.83,-513.39,20.77,0,0,0,3,745.2,-3.678,0,1162.78,0,0,0,,0,0,0,0,0,0,0,0,0,0,0,0,0,269.83,0,0,0,0,0,0,0,0,0,0,0,0,0,3,3,0,0,VALID,0,0,0,0,0,1,0,0,0,0,0,0,0,0,0,0,0,0,0,0,191.87,1072.97,2,0,0.12,0.12,69,8.33,0.12,0.12,8.36,FLYING,X10-H,0:/Integrated Flight Computer/aircraft/x10_h_cfg.ks (inferred preloaded)
8.72,APPROACH,ILS_TRACK,150.5,152,1.5,644.65,567.86,-11.83,6.54,10.81,270.01,0.553,0.3272,0,0.272,1,0.6,4.5,0.75,0.35,0.0168,0.4,0,22.31,0,-1.488,0,270,0,0,1,-4.5,0,0,0,269.99,0.463,0,0.8863,0,270,1.73,-514.67,20.713,-0.002,0,0,3,745.2,-3.513,0,1159.79,0,0,0,,0,0,0,0,0,0,0,0,0,0,0,0,0,269.83,0,0,0,0,0,0,0,0,0,0,0,0,0,3,3,0,0,VALID,0,0,0,0,0,1,0,0,0,0,0,0,0,0,0,0,0,0,0,0,203.52,1072.51,2,0,0.12,0.12,72,8.33,0.12,0.12,8.72,FLYING,X10-H,0:/Integrated Flight Computer/aircraft/x10_h_cfg.ks (inferred preloaded)
9.08,APPROACH,ILS_TRACK,150.33,152,1.67,640.56,563.61,-11.86,7.03,11.37,270.01,0.478,0.3213,0,0.847,1,0.6,4.5,0.75,0.35,0.0168,0.4,0,22.357,0,-1.655,0,269.99,0,0,1,-4.51,0,0,0,269.99,0.4631,-0.0001,0.8863,0,269.99,1.65,-515.8,20.656,-0.007,0,0,3,745.2,-2.851,0,1156.8,0,0,0,,0,0,0,0,0,0,0,0,0,0,0,0,0,269.83,0,0,0,0,0,0,0,0,0,0,0,0,0,3,3,0,0,VALID,0,0,0,0,0,1,0,0,0,0,0,0,0,0,0,0,0,0,0,0,213.43,1072.15,2,0,0.12,0.12,75,8.33,0.12,0.12,9.08,FLYING,X10-H,0:/Integrated Flight Computer/aircraft/x10_h_cfg.ks (inferred preloaded)
9.34,APPROACH,ILS_TRACK,150.16,152,1.84,637.87,560.55,-11.78,8.23,12.62,270.02,0.428,0.3545,0,1.309,1,0.6,4.5,0.75,0.35,0.0168,0.4,0,22.404,0,-1.822,0,269.98,0,0,1,-4.5,0,0,0,269.99,0.4632,-0.0004,0.8863,0,269.98,1.59,-516.38,20.614,-0.021,0,0,3,745.2,-1.974,0,1154.65,0,0,0,,0,0,0,0,0,0,0,0,0,0,0,0,0,269.83,0,0,0,0,0,0,0,0,0,0,0,0,0,3,3,0,0,VALID,0,0,0,0,0,1,0,0,0,0,0,0,0,0,0,0,0,0,0,0,220.24,1071.68,2,0,0.12,0.12,77,7.69,0.14,0.12,9.34,FLYING,X10-H,0:/Integrated Flight Computer/aircraft/x10_h_cfg.ks (inferred preloaded)
9.7,APPROACH,ILS_TRACK,149.75,152,2.25,634.52,556.46,-10.98,10.9,15.06,270.03,0.355,0.4792,0,2.054,1,0.6,4.5,0.75,0.35,0.0168,0.4,0,22.516,0,-2.219,0,269.98,0,0,1,-4.24,0,0,0,269.98,0.4633,-0.0003,0.8862,0,269.98,1.53,-516.79,20.558,-0.018,0,0,3,745.2,-0.819,0,1151.67,0,0,0,,0,0,0,0,0,0,0,0,0,0,0,0,0,269.83,0,0,0,0,0,0,0,0,0,0,0,0,0,3,3,0,0,VALID,0,0,0,0,0,1,0,0,0,0,0,0,0,0,0,0,0,0,0,0,233.43,1070.32,2,0,0.12,0.12,80,8.33,0.12,0.12,9.7,FLYING,X10-H,0:/Integrated Flight Computer/aircraft/x10_h_cfg.ks (inferred preloaded)
10.06,APPROACH,ILS_TRACK,149.06,152,2.94,631.42,552.81,-9.46,13.06,16.63,270.03,0.288,0.6232,0,3.007,1,0.6,4.5,0.75,0.35,0.0168,0.4,0,22.707,0,-2.897,0,269.97,0,0,1,-3.7,0,0,0,269.98,0.4633,-0.0005,0.8862,0,269.97,1.47,-516.95,20.501,-0.026,0,0,3,745.2,-0.267,0,1148.7,0,0,0,,0,0,0,0,0,0,0,0,0,0,0,0,0,269.83,0,0,0,0,0,0,0,0,0,0,0,0,0,3,3,0,0,VALID,0,0,0,0,0,1,0,0,0,0,0,0,0,0,0,0,0,0,0,0,255.33,1067.74,2,0,0.12,0.12,83,8.33,0.12,0.12,10.06,FLYING,X10-H,0:/Integrated Flight Computer/aircraft/x10_h_cfg.ks (inferred preloaded)
10.42,APPROACH,ILS_TRACK,148.18,152,3.82,628.48,549.75,-7.76,13.71,16.57,270.02,0.221,0.7672,0,4.26,1,0.6,4.5,0.75,0.35,0.0168,0.4,0,22.955,0,-3.775,0,269.97,0,0,1,-3.06,0,0,0,269.98,0.4634,-0.0005,0.8861,0,269.97,1.43,-516.96,20.445,-0.029,0,0,3,745.2,0.065,0,1145.75,0,0,0,,0,0,0,0,0,0,0,0,0,0,0,0,0,269.83,0,0,0,0,0,0,0,0,0,0,0,0,0,3,3,0,0,VALID,0,0,0,0,0,1,0,0,0,0,0,0,0,0,0,0,0,0,0,0,286.01,1064.33,2,0,0.12,0.12,86,8.33,0.12,0.12,10.42,FLYING,X10-H,0:/Integrated Flight Computer/aircraft/x10_h_cfg.ks (inferred preloaded)
10.78,APPROACH,ILS_TRACK,147.53,152,4.47,625.81,547.2,-6.49,13.31,15.69,270.01,0.161,0.9112,0,4.196,1,0.6,4.5,0.75,0.35,0.0168,0.4,0,23.143,0,-4.443,0,269.97,0,0,1,-2.57,0,0,0,269.97,0.4635,-0.0006,0.8861,0,269.97,1.39,-516.73,20.389,-0.033,0,0,3,745.2,0.986,0,1142.81,0,0,0,,0,0,0,0,0,0,0,0,0,0,0,0,0,269.83,0,0,0,0,0,0,0,0,0,0,0,0,0,3,3,0,0,VALID,0,0,0,0,0,1,0,0,0,0,0,0,0,0,0,0,0,0,0,0,325.19,1061.84,2,0,0.12,0.12,89,8.33,0.12,0.12,10.78,FLYING,X10-H,0:/Integrated Flight Computer/aircraft/x10_h_cfg.ks (inferred preloaded)
11.14,APPROACH,ILS_TRACK,147.17,152,4.83,623.5,545.07,-5.45,12.68,14.67,270,0.11,0.93,0,5.32,1,0.6,4.5,0.75,0.35,0.0168,0.4,0,23.249,0,-4.819,0,269.96,0,0,1,-2.16,0,0,0,269.97,0.4636,-0.0006,0.8861,0,269.96,1.36,-516.14,20.333,-0.035,0,0,3,745.2,1.942,0,1139.88,0,0,0,,0,0,0,0,0,0,0,0,0,0,0,0,0,269.83,0,0,0,0,0,0,0,0,0,0,0,0,0,3,3,0,0,VALID,0,0,0,0,0,1,0,0,0,0,0,0,0,0,0,0,0,0,0,0,371.72,1060.52,2,0,0.12,0.12,92,8.33,0.12,0.12,11.14,FLYING,X10-H,0:/Integrated Flight Computer/aircraft/x10_h_cfg.ks (inferred preloaded)
11.5,APPROACH,ILS_TRACK,147.09,152,4.91,621.55,543.27,-4.61,12.12,13.8,269.99,0.07,0.786,0,7.082,1,0.6,4.5,0.75,0.35,0.0168,0.4,0,23.274,0,-4.908,0,269.97,0,0,1,-1.82,0,0,0,269.97,0.4637,-0.0005,0.886,0,269.97,1.32,-515.21,20.277,-0.028,0,0,3,745.2,2.847,0,1136.96,0,0,0,,0,0,0,0,0,0,0,0,0,0,0,0,0,269.83,0,0,0,0,0,0,0,0,0,0,0,0,0,3,3,0,0,VALID,0,0,0,0,0,1,0,0,0,0,0,0,0,0,0,0,0,0,0,0,411.38,1060.34,2,0,0.12,0.12,95,8.33,0.12,0.12,11.5,FLYING,X10-H,0:/Integrated Flight Computer/aircraft/x10_h_cfg.ks (inferred preloaded)
11.76,APPROACH,ILS_TRACK,147.19,152,4.81,620.33,542.14,-4.09,11.84,13.33,269.98,0.053,0.682,0,8.344,1,0.6,4.5,0.75,0.35,0.0168,0.4,0,23.25,0,-4.823,0,269.97,0,0,1,-1.63,0,0,0,269.96,0.4637,-0.0005,0.886,0,269.97,1.3,-514.33,20.236,-0.026,0,0,3,745.2,3.575,0,1134.84,0,0,0,,0,0,0,0,0,0,0,0,0,0,0,0,0,269.83,0,0,0,0,0,0,0,0,0,0,0,0,0,3,3,0,0,VALID,0,0,0,0,0,1,0,0,0,0,0,0,0,0,0,0,0,0,0,0,432,1060.81,2,0,0.12,0.12,97,7.69,0.14,0.12,11.76,FLYING,X10-H,0:/Integrated Flight Computer/aircraft/x10_h_cfg.ks (inferred preloaded)
12.12,APPROACH,ILS_TRACK,147.44,152,4.56,618.85,540.78,-3.46,11.38,12.64,269.98,0.035,0.538,0,10.025,1,0.6,4.5,0.75,0.35,0.0168,0.4,0,23.18,0,-4.575,0,269.97,0,0,1,-1.37,0,0,0,269.97,0.4638,-0.0006,0.8859,0,269.97,1.28,-512.9,20.181,-0.035,0,0,3,745.2,4.184,0,1131.91,0,0,0,,0,0,0,0,0,0,0,0,0,0,0,0,0,269.83,0,0,0,0,0,0,0,0,0,0,0,0,0,3,3,0,0,VALID,0,0,0,0,0,1,0,0,0,0,0,0,0,0,0,0,0,0,0,0,449.75,1061.97,2,0,0.12,0.12,100,8.33,0.12,0.12,12.12,FLYING,X10-H,0:/Integrated Flight Computer/aircraft/x10_h_cfg.ks (inferred preloaded)
12.48,APPROACH,ILS_TRACK,147.83,152,4.17,617.59,539.62,-3.02,10.97,12.07,269.98,0.022,0.394,0,11.585,1,0.6,4.5,0.75,0.35,0.0168,0.4,0,23.074,0,-4.197,0,269.96,0,0,1,-1.19,0,0,0,269.97,0.4639,-0.0006,0.8859,0,269.96,1.25,-511.25,20.124,-0.037,0,0,3,745.2,4.797,0,1128.97,0,0,0,,0,0,0,0,0,0,0,0,0,0,0,0,0,269.83,0,0,0,0,0,0,0,0,0,0,0,0,0,3,3,0,0,VALID,0,0,0,0,0,1,0,0,0,0,0,0,0,0,0,0,0,0,0,0,455.9,1063.65,2,0,0.12,0.12,103,8.33,0.12,0.12,12.48,FLYING,X10-H,0:/Integrated Flight Computer/aircraft/x10_h_cfg.ks (inferred preloaded)
12.84,APPROACH,ILS_TRACK,148.27,152,3.73,616.53,538.62,-2.61,10.77,11.73,269.97,0.014,0.25,0,12.99,1,0.6,4.5,0.75,0.35,0.0168,0.4,0,22.95,0,-3.758,0,269.97,0,0,1,-1.03,0,0,0,269.97,0.464,-0.0005,0.8858,0,269.97,1.22,-509.38,20.068,-0.031,0,0,3,745.2,5.381,0,1126.02,0,0,0,,0,0,0,0,0,0,0,0,0,0,0,0,0,269.83,0,0,0,0,0,0,0,0,0,0,0,0,0,3,3,0,0,VALID,0,0,0,0,0,1,0,0,0,0,0,0,0,0,0,0,0,0,0,0,447.04,1065.55,2,0,0.12,0.12,106,8.33,0.12,0.12,12.84,FLYING,X10-H,0:/Integrated Flight Computer/aircraft/x10_h_cfg.ks (inferred preloaded)
13.2,APPROACH,ILS_TRACK,148.68,152,3.32,615.61,537.76,-2.23,10.58,11.39,269.97,0.012,0.1173,0,14.242,1,0.6,4.5,0.75,0.35,0.0168,0.4,0,22.833,0,-3.343,0,269.97,0,0,1,-0.87,0,0,0,269.97,0.4641,-0.0005,0.8858,0,269.97,1.19,-507.36,20.012,-0.028,0,0,3,745.2,5.74,0,1123.06,0,0,0,,0,0,0,0,0,0,0,0,0,0,0,0,0,269.83,0,0,0,0,0,0,0,0,0,0,0,0,0,3,3,0,0,VALID,0,0,0,0,0,1,0,0,0,0,0,0,0,0,0,0,0,0,0,0,421.04,1067.32,2,0,0.12,0.12,109,8.33,0.12,0.12,13.2,FLYING,X10-H,0:/Integrated Flight Computer/aircraft/x10_h_cfg.ks (inferred preloaded)
13.56,APPROACH,ILS_TRACK,149.01,152,2.99,614.83,537.01,-1.96,10.45,11.17,269.97,0.012,0.1262,0,15.361,1,0.6,4.5,0.75,0.35,0.0168,0.4,0,22.737,0,-3.001,0,269.97,0,0,1,-0.76,0,0,0,269.98,0.4641,-0.0006,0.8858,0,269.97,1.17,-505.19,19.955,-0.033,0,0,3,745.2,6.142,0,1120.1,0,0,0,,0,0,0,0,0,0,0,0,0,0,0,0,0,269.83,0,0,0,0,0,0,0,0,0,0,0,0,0,3,3,0,0,VALID,0,0,0,0,0,1,0,0,0,0,0,0,0,0,0,0,0,0,0,0,386.41,1068.78,2,0,0.12,0.12,112,8.33,0.12,0.12,13.56,FLYING,X10-H,0:/Integrated Flight Computer/aircraft/x10_h_cfg.ks (inferred preloaded)
13.92,APPROACH,ILS_TRACK,149.24,152,2.76,614.18,536.35,-1.68,10.47,11.09,269.97,0.01,0.1887,0,16.383,1,0.6,4.5,0.75,0.35,0.0168,0.4,0,22.672,0,-2.773,0,269.97,0,0,1,-0.67,0,0,0,269.97,0.4642,-0.0005,0.8857,0,269.97,1.14,-502.89,19.899,-0.027,0,0,3,745.2,6.524,0,1117.13,0,0,0,,0,0,0,0,0,0,0,0,0,0,0,0,0,269.83,0,0,0,0,0,0,0,0,0,0,0,0,0,3,3,0,0,VALID,0,0,0,0,0,1,0,0,0,0,0,0,0,0,0,0,0,0,0,0,358.88,1069.75,2,0,0.12,0.12,115,8.33,0.12,0.12,13.92,FLYING,X10-H,0:/Integrated Flight Computer/aircraft/x10_h_cfg.ks (inferred preloaded)
14.18,APPROACH,ILS_TRACK,149.33,152,2.67,613.75,535.93,-1.53,10.43,10.99,269.97,0.011,0.2479,0,17.085,1,0.6,4.5,0.75,0.35,0.0168,0.4,0,22.645,0,-2.675,0,269.97,0,0,1,-0.6,0,0,0,269.98,0.4643,-0.0005,0.8857,0,269.97,1.12,-501.17,19.858,-0.026,0,0,3,745.2,6.643,0,1114.99,0,0,0,,0,0,0,0,0,0,0,0,0,0,0,0,0,269.83,0,0,0,0,0,0,0,0,0,0,0,0,0,3,3,0,0,VALID,0,0,0,0,0,1,0,0,0,0,0,0,0,0,0,0,0,0,0,0,346.28,1070.18,2,0,0.12,0.12,117,7.69,0.14,0.12,14.18,FLYING,X10-H,0:/Integrated Flight Computer/aircraft/x10_h_cfg.ks (inferred preloaded)
14.54,APPROACH,ILS_TRACK,149.43,152,2.57,613.21,535.43,-1.3,10.29,10.76,269.97,0.014,0.3201,0,18.023,1,0.6,4.5,0.75,0.35,0.0168,0.4,0,22.617,0,-2.575,0,269.98,0,0,1,-0.51,0,0,0,269.98,0.4644,-0.0004,0.8856,0,269.98,1.09,-498.75,19.801,-0.024,0,0,3,745.2,6.802,0,1112.01,0,0,0,,0,0,0,0,0,0,0,0,0,0,0,0,0,269.83,0,0,0,0,0,0,0,0,0,0,0,0,0,3,3,0,0,VALID,0,0,0,0,0,1,0,0,0,0,0,0,0,0,0,0,0,0,0,0,339.69,1070.63,2,0,0.12,0.12,120,8.33,0.12,0.12,14.54,FLYING,X10-H,0:/Integrated Flight Computer/aircraft/x10_h_cfg.ks (inferred preloaded)
14.9,APPROACH,ILS_TRACK,149.53,152,2.47,612.73,534.99,-1.15,10.16,10.57,269.97,0.016,0.3584,0,18.926,1,0.6,4.5,0.75,0.35,0.0168,0.4,0,22.588,0,-2.472,0,269.97,0,0,1,-0.45,0,0,0,269.98,0.4645,-0.0005,0.8856,0,269.97,1.06,-496.26,19.744,-0.027,0,0,3,745.2,6.976,0,1109.04,0,0,0,,0,0,0,0,0,0,0,0,0,0,0,0,0,269.83,0,0,0,0,0,0,0,0,0,0,0,0,0,3,3,0,0,VALID,0,0,0,0,0,1,0,0,0,0,0,0,0,0,0,0,0,0,0,0,340.93,1071.1,2,0,0.12,0.12,123,8.33,0.12,0.12,14.9,FLYING,X10-H,0:/Integrated Flight Computer/aircraft/x10_h_cfg.ks (inferred preloaded)
15.26,APPROACH,ILS_TRACK,149.66,152,2.34,612.31,534.6,-1.04,10.06,10.43,269.97,0.019,0.3697,0,19.787,1,0.6,4.5,0.75,0.35,0.0168,0.4,0,22.553,0,-2.349,0,269.98,0,0,1,-0.4,0,0,0,269.98,0.4645,-0.0004,0.8856,0,269.98,1.03,-493.71,19.687,-0.02,0,0,3,745.2,7.139,0,1106.06,0,0,0,,0,0,0,0,0,0,0,0,0,0,0,0,0,269.83,0,0,0,0,0,0,0,0,0,0,0,0,0,3,3,0,0,VALID,0,0,0,0,0,1,0,0,0,0,0,0,0,0,0,0,0,0,0,0,344.41,1071.65,2,0,0.12,0.12,126,8.33,0.12,0.12,15.26,FLYING,X10-H,0:/Integrated Flight Computer/aircraft/x10_h_cfg.ks (inferred preloaded)
15.62,APPROACH,ILS_TRACK,149.81,152,2.19,611.94,534.25,-0.91,9.98,10.31,269.98,0.024,0.3558,0,20,1,0.6,4.5,0.75,0.35,0.0168,0.4,0,22.512,0,-2.203,0,269.97,0,0,1,-0.35,0,0,0,269.98,0.4646,-0.0005,0.8855,0,269.97,1.01,-491.1,19.631,-0.027,0,0,3,745.2,7.258,0,1103.09,0,0,0,,0,0,0,0,0,0,0,0,0,0,0,0,0,269.83,0,0,0,0,0,0,0,0,0,0,0,0,0,3,3,0,0,VALID,0,0,0,0,0,1,0,0,0,0,0,0,0,0,0,0,0,0,0,0,348.03,1072.29,2,0,0.12,0.12,129,8.33,0.12,0.12,15.62,FLYING,X10-H,0:/Integrated Flight Computer/aircraft/x10_h_cfg.ks (inferred preloaded)
15.98,APPROACH,ILS_TRACK,149.97,152,2.03,611.61,533.94,-0.84,9.89,10.19,269.98,0.024,0.3297,0,20,1,0.6,4.5,0.75,0.35,0.0168,0.4,0,22.465,0,-2.036,0,269.98,0,0,1,-0.32,0,0,0,269.98,0.4647,-0.0003,0.8855,0,269.98,0.98,-488.46,19.574,-0.019,0,0,3,745.2,7.377,0,1100.1,0,0,0,,0,0,0,0,0,0,0,0,0,0,0,0,0,269.83,0,0,0,0,0,0,0,0,0,0,0,0,0,3,3,0,0,VALID,0,0,0,0,0,1,0,0,0,0,0,0,0,0,0,0,0,0,0,0,350.06,1073.01,2,0,0.12,0.12,132,8.33,0.12,0.12,15.98,FLYING,X10-H,0:/Integrated Flight Computer/aircraft/x10_h_cfg.ks (inferred preloaded)
16.34,APPROACH,ILS_TRACK,150.15,152,1.85,611.3,533.65,-0.77,9.84,10.11,269.98,0.025,0.3039,0,20,1,0.6,4.5,0.75,0.35,0.0168,0.4,0,22.414,0,-1.855,0,269.98,0,0,1,-0.29,0,0,0,269.98,0.4648,-0.0003,0.8854,0,269.98,0.95,-485.78,19.517,-0.016,0,0,3,745.2,7.479,0,1097.12,0,0,0,,0,0,0,0,0,0,0,0,0,0,0,0,0,269.83,0,0,0,0,0,0,0,0,0,0,0,0,0,3,3,0,0,VALID,0,0,0,0,0,1,0,0,0,0,0,0,0,0,0,0,0,0,0,0,349.69,1073.79,2,0,0.12,0.12,135,8.33,0.12,0.12,16.34,FLYING,X10-H,0:/Integrated Flight Computer/aircraft/x10_h_cfg.ks (inferred preloaded)
16.6,APPROACH,ILS_TRACK,150.29,152,1.71,611.11,533.46,-0.71,9.81,10.06,269.98,0.025,0.2898,0,20,1,0.6,4.5,0.75,0.35,0.0168,0.4,0,22.377,0,-1.725,0,269.98,0,0,1,-0.27,0,0,0,269.98,0.4649,-0.0003,0.8854,0,269.98,0.93,-483.83,19.476,-0.02,0,0,3,745.2,7.539,0,1094.96,0,0,0,,0,0,0,0,0,0,0,0,0,0,0,0,0,269.83,0,0,0,0,0,0,0,0,0,0,0,0,0,3,3,0,0,VALID,0,0,0,0,0,1,0,0,0,0,0,0,0,0,0,0,0,0,0,0,347.59,1074.35,2,0,0.12,0.12,137,7.69,0.14,0.12,16.6,FLYING,X10-H,0:/Integrated Flight Computer/aircraft/x10_h_cfg.ks (inferred preloaded)
16.96,APPROACH,ILS_TRACK,150.46,152,1.54,610.85,533.21,-0.65,9.78,10.01,269.98,0.026,0.277,0,20,1,0.6,4.5,0.75,0.35,0.0168,0.4,0,22.328,0,-1.551,0,269.98,0,0,1,-0.25,0,0,0,269.98,0.4649,-0.0003,0.8853,0,269.98,0.91,-481.09,19.418,-0.017,0,0,3,745.2,7.626,0,1091.97,0,0,0,,0,0,0,0,0,0,0,0,0,0,0,0,0,269.83,0,0,0,0,0,0,0,0,0,0,0,0,0,3,3,0,0,VALID,0,0,0,0,0,1,0,0,0,0,0,0,0,0,0,0,0,0,0,0,342.96,1075.1,2,0,0.12,0.12,140,8.33,0.12,0.12,16.96,FLYING,X10-H,0:/Integrated Flight Computer/aircraft/x10_h_cfg.ks (inferred preloaded)
17.32,APPROACH,ILS_TRACK,150.61,152,1.39,610.63,532.99,-0.61,9.76,9.99,269.98,0.028,0.2746,0,20,1,0.6,4.5,0.75,0.35,0.0168,0.4,0,22.284,0,-1.395,0,269.98,0,0,1,-0.24,0,0,0,269.98,0.465,-0.0003,0.8853,0,269.98,0.88,-478.33,19.361,-0.018,0,0,3,745.2,7.706,0,1088.98,0,0,0,,0,0,0,0,0,0,0,0,0,0,0,0,0,269.83,0,0,0,0,0,0,0,0,0,0,0,0,0,3,3,0,0,VALID,0,0,0,0,0,1,0,0,0,0,0,0,0,0,0,0,0,0,0,0,337.67,1075.76,2,0,0.12,0.12,143,8.33,0.12,0.12,17.32,FLYING,X10-H,0:/Integrated Flight Computer/aircraft/x10_h_cfg.ks (inferred preloaded)
17.68,APPROACH,ILS_TRACK,150.74,152,1.26,610.41,532.78,-0.54,9.73,9.92,269.98,0.028,0.28,0,20,1,0.6,4.5,0.75,0.35,0.0168,0.4,0,22.247,0,-1.262,0,269.98,0,0,1,-0.2,0,0,0,269.98,0.4651,-0.0003,0.8853,0,269.98,0.86,-475.55,19.304,-0.02,0,0,3,745.2,7.751,0,1085.98,0,0,0,,0,0,0,0,0,0,0,0,0,0,0,0,0,269.83,0,0,0,0,0,0,0,0,0,0,0,0,0,3,3,0,0,VALID,0,0,0,0,0,1,0,0,0,0,0,0,0,0,0,0,0,0,0,0,333.04,1076.33,2,0,0.12,0.12,146,8.33,0.12,0.12,17.68,FLYING,X10-H,0:/Integrated Flight Computer/aircraft/x10_h_cfg.ks (inferred preloaded)
18.04,APPROACH,ILS_TRACK,150.87,152,1.13,610.22,532.6,-0.5,9.71,9.9,269.98,0.028,0.2841,0,20,1,0.6,4.5,0.75,0.35,0.0168,0.4,0,22.212,0,-1.14,0,269.99,0,0,1,-0.2,0,0,0,269.98,0.4652,-0.0002,0.8852,0,269.99,0.83,-472.74,19.247,-0.014,0,0,3,745.2,7.803,0,1082.98,0,0,0,,0,0,0,0,0,0,0,0,0,0,0,0,0,269.83,0,0,0,0,0,0,0,0,0,0,0,0,0,3,3,0,0,VALID,0,0,0,0,0,1,0,0,0,0,0,0,0,0,0,0,0,0,0,0,329.63,1076.86,2,0,0.12,0.12,149,8.33,0.12,0.12,18.04,FLYING,X10-H,0:/Integrated Flight Computer/aircraft/x10_h_cfg.ks (inferred preloaded)
18.4,APPROACH,ILS_TRACK,150.98,152,1.02,610.04,532.42,-0.46,9.7,9.86,269.98,0.029,0.2881,0,20,1,0.6,4.5,0.75,0.35,0.0168,0.4,0,22.181,0,-1.029,0,269.98,0,0,1,-0.18,0,0,0,269.99,0.4653,-0.0003,0.8852,0,269.98,0.81,-469.92,19.19,-0.018,0,0,3,745.2,7.853,0,1079.98,0,0,0,,0,0,0,0,0,0,0,0,0,0,0,0,0,269.83,0,0,0,0,0,0,0,0,0,0,0,0,0,3,3,0,0,VALID,0,0,0,0,0,1,0,0,0,0,0,0,0,0,0,0,0,0,0,0,327.12,1077.34,2,0,0.12,0.12,152,8.33,0.12,0.12,18.4,FLYING,X10-H,0:/Integrated Flight Computer/aircraft/x10_h_cfg.ks (inferred preloaded)
18.76,APPROACH,ILS_TRACK,151.08,152,0.92,609.87,532.26,-0.43,9.68,9.83,269.98,0.029,0.2904,0,20,1,0.6,4.5,0.75,0.35,0.0168,0.4,0,22.152,0,-0.926,0,269.99,0,0,1,-0.16,0,0,0,269.98,0.4654,-0.0002,0.8851,0,269.99,0.78,-467.09,19.132,-0.012,0,0,3,745.2,7.893,0,1076.98,0,0,0,,0,0,0,0,0,0,0,0,0,0,0,0,0,269.83,0,0,0,0,0,0,0,0,0,0,0,0,0,3,3,0,0,VALID,0,0,0,0,0,1,0,0,0,0,0,0,0,0,0,0,0,0,0,0,325.36,1077.78,2,0,0.12,0.12,155,8.33,0.12,0.12,18.76,FLYING,X10-H,0:/Integrated Flight Computer/aircraft/x10_h_cfg.ks (inferred preloaded)
19.02,APPROACH,ILS_TRACK,151.15,152,0.85,609.76,532.15,-0.41,9.66,9.81,269.98,0.029,0.2901,0,20,1,0.6,4.5,0.75,0.35,0.0168,0.4,0,22.131,0,-0.853,0,269.99,0,0,1,-0.15,0,0,0,269.98,0.4654,-0.0002,0.8851,0,269.99,0.76,-465.03,19.091,-0.012,0,0,3,745.2,7.93,0,1074.81,0,0,0,,0,0,0,0,0,0,0,0,0,0,0,0,0,269.83,0,0,0,0,0,0,0,0,0,0,0,0,0,3,3,0,0,VALID,0,0,0,0,0,1,0,0,0,0,0,0,0,0,0,0,0,0,0,0,324.37,1078.09,2,0,0.12,0.12,157,7.69,0.14,0.12,19.02,FLYING,X10-H,0:/Integrated Flight Computer/aircraft/x10_h_cfg.ks (inferred preloaded)
19.38,APPROACH,ILS_TRACK,151.25,152,0.75,609.62,532.01,-0.38,9.66,9.79,269.98,0.029,0.29,0,20,1,0.6,4.5,0.75,0.35,0.0168,0.4,0,22.105,0,-0.758,0,269.99,0,0,1,-0.14,0,0,0,269.99,0.4655,-0.0002,0.885,0,269.99,0.74,-462.17,19.034,-0.012,0,0,3,745.2,7.961,0,1071.8,0,0,0,,0,0,0,0,0,0,0,0,0,0,0,0,0,269.83,0,0,0,0,0,0,0,0,0,0,0,0,0,3,3,0,0,VALID,0,0,0,0,0,1,0,0,0,0,0,0,0,0,0,0,0,0,0,0,323.11,1078.5,2,0,0.12,0.12,160,8.33,0.12,0.12,19.38,FLYING,X10-H,0:/Integrated Flight Computer/aircraft/x10_h_cfg.ks (inferred preloaded)
19.74,APPROACH,ILS_TRACK,151.34,152,0.66,609.49,531.89,-0.36,9.64,9.77,269.98,0.029,0.2897,0,20,1,0.6,4.5,0.75,0.35,0.0168,0.4,0,22.079,0,-0.669,0,269.99,0,0,1,-0.13,0,0,0,269.99,0.4656,-0.0003,0.885,0,269.99,0.72,-459.29,18.976,-0.015,0,0,3,745.2,7.977,0,1068.79,0,0,0,,0,0,0,0,0,0,0,0,0,0,0,0,0,269.83,0,0,0,0,0,0,0,0,0,0,0,0,0,3,3,0,0,VALID,0,0,0,0,0,1,0,0,0,0,0,0,0,0,0,0,0,0,0,0,321.97,1078.89,2,0,0.12,0.12,163,8.33,0.12,0.12,19.74,FLYING,X10-H,0:/Integrated Flight Computer/aircraft/x10_h_cfg.ks (inferred preloaded)
20.1,APPROACH,ILS_TRACK,151.42,152,0.58,609.37,531.77,-0.34,9.63,9.76,269.98,0.029,0.2883,0,20,1,0.6,4.5,0.75,0.35,0.0168,0.4,0,22.055,0,-0.582,0,269.99,0,0,1,-0.12,0,0,0,269.99,0.4657,-0.0002,0.885,0,269.99,0.69,-456.4,18.919,-0.009,0,0,3,745.2,8.027,0,1065.78,0,0,0,,0,0,0,0,0,0,0,0,0,0,0,0,0,269.83,0,0,0,0,0,0,0,0,0,0,0,0,0,3,3,0,0,VALID,0,0,0,0,0,1,0,0,0,0,0,0,0,0,0,0,0,0,0,0,320.93,1079.26,2,0,0.12,0.12,166,8.33,0.12,0.12,20.1,FLYING,X10-H,0:/Integrated Flight Computer/aircraft/x10_h_cfg.ks (inferred preloaded)
20.46,APPROACH,ILS_TRACK,151.5,152,0.5,609.26,531.66,-0.27,9.63,9.73,269.98,0.029,0.2881,0,20,1,0.6,4.5,0.75,0.35,0.0168,0.4,0,22.033,0,-0.503,0,269.99,0,0,1,-0.11,0,0,0,269.99,0.4658,-0.0002,0.8849,0,269.99,0.67,-453.5,18.861,-0.009,0,0,3,745.2,8.099,0,1062.77,0,0,0,,0,0,0,0,0,0,0,0,0,0,0,0,0,269.83,0,0,0,0,0,0,0,0,0,0,0,0,0,3,3,0,0,VALID,0,0,0,0,0,1,0,0,0,0,0,0,0,0,0,0,0,0,0,0,319.89,1079.6,2,0,0.12,0.12,169,8.33,0.12,0.12,20.46,FLYING,X10-H,0:/Integrated Flight Computer/aircraft/x10_h_cfg.ks (inferred preloaded)
20.82,APPROACH,ILS_TRACK,151.58,152,0.42,609.16,531.56,-0.26,9.61,9.71,269.98,0.029,0.2875,0,20,1,0.6,4.5,0.75,0.35,0.0168,0.4,0,22.011,0,-0.427,0,269.99,0,0,1,-0.1,0,0,0,269.99,0.4658,-0.0002,0.8849,0,269.99,0.65,-450.59,18.804,-0.013,0,0,3,745.2,8.087,0,1059.76,0,0,0,,0,0,0,0,0,0,0,0,0,0,0,0,0,269.83,0,0,0,0,0,0,0,0,0,0,0,0,0,3,3,0,0,VALID,0,0,0,0,0,1,0,0,0,0,0,0,0,0,0,0,0,0,0,0,318.95,1079.93,2,0,0.12,0.12,172,8.33,0.12,0.12,20.82,FLYING,X10-H,0:/Integrated Flight Computer/aircraft/x10_h_cfg.ks (inferred preloaded)
21.18,APPROACH,ILS_TRACK,151.66,152,0.34,609.07,531.47,-0.24,9.6,9.69,269.98,0.028,0.2829,0,20,1,0.6,4.5,0.75,0.35,0.0168,0.4,0,21.989,0,-0.348,0,269.99,0,0,1,-0.09,0,0,0,269.99,0.4659,-0.0001,0.8848,0,269.99,0.63,-447.67,18.746,-0.008,0,0,3,745.2,8.124,0,1056.75,0,0,0,,0,0,0,0,0,0,0,0,0,0,0,0,0,269.83,0,0,0,0,0,0,0,0,0,0,0,0,0,3,3,0,0,VALID,0,0,0,0,0,1,0,0,0,0,0,0,0,0,0,0,0,0,0,0,317.88,1080.27,2,0,0.12,0.12,175,8.33,0.12,0.12,21.18,FLYING,X10-H,0:/Integrated Flight Computer/aircraft/x10_h_cfg.ks (inferred preloaded)
21.44,APPROACH,ILS_TRACK,151.71,152,0.29,609,531.42,-0.22,9.6,9.68,269.98,0.029,0.2802,0,20,1,0.6,4.5,0.75,0.35,0.0168,0.4,0,21.974,0,-0.293,0,269.99,0,0,1,-0.08,0,0,0,269.99,0.466,-0.0002,0.8848,0,269.99,0.61,-445.56,18.705,-0.01,0,0,3,745.2,8.145,0,1054.57,0,0,0,,0,0,0,0,0,0,0,0,0,0,0,0,0,269.83,0,0,0,0,0,0,0,0,0,0,0,0,0,3,3,0,0,VALID,0,0,0,0,0,1,0,0,0,0,0,0,0,0,0,0,0,0,0,0,316.82,1080.5,2,0,0.12,0.12,177,7.69,0.14,0.12,21.44,FLYING,X10-H,0:/Integrated Flight Computer/aircraft/x10_h_cfg.ks (inferred preloaded)
21.8,APPROACH,ILS_TRACK,151.78,152,0.22,608.93,531.34,-0.2,9.59,9.67,269.98,0.028,0.2785,0,20,1,0.6,4.5,0.75,0.35,0.0168,0.4,0,21.953,0,-0.221,0,269.99,0,0,1,-0.08,0,0,0,269.99,0.4661,-0.0002,0.8847,0,269.99,0.59,-442.62,18.647,-0.009,0,0,3,745.2,8.171,0,1051.55,0,0,0,,0,0,0,0,0,0,0,0,0,0,0,0,0,269.83,0,0,0,0,0,0,0,0,0,0,0,0,0,3,3,0,0,VALID,0,0,0,0,0,1,0,0,0,0,0,0,0,0,0,0,0,0,0,0,315.16,1080.81,2,0,0.12,0.12,180,8.33,0.12,0.12,21.8,FLYING,X10-H,0:/Integrated Flight Computer/aircraft/x10_h_cfg.ks (inferred preloaded)
22.16,APPROACH,ILS_TRACK,151.85,152,0.15,608.86,531.27,-0.18,9.59,9.65,269.98,0.027,0.2785,0,20,1,0.6,4.5,0.75,0.35,0.0168,0.4,0,21.935,0,-0.156,0,270,0,0,1,-0.07,0,0,0,269.99,0.4662,-0.0001,0.8847,0,270,0.57,-439.67,18.59,-0.004,0,0,3,745.2,8.197,0,1048.54,0,0,0,,0,0,0,0,0,0,0,0,0,0,0,0,0,269.83,0,0,0,0,0,0,0,0,0,0,0,0,0,3,3,0,0,VALID,0,0,0,0,0,1,0,0,0,0,0,0,0,0,0,0,0,0,0,0,313.56,1081.09,2,0,0.12,0.12,183,8.33,0.12,0.12,22.16,FLYING,X10-H,0:/Integrated Flight Computer/aircraft/x10_h_cfg.ks (inferred preloaded)
22.52,APPROACH,ILS_TRACK,151.91,152,0.09,608.8,531.21,-0.16,9.59,9.64,269.98,0.027,0.2793,0,20,1,0.6,4.5,0.75,0.35,0.0168,0.4,0,21.918,0,-0.096,0,269.99,0,0,1,-0.06,0,0,0,270,0.4662,-0.0001,0.8847,0,269.99,0.55,-436.71,18.532,-0.007,0,0,3,745.2,8.222,0,1045.52,0,0,0,,0,0,0,0,0,0,0,0,0,0,0,0,0,269.83,0,0,0,0,0,0,0,0,0,0,0,0,0,3,3,0,0,VALID,0,0,0,0,0,1,0,0,0,0,0,0,0,0,0,0,0,0,0,0,312.17,1081.35,2,0,0.12,0.12,186,8.33,0.12,0.12,22.52,FLYING,X10-H,0:/Integrated Flight Computer/aircraft/x10_h_cfg.ks (inferred preloaded)
22.88,APPROACH,ILS_TRACK,151.96,152,0.04,608.74,531.16,-0.14,9.58,9.63,269.98,0.027,0.2805,0,20,1,0.6,4.5,0.75,0.35,0.0168,0.4,0,21.902,0,-0.041,0,269.99,0,0,1,-0.05,0,0,0,269.99,0.4663,-0.0001,0.8846,0,269.99,0.53,-433.75,18.474,-0.006,0,0,3,745.2,8.243,0,1042.5,0,0,0,,0,0,0,0,0,0,0,0,0,0,0,0,0,269.83,0,0,0,0,0,0,0,0,0,0,0,0,0,3,3,0,0,VALID,0,0,0,0,0,1,0,0,0,0,0,0,0,0,0,0,0,0,0,0,311.09,1081.58,2,0,0.12,0.12,189,8.33,0.12,0.12,22.88,FLYING,X10-H,0:/Integrated Flight Computer/aircraft/x10_h_cfg.ks (inferred preloaded)
23.24,APPROACH,ILS_TRACK,152.01,152,-0.01,608.7,531.11,-0.12,9.58,9.62,269.98,0.027,0.2812,0,19.999,1,0.6,4.5,0.75,0.35,0.0168,0.4,0,21.888,0,0.01,0,269.99,0,0,1,-0.05,0,0,0,269.99,0.4664,-0.0001,0.8846,0,269.99,0.51,-430.77,18.417,-0.007,0,0,3,745.2,8.266,0,1039.48,0,0,0,,0,0,0,0,0,0,0,0,0,0,0,0,0,269.83,0,0,0,0,0,0,0,0,0,0,0,0,0,3,3,0,0,VALID,0,0,0,0,0,1,0,0,0,0,0,0,0,0,0,0,0,0,0,0,310.26,1081.8,2,0,0.12,0.12,192,8.33,0.12,0.12,23.24,FLYING,X10-H,0:/Integrated Flight Computer/aircraft/x10_h_cfg.ks (inferred preloaded)
23.6,APPROACH,ILS_TRACK,152.06,152,-0.06,608.66,531.08,-0.1,9.57,9.61,269.98,0.027,0.2812,0,19.983,1,0.6,4.5,0.75,0.35,0.0168,0.4,0,21.874,0,0.058,0,270,0,0,1,-0.04,0,0,0,269.99,0.4665,0,0.8845,0,270,0.49,-427.79,18.359,-0.002,0,0,3,745.2,8.286,0,1036.46,0,0,0,,0,0,0,0,0,0,0,0,0,0,0,0,0,269.83,0,0,0,0,0,0,0,0,0,0,0,0,0,3,3,0,0,VALID,0,0,0,0,0,1,0,0,0,0,0,0,0,0,0,0,0,0,0,0,309.61,1082.01,2,0,0.12,0.12,195,8.33,0.12,0.12,23.6,FLYING,X10-H,0:/Integrated Flight Computer/aircraft/x10_h_cfg.ks (inferred preloaded)
23.86,APPROACH,ILS_TRACK,152.09,152,-0.09,608.63,531.05,-0.09,9.57,9.6,269.98,0.026,0.2806,0,19.962,1,0.6,4.5,0.75,0.35,0.0168,0.4,0,21.865,0,0.092,0,269.99,0,0,1,-0.03,0,0,0,270,0.4666,-0.0002,0.8845,0,269.99,0.48,-425.64,18.318,-0.009,0,0,3,745.2,8.301,0,1034.27,0,0,0,,0,0,0,0,0,0,0,0,0,0,0,0,0,269.83,0,0,0,0,0,0,0,0,0,0,0,0,0,3,3,0,0,VALID,0,0,0,0,0,1,0,0,0,0,0,0,0,0,0,0,0,0,0,0,309.17,1082.15,2,0,0.12,0.12,197,7.69,0.14,0.12,23.86,FLYING,X10-H,0:/Integrated Flight Computer/aircraft/x10_h_cfg.ks (inferred preloaded)
24.22,APPROACH,ILS_TRACK,152.14,152,-0.14,608.6,531.02,-0.07,9.57,9.59,269.98,0.026,0.2796,0,19.918,1,0.6,4.5,0.75,0.35,0.0168,0.4,0,21.853,0,0.136,0,270,0,0,1,-0.03,0,0,0,269.99,0.4666,-0.0001,0.8844,0,270,0.46,-422.64,18.26,-0.003,0,0,3,745.2,8.321,0,1031.25,0,0,0,,0,0,0,0,0,0,0,0,0,0,0,0,0,269.83,0,0,0,0,0,0,0,0,0,0,0,0,0,3,3,0,0,VALID,0,0,0,0,0,1,0,0,0,0,0,0,0,0,0,0,0,0,0,0,308.53,1082.34,2,0,0.12,0.12,200,8.33,0.12,0.12,24.22,FLYING,X10-H,0:/Integrated Flight Computer/aircraft/x10_h_cfg.ks (inferred preloaded)
24.58,APPROACH,ILS_TRACK,152.18,152,-0.18,608.58,531,-0.05,9.57,9.59,269.98,0.027,0.2783,0,19.859,1,0.6,4.5,0.75,0.35,0.0168,0.4,0,21.841,0,0.177,0,270,0,0,1,-0.02,0,0,0,270,0.4667,-0.0001,0.8844,0,270,0.44,-419.64,18.202,-0.004,0,0,3,745.2,8.34,0,1028.23,0,0,0,,0,0,0,0,0,0,0,0,0,0,0,0,0,269.83,0,0,0,0,0,0,0,0,0,0,0,0,0,3,3,0,0,VALID,0,0,0,0,0,1,0,0,0,0,0,0,0,0,0,0,0,0,0,0,307.82,1082.51,2,0,0.12,0.12,203,8.33,0.12,0.12,24.58,FLYING,X10-H,0:/Integrated Flight Computer/aircraft/x10_h_cfg.ks (inferred preloaded)
24.94,APPROACH,ILS_TRACK,152.22,152,-0.22,608.56,530.98,-0.04,9.56,9.58,269.99,0.026,0.277,0,19.786,1,0.6,4.5,0.75,0.35,0.0168,0.4,0,21.83,0,0.216,0,269.99,0,0,1,-0.02,0,0,0,270,0.4668,-0.0001,0.8844,0,269.99,0.42,-416.64,18.144,-0.008,0,0,3,745.2,8.359,0,1025.2,0,0,0,,0,0,0,0,0,0,0,0,0,0,0,0,0,269.83,0,0,0,0,0,0,0,0,0,0,0,0,0,3,3,0,0,VALID,0,0,0,0,0,1,0,0,0,0,0,0,0,0,0,0,0,0,0,0,307.04,1082.68,2,0,0.12,0.12,206,8.33,0.12,0.12,24.94,FLYING,X10-H,0:/Integrated Flight Computer/aircraft/x10_h_cfg.ks (inferred preloaded)
25.3,APPROACH,ILS_TRACK,152.25,152,-0.25,608.55,530.97,-0.02,9.56,9.57,269.99,0.026,0.2759,0,19.7,1,0.6,4.5,0.75,0.35,0.0168,0.4,0,21.82,0,0.251,0,270,0,0,1,-0.01,0,0,0,270,0.4669,0,0.8843,0,270,0.4,-413.62,18.087,0,0,0,3,745.2,8.378,0,1022.18,0,0,0,,0,0,0,0,0,0,0,0,0,0,0,0,0,269.83,0,0,0,0,0,0,0,0,0,0,0,0,0,3,3,0,0,VALID,0,0,0,0,0,1,0,0,0,0,0,0,0,0,0,0,0,0,0,0,306.19,1082.83,2,0,0.12,0.12,209,8.33,0.12,0.12,25.3,FLYING,X10-H,0:/Integrated Flight Computer/aircraft/x10_h_cfg.ks (inferred preloaded)
25.66,APPROACH,ILS_TRACK,152.29,152,-0.29,608.55,530.97,-0.01,9.56,9.57,269.99,0.026,0.275,0,19.602,1,0.6,4.5,0.75,0.35,0.0168,0.4,0,21.811,0,0.284,0,270,0,0,1,0,0,0,0,270,0.467,0,0.8843,0,270,0.39,-410.6,18.029,-0.003,0,0,3,745.2,8.395,0,1019.15,0,0,0,,0,0,0,0,0,0,0,0,0,0,0,0,0,269.83,0,0,0,0,0,0,0,0,0,0,0,0,0,3,3,0,0,VALID,0,0,0,0,0,1,0,0,0,0,0,0,0,0,0,0,0,0,0,0,305.31,1082.97,2,0,0.12,0.12,212,8.33,0.12,0.12,25.66,FLYING,X10-H,0:/Integrated Flight Computer/aircraft/x10_h_cfg.ks (inferred preloaded)
26.02,APPROACH,ILS_TRACK,152.31,152,-0.31,608.55,530.97,0.01,9.57,9.56,269.99,0.024,0.2744,0,19.492,1,0.6,4.5,0.75,0.35,0.0168,0.4,0,21.803,0,0.312,0,270,0,0,1,0,0,0,0,270,0.4671,-0.0001,0.8842,0,270,0.37,-407.58,17.971,-0.004,0,0,3,745.2,8.413,0,1016.12,0,0,0,,0,0,0,0,0,0,0,0,0,0,0,0,0,269.83,0,0,0,0,0,0,0,0,0,0,0,0,0,3,3,0,0,VALID,0,0,0,0,0,1,0,0,0,0,0,0,0,0,0,0,0,0,0,0,304.43,1083.09,2,0,0.12,0.12,215,8.33,0.12,0.12,26.02,FLYING,X10-H,0:/Integrated Flight Computer/aircraft/x10_h_cfg.ks (inferred preloaded)
26.28,APPROACH,ILS_TRACK,152.33,152,-0.33,608.55,530.97,0.02,9.57,9.56,269.99,0.022,0.274,0,19.407,1,0.6,4.5,0.75,0.35,0.0168,0.4,0,21.798,0,0.331,0,270,0,0,1,0.01,0,0,0,270,0.4671,-0.0001,0.8842,0,270,0.35,-405.39,17.93,-0.004,0,0,3,745.2,8.424,0,1013.94,0,0,0,,0,0,0,0,0,0,0,0,0,0,0,0,0,269.83,0,0,0,0,0,0,0,0,0,0,0,0,0,3,3,0,0,VALID,0,0,0,0,0,1,0,0,0,0,0,0,0,0,0,0,0,0,0,0,303.82,1083.16,2,0,0.12,0.12,217,7.69,0.14,0.12,26.28,FLYING,X10-H,0:/Integrated Flight Computer/aircraft/x10_h_cfg.ks (inferred preloaded)
26.64,APPROACH,ILS_TRACK,152.35,152,-0.35,608.56,530.98,0.03,9.57,9.56,269.99,0.023,0.2737,0,19.283,1,0.6,4.5,0.75,0.35,0.0168,0.4,0,21.791,0,0.354,0,270,0,0,1,0.01,0,0,0,270,0.4672,0,0.8841,0,270,0.34,-402.35,17.872,0.001,0,0,3,745.2,8.441,0,1010.91,0,0,0,,0,0,0,0,0,0,0,0,0,0,0,0,0,269.83,0,0,0,0,0,0,0,0,0,0,0,0,0,3,3,0,0,VALID,0,0,0,0,0,1,0,0,0,0,0,0,0,0,0,0,0,0,0,0,302.99,1083.26,2,0,0.12,0.12,220,8.33,0.12,0.12,26.64,FLYING,X10-H,0:/Integrated Flight Computer/aircraft/x10_h_cfg.ks (inferred preloaded)
27,APPROACH,ILS_TRACK,152.37,152,-0.37,608.58,531,0.05,9.57,9.55,269.99,0.023,0.2734,0,19.151,1,0.6,4.5,0.75,0.35,0.0168,0.4,0,21.786,0,0.373,0,270,0,0,1,0.02,0,0,0,270,0.4673,0,0.8841,0,270,0.32,-399.31,17.814,-0.003,0,0,3,745.2,8.457,0,1007.88,0,0,0,,0,0,0,0,0,0,0,0,0,0,0,0,0,269.83,0,0,0,0,0,0,0,0,0,0,0,0,0,3,3,0,0,VALID,0,0,0,0,0,1,0,0,0,0,0,0,0,0,0,0,0,0,0,0,302.23,1083.34,2,0,0.12,0.12,223,8.33,0.12,0.12,27,FLYING,X10-H,0:/Integrated Flight Computer/aircraft/x10_h_cfg.ks (inferred preloaded)
27.36,APPROACH,ILS_TRACK,152.39,152,-0.39,608.6,531.02,0.06,9.57,9.55,269.99,0.022,0.273,0,19.012,1,0.6,4.5,0.75,0.35,0.0168,0.4,0,21.781,0,0.39,0,270,0,0,1,0.02,0,0,0,270,0.4674,0,0.8841,0,270,0.31,-396.26,17.756,0.001,0,0,3,745.2,8.472,0,1004.85,0,0,0,,0,0,0,0,0,0,0,0,0,0,0,0,0,269.83,0,0,0,0,0,0,0,0,0,0,0,0,0,3,3,0,0,VALID,0,0,0,0,0,1,0,0,0,0,0,0,0,0,0,0,0,0,0,0,301.51,1083.41,2,0,0.12,0.12,226,8.33,0.12,0.12,27.36,FLYING,X10-H,0:/Integrated Flight Computer/aircraft/x10_h_cfg.ks (inferred preloaded)
27.72,APPROACH,ILS_TRACK,152.4,152,-0.4,608.62,531.04,0.08,9.57,9.55,269.99,0.02,0.2726,0,18.869,1,0.6,4.5,0.75,0.35,0.0168,0.4,0,21.777,0,0.403,0,270,0,0,1,0.03,0,0,0,270,0.4675,0,0.884,0,270,0.29,-393.2,17.698,0.002,0,0,3,745.2,8.487,0,1001.83,0,0,0,,0,0,0,0,0,0,0,0,0,0,0,0,0,269.83,0,0,0,0,0,0,0,0,0,0,0,0,0,3,3,0,0,VALID,0,0,0,0,0,1,0,0,0,0,0,0,0,0,0,0,0,0,0,0,300.83,1083.46,2,0,0.12,0.12,229,8.33,0.12,0.12,27.72,FLYING,X10-H,0:/Integrated Flight Computer/aircraft/x10_h_cfg.ks (inferred preloaded)
28.08,APPROACH,ILS_TRACK,152.41,152,-0.41,608.65,531.07,0.09,9.58,9.54,269.99,0.019,0.2722,0,18.721,1,0.6,4.5,0.75,0.35,0.0168,0.4,0,21.774,0,0.414,0,270,0,0,1,0.03,0,0,0,270,0.4676,0,0.884,0,270,0.27,-390.15,17.641,0,0,0,3,745.2,8.501,0,998.8,0,0,0,,0,0,0,0,0,0,0,0,0,0,0,0,0,269.83,0,0,0,0,0,0,0,0,0,0,0,0,0,3,3,0,0,VALID,0,0,0,0,0,1,0,0,0,0,0,0,0,0,0,0,0,0,0,0,300.18,1083.5,2,0,0.12,0.12,232,8.33,0.12,0.12,28.08,FLYING,X10-H,0:/Integrated Flight Computer/aircraft/x10_h_cfg.ks (inferred preloaded)
28.44,APPROACH,ILS_TRACK,152.42,152,-0.42,608.69,531.11,0.1,9.58,9.54,269.99,0.019,0.2718,0,18.57,1,0.6,4.5,0.75,0.35,0.0168,0.4,0,21.772,0,0.422,0,270,0,0,1,0.04,0,0,0,270,0.4676,0,0.8839,0,270,0.26,-387.08,17.583,0.003,0,0,3,745.2,8.515,0,995.77,0,0,0,,0,0,0,0,0,0,0,0,0,0,0,0,0,269.83,0,0,0,0,0,0,0,0,0,0,0,0,0,3,3,0,0,VALID,0,0,0,0,0,1,0,0,0,0,0,0,0,0,0,0,0,0,0,0,299.55,1083.54,2,0,0.12,0.12,235,8.33,0.12,0.12,28.44,FLYING,X10-H,0:/Integrated Flight Computer/aircraft/x10_h_cfg.ks (inferred preloaded)
28.7,APPROACH,ILS_TRACK,152.43,152,-0.43,608.72,531.13,0.11,9.58,9.54,269.99,0.019,0.2714,0,18.459,1,0.6,4.5,0.75,0.35,0.0168,0.4,0,21.771,0,0.427,0,270,0,0,1,0.04,0,0,0,270,0.4677,0,0.8839,0,270,0.25,-384.87,17.541,0,0,0,3,745.2,8.525,0,993.58,0,0,0,,0,0,0,0,0,0,0,0,0,0,0,0,0,269.83,0,0,0,0,0,0,0,0,0,0,0,0,0,3,3,0,0,VALID,0,0,0,0,0,1,0,0,0,0,0,0,0,0,0,0,0,0,0,0,299.1,1083.55,2,0,0.12,0.12,237,7.69,0.14,0.12,28.7,FLYING,X10-H,0:/Integrated Flight Computer/aircraft/x10_h_cfg.ks (inferred preloaded)
29.06,APPROACH,ILS_TRACK,152.43,152,-0.43,608.76,531.18,0.12,9.58,9.54,269.99,0.02,0.2711,0,18.304,1,0.6,4.5,0.75,0.35,0.0168,0.4,0,21.77,0,0.43,0,270,0,0,1,0.05,0,0,0,270,0.4678,0.0001,0.8838,0,270,0.23,-381.8,17.483,0.004,0,0,3,745.2,8.537,0,990.55,0,0,0,,0,0,0,0,0,0,0,0,0,0,0,0,0,269.83,0,0,0,0,0,0,0,0,0,0,0,0,0,3,3,0,0,VALID,0,0,0,0,0,1,0,0,0,0,0,0,0,0,0,0,0,0,0,0,298.49,1083.56,2,0,0.12,0.12,240,8.33,0.12,0.12,29.06,FLYING,X10-H,0:/Integrated Flight Computer/aircraft/x10_h_cfg.ks (inferred preloaded)
29.42,APPROACH,ILS_TRACK,152.43,152,-0.43,608.81,531.22,0.14,9.59,9.54,269.99,0.019,0.2709,0,18.149,1,0.6,4.5,0.75,0.35,0.0168,0.4,0,21.769,0,0.432,0,270,0,0,1,0.05,0,0,0,270,0.4679,0.0001,0.8838,0,270,0.22,-378.72,17.426,0.005,0,0,3,745.2,8.55,0,987.52,0,0,0,,0,0,0,0,0,0,0,0,0,0,0,0,0,269.83,0,0,0,0,0,0,0,0,0,0,0,0,0,3,3,0,0,VALID,0,0,0,0,0,1,0,0,0,0,0,0,0,0,0,0,0,0,0,0,297.92,1083.56,2,0,0.12,0.12,243,8.33,0.12,0.12,29.42,FLYING,X10-H,0:/Integrated Flight Computer/aircraft/x10_h_cfg.ks (inferred preloaded)
29.78,APPROACH,ILS_TRACK,152.43,152,-0.43,608.86,531.28,0.15,9.59,9.54,269.99,0.02,0.2707,0,17.994,1,0.6,4.5,0.75,0.35,0.0168,0.4,0,21.769,0,0.431,0,270,0,0,1,0.05,0,0,0,270,0.468,0.0001,0.8837,0,270,0.2,-375.64,17.368,0.004,0,0,3,745.2,8.561,0,984.49,0,0,0,,0,0,0,0,0,0,0,0,0,0,0,0,0,269.83,0,0,0,0,0,0,0,0,0,0,0,0,0,3,3,0,0,VALID,0,0,0,0,0,1,0,0,0,0,0,0,0,0,0,0,0,0,0,0,297.39,1083.56,2,0,0.12,0.12,246,8.33,0.12,0.12,29.78,FLYING,X10-H,0:/Integrated Flight Computer/aircraft/x10_h_cfg.ks (inferred preloaded)
30.14,APPROACH,ILS_TRACK,152.43,152,-0.43,608.92,531.33,0.16,9.59,9.54,269.99,0.02,0.2705,0,17.839,1,0.6,4.5,0.75,0.35,0.0168,0.4,0,21.77,0,0.428,0,270,0,0,1,0.06,0,0,0,270,0.468,0,0.8837,0,270,0.19,-372.55,17.31,-0.001,0,0,3,745.2,8.572,0,981.46,0,0,0,,0,0,0,0,0,0,0,0,0,0,0,0,0,269.83,0,0,0,0,0,0,0,0,0,0,0,0,0,3,3,0,0,VALID,0,0,0,0,0,1,0,0,0,0,0,0,0,0,0,0,0,0,0,0,296.89,1083.54,2,0,0.12,0.12,249,8.33,0.12,0.12,30.14,FLYING,X10-H,0:/Integrated Flight Computer/aircraft/x10_h_cfg.ks (inferred preloaded)
30.5,APPROACH,ILS_TRACK,152.42,152,-0.42,608.98,531.39,0.17,9.6,9.54,269.99,0.022,0.2704,0,17.687,1,0.6,4.5,0.75,0.35,0.0168,0.4,0,21.772,0,0.423,0,270,0,0,1,0.06,0,0,0,270,0.4681,0,0.8837,0,270,0.17,-369.47,17.252,0.003,0,0,3,745.2,8.582,0,978.44,0,0,0,,0,0,0,0,0,0,0,0,0,0,0,0,0,269.83,0,0,0,0,0,0,0,0,0,0,0,0,0,3,3,0,0,VALID,0,0,0,0,0,1,0,0,0,0,0,0,0,0,0,0,0,0,0,0,296.43,1083.51,2,0,0.12,0.12,252,8.33,0.12,0.12,30.5,FLYING,X10-H,0:/Integrated Flight Computer/aircraft/x10_h_cfg.ks (inferred preloaded)
30.86,APPROACH,ILS_TRACK,152.42,152,-0.42,609.04,531.45,0.18,9.6,9.54,269.99,0.023,0.2703,0,17.536,1,0.6,4.5,0.75,0.35,0.0168,0.4,0,21.774,0,0.416,0,270,0,0,1,0.07,0,0,0,270,0.4682,0.0001,0.8836,0,270,0.16,-366.37,17.194,0.005,0,0,3,745.2,8.593,0,975.41,0,0,0,,0,0,0,0,0,0,0,0,0,0,0,0,0,269.83,0,0,0,0,0,0,0,0,0,0,0,0,0,3,3,0,0,VALID,0,0,0,0,0,1,0,0,0,0,0,0,0,0,0,0,0,0,0,0,296,1083.48,2,0,0.12,0.12,255,8.33,0.12,0.12,30.86,FLYING,X10-H,0:/Integrated Flight Computer/aircraft/x10_h_cfg.ks (inferred preloaded)
31.12,APPROACH,ILS_TRACK,152.41,152,-0.41,609.09,531.5,0.19,9.6,9.54,269.99,0.023,0.2702,0,17.429,1,0.6,4.5,0.75,0.35,0.0168,0.4,0,21.775,0,0.41,0,270,0,0,1,0.07,0,0,0,270,0.4683,0,0.8836,0,270,0.15,-364.14,17.153,0.002,0,0,3,745.2,8.6,0,973.22,0,0,0,,0,0,0,0,0,0,0,0,0,0,0,0,0,269.83,0,0,0,0,0,0,0,0,0,0,0,0,0,3,3,0,0,VALID,0,0,0,0,0,1,0,0,0,0,0,0,0,0,0,0,0,0,0,0,295.72,1083.45,2,0,0.12,0.12,257,7.69,0.14,0.12,31.12,FLYING,X10-H,0:/Integrated Flight Computer/aircraft/x10_h_cfg.ks (inferred preloaded)
31.48,APPROACH,ILS_TRACK,152.4,152,-0.4,609.16,531.57,0.2,9.61,9.54,269.99,0.023,0.2702,0,17.284,1,0.6,4.5,0.75,0.35,0.0168,0.4,0,21.778,0,0.4,0,270,0,0,1,0.07,0,0,0,270.01,0.4684,0.0001,0.8835,0,270,0.13,-361.04,17.095,0.005,0,0,3,745.2,8.609,0,970.19,0,0,0,,0,0,0,0,0,0,0,0,0,0,0,0,0,269.83,0,0,0,0,0,0,0,0,0,0,0,0,0,3,3,0,0,VALID,0,0,0,0,0,1,0,0,0,0,0,0,0,0,0,0,0,0,0,0,295.35,1083.4,2,0,0.12,0.12,260,8.33,0.12,0.12,31.48,FLYING,X10-H,0:/Integrated Flight Computer/aircraft/x10_h_cfg.ks (inferred preloaded)
31.84,APPROACH,ILS_TRACK,152.39,152,-0.39,609.23,531.64,0.2,9.61,9.54,269.99,0.023,0.2702,0,17.143,1,0.6,4.5,0.75,0.35,0.0168,0.4,0,21.781,0,0.389,0,270.01,0,0,1,0.08,0,0,0,270.01,0.4685,0.0001,0.8835,0,270.01,0.12,-357.94,17.037,0.007,0,0,3,745.2,8.617,0,967.16,0,0,0,,0,0,0,0,0,0,0,0,0,0,0,0,0,269.83,0,0,0,0,0,0,0,0,0,0,0,0,0,3,3,0,0,VALID,0,0,0,0,0,1,0,0,0,0,0,0,0,0,0,0,0,0,0,0,295.02,1083.35,2,0,0.12,0.12,263,8.33,0.12,0.12,31.84,FLYING,X10-H,0:/Integrated Flight Computer/aircraft/x10_h_cfg.ks (inferred preloaded)
32.2,APPROACH,ILS_TRACK,152.38,152,-0.38,609.31,531.72,0.21,9.61,9.54,269.99,0.025,0.2702,0,17.006,1,0.6,4.5,0.75,0.35,0.0168,0.4,0,21.785,0,0.376,0,270.01,0,0,1,0.08,0,0,0,270,0.4685,0.0002,0.8834,0,270.01,0.11,-354.83,16.979,0.009,0,0,3,745.2,8.625,0,964.13,0,0,0,,0,0,0,0,0,0,0,0,0,0,0,0,0,269.83,0,0,0,0,0,0,0,0,0,0,0,0,0,3,3,0,0,VALID,0,0,0,0,0,1,0,0,0,0,0,0,0,0,0,0,0,0,0,0,294.73,1083.29,2,0,0.12,0.12,266,8.33,0.12,0.12,32.2,FLYING,X10-H,0:/Integrated Flight Computer/aircraft/x10_h_cfg.ks (inferred preloaded)
32.56,APPROACH,ILS_TRACK,152.36,152,-0.36,609.39,531.79,0.22,9.62,9.54,269.99,0.025,0.2702,0,16.874,1,0.6,4.5,0.75,0.35,0.0168,0.4,0,21.789,0,0.362,0,270,0,0,1,0.08,0,0,0,270.01,0.4686,0.0001,0.8834,0,270,0.09,-351.73,16.921,0.004,0,0,3,745.2,8.633,0,961.11,0,0,0,,0,0,0,0,0,0,0,0,0,0,0,0,0,269.83,0,0,0,0,0,0,0,0,0,0,0,0,0,3,3,0,0,VALID,0,0,0,0,0,1,0,0,0,0,0,0,0,0,0,0,0,0,0,0,294.47,1083.22,2,0,0.12,0.12,269,8.33,0.12,0.12,32.56,FLYING,X10-H,0:/Integrated Flight Computer/aircraft/x10_h_cfg.ks (inferred preloaded)
32.92,APPROACH,ILS_TRACK,152.35,152,-0.35,609.47,531.87,0.23,9.62,9.54,269.99,0.026,0.2703,0,16.747,1,0.6,4.5,0.75,0.35,0.0168,0.4,0,21.793,0,0.347,0,270,0,0,1,0.09,0,0,0,270.01,0.4687,0,0.8834,0,270,0.08,-348.62,16.864,0.002,0,0,3,745.2,8.64,0,958.08,0,0,0,,0,0,0,0,0,0,0,0,0,0,0,0,0,269.83,0,0,0,0,0,0,0,0,0,0,0,0,0,3,3,0,0,VALID,0,0,0,0,0,1,0,0,0,0,0,0,0,0,0,0,0,0,0,0,294.25,1083.15,2,0,0.12,0.12,272,8.33,0.12,0.12,32.92,FLYING,X10-H,0:/Integrated Flight Computer/aircraft/x10_h_cfg.ks (inferred preloaded)
33.28,APPROACH,ILS_TRACK,152.33,152,-0.33,609.56,531.96,0.24,9.63,9.54,269.99,0.026,0.2704,0,16.626,1,0.6,4.5,0.75,0.35,0.0168,0.4,0,21.797,0,0.331,0,270.01,0,0,1,0.09,0,0,0,270.01,0.4688,0.0001,0.8833,0,270.01,0.07,-345.5,16.806,0.009,0,0,3,745.2,8.647,0,955.05,0,0,0,,0,0,0,0,0,0,0,0,0,0,0,0,0,269.83,0,0,0,0,0,0,0,0,0,0,0,0,0,3,3,0,0,VALID,0,0,0,0,0,1,0,0,0,0,0,0,0,0,0,0,0,0,0,0,294.06,1083.08,2,0,0.12,0.12,275,8.33,0.12,0.12,33.28,FLYING,X10-H,0:/Integrated Flight Computer/aircraft/x10_h_cfg.ks (inferred preloaded)
33.54,APPROACH,ILS_TRACK,152.32,152,-0.32,609.62,532.02,0.24,9.63,9.54,269.99,0.027,0.2705,0,16.542,1,0.6,4.5,0.75,0.35,0.0168,0.4,0,21.801,0,0.32,0,270.01,0,0,1,0.09,0,0,0,270.01,0.4689,0.0001,0.8833,0,270.01,0.06,-343.26,16.764,0.006,0,0,3,745.2,8.651,0,952.87,0,0,0,,0,0,0,0,0,0,0,0,0,0,0,0,0,269.83,0,0,0,0,0,0,0,0,0,0,0,0,0,3,3,0,0,VALID,0,0,0,0,0,1,0,0,0,0,0,0,0,0,0,0,0,0,0,0,293.94,1083.02,2,0,0.12,0.12,277,7.69,0.14,0.12,33.54,FLYING,X10-H,0:/Integrated Flight Computer/aircraft/x10_h_cfg.ks (inferred preloaded)
33.9,APPROACH,ILS_TRACK,152.3,152,-0.3,609.71,532.11,0.25,9.63,9.55,269.99,0.028,0.2707,0,16.431,1,0.6,4.5,0.75,0.35,0.0168,0.4,0,21.806,0,0.302,0,270.01,0,0,1,0.09,0,0,0,270,0.4689,0.0001,0.8832,0,270.01,0.05,-340.14,16.706,0.008,0,0,3,745.2,8.657,0,949.84,0,0,0,,0,0,0,0,0,0,0,0,0,0,0,0,0,269.83,0,0,0,0,0,0,0,0,0,0,0,0,0,3,3,0,0,VALID,0,0,0,0,0,1,0,0,0,0,0,0,0,0,0,0,0,0,0,0,293.8,1082.94,2,0,0.12,0.12,280,8.33,0.12,0.12,33.9,FLYING,X10-H,0:/Integrated Flight Computer/aircraft/x10_h_cfg.ks (inferred preloaded)
34.26,APPROACH,ILS_TRACK,152.28,152,-0.28,609.8,532.2,0.26,9.64,9.55,269.99,0.029,0.2708,0,16.326,1,0.6,4.5,0.75,0.35,0.0168,0.4,0,21.811,0,0.285,0,270.01,0,0,1,0.1,0,0,0,270.01,0.469,0.0001,0.8832,0,270.01,0.04,-337.02,16.649,0.005,0,0,3,745.2,8.663,0,946.81,0,0,0,,0,0,0,0,0,0,0,0,0,0,0,0,0,269.83,0,0,0,0,0,0,0,0,0,0,0,0,0,3,3,0,0,VALID,0,0,0,0,0,1,0,0,0,0,0,0,0,0,0,0,0,0,0,0,293.71,1082.86,2,0,0.12,0.12,283,8.33,0.12,0.12,34.26,FLYING,X10-H,0:/Integrated Flight Computer/aircraft/x10_h_cfg.ks (inferred preloaded)
34.62,APPROACH,ILS_TRACK,152.27,152,-0.27,609.89,532.29,0.26,9.64,9.55,269.99,0.03,0.271,0,16.228,1,0.6,4.5,0.75,0.35,0.0168,0.4,0,21.816,0,0.267,0,270.01,0,0,1,0.1,0,0,0,270.01,0.4691,0.0001,0.8831,0,270.01,0.02,-333.9,16.591,0.006,0,0,3,745.2,8.668,0,943.79,0,0,0,,0,0,0,0,0,0,0,0,0,0,0,0,0,269.83,0,0,0,0,0,0,0,0,0,0,0,0,0,3,3,0,0,VALID,0,0,0,0,0,1,0,0,0,0,0,0,0,0,0,0,0,0,0,0,293.64,1082.78,2,0,0.12,0.12,286,8.33,0.12,0.12,34.62,FLYING,X10-H,0:/Integrated Flight Computer/aircraft/x10_h_cfg.ks (inferred preloaded)
34.98,APPROACH,ILS_TRACK,152.25,152,-0.25,609.99,532.39,0.27,9.64,9.55,269.99,0.031,0.2711,0,16.136,1,0.6,4.5,0.75,0.35,0.0168,0.4,0,21.821,0,0.248,0,270.01,0,0,1,0.1,0,0,0,270.01,0.4692,0.0001,0.8831,0,270.01,0.01,-330.78,16.533,0.007,0,0,3,745.2,8.673,0,940.76,0,0,0,,0,0,0,0,0,0,0,0,0,0,0,0,0,269.83,0,0,0,0,0,0,0,0,0,0,0,0,0,3,3,0,0,VALID,0,0,0,0,0,1,0,0,0,0,0,0,0,0,0,0,0,0,0,0,293.51,1082.69,2,0,0.12,0.12,289,8.33,0.12,0.12,34.98,FLYING,X10-H,0:/Integrated Flight Computer/aircraft/x10_h_cfg.ks (inferred preloaded)
35.34,APPROACH,ILS_TRACK,152.23,152,-0.23,610.09,532.49,0.27,9.65,9.55,269.99,0.031,0.2714,0,16.052,1,0.6,4.5,0.75,0.35,0.0168,0.4,0,21.826,0,0.23,0,270.01,0,0,1,0.1,0,0,0,270.01,0.4693,0.0001,0.8831,0,270.01,0,-327.66,16.475,0.005,0,0,3,745.2,8.676,0,937.73,0,0,0,,0,0,0,0,0,0,0,0,0,0,0,0,0,269.83,0,0,0,0,0,0,0,0,0,0,0,0,0,3,3,0,0,VALID,0,0,0,0,0,1,0,0,0,0,0,0,0,0,0,0,0,0,0,0,293.76,1082.61,2,0,0.12,0.12,292,8.33,0.12,0.12,35.34,FLYING,X10-H,0:/Integrated Flight Computer/aircraft/x10_h_cfg.ks (inferred preloaded)
35.7,APPROACH,ILS_TRACK,152.21,152,-0.21,610.19,532.58,0.28,9.65,9.55,269.99,0.031,0.2713,0,15.973,1,0.6,4.5,0.75,0.35,0.0168,0.4,0,21.831,0,0.212,0,270.01,0,0,1,0.1,0,0,0,270.01,0.4694,0.0001,0.883,0,270.01,-0.01,-324.53,16.418,0.006,0,0,3,745.2,8.683,0,934.71,0,0,0,,0,0,0,0,0,0,0,0,0,0,0,0,0,269.83,0,0,0,0,0,0,0,0,0,0,0,0,0,3,3,0,0,VALID,0,0,0,0,0,1,0,0,0,0,0,0,0,0,0,0,0,0,0,0,293.62,1082.52,2,0,0.12,0.12,295,8.33,0.12,0.12,35.7,FLYING,X10-H,0:/Integrated Flight Computer/aircraft/x10_h_cfg.ks (inferred preloaded)
35.96,APPROACH,ILS_TRACK,152.2,152,-0.2,610.26,532.66,0.28,9.65,9.56,269.99,0.031,0.2714,0,15.921,1,0.6,4.5,0.75,0.35,0.0168,0.4,0,21.835,0,0.198,0,270.01,0,0,1,0.11,0,0,0,270.01,0.4694,0.0001,0.883,0,270.01,-0.01,-322.27,16.376,0.007,0,0,3,745.2,8.684,0,932.52,0,0,0,,0,0,0,0,0,0,0,0,0,0,0,0,0,269.83,0,0,0,0,0,0,0,0,0,0,0,0,0,3,3,0,0,VALID,0,0,0,0,0,1,0,0,0,0,0,0,0,0,0,0,0,0,0,0,293.72,1082.46,2,0,0.12,0.12,297,7.69,0.14,0.12,35.96,FLYING,X10-H,0:/Integrated Flight Computer/aircraft/x10_h_cfg.ks (inferred preloaded)
36.32,APPROACH,ILS_TRACK,152.18,152,-0.18,610.36,532.76,0.28,9.66,9.56,270,0.032,0.2715,0,15.854,1,0.6,4.5,0.75,0.35,0.0168,0.4,0,21.84,0,0.18,0,270.01,0,0,1,0.11,0,0,0,270.01,0.4695,0.0001,0.8829,0,270.01,-0.02,-319.15,16.318,0.006,0,0,3,745.2,8.688,0,929.5,0,0,0,,0,0,0,0,0,0,0,0,0,0,0,0,0,269.83,0,0,0,0,0,0,0,0,0,0,0,0,0,3,3,0,0,VALID,0,0,0,0,0,1,0,0,0,0,0,0,0,0,0,0,0,0,0,0,293.85,1082.38,2,0,0.12,0.12,300,8.33,0.12,0.12,36.32,FLYING,X10-H,0:/Integrated Flight Computer/aircraft/x10_h_cfg.ks (inferred preloaded)
36.68,APPROACH,ILS_TRACK,152.16,152,-0.16,610.47,532.86,0.29,9.66,9.56,270,0.033,0.2715,0,15.793,1,0.6,4.5,0.75,0.35,0.0168,0.4,0,21.845,0,0.162,0,270.01,0,0,1,0.11,0,0,0,270.01,0.4696,0.0001,0.8829,0,270.01,-0.03,-316.02,16.261,0.007,0,0,3,745.2,8.692,0,926.47,0,0,0,,0,0,0,0,0,0,0,0,0,0,0,0,0,269.83,0,0,0,0,0,0,0,0,0,0,0,0,0,3,3,0,0,VALID,0,0,0,0,0,1,0,0,0,0,0,0,0,0,0,0,0,0,0,0,293.79,1082.29,2,0,0.12,0.12,303,8.33,0.12,0.12,36.68,FLYING,X10-H,0:/Integrated Flight Computer/aircraft/x10_h_cfg.ks (inferred preloaded)
37.04,APPROACH,ILS_TRACK,152.14,152,-0.14,610.57,532.97,0.29,9.66,9.56,270,0.031,0.2717,0,15.739,1,0.6,4.5,0.75,0.35,0.0168,0.4,0,21.85,0,0.144,0,270,0,0,1,0.11,0,0,0,270.01,0.4697,0.0001,0.8828,0,270,-0.04,-312.89,16.203,0.004,0,0,3,745.2,8.695,0,923.45,0,0,0,,0,0,0,0,0,0,0,0,0,0,0,0,0,269.83,0,0,0,0,0,0,0,0,0,0,0,0,0,3,3,0,0,VALID,0,0,0,0,0,1,0,0,0,0,0,0,0,0,0,0,0,0,0,0,294.02,1082.21,2,0,0.12,0.12,306,8.33,0.12,0.12,37.04,FLYING,X10-H,0:/Integrated Flight Computer/aircraft/x10_h_cfg.ks (inferred preloaded)
37.4,APPROACH,ILS_TRACK,152.13,152,-0.13,610.68,533.07,0.3,9.67,9.56,270,0.032,0.2718,0,15.691,1,0.6,4.5,0.75,0.35,0.0168,0.4,0,21.855,0,0.127,0,270.01,0,0,1,0.11,0,0,0,270.01,0.4698,0.0001,0.8828,0,270.01,-0.05,-309.76,16.145,0.008,0,0,3,745.2,8.698,0,920.43,0,0,0,,0,0,0,0,0,0,0,0,0,0,0,0,0,269.83,0,0,0,0,0,0,0,0,0,0,0,0,0,3,3,0,0,VALID,0,0,0,0,0,1,0,0,0,0,0,0,0,0,0,0,0,0,0,0,294.03,1082.13,2,0,0.12,0.12,309,8.33,0.12,0.12,37.4,FLYING,X10-H,0:/Integrated Flight Computer/aircraft/x10_h_cfg.ks (inferred preloaded)
37.76,APPROACH,ILS_TRACK,152.11,152,-0.11,610.79,533.18,0.3,9.67,9.56,270,0.032,0.272,0,15.65,1,0.6,4.5,0.75,0.35,0.0168,0.4,0,21.86,0,0.11,0,270,0,0,1,0.11,0,0,0,270.01,0.4698,0.0001,0.8827,0,270,-0.05,-306.62,16.088,0.004,0,0,3,745.2,8.699,0,917.4,0,0,0,,0,0,0,0,0,0,0,0,0,0,0,0,0,269.83,0,0,0,0,0,0,0,0,0,0,0,0,0,3,3,0,0,VALID,0,0,0,0,0,1,0,0,0,0,0,0,0,0,0,0,0,0,0,0,294.23,1082.05,2,0,0.12,0.12,312,8.33,0.12,0.12,37.76,FLYING,X10-H,0:/Integrated Flight Computer/aircraft/x10_h_cfg.ks (inferred preloaded)
38.12,APPROACH,ILS_TRACK,152.09,152,-0.09,610.9,533.29,0.3,9.67,9.56,270,0.032,0.2721,0,15.614,1,0.6,4.5,0.75,0.35,0.0168,0.4,0,21.864,0,0.094,0,270.01,0,0,1,0.11,0,0,0,270.01,0.4699,0.0002,0.8827,0,270.01,-0.06,-303.49,16.03,0.009,0,0,3,745.2,8.704,0,914.38,0,0,0,,0,0,0,0,0,0,0,0,0,0,0,0,0,269.83,0,0,0,0,0,0,0,0,0,0,0,0,0,3,3,0,0,VALID,0,0,0,0,0,1,0,0,0,0,0,0,0,0,0,0,0,0,0,0,294.28,1081.97,2,0,0.12,0.12,315,8.33,0.12,0.12,38.12,FLYING,X10-H,0:/Integrated Flight Computer/aircraft/x10_h_cfg.ks (inferred preloaded)
38.38,APPROACH,ILS_TRACK,152.08,152,-0.08,610.98,533.37,0.31,9.67,9.57,270,0.032,0.2723,0,15.592,1,0.6,4.5,0.75,0.35,0.0168,0.4,0,21.868,0,0.082,0,270.01,0,0,1,0.11,0,0,0,270.01,0.47,0.0001,0.8827,0,270.01,-0.07,-301.23,15.988,0.007,0,0,3,745.2,8.705,0,912.2,0,0,0,,0,0,0,0,0,0,0,0,0,0,0,0,0,269.83,0,0,0,0,0,0,0,0,0,0,0,0,0,3,3,0,0,VALID,0,0,0,0,0,1,0,0,0,0,0,0,0,0,0,0,0,0,0,0,294.36,1081.91,2,0,0.12,0.12,317,7.69,0.14,0.12,38.38,FLYING,X10-H,0:/Integrated Flight Computer/aircraft/x10_h_cfg.ks (inferred preloaded)
