t_s,phase,subphase,ias_ms,vapp_ms,spd_err_ms,agl_m,vs_ms,pitch_deg,aoa_deg,hdg_deg,bank_deg,thr_cmd,thr_cur,thr_intg,at_gain,at_tau_s,at_a_up,at_a_dn,at_kp_thr,at_ki_spd,at_thr_slew,aa_hdg_cmd_deg,aa_fpa_cmd_deg,ils_loc_m,ils_gs_m,ils_dist_km,loc_corr_deg,gs_corr_deg,flare_fpa_cmd,flare_tgt_vs,flare_frac,steer_hdg_deg,steer_blend,ro_loc_corr_deg,ro_hdg_err_deg,ro_yaw_tgt,ro_yaw_scale,ro_yaw_gate,yaw_cmd,roll_cmd,pitch_cmd,ro_pitch_tgt_deg,ro_pitch_err_deg,ro_pitch_ff,ro_roll_assist,flaps_cur,flaps_tgt,asc_j_ab,asc_j_rk,asc_validity,asc_q_pa,asc_q_raw_pa,asc_mach,asc_apo_m,asc_drag_n,asc_w_prop,asc_edot_aero,asc_edot_orb,asc_pitch_bias,asc_blend,asc_spooling,asc_ab_thr_ratio,asc_ab_t_now,asc_ab_t_avail,asc_ab_ign_on,asc_ab_flameouts,asc_rk_t_now,asc_rk_t_avail,asc_rk_ign_on,asc_rk_flameouts,ship_thrust,ship_avail_thrust,ship_ign_on,ship_flameouts,ifc_raw_dt_s,ifc_dt_s,ifc_loop_n,ifc_hz_est,ifc_raw_dt_max_s,ifc_raw_dt_min_s,phase_el_s,status
1.2,APPROACH,FLY_TO_FIX,236.65,140.8,-95.85,1350.04,-0.2,4.98,5.34,270.04,0.068,0,0,0,1,0.6,0.9,0.75,0.35,0.0168,0.4,265.83,0,0,0,-56.245,0,0,0,0,0,270.04,0,0,0,0,0,0,0,0,0,0,0,0,0,0,0,0,0,VALID,0,0,0,0,0,1,0,0,0,0,0,0,0,0,0,0,0,0,0,0,304.21,3797.95,6,0,0.96,0.5,1,1.96,0.96,0.02,1.26,FLYING
1.88,APPROACH,FLY_TO_FIX,235.29,141.6,-93.69,1355.91,2.84,9.3,12.28,270.43,0.055,0,0,0,1,0.6,1.375,0.75,0.35,0.0168,0.4,265.82,0,0,0,-56.081,0,0,0,0,0,270.04,0,0,0,0,0,0,0,0,0,0,0,0,0,0,0,0,0,VALID,0,0,0,0,0,1,0,0,0,0,0,0,0,0,0,0,0,0,0,0,238.59,3782.57,6,0,0.68,0.5,2,1.52,0.96,0.68,1.92,FLYING
2.54,APPROACH,FLY_TO_FIX,229.52,142.4,-87.12,1367.48,15.33,18.97,17.78,271.84,-0.199,0.2,0,-20,1,0.6,1.969,0.805,0.35,0.0168,0.4,265.82,0,0,0,-55.919,0,0,0,0,0,270.04,0,0,0,0,0,0,0,0,0,0,0,0,0,0,0,0,0,VALID,0,0,0,0,0,1,0,0,0,0,0,0,0,0,0,0,0,0,0,0,183.35,3718.86,6,0,0.66,0.5,3,1.52,0.68,0.66,2.58,FLYING
3.18,APPROACH,FLY_TO_FIX,221.08,143.2,-77.88,1385.1,28.81,24.99,19.51,273.74,-0.698,0.4,0,-20,1,0.6,2.498,0.805,0.35,0.0168,0.4,265.81,0,0,0,-55.766,0,0,0,0,0,270.04,0,0,0,0,0,0,0,0,0,0,0,0,0,0,0,0,0,VALID,0,0,0,0,0,1,0,0,0,0,0,0,0,0,0,0,0,0,0,0,239.25,3620.73,6,0,0.64,0.5,4,1.56,0.66,0.64,3.22,FLYING
3.82,APPROACH,FLY_TO_FIX,212.04,144,-68.04,1409.66,40.59,28.68,19.55,274.42,-0.844,0.6,0,-20,1,0.6,2.963,0.805,0.35,0.0168,0.4,265.8,0,0,0,-55.62,0,0,0,0,0,270.04,0,0,0,0,0,0,0,0,0,0,0,0,0,0,0,0,0,VALID,0,0,0,0,0,1,0,0,0,0,0,0,0,0,0,0,0,0,0,0,370.72,3510.55,6,0,0.64,0.5,5,1.56,0.64,0.64,3.86,FLYING
4.46,APPROACH,FLY_TO_FIX,203.42,144.8,-58.62,1440.49,49.53,31.69,19.55,274.47,-0.761,0.8,0,-20,1,0.6,3.37,0.805,0.35,0.0168,0.4,265.8,0,0,0,-55.48,0,0,0,0,0,270.04,0,0,0,0,0,0,0,0,0,0,0,0,0,0,0,0,0,VALID,0,0,0,0,0,1,0,0,0,0,0,0,0,0,0,0,0,0,0,0,559.52,3401.89,6,0,0.64,0.5,6,1.56,0.64,0.64,4.5,FLYING
5.1,APPROACH,FLY_TO_FIX,195.32,145.6,-49.72,1476.12,56.7,34.28,19.56,274.49,-0.733,1,0,-20,1,0.6,3.725,0.805,0.35,0.0168,0.4,265.79,0,0,0,-55.346,0,0,0,0,0,270.04,0,0,0,0,0,0,0,0,0,0,0,0,0,0,0,0,0,VALID,0,0,0,0,0,1,0,0,0,0,0,0,0,0,0,0,0,0,0,0,792.47,3297.2,6,0,0.64,0.5,7,1.56,0.64,0.64,5.14,FLYING
5.74,APPROACH,FLY_TO_FIX,187.97,146.4,-41.57,1515.87,62.89,36.7,19.57,274.67,-0.751,1,0,-20,1,0.6,4.033,0.805,0.35,0.0168,0.4,265.78,0,0,0,-55.219,0,0,0,0,0,270.04,0,0,0,0,0,0,0,0,0,0,0,0,0,0,0,0,0,VALID,0,0,0,0,0,1,0,0,0,0,0,0,0,0,0,0,0,0,0,0,1059.89,3200.37,6,0,0.64,0.5,8,1.56,0.64,0.64,5.78,FLYING
6.38,APPROACH,FLY_TO_FIX,181.33,147.2,-34.13,1559.19,68.28,38.98,19.57,275.09,-0.91,1,0,-20,1,0.6,4.3,0.805,0.35,0.0168,0.4,265.78,0,0,0,-55.097,0,0,0,0,0,270.04,0,0,0,0,0,0,0,0,0,0,0,0,0,0,0,0,0,VALID,0,0,0,0,0,1,0,0,0,0,0,0,0,0,0,0,0,0,0,0,1281.32,3111.75,6,0,0.64,0.5,9,1.56,0.64,0.64,6.42,FLYING
7.04,APPROACH,FLY_TO_FIX,175.1,148,-27.1,1607.12,73.1,41.21,19.56,275.13,-0.888,1,0,-20,1,0.6,4.5,0.805,0.35,0.0168,0.4,265.77,0,0,0,-54.976,0,0,0,0,0,270.04,0,0,0,0,0,0,0,0,0,0,0,0,0,0,0,0,0,VALID,0,0,0,0,0,1,0,0,0,0,0,0,0,0,0,0,0,0,0,0,1467.72,3027.92,6,0,0.66,0.5,10,1.52,0.66,0.64,7.08,FLYING
7.7,APPROACH,FLY_TO_FIX,169.37,148.8,-20.57,1657.91,77.26,43.33,19.57,275.13,-0.846,1,0,-20,1,0.6,4.5,0.805,0.35,0.0168,0.4,265.77,0,0,0,-54.861,0,0,0,0,0,270.04,0,0,0,0,0,0,0,0,0,0,0,0,0,0,0,0,0,VALID,0,0,0,0,0,1,0,0,0,0,0,0,0,0,0,0,0,0,0,0,1618.69,2950.35,6,0,0.66,0.5,11,1.52,0.66,0.66,7.74,FLYING
8.36,APPROACH,FLY_TO_FIX,164.05,149,-15.05,1711.14,80.82,45.33,19.57,275.13,-0.813,1,0,-20,1,0.6,4.5,0.805,0.35,0.0168,0.4,265.76,0,0,0,-54.751,0,0,0,0,0,270.04,0,0,0,0,0,0,0,0,0,0,0,0,0,0,0,0,0,VALID,0,0,0,0,0,1,0,0,0,0,0,0,0,0,0,0,0,0,0,0,1740.35,2878.33,6,0,0.66,0.5,12,1.52,0.66,0.66,8.4,FLYING
9.02,APPROACH,FLY_TO_FIX,159.08,149,-10.08,1766.45,83.85,47.23,19.57,275.13,-0.772,1,0,-20,1,0.6,4.5,0.805,0.35,0.0168,0.4,265.76,0,0,0,-54.645,0,0,0,0,0,270.04,0,0,0,0,0,0,0,0,0,0,0,0,0,0,0,0,0,VALID,0,0,0,0,0,1,0,0,0,0,0,0,0,0,0,0,0,0,0,0,1837.44,2810.87,6,0,0.66,0.5,13,1.52,0.66,0.66,9.06,FLYING
9.68,APPROACH,FLY_TO_FIX,154.39,149,-5.39,1823.52,86.41,49.02,19.57,275.13,-0.738,1,0,-20,1,0.6,4.5,0.805,0.35,0.0168,0.4,265.75,0,0,0,-54.544,0,0,0,0,0,270.04,0,0,0,0,0,0,0,0,0,0,0,0,0,0,0,0,0,VALID,0,0,0,0,0,1,0,0,0,0,0,0,0,0,0,0,0,0,0,0,1914.06,2747.47,6,0,0.66,0.5,14,1.52,0.66,0.66,9.72,FLYING
10.34,APPROACH,FLY_TO_FIX,149.94,149,-0.94,1882.06,88.53,50.72,19.57,275.12,-0.693,1,0,-20,1,0.6,4.5,0.805,0.35,0.0168,0.4,265.75,0,0,0,-54.447,0,0,0,0,0,270.04,0,0,0,0,0,0,0,0,0,0,0,0,0,0,0,0,0,VALID,0,0,0,0,0,1,0,0,0,0,0,0,0,0,0,0,0,0,0,0,1973.43,2687.45,6,0,0.66,0.5,15,1.52,0.66,0.66,10.38,FLYING
10.98,APPROACH,FLY_TO_FIX,145.69,149,3.31,1941.8,90.29,52.33,19.57,275.1,-0.657,1,0,-19.9,1,0.6,4.5,0.805,0.35,0.0168,0.4,265.75,0,0,0,-54.353,0,0,0,0,0,270.04,0,0,0,0,0,0,0,0,0,0,0,0,0,0,0,0,0,VALID,0,0,0,0,0,1,0,0,0,0,0,0,0,0,0,0,0,0,0,0,2018.35,2630.46,6,0,0.66,0.5,16,1.52,0.66,0.66,11.04,FLYING
11.64,APPROACH,FLY_TO_FIX,141.67,149,7.33,2002.63,91.99,53.9,19.58,275.1,-0.624,1,0,-19.8,1,0.6,4.5,0.805,0.35,0.0168,0.4,265.74,0,0,0,-54.264,0,0,0,0,0,270.04,0,0,0,0,0,0,0,0,0,0,0,0,0,0,0,0,0,VALID,0,0,0,0,0,1,0,0,0,0,0,0,0,0,0,0,0,0,0,0,2051.6,2576.8,6,0,0.66,0.5,17,1.52,0.66,0.66,11.7,FLYING
12.3,APPROACH,FLY_TO_FIX,137.83,149,11.17,2064.6,93.63,55.59,19.57,275.08,-0.567,1,0,-19.701,1,0.6,4.5,0.805,0.35,0.0168,0.4,265.74,0,0,0,-54.178,0,0,0,0,0,270.04,0,0,0,0,0,0,0,0,0,0,0,0,0,0,0,0,0,VALID,0,0,0,0,0,1,0,0,0,0,0,0,0,0,0,0,0,0,0,0,2075.03,2525.9,6,0,0.66,0.5,18,1.52,0.66,0.66,12.36,FLYING
12.96,APPROACH,FLY_TO_FIX,134.09,149,14.91,2127.47,94.9,57.21,19.57,275.04,-0.505,1,0,-19.603,1,0.6,4.5,0.805,0.35,0.0168,0.4,265.74,0,0,0,-54.096,0,0,0,0,0,270.04,0,0,0,0,0,0,0,0,0,0,0,0,0,0,0,0,0,VALID,0,0,0,0,0,1,0,0,0,0,0,0,0,0,0,0,0,0,0,0,2089.52,2476.66,6,0,0.66,0.5,19,1.52,0.66,0.66,13.02,FLYING
13.62,APPROACH,FLY_TO_FIX,130.42,149,18.58,2191,95.82,58.74,19.57,274.99,-0.445,1,0,-19.505,1,0.6,4.5,0.805,0.35,0.0168,0.4,265.73,0,0,0,-54.017,0,0,0,0,0,270.04,0,0,0,0,0,0,0,0,0,0,0,0,0,0,0,0,0,VALID,0,0,0,0,0,1,0,0,0,0,0,0,0,0,0,0,0,0,0,0,2096.46,2428.94,6,0,0.66,0.5,20,1.52,0.66,0.66,13.68,FLYING
14.28,APPROACH,FLY_TO_FIX,126.83,149,22.17,2254.97,96.4,60.2,19.57,274.91,-0.376,1,0,-19.407,1,0.6,4.5,0.805,0.35,0.0168,0.4,265.73,0,0,0,-53.942,0,0,0,0,0,270.04,0,0,0,0,0,0,0,0,0,0,0,0,0,0,0,0,0,VALID,0,0,0,0,0,1,0,0,0,0,0,0,0,0,0,0,0,0,0,0,2097.1,2382.68,6,0,0.66,0.5,21,1.52,0.66,0.66,14.34,FLYING
14.94,APPROACH,FLY_TO_FIX,123.3,149,25.7,2319.16,96.67,61.57,19.57,274.81,-0.303,1,0,-19.31,1,0.6,4.5,0.805,0.35,0.0168,0.4,265.73,0,0,0,-53.87,0,0,0,0,0,270.04,0,0,0,0,0,0,0,0,0,0,0,0,0,0,0,0,0,VALID,0,0,0,0,0,1,0,0,0,0,0,0,0,0,0,0,0,0,0,0,2092.52,2337.86,6,0,0.66,0.5,22,1.52,0.66,0.66,15,FLYING
15.6,APPROACH,FLY_TO_FIX,119.84,149,29.16,2383.39,96.65,62.87,19.57,274.7,-0.227,1,0,-19.214,1,0.6,4.5,0.805,0.35,0.0168,0.4,265.73,0,0,0,-53.801,0,0,0,0,0,270.04,0,0,0,0,0,0,0,0,0,0,0,0,0,0,0,0,0,VALID,0,0,0,0,0,1,0,0,0,0,0,0,0,0,0,0,0,0,0,0,2083.65,2294.46,6,0,0.66,0.5,23,1.52,0.66,0.66,15.66,FLYING
16.26,APPROACH,FLY_TO_FIX,116.43,149,32.57,2447.47,96.36,64.08,19.57,274.55,-0.148,1,0,-19.118,1,0.6,4.5,0.805,0.35,0.0168,0.4,265.72,0,0,0,-53.735,0,0,0,0,0,270.04,0,0,0,0,0,0,0,0,0,0,0,0,0,0,0,0,0,VALID,0,0,0,0,0,1,0,0,0,0,0,0,0,0,0,0,0,0,0,0,2071.28,2252.45,6,0,0.66,0.5,24,1.52,0.66,0.66,16.32,FLYING
16.92,APPROACH,FLY_TO_FIX,113.08,149,35.92,2511.23,95.82,65.21,19.57,274.37,-0.061,1,0,-19.022,1,0.6,4.5,0.805,0.35,0.0168,0.4,265.72,0,0,0,-53.672,0,0,0,0,0,270.04,0,0,0,0,0,0,0,0,0,0,0,0,0,0,0,0,0,VALID,0,0,0,0,0,1,0,0,0,0,0,0,0,0,0,0,0,0,0,0,2056.03,2211.74,6,0,0.66,0.5,25,1.52,0.66,0.66,16.98,FLYING
17.58,APPROACH,FLY_TO_FIX,109.77,149,39.23,2574.52,95.05,66.27,19.57,274.17,0.023,1,0,-18.927,1,0.6,4.5,0.805,0.35,0.0168,0.4,265.72,0,0,0,-53.612,0,0,0,0,0,270.04,0,0,0,0,0,0,0,0,0,0,0,0,0,0,0,0,0,VALID,0,0,0,0,0,1,0,0,0,0,0,0,0,0,0,0,0,0,0,0,2038.56,2172.43,6,0,0.66,0.5,26,1.52,0.66,0.66,17.64,FLYING
18.24,APPROACH,FLY_TO_FIX,106.53,149,42.47,2637.19,94.06,67.24,19.57,273.93,0.116,1,0,-18.832,1,0.6,4.5,0.805,0.35,0.0168,0.4,265.72,0,0,0,-53.554,0,0,0,0,0,270.04,0,0,0,0,0,0,0,0,0,0,0,0,0,0,0,0,0,VALID,0,0,0,0,0,1,0,0,0,0,0,0,0,0,0,0,0,0,0,0,2019.43,2134.56,6,0,0.66,0.5,27,1.52,0.66,0.66,18.3,FLYING
18.9,APPROACH,FLY_TO_FIX,103.33,149,45.67,2699.1,92.87,68.13,19.57,273.63,0.229,1,0,-18.738,1,0.6,4.5,0.805,0.35,0.0168,0.4,265.72,0,0,0,-53.499,0,0,0,0,0,270.04,0,0,0,0,0,0,0,0,0,0,0,0,0,0,0,0,0,VALID,0,0,0,0,0,1,0,0,0,0,0,0,0,0,0,0,0,0,0,0,1998.79,2097.78,6,0,0.66,0.5,28,1.52,0.66,0.66,18.96,FLYING
19.56,APPROACH,FLY_TO_FIX,100.19,149,48.81,2760.13,91.48,68.93,19.57,273.28,0.342,1,0,-18.645,1,0.6,4.5,0.805,0.35,0.0168,0.4,265.72,0,0,0,-53.446,0,0,0,0,0,270.04,0,0,0,0,0,0,0,0,0,0,0,0,0,0,0,0,0,VALID,0,0,0,0,0,1,0,0,0,0,0,0,0,0,0,0,0,0,0,0,1976.59,2061.69,6,0,0.66,0.5,29,1.52,0.66,0.66,19.62,FLYING
20.22,APPROACH,FLY_TO_FIX,97.09,149,51.91,2820.16,89.93,69.64,19.57,272.9,0.463,1,0,-18.551,1,0.6,4.5,0.805,0.35,0.0168,0.4,265.72,0,0,0,-53.395,0,0,0,0,0,270.04,0,0,0,0,0,0,0,0,0,0,0,0,0,0,0,0,0,VALID,0,0,0,0,0,1,0,0,0,0,0,0,0,0,0,0,0,0,0,0,1953.3,2026.46,6,0,0.66,0.5,30,1.52,0.66,0.66,20.28,FLYING
20.88,APPROACH,FLY_TO_FIX,94.05,149,54.95,2879.08,88.21,70.26,19.57,272.45,0.599,1,0,-18.459,1,0.6,4.5,0.805,0.35,0.0168,0.4,265.72,0,0,0,-53.346,0,0,0,0,0,270.04,0,0,0,0,0,0,0,0,0,0,0,0,0,0,0,0,0,VALID,0,0,0,0,0,1,0,0,0,0,0,0,0,0,0,0,0,0,0,0,1929.35,1992.25,6,0,0.66,0.5,31,1.52,0.66,0.66,20.94,FLYING
21.54,APPROACH,FLY_TO_FIX,91.06,149,57.94,2936.8,86.35,70.79,19.57,271.95,0.746,1,0,-18.366,1,0.6,4.5,0.805,0.35,0.0168,0.4,265.72,0,0,0,-53.299,0,0,0,0,0,270.04,0,0,0,0,0,0,0,0,0,0,0,0,0,0,0,0,0,VALID,0,0,0,0,0,1,0,0,0,0,0,0,0,0,0,0,0,0,0,0,1905.13,1959.22,6,0,0.66,0.5,32,1.52,0.66,0.66,21.6,FLYING
22.2,APPROACH,FLY_TO_FIX,88.12,149,60.88,2993.21,84.36,71.22,19.57,271.4,0.901,1,0,-18.274,1,0.6,4.5,0.805,0.35,0.0168,0.4,265.72,0,0,0,-53.254,0,0,0,0,0,270.04,0,0,0,0,0,0,0,0,0,0,0,0,0,0,0,0,0,VALID,0,0,0,0,0,1,0,0,0,0,0,0,0,0,0,0,0,0,0,0,1881.03,1927.57,6,0,0.66,0.5,33,1.52,0.66,0.66,22.26,FLYING
22.86,APPROACH,FLY_TO_FIX,85.23,149,63.77,3048.23,82.23,71.55,19.57,270.78,1.073,1,0,-18.183,1,0.6,4.5,0.805,0.35,0.0168,0.4,265.72,0,0,0,-53.21,0,0,0,0,0,270.04,0,0,0,0,0,0,0,0,0,0,0,0,0,0,0,0,0,VALID,0,0,0,0,0,1,0,0,0,0,0,0,0,0,0,0,0,0,0,0,1857.45,1897.5,6,0,0.66,0.5,34,1.52,0.66,0.66,22.92,FLYING
23.52,APPROACH,FLY_TO_FIX,82.4,149,66.6,3101.79,80,71.78,19.57,270.12,1.26,1,0,-18.092,1,0.6,4.5,0.805,0.35,0.0168,0.4,265.72,0,0,0,-53.168,0,0,0,0,0,270.04,0,0,0,0,0,0,0,0,0,0,0,0,0,0,0,0,0,VALID,0,0,0,0,0,1,0,0,0,0,0,0,0,0,0,0,0,0,0,0,1834.64,1869.14,6,0,0.66,0.5,35,1.52,0.66,0.66,23.58,FLYING
24.18,APPROACH,FLY_TO_FIX,79.63,149,69.37,3153.82,77.66,71.89,19.57,269.41,1.469,1,0,-18.002,1,0.6,4.5,0.805,0.35,0.0168,0.4,265.72,0,0,0,-53.128,0,0,0,0,0,270.04,0,0,0,0,0,0,0,0,0,0,0,0,0,0,0,0,0,VALID,0,0,0,0,0,1,0,0,0,0,0,0,0,0,0,0,0,0,0,0,1812.93,1842.67,6,0,0.66,0.5,36,1.52,0.66,0.66,24.24,FLYING
24.84,APPROACH,FLY_TO_FIX,76.92,149,72.08,3204.24,75.23,71.89,19.57,268.65,1.694,1,0,-17.912,1,0.6,4.5,0.805,0.35,0.0168,0.4,265.72,0,0,0,-53.088,0,0,0,0,0,270.04,0,0,0,0,0,0,0,0,0,0,0,0,0,0,0,0,0,VALID,0,0,0,0,0,1,0,0,0,0,0,0,0,0,0,0,0,0,0,0,1792.58,1818.25,6,0,0.66,0.5,37,1.52,0.66,0.66,24.9,FLYING
25.5,APPROACH,FLY_TO_FIX,74.28,149,74.72,3253,72.71,71.76,19.57,267.87,1.94,1,0,-17.822,1,0.6,4.5,0.805,0.35,0.0168,0.4,265.72,0,0,0,-53.05,0,0,0,0,0,270.04,0,0,0,0,0,0,0,0,0,0,0,0,0,0,0,0,0,VALID,0,0,0,0,0,1,0,0,0,0,0,0,0,0,0,0,0,0,0,0,1773.79,1795.98,6,0,0.66,0.5,38,1.52,0.66,0.66,25.56,FLYING
26.16,APPROACH,FLY_TO_FIX,71.71,149,77.29,3300.04,70.12,71.5,19.57,267.07,2.211,1,0,-17.733,1,0.6,4.5,0.805,0.35,0.0168,0.4,265.72,0,0,0,-53.013,0,0,0,0,0,270.04,0,0,0,0,0,0,0,0,0,0,0,0,0,0,0,0,0,VALID,0,0,0,0,0,1,0,0,0,0,0,0,0,0,0,0,0,0,0,0,1756.74,1775.95,6,0,0.66,0.5,39,1.52,0.66,0.66,26.22,FLYING
26.82,APPROACH,FLY_TO_FIX,69.21,149,79.79,3345.32,67.47,71.11,19.57,266.25,2.511,1,0,-17.644,1,0.6,4.5,0.805,0.35,0.0168,0.4,265.72,0,0,0,-52.977,0,0,0,0,0,270.04,0,0,0,0,0,0,0,0,0,0,0,0,0,0,0,0,0,VALID,0,0,0,0,0,1,0,0,0,0,0,0,0,0,0,0,0,0,0,0,1741.59,1758.25,6,0,0.66,0.5,40,1.52,0.66,0.66,26.88,FLYING
27.48,APPROACH,FLY_TO_FIX,66.79,149,82.21,3388.79,64.75,70.56,19.57,265.44,2.834,1,0,-17.556,1,0.6,4.5,0.805,0.35,0.0168,0.4,265.72,0,0,0,-52.941,0,0,0,0,0,270.04,0,0,0,0,0,0,0,0,0,0,0,0,0,0,0,0,0,VALID,0,0,0,0,0,1,0,0,0,0,0,0,0,0,0,0,0,0,0,0,1728.47,1742.93,6,0,0.66,0.5,41,1.52,0.66,0.66,27.54,FLYING
28.14,APPROACH,FLY_TO_FIX,64.46,149,84.54,3430.4,61.98,69.86,19.57,264.65,3.19,1,0,-17.468,1,0.6,4.5,0.805,0.35,0.0168,0.4,265.73,0,0,0,-52.906,0,0,0,0,0,270.04,0,0,0,0,0,0,0,0,0,0,0,0,0,0,0,0,0,VALID,0,0,0,0,0,1,0,0,0,0,0,0,0,0,0,0,0,0,0,0,1717.41,1730.01,6,0,0.66,0.5,42,1.52,0.66,0.66,28.2,FLYING
28.8,APPROACH,FLY_TO_FIX,62.23,149,86.77,3470.12,59.17,68.99,19.57,263.88,3.58,1,0,-17.381,1,0.6,4.5,0.805,0.35,0.0168,0.4,265.73,0,0,0,-52.872,0,0,0,0,0,270.04,0,0,0,0,0,0,0,0,0,0,0,0,0,0,0,0,0,VALID,0,0,0,0,0,1,0,0,0,0,0,0,0,0,0,0,0,0,0,0,1708.45,1719.44,6,0,0.66,0.5,43,1.52,0.66,0.66,28.86,FLYING
29.46,APPROACH,FLY_TO_FIX,60.1,149,88.9,3507.9,56.31,67.95,19.57,263.15,4.005,1,0,-17.294,1,0.6,4.5,0.805,0.35,0.0168,0.4,265.73,0,0,0,-52.839,0,0,0,0,0,270.04,0,0,0,0,0,0,0,0,0,0,0,0,0,0,0,0,0,VALID,0,0,0,0,0,1,0,0,0,0,0,0,0,0,0,0,0,0,0,0,1701.54,1711.16,6,0,0.66,0.5,44,1.52,0.66,0.66,29.52,FLYING
30.12,APPROACH,FLY_TO_FIX,58.08,149,90.92,3543.72,53.41,66.7,19.57,262.45,4.474,1,0,-17.208,1,0.6,4.5,0.805,0.35,0.0168,0.4,265.73,0,0,0,-52.805,0,0,0,0,0,270.04,0,0,0,0,0,0,0,0,0,0,0,0,0,0,0,0,0,VALID,0,0,0,0,0,1,0,0,0,0,0,0,0,0,0,0,0,0,0,0,1696.6,1705.03,6,0,0.66,0.5,45,1.52,0.66,0.66,30.18,FLYING
30.78,APPROACH,FLY_TO_FIX,56.2,149,92.8,3577.52,50.48,65.26,19.57,261.8,4.985,1,0,-17.122,1,0.6,4.495,0.805,0.35,0.0168,0.4,265.73,0,0,0,-52.772,0,0,0,0,0,270.04,0,0,0,0,0,0,0,0,0,0,0,0,0,0,0,0,0,VALID,0,0,0,0,0,1,0,0,0,0,0,0,0,0,0,0,0,0,0,0,1693.46,1700.86,6,0,0.66,0.5,46,1.52,0.66,0.66,30.84,FLYING
31.44,APPROACH,FLY_TO_FIX,54.45,149,94.55,3609.28,47.5,63.6,19.56,261.19,5.54,1,0,-17.036,1,0.6,4.457,0.805,0.35,0.0168,0.4,265.73,0,0,0,-52.739,0,0,0,0,0,270.04,0,0,0,0,0,0,0,0,0,0,0,0,0,0,0,0,0,VALID,0,0,0,0,0,1,0,0,0,0,0,0,0,0,0,0,0,0,0,0,1691.92,1698.43,6,0,0.66,0.5,47,1.52,0.66,0.66,31.5,FLYING
32.1,APPROACH,FLY_TO_FIX,52.85,149,96.15,3638.95,44.49,61.72,19.56,260.63,6.141,1,0,-16.951,1,0.6,4.422,0.805,0.35,0.0168,0.4,265.74,0,0,0,-52.706,0,0,0,0,0,270.04,0,0,0,0,0,0,0,0,0,0,0,0,0,0,0,0,0,VALID,0,0,0,0,0,1,0,0,0,0,0,0,0,0,0,0,0,0,0,0,1691.7,1697.43,6,0,0.66,0.5,48,1.52,0.66,0.66,32.16,FLYING
32.76,APPROACH,FLY_TO_FIX,51.42,149,97.58,3666.5,41.44,59.61,19.56,260.11,6.785,1,0,-16.866,1,0.6,4.39,0.805,0.35,0.0168,0.4,265.74,0,0,0,-52.673,0,0,0,0,0,270.04,0,0,0,0,0,0,0,0,0,0,0,0,0,0,0,0,0,VALID,0,0,0,0,0,1,0,0,0,0,0,0,0,0,0,0,0,0,0,0,1692.48,1697.53,6,0,0.66,0.5,49,1.52,0.66,0.66,32.82,FLYING
33.42,APPROACH,FLY_TO_FIX,50.17,149,98.83,3691.86,38.35,57.25,19.56,259.63,7.478,1,0,-16.782,1,0.6,4.361,0.805,0.35,0.0168,0.4,265.74,0,0,0,-52.64,0,0,0,0,0,270.04,0,0,0,0,0,0,0,0,0,0,0,0,0,0,0,0,0,VALID,0,0,0,0,0,1,0,0,0,0,0,0,0,0,0,0,0,0,0,0,1693.57,1697.99,6,0,0.66,0.5,50,1.52,0.66,0.66,33.48,FLYING
34.08,APPROACH,FLY_TO_FIX,49.13,149,99.87,3715,35.2,54.65,19.56,259.18,8.213,1,0,-16.698,1,0.6,4.334,0.805,0.35,0.0168,0.4,265.74,0,0,0,-52.606,0,0,0,0,0,270.04,0,0,0,0,0,0,0,0,0,0,0,0,0,0,0,0,0,VALID,0,0,0,0,0,1,0,0,0,0,0,0,0,0,0,0,0,0,0,0,1694.36,1698.23,6,0,0.66,0.5,51,1.52,0.66,0.66,34.14,FLYING
34.74,APPROACH,FLY_TO_FIX,48.31,149,100.69,3735.86,31.98,51.82,19.56,258.77,8.984,1,0,-16.614,1,0.6,4.309,0.805,0.35,0.0168,0.4,265.75,0,0,0,-52.572,0,0,0,0,0,270.04,0,0,0,0,0,0,0,0,0,0,0,0,0,0,0,0,0,VALID,0,0,0,0,0,1,0,0,0,0,0,0,0,0,0,0,0,0,0,0,1694.79,1698.17,6,0,0.66,0.5,52,1.52,0.66,0.66,34.8,FLYING
35.4,APPROACH,FLY_TO_FIX,47.71,149,101.29,3754.36,28.72,48.73,19.56,258.28,9.842,1,0,-16.531,1,0.6,4.286,0.805,0.35,0.0168,0.4,265.75,0,0,0,-52.537,0,0,0,0,0,270.04,0,0,0,0,0,0,0,0,0,0,0,0,0,0,0,0,0,VALID,0,0,0,0,0,1,0,0,0,0,0,0,0,0,0,0,0,0,0,0,1694.84,1697.79,6,0,0.66,0.5,53,1.52,0.66,0.66,35.46,FLYING
36.06,APPROACH,FLY_TO_FIX,47.36,149,101.64,3770.4,25.37,45.31,19.56,257.1,11.093,1,0,-16.449,1,0.6,4.265,0.805,0.35,0.0168,0.4,265.75,0,0,0,-52.502,0,0,0,0,0,270.04,0,0,0,0,0,0,0,0,0,0,0,0,0,0,0,0,0,VALID,0,0,0,0,0,1,0,0,0,0,0,0,0,0,0,0,0,0,0,0,1694.44,1697.01,6,0,0.66,0.5,54,1.52,0.66,0.66,36.12,FLYING
36.72,APPROACH,FLY_TO_FIX,47.29,149,101.71,3783.9,21.92,41.54,19.57,255.29,12.733,1,0,-16.366,1,0.6,4.245,0.805,0.35,0.0168,0.4,265.75,0,0,0,-52.465,0,0,0,0,0,270.04,0,0,0,0,0,0,0,0,0,0,0,0,0,0,0,0,0,VALID,0,0,0,0,0,1,0,0,0,0,0,0,0,0,0,0,0,0,0,0,1693.51,1695.74,6,0,0.66,0.5,55,1.52,0.66,0.66,36.78,FLYING
37.38,APPROACH,FLY_TO_FIX,47.53,149,101.47,3794.78,18.34,37.45,19.57,253.04,14.64,1,0,-16.285,1,0.6,4.227,0.805,0.35,0.0168,0.4,265.76,0,0,0,-52.428,0,0,0,0,0,270.04,0,0,0,0,0,0,0,0,0,0,0,0,0,0,0,0,0,VALID,0,0,0,0,0,1,0,0,0,0,0,0,0,0,0,0,0,0,0,0,1692.01,1693.94,6,0,0.66,0.5,56,1.52,0.66,0.66,37.44,FLYING
38.04,APPROACH,FLY_TO_FIX,48.07,149,100.93,3802.96,14.61,33.07,19.57,250.45,16.705,1,0,-16.203,1,0.6,4.21,0.805,0.35,0.0168,0.4,265.76,0,0,0,-52.39,0,0,0,0,0,270.04,0,0,0,0,0,0,0,0,0,0,0,0,0,0,0,0,0,VALID,0,0,0,0,0,1,0,0,0,0,0,0,0,0,0,0,0,0,0,0,1689.94,1691.61,6,0,0.66,0.5,57,1.52,0.66,0.66,38.1,FLYING
38.7,APPROACH,FLY_TO_FIX,48.93,149,100.07,3808.43,10.67,28.55,19.58,247.97,18.644,1,0,-16.122,1,0.6,4.193,0.805,0.35,0.0168,0.4,265.77,0,0,0,-52.351,0,0,0,0,0,270.04,0,0,0,0,0,0,0,0,0,0,0,0,0,0,0,0,0,VALID,0,0,0,0,0,1,0,0,0,0,0,0,0,0,0,0,0,0,0,0,1687.3,1688.73,6,0,0.66,0.5,58,1.52,0.66,0.66,38.76,FLYING
39.36,APPROACH,FLY_TO_FIX,50.1,149,98.9,3811.18,6.53,24.06,19.59,245.76,20.302,1,0,-16.042,1,0.6,4.177,0.805,0.35,0.0168,0.4,265.77,0,0,0,-52.31,0,0,0,0,0,270.04,0,0,0,0,0,0,0,0,0,0,0,0,0,0,0,0,0,VALID,0,0,0,0,0,1,0,0,0,0,0,0,0,0,0,0,0,0,0,0,1684.13,1685.36,6,0,0.66,0.5,59,1.52,0.66,0.66,39.42,FLYING
40.04,APPROACH,FLY_TO_FIX,51.58,149,97.42,3811.23,2.22,19.79,19.59,244.02,21.559,1,0,20,1,0.6,4.162,0.805,0.35,0.0168,0.4,265.77,0,0,0,-52.268,0,0,0,0,0,270.04,0,0,0,0,0,0,0,0,0,0,0,0,0,0,0,0,0,VALID,0,0,0,0,0,1,0,0,0,0,0,0,0,0,0,0,0,0,0,0,1680.67,1681.74,6,0,0.66,0.5,60,1.52,0.66,0.66,40.08,FLYING
40.7,APPROACH,FLY_TO_FIX,53.43,149,95.57,3808.43,-2.3,15.73,19.59,242.72,22.473,1,0,19.9,1,0.6,4.148,0.805,0.35,0.0168,0.4,265.78,0,0,0,-52.224,0,0,0,0,0,270.04,0,0,0,0,0,0,0,0,0,0,0,0,0,0,0,0,0,VALID,0,0,0,0,0,1,0,0,0,0,0,0,0,0,0,0,0,0,0,0,1678.25,1679.22,6,0,0.68,0.5,61,1.47,0.68,0.66,40.76,FLYING
41.36,APPROACH,FLY_TO_FIX,55.53,149,93.47,3802.89,-6.75,12.07,19.59,241.62,23.105,1,0,19.8,1,0.6,4.134,0.805,0.35,0.0168,0.4,265.79,0,0,0,-52.179,0,0,0,0,0,270.04,0,0,0,0,0,0,0,0,0,0,0,0,0,0,0,0,0,VALID,0,0,0,0,0,1,0,0,0,0,0,0,0,0,0,0,0,0,0,0,1678.03,1678.95,6,0,0.66,0.5,62,1.52,0.68,0.66,41.42,FLYING
42.04,APPROACH,FLY_TO_FIX,57.9,149,91.1,3794.55,-11.26,8.66,19.59,240.53,23.574,0.9398,0,20,1,0.6,4.123,0.805,0.35,0.0168,0.4,265.79,0,0,0,-52.134,0,0,0,0,0,270.04,0,0,0,0,0,0,0,0,0,0,0,0,0,0,0,0,0,VALID,0,0,0,0,0,1,0,0,0,0,0,0,0,0,0,0,0,0,0,0,1680.76,1681.67,6,0,0.66,0.5,63,1.52,0.66,0.66,42.08,FLYING
42.7,APPROACH,FLY_TO_FIX,60.51,149,88.49,3783.38,-15.8,5.51,19.59,239.4,23.885,0.7422,0,20,1,0.6,4.113,0.805,0.35,0.0168,0.4,265.8,0,0,0,-52.086,0,0,0,0,0,270.04,0,0,0,0,0,0,0,0,0,0,0,0,0,0,0,0,0,VALID,0,0,0,0,0,1,0,0,0,0,0,0,0,0,0,0,0,0,0,0,1665.98,1688.04,6,0,0.66,0.5,64,1.52,0.66,0.66,42.74,FLYING
43.36,APPROACH,FLY_TO_FIX,63.29,149,85.71,3769.39,-20.35,2.62,19.59,238.25,24.066,0.5591,0,20,1,0.6,4.106,0.805,0.35,0.0168,0.4,265.81,0,0,0,-52.038,0,0,0,0,0,270.04,0,0,0,0,0,0,0,0,0,0,0,0,0,0,0,0,0,VALID,0,0,0,0,0,1,0,0,0,0,0,0,0,0,0,0,0,0,0,0,1588.95,1698.38,6,0,0.66,0.5,65,1.52,0.66,0.66,43.4,FLYING
44.02,APPROACH,FLY_TO_FIX,66.14,149,82.86,3752.56,-24.88,-0.04,19.58,237.07,24.125,0.4022,0,20,1,0.6,4.102,0.805,0.35,0.0168,0.4,265.82,0,0,0,-51.988,0,0,0,0,0,270.04,0,0,0,0,0,0,0,0,0,0,0,0,0,0,0,0,0,VALID,0,0,0,0,0,1,0,0,0,0,0,0,0,0,0,0,0,0,0,0,1465.78,1712.44,6,0,0.66,0.5,66,1.52,0.66,0.66,44.06,FLYING
44.68,APPROACH,FLY_TO_FIX,68.99,149,80.01,3732.92,-29.34,-2.47,19.58,235.88,24.079,0.2771,0,20,1,0.6,4.102,0.805,0.35,0.0168,0.4,265.83,0,0,0,-51.937,0,0,0,0,0,270.04,0,0,0,0,0,0,0,0,0,0,0,0,0,0,0,0,0,VALID,0,0,0,0,0,1,0,0,0,0,0,0,0,0,0,0,0,0,0,0,1314.04,1729.62,6,0,0.66,0.5,67,1.52,0.66,0.66,44.72,FLYING
45.34,APPROACH,FLY_TO_FIX,71.78,149,77.22,3710.5,-33.71,-4.71,19.58,234.7,23.944,0.1853,0,20,1,0.6,4.105,0.805,0.35,0.0168,0.4,265.84,0,0,0,-51.885,0,0,0,0,0,270.04,0,0,0,0,0,0,0,0,0,0,0,0,0,0,0,0,0,VALID,0,0,0,0,0,1,0,0,0,0,0,0,0,0,0,0,0,0,0,0,1149.61,1749.21,6,0,0.66,0.5,68,1.52,0.66,0.66,45.38,FLYING
46,APPROACH,FLY_TO_FIX,74.49,149,74.51,3685.37,-37.96,-6.76,19.58,233.53,23.74,0.1247,0,20,1,0.6,4.113,0.805,0.35,0.0168,0.4,265.86,0,0,0,-51.833,0,0,0,0,0,270.04,0,0,0,0,0,0,0,0,0,0,0,0,0,0,0,0,0,VALID,0,0,0,0,0,1,0,0,0,0,0,0,0,0,0,0,0,0,0,0,985.97,1770.5,6,0,0.66,0.5,69,1.52,0.66,0.66,46.04,FLYING
46.66,APPROACH,FLY_TO_FIX,77.11,149,71.89,3657.61,-42.06,-8.65,19.58,232.37,23.486,0.0907,0,20,1,0.6,4.123,0.805,0.35,0.0168,0.4,265.87,0,0,0,-51.78,0,0,0,0,0,270.04,0,0,0,0,0,0,0,0,0,0,0,0,0,0,0,0,0,VALID,0,0,0,0,0,1,0,0,0,0,0,0,0,0,0,0,0,0,0,0,833.59,1792.95,6,0,0.66,0.5,70,1.52,0.66,0.66,46.7,FLYING
47.32,APPROACH,FLY_TO_FIX,79.64,149,69.36,3627.32,-46,-10.37,19.58,231.21,23.181,0.0777,0,20,1,0.6,4.138,0.805,0.35,0.0168,0.4,265.88,0,0,0,-51.726,0,0,0,0,0,270.04,0,0,0,0,0,0,0,0,0,0,0,0,0,0,0,0,0,VALID,0,0,0,0,0,1,0,0,0,0,0,0,0,0,0,0,0,0,0,0,699.67,1816.18,6,0,0.66,0.5,71,1.52,0.66,0.66,47.36,FLYING
47.98,APPROACH,FLY_TO_FIX,82.09,149,66.91,3594.6,-49.77,-11.94,19.58,230.05,22.836,0.0801,0,20,1,0.6,4.156,0.772,0.35,0.0168,0.4,265.9,0,0,0,-51.672,0,0,0,0,0,270.04,0,0,0,0,0,0,0,0,0,0,0,0,0,0,0,0,0,VALID,0,0,0,0,0,1,0,0,0,0,0,0,0,0,0,0,0,0,0,0,585.3,1840.7,6,0,0.66,0.5,72,1.52,0.66,0.66,48.02,FLYING
48.64,APPROACH,FLY_TO_FIX,84.5,149,64.5,3559.55,-53.37,-13.36,19.58,228.89,22.468,0.0923,0,20,1,0.6,4.177,0.772,0.35,0.0168,0.4,265.92,0,0,0,-51.617,0,0,0,0,0,270.04,0,0,0,0,0,0,0,0,0,0,0,0,0,0,0,0,0,VALID,0,0,0,0,0,1,0,0,0,0,0,0,0,0,0,0,0,0,0,0,500.8,1864.21,6,0,0.66,0.5,73,1.52,0.66,0.66,48.68,FLYING
49.3,APPROACH,FLY_TO_FIX,86.86,149,62.14,3522.3,-56.79,-14.64,19.58,227.73,22.074,0.1099,0,20,1,0.6,4.201,0.772,0.35,0.0168,0.4,265.93,0,0,0,-51.563,0,0,0,0,0,270.04,0,0,0,0,0,0,0,0,0,0,0,0,0,0,0,0,0,VALID,0,0,0,0,0,1,0,0,0,0,0,0,0,0,0,0,0,0,0,0,436.41,1888.9,6,0,0.66,0.5,74,1.52,0.66,0.66,49.34,FLYING
49.96,APPROACH,FLY_TO_FIX,89.22,149,59.78,3482.96,-60.03,-15.77,19.58,226.57,21.666,0.1292,0,20,1,0.6,4.227,0.772,0.35,0.0168,0.4,265.95,0,0,0,-51.509,0,0,0,0,0,270.04,0,0,0,0,0,0,0,0,0,0,0,0,0,0,0,0,0,VALID,0,0,0,0,0,1,0,0,0,0,0,0,0,0,0,0,0,0,0,0,392.73,1914.03,6,0,0.66,0.5,75,1.52,0.66,0.66,50,FLYING
50.62,APPROACH,FLY_TO_FIX,91.56,149,57.44,3441.63,-63.1,-16.76,19.58,225.4,21.246,0.1481,0,20,1,0.6,4.257,0.772,0.35,0.0168,0.4,265.97,0,0,0,-51.454,0,0,0,0,0,270.04,0,0,0,0,0,0,0,0,0,0,0,0,0,0,0,0,0,VALID,0,0,0,0,0,1,0,0,0,0,0,0,0,0,0,0,0,0,0,0,366.53,1939.63,6,0,0.66,0.5,76,1.52,0.66,0.66,50.66,FLYING
51.28,APPROACH,FLY_TO_FIX,93.92,149,55.08,3398.44,-65.99,-17.62,19.58,224.22,20.821,0.1651,0,20,1,0.6,4.289,0.772,0.35,0.0168,0.4,265.99,0,0,0,-51.4,0,0,0,0,0,270.04,0,0,0,0,0,0,0,0,0,0,0,0,0,0,0,0,0,VALID,0,0,0,0,0,1,0,0,0,0,0,0,0,0,0,0,0,0,0,0,354.28,1965.69,6,0,0.66,0.5,77,1.52,0.66,0.66,51.32,FLYING
51.94,APPROACH,FLY_TO_FIX,96.29,149,52.71,3353.49,-68.7,-18.34,19.58,223.03,20.395,0.1799,0,20,1,0.6,4.324,0.772,0.35,0.0168,0.4,266.01,0,0,0,-51.345,0,0,0,0,0,270.04,0,0,0,0,0,0,0,0,0,0,0,0,0,0,0,0,0,VALID,0,0,0,0,0,1,0,0,0,0,0,0,0,0,0,0,0,0,0,0,352.6,1992.16,6,0,0.66,0.5,78,1.52,0.66,0.66,51.98,FLYING
52.6,APPROACH,FLY_TO_FIX,98.68,149,50.32,3306.91,-71.23,-18.93,19.58,221.83,19.973,0.1929,0,20,1,0.6,4.361,0.772,0.35,0.0168,0.4,266.04,0,0,0,-51.291,0,0,0,0,0,270.04,0,0,0,0,0,0,0,0,0,0,0,0,0,0,0,0,0,VALID,0,0,0,0,0,1,0,0,0,0,0,0,0,0,0,0,0,0,0,0,357.72,2018.96,6,0,0.66,0.5,79,1.52,0.66,0.66,52.64,FLYING
53.26,APPROACH,FLY_TO_FIX,101.08,149,47.92,3258.8,-73.57,-19.4,19.58,220.63,19.564,0.2049,0,20,1,0.6,4.4,0.772,0.35,0.0168,0.4,266.06,0,0,0,-51.236,0,0,0,0,0,270.04,0,0,0,0,0,0,0,0,0,0,0,0,0,0,0,0,0,VALID,0,0,0,0,0,1,0,0,0,0,0,0,0,0,0,0,0,0,0,0,366.37,2045.95,6,0,0.66,0.5,80,1.52,0.66,0.66,53.3,FLYING
53.92,APPROACH,FLY_TO_FIX,103.48,149,45.52,3209.3,-75.72,-19.74,19.58,219.43,19.152,0.2171,0,20,1,0.6,4.441,0.772,0.35,0.0168,0.4,266.09,0,0,0,-51.182,0,0,0,0,0,270.04,0,0,0,0,0,0,0,0,0,0,0,0,0,0,0,0,0,VALID,0,0,0,0,0,1,0,0,0,0,0,0,0,0,0,0,0,0,0,0,377.79,2073.33,6,0,0.66,0.5,81,1.52,0.66,0.66,53.96,FLYING
54.58,APPROACH,FLY_TO_FIX,105.88,149,43.12,3158.53,-77.66,-19.96,19.58,218.23,18.751,0.2305,0,20,1,0.6,4.484,0.772,0.35,0.0168,0.4,266.11,0,0,0,-51.128,0,0,0,0,0,270.04,0,0,0,0,0,0,0,0,0,0,0,0,0,0,0,0,0,VALID,0,0,0,0,0,1,0,0,0,0,0,0,0,0,0,0,0,0,0,0,391.83,2101.19,6,0,0.66,0.5,82,1.52,0.66,0.66,54.62,FLYING
55.24,APPROACH,FLY_TO_FIX,108.27,149,40.73,3106.63,-79.39,-20.08,19.58,217.03,18.37,0.2359,0,20,1,0.6,4.5,0.772,0.35,0.0168,0.4,266.14,0,0,0,-51.074,0,0,0,0,0,270.04,0,0,0,0,0,0,0,0,0,0,0,0,0,0,0,0,0,VALID,0,0,0,0,0,1,0,0,0,0,0,0,0,0,0,0,0,0,0,0,408.59,2129.4,6,0,0.66,0.5,83,1.52,0.66,0.66,55.28,FLYING
55.9,APPROACH,FLY_TO_FIX,110.65,149,38.35,3053.73,-80.9,-20.08,19.58,215.84,18.011,0.2379,0,20,1,0.6,4.5,0.772,0.35,0.0168,0.4,266.17,0,0,0,-51.02,0,0,0,0,0,270.04,0,0,0,0,0,0,0,0,0,0,0,0,0,0,0,0,0,VALID,0,0,0,0,0,1,0,0,0,0,0,0,0,0,0,0,0,0,0,0,425.77,2157.84,6,0,0.66,0.5,84,1.52,0.66,0.66,55.94,FLYING
56.56,APPROACH,FLY_TO_FIX,113,149,36,2999.98,-82.18,-19.99,19.58,214.64,17.668,0.243,0,20,1,0.6,4.5,0.772,0.35,0.0168,0.4,266.2,0,0,0,-50.966,0,0,0,0,0,270.04,0,0,0,0,0,0,0,0,0,0,0,0,0,0,0,0,0,VALID,0,0,0,0,0,1,0,0,0,0,0,0,0,0,0,0,0,0,0,0,442.35,2186.35,6,0,0.66,0.5,85,1.52,0.66,0.66,56.6,FLYING
57.22,APPROACH,FLY_TO_FIX,115.31,149,33.69,2945.52,-83.23,-19.8,19.58,213.45,17.331,0.252,0,20,1,0.6,4.5,0.772,0.35,0.0168,0.4,266.23,0,0,0,-50.913,0,0,0,0,0,270.04,0,0,0,0,0,0,0,0,0,0,0,0,0,0,0,0,0,VALID,0,0,0,0,0,1,0,0,0,0,0,0,0,0,0,0,0,0,0,0,459.19,2214.79,6,0,0.66,0.5,86,1.52,0.66,0.66,57.26,FLYING
57.88,APPROACH,FLY_TO_FIX,117.58,149,31.42,2890.52,-84.03,-19.51,19.58,212.27,17.01,0.2655,0,20,1,0.6,4.5,0.772,0.35,0.0168,0.4,266.27,0,0,0,-50.86,0,0,0,0,0,270.04,0,0,0,0,0,0,0,0,0,0,0,0,0,0,0,0,0,VALID,0,0,0,0,0,1,0,0,0,0,0,0,0,0,0,0,0,0,0,0,477.36,2242.98,6,0,0.66,0.5,87,1.52,0.66,0.66,57.92,FLYING
58.54,APPROACH,FLY_TO_FIX,119.8,149,29.2,2835.13,-84.61,-19.14,19.58,211.11,16.701,0.2831,0,20,1,0.6,4.5,0.772,0.35,0.0168,0.4,266.3,0,0,0,-50.807,0,0,0,0,0,270.04,0,0,0,0,0,0,0,0,0,0,0,0,0,0,0,0,0,VALID,0,0,0,0,0,1,0,0,0,0,0,0,0,0,0,0,0,0,0,0,498,2270.89,6,0,0.66,0.5,88,1.52,0.66,0.66,58.58,FLYING
59.2,APPROACH,FLY_TO_FIX,121.97,149,27.03,2779.49,-84.93,-18.68,19.58,209.96,16.414,0.3045,0,20,1,0.6,4.5,0.772,0.35,0.0168,0.4,266.34,0,0,0,-50.754,0,0,0,0,0,270.04,0,0,0,0,0,0,0,0,0,0,0,0,0,0,0,0,0,VALID,0,0,0,0,0,1,0,0,0,0,0,0,0,0,0,0,0,0,0,0,522.03,2298.4,6,0,0.66,0.5,89,1.52,0.66,0.66,59.24,FLYING
59.86,APPROACH,FLY_TO_FIX,124.08,149,24.92,2723.78,-85.02,-18.14,19.58,208.82,16.129,0.3294,0,20,1,0.6,4.5,0.772,0.35,0.0168,0.4,266.38,0,0,0,-50.702,0,0,0,0,0,270.04,0,0,0,0,0,0,0,0,0,0,0,0,0,0,0,0,0,VALID,0,0,0,0,0,1,0,0,0,0,0,0,0,0,0,0,0,0,0,0,550.27,2325.46,6,0,0.66,0.5,90,1.52,0.66,0.66,59.9,FLYING
60.52,APPROACH,FLY_TO_FIX,126.13,149,22.87,2668.15,-84.86,-17.53,19.58,207.69,15.874,0.3575,0,20,1,0.6,4.5,0.772,0.35,0.0168,0.4,266.42,0,0,0,-50.65,0,0,0,0,0,270.04,0,0,0,0,0,0,0,0,0,0,0,0,0,0,0,0,0,VALID,0,0,0,0,0,1,0,0,0,0,0,0,0,0,0,0,0,0,0,0,583.36,2352.02,6,0,0.66,0.5,91,1.52,0.66,0.66,60.56,FLYING
61.18,APPROACH,FLY_TO_FIX,128.12,149,20.88,2612.76,-84.45,-16.85,19.58,206.57,15.63,0.2909,0,20,1,0.6,4.5,0.772,0.35,0.0168,0.4,266.46,0,0,0,-50.598,0,0,0,0,0,270.04,0,0,0,0,0,0,0,0,0,0,0,0,0,0,0,0,0,VALID,0,0,0,0,0,1,0,0,0,0,0,0,0,0,0,0,0,0,0,0,621.81,2378.06,6,0,0.66,0.5,92,1.52,0.66,0.66,61.22,FLYING
61.84,APPROACH,FLY_TO_FIX,130.05,149,18.95,2557.77,-83.79,-16.1,19.58,205.47,15.412,0.1896,0,20,1,0.6,4.5,0.772,0.35,0.0168,0.4,266.51,0,0,0,-50.548,0,0,0,0,0,270.04,0,0,0,0,0,0,0,0,0,0,0,0,0,0,0,0,0,VALID,0,0,0,0,0,1,0,0,0,0,0,0,0,0,0,0,0,0,0,0,637.73,2403.36,6,0,0.66,0.5,93,1.52,0.66,0.66,61.88,FLYING
62.5,APPROACH,FLY_TO_FIX,131.84,149,17.16,2503.34,-82.86,-15.3,19.58,204.37,15.218,0.0957,0,20,1,0.6,4.5,0.772,0.35,0.0168,0.4,266.55,0,0,0,-50.497,0,0,0,0,0,270.04,0,0,0,0,0,0,0,0,0,0,0,0,0,0,0,0,0,VALID,0,0,0,0,0,1,0,0,0,0,0,0,0,0,0,0,0,0,0,0,606.05,2427.21,6,0,0.66,0.5,94,1.52,0.66,0.66,62.54,FLYING
63.16,APPROACH,FLY_TO_FIX,133.43,149,15.57,2449.64,-81.66,-14.45,19.58,203.29,15.041,0.0474,0,20,1,0.6,4.5,0.772,0.35,0.0168,0.4,266.6,0,0,0,-50.448,0,0,0,0,0,270.04,0,0,0,0,0,0,0,0,0,0,0,0,0,0,0,0,0,VALID,0,0,0,0,0,1,0,0,0,0,0,0,0,0,0,0,0,0,0,0,532.17,2448.66,6,0,0.66,0.5,95,1.52,0.66,0.66,63.2,FLYING
63.82,APPROACH,FLY_TO_FIX,134.77,149,14.23,2396.84,-80.21,-13.57,19.58,202.25,14.871,0.0384,0,20,1,0.6,4.5,0.75,0.35,0.0168,0.4,266.65,0,0,0,-50.399,0,0,0,0,0,270.04,0,0,0,0,0,0,0,0,0,0,0,0,0,0,0,0,0,VALID,0,0,0,0,0,1,0,0,0,0,0,0,0,0,0,0,0,0,0,0,445.03,2467.55,6,0,0.66,0.5,96,1.52,0.66,0.66,63.86,FLYING
64.48,APPROACH,FLY_TO_FIX,135.86,149,13.14,2345.09,-78.54,-12.68,19.58,201.22,14.712,0.0655,0,20,1,0.6,4.5,0.75,0.35,0.0168,0.4,266.7,0,0,0,-50.351,0,0,0,0,0,270.04,0,0,0,0,0,0,0,0,0,0,0,0,0,0,0,0,0,VALID,0,0,0,0,0,1,0,0,0,0,0,0,0,0,0,0,0,0,0,0,372.72,2482.74,6,0,0.66,0.5,97,1.52,0.66,0.66,64.52,FLYING
65.14,APPROACH,FLY_TO_FIX,136.73,149,12.27,2294.52,-76.69,-11.78,19.58,200.22,14.579,0.1191,0,20,1,0.6,4.5,0.75,0.35,0.0168,0.4,266.76,0,0,0,-50.304,0,0,0,0,0,270.04,0,0,0,0,0,0,0,0,0,0,0,0,0,0,0,0,0,VALID,0,0,0,0,0,1,0,0,0,0,0,0,0,0,0,0,0,0,0,0,329.25,2495.21,6,0,0.66,0.5,98,1.52,0.66,0.66,65.18,FLYING
65.8,APPROACH,FLY_TO_FIX,137.42,149,11.58,2245.23,-74.69,-10.87,19.58,199.23,14.463,0.1862,0,20,1,0.6,4.5,0.75,0.35,0.0168,0.4,266.81,0,0,0,-50.258,0,0,0,0,0,270.04,0,0,0,0,0,0,0,0,0,0,0,0,0,0,0,0,0,VALID,0,0,0,0,0,1,0,0,0,0,0,0,0,0,0,0,0,0,0,0,323.27,2505.34,6,0,0.66,0.5,99,1.52,0.66,0.66,65.84,FLYING
66.46,APPROACH,FLY_TO_FIX,138.01,149,10.99,2197.3,-72.59,-9.94,19.58,198.25,14.359,0.2542,0,20,1,0.6,4.5,0.75,0.35,0.0168,0.4,266.86,0,0,0,-50.213,0,0,0,0,0,270.04,0,0,0,0,0,0,0,0,0,0,0,0,0,0,0,0,0,VALID,0,0,0,0,0,1,0,0,0,0,0,0,0,0,0,0,0,0,0,0,341.6,2514.45,6,0,0.66,0.5,100,1.52,0.66,0.66,66.5,FLYING
67.2,APPROACH,FLY_TO_FIX,138.56,149,10.44,2145.41,-70.12,-8.99,19.59,197.28,14.267,0.3109,0,20,1,0.6,4.5,0.75,0.35,0.0168,0.4,266.92,0,0,0,-50.169,0,0,0,0,0,270.04,0,0,0,0,0,0,0,0,0,0,0,0,0,0,0,0,0,VALID,0,0,0,0,0,1,0,0,0,0,0,0,0,0,0,0,0,0,0,0,382.56,2523.27,6,0,0.663,0.5,101,1.38,0.663,0.66,67.25,FLYING
68.16,APPROACH,FLY_TO_FIX,139.2,149,9.8,2080.82,-66.8,-7.71,19.59,195.98,14.211,0.3295,0,20,1,0.6,4.5,0.75,0.35,0.0168,0.4,267,0,0,0,-50.112,0,0,0,0,0,270.04,0,0,0,0,0,0,0,0,0,0,0,0,0,0,0,0,0,VALID,0,0,0,0,0,1,0,0,0,0,0,0,0,0,0,0,0,0,0,0,453.32,2533.85,6,0,0.891,0.5,102,1.06,0.891,0.663,68.22,FLYING
69.26,APPROACH,FLY_TO_FIX,139.86,149,9.14,2010.37,-62.74,-6.15,19.59,194.43,14.124,0.3295,0,20,1,0.6,4.5,0.75,0.35,0.0168,0.4,267.1,0,0,0,-50.046,0,0,0,0,0,270.04,0,0,0,0,0,0,0,0,0,0,0,0,0,0,0,0,0,VALID,0,0,0,0,0,1,0,0,0,0,0,0,0,0,0,0,0,0,0,0,531.16,2545.19,6,0,1.069,0.5,103,0.91,1.069,0.891,69.33,FLYING
70.38,APPROACH,FLY_TO_FIX,140.38,149,8.62,1943.78,-58.44,-4.47,19.58,192.82,14.082,0.3475,0,20,1,0.6,4.5,0.75,0.35,0.0168,0.4,267.2,0,0,0,-49.982,0,0,0,0,0,270.04,0,0,0,0,0,0,0,0,0,0,0,0,0,0,0,0,0,VALID,0,0,0,0,0,1,0,0,0,0,0,0,0,0,0,0,0,0,0,0,595.3,2554.86,6,0,1.12,0.5,104,0.89,1.12,1.069,70.45,FLYING
71.5,APPROACH,FLY_TO_FIX,140.73,149,8.27,1882.1,-53.99,-2.78,19.58,191.19,14.128,0.3898,0,20,1,0.6,4.5,0.75,0.35,0.0168,0.4,267.31,0,0,0,-49.921,0,0,0,0,0,270.04,0,0,0,0,0,0,0,0,0,0,0,0,0,0,0,0,0,VALID,0,0,0,0,0,1,0,0,0,0,0,0,0,0,0,0,0,0,0,0,655.86,2562.38,6,0,1.12,0.5,105,0.89,1.12,1.12,71.57,FLYING
72.62,APPROACH,FLY_TO_FIX,140.91,149,8.09,1825.48,-49.44,-1.08,19.58,189.58,14.188,0.4539,0,20,1,0.6,4.5,0.75,0.35,0.0168,0.4,267.42,0,0,0,-49.865,0,0,0,0,0,270.04,0,0,0,0,0,0,0,0,0,0,0,0,0,0,0,0,0,VALID,0,0,0,0,0,1,0,0,0,0,0,0,0,0,0,0,0,0,0,0,725.84,2567.74,6,0,1.12,0.5,106,0.89,1.12,1.12,72.69,FLYING
73.74,APPROACH,FLY_TO_FIX,140.96,149,8.04,1774.02,-44.8,0.63,19.58,187.94,14.304,0.5304,0,20,1,0.6,4.5,0.75,0.35,0.0168,0.4,267.53,0,0,0,-49.812,0,0,0,0,0,270.04,0,0,0,0,0,0,0,0,0,0,0,0,0,0,0,0,0,VALID,0,0,0,0,0,1,0,0,0,0,0,0,0,0,0,0,0,0,0,0,814.61,2571.38,6,0,1.12,0.5,107,0.89,1.12,1.12,73.81,FLYING
74.86,APPROACH,FLY_TO_FIX,140.95,149,8.05,1727.76,-40.13,2.33,19.58,186.3,14.463,0.6061,0,20,1,0.6,4.5,0.75,0.35,0.0168,0.4,267.65,0,0,0,-49.764,0,0,0,0,0,270.04,0,0,0,0,0,0,0,0,0,0,0,0,0,0,0,0,0,VALID,0,0,0,0,0,1,0,0,0,0,0,0,0,0,0,0,0,0,0,0,925.02,2574.04,6,0,1.12,0.5,108,0.89,1.12,1.12,74.93,FLYING
75.98,APPROACH,FLY_TO_FIX,140.91,149,8.09,1686.79,-35.37,4.05,19.58,184.61,14.662,0.6725,0,20,1,0.6,4.5,0.75,0.35,0.0168,0.4,267.76,0,0,0,-49.721,0,0,0,0,0,270.04,0,0,0,0,0,0,0,0,0,0,0,0,0,0,0,0,0,VALID,0,0,0,0,0,1,0,0,0,0,0,0,0,0,0,0,0,0,0,0,1052.66,2576.2,6,0,1.12,0.5,109,0.89,1.12,1.12,76.05,FLYING
77.1,APPROACH,FLY_TO_FIX,140.9,149,8.1,1651.17,-30.58,5.77,19.58,182.9,14.906,0.7225,0,20,1,0.6,4.5,0.75,0.35,0.0168,0.4,267.88,0,0,0,-49.682,0,0,0,0,0,270.04,0,0,0,0,0,0,0,0,0,0,0,0,0,0,0,0,0,VALID,0,0,0,0,0,1,0,0,0,0,0,0,0,0,0,0,0,0,0,0,1189.54,2578.38,6,0,1.12,0.5,110,0.89,1.12,1.12,77.17,FLYING
78.22,APPROACH,FLY_TO_FIX,140.89,149,8.11,1620.99,-25.69,7.52,19.58,181.15,15.157,0.7594,0,20,1,0.6,4.5,0.75,0.35,0.0168,0.4,268,0,0,0,-49.649,0,0,0,0,0,270.04,0,0,0,0,0,0,0,0,0,0,0,0,0,0,0,0,0,VALID,0,0,0,0,0,1,0,0,0,0,0,0,0,0,0,0,0,0,0,0,1325.46,2580.48,6,0,1.12,0.5,111,0.89,1.12,1.12,78.29,FLYING
79.34,APPROACH,FLY_TO_FIX,140.89,149,8.11,1596.34,-20.72,9.29,19.58,179.34,15.469,0.7878,0,20,1,0.6,4.5,0.75,0.35,0.0168,0.4,268.12,0,0,0,-49.62,0,0,0,0,0,270.04,0,0,0,0,0,0,0,0,0,0,0,0,0,0,0,0,0,VALID,0,0,0,0,0,1,0,0,0,0,0,0,0,0,0,0,0,0,0,0,1453.61,2582.33,6,0,1.12,0.5,112,0.89,1.12,1.12,79.41,FLYING
80.46,APPROACH,FLY_TO_FIX,140.87,149,8.13,1577.29,-15.69,11.07,19.58,177.48,15.843,0.8157,0,20,1,0.6,4.5,0.75,0.35,0.0168,0.4,268.25,0,0,0,-49.596,0,0,0,0,0,270.04,0,0,0,0,0,0,0,0,0,0,0,0,0,0,0,0,0,VALID,0,0,0,0,0,1,0,0,0,0,0,0,0,0,0,0,0,0,0,0,1570.81,2583.5,6,0,1.12,0.5,113,0.89,1.12,1.12,80.53,FLYING
81.58,APPROACH,FLY_TO_FIX,140.78,149,8.22,1563.93,-10.58,12.87,19.58,175.55,16.252,0.8512,0,20,1,0.6,4.5,0.75,0.35,0.0168,0.4,268.37,0,0,0,-49.578,0,0,0,0,0,270.04,0,0,0,0,0,0,0,0,0,0,0,0,0,0,0,0,0,VALID,0,0,0,0,0,1,0,0,0,0,0,0,0,0,0,0,0,0,0,0,1678.49,2583.55,6,0,1.12,0.5,114,0.89,1.12,1.12,81.65,FLYING
82.7,APPROACH,FLY_TO_FIX,140.61,149,8.39,1556.28,-5.45,14.67,19.58,173.56,16.704,0.8965,0,20,1,0.6,4.5,0.75,0.35,0.0168,0.4,268.49,0,0,0,-49.565,0,0,0,0,0,270.04,0,0,0,0,0,0,0,0,0,0,0,0,0,0,0,0,0,VALID,0,0,0,0,0,1,0,0,0,0,0,0,0,0,0,0,0,0,0,0,1781.92,2582.28,6,0,1.12,0.5,115,0.89,1.12,1.12,82.77,FLYING
83.82,APPROACH,FLY_TO_FIX,140.36,149,8.64,1554.38,-0.3,16.46,19.59,171.47,17.244,0.9516,0,20,1,0.6,4.5,0.75,0.35,0.0168,0.4,268.62,0,0,0,-49.558,0,0,0,0,0,270.04,0,0,0,0,0,0,0,0,0,0,0,0,0,0,0,0,0,VALID,0,0,0,0,0,1,0,0,0,0,0,0,0,0,0,0,0,0,0,0,1886.7,2579.68,6,0,1.12,0.5,116,0.89,1.12,1.12,83.89,FLYING
84.91,APPROACH,FLY_TO_FIX,140.04,149,8.96,1558.24,4.87,18.25,19.59,169.3,17.787,1,0,19.9,1,0.6,4.5,0.75,0.35,0.0168,0.4,268.74,0,0,0,-49.556,0,0,0,0,0,270.04,0,0,0,0,0,0,0,0,0,0,0,0,0,0,0,0,0,VALID,0,0,0,0,0,1,0,0,0,0,0,0,0,0,0,0,0,0,0,0,1997.25,2575.76,6,0,1.12,0.5,117,0.89,1.12,1.12,85.01,FLYING
86.03,APPROACH,FLY_TO_FIX,139.66,149,9.34,1567.87,10.03,20.03,19.59,167.03,18.414,1,0,19.8,1,0.6,4.5,0.75,0.35,0.0168,0.4,268.87,0,0,0,-49.561,0,0,0,0,0,270.04,0,0,0,0,0,0,0,0,0,0,0,0,0,0,0,0,0,VALID,0,0,0,0,0,1,0,0,0,0,0,0,0,0,0,0,0,0,0,0,2108.92,2570.7,6,0,1.12,0.5,118,0.89,1.12,1.12,86.13,FLYING
87.15,APPROACH,FLY_TO_FIX,139.2,149,9.8,1583.24,15.16,21.8,19.59,164.64,19.094,1,0,19.701,1,0.6,4.5,0.75,0.35,0.0168,0.4,268.99,0,0,0,-49.571,0,0,0,0,0,270.04,0,0,0,0,0,0,0,0,0,0,0,0,0,0,0,0,0,VALID,0,0,0,0,0,1,0,0,0,0,0,0,0,0,0,0,0,0,0,0,2196.49,2564.31,6,0,1.12,0.5,119,0.89,1.12,1.12,87.25,FLYING
88.27,APPROACH,FLY_TO_FIX,138.61,149,10.39,1604.28,20.2,23.54,19.59,162.13,19.838,1,0,19.603,1,0.6,4.5,0.75,0.35,0.0168,0.4,269.11,0,0,0,-49.588,0,0,0,0,0,270.04,0,0,0,0,0,0,0,0,0,0,0,0,0,0,0,0,0,VALID,0,0,0,0,0,1,0,0,0,0,0,0,0,0,0,0,0,0,0,0,2263.29,2556.01,6,0,1.12,0.5,120,0.89,1.12,1.12,88.37,FLYING
89.39,APPROACH,FLY_TO_FIX,137.87,149,11.13,1630.81,25.06,25.22,19.59,159.49,20.655,1,0,19.505,1,0.6,4.5,0.75,0.35,0.0168,0.4,269.24,0,0,0,-49.612,0,0,0,0,0,270.04,0,0,0,0,0,0,0,0,0,0,0,0,0,0,0,0,0,VALID,0,0,0,0,0,1,0,0,0,0,0,0,0,0,0,0,0,0,0,0,2312.77,2545.47,6,0,1.12,0.5,121,0.89,1.12,1.12,89.49,FLYING
90.51,APPROACH,FLY_TO_FIX,136.95,149,12.05,1662.6,29.7,26.83,19.59,156.71,21.528,1,0,19.407,1,0.6,4.5,0.75,0.35,0.0168,0.4,269.35,0,0,0,-49.641,0,0,0,0,0,270.04,0,0,0,0,0,0,0,0,0,0,0,0,0,0,0,0,0,VALID,0,0,0,0,0,1,0,0,0,0,0,0,0,0,0,0,0,0,0,0,2347.69,2532.45,6,0,1.12,0.5,122,0.89,1.12,1.12,90.61,FLYING
91.63,APPROACH,FLY_TO_FIX,135.84,149,13.16,1699.34,34.06,28.34,19.59,153.78,22.533,1,0,19.31,1,0.6,4.5,0.75,0.35,0.0168,0.4,269.47,0,0,0,-49.678,0,0,0,0,0,270.04,0,0,0,0,0,0,0,0,0,0,0,0,0,0,0,0,0,VALID,0,0,0,0,0,1,0,0,0,0,0,0,0,0,0,0,0,0,0,0,2370.4,2516.89,6,0,1.12,0.5,123,0.89,1.12,1.12,91.73,FLYING
92.75,APPROACH,FLY_TO_FIX,134.53,149,14.47,1740.7,38.09,29.75,19.59,150.71,23.555,1,0,19.214,1,0.6,4.5,0.75,0.35,0.0168,0.4,269.59,0,0,0,-49.72,0,0,0,0,0,270.04,0,0,0,0,0,0,0,0,0,0,0,0,0,0,0,0,0,VALID,0,0,0,0,0,1,0,0,0,0,0,0,0,0,0,0,0,0,0,0,2382.68,2498.65,6,0,1.12,0.5,124,0.89,1.12,1.12,92.85,FLYING
93.87,APPROACH,FLY_TO_FIX,133.04,149,15.96,1786.25,41.72,31.03,19.59,147.47,24.693,1,0,19.118,1,0.6,4.5,0.75,0.35,0.0168,0.4,269.7,0,0,0,-49.77,0,0,0,0,0,270.04,0,0,0,0,0,0,0,0,0,0,0,0,0,0,0,0,0,VALID,0,0,0,0,0,1,0,0,0,0,0,0,0,0,0,0,0,0,0,0,2386.47,2478.14,6,0,1.12,0.5,125,0.89,1.12,1.12,93.97,FLYING
94.99,APPROACH,FLY_TO_FIX,131.39,149,17.61,1835.49,44.9,32.14,19.59,144.07,25.922,1,0,19.022,1,0.6,4.5,0.75,0.35,0.0168,0.4,269.81,0,0,0,-49.825,0,0,0,0,0,270.04,0,0,0,0,0,0,0,0,0,0,0,0,0,0,0,0,0,VALID,0,0,0,0,0,1,0,0,0,0,0,0,0,0,0,0,0,0,0,0,2383.25,2455.6,6,0,1.12,0.5,126,0.89,1.12,1.12,95.09,FLYING
96.11,APPROACH,FLY_TO_FIX,129.6,149,19.4,1887.88,47.58,33.08,19.59,140.53,27.249,1,0,18.927,1,0.6,4.5,0.75,0.35,0.0168,0.4,269.91,0,0,0,-49.887,0,0,0,0,0,270.04,0,0,0,0,0,0,0,0,0,0,0,0,0,0,0,0,0,VALID,0,0,0,0,0,1,0,0,0,0,0,0,0,0,0,0,0,0,0,0,2374.34,2431.35,6,0,1.12,0.5,127,0.89,1.12,1.12,96.21,FLYING
97.23,APPROACH,FLY_TO_FIX,127.71,149,21.29,1942.84,49.73,33.79,19.59,136.82,28.704,1,0,18.832,1,0.6,4.5,0.75,0.35,0.0168,0.4,270.01,0,0,0,-49.955,0,0,0,0,0,270.04,0,0,0,0,0,0,0,0,0,0,0,0,0,0,0,0,0,VALID,0,0,0,0,0,1,0,0,0,0,0,0,0,0,0,0,0,0,0,0,2361,2405.87,6,0,1.12,0.5,128,0.89,1.12,1.12,97.33,FLYING
98.22,APPROACH,FLY_TO_FIX,125.91,149,23.09,1992.49,51.16,34.24,19.57,133.17,30.212,1,0,18.738,1,0.6,4.5,0.75,0.35,0.0168,0.4,270.1,0,0,0,-50.025,0,0,0,0,0,270.04,0,0,0,0,0,0,0,0,0,0,0,0,0,0,0,0,0,VALID,0,0,0,0,0,1,0,0,0,0,0,0,0,0,0,0,0,0,0,0,2345.45,2381.79,6,0,1.068,0.5,129,1,1.12,1.068,98.29,FLYING
99.21,APPROACH,FLY_TO_FIX,124.18,149,24.82,2044.52,52.19,34.48,19.6,129.87,31.614,1,0,18.645,1,0.6,4.5,0.75,0.35,0.0168,0.4,270.17,0,0,0,-50.092,0,0,0,0,0,270.04,0,0,0,0,0,0,0,0,0,0,0,0,0,0,0,0,0,VALID,0,0,0,0,0,1,0,0,0,0,0,0,0,0,0,0,0,0,0,0,2329.64,2358.92,6,0,0.933,0.5,130,1.01,1.068,0.933,99.32,FLYING
100.33,APPROACH,FLY_TO_FIX,122.17,149,26.83,2103.29,52.8,34.51,19.59,125.89,33.381,1,0,18.551,1,0.6,4.5,0.75,0.35,0.0168,0.4,270.26,0,0,0,-50.175,0,0,0,0,0,270.04,0,0,0,0,0,0,0,0,0,0,0,0,0,0,0,0,0,VALID,0,0,0,0,0,1,0,0,0,0,0,0,0,0,0,0,0,0,0,0,2309.48,2332.42,6,0,1.101,0.5,131,0.89,1.101,0.933,100.44,FLYING
101.45,APPROACH,FLY_TO_FIX,120.15,149,28.85,2162.31,52.87,34.26,19.59,121.73,35.279,1,0,18.459,1,0.6,4.5,0.75,0.35,0.0168,0.4,270.34,0,0,0,-50.266,0,0,0,0,0,270.04,0,0,0,0,0,0,0,0,0,0,0,0,0,0,0,0,0,VALID,0,0,0,0,0,1,0,0,0,0,0,0,0,0,0,0,0,0,0,0,2288.04,2305.99,6,0,1.12,0.5,132,0.89,1.12,1.101,101.56,FLYING
102.57,APPROACH,FLY_TO_FIX,118.19,149,30.81,2220.9,52.38,33.74,19.59,117.52,37.318,1,0,18.366,1,0.6,4.5,0.75,0.35,0.0168,0.4,270.41,0,0,0,-50.362,0,0,0,0,0,270.04,0,0,0,0,0,0,0,0,0,0,0,0,0,0,0,0,0,VALID,0,0,0,0,0,1,0,0,0,0,0,0,0,0,0,0,0,0,0,0,2266.49,2280.53,6,0,1.12,0.5,133,0.89,1.12,1.12,102.68,FLYING
103.69,APPROACH,FLY_TO_FIX,116.32,149,32.68,2278.45,51.34,32.93,19.6,113.25,39.493,1,0,18.274,1,0.6,4.5,0.75,0.35,0.0168,0.4,270.48,0,0,0,-50.463,0,0,0,0,0,270.04,0,0,0,0,0,0,0,0,0,0,0,0,0,0,0,0,0,VALID,0,0,0,0,0,1,0,0,0,0,0,0,0,0,0,0,0,0,0,0,2245.38,2256.35,6,0,1.12,0.5,134,0.89,1.12,1.12,103.8,FLYING
104.81,APPROACH,FLY_TO_FIX,114.56,149,34.44,2334.36,49.77,31.84,19.59,108.94,41.783,1,0,18.183,1,0.6,4.5,0.75,0.35,0.0168,0.4,270.55,0,0,0,-50.57,0,0,0,0,0,270.04,0,0,0,0,0,0,0,0,0,0,0,0,0,0,0,0,0,VALID,0,0,0,0,0,1,0,0,0,0,0,0,0,0,0,0,0,0,0,0,2225.15,2233.73,6,0,1.12,0.5,135,0.89,1.12,1.12,104.92,FLYING
105.93,APPROACH,FLY_TO_FIX,112.97,149,36.03,2388,47.69,30.44,19.59,104.61,44.231,1,0,18.092,1,0.6,4.5,0.75,0.35,0.0168,0.4,270.6,0,0,0,-50.682,0,0,0,0,0,270.04,0,0,0,0,0,0,0,0,0,0,0,0,0,0,0,0,0,VALID,0,0,0,0,0,1,0,0,0,0,0,0,0,0,0,0,0,0,0,0,2206.52,2213.24,6,0,1.12,0.5,136,0.89,1.12,1.12,106.04,FLYING
107.05,APPROACH,FLY_TO_FIX,111.59,149,37.41,2438.8,45.06,28.75,19.59,100.29,46.792,1,0,18.002,1,0.6,4.5,0.75,0.35,0.0168,0.4,270.66,0,0,0,-50.799,0,0,0,0,0,270.04,0,0,0,0,0,0,0,0,0,0,0,0,0,0,0,0,0,VALID,0,0,0,0,0,1,0,0,0,0,0,0,0,0,0,0,0,0,0,0,2190.03,2195.31,6,0,1.12,0.5,137,0.89,1.12,1.12,107.16,FLYING
108.17,APPROACH,FLY_TO_FIX,110.44,149,38.56,2486.17,41.94,26.78,19.59,95.95,49.46,1,0,17.912,1,0.6,4.5,0.75,0.35,0.0168,0.4,270.7,0,0,0,-50.921,0,0,0,0,0,270.04,0,0,0,0,0,0,0,0,0,0,0,0,0,0,0,0,0,VALID,0,0,0,0,0,1,0,0,0,0,0,0,0,0,0,0,0,0,0,0,2176.06,2180.24,6,0,1.12,0.5,138,0.89,1.12,1.12,108.28,FLYING
109.29,APPROACH,FLY_TO_FIX,109.57,149,39.43,2529.58,38.33,24.54,19.59,91.6,52.199,1,0,17.822,1,0.6,4.5,0.75,0.35,0.0168,0.4,270.74,0,0,0,-51.047,0,0,0,0,0,270.04,0,0,0,0,0,0,0,0,0,0,0,0,0,0,0,0,0,VALID,0,0,0,0,0,1,0,0,0,0,0,0,0,0,0,0,0,0,0,0,2165.12,2168.46,6,0,1.12,0.5,139,0.89,1.12,1.12,109.4,FLYING
110.41,APPROACH,FLY_TO_FIX,109.01,149,39.99,2568.47,34.23,22.06,19.59,87.26,54.978,1,0,17.733,1,0.6,4.5,0.75,0.35,0.0168,0.4,270.77,0,0,0,-51.178,0,0,0,0,0,270.04,0,0,0,0,0,0,0,0,0,0,0,0,0,0,0,0,0,VALID,0,0,0,0,0,1,0,0,0,0,0,0,0,0,0,0,0,0,0,0,2157.55,2160.27,6,0,1.12,0.5,140,0.89,1.12,1.12,110.52,FLYING
111.53,APPROACH,FLY_TO_FIX,108.79,149,40.21,2602.26,29.7,19.36,19.26,82.93,57.768,1,0,17.644,1,0.6,4.5,0.75,0.35,0.0168,0.4,270.79,0,0,0,-51.313,0,0,0,0,0,270.04,0,0,0,0,0,0,0,0,0,0,0,0,0,0,0,0,0,VALID,0,0,0,0,0,1,0,0,0,0,0,0,0,0,0,0,0,0,0,0,2153.69,2155.94,6,0,1.12,0.5,141,0.89,1.12,1.12,111.64,FLYING
112.65,APPROACH,FLY_TO_FIX,109.11,149,39.89,2629.96,24.55,15.86,17.26,79.89,60.479,1,0,17.556,1,0.6,4.5,0.75,0.35,0.0168,0.4,270.81,0,0,0,-51.452,0,0,0,0,0,270.04,0,0,0,0,0,0,0,0,0,0,0,0,0,0,0,0,0,VALID,0,0,0,0,0,1,0,0,0,0,0,0,0,0,0,0,0,0,0,0,2155.7,2157.75,6,0,1.12,0.5,142,0.89,1.12,1.12,112.76,FLYING
113.77,APPROACH,FLY_TO_FIX,110.51,149,38.49,2650.7,18.4,11.41,13.98,78.62,62.869,1,0,17.468,1,0.6,4.5,0.75,0.35,0.0168,0.4,270.82,0,0,0,-51.595,0,0,0,0,0,270.04,0,0,0,0,0,0,0,0,0,0,0,0,0,0,0,0,0,VALID,0,0,0,0,0,1,0,0,0,0,0,0,0,0,0,0,0,0,0,0,2169.58,2171.73,6,0,1.12,0.5,143,0.89,1.12,1.12,113.88,FLYING
114.89,APPROACH,FLY_TO_FIX,113.24,149,35.76,2664.03,10.6,6.85,10.38,78.78,64.413,1,0,17.381,1,0.6,4.5,0.75,0.35,0.0168,0.4,270.82,0,0,0,-51.742,0,0,0,0,0,270.04,0,0,0,0,0,0,0,0,0,0,0,0,0,0,0,0,0,VALID,0,0,0,0,0,1,0,0,0,0,0,0,0,0,0,0,0,0,0,0,2198.86,2201.26,6,0,1.12,0.5,144,0.89,1.12,1.12,115,FLYING
116.01,APPROACH,FLY_TO_FIX,117.36,149,31.64,2669.23,2.1,3.82,7.29,80.18,65.006,1,0,17.294,1,0.6,4.5,0.75,0.35,0.0168,0.4,270.82,0,0,0,-51.894,0,0,0,0,0,270.04,0,0,0,0,0,0,0,0,0,0,0,0,0,0,0,0,0,VALID,0,0,0,0,0,1,0,0,0,0,0,0,0,0,0,0,0,0,0,0,2245.55,2248.25,6,0,1.12,0.5,145,0.89,1.12,1.12,116.12,FLYING
117.17,APPROACH,FLY_TO_FIX,122.7,149,26.3,2665.24,-6.92,1.94,5,81.96,65.237,0.8,0,20,1,0.6,4.5,0.75,0.35,0.0168,0.4,270.81,0,0,0,-52.053,0,0,0,0,0,270.04,0,0,0,0,0,0,0,0,0,0,0,0,0,0,0,0,0,VALID,0,0,0,0,0,1,0,0,0,0,0,0,0,0,0,0,0,0,0,0,2308.74,2311.76,6,0,1.12,0.5,146,0.89,1.12,1.12,117.24,FLYING
118.29,APPROACH,FLY_TO_FIX,128.88,149,20.12,2651.32,-15.7,0.72,3.49,83.66,65.261,0.6,0,20,1,0.6,4.5,0.75,0.35,0.0168,0.4,270.8,0,0,0,-52.218,0,0,0,0,0,270.04,0,0,0,0,0,0,0,0,0,0,0,0,0,0,0,0,0,VALID,0,0,0,0,0,1,0,0,0,0,0,0,0,0,0,0,0,0,0,0,2228.81,2388.02,6,0,1.12,0.5,147,0.89,1.12,1.12,118.36,FLYING
119.41,APPROACH,FLY_TO_FIX,135.3,149,13.7,2626.37,-24.73,-1.92,2.59,84.26,65.155,0.4,0,20,1,0.6,4.5,0.75,0.35,0.0168,0.4,270.79,0,0,0,-52.39,0,0,0,0,0,270.04,0,0,0,0,0,0,0,0,0,0,0,0,0,0,0,0,0,VALID,0,0,0,0,0,1,0,0,0,0,0,0,0,0,0,0,0,0,0,0,2032.08,2469.52,6,0,1.12,0.5,148,0.89,1.12,1.12,119.48,FLYING
120.53,APPROACH,FLY_TO_FIX,141.76,149,7.24,2590.91,-34.35,-5.12,2.18,84.19,64.738,0.2,0,20,1,0.6,4.5,0.75,0.35,0.0168,0.4,270.78,0,0,0,-52.568,0,0,0,0,0,270.04,0,0,0,0,0,0,0,0,0,0,0,0,0,0,0,0,0,VALID,0,0,0,0,0,1,0,0,0,0,0,0,0,0,0,0,0,0,0,0,1742.42,2553.12,6,0,1.12,0.5,149,0.89,1.12,1.12,120.6,FLYING
121.65,APPROACH,FLY_TO_FIX,147.89,149,1.11,2544.81,-43.99,-8.1,2.02,83.89,63.968,0,0,20,1,0.6,4.5,0.75,0.35,0.0168,0.4,270.76,0,0,0,-52.751,0,0,0,0,0,270.04,0,0,0,0,0,0,0,0,0,0,0,0,0,0,0,0,0,VALID,0,0,0,0,0,1,0,0,0,0,0,0,0,0,0,0,0,0,0,0,1375.23,2633.56,6,0,1.12,0.5,150,0.89,1.12,1.12,121.72,FLYING
122.77,APPROACH,FLY_TO_FIX,153.46,149,-4.46,2488.13,-53.51,-10.84,2.05,83.4,62.983,0,0,19.9,1,0.6,4.5,0.75,0.35,0.0168,0.4,270.75,0,0,0,-52.939,0,0,0,0,0,270.04,0,0,0,0,0,0,0,0,0,0,0,0,0,0,0,0,0,VALID,0,0,0,0,0,1,0,0,0,0,0,0,0,0,0,0,0,0,0,0,944.06,2707.32,6,0,1.12,0.5,151,0.89,1.12,1.12,122.84,FLYING
123.89,APPROACH,FLY_TO_FIX,158.46,149,-9.46,2421.1,-62.71,-13.42,2.18,82.76,61.777,0,0,19.8,1,0.6,4.5,0.75,0.35,0.0168,0.4,270.73,0,0,0,-53.129,0,0,0,0,0,270.04,0,0,0,0,0,0,0,0,0,0,0,0,0,0,0,0,0,VALID,0,0,0,0,0,1,0,0,0,0,0,0,0,0,0,0,0,0,0,0,643.16,2773.77,6,0,1.12,0.5,152,0.89,1.12,1.12,123.96,FLYING
125.01,APPROACH,FLY_TO_FIX,163.18,149,-14.18,2344.06,-71.62,-15.82,2.37,81.99,60.453,0,0,19.701,1,0.6,4.5,0.75,0.35,0.0168,0.4,270.71,0,0,0,-53.321,0,0,0,0,0,270.04,0,0,0,0,0,0,0,0,0,0,0,0,0,0,0,0,0,VALID,0,0,0,0,0,1,0,0,0,0,0,0,0,0,0,0,0,0,0,0,437.7,2836.72,6,0,1.12,0.5,153,0.89,1.12,1.12,125.08,FLYING
126.13,APPROACH,FLY_TO_FIX,167.83,149,-18.83,2257.35,-80.19,-18.08,2.52,81.14,59.112,0,0,19.603,1,0.6,4.5,0.75,0.35,0.0168,0.4,270.69,0,0,0,-53.513,0,0,0,0,0,270.04,0,0,0,0,0,0,0,0,0,0,0,0,0,0,0,0,0,VALID,0,0,0,0,0,1,0,0,0,0,0,0,0,0,0,0,0,0,0,0,297.89,2899.01,6,0,1.12,0.5,154,0.89,1.12,1.12,126.2,FLYING
127.25,APPROACH,FLY_TO_FIX,172.55,149,-23.55,2161.31,-88.45,-20.23,2.59,80.26,57.697,0,0,19.505,1,0.6,4.5,0.75,0.35,0.0168,0.4,270.66,0,0,0,-53.706,0,0,0,0,0,270.04,0,0,0,0,0,0,0,0,0,0,0,0,0,0,0,0,0,VALID,0,0,0,0,0,1,0,0,0,0,0,0,0,0,0,0,0,0,0,0,202.89,2962.44,6,0,1.12,0.5,155,0.89,1.12,1.12,127.32,FLYING
128.37,APPROACH,FLY_TO_FIX,177.43,149,-28.43,2056.27,-96.47,-22.27,2.65,79.37,56.248,0,0,19.407,1,0.6,4.5,0.75,0.35,0.0168,0.4,270.64,0,0,0,-53.899,0,0,0,0,0,270.04,0,0,0,0,0,0,0,0,0,0,0,0,0,0,0,0,0,VALID,0,0,0,0,0,1,0,0,0,0,0,0,0,0,0,0,0,0,0,0,138.36,3028.32,6,0,1.12,0.5,156,0.89,1.12,1.12,128.44,FLYING
129.49,APPROACH,FLY_TO_FIX,182.52,149,-33.52,1942.5,-104.2,-24.16,2.65,78.42,54.837,0,0,19.31,1,0.6,4.5,0.75,0.35,0.0168,0.4,270.61,0,0,0,-54.091,0,0,0,0,0,270.04,0,0,0,0,0,0,0,0,0,0,0,0,0,0,0,0,0,VALID,0,0,0,0,0,1,0,0,0,0,0,0,0,0,0,0,0,0,0,0,94.48,3097.43,6,0,1.12,0.5,157,0.89,1.12,1.12,129.56,FLYING
130.61,APPROACH,FLY_TO_FIX,187.85,149,-38.85,1820.27,-111.74,-25.97,2.57,77.5,53.463,0,0,19.214,1,0.6,4.5,0.75,0.35,0.0168,0.4,270.58,0,0,0,-54.283,0,0,0,0,0,270.04,0,0,0,0,0,0,0,0,0,0,0,0,0,0,0,0,0,VALID,0,0,0,0,0,1,0,0,0,0,0,0,0,0,0,0,0,0,0,0,64.62,3170.11,6,0,1.12,0.5,158,0.89,1.12,1.12,130.68,FLYING
131.73,APPROACH,FLY_TO_FIX,193.43,149,-44.43,1689.81,-119.08,-27.68,2.56,76.61,52.036,0,0,19.118,1,0.6,4.5,0.75,0.35,0.0168,0.4,270.55,0,0,0,-54.475,0,0,0,0,0,270.04,0,0,0,0,0,0,0,0,0,0,0,0,0,0,0,0,0,VALID,0,0,0,0,0,1,0,0,0,0,0,0,0,0,0,0,0,0,0,0,44.27,3246.87,6,0,1.12,0.5,159,0.89,1.12,1.12,131.8,FLYING
132.85,APPROACH,FLY_TO_FIX,199.29,149,-50.29,1551.37,-126.16,-29.27,2.57,75.7,50.633,0,0,19.022,1,0.6,4.5,0.75,0.35,0.0168,0.4,270.52,0,0,0,-54.665,0,0,0,0,0,270.04,0,0,0,0,0,0,0,0,0,0,0,0,0,0,0,0,0,VALID,0,0,0,0,0,1,0,0,0,0,0,0,0,0,0,0,0,0,0,0,30.38,3327.9,6,0,1.12,0.5,160,0.89,1.12,1.12,132.92,FLYING
133.97,APPROACH,FLY_TO_FIX,205.37,149,-56.37,1405.18,-132.99,-30.74,2.41,74.77,49.361,0,0,18.927,1,0.6,4.5,0.75,0.35,0.0168,0.4,270.48,0,0,0,-54.856,0,0,0,0,0,270.04,0,0,0,0,0,0,0,0,0,0,0,0,0,0,0,0,0,VALID,0,0,0,0,0,1,0,0,0,0,0,0,0,0,0,0,0,0,0,0,20.88,3412.96,6,0,1.12,0.5,161,0.89,1.12,1.12,134.04,FLYING
135.09,APPROACH,FLY_TO_FIX,211.71,149,-62.71,1251.53,-139.64,-32.14,2.28,73.91,48.097,0,0,18.832,1,0.6,4.5,0.75,0.35,0.0168,0.4,270.44,0.233,0,0,-55.045,0,0,0,0,0,270.04,0,0,0,0,0,0,0,0,0,0,0,0,0,0,0,0,0,VALID,0,0,0,0,0,1,0,0,0,0,0,0,0,0,0,0,0,0,0,0,14.37,3502.44,6,0,1.12,0.5,162,0.89,1.12,1.12,135.16,FLYING
136.21,APPROACH,FLY_TO_FIX,218.27,149,-69.27,1090.61,-146.1,-33.46,2.14,73.09,46.931,0,0,18.738,1,0.6,4.5,0.75,0.35,0.0168,0.4,270.4,1.027,0,0,-55.234,0,0,0,0,0,270.04,0,0,0,0,0,0,0,0,0,0,0,0,0,0,0,0,0,VALID,0,0,0,0,0,1,0,0,0,0,0,0,0,0,0,0,0,0,0,0,9.91,3596.26,6,0,1.12,0.5,163,0.89,1.12,1.12,136.28,FLYING
137.33,APPROACH,FLY_TO_FIX,225.04,149,-76.04,922.59,-152.42,-34.7,1.98,72.3,45.842,0,0,18.645,1,0.6,4.5,0.75,0.35,0.0168,0.4,270.36,1.857,0,0,-55.422,0,0,0,0,0,270.04,0,0,0,0,0,0,0,0,0,0,0,0,0,0,0,0,0,VALID,0,0,0,0,0,1,0,0,0,0,0,0,0,0,0,0,0,0,0,0,6.84,3694.62,6,0,1.12,0.5,164,0.89,1.12,1.12,137.4,FLYING
138.45,APPROACH,FLY_TO_FIX,232.01,149,-83.01,747.67,-158.53,-35.89,1.85,71.62,44.748,0,0,18.551,1,0.6,4.5,0.75,0.35,0.0168,0.4,270.32,2.722,0,0,-55.61,0,0,0,0,0,270.04,0,0,0,0,0,0,0,0,0,0,0,0,0,0,0,0,0,VALID,0,0,0,0,0,1,0,0,0,0,0,0,0,0,0,0,0,0,0,0,4.73,3797.63,6,0,1.12,0.5,165,0.89,1.12,1.12,138.52,FLYING
139.57,APPROACH,FLY_TO_FIX,239.15,149,-90.15,566.16,-164.35,-36.92,1.78,70.81,43.762,0,0,18.459,1,0.6,4.5,0.75,0.35,0.0168,0.4,270.27,3.621,0,0,-55.797,0,0,0,0,0,270.04,0,0,0,0,0,0,0,0,0,0,0,0,0,0,0,0,0,VALID,0,0,0,0,0,1,0,0,0,0,0,0,0,0,0,0,0,0,0,0,3.27,3905.31,6,0,1.12,0.5,166,0.89,1.12,1.12,139.64,FLYING
140.69,APPROACH,FLY_TO_FIX,246.45,149,-97.45,378.25,-169.98,-37.91,1.63,70.09,42.805,0,0,18.366,1,0.6,4.5,0.75,0.35,0.0168,0.4,270.22,4.551,0,0,-55.983,0,0,0,0,0,270.04,0,0,0,0,0,0,0,0,0,0,0,0,0,0,0,0,0,VALID,0,0,0,0,0,1,0,0,0,0,0,0,0,0,0,0,0,0,0,0,2.27,4017.8,6,0,1.12,0.5,167,0.89,1.12,1.12,140.76,FLYING
141.81,APPROACH,FLY_TO_FIX,253.87,149,-104.87,184.18,-175.46,-38.89,1.54,69.53,42.056,0,0,18.274,1,0.6,4.5,0.75,0.35,0.0168,0.4,270.17,5,0,0,-56.168,0,0,0,0,0,270.04,0,0,0,0,0,0,0,0,0,0,0,0,0,0,0,0,0,VALID,0,0,0,0,0,1,0,0,0,0,0,0,0,0,0,0,0,0,0,0,1.57,4135.47,6,0,1.12,0.5,168,0.89,1.12,1.12,141.88,FLYING
t_s,phase,subphase,ias_ms,vapp_ms,spd_err_ms,agl_m,vs_ms,pitch_deg,aoa_deg,hdg_deg,bank_deg,thr_cmd,thr_cur,thr_intg,at_gain,at_tau_s,at_a_up,at_a_dn,at_kp_thr,at_ki_spd,at_thr_slew,aa_hdg_cmd_deg,aa_fpa_cmd_deg,ils_loc_m,ils_gs_m,ils_dist_km,loc_corr_deg,gs_corr_deg,flare_fpa_cmd,flare_tgt_vs,flare_frac,steer_hdg_deg,steer_blend,ro_loc_corr_deg,ro_hdg_err_deg,ro_yaw_tgt,ro_yaw_scale,ro_yaw_gate,yaw_cmd,roll_cmd,pitch_cmd,ro_pitch_tgt_deg,ro_pitch_err_deg,ro_pitch_ff,ro_roll_assist,flaps_cur,flaps_tgt,asc_j_ab,asc_j_rk,asc_validity,asc_q_pa,asc_q_raw_pa,asc_mach,asc_apo_m,asc_drag_n,asc_w_prop,asc_edot_aero,asc_edot_orb,asc_pitch_bias,asc_blend,asc_spooling,asc_ab_thr_ratio,asc_ab_t_now,asc_ab_t_avail,asc_ab_ign_on,asc_ab_flameouts,asc_rk_t_now,asc_rk_t_avail,asc_rk_ign_on,asc_rk_flameouts,ship_thrust,ship_avail_thrust,ship_ign_on,ship_flameouts,ifc_raw_dt_s,ifc_dt_s,ifc_loop_n,ifc_hz_est,ifc_raw_dt_max_s,ifc_raw_dt_min_s,phase_el_s,status
1.08,TAKEOFF,TO_PREFLIGHT,0.13,80,79.87,2.93,0,0.32,0.62,90.05,0.084,0.2,0,0,0,0,0,0,0,0,0,90.4,0,0,0,0,0,0,0,0,0,90.4,1,0,-0.351,0,0,1,0,0,0,0,0,0,0,1,2,0,0,VALID,0,0,0,0,0,1,0,0,0,0,0,0,0,0,0,0,0,0,0,0,0,124.82,1,0,0.94,0.5,1,2.56,0.94,0.02,0.2,PRELAUNCH
1.78,TAKEOFF,TO_PREFLIGHT,0.04,80,79.96,2.92,0,0.25,-0.73,90.04,0.073,0.4,0,0,0,0,0,0,0,0,0,90.4,0,0,0,0,0,0,0,0,0,90.4,1,0,-0.351,0,0,1,0,0,0,0,0,0,0,2,2,0,0,VALID,0,0,0,0,0,1,0,0,0,0,0,0,0,0,0,0,0,0,0,0,10.54,124.82,1,0,0.74,0.5,2,1.47,0.94,0.74,0.9,PRELAUNCH
2.5,TAKEOFF,TO_PREFLIGHT,0.12,80,79.88,2.92,0,0.16,-0.33,89.99,0.081,0.6,0,0,0,0,0,0,0,0,0,90.4,0,0,0,0,0,0,0,0,0,90.4,1,0,-0.351,0,0,1,0,0,0,0,0,0,0,2,2,0,0,VALID,0,0,0,0,0,1,0,0,0,0,0,0,0,0,0,0,0,0,0,0,27.3,124.82,1,0,0.72,0.5,3,1.43,0.74,0.72,1.62,PRELAUNCH
3.2,TAKEOFF,TO_PREFLIGHT,0.22,80,79.78,2.91,0,0.04,-0.05,89.9,0.099,0.8,0,0,0,0,0,0,0,0,0,90.4,0,0,0,0,0,0,0,0,0,90.4,1,0,-0.351,0,0,1,0,0,0,0,0,0,0,2,2,0,0,VALID,0,0,0,0,0,1,0,0,0,0,0,0,0,0,0,0,0,0,0,0,48,124.82,1,0,0.66,0.5,4,1.43,0.72,0.66,2.32,PRELAUNCH
3.9,TAKEOFF,TO_PREFLIGHT,0.33,80,79.67,2.9,0,-0.1,0,89.74,0.129,1,0,0,0,0,0,0,0,0,0,90.4,0,0,0,0,0,0,0,0,0,90.4,1,0,-0.351,0,0,1,0,0,0,0,0,0,0,2,2,0,0,VALID,0,0,0,0,0,1,0,0,0,0,0,0,0,0,0,0,0,0,0,0,70.77,124.82,1,0,0.7,0.5,5,1.43,0.7,0.66,3.02,PRELAUNCH
4.6,TAKEOFF,TO_PREFLIGHT,0.44,80,79.56,2.88,0,-0.24,-0.01,89.47,0.173,1,0,0,0,0,0,0,0,0,0,90.4,0,0,0,0,0,0,0,0,0,90.4,1,0,-0.351,0,0,1,0,0,0,0,0,0,0,2,2,0,0,VALID,0,0,0,0,0,1,0,0,0,0,0,0,0,0,0,0,0,0,0,0,94.08,124.82,1,0,0.7,0.5,6,1.43,0.7,0.7,3.72,PRELAUNCH
5.3,TAKEOFF,TO_PREFLIGHT,0.51,80,79.49,2.88,0,-0.34,0,89.12,0.218,1,0,0,0,0,0,0,0,0,0,90.4,0,0,0,0,0,0,0,0,0,90.4,1,0,-0.351,0,0,1,0,0,0,0,0,0,0,2,2,0,0,VALID,0,0,0,0,0,1,0,0,0,0,0,0,0,0,0,0,0,0,0,0,107.34,124.82,1,0,0.7,0.5,7,1.43,0.7,0.7,4.42,PRELAUNCH
6,TAKEOFF,TO_PREFLIGHT,0.54,80,79.46,2.87,0,-0.38,0.03,88.84,0.173,1,0,0,0,0,0,0,0,0,0,90.4,0,0,0,0,0,0,0,0,0,90.4,1,0,-0.351,0,0,1,0,0,0,0,0,0,0,2,2,0,0,VALID,0,0,0,0,0,1,0,0,0,0,0,0,0,0,0,0,0,0,0,0,114.88,124.82,1,0,0.7,0.5,8,1.43,0.7,0.7,5.12,PRELAUNCH
6.7,TAKEOFF,TO_PREFLIGHT,0.56,80,79.44,2.87,0,-0.39,0.05,88.96,-0.045,1,0,0,0,0,0,0,0,0,0,90.4,0,0,0,0,0,0,0,0,0,90.4,1,0,-0.351,0,0,1,0,0,0,0,0,0,0,2,2,0,0,VALID,0,0,0,0,0,1,0,0,0,0,0,0,0,0,0,0,0,0,0,0,119.17,124.82,1,0,0.7,0.5,9,1.43,0.7,0.7,5.82,PRELAUNCH
7.42,TAKEOFF,TO_PREFLIGHT,0.59,80,79.41,2.87,-0.01,-0.38,0.03,89.75,-0.388,1,0,0,0,0,0,0,0,0,0,90.4,0,0,0,0,0,0,0,0,0,90.4,1,0,-0.351,0,0,1,0,0,0,0,0,0,0,2,2,0,0,VALID,0,0,0,0,0,1,0,0,0,0,0,0,0,0,0,0,0,0,0,0,121.66,124.82,1,0,0.72,0.5,10,1.39,0.72,0.7,6.54,PRELAUNCH
8.14,TAKEOFF,TO_PREFLIGHT,0.61,80,79.39,2.87,0,-0.36,0.01,90.8,-0.484,1,0,0,0,0,0,0,0,0,0,90.4,0,0,0,0,0,0,0,0,0,90.4,1,0,-0.351,0,0,1,0,0,0,0,0,0,0,2,2,0,0,VALID,0,0,0,0,0,1,0,0,0,0,0,0,0,0,0,0,0,0,0,0,123.05,124.82,1,0,0.72,0.5,11,1.39,0.72,0.72,7.26,PRELAUNCH
8.86,TAKEOFF,TO_PREFLIGHT,0.61,80,79.39,2.87,-0.01,-0.35,0.09,90.84,0.054,1,0,0,0,0,0,0,0,0,0,90.4,0,0,0,0,0,0,0,0,0,90.4,1,0,-0.351,0,0,1,0,0,0,0,0,0,0,2,2,0,0,VALID,0,0,0,0,0,1,0,0,0,0,0,0,0,0,0,0,0,0,0,0,123.83,124.82,1,0,0.72,0.5,12,1.39,0.72,0.72,7.98,PRELAUNCH
9.58,TAKEOFF,TO_PREFLIGHT,0.63,80,79.37,2.87,-0.01,-0.31,0.05,89.42,0.865,1,0,0,0,0,0,0,0,0,0,90.4,0,0,0,0,0,0,0,0,0,90.4,1,0,-0.351,0,0,1,0,0,0,0,0,0,0,2,2,0,0,VALID,0,0,0,0,0,1,0,0,0,0,0,0,0,0,0,0,0,0,0,0,124.26,124.82,1,0,0.72,0.5,13,1.39,0.72,0.72,8.7,PRELAUNCH
10.28,TAKEOFF,TO_GROUND_ROLL,0.63,80,79.37,2.88,-0.01,-0.29,0.16,89.44,0.09,1,0,0,0,0,0,0,0,0,0,90.4,0,0,0,0,0,0,0,0,0,90.4,1,0,-0.351,0,0,1,0,0,0,0,0,0,0,2,2,0,0,VALID,0,0,0,0,0,1,0,0,0,0,0,0,0,0,0,0,0,0,0,0,124.51,124.82,1,0,0.7,0.5,14,1.43,0.72,0.7,9.4,PRELAUNCH
11.06,TAKEOFF,TO_GROUND_ROLL,4.47,80,75.53,2.94,-0.04,0.53,0.97,92.19,-1.324,1,0,0,0,0,0,0,0,0,0,89.63,0,0,0,0,0,0,0,0,0,89.63,1,0,2.564,-0.1287,0.59,0,-0.1287,0,0,0,0,0,0,2,2,0,0,VALID,0,0,0,0,0,1,0,0,0,0,0,0,0,0,0,0,0,0,0,0,124.6,124.76,1,0,0.72,0.5,15,1.28,0.72,0.7,10.18,LANDED
11.8,TAKEOFF,TO_GROUND_ROLL,8.71,80,71.29,2.94,-0.04,0.54,0.64,89.96,1.735,1,0,0,0,0,0,0,0,0,0,91.2,0,0,0,0,0,0,0,0,0,91.2,1,0,-1.249,0.1012,0.633,0,0.1012,0,0,0,0,0,0,2,2,0,0,VALID,0,0,0,0,0,1,0,0,0,0,0,0,0,0,0,0,0,0,0,0,124.52,124.61,1,0,0.74,0.5,16,1.35,0.74,0.72,10.92,LANDED
12.54,TAKEOFF,TO_GROUND_ROLL,13,80,67,2.94,-0.07,0.54,0.83,86.51,1.422,1,0,0,0,0,0,0,0,0,0,91.64,0,0,0,0,0,0,0,0,0,91.64,1,0,-5.126,0.269,0.675,0,0.269,0,0,0,0,0,0,2,2,0,0,VALID,0,0,0,0,0,1,0,0,0,0,0,0,0,0,0,0,0,0,0,0,124.34,124.38,1,0,0.74,0.5,17,1.35,0.74,0.74,11.66,LANDED
13.28,TAKEOFF,TO_GROUND_ROLL,17.23,80,62.77,2.95,-0.07,0.48,0.45,89.6,-1.774,1,0,0,0,0,0,0,0,0,0,89.29,0,0,0,0,0,0,0,0,0,89.29,1,0,0.31,-0.1102,0.718,0,-0.1102,0,0,0,0,0,0,2,2,0,0,VALID,0,0,0,0,0,1,0,0,0,0,0,0,0,0,0,0,0,0,0,0,124.07,124.09,1,0,0.74,0.5,18,1.35,0.74,0.74,12.4,LANDED
14.02,TAKEOFF,TO_GROUND_ROLL,21.39,80,58.61,2.94,-0.19,0.32,0.8,96.09,-2.412,1,0,0,0,0,0,0,0,0,0,88.06,0,0,0,0,0,0,0,0,0,88.06,1,0,8.031,-0.4,0.759,0,-0.4,0,0,0,0,0,0,2,2,0,0,VALID,0,0,0,0,0,1,0,0,0,0,0,0,0,0,0,0,0,0,0,0,123.75,123.76,1,0,0.74,0.5,19,1.35,0.74,0.74,13.14,LANDED
14.76,TAKEOFF,TO_GROUND_ROLL,25.56,80,54.44,2.95,-0.08,0.5,0.23,92.41,1.788,1,0,0,0,0,0,0,0,0,0,91.73,0,0,0,0,0,0,0,0,0,91.73,1,0,0.679,0.1071,0.801,0,0.1071,0,0,0,0,0,0,2,2,0,0,VALID,0,0,0,0,0,1,0,0,0,0,0,0,0,0,0,0,0,0,0,0,123.41,123.4,1,0,0.74,0.5,20,1.35,0.74,0.74,13.88,LANDED
15.5,TAKEOFF,TO_GROUND_ROLL,29.48,80,50.52,2.95,-0.15,0.2,0.15,82.93,3.44,1,0,0,0,0,0,0,0,0,0,93.81,0,0,0,0,0,0,0,0,0,93.81,1,0,-10.879,0.4,0.841,0,0.4,0,0,0,0,0,0,2,2,0,0,VALID,0,0,0,0,0,1,0,0,0,0,0,0,0,0,0,0,0,0,0,0,123.05,123.04,1,0,0.74,0.5,21,1.35,0.74,0.74,14.62,LANDED
16.26,TAKEOFF,TO_GROUND_ROLL,33.6,80,46.4,2.94,-0.27,0.31,0.93,78.39,2.901,1,0,0,0,0,0,0,0,0,0,92.04,0,0,0,0,0,0,0,0,0,92.04,1,0,-13.645,0.4,0.882,0,0.4,0,0,0,0,0,0,2,2,0,0,VALID,0,0,0,0,0,1,0,0,0,0,0,0,0,0,0,0,0,0,0,0,122.67,122.66,1,0,0.76,0.5,22,1.32,0.76,0.74,15.38,LANDED
17.02,TAKEOFF,TO_GROUND_ROLL,37.68,80,42.32,2.96,-0.16,0.31,0.02,87.22,-2.795,1,0,0,0,0,0,0,0,0,0,87.22,0,0,0,0,0,0,0,0,0,87.22,1,0,0.002,-0.2949,0.923,0,-0.2949,0,0,0,0,0,0,2,2,0,0,VALID,0,0,0,0,0,1,0,0,0,0,0,0,0,0,0,0,0,0,0,0,122.31,122.3,1,0,0.76,0.5,23,1.32,0.76,0.76,16.14,LANDED
17.78,TAKEOFF,TO_GROUND_ROLL,40.92,80,39.08,2.97,-0.19,0.09,-1.11,105,-4.077,1,0,0,0,0,0,0,0,0,0,84,0,0,0,0,0,0,0,0,0,84,1,0,21.006,-0.4,0.956,0,-0.4,0,0,0,0,0,0,2,2,0,0,VALID,0,0,0,0,0,1,0,0,0,0,0,0,0,0,0,0,0,0,0,0,122.03,122.03,1,0,0.76,0.5,24,1.32,0.76,0.76,16.9,LANDED
18.54,TAKEOFF,TO_GROUND_ROLL,42.73,80,37.27,2.97,-0.23,0.34,-0.88,123.92,-3.609,1,0,0,0,0,0,0,0,0,0,83.59,0,0,0,0,0,0,0,0,0,83.59,1,0,40.334,-0.4,0.976,0,-0.4,0,0,0,0,0,0,2,2,0,0,VALID,0,0,0,0,0,1,0,0,0,0,0,0,0,0,0,0,0,0,0,0,121.89,121.89,1,0,0.76,0.5,25,1.32,0.76,0.76,17.66,LANDED
19.3,TAKEOFF,TO_GROUND_ROLL,44.24,80,35.76,2.95,0.03,-0.18,-0.7,127.35,-1.347,1,0,0,0,0,0,0,0,0,0,89.17,0,0,0,0,0,0,0,0,0,89.17,1,0,38.188,-0.4,0.99,0,-0.4,0,0,0,0,0,0,2,2,0,0,VALID,0,0,0,0,0,1,0,0,0,0,0,0,0,0,0,0,0,0,0,0,121.78,121.77,1,0,0.76,0.5,26,1.32,0.76,0.76,18.42,LANDED
