t_s,phase,subphase,ias_ms,vapp_ms,spd_err_ms,agl_m,gear_h_m,vs_ms,pitch_deg,aoa_deg,hdg_deg,bank_deg,thr_cmd,thr_cur,thr_intg,at_gain,at_tau_s,at_a_up,at_a_dn,at_kp_thr,at_ki_spd,at_thr_slew,as_cmd_deg,as_cap_deg,as_raw_deg,as_spd_err_ms,as_active,aa_hdg_cmd_deg,aa_fpa_cmd_deg,aa_fbw,aa_dir,actual_fpa_deg,ftf_hdg_err_deg,ftf_fix_idx,kos_steer_pit_deg,kos_steer_hdg_deg,aa_dir_vx,aa_dir_vy,aa_dir_vz,aa_dir_pitch_deg,aa_dir_hdg_deg,ils_loc_m,ils_gs_m,ils_dist_km,loc_corr_deg,gs_corr_deg,gs_latched,active_gs_ang_deg,ils_intercept_alt_m,d_gs_ms,fpa_preclamped_deg,gs_nom_alt_m,flare_fpa_cmd,flare_tgt_vs,flare_frac,flare_mode,flare_auth_limited,flare_vs_err,flare_fpa_err,flare_pitch_err,flare_req_up_a,flare_thr_floor,flare_tecs_et_err,flare_tecs_eb_err,flare_tecs_h_ref,flare_tecs_v_ref,steer_hdg_deg,steer_blend,ro_loc_corr_deg,ro_hdg_err_deg,ro_yaw_tgt,ro_yaw_scale,ro_yaw_gate,yaw_cmd,roll_cmd,pitch_cmd,ro_pitch_tgt_deg,ro_pitch_err_deg,ro_pitch_ff,ro_roll_assist,flaps_cur,flaps_tgt,asc_j_ab,asc_j_rk,asc_validity,asc_q_pa,asc_q_raw_pa,asc_mach,asc_apo_m,asc_drag_n,asc_w_prop,asc_edot_aero,asc_edot_orb,asc_pitch_bias,asc_blend,asc_spooling,asc_ab_thr_ratio,asc_ab_t_now,asc_ab_t_avail,asc_ab_ign_on,asc_ab_flameouts,asc_rk_t_now,asc_rk_t_avail,asc_rk_ign_on,asc_rk_flameouts,ship_thrust,ship_avail_thrust,ship_ign_on,ship_flameouts,ifc_raw_dt_s,ifc_dt_s,ifc_loop_n,ifc_hz_est,ifc_raw_dt_max_s,ifc_raw_dt_min_s,phase_el_s,status,craft_name,cfg_file
0.16,APPROACH,ILS_TRACK,155.23,152,-3.23,667.01,587.28,-21.36,6.85,14.34,270.09,0.631,0,0,0,0,0,0,0,0,0,0,0,0,0,0,0,0,0,1,0,-7.84,0,0,0,90,0,0,0,0,0,0.01,-22.32,11.736,0,0,0,3,667.01,0,0,689.33,0,0,0,,0,0,0,0,0,0,0,0,0,0,270.07,0,0,0,0,0,0,0,0,0,0,0,0,0,0,0,0,0,VALID,0,0,0,0,0,1,0,0,0,0,0,0,0,0,0,0,0,0,0,0,258.19,1092.81,2,0,0.14,0.14,1,3.7,0.14,0.02,0.16,FLYING,X10-F,0:/Integrated Flight Computer/aircraft/x10_f_cfg.ks (inferred preloaded)
0.42,APPROACH,ILS_TRACK,155.46,152,-3.46,661.4,581.69,-21.03,6.87,14.22,270.15,0.547,0,0,0,1,0.6,1.487,0.75,0.35,0.0168,0.4,2.194,20.921,2.194,3.44,1,269.99,0,0,1,-7.73,0,0,0,269.97,0.4817,-0.0002,0.8763,0,269.99,0.02,-24.96,11.702,-0.009,17.686,1,3,667.01,-12.746,0,687.55,0,0,0,,0,0,0,0,0,0,0,0,0,0,270.07,0,0,0,0,0,0,0,0,0,0,0,0,0,1,3,0,0,VALID,0,0,0,0,0,1,0,0,0,0,0,0,0,0,0,0,0,0,0,0,235.62,1094.19,2,0,0.127,0.127,3,7.58,0.14,0.102,0.42,FLYING,X10-F,0:/Integrated Flight Computer/aircraft/x10_f_cfg.ks (inferred preloaded)
0.78,APPROACH,ILS_TRACK,155.62,152,-3.62,653.68,574.34,-20.76,5.92,13.06,270.14,0.306,0,0,0,1,0.6,2.747,0.75,0.35,0.0168,0.4,2.374,20.875,2.374,3.604,1,269.96,0,0,1,-7.61,0,0,0,269.98,0.4818,-0.0007,0.8763,0,269.96,0.06,-29.44,11.646,-0.04,19.452,1,3,667.01,-13.273,0,684.65,0,0,0,,0,0,0,0,0,0,0,0,0,0,270.07,0,0,0,0,0,0,0,0,0,0,0,0,0,1,3,0,0,VALID,0,0,0,0,0,1,0,0,0,0,0,0,0,0,0,0,0,0,0,0,208.18,1095.44,2,0,0.163,0.163,5,5.63,0.178,0.127,0.78,FLYING,X10-F,0:/Integrated Flight Computer/aircraft/x10_f_cfg.ks (inferred preloaded)
1.16,APPROACH,ILS_TRACK,155.85,152,-3.85,644.99,566.46,-20.75,3.68,10.63,270.07,0.054,0,0,0,1,0.6,3.815,0.75,0.35,0.0168,0.4,2.62,20.812,2.62,3.829,1,269.96,0,0,1,-7.54,0,0,0,269.96,0.4819,-0.0008,0.8762,0,269.96,0.12,-34.76,11.584,-0.045,21.777,1,3,667.01,-14.186,0,681.36,0,0,0,,0,0,0,0,0,0,0,0,0,0,270.07,0,0,0,0,0,0,0,0,0,0,0,0,0,2,3,0,0,VALID,0,0,0,0,0,1,0,0,0,0,0,0,0,0,0,0,0,0,0,0,182.04,1097,2,0,0.175,0.175,7,5.19,0.21,0.163,1.16,FLYING,X10-F,0:/Integrated Flight Computer/aircraft/x10_f_cfg.ks (inferred preloaded)
1.51,APPROACH,ILS_TRACK,156.25,152,-4.25,636.92,559.06,-21.86,1.34,8.75,270.04,-0.019,0,0,0,1,0.6,4.5,0.75,0.35,0.0168,0.4,3.025,20.706,3.025,4.203,1,269.96,0,0,1,-7.87,0,0,0,269.96,0.482,-0.0008,0.8762,0,269.96,0.17,-39.84,11.527,-0.045,23.564,1,3,667.01,-14.517,0,678.37,0,0,0,,0,0,0,0,0,0,0,0,0,0,270.07,0,0,0,0,0,0,0,0,0,0,0,0,0,3,3,0,0,VALID,0,0,0,0,0,1,0,0,0,0,0,0,0,0,0,0,0,0,0,0,161.25,1099.28,2,0,0.175,0.175,9,5.71,0.175,0.175,1.51,FLYING,X10-F,0:/Integrated Flight Computer/aircraft/x10_f_cfg.ks (inferred preloaded)
1.86,APPROACH,ILS_TRACK,156.77,152,-4.77,628.87,551.15,-23.14,0.57,8.59,270.04,-0.006,0,0,0,1,0.6,4.5,0.75,0.35,0.0168,0.4,3.579,20.561,3.579,4.72,1,269.96,0,0,1,-8.34,0,0,0,269.96,0.482,-0.0007,0.8762,0,269.96,0.22,-44.89,11.469,-0.042,24.979,1,3,667.01,-14.392,0,675.38,0,0,0,,0,0,0,0,0,0,0,0,0,0,270.07,0,0,0,0,0,0,0,0,0,0,0,0,0,3,3,0,0,VALID,0,0,0,0,0,1,0,0,0,0,0,0,0,0,0,0,0,0,0,0,142.91,1102.11,2,0,0.175,0.175,11,5.71,0.175,0.175,1.86,FLYING,X10-F,0:/Integrated Flight Computer/aircraft/x10_f_cfg.ks (inferred preloaded)
2.21,APPROACH,ILS_TRACK,157.26,152,-5.26,620.67,542.86,-24.12,0.73,9.11,270.05,0.038,0,0,0,1,0.6,4.5,0.75,0.35,0.0168,0.4,4.097,20.422,4.097,5.212,1,269.96,0,0,1,-8.65,0,0,0,269.96,0.4821,-0.0008,0.8761,0,269.96,0.26,-50.06,11.412,-0.043,26.951,1,3,667.01,-14.917,0,672.37,0,0,0,,0,0,0,0,0,0,0,0,0,0,270.07,0,0,0,0,0,0,0,0,0,0,0,0,0,3,3,0,0,VALID,0,0,0,0,0,1,0,0,0,0,0,0,0,0,0,0,0,0,0,0,126.66,1104.86,2,0,0.175,0.175,13,5.71,0.175,0.175,2.21,FLYING,X10-F,0:/Integrated Flight Computer/aircraft/x10_f_cfg.ks (inferred preloaded)
2.56,APPROACH,ILS_TRACK,157.63,152,-5.63,612.36,534.26,-24.71,1.62,10.26,270.05,0.051,0,0,0,1,0.6,4.5,0.75,0.35,0.0168,0.4,4.503,20.312,4.503,5.601,1,269.95,0,0,1,-8.88,0,0,0,269.96,0.4822,-0.0008,0.8761,0,269.95,0.31,-55.33,11.355,-0.047,28.709,1,3,667.01,-15.138,0,669.37,0,0,0,,0,0,0,0,0,0,0,0,0,0,270.07,0,0,0,0,0,0,0,0,0,0,0,0,0,3,3,0,0,VALID,0,0,0,0,0,1,0,0,0,0,0,0,0,0,0,0,0,0,0,0,112.21,1107.16,2,0,0.175,0.175,15,5.71,0.175,0.175,2.56,FLYING,X10-F,0:/Integrated Flight Computer/aircraft/x10_f_cfg.ks (inferred preloaded)
2.91,APPROACH,ILS_TRACK,157.83,152,-5.83,603.99,525.49,-25.07,2.72,11.55,270.06,0.056,0,0,0,1,0.6,4.5,0.75,0.35,0.0168,0.4,4.726,20.251,4.726,5.818,1,269.95,0,0,1,-9.02,0,0,0,269.95,0.4823,-0.0009,0.876,0,269.95,0.36,-60.7,11.297,-0.049,30.472,1,3,667.01,-15.326,0,666.36,0,0,0,,0,0,0,0,0,0,0,0,0,0,270.07,0,0,0,0,0,0,0,0,0,0,0,0,0,3,3,0,0,VALID,0,0,0,0,0,1,0,0,0,0,0,0,0,0,0,0,0,0,0,0,99.35,1108.73,2,0,0.175,0.175,17,5.71,0.175,0.175,2.91,FLYING,X10-F,0:/Integrated Flight Computer/aircraft/x10_f_cfg.ks (inferred preloaded)
3.26,APPROACH,ILS_TRACK,157.82,152,-5.82,595.7,516.68,-24.99,4.3,13.16,270.06,0.021,0,0,0,1,0.6,4.5,0.75,0.35,0.0168,0.4,4.74,20.248,4.74,5.831,1,269.95,0,0,1,-9.01,0,0,0,269.95,0.4824,-0.0009,0.876,0,269.95,0.41,-66.01,11.24,-0.052,31.869,1,3,667.01,-15.082,0,663.36,0,0,0,,0,0,0,0,0,0,0,0,0,0,270.07,0,0,0,0,0,0,0,0,0,0,0,0,0,3,3,0,0,VALID,0,0,0,0,0,1,0,0,0,0,0,0,0,0,0,0,0,0,0,0,87.89,1109.39,2,0,0.175,0.175,19,5.71,0.175,0.175,3.26,FLYING,X10-F,0:/Integrated Flight Computer/aircraft/x10_f_cfg.ks (inferred preloaded)
3.61,APPROACH,ILS_TRACK,157.53,152,-5.53,587.69,507.95,-24.55,6.43,15.26,270.03,-0.076,0,0,0,1,0.6,4.5,0.75,0.35,0.0168,0.4,4.472,20.321,4.472,5.572,1,269.94,0,0,1,-8.9,0,0,0,269.95,0.4825,-0.001,0.8759,0,269.94,0.46,-71.1,11.183,-0.055,32.753,1,3,667.01,-14.28,0,660.36,0,0,0,,0,0,0,0,0,0,0,0,0,0,270.07,0,0,0,0,0,0,0,0,0,0,0,0,0,3,3,0,0,VALID,0,0,0,0,0,1,0,0,0,0,0,0,0,0,0,0,0,0,0,0,77.67,1108.84,2,0,0.175,0.175,21,5.71,0.175,0.175,3.61,FLYING,X10-F,0:/Integrated Flight Computer/aircraft/x10_f_cfg.ks (inferred preloaded)
3.96,APPROACH,ILS_TRACK,156.86,152,-4.86,580.11,499.46,-23.65,9.29,17.91,270,-0.16,0,0,0,1,0.6,4.5,0.75,0.35,0.0168,0.4,3.819,20.497,3.819,4.947,1,269.95,0,0,1,-8.64,0,0,0,269.94,0.4825,-0.001,0.8759,0,269.95,0.51,-75.78,11.126,-0.055,33.202,1,3,667.01,-13.085,0,657.37,0,0,0,,0,0,0,0,0,0,0,0,0,0,270.07,0,0,0,0,0,0,0,0,0,0,0,0,0,3,3,0,0,VALID,0,0,0,0,0,1,0,0,0,0,0,0,0,0,0,0,0,0,0,0,68.54,1106.66,2,0,0.175,0.175,23,5.71,0.175,0.175,3.96,FLYING,X10-F,0:/Integrated Flight Computer/aircraft/x10_f_cfg.ks (inferred preloaded)
4.31,APPROACH,ILS_TRACK,155.68,152,-3.68,572.81,491.5,-21.62,11.83,19.69,269.97,-0.196,0.14,0,-1.45,1,0.6,4.5,0.75,0.35,0.0168,0.4,0,20.813,0,3.825,0,269.95,0,0,1,-8.06,0,0,0,269.94,0.4826,-0.0009,0.8758,0,269.95,0.55,-80.14,11.069,-0.05,33.894,1,3,667.01,-12.315,0,654.4,0,0,0,,0,0,0,0,0,0,0,0,0,0,270.07,0,0,0,0,0,0,0,0,0,0,0,0,0,3,3,0,0,VALID,0,0,0,0,0,1,0,0,0,0,0,0,0,0,0,0,0,0,0,0,63.79,1102.22,2,0,0.175,0.175,25,5.71,0.175,0.175,4.31,FLYING,X10-F,0:/Integrated Flight Computer/aircraft/x10_f_cfg.ks (inferred preloaded)
4.66,APPROACH,ILS_TRACK,153.99,152,-1.99,565.67,484.36,-19.56,12.19,19.19,269.97,-0.187,0.28,0,-2.356,1,0.6,4.5,0.75,0.35,0.0168,0.4,0,21.284,0,2.153,0,269.95,0,0,1,-7.35,0,0,0,269.95,0.4827,-0.0008,0.8758,0,269.95,0.58,-84.38,11.013,-0.046,34.924,1,3,667.01,-12.011,0,651.46,0,0,0,,0,0,0,0,0,0,0,0,0,0,270.07,0,0,0,0,0,0,0,0,0,0,0,0,0,3,3,0,0,VALID,0,0,0,0,0,1,0,0,0,0,0,0,0,0,0,0,0,0,0,0,71.14,1095.54,2,0,0.175,0.175,27,5.71,0.175,0.175,4.66,FLYING,X10-F,0:/Integrated Flight Computer/aircraft/x10_f_cfg.ks (inferred preloaded)
5.01,APPROACH,ILS_TRACK,152.53,152,-0.53,558.89,477.79,-18.28,11.54,18.07,269.97,-0.176,0.42,0,-2.711,1,0.6,4.5,0.75,0.35,0.0168,0.4,0,21.703,0,0.666,0,269.96,0,0,1,-6.9,0,0,0,269.96,0.4828,-0.0008,0.8757,0,269.96,0.61,-88.32,10.957,-0.043,35.313,1,3,667.01,-11.02,0,648.54,0,0,0,,0,0,0,0,0,0,0,0,0,0,270.07,0,0,0,0,0,0,0,0,0,0,0,0,0,3,3,0,0,VALID,0,0,0,0,0,1,0,0,0,0,0,0,0,0,0,0,0,0,0,0,88.29,1089.88,2,0,0.175,0.175,29,5.71,0.175,0.175,5.01,FLYING,X10-F,0:/Integrated Flight Computer/aircraft/x10_f_cfg.ks (inferred preloaded)
5.36,APPROACH,ILS_TRACK,151.33,152,0.67,552.42,471.57,-17.47,10.71,16.99,269.97,-0.167,0.56,0,-2.702,1,0.6,4.5,0.75,0.35,0.0168,0.4,0,22.049,0,-0.561,0,269.96,0,0,1,-6.63,0,0,0,269.96,0.4829,-0.0007,0.8757,0,269.96,0.63,-91.96,10.902,-0.04,35.729,1,3,667.01,-10.178,0,645.64,0,0,0,,0,0,0,0,0,0,0,0,0,0,270.07,0,0,0,0,0,0,0,0,0,0,0,0,0,3,3,0,0,VALID,0,0,0,0,0,1,0,0,0,0,0,0,0,0,0,0,0,0,0,0,114.48,1085.27,2,0,0.175,0.175,31,5.71,0.175,0.175,5.36,FLYING,X10-F,0:/Integrated Flight Computer/aircraft/x10_f_cfg.ks (inferred preloaded)
5.71,APPROACH,ILS_TRACK,150.33,152,1.67,546.23,465.58,-16.92,10.02,16.14,269.97,-0.143,0.7,0,-2.675,1,0.6,4.5,0.75,0.35,0.0168,0.4,0,22.336,0,-1.578,0,269.96,0,0,1,-6.45,0,0,0,269.96,0.4829,-0.0006,0.8757,0,269.96,0.65,-95.32,10.847,-0.037,36.138,1,3,667.01,-9.427,0,642.77,0,0,0,,0,0,0,0,0,0,0,0,0,0,270.07,0,0,0,0,0,0,0,0,0,0,0,0,0,3,3,0,0,VALID,0,0,0,0,0,1,0,0,0,0,0,0,0,0,0,0,0,0,0,0,149.04,1081.56,2,0,0.175,0.175,33,5.71,0.175,0.175,5.71,FLYING,X10-F,0:/Integrated Flight Computer/aircraft/x10_f_cfg.ks (inferred preloaded)
6.06,APPROACH,ILS_TRACK,149.55,152,2.45,540.29,459.74,-16.5,9.62,15.65,269.97,-0.123,0.84,0,-2.648,1,0.6,4.5,0.75,0.35,0.0168,0.4,0,22.561,0,-2.377,0,269.97,0,0,1,-6.32,0,0,0,269.97,0.483,-0.0006,0.8756,0,269.97,0.66,-98.44,10.793,-0.035,36.527,1,3,667.01,-8.744,0,639.9,0,0,0,,0,0,0,0,0,0,0,0,0,0,270.07,0,0,0,0,0,0,0,0,0,0,0,0,0,3,3,0,0,VALID,0,0,0,0,0,1,0,0,0,0,0,0,0,0,0,0,0,0,0,0,191.4,1078.77,2,0,0.175,0.175,35,5.71,0.175,0.175,6.06,FLYING,X10-F,0:/Integrated Flight Computer/aircraft/x10_f_cfg.ks (inferred preloaded)
6.41,APPROACH,ILS_TRACK,148.97,152,3.03,534.6,454.04,-16.14,9.6,15.56,269.97,-0.112,0.98,0,-2.622,1,0.6,4.5,0.75,0.35,0.0168,0.4,0,22.731,0,-2.981,0,269.97,0,0,1,-6.21,0,0,0,269.97,0.4831,-0.0005,0.8756,0,269.97,0.67,-101.33,10.738,-0.031,36.862,1,3,667.01,-8.08,0,637.05,0,0,0,,0,0,0,0,0,0,0,0,0,0,270.07,0,0,0,0,0,0,0,0,0,0,0,0,0,3,3,0,0,VALID,0,0,0,0,0,1,0,0,0,0,0,0,0,0,0,0,0,0,0,0,241.03,1076.78,2,0,0.175,0.175,37,5.71,0.175,0.175,6.41,FLYING,X10-F,0:/Integrated Flight Computer/aircraft/x10_f_cfg.ks (inferred preloaded)
6.76,APPROACH,ILS_TRACK,148.54,152,3.46,529.17,448.46,-15.73,9.98,15.85,269.97,-0.108,0.918,0,-1.46,1,0.6,4.5,0.75,0.35,0.0168,0.4,0,22.855,0,-3.42,0,269.97,0,0,1,-6.08,0,0,0,269.97,0.4832,-0.0005,0.8755,0,269.97,0.67,-103.97,10.684,-0.028,37.096,1,3,667.01,-7.381,0,634.21,0,0,0,,0,0,0,0,0,0,0,0,0,0,270.07,0,0,0,0,0,0,0,0,0,0,0,0,0,3,3,0,0,VALID,0,0,0,0,0,1,0,0,0,0,0,0,0,0,0,0,0,0,0,0,295.08,1075.47,2,0,0.175,0.175,39,5.71,0.175,0.175,6.76,FLYING,X10-F,0:/Integrated Flight Computer/aircraft/x10_f_cfg.ks (inferred preloaded)
7.11,APPROACH,ILS_TRACK,148.23,152,3.77,523.99,443.03,-15.19,10.74,16.46,269.97,-0.102,0.8228,0,-0.177,1,0.6,4.5,0.75,0.35,0.0168,0.4,0,22.945,0,-3.739,0,269.97,0,0,1,-5.9,0,0,0,269.97,0.4833,-0.0005,0.8755,0,269.97,0.67,-106.36,10.63,-0.028,37.213,1,3,667.01,-6.631,0,631.37,0,0,0,,0,0,0,0,0,0,0,0,0,0,270.07,0,0,0,0,0,0,0,0,0,0,0,0,0,3,3,0,0,VALID,0,0,0,0,0,1,0,0,0,0,0,0,0,0,0,0,0,0,0,0,340.64,1074.63,2,0,0.175,0.175,41,5.71,0.175,0.175,7.11,FLYING,X10-F,0:/Integrated Flight Computer/aircraft/x10_f_cfg.ks (inferred preloaded)
7.46,APPROACH,ILS_TRACK,147.96,152,4.04,519.07,437.87,-14.23,11.63,16.97,269.97,-0.089,0.7615,0,1.203,1,0.6,4.5,0.75,0.35,0.0168,0.4,0,23.022,0,-4.015,0,269.98,0,0,1,-5.57,0,0,0,269.97,0.4833,-0.0004,0.8754,0,269.98,0.67,-108.49,10.576,-0.025,37.29,1,3,667.01,-5.93,0,628.53,0,0,0,,0,0,0,0,0,0,0,0,0,0,270.07,0,0,0,0,0,0,0,0,0,0,0,0,0,3,3,0,0,VALID,0,0,0,0,0,1,0,0,0,0,0,0,0,0,0,0,0,0,0,0,376.48,1073.91,2,0,0.175,0.175,43,5.71,0.175,0.175,7.46,FLYING,X10-F,0:/Integrated Flight Computer/aircraft/x10_f_cfg.ks (inferred preloaded)
7.81,APPROACH,ILS_TRACK,147.7,152,4.3,514.34,433.06,-13.35,11.94,16.94,269.97,-0.071,0.7329,0,2.679,1,0.6,4.5,0.75,0.35,0.0168,0.4,0,23.096,0,-4.277,0,269.98,0,0,1,-5.23,0,0,0,269.98,0.4834,-0.0004,0.8754,0,269.98,0.66,-110.44,10.522,-0.023,37.445,1,3,667.01,-5.392,0,625.7,0,0,0,,0,0,0,0,0,0,0,0,0,0,270.07,0,0,0,0,0,0,0,0,0,0,0,0,0,3,3,0,0,VALID,0,0,0,0,0,1,0,0,0,0,0,0,0,0,0,0,0,0,0,0,405.92,1073.25,2,0,0.175,0.175,45,5.71,0.175,0.175,7.81,FLYING,X10-F,0:/Integrated Flight Computer/aircraft/x10_f_cfg.ks (inferred preloaded)
8.16,APPROACH,ILS_TRACK,147.52,152,4.48,509.92,428.54,-12.56,12.25,16.98,269.97,-0.057,0.6972,0,4.226,1,0.6,4.5,0.75,0.35,0.0168,0.4,0,23.148,0,-4.461,0,269.98,0,0,1,-4.93,0,0,0,269.98,0.4835,-0.0003,0.8753,0,269.98,0.65,-112.1,10.468,-0.02,37.242,1,3,667.01,-4.516,0,622.88,0,0,0,,0,0,0,0,0,0,0,0,0,0,270.07,0,0,0,0,0,0,0,0,0,0,0,0,0,3,3,0,0,VALID,0,0,0,0,0,1,0,0,0,0,0,0,0,0,0,0,0,0,0,0,431.17,1072.89,2,0,0.175,0.175,47,5.71,0.175,0.175,8.16,FLYING,X10-F,0:/Integrated Flight Computer/aircraft/x10_f_cfg.ks (inferred preloaded)
8.51,APPROACH,ILS_TRACK,147.41,152,4.59,505.82,424.31,-11.61,12.71,17.08,269.97,-0.043,0.6634,0,5.82,1,0.6,4.5,0.75,0.35,0.0168,0.4,0,23.183,0,-4.584,0,269.98,0,0,1,-4.58,0,0,0,269.98,0.4836,-0.0003,0.8753,0,269.98,0.64,-113.43,10.414,-0.017,36.91,1,3,667.01,-3.6,0,620.05,0,0,0,,0,0,0,0,0,0,0,0,0,0,270.07,0,0,0,0,0,0,0,0,0,0,0,0,0,3,3,0,0,VALID,0,0,0,0,0,1,0,0,0,0,0,0,0,0,0,0,0,0,0,0,452.18,1072.75,2,0,0.175,0.175,49,5.71,0.175,0.175,8.51,FLYING,X10-F,0:/Integrated Flight Computer/aircraft/x10_f_cfg.ks (inferred preloaded)
8.86,APPROACH,ILS_TRACK,147.33,152,4.67,501.98,420.41,-10.72,12.94,16.99,269.97,-0.035,0.6373,0,7.448,1,0.6,4.5,0.75,0.35,0.0168,0.4,0,23.206,0,-4.666,0,269.98,0,0,1,-4.24,0,0,0,269.98,0.4837,-0.0003,0.8753,0,269.98,0.63,-114.5,10.36,-0.015,36.613,1,3,667.01,-2.829,0,617.23,0,0,0,,0,0,0,0,0,0,0,0,0,0,270.07,0,0,0,0,0,0,0,0,0,0,0,0,0,3,3,0,0,VALID,0,0,0,0,0,1,0,0,0,0,0,0,0,0,0,0,0,0,0,0,469.53,1072.76,2,0,0.175,0.175,51,5.71,0.175,0.175,8.86,FLYING,X10-F,0:/Integrated Flight Computer/aircraft/x10_f_cfg.ks (inferred preloaded)
9.21,APPROACH,ILS_TRACK,147.29,152,4.71,498.34,416.89,-9.66,12.67,16.23,269.97,-0.022,0.6149,0,9.092,1,0.6,4.5,0.75,0.35,0.0168,0.4,0,23.217,0,-4.706,0,269.99,0,0,1,-3.81,0,0,0,269.99,0.4837,-0.0002,0.8752,0,269.99,0.61,-115.35,10.306,-0.012,36.471,1,3,667.01,-2.333,0,614.4,0,0,0,,0,0,0,0,0,0,0,0,0,0,270.07,0,0,0,0,0,0,0,0,0,0,0,0,0,3,3,0,0,VALID,0,0,0,0,0,1,0,0,0,0,0,0,0,0,0,0,0,0,0,0,483.85,1072.9,2,0,0.175,0.175,53,5.71,0.175,0.175,9.21,FLYING,X10-F,0:/Integrated Flight Computer/aircraft/x10_f_cfg.ks (inferred preloaded)
9.56,APPROACH,ILS_TRACK,147.41,152,4.59,494.96,413.63,-9.1,12.21,15.57,269.98,-0.008,0.551,0,10.718,1,0.6,4.5,0.75,0.35,0.0168,0.4,0,23.19,0,-4.609,0,269.99,0,0,1,-3.57,0,0,0,269.99,0.4838,-0.0002,0.8752,0,269.99,0.6,-115.96,10.252,-0.012,36.025,1,3,667.01,-1.546,0,611.58,0,0,0,,0,0,0,0,0,0,0,0,0,0,270.07,0,0,0,0,0,0,0,0,0,0,0,0,0,3,3,0,0,VALID,0,0,0,0,0,1,0,0,0,0,0,0,0,0,0,0,0,0,0,0,495.42,1073.64,2,0,0.175,0.175,55,5.71,0.175,0.175,9.56,FLYING,X10-F,0:/Integrated Flight Computer/aircraft/x10_f_cfg.ks (inferred preloaded)
9.91,APPROACH,ILS_TRACK,147.63,152,4.37,491.88,410.53,-8.66,12.16,15.4,269.98,0.005,0.4668,0,12.276,1,0.6,4.5,0.75,0.35,0.0168,0.4,0,23.129,0,-4.394,0,269.99,0,0,1,-3.39,0,0,0,269.99,0.4839,-0.0002,0.8751,0,269.99,0.58,-116.28,10.198,-0.011,35.426,1,3,667.01,-0.679,0,608.74,0,0,0,,0,0,0,0,0,0,0,0,0,0,270.07,0,0,0,0,0,0,0,0,0,0,0,0,0,3,3,0,0,VALID,0,0,0,0,0,1,0,0,0,0,0,0,0,0,0,0,0,0,0,0,501.48,1074.8,2,0,0.175,0.175,57,5.71,0.175,0.175,9.91,FLYING,X10-F,0:/Integrated Flight Computer/aircraft/x10_f_cfg.ks (inferred preloaded)
10.26,APPROACH,ILS_TRACK,147.87,152,4.13,489.1,407.58,-8.18,12.62,15.74,269.98,0.016,0.4034,0,13.749,1,0.6,4.5,0.75,0.35,0.0168,0.4,0,23.06,0,-4.15,0,269.99,0,0,1,-3.21,0,0,0,269.99,0.484,-0.0002,0.8751,0,269.99,0.56,-116.28,10.144,-0.009,34.723,1,3,667.01,0.202,0,605.91,0,0,0,,0,0,0,0,0,0,0,0,0,0,270.07,0,0,0,0,0,0,0,0,0,0,0,0,0,3,3,0,0,VALID,0,0,0,0,0,1,0,0,0,0,0,0,0,0,0,0,0,0,0,0,500.49,1076.06,2,0,0.175,0.175,59,5.71,0.175,0.175,10.26,FLYING,X10-F,0:/Integrated Flight Computer/aircraft/x10_f_cfg.ks (inferred preloaded)
10.61,APPROACH,ILS_TRACK,148.05,152,3.95,486.63,404.82,-7.55,13.55,16.48,269.99,0.029,0.3904,0,15.151,1,0.6,4.5,0.75,0.35,0.0168,0.4,0,23.008,0,-3.963,0,269.99,0,0,1,-2.98,0,0,0,269.99,0.4841,-0.0001,0.875,0,269.99,0.54,-115.97,10.09,-0.008,33.889,1,3,667.01,1.128,0,603.07,0,0,0,,0,0,0,0,0,0,0,0,0,0,270.07,0,0,0,0,0,0,0,0,0,0,0,0,0,3,3,0,0,VALID,0,0,0,0,0,1,0,0,0,0,0,0,0,0,0,0,0,0,0,0,492.83,1077.02,2,0,0.175,0.175,61,5.71,0.175,0.175,10.61,FLYING,X10-F,0:/Integrated Flight Computer/aircraft/x10_f_cfg.ks (inferred preloaded)
10.96,APPROACH,ILS_TRACK,148.07,152,3.93,484.48,402.34,-6.53,14.7,17.24,269.99,0.033,0.4476,0,16.522,1,0.6,4.5,0.75,0.35,0.0168,0.4,0,22.996,0,-3.92,0,269.99,0,0,1,-2.61,0,0,0,269.99,0.4841,-0.0001,0.875,0,269.99,0.52,-115.34,10.036,-0.007,32.996,1,3,667.01,2.006,0,600.23,0,0,0,,0,0,0,0,0,0,0,0,0,0,270.07,0,0,0,0,0,0,0,0,0,0,0,0,0,3,3,0,0,VALID,0,0,0,0,0,1,0,0,0,0,0,0,0,0,0,0,0,0,0,0,485.57,1077.35,2,0,0.175,0.175,63,5.71,0.175,0.175,10.96,FLYING,X10-F,0:/Integrated Flight Computer/aircraft/x10_f_cfg.ks (inferred preloaded)
11.31,APPROACH,ILS_TRACK,147.93,152,4.07,482.52,400.32,-5.15,15.14,17.06,269.99,0.042,0.5652,0,17.925,1,0.6,4.5,0.75,0.35,0.0168,0.4,0,23.032,0,-4.048,0,269.99,0,0,1,-2.09,0,0,0,269.99,0.4842,-0.0001,0.875,0,269.99,0.51,-114.49,9.981,-0.006,32.34,1,3,667.01,2.508,0,597.39,0,0,0,,0,0,0,0,0,0,0,0,0,0,270.07,0,0,0,0,0,0,0,0,0,0,0,0,0,3,3,0,0,VALID,0,0,0,0,0,1,0,0,0,0,0,0,0,0,0,0,0,0,0,0,486.21,1076.94,2,0,0.175,0.175,65,5.71,0.175,0.175,11.31,FLYING,X10-F,0:/Integrated Flight Computer/aircraft/x10_f_cfg.ks (inferred preloaded)
11.66,APPROACH,ILS_TRACK,147.8,152,4.2,480.75,398.71,-4.23,14.66,16.2,269.99,0.055,0.6594,0,19.384,1,0.6,4.5,0.75,0.35,0.0168,0.4,0,23.074,0,-4.197,0,269.99,0,0,1,-1.7,0,0,0,269.99,0.4843,-0.0001,0.8749,0,269.99,0.49,-113.47,9.927,-0.006,31.568,1,3,667.01,3.091,0,594.56,0,0,0,,0,0,0,0,0,0,0,0,0,0,270.07,0,0,0,0,0,0,0,0,0,0,0,0,0,3,3,0,0,VALID,0,0,0,0,0,1,0,0,0,0,0,0,0,0,0,0,0,0,0,0,495.62,1076.5,2,0,0.175,0.175,67,5.71,0.175,0.175,11.66,FLYING,X10-F,0:/Integrated Flight Computer/aircraft/x10_f_cfg.ks (inferred preloaded)
12.01,APPROACH,ILS_TRACK,147.82,152,4.18,479.25,397.36,-3.56,14.11,15.39,270,0.062,0.6523,0,20,1,0.6,4.5,0.75,0.35,0.0168,0.4,0,23.073,0,-4.193,0,269.99,0,0,1,-1.43,0,0,0,269.99,0.4844,-0.0001,0.8749,0,269.99,0.47,-112.19,9.873,-0.007,30.57,1,3,667.01,3.858,0,591.72,0,0,0,,0,0,0,0,0,0,0,0,0,0,270.07,0,0,0,0,0,0,0,0,0,0,0,0,0,3,3,0,0,VALID,0,0,0,0,0,1,0,0,0,0,0,0,0,0,0,0,0,0,0,0,510.26,1076.68,2,0,0.175,0.175,69,5.71,0.175,0.175,12.01,FLYING,X10-F,0:/Integrated Flight Computer/aircraft/x10_f_cfg.ks (inferred preloaded)
12.36,APPROACH,ILS_TRACK,147.97,152,4.03,477.99,396.22,-3.05,13.71,14.83,270,0.065,0.5812,0,20,1,0.6,4.5,0.75,0.35,0.0168,0.4,0,23.032,0,-4.05,0,269.99,0,0,1,-1.23,0,0,0,269.99,0.4844,-0.0001,0.8748,0,269.99,0.45,-110.65,9.819,-0.005,29.529,1,3,667.01,4.584,0,588.88,0,0,0,,0,0,0,0,0,0,0,0,0,0,270.07,0,0,0,0,0,0,0,0,0,0,0,0,0,3,3,0,0,VALID,0,0,0,0,0,1,0,0,0,0,0,0,0,0,0,0,0,0,0,0,522.83,1077.42,2,0,0.175,0.175,71,5.71,0.175,0.175,12.36,FLYING,X10-F,0:/Integrated Flight Computer/aircraft/x10_f_cfg.ks (inferred preloaded)
12.71,APPROACH,ILS_TRACK,148.23,152,3.77,476.93,395.25,-2.57,13.36,14.3,270,0.066,0.4867,0,20,1,0.6,4.5,0.75,0.35,0.0168,0.4,0,22.962,0,-3.8,0,269.99,0,0,1,-1.02,0,0,0,269.99,0.4845,-0.0001,0.8748,0,269.99,0.44,-108.91,9.765,-0.006,28.583,1,3,667.01,5.112,0,586.04,0,0,0,,0,0,0,0,0,0,0,0,0,0,270.07,0,0,0,0,0,0,0,0,0,0,0,0,0,3,3,0,0,VALID,0,0,0,0,0,1,0,0,0,0,0,0,0,0,0,0,0,0,0,0,529.31,1078.57,2,0,0.175,0.175,73,5.71,0.175,0.175,12.71,FLYING,X10-F,0:/Integrated Flight Computer/aircraft/x10_f_cfg.ks (inferred preloaded)
13.06,APPROACH,ILS_TRACK,148.56,152,3.44,476.04,394.44,-2.16,13.1,13.89,270,0.067,0.3867,0,20,1,0.6,4.5,0.75,0.35,0.0168,0.4,0,22.869,0,-3.472,0,269.99,0,0,1,-0.86,0,0,0,269.99,0.4846,-0.0001,0.8747,0,269.99,0.42,-106.98,9.71,-0.007,27.601,1,3,667.01,5.618,0,583.19,0,0,0,,0,0,0,0,0,0,0,0,0,0,270.07,0,0,0,0,0,0,0,0,0,0,0,0,0,3,3,0,0,VALID,0,0,0,0,0,1,0,0,0,0,0,0,0,0,0,0,0,0,0,0,527.2,1080.02,2,0,0.175,0.175,75,5.71,0.175,0.175,13.06,FLYING,X10-F,0:/Integrated Flight Computer/aircraft/x10_f_cfg.ks (inferred preloaded)
13.41,APPROACH,ILS_TRACK,148.92,152,3.08,475.28,393.75,-1.84,12.86,13.52,270,0.069,0.3011,0,20,1,0.6,4.5,0.75,0.35,0.0168,0.4,0,22.768,0,-3.113,0,269.99,0,0,1,-0.73,0,0,0,270,0.4847,-0.0001,0.8747,0,269.99,0.41,-104.91,9.656,-0.007,26.656,1,3,667.01,6.021,0,580.33,0,0,0,,0,0,0,0,0,0,0,0,0,0,270.07,0,0,0,0,0,0,0,0,0,0,0,0,0,3,3,0,0,VALID,0,0,0,0,0,1,0,0,0,0,0,0,0,0,0,0,0,0,0,0,513.45,1081.57,2,0,0.175,0.175,77,5.71,0.175,0.175,13.41,FLYING,X10-F,0:/Integrated Flight Computer/aircraft/x10_f_cfg.ks (inferred preloaded)
13.76,APPROACH,ILS_TRACK,149.26,152,2.74,474.65,393.15,-1.6,12.72,13.31,270,0.068,0.2441,0,20,1,0.6,4.5,0.75,0.35,0.0168,0.4,0,22.671,0,-2.767,0,269.99,0,0,1,-0.63,0,0,0,269.99,0.4848,-0.0001,0.8746,0,269.99,0.39,-102.7,9.601,-0.006,25.69,1,3,667.01,6.401,0,577.47,0,0,0,,0,0,0,0,0,0,0,0,0,0,270.07,0,0,0,0,0,0,0,0,0,0,0,0,0,3,3,0,0,VALID,0,0,0,0,0,1,0,0,0,0,0,0,0,0,0,0,0,0,0,0,491.11,1083.04,2,0,0.175,0.175,79,5.71,0.175,0.175,13.76,FLYING,X10-F,0:/Integrated Flight Computer/aircraft/x10_f_cfg.ks (inferred preloaded)
14.11,APPROACH,ILS_TRACK,149.54,152,2.46,474.1,392.66,-1.31,12.56,13.02,270,0.067,0.2255,0,20,1,0.6,4.5,0.75,0.35,0.0168,0.4,0,22.591,0,-2.483,0,269.99,0,0,1,-0.51,0,0,0,269.99,0.4848,-0.0001,0.8746,0,269.99,0.38,-100.4,9.547,-0.006,24.825,1,3,667.01,6.617,0,574.6,0,0,0,,0,0,0,0,0,0,0,0,0,0,270.07,0,0,0,0,0,0,0,0,0,0,0,0,0,3,3,0,0,VALID,0,0,0,0,0,1,0,0,0,0,0,0,0,0,0,0,0,0,0,0,464.89,1084.23,2,0,0.175,0.175,81,5.71,0.175,0.175,14.11,FLYING,X10-F,0:/Integrated Flight Computer/aircraft/x10_f_cfg.ks (inferred preloaded)
14.46,APPROACH,ILS_TRACK,149.75,152,2.25,473.63,392.23,-1.16,12.41,12.82,270,0.063,0.2374,0,20,1,0.6,4.5,0.75,0.35,0.0168,0.4,0,22.531,0,-2.271,0,269.99,0,0,1,-0.45,0,0,0,269.99,0.4849,-0.0001,0.8746,0,269.99,0.37,-98.01,9.492,-0.006,23.907,1,3,667.01,6.871,0,571.73,0,0,0,,0,0,0,0,0,0,0,0,0,0,270.07,0,0,0,0,0,0,0,0,0,0,0,0,0,3,3,0,0,VALID,0,0,0,0,0,1,0,0,0,0,0,0,0,0,0,0,0,0,0,0,439.89,1085.12,2,0,0.175,0.175,83,5.71,0.175,0.175,14.46,FLYING,X10-F,0:/Integrated Flight Computer/aircraft/x10_f_cfg.ks (inferred preloaded)
14.81,APPROACH,ILS_TRACK,149.87,152,2.13,473.23,391.84,-1.02,12.37,12.75,270,0.059,0.2725,0,20,1,0.6,4.5,0.75,0.35,0.0168,0.4,0,22.493,0,-2.135,0,269.99,0,0,1,-0.42,0,0,0,269.99,0.485,-0.0001,0.8745,0,269.99,0.36,-95.55,9.437,-0.006,22.981,1,3,667.01,7.106,0,568.86,0,0,0,,0,0,0,0,0,0,0,0,0,0,270.07,0,0,0,0,0,0,0,0,0,0,0,0,0,3,3,0,0,VALID,0,0,0,0,0,1,0,0,0,0,0,0,0,0,0,0,0,0,0,0,419.67,1085.69,2,0,0.175,0.175,85,5.71,0.175,0.175,14.81,FLYING,X10-F,0:/Integrated Flight Computer/aircraft/x10_f_cfg.ks (inferred preloaded)
15.16,APPROACH,ILS_TRACK,149.96,152,2.04,472.86,391.59,-0.46,12.07,12.19,270,0.044,0.3135,0,20,1,0.6,4.5,0.75,0.35,0.0168,0.4,0,22.469,0,-2.052,0,269.99,0,0,1,-0.2,0,0,0,269.99,0.4851,-0.0001,0.8745,0,269.99,0.35,-93.05,9.382,-0.006,22.172,1,3,667.01,7.18,0,565.98,0,0,0,,0,0,0,0,0,0,0,0,0,0,270.07,0,0,0,0,0,0,0,0,0,0,0,0,0,3,3,0,0,VALID,0,0,0,0,0,1,0,0,0,0,0,0,0,0,0,0,0,0,0,0,406.38,1086.05,2,0,0.175,0.175,87,5.71,0.175,0.175,15.16,FLYING,X10-F,0:/Integrated Flight Computer/aircraft/x10_f_cfg.ks (inferred preloaded)
15.51,APPROACH,ILS_TRACK,150.06,152,1.94,472.54,391.56,0.03,11.24,11.11,270,0.033,0.3308,0,20,1,0.6,4.5,0.75,0.35,0.0168,0.4,0,22.441,0,-1.953,0,269.99,0,0,1,0,0,0,0,269.99,0.4852,-0.0001,0.8744,0,269.99,0.34,-90.5,9.327,-0.006,21.352,1,3,667.01,7.246,0,563.1,0,0,0,,0,0,0,0,0,0,0,0,0,0,270.07,0,0,0,0,0,0,0,0,0,0,0,0,0,3,3,0,0,VALID,0,0,0,0,0,1,0,0,0,0,0,0,0,0,0,0,0,0,0,0,399.18,1086.47,2,0,0.175,0.175,89,5.71,0.175,0.175,15.51,FLYING,X10-F,0:/Integrated Flight Computer/aircraft/x10_f_cfg.ks (inferred preloaded)
15.86,APPROACH,ILS_TRACK,150.25,152,1.75,472.28,391.59,0.1,10.26,10.12,270,0.031,0.3022,0,20,1,0.6,4.5,0.75,0.35,0.0168,0.4,0,22.39,0,-1.772,0,269.99,0,0,1,0.04,0,0,0,269.99,0.4852,-0.0001,0.8744,0,269.99,0.32,-87.89,9.272,-0.005,20.337,1,3,667.01,7.537,0,560.22,0,0,0,,0,0,0,0,0,0,0,0,0,0,270.07,0,0,0,0,0,0,0,0,0,0,0,0,0,3,3,0,0,VALID,0,0,0,0,0,1,0,0,0,0,0,0,0,0,0,0,0,0,0,0,394.5,1087.27,2,0,0.175,0.175,91,5.71,0.175,0.175,15.86,FLYING,X10-F,0:/Integrated Flight Computer/aircraft/x10_f_cfg.ks (inferred preloaded)
16.21,APPROACH,ILS_TRACK,150.54,152,1.46,472.11,391.57,-0.29,9.56,9.64,269.99,0.034,0.2368,0,20,1,0.6,4.5,0.75,0.35,0.0168,0.4,0,22.311,0,-1.489,0,269.99,0,0,1,-0.07,0,0,0,269.99,0.4853,-0.0001,0.8743,0,269.99,0.32,-85.21,9.217,-0.007,19.351,1,3,667.01,7.766,0,557.34,0,0,0,,0,0,0,0,0,0,0,0,0,0,270.07,0,0,0,0,0,0,0,0,0,0,0,0,0,3,3,0,0,VALID,0,0,0,0,0,1,0,0,0,0,0,0,0,0,0,0,0,0,0,0,385.94,1088.48,2,0,0.175,0.175,93,5.71,0.175,0.175,16.21,FLYING,X10-F,0:/Integrated Flight Computer/aircraft/x10_f_cfg.ks (inferred preloaded)
16.56,APPROACH,ILS_TRACK,150.83,152,1.17,472.05,391.44,-0.43,9.74,9.92,269.99,0.028,0.1848,0,20,1,0.6,4.5,0.75,0.35,0.0168,0.4,0,22.228,0,-1.197,0,270,0,0,1,-0.14,0,0,0,269.99,0.4854,-0.0001,0.8743,0,270,0.31,-82.39,9.162,-0.005,18.254,1,3,667.01,8.078,0,554.45,0,0,0,,0,0,0,0,0,0,0,0,0,0,270.07,0,0,0,0,0,0,0,0,0,0,0,0,0,3,3,0,0,VALID,0,0,0,0,0,1,0,0,0,0,0,0,0,0,0,0,0,0,0,0,370.3,1089.7,2,0,0.175,0.175,95,5.71,0.175,0.175,16.56,FLYING,X10-F,0:/Integrated Flight Computer/aircraft/x10_f_cfg.ks (inferred preloaded)
16.91,APPROACH,ILS_TRACK,151.05,152,0.95,472.01,391.29,-0.32,10.1,10.24,269.99,0.024,0.1701,0,20,1,0.6,4.5,0.75,0.35,0.0168,0.4,0,22.163,0,-0.964,0,270,0,0,1,-0.13,0,0,0,269.99,0.4855,-0.0001,0.8742,0,270,0.3,-79.53,9.107,-0.004,17.349,1,3,667.01,8.137,0,551.55,0,0,0,,0,0,0,0,0,0,0,0,0,0,270.07,0,0,0,0,0,0,0,0,0,0,0,0,0,3,3,0,0,VALID,0,0,0,0,0,1,0,0,0,0,0,0,0,0,0,0,0,0,0,0,350.61,1090.65,2,0,0.175,0.175,97,5.71,0.175,0.175,16.91,FLYING,X10-F,0:/Integrated Flight Computer/aircraft/x10_f_cfg.ks (inferred preloaded)
17.26,APPROACH,ILS_TRACK,151.18,152,0.82,471.92,391.19,-0.21,10.19,10.25,269.99,0.023,0.1971,0,20,1,0.6,4.5,0.75,0.35,0.0168,0.4,0,22.125,0,-0.829,0,270,0,0,1,-0.08,0,0,0,269.99,0.4856,-0.0001,0.8742,0,270,0.29,-76.71,9.051,-0.005,16.582,1,3,667.01,8.04,0,548.65,0,0,0,,0,0,0,0,0,0,0,0,0,0,270.07,0,0,0,0,0,0,0,0,0,0,0,0,0,3,3,0,0,VALID,0,0,0,0,0,1,0,0,0,0,0,0,0,0,0,0,0,0,0,0,332.17,1091.19,2,0,0.175,0.175,99,5.71,0.175,0.175,17.26,FLYING,X10-F,0:/Integrated Flight Computer/aircraft/x10_f_cfg.ks (inferred preloaded)
17.61,APPROACH,ILS_TRACK,151.23,152,0.77,471.83,391.11,-0.19,10.16,10.21,269.99,0.023,0.2446,0,20,1,0.6,4.5,0.75,0.35,0.0168,0.4,0,22.109,0,-0.773,0,270,0,0,1,-0.08,0,0,0,270,0.4856,-0.0001,0.8742,0,270,0.28,-73.91,8.996,-0.004,15.726,1,3,667.01,8.057,0,545.76,0,0,0,,0,0,0,0,0,0,0,0,0,0,270.07,0,0,0,0,0,0,0,0,0,0,0,0,0,3,3,0,0,VALID,0,0,0,0,0,1,0,0,0,0,0,0,0,0,0,0,0,0,0,0,319.65,1091.41,2,0,0.175,0.175,101,5.71,0.175,0.175,17.61,FLYING,X10-F,0:/Integrated Flight Computer/aircraft/x10_f_cfg.ks (inferred preloaded)
17.96,APPROACH,ILS_TRACK,151.24,152,0.76,471.75,391.03,-0.21,10.16,10.24,269.99,0.021,0.2928,0,20,1,0.6,4.5,0.75,0.35,0.0168,0.4,0,22.106,0,-0.763,0,270,0,0,1,-0.08,0,0,0,270,0.4857,-0.0001,0.8741,0,270,0.27,-71.09,8.941,-0.004,14.848,1,3,667.01,8.099,0,542.86,0,0,0,,0,0,0,0,0,0,0,0,0,0,270.07,0,0,0,0,0,0,0,0,0,0,0,0,0,3,3,0,0,VALID,0,0,0,0,0,1,0,0,0,0,0,0,0,0,0,0,0,0,0,0,314.55,1091.45,2,0,0.175,0.175,103,5.71,0.175,0.175,17.96,FLYING,X10-F,0:/Integrated Flight Computer/aircraft/x10_f_cfg.ks (inferred preloaded)
18.31,APPROACH,ILS_TRACK,151.23,152,0.77,471.68,390.96,-0.17,10.18,10.23,269.99,0.023,0.3308,0,20,1,0.6,4.5,0.75,0.35,0.0168,0.4,0,22.108,0,-0.77,0,270,0,0,1,-0.07,0,0,0,270,0.4858,-0.0001,0.8741,0,270,0.26,-68.26,8.885,-0.003,13.993,1,3,667.01,8.106,0,539.96,0,0,0,,0,0,0,0,0,0,0,0,0,0,270.07,0,0,0,0,0,0,0,0,0,0,0,0,0,3,3,0,0,VALID,0,0,0,0,0,1,0,0,0,0,0,0,0,0,0,0,0,0,0,0,315.24,1091.42,2,0,0.175,0.175,105,5.71,0.175,0.175,18.31,FLYING,X10-F,0:/Integrated Flight Computer/aircraft/x10_f_cfg.ks (inferred preloaded)
18.66,APPROACH,ILS_TRACK,151.22,152,0.78,471.62,390.89,-0.2,10.15,10.22,269.99,0.019,0.3562,0,20,1,0.6,4.5,0.75,0.35,0.0168,0.4,0,22.111,0,-0.78,0,270,0,0,1,-0.06,0,0,0,270,0.4859,-0.0001,0.874,0,270,0.25,-65.43,8.83,-0.003,13.168,1,3,667.01,8.077,0,537.06,0,0,0,,0,0,0,0,0,0,0,0,0,0,270.07,0,0,0,0,0,0,0,0,0,0,0,0,0,3,3,0,0,VALID,0,0,0,0,0,1,0,0,0,0,0,0,0,0,0,0,0,0,0,0,318.64,1091.39,2,0,0.175,0.175,107,5.71,0.175,0.175,18.66,FLYING,X10-F,0:/Integrated Flight Computer/aircraft/x10_f_cfg.ks (inferred preloaded)
19.01,APPROACH,ILS_TRACK,151.22,152,0.78,471.56,390.84,-0.15,10.15,10.2,269.99,0.02,0.3673,0,20,1,0.6,4.5,0.75,0.35,0.0168,0.4,0,22.11,0,-0.777,0,270,0,0,1,-0.06,0,0,0,270,0.486,0,0.874,0,270,0.24,-62.59,8.775,-0.002,12.293,1,3,667.01,8.106,0,534.16,0,0,0,,0,0,0,0,0,0,0,0,0,0,270.07,0,0,0,0,0,0,0,0,0,0,0,0,0,3,3,0,0,VALID,0,0,0,0,0,1,0,0,0,0,0,0,0,0,0,0,0,0,0,0,323.54,1091.41,2,0,0.175,0.175,109,5.71,0.175,0.175,19.01,FLYING,X10-F,0:/Integrated Flight Computer/aircraft/x10_f_cfg.ks (inferred preloaded)
19.36,APPROACH,ILS_TRACK,151.25,152,0.75,471.5,390.79,-0.14,10.13,10.18,269.99,0.018,0.3654,0,20,1,0.6,4.5,0.75,0.35,0.0168,0.4,0,22.103,0,-0.754,0,270,0,0,1,-0.05,0,0,0,270,0.486,0,0.8739,0,270,0.23,-59.75,8.72,-0.001,11.428,1,3,667.01,8.122,0,531.26,0,0,0,,0,0,0,0,0,0,0,0,0,0,270.07,0,0,0,0,0,0,0,0,0,0,0,0,0,3,3,0,0,VALID,0,0,0,0,0,1,0,0,0,0,0,0,0,0,0,0,0,0,0,0,328.81,1091.52,2,0,0.175,0.175,111,5.71,0.175,0.175,19.36,FLYING,X10-F,0:/Integrated Flight Computer/aircraft/x10_f_cfg.ks (inferred preloaded)
19.71,APPROACH,ILS_TRACK,151.3,152,0.7,471.45,390.74,-0.12,10.11,10.15,269.99,0.018,0.3538,0,20,1,0.6,4.5,0.75,0.35,0.0168,0.4,0,22.09,0,-0.708,0,270,0,0,1,-0.05,0,0,0,270,0.4861,0,0.8739,0,270,0.22,-56.9,8.664,0,10.555,1,3,667.01,8.145,0,528.36,0,0,0,,0,0,0,0,0,0,0,0,0,0,270.07,0,0,0,0,0,0,0,0,0,0,0,0,0,3,3,0,0,VALID,0,0,0,0,0,1,0,0,0,0,0,0,0,0,0,0,0,0,0,0,333.49,1091.72,2,0,0.175,0.175,113,5.71,0.175,0.175,19.71,FLYING,X10-F,0:/Integrated Flight Computer/aircraft/x10_f_cfg.ks (inferred preloaded)
20.06,APPROACH,ILS_TRACK,151.36,152,0.64,471.41,390.71,-0.1,10.09,10.13,269.99,0.018,0.3371,0,20,1,0.6,4.5,0.75,0.35,0.0168,0.4,0,22.072,0,-0.643,0,270,0,0,1,-0.04,0,0,0,270,0.4862,0,0.8738,0,270,0.21,-54.05,8.609,-0.001,9.68,1,3,667.01,8.167,0,525.46,0,0,0,,0,0,0,0,0,0,0,0,0,0,270.07,0,0,0,0,0,0,0,0,0,0,0,0,0,3,3,0,0,VALID,0,0,0,0,0,1,0,0,0,0,0,0,0,0,0,0,0,0,0,0,336.97,1092.01,2,0,0.175,0.175,115,5.71,0.175,0.175,20.06,FLYING,X10-F,0:/Integrated Flight Computer/aircraft/x10_f_cfg.ks (inferred preloaded)
20.41,APPROACH,ILS_TRACK,151.45,152,0.55,471.37,390.67,-0.08,10.08,10.1,269.99,0.019,0.3185,0,20,1,0.6,4.5,0.75,0.35,0.0168,0.4,0,22.05,0,-0.563,0,270,0,0,1,-0.03,0,0,0,270,0.4863,0,0.8738,0,270,0.19,-51.18,8.553,0,8.804,1,3,667.01,8.188,0,522.56,0,0,0,,0,0,0,0,0,0,0,0,0,0,270.07,0,0,0,0,0,0,0,0,0,0,0,0,0,3,3,0,0,VALID,0,0,0,0,0,1,0,0,0,0,0,0,0,0,0,0,0,0,0,0,338.97,1092.35,2,0,0.175,0.175,117,5.71,0.175,0.175,20.41,FLYING,X10-F,0:/Integrated Flight Computer/aircraft/x10_f_cfg.ks (inferred preloaded)
20.76,APPROACH,ILS_TRACK,151.53,152,0.47,471.34,390.65,-0.07,10.06,10.09,269.99,0.017,0.3009,0,20,1,0.6,4.5,0.75,0.35,0.0168,0.4,0,22.025,0,-0.475,0,270,0,0,1,-0.03,0,0,0,270,0.4864,0,0.8738,0,270,0.18,-48.31,8.498,0.001,7.924,1,3,667.01,8.211,0,519.66,0,0,0,,0,0,0,0,0,0,0,0,0,0,270.07,0,0,0,0,0,0,0,0,0,0,0,0,0,3,3,0,0,VALID,0,0,0,0,0,1,0,0,0,0,0,0,0,0,0,0,0,0,0,0,339.46,1092.73,2,0,0.175,0.175,119,5.71,0.175,0.175,20.76,FLYING,X10-F,0:/Integrated Flight Computer/aircraft/x10_f_cfg.ks (inferred preloaded)
21.11,APPROACH,ILS_TRACK,151.63,152,0.37,471.32,390.63,-0.06,10.05,10.07,269.99,0.017,0.2863,0,20,1,0.6,4.5,0.75,0.35,0.0168,0.4,0,21.999,0,-0.384,0,270,0,0,1,-0.02,0,0,0,270,0.4865,0,0.8737,0,270,0.17,-45.43,8.443,0.002,7.042,1,3,667.01,8.234,0,516.75,0,0,0,,0,0,0,0,0,0,0,0,0,0,270.07,0,0,0,0,0,0,0,0,0,0,0,0,0,3,3,0,0,VALID,0,0,0,0,0,1,0,0,0,0,0,0,0,0,0,0,0,0,0,0,338.03,1093.11,2,0,0.175,0.175,121,5.71,0.175,0.175,21.11,FLYING,X10-F,0:/Integrated Flight Computer/aircraft/x10_f_cfg.ks (inferred preloaded)
21.46,APPROACH,ILS_TRACK,151.71,152,0.29,471.3,390.61,-0.04,10.05,10.06,269.99,0.017,0.2767,0,20,1,0.6,4.5,0.75,0.35,0.0168,0.4,0,21.975,0,-0.297,0,270,0,0,1,-0.02,0,0,0,270,0.4865,0,0.8737,0,270,0.16,-42.54,8.387,0.002,6.157,1,3,667.01,8.257,0,513.84,0,0,0,,0,0,0,0,0,0,0,0,0,0,270.07,0,0,0,0,0,0,0,0,0,0,0,0,0,3,3,0,0,VALID,0,0,0,0,0,1,0,0,0,0,0,0,0,0,0,0,0,0,0,0,335.03,1093.48,2,0,0.175,0.175,123,5.71,0.175,0.175,21.46,FLYING,X10-F,0:/Integrated Flight Computer/aircraft/x10_f_cfg.ks (inferred preloaded)
21.81,APPROACH,ILS_TRACK,151.79,152,0.21,471.28,390.6,-0.03,10.05,10.06,269.99,0.015,0.273,0,20,1,0.6,4.5,0.75,0.35,0.0168,0.4,0,21.953,0,-0.221,0,270,0,0,1,-0.01,0,0,0,270,0.4866,0,0.8736,0,270,0.15,-39.65,8.332,0.001,5.272,1,3,667.01,8.278,0,510.93,0,0,0,,0,0,0,0,0,0,0,0,0,0,270.07,0,0,0,0,0,0,0,0,0,0,0,0,0,3,3,0,0,VALID,0,0,0,0,0,1,0,0,0,0,0,0,0,0,0,0,0,0,0,0,331.28,1093.79,2,0,0.175,0.175,125,5.71,0.175,0.175,21.81,FLYING,X10-F,0:/Integrated Flight Computer/aircraft/x10_f_cfg.ks (inferred preloaded)
22.16,APPROACH,ILS_TRACK,151.85,152,0.15,471.28,390.59,-0.02,10.05,10.06,269.99,0.016,0.2749,0,20,1,0.6,4.5,0.75,0.35,0.0168,0.4,0,21.936,0,-0.159,0,270,0,0,1,-0.01,0,0,0,270,0.4867,0,0.8736,0,270,0.14,-36.74,8.276,0.002,4.386,1,3,667.01,8.297,0,508.02,0,0,0,,0,0,0,0,0,0,0,0,0,0,270.07,0,0,0,0,0,0,0,0,0,0,0,0,0,3,3,0,0,VALID,0,0,0,0,0,1,0,0,0,0,0,0,0,0,0,0,0,0,0,0,327.6,1094.05,2,0,0.175,0.175,127,5.71,0.175,0.175,22.16,FLYING,X10-F,0:/Integrated Flight Computer/aircraft/x10_f_cfg.ks (inferred preloaded)
22.51,APPROACH,ILS_TRACK,151.89,152,0.11,471.28,390.59,0,10.06,10.06,269.99,0.015,0.2807,0,20,1,0.6,4.5,0.75,0.35,0.0168,0.4,0,21.923,0,-0.112,0,270,0,0,1,0,0,0,0,270,0.4868,0.0001,0.8735,0,270,0.13,-33.84,8.221,0.004,3.5,1,3,667.01,8.314,0,505.11,0,0,0,,0,0,0,0,0,0,0,0,0,0,270.07,0,0,0,0,0,0,0,0,0,0,0,0,0,3,3,0,0,VALID,0,0,0,0,0,1,0,0,0,0,0,0,0,0,0,0,0,0,0,0,324.66,1094.24,2,0,0.175,0.175,129,5.71,0.175,0.175,22.51,FLYING,X10-F,0:/Integrated Flight Computer/aircraft/x10_f_cfg.ks (inferred preloaded)
22.86,APPROACH,ILS_TRACK,151.93,152,0.07,471.28,390.59,0.01,10.06,10.06,269.99,0.015,0.2883,0,20,1,0.6,4.5,0.75,0.35,0.0168,0.4,0,21.913,0,-0.077,0,270,-0.387,0,1,0,0,0,0,270,0.4927,0.0001,0.8702,-0.39,270,0.11,-30.92,8.165,0.004,2.613,1,3,667.01,8.329,-0.387,502.2,0,0,0,,0,0,0,0,0,0,0,0,0,0,270.07,0,0,0,0,0,0,0,0,0,0,0,0,0,3,3,0,0,VALID,0,0,0,0,0,1,0,0,0,0,0,0,0,0,0,0,0,0,0,0,322.83,1094.39,2,0,0.175,0.175,131,5.71,0.175,0.175,22.86,FLYING,X10-F,0:/Integrated Flight Computer/aircraft/x10_f_cfg.ks (inferred preloaded)
23.21,APPROACH,ILS_TRACK,151.93,152,0.07,471.14,390.68,0.34,9.56,9.31,269.99,0.031,0.3039,0,20,1,0.6,4.5,0.75,0.35,0.0168,0.4,0,21.91,0,-0.067,0,270.01,-0.858,0,1,0.13,0,0,-0.76,270,0.5,0.0001,0.866,-0.86,270.01,0.1,-28.1,8.109,0.006,2.142,1,3,667.01,7.861,-0.858,499.29,0,0,0,,0,0,0,0,0,0,0,0,0,0,270.07,0,0,0,0,0,0,0,0,0,0,0,0,0,3,3,0,0,VALID,0,0,0,0,0,1,0,0,0,0,0,0,0,0,0,0,0,0,0,0,322.21,1094.39,2,0,0.175,0.175,133,5.71,0.175,0.175,23.21,FLYING,X10-F,0:/Integrated Flight Computer/aircraft/x10_f_cfg.ks (inferred preloaded)
23.56,APPROACH,ILS_TRACK,152,152,0,470.87,390.73,-0.16,8.38,8.34,270,0.071,0.2916,0,20,1,0.6,4.5,0.75,0.35,0.0168,0.4,0,21.894,0,-0.012,0,270.01,-1.414,0,1,-0.01,0,0,-0.99,270.01,0.5084,0.0001,0.8611,-1.41,270.01,0.09,-25.46,8.054,0.005,1.586,1,3,667.01,7.564,-1.414,496.38,0,0,0,,0,0,0,0,0,0,0,0,0,0,270.07,0,0,0,0,0,0,0,0,0,0,0,0,0,3,3,0,0,VALID,0,0,0,0,0,1,0,0,0,0,0,0,0,0,0,0,0,0,0,0,323.03,1094.67,2,0,0.175,0.175,135,5.71,0.175,0.175,23.56,FLYING,X10-F,0:/Integrated Flight Computer/aircraft/x10_f_cfg.ks (inferred preloaded)
23.91,APPROACH,ILS_TRACK,152.18,152,-0.18,470.57,390.63,-0.46,7.78,7.84,270,0.082,0.2322,0,19.96,1,0.6,4.5,0.75,0.35,0.0168,0.4,0,21.846,0,0.161,0,270.01,-2.135,0,1,-0.15,0,0,-1.87,270,0.5193,0.0001,0.8546,-2.14,270.01,0.08,-22.81,7.998,0.006,0.865,1,3,667.01,7.474,-2.135,493.46,0,0,0,,0,0,0,0,0,0,0,0,0,0,270.07,0,0,0,0,0,0,0,0,0,0,0,0,0,3,3,0,0,VALID,0,0,0,0,0,1,0,0,0,0,0,0,0,0,0,0,0,0,0,0,321.46,1095.43,2,0,0.175,0.175,137,5.71,0.175,0.175,23.91,FLYING,X10-F,0:/Integrated Flight Computer/aircraft/x10_f_cfg.ks (inferred preloaded)
24.26,APPROACH,ILS_TRACK,152.42,152,-0.42,470.07,390.38,-1.13,6.91,7.24,270,0.089,0.1615,0,19.843,1,0.6,4.5,0.75,0.35,0.0168,0.4,0,21.779,0,0.396,0,270,-2.407,0,1,-0.36,0,0,-2.19,270,0.5234,0,0.8521,-2.41,270,0.07,-20.37,7.943,0.004,0.593,1,3,667.01,6.897,-2.407,490.54,0,0,0,,0,0,0,0,0,0,0,0,0,0,270.07,0,0,0,0,0,0,0,0,0,0,0,0,0,3,3,0,0,VALID,0,0,0,0,0,1,0,0,0,0,0,0,0,0,0,0,0,0,0,0,312.53,1096.46,2,0,0.175,0.175,139,5.71,0.175,0.175,24.26,FLYING,X10-F,0:/Integrated Flight Computer/aircraft/x10_f_cfg.ks (inferred preloaded)
24.61,APPROACH,ILS_TRACK,152.68,152,-0.68,469.45,389.88,-1.7,6.51,7.05,270,0.088,0.0977,0,19.636,1,0.6,4.5,0.75,0.35,0.0168,0.4,0,21.706,0,0.657,0,270,-2.849,0,1,-0.58,0,0,-2.71,270.01,0.5301,0,0.848,-2.85,270,0.06,-18.02,7.887,0.004,0.151,1,3,667.01,6.569,-2.849,487.62,0,0,0,,0,0,0,0,0,0,0,0,0,0,270.07,0,0,0,0,0,0,0,0,0,0,0,0,0,3,3,0,0,VALID,0,0,0,0,0,1,0,0,0,0,0,0,0,0,0,0,0,0,0,0,295.75,1097.59,2,0,0.175,0.175,141,5.71,0.175,0.175,24.61,FLYING,X10-F,0:/Integrated Flight Computer/aircraft/x10_f_cfg.ks (inferred preloaded)
24.96,APPROACH,ILS_TRACK,152.92,152,-0.92,468.68,389.15,-2.43,6.29,7.13,270,0.089,0.0562,0,19.341,1,0.6,4.5,0.75,0.35,0.0168,0.4,0,21.637,0,0.9,0,270,-3.162,0,1,-0.86,0,0,-2.95,270,0.5348,0,0.845,-3.16,270,0.05,-15.85,7.831,0.003,-0.162,1,3,667.01,6.145,-3.162,484.69,0,0,0,,0,0,0,0,0,0,0,0,0,0,270.07,0,0,0,0,0,0,0,0,0,0,0,0,0,3,3,0,0,VALID,0,0,0,0,0,1,0,0,0,0,0,0,0,0,0,0,0,0,0,0,273.19,1098.65,2,0,0.175,0.175,143,5.71,0.175,0.175,24.96,FLYING,X10-F,0:/Integrated Flight Computer/aircraft/x10_f_cfg.ks (inferred preloaded)
25.31,APPROACH,ILS_TRACK,153.09,152,-1.09,467.65,388.22,-2.94,6.02,7,270,0.083,0.0507,0,18.979,1,0.6,4.5,0.75,0.35,0.0168,0.4,0,21.589,0,1.072,0,270,-3.11,0,1,-1.04,0,0,-3.23,270,0.5341,0,0.8454,-3.11,270,0.04,-13.89,7.775,0.003,-0.11,1,3,667.01,5.346,-3.11,481.76,0,0,0,,0,0,0,0,0,0,0,0,0,0,270.07,0,0,0,0,0,0,0,0,0,0,0,0,0,3,3,0,0,VALID,0,0,0,0,0,1,0,0,0,0,0,0,0,0,0,0,0,0,0,0,248.69,1099.42,2,0,0.175,0.175,145,5.71,0.175,0.175,25.31,FLYING,X10-F,0:/Integrated Flight Computer/aircraft/x10_f_cfg.ks (inferred preloaded)
25.66,APPROACH,ILS_TRACK,153.17,152,-1.17,466.48,387.04,-3.66,5.98,7.29,270,0.08,0.0732,0,18.577,1,0.6,4.5,0.75,0.35,0.0168,0.4,0,21.562,0,1.168,0,270,-3.428,0,1,-1.33,0,0,-3.22,270,0.5388,0,0.8424,-3.43,270,0.04,-12.1,7.719,0.002,-0.428,1,3,667.01,5.073,-3.428,478.83,0,0,0,,0,0,0,0,0,0,0,0,0,0,270.07,0,0,0,0,0,0,0,0,0,0,0,0,0,3,3,0,0,VALID,0,0,0,0,0,1,0,0,0,0,0,0,0,0,0,0,0,0,0,0,226.8,1099.89,2,0,0.175,0.175,147,5.71,0.175,0.175,25.66,FLYING,X10-F,0:/Integrated Flight Computer/aircraft/x10_f_cfg.ks (inferred preloaded)
26.01,APPROACH,ILS_TRACK,153.18,152,-1.18,465.02,385.7,-4.11,5.71,7.1,270,0.072,0.1181,0,18.163,1,0.6,4.5,0.75,0.35,0.0168,0.4,0,21.558,0,1.18,0,270,-3.118,0,1,-1.48,0,0,-3.36,270,0.5344,0,0.8453,-3.12,270,0.03,-10.56,7.663,0.002,-0.118,1,3,667.01,4.109,-3.118,475.89,0,0,0,,0,0,0,0,0,0,0,0,0,0,270.07,0,0,0,0,0,0,0,0,0,0,0,0,0,3,3,0,0,VALID,0,0,0,0,0,1,0,0,0,0,0,0,0,0,0,0,0,0,0,0,210.8,1100.02,2,0,0.175,0.175,149,5.71,0.175,0.175,26.01,FLYING,X10-F,0:/Integrated Flight Computer/aircraft/x10_f_cfg.ks (inferred preloaded)
26.36,APPROACH,ILS_TRACK,153.14,152,-1.14,463.45,384.09,-4.99,5.61,7.42,270.01,0.067,0.1626,0,17.757,1,0.6,4.5,0.75,0.35,0.0168,0.4,0,21.567,0,1.149,0,270,-3.332,0,1,-1.8,0,0,-3.15,270,0.5376,0,0.8432,-3.33,270,0.03,-9.2,7.607,0.001,-0.332,1,3,667.01,3.867,-3.332,472.96,0,0,0,,0,0,0,0,0,0,0,0,0,0,270.07,0,0,0,0,0,0,0,0,0,0,0,0,0,3,3,0,0,VALID,0,0,0,0,0,1,0,0,0,0,0,0,0,0,0,0,0,0,0,0,202.32,1099.99,2,0,0.175,0.175,151,5.71,0.175,0.175,26.36,FLYING,X10-F,0:/Integrated Flight Computer/aircraft/x10_f_cfg.ks (inferred preloaded)
26.71,APPROACH,ILS_TRACK,153.04,152,-1.04,461.75,382.27,-5.23,6.15,8.01,270,0.048,0.2175,0,17.379,1,0.6,4.5,0.75,0.35,0.0168,0.4,0,21.594,0,1.054,0,270,-3.42,0,1,-1.95,0,0,-3.54,270,0.539,0,0.8423,-3.42,270,0.03,-7.91,7.551,0.001,-0.42,1,3,667.01,3.493,-3.42,470.03,0,0,0,,0,0,0,0,0,0,0,0,0,0,270.07,0,0,0,0,0,0,0,0,0,0,0,0,0,3,3,0,0,VALID,0,0,0,0,0,1,0,0,0,0,0,0,0,0,0,0,0,0,0,0,200.57,1099.72,2,0,0.175,0.175,153,5.71,0.175,0.175,26.71,FLYING,X10-F,0:/Integrated Flight Computer/aircraft/x10_f_cfg.ks (inferred preloaded)
27.06,APPROACH,ILS_TRACK,152.93,152,-0.93,459.8,380.37,-5.77,5.95,8,270,0.048,0.2607,0,17.041,1,0.6,4.5,0.75,0.35,0.0168,0.4,0,21.626,0,0.941,0,270,-3.084,0,1,-2.11,0,0,-3.11,270,0.5341,0,0.8454,-3.08,270,0.02,-6.93,7.496,0,-0.084,1,3,667.01,2.706,-3.084,467.12,0,0,0,,0,0,0,0,0,0,0,0,0,0,270.07,0,0,0,0,0,0,0,0,0,0,0,0,0,3,3,0,0,VALID,0,0,0,0,0,1,0,0,0,0,0,0,0,0,0,0,0,0,0,0,203.65,1099.4,2,0,0.174,0.174,155,5.76,0.175,0.174,27.06,FLYING,X10-F,0:/Integrated Flight Computer/aircraft/x10_f_cfg.ks (inferred preloaded)
27.33,APPROACH,ILS_TRACK,152.83,152,-0.83,458.28,378.72,-6.12,6.31,8.55,270.01,0.049,0.2943,0,16.789,1,0.6,4.5,0.75,0.35,0.0168,0.4,0,21.654,0,0.839,0,270,-3.421,0,1,-2.29,0,0,-3.23,270,0.5391,0,0.8422,-3.42,270,0.02,-6.13,7.449,0,-0.421,1,3,667.01,2.823,-3.421,464.68,0,0,0,,0,0,0,0,0,0,0,0,0,0,270.07,0,0,0,0,0,0,0,0,0,0,0,0,0,3,3,0,0,VALID,0,0,0,0,0,1,0,0,0,0,0,0,0,0,0,0,0,0,0,0,208.2,1099.11,2,0,0.133,0.133,157,7.36,0.174,0.133,27.33,FLYING,X10-F,0:/Integrated Flight Computer/aircraft/x10_f_cfg.ks (inferred preloaded)
27.68,APPROACH,ILS_TRACK,152.68,152,-0.68,456.1,376.59,-6.17,6.3,8.48,270.01,0.04,0.3389,0,16.526,1,0.6,4.5,0.75,0.35,0.0168,0.4,0,21.697,0,0.688,0,270,-2.961,0,1,-2.29,0,0,-3.09,270,0.5324,0,0.8465,-2.96,270,0.02,-5.32,7.393,0.001,0.039,1,3,667.01,1.948,-2.961,461.72,0,0,0,,0,0,0,0,0,0,0,0,0,0,270.07,0,0,0,0,0,0,0,0,0,0,0,0,0,3,3,0,0,VALID,0,0,0,0,0,1,0,0,0,0,0,0,0,0,0,0,0,0,0,0,216.91,1098.65,2,0,0.115,0.115,160,8.53,0.133,0.115,27.68,FLYING,X10-F,0:/Integrated Flight Computer/aircraft/x10_f_cfg.ks (inferred preloaded)
28.01,APPROACH,ILS_TRACK,152.62,152,-0.62,454.03,374.49,-6.68,6.29,8.71,270.01,0.035,0.3187,0,16.315,1,0.6,4.5,0.75,0.35,0.0168,0.4,0,21.715,0,0.624,0,270,-3.23,0,1,-2.48,0,0,-3.08,270,0.5365,-0.0001,0.8439,-3.23,270,0.02,-4.68,7.34,-0.001,-0.23,1,3,667.01,2.043,-3.23,458.97,0,0,0,,0,0,0,0,0,0,0,0,0,0,270.07,0,0,0,0,0,0,0,0,0,0,0,0,0,3,3,0,0,VALID,0,0,0,0,0,1,0,0,0,0,0,0,0,0,0,0,0,0,0,0,226.33,1098.57,2,0,0.107,0.107,163,9.2,0.115,0.107,28.01,FLYING,X10-F,0:/Integrated Flight Computer/aircraft/x10_f_cfg.ks (inferred preloaded)
28.34,APPROACH,ILS_TRACK,152.54,152,-0.54,451.9,372.33,-6.58,6.48,8.81,270,0.025,0.3173,0,16.126,1,0.6,4.5,0.75,0.35,0.0168,0.4,0,21.736,0,0.549,0,270,-3.028,0,1,-2.47,0,0,-3.26,270,0.5335,-0.0001,0.8458,-3.03,270,0.02,-4.08,7.288,-0.003,-0.028,1,3,667.01,1.563,-3.028,456.25,0,0,0,,0,0,0,0,0,0,0,0,0,0,270.07,0,0,0,0,0,0,0,0,0,0,0,0,0,3,3,0,0,VALID,0,0,0,0,0,1,0,0,0,0,0,0,0,0,0,0,0,0,0,0,233.88,1098.42,2,0,0.12,0.12,166,9.25,0.12,0.102,28.34,FLYING,X10-F,0:/Integrated Flight Computer/aircraft/x10_f_cfg.ks (inferred preloaded)
28.7,APPROACH,ILS_TRACK,152.53,152,-0.53,449.36,369.9,-7.03,6.08,8.6,270,0.02,0.2808,0,15.937,1,0.6,4.5,0.75,0.35,0.0168,0.4,0,21.742,0,0.528,0,270,-2.959,0,1,-2.61,0,0,-2.86,270,0.5326,-0.0001,0.8464,-2.96,270,0.02,-3.61,7.231,-0.002,0.041,1,3,667.01,1.304,-2.959,453.25,0,0,0,,0,0,0,0,0,0,0,0,0,0,270.07,0,0,0,0,0,0,0,0,0,0,0,0,0,3,3,0,0,VALID,0,0,0,0,0,1,0,0,0,0,0,0,0,0,0,0,0,0,0,0,241.46,1098.56,2,0,0.12,0.12,169,8.33,0.12,0.12,28.7,FLYING,X10-F,0:/Integrated Flight Computer/aircraft/x10_f_cfg.ks (inferred preloaded)
29.06,APPROACH,ILS_TRACK,152.53,152,-0.53,446.91,367.27,-7.27,6.62,9.27,270,0.011,0.2536,0,15.746,1,0.6,4.5,0.75,0.35,0.0168,0.4,0,21.742,0,0.529,0,270,-3.339,0,1,-2.74,0,0,-3.3,270,0.5383,-0.0001,0.8428,-3.34,270,0.02,-3.06,7.174,-0.002,-0.339,1,3,667.01,1.572,-3.339,450.25,0,0,0,,0,0,0,0,0,0,0,0,0,0,270.07,0,0,0,0,0,0,0,0,0,0,0,0,0,3,3,0,0,VALID,0,0,0,0,0,1,0,0,0,0,0,0,0,0,0,0,0,0,0,0,245.39,1098.77,2,0,0.12,0.12,172,8.33,0.12,0.12,29.06,FLYING,X10-F,0:/Integrated Flight Computer/aircraft/x10_f_cfg.ks (inferred preloaded)
29.42,APPROACH,ILS_TRACK,152.46,152,-0.46,444.22,364.71,-7.21,6.29,8.85,270,0.006,0.2731,0,15.572,1,0.6,4.5,0.75,0.35,0.0168,0.4,0,21.76,0,0.463,0,270,-2.703,0,1,-2.69,0,0,-2.82,270,0.529,-0.0001,0.8486,-2.7,270,0.03,-2.73,7.117,-0.004,0.297,1,3,667.01,0.654,-2.703,447.26,0,0,0,,0,0,0,0,0,0,0,0,0,0,270.07,0,0,0,0,0,0,0,0,0,0,0,0,0,3,3,0,0,VALID,0,0,0,0,0,1,0,0,0,0,0,0,0,0,0,0,0,0,0,0,248.31,1098.71,2,0,0.12,0.12,175,8.33,0.12,0.12,29.42,FLYING,X10-F,0:/Integrated Flight Computer/aircraft/x10_f_cfg.ks (inferred preloaded)
29.78,APPROACH,ILS_TRACK,152.51,152,-0.51,441.51,362.02,-7.76,6.14,8.95,270,0.008,0.2235,0,15.394,1,0.6,4.5,0.75,0.35,0.0168,0.4,0,21.747,0,0.509,0,270,-2.998,0,1,-2.89,0,0,-2.84,270,0.5334,-0.0001,0.8458,-3,270,0.03,-2.45,7.059,-0.003,0.002,1,3,667.01,0.917,-2.998,444.26,0,0,0,,0,0,0,0,0,0,0,0,0,0,270.07,0,0,0,0,0,0,0,0,0,0,0,0,0,3,3,0,0,VALID,0,0,0,0,0,1,0,0,0,0,0,0,0,0,0,0,0,0,0,0,250.73,1099.13,2,0,0.12,0.12,178,8.33,0.12,0.12,29.78,FLYING,X10-F,0:/Integrated Flight Computer/aircraft/x10_f_cfg.ks (inferred preloaded)
30.14,APPROACH,ILS_TRACK,152.5,152,-0.5,438.9,359.18,-7.66,6.9,9.68,270,0.003,0.225,0,15.21,1,0.6,4.5,0.75,0.35,0.0168,0.4,0,21.749,0,0.504,0,270,-3.159,0,1,-2.9,0,0,-3.31,270,0.5359,-0.0001,0.8443,-3.16,270,0.03,-2.06,7.002,-0.004,-0.159,1,3,667.01,0.971,-3.159,441.26,0,0,0,,0,0,0,0,0,0,0,0,0,0,270.07,0,0,0,0,0,0,0,0,0,0,0,0,0,3,3,0,0,VALID,0,0,0,0,0,1,0,0,0,0,0,0,0,0,0,0,0,0,0,0,249.76,1099.32,2,0,0.12,0.12,181,8.33,0.12,0.12,30.14,FLYING,X10-F,0:/Integrated Flight Computer/aircraft/x10_f_cfg.ks (inferred preloaded)
30.5,APPROACH,ILS_TRACK,152.44,152,-0.44,436.08,356.44,-7.75,6.66,9.44,270,0.002,0.25,0,15.047,1,0.6,4.5,0.75,0.35,0.0168,0.4,0,21.766,0,0.442,0,269.99,-2.803,0,1,-2.9,0,0,-2.76,270,0.5307,-0.0001,0.8476,-2.8,269.99,0.03,-1.88,6.945,-0.006,0.197,1,3,667.01,0.459,-2.803,438.27,0,0,0,,0,0,0,0,0,0,0,0,0,0,270.07,0,0,0,0,0,0,0,0,0,0,0,0,0,3,3,0,0,VALID,0,0,0,0,0,1,0,0,0,0,0,0,0,0,0,0,0,0,0,0,250.77,1099.3,2,0,0.12,0.12,184,8.33,0.12,0.12,30.5,FLYING,X10-F,0:/Integrated Flight Computer/aircraft/x10_f_cfg.ks (inferred preloaded)
30.76,APPROACH,ILS_TRACK,152.44,152,-0.44,434.1,354.38,-7.91,6.87,9.76,270,0.002,0.2401,0,14.933,1,0.6,4.5,0.75,0.35,0.0168,0.4,0,21.767,0,0.439,0,270,-3.129,0,1,-2.98,0,0,-2.95,270,0.5356,-0.0001,0.8445,-3.13,270,0.04,-1.7,6.904,-0.003,-0.129,1,3,667.01,0.799,-3.129,436.11,0,0,0,,0,0,0,0,0,0,0,0,0,0,270.07,0,0,0,0,0,0,0,0,0,0,0,0,0,3,3,0,0,VALID,0,0,0,0,0,1,0,0,0,0,0,0,0,0,0,0,0,0,0,0,251.89,1099.45,2,0,0.12,0.12,186,7.69,0.14,0.12,30.76,FLYING,X10-F,0:/Integrated Flight Computer/aircraft/x10_f_cfg.ks (inferred preloaded)
31.12,APPROACH,ILS_TRACK,152.39,152,-0.39,431.29,351.58,-7.81,6.89,9.69,270,0.001,0.2531,0,14.786,1,0.6,4.5,0.75,0.35,0.0168,0.4,0,21.78,0,0.393,0,270,-2.876,0,1,-2.92,0,0,-2.9,269.99,0.5319,-0.0001,0.8468,-2.88,270,0.04,-1.51,6.847,-0.003,0.124,1,3,667.01,0.411,-2.876,433.11,0,0,0,,0,0,0,0,0,0,0,0,0,0,270.07,0,0,0,0,0,0,0,0,0,0,0,0,0,3,3,0,0,VALID,0,0,0,0,0,1,0,0,0,0,0,0,0,0,0,0,0,0,0,0,253.08,1099.49,2,0,0.12,0.12,189,8.33,0.12,0.12,31.12,FLYING,X10-F,0:/Integrated Flight Computer/aircraft/x10_f_cfg.ks (inferred preloaded)
31.48,APPROACH,ILS_TRACK,152.37,152,-0.37,428.49,348.75,-7.75,7.02,9.81,270,-0.001,0.2449,0,14.647,1,0.6,4.5,0.75,0.35,0.0168,0.4,0,21.785,0,0.376,0,270,-3.028,0,1,-2.92,0,0,-3.1,270,0.5343,-0.0001,0.8453,-3.03,270,0.04,-1.31,6.79,-0.005,-0.028,1,3,667.01,0.525,-3.028,430.12,0,0,0,,0,0,0,0,0,0,0,0,0,0,270.07,0,0,0,0,0,0,0,0,0,0,0,0,0,3,3,0,0,VALID,0,0,0,0,0,1,0,0,0,0,0,0,0,0,0,0,0,0,0,0,254.49,1099.65,2,0,0.12,0.12,192,8.33,0.12,0.12,31.48,FLYING,X10-F,0:/Integrated Flight Computer/aircraft/x10_f_cfg.ks (inferred preloaded)
31.84,APPROACH,ILS_TRACK,152.36,152,-0.36,425.65,345.94,-7.95,6.84,9.72,270,0.002,0.2383,0,14.518,1,0.6,4.5,0.75,0.35,0.0168,0.4,0,21.79,0,0.359,0,270,-3.018,0,1,-2.97,0,0,-2.9,270,0.5342,-0.0001,0.8454,-3.02,270,0.04,-1.17,6.733,-0.003,-0.018,1,3,667.01,0.462,-3.018,427.13,0,0,0,,0,0,0,0,0,0,0,0,0,0,270.07,0,0,0,0,0,0,0,0,0,0,0,0,0,3,3,0,0,VALID,0,0,0,0,0,1,0,0,0,0,0,0,0,0,0,0,0,0,0,0,255.69,1099.81,2,0,0.12,0.12,195,8.33,0.12,0.12,31.84,FLYING,X10-F,0:/Integrated Flight Computer/aircraft/x10_f_cfg.ks (inferred preloaded)
32.2,APPROACH,ILS_TRACK,152.33,152,-0.33,422.81,343.11,-7.79,6.89,9.68,270,-0.001,0.2401,0,14.393,1,0.6,4.5,0.75,0.35,0.0168,0.4,0,21.796,0,0.336,0,269.99,-2.929,0,1,-2.92,0,0,-3.09,270,0.5329,-0.0001,0.8461,-2.93,269.99,0.05,-1,6.675,-0.005,0.071,1,3,667.01,0.287,-2.929,424.14,0,0,0,,0,0,0,0,0,0,0,0,0,0,270.07,0,0,0,0,0,0,0,0,0,0,0,0,0,3,3,0,0,VALID,0,0,0,0,0,1,0,0,0,0,0,0,0,0,0,0,0,0,0,0,256.03,1099.94,2,0,0.12,0.12,198,8.33,0.12,0.12,32.2,FLYING,X10-F,0:/Integrated Flight Computer/aircraft/x10_f_cfg.ks (inferred preloaded)
32.56,APPROACH,ILS_TRACK,152.34,152,-0.34,419.98,340.26,-8.03,6.87,9.8,270,0.001,0.2243,0,14.271,1,0.6,4.5,0.75,0.35,0.0168,0.4,0,21.795,0,0.341,0,270,-3.18,0,1,-3.02,0,0,-3.01,270,0.5367,-0.0001,0.8438,-3.18,270,0.05,-0.86,6.618,-0.004,-0.18,1,3,667.01,0.549,-3.18,421.15,0,0,0,,0,0,0,0,0,0,0,0,0,0,270.07,0,0,0,0,0,0,0,0,0,0,0,0,0,3,3,0,0,VALID,0,0,0,0,0,1,0,0,0,0,0,0,0,0,0,0,0,0,0,0,256.25,1100.21,2,0,0.12,0.12,201,8.33,0.12,0.12,32.56,FLYING,X10-F,0:/Integrated Flight Computer/aircraft/x10_f_cfg.ks (inferred preloaded)
32.92,APPROACH,ILS_TRACK,152.3,152,-0.3,417.09,337.43,-7.84,6.77,9.57,270,-0.003,0.2407,0,14.156,1,0.6,4.5,0.75,0.35,0.0168,0.4,0,21.806,0,0.302,0,270,-2.878,0,1,-2.94,0,0,-3.01,270,0.5324,-0.0001,0.8465,-2.88,270,0.05,-0.74,6.561,-0.005,0.122,1,3,667.01,0.127,-2.878,418.16,0,0,0,,0,0,0,0,0,0,0,0,0,0,270.07,0,0,0,0,0,0,0,0,0,0,0,0,0,3,3,0,0,VALID,0,0,0,0,0,1,0,0,0,0,0,0,0,0,0,0,0,0,0,0,255.52,1100.27,2,0,0.12,0.12,204,8.33,0.12,0.12,32.92,FLYING,X10-F,0:/Integrated Flight Computer/aircraft/x10_f_cfg.ks (inferred preloaded)
33.18,APPROACH,ILS_TRACK,152.32,152,-0.32,415,335.36,-8.09,6.64,9.57,270,-0.001,0.2231,0,14.075,1,0.6,4.5,0.75,0.35,0.0168,0.4,0,21.802,0,0.315,0,270,-3.046,0,1,-3.02,0,0,-2.91,270,0.5349,-0.0001,0.8449,-3.05,270,0.05,-0.68,6.52,-0.005,-0.046,1,3,667.01,0.314,-3.046,416,0,0,0,,0,0,0,0,0,0,0,0,0,0,270.07,0,0,0,0,0,0,0,0,0,0,0,0,0,3,3,0,0,VALID,0,0,0,0,0,1,0,0,0,0,0,0,0,0,0,0,0,0,0,0,255.83,1100.5,2,0,0.12,0.12,206,7.69,0.14,0.12,33.18,FLYING,X10-F,0:/Integrated Flight Computer/aircraft/x10_f_cfg.ks (inferred preloaded)
33.54,APPROACH,ILS_TRACK,152.3,152,-0.3,412.15,332.46,-7.93,6.88,9.73,270,-0.005,0.2276,0,13.964,1,0.6,4.5,0.75,0.35,0.0168,0.4,0,21.807,0,0.3,0,269.99,-3.035,0,1,-2.99,0,0,-3.23,270,0.5348,-0.0001,0.845,-3.04,269.99,0.06,-0.53,6.463,-0.005,-0.035,1,3,667.01,0.244,-3.035,413.01,0,0,0,,0,0,0,0,0,0,0,0,0,0,270.07,0,0,0,0,0,0,0,0,0,0,0,0,0,3,3,0,0,VALID,0,0,0,0,0,1,0,0,0,0,0,0,0,0,0,0,0,0,0,0,254.36,1100.66,2,0,0.12,0.12,209,8.33,0.12,0.12,33.54,FLYING,X10-F,0:/Integrated Flight Computer/aircraft/x10_f_cfg.ks (inferred preloaded)
33.9,APPROACH,ILS_TRACK,152.29,152,-0.29,409.24,329.56,-8.19,6.74,9.71,270,-0.003,0.2203,0,13.859,1,0.6,4.5,0.75,0.35,0.0168,0.4,0,21.808,0,0.294,0,270,-3.091,0,1,-3.06,0,0,-2.96,270,0.5357,-0.0001,0.8444,-3.09,270,0.06,-0.47,6.406,-0.005,-0.091,1,3,667.01,0.29,-3.091,410.02,0,0,0,,0,0,0,0,0,0,0,0,0,0,270.07,0,0,0,0,0,0,0,0,0,0,0,0,0,3,3,0,0,VALID,0,0,0,0,0,1,0,0,0,0,0,0,0,0,0,0,0,0,0,0,254.02,1100.89,2,0,0.12,0.12,212,8.33,0.12,0.12,33.9,FLYING,X10-F,0:/Integrated Flight Computer/aircraft/x10_f_cfg.ks (inferred preloaded)
34.26,APPROACH,ILS_TRACK,152.27,152,-0.27,406.34,326.65,-8,6.86,9.73,270,-0.006,0.2303,0,13.758,1,0.6,4.5,0.75,0.35,0.0168,0.4,0,21.815,0,0.268,0,270,-2.968,0,1,-3.01,0,0,-3.14,270,0.534,-0.0001,0.8455,-2.97,270,0.06,-0.37,6.349,-0.005,0.032,1,3,667.01,0.098,-2.968,407.04,0,0,0,,0,0,0,0,0,0,0,0,0,0,270.07,0,0,0,0,0,0,0,0,0,0,0,0,0,3,3,0,0,VALID,0,0,0,0,0,1,0,0,0,0,0,0,0,0,0,0,0,0,0,0,252.73,1101.01,2,0,0.12,0.12,215,8.33,0.12,0.12,34.26,FLYING,X10-F,0:/Integrated Flight Computer/aircraft/x10_f_cfg.ks (inferred preloaded)
34.62,APPROACH,ILS_TRACK,152.26,152,-0.26,403.43,323.72,-8.21,6.85,9.84,270,-0.004,0.2233,0,13.663,1,0.6,4.5,0.75,0.35,0.0168,0.4,0,21.817,0,0.261,0,270,-3.176,0,1,-3.09,0,0,-3.03,270,0.5371,-0.0001,0.8435,-3.18,270,0.07,-0.3,6.292,-0.004,-0.176,1,3,667.01,0.333,-3.176,404.05,0,0,0,,0,0,0,0,0,0,0,0,0,0,270.07,0,0,0,0,0,0,0,0,0,0,0,0,0,3,3,0,0,VALID,0,0,0,0,0,1,0,0,0,0,0,0,0,0,0,0,0,0,0,0,252.63,1101.23,2,0,0.12,0.12,218,8.33,0.12,0.12,34.62,FLYING,X10-F,0:/Integrated Flight Computer/aircraft/x10_f_cfg.ks (inferred preloaded)
34.98,APPROACH,ILS_TRACK,152.23,152,-0.23,400.5,320.81,-8.13,6.83,9.76,270,-0.006,0.234,0,13.577,1,0.6,4.5,0.75,0.35,0.0168,0.4,0,21.827,0,0.228,0,269.99,-2.984,0,1,-3.05,0,0,-3.01,269.99,0.5344,-0.0001,0.8452,-2.98,269.99,0.07,-0.24,6.235,-0.006,0.016,1,3,667.01,0.071,-2.984,401.07,0,0,0,,0,0,0,0,0,0,0,0,0,0,270.07,0,0,0,0,0,0,0,0,0,0,0,0,0,3,3,0,0,VALID,0,0,0,0,0,1,0,0,0,0,0,0,0,0,0,0,0,0,0,0,252.27,1101.34,2,0,0.12,0.12,221,8.33,0.12,0.12,34.98,FLYING,X10-F,0:/Integrated Flight Computer/aircraft/x10_f_cfg.ks (inferred preloaded)
35.34,APPROACH,ILS_TRACK,152.21,152,-0.21,397.59,317.87,-8.06,6.94,9.85,270,-0.008,0.2326,0,13.498,1,0.6,4.5,0.75,0.35,0.0168,0.4,0,21.832,0,0.211,0,270,-3.077,0,1,-3.04,0,0,-3.18,269.99,0.5358,-0.0001,0.8443,-3.08,270,0.07,-0.17,6.178,-0.005,-0.077,1,3,667.01,0.159,-3.077,398.08,0,0,0,,0,0,0,0,0,0,0,0,0,0,270.07,0,0,0,0,0,0,0,0,0,0,0,0,0,3,3,0,0,VALID,0,0,0,0,0,1,0,0,0,0,0,0,0,0,0,0,0,0,0,0,252.46,1101.5,2,0,0.12,0.12,224,8.33,0.12,0.12,35.34,FLYING,X10-F,0:/Integrated Flight Computer/aircraft/x10_f_cfg.ks (inferred preloaded)
35.6,APPROACH,ILS_TRACK,152.19,152,-0.19,395.45,315.76,-8.2,6.81,9.78,270,-0.006,0.2325,0,13.447,1,0.6,4.5,0.75,0.35,0.0168,0.4,0,21.836,0,0.194,0,270,-3.024,0,1,-3.07,0,0,-2.97,270,0.5351,-0.0001,0.8448,-3.02,270,0.07,-0.15,6.137,-0.005,-0.024,1,3,667.01,0.087,-3.024,395.93,0,0,0,,0,0,0,0,0,0,0,0,0,0,270.07,0,0,0,0,0,0,0,0,0,0,0,0,0,3,3,0,0,VALID,0,0,0,0,0,1,0,0,0,0,0,0,0,0,0,0,0,0,0,0,252.74,1101.61,2,0,0.12,0.12,226,7.69,0.14,0.12,35.6,FLYING,X10-F,0:/Integrated Flight Computer/aircraft/x10_f_cfg.ks (inferred preloaded)
35.96,APPROACH,ILS_TRACK,152.17,152,-0.17,392.53,312.82,-8.1,6.9,9.82,270,-0.006,0.237,0,13.382,1,0.6,4.5,0.75,0.35,0.0168,0.4,0,21.844,0,0.168,0,269.99,-3.012,0,1,-3.04,0,0,-3.16,270,0.535,-0.0001,0.8448,-3.01,269.99,0.08,-0.09,6.08,-0.006,-0.012,1,3,667.01,0.048,-3.012,392.95,0,0,0,,0,0,0,0,0,0,0,0,0,0,270.07,0,0,0,0,0,0,0,0,0,0,0,0,0,3,3,0,0,VALID,0,0,0,0,0,1,0,0,0,0,0,0,0,0,0,0,0,0,0,0,252.87,1101.74,2,0,0.12,0.12,229,8.33,0.12,0.12,35.96,FLYING,X10-F,0:/Integrated Flight Computer/aircraft/x10_f_cfg.ks (inferred preloaded)
36.32,APPROACH,ILS_TRACK,152.15,152,-0.15,389.6,309.87,-8.17,6.95,9.92,270,-0.005,0.2306,0,13.325,1,0.6,4.5,0.75,0.35,0.0168,0.4,0,21.847,0,0.156,0,270,-3.187,0,1,-3.09,0,0,-3.1,269.99,0.5377,-0.0001,0.8432,-3.19,270,0.08,-0.04,6.023,-0.004,-0.187,1,3,667.01,0.248,-3.187,389.96,0,0,0,,0,0,0,0,0,0,0,0,0,0,270.07,0,0,0,0,0,0,0,0,0,0,0,0,0,3,3,0,0,VALID,0,0,0,0,0,1,0,0,0,0,0,0,0,0,0,0,0,0,0,0,253.35,1101.94,2,0,0.12,0.12,232,8.33,0.12,0.12,36.32,FLYING,X10-F,0:/Integrated Flight Computer/aircraft/x10_f_cfg.ks (inferred preloaded)
36.68,APPROACH,ILS_TRACK,152.13,152,-0.13,386.63,306.95,-8.21,6.78,9.75,270,-0.004,0.2334,0,13.276,1,0.6,4.5,0.75,0.35,0.0168,0.4,0,21.854,0,0.131,0,270,-3.009,0,1,-3.08,0,0,-2.96,270,0.5351,-0.0001,0.8448,-3.01,270,0.08,-0.03,5.967,-0.005,-0.009,1,3,667.01,0.023,-3.009,386.98,0,0,0,,0,0,0,0,0,0,0,0,0,0,270.07,0,0,0,0,0,0,0,0,0,0,0,0,0,3,3,0,0,VALID,0,0,0,0,0,1,0,0,0,0,0,0,0,0,0,0,0,0,0,0,253.72,1102.08,2,0,0.12,0.12,235,8.33,0.12,0.12,36.68,FLYING,X10-F,0:/Integrated Flight Computer/aircraft/x10_f_cfg.ks (inferred preloaded)
37.04,APPROACH,ILS_TRACK,152.11,152,-0.11,383.7,303.99,-8.12,6.91,9.84,270,-0.005,0.2343,0,13.232,1,0.6,4.5,0.75,0.35,0.0168,0.4,0,21.859,0,0.113,0,269.99,-3.047,0,1,-3.06,0,0,-3.2,269.99,0.5358,-0.0001,0.8444,-3.05,269.99,0.09,0.03,5.91,-0.006,-0.047,1,3,667.01,0.048,-3.047,384,0,0,0,,0,0,0,0,0,0,0,0,0,0,270.07,0,0,0,0,0,0,0,0,0,0,0,0,0,3,3,0,0,VALID,0,0,0,0,0,1,0,0,0,0,0,0,0,0,0,0,0,0,0,0,253.75,1102.24,2,0,0.12,0.12,238,8.33,0.12,0.12,37.04,FLYING,X10-F,0:/Integrated Flight Computer/aircraft/x10_f_cfg.ks (inferred preloaded)
37.4,APPROACH,ILS_TRACK,152.1,152,-0.1,380.76,301.03,-8.26,6.9,9.91,270,-0.003,0.2283,0,13.194,1,0.6,4.5,0.75,0.35,0.0168,0.4,0,21.862,0,0.104,0,269.99,-3.175,0,1,-3.12,0,0,-3.05,270,0.5377,-0.0001,0.8431,-3.18,269.99,0.09,0.05,5.853,-0.006,-0.175,1,3,667.01,0.199,-3.175,381.03,0,0,0,,0,0,0,0,0,0,0,0,0,0,270.07,0,0,0,0,0,0,0,0,0,0,0,0,0,3,3,0,0,VALID,0,0,0,0,0,1,0,0,0,0,0,0,0,0,0,0,0,0,0,0,254.08,1102.46,2,0,0.12,0.12,241,8.33,0.12,0.12,37.4,FLYING,X10-F,0:/Integrated Flight Computer/aircraft/x10_f_cfg.ks (inferred preloaded)
37.76,APPROACH,ILS_TRACK,152.08,152,-0.08,377.79,298.09,-8.24,6.85,9.83,270,-0.004,0.2321,0,13.163,1,0.6,4.5,0.75,0.35,0.0168,0.4,0,21.868,0,0.082,0,269.99,-3.026,0,1,-3.09,0,0,-3,270,0.5356,-0.0002,0.8445,-3.03,269.99,0.09,0.07,5.796,-0.007,-0.026,1,3,667.01,0.007,-3.026,378.05,0,0,0,,0,0,0,0,0,0,0,0,0,0,270.07,0,0,0,0,0,0,0,0,0,0,0,0,0,3,3,0,0,VALID,0,0,0,0,0,1,0,0,0,0,0,0,0,0,0,0,0,0,0,0,254.08,1102.62,2,0,0.12,0.12,244,8.33,0.12,0.12,37.76,FLYING,X10-F,0:/Integrated Flight Computer/aircraft/x10_f_cfg.ks (inferred preloaded)
38.02,APPROACH,ILS_TRACK,152.07,152,-0.07,375.67,295.95,-8.16,6.95,9.91,270,-0.005,0.2303,0,13.142,1,0.6,4.5,0.75,0.35,0.0168,0.4,0,21.87,0,0.075,0,270,-3.123,0,1,-3.08,0,0,-3.15,270,0.5371,-0.0001,0.8435,-3.12,270,0.09,0.1,5.755,-0.005,-0.123,1,3,667.01,0.115,-3.123,375.9,0,0,0,,0,0,0,0,0,0,0,0,0,0,270.07,0,0,0,0,0,0,0,0,0,0,0,0,0,3,3,0,0,VALID,0,0,0,0,0,1,0,0,0,0,0,0,0,0,0,0,0,0,0,0,254.12,1102.76,2,0,0.12,0.12,246,7.69,0.14,0.12,38.02,FLYING,X10-F,0:/Integrated Flight Computer/aircraft/x10_f_cfg.ks (inferred preloaded)
38.38,APPROACH,ILS_TRACK,152.06,152,-0.06,372.72,292.99,-8.23,6.94,9.94,270,-0.003,0.2297,0,13.12,1,0.6,4.5,0.75,0.35,0.0168,0.4,0,21.874,0,0.061,0,269.99,-3.159,0,1,-3.11,0,0,-3.05,270,0.5377,-0.0002,0.8431,-3.16,269.99,0.09,0.12,5.698,-0.007,-0.159,1,3,667.01,0.152,-3.159,372.92,0,0,0,,0,0,0,0,0,0,0,0,0,0,270.07,0,0,0,0,0,0,0,0,0,0,0,0,0,3,3,0,0,VALID,0,0,0,0,0,1,0,0,0,0,0,0,0,0,0,0,0,0,0,0,254.17,1102.95,2,0,0.12,0.12,249,8.33,0.12,0.12,38.38,FLYING,X10-F,0:/Integrated Flight Computer/aircraft/x10_f_cfg.ks (inferred preloaded)
