t_s,phase,subphase,ias_ms,vapp_ms,spd_err_ms,agl_m,vs_ms,pitch_deg,aoa_deg,hdg_deg,bank_deg,thr_cmd,thr_cur,thr_intg,at_gain,at_tau_s,at_a_up,at_a_dn,at_kp_thr,at_ki_spd,at_thr_slew,aa_hdg_cmd_deg,aa_fpa_cmd_deg,ils_loc_m,ils_gs_m,ils_dist_km,loc_corr_deg,gs_corr_deg,flare_fpa_cmd,flare_tgt_vs,flare_frac,steer_hdg_deg,steer_blend,ro_loc_corr_deg,ro_hdg_err_deg,ro_yaw_tgt,ro_yaw_scale,ro_yaw_gate,yaw_cmd,roll_cmd,pitch_cmd,ro_pitch_tgt_deg,ro_pitch_err_deg,ro_pitch_ff,ro_roll_assist,flaps_cur,flaps_tgt,asc_j_ab,asc_j_rk,asc_validity,asc_q_pa,asc_mach,asc_apo_m,asc_drag_n,asc_w_prop,asc_edot_aero,asc_edot_orb,asc_pitch_bias,asc_blend,asc_spooling,phase_el_s,status
0.94,TAKEOFF,TO_PREFLIGHT,0.24,80,79.76,3.62,0.01,-0.1,-1.65,91.26,-0.041,0.2,0,0,0,0,0,0,0,0,0,90.4,0,0,0,0,0,0,0,0,0,90.4,1,0,0.856,0,0,1,0,0,0,0,0,0,0,1,2,0,0,VALID,0,0,0,0,1,0,0,0,0,0,0.2,LANDED
3.5,TAKEOFF,TO_PREFLIGHT,0.04,80,79.96,3.61,0,-0.13,-3.22,91.27,-0.043,0.8,0,0,0,0,0,0,0,0,0,90.4,0,0,0,0,0,0,0,0,0,90.4,1,0,0.855,0,0,1,0,0,0,0,0,0,0,2,2,0,0,VALID,0,0,0,0,1,0,0,0,0,0,2.76,LANDED
6.04,TAKEOFF,TO_PREFLIGHT,0.13,80,79.87,3.59,0,-0.21,-0.02,91.3,-0.045,1,0,0,0,0,0,0,0,0,0,90.4,0,0,0,0,0,0,0,0,0,90.4,1,0,0.855,0,0,1,0,0,0,0,0,0,0,2,2,0,0,VALID,0,0,0,0,1,0,0,0,0,0,5.3,LANDED
8.64,TAKEOFF,TO_PREFLIGHT,0.24,80,79.76,3.58,0,-0.23,-0.06,91.32,-0.045,1,0,0,0,0,0,0,0,0,0,90.4,0,0,0,0,0,0,0,0,0,90.4,1,0,0.855,0,0,1,0,0,0,0,0,0,0,2,2,0,0,VALID,0,0,0,0,1,0,0,0,0,0,7.9,LANDED
10.7,TAKEOFF,TO_GROUND_ROLL,3.01,80,76.99,3.62,0.02,-0.12,-0.58,91.32,-0.041,1,0,0,0,0,0,0,0,0,0,90.38,0,0,0,0,0.001,0,0,0,0,90.38,1,0.001,0.947,-0.0277,0.577,0,-0.0277,0,0,0,0,0,0,2,2,0,0,VALID,0,0,0,0,1,0,0,0,0,0,9.96,LANDED
12.74,TAKEOFF,TO_GROUND_ROLL,12.32,80,67.68,3.62,-0.03,-0.1,0.03,91.16,-0.047,1,0,0,0,0,0,0,0,0,0,90.41,0,0,0,0,-0.012,0,0,0,0,90.41,1,-0.012,0.769,-0.0226,0.67,0,-0.0226,0,0,0,0,0,0,2,2,0,0,VALID,0,0,0,0,1,0,0,0,0,0,12.02,LANDED
14.78,TAKEOFF,TO_GROUND_ROLL,22.27,80,57.73,3.62,-0.05,-0.09,0.03,90.91,-0.051,1,0,0,0,0,0,0,0,0,0,90.4,0,0,0,0,-0.035,0,0,0,0,90.4,1,-0.035,0.538,-0.0166,0.77,0,-0.0166,0,0,0,0,0,0,2,2,0,0,VALID,0,0,0,0,1,0,0,0,0,0,14.06,LANDED
16.86,TAKEOFF,TO_GROUND_ROLL,32.84,80,47.16,3.62,-0.07,-0.09,0.03,90.58,-0.057,1,0,0,0,0,0,0,0,0,0,90.38,0,0,0,0,-0.057,0,0,0,0,90.38,1,-0.057,0.222,-0.0047,0.875,0,-0.0047,0,0,0,0,0,0,2,2,0,0,VALID,0,0,0,0,1,0,0,0,0,0,16.14,LANDED
18.96,TAKEOFF,TO_GROUND_ROLL,43.8,80,36.2,3.62,-0.08,-0.08,0.02,90.19,-0.06,1,0,0,0,0,0,0,0,0,0,90.38,0,0,0,0,-0.062,0,0,0,0,90.38,1,-0.062,-0.163,0.0133,0.985,0,0.0133,0,0,0,0,0,0,2,2,0,0,VALID,0,0,0,0,1,0,0,0,0,0,18.24,LANDED
21.06,TAKEOFF,TO_GROUND_ROLL,54.93,80,25.07,3.62,-0.09,-0.07,0.02,89.8,-0.062,1,0,0,0,0,0,0,0,0,0,90.41,0,0,0,0,-0.03,0,0,0,0,90.41,1,-0.03,-0.589,0.0336,1,0,0.0336,0,0,0,0,0,0,2,2,0,0,VALID,0,0,0,0,1,0,0,0,0,0,20.34,LANDED
23.16,TAKEOFF,TO_GROUND_ROLL,66.16,80,13.84,3.62,-0.1,-0.06,0.02,89.44,-0.06,1,0,0,0,0,0,0,0,0,0,90.49,0,0,0,0,0.052,0,0,0,0,90.49,1,0.052,-1.034,0.0542,1,0,0.0542,0,0,0,0,0,0,2,2,0,0,VALID,0,0,0,0,1,0,0,0,0,0,22.44,LANDED
25.26,TAKEOFF,TO_GROUND_ROLL,77.5,80,2.5,3.62,-0.09,-0.05,0.01,89.12,-0.09,1,0,0,0,0,0,0,0,0,0,90.63,0,0,0,0,0.197,0,0,0,0,90.63,1,0.197,-1.49,0.0751,1,0,0.0751,0,0,0,0,0,0,2,2,0,0,VALID,0,0,0,0,1,0,0,0,0,0,24.54,LANDED
27.36,TAKEOFF,TO_GROUND_ROLL,89.05,80,-9.05,3.68,0.05,0.17,0.13,89.04,-0.005,1,0,0,0,0,0,0,0,0,0,90.8,0,0,0,0,0.405,0,0,0,0,90.8,1,0.405,-1.763,0.0825,1,0,0.0825,0,0,0,0,0,0,2,2,0,0,VALID,0,0,0,0,1,0,0,0,0,0,26.64,LANDED
29.46,TAKEOFF,TO_GROUND_ROLL,101.06,80,-21.06,3.62,-0.05,-0.02,0.01,89.25,-0.027,1,0,0,0,0,0,0,0,0,0,91.01,0,0,0,0,0.626,0,0,0,0,91.01,1,0.626,-1.764,0.0814,1,0,0.0814,0,0,0,0,0,0,2,2,0,0,VALID,0,0,0,0,1,0,0,0,0,0,28.74,LANDED
31.56,TAKEOFF,TO_GROUND_ROLL,113.66,80,-33.66,3.65,-0.09,-0.06,-0.02,89.27,-0.024,1,0,0,0,0,0,0,0,0,0,91.25,0,0,0,0,0.849,0,0,0,0,91.25,1,0.849,-1.975,0.0937,1,0,0.0937,0,0,0,0,0,0,2,2,0,0,VALID,0,0,0,0,1,0,0,0,0,0,30.84,LANDED
33.66,TAKEOFF,TO_GROUND_ROLL,126.95,80,-46.95,3.62,0.04,-0.01,-0.02,89.79,0.046,1,0,0,0,0,0,0,0,0,0,91.37,0,0,0,0,1.068,0,0,0,0,91.37,1,1.068,-1.652,0.0661,1,0,0.0661,0,0,0,0,0,0,2,2,0,0,VALID,0,0,0,0,1,0,0,0,0,0,32.94,LANDED
35.72,TAKEOFF,TO_GROUND_ROLL,140.7,80,-60.7,3.6,0.08,-0.06,-0.08,90.43,-0.065,1,0,0,0,0,0,0,0,0,0,91.49,0,0,0,0,1.116,0,0,0,0,91.49,1,1.116,-1.045,0.0461,1,0,0.0461,0,0,0,0,0,0,2,2,0,0,VALID,0,0,0,0,1,0,0,0,0,0,35,LANDED
37.8,TAKEOFF,TO_GROUND_ROLL,155.39,80,-75.39,3.62,0.2,0.04,-0.03,90.1,-0.069,1,0,0,0,0,0,0,0,0,0,91.57,0,0,0,0,1.145,0,0,0,0,91.57,1,1.145,-1.452,0.0717,1,0,0.0717,0,0,0,0,0,0,2,2,0,0,VALID,0,0,0,0,1,0,0,0,0,0,37.08,LANDED
40.04,TAKEOFF,TO_ROTATE,172.25,80,-92.25,3.66,0.33,0.23,0.12,90.2,0.213,1,0,0,0,0,0,0,0,0,0,91.62,3.651,0,0,0,1.26,0,0,0,0,91.62,1,1.26,-1.575,0.0699,1,0,0.0699,0,0.5249,3.651,3.422,0.08,0,2,2,0,0,VALID,0,0,0,0,1,0,0,0,0,0,39.3,LANDED
42.5,TAKEOFF,TO_ROTATE,185.43,80,-105.43,25.48,2.18,20.13,19.46,90.38,-0.015,1,0,0,0,0,0,0,0,0,0,90.4,10.851,0,0,0,0,0,0,0,0,90.4,1,0,-0.023,0,0,3,0,0,0,10.851,-9.241,0,0,2,2,0,0,VALID,0,0,0,0,1,0,0,0,0,0,41.76,FLYING
45.02,TAKEOFF,TO_CLIMB,189.89,80,-109.89,100.51,18.48,20.01,14.53,90.4,-0.065,0.8633,0,0,0,0,0,0,0,0,0,90.4,7.3,0,0,0,0,0,0,0,0,90.4,1,0,-0.001,0,0,3,0,0,0,11.5,-9.975,0,0,1,1,0,0,VALID,0,0,0,0,1,0,0,0,0,0,44.28,FLYING
47.4,TAKEOFF,TO_CLIMB,200.13,80,-120.13,149.39,22.47,17.64,11.22,90.41,-0.065,0.82,0,0,0,0,0,0,0,0,0,90.4,7,0,0,0,0,0,0,0,0,90.4,1,0,0.008,0,0,3,0,0,0,11.5,-9.975,0,0,1,1,0,0,VALID,0,0,0,0,1,0,0,0,0,0,46.66,FLYING
49.8,TAKEOFF,TO_CLIMB,211.25,80,-131.25,206.24,24.95,16.34,9.6,90.4,-0.024,0.82,0,0,0,0,0,0,0,0,0,90.4,7,0,0,0,0,0,0,0,0,90.4,1,0,0.005,0,0,3,0,0,0,11.5,-9.975,0,0,1,1,0,0,VALID,0,0,0,0,1,0,0,0,0,0,49.06,FLYING
52.26,TAKEOFF,TO_CLIMB,223.49,80,-143.49,269.78,26.82,15.44,8.56,90.4,-0.009,0.82,0,0,0,0,0,0,0,0,0,90.4,7,0,0,0,0,0,0,0,0,90.4,1,0,0.004,0,0,3,0,0,0,11.5,-9.975,0,0,1,1,0,0,VALID,0,0,0,0,1,0,0,0,0,0,51.52,FLYING
54.4,ASCENT,AB_ZOOM,234.96,80,-154.96,328.35,28.49,14.71,7.73,90.4,-0.002,1,0,0,0,0,0,0,0,0,0,90.4,7.474,0,0,0,0,0,0,0,0,90.4,1,0,0.003,0,0,3,0,0,0,11.5,-9.975,0,0,1,1,8.577,0,DEGRADED,30,0.667,359,0,1,494.17,32.84,0.5,0,0,0.92,FLYING
56.68,ASCENT,AB_ZOOM,248.01,80,-168.01,397.88,32.67,16.01,8.39,90.4,-0.004,1,0,0,0,0,0,0,0,0,0,90.4,9.191,0,0,0,0,0,0,0,0,90.4,1,0,0.003,0,0,3,0,0,0,11.5,-9.975,0,0,1,1,4.453,58869.842,VALID,31.7,0.703,388,0,1.1165,1706.82,1480.96,1.625,0,0,3.2,FLYING
58.74,ASCENT,RKT_SUSTAIN,254.44,80,-174.44,472.65,38.63,16.57,7.86,90.4,-0.008,1,0,0,0,0,0,0,0,0,0,90.4,8.713,0,0,0,0,0,0,0,0,90.4,1,0,0.003,0,0,3,0,0,0,11.5,-9.975,0,0,1,1,0,5385.503,DEGRADED,33.7,0.724,448,0,1.1129,1475.53,1815.68,1.12,0.315,0,5.26,FLYING
61.3,ASCENT,RKT_SUSTAIN,269.71,80,-189.71,572.27,38.26,12.01,3.82,90.4,-0.022,1,0,0,0,0,0,0,0,0,0,90.4,6.224,0,0,0,0,0,0,0,0,90.4,1,0,0.003,0,0,3,0,0,0,11.5,-9.975,0,0,1,1,0,3006.624,DEGRADED,36.6,0.766,546,0,1.1004,770.24,2727.7,1.119,0.955,0,7.82,FLYING
63.94,ASCENT,RKT_SUSTAIN,289.08,80,-209.08,663.81,31.53,9.56,3.25,90.41,-0.029,1,0,0,0,0,0,0,0,0,0,90.41,4.853,0,0,0,0,0,0,0,0,90.4,1,0,0.003,0,0,3,0,0,0,11.5,-9.975,0,0,1,1,0,2689.531,DEGRADED,40.9,0.819,631,0,1.0873,402.07,3628.38,0.926,1,0,10.46,FLYING
65.94,ASCENT,RKT_SUSTAIN,304.81,80,-224.81,722.23,27.38,8.4,3.18,90.41,-0.034,1,0,0,0,0,0,0,0,0,0,90.41,4.117,0,0,0,0,0,0,0,0,90.4,1,0,0.003,0,0,3,0,0,0,11.5,-9.975,0,0,1,1,0,2677.78,DEGRADED,44.7,0.86,686,0,1.0773,246.92,4095.25,0.807,1,0,12.46,FLYING
67.94,ASCENT,RKT_SUSTAIN,321.1,80,-241.1,773.2,23.99,7.44,3.08,90.41,-0.042,1,0,0,0,0,0,0,0,0,0,90.41,3.518,0,0,0,0,0,0,0,0,90.4,1,0,0.003,0,0,3,0,0,0,11.5,-9.975,0,0,1,1,0,2737.751,DEGRADED,48.8,0.902,735,0,1.0674,151.64,4420.91,0.707,1,0,14.46,FLYING
69.94,ASCENT,RKT_SUSTAIN,337.65,80,-257.65,818.18,21.33,6.75,3.04,90.41,-0.045,1,0,0,0,0,0,0,0,0,0,90.41,3.06,0,0,0,0,0,0,0,0,90.4,1,0,0.003,0,0,3,0,0,0,11.5,-9.975,0,0,1,1,0,2831.55,DEGRADED,53.1,0.943,780,0,1.0574,93.13,4637.62,0.63,1,0,16.46,FLYING
71.94,ASCENT,RKT_SUSTAIN,354.29,80,-274.29,858.74,19.47,6.21,2.96,90.41,-0.05,1,0,0,0,0,0,0,0,0,0,90.41,2.727,0,0,0,0,0,0,0,0,90.4,1,0,0.003,0,0,3,0,0,0,11.5,-9.975,0,0,1,1,0,2943.655,DEGRADED,57.5,0.983,821,0,1.0475,57.19,4770.8,0.574,1,0,18.46,FLYING
73.96,ASCENT,RKT_SUSTAIN,371.06,80,-291.06,896.25,18.31,5.69,2.76,90.41,-0.048,1,0,0,0,0,0,0,0,0,0,90.41,2.514,0,0,0,0,0,0,0,0,90.4,1,0,0.003,0,0,3,0,0,0,11.5,-9.975,0,0,1,1,0,3067.138,VALID,62.1,1.023,860,0,1.0374,35.12,4864.88,0.541,1,0,20.48,FLYING
75.96,ASCENT,RKT_SUSTAIN,387.78,80,-307.78,932,17.67,5.21,2.48,90.41,-0.043,1,0,0,0,0,0,0,0,0,0,90.41,2.38,0,0,0,0,0,0,0,0,90.4,1,0,0.003,0,0,3,0,0,0,11.5,-9.975,0,0,1,1,0,3197.22,VALID,66.7,1.063,897,0,1.0275,21.57,4926.73,0.523,1,0,22.48,FLYING
77.96,ASCENT,RKT_SUSTAIN,404.6,80,-324.6,966.91,17.42,4.77,2.18,90.41,-0.037,1,0,0,0,0,0,0,0,0,0,90.41,2.303,0,0,0,0,0,0,0,0,90.4,1,0,0.003,0,0,3,0,0,0,11.5,-9.975,0,0,1,1,0,3333.553,VALID,71.5,1.102,932,0,1.0175,13.25,5002.58,0.517,1,0,24.48,FLYING
79.96,ASCENT,RKT_SUSTAIN,421.33,80,-341.33,1001.63,17.47,4.39,1.88,90.41,-0.026,1,0,0,0,0,0,0,0,0,0,90.41,2.269,0,0,0,0,0,0,0,0,90.4,1,0,0.003,0,0,3,0,0,0,11.5,-9.975,0,0,1,1,0,3474.753,VALID,76.3,1.14,968,0,1.0076,8.13,5077.06,0.52,1,0,26.48,FLYING
81.96,ASCENT,RKT_SUSTAIN,437.85,80,-357.85,1036.72,17.76,4.05,1.58,90.41,-0.017,1,0,0,0,0,0,0,0,0,0,90.41,2.268,0,0,0,0,0,0,0,0,90.4,1,0,0.003,0,0,3,0,0,0,11.5,-9.975,0,0,1,1,0,3611.557,VALID,81.3,1.179,1003,0,1,5,5145.01,0.53,1,0,28.48,FLYING
83.98,ASCENT,RKT_SUSTAIN,454.24,80,-374.24,1072.99,18.21,3.85,1.4,90.41,-0.015,1,0,0,0,0,0,0,0,0,0,90.41,2.284,0,0,0,0,0,0,0,0,90.4,1,0,0.003,0,0,3,0,0,0,11.5,-9.975,0,0,1,1,0,3723.97,VALID,86.3,1.217,1039,0,1,3.07,5228.39,0.544,1,0,30.5,FLYING
85.98,ASCENT,RKT_SUSTAIN,470.16,80,-390.16,1109.97,18.83,3.77,1.3,90.41,-0.015,1,0,0,0,0,0,0,0,0,0,90.41,2.33,0,0,0,0,0,0,0,0,90.4,1,0,0.003,0,0,3,0,0,0,11.5,-9.975,0,0,1,1,0,3836.048,VALID,91.4,1.255,1076,0,1,1.88,5275.67,0.566,1,0,32.5,FLYING
88.56,ASCENT,RKT_SUSTAIN,489.88,80,-409.88,1159.92,19.97,3.65,1.13,90.41,-0.014,1,0,0,0,0,0,0,0,0,0,90.41,2.425,0,0,0,0,0,0,0,0,90.4,1,0,0.003,0,0,3,0,0,0,11.5,-9.975,0,0,1,1,0,3981.745,VALID,98,1.302,1127,0,1,0.98,5226.85,0.602,1,0,35.08,FLYING
91.1,ASCENT,RKT_SUSTAIN,508.19,80,-428.19,1212.28,21.3,3.54,0.93,90.4,-0.018,1,0,0,0,0,0,0,0,0,0,90.4,2.544,0,0,0,0,0,0,0,0,90.4,1,0,0.003,0,0,3,0,0,0,11.5,-9.975,0,0,1,1,0,4123.889,VALID,104.3,1.347,1180,0,1,0.51,5120.79,0.645,1,0,37.62,FLYING
93.64,ASCENT,RKT_SUSTAIN,525.41,80,-445.41,1268.23,22.78,3.57,0.86,90.4,0,1,0,0,0,0,0,0,0,0,0,90.4,2.678,0,0,0,0,0,0,0,0,90.4,1,0,0.003,0,0,3,0,0,0,11.5,-9.975,0,0,1,1,0,4265.216,VALID,110.4,1.39,1236,0,1,0.27,5030.04,0.692,1,0,40.16,FLYING
96.18,ASCENT,RKT_SUSTAIN,541.71,80,-461.71,1328.14,24.39,3.67,0.85,90.4,-0.003,1,0,0,0,0,0,0,0,0,0,90.4,2.827,0,0,0,0,0,0,0,0,90.4,1,0,0.003,0,0,3,0,0,0,11.5,-9.975,0,0,1,1,0,4406.995,VALID,116.3,1.431,1296,0,1,0.14,4961.48,0.744,1,0,42.7,FLYING
98.72,ASCENT,RKT_SUSTAIN,557.23,80,-477.23,1392.4,26.2,3.78,0.84,90.4,-0.007,1,0,0,0,0,0,0,0,0,0,90.4,2.995,0,0,0,0,0,0,0,0,90.4,1,0,0.003,0,0,3,0,0,0,11.5,-9.975,0,0,1,1,0,4550.302,VALID,122,1.472,1360,0,1,0.07,4924.97,0.803,1,0,45.24,FLYING
101.26,ASCENT,RKT_SUSTAIN,571.98,80,-491.98,1461.58,28.29,3.92,0.82,90.39,-0.011,1,0,0,0,0,0,0,0,0,0,90.39,3.192,0,0,0,0,0,0,0,0,90.4,1,0,0.003,0,0,3,0,0,0,11.5,-9.975,0,0,1,1,0,4695.492,VALID,127.5,1.512,1430,0,1,0.04,4904.52,0.87,1,0,47.78,FLYING
103.8,ASCENT,RKT_SUSTAIN,585.87,80,-505.87,1536.56,30.77,4.09,0.8,90.39,-0.013,1,0,0,0,0,0,0,0,0,0,90.39,3.431,0,0,0,0,0,0,0,0,90.4,1,0,0.003,0,0,3,0,0,0,11.5,-9.975,0,0,1,1,0,4872.13,VALID,132.9,1.551,1506,0,1,0.02,4884.32,0.95,1,0,50.32,FLYING
106.34,ASCENT,RKT_SUSTAIN,598.82,80,-518.82,1618.52,33.81,4.33,0.79,90.39,-0.007,1,0,0,0,0,0,0,0,0,0,90.39,3.726,0,0,0,0,0,0,0,0,90.4,1,0,0.003,0,0,3,0,0,0,11.5,-9.975,0,0,1,1,0,5063.572,VALID,138,1.59,1590,0,1,0.01,4857.13,1.048,1,0,52.86,FLYING
108.88,ASCENT,RKT_SUSTAIN,610.72,80,-530.72,1709.17,37.61,4.66,0.81,90.39,-0.009,1,0,0,0,0,0,0,0,0,0,90.39,4.1,0,0,0,0,0,0,0,0,90.4,1,0,0.003,0,0,3,0,0,0,11.5,-9.975,0,0,1,1,0,5263.823,VALID,142.8,1.627,1684,0,1,0.01,4823.23,1.171,1,0,55.4,FLYING
111.42,ASCENT,RKT_SUSTAIN,621.51,80,-541.51,1810.83,42.53,5.12,0.85,90.39,-0.006,1,0,0,0,0,0,0,0,0,0,90.39,4.591,0,0,0,0,0,0,0,0,90.4,1,0,0.003,0,0,3,0,0,0,11.5,-9.975,0,0,1,1,0,5475.16,VALID,147.2,1.664,1792,0,1,0,4787.78,1.329,1,0,57.94,FLYING
113.96,ASCENT,RKT_SUSTAIN,630.96,80,-550.96,1927.03,49.09,5.75,0.91,90.39,-0.011,1,0,0,0,0,0,0,0,0,0,90.39,5.25,0,0,0,0,0,0,0,0,90.4,1,0,0.003,0,0,3,0,0,0,11.5,-9.975,0,0,1,1,0,5700.332,VALID,151.1,1.699,1920,0,1,0,4741.27,1.54,1,0,60.48,FLYING
116.5,ASCENT,RKT_SUSTAIN,638.71,80,-558.71,2062.81,58.02,6.61,1,90.39,-0.012,1,0,0,0,0,0,0,0,0,0,90.39,6.152,0,0,0,0,0,0,0,0,90.4,1,0,0.003,0,0,3,0,0,0,11.5,-9.975,0,0,1,1,0,5943.035,VALID,154.4,1.734,2075,0,1,0,4668.22,1.827,1,0,63.02,FLYING
119.04,ASCENT,RKT_SUSTAIN,644.27,80,-564.27,2225.69,70.56,7.84,1.13,90.39,-0.012,1,0,0,0,0,0,0,0,0,0,90.39,7.431,0,0,0,0,0,0,0,0,90.4,1,0,0.003,0,0,3,0,0,0,11.5,-9.975,0,0,1,1,0,6209.039,VALID,156.9,1.767,2276,0,1,0,4558.59,2.231,1,0,65.56,FLYING
121.58,ASCENT,RKT_SUSTAIN,647.12,80,-567.12,2426.47,88.03,9.66,1.41,90.39,-0.009,1,0,0,0,0,0,0,0,0,0,90.39,9.206,0,0,0,0,0,0,0,0,90.4,1,0,0.003,0,0,3,0,0,0,11.5,-9.975,0,0,1,1,0,6507.091,VALID,158.2,1.799,2547,0,1,0,4415.68,2.789,1,0,68.1,FLYING
124.12,ASCENT,RKT_SUSTAIN,646.55,80,-566.55,2678.45,110.98,12.09,1.79,90.39,-0.012,1,0,0,0,0,0,0,0,0,0,90.39,11.549,0,0,0,0,0,0,0,0,90.4,1,0,0.003,0,0,3,0,0,0,11.5,-9.975,0,0,1,1,0,6850.479,VALID,158.1,1.83,2927,0,1,0,4231.22,3.526,1,0,70.64,FLYING
126.66,ASCENT,RKT_SUSTAIN,641.73,80,-561.73,2997.25,140.7,15.19,2.23,90.39,-0.018,1,0,0,0,0,0,0,0,0,0,90.39,14.601,0,0,0,0,0,0,0,0,90.4,1,0,0.003,0,0,3,0,0,0,11.5,-9.975,0,0,1,1,0,7252.702,VALID,156.3,1.86,3474,0,1,0,3971.59,4.481,1,0,73.18,FLYING
129.2,ASCENT,RKT_SUSTAIN,631.61,80,-551.61,3401.13,178.18,19.2,2.85,90.39,-0.021,1,0,0,0,0,0,0,0,0,0,90.39,18.493,0,0,0,0,0,0,0,0,90.4,1,0,0.003,0,0,3,0,0,0,11.5,-9.975,0,0,1,1,0,7728.23,VALID,152.2,1.889,4268,0,1,0,3579.52,5.685,1,0,75.72,FLYING
131.74,ASCENT,RKT_SUSTAIN,615.13,80,-535.13,3911.1,224.21,24.34,3.69,90.39,-0.029,1,0,0,0,0,0,0,0,0,0,90.39,23.362,0,0,0,0,0,0,0,0,90.4,1,0,0.003,0,0,3,0,0,0,11.5,-9.975,0,0,1,1,0,8291.72,VALID,145.5,1.916,5420,0,1,0,2998.45,7.159,1,0,78.26,FLYING
134.28,ASCENT,RKT_SUSTAIN,594.06,80,-514.06,4541.22,265.09,26.21,1.64,90.39,-0.079,1,0,0,0,0,0,0,0,0,0,90.39,25,0,0,0,0,0,0,0,0,90.4,1,0,0.003,0,0,3,0,0,0,11.5,-9.975,0,0,1,1,0,9063.522,VALID,136.4,1.946,6969,0,1,0,2919.01,8.499,1,0,80.8,FLYING
136.82,ASCENT,RKT_SUSTAIN,576.21,80,-496.21,5224.69,272.09,25.91,0.94,90.39,-0.017,1,0,0,0,0,0,0,0,0,0,90.39,25,0,0,0,0,0,0,0,0,90.4,1,0,0.003,0,0,3,0,0,0,11.5,-9.975,0,0,1,1,0,9925.53,VALID,127.5,1.996,8287,0,1,0,4530.7,8.77,1,0,83.34,FLYING
139.36,ASCENT,RKT_SUSTAIN,558.42,80,-478.42,5922.48,276.46,26.12,1.02,90.4,0.001,1,0,0,0,0,0,0,0,0,0,90.41,25,0,0,0,0,0,0,0,0,90.4,1,0,0.003,0,0,3,0,0,0,11.5,-9.975,0,0,1,1,0,0,VALID,119.3,2.053,9348,0,1,0,5740.97,8.964,1,0,85.88,FLYING
141.92,ASCENT,RKT_SUSTAIN,512.61,80,-432.61,6618.69,267.48,26.41,1.25,90.4,-0.02,1,0,0,0,0,0,0,0,0,0,90.4,25,0,0,0,0,0,0,0,0,90.4,1,0,0.003,0,0,3,0,0,0,11.5,-9.975,0,0,1,1,0,0,VALID,105.4,2.013,10101,0,1,0,311.96,8.637,1,0,88.44,FLYING
144.48,ASCENT,RKT_SUSTAIN,471.3,80,-391.3,7292.17,258.74,26.72,1.53,90.4,-0.011,1,0,0,0,0,0,0,0,0,0,90.4,25,0,0,0,0,0,0,0,0,90.4,1,0,0.003,0,0,3,0,0,0,11.5,-9.975,0,0,1,1,0,0,VALID,90.1,1.973,10642,0,1,0,-2169.56,8.325,1,0,91,FLYING
147.04,ASCENT,RKT_SUSTAIN,433.9,80,-353.9,7943.85,250.46,27.07,1.87,90.4,-0.004,1,0,0,0,0,0,0,0,0,0,90.4,25,0,0,0,0,0,0,0,0,90.4,1,0,0.003,0,0,3,0,0,0,11.5,-9.975,0,0,1,1,0,0,VALID,76.7,1.935,11097,0,1,0,-3174,8.033,1,0,93.56,FLYING
149.6,ASCENT,RKT_SUSTAIN,399.84,80,-319.84,8574.91,242.61,27.46,2.26,90.4,-0.003,1,0,0,0,0,0,0,0,0,0,90.4,25,0,0,0,0,0,0,0,0,90.4,1,0,0.003,0,0,3,0,0,0,11.5,-9.975,0,0,1,1,0,0,VALID,65.4,1.899,11519,0,1,0,-3464.58,7.76,1,0,96.12,FLYING
152.06,ASCENT,RKT_SUSTAIN,367.44,80,-287.44,9167.58,235.39,27.91,2.7,90.4,-0.002,1,0,0,0,0,0,0,0,0,0,90.4,25,0,0,0,0,0,0,0,0,90.4,1,0,0.003,0,0,3,0,0,0,11.5,-9.975,0,0,1,1,0,0,VALID,55.6,1.854,11925,0,1,0,-3383.04,7.511,1,0,98.58,FLYING
154.52,ASCENT,RKT_SUSTAIN,336.6,80,-256.6,9738.26,228.58,28.4,3.18,90.39,0,1,0,0,0,0,0,0,0,0,0,90.39,25,0,0,0,0,0,0,0,0,90.4,1,0,0.003,0,0,3,0,0,0,11.5,-9.975,0,0,1,1,0,0,VALID,47,1.802,12317,0,1,0,-3159.97,7.279,1,0,101.04,FLYING
156.98,ASCENT,RKT_SUSTAIN,308.94,80,-228.94,10292.57,222.06,28.92,3.7,90.39,-0.001,1,0,0,0,0,0,0,0,0,0,90.39,25,0,0,0,0,0,0,0,0,90.4,1,0,0.003,0,0,3,0,0,0,11.5,-9.975,0,0,1,1,0,0,VALID,39.8,1.753,12704,0,1,0,-2911.02,7.057,1,0,103.5,FLYING
159.44,ASCENT,RKT_SUSTAIN,283.99,80,-203.99,10831.14,215.76,29.52,4.28,90.39,0,1,0,0,0,0,0,0,0,0,0,90.39,25,0,0,0,0,0,0,0,0,90.4,1,0,0.003,0,0,3,0,0,0,11.5,-9.975,0,0,1,1,0,0,VALID,33.9,1.705,13085,0,1,0,-2675.58,6.846,1,0,105.96,FLYING
161.9,ASCENT,RKT_SUSTAIN,261.38,80,-181.38,11354.49,209.66,30.19,4.95,90.39,0.001,1,0,0,0,0,0,0,0,0,0,90.39,25,0,0,0,0,0,0,0,0,90.4,1,0,0.003,0,0,3,0,0,0,11.5,-9.975,0,0,1,1,0,0,VALID,28.9,1.659,13462,0,1,0,-2469.72,6.641,1,0,108.42,FLYING
164.34,ASCENT,RKT_SUSTAIN,240.95,80,-160.95,11858.93,203.71,30.88,5.63,90.39,0.001,1,0,0,0,0,0,0,0,0,0,90.39,24.9,0,0,0,0,0,0,0,0,90.4,1,0,0.003,0,0,3,0,0,0,11.5,-9.975,0,0,1,1,0,0,VALID,24.7,1.613,13832,0,1,0,-2292.13,6.444,1,0,110.86,FLYING
166.76,ASCENT,RKT_SUSTAIN,222.49,80,-142.49,12343.77,196.65,30.62,5.52,90.39,0,1,0,0,0,0,0,0,0,0,0,90.39,24.396,0,0,0,0,0,0,0,0,90.4,1,0,0.003,0,0,3,0,0,0,11.5,-9.975,0,0,1,1,0,0,VALID,21.2,1.569,14183,0,1,0,-2109.09,6.213,1,0,113.28,FLYING
169.16,ASCENT,RKT_SUSTAIN,206.07,80,-126.07,12805.03,187.5,29.16,4.63,90.39,-0.011,1,0,0,0,0,0,0,0,0,0,90.39,23.588,0,0,0,0,0,0,0,0,90.4,1,0,0.003,0,0,3,0,0,0,11.5,-9.975,0,0,1,1,0,0,VALID,18.3,1.527,14494,0,1,0,-1853.54,5.922,1,0,115.68,FLYING
171.56,ASCENT,RKT_SUSTAIN,191.27,80,-111.27,13243.02,178.16,31.06,7.11,90.39,0.001,1,0,0,0,0,0,0,0,0,0,90.39,22.703,0,0,0,0,0,0,0,0,90.4,1,0,0.003,0,0,3,0,0,0,11.5,-9.975,0,0,1,1,0,0,VALID,15.9,1.487,14760,0,1,0,-1683.35,5.619,1,0,118.08,FLYING
173.98,ASCENT,RKT_SUSTAIN,177.54,80,-97.54,13664.42,169.96,31.64,8.15,90.39,-0.001,1,0,0,0,0,0,0,0,0,0,90.39,21.959,0,0,0,0,0,0,0,0,90.4,1,0,0.003,0,0,3,0,0,0,11.5,-9.975,0,0,1,1,0,0,VALID,13.8,1.446,15023,0,1,0,-1626.66,5.353,1,0,120.5,FLYING
176.4,ASCENT,RKT_SUSTAIN,164.74,80,-84.74,14066.83,161.9,34.53,11.45,90.38,0.006,1,0,0,0,0,0,0,0,0,0,90.38,21.235,0,0,0,0,0,0,0,0,90.4,1,0,0.003,0,0,3,0,0,0,11.5,-9.975,0,0,1,1,0,0,VALID,12,1.404,15280,0,1,0,-1658.15,5.095,1,0,122.92,FLYING
178.8,ASCENT,RKT_SUSTAIN,152.8,80,-72.8,14445.25,152.93,34.64,12.19,90.4,-0.056,1,0,0,0,0,0,0,0,0,0,90.4,20.377,0,0,0,0,0,0,0,0,90.4,1,0,0.003,0,0,3,0,0,0,11.5,-9.975,0,0,1,1,0,0,VALID,10.4,1.36,15522,0,1,0,-1718.61,4.809,1,0,125.32,FLYING
181.24,ASCENT,RKT_SUSTAIN,141.8,80,-61.8,14804.62,141.98,32.85,11.44,90.41,-0.048,1,0,0,0,0,0,0,0,0,0,90.41,19.212,0,0,0,0,0,0,0,0,90.4,1,0,0.003,0,0,3,0,0,0,11.5,-9.975,0,0,1,1,0,0,VALID,9.1,1.316,15731,0,1,0,-1713.05,4.462,1,0,127.76,FLYING
183.66,ASCENT,RKT_SUSTAIN,132.83,80,-52.83,15129.79,127.34,29.16,9.37,90.42,-0.041,1,0,0,0,0,0,0,0,0,0,90.42,17.429,0,0,0,0,0,0,0,0,90.4,1,0,0.003,0,0,3,0,0,0,11.5,-9.975,0,0,1,1,0,0,VALID,8,1.281,15893,0,1,0,-1361.56,4.002,1,0,130.18,FLYING
186.12,ASCENT,RKT_SUSTAIN,124.59,80,-44.59,15425.85,112.83,31.68,13.71,90.43,-0.04,1,0,0,0,0,0,0,0,0,0,90.43,15.631,0,0,0,0,0,0,0,0,90.4,1,0,0.003,0,0,3,0,0,0,11.5,-9.975,0,0,1,1,0,0,VALID,7.1,1.245,16017,0,1,0,-1264.03,3.545,1,0,132.64,FLYING
188.56,ASCENT,RKT_SUSTAIN,116.71,80,-36.71,15683.61,97.97,35.97,19.92,90.44,-0.04,1,0,0,0,0,0,0,0,0,0,90.44,13.762,0,0,0,0,0,0,0,0,90.4,1,0,0.003,0,0,3,0,0,0,11.5,-9.975,0,0,1,1,0,0,VALID,6.4,1.205,16117,0,1,0,-1440.31,3.075,1,0,135.08,FLYING
191.02,ASCENT,RKT_SUSTAIN,109.36,80,-29.36,15905.76,83.11,34.06,20.01,90.45,-0.047,1,0,0,0,0,0,0,0,0,0,90.45,11.855,0,0,0,0,0,0,0,0,90.4,1,0,0.003,0,0,3,0,0,0,11.5,-9.975,0,0,1,1,0,0,VALID,5.7,1.164,16203,0,1,0,-1618.99,2.606,1,0,137.54,FLYING
193.48,ASCENT,RKT_SUSTAIN,103.2,80,-23.2,16091.03,68.09,31.86,20.01,90.46,-0.046,1,0,0,0,0,0,0,0,0,0,90.46,9.849,0,0,0,0,0,0,0,0,90.4,1,0,0.003,0,0,3,0,0,0,11.5,-9.975,0,0,1,1,0,0,VALID,5.1,1.127,16274,0,1,0,-1607.38,2.134,1,0,140,FLYING
195.94,ASCENT,RKT_SUSTAIN,98.08,80,-18.08,16239.16,52.98,29.47,20.01,90.46,-0.042,1,0,0,0,0,0,0,0,0,0,90.46,7.764,0,0,0,0,0,0,0,0,90.4,1,0,0.003,0,0,3,0,0,0,11.5,-9.975,0,0,1,1,0,0,VALID,4.6,1.095,16333,0,1,0,-1517.81,1.661,1,0,142.46,FLYING
198.4,ASCENT,RKT_SUSTAIN,93.95,80,-13.95,16350.01,37.83,26.92,20.01,90.46,-0.038,1,0,0,0,0,0,0,0,0,0,90.46,5.613,0,0,0,0,0,0,0,0,90.4,1,0,0.003,0,0,3,0,0,0,11.5,-9.975,0,0,1,1,0,0,VALID,4.3,1.067,16379,0,1,0,-1403.34,1.186,1,0,144.92,FLYING
200.86,ASCENT,RKT_SUSTAIN,90.75,80,-10.75,16423.5,22.67,24.24,20.01,90.46,-0.035,1,0,0,0,0,0,0,0,0,0,90.46,3.408,0,0,0,0,0,0,0,0,90.4,1,0,0.003,0,0,3,0,0,0,11.5,-9.975,0,0,1,1,0,0,VALID,4,1.043,16414,0,1,0,-1288.77,0.713,1,0,147.38,FLYING
203.32,ASCENT,RKT_SUSTAIN,88.41,80,-8.41,16459.68,7.53,21.44,20.01,90.46,-0.03,1,0,0,0,0,0,0,0,0,0,90.46,1.165,0,0,0,0,0,0,0,0,90.4,1,0,0.003,0,0,3,0,0,0,11.5,-9.975,0,0,1,1,0,0,VALID,3.8,1.025,16437,0,1,0,-1185.05,0.241,1,0,149.84,FLYING
205.78,ASCENT,RKT_SUSTAIN,86.89,80,-6.89,16458.65,-7.53,18.57,20.01,90.46,-0.024,1,0,0,0,0,0,0,0,0,0,90.46,0.126,0,0,0,0,0,0,0,0,90.4,1,0,0.003,0,0,3,0,0,0,11.5,-9.975,0,0,1,1,0,0,VALID,3.7,1.01,16449,0,1,0,-1096.3,1,1,0,152.3,FLYING
208.24,ASCENT,RKT_SUSTAIN,86.14,80,-6.14,16420.69,-22.48,15.65,20.01,90.46,-0.02,1,0,0,0,0,0,0,0,0,0,90.46,0.315,0,0,0,0,0,0,0,0,90.4,1,0,0.003,0,0,3,0,0,0,11.5,-9.975,0,0,1,1,0,0,VALID,3.6,1,16449,0,1,0,-1023.49,3,1,0,154.76,FLYING
210.7,ASCENT,RKT_SUSTAIN,86.26,80,-6.26,16346.12,-37.27,12.73,20.01,90.46,-0.019,1,0,0,0,0,0,0,0,0,0,90.46,0.506,0,0,0,0,0,0,0,0,90.4,1,0,0.003,0,0,3,0,0,0,11.5,-9.975,0,0,1,1,0,0,VALID,3.6,0.995,16437,0,1,0,-923.67,5,1,0,157.22,FLYING
213.16,ASCENT,RKT_SUSTAIN,87.11,80,-7.11,16235.43,-51.83,9.84,20.01,90.46,-0.018,1,0,0,0,0,0,0,0,0,0,90.46,0.717,0,0,0,0,0,0,0,0,90.4,1,0,0.003,0,0,3,0,0,0,11.5,-9.975,0,0,1,1,0,0,VALID,3.6,0.994,16413,0,1,0,-857.81,7,1,0,159.68,FLYING
215.62,ASCENT,RKT_SUSTAIN,88.66,80,-8.66,16089.3,-66.09,7.04,20.01,90.46,-0.018,1,0,0,0,0,0,0,0,0,0,90.46,0.963,0,0,0,0,0,0,0,0,90.4,1,0,0.003,0,0,3,0,0,0,11.5,-9.975,0,0,1,1,0,0,VALID,3.7,0.997,16376,0,1,0,-817.78,9,1,0,162.14,FLYING
218.08,ASCENT,RKT_SUSTAIN,90.79,80,-10.79,15908.62,-79.92,4.34,20.01,90.46,-0.017,1,0,0,0,0,0,0,0,0,0,90.46,1.262,0,0,0,0,0,0,0,0,90.4,1,0,0.003,0,0,3,0,0,0,11.5,-9.975,0,0,1,1,0,0,VALID,3.9,1.002,16324,0,1,0,-817.78,11,1,0,164.6,FLYING
220.56,ASCENT,RKT_SUSTAIN,93.49,80,-13.49,15692.76,-93.32,1.75,20.01,90.47,-0.017,1,0,0,0,0,0,0,0,0,0,90.46,1.614,0,0,0,0,0,0,0,0,90.4,1,0,0.003,0,0,3,0,0,0,11.5,-9.975,0,0,1,1,0,0,VALID,4.1,1.009,16256,0,1,0,-852.54,13,1,0,167.08,FLYING
223.02,ASCENT,RKT_SUSTAIN,96.82,80,-16.82,15446.52,-106.05,-0.65,20.01,90.47,-0.017,1,0,0,0,0,0,0,0,0,0,90.47,2.058,0,0,0,0,0,0,0,0,90.4,1,0,0.003,0,0,3,0,0,0,11.5,-9.975,0,0,1,1,0,0,VALID,4.3,1.017,16170,0,1,0,-879.33,15,1,0,169.54,FLYING
225.48,ASCENT,RKT_SUSTAIN,100.77,80,-20.77,15169.81,-118.14,-2.88,20.01,90.47,-0.016,1,0,0,0,0,0,0,0,0,0,90.47,2.594,0,0,0,0,0,0,0,0,90.4,1,0,0.003,0,0,3,0,0,0,11.5,-9.975,0,0,1,1,0,0,VALID,4.6,1.028,16065,0,1,0,-910.83,17,1,0,172,FLYING
227.94,ASCENT,RKT_SUSTAIN,105.32,80,-25.32,14864.35,-129.46,-4.9,20.01,90.47,-0.015,1,0,0,0,0,0,0,0,0,0,90.47,3.236,0,0,0,0,0,0,0,0,90.4,1,0,0.003,0,0,3,0,0,0,11.5,-9.975,0,0,1,1,0,0,VALID,5,1.04,15939,0,1,0,-951.44,19,1,0,174.46,FLYING
230.4,ASCENT,RKT_SUSTAIN,110.43,80,-30.43,14532.18,-139.9,-6.72,20.01,90.47,-0.014,1,0,0,0,0,0,0,0,0,0,90.47,3.997,0,0,0,0,0,0,0,0,90.4,1,0,0.003,0,0,3,0,0,0,11.5,-9.975,0,0,1,1,0,0,VALID,5.5,1.052,15788,0,1,0,-1003.75,21,1,0,176.92,FLYING
232.84,ASCENT,RKT_SUSTAIN,116.02,80,-36.02,14178.58,-149.28,-8.29,20.01,90.48,-0.014,1,0,0,0,0,0,0,0,0,0,90.48,4.9,0,0,0,0,0,0,0,0,90.4,1,0,0.003,0,0,3,0,0,0,11.5,-9.975,0,0,1,1,0,0,VALID,6,1.065,15612,0,1,0,-1065.29,23,1,0,179.36,FLYING
235.3,ASCENT,RKT_SUSTAIN,122.12,80,-42.12,13800.34,-157.62,-9.64,20.01,90.48,-0.014,1,0,0,0,0,0,0,0,0,0,90.48,5.938,0,0,0,0,0,0,0,0,90.4,1,0,0.003,0,0,3,0,0,0,11.5,-9.975,0,0,1,1,0,0,VALID,6.6,1.077,15407,0,1,0,-1147.36,25,1,0,181.82,FLYING
237.76,ASCENT,RKT_SUSTAIN,128.58,80,-48.58,13403.21,-164.69,-10.75,20.01,90.49,-0.012,1,0,0,0,0,0,0,0,0,0,90.49,5.134,0,0,0,0,0,0,0,0,90.4,1,0,0.003,0,0,3,0,0,0,11.5,-9.975,0,0,1,1,0,0,VALID,7.2,1.087,15169,0,1,0,-1244.03,25,1,0,184.28,FLYING
240.22,ASCENT,RKT_SUSTAIN,135.31,80,-55.31,12990.47,-170.36,-11.61,20.01,90.49,-0.012,1,0,0,0,0,0,0,0,0,0,90.49,4.499,0,0,0,0,0,0,0,0,90.4,1,0,0.003,0,0,3,0,0,0,11.5,-9.975,0,0,1,1,0,0,VALID,8,1.097,14897,0,1,0,-1355.96,25,1,0,186.74,FLYING
242.68,ASCENT,RKT_SUSTAIN,142.19,80,-62.19,12565.75,-174.48,-12.21,20.01,90.5,-0.01,1,0,0,0,0,0,0,0,0,0,90.5,4.044,0,0,0,0,0,0,0,0,90.4,1,0,0.003,0,0,3,0,0,0,11.5,-9.975,0,0,1,1,0,0,VALID,8.8,1.104,14588,0,1,0,-1483.05,25,1,0,189.2,FLYING
245.14,ASCENT,RKT_SUSTAIN,149.07,80,-69.07,12133.03,-176.92,-12.54,20.01,90.5,-0.009,1,0,0,0,0,0,0,0,0,0,90.5,3.781,0,0,0,0,0,0,0,0,90.4,1,0,0.003,0,0,3,0,0,0,11.5,-9.975,0,0,1,1,0,0,VALID,9.7,1.108,14240,0,1,0,-1624.43,25,1,0,191.66,FLYING
247.6,ASCENT,RKT_SUSTAIN,155.79,80,-75.79,11696.56,-177.62,-12.69,19.93,90.51,-0.009,1,0,0,0,0,0,0,0,0,0,90.51,3.709,0,0,0,0,0,0,0,0,90.4,1,0,0.003,0,0,3,0,0,0,11.5,-9.975,0,0,1,1,0,0,VALID,10.6,1.109,13854,0,1,0,-1777.1,25,1,0,194.12,FLYING
250.06,ASCENT,RKT_SUSTAIN,162.18,80,-82.18,11260.75,-176.43,-12.61,19.82,90.52,-0.008,1,0,0,0,0,0,0,0,0,0,90.52,3.844,0,0,0,0,0,0,0,0,90.4,1,0,0.003,0,0,3,0,0,0,11.5,-9.975,0,0,1,1,0,0,VALID,11.5,1.107,13430,0,1,0,-1935.08,25,1,0,196.58,FLYING
252.52,ASCENT,RKT_SUSTAIN,168.02,80,-88.02,10830.3,-173.32,-12.01,19.94,90.53,-0.008,1,0,0,0,0,0,0,0,0,0,90.53,4.183,0,0,0,0,0,0,0,0,90.4,1,0,0.003,0,0,3,0,0,0,11.5,-9.975,0,0,1,1,0,0,VALID,12.4,1.101,12972,0,1,0,-2099.6,25,1,0,199.04,FLYING
254.98,ASCENT,RKT_SUSTAIN,173.05,80,-93.05,10410.21,-168.15,-11.25,19.92,90.54,-0.008,1,0,0,0,0,0,0,0,0,0,90.54,4.744,0,0,0,0,0,0,0,0,90.4,1,0,0.003,0,0,3,0,0,0,11.5,-9.975,0,0,1,1,0,0,VALID,13.3,1.091,12482,0,1,0,-2267.81,25,1,0,201.5,FLYING
257.44,ASCENT,RKT_SUSTAIN,177.34,80,-97.34,10005.19,-161.26,-10.23,19.91,90.56,-0.008,1,0,0,0,0,0,0,0,0,0,90.55,5.497,0,0,0,0,0,0,0,0,90.4,1,0,0.003,0,0,3,0,0,0,11.5,-9.975,0,0,1,1,0,0,VALID,14.1,1.078,11969,0,1,0,-2389.06,25,1,0,203.96,FLYING
259.9,ASCENT,RKT_SUSTAIN,181.24,80,-101.24,9618.5,-153.31,-8.89,19.99,90.56,-0.007,1,0,0,0,0,0,0,0,0,0,90.56,6.388,0,0,0,0,0,0,0,0,90.4,1,0,0.003,0,0,3,0,0,0,11.5,-9.975,0,0,1,1,0,0,VALID,14.9,1.064,11447,0,1,0,-2418.1,25,1,0,206.42,FLYING
262.36,ASCENT,RKT_SUSTAIN,183.5,80,-103.5,9254.41,-142.87,-6.33,20.95,90.57,-0.005,1,0,0,0,0,0,0,0,0,0,90.57,7.532,0,0,0,0,0,0,0,0,90.4,1,0,0.003,0,0,3,0,0,0,11.5,-9.975,0,0,1,1,0,0,VALID,15.5,1.045,10920,0,1,0,-2559.71,25,1,0,208.88,FLYING
264.82,ASCENT,RKT_SUSTAIN,182.9,80,-102.9,8920.49,-129.08,-3.25,21.96,90.58,-0.014,1,0,0,0,0,0,0,0,0,0,90.58,9.02,0,0,0,0,0,0,0,0,90.4,1,0,0.003,0,0,3,0,0,0,11.5,-9.975,0,0,1,1,0,0,VALID,15.9,1.015,10384,0,1,0,-2863.71,25,1,0,211.34,FLYING
267.28,ASCENT,RKT_SUSTAIN,179.76,80,-99.76,8623.31,-113.63,-0.32,22.48,90.59,-0.015,1,0,0,0,0,0,0,0,0,0,90.59,10.724,0,0,0,0,0,0,0,0,90.4,1,0,0.003,0,0,3,0,0,0,11.5,-9.975,0,0,1,1,0,0,VALID,15.8,0.978,9856,0,1,0,-3040.12,25,1,0,213.8,FLYING
269.74,ASCENT,RKT_SUSTAIN,175.17,80,-95.17,8364.99,-97.14,3.6,23.76,90.6,-0.013,1,0,0,0,0,0,0,0,0,0,90.6,12.582,0,0,0,0,0,0,0,0,90.4,1,0,0.003,0,0,3,0,0,0,11.5,-9.975,0,0,1,1,0,0,VALID,15.4,0.938,9366,0,1,0,-3110.25,25,1,0,216.26,FLYING
272.2,ASCENT,RKT_SUSTAIN,169.5,80,-89.5,8146.93,-81.03,6.91,24.3,90.61,-0.016,1,0,0,0,0,0,0,0,0,0,90.61,14.441,0,0,0,0,0,0,0,0,90.4,1,0,0.003,0,0,3,0,0,0,11.5,-9.975,0,0,1,1,0,0,VALID,14.8,0.897,8927,0,1,0,-3127.85,25,1,0,218.72,FLYING
274.66,ASCENT,RKT_SUSTAIN,163.96,80,-83.96,7965.86,-67.63,8.19,23.19,90.61,-0.02,1,0,0,0,0,0,0,0,0,0,90.61,16.023,0,0,0,0,0,0,0,0,90.4,1,0,0.003,0,0,3,0,0,0,11.5,-9.975,0,0,1,1,0,0,VALID,14.1,0.859,8558,0,1,0,-2968.28,25,1,0,221.18,FLYING
277.12,ASCENT,RKT_SUSTAIN,158.39,80,-78.39,7815.31,-55.99,11.15,24.04,90.62,-0.022,1,0,0,0,0,0,0,0,0,0,90.62,17.416,0,0,0,0,0,0,0,0,90.4,1,0,0.003,0,0,3,0,0,0,11.5,-9.975,0,0,1,1,0,0,VALID,13.4,0.824,8261,0,1,0,-2801.16,25,1,0,223.64,FLYING
279.58,ASCENT,RKT_SUSTAIN,153.56,80,-73.56,7688.07,-48.6,8.37,19.93,90.63,-0.027,1,0,0,0,0,0,0,0,0,0,90.63,18.312,0,0,0,0,0,0,0,0,90.4,1,0,0.003,0,0,3,0,0,0,11.5,-9.975,0,0,1,1,0,0,VALID,12.7,0.794,8026,0,1,0,-2514.83,25,1,0,226.1,FLYING
282.04,ASCENT,RKT_SUSTAIN,150.85,80,-70.85,7573.01,-45.24,8.98,19.97,90.63,-0.023,1,0,0,0,0,0,0,0,0,0,90.63,18.699,0,0,0,0,0,0,0,0,90.4,1,0,0.003,0,0,3,0,0,0,11.5,-9.975,0,0,1,1,0,0,VALID,12.2,0.774,7848,0,1,0,-2088.82,25,1,0,228.56,FLYING
284.5,ASCENT,RKT_SUSTAIN,148.14,80,-68.14,7465.16,-42.71,9.4,20,90.63,-0.021,1,0,0,0,0,0,0,0,0,0,90.63,18.979,0,0,0,0,0,0,0,0,90.4,1,0,0.003,0,0,3,0,0,0,11.5,-9.975,0,0,1,1,0,0,VALID,11.9,0.755,7702,0,1,0,-1837.5,25,1,0,231.02,FLYING
286.96,ASCENT,RKT_SUSTAIN,145.5,80,-65.5,7362.5,-40.96,9.62,20.01,90.63,-0.021,1,0,0,0,0,0,0,0,0,0,90.63,19.156,0,0,0,0,0,0,0,0,90.4,1,0,0.003,0,0,3,0,0,0,11.5,-9.975,0,0,1,1,0,0,VALID,11.5,0.737,7575,0,1,0,-1674.52,25,1,0,233.48,FLYING
289.42,ASCENT,RKT_SUSTAIN,143.02,80,-63.02,7263.11,-39.99,9.65,20.01,90.64,-0.021,1,0,0,0,0,0,0,0,0,0,90.64,19.228,0,0,0,0,0,0,0,0,90.4,1,0,0.003,0,0,3,0,0,0,11.5,-9.975,0,0,1,1,0,0,VALID,11.2,0.72,7460,0,1,0,-1554.99,25,1,0,235.94,FLYING
291.88,ASCENT,RKT_SUSTAIN,140.74,80,-60.74,7165.14,-39.73,9.5,20.01,90.64,-0.02,1,0,0,0,0,0,0,0,0,0,90.64,19.2,0,0,0,0,0,0,0,0,90.4,1,0,0.003,0,0,3,0,0,0,11.5,-9.975,0,0,1,1,0,0,VALID,10.9,0.704,7354,0,1,0,-1459.7,25,1,0,238.4,FLYING
294.34,ASCENT,RKT_SUSTAIN,138.7,80,-58.7,7066.95,-40.11,9.19,20.01,90.64,-0.021,1,0,0,0,0,0,0,0,0,0,90.64,19.083,0,0,0,0,0,0,0,0,90.4,1,0,0.003,0,0,3,0,0,0,11.5,-9.975,0,0,1,1,0,0,VALID,10.6,0.689,7253,0,1,0,-1378.35,25,1,0,240.86,FLYING
296.8,ASCENT,RKT_SUSTAIN,136.92,80,-56.92,6967.11,-41.02,8.74,20.01,90.64,-0.018,1,0,0,0,0,0,0,0,0,0,90.64,18.887,0,0,0,0,0,0,0,0,90.4,1,0,0.003,0,0,3,0,0,0,11.5,-9.975,0,0,1,1,0,0,VALID,10.4,0.676,7155,0,1,0,-1305.87,25,1,0,243.32,FLYING
299.26,ASCENT,RKT_SUSTAIN,135.44,80,-55.44,6864.42,-42.38,8.17,20.01,90.65,-0.017,1,0,0,0,0,0,0,0,0,0,90.65,18.626,0,0,0,0,0,0,0,0,90.4,1,0,0.003,0,0,3,0,0,0,11.5,-9.975,0,0,1,1,0,0,VALID,10.2,0.663,7058,0,1,0,-1239.9,25,1,0,245.78,FLYING
301.72,ASCENT,RKT_SUSTAIN,134.26,80,-54.26,6757.9,-44.08,7.51,20.01,90.65,-0.02,1,0,0,0,0,0,0,0,0,0,90.65,18.312,0,0,0,0,0,0,0,0,90.4,1,0,0.003,0,0,3,0,0,0,11.5,-9.975,0,0,1,1,0,0,VALID,10,0.652,6961,0,1,0,-1179.61,25,1,0,248.24,FLYING
304.18,ASCENT,RKT_SUSTAIN,133.38,80,-53.38,6646.84,-46.04,6.77,20.01,90.65,-0.018,1,0,0,0,0,0,0,0,0,0,90.65,17.961,0,0,0,0,0,0,0,0,90.4,1,0,0.003,0,0,3,0,0,0,11.5,-9.975,0,0,1,1,0,0,VALID,9.9,0.642,6861,0,1,0,-1124.73,25,1,0,250.7,FLYING
306.64,ASCENT,RKT_SUSTAIN,132.82,80,-52.82,6530.73,-48.16,6,20.01,90.65,-0.019,1,0,0,0,0,0,0,0,0,0,90.65,17.586,0,0,0,0,0,0,0,0,90.4,1,0,0.003,0,0,3,0,0,0,11.5,-9.975,0,0,1,1,0,0,VALID,9.8,0.634,6759,0,1,0,-1075.22,25,1,0,253.16,FLYING
309.1,ASCENT,RKT_SUSTAIN,132.55,80,-52.55,6409.3,-50.35,5.21,20.01,90.66,-0.019,1,0,0,0,0,0,0,0,0,0,90.66,17.2,0,0,0,0,0,0,0,0,90.4,1,0,0.003,0,0,3,0,0,0,11.5,-9.975,0,0,1,1,0,0,VALID,9.8,0.626,6654,0,1,0,-1031.12,25,1,0,255.62,FLYING
311.56,ASCENT,RKT_SUSTAIN,132.55,80,-52.55,6282.47,-52.54,4.43,20.01,90.66,-0.017,1,0,0,0,0,0,0,0,0,0,90.66,16.818,0,0,0,0,0,0,0,0,90.4,1,0,0.003,0,0,3,0,0,0,11.5,-9.975,0,0,1,1,0,0,VALID,9.8,0.62,6544,0,1,0,-992.47,25,1,0,258.08,FLYING
314.02,ASCENT,RKT_SUSTAIN,132.8,80,-52.8,6150.37,-54.64,3.68,20.01,90.66,-0.018,1,0,0,0,0,0,0,0,0,0,90.66,16.45,0,0,0,0,0,0,0,0,90.4,1,0,0.003,0,0,3,0,0,0,11.5,-9.975,0,0,1,1,0,0,VALID,9.8,0.614,6429,0,1,0,-959.25,25,1,0,260.54,FLYING
316.48,ASCENT,RKT_SUSTAIN,133.27,80,-53.27,6013.28,-56.59,2.99,20.01,90.66,-0.018,1,0,0,0,0,0,0,0,0,0,90.66,16.108,0,0,0,0,0,0,0,0,90.4,1,0,0.003,0,0,3,0,0,0,11.5,-9.975,0,0,1,1,0,0,VALID,9.9,0.609,6309,0,1,0,-931.4,25,1,0,263,FLYING
318.94,ASCENT,RKT_SUSTAIN,133.91,80,-53.91,5871.66,-58.34,2.37,20.01,90.67,-0.018,1,0,0,0,0,0,0,0,0,0,90.67,15.801,0,0,0,0,0,0,0,0,90.4,1,0,0.003,0,0,3,0,0,0,11.5,-9.975,0,0,1,1,0,0,VALID,10,0.605,6184,0,1,0,-908.79,25,1,0,265.46,FLYING
321.4,ASCENT,RKT_SUSTAIN,134.69,80,-54.69,5726.06,-59.84,1.84,20.01,90.67,-0.018,1,0,0,0,0,0,0,0,0,0,90.67,15.537,0,0,0,0,0,0,0,0,90.4,1,0,0.003,0,0,3,0,0,0,11.5,-9.975,0,0,1,1,0,0,VALID,10.1,0.601,6053,0,1,0,-891.19,25,1,0,267.92,FLYING
323.86,ASCENT,RKT_SUSTAIN,135.57,80,-55.57,5577.14,-61.06,1.4,20.01,90.67,-0.018,1,0,0,0,0,0,0,0,0,0,90.67,15.319,0,0,0,0,0,0,0,0,90.4,1,0,0.003,0,0,3,0,0,0,11.5,-9.975,0,0,1,1,0,0,VALID,10.2,0.597,5917,0,1,0,-878.36,25,1,0,270.38,FLYING
326.32,ASCENT,RKT_SUSTAIN,136.51,80,-56.51,5425.65,-61.96,1.05,20.01,90.67,-0.017,1,0,0,0,0,0,0,0,0,0,90.67,15.153,0,0,0,0,0,0,0,0,90.4,1,0,0.003,0,0,3,0,0,0,11.5,-9.975,0,0,1,1,0,0,VALID,10.4,0.594,5776,0,1,0,-870,25,1,0,272.84,FLYING
328.78,ASCENT,RKT_SUSTAIN,137.46,80,-57.46,5272.35,-62.55,0.81,20.01,90.68,-0.018,1,0,0,0,0,0,0,0,0,0,90.68,15.038,0,0,0,0,0,0,0,0,90.4,1,0,0.003,0,0,3,0,0,0,11.5,-9.975,0,0,1,1,0,0,VALID,10.5,0.59,5631,0,1,0,-865.67,25,1,0,275.3,FLYING
331.24,ASCENT,RKT_SUSTAIN,138.39,80,-58.39,5118.04,-62.81,0.67,20.01,90.68,-0.018,1,0,0,0,0,0,0,0,0,0,90.68,14.975,0,0,0,0,0,0,0,0,90.4,1,0,0.003,0,0,3,0,0,0,11.5,-9.975,0,0,1,1,0,0,VALID,10.7,0.587,5482,0,1,0,-864.92,25,1,0,277.76,FLYING
333.7,ASCENT,RKT_SUSTAIN,139.26,80,-59.26,4963.49,-62.77,0.61,20.01,90.68,-0.019,1,0,0,0,0,0,0,0,0,0,90.68,14.961,0,0,0,0,0,0,0,0,90.4,1,0,0.003,0,0,3,0,0,0,11.5,-9.975,0,0,1,1,0,0,VALID,10.8,0.583,5330,0,1,0,-867.25,25,1,0,280.22,FLYING
336.16,ASCENT,RKT_SUSTAIN,140.05,80,-60.05,4809.41,-62.46,0.62,20,90.69,-0.02,1,0,0,0,0,0,0,0,0,0,90.69,14.989,0,0,0,0,0,0,0,0,90.4,1,0,0.003,0,0,3,0,0,0,11.5,-9.975,0,0,1,1,0,0,VALID,11,0.579,5176,0,1,0,-872.71,25,1,0,282.68,FLYING
338.62,ASCENT,RKT_SUSTAIN,140.73,80,-60.73,4656.44,-61.88,0.7,20,90.69,-0.02,1,0,0,0,0,0,0,0,0,0,90.69,15.057,0,0,0,0,0,0,0,0,90.4,1,0,0.003,0,0,3,0,0,0,11.5,-9.975,0,0,1,1,0,0,VALID,11.1,0.575,5020,0,1,0,-878.42,25,1,0,285.14,FLYING
341.08,ASCENT,RKT_SUSTAIN,141.28,80,-61.28,4505.15,-61.12,0.84,19.99,90.69,-0.017,1,0,0,0,0,0,0,0,0,0,90.69,15.156,0,0,0,0,0,0,0,0,90.4,1,0,0.003,0,0,3,0,0,0,11.5,-9.975,0,0,1,1,0,0,VALID,11.2,0.57,4864,0,1,0,-887.32,25,1,0,287.6,FLYING
343.54,ASCENT,RKT_SUSTAIN,141.71,80,-61.71,4356,-60.17,1.02,19.98,90.7,-0.017,1,0,0,0,0,0,0,0,0,0,90.7,15.281,0,0,0,0,0,0,0,0,90.4,1,0,0.003,0,0,3,0,0,0,11.5,-9.975,0,0,1,1,0,0,VALID,11.3,0.565,4708,0,1,0,-894.76,25,1,0,290.06,FLYING
346,ASCENT,RKT_SUSTAIN,142,80,-62,4209.35,-59.1,1.24,19.98,90.7,-0.017,1,0,0,0,0,0,0,0,0,0,90.7,15.423,0,0,0,0,0,0,0,0,90.4,1,0,0.003,0,0,3,0,0,0,11.5,-9.975,0,0,1,1,0,0,VALID,11.4,0.56,4553,0,1,0,-903.09,25,1,0,292.52,FLYING
348.46,ASCENT,RKT_SUSTAIN,142.16,80,-62.16,4065.47,-57.94,1.48,19.99,90.7,-0.017,1,0,0,0,0,0,0,0,0,0,90.7,15.578,0,0,0,0,0,0,0,0,90.4,1,0,0.003,0,0,3,0,0,0,11.5,-9.975,0,0,1,1,0,0,VALID,11.4,0.554,4400,0,1,0,-909.4,25,1,0,294.98,FLYING
350.92,ASCENT,RKT_SUSTAIN,142.18,80,-62.18,3924.49,-56.74,1.73,19.99,90.71,-0.018,1,0,0,0,0,0,0,0,0,0,90.71,15.738,0,0,0,0,0,0,0,0,90.4,1,0,0.003,0,0,3,0,0,0,11.5,-9.975,0,0,1,1,0,0,VALID,11.5,0.548,4249,0,1,0,-915.48,25,1,0,297.44,FLYING
353.38,ASCENT,RKT_SUSTAIN,142.07,80,-62.07,3786.46,-55.54,1.97,19.99,90.71,-0.018,1,0,0,0,0,0,0,0,0,0,90.71,15.897,0,0,0,0,0,0,0,0,90.4,1,0,0.003,0,0,3,0,0,0,11.5,-9.975,0,0,1,1,0,0,VALID,11.5,0.542,4100,0,1,0,-920.33,25,1,0,299.9,FLYING
355.84,ASCENT,RKT_SUSTAIN,141.86,80,-61.86,3651.34,-54.39,2.19,20,90.71,-0.017,1,0,0,0,0,0,0,0,0,0,90.71,16.047,0,0,0,0,0,0,0,0,90.4,1,0,0.003,0,0,3,0,0,0,11.5,-9.975,0,0,1,1,0,0,VALID,11.5,0.535,3955,0,1,0,-923.41,25,1,0,302.36,FLYING
358.3,ASCENT,RKT_SUSTAIN,141.56,80,-61.56,3518.97,-53.31,2.38,20,90.71,-0.018,1,0,0,0,0,0,0,0,0,0,90.71,16.185,0,0,0,0,0,0,0,0,90.4,1,0,0.003,0,0,3,0,0,0,11.5,-9.975,0,0,1,1,0,0,VALID,11.5,0.529,3813,0,1,0,-924.29,25,1,0,304.82,FLYING
360.76,ASCENT,RKT_SUSTAIN,141.17,80,-61.17,3389.13,-52.32,2.54,20,90.72,-0.019,1,0,0,0,0,0,0,0,0,0,90.72,16.306,0,0,0,0,0,0,0,0,90.4,1,0,0.003,0,0,3,0,0,0,11.5,-9.975,0,0,1,1,0,0,VALID,11.4,0.522,3674,0,1,0,-923.55,25,1,0,307.28,FLYING
363.22,ASCENT,RKT_SUSTAIN,140.74,80,-60.74,3261.55,-51.45,2.66,20.01,90.72,-0.019,1,0,0,0,0,0,0,0,0,0,90.72,16.407,0,0,0,0,0,0,0,0,90.4,1,0,0.003,0,0,3,0,0,0,11.5,-9.975,0,0,1,1,0,0,VALID,11.4,0.516,3539,0,1,0,-920.8,25,1,0,309.74,FLYING
365.68,ASCENT,RKT_SUSTAIN,140.27,80,-60.27,3135.93,-50.72,2.73,20.01,90.72,-0.019,1,0,0,0,0,0,0,0,0,0,90.72,16.486,0,0,0,0,0,0,0,0,90.4,1,0,0.003,0,0,3,0,0,0,11.5,-9.975,0,0,1,1,0,0,VALID,11.3,0.509,3406,0,1,0,-915.58,25,1,0,312.2,FLYING
368.14,ASCENT,RKT_SUSTAIN,139.8,80,-59.8,3011.91,-50.14,2.75,20.01,90.73,-0.018,1,0,0,0,0,0,0,0,0,0,90.73,16.542,0,0,0,0,0,0,0,0,90.4,1,0,0.003,0,0,3,0,0,0,11.5,-9.975,0,0,1,1,0,0,VALID,11.3,0.503,3276,0,1,0,-908.09,25,1,0,314.66,FLYING
370.6,ASCENT,RKT_SUSTAIN,139.34,80,-59.34,2889.15,-49.69,2.73,20.01,90.73,-0.019,1,0,0,0,0,0,0,0,0,0,90.73,16.574,0,0,0,0,0,0,0,0,90.4,1,0,0.003,0,0,3,0,0,0,11.5,-9.975,0,0,1,1,0,0,VALID,11.2,0.497,3149,0,1,0,-898.8,25,1,0,317.12,FLYING
373.06,ASCENT,RKT_SUSTAIN,138.92,80,-58.92,2767.28,-49.39,2.66,20.01,90.74,-0.021,1,0,0,0,0,0,0,0,0,0,90.74,16.584,0,0,0,0,0,0,0,0,90.4,1,0,0.003,0,0,3,0,0,0,11.5,-9.975,0,0,1,1,0,0,VALID,11.2,0.491,3023,0,1,0,-888.01,25,1,0,319.58,FLYING
375.52,ASCENT,RKT_SUSTAIN,138.53,80,-58.53,2646.01,-49.2,2.56,20.01,90.74,-0.02,1,0,0,0,0,0,0,0,0,0,90.74,16.574,0,0,0,0,0,0,0,0,90.4,1,0,0.003,0,0,3,0,0,0,11.5,-9.975,0,0,1,1,0,0,VALID,11.1,0.485,2899,0,1,0,-876.14,25,1,0,322.04,FLYING
377.98,ASCENT,RKT_SUSTAIN,138.21,80,-58.21,2525.05,-49.12,2.42,20.01,90.74,-0.02,1,0,0,0,0,0,0,0,0,0,90.74,16.548,0,0,0,0,0,0,0,0,90.4,1,0,0.003,0,0,3,0,0,0,11.5,-9.975,0,0,1,1,0,0,VALID,11.1,0.479,2777,0,1,0,-863.52,25,1,0,324.5,FLYING
380.44,ASCENT,RKT_SUSTAIN,137.95,80,-57.95,2404.18,-49.12,2.26,20.01,90.75,-0.019,1,0,0,0,0,0,0,0,0,0,90.75,16.509,0,0,0,0,0,0,0,0,90.4,1,0,0.003,0,0,3,0,0,0,11.5,-9.975,0,0,1,1,0,0,VALID,11,0.474,2655,0,1,0,-850.57,25,1,0,326.96,FLYING
382.9,ASCENT,RKT_SUSTAIN,137.84,80,-57.84,2282.85,-49.42,1.44,19.46,90.75,-0.019,1,0,0,0,0,0,0,0,0,0,90.75,16.425,0,0,0,0,0,0,0,0,90.4,1,0,0.003,0,0,3,0,0,0,11.5,-9.975,0,0,1,1,0,0,VALID,11,0.47,2535,0,1,0,-832.51,25,1,0,329.42,FLYING
385.36,ASCENT,RKT_SUSTAIN,137.87,80,-57.87,2160.82,-49.68,1.77,20.01,90.75,-0.018,1,0,0,0,0,0,0,0,0,0,90.75,16.344,0,0,0,0,0,0,0,0,90.4,1,0,0.003,0,0,3,0,0,0,11.5,-9.975,0,0,1,1,0,0,VALID,11,0.465,2414,0,1,0,-815.55,25,1,0,331.88,FLYING
387.82,ASCENT,RKT_SUSTAIN,137.83,80,-57.83,2038.51,-49.72,1.62,20.01,90.76,-0.018,1,0,0,0,0,0,0,0,0,0,90.76,16.304,0,0,0,0,0,0,0,0,90.4,1,0,0.003,0,0,3,0,0,0,11.5,-9.975,0,0,1,1,0,0,VALID,11,0.461,2293,0,1,0,-807.85,25,1,0,334.34,FLYING
390.28,ASCENT,RKT_SUSTAIN,137.81,80,-57.81,1916.07,-49.75,1.31,19.86,90.76,-0.018,1,0,0,0,0,0,0,0,0,0,90.76,16.267,0,0,0,0,0,0,0,0,90.4,1,0,0.003,0,0,3,0,0,0,11.5,-9.975,0,0,1,1,0,0,VALID,11,0.457,2171,0,1,0,-800.81,25,1,0,336.8,FLYING
392.74,ASCENT,RKT_SUSTAIN,138.23,80,-58.23,1792.95,-50.4,0.87,19.71,90.76,-0.017,1,0,0,0,0,0,0,0,0,0,90.76,16.127,0,0,0,0,0,0,0,0,90.4,1,0,0.003,0,0,3,0,0,0,11.5,-9.975,0,0,1,1,0,0,VALID,11.1,0.454,2050,0,1,0,-766.6,25,1,0,339.26,FLYING
395.2,ASCENT,RKT_SUSTAIN,138.28,80,-58.28,1669.34,-50.21,1.07,20.01,90.77,-0.017,1,0,0,0,0,0,0,0,0,0,90.77,16.131,0,0,0,0,0,0,0,0,90.4,1,0,0.003,0,0,3,0,0,0,11.5,-9.975,0,0,1,1,0,0,VALID,11.1,0.45,1928,0,1,0,-772.61,25,1,0,341.72,FLYING
397.66,ASCENT,RKT_SUSTAIN,138.38,80,-58.38,1546,-50.05,1.01,20.01,90.77,-0.018,1,0,0,0,0,0,0,0,0,0,90.77,16.13,0,0,0,0,0,0,0,0,90.4,1,0,0.003,0,0,3,0,0,0,11.5,-9.975,0,0,1,1,0,0,VALID,11.1,0.446,1804,0,1,0,-770.71,25,1,0,344.18,FLYING
400.12,ASCENT,RKT_SUSTAIN,138.47,80,-58.47,1423.1,-49.85,0.96,20.01,90.77,-0.018,1,0,0,0,0,0,0,0,0,0,90.77,16.136,0,0,0,0,0,0,0,0,90.4,1,0,0.003,0,0,3,0,0,0,11.5,-9.975,0,0,1,1,0,0,VALID,11.2,0.442,1680,0,1,0,-767.64,25,1,0,346.64,FLYING
402.58,ASCENT,RKT_SUSTAIN,138.55,80,-58.55,1300.72,-49.62,0.92,20.01,90.78,-0.018,1,0,0,0,0,0,0,0,0,0,90.78,16.148,0,0,0,0,0,0,0,0,90.4,1,0,0.003,0,0,3,0,0,0,11.5,-9.975,0,0,1,1,0,0,VALID,11.2,0.439,1557,0,1,0,-764.14,25,1,0,349.1,FLYING
405.04,ASCENT,RKT_SUSTAIN,138.71,80,-58.71,1178.64,-49.56,0.29,19.49,90.78,-0.017,1,0,0,0,0,0,0,0,0,0,90.78,16.134,0,0,0,0,0,0,0,0,90.4,1,0,0.003,0,0,3,0,0,0,11.5,-9.975,0,0,1,1,0,0,VALID,11.2,0.435,1433,0,1,0,-755.38,25,1,0,351.56,FLYING
407.5,ASCENT,RKT_SUSTAIN,138.96,80,-58.96,1056.57,-49.52,0.55,19.83,90.78,-0.015,1,0,0,0,0,0,0,0,0,0,90.78,16.117,0,0,0,0,0,0,0,0,90.4,1,0,0.003,0,0,3,0,0,0,11.5,-9.975,0,0,1,1,0,0,VALID,11.3,0.432,1311,0,1,0,-746.5,25,1,0,354.02,FLYING
409.96,ASCENT,RKT_SUSTAIN,139.11,80,-59.11,935.13,-49.3,0.58,19.87,90.79,-0.014,1,0,0,0,0,0,0,0,0,0,90.79,16.131,0,0,0,0,0,0,0,0,90.4,1,0,0.003,0,0,3,0,0,0,11.5,-9.975,0,0,1,1,0,0,VALID,11.3,0.429,1188,0,1,0,-742.6,25,1,0,356.48,FLYING
412.42,ASCENT,RKT_SUSTAIN,139.21,80,-59.21,814.3,-48.98,0.46,19.77,90.79,-0.016,1,0,0,0,0,0,0,0,0,0,90.79,16.162,0,0,0,0,0,0,0,0,90.4,1,0,0.003,0,0,3,0,0,0,11.5,-9.975,0,0,1,1,0,0,VALID,11.3,0.425,1065,0,1,0,-740.55,25,1,0,358.94,FLYING
414.88,ASCENT,RKT_SUSTAIN,139.28,80,-59.28,694.27,-48.61,0.5,19.78,90.79,-0.017,1,0,0,0,0,0,0,0,0,0,90.79,16.203,0,0,0,0,0,0,0,0,90.4,1,0,0.003,0,0,3,0,0,0,11.5,-9.975,0,0,1,1,0,0,VALID,11.4,0.422,943,0,1,0,-739.15,25,1,0,361.4,FLYING
417.34,ASCENT,RKT_SUSTAIN,139.34,80,-59.34,575.14,-48.24,0.69,19.96,90.8,-0.015,1,0,0,0,0,0,0,0,0,0,90.8,16.241,0,0,0,0,0,0,0,0,90.4,1,0,0.003,0,0,3,0,0,0,11.5,-9.975,0,0,1,1,0,0,VALID,11.4,0.418,821,0,1,0,-737.15,25,1,0,363.86,FLYING
419.8,ASCENT,RKT_SUSTAIN,139.31,80,-59.31,456.9,-47.81,0.65,19.88,90.8,-0.016,1,0,0,0,0,0,0,0,0,0,90.8,16.291,0,0,0,0,0,0,0,0,90.4,1,0,0.003,0,0,3,0,0,0,11.5,-9.975,0,0,1,1,0,0,VALID,11.4,0.415,700,0,1,0,-737.75,25,1,0,366.32,FLYING
422.26,ASCENT,RKT_SUSTAIN,139.38,80,-59.38,339.48,-47.58,0.35,19.61,90.8,-0.015,1,0,0,0,0,0,0,0,0,0,90.8,16.309,0,0,0,0,0,0,0,0,90.4,1,0,0.003,0,0,3,0,0,0,11.5,-9.975,0,0,1,1,0,0,VALID,11.4,0.411,580,0,1,0,-729.52,25,1,0,368.78,FLYING
424.72,ASCENT,RKT_SUSTAIN,139.45,80,-59.45,222.92,-47.27,0.71,19.97,90.81,-0.015,1,0,0,0,0,0,0,0,0,0,90.81,16.335,0,0,0,0,0,0,0,0,90.4,1,0,0.003,0,0,3,0,0,0,11.5,-9.975,0,0,1,1,0,0,VALID,11.4,0.408,461,0,1,0,-720.59,25,1,0,371.24,FLYING
427.18,ASCENT,RKT_SUSTAIN,139.36,80,-59.36,107.02,-46.89,0.51,19.75,90.81,-0.016,1,0,0,0,0,0,0,0,0,0,90.81,16.38,0,0,0,0,0,0,0,0,90.4,1,0,0.003,0,0,3,0,0,0,11.5,-9.975,0,0,1,1,0,0,VALID,11.4,0.405,343,0,1,0,-724.39,25,1,0,373.7,FLYING
429.64,ASCENT,RKT_SUSTAIN,54.53,80,25.47,-0.3,-0.01,1.47,0,90.53,-1.019,1,0,0,0,0,0,0,0,0,0,90.53,24.993,0,0,0,0,0,0,0,0,90.4,1,0,0.003,0,0,3,0,0,0,11.5,-9.975,0,0,1,1,0,0,VALID,11.4,0.36,204,0,1,0,-10502.65,25,1,0,376.16,SPLASHED
432.1,ASCENT,RKT_SUSTAIN,1.71,80,78.29,0.19,2.06,0.44,0,90.51,4.758,1,0,0,0,0,0,0,0,0,0,90.51,25,0,0,0,0,0,0,0,0,90.4,1,0,0.003,0,0,3,0,0,0,11.5,-9.975,0,0,1,1,0,0,VALID,2,0.003,84,0,1,0,-5615.89,24.5,1,0,378.62,SPLASHED
434.58,ASCENT,RKT_SUSTAIN,0.26,80,79.74,0.74,0.26,1.11,0,90.75,-2.2,1,0,0,0,0,0,0,0,0,0,90.76,24.541,0,0,0,0,0,0,0,0,90.4,1,0,0.003,0,0,3,0,0,0,11.5,-9.975,0,0,1,1,0,0,VALID,0.4,0.002,35,0,1,0,-2930.31,24.5,1,0,381.1,SPLASHED
437.08,ASCENT,RKT_SUSTAIN,0.09,80,79.91,-0.58,0.25,-1.51,0,90.77,2.293,1,0,0,0,0,0,0,0,0,0,90.77,24.559,0,0,0,0,0,0,0,0,90.4,1,0,0.003,0,0,3,0,0,0,11.5,-9.975,0,0,1,1,0,0,VALID,0.1,0,14,0,1,0,-1532.58,24.5,1,0,383.6,SPLASHED
439.58,ASCENT,RKT_SUSTAIN,0.41,80,79.59,1.02,-0.55,2.44,0,90.86,-3.662,1,0,0,0,0,0,0,0,0,0,90.87,24.336,0,0,0,0,0,0,0,0,90.4,1,0,0.003,0,0,3,0,0,0,11.5,-9.975,0,0,1,1,0,0,VALID,0,0.001,6,0,1,0,-796.55,24.5,1,0,386.1,SPLASHED
442.08,ASCENT,RKT_SUSTAIN,0.01,80,79.99,-0.07,-0.07,-1.36,0,90.81,-0.001,1,0,0,0,0,0,0,0,0,0,90.81,24.485,0,0,0,0,0,0,0,0,90.4,1,0,0.003,0,0,3,0,0,0,11.5,-9.975,0,0,1,1,0,0,VALID,0,0,3,0,1,0,-417.96,24.5,1,0,388.6,SPLASHED
444.56,ASCENT,RKT_SUSTAIN,0.58,80,79.42,0.82,0.58,1.99,0,90.71,3.098,1,0,0,0,0,0,0,0,0,0,90.72,24.199,0,0,0,0,0,0,0,0,90.4,1,0,0.003,0,0,3,0,0,0,11.5,-9.975,0,0,1,1,0,0,VALID,0,0.002,1,0,1,0,-215.93,24,1,0,391.08,SPLASHED
447.04,ASCENT,RKT_SUSTAIN,0.51,80,79.49,0.38,-0.59,0.35,0,90.73,-1.318,1,0,0,0,0,0,0,0,0,0,90.73,23.811,0,0,0,0,0,0,0,0,90.4,1,0,0.003,0,0,3,0,0,0,11.5,-9.975,0,0,1,1,0,0,VALID,0,0.001,1,0,1,0,-113.71,24,1,0,393.56,SPLASHED
449.54,ASCENT,RKT_SUSTAIN,0.02,80,79.98,0.25,-0.04,0.75,0,90.77,-2.53,1,0,0,0,0,0,0,0,0,0,90.77,24.988,0,0,0,0,0,0,0,0,90.4,1,0,0.003,0,0,3,0,0,0,11.5,-9.975,0,0,1,1,0,0,VALID,0,0,0,0,1,0,-59.73,25,1,0,396.06,SPLASHED
452.02,ASCENT,RKT_SUSTAIN,0.29,80,79.71,0.83,0.18,0.64,0,90.73,3.508,1,0,0,0,0,0,0,0,0,0,90.72,23.574,0,0,0,0,0,0,0,0,90.4,1,0,0.003,0,0,3,0,0,0,11.5,-9.975,0,0,1,1,0,0,VALID,0,0.001,0,0,1,0,-29.41,23.5,1,0,398.54,SPLASHED
