t_s,phase,subphase,ias_ms,vapp_ms,spd_err_ms,agl_m,vs_ms,pitch_deg,aoa_deg,hdg_deg,bank_deg,thr_cmd,thr_cur,thr_intg,at_gain,at_tau_s,at_a_up,at_a_dn,at_kp_thr,at_ki_spd,at_thr_slew,aa_hdg_cmd_deg,aa_fpa_cmd_deg,aa_fbw,aa_dir,actual_fpa_deg,ftf_hdg_err_deg,ftf_fix_idx,kos_steer_pit_deg,kos_steer_hdg_deg,aa_dir_vx,aa_dir_vy,aa_dir_vz,aa_dir_pitch_deg,aa_dir_hdg_deg,ils_loc_m,ils_gs_m,ils_dist_km,loc_corr_deg,gs_corr_deg,flare_fpa_cmd,flare_tgt_vs,flare_frac,steer_hdg_deg,steer_blend,ro_loc_corr_deg,ro_hdg_err_deg,ro_yaw_tgt,ro_yaw_scale,ro_yaw_gate,yaw_cmd,roll_cmd,pitch_cmd,ro_pitch_tgt_deg,ro_pitch_err_deg,ro_pitch_ff,ro_roll_assist,flaps_cur,flaps_tgt,asc_j_ab,asc_j_rk,asc_validity,asc_q_pa,asc_q_raw_pa,asc_mach,asc_apo_m,asc_drag_n,asc_w_prop,asc_edot_aero,asc_edot_orb,asc_pitch_bias,asc_blend,asc_spooling,asc_ab_thr_ratio,asc_ab_t_now,asc_ab_t_avail,asc_ab_ign_on,asc_ab_flameouts,asc_rk_t_now,asc_rk_t_avail,asc_rk_ign_on,asc_rk_flameouts,ship_thrust,ship_avail_thrust,ship_ign_on,ship_flameouts,ifc_raw_dt_s,ifc_dt_s,ifc_loop_n,ifc_hz_est,ifc_raw_dt_max_s,ifc_raw_dt_min_s,phase_el_s,status,craft_name,cfg_file
0.1,APPROACH,ILS_TRACK,72.43,73,0.57,2257.15,-8.51,2.28,8.06,273.53,6.534,0,0,0,0,0,0,0,0,0,0,0,0,1,0,-6.7,0,0,0,90,0,0,0,0,0,0,0,33.842,0,0,0,0,0,273.5,0,0,0,0,0,0,0,0,0,0,0,0,0,0,0,0,0,VALID,0,0,0,0,0,1,0,0,0,0,0,0,0,0,0,0,0,0,0,0,208.86,363.69,2,0,0.1,0.1,1,3.7,0.1,0.02,0.1,FLYING,CF1-F,0:/Integrated Flight Computer/aircraft/cf1_f_cfg.ks (inferred preloaded)
0.4,APPROACH,ILS_TRACK,73.18,73,-0.18,2254.71,-8.78,3.24,9.22,273.51,6.753,0,0,0.026,1,0.6,1.021,0.75,0.35,0.0168,0.4,269.9,-5.063,0,0,-6.84,0,0,-5.06,269.93,0,0,0,0,0,0.74,412.56,33.818,-0.501,0,0,0,0,273.5,0,0,0,0,0,0,0,0,0,0,0,0,0,1,1,0,0,VALID,0,0,0,0,0,1,0,0,0,0,0,0,0,0,0,0,0,0,0,0,193.53,363.32,2,0,0.08,0.08,4,10,0.1,0.08,0.4,FLYING,CF1-F,0:/Integrated Flight Computer/aircraft/cf1_f_cfg.ks (inferred preloaded)
0.66,APPROACH,ILS_TRACK,73.72,73,-0.72,2252.39,-8.82,3.15,9.03,273.17,6.354,0,0,0.026,1,0.6,1.814,0.75,0.35,0.0168,0.4,269.78,-5.057,0,0,-6.82,0,0,-5.06,269.8,0,0,0,0,0,1.3,411.43,33.796,-0.622,0,0,0,0,273.5,0,0,0,0,0,0,0,0,0,0,0,0,0,1,1,0,0,VALID,0,0,0,0,0,1,0,0,0,0,0,0,0,0,0,0,0,0,0,0,181.19,363.07,2,0,0.1,0.1,7,11.54,0.1,0.06,0.66,FLYING,CF1-F,0:/Integrated Flight Computer/aircraft/cf1_f_cfg.ks (inferred preloaded)
1,APPROACH,ILS_TRACK,74.38,73,-1.38,2249.1,-9.08,1.7,7.61,272.44,4.767,0,0,0.025,1,0.6,2.606,0.75,0.35,0.0168,0.4,269.66,-5.048,0,0,-6.94,0,0,-5.05,269.67,0,0,0,0,0,2.15,409.7,33.766,-0.739,0,0,0,0,273.5,0,0,0,0,0,0,0,0,0,0,0,0,0,1,1,0,0,VALID,0,0,0,0,0,1,0,0,0,0,0,0,0,0,0,0,0,0,0,0,166.26,362.77,2,0,0.1,0.1,11,11.76,0.1,0.06,1,FLYING,CF1-F,0:/Integrated Flight Computer/aircraft/cf1_f_cfg.ks (inferred preloaded)
1.32,APPROACH,ILS_TRACK,75.02,73,-2.02,2245.88,-9.82,0.45,6.77,272.13,2.45,0,0,0.025,1,0.6,3.172,0.75,0.35,0.0168,0.4,269.61,-5.04,0,0,-7.42,0,0,-5.04,269.6,0,0,0,0,0,3.01,407.94,33.738,-0.793,0,0,0,0,273.5,0,0,0,0,0,0,0,0,0,0,0,0,0,1,1,0,0,VALID,0,0,0,0,0,1,0,0,0,0,0,0,0,0,0,0,0,0,0,0,153.32,362.49,2,0,0.1,0.1,15,12.5,0.1,0.06,1.32,FLYING,CF1-F,0:/Integrated Flight Computer/aircraft/cf1_f_cfg.ks (inferred preloaded)
1.66,APPROACH,ILS_TRACK,75.7,73,-2.7,2242.45,-10.53,0.7,7.45,272.27,0.992,0,0,0.024,1,0.6,3.576,0.75,0.35,0.0168,0.4,269.55,-5.03,0,0,-7.9,0,0,-5.03,269.56,0,0,0,0,0,3.94,406.08,33.708,-0.846,0,0,0,0,273.5,0,0,0,0,0,0,0,0,0,0,0,0,0,1,1,0,0,VALID,0,0,0,0,0,1,0,0,0,0,0,0,0,0,0,0,0,0,0,0,140.69,362.2,2,0,0.1,0.1,19,11.76,0.1,0.06,1.66,FLYING,CF1-F,0:/Integrated Flight Computer/aircraft/cf1_f_cfg.ks (inferred preloaded)
2,APPROACH,ILS_TRACK,76.3,73,-3.3,2238.92,-10.89,1.4,8.34,272.32,0.797,0,0,0.024,1,0.6,3.865,0.75,0.35,0.0168,0.4,269.5,-5.021,0,0,-8.11,0,0,-5.02,269.5,0,0,0,0,0,4.9,404.14,33.678,-0.899,0,0,0,0,273.5,0,0,0,0,0,0,0,0,0,0,0,0,0,1,1,0,0,VALID,0,0,0,0,0,1,0,0,0,0,0,0,0,0,0,0,0,0,0,0,129.11,361.97,2,0,0.1,0.1,23,11.76,0.1,0.06,2,FLYING,CF1-F,0:/Integrated Flight Computer/aircraft/cf1_f_cfg.ks (inferred preloaded)
2.32,APPROACH,ILS_TRACK,76.77,73,-3.77,2235.53,-10.9,2.04,8.96,272.33,0.408,0,0,0.023,1,0.6,4.071,0.75,0.35,0.0168,0.4,269.42,-5.011,0,0,-8.09,0,0,-5.01,269.43,0,0,0,0,0,5.84,402.24,33.65,-0.978,0,0,0,0,273.5,0,0,0,0,0,0,0,0,0,0,0,0,0,1,1,0,0,VALID,0,0,0,0,0,1,0,0,0,0,0,0,0,0,0,0,0,0,0,0,119.11,361.82,2,0,0.1,0.1,27,12.5,0.1,0.06,2.32,FLYING,CF1-F,0:/Integrated Flight Computer/aircraft/cf1_f_cfg.ks (inferred preloaded)
2.66,APPROACH,ILS_TRACK,77.18,73,-4.18,2231.87,-10.81,2.24,9.07,272.34,0.371,0,0,0.023,1,0.6,4.218,0.75,0.35,0.0168,0.4,269.38,-5.001,0,0,-7.99,0,0,-5,269.42,0,0,0,0,0,6.84,400.18,33.619,-1.021,0,0,0,0,273.5,0,0,0,0,0,0,0,0,0,0,0,0,0,1,1,0,0,VALID,0,0,0,0,0,1,0,0,0,0,0,0,0,0,0,0,0,0,0,0,109.35,361.71,2,0,0.1,0.1,31,11.76,0.1,0.06,2.66,FLYING,CF1-F,0:/Integrated Flight Computer/aircraft/cf1_f_cfg.ks (inferred preloaded)
2.98,APPROACH,ILS_TRACK,77.51,73,-4.51,2228.41,-10.73,2.19,8.95,272.31,-0.026,0,0,0.022,1,0.6,4.323,0.75,0.35,0.0168,0.4,269.35,-4.991,0,0,-7.89,0,0,-4.99,269.35,0,0,0,0,0,7.79,398.23,33.59,-1.051,0,0,0,0,273.5,0,0,0,0,0,0,0,0,0,0,0,0,0,1,1,0,0,VALID,0,0,0,0,0,1,0,0,0,0,0,0,0,0,0,0,0,0,0,0,100.9,361.65,2,0,0.1,0.1,35,12.5,0.1,0.06,2.98,FLYING,CF1-F,0:/Integrated Flight Computer/aircraft/cf1_f_cfg.ks (inferred preloaded)
3.32,APPROACH,ILS_TRACK,77.82,73,-4.82,2224.77,-10.65,2.11,8.78,272.23,-0.442,0,0,0.022,1,0.6,4.399,0.75,0.35,0.0168,0.4,269.3,-4.981,0,0,-7.79,0,0,-4.98,269.31,0,0,0,0,0,8.82,396.19,33.56,-1.104,0,0,0,0,273.5,0,0,0,0,0,0,0,0,0,0,0,0,0,1,1,0,0,VALID,0,0,0,0,0,1,0,0,0,0,0,0,0,0,0,0,0,0,0,0,92.65,361.61,2,0,0.1,0.1,39,11.76,0.1,0.06,3.32,FLYING,CF1-F,0:/Integrated Flight Computer/aircraft/cf1_f_cfg.ks (inferred preloaded)
3.66,APPROACH,ILS_TRACK,78.09,73,-5.09,2221.15,-10.57,2.05,8.66,272.15,-0.799,0,0,0.021,1,0.6,4.452,0.75,0.35,0.0168,0.4,269.25,-4.971,0,0,-7.71,0,0,-4.97,269.29,0,0,0,0,0,9.84,394.19,33.529,-1.15,0,0,0,0,273.5,0,0,0,0,0,0,0,0,0,0,0,0,0,1,1,0,0,VALID,0,0,0,0,0,1,0,0,0,0,0,0,0,0,0,0,0,0,0,0,85.08,361.6,2,0,0.1,0.1,43,11.76,0.1,0.06,3.66,FLYING,CF1-F,0:/Integrated Flight Computer/aircraft/cf1_f_cfg.ks (inferred preloaded)
3.98,APPROACH,ILS_TRACK,78.31,73,-5.31,2217.78,-10.5,2.01,8.56,272.08,-1.084,0,0,0.021,1,0.6,4.491,0.75,0.35,0.0168,0.4,269.23,-4.962,0,0,-7.64,0,0,-4.96,269.25,0,0,0,0,0,10.78,392.33,33.5,-1.165,0,0,0,0,273.5,0,0,0,0,0,0,0,0,0,0,0,0,0,1,1,0,0,VALID,0,0,0,0,0,1,0,0,0,0,0,0,0,0,0,0,0,0,0,0,78.52,361.6,2,0,0.1,0.1,47,12.5,0.1,0.06,3.98,FLYING,CF1-F,0:/Integrated Flight Computer/aircraft/cf1_f_cfg.ks (inferred preloaded)
4.3,APPROACH,ILS_TRACK,78.5,73,-5.5,2214.43,-10.43,2,8.49,272,-1.325,0,0,0.021,1,0.6,4.5,0.75,0.35,0.0168,0.4,269.2,-4.953,0,0,-7.58,0,0,-4.95,269.22,0,0,0,0,0,11.72,390.51,33.471,-1.197,0,0,0,0,273.5,0,0,0,0,0,0,0,0,0,0,0,0,0,1,1,0,0,VALID,0,0,0,0,0,1,0,0,0,0,0,0,0,0,0,0,0,0,0,0,72.48,361.63,2,0,0.1,0.1,51,12.5,0.1,0.06,4.3,FLYING,CF1-F,0:/Integrated Flight Computer/aircraft/cf1_f_cfg.ks (inferred preloaded)
4.64,APPROACH,ILS_TRACK,78.67,73,-5.67,2210.89,-10.37,2,8.45,271.92,-1.54,0,0,0.02,1,0.6,4.5,0.75,0.35,0.0168,0.4,269.18,-4.943,0,0,-7.51,0,0,-4.94,269.21,0,0,0,0,0,12.68,388.6,33.44,-1.222,0,0,0,0,273.5,0,0,0,0,0,0,0,0,0,0,0,0,0,1,1,0,0,VALID,0,0,0,0,0,1,0,0,0,0,0,0,0,0,0,0,0,0,0,0,66.56,361.67,2,0,0.1,0.1,55,11.76,0.1,0.06,4.64,FLYING,CF1-F,0:/Integrated Flight Computer/aircraft/cf1_f_cfg.ks (inferred preloaded)
4.98,APPROACH,ILS_TRACK,78.82,73,-5.82,2207.38,-10.3,2.02,8.41,271.84,-1.716,0,0,0.02,1,0.6,4.5,0.75,0.35,0.0168,0.4,269.18,-4.934,0,0,-7.45,0,0,-4.94,269.17,0,0,0,0,0,13.61,386.72,33.409,-1.217,0,0,0,0,273.5,0,0,0,0,0,0,0,0,0,0,0,0,0,1,1,0,0,VALID,0,0,0,0,0,1,0,0,0,0,0,0,0,0,0,0,0,0,0,0,61.14,361.73,2,0,0.1,0.1,59,11.76,0.1,0.06,4.98,FLYING,CF1-F,0:/Integrated Flight Computer/aircraft/cf1_f_cfg.ks (inferred preloaded)
5.3,APPROACH,ILS_TRACK,78.94,73,-5.94,2204.09,-10.24,2.03,8.38,271.76,-1.85,0,0,0.019,1,0.6,4.5,0.75,0.35,0.0168,0.4,269.18,-4.925,0,0,-7.4,0,0,-4.93,269.17,0,0,0,0,0,14.46,384.97,33.379,-1.223,0,0,0,0,273.5,0,0,0,0,0,0,0,0,0,0,0,0,0,1,1,0,0,VALID,0,0,0,0,0,1,0,0,0,0,0,0,0,0,0,0,0,0,0,0,56.44,361.81,2,0,0.1,0.1,63,12.5,0.1,0.06,5.3,FLYING,CF1-F,0:/Integrated Flight Computer/aircraft/cf1_f_cfg.ks (inferred preloaded)
5.64,APPROACH,ILS_TRACK,79.04,73,-6.04,2200.61,-10.14,1.94,8.22,271.68,-1.96,0,0,0.019,1,0.6,4.5,0.75,0.35,0.0168,0.4,269.16,-4.916,0,0,-7.31,0,0,-4.92,269.17,0,0,0,0,0,15.33,383.12,33.348,-1.241,0,0,0,0,273.5,0,0,0,0,0,0,0,0,0,0,0,0,0,1,1,0,0,VALID,0,0,0,0,0,1,0,0,0,0,0,0,0,0,0,0,0,0,0,0,51.84,361.9,2,0,0.1,0.1,67,11.76,0.1,0.06,5.64,FLYING,CF1-F,0:/Integrated Flight Computer/aircraft/cf1_f_cfg.ks (inferred preloaded)
5.98,APPROACH,ILS_TRACK,79.13,73,-6.13,2197.12,-10.2,1.74,8.04,271.6,-2.024,0,0,0.019,1,0.6,4.5,0.75,0.35,0.0168,0.4,269.14,-4.906,0,0,-7.34,0,0,-4.91,269.18,0,0,0,0,0,16.17,381.26,33.317,-1.257,0,0,0,0,273.5,0,0,0,0,0,0,0,0,0,0,0,0,0,1,1,0,0,VALID,0,0,0,0,0,1,0,0,0,0,0,0,0,0,0,0,0,0,0,0,47.62,361.99,2,0,0.1,0.1,71,11.76,0.1,0.06,5.98,FLYING,CF1-F,0:/Integrated Flight Computer/aircraft/cf1_f_cfg.ks (inferred preloaded)
6.32,APPROACH,ILS_TRACK,79.19,73,-6.19,2193.68,-10.21,1.91,8.22,271.59,-1.411,0,0,0.018,1,0.6,4.5,0.75,0.35,0.0168,0.4,269.16,-4.897,0,0,-7.35,0,0,-4.9,269.14,0,0,0,0,0,16.95,379.46,33.286,-1.244,0,0,0,0,273.5,0,0,0,0,0,0,0,0,0,0,0,0,0,1,1,0,0,VALID,0,0,0,0,0,1,0,0,0,0,0,0,0,0,0,0,0,0,0,0,43.74,362.1,2,0,0.1,0.1,75,11.76,0.1,0.06,6.32,FLYING,CF1-F,0:/Integrated Flight Computer/aircraft/cf1_f_cfg.ks (inferred preloaded)
6.66,APPROACH,ILS_TRACK,79.22,73,-6.22,2190.26,-10.1,2.12,8.36,271.73,0.165,0,0,0.018,1,0.6,4.5,0.75,0.35,0.0168,0.4,269.14,-4.888,0,0,-7.28,0,0,-4.89,269.17,0,0,0,0,0,17.7,377.67,33.254,-1.259,0,0,0,0,273.5,0,0,0,0,0,0,0,0,0,0,0,0,0,1,1,0,0,VALID,0,0,0,0,0,1,0,0,0,0,0,0,0,0,0,0,0,0,0,0,40.18,362.24,2,0,0.1,0.1,79,11.76,0.1,0.06,6.66,FLYING,CF1-F,0:/Integrated Flight Computer/aircraft/cf1_f_cfg.ks (inferred preloaded)
6.92,APPROACH,ILS_TRACK,79.24,73,-6.24,2187.61,-10.04,1.93,8.13,271.88,0.878,0,0,0.018,1,0.6,4.5,0.75,0.35,0.0168,0.4,269.12,-4.881,0,0,-7.22,0,0,-4.88,269.12,0,0,0,0,0,18.27,376.28,33.23,-1.285,0,0,0,0,273.5,0,0,0,0,0,0,0,0,0,0,0,0,0,1,1,0,0,VALID,0,0,0,0,0,1,0,0,0,0,0,0,0,0,0,0,0,0,0,0,37.66,362.35,2,0,0.08,0.08,82,11.54,0.1,0.08,6.92,FLYING,CF1-F,0:/Integrated Flight Computer/aircraft/cf1_f_cfg.ks (inferred preloaded)
7.18,APPROACH,ILS_TRACK,79.25,73,-6.25,2184.96,-10.07,1.76,7.99,271.95,0.62,0,0,0.017,1,0.6,4.5,0.75,0.35,0.0168,0.4,269.09,-4.874,0,0,-7.24,0,0,-4.88,269.08,0,0,0,0,0,18.85,374.89,33.207,-1.307,0,0,0,0,273.5,0,0,0,0,0,0,0,0,0,0,0,0,0,1,1,0,0,VALID,0,0,0,0,0,1,0,0,0,0,0,0,0,0,0,0,0,0,0,0,35.29,362.46,2,0,0.1,0.1,85,11.54,0.1,0.06,7.18,FLYING,CF1-F,0:/Integrated Flight Computer/aircraft/cf1_f_cfg.ks (inferred preloaded)
7.44,APPROACH,ILS_TRACK,79.26,73,-6.26,2182.34,-10.1,1.73,7.96,271.87,-0.215,0,0,0.017,1,0.6,4.5,0.75,0.35,0.0168,0.4,269.06,-4.868,0,0,-7.26,0,0,-4.87,269.05,0,0,0,0,0,19.45,373.51,33.183,-1.343,0,0,0,0,273.5,0,0,0,0,0,0,0,0,0,0,0,0,0,1,1,0,0,VALID,0,0,0,0,0,1,0,0,0,0,0,0,0,0,0,0,0,0,0,0,33.08,362.57,2,0,0.08,0.08,88,11.54,0.1,0.08,7.44,FLYING,CF1-F,0:/Integrated Flight Computer/aircraft/cf1_f_cfg.ks (inferred preloaded)
7.7,APPROACH,ILS_TRACK,79.27,73,-6.27,2179.7,-10.12,1.7,7.96,271.76,-0.589,0,0,0.017,1,0.6,4.5,0.75,0.35,0.0168,0.4,269.03,-4.861,0,0,-7.28,0,0,-4.86,269.04,0,0,0,0,0,20.05,372.13,33.159,-1.371,0,0,0,0,273.5,0,0,0,0,0,0,0,0,0,0,0,0,0,1,1,0,0,VALID,0,0,0,0,0,1,0,0,0,0,0,0,0,0,0,0,0,0,0,0,31,362.68,2,0,0.1,0.1,91,11.54,0.1,0.06,7.7,FLYING,CF1-F,0:/Integrated Flight Computer/aircraft/cf1_f_cfg.ks (inferred preloaded)
7.96,APPROACH,ILS_TRACK,79.27,73,-6.27,2177.07,-10.15,1.71,7.98,271.73,-0.311,0,0,0.017,1,0.6,4.5,0.75,0.35,0.0168,0.4,269.01,-4.854,0,0,-7.3,0,0,-4.86,269.02,0,0,0,0,0,20.63,370.75,33.135,-1.391,0,0,0,0,273.5,0,0,0,0,0,0,0,0,0,0,0,0,0,1,1,0,0,VALID,0,0,0,0,0,1,0,0,0,0,0,0,0,0,0,0,0,0,0,0,29.05,362.8,2,0,0.08,0.08,94,11.54,0.1,0.08,7.96,FLYING,CF1-F,0:/Integrated Flight Computer/aircraft/cf1_f_cfg.ks (inferred preloaded)
8.22,APPROACH,ILS_TRACK,79.27,73,-6.27,2174.43,-10.17,1.73,8.01,271.78,0.066,0,0,0.016,1,0.6,4.5,0.75,0.35,0.0168,0.4,268.98,-4.847,0,0,-7.31,0,0,-4.85,269.01,0,0,0,0,0,21.22,369.36,33.111,-1.417,0,0,0,0,273.5,0,0,0,0,0,0,0,0,0,0,0,0,0,1,1,0,0,VALID,0,0,0,0,0,1,0,0,0,0,0,0,0,0,0,0,0,0,0,0,27.23,362.92,2,0,0.1,0.1,97,11.54,0.1,0.06,8.22,FLYING,CF1-F,0:/Integrated Flight Computer/aircraft/cf1_f_cfg.ks (inferred preloaded)
8.48,APPROACH,ILS_TRACK,79.26,73,-6.26,2171.79,-10.18,1.76,8.06,271.85,0.386,0,0,0.016,1,0.6,4.5,0.75,0.35,0.0168,0.4,268.96,-4.84,0,0,-7.32,0,0,-4.84,268.99,0,0,0,0,0,21.79,367.97,33.087,-1.436,0,0,0,0,273.5,0,0,0,0,0,0,0,0,0,0,0,0,0,1,1,0,0,VALID,0,0,0,0,0,1,0,0,0,0,0,0,0,0,0,0,0,0,0,0,25.52,363.04,2,0,0.08,0.08,100,11.54,0.1,0.08,8.48,FLYING,CF1-F,0:/Integrated Flight Computer/aircraft/cf1_f_cfg.ks (inferred preloaded)
8.74,APPROACH,ILS_TRACK,79.25,73,-6.25,2169.15,-10.19,1.79,8.09,271.91,0.671,0,0,0.016,1,0.6,4.5,0.75,0.35,0.0168,0.4,268.96,-4.833,0,0,-7.32,0,0,-4.83,268.94,0,0,0,0,0,22.37,366.58,33.063,-1.444,0,0,0,0,273.5,0,0,0,0,0,0,0,0,0,0,0,0,0,1,1,0,0,VALID,0,0,0,0,0,1,0,0,0,0,0,0,0,0,0,0,0,0,0,0,23.92,363.17,2,0,0.1,0.1,103,11.54,0.1,0.06,8.74,FLYING,CF1-F,0:/Integrated Flight Computer/aircraft/cf1_f_cfg.ks (inferred preloaded)
9,APPROACH,ILS_TRACK,79.23,73,-6.23,2166.5,-10.19,1.81,8.11,271.96,0.923,0,0,0.016,1,0.6,4.5,0.75,0.35,0.0168,0.4,268.92,-4.826,0,0,-7.33,0,0,-4.83,268.92,0,0,0,0,0,22.96,365.18,33.039,-1.476,0,0,0,0,273.5,0,0,0,0,0,0,0,0,0,0,0,0,0,1,1,0,0,VALID,0,0,0,0,0,1,0,0,0,0,0,0,0,0,0,0,0,0,0,0,22.42,363.3,2,0,0.08,0.08,106,11.54,0.1,0.08,9,FLYING,CF1-F,0:/Integrated Flight Computer/aircraft/cf1_f_cfg.ks (inferred preloaded)
9.26,APPROACH,ILS_TRACK,79.21,73,-6.21,2163.85,-10.19,1.82,8.13,272.02,1.148,0,0,0.015,1,0.6,4.5,0.75,0.35,0.0168,0.4,268.89,-4.819,0,0,-7.33,0,0,-4.82,268.91,0,0,0,0,0,23.56,363.79,33.016,-1.513,0,0,0,0,273.5,0,0,0,0,0,0,0,0,0,0,0,0,0,1,1,0,0,VALID,0,0,0,0,0,1,0,0,0,0,0,0,0,0,0,0,0,0,0,0,21.01,363.44,2,0,0.1,0.1,109,11.54,0.1,0.06,9.26,FLYING,CF1-F,0:/Integrated Flight Computer/aircraft/cf1_f_cfg.ks (inferred preloaded)
9.52,APPROACH,ILS_TRACK,79.18,73,-6.18,2161.2,-10.19,1.83,8.14,272.08,1.329,0,0,0.015,1,0.6,4.5,0.75,0.35,0.0168,0.4,268.85,-4.812,0,0,-7.33,0,0,-4.81,268.84,0,0,0,0,0,24.17,362.39,32.992,-1.548,0,0,0,0,273.5,0,0,0,0,0,0,0,0,0,0,0,0,0,1,1,0,0,VALID,0,0,0,0,0,1,0,0,0,0,0,0,0,0,0,0,0,0,0,0,19.69,363.58,2,0,0.08,0.08,112,11.54,0.1,0.08,9.52,FLYING,CF1-F,0:/Integrated Flight Computer/aircraft/cf1_f_cfg.ks (inferred preloaded)
9.78,APPROACH,ILS_TRACK,79.14,73,-6.14,2158.56,-10.18,1.82,8.14,272.1,1.076,0,0,0.015,1,0.6,4.5,0.75,0.35,0.0168,0.4,268.81,-4.805,0,0,-7.33,0,0,-4.81,268.81,0,0,0,0,0,24.79,360.99,32.968,-1.593,0,0,0,0,273.5,0,0,0,0,0,0,0,0,0,0,0,0,0,1,1,0,0,VALID,0,0,0,0,0,1,0,0,0,0,0,0,0,0,0,0,0,0,0,0,18.46,363.72,2,0,0.1,0.1,115,11.54,0.1,0.06,9.78,FLYING,CF1-F,0:/Integrated Flight Computer/aircraft/cf1_f_cfg.ks (inferred preloaded)
10.04,APPROACH,ILS_TRACK,79.09,73,-6.09,2155.91,-10.19,1.82,8.14,272.03,0.098,0,0,0.015,1,0.6,4.5,0.75,0.35,0.0168,0.4,268.76,-4.798,0,0,-7.34,0,0,-4.8,268.78,0,0,0,0,0,25.43,359.59,32.944,-1.639,0,0,0,0,273.5,0,0,0,0,0,0,0,0,0,0,0,0,0,1,1,0,0,VALID,0,0,0,0,0,1,0,0,0,0,0,0,0,0,0,0,0,0,0,0,17.3,363.88,2,0,0.08,0.08,118,11.54,0.1,0.08,10.04,FLYING,CF1-F,0:/Integrated Flight Computer/aircraft/cf1_f_cfg.ks (inferred preloaded)
10.3,APPROACH,ILS_TRACK,79.04,73,-6.04,2153.26,-10.19,1.81,8.14,271.86,-1.082,0,0,0.014,1,0.6,4.5,0.75,0.35,0.0168,0.4,268.74,-4.791,0,0,-7.35,0,0,-4.79,268.72,0,0,0,0,0,26.08,358.18,32.92,-1.655,0,0,0,0,273.5,0,0,0,0,0,0,0,0,0,0,0,0,0,1,1,0,0,VALID,0,0,0,0,0,1,0,0,0,0,0,0,0,0,0,0,0,0,0,0,16.22,364.03,2,0,0.1,0.1,121,11.54,0.1,0.06,10.3,FLYING,CF1-F,0:/Integrated Flight Computer/aircraft/cf1_f_cfg.ks (inferred preloaded)
10.56,APPROACH,ILS_TRACK,78.99,73,-5.99,2150.6,-10.2,1.8,8.14,271.71,-1.471,0,0,0.014,1,0.6,4.5,0.75,0.35,0.0168,0.4,268.72,-4.784,0,0,-7.36,0,0,-4.79,268.73,0,0,0,0,0,26.73,356.77,32.897,-1.682,0,0,0,0,273.5,0,0,0,0,0,0,0,0,0,0,0,0,0,1,1,0,0,VALID,0,0,0,0,0,1,0,0,0,0,0,0,0,0,0,0,0,0,0,0,15.2,364.18,2,0,0.08,0.08,124,11.54,0.1,0.08,10.56,FLYING,CF1-F,0:/Integrated Flight Computer/aircraft/cf1_f_cfg.ks (inferred preloaded)
10.82,APPROACH,ILS_TRACK,78.93,73,-5.93,2147.94,-10.22,1.78,8.14,271.67,-0.953,0,0,0.014,1,0.6,4.5,0.75,0.35,0.0168,0.4,268.71,-4.777,0,0,-7.38,0,0,-4.78,268.72,0,0,0,0,0,27.35,355.36,32.873,-1.689,0,0,0,0,273.5,0,0,0,0,0,0,0,0,0,0,0,0,0,1,1,0,0,VALID,0,0,0,0,0,1,0,0,0,0,0,0,0,0,0,0,0,0,0,0,14.25,364.34,2,0,0.1,0.1,127,11.54,0.1,0.06,10.82,FLYING,CF1-F,0:/Integrated Flight Computer/aircraft/cf1_f_cfg.ks (inferred preloaded)
11.08,APPROACH,ILS_TRACK,78.86,73,-5.86,2145.28,-10.24,1.77,8.14,271.79,0.263,0,0,0.014,1,0.6,4.5,0.75,0.35,0.0168,0.4,268.72,-4.77,0,0,-7.39,0,0,-4.77,268.71,0,0,0,0,0,27.94,353.94,32.849,-1.679,0,0,0,0,273.5,0,0,0,0,0,0,0,0,0,0,0,0,0,1,1,0,0,VALID,0,0,0,0,0,1,0,0,0,0,0,0,0,0,0,0,0,0,0,0,13.36,364.51,2,0,0.08,0.08,130,11.54,0.1,0.08,11.08,FLYING,CF1-F,0:/Integrated Flight Computer/aircraft/cf1_f_cfg.ks (inferred preloaded)
11.34,APPROACH,ILS_TRACK,78.81,73,-5.81,2142.61,-10.26,1.75,8.14,271.97,1.244,0,0,0.014,1,0.6,4.5,0.75,0.35,0.0168,0.4,268.69,-4.763,0,0,-7.41,0,0,-4.76,268.71,0,0,0,0,0,28.53,352.52,32.825,-1.707,0,0,0,0,273.5,0,0,0,0,0,0,0,0,0,0,0,0,0,1,1,0,0,VALID,0,0,0,0,0,1,0,0,0,0,0,0,0,0,0,0,0,0,0,0,12.52,364.66,2,0,0.1,0.1,133,11.54,0.1,0.06,11.34,FLYING,CF1-F,0:/Integrated Flight Computer/aircraft/cf1_f_cfg.ks (inferred preloaded)
11.6,APPROACH,ILS_TRACK,78.75,73,-5.75,2139.94,-10.29,1.72,8.14,272.1,1.285,0,0,0.013,1,0.6,4.5,0.75,0.35,0.0168,0.4,268.65,-4.755,0,0,-7.44,0,0,-4.76,268.65,0,0,0,0,0,29.13,351.08,32.802,-1.746,0,0,0,0,273.5,0,0,0,0,0,0,0,0,0,0,0,0,0,1,1,0,0,VALID,0,0,0,0,0,1,0,0,0,0,0,0,0,0,0,0,0,0,0,0,11.73,364.82,2,0,0.08,0.08,136,11.54,0.1,0.08,11.6,FLYING,CF1-F,0:/Integrated Flight Computer/aircraft/cf1_f_cfg.ks (inferred preloaded)
11.86,APPROACH,ILS_TRACK,78.67,73,-5.67,2137.26,-10.32,1.7,8.14,272.07,0.436,0,0,0.013,1,0.6,4.5,0.75,0.35,0.0168,0.4,268.59,-4.748,0,0,-7.47,0,0,-4.75,268.63,0,0,0,0,0,29.76,349.64,32.778,-1.807,0,0,0,0,273.5,0,0,0,0,0,0,0,0,0,0,0,0,0,1,1,0,0,VALID,0,0,0,0,0,1,0,0,0,0,0,0,0,0,0,0,0,0,0,0,11,364.99,2,0,0.1,0.1,139,11.54,0.1,0.06,11.86,FLYING,CF1-F,0:/Integrated Flight Computer/aircraft/cf1_f_cfg.ks (inferred preloaded)
12.12,APPROACH,ILS_TRACK,78.61,73,-5.61,2134.56,-10.35,1.67,8.14,271.91,-0.878,0,0,0.013,1,0.6,4.5,0.75,0.35,0.0168,0.4,268.57,-4.741,0,0,-7.5,0,0,-4.74,268.57,0,0,0,0,0,30.4,348.19,32.754,-1.825,0,0,0,0,273.5,0,0,0,0,0,0,0,0,0,0,0,0,0,1,1,0,0,VALID,0,0,0,0,0,1,0,0,0,0,0,0,0,0,0,0,0,0,0,0,10.31,365.16,2,0,0.08,0.08,142,11.54,0.1,0.08,12.12,FLYING,CF1-F,0:/Integrated Flight Computer/aircraft/cf1_f_cfg.ks (inferred preloaded)
12.38,APPROACH,ILS_TRACK,78.55,73,-5.55,2131.86,-10.39,1.64,8.14,271.72,-1.565,0,0,0.013,1,0.6,4.5,0.75,0.35,0.0168,0.4,268.55,-4.734,0,0,-7.53,0,0,-4.74,268.57,0,0,0,0,0,31.04,346.72,32.731,-1.851,0,0,0,0,273.5,0,0,0,0,0,0,0,0,0,0,0,0,0,1,1,0,0,VALID,0,0,0,0,0,1,0,0,0,0,0,0,0,0,0,0,0,0,0,0,9.66,365.32,2,0,0.1,0.1,145,11.54,0.1,0.06,12.38,FLYING,CF1-F,0:/Integrated Flight Computer/aircraft/cf1_f_cfg.ks (inferred preloaded)
12.64,APPROACH,ILS_TRACK,78.48,73,-5.48,2129.15,-10.44,1.6,8.14,271.63,-1.317,0,0,0.013,1,0.6,4.5,0.75,0.35,0.0168,0.4,268.57,-4.726,0,0,-7.57,0,0,-4.73,268.55,0,0,0,0,0,31.65,345.24,32.707,-1.828,0,0,0,0,273.5,0,0,0,0,0,0,0,0,0,0,0,0,0,1,1,0,0,VALID,0,0,0,0,0,1,0,0,0,0,0,0,0,0,0,0,0,0,0,0,9.06,365.49,2,0,0.08,0.08,148,11.54,0.1,0.08,12.64,FLYING,CF1-F,0:/Integrated Flight Computer/aircraft/cf1_f_cfg.ks (inferred preloaded)
12.9,APPROACH,ILS_TRACK,78.41,73,-5.41,2126.42,-10.49,1.57,8.14,271.7,-0.281,0,0,0.012,1,0.6,4.5,0.75,0.35,0.0168,0.4,268.55,-4.719,0,0,-7.61,0,0,-4.72,268.55,0,0,0,0,0,32.24,343.75,32.684,-1.85,0,0,0,0,273.5,0,0,0,0,0,0,0,0,0,0,0,0,0,1,1,0,0,VALID,0,0,0,0,0,1,0,0,0,0,0,0,0,0,0,0,0,0,0,0,8.49,365.66,2,0,0.1,0.1,151,11.54,0.1,0.06,12.9,FLYING,CF1-F,0:/Integrated Flight Computer/aircraft/cf1_f_cfg.ks (inferred preloaded)
13.16,APPROACH,ILS_TRACK,78.34,73,-5.34,2123.68,-10.54,1.53,8.14,271.88,0.991,0,0,0.012,1,0.6,4.5,0.75,0.35,0.0168,0.4,268.55,-4.711,0,0,-7.66,0,0,-4.71,268.54,0,0,0,0,0,32.81,342.25,32.66,-1.853,0,0,0,0,273.5,0,0,0,0,0,0,0,0,0,0,0,0,0,1,1,0,0,VALID,0,0,0,0,0,1,0,0,0,0,0,0,0,0,0,0,0,0,0,0,7.96,365.83,2,0,0.08,0.08,154,11.54,0.1,0.08,13.16,FLYING,CF1-F,0:/Integrated Flight Computer/aircraft/cf1_f_cfg.ks (inferred preloaded)
13.42,APPROACH,ILS_TRACK,78.29,73,-5.29,2120.92,-10.59,1.48,8.13,272.05,1.518,0,0,0.012,1,0.6,4.5,0.75,0.35,0.0168,0.4,268.5,-4.704,0,0,-7.7,0,0,-4.71,268.51,0,0,0,0,0,33.4,340.72,32.637,-1.902,0,0,0,0,273.5,0,0,0,0,0,0,0,0,0,0,0,0,0,1,1,0,0,VALID,0,0,0,0,0,1,0,0,0,0,0,0,0,0,0,0,0,0,0,0,7.46,365.99,2,0,0.1,0.1,157,11.54,0.1,0.06,13.42,FLYING,CF1-F,0:/Integrated Flight Computer/aircraft/cf1_f_cfg.ks (inferred preloaded)
13.68,APPROACH,ILS_TRACK,78.22,73,-5.22,2118.15,-10.66,1.43,8.13,272.12,1.219,0,0,0.012,1,0.6,4.5,0.75,0.35,0.0168,0.4,268.45,-4.696,0,0,-7.75,0,0,-4.7,268.47,0,0,0,0,0,34,339.19,32.613,-1.948,0,0,0,0,273.5,0,0,0,0,0,0,0,0,0,0,0,0,0,1,1,0,0,VALID,0,0,0,0,0,1,0,0,0,0,0,0,0,0,0,0,0,0,0,0,6.99,366.16,2,0,0.08,0.08,160,11.54,0.1,0.08,13.68,FLYING,CF1-F,0:/Integrated Flight Computer/aircraft/cf1_f_cfg.ks (inferred preloaded)
13.94,APPROACH,ILS_TRACK,78.16,73,-5.16,2115.36,-10.72,1.39,8.13,272.06,0.529,0,0,0.012,1,0.6,4.5,0.75,0.35,0.0168,0.4,268.41,-4.688,0,0,-7.81,0,0,-4.69,268.44,0,0,0,0,0,34.62,337.63,32.59,-1.986,0,0,0,0,273.5,0,0,0,0,0,0,0,0,0,0,0,0,0,1,1,0,0,VALID,0,0,0,0,0,1,0,0,0,0,0,0,0,0,0,0,0,0,0,0,6.55,366.32,2,0,0.1,0.1,163,11.54,0.1,0.06,13.94,FLYING,CF1-F,0:/Integrated Flight Computer/aircraft/cf1_f_cfg.ks (inferred preloaded)
14.2,APPROACH,ILS_TRACK,78.11,73,-5.11,2112.56,-10.79,1.34,8.13,272,0.44,0,0,0.012,1,0.6,4.5,0.75,0.35,0.0168,0.4,268.37,-4.68,0,0,-7.86,0,0,-4.68,268.41,0,0,0,0,0,35.25,336.05,32.566,-2.026,0,0,0,0,273.5,0,0,0,0,0,0,0,0,0,0,0,0,0,1,1,0,0,VALID,0,0,0,0,0,1,0,0,0,0,0,0,0,0,0,0,0,0,0,0,6.14,366.49,2,0,0.08,0.08,166,11.54,0.1,0.08,14.2,FLYING,CF1-F,0:/Integrated Flight Computer/aircraft/cf1_f_cfg.ks (inferred preloaded)
14.46,APPROACH,ILS_TRACK,78.05,73,-5.05,2109.73,-10.87,1.29,8.13,272.04,0.777,0,0,0.011,1,0.6,4.5,0.75,0.35,0.0168,0.4,268.36,-4.672,0,0,-7.92,0,0,-4.67,268.38,0,0,0,0,0,35.88,334.45,32.543,-2.043,0,0,0,0,273.5,0,0,0,0,0,0,0,0,0,0,0,0,0,1,1,0,0,VALID,0,0,0,0,0,1,0,0,0,0,0,0,0,0,0,0,0,0,0,0,5.76,366.65,2,0,0.1,0.1,169,11.54,0.1,0.06,14.46,FLYING,CF1-F,0:/Integrated Flight Computer/aircraft/cf1_f_cfg.ks (inferred preloaded)
14.72,APPROACH,ILS_TRACK,78,73,-5,2106.89,-10.94,1.23,8.13,272.12,1.093,0,0,0.011,1,0.6,4.5,0.75,0.35,0.0168,0.4,268.32,-4.664,0,0,-7.98,0,0,-4.67,268.34,0,0,0,0,0,36.52,332.84,32.519,-2.08,0,0,0,0,273.5,0,0,0,0,0,0,0,0,0,0,0,0,0,1,1,0,0,VALID,0,0,0,0,0,1,0,0,0,0,0,0,0,0,0,0,0,0,0,0,5.4,366.81,2,0,0.08,0.08,172,11.54,0.1,0.08,14.72,FLYING,CF1-F,0:/Integrated Flight Computer/aircraft/cf1_f_cfg.ks (inferred preloaded)
14.98,APPROACH,ILS_TRACK,77.96,73,-4.96,2104.02,-11.02,1.18,8.14,272.2,1.376,0,0,0.011,1,0.6,4.5,0.75,0.35,0.0168,0.4,268.29,-4.656,0,0,-8.04,0,0,-4.66,268.3,0,0,0,0,0,37.16,331.2,32.496,-2.11,0,0,0,0,273.5,0,0,0,0,0,0,0,0,0,0,0,0,0,1,1,0,0,VALID,0,0,0,0,0,1,0,0,0,0,0,0,0,0,0,0,0,0,0,0,5.06,366.97,2,0,0.1,0.1,175,11.54,0.1,0.06,14.98,FLYING,CF1-F,0:/Integrated Flight Computer/aircraft/cf1_f_cfg.ks (inferred preloaded)
15.24,APPROACH,ILS_TRACK,77.91,73,-4.91,2101.13,-11.11,1.12,8.14,272.28,1.631,0,0,0.011,1,0.6,4.5,0.75,0.35,0.0168,0.4,268.24,-4.648,0,0,-8.11,0,0,-4.65,268.26,0,0,0,0,0,37.82,329.53,32.473,-2.156,0,0,0,0,273.5,0,0,0,0,0,0,0,0,0,0,0,0,0,1,1,0,0,VALID,0,0,0,0,0,1,0,0,0,0,0,0,0,0,0,0,0,0,0,0,4.74,367.13,2,0,0.08,0.08,178,11.54,0.1,0.08,15.24,FLYING,CF1-F,0:/Integrated Flight Computer/aircraft/cf1_f_cfg.ks (inferred preloaded)
15.5,APPROACH,ILS_TRACK,77.87,73,-4.87,2098.22,-11.2,1.06,8.14,272.36,1.862,0,0,0.011,1,0.6,4.5,0.75,0.35,0.0168,0.4,268.2,-4.639,0,0,-8.18,0,0,-4.64,268.25,0,0,0,0,0,38.49,327.85,32.449,-2.2,0,0,0,0,273.5,0,0,0,0,0,0,0,0,0,0,0,0,0,1,1,0,0,VALID,0,0,0,0,0,1,0,0,0,0,0,0,0,0,0,0,0,0,0,0,4.44,367.3,2,0,0.1,0.1,181,11.54,0.1,0.06,15.5,FLYING,CF1-F,0:/Integrated Flight Computer/aircraft/cf1_f_cfg.ks (inferred preloaded)
15.76,APPROACH,ILS_TRACK,77.83,73,-4.83,2095.29,-11.28,1,8.14,272.44,2.075,0,0,0.011,1,0.6,4.5,0.75,0.35,0.0168,0.4,268.15,-4.631,0,0,-8.25,0,0,-4.63,268.17,0,0,0,0,0,39.19,326.14,32.426,-2.247,0,0,0,0,273.5,0,0,0,0,0,0,0,0,0,0,0,0,0,1,1,0,0,VALID,0,0,0,0,0,1,0,0,0,0,0,0,0,0,0,0,0,0,0,0,4.17,367.46,2,0,0.08,0.08,184,11.54,0.1,0.08,15.76,FLYING,CF1-F,0:/Integrated Flight Computer/aircraft/cf1_f_cfg.ks (inferred preloaded)
16.02,APPROACH,ILS_TRACK,77.78,73,-4.78,2092.33,-11.38,0.93,8.14,272.52,2.272,0,0,0.01,1,0.6,4.5,0.75,0.35,0.0168,0.4,268.11,-4.622,0,0,-8.32,0,0,-4.62,268.11,0,0,0,0,0,39.91,324.4,32.403,-2.289,0,0,0,0,273.5,0,0,0,0,0,0,0,0,0,0,0,0,0,1,1,0,0,VALID,0,0,0,0,0,1,0,0,0,0,0,0,0,0,0,0,0,0,0,0,3.91,367.62,2,0,0.1,0.1,187,11.54,0.1,0.06,16.02,FLYING,CF1-F,0:/Integrated Flight Computer/aircraft/cf1_f_cfg.ks (inferred preloaded)
16.28,APPROACH,ILS_TRACK,77.75,73,-4.75,2089.35,-11.47,0.87,8.14,272.61,2.456,0,0,0.01,1,0.6,4.5,0.75,0.35,0.0168,0.4,268.04,-4.613,0,0,-8.39,0,0,-4.62,268.09,0,0,0,0,0,40.64,322.64,32.38,-2.359,0,0,0,0,273.5,0,0,0,0,0,0,0,0,0,0,0,0,0,1,1,0,0,VALID,0,0,0,0,0,1,0,0,0,0,0,0,0,0,0,0,0,0,0,0,3.66,367.78,2,0,0.08,0.08,190,11.54,0.1,0.08,16.28,FLYING,CF1-F,0:/Integrated Flight Computer/aircraft/cf1_f_cfg.ks (inferred preloaded)
16.54,APPROACH,ILS_TRACK,77.71,73,-4.71,2086.34,-11.57,0.8,8.14,272.69,2.459,0,0,0.01,1,0.6,4.5,0.75,0.35,0.0168,0.4,267.99,-4.604,0,0,-8.46,0,0,-4.61,268.05,0,0,0,0,0,41.41,320.85,32.356,-2.413,0,0,0,0,273.5,0,0,0,0,0,0,0,0,0,0,0,0,0,1,1,0,0,VALID,0,0,0,0,0,1,0,0,0,0,0,0,0,0,0,0,0,0,0,0,3.43,367.94,2,0,0.1,0.1,193,11.54,0.1,0.06,16.54,FLYING,CF1-F,0:/Integrated Flight Computer/aircraft/cf1_f_cfg.ks (inferred preloaded)
16.8,APPROACH,ILS_TRACK,77.67,73,-4.67,2083.31,-11.67,0.73,8.14,272.69,1.833,0,0,0.01,1,0.6,4.5,0.75,0.35,0.0168,0.4,267.94,-4.595,0,0,-8.54,0,0,-4.6,267.96,0,0,0,0,0,42.2,319.04,32.333,-2.462,0,0,0,0,273.5,0,0,0,0,0,0,0,0,0,0,0,0,0,1,1,0,0,VALID,0,0,0,0,0,1,0,0,0,0,0,0,0,0,0,0,0,0,0,0,3.22,368.11,2,0,0.08,0.08,196,11.54,0.1,0.08,16.8,FLYING,CF1-F,0:/Integrated Flight Computer/aircraft/cf1_f_cfg.ks (inferred preloaded)
17.06,APPROACH,ILS_TRACK,77.63,73,-4.63,2080.25,-11.77,0.67,8.14,272.62,0.987,0,0,0.01,1,0.6,4.5,0.75,0.35,0.0168,0.4,267.88,-4.586,0,0,-8.61,0,0,-4.59,267.91,0,0,0,0,0,43.03,317.2,32.31,-2.521,0,0,0,0,273.5,0,0,0,0,0,0,0,0,0,0,0,0,0,1,1,0,0,VALID,0,0,0,0,0,1,0,0,0,0,0,0,0,0,0,0,0,0,0,0,3.01,368.27,2,0,0.1,0.1,199,11.54,0.1,0.06,17.06,FLYING,CF1-F,0:/Integrated Flight Computer/aircraft/cf1_f_cfg.ks (inferred preloaded)
17.32,APPROACH,ILS_TRACK,77.59,73,-4.59,2077.16,-11.87,0.6,8.14,272.57,0.846,0,0,0.01,1,0.6,4.5,0.75,0.35,0.0168,0.4,267.84,-4.577,0,0,-8.69,0,0,-4.58,267.86,0,0,0,0,0,43.86,315.33,32.287,-2.558,0,0,0,0,273.5,0,0,0,0,0,0,0,0,0,0,0,0,0,1,1,0,0,VALID,0,0,0,0,0,1,0,0,0,0,0,0,0,0,0,0,0,0,0,0,2.83,368.44,2,0,0.08,0.08,202,11.54,0.1,0.08,17.32,FLYING,CF1-F,0:/Integrated Flight Computer/aircraft/cf1_f_cfg.ks (inferred preloaded)
17.58,APPROACH,ILS_TRACK,77.55,73,-4.55,2074.05,-11.97,0.53,8.14,272.63,1.436,0,0,0.009,1,0.6,4.5,0.75,0.35,0.0168,0.4,267.81,-4.567,0,0,-8.77,0,0,-4.57,267.82,0,0,0,0,0,44.69,313.43,32.263,-2.592,0,0,0,0,273.5,0,0,0,0,0,0,0,0,0,0,0,0,0,1,1,0,0,VALID,0,0,0,0,0,1,0,0,0,0,0,0,0,0,0,0,0,0,0,0,2.65,368.61,2,0,0.1,0.1,205,11.54,0.1,0.06,17.58,FLYING,CF1-F,0:/Integrated Flight Computer/aircraft/cf1_f_cfg.ks (inferred preloaded)
17.84,APPROACH,ILS_TRACK,77.53,73,-4.53,2070.91,-12.08,0.45,8.14,272.76,1.878,0,0,0.009,1,0.6,4.5,0.75,0.35,0.0168,0.4,267.75,-4.558,0,0,-8.85,0,0,-4.56,267.79,0,0,0,0,0,45.53,311.51,32.24,-2.647,0,0,0,0,273.5,0,0,0,0,0,0,0,0,0,0,0,0,0,1,1,0,0,VALID,0,0,0,0,0,1,0,0,0,0,0,0,0,0,0,0,0,0,0,0,2.48,368.77,2,0,0.08,0.08,208,11.54,0.1,0.08,17.84,FLYING,CF1-F,0:/Integrated Flight Computer/aircraft/cf1_f_cfg.ks (inferred preloaded)
18.1,APPROACH,ILS_TRACK,77.5,73,-4.5,2067.74,-12.19,0.38,8.14,272.87,2.188,0,0,0.009,1,0.6,4.5,0.75,0.35,0.0168,0.4,267.71,-4.548,0,0,-8.93,0,0,-4.55,267.72,0,0,0,0,0,46.39,309.55,32.217,-2.688,0,0,0,0,273.5,0,0,0,0,0,0,0,0,0,0,0,0,0,1,1,0,0,VALID,0,0,0,0,0,1,0,0,0,0,0,0,0,0,0,0,0,0,0,0,2.33,368.92,2,0,0.1,0.1,211,11.54,0.1,0.06,18.1,FLYING,CF1-F,0:/Integrated Flight Computer/aircraft/cf1_f_cfg.ks (inferred preloaded)
18.36,APPROACH,ILS_TRACK,77.49,73,-4.49,2064.54,-12.3,0.3,8.14,272.98,2.478,0,0,0.009,1,0.6,4.5,0.75,0.35,0.0168,0.4,267.64,-4.538,0,0,-9.01,0,0,-4.54,267.67,0,0,0,0,0,47.28,307.57,32.194,-2.756,0,0,0,0,273.5,0,0,0,0,0,0,0,0,0,0,0,0,0,1,1,0,0,VALID,0,0,0,0,0,1,0,0,0,0,0,0,0,0,0,0,0,0,0,0,2.18,369.08,2,0,0.08,0.08,214,11.54,0.1,0.08,18.36,FLYING,CF1-F,0:/Integrated Flight Computer/aircraft/cf1_f_cfg.ks (inferred preloaded)
18.62,APPROACH,ILS_TRACK,77.47,73,-4.47,2061.31,-12.41,0.22,8.14,273.09,2.745,0,0,0.009,1,0.6,4.5,0.75,0.35,0.0168,0.4,267.58,-4.528,0,0,-9.1,0,0,-4.53,267.61,0,0,0,0,0,48.19,305.55,32.171,-2.818,0,0,0,0,273.5,0,0,0,0,0,0,0,0,0,0,0,0,0,1,1,0,0,VALID,0,0,0,0,0,1,0,0,0,0,0,0,0,0,0,0,0,0,0,0,2.04,369.24,2,0,0.1,0.1,217,11.54,0.1,0.06,18.62,FLYING,CF1-F,0:/Integrated Flight Computer/aircraft/cf1_f_cfg.ks (inferred preloaded)
18.88,APPROACH,ILS_TRACK,77.46,73,-4.46,2058.06,-12.53,0.15,8.14,273.2,2.985,0,0,0.009,1,0.6,4.5,0.75,0.35,0.0168,0.4,267.52,-4.518,0,0,-9.18,0,0,-4.52,267.54,0,0,0,0,0,49.13,303.51,32.148,-2.88,0,0,0,0,273.5,0,0,0,0,0,0,0,0,0,0,0,0,0,1,1,0,0,VALID,0,0,0,0,0,1,0,0,0,0,0,0,0,0,0,0,0,0,0,0,1.92,369.4,2,0,0.08,0.08,220,11.54,0.1,0.08,18.88,FLYING,CF1-F,0:/Integrated Flight Computer/aircraft/cf1_f_cfg.ks (inferred preloaded)
19.14,APPROACH,ILS_TRACK,77.44,73,-4.44,2054.77,-12.64,0.07,8.14,273.29,2.884,0,0,0.009,1,0.6,4.5,0.75,0.35,0.0168,0.4,267.46,-4.507,0,0,-9.27,0,0,-4.51,267.47,0,0,0,0,0,50.1,301.44,32.125,-2.936,0,0,0,0,273.5,0,0,0,0,0,0,0,0,0,0,0,0,0,1,1,0,0,VALID,0,0,0,0,0,1,0,0,0,0,0,0,0,0,0,0,0,0,0,0,1.8,369.56,2,0,0.1,0.1,223,11.54,0.1,0.06,19.14,FLYING,CF1-F,0:/Integrated Flight Computer/aircraft/cf1_f_cfg.ks (inferred preloaded)
19.4,APPROACH,ILS_TRACK,77.42,73,-4.42,2051.45,-12.76,0,8.14,273.28,2.1,0,0,0.009,1,0.6,4.5,0.75,0.35,0.0168,0.4,267.37,-4.497,0,0,-9.35,0,0,-4.5,267.4,0,0,0,0,0,51.11,299.33,32.102,-3.027,0,0,0,0,273.5,0,0,0,0,0,0,0,0,0,0,0,0,0,1,1,0,0,VALID,0,0,0,0,0,1,0,0,0,0,0,0,0,0,0,0,0,0,0,0,1.68,369.73,2,0,0.08,0.08,226,11.54,0.1,0.08,19.4,FLYING,CF1-F,0:/Integrated Flight Computer/aircraft/cf1_f_cfg.ks (inferred preloaded)
19.66,APPROACH,ILS_TRACK,77.41,73,-4.41,2048.11,-12.87,-0.08,8.14,273.21,1.278,0,0,0.008,1,0.6,4.5,0.75,0.35,0.0168,0.4,267.31,-4.486,0,0,-9.44,0,0,-4.49,267.33,0,0,0,0,0,52.15,297.19,32.079,-3.093,0,0,0,0,273.5,0,0,0,0,0,0,0,0,0,0,0,0,0,1,1,0,0,VALID,0,0,0,0,0,1,0,0,0,0,0,0,0,0,0,0,0,0,0,0,1.58,369.89,2,0,0.1,0.1,229,11.54,0.1,0.06,19.66,FLYING,CF1-F,0:/Integrated Flight Computer/aircraft/cf1_f_cfg.ks (inferred preloaded)
19.92,APPROACH,ILS_TRACK,77.4,73,-4.4,2044.73,-12.98,-0.15,8.14,273.17,1.228,0,0,0.008,1,0.6,4.5,0.75,0.35,0.0168,0.4,267.26,-4.475,0,0,-9.52,0,0,-4.48,267.27,0,0,0,0,0,53.2,295.03,32.056,-3.137,0,0,0,0,273.5,0,0,0,0,0,0,0,0,0,0,0,0,0,1,1,0,0,VALID,0,0,0,0,0,1,0,0,0,0,0,0,0,0,0,0,0,0,0,0,1.48,370.05,2,0,0.08,0.08,232,11.54,0.1,0.08,19.92,FLYING,CF1-F,0:/Integrated Flight Computer/aircraft/cf1_f_cfg.ks (inferred preloaded)
20.18,APPROACH,ILS_TRACK,77.38,73,-4.38,2041.33,-13.1,-0.23,8.14,273.26,1.983,0,0,0.008,1,0.6,4.5,0.75,0.35,0.0168,0.4,267.22,-4.464,0,0,-9.6,0,0,-4.47,267.23,0,0,0,0,0,54.25,292.83,32.033,-3.183,0,0,0,0,273.5,0,0,0,0,0,0,0,0,0,0,0,0,0,1,1,0,0,VALID,0,0,0,0,0,1,0,0,0,0,0,0,0,0,0,0,0,0,0,0,1.39,370.21,2,0,0.1,0.1,235,11.54,0.1,0.06,20.18,FLYING,CF1-F,0:/Integrated Flight Computer/aircraft/cf1_f_cfg.ks (inferred preloaded)
20.44,APPROACH,ILS_TRACK,77.37,73,-4.37,2037.89,-13.21,-0.31,8.14,273.47,3.179,0,0,0.008,1,0.6,4.5,0.75,0.35,0.0168,0.4,267.15,-4.453,0,0,-9.69,0,0,-4.46,267.18,0,0,0,0,0,55.31,290.61,32.01,-3.248,0,0,0,0,273.5,0,0,0,0,0,0,0,0,0,0,0,0,0,1,1,0,0,VALID,0,0,0,0,0,1,0,0,0,0,0,0,0,0,0,0,0,0,0,0,1.3,370.38,2,0,0.08,0.08,238,11.54,0.1,0.08,20.44,FLYING,CF1-F,0:/Integrated Flight Computer/aircraft/cf1_f_cfg.ks (inferred preloaded)
20.7,APPROACH,ILS_TRACK,77.37,73,-4.37,2034.42,-13.33,-0.4,8.14,273.7,3.757,0,0,0.008,1,0.6,4.5,0.75,0.35,0.0168,0.4,267.08,-4.442,0,0,-9.77,0,0,-4.45,267.11,0,0,0,0,0,56.41,288.35,31.987,-3.319,0,0,0,0,273.5,0,0,0,0,0,0,0,0,0,0,0,0,0,1,1,0,0,VALID,0,0,0,0,0,1,0,0,0,0,0,0,0,0,0,0,0,0,0,0,1.22,370.54,2,0,0.1,0.1,241,11.54,0.1,0.06,20.7,FLYING,CF1-F,0:/Integrated Flight Computer/aircraft/cf1_f_cfg.ks (inferred preloaded)
20.96,APPROACH,ILS_TRACK,77.37,73,-4.37,2030.93,-13.46,-0.48,8.14,273.83,3.418,0,0,0.008,1,0.6,4.5,0.75,0.35,0.0168,0.4,266.99,-4.43,0,0,-9.86,0,0,-4.43,267.02,0,0,0,0,0,57.55,286.05,31.964,-3.414,0,0,0,0,273.5,0,0,0,0,0,0,0,0,0,0,0,0,0,1,1,0,0,VALID,0,0,0,0,0,1,0,0,0,0,0,0,0,0,0,0,0,0,0,0,1.14,370.7,2,0,0.08,0.08,244,11.54,0.1,0.08,20.96,FLYING,CF1-F,0:/Integrated Flight Computer/aircraft/cf1_f_cfg.ks (inferred preloaded)
21.22,APPROACH,ILS_TRACK,77.36,73,-4.36,2027.4,-13.58,-0.54,8.15,273.81,2.302,0,0,0.008,1,0.6,4.5,0.75,0.35,0.0168,0.4,266.91,-4.419,0,0,-9.95,0,0,-4.42,266.91,0,0,0,0,0,58.74,283.73,31.941,-3.491,0,0,0,0,273.5,0,0,0,0,0,0,0,0,0,0,0,0,0,1,1,0,0,VALID,0,0,0,0,0,1,0,0,0,0,0,0,0,0,0,0,0,0,0,0,1.07,370.87,2,0,0.1,0.1,247,11.54,0.1,0.06,21.22,FLYING,CF1-F,0:/Integrated Flight Computer/aircraft/cf1_f_cfg.ks (inferred preloaded)
21.48,APPROACH,ILS_TRACK,77.37,73,-4.37,2023.84,-13.69,-0.61,8.15,273.67,0.911,0,0,0.008,1,0.6,4.5,0.75,0.35,0.0168,0.4,266.84,-4.407,0,0,-10.03,0,0,-4.41,266.83,0,0,0,0,0,59.96,281.38,31.918,-3.565,0,0,0,0,273.5,0,0,0,0,0,0,0,0,0,0,0,0,0,1,1,0,0,VALID,0,0,0,0,0,1,0,0,0,0,0,0,0,0,0,0,0,0,0,0,1,371.03,2,0,0.08,0.08,250,11.54,0.1,0.08,21.48,FLYING,CF1-F,0:/Integrated Flight Computer/aircraft/cf1_f_cfg.ks (inferred preloaded)
21.74,APPROACH,ILS_TRACK,77.38,73,-4.38,2020.25,-13.8,-0.68,8.14,273.54,0.272,0,0,0.007,1,0.6,4.5,0.75,0.35,0.0168,0.4,266.77,-4.395,0,0,-10.11,0,0,-4.4,266.79,0,0,0,0,0,61.19,279,31.895,-3.634,0,0,0,0,273.5,0,0,0,0,0,0,0,0,0,0,0,0,0,1,1,0,0,VALID,0,0,0,0,0,1,0,0,0,0,0,0,0,0,0,0,0,0,0,0,0.94,371.19,2,0,0.1,0.1,253,11.54,0.1,0.06,21.74,FLYING,CF1-F,0:/Integrated Flight Computer/aircraft/cf1_f_cfg.ks (inferred preloaded)
22,APPROACH,ILS_TRACK,77.38,73,-4.38,2016.63,-13.92,-0.76,8.14,273.5,0.567,0,0,0.007,1,0.6,4.5,0.75,0.35,0.0168,0.4,266.7,-4.383,0,0,-10.19,0,0,-4.39,266.74,0,0,0,0,0,62.43,276.59,31.872,-3.696,0,0,0,0,273.5,0,0,0,0,0,0,0,0,0,0,0,0,0,1,1,0,0,VALID,0,0,0,0,0,1,0,0,0,0,0,0,0,0,0,0,0,0,0,0,0.88,371.35,2,0,0.08,0.08,256,11.54,0.1,0.08,22,FLYING,CF1-F,0:/Integrated Flight Computer/aircraft/cf1_f_cfg.ks (inferred preloaded)
22.26,APPROACH,ILS_TRACK,77.39,73,-4.39,2012.99,-14.03,-0.83,8.15,273.63,1.621,0,0,0.007,1,0.6,4.5,0.75,0.35,0.0168,0.4,266.69,-4.371,0,0,-10.27,0,0,-4.37,266.69,0,0,0,0,0,63.65,274.14,31.849,-3.714,0,0,0,0,273.5,0,0,0,0,0,0,0,0,0,0,0,0,0,1,1,0,0,VALID,0,0,0,0,0,1,0,0,0,0,0,0,0,0,0,0,0,0,0,0,0.83,371.52,2,0,0.1,0.1,259,11.54,0.1,0.06,22.26,FLYING,CF1-F,0:/Integrated Flight Computer/aircraft/cf1_f_cfg.ks (inferred preloaded)
22.52,APPROACH,ILS_TRACK,77.39,73,-4.39,2009.31,-14.14,-0.91,8.14,273.87,3.165,0,0,0.007,1,0.6,4.5,0.75,0.35,0.0168,0.4,266.6,-4.358,0,0,-10.35,0,0,-4.36,266.63,0,0,0,0,0,64.89,271.67,31.826,-3.8,0,0,0,0,273.5,0,0,0,0,0,0,0,0,0,0,0,0,0,1,1,0,0,VALID,0,0,0,0,0,1,0,0,0,0,0,0,0,0,0,0,0,0,0,0,0.77,371.68,2,0,0.08,0.08,262,11.54,0.1,0.08,22.52,FLYING,CF1-F,0:/Integrated Flight Computer/aircraft/cf1_f_cfg.ks (inferred preloaded)
22.78,APPROACH,ILS_TRACK,77.42,73,-4.42,2005.6,-14.26,-1.01,8.14,274.16,4.222,0,0,0.007,1,0.6,4.5,0.75,0.35,0.0168,0.4,266.54,-4.346,0,0,-10.43,0,0,-4.35,266.55,0,0,0,0,0,66.14,269.17,31.803,-3.859,0,0,0,0,273.5,0,0,0,0,0,0,0,0,0,0,0,0,0,1,1,0,0,VALID,0,0,0,0,0,1,0,0,0,0,0,0,0,0,0,0,0,0,0,0,0.73,371.84,2,0,0.1,0.1,265,11.54,0.1,0.06,22.78,FLYING,CF1-F,0:/Integrated Flight Computer/aircraft/cf1_f_cfg.ks (inferred preloaded)
23.04,APPROACH,ILS_TRACK,77.44,73,-4.44,2001.86,-14.38,-1.09,8.13,274.37,4.286,0,0,0.007,1,0.6,4.5,0.75,0.35,0.0168,0.4,266.43,-4.333,0,0,-10.51,0,0,-4.34,266.46,0,0,0,0,0,67.45,266.63,31.78,-3.967,0,0,0,0,273.5,0,0,0,0,0,0,0,0,0,0,0,0,0,1,1,0,0,VALID,0,0,0,0,0,1,0,0,0,0,0,0,0,0,0,0,0,0,0,0,0.68,372,2,0,0.08,0.08,268,11.54,0.1,0.08,23.04,FLYING,CF1-F,0:/Integrated Flight Computer/aircraft/cf1_f_cfg.ks (inferred preloaded)
23.3,APPROACH,ILS_TRACK,77.45,73,-4.45,1998.1,-14.5,-1.16,8.14,274.43,3.469,0,0,0.007,1,0.6,4.5,0.75,0.35,0.0168,0.4,266.32,-4.32,0,0,-10.6,0,0,-4.32,266.37,0,0,0,0,0,68.82,264.07,31.757,-4.079,0,0,0,0,273.5,0,0,0,0,0,0,0,0,0,0,0,0,0,1,1,0,0,VALID,0,0,0,0,0,1,0,0,0,0,0,0,0,0,0,0,0,0,0,0,0.64,372.16,2,0,0.1,0.1,271,11.54,0.1,0.06,23.3,FLYING,CF1-F,0:/Integrated Flight Computer/aircraft/cf1_f_cfg.ks (inferred preloaded)
23.56,APPROACH,ILS_TRACK,77.47,73,-4.47,1994.3,-14.61,-1.21,8.15,274.35,1.985,0,0,0.007,1,0.6,4.5,0.75,0.35,0.0168,0.4,266.23,-4.307,0,0,-10.68,0,0,-4.31,266.24,0,0,0,0,0,70.23,261.47,31.734,-4.169,0,0,0,0,273.5,0,0,0,0,0,0,0,0,0,0,0,0,0,1,1,0,0,VALID,0,0,0,0,0,1,0,0,0,0,0,0,0,0,0,0,0,0,0,0,0.6,372.33,2,0,0.08,0.08,274,11.54,0.1,0.08,23.56,FLYING,CF1-F,0:/Integrated Flight Computer/aircraft/cf1_f_cfg.ks (inferred preloaded)
23.82,APPROACH,ILS_TRACK,77.5,73,-4.5,1990.48,-14.72,-1.27,8.15,274.18,0.47,0,0,0.007,1,0.6,4.5,0.75,0.35,0.0168,0.4,266.14,-4.294,0,0,-10.75,0,0,-4.3,266.18,0,0,0,0,0,71.67,258.85,31.711,-4.257,0,0,0,0,273.5,0,0,0,0,0,0,0,0,0,0,0,0,0,1,1,0,0,VALID,0,0,0,0,0,1,0,0,0,0,0,0,0,0,0,0,0,0,0,0,0.56,372.48,2,0,0.1,0.1,277,11.54,0.1,0.06,23.82,FLYING,CF1-F,0:/Integrated Flight Computer/aircraft/cf1_f_cfg.ks (inferred preloaded)
24.08,APPROACH,ILS_TRACK,77.53,73,-4.53,1986.62,-14.82,-1.34,8.14,274.02,-0.147,0,0,0.007,1,0.6,4.5,0.75,0.35,0.0168,0.4,266.09,-4.281,0,0,-10.82,0,0,-4.28,266.1,0,0,0,0,0,73.12,256.2,31.688,-4.307,0,0,0,0,273.5,0,0,0,0,0,0,0,0,0,0,0,0,0,1,1,0,0,VALID,0,0,0,0,0,1,0,0,0,0,0,0,0,0,0,0,0,0,0,0,0.53,372.64,2,0,0.08,0.08,280,11.54,0.1,0.08,24.08,FLYING,CF1-F,0:/Integrated Flight Computer/aircraft/cf1_f_cfg.ks (inferred preloaded)
24.34,APPROACH,ILS_TRACK,77.56,73,-4.56,1982.74,-14.92,-1.41,8.14,273.98,0.197,0,0,0.006,1,0.6,4.5,0.75,0.35,0.0168,0.4,266.04,-4.268,0,0,-10.89,0,0,-4.27,266.05,0,0,0,0,0,74.56,253.52,31.666,-4.363,0,0,0,0,273.5,0,0,0,0,0,0,0,0,0,0,0,0,0,1,1,0,0,VALID,0,0,0,0,0,1,0,0,0,0,0,0,0,0,0,0,0,0,0,0,0.49,372.8,2,0,0.1,0.1,283,11.54,0.1,0.06,24.34,FLYING,CF1-F,0:/Integrated Flight Computer/aircraft/cf1_f_cfg.ks (inferred preloaded)
24.6,APPROACH,ILS_TRACK,77.59,73,-4.59,1978.84,-15.02,-1.47,8.15,274.09,1.296,0,0,0.006,1,0.6,4.5,0.75,0.35,0.0168,0.4,266,-4.254,0,0,-10.95,0,0,-4.26,266,0,0,0,0,0,76,250.82,31.643,-4.403,0,0,0,0,273.5,0,0,0,0,0,0,0,0,0,0,0,0,0,1,1,0,0,VALID,0,0,0,0,0,1,0,0,0,0,0,0,0,0,0,0,0,0,0,0,0.46,372.96,2,0,0.08,0.08,286,11.54,0.1,0.08,24.6,FLYING,CF1-F,0:/Integrated Flight Computer/aircraft/cf1_f_cfg.ks (inferred preloaded)
24.86,APPROACH,ILS_TRACK,77.61,73,-4.61,1974.91,-15.12,-1.54,8.15,274.34,2.954,0,0,0.006,1,0.6,4.5,0.75,0.35,0.0168,0.4,265.93,-4.24,0,0,-11.02,0,0,-4.24,265.93,0,0,0,0,0,77.43,248.09,31.62,-4.474,0,0,0,0,273.5,0,0,0,0,0,0,0,0,0,0,0,0,0,1,1,0,0,VALID,0,0,0,0,0,1,0,0,0,0,0,0,0,0,0,0,0,0,0,0,0.43,373.13,2,0,0.1,0.1,289,11.54,0.1,0.06,24.86,FLYING,CF1-F,0:/Integrated Flight Computer/aircraft/cf1_f_cfg.ks (inferred preloaded)
25.12,APPROACH,ILS_TRACK,77.65,73,-4.65,1970.95,-15.22,-1.62,8.14,274.66,4.561,0,0,0.006,1,0.6,4.5,0.75,0.35,0.0168,0.4,265.82,-4.227,0,0,-11.09,0,0,-4.23,265.87,0,0,0,0,0,78.9,245.33,31.597,-4.579,0,0,0,0,273.5,0,0,0,0,0,0,0,0,0,0,0,0,0,1,1,0,0,VALID,0,0,0,0,0,1,0,0,0,0,0,0,0,0,0,0,0,0,0,0,0.41,373.29,2,0,0.08,0.08,292,11.54,0.1,0.08,25.12,FLYING,CF1-F,0:/Integrated Flight Computer/aircraft/cf1_f_cfg.ks (inferred preloaded)
25.38,APPROACH,ILS_TRACK,77.7,73,-4.7,1966.96,-15.33,-1.71,8.13,274.97,5.205,0,0,0.006,1,0.6,4.5,0.75,0.35,0.0168,0.4,265.73,-4.213,0,0,-11.16,0,0,-4.22,265.75,0,0,0,0,0,80.4,242.55,31.574,-4.674,0,0,0,0,273.5,0,0,0,0,0,0,0,0,0,0,0,0,0,1,1,0,0,VALID,0,0,0,0,0,1,0,0,0,0,0,0,0,0,0,0,0,0,0,0,0.38,373.44,2,0,0.1,0.1,295,11.54,0.1,0.06,25.38,FLYING,CF1-F,0:/Integrated Flight Computer/aircraft/cf1_f_cfg.ks (inferred preloaded)
25.64,APPROACH,ILS_TRACK,77.74,73,-4.74,1962.95,-15.44,-1.78,8.13,275.15,4.84,0,0,0.006,1,0.6,4.5,0.75,0.35,0.0168,0.4,265.6,-4.199,0,0,-11.23,0,0,-4.2,265.63,0,0,0,0,0,81.98,239.73,31.551,-4.802,0,0,0,0,273.5,0,0,0,0,0,0,0,0,0,0,0,0,0,1,1,0,0,VALID,0,0,0,0,0,1,0,0,0,0,0,0,0,0,0,0,0,0,0,0,0.36,373.6,2,0,0.08,0.08,298,11.54,0.1,0.08,25.64,FLYING,CF1-F,0:/Integrated Flight Computer/aircraft/cf1_f_cfg.ks (inferred preloaded)
25.9,APPROACH,ILS_TRACK,77.78,73,-4.78,1958.91,-15.54,-1.82,8.14,275.17,3.687,0,0,0.006,1,0.6,4.5,0.75,0.35,0.0168,0.4,265.48,-4.184,0,0,-11.3,0,0,-4.19,265.49,0,0,0,0,0,83.61,236.9,31.528,-4.917,0,0,0,0,273.5,0,0,0,0,0,0,0,0,0,0,0,0,0,1,1,0,0,VALID,0,0,0,0,0,1,0,0,0,0,0,0,0,0,0,0,0,0,0,0,0.33,373.77,2,0,0.1,0.1,301,11.54,0.1,0.06,25.9,FLYING,CF1-F,0:/Integrated Flight Computer/aircraft/cf1_f_cfg.ks (inferred preloaded)
26.16,APPROACH,ILS_TRACK,77.81,73,-4.81,1954.85,-15.63,-1.85,8.15,275.05,1.952,0,0,0.006,1,0.6,4.5,0.75,0.35,0.0168,0.4,265.35,-4.17,0,0,-11.36,0,0,-4.17,265.38,0,0,0,0,0,85.3,234.04,31.505,-5.045,0,0,0,0,273.5,0,0,0,0,0,0,0,0,0,0,0,0,0,1,1,0,0,VALID,0,0,0,0,0,1,0,0,0,0,0,0,0,0,0,0,0,0,0,0,0.31,373.93,2,0,0.08,0.08,304,11.54,0.1,0.08,26.16,FLYING,CF1-F,0:/Integrated Flight Computer/aircraft/cf1_f_cfg.ks (inferred preloaded)
26.42,APPROACH,ILS_TRACK,77.86,73,-4.86,1950.76,-15.72,-1.9,8.15,274.83,0.063,0,0,0.006,1,0.6,4.5,0.75,0.35,0.0168,0.4,265.26,-4.156,0,0,-11.41,0,0,-4.16,265.29,0,0,0,0,0,87.02,231.16,31.482,-5.142,0,0,0,0,273.5,0,0,0,0,0,0,0,0,0,0,0,0,0,1,1,0,0,VALID,0,0,0,0,0,1,0,0,0,0,0,0,0,0,0,0,0,0,0,0,0.29,374.09,2,0,0.1,0.1,307,11.54,0.1,0.06,26.42,FLYING,CF1-F,0:/Integrated Flight Computer/aircraft/cf1_f_cfg.ks (inferred preloaded)
26.68,APPROACH,ILS_TRACK,77.92,73,-4.92,1946.66,-15.8,-1.96,8.14,274.61,-0.963,0,0,0.006,1,0.6,4.5,0.75,0.35,0.0168,0.4,265.19,-4.141,0,0,-11.46,0,0,-4.15,265.2,0,0,0,0,0,88.75,228.25,31.46,-5.208,0,0,0,0,273.5,0,0,0,0,0,0,0,0,0,0,0,0,0,1,1,0,0,VALID,0,0,0,0,0,1,0,0,0,0,0,0,0,0,0,0,0,0,0,0,0.27,374.24,2,0,0.08,0.08,310,11.54,0.1,0.08,26.68,FLYING,CF1-F,0:/Integrated Flight Computer/aircraft/cf1_f_cfg.ks (inferred preloaded)
26.94,APPROACH,ILS_TRACK,77.97,73,-4.97,1942.53,-15.88,-2.01,8.13,274.48,-0.935,0,0,0.006,1,0.6,4.5,0.75,0.35,0.0168,0.4,265.15,-4.127,0,0,-11.51,0,0,-4.13,265.16,0,0,0,0,0,90.45,225.32,31.437,-5.253,0,0,0,0,273.5,0,0,0,0,0,0,0,0,0,0,0,0,0,1,1,0,0,VALID,0,0,0,0,0,1,0,0,0,0,0,0,0,0,0,0,0,0,0,0,0.26,374.4,2,0,0.1,0.1,313,11.54,0.1,0.06,26.94,FLYING,CF1-F,0:/Integrated Flight Computer/aircraft/cf1_f_cfg.ks (inferred preloaded)
27.2,APPROACH,ILS_TRACK,78.01,73,-5.01,1938.38,-15.96,-2.05,8.14,274.52,-0.06,0,0,0.005,1,0.6,4.5,0.75,0.35,0.0168,0.4,265.09,-4.112,0,0,-11.56,0,0,-4.12,265.11,0,0,0,0,0,92.14,222.38,31.414,-5.307,0,0,0,0,273.5,0,0,0,0,0,0,0,0,0,0,0,0,0,1,1,0,0,VALID,0,0,0,0,0,1,0,0,0,0,0,0,0,0,0,0,0,0,0,0,0.24,374.57,2,0,0.08,0.08,316,11.54,0.1,0.08,27.2,FLYING,CF1-F,0:/Integrated Flight Computer/aircraft/cf1_f_cfg.ks (inferred preloaded)
27.46,APPROACH,ILS_TRACK,78.06,73,-5.06,1934.21,-16.03,-2.09,8.14,274.7,1.439,0,0,0.005,1,0.6,4.5,0.75,0.35,0.0168,0.4,265.03,-4.097,0,0,-11.6,0,0,-4.1,265.05,0,0,0,0,0,93.82,219.41,31.391,-5.367,0,0,0,0,273.5,0,0,0,0,0,0,0,0,0,0,0,0,0,1,1,0,0,VALID,0,0,0,0,0,1,0,0,0,0,0,0,0,0,0,0,0,0,0,0,0.23,374.73,2,0,0.1,0.1,319,11.54,0.1,0.06,27.46,FLYING,CF1-F,0:/Integrated Flight Computer/aircraft/cf1_f_cfg.ks (inferred preloaded)
27.72,APPROACH,ILS_TRACK,78.1,73,-5.1,1930.03,-16.1,-2.15,8.14,275,3.372,0,0,0.005,1,0.6,4.5,0.75,0.35,0.0168,0.4,264.94,-4.082,0,0,-11.64,0,0,-4.09,264.99,0,0,0,0,0,95.51,216.43,31.368,-5.458,0,0,0,0,273.5,0,0,0,0,0,0,0,0,0,0,0,0,0,1,1,0,0,VALID,0,0,0,0,0,1,0,0,0,0,0,0,0,0,0,0,0,0,0,0,0.21,374.9,2,0,0.08,0.08,322,11.54,0.1,0.08,27.72,FLYING,CF1-F,0:/Integrated Flight Computer/aircraft/cf1_f_cfg.ks (inferred preloaded)
27.98,APPROACH,ILS_TRACK,78.16,73,-5.16,1925.82,-16.17,-2.22,8.12,275.36,4.994,0,0,0.005,1,0.6,4.5,0.75,0.35,0.0168,0.4,264.84,-4.067,0,0,-11.69,0,0,-4.07,264.89,0,0,0,0,0,97.22,213.42,31.345,-5.56,0,0,0,0,273.5,0,0,0,0,0,0,0,0,0,0,0,0,0,1,1,0,0,VALID,0,0,0,0,0,1,0,0,0,0,0,0,0,0,0,0,0,0,0,0,0.2,375.05,2,0,0.1,0.1,325,11.54,0.1,0.06,27.98,FLYING,CF1-F,0:/Integrated Flight Computer/aircraft/cf1_f_cfg.ks (inferred preloaded)
28.24,APPROACH,ILS_TRACK,78.23,73,-5.23,1921.59,-16.26,-2.28,8.12,275.67,5.546,0,0,0.005,1,0.6,4.5,0.75,0.35,0.0168,0.4,264.68,-4.052,0,0,-11.73,0,0,-4.06,264.78,0,0,0,0,0,98.99,210.4,31.322,-5.718,0,0,0,0,273.5,0,0,0,0,0,0,0,0,0,0,0,0,0,1,1,0,0,VALID,0,0,0,0,0,1,0,0,0,0,0,0,0,0,0,0,0,0,0,0,0.19,375.21,2,0,0.08,0.08,328,11.54,0.1,0.08,28.24,FLYING,CF1-F,0:/Integrated Flight Computer/aircraft/cf1_f_cfg.ks (inferred preloaded)
28.5,APPROACH,ILS_TRACK,78.28,73,-5.28,1917.35,-16.34,-2.33,8.12,275.86,5.08,0,0,0.005,1,0.6,4.5,0.75,0.35,0.0168,0.4,264.58,-4.037,0,0,-11.78,0,0,-4.04,264.64,0,0,0,0,0,100.82,207.36,31.299,-5.82,0,0,0,0,273.5,0,0,0,0,0,0,0,0,0,0,0,0,0,1,1,0,0,VALID,0,0,0,0,0,1,0,0,0,0,0,0,0,0,0,0,0,0,0,0,0.17,375.37,2,0,0.1,0.1,331,11.54,0.1,0.06,28.5,FLYING,CF1-F,0:/Integrated Flight Computer/aircraft/cf1_f_cfg.ks (inferred preloaded)
28.76,APPROACH,ILS_TRACK,78.34,73,-5.34,1913.09,-16.41,-2.34,8.14,275.86,3.842,0,0,0.005,1,0.6,4.5,0.75,0.35,0.0168,0.4,264.43,-4.021,0,0,-11.83,0,0,-4.03,264.48,0,0,0,0,0,102.73,204.3,31.276,-5.968,0,0,0,0,273.5,0,0,0,0,0,0,0,0,0,0,0,0,0,1,1,0,0,VALID,0,0,0,0,0,1,0,0,0,0,0,0,0,0,0,0,0,0,0,0,0.16,375.54,2,0,0.08,0.08,334,11.54,0.1,0.08,28.76,FLYING,CF1-F,0:/Integrated Flight Computer/aircraft/cf1_f_cfg.ks (inferred preloaded)
29.02,APPROACH,ILS_TRACK,78.39,73,-5.39,1908.81,-16.46,-2.35,8.14,275.74,2.039,0,0,0.005,1,0.6,4.5,0.75,0.35,0.0168,0.4,264.3,-4.006,0,0,-11.86,0,0,-4.01,264.37,0,0,0,0,0,104.69,201.23,31.253,-6.096,0,0,0,0,273.5,0,0,0,0,0,0,0,0,0,0,0,0,0,1,1,0,0,VALID,0,0,0,0,0,1,0,0,0,0,0,0,0,0,0,0,0,0,0,0,0.15,375.7,2,0,0.1,0.1,337,11.54,0.1,0.06,29.02,FLYING,CF1-F,0:/Integrated Flight Computer/aircraft/cf1_f_cfg.ks (inferred preloaded)
29.28,APPROACH,ILS_TRACK,78.44,73,-5.44,1904.52,-16.51,-2.37,8.14,275.51,-0.001,0,0,0.005,1,0.6,4.5,0.75,0.35,0.0168,0.4,264.21,-3.991,0,0,-11.89,0,0,-3.99,264.24,0,0,0,0,0,106.69,198.14,31.23,-6.192,0,0,0,0,273.5,0,0,0,0,0,0,0,0,0,0,0,0,0,1,1,0,0,VALID,0,0,0,0,0,1,0,0,0,0,0,0,0,0,0,0,0,0,0,0,0.14,375.87,2,0,0.08,0.08,340,11.54,0.1,0.08,29.28,FLYING,CF1-F,0:/Integrated Flight Computer/aircraft/cf1_f_cfg.ks (inferred preloaded)
29.54,APPROACH,ILS_TRACK,78.52,73,-5.52,1900.21,-16.56,-2.41,8.13,275.26,-1.253,0,0,0.005,1,0.6,4.5,0.75,0.35,0.0168,0.4,264.13,-3.975,0,0,-11.91,0,0,-3.98,264.17,0,0,0,0,0,108.68,195.04,31.207,-6.27,0,0,0,0,273.5,0,0,0,0,0,0,0,0,0,0,0,0,0,1,1,0,0,VALID,0,0,0,0,0,1,0,0,0,0,0,0,0,0,0,0,0,0,0,0,0.13,376.02,2,0,0.1,0.1,343,11.54,0.1,0.06,29.54,FLYING,CF1-F,0:/Integrated Flight Computer/aircraft/cf1_f_cfg.ks (inferred preloaded)
29.8,APPROACH,ILS_TRACK,78.58,73,-5.58,1895.89,-16.61,-2.44,8.12,275.09,-1.406,0,0,0.005,1,0.6,4.5,0.75,0.35,0.0168,0.4,264.08,-3.96,0,0,-11.93,0,0,-3.96,264.09,0,0,0,0,0,110.67,191.92,31.184,-6.322,0,0,0,0,273.5,0,0,0,0,0,0,0,0,0,0,0,0,0,1,1,0,0,VALID,0,0,0,0,0,1,0,0,0,0,0,0,0,0,0,0,0,0,0,0,0.13,376.18,2,0,0.08,0.08,346,11.54,0.1,0.08,29.8,FLYING,CF1-F,0:/Integrated Flight Computer/aircraft/cf1_f_cfg.ks (inferred preloaded)
30.06,APPROACH,ILS_TRACK,78.64,73,-5.64,1891.57,-16.65,-2.46,8.13,275.09,-0.654,0,0,0.005,1,0.6,4.5,0.75,0.35,0.0168,0.4,264.01,-3.944,0,0,-11.95,0,0,-3.95,264.04,0,0,0,0,0,112.63,188.8,31.161,-6.385,0,0,0,0,273.5,0,0,0,0,0,0,0,0,0,0,0,0,0,1,1,0,0,VALID,0,0,0,0,0,1,0,0,0,0,0,0,0,0,0,0,0,0,0,0,0.12,376.35,2,0,0.1,0.1,349,11.54,0.1,0.06,30.06,FLYING,CF1-F,0:/Integrated Flight Computer/aircraft/cf1_f_cfg.ks (inferred preloaded)
30.32,APPROACH,ILS_TRACK,78.69,73,-5.69,1887.23,-16.68,-2.47,8.13,275.24,0.763,0,0,0.005,1,0.6,4.5,0.75,0.35,0.0168,0.4,263.94,-3.928,0,0,-11.97,0,0,-3.93,263.97,0,0,0,0,0,114.58,185.67,31.138,-6.461,0,0,0,0,273.5,0,0,0,0,0,0,0,0,0,0,0,0,0,1,1,0,0,VALID,0,0,0,0,0,1,0,0,0,0,0,0,0,0,0,0,0,0,0,0,0.11,376.52,2,0,0.08,0.08,352,11.54,0.1,0.08,30.32,FLYING,CF1-F,0:/Integrated Flight Computer/aircraft/cf1_f_cfg.ks (inferred preloaded)
30.58,APPROACH,ILS_TRACK,78.75,73,-5.75,1882.88,-16.72,-2.49,8.13,275.51,2.658,0,0,0.004,1,0.6,4.5,0.75,0.35,0.0168,0.4,263.87,-3.913,0,0,-11.98,0,0,-3.92,263.91,0,0,0,0,0,116.52,182.53,31.115,-6.531,0,0,0,0,273.5,0,0,0,0,0,0,0,0,0,0,0,0,0,1,1,0,0,VALID,0,0,0,0,0,1,0,0,0,0,0,0,0,0,0,0,0,0,0,0,0.1,376.69,2,0,0.1,0.1,355,11.54,0.1,0.06,30.58,FLYING,CF1-F,0:/Integrated Flight Computer/aircraft/cf1_f_cfg.ks (inferred preloaded)
30.84,APPROACH,ILS_TRACK,78.82,73,-5.82,1878.53,-16.75,-2.54,8.11,275.86,4.412,0,0,0.004,1,0.6,4.5,0.75,0.35,0.0168,0.4,263.76,-3.897,0,0,-12,0,0,-3.9,263.79,0,0,0,0,0,118.48,179.38,31.092,-6.641,0,0,0,0,273.5,0,0,0,0,0,0,0,0,0,0,0,0,0,1,1,0,0,VALID,0,0,0,0,0,1,0,0,0,0,0,0,0,0,0,0,0,0,0,0,0.1,376.85,2,0,0.08,0.08,358,11.54,0.1,0.08,30.84,FLYING,CF1-F,0:/Integrated Flight Computer/aircraft/cf1_f_cfg.ks (inferred preloaded)
31.1,APPROACH,ILS_TRACK,78.89,73,-5.89,1874.16,-16.79,-2.58,8.1,276.18,5.126,0,0,0.004,1,0.6,4.5,0.75,0.35,0.0168,0.4,263.62,-3.881,0,0,-12.01,0,0,-3.89,263.67,0,0,0,0,0,120.49,176.22,31.069,-6.782,0,0,0,0,273.5,0,0,0,0,0,0,0,0,0,0,0,0,0,1,1,0,0,VALID,0,0,0,0,0,1,0,0,0,0,0,0,0,0,0,0,0,0,0,0,0.09,377,2,0,0.1,0.1,361,11.54,0.1,0.06,31.1,FLYING,CF1-F,0:/Integrated Flight Computer/aircraft/cf1_f_cfg.ks (inferred preloaded)
31.36,APPROACH,ILS_TRACK,78.95,73,-5.95,1869.79,-16.83,-2.59,8.11,276.37,4.78,0,0,0.004,1,0.6,4.5,0.75,0.35,0.0168,0.4,263.47,-3.865,0,0,-12.03,0,0,-3.87,263.53,0,0,0,0,0,122.57,173.05,31.046,-6.927,0,0,0,0,273.5,0,0,0,0,0,0,0,0,0,0,0,0,0,1,1,0,0,VALID,0,0,0,0,0,1,0,0,0,0,0,0,0,0,0,0,0,0,0,0,0.09,377.17,2,0,0.08,0.08,364,11.54,0.1,0.08,31.36,FLYING,CF1-F,0:/Integrated Flight Computer/aircraft/cf1_f_cfg.ks (inferred preloaded)
31.62,APPROACH,ILS_TRACK,79.01,73,-6.01,1865.41,-16.86,-2.59,8.12,276.39,3.619,0,0,0.004,1,0.6,4.5,0.75,0.35,0.0168,0.4,263.33,-3.849,0,0,-12.05,0,0,-3.85,263.38,0,0,0,0,0,124.71,169.88,31.023,-7.067,0,0,0,0,273.5,0,0,0,0,0,0,0,0,0,0,0,0,0,1,1,0,0,VALID,0,0,0,0,0,1,0,0,0,0,0,0,0,0,0,0,0,0,0,0,0.08,377.34,2,0,0.1,0.1,367,11.54,0.1,0.06,31.62,FLYING,CF1-F,0:/Integrated Flight Computer/aircraft/cf1_f_cfg.ks (inferred preloaded)
31.88,APPROACH,ILS_TRACK,79.06,73,-6.06,1861.02,-16.88,-2.57,8.13,276.27,1.861,0,0,0.004,1,0.6,4.5,0.75,0.35,0.0168,0.4,263.19,-3.834,0,0,-12.05,0,0,-3.84,263.24,0,0,0,0,0,126.91,166.7,31,-7.207,0,0,0,0,273.5,0,0,0,0,0,0,0,0,0,0,0,0,0,1,1,0,0,VALID,0,0,0,0,0,1,0,0,0,0,0,0,0,0,0,0,0,0,0,0,0.08,377.51,2,0,0.08,0.08,370,11.54,0.1,0.08,31.88,FLYING,CF1-F,0:/Integrated Flight Computer/aircraft/cf1_f_cfg.ks (inferred preloaded)
32.14,APPROACH,ILS_TRACK,79.12,73,-6.12,1856.63,-16.89,-2.57,8.13,276.04,-0.154,0,0,0.004,1,0.6,4.5,0.75,0.35,0.0168,0.4,263.07,-3.818,0,0,-12.05,0,0,-3.82,263.14,0,0,0,0,0,129.14,163.52,30.977,-7.329,0,0,0,0,273.5,0,0,0,0,0,0,0,0,0,0,0,0,0,1,1,0,0,VALID,0,0,0,0,0,1,0,0,0,0,0,0,0,0,0,0,0,0,0,0,0.07,377.68,2,0,0.1,0.1,373,11.54,0.1,0.06,32.14,FLYING,CF1-F,0:/Integrated Flight Computer/aircraft/cf1_f_cfg.ks (inferred preloaded)
32.4,APPROACH,ILS_TRACK,79.2,73,-6.2,1852.24,-16.89,-2.58,8.12,275.79,-1.382,0,0,0.004,1,0.6,4.5,0.75,0.35,0.0168,0.4,262.99,-3.802,0,0,-12.04,0,0,-3.81,263.04,0,0,0,0,0,131.37,160.33,30.954,-7.411,0,0,0,0,273.5,0,0,0,0,0,0,0,0,0,0,0,0,0,1,1,0,0,VALID,0,0,0,0,0,1,0,0,0,0,0,0,0,0,0,0,0,0,0,0,0.07,377.84,2,0,0.08,0.08,376,11.54,0.1,0.08,32.4,FLYING,CF1-F,0:/Integrated Flight Computer/aircraft/cf1_f_cfg.ks (inferred preloaded)
32.66,APPROACH,ILS_TRACK,79.26,73,-6.26,1847.85,-16.9,-2.58,8.11,275.62,-1.507,0,0,0.004,1,0.6,4.5,0.75,0.35,0.0168,0.4,262.93,-3.786,0,0,-12.04,0,0,-3.79,262.96,0,0,0,0,0,133.58,157.15,30.931,-7.465,0,0,0,0,273.5,0,0,0,0,0,0,0,0,0,0,0,0,0,1,1,0,0,VALID,0,0,0,0,0,1,0,0,0,0,0,0,0,0,0,0,0,0,0,0,0.06,378,2,0,0.1,0.1,379,11.54,0.1,0.06,32.66,FLYING,CF1-F,0:/Integrated Flight Computer/aircraft/cf1_f_cfg.ks (inferred preloaded)
32.92,APPROACH,ILS_TRACK,79.32,73,-6.32,1843.45,-16.9,-2.58,8.11,275.62,-0.723,0,0,0.004,1,0.6,4.5,0.75,0.35,0.0168,0.4,262.87,-3.77,0,0,-12.03,0,0,-3.77,262.9,0,0,0,0,0,135.77,153.96,30.908,-7.53,0,0,0,0,273.5,0,0,0,0,0,0,0,0,0,0,0,0,0,1,1,0,0,VALID,0,0,0,0,0,1,0,0,0,0,0,0,0,0,0,0,0,0,0,0,0.06,378.18,2,0,0.08,0.08,382,11.54,0.1,0.08,32.92,FLYING,CF1-F,0:/Integrated Flight Computer/aircraft/cf1_f_cfg.ks (inferred preloaded)
33.18,APPROACH,ILS_TRACK,79.37,73,-6.37,1839.06,-16.9,-2.56,8.12,275.78,0.727,0,0,0.004,1,0.6,4.5,0.75,0.35,0.0168,0.4,262.8,-3.754,0,0,-12.02,0,0,-3.76,262.83,0,0,0,0,0,137.95,150.78,30.885,-7.6,0,0,0,0,273.5,0,0,0,0,0,0,0,0,0,0,0,0,0,1,1,0,0,VALID,0,0,0,0,0,1,0,0,0,0,0,0,0,0,0,0,0,0,0,0,0.05,378.35,2,0,0.1,0.1,385,11.54,0.1,0.06,33.18,FLYING,CF1-F,0:/Integrated Flight Computer/aircraft/cf1_f_cfg.ks (inferred preloaded)
33.44,APPROACH,ILS_TRACK,79.42,73,-6.42,1834.67,-16.89,-2.56,8.11,276.05,2.632,0,0,0.004,1,0.6,4.5,0.75,0.35,0.0168,0.4,262.72,-3.738,0,0,-12.01,0,0,-3.74,262.73,0,0,0,0,0,140.11,147.6,30.862,-7.68,0,0,0,0,273.5,0,0,0,0,0,0,0,0,0,0,0,0,0,1,1,0,0,VALID,0,0,0,0,0,1,0,0,0,0,0,0,0,0,0,0,0,0,0,0,0.05,378.52,2,0,0.08,0.08,388,11.54,0.1,0.08,33.44,FLYING,CF1-F,0:/Integrated Flight Computer/aircraft/cf1_f_cfg.ks (inferred preloaded)
33.7,APPROACH,ILS_TRACK,79.49,73,-6.49,1830.28,-16.88,-2.58,8.1,276.39,4.146,0,0,0.004,1,0.6,4.5,0.75,0.35,0.0168,0.4,262.59,-3.722,0,0,-11.99,0,0,-3.73,262.63,0,0,0,0,0,142.31,144.42,30.839,-7.812,0,0,0,0,273.5,0,0,0,0,0,0,0,0,0,0,0,0,0,1,1,0,0,VALID,0,0,0,0,0,1,0,0,0,0,0,0,0,0,0,0,0,0,0,0,0.05,378.69,2,0,0.1,0.1,391,11.54,0.1,0.06,33.7,FLYING,CF1-F,0:/Integrated Flight Computer/aircraft/cf1_f_cfg.ks (inferred preloaded)
33.96,APPROACH,ILS_TRACK,79.56,73,-6.56,1825.88,-16.88,-2.6,8.09,276.66,4.56,0,0,0.004,1,0.6,4.5,0.75,0.35,0.0168,0.4,262.46,-3.706,0,0,-11.98,0,0,-3.71,262.48,0,0,0,0,0,144.55,141.24,30.816,-7.945,0,0,0,0,273.5,0,0,0,0,0,0,0,0,0,0,0,0,0,1,1,0,0,VALID,0,0,0,0,0,1,0,0,0,0,0,0,0,0,0,0,0,0,0,0,0.04,378.85,2,0,0.08,0.08,394,11.54,0.1,0.08,33.96,FLYING,CF1-F,0:/Integrated Flight Computer/aircraft/cf1_f_cfg.ks (inferred preloaded)
34.22,APPROACH,ILS_TRACK,79.61,73,-6.61,1821.49,-16.88,-2.6,8.07,276.79,3.962,0,0,0.004,1,0.6,4.5,0.75,0.35,0.0168,0.4,262.3,-3.69,0,0,-11.97,0,0,-3.7,262.34,0,0,0,0,0,146.85,138.06,30.793,-8.098,0,0,0,0,273.5,0,0,0,0,0,0,0,0,0,0,0,0,0,1,1,0,0,VALID,0,0,0,0,0,1,0,0,0,0,0,0,0,0,0,0,0,0,0,0,0.04,379.02,2,0,0.1,0.1,397,11.54,0.1,0.06,34.22,FLYING,CF1-F,0:/Integrated Flight Computer/aircraft/cf1_f_cfg.ks (inferred preloaded)
34.48,APPROACH,ILS_TRACK,79.67,73,-6.67,1817.11,-16.88,-2.59,8.07,276.75,2.605,0,0,0.004,1,0.6,4.5,0.75,0.35,0.0168,0.4,262.14,-3.674,0,0,-11.96,0,0,-3.68,262.18,0,0,0,0,0,149.22,134.88,30.769,-8.259,0,0,0,0,273.5,0,0,0,0,0,0,0,0,0,0,0,0,0,1,1,0,0,VALID,0,0,0,0,0,1,0,0,0,0,0,0,0,0,0,0,0,0,0,0,0.04,379.2,2,0,0.08,0.08,400,11.54,0.1,0.08,34.48,FLYING,CF1-F,0:/Integrated Flight Computer/aircraft/cf1_f_cfg.ks (inferred preloaded)
34.74,APPROACH,ILS_TRACK,79.72,73,-6.72,1812.72,-16.86,-2.58,8.05,276.57,0.736,0,0,0.004,1,0.6,4.5,0.75,0.35,0.0168,0.4,262.02,-3.659,0,0,-11.95,0,0,-3.66,262.05,0,0,0,0,0,151.62,131.71,30.746,-8.375,0,0,0,0,273.5,0,0,0,0,0,0,0,0,0,0,0,0,0,1,1,0,0,VALID,0,0,0,0,0,1,0,0,0,0,0,0,0,0,0,0,0,0,0,0,0,379.37,2,0,0.1,0.1,403,11.54,0.1,0.06,34.74,FLYING,CF1-F,0:/Integrated Flight Computer/aircraft/cf1_f_cfg.ks (inferred preloaded)
35,APPROACH,ILS_TRACK,79.79,73,-6.79,1808.34,-16.85,-2.58,8.04,276.35,-0.711,0,0,0.003,1,0.6,4.5,0.75,0.35,0.0168,0.4,261.91,-3.643,0,0,-11.93,0,0,-3.65,261.94,0,0,0,0,0,154.04,128.54,30.723,-8.488,0,0,0,0,273.5,0,0,0,0,0,0,0,0,0,0,0,0,0,1,1,0,0,VALID,0,0,0,0,0,1,0,0,0,0,0,0,0,0,0,0,0,0,0,0,0,379.54,2,0,0.08,0.08,406,11.54,0.1,0.08,35,FLYING,CF1-F,0:/Integrated Flight Computer/aircraft/cf1_f_cfg.ks (inferred preloaded)
35.26,APPROACH,ILS_TRACK,79.85,73,-6.85,1803.96,-16.84,-2.58,8.03,276.17,-1.083,0,0,0.003,1,0.6,4.5,0.75,0.35,0.0168,0.4,261.83,-3.627,0,0,-11.91,0,0,-3.63,261.87,0,0,0,0,0,156.45,125.38,30.7,-8.572,0,0,0,0,273.5,0,0,0,0,0,0,0,0,0,0,0,0,0,1,1,0,0,VALID,0,0,0,0,0,1,0,0,0,0,0,0,0,0,0,0,0,0,0,0,0,379.71,2,0,0.1,0.1,409,11.54,0.1,0.06,35.26,FLYING,CF1-F,0:/Integrated Flight Computer/aircraft/cf1_f_cfg.ks (inferred preloaded)
35.52,APPROACH,ILS_TRACK,79.9,73,-6.9,1799.59,-16.82,-2.57,8.02,276.14,-0.482,0,0,0.003,1,0.6,4.5,0.75,0.35,0.0168,0.4,261.75,-3.611,0,0,-11.89,0,0,-3.62,261.77,0,0,0,0,0,158.84,122.22,30.677,-8.646,0,0,0,0,273.5,0,0,0,0,0,0,0,0,0,0,0,0,0,1,1,0,0,VALID,0,0,0,0,0,1,0,0,0,0,0,0,0,0,0,0,0,0,0,0,0,379.88,2,0,0.08,0.08,412,11.54,0.1,0.08,35.52,FLYING,CF1-F,0:/Integrated Flight Computer/aircraft/cf1_f_cfg.ks (inferred preloaded)
35.78,APPROACH,ILS_TRACK,79.95,73,-6.95,1795.22,-16.8,-2.56,8.01,276.29,0.845,0,0,0.003,1,0.6,4.5,0.75,0.35,0.0168,0.4,261.68,-3.595,0,0,-11.87,0,0,-3.6,261.69,0,0,0,0,0,161.22,119.06,30.654,-8.723,0,0,0,0,273.5,0,0,0,0,0,0,0,0,0,0,0,0,0,1,1,0,0,VALID,0,0,0,0,0,1,0,0,0,0,0,0,0,0,0,0,0,0,0,0,0,380.06,2,0,0.1,0.1,415,11.54,0.1,0.06,35.78,FLYING,CF1-F,0:/Integrated Flight Computer/aircraft/cf1_f_cfg.ks (inferred preloaded)
36.04,APPROACH,ILS_TRACK,80,73,-7,1790.86,-16.78,-2.55,8.01,276.55,2.695,0,0,0.003,1,0.6,4.5,0.75,0.35,0.0168,0.4,261.58,-3.58,0,0,-11.85,0,0,-3.58,261.6,0,0,0,0,0,163.6,115.91,30.631,-8.821,0,0,0,0,273.5,0,0,0,0,0,0,0,0,0,0,0,0,0,1,1,0,0,VALID,0,0,0,0,0,1,0,0,0,0,0,0,0,0,0,0,0,0,0,0,0,380.23,2,0,0.08,0.08,418,11.54,0.1,0.08,36.04,FLYING,CF1-F,0:/Integrated Flight Computer/aircraft/cf1_f_cfg.ks (inferred preloaded)
36.3,APPROACH,ILS_TRACK,80.06,73,-7.06,1786.5,-16.76,-2.55,8,276.89,4.423,0,0,0.003,1,0.6,4.5,0.75,0.35,0.0168,0.4,261.46,-3.564,0,0,-11.82,0,0,-3.57,261.47,0,0,0,0,0,166,112.77,30.607,-8.944,0,0,0,0,273.5,0,0,0,0,0,0,0,0,0,0,0,0,0,1,1,0,0,VALID,0,0,0,0,0,1,0,0,0,0,0,0,0,0,0,0,0,0,0,0,0,380.4,2,0,0.1,0.1,421,11.54,0.1,0.06,36.3,FLYING,CF1-F,0:/Integrated Flight Computer/aircraft/cf1_f_cfg.ks (inferred preloaded)
36.56,APPROACH,ILS_TRACK,80.12,73,-7.12,1782.14,-16.74,-2.55,8,277.2,5.099,0,0,0.003,1,0.6,4.5,0.75,0.35,0.0168,0.4,261.28,-3.548,0,0,-11.8,0,0,-3.55,261.34,0,0,0,0,0,168.45,109.63,30.584,-9.12,0,0,0,0,273.5,0,0,0,0,0,0,0,0,0,0,0,0,0,1,1,0,0,VALID,0,0,0,0,0,1,0,0,0,0,0,0,0,0,0,0,0,0,0,0,0,380.57,2,0,0.08,0.08,424,11.54,0.1,0.08,36.56,FLYING,CF1-F,0:/Integrated Flight Computer/aircraft/cf1_f_cfg.ks (inferred preloaded)
36.82,APPROACH,ILS_TRACK,80.17,73,-7.17,1777.79,-16.73,-2.54,8,277.39,4.7,0,0,0.003,1,0.6,4.5,0.75,0.35,0.0168,0.4,261.12,-3.532,0,0,-11.79,0,0,-3.54,261.19,0,0,0,0,0,170.97,106.5,30.561,-9.285,0,0,0,0,273.5,0,0,0,0,0,0,0,0,0,0,0,0,0,1,1,0,0,VALID,0,0,0,0,0,1,0,0,0,0,0,0,0,0,0,0,0,0,0,0,0,380.75,2,0,0.1,0.1,427,11.54,0.1,0.06,36.82,FLYING,CF1-F,0:/Integrated Flight Computer/aircraft/cf1_f_cfg.ks (inferred preloaded)
37.08,APPROACH,ILS_TRACK,80.22,73,-7.22,1773.45,-16.7,-2.52,7.99,277.4,3.479,0,0,0.003,1,0.6,4.5,0.75,0.35,0.0168,0.4,260.96,-3.517,0,0,-11.76,0,0,-3.52,261,0,0,0,0,0,173.55,103.37,30.538,-9.441,0,0,0,0,273.5,0,0,0,0,0,0,0,0,0,0,0,0,0,1,1,0,0,VALID,0,0,0,0,0,1,0,0,0,0,0,0,0,0,0,0,0,0,0,0,0,380.92,2,0,0.08,0.08,430,11.54,0.1,0.08,37.08,FLYING,CF1-F,0:/Integrated Flight Computer/aircraft/cf1_f_cfg.ks (inferred preloaded)
