t_s,phase,subphase,ias_ms,vapp_ms,spd_err_ms,agl_m,vs_ms,pitch_deg,aoa_deg,hdg_deg,bank_deg,thr_cmd,thr_cur,thr_intg,at_gain,at_tau_s,at_a_up,at_a_dn,at_kp_thr,at_ki_spd,at_thr_slew,as_cmd_deg,as_cap_deg,as_raw_deg,as_spd_err_ms,as_active,aa_hdg_cmd_deg,aa_fpa_cmd_deg,aa_fbw,aa_dir,actual_fpa_deg,ftf_hdg_err_deg,ftf_fix_idx,kos_steer_pit_deg,kos_steer_hdg_deg,aa_dir_vx,aa_dir_vy,aa_dir_vz,aa_dir_pitch_deg,aa_dir_hdg_deg,ils_loc_m,ils_gs_m,ils_dist_km,loc_corr_deg,gs_corr_deg,gs_latched,active_gs_ang_deg,ils_intercept_alt_m,d_gs_ms,fpa_preclamped_deg,gs_nom_alt_m,flare_fpa_cmd,flare_tgt_vs,flare_frac,steer_hdg_deg,steer_blend,ro_loc_corr_deg,ro_hdg_err_deg,ro_yaw_tgt,ro_yaw_scale,ro_yaw_gate,yaw_cmd,roll_cmd,pitch_cmd,ro_pitch_tgt_deg,ro_pitch_err_deg,ro_pitch_ff,ro_roll_assist,flaps_cur,flaps_tgt,asc_j_ab,asc_j_rk,asc_validity,asc_q_pa,asc_q_raw_pa,asc_mach,asc_apo_m,asc_drag_n,asc_w_prop,asc_edot_aero,asc_edot_orb,asc_pitch_bias,asc_blend,asc_spooling,asc_ab_thr_ratio,asc_ab_t_now,asc_ab_t_avail,asc_ab_ign_on,asc_ab_flameouts,asc_rk_t_now,asc_rk_t_avail,asc_rk_ign_on,asc_rk_flameouts,ship_thrust,ship_avail_thrust,ship_ign_on,ship_flameouts,ifc_raw_dt_s,ifc_dt_s,ifc_loop_n,ifc_hz_est,ifc_raw_dt_max_s,ifc_raw_dt_min_s,phase_el_s,status,craft_name,cfg_file
0.18,APPROACH,FLY_TO_FIX,225.06,146.22,-78.83,1439.51,-11.6,4.29,7.04,248.34,0.526,0,0,0,1,0.6,0.97,0.75,0.35,0.0168,0.4,3.5,14,14,78.849,1,248.16,3.008,1,0,-2.94,0.17,0,0,90,0,0,0,0,0,0,0,45.279,0,0,0,3,0,0,0,2447.27,0,0,0,248.33,0,0,0,0,0,0,0,0,0,0,0,0,0,0,0,0,0,VALID,0,0,0,0,0,1,0,0,0,0,0,0,0,0,0,0,0,0,0,0,9.96,1385.78,2,0,0.14,0.14,1,3.45,0.14,0.02,0.18,FLYING,X10-F,0:/Integrated Flight Computer/aircraft/x10_f_cfg.ks (inferred preloaded)
0.48,APPROACH,FLY_TO_FIX,224.84,146.7,-78.13,1435.99,-11.8,4.3,7.1,248.34,0.361,0,0,0,1,0.6,3.438,0.75,0.35,0.0168,0.4,11,14,14,78.149,1,248.16,3.088,0,0,-3,0.18,0,3.08,248.16,0,0,0,0,0,0,0,45.217,0,0,0,3,0,0,0,2444,0,0,0,248.33,0,0,0,0,0,0,0,0,0,0,0,0,0,1,1,0,0,VALID,0,0,0,0,0,1,0,0,0,0,0,0,0,0,0,0,0,0,0,0,8.96,1384.8,2,0,0.08,0.08,4,10,0.14,0.08,0.48,FLYING,X10-F,0:/Integrated Flight Computer/aircraft/x10_f_cfg.ks (inferred preloaded)
0.76,APPROACH,FLY_TO_FIX,224.62,147.15,-77.47,1432.68,-12.17,4.34,7.27,248.31,0.048,0,0,0,1,0.6,4.5,0.75,0.35,0.0168,0.4,14,14,14,77.485,1,248.16,3.209,0,0,-3.08,0.15,0,3.15,248.16,0,0,0,0,0,0,0,45.155,0,0,0,3,0,0,0,2440.75,0,0,0,248.33,0,0,0,0,0,0,0,0,0,0,0,0,0,1,1,0,0,VALID,0,0,0,0,0,1,0,0,0,0,0,0,0,0,0,0,0,0,0,0,8.11,1383.83,2,0,0.1,0.1,7,10.71,0.1,0.08,0.76,FLYING,X10-F,0:/Integrated Flight Computer/aircraft/x10_f_cfg.ks (inferred preloaded)
1.02,APPROACH,FLY_TO_FIX,224.32,147.57,-76.75,1429.86,-12.44,5.46,8.58,248.27,-0.17,0,0,-6.143,1,0.6,4.5,0.75,0.35,0.0168,0.4,14,14,14,76.784,1,248.16,3.312,0,0,-3.17,0.11,0,3.29,248.16,0,0,0,0,0,0,0,45.097,0,0,0,3,0,0,0,2437.73,0,0,0,248.33,0,0,0,0,0,0,0,0,0,0,0,0,0,1,1,0,0,VALID,0,0,0,0,0,1,0,0,0,0,0,0,0,0,0,0,0,0,0,0,7.4,1382.47,2,0,0.08,0.08,10,11.54,0.1,0.08,1.02,FLYING,X10-F,0:/Integrated Flight Computer/aircraft/x10_f_cfg.ks (inferred preloaded)
1.3,APPROACH,FLY_TO_FIX,223.75,148.02,-75.73,1427.3,-11.96,8.26,11.4,248.23,-0.33,0,0,-19.786,1,0.6,4.5,0.762,0.35,0.0168,0.4,14,14,14,75.788,1,248.16,3.204,0,0,-3.09,0.07,0,3.28,248.16,0,0,0,0,0,0,0,45.035,0,0,0,3,0,0,0,2434.48,0,0,0,248.33,0,0,0,0,0,0,0,0,0,0,0,0,0,1,1,0,0,VALID,0,0,0,0,0,1,0,0,0,0,0,0,0,0,0,0,0,0,0,0,6.69,1379.7,2,0,0.1,0.1,13,10.71,0.1,0.08,1.3,FLYING,X10-F,0:/Integrated Flight Computer/aircraft/x10_f_cfg.ks (inferred preloaded)
1.56,APPROACH,FLY_TO_FIX,222.79,148.43,-74.36,1425.37,-9.84,11.62,14.25,248.18,-0.44,0.072,0,-20,1,0.6,4.5,0.94,0.35,0.0168,0.4,14,14,14,74.459,1,248.16,2.621,0,0,-2.64,0.02,0,2.86,248.16,0,0,0,0,0,0,0,44.978,0,0,0,3,0,0,0,2431.47,0,0,0,248.33,0,0,0,0,0,0,0,0,0,0,0,0,0,1,1,0,0,VALID,0,0,0,0,0,1,0,0,0,0,0,0,0,0,0,0,0,0,0,0,6.8,1374.85,2,0,0.08,0.08,16,11.54,0.1,0.08,1.56,FLYING,X10-F,0:/Integrated Flight Computer/aircraft/x10_f_cfg.ks (inferred preloaded)
1.84,APPROACH,FLY_TO_FIX,220.94,148.88,-72.06,1423.4,-6.55,13.07,14.7,248.14,-0.504,0.184,0,-20,1,0.6,4.5,1.037,0.35,0.0168,0.4,7,14,0,72.209,1,248.16,1.646,0,0,-1.81,0.02,0,2,248.16,0,0,0,0,0,0,0,44.916,0,0,0,3,0,0,0,2428.26,0,0,0,248.33,0,0,0,0,0,0,0,0,0,0,0,0,0,1,1,0,0,VALID,0,0,0,0,0,1,0,0,0,0,0,0,0,0,0,0,0,0,0,0,14,1365.17,2,0,0.1,0.1,19,10.71,0.1,0.08,1.84,FLYING,X10-F,0:/Integrated Flight Computer/aircraft/x10_f_cfg.ks (inferred preloaded)
2.1,APPROACH,FLY_TO_FIX,219.28,149.3,-69.99,1421.72,-4.16,12.08,13.01,248.13,-0.532,0.288,0,-20,1,0.6,4.5,1.037,0.35,0.0168,0.4,0.5,14,0,70.092,1,248.16,0.913,0,0,-1.16,0.02,0,1.11,248.16,0,0,0,0,0,0,0,44.86,0,0,0,3,0,0,0,2425.29,0,0,0,248.33,0,0,0,0,0,0,0,0,0,0,0,0,0,2,2,0,0,VALID,0,0,0,0,0,1,0,0,0,0,0,0,0,0,0,0,0,0,0,0,27.7,1356.45,2,0,0.08,0.08,22,11.54,0.1,0.08,2.1,FLYING,X10-F,0:/Integrated Flight Computer/aircraft/x10_f_cfg.ks (inferred preloaded)
2.38,APPROACH,FLY_TO_FIX,218.14,149.74,-68.4,1420.34,-2.76,10.45,11.05,248.14,-0.529,0.4,0,-20,1,0.6,4.5,1.037,0.35,0.0168,0.4,0,14,0,68.465,0,248.16,0.48,0,0,-0.76,0.02,0,0.6,248.16,0,0,0,0,0,0,0,44.799,0,0,0,3,0,0,0,2422.12,0,0,0,248.33,0,0,0,0,0,0,0,0,0,0,0,0,0,2,2,0,0,VALID,0,0,0,0,0,1,0,0,0,0,0,0,0,0,0,0,0,0,0,0,49.52,1350.44,2,0,0.1,0.1,25,10.71,0.1,0.08,2.38,FLYING,X10-F,0:/Integrated Flight Computer/aircraft/x10_f_cfg.ks (inferred preloaded)
2.64,APPROACH,FLY_TO_FIX,217.42,150.16,-67.26,1419.45,-1.8,9.4,9.77,248.15,-0.499,0.504,0,-20,1,0.6,4.5,1.037,0.35,0.0168,0.4,0,14,0,67.307,0,248.16,0.194,0,0,-0.51,0.01,0,0.28,248.16,0,0,0,0,0,0,0,44.743,0,0,0,3,0,0,0,2419.18,0,0,0,248.33,0,0,0,0,0,0,0,0,0,0,0,0,0,2,2,0,0,VALID,0,0,0,0,0,1,0,0,0,0,0,0,0,0,0,0,0,0,0,0,76.02,1346.63,2,0,0.08,0.08,28,11.54,0.1,0.08,2.64,FLYING,X10-F,0:/Integrated Flight Computer/aircraft/x10_f_cfg.ks (inferred preloaded)
2.92,APPROACH,FLY_TO_FIX,216.89,150.61,-66.28,1418.68,-1.14,8.07,8.26,248.16,-0.435,0.4567,0,-20,1,0.6,4.5,1.037,0.35,0.0168,0.4,0,14,0,66.31,0,248.16,-0.014,0,0,-0.31,0.01,0,0.03,248.16,0,0,0,0,0,0,0,44.683,0,0,0,3,0,0,0,2416.02,0,0,0,248.33,0,0,0,0,0,0,0,0,0,0,0,0,0,2,2,0,0,VALID,0,0,0,0,0,1,0,0,0,0,0,0,0,0,0,0,0,0,0,0,108.88,1343.83,2,0,0.1,0.1,31,10.71,0.1,0.08,2.92,FLYING,X10-F,0:/Integrated Flight Computer/aircraft/x10_f_cfg.ks (inferred preloaded)
3.18,APPROACH,FLY_TO_FIX,216.62,151.02,-65.6,1418.15,-1.03,7.11,7.31,248.18,-0.352,0.3527,0,-19.9,1,0.6,4.5,1.037,0.35,0.0168,0.4,0,14,0,65.615,0,248.16,-0.052,0,0,-0.27,0.02,0,-0.05,248.16,0,0,0,0,0,0,0,44.627,0,0,0,3,0,0,0,2413.09,0,0,0,248.33,0,0,0,0,0,0,0,0,0,0,0,0,0,2,2,0,0,VALID,0,0,0,0,0,1,0,0,0,0,0,0,0,0,0,0,0,0,0,0,132.57,1342.42,2,0,0.08,0.08,34,11.54,0.1,0.08,3.18,FLYING,X10-F,0:/Integrated Flight Computer/aircraft/x10_f_cfg.ks (inferred preloaded)
3.46,APPROACH,FLY_TO_FIX,216.49,151.47,-65.02,1417.73,-1.04,6.6,6.84,248.19,-0.281,0.2407,0,-19.603,1,0.6,4.5,1.037,0.35,0.0168,0.4,0,14,0,65.022,0,248.16,-0.045,0,0,-0.28,0.03,0,-0.05,248.16,0,0,0,0,0,0,0,44.567,0,0,0,3,0,0,0,2409.94,0,0,0,248.33,0,0,0,0,0,0,0,0,0,0,0,0,0,2,2,0,0,VALID,0,0,0,0,0,1,0,0,0,0,0,0,0,0,0,0,0,0,0,0,148.88,1341.71,2,0,0.1,0.1,37,10.71,0.1,0.08,3.46,FLYING,X10-F,0:/Integrated Flight Computer/aircraft/x10_f_cfg.ks (inferred preloaded)
3.72,APPROACH,FLY_TO_FIX,216.43,151.89,-64.54,1417.41,-1.02,6.4,6.64,248.19,-0.235,0.1367,0,-19.31,1,0.6,4.5,1.037,0.35,0.0168,0.4,0,14,0,64.542,0,248.16,-0.049,0,0,-0.27,0.03,0,-0.04,248.16,0,0,0,0,0,0,0,44.511,0,0,0,3,0,0,0,2407.01,0,0,0,248.33,0,0,0,0,0,0,0,0,0,0,0,0,0,2,2,0,0,VALID,0,0,0,0,0,1,0,0,0,0,0,0,0,0,0,0,0,0,0,0,155.89,1341.4,2,0,0.08,0.08,40,11.54,0.1,0.08,3.72,FLYING,X10-F,0:/Integrated Flight Computer/aircraft/x10_f_cfg.ks (inferred preloaded)
4,APPROACH,FLY_TO_FIX,216.38,152.34,-64.04,1417.09,-0.98,6.26,6.49,248.19,-0.197,0.0247,0,-19.022,1,0.6,4.5,1.017,0.35,0.0168,0.4,4.5,14,14,64.045,1,248.16,-0.062,0,0,-0.26,0.04,0,-0.05,248.16,0,0,0,0,0,0,0,44.451,0,0,0,3,0,0,0,2403.86,0,0,0,248.33,0,0,0,0,0,0,0,0,0,0,0,0,0,2,2,0,0,VALID,0,0,0,0,0,1,0,0,0,0,0,0,0,0,0,0,0,0,0,0,154.01,1341.15,2,0,0.1,0.1,43,10.71,0.1,0.08,4,FLYING,X10-F,0:/Integrated Flight Computer/aircraft/x10_f_cfg.ks (inferred preloaded)
4.26,APPROACH,FLY_TO_FIX,216.31,152.75,-63.56,1416.81,-0.93,6.13,6.35,248.19,-0.168,0,0,-18.738,1,0.6,4.5,0.949,0.35,0.0168,0.4,11,14,14,63.567,1,248.16,-0.071,0,0,-0.25,0.04,0,-0.07,248.16,0,0,0,0,0,0,0,44.395,0,0,0,3,0,0,0,2400.94,0,0,0,248.33,0,0,0,0,0,0,0,0,0,0,0,0,0,2,2,0,0,VALID,0,0,0,0,0,1,0,0,0,0,0,0,0,0,0,0,0,0,0,0,141.96,1340.82,2,0,0.08,0.08,46,11.54,0.1,0.08,4.26,FLYING,X10-F,0:/Integrated Flight Computer/aircraft/x10_f_cfg.ks (inferred preloaded)
4.54,APPROACH,FLY_TO_FIX,216.18,153.2,-62.98,1416.51,-0.9,6,6.22,248.19,-0.144,0,0,-18.459,1,0.6,4.5,0.888,0.35,0.0168,0.4,14,14,14,62.995,1,248.16,-0.08,0,0,-0.24,0.04,0,-0.08,248.16,0,0,0,0,0,0,0,44.335,0,0,0,3,0,0,0,2397.79,0,0,0,248.33,0,0,0,0,0,0,0,0,0,0,0,0,0,2,2,0,0,VALID,0,0,0,0,0,1,0,0,0,0,0,0,0,0,0,0,0,0,0,0,128.61,1340.15,2,0,0.1,0.1,49,10.71,0.1,0.08,4.54,FLYING,X10-F,0:/Integrated Flight Computer/aircraft/x10_f_cfg.ks (inferred preloaded)
4.8,APPROACH,FLY_TO_FIX,216.01,153.62,-62.39,1416.25,-0.87,5.89,6.09,248.2,-0.126,0,0,-18.183,1,0.6,4.5,0.847,0.35,0.0168,0.4,14,14,14,62.41,1,248.15,-0.09,0,0,-0.23,0.04,0,-0.09,248.15,0,0,0,0,0,0,0,44.279,0,0,0,3,0,0,0,2394.87,0,0,0,248.33,0,0,0,0,0,0,0,0,0,0,0,0,0,2,2,0,0,VALID,0,0,0,0,0,1,0,0,0,0,0,0,0,0,0,0,0,0,0,0,117.3,1339.25,2,0,0.08,0.08,52,11.54,0.1,0.08,4.8,FLYING,X10-F,0:/Integrated Flight Computer/aircraft/x10_f_cfg.ks (inferred preloaded)
5.08,APPROACH,FLY_TO_FIX,215.77,154.06,-61.71,1415.98,-0.83,5.77,5.97,248.2,-0.11,0,0,-17.912,1,0.6,4.5,0.83,0.35,0.0168,0.4,14,14,14,61.729,1,248.15,-0.099,0,0,-0.22,0.04,0,-0.09,248.15,0,0,0,0,0,0,0,44.219,0,0,0,3,0,0,0,2391.73,0,0,0,248.33,0,0,0,0,0,0,0,0,0,0,0,0,0,2,2,0,0,VALID,0,0,0,0,0,1,0,0,0,0,0,0,0,0,0,0,0,0,0,0,106.22,1338.02,2,0,0.1,0.1,55,10.71,0.1,0.08,5.08,FLYING,X10-F,0:/Integrated Flight Computer/aircraft/x10_f_cfg.ks (inferred preloaded)
5.34,APPROACH,FLY_TO_FIX,215.51,154.48,-61.03,1415.74,-0.8,5.66,5.85,248.2,-0.098,0,0,-17.644,1,0.6,4.5,0.834,0.35,0.0168,0.4,14,14,14,61.055,1,248.15,-0.107,0,0,-0.21,0.04,0,-0.1,248.15,0,0,0,0,0,0,0,44.164,0,0,0,3,0,0,0,2388.82,0,0,0,248.33,0,0,0,0,0,0,0,0,0,0,0,0,0,2,2,0,0,VALID,0,0,0,0,0,1,0,0,0,0,0,0,0,0,0,0,0,0,0,0,96.85,1336.66,2,0,0.08,0.08,58,11.54,0.1,0.08,5.34,FLYING,X10-F,0:/Integrated Flight Computer/aircraft/x10_f_cfg.ks (inferred preloaded)
5.62,APPROACH,FLY_TO_FIX,215.19,154.93,-60.26,1415.48,-0.76,5.55,5.73,248.2,-0.088,0,0,-17.381,1,0.6,4.5,0.857,0.35,0.0168,0.4,14,14,14,60.287,1,248.15,-0.117,0,0,-0.2,0.04,0,-0.11,248.15,0,0,0,0,0,0,0,44.104,0,0,0,3,0,0,0,2385.68,0,0,0,248.33,0,0,0,0,0,0,0,0,0,0,0,0,0,2,2,0,0,VALID,0,0,0,0,0,1,0,0,0,0,0,0,0,0,0,0,0,0,0,0,87.67,1334.97,2,0,0.1,0.1,61,10.71,0.1,0.08,5.62,FLYING,X10-F,0:/Integrated Flight Computer/aircraft/x10_f_cfg.ks (inferred preloaded)
5.88,APPROACH,FLY_TO_FIX,214.85,155.34,-59.51,1415.25,-0.75,5.44,5.62,248.2,-0.077,0,0,-17.122,1,0.6,4.5,0.896,0.35,0.0168,0.4,14,14,14,59.536,1,248.15,-0.118,0,0,-0.2,0.04,0,-0.12,248.15,0,0,0,0,0,0,0,44.049,0,0,0,3,0,0,0,2382.78,0,0,0,248.33,0,0,0,0,0,0,0,0,0,0,0,0,0,2,2,0,0,VALID,0,0,0,0,0,1,0,0,0,0,0,0,0,0,0,0,0,0,0,0,79.92,1333.21,2,0,0.08,0.08,64,11.54,0.1,0.08,5.88,FLYING,X10-F,0:/Integrated Flight Computer/aircraft/x10_f_cfg.ks (inferred preloaded)
6.16,APPROACH,FLY_TO_FIX,214.45,155.79,-58.66,1415.02,-0.73,5.33,5.5,248.2,-0.072,0,0,-16.866,1,0.6,4.5,0.95,0.35,0.0168,0.4,14,14,14,58.689,1,248.15,-0.125,0,0,-0.19,0.04,0,-0.12,248.15,0,0,0,0,0,0,0,43.989,0,0,0,3,0,0,0,2379.65,0,0,0,248.33,0,0,0,0,0,0,0,0,0,0,0,0,0,2,2,0,0,VALID,0,0,0,0,0,1,0,0,0,0,0,0,0,0,0,0,0,0,0,0,72.32,1331.11,2,0,0.1,0.1,67,10.71,0.1,0.08,6.16,FLYING,X10-F,0:/Integrated Flight Computer/aircraft/x10_f_cfg.ks (inferred preloaded)
6.42,APPROACH,FLY_TO_FIX,214.04,156.21,-57.83,1414.8,-0.69,5.23,5.39,248.19,-0.067,0,0,-16.614,1,0.6,4.5,1.015,0.35,0.0168,0.4,14,14,14,57.867,1,248.15,-0.134,0,0,-0.19,0.04,0,-0.13,248.15,0,0,0,0,0,0,0,43.934,0,0,0,3,0,0,0,2376.75,0,0,0,248.33,0,0,0,0,0,0,0,0,0,0,0,0,0,2,2,0,0,VALID,0,0,0,0,0,1,0,0,0,0,0,0,0,0,0,0,0,0,0,0,65.9,1328.98,2,0,0.08,0.08,70,11.54,0.1,0.08,6.42,FLYING,X10-F,0:/Integrated Flight Computer/aircraft/x10_f_cfg.ks (inferred preloaded)
6.7,APPROACH,FLY_TO_FIX,213.57,156.66,-56.91,1414.58,-0.7,5.11,5.28,248.19,-0.061,0,0,-16.366,1,0.6,4.5,1.09,0.35,0.0168,0.4,14,14,14,56.947,1,248.15,-0.133,0,0,-0.18,0.04,0,-0.14,248.15,0,0,0,0,0,0,0,43.874,0,0,0,3,0,0,0,2373.64,0,0,0,248.33,0,0,0,0,0,0,0,0,0,0,0,0,0,2,2,0,0,VALID,0,0,0,0,0,1,0,0,0,0,0,0,0,0,0,0,0,0,0,0,59.62,1326.5,2,0,0.1,0.1,73,10.71,0.1,0.08,6.7,FLYING,X10-F,0:/Integrated Flight Computer/aircraft/x10_f_cfg.ks (inferred preloaded)
6.96,APPROACH,FLY_TO_FIX,213.09,157.07,-56.02,1414.38,-0.67,5.02,5.19,248.19,-0.058,0,0,-16.122,1,0.6,4.5,1.172,0.35,0.0168,0.4,14,14,14,56.059,1,248.15,-0.14,0,0,-0.18,0.04,0,-0.14,248.15,0,0,0,0,0,0,0,43.819,0,0,0,3,0,0,0,2370.75,0,0,0,248.33,0,0,0,0,0,0,0,0,0,0,0,0,0,2,2,0,0,VALID,0,0,0,0,0,1,0,0,0,0,0,0,0,0,0,0,0,0,0,0,54.31,1324.03,2,0,0.08,0.08,76,11.54,0.1,0.08,6.96,FLYING,X10-F,0:/Integrated Flight Computer/aircraft/x10_f_cfg.ks (inferred preloaded)
7.24,APPROACH,FLY_TO_FIX,212.55,157.52,-55.03,1414.17,-0.69,4.93,5.11,248.19,-0.054,0,0,-15.882,1,0.6,4.5,1.261,0.35,0.0168,0.4,14,14,14,55.074,1,248.15,-0.133,0,0,-0.18,0.04,0,-0.14,248.15,0,0,0,0,0,0,0,43.76,0,0,0,3,0,0,0,2367.65,0,0,0,248.33,0,0,0,0,0,0,0,0,0,0,0,0,0,2,2,0,0,VALID,0,0,0,0,0,1,0,0,0,0,0,0,0,0,0,0,0,0,0,0,49.12,1321.21,2,0,0.1,0.1,79,10.71,0.1,0.08,7.24,FLYING,X10-F,0:/Integrated Flight Computer/aircraft/x10_f_cfg.ks (inferred preloaded)
7.52,APPROACH,FLY_TO_FIX,212,157.7,-54.3,1413.99,-0.65,5,5.16,248.19,-0.053,0,0,-15.644,1,0.6,4.5,1.353,0.35,0.0168,0.4,14,14,14,54.335,1,248.15,-0.145,0,0,-0.18,0.04,0,-0.13,248.15,0,0,0,0,0,0,0,43.701,0,0,0,3,0,0,0,2364.56,0,0,0,248.33,0,0,0,0,0,0,0,0,0,0,0,0,0,2,2,0,0,VALID,0,0,0,0,0,1,0,0,0,0,0,0,0,0,0,0,0,0,0,0,44.42,1318.31,2,0,0.08,0.08,82,10.71,0.1,0.08,7.52,FLYING,X10-F,0:/Integrated Flight Computer/aircraft/x10_f_cfg.ks (inferred preloaded)
7.8,APPROACH,FLY_TO_FIX,211.43,157.7,-53.73,1413.82,-0.69,5.03,5.21,248.19,-0.048,0,0,-15.411,1,0.6,4.5,1.443,0.35,0.0168,0.4,14,14,14,53.767,1,248.15,-0.132,0,0,-0.19,0.04,0,-0.13,248.15,0,0,0,0,0,0,0,43.642,0,0,0,3,0,0,0,2361.48,0,0,0,248.33,0,0,0,0,0,0,0,0,0,0,0,0,0,2,2,0,0,VALID,0,0,0,0,0,1,0,0,0,0,0,0,0,0,0,0,0,0,0,0,40.17,1315.35,2,0,0.1,0.1,85,10.71,0.1,0.08,7.8,FLYING,X10-F,0:/Integrated Flight Computer/aircraft/x10_f_cfg.ks (inferred preloaded)
8.08,APPROACH,FLY_TO_FIX,210.85,157.7,-53.15,1413.64,-0.68,5.07,5.24,248.19,-0.045,0,0,-15.181,1,0.6,4.5,1.529,0.35,0.0168,0.4,14,14,14,53.19,1,248.15,-0.132,0,0,-0.18,0.04,0,-0.13,248.15,0,0,0,0,0,0,0,43.583,0,0,0,3,0,0,0,2358.4,0,0,0,248.33,0,0,0,0,0,0,0,0,0,0,0,0,0,2,2,0,0,VALID,0,0,0,0,0,1,0,0,0,0,0,0,0,0,0,0,0,0,0,0,36.33,1312.36,2,0,0.08,0.08,88,10.71,0.1,0.08,8.08,FLYING,X10-F,0:/Integrated Flight Computer/aircraft/x10_f_cfg.ks (inferred preloaded)
8.36,APPROACH,FLY_TO_FIX,210.26,157.7,-52.56,1413.46,-0.68,5.11,5.29,248.19,-0.044,0,0,-14.954,1,0.6,4.5,1.612,0.35,0.0168,0.4,14,14,14,52.602,1,248.15,-0.132,0,0,-0.18,0.04,0,-0.13,248.15,0,0,0,0,0,0,0,43.525,0,0,0,3,0,0,0,2355.33,0,0,0,248.33,0,0,0,0,0,0,0,0,0,0,0,0,0,2,2,0,0,VALID,0,0,0,0,0,1,0,0,0,0,0,0,0,0,0,0,0,0,0,0,32.85,1309.31,2,0,0.1,0.1,91,10.71,0.1,0.08,8.36,FLYING,X10-F,0:/Integrated Flight Computer/aircraft/x10_f_cfg.ks (inferred preloaded)
8.64,APPROACH,FLY_TO_FIX,209.66,157.7,-51.96,1413.29,-0.67,5.16,5.34,248.19,-0.043,0,0,-14.731,1,0.6,4.5,1.691,0.35,0.0168,0.4,14,14,14,52.003,1,248.15,-0.133,0,0,-0.18,0.04,0,-0.13,248.15,0,0,0,0,0,0,0,43.466,0,0,0,3,0,0,0,2352.27,0,0,0,248.33,0,0,0,0,0,0,0,0,0,0,0,0,0,2,2,0,0,VALID,0,0,0,0,0,1,0,0,0,0,0,0,0,0,0,0,0,0,0,0,29.7,1306.21,2,0,0.08,0.08,94,10.71,0.1,0.08,8.64,FLYING,X10-F,0:/Integrated Flight Computer/aircraft/x10_f_cfg.ks (inferred preloaded)
8.92,APPROACH,FLY_TO_FIX,209.05,157.7,-51.35,1413.11,-0.67,5.21,5.38,248.19,-0.041,0,0,-14.511,1,0.6,4.5,1.765,0.35,0.0168,0.4,14,14,14,51.396,1,248.15,-0.132,0,0,-0.18,0.04,0,-0.13,248.15,0,0,0,0,0,0,0,43.408,0,0,0,3,0,0,0,2349.21,0,0,0,248.33,0,0,0,0,0,0,0,0,0,0,0,0,0,2,2,0,0,VALID,0,0,0,0,0,1,0,0,0,0,0,0,0,0,0,0,0,0,0,0,26.85,1303.07,2,0,0.1,0.1,97,10.71,0.1,0.08,8.92,FLYING,X10-F,0:/Integrated Flight Computer/aircraft/x10_f_cfg.ks (inferred preloaded)
9.2,APPROACH,FLY_TO_FIX,208.43,157.7,-50.73,1412.94,-0.67,5.26,5.44,248.19,-0.04,0,0,-14.295,1,0.6,4.5,1.835,0.35,0.0168,0.4,14,14,14,50.779,1,248.15,-0.133,0,0,-0.18,0.04,0,-0.13,248.15,0,0,0,0,0,0,0,43.35,0,0,0,3,0,0,0,2346.17,0,0,0,248.33,0,0,0,0,0,0,0,0,0,0,0,0,0,2,2,0,0,VALID,0,0,0,0,0,1,0,0,0,0,0,0,0,0,0,0,0,0,0,0,24.28,1299.88,2,0,0.08,0.08,100,10.71,0.1,0.08,9.2,FLYING,X10-F,0:/Integrated Flight Computer/aircraft/x10_f_cfg.ks (inferred preloaded)
9.48,APPROACH,FLY_TO_FIX,207.81,157.7,-50.11,1412.77,-0.67,5.31,5.48,248.19,-0.038,0,0,-14.081,1,0.6,4.5,1.901,0.35,0.0168,0.4,14,14,14,50.156,1,248.15,-0.134,0,0,-0.18,0.04,0,-0.13,248.15,0,0,0,0,0,0,0,43.292,0,0,0,3,0,0,0,2343.13,0,0,0,248.33,0,0,0,0,0,0,0,0,0,0,0,0,0,2,2,0,0,VALID,0,0,0,0,0,1,0,0,0,0,0,0,0,0,0,0,0,0,0,0,21.95,1296.67,2,0,0.1,0.1,103,10.71,0.1,0.08,9.48,FLYING,X10-F,0:/Integrated Flight Computer/aircraft/x10_f_cfg.ks (inferred preloaded)
9.76,APPROACH,FLY_TO_FIX,207.18,157.7,-49.48,1412.6,-0.64,5.38,5.54,248.19,-0.038,0,0,-13.871,1,0.6,4.5,1.963,0.35,0.0168,0.4,14,14,14,49.524,1,248.15,-0.139,0,0,-0.18,0.04,0,-0.13,248.15,0,0,0,0,0,0,0,43.234,0,0,0,3,0,0,0,2340.1,0,0,0,248.33,0,0,0,0,0,0,0,0,0,0,0,0,0,2,2,0,0,VALID,0,0,0,0,0,1,0,0,0,0,0,0,0,0,0,0,0,0,0,0,19.85,1293.41,2,0,0.08,0.08,106,10.71,0.1,0.08,9.76,FLYING,X10-F,0:/Integrated Flight Computer/aircraft/x10_f_cfg.ks (inferred preloaded)
10.04,APPROACH,FLY_TO_FIX,206.54,157.7,-48.84,1412.44,-0.68,5.43,5.62,248.19,-0.035,0,0,-13.664,1,0.6,4.5,2.021,0.35,0.0168,0.4,14,14,14,48.885,1,248.15,-0.126,0,0,-0.19,0.04,0,-0.13,248.15,0,0,0,0,0,0,0,43.177,0,0,0,3,0,0,0,2337.08,0,0,0,248.33,0,0,0,0,0,0,0,0,0,0,0,0,0,2,2,0,0,VALID,0,0,0,0,0,1,0,0,0,0,0,0,0,0,0,0,0,0,0,0,17.94,1290.12,2,0,0.1,0.1,109,10.71,0.1,0.08,10.04,FLYING,X10-F,0:/Integrated Flight Computer/aircraft/x10_f_cfg.ks (inferred preloaded)
10.32,APPROACH,FLY_TO_FIX,205.9,157.7,-48.2,1412.25,-0.64,5.42,5.58,248.19,-0.034,0,0,-13.46,1,0.6,4.5,2.076,0.35,0.0168,0.4,14,14,14,48.243,1,248.15,-0.141,0,0,-0.17,0.04,0,-0.15,248.15,0,0,0,0,0,0,0,43.119,0,0,0,3,0,0,0,2334.07,0,0,0,248.33,0,0,0,0,0,0,0,0,0,0,0,0,0,2,2,0,0,VALID,0,0,0,0,0,1,0,0,0,0,0,0,0,0,0,0,0,0,0,0,16.22,1286.83,2,0,0.08,0.08,112,10.71,0.1,0.08,10.32,FLYING,X10-F,0:/Integrated Flight Computer/aircraft/x10_f_cfg.ks (inferred preloaded)
10.6,APPROACH,FLY_TO_FIX,205.23,157.7,-47.53,1412.11,-0.63,5.6,5.77,248.18,-0.035,0,0,-13.259,1,0.6,4.5,2.128,0.35,0.0168,0.4,14,14,14,47.582,1,248.15,-0.134,0,0,-0.19,0.04,0,-0.11,248.15,0,0,0,0,0,0,0,43.062,0,0,0,3,0,0,0,2331.06,0,0,0,248.33,0,0,0,0,0,0,0,0,0,0,0,0,0,2,2,0,0,VALID,0,0,0,0,0,1,0,0,0,0,0,0,0,0,0,0,0,0,0,0,14.66,1283.44,2,0,0.1,0.1,115,10.71,0.1,0.08,10.6,FLYING,X10-F,0:/Integrated Flight Computer/aircraft/x10_f_cfg.ks (inferred preloaded)
10.88,APPROACH,FLY_TO_FIX,204.58,157.7,-46.88,1411.91,-0.66,5.49,5.66,248.18,-0.031,0,0,-13.061,1,0.6,4.5,2.178,0.35,0.0168,0.4,14,14,14,46.929,1,248.15,-0.134,0,0,-0.18,0.03,0,-0.15,248.15,0,0,0,0,0,0,0,43.005,0,0,0,3,0,0,0,2328.07,0,0,0,248.33,0,0,0,0,0,0,0,0,0,0,0,0,0,2,2,0,0,VALID,0,0,0,0,0,1,0,0,0,0,0,0,0,0,0,0,0,0,0,0,13.25,1280.09,2,0,0.08,0.08,118,10.71,0.1,0.08,10.88,FLYING,X10-F,0:/Integrated Flight Computer/aircraft/x10_f_cfg.ks (inferred preloaded)
11.16,APPROACH,FLY_TO_FIX,203.91,157.7,-46.21,1411.77,-0.63,5.68,5.85,248.18,-0.033,0,0,-12.867,1,0.6,4.5,2.225,0.35,0.0168,0.4,14,14,14,46.255,1,248.15,-0.135,0,0,-0.18,0.03,0,-0.12,248.15,0,0,0,0,0,0,0,42.948,0,0,0,3,0,0,0,2325.08,0,0,0,248.33,0,0,0,0,0,0,0,0,0,0,0,0,0,2,2,0,0,VALID,0,0,0,0,0,1,0,0,0,0,0,0,0,0,0,0,0,0,0,0,11.98,1276.65,2,0,0.1,0.1,121,10.71,0.1,0.08,11.16,FLYING,X10-F,0:/Integrated Flight Computer/aircraft/x10_f_cfg.ks (inferred preloaded)
11.44,APPROACH,FLY_TO_FIX,203.25,157.7,-45.55,1411.6,-0.65,5.68,5.85,248.18,-0.03,0,0,-12.674,1,0.6,4.5,2.268,0.35,0.0168,0.4,14,14,14,45.596,1,248.15,-0.134,0,0,-0.18,0.03,0,-0.14,248.15,0,0,0,0,0,0,0,42.891,0,0,0,3,0,0,0,2322.1,0,0,0,248.33,0,0,0,0,0,0,0,0,0,0,0,0,0,2,2,0,0,VALID,0,0,0,0,0,1,0,0,0,0,0,0,0,0,0,0,0,0,0,0,10.83,1273.28,2,0,0.08,0.08,124,10.71,0.1,0.08,11.44,FLYING,X10-F,0:/Integrated Flight Computer/aircraft/x10_f_cfg.ks (inferred preloaded)
11.72,APPROACH,FLY_TO_FIX,202.58,157.7,-44.88,1411.44,-0.63,5.76,5.92,248.18,-0.03,0,0,-12.485,1,0.6,4.5,2.307,0.35,0.0168,0.4,14,14,14,44.93,1,248.15,-0.138,0,0,-0.18,0.03,0,-0.13,248.15,0,0,0,0,0,0,0,42.834,0,0,0,3,0,0,0,2319.14,0,0,0,248.33,0,0,0,0,0,0,0,0,0,0,0,0,0,2,2,0,0,VALID,0,0,0,0,0,1,0,0,0,0,0,0,0,0,0,0,0,0,0,0,9.79,1269.89,2,0,0.1,0.1,127,10.71,0.1,0.08,11.72,FLYING,X10-F,0:/Integrated Flight Computer/aircraft/x10_f_cfg.ks (inferred preloaded)
12,APPROACH,FLY_TO_FIX,201.91,157.7,-44.21,1411.28,-0.64,5.82,6,248.18,-0.028,0,0,-12.299,1,0.6,4.5,2.342,0.35,0.0168,0.4,14,14,14,44.262,1,248.15,-0.132,0,0,-0.18,0.03,0,-0.13,248.15,0,0,0,0,0,0,0,42.778,0,0,0,3,0,0,0,2316.18,0,0,0,248.33,0,0,0,0,0,0,0,0,0,0,0,0,0,2,2,0,0,VALID,0,0,0,0,0,1,0,0,0,0,0,0,0,0,0,0,0,0,0,0,8.85,1266.49,2,0,0.08,0.08,130,10.71,0.1,0.08,12,FLYING,X10-F,0:/Integrated Flight Computer/aircraft/x10_f_cfg.ks (inferred preloaded)
12.28,APPROACH,FLY_TO_FIX,201.24,157.7,-43.54,1411.11,-0.65,5.83,6.01,248.18,-0.026,0,0,-12.115,1,0.6,4.5,2.374,0.35,0.0168,0.4,14,14,14,43.593,1,248.15,-0.133,0,0,-0.18,0.03,0,-0.14,248.15,0,0,0,0,0,0,0,42.721,0,0,0,3,0,0,0,2313.23,0,0,0,248.33,0,0,0,0,0,0,0,0,0,0,0,0,0,2,2,0,0,VALID,0,0,0,0,0,1,0,0,0,0,0,0,0,0,0,0,0,0,0,0,8,1263.09,2,0,0.1,0.1,133,10.71,0.1,0.08,12.28,FLYING,X10-F,0:/Integrated Flight Computer/aircraft/x10_f_cfg.ks (inferred preloaded)
12.56,APPROACH,FLY_TO_FIX,200.56,157.7,-42.86,1410.97,-0.57,5.97,6.12,248.18,-0.028,0,0,-11.935,1,0.6,4.5,2.405,0.35,0.0168,0.4,14,14,14,42.912,1,248.15,-0.149,0,0,-0.17,0.03,0,-0.13,248.15,0,0,0,0,0,0,0,42.665,0,0,0,3,0,0,0,2310.29,0,0,0,248.33,0,0,0,0,0,0,0,0,0,0,0,0,0,2,2,0,0,VALID,0,0,0,0,0,1,0,0,0,0,0,0,0,0,0,0,0,0,0,0,7.23,1259.64,2,0,0.08,0.08,136,10.71,0.1,0.08,12.56,FLYING,X10-F,0:/Integrated Flight Computer/aircraft/x10_f_cfg.ks (inferred preloaded)
12.84,APPROACH,FLY_TO_FIX,199.88,157.7,-42.18,1410.8,-0.68,5.95,6.14,248.18,-0.023,0,0,-11.756,1,0.6,4.5,2.433,0.35,0.0168,0.4,14,14,14,42.233,1,248.15,-0.12,0,0,-0.19,0.03,0,-0.14,248.15,0,0,0,0,0,0,0,42.609,0,0,0,3,0,0,0,2307.35,0,0,0,248.33,0,0,0,0,0,0,0,0,0,0,0,0,0,2,2,0,0,VALID,0,0,0,0,0,1,0,0,0,0,0,0,0,0,0,0,0,0,0,0,6.53,1256.19,2,0,0.1,0.1,139,10.71,0.1,0.08,12.84,FLYING,X10-F,0:/Integrated Flight Computer/aircraft/x10_f_cfg.ks (inferred preloaded)
13.12,APPROACH,FLY_TO_FIX,199.2,157.7,-41.5,1410.65,-0.55,6.06,6.2,248.18,-0.024,0,0,-11.581,1,0.6,4.5,2.461,0.35,0.0168,0.4,14,14,14,41.545,1,248.15,-0.156,0,0,-0.16,0.03,0,-0.14,248.15,0,0,0,0,0,0,0,42.554,0,0,0,3,0,0,0,2304.43,0,0,0,248.33,0,0,0,0,0,0,0,0,0,0,0,0,0,2,2,0,0,VALID,0,0,0,0,0,1,0,0,0,0,0,0,0,0,0,0,0,0,0,0,5.91,1252.72,2,0,0.08,0.08,142,10.71,0.1,0.08,13.12,FLYING,X10-F,0:/Integrated Flight Computer/aircraft/x10_f_cfg.ks (inferred preloaded)
13.4,APPROACH,FLY_TO_FIX,198.51,157.7,-40.81,1410.47,-0.61,6.01,6.18,248.18,-0.022,0,0,-11.408,1,0.6,4.5,2.486,0.35,0.0168,0.4,14,14,14,40.863,1,248.15,-0.138,0,0,-0.18,0.03,0,-0.14,248.15,0,0,0,0,0,0,0,42.498,0,0,0,3,0,0,0,2301.52,0,0,0,248.33,0,0,0,0,0,0,0,0,0,0,0,0,0,2,2,0,0,VALID,0,0,0,0,0,1,0,0,0,0,0,0,0,0,0,0,0,0,0,0,5.34,1249.28,2,0,0.1,0.1,145,10.71,0.1,0.08,13.4,FLYING,X10-F,0:/Integrated Flight Computer/aircraft/x10_f_cfg.ks (inferred preloaded)
13.68,APPROACH,FLY_TO_FIX,197.84,157.7,-40.14,1410.32,-0.66,6.09,6.28,248.18,-0.02,0,0,-11.238,1,0.6,4.5,2.508,0.35,0.0168,0.4,14,14,14,40.186,1,248.15,-0.123,0,0,-0.19,0.03,0,-0.12,248.15,0,0,0,0,0,0,0,42.443,0,0,0,3,0,0,0,2298.61,0,0,0,248.33,0,0,0,0,0,0,0,0,0,0,0,0,0,2,2,0,0,VALID,0,0,0,0,0,1,0,0,0,0,0,0,0,0,0,0,0,0,0,0,4.82,1245.87,2,0,0.08,0.08,148,10.71,0.1,0.08,13.68,FLYING,X10-F,0:/Integrated Flight Computer/aircraft/x10_f_cfg.ks (inferred preloaded)
13.96,APPROACH,FLY_TO_FIX,197.16,157.7,-39.46,1410.15,-0.66,6.17,6.36,248.18,-0.019,0,0,-11.07,1,0.6,4.5,2.526,0.35,0.0168,0.4,14,14,14,39.509,1,248.15,-0.121,0,0,-0.19,0.03,0,-0.12,248.15,0,0,0,0,0,0,0,42.387,0,0,0,3,0,0,0,2295.72,0,0,0,248.33,0,0,0,0,0,0,0,0,0,0,0,0,0,2,2,0,0,VALID,0,0,0,0,0,1,0,0,0,0,0,0,0,0,0,0,0,0,0,0,4.36,1242.46,2,0,0.1,0.1,151,10.71,0.1,0.08,13.96,FLYING,X10-F,0:/Integrated Flight Computer/aircraft/x10_f_cfg.ks (inferred preloaded)
14.24,APPROACH,FLY_TO_FIX,196.48,157.7,-38.78,1409.99,-0.67,6.24,6.43,248.18,-0.019,0,0,-10.905,1,0.6,4.5,2.542,0.35,0.0168,0.4,14,14,14,38.829,1,248.15,-0.119,0,0,-0.19,0.03,0,-0.12,248.15,0,0,0,0,0,0,0,42.332,0,0,0,3,0,0,0,2292.83,0,0,0,248.33,0,0,0,0,0,0,0,0,0,0,0,0,0,2,2,0,0,VALID,0,0,0,0,0,1,0,0,0,0,0,0,0,0,0,0,0,0,0,0,3.94,1239.05,2,0,0.08,0.08,154,10.71,0.1,0.08,14.24,FLYING,X10-F,0:/Integrated Flight Computer/aircraft/x10_f_cfg.ks (inferred preloaded)
14.52,APPROACH,FLY_TO_FIX,195.8,157.7,-38.1,1409.82,-0.67,6.31,6.5,248.18,-0.019,0,0,-10.742,1,0.6,4.5,2.557,0.35,0.0168,0.4,14,14,14,38.146,1,248.15,-0.116,0,0,-0.2,0.03,0,-0.12,248.15,0,0,0,0,0,0,0,42.277,0,0,0,3,0,0,0,2289.95,0,0,0,248.33,0,0,0,0,0,0,0,0,0,0,0,0,0,2,2,0,0,VALID,0,0,0,0,0,1,0,0,0,0,0,0,0,0,0,0,0,0,0,0,3.56,1235.63,2,0,0.1,0.1,157,10.71,0.1,0.08,14.52,FLYING,X10-F,0:/Integrated Flight Computer/aircraft/x10_f_cfg.ks (inferred preloaded)
14.8,APPROACH,FLY_TO_FIX,195.11,157.7,-37.41,1409.65,-0.68,6.38,6.57,248.18,-0.018,0,0,-10.582,1,0.6,4.5,2.572,0.35,0.0168,0.4,14,14,14,37.461,1,248.15,-0.114,0,0,-0.2,0.03,0,-0.11,248.15,0,0,0,0,0,0,0,42.223,0,0,0,3,0,0,0,2287.09,0,0,0,248.33,0,0,0,0,0,0,0,0,0,0,0,0,0,2,2,0,0,VALID,0,0,0,0,0,1,0,0,0,0,0,0,0,0,0,0,0,0,0,0,3.22,1232.2,2,0,0.08,0.08,160,10.71,0.1,0.08,14.8,FLYING,X10-F,0:/Integrated Flight Computer/aircraft/x10_f_cfg.ks (inferred preloaded)
15.08,APPROACH,FLY_TO_FIX,194.43,157.7,-36.73,1409.48,-0.68,6.44,6.63,248.18,-0.017,0,0,-10.424,1,0.6,4.5,2.585,0.35,0.0168,0.4,14,14,14,36.774,1,248.15,-0.112,0,0,-0.2,0.03,0,-0.11,248.15,0,0,0,0,0,0,0,42.168,0,0,0,3,0,0,0,2284.23,0,0,0,248.33,0,0,0,0,0,0,0,0,0,0,0,0,0,2,2,0,0,VALID,0,0,0,0,0,1,0,0,0,0,0,0,0,0,0,0,0,0,0,0,2.91,1228.77,2,0,0.1,0.1,163,10.71,0.1,0.08,15.08,FLYING,X10-F,0:/Integrated Flight Computer/aircraft/x10_f_cfg.ks (inferred preloaded)
15.36,APPROACH,FLY_TO_FIX,193.74,157.7,-36.04,1409.31,-0.68,6.51,6.7,248.18,-0.016,0,0,-10.268,1,0.6,4.5,2.598,0.35,0.0168,0.4,14,14,14,36.086,1,248.15,-0.11,0,0,-0.2,0.03,0,-0.11,248.15,0,0,0,0,0,0,0,42.114,0,0,0,3,0,0,0,2281.38,0,0,0,248.33,0,0,0,0,0,0,0,0,0,0,0,0,0,2,2,0,0,VALID,0,0,0,0,0,1,0,0,0,0,0,0,0,0,0,0,0,0,0,0,2.63,1225.34,2,0,0.08,0.08,166,10.71,0.1,0.08,15.36,FLYING,X10-F,0:/Integrated Flight Computer/aircraft/x10_f_cfg.ks (inferred preloaded)
15.64,APPROACH,FLY_TO_FIX,193.05,157.7,-35.35,1409.14,-0.69,6.58,6.77,248.18,-0.016,0,0,-10.115,1,0.6,4.5,2.61,0.35,0.0168,0.4,14,14,14,35.396,1,248.15,-0.109,0,0,-0.2,0.03,0,-0.11,248.15,0,0,0,0,0,0,0,42.06,0,0,0,3,0,0,0,2278.54,0,0,0,248.33,0,0,0,0,0,0,0,0,0,0,0,0,0,2,2,0,0,VALID,0,0,0,0,0,1,0,0,0,0,0,0,0,0,0,0,0,0,0,0,2.38,1221.91,2,0,0.1,0.1,169,10.71,0.1,0.08,15.64,FLYING,X10-F,0:/Integrated Flight Computer/aircraft/x10_f_cfg.ks (inferred preloaded)
15.92,APPROACH,FLY_TO_FIX,192.36,157.7,-34.66,1408.96,-0.69,6.65,6.84,248.18,-0.015,0,0,-9.964,1,0.6,4.5,2.621,0.35,0.0168,0.4,14,14,14,34.705,1,248.15,-0.107,0,0,-0.2,0.03,0,-0.11,248.15,0,0,0,0,0,0,0,42.006,0,0,0,3,0,0,0,2275.71,0,0,0,248.33,0,0,0,0,0,0,0,0,0,0,0,0,0,2,2,0,0,VALID,0,0,0,0,0,1,0,0,0,0,0,0,0,0,0,0,0,0,0,0,2.15,1218.48,2,0,0.08,0.08,172,10.71,0.1,0.08,15.92,FLYING,X10-F,0:/Integrated Flight Computer/aircraft/x10_f_cfg.ks (inferred preloaded)
16.2,APPROACH,FLY_TO_FIX,191.66,157.7,-33.96,1408.79,-0.69,6.71,6.91,248.17,-0.014,0,0,-9.815,1,0.6,4.5,2.632,0.35,0.0168,0.4,14,14,14,34.012,1,248.15,-0.105,0,0,-0.21,0.03,0,-0.1,248.15,0,0,0,0,0,0,0,41.952,0,0,0,3,0,0,0,2272.89,0,0,0,248.33,0,0,0,0,0,0,0,0,0,0,0,0,0,2,2,0,0,VALID,0,0,0,0,0,1,0,0,0,0,0,0,0,0,0,0,0,0,0,0,1.94,1215.04,2,0,0.1,0.1,175,10.71,0.1,0.08,16.2,FLYING,X10-F,0:/Integrated Flight Computer/aircraft/x10_f_cfg.ks (inferred preloaded)
16.48,APPROACH,FLY_TO_FIX,190.97,157.7,-33.27,1408.61,-0.69,6.78,6.98,248.17,-0.014,0,0,-9.669,1,0.6,4.5,2.642,0.35,0.0168,0.4,14,14,14,33.317,1,248.15,-0.104,0,0,-0.21,0.03,0,-0.1,248.15,0,0,0,0,0,0,0,41.898,0,0,0,3,0,0,0,2270.07,0,0,0,248.33,0,0,0,0,0,0,0,0,0,0,0,0,0,2,2,0,0,VALID,0,0,0,0,0,1,0,0,0,0,0,0,0,0,0,0,0,0,0,0,1.75,1211.61,2,0,0.08,0.08,178,10.71,0.1,0.08,16.48,FLYING,X10-F,0:/Integrated Flight Computer/aircraft/x10_f_cfg.ks (inferred preloaded)
16.76,APPROACH,FLY_TO_FIX,190.27,157.7,-32.57,1408.44,-0.7,6.86,7.05,248.17,-0.013,0,0,-9.525,1,0.6,4.5,2.652,0.35,0.0168,0.4,14,14,14,32.621,1,248.15,-0.102,0,0,-0.21,0.03,0,-0.1,248.15,0,0,0,0,0,0,0,41.845,0,0,0,3,0,0,0,2267.27,0,0,0,248.33,0,0,0,0,0,0,0,0,0,0,0,0,0,2,2,0,0,VALID,0,0,0,0,0,1,0,0,0,0,0,0,0,0,0,0,0,0,0,0,1.59,1208.17,2,0,0.1,0.1,181,10.71,0.1,0.08,16.76,FLYING,X10-F,0:/Integrated Flight Computer/aircraft/x10_f_cfg.ks (inferred preloaded)
17.04,APPROACH,FLY_TO_FIX,189.57,157.7,-31.87,1408.27,-0.7,6.93,7.13,248.17,-0.012,0,0,-9.382,1,0.6,4.5,2.661,0.35,0.0168,0.4,14,14,14,31.923,1,248.15,-0.1,0,0,-0.21,0.03,0,-0.1,248.15,0,0,0,0,0,0,0,41.791,0,0,0,3,0,0,0,2264.48,0,0,0,248.33,0,0,0,0,0,0,0,0,0,0,0,0,0,2,2,0,0,VALID,0,0,0,0,0,1,0,0,0,0,0,0,0,0,0,0,0,0,0,0,1.43,1204.74,2,0,0.08,0.08,184,10.71,0.1,0.08,17.04,FLYING,X10-F,0:/Integrated Flight Computer/aircraft/x10_f_cfg.ks (inferred preloaded)
17.32,APPROACH,FLY_TO_FIX,188.87,157.7,-31.17,1408.09,-0.7,7,7.2,248.17,-0.011,0,0,-9.242,1,0.6,4.5,2.67,0.35,0.0168,0.4,14,14,14,31.224,1,248.15,-0.099,0,0,-0.21,0.03,0,-0.1,248.15,0,0,0,0,0,0,0,41.738,0,0,0,3,0,0,0,2261.7,0,0,0,248.33,0,0,0,0,0,0,0,0,0,0,0,0,0,2,2,0,0,VALID,0,0,0,0,0,1,0,0,0,0,0,0,0,0,0,0,0,0,0,0,1.3,1201.3,2,0,0.1,0.1,187,10.71,0.1,0.08,17.32,FLYING,X10-F,0:/Integrated Flight Computer/aircraft/x10_f_cfg.ks (inferred preloaded)
17.6,APPROACH,FLY_TO_FIX,188.17,157.7,-30.47,1407.92,-0.7,7.07,7.28,248.17,-0.012,0,0,-9.104,1,0.6,4.5,2.679,0.35,0.0168,0.4,14,14,14,30.524,1,248.14,-0.097,0,0,-0.21,0.03,0,-0.1,248.14,0,0,0,0,0,0,0,41.685,0,0,0,3,0,0,0,2258.92,0,0,0,248.33,0,0,0,0,0,0,0,0,0,0,0,0,0,2,2,0,0,VALID,0,0,0,0,0,1,0,0,0,0,0,0,0,0,0,0,0,0,0,0,1.17,1197.86,2,0,0.08,0.08,190,10.71,0.1,0.08,17.6,FLYING,X10-F,0:/Integrated Flight Computer/aircraft/x10_f_cfg.ks (inferred preloaded)
17.88,APPROACH,FLY_TO_FIX,187.47,157.7,-29.77,1407.74,-0.7,7.15,7.35,248.17,-0.011,0,0,-8.969,1,0.6,4.5,2.687,0.35,0.0168,0.4,14,14,14,29.822,1,248.14,-0.096,0,0,-0.22,0.03,0,-0.09,248.14,0,0,0,0,0,0,0,41.633,0,0,0,3,0,0,0,2256.16,0,0,0,248.33,0,0,0,0,0,0,0,0,0,0,0,0,0,2,2,0,0,VALID,0,0,0,0,0,1,0,0,0,0,0,0,0,0,0,0,0,0,0,0,1.06,1194.42,2,0,0.1,0.1,193,10.71,0.1,0.08,17.88,FLYING,X10-F,0:/Integrated Flight Computer/aircraft/x10_f_cfg.ks (inferred preloaded)
18.16,APPROACH,FLY_TO_FIX,186.77,157.7,-29.07,1407.56,-0.71,7.22,7.43,248.17,-0.01,0,0,-8.835,1,0.6,4.5,2.695,0.35,0.0168,0.4,14,14,14,29.118,1,248.14,-0.095,0,0,-0.22,0.03,0,-0.09,248.14,0,0,0,0,0,0,0,41.58,0,0,0,3,0,0,0,2253.4,0,0,0,248.33,0,0,0,0,0,0,0,0,0,0,0,0,0,2,2,0,0,VALID,0,0,0,0,0,1,0,0,0,0,0,0,0,0,0,0,0,0,0,0,0.96,1190.98,2,0,0.08,0.08,196,10.71,0.1,0.08,18.16,FLYING,X10-F,0:/Integrated Flight Computer/aircraft/x10_f_cfg.ks (inferred preloaded)
18.44,APPROACH,FLY_TO_FIX,186.06,157.7,-28.36,1407.39,-0.71,7.3,7.51,248.17,-0.011,0,0,-8.703,1,0.6,4.5,2.703,0.35,0.0168,0.4,14,14,14,28.413,1,248.14,-0.093,0,0,-0.22,0.03,0,-0.09,248.14,0,0,0,0,0,0,0,41.528,0,0,0,3,0,0,0,2250.66,0,0,0,248.33,0,0,0,0,0,0,0,0,0,0,0,0,0,2,2,0,0,VALID,0,0,0,0,0,1,0,0,0,0,0,0,0,0,0,0,0,0,0,0,0.86,1187.54,2,0,0.1,0.1,199,10.71,0.1,0.08,18.44,FLYING,X10-F,0:/Integrated Flight Computer/aircraft/x10_f_cfg.ks (inferred preloaded)
18.72,APPROACH,FLY_TO_FIX,185.36,157.7,-27.66,1407.21,-0.71,7.38,7.59,248.17,-0.011,0,0,-8.573,1,0.6,4.5,2.71,0.35,0.0168,0.4,14,14,14,27.706,1,248.14,-0.092,0,0,-0.22,0.03,0,-0.09,248.14,0,0,0,0,0,0,0,41.475,0,0,0,3,0,0,0,2247.92,0,0,0,248.33,0,0,0,0,0,0,0,0,0,0,0,0,0,2,2,0,0,VALID,0,0,0,0,0,1,0,0,0,0,0,0,0,0,0,0,0,0,0,0,0.78,1184.1,2,0,0.08,0.08,202,10.71,0.1,0.08,18.72,FLYING,X10-F,0:/Integrated Flight Computer/aircraft/x10_f_cfg.ks (inferred preloaded)
19,APPROACH,FLY_TO_FIX,184.65,157.7,-26.95,1407.04,-0.71,7.46,7.67,248.17,-0.01,0,0,-8.445,1,0.6,4.5,2.718,0.35,0.0168,0.4,14,14,14,26.997,1,248.14,-0.09,0,0,-0.22,0.03,0,-0.09,248.14,0,0,0,0,0,0,0,41.423,0,0,0,3,0,0,0,2245.2,0,0,0,248.33,0,0,0,0,0,0,0,0,0,0,0,0,0,2,2,0,0,VALID,0,0,0,0,0,1,0,0,0,0,0,0,0,0,0,0,0,0,0,0,0.71,1180.66,2,0,0.1,0.1,205,10.71,0.1,0.08,19,FLYING,X10-F,0:/Integrated Flight Computer/aircraft/x10_f_cfg.ks (inferred preloaded)
19.28,APPROACH,FLY_TO_FIX,183.94,157.7,-26.24,1406.86,-0.71,7.54,7.75,248.17,-0.01,0,0,-8.319,1,0.6,4.5,2.725,0.35,0.0168,0.4,14,14,14,26.287,1,248.14,-0.089,0,0,-0.22,0.03,0,-0.09,248.14,0,0,0,0,0,0,0,41.372,0,0,0,3,0,0,0,2242.48,0,0,0,248.33,0,0,0,0,0,0,0,0,0,0,0,0,0,2,2,0,0,VALID,0,0,0,0,0,1,0,0,0,0,0,0,0,0,0,0,0,0,0,0,0.64,1177.22,2,0,0.08,0.08,208,10.71,0.1,0.08,19.28,FLYING,X10-F,0:/Integrated Flight Computer/aircraft/x10_f_cfg.ks (inferred preloaded)
19.56,APPROACH,FLY_TO_FIX,183.22,157.7,-25.52,1406.68,-0.72,7.62,7.83,248.17,-0.01,0,0,-8.195,1,0.6,4.5,2.732,0.35,0.0168,0.4,14,14,14,25.575,1,248.14,-0.087,0,0,-0.22,0.03,0,-0.09,248.14,0,0,0,0,0,0,0,41.32,0,0,0,3,0,0,0,2239.77,0,0,0,248.33,0,0,0,0,0,0,0,0,0,0,0,0,0,2,2,0,0,VALID,0,0,0,0,0,1,0,0,0,0,0,0,0,0,0,0,0,0,0,0,0.58,1173.78,2,0,0.1,0.1,211,10.71,0.1,0.08,19.56,FLYING,X10-F,0:/Integrated Flight Computer/aircraft/x10_f_cfg.ks (inferred preloaded)
19.84,APPROACH,FLY_TO_FIX,182.51,157.7,-24.81,1406.51,-0.72,7.7,7.92,248.17,-0.009,0,0,-8.072,1,0.6,4.5,2.74,0.35,0.0168,0.4,14,14,14,24.861,1,248.14,-0.086,0,0,-0.22,0.03,0,-0.09,248.14,0,0,0,0,0,0,0,41.268,0,0,0,3,0,0,0,2237.08,0,0,0,248.33,0,0,0,0,0,0,0,0,0,0,0,0,0,2,2,0,0,VALID,0,0,0,0,0,1,0,0,0,0,0,0,0,0,0,0,0,0,0,0,0.52,1170.33,2,0,0.08,0.08,214,10.71,0.1,0.08,19.84,FLYING,X10-F,0:/Integrated Flight Computer/aircraft/x10_f_cfg.ks (inferred preloaded)
20.12,APPROACH,FLY_TO_FIX,181.79,157.7,-24.09,1406.33,-0.72,7.79,8,248.17,-0.008,0,0,-7.952,1,0.6,4.5,2.747,0.35,0.0168,0.4,14,14,14,24.146,1,248.14,-0.085,0,0,-0.23,0.03,0,-0.08,248.14,0,0,0,0,0,0,0,41.217,0,0,0,3,0,0,0,2234.39,0,0,0,248.33,0,0,0,0,0,0,0,0,0,0,0,0,0,2,2,0,0,VALID,0,0,0,0,0,1,0,0,0,0,0,0,0,0,0,0,0,0,0,0,0.47,1166.89,2,0,0.1,0.1,217,10.71,0.1,0.08,20.12,FLYING,X10-F,0:/Integrated Flight Computer/aircraft/x10_f_cfg.ks (inferred preloaded)
20.4,APPROACH,FLY_TO_FIX,181.08,157.7,-23.38,1406.15,-0.72,7.87,8.09,248.17,-0.008,0,0,-7.833,1,0.6,4.5,2.754,0.35,0.0168,0.4,14,14,14,23.428,1,248.14,-0.083,0,0,-0.23,0.03,0,-0.08,248.14,0,0,0,0,0,0,0,41.166,0,0,0,3,0,0,0,2231.71,0,0,0,248.33,0,0,0,0,0,0,0,0,0,0,0,0,0,2,2,0,0,VALID,0,0,0,0,0,1,0,0,0,0,0,0,0,0,0,0,0,0,0,0,0.43,1163.44,2,0,0.08,0.08,220,10.71,0.1,0.08,20.4,FLYING,X10-F,0:/Integrated Flight Computer/aircraft/x10_f_cfg.ks (inferred preloaded)
20.68,APPROACH,FLY_TO_FIX,180.36,157.7,-22.66,1405.98,-0.72,7.96,8.18,248.17,-0.007,0,0,-7.716,1,0.6,4.5,2.761,0.35,0.0168,0.4,14,14,14,22.708,1,248.14,-0.082,0,0,-0.23,0.03,0,-0.08,248.14,0,0,0,0,0,0,0,41.115,0,0,0,3,0,0,0,2229.05,0,0,0,248.33,0,0,0,0,0,0,0,0,0,0,0,0,0,2,2,0,0,VALID,0,0,0,0,0,1,0,0,0,0,0,0,0,0,0,0,0,0,0,0,0.38,1159.99,2,0,0.1,0.1,223,10.71,0.1,0.08,20.68,FLYING,X10-F,0:/Integrated Flight Computer/aircraft/x10_f_cfg.ks (inferred preloaded)
20.96,APPROACH,FLY_TO_FIX,179.64,157.7,-21.94,1405.8,-0.72,8.05,8.26,248.17,-0.007,0,0,-7.601,1,0.6,4.5,2.769,0.35,0.0168,0.4,14.088,14.088,14.088,21.987,1,248.14,-0.081,0,0,-0.23,0.03,0,-0.08,248.14,0,0,0,0,0,0,0,41.064,0,0,0,3,0,0,0,2226.39,0,0,0,248.33,0,0,0,0,0,0,0,0,0,0,0,0,0,2,2,0,0,VALID,0,0,0,0,0,1,0,0,0,0,0,0,0,0,0,0,0,0,0,0,0.35,1156.54,2,0,0.08,0.08,226,10.71,0.1,0.08,20.96,FLYING,X10-F,0:/Integrated Flight Computer/aircraft/x10_f_cfg.ks (inferred preloaded)
21.24,APPROACH,FLY_TO_FIX,178.91,157.7,-21.21,1405.62,-0.72,8.14,8.36,248.17,-0.008,0,0,-7.488,1,0.6,4.5,2.776,0.35,0.0168,0.4,14.292,14.292,14.292,21.263,1,248.14,-0.079,0,0,-0.23,0.03,0,-0.08,248.14,0,0,0,0,0,0,0,41.014,0,0,0,3,0,0,0,2223.74,0,0,0,248.33,0,0,0,0,0,0,0,0,0,0,0,0,0,2,2,0,0,VALID,0,0,0,0,0,1,0,0,0,0,0,0,0,0,0,0,0,0,0,0,0.31,1153.09,2,0,0.1,0.1,229,10.71,0.1,0.08,21.24,FLYING,X10-F,0:/Integrated Flight Computer/aircraft/x10_f_cfg.ks (inferred preloaded)
21.52,APPROACH,FLY_TO_FIX,178.18,157.7,-20.48,1405.44,-0.73,8.23,8.45,248.17,-0.009,0,0,-7.376,1,0.6,4.5,2.784,0.35,0.0168,0.4,14.497,14.497,14.497,20.536,1,248.14,-0.078,0,0,-0.23,0.02,0,-0.08,248.14,0,0,0,0,0,0,0,40.964,0,0,0,3,0,0,0,2221.1,0,0,0,248.33,0,0,0,0,0,0,0,0,0,0,0,0,0,2,2,0,0,VALID,0,0,0,0,0,1,0,0,0,0,0,0,0,0,0,0,0,0,0,0,0.28,1149.63,2,0,0.08,0.08,232,10.71,0.1,0.08,21.52,FLYING,X10-F,0:/Integrated Flight Computer/aircraft/x10_f_cfg.ks (inferred preloaded)
21.8,APPROACH,FLY_TO_FIX,177.45,157.7,-19.75,1405.27,-0.73,8.32,8.54,248.17,-0.009,0,0,-7.266,1,0.6,4.5,2.792,0.35,0.0168,0.4,14.549,14.703,14.549,19.807,1,248.14,-0.076,0,0,-0.24,0.02,0,-0.08,248.14,0,0,0,0,0,0,0,40.913,0,0,0,3,0,0,0,2218.48,0,0,0,248.33,0,0,0,0,0,0,0,0,0,0,0,0,0,2,2,0,0,VALID,0,0,0,0,0,1,0,0,0,0,0,0,0,0,0,0,0,0,0,0,0.26,1146.17,2,0,0.1,0.1,235,10.71,0.1,0.08,21.8,FLYING,X10-F,0:/Integrated Flight Computer/aircraft/x10_f_cfg.ks (inferred preloaded)
22.08,APPROACH,FLY_TO_FIX,176.72,157.7,-19.02,1405.09,-0.73,8.41,8.64,248.17,-0.008,0,0,-7.158,1,0.6,4.5,2.8,0.35,0.0168,0.4,14.163,14.909,14.163,19.074,1,248.14,-0.075,0,0,-0.24,0.02,0,-0.07,248.14,0,0,0,0,0,0,0,40.864,0,0,0,3,0,0,0,2215.86,0,0,0,248.33,0,0,0,0,0,0,0,0,0,0,0,0,0,2,2,0,0,VALID,0,0,0,0,0,1,0,0,0,0,0,0,0,0,0,0,0,0,0,0,0.23,1142.7,2,0,0.08,0.08,238,10.71,0.1,0.08,22.08,FLYING,X10-F,0:/Integrated Flight Computer/aircraft/x10_f_cfg.ks (inferred preloaded)
22.36,APPROACH,FLY_TO_FIX,175.99,157.7,-18.29,1404.91,-0.73,8.51,8.74,248.17,-0.008,0,0,-7.051,1,0.6,4.5,2.808,0.35,0.0168,0.4,13.76,15.116,13.76,18.341,1,248.14,-0.074,0,0,-0.24,0.02,0,-0.07,248.14,0,0,0,0,0,0,0,40.814,0,0,0,3,0,0,0,2213.25,0,0,0,248.33,0,0,0,0,0,0,0,0,0,0,0,0,0,2,2,0,0,VALID,0,0,0,0,0,1,0,0,0,0,0,0,0,0,0,0,0,0,0,0,0.21,1139.23,2,0,0.1,0.1,241,10.71,0.1,0.08,22.36,FLYING,X10-F,0:/Integrated Flight Computer/aircraft/x10_f_cfg.ks (inferred preloaded)
22.64,APPROACH,FLY_TO_FIX,175.25,157.7,-17.55,1404.74,-0.73,8.61,8.83,248.17,-0.007,0,0,-6.945,1,0.6,4.5,2.816,0.35,0.0168,0.4,13.34,15.323,13.34,17.606,1,248.14,-0.072,0,0,-0.24,0.02,0,-0.07,248.14,0,0,0,0,0,0,0,40.764,0,0,0,3,0,0,0,2210.65,0,0,0,248.33,0,0,0,0,0,0,0,0,0,0,0,0,0,2,2,0,0,VALID,0,0,0,0,0,1,0,0,0,0,0,0,0,0,0,0,0,0,0,0,0.19,1135.77,2,0,0.08,0.08,244,10.71,0.1,0.08,22.64,FLYING,X10-F,0:/Integrated Flight Computer/aircraft/x10_f_cfg.ks (inferred preloaded)
22.92,APPROACH,FLY_TO_FIX,174.52,157.7,-16.82,1404.56,-0.74,8.71,8.94,248.17,-0.006,0,0,-6.842,1,0.6,4.5,2.824,0.35,0.0168,0.4,12.903,15.53,12.903,16.87,1,248.14,-0.071,0,0,-0.24,0.02,0,-0.07,248.14,0,0,0,0,0,0,0,40.715,0,0,0,3,0,0,0,2208.07,0,0,0,248.33,0,0,0,0,0,0,0,0,0,0,0,0,0,2,2,0,0,VALID,0,0,0,0,0,1,0,0,0,0,0,0,0,0,0,0,0,0,0,0,0.17,1132.31,2,0,0.1,0.1,247,10.71,0.1,0.08,22.92,FLYING,X10-F,0:/Integrated Flight Computer/aircraft/x10_f_cfg.ks (inferred preloaded)
23.2,APPROACH,FLY_TO_FIX,173.78,157.7,-16.08,1404.38,-0.74,8.81,9.04,248.17,-0.006,0,0,-6.74,1,0.6,4.5,2.832,0.35,0.0168,0.4,12.448,15.738,12.448,16.132,1,248.14,-0.069,0,0,-0.24,0.02,0,-0.07,248.14,0,0,0,0,0,0,0,40.666,0,0,0,3,0,0,0,2205.49,0,0,0,248.33,0,0,0,0,0,0,0,0,0,0,0,0,0,2,2,0,0,VALID,0,0,0,0,0,1,0,0,0,0,0,0,0,0,0,0,0,0,0,0,0.15,1128.85,2,0,0.08,0.08,250,10.71,0.1,0.08,23.2,FLYING,X10-F,0:/Integrated Flight Computer/aircraft/x10_f_cfg.ks (inferred preloaded)
23.48,APPROACH,FLY_TO_FIX,173.04,157.7,-15.34,1404.2,-0.74,8.91,9.14,248.16,-0.006,0,0,-6.639,1,0.6,4.5,2.839,0.35,0.0168,0.4,11.975,15.947,11.975,15.392,1,248.14,-0.068,0,0,-0.24,0.02,0,-0.07,248.14,0,0,0,0,0,0,0,40.617,0,0,0,3,0,0,0,2202.92,0,0,0,248.33,0,0,0,0,0,0,0,0,0,0,0,0,0,2,2,0,0,VALID,0,0,0,0,0,1,0,0,0,0,0,0,0,0,0,0,0,0,0,0,0.14,1125.39,2,0,0.1,0.1,253,10.71,0.1,0.08,23.48,FLYING,X10-F,0:/Integrated Flight Computer/aircraft/x10_f_cfg.ks (inferred preloaded)
23.76,APPROACH,FLY_TO_FIX,172.3,157.7,-14.6,1404.03,-0.74,9.01,9.25,248.16,-0.005,0,0,-6.54,1,0.6,4.5,2.847,0.35,0.0168,0.4,11.484,16.156,11.484,14.651,1,248.14,-0.067,0,0,-0.25,0.02,0,-0.07,248.14,0,0,0,0,0,0,0,40.568,0,0,0,3,0,0,0,2200.37,0,0,0,248.33,0,0,0,0,0,0,0,0,0,0,0,0,0,2,2,0,0,VALID,0,0,0,0,0,1,0,0,0,0,0,0,0,0,0,0,0,0,0,0,0.13,1121.93,2,0,0.08,0.08,256,10.71,0.1,0.08,23.76,FLYING,X10-F,0:/Integrated Flight Computer/aircraft/x10_f_cfg.ks (inferred preloaded)
24.04,APPROACH,FLY_TO_FIX,171.55,157.7,-13.85,1403.85,-0.74,9.12,9.35,248.16,-0.005,0,0,-6.442,1,0.6,4.5,2.854,0.35,0.0168,0.4,10.976,16.365,10.976,13.907,1,248.14,-0.065,0,0,-0.25,0.02,0,-0.06,248.14,0,0,0,0,0,0,0,40.519,0,0,0,3,0,0,0,2197.82,0,0,0,248.33,0,0,0,0,0,0,0,0,0,0,0,0,0,2,2,0,0,VALID,0,0,0,0,0,1,0,0,0,0,0,0,0,0,0,0,0,0,0,0,0.11,1118.48,2,0,0.1,0.1,259,10.71,0.1,0.08,24.04,FLYING,X10-F,0:/Integrated Flight Computer/aircraft/x10_f_cfg.ks (inferred preloaded)
24.32,APPROACH,FLY_TO_FIX,170.81,157.7,-13.11,1403.67,-0.74,9.23,9.46,248.16,-0.005,0,0,-6.346,1,0.6,4.5,2.862,0.35,0.0168,0.4,10.448,16.575,10.448,13.161,1,248.14,-0.064,0,0,-0.25,0.02,0,-0.06,248.14,0,0,0,0,0,0,0,40.471,0,0,0,3,0,0,0,2195.29,0,0,0,248.33,0,0,0,0,0,0,0,0,0,0,0,0,0,2,2,0,0,VALID,0,0,0,0,0,1,0,0,0,0,0,0,0,0,0,0,0,0,0,0,0,1115.01,2,0,0.08,0.08,262,10.71,0.1,0.08,24.32,FLYING,X10-F,0:/Integrated Flight Computer/aircraft/x10_f_cfg.ks (inferred preloaded)
24.6,APPROACH,FLY_TO_FIX,170.06,157.7,-12.36,1403.5,-0.75,9.34,9.58,248.16,-0.005,0,0,-6.252,1,0.6,4.5,2.869,0.35,0.0168,0.4,9.902,16.786,9.902,12.413,1,248.14,-0.062,0,0,-0.25,0.02,0,-0.06,248.14,0,0,0,0,0,0,0,40.423,0,0,0,3,0,0,0,2192.76,0,0,0,248.33,0,0,0,0,0,0,0,0,0,0,0,0,0,2,2,0,0,VALID,0,0,0,0,0,1,0,0,0,0,0,0,0,0,0,0,0,0,0,0,0,1111.55,2,0,0.1,0.1,265,10.71,0.1,0.08,24.6,FLYING,X10-F,0:/Integrated Flight Computer/aircraft/x10_f_cfg.ks (inferred preloaded)
24.88,APPROACH,FLY_TO_FIX,169.31,157.7,-11.61,1403.32,-0.75,9.45,9.69,248.16,-0.005,0,0,-7.122,1,0.6,4.5,2.877,0.35,0.0168,0.4,9.337,16.998,9.337,11.662,1,248.14,-0.061,0,0,-0.25,0.02,0,-0.06,248.14,0,0,0,0,0,0,0,40.375,0,0,0,3,0,0,0,2190.24,0,0,0,248.33,0,0,0,0,0,0,0,0,0,0,0,0,0,2,2,0,0,VALID,0,0,0,0,0,1,0,0,0,0,0,0,0,0,0,0,0,0,0,0,0,1108.09,2,0,0.08,0.08,268,10.71,0.1,0.08,24.88,FLYING,X10-F,0:/Integrated Flight Computer/aircraft/x10_f_cfg.ks (inferred preloaded)
25.16,APPROACH,FLY_TO_FIX,168.55,157.7,-10.85,1403.14,-0.75,9.56,9.8,248.16,-0.005,0.0033,0,-10.246,1,0.6,4.5,2.885,0.35,0.0168,0.4,8.752,17.21,8.752,10.908,1,248.14,-0.06,0,0,-0.25,0.02,0,-0.06,248.14,0,0,0,0,0,0,0,40.327,0,0,0,3,0,0,0,2187.74,0,0,0,248.33,0,0,0,0,0,0,0,0,0,0,0,0,0,2,2,0,0,VALID,0,0,0,0,0,1,0,0,0,0,0,0,0,0,0,0,0,0,0,0,0.04,1104.62,2,0,0.1,0.1,271,10.71,0.1,0.08,25.16,FLYING,X10-F,0:/Integrated Flight Computer/aircraft/x10_f_cfg.ks (inferred preloaded)
25.44,APPROACH,FLY_TO_FIX,167.8,157.7,-10.1,1402.96,-0.75,9.68,9.92,248.16,-0.004,0.0105,0,-13.159,1,0.6,4.5,2.894,0.35,0.0168,0.4,8.148,17.424,8.148,10.152,1,248.14,-0.058,0,0,-0.26,0.02,0,-0.06,248.14,0,0,0,0,0,0,0,40.279,0,0,0,3,0,0,0,2185.25,0,0,0,248.33,0,0,0,0,0,0,0,0,0,0,0,0,0,2,2,0,0,VALID,0,0,0,0,0,1,0,0,0,0,0,0,0,0,0,0,0,0,0,0,0.34,1101.15,2,0,0.08,0.08,274,10.71,0.1,0.08,25.44,FLYING,X10-F,0:/Integrated Flight Computer/aircraft/x10_f_cfg.ks (inferred preloaded)
25.72,APPROACH,FLY_TO_FIX,167.04,157.7,-9.34,1402.79,-0.75,9.79,10.04,248.16,-0.005,0.0208,0,-15.86,1,0.6,4.5,2.902,0.35,0.0168,0.4,7.526,17.637,7.526,9.394,1,248.14,-0.057,0,0,-0.26,0.02,0,-0.06,248.14,0,0,0,0,0,0,0,40.232,0,0,0,3,0,0,0,2182.76,0,0,0,248.33,0,0,0,0,0,0,0,0,0,0,0,0,0,2,2,0,0,VALID,0,0,0,0,0,1,0,0,0,0,0,0,0,0,0,0,0,0,0,0,1.1,1097.68,2,0,0.1,0.1,277,10.71,0.1,0.08,25.72,FLYING,X10-F,0:/Integrated Flight Computer/aircraft/x10_f_cfg.ks (inferred preloaded)
26,APPROACH,FLY_TO_FIX,166.28,157.7,-8.58,1402.61,-0.75,9.91,10.16,248.16,-0.005,0.0337,0,-18.348,1,0.6,4.5,2.91,0.35,0.0168,0.4,6.885,17.851,6.885,8.635,1,248.14,-0.056,0,0,-0.26,0.02,0,-0.06,248.14,0,0,0,0,0,0,0,40.185,0,0,0,3,0,0,0,2180.29,0,0,0,248.33,0,0,0,0,0,0,0,0,0,0,0,0,0,2,2,0,0,VALID,0,0,0,0,0,1,0,0,0,0,0,0,0,0,0,0,0,0,0,0,2.48,1094.22,2,0,0.08,0.08,280,10.71,0.1,0.08,26,FLYING,X10-F,0:/Integrated Flight Computer/aircraft/x10_f_cfg.ks (inferred preloaded)
26.28,APPROACH,FLY_TO_FIX,165.52,157.7,-7.82,1402.43,-0.75,10.03,10.28,248.16,-0.006,0.0591,0,-20,1,0.6,4.5,2.918,0.35,0.0168,0.4,6.228,18.064,6.228,7.878,1,248.14,-0.055,0,0,-0.26,0.02,0,-0.05,248.14,0,0,0,0,0,0,0,40.138,0,0,0,3,0,0,0,2177.83,0,0,0,248.33,0,0,0,0,0,0,0,0,0,0,0,0,0,2,2,0,0,VALID,0,0,0,0,0,1,0,0,0,0,0,0,0,0,0,0,0,0,0,0,4.58,1090.78,2,0,0.1,0.1,283,10.71,0.1,0.08,26.28,FLYING,X10-F,0:/Integrated Flight Computer/aircraft/x10_f_cfg.ks (inferred preloaded)
26.56,APPROACH,FLY_TO_FIX,164.77,157.7,-7.07,1402.26,-0.75,10.15,10.4,248.16,-0.006,0.1095,0,-20,1,0.6,4.5,2.922,0.35,0.0168,0.4,1.489,18.277,0,7.124,1,248.14,-0.054,0,0,-0.26,0.02,0,-0.05,248.14,0,0,0,0,0,0,0,40.091,0,0,0,3,0,0,0,2175.38,0,0,0,248.33,0,0,0,0,0,0,0,0,0,0,0,0,0,2,2,0,0,VALID,0,0,0,0,0,1,0,0,0,0,0,0,0,0,0,0,0,0,0,0,8.62,1087.36,2,0,0.08,0.08,286,10.71,0.1,0.08,26.56,FLYING,X10-F,0:/Integrated Flight Computer/aircraft/x10_f_cfg.ks (inferred preloaded)
26.84,APPROACH,FLY_TO_FIX,164.03,157.7,-6.33,1402.08,-0.75,10.26,10.51,248.16,-0.007,0.1532,0,-20,1,0.6,4.5,2.922,0.35,0.0168,0.4,0,18.486,0,6.381,0,248.14,-0.054,0,0,-0.26,0.02,0,-0.05,248.14,0,0,0,0,0,0,0,40.045,0,0,0,3,0,0,0,2172.93,0,0,0,248.33,0,0,0,0,0,0,0,0,0,0,0,0,0,2,2,0,0,VALID,0,0,0,0,0,1,0,0,0,0,0,0,0,0,0,0,0,0,0,0,15.33,1084.01,2,0,0.1,0.1,289,10.71,0.1,0.08,26.84,FLYING,X10-F,0:/Integrated Flight Computer/aircraft/x10_f_cfg.ks (inferred preloaded)
27.12,APPROACH,FLY_TO_FIX,163.31,157.7,-5.61,1401.9,-0.75,10.37,10.62,248.16,-0.007,0.1872,0,-20,1,0.6,4.5,2.922,0.35,0.0168,0.4,0,18.69,0,5.658,0,248.14,-0.054,0,0,-0.26,0.02,0,-0.05,248.14,0,0,0,0,0,0,0,39.998,0,0,0,3,0,0,0,2170.5,0,0,0,248.33,0,0,0,0,0,0,0,0,0,0,0,0,0,2,2,0,0,VALID,0,0,0,0,0,1,0,0,0,0,0,0,0,0,0,0,0,0,0,0,24.05,1080.76,2,0,0.08,0.08,292,10.71,0.1,0.08,27.12,FLYING,X10-F,0:/Integrated Flight Computer/aircraft/x10_f_cfg.ks (inferred preloaded)
27.4,APPROACH,FLY_TO_FIX,162.61,157.7,-4.91,1401.72,-0.74,10.47,10.71,248.16,-0.006,0.2144,0,-20,1,0.6,4.5,2.922,0.35,0.0168,0.4,0,18.887,0,4.958,0,248.14,-0.054,0,0,-0.26,0.02,0,-0.05,248.14,0,0,0,0,0,0,0,39.952,0,0,0,3,0,0,0,2168.08,0,0,0,248.33,0,0,0,0,0,0,0,0,0,0,0,0,0,2,2,0,0,VALID,0,0,0,0,0,1,0,0,0,0,0,0,0,0,0,0,0,0,0,0,34.14,1077.61,2,0,0.1,0.1,295,10.71,0.1,0.08,27.4,FLYING,X10-F,0:/Integrated Flight Computer/aircraft/x10_f_cfg.ks (inferred preloaded)
27.68,APPROACH,FLY_TO_FIX,161.94,157.7,-4.24,1401.54,-0.74,10.56,10.8,248.16,-0.006,0.2339,0,-20,1,0.6,4.5,2.922,0.35,0.0168,0.4,0,19.078,0,4.283,0,248.14,-0.055,0,0,-0.26,0.02,0,-0.05,248.14,0,0,0,0,0,0,0,39.906,0,0,0,3,0,0,0,2165.67,0,0,0,248.33,0,0,0,0,0,0,0,0,0,0,0,0,0,2,2,0,0,VALID,0,0,0,0,0,1,0,0,0,0,0,0,0,0,0,0,0,0,0,0,45.11,1074.6,2,0,0.08,0.08,298,10.71,0.1,0.08,27.68,FLYING,X10-F,0:/Integrated Flight Computer/aircraft/x10_f_cfg.ks (inferred preloaded)
27.96,APPROACH,FLY_TO_FIX,161.29,157.7,-3.59,1401.36,-0.73,10.65,10.89,248.16,-0.005,0.2477,0,-20,1,0.6,4.5,2.922,0.35,0.0168,0.4,0,19.259,0,3.637,0,248.14,-0.056,0,0,-0.26,0.02,0,-0.05,248.14,0,0,0,0,0,0,0,39.86,0,0,0,3,0,0,0,2163.27,0,0,0,248.33,0,0,0,0,0,0,0,0,0,0,0,0,0,2,2,0,0,VALID,0,0,0,0,0,1,0,0,0,0,0,0,0,0,0,0,0,0,0,0,56.45,1071.72,2,0,0.1,0.1,301,10.71,0.1,0.08,27.96,FLYING,X10-F,0:/Integrated Flight Computer/aircraft/x10_f_cfg.ks (inferred preloaded)
28.24,APPROACH,FLY_TO_FIX,160.68,157.7,-2.98,1401.17,-0.73,10.73,10.97,248.16,-0.005,0.2558,0,-20,1,0.6,4.5,2.922,0.35,0.0168,0.4,0,19.433,0,3.022,0,248.14,-0.056,0,0,-0.26,0.02,0,-0.06,248.14,0,0,0,0,0,0,0,39.814,0,0,0,3,0,0,0,2160.87,0,0,0,248.33,0,0,0,0,0,0,0,0,0,0,0,0,0,2,2,0,0,VALID,0,0,0,0,0,1,0,0,0,0,0,0,0,0,0,0,0,0,0,0,67.86,1068.99,2,0,0.08,0.08,304,10.71,0.1,0.08,28.24,FLYING,X10-F,0:/Integrated Flight Computer/aircraft/x10_f_cfg.ks (inferred preloaded)
28.52,APPROACH,FLY_TO_FIX,160.1,157.7,-2.4,1400.99,-0.72,10.8,11.04,248.16,-0.005,0.2608,0,-20,1,0.6,4.5,2.922,0.35,0.0168,0.4,0,19.598,0,2.437,0,248.14,-0.057,0,0,-0.26,0.02,0,-0.06,248.14,0,0,0,0,0,0,0,39.769,0,0,0,3,0,0,0,2158.49,0,0,0,248.33,0,0,0,0,0,0,0,0,0,0,0,0,0,2,2,0,0,VALID,0,0,0,0,0,1,0,0,0,0,0,0,0,0,0,0,0,0,0,0,78.98,1066.4,2,0,0.1,0.1,307,10.71,0.1,0.08,28.52,FLYING,X10-F,0:/Integrated Flight Computer/aircraft/x10_f_cfg.ks (inferred preloaded)
28.8,APPROACH,FLY_TO_FIX,159.54,157.7,-1.84,1400.81,-0.72,10.87,11.11,248.16,-0.005,0.2627,0,-20,1,0.6,4.5,2.922,0.35,0.0168,0.4,0,19.754,0,1.881,0,248.14,-0.058,0,0,-0.26,0.02,0,-0.06,248.14,0,0,0,0,0,0,0,39.723,0,0,0,3,0,0,0,2156.11,0,0,0,248.33,0,0,0,0,0,0,0,0,0,0,0,0,0,2,2,0,0,VALID,0,0,0,0,0,1,0,0,0,0,0,0,0,0,0,0,0,0,0,0,89.72,1063.95,2,0,0.08,0.08,310,10.71,0.1,0.08,28.8,FLYING,X10-F,0:/Integrated Flight Computer/aircraft/x10_f_cfg.ks (inferred preloaded)
29.08,APPROACH,FLY_TO_FIX,159.02,157.7,-1.32,1400.63,-0.71,10.94,11.18,248.16,-0.005,0.2637,0,-20,1,0.6,4.5,2.922,0.35,0.0168,0.4,0,19.903,0,1.354,0,248.14,-0.059,0,0,-0.26,0.02,0,-0.06,248.14,0,0,0,0,0,0,0,39.678,0,0,0,3,0,0,0,2153.74,0,0,0,248.33,0,0,0,0,0,0,0,0,0,0,0,0,0,2,2,0,0,VALID,0,0,0,0,0,1,0,0,0,0,0,0,0,0,0,0,0,0,0,0,99.88,1061.63,2,0,0.1,0.1,313,10.71,0.1,0.08,29.08,FLYING,X10-F,0:/Integrated Flight Computer/aircraft/x10_f_cfg.ks (inferred preloaded)
29.36,APPROACH,FLY_TO_FIX,158.52,157.7,-0.82,1400.45,-0.7,11.01,11.24,248.16,-0.004,0.2633,0,-20,1,0.6,4.5,2.922,0.35,0.0168,0.4,0,20.044,0,0.855,0,248.14,-0.06,0,0,-0.25,0.02,0,-0.06,248.14,0,0,0,0,0,0,0,39.633,0,0,0,3,0,0,0,2151.38,0,0,0,248.33,0,0,0,0,0,0,0,0,0,0,0,0,0,2,2,0,0,VALID,0,0,0,0,0,1,0,0,0,0,0,0,0,0,0,0,0,0,0,0,109.51,1059.43,2,0,0.08,0.08,316,10.71,0.1,0.08,29.36,FLYING,X10-F,0:/Integrated Flight Computer/aircraft/x10_f_cfg.ks (inferred preloaded)
29.64,APPROACH,FLY_TO_FIX,158.05,157.7,-0.35,1400.27,-0.7,11.07,11.3,248.16,-0.003,0.2631,0,-20,1,0.6,4.5,2.922,0.35,0.0168,0.4,0,20.177,0,0.381,0,248.14,-0.06,0,0,-0.25,0.02,0,-0.06,248.14,0,0,0,0,0,0,0,39.588,0,0,0,3,0,0,0,2149.02,0,0,0,248.33,0,0,0,0,0,0,0,0,0,0,0,0,0,2,2,0,0,VALID,0,0,0,0,0,1,0,0,0,0,0,0,0,0,0,0,0,0,0,0,118.53,1057.35,2,0,0.1,0.1,319,10.71,0.1,0.08,29.64,FLYING,X10-F,0:/Integrated Flight Computer/aircraft/x10_f_cfg.ks (inferred preloaded)
29.92,APPROACH,FLY_TO_FIX,157.6,157.7,0.1,1400.1,-0.69,11.12,11.36,248.16,-0.003,0.2626,0,-19.994,1,0.6,4.5,2.922,0.35,0.0168,0.4,0,20.304,0,-0.069,0,248.14,-0.061,0,0,-0.25,0.02,0,-0.06,248.14,0,0,0,0,0,0,0,39.543,0,0,0,3,0,0,0,2146.67,0,0,0,248.33,0,0,0,0,0,0,0,0,0,0,0,0,0,2,2,0,0,VALID,0,0,0,0,0,1,0,0,0,0,0,0,0,0,0,0,0,0,0,0,127.03,1055.38,2,0,0.08,0.08,322,10.71,0.1,0.08,29.92,FLYING,X10-F,0:/Integrated Flight Computer/aircraft/x10_f_cfg.ks (inferred preloaded)
30.2,APPROACH,FLY_TO_FIX,157.17,157.7,0.53,1399.92,-0.69,11.18,11.41,248.16,-0.002,0.2644,0,-19.895,1,0.6,4.5,2.922,0.35,0.0168,0.4,0,20.424,0,-0.496,0,248.14,-0.062,0,0,-0.25,0.02,0,-0.06,248.14,0,0,0,0,0,0,0,39.499,0,0,0,3,0,0,0,2144.32,0,0,0,248.33,0,0,0,0,0,0,0,0,0,0,0,0,0,2,2,0,0,VALID,0,0,0,0,0,1,0,0,0,0,0,0,0,0,0,0,0,0,0,0,135.01,1053.52,2,0,0.1,0.1,325,10.71,0.1,0.08,30.2,FLYING,X10-F,0:/Integrated Flight Computer/aircraft/x10_f_cfg.ks (inferred preloaded)
30.54,APPROACH,FLY_TO_FIX,156.71,157.7,0.99,1399.71,-0.68,11.24,11.47,248.16,-0.004,0.2613,0,-19.637,1,0.6,4.5,2.922,0.35,0.0168,0.4,0,20.555,0,-0.961,0,248.14,-0.063,0,0,-0.25,0.02,0,-0.06,248.14,0,0,0,0,0,0,0,39.447,0,0,0,3,0,0,0,2141.61,0,0,0,248.33,0,0,0,0,0,0,0,0,0,0,0,0,0,2,2,0,0,VALID,0,0,0,0,0,1,0,0,0,0,0,0,0,0,0,0,0,0,0,0,144.07,1051.49,2,0,0.083,0.083,329,11.92,0.1,0.061,30.54,FLYING,X10-F,0:/Integrated Flight Computer/aircraft/x10_f_cfg.ks (inferred preloaded)
30.85,APPROACH,FLY_TO_FIX,156.32,157.7,1.38,1399.51,-0.68,11.3,11.53,248.16,-0.02,0.2552,0,-19.261,1,0.6,4.5,2.922,0.35,0.0168,0.4,0,20.665,0,-1.35,0,248.14,-0.063,0,0,-0.25,0.02,0,-0.06,248.14,0,0,0,0,0,0,0,39.398,0,0,0,3,0,0,0,2139.03,0,0,0,248.33,0,0,0,0,0,0,0,0,0,0,0,0,0,2,2,0,0,VALID,0,0,0,0,0,1,0,0,0,0,0,0,0,0,0,0,0,0,0,0,151.34,1049.77,2,0,0.105,0.105,332,9.6,0.105,0.083,30.85,FLYING,X10-F,0:/Integrated Flight Computer/aircraft/x10_f_cfg.ks (inferred preloaded)
31.2,APPROACH,FLY_TO_FIX,155.89,157.7,1.81,1399.29,-0.67,11.36,11.59,248.15,-0.036,0.2682,0,-18.703,1,0.6,4.5,2.922,0.35,0.0168,0.4,0,20.784,0,-1.772,0,248.14,-0.064,0,0,-0.25,0.02,0,-0.06,248.14,0,0,0,0,0,0,0,39.344,0,0,0,3,0,0,0,2136.2,0,0,0,248.33,0,0,0,0,0,0,0,0,0,0,0,0,0,2,2,0,0,VALID,0,0,0,0,0,1,0,0,0,0,0,0,0,0,0,0,0,0,0,0,159.27,1047.92,2,0,0.122,0.122,335,8.59,0.122,0.105,31.2,FLYING,X10-F,0:/Integrated Flight Computer/aircraft/x10_f_cfg.ks (inferred preloaded)
31.46,APPROACH,FLY_TO_FIX,155.59,157.7,2.11,1399.13,-0.66,11.4,11.62,248.15,-0.052,0.2819,0,-18.196,1,0.6,4.5,2.922,0.35,0.0168,0.4,0,20.869,0,-2.073,0,248.14,-0.067,0,0,-0.24,0.02,0,-0.06,248.14,0,0,0,0,0,0,0,39.303,0,0,0,3,0,0,0,2134.1,0,0,0,248.33,0,0,0,0,0,0,0,0,0,0,0,0,0,2,2,0,0,VALID,0,0,0,0,0,1,0,0,0,0,0,0,0,0,0,0,0,0,0,0,165.44,1046.61,2,0,0.13,0.13,337,7.63,0.13,0.122,31.46,FLYING,X10-F,0:/Integrated Flight Computer/aircraft/x10_f_cfg.ks (inferred preloaded)
31.74,APPROACH,FLY_TO_FIX,155.27,157.7,2.43,1398.96,-0.65,11.43,11.67,248.15,-0.053,0.2975,0,-17.55,1,0.6,4.5,2.922,0.35,0.0168,0.4,0,20.958,0,-2.388,0,248.14,-0.064,0,0,-0.24,0.01,0,-0.06,248.14,0,0,0,0,0,0,0,39.259,0,0,0,3,0,0,0,2131.78,0,0,0,248.33,0,0,0,0,0,0,0,0,0,0,0,0,0,2,2,0,0,VALID,0,0,0,0,0,1,0,0,0,0,0,0,0,0,0,0,0,0,0,0,172.37,1045.23,2,0,0.14,0.14,339,7.14,0.14,0.13,31.74,FLYING,X10-F,0:/Integrated Flight Computer/aircraft/x10_f_cfg.ks (inferred preloaded)
32.02,APPROACH,FLY_TO_FIX,154.96,157.7,2.74,1398.78,-0.65,11.47,11.69,248.15,-0.049,0.3194,0,-16.815,1,0.6,4.5,2.922,0.35,0.0168,0.4,0,21.046,0,-2.701,0,248.14,-0.067,0,0,-0.24,0.01,0,-0.07,248.14,0,0,0,0,0,0,0,39.215,0,0,0,3,0,0,0,2129.47,0,0,0,248.33,0,0,0,0,0,0,0,0,0,0,0,0,0,2,2,0,0,VALID,0,0,0,0,0,1,0,0,0,0,0,0,0,0,0,0,0,0,0,0,179.89,1043.89,2,0,0.14,0.14,341,7.14,0.14,0.14,32.02,FLYING,X10-F,0:/Integrated Flight Computer/aircraft/x10_f_cfg.ks (inferred preloaded)
32.3,APPROACH,FLY_TO_FIX,154.67,157.7,3.03,1398.61,-0.65,11.49,11.71,248.15,-0.044,0.336,0,-15.997,1,0.6,4.5,2.922,0.35,0.0168,0.4,0,21.128,0,-2.993,0,248.14,-0.068,0,0,-0.24,0.01,0,-0.07,248.14,0,0,0,0,0,0,0,39.171,0,0,0,3,0,0,0,2127.16,0,0,0,248.33,0,0,0,0,0,0,0,0,0,0,0,0,0,2,2,0,0,VALID,0,0,0,0,0,1,0,0,0,0,0,0,0,0,0,0,0,0,0,0,188.18,1042.64,2,0,0.14,0.14,343,7.14,0.14,0.14,32.3,FLYING,X10-F,0:/Integrated Flight Computer/aircraft/x10_f_cfg.ks (inferred preloaded)
32.58,APPROACH,FLY_TO_FIX,154.41,157.7,3.29,1398.43,-0.64,11.52,11.74,248.15,-0.04,0.3483,0,-15.102,1,0.6,4.5,2.922,0.35,0.0168,0.4,0,21.204,0,-3.262,0,248.14,-0.069,0,0,-0.24,0.01,0,-0.07,248.14,0,0,0,0,0,0,0,39.127,0,0,0,3,0,0,0,2124.86,0,0,0,248.33,0,0,0,0,0,0,0,0,0,0,0,0,0,2,2,0,0,VALID,0,0,0,0,0,1,0,0,0,0,0,0,0,0,0,0,0,0,0,0,196.91,1041.49,2,0,0.14,0.14,345,7.14,0.14,0.14,32.58,FLYING,X10-F,0:/Integrated Flight Computer/aircraft/x10_f_cfg.ks (inferred preloaded)
32.86,APPROACH,FLY_TO_FIX,154.16,157.7,3.54,1398.26,-0.64,11.54,11.75,248.15,-0.035,0.357,0,-14.137,1,0.6,4.5,2.922,0.35,0.0168,0.4,0,21.273,0,-3.507,0,248.14,-0.069,0,0,-0.24,0.01,0,-0.07,248.14,0,0,0,0,0,0,0,39.083,0,0,0,3,0,0,0,2122.56,0,0,0,248.33,0,0,0,0,0,0,0,0,0,0,0,0,0,2,2,0,0,VALID,0,0,0,0,0,1,0,0,0,0,0,0,0,0,0,0,0,0,0,0,205.83,1040.45,2,0,0.14,0.14,347,7.14,0.14,0.14,32.86,FLYING,X10-F,0:/Integrated Flight Computer/aircraft/x10_f_cfg.ks (inferred preloaded)
33.14,APPROACH,FLY_TO_FIX,153.95,157.7,3.75,1398.09,-0.63,11.55,11.77,248.15,-0.032,0.3626,0,-13.108,1,0.6,4.5,2.922,0.35,0.0168,0.4,0,21.335,0,-3.726,0,248.14,-0.07,0,0,-0.23,0.01,0,-0.07,248.14,0,0,0,0,0,0,0,39.039,0,0,0,3,0,0,0,2120.26,0,0,0,248.33,0,0,0,0,0,0,0,0,0,0,0,0,0,2,2,0,0,VALID,0,0,0,0,0,1,0,0,0,0,0,0,0,0,0,0,0,0,0,0,214.73,1039.51,2,0,0.14,0.14,349,7.14,0.14,0.14,33.14,FLYING,X10-F,0:/Integrated Flight Computer/aircraft/x10_f_cfg.ks (inferred preloaded)
33.42,APPROACH,FLY_TO_FIX,153.76,157.7,3.94,1397.91,-0.62,11.56,11.78,248.15,-0.029,0.3658,0,-12.024,1,0.6,4.5,2.922,0.35,0.0168,0.4,0,21.39,0,-3.921,0,248.14,-0.071,0,0,-0.23,0.01,0,-0.07,248.14,0,0,0,0,0,0,0,38.996,0,0,0,3,0,0,0,2117.96,0,0,0,248.33,0,0,0,0,0,0,0,0,0,0,0,0,0,2,2,0,0,VALID,0,0,0,0,0,1,0,0,0,0,0,0,0,0,0,0,0,0,0,0,223.44,1038.69,2,0,0.14,0.14,351,7.14,0.14,0.14,33.42,FLYING,X10-F,0:/Integrated Flight Computer/aircraft/x10_f_cfg.ks (inferred preloaded)
33.7,APPROACH,FLY_TO_FIX,153.59,157.7,4.11,1397.74,-0.62,11.57,11.78,248.15,-0.026,0.3672,0,-10.89,1,0.6,4.5,2.922,0.35,0.0168,0.4,0,21.437,0,-4.091,0,248.14,-0.072,0,0,-0.23,0.01,0,-0.07,248.14,0,0,0,0,0,0,0,38.952,0,0,0,3,0,0,0,2115.67,0,0,0,248.33,0,0,0,0,0,0,0,0,0,0,0,0,0,2,2,0,0,VALID,0,0,0,0,0,1,0,0,0,0,0,0,0,0,0,0,0,0,0,0,231.84,1037.98,2,0,0.14,0.14,353,7.14,0.14,0.14,33.7,FLYING,X10-F,0:/Integrated Flight Computer/aircraft/x10_f_cfg.ks (inferred preloaded)
33.98,APPROACH,FLY_TO_FIX,153.45,157.7,4.25,1397.57,-0.61,11.57,11.78,248.15,-0.022,0.3673,0,-9.713,1,0.6,4.5,2.922,0.35,0.0168,0.4,0,21.478,0,-4.236,0,248.14,-0.073,0,0,-0.23,0.01,0,-0.07,248.14,0,0,0,0,0,0,0,38.908,0,0,0,3,0,0,0,2113.38,0,0,0,248.33,0,0,0,0,0,0,0,0,0,0,0,0,0,2,2,0,0,VALID,0,0,0,0,0,1,0,0,0,0,0,0,0,0,0,0,0,0,0,0,239.86,1037.37,2,0,0.14,0.14,355,7.14,0.14,0.14,33.98,FLYING,X10-F,0:/Integrated Flight Computer/aircraft/x10_f_cfg.ks (inferred preloaded)
34.26,APPROACH,FLY_TO_FIX,153.33,157.7,4.37,1397.4,-0.6,11.57,11.78,248.15,-0.021,0.3666,0,-8.501,1,0.6,4.5,2.922,0.35,0.0168,0.4,0,21.513,0,-4.358,0,248.14,-0.074,0,0,-0.23,0.01,0,-0.07,248.14,0,0,0,0,0,0,0,38.864,0,0,0,3,0,0,0,2111.09,0,0,0,248.33,0,0,0,0,0,0,0,0,0,0,0,0,0,2,2,0,0,VALID,0,0,0,0,0,1,0,0,0,0,0,0,0,0,0,0,0,0,0,0,247.44,1036.87,2,0,0.14,0.14,357,7.14,0.14,0.14,34.26,FLYING,X10-F,0:/Integrated Flight Computer/aircraft/x10_f_cfg.ks (inferred preloaded)
34.54,APPROACH,FLY_TO_FIX,153.23,157.7,4.47,1397.23,-0.6,11.57,11.77,248.15,-0.02,0.3654,0,-7.26,1,0.6,4.5,2.922,0.35,0.0168,0.4,0,21.541,0,-4.458,0,248.14,-0.075,0,0,-0.22,0.01,0,-0.07,248.14,0,0,0,0,0,0,0,38.821,0,0,0,3,0,0,0,2108.8,0,0,0,248.33,0,0,0,0,0,0,0,0,0,0,0,0,0,2,2,0,0,VALID,0,0,0,0,0,1,0,0,0,0,0,0,0,0,0,0,0,0,0,0,254.58,1036.46,2,0,0.14,0.14,359,7.14,0.14,0.14,34.54,FLYING,X10-F,0:/Integrated Flight Computer/aircraft/x10_f_cfg.ks (inferred preloaded)
34.82,APPROACH,FLY_TO_FIX,153.16,157.7,4.54,1397.06,-0.59,11.56,11.76,248.15,-0.019,0.3641,0,-5.995,1,0.6,4.5,2.922,0.35,0.0168,0.4,0,21.563,0,-4.536,0,248.14,-0.076,0,0,-0.22,0.01,0,-0.07,248.14,0,0,0,0,0,0,0,38.777,0,0,0,3,0,0,0,2106.52,0,0,0,248.33,0,0,0,0,0,0,0,0,0,0,0,0,0,2,2,0,0,VALID,0,0,0,0,0,1,0,0,0,0,0,0,0,0,0,0,0,0,0,0,261.27,1036.14,2,0,0.14,0.14,361,7.14,0.14,0.14,34.82,FLYING,X10-F,0:/Integrated Flight Computer/aircraft/x10_f_cfg.ks (inferred preloaded)
35.1,APPROACH,FLY_TO_FIX,153.1,157.7,4.6,1396.89,-0.59,11.55,11.75,248.15,-0.018,0.3628,0,-4.712,1,0.6,4.5,2.922,0.35,0.0168,0.4,0,21.579,0,-4.595,0,248.14,-0.077,0,0,-0.22,0.02,0,-0.07,248.14,0,0,0,0,0,0,0,38.734,0,0,0,3,0,0,0,2104.23,0,0,0,248.33,0,0,0,0,0,0,0,0,0,0,0,0,0,2,2,0,0,VALID,0,0,0,0,0,1,0,0,0,0,0,0,0,0,0,0,0,0,0,0,267.54,1035.9,2,0,0.14,0.14,363,7.14,0.14,0.14,35.1,FLYING,X10-F,0:/Integrated Flight Computer/aircraft/x10_f_cfg.ks (inferred preloaded)
