t_s,phase,subphase,ias_ms,vapp_ms,spd_err_ms,agl_m,vs_ms,pitch_deg,aoa_deg,hdg_deg,bank_deg,thr_cmd,thr_cur,thr_intg,at_gain,at_tau_s,at_a_up,at_a_dn,at_kp_thr,at_ki_spd,at_thr_slew,as_cmd_deg,as_cap_deg,as_raw_deg,as_spd_err_ms,as_active,aa_hdg_cmd_deg,aa_fpa_cmd_deg,aa_fbw,aa_dir,actual_fpa_deg,ftf_hdg_err_deg,ftf_fix_idx,kos_steer_pit_deg,kos_steer_hdg_deg,aa_dir_vx,aa_dir_vy,aa_dir_vz,aa_dir_pitch_deg,aa_dir_hdg_deg,ils_loc_m,ils_gs_m,ils_dist_km,loc_corr_deg,gs_corr_deg,gs_latched,active_gs_ang_deg,ils_intercept_alt_m,d_gs_ms,fpa_preclamped_deg,gs_nom_alt_m,flare_fpa_cmd,flare_tgt_vs,flare_frac,steer_hdg_deg,steer_blend,ro_loc_corr_deg,ro_hdg_err_deg,ro_yaw_tgt,ro_yaw_scale,ro_yaw_gate,yaw_cmd,roll_cmd,pitch_cmd,ro_pitch_tgt_deg,ro_pitch_err_deg,ro_pitch_ff,ro_roll_assist,flaps_cur,flaps_tgt,asc_j_ab,asc_j_rk,asc_validity,asc_q_pa,asc_q_raw_pa,asc_mach,asc_apo_m,asc_drag_n,asc_w_prop,asc_edot_aero,asc_edot_orb,asc_pitch_bias,asc_blend,asc_spooling,asc_ab_thr_ratio,asc_ab_t_now,asc_ab_t_avail,asc_ab_ign_on,asc_ab_flameouts,asc_rk_t_now,asc_rk_t_avail,asc_rk_ign_on,asc_rk_flameouts,ship_thrust,ship_avail_thrust,ship_ign_on,ship_flameouts,ifc_raw_dt_s,ifc_dt_s,ifc_loop_n,ifc_hz_est,ifc_raw_dt_max_s,ifc_raw_dt_min_s,phase_el_s,status,craft_name,cfg_file
0.22,APPROACH,FLY_TO_FIX,138.95,75.14,-63.8,1500.92,0.18,0.46,0.4,269.73,0.592,0,0,0,1,0.6,0.9,0.75,0.35,0.0168,0.4,4.5,34.316,34.316,63.801,1,280.97,1.804,1,0,0.07,11.25,0,0,90,0,0,0,0,0,0,0,49.865,0,0,0,4,0,0,0,3561.22,0,0,0,269.72,0,0,0,0,0,0,0,0,0,0,0,0,0,0,0,0,0,VALID,0,0,0,0,0,1,0,0,0,0,0,0,0,0,0,0,0,0,0,0,31.3,337.26,2,0,0.18,0.18,1,3.45,0.18,0.02,0.24,FLYING,CF1-J,0:/Integrated Flight Computer/aircraft/cf1_j_cfg.ks (inferred preloaded)
0.52,APPROACH,FLY_TO_FIX,138.92,75.38,-63.54,1501.02,0.3,0.76,0.67,269.77,1.042,0,0,0,1,0.6,1.544,0.75,0.35,0.0168,0.4,12,34.322,34.322,63.542,1,281,1.779,0,0,0.11,11.23,0,1.81,280.99,0,0,0,0,0,0,0,49.822,0,0,0,4,0,0,0,3558.21,0,0,0,269.72,0,0,0,0,0,0,0,0,0,0,0,0,0,0,0,0,0,VALID,0,0,0,0,0,1,0,0,0,0,0,0,0,0,0,0,0,0,0,0,31.81,337.27,2,0,0.1,0.1,4,10,0.18,0.08,0.52,FLYING,CF1-J,0:/Integrated Flight Computer/aircraft/cf1_j_cfg.ks (inferred preloaded)
0.78,APPROACH,FLY_TO_FIX,138.83,75.59,-63.24,1501.15,0.51,0.88,0.71,269.93,3.333,0,0,0,1,0.6,2.407,0.75,0.35,0.0168,0.4,18.5,34.348,34.348,63.249,1,281.02,1.713,0,0,0.2,11.09,0,1.74,281.01,0,0,0,0,0,0,0,49.783,0,0,0,4,0,0,0,3555.43,0,0,0,269.72,0,0,0,0,0,0,0,0,0,0,0,0,0,0,0,0,0,VALID,0,0,0,0,0,1,0,0,0,0,0,0,0,0,0,0,0,0,0,0,33.16,337.31,2,0,0.08,0.08,7,11.54,0.1,0.08,0.78,FLYING,CF1-J,0:/Integrated Flight Computer/aircraft/cf1_j_cfg.ks (inferred preloaded)
1.06,APPROACH,FLY_TO_FIX,138.69,75.82,-62.87,1501.35,0.78,1.01,0.78,270.22,7.427,0,0,0,1,0.6,3.08,0.75,0.35,0.0168,0.4,25.5,34.39,34.39,62.883,1,281.04,1.633,0,0,0.31,10.82,0,1.66,281.03,0,0,0,0,0,0,0,49.74,0,0,0,4,0,0,0,3552.43,0,0,0,269.72,0,0,0,0,0,0,0,0,0,0,0,0,0,0,0,0,0,VALID,0,0,0,0,0,1,0,0,0,0,0,0,0,0,0,0,0,0,0,0,35.31,337.36,2,0,0.1,0.1,10,10.71,0.1,0.08,1.06,FLYING,CF1-J,0:/Integrated Flight Computer/aircraft/cf1_j_cfg.ks (inferred preloaded)
1.32,APPROACH,FLY_TO_FIX,138.53,76.02,-62.51,1501.61,1.05,1.11,0.84,270.58,12.108,0,0,0,1,0.6,3.603,0.75,0.35,0.0168,0.4,32,34.436,34.436,62.522,1,281.06,1.551,0,0,0.42,10.48,0,1.58,281.06,0,0,0,0,0,0,0,49.7,0,0,0,4,0,0,0,3549.65,0,0,0,269.72,0,0,0,0,0,0,0,0,0,0,0,0,0,0,0,0,0,VALID,0,0,0,0,0,1,0,0,0,0,0,0,0,0,0,0,0,0,0,0,37.87,337.42,2,0,0.08,0.08,13,11.54,0.1,0.08,1.32,FLYING,CF1-J,0:/Integrated Flight Computer/aircraft/cf1_j_cfg.ks (inferred preloaded)
1.6,APPROACH,FLY_TO_FIX,138.36,76.25,-62.11,1501.96,1.32,1.16,0.87,271.03,17.269,0,0,0,1,0.6,4.011,0.75,0.35,0.0168,0.4,34.49,34.49,34.49,62.12,1,281.09,1.466,0,0,0.53,10.05,0,1.5,281.08,0,0,0,0,0,0,0,49.657,0,0,0,4,0,0,0,3546.65,0,0,0,269.72,0,0,0,0,0,0,0,0,0,0,0,0,0,0,0,0,0,VALID,0,0,0,0,0,1,0,0,0,0,0,0,0,0,0,0,0,0,0,0,40.99,337.49,2,0,0.1,0.1,16,10.71,0.1,0.08,1.6,FLYING,CF1-J,0:/Integrated Flight Computer/aircraft/cf1_j_cfg.ks (inferred preloaded)
1.86,APPROACH,FLY_TO_FIX,138.16,76.46,-61.7,1502.34,1.5,1.19,0.86,271.4,20.639,0,0,0,1,0.6,4.329,0.75,0.35,0.0168,0.4,34.546,34.546,34.546,61.726,1,281.11,1.407,0,0,0.61,9.71,0,1.42,281.1,0,0,0,0,0,0,0,49.617,0,0,0,4,0,0,0,3543.88,0,0,0,269.72,0,0,0,0,0,0,0,0,0,0,0,0,0,0,0,0,0,VALID,0,0,0,0,0,1,0,0,0,0,0,0,0,0,0,0,0,0,0,0,45.12,337.56,2,0,0.08,0.08,19,11.54,0.1,0.08,1.86,FLYING,CF1-J,0:/Integrated Flight Computer/aircraft/cf1_j_cfg.ks (inferred preloaded)
2.14,APPROACH,FLY_TO_FIX,137.69,76.68,-61.01,1502.79,1.62,1.24,0.82,271.72,22.14,0,0,-12.227,1,0.6,4.5,0.75,0.35,0.0168,0.4,34.681,34.681,34.681,61.051,1,281.13,1.366,0,0,0.67,9.41,0,1.38,281.12,0,0,0,0,0,0,0,49.575,0,0,0,4,0,0,0,3540.9,0,0,0,269.72,0,0,0,0,0,0,0,0,0,0,0,0,0,0,0,0,0,VALID,0,0,0,0,0,1,0,0,0,0,0,0,0,0,0,0,0,0,0,0,50.02,337.75,2,0,0.1,0.1,22,10.71,0.1,0.08,2.14,FLYING,CF1-J,0:/Integrated Flight Computer/aircraft/cf1_j_cfg.ks (inferred preloaded)
2.4,APPROACH,FLY_TO_FIX,137.18,76.89,-60.29,1503.24,1.69,1.31,0.82,271.98,22.25,0,0,-18.129,1,0.6,4.5,0.75,0.35,0.0168,0.4,34.834,34.834,34.834,60.331,1,281.15,1.341,0,0,0.7,9.17,0,1.35,281.14,0,0,0,0,0,0,0,49.535,0,0,0,4,0,0,0,3538.14,0,0,0,269.72,0,0,0,0,0,0,0,0,0,0,0,0,0,0,0,0,0,VALID,0,0,0,0,0,1,0,0,0,0,0,0,0,0,0,0,0,0,0,0,54.51,337.97,2,0,0.08,0.08,25,11.54,0.1,0.08,2.4,FLYING,CF1-J,0:/Integrated Flight Computer/aircraft/cf1_j_cfg.ks (inferred preloaded)
2.68,APPROACH,FLY_TO_FIX,136.65,77.11,-59.54,1503.73,1.76,1.39,0.83,272.31,22.174,0,0,-17.859,1,0.6,4.5,0.862,0.35,0.0168,0.4,34.994,34.994,34.994,59.575,1,281.17,1.319,0,0,0.73,8.86,0,1.33,281.16,0,0,0,0,0,0,0,49.493,0,0,0,4,0,0,0,3535.18,0,0,0,269.72,0,0,0,0,0,0,0,0,0,0,0,0,0,0,0,0,0,VALID,0,0,0,0,0,1,0,0,0,0,0,0,0,0,0,0,0,0,0,0,59.28,338.19,2,0,0.1,0.1,28,10.71,0.1,0.08,2.68,FLYING,CF1-J,0:/Integrated Flight Computer/aircraft/cf1_j_cfg.ks (inferred preloaded)
2.94,APPROACH,FLY_TO_FIX,136.17,77.32,-58.85,1504.2,1.81,1.43,0.82,272.65,21.976,0,0,-17.592,1,0.6,4.5,0.986,0.35,0.0168,0.4,35.138,35.138,35.138,58.887,1,281.19,1.301,0,0,0.76,8.54,0,1.31,281.18,0,0,0,0,0,0,0,49.454,0,0,0,4,0,0,0,3532.44,0,0,0,269.72,0,0,0,0,0,0,0,0,0,0,0,0,0,0,0,0,0,VALID,0,0,0,0,0,1,0,0,0,0,0,0,0,0,0,0,0,0,0,0,63.63,338.39,2,0,0.08,0.08,31,11.54,0.1,0.08,2.94,FLYING,CF1-J,0:/Integrated Flight Computer/aircraft/cf1_j_cfg.ks (inferred preloaded)
3.22,APPROACH,FLY_TO_FIX,135.67,77.54,-58.13,1504.72,1.84,1.46,0.82,273.03,21.611,0,0,-17.33,1,0.6,4.5,1.098,0.35,0.0168,0.4,35.288,35.288,35.288,58.162,1,281.21,1.287,0,0,0.78,8.18,0,1.29,281.2,0,0,0,0,0,0,0,49.412,0,0,0,4,0,0,0,3529.51,0,0,0,269.72,0,0,0,0,0,0,0,0,0,0,0,0,0,0,0,0,0,VALID,0,0,0,0,0,1,0,0,0,0,0,0,0,0,0,0,0,0,0,0,68.26,338.6,2,0,0.1,0.1,34,10.71,0.1,0.08,3.22,FLYING,CF1-J,0:/Integrated Flight Computer/aircraft/cf1_j_cfg.ks (inferred preloaded)
3.48,APPROACH,FLY_TO_FIX,135.22,77.75,-57.47,1505.2,1.86,1.48,0.82,273.38,21.153,0,0,-17.071,1,0.6,4.5,1.196,0.35,0.0168,0.4,35.423,35.423,35.423,57.504,1,281.22,1.278,0,0,0.79,7.84,0,1.28,281.22,0,0,0,0,0,0,0,49.373,0,0,0,4,0,0,0,3526.79,0,0,0,269.72,0,0,0,0,0,0,0,0,0,0,0,0,0,0,0,0,0,VALID,0,0,0,0,0,1,0,0,0,0,0,0,0,0,0,0,0,0,0,0,72.48,338.79,2,0,0.08,0.08,37,11.54,0.1,0.08,3.48,FLYING,CF1-J,0:/Integrated Flight Computer/aircraft/cf1_j_cfg.ks (inferred preloaded)
3.76,APPROACH,FLY_TO_FIX,134.75,77.98,-56.78,1505.73,1.88,1.49,0.82,273.76,20.566,0,0,-16.816,1,0.6,4.5,1.277,0.35,0.0168,0.4,35.564,35.564,35.564,56.812,1,281.24,1.27,0,0,0.8,7.48,0,1.27,281.23,0,0,0,0,0,0,0,49.331,0,0,0,4,0,0,0,3523.87,0,0,0,269.72,0,0,0,0,0,0,0,0,0,0,0,0,0,0,0,0,0,VALID,0,0,0,0,0,1,0,0,0,0,0,0,0,0,0,0,0,0,0,0,76.97,338.98,2,0,0.1,0.1,40,10.71,0.1,0.08,3.76,FLYING,CF1-J,0:/Integrated Flight Computer/aircraft/cf1_j_cfg.ks (inferred preloaded)
4.02,APPROACH,FLY_TO_FIX,134.33,78.18,-56.15,1506.22,1.89,1.51,0.82,274.1,19.949,0,0,-16.565,1,0.6,4.5,1.343,0.35,0.0168,0.4,35.69,35.69,35.69,56.182,1,281.25,1.265,0,0,0.8,7.15,0,1.27,281.25,0,0,0,0,0,0,0,49.293,0,0,0,4,0,0,0,3521.18,0,0,0,269.72,0,0,0,0,0,0,0,0,0,0,0,0,0,0,0,0,0,VALID,0,0,0,0,0,1,0,0,0,0,0,0,0,0,0,0,0,0,0,0,81.07,339.16,2,0,0.08,0.08,43,11.54,0.1,0.08,4.02,FLYING,CF1-J,0:/Integrated Flight Computer/aircraft/cf1_j_cfg.ks (inferred preloaded)
4.3,APPROACH,FLY_TO_FIX,133.9,78.41,-55.49,1506.75,1.89,1.52,0.82,274.46,19.239,0,0,-16.318,1,0.6,4.5,1.395,0.35,0.0168,0.4,35.821,35.821,35.821,55.521,1,281.27,1.261,0,0,0.81,6.81,0,1.26,281.26,0,0,0,0,0,0,0,49.251,0,0,0,4,0,0,0,3518.28,0,0,0,269.72,0,0,0,0,0,0,0,0,0,0,0,0,0,0,0,0,0,VALID,0,0,0,0,0,1,0,0,0,0,0,0,0,0,0,0,0,0,0,0,85.42,339.34,2,0,0.1,0.1,46,10.71,0.1,0.08,4.3,FLYING,CF1-J,0:/Integrated Flight Computer/aircraft/cf1_j_cfg.ks (inferred preloaded)
4.56,APPROACH,FLY_TO_FIX,133.51,78.62,-54.89,1507.24,1.9,1.53,0.82,274.77,18.373,0,0,-16.074,1,0.6,4.5,1.435,0.35,0.0168,0.4,35.939,35.939,35.939,54.919,1,281.28,1.257,0,0,0.81,6.51,0,1.26,281.28,0,0,0,0,0,0,0,49.213,0,0,0,4,0,0,0,3515.6,0,0,0,269.72,0,0,0,0,0,0,0,0,0,0,0,0,0,0,0,0,0,VALID,0,0,0,0,0,1,0,0,0,0,0,0,0,0,0,0,0,0,0,0,89.39,339.51,2,0,0.08,0.08,49,11.54,0.1,0.08,4.56,FLYING,CF1-J,0:/Integrated Flight Computer/aircraft/cf1_j_cfg.ks (inferred preloaded)
4.84,APPROACH,FLY_TO_FIX,133.1,78.84,-54.26,1507.77,1.91,1.55,0.83,275.1,17.568,0,0,-15.835,1,0.6,4.5,1.463,0.35,0.0168,0.4,36.061,36.061,36.061,54.289,1,281.3,1.252,0,0,0.82,6.2,0,1.25,281.29,0,0,0,0,0,0,0,49.172,0,0,0,4,0,0,0,3512.72,0,0,0,269.72,0,0,0,0,0,0,0,0,0,0,0,0,0,0,0,0,0,VALID,0,0,0,0,0,1,0,0,0,0,0,0,0,0,0,0,0,0,0,0,93.61,339.68,2,0,0.1,0.1,52,10.71,0.1,0.08,4.84,FLYING,CF1-J,0:/Integrated Flight Computer/aircraft/cf1_j_cfg.ks (inferred preloaded)
5.1,APPROACH,FLY_TO_FIX,132.74,79.05,-53.69,1508.27,1.91,1.56,0.83,275.4,16.919,0,0,-15.598,1,0.6,4.5,1.48,0.35,0.0168,0.4,36.169,36.169,36.169,53.72,1,281.31,1.247,0,0,0.83,5.9,0,1.25,281.31,0,0,0,0,0,0,0,49.134,0,0,0,4,0,0,0,3510.06,0,0,0,269.72,0,0,0,0,0,0,0,0,0,0,0,0,0,0,0,0,0,VALID,0,0,0,0,0,1,0,0,0,0,0,0,0,0,0,0,0,0,0,0,97.46,339.83,2,0,0.08,0.08,55,11.54,0.1,0.08,5.1,FLYING,CF1-J,0:/Integrated Flight Computer/aircraft/cf1_j_cfg.ks (inferred preloaded)
5.38,APPROACH,FLY_TO_FIX,132.37,79.27,-53.1,1508.81,1.92,1.57,0.84,275.72,16.213,0,0,-15.365,1,0.6,4.5,1.488,0.35,0.0168,0.4,36.281,36.281,36.281,53.124,1,281.32,1.241,0,0,0.83,5.6,0,1.24,281.32,0,0,0,0,0,0,0,49.093,0,0,0,4,0,0,0,3507.2,0,0,0,269.72,0,0,0,0,0,0,0,0,0,0,0,0,0,0,0,0,0,VALID,0,0,0,0,0,1,0,0,0,0,0,0,0,0,0,0,0,0,0,0,101.55,339.99,2,0,0.1,0.1,58,10.71,0.1,0.08,5.38,FLYING,CF1-J,0:/Integrated Flight Computer/aircraft/cf1_j_cfg.ks (inferred preloaded)
5.64,APPROACH,FLY_TO_FIX,132.04,79.48,-52.56,1509.31,1.93,1.58,0.84,275.99,15.551,0,0,-15.136,1,0.6,4.5,1.488,0.35,0.0168,0.4,36.38,36.38,36.38,52.586,1,281.33,1.236,0,0,0.84,5.34,0,1.24,281.33,0,0,0,0,0,0,0,49.055,0,0,0,4,0,0,0,3504.55,0,0,0,269.72,0,0,0,0,0,0,0,0,0,0,0,0,0,0,0,0,0,VALID,0,0,0,0,0,1,0,0,0,0,0,0,0,0,0,0,0,0,0,0,105.29,340.12,2,0,0.08,0.08,61,11.54,0.1,0.08,5.64,FLYING,CF1-J,0:/Integrated Flight Computer/aircraft/cf1_j_cfg.ks (inferred preloaded)
5.92,APPROACH,FLY_TO_FIX,131.7,79.7,-52,1509.86,1.94,1.59,0.85,276.28,14.846,0,0,-14.91,1,0.6,4.5,1.48,0.35,0.0168,0.4,36.482,36.482,36.482,52.022,1,281.34,1.231,0,0,0.84,5.07,0,1.23,281.34,0,0,0,0,0,0,0,49.014,0,0,0,4,0,0,0,3501.71,0,0,0,269.72,0,0,0,0,0,0,0,0,0,0,0,0,0,0,0,0,0,VALID,0,0,0,0,0,1,0,0,0,0,0,0,0,0,0,0,0,0,0,0,109.25,340.26,2,0,0.1,0.1,64,10.71,0.1,0.08,5.92,FLYING,CF1-J,0:/Integrated Flight Computer/aircraft/cf1_j_cfg.ks (inferred preloaded)
6.18,APPROACH,FLY_TO_FIX,131.4,79.8,-51.6,1510.36,1.95,1.6,0.85,276.53,14.205,0,0,-14.688,1,0.6,4.5,1.466,0.35,0.0168,0.4,36.573,36.573,36.573,51.624,1,281.35,1.225,0,0,0.85,4.83,0,1.23,281.35,0,0,0,0,0,0,0,48.977,0,0,0,4,0,0,0,3499.07,0,0,0,269.72,0,0,0,0,0,0,0,0,0,0,0,0,0,0,0,0,0,VALID,0,0,0,0,0,1,0,0,0,0,0,0,0,0,0,0,0,0,0,0,112.86,340.39,2,0,0.08,0.08,67,11.54,0.1,0.08,6.18,FLYING,CF1-J,0:/Integrated Flight Computer/aircraft/cf1_j_cfg.ks (inferred preloaded)
6.46,APPROACH,FLY_TO_FIX,131.09,79.8,-51.29,1510.91,1.96,1.62,0.86,276.79,13.53,0,0,-14.468,1,0.6,4.5,1.446,0.35,0.0168,0.4,36.666,36.666,36.666,51.314,1,281.36,1.219,0,0,0.86,4.58,0,1.22,281.36,0,0,0,0,0,0,0,48.936,0,0,0,4,0,0,0,3496.25,0,0,0,269.72,0,0,0,0,0,0,0,0,0,0,0,0,0,0,0,0,0,VALID,0,0,0,0,0,1,0,0,0,0,0,0,0,0,0,0,0,0,0,0,116.7,340.51,2,0,0.1,0.1,70,10.71,0.1,0.08,6.46,FLYING,CF1-J,0:/Integrated Flight Computer/aircraft/cf1_j_cfg.ks (inferred preloaded)
6.72,APPROACH,FLY_TO_FIX,130.82,79.8,-51.02,1511.43,1.98,1.63,0.86,277.02,12.915,0,0,-14.252,1,0.6,4.5,1.422,0.35,0.0168,0.4,36.748,36.748,36.748,51.04,1,281.37,1.212,0,0,0.86,4.36,0,1.22,281.37,0,0,0,0,0,0,0,48.899,0,0,0,4,0,0,0,3493.63,0,0,0,269.72,0,0,0,0,0,0,0,0,0,0,0,0,0,0,0,0,0,VALID,0,0,0,0,0,1,0,0,0,0,0,0,0,0,0,0,0,0,0,0,120.21,340.63,2,0,0.08,0.08,73,11.54,0.1,0.08,6.72,FLYING,CF1-J,0:/Integrated Flight Computer/aircraft/cf1_j_cfg.ks (inferred preloaded)
7,APPROACH,FLY_TO_FIX,130.54,79.8,-50.74,1511.98,1.99,1.64,0.87,277.25,12.274,0,0,-14.04,1,0.6,4.5,1.394,0.35,0.0168,0.4,36.832,36.832,36.832,50.761,1,281.38,1.206,0,0,0.87,4.13,0,1.21,281.38,0,0,0,0,0,0,0,48.859,0,0,0,4,0,0,0,3490.81,0,0,0,269.72,0,0,0,0,0,0,0,0,0,0,0,0,0,0,0,0,0,VALID,0,0,0,0,0,1,0,0,0,0,0,0,0,0,0,0,0,0,0,0,123.92,340.74,2,0,0.1,0.1,76,10.71,0.1,0.08,7,FLYING,CF1-J,0:/Integrated Flight Computer/aircraft/cf1_j_cfg.ks (inferred preloaded)
7.26,APPROACH,FLY_TO_FIX,130.3,79.8,-50.5,1512.5,2,1.66,0.87,277.46,11.7,0,0,-13.83,1,0.6,4.5,1.362,0.35,0.0168,0.4,36.906,36.906,36.906,50.515,1,281.39,1.199,0,0,0.88,3.93,0,1.2,281.39,0,0,0,0,0,0,0,48.821,0,0,0,4,0,0,0,3488.21,0,0,0,269.72,0,0,0,0,0,0,0,0,0,0,0,0,0,0,0,0,0,VALID,0,0,0,0,0,1,0,0,0,0,0,0,0,0,0,0,0,0,0,0,127.32,340.84,2,0,0.08,0.08,79,11.54,0.1,0.08,7.26,FLYING,CF1-J,0:/Integrated Flight Computer/aircraft/cf1_j_cfg.ks (inferred preloaded)
7.54,APPROACH,FLY_TO_FIX,130.05,79.8,-50.25,1513.07,2.02,1.67,0.88,277.68,11.107,0,0,-13.624,1,0.6,4.5,1.328,0.35,0.0168,0.4,36.981,36.981,36.981,50.264,1,281.4,1.192,0,0,0.89,3.72,0,1.2,281.4,0,0,0,0,0,0,0,48.781,0,0,0,4,0,0,0,3485.41,0,0,0,269.72,0,0,0,0,0,0,0,0,0,0,0,0,0,0,0,0,0,VALID,0,0,0,0,0,1,0,0,0,0,0,0,0,0,0,0,0,0,0,0,130.91,340.93,2,0,0.1,0.1,82,10.71,0.1,0.08,7.54,FLYING,CF1-J,0:/Integrated Flight Computer/aircraft/cf1_j_cfg.ks (inferred preloaded)
7.8,APPROACH,FLY_TO_FIX,129.83,79.8,-50.03,1513.6,2.03,1.68,0.88,277.86,10.578,0,0,-13.42,1,0.6,4.5,1.29,0.35,0.0168,0.4,37.047,37.047,37.047,50.044,1,281.41,1.185,0,0,0.9,3.54,0,1.19,281.4,0,0,0,0,0,0,0,48.744,0,0,0,4,0,0,0,3482.81,0,0,0,269.72,0,0,0,0,0,0,0,0,0,0,0,0,0,0,0,0,0,VALID,0,0,0,0,0,1,0,0,0,0,0,0,0,0,0,0,0,0,0,0,134.2,341.02,2,0,0.08,0.08,85,11.54,0.1,0.08,7.8,FLYING,CF1-J,0:/Integrated Flight Computer/aircraft/cf1_j_cfg.ks (inferred preloaded)
8.08,APPROACH,FLY_TO_FIX,129.61,79.8,-49.81,1514.17,2.05,1.69,0.89,278.06,10.033,0,0,-13.22,1,0.6,4.5,1.25,0.35,0.0168,0.4,37.113,37.113,37.113,49.824,1,281.41,1.177,0,0,0.9,3.35,0,1.18,281.41,0,0,0,0,0,0,0,48.704,0,0,0,4,0,0,0,3480.02,0,0,0,269.72,0,0,0,0,0,0,0,0,0,0,0,0,0,0,0,0,0,VALID,0,0,0,0,0,1,0,0,0,0,0,0,0,0,0,0,0,0,0,0,137.68,341.1,2,0,0.1,0.1,88,10.71,0.1,0.08,8.08,FLYING,CF1-J,0:/Integrated Flight Computer/aircraft/cf1_j_cfg.ks (inferred preloaded)
8.34,APPROACH,FLY_TO_FIX,129.42,79.8,-49.62,1514.71,2.07,1.7,0.89,278.23,9.55,0,0,-13.023,1,0.6,4.5,1.209,0.35,0.0168,0.4,37.17,37.17,37.17,49.633,1,281.42,1.169,0,0,0.91,3.19,0,1.17,281.42,0,0,0,0,0,0,0,48.667,0,0,0,4,0,0,0,3477.43,0,0,0,269.72,0,0,0,0,0,0,0,0,0,0,0,0,0,0,0,0,0,VALID,0,0,0,0,0,1,0,0,0,0,0,0,0,0,0,0,0,0,0,0,140.86,341.17,2,0,0.08,0.08,91,11.54,0.1,0.08,8.34,FLYING,CF1-J,0:/Integrated Flight Computer/aircraft/cf1_j_cfg.ks (inferred preloaded)
8.62,APPROACH,FLY_TO_FIX,129.23,79.8,-49.43,1515.29,2.08,1.72,0.89,278.4,9.057,0,0,-12.828,1,0.6,4.5,1.165,0.35,0.0168,0.4,37.228,37.228,37.228,49.439,1,281.43,1.161,0,0,0.92,3.02,0,1.17,281.42,0,0,0,0,0,0,0,48.627,0,0,0,4,0,0,0,3474.65,0,0,0,269.72,0,0,0,0,0,0,0,0,0,0,0,0,0,0,0,0,0,VALID,0,0,0,0,0,1,0,0,0,0,0,0,0,0,0,0,0,0,0,0,144.23,341.24,2,0,0.1,0.1,94,10.71,0.1,0.08,8.62,FLYING,CF1-J,0:/Integrated Flight Computer/aircraft/cf1_j_cfg.ks (inferred preloaded)
8.88,APPROACH,FLY_TO_FIX,129.06,79.8,-49.26,1515.83,2.1,1.73,0.9,278.56,8.619,0,0,-12.637,1,0.6,4.5,1.12,0.35,0.0168,0.4,37.278,37.278,37.278,49.275,1,281.43,1.154,0,0,0.93,2.87,0,1.16,281.43,0,0,0,0,0,0,0,48.591,0,0,0,4,0,0,0,3472.08,0,0,0,269.72,0,0,0,0,0,0,0,0,0,0,0,0,0,0,0,0,0,VALID,0,0,0,0,0,1,0,0,0,0,0,0,0,0,0,0,0,0,0,0,147.31,341.3,2,0,0.08,0.08,97,11.54,0.1,0.08,8.88,FLYING,CF1-J,0:/Integrated Flight Computer/aircraft/cf1_j_cfg.ks (inferred preloaded)
9.16,APPROACH,FLY_TO_FIX,128.9,79.8,-49.1,1516.42,2.12,1.74,0.9,278.72,8.166,0,0,-12.448,1,0.6,4.5,1.074,0.35,0.0168,0.4,37.327,37.327,37.327,49.11,1,281.44,1.146,0,0,0.94,2.72,0,1.15,281.44,0,0,0,0,0,0,0,48.551,0,0,0,4,0,0,0,3469.31,0,0,0,269.72,0,0,0,0,0,0,0,0,0,0,0,0,0,0,0,0,0,VALID,0,0,0,0,0,1,0,0,0,0,0,0,0,0,0,0,0,0,0,0,150.57,341.36,2,0,0.1,0.1,100,10.71,0.1,0.08,9.16,FLYING,CF1-J,0:/Integrated Flight Computer/aircraft/cf1_j_cfg.ks (inferred preloaded)
9.42,APPROACH,FLY_TO_FIX,128.76,79.8,-48.96,1516.98,2.13,1.75,0.9,278.86,7.764,0,0,-12.263,1,0.6,4.5,1.026,0.35,0.0168,0.4,37.369,37.369,37.369,48.972,1,281.44,1.139,0,0,0.95,2.59,0,1.14,281.44,0,0,0,0,0,0,0,48.514,0,0,0,4,0,0,0,3466.74,0,0,0,269.72,0,0,0,0,0,0,0,0,0,0,0,0,0,0,0,0,0,VALID,0,0,0,0,0,1,0,0,0,0,0,0,0,0,0,0,0,0,0,0,153.54,341.4,2,0,0.08,0.08,103,11.54,0.1,0.08,9.42,FLYING,CF1-J,0:/Integrated Flight Computer/aircraft/cf1_j_cfg.ks (inferred preloaded)
9.7,APPROACH,FLY_TO_FIX,128.62,79.8,-48.82,1517.58,2.15,1.76,0.9,279,7.353,0,0,-12.08,1,0.6,4.5,0.978,0.35,0.0168,0.4,37.41,37.41,37.41,48.834,1,281.45,1.131,0,0,0.95,2.45,0,1.13,281.45,0,0,0,0,0,0,0,48.475,0,0,0,4,0,0,0,3463.97,0,0,0,269.72,0,0,0,0,0,0,0,0,0,0,0,0,0,0,0,0,0,VALID,0,0,0,0,0,1,0,0,0,0,0,0,0,0,0,0,0,0,0,0,156.69,341.44,2,0,0.1,0.1,106,10.71,0.1,0.08,9.7,FLYING,CF1-J,0:/Integrated Flight Computer/aircraft/cf1_j_cfg.ks (inferred preloaded)
9.96,APPROACH,FLY_TO_FIX,128.51,79.8,-48.71,1518.14,2.16,1.76,0.9,279.12,6.99,0,0,-11.899,1,0.6,4.5,0.929,0.35,0.0168,0.4,37.444,37.444,37.444,48.721,1,281.45,1.123,0,0,0.96,2.33,0,1.13,281.45,0,0,0,0,0,0,0,48.438,0,0,0,4,0,0,0,3461.41,0,0,0,269.72,0,0,0,0,0,0,0,0,0,0,0,0,0,0,0,0,0,VALID,0,0,0,0,0,1,0,0,0,0,0,0,0,0,0,0,0,0,0,0,159.57,341.47,2,0,0.08,0.08,109,11.54,0.1,0.08,9.96,FLYING,CF1-J,0:/Integrated Flight Computer/aircraft/cf1_j_cfg.ks (inferred preloaded)
10.24,APPROACH,FLY_TO_FIX,128.41,79.8,-48.61,1518.75,2.18,1.77,0.9,279.25,6.621,0,0,-11.722,1,0.6,4.5,0.879,0.35,0.0168,0.4,37.476,37.476,37.476,48.613,1,281.46,1.116,0,0,0.97,2.21,0,1.12,281.46,0,0,0,0,0,0,0,48.399,0,0,0,4,0,0,0,3458.66,0,0,0,269.72,0,0,0,0,0,0,0,0,0,0,0,0,0,0,0,0,0,VALID,0,0,0,0,0,1,0,0,0,0,0,0,0,0,0,0,0,0,0,0,162.61,341.5,2,0,0.1,0.1,112,10.71,0.1,0.08,10.24,FLYING,CF1-J,0:/Integrated Flight Computer/aircraft/cf1_j_cfg.ks (inferred preloaded)
10.5,APPROACH,FLY_TO_FIX,128.32,79.8,-48.52,1519.32,2.19,1.78,0.9,279.36,6.296,0,0,-11.547,1,0.6,4.5,0.83,0.35,0.0168,0.4,37.503,37.503,37.503,48.523,1,281.46,1.108,0,0,0.98,2.1,0,1.11,281.46,0,0,0,0,0,0,0,48.362,0,0,0,4,0,0,0,3456.1,0,0,0,269.72,0,0,0,0,0,0,0,0,0,0,0,0,0,0,0,0,0,VALID,0,0,0,0,0,1,0,0,0,0,0,0,0,0,0,0,0,0,0,0,165.39,341.52,2,0,0.08,0.08,115,11.54,0.1,0.08,10.5,FLYING,CF1-J,0:/Integrated Flight Computer/aircraft/cf1_j_cfg.ks (inferred preloaded)
10.78,APPROACH,FLY_TO_FIX,128.24,79.8,-48.44,1519.93,2.21,1.79,0.9,279.48,5.964,0,0,-11.374,1,0.6,4.5,0.779,0.35,0.0168,0.4,37.528,37.528,37.528,48.441,1,281.47,1.101,0,0,0.99,1.99,0,1.1,281.47,0,0,0,0,0,0,0,48.323,0,0,0,4,0,0,0,3453.35,0,0,0,269.72,0,0,0,0,0,0,0,0,0,0,0,0,0,0,0,0,0,VALID,0,0,0,0,0,1,0,0,0,0,0,0,0,0,0,0,0,0,0,0,168.34,341.53,2,0,0.1,0.1,118,10.71,0.1,0.08,10.78,FLYING,CF1-J,0:/Integrated Flight Computer/aircraft/cf1_j_cfg.ks (inferred preloaded)
11.04,APPROACH,FLY_TO_FIX,128.17,79.8,-48.37,1520.51,2.22,1.79,0.9,279.58,5.671,0,0,-11.205,1,0.6,4.5,0.75,0.35,0.0168,0.4,37.546,37.546,37.546,48.379,1,281.47,1.094,0,0,0.99,1.89,0,1.1,281.47,0,0,0,0,0,0,0,48.286,0,0,0,4,0,0,0,3450.79,0,0,0,269.72,0,0,0,0,0,0,0,0,0,0,0,0,0,0,0,0,0,VALID,0,0,0,0,0,1,0,0,0,0,0,0,0,0,0,0,0,0,0,0,171.02,341.54,2,0,0.08,0.08,121,11.54,0.1,0.08,11.04,FLYING,CF1-J,0:/Integrated Flight Computer/aircraft/cf1_j_cfg.ks (inferred preloaded)
11.32,APPROACH,FLY_TO_FIX,128.12,79.8,-48.32,1521.13,2.24,1.8,0.9,279.68,5.371,0,0,-11.037,1,0.6,4.5,0.75,0.35,0.0168,0.4,37.563,37.563,37.563,48.325,1,281.48,1.086,0,0,1,1.79,0,1.09,281.47,0,0,0,0,0,0,0,48.247,0,0,0,4,0,0,0,3448.05,0,0,0,269.72,0,0,0,0,0,0,0,0,0,0,0,0,0,0,0,0,0,VALID,0,0,0,0,0,1,0,0,0,0,0,0,0,0,0,0,0,0,0,0,173.86,341.54,2,0,0.1,0.1,124,10.71,0.1,0.08,11.32,FLYING,CF1-J,0:/Integrated Flight Computer/aircraft/cf1_j_cfg.ks (inferred preloaded)
11.58,APPROACH,FLY_TO_FIX,128.08,79.8,-48.28,1521.72,2.25,1.8,0.9,279.78,5.107,0,0,-10.873,1,0.6,4.5,0.75,0.35,0.0168,0.4,37.575,37.575,37.575,48.283,1,281.48,1.079,0,0,1,1.7,0,1.08,281.48,0,0,0,0,0,0,0,48.21,0,0,0,4,0,0,0,3445.5,0,0,0,269.72,0,0,0,0,0,0,0,0,0,0,0,0,0,0,0,0,0,VALID,0,0,0,0,0,1,0,0,0,0,0,0,0,0,0,0,0,0,0,0,176.46,341.53,2,0,0.08,0.08,127,11.54,0.1,0.08,11.58,FLYING,CF1-J,0:/Integrated Flight Computer/aircraft/cf1_j_cfg.ks (inferred preloaded)
11.86,APPROACH,FLY_TO_FIX,128.05,79.8,-48.25,1522.35,2.26,1.8,0.9,279.87,4.838,0,0,-10.71,1,0.6,4.5,0.75,0.35,0.0168,0.4,37.584,37.584,37.584,48.252,1,281.48,1.072,0,0,1.01,1.62,0,1.08,281.48,0,0,0,0,0,0,0,48.171,0,0,0,4,0,0,0,3442.75,0,0,0,269.72,0,0,0,0,0,0,0,0,0,0,0,0,0,0,0,0,0,VALID,0,0,0,0,0,1,0,0,0,0,0,0,0,0,0,0,0,0,0,0,179.2,341.52,2,0,0.1,0.1,130,10.71,0.1,0.08,11.86,FLYING,CF1-J,0:/Integrated Flight Computer/aircraft/cf1_j_cfg.ks (inferred preloaded)
12.12,APPROACH,FLY_TO_FIX,128.04,79.8,-48.24,1522.94,2.27,1.81,0.89,279.95,4.601,0,0,-10.551,1,0.6,4.5,0.75,0.35,0.0168,0.4,37.589,37.589,37.589,48.236,1,281.49,1.066,0,0,1.02,1.54,0,1.07,281.49,0,0,0,0,0,0,0,48.135,0,0,0,4,0,0,0,3440.2,0,0,0,269.72,0,0,0,0,0,0,0,0,0,0,0,0,0,0,0,0,0,VALID,0,0,0,0,0,1,0,0,0,0,0,0,0,0,0,0,0,0,0,0,181.71,341.5,2,0,0.08,0.08,133,11.54,0.1,0.08,12.12,FLYING,CF1-J,0:/Integrated Flight Computer/aircraft/cf1_j_cfg.ks (inferred preloaded)
12.4,APPROACH,FLY_TO_FIX,128.03,79.8,-48.23,1523.58,2.29,1.81,0.89,280.03,4.359,0,0,-10.393,1,0.6,4.5,0.75,0.35,0.0168,0.4,37.591,37.591,37.591,48.232,1,281.49,1.059,0,0,1.02,1.46,0,1.06,281.49,0,0,0,0,0,0,0,48.096,0,0,0,4,0,0,0,3437.46,0,0,0,269.72,0,0,0,0,0,0,0,0,0,0,0,0,0,0,0,0,0,VALID,0,0,0,0,0,1,0,0,0,0,0,0,0,0,0,0,0,0,0,0,184.36,341.47,2,0,0.1,0.1,136,10.71,0.1,0.08,12.4,FLYING,CF1-J,0:/Integrated Flight Computer/aircraft/cf1_j_cfg.ks (inferred preloaded)
12.66,APPROACH,FLY_TO_FIX,128.04,79.8,-48.24,1524.17,2.3,1.81,0.89,280.11,4.148,0,0,-10.238,1,0.6,4.5,0.75,0.35,0.0168,0.4,37.588,37.588,37.588,48.239,1,281.49,1.052,0,0,1.03,1.39,0,1.06,281.49,0,0,0,0,0,0,0,48.059,0,0,0,4,0,0,0,3434.91,0,0,0,269.72,0,0,0,0,0,0,0,0,0,0,0,0,0,0,0,0,0,VALID,0,0,0,0,0,1,0,0,0,0,0,0,0,0,0,0,0,0,0,0,186.77,341.44,2,0,0.08,0.08,139,11.54,0.1,0.08,12.66,FLYING,CF1-J,0:/Integrated Flight Computer/aircraft/cf1_j_cfg.ks (inferred preloaded)
12.94,APPROACH,FLY_TO_FIX,128.06,79.8,-48.26,1524.82,2.31,1.81,0.88,280.18,3.934,0,0,-10.085,1,0.6,4.5,0.75,0.35,0.0168,0.4,37.582,37.582,37.582,48.26,1,281.5,1.046,0,0,1.03,1.31,0,1.05,281.49,0,0,0,0,0,0,0,48.02,0,0,0,4,0,0,0,3432.17,0,0,0,269.72,0,0,0,0,0,0,0,0,0,0,0,0,0,0,0,0,0,VALID,0,0,0,0,0,1,0,0,0,0,0,0,0,0,0,0,0,0,0,0,189.33,341.4,2,0,0.1,0.1,142,10.71,0.1,0.08,12.94,FLYING,CF1-J,0:/Integrated Flight Computer/aircraft/cf1_j_cfg.ks (inferred preloaded)
13.2,APPROACH,FLY_TO_FIX,128.09,79.8,-48.29,1525.42,2.32,1.81,0.88,280.25,3.744,0,0,-9.935,1,0.6,4.5,0.75,0.35,0.0168,0.4,37.573,37.573,37.573,48.291,1,281.5,1.04,0,0,1.04,1.25,0,1.04,281.5,0,0,0,0,0,0,0,47.984,0,0,0,4,0,0,0,3429.62,0,0,0,269.72,0,0,0,0,0,0,0,0,0,0,0,0,0,0,0,0,0,VALID,0,0,0,0,0,1,0,0,0,0,0,0,0,0,0,0,0,0,0,0,191.66,341.36,2,0,0.08,0.08,145,11.54,0.1,0.08,13.2,FLYING,CF1-J,0:/Integrated Flight Computer/aircraft/cf1_j_cfg.ks (inferred preloaded)
13.48,APPROACH,FLY_TO_FIX,128.14,79.8,-48.34,1526.07,2.33,1.8,0.87,280.32,3.551,0,0,-9.786,1,0.6,4.5,0.75,0.35,0.0168,0.4,37.559,37.559,37.559,48.336,1,281.5,1.033,0,0,1.04,1.18,0,1.04,281.5,0,0,0,0,0,0,0,47.944,0,0,0,4,0,0,0,3426.88,0,0,0,269.72,0,0,0,0,0,0,0,0,0,0,0,0,0,0,0,0,0,VALID,0,0,0,0,0,1,0,0,0,0,0,0,0,0,0,0,0,0,0,0,194.13,341.3,2,0,0.1,0.1,148,10.71,0.1,0.08,13.48,FLYING,CF1-J,0:/Integrated Flight Computer/aircraft/cf1_j_cfg.ks (inferred preloaded)
13.74,APPROACH,FLY_TO_FIX,128.19,79.8,-48.39,1526.68,2.34,1.8,0.87,280.38,3.381,0,0,-9.64,1,0.6,4.5,0.75,0.35,0.0168,0.4,37.543,37.543,37.543,48.389,1,281.5,1.027,0,0,1.04,1.13,0,1.03,281.5,0,0,0,0,0,0,0,47.908,0,0,0,4,0,0,0,3424.33,0,0,0,269.72,0,0,0,0,0,0,0,0,0,0,0,0,0,0,0,0,0,VALID,0,0,0,0,0,1,0,0,0,0,0,0,0,0,0,0,0,0,0,0,196.37,341.25,2,0,0.08,0.08,151,11.54,0.1,0.08,13.74,FLYING,CF1-J,0:/Integrated Flight Computer/aircraft/cf1_j_cfg.ks (inferred preloaded)
14.02,APPROACH,FLY_TO_FIX,128.27,79.8,-48.47,1527.33,2.35,1.8,0.86,280.44,3.207,0,0,-9.496,1,0.6,4.5,0.75,0.35,0.0168,0.4,37.521,37.521,37.521,48.462,1,281.51,1.021,0,0,1.05,1.07,0,1.02,281.51,0,0,0,0,0,0,0,47.869,0,0,0,4,0,0,0,3421.59,0,0,0,269.72,0,0,0,0,0,0,0,0,0,0,0,0,0,0,0,0,0,VALID,0,0,0,0,0,1,0,0,0,0,0,0,0,0,0,0,0,0,0,0,198.75,341.18,2,0,0.1,0.1,154,10.71,0.1,0.08,14.02,FLYING,CF1-J,0:/Integrated Flight Computer/aircraft/cf1_j_cfg.ks (inferred preloaded)
14.28,APPROACH,FLY_TO_FIX,128.35,79.8,-48.55,1527.94,2.36,1.79,0.85,280.49,3.054,0,0,-9.355,1,0.6,4.5,0.75,0.35,0.0168,0.4,37.498,37.498,37.498,48.541,1,281.51,1.015,0,0,1.05,1.02,0,1.02,281.51,0,0,0,0,0,0,0,47.832,0,0,0,4,0,0,0,3419.04,0,0,0,269.72,0,0,0,0,0,0,0,0,0,0,0,0,0,0,0,0,0,VALID,0,0,0,0,0,1,0,0,0,0,0,0,0,0,0,0,0,0,0,0,200.92,341.12,2,0,0.08,0.08,157,11.54,0.1,0.08,14.28,FLYING,CF1-J,0:/Integrated Flight Computer/aircraft/cf1_j_cfg.ks (inferred preloaded)
14.56,APPROACH,FLY_TO_FIX,128.44,79.8,-48.64,1528.61,2.37,1.79,0.84,280.55,2.897,0,0,-9.215,1,0.6,4.5,0.75,0.35,0.0168,0.4,37.469,37.469,37.469,48.637,1,281.51,1.009,0,0,1.06,0.96,0,1.01,281.51,0,0,0,0,0,0,0,47.793,0,0,0,4,0,0,0,3416.29,0,0,0,269.72,0,0,0,0,0,0,0,0,0,0,0,0,0,0,0,0,0,VALID,0,0,0,0,0,1,0,0,0,0,0,0,0,0,0,0,0,0,0,0,203.21,341.04,2,0,0.1,0.1,160,10.71,0.1,0.08,14.56,FLYING,CF1-J,0:/Integrated Flight Computer/aircraft/cf1_j_cfg.ks (inferred preloaded)
14.82,APPROACH,FLY_TO_FIX,128.54,79.8,-48.74,1529.22,2.38,1.78,0.84,280.6,2.759,0,0,-9.078,1,0.6,4.5,0.75,0.35,0.0168,0.4,37.439,37.439,37.439,48.736,1,281.51,1.004,0,0,1.06,0.92,0,1.01,281.51,0,0,0,0,0,0,0,47.756,0,0,0,4,0,0,0,3413.74,0,0,0,269.72,0,0,0,0,0,0,0,0,0,0,0,0,0,0,0,0,0,VALID,0,0,0,0,0,1,0,0,0,0,0,0,0,0,0,0,0,0,0,0,205.3,340.96,2,0,0.08,0.08,163,11.54,0.1,0.08,14.82,FLYING,CF1-J,0:/Integrated Flight Computer/aircraft/cf1_j_cfg.ks (inferred preloaded)
15.1,APPROACH,FLY_TO_FIX,128.67,79.8,-48.87,1529.89,2.38,1.78,0.83,280.64,2.619,0,0,-8.942,1,0.6,4.5,0.75,0.35,0.0168,0.4,37.403,37.403,37.403,48.858,1,281.51,0.998,0,0,1.06,0.87,0,1,281.51,0,0,0,0,0,0,0,47.717,0,0,0,4,0,0,0,3410.99,0,0,0,269.72,0,0,0,0,0,0,0,0,0,0,0,0,0,0,0,0,0,VALID,0,0,0,0,0,1,0,0,0,0,0,0,0,0,0,0,0,0,0,0,207.5,340.87,2,0,0.1,0.1,166,10.71,0.1,0.08,15.1,FLYING,CF1-J,0:/Integrated Flight Computer/aircraft/cf1_j_cfg.ks (inferred preloaded)
15.36,APPROACH,FLY_TO_FIX,128.79,79.8,-48.99,1530.51,2.39,1.77,0.82,280.69,2.495,0,0,-8.809,1,0.6,4.5,0.75,0.35,0.0168,0.4,37.366,37.366,37.366,48.981,1,281.52,0.992,0,0,1.06,0.83,0,1,281.52,0,0,0,0,0,0,0,47.68,0,0,0,4,0,0,0,3408.43,0,0,0,269.72,0,0,0,0,0,0,0,0,0,0,0,0,0,0,0,0,0,VALID,0,0,0,0,0,1,0,0,0,0,0,0,0,0,0,0,0,0,0,0,209.51,340.78,2,0,0.08,0.08,169,11.54,0.1,0.08,15.36,FLYING,CF1-J,0:/Integrated Flight Computer/aircraft/cf1_j_cfg.ks (inferred preloaded)
15.64,APPROACH,FLY_TO_FIX,128.93,79.8,-49.13,1531.17,2.4,1.76,0.81,280.73,2.368,0,0,-8.677,1,0.6,4.5,0.75,0.35,0.0168,0.4,37.323,37.323,37.323,49.123,1,281.52,0.987,0,0,1.07,0.79,0,0.99,281.52,0,0,0,0,0,0,0,47.641,0,0,0,4,0,0,0,3405.68,0,0,0,269.72,0,0,0,0,0,0,0,0,0,0,0,0,0,0,0,0,0,VALID,0,0,0,0,0,1,0,0,0,0,0,0,0,0,0,0,0,0,0,0,211.64,340.67,2,0,0.1,0.1,172,10.71,0.1,0.08,15.64,FLYING,CF1-J,0:/Integrated Flight Computer/aircraft/cf1_j_cfg.ks (inferred preloaded)
15.9,APPROACH,FLY_TO_FIX,129.08,79.8,-49.28,1531.8,2.41,1.75,0.8,280.77,2.257,0,0,-8.548,1,0.6,4.5,0.75,0.35,0.0168,0.4,37.279,37.279,37.279,49.269,1,281.52,0.982,0,0,1.07,0.75,0,0.98,281.52,0,0,0,0,0,0,0,47.604,0,0,0,4,0,0,0,3403.11,0,0,0,269.72,0,0,0,0,0,0,0,0,0,0,0,0,0,0,0,0,0,VALID,0,0,0,0,0,1,0,0,0,0,0,0,0,0,0,0,0,0,0,0,213.57,340.57,2,0,0.08,0.08,175,11.54,0.1,0.08,15.9,FLYING,CF1-J,0:/Integrated Flight Computer/aircraft/cf1_j_cfg.ks (inferred preloaded)
16.18,APPROACH,FLY_TO_FIX,129.25,79.8,-49.45,1532.47,2.41,1.74,0.78,280.81,2.143,0,0,-8.42,1,0.6,4.5,0.75,0.35,0.0168,0.4,37.229,37.229,37.229,49.436,1,281.52,0.976,0,0,1.07,0.71,0,0.98,281.52,0,0,0,0,0,0,0,47.565,0,0,0,4,0,0,0,3400.35,0,0,0,269.72,0,0,0,0,0,0,0,0,0,0,0,0,0,0,0,0,0,VALID,0,0,0,0,0,1,0,0,0,0,0,0,0,0,0,0,0,0,0,0,215.62,340.46,2,0,0.1,0.1,178,10.71,0.1,0.08,16.18,FLYING,CF1-J,0:/Integrated Flight Computer/aircraft/cf1_j_cfg.ks (inferred preloaded)
16.44,APPROACH,FLY_TO_FIX,129.42,79.8,-49.62,1533.1,2.42,1.73,0.77,280.85,2.043,0,0,-8.294,1,0.6,4.5,0.75,0.35,0.0168,0.4,37.179,37.179,37.179,49.605,1,281.52,0.971,0,0,1.07,0.67,0,0.97,281.52,0,0,0,0,0,0,0,47.528,0,0,0,4,0,0,0,3397.78,0,0,0,269.72,0,0,0,0,0,0,0,0,0,0,0,0,0,0,0,0,0,VALID,0,0,0,0,0,1,0,0,0,0,0,0,0,0,0,0,0,0,0,0,217.48,340.35,2,0,0.08,0.08,181,11.54,0.1,0.08,16.44,FLYING,CF1-J,0:/Integrated Flight Computer/aircraft/cf1_j_cfg.ks (inferred preloaded)
16.72,APPROACH,FLY_TO_FIX,129.61,79.8,-49.81,1533.77,2.43,1.72,0.76,280.89,1.94,0,0,-8.171,1,0.6,4.5,0.75,0.35,0.0168,0.4,37.121,37.121,37.121,49.796,1,281.52,0.966,0,0,1.07,0.64,0,0.97,281.52,0,0,0,0,0,0,0,47.489,0,0,0,4,0,0,0,3395.02,0,0,0,269.72,0,0,0,0,0,0,0,0,0,0,0,0,0,0,0,0,0,VALID,0,0,0,0,0,1,0,0,0,0,0,0,0,0,0,0,0,0,0,0,219.45,340.22,2,0,0.1,0.1,184,10.71,0.1,0.08,16.72,FLYING,CF1-J,0:/Integrated Flight Computer/aircraft/cf1_j_cfg.ks (inferred preloaded)
16.98,APPROACH,FLY_TO_FIX,129.8,79.8,-50,1534.4,2.43,1.71,0.75,280.92,1.849,0,0,-8.049,1,0.6,4.5,0.75,0.35,0.0168,0.4,37.064,37.064,37.064,49.986,1,281.53,0.961,0,0,1.07,0.61,0,0.96,281.53,0,0,0,0,0,0,0,47.452,0,0,0,4,0,0,0,3392.44,0,0,0,269.72,0,0,0,0,0,0,0,0,0,0,0,0,0,0,0,0,0,VALID,0,0,0,0,0,1,0,0,0,0,0,0,0,0,0,0,0,0,0,0,221.24,340.1,2,0,0.08,0.08,187,11.54,0.1,0.08,16.98,FLYING,CF1-J,0:/Integrated Flight Computer/aircraft/cf1_j_cfg.ks (inferred preloaded)
17.26,APPROACH,FLY_TO_FIX,130.02,79.8,-50.22,1535.08,2.44,1.7,0.74,280.95,1.757,0,0,-7.928,1,0.6,4.5,0.75,0.35,0.0168,0.4,37,37,37,50.202,1,281.53,0.956,0,0,1.07,0.58,0,0.96,281.53,0,0,0,0,0,0,0,47.412,0,0,0,4,0,0,0,3389.66,0,0,0,269.72,0,0,0,0,0,0,0,0,0,0,0,0,0,0,0,0,0,VALID,0,0,0,0,0,1,0,0,0,0,0,0,0,0,0,0,0,0,0,0,223.13,339.96,2,0,0.1,0.1,190,10.71,0.1,0.08,17.26,FLYING,CF1-J,0:/Integrated Flight Computer/aircraft/cf1_j_cfg.ks (inferred preloaded)
17.52,APPROACH,FLY_TO_FIX,130.23,79.8,-50.43,1535.71,2.44,1.69,0.72,280.98,1.674,0,0,-7.81,1,0.6,4.5,0.75,0.35,0.0168,0.4,36.936,36.936,36.936,50.413,1,281.53,0.951,0,0,1.07,0.55,0,0.95,281.53,0,0,0,0,0,0,0,47.375,0,0,0,4,0,0,0,3387.08,0,0,0,269.72,0,0,0,0,0,0,0,0,0,0,0,0,0,0,0,0,0,VALID,0,0,0,0,0,1,0,0,0,0,0,0,0,0,0,0,0,0,0,0,224.85,339.82,2,0,0.08,0.08,193,11.54,0.1,0.08,17.52,FLYING,CF1-J,0:/Integrated Flight Computer/aircraft/cf1_j_cfg.ks (inferred preloaded)
17.8,APPROACH,FLY_TO_FIX,130.47,79.8,-50.67,1536.4,2.45,1.67,0.71,281.01,1.58,0,0,-7.694,1,0.6,4.5,0.75,0.35,0.0168,0.4,36.864,36.864,36.864,50.653,1,281.53,0.946,0,0,1.07,0.52,0,0.95,281.53,0,0,0,0,0,0,0,47.335,0,0,0,4,0,0,0,3384.3,0,0,0,269.72,0,0,0,0,0,0,0,0,0,0,0,0,0,0,0,0,0,VALID,0,0,0,0,0,1,0,0,0,0,0,0,0,0,0,0,0,0,0,0,226.67,339.68,2,0,0.1,0.1,196,10.71,0.1,0.08,17.8,FLYING,CF1-J,0:/Integrated Flight Computer/aircraft/cf1_j_cfg.ks (inferred preloaded)
18.06,APPROACH,FLY_TO_FIX,130.71,79.8,-50.91,1537.03,2.45,1.66,0.69,281.03,1.487,0,0,-7.579,1,0.6,4.5,0.75,0.35,0.0168,0.4,36.794,36.794,36.794,50.887,1,281.53,0.941,0,0,1.07,0.5,0,0.94,281.53,0,0,0,0,0,0,0,47.298,0,0,0,4,0,0,0,3381.71,0,0,0,269.72,0,0,0,0,0,0,0,0,0,0,0,0,0,0,0,0,0,VALID,0,0,0,0,0,1,0,0,0,0,0,0,0,0,0,0,0,0,0,0,228.32,339.53,2,0,0.08,0.08,199,11.54,0.1,0.08,18.06,FLYING,CF1-J,0:/Integrated Flight Computer/aircraft/cf1_j_cfg.ks (inferred preloaded)
18.34,APPROACH,FLY_TO_FIX,130.97,79.8,-51.17,1537.72,2.46,1.64,0.68,281.06,1.386,0,0,-7.466,1,0.6,4.5,0.75,0.35,0.0168,0.4,36.715,36.715,36.715,51.151,1,281.53,0.936,0,0,1.08,0.47,0,0.94,281.53,0,0,0,0,0,0,0,47.258,0,0,0,4,0,0,0,3378.91,0,0,0,269.72,0,0,0,0,0,0,0,0,0,0,0,0,0,0,0,0,0,VALID,0,0,0,0,0,1,0,0,0,0,0,0,0,0,0,0,0,0,0,0,230.07,339.37,2,0,0.1,0.1,202,10.71,0.1,0.08,18.34,FLYING,CF1-J,0:/Integrated Flight Computer/aircraft/cf1_j_cfg.ks (inferred preloaded)
18.6,APPROACH,FLY_TO_FIX,131.23,79.8,-51.43,1538.35,2.46,1.63,0.66,281.08,1.294,0,0,-7.354,1,0.6,4.5,0.75,0.35,0.0168,0.4,36.638,36.638,36.638,51.407,1,281.53,0.931,0,0,1.08,0.45,0,0.93,281.53,0,0,0,0,0,0,0,47.221,0,0,0,4,0,0,0,3376.31,0,0,0,269.72,0,0,0,0,0,0,0,0,0,0,0,0,0,0,0,0,0,VALID,0,0,0,0,0,1,0,0,0,0,0,0,0,0,0,0,0,0,0,0,231.65,339.22,2,0,0.08,0.08,205,11.54,0.1,0.08,18.6,FLYING,CF1-J,0:/Integrated Flight Computer/aircraft/cf1_j_cfg.ks (inferred preloaded)
18.88,APPROACH,FLY_TO_FIX,131.52,79.8,-51.72,1539.04,2.47,1.61,0.65,281.1,1.199,0,0,-7.244,1,0.6,4.5,0.75,0.35,0.0168,0.4,36.551,36.551,36.551,51.695,1,281.53,0.926,0,0,1.08,0.43,0,0.93,281.53,0,0,0,0,0,0,0,47.181,0,0,0,4,0,0,0,3373.51,0,0,0,269.72,0,0,0,0,0,0,0,0,0,0,0,0,0,0,0,0,0,VALID,0,0,0,0,0,1,0,0,0,0,0,0,0,0,0,0,0,0,0,0,233.33,339.04,2,0,0.1,0.1,208,10.71,0.1,0.08,18.88,FLYING,CF1-J,0:/Integrated Flight Computer/aircraft/cf1_j_cfg.ks (inferred preloaded)
19.14,APPROACH,FLY_TO_FIX,131.79,79.8,-51.99,1539.68,2.47,1.6,0.63,281.12,1.115,0,0,-7.136,1,0.6,4.5,0.75,0.35,0.0168,0.4,36.468,36.468,36.468,51.973,1,281.54,0.922,0,0,1.08,0.42,0,0.92,281.54,0,0,0,0,0,0,0,47.144,0,0,0,4,0,0,0,3370.89,0,0,0,269.72,0,0,0,0,0,0,0,0,0,0,0,0,0,0,0,0,0,VALID,0,0,0,0,0,1,0,0,0,0,0,0,0,0,0,0,0,0,0,0,234.85,338.88,2,0,0.08,0.08,211,11.54,0.1,0.08,19.14,FLYING,CF1-J,0:/Integrated Flight Computer/aircraft/cf1_j_cfg.ks (inferred preloaded)
19.42,APPROACH,FLY_TO_FIX,132.11,79.8,-52.31,1540.37,2.48,1.58,0.61,281.14,1.031,0,0,-7.03,1,0.6,4.5,0.75,0.35,0.0168,0.4,36.374,36.374,36.374,52.285,1,281.54,0.917,0,0,1.08,0.4,0,0.92,281.54,0,0,0,0,0,0,0,47.103,0,0,0,4,0,0,0,3368.08,0,0,0,269.72,0,0,0,0,0,0,0,0,0,0,0,0,0,0,0,0,0,VALID,0,0,0,0,0,1,0,0,0,0,0,0,0,0,0,0,0,0,0,0,236.46,338.7,2,0,0.1,0.1,214,10.71,0.1,0.08,19.42,FLYING,CF1-J,0:/Integrated Flight Computer/aircraft/cf1_j_cfg.ks (inferred preloaded)
19.68,APPROACH,FLY_TO_FIX,132.41,79.8,-52.61,1541.01,2.48,1.56,0.6,281.16,0.958,0,0,-6.925,1,0.6,4.5,0.75,0.35,0.0168,0.4,36.284,36.284,36.284,52.587,1,281.54,0.912,0,0,1.08,0.38,0,0.91,281.54,0,0,0,0,0,0,0,47.066,0,0,0,4,0,0,0,3365.45,0,0,0,269.72,0,0,0,0,0,0,0,0,0,0,0,0,0,0,0,0,0,VALID,0,0,0,0,0,1,0,0,0,0,0,0,0,0,0,0,0,0,0,0,237.92,338.52,2,0,0.08,0.08,217,11.54,0.1,0.08,19.68,FLYING,CF1-J,0:/Integrated Flight Computer/aircraft/cf1_j_cfg.ks (inferred preloaded)
19.96,APPROACH,FLY_TO_FIX,132.75,79.8,-52.95,1541.71,2.49,1.54,0.58,281.17,0.886,0,0,-6.822,1,0.6,4.5,0.75,0.35,0.0168,0.4,36.182,36.182,36.182,52.925,1,281.54,0.906,0,0,1.07,0.37,0,0.91,281.54,0,0,0,0,0,0,0,47.025,0,0,0,4,0,0,0,3362.62,0,0,0,269.72,0,0,0,0,0,0,0,0,0,0,0,0,0,0,0,0,0,VALID,0,0,0,0,0,1,0,0,0,0,0,0,0,0,0,0,0,0,0,0,239.46,338.33,2,0,0.1,0.1,220,10.71,0.1,0.08,19.96,FLYING,CF1-J,0:/Integrated Flight Computer/aircraft/cf1_j_cfg.ks (inferred preloaded)
20.22,APPROACH,FLY_TO_FIX,133.07,79.8,-53.27,1542.35,2.5,1.53,0.56,281.19,0.824,0,0,-6.72,1,0.6,4.5,0.75,0.35,0.0168,0.4,36.085,36.085,36.085,53.25,1,281.54,0.901,0,0,1.07,0.35,0,0.9,281.54,0,0,0,0,0,0,0,46.988,0,0,0,4,0,0,0,3359.99,0,0,0,269.72,0,0,0,0,0,0,0,0,0,0,0,0,0,0,0,0,0,VALID,0,0,0,0,0,1,0,0,0,0,0,0,0,0,0,0,0,0,0,0,240.86,338.14,2,0,0.08,0.08,223,11.54,0.1,0.08,20.22,FLYING,CF1-J,0:/Integrated Flight Computer/aircraft/cf1_j_cfg.ks (inferred preloaded)
20.5,APPROACH,FLY_TO_FIX,133.44,79.8,-53.64,1543.05,2.5,1.51,0.54,281.2,0.765,0,0,-6.619,1,0.6,4.5,0.75,0.35,0.0168,0.4,35.976,35.976,35.976,53.612,1,281.54,0.896,0,0,1.07,0.34,0,0.9,281.54,0,0,0,0,0,0,0,46.947,0,0,0,4,0,0,0,3357.14,0,0,0,269.72,0,0,0,0,0,0,0,0,0,0,0,0,0,0,0,0,0,VALID,0,0,0,0,0,1,0,0,0,0,0,0,0,0,0,0,0,0,0,0,242.34,337.94,2,0,0.1,0.1,226,10.71,0.1,0.08,20.5,FLYING,CF1-J,0:/Integrated Flight Computer/aircraft/cf1_j_cfg.ks (inferred preloaded)
20.76,APPROACH,FLY_TO_FIX,133.79,79.8,-53.99,1543.7,2.51,1.49,0.53,281.21,0.714,0,0,-6.521,1,0.6,4.5,0.75,0.35,0.0168,0.4,35.872,35.872,35.872,53.961,1,281.54,0.891,0,0,1.07,0.33,0,0.89,281.54,0,0,0,0,0,0,0,46.909,0,0,0,4,0,0,0,3354.49,0,0,0,269.72,0,0,0,0,0,0,0,0,0,0,0,0,0,0,0,0,0,VALID,0,0,0,0,0,1,0,0,0,0,0,0,0,0,0,0,0,0,0,0,243.68,337.74,2,0,0.08,0.08,229,11.54,0.1,0.08,20.76,FLYING,CF1-J,0:/Integrated Flight Computer/aircraft/cf1_j_cfg.ks (inferred preloaded)
21.04,APPROACH,FLY_TO_FIX,134.18,79.8,-54.38,1544.4,2.52,1.47,0.5,281.23,0.666,0,0,-6.423,1,0.6,4.5,0.75,0.35,0.0168,0.4,35.755,35.755,35.755,54.349,1,281.54,0.886,0,0,1.07,0.32,0,0.89,281.54,0,0,0,0,0,0,0,46.868,0,0,0,4,0,0,0,3351.64,0,0,0,269.72,0,0,0,0,0,0,0,0,0,0,0,0,0,0,0,0,0,VALID,0,0,0,0,0,1,0,0,0,0,0,0,0,0,0,0,0,0,0,0,245.09,337.53,2,0,0.1,0.1,232,10.71,0.1,0.08,21.04,FLYING,CF1-J,0:/Integrated Flight Computer/aircraft/cf1_j_cfg.ks (inferred preloaded)
21.3,APPROACH,FLY_TO_FIX,134.55,79.8,-54.75,1545.05,2.52,1.45,0.49,281.24,0.624,0,0,-6.327,1,0.6,4.5,0.75,0.35,0.0168,0.4,35.644,35.644,35.644,54.721,1,281.54,0.881,0,0,1.07,0.31,0,0.88,281.54,0,0,0,0,0,0,0,46.83,0,0,0,4,0,0,0,3348.97,0,0,0,269.72,0,0,0,0,0,0,0,0,0,0,0,0,0,0,0,0,0,VALID,0,0,0,0,0,1,0,0,0,0,0,0,0,0,0,0,0,0,0,0,246.37,337.32,2,0,0.08,0.08,235,11.54,0.1,0.08,21.3,FLYING,CF1-J,0:/Integrated Flight Computer/aircraft/cf1_j_cfg.ks (inferred preloaded)
21.58,APPROACH,FLY_TO_FIX,134.97,79.8,-55.17,1545.75,2.53,1.43,0.47,281.25,0.585,0,0,-6.233,1,0.6,4.5,0.75,0.35,0.0168,0.4,35.519,35.519,35.519,55.136,1,281.54,0.875,0,0,1.07,0.3,0,0.88,281.54,0,0,0,0,0,0,0,46.789,0,0,0,4,0,0,0,3346.1,0,0,0,269.72,0,0,0,0,0,0,0,0,0,0,0,0,0,0,0,0,0,VALID,0,0,0,0,0,1,0,0,0,0,0,0,0,0,0,0,0,0,0,0,247.72,337.1,2,0,0.1,0.1,238,10.71,0.1,0.08,21.58,FLYING,CF1-J,0:/Integrated Flight Computer/aircraft/cf1_j_cfg.ks (inferred preloaded)
21.84,APPROACH,FLY_TO_FIX,135.36,79.8,-55.56,1546.41,2.53,1.41,0.45,281.26,0.551,0,0,-6.14,1,0.6,4.5,0.75,0.35,0.0168,0.4,35.4,35.4,35.4,55.533,1,281.54,0.87,0,0,1.07,0.29,0,0.87,281.54,0,0,0,0,0,0,0,46.751,0,0,0,4,0,0,0,3343.42,0,0,0,269.72,0,0,0,0,0,0,0,0,0,0,0,0,0,0,0,0,0,VALID,0,0,0,0,0,1,0,0,0,0,0,0,0,0,0,0,0,0,0,0,248.78,336.88,2,0,0.08,0.08,241,11.54,0.1,0.08,21.84,FLYING,CF1-J,0:/Integrated Flight Computer/aircraft/cf1_j_cfg.ks (inferred preloaded)
22.12,APPROACH,FLY_TO_FIX,135.8,79.8,-56,1547.12,2.54,1.39,0.42,281.27,0.519,0,0,-6.048,1,0.6,4.5,0.75,0.35,0.0168,0.4,35.268,35.268,35.268,55.973,1,281.54,0.864,0,0,1.07,0.28,0,0.87,281.54,0,0,0,0,0,0,0,46.709,0,0,0,4,0,0,0,3340.53,0,0,0,269.72,0,0,0,0,0,0,0,0,0,0,0,0,0,0,0,0,0,VALID,0,0,0,0,0,1,0,0,0,0,0,0,0,0,0,0,0,0,0,0,248.74,336.65,2,0,0.1,0.1,244,10.71,0.1,0.08,22.12,FLYING,CF1-J,0:/Integrated Flight Computer/aircraft/cf1_j_cfg.ks (inferred preloaded)
22.38,APPROACH,FLY_TO_FIX,136.22,79.8,-56.42,1547.77,2.55,1.37,0.4,281.27,0.492,0,0,-5.958,1,0.6,4.5,0.75,0.35,0.0168,0.4,35.144,35.144,35.144,56.386,1,281.54,0.859,0,0,1.07,0.27,0,0.86,281.54,0,0,0,0,0,0,0,46.671,0,0,0,4,0,0,0,3337.83,0,0,0,269.72,0,0,0,0,0,0,0,0,0,0,0,0,0,0,0,0,0,VALID,0,0,0,0,0,1,0,0,0,0,0,0,0,0,0,0,0,0,0,0,245.7,336.43,2,0,0.08,0.08,247,11.54,0.1,0.08,22.38,FLYING,CF1-J,0:/Integrated Flight Computer/aircraft/cf1_j_cfg.ks (inferred preloaded)
22.66,APPROACH,FLY_TO_FIX,136.65,79.8,-56.85,1548.49,2.55,1.35,0.39,281.28,0.466,0,0,-5.869,1,0.6,4.5,0.75,0.35,0.0168,0.4,35.013,35.013,35.013,56.824,1,281.55,0.854,0,0,1.07,0.26,0,0.86,281.55,0,0,0,0,0,0,0,46.629,0,0,0,4,0,0,0,3334.92,0,0,0,269.72,0,0,0,0,0,0,0,0,0,0,0,0,0,0,0,0,0,VALID,0,0,0,0,0,1,0,0,0,0,0,0,0,0,0,0,0,0,0,0,239.47,336.2,2,0,0.1,0.1,250,10.71,0.1,0.08,22.66,FLYING,CF1-J,0:/Integrated Flight Computer/aircraft/cf1_j_cfg.ks (inferred preloaded)
22.92,APPROACH,FLY_TO_FIX,137.04,79.8,-57.24,1549.15,2.56,1.33,0.37,281.29,0.445,0,0,-5.782,1,0.6,4.5,0.75,0.35,0.0168,0.4,34.898,34.898,34.898,57.207,1,281.55,0.85,0,0,1.07,0.26,0,0.85,281.55,0,0,0,0,0,0,0,46.59,0,0,0,4,0,0,0,3332.21,0,0,0,269.72,0,0,0,0,0,0,0,0,0,0,0,0,0,0,0,0,0,VALID,0,0,0,0,0,1,0,0,0,0,0,0,0,0,0,0,0,0,0,0,232.61,335.99,2,0,0.08,0.08,253,11.54,0.1,0.08,22.92,FLYING,CF1-J,0:/Integrated Flight Computer/aircraft/cf1_j_cfg.ks (inferred preloaded)
23.2,APPROACH,FLY_TO_FIX,137.42,79.8,-57.62,1549.86,2.56,1.31,0.36,281.3,0.423,0,0,-5.695,1,0.6,4.5,0.75,0.35,0.0168,0.4,34.782,34.782,34.782,57.593,1,281.55,0.845,0,0,1.07,0.25,0,0.85,281.55,0,0,0,0,0,0,0,46.549,0,0,0,4,0,0,0,3329.29,0,0,0,269.72,0,0,0,0,0,0,0,0,0,0,0,0,0,0,0,0,0,VALID,0,0,0,0,0,1,0,0,0,0,0,0,0,0,0,0,0,0,0,0,224.61,335.79,2,0,0.1,0.1,256,10.71,0.1,0.08,23.2,FLYING,CF1-J,0:/Integrated Flight Computer/aircraft/cf1_j_cfg.ks (inferred preloaded)
23.46,APPROACH,FLY_TO_FIX,137.75,79.8,-57.95,1550.52,2.56,1.3,0.34,281.31,0.406,0,0,-5.61,1,0.6,4.5,0.75,0.35,0.0168,0.4,34.684,34.684,34.684,57.922,1,281.55,0.841,0,0,1.06,0.24,0,0.84,281.55,0,0,0,0,0,0,0,46.51,0,0,0,4,0,0,0,3326.56,0,0,0,269.72,0,0,0,0,0,0,0,0,0,0,0,0,0,0,0,0,0,VALID,0,0,0,0,0,1,0,0,0,0,0,0,0,0,0,0,0,0,0,0,216.82,335.61,2,0,0.08,0.08,259,11.54,0.1,0.08,23.46,FLYING,CF1-J,0:/Integrated Flight Computer/aircraft/cf1_j_cfg.ks (inferred preloaded)
23.74,APPROACH,FLY_TO_FIX,138.06,79.8,-58.26,1551.24,2.56,1.29,0.33,281.31,0.388,0,0,-5.527,1,0.6,4.5,0.75,0.35,0.0168,0.4,34.587,34.587,34.587,58.242,1,281.55,0.838,0,0,1.06,0.24,0,0.84,281.55,0,0,0,0,0,0,0,46.468,0,0,0,4,0,0,0,3323.62,0,0,0,269.72,0,0,0,0,0,0,0,0,0,0,0,0,0,0,0,0,0,VALID,0,0,0,0,0,1,0,0,0,0,0,0,0,0,0,0,0,0,0,0,208.1,335.44,2,0,0.1,0.1,262,10.71,0.1,0.08,23.74,FLYING,CF1-J,0:/Integrated Flight Computer/aircraft/cf1_j_cfg.ks (inferred preloaded)
24,APPROACH,FLY_TO_FIX,138.32,79.8,-58.52,1551.9,2.56,1.28,0.32,281.32,0.373,0,0,-5.444,1,0.6,4.5,0.75,0.35,0.0168,0.4,34.508,34.508,34.508,58.506,1,281.55,0.835,0,0,1.06,0.23,0,0.84,281.55,0,0,0,0,0,0,0,46.429,0,0,0,4,0,0,0,3320.89,0,0,0,269.72,0,0,0,0,0,0,0,0,0,0,0,0,0,0,0,0,0,VALID,0,0,0,0,0,1,0,0,0,0,0,0,0,0,0,0,0,0,0,0,200.08,335.29,2,0,0.08,0.08,265,11.54,0.1,0.08,24,FLYING,CF1-J,0:/Integrated Flight Computer/aircraft/cf1_j_cfg.ks (inferred preloaded)
24.28,APPROACH,FLY_TO_FIX,138.57,79.8,-58.77,1552.62,2.56,1.27,0.32,281.32,0.357,0,0,-5.363,1,0.6,4.5,0.75,0.35,0.0168,0.4,34.434,34.434,34.434,58.753,1,281.55,0.832,0,0,1.06,0.22,0,0.83,281.55,0,0,0,0,0,0,0,46.386,0,0,0,4,0,0,0,3317.94,0,0,0,269.72,0,0,0,0,0,0,0,0,0,0,0,0,0,0,0,0,0,VALID,0,0,0,0,0,1,0,0,0,0,0,0,0,0,0,0,0,0,0,0,191.67,335.15,2,0,0.1,0.1,268,10.71,0.1,0.08,24.28,FLYING,CF1-J,0:/Integrated Flight Computer/aircraft/cf1_j_cfg.ks (inferred preloaded)
24.54,APPROACH,FLY_TO_FIX,138.76,79.8,-58.96,1553.28,2.55,1.26,0.31,281.33,0.344,0,0,-5.283,1,0.6,4.5,0.75,0.35,0.0168,0.4,34.375,34.375,34.375,58.95,1,281.55,0.829,0,0,1.05,0.22,0,0.83,281.55,0,0,0,0,0,0,0,46.347,0,0,0,4,0,0,0,3315.19,0,0,0,269.72,0,0,0,0,0,0,0,0,0,0,0,0,0,0,0,0,0,VALID,0,0,0,0,0,1,0,0,0,0,0,0,0,0,0,0,0,0,0,0,184.05,335.03,2,0,0.08,0.08,271,11.54,0.1,0.08,24.54,FLYING,CF1-J,0:/Integrated Flight Computer/aircraft/cf1_j_cfg.ks (inferred preloaded)
24.82,APPROACH,FLY_TO_FIX,138.94,79.8,-59.14,1553.99,2.55,1.25,0.31,281.34,0.331,0,0,-5.204,1,0.6,4.5,0.75,0.35,0.0168,0.4,34.323,34.323,34.323,59.125,1,281.55,0.827,0,0,1.05,0.21,0,0.83,281.55,0,0,0,0,0,0,0,46.305,0,0,0,4,0,0,0,3312.24,0,0,0,269.72,0,0,0,0,0,0,0,0,0,0,0,0,0,0,0,0,0,VALID,0,0,0,0,0,1,0,0,0,0,0,0,0,0,0,0,0,0,0,0,176.38,334.93,2,0,0.1,0.1,274,10.71,0.1,0.08,24.82,FLYING,CF1-J,0:/Integrated Flight Computer/aircraft/cf1_j_cfg.ks (inferred preloaded)
25.08,APPROACH,FLY_TO_FIX,139.07,79.8,-59.27,1554.65,2.55,1.24,0.3,281.34,0.319,0,0,-5.126,1,0.6,4.5,0.75,0.35,0.0168,0.4,34.283,34.283,34.283,59.258,1,281.55,0.825,0,0,1.05,0.21,0,0.83,281.55,0,0,0,0,0,0,0,46.265,0,0,0,4,0,0,0,3309.49,0,0,0,269.72,0,0,0,0,0,0,0,0,0,0,0,0,0,0,0,0,0,VALID,0,0,0,0,0,1,0,0,0,0,0,0,0,0,0,0,0,0,0,0,169.74,334.84,2,0,0.08,0.08,277,11.54,0.1,0.08,25.08,FLYING,CF1-J,0:/Integrated Flight Computer/aircraft/cf1_j_cfg.ks (inferred preloaded)
25.36,APPROACH,FLY_TO_FIX,139.17,79.8,-59.37,1555.36,2.54,1.24,0.3,281.35,0.307,0,0,-5.05,1,0.6,4.5,0.75,0.35,0.0168,0.4,34.25,34.25,34.25,59.368,1,281.55,0.823,0,0,1.05,0.2,0,0.83,281.55,0,0,0,0,0,0,0,46.223,0,0,0,4,0,0,0,3306.52,0,0,0,269.72,0,0,0,0,0,0,0,0,0,0,0,0,0,0,0,0,0,VALID,0,0,0,0,0,1,0,0,0,0,0,0,0,0,0,0,0,0,0,0,163.36,334.76,2,0,0.1,0.1,280,10.71,0.1,0.08,25.36,FLYING,CF1-J,0:/Integrated Flight Computer/aircraft/cf1_j_cfg.ks (inferred preloaded)
25.62,APPROACH,FLY_TO_FIX,139.25,79.8,-59.45,1556.02,2.53,1.23,0.3,281.35,0.297,0,0,-4.974,1,0.6,4.5,0.75,0.35,0.0168,0.4,34.226,34.226,34.226,59.445,1,281.55,0.821,0,0,1.04,0.2,0,0.82,281.55,0,0,0,0,0,0,0,46.184,0,0,0,4,0,0,0,3303.77,0,0,0,269.72,0,0,0,0,0,0,0,0,0,0,0,0,0,0,0,0,0,VALID,0,0,0,0,0,1,0,0,0,0,0,0,0,0,0,0,0,0,0,0,157.82,334.7,2,0,0.08,0.08,283,11.54,0.1,0.08,25.62,FLYING,CF1-J,0:/Integrated Flight Computer/aircraft/cf1_j_cfg.ks (inferred preloaded)
25.9,APPROACH,FLY_TO_FIX,139.31,79.8,-59.51,1556.73,2.53,1.23,0.3,281.36,0.286,0,0,-4.9,1,0.6,4.5,0.75,0.35,0.0168,0.4,34.209,34.209,34.209,59.503,1,281.55,0.82,0,0,1.04,0.2,0,0.82,281.55,0,0,0,0,0,0,0,46.141,0,0,0,4,0,0,0,3300.8,0,0,0,269.72,0,0,0,0,0,0,0,0,0,0,0,0,0,0,0,0,0,VALID,0,0,0,0,0,1,0,0,0,0,0,0,0,0,0,0,0,0,0,0,152.68,334.64,2,0,0.1,0.1,286,10.71,0.1,0.08,25.9,FLYING,CF1-J,0:/Integrated Flight Computer/aircraft/cf1_j_cfg.ks (inferred preloaded)
26.16,APPROACH,FLY_TO_FIX,139.33,79.8,-59.53,1557.39,2.52,1.23,0.3,281.36,0.277,0,0,-4.827,1,0.6,4.5,0.75,0.35,0.0168,0.4,34.2,34.2,34.2,59.533,1,281.55,0.819,0,0,1.04,0.19,0,0.82,281.55,0,0,0,0,0,0,0,46.102,0,0,0,4,0,0,0,3298.05,0,0,0,269.72,0,0,0,0,0,0,0,0,0,0,0,0,0,0,0,0,0,VALID,0,0,0,0,0,1,0,0,0,0,0,0,0,0,0,0,0,0,0,0,148.64,334.6,2,0,0.08,0.08,289,11.54,0.1,0.08,26.16,FLYING,CF1-J,0:/Integrated Flight Computer/aircraft/cf1_j_cfg.ks (inferred preloaded)
26.44,APPROACH,FLY_TO_FIX,139.35,79.8,-59.55,1558.09,2.51,1.23,0.3,281.37,0.266,0,0,-4.755,1,0.6,4.5,0.75,0.35,0.0168,0.4,34.197,34.197,34.197,59.545,1,281.55,0.817,0,0,1.03,0.19,0,0.82,281.55,0,0,0,0,0,0,0,46.059,0,0,0,4,0,0,0,3295.08,0,0,0,269.72,0,0,0,0,0,0,0,0,0,0,0,0,0,0,0,0,0,VALID,0,0,0,0,0,1,0,0,0,0,0,0,0,0,0,0,0,0,0,0,145.04,334.56,2,0,0.1,0.1,292,10.71,0.1,0.08,26.44,FLYING,CF1-J,0:/Integrated Flight Computer/aircraft/cf1_j_cfg.ks (inferred preloaded)
26.7,APPROACH,FLY_TO_FIX,139.34,79.8,-59.54,1558.74,2.5,1.23,0.3,281.37,0.257,0,0,-4.684,1,0.6,4.5,0.75,0.35,0.0168,0.4,34.198,34.198,34.198,59.54,1,281.55,0.816,0,0,1.03,0.18,0,0.82,281.55,0,0,0,0,0,0,0,46.02,0,0,0,4,0,0,0,3292.32,0,0,0,269.72,0,0,0,0,0,0,0,0,0,0,0,0,0,0,0,0,0,VALID,0,0,0,0,0,1,0,0,0,0,0,0,0,0,0,0,0,0,0,0,142.34,334.54,2,0,0.08,0.08,295,11.54,0.1,0.08,26.7,FLYING,CF1-J,0:/Integrated Flight Computer/aircraft/cf1_j_cfg.ks (inferred preloaded)
26.98,APPROACH,FLY_TO_FIX,139.32,79.8,-59.52,1559.44,2.5,1.22,0.3,281.37,0.248,0,0,-4.614,1,0.6,4.5,0.75,0.35,0.0168,0.4,34.204,34.204,34.204,59.521,1,281.55,0.815,0,0,1.03,0.18,0,0.82,281.55,0,0,0,0,0,0,0,45.978,0,0,0,4,0,0,0,3289.36,0,0,0,269.72,0,0,0,0,0,0,0,0,0,0,0,0,0,0,0,0,0,VALID,0,0,0,0,0,1,0,0,0,0,0,0,0,0,0,0,0,0,0,0,140.09,334.52,2,0,0.1,0.1,298,10.71,0.1,0.08,26.98,FLYING,CF1-J,0:/Integrated Flight Computer/aircraft/cf1_j_cfg.ks (inferred preloaded)
27.24,APPROACH,FLY_TO_FIX,139.29,79.8,-59.49,1560.09,2.49,1.22,0.3,281.38,0.24,0,0,-4.545,1,0.6,4.5,0.75,0.35,0.0168,0.4,34.212,34.212,34.212,59.493,1,281.55,0.814,0,0,1.02,0.18,0,0.82,281.55,0,0,0,0,0,0,0,45.938,0,0,0,4,0,0,0,3286.6,0,0,0,269.72,0,0,0,0,0,0,0,0,0,0,0,0,0,0,0,0,0,VALID,0,0,0,0,0,1,0,0,0,0,0,0,0,0,0,0,0,0,0,0,138.55,334.5,2,0,0.08,0.08,301,11.54,0.1,0.08,27.24,FLYING,CF1-J,0:/Integrated Flight Computer/aircraft/cf1_j_cfg.ks (inferred preloaded)
27.52,APPROACH,FLY_TO_FIX,139.25,79.8,-59.45,1560.79,2.48,1.22,0.31,281.38,0.231,0,0,-4.477,1,0.6,4.5,0.75,0.35,0.0168,0.4,34.223,34.223,34.223,59.456,1,281.56,0.813,0,0,1.02,0.17,0,0.82,281.56,0,0,0,0,0,0,0,45.896,0,0,0,4,0,0,0,3283.64,0,0,0,269.72,0,0,0,0,0,0,0,0,0,0,0,0,0,0,0,0,0,VALID,0,0,0,0,0,1,0,0,0,0,0,0,0,0,0,0,0,0,0,0,137.42,334.49,2,0,0.1,0.1,304,10.71,0.1,0.08,27.52,FLYING,CF1-J,0:/Integrated Flight Computer/aircraft/cf1_j_cfg.ks (inferred preloaded)
27.78,APPROACH,FLY_TO_FIX,139.21,79.8,-59.41,1561.43,2.47,1.22,0.31,281.39,0.224,0,0,-4.411,1,0.6,4.5,0.75,0.35,0.0168,0.4,34.235,34.235,34.235,59.416,1,281.56,0.812,0,0,1.02,0.17,0,0.81,281.56,0,0,0,0,0,0,0,45.856,0,0,0,4,0,0,0,3280.88,0,0,0,269.72,0,0,0,0,0,0,0,0,0,0,0,0,0,0,0,0,0,VALID,0,0,0,0,0,1,0,0,0,0,0,0,0,0,0,0,0,0,0,0,136.79,334.48,2,0,0.08,0.08,307,11.54,0.1,0.08,27.78,FLYING,CF1-J,0:/Integrated Flight Computer/aircraft/cf1_j_cfg.ks (inferred preloaded)
28.06,APPROACH,FLY_TO_FIX,139.17,79.8,-59.37,1562.12,2.47,1.22,0.31,281.39,0.217,0,0,-4.345,1,0.6,4.5,0.75,0.35,0.0168,0.4,34.249,34.249,34.249,59.371,1,281.56,0.811,0,0,1.02,0.17,0,0.81,281.56,0,0,0,0,0,0,0,45.814,0,0,0,4,0,0,0,3277.92,0,0,0,269.72,0,0,0,0,0,0,0,0,0,0,0,0,0,0,0,0,0,VALID,0,0,0,0,0,1,0,0,0,0,0,0,0,0,0,0,0,0,0,0,136.51,334.46,2,0,0.1,0.1,310,10.71,0.1,0.08,28.06,FLYING,CF1-J,0:/Integrated Flight Computer/aircraft/cf1_j_cfg.ks (inferred preloaded)
28.32,APPROACH,FLY_TO_FIX,139.12,79.8,-59.32,1562.76,2.46,1.22,0.31,281.39,0.21,0,0,-4.28,1,0.6,4.5,0.75,0.35,0.0168,0.4,34.262,34.262,34.262,59.326,1,281.56,0.81,0,0,1.01,0.16,0,0.81,281.56,0,0,0,0,0,0,0,45.775,0,0,0,4,0,0,0,3275.17,0,0,0,269.72,0,0,0,0,0,0,0,0,0,0,0,0,0,0,0,0,0,VALID,0,0,0,0,0,1,0,0,0,0,0,0,0,0,0,0,0,0,0,0,136.57,334.46,2,0,0.08,0.08,313,11.54,0.1,0.08,28.32,FLYING,CF1-J,0:/Integrated Flight Computer/aircraft/cf1_j_cfg.ks (inferred preloaded)
28.6,APPROACH,FLY_TO_FIX,139.07,79.8,-59.27,1563.45,2.45,1.22,0.32,281.4,0.203,0,0,-4.216,1,0.6,4.5,0.75,0.35,0.0168,0.4,34.278,34.278,34.278,59.272,1,281.56,0.809,0,0,1.01,0.16,0,0.81,281.56,0,0,0,0,0,0,0,45.732,0,0,0,4,0,0,0,3272.2,0,0,0,269.72,0,0,0,0,0,0,0,0,0,0,0,0,0,0,0,0,0,VALID,0,0,0,0,0,1,0,0,0,0,0,0,0,0,0,0,0,0,0,0,136.76,334.45,2,0,0.1,0.1,316,10.71,0.1,0.08,28.6,FLYING,CF1-J,0:/Integrated Flight Computer/aircraft/cf1_j_cfg.ks (inferred preloaded)
28.86,APPROACH,FLY_TO_FIX,139.02,79.8,-59.22,1564.08,2.44,1.22,0.32,281.4,0.196,0,0,-4.153,1,0.6,4.5,0.75,0.35,0.0168,0.4,34.293,34.293,34.293,59.223,1,281.56,0.808,0,0,1.01,0.16,0,0.81,281.56,0,0,0,0,0,0,0,45.693,0,0,0,4,0,0,0,3269.45,0,0,0,269.72,0,0,0,0,0,0,0,0,0,0,0,0,0,0,0,0,0,VALID,0,0,0,0,0,1,0,0,0,0,0,0,0,0,0,0,0,0,0,0,137.02,334.44,2,0,0.08,0.08,319,11.54,0.1,0.08,28.86,FLYING,CF1-J,0:/Integrated Flight Computer/aircraft/cf1_j_cfg.ks (inferred preloaded)
29.14,APPROACH,FLY_TO_FIX,138.97,79.8,-59.17,1564.77,2.44,1.22,0.32,281.4,0.19,0,0,-4.091,1,0.6,4.5,0.75,0.35,0.0168,0.4,34.308,34.308,34.308,59.172,1,281.56,0.807,0,0,1.01,0.15,0,0.81,281.56,0,0,0,0,0,0,0,45.651,0,0,0,4,0,0,0,3266.49,0,0,0,269.72,0,0,0,0,0,0,0,0,0,0,0,0,0,0,0,0,0,VALID,0,0,0,0,0,1,0,0,0,0,0,0,0,0,0,0,0,0,0,0,137.38,334.44,2,0,0.1,0.1,322,10.71,0.1,0.08,29.14,FLYING,CF1-J,0:/Integrated Flight Computer/aircraft/cf1_j_cfg.ks (inferred preloaded)
29.4,APPROACH,FLY_TO_FIX,138.92,79.8,-59.12,1565.4,2.43,1.22,0.32,281.41,0.185,0,0,-4.03,1,0.6,4.5,0.75,0.35,0.0168,0.4,34.322,34.322,34.322,59.127,1,281.56,0.805,0,0,1,0.15,0,0.81,281.56,0,0,0,0,0,0,0,45.611,0,0,0,4,0,0,0,3263.74,0,0,0,269.72,0,0,0,0,0,0,0,0,0,0,0,0,0,0,0,0,0,VALID,0,0,0,0,0,1,0,0,0,0,0,0,0,0,0,0,0,0,0,0,137.79,334.43,2,0,0.08,0.08,325,11.54,0.1,0.08,29.4,FLYING,CF1-J,0:/Integrated Flight Computer/aircraft/cf1_j_cfg.ks (inferred preloaded)
29.68,APPROACH,FLY_TO_FIX,138.88,79.8,-59.08,1566.08,2.42,1.22,0.32,281.41,0.178,0,0,-3.97,1,0.6,4.5,0.75,0.35,0.0168,0.4,34.336,34.336,34.336,59.081,1,281.56,0.804,0,0,1,0.15,0,0.81,281.56,0,0,0,0,0,0,0,45.569,0,0,0,4,0,0,0,3260.78,0,0,0,269.72,0,0,0,0,0,0,0,0,0,0,0,0,0,0,0,0,0,VALID,0,0,0,0,0,1,0,0,0,0,0,0,0,0,0,0,0,0,0,0,138.31,334.42,2,0,0.1,0.1,328,10.71,0.1,0.08,29.68,FLYING,CF1-J,0:/Integrated Flight Computer/aircraft/cf1_j_cfg.ks (inferred preloaded)
29.94,APPROACH,FLY_TO_FIX,138.84,79.8,-59.04,1566.71,2.42,1.22,0.33,281.41,0.175,0,0,-3.911,1,0.6,4.5,0.75,0.35,0.0168,0.4,34.348,34.348,34.348,59.041,1,281.56,0.803,0,0,1,0.15,0,0.8,281.56,0,0,0,0,0,0,0,45.53,0,0,0,4,0,0,0,3258.03,0,0,0,269.72,0,0,0,0,0,0,0,0,0,0,0,0,0,0,0,0,0,VALID,0,0,0,0,0,1,0,0,0,0,0,0,0,0,0,0,0,0,0,0,138.87,334.41,2,0,0.08,0.08,331,11.54,0.1,0.08,29.94,FLYING,CF1-J,0:/Integrated Flight Computer/aircraft/cf1_j_cfg.ks (inferred preloaded)
30.22,APPROACH,FLY_TO_FIX,138.8,79.8,-59,1567.38,2.41,1.22,0.33,281.42,0.169,0,0,-3.852,1,0.6,4.5,0.75,0.35,0.0168,0.4,34.36,34.36,34.36,58.999,1,281.56,0.801,0,0,1,0.14,0,0.8,281.56,0,0,0,0,0,0,0,45.487,0,0,0,4,0,0,0,3255.08,0,0,0,269.72,0,0,0,0,0,0,0,0,0,0,0,0,0,0,0,0,0,VALID,0,0,0,0,0,1,0,0,0,0,0,0,0,0,0,0,0,0,0,0,139.59,334.4,2,0,0.1,0.1,334,10.71,0.1,0.08,30.22,FLYING,CF1-J,0:/Integrated Flight Computer/aircraft/cf1_j_cfg.ks (inferred preloaded)
30.48,APPROACH,FLY_TO_FIX,138.75,79.8,-58.95,1568.01,2.41,1.22,0.33,281.42,0.166,0,0,-3.795,1,0.6,4.5,0.75,0.35,0.0168,0.4,34.373,34.373,34.373,58.958,1,281.56,0.8,0,0,0.99,0.14,0,0.8,281.56,0,0,0,0,0,0,0,45.448,0,0,0,4,0,0,0,3252.33,0,0,0,269.72,0,0,0,0,0,0,0,0,0,0,0,0,0,0,0,0,0,VALID,0,0,0,0,0,1,0,0,0,0,0,0,0,0,0,0,0,0,0,0,140.36,334.39,2,0,0.08,0.08,337,11.54,0.1,0.08,30.48,FLYING,CF1-J,0:/Integrated Flight Computer/aircraft/cf1_j_cfg.ks (inferred preloaded)
30.76,APPROACH,FLY_TO_FIX,138.72,79.8,-58.92,1568.68,2.4,1.22,0.33,281.42,0.161,0,0,-3.738,1,0.6,4.5,0.75,0.35,0.0168,0.4,34.385,34.385,34.385,58.918,1,281.56,0.799,0,0,0.99,0.14,0,0.8,281.56,0,0,0,0,0,0,0,45.406,0,0,0,4,0,0,0,3249.37,0,0,0,269.72,0,0,0,0,0,0,0,0,0,0,0,0,0,0,0,0,0,VALID,0,0,0,0,0,1,0,0,0,0,0,0,0,0,0,0,0,0,0,0,141.26,334.38,2,0,0.1,0.1,340,10.71,0.1,0.08,30.76,FLYING,CF1-J,0:/Integrated Flight Computer/aircraft/cf1_j_cfg.ks (inferred preloaded)
31.02,APPROACH,FLY_TO_FIX,138.68,79.8,-58.88,1569.31,2.39,1.22,0.33,281.42,0.156,0,0,-3.682,1,0.6,4.5,0.75,0.35,0.0168,0.4,34.394,34.394,34.394,58.885,1,281.56,0.797,0,0,0.99,0.14,0,0.8,281.56,0,0,0,0,0,0,0,45.367,0,0,0,4,0,0,0,3246.63,0,0,0,269.72,0,0,0,0,0,0,0,0,0,0,0,0,0,0,0,0,0,VALID,0,0,0,0,0,1,0,0,0,0,0,0,0,0,0,0,0,0,0,0,142.14,334.36,2,0,0.08,0.08,343,11.54,0.1,0.08,31.02,FLYING,CF1-J,0:/Integrated Flight Computer/aircraft/cf1_j_cfg.ks (inferred preloaded)
31.3,APPROACH,FLY_TO_FIX,138.65,79.8,-58.85,1569.97,2.39,1.22,0.33,281.43,0.153,0,0,-3.627,1,0.6,4.5,0.75,0.35,0.0168,0.4,34.404,34.404,34.404,58.855,1,281.56,0.796,0,0,0.99,0.14,0,0.8,281.56,0,0,0,0,0,0,0,45.324,0,0,0,4,0,0,0,3243.67,0,0,0,269.72,0,0,0,0,0,0,0,0,0,0,0,0,0,0,0,0,0,VALID,0,0,0,0,0,1,0,0,0,0,0,0,0,0,0,0,0,0,0,0,143.14,334.35,2,0,0.1,0.1,346,10.71,0.1,0.08,31.3,FLYING,CF1-J,0:/Integrated Flight Computer/aircraft/cf1_j_cfg.ks (inferred preloaded)
31.56,APPROACH,FLY_TO_FIX,138.63,79.8,-58.83,1570.59,2.38,1.22,0.33,281.43,0.15,0,0,-3.573,1,0.6,4.5,0.75,0.35,0.0168,0.4,34.411,34.411,34.411,58.831,1,281.56,0.794,0,0,0.98,0.13,0,0.8,281.56,0,0,0,0,0,0,0,45.285,0,0,0,4,0,0,0,3240.93,0,0,0,269.72,0,0,0,0,0,0,0,0,0,0,0,0,0,0,0,0,0,VALID,0,0,0,0,0,1,0,0,0,0,0,0,0,0,0,0,0,0,0,0,144.11,334.33,2,0,0.08,0.08,349,11.54,0.1,0.08,31.56,FLYING,CF1-J,0:/Integrated Flight Computer/aircraft/cf1_j_cfg.ks (inferred preloaded)
31.84,APPROACH,FLY_TO_FIX,138.61,79.8,-58.81,1571.26,2.38,1.22,0.33,281.43,0.146,0,0,-3.52,1,0.6,4.5,0.75,0.35,0.0168,0.4,34.417,34.417,34.417,58.811,1,281.56,0.793,0,0,0.98,0.13,0,0.79,281.56,0,0,0,0,0,0,0,45.243,0,0,0,4,0,0,0,3237.98,0,0,0,269.72,0,0,0,0,0,0,0,0,0,0,0,0,0,0,0,0,0,VALID,0,0,0,0,0,1,0,0,0,0,0,0,0,0,0,0,0,0,0,0,145.17,334.31,2,0,0.1,0.1,352,10.71,0.1,0.08,31.84,FLYING,CF1-J,0:/Integrated Flight Computer/aircraft/cf1_j_cfg.ks (inferred preloaded)
32.1,APPROACH,FLY_TO_FIX,138.6,79.8,-58.8,1571.88,2.37,1.21,0.33,281.43,0.142,0,0,-3.467,1,0.6,4.5,0.75,0.35,0.0168,0.4,34.421,34.421,34.421,58.798,1,281.56,0.791,0,0,0.98,0.13,0,0.79,281.56,0,0,0,0,0,0,0,45.204,0,0,0,4,0,0,0,3235.23,0,0,0,269.72,0,0,0,0,0,0,0,0,0,0,0,0,0,0,0,0,0,VALID,0,0,0,0,0,1,0,0,0,0,0,0,0,0,0,0,0,0,0,0,146.17,334.29,2,0,0.08,0.08,355,11.54,0.1,0.08,32.1,FLYING,CF1-J,0:/Integrated Flight Computer/aircraft/cf1_j_cfg.ks (inferred preloaded)
32.38,APPROACH,FLY_TO_FIX,138.59,79.8,-58.79,1572.54,2.37,1.21,0.33,281.44,0.139,0,0,-3.416,1,0.6,4.5,0.75,0.35,0.0168,0.4,34.423,34.423,34.423,58.788,1,281.56,0.789,0,0,0.98,0.13,0,0.79,281.56,0,0,0,0,0,0,0,45.161,0,0,0,4,0,0,0,3232.28,0,0,0,269.72,0,0,0,0,0,0,0,0,0,0,0,0,0,0,0,0,0,VALID,0,0,0,0,0,1,0,0,0,0,0,0,0,0,0,0,0,0,0,0,147.26,334.26,2,0,0.1,0.1,358,10.71,0.1,0.08,32.38,FLYING,CF1-J,0:/Integrated Flight Computer/aircraft/cf1_j_cfg.ks (inferred preloaded)
32.64,APPROACH,FLY_TO_FIX,138.58,79.8,-58.78,1573.15,2.36,1.21,0.33,281.44,0.136,0,0,-3.365,1,0.6,4.5,0.75,0.35,0.0168,0.4,34.425,34.425,34.425,58.785,1,281.56,0.787,0,0,0.98,0.13,0,0.79,281.56,0,0,0,0,0,0,0,45.122,0,0,0,4,0,0,0,3229.53,0,0,0,269.72,0,0,0,0,0,0,0,0,0,0,0,0,0,0,0,0,0,VALID,0,0,0,0,0,1,0,0,0,0,0,0,0,0,0,0,0,0,0,0,148.26,334.24,2,0,0.08,0.08,361,11.54,0.1,0.08,32.64,FLYING,CF1-J,0:/Integrated Flight Computer/aircraft/cf1_j_cfg.ks (inferred preloaded)
32.92,APPROACH,FLY_TO_FIX,138.59,79.8,-58.79,1573.81,2.36,1.21,0.33,281.44,0.135,0,0,-3.314,1,0.6,4.5,0.75,0.35,0.0168,0.4,34.424,34.424,34.424,58.786,1,281.56,0.786,0,0,0.97,0.12,0,0.79,281.56,0,0,0,0,0,0,0,45.08,0,0,0,4,0,0,0,3226.58,0,0,0,269.72,0,0,0,0,0,0,0,0,0,0,0,0,0,0,0,0,0,VALID,0,0,0,0,0,1,0,0,0,0,0,0,0,0,0,0,0,0,0,0,149.33,334.21,2,0,0.1,0.1,364,10.71,0.1,0.08,32.92,FLYING,CF1-J,0:/Integrated Flight Computer/aircraft/cf1_j_cfg.ks (inferred preloaded)
33.18,APPROACH,FLY_TO_FIX,138.59,79.8,-58.79,1574.43,2.35,1.21,0.33,281.44,0.134,0,0,-3.265,1,0.6,4.5,0.75,0.35,0.0168,0.4,34.422,34.422,34.422,58.793,1,281.56,0.784,0,0,0.97,0.12,0,0.79,281.56,0,0,0,0,0,0,0,45.041,0,0,0,4,0,0,0,3223.84,0,0,0,269.72,0,0,0,0,0,0,0,0,0,0,0,0,0,0,0,0,0,VALID,0,0,0,0,0,1,0,0,0,0,0,0,0,0,0,0,0,0,0,0,150.29,334.18,2,0,0.08,0.08,367,11.54,0.1,0.08,33.18,FLYING,CF1-J,0:/Integrated Flight Computer/aircraft/cf1_j_cfg.ks (inferred preloaded)
33.46,APPROACH,FLY_TO_FIX,138.61,79.8,-58.81,1575.08,2.35,1.2,0.33,281.44,0.128,0,0,-3.216,1,0.6,4.5,0.75,0.35,0.0168,0.4,34.419,34.419,34.419,58.804,1,281.56,0.782,0,0,0.97,0.12,0,0.78,281.56,0,0,0,0,0,0,0,44.998,0,0,0,4,0,0,0,3220.88,0,0,0,269.72,0,0,0,0,0,0,0,0,0,0,0,0,0,0,0,0,0,VALID,0,0,0,0,0,1,0,0,0,0,0,0,0,0,0,0,0,0,0,0,151.29,334.14,2,0,0.1,0.1,370,10.71,0.1,0.08,33.46,FLYING,CF1-J,0:/Integrated Flight Computer/aircraft/cf1_j_cfg.ks (inferred preloaded)
33.72,APPROACH,FLY_TO_FIX,138.62,79.8,-58.82,1575.69,2.38,1.19,0.31,281.45,0.126,0,0,-3.168,1,0.6,4.5,0.75,0.35,0.0168,0.4,34.414,34.414,34.414,58.819,1,281.56,0.772,0,0,0.98,0.12,0,0.78,281.56,0,0,0,0,0,0,0,44.959,0,0,0,4,0,0,0,3218.14,0,0,0,269.72,0,0,0,0,0,0,0,0,0,0,0,0,0,1,1,0,0,VALID,0,0,0,0,0,1,0,0,0,0,0,0,0,0,0,0,0,0,0,0,152.21,334.11,2,0,0.08,0.08,373,11.54,0.1,0.08,33.72,FLYING,CF1-J,0:/Integrated Flight Computer/aircraft/cf1_j_cfg.ks (inferred preloaded)
34,APPROACH,FLY_TO_FIX,138.63,79.8,-58.83,1576.36,2.45,1.11,0.2,281.45,0.124,0,0,-3.121,1,0.6,4.5,0.75,0.35,0.0168,0.4,34.41,34.41,34.41,58.832,1,281.56,0.746,0,0,1.01,0.12,0,0.76,281.56,0,0,0,0,0,0,0,44.917,0,0,0,4,0,0,0,3215.18,0,0,0,269.72,0,0,0,0,0,0,0,0,0,0,0,0,0,1,1,0,0,VALID,0,0,0,0,0,1,0,0,0,0,0,0,0,0,0,0,0,0,0,0,153.22,334.07,2,0,0.1,0.1,376,10.71,0.1,0.08,34,FLYING,CF1-J,0:/Integrated Flight Computer/aircraft/cf1_j_cfg.ks (inferred preloaded)
