t_s,phase,subphase,ias_ms,vapp_ms,spd_err_ms,agl_m,vs_ms,pitch_deg,aoa_deg,hdg_deg,bank_deg,thr_cmd,thr_intg,aa_hdg_cmd_deg,aa_fpa_cmd_deg,ils_loc_m,ils_gs_m,ils_dist_km,loc_corr_deg,gs_corr_deg,flare_fpa_cmd,flare_tgt_vs,flare_frac,steer_hdg_deg,steer_blend,ro_loc_corr_deg,ro_hdg_err_deg,ro_yaw_tgt,ro_yaw_scale,ro_yaw_gate,yaw_cmd,roll_cmd,pitch_cmd,ro_pitch_tgt_deg,ro_pitch_err_deg,ro_pitch_ff,ro_roll_assist,flaps_cur,flaps_tgt,phase_el_s,status
0.26,TAKEOFF,TO_PREFLIGHT,0.51,80,79.49,4.43,0.01,2.74,1.31,90.87,-0.05,0.048,0,90.4,0,0,0,0,0,0,0,0,0,90.4,1,0,0.472,0,0,1,0,0,0,0,0,0,0,0,2,0.3,LANDED
0.48,TAKEOFF,TO_PREFLIGHT,0.49,80,79.51,4.32,0.01,2.37,0.83,90.86,-0.051,0.096,0,90.4,0,0,0,0,0,0,0,0,0,90.4,1,0,0.463,0,0,1,0,0,0,0,0,0,0,1,2,0.52,LANDED
0.66,TAKEOFF,TO_PREFLIGHT,0.39,80,79.61,4.22,0.01,2.02,-0.72,90.85,-0.052,0.184,0,90.4,0,0,0,0,0,0,0,0,0,90.4,1,0,0.463,0,0,1,0,0,0,0,0,0,0,1,2,0.7,LANDED
0.86,TAKEOFF,TO_PREFLIGHT,0.22,80,79.78,4.09,0.02,1.54,-6.77,90.84,-0.053,0.256,0,90.4,0,0,0,0,0,0,0,0,0,90.4,1,0,0.463,0,0,1,0,0,0,0,0,0,0,2,2,0.9,LANDED
1.04,TAKEOFF,TO_PREFLIGHT,0.13,80,79.87,3.97,0.02,1.15,-5.96,90.84,-0.051,0.336,0,90.4,0,0,0,0,0,0,0,0,0,90.4,1,0,0.463,0,0,1,0,0,0,0,0,0,0,2,2,1.08,LANDED
1.26,TAKEOFF,TO_PREFLIGHT,0.14,80,79.86,3.86,0.01,0.75,-2.68,90.84,-0.054,0.424,0,90.4,0,0,0,0,0,0,0,0,0,90.4,1,0,0.463,0,0,1,0,0,0,0,0,0,0,2,2,1.3,LANDED
1.44,TAKEOFF,TO_PREFLIGHT,0.11,80,79.89,3.79,0.01,0.5,-3.57,90.83,-0.055,0.496,0,90.4,0,0,0,0,0,0,0,0,0,90.4,1,0,0.463,0,0,1,0,0,0,0,0,0,0,2,2,1.48,LANDED
1.62,TAKEOFF,TO_PREFLIGHT,0.1,80,79.9,3.73,0.01,0.3,-4.47,90.83,-0.053,0.568,0,90.4,0,0,0,0,0,0,0,0,0,90.4,1,0,0.463,0,0,1,0,0,0,0,0,0,0,2,2,1.66,LANDED
1.8,TAKEOFF,TO_PREFLIGHT,0.08,80,79.92,3.69,0.01,0.17,-5.27,90.83,-0.052,0.64,0,90.4,0,0,0,0,0,0,0,0,0,90.4,1,0,0.463,0,0,1,0,0,0,0,0,0,0,2,2,1.84,LANDED
1.98,TAKEOFF,TO_PREFLIGHT,0.1,80,79.9,3.66,-0.16,0.1,66.64,90.83,-0.05,0.712,0,90.4,0,0,0,0,0,0,0,0,0,90.4,1,0,0.463,0,0,1,0,0,0,0,0,0,0,2,2,2.02,LANDED
2.2,TAKEOFF,TO_PREFLIGHT,0.09,80,79.91,3.65,0.03,0.12,-17.76,90.83,-0.055,0.784,0,90.4,0,0,0,0,0,0,0,0,0,90.4,1,0,0.463,0,0,1,0,0,0,0,0,0,0,2,2,2.24,LANDED
2.46,TAKEOFF,TO_PREFLIGHT,0.06,80,79.94,3.67,0.02,0.18,-29.03,90.83,-0.052,0.888,0,90.4,0,0,0,0,0,0,0,0,0,90.4,1,0,0.463,0,0,1,0,0,0,0,0,0,0,2,2,2.5,LANDED
2.68,TAKEOFF,TO_PREFLIGHT,0.07,80,79.93,3.67,-0.03,0.16,17.26,90.83,-0.051,0.976,0,90.4,0,0,0,0,0,0,0,0,0,90.4,1,0,0.463,0,0,1,0,0,0,0,0,0,0,2,2,2.72,LANDED
2.9,TAKEOFF,TO_PREFLIGHT,0.09,80,79.91,3.64,0.01,0.09,-5.61,90.82,-0.052,1,0,90.4,0,0,0,0,0,0,0,0,0,90.4,1,0,0.463,0,0,1,0,0,0,0,0,0,0,2,2,2.94,LANDED
3.12,TAKEOFF,TO_PREFLIGHT,0.12,80,79.88,3.63,0.04,0.01,-18.23,90.82,-0.053,1,0,90.4,0,0,0,0,0,0,0,0,0,90.4,1,0,0.463,0,0,1,0,0,0,0,0,0,0,2,2,3.16,LANDED
3.34,TAKEOFF,TO_PREFLIGHT,0.11,80,79.89,3.62,-0.01,-0.02,2.55,90.82,-0.052,1,0,90.4,0,0,0,0,0,0,0,0,0,90.4,1,0,0.463,0,0,1,0,0,0,0,0,0,0,2,2,3.38,LANDED
3.6,TAKEOFF,TO_PREFLIGHT,0.11,80,79.89,3.63,-0.01,0.01,6.56,90.82,-0.051,1,0,90.4,0,0,0,0,0,0,0,0,0,90.4,1,0,0.463,0,0,1,0,0,0,0,0,0,0,2,2,3.64,LANDED
3.82,TAKEOFF,TO_PREFLIGHT,0.12,80,79.88,3.63,0.01,0.01,-2.3,90.82,-0.052,1,0,90.4,0,0,0,0,0,0,0,0,0,90.4,1,0,0.463,0,0,1,0,0,0,0,0,0,0,2,2,3.86,LANDED
4.04,TAKEOFF,TO_PREFLIGHT,0.14,80,79.86,3.62,0.01,-0.03,-5.33,90.82,-0.052,1,0,90.4,0,0,0,0,0,0,0,0,0,90.4,1,0,0.463,0,0,1,0,0,0,0,0,0,0,2,2,4.08,LANDED
4.26,TAKEOFF,TO_PREFLIGHT,0.16,80,79.84,3.61,0,-0.06,-2.25,90.82,-0.052,1,0,90.4,0,0,0,0,0,0,0,0,0,90.4,1,0,0.463,0,0,1,0,0,0,0,0,0,0,2,2,4.3,LANDED
4.48,TAKEOFF,TO_PREFLIGHT,0.16,80,79.84,3.61,0,-0.08,-0.23,90.82,-0.052,1,0,90.4,0,0,0,0,0,0,0,0,0,90.4,1,0,0.463,0,0,1,0,0,0,0,0,0,0,2,2,4.52,LANDED
4.74,TAKEOFF,TO_PREFLIGHT,0.17,80,79.83,3.61,0,-0.08,0,90.83,-0.052,1,0,90.4,0,0,0,0,0,0,0,0,0,90.4,1,0,0.463,0,0,1,0,0,0,0,0,0,0,2,2,4.78,LANDED
4.96,TAKEOFF,TO_PREFLIGHT,0.18,80,79.82,3.6,0,-0.09,-0.57,90.83,-0.051,1,0,90.4,0,0,0,0,0,0,0,0,0,90.4,1,0,0.463,0,0,1,0,0,0,0,0,0,0,2,2,5,LANDED
5.18,TAKEOFF,TO_PREFLIGHT,0.19,80,79.81,3.6,0,-0.1,-0.92,90.83,-0.05,1,0,90.4,0,0,0,0,0,0,0,0,0,90.4,1,0,0.463,0,0,1,0,0,0,0,0,0,0,2,2,5.22,LANDED
5.4,TAKEOFF,TO_PREFLIGHT,0.2,80,79.8,3.6,0,-0.11,-0.15,90.83,-0.05,1,0,90.4,0,0,0,0,0,0,0,0,0,90.4,1,0,0.463,0,0,1,0,0,0,0,0,0,0,2,2,5.44,LANDED
5.62,TAKEOFF,TO_PREFLIGHT,0.25,80,79.75,3.6,0,-0.1,0.33,90.83,-0.051,1,0,90.4,0,0,0,0,0,0,0,0,0,90.4,1,0,0.463,0,0,1,0,0,0,0,0,0,0,2,2,5.66,LANDED
5.88,TAKEOFF,TO_PREFLIGHT,0.34,80,79.66,3.6,0,-0.1,0.16,90.83,-0.052,1,0,90.4,0,0,0,0,0,0,0,0,0,90.4,1,0,0.463,0,0,1,0,0,0,0,0,0,0,2,2,5.92,LANDED
6.1,TAKEOFF,TO_PREFLIGHT,0.47,80,79.53,3.6,0,-0.1,-0.06,90.83,-0.051,1,0,90.4,0,0,0,0,0,0,0,0,0,90.4,1,0,0.463,0,0,1,0,0,0,0,0,0,0,2,2,6.14,LANDED
6.32,TAKEOFF,TO_PREFLIGHT,0.62,80,79.38,3.6,0,-0.1,-0.08,90.83,-0.051,1,0,90.4,0,0,0,0,0,0,0,0,0,90.4,1,0,0.463,0,0,1,0,0,0,0,0,0,0,2,2,6.36,LANDED
6.54,TAKEOFF,TO_PREFLIGHT,0.78,80,79.22,3.6,0,-0.11,-0.12,90.84,-0.051,1,0,90.4,0,0,0,0,0,0,0,0,0,90.4,1,0,0.463,0,0,1,0,0,0,0,0,0,0,2,2,6.58,LANDED
6.76,TAKEOFF,TO_PREFLIGHT,0.9,80,79.1,3.6,0,-0.12,-0.27,90.84,-0.051,1,0,90.4,0,0,0,0,0,0,0,0,0,90.4,1,0,0.463,0,0,1,0,0,0,0,0,0,0,2,2,6.8,LANDED
7.02,TAKEOFF,TO_PREFLIGHT,0.99,80,79.01,3.59,0,-0.14,-0.22,90.84,-0.051,1,0,90.4,0,0,0,0,0,0,0,0,0,90.4,1,0,0.463,0,0,1,0,0,0,0,0,0,0,2,2,7.06,LANDED
7.24,TAKEOFF,TO_PREFLIGHT,1.03,80,78.97,3.59,0,-0.15,-0.09,90.84,-0.051,1,0,90.4,0,0,0,0,0,0,0,0,0,90.4,1,0,0.463,0,0,1,0,0,0,0,0,0,0,2,2,7.28,LANDED
7.46,TAKEOFF,TO_PREFLIGHT,1.06,80,78.94,3.59,0,-0.15,-0.01,90.84,-0.051,1,0,90.4,0,0,0,0,0,0,0,0,0,90.4,1,0,0.463,0,0,1,0,0,0,0,0,0,0,2,2,7.5,LANDED
7.68,TAKEOFF,TO_PREFLIGHT,1.08,80,78.92,3.59,0,-0.15,-0.07,90.84,-0.051,1,0,90.4,0,0,0,0,0,0,0,0,0,90.4,1,0,0.463,0,0,1,0,0,0,0,0,0,0,2,2,7.72,LANDED
7.9,TAKEOFF,TO_PREFLIGHT,1.11,80,78.89,3.59,0,-0.16,-0.12,90.84,-0.051,1,0,90.4,0,0,0,0,0,0,0,0,0,90.4,1,0,0.463,0,0,1,0,0,0,0,0,0,0,2,2,7.94,LANDED
8.16,TAKEOFF,TO_PREFLIGHT,1.13,80,78.87,3.59,0,-0.16,-0.11,90.84,-0.051,1,0,90.4,0,0,0,0,0,0,0,0,0,90.4,1,0,0.463,0,0,1,0,0,0,0,0,0,0,2,2,8.2,LANDED
8.38,TAKEOFF,TO_PREFLIGHT,1.15,80,78.85,3.59,0,-0.17,-0.08,90.84,-0.051,1,0,90.4,0,0,0,0,0,0,0,0,0,90.4,1,0,0.463,0,0,1,0,0,0,0,0,0,0,2,2,8.42,LANDED
8.6,TAKEOFF,TO_PREFLIGHT,1.17,80,78.83,3.59,0,-0.17,-0.07,90.84,-0.051,1,0,90.4,0,0,0,0,0,0,0,0,0,90.4,1,0,0.463,0,0,1,0,0,0,0,0,0,0,2,2,8.64,LANDED
8.82,TAKEOFF,TO_PREFLIGHT,1.19,80,78.81,3.59,0,-0.17,-0.09,90.84,-0.051,1,0,90.4,0,0,0,0,0,0,0,0,0,90.4,1,0,0.463,0,0,1,0,0,0,0,0,0,0,2,2,8.86,LANDED
9.04,TAKEOFF,TO_GROUND_ROLL,1.21,80,78.79,3.58,0,-0.17,-0.1,90.84,-0.051,1,0,90.4,0,0,0,0,0,0,0,0,0,90.4,1,0,0.463,0,0,1,0,0,0,0,0,0,0,2,2,9.08,LANDED
9.38,TAKEOFF,TO_GROUND_ROLL,2.26,80,77.74,3.68,-0.12,0.22,2.45,90.84,-0.048,1,0,90.4,0,0,0,0,-0.015,0,0,0,0,90.4,1,-0.015,0.439,-0.0107,0.568,0,-0.0107,0,0,0,0,0,0,2,2,9.42,LANDED
9.68,TAKEOFF,TO_GROUND_ROLL,4.21,80,75.79,3.89,0.25,0.86,-1.93,90.85,-0.058,1,0,90.38,0,0,0,0,-0.015,0,0,0,0,90.38,1,-0.015,0.462,-0.0131,0.587,0,-0.0131,0,0,0,0,0,0,2,2,9.72,LANDED
9.98,TAKEOFF,TO_GROUND_ROLL,6.23,80,73.77,4.15,-0.2,1.78,3.21,90.84,-0.05,1,0,90.38,0,0,0,0,-0.016,0,0,0,0,90.38,1,-0.016,0.463,-0.0134,0.606,0,-0.0134,0,0,0,0,0,0,2,2,10.02,LANDED
10.26,TAKEOFF,TO_GROUND_ROLL,8.15,80,71.85,4.4,0.04,2.75,2.51,90.84,-0.053,1,0,90.38,0,0,0,0,-0.017,0,0,0,0,90.38,1,-0.017,0.459,-0.0135,0.625,0,-0.0135,0,0,0,0,0,0,2,2,10.3,LANDED
10.6,TAKEOFF,TO_GROUND_ROLL,10.5,80,69.5,4.76,-0.11,3.94,4.4,90.83,-0.046,1,0,90.39,0,0,0,0,-0.018,0,0,0,0,90.39,1,-0.018,0.45,-0.0135,0.648,0,-0.0135,0,0,0,0,0,0,2,2,10.64,LANDED
10.88,TAKEOFF,TO_GROUND_ROLL,12.47,80,67.53,4.98,-0.03,4.76,4.84,90.81,-0.049,1,0,90.39,0,0,0,0,-0.02,0,0,0,0,90.39,1,-0.02,0.431,-0.0129,0.668,0,-0.0129,0,0,0,0,0,0,2,2,10.92,LANDED
11.16,TAKEOFF,TO_GROUND_ROLL,14.45,80,65.55,5.16,-0.06,5.34,5.52,90.77,-0.047,1,0,90.4,0,0,0,0,-0.021,0,0,0,0,90.4,1,-0.021,0.399,-0.0116,0.687,0,-0.0116,0,0,0,0,0,0,2,2,11.2,LANDED
11.44,TAKEOFF,TO_GROUND_ROLL,16.45,80,63.55,5.23,-0.04,5.59,5.73,90.73,-0.049,1,0,90.4,0,0,0,0,-0.023,0,0,0,0,90.4,1,-0.023,0.355,-0.0098,0.707,0,-0.0098,0,0,0,0,0,0,2,2,11.48,LANDED
11.78,TAKEOFF,TO_GROUND_ROLL,18.89,80,61.11,5.2,-0.04,5.45,5.57,90.66,-0.054,1,0,90.41,0,0,0,0,-0.025,0,0,0,0,90.41,1,-0.025,0.286,-0.0069,0.732,0,-0.0069,0,0,0,0,0,0,2,2,11.82,LANDED
12.06,TAKEOFF,TO_GROUND_ROLL,20.93,80,59.07,5.07,-0.03,4.98,5.09,90.58,-0.061,1,0,90.41,0,0,0,0,-0.027,0,0,0,0,90.41,1,-0.027,0.213,-0.0036,0.752,0,-0.0036,0,0,0,0,0,0,2,2,12.1,LANDED
12.34,TAKEOFF,TO_GROUND_ROLL,22.98,80,57.02,4.88,-0.02,4.26,4.37,90.5,-0.066,1,0,90.42,0,0,0,0,-0.029,0,0,0,0,90.42,1,-0.029,0.127,0.0003,0.772,0,0.0003,0,0,0,0,0,0,2,2,12.38,LANDED
12.62,TAKEOFF,TO_GROUND_ROLL,25.05,80,54.95,4.63,-0.03,3.39,3.51,90.39,-0.072,1,0,90.43,0,0,0,0,-0.03,0,0,0,0,90.43,1,-0.03,0.022,0.0044,0.793,0,0.0044,0,0,0,0,0,0,2,2,12.66,LANDED
12.96,TAKEOFF,TO_GROUND_ROLL,27.58,80,52.42,4.32,-0.04,2.29,2.42,90.24,-0.077,1,0,90.44,0,0,0,0,-0.031,0,0,0,0,90.44,1,-0.031,-0.126,0.0123,0.818,0,0.0123,0,0,0,0,0,0,2,2,13,LANDED
13.24,TAKEOFF,TO_GROUND_ROLL,29.69,80,50.31,4.08,-0.05,1.48,1.62,90.11,-0.086,1,0,90.45,0,0,0,0,-0.03,0,0,0,0,90.45,1,-0.03,-0.268,0.0195,0.839,0,0.0195,0,0,0,0,0,0,2,2,13.28,LANDED
13.52,TAKEOFF,TO_GROUND_ROLL,31.81,80,48.19,3.9,-0.06,0.86,1,89.97,-0.087,1,0,90.46,0,0,0,0,-0.028,0,0,0,0,90.46,1,-0.028,-0.411,0.0263,0.86,0,0.0263,0,0,0,0,0,0,2,2,13.56,LANDED
13.8,TAKEOFF,TO_GROUND_ROLL,33.94,80,46.06,3.79,-0.07,0.5,0.63,89.86,-0.078,1,0,90.46,0,0,0,0,-0.025,0,0,0,0,90.46,1,-0.025,-0.535,0.0314,0.882,0,0.0314,0,0,0,0,0,0,2,2,13.84,LANDED
14.14,TAKEOFF,TO_GROUND_ROLL,36.54,80,43.46,3.77,-0.08,0.46,0.56,89.76,-0.07,1,0,90.44,0,0,0,0,-0.019,0,0,0,0,90.44,1,-0.019,-0.643,0.035,0.908,0,0.035,0,0,0,0,0,0,2,2,14.18,LANDED
14.42,TAKEOFF,TO_GROUND_ROLL,38.69,80,41.31,3.85,-0.09,0.73,0.82,89.71,-0.062,1,0,90.43,0,0,0,0,-0.013,0,0,0,0,90.43,1,-0.013,-0.693,0.0354,0.929,0,0.0354,0,0,0,0,0,0,2,2,14.46,LANDED
14.7,TAKEOFF,TO_GROUND_ROLL,40.85,80,39.15,3.99,-0.09,1.23,1.31,89.7,-0.05,1,0,90.41,0,0,0,0,-0.006,0,0,0,0,90.41,1,-0.006,-0.711,0.0345,0.951,0,0.0345,0,0,0,0,0,0,2,2,14.74,LANDED
14.98,TAKEOFF,TO_GROUND_ROLL,43.01,80,36.99,4.17,-0.1,1.88,1.96,89.72,-0.038,1,0,90.4,0,0,0,0,0.001,0,0,0,0,90.4,1,0.001,-0.692,0.0317,0.972,0,0.0317,0,0,0,0,0,0,2,2,15.02,LANDED
15.32,TAKEOFF,TO_GROUND_ROLL,45.65,80,34.35,4.42,-0.11,2.74,2.82,89.8,-0.024,1,0,90.38,0,0,0,0,0.01,0,0,0,0,90.38,1,0.01,-0.625,0.0262,0.999,0,0.0262,0,0,0,0,0,0,2,2,15.36,LANDED
15.6,TAKEOFF,TO_GROUND_ROLL,47.83,80,32.17,4.6,-0.11,3.39,3.48,89.91,-0.011,1,0,90.36,0,0,0,0,0.018,0,0,0,0,90.36,1,0.018,-0.523,0.0182,1,0,0.0182,0,0,0,0,0,0,2,2,15.64,LANDED
15.88,TAKEOFF,TO_GROUND_ROLL,50.02,80,29.98,4.76,-0.11,3.89,3.98,90.06,0.006,1,0,90.34,0,0,0,0,0.024,0,0,0,0,90.34,1,0.024,-0.378,0.008,1,0,0.008,0,0,0,0,0,0,2,2,15.92,LANDED
16.18,TAKEOFF,TO_GROUND_ROLL,52.36,80,27.64,4.84,-0.11,4.18,4.28,90.27,0.031,1,0,90.32,0,0,0,0,0.03,0,0,0,0,90.32,1,0.03,-0.167,-0.006,1,0,-0.006,0,0,0,0,0,0,2,2,16.22,LANDED
16.52,TAKEOFF,TO_GROUND_ROLL,55.02,80,24.98,4.83,-0.1,4.15,4.26,90.57,0.063,1,0,90.29,0,0,0,0,0.033,0,0,0,0,90.29,1,0.033,0.137,-0.0247,1,0,-0.0247,0,0,0,0,0,0,2,2,16.56,LANDED
16.82,TAKEOFF,TO_GROUND_ROLL,57.37,80,22.63,4.74,-0.1,3.83,3.95,90.86,0.063,1,0,90.26,0,0,0,0,0.032,0,0,0,0,90.26,1,0.032,0.444,-0.0422,1,0,-0.0422,0,0,0,0,0,0,2,2,16.86,LANDED
17.12,TAKEOFF,TO_GROUND_ROLL,59.73,80,20.27,4.58,-0.09,3.28,3.4,91.11,0.032,1,0,90.26,0,0,0,0,0.025,0,0,0,0,90.26,1,0.025,0.722,-0.0549,1,0,-0.0549,0,0,0,0,0,0,2,2,17.16,LANDED
17.42,TAKEOFF,TO_GROUND_ROLL,62.1,80,17.9,4.39,-0.1,2.58,2.72,91.33,0.04,1,0,90.27,0,0,0,0,0.013,0,0,0,0,90.27,1,0.013,0.946,-0.0627,1,0,-0.0627,0,0,0,0,0,0,2,2,17.46,LANDED
17.76,TAKEOFF,TO_GROUND_ROLL,64.8,80,15.2,4.15,-0.1,1.76,1.89,91.53,0.015,1,0,90.28,0,0,0,0,-0.005,0,0,0,0,90.28,1,-0.005,1.161,-0.0698,1,0,-0.0698,0,0,0,0,0,0,2,2,17.8,LANDED
18.06,TAKEOFF,TO_GROUND_ROLL,67.2,80,12.8,3.96,-0.11,1.11,1.24,91.67,0.006,1,0,90.28,0,0,0,0,-0.025,0,0,0,0,90.28,1,-0.025,1.323,-0.0749,1,0,-0.0749,0,0,0,0,0,0,2,2,18.1,LANDED
18.36,TAKEOFF,TO_GROUND_ROLL,69.6,80,10.4,3.82,-0.11,0.63,0.74,91.77,-0.019,1,0,90.28,0,0,0,0,-0.049,0,0,0,0,90.28,1,-0.049,1.447,-0.0779,1,0,-0.0779,0,0,0,0,0,0,2,2,18.4,LANDED
18.66,TAKEOFF,TO_GROUND_ROLL,72,80,8,3.75,-0.12,0.37,0.47,91.81,-0.049,1,0,90.28,0,0,0,0,-0.076,0,0,0,0,90.28,1,-0.076,1.518,-0.0777,1,0,-0.0777,0,0,0,0,0,0,2,2,18.7,LANDED
19,TAKEOFF,TO_GROUND_ROLL,74.74,80,5.26,3.75,-0.12,0.37,0.45,91.79,-0.083,1,0,90.29,0,0,0,0,-0.108,0,0,0,0,90.29,1,-0.108,1.525,-0.0733,1,0,-0.0733,0,0,0,0,0,0,2,2,19.04,LANDED
19.3,TAKEOFF,TO_GROUND_ROLL,77.17,80,2.83,3.82,-0.12,0.6,0.67,91.69,-0.122,1,0,90.3,0,0,0,0,-0.137,0,0,0,0,90.3,1,-0.137,1.454,-0.0647,1,0,-0.0647,0,0,0,0,0,0,2,2,19.34,LANDED
19.6,TAKEOFF,TO_GROUND_ROLL,79.61,80,0.39,3.93,-0.12,1,1.05,91.53,-0.159,1,0,90.31,0,0,0,0,-0.166,0,0,0,0,90.31,1,-0.166,1.312,-0.0527,1,0,-0.0527,0,0,0,0,0,0,2,2,19.64,LANDED
19.9,TAKEOFF,TO_GROUND_ROLL,82.06,80,-2.06,4.06,-0.13,1.46,1.52,91.3,-0.195,1,0,90.33,0,0,0,0,-0.191,0,0,0,0,90.33,1,-0.191,1.101,-0.0376,1,0,-0.0376,0,0,0,0,0,0,2,2,19.94,LANDED
20.24,TAKEOFF,TO_GROUND_ROLL,84.85,80,-4.85,4.22,-0.05,1.98,1.98,90.98,-0.219,1,0,90.34,0,0,0,0,-0.215,0,0,0,0,90.34,1,-0.215,0.799,-0.0187,1,0,-0.0187,0,0,0,0,0,0,2,2,20.28,LANDED
20.54,TAKEOFF,TO_GROUND_ROLL,87.33,80,-7.33,4.31,-0.17,2.33,2.42,90.67,-0.193,1,0,90.35,0,0,0,0,-0.23,0,0,0,0,90.35,1,-0.23,0.489,-0.0008,1,0,-0.0008,0,0,0,0,0,0,2,2,20.58,LANDED
20.84,TAKEOFF,TO_GROUND_ROLL,89.82,80,-9.82,4.37,-0.09,2.52,2.57,90.37,-0.177,1,0,90.35,0,0,0,0,-0.237,0,0,0,0,90.35,1,-0.237,0.187,0.0141,1,0,0.0141,0,0,0,0,0,0,2,2,20.88,LANDED
21.14,TAKEOFF,TO_GROUND_ROLL,92.34,80,-12.34,4.37,-0.13,2.51,2.59,90.09,-0.156,1,0,90.34,0,0,0,0,-0.238,0,0,0,0,90.34,1,-0.238,-0.1,0.0268,1,0,0.0268,0,0,0,0,0,0,2,2,21.18,LANDED
21.48,TAKEOFF,TO_GROUND_ROLL,95.22,80,-15.22,4.29,-0.1,2.26,2.34,89.82,-0.142,1,0,90.33,0,0,0,0,-0.23,0,0,0,0,90.33,1,-0.23,-0.387,0.0381,1,0,0.0381,0,0,0,0,0,0,2,2,21.52,LANDED
21.78,TAKEOFF,TO_GROUND_ROLL,97.79,80,-17.79,4.18,-0.11,1.87,1.96,89.62,-0.126,1,0,90.32,0,0,0,0,-0.215,0,0,0,0,90.32,1,-0.215,-0.596,0.0448,1,0,0.0448,0,0,0,0,0,0,2,2,21.82,LANDED
22.08,TAKEOFF,TO_GROUND_ROLL,100.39,80,-20.39,4.04,-0.1,1.38,1.47,89.48,-0.109,1,0,90.31,0,0,0,0,-0.195,0,0,0,0,90.31,1,-0.195,-0.762,0.0492,1,0,0.0492,0,0,0,0,0,0,2,2,22.12,LANDED
22.38,TAKEOFF,TO_GROUND_ROLL,103.02,80,-23.02,3.89,-0.09,0.86,0.95,89.39,-0.068,1,0,90.3,0,0,0,0,-0.17,0,0,0,0,90.3,1,-0.17,-0.876,0.0507,1,0,0.0507,0,0,0,0,0,0,2,2,22.42,LANDED
22.72,TAKEOFF,TO_GROUND_ROLL,106.04,80,-26.04,3.73,-0.13,0.33,0.43,89.36,-0.052,1,0,90.3,0,0,0,0,-0.138,0,0,0,0,90.3,1,-0.138,-0.932,0.0485,1,0,0.0485,0,0,0,0,0,0,2,2,22.76,LANDED
23.02,TAKEOFF,TO_GROUND_ROLL,108.74,80,-28.74,3.63,-0.2,0.02,0.14,89.42,0.022,1,0,90.28,0,0,0,0,-0.107,0,0,0,0,90.28,1,-0.107,-0.899,0.0413,1,0,0.0413,0,0,0,0,0,0,2,2,23.06,LANDED
23.32,TAKEOFF,TO_GROUND_ROLL,111.41,80,-31.41,3.65,-0.08,0.13,0.15,89.55,0.107,1,0,90.27,0,0,0,0,-0.078,0,0,0,0,90.27,1,-0.078,-0.79,0.0305,1,0,0.0305,0,0,0,0,0,0,2,2,23.36,LANDED
23.62,TAKEOFF,TO_GROUND_ROLL,114.17,80,-34.17,3.71,-0.09,0.32,0.36,89.74,0.154,1,0,90.26,0,0,0,0,-0.051,0,0,0,0,90.26,1,-0.051,-0.627,0.0182,1,0,0.0182,0,0,0,0,0,0,2,2,23.66,LANDED
23.96,TAKEOFF,TO_GROUND_ROLL,117.35,80,-37.35,3.8,0.01,0.52,0.49,90.08,0.186,1,0,90.23,0,0,0,0,-0.028,0,0,0,0,90.23,1,-0.028,-0.324,-0.0027,1,0,-0.0027,0,0,0,0,0,0,2,2,24,LANDED
24.26,TAKEOFF,TO_GROUND_ROLL,120.19,80,-40.19,3.83,-0.14,0.68,0.74,90.48,0.235,1,0,90.17,0,0,0,0,-0.016,0,0,0,0,90.17,1,-0.016,0.083,-0.0293,1,0,-0.0293,0,0,0,0,0,0,2,2,24.3,LANDED
24.56,TAKEOFF,TO_GROUND_ROLL,123.06,80,-43.06,3.88,-0.03,0.84,0.84,90.98,0.252,1,0,90.11,0,0,0,0,-0.017,0,0,0,0,90.11,1,-0.017,0.591,-0.0617,1,0,-0.0617,0,0,0,0,0,0,2,2,24.6,LANDED
24.86,TAKEOFF,TO_GROUND_ROLL,125.96,80,-45.96,3.92,0,0.96,0.95,91.55,0.256,1,0,90.04,0,0,0,0,-0.035,0,0,0,0,90.04,1,-0.035,1.198,-0.0971,1,0,-0.0971,0,0,0,0,0,0,2,2,24.9,LANDED
25.2,TAKEOFF,TO_GROUND_ROLL,129.29,80,-49.29,3.92,-0.09,0.98,1.02,92.19,0.233,1,0,89.98,0,0,0,0,-0.077,0,0,0,0,89.98,1,-0.077,1.914,-0.134,1,0,-0.134,0,0,0,0,0,0,2,2,25.24,LANDED
25.5,TAKEOFF,TO_GROUND_ROLL,132.27,80,-52.27,3.89,-0.03,0.88,0.9,92.71,0.254,1,0,89.94,0,0,0,0,-0.134,0,0,0,0,89.94,1,-0.134,2.504,-0.1601,1,0,-0.1601,0,0,0,0,0,0,2,2,25.54,LANDED
25.8,TAKEOFF,TO_GROUND_ROLL,135.28,80,-55.28,3.84,-0.06,0.69,0.73,93.14,0.243,1,0,89.9,0,0,0,0,-0.21,0,0,0,0,89.9,1,-0.21,3.023,-0.1798,1,0,-0.1798,0,0,0,0,0,0,2,2,25.84,LANDED
26.1,TAKEOFF,TO_GROUND_ROLL,138.33,80,-58.33,3.76,-0.03,0.43,0.46,93.47,0.241,1,0,89.86,0,0,0,0,-0.307,0,0,0,0,89.86,1,-0.307,3.444,-0.1924,1,0,-0.1924,0,0,0,0,0,0,2,2,26.14,LANDED
26.44,TAKEOFF,TO_GROUND_ROLL,141.83,80,-61.83,3.64,-0.09,0.07,0.12,93.65,0.006,1,0,89.81,0,0,0,0,-0.438,0,0,0,0,89.81,1,-0.438,3.79,-0.1993,1,0,-0.1993,0,0,0,0,0,0,2,2,26.48,LANDED
26.74,TAKEOFF,TO_GROUND_ROLL,144.96,80,-64.96,3.63,0.03,0.05,0.03,93.52,-0.289,1,0,89.82,0,0,0,0,-0.564,0,0,0,0,89.82,1,-0.564,3.816,-0.1838,1,0,-0.1838,0,0,0,0,0,0,2,2,26.78,LANDED
27.04,TAKEOFF,TO_GROUND_ROLL,148.14,80,-68.14,3.65,-0.03,0.13,0.14,93.04,-0.459,1,0,89.88,0,0,0,0,-0.69,0,0,0,0,89.88,1,-0.69,3.463,-0.143,1,0,-0.143,0,0,0,0,0,0,2,2,27.08,LANDED
27.34,TAKEOFF,TO_GROUND_ROLL,151.36,80,-71.36,3.65,0.03,0.13,0.12,92.17,-0.503,1,0,89.99,0,0,0,0,-0.806,0,0,0,0,89.99,1,-0.806,2.689,-0.0779,1,0,-0.0779,0,0,0,0,0,0,2,2,27.38,LANDED
27.68,TAKEOFF,TO_GROUND_ROLL,155.03,80,-75.03,3.64,0.02,0.09,0.08,90.65,-0.764,1,0,90.14,0,0,0,0,-0.912,0,0,0,0,90.14,1,-0.912,1.32,0.0184,1,0,0.0184,0,0,0,0,0,0,2,2,27.72,LANDED
27.98,TAKEOFF,TO_GROUND_ROLL,158.28,80,-78.28,3.63,0.05,0.08,0.04,88.62,-1.015,1,0,90.44,0,0,0,0,-0.958,0,0,0,0,90.44,1,-0.958,-0.637,0.1545,1,0,0.1545,0,0,0,0,0,0,2,2,28.02,LANDED
28.3,TAKEOFF,TO_ROTATE,161.73,80,-81.73,3.63,0.03,0.07,0.02,85.54,-1.102,1,0,90.91,0,0,0,0,-0.93,0,0,0,0,90.91,1,-0.93,-3.519,0.3475,1,0,0,0,0,0,0,0,0,2,2,28.34,LANDED
28.64,TAKEOFF,TO_ROTATE,165.35,80,-85.35,3.64,0.1,0.11,0,81.41,-0.913,1,0,91,1.151,0,0,0,-0.799,0,0,0,0,91,1,-0.799,-7.144,0.4,1,0,0.4,0,0.216,1.151,1.046,0.08,0,2,2,28.68,LANDED
29.02,TAKEOFF,TO_ROTATE,169.14,80,-89.14,3.7,0.11,0.35,0.19,76.13,-0.854,1,0,92.38,2.519,0,0,0,-0.517,0,0,0,0,92.38,1,-0.517,-13.787,0.4,1,0,0.4,0,0.3681,2.519,2.216,0.08,0,2,2,29.06,LANDED
29.36,TAKEOFF,TO_ROTATE,172.15,80,-92.15,3.98,0.28,1.22,0.96,71.79,-0.589,1,0,92.68,3.743,0,0,0,-0.138,0,0,0,0,92.68,1,-0.138,-18.655,0.4,1,0,0.4,0,0.4271,3.743,2.67,0.08,0,2,2,29.4,LANDED
29.56,TAKEOFF,TO_ROTATE,173.83,80,-93.83,4.27,0.01,2.19,2.03,69.41,-0.386,1,0,90.4,4.967,0,0,0,0,0,0,0,0,90.4,1,0,-20.399,0,0,3,0,0,0,4.967,2.966,0,0,2,2,29.6,LANDED
29.78,TAKEOFF,TO_ROTATE,175.75,80,-95.75,4.54,0.29,3.14,2.93,67.55,-0.265,1,0,90.4,5.759,0,0,0,0,0,0,0,0,90.4,1,0,-22.393,0,0,3,0,0,0,5.759,2.767,0,0,2,2,29.82,LANDED
30.04,TAKEOFF,TO_ROTATE,178.04,80,-98.04,4.73,0.35,3.65,3.45,66.09,-0.433,1,0,90.4,6.695,0,0,0,0,0,0,0,0,90.4,1,0,-24.048,0,0,3,0,0,0,6.695,3.072,0,0,2,2,30.08,LANDED
30.26,TAKEOFF,TO_ROTATE,180.13,80,-100.13,6.22,0.22,3.46,3.35,65.56,-0.399,1,0,90.4,7.487,0,0,0,0,0,0,0,0,90.4,1,0,-24.751,0,0,3,0,0,0,7.487,3.95,0,0,2,2,30.3,LANDED
30.48,TAKEOFF,TO_ROTATE,182.41,80,-102.41,7.67,-0.46,2.83,3.07,65.59,0.358,1,0,90.4,8.279,0,0,0,0,0,0,0,0,90.4,1,0,-24.886,0,0,3,0,0,0,8.279,5.328,0,0,2,2,30.52,FLYING
30.7,TAKEOFF,TO_ROTATE,184.79,80,-104.79,8.99,-1.49,2.43,2.81,66.53,-0.376,1,0,90.4,9.071,0,0,0,0,0,0,0,0,90.4,1,0,-24.232,0,0,3,0,0,0,9.071,6.614,0,0,2,2,30.74,FLYING
30.92,TAKEOFF,TO_ROTATE,187.18,80,-107.18,9.06,-2.29,2.25,2.55,68.51,-3.312,1,0,90.4,9.863,0,0,0,0,0,0,0,0,90.4,1,0,-22.534,0,0,3,0,0,0,9.863,7.588,0,0,2,2,30.96,FLYING
31.18,TAKEOFF,TO_ROTATE,190.21,80,-110.21,7.81,-3.54,2.61,3.24,71.69,-5.691,1,0,90.4,10.799,0,0,0,0,0,0,0,0,90.4,1,0,-19.426,0,0,3,0,0,0,10.799,8.313,0,0,2,2,31.22,FLYING
31.4,TAKEOFF,TO_ROTATE,192.92,80,-112.92,7.31,-4.14,3.48,4.53,73.98,-3.433,1,0,90.4,11.5,0,0,0,0,0,0,0,0,90.4,1,0,-16.975,0,0,3,0,0,0,11.5,8.191,0,0,2,2,31.44,FLYING
31.62,TAKEOFF,TO_ROTATE,195.61,80,-115.61,7.32,-4.38,4.64,5.79,75.52,-0.2,1,0,90.4,11.5,0,0,0,0,0,0,0,0,90.4,1,0,-15.214,0,0,3,0,0,0,11.5,7.086,0,0,2,2,31.66,FLYING
31.84,TAKEOFF,TO_ROTATE,198.22,80,-118.22,6.94,-4.31,6.12,7.23,76.21,-1.325,1,0,90.4,11.5,0,0,0,0,0,0,0,0,90.4,1,0,-14.292,0,0,3,0,0,0,11.5,5.682,0,0,2,2,31.88,FLYING
32.06,TAKEOFF,TO_ROTATE,200.69,80,-120.69,6.79,-3.81,8.09,9.03,76.17,-7.563,1,0,90.4,11.5,0,0,0,0,0,0,0,0,90.4,1,0,-14.205,0,0,3,0,0,0,11.5,3.805,0,0,2,2,32.1,FLYING
32.32,TAKEOFF,TO_ROTATE,203.43,80,-123.43,7.58,2.09,11.29,10.67,75.94,-10.975,1,0,90.4,11.5,0,0,0,0,0,0,0,0,90.4,1,0,-14.235,0,0,3,0,0,0,11.5,0.757,0,0,2,2,32.36,LANDED
32.56,TAKEOFF,TO_ROTATE,205.53,80,-125.53,9.21,4.3,13.53,12.16,74.97,-14.49,1,0,90.4,11.5,0,0,0,0,0,0,0,0,90.4,1,0,-15.197,0,0,3,0,0,0,11.5,-1.722,0,0,2,2,32.6,FLYING
32.78,TAKEOFF,TO_ROTATE,207.55,80,-127.55,11.07,6.65,14.72,12.24,74.59,-21.018,1,0,90.4,11.5,0,0,0,0,0,0,0,0,90.4,1,0,-15.804,0,0,3,0,0,0,11.5,-3.05,0,0,2,2,32.82,FLYING
32.98,TAKEOFF,TO_ROTATE,209.12,80,-129.12,13.09,8.82,15.46,11.96,75.29,-27.81,1,0,90.4,11.5,0,0,0,0,0,0,0,0,90.4,1,0,-15.441,0,0,3,0,0,0,11.5,-3.841,0,0,2,2,33.02,FLYING
33.24,TAKEOFF,TO_CLIMB,211.08,80,-131.08,16.87,10.99,16.04,12.37,77.77,-35.561,1,0,90.4,11.5,0,0,0,0,0,0,0,0,90.4,1,0,-13.669,0,0,3,0,0,0,11.5,-4.41,0,0,2,2,33.28,FLYING
33.52,TAKEOFF,TO_CLIMB,213.05,80,-133.05,21.39,13,16.9,14.42,82.34,-41.125,0.888,0,90.4,10.716,0,0,0,0,0,0,0,0,90.4,1,0,-8.763,0,0,3,0,0,0,11.5,-4.41,0,0,1,1,33.56,FLYING
33.74,TAKEOFF,TO_CLIMB,214.32,80,-134.32,25.1,15.09,17.81,16.51,86.37,-43.972,0.82,0,90.4,10.044,0,0,0,0,0,0,0,0,90.4,1,0,-4.974,0,0,3,0,0,0,11.5,-4.41,0,0,1,1,33.78,FLYING
33.96,TAKEOFF,TO_CLIMB,215.22,80,-135.22,28.94,17.53,17.93,17.59,89.51,-46.143,0.82,0,90.4,9.428,0,0,0,0,0,0,0,0,90.4,1,0,-1.712,0,0,3,0,0,0,11.5,-4.41,0,0,1,1,34,FLYING
34.18,TAKEOFF,TO_CLIMB,215.73,80,-135.73,34.75,19.57,17.66,17.94,91.94,-48.798,0.82,0,90.4,8.812,0,0,0,0,0,0,0,0,90.4,1,0,0.964,0,0,3,0,0,0,11.5,-4.41,0,0,1,1,34.22,FLYING
34.4,TAKEOFF,TO_CLIMB,216.1,80,-136.1,40.78,21.4,17.1,17.68,93.7,-51.532,0.82,0,90.4,8.196,0,0,0,0,0,0,0,0,90.4,1,0,2.85,0,0,3,0,0,0,11.5,-4.41,0,0,1,1,34.44,FLYING
34.66,TAKEOFF,TO_CLIMB,216.64,80,-136.64,48.26,23.08,16.38,17.32,95.56,-54.58,0.82,0,90.4,7.468,0,0,0,0,0,0,0,0,90.4,1,0,4.745,0,0,3,0,0,0,11.5,-4.41,0,0,1,1,34.7,FLYING
34.88,TAKEOFF,TO_CLIMB,216.91,80,-136.91,54.86,24.3,15.62,16.43,96.49,-56.349,0.82,0,90.4,7,0,0,0,0,0,0,0,0,90.4,1,0,5.919,0,0,3,0,0,0,11.5,-4.41,0,0,1,1,34.92,FLYING
35.1,TAKEOFF,TO_CLIMB,217.09,80,-137.09,61.18,25.1,14.45,14.78,96.52,-57.908,0.82,0,90.4,7,0,0,0,0,0,0,0,0,90.4,1,0,6.194,0,0,3,0,0,0,11.5,-4.41,0,0,1,1,35.14,FLYING
35.32,TAKEOFF,TO_CLIMB,217.29,80,-137.29,69.98,25.26,13.17,12.74,95.92,-57.586,0.82,0,90.4,7,0,0,0,0,0,0,0,0,90.4,1,0,5.707,0,0,3,0,0,0,11.5,-4.41,0,0,1,1,35.36,FLYING
35.54,TAKEOFF,TO_CLIMB,217.42,80,-137.42,79.35,24.84,12.33,10.88,95.06,-54.79,0.82,0,90.4,7,0,0,0,0,0,0,0,0,90.4,1,0,4.91,0,0,3,0,0,0,11.5,-4.41,0,0,1,1,35.58,FLYING
35.8,TAKEOFF,TO_CLIMB,217.14,80,-137.14,90.4,24.18,12.07,9.45,94.23,-48.412,0.82,0,90.4,7,0,0,0,0,0,0,0,0,90.4,1,0,3.968,0,0,3,0,0,0,11.5,-4.41,0,0,1,1,35.84,FLYING
36.02,TAKEOFF,TO_CLIMB,216.25,80,-136.25,101.82,23.59,12.38,9.12,94,-42.897,0.82,0,90.4,7,0,0,0,0,0,0,0,0,90.4,1,0,3.633,0,0,3,0,0,0,11.5,-4.41,0,0,1,1,36.06,FLYING
36.24,TAKEOFF,TO_CLIMB,214.34,80,-134.34,112.52,22.94,13.11,9.38,94.04,-37.493,0.82,0,90.4,7,0,0,0,0,0,0,0,0,90.4,1,0,3.621,0,0,3,0,0,0,11.5,-4.41,0,0,1,1,36.28,FLYING
36.46,TAKEOFF,TO_CLIMB,211.09,80,-131.09,122.42,22.29,14.04,9.89,94.08,-32.246,0.82,0,90.4,7,0,0,0,0,0,0,0,0,90.4,1,0,3.69,0,0,3,0,0,0,11.5,-4.41,0,0,1,1,36.5,FLYING
36.68,TAKEOFF,TO_CLIMB,206.27,80,-126.27,136.35,21.85,14.52,9.84,93.69,-27.144,0.82,0,90.4,7,0,0,0,0,0,0,0,0,90.4,1,0,3.46,0,0,3,0,0,0,11.5,-4.41,0,0,1,1,36.72,FLYING
36.94,TAKEOFF,TO_CLIMB,199.58,80,-119.58,153.12,20.98,14.06,8.87,92.71,-21.558,0.82,0,90.4,7,0,0,0,0,0,0,0,0,90.4,1,0,2.552,0,0,3,0,0,0,11.5,-4.41,0,0,1,1,36.98,FLYING
37.16,TAKEOFF,TO_CLIMB,193.46,80,-113.46,159.11,19.83,13.21,7.83,91.82,-17.571,0.82,0,90.4,7,0,0,0,0,0,0,0,0,90.4,1,0,1.655,0,0,3,0,0,0,11.5,-4.41,0,0,1,1,37.2,FLYING
37.38,TAKEOFF,TO_CLIMB,186.96,80,-106.96,163.02,18.38,12.11,6.87,91.09,-14.431,0.8608,0,90.4,7,0,0,0,0,0,0,0,0,90.4,1,0,0.865,0,0,3,0,0,0,11.5,-4.41,0,0,1,1,37.42,FLYING
37.6,TAKEOFF,TO_CLIMB,180.83,80,-100.83,166.61,16.77,11.25,6.2,90.6,-12.122,0.9245,0,90.4,7,0,0,0,0,0,0,0,0,90.4,1,0,0.315,0,0,3,0,0,0,11.5,-4.41,0,0,1,1,37.64,FLYING
37.82,TAKEOFF,TO_CLIMB,175.22,80,-95.22,169.91,15.14,10.57,5.82,90.34,-11.139,0.9829,0,90.4,7,0,0,0,0,0,0,0,0,90.4,1,0,-0.01,0,0,3,0,0,0,11.5,-4.41,0,0,1,1,37.86,FLYING
38.08,TAKEOFF,TO_CLIMB,169.19,80,-89.19,173.45,13.09,10.24,5.95,90.28,-10.196,1,0,90.4,6.635,0,0,0,0,0,0,0,0,90.4,1,0,-0.127,0,0,3,0,0,0,11.5,-4.41,0,0,1,1,38.12,FLYING
38.3,TAKEOFF,TO_CLIMB,164.51,80,-84.51,176.14,11.46,10.32,6.45,90.32,-9.47,1,0,90.4,6.247,0,0,0,0,0,0,0,0,90.4,1,0,-0.095,0,0,3,0,0,0,11.5,-4.41,0,0,1,1,38.34,FLYING
38.52,TAKEOFF,TO_CLIMB,160.17,80,-80.17,178.56,9.95,10.59,7.14,90.41,-8.792,1,0,90.4,5.888,0,0,0,0,0,0,0,0,90.4,1,0,-0.018,0,0,3,0,0,0,11.5,-4.41,0,0,1,1,38.56,FLYING
38.74,TAKEOFF,TO_CLIMB,156.13,80,-76.13,180.67,8.56,10.91,7.87,90.49,-8.156,1,0,90.4,5.555,0,0,0,0,0,0,0,0,90.4,1,0,0.065,0,0,3,0,0,0,11.5,-4.41,0,0,1,1,38.78,FLYING
38.96,TAKEOFF,TO_CLIMB,152.37,80,-72.37,182.47,7.28,11.15,8.52,90.54,-7.554,1,0,90.4,5.244,0,0,0,0,0,0,0,0,90.4,1,0,0.128,0,0,3,0,0,0,11.5,-4.41,0,0,1,1,39,FLYING
39.22,TAKEOFF,TO_CLIMB,148.24,80,-68.24,184.19,5.86,11.21,9.06,90.56,-6.885,1,0,90.4,4.903,0,0,0,0,0,0,0,0,90.4,1,0,0.162,0,0,3,0,0,0,11.5,-4.41,0,0,1,1,39.26,FLYING
39.44,TAKEOFF,TO_CLIMB,145,80,-65,185.29,4.69,11.04,9.3,90.55,-6.362,1,0,90.4,4.636,0,0,0,0,0,0,0,0,90.4,1,0,0.157,0,0,3,0,0,0,11.5,-4.41,0,0,1,1,39.48,FLYING
39.66,TAKEOFF,TO_CLIMB,141.98,80,-61.98,186.09,3.52,10.67,9.37,90.52,-5.874,1,0,90.4,4.5,0,0,0,0,0,0,0,0,90.4,1,0,0.128,0,0,3,0,0,0,11.5,-4.41,0,0,1,1,39.7,FLYING
39.88,TAKEOFF,TO_CLIMB,139.16,80,-59.16,186.57,2.32,10.15,9.32,90.47,-5.412,1,0,90.4,4.5,0,0,0,0,0,0,0,0,90.4,1,0,0.084,0,0,3,0,0,0,11.5,-4.41,0,0,1,1,39.92,FLYING
40.1,TAKEOFF,TO_CLIMB,136.55,80,-56.55,186.76,1.08,9.55,9.2,90.42,-4.974,1,0,90.4,4.5,0,0,0,0,0,0,0,0,90.4,1,0,0.032,0,0,3,0,0,0,11.5,-4.41,0,0,1,1,40.14,FLYING
40.36,TAKEOFF,TO_CLIMB,133.69,80,-53.69,186.61,-0.42,8.79,9.05,90.36,-4.497,1,0,90.4,4.5,0,0,0,0,0,0,0,0,90.4,1,0,-0.029,0,0,3,0,0,0,11.5,-4.41,0,0,1,1,40.4,FLYING
40.58,TAKEOFF,TO_CLIMB,131.46,80,-51.46,186.18,-1.71,8.16,8.96,90.31,-4.098,1,0,90.4,4.5,0,0,0,0,0,0,0,0,90.4,1,0,-0.074,0,0,3,0,0,0,11.5,-4.41,0,0,1,1,40.62,FLYING
40.8,TAKEOFF,TO_CLIMB,129.39,80,-49.39,185.48,-3.02,7.57,8.93,90.27,-3.69,1,0,90.4,4.5,0,0,0,0,0,0,0,0,90.4,1,0,-0.118,0,0,3,0,0,0,11.5,-4.41,0,0,1,1,40.84,FLYING
41.02,TAKEOFF,TO_CLIMB,127.46,80,-47.46,184.5,-4.33,7.03,8.99,90.23,-3.298,1,0,90.4,4.5,0,0,0,0,0,0,0,0,90.4,1,0,-0.158,0,0,3,0,0,0,11.5,-4.41,0,0,1,1,41.06,FLYING
41.24,TAKEOFF,TO_CLIMB,125.66,80,-45.66,183.25,-5.64,6.57,9.11,90.2,-2.928,1,0,90.4,4.5,0,0,0,0,0,0,0,0,90.4,1,0,-0.194,0,0,3,0,0,0,11.5,-4.41,0,0,1,1,41.28,FLYING
41.5,TAKEOFF,TO_CLIMB,123.69,80,-43.69,181.43,-7.16,6.08,9.34,90.16,-2.524,1,0,90.4,4.5,0,0,0,0,0,0,0,0,90.4,1,0,-0.231,0,0,3,0,0,0,11.5,-4.41,0,0,1,1,41.54,FLYING
41.72,TAKEOFF,TO_CLIMB,122.14,80,-42.14,179.59,-8.43,5.7,9.58,90.13,-2.213,1,0,90.4,4.5,0,0,0,0,0,0,0,0,90.4,1,0,-0.259,0,0,3,0,0,0,11.5,-4.41,0,0,1,1,41.76,FLYING
41.94,TAKEOFF,TO_CLIMB,120.7,80,-40.7,177.48,-9.67,5.34,9.82,90.11,-1.928,1,0,90.4,4.5,0,0,0,0,0,0,0,0,90.4,1,0,-0.287,0,0,3,0,0,0,11.5,-4.41,0,0,1,1,41.98,FLYING
42.16,TAKEOFF,TO_CLIMB,119.35,80,-39.35,175.1,-10.89,4.96,10.07,90.08,-1.666,1,0,90.4,4.5,0,0,0,0,0,0,0,0,90.4,1,0,-0.313,0,0,3,0,0,0,11.5,-4.41,0,0,1,1,42.2,FLYING
42.38,TAKEOFF,TO_CLIMB,118.09,80,-38.09,172.44,-12.09,4.55,10.28,90.05,-1.423,1,0,90.4,4.5,0,0,0,0,0,0,0,0,90.4,1,0,-0.341,0,0,3,0,0,0,11.5,-4.41,0,0,1,1,42.42,FLYING
42.64,TAKEOFF,TO_CLIMB,116.71,80,-36.71,168.95,-13.49,4.02,10.49,90.02,-1.16,1,0,90.4,4.5,0,0,0,0,0,0,0,0,90.4,1,0,-0.374,0,0,3,0,0,0,11.5,-4.41,0,0,1,1,42.68,FLYING
42.86,TAKEOFF,TO_CLIMB,115.63,80,-35.63,165.7,-14.67,3.52,10.61,89.99,-0.957,1,0,90.4,4.5,0,0,0,0,0,0,0,0,90.4,1,0,-0.402,0,0,3,0,0,0,11.5,-4.41,0,0,1,1,42.9,FLYING
43.08,TAKEOFF,TO_CLIMB,114.63,80,-34.63,162.17,-15.84,2.97,10.7,89.96,-0.773,1,0,90.4,4.5,0,0,0,0,0,0,0,0,90.4,1,0,-0.431,0,0,3,0,0,0,11.5,-4.41,0,0,1,1,43.12,FLYING
43.3,TAKEOFF,TO_CLIMB,113.71,80,-33.71,158.37,-17.01,2.38,10.75,89.94,-0.613,1,0,90.4,4.5,0,0,0,0,0,0,0,0,90.4,1,0,-0.457,0,0,3,0,0,0,11.5,-4.41,0,0,1,1,43.34,FLYING
43.52,TAKEOFF,TO_CLIMB,112.85,80,-32.85,154.3,-18.19,1.75,10.77,89.91,-0.476,1,0,90.4,4.5,0,0,0,0,0,0,0,0,90.4,1,0,-0.481,0,0,3,0,0,0,11.5,-4.41,0,0,1,1,43.56,FLYING
43.78,TAKEOFF,TO_CLIMB,111.93,80,-31.93,149.15,-19.59,0.97,10.76,89.89,-0.344,1,0,90.4,4.5,0,0,0,0,0,0,0,0,90.4,1,0,-0.506,0,0,3,0,0,0,11.5,-4.41,0,0,1,1,43.82,FLYING
44,TAKEOFF,TO_CLIMB,111.22,80,-31.22,144.5,-20.78,0.29,10.75,89.87,-0.256,1,0,90.4,4.5,0,0,0,0,0,0,0,0,90.4,1,0,-0.522,0,0,3,0,0,0,11.5,-4.41,0,0,1,1,44.04,FLYING
44.22,TAKEOFF,TO_CLIMB,110.58,80,-30.58,139.58,-21.95,-0.43,10.69,89.86,-0.188,1,0,90.4,4.5,0,0,0,0,0,0,0,0,90.4,1,0,-0.536,0,0,3,0,0,0,11.5,-4.41,0,0,1,1,44.26,FLYING
44.44,TAKEOFF,TO_CLIMB,109.99,80,-29.99,134.39,-23.13,-1.18,10.6,89.85,-0.137,1,0,90.4,4.5,0,0,0,0,0,0,0,0,90.4,1,0,-0.547,0,0,3,0,0,0,11.5,-4.41,0,0,1,1,44.48,FLYING
44.66,TAKEOFF,TO_CLIMB,109.46,80,-29.46,128.93,-24.32,-1.97,10.49,89.84,-0.102,1,0,90.4,4.5,0,0,0,0,0,0,0,0,90.4,1,0,-0.555,0,0,3,0,0,0,11.5,-4.41,0,0,1,1,44.7,FLYING
44.92,TAKEOFF,TO_CLIMB,108.91,80,-28.91,122.13,-25.77,-2.89,10.38,89.84,-0.076,1,0,90.4,4.5,0,0,0,0,0,0,0,0,90.4,1,0,-0.56,0,0,3,0,0,0,11.5,-4.41,0,0,1,1,44.96,FLYING
45.14,TAKEOFF,TO_CLIMB,108.51,80,-28.51,116.1,-27.01,-3.62,10.35,89.84,-0.065,1,0,90.4,4.5,0,0,0,0,0,0,0,0,90.4,1,0,-0.563,0,0,3,0,0,0,11.5,-4.41,0,0,1,1,45.18,FLYING
45.36,TAKEOFF,TO_CLIMB,108.15,80,-28.15,109.81,-28.26,-4.3,10.37,89.84,-0.059,1,0,90.4,4.5,0,0,0,0,0,0,0,0,90.4,1,0,-0.564,0,0,3,0,0,0,11.5,-4.41,0,0,1,1,45.4,FLYING
45.58,TAKEOFF,TO_CLIMB,107.83,80,-27.83,103.26,-29.5,-4.93,10.45,89.83,-0.055,1,0,90.4,4.5,0,0,0,0,0,0,0,0,90.4,1,0,-0.565,0,0,3,0,0,0,11.5,-4.41,0,0,1,1,45.62,FLYING
45.8,TAKEOFF,TO_CLIMB,107.56,80,-27.56,96.45,-30.72,-5.52,10.55,89.83,-0.051,1,0,90.4,4.5,0,0,0,0,0,0,0,0,90.4,1,0,-0.565,0,0,3,0,0,0,11.5,-4.41,0,0,1,1,45.84,FLYING
46.06,TAKEOFF,TO_CLIMB,107.28,80,-27.28,88.07,-32.15,-6.17,10.71,89.83,-0.041,1,0,90.4,4.5,0,0,0,0,0,0,0,0,90.4,1,0,-0.567,0,0,3,0,0,0,11.5,-4.41,0,0,1,1,46.1,FLYING
46.28,TAKEOFF,TO_CLIMB,107.09,80,-27.09,80.7,-33.34,-6.71,10.85,89.83,-0.028,1,0,90.4,4.5,0,0,0,0,0,0,0,0,90.4,1,0,-0.568,0,0,3,0,0,0,11.5,-4.41,0,0,1,1,46.32,FLYING
46.5,TAKEOFF,TO_CLIMB,106.93,80,-26.93,73.07,-34.52,-7.23,11,89.83,-0.011,1,0,90.4,4.5,0,0,0,0,0,0,0,0,90.4,1,0,-0.571,0,0,3,0,0,0,11.5,-4.41,0,0,1,1,46.54,FLYING
46.72,TAKEOFF,TO_CLIMB,106.8,80,-26.8,65.18,-35.68,-7.76,11.14,89.82,0.012,1,0,90.4,4.5,0,0,0,0,0,0,0,0,90.4,1,0,-0.575,0,0,3,0,0,0,11.5,-4.41,0,0,1,1,46.76,FLYING
46.94,TAKEOFF,TO_CLIMB,106.7,80,-26.7,57.04,-36.83,-8.3,11.25,89.82,0.038,1,0,90.4,4.5,0,0,0,0,0,0,0,0,90.4,1,0,-0.58,0,0,3,0,0,0,11.5,-4.41,0,0,1,1,46.98,FLYING
47.2,TAKEOFF,TO_CLIMB,106.62,80,-26.62,47.08,-38.17,-8.97,11.35,89.81,0.07,1,0,90.4,4.5,0,0,0,0,0,0,0,0,90.4,1,0,-0.587,0,0,3,0,0,0,11.5,-4.41,0,0,1,1,47.24,FLYING
47.42,TAKEOFF,TO_CLIMB,106.59,80,-26.59,38.38,-39.29,-9.56,11.4,89.8,0.096,1,0,90.4,4.5,0,0,0,0,0,0,0,0,90.4,1,0,-0.594,0,0,3,0,0,0,11.5,-4.41,0,0,1,1,47.46,FLYING
47.64,TAKEOFF,TO_CLIMB,106.58,80,-26.58,29.42,-40.4,-10.18,11.42,89.8,0.118,1,0,90.4,4.5,0,0,0,0,0,0,0,0,90.4,1,0,-0.6,0,0,3,0,0,0,11.5,-4.41,0,0,1,1,47.68,FLYING
47.86,TAKEOFF,TO_CLIMB,106.59,80,-26.59,20.22,-41.52,-10.83,11.4,89.79,0.136,1,0,90.4,4.5,0,0,0,0,0,0,0,0,90.4,1,0,-0.606,0,0,3,0,0,0,11.5,-4.41,0,0,1,1,47.9,FLYING
48.08,TAKEOFF,TO_CLIMB,106.63,80,-26.63,10.76,-42.62,-11.51,11.36,89.79,0.146,1,0,90.4,4.5,0,0,0,0,0,0,0,0,90.4,1,0,-0.611,0,0,3,0,0,0,11.5,-4.41,0,0,1,1,48.12,FLYING
48.34,TAKEOFF,TO_CLIMB,106.68,80,-26.68,-0.73,-43.8,-12.09,11.3,89.78,0.144,1,0,90.4,4.5,0,0,0,0,0,0,0,0,90.4,1,0,-0.614,0,0,3,0,0,0,11.5,-4.41,0,0,1,1,48.38,SPLASHED
48.56,TAKEOFF,TO_CLIMB,49.78,80,30.22,-2.34,1.44,-3.84,0,89.67,0.099,1,0,90.4,4.5,0,0,0,0,0,0,0,0,90.4,1,0,-0.738,0,0,3,0,0,0,11.5,-4.41,0,0,1,1,48.6,SPLASHED
48.78,TAKEOFF,TO_CLIMB,5.03,80,74.97,1.87,6.73,6.48,-83.65,89.69,-0.334,1,0,90.4,4.5,0,0,0,0,0,0,0,0,90.4,1,0,-0.722,0,0,3,0,0,0,11.5,-4.41,0,0,1,1,48.82,SPLASHED
49,TAKEOFF,TO_CLIMB,6.11,80,73.89,6.19,6.26,17.4,-73.68,89.74,-0.642,1,0,90.4,4.5,0,0,0,0,0,0,0,0,90.4,1,0,-0.668,0,0,3,0,0,0,11.5,-4.41,0,0,1,1,49.04,SPLASHED
49.22,TAKEOFF,TO_CLIMB,5.84,80,74.16,9.42,5.85,23.98,-66.93,89.78,-0.578,1,0,90.4,4.5,0,0,0,0,0,0,0,0,90.4,1,0,-0.632,0,0,3,0,0,0,11.5,-4.41,0,0,1,1,49.26,SPLASHED
49.48,TAKEOFF,TO_CLIMB,5.06,80,74.94,12.04,4.74,28.47,0,89.8,-0.353,1,0,90.4,4.5,0,0,0,0,0,0,0,0,90.4,1,0,-0.604,0,0,3,0,0,0,11.5,-4.41,0,0,1,1,49.52,SPLASHED
49.7,TAKEOFF,TO_CLIMB,3.9,80,76.1,13.46,3.34,30.44,0,89.8,-0.072,1,0,90.4,4.5,0,0,0,0,0,0,0,0,90.4,1,0,-0.601,0,0,3,0,0,0,11.5,-4.41,0,0,1,1,49.74,SPLASHED
49.92,TAKEOFF,TO_CLIMB,2.42,80,77.58,14.25,1.69,31.37,0,89.8,0.207,1,0,90.4,4.5,0,0,0,0,0,0,0,0,90.4,1,0,-0.602,0,0,3,0,0,0,11.5,-4.41,0,0,1,1,49.96,SPLASHED
50.14,TAKEOFF,TO_CLIMB,0.78,80,79.22,14.47,-0.07,31.55,0,89.79,0.495,1,0,90.4,4.5,0,0,0,0,0,0,0,0,90.4,1,0,-0.605,0,0,3,0,0,0,11.5,-4.41,0,0,1,1,50.18,SPLASHED
50.36,TAKEOFF,TO_CLIMB,0.89,80,79.11,14.13,-1.76,31.07,0,89.79,0.791,1,0,90.4,4.5,0,0,0,0,0,0,0,0,90.4,1,0,-0.608,0,0,3,0,0,0,11.5,-4.41,0,0,1,1,50.4,SPLASHED
50.62,TAKEOFF,TO_CLIMB,2.67,80,77.33,12.94,-3.48,29.19,0,89.79,1.165,1,0,90.4,4.5,0,0,0,0,0,0,0,0,90.4,1,0,-0.608,0,0,3,0,0,0,11.5,-4.41,0,0,1,1,50.66,SPLASHED
50.84,TAKEOFF,TO_CLIMB,3.88,80,76.12,11.19,-4.56,25.91,0,89.8,1.543,1,0,90.4,4.5,0,0,0,0,0,0,0,0,90.4,1,0,-0.602,0,0,3,0,0,0,11.5,-4.41,0,0,1,1,50.88,SPLASHED
51.06,TAKEOFF,TO_CLIMB,4.74,80,75.26,8.61,-5.27,20.41,69.16,89.82,2.012,1,0,90.4,4.5,0,0,0,0,0,0,0,0,90.4,1,0,-0.587,0,0,3,0,0,0,11.5,-4.41,0,0,1,1,51.1,SPLASHED
51.28,TAKEOFF,TO_CLIMB,5.21,80,74.79,5.09,-5.31,12.13,78.93,89.88,2.381,1,0,90.4,4.5,0,0,0,0,0,0,0,0,90.4,1,0,-0.546,0,0,3,0,0,0,11.5,-4.41,0,0,1,1,51.32,SPLASHED
51.5,TAKEOFF,TO_CLIMB,4.5,80,75.5,0.88,-3.73,0.24,0,89.98,1.398,1,0,90.4,4.5,0,0,0,0,0,0,0,0,90.4,1,0,-0.446,0,0,3,0,0,0,11.5,-4.41,0,0,1,1,51.54,SPLASHED
51.76,TAKEOFF,TO_CLIMB,1,80,79,-0.44,2.14,-2.27,0,90.03,-2.293,1,0,90.4,4.5,0,0,0,0,0,0,0,0,90.4,1,0,-0.382,0,0,3,0,0,0,11.5,-4.41,0,0,1,1,51.8,SPLASHED
51.98,TAKEOFF,TO_CLIMB,2.78,80,77.22,2.45,2.84,6.34,0,90.16,-4.352,1,0,90.4,4.5,0,0,0,0,0,0,0,0,90.4,1,0,-0.286,0,0,3,0,0,0,11.5,-4.41,0,0,1,1,52.02,SPLASHED
52.2,TAKEOFF,TO_CLIMB,2.81,80,77.19,4.15,2.99,9.5,0,90.39,-9.971,1,0,90.4,4.5,0,0,0,0,0,0,0,0,90.4,1,0,-0.072,0,0,3,0,0,0,11.5,-4.41,0,0,1,1,52.24,SPLASHED
52.42,TAKEOFF,TO_CLIMB,2.7,80,77.3,4.84,2.42,9.07,0,90.49,-17.985,1,0,90.4,4.5,0,0,0,0,0,0,0,0,90.4,1,0,0.081,0,0,3,0,0,0,11.5,-4.41,0,0,1,1,52.46,SPLASHED
52.64,TAKEOFF,TO_CLIMB,1.64,80,78.36,4.88,0.89,7.5,0,90.47,-23.392,1,0,90.4,4.5,0,0,0,0,0,0,0,0,90.4,1,0,0.079,0,0,3,0,0,0,11.5,-4.41,0,0,1,1,52.68,SPLASHED
52.9,TAKEOFF,TO_CLIMB,0.4,80,79.6,4.29,-1.25,5.64,0,90.42,-25.399,1,0,90.4,4.5,0,0,0,0,0,0,0,0,90.4,1,0,0.028,0,0,3,0,0,0,11.5,-4.41,0,0,1,1,52.94,SPLASHED
53.12,TAKEOFF,TO_CLIMB,2.05,80,77.95,3.31,-2.99,3.95,0,90.44,-23.291,1,0,90.4,4.5,0,0,0,0,0,0,0,0,90.4,1,0,0.029,0,0,3,0,0,0,11.5,-4.41,0,0,1,1,53.16,SPLASHED
53.34,TAKEOFF,TO_CLIMB,3.65,80,76.35,1.91,-4.6,2.31,0,90.5,-16.811,1,0,90.4,4.5,0,0,0,0,0,0,0,0,90.4,1,0,0.087,0,0,3,0,0,0,11.5,-4.41,0,0,1,1,53.38,SPLASHED
53.56,TAKEOFF,TO_CLIMB,4.95,80,75.05,0.05,-5.28,0.38,89.42,90.5,-5.61,1,0,90.4,4.5,0,0,0,0,0,0,0,0,90.4,1,0,0.119,0,0,3,0,0,0,11.5,-4.41,0,0,1,1,53.6,SPLASHED
53.78,TAKEOFF,TO_CLIMB,1.94,80,78.06,0.28,1.12,3.4,0,90.27,7.209,1,0,90.4,4.5,0,0,0,0,0,0,0,0,90.4,1,0,-0.06,0,0,3,0,0,0,11.5,-4.41,0,0,1,1,53.82,SPLASHED
54.04,TAKEOFF,TO_CLIMB,2.17,80,77.83,1.8,2.79,6.92,0,90.3,7.631,1,0,90.4,4.5,0,0,0,0,0,0,0,0,90.4,1,0,-0.141,0,0,3,0,0,0,11.5,-4.41,0,0,1,1,54.08,SPLASHED
54.26,TAKEOFF,TO_CLIMB,2.8,80,77.2,1.9,2.82,4.51,0,90.5,0.621,1,0,90.4,4.5,0,0,0,0,0,0,0,0,90.4,1,0,0.051,0,0,3,0,0,0,11.5,-4.41,0,0,1,1,54.3,SPLASHED
54.48,TAKEOFF,TO_CLIMB,1.99,80,78.01,1.22,1.18,-0.05,0,90.53,-7.237,1,0,90.4,4.5,0,0,0,0,0,0,0,0,90.4,1,0,0.138,0,0,3,0,0,0,11.5,-4.41,0,0,1,1,54.52,SPLASHED
54.7,TAKEOFF,TO_CLIMB,0.35,80,79.65,0.19,-0.2,-4.56,0,90.44,-12.087,1,0,90.4,4.5,0,0,0,0,0,0,0,0,90.4,1,0,0.069,0,0,3,0,0,0,11.5,-4.41,0,0,1,1,54.74,SPLASHED
54.92,TAKEOFF,TO_CLIMB,0.29,80,79.71,0.74,0.04,-2.3,0,90.44,-8.289,1,0,90.4,4.5,0,0,0,0,0,0,0,0,90.4,1,0,0.038,0,0,3,0,0,0,11.5,-4.41,0,0,1,1,54.96,SPLASHED
55.18,TAKEOFF,TO_CLIMB,1.24,80,78.76,1.79,-2.03,3.1,0,90.38,-1.092,1,0,90.4,4.5,0,0,0,0,0,0,0,0,90.4,1,0,0.012,0,0,3,0,0,0,11.5,-4.41,0,0,1,1,55.22,SPLASHED
55.4,TAKEOFF,TO_CLIMB,1.91,80,78.09,1.66,-1.83,3.83,0,89.95,-4.638,1,0,90.4,4.5,0,0,0,0,0,0,0,0,90.4,1,0,-0.327,0,0,3,0,0,0,11.5,-4.41,0,0,1,1,55.44,SPLASHED
55.62,TAKEOFF,TO_CLIMB,1.33,80,78.67,0.59,-0.96,0.48,0,89.47,-8.857,1,0,90.4,4.5,0,0,0,0,0,0,0,0,90.4,1,0,-0.794,0,0,3,0,0,0,11.5,-4.41,0,0,1,1,55.66,SPLASHED
55.84,TAKEOFF,TO_CLIMB,0.52,80,79.48,0.71,1.48,1.01,0,89.02,-6.538,1,0,90.4,4.5,0,0,0,0,0,0,0,0,90.4,1,0,-1.26,0,0,3,0,0,0,11.5,-4.41,0,0,1,1,55.88,SPLASHED
56.06,TAKEOFF,TO_CLIMB,1.09,80,78.91,1.4,0.76,2.79,0,88.63,-4.317,1,0,90.4,4.5,0,0,0,0,0,0,0,0,90.4,1,0,-1.669,0,0,3,0,0,0,11.5,-4.41,0,0,1,1,56.1,SPLASHED
56.32,TAKEOFF,TO_CLIMB,0.22,80,79.78,1.29,-0.46,2.2,0,88.2,-5.105,1,0,90.4,4.5,0,0,0,0,0,0,0,0,90.4,1,0,-2.103,0,0,3,0,0,0,11.5,-4.41,0,0,1,1,56.36,SPLASHED
56.54,TAKEOFF,TO_CLIMB,0.98,80,79.02,0.61,-1.48,0.53,0,87.84,-5.446,1,0,90.4,4.5,0,0,0,0,0,0,0,0,90.4,1,0,-2.465,0,0,3,0,0,0,11.5,-4.41,0,0,1,1,56.58,SPLASHED
56.76,TAKEOFF,TO_CLIMB,1.61,80,78.39,-0.12,-1.39,-0.66,0,87.5,-3.047,1,0,90.4,4.5,0,0,0,0,0,0,0,0,90.4,1,0,-2.805,0,0,3,0,0,0,11.5,-4.41,0,0,1,1,56.8,SPLASHED
56.98,TAKEOFF,TO_CLIMB,0.58,80,79.42,0.24,-0.04,1.38,0,87.18,1.687,1,0,90.4,4.5,0,0,0,0,0,0,0,0,90.4,1,0,-3.143,0,0,3,0,0,0,11.5,-4.41,0,0,1,1,57.02,SPLASHED
57.2,TAKEOFF,TO_CLIMB,0.68,80,79.32,0.49,1.14,1.61,0,86.99,0.533,1,0,90.4,4.5,0,0,0,0,0,0,0,0,90.4,1,0,-3.375,0,0,3,0,0,0,11.5,-4.41,0,0,1,1,57.24,SPLASHED
57.46,TAKEOFF,TO_CLIMB,0.88,80,79.12,0.37,0.66,0.03,0,86.82,-3.564,1,0,90.4,4.5,0,0,0,0,0,0,0,0,90.4,1,0,-3.536,0,0,3,0,0,0,11.5,-4.41,0,0,1,1,57.5,SPLASHED
57.68,TAKEOFF,TO_CLIMB,0.3,80,79.7,0.13,-0.06,-1.11,0,86.65,-4.709,1,0,90.4,4.5,0,0,0,0,0,0,0,0,90.4,1,0,-3.7,0,0,3,0,0,0,11.5,-4.41,0,0,1,1,57.72,SPLASHED
57.9,TAKEOFF,TO_CLIMB,0.36,80,79.64,-0.07,-0.57,-1.43,0,86.46,-3.041,1,0,90.4,4.5,0,0,0,0,0,0,0,0,90.4,1,0,-3.885,0,0,3,0,0,0,11.5,-4.41,0,0,1,1,57.94,SPLASHED
58.12,TAKEOFF,TO_CLIMB,0.55,80,79.45,-0.08,-0.48,-0.86,0,86.28,-0.037,1,0,90.4,4.5,0,0,0,0,0,0,0,0,90.4,1,0,-4.07,0,0,3,0,0,0,11.5,-4.41,0,0,1,1,58.16,SPLASHED
58.34,TAKEOFF,TO_CLIMB,0.16,80,79.84,-0.09,0.24,-0.75,0,86.15,0.805,1,0,90.4,4.5,0,0,0,0,0,0,0,0,90.4,1,0,-4.222,0,0,3,0,0,0,11.5,-4.41,0,0,1,1,58.38,SPLASHED
58.6,TAKEOFF,TO_CLIMB,0.7,80,79.3,-0.12,1.02,-1.64,0,86.03,-1.441,1,0,90.4,4.5,0,0,0,0,0,0,0,0,90.4,1,0,-4.339,0,0,3,0,0,0,11.5,-4.41,0,0,1,1,58.64,SPLASHED
58.82,TAKEOFF,TO_CLIMB,1,80,79,0.06,0.86,-1.91,0,85.93,-2.819,1,0,90.4,4.5,0,0,0,0,0,0,0,0,90.4,1,0,-4.444,0,0,3,0,0,0,11.5,-4.41,0,0,1,1,58.86,SPLASHED
59.04,TAKEOFF,TO_CLIMB,0.45,80,79.55,0.19,-0.01,-1.75,0,85.8,-2.866,1,0,90.4,4.5,0,0,0,0,0,0,0,0,90.4,1,0,-4.562,0,0,3,0,0,0,11.5,-4.41,0,0,1,1,59.08,SPLASHED
59.26,TAKEOFF,TO_CLIMB,0.48,80,79.52,0.18,-0.95,-1.26,0,85.67,-1.517,1,0,90.4,4.5,0,0,0,0,0,0,0,0,90.4,1,0,-4.692,0,0,3,0,0,0,11.5,-4.41,0,0,1,1,59.3,SPLASHED
59.48,TAKEOFF,TO_CLIMB,1.04,80,78.96,0.01,-1.11,-0.91,0,85.56,-0.034,1,0,90.4,4.5,0,0,0,0,0,0,0,0,90.4,1,0,-4.813,0,0,3,0,0,0,11.5,-4.41,0,0,1,1,59.52,SPLASHED
59.74,TAKEOFF,TO_CLIMB,0.38,80,79.62,0.18,0.06,0.22,0,85.44,1.328,1,0,90.4,4.5,0,0,0,0,0,0,0,0,90.4,1,0,-4.945,0,0,3,0,0,0,11.5,-4.41,0,0,1,1,59.78,SPLASHED
59.96,TAKEOFF,TO_CLIMB,0.33,80,79.67,0.16,0.58,-0.33,0,85.42,-1.55,1,0,90.4,4.5,0,0,0,0,0,0,0,0,90.4,1,0,-4.974,0,0,3,0,0,0,11.5,-4.41,0,0,1,1,60,SPLASHED
60.18,TAKEOFF,TO_CLIMB,0.53,80,79.47,0.32,0.37,-0.29,0,85.38,-3.369,1,0,90.4,4.5,0,0,0,0,0,0,0,0,90.4,1,0,-5.01,0,0,3,0,0,0,11.5,-4.41,0,0,1,1,60.22,SPLASHED
60.4,TAKEOFF,TO_CLIMB,0.12,80,79.88,0.45,-0.11,0.06,0,85.34,-3.808,1,0,90.4,4.5,0,0,0,0,0,0,0,0,90.4,1,0,-5.051,0,0,3,0,0,0,11.5,-4.41,0,0,1,1,60.44,SPLASHED
60.62,TAKEOFF,TO_CLIMB,0.27,80,79.73,0.53,-0.39,0.65,0,85.3,-3.26,1,0,90.4,4.5,0,0,0,0,0,0,0,0,90.4,1,0,-5.087,0,0,3,0,0,0,11.5,-4.41,0,0,1,1,60.66,SPLASHED
60.88,TAKEOFF,TO_CLIMB,0.34,80,79.66,0.63,-0.28,1.36,0,85.28,-2.555,1,0,90.4,4.5,0,0,0,0,0,0,0,0,90.4,1,0,-5.116,0,0,3,0,0,0,11.5,-4.41,0,0,1,1,60.92,SPLASHED
61.1,TAKEOFF,TO_CLIMB,0.14,80,79.86,0.69,0.01,1.7,0,85.27,-2.557,1,0,90.4,4.5,0,0,0,0,0,0,0,0,90.4,1,0,-5.129,0,0,3,0,0,0,11.5,-4.41,0,0,1,1,61.14,SPLASHED
61.32,TAKEOFF,TO_CLIMB,0.1,80,79.9,0.66,0.17,1.47,0,85.26,-3.053,1,0,90.4,4.5,0,0,0,0,0,0,0,0,90.4,1,0,-5.135,0,0,3,0,0,0,11.5,-4.41,0,0,1,1,61.36,SPLASHED
61.54,TAKEOFF,TO_CLIMB,0.12,80,79.88,0.53,0.04,0.86,0,85.25,-3.473,1,0,90.4,4.5,0,0,0,0,0,0,0,0,90.4,1,0,-5.144,0,0,3,0,0,0,11.5,-4.41,0,0,1,1,61.58,SPLASHED
61.76,TAKEOFF,TO_CLIMB,0.08,80,79.92,0.35,-0.22,0.3,0,85.24,-3.237,1,0,90.4,4.5,0,0,0,0,0,0,0,0,90.4,1,0,-5.159,0,0,3,0,0,0,11.5,-4.41,0,0,1,1,61.8,SPLASHED
62.02,TAKEOFF,TO_CLIMB,0.34,80,79.66,0.15,-0.32,-0.02,0,85.2,-1.538,1,0,90.4,4.5,0,0,0,0,0,0,0,0,90.4,1,0,-5.186,0,0,3,0,0,0,11.5,-4.41,0,0,1,1,62.06,SPLASHED
62.24,TAKEOFF,TO_CLIMB,0.18,80,79.82,0.12,-0.07,0.15,0,85.18,0.311,1,0,90.4,4.5,0,0,0,0,0,0,0,0,90.4,1,0,-5.214,0,0,3,0,0,0,11.5,-4.41,0,0,1,1,62.28,SPLASHED
62.46,TAKEOFF,TO_CLIMB,0.09,80,79.91,0.12,0.24,0.07,0,85.19,0.614,1,0,90.4,4.5,0,0,0,0,0,0,0,0,90.4,1,0,-5.216,0,0,3,0,0,0,11.5,-4.41,0,0,1,1,62.5,SPLASHED
62.68,TAKEOFF,TO_CLIMB,0.24,80,79.76,0.08,0.23,-0.35,0,85.22,-0.833,1,0,90.4,4.5,0,0,0,0,0,0,0,0,90.4,1,0,-5.187,0,0,3,0,0,0,11.5,-4.41,0,0,1,1,62.72,SPLASHED
62.9,TAKEOFF,TO_CLIMB,0.11,80,79.89,0.1,-0.07,-0.47,0,85.24,-2.537,1,0,90.4,4.5,0,0,0,0,0,0,0,0,90.4,1,0,-5.161,0,0,3,0,0,0,11.5,-4.41,0,0,1,1,62.94,SPLASHED
63.16,TAKEOFF,TO_CLIMB,0.26,80,79.74,0.04,-0.33,-0.49,0,85.24,-3.242,1,0,90.4,4.5,0,0,0,0,0,0,0,0,90.4,1,0,-5.155,0,0,3,0,0,0,11.5,-4.41,0,0,1,1,63.2,SPLASHED
63.38,TAKEOFF,TO_CLIMB,0.28,80,79.72,-0.01,-0.23,-0.42,0,85.23,-2.739,1,0,90.4,4.5,0,0,0,0,0,0,0,0,90.4,1,0,-5.164,0,0,3,0,0,0,11.5,-4.41,0,0,1,1,63.42,SPLASHED
63.6,TAKEOFF,TO_CLIMB,0.12,80,79.88,-0.05,-0.01,-0.46,0,85.23,-2.363,1,0,90.4,4.5,0,0,0,0,0,0,0,0,90.4,1,0,-5.17,0,0,3,0,0,0,11.5,-4.41,0,0,1,1,63.64,SPLASHED
63.82,TAKEOFF,TO_CLIMB,0.09,80,79.91,-0.08,0.19,-0.67,0,85.23,-2.645,1,0,90.4,4.5,0,0,0,0,0,0,0,0,90.4,1,0,-5.167,0,0,3,0,0,0,11.5,-4.41,0,0,1,1,63.86,SPLASHED
64.04,TAKEOFF,TO_CLIMB,0.24,80,79.76,-0.09,0.29,-0.95,0,85.24,-3.332,1,0,90.4,4.5,0,0,0,0,0,0,0,0,90.4,1,0,-5.16,0,0,3,0,0,0,11.5,-4.41,0,0,1,1,64.08,SPLASHED
64.3,TAKEOFF,TO_CLIMB,0.25,80,79.75,-0.06,0.18,-1.07,0,85.24,-3.561,1,0,90.4,4.5,0,0,0,0,0,0,0,0,90.4,1,0,-5.156,0,0,3,0,0,0,11.5,-4.41,0,0,1,1,64.34,SPLASHED
64.52,TAKEOFF,TO_CLIMB,0.09,80,79.91,-0.02,0.04,-0.97,0,85.24,-2.955,1,0,90.4,4.5,0,0,0,0,0,0,0,0,90.4,1,0,-5.159,0,0,3,0,0,0,11.5,-4.41,0,0,1,1,64.56,SPLASHED
64.74,TAKEOFF,TO_CLIMB,0.01,80,79.99,-0.02,0,-0.92,0,85.23,-1.971,1,0,90.4,4.5,0,0,0,0,0,0,0,0,90.4,1,0,-5.164,0,0,3,0,0,0,11.5,-4.41,0,0,1,1,64.78,SPLASHED
64.96,TAKEOFF,TO_CLIMB,0.03,80,79.97,-0.05,0.13,-1.01,0,85.23,-0.921,1,0,90.4,4.5,0,0,0,0,0,0,0,0,90.4,1,0,-5.169,0,0,3,0,0,0,11.5,-4.41,0,0,1,1,65,SPLASHED
65.18,TAKEOFF,TO_CLIMB,0.26,80,79.74,0.07,0.3,-0.69,0,85.23,0.348,1,0,90.4,4.5,0,0,0,0,0,0,0,0,90.4,1,0,-5.176,0,0,3,0,0,0,11.5,-4.41,0,0,1,1,65.22,SPLASHED
65.44,TAKEOFF,TO_CLIMB,0.29,80,79.71,0.13,0.32,-0.77,0,85.24,0.487,1,0,90.4,4.5,0,0,0,0,0,0,0,0,90.4,1,0,-5.164,0,0,3,0,0,0,11.5,-4.41,0,0,1,1,65.48,SPLASHED
65.66,TAKEOFF,TO_CLIMB,0.39,80,79.61,0.21,0.5,-0.78,0,85.25,0.55,1,0,90.4,4.5,0,0,0,0,0,0,0,0,90.4,1,0,-5.156,0,0,3,0,0,0,11.5,-4.41,0,0,1,1,65.7,SPLASHED
65.88,TAKEOFF,TO_CLIMB,0.41,80,79.59,0.34,0.33,-0.67,0,85.25,0.557,1,0,90.4,4.5,0,0,0,0,0,0,0,0,90.4,1,0,-5.149,0,0,3,0,0,0,11.5,-4.41,0,0,1,1,65.92,SPLASHED
66.1,TAKEOFF,TO_CLIMB,0.27,80,79.73,0.44,0.23,-0.53,0,85.26,0.313,1,0,90.4,4.5,0,0,0,0,0,0,0,0,90.4,1,0,-5.141,0,0,3,0,0,0,11.5,-4.41,0,0,1,1,66.14,SPLASHED
66.32,TAKEOFF,TO_CLIMB,0.1,80,79.9,0.53,-0.06,-0.33,0,85.28,-0.676,1,0,90.4,4.5,0,0,0,0,0,0,0,0,90.4,1,0,-5.122,0,0,3,0,0,0,11.5,-4.41,0,0,1,1,66.36,SPLASHED
66.58,TAKEOFF,TO_CLIMB,0.24,80,79.76,0.63,-0.33,0.11,0,85.32,-2.842,1,0,90.4,4.5,0,0,0,0,0,0,0,0,90.4,1,0,-5.091,0,0,3,0,0,0,11.5,-4.41,0,0,1,1,66.62,SPLASHED
66.8,TAKEOFF,TO_CLIMB,0.41,80,79.59,0.8,-0.52,0.99,0,85.34,-4.592,1,0,90.4,4.5,0,0,0,0,0,0,0,0,90.4,1,0,-5.064,0,0,3,0,0,0,11.5,-4.41,0,0,1,1,66.84,SPLASHED
67.02,TAKEOFF,TO_CLIMB,0.42,80,79.58,0.85,-0.35,1.47,0,85.35,-5.854,1,0,90.4,4.5,0,0,0,0,0,0,0,0,90.4,1,0,-5.047,0,0,3,0,0,0,11.5,-4.41,0,0,1,1,67.06,SPLASHED
67.24,TAKEOFF,TO_CLIMB,0.3,80,79.7,0.77,-0.3,1.34,0,85.35,-6.712,1,0,90.4,4.5,0,0,0,0,0,0,0,0,90.4,1,0,-5.048,0,0,3,0,0,0,11.5,-4.41,0,0,1,1,67.28,SPLASHED
67.46,TAKEOFF,TO_CLIMB,0.33,80,79.67,0.6,-0.42,1,0,85.34,-7.181,1,0,90.4,4.5,0,0,0,0,0,0,0,0,90.4,1,0,-5.059,0,0,3,0,0,0,11.5,-4.41,0,0,1,1,67.5,SPLASHED
67.72,TAKEOFF,TO_CLIMB,0.53,80,79.47,0.4,-0.62,0.8,0,85.32,-6.752,1,0,90.4,4.5,0,0,0,0,0,0,0,0,90.4,1,0,-5.075,0,0,3,0,0,0,11.5,-4.41,0,0,1,1,67.76,SPLASHED
67.94,TAKEOFF,TO_CLIMB,0.6,80,79.4,0.25,-0.65,0.79,0,85.31,-5.91,1,0,90.4,4.5,0,0,0,0,0,0,0,0,90.4,1,0,-5.084,0,0,3,0,0,0,11.5,-4.41,0,0,1,1,67.98,SPLASHED
68.16,TAKEOFF,TO_CLIMB,0.59,80,79.41,0.05,-0.46,0.6,0,85.31,-5.064,1,0,90.4,4.5,0,0,0,0,0,0,0,0,90.4,1,0,-5.09,0,0,3,0,0,0,11.5,-4.41,0,0,1,1,68.2,SPLASHED
68.38,TAKEOFF,TO_CLIMB,0.24,80,79.76,-0.12,-0.07,0.22,0,85.3,-4.283,1,0,90.4,4.5,0,0,0,0,0,0,0,0,90.4,1,0,-5.095,0,0,3,0,0,0,11.5,-4.41,0,0,1,1,68.42,SPLASHED
68.6,TAKEOFF,TO_CLIMB,0.05,80,79.95,-0.29,0.16,-0.4,0,85.3,-3.504,1,0,90.4,4.5,0,0,0,0,0,0,0,0,90.4,1,0,-5.099,0,0,3,0,0,0,11.5,-4.41,0,0,1,1,68.64,SPLASHED
68.86,TAKEOFF,TO_CLIMB,0.28,80,79.72,-0.36,0.33,-0.83,0,85.29,-1.89,1,0,90.4,4.5,0,0,0,0,0,0,0,0,90.4,1,0,-5.11,0,0,3,0,0,0,11.5,-4.41,0,0,1,1,68.9,SPLASHED
69.08,TAKEOFF,TO_CLIMB,0.24,80,79.76,-0.35,0.14,-0.88,0,85.27,-0.176,1,0,90.4,4.5,0,0,0,0,0,0,0,0,90.4,1,0,-5.123,0,0,3,0,0,0,11.5,-4.41,0,0,1,1,69.12,SPLASHED
69.3,TAKEOFF,TO_CLIMB,0.07,80,79.93,-0.38,0.04,-0.94,0,85.26,1.66,1,0,90.4,4.5,0,0,0,0,0,0,0,0,90.4,1,0,-5.138,0,0,3,0,0,0,11.5,-4.41,0,0,1,1,69.34,SPLASHED
69.52,TAKEOFF,TO_CLIMB,0.15,80,79.85,-0.37,0.31,-0.98,0,85.26,2.613,1,0,90.4,4.5,0,0,0,0,0,0,0,0,90.4,1,0,-5.143,0,0,3,0,0,0,11.5,-4.41,0,0,1,1,69.56,SPLASHED
69.74,TAKEOFF,TO_CLIMB,0.49,80,79.51,-0.3,0.7,-1.14,0,85.28,2.53,1,0,90.4,4.5,0,0,0,0,0,0,0,0,90.4,1,0,-5.128,0,0,3,0,0,0,11.5,-4.41,0,0,1,1,69.78,SPLASHED
70,TAKEOFF,TO_CLIMB,0.78,80,79.22,-0.22,0.83,-1.68,0,85.32,1.344,1,0,90.4,4.5,0,0,0,0,0,0,0,0,90.4,1,0,-5.091,0,0,3,0,0,0,11.5,-4.41,0,0,1,1,70.04,SPLASHED
70.22,TAKEOFF,TO_CLIMB,0.64,80,79.36,-0.12,0.57,-1.95,0,85.35,-0.075,1,0,90.4,4.5,0,0,0,0,0,0,0,0,90.4,1,0,-5.059,0,0,3,0,0,0,11.5,-4.41,0,0,1,1,70.26,SPLASHED
70.44,TAKEOFF,TO_CLIMB,0.45,80,79.55,0.13,0.28,-1.44,0,85.36,-0.867,1,0,90.4,4.5,0,0,0,0,0,0,0,0,90.4,1,0,-5.041,0,0,3,0,0,0,11.5,-4.41,0,0,1,1,70.48,SPLASHED
70.66,TAKEOFF,TO_CLIMB,0.04,80,79.96,0.38,-0.15,-0.59,0,85.37,-1.416,1,0,90.4,4.5,0,0,0,0,0,0,0,0,90.4,1,0,-5.028,0,0,3,0,0,0,11.5,-4.41,0,0,1,1,70.7,SPLASHED
70.88,TAKEOFF,TO_CLIMB,0.24,80,79.76,0.48,-0.27,-0.06,0,85.39,-2.285,1,0,90.4,4.5,0,0,0,0,0,0,0,0,90.4,1,0,-5.014,0,0,3,0,0,0,11.5,-4.41,0,0,1,1,70.92,SPLASHED
71.14,TAKEOFF,TO_CLIMB,0.09,80,79.91,0.4,0.09,-0.37,0,85.41,-4.042,1,0,90.4,4.5,0,0,0,0,0,0,0,0,90.4,1,0,-4.992,0,0,3,0,0,0,11.5,-4.41,0,0,1,1,71.18,SPLASHED
71.36,TAKEOFF,TO_CLIMB,0.3,80,79.7,0.49,0.44,-0.3,0,85.4,-4.278,1,0,90.4,4.5,0,0,0,0,0,0,0,0,90.4,1,0,-4.995,0,0,3,0,0,0,11.5,-4.41,0,0,1,1,71.4,SPLASHED
71.58,TAKEOFF,TO_CLIMB,0.3,80,79.7,0.64,0.1,-0.02,0,85.4,-4.534,1,0,90.4,4.5,0,0,0,0,0,0,0,0,90.4,1,0,-5.001,0,0,3,0,0,0,11.5,-4.41,0,0,1,1,71.62,SPLASHED
71.8,TAKEOFF,TO_CLIMB,0.17,80,79.83,0.67,-0.44,0.22,0,85.4,-5.072,1,0,90.4,4.5,0,0,0,0,0,0,0,0,90.4,1,0,-5.001,0,0,3,0,0,0,11.5,-4.41,0,0,1,1,71.84,SPLASHED
72.02,TAKEOFF,TO_CLIMB,0.58,80,79.42,0.61,-0.7,0.5,0,85.39,-4.992,1,0,90.4,4.5,0,0,0,0,0,0,0,0,90.4,1,0,-5.005,0,0,3,0,0,0,11.5,-4.41,0,0,1,1,72.06,SPLASHED
72.28,TAKEOFF,TO_CLIMB,0.62,80,79.38,0.51,-0.54,0.81,0,85.38,-4.11,1,0,90.4,4.5,0,0,0,0,0,0,0,0,90.4,1,0,-5.017,0,0,3,0,0,0,11.5,-4.41,0,0,1,1,72.32,SPLASHED
72.5,TAKEOFF,TO_CLIMB,0.36,80,79.64,0.44,-0.18,0.9,0,85.37,-3.233,1,0,90.4,4.5,0,0,0,0,0,0,0,0,90.4,1,0,-5.029,0,0,3,0,0,0,11.5,-4.41,0,0,1,1,72.54,SPLASHED
72.72,TAKEOFF,TO_CLIMB,0.05,80,79.95,0.42,0.05,0.9,0,85.36,-2.475,1,0,90.4,4.5,0,0,0,0,0,0,0,0,90.4,1,0,-5.037,0,0,3,0,0,0,11.5,-4.41,0,0,1,1,72.76,SPLASHED
72.94,TAKEOFF,TO_CLIMB,0.07,80,79.93,0.41,0.05,0.84,0,85.35,-1.891,1,0,90.4,4.5,0,0,0,0,0,0,0,0,90.4,1,0,-5.044,0,0,3,0,0,0,11.5,-4.41,0,0,1,1,72.98,SPLASHED
73.16,TAKEOFF,TO_CLIMB,0.02,80,79.98,0.37,-0.09,0.74,0,85.35,-1.353,1,0,90.4,4.5,0,0,0,0,0,0,0,0,90.4,1,0,-5.049,0,0,3,0,0,0,11.5,-4.41,0,0,1,1,73.2,SPLASHED
73.42,TAKEOFF,TO_CLIMB,0.16,80,79.84,0.26,-0.19,0.54,0,85.34,-0.49,1,0,90.4,4.5,0,0,0,0,0,0,0,0,90.4,1,0,-5.058,0,0,3,0,0,0,11.5,-4.41,0,0,1,1,73.46,SPLASHED
73.64,TAKEOFF,TO_CLIMB,0.18,80,79.82,0.1,-0.15,0.15,0,85.33,0.249,1,0,90.4,4.5,0,0,0,0,0,0,0,0,90.4,1,0,-5.068,0,0,3,0,0,0,11.5,-4.41,0,0,1,1,73.68,SPLASHED
73.86,TAKEOFF,TO_CLIMB,0.07,80,79.93,-0.07,0.07,-0.4,0,85.32,0.868,1,0,90.4,4.5,0,0,0,0,0,0,0,0,90.4,1,0,-5.076,0,0,3,0,0,0,11.5,-4.41,0,0,1,1,73.9,SPLASHED
74.08,TAKEOFF,TO_CLIMB,0.2,80,79.8,-0.13,0.28,-0.78,0,85.33,1.068,1,0,90.4,4.5,0,0,0,0,0,0,0,0,90.4,1,0,-5.075,0,0,3,0,0,0,11.5,-4.41,0,0,1,1,74.12,SPLASHED
74.3,TAKEOFF,TO_CLIMB,0.24,80,79.76,-0.21,0.16,-1.25,0,85.34,0.865,1,0,90.4,4.5,0,0,0,0,0,0,0,0,90.4,1,0,-5.068,0,0,3,0,0,0,11.5,-4.41,0,0,1,1,74.34,SPLASHED
74.56,TAKEOFF,TO_CLIMB,0.06,80,79.94,-0.35,-0.23,-1.83,0,85.36,-0.659,1,0,90.4,4.5,0,0,0,0,0,0,0,0,90.4,1,0,-5.043,0,0,3,0,0,0,11.5,-4.41,0,0,1,1,74.6,SPLASHED
74.78,TAKEOFF,TO_CLIMB,0.34,80,79.66,-0.46,-0.29,-2.08,0,85.39,-3.008,1,0,90.4,4.5,0,0,0,0,0,0,0,0,90.4,1,0,-5.014,0,0,3,0,0,0,11.5,-4.41,0,0,1,1,74.82,SPLASHED
75,TAKEOFF,TO_CLIMB,0.12,80,79.88,-0.27,-0.06,-1.32,0,85.39,-3.607,1,0,90.4,4.5,0,0,0,0,0,0,0,0,90.4,1,0,-5.009,0,0,3,0,0,0,11.5,-4.41,0,0,1,1,75.04,SPLASHED
75.22,TAKEOFF,TO_CLIMB,0.01,80,79.99,-0.17,0.11,-1.03,0,85.39,-4.292,1,0,90.4,4.5,0,0,0,0,0,0,0,0,90.4,1,0,-5.007,0,0,3,0,0,0,11.5,-4.41,0,0,1,1,75.26,SPLASHED
75.44,TAKEOFF,TO_CLIMB,0.26,80,79.74,0.04,0.4,-0.49,0,85.39,-4.206,1,0,90.4,4.5,0,0,0,0,0,0,0,0,90.4,1,0,-5.011,0,0,3,0,0,0,11.5,-4.41,0,0,1,1,75.48,SPLASHED
75.7,TAKEOFF,TO_CLIMB,0.27,80,79.73,0.3,0.12,0.19,0,85.39,-4.183,1,0,90.4,4.5,0,0,0,0,0,0,0,0,90.4,1,0,-5.014,0,0,3,0,0,0,11.5,-4.41,0,0,1,1,75.74,SPLASHED
75.92,TAKEOFF,TO_CLIMB,0.06,80,79.94,0.34,0.12,0.31,0,85.38,-3.972,1,0,90.4,4.5,0,0,0,0,0,0,0,0,90.4,1,0,-5.015,0,0,3,0,0,0,11.5,-4.41,0,0,1,1,75.96,SPLASHED
76.14,TAKEOFF,TO_CLIMB,0.24,80,79.76,0.55,0.3,0.98,0,85.36,-1.973,1,0,90.4,4.5,0,0,0,0,0,0,0,0,90.4,1,0,-5.038,0,0,3,0,0,0,11.5,-4.41,0,0,1,1,76.18,SPLASHED
76.36,TAKEOFF,TO_CLIMB,0.31,80,79.69,0.65,0.35,1.19,0,85.34,-0.655,1,0,90.4,4.5,0,0,0,0,0,0,0,0,90.4,1,0,-5.058,0,0,3,0,0,0,11.5,-4.41,0,0,1,1,76.4,SPLASHED
76.58,TAKEOFF,TO_CLIMB,0.3,80,79.7,0.65,0.26,0.98,0,85.33,0.195,1,0,90.4,4.5,0,0,0,0,0,0,0,0,90.4,1,0,-5.071,0,0,3,0,0,0,11.5,-4.41,0,0,1,1,76.62,SPLASHED
76.84,TAKEOFF,TO_CLIMB,0.22,80,79.78,0.67,0.26,0.87,0,85.31,1.224,1,0,90.4,4.5,0,0,0,0,0,0,0,0,90.4,1,0,-5.084,0,0,3,0,0,0,11.5,-4.41,0,0,1,1,76.88,SPLASHED
77.06,TAKEOFF,TO_CLIMB,0.26,80,79.74,0.73,0.28,0.97,0,85.3,2.38,1,0,90.4,4.5,0,0,0,0,0,0,0,0,90.4,1,0,-5.1,0,0,3,0,0,0,11.5,-4.41,0,0,1,1,77.1,SPLASHED
77.28,TAKEOFF,TO_CLIMB,0.21,80,79.79,0.74,0.11,0.89,0,85.29,3.09,1,0,90.4,4.5,0,0,0,0,0,0,0,0,90.4,1,0,-5.111,0,0,3,0,0,0,11.5,-4.41,0,0,1,1,77.32,SPLASHED
77.5,TAKEOFF,TO_CLIMB,0.04,80,79.96,0.6,-0.21,0.34,0,85.32,2.235,1,0,90.4,4.5,0,0,0,0,0,0,0,0,90.4,1,0,-5.093,0,0,3,0,0,0,11.5,-4.41,0,0,1,1,77.54,SPLASHED
77.72,TAKEOFF,TO_CLIMB,0.38,80,79.62,0.28,-0.56,-0.7,0,85.38,-0.956,1,0,90.4,4.5,0,0,0,0,0,0,0,0,90.4,1,0,-5.036,0,0,3,0,0,0,11.5,-4.41,0,0,1,1,77.76,SPLASHED
77.98,TAKEOFF,TO_CLIMB,0.42,80,79.58,0.1,-0.09,-1.2,0,85.42,-5.41,1,0,90.4,4.5,0,0,0,0,0,0,0,0,90.4,1,0,-4.984,0,0,3,0,0,0,11.5,-4.41,0,0,1,1,78.02,SPLASHED
78.2,TAKEOFF,TO_CLIMB,0.15,80,79.85,0.3,-0.31,-0.42,0,85.41,-6.937,1,0,90.4,4.5,0,0,0,0,0,0,0,0,90.4,1,0,-4.986,0,0,3,0,0,0,11.5,-4.41,0,0,1,1,78.24,SPLASHED
78.42,TAKEOFF,TO_CLIMB,0.46,80,79.54,0.29,-0.58,-0.13,0,85.4,-8.045,1,0,90.4,4.5,0,0,0,0,0,0,0,0,90.4,1,0,-4.994,0,0,3,0,0,0,11.5,-4.41,0,0,1,1,78.46,SPLASHED
78.64,TAKEOFF,TO_CLIMB,0.6,80,79.4,0.09,-0.65,-0.37,0,85.38,-7.991,1,0,90.4,4.5,0,0,0,0,0,0,0,0,90.4,1,0,-5.012,0,0,3,0,0,0,11.5,-4.41,0,0,1,1,78.68,SPLASHED
78.86,TAKEOFF,TO_CLIMB,0.68,80,79.32,-0.18,-0.64,-0.72,0,85.36,-6.715,1,0,90.4,4.5,0,0,0,0,0,0,0,0,90.4,1,0,-5.03,0,0,3,0,0,0,11.5,-4.41,0,0,1,1,78.9,SPLASHED
79.12,TAKEOFF,TO_CLIMB,0.36,80,79.64,-0.17,-0.27,-0.07,0,85.34,-3.213,1,0,90.4,4.5,0,0,0,0,0,0,0,0,90.4,1,0,-5.055,0,0,3,0,0,0,11.5,-4.41,0,0,1,1,79.16,SPLASHED
79.34,TAKEOFF,TO_CLIMB,0.04,80,79.96,-0.26,0.21,-0.37,0,85.35,-2.836,1,0,90.4,4.5,0,0,0,0,0,0,0,0,90.4,1,0,-5.052,0,0,3,0,0,0,11.5,-4.41,0,0,1,1,79.38,SPLASHED
79.56,TAKEOFF,TO_CLIMB,0.35,80,79.65,-0.1,0.32,-0.03,0,85.35,-1.959,1,0,90.4,4.5,0,0,0,0,0,0,0,0,90.4,1,0,-5.052,0,0,3,0,0,0,11.5,-4.41,0,0,1,1,79.6,SPLASHED
79.78,TAKEOFF,TO_CLIMB,0.16,80,79.84,-0.1,0.03,-0.14,0,85.35,-1.663,1,0,90.4,4.5,0,0,0,0,0,0,0,0,90.4,1,0,-5.046,0,0,3,0,0,0,11.5,-4.41,0,0,1,1,79.82,SPLASHED
80,TAKEOFF,TO_CLIMB,0.1,80,79.9,-0.05,0.12,0.09,0,85.34,0.098,1,0,90.4,4.5,0,0,0,0,0,0,0,0,90.4,1,0,-5.057,0,0,3,0,0,0,11.5,-4.41,0,0,1,1,80.04,SPLASHED
80.26,TAKEOFF,TO_CLIMB,0.13,80,79.87,0,0.23,0.25,0,85.31,2.1,1,0,90.4,4.5,0,0,0,0,0,0,0,0,90.4,1,0,-5.083,0,0,3,0,0,0,11.5,-4.41,0,0,1,1,80.3,SPLASHED
80.48,TAKEOFF,TO_CLIMB,0.45,80,79.55,0.11,0.7,0.29,0,85.32,2.477,1,0,90.4,4.5,0,0,0,0,0,0,0,0,90.4,1,0,-5.084,0,0,3,0,0,0,11.5,-4.41,0,0,1,1,80.52,SPLASHED
80.7,TAKEOFF,TO_CLIMB,0.7,80,79.3,0.27,0.77,0.24,0,85.34,1.87,1,0,90.4,4.5,0,0,0,0,0,0,0,0,90.4,1,0,-5.066,0,0,3,0,0,0,11.5,-4.41,0,0,1,1,80.74,SPLASHED
80.92,TAKEOFF,TO_CLIMB,0.73,80,79.27,0.35,0.69,-0.09,0,85.35,1.56,1,0,90.4,4.5,0,0,0,0,0,0,0,0,90.4,1,0,-5.055,0,0,3,0,0,0,11.5,-4.41,0,0,1,1,80.96,SPLASHED
81.14,TAKEOFF,TO_CLIMB,0.55,80,79.45,0.41,0.46,-0.29,0,85.34,1.719,1,0,90.4,4.5,0,0,0,0,0,0,0,0,90.4,1,0,-5.056,0,0,3,0,0,0,11.5,-4.41,0,0,1,1,81.18,SPLASHED
81.4,TAKEOFF,TO_CLIMB,0.35,80,79.65,0.55,0.34,-0.16,0,85.35,1.719,1,0,90.4,4.5,0,0,0,0,0,0,0,0,90.4,1,0,-5.056,0,0,3,0,0,0,11.5,-4.41,0,0,1,1,81.44,SPLASHED
81.62,TAKEOFF,TO_CLIMB,0.35,80,79.65,0.76,0.36,0.23,0,85.38,0.386,1,0,90.4,4.5,0,0,0,0,0,0,0,0,90.4,1,0,-5.035,0,0,3,0,0,0,11.5,-4.41,0,0,1,1,81.66,SPLASHED
81.84,TAKEOFF,TO_CLIMB,0.2,80,79.8,0.94,0,0.53,0,85.43,-2.9,1,0,90.4,4.5,0,0,0,0,0,0,0,0,90.4,1,0,-4.985,0,0,3,0,0,0,11.5,-4.41,0,0,1,1,81.88,SPLASHED
82.06,TAKEOFF,TO_CLIMB,0.24,80,79.76,0.93,-0.46,0.52,0,85.45,-6.57,1,0,90.4,4.5,0,0,0,0,0,0,0,0,90.4,1,0,-4.948,0,0,3,0,0,0,11.5,-4.41,0,0,1,1,82.1,SPLASHED
82.28,TAKEOFF,TO_CLIMB,0.57,80,79.43,0.79,-0.71,0.4,0,85.43,-7.668,1,0,90.4,4.5,0,0,0,0,0,0,0,0,90.4,1,0,-4.961,0,0,3,0,0,0,11.5,-4.41,0,0,1,1,82.32,SPLASHED
82.54,TAKEOFF,TO_CLIMB,0.74,80,79.26,0.5,-0.79,0.12,0,85.41,-6.921,1,0,90.4,4.5,0,0,0,0,0,0,0,0,90.4,1,0,-4.987,0,0,3,0,0,0,11.5,-4.41,0,0,1,1,82.58,SPLASHED
82.76,TAKEOFF,TO_CLIMB,0.66,80,79.34,0.25,-0.53,-0.18,0,85.4,-5.792,1,0,90.4,4.5,0,0,0,0,0,0,0,0,90.4,1,0,-5.001,0,0,3,0,0,0,11.5,-4.41,0,0,1,1,82.8,SPLASHED
82.98,TAKEOFF,TO_CLIMB,0.35,80,79.65,0.17,-0.23,-0.07,0,85.38,-3.776,1,0,90.4,4.5,0,0,0,0,0,0,0,0,90.4,1,0,-5.017,0,0,3,0,0,0,11.5,-4.41,0,0,1,1,83.02,SPLASHED
83.2,TAKEOFF,TO_CLIMB,0.12,80,79.88,0.02,0,-0.52,0,85.38,-3.544,1,0,90.4,4.5,0,0,0,0,0,0,0,0,90.4,1,0,-5.019,0,0,3,0,0,0,11.5,-4.41,0,0,1,1,83.24,SPLASHED
83.42,TAKEOFF,TO_CLIMB,0.11,80,79.89,0.03,-0.38,-0.33,0,85.38,-3.253,1,0,90.4,4.5,0,0,0,0,0,0,0,0,90.4,1,0,-5.019,0,0,3,0,0,0,11.5,-4.41,0,0,1,1,83.46,SPLASHED
83.68,TAKEOFF,TO_CLIMB,0.74,80,79.26,-0.19,-0.9,-0.47,0,85.39,-3.483,1,0,90.4,4.5,0,0,0,0,0,0,0,0,90.4,1,0,-5.011,0,0,3,0,0,0,11.5,-4.41,0,0,1,1,83.72,SPLASHED
83.9,TAKEOFF,TO_CLIMB,0.63,80,79.37,-0.18,-0.61,0.18,0,85.38,-2.367,1,0,90.4,4.5,0,0,0,0,0,0,0,0,90.4,1,0,-5.015,0,0,3,0,0,0,11.5,-4.41,0,0,1,1,83.94,SPLASHED
84.12,TAKEOFF,TO_CLIMB,0.45,80,79.55,-0.29,-0.11,0.16,0,85.38,-1.474,1,0,90.4,4.5,0,0,0,0,0,0,0,0,90.4,1,0,-5.019,0,0,3,0,0,0,11.5,-4.41,0,0,1,1,84.16,SPLASHED
84.34,TAKEOFF,TO_CLIMB,0.34,80,79.66,-0.18,0.51,0.36,0,85.37,-0.337,1,0,90.4,4.5,0,0,0,0,0,0,0,0,90.4,1,0,-5.029,0,0,3,0,0,0,11.5,-4.41,0,0,1,1,84.38,SPLASHED
84.56,TAKEOFF,TO_CLIMB,0.6,80,79.4,-0.16,0.84,-0.09,0,85.38,-0.173,1,0,90.4,4.5,0,0,0,0,0,0,0,0,90.4,1,0,-5.023,0,0,3,0,0,0,11.5,-4.41,0,0,1,1,84.6,SPLASHED
84.82,TAKEOFF,TO_CLIMB,0.76,80,79.24,-0.01,0.63,-0.27,0,85.38,0.328,1,0,90.4,4.5,0,0,0,0,0,0,0,0,90.4,1,0,-5.023,0,0,3,0,0,0,11.5,-4.41,0,0,1,1,84.86,SPLASHED
85.04,TAKEOFF,TO_CLIMB,0.44,80,79.56,0.07,0.3,-0.34,0,85.38,0.458,1,0,90.4,4.5,0,0,0,0,0,0,0,0,90.4,1,0,-5.016,0,0,3,0,0,0,11.5,-4.41,0,0,1,1,85.08,SPLASHED
85.26,TAKEOFF,TO_CLIMB,0.18,80,79.82,0.14,0.16,-0.17,0,85.38,1.036,1,0,90.4,4.5,0,0,0,0,0,0,0,0,90.4,1,0,-5.017,0,0,3,0,0,0,11.5,-4.41,0,0,1,1,85.3,SPLASHED
85.48,TAKEOFF,TO_CLIMB,0.22,80,79.78,0.23,0.36,0,0,85.38,1.637,1,0,90.4,4.5,0,0,0,0,0,0,0,0,90.4,1,0,-5.021,0,0,3,0,0,0,11.5,-4.41,0,0,1,1,85.52,SPLASHED
85.7,TAKEOFF,TO_CLIMB,0.45,80,79.55,0.33,0.48,-0.03,0,85.39,1.649,1,0,90.4,4.5,0,0,0,0,0,0,0,0,90.4,1,0,-5.016,0,0,3,0,0,0,11.5,-4.41,0,0,1,1,85.74,SPLASHED
85.96,TAKEOFF,TO_CLIMB,0.39,80,79.61,0.41,0.33,-0.17,0,85.41,0.613,1,0,90.4,4.5,0,0,0,0,0,0,0,0,90.4,1,0,-4.995,0,0,3,0,0,0,11.5,-4.41,0,0,1,1,86,SPLASHED
86.18,TAKEOFF,TO_CLIMB,0.22,80,79.78,0.48,0.12,-0.22,0,85.44,-1.163,1,0,90.4,4.5,0,0,0,0,0,0,0,0,90.4,1,0,-4.971,0,0,3,0,0,0,11.5,-4.41,0,0,1,1,86.22,SPLASHED
86.4,TAKEOFF,TO_CLIMB,0.03,80,79.97,0.49,-0.04,-0.32,0,85.45,-3.196,1,0,90.4,4.5,0,0,0,0,0,0,0,0,90.4,1,0,-4.954,0,0,3,0,0,0,11.5,-4.41,0,0,1,1,86.44,SPLASHED
86.62,TAKEOFF,TO_CLIMB,0.1,80,79.9,0.43,-0.17,-0.53,0,85.44,-4.428,1,0,90.4,4.5,0,0,0,0,0,0,0,0,90.4,1,0,-4.958,0,0,3,0,0,0,11.5,-4.41,0,0,1,1,86.66,SPLASHED
86.84,TAKEOFF,TO_CLIMB,0.23,80,79.77,0.29,-0.31,-0.86,0,85.42,-5.003,1,0,90.4,4.5,0,0,0,0,0,0,0,0,90.4,1,0,-4.973,0,0,3,0,0,0,11.5,-4.41,0,0,1,1,86.88,SPLASHED
87.1,TAKEOFF,TO_CLIMB,0.35,80,79.65,0.15,-0.35,-1.03,0,85.4,-4.65,1,0,90.4,4.5,0,0,0,0,0,0,0,0,90.4,1,0,-4.993,0,0,3,0,0,0,11.5,-4.41,0,0,1,1,87.14,SPLASHED
87.32,TAKEOFF,TO_CLIMB,0.31,80,79.69,0.26,-0.37,-0.24,0,85.38,-2.545,1,0,90.4,4.5,0,0,0,0,0,0,0,0,90.4,1,0,-5.015,0,0,3,0,0,0,11.5,-4.41,0,0,1,1,87.36,SPLASHED
87.54,TAKEOFF,TO_CLIMB,0.36,80,79.64,0.34,-0.19,0.47,0,85.36,-0.903,1,0,90.4,4.5,0,0,0,0,0,0,0,0,90.4,1,0,-5.034,0,0,3,0,0,0,11.5,-4.41,0,0,1,1,87.58,SPLASHED
87.76,TAKEOFF,TO_CLIMB,0.05,80,79.95,0.43,0.29,0.74,0,85.36,-0.391,1,0,90.4,4.5,0,0,0,0,0,0,0,0,90.4,1,0,-5.041,0,0,3,0,0,0,11.5,-4.41,0,0,1,1,87.8,SPLASHED
87.98,TAKEOFF,TO_CLIMB,0.44,80,79.56,0.52,0.43,0.69,0,85.38,-0.889,1,0,90.4,4.5,0,0,0,0,0,0,0,0,90.4,1,0,-5.027,0,0,3,0,0,0,11.5,-4.41,0,0,1,1,88.02,SPLASHED
88.24,TAKEOFF,TO_CLIMB,0.08,80,79.92,0.44,-0.07,0.24,0,85.39,-1.834,1,0,90.4,4.5,0,0,0,0,0,0,0,0,90.4,1,0,-5.009,0,0,3,0,0,0,11.5,-4.41,0,0,1,1,88.28,SPLASHED
