t_s,phase,subphase,ias_ms,vapp_ms,spd_err_ms,agl_m,vs_ms,pitch_deg,aoa_deg,hdg_deg,bank_deg,thr_cmd,thr_cur,thr_intg,at_gain,at_tau_s,at_a_up,at_a_dn,at_kp_thr,at_ki_spd,at_thr_slew,as_cmd_deg,as_cap_deg,as_raw_deg,as_spd_err_ms,as_active,aa_hdg_cmd_deg,aa_fpa_cmd_deg,aa_fbw,aa_dir,actual_fpa_deg,ftf_hdg_err_deg,ftf_fix_idx,kos_steer_pit_deg,kos_steer_hdg_deg,aa_dir_vx,aa_dir_vy,aa_dir_vz,aa_dir_pitch_deg,aa_dir_hdg_deg,ils_loc_m,ils_gs_m,ils_dist_km,loc_corr_deg,gs_corr_deg,gs_latched,active_gs_ang_deg,ils_intercept_alt_m,d_gs_ms,fpa_preclamped_deg,gs_nom_alt_m,flare_fpa_cmd,flare_tgt_vs,flare_frac,steer_hdg_deg,steer_blend,ro_loc_corr_deg,ro_hdg_err_deg,ro_yaw_tgt,ro_yaw_scale,ro_yaw_gate,yaw_cmd,roll_cmd,pitch_cmd,ro_pitch_tgt_deg,ro_pitch_err_deg,ro_pitch_ff,ro_roll_assist,flaps_cur,flaps_tgt,asc_j_ab,asc_j_rk,asc_validity,asc_q_pa,asc_q_raw_pa,asc_mach,asc_apo_m,asc_drag_n,asc_w_prop,asc_edot_aero,asc_edot_orb,asc_pitch_bias,asc_blend,asc_spooling,asc_ab_thr_ratio,asc_ab_t_now,asc_ab_t_avail,asc_ab_ign_on,asc_ab_flameouts,asc_rk_t_now,asc_rk_t_avail,asc_rk_ign_on,asc_rk_flameouts,ship_thrust,ship_avail_thrust,ship_ign_on,ship_flameouts,ifc_raw_dt_s,ifc_dt_s,ifc_loop_n,ifc_hz_est,ifc_raw_dt_max_s,ifc_raw_dt_min_s,phase_el_s,status,craft_name,cfg_file
0.22,APPROACH,FLY_TO_FIX,150.36,70.14,-80.21,1331.65,-42.69,-16.46,-1.52,269.38,2.154,0,0,0,1,0.6,0.9,0.75,0.35,0.0168,0.4,4.5,30.892,30.892,80.215,1,281.05,5,1,0,-15.78,11.67,0,0,90,0,0,0,0,0,0,0,49.752,0,0,0,4,0,0,0,3553.29,0,0,0,269.36,0,0,0,0,0,0,0,0,0,0,0,0,0,0,0,0,0,VALID,0,0,0,0,0,1,0,0,0,0,0,0,0,0,0,0,0,0,0,0,34.81,339.86,2,0,0.18,0.18,1,3.45,0.18,0.02,0.24,FLYING,CF1-J,0:/Integrated Flight Computer/aircraft/cf1_j_cfg.ks (inferred preloaded)
0.52,APPROACH,FLY_TO_FIX,151.21,70.38,-80.83,1318.9,-43.88,-14.97,0.65,269.6,3.048,0,0,0,1,0.6,1.556,0.75,0.35,0.0168,0.4,12,30.652,30.652,80.774,1,281.08,5,0,0,-16.21,11.48,0,5,281.07,0,0,0,0,0,0,0,49.708,0,0,0,4,0,0,0,3550.18,0,0,0,269.36,0,0,0,0,0,0,0,0,0,0,0,0,0,0,0,0,0,VALID,0,0,0,0,0,1,0,0,0,0,0,0,0,0,0,0,0,0,0,0,32.31,340.11,2,0,0.1,0.1,4,10,0.18,0.08,0.52,FLYING,CF1-J,0:/Integrated Flight Computer/aircraft/cf1_j_cfg.ks (inferred preloaded)
0.78,APPROACH,FLY_TO_FIX,151.78,70.59,-81.19,1308.08,-41.85,-12.39,2.41,270.03,5.866,0,0,0,1,0.6,2.428,0.75,0.35,0.0168,0.4,18.5,30.477,30.477,81.152,1,281.1,5,0,0,-15.57,11.07,0,5,281.09,0,0,0,0,0,0,0,49.666,0,0,0,4,0,0,0,3547.29,0,0,0,269.36,0,0,0,0,0,0,0,0,0,0,0,0,0,0,0,0,0,VALID,0,0,0,0,0,1,0,0,0,0,0,0,0,0,0,0,0,0,0,0,30.3,340.39,2,0,0.08,0.08,7,11.54,0.1,0.08,0.78,FLYING,CF1-J,0:/Integrated Flight Computer/aircraft/cf1_j_cfg.ks (inferred preloaded)
1.06,APPROACH,FLY_TO_FIX,152.2,70.82,-81.38,1296.86,-39.52,-11.62,2.35,270.57,10.166,0,0,0,1,0.6,3.107,0.75,0.35,0.0168,0.4,25.5,30.35,30.35,81.35,1,281.12,5,0,0,-14.67,10.55,0,5,281.12,0,0,0,0,0,0,0,49.621,0,0,0,4,0,0,0,3544.15,0,0,0,269.36,0,0,0,0,0,0,0,0,0,0,0,0,0,0,0,0,0,VALID,0,0,0,0,0,1,0,0,0,0,0,0,0,0,0,0,0,0,0,0,28.27,340.74,2,0,0.1,0.1,10,10.71,0.1,0.08,1.06,FLYING,CF1-J,0:/Integrated Flight Computer/aircraft/cf1_j_cfg.ks (inferred preloaded)
1.32,APPROACH,FLY_TO_FIX,152.58,71.02,-81.56,1287.05,-37.13,-10.69,2.43,271.12,13.205,0,0,0,1,0.6,3.637,0.75,0.35,0.0168,0.4,30.233,30.233,30.233,81.531,1,281.15,5,0,0,-13.81,10.03,0,5,281.14,0,0,0,0,0,0,0,49.579,0,0,0,4,0,0,0,3541.22,0,0,0,269.36,0,0,0,0,0,0,0,0,0,0,0,0,0,0,0,0,0,VALID,0,0,0,0,0,1,0,0,0,0,0,0,0,0,0,0,0,0,0,0,26.51,341.04,2,0,0.08,0.08,13,11.54,0.1,0.08,1.32,FLYING,CF1-J,0:/Integrated Flight Computer/aircraft/cf1_j_cfg.ks (inferred preloaded)
1.6,APPROACH,FLY_TO_FIX,152.89,71.25,-81.64,1277.12,-34.79,-9.95,2.35,271.55,14.47,0,0,0,1,0.6,4.051,0.75,0.35,0.0168,0.4,30.137,30.137,30.137,81.628,1,281.17,5,0,0,-12.95,9.62,0,5,281.16,0,0,0,0,0,0,0,49.534,0,0,0,4,0,0,0,3538.05,0,0,0,269.36,0,0,0,0,0,0,0,0,0,0,0,0,0,0,0,0,0,VALID,0,0,0,0,0,1,0,0,0,0,0,0,0,0,0,0,0,0,0,0,24.74,341.38,2,0,0.1,0.1,16,10.71,0.1,0.08,1.6,FLYING,CF1-J,0:/Integrated Flight Computer/aircraft/cf1_j_cfg.ks (inferred preloaded)
1.86,APPROACH,FLY_TO_FIX,152.96,71.46,-81.51,1268.48,-32.63,-9.31,2.19,271.88,14.769,0,0,0,1,0.6,4.375,0.75,0.35,0.0168,0.4,30.11,30.11,30.11,81.512,1,281.19,5,0,0,-12.16,9.32,0,5,281.19,0,0,0,0,0,0,0,49.492,0,0,0,4,0,0,0,3535.1,0,0,0,269.36,0,0,0,0,0,0,0,0,0,0,0,0,0,0,0,0,0,VALID,0,0,0,0,0,1,0,0,0,0,0,0,0,0,0,0,0,0,0,0,23.2,341.74,2,0,0.08,0.08,19,11.54,0.1,0.08,1.86,FLYING,CF1-J,0:/Integrated Flight Computer/aircraft/cf1_j_cfg.ks (inferred preloaded)
2.14,APPROACH,FLY_TO_FIX,152.87,71.68,-81.19,1259.8,-30.36,-8.61,2.09,272.26,14.932,0,0,0,1,0.6,4.5,0.75,0.35,0.0168,0.4,30.136,30.136,30.136,81.199,1,281.22,5,0,0,-11.34,8.96,0,5,281.21,0,0,0,0,0,0,0,49.446,0,0,0,4,0,0,0,3531.91,0,0,0,269.36,0,0,0,0,0,0,0,0,0,0,0,0,0,0,0,0,0,VALID,0,0,0,0,0,1,0,0,0,0,0,0,0,0,0,0,0,0,0,0,21.66,342.18,2,0,0.1,0.1,22,10.71,0.1,0.08,2.14,FLYING,CF1-J,0:/Integrated Flight Computer/aircraft/cf1_j_cfg.ks (inferred preloaded)
2.53,APPROACH,FLY_TO_FIX,152.75,71.96,-80.79,1248.62,-27.38,-7.79,1.99,272.76,14.949,0,0,0,1,0.6,4.5,0.75,0.35,0.0168,0.4,30.171,30.171,30.171,80.804,1,281.24,5,0,0,-10.39,8.49,0,5,281.23,0,0,0,0,0,0,0,49.389,0,0,0,4,0,0,0,3527.93,0,0,0,269.36,0,0,0,0,0,0,0,0,0,0,0,0,0,0,0,0,0,VALID,0,0,0,0,0,1,0,0,0,0,0,0,0,0,0,0,0,0,0,0,19.65,342.71,2,0,0.126,0.126,26,10.16,0.126,0.063,2.53,FLYING,CF1-J,0:/Integrated Flight Computer/aircraft/cf1_j_cfg.ks (inferred preloaded)
3.03,APPROACH,FLY_TO_FIX,152.58,72.31,-80.27,1236.33,-23.82,-6.7,2.01,273.42,14.848,0,0,0,1,0.6,4.5,0.75,0.35,0.0168,0.4,30.214,30.214,30.214,80.306,1,281.27,5,0,0,-9.24,7.85,0,5,281.26,0,0,0,0,0,0,0,49.317,0,0,0,4,0,0,0,3522.9,0,0,0,269.36,0,0,0,0,0,0,0,0,0,0,0,0,0,0,0,0,0,VALID,0,0,0,0,0,1,0,0,0,0,0,0,0,0,0,0,0,0,0,0,17.39,343.32,2,0,0.253,0.253,28,4.07,0.253,0.126,3.03,FLYING,CF1-J,0:/Integrated Flight Computer/aircraft/cf1_j_cfg.ks (inferred preloaded)
3.32,APPROACH,FLY_TO_FIX,152.41,72.53,-79.88,1229.88,-21.71,-5.98,2.01,273.86,14.829,0,0,0,1,0.6,4.5,0.75,0.35,0.0168,0.4,30.262,30.262,30.262,79.927,1,281.29,5,0,0,-8.52,7.44,0,5,281.27,0,0,0,0,0,0,0,49.273,0,0,0,4,0,0,0,3519.78,0,0,0,269.36,0,0,0,0,0,0,0,0,0,0,0,0,0,0,0,0,0,VALID,0,0,0,0,0,1,0,0,0,0,0,0,0,0,0,0,0,0,0,0,16.17,343.68,2,0,0.274,0.274,29,3.43,0.274,0.253,3.32,FLYING,CF1-J,0:/Integrated Flight Computer/aircraft/cf1_j_cfg.ks (inferred preloaded)
3.64,APPROACH,FLY_TO_FIX,152.17,72.78,-79.38,1223.51,-19.42,-5.24,1.95,274.33,14.757,0,0,0,1,0.6,4.5,0.75,0.35,0.0168,0.4,30.33,30.33,30.33,79.453,1,281.31,5,0,0,-7.69,6.98,0,5,281.29,0,0,0,0,0,0,0,49.222,0,0,0,4,0,0,0,3516.22,0,0,0,269.36,0,0,0,0,0,0,0,0,0,0,0,0,0,0,0,0,0,VALID,0,0,0,0,0,1,0,0,0,0,0,0,0,0,0,0,0,0,0,0,14.93,344.07,2,0,0.312,0.312,30,3.12,0.312,0.274,3.64,FLYING,CF1-J,0:/Integrated Flight Computer/aircraft/cf1_j_cfg.ks (inferred preloaded)
3.96,APPROACH,FLY_TO_FIX,151.85,73.04,-78.81,1217.85,-17.22,-4.52,1.88,274.8,14.574,0,0,0,1,0.6,4.5,0.75,0.35,0.0168,0.4,30.42,30.42,30.42,78.897,1,281.33,5,0,0,-6.87,6.53,0,5,281.31,0,0,0,0,0,0,0,49.17,0,0,0,4,0,0,0,3512.59,0,0,0,269.36,0,0,0,0,0,0,0,0,0,0,0,0,0,0,0,0,0,VALID,0,0,0,0,0,1,0,0,0,0,0,0,0,0,0,0,0,0,0,0,13.79,344.46,2,0,0.32,0.32,31,3.12,0.32,0.312,3.96,FLYING,CF1-J,0:/Integrated Flight Computer/aircraft/cf1_j_cfg.ks (inferred preloaded)
4.28,APPROACH,FLY_TO_FIX,151.48,73.29,-78.18,1212.84,-15.17,-3.93,1.71,275.21,14.224,0,0,0,1,0.6,4.5,0.75,0.35,0.0168,0.4,30.528,30.528,30.528,78.279,1,281.35,5,0,0,-6.08,6.14,0,5,281.33,0,0,0,0,0,0,0,49.118,0,0,0,4,0,0,0,3508.95,0,0,0,269.36,0,0,0,0,0,0,0,0,0,0,0,0,0,0,0,0,0,VALID,0,0,0,0,0,1,0,0,0,0,0,0,0,0,0,0,0,0,0,0,12.73,344.85,2,0,0.32,0.32,32,3.12,0.32,0.32,4.28,FLYING,CF1-J,0:/Integrated Flight Computer/aircraft/cf1_j_cfg.ks (inferred preloaded)
4.6,APPROACH,FLY_TO_FIX,151.07,73.55,-77.52,1208.42,-13.37,-3.46,1.54,275.57,13.74,0,0,0,1,0.6,4.5,0.75,0.35,0.0168,0.4,30.647,30.647,30.647,77.626,1,281.37,5,0,0,-5.38,5.8,0,5,281.35,0,0,0,0,0,0,0,49.066,0,0,0,4,0,0,0,3505.33,0,0,0,269.36,0,0,0,0,0,0,0,0,0,0,0,0,0,0,0,0,0,VALID,0,0,0,0,0,1,0,0,0,0,0,0,0,0,0,0,0,0,0,0,11.76,345.22,2,0,0.32,0.32,33,3.12,0.32,0.32,4.6,FLYING,CF1-J,0:/Integrated Flight Computer/aircraft/cf1_j_cfg.ks (inferred preloaded)
4.92,APPROACH,FLY_TO_FIX,150.65,73.81,-76.84,1204.55,-11.73,-2.98,1.43,275.91,13.194,0,0,-20,1,0.6,4.5,0.75,0.35,0.0168,0.4,30.773,30.773,30.773,76.95,1,281.38,5,0,0,-4.75,5.47,0,5,281.37,0,0,0,0,0,0,0,49.014,0,0,0,4,0,0,0,3501.71,0,0,0,269.36,0,0,0,0,0,0,0,0,0,0,0,0,0,0,0,0,0,VALID,0,0,0,0,0,1,0,0,0,0,0,0,0,0,0,0,0,0,0,0,10.86,345.57,2,0,0.32,0.32,34,3.12,0.32,0.32,4.92,FLYING,CF1-J,0:/Integrated Flight Computer/aircraft/cf1_j_cfg.ks (inferred preloaded)
5.23,APPROACH,FLY_TO_FIX,150.2,74,-76.2,1201.24,-10.23,-2.49,1.37,276.24,12.626,0,0,-19.9,1,0.6,4.5,0.75,0.35,0.0168,0.4,30.905,30.905,30.905,76.317,1,281.4,5,0,0,-4.17,5.15,0,5,281.38,0,0,0,0,0,0,0,48.963,0,0,0,4,0,0,0,3498.11,0,0,0,269.36,0,0,0,0,0,0,0,0,0,0,0,0,0,0,0,0,0,VALID,0,0,0,0,0,1,0,0,0,0,0,0,0,0,0,0,0,0,0,0,10.04,345.91,2,0,0.32,0.32,35,3.19,0.32,0.32,5.23,FLYING,CF1-J,0:/Integrated Flight Computer/aircraft/cf1_j_cfg.ks (inferred preloaded)
5.52,APPROACH,FLY_TO_FIX,149.74,74,-75.74,1198.57,-8.91,-2.06,1.29,276.54,12.085,0,0,-19.8,1,0.6,4.5,0.75,0.35,0.0168,0.4,31.043,31.043,31.043,75.857,1,281.41,5,0,0,-3.64,4.87,0,5,281.4,0,0,0,0,0,0,0,48.914,0,0,0,4,0,0,0,3494.72,0,0,0,269.36,0,0,0,0,0,0,0,0,0,0,0,0,0,0,0,0,0,VALID,0,0,0,0,0,1,0,0,0,0,0,0,0,0,0,0,0,0,0,0,9.34,346.23,2,0,0.302,0.302,36,3.44,0.32,0.302,5.52,FLYING,CF1-J,0:/Integrated Flight Computer/aircraft/cf1_j_cfg.ks (inferred preloaded)
5.79,APPROACH,FLY_TO_FIX,149.27,74,-75.27,1196.42,-7.8,-1.72,1.22,276.79,11.595,0,0,-19.701,1,0.6,4.5,0.75,0.35,0.0168,0.4,31.183,31.183,31.183,75.389,1,281.42,5,0,0,-3.19,4.63,0,5,281.41,0,0,0,0,0,0,0,48.87,0,0,0,4,0,0,0,3491.59,0,0,0,269.36,0,0,0,0,0,0,0,0,0,0,0,0,0,0,0,0,0,VALID,0,0,0,0,0,1,0,0,0,0,0,0,0,0,0,0,0,0,0,0,8.74,346.52,2,0,0.279,0.279,37,3.73,0.302,0.279,5.79,FLYING,CF1-J,0:/Integrated Flight Computer/aircraft/cf1_j_cfg.ks (inferred preloaded)
6.28,APPROACH,FLY_TO_FIX,148.38,74,-74.38,1193.23,-5.94,-1.13,1.13,277.22,10.757,0,0,-19.505,1,0.6,4.5,0.75,0.35,0.0168,0.4,31.453,31.453,31.453,74.489,1,281.44,5,0,0,-2.46,4.22,0,5,281.43,0,0,0,0,0,0,0,48.79,0,0,0,4,0,0,0,3486.04,0,0,0,269.36,0,0,0,0,0,0,0,0,0,0,0,0,0,0,0,0,0,VALID,0,0,0,0,0,1,0,0,0,0,0,0,0,0,0,0,0,0,0,0,7.74,347.05,2,0,0.241,0.241,39,4.1,0.279,0.241,6.28,FLYING,CF1-J,0:/Integrated Flight Computer/aircraft/cf1_j_cfg.ks (inferred preloaded)
6.73,APPROACH,FLY_TO_FIX,147.5,74,-73.5,1191.01,-4.37,-0.61,1.08,277.6,10.01,0,0,-19.31,1,0.6,4.5,0.75,0.35,0.0168,0.4,31.716,31.716,31.716,73.613,1,281.46,4.824,0,0,-1.83,3.86,0,5,281.45,0,0,0,0,0,0,0,48.716,0,0,0,4,0,0,0,3480.85,0,0,0,269.36,0,0,0,0,0,0,0,0,0,0,0,0,0,0,0,0,0,VALID,0,0,0,0,0,1,0,0,0,0,0,0,0,0,0,0,0,0,0,0,6.91,347.52,2,0,0.229,0.229,41,4.38,0.241,0.229,6.73,FLYING,CF1-J,0:/Integrated Flight Computer/aircraft/cf1_j_cfg.ks (inferred preloaded)
7.12,APPROACH,FLY_TO_FIX,146.65,74,-72.65,1189.63,-3.17,-0.24,0.99,277.9,9.417,0.0225,0,-20,1,0.6,4.5,0.75,0.35,0.0168,0.4,31.974,31.974,31.974,72.755,1,281.47,4.443,0,0,-1.34,3.57,0,4.62,281.46,0,0,0,0,0,0,0,48.652,0,0,0,4,0,0,0,3476.39,0,0,0,269.36,0,0,0,0,0,0,0,0,0,0,0,0,0,0,0,0,0,VALID,0,0,0,0,0,1,0,0,0,0,0,0,0,0,0,0,0,0,0,0,6.27,347.95,2,0,0.195,0.195,43,5.13,0.229,0.195,7.12,FLYING,CF1-J,0:/Integrated Flight Computer/aircraft/cf1_j_cfg.ks (inferred preloaded)
7.46,APPROACH,FLY_TO_FIX,145.89,74,-71.89,1188.78,-2.27,0.02,0.91,278.14,8.96,0.0567,0,-20,1,0.6,4.5,0.82,0.35,0.0168,0.4,32.205,32.205,32.205,71.983,1,281.48,4.16,0,0,-0.97,3.34,0,4.29,281.47,0,0,0,0,0,0,0,48.598,0,0,0,4,0,0,0,3472.61,0,0,0,269.36,0,0,0,0,0,0,0,0,0,0,0,0,0,0,0,0,0,VALID,0,0,0,0,0,1,0,0,0,0,0,0,0,0,0,0,0,0,0,0,6.3,348.32,2,0,0.166,0.166,45,6,0.195,0.166,7.46,FLYING,CF1-J,0:/Integrated Flight Computer/aircraft/cf1_j_cfg.ks (inferred preloaded)
7.78,APPROACH,FLY_TO_FIX,145.2,74,-71.2,1188.22,-1.52,0.24,0.85,278.36,8.553,0.049,0,-20,1,0.6,4.5,0.929,0.35,0.0168,0.4,32.415,32.415,32.415,71.283,1,281.49,3.931,0,0,-0.67,3.13,0,4.04,281.48,0,0,0,0,0,0,0,48.548,0,0,0,4,0,0,0,3469.12,0,0,0,269.36,0,0,0,0,0,0,0,0,0,0,0,0,0,0,0,0,0,VALID,0,0,0,0,0,1,0,0,0,0,0,0,0,0,0,0,0,0,0,0,6.56,348.65,2,0,0.16,0.16,47,6.25,0.166,0.16,7.78,FLYING,CF1-J,0:/Integrated Flight Computer/aircraft/cf1_j_cfg.ks (inferred preloaded)
8.1,APPROACH,FLY_TO_FIX,144.5,74,-70.5,1187.89,-0.86,0.44,0.8,278.55,8.154,0.0297,0,-20,1,0.6,4.5,1.035,0.35,0.0168,0.4,32.623,32.623,32.623,70.589,1,281.5,3.728,0,0,-0.4,2.94,0,3.83,281.49,0,0,0,0,0,0,0,48.499,0,0,0,4,0,0,0,3465.66,0,0,0,269.36,0,0,0,0,0,0,0,0,0,0,0,0,0,0,0,0,0,VALID,0,0,0,0,0,1,0,0,0,0,0,0,0,0,0,0,0,0,0,0,6.74,348.97,2,0,0.16,0.16,49,6.25,0.16,0.16,8.1,FLYING,CF1-J,0:/Integrated Flight Computer/aircraft/cf1_j_cfg.ks (inferred preloaded)
8.42,APPROACH,FLY_TO_FIX,143.79,74,-69.79,1187.75,-0.28,0.62,0.77,278.74,7.761,0.0117,0,-20,1,0.6,4.5,1.136,0.35,0.0168,0.4,32.836,32.836,32.836,69.88,1,281.5,3.548,0,0,-0.17,2.76,0,3.64,281.5,0,0,0,0,0,0,0,48.449,0,0,0,4,0,0,0,3462.21,0,0,0,269.36,0,0,0,0,0,0,0,0,0,0,0,0,0,0,0,0,0,VALID,0,0,0,0,0,1,0,0,0,0,0,0,0,0,0,0,0,0,0,0,6.8,349.29,2,0,0.16,0.16,51,6.25,0.16,0.16,8.42,FLYING,CF1-J,0:/Integrated Flight Computer/aircraft/cf1_j_cfg.ks (inferred preloaded)
8.74,APPROACH,FLY_TO_FIX,143.06,74,-69.06,1187.78,0.24,0.78,0.74,278.91,7.373,0,0,-19.9,1,0.6,4.5,1.234,0.35,0.0168,0.4,33.054,33.054,33.054,69.153,1,281.51,3.389,0,0,0.04,2.6,0,3.47,281.51,0,0,0,0,0,0,0,48.4,0,0,0,4,0,0,0,3458.78,0,0,0,269.36,0,0,0,0,0,0,0,0,0,0,0,0,0,0,0,0,0,VALID,0,0,0,0,0,1,0,0,0,0,0,0,0,0,0,0,0,0,0,0,6.54,349.62,2,0,0.16,0.16,53,6.25,0.16,0.16,8.74,FLYING,CF1-J,0:/Integrated Flight Computer/aircraft/cf1_j_cfg.ks (inferred preloaded)
9.06,APPROACH,FLY_TO_FIX,142.31,74,-68.31,1187.96,0.69,0.94,0.72,279.08,6.992,0,0,-19.701,1,0.6,4.5,1.329,0.35,0.0168,0.4,33.278,33.278,33.278,68.406,1,281.52,3.248,0,0,0.23,2.44,0,3.32,281.51,0,0,0,0,0,0,0,48.352,0,0,0,4,0,0,0,3455.36,0,0,0,269.36,0,0,0,0,0,0,0,0,0,0,0,0,0,0,0,0,0,VALID,0,0,0,0,0,1,0,0,0,0,0,0,0,0,0,0,0,0,0,0,6.05,349.95,2,0,0.16,0.16,55,6.25,0.16,0.16,9.06,FLYING,CF1-J,0:/Integrated Flight Computer/aircraft/cf1_j_cfg.ks (inferred preloaded)
9.35,APPROACH,FLY_TO_FIX,141.55,74,-67.55,1188.25,1.06,1.07,0.71,279.22,6.634,0,0,-19.505,1,0.6,4.5,1.424,0.35,0.0168,0.4,33.508,33.508,33.508,67.64,1,281.52,3.127,0,0,0.4,2.3,0,3.19,281.52,0,0,0,0,0,0,0,48.305,0,0,0,4,0,0,0,3452.11,0,0,0,269.36,0,0,0,0,0,0,0,0,0,0,0,0,0,0,0,0,0,VALID,0,0,0,0,0,1,0,0,0,0,0,0,0,0,0,0,0,0,0,0,5.62,350.29,2,0,0.148,0.148,57,6.75,0.16,0.148,9.35,FLYING,CF1-J,0:/Integrated Flight Computer/aircraft/cf1_j_cfg.ks (inferred preloaded)
9.6,APPROACH,FLY_TO_FIX,140.85,74,-66.85,1188.57,1.35,1.18,0.7,279.35,6.335,0,0,-20,1,0.6,4.5,1.522,0.35,0.0168,0.4,33.721,33.721,33.721,66.929,1,281.53,3.035,0,0,0.52,2.18,0,3.08,281.53,0,0,0,0,0,0,0,48.265,0,0,0,4,0,0,0,3449.34,0,0,0,269.36,0,0,0,0,0,0,0,0,0,0,0,0,0,0,0,0,0,VALID,0,0,0,0,0,1,0,0,0,0,0,0,0,0,0,0,0,0,0,0,5.29,350.59,2,0,0.126,0.126,59,7.93,0.148,0.126,9.6,FLYING,CF1-J,0:/Integrated Flight Computer/aircraft/cf1_j_cfg.ks (inferred preloaded)
9.91,APPROACH,FLY_TO_FIX,139.96,74,-65.96,1189.06,1.66,1.31,0.7,279.5,5.976,0.0004,0,-19.9,1,0.6,4.5,1.674,0.35,0.0168,0.4,33.991,33.991,33.991,66.03,1,281.53,2.932,0,0,0.66,2.04,0,2.96,281.53,0,0,0,0,0,0,0,48.217,0,0,0,4,0,0,0,3445.96,0,0,0,269.36,0,0,0,0,0,0,0,0,0,0,0,0,0,0,0,0,0,VALID,0,0,0,0,0,1,0,0,0,0,0,0,0,0,0,0,0,0,0,0,4.9,350.98,2,0,0.099,0.099,62,9.7,0.126,0.099,9.91,FLYING,CF1-J,0:/Integrated Flight Computer/aircraft/cf1_j_cfg.ks (inferred preloaded)
10.24,APPROACH,FLY_TO_FIX,139.03,74,-65.03,1189.68,1.95,1.44,0.71,279.64,5.612,0,0,-19.505,1,0.6,4.5,1.873,0.35,0.0168,0.4,34.275,34.275,34.275,65.083,1,281.54,2.838,0,0,0.79,1.9,0,2.87,281.54,0,0,0,0,0,0,0,48.167,0,0,0,4,0,0,0,3442.46,0,0,0,269.36,0,0,0,0,0,0,0,0,0,0,0,0,0,0,0,0,0,VALID,0,0,0,0,0,1,0,0,0,0,0,0,0,0,0,0,0,0,0,0,4.52,351.39,2,0,0.1,0.1,66,12.17,0.1,0.069,10.24,FLYING,CF1-J,0:/Integrated Flight Computer/aircraft/cf1_j_cfg.ks (inferred preloaded)
10.52,APPROACH,FLY_TO_FIX,138.27,74,-64.27,1190.27,2.17,1.53,0.72,279.75,5.316,0,0,-19.214,1,0.6,4.5,2.003,0.35,0.0168,0.4,34.504,34.504,34.504,64.321,1,281.54,2.768,0,0,0.89,1.79,0,2.79,281.54,0,0,0,0,0,0,0,48.126,0,0,0,4,0,0,0,3439.56,0,0,0,269.36,0,0,0,0,0,0,0,0,0,0,0,0,0,0,0,0,0,VALID,0,0,0,0,0,1,0,0,0,0,0,0,0,0,0,0,0,0,0,0,4.22,351.73,2,0,0.08,0.08,69,10.71,0.1,0.08,10.52,FLYING,CF1-J,0:/Integrated Flight Computer/aircraft/cf1_j_cfg.ks (inferred preloaded)
10.8,APPROACH,FLY_TO_FIX,137.49,74,-63.49,1190.93,2.37,1.63,0.73,279.86,5.027,0,0,-18.927,1,0.6,4.5,2.121,0.35,0.0168,0.4,34.737,34.737,34.737,63.543,1,281.55,2.704,0,0,0.98,1.69,0,2.73,281.55,0,0,0,0,0,0,0,48.084,0,0,0,4,0,0,0,3436.68,0,0,0,269.36,0,0,0,0,0,0,0,0,0,0,0,0,0,0,0,0,0,VALID,0,0,0,0,0,1,0,0,0,0,0,0,0,0,0,0,0,0,0,0,3.94,352.07,2,0,0.1,0.1,72,10.71,0.1,0.08,10.8,FLYING,CF1-J,0:/Integrated Flight Computer/aircraft/cf1_j_cfg.ks (inferred preloaded)
11.08,APPROACH,FLY_TO_FIX,136.69,74,-62.69,1191.63,2.55,1.72,0.75,279.95,4.75,0,0,-18.645,1,0.6,4.5,2.229,0.35,0.0168,0.4,34.975,34.975,34.975,62.749,1,281.55,2.647,0,0,1.06,1.6,0,2.66,281.55,0,0,0,0,0,0,0,48.043,0,0,0,4,0,0,0,3433.81,0,0,0,269.36,0,0,0,0,0,0,0,0,0,0,0,0,0,0,0,0,0,VALID,0,0,0,0,0,1,0,0,0,0,0,0,0,0,0,0,0,0,0,0,3.67,352.42,2,0,0.08,0.08,75,10.71,0.1,0.08,11.08,FLYING,CF1-J,0:/Integrated Flight Computer/aircraft/cf1_j_cfg.ks (inferred preloaded)
11.36,APPROACH,FLY_TO_FIX,135.88,74,-61.88,1192.38,2.71,1.81,0.77,280.04,4.481,0,0,-18.366,1,0.6,4.5,2.331,0.35,0.0168,0.4,35.219,35.219,35.219,61.937,1,281.56,2.595,0,0,1.13,1.51,0,2.61,281.55,0,0,0,0,0,0,0,48.003,0,0,0,4,0,0,0,3430.95,0,0,0,269.36,0,0,0,0,0,0,0,0,0,0,0,0,0,0,0,0,0,VALID,0,0,0,0,0,1,0,0,0,0,0,0,0,0,0,0,0,0,0,0,3.43,352.78,2,0,0.1,0.1,78,10.71,0.1,0.08,11.36,FLYING,CF1-J,0:/Integrated Flight Computer/aircraft/cf1_j_cfg.ks (inferred preloaded)
11.64,APPROACH,FLY_TO_FIX,135.05,74,-61.05,1193.18,2.85,1.89,0.8,280.13,4.223,0,0,-18.092,1,0.6,4.5,2.428,0.35,0.0168,0.4,35.467,35.467,35.467,61.111,1,281.56,2.548,0,0,1.2,1.43,0,2.56,281.56,0,0,0,0,0,0,0,47.962,0,0,0,4,0,0,0,3428.12,0,0,0,269.36,0,0,0,0,0,0,0,0,0,0,0,0,0,0,0,0,0,VALID,0,0,0,0,0,1,0,0,0,0,0,0,0,0,0,0,0,0,0,0,3.2,353.15,2,0,0.08,0.08,81,10.71,0.1,0.08,11.64,FLYING,CF1-J,0:/Integrated Flight Computer/aircraft/cf1_j_cfg.ks (inferred preloaded)
11.92,APPROACH,FLY_TO_FIX,134.21,74,-60.21,1194,2.97,1.98,0.82,280.21,3.979,0,0,-17.822,1,0.6,4.5,2.521,0.35,0.0168,0.4,35.72,35.72,35.72,60.266,1,281.56,2.506,0,0,1.26,1.35,0,2.52,281.56,0,0,0,0,0,0,0,47.922,0,0,0,4,0,0,0,3425.3,0,0,0,269.36,0,0,0,0,0,0,0,0,0,0,0,0,0,0,0,0,0,VALID,0,0,0,0,0,1,0,0,0,0,0,0,0,0,0,0,0,0,0,0,2.98,353.53,2,0,0.1,0.1,84,10.71,0.1,0.08,11.92,FLYING,CF1-J,0:/Integrated Flight Computer/aircraft/cf1_j_cfg.ks (inferred preloaded)
12.2,APPROACH,FLY_TO_FIX,133.35,74,-59.35,1194.87,3.08,2.06,0.85,280.28,3.746,0,0,-17.556,1,0.6,4.5,2.61,0.35,0.0168,0.4,35.977,35.977,35.977,59.409,1,281.56,2.468,0,0,1.32,1.28,0,2.48,281.56,0,0,0,0,0,0,0,47.882,0,0,0,4,0,0,0,3422.5,0,0,0,269.36,0,0,0,0,0,0,0,0,0,0,0,0,0,0,0,0,0,VALID,0,0,0,0,0,1,0,0,0,0,0,0,0,0,0,0,0,0,0,0,2.79,353.92,2,0,0.08,0.08,87,10.71,0.1,0.08,12.2,FLYING,CF1-J,0:/Integrated Flight Computer/aircraft/cf1_j_cfg.ks (inferred preloaded)
12.48,APPROACH,FLY_TO_FIX,132.47,74,-58.47,1195.76,3.18,2.14,0.89,280.36,3.527,0,0,-17.294,1,0.6,4.5,2.696,0.35,0.0168,0.4,36.24,36.24,36.24,58.534,1,281.57,2.433,0,0,1.37,1.21,0,2.45,281.57,0,0,0,0,0,0,0,47.842,0,0,0,4,0,0,0,3419.71,0,0,0,269.36,0,0,0,0,0,0,0,0,0,0,0,0,0,0,0,0,0,VALID,0,0,0,0,0,1,0,0,0,0,0,0,0,0,0,0,0,0,0,0,2.6,354.32,2,0,0.1,0.1,90,10.71,0.1,0.08,12.48,FLYING,CF1-J,0:/Integrated Flight Computer/aircraft/cf1_j_cfg.ks (inferred preloaded)
12.76,APPROACH,FLY_TO_FIX,131.58,74,-57.58,1196.67,3.27,2.22,0.93,280.42,3.322,0,0,-17.036,1,0.6,4.5,2.779,0.35,0.0168,0.4,36.506,36.506,36.506,57.647,1,281.57,2.402,0,0,1.42,1.15,0,2.41,281.57,0,0,0,0,0,0,0,47.802,0,0,0,4,0,0,0,3416.95,0,0,0,269.36,0,0,0,0,0,0,0,0,0,0,0,0,0,0,0,0,0,VALID,0,0,0,0,0,1,0,0,0,0,0,0,0,0,0,0,0,0,0,0,2.43,354.73,2,0,0.08,0.08,93,10.71,0.1,0.08,12.76,FLYING,CF1-J,0:/Integrated Flight Computer/aircraft/cf1_j_cfg.ks (inferred preloaded)
13.04,APPROACH,FLY_TO_FIX,130.68,74,-56.68,1197.61,3.35,2.3,0.97,280.49,3.129,0,0,-16.782,1,0.6,4.5,2.858,0.35,0.0168,0.4,36.777,36.777,36.777,56.744,1,281.57,2.374,0,0,1.46,1.08,0,2.38,281.57,0,0,0,0,0,0,0,47.763,0,0,0,4,0,0,0,3414.2,0,0,0,269.36,0,0,0,0,0,0,0,0,0,0,0,0,0,0,0,0,0,VALID,0,0,0,0,0,1,0,0,0,0,0,0,0,0,0,0,0,0,0,0,2.26,355.15,2,0,0.1,0.1,96,10.71,0.1,0.08,13.04,FLYING,CF1-J,0:/Integrated Flight Computer/aircraft/cf1_j_cfg.ks (inferred preloaded)
13.31,APPROACH,FLY_TO_FIX,129.88,74,-55.88,1198.53,3.41,2.37,1,280.54,2.967,0,0,-16.531,1,0.6,4.5,2.934,0.35,0.0168,0.4,37.014,37.014,37.014,55.953,1,281.58,2.351,0,0,1.5,1.03,0,2.36,281.57,0,0,0,0,0,0,0,47.729,0,0,0,4,0,0,0,3411.81,0,0,0,269.36,0,0,0,0,0,0,0,0,0,0,0,0,0,0,0,0,0,VALID,0,0,0,0,0,1,0,0,0,0,0,0,0,0,0,0,0,0,0,0,2.12,355.52,2,0,0.065,0.065,99,11.18,0.1,0.065,13.31,FLYING,CF1-J,0:/Integrated Flight Computer/aircraft/cf1_j_cfg.ks (inferred preloaded)
13.66,APPROACH,FLY_TO_FIX,129.07,74,-55.07,1199.76,3.47,2.44,1.05,280.6,2.765,0,0,-16.366,1,0.6,4.5,2.957,0.35,0.0168,0.4,37.241,37.241,37.241,55.196,1,281.58,2.327,0,0,1.53,0.97,0,2.34,281.58,0,0,0,0,0,0,0,47.684,0,0,0,4,0,0,0,3408.7,0,0,0,269.36,0,0,0,0,0,0,0,0,0,0,0,0,0,0,0,0,0,VALID,0,0,0,0,0,1,0,0,0,0,0,0,0,0,0,0,0,0,0,0,1.94,355.89,2,0,0.176,0.176,101,5.66,0.176,0.065,13.66,FLYING,CF1-J,0:/Integrated Flight Computer/aircraft/cf1_j_cfg.ks (inferred preloaded)
14.08,APPROACH,FLY_TO_FIX,127.83,74,-53.83,1201.22,3.52,2.54,1.11,280.67,2.531,0,0,-16.203,1,0.6,4.5,2.976,0.35,0.0168,0.4,37.6,37.6,37.6,54,1,281.58,2.305,0,0,1.57,0.91,0,2.32,281.58,0,0,0,0,0,0,0,47.63,0,0,0,4,0,0,0,3404.88,0,0,0,269.36,0,0,0,0,0,0,0,0,0,0,0,0,0,0,0,0,0,VALID,0,0,0,0,0,1,0,0,0,0,0,0,0,0,0,0,0,0,0,0,1.75,356.48,2,0,0.207,0.207,103,4.83,0.207,0.176,14.08,FLYING,CF1-J,0:/Integrated Flight Computer/aircraft/cf1_j_cfg.ks (inferred preloaded)
14.55,APPROACH,FLY_TO_FIX,126.37,74,-52.37,1202.92,3.55,2.66,1.19,280.75,2.286,0,0,-16.042,1,0.6,4.5,3,0.35,0.0168,0.4,38.03,38.03,38.03,52.565,1,281.58,2.286,0,0,1.6,0.84,0,2.3,281.58,0,0,0,0,0,0,0,47.567,0,0,0,4,0,0,0,3400.5,0,0,0,269.36,0,0,0,0,0,0,0,0,0,0,0,0,0,0,0,0,0,VALID,0,0,0,0,0,1,0,0,0,0,0,0,0,0,0,0,0,0,0,0,1.56,357.18,2,0,0.239,0.239,105,4.23,0.239,0.207,14.55,FLYING,CF1-J,0:/Integrated Flight Computer/aircraft/cf1_j_cfg.ks (inferred preloaded)
15.03,APPROACH,FLY_TO_FIX,124.75,74,-50.75,1204.64,3.57,2.78,1.29,280.82,2.061,0,0,-15.882,1,0.6,4.5,3.031,0.35,0.0168,0.4,38.515,38.515,38.515,50.952,1,281.59,2.272,0,0,1.63,0.77,0,2.28,281.59,0,0,0,0,0,0,0,47.503,0,0,0,4,0,0,0,3396.01,0,0,0,269.36,0,0,0,0,0,0,0,0,0,0,0,0,0,0,0,0,0,VALID,0,0,0,0,0,1,0,0,0,0,0,0,0,0,0,0,0,0,0,0,1.38,357.97,2,0,0.24,0.24,107,4.17,0.24,0.239,15.03,FLYING,CF1-J,0:/Integrated Flight Computer/aircraft/cf1_j_cfg.ks (inferred preloaded)
15.51,APPROACH,FLY_TO_FIX,123.08,74,-49.08,1206.38,3.57,2.91,1.4,280.89,1.855,0,0,-15.723,1,0.6,4.5,3.071,0.35,0.0168,0.4,39.013,39.013,39.013,49.291,1,281.59,2.261,0,0,1.65,0.7,0,2.27,281.59,0,0,0,0,0,0,0,47.439,0,0,0,4,0,0,0,3391.58,0,0,0,269.36,0,0,0,0,0,0,0,0,0,0,0,0,0,0,0,0,0,VALID,0,0,0,0,0,1,0,0,0,0,0,0,0,0,0,0,0,0,0,0,1.23,358.8,2,0,0.24,0.24,109,4.17,0.24,0.24,15.51,FLYING,CF1-J,0:/Integrated Flight Computer/aircraft/cf1_j_cfg.ks (inferred preloaded)
15.95,APPROACH,FLY_TO_FIX,121.41,74,-47.41,1207.98,3.56,3.05,1.53,280.95,1.678,0,0,-15.566,1,0.6,4.5,3.118,0.35,0.0168,0.4,39.515,39.515,39.515,47.616,1,281.59,2.256,0,0,1.67,0.64,0,2.26,281.59,0,0,0,0,0,0,0,47.378,0,0,0,4,0,0,0,3387.31,0,0,0,269.36,0,0,0,0,0,0,0,0,0,0,0,0,0,0,0,0,0,VALID,0,0,0,0,0,1,0,0,0,0,0,0,0,0,0,0,0,0,0,0,1.1,359.65,2,0,0.228,0.228,111,4.52,0.24,0.228,15.95,FLYING,CF1-J,0:/Integrated Flight Computer/aircraft/cf1_j_cfg.ks (inferred preloaded)
16.24,APPROACH,FLY_TO_FIX,120.04,74,-46.04,1209.04,3.58,3.17,1.61,280.99,1.575,0,0,-15.411,1,0.6,4.5,3.192,0.35,0.0168,0.4,39.946,39.946,39.946,46.181,1,281.59,2.245,0,0,1.7,0.6,0,2.25,281.59,0,0,0,0,0,0,0,47.337,0,0,0,4,0,0,0,3384.44,0,0,0,269.36,0,0,0,0,0,0,0,0,0,0,0,0,0,0,0,0,0,VALID,0,0,0,0,0,1,0,0,0,0,0,0,0,0,0,0,0,0,0,0,1.03,360.37,2,0,0.146,0.146,113,6.84,0.228,0.146,16.24,FLYING,CF1-J,0:/Integrated Flight Computer/aircraft/cf1_j_cfg.ks (inferred preloaded)
16.6,APPROACH,FLY_TO_FIX,118.59,74,-44.59,1210.34,3.59,3.28,1.71,281.04,1.451,0,0,-15.181,1,0.6,4.5,3.312,0.35,0.0168,0.4,40.391,40.391,40.391,44.698,1,281.6,2.234,0,0,1.73,0.55,0,2.24,281.59,0,0,0,0,0,0,0,47.29,0,0,0,4,0,0,0,3381.11,0,0,0,269.36,0,0,0,0,0,0,0,0,0,0,0,0,0,0,0,0,0,VALID,0,0,0,0,0,1,0,0,0,0,0,0,0,0,0,0,0,0,0,0,0.94,361.13,2,0,0.115,0.115,116,8.36,0.146,0.115,16.6,FLYING,CF1-J,0:/Integrated Flight Computer/aircraft/cf1_j_cfg.ks (inferred preloaded)
16.86,APPROACH,FLY_TO_FIX,117.54,74,-43.54,1211.29,3.6,3.38,1.79,281.07,1.365,0,0,-14.954,1,0.6,4.5,3.426,0.35,0.0168,0.4,40.713,40.713,40.713,43.623,1,281.6,2.227,0,0,1.75,0.52,0,2.23,281.6,0,0,0,0,0,0,0,47.255,0,0,0,4,0,0,0,3378.71,0,0,0,269.36,0,0,0,0,0,0,0,0,0,0,0,0,0,0,0,0,0,VALID,0,0,0,0,0,1,0,0,0,0,0,0,0,0,0,0,0,0,0,0,0.88,361.68,2,0,0.068,0.068,119,11.52,0.115,0.068,16.86,FLYING,CF1-J,0:/Integrated Flight Computer/aircraft/cf1_j_cfg.ks (inferred preloaded)
17.13,APPROACH,FLY_TO_FIX,116.53,74,-42.53,1212.25,3.6,3.47,1.86,281.1,1.286,0,0,-14.731,1,0.6,4.5,3.526,0.35,0.0168,0.4,41.018,41.018,41.018,42.606,1,281.6,2.22,0,0,1.77,0.49,0,2.22,281.6,0,0,0,0,0,0,0,47.222,0,0,0,4,0,0,0,3376.39,0,0,0,269.36,0,0,0,0,0,0,0,0,0,0,0,0,0,0,0,0,0,VALID,0,0,0,0,0,1,0,0,0,0,0,0,0,0,0,0,0,0,0,0,0.83,362.21,2,0,0.1,0.1,122,11.47,0.1,0.068,17.13,FLYING,CF1-J,0:/Integrated Flight Computer/aircraft/cf1_j_cfg.ks (inferred preloaded)
17.39,APPROACH,FLY_TO_FIX,115.59,74,-41.59,1213.2,3.61,3.56,1.94,281.13,1.213,0,0,-14.511,1,0.6,4.5,3.6,0.35,0.0168,0.4,41.301,41.301,41.301,41.663,1,281.6,2.214,0,0,1.79,0.47,0,2.22,281.6,0,0,0,0,0,0,0,47.19,0,0,0,4,0,0,0,3374.12,0,0,0,269.36,0,0,0,0,0,0,0,0,0,0,0,0,0,0,0,0,0,VALID,0,0,0,0,0,1,0,0,0,0,0,0,0,0,0,0,0,0,0,0,0.78,362.71,2,0,0.08,0.08,125,11.54,0.1,0.08,17.39,FLYING,CF1-J,0:/Integrated Flight Computer/aircraft/cf1_j_cfg.ks (inferred preloaded)
17.65,APPROACH,FLY_TO_FIX,114.65,74,-40.65,1214.15,3.61,3.65,2.01,281.16,1.143,0,0,-14.295,1,0.6,4.5,3.655,0.35,0.0168,0.4,41.584,41.584,41.584,40.721,1,281.6,2.209,0,0,1.8,0.44,0,2.21,281.6,0,0,0,0,0,0,0,47.158,0,0,0,4,0,0,0,3371.88,0,0,0,269.36,0,0,0,0,0,0,0,0,0,0,0,0,0,0,0,0,0,VALID,0,0,0,0,0,1,0,0,0,0,0,0,0,0,0,0,0,0,0,0,0.73,363.21,2,0,0.08,0.08,128,11.53,0.1,0.08,17.65,FLYING,CF1-J,0:/Integrated Flight Computer/aircraft/cf1_j_cfg.ks (inferred preloaded)
17.98,APPROACH,FLY_TO_FIX,113.57,74,-39.57,1215.37,3.61,3.75,2.1,281.18,1.065,0,0,-14.011,1,0.6,4.5,3.699,0.35,0.0168,0.4,41.903,41.903,41.903,39.656,1,281.6,2.203,0,0,1.82,0.42,0,2.2,281.6,0,0,0,0,0,0,0,47.119,0,0,0,4,0,0,0,3369.18,0,0,0,269.36,0,0,0,0,0,0,0,0,0,0,0,0,0,0,0,0,0,VALID,0,0,0,0,0,1,0,0,0,0,0,0,0,0,0,0,0,0,0,0,0.67,363.79,2,0,0.102,0.102,132,12.07,0.102,0.061,17.98,FLYING,CF1-J,0:/Integrated Flight Computer/aircraft/cf1_j_cfg.ks (inferred preloaded)
18.35,APPROACH,FLY_TO_FIX,112.33,74,-38.33,1216.72,3.59,3.87,2.21,281.21,0.982,0,0,-13.802,1,0.6,4.5,3.705,0.35,0.0168,0.4,42.266,42.266,42.266,38.446,1,281.6,2.202,0,0,1.83,0.39,0,2.2,281.6,0,0,0,0,0,0,0,47.075,0,0,0,4,0,0,0,3366.09,0,0,0,269.36,0,0,0,0,0,0,0,0,0,0,0,0,0,0,0,0,0,VALID,0,0,0,0,0,1,0,0,0,0,0,0,0,0,0,0,0,0,0,0,0.61,364.45,2,0,0.125,0.125,135,8.06,0.125,0.102,18.35,FLYING,CF1-J,0:/Integrated Flight Computer/aircraft/cf1_j_cfg.ks (inferred preloaded)
18.61,APPROACH,FLY_TO_FIX,111.43,74,-37.43,1217.67,3.57,3.95,2.29,281.23,0.925,0,0,-13.664,1,0.6,4.5,3.711,0.35,0.0168,0.4,42.537,42.537,42.537,37.542,1,281.6,2.202,0,0,1.83,0.37,0,2.2,281.6,0,0,0,0,0,0,0,47.044,0,0,0,4,0,0,0,3363.93,0,0,0,269.36,0,0,0,0,0,0,0,0,0,0,0,0,0,0,0,0,0,VALID,0,0,0,0,0,1,0,0,0,0,0,0,0,0,0,0,0,0,0,0,0.57,364.94,2,0,0.13,0.13,137,7.67,0.13,0.125,18.61,FLYING,CF1-J,0:/Integrated Flight Computer/aircraft/cf1_j_cfg.ks (inferred preloaded)
18.88,APPROACH,FLY_TO_FIX,110.49,74,-36.49,1218.65,3.55,4.05,2.38,281.25,0.87,0,0,-13.528,1,0.6,4.5,3.718,0.35,0.0168,0.4,42.818,42.818,42.818,36.606,1,281.6,2.202,0,0,1.84,0.35,0,2.2,281.6,0,0,0,0,0,0,0,47.012,0,0,0,4,0,0,0,3361.69,0,0,0,269.36,0,0,0,0,0,0,0,0,0,0,0,0,0,0,0,0,0,VALID,0,0,0,0,0,1,0,0,0,0,0,0,0,0,0,0,0,0,0,0,0.54,365.46,2,0,0.136,0.136,139,7.37,0.136,0.13,18.88,FLYING,CF1-J,0:/Integrated Flight Computer/aircraft/cf1_j_cfg.ks (inferred preloaded)
19.16,APPROACH,FLY_TO_FIX,109.52,74,-35.52,1219.66,3.53,4.14,2.47,281.27,0.818,0,0,-13.393,1,0.6,4.5,3.726,0.35,0.0168,0.4,43.108,43.108,43.108,35.639,1,281.6,2.204,0,0,1.85,0.34,0,2.2,281.6,0,0,0,0,0,0,0,46.979,0,0,0,4,0,0,0,3359.4,0,0,0,269.36,0,0,0,0,0,0,0,0,0,0,0,0,0,0,0,0,0,VALID,0,0,0,0,0,1,0,0,0,0,0,0,0,0,0,0,0,0,0,0,0.5,365.99,2,0,0.14,0.14,141,7.15,0.14,0.136,19.16,FLYING,CF1-J,0:/Integrated Flight Computer/aircraft/cf1_j_cfg.ks (inferred preloaded)
19.44,APPROACH,FLY_TO_FIX,108.53,74,-34.53,1220.66,3.51,4.24,2.57,281.28,0.768,0,0,-13.259,1,0.6,4.5,3.733,0.35,0.0168,0.4,43.403,43.403,43.403,34.656,1,281.6,2.205,0,0,1.85,0.32,0,2.21,281.6,0,0,0,0,0,0,0,46.946,0,0,0,4,0,0,0,3357.11,0,0,0,269.36,0,0,0,0,0,0,0,0,0,0,0,0,0,0,0,0,0,VALID,0,0,0,0,0,1,0,0,0,0,0,0,0,0,0,0,0,0,0,0,0.47,366.53,2,0,0.14,0.14,143,7.14,0.14,0.14,19.44,FLYING,CF1-J,0:/Integrated Flight Computer/aircraft/cf1_j_cfg.ks (inferred preloaded)
19.72,APPROACH,FLY_TO_FIX,107.56,74,-33.56,1221.65,3.48,4.35,2.67,281.3,0.721,0,0,-13.127,1,0.6,4.5,3.741,0.35,0.0168,0.4,43.697,43.697,43.697,33.677,1,281.6,2.208,0,0,1.85,0.3,0,2.21,281.6,0,0,0,0,0,0,0,46.914,0,0,0,4,0,0,0,3354.84,0,0,0,269.36,0,0,0,0,0,0,0,0,0,0,0,0,0,0,0,0,0,VALID,0,0,0,0,0,1,0,0,0,0,0,0,0,0,0,0,0,0,0,0,0.44,367.08,2,0,0.14,0.14,145,7.14,0.14,0.14,19.72,FLYING,CF1-J,0:/Integrated Flight Computer/aircraft/cf1_j_cfg.ks (inferred preloaded)
20,APPROACH,FLY_TO_FIX,106.58,74,-32.58,1222.64,3.46,4.45,2.77,281.32,0.677,0,0,-12.996,1,0.6,4.5,3.748,0.35,0.0168,0.4,43.988,43.988,43.988,32.705,1,281.61,2.21,0,0,1.86,0.29,0,2.21,281.61,0,0,0,0,0,0,0,46.882,0,0,0,4,0,0,0,3352.59,0,0,0,269.36,0,0,0,0,0,0,0,0,0,0,0,0,0,0,0,0,0,VALID,0,0,0,0,0,1,0,0,0,0,0,0,0,0,0,0,0,0,0,0,0.41,367.62,2,0,0.14,0.14,147,7.14,0.14,0.14,20,FLYING,CF1-J,0:/Integrated Flight Computer/aircraft/cf1_j_cfg.ks (inferred preloaded)
20.28,APPROACH,FLY_TO_FIX,105.62,74,-31.62,1223.62,3.44,4.56,2.89,281.33,0.637,0,0,-12.867,1,0.6,4.5,3.754,0.35,0.0168,0.4,44.278,44.278,44.278,31.74,1,281.61,2.212,0,0,1.86,0.27,0,2.21,281.61,0,0,0,0,0,0,0,46.85,0,0,0,4,0,0,0,3350.36,0,0,0,269.36,0,0,0,0,0,0,0,0,0,0,0,0,0,0,0,0,0,VALID,0,0,0,0,0,1,0,0,0,0,0,0,0,0,0,0,0,0,0,0,0.38,368.16,2,0,0.14,0.14,149,7.14,0.14,0.14,20.28,FLYING,CF1-J,0:/Integrated Flight Computer/aircraft/cf1_j_cfg.ks (inferred preloaded)
20.56,APPROACH,FLY_TO_FIX,104.66,74,-30.66,1224.6,3.41,4.67,2.99,281.35,0.598,0,0,-12.738,1,0.6,4.5,3.758,0.35,0.0168,0.4,44.566,44.566,44.566,30.779,1,281.61,2.214,0,0,1.87,0.26,0,2.21,281.61,0,0,0,0,0,0,0,46.818,0,0,0,4,0,0,0,3348.15,0,0,0,269.36,0,0,0,0,0,0,0,0,0,0,0,0,0,0,0,0,0,VALID,0,0,0,0,0,1,0,0,0,0,0,0,0,0,0,0,0,0,0,0,0.36,368.7,2,0,0.14,0.14,151,7.14,0.14,0.14,20.56,FLYING,CF1-J,0:/Integrated Flight Computer/aircraft/cf1_j_cfg.ks (inferred preloaded)
20.84,APPROACH,FLY_TO_FIX,103.71,74,-29.71,1225.57,3.39,4.79,3.1,281.36,0.562,0,0,-12.611,1,0.6,4.5,3.76,0.35,0.0168,0.4,44.852,44.852,44.852,29.825,1,281.61,2.216,0,0,1.87,0.25,0,2.22,281.61,0,0,0,0,0,0,0,46.787,0,0,0,4,0,0,0,3345.96,0,0,0,269.36,0,0,0,0,0,0,0,0,0,0,0,0,0,0,0,0,0,VALID,0,0,0,0,0,1,0,0,0,0,0,0,0,0,0,0,0,0,0,0,0.33,369.24,2,0,0.14,0.14,153,7.14,0.14,0.14,20.84,FLYING,CF1-J,0:/Integrated Flight Computer/aircraft/cf1_j_cfg.ks (inferred preloaded)
21.12,APPROACH,FLY_TO_FIX,102.76,74,-28.76,1226.53,3.36,4.91,3.21,281.37,0.53,0,0,-12.485,1,0.6,4.5,3.76,0.35,0.0168,0.4,45.137,45.137,45.137,28.877,1,281.61,2.219,0,0,1.87,0.24,0,2.22,281.61,0,0,0,0,0,0,0,46.756,0,0,0,4,0,0,0,3343.79,0,0,0,269.36,0,0,0,0,0,0,0,0,0,0,0,0,0,0,0,0,0,VALID,0,0,0,0,0,1,0,0,0,0,0,0,0,0,0,0,0,0,0,0,0.31,369.77,2,0,0.14,0.14,155,7.14,0.14,0.14,21.12,FLYING,CF1-J,0:/Integrated Flight Computer/aircraft/cf1_j_cfg.ks (inferred preloaded)
21.4,APPROACH,FLY_TO_FIX,101.82,74,-27.82,1227.49,3.34,5.02,3.33,281.38,0.498,0,0,-12.361,1,0.6,4.5,3.759,0.35,0.0168,0.4,45.42,45.42,45.42,27.934,1,281.61,2.221,0,0,1.88,0.23,0,2.22,281.61,0,0,0,0,0,0,0,46.725,0,0,0,4,0,0,0,3341.64,0,0,0,269.36,0,0,0,0,0,0,0,0,0,0,0,0,0,0,0,0,0,VALID,0,0,0,0,0,1,0,0,0,0,0,0,0,0,0,0,0,0,0,0,0.29,370.31,2,0,0.14,0.14,157,7.14,0.14,0.14,21.4,FLYING,CF1-J,0:/Integrated Flight Computer/aircraft/cf1_j_cfg.ks (inferred preloaded)
21.68,APPROACH,FLY_TO_FIX,100.88,74,-26.88,1228.44,3.31,5.14,3.45,281.39,0.467,0,0,-12.237,1,0.6,4.5,3.756,0.35,0.0168,0.4,45.701,45.701,45.701,26.998,1,281.61,2.224,0,0,1.88,0.21,0,2.22,281.61,0,0,0,0,0,0,0,46.695,0,0,0,4,0,0,0,3339.51,0,0,0,269.36,0,0,0,0,0,0,0,0,0,0,0,0,0,0,0,0,0,VALID,0,0,0,0,0,1,0,0,0,0,0,0,0,0,0,0,0,0,0,0,0.27,370.84,2,0,0.14,0.14,159,7.14,0.14,0.14,21.68,FLYING,CF1-J,0:/Integrated Flight Computer/aircraft/cf1_j_cfg.ks (inferred preloaded)
21.96,APPROACH,FLY_TO_FIX,99.95,74,-25.95,1229.38,3.29,5.26,3.56,281.4,0.439,0,0,-12.115,1,0.6,4.5,3.752,0.35,0.0168,0.4,45.98,45.98,45.98,26.067,1,281.61,2.229,0,0,1.88,0.21,0,2.23,281.61,0,0,0,0,0,0,0,46.665,0,0,0,4,0,0,0,3337.4,0,0,0,269.36,0,0,0,0,0,0,0,0,0,0,0,0,0,0,0,0,0,VALID,0,0,0,0,0,1,0,0,0,0,0,0,0,0,0,0,0,0,0,0,0.25,371.38,2,0,0.14,0.14,161,7.14,0.14,0.14,21.96,FLYING,CF1-J,0:/Integrated Flight Computer/aircraft/cf1_j_cfg.ks (inferred preloaded)
22.24,APPROACH,FLY_TO_FIX,99.03,74,-25.03,1230.32,3.26,5.39,3.69,281.41,0.412,0,0,-11.995,1,0.6,4.5,3.746,0.35,0.0168,0.4,46.257,46.257,46.257,25.142,1,281.61,2.231,0,0,1.88,0.2,0,2.23,281.61,0,0,0,0,0,0,0,46.635,0,0,0,4,0,0,0,3335.3,0,0,0,269.36,0,0,0,0,0,0,0,0,0,0,0,0,0,0,0,0,0,VALID,0,0,0,0,0,1,0,0,0,0,0,0,0,0,0,0,0,0,0,0,0.24,371.91,2,0,0.14,0.14,163,7.14,0.14,0.14,22.24,FLYING,CF1-J,0:/Integrated Flight Computer/aircraft/cf1_j_cfg.ks (inferred preloaded)
22.52,APPROACH,FLY_TO_FIX,98.11,74,-24.11,1231.25,3.23,5.52,3.81,281.42,0.388,0,0,-11.875,1,0.6,4.5,3.739,0.35,0.0168,0.4,46.533,46.533,46.533,24.222,1,281.61,2.233,0,0,1.89,0.19,0,2.23,281.61,0,0,0,0,0,0,0,46.605,0,0,0,4,0,0,0,3333.23,0,0,0,269.36,0,0,0,0,0,0,0,0,0,0,0,0,0,0,0,0,0,VALID,0,0,0,0,0,1,0,0,0,0,0,0,0,0,0,0,0,0,0,0,0.22,372.44,2,0,0.14,0.14,165,7.14,0.14,0.14,22.52,FLYING,CF1-J,0:/Integrated Flight Computer/aircraft/cf1_j_cfg.ks (inferred preloaded)
22.8,APPROACH,FLY_TO_FIX,97.19,74,-23.19,1232.17,3.2,5.65,3.94,281.43,0.364,0,0,-11.756,1,0.6,4.5,3.731,0.35,0.0168,0.4,46.808,46.808,46.808,23.308,1,281.61,2.236,0,0,1.89,0.18,0,2.24,281.61,0,0,0,0,0,0,0,46.576,0,0,0,4,0,0,0,3331.17,0,0,0,269.36,0,0,0,0,0,0,0,0,0,0,0,0,0,0,0,0,0,VALID,0,0,0,0,0,1,0,0,0,0,0,0,0,0,0,0,0,0,0,0,0.2,372.97,2,0,0.14,0.14,167,7.14,0.14,0.14,22.8,FLYING,CF1-J,0:/Integrated Flight Computer/aircraft/cf1_j_cfg.ks (inferred preloaded)
23.08,APPROACH,FLY_TO_FIX,96.29,74,-22.29,1233.08,3.18,5.78,4.07,281.44,0.342,0,0,-11.639,1,0.6,4.5,3.722,0.35,0.0168,0.4,47.08,47.08,47.08,22.4,1,281.61,2.241,0,0,1.89,0.17,0,2.24,281.61,0,0,0,0,0,0,0,46.546,0,0,0,4,0,0,0,3329.14,0,0,0,269.36,0,0,0,0,0,0,0,0,0,0,0,0,0,0,0,0,0,VALID,0,0,0,0,0,1,0,0,0,0,0,0,0,0,0,0,0,0,0,0,0.19,373.49,2,0,0.14,0.14,169,7.14,0.14,0.14,23.08,FLYING,CF1-J,0:/Integrated Flight Computer/aircraft/cf1_j_cfg.ks (inferred preloaded)
23.36,APPROACH,FLY_TO_FIX,95.38,74,-21.38,1233.99,3.15,5.92,4.21,281.45,0.322,0,0,-11.523,1,0.6,4.5,3.712,0.35,0.0168,0.4,47.351,47.351,47.351,21.496,1,281.61,2.242,0,0,1.9,0.16,0,2.24,281.61,0,0,0,0,0,0,0,46.518,0,0,0,4,0,0,0,3327.12,0,0,0,269.36,0,0,0,0,0,0,0,0,0,0,0,0,0,0,0,0,0,VALID,0,0,0,0,0,1,0,0,0,0,0,0,0,0,0,0,0,0,0,0,0.18,374.02,2,0,0.14,0.14,171,7.14,0.14,0.14,23.36,FLYING,CF1-J,0:/Integrated Flight Computer/aircraft/cf1_j_cfg.ks (inferred preloaded)
23.64,APPROACH,FLY_TO_FIX,94.49,74,-20.49,1234.9,3.13,6.06,4.36,281.45,0.303,0,0,-11.408,1,0.6,4.5,3.701,0.35,0.0168,0.4,47.621,47.621,47.621,20.598,1,281.61,2.247,0,0,1.9,0.16,0,2.25,281.61,0,0,0,0,0,0,0,46.489,0,0,0,4,0,0,0,3325.12,0,0,0,269.36,0,0,0,0,0,0,0,0,0,0,0,0,0,0,0,0,0,VALID,0,0,0,0,0,1,0,0,0,0,0,0,0,0,0,0,0,0,0,0,0.17,374.54,2,0,0.14,0.14,173,7.14,0.14,0.14,23.64,FLYING,CF1-J,0:/Integrated Flight Computer/aircraft/cf1_j_cfg.ks (inferred preloaded)
23.92,APPROACH,FLY_TO_FIX,93.59,74,-19.59,1235.79,3.1,6.21,4.5,281.46,0.286,0,0,-11.294,1,0.6,4.5,3.689,0.35,0.0168,0.4,47.889,47.889,47.889,19.705,1,281.61,2.251,0,0,1.9,0.15,0,2.25,281.61,0,0,0,0,0,0,0,46.461,0,0,0,4,0,0,0,3323.14,0,0,0,269.36,0,0,0,0,0,0,0,0,0,0,0,0,0,0,0,0,0,VALID,0,0,0,0,0,1,0,0,0,0,0,0,0,0,0,0,0,0,0,0,0.16,375.06,2,0,0.14,0.14,175,7.14,0.14,0.14,23.92,FLYING,CF1-J,0:/Integrated Flight Computer/aircraft/cf1_j_cfg.ks (inferred preloaded)
24.2,APPROACH,FLY_TO_FIX,92.71,74,-18.71,1236.68,3.08,6.35,4.64,281.47,0.27,0,0,-11.182,1,0.6,4.5,3.676,0.35,0.0168,0.4,48.155,48.155,48.155,18.816,1,281.61,2.254,0,0,1.9,0.14,0,2.25,281.61,0,0,0,0,0,0,0,46.433,0,0,0,4,0,0,0,3321.17,0,0,0,269.36,0,0,0,0,0,0,0,0,0,0,0,0,0,0,0,0,0,VALID,0,0,0,0,0,1,0,0,0,0,0,0,0,0,0,0,0,0,0,0,0.15,375.58,2,0,0.14,0.14,177,7.14,0.14,0.14,24.2,FLYING,CF1-J,0:/Integrated Flight Computer/aircraft/cf1_j_cfg.ks (inferred preloaded)
24.48,APPROACH,FLY_TO_FIX,91.82,74,-17.82,1237.56,3.05,6.5,4.79,281.47,0.255,0,0,-11.07,1,0.6,4.5,3.663,0.35,0.0168,0.4,48.223,48.42,48.223,17.933,1,281.61,2.257,0,0,1.9,0.14,0,2.26,281.61,0,0,0,0,0,0,0,46.405,0,0,0,4,0,0,0,3319.23,0,0,0,269.36,0,0,0,0,0,0,0,0,0,0,0,0,0,0,0,0,0,VALID,0,0,0,0,0,1,0,0,0,0,0,0,0,0,0,0,0,0,0,0,0.14,376.1,2,0,0.14,0.14,179,7.14,0.14,0.14,24.48,FLYING,CF1-J,0:/Integrated Flight Computer/aircraft/cf1_j_cfg.ks (inferred preloaded)
24.76,APPROACH,FLY_TO_FIX,90.95,74,-16.95,1238.44,3.02,6.65,4.94,281.48,0.24,0,0,-10.96,1,0.6,4.5,3.65,0.35,0.0168,0.4,45.894,48.684,45.894,17.055,1,281.61,2.261,0,0,1.9,0.13,0,2.26,281.61,0,0,0,0,0,0,0,46.377,0,0,0,4,0,0,0,3317.3,0,0,0,269.36,0,0,0,0,0,0,0,0,0,0,0,0,0,0,0,0,0,VALID,0,0,0,0,0,1,0,0,0,0,0,0,0,0,0,0,0,0,0,0,0.13,376.61,2,0,0.14,0.14,181,7.14,0.14,0.14,24.76,FLYING,CF1-J,0:/Integrated Flight Computer/aircraft/cf1_j_cfg.ks (inferred preloaded)
25.04,APPROACH,FLY_TO_FIX,90.09,74,-16.09,1239.3,3,6.81,5.1,281.48,0.227,0,0,-10.85,1,0.6,4.5,3.635,0.35,0.0168,0.4,43.579,48.942,43.579,16.192,1,281.61,2.265,0,0,1.9,0.13,0,2.26,281.61,0,0,0,0,0,0,0,46.35,0,0,0,4,0,0,0,3315.39,0,0,0,269.36,0,0,0,0,0,0,0,0,0,0,0,0,0,0,0,0,0,VALID,0,0,0,0,0,1,0,0,0,0,0,0,0,0,0,0,0,0,0,0,0.12,377.12,2,0,0.14,0.14,183,7.14,0.14,0.14,25.04,FLYING,CF1-J,0:/Integrated Flight Computer/aircraft/cf1_j_cfg.ks (inferred preloaded)
25.32,APPROACH,FLY_TO_FIX,89.25,74,-15.25,1240.16,2.97,6.97,5.26,281.49,0.215,0,0,-10.742,1,0.6,4.5,3.617,0.35,0.0168,0.4,41.3,49.194,41.3,15.352,1,281.61,2.269,0,0,1.91,0.12,0,2.27,281.61,0,0,0,0,0,0,0,46.323,0,0,0,4,0,0,0,3313.5,0,0,0,269.36,0,0,0,0,0,0,0,0,0,0,0,0,0,0,0,0,0,VALID,0,0,0,0,0,1,0,0,0,0,0,0,0,0,0,0,0,0,0,0,0.11,377.61,2,0,0.14,0.14,185,7.14,0.14,0.14,25.32,FLYING,CF1-J,0:/Integrated Flight Computer/aircraft/cf1_j_cfg.ks (inferred preloaded)
25.6,APPROACH,FLY_TO_FIX,88.44,74,-14.44,1241.02,2.94,7.13,5.42,281.49,0.204,0,0,-10.635,1,0.6,4.5,3.596,0.35,0.0168,0.4,39.062,49.439,39.062,14.537,1,281.61,2.272,0,0,1.91,0.12,0,2.27,281.61,0,0,0,0,0,0,0,46.296,0,0,0,4,0,0,0,3311.63,0,0,0,269.36,0,0,0,0,0,0,0,0,0,0,0,0,0,0,0,0,0,VALID,0,0,0,0,0,1,0,0,0,0,0,0,0,0,0,0,0,0,0,0,0.1,378.09,2,0,0.14,0.14,187,7.14,0.14,0.14,25.6,FLYING,CF1-J,0:/Integrated Flight Computer/aircraft/cf1_j_cfg.ks (inferred preloaded)
25.88,APPROACH,FLY_TO_FIX,87.65,74,-13.65,1241.86,2.92,7.29,5.58,281.5,0.194,0,0,-10.529,1,0.6,4.5,3.57,0.35,0.0168,0.4,36.868,49.676,36.868,13.746,1,281.61,2.276,0,0,1.91,0.11,0,2.28,281.61,0,0,0,0,0,0,0,46.27,0,0,0,4,0,0,0,3309.77,0,0,0,269.36,0,0,0,0,0,0,0,0,0,0,0,0,0,0,0,0,0,VALID,0,0,0,0,0,1,0,0,0,0,0,0,0,0,0,0,0,0,0,0,0.1,378.55,2,0,0.14,0.14,189,7.14,0.14,0.14,25.88,FLYING,CF1-J,0:/Integrated Flight Computer/aircraft/cf1_j_cfg.ks (inferred preloaded)
26.16,APPROACH,FLY_TO_FIX,86.89,74,-12.89,1242.7,2.9,7.44,5.73,281.5,0.184,0,0,-10.424,1,0.6,4.5,3.539,0.35,0.0168,0.4,34.728,49.905,34.728,12.982,1,281.61,2.279,0,0,1.91,0.11,0,2.28,281.61,0,0,0,0,0,0,0,46.243,0,0,0,4,0,0,0,3307.93,0,0,0,269.36,0,0,0,0,0,0,0,0,0,0,0,0,0,0,0,0,0,VALID,0,0,0,0,0,1,0,0,0,0,0,0,0,0,0,0,0,0,0,0,0.09,378.99,2,0,0.14,0.14,191,7.14,0.14,0.14,26.16,FLYING,CF1-J,0:/Integrated Flight Computer/aircraft/cf1_j_cfg.ks (inferred preloaded)
26.44,APPROACH,FLY_TO_FIX,86.17,74,-12.17,1243.53,2.87,7.6,5.89,281.51,0.175,0,0,-10.32,1,0.6,4.5,3.503,0.35,0.0168,0.4,32.673,50.123,32.673,12.256,1,281.61,2.281,0,0,1.91,0.11,0,2.28,281.61,0,0,0,0,0,0,0,46.217,0,0,0,4,0,0,0,3306.1,0,0,0,269.36,0,0,0,0,0,0,0,0,0,0,0,0,0,0,0,0,0,VALID,0,0,0,0,0,1,0,0,0,0,0,0,0,0,0,0,0,0,0,0,0.08,379.41,2,0,0.14,0.14,193,7.14,0.14,0.14,26.44,FLYING,CF1-J,0:/Integrated Flight Computer/aircraft/cf1_j_cfg.ks (inferred preloaded)
26.72,APPROACH,FLY_TO_FIX,85.49,74,-11.49,1244.36,2.85,7.75,6.04,281.51,0.166,0,0,-10.217,1,0.6,4.5,3.459,0.35,0.0168,0.4,30.73,50.328,30.73,11.575,1,281.61,2.283,0,0,1.91,0.1,0,2.28,281.61,0,0,0,0,0,0,0,46.191,0,0,0,4,0,0,0,3304.28,0,0,0,269.36,0,0,0,0,0,0,0,0,0,0,0,0,0,0,0,0,0,VALID,0,0,0,0,0,1,0,0,0,0,0,0,0,0,0,0,0,0,0,0,0.08,379.8,2,0,0.14,0.14,195,7.14,0.14,0.14,26.72,FLYING,CF1-J,0:/Integrated Flight Computer/aircraft/cf1_j_cfg.ks (inferred preloaded)
27,APPROACH,FLY_TO_FIX,84.87,74,-10.87,1245.18,2.84,7.91,6.19,281.52,0.158,0,0,-10.115,1,0.6,4.5,3.407,0.35,0.0168,0.4,28.911,50.517,28.911,10.943,1,281.61,2.285,0,0,1.91,0.1,0,2.29,281.61,0,0,0,0,0,0,0,46.165,0,0,0,4,0,0,0,3302.48,0,0,0,269.36,0,0,0,0,0,0,0,0,0,0,0,0,0,0,0,0,0,VALID,0,0,0,0,0,1,0,0,0,0,0,0,0,0,0,0,0,0,0,0,0.07,380.16,2,0,0.14,0.14,197,7.14,0.14,0.14,27,FLYING,CF1-J,0:/Integrated Flight Computer/aircraft/cf1_j_cfg.ks (inferred preloaded)
27.28,APPROACH,FLY_TO_FIX,84.29,74,-10.29,1245.99,2.82,8.05,6.34,281.52,0.15,0,0,-10.014,1,0.6,4.5,3.346,0.35,0.0168,0.4,27.218,50.692,27.218,10.359,1,281.61,2.285,0,0,1.92,0.1,0,2.29,281.61,0,0,0,0,0,0,0,46.14,0,0,0,4,0,0,0,3300.69,0,0,0,269.36,0,0,0,0,0,0,0,0,0,0,0,0,0,0,0,0,0,VALID,0,0,0,0,0,1,0,0,0,0,0,0,0,0,0,0,0,0,0,0,0.07,380.49,2,0,0.14,0.14,199,7.14,0.14,0.14,27.28,FLYING,CF1-J,0:/Integrated Flight Computer/aircraft/cf1_j_cfg.ks (inferred preloaded)
27.56,APPROACH,FLY_TO_FIX,83.75,74,-9.75,1246.8,2.81,8.19,6.47,281.52,0.143,0,0,-9.914,1,0.6,4.5,3.276,0.35,0.0168,0.4,25.641,50.854,25.641,9.819,1,281.61,2.284,0,0,1.92,0.09,0,2.29,281.61,0,0,0,0,0,0,0,46.114,0,0,0,4,0,0,0,3298.92,0,0,0,269.36,0,0,0,0,0,0,0,0,0,0,0,0,0,0,0,0,0,VALID,0,0,0,0,0,1,0,0,0,0,0,0,0,0,0,0,0,0,0,0,0.06,380.8,2,0,0.14,0.14,201,7.14,0.14,0.14,27.56,FLYING,CF1-J,0:/Integrated Flight Computer/aircraft/cf1_j_cfg.ks (inferred preloaded)
27.84,APPROACH,FLY_TO_FIX,83.26,74,-9.26,1247.61,2.8,8.32,6.59,281.53,0.137,0,0,-9.815,1,0.6,4.5,3.199,0.35,0.0168,0.4,24.165,51.005,24.165,9.317,1,281.61,2.283,0,0,1.93,0.09,0,2.28,281.61,0,0,0,0,0,0,0,46.089,0,0,0,4,0,0,0,3297.15,0,0,0,269.36,0,0,0,0,0,0,0,0,0,0,0,0,0,0,0,0,0,VALID,0,0,0,0,0,1,0,0,0,0,0,0,0,0,0,0,0,0,0,0,0.06,381.08,2,0,0.14,0.14,203,7.14,0.14,0.14,27.84,FLYING,CF1-J,0:/Integrated Flight Computer/aircraft/cf1_j_cfg.ks (inferred preloaded)
28.12,APPROACH,FLY_TO_FIX,82.79,74,-8.79,1248.41,2.8,8.44,6.71,281.53,0.131,0,0,-9.717,1,0.6,4.5,3.116,0.35,0.0168,0.4,22.768,51.146,22.768,8.845,1,281.61,2.281,0,0,1.93,0.09,0,2.28,281.61,0,0,0,0,0,0,0,46.064,0,0,0,4,0,0,0,3295.39,0,0,0,269.36,0,0,0,0,0,0,0,0,0,0,0,0,0,0,0,0,0,VALID,0,0,0,0,0,1,0,0,0,0,0,0,0,0,0,0,0,0,0,0,0.06,381.34,2,0,0.14,0.14,205,7.14,0.14,0.14,28.12,FLYING,CF1-J,0:/Integrated Flight Computer/aircraft/cf1_j_cfg.ks (inferred preloaded)
28.4,APPROACH,FLY_TO_FIX,82.34,74,-8.34,1249.21,2.79,8.56,6.82,281.53,0.125,0,0,-9.621,1,0.6,4.5,3.03,0.35,0.0168,0.4,21.431,51.281,21.431,8.395,1,281.62,2.278,0,0,1.94,0.08,0,2.28,281.62,0,0,0,0,0,0,0,46.039,0,0,0,4,0,0,0,3293.64,0,0,0,269.36,0,0,0,0,0,0,0,0,0,0,0,0,0,0,0,0,0,VALID,0,0,0,0,0,1,0,0,0,0,0,0,0,0,0,0,0,0,0,0,0.05,381.58,2,0,0.14,0.14,207,7.14,0.14,0.14,28.4,FLYING,CF1-J,0:/Integrated Flight Computer/aircraft/cf1_j_cfg.ks (inferred preloaded)
28.68,APPROACH,FLY_TO_FIX,81.91,74,-7.91,1250.01,2.79,8.68,6.93,281.53,0.119,0,0,-9.525,1,0.6,4.5,2.942,0.35,0.0168,0.4,20.133,51.412,20.133,7.961,1,281.62,2.276,0,0,1.95,0.08,0,2.28,281.62,0,0,0,0,0,0,0,46.014,0,0,0,4,0,0,0,3291.9,0,0,0,269.36,0,0,0,0,0,0,0,0,0,0,0,0,0,0,0,0,0,VALID,0,0,0,0,0,1,0,0,0,0,0,0,0,0,0,0,0,0,0,0,0.05,381.82,2,0,0.14,0.14,209,7.14,0.14,0.14,28.68,FLYING,CF1-J,0:/Integrated Flight Computer/aircraft/cf1_j_cfg.ks (inferred preloaded)
28.96,APPROACH,FLY_TO_FIX,81.48,74,-7.48,1250.81,2.78,8.78,7.03,281.53,0.113,0,0,-9.43,1,0.6,4.5,2.855,0.35,0.0168,0.4,18.855,51.539,18.855,7.536,1,281.62,2.275,0,0,1.95,0.08,0,2.27,281.62,0,0,0,0,0,0,0,45.989,0,0,0,4,0,0,0,3290.17,0,0,0,269.36,0,0,0,0,0,0,0,0,0,0,0,0,0,0,0,0,0,VALID,0,0,0,0,0,1,0,0,0,0,0,0,0,0,0,0,0,0,0,0,0.04,382.05,2,0,0.14,0.14,211,7.14,0.14,0.14,28.96,FLYING,CF1-J,0:/Integrated Flight Computer/aircraft/cf1_j_cfg.ks (inferred preloaded)
29.24,APPROACH,FLY_TO_FIX,81.06,74,-7.06,1251.6,2.78,8.89,7.13,281.54,0.108,0,0,-9.336,1,0.6,4.5,2.769,0.35,0.0168,0.4,17.588,51.665,17.588,7.117,1,281.62,2.273,0,0,1.96,0.08,0,2.27,281.62,0,0,0,0,0,0,0,45.965,0,0,0,4,0,0,0,3288.45,0,0,0,269.36,0,0,0,0,0,0,0,0,0,0,0,0,0,0,0,0,0,VALID,0,0,0,0,0,1,0,0,0,0,0,0,0,0,0,0,0,0,0,0,0.04,382.28,2,0,0.14,0.14,213,7.14,0.14,0.14,29.24,FLYING,CF1-J,0:/Integrated Flight Computer/aircraft/cf1_j_cfg.ks (inferred preloaded)
29.52,APPROACH,FLY_TO_FIX,80.65,74,-6.65,1252.39,2.76,9,7.24,281.54,0.103,0,0,-9.242,1,0.6,4.5,2.686,0.35,0.0168,0.4,16.328,51.789,16.328,6.702,1,281.62,2.27,0,0,1.96,0.08,0,2.27,281.62,0,0,0,0,0,0,0,45.94,0,0,0,4,0,0,0,3286.74,0,0,0,269.36,0,0,0,0,0,0,0,0,0,0,0,0,0,0,0,0,0,VALID,0,0,0,0,0,1,0,0,0,0,0,0,0,0,0,0,0,0,0,0,0.04,382.51,2,0,0.14,0.14,215,7.14,0.14,0.14,29.52,FLYING,CF1-J,0:/Integrated Flight Computer/aircraft/cf1_j_cfg.ks (inferred preloaded)
29.8,APPROACH,FLY_TO_FIX,80.24,74,-6.24,1253.18,2.75,9.11,7.35,281.54,0.099,0,0,-9.15,1,0.6,4.5,2.608,0.35,0.0168,0.4,15.069,51.913,15.069,6.29,1,281.62,2.271,0,0,1.96,0.08,0,2.27,281.62,0,0,0,0,0,0,0,45.916,0,0,0,4,0,0,0,3285.03,0,0,0,269.36,0,0,0,0,0,0,0,0,0,0,0,0,0,0,0,0,0,VALID,0,0,0,0,0,1,0,0,0,0,0,0,0,0,0,0,0,0,0,0,0,382.73,2,0,0.14,0.14,217,7.14,0.14,0.14,29.8,FLYING,CF1-J,0:/Integrated Flight Computer/aircraft/cf1_j_cfg.ks (inferred preloaded)
30.08,APPROACH,FLY_TO_FIX,79.83,74,-5.83,1253.97,2.75,9.23,7.46,281.54,0.095,0,0,-9.059,1,0.6,4.5,2.533,0.35,0.0168,0.4,13.809,52.036,13.809,5.879,1,281.62,2.269,0,0,1.97,0.07,0,2.27,281.62,0,0,0,0,0,0,0,45.892,0,0,0,4,0,0,0,3283.34,0,0,0,269.36,0,0,0,0,0,0,0,0,0,0,0,0,0,0,0,0,0,VALID,0,0,0,0,0,1,0,0,0,0,0,0,0,0,0,0,0,0,0,0,0,382.96,2,0,0.14,0.14,219,7.14,0.14,0.14,30.08,FLYING,CF1-J,0:/Integrated Flight Computer/aircraft/cf1_j_cfg.ks (inferred preloaded)
30.36,APPROACH,FLY_TO_FIX,79.42,74,-5.42,1254.76,2.74,9.34,7.56,281.54,0.091,0,0,-8.969,1,0.6,4.5,2.463,0.35,0.0168,0.4,12.545,52.16,12.545,5.468,1,281.62,2.266,0,0,1.97,0.07,0,2.27,281.62,0,0,0,0,0,0,0,45.867,0,0,0,4,0,0,0,3281.65,0,0,0,269.36,0,0,0,0,0,0,0,0,0,0,0,0,0,0,0,0,0,VALID,0,0,0,0,0,1,0,0,0,0,0,0,0,0,0,0,0,0,0,0,0,383.18,2,0,0.14,0.14,221,7.14,0.14,0.14,30.36,FLYING,CF1-J,0:/Integrated Flight Computer/aircraft/cf1_j_cfg.ks (inferred preloaded)
30.64,APPROACH,FLY_TO_FIX,79.01,74,-5.01,1255.54,2.72,9.45,7.67,281.54,0.088,0,0,-10.413,1,0.6,4.5,2.398,0.35,0.0168,0.4,11.273,52.283,11.273,5.058,1,281.62,2.265,0,0,1.98,0.07,0,2.27,281.62,0,0,0,0,0,0,0,45.843,0,0,0,4,0,0,0,3279.97,0,0,0,269.36,0,0,0,0,0,0,0,0,0,0,0,0,0,0,0,0,0,VALID,0,0,0,0,0,1,0,0,0,0,0,0,0,0,0,0,0,0,0,0,0,383.41,2,0,0.14,0.14,223,7.14,0.14,0.14,30.64,FLYING,CF1-J,0:/Integrated Flight Computer/aircraft/cf1_j_cfg.ks (inferred preloaded)
30.92,APPROACH,FLY_TO_FIX,78.59,74,-4.59,1256.32,2.72,9.57,7.79,281.55,0.085,0,0,-11.743,1,0.6,4.5,2.338,0.35,0.0168,0.4,9.991,52.406,9.991,4.646,1,281.62,2.265,0,0,1.98,0.07,0,2.27,281.62,0,0,0,0,0,0,0,45.819,0,0,0,4,0,0,0,3278.3,0,0,0,269.36,0,0,0,0,0,0,0,0,0,0,0,0,0,0,0,0,0,VALID,0,0,0,0,0,1,0,0,0,0,0,0,0,0,0,0,0,0,0,0,0,383.63,2,0,0.14,0.14,225,7.14,0.14,0.14,30.92,FLYING,CF1-J,0:/Integrated Flight Computer/aircraft/cf1_j_cfg.ks (inferred preloaded)
31.2,APPROACH,FLY_TO_FIX,78.18,74,-4.18,1257.09,2.71,9.69,7.92,281.55,0.082,0.0035,0,-12.957,1,0.6,4.5,2.282,0.35,0.0168,0.4,8.697,52.531,8.697,4.232,1,281.62,2.266,0,0,1.98,0.07,0,2.27,281.62,0,0,0,0,0,0,0,45.796,0,0,0,4,0,0,0,3276.64,0,0,0,269.36,0,0,0,0,0,0,0,0,0,0,0,0,0,0,0,0,0,VALID,0,0,0,0,0,1,0,0,0,0,0,0,0,0,0,0,0,0,0,0,0,383.86,2,0,0.14,0.14,227,7.14,0.14,0.14,31.2,FLYING,CF1-J,0:/Integrated Flight Computer/aircraft/cf1_j_cfg.ks (inferred preloaded)
31.48,APPROACH,FLY_TO_FIX,77.76,74,-3.76,1257.87,2.69,9.81,8.04,281.55,0.08,0.0153,0,-14.054,1,0.6,4.5,2.231,0.35,0.0168,0.4,7.389,52.655,7.389,3.815,1,281.62,2.266,0,0,1.98,0.07,0,2.27,281.62,0,0,0,0,0,0,0,45.772,0,0,0,4,0,0,0,3274.98,0,0,0,269.36,0,0,0,0,0,0,0,0,0,0,0,0,0,0,0,0,0,VALID,0,0,0,0,0,1,0,0,0,0,0,0,0,0,0,0,0,0,0,0,0.03,384.09,2,0,0.14,0.14,229,7.14,0.14,0.14,31.48,FLYING,CF1-J,0:/Integrated Flight Computer/aircraft/cf1_j_cfg.ks (inferred preloaded)
31.76,APPROACH,FLY_TO_FIX,77.34,74,-3.34,1258.64,2.68,9.94,8.17,281.55,0.077,0.0301,0,-15.035,1,0.6,4.5,2.184,0.35,0.0168,0.4,6.066,52.781,6.066,3.396,1,281.62,2.265,0,0,1.98,0.07,0,2.27,281.62,0,0,0,0,0,0,0,45.748,0,0,0,4,0,0,0,3273.34,0,0,0,269.36,0,0,0,0,0,0,0,0,0,0,0,0,0,0,0,0,0,VALID,0,0,0,0,0,1,0,0,0,0,0,0,0,0,0,0,0,0,0,0,0.14,384.32,2,0,0.14,0.14,231,7.14,0.14,0.14,31.76,FLYING,CF1-J,0:/Integrated Flight Computer/aircraft/cf1_j_cfg.ks (inferred preloaded)
32.04,APPROACH,FLY_TO_FIX,76.92,74,-2.92,1259.41,2.67,10.07,8.29,281.55,0.076,0.0474,0,-15.897,1,0.6,4.5,2.141,0.35,0.0168,0.4,4.729,52.908,4.729,2.975,1,281.62,2.265,0,0,1.98,0.07,0,2.27,281.62,0,0,0,0,0,0,0,45.725,0,0,0,4,0,0,0,3271.7,0,0,0,269.36,0,0,0,0,0,0,0,0,0,0,0,0,0,0,0,0,0,VALID,0,0,0,0,0,1,0,0,0,0,0,0,0,0,0,0,0,0,0,0,0.35,384.55,2,0,0.14,0.14,233,7.14,0.14,0.14,32.04,FLYING,CF1-J,0:/Integrated Flight Computer/aircraft/cf1_j_cfg.ks (inferred preloaded)
32.32,APPROACH,FLY_TO_FIX,76.5,74,-2.5,1260.17,2.65,10.2,8.42,281.55,0.074,0.0669,0,-16.641,1,0.6,4.5,2.103,0.35,0.0168,0.4,3.38,53.035,3.38,2.552,1,281.62,2.264,0,0,1.99,0.07,0,2.27,281.62,0,0,0,0,0,0,0,45.702,0,0,0,4,0,0,0,3270.07,0,0,0,269.36,0,0,0,0,0,0,0,0,0,0,0,0,0,0,0,0,0,VALID,0,0,0,0,0,1,0,0,0,0,0,0,0,0,0,0,0,0,0,0,0.66,384.78,2,0,0.14,0.14,235,7.14,0.14,0.14,32.32,FLYING,CF1-J,0:/Integrated Flight Computer/aircraft/cf1_j_cfg.ks (inferred preloaded)
32.6,APPROACH,FLY_TO_FIX,76.07,74,-2.07,1260.93,2.64,10.33,8.55,281.55,0.071,0.0882,0,-17.267,1,0.6,4.5,2.068,0.35,0.0168,0.4,0,53.162,0,2.127,0,281.62,2.264,0,0,1.99,0.07,0,2.27,281.62,0,0,0,0,0,0,0,45.679,0,0,0,4,0,0,0,3268.45,0,0,0,269.36,0,0,0,0,0,0,0,0,0,0,0,0,0,0,0,0,0,VALID,0,0,0,0,0,1,0,0,0,0,0,0,0,0,0,0,0,0,0,0,1.1,385.01,2,0,0.14,0.14,237,7.14,0.14,0.14,32.6,FLYING,CF1-J,0:/Integrated Flight Computer/aircraft/cf1_j_cfg.ks (inferred preloaded)
32.88,APPROACH,FLY_TO_FIX,75.65,74,-1.65,1261.69,2.63,10.46,8.68,281.55,0.07,0.1111,0,-17.773,1,0.6,4.5,2.068,0.35,0.0168,0.4,0,53.29,0,1.701,0,281.62,2.265,0,0,1.99,0.07,0,2.27,281.62,0,0,0,0,0,0,0,45.656,0,0,0,4,0,0,0,3266.84,0,0,0,269.36,0,0,0,0,0,0,0,0,0,0,0,0,0,0,0,0,0,VALID,0,0,0,0,0,1,0,0,0,0,0,0,0,0,0,0,0,0,0,0,1.67,385.25,2,0,0.14,0.14,239,7.14,0.14,0.14,32.88,FLYING,CF1-J,0:/Integrated Flight Computer/aircraft/cf1_j_cfg.ks (inferred preloaded)
33.16,APPROACH,FLY_TO_FIX,75.22,74,-1.22,1262.45,2.61,10.59,8.81,281.55,0.067,0.1354,0,-18.16,1,0.6,4.5,2.068,0.35,0.0168,0.4,0,53.417,0,1.276,0,281.62,2.265,0,0,1.99,0.07,0,2.27,281.62,0,0,0,0,0,0,0,45.633,0,0,0,4,0,0,0,3265.24,0,0,0,269.36,0,0,0,0,0,0,0,0,0,0,0,0,0,0,0,0,0,VALID,0,0,0,0,0,1,0,0,0,0,0,0,0,0,0,0,0,0,0,0,2.37,385.48,2,0,0.14,0.14,241,7.14,0.14,0.14,33.16,FLYING,CF1-J,0:/Integrated Flight Computer/aircraft/cf1_j_cfg.ks (inferred preloaded)
33.44,APPROACH,FLY_TO_FIX,74.8,74,-0.8,1263.2,2.6,10.73,8.95,281.55,0.065,0.1615,0,-18.428,1,0.6,4.5,2.068,0.35,0.0168,0.4,0,53.545,0,0.851,0,281.62,2.265,0,0,1.99,0.06,0,2.27,281.62,0,0,0,0,0,0,0,45.61,0,0,0,4,0,0,0,3263.65,0,0,0,269.36,0,0,0,0,0,0,0,0,0,0,0,0,0,0,0,0,0,VALID,0,0,0,0,0,1,0,0,0,0,0,0,0,0,0,0,0,0,0,0,3.23,385.71,2,0,0.14,0.14,243,7.14,0.14,0.14,33.44,FLYING,CF1-J,0:/Integrated Flight Computer/aircraft/cf1_j_cfg.ks (inferred preloaded)
33.72,APPROACH,FLY_TO_FIX,74.37,74,-0.37,1263.95,2.59,10.87,9.09,281.55,0.064,0.1892,0,-18.577,1,0.6,4.5,2.068,0.35,0.0168,0.4,0,53.672,0,0.425,0,281.62,2.266,0,0,1.99,0.06,0,2.27,281.62,0,0,0,0,0,0,0,45.587,0,0,0,4,0,0,0,3262.07,0,0,0,269.36,0,0,0,0,0,0,0,0,0,0,0,0,0,0,0,0,0,VALID,0,0,0,0,0,1,0,0,0,0,0,0,0,0,0,0,0,0,0,0,4.24,385.95,2,0,0.14,0.14,245,7.14,0.14,0.14,33.72,FLYING,CF1-J,0:/Integrated Flight Computer/aircraft/cf1_j_cfg.ks (inferred preloaded)
34,APPROACH,FLY_TO_FIX,73.95,74,0.05,1264.69,2.57,11,9.22,281.55,0.063,0.2182,0,-18.606,1,0.6,4.5,2.068,0.35,0.0168,0.4,0,53.8,0,0.001,0,281.62,2.266,0,0,1.99,0.06,0,2.27,281.62,0,0,0,0,0,0,0,45.565,0,0,0,4,0,0,0,3260.49,0,0,0,269.36,0,0,0,0,0,0,0,0,0,0,0,0,0,0,0,0,0,VALID,0,0,0,0,0,1,0,0,0,0,0,0,0,0,0,0,0,0,0,0,5.41,386.18,2,0,0.14,0.14,247,7.14,0.14,0.14,34,FLYING,CF1-J,0:/Integrated Flight Computer/aircraft/cf1_j_cfg.ks (inferred preloaded)
34.28,APPROACH,FLY_TO_FIX,73.53,74,0.47,1265.43,2.56,11.14,9.36,281.55,0.061,0.2485,0,-18.518,1,0.6,4.5,2.068,0.35,0.0168,0.4,0,53.927,0,-0.422,0,281.62,2.267,0,0,1.99,0.06,0,2.27,281.62,0,0,0,0,0,0,0,45.542,0,0,0,4,0,0,0,3258.93,0,0,0,269.36,0,0,0,0,0,0,0,0,0,0,0,0,0,0,0,0,0,VALID,0,0,0,0,0,1,0,0,0,0,0,0,0,0,0,0,0,0,0,0,6.75,386.41,2,0,0.14,0.14,249,7.14,0.14,0.14,34.28,FLYING,CF1-J,0:/Integrated Flight Computer/aircraft/cf1_j_cfg.ks (inferred preloaded)
34.56,APPROACH,FLY_TO_FIX,73.11,74,0.89,1266.17,2.54,11.28,9.5,281.55,0.059,0.2797,0,-18.311,1,0.6,4.5,2.068,0.35,0.0168,0.4,0,54.053,0,-0.843,0,281.62,2.267,0,0,1.99,0.06,0,2.27,281.62,0,0,0,0,0,0,0,45.52,0,0,0,4,0,0,0,3257.37,0,0,0,269.36,0,0,0,0,0,0,0,0,0,0,0,0,0,0,0,0,0,VALID,0,0,0,0,0,1,0,0,0,0,0,0,0,0,0,0,0,0,0,0,8.27,386.64,2,0,0.14,0.14,251,7.14,0.14,0.14,34.56,FLYING,CF1-J,0:/Integrated Flight Computer/aircraft/cf1_j_cfg.ks (inferred preloaded)
34.84,APPROACH,FLY_TO_FIX,72.69,74,1.31,1266.9,2.53,11.42,9.64,281.55,0.057,0.3118,0,-17.988,1,0.6,4.5,2.068,0.35,0.0168,0.4,0,54.178,0,-1.26,0,281.62,2.268,0,0,1.99,0.06,0,2.27,281.62,0,0,0,0,0,0,0,45.498,0,0,0,4,0,0,0,3255.82,0,0,0,269.36,0,0,0,0,0,0,0,0,0,0,0,0,0,0,0,0,0,VALID,0,0,0,0,0,1,0,0,0,0,0,0,0,0,0,0,0,0,0,0,9.97,386.87,2,0,0.14,0.14,253,7.14,0.14,0.14,34.84,FLYING,CF1-J,0:/Integrated Flight Computer/aircraft/cf1_j_cfg.ks (inferred preloaded)
35.12,APPROACH,FLY_TO_FIX,72.28,74,1.72,1267.63,2.52,11.56,9.78,281.55,0.056,0.3445,0,-17.548,1,0.6,4.5,2.068,0.35,0.0168,0.4,0,54.302,0,-1.673,0,281.62,2.268,0,0,1.99,0.06,0,2.27,281.62,0,0,0,0,0,0,0,45.476,0,0,0,4,0,0,0,3254.29,0,0,0,269.36,0,0,0,0,0,0,0,0,0,0,0,0,0,0,0,0,0,VALID,0,0,0,0,0,1,0,0,0,0,0,0,0,0,0,0,0,0,0,0,11.85,387.1,2,0,0.14,0.14,255,7.14,0.14,0.14,35.12,FLYING,CF1-J,0:/Integrated Flight Computer/aircraft/cf1_j_cfg.ks (inferred preloaded)
35.4,APPROACH,FLY_TO_FIX,71.87,74,2.13,1268.35,2.5,11.7,9.92,281.55,0.054,0.3778,0,-16.994,1,0.6,4.5,2.068,0.35,0.0168,0.4,0,54.424,0,-2.08,0,281.62,2.269,0,0,1.99,0.06,0,2.27,281.62,0,0,0,0,0,0,0,45.454,0,0,0,4,0,0,0,3252.76,0,0,0,269.36,0,0,0,0,0,0,0,0,0,0,0,0,0,0,0,0,0,VALID,0,0,0,0,0,1,0,0,0,0,0,0,0,0,0,0,0,0,0,0,13.91,387.32,2,0,0.14,0.14,257,7.14,0.14,0.14,35.4,FLYING,CF1-J,0:/Integrated Flight Computer/aircraft/cf1_j_cfg.ks (inferred preloaded)
35.68,APPROACH,FLY_TO_FIX,71.47,74,2.53,1269.07,2.49,11.84,10.06,281.55,0.052,0.4115,0,-16.327,1,0.6,4.5,2.068,0.35,0.0168,0.4,0,54.545,0,-2.482,0,281.62,2.27,0,0,1.99,0.06,0,2.27,281.62,0,0,0,0,0,0,0,45.432,0,0,0,4,0,0,0,3251.23,0,0,0,269.36,0,0,0,0,0,0,0,0,0,0,0,0,0,0,0,0,0,VALID,0,0,0,0,0,1,0,0,0,0,0,0,0,0,0,0,0,0,0,0,16.16,387.54,2,0,0.14,0.14,259,7.14,0.14,0.14,35.68,FLYING,CF1-J,0:/Integrated Flight Computer/aircraft/cf1_j_cfg.ks (inferred preloaded)
35.96,APPROACH,FLY_TO_FIX,71.07,74,2.93,1269.79,2.48,11.98,10.2,281.55,0.05,0.4455,0,-15.549,1,0.6,4.5,2.068,0.35,0.0168,0.4,0,54.663,0,-2.877,0,281.62,2.27,0,0,1.99,0.06,0,2.27,281.62,0,0,0,0,0,0,0,45.411,0,0,0,4,0,0,0,3249.72,0,0,0,269.36,0,0,0,0,0,0,0,0,0,0,0,0,0,0,0,0,0,VALID,0,0,0,0,0,1,0,0,0,0,0,0,0,0,0,0,0,0,0,0,18.58,387.75,2,0,0.14,0.14,261,7.14,0.14,0.14,35.96,FLYING,CF1-J,0:/Integrated Flight Computer/aircraft/cf1_j_cfg.ks (inferred preloaded)
36.24,APPROACH,FLY_TO_FIX,70.69,74,3.31,1270.5,2.46,12.11,10.34,281.55,0.049,0.4797,0,-14.662,1,0.6,4.5,2.068,0.35,0.0168,0.4,0,54.779,0,-3.264,0,281.62,2.27,0,0,1.99,0.06,0,2.27,281.62,0,0,0,0,0,0,0,45.389,0,0,0,4,0,0,0,3248.21,0,0,0,269.36,0,0,0,0,0,0,0,0,0,0,0,0,0,0,0,0,0,VALID,0,0,0,0,0,1,0,0,0,0,0,0,0,0,0,0,0,0,0,0,21.19,387.96,2,0,0.14,0.14,263,7.14,0.14,0.14,36.24,FLYING,CF1-J,0:/Integrated Flight Computer/aircraft/cf1_j_cfg.ks (inferred preloaded)
36.52,APPROACH,FLY_TO_FIX,70.31,74,3.69,1271.21,2.45,12.25,10.47,281.55,0.047,0.5138,0,-13.668,1,0.6,4.5,2.068,0.35,0.0168,0.4,0,54.893,0,-3.642,0,281.62,2.27,0,0,2,0.06,0,2.27,281.62,0,0,0,0,0,0,0,45.368,0,0,0,4,0,0,0,3246.71,0,0,0,269.36,0,0,0,0,0,0,0,0,0,0,0,0,0,0,0,0,0,VALID,0,0,0,0,0,1,0,0,0,0,0,0,0,0,0,0,0,0,0,0,23.98,388.16,2,0,0.14,0.14,265,7.14,0.14,0.14,36.52,FLYING,CF1-J,0:/Integrated Flight Computer/aircraft/cf1_j_cfg.ks (inferred preloaded)
36.8,APPROACH,FLY_TO_FIX,69.94,74,4.06,1271.91,2.44,12.38,10.6,281.55,0.046,0.5479,0,-12.571,1,0.6,4.5,2.068,0.35,0.0168,0.4,0,55,0,-4.011,0,281.62,2.27,0,0,2,0.07,0,2.27,281.62,0,0,0,0,0,0,0,45.346,0,0,0,4,0,0,0,3245.22,0,0,0,269.36,0,0,0,0,0,0,0,0,0,0,0,0,0,0,0,0,0,VALID,0,0,0,0,0,1,0,0,0,0,0,0,0,0,0,0,0,0,0,0,26.95,388.36,2,0,0.14,0.14,267,7.14,0.14,0.14,36.8,FLYING,CF1-J,0:/Integrated Flight Computer/aircraft/cf1_j_cfg.ks (inferred preloaded)
37.08,APPROACH,FLY_TO_FIX,69.59,74,4.41,1272.61,2.43,12.51,10.72,281.55,0.044,0.5818,0,-11.373,1,0.6,4.5,2.068,0.35,0.0168,0.4,0,55,0,-4.369,0,281.62,2.27,0,0,2,0.07,0,2.27,281.62,0,0,0,0,0,0,0,45.325,0,0,0,4,0,0,0,3243.74,0,0,0,269.36,0,0,0,0,0,0,0,0,0,0,0,0,0,0,0,0,0,VALID,0,0,0,0,0,1,0,0,0,0,0,0,0,0,0,0,0,0,0,0,30.09,388.55,2,0,0.14,0.14,269,7.14,0.14,0.14,37.08,FLYING,CF1-J,0:/Integrated Flight Computer/aircraft/cf1_j_cfg.ks (inferred preloaded)
37.36,APPROACH,FLY_TO_FIX,69.24,74,4.76,1273.31,2.42,12.63,10.84,281.55,0.043,0.6152,0,-10.076,1,0.6,4.5,2.068,0.35,0.0168,0.4,0,55,0,-4.715,0,281.62,2.269,0,0,2,0.07,0,2.27,281.62,0,0,0,0,0,0,0,45.304,0,0,0,4,0,0,0,3242.26,0,0,0,269.36,0,0,0,0,0,0,0,0,0,0,0,0,0,0,0,0,0,VALID,0,0,0,0,0,1,0,0,0,0,0,0,0,0,0,0,0,0,0,0,33.4,388.73,2,0,0.14,0.14,271,7.14,0.14,0.14,37.36,FLYING,CF1-J,0:/Integrated Flight Computer/aircraft/cf1_j_cfg.ks (inferred preloaded)
37.64,APPROACH,FLY_TO_FIX,68.91,74,5.09,1274.01,2.41,12.75,10.96,281.55,0.042,0.6482,0,-8.686,1,0.6,4.5,2.068,0.35,0.0168,0.4,0,55,0,-5.048,0,281.62,2.269,0,0,2,0.07,0,2.27,281.62,0,0,0,0,0,0,0,45.283,0,0,0,4,0,0,0,3240.79,0,0,0,269.36,0,0,0,0,0,0,0,0,0,0,0,0,0,0,0,0,0,VALID,0,0,0,0,0,1,0,0,0,0,0,0,0,0,0,0,0,0,0,0,36.88,388.91,2,0,0.14,0.14,273,7.14,0.14,0.14,37.64,FLYING,CF1-J,0:/Integrated Flight Computer/aircraft/cf1_j_cfg.ks (inferred preloaded)
37.92,APPROACH,FLY_TO_FIX,68.59,74,5.41,1274.7,2.4,12.86,11.07,281.55,0.04,0.6806,0,-7.205,1,0.6,4.5,2.068,0.35,0.0168,0.4,0,55,0,-5.368,0,281.62,2.268,0,0,2.01,0.07,0,2.27,281.62,0,0,0,0,0,0,0,45.262,0,0,0,4,0,0,0,3239.33,0,0,0,269.36,0,0,0,0,0,0,0,0,0,0,0,0,0,0,0,0,0,VALID,0,0,0,0,0,1,0,0,0,0,0,0,0,0,0,0,0,0,0,0,40.51,389.07,2,0,0.14,0.14,275,7.14,0.14,0.14,37.92,FLYING,CF1-J,0:/Integrated Flight Computer/aircraft/cf1_j_cfg.ks (inferred preloaded)
