t_s,phase,subphase,ias_ms,vapp_ms,spd_err_ms,agl_m,vs_ms,pitch_deg,aoa_deg,hdg_deg,bank_deg,thr_cmd,thr_cur,thr_intg,at_gain,at_tau_s,at_a_up,at_a_dn,at_kp_thr,at_ki_spd,at_thr_slew,aa_hdg_cmd_deg,aa_fpa_cmd_deg,aa_fbw,aa_dir,actual_fpa_deg,ftf_hdg_err_deg,ftf_fix_idx,kos_steer_pit_deg,kos_steer_hdg_deg,aa_dir_vx,aa_dir_vy,aa_dir_vz,aa_dir_pitch_deg,aa_dir_hdg_deg,ils_loc_m,ils_gs_m,ils_dist_km,loc_corr_deg,gs_corr_deg,flare_fpa_cmd,flare_tgt_vs,flare_frac,steer_hdg_deg,steer_blend,ro_loc_corr_deg,ro_hdg_err_deg,ro_yaw_tgt,ro_yaw_scale,ro_yaw_gate,yaw_cmd,roll_cmd,pitch_cmd,ro_pitch_tgt_deg,ro_pitch_err_deg,ro_pitch_ff,ro_roll_assist,flaps_cur,flaps_tgt,asc_j_ab,asc_j_rk,asc_validity,asc_q_pa,asc_q_raw_pa,asc_mach,asc_apo_m,asc_drag_n,asc_w_prop,asc_edot_aero,asc_edot_orb,asc_pitch_bias,asc_blend,asc_spooling,asc_ab_thr_ratio,asc_ab_t_now,asc_ab_t_avail,asc_ab_ign_on,asc_ab_flameouts,asc_rk_t_now,asc_rk_t_avail,asc_rk_ign_on,asc_rk_flameouts,ship_thrust,ship_avail_thrust,ship_ign_on,ship_flameouts,ifc_raw_dt_s,ifc_dt_s,ifc_loop_n,ifc_hz_est,ifc_raw_dt_max_s,ifc_raw_dt_min_s,phase_el_s,status,craft_name,cfg_file
0.1,APPROACH,ILS_TRACK,68.87,73,4.13,2265.87,-3.13,3.29,5.61,271.4,1.638,0,0,0,0,0,0,0,0,0,0,0,0,1,0,-2.6,0,0,0,90,0,0,0,0,0,0,0,33.953,0,0,0,0,0,271.34,0,0,0,0,0,0,0,0,0,0,0,0,0,0,0,0,0,VALID,0,0,0,0,0,1,0,0,0,0,0,0,0,0,0,0,0,0,0,0,209.63,365.64,2,0,0.1,0.1,1,3.7,0.1,0.02,0.1,FLYING,CF1-F,0:/Integrated Flight Computer/aircraft/cf1_f_cfg.ks (inferred preloaded)
0.4,APPROACH,ILS_TRACK,69.61,73,3.39,2264.39,-4.5,1.5,4.58,271.52,1.818,0,0,1.014,1,0.6,1.026,0.75,0.35,0.0168,0.4,270.38,0.007,0,1,-3.62,0,0,4.83,270.38,0.9741,0.0066,-0.226,4.63,270.38,-1.11,416.29,33.93,-0.016,0,0,0,0,271.34,0,0,0,0,0,0,0,0,0,0,0,0,0,1,1,0,0,VALID,0,0,0,0,0,1,0,0,0,0,0,0,0,0,0,0,0,0,0,0,194.58,365.21,2,0,0.08,0.08,4,10,0.1,0.08,0.4,FLYING,CF1-F,0:/Integrated Flight Computer/aircraft/cf1_f_cfg.ks (inferred preloaded)
0.66,APPROACH,ILS_TRACK,70.25,73,2.75,2262.9,-5.81,0.62,4.57,271.45,1.599,0,0,1.782,1,0.6,1.824,0.75,0.35,0.0168,0.4,270.33,0.014,0,1,-4.65,0,0,4.45,270.35,0.9738,0.0057,-0.2275,4.55,270.33,-1,415.93,33.909,-0.066,0,0,0,0,271.34,0,0,0,0,0,0,0,0,0,0,0,0,0,1,1,0,0,VALID,0,0,0,0,0,1,0,0,0,0,0,0,0,0,0,0,0,0,0,0,182.12,364.85,2,0,0.1,0.1,7,11.54,0.1,0.06,0.66,FLYING,CF1-F,0:/Integrated Flight Computer/aircraft/cf1_f_cfg.ks (inferred preloaded)
1,APPROACH,ILS_TRACK,71.07,73,1.93,2260.76,-7.28,1.27,6.2,271.16,1.211,0,0,2.54,1,0.6,2.618,0.75,0.35,0.0168,0.4,270.3,0.025,0,1,-5.8,0,0,5.55,270.32,0.9796,0.005,-0.2007,6.12,270.3,-0.84,415.29,33.881,-0.104,0,0,0,0,271.34,0,0,0,0,0,0,0,0,0,0,0,0,0,1,1,0,0,VALID,0,0,0,0,0,1,0,0,0,0,0,0,0,0,0,0,0,0,0,0,167.05,364.42,2,0,0.1,0.1,11,11.76,0.1,0.06,1,FLYING,CF1-F,0:/Integrated Flight Computer/aircraft/cf1_f_cfg.ks (inferred preloaded)
1.32,APPROACH,ILS_TRACK,71.74,73,1.26,2258.36,-7.97,1.67,7.04,270.96,1.08,0,0,3.019,1,0.6,3.186,0.75,0.35,0.0168,0.4,270.29,0.037,0,1,-6.32,0,0,6.98,270.31,0.9829,0.0048,-0.1842,7.08,270.29,-0.67,414.32,33.854,-0.114,0,0,0,0,271.34,0,0,0,0,0,0,0,0,0,0,0,0,0,1,1,0,0,VALID,0,0,0,0,0,1,0,0,0,0,0,0,0,0,0,0,0,0,0,0,154.03,364.08,2,0,0.1,0.1,15,12.5,0.1,0.06,1.32,FLYING,CF1-F,0:/Integrated Flight Computer/aircraft/cf1_f_cfg.ks (inferred preloaded)
1.66,APPROACH,ILS_TRACK,72.38,73,0.62,2255.26,-8.73,0.21,6.02,270.89,0.994,0,0,3.309,1,0.6,3.592,0.75,0.35,0.0168,0.4,270.29,0.052,0,1,-6.84,0,0,6.55,270.27,0.9798,0.0049,-0.2002,6.16,270.29,-0.48,412.75,33.825,-0.108,0,0,0,0,271.34,0,0,0,0,0,0,0,0,0,0,0,0,0,1,1,0,0,VALID,0,0,0,0,0,1,0,0,0,0,0,0,0,0,0,0,0,0,0,0,141.33,363.79,2,0,0.1,0.1,19,11.76,0.1,0.06,1.66,FLYING,CF1-F,0:/Integrated Flight Computer/aircraft/cf1_f_cfg.ks (inferred preloaded)
2,APPROACH,ILS_TRACK,73.06,73,-0.06,2251.78,-10.01,-1.54,5.06,270.88,0.927,0,0,3.364,1,0.6,3.882,0.75,0.35,0.0168,0.4,270.26,0.069,0,1,-7.74,0,0,5.29,270.27,0.976,0.0045,-0.2176,5.14,270.26,-0.29,410.81,33.796,-0.136,0,0,0,0,271.34,0,0,0,0,0,0,0,0,0,0,0,0,0,1,1,0,0,VALID,0,0,0,0,0,1,0,0,0,0,0,0,0,0,0,0,0,0,0,0,129.68,363.49,2,0,0.1,0.1,23,11.76,0.1,0.06,2,FLYING,CF1-F,0:/Integrated Flight Computer/aircraft/cf1_f_cfg.ks (inferred preloaded)
2.32,APPROACH,ILS_TRACK,73.71,73,-0.71,2248.31,-11.21,-1.88,5.47,270.9,0.851,0,0,3.297,1,0.6,4.088,0.75,0.35,0.0168,0.4,270.25,0.087,0,1,-8.6,0,0,5.35,270.27,0.9775,0.0042,-0.211,5.53,270.25,-0.09,408.79,33.769,-0.153,0,0,0,0,271.34,0,0,0,0,0,0,0,0,0,0,0,0,0,1,1,0,0,VALID,0,0,0,0,0,1,0,0,0,0,0,0,0,0,0,0,0,0,0,0,119.6,363.22,2,0,0.1,0.1,27,12.5,0.1,0.06,2.32,FLYING,CF1-F,0:/Integrated Flight Computer/aircraft/cf1_f_cfg.ks (inferred preloaded)
2.66,APPROACH,ILS_TRACK,74.37,73,-1.37,2244.36,-12.26,-1.58,6.42,270.95,0.947,0,0,3.232,1,0.6,4.235,0.75,0.35,0.0168,0.4,270.23,0.106,0,1,-9.33,0,0,6.11,270.23,0.9808,0.0039,-0.1951,6.46,270.23,0.13,406.39,33.739,-0.166,0,0,0,0,271.34,0,0,0,0,0,0,0,0,0,0,0,0,0,1,1,0,0,VALID,0,0,0,0,0,1,0,0,0,0,0,0,0,0,0,0,0,0,0,0,109.75,362.97,2,0,0.1,0.1,31,11.76,0.1,0.06,2.66,FLYING,CF1-F,0:/Integrated Flight Computer/aircraft/cf1_f_cfg.ks (inferred preloaded)
2.98,APPROACH,ILS_TRACK,74.92,73,-1.92,2240.44,-12.96,-0.92,7.48,270.98,0.778,0,0,3.167,1,0.6,4.34,0.75,0.35,0.0168,0.4,270.21,0.126,0,1,-9.79,0,0,7.14,270.22,0.9842,0.0034,-0.177,7.52,270.21,0.35,403.93,33.712,-0.194,0,0,0,0,271.34,0,0,0,0,0,0,0,0,0,0,0,0,0,1,1,0,0,VALID,0,0,0,0,0,1,0,0,0,0,0,0,0,0,0,0,0,0,0,0,101.24,362.78,2,0,0.1,0.1,35,12.5,0.1,0.06,2.98,FLYING,CF1-F,0:/Integrated Flight Computer/aircraft/cf1_f_cfg.ks (inferred preloaded)
3.32,APPROACH,ILS_TRACK,75.41,73,-2.41,2236.28,-13.38,0.98,9.63,270.99,0.514,0,0,3.105,1,0.6,4.414,0.75,0.35,0.0168,0.4,270.19,0.147,0,1,-10.06,0,0,8.88,270.2,0.99,0.0031,-0.1408,9.62,270.19,0.6,401.32,33.682,-0.209,0,0,0,0,271.34,0,0,0,0,0,0,0,0,0,0,0,0,0,1,1,0,0,VALID,0,0,0,0,0,1,0,0,0,0,0,0,0,0,0,0,0,0,0,0,92.94,362.67,2,0,0.1,0.1,39,11.76,0.1,0.06,3.32,FLYING,CF1-F,0:/Integrated Flight Computer/aircraft/cf1_f_cfg.ks (inferred preloaded)
3.66,APPROACH,ILS_TRACK,75.71,73,-2.71,2232.31,-12.99,4.09,12.51,270.98,0.295,0,0,3.043,1,0.6,4.467,0.75,0.35,0.0168,0.4,270.16,0.167,0,1,-9.78,0,0,11.7,270.19,0.9959,0.0025,-0.0905,12.53,270.16,0.87,398.9,33.652,-0.235,0,0,0,0,271.34,0,0,0,0,0,0,0,0,0,0,0,0,0,1,1,0,0,VALID,0,0,0,0,0,1,0,0,0,0,0,0,0,0,0,0,0,0,0,0,85.35,362.67,2,0,0.1,0.1,43,11.76,0.1,0.06,3.66,FLYING,CF1-F,0:/Integrated Flight Computer/aircraft/cf1_f_cfg.ks (inferred preloaded)
3.98,APPROACH,ILS_TRACK,75.77,73,-2.77,2228.67,-11.93,6.16,13.9,270.96,0.139,0,0,2.983,1,0.6,4.5,0.75,0.35,0.0168,0.4,270.16,0.185,0,1,-9,0,0,13.73,270.14,0.9979,0.0024,-0.0643,14.03,270.16,1.12,396.73,33.624,-0.238,0,0,0,0,271.34,0,0,0,0,0,0,0,0,0,0,0,0,0,1,1,0,0,VALID,0,0,0,0,0,1,0,0,0,0,0,0,0,0,0,0,0,0,0,0,78.8,362.8,2,0,0.1,0.1,47,12.5,0.1,0.06,3.98,FLYING,CF1-F,0:/Integrated Flight Computer/aircraft/cf1_f_cfg.ks (inferred preloaded)
4.3,APPROACH,ILS_TRACK,75.7,73,-2.7,2225.27,-10.8,7.48,14.5,270.93,0.003,0,0,2.923,1,0.6,4.5,0.75,0.35,0.0168,0.4,270.14,0.202,0,1,-8.18,0,0,14.48,270.14,0.9986,0.0021,-0.0534,14.67,270.14,1.38,394.78,33.596,-0.258,0,0,0,0,271.34,0,0,0,0,0,0,0,0,0,0,0,0,0,1,1,0,0,VALID,0,0,0,0,0,1,0,0,0,0,0,0,0,0,0,0,0,0,0,0,72.77,363.02,2,0,0.1,0.1,51,12.5,0.1,0.06,4.3,FLYING,CF1-F,0:/Integrated Flight Computer/aircraft/cf1_f_cfg.ks (inferred preloaded)
4.64,APPROACH,ILS_TRACK,75.51,73,-2.51,2222.01,-9.5,8.55,14.75,270.9,-0.114,0,0,2.865,1,0.6,4.5,0.75,0.35,0.0168,0.4,270.13,0.218,0,1,-7.23,0,0,14.92,270.13,0.9988,0.0019,-0.0483,14.96,270.13,1.66,393.06,33.566,-0.266,0,0,0,0,271.34,0,0,0,0,0,0,0,0,0,0,0,0,0,1,1,0,0,VALID,0,0,0,0,0,1,0,0,0,0,0,0,0,0,0,0,0,0,0,0,66.87,363.3,2,0,0.1,0.1,55,11.76,0.1,0.06,4.64,FLYING,CF1-F,0:/Integrated Flight Computer/aircraft/cf1_f_cfg.ks (inferred preloaded)
4.98,APPROACH,ILS_TRACK,75.24,73,-2.24,2219.14,-8.25,9.37,14.77,270.87,-0.21,0.0844,0,2.068,1,0.6,4.5,0.75,0.35,0.0168,0.4,270.12,0.233,0,1,-6.31,0,0,14.99,270.13,0.9989,0.0016,-0.0476,15,270.12,1.93,391.73,33.536,-0.284,0,0,0,0,271.34,0,0,0,0,0,0,0,0,0,0,0,0,0,1,1,0,0,VALID,0,0,0,0,0,1,0,0,0,0,0,0,0,0,0,0,0,0,0,0,62.03,363.61,2,0,0.1,0.1,59,11.76,0.1,0.06,4.98,FLYING,CF1-F,0:/Integrated Flight Computer/aircraft/cf1_f_cfg.ks (inferred preloaded)
5.3,APPROACH,ILS_TRACK,74.94,73,-1.94,2216.82,-7.12,10.09,14.78,270.84,-0.282,0.1663,0,1.41,1,0.6,4.5,0.75,0.35,0.0168,0.4,270.12,0.245,0,1,-5.48,0,0,15.02,270.13,0.9989,0.0017,-0.0473,15.02,270.12,2.18,390.86,33.508,-0.277,0,0,0,0,271.34,0,0,0,0,0,0,0,0,0,0,0,0,0,1,1,0,0,VALID,0,0,0,0,0,1,0,0,0,0,0,0,0,0,0,0,0,0,0,0,60.35,363.91,2,0,0.1,0.1,63,12.5,0.1,0.06,5.3,FLYING,CF1-F,0:/Integrated Flight Computer/aircraft/cf1_f_cfg.ks (inferred preloaded)
5.64,APPROACH,ILS_TRACK,74.59,73,-1.59,2214.74,-5.96,10.84,14.79,270.8,-0.345,0.2335,0,0.825,1,0.6,4.5,0.75,0.35,0.0168,0.4,270.12,0.255,0,1,-4.62,0,0,15.04,270.12,0.9989,0.0016,-0.047,15.04,270.12,2.43,390.3,33.479,-0.283,0,0,0,0,271.34,0,0,0,0,0,0,0,0,0,0,0,0,0,1,1,0,0,VALID,0,0,0,0,0,1,0,0,0,0,0,0,0,0,0,0,0,0,0,0,60.49,364.24,2,0,0.1,0.1,67,11.76,0.1,0.06,5.64,FLYING,CF1-F,0:/Integrated Flight Computer/aircraft/cf1_f_cfg.ks (inferred preloaded)
5.98,APPROACH,ILS_TRACK,74.2,73,-1.2,2213.03,-4.85,11.57,14.8,270.77,-0.396,0.2918,0,0.366,1,0.6,4.5,0.75,0.35,0.0168,0.4,270.12,0.264,0,1,-3.78,0,0,15.06,270.09,0.9989,0.0017,-0.0467,15.06,270.12,2.68,390.12,33.449,-0.28,0,0,0,0,271.34,0,0,0,0,0,0,0,0,0,0,0,0,0,1,1,0,0,VALID,0,0,0,0,0,1,0,0,0,0,0,0,0,0,0,0,0,0,0,0,61.16,364.58,2,0,0.1,0.1,71,11.76,0.1,0.06,5.98,FLYING,CF1-F,0:/Integrated Flight Computer/aircraft/cf1_f_cfg.ks (inferred preloaded)
6.32,APPROACH,ILS_TRACK,73.79,73,-0.79,2211.7,-3.78,12.27,14.81,270.74,-0.434,0.3463,0,0.044,1,0.6,4.5,0.75,0.35,0.0168,0.4,270.11,0.27,0,1,-2.98,0,0,15.07,270.11,0.9989,0.0016,-0.0465,15.08,270.11,2.91,390.31,33.42,-0.288,0,0,0,0,271.34,0,0,0,0,0,0,0,0,0,0,0,0,0,1,1,0,0,VALID,0,0,0,0,0,1,0,0,0,0,0,0,0,0,0,0,0,0,0,0,62.23,364.91,2,0,0.1,0.1,75,11.76,0.1,0.06,6.32,FLYING,CF1-F,0:/Integrated Flight Computer/aircraft/cf1_f_cfg.ks (inferred preloaded)
6.66,APPROACH,ILS_TRACK,73.36,73,-0.36,2210.71,-2.76,12.94,14.82,270.71,-0.463,0.3995,0,-0.134,1,0.6,4.5,0.75,0.35,0.0168,0.4,270.11,0.276,0,1,-2.2,0,0,15.09,270.13,0.9989,0.0016,-0.0463,15.09,270.11,3.14,390.83,33.391,-0.286,0,0,0,0,271.34,0,0,0,0,0,0,0,0,0,0,0,0,0,1,1,0,0,VALID,0,0,0,0,0,1,0,0,0,0,0,0,0,0,0,0,0,0,0,0,63.69,365.25,2,0,0.1,0.1,79,11.76,0.1,0.06,6.66,FLYING,CF1-F,0:/Integrated Flight Computer/aircraft/cf1_f_cfg.ks (inferred preloaded)
6.92,APPROACH,ILS_TRACK,73.02,73,-0.02,2210.18,-2.02,13.43,14.82,270.68,-0.478,0.4396,0,-0.17,1,0.6,4.5,0.75,0.35,0.0168,0.4,270.1,0.278,0,1,-1.63,0,0,15.1,270.12,0.9989,0.0014,-0.0462,15.1,270.1,3.3,391.45,33.368,-0.296,0,0,0,0,271.34,0,0,0,0,0,0,0,0,0,0,0,0,0,1,1,0,0,VALID,0,0,0,0,0,1,0,0,0,0,0,0,0,0,0,0,0,0,0,0,65.05,365.5,2,0,0.08,0.08,82,11.54,0.1,0.08,6.92,FLYING,CF1-F,0:/Integrated Flight Computer/aircraft/cf1_f_cfg.ks (inferred preloaded)
7.18,APPROACH,ILS_TRACK,72.67,73,0.33,2209.83,-1.31,13.91,14.83,270.66,-0.489,0.4797,0,-0.114,1,0.6,4.5,0.75,0.35,0.0168,0.4,270.12,0.28,0,1,-1.08,0,0,15.11,270.12,0.9989,0.0017,-0.0461,15.11,270.12,3.45,392.25,33.346,-0.279,0,0,0,0,271.34,0,0,0,0,0,0,0,0,0,0,0,0,0,1,1,0,0,VALID,0,0,0,0,0,1,0,0,0,0,0,0,0,0,0,0,0,0,0,0,66.61,365.75,2,0,0.1,0.1,85,11.54,0.1,0.06,7.18,FLYING,CF1-F,0:/Integrated Flight Computer/aircraft/cf1_f_cfg.ks (inferred preloaded)
7.44,APPROACH,ILS_TRACK,72.31,73,0.69,2209.67,-0.63,14.37,14.84,270.64,-0.496,0.5199,0,0.035,1,0.6,4.5,0.75,0.35,0.0168,0.4,270.1,0.281,0,1,-0.54,0,0,15.12,270.12,0.9989,0.0014,-0.046,15.12,270.1,3.6,393.22,33.324,-0.296,0,0,0,0,271.34,0,0,0,0,0,0,0,0,0,0,0,0,0,1,1,0,0,VALID,0,0,0,0,0,1,0,0,0,0,0,0,0,0,0,0,0,0,0,0,68.38,365.99,2,0,0.08,0.08,88,11.54,0.1,0.08,7.44,FLYING,CF1-F,0:/Integrated Flight Computer/aircraft/cf1_f_cfg.ks (inferred preloaded)
7.7,APPROACH,ILS_TRACK,71.94,73,1.06,2209.67,0.01,14.82,14.84,270.62,-0.501,0.56,0,0.278,1,0.6,4.5,0.75,0.35,0.0168,0.4,270.12,0.281,0,1,-0.03,0,0,15.12,270.13,0.9989,0.0017,-0.0459,15.12,270.12,3.73,394.36,33.302,-0.279,0,0,0,0,271.34,0,0,0,0,0,0,0,0,0,0,0,0,0,1,1,0,0,VALID,0,0,0,0,0,1,0,0,0,0,0,0,0,0,0,0,0,0,0,0,70.36,366.24,2,0,0.1,0.1,91,11.54,0.1,0.06,7.7,FLYING,CF1-F,0:/Integrated Flight Computer/aircraft/cf1_f_cfg.ks (inferred preloaded)
7.96,APPROACH,ILS_TRACK,71.57,73,1.43,2209.83,0.63,15.25,14.85,270.6,-0.502,0.6002,0,0.616,1,0.6,4.5,0.75,0.35,0.0168,0.4,270.12,0.28,0,1,0.47,0,0,15.13,270.12,0.9989,0.0017,-0.0458,15.13,270.12,3.86,395.65,33.281,-0.282,0,0,0,0,271.34,0,0,0,0,0,0,0,0,0,0,0,0,0,1,1,0,0,VALID,0,0,0,0,0,1,0,0,0,0,0,0,0,0,0,0,0,0,0,0,72.53,366.47,2,0,0.08,0.08,94,11.54,0.1,0.08,7.96,FLYING,CF1-F,0:/Integrated Flight Computer/aircraft/cf1_f_cfg.ks (inferred preloaded)
8.22,APPROACH,ILS_TRACK,71.2,73,1.8,2210.15,1.22,15.66,14.86,270.58,-0.501,0.6403,0,1.053,1,0.6,4.5,0.75,0.35,0.0168,0.4,270.13,0.279,0,1,0.94,0,0,15.13,270.12,0.999,0.0019,-0.0458,15.14,270.13,3.98,397.09,33.259,-0.267,0,0,0,0,271.34,0,0,0,0,0,0,0,0,0,0,0,0,0,1,1,0,0,VALID,0,0,0,0,0,1,0,0,0,0,0,0,0,0,0,0,0,0,0,0,74.91,366.71,2,0,0.1,0.1,97,11.54,0.1,0.06,8.22,FLYING,CF1-F,0:/Integrated Flight Computer/aircraft/cf1_f_cfg.ks (inferred preloaded)
8.48,APPROACH,ILS_TRACK,70.82,73,2.18,2210.61,1.77,16.05,14.86,270.56,-0.497,0.6804,0,1.586,1,0.6,4.5,0.75,0.35,0.0168,0.4,270.13,0.277,0,1,1.4,0,0,15.14,270.13,0.999,0.0018,-0.0457,15.14,270.13,4.09,398.67,33.237,-0.274,0,0,0,0,271.34,0,0,0,0,0,0,0,0,0,0,0,0,0,1,1,0,0,VALID,0,0,0,0,0,1,0,0,0,0,0,0,0,0,0,0,0,0,0,0,77.47,366.94,2,0,0.08,0.08,100,11.54,0.1,0.08,8.48,FLYING,CF1-F,0:/Integrated Flight Computer/aircraft/cf1_f_cfg.ks (inferred preloaded)
8.74,APPROACH,ILS_TRACK,70.45,73,2.55,2211.2,2.3,16.43,14.87,270.54,-0.49,0.7203,0,2.218,1,0.6,4.5,0.75,0.35,0.0168,0.4,270.13,0.274,0,1,1.83,0,0,15.14,270.13,0.999,0.0019,-0.0457,15.14,270.13,4.19,400.38,33.216,-0.27,0,0,0,0,271.34,0,0,0,0,0,0,0,0,0,0,0,0,0,1,1,0,0,VALID,0,0,0,0,0,1,0,0,0,0,0,0,0,0,0,0,0,0,0,0,80.23,367.16,2,0,0.1,0.1,103,11.54,0.1,0.06,8.74,FLYING,CF1-F,0:/Integrated Flight Computer/aircraft/cf1_f_cfg.ks (inferred preloaded)
9,APPROACH,ILS_TRACK,70.07,73,2.93,2211.93,2.79,16.79,14.88,270.52,-0.481,0.7601,0,2.947,1,0.6,4.5,0.75,0.35,0.0168,0.4,270.16,0.27,0,1,2.25,0,0,15.15,270.13,0.999,0.0023,-0.0457,15.15,270.16,4.29,402.22,33.195,-0.242,0,0,0,0,271.34,0,0,0,0,0,0,0,0,0,0,0,0,0,1,1,0,0,VALID,0,0,0,0,0,1,0,0,0,0,0,0,0,0,0,0,0,0,0,0,83.17,367.37,2,0,0.08,0.08,106,11.54,0.1,0.08,9,FLYING,CF1-F,0:/Integrated Flight Computer/aircraft/cf1_f_cfg.ks (inferred preloaded)
9.26,APPROACH,ILS_TRACK,69.7,73,3.3,2212.78,3.26,17.14,14.88,270.51,-0.47,0.7998,0,3.774,1,0.6,4.5,0.75,0.35,0.0168,0.4,270.14,0.266,0,1,2.65,0,0,15.15,270.14,0.999,0.002,-0.0457,15.15,270.14,4.38,404.17,33.173,-0.264,0,0,0,0,271.34,0,0,0,0,0,0,0,0,0,0,0,0,0,1,1,0,0,VALID,0,0,0,0,0,1,0,0,0,0,0,0,0,0,0,0,0,0,0,0,86.29,367.58,2,0,0.1,0.1,109,11.54,0.1,0.06,9.26,FLYING,CF1-F,0:/Integrated Flight Computer/aircraft/cf1_f_cfg.ks (inferred preloaded)
9.52,APPROACH,ILS_TRACK,69.32,73,3.68,2213.74,3.7,17.47,14.89,270.49,-0.457,0.8392,0,4.698,1,0.6,4.5,0.75,0.35,0.0168,0.4,270.15,0.261,0,1,3.03,0,0,15.15,270.14,0.999,0.0021,-0.0457,15.15,270.15,4.46,406.23,33.152,-0.254,0,0,0,0,271.34,0,0,0,0,0,0,0,0,0,0,0,0,0,1,1,0,0,VALID,0,0,0,0,0,1,0,0,0,0,0,0,0,0,0,0,0,0,0,0,89.6,367.78,2,0,0.08,0.08,112,11.54,0.1,0.08,9.52,FLYING,CF1-F,0:/Integrated Flight Computer/aircraft/cf1_f_cfg.ks (inferred preloaded)
9.78,APPROACH,ILS_TRACK,68.96,73,4.04,2214.82,4.11,17.78,14.89,270.48,-0.444,0.8783,0,5.719,1,0.6,4.5,0.75,0.35,0.0168,0.4,270.16,0.256,0,1,3.39,0,0,15.15,270.14,0.999,0.0023,-0.0457,15.15,270.16,4.53,408.4,33.131,-0.243,0,0,0,0,271.34,0,0,0,0,0,0,0,0,0,0,0,0,0,1,1,0,0,VALID,0,0,0,0,0,1,0,0,0,0,0,0,0,0,0,0,0,0,0,0,93.08,367.98,2,0,0.1,0.1,115,11.54,0.1,0.06,9.78,FLYING,CF1-F,0:/Integrated Flight Computer/aircraft/cf1_f_cfg.ks (inferred preloaded)
10.04,APPROACH,ILS_TRACK,68.59,73,4.41,2215.99,4.5,18.08,14.9,270.47,-0.429,0.9171,0,6.833,1,0.6,4.5,0.75,0.35,0.0168,0.4,270.15,0.25,0,1,3.73,0,0,15.15,270.15,0.999,0.0021,-0.0458,15.15,270.15,4.6,410.66,33.11,-0.253,0,0,0,0,271.34,0,0,0,0,0,0,0,0,0,0,0,0,0,1,1,0,0,VALID,0,0,0,0,0,1,0,0,0,0,0,0,0,0,0,0,0,0,0,0,96.73,368.16,2,0,0.08,0.08,118,11.54,0.1,0.08,10.04,FLYING,CF1-F,0:/Integrated Flight Computer/aircraft/cf1_f_cfg.ks (inferred preloaded)
10.3,APPROACH,ILS_TRACK,68.24,73,4.76,2217.25,4.86,18.36,14.91,270.45,-0.414,0.9556,0,8.042,1,0.6,4.5,0.75,0.35,0.0168,0.4,270.15,0.244,0,1,4.05,0,0,15.15,270.17,0.9989,0.0023,-0.0458,15.15,270.15,4.66,413,33.09,-0.246,0,0,0,0,271.34,0,0,0,0,0,0,0,0,0,0,0,0,0,1,1,0,0,VALID,0,0,0,0,0,1,0,0,0,0,0,0,0,0,0,0,0,0,0,0,100.55,368.34,2,0,0.1,0.1,121,11.54,0.1,0.06,10.3,FLYING,CF1-F,0:/Integrated Flight Computer/aircraft/cf1_f_cfg.ks (inferred preloaded)
10.56,APPROACH,ILS_TRACK,67.89,73,5.11,2218.61,5.2,18.62,14.91,270.44,-0.398,0.9936,0,9.342,1,0.6,4.5,0.75,0.35,0.0168,0.4,270.15,0.237,0,1,4.36,0,0,15.15,270.16,0.9989,0.0021,-0.0459,15.15,270.15,4.72,415.44,33.069,-0.254,0,0,0,0,271.34,0,0,0,0,0,0,0,0,0,0,0,0,0,1,1,0,0,VALID,0,0,0,0,0,1,0,0,0,0,0,0,0,0,0,0,0,0,0,0,104.53,368.51,2,0,0.08,0.08,124,11.54,0.1,0.08,10.56,FLYING,CF1-F,0:/Integrated Flight Computer/aircraft/cf1_f_cfg.ks (inferred preloaded)
10.82,APPROACH,ILS_TRACK,67.55,73,5.45,2220.05,5.51,18.88,14.91,270.43,-0.382,1,0,9.768,1,0.6,4.5,0.75,0.35,0.0168,0.4,270.17,0.23,0,1,4.65,0,0,15.15,270.15,0.9989,0.0025,-0.0459,15.14,270.17,4.76,417.94,33.048,-0.231,0,0,0,0,271.34,0,0,0,0,0,0,0,0,0,0,0,0,0,1,1,0,0,VALID,0,0,0,0,0,1,0,0,0,0,0,0,0,0,0,0,0,0,0,0,108.63,368.67,2,0,0.1,0.1,127,11.54,0.1,0.06,10.82,FLYING,CF1-F,0:/Integrated Flight Computer/aircraft/cf1_f_cfg.ks (inferred preloaded)
11.08,APPROACH,ILS_TRACK,67.21,73,5.79,2221.56,5.81,19.11,14.92,270.42,-0.365,1,0,9.622,1,0.6,4.5,0.75,0.35,0.0168,0.4,270.17,0.222,0,1,4.92,0,0,15.14,270.16,0.9989,0.0026,-0.046,15.14,270.17,4.81,420.52,33.028,-0.229,0,0,0,0,271.34,0,0,0,0,0,0,0,0,0,0,0,0,0,1,1,0,0,VALID,0,0,0,0,0,1,0,0,0,0,0,0,0,0,0,0,0,0,0,0,112.71,368.82,2,0,0.08,0.08,130,11.54,0.1,0.08,11.08,FLYING,CF1-F,0:/Integrated Flight Computer/aircraft/cf1_f_cfg.ks (inferred preloaded)
11.34,APPROACH,ILS_TRACK,66.89,73,6.11,2223.15,6.08,19.34,14.92,270.41,-0.348,1,0,9.478,1,0.6,4.5,0.75,0.35,0.0168,0.4,270.17,0.214,0,1,5.18,0,0,15.14,270.16,0.9989,0.0026,-0.0461,15.14,270.17,4.84,423.17,33.008,-0.226,0,0,0,0,271.34,0,0,0,0,0,0,0,0,0,0,0,0,0,1,1,0,0,VALID,0,0,0,0,0,1,0,0,0,0,0,0,0,0,0,0,0,0,0,0,116.72,368.96,2,0,0.1,0.1,133,11.54,0.1,0.06,11.34,FLYING,CF1-F,0:/Integrated Flight Computer/aircraft/cf1_f_cfg.ks (inferred preloaded)
11.6,APPROACH,ILS_TRACK,66.58,73,6.42,2224.8,6.34,19.55,14.93,270.4,-0.332,1,0,9.337,1,0.6,4.5,0.75,0.35,0.0168,0.4,270.16,0.206,0,1,5.42,0,0,15.14,270.18,0.9989,0.0024,-0.0462,15.13,270.16,4.88,425.88,32.987,-0.237,0,0,0,0,271.34,0,0,0,0,0,0,0,0,0,0,0,0,0,1,1,0,0,VALID,0,0,0,0,0,1,0,0,0,0,0,0,0,0,0,0,0,0,0,0,120.67,369.09,2,0,0.08,0.08,136,11.54,0.1,0.08,11.6,FLYING,CF1-F,0:/Integrated Flight Computer/aircraft/cf1_f_cfg.ks (inferred preloaded)
11.86,APPROACH,ILS_TRACK,66.27,73,6.73,2226.51,6.57,19.75,14.93,270.39,-0.315,1,0,9.197,1,0.6,4.5,0.75,0.35,0.0168,0.4,270.19,0.197,0,1,5.65,0,0,15.13,270.16,0.9989,0.0028,-0.0463,15.13,270.19,4.9,428.65,32.967,-0.213,0,0,0,0,271.34,0,0,0,0,0,0,0,0,0,0,0,0,0,1,1,0,0,VALID,0,0,0,0,0,1,0,0,0,0,0,0,0,0,0,0,0,0,0,0,124.56,369.21,2,0,0.1,0.1,139,11.54,0.1,0.06,11.86,FLYING,CF1-F,0:/Integrated Flight Computer/aircraft/cf1_f_cfg.ks (inferred preloaded)
12.12,APPROACH,ILS_TRACK,65.98,73,7.02,2228.28,6.79,19.94,14.94,270.39,-0.299,1,0,9.06,1,0.6,4.5,0.75,0.35,0.0168,0.4,270.18,0.189,0,1,5.86,0,0,15.13,270.18,0.9989,0.0027,-0.0464,15.13,270.18,4.93,431.46,32.947,-0.22,0,0,0,0,271.34,0,0,0,0,0,0,0,0,0,0,0,0,0,1,1,0,0,VALID,0,0,0,0,0,1,0,0,0,0,0,0,0,0,0,0,0,0,0,0,128.38,369.32,2,0,0.08,0.08,142,11.54,0.1,0.08,12.12,FLYING,CF1-F,0:/Integrated Flight Computer/aircraft/cf1_f_cfg.ks (inferred preloaded)
12.38,APPROACH,ILS_TRACK,65.69,73,7.31,2230.11,6.99,20.12,14.94,270.38,-0.283,1,0,8.925,1,0.6,4.5,0.75,0.35,0.0168,0.4,270.18,0.18,0,1,6.06,0,0,15.12,270.18,0.9989,0.0028,-0.0466,15.12,270.18,4.95,434.33,32.927,-0.216,0,0,0,0,271.34,0,0,0,0,0,0,0,0,0,0,0,0,0,1,1,0,0,VALID,0,0,0,0,0,1,0,0,0,0,0,0,0,0,0,0,0,0,0,0,132.15,369.43,2,0,0.1,0.1,145,11.54,0.1,0.06,12.38,FLYING,CF1-F,0:/Integrated Flight Computer/aircraft/cf1_f_cfg.ks (inferred preloaded)
12.64,APPROACH,ILS_TRACK,65.41,73,7.59,2231.98,7.18,20.28,14.95,270.37,-0.267,1,0,8.792,1,0.6,4.5,0.75,0.35,0.0168,0.4,270.17,0.17,0,1,6.25,0,0,15.12,270.19,0.9989,0.0025,-0.0467,15.11,270.17,4.97,437.24,32.907,-0.233,0,0,0,0,271.34,0,0,0,0,0,0,0,0,0,0,0,0,0,1,1,0,0,VALID,0,0,0,0,0,1,0,0,0,0,0,0,0,0,0,0,0,0,0,0,135.86,369.52,2,0,0.08,0.08,148,11.54,0.1,0.08,12.64,FLYING,CF1-F,0:/Integrated Flight Computer/aircraft/cf1_f_cfg.ks (inferred preloaded)
12.9,APPROACH,ILS_TRACK,65.15,73,7.85,2233.89,7.35,20.43,14.95,270.37,-0.252,1,0,8.661,1,0.6,4.5,0.75,0.35,0.0168,0.4,270.2,0.161,0,1,6.42,0,0,15.11,270.19,0.9989,0.0031,-0.0468,15.11,270.2,4.98,440.19,32.887,-0.199,0,0,0,0,271.34,0,0,0,0,0,0,0,0,0,0,0,0,0,1,1,0,0,VALID,0,0,0,0,0,1,0,0,0,0,0,0,0,0,0,0,0,0,0,0,139.51,369.61,2,0,0.1,0.1,151,11.54,0.1,0.06,12.9,FLYING,CF1-F,0:/Integrated Flight Computer/aircraft/cf1_f_cfg.ks (inferred preloaded)
13.16,APPROACH,ILS_TRACK,64.89,73,8.11,2235.85,7.51,20.58,14.95,270.36,-0.237,1,0,8.531,1,0.6,4.5,0.75,0.35,0.0168,0.4,270.2,0.151,0,1,6.59,0,0,15.11,270.19,0.9989,0.003,-0.047,15.1,270.2,4.99,443.18,32.868,-0.204,0,0,0,0,271.34,0,0,0,0,0,0,0,0,0,0,0,0,0,1,1,0,0,VALID,0,0,0,0,0,1,0,0,0,0,0,0,0,0,0,0,0,0,0,0,143.11,369.69,2,0,0.08,0.08,154,11.54,0.1,0.08,13.16,FLYING,CF1-F,0:/Integrated Flight Computer/aircraft/cf1_f_cfg.ks (inferred preloaded)
13.42,APPROACH,ILS_TRACK,64.65,73,8.35,2237.84,7.65,20.71,14.96,270.35,-0.222,1,0,8.404,1,0.6,4.5,0.75,0.35,0.0168,0.4,270.2,0.141,0,1,6.74,0,0,15.1,270.21,0.9989,0.003,-0.0471,15.1,270.2,4.99,446.2,32.848,-0.205,0,0,0,0,271.34,0,0,0,0,0,0,0,0,0,0,0,0,0,1,1,0,0,VALID,0,0,0,0,0,1,0,0,0,0,0,0,0,0,0,0,0,0,0,0,146.65,369.76,2,0,0.1,0.1,157,11.54,0.1,0.06,13.42,FLYING,CF1-F,0:/Integrated Flight Computer/aircraft/cf1_f_cfg.ks (inferred preloaded)
13.68,APPROACH,ILS_TRACK,64.41,73,8.59,2239.87,7.78,20.83,14.96,270.35,-0.209,1,0,8.279,1,0.6,4.5,0.75,0.35,0.0168,0.4,270.19,0.131,0,1,6.88,0,0,15.09,270.21,0.9989,0.0029,-0.0473,15.09,270.19,5,449.25,32.828,-0.207,0,0,0,0,271.34,0,0,0,0,0,0,0,0,0,0,0,0,0,1,1,0,0,VALID,0,0,0,0,0,1,0,0,0,0,0,0,0,0,0,0,0,0,0,0,150.13,369.82,2,0,0.08,0.08,160,11.54,0.1,0.08,13.68,FLYING,CF1-F,0:/Integrated Flight Computer/aircraft/cf1_f_cfg.ks (inferred preloaded)
13.94,APPROACH,ILS_TRACK,64.18,73,8.82,2241.93,7.9,20.95,14.96,270.35,-0.195,1,0,8.155,1,0.6,4.5,0.75,0.35,0.0168,0.4,270.2,0.12,0,1,7.01,0,0,15.08,270.2,0.9989,0.003,-0.0474,15.08,270.2,4.99,452.33,32.809,-0.202,0,0,0,0,271.34,0,0,0,0,0,0,0,0,0,0,0,0,0,1,1,0,0,VALID,0,0,0,0,0,1,0,0,0,0,0,0,0,0,0,0,0,0,0,0,153.55,369.87,2,0,0.1,0.1,163,11.54,0.1,0.06,13.94,FLYING,CF1-F,0:/Integrated Flight Computer/aircraft/cf1_f_cfg.ks (inferred preloaded)
14.2,APPROACH,ILS_TRACK,63.97,73,9.03,2244.02,8.01,21.05,14.96,270.34,-0.183,1,0,8.033,1,0.6,4.5,0.75,0.35,0.0168,0.4,270.2,0.11,0,1,7.13,0,0,15.08,270.21,0.9989,0.0031,-0.0476,15.07,270.2,4.99,455.43,32.789,-0.196,0,0,0,0,271.34,0,0,0,0,0,0,0,0,0,0,0,0,0,1,1,0,0,VALID,0,0,0,0,0,1,0,0,0,0,0,0,0,0,0,0,0,0,0,0,156.92,369.92,2,0,0.08,0.08,166,11.54,0.1,0.08,14.2,FLYING,CF1-F,0:/Integrated Flight Computer/aircraft/cf1_f_cfg.ks (inferred preloaded)
14.46,APPROACH,ILS_TRACK,63.76,73,9.24,2246.13,8.11,21.15,14.97,270.34,-0.17,1,0,7.913,1,0.6,4.5,0.75,0.35,0.0168,0.4,270.21,0.099,0,1,7.24,0,0,15.07,270.21,0.9989,0.0031,-0.0478,15.07,270.21,4.98,458.56,32.77,-0.194,0,0,0,0,271.34,0,0,0,0,0,0,0,0,0,0,0,0,0,1,1,0,0,VALID,0,0,0,0,0,1,0,0,0,0,0,0,0,0,0,0,0,0,0,0,160.24,369.95,2,0,0.1,0.1,169,11.54,0.1,0.06,14.46,FLYING,CF1-F,0:/Integrated Flight Computer/aircraft/cf1_f_cfg.ks (inferred preloaded)
14.72,APPROACH,ILS_TRACK,63.57,73,9.43,2248.27,8.2,21.24,14.97,270.33,-0.159,1,0,7.795,1,0.6,4.5,0.75,0.35,0.0168,0.4,270.22,0.089,0,1,7.34,0,0,15.06,270.21,0.9988,0.0034,-0.048,15.06,270.22,4.97,461.7,32.751,-0.181,0,0,0,0,271.34,0,0,0,0,0,0,0,0,0,0,0,0,0,1,1,0,0,VALID,0,0,0,0,0,1,0,0,0,0,0,0,0,0,0,0,0,0,0,0,163.5,369.98,2,0,0.08,0.08,172,11.54,0.1,0.08,14.72,FLYING,CF1-F,0:/Integrated Flight Computer/aircraft/cf1_f_cfg.ks (inferred preloaded)
14.98,APPROACH,ILS_TRACK,63.38,73,9.62,2250.42,8.28,21.32,14.97,270.33,-0.148,1,0,7.679,1,0.6,4.5,0.75,0.35,0.0168,0.4,270.21,0.078,0,1,7.44,0,0,15.05,270.21,0.9988,0.0031,-0.0482,15.05,270.21,4.97,464.87,32.732,-0.194,0,0,0,0,271.34,0,0,0,0,0,0,0,0,0,0,0,0,0,1,1,0,0,VALID,0,0,0,0,0,1,0,0,0,0,0,0,0,0,0,0,0,0,0,0,166.71,370.01,2,0,0.1,0.1,175,11.54,0.1,0.06,14.98,FLYING,CF1-F,0:/Integrated Flight Computer/aircraft/cf1_f_cfg.ks (inferred preloaded)
15.24,APPROACH,ILS_TRACK,63.2,73,9.8,2252.6,8.35,21.39,14.97,270.33,-0.138,1,0,7.564,1,0.6,4.5,0.75,0.35,0.0168,0.4,270.22,0.067,0,1,7.52,0,0,15.04,270.22,0.9988,0.0034,-0.0483,15.04,270.22,4.95,468.05,32.712,-0.177,0,0,0,0,271.34,0,0,0,0,0,0,0,0,0,0,0,0,0,1,1,0,0,VALID,0,0,0,0,0,1,0,0,0,0,0,0,0,0,0,0,0,0,0,0,169.86,370.02,2,0,0.08,0.08,178,11.54,0.1,0.08,15.24,FLYING,CF1-F,0:/Integrated Flight Computer/aircraft/cf1_f_cfg.ks (inferred preloaded)
15.5,APPROACH,ILS_TRACK,63.04,73,9.96,2254.79,8.42,21.46,14.97,270.32,-0.128,1,0,7.451,1,0.6,4.5,0.75,0.35,0.0168,0.4,270.22,0.056,0,1,7.6,0,0,15.03,270.22,0.9988,0.0033,-0.0485,15.03,270.22,4.94,471.25,32.693,-0.184,0,0,0,0,271.34,0,0,0,0,0,0,0,0,0,0,0,0,0,1,1,0,0,VALID,0,0,0,0,0,1,0,0,0,0,0,0,0,0,0,0,0,0,0,0,172.97,370.03,2,0,0.1,0.1,181,11.54,0.1,0.06,15.5,FLYING,CF1-F,0:/Integrated Flight Computer/aircraft/cf1_f_cfg.ks (inferred preloaded)
15.76,APPROACH,ILS_TRACK,62.88,73,10.12,2257,8.48,21.53,14.97,270.32,-0.12,1,0,7.34,1,0.6,4.5,0.75,0.35,0.0168,0.4,270.24,0.045,0,1,7.67,0,0,15.02,270.23,0.9988,0.0037,-0.0487,15.02,270.24,4.92,474.45,32.674,-0.161,0,0,0,0,271.34,0,0,0,0,0,0,0,0,0,0,0,0,0,1,1,0,0,VALID,0,0,0,0,0,1,0,0,0,0,0,0,0,0,0,0,0,0,0,0,176.02,370.03,2,0,0.08,0.08,184,11.54,0.1,0.08,15.76,FLYING,CF1-F,0:/Integrated Flight Computer/aircraft/cf1_f_cfg.ks (inferred preloaded)
16.02,APPROACH,ILS_TRACK,62.74,73,10.26,2259.22,8.53,21.58,14.98,270.32,-0.111,1,0,7.231,1,0.6,4.5,0.75,0.35,0.0168,0.4,270.22,0.034,0,1,7.74,0,0,15.01,270.23,0.9988,0.0033,-0.049,15.01,270.22,4.91,477.67,32.655,-0.183,0,0,0,0,271.34,0,0,0,0,0,0,0,0,0,0,0,0,0,1,1,0,0,VALID,0,0,0,0,0,1,0,0,0,0,0,0,0,0,0,0,0,0,0,0,179.02,370.03,2,0,0.1,0.1,187,11.54,0.1,0.06,16.02,FLYING,CF1-F,0:/Integrated Flight Computer/aircraft/cf1_f_cfg.ks (inferred preloaded)
16.28,APPROACH,ILS_TRACK,62.6,73,10.4,2261.45,8.58,21.64,14.98,270.32,-0.103,1,0,7.123,1,0.6,4.5,0.75,0.35,0.0168,0.4,270.22,0.023,0,1,7.8,0,0,15,270.22,0.9988,0.0034,-0.0492,15,270.22,4.89,480.9,32.636,-0.177,0,0,0,0,271.34,0,0,0,0,0,0,0,0,0,0,0,0,0,1,1,0,0,VALID,0,0,0,0,0,1,0,0,0,0,0,0,0,0,0,0,0,0,0,0,181.98,370.02,2,0,0.08,0.08,190,11.54,0.1,0.08,16.28,FLYING,CF1-F,0:/Integrated Flight Computer/aircraft/cf1_f_cfg.ks (inferred preloaded)
16.54,APPROACH,ILS_TRACK,62.47,73,10.53,2263.7,8.63,21.68,14.98,270.31,-0.096,1,0,7.016,1,0.6,4.5,0.75,0.35,0.0168,0.4,270.22,0.012,0,1,7.86,0,0,14.99,270.24,0.9988,0.0034,-0.0494,14.99,270.22,4.87,484.14,32.617,-0.181,0,0,0,0,271.34,0,0,0,0,0,0,0,0,0,0,0,0,0,1,1,0,0,VALID,0,0,0,0,0,1,0,0,0,0,0,0,0,0,0,0,0,0,0,0,184.88,370,2,0,0.1,0.1,193,11.54,0.1,0.06,16.54,FLYING,CF1-F,0:/Integrated Flight Computer/aircraft/cf1_f_cfg.ks (inferred preloaded)
16.8,APPROACH,ILS_TRACK,62.35,73,10.65,2265.96,8.67,21.73,14.98,270.31,-0.089,1,0,6.912,1,0.6,4.5,0.75,0.35,0.0168,0.4,270.22,0,0,1,7.91,0,0,14.98,270.23,0.9988,0.0035,-0.0496,14.98,270.22,4.84,487.39,32.598,-0.176,0,0,0,0,271.34,0,0,0,0,0,0,0,0,0,0,0,0,0,1,1,0,0,VALID,0,0,0,0,0,1,0,0,0,0,0,0,0,0,0,0,0,0,0,0,187.73,369.97,2,0,0.08,0.08,196,11.54,0.1,0.08,16.8,FLYING,CF1-F,0:/Integrated Flight Computer/aircraft/cf1_f_cfg.ks (inferred preloaded)
17.06,APPROACH,ILS_TRACK,62.24,73,10.76,2268.22,8.7,21.77,14.98,270.31,-0.083,1,0,6.809,1,0.6,4.5,0.75,0.35,0.0168,0.4,270.24,-0.011,0,1,7.96,0,0,14.97,270.24,0.9988,0.0038,-0.0498,14.97,270.24,4.82,490.65,32.579,-0.158,0,0,0,0,271.34,0,0,0,0,0,0,0,0,0,0,0,0,0,1,1,0,0,VALID,0,0,0,0,0,1,0,0,0,0,0,0,0,0,0,0,0,0,0,0,190.54,369.94,2,0,0.1,0.1,199,11.54,0.1,0.06,17.06,FLYING,CF1-F,0:/Integrated Flight Computer/aircraft/cf1_f_cfg.ks (inferred preloaded)
17.32,APPROACH,ILS_TRACK,62.14,73,10.86,2270.49,8.74,21.8,14.98,270.31,-0.077,1,0,6.707,1,0.6,4.5,0.75,0.35,0.0168,0.4,270.23,-0.022,0,1,8,0,0,14.96,270.23,0.9987,0.0036,-0.05,14.96,270.23,4.8,493.91,32.56,-0.165,0,0,0,0,271.34,0,0,0,0,0,0,0,0,0,0,0,0,0,1,1,0,0,VALID,0,0,0,0,0,1,0,0,0,0,0,0,0,0,0,0,0,0,0,0,193.3,369.9,2,0,0.08,0.08,202,11.54,0.1,0.08,17.32,FLYING,CF1-F,0:/Integrated Flight Computer/aircraft/cf1_f_cfg.ks (inferred preloaded)
17.58,APPROACH,ILS_TRACK,62.05,73,10.95,2272.77,8.77,21.84,14.98,270.3,-0.072,1,0,6.607,1,0.6,4.5,0.75,0.35,0.0168,0.4,270.24,-0.034,0,1,8.04,0,0,14.95,270.22,0.9987,0.0037,-0.0503,14.94,270.24,4.77,497.18,32.541,-0.161,0,0,0,0,271.34,0,0,0,0,0,0,0,0,0,0,0,0,0,1,1,0,0,VALID,0,0,0,0,0,1,0,0,0,0,0,0,0,0,0,0,0,0,0,0,196.01,369.86,2,0,0.1,0.1,205,11.54,0.1,0.06,17.58,FLYING,CF1-F,0:/Integrated Flight Computer/aircraft/cf1_f_cfg.ks (inferred preloaded)
17.84,APPROACH,ILS_TRACK,61.97,73,11.03,2275.06,8.8,21.87,14.98,270.3,-0.068,1,0,6.508,1,0.6,4.5,0.75,0.35,0.0168,0.4,270.22,-0.045,0,1,8.08,0,0,14.94,270.24,0.9987,0.0035,-0.0505,14.93,270.22,4.74,500.45,32.523,-0.175,0,0,0,0,271.34,0,0,0,0,0,0,0,0,0,0,0,0,0,1,1,0,0,VALID,0,0,0,0,0,1,0,0,0,0,0,0,0,0,0,0,0,0,0,0,198.68,369.81,2,0,0.08,0.08,208,11.54,0.1,0.08,17.84,FLYING,CF1-F,0:/Integrated Flight Computer/aircraft/cf1_f_cfg.ks (inferred preloaded)
18.1,APPROACH,ILS_TRACK,61.89,73,11.11,2277.36,8.83,21.9,14.98,270.3,-0.064,1,0,7.105,1,0.6,4.5,0.75,0.35,0.0168,0.4,270.25,-0.057,0,1,8.12,0,0,14.93,270.24,0.9987,0.0038,-0.0507,14.92,270.25,4.71,503.74,32.504,-0.154,0,0,0,0,271.34,0,0,0,0,0,0,0,0,0,0,0,0,0,1,1,0,0,VALID,0,0,0,0,0,1,0,0,0,0,0,0,0,0,0,0,0,0,0,0,201.3,369.75,2,0,0.1,0.1,211,11.54,0.1,0.06,18.1,FLYING,CF1-F,0:/Integrated Flight Computer/aircraft/cf1_f_cfg.ks (inferred preloaded)
18.36,APPROACH,ILS_TRACK,61.83,73,11.17,2279.66,8.86,21.93,14.98,270.3,-0.06,0.9997,0,6.999,1,0.6,4.5,0.75,0.35,0.0168,0.4,270.24,-0.068,0,1,8.15,0,0,14.91,270.24,0.9987,0.0038,-0.051,14.91,270.24,4.69,507.02,32.485,-0.158,0,0,0,0,271.34,0,0,0,0,0,0,0,0,0,0,0,0,0,1,1,0,0,VALID,0,0,0,0,0,1,0,0,0,0,0,0,0,0,0,0,0,0,0,0,203.87,369.69,2,0,0.08,0.08,214,11.54,0.1,0.08,18.36,FLYING,CF1-F,0:/Integrated Flight Computer/aircraft/cf1_f_cfg.ks (inferred preloaded)
18.62,APPROACH,ILS_TRACK,61.77,73,11.23,2281.98,8.89,21.95,14.98,270.3,-0.057,1,0,8.037,1,0.6,4.5,0.75,0.35,0.0168,0.4,270.24,-0.08,0,1,8.18,0,0,14.9,270.24,0.9987,0.0037,-0.0512,14.9,270.24,4.66,510.32,32.466,-0.162,0,0,0,0,271.34,0,0,0,0,0,0,0,0,0,0,0,0,0,1,1,0,0,VALID,0,0,0,0,0,1,0,0,0,0,0,0,0,0,0,0,0,0,0,0,206.41,369.62,2,0,0.1,0.1,217,11.54,0.1,0.06,18.62,FLYING,CF1-F,0:/Integrated Flight Computer/aircraft/cf1_f_cfg.ks (inferred preloaded)
18.88,APPROACH,ILS_TRACK,61.72,73,11.28,2284.29,8.92,21.98,14.98,270.29,-0.053,1,0,7.917,1,0.6,4.5,0.75,0.35,0.0168,0.4,270.23,-0.091,0,1,8.22,0,0,14.89,270.25,0.9987,0.0036,-0.0515,14.88,270.23,4.63,513.62,32.447,-0.168,0,0,0,0,271.34,0,0,0,0,0,0,0,0,0,0,0,0,0,1,1,0,0,VALID,0,0,0,0,0,1,0,0,0,0,0,0,0,0,0,0,0,0,0,0,208.89,369.55,2,0,0.08,0.08,220,11.54,0.1,0.08,18.88,FLYING,CF1-F,0:/Integrated Flight Computer/aircraft/cf1_f_cfg.ks (inferred preloaded)
19.14,APPROACH,ILS_TRACK,61.68,73,11.32,2286.62,8.95,22.01,14.97,270.29,-0.051,1,0,8.957,1,0.6,4.5,0.75,0.35,0.0168,0.4,270.24,-0.103,0,1,8.25,0,0,14.88,270.26,0.9987,0.0038,-0.0517,14.87,270.24,4.6,516.93,32.429,-0.156,0,0,0,0,271.34,0,0,0,0,0,0,0,0,0,0,0,0,0,1,1,0,0,VALID,0,0,0,0,0,1,0,0,0,0,0,0,0,0,0,0,0,0,0,0,211.34,369.48,2,0,0.1,0.1,223,11.54,0.1,0.06,19.14,FLYING,CF1-F,0:/Integrated Flight Computer/aircraft/cf1_f_cfg.ks (inferred preloaded)
19.4,APPROACH,ILS_TRACK,61.64,73,11.36,2288.96,8.98,22.03,14.97,270.29,-0.049,1,0,8.823,1,0.6,4.5,0.75,0.35,0.0168,0.4,270.25,-0.115,0,1,8.28,0,0,14.86,270.26,0.9986,0.0039,-0.052,14.86,270.25,4.56,520.25,32.41,-0.152,0,0,0,0,271.34,0,0,0,0,0,0,0,0,0,0,0,0,0,1,1,0,0,VALID,0,0,0,0,0,1,0,0,0,0,0,0,0,0,0,0,0,0,0,0,213.74,369.39,2,0,0.08,0.08,226,11.54,0.1,0.08,19.4,FLYING,CF1-F,0:/Integrated Flight Computer/aircraft/cf1_f_cfg.ks (inferred preloaded)
19.66,APPROACH,ILS_TRACK,61.62,73,11.38,2291.3,9.01,22.06,14.97,270.29,-0.046,1,0,9.86,1,0.6,4.5,0.75,0.35,0.0168,0.4,270.25,-0.126,0,1,8.32,0,0,14.85,270.26,0.9986,0.0039,-0.0522,14.85,270.25,4.53,523.57,32.391,-0.15,0,0,0,0,271.34,0,0,0,0,0,0,0,0,0,0,0,0,0,1,1,0,0,VALID,0,0,0,0,0,1,0,0,0,0,0,0,0,0,0,0,0,0,0,0,216.1,369.31,2,0,0.1,0.1,229,11.54,0.1,0.06,19.66,FLYING,CF1-F,0:/Integrated Flight Computer/aircraft/cf1_f_cfg.ks (inferred preloaded)
19.92,APPROACH,ILS_TRACK,61.59,73,11.41,2293.65,9.05,22.09,14.97,270.29,-0.044,0.9994,0,9.713,1,0.6,4.5,0.75,0.35,0.0168,0.4,270.26,-0.138,0,1,8.35,0,0,14.84,270.25,0.9986,0.004,-0.0525,14.83,270.26,4.49,526.91,32.372,-0.145,0,0,0,0,271.34,0,0,0,0,0,0,0,0,0,0,0,0,0,1,1,0,0,VALID,0,0,0,0,0,1,0,0,0,0,0,0,0,0,0,0,0,0,0,0,218.42,369.21,2,0,0.08,0.08,232,11.54,0.1,0.08,19.92,FLYING,CF1-F,0:/Integrated Flight Computer/aircraft/cf1_f_cfg.ks (inferred preloaded)
20.18,APPROACH,ILS_TRACK,61.58,73,11.42,2296.01,9.08,22.12,14.97,270.28,-0.043,1,0,10.746,1,0.6,4.5,0.75,0.35,0.0168,0.4,270.27,-0.15,0,1,8.39,0,0,14.83,270.22,0.9986,0.0042,-0.0528,14.82,270.27,4.46,530.25,32.354,-0.13,0,0,0,0,271.34,0,0,0,0,0,0,0,0,0,0,0,0,0,1,1,0,0,VALID,0,0,0,0,0,1,0,0,0,0,0,0,0,0,0,0,0,0,0,0,220.7,369.12,2,0,0.1,0.1,235,11.54,0.1,0.06,20.18,FLYING,CF1-F,0:/Integrated Flight Computer/aircraft/cf1_f_cfg.ks (inferred preloaded)
20.44,APPROACH,ILS_TRACK,61.57,73,11.43,2298.38,9.12,22.15,14.97,270.28,-0.041,1,0,11.553,1,0.6,4.5,0.75,0.35,0.0168,0.4,270.27,-0.162,0,1,8.43,0,0,14.81,270.25,0.9986,0.0042,-0.053,14.81,270.27,4.42,533.6,32.335,-0.132,0,0,0,0,271.34,0,0,0,0,0,0,0,0,0,0,0,0,0,1,1,0,0,VALID,0,0,0,0,0,1,0,0,0,0,0,0,0,0,0,0,0,0,0,0,222.93,369.02,2,0,0.08,0.08,238,11.54,0.1,0.08,20.44,FLYING,CF1-F,0:/Integrated Flight Computer/aircraft/cf1_f_cfg.ks (inferred preloaded)
20.7,APPROACH,ILS_TRACK,61.57,73,11.43,2300.77,9.17,22.18,14.97,270.28,-0.04,1,0,11.381,1,0.6,4.5,0.75,0.35,0.0168,0.4,270.26,-0.174,0,1,8.47,0,0,14.8,270.25,0.9986,0.0041,-0.0533,14.79,270.26,4.39,536.97,32.316,-0.136,0,0,0,0,271.34,0,0,0,0,0,0,0,0,0,0,0,0,0,1,1,0,0,VALID,0,0,0,0,0,1,0,0,0,0,0,0,0,0,0,0,0,0,0,0,225.13,368.91,2,0,0.1,0.1,241,11.54,0.1,0.06,20.7,FLYING,CF1-F,0:/Integrated Flight Computer/aircraft/cf1_f_cfg.ks (inferred preloaded)
20.96,APPROACH,ILS_TRACK,61.57,73,11.43,2303.16,9.22,22.21,14.96,270.28,-0.039,1,0,12.172,1,0.6,4.5,0.75,0.35,0.0168,0.4,270.27,-0.186,0,1,8.51,0,0,14.78,270.26,0.9986,0.0042,-0.0536,14.78,270.27,4.35,540.34,32.297,-0.133,0,0,0,0,271.34,0,0,0,0,0,0,0,0,0,0,0,0,0,1,1,0,0,VALID,0,0,0,0,0,1,0,0,0,0,0,0,0,0,0,0,0,0,0,0,227.29,368.8,2,0,0.08,0.08,244,11.54,0.1,0.08,20.96,FLYING,CF1-F,0:/Integrated Flight Computer/aircraft/cf1_f_cfg.ks (inferred preloaded)
21.22,APPROACH,ILS_TRACK,61.58,73,11.42,2305.57,9.27,22.25,14.96,270.28,-0.038,1,0,13.193,1,0.6,4.5,0.75,0.35,0.0168,0.4,270.28,-0.198,0,1,8.56,0,0,14.77,270.26,0.9985,0.0043,-0.0539,14.76,270.28,4.31,543.73,32.279,-0.124,0,0,0,0,271.34,0,0,0,0,0,0,0,0,0,0,0,0,0,1,1,0,0,VALID,0,0,0,0,0,1,0,0,0,0,0,0,0,0,0,0,0,0,0,0,229.41,368.69,2,0,0.1,0.1,247,11.54,0.1,0.06,21.22,FLYING,CF1-F,0:/Integrated Flight Computer/aircraft/cf1_f_cfg.ks (inferred preloaded)
21.48,APPROACH,ILS_TRACK,61.6,73,11.4,2308,9.33,22.29,14.96,270.28,-0.037,1,0,12.996,1,0.6,4.5,0.75,0.35,0.0168,0.4,270.28,-0.21,0,1,8.61,0,0,14.76,270.27,0.9985,0.0044,-0.0541,14.75,270.28,4.27,547.14,32.26,-0.122,0,0,0,0,271.34,0,0,0,0,0,0,0,0,0,0,0,0,0,1,1,0,0,VALID,0,0,0,0,0,1,0,0,0,0,0,0,0,0,0,0,0,0,0,0,231.5,368.57,2,0,0.08,0.08,250,11.54,0.1,0.08,21.48,FLYING,CF1-F,0:/Integrated Flight Computer/aircraft/cf1_f_cfg.ks (inferred preloaded)
21.74,APPROACH,ILS_TRACK,61.62,73,11.38,2310.44,9.39,22.33,14.96,270.27,-0.036,1,0,13.546,1,0.6,4.5,0.75,0.35,0.0168,0.4,270.27,-0.222,0,1,8.66,0,0,14.74,270.27,0.9985,0.0043,-0.0544,14.74,270.27,4.23,550.56,32.241,-0.125,0,0,0,0,271.34,0,0,0,0,0,0,0,0,0,0,0,0,0,1,1,0,0,VALID,0,0,0,0,0,1,0,0,0,0,0,0,0,0,0,0,0,0,0,0,233.54,368.45,2,0,0.1,0.1,253,11.54,0.1,0.06,21.74,FLYING,CF1-F,0:/Integrated Flight Computer/aircraft/cf1_f_cfg.ks (inferred preloaded)
22,APPROACH,ILS_TRACK,61.64,73,11.36,2312.89,9.45,22.38,14.96,270.27,-0.036,1,0,14.542,1,0.6,4.5,0.75,0.35,0.0168,0.4,270.28,-0.234,0,1,8.71,0,0,14.73,270.27,0.9985,0.0044,-0.0547,14.72,270.28,4.2,554,32.222,-0.12,0,0,0,0,271.34,0,0,0,0,0,0,0,0,0,0,0,0,0,1,1,0,0,VALID,0,0,0,0,0,1,0,0,0,0,0,0,0,0,0,0,0,0,0,0,235.55,368.33,2,0,0.08,0.08,256,11.54,0.1,0.08,22,FLYING,CF1-F,0:/Integrated Flight Computer/aircraft/cf1_f_cfg.ks (inferred preloaded)
22.26,APPROACH,ILS_TRACK,61.67,73,11.33,2315.37,9.52,22.42,14.95,270.27,-0.035,1,0,14.325,1,0.6,4.5,0.75,0.35,0.0168,0.4,270.27,-0.247,0,1,8.77,0,0,14.71,270.28,0.9985,0.0043,-0.055,14.71,270.27,4.16,557.46,32.204,-0.125,0,0,0,0,271.34,0,0,0,0,0,0,0,0,0,0,0,0,0,1,1,0,0,VALID,0,0,0,0,0,1,0,0,0,0,0,0,0,0,0,0,0,0,0,0,237.53,368.2,2,0,0.1,0.1,259,11.54,0.1,0.06,22.26,FLYING,CF1-F,0:/Integrated Flight Computer/aircraft/cf1_f_cfg.ks (inferred preloaded)
22.52,APPROACH,ILS_TRACK,61.7,73,11.3,2317.87,9.6,22.48,14.95,270.27,-0.034,1,0,15.079,1,0.6,4.5,0.75,0.35,0.0168,0.4,270.28,-0.259,0,1,8.84,0,0,14.7,270.27,0.9985,0.0044,-0.0553,14.69,270.28,4.12,560.93,32.185,-0.123,0,0,0,0,271.34,0,0,0,0,0,0,0,0,0,0,0,0,0,1,1,0,0,VALID,0,0,0,0,0,1,0,0,0,0,0,0,0,0,0,0,0,0,0,0,239.47,368.07,2,0,0.08,0.08,262,11.54,0.1,0.08,22.52,FLYING,CF1-F,0:/Integrated Flight Computer/aircraft/cf1_f_cfg.ks (inferred preloaded)
22.78,APPROACH,ILS_TRACK,61.74,73,11.26,2320.38,9.68,22.53,14.95,270.27,-0.034,1,0,16.055,1,0.6,4.5,0.75,0.35,0.0168,0.4,270.28,-0.272,0,1,8.91,0,0,14.68,270.27,0.9984,0.0045,-0.0556,14.68,270.28,4.07,564.43,32.166,-0.118,0,0,0,0,271.34,0,0,0,0,0,0,0,0,0,0,0,0,0,1,1,0,0,VALID,0,0,0,0,0,1,0,0,0,0,0,0,0,0,0,0,0,0,0,0,241.37,367.93,2,0,0.1,0.1,265,11.54,0.1,0.06,22.78,FLYING,CF1-F,0:/Integrated Flight Computer/aircraft/cf1_f_cfg.ks (inferred preloaded)
23.04,APPROACH,ILS_TRACK,61.78,73,11.22,2322.92,9.77,22.59,14.95,270.26,-0.033,1,0,15.815,1,0.6,4.5,0.75,0.35,0.0168,0.4,270.28,-0.284,0,1,8.98,0,0,14.67,270.28,0.9984,0.0044,-0.0558,14.66,270.28,4.03,567.96,32.147,-0.119,0,0,0,0,271.34,0,0,0,0,0,0,0,0,0,0,0,0,0,1,1,0,0,VALID,0,0,0,0,0,1,0,0,0,0,0,0,0,0,0,0,0,0,0,0,243.24,367.8,2,0,0.08,0.08,268,11.54,0.1,0.08,23.04,FLYING,CF1-F,0:/Integrated Flight Computer/aircraft/cf1_f_cfg.ks (inferred preloaded)
23.3,APPROACH,ILS_TRACK,61.82,73,11.18,2325.48,9.86,22.66,14.94,270.26,-0.031,1,0,16.326,1,0.6,4.5,0.75,0.35,0.0168,0.4,270.28,-0.297,0,1,9.06,0,0,14.65,270.3,0.9984,0.0044,-0.0561,14.65,270.28,3.99,571.5,32.128,-0.121,0,0,0,0,271.34,0,0,0,0,0,0,0,0,0,0,0,0,0,1,1,0,0,VALID,0,0,0,0,0,1,0,0,0,0,0,0,0,0,0,0,0,0,0,0,245.07,367.65,2,0,0.1,0.1,271,11.54,0.1,0.06,23.3,FLYING,CF1-F,0:/Integrated Flight Computer/aircraft/cf1_f_cfg.ks (inferred preloaded)
23.56,APPROACH,ILS_TRACK,61.86,73,11.14,2328.07,9.96,22.73,14.94,270.26,-0.03,1,0,17.273,1,0.6,4.5,0.75,0.35,0.0168,0.4,270.29,-0.31,0,1,9.14,0,0,14.64,270.28,0.9984,0.0046,-0.0564,14.63,270.29,3.94,575.08,32.11,-0.109,0,0,0,0,271.34,0,0,0,0,0,0,0,0,0,0,0,0,0,1,1,0,0,VALID,0,0,0,0,0,1,0,0,0,0,0,0,0,0,0,0,0,0,0,0,246.88,367.51,2,0,0.08,0.08,274,11.54,0.1,0.08,23.56,FLYING,CF1-F,0:/Integrated Flight Computer/aircraft/cf1_f_cfg.ks (inferred preloaded)
23.82,APPROACH,ILS_TRACK,61.91,73,11.09,2330.69,10.07,22.8,14.94,270.26,-0.028,1,0,17.015,1,0.6,4.5,0.75,0.35,0.0168,0.4,270.29,-0.323,0,1,9.23,0,0,14.62,270.3,0.9984,0.0046,-0.0567,14.62,270.29,3.9,578.68,32.091,-0.111,0,0,0,0,271.34,0,0,0,0,0,0,0,0,0,0,0,0,0,1,1,0,0,VALID,0,0,0,0,0,1,0,0,0,0,0,0,0,0,0,0,0,0,0,0,248.65,367.36,2,0,0.1,0.1,277,11.54,0.1,0.06,23.82,FLYING,CF1-F,0:/Integrated Flight Computer/aircraft/cf1_f_cfg.ks (inferred preloaded)
24.08,APPROACH,ILS_TRACK,61.96,73,11.04,2333.34,10.18,22.88,14.94,270.26,-0.027,1,0,17.946,1,0.6,4.5,0.75,0.35,0.0168,0.4,270.29,-0.336,0,1,9.32,0,0,14.61,270.28,0.9984,0.0046,-0.057,14.6,270.29,3.86,582.31,32.072,-0.111,0,0,0,0,271.34,0,0,0,0,0,0,0,0,0,0,0,0,0,1,1,0,0,VALID,0,0,0,0,0,1,0,0,0,0,0,0,0,0,0,0,0,0,0,0,250.38,367.22,2,0,0.08,0.08,280,11.54,0.1,0.08,24.08,FLYING,CF1-F,0:/Integrated Flight Computer/aircraft/cf1_f_cfg.ks (inferred preloaded)
24.34,APPROACH,ILS_TRACK,62.01,73,10.99,2336.01,10.3,22.96,14.94,270.26,-0.025,1,0,17.678,1,0.6,4.5,0.75,0.35,0.0168,0.4,270.29,-0.35,0,1,9.42,0,0,14.59,270.29,0.9983,0.0046,-0.0573,14.59,270.29,3.81,585.98,32.053,-0.109,0,0,0,0,271.34,0,0,0,0,0,0,0,0,0,0,0,0,0,1,1,0,0,VALID,0,0,0,0,0,1,0,0,0,0,0,0,0,0,0,0,0,0,0,0,252.09,367.07,2,0,0.1,0.1,283,11.54,0.1,0.06,24.34,FLYING,CF1-F,0:/Integrated Flight Computer/aircraft/cf1_f_cfg.ks (inferred preloaded)
24.6,APPROACH,ILS_TRACK,62.06,73,10.94,2338.72,10.43,23.05,14.93,270.26,-0.024,1,0,18.371,1,0.6,4.5,0.75,0.35,0.0168,0.4,270.28,-0.363,0,1,9.53,0,0,14.58,270.3,0.9983,0.0045,-0.0576,14.57,270.28,3.76,589.67,32.034,-0.115,0,0,0,0,271.34,0,0,0,0,0,0,0,0,0,0,0,0,0,1,1,0,0,VALID,0,0,0,0,0,1,0,0,0,0,0,0,0,0,0,0,0,0,0,0,253.76,366.91,2,0,0.08,0.08,286,11.54,0.1,0.08,24.6,FLYING,CF1-F,0:/Integrated Flight Computer/aircraft/cf1_f_cfg.ks (inferred preloaded)
24.86,APPROACH,ILS_TRACK,62.12,73,10.88,2341.47,10.56,23.14,14.93,270.25,-0.022,1,0,19.276,1,0.6,4.5,0.75,0.35,0.0168,0.4,270.29,-0.377,0,1,9.64,0,0,14.56,270.31,0.9983,0.0046,-0.058,14.55,270.29,3.71,593.4,32.015,-0.109,0,0,0,0,271.34,0,0,0,0,0,0,0,0,0,0,0,0,0,1,1,0,0,VALID,0,0,0,0,0,1,0,0,0,0,0,0,0,0,0,0,0,0,0,0,255.41,366.76,2,0,0.1,0.1,289,11.54,0.1,0.06,24.86,FLYING,CF1-F,0:/Integrated Flight Computer/aircraft/cf1_f_cfg.ks (inferred preloaded)
25.12,APPROACH,ILS_TRACK,62.17,73,10.83,2344.25,10.7,23.24,14.93,270.25,-0.021,1,0,18.988,1,0.6,4.5,0.75,0.35,0.0168,0.4,270.29,-0.391,0,1,9.75,0,0,14.54,270.3,0.9983,0.0046,-0.0583,14.54,270.29,3.67,597.17,31.996,-0.11,0,0,0,0,271.34,0,0,0,0,0,0,0,0,0,0,0,0,0,1,1,0,0,VALID,0,0,0,0,0,1,0,0,0,0,0,0,0,0,0,0,0,0,0,0,257.02,366.6,2,0,0.08,0.08,292,11.54,0.1,0.08,25.12,FLYING,CF1-F,0:/Integrated Flight Computer/aircraft/cf1_f_cfg.ks (inferred preloaded)
25.38,APPROACH,ILS_TRACK,62.22,73,10.78,2347.07,10.84,23.34,14.93,270.25,-0.019,1,0,19.876,1,0.6,4.5,0.75,0.35,0.0168,0.4,270.3,-0.405,0,1,9.87,0,0,14.53,270.3,0.9983,0.0047,-0.0586,14.52,270.3,3.62,600.98,31.977,-0.104,0,0,0,0,271.34,0,0,0,0,0,0,0,0,0,0,0,0,0,1,1,0,0,VALID,0,0,0,0,0,1,0,0,0,0,0,0,0,0,0,0,0,0,0,0,258.6,366.44,2,0,0.1,0.1,295,11.54,0.1,0.06,25.38,FLYING,CF1-F,0:/Integrated Flight Computer/aircraft/cf1_f_cfg.ks (inferred preloaded)
25.64,APPROACH,ILS_TRACK,62.28,73,10.72,2349.92,10.99,23.45,14.92,270.25,-0.016,1,0,19.58,1,0.6,4.5,0.75,0.35,0.0168,0.4,270.29,-0.419,0,1,10,0,0,14.51,270.31,0.9983,0.0046,-0.0589,14.51,270.29,3.57,604.83,31.959,-0.109,0,0,0,0,271.34,0,0,0,0,0,0,0,0,0,0,0,0,0,1,1,0,0,VALID,0,0,0,0,0,1,0,0,0,0,0,0,0,0,0,0,0,0,0,0,260.16,366.28,2,0,0.08,0.08,298,11.54,0.1,0.08,25.64,FLYING,CF1-F,0:/Integrated Flight Computer/aircraft/cf1_f_cfg.ks (inferred preloaded)
25.9,APPROACH,ILS_TRACK,62.34,73,10.66,2352.82,11.15,23.56,14.92,270.25,-0.014,1,0,20,1,0.6,4.5,0.75,0.35,0.0168,0.4,270.31,-0.434,0,1,10.13,0,0,14.5,270.32,0.9982,0.0049,-0.0592,14.49,270.31,3.52,608.71,31.94,-0.094,0,0,0,0,271.34,0,0,0,0,0,0,0,0,0,0,0,0,0,1,1,0,0,VALID,0,0,0,0,0,1,0,0,0,0,0,0,0,0,0,0,0,0,0,0,261.69,366.11,2,0,0.1,0.1,301,11.54,0.1,0.06,25.9,FLYING,CF1-F,0:/Integrated Flight Computer/aircraft/cf1_f_cfg.ks (inferred preloaded)
26.16,APPROACH,ILS_TRACK,62.39,73,10.61,2355.76,11.32,23.68,14.92,270.25,-0.011,0.9996,0,19.701,1,0.6,4.5,0.75,0.35,0.0168,0.4,270.3,-0.448,0,1,10.27,0,0,14.48,270.31,0.9982,0.0048,-0.0595,14.47,270.3,3.47,612.65,31.921,-0.097,0,0,0,0,271.34,0,0,0,0,0,0,0,0,0,0,0,0,0,1,1,0,0,VALID,0,0,0,0,0,1,0,0,0,0,0,0,0,0,0,0,0,0,0,0,263.18,365.95,2,0,0.08,0.08,304,11.54,0.1,0.08,26.16,FLYING,CF1-F,0:/Integrated Flight Computer/aircraft/cf1_f_cfg.ks (inferred preloaded)
26.42,APPROACH,ILS_TRACK,62.44,73,10.56,2358.75,11.49,23.8,14.92,270.25,-0.008,1,0,20,1,0.6,4.5,0.75,0.35,0.0168,0.4,270.32,-0.463,0,1,10.41,0,0,14.46,270.31,0.9982,0.005,-0.0599,14.46,270.32,3.42,616.62,31.902,-0.084,0,0,0,0,271.34,0,0,0,0,0,0,0,0,0,0,0,0,0,1,1,0,0,VALID,0,0,0,0,0,1,0,0,0,0,0,0,0,0,0,0,0,0,0,0,264.65,365.78,2,0,0.1,0.1,307,11.54,0.1,0.06,26.42,FLYING,CF1-F,0:/Integrated Flight Computer/aircraft/cf1_f_cfg.ks (inferred preloaded)
26.68,APPROACH,ILS_TRACK,62.5,73,10.5,2361.78,11.66,23.93,14.92,270.25,-0.005,0.9981,0,20,1,0.6,4.5,0.75,0.35,0.0168,0.4,270.31,-0.478,0,1,10.56,0,0,14.44,270.3,0.9982,0.0049,-0.0602,14.44,270.31,3.37,620.65,31.883,-0.093,0,0,0,0,271.34,0,0,0,0,0,0,0,0,0,0,0,0,0,1,1,0,0,VALID,0,0,0,0,0,1,0,0,0,0,0,0,0,0,0,0,0,0,0,0,266.1,365.62,2,0,0.08,0.08,310,11.54,0.1,0.08,26.68,FLYING,CF1-F,0:/Integrated Flight Computer/aircraft/cf1_f_cfg.ks (inferred preloaded)
26.94,APPROACH,ILS_TRACK,62.55,73,10.45,2364.86,11.85,24.06,14.91,270.25,-0.001,0.9956,0,20,1,0.6,4.5,0.75,0.35,0.0168,0.4,270.31,-0.494,0,1,10.71,0,0,14.43,270.31,0.9982,0.005,-0.0605,14.42,270.31,3.32,624.72,31.864,-0.085,0,0,0,0,271.34,0,0,0,0,0,0,0,0,0,0,0,0,0,1,1,0,0,VALID,0,0,0,0,0,1,0,0,0,0,0,0,0,0,0,0,0,0,0,0,267.5,365.45,2,0,0.1,0.1,313,11.54,0.1,0.06,26.94,FLYING,CF1-F,0:/Integrated Flight Computer/aircraft/cf1_f_cfg.ks (inferred preloaded)
27.2,APPROACH,ILS_TRACK,62.6,73,10.4,2367.99,12.04,24.19,14.91,270.25,0.003,0.9934,0,20,1,0.6,4.5,0.75,0.35,0.0168,0.4,270.31,-0.509,0,1,10.87,0,0,14.41,270.32,0.9981,0.0049,-0.0609,14.4,270.31,3.27,628.84,31.845,-0.091,0,0,0,0,271.34,0,0,0,0,0,0,0,0,0,0,0,0,0,1,1,0,0,VALID,0,0,0,0,0,1,0,0,0,0,0,0,0,0,0,0,0,0,0,0,268.86,365.28,2,0,0.08,0.08,316,11.54,0.1,0.08,27.2,FLYING,CF1-F,0:/Integrated Flight Computer/aircraft/cf1_f_cfg.ks (inferred preloaded)
27.46,APPROACH,ILS_TRACK,62.65,73,10.35,2371.17,12.23,24.33,14.91,270.25,0.007,0.9918,0,20,1,0.6,4.5,0.75,0.35,0.0168,0.4,270.32,-0.525,0,1,11.04,0,0,14.39,270.33,0.9981,0.0052,-0.0612,14.39,270.32,3.21,633.01,31.826,-0.077,0,0,0,0,271.34,0,0,0,0,0,0,0,0,0,0,0,0,0,1,1,0,0,VALID,0,0,0,0,0,1,0,0,0,0,0,0,0,0,0,0,0,0,0,0,270.19,365.1,2,0,0.1,0.1,319,11.54,0.1,0.06,27.46,FLYING,CF1-F,0:/Integrated Flight Computer/aircraft/cf1_f_cfg.ks (inferred preloaded)
27.72,APPROACH,ILS_TRACK,62.7,73,10.3,2374.4,12.43,24.48,14.91,270.25,0.011,0.9907,0,20,1,0.6,4.5,0.75,0.35,0.0168,0.4,270.32,-0.541,0,1,11.2,0,0,14.37,270.33,0.9981,0.005,-0.0615,14.37,270.32,3.16,637.24,31.806,-0.084,0,0,0,0,271.34,0,0,0,0,0,0,0,0,0,0,0,0,0,1,1,0,0,VALID,0,0,0,0,0,1,0,0,0,0,0,0,0,0,0,0,0,0,0,0,271.49,364.93,2,0,0.08,0.08,322,11.54,0.1,0.08,27.72,FLYING,CF1-F,0:/Integrated Flight Computer/aircraft/cf1_f_cfg.ks (inferred preloaded)
27.98,APPROACH,ILS_TRACK,62.75,73,10.25,2377.68,12.64,24.63,14.91,270.25,0.015,0.9901,0,20,1,0.6,4.5,0.75,0.35,0.0168,0.4,270.34,-0.558,0,1,11.38,0,0,14.36,270.3,0.9981,0.0055,-0.0619,14.35,270.34,3.11,641.52,31.787,-0.058,0,0,0,0,271.34,0,0,0,0,0,0,0,0,0,0,0,0,0,1,1,0,0,VALID,0,0,0,0,0,1,0,0,0,0,0,0,0,0,0,0,0,0,0,0,272.75,364.76,2,0,0.1,0.1,325,11.54,0.1,0.06,27.98,FLYING,CF1-F,0:/Integrated Flight Computer/aircraft/cf1_f_cfg.ks (inferred preloaded)
28.24,APPROACH,ILS_TRACK,62.79,73,10.21,2381.02,12.86,24.78,14.9,270.25,0.02,0.9901,0,20,1,0.6,4.5,0.75,0.35,0.0168,0.4,270.33,-0.574,0,1,11.56,0,0,14.34,270.33,0.998,0.0052,-0.0623,14.33,270.33,3.06,645.85,31.768,-0.072,0,0,0,0,271.34,0,0,0,0,0,0,0,0,0,0,0,0,0,1,1,0,0,VALID,0,0,0,0,0,1,0,0,0,0,0,0,0,0,0,0,0,0,0,0,273.99,364.58,2,0,0.08,0.08,328,11.54,0.1,0.08,28.24,FLYING,CF1-F,0:/Integrated Flight Computer/aircraft/cf1_f_cfg.ks (inferred preloaded)
28.5,APPROACH,ILS_TRACK,62.83,73,10.17,2384.41,13.08,24.84,14.8,270.25,0.026,0.9906,0,20,1,0.6,4.5,0.75,0.35,0.0168,0.4,270.33,-0.591,0,1,11.75,0,0,14.26,270.34,0.9979,0.0052,-0.0644,14.21,270.33,3.01,650.23,31.749,-0.073,0,0,0,0,271.34,0,0,0,0,0,0,0,0,0,0,0,0,0,1,1,0,0,VALID,0,0,0,0,0,1,0,0,0,0,0,0,0,0,0,0,0,0,0,0,275.21,364.41,2,0,0.1,0.1,331,11.54,0.1,0.06,28.5,FLYING,CF1-F,0:/Integrated Flight Computer/aircraft/cf1_f_cfg.ks (inferred preloaded)
28.76,APPROACH,ILS_TRACK,62.87,73,10.13,2387.84,13.29,24.88,14.68,270.26,0.031,0.9878,0,20,1,0.6,4.5,0.75,0.35,0.0168,0.4,270.35,-0.609,0,1,11.92,0,0,14.12,270.32,0.9978,0.0056,-0.0667,14.08,270.35,2.95,654.67,31.73,-0.054,0,0,0,0,271.34,0,0,0,0,0,0,0,0,0,0,0,0,0,1,1,0,0,VALID,0,0,0,0,0,1,0,0,0,0,0,0,0,0,0,0,0,0,0,0,276.4,364.23,2,0,0.08,0.08,334,11.54,0.1,0.08,28.76,FLYING,CF1-F,0:/Integrated Flight Computer/aircraft/cf1_f_cfg.ks (inferred preloaded)
29.02,APPROACH,ILS_TRACK,62.92,73,10.08,2391.33,13.49,24.88,14.54,270.26,0.036,0.9831,0,20,1,0.6,4.5,0.75,0.35,0.0168,0.4,270.32,-0.626,0,1,12.09,0,0,13.99,270.34,0.9976,0.0051,-0.0695,13.92,270.32,2.91,659.15,31.711,-0.08,0,0,0,0,271.34,0,0,0,0,0,0,0,0,0,0,0,0,0,1,1,0,0,VALID,0,0,0,0,0,1,0,0,0,0,0,0,0,0,0,0,0,0,0,0,277.55,364.05,2,0,0.1,0.1,337,11.54,0.1,0.06,29.02,FLYING,CF1-F,0:/Integrated Flight Computer/aircraft/cf1_f_cfg.ks (inferred preloaded)
29.28,APPROACH,ILS_TRACK,62.96,73,10.04,2394.86,13.67,24.88,14.4,270.26,0.041,0.9763,0,20,1,0.6,4.5,0.75,0.35,0.0168,0.4,270.32,-0.644,0,1,12.24,0,0,13.81,270.34,0.9974,0.0051,-0.0722,13.77,270.32,2.85,663.67,31.692,-0.079,0,0,0,0,271.34,0,0,0,0,0,0,0,0,0,0,0,0,0,1,1,0,0,VALID,0,0,0,0,0,1,0,0,0,0,0,0,0,0,0,0,0,0,0,0,278.64,363.86,2,0,0.08,0.08,340,11.54,0.1,0.08,29.28,FLYING,CF1-F,0:/Integrated Flight Computer/aircraft/cf1_f_cfg.ks (inferred preloaded)
29.54,APPROACH,ILS_TRACK,63.02,73,9.98,2398.44,13.85,24.86,14.25,270.26,0.045,0.9686,0,20,1,0.6,4.5,0.75,0.35,0.0168,0.4,270.34,-0.661,0,1,12.38,0,0,13.67,270.34,0.9972,0.0055,-0.0752,13.6,270.34,2.8,668.25,31.673,-0.058,0,0,0,0,271.34,0,0,0,0,0,0,0,0,0,0,0,0,0,1,1,0,0,VALID,0,0,0,0,0,1,0,0,0,0,0,0,0,0,0,0,0,0,0,0,279.67,363.67,2,0,0.1,0.1,343,11.54,0.1,0.06,29.54,FLYING,CF1-F,0:/Integrated Flight Computer/aircraft/cf1_f_cfg.ks (inferred preloaded)
29.8,APPROACH,ILS_TRACK,63.07,73,9.93,2402.05,14.01,24.83,14.11,270.26,0.048,0.9596,0,20,1,0.6,4.5,0.75,0.35,0.0168,0.4,270.35,-0.68,0,1,12.51,0,0,13.48,270.34,0.9969,0.0056,-0.078,13.44,270.35,2.75,672.87,31.654,-0.054,0,0,0,0,271.34,0,0,0,0,0,0,0,0,0,0,0,0,0,1,1,0,0,VALID,0,0,0,0,0,1,0,0,0,0,0,0,0,0,0,0,0,0,0,0,280.64,363.48,2,0,0.08,0.08,346,11.54,0.1,0.08,29.8,FLYING,CF1-F,0:/Integrated Flight Computer/aircraft/cf1_f_cfg.ks (inferred preloaded)
30.06,APPROACH,ILS_TRACK,63.13,73,9.87,2405.71,14.16,24.79,13.96,270.26,0.052,0.9503,0,20,1,0.6,4.5,0.75,0.35,0.0168,0.4,270.35,-0.698,0,1,12.64,0,0,13.34,270.34,0.9967,0.0056,-0.0809,13.27,270.35,2.69,677.52,31.635,-0.052,0,0,0,0,271.34,0,0,0,0,0,0,0,0,0,0,0,0,0,1,1,0,0,VALID,0,0,0,0,0,1,0,0,0,0,0,0,0,0,0,0,0,0,0,0,281.53,363.28,2,0,0.1,0.1,349,11.54,0.1,0.06,30.06,FLYING,CF1-F,0:/Integrated Flight Computer/aircraft/cf1_f_cfg.ks (inferred preloaded)
30.32,APPROACH,ILS_TRACK,63.2,73,9.8,2409.41,14.31,24.75,13.83,270.27,0.055,0.9403,0,20,1,0.6,4.5,0.75,0.35,0.0168,0.4,270.33,-0.716,0,1,12.75,0,0,13.17,270.34,0.9965,0.0054,-0.0834,13.13,270.33,2.65,682.22,31.616,-0.066,0,0,0,0,271.34,0,0,0,0,0,0,0,0,0,0,0,0,0,1,1,0,0,VALID,0,0,0,0,0,1,0,0,0,0,0,0,0,0,0,0,0,0,0,0,282.35,363.07,2,0,0.08,0.08,352,11.54,0.1,0.08,30.32,FLYING,CF1-F,0:/Integrated Flight Computer/aircraft/cf1_f_cfg.ks (inferred preloaded)
30.58,APPROACH,ILS_TRACK,63.27,73,9.73,2413.14,14.44,24.7,13.69,270.27,0.058,0.9306,0,20,1,0.6,4.5,0.75,0.35,0.0168,0.4,270.35,-0.735,0,1,12.85,0,0,13.03,270.35,0.9962,0.0056,-0.0864,12.96,270.35,2.59,686.95,31.596,-0.055,0,0,0,0,271.34,0,0,0,0,0,0,0,0,0,0,0,0,0,1,1,0,0,VALID,0,0,0,0,0,1,0,0,0,0,0,0,0,0,0,0,0,0,0,0,283.09,362.86,2,0,0.1,0.1,355,11.54,0.1,0.06,30.58,FLYING,CF1-F,0:/Integrated Flight Computer/aircraft/cf1_f_cfg.ks (inferred preloaded)
30.84,APPROACH,ILS_TRACK,63.34,73,9.66,2416.9,14.56,24.64,13.55,270.27,0.061,0.92,0,20,1,0.6,4.5,0.75,0.35,0.0168,0.4,270.35,-0.754,0,1,12.94,0,0,12.86,270.35,0.996,0.0056,-0.089,12.81,270.35,2.54,691.72,31.577,-0.054,0,0,0,0,271.34,0,0,0,0,0,0,0,0,0,0,0,0,0,1,1,0,0,VALID,0,0,0,0,0,1,0,0,0,0,0,0,0,0,0,0,0,0,0,0,283.76,362.65,2,0,0.08,0.08,358,11.54,0.1,0.08,30.84,FLYING,CF1-F,0:/Integrated Flight Computer/aircraft/cf1_f_cfg.ks (inferred preloaded)
31.1,APPROACH,ILS_TRACK,63.42,73,9.58,2420.69,14.67,24.58,13.42,270.27,0.063,0.9094,0,20,1,0.6,4.5,0.75,0.35,0.0168,0.4,270.35,-0.773,0,1,13.02,0,0,12.72,270.35,0.9958,0.0057,-0.0917,12.66,270.35,2.5,696.51,31.558,-0.051,0,0,0,0,271.34,0,0,0,0,0,0,0,0,0,0,0,0,0,1,1,0,0,VALID,0,0,0,0,0,1,0,0,0,0,0,0,0,0,0,0,0,0,0,0,284.35,362.43,2,0,0.1,0.1,361,11.54,0.1,0.06,31.1,FLYING,CF1-F,0:/Integrated Flight Computer/aircraft/cf1_f_cfg.ks (inferred preloaded)
31.36,APPROACH,ILS_TRACK,63.5,73,9.5,2424.51,14.77,24.52,13.3,270.27,0.066,0.8985,0,20,1,0.6,4.5,0.75,0.35,0.0168,0.4,270.35,-0.792,0,1,13.09,0,0,12.56,270.35,0.9955,0.0056,-0.0942,12.52,270.35,2.45,701.34,31.539,-0.053,0,0,0,0,271.34,0,0,0,0,0,0,0,0,0,0,0,0,0,1,1,0,0,VALID,0,0,0,0,0,1,0,0,0,0,0,0,0,0,0,0,0,0,0,0,284.87,362.22,2,0,0.08,0.08,364,11.54,0.1,0.08,31.36,FLYING,CF1-F,0:/Integrated Flight Computer/aircraft/cf1_f_cfg.ks (inferred preloaded)
31.62,APPROACH,ILS_TRACK,63.58,73,9.42,2428.35,14.86,24.45,13.18,270.28,0.068,0.8878,0,20,1,0.6,4.5,0.75,0.35,0.0168,0.4,270.35,-0.811,0,1,13.15,0,0,12.43,270.33,0.9953,0.0057,-0.0967,12.37,270.35,2.4,706.19,31.519,-0.049,0,0,0,0,271.34,0,0,0,0,0,0,0,0,0,0,0,0,0,1,1,0,0,VALID,0,0,0,0,0,1,0,0,0,0,0,0,0,0,0,0,0,0,0,0,285.31,361.99,2,0,0.1,0.1,367,11.54,0.1,0.06,31.62,FLYING,CF1-F,0:/Integrated Flight Computer/aircraft/cf1_f_cfg.ks (inferred preloaded)
31.88,APPROACH,ILS_TRACK,63.67,73,9.33,2432.22,14.95,24.38,13.06,270.28,0.069,0.8771,0,20,1,0.6,4.5,0.75,0.35,0.0168,0.4,270.35,-0.83,0,1,13.21,0,0,12.28,270.35,0.9951,0.0057,-0.0991,12.24,270.35,2.35,711.06,31.5,-0.052,0,0,0,0,271.34,0,0,0,0,0,0,0,0,0,0,0,0,0,1,1,0,0,VALID,0,0,0,0,0,1,0,0,0,0,0,0,0,0,0,0,0,0,0,0,285.68,361.77,2,0,0.08,0.08,370,11.54,0.1,0.08,31.88,FLYING,CF1-F,0:/Integrated Flight Computer/aircraft/cf1_f_cfg.ks (inferred preloaded)
32.14,APPROACH,ILS_TRACK,63.76,73,9.24,2436.1,15.02,24.3,12.94,270.28,0.071,0.8663,0,20,1,0.6,4.5,0.75,0.35,0.0168,0.4,270.36,-0.85,0,1,13.26,0,0,12.16,270.34,0.9948,0.0059,-0.1015,12.1,270.36,2.3,715.96,31.481,-0.04,0,0,0,0,271.34,0,0,0,0,0,0,0,0,0,0,0,0,0,1,1,0,0,VALID,0,0,0,0,0,1,0,0,0,0,0,0,0,0,0,0,0,0,0,0,285.98,361.54,2,0,0.1,0.1,373,11.54,0.1,0.06,32.14,FLYING,CF1-F,0:/Integrated Flight Computer/aircraft/cf1_f_cfg.ks (inferred preloaded)
32.4,APPROACH,ILS_TRACK,63.85,73,9.15,2440.01,15.1,24.23,12.83,270.28,0.072,0.8555,0,20,1,0.6,4.5,0.75,0.35,0.0168,0.4,270.36,-0.869,0,1,13.3,0,0,12.01,270.35,0.9946,0.0059,-0.1038,11.97,270.36,2.25,720.88,31.462,-0.041,0,0,0,0,271.34,0,0,0,0,0,0,0,0,0,0,0,0,0,1,1,0,0,VALID,0,0,0,0,0,1,0,0,0,0,0,0,0,0,0,0,0,0,0,0,286.21,361.31,2,0,0.08,0.08,376,11.54,0.1,0.08,32.4,FLYING,CF1-F,0:/Integrated Flight Computer/aircraft/cf1_f_cfg.ks (inferred preloaded)
32.66,APPROACH,ILS_TRACK,63.95,73,9.05,2443.93,15.16,24.14,12.71,270.28,0.073,0.8448,0,20,1,0.6,4.5,0.75,0.35,0.0168,0.4,270.36,-0.889,0,1,13.34,0,0,11.89,270.35,0.9943,0.006,-0.1063,11.83,270.36,2.2,725.81,31.442,-0.036,0,0,0,0,271.34,0,0,0,0,0,0,0,0,0,0,0,0,0,1,1,0,0,VALID,0,0,0,0,0,1,0,0,0,0,0,0,0,0,0,0,0,0,0,0,286.37,361.07,2,0,0.1,0.1,379,11.54,0.1,0.06,32.66,FLYING,CF1-F,0:/Integrated Flight Computer/aircraft/cf1_f_cfg.ks (inferred preloaded)
32.92,APPROACH,ILS_TRACK,64.04,73,8.96,2447.86,15.22,24.03,12.58,270.29,0.072,0.8338,0,20,1,0.6,4.5,0.75,0.35,0.0168,0.4,270.36,-0.908,0,1,13.36,0,0,11.73,270.35,0.994,0.006,-0.1089,11.68,270.36,2.16,730.76,31.423,-0.036,0,0,0,0,271.34,0,0,0,0,0,0,0,0,0,0,0,0,0,1,1,0,0,VALID,0,0,0,0,0,1,0,0,0,0,0,0,0,0,0,0,0,0,0,0,286.46,360.84,2,0,0.08,0.08,382,11.54,0.1,0.08,32.92,FLYING,CF1-F,0:/Integrated Flight Computer/aircraft/cf1_f_cfg.ks (inferred preloaded)
33.18,APPROACH,ILS_TRACK,64.15,73,8.85,2451.8,15.26,23.93,12.47,270.29,0.07,0.8219,0,20,1,0.6,4.5,0.75,0.35,0.0168,0.4,270.36,-0.928,0,1,13.38,0,0,11.6,270.35,0.9938,0.0059,-0.1113,11.55,270.36,2.12,735.72,31.403,-0.042,0,0,0,0,271.34,0,0,0,0,0,0,0,0,0,0,0,0,0,1,1,0,0,VALID,0,0,0,0,0,1,0,0,0,0,0,0,0,0,0,0,0,0,0,0,286.48,360.6,2,0,0.1,0.1,385,11.54,0.1,0.06,33.18,FLYING,CF1-F,0:/Integrated Flight Computer/aircraft/cf1_f_cfg.ks (inferred preloaded)
33.44,APPROACH,ILS_TRACK,64.25,73,8.75,2455.76,15.29,23.85,12.38,270.29,0.065,0.81,0,20,1,0.6,4.5,0.75,0.35,0.0168,0.4,270.35,-0.948,0,1,13.39,0,0,11.47,270.36,0.9936,0.0058,-0.1132,11.44,270.35,2.07,740.7,31.384,-0.046,0,0,0,0,271.34,0,0,0,0,0,0,0,0,0,0,0,0,0,1,1,0,0,VALID,0,0,0,0,0,1,0,0,0,0,0,0,0,0,0,0,0,0,0,0,286.43,360.36,2,0,0.08,0.08,388,11.54,0.1,0.08,33.44,FLYING,CF1-F,0:/Integrated Flight Computer/aircraft/cf1_f_cfg.ks (inferred preloaded)
33.7,APPROACH,ILS_TRACK,64.36,73,8.64,2459.73,15.33,23.78,12.32,270.29,0.06,0.7991,0,20,1,0.6,4.5,0.75,0.35,0.0168,0.4,270.36,-0.968,0,1,13.39,0,0,11.39,270.35,0.9934,0.0059,-0.1147,11.35,270.36,2.03,745.69,31.364,-0.038,0,0,0,0,271.34,0,0,0,0,0,0,0,0,0,0,0,0,0,1,1,0,0,VALID,0,0,0,0,0,1,0,0,0,0,0,0,0,0,0,0,0,0,0,0,286.31,360.11,2,0,0.1,0.1,391,11.54,0.1,0.06,33.7,FLYING,CF1-F,0:/Integrated Flight Computer/aircraft/cf1_f_cfg.ks (inferred preloaded)
33.96,APPROACH,ILS_TRACK,64.47,73,8.53,2463.71,15.36,23.72,12.25,270.29,0.058,0.7894,0,20,1,0.6,4.5,0.75,0.35,0.0168,0.4,270.37,-0.988,0,1,13.4,0,0,11.29,270.36,0.9932,0.0061,-0.1162,11.27,270.37,1.98,750.7,31.345,-0.031,0,0,0,0,271.34,0,0,0,0,0,0,0,0,0,0,0,0,0,1,1,0,0,VALID,0,0,0,0,0,1,0,0,0,0,0,0,0,0,0,0,0,0,0,0,286.12,359.87,2,0,0.08,0.08,394,11.54,0.1,0.08,33.96,FLYING,CF1-F,0:/Integrated Flight Computer/aircraft/cf1_f_cfg.ks (inferred preloaded)
34.22,APPROACH,ILS_TRACK,64.58,73,8.42,2467.7,15.39,23.65,12.18,270.29,0.057,0.7804,0,20,1,0.6,4.5,0.75,0.35,0.0168,0.4,270.37,-1.008,0,1,13.41,0,0,11.21,270.36,0.993,0.0061,-0.1178,11.18,270.37,1.94,755.71,31.325,-0.03,0,0,0,0,271.34,0,0,0,0,0,0,0,0,0,0,0,0,0,1,1,0,0,VALID,0,0,0,0,0,1,0,0,0,0,0,0,0,0,0,0,0,0,0,0,285.76,359.63,2,0,0.1,0.1,397,11.54,0.1,0.06,34.22,FLYING,CF1-F,0:/Integrated Flight Computer/aircraft/cf1_f_cfg.ks (inferred preloaded)
34.48,APPROACH,ILS_TRACK,64.69,73,8.31,2471.69,15.42,23.57,12.1,270.29,0.057,0.7718,0,20,1,0.6,4.5,0.75,0.35,0.0168,0.4,270.38,-1.028,0,1,13.41,0,0,11.11,270.36,0.9928,0.0062,-0.1196,11.08,270.38,1.89,760.73,31.306,-0.023,0,0,0,0,271.34,0,0,0,0,0,0,0,0,0,0,0,0,0,1,1,0,0,VALID,0,0,0,0,0,1,0,0,0,0,0,0,0,0,0,0,0,0,0,0,285.21,359.38,2,0,0.08,0.08,400,11.54,0.1,0.08,34.48,FLYING,CF1-F,0:/Integrated Flight Computer/aircraft/cf1_f_cfg.ks (inferred preloaded)
34.74,APPROACH,ILS_TRACK,64.8,73,8.2,2475.69,15.45,23.48,12.01,270.29,0.058,0.7636,0,20,1,0.6,4.5,0.75,0.35,0.0168,0.4,270.36,-1.048,0,1,13.41,0,0,11.01,270.37,0.9926,0.006,-0.1215,10.97,270.36,1.85,765.76,31.286,-0.036,0,0,0,0,271.34,0,0,0,0,0,0,0,0,0,0,0,0,0,1,1,0,0,VALID,0,0,0,0,0,1,0,0,0,0,0,0,0,0,0,0,0,0,0,0,284.49,359.14,2,0,0.1,0.1,403,11.54,0.1,0.06,34.74,FLYING,CF1-F,0:/Integrated Flight Computer/aircraft/cf1_f_cfg.ks (inferred preloaded)
35,APPROACH,ILS_TRACK,64.91,73,8.09,2479.69,15.47,23.36,11.9,270.29,0.062,0.7554,0,20,1,0.6,4.5,0.75,0.35,0.0168,0.4,270.36,-1.068,0,1,13.4,0,0,10.88,270.37,0.9923,0.006,-0.1237,10.84,270.36,1.81,770.8,31.266,-0.036,0,0,0,0,271.34,0,0,0,0,0,0,0,0,0,0,0,0,0,1,1,0,0,VALID,0,0,0,0,0,1,0,0,0,0,0,0,0,0,0,0,0,0,0,0,283.62,358.89,2,0,0.08,0.08,406,11.54,0.1,0.08,35,FLYING,CF1-F,0:/Integrated Flight Computer/aircraft/cf1_f_cfg.ks (inferred preloaded)
