t_s,phase,subphase,ias_ms,vapp_ms,spd_err_ms,agl_m,gear_h_m,vs_ms,pitch_deg,aoa_deg,hdg_deg,bank_deg,thr_cmd,thr_cur,thr_intg,at_gain,at_tau_s,at_a_up,at_a_dn,at_kp_thr,at_ki_spd,at_thr_slew,as_cmd_deg,as_cap_deg,as_raw_deg,as_spd_err_ms,as_active,aa_hdg_cmd_deg,aa_fpa_cmd_deg,aa_fbw,aa_dir,actual_fpa_deg,ftf_hdg_err_deg,ftf_fix_idx,kos_steer_pit_deg,kos_steer_hdg_deg,aa_dir_vx,aa_dir_vy,aa_dir_vz,aa_dir_pitch_deg,aa_dir_hdg_deg,ils_loc_m,ils_gs_m,ils_dist_km,loc_corr_deg,gs_corr_deg,gs_latched,active_gs_ang_deg,ils_intercept_alt_m,d_gs_ms,fpa_preclamped_deg,gs_nom_alt_m,flare_fpa_cmd,flare_tgt_vs,flare_frac,flare_round_blend_h,flare_round_blend_ttg,flare_round_blend,flare_mode,flare_auth_limited,flare_auth_reason,flare_vs_err,flare_fpa_err,flare_pitch_err,flare_theta_cmd_raw,flare_theta_cmd_clamped,flare_theta_clamp_active,flare_aoa_clamp_active,flare_pitch_in_cmd,elev_defl_avg_deg,elev_defl_max_deg,elev_defl_n,flare_ctrl_h_m,flare_req_up_a,flare_thr_floor,flare_tecs_et_err,flare_tecs_eb_err,flare_tecs_h_ref,flare_tecs_v_ref,flare_gamma_ref,flare_gamma_eb_term,flare_gamma_unsat,steer_hdg_deg,steer_blend,ro_loc_corr_deg,ro_hdg_err_deg,ro_yaw_tgt,ro_yaw_scale,ro_yaw_gate,yaw_cmd,roll_cmd,pitch_cmd,ro_pitch_tgt_deg,ro_pitch_err_deg,ro_pitch_ff,ro_roll_assist,flaps_cur,flaps_tgt,asc_j_ab,asc_j_rk,asc_validity,asc_q_pa,asc_q_raw_pa,asc_mach,asc_apo_m,asc_drag_n,asc_w_prop,asc_edot_aero,asc_edot_orb,asc_pitch_bias,asc_blend,asc_spooling,asc_ab_thr_ratio,asc_ab_t_now,asc_ab_t_avail,asc_ab_ign_on,asc_ab_flameouts,asc_rk_t_now,asc_rk_t_avail,asc_rk_ign_on,asc_rk_flameouts,ship_thrust,ship_avail_thrust,ship_ign_on,ship_flameouts,ifc_raw_dt_s,ifc_dt_s,ifc_loop_n,ifc_hz_est,ifc_raw_dt_max_s,ifc_raw_dt_min_s,phase_el_s,status,craft_name,cfg_file
3.48,TAKEOFF,TO_PREFLIGHT,0.7,80,79.3,5.14,-3.16,0,-0.07,-0.2,90.38,0.1,0.072,0,0,0,0,0,0,0,0,0,0,0,0,0,0,90,0,1,0,1.88,0,0,0,90,0,0,0,0,0,0,0,0,0,0,0,3,0,0,0,69,0,0,0,0,0,0,,0,NONE,0,0,0,0,0,0,0,0,0,0,0,0,0,0,0,0,0,0,0,0,0,90,1,0,0.381,0,0,1,0,0,0,0,0,0,0,0,2,0,0,VALID,0,0,0,0,0,1,0,0,0,0,0,0,0,0,0,0,0,0,0,0,0,2313.7,6,0,0.18,0.18,1,0.28,0.18,0.02,3.32,LANDED,X11-E,0:/Integrated Flight Computer/aircraft/x11_e_cfg.ks (inferred preloaded)
3.8,TAKEOFF,TO_PREFLIGHT,0.71,80,79.29,5.14,-3.16,-0.01,-0.31,0.57,90.43,0.1,0.352,0,0,0,0,0,0,0,0,0,0,0,0,0,0,90,0,1,0,-0.66,0,0,0,90,0,0,0,0,0,0,0,0,0,0,0,3,0,0,0,69,0,0,0,0,0,0,,0,NONE,0,0,0,0,0,0,0,0,0,0,0,0,0,0,0,0,0,0,0,0,0,90,1,0,0.381,0,0,1,0,0,0,0,0,0,0,1,2,0,0,VALID,0,0,0,0,0,1,0,0,0,0,0,0,0,0,0,0,0,0,0,0,24.46,2313.68,6,0,0.06,0.06,5,13.33,3.4,0.06,3.62,LANDED,X11-E,0:/Integrated Flight Computer/aircraft/x11_e_cfg.ks (inferred preloaded)
4.1,TAKEOFF,TO_PREFLIGHT,0.69,80,79.31,5.22,-3.16,-0.01,-0.19,0.23,90.43,0.094,0.472,0,0,0,0,0,0,0,0,0,0,0,0,0,0,90,0,1,0,-0.3,0,0,0,90,0,0,0,0,0,0,0,0,0,0,0,3,0,0,0,69,0,0,0,0,0,0,,0,NONE,0,0,0,0,0,0,0,0,0,0,0,0,0,0,0,0,0,0,0,0,0,90,1,0,0.381,0,0,1,0,0,0,0,0,0,0,2,2,0,0,VALID,0,0,0,0,0,1,0,0,0,0,0,0,0,0,0,0,0,0,0,0,74.81,2313.71,6,0,0.06,0.06,10,16.67,0.08,0.04,3.92,LANDED,X11-E,0:/Integrated Flight Computer/aircraft/x11_e_cfg.ks (inferred preloaded)
4.36,TAKEOFF,TO_PREFLIGHT,0.67,80,79.33,5.18,-3.16,0,-0.24,-0.46,90.43,0.103,0.576,0,0,0,0,0,0,0,0,0,0,0,0,0,0,90,0,1,0,0.15,0,0,0,90,0,0,0,0,0,0,0,0,0,0,0,3,0,0,0,69,0,0,0,0,0,0,,0,NONE,0,0,0,0,0,0,0,0,0,0,0,0,0,0,0,0,0,0,0,0,0,90,1,0,0.381,0,0,1,0,0,0,0,0,0,0,2,2,0,0,VALID,0,0,0,0,0,1,0,0,0,0,0,0,0,0,0,0,0,0,0,0,128.96,2313.74,6,0,0.04,0.04,14,15.38,0.08,0.04,4.18,LANDED,X11-E,0:/Integrated Flight Computer/aircraft/x11_e_cfg.ks (inferred preloaded)
4.64,TAKEOFF,TO_PREFLIGHT,0.68,80,79.32,5.12,-3.16,0,-0.33,-0.2,90.44,0.089,0.688,0,0,0,0,0,0,0,0,0,0,0,0,0,0,90,0,1,0,-0.1,0,0,0,90,0,0,0,0,0,0,0,0,0,0,0,3,0,0,0,69,0,0,0,0,0,0,,0,NONE,0,0,0,0,0,0,0,0,0,0,0,0,0,0,0,0,0,0,0,0,0,90,1,0,0.381,0,0,1,0,0,0,0,0,0,0,2,2,0,0,VALID,0,0,0,0,0,1,0,0,0,0,0,0,0,0,0,0,0,0,0,0,198.1,2313.72,6,0,0.06,0.06,18,14.29,0.08,0.04,4.46,LANDED,X11-E,0:/Integrated Flight Computer/aircraft/x11_e_cfg.ks (inferred preloaded)
4.9,TAKEOFF,TO_PREFLIGHT,0.74,80,79.26,5.18,-3.16,-0.01,-0.26,0.51,90.46,0.098,0.792,0,0,0,0,0,0,0,0,0,0,0,0,0,0,90,0,1,0,-0.63,0,0,0,90,0,0,0,0,0,0,0,0,0,0,0,3,0,0,0,69,0,0,0,0,0,0,,0,NONE,0,0,0,0,0,0,0,0,0,0,0,0,0,0,0,0,0,0,0,0,0,90,1,0,0.381,0,0,1,0,0,0,0,0,0,0,2,2,0,0,VALID,0,0,0,0,0,1,0,0,0,0,0,0,0,0,0,0,0,0,0,0,271.21,2313.63,6,0,0.04,0.04,22,15.38,0.1,0.04,4.72,LANDED,X11-E,0:/Integrated Flight Computer/aircraft/x11_e_cfg.ks (inferred preloaded)
5.18,TAKEOFF,TO_PREFLIGHT,0.85,80,79.15,5.21,-3.17,0,-0.2,0.06,90.49,0.096,0.904,0,0,0,0,0,0,0,0,0,0,0,0,0,0,90,0,1,0,-0.25,0,0,0,90,0,0,0,0,0,0,0,0,0,0,0,3,0,0,0,69,0,0,0,0,0,0,,0,NONE,0,0,0,0,0,0,0,0,0,0,0,0,0,0,0,0,0,0,0,0,0,90,1,0,0.381,0,0,1,0,0,0,0,0,0,0,2,2,0,0,VALID,0,0,0,0,0,1,0,0,0,0,0,0,0,0,0,0,0,0,0,0,359.68,2313.44,6,0,0.06,0.06,26,14.29,0.1,0.04,5,LANDED,X11-E,0:/Integrated Flight Computer/aircraft/x11_e_cfg.ks (inferred preloaded)
5.44,TAKEOFF,TO_PREFLIGHT,1.01,80,78.99,5.16,-3.17,0,-0.27,-0.29,90.52,0.098,1,0,0,0,0,0,0,0,0,0,0,0,0,0,0,90,0,1,0,0,0,0,0,90,0,0,0,0,0,0,0,0,0,0,0,3,0,0,0,69,0,0,0,0,0,0,,0,NONE,0,0,0,0,0,0,0,0,0,0,0,0,0,0,0,0,0,0,0,0,0,90,1,0,0.381,0,0,1,0,0,0,0,0,0,0,2,2,0,0,VALID,0,0,0,0,0,1,0,0,0,0,0,0,0,0,0,0,0,0,0,0,449.91,2313.16,6,0,0.04,0.04,30,15.38,0.1,0.04,5.26,LANDED,X11-E,0:/Integrated Flight Computer/aircraft/x11_e_cfg.ks (inferred preloaded)
5.72,TAKEOFF,TO_PREFLIGHT,1.25,80,78.75,5.14,-3.17,-0.01,-0.31,0.09,90.57,0.097,1,0,0,0,0,0,0,0,0,0,0,0,0,0,0,90,0,1,0,-0.47,0,0,0,90,0,0,0,0,0,0,0,0,0,0,0,3,0,0,0,69,0,0,0,0,0,0,,0,NONE,0,0,0,0,0,0,0,0,0,0,0,0,0,0,0,0,0,0,0,0,0,90,1,0,0.381,0,0,1,0,0,0,0,0,0,0,2,2,0,0,VALID,0,0,0,0,0,1,0,0,0,0,0,0,0,0,0,0,0,0,0,0,551.35,2312.75,6,0,0.06,0.06,34,14.29,0.1,0.04,5.54,LANDED,X11-E,0:/Integrated Flight Computer/aircraft/x11_e_cfg.ks (inferred preloaded)
5.98,TAKEOFF,TO_PREFLIGHT,1.54,80,78.46,5.19,-3.17,-0.01,-0.23,0.2,90.61,0.098,1,0,0,0,0,0,0,0,0,0,0,0,0,0,0,90,0,1,0,-0.5,0,0,0,90,0,0,0,0,0,0,0,0,0,0,0,3,0,0,0,69,0,0,0,0,0,0,,0,NONE,0,0,0,0,0,0,0,0,0,0,0,0,0,0,0,0,0,0,0,0,0,90,1,0,0.381,0,0,1,0,0,0,0,0,0,0,2,2,0,0,VALID,0,0,0,0,0,1,0,0,0,0,0,0,0,0,0,0,0,0,0,0,640.64,2312.25,6,0,0.04,0.04,38,15.38,0.1,0.04,5.8,LANDED,X11-E,0:/Integrated Flight Computer/aircraft/x11_e_cfg.ks (inferred preloaded)
6.26,TAKEOFF,TO_PREFLIGHT,1.92,80,78.08,5.19,-3.18,-0.01,-0.22,0.03,90.65,0.095,1,0,0,0,0,0,0,0,0,0,0,0,0,0,0,90,0,1,0,-0.28,0,0,0,90,0,0,0,0,0,0,0,0,0,0,0,3,0,0,0,69,0,0,0,0,0,0,,0,NONE,0,0,0,0,0,0,0,0,0,0,0,0,0,0,0,0,0,0,0,0,0,90,1,0,0.381,0,0,1,0,0,0,0,0,0,0,2,2,0,0,VALID,0,0,0,0,0,1,0,0,0,0,0,0,0,0,0,0,0,0,0,0,731.65,2311.59,6,0,0.06,0.06,42,14.29,0.1,0.04,6.08,LANDED,X11-E,0:/Integrated Flight Computer/aircraft/x11_e_cfg.ks (inferred preloaded)
6.52,TAKEOFF,TO_PREFLIGHT,2.33,80,77.67,5.15,-3.18,-0.01,-0.29,-0.07,90.71,0.097,1,0,0,0,0,0,0,0,0,0,0,0,0,0,0,90,0,1,0,-0.26,0,0,0,90,0,0,0,0,0,0,0,0,0,0,0,3,0,0,0,69,0,0,0,0,0,0,,0,NONE,0,0,0,0,0,0,0,0,0,0,0,0,0,0,0,0,0,0,0,0,0,90,1,0,0.381,0,0,1,0,0,0,0,0,0,0,2,2,0,0,VALID,0,0,0,0,0,1,0,0,0,0,0,0,0,0,0,0,0,0,0,0,811.62,2310.87,6,0,0.04,0.04,46,15.38,0.1,0.04,6.34,LANDED,X11-E,0:/Integrated Flight Computer/aircraft/x11_e_cfg.ks (inferred preloaded)
6.8,TAKEOFF,TO_PREFLIGHT,2.84,80,77.16,5.16,-3.18,-0.02,-0.29,0.09,90.76,0.096,1,0,0,0,0,0,0,0,0,0,0,0,0,0,0,90,0,1,0,-0.43,0,0,0,90,0,0,0,0,0,0,0,0,0,0,0,3,0,0,0,69,0,0,0,0,0,0,,0,NONE,0,0,0,0,0,0,0,0,0,0,0,0,0,0,0,0,0,0,0,0,0,90,1,0,0.381,0,0,1,0,0,0,0,0,0,0,2,2,0,0,VALID,0,0,0,0,0,1,0,0,0,0,0,0,0,0,0,0,0,0,0,0,893.1,2310,6,0,0.06,0.06,50,14.29,0.1,0.04,6.62,LANDED,X11-E,0:/Integrated Flight Computer/aircraft/x11_e_cfg.ks (inferred preloaded)
7.06,TAKEOFF,TO_PREFLIGHT,3.36,80,76.64,5.2,-3.19,-0.02,-0.22,0.11,90.82,0.097,1,0,0,0,0,0,0,0,0,0,0,0,0,0,0,90,0,1,0,-0.37,0,0,0,90,0,0,0,0,0,0,0,0,0,0,0,3,0,0,0,69,0,0,0,0,0,0,,0,NONE,0,0,0,0,0,0,0,0,0,0,0,0,0,0,0,0,0,0,0,0,0,90,1,0,0.381,0,0,1,0,0,0,0,0,0,0,2,2,0,0,VALID,0,0,0,0,0,1,0,0,0,0,0,0,0,0,0,0,0,0,0,0,964.66,2309.08,6,0,0.04,0.04,54,15.38,0.1,0.04,6.88,LANDED,X11-E,0:/Integrated Flight Computer/aircraft/x11_e_cfg.ks (inferred preloaded)
7.34,TAKEOFF,TO_PREFLIGHT,3.97,80,76.03,5.18,-3.19,-0.02,-0.24,0.02,90.88,0.093,1,0,0,0,0,0,0,0,0,0,0,0,0,0,0,90,0,1,0,-0.3,0,0,0,90,0,0,0,0,0,0,0,0,0,0,0,3,0,0,0,69,0,0,0,0,0,0,,0,NONE,0,0,0,0,0,0,0,0,0,0,0,0,0,0,0,0,0,0,0,0,0,90,1,0,0.381,0,0,1,0,0,0,0,0,0,0,2,2,0,0,VALID,0,0,0,0,0,1,0,0,0,0,0,0,0,0,0,0,0,0,0,0,1037.54,2308,6,0,0.06,0.06,58,14.29,0.1,0.04,7.16,LANDED,X11-E,0:/Integrated Flight Computer/aircraft/x11_e_cfg.ks (inferred preloaded)
7.6,TAKEOFF,TO_PREFLIGHT,4.59,80,75.41,5.15,-3.2,-0.03,-0.3,0,90.94,0.097,1,0,0,0,0,0,0,0,0,0,0,0,0,0,0,90,0,1,0,-0.33,0,0,0,90,0,0,0,0,0,0,0,0,0,0,0,3,0,0,0,69,0,0,0,0,0,0,,0,NONE,0,0,0,0,0,0,0,0,0,0,0,0,0,0,0,0,0,0,0,0,0,90,1,0,0.381,0,0,1,0,0,0,0,0,0,0,2,2,0,0,VALID,0,0,0,0,0,1,0,0,0,0,0,0,0,0,0,0,0,0,0,0,1101.52,2306.9,6,0,0.04,0.04,62,15.38,0.1,0.04,7.42,LANDED,X11-E,0:/Integrated Flight Computer/aircraft/x11_e_cfg.ks (inferred preloaded)
7.86,TAKEOFF,TO_PREFLIGHT,5.29,80,74.71,5.17,-3.21,-0.04,-0.27,0.08,90.9,0.103,1,0,0,0,0,0,0,0,0,0,0,0,0,0,0,90,0,1,0,-0.39,0,0,0,90,0,0,0,0,0,0,0,0,0,0,0,3,0,0,0,69,0,0,0,0,0,0,,0,NONE,0,0,0,0,0,0,0,0,0,0,0,0,0,0,0,0,0,0,0,0,0,90,1,0,0.381,0,0,1,0,0,0,0,0,0,0,2,2,0,0,VALID,0,0,0,0,0,1,0,0,0,0,0,0,0,0,0,0,0,0,0,0,1166.66,2305.63,6,0,0.06,0.06,66,14.29,0.1,0.04,7.7,LANDED,X11-E,0:/Integrated Flight Computer/aircraft/x11_e_cfg.ks (inferred preloaded)
8.12,TAKEOFF,TO_PREFLIGHT,5.99,80,74.01,5.19,-3.22,-0.03,-0.22,0.07,90.86,0.099,1,0,0,0,0,0,0,0,0,0,0,0,0,0,0,90,0,1,0,-0.33,0,0,0,90,0,0,0,0,0,0,0,0,0,0,0,3,0,0,0,69,0,0,0,0,0,0,,0,NONE,0,0,0,0,0,0,0,0,0,0,0,0,0,0,0,0,0,0,0,0,0,90,1,0,0.381,0,0,1,0,0,0,0,0,0,0,2,2,0,0,VALID,0,0,0,0,0,1,0,0,0,0,0,0,0,0,0,0,0,0,0,0,1223.83,2304.37,6,0,0.04,0.04,70,15.38,0.1,0.04,7.96,LANDED,X11-E,0:/Integrated Flight Computer/aircraft/x11_e_cfg.ks (inferred preloaded)
8.4,TAKEOFF,TO_PREFLIGHT,6.79,80,73.21,5.17,-3.23,-0.04,-0.26,0.03,90.82,0.102,1,0,0,0,0,0,0,0,0,0,0,0,0,0,0,90,0,1,0,-0.32,0,0,0,90,0,0,0,0,0,0,0,0,0,0,0,3,0,0,0,69,0,0,0,0,0,0,,0,NONE,0,0,0,0,0,0,0,0,0,0,0,0,0,0,0,0,0,0,0,0,0,90,1,0,0.381,0,0,1,0,0,0,0,0,0,0,2,2,0,0,VALID,0,0,0,0,0,1,0,0,0,0,0,0,0,0,0,0,0,0,0,0,1281.99,2302.92,6,0,0.06,0.06,74,14.29,0.1,0.04,8.24,LANDED,X11-E,0:/Integrated Flight Computer/aircraft/x11_e_cfg.ks (inferred preloaded)
8.66,TAKEOFF,TO_PREFLIGHT,7.56,80,72.44,5.15,-3.24,-0.04,-0.29,0.02,90.75,0.101,1,0,0,0,0,0,0,0,0,0,0,0,0,0,0,90,0,1,0,-0.34,0,0,0,90,0,0,0,0,0,0,0,0,0,0,0,3,0,0,0,69,0,0,0,0,0,0,,0,NONE,0,0,0,0,0,0,0,0,0,0,0,0,0,0,0,0,0,0,0,0,0,90,1,0,0.381,0,0,1,0,0,0,0,0,0,0,2,2,0,0,VALID,0,0,0,0,0,1,0,0,0,0,0,0,0,0,0,0,0,0,0,0,1333.01,2301.5,6,0,0.04,0.04,78,15.38,0.1,0.04,8.5,LANDED,X11-E,0:/Integrated Flight Computer/aircraft/x11_e_cfg.ks (inferred preloaded)
8.94,TAKEOFF,TO_PREFLIGHT,8.44,80,71.56,5.18,-3.25,-0.05,-0.25,0.08,90.67,0.103,1,0,0,0,0,0,0,0,0,0,0,0,0,0,0,90,0,1,0,-0.36,0,0,0,90,0,0,0,0,0,0,0,0,0,0,0,3,0,0,0,69,0,0,0,0,0,0,,0,NONE,0,0,0,0,0,0,0,0,0,0,0,0,0,0,0,0,0,0,0,0,0,90,1,0,0.381,0,0,1,0,0,0,0,0,0,0,2,2,0,0,VALID,0,0,0,0,0,1,0,0,0,0,0,0,0,0,0,0,0,0,0,0,1384.89,2299.88,6,0,0.06,0.06,82,14.29,0.1,0.04,8.78,LANDED,X11-E,0:/Integrated Flight Computer/aircraft/x11_e_cfg.ks (inferred preloaded)
9.2,TAKEOFF,TO_PREFLIGHT,9.28,80,70.72,5.19,-3.27,-0.05,-0.23,0.06,90.6,0.102,1,0,0,0,0,0,0,0,0,0,0,0,0,0,0,90,0,1,0,-0.32,0,0,0,90,0,0,0,0,0,0,0,0,0,0,0,3,0,0,0,69,0,0,0,0,0,0,,0,NONE,0,0,0,0,0,0,0,0,0,0,0,0,0,0,0,0,0,0,0,0,0,90,1,0,0.381,0,0,1,0,0,0,0,0,0,0,2,2,0,0,VALID,0,0,0,0,0,1,0,0,0,0,0,0,0,0,0,0,0,0,0,0,1430.38,2298.31,6,0,0.04,0.04,86,15.38,0.1,0.04,9.04,LANDED,X11-E,0:/Integrated Flight Computer/aircraft/x11_e_cfg.ks (inferred preloaded)
9.5,TAKEOFF,TO_GROUND_ROLL,10.22,80,69.78,5.16,-3.28,-0.06,-0.27,0.02,90.54,0.1,1,0,0,0,0,0,0,0,0,0,0,0,0,0,0,89.47,0,1,0,-0.32,0,0,0,90,0,0,0,0,0,0,0,0,-0.047,0,0,3,0,0,0,69,0,0,0,0,0,0,,0,NONE,0,0,0,0,0,0,0,0,0,0,0,0,0,0,0,0,0,0,0,0,0,89.47,1,-0.047,1.075,-0.0728,0.652,0,-0.0728,0,0,0,0,0,0,2,2,0,0,VALID,0,0,0,0,0,1,0,0,0,0,0,0,0,0,0,0,0,0,0,0,1479.81,2296.41,6,0,0.06,0.06,90,14.29,0.1,0.04,9.32,LANDED,X11-E,0:/Integrated Flight Computer/aircraft/x11_e_cfg.ks (inferred preloaded)
9.8,TAKEOFF,TO_GROUND_ROLL,11.33,80,68.67,5.17,-3.3,-0.07,-0.26,0.05,90.49,0.105,1,0,0,0,0,0,0,0,0,0,0,0,0,0,0,89.98,0,1,0,-0.34,0,0,0,90,0,0,0,0,0,0,0,0,-0.05,0,0,3,0,0,0,69,0,0,0,0,0,0,,0,NONE,0,0,0,0,0,0,0,0,0,0,0,0,0,0,0,0,0,0,0,0,0,89.98,1,-0.05,0.503,-0.013,0.663,0,-0.013,0,0,0,0,0,0,2,2,0,0,VALID,0,0,0,0,0,1,0,0,0,0,0,0,0,0,0,0,0,0,0,0,1526.07,2294.29,6,0,0.06,0.06,94,13.33,0.1,0.06,9.62,LANDED,X11-E,0:/Integrated Flight Computer/aircraft/x11_e_cfg.ks (inferred preloaded)
10.1,TAKEOFF,TO_GROUND_ROLL,12.53,80,67.47,5.2,-3.32,-0.07,-0.22,0.09,90.43,0.101,1,0,0,0,0,0,0,0,0,0,0,0,0,0,0,89.98,0,1,0,-0.33,0,0,0,90,0,0,0,0,0,0,0,0,-0.053,0,0,3,0,0,0,69,0,0,0,0,0,0,,0,NONE,0,0,0,0,0,0,0,0,0,0,0,0,0,0,0,0,0,0,0,0,0,89.98,1,-0.053,0.454,-0.0119,0.675,0,-0.0119,0,0,0,0,0,0,2,2,0,0,VALID,0,0,0,0,0,1,0,0,0,0,0,0,0,0,0,0,0,0,0,0,1569.33,2291.99,6,0,0.06,0.06,98,13.33,0.1,0.06,9.92,LANDED,X11-E,0:/Integrated Flight Computer/aircraft/x11_e_cfg.ks (inferred preloaded)
10.38,TAKEOFF,TO_GROUND_ROLL,13.69,80,66.31,5.17,-3.34,-0.08,-0.25,0.05,90.39,0.103,1,0,0,0,0,0,0,0,0,0,0,0,0,0,0,89.97,0,1,0,-0.32,0,0,0,90,0,0,0,0,0,0,0,0,-0.056,0,0,3,0,0,0,69,0,0,0,0,0,0,,0,NONE,0,0,0,0,0,0,0,0,0,0,0,0,0,0,0,0,0,0,0,0,0,89.97,1,-0.056,0.412,-0.011,0.687,0,-0.011,0,0,0,0,0,0,2,2,0,0,VALID,0,0,0,0,0,1,0,0,0,0,0,0,0,0,0,0,0,0,0,0,1607.21,2289.76,6,0,0.06,0.06,102,14.29,0.08,0.06,10.2,LANDED,X11-E,0:/Integrated Flight Computer/aircraft/x11_e_cfg.ks (inferred preloaded)
10.68,TAKEOFF,TO_GROUND_ROLL,14.95,80,65.05,5.16,-3.37,-0.09,-0.27,0.03,90.34,0.101,1,0,0,0,0,0,0,0,0,0,0,0,0,0,0,89.97,0,1,0,-0.33,0,0,0,90,0,0,0,0,0,0,0,0,-0.058,0,0,3,0,0,0,69,0,0,0,0,0,0,,0,NONE,0,0,0,0,0,0,0,0,0,0,0,0,0,0,0,0,0,0,0,0,0,89.97,1,-0.058,0.37,-0.0099,0.7,0,-0.0099,0,0,0,0,0,0,2,2,0,0,VALID,0,0,0,0,0,1,0,0,0,0,0,0,0,0,0,0,0,0,0,0,1645.27,2287.29,6,0,0.06,0.06,106,13.33,0.1,0.06,10.5,LANDED,X11-E,0:/Integrated Flight Computer/aircraft/x11_e_cfg.ks (inferred preloaded)
10.98,TAKEOFF,TO_GROUND_ROLL,16.25,80,63.75,5.19,-3.4,-0.1,-0.23,0.08,90.29,0.103,1,0,0,0,0,0,0,0,0,0,0,0,0,0,0,89.97,0,1,0,-0.34,0,0,0,90,0,0,0,0,0,0,0,0,-0.06,0,0,3,0,0,0,69,0,0,0,0,0,0,,0,NONE,0,0,0,0,0,0,0,0,0,0,0,0,0,0,0,0,0,0,0,0,0,89.97,1,-0.06,0.329,-0.0088,0.713,0,-0.0088,0,0,0,0,0,0,2,2,0,0,VALID,0,0,0,0,0,1,0,0,0,0,0,0,0,0,0,0,0,0,0,0,1680.87,2284.74,6,0,0.06,0.06,110,13.33,0.1,0.06,10.8,LANDED,X11-E,0:/Integrated Flight Computer/aircraft/x11_e_cfg.ks (inferred preloaded)
11.28,TAKEOFF,TO_GROUND_ROLL,17.58,80,62.42,5.18,-3.43,-0.1,-0.23,0.06,90.25,0.102,1,0,0,0,0,0,0,0,0,0,0,0,0,0,0,89.96,0,1,0,-0.32,0,0,0,90,0,0,0,0,0,0,0,0,-0.062,0,0,3,0,0,0,69,0,0,0,0,0,0,,0,NONE,0,0,0,0,0,0,0,0,0,0,0,0,0,0,0,0,0,0,0,0,0,89.96,1,-0.062,0.289,-0.0077,0.726,0,-0.0077,0,0,0,0,0,0,2,2,0,0,VALID,0,0,0,0,0,1,0,0,0,0,0,0,0,0,0,0,0,0,0,0,1714.15,2282.12,6,0,0.06,0.06,114,13.33,0.1,0.06,11.1,LANDED,X11-E,0:/Integrated Flight Computer/aircraft/x11_e_cfg.ks (inferred preloaded)
11.58,TAKEOFF,TO_GROUND_ROLL,18.93,80,61.07,5.16,-3.46,-0.11,-0.27,0.04,90.21,0.102,1,0,0,0,0,0,0,0,0,0,0,0,0,0,0,89.96,0,1,0,-0.33,0,0,0.01,90,0,0,0,0,0,0,0,0,-0.064,0,0,3,0,0,0,69,0,0,0,0,0,0,,0,NONE,0,0,0,0,0,0,0,0,0,0,0,0,0,0,0,0,0,0,0,0,0,89.96,1,-0.064,0.252,-0.0067,0.739,0,-0.0067,0,0,0,0,0,0,2,2,0,0,VALID,0,0,0,0,0,1,0,0,0,0,0,0,0,0,0,0,0,0,0,0,1745.24,2279.42,6,0,0.06,0.06,118,13.33,0.1,0.06,11.4,LANDED,X11-E,0:/Integrated Flight Computer/aircraft/x11_e_cfg.ks (inferred preloaded)
11.88,TAKEOFF,TO_GROUND_ROLL,20.31,80,59.69,5.18,-3.49,-0.12,-0.25,0.06,90.17,0.102,1,0,0,0,0,0,0,0,0,0,0,0,0,0,0,89.96,0,1,0,-0.33,0,0,0.01,90,0,0,0,0,0,0,0,0,-0.065,0,0,3,0,0,0,69,0,0,0,0,0,0,,0,NONE,0,0,0,0,0,0,0,0,0,0,0,0,0,0,0,0,0,0,0,0,0,89.96,1,-0.065,0.216,-0.0056,0.753,0,-0.0056,0,0,0,0,0,0,2,2,0,0,VALID,0,0,0,0,0,1,0,0,0,0,0,0,0,0,0,0,0,0,0,0,1774.27,2276.66,6,0,0.06,0.06,122,13.33,0.1,0.06,11.7,LANDED,X11-E,0:/Integrated Flight Computer/aircraft/x11_e_cfg.ks (inferred preloaded)
12.16,TAKEOFF,TO_GROUND_ROLL,21.61,80,58.39,5.19,-3.53,-0.12,-0.23,0.08,90.14,0.104,1,0,0,0,0,0,0,0,0,0,0,0,0,0,0,89.95,0,1,0,-0.33,0,0,0.01,90,0,0,0,0,0,0,0,0,-0.067,0,0,3,0,0,0,69,0,0,0,0,0,0,,0,NONE,0,0,0,0,0,0,0,0,0,0,0,0,0,0,0,0,0,0,0,0,0,89.95,1,-0.067,0.185,-0.0047,0.766,0,-0.0047,0,0,0,0,0,0,2,2,0,0,VALID,0,0,0,0,0,1,0,0,0,0,0,0,0,0,0,0,0,0,0,0,1799.62,2274.03,6,0,0.06,0.06,126,14.29,0.08,0.06,11.98,LANDED,X11-E,0:/Integrated Flight Computer/aircraft/x11_e_cfg.ks (inferred preloaded)
12.46,TAKEOFF,TO_GROUND_ROLL,23.03,80,56.97,5.17,-3.56,-0.13,-0.25,0.04,90.11,0.102,1,0,0,0,0,0,0,0,0,0,0,0,0,0,0,89.95,0,1,0,-0.32,0,0,0.01,90,0,0,0,0,0,0,0,0,-0.068,0,0,3,0,0,0,69,0,0,0,0,0,0,,0,NONE,0,0,0,0,0,0,0,0,0,0,0,0,0,0,0,0,0,0,0,0,0,89.95,1,-0.068,0.154,-0.0038,0.78,0,-0.0038,0,0,0,0,0,0,2,2,0,0,VALID,0,0,0,0,0,1,0,0,0,0,0,0,0,0,0,0,0,0,0,0,1825,2271.16,6,0,0.06,0.06,130,13.33,0.1,0.06,12.28,LANDED,X11-E,0:/Integrated Flight Computer/aircraft/x11_e_cfg.ks (inferred preloaded)
12.74,TAKEOFF,TO_GROUND_ROLL,24.38,80,55.62,5.17,-3.6,-0.14,-0.26,0.05,90.08,0.103,1,0,0,0,0,0,0,0,0,0,0,0,0,0,0,89.95,0,1,0,-0.33,0,0,0.01,90,0,0,0,0,0,0,0,0,-0.069,0,0,3,0,0,0,69,0,0,0,0,0,0,,0,NONE,0,0,0,0,0,0,0,0,0,0,0,0,0,0,0,0,0,0,0,0,0,89.95,1,-0.069,0.127,-0.003,0.794,0,-0.003,0,0,0,0,0,0,2,2,0,0,VALID,0,0,0,0,0,1,0,0,0,0,0,0,0,0,0,0,0,0,0,0,1847.14,2268.42,6,0,0.06,0.06,134,14.29,0.08,0.06,12.56,LANDED,X11-E,0:/Integrated Flight Computer/aircraft/x11_e_cfg.ks (inferred preloaded)
13.02,TAKEOFF,TO_GROUND_ROLL,25.73,80,54.27,5.19,-3.64,-0.14,-0.23,0.07,90.05,0.102,1,0,0,0,0,0,0,0,0,0,0,0,0,0,0,89.95,0,1,0,-0.32,0,0,0.01,90,0,0,0,0,0,0,0,0,-0.07,0,0,3,0,0,0,69,0,0,0,0,0,0,,0,NONE,0,0,0,0,0,0,0,0,0,0,0,0,0,0,0,0,0,0,0,0,0,89.95,1,-0.07,0.102,-0.0022,0.807,0,-0.0022,0,0,0,0,0,0,2,2,0,0,VALID,0,0,0,0,0,1,0,0,0,0,0,0,0,0,0,0,0,0,0,0,1867.85,2265.65,6,0,0.06,0.06,138,14.29,0.08,0.06,12.84,LANDED,X11-E,0:/Integrated Flight Computer/aircraft/x11_e_cfg.ks (inferred preloaded)
13.32,TAKEOFF,TO_GROUND_ROLL,27.21,80,52.79,5.18,-3.68,-0.15,-0.24,0.06,90.02,0.104,1,0,0,0,0,0,0,0,0,0,0,0,0,0,0,89.94,0,1,0,-0.32,0,0,0.01,90,0,0,0,0,0,0,0,0,-0.071,0,0,3,0,0,0,69,0,0,0,0,0,0,,0,NONE,0,0,0,0,0,0,0,0,0,0,0,0,0,0,0,0,0,0,0,0,0,89.94,1,-0.071,0.078,-0.0014,0.822,0,-0.0014,0,0,0,0,0,0,2,2,0,0,VALID,0,0,0,0,0,1,0,0,0,0,0,0,0,0,0,0,0,0,0,0,1888.56,2262.63,6,0,0.06,0.06,142,13.33,0.1,0.06,13.14,LANDED,X11-E,0:/Integrated Flight Computer/aircraft/x11_e_cfg.ks (inferred preloaded)
13.62,TAKEOFF,TO_GROUND_ROLL,28.7,80,51.3,5.17,-3.73,-0.16,-0.25,0.04,90,0.102,1,0,0,0,0,0,0,0,0,0,0,0,0,0,0,89.94,0,1,0,-0.32,0,0,0.01,90,0,0,0,0,0,0,0,0,-0.071,0,0,3,0,0,0,69,0,0,0,0,0,0,,0,NONE,0,0,0,0,0,0,0,0,0,0,0,0,0,0,0,0,0,0,0,0,0,89.94,1,-0.071,0.057,-0.0008,0.837,0,-0.0008,0,0,0,0,0,0,2,2,0,0,VALID,0,0,0,0,0,1,0,0,0,0,0,0,0,0,0,0,0,0,0,0,1907.81,2259.57,6,0,0.06,0.06,146,13.33,0.1,0.06,13.44,LANDED,X11-E,0:/Integrated Flight Computer/aircraft/x11_e_cfg.ks (inferred preloaded)
13.92,TAKEOFF,TO_GROUND_ROLL,30.2,80,49.8,5.18,-3.78,-0.17,-0.24,0.06,89.98,0.103,1,0,0,0,0,0,0,0,0,0,0,0,0,0,0,89.94,0,1,0,-0.32,0,0,0.01,90,0,0,0,0,0,0,0,0,-0.072,0,0,3,0,0,0,69,0,0,0,0,0,0,,0,NONE,0,0,0,0,0,0,0,0,0,0,0,0,0,0,0,0,0,0,0,0,0,89.94,1,-0.072,0.038,-0.0002,0.852,0,-0.0002,0,0,0,0,0,0,2,2,0,0,VALID,0,0,0,0,0,1,0,0,0,0,0,0,0,0,0,0,0,0,0,0,1925.71,2256.47,6,0,0.06,0.06,150,13.33,0.1,0.06,13.74,LANDED,X11-E,0:/Integrated Flight Computer/aircraft/x11_e_cfg.ks (inferred preloaded)
14.22,TAKEOFF,TO_GROUND_ROLL,31.72,80,48.28,5.18,-3.83,-0.17,-0.23,0.06,89.96,0.103,1,0,0,0,0,0,0,0,0,0,0,0,0,0,0,89.94,0,1,0,-0.31,0,0,0.01,90,0,0,0,0,0,0,0,0,-0.072,0,0,3,0,0,0,69,0,0,0,0,0,0,,0,NONE,0,0,0,0,0,0,0,0,0,0,0,0,0,0,0,0,0,0,0,0,0,89.94,1,-0.072,0.022,0.0001,0.867,0,0.0001,0,0,0,0,0,0,2,2,0,0,VALID,0,0,0,0,0,1,0,0,0,0,0,0,0,0,0,0,0,0,0,0,1942.33,2253.34,6,0,0.06,0.06,154,13.33,0.1,0.06,14.04,LANDED,X11-E,0:/Integrated Flight Computer/aircraft/x11_e_cfg.ks (inferred preloaded)
14.52,TAKEOFF,TO_GROUND_ROLL,33.25,80,46.75,5.17,-3.89,-0.18,-0.25,0.05,89.95,0.103,1,0,0,0,0,0,0,0,0,0,0,0,0,0,0,89.94,0,1,0,-0.31,0,0,0.01,90,0,0,0,0,0,0,0,0,-0.072,0,0,3,0,0,0,69,0,0,0,0,0,0,,0,NONE,0,0,0,0,0,0,0,0,0,0,0,0,0,0,0,0,0,0,0,0,0,89.94,1,-0.072,0.009,0.0005,0.882,0,0.0005,0,0,0,0,0,0,2,2,0,0,VALID,0,0,0,0,0,1,0,0,0,0,0,0,0,0,0,0,0,0,0,0,1957.74,2250.18,6,0,0.06,0.06,158,13.33,0.1,0.06,14.34,LANDED,X11-E,0:/Integrated Flight Computer/aircraft/x11_e_cfg.ks (inferred preloaded)
14.82,TAKEOFF,TO_GROUND_ROLL,34.79,80,45.21,5.17,-3.94,-0.19,-0.24,0.05,89.93,0.102,1,0,0,0,0,0,0,0,0,0,0,0,0,0,0,89.93,0,1,0,-0.31,0,0,0.01,90,0,0,0,0,0,0,0,0,-0.072,0,0,3,0,0,0,69,0,0,0,0,0,0,,0,NONE,0,0,0,0,0,0,0,0,0,0,0,0,0,0,0,0,0,0,0,0,0,89.93,1,-0.072,-0.002,0.0006,0.898,0,0.0006,0,0,0,0,0,0,2,2,0,0,VALID,0,0,0,0,0,1,0,0,0,0,0,0,0,0,0,0,0,0,0,0,1972.02,2247,6,0,0.06,0.06,162,13.33,0.1,0.06,14.64,LANDED,X11-E,0:/Integrated Flight Computer/aircraft/x11_e_cfg.ks (inferred preloaded)
15.12,TAKEOFF,TO_GROUND_ROLL,36.35,80,43.65,5.18,-4,-0.2,-0.23,0.06,89.92,0.104,1,0,0,0,0,0,0,0,0,0,0,0,0,0,0,89.93,0,1,0,-0.31,0,0,0.02,90,0,0,0,0,0,0,0,0,-0.071,0,0,3,0,0,0,69,0,0,0,0,0,0,,0,NONE,0,0,0,0,0,0,0,0,0,0,0,0,0,0,0,0,0,0,0,0,0,89.93,1,-0.071,-0.01,0.0009,0.913,0,0.0009,0,0,0,0,0,0,2,2,0,0,VALID,0,0,0,0,0,1,0,0,0,0,0,0,0,0,0,0,0,0,0,0,1985.25,2243.8,6,0,0.06,0.06,166,13.33,0.1,0.06,14.94,LANDED,X11-E,0:/Integrated Flight Computer/aircraft/x11_e_cfg.ks (inferred preloaded)
15.42,TAKEOFF,TO_GROUND_ROLL,37.91,80,42.09,5.17,-4.06,-0.2,-0.24,0.05,89.92,0.102,1,0,0,0,0,0,0,0,0,0,0,0,0,0,0,89.93,0,1,0,-0.31,0,0,0.02,90,0,0,0,0,0,0,0,0,-0.071,0,0,3,0,0,0,69,0,0,0,0,0,0,,0,NONE,0,0,0,0,0,0,0,0,0,0,0,0,0,0,0,0,0,0,0,0,0,89.93,1,-0.071,-0.016,0.0009,0.929,0,0.0009,0,0,0,0,0,0,2,2,0,0,VALID,0,0,0,0,0,1,0,0,0,0,0,0,0,0,0,0,0,0,0,0,1997.48,2240.58,6,0,0.06,0.06,170,13.33,0.1,0.06,15.24,LANDED,X11-E,0:/Integrated Flight Computer/aircraft/x11_e_cfg.ks (inferred preloaded)
15.72,TAKEOFF,TO_GROUND_ROLL,39.49,80,40.51,5.17,-4.12,-0.21,-0.24,0.05,89.91,0.103,1,0,0,0,0,0,0,0,0,0,0,0,0,0,0,89.93,0,1,0,-0.31,0,0,0.02,90,0,0,0,0,0,0,0,0,-0.07,0,0,3,0,0,0,69,0,0,0,0,0,0,,0,NONE,0,0,0,0,0,0,0,0,0,0,0,0,0,0,0,0,0,0,0,0,0,89.93,1,-0.07,-0.02,0.001,0.945,0,0.001,0,0,0,0,0,0,2,2,0,0,VALID,0,0,0,0,0,1,0,0,0,0,0,0,0,0,0,0,0,0,0,0,2008.78,2237.35,6,0,0.06,0.06,174,13.33,0.1,0.06,15.54,LANDED,X11-E,0:/Integrated Flight Computer/aircraft/x11_e_cfg.ks (inferred preloaded)
16.02,TAKEOFF,TO_GROUND_ROLL,41.07,80,38.93,5.18,-4.19,-0.22,-0.23,0.06,89.91,0.101,1,0,0,0,0,0,0,0,0,0,0,0,0,0,0,89.93,0,1,0,-0.31,0,0,0.02,90,0,0,0,0,0,0,0,0,-0.07,0,0,3,0,0,0,69,0,0,0,0,0,0,,0,NONE,0,0,0,0,0,0,0,0,0,0,0,0,0,0,0,0,0,0,0,0,0,89.93,1,-0.07,-0.021,0.0009,0.961,0,0.0009,0,0,0,0,0,0,2,2,0,0,VALID,0,0,0,0,0,1,0,0,0,0,0,0,0,0,0,0,0,0,0,0,2019.2,2234.11,6,0,0.06,0.06,178,13.33,0.1,0.06,15.84,LANDED,X11-E,0:/Integrated Flight Computer/aircraft/x11_e_cfg.ks (inferred preloaded)
16.32,TAKEOFF,TO_GROUND_ROLL,42.66,80,37.34,5.18,-4.25,-0.23,-0.23,0.06,89.91,0.103,1,0,0,0,0,0,0,0,0,0,0,0,0,0,0,89.93,0,1,0,-0.3,0,0,0.02,90,0,0,0,0,0,0,0,0,-0.069,0,0,3,0,0,0,69,0,0,0,0,0,0,,0,NONE,0,0,0,0,0,0,0,0,0,0,0,0,0,0,0,0,0,0,0,0,0,89.93,1,-0.069,-0.022,0.0009,0.977,0,0.0009,0,0,0,0,0,0,2,2,0,0,VALID,0,0,0,0,0,1,0,0,0,0,0,0,0,0,0,0,0,0,0,0,2028.8,2230.87,6,0,0.06,0.06,182,13.33,0.1,0.06,16.14,LANDED,X11-E,0:/Integrated Flight Computer/aircraft/x11_e_cfg.ks (inferred preloaded)
16.62,TAKEOFF,TO_GROUND_ROLL,44.26,80,35.74,5.17,-4.32,-0.24,-0.24,0.05,89.91,0.101,1,0,0,0,0,0,0,0,0,0,0,0,0,0,0,89.93,0,1,0,-0.3,0,0,0.02,90,0,0,0,0,0,0,0,0,-0.068,0,0,3,0,0,0,69,0,0,0,0,0,0,,0,NONE,0,0,0,0,0,0,0,0,0,0,0,0,0,0,0,0,0,0,0,0,0,89.93,1,-0.068,-0.021,0.0007,0.993,0,0.0007,0,0,0,0,0,0,2,2,0,0,VALID,0,0,0,0,0,1,0,0,0,0,0,0,0,0,0,0,0,0,0,0,2037.64,2227.63,6,0,0.06,0.06,186,13.33,0.1,0.06,16.44,LANDED,X11-E,0:/Integrated Flight Computer/aircraft/x11_e_cfg.ks (inferred preloaded)
16.92,TAKEOFF,TO_GROUND_ROLL,45.87,80,34.13,5.18,-4.4,-0.24,-0.23,0.05,89.91,0.103,1,0,0,0,0,0,0,0,0,0,0,0,0,0,0,89.93,0,1,0,-0.3,0,0,0.02,90,0,0,0,0,0,0,0,0,-0.067,0,0,3,0,0,0,69,0,0,0,0,0,0,,0,NONE,0,0,0,0,0,0,0,0,0,0,0,0,0,0,0,0,0,0,0,0,0,89.93,1,-0.067,-0.019,0.0006,1,0,0.0006,0,0,0,0,0,0,2,2,0,0,VALID,0,0,0,0,0,1,0,0,0,0,0,0,0,0,0,0,0,0,0,0,2045.77,2224.4,6,0,0.06,0.06,190,13.33,0.1,0.06,16.74,LANDED,X11-E,0:/Integrated Flight Computer/aircraft/x11_e_cfg.ks (inferred preloaded)
17.22,TAKEOFF,TO_GROUND_ROLL,47.48,80,32.52,5.18,-4.47,-0.25,-0.23,0.06,89.92,0.101,1,0,0,0,0,0,0,0,0,0,0,0,0,0,0,89.93,0,1,0,-0.3,0,0,0.02,90,0,0,0,0,0,0,0,0,-0.066,0,0,3,0,0,0,69,0,0,0,0,0,0,,0,NONE,0,0,0,0,0,0,0,0,0,0,0,0,0,0,0,0,0,0,0,0,0,89.93,1,-0.066,-0.016,0.0004,1,0,0.0004,0,0,0,0,0,0,2,2,0,0,VALID,0,0,0,0,0,1,0,0,0,0,0,0,0,0,0,0,0,0,0,0,2053.22,2221.17,6,0,0.06,0.06,194,13.33,0.1,0.06,17.04,LANDED,X11-E,0:/Integrated Flight Computer/aircraft/x11_e_cfg.ks (inferred preloaded)
17.52,TAKEOFF,TO_GROUND_ROLL,49.1,80,30.9,5.17,-4.54,-0.26,-0.23,0.05,89.92,0.102,1,0,0,0,0,0,0,0,0,0,0,0,0,0,0,89.93,0,1,0,-0.3,0,0,0.03,90,0,0,0,0,0,0,0,0,-0.065,0,0,3,0,0,0,69,0,0,0,0,0,0,,0,NONE,0,0,0,0,0,0,0,0,0,0,0,0,0,0,0,0,0,0,0,0,0,89.93,1,-0.065,-0.013,0.0003,1,0,0.0003,0,0,0,0,0,0,2,2,0,0,VALID,0,0,0,0,0,1,0,0,0,0,0,0,0,0,0,0,0,0,0,0,2060.05,2217.96,6,0,0.06,0.06,198,13.33,0.1,0.06,17.34,LANDED,X11-E,0:/Integrated Flight Computer/aircraft/x11_e_cfg.ks (inferred preloaded)
17.82,TAKEOFF,TO_GROUND_ROLL,50.73,80,29.27,5.17,-4.62,-0.26,-0.23,0.05,89.92,0.101,1,0,0,0,0,0,0,0,0,0,0,0,0,0,0,89.93,0,1,0,-0.3,0,0,0.03,90,0,0,0,0,0,0,0,0,-0.064,0,0,3,0,0,0,69,0,0,0,0,0,0,,0,NONE,0,0,0,0,0,0,0,0,0,0,0,0,0,0,0,0,0,0,0,0,0,89.93,1,-0.064,-0.009,0,1,0,0,0,0,0,0,0,0,2,2,0,0,VALID,0,0,0,0,0,1,0,0,0,0,0,0,0,0,0,0,0,0,0,0,2066.3,2214.77,6,0,0.06,0.06,202,13.33,0.1,0.06,17.64,LANDED,X11-E,0:/Integrated Flight Computer/aircraft/x11_e_cfg.ks (inferred preloaded)
18.12,TAKEOFF,TO_GROUND_ROLL,52.36,80,27.64,5.18,-4.7,-0.27,-0.22,0.06,89.93,0.102,1,0,0,0,0,0,0,0,0,0,0,0,0,0,0,89.93,0,1,0,-0.3,0,0,0.03,90,0,0,0,0,0,0,0,0,-0.063,0,0,3,0,0,0,69,0,0,0,0,0,0,,0,NONE,0,0,0,0,0,0,0,0,0,0,0,0,0,0,0,0,0,0,0,0,0,89.93,1,-0.063,-0.005,-0.0002,1,0,-0.0002,0,0,0,0,0,0,2,2,0,0,VALID,0,0,0,0,0,1,0,0,0,0,0,0,0,0,0,0,0,0,0,0,2072,2211.59,6,0,0.06,0.06,206,13.33,0.1,0.06,17.94,LANDED,X11-E,0:/Integrated Flight Computer/aircraft/x11_e_cfg.ks (inferred preloaded)
18.42,TAKEOFF,TO_GROUND_ROLL,54,80,26,5.17,-4.79,-0.28,-0.23,0.05,89.93,0.101,1,0,0,0,0,0,0,0,0,0,0,0,0,0,0,89.93,0,1,0,-0.29,0,0,0.03,90,0,0,0,0,0,0,0,0,-0.062,0,0,3,0,0,0,69,0,0,0,0,0,0,,0,NONE,0,0,0,0,0,0,0,0,0,0,0,0,0,0,0,0,0,0,0,0,0,89.93,1,-0.062,0,-0.0003,1,0,-0.0003,0,0,0,0,0,0,2,2,0,0,VALID,0,0,0,0,0,1,0,0,0,0,0,0,0,0,0,0,0,0,0,0,2077.2,2208.45,6,0,0.06,0.06,210,13.33,0.1,0.06,18.24,LANDED,X11-E,0:/Integrated Flight Computer/aircraft/x11_e_cfg.ks (inferred preloaded)
18.72,TAKEOFF,TO_GROUND_ROLL,55.64,80,24.36,5.17,-4.87,-0.28,-0.23,0.05,89.94,0.102,1,0,0,0,0,0,0,0,0,0,0,0,0,0,0,89.94,0,1,0,-0.29,0,0,0.03,90,0,0,0,0,0,0,0,0,-0.061,0,0,3,0,0,0,69,0,0,0,0,0,0,,0,NONE,0,0,0,0,0,0,0,0,0,0,0,0,0,0,0,0,0,0,0,0,0,89.94,1,-0.061,0.005,-0.0006,1,0,-0.0006,0,0,0,0,0,0,2,2,0,0,VALID,0,0,0,0,0,1,0,0,0,0,0,0,0,0,0,0,0,0,0,0,2081.92,2205.33,6,0,0.06,0.06,214,13.33,0.1,0.06,18.54,LANDED,X11-E,0:/Integrated Flight Computer/aircraft/x11_e_cfg.ks (inferred preloaded)
19.02,TAKEOFF,TO_GROUND_ROLL,57.28,80,22.72,5.18,-4.96,-0.29,-0.22,0.05,89.95,0.101,1,0,0,0,0,0,0,0,0,0,0,0,0,0,0,89.94,0,1,0,-0.29,0,0,0.03,90,0,0,0,0,0,0,0,0,-0.06,0,0,3,0,0,0,69,0,0,0,0,0,0,,0,NONE,0,0,0,0,0,0,0,0,0,0,0,0,0,0,0,0,0,0,0,0,0,89.94,1,-0.06,0.009,-0.0006,1,0,-0.0006,0,0,0,0,0,0,2,2,0,0,VALID,0,0,0,0,0,1,0,0,0,0,0,0,0,0,0,0,0,0,0,0,2086.21,2202.25,6,0,0.06,0.06,218,13.33,0.1,0.06,18.84,LANDED,X11-E,0:/Integrated Flight Computer/aircraft/x11_e_cfg.ks (inferred preloaded)
19.32,TAKEOFF,TO_GROUND_ROLL,58.93,80,21.07,5.17,-5.04,-0.3,-0.22,0.05,89.95,0.102,1,0,0,0,0,0,0,0,0,0,0,0,0,0,0,89.94,0,1,0,-0.29,0,0,0.04,90,0,0,0,0,0,0,0,0,-0.059,0,0,3,0,0,0,69,0,0,0,0,0,0,,0,NONE,0,0,0,0,0,0,0,0,0,0,0,0,0,0,0,0,0,0,0,0,0,89.94,1,-0.059,0.013,-0.0009,1,0,-0.0009,0,0,0,0,0,0,2,2,0,0,VALID,0,0,0,0,0,1,0,0,0,0,0,0,0,0,0,0,0,0,0,0,2090.1,2199.2,6,0,0.06,0.06,222,13.33,0.1,0.06,19.14,LANDED,X11-E,0:/Integrated Flight Computer/aircraft/x11_e_cfg.ks (inferred preloaded)
19.62,TAKEOFF,TO_GROUND_ROLL,60.58,80,19.42,5.17,-5.13,-0.3,-0.22,0.05,89.96,0.101,1,0,0,0,0,0,0,0,0,0,0,0,0,0,0,89.94,0,1,0,-0.28,0,0,0.04,90,0,0,0,0,0,0,0,0,-0.058,0,0,3,0,0,0,69,0,0,0,0,0,0,,0,NONE,0,0,0,0,0,0,0,0,0,0,0,0,0,0,0,0,0,0,0,0,0,89.94,1,-0.058,0.016,-0.0009,1,0,-0.0009,0,0,0,0,0,0,2,2,0,0,VALID,0,0,0,0,0,1,0,0,0,0,0,0,0,0,0,0,0,0,0,0,2093.61,2196.19,6,0,0.06,0.06,226,13.33,0.1,0.06,19.44,LANDED,X11-E,0:/Integrated Flight Computer/aircraft/x11_e_cfg.ks (inferred preloaded)
19.92,TAKEOFF,TO_GROUND_ROLL,62.24,80,17.76,5.17,-5.22,-0.31,-0.22,0.05,89.96,0.102,1,0,0,0,0,0,0,0,0,0,0,0,0,0,0,89.94,0,1,0,-0.28,0,0,0.04,90,0,0,0,0,0,0,0,0,-0.057,0,0,3,0,0,0,69,0,0,0,0,0,0,,0,NONE,0,0,0,0,0,0,0,0,0,0,0,0,0,0,0,0,0,0,0,0,0,89.94,1,-0.057,0.02,-0.0011,1,0,-0.0011,0,0,0,0,0,0,2,2,0,0,VALID,0,0,0,0,0,1,0,0,0,0,0,0,0,0,0,0,0,0,0,0,2096.77,2193.23,6,0,0.06,0.06,230,13.33,0.1,0.06,19.74,LANDED,X11-E,0:/Integrated Flight Computer/aircraft/x11_e_cfg.ks (inferred preloaded)
20.22,TAKEOFF,TO_GROUND_ROLL,63.9,80,16.1,5.17,-5.32,-0.31,-0.22,0.05,89.96,0.101,1,0,0,0,0,0,0,0,0,0,0,0,0,0,0,89.94,0,1,0,-0.28,0,0,0.04,90,0,0,0,0,0,0,0,0,-0.057,0,0,3,0,0,0,69,0,0,0,0,0,0,,0,NONE,0,0,0,0,0,0,0,0,0,0,0,0,0,0,0,0,0,0,0,0,0,89.94,1,-0.057,0.023,-0.0012,1,0,-0.0012,0,0,0,0,0,0,2,2,0,0,VALID,0,0,0,0,0,1,0,0,0,0,0,0,0,0,0,0,0,0,0,0,2099.61,2190.32,6,0,0.06,0.06,234,13.33,0.1,0.06,20.04,LANDED,X11-E,0:/Integrated Flight Computer/aircraft/x11_e_cfg.ks (inferred preloaded)
20.52,TAKEOFF,TO_GROUND_ROLL,65.56,80,14.44,5.17,-5.41,-0.32,-0.22,0.05,89.97,0.102,1,0,0,0,0,0,0,0,0,0,0,0,0,0,0,89.94,0,1,0,-0.28,0,0,0.04,90,0,0,0,0,0,0,0,0,-0.056,0,0,3,0,0,0,69,0,0,0,0,0,0,,0,NONE,0,0,0,0,0,0,0,0,0,0,0,0,0,0,0,0,0,0,0,0,0,89.94,1,-0.056,0.026,-0.0012,1,0,-0.0012,0,0,0,0,0,0,2,2,0,0,VALID,0,0,0,0,0,1,0,0,0,0,0,0,0,0,0,0,0,0,0,0,2102.17,2187.46,6,0,0.06,0.06,238,13.33,0.1,0.06,20.34,LANDED,X11-E,0:/Integrated Flight Computer/aircraft/x11_e_cfg.ks (inferred preloaded)
20.82,TAKEOFF,TO_GROUND_ROLL,67.22,80,12.78,5.17,-5.51,-0.32,-0.22,0.05,89.97,0.101,1,0,0,0,0,0,0,0,0,0,0,0,0,0,0,89.94,0,1,0,-0.28,0,0,0.05,90,0,0,0,0,0,0,0,0,-0.056,0,0,3,0,0,0,69,0,0,0,0,0,0,,0,NONE,0,0,0,0,0,0,0,0,0,0,0,0,0,0,0,0,0,0,0,0,0,89.94,1,-0.056,0.029,-0.0014,1,0,-0.0014,0,0,0,0,0,0,2,2,0,0,VALID,0,0,0,0,0,1,0,0,0,0,0,0,0,0,0,0,0,0,0,0,2104.45,2184.65,6,0,0.06,0.06,242,13.33,0.1,0.06,20.64,LANDED,X11-E,0:/Integrated Flight Computer/aircraft/x11_e_cfg.ks (inferred preloaded)
21.12,TAKEOFF,TO_GROUND_ROLL,68.89,80,11.11,5.17,-5.61,-0.33,-0.21,0.05,89.97,0.102,1,0,0,0,0,0,0,0,0,0,0,0,0,0,0,89.94,0,1,0,-0.27,0,0,0.05,90,0,0,0,0,0,0,0,0,-0.055,0,0,3,0,0,0,69,0,0,0,0,0,0,,0,NONE,0,0,0,0,0,0,0,0,0,0,0,0,0,0,0,0,0,0,0,0,0,89.94,1,-0.055,0.031,-0.0014,1,0,-0.0014,0,0,0,0,0,0,2,2,0,0,VALID,0,0,0,0,0,1,0,0,0,0,0,0,0,0,0,0,0,0,0,0,2106.64,2182.11,6,0,0.06,0.06,246,13.33,0.1,0.06,20.94,LANDED,X11-E,0:/Integrated Flight Computer/aircraft/x11_e_cfg.ks (inferred preloaded)
21.42,TAKEOFF,TO_GROUND_ROLL,70.56,80,9.44,5.17,-5.71,-0.34,-0.21,0.05,89.98,0.1,1,0,0,0,0,0,0,0,0,0,0,0,0,0,0,89.94,0,1,0,-0.27,0,0,0.05,90,0,0,0,0,0,0,0,0,-0.055,0,0,3,0,0,0,69,0,0,0,0,0,0,,0,NONE,0,0,0,0,0,0,0,0,0,0,0,0,0,0,0,0,0,0,0,0,0,89.94,1,-0.055,0.033,-0.0015,1,0,-0.0015,0,0,0,0,0,0,2,2,0,0,VALID,0,0,0,0,0,1,0,0,0,0,0,0,0,0,0,0,0,0,0,0,2109.57,2180.66,6,0,0.06,0.06,250,13.33,0.1,0.06,21.24,LANDED,X11-E,0:/Integrated Flight Computer/aircraft/x11_e_cfg.ks (inferred preloaded)
21.72,TAKEOFF,TO_GROUND_ROLL,72.23,80,7.77,5.17,-5.81,-0.34,-0.21,0.04,89.98,0.102,1,0,0,0,0,0,0,0,0,0,0,0,0,0,0,89.94,0,1,0,-0.27,0,0,0.05,90,0,0,0,0,0,0,0,0,-0.054,0,0,3,0,0,0,69,0,0,0,0,0,0,,0,NONE,0,0,0,0,0,0,0,0,0,0,0,0,0,0,0,0,0,0,0,0,0,89.94,1,-0.054,0.036,-0.0017,1,0,-0.0017,0,0,0,0,0,0,2,2,0,0,VALID,0,0,0,0,0,1,0,0,0,0,0,0,0,0,0,0,0,0,0,0,2113.35,2180.35,6,0,0.06,0.06,254,13.33,0.1,0.06,21.54,LANDED,X11-E,0:/Integrated Flight Computer/aircraft/x11_e_cfg.ks (inferred preloaded)
22.02,TAKEOFF,TO_GROUND_ROLL,73.9,80,6.1,5.17,-5.91,-0.35,-0.21,0.05,89.98,0.101,1,0,0,0,0,0,0,0,0,0,0,0,0,0,0,89.94,0,1,0,-0.27,0,0,0.05,90,0,0,0,0,0,0,0,0,-0.054,0,0,3,0,0,0,69,0,0,0,0,0,0,,0,NONE,0,0,0,0,0,0,0,0,0,0,0,0,0,0,0,0,0,0,0,0,0,89.94,1,-0.054,0.037,-0.0017,1,0,-0.0017,0,0,0,0,0,0,2,2,0,0,VALID,0,0,0,0,0,1,0,0,0,0,0,0,0,0,0,0,0,0,0,0,2117.96,2181.15,6,0,0.06,0.06,258,13.33,0.1,0.06,21.84,LANDED,X11-E,0:/Integrated Flight Computer/aircraft/x11_e_cfg.ks (inferred preloaded)
22.32,TAKEOFF,TO_GROUND_ROLL,75.58,80,4.42,5.17,-6.02,-0.35,-0.21,0.04,89.98,0.102,1,0,0,0,0,0,0,0,0,0,0,0,0,0,0,89.95,0,1,0,-0.26,0,0,0.06,90,0,0,0,0,0,0,0,0,-0.054,0,0,3,0,0,0,69,0,0,0,0,0,0,,0,NONE,0,0,0,0,0,0,0,0,0,0,0,0,0,0,0,0,0,0,0,0,0,89.95,1,-0.054,0.038,-0.0017,1,0,-0.0017,0,0,0,0,0,0,2,2,0,0,VALID,0,0,0,0,0,1,0,0,0,0,0,0,0,0,0,0,0,0,0,0,2123.41,2183.03,6,0,0.06,0.06,262,13.33,0.1,0.06,22.14,LANDED,X11-E,0:/Integrated Flight Computer/aircraft/x11_e_cfg.ks (inferred preloaded)
22.62,TAKEOFF,TO_GROUND_ROLL,77.27,80,2.73,5.17,-6.12,-0.35,-0.21,0.04,89.99,0.1,1,0,0,0,0,0,0,0,0,0,0,0,0,0,0,89.95,0,1,0,-0.26,0,0,0.06,90,0,0,0,0,0,0,0,0,-0.053,0,0,3,0,0,0,69,0,0,0,0,0,0,,0,NONE,0,0,0,0,0,0,0,0,0,0,0,0,0,0,0,0,0,0,0,0,0,89.95,1,-0.053,0.039,-0.0017,1,0,-0.0017,0,0,0,0,0,0,2,2,0,0,VALID,0,0,0,0,0,1,0,0,0,0,0,0,0,0,0,0,0,0,0,0,2129.68,2185.97,6,0,0.06,0.06,266,13.33,0.1,0.06,22.44,LANDED,X11-E,0:/Integrated Flight Computer/aircraft/x11_e_cfg.ks (inferred preloaded)
22.92,TAKEOFF,TO_GROUND_ROLL,78.96,80,1.04,5.17,-6.23,-0.36,-0.2,0.04,89.99,0.102,1,0,0,0,0,0,0,0,0,0,0,0,0,0,0,89.95,0,1,0,-0.26,0,0,0.06,90,0,0,0,0,0,0,0,0,-0.053,0,0,3,0,0,0,69,0,0,0,0,0,0,,0,NONE,0,0,0,0,0,0,0,0,0,0,0,0,0,0,0,0,0,0,0,0,0,89.95,1,-0.053,0.041,-0.0018,1,0,-0.0018,0,0,0,0,0,0,2,2,0,0,VALID,0,0,0,0,0,1,0,0,0,0,0,0,0,0,0,0,0,0,0,0,2136.75,2189.94,6,0,0.06,0.06,270,13.33,0.1,0.06,22.74,LANDED,X11-E,0:/Integrated Flight Computer/aircraft/x11_e_cfg.ks (inferred preloaded)
23.22,TAKEOFF,TO_GROUND_ROLL,80.66,80,-0.66,5.17,-6.34,-0.36,-0.2,0.04,89.99,0.1,1,0,0,0,0,0,0,0,0,0,0,0,0,0,0,89.95,0,1,0,-0.26,0,0,0.06,90,0,0,0,0,0,0,0,0,-0.053,0,0,3,0,0,0,69,0,0,0,0,0,0,,0,NONE,0,0,0,0,0,0,0,0,0,0,0,0,0,0,0,0,0,0,0,0,0,89.95,1,-0.053,0.042,-0.0017,1,0,-0.0017,0,0,0,0,0,0,2,2,0,0,VALID,0,0,0,0,0,1,0,0,0,0,0,0,0,0,0,0,0,0,0,0,2144.63,2194.91,6,0,0.06,0.06,274,13.33,0.1,0.06,23.04,LANDED,X11-E,0:/Integrated Flight Computer/aircraft/x11_e_cfg.ks (inferred preloaded)
23.52,TAKEOFF,TO_GROUND_ROLL,82.36,80,-2.36,5.17,-6.45,-0.37,-0.2,0.04,89.99,0.102,1,0,0,0,0,0,0,0,0,0,0,0,0,0,0,89.95,0,1,0,-0.25,0,0,0.07,90,0,0,0,0,0,0,0,0,-0.053,0,0,3,0,0,0,69,0,0,0,0,0,0,,0,NONE,0,0,0,0,0,0,0,0,0,0,0,0,0,0,0,0,0,0,0,0,0,89.95,1,-0.053,0.044,-0.0019,1,0,-0.0019,0,0,0,0,0,0,2,2,0,0,VALID,0,0,0,0,0,1,0,0,0,0,0,0,0,0,0,0,0,0,0,0,2153.3,2200.86,6,0,0.06,0.06,278,13.33,0.1,0.06,23.34,LANDED,X11-E,0:/Integrated Flight Computer/aircraft/x11_e_cfg.ks (inferred preloaded)
23.82,TAKEOFF,TO_GROUND_ROLL,84.07,80,-4.07,5.17,-6.56,-0.37,-0.2,0.04,89.99,0.1,1,0,0,0,0,0,0,0,0,0,0,0,0,0,0,89.94,0,1,0,-0.25,0,0,0.07,90,0,0,0,0,0,0,0,0,-0.053,0,0,3,0,0,0,69,0,0,0,0,0,0,,0,NONE,0,0,0,0,0,0,0,0,0,0,0,0,0,0,0,0,0,0,0,0,0,89.94,1,-0.053,0.047,-0.0023,1,0,-0.0023,0,0,0,0,0,0,2,2,0,0,VALID,0,0,0,0,0,1,0,0,0,0,0,0,0,0,0,0,0,0,0,0,2162.75,2207.76,6,0,0.06,0.06,282,13.33,0.1,0.06,23.64,LANDED,X11-E,0:/Integrated Flight Computer/aircraft/x11_e_cfg.ks (inferred preloaded)
24.12,TAKEOFF,TO_GROUND_ROLL,85.79,80,-5.79,5.17,-6.67,-0.37,-0.2,0.04,89.99,0.102,1,0,0,0,0,0,0,0,0,0,0,0,0,0,0,89.95,0,1,0,-0.25,0,0,0.07,90,0,0,0,0,0,0,0,0,-0.053,0,0,3,0,0,0,69,0,0,0,0,0,0,,0,NONE,0,0,0,0,0,0,0,0,0,0,0,0,0,0,0,0,0,0,0,0,0,89.95,1,-0.053,0.046,-0.0021,1,0,-0.0021,0,0,0,0,0,0,2,2,0,0,VALID,0,0,0,0,0,1,0,0,0,0,0,0,0,0,0,0,0,0,0,0,2172.96,2215.58,6,0,0.06,0.06,286,13.33,0.1,0.06,23.94,LANDED,X11-E,0:/Integrated Flight Computer/aircraft/x11_e_cfg.ks (inferred preloaded)
24.42,TAKEOFF,TO_GROUND_ROLL,87.52,80,-7.52,5.17,-6.78,-0.38,-0.19,0.04,89.99,0.101,1,0,0,0,0,0,0,0,0,0,0,0,0,0,0,89.95,0,1,0,-0.25,0,0,0.07,90,0,0,0,0,0,0,0,0,-0.053,0,0,3,0,0,0,69,0,0,0,0,0,0,,0,NONE,0,0,0,0,0,0,0,0,0,0,0,0,0,0,0,0,0,0,0,0,0,89.95,1,-0.053,0.048,-0.0022,1,0,-0.0022,0,0,0,0,0,0,2,2,0,0,VALID,0,0,0,0,0,1,0,0,0,0,0,0,0,0,0,0,0,0,0,0,2183.93,2224.31,6,0,0.06,0.06,290,13.33,0.1,0.06,24.24,LANDED,X11-E,0:/Integrated Flight Computer/aircraft/x11_e_cfg.ks (inferred preloaded)
24.72,TAKEOFF,TO_GROUND_ROLL,89.26,80,-9.26,5.17,-6.89,-0.38,-0.19,0.04,89.99,0.102,1,0,0,0,0,0,0,0,0,0,0,0,0,0,0,89.95,0,1,0,-0.24,0,0,0.08,90,0,0,0,0,0,0,0,0,-0.053,0,0,3,0,0,0,69,0,0,0,0,0,0,,0,NONE,0,0,0,0,0,0,0,0,0,0,0,0,0,0,0,0,0,0,0,0,0,89.95,1,-0.053,0.048,-0.0022,1,0,-0.0022,0,0,0,0,0,0,2,2,0,0,VALID,0,0,0,0,0,1,0,0,0,0,0,0,0,0,0,0,0,0,0,0,2195.65,2233.92,6,0,0.06,0.06,294,13.33,0.1,0.06,24.54,LANDED,X11-E,0:/Integrated Flight Computer/aircraft/x11_e_cfg.ks (inferred preloaded)
25.02,TAKEOFF,TO_GROUND_ROLL,91.01,80,-11.01,5.17,-7.01,-0.38,-0.19,0.04,90,0.101,1,0,0,0,0,0,0,0,0,0,0,0,0,0,0,89.95,0,1,0,-0.24,0,0,0.08,90,0,0,0,0,0,0,0,0,-0.053,0,0,3,0,0,0,69,0,0,0,0,0,0,,0,NONE,0,0,0,0,0,0,0,0,0,0,0,0,0,0,0,0,0,0,0,0,0,89.95,1,-0.053,0.049,-0.0022,1,0,-0.0022,0,0,0,0,0,0,2,2,0,0,VALID,0,0,0,0,0,1,0,0,0,0,0,0,0,0,0,0,0,0,0,0,2208.09,2244.39,6,0,0.06,0.06,298,13.33,0.1,0.06,24.84,LANDED,X11-E,0:/Integrated Flight Computer/aircraft/x11_e_cfg.ks (inferred preloaded)
25.32,TAKEOFF,TO_GROUND_ROLL,92.77,80,-12.77,5.17,-7.12,-0.38,-0.19,0.04,90,0.102,1,0,0,0,0,0,0,0,0,0,0,0,0,0,0,89.95,0,1,0,-0.24,0,0,0.08,90,0,0,0,0,0,0,0,0,-0.053,0,0,3,0,0,0,69,0,0,0,0,0,0,,0,NONE,0,0,0,0,0,0,0,0,0,0,0,0,0,0,0,0,0,0,0,0,0,89.95,1,-0.053,0.049,-0.002,1,0,-0.002,0,0,0,0,0,0,2,2,0,0,VALID,0,0,0,0,0,1,0,0,0,0,0,0,0,0,0,0,0,0,0,0,2221.24,2255.69,6,0,0.06,0.06,302,13.33,0.1,0.06,25.14,LANDED,X11-E,0:/Integrated Flight Computer/aircraft/x11_e_cfg.ks (inferred preloaded)
25.62,TAKEOFF,TO_GROUND_ROLL,94.54,80,-14.54,5.17,-7.24,-0.39,-0.19,0.04,90,0.101,1,0,0,0,0,0,0,0,0,0,0,0,0,0,0,89.95,0,1,0,-0.23,0,0,0.08,90,0,0,0,0,0,0,0,0,-0.053,0,0,3,0,0,0,69,0,0,0,0,0,0,,0,NONE,0,0,0,0,0,0,0,0,0,0,0,0,0,0,0,0,0,0,0,0,0,89.95,1,-0.053,0.052,-0.0024,1,0,-0.0024,0,0,0,0,0,0,2,2,0,0,VALID,0,0,0,0,0,1,0,0,0,0,0,0,0,0,0,0,0,0,0,0,2235.09,2267.8,6,0,0.06,0.06,306,13.33,0.1,0.06,25.44,LANDED,X11-E,0:/Integrated Flight Computer/aircraft/x11_e_cfg.ks (inferred preloaded)
25.92,TAKEOFF,TO_GROUND_ROLL,96.32,80,-16.32,5.17,-7.35,-0.39,-0.18,0.04,90,0.102,1,0,0,0,0,0,0,0,0,0,0,0,0,0,0,89.95,0,1,0,-0.23,0,0,0.09,90,0,0,0,0,0,0,0,0,-0.053,0,0,3,0,0,0,69,0,0,0,0,0,0,,0,NONE,0,0,0,0,0,0,0,0,0,0,0,0,0,0,0,0,0,0,0,0,0,89.95,1,-0.053,0.049,-0.002,1,0,-0.002,0,0,0,0,0,0,2,2,0,0,VALID,0,0,0,0,0,1,0,0,0,0,0,0,0,0,0,0,0,0,0,0,2249.62,2280.69,6,0,0.06,0.06,310,13.33,0.1,0.06,25.74,LANDED,X11-E,0:/Integrated Flight Computer/aircraft/x11_e_cfg.ks (inferred preloaded)
26.22,TAKEOFF,TO_GROUND_ROLL,98.12,80,-18.12,5.17,-7.47,-0.39,-0.18,0.04,90,0.1,1,0,0,0,0,0,0,0,0,0,0,0,0,0,0,89.95,0,1,0,-0.23,0,0,0.09,90,0,0,0,0,0,0,0,0,-0.053,0,0,3,0,0,0,69,0,0,0,0,0,0,,0,NONE,0,0,0,0,0,0,0,0,0,0,0,0,0,0,0,0,0,0,0,0,0,89.95,1,-0.053,0.051,-0.0022,1,0,-0.0022,0,0,0,0,0,0,2,2,0,0,VALID,0,0,0,0,0,1,0,0,0,0,0,0,0,0,0,0,0,0,0,0,2264.82,2294.34,6,0,0.06,0.06,314,13.33,0.1,0.06,26.04,LANDED,X11-E,0:/Integrated Flight Computer/aircraft/x11_e_cfg.ks (inferred preloaded)
26.52,TAKEOFF,TO_GROUND_ROLL,99.93,80,-19.93,5.17,-7.59,-0.39,-0.18,0.03,90,0.102,1,0,0,0,0,0,0,0,0,0,0,0,0,0,0,89.95,0,1,0,-0.22,0,0,0.09,90,0,0,0,0,0,0,0,0,-0.053,0,0,3,0,0,0,69,0,0,0,0,0,0,,0,NONE,0,0,0,0,0,0,0,0,0,0,0,0,0,0,0,0,0,0,0,0,0,89.95,1,-0.053,0.052,-0.0023,1,0,-0.0023,0,0,0,0,0,0,2,2,0,0,VALID,0,0,0,0,0,1,0,0,0,0,0,0,0,0,0,0,0,0,0,0,2280.66,2308.73,6,0,0.06,0.06,318,13.33,0.1,0.06,26.34,LANDED,X11-E,0:/Integrated Flight Computer/aircraft/x11_e_cfg.ks (inferred preloaded)
26.82,TAKEOFF,TO_GROUND_ROLL,101.75,80,-21.75,5.16,-7.71,-0.39,-0.18,0.03,90,0.101,1,0,0,0,0,0,0,0,0,0,0,0,0,0,0,89.95,0,1,0,-0.22,0,0,0.1,90,0,0,0,0,0,0,0,0,-0.053,0,0,3,0,0,0,69,0,0,0,0,0,0,,0,NONE,0,0,0,0,0,0,0,0,0,0,0,0,0,0,0,0,0,0,0,0,0,89.95,1,-0.053,0.051,-0.0022,1,0,-0.0022,0,0,0,0,0,0,2,2,0,0,VALID,0,0,0,0,0,1,0,0,0,0,0,0,0,0,0,0,0,0,0,0,2297.12,2323.83,6,0,0.06,0.06,322,13.33,0.1,0.06,26.64,LANDED,X11-E,0:/Integrated Flight Computer/aircraft/x11_e_cfg.ks (inferred preloaded)
27.12,TAKEOFF,TO_GROUND_ROLL,103.59,80,-23.59,5.16,-7.83,-0.39,-0.18,0.03,90,0.102,1,0,0,0,0,0,0,0,0,0,0,0,0,0,0,89.95,0,1,0,-0.22,0,0,0.1,90,0,0,0,0,0,0,0,0,-0.053,0,0,3,0,0,0,69,0,0,0,0,0,0,,0,NONE,0,0,0,0,0,0,0,0,0,0,0,0,0,0,0,0,0,0,0,0,0,89.95,1,-0.053,0.051,-0.0022,1,0,-0.0022,0,0,0,0,0,0,2,2,0,0,VALID,0,0,0,0,0,1,0,0,0,0,0,0,0,0,0,0,0,0,0,0,2314.18,2339.6,6,0,0.06,0.06,326,13.33,0.1,0.06,26.94,LANDED,X11-E,0:/Integrated Flight Computer/aircraft/x11_e_cfg.ks (inferred preloaded)
27.42,TAKEOFF,TO_GROUND_ROLL,105.44,80,-25.44,5.16,-7.95,-0.4,-0.17,0.03,90,0.101,1,0,0,0,0,0,0,0,0,0,0,0,0,0,0,89.95,0,1,0,-0.21,0,0,0.1,90,0,0,0,0,0,0,0,0,-0.053,0,0,3,0,0,0,69,0,0,0,0,0,0,,0,NONE,0,0,0,0,0,0,0,0,0,0,0,0,0,0,0,0,0,0,0,0,0,89.95,1,-0.053,0.051,-0.0021,1,0,-0.0021,0,0,0,0,0,0,2,2,0,0,VALID,0,0,0,0,0,1,0,0,0,0,0,0,0,0,0,0,0,0,0,0,2331.83,2356.03,6,0,0.06,0.06,330,13.33,0.1,0.06,27.24,LANDED,X11-E,0:/Integrated Flight Computer/aircraft/x11_e_cfg.ks (inferred preloaded)
27.72,TAKEOFF,TO_GROUND_ROLL,107.31,80,-27.31,5.16,-8.06,-0.4,-0.17,0.03,90,0.102,1,0,0,0,0,0,0,0,0,0,0,0,0,0,0,89.95,0,1,0,-0.21,0,0,0.11,90,0,0,0,0,0,0,0,0,-0.054,0,0,3,0,0,0,69,0,0,0,0,0,0,,0,NONE,0,0,0,0,0,0,0,0,0,0,0,0,0,0,0,0,0,0,0,0,0,89.95,1,-0.054,0.052,-0.0022,1,0,-0.0022,0,0,0,0,0,0,2,2,0,0,VALID,0,0,0,0,0,1,0,0,0,0,0,0,0,0,0,0,0,0,0,0,2350.02,2373.07,6,0,0.06,0.06,334,13.33,0.1,0.06,27.54,LANDED,X11-E,0:/Integrated Flight Computer/aircraft/x11_e_cfg.ks (inferred preloaded)
28.02,TAKEOFF,TO_GROUND_ROLL,109.2,80,-29.2,5.16,-8.18,-0.4,-0.17,0.03,90,0.1,1,0,0,0,0,0,0,0,0,0,0,0,0,0,0,89.95,0,1,0,-0.21,0,0,0.11,90,0,0,0,0,0,0,0,0,-0.054,0,0,3,0,0,0,69,0,0,0,0,0,0,,0,NONE,0,0,0,0,0,0,0,0,0,0,0,0,0,0,0,0,0,0,0,0,0,89.95,1,-0.054,0.053,-0.0023,1,0,-0.0023,0,0,0,0,0,0,2,2,0,0,VALID,0,0,0,0,0,1,0,0,0,0,0,0,0,0,0,0,0,0,0,0,2368.74,2390.71,6,0,0.06,0.06,338,13.33,0.1,0.06,27.84,LANDED,X11-E,0:/Integrated Flight Computer/aircraft/x11_e_cfg.ks (inferred preloaded)
28.32,TAKEOFF,TO_GROUND_ROLL,111.1,80,-31.1,5.16,-8.3,-0.4,-0.17,0.03,90,0.102,1,0,0,0,0,0,0,0,0,0,0,0,0,0,0,89.95,0,1,0,-0.2,0,0,0.11,90,0,0,0,0,0,0,0,0,-0.054,0,0,3,0,0,0,69,0,0,0,0,0,0,,0,NONE,0,0,0,0,0,0,0,0,0,0,0,0,0,0,0,0,0,0,0,0,0,89.95,1,-0.054,0.054,-0.0023,1,0,-0.0023,0,0,0,0,0,0,2,2,0,0,VALID,0,0,0,0,0,1,0,0,0,0,0,0,0,0,0,0,0,0,0,0,2387.96,2408.9,6,0,0.06,0.06,342,13.33,0.1,0.06,28.14,LANDED,X11-E,0:/Integrated Flight Computer/aircraft/x11_e_cfg.ks (inferred preloaded)
28.62,TAKEOFF,TO_GROUND_ROLL,113.01,80,-33.01,5.16,-8.42,-0.4,-0.16,0.03,90,0.101,1,0,0,0,0,0,0,0,0,0,0,0,0,0,0,89.95,0,1,0,-0.2,0,0,0.11,90,0,0,0,0,0,0,0,0,-0.054,0,0,3,0,0,0,69,0,0,0,0,0,0,,0,NONE,0,0,0,0,0,0,0,0,0,0,0,0,0,0,0,0,0,0,0,0,0,89.95,1,-0.054,0.055,-0.0024,1,0,-0.0024,0,0,0,0,0,0,2,2,0,0,VALID,0,0,0,0,0,1,0,0,0,0,0,0,0,0,0,0,0,0,0,0,2407.64,2427.6,6,0,0.06,0.06,346,13.33,0.1,0.06,28.44,LANDED,X11-E,0:/Integrated Flight Computer/aircraft/x11_e_cfg.ks (inferred preloaded)
28.92,TAKEOFF,TO_GROUND_ROLL,114.95,80,-34.95,5.16,-8.54,-0.39,-0.16,0.03,90,0.101,1,0,0,0,0,0,0,0,0,0,0,0,0,0,0,89.95,0,1,0,-0.2,0,0,0.12,90,0,0,0,0,0,0,0,0,-0.054,0,0,3,0,0,0,69,0,0,0,0,0,0,,0,NONE,0,0,0,0,0,0,0,0,0,0,0,0,0,0,0,0,0,0,0,0,0,89.95,1,-0.054,0.056,-0.0024,1,0,-0.0024,0,0,0,0,0,0,2,2,0,0,VALID,0,0,0,0,0,1,0,0,0,0,0,0,0,0,0,0,0,0,0,0,2427.75,2446.79,6,0,0.06,0.06,350,13.33,0.1,0.06,28.74,LANDED,X11-E,0:/Integrated Flight Computer/aircraft/x11_e_cfg.ks (inferred preloaded)
29.22,TAKEOFF,TO_GROUND_ROLL,116.9,80,-36.9,5.16,-8.66,-0.4,-0.16,0.03,90,0.101,1,0,0,0,0,0,0,0,0,0,0,0,0,0,0,89.95,0,1,0,-0.19,0,0,0.12,90,0,0,0,0,0,0,0,0,-0.055,0,0,3,0,0,0,69,0,0,0,0,0,0,,0,NONE,0,0,0,0,0,0,0,0,0,0,0,0,0,0,0,0,0,0,0,0,0,89.95,1,-0.055,0.057,-0.0024,1,0,-0.0024,0,0,0,0,0,0,2,2,0,0,VALID,0,0,0,0,0,1,0,0,0,0,0,0,0,0,0,0,0,0,0,0,2448.25,2466.42,6,0,0.06,0.06,354,13.33,0.1,0.06,29.04,LANDED,X11-E,0:/Integrated Flight Computer/aircraft/x11_e_cfg.ks (inferred preloaded)
29.52,TAKEOFF,TO_GROUND_ROLL,118.87,80,-38.87,5.16,-8.78,-0.39,-0.16,0.03,90,0.101,1,0,0,0,0,0,0,0,0,0,0,0,0,0,0,89.94,0,1,0,-0.19,0,0,0.13,90,0,0,0,0,0,0,0,0,-0.055,0,0,3,0,0,0,69,0,0,0,0,0,0,,0,NONE,0,0,0,0,0,0,0,0,0,0,0,0,0,0,0,0,0,0,0,0,0,89.94,1,-0.055,0.059,-0.0027,1,0,-0.0027,0,0,0,0,0,0,2,2,0,0,VALID,0,0,0,0,0,1,0,0,0,0,0,0,0,0,0,0,0,0,0,0,2469.11,2486.45,6,0,0.06,0.06,358,13.33,0.1,0.06,29.34,LANDED,X11-E,0:/Integrated Flight Computer/aircraft/x11_e_cfg.ks (inferred preloaded)
29.82,TAKEOFF,TO_ROTATE,121,80,-41,5.16,-8.89,-0.39,-0.15,0.03,90,0.1,1,0,0,0,0,0,0,0,0,0,0,0,0,0,0,89.94,0.061,1,0,-0.19,0,0,0.13,90,0,0,0,0,0,0,0,0,-0.055,0,0,3,0,0,0,69,0,0,0,0,0,0,,0,NONE,0,0,0,0,0,0,0,0.14,0,0,0,0,0,0,0,0,0,0,0,0,0,89.94,1,-0.055,0.061,-0.0028,1,0,-0.0028,0,0.14,0.061,0.215,0.08,0,2,2,0,0,VALID,0,0,0,0,0,1,0,0,0,0,0,0,0,0,0,0,0,0,0,0,2490.28,2506.83,6,0,0.06,0.06,362,12.5,0.1,0.06,29.64,LANDED,X11-E,0:/Integrated Flight Computer/aircraft/x11_e_cfg.ks (inferred preloaded)
30.12,TAKEOFF,TO_ROTATE,123.01,80,-43.01,5.18,-9.01,-0.4,-0.12,0.06,90.01,0.102,1,0,0,0,0,0,0,0,0,0,0,0,0,0,0,89.94,1.141,1,0,-0.19,0,0,0.13,90,0,0,0,0,0,0,0,0,-0.055,0,0,3,0,0,0,69,0,0,0,0,0,0,,0,NONE,0,0,0,0,0,0,0,0.2435,0,0,0,0,0,0,0,0,0,0,0,0,0,89.94,1,-0.055,0.062,-0.0029,1,0,-0.0029,0,0.2435,1.141,1.258,0.08,0,2,2,0,0,VALID,0,0,0,0,0,1,0,0,0,0,0,0,0,0,0,0,0,0,0,0,2511.72,2527.53,6,0,0.06,0.06,366,13.33,0.1,0.06,29.94,LANDED,X11-E,0:/Integrated Flight Computer/aircraft/x11_e_cfg.ks (inferred preloaded)
30.42,TAKEOFF,TO_ROTATE,125.04,80,-45.04,5.25,-9.13,-0.39,-0.01,0.16,90.01,0.102,1,0,0,0,0,0,0,0,0,0,0,0,0,0,0,89.94,2.221,1,0,-0.18,0,0,0.14,90,0,0,0,0,0,0,0,0,-0.056,0,0,3,0,0,0,69,0,0,0,0,0,0,,0,NONE,0,0,0,0,0,0,0,0.3702,0,0,0,0,0,0,0,0,0,0,0,0,0,89.94,1,-0.056,0.062,-0.0028,1,0,-0.0028,0,0.3702,2.221,2.232,0.08,0,2,2,0,0,VALID,0,0,0,0,0,1,0,0,0,0,0,0,0,0,0,0,0,0,0,0,2533.4,2548.49,6,0,0.06,0.06,370,13.33,0.1,0.06,30.24,LANDED,X11-E,0:/Integrated Flight Computer/aircraft/x11_e_cfg.ks (inferred preloaded)
30.72,TAKEOFF,TO_ROTATE,127.08,80,-47.08,5.28,-9.25,-0.39,0.05,0.22,90.01,0.104,1,0,0,0,0,0,0,0,0,0,0,0,0,0,0,89.94,3.301,1,0,-0.18,0,0,0.14,90,0,0,0,0,0,0,0,0,-0.056,0,0,3,0,0,0,69,0,0,0,0,0,0,,0,NONE,0,0,0,0,0,0,0,0.5027,0,0,0,0,0,0,0,0,0,0,0,0,0,89.94,1,-0.056,0.063,-0.0028,1,0,-0.0028,0,0.5027,3.301,3.251,0.08,0,2,2,0,0,VALID,0,0,0,0,0,1,0,0,0,0,0,0,0,0,0,0,0,0,0,0,2555.19,2569.6,6,0,0.06,0.06,374,13.33,0.1,0.06,30.54,LANDED,X11-E,0:/Integrated Flight Computer/aircraft/x11_e_cfg.ks (inferred preloaded)
31.02,TAKEOFF,TO_ROTATE,129.13,80,-49.13,5.31,-9.37,-0.39,0.09,0.26,90,0.104,1,0,0,0,0,0,0,0,0,0,0,0,0,0,0,89.95,4.381,1,0,-0.17,0,0,0.14,90,0,0,0,0,0,0,0,0,-0.056,0,0,3,0,0,0,69,0,0,0,0,0,0,,0,NONE,0,0,0,0,0,0,0,0.6375,0,0,0,0,0,0,0,0,0,0,0,0,0,89.95,1,-0.056,0.056,-0.0021,1,0,-0.0021,0,0.6375,4.381,4.289,0.08,0,2,2,0,0,VALID,0,0,0,0,0,1,0,0,0,0,0,0,0,0,0,0,0,0,0,0,2576.98,2590.72,6,0,0.06,0.06,378,13.33,0.1,0.06,30.84,LANDED,X11-E,0:/Integrated Flight Computer/aircraft/x11_e_cfg.ks (inferred preloaded)
31.32,TAKEOFF,TO_ROTATE,131.19,80,-51.19,5.38,-9.48,-0.35,0.2,0.35,90,0.105,1,0,0,0,0,0,0,0,0,0,0,0,0,0,0,89.95,5.461,1,0,-0.15,0,0,0.15,90,0,0,0,0,0,0,0,0,-0.057,0,0,3,0,0,0,69,0,0,0,0,0,0,,0,NONE,0,0,0,0,0,0,0,0.72,0,0,0,0,0,0,0,0,0,0,0,0,0,89.95,1,-0.057,0.047,-0.0014,1,0,-0.0014,0,0.72,5.461,5.265,0.08,0,2,2,0,0,VALID,0,0,0,0,0,1,0,0,0,0,0,0,0,0,0,0,0,0,0,0,2598.84,2611.98,6,0,0.06,0.06,382,13.33,0.1,0.06,31.14,LANDED,X11-E,0:/Integrated Flight Computer/aircraft/x11_e_cfg.ks (inferred preloaded)
31.62,TAKEOFF,TO_ROTATE,133.23,80,-53.23,5.58,-9.58,-0.26,0.43,0.54,89.99,0.105,1,0,0,0,0,0,0,0,0,0,0,0,0,0,0,89.94,6.541,1,0,-0.11,0,0,0.15,90,0,0,0,0,0,0,0,0,-0.057,0,0,3,0,0,0,69,0,0,0,0,0,0,,0,NONE,0,0,0,0,0,0,0,0.72,0,0,0,0,0,0,0,0,0,0,0,0,0,89.94,1,-0.057,0.048,-0.0019,1,0,-0.0019,0,0.72,6.541,6.111,0.08,0,2,2,0,0,VALID,0,0,0,0,0,1,0,0,0,0,0,0,0,0,0,0,0,0,0,0,2620.97,2633.54,6,0,0.06,0.06,386,13.33,0.1,0.06,31.44,LANDED,X11-E,0:/Integrated Flight Computer/aircraft/x11_e_cfg.ks (inferred preloaded)
31.92,TAKEOFF,TO_ROTATE,135.29,80,-55.29,5.98,-9.66,-0.2,0.91,0.99,89.99,0.106,1,0,0,0,0,0,0,0,0,0,0,0,0,0,0,89.94,7.621,1,0,-0.09,0,0,0.16,90,0,0,0,0,0,0,0,0,-0.056,0,0,3,0,0,0,69,0,0,0,0,0,0,,0,NONE,0,0,0,0,0,0,0,0.72,0,0,0,0,0,0,0,0,0,0,0,0,0,89.94,1,-0.056,0.046,-0.0018,1,0,-0.0018,0,0.72,7.621,6.713,0.08,0,2,2,0,0,VALID,0,0,0,0,0,1,0,0,0,0,0,0,0,0,0,0,0,0,0,0,2643.48,2655.51,6,0,0.06,0.06,390,13.33,0.1,0.06,31.74,LANDED,X11-E,0:/Integrated Flight Computer/aircraft/x11_e_cfg.ks (inferred preloaded)
32.22,TAKEOFF,TO_ROTATE,137.35,80,-57.35,6.62,-9.76,-0.09,1.67,1.71,89.99,0.105,1,0,0,0,0,0,0,0,0,0,0,0,0,0,0,89.94,8.701,1,0,-0.04,0,0,0.16,90,0,0,0,0,0,0,0,0,-0.056,0,0,3,0,0,0,69,0,0,0,0,0,0,,0,NONE,0,0,0,0,0,0,0,0.72,0,0,0,0,0,0,0,0,0,0,0,0,0,89.94,1,-0.056,0.05,-0.0023,1,0,-0.0023,0,0.72,8.701,7.028,0.08,0,2,2,0,0,VALID,0,0,0,0,0,1,0,0,0,0,0,0,0,0,0,0,0,0,0,0,2666.43,2677.97,6,0,0.06,0.06,394,13.33,0.1,0.06,32.04,LANDED,X11-E,0:/Integrated Flight Computer/aircraft/x11_e_cfg.ks (inferred preloaded)
32.52,TAKEOFF,TO_ROTATE,139.42,80,-59.42,7.52,-9.89,-0.01,2.76,2.77,89.99,0.105,1,0,0,0,0,0,0,0,0,0,0,0,0,0,0,89.95,9.781,1,0,0,0,0,0.16,90,0,0,0,0,0,0,0,0,-0.056,0,0,3,0,0,0,69,0,0,0,0,0,0,,0,NONE,0,0,0,0,0,0,0,0.72,0,0,0,0,0,0,0,0,0,0,0,0,0,89.95,1,-0.056,0.048,-0.0019,1,0,-0.0019,0,0.72,9.781,7.018,0.08,0,2,2,0,0,VALID,0,0,0,0,0,1,0,0,0,0,0,0,0,0,0,0,0,0,0,0,2689.82,2700.89,6,0,0.06,0.06,398,13.33,0.1,0.06,32.34,LANDED,X11-E,0:/Integrated Flight Computer/aircraft/x11_e_cfg.ks (inferred preloaded)
32.82,TAKEOFF,TO_ROTATE,141.5,80,-61.5,8.72,-10.02,0.12,4.22,4.18,90,0.105,1,0,0,0,0,0,0,0,0,0,0,0,0,0,0,89.94,10,1,0,0.05,0,0,0.17,90,0,0,0,0,0,0,0,0,-0.056,0,0,3,0,0,0,69,0,0,0,0,0,0,,0,NONE,0,0,0,0,0,0,0,0.72,0,0,0,0,0,0,0,0,0,0,0,0,0,89.94,1,-0.056,0.054,-0.0025,1,0,-0.0025,0,0.72,10,5.776,0.08,0,2,2,0,0,VALID,0,0,0,0,0,1,0,0,0,0,0,0,0,0,0,0,0,0,0,0,2713.57,2724.18,6,0,0.06,0.06,402,13.33,0.1,0.06,32.64,LANDED,X11-E,0:/Integrated Flight Computer/aircraft/x11_e_cfg.ks (inferred preloaded)
33.12,TAKEOFF,TO_ROTATE,143.53,80,-63.53,10.27,-10.21,0.48,6.08,5.92,90,0.108,1,0,0,0,0,0,0,0,0,0,0,0,0,0,0,89.94,10,1,0,0.17,0,0,0.17,90,0,0,0,0,0,0,0,0,-0.055,0,0,3,0,0,0,69,0,0,0,0,0,0,,0,NONE,0,0,0,0,0,0,0,0.5891,0,0,0,0,0,0,0,0,0,0,0,0,0,89.94,1,-0.055,0.059,-0.0029,1,0,-0.0029,0,0.5891,10,3.916,0.08,0,2,2,0,0,VALID,0,0,0,0,0,1,0,0,0,0,0,0,0,0,0,0,0,0,0,0,2737.23,2747.32,6,0,0.06,0.06,406,13.33,0.1,0.06,32.94,LANDED,X11-E,0:/Integrated Flight Computer/aircraft/x11_e_cfg.ks (inferred preloaded)
33.42,TAKEOFF,TO_ROTATE,145.42,80,-65.42,11.88,-10.3,1.72,7.84,7.18,90.01,0.119,1,0,0,0,0,0,0,0,0,0,0,0,0,0,0,89.94,10,1,0,0.68,0,0,0.18,90,0,0,0,0,0,0,0,0,-0.055,0,0,3,0,0,0,69,0,0,0,0,0,0,,0,NONE,0,0,0,0,0,0,0,0.361,0,0,0,0,0,0,0,0,0,0,0,0,0,89.94,1,-0.055,0.066,-0.0034,1,0,-0.0034,0,0.361,10,2.162,0.08,0,2,2,0,0,VALID,0,0,0,0,0,1,0,0,0,0,0,0,0,0,0,0,0,0,0,0,2759.47,2769.01,6,0,0.06,0.06,410,13.33,0.1,0.06,33.24,LANDED,X11-E,0:/Integrated Flight Computer/aircraft/x11_e_cfg.ks (inferred preloaded)
33.72,TAKEOFF,TO_ROTATE,147.31,80,-67.31,13.25,-10.23,1.06,9,8.59,90.02,0.132,1,0,0,0,0,0,0,0,0,0,0,0,0,0,0,89.94,10,1,0,0.42,0,0,0.18,90,0,0,0,0,0,0,0,0,-0.054,0,0,3,0,0,0,69,0,0,0,0,0,0,,0,NONE,0,0,0,0,0,0,0,0.2105,0,0,0,0,0,0,0,0,0,0,0,0,0,89.94,1,-0.054,0.085,-0.005,1,0,-0.005,0,0.2105,10,1.004,0.08,0,2,2,0,0,VALID,0,0,0,0,0,1,0,0,0,0,0,0,0,0,0,0,0,0,0,0,2781.62,2790.85,6,0,0.06,0.06,414,13.33,0.1,0.06,33.54,LANDED,X11-E,0:/Integrated Flight Computer/aircraft/x11_e_cfg.ks (inferred preloaded)
34.02,TAKEOFF,TO_ROTATE,149.18,80,-69.18,14.61,-10.12,1.59,10.22,9.64,90.03,0.143,1,0,0,0,0,0,0,0,0,0,0,0,0,0,0,89.95,10,1,0,0.61,0,0,0.18,90,0,0,0,0,0,0,0,0,-0.054,0,0,3,0,0,0,69,0,0,0,0,0,0,,0,NONE,0,0,0,0,0,0,0,0.0508,0,0,0,0,0,0,0,0,0,0,0,0,0,89.95,1,-0.054,0.079,-0.0033,1,0,-0.0033,0,0.0508,10,-0.225,0.08,0,2,2,0,0,VALID,0,0,0,0,0,1,0,0,0,0,0,0,0,0,0,0,0,0,0,0,2803.98,2812.76,6,0,0.06,0.06,418,13.33,0.1,0.06,33.84,LANDED,X11-E,0:/Integrated Flight Computer/aircraft/x11_e_cfg.ks (inferred preloaded)
34.3,TAKEOFF,TO_ROTATE,150.71,80,-70.71,15.75,-9.88,1.91,11.04,10.34,90.02,0.134,1,0,0,0,0,0,0,0,0,0,0,0,0,0,0,90,10,0,1,0.73,0,0,10,90,0.3151,0.0001,0.9491,10,90,0,0,0,0,0,0,3,0,0,0,69,0,0,0,0,0,0,,0,NONE,0,0,0,0,0,0,0,0,0,0,0,0,0,0,0,0,0,0,0,0,0,90,1,0,0.024,0,0,3,0,0,0,10,-1.045,0,0,2,2,0,0,VALID,0,0,0,0,0,1,0,0,0,0,0,0,0,0,0,0,0,0,0,0,2822.52,2830.86,6,0,0.04,0.04,422,15.38,0.1,0.04,34.12,FLYING,X11-E,0:/Integrated Flight Computer/aircraft/x11_e_cfg.ks (inferred preloaded)
34.56,TAKEOFF,TO_ROTATE,152.06,80,-72.06,16.32,-9.27,2.4,10.97,10.09,90.02,0.113,1,0,0,0,0,0,0,0,0,0,0,0,0,0,0,90,10,0,1,0.9,0,0,10,90,0.3151,0.0001,0.9491,10,90,0,0,0,0,0,0,3,0,0,0,69,0,0,0,0,0,0,,0,NONE,0,0,0,0,0,0,0,0,0,0,0,0,0,0,0,0,0,0,0,0,0,90,1,0,0.023,0,0,3,0,0,0,10,-0.968,0,0,2,2,0,0,VALID,0,0,0,0,0,1,0,0,0,0,0,0,0,0,0,0,0,0,0,0,2838.75,2846.69,6,0,0.04,0.04,426,15.38,0.08,0.04,34.38,FLYING,X11-E,0:/Integrated Flight Computer/aircraft/x11_e_cfg.ks (inferred preloaded)
34.84,TAKEOFF,TO_CLIMB,153.68,80,-73.68,17.19,-8.63,2.26,11.11,10.28,90.02,0.095,0.9632,0,0,0,0,0,0,0,0,0,0,0,0,0,0,90,10.519,0,1,0.84,0,0,10.69,90,0.3236,0.0001,0.9462,10.52,90,0,0,0,0,0,0,3,0,0,0,69,0,0,0,0,0,0,,0,NONE,0,0,0,0,0,0,0,0,0,0,0,0,0,0,0,0,0,0,0,0,0,90,1,0,0.022,0,0,3,0,0,0,10,-0.911,0,0,1,1,0,0,VALID,0,0,0,0,0,1,0,0,0,0,0,0,0,0,0,0,0,0,0,0,2857.55,2865.95,6,0,0.06,0.06,430,14.29,0.08,0.04,34.66,FLYING,X11-E,0:/Integrated Flight Computer/aircraft/x11_e_cfg.ks (inferred preloaded)
35.1,TAKEOFF,TO_CLIMB,155.13,80,-75.13,18.35,-8.13,2.87,11.68,10.65,90.02,0.072,0.9487,0,0,0,0,0,0,0,0,0,0,0,0,0,0,90,9.791,0,1,1.06,0,0,9.9,90,0.3115,0.0001,0.9503,9.79,90,0,0,0,0,0,0,3,0,0,0,69,0,0,0,0,0,0,,0,NONE,0,0,0,0,0,0,0,0,0,0,0,0,0,0,0,0,0,0,0,0,0,90,1,0,0.02,0,0,3,0,0,0,10,-0.911,0,0,1,1,0,0,VALID,0,0,0,0,0,1,0,0,0,0,0,0,0,0,0,0,0,0,0,0,2865.53,2883.47,6,0,0.04,0.04,434,15.38,0.1,0.04,34.92,FLYING,X11-E,0:/Integrated Flight Computer/aircraft/x11_e_cfg.ks (inferred preloaded)
35.36,TAKEOFF,TO_CLIMB,156.56,80,-76.56,19.49,-7.39,3.36,12.03,10.83,90.02,0.058,0.9344,0,0,0,0,0,0,0,0,0,0,0,0,0,0,90,9.063,0,1,1.23,0,0,9.18,90,0.2993,0.0001,0.9542,9.06,90,0,0,0,0,0,0,3,0,0,0,69,0,0,0,0,0,0,,0,NONE,0,0,0,0,0,0,0,0,0,0,0,0,0,0,0,0,0,0,0,0,0,90,1,0,0.017,0,0,3,0,0,0,10,-0.911,0,0,1,1,0,0,VALID,0,0,0,0,0,1,0,0,0,0,0,0,0,0,0,0,0,0,0,0,2869.92,2900.63,6,0,0.04,0.04,438,15.38,0.1,0.04,35.18,FLYING,X11-E,0:/Integrated Flight Computer/aircraft/x11_e_cfg.ks (inferred preloaded)
35.62,TAKEOFF,TO_CLIMB,158,80,-78,20.78,-6.51,3.95,12.39,10.99,90.02,0.048,0.92,0,0,0,0,0,0,0,0,0,0,0,0,0,0,90,8.335,0,1,1.43,0,0,8.45,90,0.2871,0.0001,0.9579,8.34,90,0,0,0,0,0,0,3,0,0,0,69,0,0,0,0,0,0,,0,NONE,0,0,0,0,0,0,0,0,0,0,0,0,0,0,0,0,0,0,0,0,0,90,1,0,0.017,0,0,3,0,0,0,10,-0.911,0,0,1,1,0,0,VALID,0,0,0,0,0,1,0,0,0,0,0,0,0,0,0,0,0,0,0,0,2871.97,2918.14,6,0,0.04,0.04,442,15.38,0.1,0.04,35.44,FLYING,X11-E,0:/Integrated Flight Computer/aircraft/x11_e_cfg.ks (inferred preloaded)
35.88,TAKEOFF,TO_CLIMB,159.42,80,-79.42,22.25,-5.45,4.63,12.77,11.15,90.02,0.038,0.9058,0,0,0,0,0,0,0,0,0,0,0,0,0,0,90,7.607,0,1,1.66,0,0,7.72,90,0.2748,0.0001,0.9615,7.61,90,0,0,0,0,0,0,3,0,0,0,69,0,0,0,0,0,0,,0,NONE,0,0,0,0,0,0,0,0,0,0,0,0,0,0,0,0,0,0,0,0,0,90,1,0,0.016,0,0,3,0,0,0,10,-0.911,0,0,1,1,0,0,VALID,0,0,0,0,0,1,0,0,0,0,0,0,0,0,0,0,0,0,0,0,2871.14,2935.37,6,0,0.04,0.04,446,15.38,0.1,0.04,35.7,FLYING,X11-E,0:/Integrated Flight Computer/aircraft/x11_e_cfg.ks (inferred preloaded)
36.14,TAKEOFF,TO_CLIMB,160.79,80,-80.79,23.86,-4.16,5.45,13.08,11.19,90.01,0.03,0.8921,0,0,0,0,0,0,0,0,0,0,0,0,0,0,90,7,0,1,1.94,0,0,7,90,0.2645,0.0001,0.9644,7,90,0,0,0,0,0,0,3,0,0,0,69,0,0,0,0,0,0,,0,NONE,0,0,0,0,0,0,0,0,0,0,0,0,0,0,0,0,0,0,0,0,0,90,1,0,0.014,0,0,3,0,0,0,10,-0.911,0,0,1,1,0,0,VALID,0,0,0,0,0,1,0,0,0,0,0,0,0,0,0,0,0,0,0,0,2867.54,2952.11,6,0,0.04,0.04,450,15.38,0.1,0.04,35.96,FLYING,X11-E,0:/Integrated Flight Computer/aircraft/x11_e_cfg.ks (inferred preloaded)
36.4,TAKEOFF,TO_CLIMB,162.14,80,-82.14,25.64,-2.63,6.19,13.32,11.19,90.02,0.024,0.8786,0,0,0,0,0,0,0,0,0,0,0,0,0,0,90,7,0,1,2.19,0,0,7,90,0.2645,0.0001,0.9644,7,90,0,0,0,0,0,0,3,0,0,0,69,0,0,0,0,0,0,,0,NONE,0,0,0,0,0,0,0,0,0,0,0,0,0,0,0,0,0,0,0,0,0,90,1,0,0.015,0,0,3,0,0,0,10,-0.911,0,0,1,1,0,0,VALID,0,0,0,0,0,1,0,0,0,0,0,0,0,0,0,0,0,0,0,0,2861.6,2968.61,6,0,0.04,0.04,454,15.38,0.1,0.04,36.22,FLYING,X11-E,0:/Integrated Flight Computer/aircraft/x11_e_cfg.ks (inferred preloaded)
36.66,TAKEOFF,TO_CLIMB,163.47,80,-83.47,27.76,-0.94,7.07,13.76,11.34,90.01,0.015,0.8653,0,0,0,0,0,0,0,0,0,0,0,0,0,0,90,7,0,1,2.48,0,0,7,90,0.2644,0.0001,0.9644,7,90,0,0,0,0,0,0,3,0,0,0,69,0,0,0,0,0,0,,0,NONE,0,0,0,0,0,0,0,0,0,0,0,0,0,0,0,0,0,0,0,0,0,90,1,0,0.012,0,0,3,0,0,0,10,-0.911,0,0,1,1,0,0,VALID,0,0,0,0,0,1,0,0,0,0,0,0,0,0,0,0,0,0,0,0,2853.68,2984.93,6,0,0.04,0.04,458,15.38,0.1,0.04,36.48,FLYING,X11-E,0:/Integrated Flight Computer/aircraft/x11_e_cfg.ks (inferred preloaded)
36.92,TAKEOFF,TO_CLIMB,164.75,80,-84.75,30.09,1.03,8.01,14.17,11.45,90.01,0.014,0.8525,0,0,0,0,0,0,0,0,0,0,0,0,0,0,90,7,0,1,2.78,0,0,7,90,0.2643,0.0001,0.9644,7,90,0,0,0,0,0,0,3,0,0,0,69,0,0,0,0,0,0,,0,NONE,0,0,0,0,0,0,0,0,0,0,0,1.03,0,0,0,0,0,0,0,0,0,90,1,0,0.012,0,0,3,0,0,0,10,-0.911,0,0,1,1,0,0,VALID,0,0,0,0,0,1,0,0,0,0,0,0,0,0,0,0,0,0,0,0,2843.54,3000.72,6,0,0.04,0.04,462,15.38,0.1,0.04,36.74,FLYING,X11-E,0:/Integrated Flight Computer/aircraft/x11_e_cfg.ks (inferred preloaded)
37.18,TAKEOFF,TO_CLIMB,166.01,80,-86.01,32.68,3.25,9.01,14.59,11.55,90.01,0.011,0.8399,0,0,0,0,0,0,0,0,0,0,0,0,0,0,90,7,0,1,3.11,0,0,7,90,0.2643,0.0001,0.9644,7,90,0,0,0,0,0,0,3,0,0,0,69,0,0,0,0,0,0,,0,NONE,0,0,0,0,0,0,0,0,0,0,0,3.25,0,0,0,0,0,0,0,0,0,90,1,0,0.011,0,0,3,0,0,0,10,-0.911,0,0,1,1,0,0,VALID,0,0,0,0,0,1,0,0,0,0,0,0,0,0,0,0,0,0,0,0,2831.71,3016.22,6,0,0.04,0.04,466,15.38,0.1,0.04,37,FLYING,X11-E,0:/Integrated Flight Computer/aircraft/x11_e_cfg.ks (inferred preloaded)
37.44,TAKEOFF,TO_CLIMB,167.22,80,-87.22,35.55,5.76,10.1,15.01,11.63,90.01,0.008,0.8278,0,0,0,0,0,0,0,0,0,0,0,0,0,0,90,7,0,1,3.45,0,0,7,90,0.2642,0.0001,0.9645,7,90,0,0,0,0,0,0,3,0,0,0,69,0,0,0,0,0,0,,0,NONE,0,0,0,0,0,0,0,0,0,0,0,5.76,0,0,0,0,0,0,0,0,0,90,1,0,0.01,0,0,3,0,0,0,10,-0.911,0,0,1,1,0,0,VALID,0,0,0,0,0,1,0,0,0,0,0,0,0,0,0,0,0,0,0,0,2818.12,3031.17,6,0,0.04,0.04,470,15.38,0.1,0.04,37.26,FLYING,X11-E,0:/Integrated Flight Computer/aircraft/x11_e_cfg.ks (inferred preloaded)
37.7,TAKEOFF,TO_CLIMB,168.37,80,-88.37,38.61,8.62,11.26,15.3,11.55,90.01,0.003,0.82,0,0,0,0,0,0,0,0,0,0,0,0,0,0,90,7,0,1,3.83,0,0,7,90,0.2641,0.0001,0.9645,7,90,0,0,0,0,0,0,3,0,0,0,69,0,0,0,0,0,0,,0,NONE,0,0,0,0,0,0,0,0,0,0,0,8.62,0,0,0,0,0,0,0,0,0,90,1,0,0.01,0,0,3,0,0,0,10,-0.911,0,0,1,1,0,0,VALID,0,0,0,0,0,1,0,0,0,0,0,0,0,0,0,0,0,0,0,0,2802.8,3045.39,6,0,0.04,0.04,474,15.38,0.1,0.04,37.52,FLYING,X11-E,0:/Integrated Flight Computer/aircraft/x11_e_cfg.ks (inferred preloaded)
37.96,TAKEOFF,TO_CLIMB,169.52,80,-89.52,41.95,11.77,12.39,15.57,11.47,90.01,-0.002,0.82,0,0,0,0,0,0,0,0,0,0,0,0,0,0,90,7,0,1,4.18,0,0,7,90,0.2641,0.0001,0.9645,7,90,0,0,0,0,0,0,3,0,0,0,69,0,0,0,0,0,0,,0,NONE,0,0,0,0,0,0,0,0,0,0,0,11.77,0,0,0,0,0,0,0,0,0,90,1,0,0.009,0,0,3,0,0,0,10,-0.911,0,0,1,1,0,0,VALID,0,0,0,0,0,1,0,0,0,0,0,0,0,0,0,0,0,0,0,0,2788.23,3059.56,6,0,0.04,0.04,478,15.38,0.1,0.04,37.78,FLYING,X11-E,0:/Integrated Flight Computer/aircraft/x11_e_cfg.ks (inferred preloaded)
