t_s,phase,subphase,ias_ms,vapp_ms,spd_err_ms,agl_m,vs_ms,pitch_deg,aoa_deg,hdg_deg,bank_deg,thr_cmd,thr_cur,thr_intg,at_gain,at_tau_s,at_a_up,at_a_dn,at_kp_thr,at_ki_spd,at_thr_slew,as_cmd_deg,as_cap_deg,as_raw_deg,as_spd_err_ms,as_active,aa_hdg_cmd_deg,aa_fpa_cmd_deg,aa_fbw,aa_dir,actual_fpa_deg,ftf_hdg_err_deg,ftf_fix_idx,kos_steer_pit_deg,kos_steer_hdg_deg,aa_dir_vx,aa_dir_vy,aa_dir_vz,aa_dir_pitch_deg,aa_dir_hdg_deg,ils_loc_m,ils_gs_m,ils_dist_km,loc_corr_deg,gs_corr_deg,gs_latched,active_gs_ang_deg,ils_intercept_alt_m,d_gs_ms,fpa_preclamped_deg,gs_nom_alt_m,flare_fpa_cmd,flare_tgt_vs,flare_frac,steer_hdg_deg,steer_blend,ro_loc_corr_deg,ro_hdg_err_deg,ro_yaw_tgt,ro_yaw_scale,ro_yaw_gate,yaw_cmd,roll_cmd,pitch_cmd,ro_pitch_tgt_deg,ro_pitch_err_deg,ro_pitch_ff,ro_roll_assist,flaps_cur,flaps_tgt,asc_j_ab,asc_j_rk,asc_validity,asc_q_pa,asc_q_raw_pa,asc_mach,asc_apo_m,asc_drag_n,asc_w_prop,asc_edot_aero,asc_edot_orb,asc_pitch_bias,asc_blend,asc_spooling,asc_ab_thr_ratio,asc_ab_t_now,asc_ab_t_avail,asc_ab_ign_on,asc_ab_flameouts,asc_rk_t_now,asc_rk_t_avail,asc_rk_ign_on,asc_rk_flameouts,ship_thrust,ship_avail_thrust,ship_ign_on,ship_flameouts,ifc_raw_dt_s,ifc_dt_s,ifc_loop_n,ifc_hz_est,ifc_raw_dt_max_s,ifc_raw_dt_min_s,phase_el_s,status,craft_name,cfg_file
2.48,TAKEOFF,TO_PREFLIGHT,0.67,80,79.33,3.64,0,-0.22,0.08,93.4,0.103,0.048,0,0,0,0,0,0,0,0,0,0,0,0,0,0,90.4,0,1,0,-0.48,0,0,0,90,0,0,0,0,0,0,0,0,0,0,0,3,0,0,0,69,0,0,0,90.4,1,0,2.995,0,0,1,0,0,0,0,0,0,0,0,2,0,0,VALID,0,0,0,0,0,1,0,0,0,0,0,0,0,0,0,0,0,0,0,0,0,877.73,2,0,0.12,0.12,1,0.38,0.12,0.02,2.36,LANDED,X10-G,0:/Integrated Flight Computer/aircraft/x10_g_cfg.ks (inferred preloaded)
2.76,TAKEOFF,TO_PREFLIGHT,0.67,80,79.33,3.64,0,-0.23,-0.2,93.72,0.102,0.328,0,0,0,0,0,0,0,0,0,0,0,0,0,0,90.4,0,1,0,0.01,0,0,0,90,0,0,0,0,0,0,0,0,0,0,0,3,0,0,0,69,0,0,0,90.4,1,0,2.995,0,0,1,0,0,0,0,0,0,0,1,2,0,0,VALID,0,0,0,0,0,1,0,0,0,0,0,0,0,0,0,0,0,0,0,0,8.05,877.73,2,0,0.06,0.06,5,14.29,2.44,0.06,2.64,LANDED,X10-G,0:/Integrated Flight Computer/aircraft/x10_g_cfg.ks (inferred preloaded)
3.02,TAKEOFF,TO_PREFLIGHT,0.59,80,79.41,3.63,0,-0.27,-0.69,93.75,0.102,0.432,0,0,0,0,0,0,0,0,0,0,0,0,0,0,90.4,0,1,0,0.21,0,0,0,90,0,0,0,0,0,0,0,0,0,0,0,3,0,0,0,69,0,0,0,90.4,1,0,2.995,0,0,1,0,0,0,0,0,0,0,2,2,0,0,VALID,0,0,0,0,0,1,0,0,0,0,0,0,0,0,0,0,0,0,0,0,23.26,877.73,2,0,0.06,0.06,9,15.38,0.08,0.04,2.9,LANDED,X10-G,0:/Integrated Flight Computer/aircraft/x10_g_cfg.ks (inferred preloaded)
3.28,TAKEOFF,TO_PREFLIGHT,0.42,80,79.58,3.62,0,-0.28,0.09,93.79,0.101,0.536,0,0,0,0,0,0,0,0,0,0,0,0,0,0,90.4,0,1,0,-0.15,0,0,0,90,0,0,0,0,0,0,0,0,0,0,0,3,0,0,0,69,0,0,0,90.4,1,0,2.995,0,0,1,0,0,0,0,0,0,0,2,2,0,0,VALID,0,0,0,0,0,1,0,0,0,0,0,0,0,0,0,0,0,0,0,0,42.34,877.73,2,0,0.06,0.06,13,15.38,0.08,0.04,3.16,LANDED,X10-G,0:/Integrated Flight Computer/aircraft/x10_g_cfg.ks (inferred preloaded)
3.54,TAKEOFF,TO_PREFLIGHT,0.21,80,79.79,3.62,0,-0.29,-0.07,93.81,0.101,0.64,0,0,0,0,0,0,0,0,0,0,0,0,0,0,90.4,0,1,0,-0.02,0,0,0,90,0,0,0,0,0,0,0,0,0,0,0,3,0,0,0,69,0,0,0,90.4,1,0,2.995,0,0,1,0,0,0,0,0,0,0,2,2,0,0,VALID,0,0,0,0,0,1,0,0,0,0,0,0,0,0,0,0,0,0,0,0,65.08,877.73,2,0,0.06,0.06,17,15.38,0.08,0.04,3.42,LANDED,X10-G,0:/Integrated Flight Computer/aircraft/x10_g_cfg.ks (inferred preloaded)
3.8,TAKEOFF,TO_PREFLIGHT,0.01,80,79.99,3.63,-0.01,-0.26,2.93,93.81,0.104,0.744,0,0,0,0,0,0,0,0,0,0,0,0,0,0,90.4,0,1,0,-0.3,0,0,0,90,0,0,0,0,0,0,0,0,0,0,0,3,0,0,0,69,0,0,0,90.4,1,0,2.995,0,0,1,0,0,0,0,0,0,0,2,2,0,0,VALID,0,0,0,0,0,1,0,0,0,0,0,0,0,0,0,0,0,0,0,0,91.31,877.73,2,0,0.06,0.06,21,15.38,0.08,0.04,3.68,LANDED,X10-G,0:/Integrated Flight Computer/aircraft/x10_g_cfg.ks (inferred preloaded)
4.06,TAKEOFF,TO_PREFLIGHT,0.03,80,79.97,3.64,-0.01,-0.22,24.42,93.77,0.125,0.848,0,0,0,0,0,0,0,0,0,0,0,0,0,0,90.4,0,1,0,-0.42,0,0,0,90,0,0,0,0,0,0,0,0,0,0,0,3,0,0,0,69,0,0,0,90.4,1,0,2.995,0,0,1,0,0,0,0,0,0,0,2,2,0,0,VALID,0,0,0,0,0,1,0,0,0,0,0,0,0,0,0,0,0,0,0,0,120.83,877.73,2,0,0.06,0.06,25,15.38,0.08,0.04,3.94,LANDED,X10-G,0:/Integrated Flight Computer/aircraft/x10_g_cfg.ks (inferred preloaded)
4.32,TAKEOFF,TO_PREFLIGHT,0.06,80,79.94,3.62,0.02,-0.28,-25.16,93.74,0.128,0.952,0,0,0,0,0,0,0,0,0,0,0,0,0,0,90.4,0,1,0,1.34,0,0,0,90,0,0,0,0,0,0,0,0,0,0,0,3,0,0,0,69,0,0,0,90.4,1,0,2.995,0,0,1,0,0,0,0,0,0,0,2,2,0,0,VALID,0,0,0,0,0,1,0,0,0,0,0,0,0,0,0,0,0,0,0,0,153.49,877.73,2,0,0.06,0.06,29,15.38,0.08,0.04,4.2,LANDED,X10-G,0:/Integrated Flight Computer/aircraft/x10_g_cfg.ks (inferred preloaded)
4.58,TAKEOFF,TO_PREFLIGHT,0.06,80,79.94,3.62,-0.02,-0.29,17.43,93.71,0.125,1,0,0,0,0,0,0,0,0,0,0,0,0,0,0,90.4,0,1,0,-0.89,0,0,0,90,0,0,0,0,0,0,0,0,0,0,0,3,0,0,0,69,0,0,0,90.4,1,0,2.995,0,0,1,0,0,0,0,0,0,0,2,2,0,0,VALID,0,0,0,0,0,1,0,0,0,0,0,0,0,0,0,0,0,0,0,0,189.02,877.73,2,0,0.06,0.06,33,15.38,0.08,0.04,4.46,LANDED,X10-G,0:/Integrated Flight Computer/aircraft/x10_g_cfg.ks (inferred preloaded)
4.84,TAKEOFF,TO_PREFLIGHT,0.05,80,79.95,3.62,0,-0.27,-3.61,93.67,0.135,1,0,0,0,0,0,0,0,0,0,0,0,0,0,0,90.4,0,1,0,0.25,0,0,0,90,0,0,0,0,0,0,0,0,0,0,0,3,0,0,0,69,0,0,0,90.4,1,0,2.995,0,0,1,0,0,0,0,0,0,0,2,2,0,0,VALID,0,0,0,0,0,1,0,0,0,0,0,0,0,0,0,0,0,0,0,0,223.98,877.73,2,0,0.06,0.06,37,15.38,0.08,0.04,4.72,LANDED,X10-G,0:/Integrated Flight Computer/aircraft/x10_g_cfg.ks (inferred preloaded)
5.1,TAKEOFF,TO_PREFLIGHT,0.08,80,79.92,3.62,0.01,-0.3,-4.58,93.62,0.143,1,0,0,0,0,0,0,0,0,0,0,0,0,0,0,90.4,0,1,0,0.35,0,0,0,90,0,0,0,0,0,0,0,0,0,0,0,3,0,0,0,69,0,0,0,90.4,1,0,2.995,0,0,1,0,0,0,0,0,0,0,2,2,0,0,VALID,0,0,0,0,0,1,0,0,0,0,0,0,0,0,0,0,0,0,0,0,257.17,877.72,2,0,0.06,0.06,41,15.38,0.08,0.04,4.98,LANDED,X10-G,0:/Integrated Flight Computer/aircraft/x10_g_cfg.ks (inferred preloaded)
5.36,TAKEOFF,TO_PREFLIGHT,0.09,80,79.91,3.61,0,-0.31,1.04,93.57,0.143,1,0,0,0,0,0,0,0,0,0,0,0,0,0,0,90.4,0,1,0,-0.15,0,0,0,90,0,0,0,0,0,0,0,0,0,0,0,3,0,0,0,69,0,0,0,90.4,1,0,2.995,0,0,1,0,0,0,0,0,0,0,2,2,0,0,VALID,0,0,0,0,0,1,0,0,0,0,0,0,0,0,0,0,0,0,0,0,288.68,877.72,2,0,0.06,0.06,45,15.38,0.08,0.04,5.24,LANDED,X10-G,0:/Integrated Flight Computer/aircraft/x10_g_cfg.ks (inferred preloaded)
5.62,TAKEOFF,TO_PREFLIGHT,0.09,80,79.91,3.61,0,-0.31,-0.52,93.58,0.095,1,0,0,0,0,0,0,0,0,0,0,0,0,0,0,90.4,0,1,0,0.06,0,0,0,90,0,0,0,0,0,0,0,0,0,0,0,3,0,0,0,69,0,0,0,90.4,1,0,2.995,0,0,1,0,0,0,0,0,0,0,2,2,0,0,VALID,0,0,0,0,0,1,0,0,0,0,0,0,0,0,0,0,0,0,0,0,318.58,877.72,2,0,0.06,0.06,49,15.38,0.08,0.04,5.5,LANDED,X10-G,0:/Integrated Flight Computer/aircraft/x10_g_cfg.ks (inferred preloaded)
5.88,TAKEOFF,TO_PREFLIGHT,0.1,80,79.9,3.61,0,-0.33,-1.32,93.59,0.081,1,0,0,0,0,0,0,0,0,0,0,0,0,0,0,90.4,0,1,0,0.08,0,0,0,90,0,0,0,0,0,0,0,0,0,0,0,3,0,0,0,69,0,0,0,90.4,1,0,2.995,0,0,1,0,0,0,0,0,0,0,2,2,0,0,VALID,0,0,0,0,0,1,0,0,0,0,0,0,0,0,0,0,0,0,0,0,346.97,877.72,2,0,0.06,0.06,53,15.38,0.08,0.04,5.76,LANDED,X10-G,0:/Integrated Flight Computer/aircraft/x10_g_cfg.ks (inferred preloaded)
6.14,TAKEOFF,TO_PREFLIGHT,0.12,80,79.88,3.61,0,-0.33,-0.17,93.58,0.111,1,0,0,0,0,0,0,0,0,0,0,0,0,0,0,90.4,0,1,0,-0.04,0,0,0,90,0,0,0,0,0,0,0,0,0,0,0,3,0,0,0,69,0,0,0,90.4,1,0,2.995,0,0,1,0,0,0,0,0,0,0,2,2,0,0,VALID,0,0,0,0,0,1,0,0,0,0,0,0,0,0,0,0,0,0,0,0,373.92,877.72,2,0,0.06,0.06,57,15.38,0.08,0.04,6.02,LANDED,X10-G,0:/Integrated Flight Computer/aircraft/x10_g_cfg.ks (inferred preloaded)
6.4,TAKEOFF,TO_PREFLIGHT,0.12,80,79.88,3.61,0,-0.34,-0.01,93.58,0.112,1,0,0,0,0,0,0,0,0,0,0,0,0,0,0,90.4,0,1,0,-0.04,0,0,0,90,0,0,0,0,0,0,0,0,0,0,0,3,0,0,0,69,0,0,0,90.4,1,0,2.995,0,0,1,0,0,0,0,0,0,0,2,2,0,0,VALID,0,0,0,0,0,1,0,0,0,0,0,0,0,0,0,0,0,0,0,0,399.5,877.72,2,0,0.06,0.06,61,15.38,0.08,0.04,6.28,LANDED,X10-G,0:/Integrated Flight Computer/aircraft/x10_g_cfg.ks (inferred preloaded)
6.66,TAKEOFF,TO_PREFLIGHT,0.13,80,79.87,3.61,0,-0.34,-0.33,93.57,0.095,1,0,0,0,0,0,0,0,0,0,0,0,0,0,0,90.4,0,1,0,0.01,0,0,0,90,0,0,0,0,0,0,0,0,0,0,0,3,0,0,0,69,0,0,0,90.4,1,0,2.995,0,0,1,0,0,0,0,0,0,0,2,2,0,0,VALID,0,0,0,0,0,1,0,0,0,0,0,0,0,0,0,0,0,0,0,0,423.77,877.72,2,0,0.06,0.06,65,15.38,0.08,0.04,6.54,LANDED,X10-G,0:/Integrated Flight Computer/aircraft/x10_g_cfg.ks (inferred preloaded)
6.92,TAKEOFF,TO_PREFLIGHT,0.14,80,79.86,3.61,0,-0.34,-0.25,93.57,0.1,1,0,0,0,0,0,0,0,0,0,0,0,0,0,0,90.4,0,1,0,-0.03,0,0,0,90,0,0,0,0,0,0,0,0,0,0,0,3,0,0,0,69,0,0,0,90.4,1,0,2.995,0,0,1,0,0,0,0,0,0,0,2,2,0,0,VALID,0,0,0,0,0,1,0,0,0,0,0,0,0,0,0,0,0,0,0,0,446.82,877.72,2,0,0.06,0.06,69,15.38,0.08,0.04,6.8,LANDED,X10-G,0:/Integrated Flight Computer/aircraft/x10_g_cfg.ks (inferred preloaded)
7.18,TAKEOFF,TO_PREFLIGHT,0.15,80,79.85,3.61,0,-0.35,-0.05,93.56,0.108,1,0,0,0,0,0,0,0,0,0,0,0,0,0,0,90.4,0,1,0,-0.06,0,0,0,90,0,0,0,0,0,0,0,0,0,0,0,3,0,0,0,69,0,0,0,90.4,1,0,2.995,0,0,1,0,0,0,0,0,0,0,2,2,0,0,VALID,0,0,0,0,0,1,0,0,0,0,0,0,0,0,0,0,0,0,0,0,468.7,877.72,2,0,0.06,0.06,73,15.38,0.08,0.04,7.06,LANDED,X10-G,0:/Integrated Flight Computer/aircraft/x10_g_cfg.ks (inferred preloaded)
7.44,TAKEOFF,TO_PREFLIGHT,0.16,80,79.84,3.6,0,-0.35,-0.43,93.56,0.103,1,0,0,0,0,0,0,0,0,0,0,0,0,0,0,90.4,0,1,0,-0.01,0,0,0,90,0,0,0,0,0,0,0,0,0,0,0,3,0,0,0,69,0,0,0,90.4,1,0,2.995,0,0,1,0,0,0,0,0,0,0,2,2,0,0,VALID,0,0,0,0,0,1,0,0,0,0,0,0,0,0,0,0,0,0,0,0,489.46,877.72,2,0,0.06,0.06,77,15.38,0.08,0.04,7.32,LANDED,X10-G,0:/Integrated Flight Computer/aircraft/x10_g_cfg.ks (inferred preloaded)
7.7,TAKEOFF,TO_PREFLIGHT,0.16,80,79.84,3.6,0,-0.35,-0.1,93.55,0.1,1,0,0,0,0,0,0,0,0,0,0,0,0,0,0,90.4,0,1,0,-0.04,0,0,0,90,0,0,0,0,0,0,0,0,0,0,0,3,0,0,0,69,0,0,0,90.4,1,0,2.995,0,0,1,0,0,0,0,0,0,0,2,2,0,0,VALID,0,0,0,0,0,1,0,0,0,0,0,0,0,0,0,0,0,0,0,0,509.17,877.71,2,0,0.06,0.06,81,15.38,0.08,0.04,7.58,LANDED,X10-G,0:/Integrated Flight Computer/aircraft/x10_g_cfg.ks (inferred preloaded)
7.96,TAKEOFF,TO_PREFLIGHT,0.17,80,79.83,3.6,0,-0.35,-0.22,93.55,0.105,1,0,0,0,0,0,0,0,0,0,0,0,0,0,0,90.4,0,1,0,-0.05,0,0,0,90,0,0,0,0,0,0,0,0,0,0,0,3,0,0,0,69,0,0,0,90.4,1,0,2.995,0,0,1,0,0,0,0,0,0,0,2,2,0,0,VALID,0,0,0,0,0,1,0,0,0,0,0,0,0,0,0,0,0,0,0,0,527.88,877.71,2,0,0.06,0.06,85,15.38,0.08,0.04,7.84,LANDED,X10-G,0:/Integrated Flight Computer/aircraft/x10_g_cfg.ks (inferred preloaded)
8.22,TAKEOFF,TO_PREFLIGHT,0.18,80,79.82,3.6,0,-0.36,-0.2,93.54,0.104,1,0,0,0,0,0,0,0,0,0,0,0,0,0,0,90.4,0,1,0,-0.02,0,0,0,90,0,0,0,0,0,0,0,0,0,0,0,3,0,0,0,69,0,0,0,90.4,1,0,2.995,0,0,1,0,0,0,0,0,0,0,2,2,0,0,VALID,0,0,0,0,0,1,0,0,0,0,0,0,0,0,0,0,0,0,0,0,545.64,877.71,2,0,0.06,0.06,89,15.38,0.08,0.04,8.1,LANDED,X10-G,0:/Integrated Flight Computer/aircraft/x10_g_cfg.ks (inferred preloaded)
8.48,TAKEOFF,TO_PREFLIGHT,0.18,80,79.82,3.6,0,-0.36,-0.11,93.54,0.102,1,0,0,0,0,0,0,0,0,0,0,0,0,0,0,90.4,0,1,0,-0.03,0,0,0,90,0,0,0,0,0,0,0,0,0,0,0,3,0,0,0,69,0,0,0,90.4,1,0,2.995,0,0,1,0,0,0,0,0,0,0,2,2,0,0,VALID,0,0,0,0,0,1,0,0,0,0,0,0,0,0,0,0,0,0,0,0,562.5,877.71,2,0,0.06,0.06,93,15.38,0.08,0.04,8.36,LANDED,X10-G,0:/Integrated Flight Computer/aircraft/x10_g_cfg.ks (inferred preloaded)
8.74,TAKEOFF,TO_PREFLIGHT,0.19,80,79.81,3.6,0,-0.36,-0.1,93.53,0.106,1,0,0,0,0,0,0,0,0,0,0,0,0,0,0,90.4,0,1,0,-0.04,0,0,0,90,0,0,0,0,0,0,0,0,0,0,0,3,0,0,0,69,0,0,0,90.4,1,0,2.995,0,0,1,0,0,0,0,0,0,0,2,2,0,0,VALID,0,0,0,0,0,1,0,0,0,0,0,0,0,0,0,0,0,0,0,0,578.51,877.71,2,0,0.06,0.06,97,15.38,0.08,0.04,8.62,LANDED,X10-G,0:/Integrated Flight Computer/aircraft/x10_g_cfg.ks (inferred preloaded)
9,TAKEOFF,TO_PREFLIGHT,0.22,80,79.78,3.6,0,-0.36,0.05,93.42,0.145,1,0,0,0,0,0,0,0,0,0,0,0,0,0,0,90.4,0,1,0,-0.12,0,0,0,90,0,0,0,0,0,0,0,0,0,0,0,3,0,0,0,69,0,0,0,90.4,1,0,2.995,0,0,1,0,0,0,0,0,0,0,2,2,0,0,VALID,0,0,0,0,0,1,0,0,0,0,0,0,0,0,0,0,0,0,0,0,593.7,877.71,2,0,0.06,0.06,101,15.38,0.08,0.04,8.88,LANDED,X10-G,0:/Integrated Flight Computer/aircraft/x10_g_cfg.ks (inferred preloaded)
9.26,TAKEOFF,TO_PREFLIGHT,0.28,80,79.72,3.61,-0.01,-0.34,0.84,93.14,0.209,1,0,0,0,0,0,0,0,0,0,0,0,0,0,0,90.4,0,1,0,-0.42,0,0,0,90,0,0,0,0,0,0,0,0,0,0,0,3,0,0,0,69,0,0,0,90.4,1,0,2.995,0,0,1,0,0,0,0,0,0,0,2,2,0,0,VALID,0,0,0,0,0,1,0,0,0,0,0,0,0,0,0,0,0,0,0,0,608.11,877.71,2,0,0.06,0.06,105,15.38,0.08,0.04,9.14,LANDED,X10-G,0:/Integrated Flight Computer/aircraft/x10_g_cfg.ks (inferred preloaded)
9.52,TAKEOFF,TO_PREFLIGHT,0.35,80,79.65,3.61,0,-0.33,-0.05,92.82,0.142,1,0,0,0,0,0,0,0,0,0,0,0,0,0,0,90.4,0,1,0,-0.04,0,0,0,90,0,0,0,0,0,0,0,0,0,0,0,3,0,0,0,69,0,0,0,90.4,1,0,2.995,0,0,1,0,0,0,0,0,0,0,2,2,0,0,VALID,0,0,0,0,0,1,0,0,0,0,0,0,0,0,0,0,0,0,0,0,621.8,877.71,2,0,0.06,0.06,109,15.38,0.08,0.04,9.4,LANDED,X10-G,0:/Integrated Flight Computer/aircraft/x10_g_cfg.ks (inferred preloaded)
9.78,TAKEOFF,TO_PREFLIGHT,0.45,80,79.55,3.6,0,-0.35,-0.75,92.46,0.152,1,0,0,0,0,0,0,0,0,0,0,0,0,0,0,90.4,0,1,0,0.14,0,0,0,90,0,0,0,0,0,0,0,0,0,0,0,3,0,0,0,69,0,0,0,90.4,1,0,2.995,0,0,1,0,0,0,0,0,0,0,2,2,0,0,VALID,0,0,0,0,0,1,0,0,0,0,0,0,0,0,0,0,0,0,0,0,634.79,877.71,2,0,0.06,0.06,113,15.38,0.08,0.04,9.66,LANDED,X10-G,0:/Integrated Flight Computer/aircraft/x10_g_cfg.ks (inferred preloaded)
10.04,TAKEOFF,TO_PREFLIGHT,0.56,80,79.44,3.61,-0.01,-0.34,0.75,92.06,0.173,1,0,0,0,0,0,0,0,0,0,0,0,0,0,0,90.4,0,1,0,-0.69,0,0,0,90,0,0,0,0,0,0,0,0,0,0,0,3,0,0,0,69,0,0,0,90.4,1,0,2.995,0,0,1,0,0,0,0,0,0,0,2,2,0,0,VALID,0,0,0,0,0,1,0,0,0,0,0,0,0,0,0,0,0,0,0,0,647.12,877.71,2,0,0.06,0.06,117,15.38,0.08,0.04,9.92,LANDED,X10-G,0:/Integrated Flight Computer/aircraft/x10_g_cfg.ks (inferred preloaded)
10.3,TAKEOFF,TO_PREFLIGHT,0.67,80,79.33,3.61,0,-0.34,-0.45,91.65,0.161,1,0,0,0,0,0,0,0,0,0,0,0,0,0,0,90.4,0,1,0,0.12,0,0,0,90,0,0,0,0,0,0,0,0,0,0,0,3,0,0,0,69,0,0,0,90.4,1,0,2.995,0,0,1,0,0,0,0,0,0,0,2,2,0,0,VALID,0,0,0,0,0,1,0,0,0,0,0,0,0,0,0,0,0,0,0,0,658.83,877.7,2,0,0.06,0.06,121,15.38,0.08,0.04,10.18,LANDED,X10-G,0:/Integrated Flight Computer/aircraft/x10_g_cfg.ks (inferred preloaded)
10.56,TAKEOFF,TO_PREFLIGHT,0.76,80,79.24,3.6,0,-0.35,-0.22,91.25,0.164,1,0,0,0,0,0,0,0,0,0,0,0,0,0,0,90.4,0,1,0,-0.17,0,0,0,90,0,0,0,0,0,0,0,0,0,0,0,3,0,0,0,69,0,0,0,90.4,1,0,2.995,0,0,1,0,0,0,0,0,0,0,2,2,0,0,VALID,0,0,0,0,0,1,0,0,0,0,0,0,0,0,0,0,0,0,0,0,669.94,877.7,2,0,0.06,0.06,125,15.38,0.08,0.04,10.44,LANDED,X10-G,0:/Integrated Flight Computer/aircraft/x10_g_cfg.ks (inferred preloaded)
10.82,TAKEOFF,TO_PREFLIGHT,0.83,80,79.17,3.6,-0.01,-0.35,0.19,90.85,0.174,1,0,0,0,0,0,0,0,0,0,0,0,0,0,0,90.4,0,1,0,-0.45,0,0,0,90,0,0,0,0,0,0,0,0,0,0,0,3,0,0,0,69,0,0,0,90.4,1,0,2.995,0,0,1,0,0,0,0,0,0,0,2,2,0,0,VALID,0,0,0,0,0,1,0,0,0,0,0,0,0,0,0,0,0,0,0,0,680.49,877.7,2,0,0.06,0.06,129,15.38,0.08,0.04,10.7,LANDED,X10-G,0:/Integrated Flight Computer/aircraft/x10_g_cfg.ks (inferred preloaded)
11.08,TAKEOFF,TO_GROUND_ROLL,0.88,80,79.12,3.6,0,-0.35,-0.23,90.48,0.174,1,0,0,0,0,0,0,0,0,0,0,0,0,0,0,99.14,0,1,0,-0.12,0,0,0,90,0,0,0,0,0,0,0,0,-0.018,0,0,3,0,0,0,69,0,0,0,99.14,1,-0.018,-8.661,0.4,0.559,0,0.18,0,0,0,0,0,0,2,2,0,0,VALID,0,0,0,0,0,1,0,0,0,0,0,0,0,0,0,0,0,0,0,0,690.5,877.7,2,0,0.06,0.06,133,15.38,0.08,0.04,10.98,LANDED,X10-G,0:/Integrated Flight Computer/aircraft/x10_g_cfg.ks (inferred preloaded)
11.36,TAKEOFF,TO_GROUND_ROLL,1.49,80,78.51,3.65,-0.06,-0.18,1.59,90.23,0.146,1,0,0,0,0,0,0,0,0,0,0,0,0,0,0,90.46,0,1,0,-2.31,0,0,0,90,0,0,0,0,0,0,0,0,-0.018,0,0,3,0,0,0,69,0,0,0,90.46,1,-0.018,-0.231,0.039,0.565,0,0.039,0,0,0,0,0,0,2,2,0,0,VALID,0,0,0,0,0,1,0,0,0,0,0,0,0,0,0,0,0,0,0,0,700.71,877.69,2,0,0.06,0.06,137,14.29,0.08,0.06,11.26,LANDED,X10-G,0:/Integrated Flight Computer/aircraft/x10_g_cfg.ks (inferred preloaded)
11.64,TAKEOFF,TO_GROUND_ROLL,2.65,80,77.35,3.67,0.02,-0.1,-0.46,90.17,0.082,1,0,0,0,0,0,0,0,0,0,0,0,0,0,0,90.4,0,1,0,0.45,0,0,0,90,0,0,0,0,0,0,0,0,-0.018,0,0,3,0,0,0,69,0,0,0,90.4,1,-0.018,-0.233,0.0285,0.577,0,0.0285,0,0,0,0,0,0,2,2,0,0,VALID,0,0,0,0,0,1,0,0,0,0,0,0,0,0,0,0,0,0,0,0,710.35,877.66,2,0,0.06,0.06,141,14.29,0.08,0.06,11.54,LANDED,X10-G,0:/Integrated Flight Computer/aircraft/x10_g_cfg.ks (inferred preloaded)
11.92,TAKEOFF,TO_GROUND_ROLL,3.87,80,76.13,3.66,-0.05,-0.14,0.42,90.16,0.12,1,0,0,0,0,0,0,0,0,0,0,0,0,0,0,90.38,0,1,0,-0.69,0,0,0,90,0,0,0,0,0,0,0,0,-0.019,0,0,3,0,0,0,69,0,0,0,90.38,1,-0.019,-0.219,0.0228,0.589,0,0.0228,0,0,0,0,0,0,2,2,0,0,VALID,0,0,0,0,0,1,0,0,0,0,0,0,0,0,0,0,0,0,0,0,719.44,877.62,2,0,0.06,0.06,145,14.29,0.08,0.06,11.82,LANDED,X10-G,0:/Integrated Flight Computer/aircraft/x10_g_cfg.ks (inferred preloaded)
12.2,TAKEOFF,TO_GROUND_ROLL,5.1,80,74.9,3.64,-0.02,-0.19,0.03,90.18,0.137,1,0,0,0,0,0,0,0,0,0,0,0,0,0,0,90.37,0,1,0,-0.23,0,0,0,90,0,0,0,0,0,0,0,0,-0.019,0,0,3,0,0,0,69,0,0,0,90.37,1,-0.019,-0.189,0.0171,0.601,0,0.0171,0,0,0,0,0,0,2,2,0,0,VALID,0,0,0,0,0,1,0,0,0,0,0,0,0,0,0,0,0,0,0,0,728.02,877.56,2,0,0.06,0.06,149,14.29,0.08,0.06,12.1,LANDED,X10-G,0:/Integrated Flight Computer/aircraft/x10_g_cfg.ks (inferred preloaded)
12.48,TAKEOFF,TO_GROUND_ROLL,6.35,80,73.65,3.64,-0.04,-0.23,0.06,90.21,0.108,1,0,0,0,0,0,0,0,0,0,0,0,0,0,0,90.36,0,1,0,-0.35,0,0,0,90,0,0,0,0,0,0,0,0,-0.019,0,0,3,0,0,0,69,0,0,0,90.36,1,-0.019,-0.148,0.0105,0.613,0,0.0105,0,0,0,0,0,0,2,2,0,0,VALID,0,0,0,0,0,1,0,0,0,0,0,0,0,0,0,0,0,0,0,0,736.12,877.49,2,0,0.06,0.06,153,14.29,0.08,0.06,12.38,LANDED,X10-G,0:/Integrated Flight Computer/aircraft/x10_g_cfg.ks (inferred preloaded)
12.76,TAKEOFF,TO_GROUND_ROLL,7.61,80,72.39,3.64,-0.05,-0.2,0.17,90.25,0.111,1,0,0,0,0,0,0,0,0,0,0,0,0,0,0,90.35,0,1,0,-0.39,0,0,0,90,0,0,0,0,0,0,0,0,-0.02,0,0,3,0,0,0,69,0,0,0,90.35,1,-0.02,-0.103,0.005,0.626,0,0.005,0,0,0,0,0,0,2,2,0,0,VALID,0,0,0,0,0,1,0,0,0,0,0,0,0,0,0,0,0,0,0,0,743.76,877.39,2,0,0.06,0.06,157,14.29,0.08,0.06,12.66,LANDED,X10-G,0:/Integrated Flight Computer/aircraft/x10_g_cfg.ks (inferred preloaded)
13.04,TAKEOFF,TO_GROUND_ROLL,8.88,80,71.12,3.64,-0.05,-0.21,0.05,90.3,0.124,1,0,0,0,0,0,0,0,0,0,0,0,0,0,0,90.35,0,1,0,-0.29,0,0,0,90,0,0,0,0,0,0,0,0,-0.02,0,0,3,0,0,0,69,0,0,0,90.35,1,-0.02,-0.05,-0.0008,0.639,0,-0.0008,0,0,0,0,0,0,2,2,0,0,VALID,0,0,0,0,0,1,0,0,0,0,0,0,0,0,0,0,0,0,0,0,750.96,877.29,2,0,0.06,0.06,161,14.29,0.08,0.06,12.94,LANDED,X10-G,0:/Integrated Flight Computer/aircraft/x10_g_cfg.ks (inferred preloaded)
13.32,TAKEOFF,TO_GROUND_ROLL,10.17,80,69.83,3.64,-0.06,-0.22,0.11,90.35,0.116,1,0,0,0,0,0,0,0,0,0,0,0,0,0,0,90.35,0,1,0,-0.36,0,0,0,90,0,0,0,0,0,0,0,0,-0.021,0,0,3,0,0,0,69,0,0,0,90.35,1,-0.021,0.001,-0.0047,0.652,0,-0.0047,0,0,0,0,0,0,2,2,0,0,VALID,0,0,0,0,0,1,0,0,0,0,0,0,0,0,0,0,0,0,0,0,757.75,877.17,2,0,0.06,0.06,165,14.29,0.08,0.06,13.22,LANDED,X10-G,0:/Integrated Flight Computer/aircraft/x10_g_cfg.ks (inferred preloaded)
13.6,TAKEOFF,TO_GROUND_ROLL,11.47,80,68.53,3.64,-0.07,-0.21,0.1,90.4,0.112,1,0,0,0,0,0,0,0,0,0,0,0,0,0,0,90.35,0,1,0,-0.33,0,0,0,90,0,0,0,0,0,0,0,0,-0.023,0,0,3,0,0,0,69,0,0,0,90.35,1,-0.023,0.051,-0.0098,0.665,0,-0.0098,0,0,0,0,0,0,2,2,0,0,VALID,0,0,0,0,0,1,0,0,0,0,0,0,0,0,0,0,0,0,0,0,764.15,877.03,2,0,0.06,0.06,169,14.29,0.08,0.06,13.5,LANDED,X10-G,0:/Integrated Flight Computer/aircraft/x10_g_cfg.ks (inferred preloaded)
13.88,TAKEOFF,TO_GROUND_ROLL,12.78,80,67.22,3.64,-0.07,-0.22,0.08,90.45,0.118,1,0,0,0,0,0,0,0,0,0,0,0,0,0,0,90.34,0,1,0,-0.32,0,0,0,90,0,0,0,0,0,0,0,0,-0.024,0,0,3,0,0,0,69,0,0,0,90.34,1,-0.024,0.101,-0.0162,0.678,0,-0.0162,0,0,0,0,0,0,2,2,0,0,VALID,0,0,0,0,0,1,0,0,0,0,0,0,0,0,0,0,0,0,0,0,770.18,876.89,2,0,0.06,0.06,173,14.29,0.08,0.06,13.78,LANDED,X10-G,0:/Integrated Flight Computer/aircraft/x10_g_cfg.ks (inferred preloaded)
14.16,TAKEOFF,TO_GROUND_ROLL,14.09,80,65.91,3.64,-0.08,-0.21,0.11,90.49,0.118,1,0,0,0,0,0,0,0,0,0,0,0,0,0,0,90.35,0,1,0,-0.34,0,0,0,90,0,0,0,0,0,0,0,0,-0.026,0,0,3,0,0,0,69,0,0,0,90.35,1,-0.026,0.144,-0.022,0.691,0,-0.022,0,0,0,0,0,0,2,2,0,0,VALID,0,0,0,0,0,1,0,0,0,0,0,0,0,0,0,0,0,0,0,0,775.86,876.72,2,0,0.06,0.06,177,14.29,0.08,0.06,14.06,LANDED,X10-G,0:/Integrated Flight Computer/aircraft/x10_g_cfg.ks (inferred preloaded)
14.44,TAKEOFF,TO_GROUND_ROLL,15.42,80,64.58,3.64,-0.09,-0.21,0.08,90.53,0.116,1,0,0,0,0,0,0,0,0,0,0,0,0,0,0,90.35,0,1,0,-0.32,0,0,0,90,0,0,0,0,0,0,0,0,-0.028,0,0,3,0,0,0,69,0,0,0,90.35,1,-0.028,0.184,-0.0283,0.704,0,-0.0283,0,0,0,0,0,0,2,2,0,0,VALID,0,0,0,0,0,1,0,0,0,0,0,0,0,0,0,0,0,0,0,0,781.21,876.55,2,0,0.06,0.06,181,14.29,0.08,0.06,14.34,LANDED,X10-G,0:/Integrated Flight Computer/aircraft/x10_g_cfg.ks (inferred preloaded)
14.72,TAKEOFF,TO_GROUND_ROLL,16.76,80,63.24,3.64,-0.1,-0.21,0.09,90.57,0.118,1,0,0,0,0,0,0,0,0,0,0,0,0,0,0,90.35,0,1,0,-0.33,0,0,0,90,0,0,0,0,0,0,0,0,-0.03,0,0,3,0,0,0,69,0,0,0,90.35,1,-0.03,0.217,-0.0331,0.718,0,-0.0331,0,0,0,0,0,0,2,2,0,0,VALID,0,0,0,0,0,1,0,0,0,0,0,0,0,0,0,0,0,0,0,0,786.25,876.36,2,0,0.06,0.06,185,14.29,0.08,0.06,14.62,LANDED,X10-G,0:/Integrated Flight Computer/aircraft/x10_g_cfg.ks (inferred preloaded)
15,TAKEOFF,TO_GROUND_ROLL,18.1,80,61.9,3.64,-0.1,-0.21,0.1,90.59,0.12,1,0,0,0,0,0,0,0,0,0,0,0,0,0,0,90.35,0,1,0,-0.33,0,0,0,90,0,0,0,0,0,0,0,0,-0.033,0,0,3,0,0,0,69,0,0,0,90.35,1,-0.033,0.244,-0.0362,0.731,0,-0.0362,0,0,0,0,0,0,2,2,0,0,VALID,0,0,0,0,0,1,0,0,0,0,0,0,0,0,0,0,0,0,0,0,790.99,876.16,2,0,0.06,0.06,189,14.29,0.08,0.06,14.9,LANDED,X10-G,0:/Integrated Flight Computer/aircraft/x10_g_cfg.ks (inferred preloaded)
15.28,TAKEOFF,TO_GROUND_ROLL,19.46,80,60.54,3.64,-0.11,-0.21,0.09,90.62,0.12,1,0,0,0,0,0,0,0,0,0,0,0,0,0,0,90.35,0,1,0,-0.32,0,0,0,90,0,0,0,0,0,0,0,0,-0.036,0,0,3,0,0,0,69,0,0,0,90.35,1,-0.036,0.267,-0.0391,0.745,0,-0.0391,0,0,0,0,0,0,2,2,0,0,VALID,0,0,0,0,0,1,0,0,0,0,0,0,0,0,0,0,0,0,0,0,795.45,875.96,2,0,0.06,0.06,193,14.29,0.08,0.06,15.18,LANDED,X10-G,0:/Integrated Flight Computer/aircraft/x10_g_cfg.ks (inferred preloaded)
15.56,TAKEOFF,TO_GROUND_ROLL,20.82,80,59.18,3.64,-0.12,-0.21,0.1,90.63,0.121,1,0,0,0,0,0,0,0,0,0,0,0,0,0,0,90.35,0,1,0,-0.33,0,0,0.01,90,0,0,0,0,0,0,0,0,-0.04,0,0,3,0,0,0,69,0,0,0,90.35,1,-0.04,0.285,-0.0414,0.758,0,-0.0414,0,0,0,0,0,0,2,2,0,0,VALID,0,0,0,0,0,1,0,0,0,0,0,0,0,0,0,0,0,0,0,0,799.64,875.74,2,0,0.06,0.06,197,14.29,0.08,0.06,15.46,LANDED,X10-G,0:/Integrated Flight Computer/aircraft/x10_g_cfg.ks (inferred preloaded)
15.84,TAKEOFF,TO_GROUND_ROLL,22.19,80,57.81,3.64,-0.12,-0.21,0.09,90.65,0.122,1,0,0,0,0,0,0,0,0,0,0,0,0,0,0,90.35,0,1,0,-0.32,0,0,0.01,90,0,0,0,0,0,0,0,0,-0.044,0,0,3,0,0,0,69,0,0,0,90.35,1,-0.044,0.299,-0.0434,0.772,0,-0.0434,0,0,0,0,0,0,2,2,0,0,VALID,0,0,0,0,0,1,0,0,0,0,0,0,0,0,0,0,0,0,0,0,803.59,875.51,2,0,0.06,0.06,201,14.29,0.08,0.06,15.74,LANDED,X10-G,0:/Integrated Flight Computer/aircraft/x10_g_cfg.ks (inferred preloaded)
16.12,TAKEOFF,TO_GROUND_ROLL,23.56,80,56.44,3.64,-0.13,-0.21,0.09,90.66,0.123,1,0,0,0,0,0,0,0,0,0,0,0,0,0,0,90.35,0,1,0,-0.32,0,0,0.01,90,0,0,0,0,0,0,0,0,-0.048,0,0,3,0,0,0,69,0,0,0,90.35,1,-0.048,0.31,-0.0451,0.786,0,-0.0451,0,0,0,0,0,0,2,2,0,0,VALID,0,0,0,0,0,1,0,0,0,0,0,0,0,0,0,0,0,0,0,0,807.3,875.27,2,0,0.06,0.06,205,14.29,0.08,0.06,16.02,LANDED,X10-G,0:/Integrated Flight Computer/aircraft/x10_g_cfg.ks (inferred preloaded)
16.4,TAKEOFF,TO_GROUND_ROLL,24.94,80,55.06,3.64,-0.14,-0.21,0.09,90.66,0.123,1,0,0,0,0,0,0,0,0,0,0,0,0,0,0,90.35,0,1,0,-0.32,0,0,0.01,90,0,0,0,0,0,0,0,0,-0.052,0,0,3,0,0,0,69,0,0,0,90.35,1,-0.052,0.318,-0.0465,0.799,0,-0.0465,0,0,0,0,0,0,2,2,0,0,VALID,0,0,0,0,0,1,0,0,0,0,0,0,0,0,0,0,0,0,0,0,810.78,875.03,2,0,0.06,0.06,209,14.29,0.08,0.06,16.3,LANDED,X10-G,0:/Integrated Flight Computer/aircraft/x10_g_cfg.ks (inferred preloaded)
16.68,TAKEOFF,TO_GROUND_ROLL,26.33,80,53.67,3.64,-0.15,-0.21,0.09,90.67,0.124,1,0,0,0,0,0,0,0,0,0,0,0,0,0,0,90.34,0,1,0,-0.32,0,0,0.01,90,0,0,0,0,0,0,0,0,-0.057,0,0,3,0,0,0,69,0,0,0,90.34,1,-0.057,0.324,-0.0477,0.813,0,-0.0477,0,0,0,0,0,0,2,2,0,0,VALID,0,0,0,0,0,1,0,0,0,0,0,0,0,0,0,0,0,0,0,0,814.06,874.78,2,0,0.06,0.06,213,14.29,0.08,0.06,16.58,LANDED,X10-G,0:/Integrated Flight Computer/aircraft/x10_g_cfg.ks (inferred preloaded)
16.96,TAKEOFF,TO_GROUND_ROLL,27.72,80,52.28,3.64,-0.15,-0.21,0.09,90.67,0.125,1,0,0,0,0,0,0,0,0,0,0,0,0,0,0,90.34,0,1,0,-0.32,0,0,0.01,90,0,0,0,0,0,0,0,0,-0.061,0,0,3,0,0,0,69,0,0,0,90.34,1,-0.061,0.328,-0.0488,0.827,0,-0.0488,0,0,0,0,0,0,2,2,0,0,VALID,0,0,0,0,0,1,0,0,0,0,0,0,0,0,0,0,0,0,0,0,817.13,874.52,2,0,0.06,0.06,217,14.29,0.08,0.06,16.86,LANDED,X10-G,0:/Integrated Flight Computer/aircraft/x10_g_cfg.ks (inferred preloaded)
17.24,TAKEOFF,TO_GROUND_ROLL,29.12,80,50.88,3.64,-0.16,-0.21,0.09,90.67,0.125,1,0,0,0,0,0,0,0,0,0,0,0,0,0,0,90.33,0,1,0,-0.32,0,0,0.01,90,0,0,0,0,0,0,0,0,-0.067,0,0,3,0,0,0,69,0,0,0,90.33,1,-0.067,0.33,-0.0497,0.841,0,-0.0497,0,0,0,0,0,0,2,2,0,0,VALID,0,0,0,0,0,1,0,0,0,0,0,0,0,0,0,0,0,0,0,0,820.02,874.26,2,0,0.06,0.06,221,14.29,0.08,0.06,17.14,LANDED,X10-G,0:/Integrated Flight Computer/aircraft/x10_g_cfg.ks (inferred preloaded)
17.52,TAKEOFF,TO_GROUND_ROLL,30.52,80,49.48,3.64,-0.17,-0.21,0.09,90.66,0.126,1,0,0,0,0,0,0,0,0,0,0,0,0,0,0,90.33,0,1,0,-0.32,0,0,0.01,90,0,0,0,0,0,0,0,0,-0.072,0,0,3,0,0,0,69,0,0,0,90.33,1,-0.072,0.332,-0.0505,0.855,0,-0.0505,0,0,0,0,0,0,2,2,0,0,VALID,0,0,0,0,0,1,0,0,0,0,0,0,0,0,0,0,0,0,0,0,822.73,874,2,0,0.06,0.06,225,14.29,0.08,0.06,17.42,LANDED,X10-G,0:/Integrated Flight Computer/aircraft/x10_g_cfg.ks (inferred preloaded)
17.8,TAKEOFF,TO_GROUND_ROLL,31.92,80,48.08,3.64,-0.18,-0.21,0.09,90.66,0.126,1,0,0,0,0,0,0,0,0,0,0,0,0,0,0,90.33,0,1,0,-0.31,0,0,0.01,90,0,0,0,0,0,0,0,0,-0.077,0,0,3,0,0,0,69,0,0,0,90.33,1,-0.077,0.333,-0.0513,0.869,0,-0.0513,0,0,0,0,0,0,2,2,0,0,VALID,0,0,0,0,0,1,0,0,0,0,0,0,0,0,0,0,0,0,0,0,825.28,873.73,2,0,0.06,0.06,229,14.29,0.08,0.06,17.7,LANDED,X10-G,0:/Integrated Flight Computer/aircraft/x10_g_cfg.ks (inferred preloaded)
18.08,TAKEOFF,TO_GROUND_ROLL,33.34,80,46.66,3.64,-0.18,-0.21,0.09,90.65,0.126,1,0,0,0,0,0,0,0,0,0,0,0,0,0,0,90.32,0,1,0,-0.31,0,0,0.01,90,0,0,0,0,0,0,0,0,-0.083,0,0,3,0,0,0,69,0,0,0,90.32,1,-0.083,0.333,-0.052,0.883,0,-0.052,0,0,0,0,0,0,2,2,0,0,VALID,0,0,0,0,0,1,0,0,0,0,0,0,0,0,0,0,0,0,0,0,827.67,873.46,2,0,0.06,0.06,233,14.29,0.08,0.06,17.98,LANDED,X10-G,0:/Integrated Flight Computer/aircraft/x10_g_cfg.ks (inferred preloaded)
18.36,TAKEOFF,TO_GROUND_ROLL,34.75,80,45.25,3.64,-0.19,-0.21,0.09,90.65,0.127,1,0,0,0,0,0,0,0,0,0,0,0,0,0,0,90.31,0,1,0,-0.31,0,0,0.01,90,0,0,0,0,0,0,0,0,-0.089,0,0,3,0,0,0,69,0,0,0,90.31,1,-0.089,0.333,-0.0526,0.897,0,-0.0526,0,0,0,0,0,0,2,2,0,0,VALID,0,0,0,0,0,1,0,0,0,0,0,0,0,0,0,0,0,0,0,0,829.91,873.19,2,0,0.06,0.06,237,14.29,0.08,0.06,18.26,LANDED,X10-G,0:/Integrated Flight Computer/aircraft/x10_g_cfg.ks (inferred preloaded)
18.64,TAKEOFF,TO_GROUND_ROLL,36.17,80,43.83,3.64,-0.2,-0.2,0.09,90.64,0.128,1,0,0,0,0,0,0,0,0,0,0,0,0,0,0,90.31,0,1,0,-0.31,0,0,0.01,90,0,0,0,0,0,0,0,0,-0.095,0,0,3,0,0,0,69,0,0,0,90.31,1,-0.095,0.333,-0.0533,0.912,0,-0.0533,0,0,0,0,0,0,2,2,0,0,VALID,0,0,0,0,0,1,0,0,0,0,0,0,0,0,0,0,0,0,0,0,832.02,872.92,2,0,0.06,0.06,241,14.29,0.08,0.06,18.54,LANDED,X10-G,0:/Integrated Flight Computer/aircraft/x10_g_cfg.ks (inferred preloaded)
18.92,TAKEOFF,TO_GROUND_ROLL,37.59,80,42.41,3.64,-0.2,-0.2,0.09,90.63,0.128,1,0,0,0,0,0,0,0,0,0,0,0,0,0,0,90.3,0,1,0,-0.31,0,0,0.02,90,0,0,0,0,0,0,0,0,-0.102,0,0,3,0,0,0,69,0,0,0,90.3,1,-0.102,0.332,-0.0539,0.926,0,-0.0539,0,0,0,0,0,0,2,2,0,0,VALID,0,0,0,0,0,1,0,0,0,0,0,0,0,0,0,0,0,0,0,0,833.99,872.65,2,0,0.06,0.06,245,14.29,0.08,0.06,18.82,LANDED,X10-G,0:/Integrated Flight Computer/aircraft/x10_g_cfg.ks (inferred preloaded)
19.2,TAKEOFF,TO_GROUND_ROLL,39.01,80,40.99,3.64,-0.21,-0.2,0.09,90.63,0.128,1,0,0,0,0,0,0,0,0,0,0,0,0,0,0,90.3,0,1,0,-0.31,0,0,0.02,90,0,0,0,0,0,0,0,0,-0.108,0,0,3,0,0,0,69,0,0,0,90.3,1,-0.108,0.331,-0.0544,0.94,0,-0.0544,0,0,0,0,0,0,2,2,0,0,VALID,0,0,0,0,0,1,0,0,0,0,0,0,0,0,0,0,0,0,0,0,835.85,872.39,2,0,0.06,0.06,249,14.29,0.08,0.06,19.1,LANDED,X10-G,0:/Integrated Flight Computer/aircraft/x10_g_cfg.ks (inferred preloaded)
19.48,TAKEOFF,TO_GROUND_ROLL,40.44,80,39.56,3.64,-0.22,-0.2,0.09,90.62,0.128,1,0,0,0,0,0,0,0,0,0,0,0,0,0,0,90.29,0,1,0,-0.31,0,0,0.02,90,0,0,0,0,0,0,0,0,-0.115,0,0,3,0,0,0,69,0,0,0,90.29,1,-0.115,0.329,-0.0549,0.954,0,-0.0549,0,0,0,0,0,0,2,2,0,0,VALID,0,0,0,0,0,1,0,0,0,0,0,0,0,0,0,0,0,0,0,0,837.59,872.12,2,0,0.06,0.06,253,14.29,0.08,0.06,19.38,LANDED,X10-G,0:/Integrated Flight Computer/aircraft/x10_g_cfg.ks (inferred preloaded)
19.76,TAKEOFF,TO_GROUND_ROLL,41.87,80,38.13,3.64,-0.22,-0.2,0.09,90.61,0.129,1,0,0,0,0,0,0,0,0,0,0,0,0,0,0,90.28,0,1,0,-0.31,0,0,0.02,90,0,0,0,0,0,0,0,0,-0.121,0,0,3,0,0,0,69,0,0,0,90.28,1,-0.121,0.328,-0.0555,0.969,0,-0.0555,0,0,0,0,0,0,2,2,0,0,VALID,0,0,0,0,0,1,0,0,0,0,0,0,0,0,0,0,0,0,0,0,839.23,871.87,2,0,0.06,0.06,257,14.29,0.08,0.06,19.66,LANDED,X10-G,0:/Integrated Flight Computer/aircraft/x10_g_cfg.ks (inferred preloaded)
20.04,TAKEOFF,TO_GROUND_ROLL,43.31,80,36.69,3.64,-0.23,-0.2,0.09,90.6,0.129,1,0,0,0,0,0,0,0,0,0,0,0,0,0,0,90.28,0,1,0,-0.3,0,0,0.02,90,0,0,0,0,0,0,0,0,-0.128,0,0,3,0,0,0,69,0,0,0,90.28,1,-0.128,0.327,-0.0561,0.983,0,-0.0561,0,0,0,0,0,0,2,2,0,0,VALID,0,0,0,0,0,1,0,0,0,0,0,0,0,0,0,0,0,0,0,0,840.76,871.61,2,0,0.06,0.06,261,14.29,0.08,0.06,19.94,LANDED,X10-G,0:/Integrated Flight Computer/aircraft/x10_g_cfg.ks (inferred preloaded)
20.32,TAKEOFF,TO_GROUND_ROLL,44.74,80,35.26,3.64,-0.24,-0.2,0.09,90.6,0.13,1,0,0,0,0,0,0,0,0,0,0,0,0,0,0,90.27,0,1,0,-0.3,0,0,0.02,90,0,0,0,0,0,0,0,0,-0.135,0,0,3,0,0,0,69,0,0,0,90.27,1,-0.135,0.325,-0.0565,0.997,0,-0.0565,0,0,0,0,0,0,2,2,0,0,VALID,0,0,0,0,0,1,0,0,0,0,0,0,0,0,0,0,0,0,0,0,842.21,871.37,2,0,0.06,0.06,265,14.29,0.08,0.06,20.22,LANDED,X10-G,0:/Integrated Flight Computer/aircraft/x10_g_cfg.ks (inferred preloaded)
20.6,TAKEOFF,TO_GROUND_ROLL,46.18,80,33.82,3.64,-0.24,-0.2,0.09,90.59,0.13,1,0,0,0,0,0,0,0,0,0,0,0,0,0,0,90.26,0,1,0,-0.3,0,0,0.02,90,0,0,0,0,0,0,0,0,-0.143,0,0,3,0,0,0,69,0,0,0,90.26,1,-0.143,0.323,-0.0563,1,0,-0.0563,0,0,0,0,0,0,2,2,0,0,VALID,0,0,0,0,0,1,0,0,0,0,0,0,0,0,0,0,0,0,0,0,843.57,871.13,2,0,0.06,0.06,269,14.29,0.08,0.06,20.5,LANDED,X10-G,0:/Integrated Flight Computer/aircraft/x10_g_cfg.ks (inferred preloaded)
20.88,TAKEOFF,TO_GROUND_ROLL,47.62,80,32.38,3.64,-0.25,-0.2,0.08,90.58,0.13,1,0,0,0,0,0,0,0,0,0,0,0,0,0,0,90.26,0,1,0,-0.3,0,0,0.02,90,0,0,0,0,0,0,0,0,-0.15,0,0,3,0,0,0,69,0,0,0,90.26,1,-0.15,0.322,-0.0562,1,0,-0.0562,0,0,0,0,0,0,2,2,0,0,VALID,0,0,0,0,0,1,0,0,0,0,0,0,0,0,0,0,0,0,0,0,844.85,870.89,2,0,0.06,0.06,273,14.29,0.08,0.06,20.78,LANDED,X10-G,0:/Integrated Flight Computer/aircraft/x10_g_cfg.ks (inferred preloaded)
21.16,TAKEOFF,TO_GROUND_ROLL,49.07,80,30.93,3.64,-0.26,-0.2,0.08,90.57,0.13,1,0,0,0,0,0,0,0,0,0,0,0,0,0,0,90.25,0,1,0,-0.3,0,0,0.02,90,0,0,0,0,0,0,0,0,-0.157,0,0,3,0,0,0,69,0,0,0,90.25,1,-0.157,0.321,-0.0561,1,0,-0.0561,0,0,0,0,0,0,2,2,0,0,VALID,0,0,0,0,0,1,0,0,0,0,0,0,0,0,0,0,0,0,0,0,846.05,870.67,2,0,0.06,0.06,277,14.29,0.08,0.06,21.06,LANDED,X10-G,0:/Integrated Flight Computer/aircraft/x10_g_cfg.ks (inferred preloaded)
21.44,TAKEOFF,TO_GROUND_ROLL,50.51,80,29.49,3.64,-0.26,-0.2,0.08,90.56,0.13,1,0,0,0,0,0,0,0,0,0,0,0,0,0,0,90.24,0,1,0,-0.3,0,0,0.03,90,0,0,0,0,0,0,0,0,-0.165,0,0,3,0,0,0,69,0,0,0,90.24,1,-0.165,0.321,-0.0561,1,0,-0.0561,0,0,0,0,0,0,2,2,0,0,VALID,0,0,0,0,0,1,0,0,0,0,0,0,0,0,0,0,0,0,0,0,847.19,870.46,2,0,0.06,0.06,281,14.29,0.08,0.06,21.34,LANDED,X10-G,0:/Integrated Flight Computer/aircraft/x10_g_cfg.ks (inferred preloaded)
21.72,TAKEOFF,TO_GROUND_ROLL,51.96,80,28.04,3.64,-0.27,-0.2,0.08,90.55,0.13,1,0,0,0,0,0,0,0,0,0,0,0,0,0,0,90.23,0,1,0,-0.29,0,0,0.03,90,0,0,0,0,0,0,0,0,-0.172,0,0,3,0,0,0,69,0,0,0,90.23,1,-0.172,0.321,-0.0561,1,0,-0.0561,0,0,0,0,0,0,2,2,0,0,VALID,0,0,0,0,0,1,0,0,0,0,0,0,0,0,0,0,0,0,0,0,848.27,870.26,2,0,0.06,0.06,285,14.29,0.08,0.06,21.62,LANDED,X10-G,0:/Integrated Flight Computer/aircraft/x10_g_cfg.ks (inferred preloaded)
22,TAKEOFF,TO_GROUND_ROLL,53.41,80,26.59,3.64,-0.27,-0.2,0.08,90.55,0.13,1,0,0,0,0,0,0,0,0,0,0,0,0,0,0,90.22,0,1,0,-0.29,0,0,0.03,90,0,0,0,0,0,0,0,0,-0.18,0,0,3,0,0,0,69,0,0,0,90.22,1,-0.18,0.322,-0.0566,1,0,-0.0566,0,0,0,0,0,0,2,2,0,0,VALID,0,0,0,0,0,1,0,0,0,0,0,0,0,0,0,0,0,0,0,0,849.28,870.07,2,0,0.06,0.06,289,14.29,0.08,0.06,21.9,LANDED,X10-G,0:/Integrated Flight Computer/aircraft/x10_g_cfg.ks (inferred preloaded)
22.28,TAKEOFF,TO_GROUND_ROLL,54.86,80,25.14,3.64,-0.28,-0.19,0.08,90.54,0.13,1,0,0,0,0,0,0,0,0,0,0,0,0,0,0,90.22,0,1,0,-0.29,0,0,0.03,90,0,0,0,0,0,0,0,0,-0.188,0,0,3,0,0,0,69,0,0,0,90.22,1,-0.188,0.323,-0.0569,1,0,-0.0569,0,0,0,0,0,0,2,2,0,0,VALID,0,0,0,0,0,1,0,0,0,0,0,0,0,0,0,0,0,0,0,0,850.25,869.9,2,0,0.06,0.06,293,14.29,0.08,0.06,22.18,LANDED,X10-G,0:/Integrated Flight Computer/aircraft/x10_g_cfg.ks (inferred preloaded)
22.56,TAKEOFF,TO_GROUND_ROLL,56.31,80,23.69,3.64,-0.28,-0.19,0.08,90.53,0.13,1,0,0,0,0,0,0,0,0,0,0,0,0,0,0,90.21,0,1,0,-0.29,0,0,0.03,90,0,0,0,0,0,0,0,0,-0.196,0,0,3,0,0,0,69,0,0,0,90.21,1,-0.196,0.324,-0.0569,1,0,-0.0569,0,0,0,0,0,0,2,2,0,0,VALID,0,0,0,0,0,1,0,0,0,0,0,0,0,0,0,0,0,0,0,0,851.17,869.74,2,0,0.06,0.06,297,14.29,0.08,0.06,22.46,LANDED,X10-G,0:/Integrated Flight Computer/aircraft/x10_g_cfg.ks (inferred preloaded)
22.84,TAKEOFF,TO_GROUND_ROLL,57.76,80,22.24,3.64,-0.29,-0.19,0.08,90.53,0.13,1,0,0,0,0,0,0,0,0,0,0,0,0,0,0,90.2,0,1,0,-0.29,0,0,0.03,90,0,0,0,0,0,0,0,0,-0.204,0,0,3,0,0,0,69,0,0,0,90.2,1,-0.204,0.326,-0.0572,1,0,-0.0572,0,0,0,0,0,0,2,2,0,0,VALID,0,0,0,0,0,1,0,0,0,0,0,0,0,0,0,0,0,0,0,0,852.04,869.6,2,0,0.06,0.06,301,14.29,0.08,0.06,22.74,LANDED,X10-G,0:/Integrated Flight Computer/aircraft/x10_g_cfg.ks (inferred preloaded)
23.12,TAKEOFF,TO_GROUND_ROLL,59.22,80,20.78,3.64,-0.29,-0.19,0.08,90.52,0.13,1,0,0,0,0,0,0,0,0,0,0,0,0,0,0,90.19,0,1,0,-0.29,0,0,0.04,90,0,0,0,0,0,0,0,0,-0.212,0,0,3,0,0,0,69,0,0,0,90.19,1,-0.212,0.327,-0.0576,1,0,-0.0576,0,0,0,0,0,0,2,2,0,0,VALID,0,0,0,0,0,1,0,0,0,0,0,0,0,0,0,0,0,0,0,0,852.87,869.47,2,0,0.06,0.06,305,14.29,0.08,0.06,23.02,LANDED,X10-G,0:/Integrated Flight Computer/aircraft/x10_g_cfg.ks (inferred preloaded)
23.4,TAKEOFF,TO_GROUND_ROLL,60.67,80,19.33,3.64,-0.3,-0.19,0.08,90.51,0.13,1,0,0,0,0,0,0,0,0,0,0,0,0,0,0,90.18,0,1,0,-0.28,0,0,0.04,90,0,0,0,0,0,0,0,0,-0.22,0,0,3,0,0,0,69,0,0,0,90.18,1,-0.22,0.329,-0.0578,1,0,-0.0578,0,0,0,0,0,0,2,2,0,0,VALID,0,0,0,0,0,1,0,0,0,0,0,0,0,0,0,0,0,0,0,0,853.67,869.36,2,0,0.06,0.06,309,14.29,0.08,0.06,23.3,LANDED,X10-G,0:/Integrated Flight Computer/aircraft/x10_g_cfg.ks (inferred preloaded)
23.68,TAKEOFF,TO_GROUND_ROLL,62.13,80,17.87,3.64,-0.31,-0.19,0.08,90.51,0.131,1,0,0,0,0,0,0,0,0,0,0,0,0,0,0,90.18,0,1,0,-0.28,0,0,0.04,90,0,0,0,0,0,0,0,0,-0.229,0,0,3,0,0,0,69,0,0,0,90.18,1,-0.229,0.33,-0.0579,1,0,-0.0579,0,0,0,0,0,0,2,2,0,0,VALID,0,0,0,0,0,1,0,0,0,0,0,0,0,0,0,0,0,0,0,0,854.44,869.27,2,0,0.06,0.06,313,14.29,0.08,0.06,23.58,LANDED,X10-G,0:/Integrated Flight Computer/aircraft/x10_g_cfg.ks (inferred preloaded)
23.96,TAKEOFF,TO_GROUND_ROLL,63.59,80,16.41,3.64,-0.31,-0.19,0.08,90.5,0.13,1,0,0,0,0,0,0,0,0,0,0,0,0,0,0,90.17,0,1,0,-0.28,0,0,0.04,90,0,0,0,0,0,0,0,0,-0.237,0,0,3,0,0,0,69,0,0,0,90.17,1,-0.237,0.332,-0.0582,1,0,-0.0582,0,0,0,0,0,0,2,2,0,0,VALID,0,0,0,0,0,1,0,0,0,0,0,0,0,0,0,0,0,0,0,0,855.18,869.2,2,0,0.06,0.06,317,14.29,0.08,0.06,23.86,LANDED,X10-G,0:/Integrated Flight Computer/aircraft/x10_g_cfg.ks (inferred preloaded)
24.24,TAKEOFF,TO_GROUND_ROLL,65.05,80,14.95,3.64,-0.32,-0.19,0.08,90.49,0.131,1,0,0,0,0,0,0,0,0,0,0,0,0,0,0,90.16,0,1,0,-0.28,0,0,0.04,90,0,0,0,0,0,0,0,0,-0.245,0,0,3,0,0,0,69,0,0,0,90.16,1,-0.245,0.333,-0.0585,1,0,-0.0585,0,0,0,0,0,0,2,2,0,0,VALID,0,0,0,0,0,1,0,0,0,0,0,0,0,0,0,0,0,0,0,0,855.89,869.16,2,0,0.06,0.06,321,14.29,0.08,0.06,24.14,LANDED,X10-G,0:/Integrated Flight Computer/aircraft/x10_g_cfg.ks (inferred preloaded)
24.52,TAKEOFF,TO_GROUND_ROLL,66.51,80,13.49,3.64,-0.32,-0.19,0.08,90.49,0.131,1,0,0,0,0,0,0,0,0,0,0,0,0,0,0,90.15,0,1,0,-0.28,0,0,0.04,90,0,0,0,0,0,0,0,0,-0.254,0,0,3,0,0,0,69,0,0,0,90.15,1,-0.254,0.334,-0.0587,1,0,-0.0587,0,0,0,0,0,0,2,2,0,0,VALID,0,0,0,0,0,1,0,0,0,0,0,0,0,0,0,0,0,0,0,0,856.59,869.13,2,0,0.06,0.06,325,14.29,0.08,0.06,24.42,LANDED,X10-G,0:/Integrated Flight Computer/aircraft/x10_g_cfg.ks (inferred preloaded)
24.8,TAKEOFF,TO_GROUND_ROLL,67.97,80,12.03,3.64,-0.32,-0.19,0.08,90.48,0.132,1,0,0,0,0,0,0,0,0,0,0,0,0,0,0,90.14,0,1,0,-0.27,0,0,0.05,90,0,0,0,0,0,0,0,0,-0.263,0,0,3,0,0,0,69,0,0,0,90.14,1,-0.263,0.336,-0.0588,1,0,-0.0588,0,0,0,0,0,0,2,2,0,0,VALID,0,0,0,0,0,1,0,0,0,0,0,0,0,0,0,0,0,0,0,0,857.27,869.12,2,0,0.06,0.06,329,14.29,0.08,0.06,24.7,LANDED,X10-G,0:/Integrated Flight Computer/aircraft/x10_g_cfg.ks (inferred preloaded)
25.08,TAKEOFF,TO_GROUND_ROLL,69.44,80,10.56,3.64,-0.25,-0.16,0.03,90.47,0.133,1,0,0,0,0,0,0,0,0,0,0,0,0,0,0,90.13,0,1,0,-0.2,0,0,0.05,90,0,0,0,0,0,0,0,0,-0.271,0,0,3,0,0,0,69,0,0,0,90.13,1,-0.271,0.336,-0.0586,1,0,-0.0586,0,0,0,0,0,0,2,2,0,0,VALID,0,0,0,0,0,1,0,0,0,0,0,0,0,0,0,0,0,0,0,0,858.06,869.3,2,0,0.06,0.06,333,14.29,0.08,0.06,24.98,LANDED,X10-G,0:/Integrated Flight Computer/aircraft/x10_g_cfg.ks (inferred preloaded)
25.36,TAKEOFF,TO_GROUND_ROLL,70.9,80,9.1,3.64,-0.39,-0.18,0.12,90.46,0.132,1,0,0,0,0,0,0,0,0,0,0,0,0,0,0,90.13,0,1,0,-0.31,0,0,0.05,90,0,0,0,0,0,0,0,0,-0.28,0,0,3,0,0,0,69,0,0,0,90.13,1,-0.28,0.337,-0.059,1,0,-0.059,0,0,0,0,0,0,2,2,0,0,VALID,0,0,0,0,0,1,0,0,0,0,0,0,0,0,0,0,0,0,0,0,859.15,869.8,2,0,0.06,0.06,337,14.29,0.08,0.06,25.26,LANDED,X10-G,0:/Integrated Flight Computer/aircraft/x10_g_cfg.ks (inferred preloaded)
25.64,TAKEOFF,TO_GROUND_ROLL,72.37,80,7.63,3.64,-0.31,-0.17,0.07,90.45,0.134,1,0,0,0,0,0,0,0,0,0,0,0,0,0,0,90.12,0,1,0,-0.25,0,0,0.05,90,0,0,0,0,0,0,0,0,-0.289,0,0,3,0,0,0,69,0,0,0,90.12,1,-0.289,0.336,-0.0584,1,0,-0.0584,0,0,0,0,0,0,2,2,0,0,VALID,0,0,0,0,0,1,0,0,0,0,0,0,0,0,0,0,0,0,0,0,860.52,870.63,2,0,0.06,0.06,341,14.29,0.08,0.06,25.54,LANDED,X10-G,0:/Integrated Flight Computer/aircraft/x10_g_cfg.ks (inferred preloaded)
25.92,TAKEOFF,TO_GROUND_ROLL,73.84,80,6.16,3.63,-0.35,-0.19,0.07,90.45,0.133,1,0,0,0,0,0,0,0,0,0,0,0,0,0,0,90.11,0,1,0,-0.27,0,0,0.05,90,0,0,0,0,0,0,0,0,-0.297,0,0,3,0,0,0,69,0,0,0,90.11,1,-0.297,0.338,-0.0594,1,0,-0.0594,0,0,0,0,0,0,2,2,0,0,VALID,0,0,0,0,0,1,0,0,0,0,0,0,0,0,0,0,0,0,0,0,862.18,871.78,2,0,0.06,0.06,345,14.29,0.08,0.06,25.82,LANDED,X10-G,0:/Integrated Flight Computer/aircraft/x10_g_cfg.ks (inferred preloaded)
26.2,TAKEOFF,TO_GROUND_ROLL,75.31,80,4.69,3.64,-0.35,-0.17,0.08,90.44,0.132,1,0,0,0,0,0,0,0,0,0,0,0,0,0,0,90.1,0,1,0,-0.26,0,0,0.06,90,0,0,0,0,0,0,0,0,-0.306,0,0,3,0,0,0,69,0,0,0,90.1,1,-0.306,0.337,-0.0588,1,0,-0.0588,0,0,0,0,0,0,2,2,0,0,VALID,0,0,0,0,0,1,0,0,0,0,0,0,0,0,0,0,0,0,0,0,864.12,873.23,2,0,0.06,0.06,349,14.29,0.08,0.06,26.1,LANDED,X10-G,0:/Integrated Flight Computer/aircraft/x10_g_cfg.ks (inferred preloaded)
26.48,TAKEOFF,TO_GROUND_ROLL,76.78,80,3.22,3.64,-0.34,-0.18,0.07,90.43,0.134,1,0,0,0,0,0,0,0,0,0,0,0,0,0,0,90.09,0,1,0,-0.26,0,0,0.06,90,0,0,0,0,0,0,0,0,-0.315,0,0,3,0,0,0,69,0,0,0,90.09,1,-0.315,0.339,-0.0596,1,0,-0.0596,0,0,0,0,0,0,2,2,0,0,VALID,0,0,0,0,0,1,0,0,0,0,0,0,0,0,0,0,0,0,0,0,866.32,874.97,2,0,0.06,0.06,353,14.29,0.08,0.06,26.38,LANDED,X10-G,0:/Integrated Flight Computer/aircraft/x10_g_cfg.ks (inferred preloaded)
26.76,TAKEOFF,TO_GROUND_ROLL,78.26,80,1.74,3.64,-0.36,-0.18,0.07,90.42,0.133,1,0,0,0,0,0,0,0,0,0,0,0,0,0,0,90.08,0,1,0,-0.26,0,0,0.06,90,0,0,0,0,0,0,0,0,-0.323,0,0,3,0,0,0,69,0,0,0,90.08,1,-0.323,0.34,-0.0594,1,0,-0.0594,0,0,0,0,0,0,2,2,0,0,VALID,0,0,0,0,0,1,0,0,0,0,0,0,0,0,0,0,0,0,0,0,868.78,877.01,2,0,0.06,0.06,357,14.29,0.08,0.06,26.66,LANDED,X10-G,0:/Integrated Flight Computer/aircraft/x10_g_cfg.ks (inferred preloaded)
27.04,TAKEOFF,TO_GROUND_ROLL,79.74,80,0.26,3.64,-0.35,-0.17,0.07,90.41,0.134,1,0,0,0,0,0,0,0,0,0,0,0,0,0,0,90.07,0,1,0,-0.25,0,0,0.06,90,0,0,0,0,0,0,0,0,-0.332,0,0,3,0,0,0,69,0,0,0,90.07,1,-0.332,0.34,-0.0595,1,0,-0.0595,0,0,0,0,0,0,2,2,0,0,VALID,0,0,0,0,0,1,0,0,0,0,0,0,0,0,0,0,0,0,0,0,871.5,879.33,2,0,0.06,0.06,361,14.29,0.08,0.06,26.94,LANDED,X10-G,0:/Integrated Flight Computer/aircraft/x10_g_cfg.ks (inferred preloaded)
27.32,TAKEOFF,TO_GROUND_ROLL,81.23,80,-1.23,3.64,-0.36,-0.18,0.07,90.41,0.134,1,0,0,0,0,0,0,0,0,0,0,0,0,0,0,90.06,0,1,0,-0.25,0,0,0.07,90,0,0,0,0,0,0,0,0,-0.341,0,0,3,0,0,0,69,0,0,0,90.06,1,-0.341,0.341,-0.0597,1,0,-0.0597,0,0,0,0,0,0,2,2,0,0,VALID,0,0,0,0,0,1,0,0,0,0,0,0,0,0,0,0,0,0,0,0,874.47,881.92,2,0,0.06,0.06,365,14.29,0.08,0.06,27.22,LANDED,X10-G,0:/Integrated Flight Computer/aircraft/x10_g_cfg.ks (inferred preloaded)
27.6,TAKEOFF,TO_GROUND_ROLL,82.73,80,-2.73,3.64,-0.36,-0.17,0.07,90.4,0.134,1,0,0,0,0,0,0,0,0,0,0,0,0,0,0,90.06,0,1,0,-0.25,0,0,0.07,90,0,0,0,0,0,0,0,0,-0.35,0,0,3,0,0,0,69,0,0,0,90.06,1,-0.35,0.341,-0.0595,1,0,-0.0595,0,0,0,0,0,0,2,2,0,0,VALID,0,0,0,0,0,1,0,0,0,0,0,0,0,0,0,0,0,0,0,0,877.69,884.78,2,0,0.06,0.06,369,14.29,0.08,0.06,27.5,LANDED,X10-G,0:/Integrated Flight Computer/aircraft/x10_g_cfg.ks (inferred preloaded)
27.88,TAKEOFF,TO_GROUND_ROLL,84.22,80,-4.22,3.64,-0.36,-0.17,0.07,90.39,0.135,1,0,0,0,0,0,0,0,0,0,0,0,0,0,0,90.05,0,1,0,-0.25,0,0,0.07,90,0,0,0,0,0,0,0,0,-0.358,0,0,3,0,0,0,69,0,0,0,90.05,1,-0.358,0.341,-0.0595,1,0,-0.0595,0,0,0,0,0,0,2,2,0,0,VALID,0,0,0,0,0,1,0,0,0,0,0,0,0,0,0,0,0,0,0,0,881.14,887.9,2,0,0.06,0.06,373,14.29,0.08,0.06,27.78,LANDED,X10-G,0:/Integrated Flight Computer/aircraft/x10_g_cfg.ks (inferred preloaded)
28.16,TAKEOFF,TO_GROUND_ROLL,85.73,80,-5.73,3.64,-0.37,-0.17,0.06,90.38,0.135,1,0,0,0,0,0,0,0,0,0,0,0,0,0,0,90.04,0,1,0,-0.25,0,0,0.07,90,0,0,0,0,0,0,0,0,-0.367,0,0,3,0,0,0,69,0,0,0,90.04,1,-0.367,0.34,-0.0593,1,0,-0.0593,0,0,0,0,0,0,2,2,0,0,VALID,0,0,0,0,0,1,0,0,0,0,0,0,0,0,0,0,0,0,0,0,884.82,891.27,2,0,0.06,0.06,377,14.29,0.08,0.06,28.06,LANDED,X10-G,0:/Integrated Flight Computer/aircraft/x10_g_cfg.ks (inferred preloaded)
28.44,TAKEOFF,TO_GROUND_ROLL,87.24,80,-7.24,3.64,-0.37,-0.17,0.07,90.37,0.135,1,0,0,0,0,0,0,0,0,0,0,0,0,0,0,90.03,0,1,0,-0.24,0,0,0.07,90,0,0,0,0,0,0,0,0,-0.376,0,0,3,0,0,0,69,0,0,0,90.03,1,-0.376,0.34,-0.0592,1,0,-0.0592,0,0,0,0,0,0,2,2,0,0,VALID,0,0,0,0,0,1,0,0,0,0,0,0,0,0,0,0,0,0,0,0,888.73,894.88,2,0,0.06,0.06,381,14.29,0.08,0.06,28.34,LANDED,X10-G,0:/Integrated Flight Computer/aircraft/x10_g_cfg.ks (inferred preloaded)
28.72,TAKEOFF,TO_GROUND_ROLL,88.76,80,-8.76,3.64,-0.37,-0.17,0.06,90.36,0.135,1,0,0,0,0,0,0,0,0,0,0,0,0,0,0,90.02,0,1,0,-0.24,0,0,0.08,90,0,0,0,0,0,0,0,0,-0.384,0,0,3,0,0,0,69,0,0,0,90.02,1,-0.384,0.339,-0.059,1,0,-0.059,0,0,0,0,0,0,2,2,0,0,VALID,0,0,0,0,0,1,0,0,0,0,0,0,0,0,0,0,0,0,0,0,892.86,898.73,2,0,0.06,0.06,385,14.29,0.08,0.06,28.62,LANDED,X10-G,0:/Integrated Flight Computer/aircraft/x10_g_cfg.ks (inferred preloaded)
29,TAKEOFF,TO_GROUND_ROLL,90.28,80,-10.28,3.64,-0.37,-0.17,0.06,90.35,0.136,1,0,0,0,0,0,0,0,0,0,0,0,0,0,0,90.01,0,1,0,-0.24,0,0,0.08,90,0,0,0,0,0,0,0,0,-0.393,0,0,3,0,0,0,69,0,0,0,90.01,1,-0.393,0.338,-0.0587,1,0,-0.0587,0,0,0,0,0,0,2,2,0,0,VALID,0,0,0,0,0,1,0,0,0,0,0,0,0,0,0,0,0,0,0,0,897.2,902.8,2,0,0.06,0.06,389,14.29,0.08,0.06,28.9,LANDED,X10-G,0:/Integrated Flight Computer/aircraft/x10_g_cfg.ks (inferred preloaded)
29.28,TAKEOFF,TO_GROUND_ROLL,91.81,80,-11.81,3.64,-0.38,-0.16,0.06,90.34,0.136,1,0,0,0,0,0,0,0,0,0,0,0,0,0,0,90,0,1,0,-0.23,0,0,0.08,90,0,0,0,0,0,0,0,0,-0.401,0,0,3,0,0,0,69,0,0,0,90,1,-0.401,0.337,-0.0586,1,0,-0.0586,0,0,0,0,0,0,2,2,0,0,VALID,0,0,0,0,0,1,0,0,0,0,0,0,0,0,0,0,0,0,0,0,901.74,907.1,2,0,0.06,0.06,393,14.29,0.08,0.06,29.18,LANDED,X10-G,0:/Integrated Flight Computer/aircraft/x10_g_cfg.ks (inferred preloaded)
29.56,TAKEOFF,TO_GROUND_ROLL,93.35,80,-13.35,3.63,-0.38,-0.16,0.06,90.33,0.136,1,0,0,0,0,0,0,0,0,0,0,0,0,0,0,90,0,1,0,-0.23,0,0,0.08,90,0,0,0,0,0,0,0,0,-0.409,0,0,3,0,0,0,69,0,0,0,90,1,-0.409,0.335,-0.058,1,0,-0.058,0,0,0,0,0,0,2,2,0,0,VALID,0,0,0,0,0,1,0,0,0,0,0,0,0,0,0,0,0,0,0,0,906.49,911.61,2,0,0.06,0.06,397,14.29,0.08,0.06,29.46,LANDED,X10-G,0:/Integrated Flight Computer/aircraft/x10_g_cfg.ks (inferred preloaded)
29.84,TAKEOFF,TO_GROUND_ROLL,94.9,80,-14.9,3.63,-0.38,-0.16,0.06,90.32,0.137,1,0,0,0,0,0,0,0,0,0,0,0,0,0,0,89.99,0,1,0,-0.23,0,0,0.09,90,0,0,0,0,0,0,0,0,-0.418,0,0,3,0,0,0,69,0,0,0,89.99,1,-0.418,0.333,-0.0578,1,0,-0.0578,0,0,0,0,0,0,2,2,0,0,VALID,0,0,0,0,0,1,0,0,0,0,0,0,0,0,0,0,0,0,0,0,911.43,916.32,2,0,0.06,0.06,401,14.29,0.08,0.06,29.74,LANDED,X10-G,0:/Integrated Flight Computer/aircraft/x10_g_cfg.ks (inferred preloaded)
30.12,TAKEOFF,TO_GROUND_ROLL,96.46,80,-16.46,3.63,-0.38,-0.16,0.06,90.31,0.137,1,0,0,0,0,0,0,0,0,0,0,0,0,0,0,89.98,0,1,0,-0.23,0,0,0.09,90,0,0,0,0,0,0,0,0,-0.426,0,0,3,0,0,0,69,0,0,0,89.98,1,-0.426,0.331,-0.0575,1,0,-0.0575,0,0,0,0,0,0,2,2,0,0,VALID,0,0,0,0,0,1,0,0,0,0,0,0,0,0,0,0,0,0,0,0,916.55,921.23,2,0,0.06,0.06,405,14.29,0.08,0.06,30.02,LANDED,X10-G,0:/Integrated Flight Computer/aircraft/x10_g_cfg.ks (inferred preloaded)
30.4,TAKEOFF,TO_GROUND_ROLL,98.02,80,-18.02,3.63,-0.38,-0.16,0.06,90.3,0.137,1,0,0,0,0,0,0,0,0,0,0,0,0,0,0,89.97,0,1,0,-0.22,0,0,0.09,90,0,0,0,0,0,0,0,0,-0.434,0,0,3,0,0,0,69,0,0,0,89.97,1,-0.434,0.329,-0.057,1,0,-0.057,0,0,0,0,0,0,2,2,0,0,VALID,0,0,0,0,0,1,0,0,0,0,0,0,0,0,0,0,0,0,0,0,921.85,926.33,2,0,0.06,0.06,409,14.29,0.08,0.06,30.3,LANDED,X10-G,0:/Integrated Flight Computer/aircraft/x10_g_cfg.ks (inferred preloaded)
30.68,TAKEOFF,TO_GROUND_ROLL,99.6,80,-19.6,3.63,-0.38,-0.16,0.06,90.29,0.138,1,0,0,0,0,0,0,0,0,0,0,0,0,0,0,89.97,0,1,0,-0.22,0,0,0.1,90,0,0,0,0,0,0,0,0,-0.441,0,0,3,0,0,0,69,0,0,0,89.97,1,-0.441,0.327,-0.0565,1,0,-0.0565,0,0,0,0,0,0,2,2,0,0,VALID,0,0,0,0,0,1,0,0,0,0,0,0,0,0,0,0,0,0,0,0,927.32,931.61,2,0,0.06,0.06,413,14.29,0.08,0.06,30.58,LANDED,X10-G,0:/Integrated Flight Computer/aircraft/x10_g_cfg.ks (inferred preloaded)
30.96,TAKEOFF,TO_GROUND_ROLL,101.18,80,-21.18,3.63,-0.37,-0.15,0.06,90.28,0.139,1,0,0,0,0,0,0,0,0,0,0,0,0,0,0,89.96,0,1,0,-0.21,0,0,0.1,90,0,0,0,0,0,0,0,0,-0.449,0,0,3,0,0,0,69,0,0,0,89.96,1,-0.449,0.323,-0.0555,1,0,-0.0555,0,0,0,0,0,0,2,2,0,0,VALID,0,0,0,0,0,1,0,0,0,0,0,0,0,0,0,0,0,0,0,0,932.95,937.06,2,0,0.06,0.06,417,14.29,0.08,0.06,30.86,LANDED,X10-G,0:/Integrated Flight Computer/aircraft/x10_g_cfg.ks (inferred preloaded)
31.24,TAKEOFF,TO_GROUND_ROLL,102.78,80,-22.78,3.64,-0.39,-0.15,0.06,90.27,0.14,1,0,0,0,0,0,0,0,0,0,0,0,0,0,0,89.95,0,1,0,-0.22,0,0,0.1,90,0,0,0,0,0,0,0,0,-0.457,0,0,3,0,0,0,69,0,0,0,89.95,1,-0.457,0.32,-0.0556,1,0,-0.0556,0,0,0,0,0,0,2,2,0,0,VALID,0,0,0,0,0,1,0,0,0,0,0,0,0,0,0,0,0,0,0,0,938.73,942.67,2,0,0.06,0.06,421,14.29,0.08,0.06,31.14,LANDED,X10-G,0:/Integrated Flight Computer/aircraft/x10_g_cfg.ks (inferred preloaded)
31.52,TAKEOFF,TO_GROUND_ROLL,104.38,80,-24.38,3.63,-0.38,-0.15,0.05,90.26,0.136,1,0,0,0,0,0,0,0,0,0,0,0,0,0,0,89.94,0,1,0,-0.21,0,0,0.1,90,0,0,0,0,0,0,0,0,-0.464,0,0,3,0,0,0,69,0,0,0,89.94,1,-0.464,0.318,-0.0548,1,0,-0.0548,0,0,0,0,0,0,2,2,0,0,VALID,0,0,0,0,0,1,0,0,0,0,0,0,0,0,0,0,0,0,0,0,944.66,948.44,2,0,0.06,0.06,425,14.29,0.08,0.06,31.42,LANDED,X10-G,0:/Integrated Flight Computer/aircraft/x10_g_cfg.ks (inferred preloaded)
31.8,TAKEOFF,TO_GROUND_ROLL,105.99,80,-25.99,3.63,-0.38,-0.15,0.06,90.25,0.139,1,0,0,0,0,0,0,0,0,0,0,0,0,0,0,89.94,0,1,0,-0.21,0,0,0.11,90,0,0,0,0,0,0,0,0,-0.471,0,0,3,0,0,0,69,0,0,0,89.94,1,-0.471,0.314,-0.0544,1,0,-0.0544,0,0,0,0,0,0,2,2,0,0,VALID,0,0,0,0,0,1,0,0,0,0,0,0,0,0,0,0,0,0,0,0,950.72,954.34,2,0,0.06,0.06,429,14.29,0.08,0.06,31.7,LANDED,X10-G,0:/Integrated Flight Computer/aircraft/x10_g_cfg.ks (inferred preloaded)
32.08,TAKEOFF,TO_GROUND_ROLL,107.62,80,-27.62,3.63,-0.38,-0.15,0.04,90.24,0.139,1,0,0,0,0,0,0,0,0,0,0,0,0,0,0,89.93,0,1,0,-0.2,0,0,0.11,90,0,0,0,0,0,0,0,0,-0.478,0,0,3,0,0,0,69,0,0,0,89.93,1,-0.478,0.312,-0.0541,1,0,-0.0541,0,0,0,0,0,0,2,2,0,0,VALID,0,0,0,0,0,1,0,0,0,0,0,0,0,0,0,0,0,0,0,0,956.9,960.38,2,0,0.06,0.06,433,14.29,0.08,0.06,31.98,LANDED,X10-G,0:/Integrated Flight Computer/aircraft/x10_g_cfg.ks (inferred preloaded)
32.36,TAKEOFF,TO_GROUND_ROLL,109.26,80,-29.26,3.63,-0.39,-0.14,0.05,90.23,0.137,1,0,0,0,0,0,0,0,0,0,0,0,0,0,0,89.92,0,1,0,-0.2,0,0,0.11,90,0,0,0,0,0,0,0,0,-0.485,0,0,3,0,0,0,69,0,0,0,89.92,1,-0.485,0.308,-0.0532,1,0,-0.0532,0,0,0,0,0,0,2,2,0,0,VALID,0,0,0,0,0,1,0,0,0,0,0,0,0,0,0,0,0,0,0,0,963.21,966.55,2,0,0.06,0.06,437,14.29,0.08,0.06,32.26,LANDED,X10-G,0:/Integrated Flight Computer/aircraft/x10_g_cfg.ks (inferred preloaded)
32.64,TAKEOFF,TO_GROUND_ROLL,110.9,80,-30.9,3.63,-0.38,-0.14,0.05,90.22,0.139,1,0,0,0,0,0,0,0,0,0,0,0,0,0,0,89.91,0,1,0,-0.2,0,0,0.12,90,0,0,0,0,0,0,0,0,-0.492,0,0,3,0,0,0,69,0,0,0,89.91,1,-0.492,0.305,-0.0529,1,0,-0.0529,0,0,0,0,0,0,2,2,0,0,VALID,0,0,0,0,0,1,0,0,0,0,0,0,0,0,0,0,0,0,0,0,969.61,972.82,2,0,0.06,0.06,441,14.29,0.08,0.06,32.54,LANDED,X10-G,0:/Integrated Flight Computer/aircraft/x10_g_cfg.ks (inferred preloaded)
32.92,TAKEOFF,TO_GROUND_ROLL,112.56,80,-32.56,3.63,-0.38,-0.14,0.04,90.21,0.138,1,0,0,0,0,0,0,0,0,0,0,0,0,0,0,89.91,0,1,0,-0.2,0,0,0.12,90,0,0,0,0,0,0,0,0,-0.498,0,0,3,0,0,0,69,0,0,0,89.91,1,-0.498,0.302,-0.0523,1,0,-0.0523,0,0,0,0,0,0,2,2,0,0,VALID,0,0,0,0,0,1,0,0,0,0,0,0,0,0,0,0,0,0,0,0,976.11,979.19,2,0,0.06,0.06,445,14.29,0.08,0.06,32.82,LANDED,X10-G,0:/Integrated Flight Computer/aircraft/x10_g_cfg.ks (inferred preloaded)
33.2,TAKEOFF,TO_GROUND_ROLL,114.23,80,-34.23,3.63,-0.38,-0.14,0.05,90.2,0.138,1,0,0,0,0,0,0,0,0,0,0,0,0,0,0,89.9,0,1,0,-0.19,0,0,0.12,90,0,0,0,0,0,0,0,0,-0.505,0,0,3,0,0,0,69,0,0,0,89.9,1,-0.505,0.298,-0.0516,1,0,-0.0516,0,0,0,0,0,0,2,2,0,0,VALID,0,0,0,0,0,1,0,0,0,0,0,0,0,0,0,0,0,0,0,0,982.68,985.64,2,0,0.06,0.06,449,14.29,0.08,0.06,33.1,LANDED,X10-G,0:/Integrated Flight Computer/aircraft/x10_g_cfg.ks (inferred preloaded)
33.48,TAKEOFF,TO_GROUND_ROLL,115.91,80,-35.91,3.63,-0.38,-0.14,0.04,90.19,0.139,1,0,0,0,0,0,0,0,0,0,0,0,0,0,0,89.9,0,1,0,-0.19,0,0,0.13,90,0,0,0,0,0,0,0,0,-0.511,0,0,3,0,0,0,69,0,0,0,89.9,1,-0.511,0.295,-0.051,1,0,-0.051,0,0,0,0,0,0,2,2,0,0,VALID,0,0,0,0,0,1,0,0,0,0,0,0,0,0,0,0,0,0,0,0,989.33,992.18,2,0,0.06,0.06,453,14.29,0.08,0.06,33.38,LANDED,X10-G,0:/Integrated Flight Computer/aircraft/x10_g_cfg.ks (inferred preloaded)
33.76,TAKEOFF,TO_GROUND_ROLL,117.61,80,-37.61,3.63,-0.38,-0.14,0.04,90.18,0.138,1,0,0,0,0,0,0,0,0,0,0,0,0,0,0,89.89,0,1,0,-0.19,0,0,0.13,90,0,0,0,0,0,0,0,0,-0.517,0,0,3,0,0,0,69,0,0,0,89.89,1,-0.517,0.291,-0.0503,1,0,-0.0503,0,0,0,0,0,0,2,2,0,0,VALID,0,0,0,0,0,1,0,0,0,0,0,0,0,0,0,0,0,0,0,0,996.03,998.77,2,0,0.06,0.06,457,14.29,0.08,0.06,33.66,LANDED,X10-G,0:/Integrated Flight Computer/aircraft/x10_g_cfg.ks (inferred preloaded)
34.04,TAKEOFF,TO_GROUND_ROLL,119.31,80,-39.31,3.63,-0.38,-0.14,0.04,90.17,0.139,1,0,0,0,0,0,0,0,0,0,0,0,0,0,0,89.88,0,1,0,-0.18,0,0,0.13,90,0,0,0,0,0,0,0,0,-0.522,0,0,3,0,0,0,69,0,0,0,89.88,1,-0.522,0.287,-0.0497,1,0,-0.0497,0,0,0,0,0,0,2,2,0,0,VALID,0,0,0,0,0,1,0,0,0,0,0,0,0,0,0,0,0,0,0,0,1002.78,1005.4,2,0,0.06,0.06,461,14.29,0.08,0.06,33.94,LANDED,X10-G,0:/Integrated Flight Computer/aircraft/x10_g_cfg.ks (inferred preloaded)
34.32,TAKEOFF,TO_GROUND_ROLL,121.03,80,-41.03,3.63,-0.38,-0.13,0.04,90.16,0.138,1,0,0,0,0,0,0,0,0,0,0,0,0,0,0,89.88,0,1,0,-0.18,0,0,0.14,90,0,0,0,0,0,0,0,0,-0.528,0,0,3,0,0,0,69,0,0,0,89.88,1,-0.528,0.284,-0.0491,1,0,-0.0491,0,0,0,0,0,0,2,2,0,0,VALID,0,0,0,0,0,1,0,0,0,0,0,0,0,0,0,0,0,0,0,0,1009.55,1012.08,2,0,0.06,0.06,465,14.29,0.08,0.06,34.22,LANDED,X10-G,0:/Integrated Flight Computer/aircraft/x10_g_cfg.ks (inferred preloaded)
34.6,TAKEOFF,TO_GROUND_ROLL,122.76,80,-42.76,3.63,-0.37,-0.13,0.04,90.15,0.138,1,0,0,0,0,0,0,0,0,0,0,0,0,0,0,89.87,0,1,0,-0.17,0,0,0.14,90,0,0,0,0,0,0,0,0,-0.533,0,0,3,0,0,0,69,0,0,0,89.87,1,-0.533,0.279,-0.0481,1,0,-0.0481,0,0,0,0,0,0,2,2,0,0,VALID,0,0,0,0,0,1,0,0,0,0,0,0,0,0,0,0,0,0,0,0,1016.34,1018.76,2,0,0.06,0.06,469,14.29,0.08,0.06,34.5,LANDED,X10-G,0:/Integrated Flight Computer/aircraft/x10_g_cfg.ks (inferred preloaded)
34.88,TAKEOFF,TO_GROUND_ROLL,124.5,80,-44.5,3.63,-0.37,-0.13,0.03,90.14,0.139,1,0,0,0,0,0,0,0,0,0,0,0,0,0,0,89.87,0,1,0,-0.17,0,0,0.14,90,0,0,0,0,0,0,0,0,-0.538,0,0,3,0,0,0,69,0,0,0,89.87,1,-0.538,0.275,-0.0475,1,0,-0.0475,0,0,0,0,0,0,2,2,0,0,VALID,0,0,0,0,0,1,0,0,0,0,0,0,0,0,0,0,0,0,0,0,1023.12,1025.45,2,0,0.06,0.06,473,14.29,0.08,0.06,34.78,LANDED,X10-G,0:/Integrated Flight Computer/aircraft/x10_g_cfg.ks (inferred preloaded)
35.16,TAKEOFF,TO_GROUND_ROLL,126.26,80,-46.26,3.64,-0.29,-0.1,0.02,90.13,0.14,1,0,0,0,0,0,0,0,0,0,0,0,0,0,0,89.86,0,1,0,-0.13,0,0,0.15,90,0,0,0,0,0,0,0,0,-0.543,0,0,3,0,0,0,69,0,0,0,89.86,1,-0.543,0.268,-0.0458,1,0,-0.0458,0,0,0,0,0,0,2,2,0,0,VALID,0,0,0,0,0,1,0,0,0,0,0,0,0,0,0,0,0,0,0,0,1029.88,1032.12,2,0,0.06,0.06,477,14.29,0.08,0.06,35.06,LANDED,X10-G,0:/Integrated Flight Computer/aircraft/x10_g_cfg.ks (inferred preloaded)
35.44,TAKEOFF,TO_GROUND_ROLL,128.02,80,-48.02,3.62,-0.4,-0.16,0.02,90.12,0.137,1,0,0,0,0,0,0,0,0,0,0,0,0,0,0,89.86,0,1,0,-0.18,0,0,0.15,90,0,0,0,0,0,0,0,0,-0.547,0,0,3,0,0,0,69,0,0,0,89.86,1,-0.547,0.268,-0.0468,1,0,-0.0468,0,0,0,0,0,0,2,2,0,0,VALID,0,0,0,0,0,1,0,0,0,0,0,0,0,0,0,0,0,0,0,0,1036.62,1038.77,2,0,0.06,0.06,481,14.29,0.08,0.06,35.34,LANDED,X10-G,0:/Integrated Flight Computer/aircraft/x10_g_cfg.ks (inferred preloaded)
35.72,TAKEOFF,TO_GROUND_ROLL,129.8,80,-49.8,3.64,-0.35,-0.09,0.06,90.11,0.14,1,0,0,0,0,0,0,0,0,0,0,0,0,0,0,89.86,0,1,0,-0.16,0,0,0.15,90,0,0,0,0,0,0,0,0,-0.552,0,0,3,0,0,0,69,0,0,0,89.86,1,-0.552,0.256,-0.0434,1,0,-0.0434,0,0,0,0,0,0,2,2,0,0,VALID,0,0,0,0,0,1,0,0,0,0,0,0,0,0,0,0,0,0,0,0,1043.3,1045.37,2,0,0.06,0.06,485,14.29,0.08,0.06,35.62,LANDED,X10-G,0:/Integrated Flight Computer/aircraft/x10_g_cfg.ks (inferred preloaded)
36.02,TAKEOFF,TO_ROTATE,131.72,80,-51.72,3.63,-0.36,-0.13,0.02,90.11,0.138,1,0,0,0,0,0,0,0,0,0,0,0,0,0,0,89.84,0.613,1,0,-0.16,0,0,0.16,90,0,0,0,0,0,0,0,0,-0.556,0,0,3,0,0,0,69,0,0,0,89.84,1,-0.556,0.263,-0.0473,1,0,-0.0473,0,0.1773,0.613,0.748,0.08,0,2,2,0,0,VALID,0,0,0,0,0,1,0,0,0,0,0,0,0,0,0,0,0,0,0,0,1050.55,1052.55,2,0,0.06,0.06,489,13.33,0.08,0.06,35.9,LANDED,X10-G,0:/Integrated Flight Computer/aircraft/x10_g_cfg.ks (inferred preloaded)
36.32,TAKEOFF,TO_ROTATE,133.65,80,-53.65,3.65,-0.37,-0.05,0.1,90.11,0.124,1,0,0,0,0,0,0,0,0,0,0,0,0,0,0,89.84,1.693,1,0,-0.16,0,0,0.16,90,0,0,0,0,0,0,0,0,-0.56,0,0,3,0,0,0,69,0,0,0,89.84,1,-0.56,0.264,-0.0472,1,0,-0.0472,0,0.3068,1.693,1.745,0.08,0,2,2,0,0,VALID,0,0,0,0,0,1,0,0,0,0,0,0,0,0,0,0,0,0,0,0,1057.94,1059.87,2,0,0.06,0.06,493,13.33,0.1,0.06,36.2,LANDED,X10-G,0:/Integrated Flight Computer/aircraft/x10_g_cfg.ks (inferred preloaded)
36.6,TAKEOFF,TO_ROTATE,135.46,80,-55.46,3.68,-0.34,0.04,0.18,90.11,0.13,1,0,0,0,0,0,0,0,0,0,0,0,0,0,0,89.83,2.701,1,0,-0.14,0,0,0.16,90,0,0,0,0,0,0,0,0,-0.564,0,0,3,0,0,0,69,0,0,0,89.83,1,-0.564,0.278,-0.0515,1,0,-0.0515,0,0.4257,2.701,2.659,0.08,0,2,2,0,0,VALID,0,0,0,0,0,1,0,0,0,0,0,0,0,0,0,0,0,0,0,0,1064.95,1066.82,2,0,0.06,0.06,497,14.29,0.08,0.06,36.48,LANDED,X10-G,0:/Integrated Flight Computer/aircraft/x10_g_cfg.ks (inferred preloaded)
36.88,TAKEOFF,TO_ROTATE,137.29,80,-57.29,3.74,-0.23,0.22,0.33,90.12,0.123,1,0,0,0,0,0,0,0,0,0,0,0,0,0,0,89.82,3.709,1,0,-0.11,0,0,0.17,90,0,0,0,0,0,0,0,0,-0.568,0,0,3,0,0,0,69,0,0,0,89.82,1,-0.568,0.295,-0.0558,1,0,-0.0558,0,0.5336,3.709,3.489,0.08,0,2,2,0,0,VALID,0,0,0,0,0,1,0,0,0,0,0,0,0,0,0,0,0,0,0,0,1072.08,1073.89,2,0,0.06,0.06,501,14.29,0.08,0.06,36.76,LANDED,X10-G,0:/Integrated Flight Computer/aircraft/x10_g_cfg.ks (inferred preloaded)
37.16,TAKEOFF,TO_ROTATE,139.12,80,-59.12,3.89,-0.42,0.64,0.8,90.13,0.111,1,0,0,0,0,0,0,0,0,0,0,0,0,0,0,89.82,4.717,1,0,-0.16,0,0,0.17,90,0,0,0,0,0,0,0,0,-0.573,0,0,3,0,0,0,69,0,0,0,89.82,1,-0.573,0.315,-0.0597,1,0,-0.0597,0,0.6097,4.717,4.074,0.08,0,2,2,0,0,VALID,0,0,0,0,0,1,0,0,0,0,0,0,0,0,0,0,0,0,0,0,1079.31,1081.06,2,0,0.06,0.06,505,14.29,0.08,0.06,37.04,LANDED,X10-G,0:/Integrated Flight Computer/aircraft/x10_g_cfg.ks (inferred preloaded)
37.44,TAKEOFF,TO_ROTATE,140.95,80,-60.95,4.08,-0.25,1.27,1.38,90.15,0.122,1,0,0,0,0,0,0,0,0,0,0,0,0,0,0,89.81,5.725,1,0,-0.11,0,0,0.17,90,0,0,0,0,0,0,0,0,-0.578,0,0,3,0,0,0,69,0,0,0,89.81,1,-0.578,0.334,-0.0631,1,0,-0.0631,0,0.6589,5.725,4.453,0.08,0,2,2,0,0,VALID,0,0,0,0,0,1,0,0,0,0,0,0,0,0,0,0,0,0,0,0,1086.63,1088.34,2,0,0.06,0.06,509,14.29,0.08,0.06,37.32,LANDED,X10-G,0:/Integrated Flight Computer/aircraft/x10_g_cfg.ks (inferred preloaded)
37.72,TAKEOFF,TO_ROTATE,142.79,80,-62.79,4.28,-0.37,1.93,2.07,90.16,0.094,1,0,0,0,0,0,0,0,0,0,0,0,0,0,0,89.81,6.733,1,0,-0.14,0,0,0.18,90,0,0,0,0,0,0,0,0,-0.583,0,0,3,0,0,0,69,0,0,0,89.81,1,-0.583,0.351,-0.0654,1,0,-0.0654,0,0.7049,6.733,4.807,0.08,0,2,2,0,0,VALID,0,0,0,0,0,1,0,0,0,0,0,0,0,0,0,0,0,0,0,0,1094.06,1095.71,2,0,0.06,0.06,513,14.29,0.08,0.06,37.6,LANDED,X10-G,0:/Integrated Flight Computer/aircraft/x10_g_cfg.ks (inferred preloaded)
38,TAKEOFF,TO_ROTATE,144.64,80,-64.64,4.42,-0.28,2.42,2.53,90.16,0.115,1,0,0,0,0,0,0,0,0,0,0,0,0,0,0,89.81,7.741,1,0,-0.11,0,0,0.18,90,0,0,0,0,0,0,0,0,-0.589,0,0,3,0,0,0,69,0,0,0,89.81,1,-0.589,0.349,-0.0621,1,0,-0.0621,0,0.72,7.741,5.324,0.08,0,2,2,0,0,VALID,0,0,0,0,0,1,0,0,0,0,0,0,0,0,0,0,0,0,0,0,1101.58,1103.18,2,0,0.06,0.06,517,14.29,0.08,0.06,37.88,LANDED,X10-G,0:/Integrated Flight Computer/aircraft/x10_g_cfg.ks (inferred preloaded)
38.28,TAKEOFF,TO_ROTATE,146.49,80,-66.49,4.48,-0.34,2.62,2.75,90.15,0.118,1,0,0,0,0,0,0,0,0,0,0,0,0,0,0,89.81,8.749,1,0,-0.13,0,0,0.19,90,0,0,0,0,0,0,0,0,-0.595,0,0,3,0,0,0,69,0,0,0,89.81,1,-0.595,0.343,-0.0593,1,0,-0.0593,0,0.72,8.749,6.131,0.08,0,2,2,0,0,VALID,0,0,0,0,0,1,0,0,0,0,0,0,0,0,0,0,0,0,0,0,1109.19,1110.76,2,0,0.06,0.06,521,14.29,0.08,0.06,38.16,LANDED,X10-G,0:/Integrated Flight Computer/aircraft/x10_g_cfg.ks (inferred preloaded)
38.56,TAKEOFF,TO_ROTATE,148.35,80,-68.35,4.43,-0.29,2.49,2.6,90.14,0.118,1,0,0,0,0,0,0,0,0,0,0,0,0,0,0,89.81,9.757,1,0,-0.11,0,0,0.19,90,0,0,0,0,0,0,0,0,-0.601,0,0,3,0,0,0,69,0,0,0,89.81,1,-0.601,0.324,-0.054,1,0,-0.054,0,0.72,9.757,7.267,0.08,0,2,2,0,0,VALID,0,0,0,0,0,1,0,0,0,0,0,0,0,0,0,0,0,0,0,0,1116.93,1118.45,2,0,0.06,0.06,525,14.29,0.08,0.06,38.44,LANDED,X10-G,0:/Integrated Flight Computer/aircraft/x10_g_cfg.ks (inferred preloaded)
38.84,TAKEOFF,TO_ROTATE,150.23,80,-70.23,4.33,-0.34,2.14,2.27,90.12,0.11,1,0,0,0,0,0,0,0,0,0,0,0,0,0,0,89.8,10.765,1,0,-0.12,0,0,0.19,90,0,0,0,0,0,0,0,0,-0.606,0,0,3,0,0,0,69,0,0,0,89.8,1,-0.606,0.316,-0.0538,1,0,-0.0538,0,0.72,10.765,8.622,0.08,0,2,2,0,0,VALID,0,0,0,0,0,1,0,0,0,0,0,0,0,0,0,0,0,0,0,0,1124.8,1126.29,2,0,0.06,0.06,529,14.29,0.08,0.06,38.72,LANDED,X10-G,0:/Integrated Flight Computer/aircraft/x10_g_cfg.ks (inferred preloaded)
39.12,TAKEOFF,TO_ROTATE,152.13,80,-72.13,4.2,-0.28,1.77,1.87,90.11,0.109,1,0,0,0,0,0,0,0,0,0,0,0,0,0,0,89.8,11.5,1,0,-0.11,0,0,0.2,90,0,0,0,0,0,0,0,0,-0.61,0,0,3,0,0,0,69,0,0,0,89.8,1,-0.61,0.312,-0.0544,1,0,-0.0544,0,0.72,11.5,9.734,0.08,0,2,2,0,0,VALID,0,0,0,0,0,1,0,0,0,0,0,0,0,0,0,0,0,0,0,0,1132.81,1134.27,2,0,0.06,0.06,533,14.29,0.08,0.06,39,LANDED,X10-G,0:/Integrated Flight Computer/aircraft/x10_g_cfg.ks (inferred preloaded)
39.4,TAKEOFF,TO_ROTATE,154.04,80,-74.04,4.14,-0.31,1.54,1.65,90.11,0.101,1,0,0,0,0,0,0,0,0,0,0,0,0,0,0,89.79,11.5,1,0,-0.11,0,0,0.2,90,0,0,0,0,0,0,0,0,-0.614,0,0,3,0,0,0,69,0,0,0,89.79,1,-0.614,0.32,-0.0578,1,0,-0.0578,0,0.72,11.5,9.957,0.08,0,2,2,0,0,VALID,0,0,0,0,0,1,0,0,0,0,0,0,0,0,0,0,0,0,0,0,1140.97,1142.39,2,0,0.06,0.06,537,14.29,0.08,0.06,39.28,LANDED,X10-G,0:/Integrated Flight Computer/aircraft/x10_g_cfg.ks (inferred preloaded)
39.68,TAKEOFF,TO_ROTATE,155.97,80,-75.97,4.15,-0.26,1.56,1.66,90.11,0.105,1,0,0,0,0,0,0,0,0,0,0,0,0,0,0,89.78,11.5,1,0,-0.1,0,0,0.21,90,0,0,0,0,0,0,0,0,-0.619,0,0,3,0,0,0,69,0,0,0,89.78,1,-0.619,0.329,-0.0599,1,0,-0.0599,0,0.72,11.5,9.937,0.08,0,2,2,0,0,VALID,0,0,0,0,0,1,0,0,0,0,0,0,0,0,0,0,0,0,0,0,1149.27,1150.66,2,0,0.06,0.06,541,14.29,0.08,0.06,39.56,LANDED,X10-G,0:/Integrated Flight Computer/aircraft/x10_g_cfg.ks (inferred preloaded)
39.96,TAKEOFF,TO_ROTATE,157.91,80,-77.91,4.23,-0.27,1.81,1.9,90.11,0.104,1,0,0,0,0,0,0,0,0,0,0,0,0,0,0,89.77,11.5,1,0,-0.1,0,0,0.21,90,0,0,0,0,0,0,0,0,-0.623,0,0,3,0,0,0,69,0,0,0,89.77,1,-0.623,0.336,-0.0612,1,0,-0.0612,0,0.72,11.5,9.691,0.08,0,2,2,0,0,VALID,0,0,0,0,0,1,0,0,0,0,0,0,0,0,0,0,0,0,0,0,1157.71,1159.07,2,0,0.06,0.06,545,14.29,0.08,0.06,39.84,LANDED,X10-G,0:/Integrated Flight Computer/aircraft/x10_g_cfg.ks (inferred preloaded)
40.24,TAKEOFF,TO_ROTATE,159.86,80,-79.86,4.34,-0.24,2.17,2.25,90.11,0.109,1,0,0,0,0,0,0,0,0,0,0,0,0,0,0,89.77,11.5,1,0,-0.09,0,0,0.22,90,0,0,0,0,0,0,0,0,-0.628,0,0,3,0,0,0,69,0,0,0,89.77,1,-0.628,0.339,-0.0609,1,0,-0.0609,0,0.72,11.5,9.33,0.08,0,2,2,0,0,VALID,0,0,0,0,0,1,0,0,0,0,0,0,0,0,0,0,0,0,0,0,1166.27,1167.61,2,0,0.06,0.06,549,14.29,0.08,0.06,40.12,LANDED,X10-G,0:/Integrated Flight Computer/aircraft/x10_g_cfg.ks (inferred preloaded)
40.52,TAKEOFF,TO_ROTATE,161.83,80,-81.83,4.44,-0.25,2.49,2.58,90.11,0.115,1,0,0,0,0,0,0,0,0,0,0,0,0,0,0,89.77,11.5,1,0,-0.09,0,0,0.22,90,0,0,0,0,0,0,0,0,-0.632,0,0,3,0,0,0,69,0,0,0,89.77,1,-0.632,0.334,-0.0584,1,0,-0.0584,0,0.72,11.5,9.009,0.08,0,2,2,0,0,VALID,0,0,0,0,0,1,0,0,0,0,0,0,0,0,0,0,0,0,0,0,1174.97,1176.28,2,0,0.06,0.06,553,14.29,0.08,0.06,40.4,LANDED,X10-G,0:/Integrated Flight Computer/aircraft/x10_g_cfg.ks (inferred preloaded)
