t_s,phase,subphase,ias_ms,vapp_ms,spd_err_ms,agl_m,vs_ms,pitch_deg,aoa_deg,hdg_deg,bank_deg,thr_cmd,thr_cur,thr_intg,at_gain,at_tau_s,at_a_up,at_a_dn,at_kp_thr,at_ki_spd,at_thr_slew,aa_hdg_cmd_deg,aa_fpa_cmd_deg,ils_loc_m,ils_gs_m,ils_dist_km,loc_corr_deg,gs_corr_deg,flare_fpa_cmd,flare_tgt_vs,flare_frac,steer_hdg_deg,steer_blend,ro_loc_corr_deg,ro_hdg_err_deg,ro_yaw_tgt,ro_yaw_scale,ro_yaw_gate,yaw_cmd,roll_cmd,pitch_cmd,ro_pitch_tgt_deg,ro_pitch_err_deg,ro_pitch_ff,ro_roll_assist,flaps_cur,flaps_tgt,phase_el_s,status
1.08,APPROACH,FLY_TO_FIX,80.42,76.4,-4.02,724.23,-2.03,6.2,7.67,268.08,10.617,0,0,0,1,0.6,0.9,0.75,0.35,0.0168,0.4,0.56,3.877,0,0,0,0,0,0,0,0,269.41,0,0,0,0,0,0,0,0,0,0,0,0,0,1,1,1.14,FLYING
1.9,APPROACH,FLY_TO_FIX,80.85,76.8,-4.05,722.44,-2.16,5.46,6.93,267.67,7.307,0,0,0,1,0.6,0.9,0.75,0.35,0.0168,0.4,0.87,3.886,0,0,0,0,0,0,0,0,269.41,0,0,0,0,0,0,0,0,0,0,0,0,0,1,1,1.94,FLYING
2.68,APPROACH,FLY_TO_FIX,80.94,77.2,-3.74,720.76,-2.21,5.67,7.11,268.06,0.107,0,0,0,1,0.6,1.178,0.75,0.35,0.0168,0.4,1.17,3.895,0,0,0,0,0,0,0,0,269.41,0,0,0,0,0,0,0,0,0,0,0,0,0,1,1,2.72,FLYING
3.78,APPROACH,FLY_TO_FIX,80.64,77.6,-3.04,718.27,-2.3,5.38,7.05,270.16,-12.17,0,0,0,1,0.6,1.509,0.75,0.35,0.0168,0.4,1.55,3.906,0,0,0,0,0,0,0,0,269.41,0,0,0,0,0,0,0,0,0,0,0,0,0,1,1,3.85,FLYING
5.11,APPROACH,FLY_TO_FIX,79.37,78,-1.37,715.7,-1.63,8.27,10.29,276.33,-25.248,0.0056,0,-0.79,1,0.6,1.816,0.75,0.35,0.0168,0.4,2.06,3.919,0,0,0,0,0,0,0,0,269.41,0,0,0,0,0,0,0,0,0,0,0,0,0,1,1,5.22,FLYING
6.41,APPROACH,FLY_TO_FIX,77.17,78.4,1.23,714.09,-0.96,9.56,11.95,283.03,-32.178,0.2056,0,-0.32,1,0.6,2.099,0.75,0.35,0.0168,0.4,2.55,3.928,0,0,0,0,0,0,0,0,269.41,0,0,0,0,0,0,0,0,0,0,0,0,0,1,1,6.51,FLYING
7.77,APPROACH,FLY_TO_FIX,74.65,78.8,4.15,712.43,-1.52,9.62,12.78,289.71,-33.459,0.4056,0,1.625,1,0.6,2.361,0.75,0.35,0.0168,0.4,3.04,3.936,0,0,0,0,0,0,0,0,269.41,0,0,0,0,0,0,0,0,0,0,0,0,0,1,1,7.84,FLYING
9.1,APPROACH,FLY_TO_FIX,72.31,79.2,6.89,710.29,-1.91,9.87,13,294.91,-30.154,0.6056,0,1.616,1,0.6,2.604,0.75,0.35,0.0168,0.4,3.5,3.947,0,0,0,0,0,0,0,0,269.41,0,0,0,0,0,0,0,0,0,0,0,0,0,1,1,9.17,FLYING
10.43,APPROACH,FLY_TO_FIX,70.19,79.6,9.41,707.99,-1.78,10.88,13.65,299.65,-26.168,0.8056,0,1.608,1,0.6,2.83,0.75,0.35,0.0168,0.4,3.94,3.958,0,0,0,0,0,0,0,0,269.41,0,0,0,0,0,0,0,0,0,0,0,0,0,1,1,10.5,FLYING
11.76,APPROACH,FLY_TO_FIX,68.48,80,11.52,705.81,-1.64,11.53,13.88,303.48,-22.608,1,0,1.6,1,0.6,3.038,0.75,0.35,0.0168,0.4,4.35,3.969,0,0,0,0,0,0,0,0,269.41,0,0,0,0,0,0,0,0,0,0,0,0,0,1,1,11.83,FLYING
13.09,APPROACH,FLY_TO_FIX,67.29,80,12.71,703.8,-1.49,11.98,14.02,306.95,-20.348,1,0,1.592,1,0.6,3.231,0.75,0.35,0.0168,0.4,4.75,3.979,0,0,0,0,0,0,0,0,269.41,0,0,0,0,0,0,0,0,0,0,0,0,0,1,1,13.16,FLYING
14.42,APPROACH,FLY_TO_FIX,66.63,80,13.37,701.95,-1.35,12.22,14.08,310.44,-19.232,1,0,1.584,1,0.6,3.409,0.75,0.35,0.0168,0.4,5.13,3.989,0,0,0,0,0,0,0,0,269.41,0,0,0,0,0,0,0,0,0,0,0,0,0,1,1,14.49,FLYING
15.75,APPROACH,FLY_TO_FIX,66.42,80,13.58,700.3,-1.15,12.38,14.04,313.9,-18.677,1,0,1.576,1,0.6,3.573,0.75,0.35,0.0168,0.4,5.49,3.997,0,0,0,0,0,0,0,0,269.41,0,0,0,0,0,0,0,0,0,0,0,0,0,1,1,15.82,FLYING
17.08,APPROACH,FLY_TO_FIX,66.61,80,13.39,698.98,-0.85,12.5,13.92,317.46,-18.801,1,0,1.569,1,0.6,3.724,0.75,0.35,0.0168,0.4,5.85,4.004,0,0,0,0,0,0,0,0,269.41,0,0,0,0,0,0,0,0,0,0,0,0,0,1,1,17.15,FLYING
18.41,APPROACH,FLY_TO_FIX,67.11,80,12.89,698.13,-0.44,12.59,13.74,321.27,-19.676,1,0,1.561,1,0.6,3.862,0.75,0.35,0.0168,0.4,6.19,4.009,0,0,0,0,0,0,0,0,269.41,0,0,0,0,0,0,0,0,0,0,0,0,0,1,1,18.48,FLYING
19.74,APPROACH,FLY_TO_FIX,67.87,80,12.13,697.91,0.09,12.69,13.53,325.45,-21.211,1,0,1.553,1,0.6,3.989,0.75,0.35,0.0168,0.4,6.52,4.011,0,0,0,0,0,0,0,0,269.41,0,0,0,0,0,0,0,0,0,0,0,0,0,1,1,19.81,FLYING
21.07,APPROACH,FLY_TO_FIX,68.83,80,11.17,698.49,0.74,12.79,13.3,330.07,-23.246,0.9556,0,7.193,1,0.6,4.105,0.75,0.35,0.0168,0.4,6.84,4.008,0,0,0,0,0,0,0,0,269.41,0,0,0,0,0,0,0,0,0,0,0,0,0,1,1,21.14,FLYING
22.4,APPROACH,FLY_TO_FIX,69.9,80,10.1,699.98,1.47,12.93,13.1,335.19,-25.613,0.8086,0,12.3,1,0.6,4.212,0.75,0.35,0.0168,0.4,7.14,4.002,0,0,0,0,0,0,0,0,269.41,0,0,0,0,0,0,0,0,0,0,0,0,0,1,1,22.47,FLYING
23.73,APPROACH,FLY_TO_FIX,71.03,80,8.97,702.34,2.13,12.2,11.95,340.12,-26.842,0.6733,0,16.849,1,0.6,4.308,0.75,0.35,0.0168,0.4,7.41,3.991,0,0,0,0,0,0,0,0,269.41,0,0,0,0,0,0,0,0,0,0,0,0,0,1,1,23.8,FLYING
25.06,APPROACH,FLY_TO_FIX,72.45,80,7.55,705.24,2.42,11.76,10.95,343.65,-23.913,0.4844,0,20,1,0.6,4.396,0.75,0.35,0.0168,0.4,7.66,3.977,0,0,0,0,0,0,0,0,269.41,0,0,0,0,0,0,0,0,0,0,0,0,0,1,1,25.13,FLYING
26.39,APPROACH,FLY_TO_FIX,73.9,80,6.1,708.57,2.71,11.36,10.14,346.96,-21.64,0.2844,0,20,1,0.6,4.476,0.75,0.35,0.0168,0.4,7.89,3.96,0,0,0,0,0,0,0,0,269.41,0,0,0,0,0,0,0,0,0,0,0,0,0,1,1,26.46,FLYING
27.72,APPROACH,FLY_TO_FIX,75.01,80,4.99,712.31,2.95,11.18,9.67,350.12,-19.678,0.1135,0,20,1,0.6,4.5,0.75,0.35,0.0168,0.4,8.09,3.942,0,0,0,0,0,0,0,0,269.41,0,0,0,0,0,0,0,0,0,0,0,0,0,1,1,27.79,FLYING
29.05,APPROACH,FLY_TO_FIX,75.39,80,4.61,716.39,3.13,11.28,9.53,352.94,-17.956,0.1306,0,20,1,0.6,4.5,0.75,0.35,0.0168,0.4,8.27,3.922,0,0,0,0,0,0,0,0,269.41,0,0,0,0,0,0,0,0,0,0,0,0,0,1,1,29.12,FLYING
30.38,APPROACH,FLY_TO_FIX,74.97,80,5.03,720.7,3.27,11.65,9.68,355.38,-15.653,0.3098,0,20,1,0.6,4.5,0.75,0.35,0.0168,0.4,8.43,3.901,0,0,0,0,0,0,0,0,269.41,0,0,0,0,0,0,0,0,0,0,0,0,0,1,1,30.45,FLYING
31.71,APPROACH,FLY_TO_FIX,74.15,80,5.85,725.16,3.37,11.98,9.82,357.5,-13.447,0.5098,0,20,1,0.6,4.5,0.75,0.35,0.0168,0.4,8.57,3.878,0,0,0,0,0,0,0,0,269.41,0,0,0,0,0,0,0,0,0,0,0,0,0,1,1,31.78,FLYING
33.04,APPROACH,FLY_TO_FIX,73.38,80,6.62,729.74,3.45,12.28,9.98,359.37,-11.753,0.7098,0,20,1,0.6,4.5,0.75,0.35,0.0168,0.4,8.68,3.856,0,0,0,0,0,0,0,0,269.41,0,0,0,0,0,0,0,0,0,0,0,0,0,1,1,33.11,FLYING
34.37,APPROACH,FLY_TO_FIX,72.78,80,7.22,734.43,3.55,12.5,10.06,0.94,-10.059,0.8939,0,20,1,0.6,4.5,0.75,0.35,0.0168,0.4,8.78,3.832,0,0,0,0,0,0,0,0,269.41,0,0,0,0,0,0,0,0,0,0,0,0,0,1,1,34.44,FLYING
35.7,APPROACH,FLY_TO_FIX,72.45,80,7.55,739.25,3.68,12.61,10.03,2.24,-8.548,0.9578,0,20,1,0.6,4.5,0.75,0.35,0.0168,0.4,8.86,3.808,0,0,0,0,0,0,0,0,269.41,0,0,0,0,0,0,0,0,0,0,0,0,0,1,1,35.77,FLYING
37.03,APPROACH,FLY_TO_FIX,72.49,80,7.51,744.24,3.83,12.57,9.85,3.32,-7.246,0.9404,0,20,1,0.6,4.5,0.75,0.35,0.0168,0.4,8.93,3.783,0,0,0,0,0,0,0,0,269.41,0,0,0,0,0,0,0,0,0,0,0,0,0,1,1,37.1,FLYING
38.36,APPROACH,FLY_TO_FIX,72.87,80,7.13,749.43,4.02,12.42,9.56,4.23,-6.153,0.8511,0,20,1,0.6,4.5,0.75,0.35,0.0168,0.4,8.99,3.758,0,0,0,0,0,0,0,0,269.41,0,0,0,0,0,0,0,0,0,0,0,0,0,1,1,38.43,FLYING
39.73,APPROACH,FLY_TO_FIX,73.59,80,6.41,755.02,4.22,12.17,9.19,5.01,-5.221,0.7046,0,20,1,0.6,4.5,0.75,0.35,0.0168,0.4,9.04,3.73,0,0,0,0,0,0,0,0,269.41,0,0,0,0,0,0,0,0,0,0,0,0,0,1,1,39.8,FLYING
41.09,APPROACH,FLY_TO_FIX,74.52,80,5.48,760.88,4.43,11.89,8.79,5.67,-4.456,0.5299,0,20,1,0.6,4.5,0.75,0.35,0.0168,0.4,9.09,3.701,0,0,0,0,0,0,0,0,269.41,0,0,0,0,0,0,0,0,0,0,0,0,0,1,1,41.16,FLYING
42.42,APPROACH,FLY_TO_FIX,75.51,80,4.49,766.85,4.62,11.62,8.41,6.21,-3.832,0.3611,0,20,1,0.6,4.5,0.75,0.35,0.0168,0.4,9.13,3.671,0,0,0,0,0,0,0,0,269.41,0,0,0,0,0,0,0,0,0,0,0,0,0,1,1,42.49,FLYING
43.75,APPROACH,FLY_TO_FIX,76.37,80,3.63,773.09,4.78,11.47,8.18,6.69,-3.303,0.2327,0,20,1,0.6,4.5,0.75,0.35,0.0168,0.4,9.16,3.64,0,0,0,0,0,0,0,0,269.41,0,0,0,0,0,0,0,0,0,0,0,0,0,1,1,43.82,FLYING
45.08,APPROACH,FLY_TO_FIX,76.77,80,3.23,779.52,4.87,11.49,8.14,7.1,-2.82,0.209,0,20,1,0.6,4.5,0.75,0.35,0.0168,0.4,9.19,3.608,0,0,0,0,0,0,0,0,269.41,0,0,0,0,0,0,0,0,0,0,0,0,0,1,1,45.15,FLYING
46.41,APPROACH,FLY_TO_FIX,76.61,80,3.39,786.05,4.9,11.67,8.28,7.45,-2.388,0.302,0,20,1,0.6,4.5,0.75,0.35,0.0168,0.4,9.22,3.576,0,0,0,0,0,0,0,0,269.41,0,0,0,0,0,0,0,0,0,0,0,0,0,1,1,46.48,FLYING
47.74,APPROACH,FLY_TO_FIX,76.09,80,3.91,792.6,4.9,11.89,8.48,7.75,-2.022,0.4611,0,20,1,0.6,4.5,0.75,0.35,0.0168,0.4,9.24,3.543,0,0,0,0,0,0,0,0,269.41,0,0,0,0,0,0,0,0,0,0,0,0,0,1,1,47.81,FLYING
49.07,APPROACH,FLY_TO_FIX,75.5,80,4.5,799.14,4.89,12.09,8.67,8,-1.713,0.6147,0,20,1,0.6,4.5,0.75,0.35,0.0168,0.4,9.25,3.51,0,0,0,0,0,0,0,0,269.41,0,0,0,0,0,0,0,0,0,0,0,0,0,1,1,49.14,FLYING
50.4,APPROACH,FLY_TO_FIX,75,80,5,805.66,4.88,12.23,8.79,8.21,-1.445,0.728,0,20,1,0.6,4.5,0.75,0.35,0.0168,0.4,9.27,3.478,0,0,0,0,0,0,0,0,269.41,0,0,0,0,0,0,0,0,0,0,0,0,0,1,1,50.47,FLYING
51.73,APPROACH,FLY_TO_FIX,74.7,80,5.3,812.16,4.89,12.29,8.84,8.39,-1.215,0.7884,0,20,1,0.6,4.5,0.75,0.35,0.0168,0.4,9.28,3.445,0,0,0,0,0,0,0,0,269.41,0,0,0,0,0,0,0,0,0,0,0,0,0,1,1,51.8,FLYING
53.06,APPROACH,FLY_TO_FIX,74.62,80,5.38,818.67,4.91,12.26,8.79,8.53,-1.021,0.7924,0,20,1,0.6,4.5,0.75,0.35,0.0168,0.4,9.29,3.413,0,0,0,0,0,0,0,0,269.41,0,0,0,0,0,0,0,0,0,0,0,0,0,1,1,53.13,FLYING
54.39,APPROACH,FLY_TO_FIX,74.8,80,5.2,825.21,4.95,12.14,8.66,8.65,-0.86,0.7442,0,20,1,0.6,4.5,0.75,0.35,0.0168,0.4,9.3,3.38,0,0,0,0,0,0,0,0,269.41,0,0,0,0,0,0,0,0,0,0,0,0,0,1,1,54.46,FLYING
55.76,APPROACH,FLY_TO_FIX,75.22,80,4.78,831.98,5,11.96,8.46,8.76,-0.724,0.6523,0,20,1,0.6,4.5,0.75,0.35,0.0168,0.4,9.31,3.346,0,0,0,0,0,0,0,0,269.41,0,0,0,0,0,0,0,0,0,0,0,0,0,1,1,55.83,FLYING
57.16,APPROACH,FLY_TO_FIX,75.82,80,4.18,838.98,5.06,11.72,8.22,8.84,-0.611,0.5303,0,20,1,0.6,4.5,0.75,0.35,0.0168,0.4,9.32,3.311,0,0,0,0,0,0,0,0,269.41,0,0,0,0,0,0,0,0,0,0,0,0,0,2,2,57.23,FLYING
58.56,APPROACH,FLY_TO_FIX,76.56,80,3.44,846.07,5.12,11.48,7.96,8.91,-0.51,0.4003,0,20,1,0.6,4.5,0.75,0.35,0.0168,0.4,9.32,3.276,0,0,0,0,0,0,0,0,269.41,0,0,0,0,0,0,0,0,0,0,0,0,0,2,2,58.63,FLYING
59.89,APPROACH,FLY_TO_FIX,77.19,80,2.81,852.88,5.16,11.32,7.8,8.97,-0.419,0.3008,0,20,1,0.6,4.5,0.75,0.35,0.0168,0.4,9.33,3.242,0,0,0,0,0,0,0,0,269.41,0,0,0,0,0,0,0,0,0,0,0,0,0,2,2,59.96,FLYING
61.22,APPROACH,FLY_TO_FIX,77.54,80,2.46,859.74,5.16,11.27,7.77,9.01,-0.343,0.2669,0,20,1,0.6,4.5,0.75,0.35,0.0168,0.4,9.33,3.208,0,0,0,0,0,0,0,0,269.41,0,0,0,0,0,0,0,0,0,0,0,0,0,2,2,61.29,FLYING
62.55,APPROACH,FLY_TO_FIX,77.5,80,2.5,866.59,5.12,11.33,7.85,9.05,-0.284,0.3144,0,20,1,0.6,4.5,0.75,0.35,0.0168,0.4,9.34,3.173,0,0,0,0,0,0,0,0,269.41,0,0,0,0,0,0,0,0,0,0,0,0,0,2,2,62.62,FLYING
63.91,APPROACH,FLY_TO_FIX,77.17,80,2.83,873.56,5.06,11.45,7.99,9.08,-0.238,0.4188,0,20,1,0.6,4.5,0.75,0.35,0.0168,0.4,9.34,3.138,0,0,0,0,0,0,0,0,269.41,0,0,0,0,0,0,0,0,0,0,0,0,0,2,2,63.98,FLYING
65.28,APPROACH,FLY_TO_FIX,76.75,80,3.25,880.45,5,11.56,8.13,9.11,-0.203,0.53,0,20,1,0.6,4.5,0.75,0.35,0.0168,0.4,9.35,3.104,0,0,0,0,0,0,0,0,269.41,0,0,0,0,0,0,0,0,0,0,0,0,0,2,2,65.35,FLYING
66.64,APPROACH,FLY_TO_FIX,76.39,80,3.61,887.25,4.95,11.63,8.23,9.13,-0.176,0.6143,0,20,1,0.6,4.5,0.75,0.35,0.0168,0.4,9.35,3.07,0,0,0,0,0,0,0,0,269.41,0,0,0,0,0,0,0,0,0,0,0,0,0,2,2,66.71,FLYING
67.97,APPROACH,FLY_TO_FIX,76.15,80,3.85,893.81,4.91,11.66,8.27,9.15,-0.155,0.6607,0,20,1,0.6,4.5,0.75,0.35,0.0168,0.4,9.35,3.037,0,0,0,0,0,0,0,0,269.41,0,0,0,0,0,0,0,0,0,0,0,0,0,2,2,68.04,FLYING
69.3,APPROACH,FLY_TO_FIX,76.08,80,3.92,900.31,4.89,11.63,8.26,9.16,-0.133,0.6685,0,20,1,0.6,4.5,0.75,0.35,0.0168,0.4,9.36,3.004,0,0,0,0,0,0,0,0,269.41,0,0,0,0,0,0,0,0,0,0,0,0,0,2,2,69.37,FLYING
70.63,APPROACH,FLY_TO_FIX,76.18,80,3.82,906.79,4.88,11.54,8.19,9.17,-0.114,0.6401,0,20,1,0.6,4.5,0.75,0.35,0.0168,0.4,9.36,2.972,0,0,0,0,0,0,0,0,269.41,0,0,0,0,0,0,0,0,0,0,0,0,0,2,2,70.7,FLYING
71.96,APPROACH,FLY_TO_FIX,76.43,80,3.57,913.25,4.88,11.41,8.07,9.18,-0.095,0.5827,0,20,1,0.6,4.5,0.75,0.35,0.0168,0.4,9.36,2.94,0,0,0,0,0,0,0,0,269.41,0,0,0,0,0,0,0,0,0,0,0,0,0,2,2,72.03,FLYING
73.29,APPROACH,FLY_TO_FIX,76.81,80,3.19,919.71,4.88,11.25,7.92,9.19,-0.083,0.5065,0,20,1,0.6,4.5,0.75,0.35,0.0168,0.4,9.36,2.907,0,0,0,0,0,0,0,0,269.41,0,0,0,0,0,0,0,0,0,0,0,0,0,2,2,73.36,FLYING
74.62,APPROACH,FLY_TO_FIX,77.27,80,2.73,926.18,4.89,11.08,7.77,9.2,-0.08,0.4234,0,20,1,0.6,4.5,0.75,0.35,0.0168,0.4,9.37,2.875,0,0,0,0,0,0,0,0,269.41,0,0,0,0,0,0,0,0,0,0,0,0,0,2,2,74.69,FLYING
75.95,APPROACH,FLY_TO_FIX,77.71,80,2.29,932.66,4.89,10.93,7.64,9.2,-0.081,0.3494,0,20,1,0.6,4.5,0.75,0.35,0.0168,0.4,9.37,2.843,0,0,0,0,0,0,0,0,269.41,0,0,0,0,0,0,0,0,0,0,0,0,0,2,2,76.02,FLYING
77.28,APPROACH,FLY_TO_FIX,78.02,80,1.98,939.13,4.86,10.85,7.59,9.21,-0.081,0.3102,0,20,1,0.6,4.5,0.75,0.35,0.0168,0.4,9.37,2.81,0,0,0,0,0,0,0,0,269.41,0,0,0,0,0,0,0,0,0,0,0,0,0,2,2,77.35,FLYING
78.61,APPROACH,FLY_TO_FIX,78.08,80,1.92,945.56,4.81,10.85,7.62,9.22,-0.077,0.3245,0,20,1,0.6,4.5,0.75,0.35,0.0168,0.4,9.37,2.778,0,0,0,0,0,0,0,0,269.41,0,0,0,0,0,0,0,0,0,0,0,0,0,2,2,78.68,FLYING
79.94,APPROACH,FLY_TO_FIX,77.93,80,2.07,951.92,4.75,10.89,7.7,9.23,-0.07,0.383,0,20,1,0.6,4.5,0.75,0.35,0.0168,0.4,9.38,2.746,0,0,0,0,0,0,0,0,269.41,0,0,0,0,0,0,0,0,0,0,0,0,0,2,2,80.01,FLYING
81.27,APPROACH,FLY_TO_FIX,77.67,80,2.33,958.19,4.68,10.94,7.79,9.23,-0.067,0.4554,0,20,1,0.6,4.5,0.75,0.35,0.0168,0.4,9.38,2.715,0,0,0,0,0,0,0,0,269.41,0,0,0,0,0,0,0,0,0,0,0,0,0,2,2,81.34,FLYING
82.6,APPROACH,FLY_TO_FIX,77.44,80,2.56,964.38,4.62,10.98,7.85,9.24,-0.062,0.5139,0,20,1,0.6,4.5,0.75,0.35,0.0168,0.4,9.38,2.684,0,0,0,0,0,0,0,0,269.41,0,0,0,0,0,0,0,0,0,0,0,0,0,2,2,82.67,FLYING
83.93,APPROACH,FLY_TO_FIX,77.27,80,2.73,970.48,4.56,10.98,7.89,9.24,-0.058,0.5512,0,20,1,0.6,4.5,0.75,0.35,0.0168,0.4,9.38,2.653,0,0,0,0,0,0,0,0,269.41,0,0,0,0,0,0,0,0,0,0,0,0,0,2,2,84,FLYING
85.26,APPROACH,FLY_TO_FIX,77.19,80,2.81,976.51,4.52,10.96,7.9,9.25,-0.055,0.5644,0,20,1,0.6,4.5,0.75,0.35,0.0168,0.4,9.38,2.623,0,0,0,0,0,0,0,0,269.41,0,0,0,0,0,0,0,0,0,0,0,0,0,2,2,85.33,FLYING
86.59,APPROACH,FLY_TO_FIX,77.22,80,2.78,982.49,4.49,10.9,7.87,9.25,-0.055,0.554,0,20,1,0.6,4.5,0.75,0.35,0.0168,0.4,9.39,2.593,0,0,0,0,0,0,0,0,269.41,0,0,0,0,0,0,0,0,0,0,0,0,0,2,2,86.66,FLYING
87.92,APPROACH,FLY_TO_FIX,77.35,80,2.65,988.42,4.46,10.81,7.81,9.25,-0.054,0.5235,0,20,1,0.6,4.5,0.75,0.35,0.0168,0.4,9.39,2.563,0,0,0,0,0,0,0,0,269.41,0,0,0,0,0,0,0,0,0,0,0,0,0,2,2,87.99,FLYING
89.25,APPROACH,FLY_TO_FIX,77.57,80,2.43,994.32,4.44,10.71,7.72,9.26,-0.053,0.4788,0,20,1,0.6,4.5,0.75,0.35,0.0168,0.4,9.39,2.534,0,0,0,0,0,0,0,0,269.41,0,0,0,0,0,0,0,0,0,0,0,0,0,2,2,89.32,FLYING
90.58,APPROACH,FLY_TO_FIX,77.85,80,2.15,1000.19,4.42,10.59,7.63,9.26,-0.052,0.4271,0,20,1,0.6,4.5,0.75,0.35,0.0168,0.4,9.39,2.504,0,0,0,0,0,0,0,0,269.41,0,0,0,0,0,0,0,0,0,0,0,0,0,2,2,90.65,FLYING
91.91,APPROACH,FLY_TO_FIX,78.15,80,1.85,1006.03,4.4,10.47,7.54,9.27,-0.054,0.3768,0,20,1,0.6,4.5,0.75,0.35,0.0168,0.4,9.4,2.475,0,0,0,0,0,0,0,0,269.41,0,0,0,0,0,0,0,0,0,0,0,0,0,2,2,91.98,FLYING
93.24,APPROACH,FLY_TO_FIX,78.39,80,1.61,1011.84,4.37,10.39,7.49,9.27,-0.054,0.3416,0,20,1,0.6,4.5,0.75,0.35,0.0168,0.4,9.4,2.446,0,0,0,0,0,0,0,0,269.41,0,0,0,0,0,0,0,0,0,0,0,0,0,2,2,93.31,FLYING
94.57,APPROACH,FLY_TO_FIX,78.5,80,1.5,1017.61,4.32,10.36,7.49,9.28,-0.054,0.3383,0,20,1,0.6,4.5,0.75,0.35,0.0168,0.4,9.4,2.417,0,0,0,0,0,0,0,0,269.41,0,0,0,0,0,0,0,0,0,0,0,0,0,2,2,94.64,FLYING
95.9,APPROACH,FLY_TO_FIX,78.44,80,1.56,1023.33,4.27,10.37,7.53,9.28,-0.049,0.3673,0,20,1,0.6,4.5,0.75,0.35,0.0168,0.4,9.4,2.389,0,0,0,0,0,0,0,0,269.41,0,0,0,0,0,0,0,0,0,0,0,0,0,2,2,95.97,FLYING
97.23,APPROACH,FLY_TO_FIX,78.29,80,1.71,1028.96,4.21,10.39,7.59,9.28,-0.043,0.4125,0,20,1,0.6,4.5,0.75,0.35,0.0168,0.4,9.4,2.36,0,0,0,0,0,0,0,0,269.41,0,0,0,0,0,0,0,0,0,0,0,0,0,2,2,97.3,FLYING
98.56,APPROACH,FLY_TO_FIX,78.14,80,1.86,1034.52,4.15,10.4,7.63,9.28,-0.038,0.4539,0,20,1,0.6,4.5,0.75,0.35,0.0168,0.4,9.41,2.332,0,0,0,0,0,0,0,0,269.41,0,0,0,0,0,0,0,0,0,0,0,0,0,2,2,98.63,FLYING
99.89,APPROACH,FLY_TO_FIX,78.02,80,1.98,1040.01,4.1,10.4,7.67,9.29,-0.038,0.483,0,20,1,0.6,4.5,0.75,0.35,0.0168,0.4,9.41,2.305,0,0,0,0,0,0,0,0,269.41,0,0,0,0,0,0,0,0,0,0,0,0,0,2,2,99.96,FLYING
101.26,APPROACH,FLY_TO_FIX,77.95,80,2.05,1045.57,4.06,10.38,7.68,9.29,-0.036,0.4972,0,20,1,0.6,4.5,0.75,0.35,0.0168,0.4,9.41,2.277,0,0,0,0,0,0,0,0,269.41,0,0,0,0,0,0,0,0,0,0,0,0,0,2,2,101.33,FLYING
102.59,APPROACH,FLY_TO_FIX,77.95,80,2.05,1050.93,4.02,10.35,7.66,9.29,-0.036,0.4952,0,20,1,0.6,4.5,0.75,0.35,0.0168,0.4,9.41,2.25,0,0,0,0,0,0,0,0,269.41,0,0,0,0,0,0,0,0,0,0,0,0,0,2,2,102.66,FLYING
103.95,APPROACH,FLY_TO_FIX,78.02,80,1.98,1056.38,3.99,10.29,7.63,9.29,-0.038,0.4789,0,20,1,0.6,4.5,0.75,0.35,0.0168,0.4,9.42,2.223,0,0,0,0,0,0,0,0,269.41,0,0,0,0,0,0,0,0,0,0,0,0,0,2,2,104.02,FLYING
105.32,APPROACH,FLY_TO_FIX,78.15,80,1.85,1061.78,3.96,10.21,7.58,9.29,-0.039,0.4515,0,20,1,0.6,4.5,0.75,0.35,0.0168,0.4,9.42,2.196,0,0,0,0,0,0,0,0,269.41,0,0,0,0,0,0,0,0,0,0,0,0,0,2,2,105.39,FLYING
106.65,APPROACH,FLY_TO_FIX,78.32,80,1.68,1067.01,3.93,10.13,7.52,9.3,-0.039,0.4189,0,20,1,0.6,4.5,0.75,0.35,0.0168,0.4,9.42,2.17,0,0,0,0,0,0,0,0,269.41,0,0,0,0,0,0,0,0,0,0,0,0,0,2,2,106.72,FLYING
107.98,APPROACH,FLY_TO_FIX,78.52,80,1.48,1072.2,3.9,10.04,7.46,9.3,-0.041,0.3852,0,20,1,0.6,4.5,0.75,0.35,0.0168,0.4,9.42,2.144,0,0,0,0,0,0,0,0,269.41,0,0,0,0,0,0,0,0,0,0,0,0,0,2,2,108.05,FLYING
109.31,APPROACH,FLY_TO_FIX,78.69,80,1.31,1077.36,3.87,9.97,7.42,9.3,-0.043,0.3582,0,20,1,0.6,4.5,0.75,0.35,0.0168,0.4,9.43,2.118,0,0,0,0,0,0,0,0,269.41,0,0,0,0,0,0,0,0,0,0,0,0,0,2,2,109.38,FLYING
110.64,APPROACH,FLY_TO_FIX,78.79,80,1.21,1082.48,3.83,9.94,7.41,9.3,-0.041,0.35,0,20,1,0.6,4.5,0.75,0.35,0.0168,0.4,9.43,2.092,0,0,0,0,0,0,0,0,269.41,0,0,0,0,0,0,0,0,0,0,0,0,0,2,2,110.71,FLYING
111.97,APPROACH,FLY_TO_FIX,78.78,80,1.22,1087.54,3.79,9.93,7.43,9.31,-0.04,0.3639,0,20,1,0.6,4.5,0.75,0.35,0.0168,0.4,9.43,2.067,0,0,0,0,0,0,0,0,269.41,0,0,0,0,0,0,0,0,0,0,0,0,0,2,2,112.04,FLYING
113.3,APPROACH,FLY_TO_FIX,78.7,80,1.3,1092.54,3.74,9.93,7.47,9.31,-0.04,0.3917,0,20,1,0.6,4.5,0.75,0.35,0.0168,0.4,9.44,2.042,0,0,0,0,0,0,0,0,269.41,0,0,0,0,0,0,0,0,0,0,0,0,0,2,2,113.37,FLYING
114.63,APPROACH,FLY_TO_FIX,78.59,80,1.41,1097.48,3.69,9.94,7.5,9.31,-0.036,0.4204,0,20,1,0.6,4.5,0.75,0.35,0.0168,0.4,9.44,2.017,0,0,0,0,0,0,0,0,269.41,0,0,0,0,0,0,0,0,0,0,0,0,0,2,2,114.7,FLYING
115.96,APPROACH,FLY_TO_FIX,78.51,80,1.49,1102.35,3.65,9.93,7.52,9.31,-0.037,0.4417,0,20,1,0.6,4.5,0.75,0.35,0.0168,0.4,9.44,1.993,0,0,0,0,0,0,0,0,269.41,0,0,0,0,0,0,0,0,0,0,0,0,0,2,2,116.03,FLYING
117.29,APPROACH,FLY_TO_FIX,78.46,80,1.54,1107.17,3.61,9.92,7.53,9.32,-0.038,0.4532,0,20,1,0.6,4.5,0.75,0.35,0.0168,0.4,9.45,1.969,0,0,0,0,0,0,0,0,269.41,0,0,0,0,0,0,0,0,0,0,0,0,0,2,2,117.36,FLYING
118.62,APPROACH,FLY_TO_FIX,78.45,80,1.55,1111.93,3.57,9.89,7.53,9.32,-0.037,0.4545,0,20,1,0.6,4.5,0.75,0.35,0.0168,0.4,9.45,1.945,0,0,0,0,0,0,0,0,269.41,0,0,0,0,0,0,0,0,0,0,0,0,0,2,2,118.69,FLYING
119.95,APPROACH,FLY_TO_FIX,78.48,80,1.52,1116.65,3.54,9.84,7.51,9.32,-0.038,0.4463,0,20,1,0.6,4.5,0.75,0.35,0.0168,0.4,9.45,1.921,0,0,0,0,0,0,0,0,269.41,0,0,0,0,0,0,0,0,0,0,0,0,0,2,2,120.02,FLYING
121.28,APPROACH,FLY_TO_FIX,78.56,80,1.44,1121.32,3.51,9.79,7.48,9.32,-0.04,0.4305,0,20,1,0.6,4.5,0.75,0.35,0.0168,0.4,9.46,1.898,0,0,0,0,0,0,0,0,269.41,0,0,0,0,0,0,0,0,0,0,0,0,0,2,2,121.35,FLYING
122.61,APPROACH,FLY_TO_FIX,78.66,80,1.34,1125.95,3.48,9.73,7.45,9.33,-0.041,0.41,0,20,1,0.6,4.5,0.75,0.35,0.0168,0.4,9.46,1.875,0,0,0,0,0,0,0,0,269.41,0,0,0,0,0,0,0,0,0,0,0,0,0,2,2,122.68,FLYING
123.94,APPROACH,FLY_TO_FIX,78.79,80,1.21,1130.54,3.45,9.67,7.41,9.33,-0.039,0.3876,0,20,1,0.6,4.5,0.75,0.35,0.0168,0.4,9.46,1.852,0,0,0,0,0,0,0,0,269.41,0,0,0,0,0,0,0,0,0,0,0,0,0,2,2,124.01,FLYING
125.27,APPROACH,FLY_TO_FIX,78.91,80,1.09,1135.1,3.42,9.61,7.37,9.33,-0.041,0.3681,0,20,1,0.6,4.5,0.75,0.35,0.0168,0.4,9.47,1.829,0,0,0,0,0,0,0,0,269.41,0,0,0,0,0,0,0,0,0,0,0,0,0,2,2,125.34,FLYING
126.6,APPROACH,FLY_TO_FIX,79,80,1,1139.61,3.38,9.58,7.36,9.34,-0.043,0.3586,0,20,1,0.6,4.5,0.75,0.35,0.0168,0.4,9.47,1.806,0,0,0,0,0,0,0,0,269.41,0,0,0,0,0,0,0,0,0,0,0,0,0,2,2,126.67,FLYING
127.93,APPROACH,FLY_TO_FIX,79.01,80,0.99,1144.08,3.35,9.56,7.37,9.34,-0.045,0.3633,0,20,1,0.6,4.5,0.75,0.35,0.0168,0.4,9.48,1.784,0,0,0,0,0,0,0,0,269.41,0,0,0,0,0,0,0,0,0,0,0,0,0,2,2,128,FLYING
129.26,APPROACH,FLY_TO_FIX,78.97,80,1.03,1148.5,3.31,9.55,7.39,9.34,-0.044,0.3789,0,20,1,0.6,4.5,0.75,0.35,0.0168,0.4,9.48,1.762,0,0,0,0,0,0,0,0,269.41,0,0,0,0,0,0,0,0,0,0,0,0,0,2,2,129.33,FLYING
130.59,APPROACH,FLY_TO_FIX,78.91,80,1.09,1152.87,3.26,9.55,7.41,9.35,-0.043,0.3974,0,20,1,0.6,4.5,0.75,0.35,0.0168,0.4,9.49,1.74,0,0,0,0,0,0,0,0,269.41,0,0,0,0,0,0,0,0,0,0,0,0,0,2,2,130.66,FLYING
131.92,APPROACH,FLY_TO_FIX,78.86,80,1.14,1157.18,3.23,9.54,7.42,9.35,-0.042,0.4118,0,20,1,0.6,4.5,0.75,0.35,0.0168,0.4,9.49,1.718,0,0,0,0,0,0,0,0,269.41,0,0,0,0,0,0,0,0,0,0,0,0,0,2,2,131.99,FLYING
133.25,APPROACH,FLY_TO_FIX,78.82,80,1.18,1161.44,3.19,9.52,7.43,9.35,-0.043,0.4203,0,20,1,0.6,4.5,0.75,0.35,0.0168,0.4,9.5,1.697,0,0,0,0,0,0,0,0,269.41,0,0,0,0,0,0,0,0,0,0,0,0,0,2,2,133.32,FLYING
134.58,APPROACH,FLY_TO_FIX,78.81,80,1.19,1165.66,3.16,9.5,7.43,9.36,-0.043,0.4225,0,20,1,0.6,4.5,0.75,0.35,0.0168,0.4,9.5,1.676,0,0,0,0,0,0,0,0,269.41,0,0,0,0,0,0,0,0,0,0,0,0,0,2,2,134.65,FLYING
135.91,APPROACH,FLY_TO_FIX,78.83,80,1.17,1169.83,3.13,9.47,7.42,9.36,-0.046,0.4186,0,20,1,0.6,4.5,0.75,0.35,0.0168,0.4,9.51,1.655,0,0,0,0,0,0,0,0,269.41,0,0,0,0,0,0,0,0,0,0,0,0,0,2,2,135.98,FLYING
137.24,APPROACH,FLY_TO_FIX,78.88,80,1.12,1173.96,3.1,9.43,7.4,9.37,-0.046,0.4097,0,20,1,0.6,4.5,0.75,0.35,0.0168,0.4,9.51,1.634,0,0,0,0,0,0,0,0,269.41,0,0,0,0,0,0,0,0,0,0,0,0,0,2,2,137.31,FLYING
138.57,APPROACH,FLY_TO_FIX,78.94,80,1.06,1178.04,3.07,9.39,7.38,9.37,-0.048,0.3974,0,20,1,0.6,4.5,0.75,0.35,0.0168,0.4,9.52,1.614,0,0,0,0,0,0,0,0,269.41,0,0,0,0,0,0,0,0,0,0,0,0,0,2,2,138.64,FLYING
139.9,APPROACH,FLY_TO_FIX,79.02,80,0.98,1182.09,3.04,9.34,7.36,9.37,-0.05,0.3836,0,20,1,0.6,4.5,0.75,0.35,0.0168,0.4,9.53,1.593,0,0,0,0,0,0,0,0,269.41,0,0,0,0,0,0,0,0,0,0,0,0,0,2,2,139.97,FLYING
141.26,APPROACH,FLY_TO_FIX,79.1,80,0.9,1186.21,3.01,9.3,7.33,9.38,-0.053,0.3704,0,20,1,0.6,4.5,0.75,0.35,0.0168,0.4,9.53,1.573,0,0,0,0,0,0,0,0,269.41,0,0,0,0,0,0,0,0,0,0,0,0,0,2,2,141.33,FLYING
142.59,APPROACH,FLY_TO_FIX,79.16,80,0.84,1190.19,2.98,9.26,7.32,9.39,-0.052,0.3632,0,20,1,0.6,4.5,0.75,0.35,0.0168,0.4,9.54,1.553,0,0,0,0,0,0,0,0,269.41,0,0,0,0,0,0,0,0,0,0,0,0,0,2,2,142.66,FLYING
143.92,APPROACH,FLY_TO_FIX,79.18,80,0.82,1194.12,2.94,9.25,7.33,9.39,-0.055,0.3646,0,20,1,0.6,4.5,0.75,0.35,0.0168,0.4,9.55,1.533,0,0,0,0,0,0,0,0,269.41,0,0,0,0,0,0,0,0,0,0,0,0,0,2,2,143.99,FLYING
145.25,APPROACH,FLY_TO_FIX,79.16,80,0.84,1198.01,2.91,9.23,7.34,9.4,-0.058,0.3735,0,20,1,0.6,4.5,0.75,0.35,0.0168,0.4,9.56,1.514,0,0,0,0,0,0,0,0,269.41,0,0,0,0,0,0,0,0,0,0,0,0,0,2,2,145.32,FLYING
146.58,APPROACH,FLY_TO_FIX,79.13,80,0.87,1201.85,2.88,9.22,7.35,9.4,-0.058,0.3848,0,20,1,0.6,4.5,0.75,0.35,0.0168,0.4,9.57,1.494,0,0,0,0,0,0,0,0,269.41,0,0,0,0,0,0,0,0,0,0,0,0,0,2,2,146.65,FLYING
147.86,APPROACH,FLY_TO_FIX,79.1,80,0.9,1205.5,2.84,9.21,7.36,9.41,-0.062,0.3936,0,20,1,0.6,4.5,0.75,0.35,0.0168,0.4,9.58,1.476,0,0,0,0,0,0,0,0,269.41,0,0,0,0,0,0,0,0,0,0,0,0,0,2,2,147.92,FLYING
148.9,APPROACH,FLY_TO_FIX,79.08,80,0.92,1208.45,2.82,9.2,7.36,9.42,-0.067,0.3984,0,20,1,0.6,4.5,0.75,0.35,0.0168,0.4,9.59,1.46,0,0,0,0,0,0,0,0,269.41,0,0,0,0,0,0,0,0,0,0,0,0,0,2,2,148.95,FLYING
149.85,APPROACH,FLY_TO_FIX,79.08,80,0.92,1211.11,2.79,9.18,7.36,9.42,-0.073,0.4003,0,20,1,0.6,4.5,0.75,0.35,0.0168,0.4,9.6,1.447,0,0,0,0,0,0,0,0,269.41,0,0,0,0,0,0,0,0,0,0,0,0,0,2,2,149.9,FLYING
150.8,APPROACH,FLY_TO_FIX,79.08,80,0.92,1213.75,2.77,9.16,7.36,9.43,-0.076,0.4,0,20,1,0.6,4.5,0.75,0.35,0.0168,0.4,9.61,1.434,0,0,0,0,0,0,0,0,269.41,0,0,0,0,0,0,0,0,0,0,0,0,0,2,2,150.85,FLYING
151.75,APPROACH,FLY_TO_FIX,79.09,80,0.91,1216.37,2.75,9.15,7.36,9.43,-0.078,0.398,0,20,1,0.6,4.5,0.75,0.35,0.0168,0.4,9.62,1.421,0,0,0,0,0,0,0,0,269.41,0,0,0,0,0,0,0,0,0,0,0,0,0,2,2,151.8,FLYING
152.7,APPROACH,FLY_TO_FIX,79.11,80,0.89,1218.96,2.73,9.12,7.35,9.44,-0.081,0.3944,0,20,1,0.6,4.5,0.75,0.35,0.0168,0.4,9.63,1.408,0,0,0,0,0,0,0,0,269.41,0,0,0,0,0,0,0,0,0,0,0,0,0,2,2,152.75,FLYING
153.68,APPROACH,FLY_TO_FIX,79.14,80,0.86,1221.61,2.69,9.14,7.38,9.45,-0.045,0.3897,0,20,1,0.6,4.5,0.75,0.35,0.0168,0.4,275.22,-1.826,0,0,0,0,0,0,0,0,269.41,0,0,0,0,0,0,0,0,0,0,0,0,0,2,2,153.73,FLYING
154.63,APPROACH,FLY_TO_FIX,79.1,80,0.9,1224.19,2.72,9.11,7.37,8.77,4.948,0.3965,0,20,1,0.6,4.5,0.75,0.35,0.0168,0.4,274.89,-1.839,0,0,0,0,0,0,0,0,269.41,0,0,0,0,0,0,0,0,0,0,0,0,0,2,2,154.68,FLYING
155.58,APPROACH,FLY_TO_FIX,79.06,80,0.94,1226.6,2.5,8.42,7.02,6.7,15.092,0.4067,0,20,1,0.6,4.5,0.75,0.35,0.0168,0.4,274.57,-1.851,0,0,0,0,0,0,0,0,269.41,0,0,0,0,0,0,0,0,0,0,0,0,0,2,2,155.63,FLYING
156.53,APPROACH,FLY_TO_FIX,78.96,80,1.04,1229.04,2.32,10.61,10.01,2.01,26.321,0.4181,0,20,1,0.6,4.5,0.75,0.35,0.0168,0.4,274.25,-1.863,0,0,0,0,0,0,0,0,269.41,0,0,0,0,0,0,0,0,0,0,0,0,0,2,2,156.58,FLYING
157.48,APPROACH,FLY_TO_FIX,78.51,80,1.49,1231.45,2.48,10.71,10.53,357.38,31.794,0.5073,0,20,1,0.6,4.5,0.75,0.35,0.0168,0.4,273.93,-1.875,0,0,0,0,0,0,0,0,269.41,0,0,0,0,0,0,0,0,0,0,0,0,0,2,2,157.53,FLYING
158.43,APPROACH,FLY_TO_FIX,77.91,80,2.09,1233.94,2.58,10.03,10.27,352.59,36.582,0.6196,0,20,1,0.6,4.5,0.75,0.35,0.0168,0.4,273.61,-1.887,0,0,0,0,0,0,0,0,269.41,0,0,0,0,0,0,0,0,0,0,0,0,0,2,2,158.48,FLYING
159.4,APPROACH,FLY_TO_FIX,77.28,80,2.72,1236.34,2.28,10.02,11.31,346.24,41.639,0.722,0,20,1,0.6,4.5,0.75,0.35,0.0168,0.4,273.29,-1.9,0,0,0,0,0,0,0,0,269.41,0,0,0,0,0,0,0,0,0,0,0,0,0,2,2,159.45,FLYING
160.35,APPROACH,FLY_TO_FIX,76.72,80,3.28,1238.19,1.69,10.02,12.15,340.12,42.936,0.8008,0,20,1,0.6,4.5,0.75,0.35,0.0168,0.4,272.98,-1.909,0,0,0,0,0,0,0,0,269.41,0,0,0,0,0,0,0,0,0,0,0,0,0,2,2,160.4,FLYING
161.3,APPROACH,FLY_TO_FIX,76.26,80,3.74,1239.44,1.08,9.6,12.23,334.54,43.484,0.8538,0,20,1,0.6,4.5,0.75,0.35,0.0168,0.4,272.68,-1.916,0,0,0,0,0,0,0,0,269.41,0,0,0,0,0,0,0,0,0,0,0,0,0,2,2,161.35,FLYING
162.25,APPROACH,FLY_TO_FIX,75.99,80,4.01,1240.05,0.39,9.13,12.25,329.01,43.666,0.8627,0,20,1,0.6,4.5,0.75,0.35,0.0168,0.4,272.39,-1.92,0,0,0,0,0,0,0,0,269.41,0,0,0,0,0,0,0,0,0,0,0,0,0,2,2,162.3,FLYING
163.2,APPROACH,FLY_TO_FIX,75.92,80,4.08,1240,-0.31,8.67,12.26,323.49,43.685,0.8317,0,20,1,0.6,4.5,0.75,0.35,0.0168,0.4,272.11,-1.92,0,0,0,0,0,0,0,0,269.41,0,0,0,0,0,0,0,0,0,0,0,0,0,2,2,163.25,FLYING
164.15,APPROACH,FLY_TO_FIX,76.04,80,3.96,1239.28,-1,8.09,12.07,318.13,43.378,0.7692,0,20,1,0.6,4.5,0.75,0.35,0.0168,0.4,271.85,-1.917,0,0,0,0,0,0,0,0,269.41,0,0,0,0,0,0,0,0,0,0,0,0,0,2,2,164.2,FLYING
164.93,APPROACH,ILS_TRACK,76.28,80,3.72,1238.21,-1.48,7.6,11.57,314.34,41.856,0.7692,0,20,1,0.6,4.5,0.75,0.35,0.0168,0.4,271.85,-1.917,0,0,0,0,0,0,0,0,269.41,0,0,0,0,0,0,0,0,0,0,0,0,0,2,2,164.98,FLYING
166.03,APPROACH,ILS_TRACK,76.93,79.6,2.67,1236.01,-2.22,7.02,10.88,309.43,38.408,0.5692,0,20,1,0.6,4.5,0.75,0.35,0.0168,0.4,268.56,0,-141.77,-383.96,29.585,-1.84,729.515,0,0,0,269.41,0,0,0,0,0,0,0,0,0,0,0,0,0,2,2,166.08,FLYING
167.08,APPROACH,ILS_TRACK,77.68,79.2,1.52,1233.5,-2.45,6.9,10.73,304.51,37.149,0.3692,0,20,1,0.6,4.5,0.75,0.35,0.0168,0.4,269,0,-78.77,-383.01,29.52,-1.401,113.395,0,0,0,269.41,0,0,0,0,0,0,0,0,0,0,0,0,0,2,2,167.13,FLYING
168.13,APPROACH,ILS_TRACK,78.45,78.8,0.35,1230.78,-2.56,6.55,10,300.67,34.407,0.1764,0,20,1,0.6,4.5,0.75,0.35,0.0168,0.4,270.23,0,-21.25,-382.01,29.45,-0.174,113.005,0,0,0,269.41,0,0,0,0,0,0,0,0,0,0,0,0,0,2,2,168.18,FLYING
169.18,APPROACH,ILS_TRACK,79.04,78.4,-0.64,1227.99,-2.67,6.47,9.58,297.08,31.456,0.0514,0,19.699,1,0.6,4.5,0.75,0.35,0.0168,0.4,261.68,0,30.84,-380.85,29.374,-8.72,112.396,0,0,0,269.41,0,0,0,0,0,0,0,0,0,0,0,0,0,2,2,169.23,FLYING
170.23,APPROACH,ILS_TRACK,78.98,78,-0.98,1225.43,-2.22,6.85,9.97,292.02,33.968,0.0587,0,19.19,1,0.6,4.5,0.75,0.35,0.0168,0.4,267.67,0,77.49,-379.25,29.295,-2.731,111.209,0,0,0,269.41,0,0,0,0,0,0,0,0,0,0,0,0,0,2,2,170.28,FLYING
171.3,APPROACH,ILS_TRACK,78.62,77.6,-1.02,1222.63,-2.76,6.54,9.57,288.73,28.427,0.1355,0,18.66,1,0.6,4.5,0.75,0.35,0.0168,0.4,257.84,0,118.62,-377.62,29.21,-12.562,110.678,0,0,0,269.41,0,0,0,0,0,0,0,0,0,0,0,0,0,2,2,171.35,FLYING
172.35,APPROACH,ILS_TRACK,77.81,77.2,-0.61,1220.21,-2.18,8.06,10.91,284.38,30.765,0.2792,0,18.303,1,0.6,4.5,0.75,0.35,0.0168,0.4,258.25,0,152.86,-375.69,29.126,-12.15,109.62,0,0,0,269.41,0,0,0,0,0,0,0,0,0,0,0,0,0,2,2,172.4,FLYING
173.4,APPROACH,ILS_TRACK,76.88,76.8,-0.08,1217.77,-2.32,7.05,10,280.55,29.704,0.4469,0,18.226,1,0.6,4.5,0.75,0.35,0.0168,0.4,261.79,0,180.86,-373.62,29.04,-8.612,108.775,0,0,0,269.41,0,0,0,0,0,0,0,0,0,0,0,0,0,2,2,173.45,FLYING
174.45,APPROACH,ILS_TRACK,76.22,77.2,0.98,1215.13,-2.64,7.28,9.84,278.36,22.114,0.5959,0,18.691,1,0.6,4.5,0.75,0.35,0.0168,0.4,251.4,0,202.64,-371.69,28.953,-18.999,108.422,0,0,0,269.41,0,0,0,0,0,0,0,0,0,0,0,0,0,2,2,174.5,FLYING
175.5,APPROACH,ILS_TRACK,75.59,77.6,2.01,1212.74,-2.15,8.16,10.41,275.39,23.329,0.7287,0,19.669,1,0.6,4.5,0.75,0.35,0.0168,0.4,253.16,0,219.56,-369.59,28.867,-17.24,107.516,0,0,0,269.41,0,0,0,0,0,0,0,0,0,0,0,0,0,2,2,175.55,FLYING
176.55,APPROACH,ILS_TRACK,75.08,78,2.92,1210.54,-2.02,7.9,10.14,272.17,23.067,0.8202,0,20,1,0.6,4.5,0.75,0.35,0.0168,0.4,254.97,0,231.86,-367.27,28.78,-15.425,106.466,0,0,0,269.41,0,0,0,0,0,0,0,0,0,0,0,0,0,2,2,176.6,FLYING
177.6,APPROACH,ILS_TRACK,74.87,78.4,3.53,1208.38,-1.99,7.89,9.83,270.33,18.912,0.8422,0,20,1,0.6,4.5,0.75,0.35,0.0168,0.4,257.04,0,239.42,-364.87,28.693,-13.358,105.629,0,0,0,269.41,0,0,0,0,0,0,0,0,0,0,0,0,0,2,2,177.65,FLYING
178.65,APPROACH,ILS_TRACK,74.96,78.8,3.84,1206.13,-2.1,7.3,9.08,268.95,15.017,0.8072,0,20,1,0.6,4.5,0.75,0.35,0.0168,0.4,258.83,0,243.12,-362.53,28.606,-11.574,105.002,0,0,0,269.41,0,0,0,0,0,0,0,0,0,0,0,0,0,2,2,178.7,FLYING
179.7,APPROACH,ILS_TRACK,75.4,79.2,3.8,1203.73,-2.44,7.19,9.02,267.81,12.185,0.7078,0,20,1,0.6,4.5,0.75,0.35,0.0168,0.4,260.34,0,243.74,-360.35,28.518,-10.062,104.613,0,0,0,269.41,0,0,0,0,0,0,0,0,0,0,0,0,0,2,2,179.75,FLYING
180.75,APPROACH,ILS_TRACK,75.91,79.6,3.69,1201.32,-2.2,7.27,8.88,266.93,9.233,0.6081,0,20,1,0.6,4.5,0.75,0.35,0.0168,0.4,261.6,0,241.98,-358.13,28.43,-8.797,103.887,0,0,0,269.41,0,0,0,0,0,0,0,0,0,0,0,0,0,2,2,180.8,FLYING
181.8,APPROACH,ILS_TRACK,76.56,80,3.44,1199.08,-2.02,7.11,8.55,266.17,7.596,0.5006,0,20,1,0.6,4.5,0.75,0.35,0.0168,0.4,262.72,0,238.28,-355.76,28.341,-7.68,102.95,0,0,0,269.41,0,0,0,0,0,0,0,0,0,0,0,0,0,2,2,181.85,FLYING
182.88,APPROACH,ILS_TRACK,77.28,80,2.72,1196.99,-1.83,6.99,8.25,265.73,5.352,0.3667,0,20,1,0.6,4.5,0.75,0.35,0.0168,0.4,263.79,0,232.87,-353.11,28.25,-6.611,101.682,0,0,0,269.41,0,0,0,0,0,0,0,0,0,0,0,0,0,2,2,182.93,FLYING
183.93,APPROACH,ILS_TRACK,77.98,80,2.02,1195.15,-1.65,6.88,8,265.38,3.898,0.2512,0,20,1,0.6,4.5,0.75,0.35,0.0168,0.4,264.57,0,226.41,-350.27,28.16,-5.827,100.546,0,0,0,269.41,0,0,0,0,0,0,0,0,0,0,0,0,0,2,2,183.98,FLYING
184.98,APPROACH,ILS_TRACK,78.53,80,1.47,1193.5,-1.48,6.87,7.85,265.18,2.538,0.1774,0,20,1,0.6,4.5,0.75,0.35,0.0168,0.4,265.3,0,219.08,-347.21,28.069,-5.098,99.255,0,0,0,269.41,0,0,0,0,0,0,0,0,0,0,0,0,0,2,2,185.03,FLYING
186.03,APPROACH,ILS_TRACK,78.81,80,1.19,1192.04,-1.32,6.95,7.81,265.11,1.331,0.1646,0,20,1,0.6,4.5,0.75,0.35,0.0168,0.4,265.92,0,211.15,-343.93,27.978,-4.482,97.929,0,0,0,269.41,0,0,0,0,0,0,0,0,0,0,0,0,0,2,2,186.08,FLYING
187.08,APPROACH,ILS_TRACK,78.81,80,1.19,1190.76,-1.18,7.09,7.86,265.14,0.328,0.2102,0,20,1,0.6,4.5,0.75,0.35,0.0168,0.4,266.41,0,202.9,-340.46,27.887,-3.99,96.594,0,0,0,269.41,0,0,0,0,0,0,0,0,0,0,0,0,0,2,2,187.13,FLYING
188.13,APPROACH,ILS_TRACK,78.6,79.6,1,1189.62,-1.04,7.26,7.94,265.25,-0.443,0.2648,0,20,1,0.6,4.5,0.75,0.35,0.0168,0.4,266.79,0,194.55,-336.84,27.795,-3.605,95.266,0,0,0,269.41,0,0,0,0,0,0,0,0,0,0,0,0,0,2,2,188.18,FLYING
189.18,APPROACH,ILS_TRACK,78.3,79.2,0.9,1188.63,-0.92,7.43,8.03,265.41,-0.996,0.328,0,20,1,0.6,4.5,0.75,0.35,0.0168,0.4,267.09,0,186.27,-333.1,27.705,-3.312,93.945,0,0,0,269.41,0,0,0,0,0,0,0,0,0,0,0,0,0,2,2,189.23,FLYING
190.23,APPROACH,ILS_TRACK,77.98,78.8,0.82,1187.75,-0.81,7.59,8.12,265.6,-1.361,0.3813,0,20,1,0.6,4.5,0.75,0.35,0.0168,0.4,267.32,0,178.18,-329.26,27.614,-3.084,92.623,0,0,0,269.41,0,0,0,0,0,0,0,0,0,0,0,0,0,2,2,190.28,FLYING
191.28,APPROACH,ILS_TRACK,77.67,78.4,0.73,1186.98,-0.71,7.73,8.2,265.8,-1.571,0.4201,0,20,1,0.6,4.5,0.75,0.35,0.0168,0.4,267.49,0,170.37,-325.32,27.524,-2.907,91.296,0,0,0,269.41,0,0,0,0,0,0,0,0,0,0,0,0,0,2,2,191.33,FLYING
192.33,APPROACH,ILS_TRACK,77.4,78,0.6,1186.31,-0.62,7.85,8.26,266.01,-1.669,0.443,0,20,1,0.6,4.5,0.75,0.35,0.0168,0.4,267.64,0,162.86,-321.3,27.434,-2.763,89.963,0,0,0,269.41,0,0,0,0,0,0,0,0,0,0,0,0,0,2,2,192.38,FLYING
193.38,APPROACH,ILS_TRACK,77.17,77.6,0.43,1185.72,-0.54,7.95,8.31,266.22,-1.707,0.4504,0,20,1,0.6,4.5,0.75,0.35,0.0168,0.4,267.76,0,155.69,-317.21,27.344,-2.643,88.623,0,0,0,269.41,0,0,0,0,0,0,0,0,0,0,0,0,0,2,2,193.43,FLYING
194.43,APPROACH,ILS_TRACK,76.99,77.2,0.21,1185.2,-0.47,8.03,8.35,266.42,-1.691,0.4435,0,20,1,0.6,4.5,0.75,0.35,0.0168,0.4,267.86,0,148.86,-313.06,27.255,-2.537,87.272,0,0,0,269.41,0,0,0,0,0,0,0,0,0,0,0,0,0,2,2,194.48,FLYING
195.48,APPROACH,ILS_TRACK,76.87,76.8,-0.07,1184.75,-0.41,8.09,8.37,266.61,-1.636,0.4239,0,19.962,1,0.6,4.5,0.75,0.35,0.0168,0.4,267.96,0,142.36,-308.84,27.165,-2.444,85.91,0,0,0,269.41,0,0,0,0,0,0,0,0,0,0,0,0,0,2,2,195.53,FLYING
196.53,APPROACH,ILS_TRACK,76.78,76.4,-0.38,1184.36,-0.35,8.14,8.37,266.8,-1.558,0.3928,0,19.769,1,0.6,4.5,0.75,0.35,0.0168,0.4,268.05,0,136.17,-304.57,27.076,-2.353,84.537,0,0,0,269.41,0,0,0,0,0,0,0,0,0,0,0,0,0,2,2,196.58,FLYING
197.58,APPROACH,ILS_TRACK,76.72,76,-0.72,1184.02,-0.3,8.17,8.38,266.97,-1.472,0.3532,0,19.405,1,0.6,4.5,0.75,0.35,0.0168,0.4,268.13,0,130.29,-300.25,26.987,-2.271,83.155,0,0,0,269.41,0,0,0,0,0,0,0,0,0,0,0,0,0,2,2,197.63,FLYING
198.63,APPROACH,ILS_TRACK,76.69,76,-0.69,1183.74,-0.25,8.21,8.38,267.13,-1.383,0.3401,0,19.06,1,0.6,4.5,0.75,0.35,0.0168,0.4,268.21,0,124.69,-295.87,26.898,-2.186,81.764,0,0,0,269.41,0,0,0,0,0,0,0,0,0,0,0,0,0,2,2,198.68,FLYING
199.68,APPROACH,ILS_TRACK,76.65,76,-0.65,1183.5,-0.21,8.24,8.38,267.27,-1.296,0.3283,0,18.733,1,0.6,4.5,0.75,0.35,0.0168,0.4,268.29,0,119.35,-291.46,26.809,-2.106,80.367,0,0,0,269.41,0,0,0,0,0,0,0,0,0,0,0,0,0,2,2,199.73,FLYING
200.73,APPROACH,ILS_TRACK,76.61,76,-0.61,1183.3,-0.18,8.27,8.39,267.41,-1.215,0.3187,0,18.424,1,0.6,4.5,0.75,0.35,0.0168,0.4,268.37,0,114.27,-287,26.72,-2.029,78.965,0,0,0,269.41,0,0,0,0,0,0,0,0,0,0,0,0,0,2,2,200.78,FLYING
201.78,APPROACH,ILS_TRACK,76.57,76,-0.57,1183.14,-0.14,8.3,8.4,267.55,-1.14,0.3129,0,18.138,1,0.6,4.5,0.75,0.35,0.0168,0.4,268.45,0,109.41,-282.5,26.631,-1.948,77.56,0,0,0,269.41,0,0,0,0,0,0,0,0,0,0,0,0,0,2,2,201.83,FLYING
202.83,APPROACH,ILS_TRACK,76.5,76,-0.5,1183.01,-0.12,8.35,8.43,267.67,-1.073,0.3127,0,17.884,1,0.6,4.5,0.75,0.35,0.0168,0.4,268.53,0,104.78,-277.98,26.542,-1.875,76.154,0,0,0,269.41,0,0,0,0,0,0,0,0,0,0,0,0,0,2,2,202.88,FLYING
203.88,APPROACH,ILS_TRACK,76.41,76,-0.41,1182.91,-0.09,8.4,8.46,267.79,-1.01,0.3181,0,17.674,1,0.6,4.5,0.75,0.35,0.0168,0.4,268.6,0,100.35,-273.43,26.453,-1.801,74.75,0,0,0,269.41,0,0,0,0,0,0,0,0,0,0,0,0,0,2,2,203.93,FLYING
204.93,APPROACH,ILS_TRACK,76.3,76,-0.3,1182.83,-0.07,8.44,8.49,267.9,-0.955,0.3273,0,17.516,1,0.6,4.5,0.75,0.35,0.0168,0.4,268.67,0,96.12,-268.86,26.365,-1.729,73.347,0,0,0,269.41,0,0,0,0,0,0,0,0,0,0,0,0,0,2,2,204.98,FLYING
205.98,APPROACH,ILS_TRACK,76.19,76,-0.19,1182.78,-0.05,8.49,8.53,268,-0.904,0.3378,0,17.414,1,0.6,4.5,0.75,0.35,0.0168,0.4,268.74,0,92.07,-264.27,26.276,-1.66,71.947,0,0,0,269.41,0,0,0,0,0,0,0,0,0,0,0,0,0,2,2,206.03,FLYING
207.05,APPROACH,ILS_TRACK,76.08,76,-0.08,1182.74,-0.03,8.54,8.56,268.1,-0.86,0.3489,0,17.369,1,0.6,4.5,0.75,0.35,0.0168,0.4,268.85,0,88.11,-259.57,26.185,-1.545,70.339,0,0,0,269.41,0,0,0,0,0,0,0,0,0,0,0,0,0,2,2,207.1,FLYING
208.1,APPROACH,ILS_TRACK,75.98,76,0.02,1182.72,-0.02,8.58,8.59,268.2,-0.833,0.3587,0,17.376,1,0.6,4.5,0.75,0.35,0.0168,0.4,268.87,0,84.42,-254.96,26.097,-1.528,69.113,0,0,0,269.41,0,0,0,0,0,0,0,0,0,0,0,0,0,2,2,208.15,FLYING
209.18,APPROACH,ILS_TRACK,75.88,76,0.12,1182.71,0,8.62,8.62,268.3,-0.785,0.3676,0,17.434,1,0.6,4.5,0.75,0.35,0.0168,0.4,268.98,0,80.8,-250.23,26.006,-1.423,67.503,0,0,0,269.41,0,0,0,0,0,0,0,0,0,0,0,0,0,2,2,209.23,FLYING
210.23,APPROACH,ILS_TRACK,75.79,76,0.21,1182.72,0.01,8.65,8.65,268.39,-0.758,0.3741,0,17.535,1,0.6,4.5,0.75,0.35,0.0168,0.4,268.99,0,77.42,-245.6,25.918,-1.405,66.277,0,0,0,269.41,0,0,0,0,0,0,0,0,0,0,0,0,0,2,2,210.28,FLYING
211.28,APPROACH,ILS_TRACK,75.72,76,0.28,1182.74,0.02,8.68,8.66,268.47,-0.713,0.3785,0,17.672,1,0.6,4.5,0.75,0.35,0.0168,0.4,269.05,0,74.18,-240.97,25.83,-1.348,64.874,0,0,0,269.41,0,0,0,0,0,0,0,0,0,0,0,0,0,2,2,211.33,FLYING
212.35,APPROACH,ILS_TRACK,75.66,76,0.34,1182.77,0.03,8.7,8.68,268.55,-0.678,0.3809,0,17.838,1,0.6,4.5,0.75,0.35,0.0168,0.4,269.14,0,71.01,-236.21,25.74,-1.255,63.258,0,0,0,269.41,0,0,0,0,0,0,0,0,0,0,0,0,0,2,2,212.4,FLYING
213.43,APPROACH,ILS_TRACK,75.63,76,0.37,1182.82,0.04,8.71,8.68,268.63,-0.66,0.3808,0,18.024,1,0.6,4.5,0.75,0.35,0.0168,0.4,269.2,0,67.97,-231.45,25.65,-1.2,61.815,0,0,0,269.41,0,0,0,0,0,0,0,0,0,0,0,0,0,2,2,213.48,FLYING
214.5,APPROACH,ILS_TRACK,75.6,76,0.4,1182.87,0.05,8.72,8.68,268.71,-0.637,0.3785,0,18.221,1,0.6,4.5,0.75,0.35,0.0168,0.4,269.25,0,65.06,-226.68,25.56,-1.15,60.37,0,0,0,269.41,0,0,0,0,0,0,0,0,0,0,0,0,0,2,2,214.55,FLYING
215.55,APPROACH,ILS_TRACK,75.6,76,0.4,1182.93,0.06,8.72,8.68,268.78,-0.61,0.3743,0,18.421,1,0.6,4.5,0.75,0.35,0.0168,0.4,269.27,0,62.34,-222.01,25.472,-1.134,59.133,0,0,0,269.41,0,0,0,0,0,0,0,0,0,0,0,0,0,2,2,215.6,FLYING
216.6,APPROACH,ILS_TRACK,75.61,76,0.39,1183,0.07,8.72,8.67,268.84,-0.564,0.3687,0,18.618,1,0.6,4.5,0.75,0.35,0.0168,0.4,269.31,0,59.74,-217.33,25.384,-1.088,57.715,0,0,0,269.41,0,0,0,0,0,0,0,0,0,0,0,0,0,2,2,216.65,FLYING
217.65,APPROACH,ILS_TRACK,75.63,76,0.37,1183.08,0.08,8.71,8.66,268.9,-0.523,0.3623,0,18.806,1,0.6,4.5,0.75,0.35,0.0168,0.4,269.36,0,57.24,-212.65,25.296,-1.04,56.294,0,0,0,269.41,0,0,0,0,0,0,0,0,0,0,0,0,0,2,2,217.7,FLYING
218.7,APPROACH,ILS_TRACK,75.65,76,0.35,1183.17,0.09,8.71,8.65,268.96,-0.488,0.3555,0,18.98,1,0.6,4.5,0.75,0.35,0.0168,0.4,269.41,0,54.84,-207.95,25.208,-0.993,54.869,0,0,0,269.41,0,0,0,0,0,0,0,0,0,0,0,0,0,2,2,218.75,FLYING
219.75,APPROACH,ILS_TRACK,75.69,76,0.31,1183.26,0.1,8.7,8.63,269.01,-0.462,0.3488,0,19.138,1,0.6,4.5,0.75,0.35,0.0168,0.4,269.45,0,52.53,-203.24,25.12,-0.947,53.441,0,0,0,269.41,0,0,0,0,0,0,0,0,0,0,0,0,0,2,2,219.8,FLYING
220.8,APPROACH,ILS_TRACK,75.72,76,0.28,1183.36,0.1,8.69,8.62,269.06,-0.442,0.3427,0,19.278,1,0.6,4.5,0.75,0.35,0.0168,0.4,269.5,0,50.31,-198.53,25.032,-0.9,52.011,0,0,0,269.41,0,0,0,0,0,0,0,0,0,0,0,0,0,2,2,220.85,FLYING
221.85,APPROACH,ILS_TRACK,75.76,76,0.24,1183.47,0.11,8.68,8.61,269.11,-0.428,0.3377,0,19.4,1,0.6,4.5,0.75,0.35,0.0168,0.4,269.55,0,48.16,-193.8,24.944,-0.854,50.578,0,0,0,269.41,0,0,0,0,0,0,0,0,0,0,0,0,0,2,2,221.9,FLYING
222.9,APPROACH,ILS_TRACK,75.78,76,0.22,1183.59,0.11,8.68,8.6,269.16,-0.417,0.3352,0,19.51,1,0.6,4.5,0.75,0.35,0.0168,0.4,269.59,0,46.09,-189.06,24.856,-0.811,49.144,0,0,0,269.41,0,0,0,0,0,0,0,0,0,0,0,0,0,2,2,222.95,FLYING
223.95,APPROACH,ILS_TRACK,75.79,76,0.21,1183.71,0.12,8.68,8.6,269.21,-0.405,0.3357,0,19.613,1,0.6,4.5,0.75,0.35,0.0168,0.4,269.63,0,44.11,-184.32,24.767,-0.77,47.71,0,0,0,269.41,0,0,0,0,0,0,0,0,0,0,0,0,0,2,2,224,FLYING
225,APPROACH,ILS_TRACK,75.79,76,0.21,1183.84,0.12,8.69,8.6,269.25,-0.394,0.3389,0,19.716,1,0.6,4.5,0.75,0.35,0.0168,0.4,269.67,0,42.19,-179.58,24.679,-0.73,46.277,0,0,0,269.41,0,0,0,0,0,0,0,0,0,0,0,0,0,2,2,225.05,FLYING
226.05,APPROACH,ILS_TRACK,75.79,76,0.21,1183.97,0.13,8.69,8.61,269.3,-0.384,0.3436,0,19.823,1,0.6,4.5,0.75,0.35,0.0168,0.4,269.71,0,40.35,-174.82,24.591,-0.694,44.845,0,0,0,269.41,0,0,0,0,0,0,0,0,0,0,0,0,0,2,2,226.1,FLYING
227.1,APPROACH,ILS_TRACK,75.78,76,0.22,1184.1,0.13,8.7,8.61,269.34,-0.372,0.3482,0,19.934,1,0.6,4.5,0.75,0.35,0.0168,0.4,269.74,0,38.58,-170.07,24.503,-0.657,43.413,0,0,0,269.41,0,0,0,0,0,0,0,0,0,0,0,0,0,2,2,227.15,FLYING
228.15,APPROACH,ILS_TRACK,75.77,76,0.23,1184.24,0.13,8.7,8.61,269.38,-0.359,0.3515,0,20,1,0.6,4.5,0.75,0.35,0.0168,0.4,269.77,0,36.88,-165.31,24.415,-0.626,41.98,0,0,0,269.41,0,0,0,0,0,0,0,0,0,0,0,0,0,2,2,228.2,FLYING
229.2,APPROACH,ILS_TRACK,75.76,76,0.24,1184.38,0.14,8.7,8.61,269.42,-0.345,0.3527,0,20,1,0.6,4.5,0.75,0.35,0.0168,0.4,269.81,0,35.24,-160.55,24.327,-0.591,40.547,0,0,0,269.41,0,0,0,0,0,0,0,0,0,0,0,0,0,2,2,229.25,FLYING
230.25,APPROACH,ILS_TRACK,75.76,76,0.24,1184.52,0.14,8.7,8.61,269.46,-0.333,0.353,0,20,1,0.6,4.5,0.75,0.35,0.0168,0.4,269.84,0,33.67,-155.78,24.238,-0.562,39.112,0,0,0,269.41,0,0,0,0,0,0,0,0,0,0,0,0,0,2,2,230.3,FLYING
231.3,APPROACH,ILS_TRACK,75.77,76,0.23,1184.67,0.14,8.7,8.61,269.5,-0.321,0.3524,0,20,1,0.6,4.5,0.75,0.35,0.0168,0.4,269.87,0,32.16,-151.02,24.15,-0.531,37.675,0,0,0,269.41,0,0,0,0,0,0,0,0,0,0,0,0,0,2,2,231.35,FLYING
232.35,APPROACH,ILS_TRACK,75.77,76,0.23,1184.82,0.15,8.7,8.6,269.53,-0.31,0.3511,0,20,1,0.6,4.5,0.75,0.35,0.0168,0.4,269.9,0,30.71,-146.24,24.062,-0.503,36.238,0,0,0,269.41,0,0,0,0,0,0,0,0,0,0,0,0,0,2,2,232.4,FLYING
233.4,APPROACH,ILS_TRACK,75.78,76,0.22,1184.98,0.15,8.7,8.6,269.57,-0.299,0.3493,0,20,1,0.6,4.5,0.75,0.35,0.0168,0.4,269.92,0,29.32,-141.47,23.974,-0.475,34.798,0,0,0,269.41,0,0,0,0,0,0,0,0,0,0,0,0,0,2,2,233.45,FLYING
234.45,APPROACH,ILS_TRACK,75.79,76,0.21,1185.14,0.15,8.7,8.59,269.6,-0.289,0.3471,0,20,1,0.6,4.5,0.75,0.35,0.0168,0.4,269.95,0,27.98,-136.69,23.886,-0.449,33.357,0,0,0,269.41,0,0,0,0,0,0,0,0,0,0,0,0,0,2,2,234.5,FLYING
235.5,APPROACH,ILS_TRACK,75.81,76,0.19,1185.3,0.16,8.69,8.59,269.63,-0.278,0.3449,0,20,1,0.6,4.5,0.75,0.35,0.0168,0.4,269.98,0,26.69,-131.9,23.797,-0.424,31.914,0,0,0,269.41,0,0,0,0,0,0,0,0,0,0,0,0,0,2,2,235.55,FLYING
236.55,APPROACH,ILS_TRACK,75.82,76,0.18,1185.46,0.16,8.69,8.58,269.66,-0.269,0.3427,0,20,1,0.6,4.5,0.75,0.35,0.0168,0.4,270,0,25.45,-127.11,23.709,-0.4,30.47,0,0,0,269.41,0,0,0,0,0,0,0,0,0,0,0,0,0,2,2,236.6,FLYING
237.6,APPROACH,ILS_TRACK,75.84,76,0.16,1185.63,0.16,8.69,8.58,269.69,-0.261,0.341,0,20,1,0.6,4.5,0.75,0.35,0.0168,0.4,270.02,0,24.26,-122.32,23.621,-0.377,29.024,0,0,0,269.41,0,0,0,0,0,0,0,0,0,0,0,0,0,2,2,237.65,FLYING
238.65,APPROACH,ILS_TRACK,75.85,76,0.15,1185.81,0.17,8.69,8.57,269.72,-0.251,0.34,0,20,1,0.6,4.5,0.75,0.35,0.0168,0.4,270.04,0,23.13,-117.52,23.533,-0.356,27.578,0,0,0,269.41,0,0,0,0,0,0,0,0,0,0,0,0,0,2,2,238.7,FLYING
239.7,APPROACH,ILS_TRACK,75.85,76,0.15,1185.98,0.17,8.69,8.57,269.75,-0.241,0.3401,0,20,1,0.6,4.5,0.75,0.35,0.0168,0.4,270.06,0,22.03,-112.72,23.444,-0.335,26.131,0,0,0,269.41,0,0,0,0,0,0,0,0,0,0,0,0,0,2,2,239.75,FLYING
240.78,APPROACH,ILS_TRACK,75.85,76,0.15,1186.17,0.17,8.69,8.57,269.78,-0.233,0.3411,0,20,1,0.6,4.5,0.75,0.35,0.0168,0.4,270.1,0,20.96,-107.8,23.354,-0.301,24.466,0,0,0,269.41,0,0,0,0,0,0,0,0,0,0,0,0,0,2,2,240.83,FLYING
241.85,APPROACH,ILS_TRACK,75.85,76,0.15,1186.35,0.17,8.69,8.57,269.8,-0.232,0.3426,0,20,1,0.6,4.5,0.75,0.35,0.0168,0.4,270.12,0,19.93,-102.87,23.263,-0.282,22.985,0,0,0,269.41,0,0,0,0,0,0,0,0,0,0,0,0,0,2,2,241.9,FLYING
242.9,APPROACH,ILS_TRACK,75.85,76,0.15,1186.54,0.18,8.7,8.58,269.83,-0.225,0.3441,0,20,1,0.6,4.5,0.75,0.35,0.0168,0.4,270.12,0,18.97,-98.06,23.175,-0.277,21.72,0,0,0,269.41,0,0,0,0,0,0,0,0,0,0,0,0,0,2,2,242.95,FLYING
243.98,APPROACH,ILS_TRACK,75.84,76,0.16,1186.73,0.18,8.7,8.58,269.85,-0.212,0.3453,0,20,1,0.6,4.5,0.75,0.35,0.0168,0.4,270.15,0,18.02,-93.13,23.085,-0.247,20.054,0,0,0,269.41,0,0,0,0,0,0,0,0,0,0,0,0,0,2,2,244.03,FLYING
245.05,APPROACH,ILS_TRACK,75.84,76,0.16,1186.92,0.18,8.7,8.58,269.88,-0.21,0.3462,0,20,1,0.6,4.5,0.75,0.35,0.0168,0.4,270.17,0,17.12,-88.2,22.994,-0.233,18.571,0,0,0,269.41,0,0,0,0,0,0,0,0,0,0,0,0,0,2,2,245.1,FLYING
246.1,APPROACH,ILS_TRACK,75.84,76,0.16,1187.11,0.18,8.7,8.58,269.9,-0.201,0.3467,0,20,1,0.6,4.5,0.75,0.35,0.0168,0.4,270.17,0,16.27,-83.38,22.906,-0.229,17.304,0,0,0,269.41,0,0,0,0,0,0,0,0,0,0,0,0,0,2,2,246.15,FLYING
247.15,APPROACH,ILS_TRACK,75.84,76,0.16,1187.31,0.19,8.7,8.58,269.92,-0.187,0.3469,0,20,1,0.6,4.5,0.75,0.35,0.0168,0.4,270.19,0,15.46,-78.56,22.818,-0.214,15.853,0,0,0,269.41,0,0,0,0,0,0,0,0,0,0,0,0,0,2,2,247.2,FLYING
248.2,APPROACH,ILS_TRACK,75.82,76,0.18,1187.5,0.25,8.57,8.42,269.94,-0.176,0.3498,0,20,1,0.6,4.5,0.75,0.35,0.0168,0.4,270.2,0,14.69,-73.74,22.729,-0.201,14.402,0,0,0,269.41,0,0,0,0,0,0,0,0,0,0,0,0,0,2,2,248.25,FLYING
249.3,APPROACH,ILS_TRACK,75.75,76,0.25,1187.75,0.23,8.54,8.38,269.96,-0.17,0.3638,0,20,1,0.6,4.5,0.75,0.35,0.0168,0.4,270.23,0,13.91,-68.66,22.637,-0.168,12.476,0,0,0,269.41,0,0,0,0,0,0,0,0,0,0,0,0,0,2,2,249.35,FLYING
250.35,APPROACH,ILS_TRACK,75.7,76,0.3,1187.99,0.22,8.57,8.42,269.98,-0.171,0.373,0,20,1,0.6,4.5,0.75,0.35,0.0168,0.4,270.23,0,13.2,-63.8,22.549,-0.173,11.357,0,0,0,269.41,0,0,0,0,0,0,0,0,0,0,0,0,0,2,2,250.4,FLYING
251.4,APPROACH,ILS_TRACK,75.65,76,0.35,1188.23,0.22,8.59,8.43,270,-0.164,0.3796,0,20,1,0.6,4.5,0.75,0.35,0.0168,0.4,270.24,0,12.52,-58.94,22.461,-0.162,9.912,0,0,0,269.41,0,0,0,0,0,0,0,0,0,0,0,0,0,2,2,251.45,FLYING
252.45,APPROACH,ILS_TRACK,75.62,76,0.38,1188.46,0.23,8.6,8.45,270.02,-0.155,0.3835,0,20,1,0.6,4.5,0.75,0.35,0.0168,0.4,270.25,0,11.87,-54.09,22.373,-0.15,8.46,0,0,0,269.41,0,0,0,0,0,0,0,0,0,0,0,0,0,2,2,252.5,FLYING
253.5,APPROACH,ILS_TRACK,75.59,76,0.41,1188.7,0.23,8.61,8.45,270.03,-0.148,0.385,0,20,1,0.6,4.5,0.75,0.35,0.0168,0.4,270.26,0,11.26,-49.23,22.285,-0.14,7.008,0,0,0,269.41,0,0,0,0,0,0,0,0,0,0,0,0,0,2,2,253.55,FLYING
254.58,APPROACH,ILS_TRACK,75.58,76,0.42,1188.95,0.23,8.61,8.45,270.05,-0.141,0.3838,0,20,1,0.6,4.5,0.75,0.35,0.0168,0.4,270.28,0,10.65,-44.27,22.194,-0.122,5.334,0,0,0,269.41,0,0,0,0,0,0,0,0,0,0,0,0,0,2,2,254.63,FLYING
255.63,APPROACH,ILS_TRACK,75.58,76,0.42,1189.19,0.23,8.6,8.45,270.07,-0.137,0.3803,0,20,1,0.6,4.5,0.75,0.35,0.0168,0.4,270.28,0,10.08,-39.42,22.106,-0.121,4.062,0,0,0,269.41,0,0,0,0,0,0,0,0,0,0,0,0,0,2,2,255.69,FLYING
257.04,APPROACH,ILS_TRACK,75.59,76,0.41,1189.48,0.3,8.39,8.26,270.09,-0.144,0.3742,0,20,1,0.6,4.5,0.75,0.35,0.0168,0.4,270.36,-2.76,9.41,-33.32,21.996,-0.04,0.24,0,0,0,269.41,0,0,0,0,0,0,0,0,0,0,0,0,0,2,2,257.11,FLYING
258.54,APPROACH,ILS_TRACK,75.81,76,0.19,1189.26,-0.28,7.41,7.67,270.13,-0.218,0.3327,0,20,1,0.6,4.5,0.75,0.35,0.0168,0.4,270.41,-5.489,8.69,-26.75,21.87,0.013,-2.489,0,0,0,269.41,0,0,0,0,0,0,0,0,0,0,0,0,0,2,2,258.61,FLYING
260.01,APPROACH,ILS_TRACK,76.25,76,-0.25,1187.82,-1.39,6.39,7.33,270.17,-0.255,0.2438,0,19.893,1,0.6,4.5,0.75,0.35,0.0168,0.4,270.39,-5.126,8.06,-21.41,21.746,-0.006,-2.126,0,0,0,269.41,0,0,0,0,0,0,0,0,0,0,0,0,0,2,2,260.08,FLYING
261.48,APPROACH,ILS_TRACK,76.7,76,-0.7,1185.02,-2.3,5.95,7.46,270.21,-0.246,0.1575,0,19.558,1,0.6,4.5,0.75,0.35,0.0168,0.4,270.38,-4.187,7.5,-17.4,21.621,-0.022,-1.187,0,0,0,269.41,0,0,0,0,0,0,0,0,0,0,0,0,0,2,2,261.55,FLYING
262.95,APPROACH,ILS_TRACK,76.84,76,-0.84,1181.23,-2.86,5.87,7.77,270.24,-0.205,0.1391,0,19.137,1,0.6,4.5,0.75,0.35,0.0168,0.4,270.35,-3.363,7.04,-14.46,21.496,-0.049,-0.363,0,0,0,269.41,0,0,0,0,0,0,0,0,0,0,0,0,0,2,2,263.02,FLYING
264.46,APPROACH,ILS_TRACK,76.57,76,-0.57,1176.73,-3.15,6.01,8.12,270.26,-0.15,0.2102,0,18.838,1,0.6,4.5,0.75,0.35,0.0168,0.4,270.33,-3.05,6.64,-12.15,21.368,-0.065,-0.05,0,0,0,269.41,0,0,0,0,0,0,0,0,0,0,0,0,0,2,2,264.53,FLYING
265.93,APPROACH,ILS_TRACK,76.05,76,-0.05,1172,-3.31,6.15,8.39,270.28,-0.103,0.3284,0,18.792,1,0.6,4.5,0.75,0.35,0.0168,0.4,270.31,-2.856,6.31,-10.31,21.244,-0.089,0.144,0,0,0,269.41,0,0,0,0,0,0,0,0,0,0,0,0,0,2,2,266,FLYING
267.4,APPROACH,ILS_TRACK,75.53,76,0.47,1167.08,-3.4,6.25,8.57,270.29,-0.063,0.4394,0,19.01,1,0.6,4.5,0.75,0.35,0.0168,0.4,270.3,-2.915,6.03,-8.73,21.12,-0.099,0.085,0,0,0,269.41,0,0,0,0,0,0,0,0,0,0,0,0,0,2,2,267.47,FLYING
268.9,APPROACH,ILS_TRACK,75.1,76,0.9,1161.89,-3.49,6.26,8.66,270.29,-0.037,0.5202,0,19.447,1,0.6,4.5,0.75,0.35,0.0168,0.4,270.3,-3.075,5.76,-7.31,20.995,-0.099,-0.075,0,0,0,269.41,0,0,0,0,0,0,0,0,0,0,0,0,0,2,2,268.97,FLYING
270.41,APPROACH,ILS_TRACK,74.88,76,1.12,1156.53,-3.61,6.22,8.71,270.3,-0.024,0.5535,0,20,1,0.6,4.5,0.75,0.35,0.0168,0.4,270.3,-3.118,5.52,-6.09,20.87,-0.098,-0.118,0,0,0,269.41,0,0,0,0,0,0,0,0,0,0,0,0,0,2,2,270.48,FLYING
271.91,APPROACH,ILS_TRACK,74.89,76,1.11,1150.99,-3.72,6.11,8.68,270.3,-0.014,0.5268,0,20,1,0.6,4.5,0.75,0.35,0.0168,0.4,270.31,-3.121,5.28,-5.07,20.746,-0.094,-0.121,0,0,0,269.41,0,0,0,0,0,0,0,0,0,0,0,0,0,2,2,271.98,FLYING
273.42,APPROACH,ILS_TRACK,75.13,76,0.87,1145.29,-3.81,5.94,8.57,270.3,-0.01,0.4576,0,20,1,0.6,4.5,0.75,0.35,0.0168,0.4,270.31,-3.133,5.05,-4.2,20.621,-0.087,-0.133,0,0,0,269.41,0,0,0,0,0,0,0,0,0,0,0,0,0,2,2,273.49,FLYING
274.89,APPROACH,ILS_TRACK,75.54,76,0.46,1139.59,-3.89,5.75,8.41,270.3,-0.007,0.3633,0,20,1,0.6,4.5,0.75,0.35,0.0168,0.4,270.32,-3.144,4.83,-3.46,20.498,-0.084,-0.144,0,0,0,269.41,0,0,0,0,0,0,0,0,0,0,0,0,0,2,2,274.96,FLYING
276.36,APPROACH,ILS_TRACK,76.05,76,-0.05,1133.77,-3.97,5.52,8.21,270.3,-0.005,0.26,0,20,1,0.6,4.5,0.75,0.35,0.0168,0.4,270.33,-3.213,4.61,-2.8,20.375,-0.074,-0.213,0,0,0,269.41,0,0,0,0,0,0,0,0,0,0,0,0,0,2,2,276.43,FLYING
277.86,APPROACH,ILS_TRACK,76.52,76,-0.52,1127.7,-4.06,5.33,8.08,270.3,-0.005,0.1679,0,19.756,1,0.6,4.5,0.75,0.35,0.0168,0.4,270.34,-3.289,4.39,-2.21,20.249,-0.062,-0.289,0,0,0,269.41,0,0,0,0,0,0,0,0,0,0,0,0,0,2,2,277.93,FLYING
279.33,APPROACH,ILS_TRACK,76.74,76,-0.74,1121.65,-4.16,5.31,8.11,270.3,-0.009,0.1357,0,19.388,1,0.6,4.5,0.75,0.35,0.0168,0.4,270.34,-3.263,4.17,-1.72,20.124,-0.058,-0.263,0,0,0,269.41,0,0,0,0,0,0,0,0,0,0,0,0,0,2,2,279.4,FLYING
280.8,APPROACH,ILS_TRACK,76.59,76,-0.59,1115.51,-4.21,5.42,8.26,270.3,-0.009,0.1839,0,19.081,1,0.6,4.5,0.75,0.35,0.0168,0.4,270.35,-3.232,3.95,-1.33,20,-0.05,-0.232,0,0,0,269.41,0,0,0,0,0,0,0,0,0,0,0,0,0,2,2,280.87,FLYING
282.31,APPROACH,ILS_TRACK,76.16,76,-0.16,1109.18,-4.24,5.58,8.46,270.31,-0.009,0.2891,0,18.984,1,0.6,4.5,0.75,0.35,0.0168,0.4,270.36,-3.21,3.73,-1.01,19.873,-0.04,-0.21,0,0,0,269.41,0,0,0,0,0,0,0,0,0,0,0,0,0,2,2,282.38,FLYING
283.81,APPROACH,ILS_TRACK,75.66,76,0.34,1102.82,-4.24,5.73,8.63,270.31,-0.008,0.3993,0,19.136,1,0.6,4.5,0.75,0.35,0.0168,0.4,270.37,-3.175,3.52,-0.76,19.747,-0.034,-0.175,0,0,0,269.41,0,0,0,0,0,0,0,0,0,0,0,0,0,2,2,283.88,FLYING
285.32,APPROACH,ILS_TRACK,75.25,76,0.75,1096.46,-4.24,5.84,8.76,270.31,-0.008,0.4835,0,19.5,1,0.6,4.5,0.75,0.35,0.0168,0.4,270.37,-3.154,3.31,-0.55,19.622,-0.027,-0.154,0,0,0,269.41,0,0,0,0,0,0,0,0,0,0,0,0,0,2,2,285.39,FLYING
286.79,APPROACH,ILS_TRACK,74.99,76,1.01,1090.25,-4.23,5.89,8.82,270.31,-0.008,0.5276,0,20,1,0.6,4.5,0.75,0.35,0.0168,0.4,270.37,-3.145,3.11,-0.39,19.5,-0.025,-0.145,0,0,0,269.41,0,0,0,0,0,0,0,0,0,0,0,0,0,2,2,286.86,FLYING
288.29,APPROACH,ILS_TRACK,74.93,76,1.07,1083.89,-4.22,5.86,8.79,270.31,-0.009,0.5194,0,20,1,0.6,4.5,0.75,0.35,0.0168,0.4,270.39,-3.166,2.91,-0.24,19.376,-0.013,-0.166,0,0,0,269.41,0,0,0,0,0,0,0,0,0,0,0,0,0,2,2,288.36,FLYING
289.76,APPROACH,ILS_TRACK,75.08,76,0.92,1077.66,-4.23,5.76,8.69,270.31,-0.011,0.4698,0,20,1,0.6,4.5,0.75,0.35,0.0168,0.4,270.39,-3.186,2.71,-0.11,19.255,-0.011,-0.186,0,0,0,269.41,0,0,0,0,0,0,0,0,0,0,0,0,0,2,2,289.83,FLYING
291.23,APPROACH,ILS_TRACK,75.41,76,0.59,1071.41,-4.24,5.61,8.53,270.31,-0.015,0.3904,0,20,1,0.6,4.5,0.75,0.35,0.0168,0.4,270.4,-3.218,2.52,0.03,19.133,-0.004,-0.218,0,0,0,269.41,0,0,0,0,0,0,0,0,0,0,0,0,0,2,2,291.3,FLYING
292.74,APPROACH,ILS_TRACK,75.87,76,0.13,1064.97,-4.27,5.42,8.35,270.32,-0.023,0.2934,0,20,1,0.6,4.5,0.75,0.35,0.0168,0.4,270.4,-3.255,2.32,0.16,19.008,0.004,-0.255,0,0,0,269.41,0,0,0,0,0,0,0,0,0,0,0,0,0,2,2,292.81,FLYING
294.24,APPROACH,ILS_TRACK,76.35,76,-0.35,1058.48,-4.31,5.26,8.19,270.32,-0.028,0.1988,0,19.843,1,0.6,4.5,0.75,0.35,0.0168,0.4,270.41,-3.278,2.14,0.28,18.882,0.009,-0.278,0,0,0,269.41,0,0,0,0,0,0,0,0,0,0,0,0,0,2,2,294.31,FLYING
295.75,APPROACH,ILS_TRACK,76.67,76,-0.67,1051.95,-4.35,5.19,8.14,270.33,-0.03,0.1427,0,19.513,1,0.6,4.5,0.75,0.35,0.0168,0.4,270.41,-3.291,1.96,0.39,18.756,0.012,-0.291,0,0,0,269.41,0,0,0,0,0,0,0,0,0,0,0,0,0,2,2,295.82,FLYING
297.25,APPROACH,ILS_TRACK,76.66,76,-0.66,1045.39,-4.38,5.26,8.24,270.33,-0.03,0.1626,0,19.177,1,0.6,4.5,0.75,0.35,0.0168,0.4,270.41,-3.277,1.79,0.47,18.629,0.011,-0.277,0,0,0,269.41,0,0,0,0,0,0,0,0,0,0,0,0,0,2,2,297.32,FLYING
298.76,APPROACH,ILS_TRACK,76.32,76,-0.32,1038.8,-4.39,5.42,8.42,270.34,-0.028,0.2498,0,19.002,1,0.6,4.5,0.75,0.35,0.0168,0.4,270.41,-3.233,1.64,0.52,18.502,0.012,-0.233,0,0,0,269.41,0,0,0,0,0,0,0,0,0,0,0,0,0,2,2,298.83,FLYING
300.26,APPROACH,ILS_TRACK,75.85,76,0.15,1032.23,-4.38,5.58,8.59,270.34,-0.026,0.3582,0,19.061,1,0.6,4.5,0.75,0.35,0.0168,0.4,270.41,-3.179,1.49,0.53,18.377,0.013,-0.179,0,0,0,269.41,0,0,0,0,0,0,0,0,0,0,0,0,0,2,2,300.33,FLYING
301.77,APPROACH,ILS_TRACK,75.42,76,0.58,1025.67,-4.36,5.71,8.72,270.35,-0.023,0.4472,0,19.336,1,0.6,4.5,0.75,0.35,0.0168,0.4,270.41,-3.138,1.36,0.52,18.252,0.013,-0.138,0,0,0,269.41,0,0,0,0,0,0,0,0,0,0,0,0,0,2,2,301.84,FLYING
303.27,APPROACH,ILS_TRACK,75.13,76,0.87,1019.14,-4.34,5.79,8.79,270.35,-0.018,0.5022,0,19.764,1,0.6,4.5,0.75,0.35,0.0168,0.4,270.41,-3.115,1.23,0.5,18.127,0.013,-0.115,0,0,0,269.41,0,0,0,0,0,0,0,0,0,0,0,0,0,2,2,303.34,FLYING
304.78,APPROACH,ILS_TRACK,75.01,76,0.99,1012.63,-4.32,5.79,8.79,270.35,-0.015,0.5109,0,20,1,0.6,4.5,0.75,0.35,0.0168,0.4,270.41,-3.111,1.11,0.48,18.003,0.014,-0.111,0,0,0,269.41,0,0,0,0,0,0,0,0,0,0,0,0,0,2,2,304.85,FLYING
306.28,APPROACH,ILS_TRACK,75.11,76,0.89,1006.14,-4.3,5.72,8.71,270.35,-0.012,0.4736,0,20,1,0.6,4.5,0.75,0.35,0.0168,0.4,270.42,-3.128,1,0.47,17.88,0.016,-0.128,0,0,0,269.41,0,0,0,0,0,0,0,0,0,0,0,0,0,2,2,306.35,FLYING
307.79,APPROACH,ILS_TRACK,75.39,76,0.61,999.65,-4.3,5.59,8.57,270.35,-0.011,0.4027,0,20,1,0.6,4.5,0.75,0.35,0.0168,0.4,270.42,-3.164,0.89,0.48,17.755,0.019,-0.164,0,0,0,269.41,0,0,0,0,0,0,0,0,0,0,0,0,0,2,2,307.86,FLYING
309.29,APPROACH,ILS_TRACK,75.81,76,0.19,993.15,-4.31,5.43,8.39,270.36,-0.01,0.3124,0,20,1,0.6,4.5,0.75,0.35,0.0168,0.4,270.42,-3.208,0.79,0.52,17.631,0.021,-0.208,0,0,0,269.41,0,0,0,0,0,0,0,0,0,0,0,0,0,2,2,309.36,FLYING
310.8,APPROACH,ILS_TRACK,76.28,76,-0.28,986.63,-4.32,5.26,8.22,270.36,-0.012,0.2171,0,19.875,1,0.6,4.5,0.75,0.35,0.0168,0.4,270.42,-3.249,0.69,0.57,17.506,0.024,-0.249,0,0,0,269.41,0,0,0,0,0,0,0,0,0,0,0,0,0,2,2,310.87,FLYING
312.3,APPROACH,ILS_TRACK,76.67,76,-0.67,980.08,-4.35,5.17,8.13,270.36,-0.015,0.1469,0,19.548,1,0.6,4.5,0.75,0.35,0.0168,0.4,270.42,-3.283,0.59,0.62,17.38,0.024,-0.283,0,0,0,269.41,0,0,0,0,0,0,0,0,0,0,0,0,0,2,2,312.37,FLYING
313.81,APPROACH,ILS_TRACK,76.74,76,-0.74,973.51,-4.38,5.21,8.19,270.36,-0.015,0.1478,0,19.174,1,0.6,4.5,0.75,0.35,0.0168,0.4,270.43,-3.288,0.49,0.68,17.253,0.028,-0.288,0,0,0,269.41,0,0,0,0,0,0,0,0,0,0,0,0,0,2,2,313.88,FLYING
315.31,APPROACH,ILS_TRACK,76.46,76,-0.46,966.92,-4.4,5.36,8.36,270.37,-0.015,0.2235,0,18.932,1,0.6,4.5,0.75,0.35,0.0168,0.4,270.43,-3.253,0.41,0.7,17.127,0.028,-0.253,0,0,0,269.41,0,0,0,0,0,0,0,0,0,0,0,0,0,2,2,315.38,FLYING
316.82,APPROACH,ILS_TRACK,76,76,0,960.34,-4.39,5.52,8.54,270.37,-0.015,0.3312,0,18.917,1,0.6,4.5,0.75,0.35,0.0168,0.4,270.43,-3.195,0.32,0.7,17.002,0.028,-0.195,0,0,0,269.41,0,0,0,0,0,0,0,0,0,0,0,0,0,2,2,316.89,FLYING
318.32,APPROACH,ILS_TRACK,75.56,76,0.44,953.78,-4.36,5.66,8.68,270.37,-0.012,0.4238,0,19.123,1,0.6,4.5,0.75,0.35,0.0168,0.4,270.43,-3.147,0.25,0.66,16.877,0.029,-0.147,0,0,0,269.41,0,0,0,0,0,0,0,0,0,0,0,0,0,2,2,318.39,FLYING
319.83,APPROACH,ILS_TRACK,75.24,76,0.76,947.24,-4.34,5.74,8.76,270.37,-0.01,0.4855,0,19.495,1,0.6,4.5,0.75,0.35,0.0168,0.4,270.43,-3.117,0.18,0.62,16.753,0.028,-0.117,0,0,0,269.41,0,0,0,0,0,0,0,0,0,0,0,0,0,2,2,319.9,FLYING
321.33,APPROACH,ILS_TRACK,75.08,76,0.92,940.73,-4.32,5.76,8.77,270.37,-0.01,0.5069,0,19.951,1,0.6,4.5,0.75,0.35,0.0168,0.4,270.43,-3.107,0.11,0.58,16.63,0.03,-0.107,0,0,0,269.41,0,0,0,0,0,0,0,0,0,0,0,0,0,2,2,321.4,FLYING
322.84,APPROACH,ILS_TRACK,75.14,76,0.86,934.24,-4.3,5.71,8.71,270.37,-0.007,0.4789,0,20,1,0.6,4.5,0.75,0.35,0.0168,0.4,270.43,-3.117,0.04,0.55,16.506,0.031,-0.117,0,0,0,269.41,0,0,0,0,0,0,0,0,0,0,0,0,0,2,2,322.91,FLYING
324.34,APPROACH,ILS_TRACK,75.38,76,0.62,927.76,-4.29,5.6,8.58,270.37,-0.005,0.4144,0,20,1,0.6,4.5,0.75,0.35,0.0168,0.4,270.43,-3.148,-0.02,0.54,16.383,0.034,-0.148,0,0,0,269.41,0,0,0,0,0,0,0,0,0,0,0,0,0,2,2,324.41,FLYING
325.85,APPROACH,ILS_TRACK,75.78,76,0.22,921.27,-4.3,5.44,8.41,270.37,-0.005,0.3272,0,20,1,0.6,4.5,0.75,0.35,0.0168,0.4,270.43,-3.193,-0.08,0.56,16.259,0.033,-0.193,0,0,0,269.41,0,0,0,0,0,0,0,0,0,0,0,0,0,2,2,325.92,FLYING
327.35,APPROACH,ILS_TRACK,76.24,76,-0.24,914.77,-4.31,5.27,8.23,270.38,-0.006,0.2319,0,19.896,1,0.6,4.5,0.75,0.35,0.0168,0.4,270.44,-3.237,-0.14,0.59,16.134,0.037,-0.237,0,0,0,269.41,0,0,0,0,0,0,0,0,0,0,0,0,0,2,2,327.42,FLYING
328.86,APPROACH,ILS_TRACK,76.65,76,-0.65,908.24,-4.34,5.17,8.13,270.38,-0.01,0.1556,0,19.581,1,0.6,4.5,0.75,0.35,0.0168,0.4,270.44,-3.275,-0.2,0.64,16.008,0.037,-0.275,0,0,0,269.41,0,0,0,0,0,0,0,0,0,0,0,0,0,2,2,328.93,FLYING
330.36,APPROACH,ILS_TRACK,76.78,76,-0.78,901.69,-4.36,5.19,8.17,270.38,-0.014,0.1433,0,19.191,1,0.6,4.5,0.75,0.35,0.0168,0.4,270.44,-3.29,-0.26,0.7,15.883,0.038,-0.29,0,0,0,269.41,0,0,0,0,0,0,0,0,0,0,0,0,0,2,2,330.43,FLYING
331.87,APPROACH,ILS_TRACK,76.55,76,-0.55,895.13,-4.38,5.32,8.32,270.38,-0.013,0.207,0,18.905,1,0.6,4.5,0.75,0.35,0.0168,0.4,270.44,-3.262,-0.31,0.72,15.757,0.037,-0.262,0,0,0,269.41,0,0,0,0,0,0,0,0,0,0,0,0,0,2,2,331.94,FLYING
333.37,APPROACH,ILS_TRACK,76.11,76,-0.11,888.57,-4.37,5.48,8.49,270.38,-0.011,0.3098,0,18.833,1,0.6,4.5,0.75,0.35,0.0168,0.4,270.44,-3.206,-0.35,0.72,15.632,0.036,-0.206,0,0,0,269.41,0,0,0,0,0,0,0,0,0,0,0,0,0,2,2,333.44,FLYING
334.88,APPROACH,ILS_TRACK,75.68,76,0.32,882.03,-4.35,5.61,8.63,270.39,-0.01,0.4026,0,18.978,1,0.6,4.5,0.75,0.35,0.0168,0.4,270.44,-3.157,-0.39,0.69,15.507,0.036,-0.157,0,0,0,269.41,0,0,0,0,0,0,0,0,0,0,0,0,0,2,2,334.95,FLYING
336.38,APPROACH,ILS_TRACK,75.35,76,0.65,875.51,-4.33,5.71,8.73,270.39,-0.009,0.4674,0,19.294,1,0.6,4.5,0.75,0.35,0.0168,0.4,270.44,-3.126,-0.43,0.64,15.384,0.036,-0.126,0,0,0,269.41,0,0,0,0,0,0,0,0,0,0,0,0,0,2,2,336.45,FLYING
337.89,APPROACH,ILS_TRACK,75.17,76,0.83,869.02,-4.31,5.74,8.75,270.39,-0.005,0.4941,0,19.705,1,0.6,4.5,0.75,0.35,0.0168,0.4,270.44,-3.112,-0.46,0.6,15.261,0.036,-0.112,0,0,0,269.41,0,0,0,0,0,0,0,0,0,0,0,0,0,2,2,337.96,FLYING
339.39,APPROACH,ILS_TRACK,75.19,76,0.81,862.54,-4.29,5.7,8.7,270.39,-0.001,0.4771,0,20,1,0.6,4.5,0.75,0.35,0.0168,0.4,270.44,-3.119,-0.5,0.57,15.138,0.037,-0.119,0,0,0,269.41,0,0,0,0,0,0,0,0,0,0,0,0,0,2,2,339.46,FLYING
340.9,APPROACH,ILS_TRACK,75.41,76,0.59,856.08,-4.28,5.59,8.58,270.39,0.001,0.4188,0,20,1,0.6,4.5,0.75,0.35,0.0168,0.4,270.44,-3.146,-0.53,0.56,15.014,0.037,-0.146,0,0,0,269.41,0,0,0,0,0,0,0,0,0,0,0,0,0,2,2,340.97,FLYING
342.4,APPROACH,ILS_TRACK,75.78,76,0.22,849.61,-4.28,5.44,8.42,270.39,0.001,0.3358,0,20,1,0.6,4.5,0.75,0.35,0.0168,0.4,270.44,-3.188,-0.56,0.57,14.891,0.039,-0.188,0,0,0,269.41,0,0,0,0,0,0,0,0,0,0,0,0,0,2,2,342.47,FLYING
343.91,APPROACH,ILS_TRACK,76.23,76,-0.23,843.13,-4.29,5.28,8.24,270.39,-0.003,0.2424,0,19.904,1,0.6,4.5,0.75,0.35,0.0168,0.4,270.44,-3.231,-0.6,0.6,14.767,0.041,-0.231,0,0,0,269.41,0,0,0,0,0,0,0,0,0,0,0,0,0,2,2,343.98,FLYING
345.41,APPROACH,ILS_TRACK,76.64,76,-0.64,836.63,-4.32,5.17,8.13,270.39,-0.005,0.1634,0,19.594,1,0.6,4.5,0.75,0.35,0.0168,0.4,270.44,-3.27,-0.63,0.65,14.642,0.042,-0.27,0,0,0,269.41,0,0,0,0,0,0,0,0,0,0,0,0,0,2,2,345.48,FLYING
346.92,APPROACH,ILS_TRACK,76.81,76,-0.81,830.11,-4.34,5.17,8.15,270.39,-0.005,0.1418,0,19.191,1,0.6,4.5,0.75,0.35,0.0168,0.4,270.44,-3.288,-0.66,0.7,14.517,0.042,-0.288,0,0,0,269.41,0,0,0,0,0,0,0,0,0,0,0,0,0,2,2,346.99,FLYING
348.42,APPROACH,ILS_TRACK,76.62,76,-0.62,823.57,-4.36,5.29,8.29,270.39,-0.007,0.1957,0,18.87,1,0.6,4.5,0.75,0.35,0.0168,0.4,270.44,-3.268,-0.69,0.73,14.391,0.043,-0.268,0,0,0,269.41,0,0,0,0,0,0,0,0,0,0,0,0,0,2,2,348.49,FLYING
349.93,APPROACH,ILS_TRACK,76.2,76,-0.2,817.04,-4.36,5.44,8.46,270.39,-0.007,0.2945,0,18.753,1,0.6,4.5,0.75,0.35,0.0168,0.4,270.44,-3.215,-0.72,0.73,14.267,0.042,-0.215,0,0,0,269.41,0,0,0,0,0,0,0,0,0,0,0,0,0,2,2,350,FLYING
351.43,APPROACH,ILS_TRACK,75.76,76,0.24,810.51,-4.34,5.59,8.61,270.39,-0.005,0.3898,0,18.856,1,0.6,4.5,0.75,0.35,0.0168,0.4,270.44,-3.164,-0.74,0.7,14.143,0.043,-0.164,0,0,0,269.41,0,0,0,0,0,0,0,0,0,0,0,0,0,2,2,351.5,FLYING
352.94,APPROACH,ILS_TRACK,75.41,76,0.59,804.02,-4.32,5.69,8.71,270.39,-0.003,0.4587,0,19.14,1,0.6,4.5,0.75,0.35,0.0168,0.4,270.44,-3.129,-0.77,0.66,14.019,0.043,-0.129,0,0,0,269.41,0,0,0,0,0,0,0,0,0,0,0,0,0,2,2,353.01,FLYING
354.44,APPROACH,ILS_TRACK,75.21,76,0.79,797.54,-4.29,5.72,8.74,270.39,-0.003,0.49,0,19.529,1,0.6,4.5,0.75,0.35,0.0168,0.4,270.44,-3.113,-0.79,0.61,13.897,0.043,-0.113,0,0,0,269.41,0,0,0,0,0,0,0,0,0,0,0,0,0,2,2,354.51,FLYING
