t_s,phase,subphase,ias_ms,vapp_ms,spd_err_ms,agl_m,vs_ms,pitch_deg,aoa_deg,hdg_deg,bank_deg,thr_cmd,thr_cur,thr_intg,at_gain,at_tau_s,at_a_up,at_a_dn,at_kp_thr,at_ki_spd,at_thr_slew,as_cmd_deg,as_cap_deg,as_raw_deg,as_spd_err_ms,as_active,aa_hdg_cmd_deg,aa_fpa_cmd_deg,aa_fbw,aa_dir,actual_fpa_deg,ftf_hdg_err_deg,ftf_fix_idx,kos_steer_pit_deg,kos_steer_hdg_deg,aa_dir_vx,aa_dir_vy,aa_dir_vz,aa_dir_pitch_deg,aa_dir_hdg_deg,ils_loc_m,ils_gs_m,ils_dist_km,loc_corr_deg,gs_corr_deg,gs_latched,active_gs_ang_deg,ils_intercept_alt_m,d_gs_ms,fpa_preclamped_deg,gs_nom_alt_m,flare_fpa_cmd,flare_tgt_vs,flare_frac,steer_hdg_deg,steer_blend,ro_loc_corr_deg,ro_hdg_err_deg,ro_yaw_tgt,ro_yaw_scale,ro_yaw_gate,yaw_cmd,roll_cmd,pitch_cmd,ro_pitch_tgt_deg,ro_pitch_err_deg,ro_pitch_ff,ro_roll_assist,flaps_cur,flaps_tgt,asc_j_ab,asc_j_rk,asc_validity,asc_q_pa,asc_q_raw_pa,asc_mach,asc_apo_m,asc_drag_n,asc_w_prop,asc_edot_aero,asc_edot_orb,asc_pitch_bias,asc_blend,asc_spooling,asc_ab_thr_ratio,asc_ab_t_now,asc_ab_t_avail,asc_ab_ign_on,asc_ab_flameouts,asc_rk_t_now,asc_rk_t_avail,asc_rk_ign_on,asc_rk_flameouts,ship_thrust,ship_avail_thrust,ship_ign_on,ship_flameouts,ifc_raw_dt_s,ifc_dt_s,ifc_loop_n,ifc_hz_est,ifc_raw_dt_max_s,ifc_raw_dt_min_s,phase_el_s,status,craft_name,cfg_file
2.48,TAKEOFF,TO_PREFLIGHT,0.51,80,79.49,3.64,0,-0.15,0.14,90.13,0.105,0.048,0,0,0,0,0,0,0,0,0,0,0,0,0,0,90.4,0,1,0,-8.33,0,0,0,90,0,0,0,0,0,0,0,0,0,0,0,3,0,0,0,69,0,0,0,90.4,1,0,-0.274,0,0,1,0,0,0,0,0,0,0,0,2,0,0,VALID,0,0,0,0,0,1,0,0,0,0,0,0,0,0,0,0,0,0,0,0,0,877.74,2,0,0.12,0.12,1,0.38,0.12,0.02,2.36,LANDED,X10-G,0:/Integrated Flight Computer/aircraft/x10_g_cfg.ks (inferred preloaded)
2.76,TAKEOFF,TO_PREFLIGHT,0.51,80,79.49,3.64,0,-0.22,0.15,89.96,0.106,0.328,0,0,0,0,0,0,0,0,0,0,0,0,0,0,90.4,0,1,0,-0.13,0,0,0,90,0,0,0,0,0,0,0,0,0,0,0,3,0,0,0,69,0,0,0,90.4,1,0,-0.274,0,0,1,0,0,0,0,0,0,0,1,2,0,0,VALID,0,0,0,0,0,1,0,0,0,0,0,0,0,0,0,0,0,0,0,0,8.05,877.74,2,0,0.06,0.06,5,14.29,2.44,0.06,2.64,LANDED,X10-G,0:/Integrated Flight Computer/aircraft/x10_g_cfg.ks (inferred preloaded)
3.02,TAKEOFF,TO_PREFLIGHT,0.44,80,79.56,3.63,0.01,-0.26,-1.56,89.94,0.106,0.432,0,0,0,0,0,0,0,0,0,0,0,0,0,0,90.4,0,1,0,0.52,0,0,0,90,0,0,0,0,0,0,0,0,0,0,0,3,0,0,0,69,0,0,0,90.4,1,0,-0.274,0,0,1,0,0,0,0,0,0,0,2,2,0,0,VALID,0,0,0,0,0,1,0,0,0,0,0,0,0,0,0,0,0,0,0,0,23.26,877.74,2,0,0.06,0.06,9,15.38,0.08,0.04,2.9,LANDED,X10-G,0:/Integrated Flight Computer/aircraft/x10_g_cfg.ks (inferred preloaded)
3.28,TAKEOFF,TO_PREFLIGHT,0.27,80,79.73,3.62,0,-0.28,0.64,89.92,0.106,0.536,0,0,0,0,0,0,0,0,0,0,0,0,0,0,90.4,0,1,0,-0.24,0,0,0,90,0,0,0,0,0,0,0,0,0,0,0,3,0,0,0,69,0,0,0,90.4,1,0,-0.274,0,0,1,0,0,0,0,0,0,0,2,2,0,0,VALID,0,0,0,0,0,1,0,0,0,0,0,0,0,0,0,0,0,0,0,0,42.34,877.74,2,0,0.06,0.06,13,15.38,0.08,0.04,3.16,LANDED,X10-G,0:/Integrated Flight Computer/aircraft/x10_g_cfg.ks (inferred preloaded)
3.54,TAKEOFF,TO_PREFLIGHT,0.06,80,79.94,3.62,0,-0.27,43.36,89.92,0.106,0.64,0,0,0,0,0,0,0,0,0,0,0,0,0,0,90.4,0,1,0,-0.04,0,0,0,90,0,0,0,0,0,0,0,0,0,0,0,3,0,0,0,69,0,0,0,90.4,1,0,-0.274,0,0,1,0,0,0,0,0,0,0,2,2,0,0,VALID,0,0,0,0,0,1,0,0,0,0,0,0,0,0,0,0,0,0,0,0,65.08,877.74,2,0,0.06,0.06,17,15.38,0.08,0.04,3.42,LANDED,X10-G,0:/Integrated Flight Computer/aircraft/x10_g_cfg.ks (inferred preloaded)
3.8,TAKEOFF,TO_PREFLIGHT,0.01,80,79.99,3.64,-0.02,-0.22,54.55,89.92,0.107,0.744,0,0,0,0,0,0,0,0,0,0,0,0,0,0,90.4,0,1,0,-0.97,0,0,0,90,0,0,0,0,0,0,0,0,0,0,0,3,0,0,0,69,0,0,0,90.4,1,0,-0.274,0,0,1,0,0,0,0,0,0,0,2,2,0,0,VALID,0,0,0,0,0,1,0,0,0,0,0,0,0,0,0,0,0,0,0,0,91.31,877.74,2,0,0.06,0.06,21,15.38,0.08,0.04,3.68,LANDED,X10-G,0:/Integrated Flight Computer/aircraft/x10_g_cfg.ks (inferred preloaded)
4.06,TAKEOFF,TO_PREFLIGHT,0.04,80,79.96,3.63,0.02,-0.25,-24.05,89.91,0.106,0.848,0,0,0,0,0,0,0,0,0,0,0,0,0,0,90.4,0,1,0,1.3,0,0,0,90,0,0,0,0,0,0,0,0,0,0,0,3,0,0,0,69,0,0,0,90.4,1,0,-0.274,0,0,1,0,0,0,0,0,0,0,2,2,0,0,VALID,0,0,0,0,0,1,0,0,0,0,0,0,0,0,0,0,0,0,0,0,120.83,877.74,2,0,0.06,0.06,25,15.38,0.08,0.04,3.94,LANDED,X10-G,0:/Integrated Flight Computer/aircraft/x10_g_cfg.ks (inferred preloaded)
4.32,TAKEOFF,TO_PREFLIGHT,0.05,80,79.95,3.62,-0.01,-0.28,5.26,89.91,0.105,0.952,0,0,0,0,0,0,0,0,0,0,0,0,0,0,90.4,0,1,0,-0.4,0,0,0,90,0,0,0,0,0,0,0,0,0,0,0,3,0,0,0,69,0,0,0,90.4,1,0,-0.274,0,0,1,0,0,0,0,0,0,0,2,2,0,0,VALID,0,0,0,0,0,1,0,0,0,0,0,0,0,0,0,0,0,0,0,0,153.49,877.74,2,0,0.06,0.06,29,15.38,0.08,0.04,4.2,LANDED,X10-G,0:/Integrated Flight Computer/aircraft/x10_g_cfg.ks (inferred preloaded)
4.58,TAKEOFF,TO_PREFLIGHT,0.04,80,79.96,3.63,0,-0.27,4.58,89.91,0.107,1,0,0,0,0,0,0,0,0,0,0,0,0,0,0,90.4,0,1,0,-0.11,0,0,0,90,0,0,0,0,0,0,0,0,0,0,0,3,0,0,0,69,0,0,0,90.4,1,0,-0.274,0,0,1,0,0,0,0,0,0,0,2,2,0,0,VALID,0,0,0,0,0,1,0,0,0,0,0,0,0,0,0,0,0,0,0,0,189.02,877.74,2,0,0.06,0.06,33,15.38,0.08,0.04,4.46,LANDED,X10-G,0:/Integrated Flight Computer/aircraft/x10_g_cfg.ks (inferred preloaded)
4.84,TAKEOFF,TO_PREFLIGHT,0.06,80,79.94,3.62,0.01,-0.28,-5.85,89.91,0.106,1,0,0,0,0,0,0,0,0,0,0,0,0,0,0,90.4,0,1,0,0.37,0,0,0,90,0,0,0,0,0,0,0,0,0,0,0,3,0,0,0,69,0,0,0,90.4,1,0,-0.274,0,0,1,0,0,0,0,0,0,0,2,2,0,0,VALID,0,0,0,0,0,1,0,0,0,0,0,0,0,0,0,0,0,0,0,0,223.99,877.74,2,0,0.06,0.06,37,15.38,0.08,0.04,4.72,LANDED,X10-G,0:/Integrated Flight Computer/aircraft/x10_g_cfg.ks (inferred preloaded)
5.1,TAKEOFF,TO_PREFLIGHT,0.08,80,79.92,3.62,0,-0.3,-0.35,89.92,0.106,1,0,0,0,0,0,0,0,0,0,0,0,0,0,0,90.4,0,1,0,-0.02,0,0,0,90,0,0,0,0,0,0,0,0,0,0,0,3,0,0,0,69,0,0,0,90.4,1,0,-0.274,0,0,1,0,0,0,0,0,0,0,2,2,0,0,VALID,0,0,0,0,0,1,0,0,0,0,0,0,0,0,0,0,0,0,0,0,257.18,877.74,2,0,0.06,0.06,41,15.38,0.08,0.04,4.98,LANDED,X10-G,0:/Integrated Flight Computer/aircraft/x10_g_cfg.ks (inferred preloaded)
5.36,TAKEOFF,TO_PREFLIGHT,0.08,80,79.92,3.62,0,-0.31,-0.04,89.92,0.106,1,0,0,0,0,0,0,0,0,0,0,0,0,0,0,90.4,0,1,0,-0.01,0,0,0,90,0,0,0,0,0,0,0,0,0,0,0,3,0,0,0,69,0,0,0,90.4,1,0,-0.274,0,0,1,0,0,0,0,0,0,0,2,2,0,0,VALID,0,0,0,0,0,1,0,0,0,0,0,0,0,0,0,0,0,0,0,0,288.68,877.73,2,0,0.06,0.06,45,15.38,0.08,0.04,5.24,LANDED,X10-G,0:/Integrated Flight Computer/aircraft/x10_g_cfg.ks (inferred preloaded)
5.62,TAKEOFF,TO_PREFLIGHT,0.09,80,79.91,3.61,0,-0.31,-1.13,89.93,0.107,1,0,0,0,0,0,0,0,0,0,0,0,0,0,0,90.4,0,1,0,0.09,0,0,0,90,0,0,0,0,0,0,0,0,0,0,0,3,0,0,0,69,0,0,0,90.4,1,0,-0.274,0,0,1,0,0,0,0,0,0,0,2,2,0,0,VALID,0,0,0,0,0,1,0,0,0,0,0,0,0,0,0,0,0,0,0,0,318.59,877.73,2,0,0.06,0.06,49,15.38,0.08,0.04,5.5,LANDED,X10-G,0:/Integrated Flight Computer/aircraft/x10_g_cfg.ks (inferred preloaded)
5.88,TAKEOFF,TO_PREFLIGHT,0.11,80,79.89,3.61,0,-0.33,-0.88,89.93,0.106,1,0,0,0,0,0,0,0,0,0,0,0,0,0,0,90.4,0,1,0,0.06,0,0,0,90,0,0,0,0,0,0,0,0,0,0,0,3,0,0,0,69,0,0,0,90.4,1,0,-0.274,0,0,1,0,0,0,0,0,0,0,2,2,0,0,VALID,0,0,0,0,0,1,0,0,0,0,0,0,0,0,0,0,0,0,0,0,346.98,877.73,2,0,0.06,0.06,53,15.38,0.08,0.04,5.76,LANDED,X10-G,0:/Integrated Flight Computer/aircraft/x10_g_cfg.ks (inferred preloaded)
6.14,TAKEOFF,TO_PREFLIGHT,0.12,80,79.88,3.61,0,-0.33,-0.27,89.94,0.106,1,0,0,0,0,0,0,0,0,0,0,0,0,0,0,90.4,0,1,0,-0.01,0,0,0,90,0,0,0,0,0,0,0,0,0,0,0,3,0,0,0,69,0,0,0,90.4,1,0,-0.274,0,0,1,0,0,0,0,0,0,0,2,2,0,0,VALID,0,0,0,0,0,1,0,0,0,0,0,0,0,0,0,0,0,0,0,0,373.92,877.73,2,0,0.06,0.06,57,15.38,0.08,0.04,6.02,LANDED,X10-G,0:/Integrated Flight Computer/aircraft/x10_g_cfg.ks (inferred preloaded)
6.4,TAKEOFF,TO_PREFLIGHT,0.12,80,79.88,3.61,0,-0.33,0.15,89.94,0.106,1,0,0,0,0,0,0,0,0,0,0,0,0,0,0,90.4,0,1,0,-0.06,0,0,0,90,0,0,0,0,0,0,0,0,0,0,0,3,0,0,0,69,0,0,0,90.4,1,0,-0.274,0,0,1,0,0,0,0,0,0,0,2,2,0,0,VALID,0,0,0,0,0,1,0,0,0,0,0,0,0,0,0,0,0,0,0,0,399.5,877.73,2,0,0.06,0.06,61,15.38,0.08,0.04,6.28,LANDED,X10-G,0:/Integrated Flight Computer/aircraft/x10_g_cfg.ks (inferred preloaded)
6.66,TAKEOFF,TO_PREFLIGHT,0.13,80,79.87,3.61,0,-0.34,-0.62,89.95,0.106,1,0,0,0,0,0,0,0,0,0,0,0,0,0,0,90.4,0,1,0,0.04,0,0,0,90,0,0,0,0,0,0,0,0,0,0,0,3,0,0,0,69,0,0,0,90.4,1,0,-0.274,0,0,1,0,0,0,0,0,0,0,2,2,0,0,VALID,0,0,0,0,0,1,0,0,0,0,0,0,0,0,0,0,0,0,0,0,423.78,877.73,2,0,0.06,0.06,65,15.38,0.08,0.04,6.54,LANDED,X10-G,0:/Integrated Flight Computer/aircraft/x10_g_cfg.ks (inferred preloaded)
6.92,TAKEOFF,TO_PREFLIGHT,0.14,80,79.86,3.61,0,-0.34,-0.17,89.96,0.106,1,0,0,0,0,0,0,0,0,0,0,0,0,0,0,90.4,0,1,0,-0.03,0,0,0,90,0,0,0,0,0,0,0,0,0,0,0,3,0,0,0,69,0,0,0,90.4,1,0,-0.274,0,0,1,0,0,0,0,0,0,0,2,2,0,0,VALID,0,0,0,0,0,1,0,0,0,0,0,0,0,0,0,0,0,0,0,0,446.83,877.73,2,0,0.06,0.06,69,15.38,0.08,0.04,6.8,LANDED,X10-G,0:/Integrated Flight Computer/aircraft/x10_g_cfg.ks (inferred preloaded)
7.18,TAKEOFF,TO_PREFLIGHT,0.15,80,79.85,3.61,0,-0.34,-0.1,89.97,0.106,1,0,0,0,0,0,0,0,0,0,0,0,0,0,0,90.4,0,1,0,-0.04,0,0,0,90,0,0,0,0,0,0,0,0,0,0,0,3,0,0,0,69,0,0,0,90.4,1,0,-0.274,0,0,1,0,0,0,0,0,0,0,2,2,0,0,VALID,0,0,0,0,0,1,0,0,0,0,0,0,0,0,0,0,0,0,0,0,468.7,877.73,2,0,0.06,0.06,73,15.38,0.08,0.04,7.06,LANDED,X10-G,0:/Integrated Flight Computer/aircraft/x10_g_cfg.ks (inferred preloaded)
7.44,TAKEOFF,TO_PREFLIGHT,0.16,80,79.84,3.6,0,-0.35,-0.31,89.97,0.106,1,0,0,0,0,0,0,0,0,0,0,0,0,0,0,90.4,0,1,0,0,0,0,0,90,0,0,0,0,0,0,0,0,0,0,0,3,0,0,0,69,0,0,0,90.4,1,0,-0.274,0,0,1,0,0,0,0,0,0,0,2,2,0,0,VALID,0,0,0,0,0,1,0,0,0,0,0,0,0,0,0,0,0,0,0,0,489.47,877.73,2,0,0.06,0.06,77,15.38,0.08,0.04,7.32,LANDED,X10-G,0:/Integrated Flight Computer/aircraft/x10_g_cfg.ks (inferred preloaded)
7.7,TAKEOFF,TO_PREFLIGHT,0.16,80,79.84,3.6,0,-0.35,-0.18,89.98,0.105,1,0,0,0,0,0,0,0,0,0,0,0,0,0,0,90.4,0,1,0,-0.03,0,0,0,90,0,0,0,0,0,0,0,0,0,0,0,3,0,0,0,69,0,0,0,90.4,1,0,-0.274,0,0,1,0,0,0,0,0,0,0,2,2,0,0,VALID,0,0,0,0,0,1,0,0,0,0,0,0,0,0,0,0,0,0,0,0,509.18,877.73,2,0,0.06,0.06,81,15.38,0.08,0.04,7.58,LANDED,X10-G,0:/Integrated Flight Computer/aircraft/x10_g_cfg.ks (inferred preloaded)
7.96,TAKEOFF,TO_PREFLIGHT,0.17,80,79.83,3.6,0,-0.35,-0.13,89.99,0.105,1,0,0,0,0,0,0,0,0,0,0,0,0,0,0,90.4,0,1,0,-0.04,0,0,0,90,0,0,0,0,0,0,0,0,0,0,0,3,0,0,0,69,0,0,0,90.4,1,0,-0.274,0,0,1,0,0,0,0,0,0,0,2,2,0,0,VALID,0,0,0,0,0,1,0,0,0,0,0,0,0,0,0,0,0,0,0,0,527.89,877.73,2,0,0.06,0.06,85,15.38,0.08,0.04,7.84,LANDED,X10-G,0:/Integrated Flight Computer/aircraft/x10_g_cfg.ks (inferred preloaded)
8.22,TAKEOFF,TO_PREFLIGHT,0.18,80,79.82,3.6,0,-0.36,-0.23,90,0.105,1,0,0,0,0,0,0,0,0,0,0,0,0,0,0,90.4,0,1,0,-0.03,0,0,0,90,0,0,0,0,0,0,0,0,0,0,0,3,0,0,0,69,0,0,0,90.4,1,0,-0.274,0,0,1,0,0,0,0,0,0,0,2,2,0,0,VALID,0,0,0,0,0,1,0,0,0,0,0,0,0,0,0,0,0,0,0,0,545.65,877.72,2,0,0.06,0.06,89,15.38,0.08,0.04,8.1,LANDED,X10-G,0:/Integrated Flight Computer/aircraft/x10_g_cfg.ks (inferred preloaded)
8.48,TAKEOFF,TO_PREFLIGHT,0.18,80,79.82,3.6,0,-0.36,-0.15,90.01,0.106,1,0,0,0,0,0,0,0,0,0,0,0,0,0,0,90.4,0,1,0,-0.04,0,0,0,90,0,0,0,0,0,0,0,0,0,0,0,3,0,0,0,69,0,0,0,90.4,1,0,-0.274,0,0,1,0,0,0,0,0,0,0,2,2,0,0,VALID,0,0,0,0,0,1,0,0,0,0,0,0,0,0,0,0,0,0,0,0,562.51,877.72,2,0,0.06,0.06,93,15.38,0.08,0.04,8.36,LANDED,X10-G,0:/Integrated Flight Computer/aircraft/x10_g_cfg.ks (inferred preloaded)
8.74,TAKEOFF,TO_PREFLIGHT,0.19,80,79.81,3.6,0,-0.36,-0.05,90.02,0.103,1,0,0,0,0,0,0,0,0,0,0,0,0,0,0,90.4,0,1,0,-0.06,0,0,0,90,0,0,0,0,0,0,0,0,0,0,0,3,0,0,0,69,0,0,0,90.4,1,0,-0.274,0,0,1,0,0,0,0,0,0,0,2,2,0,0,VALID,0,0,0,0,0,1,0,0,0,0,0,0,0,0,0,0,0,0,0,0,578.51,877.72,2,0,0.06,0.06,97,15.38,0.08,0.04,8.62,LANDED,X10-G,0:/Integrated Flight Computer/aircraft/x10_g_cfg.ks (inferred preloaded)
9,TAKEOFF,TO_PREFLIGHT,0.22,80,79.78,3.6,0,-0.36,-0.01,90.04,0.105,1,0,0,0,0,0,0,0,0,0,0,0,0,0,0,90.4,0,1,0,-0.09,0,0,0,90,0,0,0,0,0,0,0,0,0,0,0,3,0,0,0,69,0,0,0,90.4,1,0,-0.274,0,0,1,0,0,0,0,0,0,0,2,2,0,0,VALID,0,0,0,0,0,1,0,0,0,0,0,0,0,0,0,0,0,0,0,0,593.7,877.72,2,0,0.06,0.06,101,15.38,0.08,0.04,8.88,LANDED,X10-G,0:/Integrated Flight Computer/aircraft/x10_g_cfg.ks (inferred preloaded)
9.26,TAKEOFF,TO_PREFLIGHT,0.27,80,79.73,3.6,0,-0.36,-0.07,90.05,0.107,1,0,0,0,0,0,0,0,0,0,0,0,0,0,0,90.4,0,1,0,-0.09,0,0,0,90,0,0,0,0,0,0,0,0,0,0,0,3,0,0,0,69,0,0,0,90.4,1,0,-0.274,0,0,1,0,0,0,0,0,0,0,2,2,0,0,VALID,0,0,0,0,0,1,0,0,0,0,0,0,0,0,0,0,0,0,0,0,608.12,877.72,2,0,0.06,0.06,105,15.38,0.08,0.04,9.14,LANDED,X10-G,0:/Integrated Flight Computer/aircraft/x10_g_cfg.ks (inferred preloaded)
9.52,TAKEOFF,TO_PREFLIGHT,0.35,80,79.65,3.6,0,-0.36,-0.05,90.07,0.105,1,0,0,0,0,0,0,0,0,0,0,0,0,0,0,90.4,0,1,0,-0.12,0,0,0,90,0,0,0,0,0,0,0,0,0,0,0,3,0,0,0,69,0,0,0,90.4,1,0,-0.274,0,0,1,0,0,0,0,0,0,0,2,2,0,0,VALID,0,0,0,0,0,1,0,0,0,0,0,0,0,0,0,0,0,0,0,0,621.81,877.72,2,0,0.06,0.06,109,15.38,0.08,0.04,9.4,LANDED,X10-G,0:/Integrated Flight Computer/aircraft/x10_g_cfg.ks (inferred preloaded)
9.78,TAKEOFF,TO_PREFLIGHT,0.44,80,79.56,3.6,0,-0.36,-0.05,90.09,0.104,1,0,0,0,0,0,0,0,0,0,0,0,0,0,0,90.4,0,1,0,-0.16,0,0,0,90,0,0,0,0,0,0,0,0,0,0,0,3,0,0,0,69,0,0,0,90.4,1,0,-0.274,0,0,1,0,0,0,0,0,0,0,2,2,0,0,VALID,0,0,0,0,0,1,0,0,0,0,0,0,0,0,0,0,0,0,0,0,634.8,877.72,2,0,0.06,0.06,113,15.38,0.08,0.04,9.66,LANDED,X10-G,0:/Integrated Flight Computer/aircraft/x10_g_cfg.ks (inferred preloaded)
10.04,TAKEOFF,TO_PREFLIGHT,0.56,80,79.44,3.6,0,-0.36,-0.05,90.11,0.105,1,0,0,0,0,0,0,0,0,0,0,0,0,0,0,90.4,0,1,0,-0.19,0,0,0,90,0,0,0,0,0,0,0,0,0,0,0,3,0,0,0,69,0,0,0,90.4,1,0,-0.274,0,0,1,0,0,0,0,0,0,0,2,2,0,0,VALID,0,0,0,0,0,1,0,0,0,0,0,0,0,0,0,0,0,0,0,0,647.13,877.72,2,0,0.06,0.06,117,15.38,0.08,0.04,9.92,LANDED,X10-G,0:/Integrated Flight Computer/aircraft/x10_g_cfg.ks (inferred preloaded)
10.3,TAKEOFF,TO_PREFLIGHT,0.68,80,79.32,3.6,0,-0.36,-0.11,90.13,0.105,1,0,0,0,0,0,0,0,0,0,0,0,0,0,0,90.4,0,1,0,-0.19,0,0,0,90,0,0,0,0,0,0,0,0,0,0,0,3,0,0,0,69,0,0,0,90.4,1,0,-0.274,0,0,1,0,0,0,0,0,0,0,2,2,0,0,VALID,0,0,0,0,0,1,0,0,0,0,0,0,0,0,0,0,0,0,0,0,658.84,877.72,2,0,0.06,0.06,121,15.38,0.08,0.04,10.18,LANDED,X10-G,0:/Integrated Flight Computer/aircraft/x10_g_cfg.ks (inferred preloaded)
10.56,TAKEOFF,TO_PREFLIGHT,0.78,80,79.22,3.6,0,-0.37,-0.13,90.15,0.105,1,0,0,0,0,0,0,0,0,0,0,0,0,0,0,90.4,0,1,0,-0.2,0,0,0,90,0,0,0,0,0,0,0,0,0,0,0,3,0,0,0,69,0,0,0,90.4,1,0,-0.274,0,0,1,0,0,0,0,0,0,0,2,2,0,0,VALID,0,0,0,0,0,1,0,0,0,0,0,0,0,0,0,0,0,0,0,0,669.95,877.71,2,0,0.06,0.06,125,15.38,0.08,0.04,10.44,LANDED,X10-G,0:/Integrated Flight Computer/aircraft/x10_g_cfg.ks (inferred preloaded)
10.82,TAKEOFF,TO_PREFLIGHT,0.86,80,79.14,3.6,0,-0.37,-0.1,90.17,0.105,1,0,0,0,0,0,0,0,0,0,0,0,0,0,0,90.4,0,1,0,-0.25,0,0,0,90,0,0,0,0,0,0,0,0,0,0,0,3,0,0,0,69,0,0,0,90.4,1,0,-0.274,0,0,1,0,0,0,0,0,0,0,2,2,0,0,VALID,0,0,0,0,0,1,0,0,0,0,0,0,0,0,0,0,0,0,0,0,680.5,877.71,2,0,0.06,0.06,129,15.38,0.08,0.04,10.7,LANDED,X10-G,0:/Integrated Flight Computer/aircraft/x10_g_cfg.ks (inferred preloaded)
11.08,TAKEOFF,TO_GROUND_ROLL,0.91,80,79.09,3.6,0,-0.37,-0.1,90.18,0.104,1,0,0,0,0,0,0,0,0,0,0,0,0,0,0,90.23,0,1,0,-0.28,0,0,0,90,0,0,0,0,0,0,0,0,0.002,0,0,3,0,0,0,69,0,0,0,90.23,1,0.002,-0.05,-0.02,0.559,0,-0.02,0,0,0,0,0,0,2,2,0,0,VALID,0,0,0,0,0,1,0,0,0,0,0,0,0,0,0,0,0,0,0,0,690.51,877.71,2,0,0.06,0.06,133,15.38,0.08,0.04,10.98,LANDED,X10-G,0:/Integrated Flight Computer/aircraft/x10_g_cfg.ks (inferred preloaded)
11.36,TAKEOFF,TO_GROUND_ROLL,1.51,80,78.49,3.65,-0.07,-0.17,1.75,90.2,0.109,1,0,0,0,0,0,0,0,0,0,0,0,0,0,0,90.39,0,1,0,-2.48,0,0,0,90,0,0,0,0,0,0,0,0,0.002,0,0,3,0,0,0,69,0,0,0,90.39,1,0.002,-0.191,0.0171,0.565,0,0.0171,0,0,0,0,0,0,2,2,0,0,VALID,0,0,0,0,0,1,0,0,0,0,0,0,0,0,0,0,0,0,0,0,700.72,877.7,2,0,0.06,0.06,137,14.29,0.08,0.06,11.26,LANDED,X10-G,0:/Integrated Flight Computer/aircraft/x10_g_cfg.ks (inferred preloaded)
11.64,TAKEOFF,TO_GROUND_ROLL,2.68,80,77.32,3.68,0.03,-0.08,-0.53,90.21,0.1,1,0,0,0,0,0,0,0,0,0,0,0,0,0,0,90.39,0,1,0,0.55,0,0,0,90,0,0,0,0,0,0,0,0,0.002,0,0,3,0,0,0,69,0,0,0,90.39,1,0.002,-0.179,0.0165,0.577,0,0.0165,0,0,0,0,0,0,2,2,0,0,VALID,0,0,0,0,0,1,0,0,0,0,0,0,0,0,0,0,0,0,0,0,710.35,877.67,2,0,0.06,0.06,141,14.29,0.08,0.06,11.54,LANDED,X10-G,0:/Integrated Flight Computer/aircraft/x10_g_cfg.ks (inferred preloaded)
11.92,TAKEOFF,TO_GROUND_ROLL,3.9,80,76.1,3.67,-0.05,-0.11,0.5,90.22,0.1,1,0,0,0,0,0,0,0,0,0,0,0,0,0,0,90.4,0,1,0,-0.74,0,0,0,90,0,0,0,0,0,0,0,0,0.002,0,0,3,0,0,0,69,0,0,0,90.4,1,0.002,-0.172,0.0163,0.589,0,0.0163,0,0,0,0,0,0,2,2,0,0,VALID,0,0,0,0,0,1,0,0,0,0,0,0,0,0,0,0,0,0,0,0,719.45,877.63,2,0,0.06,0.06,145,14.29,0.08,0.06,11.82,LANDED,X10-G,0:/Integrated Flight Computer/aircraft/x10_g_cfg.ks (inferred preloaded)
12.2,TAKEOFF,TO_GROUND_ROLL,5.13,80,74.87,3.65,-0.02,-0.17,0.03,90.23,0.105,1,0,0,0,0,0,0,0,0,0,0,0,0,0,0,90.4,0,1,0,-0.21,0,0,0,90,0,0,0,0,0,0,0,0,0.001,0,0,3,0,0,0,69,0,0,0,90.4,1,0.001,-0.167,0.0166,0.601,0,0.0166,0,0,0,0,0,0,2,2,0,0,VALID,0,0,0,0,0,1,0,0,0,0,0,0,0,0,0,0,0,0,0,0,728.03,877.57,2,0,0.06,0.06,149,14.29,0.08,0.06,12.1,LANDED,X10-G,0:/Integrated Flight Computer/aircraft/x10_g_cfg.ks (inferred preloaded)
12.48,TAKEOFF,TO_GROUND_ROLL,6.38,80,73.62,3.63,-0.04,-0.24,0.1,90.23,0.102,1,0,0,0,0,0,0,0,0,0,0,0,0,0,0,90.4,0,1,0,-0.38,0,0,0,90,0,0,0,0,0,0,0,0,0.001,0,0,3,0,0,0,69,0,0,0,90.4,1,0.001,-0.165,0.0169,0.614,0,0.0169,0,0,0,0,0,0,2,2,0,0,VALID,0,0,0,0,0,1,0,0,0,0,0,0,0,0,0,0,0,0,0,0,736.13,877.5,2,0,0.06,0.06,153,14.29,0.08,0.06,12.38,LANDED,X10-G,0:/Integrated Flight Computer/aircraft/x10_g_cfg.ks (inferred preloaded)
12.76,TAKEOFF,TO_GROUND_ROLL,7.64,80,72.36,3.64,-0.05,-0.2,0.16,90.24,0.101,1,0,0,0,0,0,0,0,0,0,0,0,0,0,0,90.4,0,1,0,-0.41,0,0,0,90,0,0,0,0,0,0,0,0,0.001,0,0,3,0,0,0,69,0,0,0,90.4,1,0.001,-0.163,0.0169,0.626,0,0.0169,0,0,0,0,0,0,2,2,0,0,VALID,0,0,0,0,0,1,0,0,0,0,0,0,0,0,0,0,0,0,0,0,743.77,877.4,2,0,0.06,0.06,157,14.29,0.08,0.06,12.66,LANDED,X10-G,0:/Integrated Flight Computer/aircraft/x10_g_cfg.ks (inferred preloaded)
13.04,TAKEOFF,TO_GROUND_ROLL,8.91,80,71.09,3.64,-0.05,-0.2,0.07,90.24,0.103,1,0,0,0,0,0,0,0,0,0,0,0,0,0,0,90.4,0,1,0,-0.29,0,0,0,90,0,0,0,0,0,0,0,0,0,0,0,3,0,0,0,69,0,0,0,90.4,1,0,-0.162,0.0173,0.639,0,0.0173,0,0,0,0,0,0,2,2,0,0,VALID,0,0,0,0,0,1,0,0,0,0,0,0,0,0,0,0,0,0,0,0,750.97,877.3,2,0,0.06,0.06,161,14.29,0.08,0.06,12.94,LANDED,X10-G,0:/Integrated Flight Computer/aircraft/x10_g_cfg.ks (inferred preloaded)
13.32,TAKEOFF,TO_GROUND_ROLL,10.2,80,69.8,3.64,-0.06,-0.23,0.08,90.24,0.103,1,0,0,0,0,0,0,0,0,0,0,0,0,0,0,90.4,0,1,0,-0.34,0,0,0,90,0,0,0,0,0,0,0,0,0,0,0,3,0,0,0,69,0,0,0,90.4,1,0,-0.162,0.0178,0.652,0,0.0178,0,0,0,0,0,0,2,2,0,0,VALID,0,0,0,0,0,1,0,0,0,0,0,0,0,0,0,0,0,0,0,0,757.76,877.18,2,0,0.06,0.06,165,14.29,0.08,0.06,13.22,LANDED,X10-G,0:/Integrated Flight Computer/aircraft/x10_g_cfg.ks (inferred preloaded)
13.6,TAKEOFF,TO_GROUND_ROLL,11.49,80,68.51,3.64,-0.07,-0.21,0.12,90.24,0.102,1,0,0,0,0,0,0,0,0,0,0,0,0,0,0,90.4,0,1,0,-0.36,0,0,0,90,0,0,0,0,0,0,0,0,-0.001,0,0,3,0,0,0,69,0,0,0,90.4,1,-0.001,-0.161,0.018,0.665,0,0.018,0,0,0,0,0,0,2,2,0,0,VALID,0,0,0,0,0,1,0,0,0,0,0,0,0,0,0,0,0,0,0,0,764.16,877.04,2,0,0.06,0.06,169,14.29,0.08,0.06,13.5,LANDED,X10-G,0:/Integrated Flight Computer/aircraft/x10_g_cfg.ks (inferred preloaded)
13.88,TAKEOFF,TO_GROUND_ROLL,12.8,80,67.2,3.64,-0.07,-0.22,0.07,90.24,0.102,1,0,0,0,0,0,0,0,0,0,0,0,0,0,0,90.4,0,1,0,-0.31,0,0,0,90,0,0,0,0,0,0,0,0,-0.002,0,0,3,0,0,0,69,0,0,0,90.4,1,-0.002,-0.16,0.0183,0.678,0,0.0183,0,0,0,0,0,0,2,2,0,0,VALID,0,0,0,0,0,1,0,0,0,0,0,0,0,0,0,0,0,0,0,0,770.19,876.89,2,0,0.06,0.06,173,14.29,0.08,0.06,13.78,LANDED,X10-G,0:/Integrated Flight Computer/aircraft/x10_g_cfg.ks (inferred preloaded)
14.16,TAKEOFF,TO_GROUND_ROLL,14.12,80,65.88,3.64,-0.08,-0.22,0.1,90.24,0.102,1,0,0,0,0,0,0,0,0,0,0,0,0,0,0,90.4,0,1,0,-0.34,0,0,0,90,0,0,0,0,0,0,0,0,-0.002,0,0,3,0,0,0,69,0,0,0,90.4,1,-0.002,-0.16,0.0186,0.691,0,0.0186,0,0,0,0,0,0,2,2,0,0,VALID,0,0,0,0,0,1,0,0,0,0,0,0,0,0,0,0,0,0,0,0,775.87,876.73,2,0,0.06,0.06,177,14.29,0.08,0.06,14.06,LANDED,X10-G,0:/Integrated Flight Computer/aircraft/x10_g_cfg.ks (inferred preloaded)
14.44,TAKEOFF,TO_GROUND_ROLL,15.45,80,64.55,3.64,-0.09,-0.21,0.09,90.24,0.102,1,0,0,0,0,0,0,0,0,0,0,0,0,0,0,90.4,0,1,0,-0.32,0,0,0,90,0,0,0,0,0,0,0,0,-0.003,0,0,3,0,0,0,69,0,0,0,90.4,1,-0.003,-0.159,0.0188,0.704,0,0.0188,0,0,0,0,0,0,2,2,0,0,VALID,0,0,0,0,0,1,0,0,0,0,0,0,0,0,0,0,0,0,0,0,781.22,876.56,2,0,0.06,0.06,181,14.29,0.08,0.06,14.34,LANDED,X10-G,0:/Integrated Flight Computer/aircraft/x10_g_cfg.ks (inferred preloaded)
14.72,TAKEOFF,TO_GROUND_ROLL,16.79,80,63.21,3.64,-0.09,-0.22,0.08,90.24,0.102,1,0,0,0,0,0,0,0,0,0,0,0,0,0,0,90.4,0,1,0,-0.32,0,0,0,90,0,0,0,0,0,0,0,0,-0.004,0,0,3,0,0,0,69,0,0,0,90.4,1,-0.004,-0.158,0.019,0.718,0,0.019,0,0,0,0,0,0,2,2,0,0,VALID,0,0,0,0,0,1,0,0,0,0,0,0,0,0,0,0,0,0,0,0,786.26,876.37,2,0,0.06,0.06,185,14.29,0.08,0.06,14.62,LANDED,X10-G,0:/Integrated Flight Computer/aircraft/x10_g_cfg.ks (inferred preloaded)
15,TAKEOFF,TO_GROUND_ROLL,18.13,80,61.87,3.64,-0.1,-0.21,0.09,90.24,0.102,1,0,0,0,0,0,0,0,0,0,0,0,0,0,0,90.39,0,1,0,-0.33,0,0,0,90,0,0,0,0,0,0,0,0,-0.005,0,0,3,0,0,0,69,0,0,0,90.39,1,-0.005,-0.157,0.0191,0.731,0,0.0191,0,0,0,0,0,0,2,2,0,0,VALID,0,0,0,0,0,1,0,0,0,0,0,0,0,0,0,0,0,0,0,0,791,876.17,2,0,0.06,0.06,189,14.29,0.08,0.06,14.9,LANDED,X10-G,0:/Integrated Flight Computer/aircraft/x10_g_cfg.ks (inferred preloaded)
15.28,TAKEOFF,TO_GROUND_ROLL,19.48,80,60.52,3.64,-0.11,-0.21,0.09,90.24,0.102,1,0,0,0,0,0,0,0,0,0,0,0,0,0,0,90.39,0,1,0,-0.32,0,0,0,90,0,0,0,0,0,0,0,0,-0.006,0,0,3,0,0,0,69,0,0,0,90.39,1,-0.006,-0.155,0.0192,0.745,0,0.0192,0,0,0,0,0,0,2,2,0,0,VALID,0,0,0,0,0,1,0,0,0,0,0,0,0,0,0,0,0,0,0,0,795.46,875.96,2,0,0.06,0.06,193,14.29,0.08,0.06,15.18,LANDED,X10-G,0:/Integrated Flight Computer/aircraft/x10_g_cfg.ks (inferred preloaded)
15.56,TAKEOFF,TO_GROUND_ROLL,20.84,80,59.16,3.64,-0.12,-0.21,0.09,90.24,0.102,1,0,0,0,0,0,0,0,0,0,0,0,0,0,0,90.39,0,1,0,-0.33,0,0,0.01,90,0,0,0,0,0,0,0,0,-0.008,0,0,3,0,0,0,69,0,0,0,90.39,1,-0.008,-0.153,0.0193,0.758,0,0.0193,0,0,0,0,0,0,2,2,0,0,VALID,0,0,0,0,0,1,0,0,0,0,0,0,0,0,0,0,0,0,0,0,799.65,875.74,2,0,0.06,0.06,197,14.29,0.08,0.06,15.46,LANDED,X10-G,0:/Integrated Flight Computer/aircraft/x10_g_cfg.ks (inferred preloaded)
15.84,TAKEOFF,TO_GROUND_ROLL,22.21,80,57.79,3.64,-0.12,-0.21,0.09,90.24,0.102,1,0,0,0,0,0,0,0,0,0,0,0,0,0,0,90.39,0,1,0,-0.32,0,0,0.01,90,0,0,0,0,0,0,0,0,-0.009,0,0,3,0,0,0,69,0,0,0,90.39,1,-0.009,-0.151,0.0193,0.772,0,0.0193,0,0,0,0,0,0,2,2,0,0,VALID,0,0,0,0,0,1,0,0,0,0,0,0,0,0,0,0,0,0,0,0,803.59,875.52,2,0,0.06,0.06,201,14.29,0.08,0.06,15.74,LANDED,X10-G,0:/Integrated Flight Computer/aircraft/x10_g_cfg.ks (inferred preloaded)
16.12,TAKEOFF,TO_GROUND_ROLL,23.59,80,56.41,3.64,-0.13,-0.21,0.09,90.24,0.102,1,0,0,0,0,0,0,0,0,0,0,0,0,0,0,90.39,0,1,0,-0.32,0,0,0.01,90,0,0,0,0,0,0,0,0,-0.01,0,0,3,0,0,0,69,0,0,0,90.39,1,-0.01,-0.15,0.0193,0.786,0,0.0193,0,0,0,0,0,0,2,2,0,0,VALID,0,0,0,0,0,1,0,0,0,0,0,0,0,0,0,0,0,0,0,0,807.3,875.28,2,0,0.06,0.06,205,14.29,0.08,0.06,16.02,LANDED,X10-G,0:/Integrated Flight Computer/aircraft/x10_g_cfg.ks (inferred preloaded)
16.4,TAKEOFF,TO_GROUND_ROLL,24.97,80,55.03,3.64,-0.14,-0.21,0.09,90.24,0.102,1,0,0,0,0,0,0,0,0,0,0,0,0,0,0,90.39,0,1,0,-0.32,0,0,0.01,90,0,0,0,0,0,0,0,0,-0.012,0,0,3,0,0,0,69,0,0,0,90.39,1,-0.012,-0.147,0.0192,0.8,0,0.0192,0,0,0,0,0,0,2,2,0,0,VALID,0,0,0,0,0,1,0,0,0,0,0,0,0,0,0,0,0,0,0,0,810.79,875.04,2,0,0.06,0.06,209,14.29,0.08,0.06,16.3,LANDED,X10-G,0:/Integrated Flight Computer/aircraft/x10_g_cfg.ks (inferred preloaded)
16.68,TAKEOFF,TO_GROUND_ROLL,26.35,80,53.65,3.64,-0.15,-0.21,0.09,90.24,0.102,1,0,0,0,0,0,0,0,0,0,0,0,0,0,0,90.39,0,1,0,-0.32,0,0,0.01,90,0,0,0,0,0,0,0,0,-0.013,0,0,3,0,0,0,69,0,0,0,90.39,1,-0.013,-0.145,0.0191,0.814,0,0.0191,0,0,0,0,0,0,2,2,0,0,VALID,0,0,0,0,0,1,0,0,0,0,0,0,0,0,0,0,0,0,0,0,814.06,874.79,2,0,0.06,0.06,213,14.29,0.08,0.06,16.58,LANDED,X10-G,0:/Integrated Flight Computer/aircraft/x10_g_cfg.ks (inferred preloaded)
16.96,TAKEOFF,TO_GROUND_ROLL,27.75,80,52.25,3.64,-0.15,-0.21,0.09,90.24,0.102,1,0,0,0,0,0,0,0,0,0,0,0,0,0,0,90.39,0,1,0,-0.32,0,0,0.01,90,0,0,0,0,0,0,0,0,-0.015,0,0,3,0,0,0,69,0,0,0,90.39,1,-0.015,-0.143,0.0192,0.827,0,0.0192,0,0,0,0,0,0,2,2,0,0,VALID,0,0,0,0,0,1,0,0,0,0,0,0,0,0,0,0,0,0,0,0,817.14,874.53,2,0,0.06,0.06,217,14.29,0.08,0.06,16.86,LANDED,X10-G,0:/Integrated Flight Computer/aircraft/x10_g_cfg.ks (inferred preloaded)
17.24,TAKEOFF,TO_GROUND_ROLL,29.14,80,50.86,3.64,-0.16,-0.21,0.09,90.24,0.102,1,0,0,0,0,0,0,0,0,0,0,0,0,0,0,90.38,0,1,0,-0.32,0,0,0.01,90,0,0,0,0,0,0,0,0,-0.017,0,0,3,0,0,0,69,0,0,0,90.38,1,-0.017,-0.141,0.0191,0.841,0,0.0191,0,0,0,0,0,0,2,2,0,0,VALID,0,0,0,0,0,1,0,0,0,0,0,0,0,0,0,0,0,0,0,0,820.03,874.27,2,0,0.06,0.06,221,14.29,0.08,0.06,17.14,LANDED,X10-G,0:/Integrated Flight Computer/aircraft/x10_g_cfg.ks (inferred preloaded)
17.52,TAKEOFF,TO_GROUND_ROLL,30.54,80,49.46,3.64,-0.17,-0.21,0.09,90.24,0.102,1,0,0,0,0,0,0,0,0,0,0,0,0,0,0,90.38,0,1,0,-0.31,0,0,0.01,90,0,0,0,0,0,0,0,0,-0.018,0,0,3,0,0,0,69,0,0,0,90.38,1,-0.018,-0.138,0.019,0.855,0,0.019,0,0,0,0,0,0,2,2,0,0,VALID,0,0,0,0,0,1,0,0,0,0,0,0,0,0,0,0,0,0,0,0,822.74,874,2,0,0.06,0.06,225,14.29,0.08,0.06,17.42,LANDED,X10-G,0:/Integrated Flight Computer/aircraft/x10_g_cfg.ks (inferred preloaded)
17.8,TAKEOFF,TO_GROUND_ROLL,31.95,80,48.05,3.64,-0.18,-0.21,0.09,90.24,0.102,1,0,0,0,0,0,0,0,0,0,0,0,0,0,0,90.38,0,1,0,-0.31,0,0,0.01,90,0,0,0,0,0,0,0,0,-0.02,0,0,3,0,0,0,69,0,0,0,90.38,1,-0.02,-0.136,0.0191,0.87,0,0.0191,0,0,0,0,0,0,2,2,0,0,VALID,0,0,0,0,0,1,0,0,0,0,0,0,0,0,0,0,0,0,0,0,825.28,873.74,2,0,0.06,0.06,229,14.29,0.08,0.06,17.7,LANDED,X10-G,0:/Integrated Flight Computer/aircraft/x10_g_cfg.ks (inferred preloaded)
18.08,TAKEOFF,TO_GROUND_ROLL,33.36,80,46.64,3.64,-0.18,-0.21,0.09,90.24,0.102,1,0,0,0,0,0,0,0,0,0,0,0,0,0,0,90.38,0,1,0,-0.31,0,0,0.01,90,0,0,0,0,0,0,0,0,-0.022,0,0,3,0,0,0,69,0,0,0,90.38,1,-0.022,-0.134,0.019,0.884,0,0.019,0,0,0,0,0,0,2,2,0,0,VALID,0,0,0,0,0,1,0,0,0,0,0,0,0,0,0,0,0,0,0,0,827.68,873.47,2,0,0.06,0.06,233,14.29,0.08,0.06,17.98,LANDED,X10-G,0:/Integrated Flight Computer/aircraft/x10_g_cfg.ks (inferred preloaded)
18.36,TAKEOFF,TO_GROUND_ROLL,34.78,80,45.22,3.64,-0.19,-0.21,0.09,90.24,0.102,1,0,0,0,0,0,0,0,0,0,0,0,0,0,0,90.38,0,1,0,-0.31,0,0,0.01,90,0,0,0,0,0,0,0,0,-0.024,0,0,3,0,0,0,69,0,0,0,90.38,1,-0.024,-0.132,0.019,0.898,0,0.019,0,0,0,0,0,0,2,2,0,0,VALID,0,0,0,0,0,1,0,0,0,0,0,0,0,0,0,0,0,0,0,0,829.92,873.2,2,0,0.06,0.06,237,14.29,0.08,0.06,18.26,LANDED,X10-G,0:/Integrated Flight Computer/aircraft/x10_g_cfg.ks (inferred preloaded)
18.64,TAKEOFF,TO_GROUND_ROLL,36.19,80,43.81,3.64,-0.2,-0.21,0.09,90.24,0.102,1,0,0,0,0,0,0,0,0,0,0,0,0,0,0,90.37,0,1,0,-0.31,0,0,0.01,90,0,0,0,0,0,0,0,0,-0.026,0,0,3,0,0,0,69,0,0,0,90.37,1,-0.026,-0.13,0.0187,0.912,0,0.0187,0,0,0,0,0,0,2,2,0,0,VALID,0,0,0,0,0,1,0,0,0,0,0,0,0,0,0,0,0,0,0,0,832.02,872.93,2,0,0.06,0.06,241,14.29,0.08,0.06,18.54,LANDED,X10-G,0:/Integrated Flight Computer/aircraft/x10_g_cfg.ks (inferred preloaded)
18.92,TAKEOFF,TO_GROUND_ROLL,37.62,80,42.38,3.64,-0.2,-0.21,0.09,90.24,0.102,1,0,0,0,0,0,0,0,0,0,0,0,0,0,0,90.37,0,1,0,-0.31,0,0,0.02,90,0,0,0,0,0,0,0,0,-0.029,0,0,3,0,0,0,69,0,0,0,90.37,1,-0.029,-0.128,0.019,0.926,0,0.019,0,0,0,0,0,0,2,2,0,0,VALID,0,0,0,0,0,1,0,0,0,0,0,0,0,0,0,0,0,0,0,0,834,872.66,2,0,0.06,0.06,245,14.29,0.08,0.06,18.82,LANDED,X10-G,0:/Integrated Flight Computer/aircraft/x10_g_cfg.ks (inferred preloaded)
19.2,TAKEOFF,TO_GROUND_ROLL,39.04,80,40.96,3.64,-0.21,-0.21,0.08,90.24,0.102,1,0,0,0,0,0,0,0,0,0,0,0,0,0,0,90.37,0,1,0,-0.31,0,0,0.02,90,0,0,0,0,0,0,0,0,-0.031,0,0,3,0,0,0,69,0,0,0,90.37,1,-0.031,-0.126,0.0188,0.94,0,0.0188,0,0,0,0,0,0,2,2,0,0,VALID,0,0,0,0,0,1,0,0,0,0,0,0,0,0,0,0,0,0,0,0,835.86,872.39,2,0,0.06,0.06,249,14.29,0.08,0.06,19.1,LANDED,X10-G,0:/Integrated Flight Computer/aircraft/x10_g_cfg.ks (inferred preloaded)
19.48,TAKEOFF,TO_GROUND_ROLL,40.47,80,39.53,3.64,-0.22,-0.21,0.08,90.24,0.102,1,0,0,0,0,0,0,0,0,0,0,0,0,0,0,90.37,0,1,0,-0.31,0,0,0.02,90,0,0,0,0,0,0,0,0,-0.033,0,0,3,0,0,0,69,0,0,0,90.37,1,-0.033,-0.125,0.0188,0.955,0,0.0188,0,0,0,0,0,0,2,2,0,0,VALID,0,0,0,0,0,1,0,0,0,0,0,0,0,0,0,0,0,0,0,0,837.6,872.13,2,0,0.06,0.06,253,14.29,0.08,0.06,19.38,LANDED,X10-G,0:/Integrated Flight Computer/aircraft/x10_g_cfg.ks (inferred preloaded)
19.76,TAKEOFF,TO_GROUND_ROLL,41.9,80,38.1,3.64,-0.22,-0.21,0.08,90.24,0.102,1,0,0,0,0,0,0,0,0,0,0,0,0,0,0,90.36,0,1,0,-0.3,0,0,0.02,90,0,0,0,0,0,0,0,0,-0.036,0,0,3,0,0,0,69,0,0,0,90.36,1,-0.036,-0.123,0.019,0.969,0,0.019,0,0,0,0,0,0,2,2,0,0,VALID,0,0,0,0,0,1,0,0,0,0,0,0,0,0,0,0,0,0,0,0,839.23,871.87,2,0,0.06,0.06,257,14.29,0.08,0.06,19.66,LANDED,X10-G,0:/Integrated Flight Computer/aircraft/x10_g_cfg.ks (inferred preloaded)
20.04,TAKEOFF,TO_GROUND_ROLL,43.33,80,36.67,3.64,-0.23,-0.2,0.08,90.24,0.102,1,0,0,0,0,0,0,0,0,0,0,0,0,0,0,90.36,0,1,0,-0.3,0,0,0.02,90,0,0,0,0,0,0,0,0,-0.039,0,0,3,0,0,0,69,0,0,0,90.36,1,-0.039,-0.121,0.0188,0.983,0,0.0188,0,0,0,0,0,0,2,2,0,0,VALID,0,0,0,0,0,1,0,0,0,0,0,0,0,0,0,0,0,0,0,0,840.77,871.62,2,0,0.06,0.06,261,14.29,0.08,0.06,19.94,LANDED,X10-G,0:/Integrated Flight Computer/aircraft/x10_g_cfg.ks (inferred preloaded)
20.32,TAKEOFF,TO_GROUND_ROLL,44.77,80,35.23,3.64,-0.24,-0.2,0.08,90.24,0.102,1,0,0,0,0,0,0,0,0,0,0,0,0,0,0,90.36,0,1,0,-0.3,0,0,0.02,90,0,0,0,0,0,0,0,0,-0.041,0,0,3,0,0,0,69,0,0,0,90.36,1,-0.041,-0.119,0.0187,0.998,0,0.0187,0,0,0,0,0,0,2,2,0,0,VALID,0,0,0,0,0,1,0,0,0,0,0,0,0,0,0,0,0,0,0,0,842.22,871.37,2,0,0.06,0.06,265,14.29,0.08,0.06,20.22,LANDED,X10-G,0:/Integrated Flight Computer/aircraft/x10_g_cfg.ks (inferred preloaded)
20.6,TAKEOFF,TO_GROUND_ROLL,46.21,80,33.79,3.64,-0.24,-0.2,0.08,90.24,0.103,1,0,0,0,0,0,0,0,0,0,0,0,0,0,0,90.36,0,1,0,-0.3,0,0,0.02,90,0,0,0,0,0,0,0,0,-0.044,0,0,3,0,0,0,69,0,0,0,90.36,1,-0.044,-0.118,0.0186,1,0,0.0186,0,0,0,0,0,0,2,2,0,0,VALID,0,0,0,0,0,1,0,0,0,0,0,0,0,0,0,0,0,0,0,0,843.58,871.13,2,0,0.06,0.06,269,14.29,0.08,0.06,20.5,LANDED,X10-G,0:/Integrated Flight Computer/aircraft/x10_g_cfg.ks (inferred preloaded)
20.88,TAKEOFF,TO_GROUND_ROLL,47.65,80,32.35,3.64,-0.25,-0.2,0.08,90.24,0.103,1,0,0,0,0,0,0,0,0,0,0,0,0,0,0,90.35,0,1,0,-0.3,0,0,0.02,90,0,0,0,0,0,0,0,0,-0.047,0,0,3,0,0,0,69,0,0,0,90.35,1,-0.047,-0.117,0.0184,1,0,0.0184,0,0,0,0,0,0,2,2,0,0,VALID,0,0,0,0,0,1,0,0,0,0,0,0,0,0,0,0,0,0,0,0,844.86,870.9,2,0,0.06,0.06,273,14.29,0.08,0.06,20.78,LANDED,X10-G,0:/Integrated Flight Computer/aircraft/x10_g_cfg.ks (inferred preloaded)
21.16,TAKEOFF,TO_GROUND_ROLL,49.09,80,30.91,3.64,-0.25,-0.2,0.08,90.24,0.103,1,0,0,0,0,0,0,0,0,0,0,0,0,0,0,90.35,0,1,0,-0.3,0,0,0.02,90,0,0,0,0,0,0,0,0,-0.05,0,0,3,0,0,0,69,0,0,0,90.35,1,-0.05,-0.115,0.0179,1,0,0.0179,0,0,0,0,0,0,2,2,0,0,VALID,0,0,0,0,0,1,0,0,0,0,0,0,0,0,0,0,0,0,0,0,846.06,870.68,2,0,0.06,0.06,277,14.29,0.08,0.06,21.06,LANDED,X10-G,0:/Integrated Flight Computer/aircraft/x10_g_cfg.ks (inferred preloaded)
21.44,TAKEOFF,TO_GROUND_ROLL,50.54,80,29.46,3.64,-0.26,-0.2,0.08,90.23,0.103,1,0,0,0,0,0,0,0,0,0,0,0,0,0,0,90.35,0,1,0,-0.3,0,0,0.03,90,0,0,0,0,0,0,0,0,-0.053,0,0,3,0,0,0,69,0,0,0,90.35,1,-0.053,-0.115,0.018,1,0,0.018,0,0,0,0,0,0,2,2,0,0,VALID,0,0,0,0,0,1,0,0,0,0,0,0,0,0,0,0,0,0,0,0,847.2,870.47,2,0,0.06,0.06,281,14.29,0.08,0.06,21.34,LANDED,X10-G,0:/Integrated Flight Computer/aircraft/x10_g_cfg.ks (inferred preloaded)
21.72,TAKEOFF,TO_GROUND_ROLL,51.99,80,28.01,3.64,-0.27,-0.2,0.08,90.23,0.103,1,0,0,0,0,0,0,0,0,0,0,0,0,0,0,90.35,0,1,0,-0.29,0,0,0.03,90,0,0,0,0,0,0,0,0,-0.056,0,0,3,0,0,0,69,0,0,0,90.35,1,-0.056,-0.115,0.0184,1,0,0.0184,0,0,0,0,0,0,2,2,0,0,VALID,0,0,0,0,0,1,0,0,0,0,0,0,0,0,0,0,0,0,0,0,848.27,870.27,2,0,0.06,0.06,285,14.29,0.08,0.06,21.62,LANDED,X10-G,0:/Integrated Flight Computer/aircraft/x10_g_cfg.ks (inferred preloaded)
22,TAKEOFF,TO_GROUND_ROLL,53.43,80,26.57,3.64,-0.27,-0.2,0.08,90.23,0.104,1,0,0,0,0,0,0,0,0,0,0,0,0,0,0,90.34,0,1,0,-0.29,0,0,0.03,90,0,0,0,0,0,0,0,0,-0.059,0,0,3,0,0,0,69,0,0,0,90.34,1,-0.059,-0.114,0.018,1,0,0.018,0,0,0,0,0,0,2,2,0,0,VALID,0,0,0,0,0,1,0,0,0,0,0,0,0,0,0,0,0,0,0,0,849.29,870.08,2,0,0.06,0.06,289,14.29,0.08,0.06,21.9,LANDED,X10-G,0:/Integrated Flight Computer/aircraft/x10_g_cfg.ks (inferred preloaded)
22.28,TAKEOFF,TO_GROUND_ROLL,54.89,80,25.11,3.64,-0.28,-0.2,0.08,90.23,0.104,1,0,0,0,0,0,0,0,0,0,0,0,0,0,0,90.34,0,1,0,-0.29,0,0,0.03,90,0,0,0,0,0,0,0,0,-0.062,0,0,3,0,0,0,69,0,0,0,90.34,1,-0.062,-0.114,0.0182,1,0,0.0182,0,0,0,0,0,0,2,2,0,0,VALID,0,0,0,0,0,1,0,0,0,0,0,0,0,0,0,0,0,0,0,0,850.26,869.91,2,0,0.06,0.06,293,14.29,0.08,0.06,22.18,LANDED,X10-G,0:/Integrated Flight Computer/aircraft/x10_g_cfg.ks (inferred preloaded)
22.56,TAKEOFF,TO_GROUND_ROLL,56.34,80,23.66,3.64,-0.28,-0.2,0.08,90.22,0.104,1,0,0,0,0,0,0,0,0,0,0,0,0,0,0,90.34,0,1,0,-0.29,0,0,0.03,90,0,0,0,0,0,0,0,0,-0.065,0,0,3,0,0,0,69,0,0,0,90.34,1,-0.065,-0.113,0.0179,1,0,0.0179,0,0,0,0,0,0,2,2,0,0,VALID,0,0,0,0,0,1,0,0,0,0,0,0,0,0,0,0,0,0,0,0,851.17,869.75,2,0,0.06,0.06,297,14.29,0.08,0.06,22.46,LANDED,X10-G,0:/Integrated Flight Computer/aircraft/x10_g_cfg.ks (inferred preloaded)
22.84,TAKEOFF,TO_GROUND_ROLL,57.79,80,22.21,3.64,-0.29,-0.2,0.08,90.22,0.104,1,0,0,0,0,0,0,0,0,0,0,0,0,0,0,90.33,0,1,0,-0.29,0,0,0.03,90,0,0,0,0,0,0,0,0,-0.068,0,0,3,0,0,0,69,0,0,0,90.33,1,-0.068,-0.113,0.0177,1,0,0.0177,0,0,0,0,0,0,2,2,0,0,VALID,0,0,0,0,0,1,0,0,0,0,0,0,0,0,0,0,0,0,0,0,852.05,869.61,2,0,0.06,0.06,301,14.29,0.08,0.06,22.74,LANDED,X10-G,0:/Integrated Flight Computer/aircraft/x10_g_cfg.ks (inferred preloaded)
23.12,TAKEOFF,TO_GROUND_ROLL,59.25,80,20.75,3.64,-0.29,-0.2,0.08,90.22,0.104,1,0,0,0,0,0,0,0,0,0,0,0,0,0,0,90.33,0,1,0,-0.29,0,0,0.04,90,0,0,0,0,0,0,0,0,-0.071,0,0,3,0,0,0,69,0,0,0,90.33,1,-0.071,-0.114,0.0184,1,0,0.0184,0,0,0,0,0,0,2,2,0,0,VALID,0,0,0,0,0,1,0,0,0,0,0,0,0,0,0,0,0,0,0,0,852.88,869.48,2,0,0.06,0.06,305,14.29,0.08,0.06,23.02,LANDED,X10-G,0:/Integrated Flight Computer/aircraft/x10_g_cfg.ks (inferred preloaded)
23.4,TAKEOFF,TO_GROUND_ROLL,60.7,80,19.3,3.64,-0.3,-0.19,0.08,90.21,0.104,1,0,0,0,0,0,0,0,0,0,0,0,0,0,0,90.33,0,1,0,-0.28,0,0,0.04,90,0,0,0,0,0,0,0,0,-0.075,0,0,3,0,0,0,69,0,0,0,90.33,1,-0.075,-0.113,0.0178,1,0,0.0178,0,0,0,0,0,0,2,2,0,0,VALID,0,0,0,0,0,1,0,0,0,0,0,0,0,0,0,0,0,0,0,0,853.68,869.37,2,0,0.06,0.06,309,14.29,0.08,0.06,23.3,LANDED,X10-G,0:/Integrated Flight Computer/aircraft/x10_g_cfg.ks (inferred preloaded)
23.68,TAKEOFF,TO_GROUND_ROLL,62.16,80,17.84,3.64,-0.31,-0.19,0.08,90.21,0.104,1,0,0,0,0,0,0,0,0,0,0,0,0,0,0,90.32,0,1,0,-0.28,0,0,0.04,90,0,0,0,0,0,0,0,0,-0.078,0,0,3,0,0,0,69,0,0,0,90.32,1,-0.078,-0.113,0.0181,1,0,0.0181,0,0,0,0,0,0,2,2,0,0,VALID,0,0,0,0,0,1,0,0,0,0,0,0,0,0,0,0,0,0,0,0,854.45,869.28,2,0,0.06,0.06,313,14.29,0.08,0.06,23.58,LANDED,X10-G,0:/Integrated Flight Computer/aircraft/x10_g_cfg.ks (inferred preloaded)
23.96,TAKEOFF,TO_GROUND_ROLL,63.62,80,16.38,3.64,-0.31,-0.19,0.07,90.21,0.104,1,0,0,0,0,0,0,0,0,0,0,0,0,0,0,90.32,0,1,0,-0.28,0,0,0.04,90,0,0,0,0,0,0,0,0,-0.081,0,0,3,0,0,0,69,0,0,0,90.32,1,-0.081,-0.113,0.018,1,0,0.018,0,0,0,0,0,0,2,2,0,0,VALID,0,0,0,0,0,1,0,0,0,0,0,0,0,0,0,0,0,0,0,0,855.19,869.21,2,0,0.06,0.06,317,14.29,0.08,0.06,23.86,LANDED,X10-G,0:/Integrated Flight Computer/aircraft/x10_g_cfg.ks (inferred preloaded)
24.24,TAKEOFF,TO_GROUND_ROLL,65.08,80,14.92,3.64,-0.32,-0.19,0.07,90.2,0.104,1,0,0,0,0,0,0,0,0,0,0,0,0,0,0,90.32,0,1,0,-0.28,0,0,0.04,90,0,0,0,0,0,0,0,0,-0.085,0,0,3,0,0,0,69,0,0,0,90.32,1,-0.085,-0.113,0.0179,1,0,0.0179,0,0,0,0,0,0,2,2,0,0,VALID,0,0,0,0,0,1,0,0,0,0,0,0,0,0,0,0,0,0,0,0,855.9,869.17,2,0,0.06,0.06,321,14.29,0.08,0.06,24.14,LANDED,X10-G,0:/Integrated Flight Computer/aircraft/x10_g_cfg.ks (inferred preloaded)
24.52,TAKEOFF,TO_GROUND_ROLL,66.54,80,13.46,3.64,-0.32,-0.19,0.07,90.2,0.105,1,0,0,0,0,0,0,0,0,0,0,0,0,0,0,90.31,0,1,0,-0.28,0,0,0.04,90,0,0,0,0,0,0,0,0,-0.088,0,0,3,0,0,0,69,0,0,0,90.31,1,-0.088,-0.114,0.0182,1,0,0.0182,0,0,0,0,0,0,2,2,0,0,VALID,0,0,0,0,0,1,0,0,0,0,0,0,0,0,0,0,0,0,0,0,856.6,869.14,2,0,0.06,0.06,325,14.29,0.08,0.06,24.42,LANDED,X10-G,0:/Integrated Flight Computer/aircraft/x10_g_cfg.ks (inferred preloaded)
24.8,TAKEOFF,TO_GROUND_ROLL,68,80,12,3.64,-0.32,-0.19,0.07,90.2,0.105,1,0,0,0,0,0,0,0,0,0,0,0,0,0,0,90.31,0,1,0,-0.27,0,0,0.05,90,0,0,0,0,0,0,0,0,-0.091,0,0,3,0,0,0,69,0,0,0,90.31,1,-0.091,-0.113,0.0181,1,0,0.0181,0,0,0,0,0,0,2,2,0,0,VALID,0,0,0,0,0,1,0,0,0,0,0,0,0,0,0,0,0,0,0,0,857.28,869.14,2,0,0.06,0.06,329,14.29,0.08,0.06,24.7,LANDED,X10-G,0:/Integrated Flight Computer/aircraft/x10_g_cfg.ks (inferred preloaded)
25.08,TAKEOFF,TO_GROUND_ROLL,69.47,80,10.53,3.63,-0.34,-0.12,0.18,90.2,0.105,1,0,0,0,0,0,0,0,0,0,0,0,0,0,0,90.31,0,1,0,-0.28,0,0,0.05,90,0,0,0,0,0,0,0,0,-0.095,0,0,3,0,0,0,69,0,0,0,90.31,1,-0.095,-0.11,0.0168,1,0,0.0168,0,0,0,0,0,0,2,2,0,0,VALID,0,0,0,0,0,1,0,0,0,0,0,0,0,0,0,0,0,0,0,0,858.09,869.32,2,0,0.06,0.06,333,14.29,0.08,0.06,24.98,LANDED,X10-G,0:/Integrated Flight Computer/aircraft/x10_g_cfg.ks (inferred preloaded)
25.36,TAKEOFF,TO_GROUND_ROLL,70.93,80,9.07,3.72,-0.27,0.02,0.2,90.2,0.101,1,0,0,0,0,0,0,0,0,0,0,0,0,0,0,90.3,0,1,0,-0.22,0,0,0.05,90,0,0,0,0,0,0,0,0,-0.098,0,0,3,0,0,0,69,0,0,0,90.3,1,-0.098,-0.104,0.0155,1,0,0.0155,0,0,0,0,0,0,2,2,0,0,VALID,0,0,0,0,0,1,0,0,0,0,0,0,0,0,0,0,0,0,0,0,859.18,869.83,2,0,0.06,0.06,337,14.29,0.08,0.06,25.26,LANDED,X10-G,0:/Integrated Flight Computer/aircraft/x10_g_cfg.ks (inferred preloaded)
25.64,TAKEOFF,TO_GROUND_ROLL,72.4,80,7.6,3.7,-0.39,-0.03,0.26,90.2,0.104,1,0,0,0,0,0,0,0,0,0,0,0,0,0,0,90.3,0,1,0,-0.31,0,0,0.05,90,0,0,0,0,0,0,0,0,-0.102,0,0,3,0,0,0,69,0,0,0,90.3,1,-0.102,-0.103,0.0158,1,0,0.0158,0,0,0,0,0,0,2,2,0,0,VALID,0,0,0,0,0,1,0,0,0,0,0,0,0,0,0,0,0,0,0,0,860.56,870.66,2,0,0.06,0.06,341,14.29,0.08,0.06,25.54,LANDED,X10-G,0:/Integrated Flight Computer/aircraft/x10_g_cfg.ks (inferred preloaded)
25.92,TAKEOFF,TO_GROUND_ROLL,73.87,80,6.13,3.65,-0.45,-0.13,0.21,90.19,0.107,1,0,0,0,0,0,0,0,0,0,0,0,0,0,0,90.3,0,1,0,-0.35,0,0,0.05,90,0,0,0,0,0,0,0,0,-0.105,0,0,3,0,0,0,69,0,0,0,90.3,1,-0.105,-0.103,0.0161,1,0,0.0161,0,0,0,0,0,0,2,2,0,0,VALID,0,0,0,0,0,1,0,0,0,0,0,0,0,0,0,0,0,0,0,0,862.22,871.82,2,0,0.06,0.06,345,14.29,0.08,0.06,25.82,LANDED,X10-G,0:/Integrated Flight Computer/aircraft/x10_g_cfg.ks (inferred preloaded)
26.2,TAKEOFF,TO_GROUND_ROLL,75.34,80,4.66,3.64,-0.27,-0.18,0.02,90.19,0.105,1,0,0,0,0,0,0,0,0,0,0,0,0,0,0,90.29,0,1,0,-0.21,0,0,0.06,90,0,0,0,0,0,0,0,0,-0.109,0,0,3,0,0,0,69,0,0,0,90.29,1,-0.109,-0.103,0.0163,1,0,0.0163,0,0,0,0,0,0,2,2,0,0,VALID,0,0,0,0,0,1,0,0,0,0,0,0,0,0,0,0,0,0,0,0,864.16,873.27,2,0,0.06,0.06,349,14.29,0.08,0.06,26.1,LANDED,X10-G,0:/Integrated Flight Computer/aircraft/x10_g_cfg.ks (inferred preloaded)
26.48,TAKEOFF,TO_GROUND_ROLL,76.81,80,3.19,3.63,-0.39,-0.21,0.06,90.19,0.105,1,0,0,0,0,0,0,0,0,0,0,0,0,0,0,90.29,0,1,0,-0.29,0,0,0.06,90,0,0,0,0,0,0,0,0,-0.113,0,0,3,0,0,0,69,0,0,0,90.29,1,-0.113,-0.104,0.0164,1,0,0.0164,0,0,0,0,0,0,2,2,0,0,VALID,0,0,0,0,0,1,0,0,0,0,0,0,0,0,0,0,0,0,0,0,866.37,875.03,2,0,0.06,0.06,353,14.29,0.08,0.06,26.38,LANDED,X10-G,0:/Integrated Flight Computer/aircraft/x10_g_cfg.ks (inferred preloaded)
26.76,TAKEOFF,TO_GROUND_ROLL,78.29,80,1.71,3.65,-0.34,-0.14,0.1,90.18,0.106,1,0,0,0,0,0,0,0,0,0,0,0,0,0,0,90.29,0,1,0,-0.25,0,0,0.06,90,0,0,0,0,0,0,0,0,-0.116,0,0,3,0,0,0,69,0,0,0,90.29,1,-0.116,-0.103,0.0163,1,0,0.0163,0,0,0,0,0,0,2,2,0,0,VALID,0,0,0,0,0,1,0,0,0,0,0,0,0,0,0,0,0,0,0,0,868.84,877.07,2,0,0.06,0.06,357,14.29,0.08,0.06,26.66,LANDED,X10-G,0:/Integrated Flight Computer/aircraft/x10_g_cfg.ks (inferred preloaded)
27.04,TAKEOFF,TO_GROUND_ROLL,79.77,80,0.23,3.64,-0.36,-0.18,0.07,90.18,0.106,1,0,0,0,0,0,0,0,0,0,0,0,0,0,0,90.28,0,1,0,-0.26,0,0,0.06,90,0,0,0,0,0,0,0,0,-0.12,0,0,3,0,0,0,69,0,0,0,90.28,1,-0.12,-0.105,0.0167,1,0,0.0167,0,0,0,0,0,0,2,2,0,0,VALID,0,0,0,0,0,1,0,0,0,0,0,0,0,0,0,0,0,0,0,0,871.57,879.4,2,0,0.06,0.06,361,14.29,0.08,0.06,26.94,LANDED,X10-G,0:/Integrated Flight Computer/aircraft/x10_g_cfg.ks (inferred preloaded)
27.32,TAKEOFF,TO_GROUND_ROLL,81.26,80,-1.26,3.64,-0.36,-0.18,0.06,90.17,0.107,1,0,0,0,0,0,0,0,0,0,0,0,0,0,0,90.28,0,1,0,-0.25,0,0,0.07,90,0,0,0,0,0,0,0,0,-0.123,0,0,3,0,0,0,69,0,0,0,90.28,1,-0.123,-0.106,0.0168,1,0,0.0168,0,0,0,0,0,0,2,2,0,0,VALID,0,0,0,0,0,1,0,0,0,0,0,0,0,0,0,0,0,0,0,0,874.54,881.99,2,0,0.06,0.06,365,14.29,0.08,0.06,27.22,LANDED,X10-G,0:/Integrated Flight Computer/aircraft/x10_g_cfg.ks (inferred preloaded)
27.6,TAKEOFF,TO_GROUND_ROLL,82.75,80,-2.75,3.64,-0.36,-0.17,0.07,90.17,0.106,1,0,0,0,0,0,0,0,0,0,0,0,0,0,0,90.28,0,1,0,-0.25,0,0,0.07,90,0,0,0,0,0,0,0,0,-0.127,0,0,3,0,0,0,69,0,0,0,90.28,1,-0.127,-0.106,0.0169,1,0,0.0169,0,0,0,0,0,0,2,2,0,0,VALID,0,0,0,0,0,1,0,0,0,0,0,0,0,0,0,0,0,0,0,0,877.76,884.86,2,0,0.06,0.06,369,14.29,0.08,0.06,27.5,LANDED,X10-G,0:/Integrated Flight Computer/aircraft/x10_g_cfg.ks (inferred preloaded)
27.88,TAKEOFF,TO_GROUND_ROLL,84.25,80,-4.25,3.64,-0.36,-0.18,0.06,90.16,0.106,1,0,0,0,0,0,0,0,0,0,0,0,0,0,0,90.27,0,1,0,-0.25,0,0,0.07,90,0,0,0,0,0,0,0,0,-0.13,0,0,3,0,0,0,69,0,0,0,90.27,1,-0.13,-0.108,0.0173,1,0,0.0173,0,0,0,0,0,0,2,2,0,0,VALID,0,0,0,0,0,1,0,0,0,0,0,0,0,0,0,0,0,0,0,0,881.22,887.98,2,0,0.06,0.06,373,14.29,0.08,0.06,27.78,LANDED,X10-G,0:/Integrated Flight Computer/aircraft/x10_g_cfg.ks (inferred preloaded)
28.16,TAKEOFF,TO_GROUND_ROLL,85.76,80,-5.76,3.64,-0.37,-0.17,0.07,90.16,0.107,1,0,0,0,0,0,0,0,0,0,0,0,0,0,0,90.27,0,1,0,-0.25,0,0,0.07,90,0,0,0,0,0,0,0,0,-0.134,0,0,3,0,0,0,69,0,0,0,90.27,1,-0.134,-0.108,0.0172,1,0,0.0172,0,0,0,0,0,0,2,2,0,0,VALID,0,0,0,0,0,1,0,0,0,0,0,0,0,0,0,0,0,0,0,0,884.91,891.36,2,0,0.06,0.06,377,14.29,0.08,0.06,28.06,LANDED,X10-G,0:/Integrated Flight Computer/aircraft/x10_g_cfg.ks (inferred preloaded)
28.44,TAKEOFF,TO_GROUND_ROLL,87.27,80,-7.27,3.64,-0.37,-0.17,0.06,90.16,0.106,1,0,0,0,0,0,0,0,0,0,0,0,0,0,0,90.26,0,1,0,-0.24,0,0,0.07,90,0,0,0,0,0,0,0,0,-0.137,0,0,3,0,0,0,69,0,0,0,90.26,1,-0.137,-0.109,0.0171,1,0,0.0171,0,0,0,0,0,0,2,2,0,0,VALID,0,0,0,0,0,1,0,0,0,0,0,0,0,0,0,0,0,0,0,0,888.82,894.97,2,0,0.06,0.06,381,14.29,0.08,0.06,28.34,LANDED,X10-G,0:/Integrated Flight Computer/aircraft/x10_g_cfg.ks (inferred preloaded)
28.72,TAKEOFF,TO_GROUND_ROLL,88.79,80,-8.79,3.64,-0.37,-0.17,0.06,90.15,0.106,1,0,0,0,0,0,0,0,0,0,0,0,0,0,0,90.26,0,1,0,-0.24,0,0,0.08,90,0,0,0,0,0,0,0,0,-0.141,0,0,3,0,0,0,69,0,0,0,90.26,1,-0.141,-0.111,0.0181,1,0,0.0181,0,0,0,0,0,0,2,2,0,0,VALID,0,0,0,0,0,1,0,0,0,0,0,0,0,0,0,0,0,0,0,0,892.95,898.82,2,0,0.06,0.06,385,14.29,0.08,0.06,28.62,LANDED,X10-G,0:/Integrated Flight Computer/aircraft/x10_g_cfg.ks (inferred preloaded)
29,TAKEOFF,TO_GROUND_ROLL,90.31,80,-10.31,3.64,-0.37,-0.17,0.06,90.15,0.106,1,0,0,0,0,0,0,0,0,0,0,0,0,0,0,90.26,0,1,0,-0.24,0,0,0.08,90,0,0,0,0,0,0,0,0,-0.144,0,0,3,0,0,0,69,0,0,0,90.26,1,-0.144,-0.11,0.0175,1,0,0.0175,0,0,0,0,0,0,2,2,0,0,VALID,0,0,0,0,0,1,0,0,0,0,0,0,0,0,0,0,0,0,0,0,897.3,902.91,2,0,0.06,0.06,389,14.29,0.08,0.06,28.9,LANDED,X10-G,0:/Integrated Flight Computer/aircraft/x10_g_cfg.ks (inferred preloaded)
29.28,TAKEOFF,TO_GROUND_ROLL,91.84,80,-11.84,3.63,-0.38,-0.17,0.06,90.14,0.106,1,0,0,0,0,0,0,0,0,0,0,0,0,0,0,90.26,0,1,0,-0.23,0,0,0.08,90,0,0,0,0,0,0,0,0,-0.147,0,0,3,0,0,0,69,0,0,0,90.26,1,-0.147,-0.112,0.0181,1,0,0.0181,0,0,0,0,0,0,2,2,0,0,VALID,0,0,0,0,0,1,0,0,0,0,0,0,0,0,0,0,0,0,0,0,901.85,907.21,2,0,0.06,0.06,393,14.29,0.08,0.06,29.18,LANDED,X10-G,0:/Integrated Flight Computer/aircraft/x10_g_cfg.ks (inferred preloaded)
29.56,TAKEOFF,TO_GROUND_ROLL,93.38,80,-13.38,3.64,-0.38,-0.17,0.06,90.14,0.106,1,0,0,0,0,0,0,0,0,0,0,0,0,0,0,90.25,0,1,0,-0.23,0,0,0.08,90,0,0,0,0,0,0,0,0,-0.151,0,0,3,0,0,0,69,0,0,0,90.25,1,-0.151,-0.111,0.0178,1,0,0.0178,0,0,0,0,0,0,2,2,0,0,VALID,0,0,0,0,0,1,0,0,0,0,0,0,0,0,0,0,0,0,0,0,906.6,911.72,2,0,0.06,0.06,397,14.29,0.08,0.06,29.46,LANDED,X10-G,0:/Integrated Flight Computer/aircraft/x10_g_cfg.ks (inferred preloaded)
29.84,TAKEOFF,TO_GROUND_ROLL,94.93,80,-14.93,3.63,-0.38,-0.16,0.06,90.14,0.106,1,0,0,0,0,0,0,0,0,0,0,0,0,0,0,90.25,0,1,0,-0.23,0,0,0.09,90,0,0,0,0,0,0,0,0,-0.154,0,0,3,0,0,0,69,0,0,0,90.25,1,-0.154,-0.112,0.0178,1,0,0.0178,0,0,0,0,0,0,2,2,0,0,VALID,0,0,0,0,0,1,0,0,0,0,0,0,0,0,0,0,0,0,0,0,911.54,916.44,2,0,0.06,0.06,401,14.29,0.08,0.06,29.74,LANDED,X10-G,0:/Integrated Flight Computer/aircraft/x10_g_cfg.ks (inferred preloaded)
30.12,TAKEOFF,TO_GROUND_ROLL,96.49,80,-16.49,3.63,-0.38,-0.16,0.05,90.13,0.106,1,0,0,0,0,0,0,0,0,0,0,0,0,0,0,90.24,0,1,0,-0.23,0,0,0.09,90,0,0,0,0,0,0,0,0,-0.157,0,0,3,0,0,0,69,0,0,0,90.24,1,-0.157,-0.11,0.0173,1,0,0.0173,0,0,0,0,0,0,2,2,0,0,VALID,0,0,0,0,0,1,0,0,0,0,0,0,0,0,0,0,0,0,0,0,916.67,921.35,2,0,0.06,0.06,405,14.29,0.08,0.06,30.02,LANDED,X10-G,0:/Integrated Flight Computer/aircraft/x10_g_cfg.ks (inferred preloaded)
30.4,TAKEOFF,TO_GROUND_ROLL,98.05,80,-18.05,3.63,-0.38,-0.16,0.05,90.13,0.106,1,0,0,0,0,0,0,0,0,0,0,0,0,0,0,90.24,0,1,0,-0.22,0,0,0.09,90,0,0,0,0,0,0,0,0,-0.16,0,0,3,0,0,0,69,0,0,0,90.24,1,-0.16,-0.112,0.0179,1,0,0.0179,0,0,0,0,0,0,2,2,0,0,VALID,0,0,0,0,0,1,0,0,0,0,0,0,0,0,0,0,0,0,0,0,921.97,926.46,2,0,0.06,0.06,409,14.29,0.08,0.06,30.3,LANDED,X10-G,0:/Integrated Flight Computer/aircraft/x10_g_cfg.ks (inferred preloaded)
30.68,TAKEOFF,TO_GROUND_ROLL,99.63,80,-19.63,3.65,-0.17,-0.11,-0.02,90.13,0.106,1,0,0,0,0,0,0,0,0,0,0,0,0,0,0,90.24,0,1,0,-0.1,0,0,0.1,90,0,0,0,0,0,0,0,0,-0.164,0,0,3,0,0,0,69,0,0,0,90.24,1,-0.164,-0.109,0.0166,1,0,0.0166,0,0,0,0,0,0,2,2,0,0,VALID,0,0,0,0,0,1,0,0,0,0,0,0,0,0,0,0,0,0,0,0,927.45,931.74,2,0,0.06,0.06,413,14.29,0.08,0.06,30.58,LANDED,X10-G,0:/Integrated Flight Computer/aircraft/x10_g_cfg.ks (inferred preloaded)
30.96,TAKEOFF,TO_GROUND_ROLL,101.21,80,-21.21,3.65,-0.51,-0.12,0.16,90.13,0.104,1,0,0,0,0,0,0,0,0,0,0,0,0,0,0,90.23,0,1,0,-0.29,0,0,0.1,90,0,0,0,0,0,0,0,0,-0.167,0,0,3,0,0,0,69,0,0,0,90.23,1,-0.167,-0.104,0.0157,1,0,0.0157,0,0,0,0,0,0,2,2,0,0,VALID,0,0,0,0,0,1,0,0,0,0,0,0,0,0,0,0,0,0,0,0,933.08,937.19,2,0,0.06,0.06,417,14.29,0.08,0.06,30.86,LANDED,X10-G,0:/Integrated Flight Computer/aircraft/x10_g_cfg.ks (inferred preloaded)
31.24,TAKEOFF,TO_GROUND_ROLL,102.81,80,-22.81,3.64,-0.31,-0.13,0.03,90.13,0.102,1,0,0,0,0,0,0,0,0,0,0,0,0,0,0,90.23,0,1,0,-0.17,0,0,0.1,90,0,0,0,0,0,0,0,0,-0.17,0,0,3,0,0,0,69,0,0,0,90.23,1,-0.17,-0.101,0.0153,1,0,0.0153,0,0,0,0,0,0,2,2,0,0,VALID,0,0,0,0,0,1,0,0,0,0,0,0,0,0,0,0,0,0,0,0,938.87,942.81,2,0,0.06,0.06,421,14.29,0.08,0.06,31.14,LANDED,X10-G,0:/Integrated Flight Computer/aircraft/x10_g_cfg.ks (inferred preloaded)
31.52,TAKEOFF,TO_GROUND_ROLL,104.41,80,-24.41,3.63,-0.42,-0.19,0.04,90.13,0.107,1,0,0,0,0,0,0,0,0,0,0,0,0,0,0,90.23,0,1,0,-0.23,0,0,0.1,90,0,0,0,0,0,0,0,0,-0.173,0,0,3,0,0,0,69,0,0,0,90.23,1,-0.173,-0.101,0.0156,1,0,0.0156,0,0,0,0,0,0,2,2,0,0,VALID,0,0,0,0,0,1,0,0,0,0,0,0,0,0,0,0,0,0,0,0,944.8,948.58,2,0,0.06,0.06,425,14.29,0.08,0.06,31.42,LANDED,X10-G,0:/Integrated Flight Computer/aircraft/x10_g_cfg.ks (inferred preloaded)
31.8,TAKEOFF,TO_GROUND_ROLL,106.03,80,-26.03,3.64,-0.38,-0.12,0.07,90.12,0.108,1,0,0,0,0,0,0,0,0,0,0,0,0,0,0,90.22,0,1,0,-0.21,0,0,0.11,90,0,0,0,0,0,0,0,0,-0.177,0,0,3,0,0,0,69,0,0,0,90.22,1,-0.177,-0.1,0.0153,1,0,0.0153,0,0,0,0,0,0,2,2,0,0,VALID,0,0,0,0,0,1,0,0,0,0,0,0,0,0,0,0,0,0,0,0,950.86,954.49,2,0,0.06,0.06,429,14.29,0.08,0.06,31.7,LANDED,X10-G,0:/Integrated Flight Computer/aircraft/x10_g_cfg.ks (inferred preloaded)
32.08,TAKEOFF,TO_GROUND_ROLL,107.65,80,-27.65,3.63,-0.38,-0.15,0.05,90.12,0.105,1,0,0,0,0,0,0,0,0,0,0,0,0,0,0,90.22,0,1,0,-0.2,0,0,0.11,90,0,0,0,0,0,0,0,0,-0.18,0,0,3,0,0,0,69,0,0,0,90.22,1,-0.18,-0.1,0.0156,1,0,0.0156,0,0,0,0,0,0,2,2,0,0,VALID,0,0,0,0,0,1,0,0,0,0,0,0,0,0,0,0,0,0,0,0,957.05,960.53,2,0,0.06,0.06,433,14.29,0.08,0.06,31.98,LANDED,X10-G,0:/Integrated Flight Computer/aircraft/x10_g_cfg.ks (inferred preloaded)
32.36,TAKEOFF,TO_GROUND_ROLL,109.29,80,-29.29,3.63,-0.39,-0.15,0.04,90.12,0.107,1,0,0,0,0,0,0,0,0,0,0,0,0,0,0,90.22,0,1,0,-0.2,0,0,0.11,90,0,0,0,0,0,0,0,0,-0.183,0,0,3,0,0,0,69,0,0,0,90.22,1,-0.183,-0.1,0.0154,1,0,0.0154,0,0,0,0,0,0,2,2,0,0,VALID,0,0,0,0,0,1,0,0,0,0,0,0,0,0,0,0,0,0,0,0,963.35,966.69,2,0,0.06,0.06,437,14.29,0.08,0.06,32.26,LANDED,X10-G,0:/Integrated Flight Computer/aircraft/x10_g_cfg.ks (inferred preloaded)
32.64,TAKEOFF,TO_GROUND_ROLL,110.94,80,-30.94,3.63,-0.38,-0.14,0.05,90.12,0.108,1,0,0,0,0,0,0,0,0,0,0,0,0,0,0,90.22,0,1,0,-0.2,0,0,0.12,90,0,0,0,0,0,0,0,0,-0.186,0,0,3,0,0,0,69,0,0,0,90.22,1,-0.186,-0.101,0.0159,1,0,0.0159,0,0,0,0,0,0,2,2,0,0,VALID,0,0,0,0,0,1,0,0,0,0,0,0,0,0,0,0,0,0,0,0,969.76,972.97,2,0,0.06,0.06,441,14.29,0.08,0.06,32.54,LANDED,X10-G,0:/Integrated Flight Computer/aircraft/x10_g_cfg.ks (inferred preloaded)
32.92,TAKEOFF,TO_GROUND_ROLL,112.6,80,-32.6,3.63,-0.38,-0.15,0.04,90.11,0.108,1,0,0,0,0,0,0,0,0,0,0,0,0,0,0,90.21,0,1,0,-0.19,0,0,0.12,90,0,0,0,0,0,0,0,0,-0.19,0,0,3,0,0,0,69,0,0,0,90.21,1,-0.19,-0.102,0.0161,1,0,0.0161,0,0,0,0,0,0,2,2,0,0,VALID,0,0,0,0,0,1,0,0,0,0,0,0,0,0,0,0,0,0,0,0,976.26,979.34,2,0,0.06,0.06,445,14.29,0.08,0.06,32.82,LANDED,X10-G,0:/Integrated Flight Computer/aircraft/x10_g_cfg.ks (inferred preloaded)
33.2,TAKEOFF,TO_GROUND_ROLL,114.27,80,-34.27,3.63,-0.39,-0.14,0.04,90.11,0.108,1,0,0,0,0,0,0,0,0,0,0,0,0,0,0,90.21,0,1,0,-0.19,0,0,0.12,90,0,0,0,0,0,0,0,0,-0.193,0,0,3,0,0,0,69,0,0,0,90.21,1,-0.193,-0.102,0.0159,1,0,0.0159,0,0,0,0,0,0,2,2,0,0,VALID,0,0,0,0,0,1,0,0,0,0,0,0,0,0,0,0,0,0,0,0,982.84,985.8,2,0,0.06,0.06,449,14.29,0.08,0.06,33.1,LANDED,X10-G,0:/Integrated Flight Computer/aircraft/x10_g_cfg.ks (inferred preloaded)
33.48,TAKEOFF,TO_GROUND_ROLL,115.95,80,-35.95,3.63,-0.38,-0.14,0.04,90.1,0.108,1,0,0,0,0,0,0,0,0,0,0,0,0,0,0,90.21,0,1,0,-0.19,0,0,0.13,90,0,0,0,0,0,0,0,0,-0.196,0,0,3,0,0,0,69,0,0,0,90.21,1,-0.196,-0.102,0.0159,1,0,0.0159,0,0,0,0,0,0,2,2,0,0,VALID,0,0,0,0,0,1,0,0,0,0,0,0,0,0,0,0,0,0,0,0,989.49,992.34,2,0,0.06,0.06,453,14.29,0.08,0.06,33.38,LANDED,X10-G,0:/Integrated Flight Computer/aircraft/x10_g_cfg.ks (inferred preloaded)
33.76,TAKEOFF,TO_GROUND_ROLL,117.65,80,-37.65,3.63,-0.38,-0.14,0.04,90.1,0.107,1,0,0,0,0,0,0,0,0,0,0,0,0,0,0,90.2,0,1,0,-0.19,0,0,0.13,90,0,0,0,0,0,0,0,0,-0.199,0,0,3,0,0,0,69,0,0,0,90.2,1,-0.199,-0.104,0.0164,1,0,0.0164,0,0,0,0,0,0,2,2,0,0,VALID,0,0,0,0,0,1,0,0,0,0,0,0,0,0,0,0,0,0,0,0,996.19,998.93,2,0,0.06,0.06,457,14.29,0.08,0.06,33.66,LANDED,X10-G,0:/Integrated Flight Computer/aircraft/x10_g_cfg.ks (inferred preloaded)
34.04,TAKEOFF,TO_GROUND_ROLL,119.35,80,-39.35,3.63,-0.38,-0.14,0.04,90.1,0.107,1,0,0,0,0,0,0,0,0,0,0,0,0,0,0,90.2,0,1,0,-0.18,0,0,0.13,90,0,0,0,0,0,0,0,0,-0.202,0,0,3,0,0,0,69,0,0,0,90.2,1,-0.202,-0.103,0.0162,1,0,0.0162,0,0,0,0,0,0,2,2,0,0,VALID,0,0,0,0,0,1,0,0,0,0,0,0,0,0,0,0,0,0,0,0,1002.94,1005.57,2,0,0.06,0.06,461,14.29,0.08,0.06,33.94,LANDED,X10-G,0:/Integrated Flight Computer/aircraft/x10_g_cfg.ks (inferred preloaded)
34.32,TAKEOFF,TO_GROUND_ROLL,121.07,80,-41.07,3.63,-0.37,-0.14,0.03,90.09,0.107,1,0,0,0,0,0,0,0,0,0,0,0,0,0,0,90.2,0,1,0,-0.18,0,0,0.14,90,0,0,0,0,0,0,0,0,-0.204,0,0,3,0,0,0,69,0,0,0,90.2,1,-0.204,-0.103,0.016,1,0,0.016,0,0,0,0,0,0,2,2,0,0,VALID,0,0,0,0,0,1,0,0,0,0,0,0,0,0,0,0,0,0,0,0,1009.72,1012.24,2,0,0.06,0.06,465,14.29,0.08,0.06,34.22,LANDED,X10-G,0:/Integrated Flight Computer/aircraft/x10_g_cfg.ks (inferred preloaded)
34.6,TAKEOFF,TO_GROUND_ROLL,122.8,80,-42.8,3.63,-0.37,-0.13,0.03,90.09,0.107,1,0,0,0,0,0,0,0,0,0,0,0,0,0,0,90.19,0,1,0,-0.17,0,0,0.14,90,0,0,0,0,0,0,0,0,-0.207,0,0,3,0,0,0,69,0,0,0,90.19,1,-0.207,-0.103,0.0162,1,0,0.0162,0,0,0,0,0,0,2,2,0,0,VALID,0,0,0,0,0,1,0,0,0,0,0,0,0,0,0,0,0,0,0,0,1016.5,1018.93,2,0,0.06,0.06,469,14.29,0.08,0.06,34.5,LANDED,X10-G,0:/Integrated Flight Computer/aircraft/x10_g_cfg.ks (inferred preloaded)
34.88,TAKEOFF,TO_GROUND_ROLL,124.54,80,-44.54,3.63,-0.37,-0.13,0.03,90.09,0.107,1,0,0,0,0,0,0,0,0,0,0,0,0,0,0,90.19,0,1,0,-0.17,0,0,0.14,90,0,0,0,0,0,0,0,0,-0.21,0,0,3,0,0,0,69,0,0,0,90.19,1,-0.21,-0.103,0.0159,1,0,0.0159,0,0,0,0,0,0,2,2,0,0,VALID,0,0,0,0,0,1,0,0,0,0,0,0,0,0,0,0,0,0,0,0,1023.29,1025.62,2,0,0.06,0.06,473,14.29,0.08,0.06,34.78,LANDED,X10-G,0:/Integrated Flight Computer/aircraft/x10_g_cfg.ks (inferred preloaded)
35.16,TAKEOFF,TO_GROUND_ROLL,126.3,80,-46.3,3.62,-0.4,-0.12,0.06,90.09,0.107,1,0,0,0,0,0,0,0,0,0,0,0,0,0,0,90.19,0,1,0,-0.18,0,0,0.15,90,0,0,0,0,0,0,0,0,-0.213,0,0,3,0,0,0,69,0,0,0,90.19,1,-0.213,-0.101,0.0153,1,0,0.0153,0,0,0,0,0,0,2,2,0,0,VALID,0,0,0,0,0,1,0,0,0,0,0,0,0,0,0,0,0,0,0,0,1030.06,1032.3,2,0,0.06,0.06,477,14.29,0.08,0.06,35.06,LANDED,X10-G,0:/Integrated Flight Computer/aircraft/x10_g_cfg.ks (inferred preloaded)
35.44,TAKEOFF,TO_GROUND_ROLL,128.06,80,-48.06,3.66,-0.33,-0.04,0.1,90.09,0.103,1,0,0,0,0,0,0,0,0,0,0,0,0,0,0,90.18,0,1,0,-0.15,0,0,0.15,90,0,0,0,0,0,0,0,0,-0.215,0,0,3,0,0,0,69,0,0,0,90.18,1,-0.215,-0.096,0.0141,1,0,0.0141,0,0,0,0,0,0,2,2,0,0,VALID,0,0,0,0,0,1,0,0,0,0,0,0,0,0,0,0,0,0,0,0,1036.79,1038.94,2,0,0.06,0.06,481,14.29,0.08,0.06,35.34,LANDED,X10-G,0:/Integrated Flight Computer/aircraft/x10_g_cfg.ks (inferred preloaded)
35.72,TAKEOFF,TO_GROUND_ROLL,129.84,80,-49.84,3.62,-0.38,-0.15,0.02,90.09,0.103,1,0,0,0,0,0,0,0,0,0,0,0,0,0,0,90.18,0,1,0,-0.17,0,0,0.15,90,0,0,0,0,0,0,0,0,-0.218,0,0,3,0,0,0,69,0,0,0,90.18,1,-0.218,-0.094,0.014,1,0,0.014,0,0,0,0,0,0,2,2,0,0,VALID,0,0,0,0,0,1,0,0,0,0,0,0,0,0,0,0,0,0,0,0,1043.47,1045.55,2,0,0.06,0.06,485,14.29,0.08,0.06,35.62,LANDED,X10-G,0:/Integrated Flight Computer/aircraft/x10_g_cfg.ks (inferred preloaded)
36.02,TAKEOFF,TO_ROTATE,131.76,80,-51.76,3.64,-0.38,-0.1,0.05,90.09,0.108,1,0,0,0,0,0,0,0,0,0,0,0,0,0,0,90.18,0.576,1,0,-0.16,0,0,0.16,90,0,0,0,0,0,0,0,0,-0.221,0,0,3,0,0,0,69,0,0,0,90.18,1,-0.221,-0.093,0.014,1,0,0.014,0,0.1686,0.576,0.681,0.08,0,2,2,0,0,VALID,0,0,0,0,0,1,0,0,0,0,0,0,0,0,0,0,0,0,0,0,1050.73,1052.72,2,0,0.06,0.06,489,13.33,0.08,0.06,35.9,LANDED,X10-G,0:/Integrated Flight Computer/aircraft/x10_g_cfg.ks (inferred preloaded)
36.32,TAKEOFF,TO_ROTATE,133.69,80,-53.69,3.64,-0.35,-0.08,0.07,90.08,0.11,1,0,0,0,0,0,0,0,0,0,0,0,0,0,0,90.18,1.656,1,0,-0.15,0,0,0.16,90,0,0,0,0,0,0,0,0,-0.224,0,0,3,0,0,0,69,0,0,0,90.18,1,-0.224,-0.094,0.0146,1,0,0.0146,0,0.3051,1.656,1.732,0.08,0,2,2,0,0,VALID,0,0,0,0,0,1,0,0,0,0,0,0,0,0,0,0,0,0,0,0,1058.12,1060.05,2,0,0.06,0.06,493,13.33,0.1,0.06,36.2,LANDED,X10-G,0:/Integrated Flight Computer/aircraft/x10_g_cfg.ks (inferred preloaded)
36.6,TAKEOFF,TO_ROTATE,135.51,80,-55.51,3.67,-0.35,0.01,0.16,90.08,0.11,1,0,0,0,0,0,0,0,0,0,0,0,0,0,0,90.18,2.664,1,0,-0.15,0,0,0.16,90,0,0,0,0,0,0,0,0,-0.227,0,0,3,0,0,0,69,0,0,0,90.18,1,-0.227,-0.095,0.0147,1,0,0.0147,0,0.4248,2.664,2.652,0.08,0,2,2,0,0,VALID,0,0,0,0,0,1,0,0,0,0,0,0,0,0,0,0,0,0,0,0,1065.14,1067,2,0,0.06,0.06,497,14.29,0.08,0.06,36.48,LANDED,X10-G,0:/Integrated Flight Computer/aircraft/x10_g_cfg.ks (inferred preloaded)
36.88,TAKEOFF,TO_ROTATE,137.33,80,-57.33,3.73,-0.34,0.19,0.33,90.08,0.11,1,0,0,0,0,0,0,0,0,0,0,0,0,0,0,90.17,3.672,1,0,-0.14,0,0,0.17,90,0,0,0,0,0,0,0,0,-0.229,0,0,3,0,0,0,69,0,0,0,90.17,1,-0.229,-0.095,0.0146,1,0,0.0146,0,0.5321,3.672,3.478,0.08,0,2,2,0,0,VALID,0,0,0,0,0,1,0,0,0,0,0,0,0,0,0,0,0,0,0,0,1072.27,1074.08,2,0,0.06,0.06,501,14.29,0.08,0.06,36.76,LANDED,X10-G,0:/Integrated Flight Computer/aircraft/x10_g_cfg.ks (inferred preloaded)
37.16,TAKEOFF,TO_ROTATE,139.16,80,-59.16,3.89,-0.35,0.6,0.73,90.08,0.11,1,0,0,0,0,0,0,0,0,0,0,0,0,0,0,90.17,4.68,1,0,-0.13,0,0,0.17,90,0,0,0,0,0,0,0,0,-0.232,0,0,3,0,0,0,69,0,0,0,90.17,1,-0.232,-0.094,0.0144,1,0,0.0144,0,0.61,4.68,4.077,0.08,0,2,2,0,0,VALID,0,0,0,0,0,1,0,0,0,0,0,0,0,0,0,0,0,0,0,0,1079.5,1081.25,2,0,0.06,0.06,505,14.29,0.08,0.06,37.04,LANDED,X10-G,0:/Integrated Flight Computer/aircraft/x10_g_cfg.ks (inferred preloaded)
37.44,TAKEOFF,TO_ROTATE,141,80,-61,4.06,-0.3,1.24,1.37,90.08,0.112,1,0,0,0,0,0,0,0,0,0,0,0,0,0,0,90.16,5.688,1,0,-0.13,0,0,0.18,90,0,0,0,0,0,0,0,0,-0.235,0,0,3,0,0,0,69,0,0,0,90.16,1,-0.235,-0.088,0.0123,1,0,0.0123,0,0.6584,5.688,4.449,0.08,0,2,2,0,0,VALID,0,0,0,0,0,1,0,0,0,0,0,0,0,0,0,0,0,0,0,0,1086.83,1088.54,2,0,0.06,0.06,509,14.29,0.08,0.06,37.32,LANDED,X10-G,0:/Integrated Flight Computer/aircraft/x10_g_cfg.ks (inferred preloaded)
37.72,TAKEOFF,TO_ROTATE,142.84,80,-62.84,4.28,-0.34,1.89,2.02,90.08,0.113,1,0,0,0,0,0,0,0,0,0,0,0,0,0,0,90.16,6.696,1,0,-0.13,0,0,0.18,90,0,0,0,0,0,0,0,0,-0.237,0,0,3,0,0,0,69,0,0,0,90.16,1,-0.237,-0.077,0.0098,1,0,0.0098,0,0.7042,6.696,4.802,0.08,0,2,2,0,0,VALID,0,0,0,0,0,1,0,0,0,0,0,0,0,0,0,0,0,0,0,0,1094.26,1095.91,2,0,0.06,0.06,513,14.29,0.08,0.06,37.6,LANDED,X10-G,0:/Integrated Flight Computer/aircraft/x10_g_cfg.ks (inferred preloaded)
38,TAKEOFF,TO_ROTATE,144.68,80,-64.68,4.41,-0.29,2.39,2.51,90.09,0.113,1,0,0,0,0,0,0,0,0,0,0,0,0,0,0,90.15,7.704,1,0,-0.12,0,0,0.18,90,0,0,0,0,0,0,0,0,-0.24,0,0,3,0,0,0,69,0,0,0,90.15,1,-0.24,-0.061,0.0062,1,0,0.0062,0,0.72,7.704,5.31,0.08,0,2,2,0,0,VALID,0,0,0,0,0,1,0,0,0,0,0,0,0,0,0,0,0,0,0,0,1101.79,1103.39,2,0,0.06,0.06,517,14.29,0.08,0.06,37.88,LANDED,X10-G,0:/Integrated Flight Computer/aircraft/x10_g_cfg.ks (inferred preloaded)
38.28,TAKEOFF,TO_ROTATE,146.54,80,-66.54,4.48,-0.33,2.61,2.74,90.1,0.115,1,0,0,0,0,0,0,0,0,0,0,0,0,0,0,90.15,8.712,1,0,-0.13,0,0,0.19,90,0,0,0,0,0,0,0,0,-0.243,0,0,3,0,0,0,69,0,0,0,90.15,1,-0.243,-0.048,0.0047,1,0,0.0047,0,0.72,8.712,6.1,0.08,0,2,2,0,0,VALID,0,0,0,0,0,1,0,0,0,0,0,0,0,0,0,0,0,0,0,0,1109.41,1110.97,2,0,0.06,0.06,521,14.29,0.08,0.06,38.16,LANDED,X10-G,0:/Integrated Flight Computer/aircraft/x10_g_cfg.ks (inferred preloaded)
38.56,TAKEOFF,TO_ROTATE,148.4,80,-68.4,4.41,-0.01,2.49,2.52,90.11,0.117,1,0,0,0,0,0,0,0,0,0,0,0,0,0,0,90.15,9.72,1,0,-0.03,0,0,0.19,90,0,0,0,0,0,0,0,0,-0.247,0,0,3,0,0,0,69,0,0,0,90.15,1,-0.247,-0.037,0.0036,1,0,0.0036,0,0.72,9.72,7.226,0.08,0,2,2,0,0,VALID,0,0,0,0,0,1,0,0,0,0,0,0,0,0,0,0,0,0,0,0,1117.15,1118.68,2,0,0.06,0.06,525,14.29,0.08,0.06,38.44,LANDED,X10-G,0:/Integrated Flight Computer/aircraft/x10_g_cfg.ks (inferred preloaded)
38.84,TAKEOFF,TO_ROTATE,150.28,80,-70.28,4.35,-0.5,2.18,2.35,90.12,0.106,1,0,0,0,0,0,0,0,0,0,0,0,0,0,0,90.14,10.728,1,0,-0.17,0,0,0.19,90,0,0,0,0,0,0,0,0,-0.251,0,0,3,0,0,0,69,0,0,0,90.14,1,-0.251,-0.024,0.0019,1,0,0.0019,0,0.72,10.728,8.545,0.08,0,2,2,0,0,VALID,0,0,0,0,0,1,0,0,0,0,0,0,0,0,0,0,0,0,0,0,1125.02,1126.51,2,0,0.06,0.06,529,14.29,0.08,0.06,38.72,LANDED,X10-G,0:/Integrated Flight Computer/aircraft/x10_g_cfg.ks (inferred preloaded)
39.12,TAKEOFF,TO_ROTATE,152.18,80,-72.18,4.22,-0.15,1.84,1.91,90.13,0.115,1,0,0,0,0,0,0,0,0,0,0,0,0,0,0,90.14,11.5,1,0,-0.07,0,0,0.2,90,0,0,0,0,0,0,0,0,-0.255,0,0,3,0,0,0,69,0,0,0,90.14,1,-0.255,-0.016,0.0011,1,0,0.0011,0,0.72,11.5,9.658,0.08,0,2,2,0,0,VALID,0,0,0,0,0,1,0,0,0,0,0,0,0,0,0,0,0,0,0,0,1133.05,1134.5,2,0,0.06,0.06,533,14.29,0.08,0.06,39,LANDED,X10-G,0:/Integrated Flight Computer/aircraft/x10_g_cfg.ks (inferred preloaded)
39.4,TAKEOFF,TO_ROTATE,154.09,80,-74.09,4.17,-0.4,1.63,1.77,90.13,0.111,1,0,0,0,0,0,0,0,0,0,0,0,0,0,0,90.14,11.5,1,0,-0.14,0,0,0.2,90,0,0,0,0,0,0,0,0,-0.26,0,0,3,0,0,0,69,0,0,0,90.14,1,-0.26,-0.003,-0.0007,1,0,-0.0007,0,0.72,11.5,9.873,0.08,0,2,2,0,0,VALID,0,0,0,0,0,1,0,0,0,0,0,0,0,0,0,0,0,0,0,0,1141.2,1142.62,2,0,0.06,0.06,537,14.29,0.08,0.06,39.28,LANDED,X10-G,0:/Integrated Flight Computer/aircraft/x10_g_cfg.ks (inferred preloaded)
39.68,TAKEOFF,TO_ROTATE,156.02,80,-76.02,4.16,-0.19,1.62,1.69,90.14,0.111,1,0,0,0,0,0,0,0,0,0,0,0,0,0,0,90.13,11.5,1,0,-0.07,0,0,0.21,90,0,0,0,0,0,0,0,0,-0.265,0,0,3,0,0,0,69,0,0,0,90.13,1,-0.265,0.008,-0.0018,1,0,-0.0018,0,0.72,11.5,9.879,0.08,0,2,2,0,0,VALID,0,0,0,0,0,1,0,0,0,0,0,0,0,0,0,0,0,0,0,0,1149.51,1150.9,2,0,0.06,0.06,541,14.29,0.08,0.06,39.56,LANDED,X10-G,0:/Integrated Flight Computer/aircraft/x10_g_cfg.ks (inferred preloaded)
39.96,TAKEOFF,TO_ROTATE,157.96,80,-77.96,4.24,-0.32,1.83,1.94,90.15,0.114,1,0,0,0,0,0,0,0,0,0,0,0,0,0,0,90.13,11.5,1,0,-0.12,0,0,0.21,90,0,0,0,0,0,0,0,0,-0.27,0,0,3,0,0,0,69,0,0,0,90.13,1,-0.27,0.019,-0.0031,1,0,-0.0031,0,0.72,11.5,9.674,0.08,0,2,2,0,0,VALID,0,0,0,0,0,1,0,0,0,0,0,0,0,0,0,0,0,0,0,0,1157.95,1159.31,2,0,0.06,0.06,545,14.29,0.08,0.06,39.84,LANDED,X10-G,0:/Integrated Flight Computer/aircraft/x10_g_cfg.ks (inferred preloaded)
40.24,TAKEOFF,TO_ROTATE,159.92,80,-79.92,4.33,-0.21,2.14,2.22,90.15,0.114,1,0,0,0,0,0,0,0,0,0,0,0,0,0,0,90.12,11.5,1,0,-0.07,0,0,0.22,90,0,0,0,0,0,0,0,0,-0.276,0,0,3,0,0,0,69,0,0,0,90.12,1,-0.276,0.029,-0.0045,1,0,-0.0045,0,0.72,11.5,9.357,0.08,0,2,2,0,0,VALID,0,0,0,0,0,1,0,0,0,0,0,0,0,0,0,0,0,0,0,0,1166.52,1167.86,2,0,0.06,0.06,549,14.29,0.08,0.06,40.12,LANDED,X10-G,0:/Integrated Flight Computer/aircraft/x10_g_cfg.ks (inferred preloaded)
40.52,TAKEOFF,TO_ROTATE,161.88,80,-81.88,4.42,-0.28,2.44,2.53,90.15,0.117,1,0,0,0,0,0,0,0,0,0,0,0,0,0,0,90.12,11.5,1,0,-0.1,0,0,0.22,90,0,0,0,0,0,0,0,0,-0.281,0,0,3,0,0,0,69,0,0,0,90.12,1,-0.281,0.038,-0.0055,1,0,-0.0055,0,0.72,11.5,9.062,0.08,0,2,2,0,0,VALID,0,0,0,0,0,1,0,0,0,0,0,0,0,0,0,0,0,0,0,0,1175.22,1176.53,2,0,0.06,0.06,553,14.29,0.08,0.06,40.4,LANDED,X10-G,0:/Integrated Flight Computer/aircraft/x10_g_cfg.ks (inferred preloaded)
