t_s,phase,subphase,ias_ms,vapp_ms,spd_err_ms,agl_m,vs_ms,pitch_deg,aoa_deg,hdg_deg,bank_deg,thr_cmd,thr_cur,thr_intg,at_gain,at_tau_s,at_a_up,at_a_dn,at_kp_thr,at_ki_spd,at_thr_slew,aa_hdg_cmd_deg,aa_fpa_cmd_deg,ils_loc_m,ils_gs_m,ils_dist_km,loc_corr_deg,gs_corr_deg,flare_fpa_cmd,flare_tgt_vs,flare_frac,steer_hdg_deg,steer_blend,ro_loc_corr_deg,ro_hdg_err_deg,ro_yaw_tgt,ro_yaw_scale,ro_yaw_gate,yaw_cmd,roll_cmd,pitch_cmd,ro_pitch_tgt_deg,ro_pitch_err_deg,ro_pitch_ff,ro_roll_assist,flaps_cur,flaps_tgt,asc_j_ab,asc_j_rk,asc_validity,asc_q_pa,asc_q_raw_pa,asc_mach,asc_apo_m,asc_drag_n,asc_w_prop,asc_edot_aero,asc_edot_orb,asc_pitch_bias,asc_blend,asc_spooling,asc_ab_thr_ratio,asc_ab_t_now,asc_ab_t_avail,asc_ab_ign_on,asc_ab_flameouts,asc_rk_t_now,asc_rk_t_avail,asc_rk_ign_on,asc_rk_flameouts,ship_thrust,ship_avail_thrust,ship_ign_on,ship_flameouts,ifc_raw_dt_s,ifc_dt_s,ifc_loop_n,ifc_hz_est,ifc_raw_dt_max_s,ifc_raw_dt_min_s,phase_el_s,status
1.12,APPROACH,FLY_TO_FIX,238.33,140.8,-97.53,1301.55,-0.26,4.93,5,269.99,0.13,0,0,0,1,0.6,0.9,0.75,0.35,0.0168,0.4,250.26,0.202,0,0,0,0,0,0,0,0,269.99,0,0,0,0,0,0,0,0,0,0,0,0,0,0,0,0,0,VALID,0,0,0,0,0,1,0,0,0,0,0,0,0,0,0,0,0,0,0,0,0,3821.77,6,0,0.82,0.5,1,0.43,0.82,0.02,1.2,FLYING
3.46,APPROACH,FLY_TO_FIX,228.75,143.2,-85.55,1300.69,-3.26,9.86,16.01,252.97,66.4,0.2,0,-20,1,0.6,2.537,0.895,0.35,0.0168,0.4,249.67,0.205,0,0,0,0,0,0,0,0,269.99,0,0,0,0,0,0,0,0,0,0,0,0,0,0,0,0,0,VALID,0,0,0,0,0,1,0,0,0,0,0,0,0,0,0,0,0,0,0,0,0,3711.56,6,0,0.72,0.5,4,1.29,0.88,0.72,3.52,FLYING
5.74,APPROACH,FLY_TO_FIX,207.43,145.6,-61.83,1291.43,-1.41,1.96,9.83,243.11,46.976,0.8,0,-20,1,0.6,3.824,0.895,0.35,0.0168,0.4,249.36,0.25,0,0,0,0,0,0,0,0,269.99,0,0,0,0,0,0,0,0,0,0,0,0,0,0,0,0,0,VALID,0,0,0,0,0,1,0,0,0,0,0,0,0,0,0,0,0,0,0,0,0,3455.44,6,0,0.72,0.5,7,1.32,0.84,0.72,5.8,FLYING
8.04,APPROACH,FLY_TO_FIX,198.63,148,-50.63,1289.11,-2.08,6.05,7.71,243.2,10.321,1,0,-20,1,0.6,4.5,0.895,0.35,0.0168,0.4,249.28,0.264,0,0,0,0,0,0,0,0,269.99,0,0,0,0,0,0,0,0,0,0,0,0,0,0,0,0,0,VALID,0,0,0,0,0,1,0,0,0,0,0,0,0,0,0,0,0,0,0,0,0,3345.45,6,0,0.74,0.5,10,1.3,0.82,0.72,8.1,FLYING
10.34,APPROACH,FLY_TO_FIX,191.75,149,-42.75,1287.96,-0.24,7.61,7.72,247.23,1.408,1,0,-20,1,0.6,4.5,0.895,0.35,0.0168,0.4,249.27,0.27,0,0,0,0,0,0,0,0,269.99,0,0,0,0,0,0,0,0,0,0,0,0,0,0,0,0,0,VALID,0,0,0,0,0,1,0,0,0,0,0,0,0,0,0,0,0,0,0,0,0,3257.97,6,0,0.74,0.5,13,1.29,0.84,0.74,10.42,FLYING
12.66,APPROACH,FLY_TO_FIX,185.46,149,-36.46,1288.56,0.31,8.19,8.09,249.2,0.008,1,0,-20,1,0.6,4.5,0.895,0.35,0.0168,0.4,249.27,0.268,0,0,0,0,0,0,0,0,269.99,0,0,0,0,0,0,0,0,0,0,0,0,0,0,0,0,0,VALID,0,0,0,0,0,1,0,0,0,0,0,0,0,0,0,0,0,0,0,0,0,3176.32,6,0,0.74,0.5,16,1.29,0.84,0.74,12.74,FLYING
14.98,APPROACH,FLY_TO_FIX,179.35,149,-30.35,1289.97,0.54,8.74,8.57,249.28,0.04,0.8934,0,-20,1,0.6,4.5,0.895,0.35,0.0168,0.4,249.27,0.261,0,0,0,0,0,0,0,0,269.99,0,0,0,0,0,0,0,0,0,0,0,0,0,0,0,0,0,VALID,0,0,0,0,0,1,0,0,0,0,0,0,0,0,0,0,0,0,0,0,0,3096.33,6,0,0.74,0.5,19,1.29,0.84,0.74,15.06,FLYING
17.34,APPROACH,FLY_TO_FIX,173.18,149,-24.18,1291.7,0.73,9.1,8.88,249.28,0.027,0.8391,0,-20,1,0.6,4.5,0.895,0.35,0.0168,0.4,249.26,0.252,0,0,0,0,0,0,0,0,269.99,0,0,0,0,0,0,0,0,0,0,0,0,0,1,1,0,0,VALID,0,0,0,0,0,1,0,0,0,0,0,0,0,0,0,0,0,0,0,0,0,3015.59,6,0,0.78,0.5,22,1.27,0.84,0.74,17.42,FLYING
19.6,APPROACH,FLY_TO_FIX,167.31,149,-18.31,1293.53,0.96,8.99,8.68,249.28,0.016,0.7757,0,-20,1,0.6,4.5,0.895,0.35,0.0168,0.4,249.26,0.243,0,0,0,0,0,0,0,0,269.99,0,0,0,0,0,0,0,0,0,0,0,0,0,1,1,0,0,VALID,0,0,0,0,0,1,0,0,0,0,0,0,0,0,0,0,0,0,0,0,0,2938.71,6,0,0.72,0.5,25,1.33,0.82,0.72,19.68,FLYING
21.86,APPROACH,FLY_TO_FIX,161.06,149,-12.06,1296.46,1.17,9.62,9.24,249.28,0.035,0.7845,0,-20,1,0.6,4.5,0.895,0.35,0.0168,0.4,249.26,0.229,0,0,0,0,0,0,0,0,269.99,0,0,0,0,0,0,0,0,0,0,0,0,0,1,1,0,0,VALID,0,0,0,0,0,1,0,0,0,0,0,0,0,0,0,0,0,0,0,0,0,2857.59,6,0,0.72,0.5,28,1.33,0.82,0.72,21.94,FLYING
24.2,APPROACH,FLY_TO_FIX,154.97,149,-5.97,1299.63,1.02,10.45,10.09,249.28,0.027,0.7702,0,-20,1,0.6,4.5,0.895,0.35,0.0168,0.4,249.26,0.213,0,0,0,0,0,0,0,0,269.99,0,0,0,0,0,0,0,0,0,0,0,0,0,1,1,0,0,VALID,0,0,0,0,0,1,0,0,0,0,0,0,0,0,0,0,0,0,0,0,0,2779.44,6,0,0.74,0.5,31,1.28,0.86,0.72,24.28,FLYING
26.54,APPROACH,FLY_TO_FIX,148.86,149,0.14,1302.49,0.9,11.36,11.03,249.28,0.021,1,0,-20,1,0.6,4.5,0.895,0.35,0.0168,0.4,249.26,0.198,0,0,0,0,0,0,0,0,269.99,0,0,0,0,0,0,0,0,0,0,0,0,0,1,1,0,0,VALID,0,0,0,0,0,1,0,0,0,0,0,0,0,0,0,0,0,0,0,0,0,2701.65,6,0,0.74,0.5,34,1.29,0.84,0.74,26.6,FLYING
28.84,APPROACH,FLY_TO_FIX,144.72,149,4.28,1304.62,0.91,11.44,11.11,249.28,0.019,1,0,-19.701,1,0.6,4.5,0.895,0.35,0.0168,0.4,249.26,0.187,0,0,0,0,0,0,0,0,269.99,0,0,0,0,0,0,0,0,0,0,0,0,0,1,1,0,0,VALID,0,0,0,0,0,1,0,0,0,0,0,0,0,0,0,0,0,0,0,0,832.17,2650.81,6,0,0.74,0.5,37,1.29,0.84,0.74,28.92,FLYING
31.18,APPROACH,FLY_TO_FIX,146.01,149,2.99,1306.35,0.96,10.81,10.48,249.28,0.028,0.5609,0,-14.046,1,0.6,4.5,0.895,0.35,0.0168,0.4,249.26,0.179,0,0,0,0,0,0,0,0,269.99,0,0,0,0,0,0,0,0,0,0,0,0,0,1,1,0,0,VALID,0,0,0,0,0,1,0,0,0,0,0,0,0,0,0,0,0,0,0,0,1423.75,2666.76,6,0,0.74,0.5,40,1.29,0.84,0.74,31.24,FLYING
33.48,APPROACH,FLY_TO_FIX,150.06,149,-1.06,1308.26,0.95,10.37,10.04,249.28,0.033,0,0,-12.959,1,0.6,4.5,0.895,0.35,0.0168,0.4,249.26,0.169,0,0,0,0,0,0,0,0,269.99,0,0,0,0,0,0,0,0,0,0,0,0,0,1,1,0,0,VALID,0,0,0,0,0,1,0,0,0,0,0,0,0,0,0,0,0,0,0,0,1145.14,2716.72,6,0,0.74,0.5,43,1.29,0.84,0.74,33.56,FLYING
35.82,APPROACH,FLY_TO_FIX,150.96,149,-1.96,1310.6,0.9,10.64,10.32,249.28,0.029,0,0,-12.765,1,0.6,4.5,0.792,0.35,0.0168,0.4,249.26,0.158,0,0,0,0,0,0,0,0,269.99,0,0,0,0,0,0,0,0,0,0,0,0,0,1,1,0,0,VALID,0,0,0,0,0,1,0,0,0,0,0,0,0,0,0,0,0,0,0,0,493.79,2727.74,6,0,0.74,0.5,46,1.29,0.84,0.74,35.88,FLYING
38.14,APPROACH,FLY_TO_FIX,148.78,149,0.22,1312.96,0.83,11.15,10.85,249.27,0.027,0,0,-12.581,1,0.6,4.5,0.75,0.35,0.0168,0.4,249.26,0.146,0,0,0,0,0,0,0,0,269.99,0,0,0,0,0,0,0,0,0,0,0,0,0,1,1,0,0,VALID,0,0,0,0,0,1,0,0,0,0,0,0,0,0,0,0,0,0,0,0,211.39,2700.41,6,0,0.74,0.5,49,1.29,0.84,0.74,38.2,FLYING
40.46,APPROACH,FLY_TO_FIX,145.49,149,3.51,1315.15,0.77,11.64,11.35,249.27,0.023,0.535,0,-9.014,1,0.6,4.5,0.75,0.35,0.0168,0.4,249.26,0.135,0,0,0,0,0,0,0,0,269.99,0,0,0,0,0,0,0,0,0,0,0,0,0,1,1,0,0,VALID,0,0,0,0,0,1,0,0,0,0,0,0,0,0,0,0,0,0,0,0,295.86,2659.18,6,0,0.74,0.5,52,1.29,0.84,0.74,40.52,FLYING
42.78,APPROACH,FLY_TO_FIX,144.19,149,4.81,1316.83,0.79,11.45,11.17,249.27,0.026,0.6691,0,-2.076,1,0.6,4.5,0.75,0.35,0.0168,0.4,249.25,0.126,0,0,0,0,0,0,0,0,269.99,0,0,0,0,0,0,0,0,0,0,0,0,0,1,1,0,0,VALID,0,0,0,0,0,1,0,0,0,0,0,0,0,0,0,0,0,0,0,0,807.62,2643.28,6,0,0.74,0.5,55,1.29,0.84,0.74,42.84,FLYING
45.1,APPROACH,FLY_TO_FIX,145.8,149,3.2,1318.34,0.8,11,10.72,249.27,0.029,0.2925,0,3.786,1,0.6,4.5,0.75,0.35,0.0168,0.4,249.25,0.119,0,0,0,0,0,0,0,0,269.99,0,0,0,0,0,0,0,0,0,0,0,0,0,1,1,0,0,VALID,0,0,0,0,0,1,0,0,0,0,0,0,0,0,0,0,0,0,0,0,1060.15,2663.09,6,0,0.74,0.5,58,1.29,0.84,0.74,45.16,FLYING
47.42,APPROACH,FLY_TO_FIX,147.3,149,1.7,1320.14,0.75,11,10.73,249.27,0.032,0.0707,0,6.844,1,0.6,4.5,0.75,0.35,0.0168,0.4,249.25,0.11,0,0,0,0,0,0,0,0,269.99,0,0,0,0,0,0,0,0,0,0,0,0,0,1,1,0,0,VALID,0,0,0,0,0,1,0,0,0,0,0,0,0,0,0,0,0,0,0,0,702.66,2681.39,6,0,0.74,0.5,61,1.29,0.84,0.74,47.48,FLYING
49.74,APPROACH,FLY_TO_FIX,146.52,149,2.48,1322,0.71,11.24,10.99,249.27,0.029,0.3482,0,9.998,1,0.6,4.5,0.75,0.35,0.0168,0.4,249.25,0.101,0,0,0,0,0,0,0,0,269.99,0,0,0,0,0,0,0,0,0,0,0,0,0,1,1,0,0,VALID,0,0,0,0,0,1,0,0,0,0,0,0,0,0,0,0,0,0,0,0,531.71,2671.4,6,0,0.74,0.5,64,1.29,0.84,0.74,49.8,FLYING
52.06,APPROACH,FLY_TO_FIX,145.98,149,3.02,1323.58,0.71,11.16,10.91,249.27,0.03,0.5162,0,14.424,1,0.6,4.5,0.75,0.35,0.0168,0.4,249.25,0.093,0,0,0,0,0,0,0,0,269.99,0,0,0,0,0,0,0,0,0,0,0,0,0,1,1,0,0,VALID,0,0,0,0,0,1,0,0,0,0,0,0,0,0,0,0,0,0,0,0,761.46,2664.67,6,0,0.74,0.5,67,1.29,0.84,0.74,52.12,FLYING
54.38,APPROACH,FLY_TO_FIX,147.06,149,1.94,1324.99,0.7,10.84,10.6,249.27,0.03,0.347,0,18.057,1,0.6,4.5,0.75,0.35,0.0168,0.4,249.25,0.086,0,0,0,0,0,0,0,0,269.99,0,0,0,0,0,0,0,0,0,0,0,0,0,1,1,0,0,VALID,0,0,0,0,0,1,0,0,0,0,0,0,0,0,0,0,0,0,0,0,952.22,2678.12,6,0,0.74,0.5,70,1.29,0.84,0.74,54.44,FLYING
56.7,APPROACH,FLY_TO_FIX,148.53,149,0.47,1326.5,0.67,10.72,10.48,249.27,0.031,0.1481,0,19.412,1,0.6,4.5,0.75,0.35,0.0168,0.4,249.25,0.078,0,0,0,0,0,0,0,0,269.99,0,0,0,0,0,0,0,0,0,0,0,0,0,1,1,0,0,VALID,0,0,0,0,0,1,0,0,0,0,0,0,0,0,0,0,0,0,0,0,797.79,2696.19,6,0,0.74,0.5,73,1.29,0.84,0.74,56.76,FLYING
59.02,APPROACH,FLY_TO_FIX,148.55,149,0.45,1328.11,0.64,10.84,10.61,249.27,0.031,0.2589,0,19.93,1,0.6,4.5,0.75,0.35,0.0168,0.4,249.25,0.07,0,0,0,0,0,0,0,0,269.99,0,0,0,0,0,0,0,0,0,0,0,0,0,1,1,0,0,VALID,0,0,0,0,0,1,0,0,0,0,0,0,0,0,0,0,0,0,0,0,603.46,2696.14,6,0,0.74,0.5,76,1.29,0.84,0.74,59.08,FLYING
61.34,APPROACH,FLY_TO_FIX,148.21,149,0.79,1329.57,0.62,10.83,10.61,249.26,0.03,0.3743,0,20,1,0.6,4.5,0.75,0.35,0.0168,0.4,249.25,0.063,0,0,0,0,0,0,0,0,269.99,0,0,0,0,0,0,0,0,0,0,0,0,0,1,1,0,0,VALID,0,0,0,0,0,1,0,0,0,0,0,0,0,0,0,0,0,0,0,0,690.72,2691.77,6,0,0.74,0.5,79,1.29,0.84,0.74,61.4,FLYING
63.66,APPROACH,FLY_TO_FIX,148.61,149,0.39,1330.91,0.61,10.69,10.47,249.26,0.034,0.3076,0,20,1,0.6,4.5,0.75,0.35,0.0168,0.4,249.24,0.056,0,0,0,0,0,0,0,0,269.99,0,0,0,0,0,0,0,0,0,0,0,0,0,1,1,0,0,VALID,0,0,0,0,0,1,0,0,0,0,0,0,0,0,0,0,0,0,0,0,796.3,2696.79,6,0,0.74,0.5,82,1.29,0.84,0.74,63.72,FLYING
65.98,APPROACH,FLY_TO_FIX,149.33,149,-0.33,1332.25,0.59,10.61,10.4,249.26,0.033,0.2,0,19.777,1,0.6,4.5,0.75,0.35,0.0168,0.4,249.24,0.049,0,0,0,0,0,0,0,0,269.99,0,0,0,0,0,0,0,0,0,0,0,0,0,1,1,0,0,VALID,0,0,0,0,0,1,0,0,0,0,0,0,0,0,0,0,0,0,0,0,741.79,2705.64,6,0,0.74,0.5,85,1.29,0.84,0.74,66.04,FLYING
68.3,APPROACH,FLY_TO_FIX,149.38,149,-0.38,1333.63,0.56,10.66,10.46,249.26,0.032,0.2344,0,19.134,1,0.6,4.5,0.75,0.35,0.0168,0.4,249.24,0.042,0,0,0,0,0,0,0,0,269.99,0,0,0,0,0,0,0,0,0,0,0,0,0,1,1,0,0,VALID,0,0,0,0,0,1,0,0,0,0,0,0,0,0,0,0,0,0,0,0,629.49,2706.09,6,0,0.74,0.5,88,1.29,0.84,0.74,68.36,FLYING
70.62,APPROACH,FLY_TO_FIX,149.13,149,-0.13,1334.93,0.54,10.68,10.49,249.26,0.032,0.3037,0,18.822,1,0.6,4.5,0.75,0.35,0.0168,0.4,249.24,0.036,0,0,0,0,0,0,0,0,269.99,0,0,0,0,0,0,0,0,0,0,0,0,0,1,1,0,0,VALID,0,0,0,0,0,1,0,0,0,0,0,0,0,0,0,0,0,0,0,0,659.66,2702.86,6,0,0.74,0.5,91,1.29,0.84,0.74,70.68,FLYING
72.94,APPROACH,FLY_TO_FIX,149.23,149,-0.23,1336.13,0.53,10.61,10.43,249.26,0.033,0.2827,0,18.573,1,0.6,4.5,0.75,0.35,0.0168,0.4,249.24,0.03,0,0,0,0,0,0,0,0,269.99,0,0,0,0,0,0,0,0,0,0,0,0,0,1,1,0,0,VALID,0,0,0,0,0,1,0,0,0,0,0,0,0,0,0,0,0,0,0,0,719.12,2704.01,6,0,0.74,0.5,94,1.29,0.84,0.74,73,FLYING
75.26,APPROACH,FLY_TO_FIX,149.55,149,-0.55,1337.3,0.51,10.57,10.39,249.26,0.032,0.2197,0,17.904,1,0.6,4.5,0.75,0.35,0.0168,0.4,249.24,0.024,0,0,0,0,0,0,0,0,269.99,0,0,0,0,0,0,0,0,0,0,0,0,0,1,1,0,0,VALID,0,0,0,0,0,1,0,0,0,0,0,0,0,0,0,0,0,0,0,0,703.03,2707.89,6,0,0.74,0.5,97,1.29,0.84,0.74,75.32,FLYING
77.58,APPROACH,FLY_TO_FIX,149.54,149,-0.54,1338.49,0.49,10.61,10.44,249.26,0.033,0.2279,0,17.028,1,0.6,4.5,0.75,0.35,0.0168,0.4,249.23,0.018,0,0,0,0,0,0,0,0,269.99,0,0,0,0,0,0,0,0,0,0,0,0,0,1,1,0,0,VALID,0,0,0,0,0,1,0,0,0,0,0,0,0,0,0,0,0,0,0,0,634.95,2707.64,6,0,0.74,0.5,100,1.29,0.84,0.74,77.64,FLYING
79.9,APPROACH,FLY_TO_FIX,149.3,149,-0.3,1339.61,0.47,10.64,10.47,249.25,0.031,0.2726,0,16.459,1,0.6,4.5,0.75,0.35,0.0168,0.4,249.23,0.012,0,0,0,0,0,0,0,0,269.99,0,0,0,0,0,0,0,0,0,0,0,0,0,1,1,0,0,VALID,0,0,0,0,0,1,0,0,0,0,0,0,0,0,0,0,0,0,0,0,644.02,2704.49,6,0,0.74,0.5,103,1.29,0.84,0.74,79.96,FLYING
82.22,APPROACH,FLY_TO_FIX,149.23,149,-0.23,1340.67,0.46,10.61,10.45,249.25,0.035,0.2697,0,16.104,1,0.6,4.5,0.75,0.35,0.0168,0.4,249.23,0.007,0,0,0,0,0,0,0,0,269.99,0,0,0,0,0,0,0,0,0,0,0,0,0,1,1,0,0,VALID,0,0,0,0,0,1,0,0,0,0,0,0,0,0,0,0,0,0,0,0,681.76,2703.6,6,0,0.74,0.5,106,1.29,0.84,0.74,82.28,FLYING
84.54,APPROACH,FLY_TO_FIX,149.34,149,-0.34,1341.69,0.44,10.59,10.43,249.25,0.037,0.2342,0,15.65,1,0.6,4.5,0.75,0.35,0.0168,0.4,249.23,0.002,0,0,0,0,0,0,0,0,269.99,0,0,0,0,0,0,0,0,0,0,0,0,0,1,1,0,0,VALID,0,0,0,0,0,1,0,0,0,0,0,0,0,0,0,0,0,0,0,0,685.04,2704.89,6,0,0.74,0.5,109,1.29,0.84,0.74,84.6,FLYING
86.86,APPROACH,FLY_TO_FIX,149.33,149,-0.33,1342.7,0.42,10.61,10.46,249.25,0.036,0.2307,0,15.118,1,0.6,4.5,0.75,0.35,0.0168,0.4,249.23,0,0,0,0,0,0,0,0,0,269.99,0,0,0,0,0,0,0,0,0,0,0,0,0,1,1,0,0,VALID,0,0,0,0,0,1,0,0,0,0,0,0,0,0,0,0,0,0,0,0,646.96,2704.59,6,0,0.74,0.5,112,1.29,0.84,0.74,86.92,FLYING
89.18,APPROACH,FLY_TO_FIX,149.15,149,-0.15,1343.68,0.41,10.64,10.49,249.25,0.037,0.2582,0,14.798,1,0.6,4.5,0.75,0.35,0.0168,0.4,249.22,0,0,0,0,0,0,0,0,0,269.99,0,0,0,0,0,0,0,0,0,0,0,0,0,1,1,0,0,VALID,0,0,0,0,0,1,0,0,0,0,0,0,0,0,0,0,0,0,0,0,646.34,2702.24,6,0,0.74,0.5,115,1.29,0.84,0.74,89.24,FLYING
91.5,APPROACH,FLY_TO_FIX,149.05,149,-0.05,1344.62,0.4,10.63,10.49,249.24,0.038,0.2649,0,14.691,1,0.6,4.5,0.75,0.35,0.0168,0.4,249.22,0,0,0,0,0,0,0,0,0,269.99,0,0,0,0,0,0,0,0,0,0,0,0,0,1,1,0,0,VALID,0,0,0,0,0,1,0,0,0,0,0,0,0,0,0,0,0,0,0,0,670.19,2700.89,6,0,0.74,0.5,118,1.29,0.84,0.74,91.56,FLYING
93.82,APPROACH,FLY_TO_FIX,149.08,149,-0.08,1345.55,0.4,10.62,10.47,249.24,0.042,0.2461,0,14.594,1,0.6,4.5,0.75,0.35,0.0168,0.4,249.22,0,0,0,0,0,0,0,0,0,269.99,0,0,0,0,0,0,0,0,0,0,0,0,0,1,1,0,0,VALID,0,0,0,0,0,1,0,0,0,0,0,0,0,0,0,0,0,0,0,0,681.3,2701.26,6,0,0.74,0.5,121,1.29,0.84,0.74,93.88,FLYING
96.14,APPROACH,FLY_TO_FIX,149.1,149,-0.1,1346.48,0.4,10.62,10.48,249.24,0.041,0.237,0,14.436,1,0.6,4.5,0.75,0.35,0.0168,0.4,249.21,0,0,0,0,0,0,0,0,0,269.99,0,0,0,0,0,0,0,0,0,0,0,0,0,1,1,0,0,VALID,0,0,0,0,0,1,0,0,0,0,0,0,0,0,0,0,0,0,0,0,663.06,2701.4,6,0,0.74,0.5,124,1.29,0.84,0.74,96.2,FLYING
98.46,APPROACH,FLY_TO_FIX,149.01,149,-0.01,1347.41,0.39,10.64,10.5,249.23,0.046,0.2513,0,14.364,1,0.6,4.5,0.75,0.35,0.0168,0.4,249.21,0,0,0,0,0,0,0,0,0,269.99,0,0,0,0,0,0,0,0,0,0,0,0,0,1,1,0,0,VALID,0,0,0,0,0,1,0,0,0,0,0,0,0,0,0,0,0,0,0,0,656.38,2700.19,6,0,0.74,0.5,127,1.29,0.84,0.74,98.52,FLYING
100.78,APPROACH,FLY_TO_FIX,148.94,149,0.06,1348.32,0.39,10.65,10.51,249.23,0.052,0.2599,0,14.423,1,0.6,4.5,0.75,0.35,0.0168,0.4,249.2,0,0,0,0,0,0,0,0,0,269.99,0,0,0,0,0,0,0,0,0,0,0,0,0,1,1,0,0,VALID,0,0,0,0,0,1,0,0,0,0,0,0,0,0,0,0,0,0,0,0,668.79,2699.22,6,0,0.74,0.5,130,1.29,0.84,0.74,100.84,FLYING
103.1,APPROACH,FLY_TO_FIX,148.95,149,0.05,1349.22,0.39,10.64,10.5,249.22,0.059,0.2521,0,14.506,1,0.6,4.5,0.75,0.35,0.0168,0.4,249.19,0,0,0,0,0,0,0,0,0,269.99,0,0,0,0,0,0,0,0,0,0,0,0,0,1,1,0,0,VALID,0,0,0,0,0,1,0,0,0,0,0,0,0,0,0,0,0,0,0,0,679.27,2699.31,6,0,0.74,0.5,133,1.29,0.84,0.74,103.16,FLYING
105.4,APPROACH,FLY_TO_FIX,148.21,149,0.79,1349.42,-0.85,10.9,10.56,250.35,-22.586,0.4066,0,15.036,1,0.6,4.5,0.75,0.35,0.0168,0.4,268.57,0,0,0,0,0,0,0,0,0,269.99,0,0,0,0,0,0,0,0,0,0,0,0,0,1,1,0,0,VALID,0,0,0,0,0,1,0,0,0,0,0,0,0,0,0,0,0,0,0,0,690.82,2690.04,6,0,0.72,0.5,136,1.3,0.86,0.72,105.46,FLYING
107.66,APPROACH,FLY_TO_FIX,147.15,149,1.85,1344.35,-2.47,10.47,11.91,257.69,-6.027,0.5837,0,17.339,1,0.6,4.5,0.75,0.35,0.0168,0.4,268.98,0,0,0,0,0,0,0,0,0,269.99,0,0,0,0,0,0,0,0,0,0,0,0,0,1,1,0,0,VALID,0,0,0,0,0,1,0,0,0,0,0,0,0,0,0,0,0,0,0,0,908.79,2677.07,6,0,0.72,0.5,139,1.33,0.82,0.72,107.72,FLYING
109.96,APPROACH,FLY_TO_FIX,147.3,149,1.7,1339.56,-1.77,11.49,12.76,259.48,-28.253,0.5138,0,20,1,0.6,4.5,0.75,0.35,0.0168,0.4,269.36,0,0,0,0,0,0,0,0,0,269.99,0,0,0,0,0,0,0,0,0,0,0,0,0,1,1,0,0,VALID,0,0,0,0,0,1,0,0,0,0,0,0,0,0,0,0,0,0,0,0,1165.73,2679.58,6,0,0.74,0.5,142,1.3,0.82,0.72,110.02,FLYING
112.28,APPROACH,FLY_TO_FIX,148.55,149,0.45,1336.36,-0.58,10.9,12.76,265.74,-28.781,0.2594,0,20,1,0.6,4.5,0.75,0.35,0.0168,0.4,269.67,0,0,0,0,0,0,0,0,0,269.99,0,0,0,0,0,0,0,0,0,0,0,0,0,1,1,0,0,VALID,0,0,0,0,0,1,0,0,0,0,0,0,0,0,0,0,0,0,0,0,1096.4,2695.29,6,0,0.74,0.5,145,1.29,0.84,0.74,112.34,FLYING
114.64,APPROACH,FLY_TO_FIX,148.01,149,0.99,1337.41,0.93,13.13,13.91,268.84,-22.871,0.4173,0,20,1,0.6,4.5,0.75,0.35,0.0168,0.4,269.89,0,0,0,0,0,0,0,0,0,269.99,0,0,0,0,0,0,0,0,0,0,0,0,0,2,2,0,0,VALID,0,0,0,0,0,1,0,0,0,0,0,0,0,0,0,0,0,0,0,0,870.36,2688.56,6,0,0.72,0.5,148,1.27,0.84,0.72,114.7,FLYING
116.8,APPROACH,ILS_TRACK,146.33,149,2.67,1341.2,3.89,10.71,10.01,270.27,-22.189,0.712,0,20,1,0.6,4.5,0.75,0.35,0.0168,0.4,269.99,0,0,0,0,0,0,0,0,0,269.99,0,0,0,0,0,0,0,0,0,0,0,0,0,2,2,0,0,VALID,0,0,0,0,0,1,0,0,0,0,0,0,0,0,0,0,0,0,0,0,1099.03,2667.3,6,0,0.74,0.5,151,1.38,0.84,0.72,116.88,FLYING
119.38,APPROACH,ILS_TRACK,148.21,146.6,-1.61,1342.42,0.08,10.3,9.98,269.61,8.189,0.1418,0,19.185,1,0.6,4.5,0.75,0.35,0.0168,0.4,265.64,-0.007,180.03,-238.91,28.841,-4.761,0,0,0,0,269.99,0,0,0,0,0,0,0,0,0,0,0,0,0,2,2,0,0,VALID,0,0,0,0,0,1,0,0,0,0,0,0,0,0,0,0,0,0,0,0,1193.82,2690.54,6,0,0.8,0.5,154,1.16,0.82,0.74,119.46,FLYING
121.88,APPROACH,ILS_TRACK,148.09,144.2,-3.89,1340.74,-0.24,10.83,10.96,264.81,0.477,0.0074,0,17.013,1,0.6,4.5,0.75,0.35,0.0168,0.4,267.47,0.002,161.05,-219.36,28.436,-2.934,0,0,0,0,269.99,0,0,0,0,0,0,0,0,0,0,0,0,0,2,2,0,0,VALID,0,0,0,0,0,1,0,0,0,0,0,0,0,0,0,0,0,0,0,0,544.63,2689.14,6,0,0.8,0.5,157,1.2,0.9,0.8,121.96,FLYING
124.46,APPROACH,ILS_TRACK,145.23,141.8,-3.43,1339.65,-0.49,10.29,10.44,267.75,-6.452,0.2633,0,11.578,1,0.6,4.5,0.75,0.35,0.0168,0.4,268.7,0.007,136.47,-198.81,28.023,-1.7,0,0,0,0,269.99,0,0,0,0,0,0,0,0,0,0,0,0,0,2,2,0,0,VALID,0,0,0,0,0,1,0,0,0,0,0,0,0,0,0,0,0,0,0,0,396.14,2653.63,6,0,0.82,0.5,160,1.16,0.94,0.8,124.54,FLYING
127.02,APPROACH,ILS_TRACK,142.77,140,-2.77,1338.66,-1.72,10.92,11.51,268.96,-0.027,0.3486,0,6.604,1,0.6,4.5,0.75,0.35,0.0168,0.4,268.2,0.012,118.23,-178.67,27.619,-2.203,0,0,0,0,269.99,0,0,0,0,0,0,0,0,0,0,0,0,0,2,2,0,0,VALID,0,0,0,0,0,1,0,0,0,0,0,0,0,0,0,0,0,0,0,0,524.22,2623.59,6,0,0.82,0.5,163,1.17,0.92,0.82,127.1,FLYING
129.58,APPROACH,ILS_TRACK,140.84,140,-0.84,1338.38,0.8,11.89,11.6,268.34,-0.426,0.4561,0,4.6,1,0.6,4.5,0.75,0.35,0.0168,0.4,268.65,0.015,103.43,-158.5,27.223,-1.753,0,0,0,0,269.99,0,0,0,0,0,0,0,0,0,0,0,0,0,2,2,0,0,VALID,0,0,0,0,0,1,0,0,0,0,0,0,0,0,0,0,0,0,0,0,759.55,2600.37,6,0,0.82,0.5,166,1.17,0.92,0.82,129.66,FLYING
132.14,APPROACH,ILS_TRACK,140.74,140,-0.74,1341.64,1.49,11.04,10.52,268.97,-2.393,0.2419,0,3.603,1,0.6,4.5,0.75,0.35,0.0168,0.4,269.03,-0.001,89.11,-134.72,26.829,-1.372,0,0,0,0,269.99,0,0,0,0,0,0,0,0,0,0,0,0,0,2,2,0,0,VALID,0,0,0,0,0,1,0,0,0,0,0,0,0,0,0,0,0,0,0,0,867.15,2598.78,6,0,0.82,0.5,169,1.17,0.92,0.82,132.22,FLYING
134.7,APPROACH,ILS_TRACK,140.81,140,-0.81,1344.54,0.88,10.83,10.51,269.19,-1.49,0.0922,0,2.228,1,0.6,4.5,0.75,0.35,0.0168,0.4,269.07,-0.016,77.23,-111.02,26.434,-1.33,0,0,0,0,269.99,0,0,0,0,0,0,0,0,0,0,0,0,0,2,2,0,0,VALID,0,0,0,0,0,1,0,0,0,0,0,0,0,0,0,0,0,0,0,0,578.63,2599.39,6,0,0.82,0.5,172,1.17,0.92,0.82,134.78,FLYING
137.26,APPROACH,ILS_TRACK,138.88,140,1.12,1346.48,0.39,11.39,11.25,269.18,-0.602,0.4006,0,2.754,1,0.6,4.5,0.75,0.35,0.0168,0.4,269.22,-0.026,67.35,-88.34,26.041,-1.18,0,0,0,0,269.99,0,0,0,0,0,0,0,0,0,0,0,0,0,2,2,0,0,VALID,0,0,0,0,0,1,0,0,0,0,0,0,0,0,0,0,0,0,0,0,508.3,2575.96,6,0,0.82,0.5,175,1.17,0.92,0.82,137.34,FLYING
139.82,APPROACH,ILS_TRACK,136.57,140,3.43,1345.48,-0.37,12.92,13.08,269.16,-0.552,0.7545,0,6.782,1,0.6,4.5,0.75,0.35,0.0168,0.4,269.49,0,58.38,-68.8,25.654,-0.913,11.11,0,0,0,269.99,0,0,0,0,0,0,0,0,0,0,0,0,0,2,2,0,0,VALID,0,0,0,0,0,1,0,0,0,0,0,0,0,0,0,0,0,0,0,0,859.61,2548.7,6,0,0.82,0.5,178,1.17,0.92,0.82,139.9,FLYING
142.42,APPROACH,ILS_TRACK,136.29,140,3.71,1342.38,-0.57,13.18,13.4,269.18,-0.619,0.7025,0,12.579,1,0.6,4.5,0.75,0.35,0.0168,0.4,269.65,0,49.87,-51.54,25.266,-0.745,6.741,0,0,0,269.99,0,0,0,0,0,0,0,0,0,0,0,0,0,2,2,0,0,VALID,0,0,0,0,0,1,0,0,0,0,0,0,0,0,0,0,0,0,0,0,1319.49,2545.68,6,0,0.82,0.5,181,1.15,0.92,0.82,142.5,FLYING
144.96,APPROACH,ILS_TRACK,138.12,140,1.88,1342.2,-1.2,14.34,14.81,270.04,-2.333,0.3164,0,16.043,1,0.6,4.5,0.75,0.35,0.0168,0.4,269.88,-4.529,42.14,-31.97,24.883,-0.523,-1.529,0,0,0,269.99,0,0,0,0,0,0,0,0,0,0,0,0,0,2,2,0,0,VALID,0,0,0,0,0,1,0,0,0,0,0,0,0,0,0,0,0,0,0,0,1261.38,2567.66,6,0,0.82,0.5,184,1.18,0.92,0.8,145.04,FLYING
147.52,APPROACH,ILS_TRACK,138.89,140,1.11,1334.69,-4.45,3.58,5.25,269.89,-0.968,0.2761,0,19.035,1,0.6,4.5,0.75,0.35,0.0168,0.4,269.62,-1.693,36.87,-18.04,24.496,-0.784,1.307,0,0,0,269.99,0,0,0,0,0,0,0,0,0,0,0,0,0,2,2,0,0,VALID,0,0,0,0,0,1,0,0,0,0,0,0,0,0,0,0,0,0,0,0,1158.21,2575.82,6,0,0.82,0.5,187,1.17,0.92,0.82,147.6,FLYING
150.08,APPROACH,ILS_TRACK,140,140,0,1315.45,-8.9,11.77,15.09,269.8,0.034,0.1258,0,18.796,1,0.6,4.5,0.75,0.35,0.0168,0.4,269.75,0,32.72,-15.97,24.104,-0.647,5.07,0,0,0,269.99,0,0,0,0,0,0,0,0,0,0,0,0,0,2,2,0,0,VALID,0,0,0,0,0,1,0,0,0,0,0,0,0,0,0,0,0,0,0,0,615.13,2591.87,6,0,0.82,0.5,190,1.17,0.92,0.82,150.16,FLYING
152.64,APPROACH,ILS_TRACK,133.58,140,6.42,1299.08,-5.29,17.38,19.45,269.86,-0.133,0.7258,0,19.9,1,0.6,4.5,0.75,0.35,0.0168,0.4,269.89,-1.966,28.69,-12.97,23.72,-0.512,1.034,0,0,0,269.99,0,0,0,0,0,0,0,0,0,0,0,0,0,2,2,0,0,VALID,0,0,0,0,0,1,0,0,0,0,0,0,0,0,0,0,0,0,0,0,674.66,2518.02,6,0,0.82,0.5,193,1.17,0.92,0.82,152.72,FLYING
155.2,APPROACH,ILS_TRACK,131.09,140,8.91,1285.43,-4.61,9.83,11.67,269.96,-0.467,1,0,19.603,1,0.6,4.5,0.75,0.35,0.0168,0.4,269.97,-3.512,24.99,-7.26,23.351,-0.431,-0.512,0,0,0,269.99,0,0,0,0,0,0,0,0,0,0,0,0,0,2,2,0,0,VALID,0,0,0,0,0,1,0,0,0,0,0,0,0,0,0,0,0,0,0,0,1288.38,2489.34,6,0,0.82,0.5,196,1.17,0.92,0.82,155.28,FLYING
157.78,APPROACH,ILS_TRACK,136.23,140,3.77,1267.63,-6.89,7.38,10.02,270.04,-0.476,0.6,0,20,1,0.6,4.5,0.75,0.35,0.0168,0.4,270.03,-1.222,21.69,-4.87,22.976,-0.374,1.778,0,0,0,269.99,0,0,0,0,0,0,0,0,0,0,0,0,0,2,2,0,0,VALID,0,0,0,0,0,1,0,0,0,0,0,0,0,0,0,0,0,0,0,0,1740.69,2550.29,6,0,0.82,0.5,199,1.16,0.94,0.82,157.86,FLYING
160.34,APPROACH,ILS_TRACK,140.35,140,-0.35,1248.19,-5.64,10.73,12.92,270.06,-0.181,0,0,19.9,1,0.6,4.5,0.75,0.35,0.0168,0.4,270.08,-2.218,18.86,-3.93,22.589,-0.325,0.782,0,0,0,269.99,0,0,0,0,0,0,0,0,0,0,0,0,0,2,2,0,0,VALID,0,0,0,0,0,1,0,0,0,0,0,0,0,0,0,0,0,0,0,0,1284.86,2601.41,6,0,0.82,0.5,202,1.17,0.92,0.82,160.42,FLYING
162.9,APPROACH,ILS_TRACK,141.27,140,-1.27,1228.03,-7.94,8.34,11.3,270.02,-0.012,0,0,19.603,1,0.6,4.5,0.75,0.35,0.0168,0.4,270.16,-2.033,16.27,-3.71,22.196,-0.242,0.967,0,0,0,269.99,0,0,0,0,0,0,0,0,0,0,0,0,0,2,2,0,0,VALID,0,0,0,0,0,1,0,0,0,0,0,0,0,0,0,0,0,0,0,0,512.54,2613.73,6,0,0.82,0.5,205,1.17,0.92,0.82,162.98,FLYING
165.48,APPROACH,ILS_TRACK,139.23,140,0.77,1209.71,-6.49,8.81,11.26,270.2,-0.631,0.3932,0,19.405,1,0.6,4.5,0.75,0.35,0.0168,0.4,270.24,-4.06,13.72,-1.38,21.802,-0.163,-1.06,0,0,0,269.99,0,0,0,0,0,0,0,0,0,0,0,0,0,2,2,0,0,VALID,0,0,0,0,0,1,0,0,0,0,0,0,0,0,0,0,0,0,0,0,301.85,2590.93,6,0,0.82,0.5,208,1.16,0.94,0.82,165.56,FLYING
168.04,APPROACH,ILS_TRACK,138.01,140,1.99,1189.36,-7.86,8.84,11.83,270.24,-0.33,0.6215,0,20,1,0.6,4.5,0.75,0.35,0.0168,0.4,270.2,-2.578,11.79,-1.46,21.417,-0.2,0.422,0,0,0,269.99,0,0,0,0,0,0,0,0,0,0,0,0,0,2,2,0,0,VALID,0,0,0,0,0,1,0,0,0,0,0,0,0,0,0,0,0,0,0,0,745.65,2578.23,6,0,0.82,0.5,211,1.17,0.92,0.82,168.12,FLYING
170.6,APPROACH,ILS_TRACK,139.7,140,0.3,1171.47,-6.24,9.37,11.72,270.21,-0.073,0.2432,0,20,1,0.6,4.5,0.75,0.35,0.0168,0.4,270.21,-5.005,10.32,0.45,21.032,-0.188,-2.005,0,0,0,269.99,0,0,0,0,0,0,0,0,0,0,0,0,0,2,2,0,0,VALID,0,0,0,0,0,1,0,0,0,0,0,0,0,0,0,0,0,0,0,0,963.14,2599.87,6,0,0.82,0.5,214,1.17,0.92,0.82,170.68,FLYING
173.16,APPROACH,ILS_TRACK,141,140,-1,1152.69,-8.84,4.03,7.34,270.24,-0.146,0.038,0,19.181,1,0.6,4.5,0.75,0.35,0.0168,0.4,270.24,-2.552,8.99,2.69,20.643,-0.155,0.448,0,0,0,269.99,0,0,0,0,0,0,0,0,0,0,0,0,0,2,2,0,0,VALID,0,0,0,0,0,1,0,0,0,0,0,0,0,0,0,0,0,0,0,0,644.74,2616.22,6,0,0.82,0.5,217,1.17,0.92,0.82,173.24,FLYING
175.74,APPROACH,ILS_TRACK,140.15,140,-0.15,1124.88,-12.08,9.03,13.6,270.24,-0.023,0.2728,0,17.93,1,0.6,4.5,0.75,0.35,0.0168,0.4,270.28,0,7.78,-3.79,20.25,-0.122,5.126,0,0,0,269.99,0,0,0,0,0,0,0,0,0,0,0,0,0,2,2,0,0,VALID,0,0,0,0,0,1,0,0,0,0,0,0,0,0,0,0,0,0,0,0,338.87,2609.28,6,0,0.82,0.5,220,1.16,0.94,0.82,175.82,FLYING
178.3,APPROACH,ILS_TRACK,135.14,140,4.86,1098.27,-9.56,13.55,17.29,270.26,-0.021,0.8728,0,19.844,1,0.6,4.5,0.75,0.35,0.0168,0.4,270.3,0,6.68,-11.04,19.869,-0.105,6.266,0,0,0,269.99,0,0,0,0,0,0,0,0,0,0,0,0,0,2,2,0,0,VALID,0,0,0,0,0,1,0,0,0,0,0,0,0,0,0,0,0,0,0,0,694.02,2553.56,6,0,0.82,0.5,223,1.17,0.92,0.82,178.38,FLYING
180.86,APPROACH,ILS_TRACK,131.32,140,8.68,1079.18,-5.4,16.69,18.92,270.32,-0.138,1,0,19.548,1,0.6,4.5,0.75,0.35,0.0168,0.4,270.31,-0.725,5.72,-11.51,19.5,-0.085,2.275,0,0,0,269.99,0,0,0,0,0,0,0,0,0,0,0,0,0,2,2,0,0,VALID,0,0,0,0,0,1,0,0,0,0,0,0,0,0,0,0,0,0,0,0,1376.2,2512.22,6,0,0.82,0.5,226,1.17,0.92,0.82,180.94,FLYING
183.42,APPROACH,ILS_TRACK,134.27,140,5.73,1064.72,-4.25,8.22,9.89,270.32,-0.107,0.8,0,20,1,0.6,4.5,0.75,0.35,0.0168,0.4,270.31,-3.377,4.97,-7.05,19.135,-0.089,-0.377,0,0,0,269.99,0,0,0,0,0,0,0,0,0,0,0,0,0,2,2,0,0,VALID,0,0,0,0,0,1,0,0,0,0,0,0,0,0,0,0,0,0,0,0,1856.11,2545.9,6,0,0.82,0.5,229,1.17,0.92,0.82,183.5,FLYING
186,APPROACH,ILS_TRACK,143.4,140,-3.4,1047.57,-10.45,7.37,11.13,270.33,-0.065,0.2,0,19.8,1,0.6,4.5,0.75,0.35,0.0168,0.4,270.33,-2.949,4.33,-3.62,18.748,-0.074,0.051,0,0,0,269.99,0,0,0,0,0,0,0,0,0,0,0,0,0,2,2,0,0,VALID,0,0,0,0,0,1,0,0,0,0,0,0,0,0,0,0,0,0,0,0,1668.96,2654.94,6,0,0.82,0.5,232,1.16,0.94,0.82,186.08,FLYING
188.56,APPROACH,ILS_TRACK,146.98,140,-6.98,1025.87,-9.56,7.02,10.49,270.33,-0.033,0,0,19.505,1,0.6,4.5,0.75,0.35,0.0168,0.4,270.34,-1.703,3.76,-4.2,18.348,-0.064,1.297,0,0,0,269.99,0,0,0,0,0,0,0,0,0,0,0,0,0,2,2,0,0,VALID,0,0,0,0,0,1,0,0,0,0,0,0,0,0,0,0,0,0,0,0,760.16,2700.37,6,0,0.82,0.5,235,1.17,0.92,0.82,188.64,FLYING
191.14,APPROACH,ILS_TRACK,144.34,140,-4.34,1004.93,-9.13,9.89,13.27,270.34,-0.036,0,0,19.214,1,0.6,4.5,0.75,0.35,0.0168,0.4,270.35,-2.097,3.25,-3.88,17.944,-0.053,0.903,0,0,0,269.99,0,0,0,0,0,0,0,0,0,0,0,0,0,2,2,0,0,VALID,0,0,0,0,0,1,0,0,0,0,0,0,0,0,0,0,0,0,0,0,296.25,2670.66,6,0,0.82,0.5,238,1.16,0.94,0.82,191.22,FLYING
193.72,APPROACH,ILS_TRACK,137.74,140,2.26,984.36,-8.8,12.83,16.24,270.34,-0.014,0.6,0,17.832,1,0.6,4.5,0.75,0.35,0.0168,0.4,270.35,-1.554,2.82,-4.09,17.553,-0.045,1.446,0,0,0,269.99,0,0,0,0,0,0,0,0,0,0,0,0,0,2,2,0,0,VALID,0,0,0,0,0,1,0,0,0,0,0,0,0,0,0,0,0,0,0,0,371.84,2594.62,6,0,0.84,0.5,241,1.16,0.92,0.82,193.8,FLYING
196.28,APPROACH,ILS_TRACK,132.53,140,7.47,967.38,-3.09,11.48,12.83,270.36,-0.039,1,0,17.566,1,0.6,4.5,0.75,0.35,0.0168,0.4,270.36,-3.599,2.45,-1.74,17.183,-0.044,-0.599,0,0,0,269.99,0,0,0,0,0,0,0,0,0,0,0,0,0,2,2,0,0,VALID,0,0,0,0,0,1,0,0,0,0,0,0,0,0,0,0,0,0,0,0,1042.91,2536.4,6,0,0.82,0.5,244,1.17,0.92,0.82,196.36,FLYING
198.86,APPROACH,ILS_TRACK,137.37,140,2.63,949.07,-7.39,7.87,10.73,270.36,-0.017,0.7629,0,20,1,0.6,4.5,0.75,0.35,0.0168,0.4,270.36,-3.619,2.15,-0.31,16.811,-0.041,-0.619,0,0,0,269.99,0,0,0,0,0,0,0,0,0,0,0,0,0,2,2,0,0,VALID,0,0,0,0,0,1,0,0,0,0,0,0,0,0,0,0,0,0,0,0,1667.92,2593.04,6,0,0.82,0.5,247,1.16,0.94,0.82,198.94,FLYING
201.42,APPROACH,ILS_TRACK,145.31,140,-5.31,927.72,-8.24,7.77,10.82,270.37,-0.012,0.1629,0,19.701,1,0.6,4.5,0.75,0.35,0.0168,0.4,270.37,-2.579,1.89,-1.4,16.424,-0.035,0.421,0,0,0,269.99,0,0,0,0,0,0,0,0,0,0,0,0,0,2,2,0,0,VALID,0,0,0,0,0,1,0,0,0,0,0,0,0,0,0,0,0,0,0,0,1530.28,2689.27,6,0,0.82,0.5,250,1.17,0.92,0.82,201.5,FLYING
203.98,APPROACH,ILS_TRACK,148.16,140,-8.16,905.18,-8.65,8.23,11.36,270.37,-0.005,0,0,19.407,1,0.6,4.5,0.75,0.35,0.0168,0.4,270.37,-1.615,1.66,-2.69,16.022,-0.031,1.385,0,0,0,269.99,0,0,0,0,0,0,0,0,0,0,0,0,0,2,2,0,0,VALID,0,0,0,0,0,1,0,0,0,0,0,0,0,0,0,0,0,0,0,0,687.12,2726.17,6,0,0.82,0.5,253,1.17,0.92,0.82,204.06,FLYING
206.56,APPROACH,ILS_TRACK,146.96,140,-6.96,884.77,-7.04,6.27,8.84,270.37,0.005,0,0,19.118,1,0.6,4.5,0.75,0.35,0.0168,0.4,270.37,-2.706,1.46,-2.01,15.616,-0.029,0.294,0,0,0,269.99,0,0,0,0,0,0,0,0,0,0,0,0,0,2,2,0,0,VALID,0,0,0,0,0,1,0,0,0,0,0,0,0,0,0,0,0,0,0,0,269.52,2713.3,6,0,0.82,0.5,256,1.16,0.94,0.82,206.64,FLYING
209.14,APPROACH,ILS_TRACK,143.71,140,-3.71,863.9,-8.04,8.32,11.32,270.38,0.004,0.2163,0,14.652,1,0.6,4.5,0.75,0.35,0.0168,0.4,270.37,-1.952,1.29,-1.95,15.216,-0.026,1.048,0,0,0,269.99,0,0,0,0,0,0,0,0,0,0,0,0,0,2,2,0,0,VALID,0,0,0,0,0,1,0,0,0,0,0,0,0,0,0,0,0,0,0,0,163.26,2676.47,6,0,0.82,0.5,259,1.16,0.94,0.82,209.22,FLYING
211.7,APPROACH,ILS_TRACK,141.46,140,-1.46,844.81,-6.99,8.07,10.72,270.38,0.008,0.459,0,11.587,1,0.6,4.5,0.75,0.35,0.0168,0.4,270.38,-3.605,1.14,-0.86,14.828,-0.024,-0.605,0,0,0,269.99,0,0,0,0,0,0,0,0,0,0,0,0,0,2,2,0,0,VALID,0,0,0,0,0,1,0,0,0,0,0,0,0,0,0,0,0,0,0,0,472.79,2651.61,6,0,0.82,0.5,262,1.17,0.92,0.82,211.78,FLYING
214.26,APPROACH,ILS_TRACK,142.07,140,-2.07,825.52,-7.69,7.01,9.92,270.38,0.011,0.1234,0,9.106,1,0.6,4.5,0.75,0.35,0.0168,0.4,270.38,-3.42,1.02,0.14,14.443,-0.021,-0.42,0,0,0,269.99,0,0,0,0,0,0,0,0,0,0,0,0,0,2,2,0,0,VALID,0,0,0,0,0,1,0,0,0,0,0,0,0,0,0,0,0,0,0,0,682.59,2660.68,6,0,0.82,0.5,265,1.17,0.92,0.82,214.34,FLYING
216.88,APPROACH,ILS_TRACK,142.22,140,-2.22,804.83,-8.05,7.52,10.56,270.38,0.012,0.0021,0,6.715,1,0.6,4.5,0.75,0.35,0.0168,0.4,270.38,-3.213,0.9,0.43,14.046,-0.019,-0.213,0,0,0,269.99,0,0,0,0,0,0,0,0,0,0,0,0,0,2,2,0,0,VALID,0,0,0,0,0,1,0,0,0,0,0,0,0,0,0,0,0,0,0,0,318.98,2664.71,6,0,0.84,0.5,268,1.15,0.94,0.82,216.96,FLYING
219.48,APPROACH,ILS_TRACK,140.18,140,-0.18,784.51,-7.92,7.96,11.01,270.39,0.007,0.3286,0,5.316,1,0.6,4.5,0.75,0.35,0.0168,0.4,270.38,-3.027,0.8,0.36,13.657,-0.017,-0.027,0,0,0,269.99,0,0,0,0,0,0,0,0,0,0,0,0,0,2,2,0,0,VALID,0,0,0,0,0,1,0,0,0,0,0,0,0,0,0,0,0,0,0,0,289.93,2642.97,6,0,0.82,0.5,271,1.15,0.94,0.82,219.56,FLYING
222.06,APPROACH,ILS_TRACK,139.23,140,0.77,764.31,-7.74,7.96,10.96,270.39,0.005,0.3915,0,6.233,1,0.6,4.5,0.75,0.35,0.0168,0.4,270.38,-2.951,0.73,0.18,13.275,-0.018,0.049,0,0,0,269.99,0,0,0,0,0,0,0,0,0,0,0,0,0,2,2,0,0,VALID,0,0,0,0,0,1,0,0,0,0,0,0,0,0,0,0,0,0,0,0,585.53,2634.14,6,0,0.82,0.5,274,1.16,0.94,0.82,222.14,FLYING
224.62,APPROACH,ILS_TRACK,140.03,140,-0.03,744.45,-7.67,7.76,10.71,270.39,0.006,0.1389,0,6.7,1,0.6,4.5,0.75,0.35,0.0168,0.4,270.38,-3.087,0.67,0.13,12.896,-0.019,-0.087,0,0,0,269.99,0,0,0,0,0,0,0,0,0,0,0,0,0,2,2,0,0,VALID,0,0,0,0,0,1,0,0,0,0,0,0,0,0,0,0,0,0,0,0,668.05,2645.57,6,0,0.82,0.5,277,1.17,0.92,0.82,224.7,FLYING
227.18,APPROACH,ILS_TRACK,140.13,140,-0.13,724.62,-7.74,7.83,10.8,270.39,0.014,0.1032,0,6.328,1,0.6,4.5,0.75,0.35,0.0168,0.4,270.38,-3.24,0.63,0.36,12.516,-0.021,-0.24,0,0,0,269.99,0,0,0,0,0,0,0,0,0,0,0,0,0,2,2,0,0,VALID,0,0,0,0,0,1,0,0,0,0,0,0,0,0,0,0,0,0,0,0,406.87,2648.83,6,0,0.82,0.5,280,1.17,0.92,0.82,227.26,FLYING
229.76,APPROACH,ILS_TRACK,139,140,1,704.92,-7.75,8.06,11.08,270.39,0.021,0.3207,0,7.234,1,0.6,4.5,0.75,0.35,0.0168,0.4,270.38,-3.142,0.61,0.46,12.136,-0.021,-0.142,0,0,0,269.99,0,0,0,0,0,0,0,0,0,0,0,0,0,2,2,0,0,VALID,0,0,0,0,0,1,0,0,0,0,0,0,0,0,0,0,0,0,0,0,427.78,2638.04,6,0,0.82,0.5,283,1.16,0.94,0.82,229.84,FLYING
232.32,APPROACH,ILS_TRACK,138.75,140,1.25,685.15,-7.66,8,10.99,270.4,0.018,0.3338,0,9.149,1,0.6,4.5,0.75,0.35,0.0168,0.4,270.38,-3.042,0.59,0.35,11.76,-0.021,-0.042,0,0,0,269.99,0,0,0,0,0,0,0,0,0,0,0,0,0,2,2,0,0,VALID,0,0,0,0,0,1,0,0,0,0,0,0,0,0,0,0,0,0,0,0,625.31,2637.43,6,0,0.82,0.5,286,1.17,0.92,0.82,232.4,FLYING
234.88,APPROACH,ILS_TRACK,139.58,140,0.42,665.46,-7.64,7.82,10.78,270.4,0.02,0.1552,0,10.254,1,0.6,4.5,0.75,0.35,0.0168,0.4,270.38,-3.138,0.58,0.34,11.385,-0.022,-0.138,0,0,0,269.99,0,0,0,0,0,0,0,0,0,0,0,0,0,2,2,0,0,VALID,0,0,0,0,0,1,0,0,0,0,0,0,0,0,0,0,0,0,0,0,651.45,2649.21,6,0,0.82,0.5,289,1.17,0.92,0.82,234.96,FLYING
237.44,APPROACH,ILS_TRACK,139.72,140,0.28,645.87,-7.71,7.86,10.86,270.39,0.03,0.1594,0,10.565,1,0.6,4.5,0.75,0.35,0.0168,0.4,270.38,-3.257,0.58,0.52,11.008,-0.023,-0.257,0,0,0,269.99,0,0,0,0,0,0,0,0,0,0,0,0,0,2,2,0,0,VALID,0,0,0,0,0,1,0,0,0,0,0,0,0,0,0,0,0,0,0,0,466.06,2653.04,6,0,0.82,0.5,292,1.17,0.92,0.82,237.52,FLYING
240,APPROACH,ILS_TRACK,139.16,140,0.84,626.19,-7.74,7.96,10.99,270.39,0.031,0.2964,0,11.558,1,0.6,4.5,0.75,0.35,0.0168,0.4,270.38,-3.079,0.58,0.51,10.632,-0.022,-0.079,0,0,0,269.99,0,0,0,0,0,0,0,0,0,0,0,0,0,2,2,0,0,VALID,0,0,0,0,0,1,0,0,0,0,0,0,0,0,0,0,0,0,0,0,504.35,2648.93,6,0,0.82,0.5,295,1.17,0.92,0.82,240.08,FLYING
242.58,APPROACH,ILS_TRACK,139.28,140,0.72,606.31,-7.65,7.89,10.88,270.39,0.026,0.2733,0,12.81,1,0.6,4.5,0.75,0.35,0.0168,0.4,270.38,-3.115,0.57,0.44,10.255,-0.02,-0.115,0,0,0,269.99,0,0,0,0,0,0,0,0,0,0,0,0,0,2,2,0,0,VALID,0,0,0,0,0,1,0,0,0,0,0,0,0,0,0,0,0,0,0,0,625.17,2652.63,6,0,0.82,0.5,298,1.16,0.94,0.82,242.66,FLYING
245.14,APPROACH,ILS_TRACK,139.89,140,0.11,586.63,-7.74,7.66,10.67,270.39,0.033,0.1684,0,13.275,1,0.6,4.5,0.75,0.35,0.0168,0.4,270.38,-2.95,0.55,0.4,9.879,-0.02,0.05,0,0,0,269.99,0,0,0,0,0,0,0,0,0,0,0,0,0,2,2,0,0,VALID,0,0,0,0,0,1,0,0,0,0,0,0,0,0,0,0,0,0,0,0,603.73,2661.89,6,0,0.82,0.5,301,1.17,0.92,0.82,245.22,FLYING
247.72,APPROACH,ILS_TRACK,137.12,140,2.88,566.23,-8.85,11.86,15.39,270.4,-0.006,0.6575,0,15.647,1,0.6,4.5,0.75,0.35,0.0168,0.4,270.38,-1.733,0.54,-0.17,9.504,-0.019,1.267,0,0,0,269.99,0,0,0,0,0,0,0,0,0,0,0,0,0,2,2,0,0,VALID,0,0,0,0,0,1,0,0,0,0,0,0,0,0,0,0,0,0,0,0,665.42,2633.47,6,0,0.82,0.5,304,1.16,0.94,0.82,247.8,FLYING
250.28,APPROACH,ILS_TRACK,134.67,140,5.33,546.19,-5.41,12.76,15.06,270.39,0.037,1,0,17.454,1,0.6,4.5,0.75,0.35,0.0168,0.4,270.38,-2.93,0.52,-1.15,9.139,-0.02,0.07,0,0,0,269.99,0,0,0,0,0,0,0,0,0,0,0,0,0,2,2,0,0,VALID,0,0,0,0,0,1,0,0,0,0,0,0,0,0,0,0,0,0,0,0,1281.28,2608.58,6,0,0.82,0.5,307,1.17,0.92,0.82,250.36,FLYING
252.84,APPROACH,ILS_TRACK,140.24,140,-0.24,526.14,-8.23,7.39,10.61,270.4,0.012,0.42,0,19.9,1,0.6,4.5,0.75,0.35,0.0168,0.4,270.38,-2.241,0.5,-2.07,8.772,-0.016,0.759,0,0,0,269.99,0,0,0,0,0,0,0,0,0,0,0,0,0,2,2,0,0,VALID,0,0,0,0,0,1,0,0,0,0,0,0,0,0,0,0,0,0,0,0,1645.83,2673.19,6,0,0.82,0.5,310,1.17,0.92,0.82,252.92,FLYING
255.4,APPROACH,ILS_TRACK,145.62,140,-5.62,505.89,-8.99,7.87,11.25,270.39,0.027,0,0,19.603,1,0.6,4.5,0.75,0.35,0.0168,0.4,270.39,-2.408,0.47,-2.17,8.389,-0.015,0.592,0,0,0,269.99,0,0,0,0,0,0,0,0,0,0,0,0,0,2,2,0,0,VALID,0,0,0,0,0,1,0,0,0,0,0,0,0,0,0,0,0,0,0,0,983.59,2738.51,6,0,0.82,0.5,313,1.17,0.92,0.82,255.48,FLYING
258.02,APPROACH,ILS_TRACK,145.28,140,-5.28,484.26,-9.43,7.4,10.97,270.39,0.021,0,0,19.31,1,0.6,4.5,0.75,0.35,0.0168,0.4,270.39,-1.72,0.45,-2.81,7.991,-0.013,1.28,0,0,0,269.99,0,0,0,0,0,0,0,0,0,0,0,0,0,2,2,0,0,VALID,0,0,0,0,0,1,0,0,0,0,0,0,0,0,0,0,0,0,0,0,382.08,2737.06,6,0,0.84,0.5,316,1.15,0.94,0.82,258.1,FLYING
260.66,APPROACH,ILS_TRACK,141.51,140,-1.51,460.84,-10.34,9.42,13.41,270.39,0.017,0.246,0,16.585,1,0.6,4.5,0.75,0.35,0.0168,0.4,270.39,-0.166,0.41,-5.15,7.595,-0.011,2.834,0,0,0,269.99,0,0,0,0,0,0,0,0,0,0,0,0,0,3,3,0,0,VALID,0,0,0,0,0,1,0,0,0,0,0,0,0,0,0,0,0,0,0,0,176.78,2696.18,6,0,0.82,0.5,319,1.14,0.94,0.82,260.74,FLYING
263.2,APPROACH,ILS_TRACK,136.01,140,3.99,435.19,-11.02,9.68,14.13,270.39,0.01,0.846,0,16.724,1,0.6,4.5,0.75,0.35,0.0168,0.4,270.39,0,0.39,-11.53,7.229,-0.011,7.405,0,0,0,269.99,0,0,0,0,0,0,0,0,0,0,0,0,0,3,3,0,0,VALID,0,0,0,0,0,1,0,0,0,0,0,0,0,0,0,0,0,0,0,0,582.41,2637.1,6,0,0.8,0.5,322,1.18,0.92,0.8,263.28,FLYING
265.76,APPROACH,ILS_TRACK,134.51,140,5.49,407.81,-10.77,11.46,15.87,270.4,-0.002,1,0,16.474,1,0.6,4.5,0.75,0.35,0.0168,0.4,270.39,0,0.37,-20.11,6.869,-0.014,10.364,0,0,0,269.99,0,0,0,0,0,0,0,0,0,0,0,0,0,3,3,0,0,VALID,0,0,0,0,0,1,0,0,0,0,0,0,0,0,0,0,0,0,0,0,1349.85,2624.3,6,0,0.82,0.5,325,1.17,0.9,0.8,265.84,FLYING
268.32,APPROACH,ILS_TRACK,135.05,140,4.95,386.13,-6.22,14.95,17.48,270.39,0.048,0.9137,0,20,1,0.6,4.5,0.75,0.35,0.0168,0.4,270.38,0,0.39,-23.57,6.511,-0.018,7.048,0,0,0,269.99,0,0,0,0,0,0,0,0,0,0,0,0,0,3,3,0,0,VALID,0,0,0,0,0,1,0,0,0,0,0,0,0,0,0,0,0,0,0,0,1831.42,2633.83,6,0,0.82,0.5,328,1.17,0.92,0.82,268.4,FLYING
270.88,APPROACH,ILS_TRACK,137.79,140,2.21,373.51,-2.97,13.53,14.73,270.39,0.047,0.3138,0,20,1,0.6,4.5,0.75,0.35,0.0168,0.4,270.39,-2.2,0.38,-18.01,6.148,-0.012,0.8,0,0,0,269.99,0,0,0,0,0,0,0,0,0,0,0,0,0,3,3,0,0,VALID,0,0,0,0,0,1,0,0,0,0,0,0,0,0,0,0,0,0,0,0,1797.12,2665.81,6,0,0.82,0.5,331,1.17,0.92,0.82,270.96,FLYING
273.46,APPROACH,ILS_TRACK,140.27,140,-0.27,361.21,-7.03,8.81,11.53,270.39,0.022,0,0,19.9,1,0.6,4.5,0.75,0.35,0.0168,0.4,270.39,-3.123,0.34,-10.42,5.775,-0.006,-0.123,0,0,0,269.99,0,0,0,0,0,0,0,0,0,0,0,0,0,3,3,0,0,VALID,0,0,0,0,0,1,0,0,0,0,0,0,0,0,0,0,0,0,0,0,918.85,2694.65,6,0,0.82,0.5,334,1.16,0.94,0.82,273.54,FLYING
276.04,APPROACH,ILS_TRACK,136.28,140,3.72,344.92,-7.54,13.24,16.26,270.39,0.01,0.5546,0,20,1,0.6,4.5,0.75,0.35,0.0168,0.4,270.39,-2.022,0.3,-7.05,5.404,-0.006,0.978,0,0,0,269.99,0,0,0,0,0,0,0,0,0,0,0,0,0,3,3,0,0,VALID,0,0,0,0,0,1,0,0,0,0,0,0,0,0,0,0,0,0,0,0,634.75,2652.68,6,0,0.82,0.5,337,1.16,0.94,0.82,276.12,FLYING
278.62,APPROACH,ILS_TRACK,132.1,140,7.9,328.48,-6.28,13.76,16.4,270.4,0.005,1,0,19.701,1,0.6,4.5,0.75,0.35,0.0168,0.4,270.39,-3.011,0.27,-4.82,5.046,-0.008,-0.011,0,0,0,269.99,0,0,0,0,0,0,0,0,0,0,0,0,0,3,3,0,0,VALID,0,0,0,0,0,1,0,0,0,0,0,0,0,0,0,0,0,0,0,0,1177.34,2609.26,6,0,0.82,0.5,340,1.16,0.94,0.82,278.7,FLYING
281.18,APPROACH,ILS_TRACK,134.48,140,5.52,311.77,-7.45,11.59,14.6,270.4,0.016,0.8,0,20,1,0.6,4.5,0.75,0.35,0.0168,0.4,270.39,-3.685,0.26,-3.04,4.694,-0.01,-0.685,0,0,0,269.99,0,0,0,0,0,0,0,0,0,0,0,0,0,3,3,0,0,VALID,0,0,0,0,0,1,0,0,0,0,0,0,0,0,0,0,0,0,0,0,1770.04,2636.96,6,0,0.82,0.5,343,1.17,0.92,0.82,281.26,FLYING
283.76,APPROACH,ILS_TRACK,140.45,140,-0.45,293.38,-9.15,8.16,11.73,270.4,0.031,0.2,0,19.9,1,0.6,4.5,0.75,0.35,0.0168,0.4,270.39,-3.03,0.26,-2.09,4.328,-0.01,-0.03,0,0,0,269.99,0,0,0,0,0,0,0,0,0,0,0,0,0,3,3,0,0,VALID,0,0,0,0,0,1,0,0,0,0,0,0,0,0,0,0,0,0,0,0,1629.65,2705.56,6,0,0.82,0.5,346,1.16,0.94,0.82,283.84,FLYING
286.32,APPROACH,ILS_TRACK,142.05,140,-2.05,272.42,-9.1,8.71,12.28,270.4,0.001,0,0,19.603,1,0.6,4.5,0.75,0.35,0.0168,0.4,270.39,-0.925,0.25,-2.94,3.954,-0.009,2.075,0,0,0,269.99,0,0,0,0,0,0,0,0,0,0,0,0,0,3,3,0,0,VALID,0,0,0,0,0,1,0,0,0,0,0,0,0,0,0,0,0,0,0,0,740.92,2726.84,6,0,0.82,0.5,349,1.17,0.92,0.82,286.4,FLYING
288.92,APPROACH,ILS_TRACK,138.06,140,1.94,246.09,-12.84,12.05,17.13,270.4,0.013,0.4,0,20,1,0.6,4.5,0.75,0.35,0.0168,0.4,270.39,0,0.27,-9.57,3.578,-0.014,5.993,0,0,0,269.99,0,0,0,0,0,0,0,0,0,0,0,0,0,3,3,0,0,VALID,0,0,0,0,0,1,0,0,0,0,0,0,0,0,0,0,0,0,0,0,404.76,2685.69,6,0,0.82,0.5,352,1.15,0.94,0.82,289,FLYING
291.48,APPROACH,ILS_TRACK,129.94,140,10.06,224.45,-7.12,16.7,19.75,270.39,0.028,1,0,19.701,1,0.6,4.5,0.75,0.35,0.0168,0.4,270.38,0,0.29,-13.14,3.224,-0.016,4.765,0,0,0,269.99,0,0,0,0,0,0,0,0,0,0,0,0,0,3,3,0,0,VALID,0,0,0,0,0,1,0,0,0,0,0,0,0,0,0,0,0,0,0,0,872.67,2601.52,6,0,0.82,0.5,355,1.17,0.92,0.82,291.56,FLYING
294.04,APPROACH,ILS_TRACK,126.54,140,13.46,210.11,-3.78,14.78,16.46,270.39,0.035,1,0,19.407,1,0.6,4.5,0.75,0.35,0.0168,0.4,270.39,-1.746,0.31,-10.18,2.887,-0.014,1.254,0,0,0,269.99,0,0,0,0,0,0,0,0,0,0,0,0,0,3,3,0,0,VALID,0,0,0,0,0,1,0,0,0,0,0,0,0,0,0,0,0,0,0,0,1544.95,2568,6,0,0.82,0.5,358,1.17,0.92,0.82,294.12,FLYING
296.6,APPROACH,ILS_TRACK,131.08,140,8.92,195.36,-6.42,6.71,9.39,270.39,0.043,0.8973,0,20,1,0.6,4.5,0.75,0.35,0.0168,0.4,270.39,-1.042,0.31,-6.9,2.549,-0.012,1.958,0,0,0,269.99,0,0,0,0,0,0,0,0,0,0,0,0,0,3,3,0,0,VALID,0,0,0,0,0,1,0,0,0,0,0,0,0,0,0,0,0,0,0,0,1991.62,2616.13,6,0,0.82,0.5,361,1.17,0.92,0.82,296.68,FLYING
298.9,FLARE,,137.53,140,2.47,180.04,-5.01,9.74,11.82,270.4,0.007,0.2973,0,19.8,1,0.6,4.5,0.75,0.35,0.0168,0.4,270.4,-1.124,0.31,-6.12,2.421,-0.012,0.586,-1.124,-2.5,0.071,269.99,0,0,0,0,0,0,0,0,0,0,0,0,0,3,3,0,0,VALID,0,0,0,0,0,1,0,0,0,0,0,0,0,0,0,0,0,0,0,0,1913.34,2689.4,6,0,0.64,0.5,364,1.32,0.94,0.64,1.44,FLYING
300.94,FLARE,,140.61,140,-0.61,166.33,-8.59,10.93,14.28,270.4,0.003,0,0,19.505,1,0.6,4.5,0.75,0.35,0.0168,0.4,270.4,-1.018,0.31,-6.12,2.421,-0.012,0.586,-1.018,-2.5,0.187,269.99,0,0,0,0,0,0,0,0,0,0,0,0,0,3,3,0,0,VALID,0,0,0,0,0,1,0,0,0,0,0,0,0,0,0,0,0,0,0,0,1096.34,2725.5,6,0,0.66,0.5,367,1.47,0.74,0.64,3.48,FLYING
303.02,FLARE,,136.74,140,3.26,153.71,-6.58,14,16.64,270.4,0.005,0,0,10.823,1,0.6,4.5,0.75,0.35,0.0168,0.4,270.4,-1.044,0.31,-6.12,2.421,-0.012,0.586,-1.044,-2.5,0.294,269.99,0,0,0,0,0,0,0,0,0,0,0,0,0,3,3,0,0,VALID,0,0,0,0,0,1,0,0,0,0,0,0,0,0,0,0,0,0,0,0,510.56,2684.68,6,0,0.66,0.5,370,1.44,0.76,0.66,5.56,FLYING
305.12,FLARE,,129.7,140,10.3,143.99,-4.52,16.41,18.35,270.4,0.008,0.4484,0,-7.502,1,0.6,4.5,0.75,0.35,0.0168,0.4,270.4,-1.101,0.31,-6.12,2.421,-0.012,0.586,-1.101,-2.5,0.376,269.99,0,0,0,0,0,0,0,0,0,0,0,0,0,3,3,0,0,VALID,0,0,0,0,0,1,0,0,0,0,0,0,0,0,0,0,0,0,0,0,448.15,2610.28,6,0,0.66,0.5,373,1.44,0.78,0.66,7.66,FLYING
307.2,FLARE,,123.62,140,16.38,118.15,-3.75,17.64,19.32,270.4,0.012,0.5807,0,-15.851,1,0.6,4.5,0.75,0.35,0.0168,0.4,270.4,-1.156,0.31,-6.12,2.421,-0.012,0.586,-1.156,-2.5,0.442,269.99,0,0,0,0,0,0,0,0,0,0,0,0,0,3,3,0,0,VALID,0,0,0,0,0,1,0,0,0,0,0,0,0,0,0,0,0,0,0,0,751.72,2548.66,6,0,0.66,0.5,376,1.44,0.76,0.66,9.74,FLYING
309.28,FLARE,,119.54,140,20.46,83.37,-3.28,18.02,19.54,270.41,0.015,0.7619,0,-17.02,1,0.6,4.5,0.75,0.35,0.0168,0.4,270.4,-1.196,0.31,-6.12,2.421,-0.012,0.586,-1.196,-2.5,0.5,269.99,0,0,0,0,0,0,0,0,0,0,0,0,0,3,3,0,0,VALID,0,0,0,0,0,1,0,0,0,0,0,0,0,0,0,0,0,0,0,0,1070.82,2507.77,6,0,0.66,0.5,379,1.44,0.76,0.66,11.82,FLYING
311.38,FLARE,,117.61,140,22.39,66.3,-3.04,17.96,19.41,270.41,0.013,0.6628,0,-14.184,1,0.6,4.5,0.75,0.35,0.0168,0.4,270.4,-1.217,0.31,-6.12,2.421,-0.012,0.586,-1.217,-2.5,0.555,269.99,0,0,0,0,0,0,0,0,0,0,0,0,0,3,3,0,0,VALID,0,0,0,0,0,1,0,0,0,0,0,0,0,0,0,0,0,0,0,0,1342.48,2489.06,6,0,0.66,0.5,382,1.43,0.78,0.66,13.92,FLYING
313.46,FLARE,,116.95,140,23.05,56.11,-3.06,18.09,19.55,270.41,0.015,0.4927,0,-9.916,1,0.6,4.5,0.75,0.35,0.0168,0.4,270.4,-1.165,0.31,-6.12,2.421,-0.012,0.586,-1.165,-2.38,0.608,269.99,0,0,0,0,0,0,0,0,0,0,0,0,0,3,3,0,0,VALID,0,0,0,0,0,1,0,0,0,0,0,0,0,0,0,0,0,0,0,0,1385.71,2483.44,6,0,0.66,0.5,385,1.44,0.76,0.66,16,FLYING
315.54,FLARE,,115.95,140,24.05,41.92,-2.96,18.37,19.79,270.41,0.012,0.5512,0,-4.453,1,0.6,4.5,0.75,0.35,0.0168,0.4,270.4,-1.026,0.31,-6.12,2.421,-0.012,0.586,-1.026,-2.078,0.659,269.99,0,0,0,0,0,0,0,0,0,0,0,0,0,3,3,0,0,VALID,0,0,0,0,0,1,0,0,0,0,0,0,0,0,0,0,0,0,0,0,1302.15,2474.17,6,0,0.66,0.5,388,1.44,0.76,0.66,18.08,FLYING
317.64,FLARE,,114.97,140,25.03,35.72,-3.2,18.32,19.87,270.42,-0.001,0.6808,0,2.629,1,0.6,4.5,0.75,0.35,0.0168,0.4,270.4,-0.876,0.31,-6.12,2.421,-0.012,0.586,-0.876,-1.758,0.713,269.99,0,0,0,0,0,0,0,0,0,0,0,0,0,3,3,0,0,VALID,0,0,0,0,0,1,0,0,0,0,0,0,0,0,0,0,0,0,0,0,1361.17,2465.28,6,0,0.66,0.5,391,1.43,0.76,0.66,20.18,FLYING
319.74,FLARE,,114.67,140,25.33,28.98,-3.35,18.23,19.86,270.42,-0.006,0.7296,0,10.584,1,0.6,4.5,0.75,0.35,0.0168,0.4,270.4,-0.707,0.31,-6.12,2.421,-0.012,0.586,-0.707,-1.414,0.771,269.99,0,0,0,0,0,0,0,0,0,0,0,0,0,3,3,0,0,VALID,0,0,0,0,0,1,0,0,0,0,0,0,0,0,0,0,0,0,0,0,1492.77,2463.37,6,0,0.66,0.5,394,1.43,0.78,0.66,22.28,FLYING
321.8,FLARE,,115.03,140,24.97,21.32,-0.26,15.68,15.69,269.51,-6.009,0.7047,0,18.245,1,0.6,4.5,0.75,0.35,0.0168,0.4,270.4,-0.53,0.31,-6.12,2.421,-0.012,0.586,-0.53,-1.065,0.829,269.99,0,0,0,0,0,0,0,0,0,0,0,0,0,3,3,0,0,VALID,0,0,0,0,0,1,0,0,0,0,0,0,0,0,0,0,0,0,0,0,949.62,1474.9,4,0,0.66,0.5,397,1.44,0.76,0.66,24.36,FLYING
323.98,ROLLOUT,,117.21,140,22.79,3.66,1.18,-4.3,-5.82,260.71,-10.235,0,0,20,1,0.6,4.5,0.75,0.35,0.0168,0.4,270.4,-0.171,0.31,-6.12,2.421,-0.012,0.586,-0.171,-0.35,0.942,269.99,0,0,0,0,0,0,0,0,0.32,0.8,4.697,0,0,3,3,0,0,VALID,0,0,0,0,0,1,0,0,0,0,0,0,0,0,0,0,0,0,0,0,823.17,1488.07,4,0,0.78,0.5,400,1.38,0.78,0.66,0.1,LANDED
326.48,ROLLOUT,,116.98,140,23.02,8.26,-0.96,3.5,4.09,269.24,5.633,0,0,20,1,0.6,4.5,0.75,0.35,0.0168,0.4,270.4,-0.171,0.31,-6.12,2.421,-0.012,0.586,-0.171,-0.35,0.942,262.24,0.15,0.227,7.371,-0.0747,0.563,0,-0.0747,0,-0.1106,0.8,-2.785,0.14,0,3,3,0,0,VALID,0,0,0,0,0,1,0,0,0,0,0,0,0,0,0,0,0,0,0,0,328.83,1486.9,4,0,0.78,0.5,403,1.2,0.86,0.78,2.6,FLYING
328.94,ROLLOUT,,114.63,140,25.37,5.48,0.65,0.47,0.08,269.27,1.341,0,0,20,1,0.6,4.5,0.75,0.35,0.0168,0.4,270.4,-0.171,0.31,-6.12,2.421,-0.012,0.586,-0.171,-0.35,0.942,262.25,0.15,0.309,6.54,-0.0679,0.576,0,-0.0679,0,0.1765,0.8,0.406,0.14,0,3,3,0,0,VALID,0,0,0,0,0,1,0,0,0,0,0,0,0,0,0,0,0,0,0,0,132.52,1472.24,4,0,0.78,0.5,406,1.22,0.88,0.78,5.06,LANDED
331.46,ROLLOUT,,111.28,140,28.72,7.41,-0.3,2.89,3.07,267.59,-0.21,0,0,20,1,0.6,4.5,0.75,0.35,0.0168,0.4,270.4,-0.171,0.31,-6.12,2.421,-0.012,0.586,-0.171,-0.35,0.942,262.28,0.15,0.53,5.227,-0.0561,0.597,0,-0.0561,0,-0.054,0.8,-2.155,0.14,0,3,3,0,0,VALID,0,0,0,0,0,1,0,0,0,0,0,0,0,0,0,0,0,0,0,0,52.21,1452.1,4,0,0.8,0.5,409,1.19,0.92,0.78,7.58,LANDED
333.96,ROLLOUT,,107.82,140,32.18,7.8,-0.93,3.26,3.61,268.02,8.954,0,0,20,1,0.6,4.5,0.75,0.35,0.0168,0.4,270.4,-0.171,0.31,-6.12,2.421,-0.012,0.586,-0.171,-0.35,0.942,262.33,0.15,0.824,5.656,-0.0629,0.618,0,-0.0629,0,-0.0823,0.8,-2.47,0.14,0,3,3,0,0,VALID,0,0,0,0,0,1,0,0,0,0,0,0,0,0,0,0,0,0,0,0,20.78,1432.27,4,0,0.8,0.5,412,1.2,0.9,0.8,10.08,LANDED
336.46,ROLLOUT,,103.92,140,36.08,12.4,1.13,8.45,8.01,269.03,5.759,0,0,20,1,0.6,4.5,0.75,0.35,0.0168,0.4,270.4,-0.171,0.31,-6.12,2.421,-0.012,0.586,-0.171,-0.35,0.942,262.36,0.15,1.043,6.795,-0.0784,0.641,0,-0.0784,0,-0.12,0.8,-7.622,0.14,0,3,3,0,0,VALID,0,0,0,0,0,1,0,0,0,0,0,0,0,0,0,0,0,0,0,0,8.29,1411.45,4,0,0.8,0.5,415,1.2,0.9,0.8,12.58,LANDED
338.96,ROLLOUT,,99.39,140,40.61,6.43,1.7,0.28,-0.82,262.66,-6.257,0,0,20,1,0.6,4.5,0.75,0.35,0.0168,0.4,270.4,-0.171,0.31,-6.12,2.421,-0.012,0.586,-0.171,-0.35,0.942,262.36,0.15,1.065,0.784,-0.0094,0.669,0,-0.0094,0,0.2088,0.8,0.765,0.14,0,3,3,0,0,VALID,0,0,0,0,0,1,0,0,0,0,0,0,0,0,0,0,0,0,0,0,3.31,1388.95,4,0,0.8,0.5,418,1.2,0.9,0.8,15.08,LANDED
341.46,ROLLOUT,,95.96,140,44.04,4.97,1.76,-0.02,-1.49,263.89,6.218,0,0,20,1,0.6,4.5,0.75,0.35,0.0168,0.4,270.4,-0.171,0.31,-6.12,2.421,-0.012,0.586,-0.171,-0.35,0.942,262.48,0.15,1.862,0.486,-0.006,0.689,0,-0.006,0,0.262,0.8,1.355,0.14,0,3,3,0,0,VALID,0,0,0,0,0,1,0,0,0,0,0,0,0,0,0,0,0,0,0,0,1.33,1373.84,4,0,0.8,0.5,421,1.2,0.9,0.8,17.58,FLYING
343.98,ROLLOUT,,92.82,140,47.18,5.1,0.99,-0.35,-1.12,267.4,14.965,0,0,20,1,0.6,4.5,0.75,0.35,0.0168,0.4,270.4,-0.171,0.31,-6.12,2.421,-0.012,0.586,-0.171,-0.35,0.942,262.56,0.15,2.405,4.801,-0.0612,0.709,0,-0.0612,0,0.2339,0.8,1.043,0.14,0,3,3,0,0,VALID,0,0,0,0,0,1,0,0,0,0,0,0,0,0,0,0,0,0,0,0,0.53,1361.39,4,0,0.8,0.5,424,1.19,0.92,0.8,20.1,LANDED
346.48,ROLLOUT,,90.12,140,49.88,4.87,-0.02,-0.56,-0.54,267.96,4.377,0,0,20,1,0.6,4.5,0.75,0.35,0.0168,0.4,270.4,-0.171,0.31,-6.12,2.421,-0.012,0.586,-0.171,-0.35,0.942,262.61,0.15,2.694,5.406,-0.0706,0.725,0,-0.0706,0,0.2692,0.8,1.435,0.14,0,3,3,0,0,VALID,0,0,0,0,0,1,0,0,0,0,0,0,0,0,0,0,0,0,0,0,0.19,1352.01,4,0,0.8,0.5,427,1.2,0.9,0.8,22.6,LANDED
348.98,ROLLOUT,,87.09,140,52.91,4.91,0.19,-0.26,-0.42,268.34,0.245,0,0,20,1,0.6,4.5,0.75,0.35,0.0168,0.4,270.4,-0.171,0.31,-6.12,2.421,-0.012,0.586,-0.171,-0.35,0.942,262.67,0.153,2.869,5.647,-0.0756,0.743,0,-0.0756,0,0.2437,0.8,1.152,0.14,0,3,3,0,0,VALID,0,0,0,0,0,1,0,0,0,0,0,0,0,0,0,0,0,0,0,0,0,1343,4,0,0.8,0.5,430,1.2,0.9,0.8,25.1,LANDED
351.48,ROLLOUT,,83.8,140,56.2,4.88,0,-0.27,-0.26,268.77,0.257,0,0,20,1,0.6,4.5,0.75,0.35,0.0168,0.4,270.4,-0.171,0.31,-6.12,2.421,-0.012,0.586,-0.171,-0.35,0.942,263.53,0.219,3.018,5.221,-0.0717,0.763,0,-0.0717,0,0.2355,0.8,1.061,0.14,0,3,3,0,0,VALID,0,0,0,0,0,1,0,0,0,0,0,0,0,0,0,0,0,0,0,0,0,1335.11,4,0,0.8,0.5,433,1.2,0.9,0.8,27.6,LANDED
353.98,ROLLOUT,,80.64,140,59.36,4.98,-0.1,-0.18,-0.1,269.18,0.193,0,0,20,1,0.6,4.5,0.75,0.35,0.0168,0.4,270.4,-0.171,0.31,-6.12,2.421,-0.012,0.586,-0.171,-0.35,0.942,264.36,0.282,3.13,4.805,-0.0677,0.783,0,-0.0677,0,0.227,0.8,0.967,0.14,0,3,3,0,0,VALID,0,0,0,0,0,1,0,0,0,0,0,0,0,0,0,0,0,0,0,0,0,1329.56,4,0,0.8,0.5,436,1.2,0.9,0.8,30.1,LANDED
356.48,ROLLOUT,,77.62,140,62.38,5,-0.06,-0.1,-0.06,269.59,0.214,0,0,20,1,0.6,4.5,0.75,0.35,0.0168,0.4,270.4,-0.171,0.31,-6.12,2.421,-0.012,0.586,-0.171,-0.35,0.942,265.16,0.343,3.209,4.408,-0.0635,0.801,0,-0.0635,0,0.2218,0.8,0.909,0.14,0,3,3,0,0,VALID,0,0,0,0,0,1,0,0,0,0,0,0,0,0,0,0,0,0,0,0,0,1326.28,4,0,0.8,0.5,439,1.2,0.9,0.8,32.6,LANDED
