t_s,phase,subphase,ias_ms,vapp_ms,spd_err_ms,agl_m,gear_h_m,vs_ms,pitch_deg,aoa_deg,hdg_deg,bank_deg,thr_cmd,thr_cur,thr_intg,at_gain,at_tau_s,at_a_up,at_a_dn,at_kp_thr,at_ki_spd,at_thr_slew,as_cmd_deg,as_cap_deg,as_raw_deg,as_spd_err_ms,as_active,aa_hdg_cmd_deg,aa_fpa_cmd_deg,aa_fbw,aa_dir,actual_fpa_deg,ftf_hdg_err_deg,ftf_fix_idx,kos_steer_pit_deg,kos_steer_hdg_deg,aa_dir_vx,aa_dir_vy,aa_dir_vz,aa_dir_pitch_deg,aa_dir_hdg_deg,ils_loc_m,ils_gs_m,ils_dist_km,loc_corr_deg,gs_corr_deg,gs_latched,active_gs_ang_deg,ils_intercept_alt_m,d_gs_ms,fpa_preclamped_deg,gs_nom_alt_m,flare_fpa_cmd,flare_tgt_vs,flare_frac,steer_hdg_deg,steer_blend,ro_loc_corr_deg,ro_hdg_err_deg,ro_yaw_tgt,ro_yaw_scale,ro_yaw_gate,yaw_cmd,roll_cmd,pitch_cmd,ro_pitch_tgt_deg,ro_pitch_err_deg,ro_pitch_ff,ro_roll_assist,flaps_cur,flaps_tgt,asc_j_ab,asc_j_rk,asc_validity,asc_q_pa,asc_q_raw_pa,asc_mach,asc_apo_m,asc_drag_n,asc_w_prop,asc_edot_aero,asc_edot_orb,asc_pitch_bias,asc_blend,asc_spooling,asc_ab_thr_ratio,asc_ab_t_now,asc_ab_t_avail,asc_ab_ign_on,asc_ab_flameouts,asc_rk_t_now,asc_rk_t_avail,asc_rk_ign_on,asc_rk_flameouts,ship_thrust,ship_avail_thrust,ship_ign_on,ship_flameouts,ifc_raw_dt_s,ifc_dt_s,ifc_loop_n,ifc_hz_est,ifc_raw_dt_max_s,ifc_raw_dt_min_s,phase_el_s,status,craft_name,cfg_file
0.16,APPROACH,ILS_TRACK,156.68,146,-10.68,1341.8,1261.24,-14.17,12.06,17.41,268.43,-15.168,0,0,0,0,0,0,0,0,0,0,0,0,0,0,0,0,0,1,0,-5.19,0,0,0,90,0,0,0,0,0,-107.31,-270.9,29.355,0,0,0,3,1341.8,0,0,1612.69,0,0,0,268.44,0,0,0,0,0,0,0,0,0,0,0,0,0,0,0,0,0,VALID,0,0,0,0,0,1,0,0,0,0,0,0,0,0,0,0,0,0,0,0,332.83,1052.42,2,0,0.14,0.14,1,3.7,0.14,0.02,0.16,FLYING,X10-F,0:/Integrated Flight Computer/aircraft/x10_f_cfg.ks (inferred preloaded)
0.42,APPROACH,ILS_TRACK,156.64,146,-10.64,1338.15,1257.73,-13.42,11.88,16.91,268.38,-14.286,0,0,0,1,0.6,1.421,0.75,0.35,0.0168,0.4,6,20.582,10.173,10.644,1,272.12,0,0,1,-4.94,0,0,0,295,-0.1166,0.037,0.9925,0,272.12,-105.43,-272.02,29.317,2.12,0,0,3,1341.8,-5.043,0,1610.73,0,0,0,268.44,0,0,0,0,0,0,0,0,0,0,0,0,0,1,3,0,0,VALID,0,0,0,0,0,1,0,0,0,0,0,0,0,0,0,0,0,0,0,0,303.79,1052.44,2,0,0.12,0.12,3,7.69,0.14,0.12,0.42,FLYING,X10-F,0:/Integrated Flight Computer/aircraft/x10_f_cfg.ks (inferred preloaded)
0.74,APPROACH,ILS_TRACK,156.54,146,-10.54,1333.81,1253.73,-12.83,11.32,16.04,268.53,-12.339,0,0,0,1,0.6,3.154,0.75,0.35,0.0168,0.4,10.076,20.61,10.076,10.545,1,272.32,0,0,1,-4.71,0,0,0,272.25,-0.1165,0.0405,0.9924,0,272.32,-102.99,-273.53,29.262,2.318,0,0,3,1341.8,-4.463,0,1607.87,0,0,0,268.44,0,0,0,0,0,0,0,0,0,0,0,0,0,1,3,0,0,VALID,0,0,0,0,0,1,0,0,0,0,0,0,0,0,0,0,0,0,0,0,271.45,1052.25,2,0,0.08,0.08,6,9.38,0.14,0.08,0.74,FLYING,X10-F,0:/Integrated Flight Computer/aircraft/x10_f_cfg.ks (inferred preloaded)
1.1,APPROACH,ILS_TRACK,156.39,146,-10.39,1329.25,1249.67,-12.44,11.18,15.6,269.1,-6.755,0,0,0,1,0.6,4.5,0.75,0.35,0.0168,0.4,9.933,20.651,9.933,10.398,1,272.44,0,0,1,-4.56,0,0,0,272.4,-0.1164,0.0426,0.9923,0,272.44,-100.6,-274.91,29.201,2.439,0,0,3,1341.8,-3.48,0,1604.65,0,0,0,268.44,0,0,0,0,0,0,0,0,0,0,0,0,0,2,3,0,0,VALID,0,0,0,0,0,1,0,0,0,0,0,0,0,0,0,0,0,0,0,0,239.13,1051.89,2,0,0.12,0.12,9,8.33,0.12,0.08,1.1,FLYING,X10-F,0:/Integrated Flight Computer/aircraft/x10_f_cfg.ks (inferred preloaded)
1.46,APPROACH,ILS_TRACK,156.15,146,-10.15,1325.14,1245.66,-12.06,12.06,16.26,269.83,-2.175,0,0,0,1,0.6,4.5,0.75,0.35,0.0168,0.4,9.71,20.715,9.71,10.171,1,272.48,0,0,1,-4.43,0,0,0,272.47,-0.1163,0.0432,0.9923,0,272.48,-98.44,-275.87,29.14,2.477,0,0,3,1341.8,-2.233,0,1601.44,0,0,0,268.44,0,0,0,0,0,0,0,0,0,0,0,0,0,3,3,0,0,VALID,0,0,0,0,0,1,0,0,0,0,0,0,0,0,0,0,0,0,0,0,210.58,1051.15,2,0,0.12,0.12,12,8.33,0.12,0.12,1.46,FLYING,X10-F,0:/Integrated Flight Computer/aircraft/x10_f_cfg.ks (inferred preloaded)
1.82,APPROACH,ILS_TRACK,155.64,146,-9.64,1321.47,1241.6,-11.16,13.96,17.84,270.65,0.314,0.0462,0,-1.161,1,0.6,4.5,0.75,0.35,0.0168,0.4,9.216,20.855,9.216,9.676,1,272.44,0,0,1,-4.16,0,0,0,272.46,-0.1162,0.0425,0.9923,0,272.44,-96.39,-276.37,29.079,2.438,0,0,3,1341.8,-1.023,0,1598.24,0,0,0,268.44,0,0,0,0,0,0,0,0,0,0,0,0,0,3,3,0,0,VALID,0,0,0,0,0,1,0,0,0,0,0,0,0,0,0,0,0,0,0,0,185.24,1049.18,2,0,0.12,0.12,15,8.33,0.12,0.12,1.82,FLYING,X10-F,0:/Integrated Flight Computer/aircraft/x10_f_cfg.ks (inferred preloaded)
2.16,APPROACH,ILS_TRACK,154.76,146,-8.76,1318.22,1238.04,-9.72,15.09,18.43,271.36,0.817,0.1822,0,-4.262,1,0.6,4.5,0.75,0.35,0.0168,0.4,0.716,21.098,0,8.813,1,272.36,0,0,1,-3.65,0,0,0,272.39,-0.1161,0.0412,0.9924,0,272.36,-94.47,-276.64,29.021,2.363,0,0,3,1341.8,-0.623,0,1595.23,0,0,0,268.44,0,0,0,0,0,0,0,0,0,0,0,0,0,3,3,0,0,VALID,0,0,0,0,0,1,0,0,0,0,0,0,0,0,0,0,0,0,0,0,173.77,1045.6,2,0,0.1,0.1,18,8.82,0.12,0.1,2.16,FLYING,X10-F,0:/Integrated Flight Computer/aircraft/x10_f_cfg.ks (inferred preloaded)
2.44,APPROACH,ILS_TRACK,153.96,146,-7.96,1315.69,1235.5,-8.59,15.26,18.19,271.82,0.569,0.2942,0,-6.58,1,0.6,4.5,0.75,0.35,0.0168,0.4,0,21.322,0,8.017,0,272.28,0,0,1,-3.26,0,0,0,272.31,-0.116,0.0398,0.9924,0,272.28,-92.87,-276.72,28.974,2.284,0,0,3,1341.8,-0.112,0,1592.76,0,0,0,268.44,0,0,0,0,0,0,0,0,0,0,0,0,0,3,3,0,0,VALID,0,0,0,0,0,1,0,0,0,0,0,0,0,0,0,0,0,0,0,0,175.72,1042.31,2,0,0.08,0.08,21,10.71,0.1,0.08,2.44,FLYING,X10-F,0:/Integrated Flight Computer/aircraft/x10_f_cfg.ks (inferred preloaded)
2.8,APPROACH,ILS_TRACK,153.01,146,-7.01,1312.65,1232.63,-7.48,14.7,17.24,272.15,0.677,0.4382,0,-9.229,1,0.6,4.5,0.75,0.35,0.0168,0.4,0,21.593,0,7.056,0,272.17,0,0,1,-2.83,0,0,0,272.21,-0.1159,0.0378,0.9925,0,272.17,-90.79,-276.63,28.914,2.169,0,0,3,1341.8,0.541,0,1589.61,0,0,0,268.44,0,0,0,0,0,0,0,0,0,0,0,0,0,3,3,0,0,VALID,0,0,0,0,0,1,0,0,0,0,0,0,0,0,0,0,0,0,0,0,187.14,1038.38,2,0,0.12,0.12,24,8.33,0.12,0.08,2.8,FLYING,X10-F,0:/Integrated Flight Computer/aircraft/x10_f_cfg.ks (inferred preloaded)
3.14,APPROACH,ILS_TRACK,152.3,146,-6.3,1310.09,1230.25,-6.78,14.16,16.47,272.13,0.247,0.3406,0,-11.46,1,0.6,4.5,0.75,0.35,0.0168,0.4,0,21.796,0,6.336,0,272.06,0,0,1,-2.57,0,0,0,272.08,-0.1158,0.036,0.9926,0,272.06,-88.78,-276.26,28.857,2.064,0,0,3,1341.8,1.373,0,1586.64,0,0,0,268.44,0,0,0,0,0,0,0,0,0,0,0,0,0,3,3,0,0,VALID,0,0,0,0,0,1,0,0,0,0,0,0,0,0,0,0,0,0,0,0,202.44,1035.48,2,0,0.1,0.1,27,8.82,0.12,0.1,3.14,FLYING,X10-F,0:/Integrated Flight Computer/aircraft/x10_f_cfg.ks (inferred preloaded)
3.42,APPROACH,ILS_TRACK,151.81,146,-5.81,1308.19,1228.41,-6.39,13.87,16.07,272.09,0.178,0.2286,0,-13.141,1,0.6,4.5,0.75,0.35,0.0168,0.4,0,21.935,0,5.843,0,272,0,0,1,-2.43,0,0,0,272.02,-0.1158,0.035,0.9927,0,272,-87.12,-275.76,28.811,2.003,0,0,3,1341.8,2.027,0,1584.21,0,0,0,268.44,0,0,0,0,0,0,0,0,0,0,0,0,0,3,3,0,0,VALID,0,0,0,0,0,1,0,0,0,0,0,0,0,0,0,0,0,0,0,0,208.58,1033.49,2,0,0.08,0.08,30,10.71,0.1,0.08,3.42,FLYING,X10-F,0:/Integrated Flight Computer/aircraft/x10_f_cfg.ks (inferred preloaded)
3.72,APPROACH,ILS_TRACK,151.32,146,-5.32,1306.33,1226.58,-5.82,13.85,15.87,272.08,0.097,0.1313,0,-14.795,1,0.6,4.5,0.75,0.35,0.0168,0.4,0,22.074,0,5.35,0,271.94,0,0,1,-2.25,0,0,0,271.95,-0.1157,0.0339,0.9927,0,271.94,-85.35,-275.03,28.761,1.944,0,0,3,1341.8,2.596,0,1581.61,0,0,0,268.44,0,0,0,0,0,0,0,0,0,0,0,0,0,3,3,0,0,VALID,0,0,0,0,0,1,0,0,0,0,0,0,0,0,0,0,0,0,0,0,207.38,1031.5,2,0,0.08,0.08,33,10,0.12,0.08,3.72,FLYING,X10-F,0:/Integrated Flight Computer/aircraft/x10_f_cfg.ks (inferred preloaded)
4.02,APPROACH,ILS_TRACK,150.76,146,-4.76,1304.51,1224.96,-5.1,13.22,14.94,272.05,-0.011,0.1059,0,-16.288,1,0.6,4.5,0.75,0.35,0.0168,0.4,0,22.23,0,4.798,0,271.87,0,0,1,-1.97,0,0,0,271.89,-0.1156,0.0326,0.9928,0,271.87,-83.57,-274.26,28.712,1.871,0,0,3,1341.8,2.57,0,1579.01,0,0,0,268.44,0,0,0,0,0,0,0,0,0,0,0,0,0,3,3,0,0,VALID,0,0,0,0,0,1,0,0,0,0,0,0,0,0,0,0,0,0,0,0,199.22,1029.24,2,0,0.08,0.08,36,10,0.12,0.08,4.02,FLYING,X10-F,0:/Integrated Flight Computer/aircraft/x10_f_cfg.ks (inferred preloaded)
4.34,APPROACH,ILS_TRACK,150.27,146,-4.27,1302.54,1223.39,-4.67,11.78,13.3,272.02,-0.145,0.0341,0,-17.714,1,0.6,4.5,0.75,0.35,0.0168,0.4,3.379,22.372,3.379,4.294,1,271.81,0,0,1,-1.78,0,0,0,271.8,-0.1155,0.0315,0.9928,0,271.81,-81.69,-273.47,28.659,1.805,0,0,3,1341.8,2.435,0,1576.26,0,0,0,268.44,0,0,0,0,0,0,0,0,0,0,0,0,0,3,3,0,0,VALID,0,0,0,0,0,1,0,0,0,0,0,0,0,0,0,0,0,0,0,0,187.32,1027.21,2,0,0.1,0.1,39,9.38,0.12,0.08,4.34,FLYING,X10-F,0:/Integrated Flight Computer/aircraft/x10_f_cfg.ks (inferred preloaded)
4.7,APPROACH,ILS_TRACK,149.9,146,-3.9,1300.44,1221.65,-4.92,10.34,12,271.99,-0.302,0,0,-17.449,1,0.6,4.5,0.802,0.35,0.0168,0.4,2.935,22.478,2.935,3.915,1,271.72,0,0,1,-1.86,0,0,0,271.75,-0.1154,0.03,0.9929,0,271.72,-79.58,-272.5,28.6,1.721,0,0,3,1341.8,2.876,0,1573.17,0,0,0,268.44,0,0,0,0,0,0,0,0,0,0,0,0,0,3,3,0,0,VALID,0,0,0,0,0,1,0,0,0,0,0,0,0,0,0,0,0,0,0,0,166.57,1025.71,2,0,0.12,0.12,42,8.33,0.12,0.1,4.7,FLYING,X10-F,0:/Integrated Flight Computer/aircraft/x10_f_cfg.ks (inferred preloaded)
5.06,APPROACH,ILS_TRACK,149.52,146,-3.52,1298.55,1219.78,-5.34,10.06,11.95,271.95,-0.46,0,0,-17.189,1,0.6,4.5,0.868,0.35,0.0168,0.4,2.492,22.584,2.492,3.542,1,271.64,0,0,1,-2.03,0,0,0,271.67,-0.1153,0.0287,0.9929,0,271.64,-77.48,-271.33,28.541,1.644,0,0,3,1341.8,3.442,0,1570.08,0,0,0,268.44,0,0,0,0,0,0,0,0,0,0,0,0,0,3,3,0,0,VALID,0,0,0,0,0,1,0,0,0,0,0,0,0,0,0,0,0,0,0,0,146.57,1024.23,2,0,0.12,0.12,45,8.33,0.12,0.12,5.06,FLYING,X10-F,0:/Integrated Flight Computer/aircraft/x10_f_cfg.ks (inferred preloaded)
5.4,APPROACH,ILS_TRACK,149.05,146,-3.05,1296.95,1217.9,-5.63,10.91,12.97,271.9,-0.607,0,0,-16.932,1,0.6,4.5,0.926,0.35,0.0168,0.4,1.946,22.712,1.946,3.085,1,271.58,0,0,1,-2.16,0,0,0,271.6,-0.1153,0.0276,0.993,0,271.58,-75.51,-270.04,28.486,1.579,0,0,3,1341.8,3.946,0,1567.18,0,0,0,268.44,0,0,0,0,0,0,0,0,0,0,0,0,0,3,3,0,0,VALID,0,0,0,0,0,1,0,0,0,0,0,0,0,0,0,0,0,0,0,0,129.84,1022.39,2,0,0.1,0.1,48,8.82,0.12,0.1,5.4,FLYING,X10-F,0:/Integrated Flight Computer/aircraft/x10_f_cfg.ks (inferred preloaded)
5.74,APPROACH,ILS_TRACK,148.4,146,-2.4,1295.5,1215.98,-5.64,12.53,14.64,271.83,-0.746,0.0843,0,-17.464,1,0.6,4.5,1.007,0.35,0.0168,0.4,0,22.894,0,2.441,0,271.51,0,0,1,-2.19,0,0,0,271.54,-0.1152,0.0263,0.993,0,271.51,-73.56,-268.62,28.431,1.509,0,0,3,1341.8,4.308,0,1564.28,0,0,0,268.44,0,0,0,0,0,0,0,0,0,0,0,0,0,3,3,0,0,VALID,0,0,0,0,0,1,0,0,0,0,0,0,0,0,0,0,0,0,0,0,116.22,1019.77,2,0,0.12,0.12,51,8.82,0.12,0.1,5.74,FLYING,X10-F,0:/Integrated Flight Computer/aircraft/x10_f_cfg.ks (inferred preloaded)
6.1,APPROACH,ILS_TRACK,147.39,146,-1.39,1293.94,1214.12,-4.7,13.78,15.48,271.76,-0.887,0.2283,0,-18.117,1,0.6,4.5,1.007,0.35,0.0168,0.4,0,23.172,0,1.453,0,271.45,0,0,1,-1.86,0,0,0,271.47,-0.1151,0.0253,0.993,0,271.45,-71.52,-267.11,28.373,1.453,0,0,3,1341.8,3.979,0,1561.24,0,0,0,268.44,0,0,0,0,0,0,0,0,0,0,0,0,0,3,3,0,0,VALID,0,0,0,0,0,1,0,0,0,0,0,0,0,0,0,0,0,0,0,0,115.83,1015.67,2,0,0.12,0.12,54,8.33,0.12,0.12,6.1,FLYING,X10-F,0:/Integrated Flight Computer/aircraft/x10_f_cfg.ks (inferred preloaded)
6.46,APPROACH,ILS_TRACK,146.31,146,-0.31,1292.3,1212.56,-3.92,13.52,14.89,271.71,-1.011,0.3723,0,-18.376,1,0.6,4.5,1.007,0.35,0.0168,0.4,0,23.479,0,0.364,0,271.4,0,0,1,-1.56,0,0,0,271.42,-0.115,0.0245,0.9931,0,271.4,-69.52,-265.73,28.315,1.404,0,0,3,1341.8,3.774,0,1558.21,0,0,0,268.44,0,0,0,0,0,0,0,0,0,0,0,0,0,3,3,0,0,VALID,0,0,0,0,0,1,0,0,0,0,0,0,0,0,0,0,0,0,0,0,126.25,1011.25,2,0,0.12,0.12,57,8.33,0.12,0.12,6.46,FLYING,X10-F,0:/Integrated Flight Computer/aircraft/x10_f_cfg.ks (inferred preloaded)
6.82,APPROACH,ILS_TRACK,145.41,146,0.59,1290.71,1211.2,-3.62,12.64,13.89,271.67,-1.115,0.5163,0,-18.283,1,0.6,4.5,1.007,0.35,0.0168,0.4,0,23.735,0,-0.544,0,271.35,0,0,1,-1.43,0,0,0,271.37,-0.1149,0.0236,0.9931,0,271.35,-67.56,-264.33,28.258,1.354,0,0,3,1341.8,3.964,0,1555.21,0,0,0,268.44,0,0,0,0,0,0,0,0,0,0,0,0,0,3,3,0,0,VALID,0,0,0,0,0,1,0,0,0,0,0,0,0,0,0,0,0,0,0,0,146.01,1007.59,2,0,0.12,0.12,60,8.33,0.12,0.12,6.82,FLYING,X10-F,0:/Integrated Flight Computer/aircraft/x10_f_cfg.ks (inferred preloaded)
7.18,APPROACH,ILS_TRACK,144.68,146,1.32,1289.19,1209.87,-3.74,11.92,13.24,271.64,-1.208,0.5915,0,-17.906,1,0.6,4.5,1.007,0.35,0.0168,0.4,0,23.943,0,-1.282,0,271.3,0,0,1,-1.47,0,0,0,271.31,-0.1148,0.0226,0.9931,0,271.3,-65.63,-262.86,28.201,1.297,0,0,3,1341.8,4.137,0,1552.22,0,0,0,268.44,0,0,0,0,0,0,0,0,0,0,0,0,0,3,3,0,0,VALID,0,0,0,0,0,1,0,0,0,0,0,0,0,0,0,0,0,0,0,0,174.26,1004.64,2,0,0.12,0.12,63,8.33,0.12,0.12,7.18,FLYING,X10-F,0:/Integrated Flight Computer/aircraft/x10_f_cfg.ks (inferred preloaded)
7.54,APPROACH,ILS_TRACK,144.07,146,1.93,1287.74,1208.47,-3.99,11.65,13.09,271.6,-1.297,0.5444,0,-17.294,1,0.6,4.5,1.007,0.35,0.0168,0.4,0,24.117,0,-1.901,0,271.24,0,0,1,-1.57,0,0,0,271.26,-0.1147,0.0217,0.9932,0,271.24,-63.74,-261.34,28.144,1.243,0,0,3,1341.8,4.251,0,1549.24,0,0,0,268.44,0,0,0,0,0,0,0,0,0,0,0,0,0,3,3,0,0,VALID,0,0,0,0,0,1,0,0,0,0,0,0,0,0,0,0,0,0,0,0,202.07,1002.2,2,0,0.12,0.12,66,8.33,0.12,0.12,7.54,FLYING,X10-F,0:/Integrated Flight Computer/aircraft/x10_f_cfg.ks (inferred preloaded)
7.9,APPROACH,ILS_TRACK,143.54,146,2.46,1286.33,1206.98,-4.23,11.87,13.43,271.54,-1.384,0.5024,0,-16.48,1,0.6,4.5,1.007,0.35,0.0168,0.4,0,24.267,0,-2.431,0,271.19,0,0,1,-1.68,0,0,0,271.21,-0.1146,0.0208,0.9932,0,271.19,-61.88,-259.78,28.087,1.191,0,0,3,1341.8,4.358,0,1546.27,0,0,0,268.44,0,0,0,0,0,0,0,0,0,0,0,0,0,3,3,0,0,VALID,0,0,0,0,0,1,0,0,0,0,0,0,0,0,0,0,0,0,0,0,224.64,1000.14,2,0,0.12,0.12,69,8.33,0.12,0.12,7.9,FLYING,X10-F,0:/Integrated Flight Computer/aircraft/x10_f_cfg.ks (inferred preloaded)
8.26,APPROACH,ILS_TRACK,143.05,146,2.95,1284.98,1205.42,-4.39,12.53,14.18,271.47,-1.466,0.488,0,-15.487,1,0.6,4.5,1.007,0.35,0.0168,0.4,0,24.405,0,-2.92,0,271.14,0,0,1,-1.75,0,0,0,271.16,-0.1145,0.0199,0.9932,0,271.14,-60.05,-258.19,28.031,1.141,0,0,3,1341.8,4.477,0,1543.31,0,0,0,268.44,0,0,0,0,0,0,0,0,0,0,0,0,0,3,3,0,0,VALID,0,0,0,0,0,1,0,0,0,0,0,0,0,0,0,0,0,0,0,0,243.06,998.24,2,0,0.12,0.12,72,8.33,0.12,0.12,8.26,FLYING,X10-F,0:/Integrated Flight Computer/aircraft/x10_f_cfg.ks (inferred preloaded)
8.62,APPROACH,ILS_TRACK,142.54,146,3.46,1283.67,1203.88,-4.19,13.47,15.06,271.4,-1.421,0.5223,0,-14.315,1,0.6,4.5,1.007,0.35,0.0168,0.4,0,24.549,0,-3.432,0,271.1,0,0,1,-1.72,0,0,0,271.11,-0.1144,0.0192,0.9932,0,271.1,-58.26,-256.55,27.974,1.099,0,0,3,1341.8,4.529,0,1540.37,0,0,0,268.44,0,0,0,0,0,0,0,0,0,0,0,0,0,3,3,0,0,VALID,0,0,0,0,0,1,0,0,0,0,0,0,0,0,0,0,0,0,0,0,260.01,996.25,2,0,0.12,0.12,75,8.33,0.12,0.12,8.62,FLYING,X10-F,0:/Integrated Flight Computer/aircraft/x10_f_cfg.ks (inferred preloaded)
8.98,APPROACH,ILS_TRACK,142.01,146,3.99,1282.36,1202.6,-3.54,13.76,15.07,271.58,0.196,0.5786,0,-12.95,1,0.6,4.5,1.007,0.35,0.0168,0.4,0,24.699,0,-3.964,0,271.08,0,0,1,-1.45,0,0,0,271.1,-0.1143,0.0189,0.9933,0,271.08,-56.54,-254.93,27.918,1.082,0,0,3,1341.8,4.535,0,1537.43,0,0,0,268.44,0,0,0,0,0,0,0,0,0,0,0,0,0,3,3,0,0,VALID,0,0,0,0,0,1,0,0,0,0,0,0,0,0,0,0,0,0,0,0,278.82,994.18,2,0,0.12,0.12,78,8.33,0.12,0.12,8.98,FLYING,X10-F,0:/Integrated Flight Computer/aircraft/x10_f_cfg.ks (inferred preloaded)
9.24,APPROACH,ILS_TRACK,141.7,146,4.3,1281.44,1201.73,-3.35,13.69,14.92,271.77,0.041,0.5855,0,-11.856,1,0.6,4.5,1.007,0.35,0.0168,0.4,0,24.789,0,-4.282,0,271.02,0,0,1,-1.36,0,0,0,271.06,-0.1143,0.0178,0.9933,0,271.02,-55.32,-253.74,27.878,1.022,0,0,3,1341.8,4.621,0,1535.32,0,0,0,268.44,0,0,0,0,0,0,0,0,0,0,0,0,0,3,3,0,0,VALID,0,0,0,0,0,1,0,0,0,0,0,0,0,0,0,0,0,0,0,0,293.6,992.96,2,0,0.12,0.12,80,7.69,0.14,0.12,9.24,FLYING,X10-F,0:/Integrated Flight Computer/aircraft/x10_f_cfg.ks (inferred preloaded)
9.6,APPROACH,ILS_TRACK,141.32,146,4.68,1280.21,1200.49,-3.31,13.55,14.77,271.71,-0.475,0.5819,0,-10.221,1,0.6,4.5,1.007,0.35,0.0168,0.4,0,24.896,0,-4.663,0,270.93,0,0,1,-1.34,0,0,0,270.95,-0.1142,0.0162,0.9933,0,270.93,-53.58,-252.05,27.822,0.927,0,0,3,1341.8,4.722,0,1532.39,0,0,0,268.44,0,0,0,0,0,0,0,0,0,0,0,0,0,3,3,0,0,VALID,0,0,0,0,0,1,0,0,0,0,0,0,0,0,0,0,0,0,0,0,313.15,991.5,2,0,0.12,0.12,83,8.33,0.12,0.12,9.6,FLYING,X10-F,0:/Integrated Flight Computer/aircraft/x10_f_cfg.ks (inferred preloaded)
9.96,APPROACH,ILS_TRACK,141.02,146,4.98,1279.03,1199.22,-3.34,13.61,14.86,271.53,-1.245,0.5659,0,-8.468,1,0.6,4.5,1.007,0.35,0.0168,0.4,0,24.981,0,-4.965,0,270.86,0,0,1,-1.36,0,0,0,270.89,-0.1141,0.0151,0.9934,0,270.86,-51.84,-250.32,27.767,0.865,0,0,3,1341.8,4.867,0,1529.48,0,0,0,268.44,0,0,0,0,0,0,0,0,0,0,0,0,0,3,3,0,0,VALID,0,0,0,0,0,1,0,0,0,0,0,0,0,0,0,0,0,0,0,0,330.82,990.37,2,0,0.12,0.12,86,8.33,0.12,0.12,9.96,FLYING,X10-F,0:/Integrated Flight Computer/aircraft/x10_f_cfg.ks (inferred preloaded)
10.32,APPROACH,ILS_TRACK,140.77,146,5.23,1277.94,1197.96,-3.36,13.95,15.23,271.29,-1.937,0.5574,0,-6.62,1,0.6,4.5,1.007,0.35,0.0168,0.4,0,25.052,0,-5.217,0,270.82,0,0,1,-1.37,0,0,0,270.83,-0.114,0.0143,0.9934,0,270.82,-50.12,-248.52,27.711,0.819,0,0,3,1341.8,5.08,0,1526.57,0,0,0,268.44,0,0,0,0,0,0,0,0,0,0,0,0,0,3,3,0,0,VALID,0,0,0,0,0,1,0,0,0,0,0,0,0,0,0,0,0,0,0,0,346.24,989.44,2,0,0.12,0.12,89,8.33,0.12,0.12,10.32,FLYING,X10-F,0:/Integrated Flight Computer/aircraft/x10_f_cfg.ks (inferred preloaded)
10.68,APPROACH,ILS_TRACK,140.52,146,5.48,1276.93,1196.74,-3.11,14.59,15.79,271.06,-2.385,0.5756,0,-4.683,1,0.6,4.5,1.007,0.35,0.0168,0.4,0,25.121,0,-5.462,0,270.78,0,0,1,-1.3,0,0,0,270.79,-0.1139,0.0137,0.9934,0,270.78,-48.44,-246.63,27.656,0.784,0,0,3,1341.8,5.319,0,1523.66,0,0,0,268.44,0,0,0,0,0,0,0,0,0,0,0,0,0,3,3,0,0,VALID,0,0,0,0,0,1,0,0,0,0,0,0,0,0,0,0,0,0,0,0,360.4,988.53,2,0,0.12,0.12,92,8.33,0.12,0.12,10.68,FLYING,X10-F,0:/Integrated Flight Computer/aircraft/x10_f_cfg.ks (inferred preloaded)
11.04,APPROACH,ILS_TRACK,140.24,146,5.76,1275.85,1195.85,-2.53,14.5,15.42,271.11,-1.127,0.6324,0,-2.648,1,0.6,4.5,1.007,0.35,0.0168,0.4,0,25.202,0,-5.747,0,270.81,0,0,1,-1.06,0,0,0,270.79,-0.1138,0.0141,0.9934,0,270.81,-46.86,-244.78,27.6,0.807,0,0,3,1341.8,5.006,0,1520.76,0,0,0,268.44,0,0,0,0,0,0,0,0,0,0,0,0,0,3,3,0,0,VALID,0,0,0,0,0,1,0,0,0,0,0,0,0,0,0,0,0,0,0,0,375.67,987.44,2,0,0.12,0.12,95,8.33,0.12,0.12,11.04,FLYING,X10-F,0:/Integrated Flight Computer/aircraft/x10_f_cfg.ks (inferred preloaded)
11.4,APPROACH,ILS_TRACK,140.1,146,5.9,1274.7,1195.05,-2.29,13.5,14.29,271.38,0.02,0.6105,0,-0.537,1,0.6,4.5,1.007,0.35,0.0168,0.4,0,25.244,0,-5.897,0,270.77,0,0,1,-0.94,0,0,0,270.78,-0.1137,0.0135,0.9934,0,270.77,-45.34,-243.04,27.545,0.772,0,0,3,1341.8,4.814,0,1517.87,0,0,0,268.44,0,0,0,0,0,0,0,0,0,0,0,0,0,3,3,0,0,VALID,0,0,0,0,0,1,0,0,0,0,0,0,0,0,0,0,0,0,0,0,392.75,986.93,2,0,0.12,0.12,98,8.33,0.12,0.12,11.4,FLYING,X10-F,0:/Integrated Flight Computer/aircraft/x10_f_cfg.ks (inferred preloaded)
11.66,APPROACH,ILS_TRACK,140.12,146,5.88,1273.85,1194.31,-2.35,12.63,13.43,271.68,1.678,0.5507,0,0.995,1,0.6,4.5,1.007,0.35,0.0168,0.4,0,25.239,0,-5.882,0,270.73,0,0,1,-0.95,0,0,0,270.75,-0.1137,0.0128,0.9934,0,270.73,-44.26,-241.79,27.505,0.733,0,0,3,1341.8,4.775,0,1515.78,0,0,0,268.44,0,0,0,0,0,0,0,0,0,0,0,0,0,3,3,0,0,VALID,0,0,0,0,0,1,0,0,0,0,0,0,0,0,0,0,0,0,0,0,403.02,987.05,2,0,0.12,0.12,100,7.69,0.14,0.12,11.66,FLYING,X10-F,0:/Integrated Flight Computer/aircraft/x10_f_cfg.ks (inferred preloaded)
12.02,APPROACH,ILS_TRACK,140.31,146,5.69,1272.68,1193.31,-2.73,11.64,12.62,272.06,2.575,0.4258,0,3.073,1,0.6,4.5,1.007,0.35,0.0168,0.4,0,25.189,0,-5.704,0,270.63,0,0,1,-1.09,0,0,0,270.67,-0.1136,0.011,0.9935,0,270.63,-42.74,-240.07,27.45,0.631,0,0,3,1341.8,4.788,0,1512.88,0,0,0,268.44,0,0,0,0,0,0,0,0,0,0,0,0,0,3,3,0,0,VALID,0,0,0,0,0,1,0,0,0,0,0,0,0,0,0,0,0,0,0,0,410.72,987.85,2,0,0.12,0.12,103,8.33,0.12,0.12,12.02,FLYING,X10-F,0:/Integrated Flight Computer/aircraft/x10_f_cfg.ks (inferred preloaded)
12.38,APPROACH,ILS_TRACK,140.58,146,5.42,1271.5,1192.16,-3.23,11.22,12.42,272.34,3.358,0.3218,0,5.063,1,0.6,4.5,1.007,0.35,0.0168,0.4,0,25.112,0,-5.431,0,270.53,0,0,1,-1.29,0,0,0,270.57,-0.1135,0.0092,0.9935,0,270.53,-41.15,-238.35,27.395,0.527,0,0,3,1341.8,4.795,0,1509.98,0,0,0,268.44,0,0,0,0,0,0,0,0,0,0,0,0,0,3,3,0,0,VALID,0,0,0,0,0,1,0,0,0,0,0,0,0,0,0,0,0,0,0,0,408.25,989.03,2,0,0.12,0.12,106,8.33,0.12,0.12,12.38,FLYING,X10-F,0:/Integrated Flight Computer/aircraft/x10_f_cfg.ks (inferred preloaded)
12.74,APPROACH,ILS_TRACK,140.86,146,5.14,1270.27,1190.9,-3.47,11.19,12.49,272.6,4.002,0.2748,0,6.951,1,0.6,4.5,1.007,0.35,0.0168,0.4,0,25.035,0,-5.156,0,270.42,0,0,1,-1.4,0,0,0,270.45,-0.1134,0.0073,0.9935,0,270.42,-39.5,-236.65,27.339,0.419,0,0,3,1341.8,4.585,0,1507.07,0,0,0,268.44,0,0,0,0,0,0,0,0,0,0,0,0,0,3,3,0,0,VALID,0,0,0,0,0,1,0,0,0,0,0,0,0,0,0,0,0,0,0,0,396.03,990.21,2,0,0.12,0.12,109,8.33,0.12,0.12,12.74,FLYING,X10-F,0:/Integrated Flight Computer/aircraft/x10_f_cfg.ks (inferred preloaded)
13.1,APPROACH,ILS_TRACK,141.07,146,4.93,1268.93,1189.84,-3.78,11.06,12.45,272.53,1.576,0.2864,0,8.753,1,0.6,4.5,1.007,0.35,0.0168,0.4,0,24.973,0,-4.937,0,270.23,0,0,1,-1.52,0,0,0,270.29,-0.1133,0.004,0.9936,0,270.23,-37.71,-235.07,27.283,0.23,0,0,3,1341.8,4.331,0,1504.16,0,0,0,268.44,0,0,0,0,0,0,0,0,0,0,0,0,0,3,3,0,0,VALID,0,0,0,0,0,1,0,0,0,0,0,0,0,0,0,0,0,0,0,0,381.74,991.16,2,0,0.12,0.12,112,8.33,0.12,0.12,13.1,FLYING,X10-F,0:/Integrated Flight Computer/aircraft/x10_f_cfg.ks (inferred preloaded)
13.46,APPROACH,ILS_TRACK,141.24,146,4.76,1267.54,1188.37,-4.05,11.1,12.59,271.94,-1.681,0.3228,0,10.488,1,0.6,4.5,1.007,0.35,0.0168,0.4,0,24.924,0,-4.764,0,270.11,0,0,1,-1.63,0,0,0,270.13,-0.1132,0.0019,0.9936,0,270.11,-35.81,-233.55,27.228,0.111,0,0,3,1341.8,4.168,0,1501.24,0,0,0,268.44,0,0,0,0,0,0,0,0,0,0,0,0,0,3,3,0,0,VALID,0,0,0,0,0,1,0,0,0,0,0,0,0,0,0,0,0,0,0,0,371.52,991.95,2,0,0.12,0.12,115,8.33,0.12,0.12,13.46,FLYING,X10-F,0:/Integrated Flight Computer/aircraft/x10_f_cfg.ks (inferred preloaded)
13.82,APPROACH,ILS_TRACK,141.38,146,4.62,1266.08,1186.88,-4.31,11.25,12.86,271.51,-1.675,0.3683,0,12.169,1,0.6,4.5,1.007,0.35,0.0168,0.4,0,24.886,0,-4.627,0,270.09,0,0,1,-1.73,0,0,0,270.09,-0.1131,0.0017,0.9936,0,270.09,-33.96,-232.08,27.172,0.095,0,0,3,1341.8,4.025,0,1498.32,0,0,0,268.44,0,0,0,0,0,0,0,0,0,0,0,0,0,3,3,0,0,VALID,0,0,0,0,0,1,0,0,0,0,0,0,0,0,0,0,0,0,0,0,367.17,992.6,2,0,0.12,0.12,118,8.33,0.12,0.12,13.82,FLYING,X10-F,0:/Integrated Flight Computer/aircraft/x10_f_cfg.ks (inferred preloaded)
14.18,APPROACH,ILS_TRACK,141.48,146,4.52,1264.59,1185.24,-4.55,11.62,13.33,271.38,-2.003,0.4165,0,13.808,1,0.6,4.5,1.007,0.35,0.0168,0.4,0,24.856,0,-4.52,0,270.06,0,0,1,-1.83,0,0,0,270.09,-0.113,0.0011,0.9936,0,270.06,-32.19,-230.65,27.116,0.061,0,0,3,1341.8,3.995,0,1495.4,0,0,0,268.44,0,0,0,0,0,0,0,0,0,0,0,0,0,3,3,0,0,VALID,0,0,0,0,0,1,0,0,0,0,0,0,0,0,0,0,0,0,0,0,368.14,993.14,2,0,0.12,0.12,121,8.33,0.12,0.12,14.18,FLYING,X10-F,0:/Integrated Flight Computer/aircraft/x10_f_cfg.ks (inferred preloaded)
14.54,APPROACH,ILS_TRACK,141.54,146,4.46,1263.11,1183.51,-4.51,12.21,13.93,271.08,-3.171,0.4795,0,15.42,1,0.6,4.5,1.007,0.35,0.0168,0.4,0,24.84,0,-4.465,0,270,0,0,1,-1.84,0,0,0,270.02,-0.113,0,0.9936,0,270,-30.42,-229.2,27.061,-0.001,0,0,3,1341.8,3.994,0,1492.48,0,0,0,268.44,0,0,0,0,0,0,0,0,0,0,0,0,0,3,3,0,0,VALID,0,0,0,0,0,1,0,0,0,0,0,0,0,0,0,0,0,0,0,0,372.57,993.46,2,0,0.12,0.12,124,8.33,0.12,0.12,14.54,FLYING,X10-F,0:/Integrated Flight Computer/aircraft/x10_f_cfg.ks (inferred preloaded)
14.9,APPROACH,ILS_TRACK,141.54,146,4.46,1261.54,1182.15,-4,12.21,13.69,271.06,-1.436,0.5511,0,17.028,1,0.6,4.5,1.007,0.35,0.0168,0.4,0,24.84,0,-4.465,0,270.04,0,0,1,-1.66,0,0,0,270.02,-0.1129,0.0007,0.9936,0,270.04,-28.77,-227.84,27.005,0.038,0,0,3,1341.8,3.742,0,1489.56,0,0,0,268.44,0,0,0,0,0,0,0,0,0,0,0,0,0,3,3,0,0,VALID,0,0,0,0,0,1,0,0,0,0,0,0,0,0,0,0,0,0,0,0,381.44,993.56,2,0,0.12,0.12,127,8.33,0.12,0.12,14.9,FLYING,X10-F,0:/Integrated Flight Computer/aircraft/x10_f_cfg.ks (inferred preloaded)
15.26,APPROACH,ILS_TRACK,141.61,146,4.39,1259.91,1180.87,-3.68,11.32,12.62,271.48,-0.058,0.5606,0,18.627,1,0.6,4.5,1.007,0.35,0.0168,0.4,0,24.822,0,-4.401,0,270,0,0,1,-1.49,0,0,0,270.03,-0.1128,0.0001,0.9936,0,270,-27.21,-226.55,26.949,0.003,0,0,3,1341.8,3.581,0,1486.64,0,0,0,268.44,0,0,0,0,0,0,0,0,0,0,0,0,0,3,3,0,0,VALID,0,0,0,0,0,1,0,0,0,0,0,0,0,0,0,0,0,0,0,0,394.07,993.94,2,0,0.12,0.12,130,8.33,0.12,0.12,15.26,FLYING,X10-F,0:/Integrated Flight Computer/aircraft/x10_f_cfg.ks (inferred preloaded)
15.62,APPROACH,ILS_TRACK,141.89,146,4.11,1258.31,1179.48,-3.85,10.43,11.8,271.56,-0.484,0.4609,0,20,1,0.6,4.5,1.007,0.35,0.0168,0.4,0,24.745,0,-4.128,0,269.9,0,0,1,-1.54,0,0,0,269.94,-0.1127,-0.0018,0.9936,0,269.9,-25.61,-225.23,26.893,-0.104,0,0,3,1341.8,3.722,0,1483.72,0,0,0,268.44,0,0,0,0,0,0,0,0,0,0,0,0,0,3,3,0,0,VALID,0,0,0,0,0,1,0,0,0,0,0,0,0,0,0,0,0,0,0,0,404.11,995.16,2,0,0.12,0.12,133,8.33,0.12,0.12,15.62,FLYING,X10-F,0:/Integrated Flight Computer/aircraft/x10_f_cfg.ks (inferred preloaded)
15.98,APPROACH,ILS_TRACK,142.27,146,3.73,1256.75,1178.02,-4.21,9.95,11.48,271.59,-0.371,0.3338,0,20,1,0.6,4.5,1.007,0.35,0.0168,0.4,0,24.639,0,-3.75,0,269.85,0,0,1,-1.67,0,0,0,269.87,-0.1126,-0.0027,0.9936,0,269.85,-24.01,-223.86,26.837,-0.152,0,0,3,1341.8,3.82,0,1480.78,0,0,0,268.44,0,0,0,0,0,0,0,0,0,0,0,0,0,3,3,0,0,VALID,0,0,0,0,0,1,0,0,0,0,0,0,0,0,0,0,0,0,0,0,405.43,996.8,2,0,0.12,0.12,136,8.33,0.12,0.12,15.98,FLYING,X10-F,0:/Integrated Flight Computer/aircraft/x10_f_cfg.ks (inferred preloaded)
16.34,APPROACH,ILS_TRACK,142.66,146,3.34,1255.25,1176.33,-4.67,10.23,11.97,271.42,-1.352,0.2507,0,20,1,0.6,4.5,1.007,0.35,0.0168,0.4,0,24.528,0,-3.358,0,269.77,0,0,1,-1.86,0,0,0,269.79,-0.1125,-0.004,0.9936,0,269.77,-22.38,-222.43,26.781,-0.231,0,0,3,1341.8,4.063,0,1477.84,0,0,0,268.44,0,0,0,0,0,0,0,0,0,0,0,0,0,3,3,0,0,VALID,0,0,0,0,0,1,0,0,0,0,0,0,0,0,0,0,0,0,0,0,394.14,998.5,2,0,0.12,0.12,139,8.33,0.12,0.12,16.34,FLYING,X10-F,0:/Integrated Flight Computer/aircraft/x10_f_cfg.ks (inferred preloaded)
16.7,APPROACH,ILS_TRACK,142.93,146,3.07,1253.85,1174.54,-4.99,11.36,13.28,271.19,-2.049,0.2575,0,20,1,0.6,4.5,1.007,0.35,0.0168,0.4,0,24.449,0,-3.076,0,269.73,0,0,1,-1.99,0,0,0,269.73,-0.1124,-0.0048,0.9937,0,269.73,-20.77,-220.9,26.725,-0.272,0,0,3,1341.8,4.366,0,1474.9,0,0,0,268.44,0,0,0,0,0,0,0,0,0,0,0,0,0,3,3,0,0,VALID,0,0,0,0,0,1,0,0,0,0,0,0,0,0,0,0,0,0,0,0,377.01,999.74,2,0,0.12,0.12,142,8.33,0.12,0.12,16.7,FLYING,X10-F,0:/Integrated Flight Computer/aircraft/x10_f_cfg.ks (inferred preloaded)
17.06,APPROACH,ILS_TRACK,142.98,146,3.02,1252.56,1172.67,-5.02,13.15,15.12,270.89,-2.835,0.3725,0,20,1,0.6,4.5,1.007,0.35,0.0168,0.4,0,24.432,0,-3.018,0,269.69,0,0,1,-2.02,0,0,0,269.69,-0.1123,-0.0053,0.9937,0,269.69,-19.2,-219.25,26.669,-0.306,0,0,3,1341.8,4.68,0,1471.95,0,0,0,268.44,0,0,0,0,0,0,0,0,0,0,0,0,0,3,3,0,0,VALID,0,0,0,0,0,1,0,0,0,0,0,0,0,0,0,0,0,0,0,0,366.25,1000.06,2,0,0.12,0.12,145,8.33,0.12,0.12,17.06,FLYING,X10-F,0:/Integrated Flight Computer/aircraft/x10_f_cfg.ks (inferred preloaded)
17.42,APPROACH,ILS_TRACK,142.73,146,3.27,1251.3,1171,-4.01,14.7,16.26,270.53,-3.423,0.5165,0,20,1,0.6,4.5,1.007,0.35,0.0168,0.4,0,24.498,0,-3.251,0,269.68,0,0,1,-1.67,0,0,0,269.67,-0.1122,-0.0056,0.9937,0,269.68,-17.68,-217.56,26.613,-0.323,0,0,3,1341.8,4.631,0,1469,0,0,0,268.44,0,0,0,0,0,0,0,0,0,0,0,0,0,3,3,0,0,VALID,0,0,0,0,0,1,0,0,0,0,0,0,0,0,0,0,0,0,0,0,369.11,999.16,2,0,0.12,0.12,148,8.33,0.12,0.12,17.42,FLYING,X10-F,0:/Integrated Flight Computer/aircraft/x10_f_cfg.ks (inferred preloaded)
17.78,APPROACH,ILS_TRACK,142.38,146,3.62,1250.07,1169.9,-3.14,14.89,16.06,270.55,-1.95,0.6605,0,20,1,0.6,4.5,1.007,0.35,0.0168,0.4,0,24.599,0,-3.608,0,269.74,0,0,1,-1.29,0,0,0,269.72,-0.1121,-0.0046,0.9937,0,269.74,-16.31,-215.86,26.557,-0.263,0,0,3,1341.8,4.824,0,1466.07,0,0,0,268.44,0,0,0,0,0,0,0,0,0,0,0,0,0,3,3,0,0,VALID,0,0,0,0,0,1,0,0,0,0,0,0,0,0,0,0,0,0,0,0,381.66,997.82,2,0,0.12,0.12,151,8.33,0.12,0.12,17.78,FLYING,X10-F,0:/Integrated Flight Computer/aircraft/x10_f_cfg.ks (inferred preloaded)
18.14,APPROACH,ILS_TRACK,142.13,146,3.87,1248.93,1168.79,-2.64,14.53,15.46,271.15,2.167,0.8045,0,20,1,0.6,4.5,1.007,0.35,0.0168,0.4,0,24.671,0,-3.864,0,269.75,0,0,1,-1.08,0,0,0,269.76,-0.112,-0.0043,0.9937,0,269.75,-15.06,-214.08,26.501,-0.248,0,0,3,1341.8,4.994,0,1463.13,0,0,0,268.44,0,0,0,0,0,0,0,0,0,0,0,0,0,3,3,0,0,VALID,0,0,0,0,0,1,0,0,0,0,0,0,0,0,0,0,0,0,0,0,403.41,996.86,2,0,0.12,0.12,154,8.33,0.12,0.12,18.14,FLYING,X10-F,0:/Integrated Flight Computer/aircraft/x10_f_cfg.ks (inferred preloaded)
18.5,APPROACH,ILS_TRACK,142.03,146,3.97,1247.84,1167.89,-2.39,13.87,14.72,271.87,2.585,0.7658,0,20,1,0.6,4.5,1.007,0.35,0.0168,0.4,0,24.699,0,-3.966,0,269.65,0,0,1,-0.97,0,0,0,269.7,-0.1119,-0.006,0.9937,0,269.65,-13.81,-212.25,26.445,-0.346,0,0,3,1341.8,5.168,0,1460.2,0,0,0,268.44,0,0,0,0,0,0,0,0,0,0,0,0,0,3,3,0,0,VALID,0,0,0,0,0,1,0,0,0,0,0,0,0,0,0,0,0,0,0,0,430.77,996.54,2,0,0.12,0.12,157,8.33,0.12,0.12,18.5,FLYING,X10-F,0:/Integrated Flight Computer/aircraft/x10_f_cfg.ks (inferred preloaded)
18.86,APPROACH,ILS_TRACK,142.1,146,3.9,1246.79,1167.11,-2.19,13.07,13.84,271.96,1.79,0.6556,0,20,1,0.6,4.5,1.007,0.35,0.0168,0.4,0,24.683,0,-3.907,0,269.49,0,0,1,-0.89,0,0,0,269.55,-0.1118,-0.0088,0.9937,0,269.49,-12.42,-210.37,26.389,-0.507,0,0,3,1341.8,5.213,0,1457.27,0,0,0,268.44,0,0,0,0,0,0,0,0,0,0,0,0,0,3,3,0,0,VALID,0,0,0,0,0,1,0,0,0,0,0,0,0,0,0,0,0,0,0,0,452.05,996.86,2,0,0.12,0.12,160,8.33,0.12,0.12,18.86,FLYING,X10-F,0:/Integrated Flight Computer/aircraft/x10_f_cfg.ks (inferred preloaded)
19.22,APPROACH,ILS_TRACK,142.35,146,3.65,1245.71,1166.41,-2.21,12.07,12.82,271.9,1.067,0.5116,0,20,1,0.6,4.5,1.007,0.35,0.0168,0.4,0,24.616,0,-3.669,0,269.42,0,0,1,-0.88,0,0,0,269.45,-0.1117,-0.0102,0.9937,0,269.42,-10.96,-208.5,26.333,-0.583,0,0,3,1341.8,5.146,0,1454.34,0,0,0,268.44,0,0,0,0,0,0,0,0,0,0,0,0,0,3,3,0,0,VALID,0,0,0,0,0,1,0,0,0,0,0,0,0,0,0,0,0,0,0,0,463.68,997.9,2,0,0.12,0.12,163,8.33,0.12,0.12,19.22,FLYING,X10-F,0:/Integrated Flight Computer/aircraft/x10_f_cfg.ks (inferred preloaded)
19.58,APPROACH,ILS_TRACK,142.71,146,3.29,1244.58,1165.28,-2.42,11,11.8,271.39,-3.616,0.3676,0,20,1,0.6,4.5,1.007,0.35,0.0168,0.4,0,24.515,0,-3.31,0,269.28,0,0,1,-0.96,0,0,0,269.32,-0.1117,-0.0125,0.9937,0,269.28,-9.41,-206.69,26.277,-0.719,0,0,3,1341.8,4.961,0,1451.4,0,0,0,268.44,0,0,0,0,0,0,0,0,0,0,0,0,0,3,3,0,0,VALID,0,0,0,0,0,1,0,0,0,0,0,0,0,0,0,0,0,0,0,0,464.02,999.43,2,0,0.12,0.12,166,8.33,0.12,0.12,19.58,FLYING,X10-F,0:/Integrated Flight Computer/aircraft/x10_f_cfg.ks (inferred preloaded)
19.94,APPROACH,ILS_TRACK,143.18,146,2.82,1243.32,1164.31,-2.84,9.92,10.92,270.75,-4.396,0.2236,0,20,1,0.6,4.5,1.007,0.35,0.0168,0.4,0,24.384,0,-2.848,0,269.28,0,0,1,-1.12,0,0,0,269.28,-0.1116,-0.0125,0.9937,0,269.28,-7.89,-204.98,26.221,-0.715,0,0,3,1341.8,4.637,0,1448.45,0,0,0,268.44,0,0,0,0,0,0,0,0,0,0,0,0,0,3,3,0,0,VALID,0,0,0,0,0,1,0,0,0,0,0,0,0,0,0,0,0,0,0,0,448.49,1001.38,2,0,0.12,0.12,169,8.33,0.12,0.12,19.94,FLYING,X10-F,0:/Integrated Flight Computer/aircraft/x10_f_cfg.ks (inferred preloaded)
20.3,APPROACH,ILS_TRACK,143.63,146,2.37,1241.91,1163.41,-3.45,8.94,10.12,270.78,0.784,0.118,0,20,1,0.6,4.5,1.007,0.35,0.0168,0.4,0,24.256,0,-2.393,0,269.36,0,0,1,-1.35,0,0,0,269.34,-0.1115,-0.0112,0.9937,0,269.36,-6.53,-203.42,26.164,-0.643,0,0,3,1341.8,4.186,0,1445.49,0,0,0,268.44,0,0,0,0,0,0,0,0,0,0,0,0,0,3,3,0,0,VALID,0,0,0,0,0,1,0,0,0,0,0,0,0,0,0,0,0,0,0,0,418.11,1003.3,2,0,0.12,0.12,172,8.33,0.12,0.12,20.3,FLYING,X10-F,0:/Integrated Flight Computer/aircraft/x10_f_cfg.ks (inferred preloaded)
20.66,APPROACH,ILS_TRACK,144.07,146,1.93,1240.29,1161.77,-4.21,8.1,9.57,271.53,4.143,0.0689,0,20,1,0.6,4.5,1.007,0.35,0.0168,0.4,0,24.133,0,-1.957,0,269.34,0,0,1,-1.64,0,0,0,269.37,-0.1114,-0.0115,0.9937,0,269.34,-5.29,-202.04,26.108,-0.66,0,0,3,1341.8,3.621,0,1442.53,0,0,0,268.44,0,0,0,0,0,0,0,0,0,0,0,0,0,3,3,0,0,VALID,0,0,0,0,0,1,0,0,0,0,0,0,0,0,0,0,0,0,0,0,381.37,1005.17,2,0,0.12,0.12,175,8.33,0.12,0.12,20.66,FLYING,X10-F,0:/Integrated Flight Computer/aircraft/x10_f_cfg.ks (inferred preloaded)
21.02,APPROACH,ILS_TRACK,144.44,146,1.56,1238.46,1160.16,-5.07,7.54,9.35,271.99,3.372,0.0613,0,20,1,0.6,4.5,0.891,0.35,0.0168,0.4,0,24.026,0,-1.577,0,269.18,0,0,1,-1.98,0,0,0,269.24,-0.1113,-0.0143,0.9937,0,269.18,-3.94,-200.88,26.051,-0.818,0,0,3,1341.8,3.018,0,1439.55,0,0,0,268.44,0,0,0,0,0,0,0,0,0,0,0,0,0,3,3,0,0,VALID,0,0,0,0,0,1,0,0,0,0,0,0,0,0,0,0,0,0,0,0,344.22,1006.81,2,0,0.12,0.12,178,8.33,0.12,0.12,21.02,FLYING,X10-F,0:/Integrated Flight Computer/aircraft/x10_f_cfg.ks (inferred preloaded)
21.28,APPROACH,ILS_TRACK,144.65,146,1.35,1236.97,1158.66,-5.66,7.24,9.26,272.05,4.117,0.0849,0,20,1,0.6,4.5,0.821,0.35,0.0168,0.4,0,23.967,0,-1.367,0,269.1,0,0,1,-2.21,0,0,0,269.13,-0.1112,-0.0158,0.9937,0,269.1,-2.89,-200.2,26.01,-0.904,0,0,3,1341.8,2.485,0,1437.4,0,0,0,268.44,0,0,0,0,0,0,0,0,0,0,0,0,0,3,3,0,0,VALID,0,0,0,0,0,1,0,0,0,0,0,0,0,0,0,0,0,0,0,0,320.17,1007.75,2,0,0.12,0.12,180,7.69,0.14,0.12,21.28,FLYING,X10-F,0:/Integrated Flight Computer/aircraft/x10_f_cfg.ks (inferred preloaded)
21.64,APPROACH,ILS_TRACK,144.85,146,1.15,1234.66,1156.08,-6.52,6.84,9.21,272.48,8.43,0.1409,0,20,1,0.6,4.5,0.821,0.35,0.0168,0.4,0,23.908,0,-1.156,0,269.02,0,0,1,-2.54,0,0,0,269.06,-0.1111,-0.017,0.9937,0,269.02,-1.41,-199.5,25.953,-0.975,0,0,3,1341.8,1.689,0,1434.42,0,0,0,268.44,0,0,0,0,0,0,0,0,0,0,0,0,0,3,3,0,0,VALID,0,0,0,0,0,1,0,0,0,0,0,0,0,0,0,0,0,0,0,0,294.53,1008.74,2,0,0.12,0.12,183,8.33,0.12,0.12,21.64,FLYING,X10-F,0:/Integrated Flight Computer/aircraft/x10_f_cfg.ks (inferred preloaded)
22,APPROACH,ILS_TRACK,145.01,146,0.99,1232.06,1153.46,-7.43,6.56,9.33,273.13,9.951,0.189,0,20,1,0.6,4.5,0.821,0.35,0.0168,0.4,0,23.862,0,-0.995,0,268.86,0,0,1,-2.89,0,0,0,268.93,-0.111,-0.0199,0.9936,0,268.86,0.16,-199.08,25.896,-1.139,0,0,3,1341.8,0.907,0,1431.44,0,0,0,268.44,0,0,0,0,0,0,0,0,0,0,0,0,0,3,3,0,0,VALID,0,0,0,0,0,1,0,0,0,0,0,0,0,0,0,0,0,0,0,0,278.35,1009.55,2,0,0.12,0.12,186,8.33,0.12,0.12,22,FLYING,X10-F,0:/Integrated Flight Computer/aircraft/x10_f_cfg.ks (inferred preloaded)
22.36,APPROACH,ILS_TRACK,145.13,146,0.87,1229.18,1150.54,-8.21,6.39,9.49,273.57,10.958,0.2291,0,20,1,0.6,4.5,0.821,0.35,0.0168,0.4,0,23.828,0,-0.874,0,268.66,0,0,1,-3.21,0,0,0,268.73,-0.1109,-0.0234,0.9936,0,268.66,1.92,-198.94,25.839,-1.343,0,0,3,1341.8,0.098,0,1428.46,0,0,0,268.44,0,0,0,0,0,0,0,0,0,0,0,0,0,3,3,0,0,VALID,0,0,0,0,0,1,0,0,0,0,0,0,0,0,0,0,0,0,0,0,269.63,1010.23,2,0,0.12,0.12,189,8.33,0.12,0.12,22.36,FLYING,X10-F,0:/Integrated Flight Computer/aircraft/x10_f_cfg.ks (inferred preloaded)
22.72,APPROACH,ILS_TRACK,145.28,146,0.72,1226.11,1147.63,-8.77,6.32,9.63,273.86,9.628,0.2309,0,20,1,0.6,4.5,0.821,0.35,0.0168,0.4,0,23.787,0,-0.727,0,268.4,0,0,1,-3.43,0,0,0,268.5,-0.1108,-0.0279,0.9935,0,268.4,3.9,-199.02,25.782,-1.598,0,0,3,1341.8,-0.288,0,1425.47,0,0,0,268.44,0,0,0,0,0,0,0,0,0,0,0,0,0,3,3,0,0,VALID,0,0,0,0,0,1,0,0,0,0,0,0,0,0,0,0,0,0,0,0,265.48,1011.04,2,0,0.12,0.12,192,8.33,0.12,0.12,22.72,FLYING,X10-F,0:/Integrated Flight Computer/aircraft/x10_f_cfg.ks (inferred preloaded)
23.08,APPROACH,ILS_TRACK,145.39,146,0.61,1222.96,1144.83,-9.09,6.59,9.93,273.65,4.685,0.247,0,20,1,0.6,4.5,0.821,0.35,0.0168,0.4,0,23.755,0,-0.616,0,268.15,0,0,1,-3.57,0,0,0,268.23,-0.1107,-0.0323,0.9933,0,268.15,6.14,-199.17,25.725,-1.852,0,0,3,1341.8,-0.594,0,1422.49,0,0,0,268.44,0,0,0,0,0,0,0,0,0,0,0,0,0,3,3,0,0,VALID,0,0,0,0,0,1,0,0,0,0,0,0,0,0,0,0,0,0,0,0,262.4,1011.71,2,0,0.12,0.12,195,8.33,0.12,0.12,23.08,FLYING,X10-F,0:/Integrated Flight Computer/aircraft/x10_f_cfg.ks (inferred preloaded)
23.44,APPROACH,ILS_TRACK,145.51,146,0.49,1219.64,1141.66,-9.41,6.65,10.06,273.15,2.457,0.2442,0,20,1,0.6,4.5,0.821,0.35,0.0168,0.4,0,23.721,0,-0.493,0,267.99,0,0,1,-3.69,0,0,0,268.03,-0.1106,-0.0351,0.9932,0,267.99,8.52,-199.49,25.668,-2.011,0,0,3,1341.8,-0.983,0,1419.5,0,0,0,268.44,0,0,0,0,0,0,0,0,0,0,0,0,0,3,3,0,0,VALID,0,0,0,0,0,1,0,0,0,0,0,0,0,0,0,0,0,0,0,0,261.12,1012.44,2,0,0.12,0.12,198,8.33,0.12,0.12,23.44,FLYING,X10-F,0:/Integrated Flight Computer/aircraft/x10_f_cfg.ks (inferred preloaded)
23.7,APPROACH,ILS_TRACK,145.6,146,0.4,1217.18,1139.17,-9.6,6.7,10.17,272.95,2.708,0.2437,0,20,1,0.6,4.5,0.821,0.35,0.0168,0.4,0,23.697,0,-0.41,0,267.92,0,0,1,-3.76,0,0,0,267.95,-0.1105,-0.0363,0.9932,0,267.92,10.26,-199.78,25.627,-2.08,0,0,3,1341.8,-1.185,0,1417.35,0,0,0,268.44,0,0,0,0,0,0,0,0,0,0,0,0,0,3,3,0,0,VALID,0,0,0,0,0,1,0,0,0,0,0,0,0,0,0,0,0,0,0,0,260.02,1012.95,2,0,0.12,0.12,200,7.69,0.14,0.12,23.7,FLYING,X10-F,0:/Integrated Flight Computer/aircraft/x10_f_cfg.ks (inferred preloaded)
24.06,APPROACH,ILS_TRACK,145.68,146,0.32,1213.77,1135.86,-10,7.02,10.65,272.81,0.695,0.2552,0,20,1,0.6,4.5,0.821,0.35,0.0168,0.4,0,23.672,0,-0.32,0,267.78,0,0,1,-3.91,0,0,0,267.84,-0.1104,-0.0388,0.9931,0,267.78,12.7,-200.21,25.57,-2.223,0,0,3,1341.8,-1.173,0,1414.36,0,0,0,268.44,0,0,0,0,0,0,0,0,0,0,0,0,0,3,3,0,0,VALID,0,0,0,0,0,1,0,0,0,0,0,0,0,0,0,0,0,0,0,0,258.83,1013.55,2,0,0.12,0.12,203,8.33,0.12,0.12,24.06,FLYING,X10-F,0:/Integrated Flight Computer/aircraft/x10_f_cfg.ks (inferred preloaded)
24.42,APPROACH,ILS_TRACK,145.71,146,0.29,1210.4,1131.97,-10.37,8.01,11.81,272.34,-2.49,0.2926,0,20,1,0.6,4.5,0.821,0.35,0.0168,0.4,0,23.664,0,-0.293,0,267.64,0,0,1,-4.06,0,0,0,267.69,-0.1103,-0.0411,0.993,0,267.64,15.2,-200.6,25.513,-2.356,0,0,3,1341.8,-1.006,0,1411.37,0,0,0,268.44,0,0,0,0,0,0,0,0,0,0,0,0,0,3,3,0,0,VALID,0,0,0,0,0,1,0,0,0,0,0,0,0,0,0,0,0,0,0,0,259.43,1013.89,2,0,0.12,0.12,206,8.33,0.12,0.12,24.42,FLYING,X10-F,0:/Integrated Flight Computer/aircraft/x10_f_cfg.ks (inferred preloaded)
24.78,APPROACH,ILS_TRACK,145.61,146,0.39,1207.09,1128.13,-10.39,9.51,13.36,271.72,-3.862,0.3762,0,20,1,0.6,4.5,0.821,0.35,0.0168,0.4,0,23.69,0,-0.383,0,267.59,0,0,1,-4.09,0,0,0,267.61,-0.1102,-0.042,0.993,0,267.59,17.67,-200.93,25.456,-2.409,0,0,3,1341.8,-0.905,0,1408.38,0,0,0,268.44,0,0,0,0,0,0,0,0,0,0,0,0,0,3,3,0,0,VALID,0,0,0,0,0,1,0,0,0,0,0,0,0,0,0,0,0,0,0,0,263.44,1013.76,2,0,0.12,0.12,209,8.33,0.12,0.12,24.78,FLYING,X10-F,0:/Integrated Flight Computer/aircraft/x10_f_cfg.ks (inferred preloaded)
25.14,APPROACH,ILS_TRACK,145.36,146,0.64,1203.72,1124.55,-9.72,10.54,14.11,271.36,-3.634,0.5049,0,20,1,0.6,4.5,0.821,0.35,0.0168,0.4,0,23.758,0,-0.625,0,267.6,0,0,1,-3.85,0,0,0,267.6,-0.1101,-0.0419,0.993,0,267.6,20.02,-201.3,25.399,-2.402,0,0,3,1341.8,-1.098,0,1405.4,0,0,0,268.44,0,0,0,0,0,0,0,0,0,0,0,0,0,3,3,0,0,VALID,0,0,0,0,0,1,0,0,0,0,0,0,0,0,0,0,0,0,0,0,273.89,1012.97,2,0,0.12,0.12,212,8.33,0.12,0.12,25.14,FLYING,X10-F,0:/Integrated Flight Computer/aircraft/x10_f_cfg.ks (inferred preloaded)
25.5,APPROACH,ILS_TRACK,145.05,146,0.95,1200.37,1121.46,-9.12,10.69,14,271.52,-0.764,0.6103,0,20,1,0.6,4.5,0.821,0.35,0.0168,0.4,0,23.845,0,-0.932,0,267.62,0,0,1,-3.62,0,0,0,267.63,-0.11,-0.0415,0.9931,0,267.62,22.21,-201.68,25.342,-2.38,0,0,3,1341.8,-0.991,0,1402.42,0,0,0,268.44,0,0,0,0,0,0,0,0,0,0,0,0,0,3,3,0,0,VALID,0,0,0,0,0,1,0,0,0,0,0,0,0,0,0,0,0,0,0,0,292.61,1011.94,2,0,0.12,0.12,215,8.33,0.12,0.12,25.5,FLYING,X10-F,0:/Integrated Flight Computer/aircraft/x10_f_cfg.ks (inferred preloaded)
25.86,APPROACH,ILS_TRACK,144.86,146,1.14,1197.08,1118.13,-8.83,10.47,13.65,272.14,1.597,0.6123,0,20,1,0.6,4.5,0.821,0.35,0.0168,0.4,0,23.9,0,-1.129,0,267.57,0,0,1,-3.49,0,0,0,267.61,-0.1099,-0.0424,0.993,0,267.57,24.3,-202,25.286,-2.432,0,0,3,1341.8,-0.866,0,1399.45,0,0,0,268.44,0,0,0,0,0,0,0,0,0,0,0,0,0,3,3,0,0,VALID,0,0,0,0,0,1,0,0,0,0,0,0,0,0,0,0,0,0,0,0,315.4,1011.37,2,0,0.12,0.12,218,8.33,0.12,0.12,25.86,FLYING,X10-F,0:/Integrated Flight Computer/aircraft/x10_f_cfg.ks (inferred preloaded)
26.12,APPROACH,ILS_TRACK,144.79,146,1.21,1194.72,1115.94,-8.73,10.19,13.33,272.4,0.574,0.5853,0,20,1,0.6,4.5,0.821,0.35,0.0168,0.4,0,23.923,0,-1.21,0,267.46,0,0,1,-3.45,0,0,0,267.52,-0.1099,-0.0444,0.993,0,267.46,25.85,-202.22,25.245,-2.544,0,0,3,1341.8,-0.847,0,1397.31,0,0,0,268.44,0,0,0,0,0,0,0,0,0,0,0,0,0,3,3,0,0,VALID,0,0,0,0,0,1,0,0,0,0,0,0,0,0,0,0,0,0,0,0,330.57,1011.19,2,0,0.12,0.12,220,7.69,0.14,0.12,26.12,FLYING,X10-F,0:/Integrated Flight Computer/aircraft/x10_f_cfg.ks (inferred preloaded)
26.48,APPROACH,ILS_TRACK,144.77,146,1.23,1191.44,1112.6,-8.69,9.69,12.81,272.4,2.283,0.513,0,20,1,0.6,4.5,0.821,0.35,0.0168,0.4,0,23.929,0,-1.23,0,267.34,0,0,1,-3.43,0,0,0,267.37,-0.1098,-0.0464,0.9929,0,267.34,28.07,-202.53,25.188,-2.659,0,0,3,1341.8,-0.855,0,1394.34,0,0,0,268.44,0,0,0,0,0,0,0,0,0,0,0,0,0,3,3,0,0,VALID,0,0,0,0,0,1,0,0,0,0,0,0,0,0,0,0,0,0,0,0,347.53,1011.34,2,0,0.12,0.12,223,8.33,0.12,0.12,26.48,FLYING,X10-F,0:/Integrated Flight Computer/aircraft/x10_f_cfg.ks (inferred preloaded)
26.84,APPROACH,ILS_TRACK,144.86,146,1.14,1188.14,1108.99,-8.74,9.12,12.23,272.89,7.798,0.4224,0,20,1,0.6,4.5,0.821,0.35,0.0168,0.4,0,23.906,0,-1.15,0,267.27,0,0,1,-3.45,0,0,0,267.3,-0.1097,-0.0476,0.9928,0,267.27,30.26,-202.86,25.131,-2.731,0,0,3,1341.8,-0.945,0,1391.37,0,0,0,268.44,0,0,0,0,0,0,0,0,0,0,0,0,0,3,3,0,0,VALID,0,0,0,0,0,1,0,0,0,0,0,0,0,0,0,0,0,0,0,0,357.9,1011.89,2,0,0.12,0.12,226,8.33,0.12,0.12,26.84,FLYING,X10-F,0:/Integrated Flight Computer/aircraft/x10_f_cfg.ks (inferred preloaded)
27.2,APPROACH,ILS_TRACK,145.05,146,0.95,1184.78,1105.79,-8.96,8.51,11.8,273.81,8.525,0.318,0,20,1,0.6,4.5,0.821,0.35,0.0168,0.4,0,23.854,0,-0.967,0,267.08,0,0,1,-3.52,0,0,0,267.17,-0.1096,-0.0509,0.9927,0,267.08,32.52,-203.24,25.075,-2.915,0,0,3,1341.8,-1.116,0,1388.4,0,0,0,268.44,0,0,0,0,0,0,0,0,0,0,0,0,0,3,3,0,0,VALID,0,0,0,0,0,1,0,0,0,0,0,0,0,0,0,0,0,0,0,0,360.92,1012.87,2,0,0.12,0.12,229,8.33,0.12,0.12,27.2,FLYING,X10-F,0:/Integrated Flight Computer/aircraft/x10_f_cfg.ks (inferred preloaded)
27.56,APPROACH,ILS_TRACK,145.28,146,0.72,1181.36,1102.61,-9.29,8.01,11.46,274.3,7.101,0.2308,0,20,1,0.6,4.5,0.821,0.35,0.0168,0.4,0,23.788,0,-0.73,0,266.8,0,0,1,-3.64,0,0,0,266.9,-0.1094,-0.0559,0.9924,0,266.8,35.03,-203.68,25.018,-3.204,0,0,3,1341.8,-1.279,0,1385.42,0,0,0,268.44,0,0,0,0,0,0,0,0,0,0,0,0,0,3,3,0,0,VALID,0,0,0,0,0,1,0,0,0,0,0,0,0,0,0,0,0,0,0,0,353.39,1014.06,2,0,0.12,0.12,232,8.33,0.12,0.12,27.56,FLYING,X10-F,0:/Integrated Flight Computer/aircraft/x10_f_cfg.ks (inferred preloaded)
27.92,APPROACH,ILS_TRACK,145.52,146,0.48,1177.87,1099.41,-9.65,7.72,11.24,274.1,4.906,0.1803,0,20,1,0.6,4.5,0.821,0.35,0.0168,0.4,0,23.722,0,-0.498,0,266.54,0,0,1,-3.78,0,0,0,266.62,-0.1093,-0.0604,0.9922,0,266.54,37.77,-204.18,24.961,-3.465,0,0,3,1341.8,-1.477,0,1382.44,0,0,0,268.44,0,0,0,0,0,0,0,0,0,0,0,0,0,3,3,0,0,VALID,0,0,0,0,0,1,0,0,0,0,0,0,0,0,0,0,0,0,0,0,337.76,1015.25,2,0,0.12,0.12,235,8.33,0.12,0.12,27.92,FLYING,X10-F,0:/Integrated Flight Computer/aircraft/x10_f_cfg.ks (inferred preloaded)
28.28,APPROACH,ILS_TRACK,145.74,146,0.26,1174.28,1095.95,-10,7.55,11.17,273.75,3.587,0.1533,0,20,1,0.6,4.5,0.821,0.35,0.0168,0.4,0,23.659,0,-0.275,0,266.36,0,0,1,-3.91,0,0,0,266.42,-0.1092,-0.0634,0.992,0,266.36,40.64,-204.78,24.904,-3.636,0,0,3,1341.8,-1.728,0,1379.46,0,0,0,268.44,0,0,0,0,0,0,0,0,0,0,0,0,0,3,3,0,0,VALID,0,0,0,0,0,1,0,0,0,0,0,0,0,0,0,0,0,0,0,0,318.49,1016.4,2,0,0.12,0.12,238,8.33,0.12,0.12,28.28,FLYING,X10-F,0:/Integrated Flight Computer/aircraft/x10_f_cfg.ks (inferred preloaded)
28.54,APPROACH,ILS_TRACK,145.86,146,0.14,1171.64,1093.31,-10.25,7.5,11.21,273.66,3.688,0.156,0,20,1,0.6,4.5,0.821,0.35,0.0168,0.4,0,23.623,0,-0.148,0,266.26,0,0,1,-4.01,0,0,0,266.31,-0.1091,-0.0652,0.9919,0,266.26,42.75,-205.26,24.863,-3.74,0,0,3,1341.8,-1.92,0,1377.31,0,0,0,268.44,0,0,0,0,0,0,0,0,0,0,0,0,0,3,3,0,0,VALID,0,0,0,0,0,1,0,0,0,0,0,0,0,0,0,0,0,0,0,0,304.48,1017.09,2,0,0.12,0.12,240,7.69,0.14,0.12,28.54,FLYING,X10-F,0:/Integrated Flight Computer/aircraft/x10_f_cfg.ks (inferred preloaded)
28.9,APPROACH,ILS_TRACK,145.98,146,0.02,1167.89,1089.52,-10.6,7.51,11.36,273.79,4.096,0.1843,0,20,1,0.6,4.5,0.821,0.35,0.0168,0.4,0,23.589,0,-0.026,0,266.12,0,0,1,-4.14,0,0,0,266.17,-0.109,-0.0677,0.9917,0,266.12,45.69,-206.01,24.806,-3.883,0,0,3,1341.8,-2.173,0,1374.32,0,0,0,268.44,0,0,0,0,0,0,0,0,0,0,0,0,0,3,3,0,0,VALID,0,0,0,0,0,1,0,0,0,0,0,0,0,0,0,0,0,0,0,0,288.23,1017.83,2,0,0.12,0.12,243,8.33,0.12,0.12,28.9,FLYING,X10-F,0:/Integrated Flight Computer/aircraft/x10_f_cfg.ks (inferred preloaded)
29.26,APPROACH,ILS_TRACK,146.03,146,-0.03,1164.07,1085.73,-10.92,7.71,11.68,273.84,3.215,0.2313,0,19.994,1,0.6,4.5,0.821,0.35,0.0168,0.4,0,23.574,0,0.028,0,265.92,0,0,1,-4.27,0,0,0,265.98,-0.1089,-0.0711,0.9915,0,265.92,48.72,-206.84,24.749,-4.076,0,0,3,1341.8,-2.352,0,1371.34,0,0,0,268.44,0,0,0,0,0,0,0,0,0,0,0,0,0,3,3,0,0,VALID,0,0,0,0,0,1,0,0,0,0,0,0,0,0,0,0,0,0,0,0,277.89,1018.3,2,0,0.12,0.12,246,8.33,0.12,0.12,29.26,FLYING,X10-F,0:/Integrated Flight Computer/aircraft/x10_f_cfg.ks (inferred preloaded)
29.62,APPROACH,ILS_TRACK,146.01,146,-0.01,1160.17,1081.74,-10.86,7.92,11.85,273.75,3.279,0.289,0,19.986,1,0.6,4.5,0.821,0.35,0.0168,0.4,0,23.577,0,0.016,0,265.76,0,0,1,-4.27,0,0,0,265.79,-0.1088,-0.0739,0.9913,0,265.76,51.84,-207.75,24.692,-4.237,0,0,3,1341.8,-2.626,0,1368.36,0,0,0,268.44,0,0,0,0,0,0,0,0,0,0,0,0,0,3,3,0,0,VALID,0,0,0,0,0,1,0,0,0,0,0,0,0,0,0,0,0,0,0,0,274.93,1018.5,2,0,0.12,0.12,249,8.33,0.12,0.12,29.62,FLYING,X10-F,0:/Integrated Flight Computer/aircraft/x10_f_cfg.ks (inferred preloaded)
29.98,APPROACH,ILS_TRACK,146.01,146,-0.01,1156.16,1077.62,-10.73,7.5,11.37,274.07,6.043,0.3154,0,19.985,1,0.6,4.5,0.821,0.35,0.0168,0.4,0,23.58,0,0.005,0,265.61,0,0,1,-4.2,0,0,0,265.67,-0.1087,-0.0765,0.9911,0,265.61,54.98,-208.77,24.635,-4.386,0,0,3,1341.8,-2.886,0,1365.37,0,0,0,268.44,0,0,0,0,0,0,0,0,0,0,0,0,0,3,3,0,0,VALID,0,0,0,0,0,1,0,0,0,0,0,0,0,0,0,0,0,0,0,0,277.2,1018.73,2,0,0.12,0.12,252,8.33,0.12,0.12,29.98,FLYING,X10-F,0:/Integrated Flight Computer/aircraft/x10_f_cfg.ks (inferred preloaded)
30.34,APPROACH,ILS_TRACK,146.08,146,-0.08,1152.14,1073.79,-10.82,6.99,10.92,274.51,6.018,0.2837,0,19.967,1,0.6,4.5,0.821,0.35,0.0168,0.4,0,23.56,0,0.079,0,265.37,0,0,1,-4.22,0,0,0,265.47,-0.1085,-0.0808,0.9908,0,265.37,58.23,-209.8,24.578,-4.632,0,0,3,1341.8,-2.892,0,1362.39,0,0,0,268.44,0,0,0,0,0,0,0,0,0,0,0,0,0,3,3,0,0,VALID,0,0,0,0,0,1,0,0,0,0,0,0,0,0,0,0,0,0,0,0,279.82,1019.3,2,0,0.12,0.12,255,8.33,0.12,0.12,30.34,FLYING,X10-F,0:/Integrated Flight Computer/aircraft/x10_f_cfg.ks (inferred preloaded)
30.7,APPROACH,ILS_TRACK,146.18,146,-0.18,1148.15,1070.2,-11.05,6.78,10.77,274.4,2.224,0.2516,0,19.915,1,0.6,4.5,0.821,0.35,0.0168,0.4,0,23.532,0,0.177,0,265.1,0,0,1,-4.31,0,0,0,265.18,-0.1084,-0.0854,0.9904,0,265.1,61.67,-210.81,24.522,-4.901,0,0,3,1341.8,-2.783,0,1359.41,0,0,0,268.44,0,0,0,0,0,0,0,0,0,0,0,0,0,3,3,0,0,VALID,0,0,0,0,0,1,0,0,0,0,0,0,0,0,0,0,0,0,0,0,279.75,1019.97,2,0,0.12,0.12,258,8.33,0.12,0.12,30.7,FLYING,X10-F,0:/Integrated Flight Computer/aircraft/x10_f_cfg.ks (inferred preloaded)
31.06,APPROACH,ILS_TRACK,146.29,146,-0.29,1144.2,1066.32,-11.33,6.97,11.07,273.74,0.068,0.2237,0,19.826,1,0.6,4.5,0.821,0.35,0.0168,0.4,0,23.501,0,0.287,0,264.91,0,0,1,-4.42,0,0,0,264.94,-0.1083,-0.0888,0.9901,0,264.91,65.25,-211.79,24.465,-5.093,0,0,3,1341.8,-2.673,0,1356.43,0,0,0,268.44,0,0,0,0,0,0,0,0,0,0,0,0,0,3,3,0,0,VALID,0,0,0,0,0,1,0,0,0,0,0,0,0,0,0,0,0,0,0,0,276.3,1020.71,2,0,0.12,0.12,261,8.33,0.12,0.12,31.06,FLYING,X10-F,0:/Integrated Flight Computer/aircraft/x10_f_cfg.ks (inferred preloaded)
31.42,APPROACH,ILS_TRACK,146.36,146,-0.36,1140.27,1062.2,-11.42,7.6,11.75,273.48,-0.201,0.2272,0,19.703,1,0.6,4.5,0.821,0.35,0.0168,0.4,0,23.48,0,0.36,0,264.81,0,0,1,-4.47,0,0,0,264.85,-0.1082,-0.0905,0.99,0,264.81,68.79,-212.74,24.408,-5.191,0,0,3,1341.8,-2.627,0,1353.44,0,0,0,268.44,0,0,0,0,0,0,0,0,0,0,0,0,0,3,3,0,0,VALID,0,0,0,0,0,1,0,0,0,0,0,0,0,0,0,0,0,0,0,0,270.57,1021.28,2,0,0.12,0.12,264,8.33,0.12,0.12,31.42,FLYING,X10-F,0:/Integrated Flight Computer/aircraft/x10_f_cfg.ks (inferred preloaded)
31.78,APPROACH,ILS_TRACK,146.36,146,-0.36,1136.34,1058.08,-11.32,8.17,12.28,273.53,0.428,0.2622,0,19.57,1,0.6,4.5,0.821,0.35,0.0168,0.4,0,23.479,0,0.365,0,264.69,0,0,1,-4.43,0,0,0,264.73,-0.1081,-0.0925,0.9898,0,264.69,72.28,-213.68,24.351,-5.308,0,0,3,1341.8,-2.57,0,1350.46,0,0,0,268.44,0,0,0,0,0,0,0,0,0,0,0,0,0,3,3,0,0,VALID,0,0,0,0,0,1,0,0,0,0,0,0,0,0,0,0,0,0,0,0,267.13,1021.57,2,0,0.12,0.12,267,8.33,0.12,0.12,31.78,FLYING,X10-F,0:/Integrated Flight Computer/aircraft/x10_f_cfg.ks (inferred preloaded)
32.14,APPROACH,ILS_TRACK,146.26,146,-0.26,1132.45,1053.68,-11.25,8.77,12.86,273.93,4.126,0.3332,0,19.458,1,0.6,4.5,0.821,0.35,0.0168,0.4,0,23.505,0,0.273,0,264.58,0,0,1,-4.4,0,0,0,264.62,-0.108,-0.0945,0.9897,0,264.58,75.73,-214.59,24.294,-5.422,0,0,3,1341.8,-2.521,0,1347.47,0,0,0,268.44,0,0,0,0,0,0,0,0,0,0,0,0,0,3,3,0,0,VALID,0,0,0,0,0,1,0,0,0,0,0,0,0,0,0,0,0,0,0,0,268.44,1021.44,2,0,0.12,0.12,270,8.33,0.12,0.12,32.14,FLYING,X10-F,0:/Integrated Flight Computer/aircraft/x10_f_cfg.ks (inferred preloaded)
32.5,APPROACH,ILS_TRACK,146.1,146,-0.1,1128.57,1049.56,-11.19,9.3,13.41,274.65,5.565,0.4077,0,19.397,1,0.6,4.5,0.821,0.35,0.0168,0.4,0,23.55,0,0.113,0,264.38,0,0,1,-4.38,0,0,0,264.47,-0.1078,-0.098,0.9893,0,264.38,79.22,-215.5,24.237,-5.624,0,0,3,1341.8,-2.503,0,1344.49,0,0,0,268.44,0,0,0,0,0,0,0,0,0,0,0,0,0,3,3,0,0,VALID,0,0,0,0,0,1,0,0,0,0,0,0,0,0,0,0,0,0,0,0,274.89,1021.05,2,0,0.12,0.12,273,8.33,0.12,0.12,32.5,FLYING,X10-F,0:/Integrated Flight Computer/aircraft/x10_f_cfg.ks (inferred preloaded)
32.86,APPROACH,ILS_TRACK,145.89,146,0.11,1124.72,1045.57,-11.04,9.87,13.95,275.02,5.269,0.4781,0,19.405,1,0.6,4.5,0.821,0.35,0.0168,0.4,0,23.608,0,-0.094,0,264.11,0,0,1,-4.34,0,0,0,264.2,-0.1077,-0.1026,0.9889,0,264.11,82.86,-216.37,24.18,-5.888,0,0,3,1341.8,-2.41,0,1341.52,0,0,0,268.44,0,0,0,0,0,0,0,0,0,0,0,0,0,3,3,0,0,VALID,0,0,0,0,0,1,0,0,0,0,0,0,0,0,0,0,0,0,0,0,285.98,1020.46,2,0,0.12,0.12,276,8.33,0.12,0.12,32.86,FLYING,X10-F,0:/Integrated Flight Computer/aircraft/x10_f_cfg.ks (inferred preloaded)
33.22,APPROACH,ILS_TRACK,145.67,146,0.33,1120.89,1041.67,-10.81,10.24,14.23,275.24,5.188,0.5323,0,19.493,1,0.6,4.5,0.821,0.35,0.0168,0.4,0,23.672,0,-0.322,0,263.88,0,0,1,-4.25,0,0,0,263.96,-0.1076,-0.1067,0.9885,0,263.88,86.64,-217.23,24.124,-6.124,0,0,3,1341.8,-2.383,0,1338.55,0,0,0,268.44,0,0,0,0,0,0,0,0,0,0,0,0,0,3,3,0,0,VALID,0,0,0,0,0,1,0,0,0,0,0,0,0,0,0,0,0,0,0,0,301.02,1019.79,2,0,0.12,0.12,279,8.33,0.12,0.12,33.22,FLYING,X10-F,0:/Integrated Flight Computer/aircraft/x10_f_cfg.ks (inferred preloaded)
33.58,APPROACH,ILS_TRACK,145.46,146,0.54,1117.09,1037.86,-10.56,10.39,14.28,275.24,4.716,0.5575,0,19.66,1,0.6,4.5,0.821,0.35,0.0168,0.4,0,23.731,0,-0.529,0,263.62,0,0,1,-4.16,0,0,0,263.71,-0.1074,-0.1111,0.988,0,263.62,90.57,-218.08,24.067,-6.377,0,0,3,1341.8,-2.328,0,1335.59,0,0,0,268.44,0,0,0,0,0,0,0,0,0,0,0,0,0,3,3,0,0,VALID,0,0,0,0,0,1,0,0,0,0,0,0,0,0,0,0,0,0,0,0,318.37,1019.21,2,0,0.12,0.12,282,8.33,0.12,0.12,33.58,FLYING,X10-F,0:/Integrated Flight Computer/aircraft/x10_f_cfg.ks (inferred preloaded)
33.94,APPROACH,ILS_TRACK,145.32,146,0.68,1113.31,1034.06,-10.3,10.33,14.12,275.29,5.097,0.5473,0,19.887,1,0.6,4.5,0.821,0.35,0.0168,0.4,0,23.772,0,-0.675,0,263.41,0,0,1,-4.07,0,0,0,263.47,-0.1073,-0.1147,0.9876,0,263.41,94.59,-218.9,24.011,-6.588,0,0,3,1341.8,-2.265,0,1332.63,0,0,0,268.44,0,0,0,0,0,0,0,0,0,0,0,0,0,3,3,0,0,VALID,0,0,0,0,0,1,0,0,0,0,0,0,0,0,0,0,0,0,0,0,335.5,1018.87,2,0,0.12,0.12,285,8.33,0.12,0.12,33.94,FLYING,X10-F,0:/Integrated Flight Computer/aircraft/x10_f_cfg.ks (inferred preloaded)
34.3,APPROACH,ILS_TRACK,145.25,146,0.75,1109.54,1030.48,-10.13,10.03,13.74,275.47,4.437,0.5079,0,20,1,0.6,4.5,0.821,0.35,0.0168,0.4,0,23.794,0,-0.752,0,263.16,0,0,1,-4,0,0,0,263.26,-0.1071,-0.1192,0.9871,0,263.16,98.7,-219.71,23.954,-6.843,0,0,3,1341.8,-2.235,0,1329.67,0,0,0,268.44,0,0,0,0,0,0,0,0,0,0,0,0,0,3,3,0,0,VALID,0,0,0,0,0,1,0,0,0,0,0,0,0,0,0,0,0,0,0,0,350.31,1018.82,2,0,0.12,0.12,288,8.33,0.12,0.12,34.3,FLYING,X10-F,0:/Integrated Flight Computer/aircraft/x10_f_cfg.ks (inferred preloaded)
34.66,APPROACH,ILS_TRACK,145.27,146,0.73,1105.77,1026.97,-10,9.54,13.16,275.23,2.877,0.4378,0,20,1,0.6,4.5,0.821,0.35,0.0168,0.4,0,23.789,0,-0.735,0,262.89,0,0,1,-3.94,0,0,0,262.96,-0.107,-0.1237,0.9865,0,262.89,102.97,-220.52,23.898,-7.108,0,0,3,1341.8,-2.286,0,1326.71,0,0,0,268.44,0,0,0,0,0,0,0,0,0,0,0,0,0,3,3,0,0,VALID,0,0,0,0,0,1,0,0,0,0,0,0,0,0,0,0,0,0,0,0,360.81,1019.15,2,0,0.12,0.12,291,8.33,0.12,0.12,34.66,FLYING,X10-F,0:/Integrated Flight Computer/aircraft/x10_f_cfg.ks (inferred preloaded)
35.02,APPROACH,ILS_TRACK,145.4,146,0.6,1101.95,1023.47,-10.01,8.78,12.38,275,2.001,0.3419,0,20,1,0.6,4.5,0.821,0.35,0.0168,0.4,0,23.753,0,-0.608,0,262.68,0,0,1,-3.94,0,0,0,262.75,-0.1069,-0.1275,0.9861,0,262.68,107.32,-221.38,23.841,-7.323,0,0,3,1341.8,-2.434,0,1323.76,0,0,0,268.44,0,0,0,0,0,0,0,0,0,0,0,0,0,3,3,0,0,VALID,0,0,0,0,0,1,0,0,0,0,0,0,0,0,0,0,0,0,0,0,365.13,1019.93,2,0,0.12,0.12,294,8.33,0.12,0.12,35.02,FLYING,X10-F,0:/Integrated Flight Computer/aircraft/x10_f_cfg.ks (inferred preloaded)
35.38,APPROACH,ILS_TRACK,145.61,146,0.39,1098.06,1019.66,-10.27,7.94,11.6,274.54,-2.818,0.2457,0,20,1,0.6,4.5,0.821,0.35,0.0168,0.4,0,23.695,0,-0.402,0,262.44,0,0,1,-4.02,0,0,0,262.51,-0.1067,-0.1316,0.9855,0,262.44,111.74,-222.3,23.785,-7.561,0,0,3,1341.8,-2.605,0,1320.8,0,0,0,268.44,0,0,0,0,0,0,0,0,0,0,0,0,0,3,3,0,0,VALID,0,0,0,0,0,1,0,0,0,0,0,0,0,0,0,0,0,0,0,0,360.18,1021.04,2,0,0.12,0.12,297,8.33,0.12,0.12,35.38,FLYING,X10-F,0:/Integrated Flight Computer/aircraft/x10_f_cfg.ks (inferred preloaded)
35.74,APPROACH,ILS_TRACK,145.88,146,0.12,1094.08,1015.66,-10.66,7.19,11.02,273.75,-5.884,0.1576,0,20,1,0.6,4.5,0.821,0.35,0.0168,0.4,0,23.62,0,-0.136,0,262.29,0,0,1,-4.16,0,0,0,262.32,-0.1066,-0.1342,0.9852,0,262.29,116.18,-223.3,23.728,-7.714,0,0,3,1341.8,-2.888,0,1317.83,0,0,0,268.44,0,0,0,0,0,0,0,0,0,0,0,0,0,3,3,0,0,VALID,0,0,0,0,0,1,0,0,0,0,0,0,0,0,0,0,0,0,0,0,344.42,1022.4,2,0,0.12,0.12,300,8.33,0.12,0.12,35.74,FLYING,X10-F,0:/Integrated Flight Computer/aircraft/x10_f_cfg.ks (inferred preloaded)
36.1,APPROACH,ILS_TRACK,146.14,146,-0.14,1089.97,1011.85,-11.14,6.52,10.54,273.29,-4.833,0.107,0,19.979,1,0.6,4.5,0.821,0.35,0.0168,0.4,0,23.546,0,0.128,0,262.23,0,0,1,-4.34,0,0,0,262.25,-0.1065,-0.1352,0.9851,0,262.23,120.49,-224.43,23.672,-7.77,0,0,3,1341.8,-3.289,0,1314.86,0,0,0,268.44,0,0,0,0,0,0,0,0,0,0,0,0,0,3,3,0,0,VALID,0,0,0,0,0,1,0,0,0,0,0,0,0,0,0,0,0,0,0,0,320.84,1023.74,2,0,0.12,0.12,303,8.33,0.12,0.12,36.1,FLYING,X10-F,0:/Integrated Flight Computer/aircraft/x10_f_cfg.ks (inferred preloaded)
36.46,APPROACH,ILS_TRACK,146.37,146,-0.37,1085.67,1007.64,-11.57,5.85,10.01,273.33,-5.461,0.0854,0,19.878,1,0.6,4.5,0.821,0.35,0.0168,0.4,0,23.48,0,0.36,0,262.16,0,0,1,-4.5,0,0,0,262.21,-0.1064,-0.1365,0.9849,0,262.16,124.63,-225.73,23.615,-7.843,0,0,3,1341.8,-3.776,0,1311.89,0,0,0,268.44,0,0,0,0,0,0,0,0,0,0,0,0,0,3,3,0,0,VALID,0,0,0,0,0,1,0,0,0,0,0,0,0,0,0,0,0,0,0,0,295.48,1024.98,2,0,0.12,0.12,306,8.33,0.12,0.12,36.46,FLYING,X10-F,0:/Integrated Flight Computer/aircraft/x10_f_cfg.ks (inferred preloaded)
36.82,APPROACH,ILS_TRACK,146.61,146,-0.61,1081.25,1002.93,-11.96,5.2,9.52,272.98,-10.768,0.0607,0,19.689,1,0.6,4.5,0.757,0.35,0.0168,0.4,0,23.412,0,0.602,0,262.02,0,0,1,-4.64,0,0,0,262.06,-0.1062,-0.1388,0.9846,0,262.02,128.72,-227.17,23.558,-7.981,0,0,3,1341.8,-4.068,0,1308.91,0,0,0,268.44,0,0,0,0,0,0,0,0,0,0,0,0,0,3,3,0,0,VALID,0,0,0,0,0,1,0,0,0,0,0,0,0,0,0,0,0,0,0,0,269.98,1026.25,2,0,0.12,0.12,309,8.33,0.12,0.12,36.82,FLYING,X10-F,0:/Integrated Flight Computer/aircraft/x10_f_cfg.ks (inferred preloaded)
37.18,APPROACH,ILS_TRACK,146.81,146,-0.81,1076.78,998.43,-12.52,4.93,9.6,272.07,-12.565,0.0598,0,19.423,1,0.6,4.5,0.75,0.35,0.0168,0.4,0,23.356,0,0.802,0,261.99,0,0,1,-4.85,0,0,0,261.97,-0.1061,-0.1393,0.9845,0,261.99,132.7,-228.65,23.501,-8.007,0,0,3,1341.8,-4.141,0,1305.93,0,0,0,268.44,0,0,0,0,0,0,0,0,0,0,0,0,0,3,3,0,0,VALID,0,0,0,0,0,1,0,0,0,0,0,0,0,0,0,0,0,0,0,0,245.35,1027.37,2,0,0.12,0.12,312,8.33,0.12,0.12,37.18,FLYING,X10-F,0:/Integrated Flight Computer/aircraft/x10_f_cfg.ks (inferred preloaded)
37.54,APPROACH,ILS_TRACK,146.89,146,-0.89,1072.28,994.28,-12.94,5.23,10.09,271.49,-8.016,0.1157,0,19.11,1,0.6,4.5,0.75,0.35,0.0168,0.4,0,23.333,0,0.885,0,262.05,0,0,1,-5.02,0,0,0,262.02,-0.1061,-0.1383,0.9847,0,262.05,136.39,-230.17,23.444,-7.949,0,0,3,1341.8,-4.265,0,1302.95,0,0,0,268.44,0,0,0,0,0,0,0,0,0,0,0,0,0,3,3,0,0,VALID,0,0,0,0,0,1,0,0,0,0,0,0,0,0,0,0,0,0,0,0,225.16,1028,2,0,0.12,0.12,315,8.33,0.12,0.12,37.54,FLYING,X10-F,0:/Integrated Flight Computer/aircraft/x10_f_cfg.ks (inferred preloaded)
37.9,APPROACH,ILS_TRACK,146.87,146,-0.87,1067.7,990.2,-13.12,5.65,10.41,271.69,-0.853,0.19,0,18.795,1,0.6,4.5,0.75,0.35,0.0168,0.4,0,23.337,0,0.869,0,262.08,0,0,1,-5.1,0,0,0,262.09,-0.106,-0.1377,0.9848,0,262.08,139.81,-231.75,23.387,-7.915,0,0,3,1341.8,-4.511,0,1299.97,0,0,0,268.44,0,0,0,0,0,0,0,0,0,0,0,0,0,3,3,0,0,VALID,0,0,0,0,0,1,0,0,0,0,0,0,0,0,0,0,0,0,0,0,215.38,1028.25,2,0,0.12,0.12,318,8.33,0.12,0.12,37.9,FLYING,X10-F,0:/Integrated Flight Computer/aircraft/x10_f_cfg.ks (inferred preloaded)
38.26,APPROACH,ILS_TRACK,146.82,146,-0.82,1063.06,985.15,-13.25,6,10.74,272.61,3.493,0.2411,0,18.493,1,0.6,4.5,0.75,0.35,0.0168,0.4,0,23.35,0,0.823,0,262,0,0,1,-5.15,0,0,0,262.06,-0.1059,-0.1391,0.9846,0,262,143.08,-233.42,23.331,-7.997,0,0,3,1341.8,-4.665,0,1296.99,0,0,0,268.44,0,0,0,0,0,0,0,0,0,0,0,0,0,3,3,0,0,VALID,0,0,0,0,0,1,0,0,0,0,0,0,0,0,0,0,0,0,0,0,214.79,1028.39,2,0,0.12,0.12,321,8.33,0.12,0.12,38.26,FLYING,X10-F,0:/Integrated Flight Computer/aircraft/x10_f_cfg.ks (inferred preloaded)
38.62,APPROACH,ILS_TRACK,146.74,146,-0.74,1058.38,980.63,-13.32,6.37,11.2,273.4,1.259,0.2881,0,18.214,1,0.6,4.5,0.75,0.35,0.0168,0.4,0,23.373,0,0.742,0,261.8,0,0,1,-5.19,0,0,0,261.88,-0.1057,-0.1425,0.9841,0,261.8,146.41,-235.12,23.274,-8.195,0,0,3,1341.8,-4.732,0,1294.02,0,0,0,268.44,0,0,0,0,0,0,0,0,0,0,0,0,0,3,3,0,0,VALID,0,0,0,0,0,1,0,0,0,0,0,0,0,0,0,0,0,0,0,0,217.95,1028.37,2,0,0.12,0.12,324,8.33,0.12,0.12,38.62,FLYING,X10-F,0:/Integrated Flight Computer/aircraft/x10_f_cfg.ks (inferred preloaded)
38.98,APPROACH,ILS_TRACK,146.59,146,-0.59,1053.67,975.22,-13.2,6.65,11.31,273.68,-6.86,0.3487,0,17.98,1,0.6,4.5,0.75,0.35,0.0168,0.4,0,23.414,0,0.596,0,261.62,0,0,1,-5.15,0,0,0,261.68,-0.1056,-0.1457,0.9837,0,261.62,149.82,-236.84,23.217,-8.378,0,0,3,1341.8,-4.885,0,1291.04,0,0,0,268.44,0,0,0,0,0,0,0,0,0,0,0,0,0,3,3,0,0,VALID,0,0,0,0,0,1,0,0,0,0,0,0,0,0,0,0,0,0,0,0,224.56,1028.09,2,0,0.12,0.12,327,8.33,0.12,0.12,38.98,FLYING,X10-F,0:/Integrated Flight Computer/aircraft/x10_f_cfg.ks (inferred preloaded)
39.34,APPROACH,ILS_TRACK,146.48,146,-0.48,1048.89,970.09,-13.18,6.55,11.11,273.15,-12.298,0.3622,0,17.794,1,0.6,4.5,0.75,0.35,0.0168,0.4,0,23.445,0,0.484,0,261.52,0,0,1,-5.14,0,0,0,261.55,-0.1055,-0.1474,0.9834,0,261.52,153.23,-238.65,23.16,-8.478,0,0,3,1341.8,-5.065,0,1288.07,0,0,0,268.44,0,0,0,0,0,0,0,0,0,0,0,0,0,3,3,0,0,VALID,0,0,0,0,0,1,0,0,0,0,0,0,0,0,0,0,0,0,0,0,234.23,1027.97,2,0,0.12,0.12,330,8.33,0.12,0.12,39.34,FLYING,X10-F,0:/Integrated Flight Computer/aircraft/x10_f_cfg.ks (inferred preloaded)
39.7,APPROACH,ILS_TRACK,146.42,146,-0.42,1044.07,965.65,-13.29,6.35,11.19,272.03,-9.314,0.344,0,17.636,1,0.6,4.5,0.75,0.35,0.0168,0.4,0,23.463,0,0.422,0,261.53,0,0,1,-5.18,0,0,0,261.52,-0.1054,-0.1472,0.9835,0,261.53,156.49,-240.5,23.104,-8.467,0,0,3,1341.8,-5.165,0,1285.1,0,0,0,268.44,0,0,0,0,0,0,0,0,0,0,0,0,0,3,3,0,0,VALID,0,0,0,0,0,1,0,0,0,0,0,0,0,0,0,0,0,0,0,0,243.68,1028.05,2,0,0.12,0.12,333,8.33,0.12,0.12,39.7,FLYING,X10-F,0:/Integrated Flight Computer/aircraft/x10_f_cfg.ks (inferred preloaded)
40.06,APPROACH,ILS_TRACK,146.4,146,-0.4,1039.27,961.56,-13.39,6.32,11.19,271.33,-1.177,0.3127,0,17.49,1,0.6,4.5,0.75,0.35,0.0168,0.4,0,23.468,0,0.404,0,261.59,0,0,1,-5.22,0,0,0,261.57,-0.1053,-0.1463,0.9836,0,261.59,159.49,-242.34,23.047,-8.414,0,0,3,1341.8,-5.075,0,1282.14,0,0,0,268.44,0,0,0,0,0,0,0,0,0,0,0,0,0,3,3,0,0,VALID,0,0,0,0,0,1,0,0,0,0,0,0,0,0,0,0,0,0,0,0,250.8,1028.32,2,0,0.12,0.12,336,8.33,0.12,0.12,40.06,FLYING,X10-F,0:/Integrated Flight Computer/aircraft/x10_f_cfg.ks (inferred preloaded)
40.42,APPROACH,ILS_TRACK,146.41,146,-0.41,1034.47,956.24,-13.38,6.41,11.08,271.49,5.543,0.2846,0,17.343,1,0.6,4.5,0.75,0.35,0.0168,0.4,0,23.467,0,0.409,0,261.56,0,0,1,-5.22,0,0,0,261.58,-0.1052,-0.1467,0.9836,0,261.56,162.33,-244.16,22.99,-8.438,0,0,3,1341.8,-5.1,0,1279.17,0,0,0,268.44,0,0,0,0,0,0,0,0,0,0,0,0,0,3,3,0,0,VALID,0,0,0,0,0,1,0,0,0,0,0,0,0,0,0,0,0,0,0,0,255.2,1028.68,2,0,0.12,0.12,339,8.33,0.12,0.12,40.42,FLYING,X10-F,0:/Integrated Flight Computer/aircraft/x10_f_cfg.ks (inferred preloaded)
