t_s,phase,subphase,ias_ms,vapp_ms,spd_err_ms,agl_m,vs_ms,pitch_deg,aoa_deg,hdg_deg,bank_deg,thr_cmd,thr_cur,thr_intg,at_gain,at_tau_s,at_a_up,at_a_dn,at_kp_thr,at_ki_spd,at_thr_slew,as_cmd_deg,as_cap_deg,as_raw_deg,as_spd_err_ms,as_active,aa_hdg_cmd_deg,aa_fpa_cmd_deg,aa_fbw,aa_dir,actual_fpa_deg,ftf_hdg_err_deg,ftf_fix_idx,kos_steer_pit_deg,kos_steer_hdg_deg,aa_dir_vx,aa_dir_vy,aa_dir_vz,aa_dir_pitch_deg,aa_dir_hdg_deg,ils_loc_m,ils_gs_m,ils_dist_km,loc_corr_deg,gs_corr_deg,gs_latched,active_gs_ang_deg,ils_intercept_alt_m,d_gs_ms,fpa_preclamped_deg,gs_nom_alt_m,flare_fpa_cmd,flare_tgt_vs,flare_frac,steer_hdg_deg,steer_blend,ro_loc_corr_deg,ro_hdg_err_deg,ro_yaw_tgt,ro_yaw_scale,ro_yaw_gate,yaw_cmd,roll_cmd,pitch_cmd,ro_pitch_tgt_deg,ro_pitch_err_deg,ro_pitch_ff,ro_roll_assist,flaps_cur,flaps_tgt,asc_j_ab,asc_j_rk,asc_validity,asc_q_pa,asc_q_raw_pa,asc_mach,asc_apo_m,asc_drag_n,asc_w_prop,asc_edot_aero,asc_edot_orb,asc_pitch_bias,asc_blend,asc_spooling,asc_ab_thr_ratio,asc_ab_t_now,asc_ab_t_avail,asc_ab_ign_on,asc_ab_flameouts,asc_rk_t_now,asc_rk_t_avail,asc_rk_ign_on,asc_rk_flameouts,ship_thrust,ship_avail_thrust,ship_ign_on,ship_flameouts,ifc_raw_dt_s,ifc_dt_s,ifc_loop_n,ifc_hz_est,ifc_raw_dt_max_s,ifc_raw_dt_min_s,phase_el_s,status,craft_name,cfg_file
0.19,APPROACH,FLY_TO_FIX,226.43,146.23,-80.19,1455.59,-11.23,5.94,8.57,248.16,-0.699,0,0,0,1,0.6,0.975,0.75,0.35,0.0168,0.4,3.638,14,14,80.222,1,248.16,2.827,1,0,-2.85,0,0,0,90,0,0,0,0,0,0,0,45.585,0,0,0,3,0,0,0,2463.3,0,0,0,248.17,0,0,0,0,0,0,0,0,0,0,0,0,0,0,0,0,0,VALID,0,0,0,0,0,1,0,0,0,0,0,0,0,0,0,0,0,0,0,0,16.19,1392.24,2,0,0.146,0.146,1,3.42,0.146,0.02,0.19,FLYING,X10-F,0:/Integrated Flight Computer/aircraft/x10_f_cfg.ks (inferred preloaded)
0.45,APPROACH,FLY_TO_FIX,226.08,146.65,-79.43,1452.63,-11.09,5.83,8.48,248.15,-0.621,0,0,0,1,0.6,3.453,0.75,0.35,0.0168,0.4,10.178,14,14,79.46,1,248.16,2.804,0,0,-2.82,0.01,0,2.82,248.16,0,0,0,0,0,0,0,45.531,0,0,0,3,0,0,0,2460.49,0,0,0,248.17,0,0,0,0,0,0,0,0,0,0,0,0,0,1,1,0,0,VALID,0,0,0,0,0,1,0,0,0,0,0,0,0,0,0,0,0,0,0,0,14.74,1390.58,2,0,0.067,0.067,4,11.35,0.146,0.067,0.45,FLYING,X10-F,0:/Integrated Flight Computer/aircraft/x10_f_cfg.ks (inferred preloaded)
0.74,APPROACH,FLY_TO_FIX,225.72,147.1,-78.63,1449.57,-10.76,5.9,8.46,248.16,-0.486,0,0,-8.909,1,0.6,4.5,0.75,0.35,0.0168,0.4,14,14,14,78.66,1,248.16,2.715,0,0,-2.74,0,0,2.73,248.16,0,0,0,0,0,0,0,45.469,0,0,0,3,0,0,0,2457.24,0,0,0,248.17,0,0,0,0,0,0,0,0,0,0,0,0,0,1,1,0,0,VALID,0,0,0,0,0,1,0,0,0,0,0,0,0,0,0,0,0,0,0,0,13.33,1388.83,2,0,0.071,0.071,7,10.61,0.114,0.067,0.74,FLYING,X10-F,0:/Integrated Flight Computer/aircraft/x10_f_cfg.ks (inferred preloaded)
1.09,APPROACH,FLY_TO_FIX,225.26,147.63,-77.63,1445.9,-10.13,6.18,8.58,248.18,-0.322,0,0,-8.776,1,0.6,4.5,0.798,0.35,0.0168,0.4,14,14,14,77.68,1,248.16,2.558,0,0,-2.61,0.02,0,2.66,248.16,0,0,0,0,0,0,0,45.395,0,0,0,3,0,0,0,2453.33,0,0,0,248.17,0,0,0,0,0,0,0,0,0,0,0,0,0,1,1,0,0,VALID,0,0,0,0,0,1,0,0,0,0,0,0,0,0,0,0,0,0,0,0,11.75,1386.57,2,0,0.122,0.122,10,8.47,0.122,0.071,1.09,FLYING,X10-F,0:/Integrated Flight Computer/aircraft/x10_f_cfg.ks (inferred preloaded)
1.37,APPROACH,FLY_TO_FIX,224.82,148.08,-76.75,1443.13,-9.95,6.11,8.54,248.19,-0.213,0,0,-19.484,1,0.6,4.5,0.843,0.35,0.0168,0.4,14,14,14,76.802,1,248.16,2.503,0,0,-2.54,0.03,0,2.52,248.16,0,0,0,0,0,0,0,45.333,0,0,0,3,0,0,0,2450.07,0,0,0,248.17,0,0,0,0,0,0,0,0,0,0,0,0,0,1,1,0,0,VALID,0,0,0,0,0,1,0,0,0,0,0,0,0,0,0,0,0,0,0,0,10.63,1384.39,2,0,0.14,0.14,12,7.14,0.14,0.122,1.37,FLYING,X10-F,0:/Integrated Flight Computer/aircraft/x10_f_cfg.ks (inferred preloaded)
1.65,APPROACH,FLY_TO_FIX,224.34,148.53,-75.81,1440.67,-9.34,6.92,9.28,248.2,-0.164,0,0,-19.29,1,0.6,4.5,0.898,0.35,0.0168,0.4,14,14,14,75.875,1,248.16,2.366,0,0,-2.44,0.04,0,2.48,248.16,0,0,0,0,0,0,0,45.271,0,0,0,3,0,0,0,2446.82,0,0,0,248.17,0,0,0,0,0,0,0,0,0,0,0,0,0,1,1,0,0,VALID,0,0,0,0,0,1,0,0,0,0,0,0,0,0,0,0,0,0,0,0,9.61,1381.97,2,0,0.14,0.14,14,7.14,0.14,0.14,1.65,FLYING,X10-F,0:/Integrated Flight Computer/aircraft/x10_f_cfg.ks (inferred preloaded)
1.93,APPROACH,FLY_TO_FIX,223.75,148.98,-74.77,1438.3,-8.4,7.38,9.43,248.2,-0.118,0,0,-19.097,1,0.6,4.5,0.966,0.35,0.0168,0.4,14,14,14,74.85,1,248.16,2.086,0,0,-2.2,0.04,0,2.23,248.16,0,0,0,0,0,0,0,45.209,0,0,0,3,0,0,0,2443.57,0,0,0,248.17,0,0,0,0,0,0,0,0,0,0,0,0,0,1,1,0,0,VALID,0,0,0,0,0,1,0,0,0,0,0,0,0,0,0,0,0,0,0,0,8.69,1378.98,2,0,0.14,0.14,16,7.14,0.14,0.14,1.93,FLYING,X10-F,0:/Integrated Flight Computer/aircraft/x10_f_cfg.ks (inferred preloaded)
2.21,APPROACH,FLY_TO_FIX,223.08,149.42,-73.66,1436.25,-7.79,7.85,9.87,248.2,-0.177,0,0,-18.907,1,0.6,4.5,1.05,0.35,0.0168,0.4,14,14,14,73.747,1,248.16,1.909,0,0,-2.04,0.03,0,1.99,248.16,0,0,0,0,0,0,0,45.147,0,0,0,3,0,0,0,2440.33,0,0,0,248.17,0,0,0,0,0,0,0,0,0,0,0,0,0,1,1,0,0,VALID,0,0,0,0,0,1,0,0,0,0,0,0,0,0,0,0,0,0,0,0,7.86,1375.6,2,0,0.14,0.14,18,7.14,0.14,0.14,2.21,FLYING,X10-F,0:/Integrated Flight Computer/aircraft/x10_f_cfg.ks (inferred preloaded)
2.49,APPROACH,FLY_TO_FIX,222.31,149.87,-72.44,1434.63,-6.48,9.21,10.96,248.18,-0.25,0.0298,0,-20,1,0.6,4.5,1.151,0.35,0.0168,0.4,14,14,14,72.547,1,248.16,1.565,0,0,-1.78,0.02,0,1.79,248.16,0,0,0,0,0,0,0,45.085,0,0,0,3,0,0,0,2437.1,0,0,0,248.17,0,0,0,0,0,0,0,0,0,0,0,0,0,1,1,0,0,VALID,0,0,0,0,0,1,0,0,0,0,0,0,0,0,0,0,0,0,0,0,7.1,1371.64,2,0,0.14,0.14,20,7.14,0.14,0.14,2.49,FLYING,X10-F,0:/Integrated Flight Computer/aircraft/x10_f_cfg.ks (inferred preloaded)
2.77,APPROACH,FLY_TO_FIX,221.34,150.32,-71.02,1433.14,-4.74,9.69,10.85,248.16,-0.29,0.1351,0,-20,1,0.6,4.5,1.278,0.35,0.0168,0.4,10.5,14,0,71.151,1,248.16,1.043,0,0,-1.33,0,0,1.3,248.16,0,0,0,0,0,0,0,45.024,0,0,0,3,0,0,0,2433.89,0,0,0,248.17,0,0,0,0,0,0,0,0,0,0,0,0,0,1,1,0,0,VALID,0,0,0,0,0,1,0,0,0,0,0,0,0,0,0,0,0,0,0,0,10.01,1366.58,2,0,0.14,0.14,22,7.14,0.14,0.14,2.77,FLYING,X10-F,0:/Integrated Flight Computer/aircraft/x10_f_cfg.ks (inferred preloaded)
3.05,APPROACH,FLY_TO_FIX,220.34,150.77,-69.57,1431.92,-3.52,9.33,10.19,248.15,-0.295,0.2471,0,-20,1,0.6,4.5,1.278,0.35,0.0168,0.4,3.5,14,0,69.686,1,248.16,0.668,0,0,-0.98,0.01,0,0.83,248.16,0,0,0,0,0,0,0,44.963,0,0,0,3,0,0,0,2430.68,0,0,0,248.17,0,0,0,0,0,0,0,0,0,0,0,0,0,1,1,0,0,VALID,0,0,0,0,0,1,0,0,0,0,0,0,0,0,0,0,0,0,0,0,20.57,1361.32,2,0,0.14,0.14,24,7.14,0.14,0.14,3.05,FLYING,X10-F,0:/Integrated Flight Computer/aircraft/x10_f_cfg.ks (inferred preloaded)
3.33,APPROACH,FLY_TO_FIX,219.47,151.22,-68.26,1431.02,-2.4,9.03,9.6,248.15,-0.32,0.28,0,-20,1,0.6,4.5,1.278,0.35,0.0168,0.4,0,14,0,68.359,0,248.16,0.334,0,0,-0.69,0.01,0,0.49,248.16,0,0,0,0,0,0,0,44.902,0,0,0,3,0,0,0,2427.49,0,0,0,248.17,0,0,0,0,0,0,0,0,0,0,0,0,0,2,2,0,0,VALID,0,0,0,0,0,1,0,0,0,0,0,0,0,0,0,0,0,0,0,0,38.16,1356.79,2,0,0.14,0.14,26,7.14,0.14,0.14,3.33,FLYING,X10-F,0:/Integrated Flight Computer/aircraft/x10_f_cfg.ks (inferred preloaded)
3.61,APPROACH,FLY_TO_FIX,218.73,151.66,-67.07,1430.34,-1.46,8.51,8.81,248.14,-0.332,0.2364,0,-20,1,0.6,4.5,1.278,0.35,0.0168,0.4,0,14,0,67.154,0,248.16,0.047,0,0,-0.43,0.02,0,0.18,248.16,0,0,0,0,0,0,0,44.841,0,0,0,3,0,0,0,2424.31,0,0,0,248.17,0,0,0,0,0,0,0,0,0,0,0,0,0,2,2,0,0,VALID,0,0,0,0,0,1,0,0,0,0,0,0,0,0,0,0,0,0,0,0,56.25,1352.89,2,0,0.14,0.14,28,7.14,0.14,0.14,3.61,FLYING,X10-F,0:/Integrated Flight Computer/aircraft/x10_f_cfg.ks (inferred preloaded)
3.89,APPROACH,FLY_TO_FIX,218.12,152.11,-66.01,1429.78,-0.81,7.69,7.78,248.15,-0.294,0.1486,0,-20,1,0.6,4.5,1.278,0.35,0.0168,0.4,0,14,0,66.082,0,248.16,-0.16,0,0,-0.24,0.01,0,-0.07,248.16,0,0,0,0,0,0,0,44.781,0,0,0,3,0,0,0,2421.14,0,0,0,248.17,0,0,0,0,0,0,0,0,0,0,0,0,0,2,2,0,0,VALID,0,0,0,0,0,1,0,0,0,0,0,0,0,0,0,0,0,0,0,0,69.64,1349.68,2,0,0.14,0.14,30,7.14,0.14,0.14,3.89,FLYING,X10-F,0:/Integrated Flight Computer/aircraft/x10_f_cfg.ks (inferred preloaded)
4.17,APPROACH,FLY_TO_FIX,217.65,152.56,-65.09,1429.37,-0.58,6.83,6.89,248.16,-0.211,0.0366,0,-20,1,0.6,4.5,1.278,0.35,0.0168,0.4,3.5,14,14,65.146,1,248.16,-0.235,0,0,-0.16,0,0,-0.21,248.16,0,0,0,0,0,0,0,44.72,0,0,0,3,0,0,0,2417.97,0,0,0,248.17,0,0,0,0,0,0,0,0,0,0,0,0,0,2,2,0,0,VALID,0,0,0,0,0,1,0,0,0,0,0,0,0,0,0,0,0,0,0,0,75.52,1347.18,2,0,0.14,0.14,32,7.14,0.14,0.14,4.17,FLYING,X10-F,0:/Integrated Flight Computer/aircraft/x10_f_cfg.ks (inferred preloaded)
4.45,APPROACH,FLY_TO_FIX,217.28,153.01,-64.27,1429.07,-0.55,6.25,6.34,248.16,-0.165,0,0,-19.8,1,0.6,4.5,1.355,0.35,0.0168,0.4,10.5,14,14,64.313,1,248.16,-0.247,0,0,-0.14,0,0,-0.24,248.16,0,0,0,0,0,0,0,44.66,0,0,0,3,0,0,0,2414.81,0,0,0,248.17,0,0,0,0,0,0,0,0,0,0,0,0,0,2,2,0,0,VALID,0,0,0,0,0,1,0,0,0,0,0,0,0,0,0,0,0,0,0,0,71.77,1345.19,2,0,0.14,0.14,34,7.14,0.14,0.14,4.45,FLYING,X10-F,0:/Integrated Flight Computer/aircraft/x10_f_cfg.ks (inferred preloaded)
4.73,APPROACH,FLY_TO_FIX,216.92,153.46,-63.47,1428.83,-0.6,5.93,6.05,248.17,-0.127,0,0,-19.603,1,0.6,4.5,1.402,0.35,0.0168,0.4,14,14,14,63.514,1,248.16,-0.234,0,0,-0.15,0.01,0,-0.25,248.16,0,0,0,0,0,0,0,44.599,0,0,0,3,0,0,0,2411.65,0,0,0,248.17,0,0,0,0,0,0,0,0,0,0,0,0,0,2,2,0,0,VALID,0,0,0,0,0,1,0,0,0,0,0,0,0,0,0,0,0,0,0,0,64.95,1343.33,2,0,0.14,0.14,36,7.14,0.14,0.14,4.73,FLYING,X10-F,0:/Integrated Flight Computer/aircraft/x10_f_cfg.ks (inferred preloaded)
5.01,APPROACH,FLY_TO_FIX,216.55,153.9,-62.65,1428.64,-0.61,5.84,5.99,248.17,-0.102,0,0,-19.407,1,0.6,4.5,1.431,0.35,0.0168,0.4,14,14,14,62.695,1,248.16,-0.223,0,0,-0.17,0.01,0,-0.22,248.16,0,0,0,0,0,0,0,44.539,0,0,0,3,0,0,0,2408.5,0,0,0,248.17,0,0,0,0,0,0,0,0,0,0,0,0,0,2,2,0,0,VALID,0,0,0,0,0,1,0,0,0,0,0,0,0,0,0,0,0,0,0,0,58.76,1341.37,2,0,0.14,0.14,38,7.14,0.14,0.14,5.01,FLYING,X10-F,0:/Integrated Flight Computer/aircraft/x10_f_cfg.ks (inferred preloaded)
5.29,APPROACH,FLY_TO_FIX,216.14,154.35,-61.79,1428.45,-0.57,5.77,5.91,248.17,-0.086,0,0,-19.214,1,0.6,4.5,1.451,0.35,0.0168,0.4,14,14,14,61.842,1,248.16,-0.235,0,0,-0.15,0.01,0,-0.23,248.16,0,0,0,0,0,0,0,44.479,0,0,0,3,0,0,0,2405.35,0,0,0,248.17,0,0,0,0,0,0,0,0,0,0,0,0,0,2,2,0,0,VALID,0,0,0,0,0,1,0,0,0,0,0,0,0,0,0,0,0,0,0,0,53.16,1339.22,2,0,0.14,0.14,40,7.14,0.14,0.14,5.29,FLYING,X10-F,0:/Integrated Flight Computer/aircraft/x10_f_cfg.ks (inferred preloaded)
5.57,APPROACH,FLY_TO_FIX,215.7,154.8,-60.9,1428.25,-0.54,5.66,5.78,248.17,-0.075,0,0,-19.022,1,0.6,4.5,1.471,0.35,0.0168,0.4,14,14,14,60.954,1,248.16,-0.247,0,0,-0.15,0.01,0,-0.24,248.16,0,0,0,0,0,0,0,44.419,0,0,0,3,0,0,0,2402.21,0,0,0,248.17,0,0,0,0,0,0,0,0,0,0,0,0,0,2,2,0,0,VALID,0,0,0,0,0,1,0,0,0,0,0,0,0,0,0,0,0,0,0,0,48.09,1336.9,2,0,0.14,0.14,42,7.14,0.14,0.14,5.57,FLYING,X10-F,0:/Integrated Flight Computer/aircraft/x10_f_cfg.ks (inferred preloaded)
5.85,APPROACH,FLY_TO_FIX,215.22,155.25,-59.98,1428.07,-0.52,5.53,5.64,248.17,-0.073,0,0,-18.832,1,0.6,4.5,1.492,0.35,0.0168,0.4,14,14,14,60.037,1,248.16,-0.252,0,0,-0.14,0.01,0,-0.25,248.16,0,0,0,0,0,0,0,44.359,0,0,0,3,0,0,0,2399.07,0,0,0,248.17,0,0,0,0,0,0,0,0,0,0,0,0,0,2,2,0,0,VALID,0,0,0,0,0,1,0,0,0,0,0,0,0,0,0,0,0,0,0,0,43.49,1334.42,2,0,0.14,0.14,44,7.14,0.14,0.14,5.85,FLYING,X10-F,0:/Integrated Flight Computer/aircraft/x10_f_cfg.ks (inferred preloaded)
6.13,APPROACH,FLY_TO_FIX,214.72,155.7,-59.03,1427.89,-0.51,5.41,5.53,248.17,-0.068,0,0,-18.645,1,0.6,4.5,1.516,0.35,0.0168,0.4,14,14,14,59.092,1,248.16,-0.252,0,0,-0.14,0.01,0,-0.25,248.16,0,0,0,0,0,0,0,44.3,0,0,0,3,0,0,0,2395.94,0,0,0,248.17,0,0,0,0,0,0,0,0,0,0,0,0,0,2,2,0,0,VALID,0,0,0,0,0,1,0,0,0,0,0,0,0,0,0,0,0,0,0,0,39.33,1331.8,2,0,0.14,0.14,46,7.14,0.14,0.14,6.13,FLYING,X10-F,0:/Integrated Flight Computer/aircraft/x10_f_cfg.ks (inferred preloaded)
6.41,APPROACH,FLY_TO_FIX,214.2,156.14,-58.05,1427.72,-0.5,5.31,5.42,248.17,-0.066,0,0,-18.459,1,0.6,4.5,1.546,0.35,0.0168,0.4,14,14,14,58.121,1,248.16,-0.257,0,0,-0.13,0.01,0,-0.25,248.16,0,0,0,0,0,0,0,44.24,0,0,0,3,0,0,0,2392.82,0,0,0,248.17,0,0,0,0,0,0,0,0,0,0,0,0,0,2,2,0,0,VALID,0,0,0,0,0,1,0,0,0,0,0,0,0,0,0,0,0,0,0,0,35.56,1329.04,2,0,0.14,0.14,48,7.14,0.14,0.14,6.41,FLYING,X10-F,0:/Integrated Flight Computer/aircraft/x10_f_cfg.ks (inferred preloaded)
6.69,APPROACH,FLY_TO_FIX,213.64,156.59,-57.05,1427.55,-0.49,5.2,5.31,248.17,-0.062,0,0,-18.274,1,0.6,4.5,1.58,0.35,0.0168,0.4,14,14,14,57.122,1,248.16,-0.26,0,0,-0.13,0.01,0,-0.26,248.16,0,0,0,0,0,0,0,44.181,0,0,0,3,0,0,0,2389.71,0,0,0,248.17,0,0,0,0,0,0,0,0,0,0,0,0,0,2,2,0,0,VALID,0,0,0,0,0,1,0,0,0,0,0,0,0,0,0,0,0,0,0,0,32.15,1326.14,2,0,0.14,0.14,50,7.14,0.14,0.14,6.69,FLYING,X10-F,0:/Integrated Flight Computer/aircraft/x10_f_cfg.ks (inferred preloaded)
6.97,APPROACH,FLY_TO_FIX,213.06,157.04,-56.02,1427.38,-0.49,5.1,5.22,248.17,-0.059,0,0,-18.092,1,0.6,4.5,1.619,0.35,0.0168,0.4,14,14,14,56.096,1,248.16,-0.255,0,0,-0.13,0.01,0,-0.26,248.16,0,0,0,0,0,0,0,44.121,0,0,0,3,0,0,0,2386.6,0,0,0,248.17,0,0,0,0,0,0,0,0,0,0,0,0,0,2,2,0,0,VALID,0,0,0,0,0,1,0,0,0,0,0,0,0,0,0,0,0,0,0,0,29.07,1323.11,2,0,0.14,0.14,52,7.14,0.14,0.14,6.97,FLYING,X10-F,0:/Integrated Flight Computer/aircraft/x10_f_cfg.ks (inferred preloaded)
7.25,APPROACH,FLY_TO_FIX,212.45,157.49,-54.97,1427.22,-0.49,5.02,5.13,248.17,-0.056,0,0,-17.912,1,0.6,4.5,1.662,0.35,0.0168,0.4,14,14,14,55.044,1,248.16,-0.258,0,0,-0.13,0.01,0,-0.26,248.16,0,0,0,0,0,0,0,44.062,0,0,0,3,0,0,0,2383.5,0,0,0,248.17,0,0,0,0,0,0,0,0,0,0,0,0,0,2,2,0,0,VALID,0,0,0,0,0,1,0,0,0,0,0,0,0,0,0,0,0,0,0,0,26.28,1319.94,2,0,0.14,0.14,54,7.14,0.14,0.14,7.25,FLYING,X10-F,0:/Integrated Flight Computer/aircraft/x10_f_cfg.ks (inferred preloaded)
7.53,APPROACH,FLY_TO_FIX,211.83,157.7,-54.13,1427.08,-0.57,5.01,5.17,248.16,-0.054,0,0,-17.733,1,0.6,4.5,1.71,0.35,0.0168,0.4,14,14,14,54.209,1,248.16,-0.235,0,0,-0.15,0.01,0,-0.24,248.16,0,0,0,0,0,0,0,44.003,0,0,0,3,0,0,0,2380.41,0,0,0,248.17,0,0,0,0,0,0,0,0,0,0,0,0,0,2,2,0,0,VALID,0,0,0,0,0,1,0,0,0,0,0,0,0,0,0,0,0,0,0,0,23.75,1316.7,2,0,0.14,0.14,56,7.14,0.14,0.14,7.53,FLYING,X10-F,0:/Integrated Flight Computer/aircraft/x10_f_cfg.ks (inferred preloaded)
7.81,APPROACH,FLY_TO_FIX,211.2,157.7,-53.5,1426.95,-0.57,5.11,5.27,248.16,-0.048,0,0,-17.556,1,0.6,4.5,1.759,0.35,0.0168,0.4,14,14,14,53.58,1,248.16,-0.233,0,0,-0.15,0,0,-0.23,248.16,0,0,0,0,0,0,0,43.945,0,0,0,3,0,0,0,2377.33,0,0,0,248.17,0,0,0,0,0,0,0,0,0,0,0,0,0,2,2,0,0,VALID,0,0,0,0,0,1,0,0,0,0,0,0,0,0,0,0,0,0,0,0,21.47,1313.43,2,0,0.14,0.14,58,7.14,0.14,0.14,7.81,FLYING,X10-F,0:/Integrated Flight Computer/aircraft/x10_f_cfg.ks (inferred preloaded)
8.09,APPROACH,FLY_TO_FIX,210.57,157.7,-52.87,1426.81,-0.55,5.16,5.31,248.16,-0.04,0,0,-17.381,1,0.6,4.5,1.809,0.35,0.0168,0.4,14,14,14,52.947,1,248.16,-0.235,0,0,-0.15,0,0,-0.24,248.16,0,0,0,0,0,0,0,43.886,0,0,0,3,0,0,0,2374.25,0,0,0,248.17,0,0,0,0,0,0,0,0,0,0,0,0,0,2,2,0,0,VALID,0,0,0,0,0,1,0,0,0,0,0,0,0,0,0,0,0,0,0,0,19.4,1310.14,2,0,0.14,0.14,60,7.14,0.14,0.14,8.09,FLYING,X10-F,0:/Integrated Flight Computer/aircraft/x10_f_cfg.ks (inferred preloaded)
8.37,APPROACH,FLY_TO_FIX,209.92,157.7,-52.22,1426.68,-0.59,5.24,5.42,248.16,-0.036,0,0,-17.208,1,0.6,4.5,1.858,0.35,0.0168,0.4,14,14,14,52.304,1,248.16,-0.219,0,0,-0.16,0,0,-0.23,248.16,0,0,0,0,0,0,0,43.827,0,0,0,3,0,0,0,2371.19,0,0,0,248.17,0,0,0,0,0,0,0,0,0,0,0,0,0,2,2,0,0,VALID,0,0,0,0,0,1,0,0,0,0,0,0,0,0,0,0,0,0,0,0,17.54,1306.81,2,0,0.14,0.14,62,7.14,0.14,0.14,8.37,FLYING,X10-F,0:/Integrated Flight Computer/aircraft/x10_f_cfg.ks (inferred preloaded)
8.65,APPROACH,FLY_TO_FIX,209.27,157.7,-51.57,1426.45,-0.35,5.15,5.15,248.16,-0.044,0,0,-17.036,1,0.6,4.5,1.907,0.35,0.0168,0.4,14,14,14,51.648,1,248.16,-0.294,0,0,-0.1,0,0,-0.24,248.16,0,0,0,0,0,0,0,43.769,0,0,0,3,0,0,0,2368.13,0,0,0,248.17,0,0,0,0,0,0,0,0,0,0,0,0,0,2,2,0,0,VALID,0,0,0,0,0,1,0,0,0,0,0,0,0,0,0,0,0,0,0,0,15.85,1303.4,2,0,0.14,0.14,64,7.14,0.14,0.14,8.65,FLYING,X10-F,0:/Integrated Flight Computer/aircraft/x10_f_cfg.ks (inferred preloaded)
8.93,APPROACH,FLY_TO_FIX,208.62,157.7,-50.92,1426.16,-0.73,4.49,4.63,248.16,-0.027,0,0,-16.866,1,0.6,4.5,1.954,0.35,0.0168,0.4,14,14,14,51.003,1,248.16,-0.202,0,0,-0.16,0,0,-0.27,248.16,0,0,0,0,0,0,0,43.711,0,0,0,3,0,0,0,2365.08,0,0,0,248.17,0,0,0,0,0,0,0,0,0,0,0,0,0,2,2,0,0,VALID,0,0,0,0,0,1,0,0,0,0,0,0,0,0,0,0,0,0,0,0,14.32,1300.07,2,0,0.14,0.14,66,7.14,0.14,0.14,8.93,FLYING,X10-F,0:/Integrated Flight Computer/aircraft/x10_f_cfg.ks (inferred preloaded)
9.21,APPROACH,FLY_TO_FIX,207.96,157.7,-50.26,1426.05,-1.17,4.82,5.24,248.16,-0.023,0,0,-16.698,1,0.6,4.5,1.999,0.35,0.0168,0.4,14,14,14,50.345,1,248.16,-0.048,0,0,-0.31,0,0,-0.11,248.16,0,0,0,0,0,0,0,43.653,0,0,0,3,0,0,0,2362.04,0,0,0,248.17,0,0,0,0,0,0,0,0,0,0,0,0,0,2,2,0,0,VALID,0,0,0,0,0,1,0,0,0,0,0,0,0,0,0,0,0,0,0,0,12.94,1296.65,2,0,0.14,0.14,68,7.14,0.14,0.14,9.21,FLYING,X10-F,0:/Integrated Flight Computer/aircraft/x10_f_cfg.ks (inferred preloaded)
9.49,APPROACH,FLY_TO_FIX,207.29,157.7,-49.59,1425.85,-0.92,5.39,5.64,248.16,-0.033,0,0,-16.531,1,0.6,4.5,2.043,0.35,0.0168,0.4,14,14,14,49.671,1,248.16,-0.115,0,0,-0.27,0,0,-0.07,248.16,0,0,0,0,0,0,0,43.595,0,0,0,3,0,0,0,2359.01,0,0,0,248.17,0,0,0,0,0,0,0,0,0,0,0,0,0,2,2,0,0,VALID,0,0,0,0,0,1,0,0,0,0,0,0,0,0,0,0,0,0,0,0,11.7,1293.22,2,0,0.14,0.14,70,7.14,0.14,0.14,9.49,FLYING,X10-F,0:/Integrated Flight Computer/aircraft/x10_f_cfg.ks (inferred preloaded)
9.77,APPROACH,FLY_TO_FIX,206.63,157.7,-48.93,1425.59,-0.98,5.33,5.6,248.16,-0.021,0,0,-16.366,1,0.6,4.5,2.085,0.35,0.0168,0.4,14,14,14,49.017,1,248.16,-0.107,0,0,-0.26,0,0,-0.13,248.16,0,0,0,0,0,0,0,43.537,0,0,0,3,0,0,0,2355.99,0,0,0,248.17,0,0,0,0,0,0,0,0,0,0,0,0,0,2,2,0,0,VALID,0,0,0,0,0,1,0,0,0,0,0,0,0,0,0,0,0,0,0,0,10.57,1289.85,2,0,0.14,0.14,72,7.14,0.14,0.14,9.77,FLYING,X10-F,0:/Integrated Flight Computer/aircraft/x10_f_cfg.ks (inferred preloaded)
10.05,APPROACH,FLY_TO_FIX,205.97,157.7,-48.27,1425.35,-0.94,5.47,5.72,248.16,-0.023,0,0,-16.203,1,0.6,4.5,2.124,0.35,0.0168,0.4,14,14,14,48.349,1,248.16,-0.114,0,0,-0.26,0,0,-0.1,248.16,0,0,0,0,0,0,0,43.48,0,0,0,3,0,0,0,2352.98,0,0,0,248.17,0,0,0,0,0,0,0,0,0,0,0,0,0,2,2,0,0,VALID,0,0,0,0,0,1,0,0,0,0,0,0,0,0,0,0,0,0,0,0,9.55,1286.42,2,0,0.14,0.14,74,7.14,0.14,0.14,10.05,FLYING,X10-F,0:/Integrated Flight Computer/aircraft/x10_f_cfg.ks (inferred preloaded)
10.33,APPROACH,FLY_TO_FIX,205.3,157.7,-47.6,1425.11,-0.93,5.51,5.76,248.16,-0.02,0,0,-16.042,1,0.6,4.5,2.162,0.35,0.0168,0.4,14,14,14,47.684,1,248.16,-0.115,0,0,-0.26,0,0,-0.11,248.16,0,0,0,0,0,0,0,43.423,0,0,0,3,0,0,0,2349.98,0,0,0,248.17,0,0,0,0,0,0,0,0,0,0,0,0,0,2,2,0,0,VALID,0,0,0,0,0,1,0,0,0,0,0,0,0,0,0,0,0,0,0,0,8.63,1283.02,2,0,0.14,0.14,76,7.14,0.14,0.14,10.33,FLYING,X10-F,0:/Integrated Flight Computer/aircraft/x10_f_cfg.ks (inferred preloaded)
10.61,APPROACH,FLY_TO_FIX,204.63,157.7,-46.93,1424.86,-0.92,5.57,5.82,248.16,-0.019,0,0,-15.882,1,0.6,4.5,2.197,0.35,0.0168,0.4,14,14,14,47.015,1,248.16,-0.117,0,0,-0.26,0,0,-0.11,248.16,0,0,0,0,0,0,0,43.366,0,0,0,3,0,0,0,2346.98,0,0,0,248.17,0,0,0,0,0,0,0,0,0,0,0,0,0,2,2,0,0,VALID,0,0,0,0,0,1,0,0,0,0,0,0,0,0,0,0,0,0,0,0,7.8,1279.6,2,0,0.14,0.14,78,7.14,0.14,0.14,10.61,FLYING,X10-F,0:/Integrated Flight Computer/aircraft/x10_f_cfg.ks (inferred preloaded)
10.89,APPROACH,FLY_TO_FIX,203.96,157.7,-46.26,1424.62,-0.91,5.63,5.87,248.16,-0.015,0,0,-15.723,1,0.6,4.5,2.23,0.35,0.0168,0.4,14,14,14,46.343,1,248.16,-0.119,0,0,-0.26,0,0,-0.12,248.16,0,0,0,0,0,0,0,43.309,0,0,0,3,0,0,0,2343.99,0,0,0,248.17,0,0,0,0,0,0,0,0,0,0,0,0,0,2,2,0,0,VALID,0,0,0,0,0,1,0,0,0,0,0,0,0,0,0,0,0,0,0,0,7.05,1276.17,2,0,0.14,0.14,80,7.14,0.14,0.14,10.89,FLYING,X10-F,0:/Integrated Flight Computer/aircraft/x10_f_cfg.ks (inferred preloaded)
11.17,APPROACH,FLY_TO_FIX,203.28,157.7,-45.58,1424.39,-0.9,5.68,5.92,248.16,-0.012,0,0,-15.566,1,0.6,4.5,2.261,0.35,0.0168,0.4,14,14,14,45.669,1,248.16,-0.12,0,0,-0.25,0,0,-0.12,248.16,0,0,0,0,0,0,0,43.252,0,0,0,3,0,0,0,2341.02,0,0,0,248.17,0,0,0,0,0,0,0,0,0,0,0,0,0,2,2,0,0,VALID,0,0,0,0,0,1,0,0,0,0,0,0,0,0,0,0,0,0,0,0,6.37,1272.73,2,0,0.14,0.14,82,7.14,0.14,0.14,11.17,FLYING,X10-F,0:/Integrated Flight Computer/aircraft/x10_f_cfg.ks (inferred preloaded)
11.45,APPROACH,FLY_TO_FIX,202.61,157.7,-44.91,1424.15,-0.89,5.73,5.98,248.16,-0.011,0,0,-15.411,1,0.6,4.5,2.29,0.35,0.0168,0.4,14,14,14,44.994,1,248.16,-0.121,0,0,-0.25,0,0,-0.12,248.16,0,0,0,0,0,0,0,43.195,0,0,0,3,0,0,0,2338.05,0,0,0,248.17,0,0,0,0,0,0,0,0,0,0,0,0,0,2,2,0,0,VALID,0,0,0,0,0,1,0,0,0,0,0,0,0,0,0,0,0,0,0,0,5.76,1269.29,2,0,0.14,0.14,84,7.14,0.14,0.14,11.45,FLYING,X10-F,0:/Integrated Flight Computer/aircraft/x10_f_cfg.ks (inferred preloaded)
11.73,APPROACH,FLY_TO_FIX,201.93,157.7,-44.23,1423.92,-0.89,5.79,6.03,248.16,-0.005,0,0,-15.257,1,0.6,4.5,2.318,0.35,0.0168,0.4,14,14,14,44.317,1,248.16,-0.122,0,0,-0.25,0,0,-0.12,248.16,0,0,0,0,0,0,0,43.139,0,0,0,3,0,0,0,2335.09,0,0,0,248.17,0,0,0,0,0,0,0,0,0,0,0,0,0,2,2,0,0,VALID,0,0,0,0,0,1,0,0,0,0,0,0,0,0,0,0,0,0,0,0,5.2,1265.85,2,0,0.14,0.14,86,7.14,0.14,0.14,11.73,FLYING,X10-F,0:/Integrated Flight Computer/aircraft/x10_f_cfg.ks (inferred preloaded)
12.01,APPROACH,FLY_TO_FIX,201.25,157.7,-43.55,1423.69,-0.88,5.85,6.09,248.16,-0.003,0,0,-15.105,1,0.6,4.5,2.344,0.35,0.0168,0.4,14,14,14,43.638,1,248.16,-0.123,0,0,-0.25,0,0,-0.12,248.16,0,0,0,0,0,0,0,43.082,0,0,0,3,0,0,0,2332.14,0,0,0,248.17,0,0,0,0,0,0,0,0,0,0,0,0,0,2,2,0,0,VALID,0,0,0,0,0,1,0,0,0,0,0,0,0,0,0,0,0,0,0,0,4.7,1262.4,2,0,0.14,0.14,88,7.14,0.14,0.14,12.01,FLYING,X10-F,0:/Integrated Flight Computer/aircraft/x10_f_cfg.ks (inferred preloaded)
12.29,APPROACH,FLY_TO_FIX,200.57,157.7,-42.87,1423.46,-0.87,5.91,6.14,248.16,0,0,0,-14.954,1,0.6,4.5,2.369,0.35,0.0168,0.4,14,14,14,42.957,1,248.16,-0.124,0,0,-0.25,0,0,-0.12,248.16,0,0,0,0,0,0,0,43.026,0,0,0,3,0,0,0,2329.2,0,0,0,248.17,0,0,0,0,0,0,0,0,0,0,0,0,0,2,2,0,0,VALID,0,0,0,0,0,1,0,0,0,0,0,0,0,0,0,0,0,0,0,0,4.25,1258.95,2,0,0.14,0.14,90,7.14,0.14,0.14,12.29,FLYING,X10-F,0:/Integrated Flight Computer/aircraft/x10_f_cfg.ks (inferred preloaded)
12.57,APPROACH,FLY_TO_FIX,199.89,157.7,-42.19,1423.23,-0.87,5.96,6.2,248.16,0.002,0,0,-14.805,1,0.6,4.5,2.392,0.35,0.0168,0.4,14,14,14,42.275,1,248.16,-0.124,0,0,-0.25,0,0,-0.12,248.16,0,0,0,0,0,0,0,42.97,0,0,0,3,0,0,0,2326.27,0,0,0,248.17,0,0,0,0,0,0,0,0,0,0,0,0,0,2,2,0,0,VALID,0,0,0,0,0,1,0,0,0,0,0,0,0,0,0,0,0,0,0,0,3.84,1255.5,2,0,0.14,0.14,92,7.14,0.14,0.14,12.57,FLYING,X10-F,0:/Integrated Flight Computer/aircraft/x10_f_cfg.ks (inferred preloaded)
12.85,APPROACH,FLY_TO_FIX,199.21,157.7,-41.51,1423,-0.86,6.02,6.26,248.16,0.004,0,0,-14.658,1,0.6,4.5,2.414,0.35,0.0168,0.4,14,14,14,41.591,1,248.16,-0.125,0,0,-0.25,0,0,-0.12,248.16,0,0,0,0,0,0,0,42.915,0,0,0,3,0,0,0,2323.35,0,0,0,248.17,0,0,0,0,0,0,0,0,0,0,0,0,0,2,2,0,0,VALID,0,0,0,0,0,1,0,0,0,0,0,0,0,0,0,0,0,0,0,0,3.47,1252.05,2,0,0.14,0.14,94,7.14,0.14,0.14,12.85,FLYING,X10-F,0:/Integrated Flight Computer/aircraft/x10_f_cfg.ks (inferred preloaded)
13.13,APPROACH,FLY_TO_FIX,198.52,157.7,-40.82,1422.78,-0.86,6.08,6.32,248.16,0.006,0,0,-14.511,1,0.6,4.5,2.435,0.35,0.0168,0.4,14,14,14,40.906,1,248.16,-0.125,0,0,-0.25,0,0,-0.12,248.16,0,0,0,0,0,0,0,42.859,0,0,0,3,0,0,0,2320.43,0,0,0,248.17,0,0,0,0,0,0,0,0,0,0,0,0,0,2,2,0,0,VALID,0,0,0,0,0,1,0,0,0,0,0,0,0,0,0,0,0,0,0,0,3.13,1248.6,2,0,0.14,0.14,96,7.14,0.14,0.14,13.13,FLYING,X10-F,0:/Integrated Flight Computer/aircraft/x10_f_cfg.ks (inferred preloaded)
13.41,APPROACH,FLY_TO_FIX,197.83,157.7,-40.13,1422.56,-0.86,6.14,6.38,248.16,0.007,0,0,-14.367,1,0.6,4.5,2.455,0.35,0.0168,0.4,14,14,14,40.22,1,248.16,-0.123,0,0,-0.25,0,0,-0.12,248.16,0,0,0,0,0,0,0,42.804,0,0,0,3,0,0,0,2317.53,0,0,0,248.17,0,0,0,0,0,0,0,0,0,0,0,0,0,2,2,0,0,VALID,0,0,0,0,0,1,0,0,0,0,0,0,0,0,0,0,0,0,0,0,2.83,1245.14,2,0,0.14,0.14,98,7.14,0.14,0.14,13.41,FLYING,X10-F,0:/Integrated Flight Computer/aircraft/x10_f_cfg.ks (inferred preloaded)
13.69,APPROACH,FLY_TO_FIX,197.15,157.7,-39.45,1422.34,-0.85,6.2,6.45,248.16,0.008,0,0,-14.223,1,0.6,4.5,2.473,0.35,0.0168,0.4,14,14,14,39.532,1,248.16,-0.123,0,0,-0.25,0,0,-0.12,248.16,0,0,0,0,0,0,0,42.748,0,0,0,3,0,0,0,2314.64,0,0,0,248.17,0,0,0,0,0,0,0,0,0,0,0,0,0,2,2,0,0,VALID,0,0,0,0,0,1,0,0,0,0,0,0,0,0,0,0,0,0,0,0,2.56,1241.69,2,0,0.14,0.14,100,7.14,0.14,0.14,13.69,FLYING,X10-F,0:/Integrated Flight Computer/aircraft/x10_f_cfg.ks (inferred preloaded)
13.97,APPROACH,FLY_TO_FIX,196.46,157.7,-38.76,1422.12,-0.85,6.27,6.5,248.16,0.011,0,0,-14.081,1,0.6,4.5,2.491,0.35,0.0168,0.4,14,14,14,38.844,1,248.16,-0.125,0,0,-0.25,0,0,-0.12,248.16,0,0,0,0,0,0,0,42.693,0,0,0,3,0,0,0,2311.75,0,0,0,248.17,0,0,0,0,0,0,0,0,0,0,0,0,0,2,2,0,0,VALID,0,0,0,0,0,1,0,0,0,0,0,0,0,0,0,0,0,0,0,0,2.31,1238.23,2,0,0.14,0.14,102,7.14,0.14,0.14,13.97,FLYING,X10-F,0:/Integrated Flight Computer/aircraft/x10_f_cfg.ks (inferred preloaded)
14.25,APPROACH,FLY_TO_FIX,195.77,157.7,-38.07,1421.9,-0.85,6.33,6.57,248.16,0.012,0,0,-13.941,1,0.6,4.5,2.507,0.35,0.0168,0.4,14,14,14,38.154,1,248.16,-0.123,0,0,-0.25,0,0,-0.12,248.16,0,0,0,0,0,0,0,42.638,0,0,0,3,0,0,0,2308.87,0,0,0,248.17,0,0,0,0,0,0,0,0,0,0,0,0,0,2,2,0,0,VALID,0,0,0,0,0,1,0,0,0,0,0,0,0,0,0,0,0,0,0,0,2.09,1234.78,2,0,0.14,0.14,104,7.14,0.14,0.14,14.25,FLYING,X10-F,0:/Integrated Flight Computer/aircraft/x10_f_cfg.ks (inferred preloaded)
14.53,APPROACH,FLY_TO_FIX,195.08,157.7,-37.38,1421.68,-0.84,6.4,6.64,248.16,0.014,0,0,-13.802,1,0.6,4.5,2.523,0.35,0.0168,0.4,14,14,14,37.462,1,248.16,-0.123,0,0,-0.25,0,0,-0.12,248.16,0,0,0,0,0,0,0,42.584,0,0,0,3,0,0,0,2306.01,0,0,0,248.17,0,0,0,0,0,0,0,0,0,0,0,0,0,2,2,0,0,VALID,0,0,0,0,0,1,0,0,0,0,0,0,0,0,0,0,0,0,0,0,1.89,1231.32,2,0,0.14,0.14,106,7.14,0.14,0.14,14.53,FLYING,X10-F,0:/Integrated Flight Computer/aircraft/x10_f_cfg.ks (inferred preloaded)
14.81,APPROACH,FLY_TO_FIX,194.38,157.7,-36.68,1421.46,-0.84,6.46,6.7,248.16,0.015,0,0,-13.664,1,0.6,4.5,2.537,0.35,0.0168,0.4,14,14,14,36.77,1,248.16,-0.126,0,0,-0.25,0,0,-0.12,248.16,0,0,0,0,0,0,0,42.529,0,0,0,3,0,0,0,2303.15,0,0,0,248.17,0,0,0,0,0,0,0,0,0,0,0,0,0,2,2,0,0,VALID,0,0,0,0,0,1,0,0,0,0,0,0,0,0,0,0,0,0,0,0,1.71,1227.87,2,0,0.14,0.14,108,7.14,0.14,0.14,14.81,FLYING,X10-F,0:/Integrated Flight Computer/aircraft/x10_f_cfg.ks (inferred preloaded)
15.09,APPROACH,FLY_TO_FIX,193.69,157.7,-35.99,1421.25,-0.83,6.53,6.76,248.16,0.016,0,0,-13.528,1,0.6,4.5,2.551,0.35,0.0168,0.4,14,14,14,36.077,1,248.16,-0.126,0,0,-0.25,0,0,-0.12,248.16,0,0,0,0,0,0,0,42.475,0,0,0,3,0,0,0,2300.3,0,0,0,248.17,0,0,0,0,0,0,0,0,0,0,0,0,0,2,2,0,0,VALID,0,0,0,0,0,1,0,0,0,0,0,0,0,0,0,0,0,0,0,0,1.54,1224.42,2,0,0.14,0.14,110,7.14,0.14,0.14,15.09,FLYING,X10-F,0:/Integrated Flight Computer/aircraft/x10_f_cfg.ks (inferred preloaded)
15.37,APPROACH,FLY_TO_FIX,193,157.7,-35.3,1421.03,-0.83,6.6,6.84,248.16,0.018,0,0,-13.393,1,0.6,4.5,2.564,0.35,0.0168,0.4,14,14,14,35.383,1,248.16,-0.123,0,0,-0.25,0,0,-0.12,248.16,0,0,0,0,0,0,0,42.421,0,0,0,3,0,0,0,2297.46,0,0,0,248.17,0,0,0,0,0,0,0,0,0,0,0,0,0,2,2,0,0,VALID,0,0,0,0,0,1,0,0,0,0,0,0,0,0,0,0,0,0,0,0,1.39,1220.97,2,0,0.14,0.14,112,7.14,0.14,0.14,15.37,FLYING,X10-F,0:/Integrated Flight Computer/aircraft/x10_f_cfg.ks (inferred preloaded)
15.65,APPROACH,FLY_TO_FIX,192.3,157.7,-34.6,1420.82,-0.83,6.67,6.9,248.16,0.017,0,0,-13.259,1,0.6,4.5,2.577,0.35,0.0168,0.4,14,14,14,34.687,1,248.16,-0.125,0,0,-0.25,0,0,-0.12,248.16,0,0,0,0,0,0,0,42.367,0,0,0,3,0,0,0,2294.64,0,0,0,248.17,0,0,0,0,0,0,0,0,0,0,0,0,0,2,2,0,0,VALID,0,0,0,0,0,1,0,0,0,0,0,0,0,0,0,0,0,0,0,0,1.26,1217.52,2,0,0.14,0.14,114,7.14,0.14,0.14,15.65,FLYING,X10-F,0:/Integrated Flight Computer/aircraft/x10_f_cfg.ks (inferred preloaded)
15.93,APPROACH,FLY_TO_FIX,191.6,157.7,-33.9,1420.61,-0.82,6.74,6.97,248.16,0.019,0,0,-13.127,1,0.6,4.5,2.589,0.35,0.0168,0.4,14,14,14,33.991,1,248.16,-0.125,0,0,-0.25,0,0,-0.12,248.16,0,0,0,0,0,0,0,42.313,0,0,0,3,0,0,0,2291.82,0,0,0,248.17,0,0,0,0,0,0,0,0,0,0,0,0,0,2,2,0,0,VALID,0,0,0,0,0,1,0,0,0,0,0,0,0,0,0,0,0,0,0,0,1.14,1214.07,2,0,0.14,0.14,116,7.14,0.14,0.14,15.93,FLYING,X10-F,0:/Integrated Flight Computer/aircraft/x10_f_cfg.ks (inferred preloaded)
16.21,APPROACH,FLY_TO_FIX,190.91,157.7,-33.21,1420.4,-0.82,6.81,7.04,248.16,0.02,0,0,-12.996,1,0.6,4.5,2.6,0.35,0.0168,0.4,14,14,14,33.293,1,248.16,-0.125,0,0,-0.25,0,0,-0.12,248.16,0,0,0,0,0,0,0,42.259,0,0,0,3,0,0,0,2289.01,0,0,0,248.17,0,0,0,0,0,0,0,0,0,0,0,0,0,2,2,0,0,VALID,0,0,0,0,0,1,0,0,0,0,0,0,0,0,0,0,0,0,0,0,1.03,1210.62,2,0,0.14,0.14,118,7.14,0.14,0.14,16.21,FLYING,X10-F,0:/Integrated Flight Computer/aircraft/x10_f_cfg.ks (inferred preloaded)
16.49,APPROACH,FLY_TO_FIX,190.21,157.7,-32.51,1420.19,-0.82,6.88,7.11,248.16,0.02,0,0,-12.867,1,0.6,4.5,2.611,0.35,0.0168,0.4,14,14,14,32.594,1,248.16,-0.125,0,0,-0.25,0,0,-0.12,248.16,0,0,0,0,0,0,0,42.206,0,0,0,3,0,0,0,2286.2,0,0,0,248.17,0,0,0,0,0,0,0,0,0,0,0,0,0,2,2,0,0,VALID,0,0,0,0,0,1,0,0,0,0,0,0,0,0,0,0,0,0,0,0,0.93,1207.17,2,0,0.14,0.14,120,7.14,0.14,0.14,16.49,FLYING,X10-F,0:/Integrated Flight Computer/aircraft/x10_f_cfg.ks (inferred preloaded)
16.77,APPROACH,FLY_TO_FIX,189.51,157.7,-31.81,1419.98,-0.82,6.95,7.19,248.16,0.023,0,0,-12.738,1,0.6,4.5,2.621,0.35,0.0168,0.4,14,14,14,31.894,1,248.16,-0.123,0,0,-0.25,0,0,-0.12,248.16,0,0,0,0,0,0,0,42.153,0,0,0,3,0,0,0,2283.41,0,0,0,248.17,0,0,0,0,0,0,0,0,0,0,0,0,0,2,2,0,0,VALID,0,0,0,0,0,1,0,0,0,0,0,0,0,0,0,0,0,0,0,0,0.84,1203.72,2,0,0.14,0.14,122,7.14,0.14,0.14,16.77,FLYING,X10-F,0:/Integrated Flight Computer/aircraft/x10_f_cfg.ks (inferred preloaded)
17.05,APPROACH,FLY_TO_FIX,188.81,157.7,-31.11,1419.77,-0.81,7.02,7.26,248.16,0.024,0,0,-12.611,1,0.6,4.5,2.631,0.35,0.0168,0.4,14,14,14,31.193,1,248.16,-0.123,0,0,-0.25,0,0,-0.12,248.16,0,0,0,0,0,0,0,42.1,0,0,0,3,0,0,0,2280.63,0,0,0,248.17,0,0,0,0,0,0,0,0,0,0,0,0,0,2,2,0,0,VALID,0,0,0,0,0,1,0,0,0,0,0,0,0,0,0,0,0,0,0,0,0.76,1200.28,2,0,0.14,0.14,124,7.14,0.14,0.14,17.05,FLYING,X10-F,0:/Integrated Flight Computer/aircraft/x10_f_cfg.ks (inferred preloaded)
17.33,APPROACH,FLY_TO_FIX,188.1,157.7,-30.4,1419.57,-0.81,7.1,7.33,248.16,0.024,0,0,-12.485,1,0.6,4.5,2.64,0.35,0.0168,0.4,14,14,14,30.49,1,248.16,-0.124,0,0,-0.25,0,0,-0.12,248.16,0,0,0,0,0,0,0,42.047,0,0,0,3,0,0,0,2277.86,0,0,0,248.17,0,0,0,0,0,0,0,0,0,0,0,0,0,2,2,0,0,VALID,0,0,0,0,0,1,0,0,0,0,0,0,0,0,0,0,0,0,0,0,0.68,1196.83,2,0,0.14,0.14,126,7.14,0.14,0.14,17.33,FLYING,X10-F,0:/Integrated Flight Computer/aircraft/x10_f_cfg.ks (inferred preloaded)
17.61,APPROACH,FLY_TO_FIX,187.4,157.7,-29.7,1419.36,-0.81,7.17,7.41,248.16,0.026,0,0,-12.361,1,0.6,4.5,2.649,0.35,0.0168,0.4,14,14,14,29.786,1,248.16,-0.124,0,0,-0.25,0,0,-0.12,248.16,0,0,0,0,0,0,0,41.994,0,0,0,3,0,0,0,2275.1,0,0,0,248.17,0,0,0,0,0,0,0,0,0,0,0,0,0,2,2,0,0,VALID,0,0,0,0,0,1,0,0,0,0,0,0,0,0,0,0,0,0,0,0,0.62,1193.39,2,0,0.14,0.14,128,7.14,0.14,0.14,17.61,FLYING,X10-F,0:/Integrated Flight Computer/aircraft/x10_f_cfg.ks (inferred preloaded)
17.89,APPROACH,FLY_TO_FIX,186.69,157.7,-28.99,1419.16,-0.8,7.25,7.48,248.16,0.026,0,0,-12.237,1,0.6,4.5,2.658,0.35,0.0168,0.4,14,14,14,29.081,1,248.16,-0.123,0,0,-0.25,0,0,-0.12,248.16,0,0,0,0,0,0,0,41.941,0,0,0,3,0,0,0,2272.34,0,0,0,248.17,0,0,0,0,0,0,0,0,0,0,0,0,0,2,2,0,0,VALID,0,0,0,0,0,1,0,0,0,0,0,0,0,0,0,0,0,0,0,0,0.56,1189.94,2,0,0.14,0.14,130,7.14,0.14,0.14,17.89,FLYING,X10-F,0:/Integrated Flight Computer/aircraft/x10_f_cfg.ks (inferred preloaded)
18.17,APPROACH,FLY_TO_FIX,185.99,157.7,-28.29,1418.96,-0.8,7.33,7.56,248.16,0.025,0,0,-12.115,1,0.6,4.5,2.666,0.35,0.0168,0.4,14,14,14,28.375,1,248.16,-0.123,0,0,-0.25,0,0,-0.12,248.16,0,0,0,0,0,0,0,41.889,0,0,0,3,0,0,0,2269.6,0,0,0,248.17,0,0,0,0,0,0,0,0,0,0,0,0,0,2,2,0,0,VALID,0,0,0,0,0,1,0,0,0,0,0,0,0,0,0,0,0,0,0,0,0.5,1186.5,2,0,0.14,0.14,132,7.14,0.14,0.14,18.17,FLYING,X10-F,0:/Integrated Flight Computer/aircraft/x10_f_cfg.ks (inferred preloaded)
18.45,APPROACH,FLY_TO_FIX,185.28,157.7,-27.58,1418.76,-0.8,7.4,7.64,248.16,0.027,0,0,-11.995,1,0.6,4.5,2.674,0.35,0.0168,0.4,14,14,14,27.667,1,248.16,-0.123,0,0,-0.25,0,0,-0.12,248.16,0,0,0,0,0,0,0,41.837,0,0,0,3,0,0,0,2266.87,0,0,0,248.17,0,0,0,0,0,0,0,0,0,0,0,0,0,2,2,0,0,VALID,0,0,0,0,0,1,0,0,0,0,0,0,0,0,0,0,0,0,0,0,0.46,1183.05,2,0,0.14,0.14,134,7.14,0.14,0.14,18.45,FLYING,X10-F,0:/Integrated Flight Computer/aircraft/x10_f_cfg.ks (inferred preloaded)
18.73,APPROACH,FLY_TO_FIX,184.57,157.7,-26.87,1418.56,-0.8,7.48,7.72,248.16,0.027,0,0,-11.875,1,0.6,4.5,2.682,0.35,0.0168,0.4,14,14,14,26.957,1,248.16,-0.123,0,0,-0.25,0,0,-0.12,248.16,0,0,0,0,0,0,0,41.785,0,0,0,3,0,0,0,2264.14,0,0,0,248.17,0,0,0,0,0,0,0,0,0,0,0,0,0,2,2,0,0,VALID,0,0,0,0,0,1,0,0,0,0,0,0,0,0,0,0,0,0,0,0,0.41,1179.61,2,0,0.14,0.14,136,7.14,0.14,0.14,18.73,FLYING,X10-F,0:/Integrated Flight Computer/aircraft/x10_f_cfg.ks (inferred preloaded)
19.01,APPROACH,FLY_TO_FIX,183.86,157.7,-26.16,1418.36,-0.79,7.57,7.8,248.16,0.028,0,0,-11.756,1,0.6,4.5,2.69,0.35,0.0168,0.4,14,14,14,26.246,1,248.16,-0.122,0,0,-0.25,0,0,-0.12,248.16,0,0,0,0,0,0,0,41.733,0,0,0,3,0,0,0,2261.43,0,0,0,248.17,0,0,0,0,0,0,0,0,0,0,0,0,0,2,2,0,0,VALID,0,0,0,0,0,1,0,0,0,0,0,0,0,0,0,0,0,0,0,0,0.37,1176.16,2,0,0.14,0.14,138,7.14,0.14,0.14,19.01,FLYING,X10-F,0:/Integrated Flight Computer/aircraft/x10_f_cfg.ks (inferred preloaded)
19.29,APPROACH,FLY_TO_FIX,183.14,157.7,-25.44,1418.16,-0.79,7.65,7.89,248.16,0.029,0,0,-11.639,1,0.6,4.5,2.698,0.35,0.0168,0.4,14,14,14,25.533,1,248.16,-0.122,0,0,-0.25,0,0,-0.12,248.16,0,0,0,0,0,0,0,41.681,0,0,0,3,0,0,0,2258.72,0,0,0,248.17,0,0,0,0,0,0,0,0,0,0,0,0,0,2,2,0,0,VALID,0,0,0,0,0,1,0,0,0,0,0,0,0,0,0,0,0,0,0,0,0.34,1172.72,2,0,0.14,0.14,140,7.14,0.14,0.14,19.29,FLYING,X10-F,0:/Integrated Flight Computer/aircraft/x10_f_cfg.ks (inferred preloaded)
19.57,APPROACH,FLY_TO_FIX,182.43,157.7,-24.73,1417.96,-0.79,7.73,7.97,248.16,0.03,0,0,-11.523,1,0.6,4.5,2.706,0.35,0.0168,0.4,14,14,14,24.818,1,248.16,-0.121,0,0,-0.25,0,0,-0.12,248.16,0,0,0,0,0,0,0,41.63,0,0,0,3,0,0,0,2256.03,0,0,0,248.17,0,0,0,0,0,0,0,0,0,0,0,0,0,2,2,0,0,VALID,0,0,0,0,0,1,0,0,0,0,0,0,0,0,0,0,0,0,0,0,0.3,1169.27,2,0,0.14,0.14,142,7.14,0.14,0.14,19.57,FLYING,X10-F,0:/Integrated Flight Computer/aircraft/x10_f_cfg.ks (inferred preloaded)
19.85,APPROACH,FLY_TO_FIX,181.71,157.7,-24.01,1417.76,-0.79,7.82,8.06,248.16,0.03,0,0,-11.408,1,0.6,4.5,2.713,0.35,0.0168,0.4,14,14,14,24.102,1,248.16,-0.121,0,0,-0.25,0,0,-0.12,248.16,0,0,0,0,0,0,0,41.579,0,0,0,3,0,0,0,2253.34,0,0,0,248.17,0,0,0,0,0,0,0,0,0,0,0,0,0,2,2,0,0,VALID,0,0,0,0,0,1,0,0,0,0,0,0,0,0,0,0,0,0,0,0,0.27,1165.82,2,0,0.14,0.14,144,7.14,0.14,0.14,19.85,FLYING,X10-F,0:/Integrated Flight Computer/aircraft/x10_f_cfg.ks (inferred preloaded)
20.13,APPROACH,FLY_TO_FIX,180.99,157.7,-23.29,1417.57,-0.79,7.9,8.14,248.16,0.031,0,0,-11.294,1,0.6,4.5,2.721,0.35,0.0168,0.4,14,14,14,23.383,1,248.16,-0.121,0,0,-0.25,0,0,-0.12,248.16,0,0,0,0,0,0,0,41.528,0,0,0,3,0,0,0,2250.67,0,0,0,248.17,0,0,0,0,0,0,0,0,0,0,0,0,0,2,2,0,0,VALID,0,0,0,0,0,1,0,0,0,0,0,0,0,0,0,0,0,0,0,0,0.25,1162.37,2,0,0.14,0.14,146,7.14,0.14,0.14,20.13,FLYING,X10-F,0:/Integrated Flight Computer/aircraft/x10_f_cfg.ks (inferred preloaded)
20.41,APPROACH,FLY_TO_FIX,180.27,157.7,-22.57,1417.37,-0.78,7.99,8.23,248.16,0.03,0,0,-11.182,1,0.6,4.5,2.728,0.35,0.0168,0.4,14,14,14,22.663,1,248.16,-0.12,0,0,-0.25,0,0,-0.12,248.16,0,0,0,0,0,0,0,41.477,0,0,0,3,0,0,0,2248,0,0,0,248.17,0,0,0,0,0,0,0,0,0,0,0,0,0,2,2,0,0,VALID,0,0,0,0,0,1,0,0,0,0,0,0,0,0,0,0,0,0,0,0,0.22,1158.92,2,0,0.14,0.14,148,7.14,0.14,0.14,20.41,FLYING,X10-F,0:/Integrated Flight Computer/aircraft/x10_f_cfg.ks (inferred preloaded)
20.69,APPROACH,FLY_TO_FIX,179.55,157.7,-21.85,1417.18,-0.78,8.08,8.32,248.16,0.031,0,0,-11.07,1,0.6,4.5,2.735,0.35,0.0168,0.4,14.101,14.101,14.101,21.94,1,248.16,-0.12,0,0,-0.25,0,0,-0.12,248.16,0,0,0,0,0,0,0,41.426,0,0,0,3,0,0,0,2245.35,0,0,0,248.17,0,0,0,0,0,0,0,0,0,0,0,0,0,2,2,0,0,VALID,0,0,0,0,0,1,0,0,0,0,0,0,0,0,0,0,0,0,0,0,0.2,1155.47,2,0,0.14,0.14,150,7.14,0.14,0.14,20.69,FLYING,X10-F,0:/Integrated Flight Computer/aircraft/x10_f_cfg.ks (inferred preloaded)
20.97,APPROACH,FLY_TO_FIX,178.83,157.7,-21.13,1416.99,-0.78,8.17,8.41,248.16,0.032,0,0,-10.96,1,0.6,4.5,2.743,0.35,0.0168,0.4,14.306,14.306,14.306,21.216,1,248.16,-0.119,0,0,-0.25,0,0,-0.12,248.16,0,0,0,0,0,0,0,41.376,0,0,0,3,0,0,0,2242.7,0,0,0,248.17,0,0,0,0,0,0,0,0,0,0,0,0,0,2,2,0,0,VALID,0,0,0,0,0,1,0,0,0,0,0,0,0,0,0,0,0,0,0,0,0.18,1152.01,2,0,0.14,0.14,152,7.14,0.14,0.14,20.97,FLYING,X10-F,0:/Integrated Flight Computer/aircraft/x10_f_cfg.ks (inferred preloaded)
21.25,APPROACH,FLY_TO_FIX,178.1,157.7,-20.4,1416.8,-0.78,8.26,8.5,248.16,0.032,0,0,-10.85,1,0.6,4.5,2.751,0.35,0.0168,0.4,14.51,14.51,14.51,20.489,1,248.16,-0.119,0,0,-0.25,0,0,-0.12,248.16,0,0,0,0,0,0,0,41.326,0,0,0,3,0,0,0,2240.07,0,0,0,248.17,0,0,0,0,0,0,0,0,0,0,0,0,0,2,2,0,0,VALID,0,0,0,0,0,1,0,0,0,0,0,0,0,0,0,0,0,0,0,0,0.17,1148.55,2,0,0.14,0.14,154,7.14,0.14,0.14,21.25,FLYING,X10-F,0:/Integrated Flight Computer/aircraft/x10_f_cfg.ks (inferred preloaded)
21.53,APPROACH,FLY_TO_FIX,177.37,157.7,-19.67,1416.6,-0.78,8.36,8.6,248.16,0.032,0,0,-10.742,1,0.6,4.5,2.758,0.35,0.0168,0.4,14.524,14.716,14.524,19.758,1,248.16,-0.118,0,0,-0.25,0,0,-0.12,248.16,0,0,0,0,0,0,0,41.275,0,0,0,3,0,0,0,2237.44,0,0,0,248.17,0,0,0,0,0,0,0,0,0,0,0,0,0,2,2,0,0,VALID,0,0,0,0,0,1,0,0,0,0,0,0,0,0,0,0,0,0,0,0,0.15,1145.08,2,0,0.14,0.14,156,7.14,0.14,0.14,21.53,FLYING,X10-F,0:/Integrated Flight Computer/aircraft/x10_f_cfg.ks (inferred preloaded)
21.81,APPROACH,FLY_TO_FIX,176.63,157.7,-18.93,1416.41,-0.78,8.45,8.69,248.16,0.032,0,0,-10.635,1,0.6,4.5,2.766,0.35,0.0168,0.4,14.137,14.923,14.137,19.025,1,248.16,-0.118,0,0,-0.25,0,0,-0.12,248.16,0,0,0,0,0,0,0,41.226,0,0,0,3,0,0,0,2234.83,0,0,0,248.17,0,0,0,0,0,0,0,0,0,0,0,0,0,2,2,0,0,VALID,0,0,0,0,0,1,0,0,0,0,0,0,0,0,0,0,0,0,0,0,0.13,1141.61,2,0,0.14,0.14,158,7.14,0.14,0.14,21.81,FLYING,X10-F,0:/Integrated Flight Computer/aircraft/x10_f_cfg.ks (inferred preloaded)
22.09,APPROACH,FLY_TO_FIX,175.9,157.7,-18.2,1416.22,-0.78,8.55,8.79,248.16,0.033,0,0,-10.529,1,0.6,4.5,2.774,0.35,0.0168,0.4,13.732,15.13,13.732,18.291,1,248.16,-0.117,0,0,-0.25,0,0,-0.12,248.16,0,0,0,0,0,0,0,41.176,0,0,0,3,0,0,0,2232.22,0,0,0,248.17,0,0,0,0,0,0,0,0,0,0,0,0,0,2,2,0,0,VALID,0,0,0,0,0,1,0,0,0,0,0,0,0,0,0,0,0,0,0,0,0.12,1138.14,2,0,0.14,0.14,160,7.14,0.14,0.14,22.09,FLYING,X10-F,0:/Integrated Flight Computer/aircraft/x10_f_cfg.ks (inferred preloaded)
22.37,APPROACH,FLY_TO_FIX,175.16,157.7,-17.46,1416.03,-0.78,8.65,8.89,248.16,0.032,0,0,-10.424,1,0.6,4.5,2.782,0.35,0.0168,0.4,13.31,15.337,13.31,17.555,1,248.16,-0.116,0,0,-0.25,0,0,-0.11,248.16,0,0,0,0,0,0,0,41.126,0,0,0,3,0,0,0,2229.63,0,0,0,248.17,0,0,0,0,0,0,0,0,0,0,0,0,0,2,2,0,0,VALID,0,0,0,0,0,1,0,0,0,0,0,0,0,0,0,0,0,0,0,0,0,1134.68,2,0,0.14,0.14,162,7.14,0.14,0.14,22.37,FLYING,X10-F,0:/Integrated Flight Computer/aircraft/x10_f_cfg.ks (inferred preloaded)
22.65,APPROACH,FLY_TO_FIX,174.43,157.7,-16.73,1415.85,-0.77,8.75,8.99,248.16,0.031,0,0,-10.32,1,0.6,4.5,2.79,0.35,0.0168,0.4,12.871,15.545,12.871,16.817,1,248.16,-0.116,0,0,-0.25,0,0,-0.11,248.16,0,0,0,0,0,0,0,41.077,0,0,0,3,0,0,0,2227.04,0,0,0,248.17,0,0,0,0,0,0,0,0,0,0,0,0,0,2,2,0,0,VALID,0,0,0,0,0,1,0,0,0,0,0,0,0,0,0,0,0,0,0,0,0,1131.21,2,0,0.14,0.14,164,7.14,0.14,0.14,22.65,FLYING,X10-F,0:/Integrated Flight Computer/aircraft/x10_f_cfg.ks (inferred preloaded)
22.93,APPROACH,FLY_TO_FIX,173.69,157.7,-15.99,1415.66,-0.77,8.85,9.1,248.16,0.033,0,0,-10.217,1,0.6,4.5,2.798,0.35,0.0168,0.4,12.414,15.753,12.414,16.078,1,248.16,-0.115,0,0,-0.25,0,0,-0.11,248.16,0,0,0,0,0,0,0,41.028,0,0,0,3,0,0,0,2224.47,0,0,0,248.17,0,0,0,0,0,0,0,0,0,0,0,0,0,2,2,0,0,VALID,0,0,0,0,0,1,0,0,0,0,0,0,0,0,0,0,0,0,0,0,0,1127.75,2,0,0.14,0.14,166,7.14,0.14,0.14,22.93,FLYING,X10-F,0:/Integrated Flight Computer/aircraft/x10_f_cfg.ks (inferred preloaded)
23.21,APPROACH,FLY_TO_FIX,172.94,157.7,-15.24,1415.47,-0.77,8.95,9.2,248.16,0.034,0,0,-10.115,1,0.6,4.5,2.806,0.35,0.0168,0.4,11.939,15.962,11.939,15.337,1,248.16,-0.114,0,0,-0.26,0,0,-0.11,248.16,0,0,0,0,0,0,0,40.979,0,0,0,3,0,0,0,2221.9,0,0,0,248.17,0,0,0,0,0,0,0,0,0,0,0,0,0,2,2,0,0,VALID,0,0,0,0,0,1,0,0,0,0,0,0,0,0,0,0,0,0,0,0,0,1124.28,2,0,0.14,0.14,168,7.14,0.14,0.14,23.21,FLYING,X10-F,0:/Integrated Flight Computer/aircraft/x10_f_cfg.ks (inferred preloaded)
23.49,APPROACH,FLY_TO_FIX,172.2,157.7,-14.5,1415.29,-0.77,9.06,9.31,248.16,0.032,0,0,-10.014,1,0.6,4.5,2.813,0.35,0.0168,0.4,11.446,16.172,11.446,14.595,1,248.16,-0.114,0,0,-0.26,0,0,-0.11,248.16,0,0,0,0,0,0,0,40.93,0,0,0,3,0,0,0,2219.35,0,0,0,248.17,0,0,0,0,0,0,0,0,0,0,0,0,0,2,2,0,0,VALID,0,0,0,0,0,1,0,0,0,0,0,0,0,0,0,0,0,0,0,0,0,1120.82,2,0,0.14,0.14,170,7.14,0.14,0.14,23.49,FLYING,X10-F,0:/Integrated Flight Computer/aircraft/x10_f_cfg.ks (inferred preloaded)
23.77,APPROACH,FLY_TO_FIX,171.46,157.7,-13.76,1415.1,-0.77,9.16,9.41,248.16,0.032,0,0,-9.914,1,0.6,4.5,2.821,0.35,0.0168,0.4,10.936,16.381,10.936,13.85,1,248.16,-0.113,0,0,-0.26,0,0,-0.11,248.16,0,0,0,0,0,0,0,40.882,0,0,0,3,0,0,0,2216.81,0,0,0,248.17,0,0,0,0,0,0,0,0,0,0,0,0,0,2,2,0,0,VALID,0,0,0,0,0,1,0,0,0,0,0,0,0,0,0,0,0,0,0,0,0,1117.35,2,0,0.14,0.14,172,7.14,0.14,0.14,23.77,FLYING,X10-F,0:/Integrated Flight Computer/aircraft/x10_f_cfg.ks (inferred preloaded)
24.05,APPROACH,FLY_TO_FIX,170.71,157.7,-13.01,1414.92,-0.77,9.27,9.52,248.16,0.03,0,0,-9.815,1,0.6,4.5,2.829,0.35,0.0168,0.4,10.406,16.592,10.406,13.103,1,248.16,-0.112,0,0,-0.26,0,0,-0.11,248.16,0,0,0,0,0,0,0,40.833,0,0,0,3,0,0,0,2214.27,0,0,0,248.17,0,0,0,0,0,0,0,0,0,0,0,0,0,2,2,0,0,VALID,0,0,0,0,0,1,0,0,0,0,0,0,0,0,0,0,0,0,0,0,0,1113.89,2,0,0.14,0.14,174,7.14,0.14,0.14,24.05,FLYING,X10-F,0:/Integrated Flight Computer/aircraft/x10_f_cfg.ks (inferred preloaded)
24.33,APPROACH,FLY_TO_FIX,169.96,157.7,-12.26,1414.73,-0.77,9.38,9.64,248.16,0.028,0,0,-9.717,1,0.6,4.5,2.836,0.35,0.0168,0.4,9.858,16.803,9.858,12.354,1,248.16,-0.111,0,0,-0.26,0,0,-0.11,248.16,0,0,0,0,0,0,0,40.785,0,0,0,3,0,0,0,2211.75,0,0,0,248.17,0,0,0,0,0,0,0,0,0,0,0,0,0,2,2,0,0,VALID,0,0,0,0,0,1,0,0,0,0,0,0,0,0,0,0,0,0,0,0,0,1110.42,2,0,0.14,0.14,176,7.14,0.14,0.14,24.33,FLYING,X10-F,0:/Integrated Flight Computer/aircraft/x10_f_cfg.ks (inferred preloaded)
24.61,APPROACH,FLY_TO_FIX,169.21,157.7,-11.51,1414.55,-0.77,9.5,9.75,248.16,0.025,0,0,-9.621,1,0.6,4.5,2.844,0.35,0.0168,0.4,9.291,17.015,9.291,11.602,1,248.16,-0.111,0,0,-0.26,0,0,-0.11,248.16,0,0,0,0,0,0,0,40.737,0,0,0,3,0,0,0,2209.24,0,0,0,248.17,0,0,0,0,0,0,0,0,0,0,0,0,0,2,2,0,0,VALID,0,0,0,0,0,1,0,0,0,0,0,0,0,0,0,0,0,0,0,0,0,1106.95,2,0,0.14,0.14,178,7.14,0.14,0.14,24.61,FLYING,X10-F,0:/Integrated Flight Computer/aircraft/x10_f_cfg.ks (inferred preloaded)
24.89,APPROACH,FLY_TO_FIX,168.45,157.7,-10.75,1414.37,-0.77,9.61,9.87,248.16,0.024,0,0,-11.091,1,0.6,4.5,2.852,0.35,0.0168,0.4,8.704,17.228,8.704,10.847,1,248.16,-0.11,0,0,-0.26,0,0,-0.11,248.16,0,0,0,0,0,0,0,40.689,0,0,0,3,0,0,0,2206.74,0,0,0,248.17,0,0,0,0,0,0,0,0,0,0,0,0,0,2,2,0,0,VALID,0,0,0,0,0,1,0,0,0,0,0,0,0,0,0,0,0,0,0,0,0,1103.48,2,0,0.14,0.14,180,7.14,0.14,0.14,24.89,FLYING,X10-F,0:/Integrated Flight Computer/aircraft/x10_f_cfg.ks (inferred preloaded)
25.17,APPROACH,FLY_TO_FIX,167.7,157.7,-10,1414.19,-0.77,9.73,9.98,248.16,0.025,0,0,-13.969,1,0.6,4.5,2.86,0.35,0.0168,0.4,8.098,17.441,8.098,10.09,1,248.16,-0.109,0,0,-0.26,0,0,-0.11,248.16,0,0,0,0,0,0,0,40.642,0,0,0,3,0,0,0,2204.24,0,0,0,248.17,0,0,0,0,0,0,0,0,0,0,0,0,0,2,2,0,0,VALID,0,0,0,0,0,1,0,0,0,0,0,0,0,0,0,0,0,0,0,0,0,1100.01,2,0,0.14,0.14,182,7.14,0.14,0.14,25.17,FLYING,X10-F,0:/Integrated Flight Computer/aircraft/x10_f_cfg.ks (inferred preloaded)
25.45,APPROACH,FLY_TO_FIX,166.93,157.7,-9.23,1414,-0.77,9.85,10.1,248.16,0.025,0.0118,0,-16.635,1,0.6,4.5,2.868,0.35,0.0168,0.4,7.472,17.655,7.472,9.33,1,248.16,-0.108,0,0,-0.26,0,0,-0.11,248.16,0,0,0,0,0,0,0,40.595,0,0,0,3,0,0,0,2201.76,0,0,0,248.17,0,0,0,0,0,0,0,0,0,0,0,0,0,2,2,0,0,VALID,0,0,0,0,0,1,0,0,0,0,0,0,0,0,0,0,0,0,0,0,0.18,1096.53,2,0,0.14,0.14,184,7.14,0.14,0.14,25.45,FLYING,X10-F,0:/Integrated Flight Computer/aircraft/x10_f_cfg.ks (inferred preloaded)
25.73,APPROACH,FLY_TO_FIX,166.17,157.7,-8.47,1413.82,-0.77,9.97,10.23,248.16,0.025,0.0272,0,-19.087,1,0.6,4.5,2.877,0.35,0.0168,0.4,6.827,17.87,6.827,8.567,1,248.16,-0.107,0,0,-0.26,0,0,-0.11,248.16,0,0,0,0,0,0,0,40.547,0,0,0,3,0,0,0,2199.29,0,0,0,248.17,0,0,0,0,0,0,0,0,0,0,0,0,0,2,2,0,0,VALID,0,0,0,0,0,1,0,0,0,0,0,0,0,0,0,0,0,0,0,0,0.99,1093.05,2,0,0.14,0.14,186,7.14,0.14,0.14,25.73,FLYING,X10-F,0:/Integrated Flight Computer/aircraft/x10_f_cfg.ks (inferred preloaded)
26.01,APPROACH,FLY_TO_FIX,165.41,157.7,-7.71,1413.64,-0.77,10.09,10.35,248.16,0.026,0.0679,0,-20,1,0.6,4.5,2.885,0.35,0.0168,0.4,6.162,18.085,6.162,7.804,1,248.16,-0.107,0,0,-0.27,0,0,-0.11,248.16,0,0,0,0,0,0,0,40.501,0,0,0,3,0,0,0,2196.83,0,0,0,248.17,0,0,0,0,0,0,0,0,0,0,0,0,0,2,2,0,0,VALID,0,0,0,0,0,1,0,0,0,0,0,0,0,0,0,0,0,0,0,0,2.78,1089.58,2,0,0.14,0.14,188,7.14,0.14,0.14,26.01,FLYING,X10-F,0:/Integrated Flight Computer/aircraft/x10_f_cfg.ks (inferred preloaded)
26.29,APPROACH,FLY_TO_FIX,164.65,157.7,-6.95,1413.46,-0.76,10.21,10.47,248.16,0.026,0.1221,0,-20,1,0.6,4.5,2.889,0.35,0.0168,0.4,0,18.3,0,7.041,0,248.16,-0.107,0,0,-0.27,0,0,-0.1,248.16,0,0,0,0,0,0,0,40.454,0,0,0,3,0,0,0,2194.38,0,0,0,248.17,0,0,0,0,0,0,0,0,0,0,0,0,0,2,2,0,0,VALID,0,0,0,0,0,1,0,0,0,0,0,0,0,0,0,0,0,0,0,0,7.07,1086.13,2,0,0.14,0.14,190,7.14,0.14,0.14,26.29,FLYING,X10-F,0:/Integrated Flight Computer/aircraft/x10_f_cfg.ks (inferred preloaded)
26.57,APPROACH,FLY_TO_FIX,163.9,157.7,-6.2,1413.28,-0.76,10.33,10.58,248.16,0.026,0.1713,0,-20,1,0.6,4.5,2.889,0.35,0.0168,0.4,0,18.512,0,6.288,0,248.16,-0.107,0,0,-0.27,0,0,-0.1,248.16,0,0,0,0,0,0,0,40.407,0,0,0,3,0,0,0,2191.95,0,0,0,248.17,0,0,0,0,0,0,0,0,0,0,0,0,0,2,2,0,0,VALID,0,0,0,0,0,1,0,0,0,0,0,0,0,0,0,0,0,0,0,0,14.28,1082.73,2,0,0.14,0.14,192,7.14,0.14,0.14,26.57,FLYING,X10-F,0:/Integrated Flight Computer/aircraft/x10_f_cfg.ks (inferred preloaded)
26.85,APPROACH,FLY_TO_FIX,163.16,157.7,-5.46,1413.1,-0.75,10.43,10.69,248.16,0.028,0.2121,0,-20,1,0.6,4.5,2.889,0.35,0.0168,0.4,0,18.72,0,5.553,0,248.16,-0.108,0,0,-0.27,0,0,-0.11,248.16,0,0,0,0,0,0,0,40.361,0,0,0,3,0,0,0,2189.52,0,0,0,248.17,0,0,0,0,0,0,0,0,0,0,0,0,0,2,2,0,0,VALID,0,0,0,0,0,1,0,0,0,0,0,0,0,0,0,0,0,0,0,0,23.87,1079.43,2,0,0.14,0.14,194,7.14,0.14,0.14,26.85,FLYING,X10-F,0:/Integrated Flight Computer/aircraft/x10_f_cfg.ks (inferred preloaded)
27.13,APPROACH,FLY_TO_FIX,162.45,157.7,-4.75,1412.92,-0.75,10.53,10.78,248.16,0.028,0.2446,0,-20,1,0.6,4.5,2.889,0.35,0.0168,0.4,0,18.92,0,4.842,0,248.16,-0.109,0,0,-0.26,0,0,-0.11,248.16,0,0,0,0,0,0,0,40.315,0,0,0,3,0,0,0,2187.1,0,0,0,248.17,0,0,0,0,0,0,0,0,0,0,0,0,0,2,2,0,0,VALID,0,0,0,0,0,1,0,0,0,0,0,0,0,0,0,0,0,0,0,0,35.23,1076.25,2,0,0.14,0.14,196,7.14,0.14,0.14,27.13,FLYING,X10-F,0:/Integrated Flight Computer/aircraft/x10_f_cfg.ks (inferred preloaded)
27.41,APPROACH,FLY_TO_FIX,161.78,157.7,-4.08,1412.73,-0.74,10.62,10.87,248.16,0.03,0.2685,0,-20,1,0.6,4.5,2.889,0.35,0.0168,0.4,0,19.113,0,4.158,0,248.16,-0.11,0,0,-0.26,0,0,-0.11,248.16,0,0,0,0,0,0,0,40.269,0,0,0,3,0,0,0,2184.69,0,0,0,248.17,0,0,0,0,0,0,0,0,0,0,0,0,0,2,2,0,0,VALID,0,0,0,0,0,1,0,0,0,0,0,0,0,0,0,0,0,0,0,0,47.74,1073.21,2,0,0.14,0.14,198,7.14,0.14,0.14,27.41,FLYING,X10-F,0:/Integrated Flight Computer/aircraft/x10_f_cfg.ks (inferred preloaded)
27.69,APPROACH,FLY_TO_FIX,161.13,157.7,-3.43,1412.55,-0.73,10.7,10.95,248.16,0.03,0.2841,0,-20,1,0.6,4.5,2.889,0.35,0.0168,0.4,0,19.296,0,3.508,0,248.16,-0.111,0,0,-0.26,0,0,-0.11,248.16,0,0,0,0,0,0,0,40.223,0,0,0,3,0,0,0,2182.29,0,0,0,248.17,0,0,0,0,0,0,0,0,0,0,0,0,0,2,2,0,0,VALID,0,0,0,0,0,1,0,0,0,0,0,0,0,0,0,0,0,0,0,0,60.84,1070.32,2,0,0.14,0.14,200,7.14,0.14,0.14,27.69,FLYING,X10-F,0:/Integrated Flight Computer/aircraft/x10_f_cfg.ks (inferred preloaded)
27.97,APPROACH,FLY_TO_FIX,160.52,157.7,-2.82,1412.37,-0.73,10.78,11.02,248.16,0.029,0.2923,0,-20,1,0.6,4.5,2.889,0.35,0.0168,0.4,0,19.47,0,2.892,0,248.16,-0.113,0,0,-0.26,0,0,-0.11,248.16,0,0,0,0,0,0,0,40.177,0,0,0,3,0,0,0,2179.9,0,0,0,248.17,0,0,0,0,0,0,0,0,0,0,0,0,0,2,2,0,0,VALID,0,0,0,0,0,1,0,0,0,0,0,0,0,0,0,0,0,0,0,0,74,1067.59,2,0,0.14,0.14,202,7.14,0.14,0.14,27.97,FLYING,X10-F,0:/Integrated Flight Computer/aircraft/x10_f_cfg.ks (inferred preloaded)
28.25,APPROACH,FLY_TO_FIX,159.94,157.7,-2.24,1412.19,-0.72,10.85,11.09,248.16,0.027,0.2945,0,-20,1,0.6,4.5,2.889,0.35,0.0168,0.4,0,19.633,0,2.311,0,248.16,-0.114,0,0,-0.26,0,0,-0.11,248.16,0,0,0,0,0,0,0,40.132,0,0,0,3,0,0,0,2177.52,0,0,0,248.17,0,0,0,0,0,0,0,0,0,0,0,0,0,2,2,0,0,VALID,0,0,0,0,0,1,0,0,0,0,0,0,0,0,0,0,0,0,0,0,86.82,1065.04,2,0,0.14,0.14,204,7.14,0.14,0.14,28.25,FLYING,X10-F,0:/Integrated Flight Computer/aircraft/x10_f_cfg.ks (inferred preloaded)
28.53,APPROACH,FLY_TO_FIX,159.4,157.7,-1.7,1412,-0.71,10.91,11.15,248.16,0.026,0.2922,0,-20,1,0.6,4.5,2.889,0.35,0.0168,0.4,0,19.787,0,1.766,0,248.16,-0.115,0,0,-0.26,0,0,-0.11,248.16,0,0,0,0,0,0,0,40.087,0,0,0,3,0,0,0,2175.14,0,0,0,248.17,0,0,0,0,0,0,0,0,0,0,0,0,0,2,2,0,0,VALID,0,0,0,0,0,1,0,0,0,0,0,0,0,0,0,0,0,0,0,0,98.98,1062.64,2,0,0.14,0.14,206,7.14,0.14,0.14,28.53,FLYING,X10-F,0:/Integrated Flight Computer/aircraft/x10_f_cfg.ks (inferred preloaded)
28.81,APPROACH,FLY_TO_FIX,158.89,157.7,-1.19,1411.82,-0.7,10.97,11.21,248.16,0.026,0.287,0,-20,1,0.6,4.5,2.889,0.35,0.0168,0.4,0,19.931,0,1.255,0,248.16,-0.117,0,0,-0.25,0,0,-0.11,248.16,0,0,0,0,0,0,0,40.041,0,0,0,3,0,0,0,2172.77,0,0,0,248.17,0,0,0,0,0,0,0,0,0,0,0,0,0,2,2,0,0,VALID,0,0,0,0,0,1,0,0,0,0,0,0,0,0,0,0,0,0,0,0,110.27,1060.4,2,0,0.14,0.14,208,7.14,0.14,0.14,28.81,FLYING,X10-F,0:/Integrated Flight Computer/aircraft/x10_f_cfg.ks (inferred preloaded)
29.09,APPROACH,FLY_TO_FIX,158.42,157.7,-0.72,1411.64,-0.7,11.02,11.26,248.16,0.023,0.2802,0,-20,1,0.6,4.5,2.889,0.35,0.0168,0.4,0,20.066,0,0.775,0,248.16,-0.117,0,0,-0.25,0,0,-0.11,248.16,0,0,0,0,0,0,0,39.996,0,0,0,3,0,0,0,2170.41,0,0,0,248.17,0,0,0,0,0,0,0,0,0,0,0,0,0,2,2,0,0,VALID,0,0,0,0,0,1,0,0,0,0,0,0,0,0,0,0,0,0,0,0,120.59,1058.3,2,0,0.14,0.14,210,7.14,0.14,0.14,29.09,FLYING,X10-F,0:/Integrated Flight Computer/aircraft/x10_f_cfg.ks (inferred preloaded)
29.37,APPROACH,FLY_TO_FIX,157.97,157.7,-0.27,1411.46,-0.69,11.07,11.31,248.16,0.023,0.2731,0,-20,1,0.6,4.5,2.889,0.35,0.0168,0.4,0,20.193,0,0.324,0,248.16,-0.118,0,0,-0.25,0,0,-0.12,248.16,0,0,0,0,0,0,0,39.951,0,0,0,3,0,0,0,2168.05,0,0,0,248.17,0,0,0,0,0,0,0,0,0,0,0,0,0,2,2,0,0,VALID,0,0,0,0,0,1,0,0,0,0,0,0,0,0,0,0,0,0,0,0,129.91,1056.33,2,0,0.14,0.14,212,7.14,0.14,0.14,29.37,FLYING,X10-F,0:/Integrated Flight Computer/aircraft/x10_f_cfg.ks (inferred preloaded)
29.65,APPROACH,FLY_TO_FIX,157.55,157.7,0.15,1411.28,-0.69,11.12,11.36,248.16,0.023,0.2666,0,-19.986,1,0.6,4.5,2.889,0.35,0.0168,0.4,0,20.313,0,-0.101,0,248.16,-0.118,0,0,-0.25,0,0,-0.12,248.16,0,0,0,0,0,0,0,39.907,0,0,0,3,0,0,0,2165.7,0,0,0,248.17,0,0,0,0,0,0,0,0,0,0,0,0,0,2,2,0,0,VALID,0,0,0,0,0,1,0,0,0,0,0,0,0,0,0,0,0,0,0,0,138.28,1054.47,2,0,0.14,0.14,214,7.14,0.14,0.14,29.65,FLYING,X10-F,0:/Integrated Flight Computer/aircraft/x10_f_cfg.ks (inferred preloaded)
29.93,APPROACH,FLY_TO_FIX,157.15,157.7,0.55,1411.11,-0.69,11.17,11.41,248.16,0.025,0.2631,0,-19.873,1,0.6,4.5,2.889,0.35,0.0168,0.4,0,20.426,0,-0.503,0,248.16,-0.119,0,0,-0.25,0,0,-0.12,248.16,0,0,0,0,0,0,0,39.862,0,0,0,3,0,0,0,2163.36,0,0,0,248.17,0,0,0,0,0,0,0,0,0,0,0,0,0,2,2,0,0,VALID,0,0,0,0,0,1,0,0,0,0,0,0,0,0,0,0,0,0,0,0,145.82,1052.72,2,0,0.14,0.14,216,7.14,0.14,0.14,29.93,FLYING,X10-F,0:/Integrated Flight Computer/aircraft/x10_f_cfg.ks (inferred preloaded)
30.21,APPROACH,FLY_TO_FIX,156.77,157.7,0.93,1410.93,-0.68,11.22,11.45,248.16,0.024,0.2628,0,-19.651,1,0.6,4.5,2.889,0.35,0.0168,0.4,0,20.534,0,-0.885,0,248.16,-0.119,0,0,-0.25,0,0,-0.12,248.16,0,0,0,0,0,0,0,39.817,0,0,0,3,0,0,0,2161.02,0,0,0,248.17,0,0,0,0,0,0,0,0,0,0,0,0,0,2,2,0,0,VALID,0,0,0,0,0,1,0,0,0,0,0,0,0,0,0,0,0,0,0,0,152.74,1051.07,2,0,0.14,0.14,218,7.14,0.14,0.14,30.21,FLYING,X10-F,0:/Integrated Flight Computer/aircraft/x10_f_cfg.ks (inferred preloaded)
30.49,APPROACH,FLY_TO_FIX,156.41,157.7,1.29,1410.75,-0.68,11.27,11.5,248.16,0.023,0.2654,0,-19.327,1,0.6,4.5,2.889,0.35,0.0168,0.4,0,20.636,0,-1.247,0,248.16,-0.12,0,0,-0.24,0,0,-0.12,248.16,0,0,0,0,0,0,0,39.773,0,0,0,3,0,0,0,2158.69,0,0,0,248.17,0,0,0,0,0,0,0,0,0,0,0,0,0,2,2,0,0,VALID,0,0,0,0,0,1,0,0,0,0,0,0,0,0,0,0,0,0,0,0,159.27,1049.49,2,0,0.14,0.14,220,7.14,0.14,0.14,30.49,FLYING,X10-F,0:/Integrated Flight Computer/aircraft/x10_f_cfg.ks (inferred preloaded)
30.77,APPROACH,FLY_TO_FIX,156.07,157.7,1.63,1410.58,-0.67,11.31,11.54,248.16,0.024,0.2707,0,-18.905,1,0.6,4.5,2.889,0.35,0.0168,0.4,0,20.733,0,-1.592,0,248.16,-0.121,0,0,-0.24,0,0,-0.12,248.16,0,0,0,0,0,0,0,39.728,0,0,0,3,0,0,0,2156.36,0,0,0,248.17,0,0,0,0,0,0,0,0,0,0,0,0,0,2,2,0,0,VALID,0,0,0,0,0,1,0,0,0,0,0,0,0,0,0,0,0,0,0,0,165.6,1048,2,0,0.14,0.14,222,7.14,0.14,0.14,30.77,FLYING,X10-F,0:/Integrated Flight Computer/aircraft/x10_f_cfg.ks (inferred preloaded)
31.05,APPROACH,FLY_TO_FIX,155.74,157.7,1.96,1410.41,-0.67,11.35,11.58,248.16,0.023,0.2781,0,-18.39,1,0.6,4.5,2.889,0.35,0.0168,0.4,0,20.826,0,-1.92,0,248.16,-0.123,0,0,-0.24,0,0,-0.12,248.16,0,0,0,0,0,0,0,39.684,0,0,0,3,0,0,0,2154.04,0,0,0,248.17,0,0,0,0,0,0,0,0,0,0,0,0,0,2,2,0,0,VALID,0,0,0,0,0,1,0,0,0,0,0,0,0,0,0,0,0,0,0,0,171.87,1046.58,2,0,0.14,0.14,224,7.14,0.14,0.14,31.05,FLYING,X10-F,0:/Integrated Flight Computer/aircraft/x10_f_cfg.ks (inferred preloaded)
31.33,APPROACH,FLY_TO_FIX,155.43,157.7,2.27,1410.23,-0.65,11.39,11.62,248.16,0.025,0.2867,0,-17.787,1,0.6,4.5,2.889,0.35,0.0168,0.4,0,20.913,0,-2.231,0,248.16,-0.121,0,0,-0.24,0,0,-0.12,248.16,0,0,0,0,0,0,0,39.64,0,0,0,3,0,0,0,2151.72,0,0,0,248.17,0,0,0,0,0,0,0,0,0,0,0,0,0,2,2,0,0,VALID,0,0,0,0,0,1,0,0,0,0,0,0,0,0,0,0,0,0,0,0,178.22,1045.24,2,0,0.14,0.14,226,7.14,0.14,0.14,31.33,FLYING,X10-F,0:/Integrated Flight Computer/aircraft/x10_f_cfg.ks (inferred preloaded)
31.61,APPROACH,FLY_TO_FIX,155.14,157.7,2.56,1410.06,-0.65,11.43,11.65,248.16,0.026,0.2962,0,-17.1,1,0.6,4.5,2.889,0.35,0.0168,0.4,0,20.996,0,-2.525,0,248.16,-0.124,0,0,-0.24,0,0,-0.12,248.16,0,0,0,0,0,0,0,39.595,0,0,0,3,0,0,0,2149.4,0,0,0,248.17,0,0,0,0,0,0,0,0,0,0,0,0,0,2,2,0,0,VALID,0,0,0,0,0,1,0,0,0,0,0,0,0,0,0,0,0,0,0,0,184.71,1043.98,2,0,0.14,0.14,228,7.14,0.14,0.14,31.61,FLYING,X10-F,0:/Integrated Flight Computer/aircraft/x10_f_cfg.ks (inferred preloaded)
31.89,APPROACH,FLY_TO_FIX,154.87,157.7,2.83,1409.88,-0.65,11.46,11.68,248.16,0.023,0.3058,0,-16.335,1,0.6,4.5,2.889,0.35,0.0168,0.4,0,21.074,0,-2.801,0,248.16,-0.124,0,0,-0.24,0,0,-0.12,248.16,0,0,0,0,0,0,0,39.551,0,0,0,3,0,0,0,2147.09,0,0,0,248.17,0,0,0,0,0,0,0,0,0,0,0,0,0,2,2,0,0,VALID,0,0,0,0,0,1,0,0,0,0,0,0,0,0,0,0,0,0,0,0,191.37,1042.79,2,0,0.14,0.14,230,7.14,0.14,0.14,31.89,FLYING,X10-F,0:/Integrated Flight Computer/aircraft/x10_f_cfg.ks (inferred preloaded)
32.17,APPROACH,FLY_TO_FIX,154.61,157.7,3.09,1409.71,-0.64,11.48,11.7,248.16,0.022,0.315,0,-15.496,1,0.6,4.5,2.889,0.35,0.0168,0.4,0,21.146,0,-3.058,0,248.16,-0.125,0,0,-0.24,0,0,-0.12,248.16,0,0,0,0,0,0,0,39.507,0,0,0,3,0,0,0,2144.78,0,0,0,248.17,0,0,0,0,0,0,0,0,0,0,0,0,0,2,2,0,0,VALID,0,0,0,0,0,1,0,0,0,0,0,0,0,0,0,0,0,0,0,0,198.2,1041.69,2,0,0.14,0.14,232,7.14,0.14,0.14,32.17,FLYING,X10-F,0:/Integrated Flight Computer/aircraft/x10_f_cfg.ks (inferred preloaded)
32.45,APPROACH,FLY_TO_FIX,154.38,157.7,3.32,1409.54,-0.64,11.51,11.72,248.16,0.024,0.3239,0,-14.59,1,0.6,4.5,2.889,0.35,0.0168,0.4,0,21.213,0,-3.296,0,248.16,-0.125,0,0,-0.24,0,0,-0.12,248.16,0,0,0,0,0,0,0,39.463,0,0,0,3,0,0,0,2142.48,0,0,0,248.17,0,0,0,0,0,0,0,0,0,0,0,0,0,2,2,0,0,VALID,0,0,0,0,0,1,0,0,0,0,0,0,0,0,0,0,0,0,0,0,205.16,1040.68,2,0,0.14,0.14,234,7.14,0.14,0.14,32.45,FLYING,X10-F,0:/Integrated Flight Computer/aircraft/x10_f_cfg.ks (inferred preloaded)
32.73,APPROACH,FLY_TO_FIX,154.16,157.7,3.54,1409.37,-0.63,11.53,11.74,248.16,0.023,0.332,0,-13.62,1,0.6,4.5,2.889,0.35,0.0168,0.4,0,21.275,0,-3.515,0,248.16,-0.126,0,0,-0.23,0,0,-0.12,248.16,0,0,0,0,0,0,0,39.419,0,0,0,3,0,0,0,2140.17,0,0,0,248.17,0,0,0,0,0,0,0,0,0,0,0,0,0,2,2,0,0,VALID,0,0,0,0,0,1,0,0,0,0,0,0,0,0,0,0,0,0,0,0,212.24,1039.74,2,0,0.14,0.14,236,7.14,0.14,0.14,32.73,FLYING,X10-F,0:/Integrated Flight Computer/aircraft/x10_f_cfg.ks (inferred preloaded)
33.01,APPROACH,FLY_TO_FIX,153.96,157.7,3.74,1409.2,-0.63,11.54,11.75,248.16,0.025,0.3393,0,-12.594,1,0.6,4.5,2.889,0.35,0.0168,0.4,0,21.331,0,-3.715,0,248.16,-0.127,0,0,-0.23,0,0,-0.12,248.16,0,0,0,0,0,0,0,39.376,0,0,0,3,0,0,0,2137.87,0,0,0,248.17,0,0,0,0,0,0,0,0,0,0,0,0,0,2,2,0,0,VALID,0,0,0,0,0,1,0,0,0,0,0,0,0,0,0,0,0,0,0,0,219.38,1038.9,2,0,0.14,0.14,238,7.14,0.14,0.14,33.01,FLYING,X10-F,0:/Integrated Flight Computer/aircraft/x10_f_cfg.ks (inferred preloaded)
33.29,APPROACH,FLY_TO_FIX,153.79,157.7,3.91,1409.02,-0.62,11.55,11.77,248.16,0.023,0.3457,0,-11.516,1,0.6,4.5,2.889,0.35,0.0168,0.4,0,21.382,0,-3.894,0,248.16,-0.127,0,0,-0.23,0.01,0,-0.13,248.16,0,0,0,0,0,0,0,39.332,0,0,0,3,0,0,0,2135.58,0,0,0,248.17,0,0,0,0,0,0,0,0,0,0,0,0,0,2,2,0,0,VALID,0,0,0,0,0,1,0,0,0,0,0,0,0,0,0,0,0,0,0,0,226.54,1038.14,2,0,0.14,0.14,240,7.14,0.14,0.14,33.29,FLYING,X10-F,0:/Integrated Flight Computer/aircraft/x10_f_cfg.ks (inferred preloaded)
33.57,APPROACH,FLY_TO_FIX,153.63,157.7,4.07,1408.85,-0.62,11.56,11.77,248.16,0.026,0.351,0,-10.392,1,0.6,4.5,2.889,0.35,0.0168,0.4,0,21.427,0,-4.053,0,248.16,-0.128,0,0,-0.23,0.01,0,-0.13,248.16,0,0,0,0,0,0,0,39.288,0,0,0,3,0,0,0,2133.28,0,0,0,248.17,0,0,0,0,0,0,0,0,0,0,0,0,0,2,2,0,0,VALID,0,0,0,0,0,1,0,0,0,0,0,0,0,0,0,0,0,0,0,0,233.66,1037.47,2,0,0.14,0.14,242,7.14,0.14,0.14,33.57,FLYING,X10-F,0:/Integrated Flight Computer/aircraft/x10_f_cfg.ks (inferred preloaded)
33.85,APPROACH,FLY_TO_FIX,153.49,157.7,4.21,1408.68,-0.61,11.57,11.78,248.16,0.025,0.3554,0,-9.228,1,0.6,4.5,2.889,0.35,0.0168,0.4,0,21.466,0,-4.191,0,248.16,-0.129,0,0,-0.23,0.01,0,-0.13,248.16,0,0,0,0,0,0,0,39.244,0,0,0,3,0,0,0,2130.99,0,0,0,248.17,0,0,0,0,0,0,0,0,0,0,0,0,0,2,2,0,0,VALID,0,0,0,0,0,1,0,0,0,0,0,0,0,0,0,0,0,0,0,0,240.69,1036.89,2,0,0.14,0.14,244,7.14,0.14,0.14,33.85,FLYING,X10-F,0:/Integrated Flight Computer/aircraft/x10_f_cfg.ks (inferred preloaded)
34.13,APPROACH,FLY_TO_FIX,153.38,157.7,4.32,1408.51,-0.6,11.57,11.77,248.16,0.024,0.3588,0,-8.029,1,0.6,4.5,2.889,0.35,0.0168,0.4,0,21.499,0,-4.31,0,248.16,-0.13,0,0,-0.23,0.01,0,-0.13,248.16,0,0,0,0,0,0,0,39.2,0,0,0,3,0,0,0,2128.7,0,0,0,248.17,0,0,0,0,0,0,0,0,0,0,0,0,0,2,2,0,0,VALID,0,0,0,0,0,1,0,0,0,0,0,0,0,0,0,0,0,0,0,0,247.58,1036.4,2,0,0.14,0.14,246,7.14,0.14,0.14,34.13,FLYING,X10-F,0:/Integrated Flight Computer/aircraft/x10_f_cfg.ks (inferred preloaded)
34.41,APPROACH,FLY_TO_FIX,153.28,157.7,4.42,1408.34,-0.6,11.57,11.77,248.16,0.023,0.3613,0,-6.801,1,0.6,4.5,2.889,0.35,0.0168,0.4,0,21.527,0,-4.408,0,248.16,-0.131,0,0,-0.22,0.01,0,-0.13,248.16,0,0,0,0,0,0,0,39.157,0,0,0,3,0,0,0,2126.41,0,0,0,248.17,0,0,0,0,0,0,0,0,0,0,0,0,0,2,2,0,0,VALID,0,0,0,0,0,1,0,0,0,0,0,0,0,0,0,0,0,0,0,0,254.28,1035.99,2,0,0.14,0.14,248,7.14,0.14,0.14,34.41,FLYING,X10-F,0:/Integrated Flight Computer/aircraft/x10_f_cfg.ks (inferred preloaded)
34.69,APPROACH,FLY_TO_FIX,153.2,157.7,4.5,1408.18,-0.59,11.56,11.76,248.16,0.024,0.3629,0,-5.55,1,0.6,4.5,2.889,0.35,0.0168,0.4,0,21.549,0,-4.487,0,248.16,-0.132,0,0,-0.22,0.01,0,-0.13,248.16,0,0,0,0,0,0,0,39.113,0,0,0,3,0,0,0,2124.12,0,0,0,248.17,0,0,0,0,0,0,0,0,0,0,0,0,0,2,2,0,0,VALID,0,0,0,0,0,1,0,0,0,0,0,0,0,0,0,0,0,0,0,0,260.77,1035.67,2,0,0.14,0.14,250,7.14,0.14,0.14,34.69,FLYING,X10-F,0:/Integrated Flight Computer/aircraft/x10_f_cfg.ks (inferred preloaded)
34.97,APPROACH,FLY_TO_FIX,153.15,157.7,4.55,1408.01,-0.59,11.55,11.75,248.16,0.024,0.364,0,-4.28,1,0.6,4.5,2.889,0.35,0.0168,0.4,0,21.566,0,-4.547,0,248.16,-0.133,0,0,-0.22,0.01,0,-0.13,248.16,0,0,0,0,0,0,0,39.069,0,0,0,3,0,0,0,2121.84,0,0,0,248.17,0,0,0,0,0,0,0,0,0,0,0,0,0,2,2,0,0,VALID,0,0,0,0,0,1,0,0,0,0,0,0,0,0,0,0,0,0,0,0,267.01,1035.43,2,0,0.14,0.14,252,7.14,0.14,0.14,34.97,FLYING,X10-F,0:/Integrated Flight Computer/aircraft/x10_f_cfg.ks (inferred preloaded)
35.25,APPROACH,FLY_TO_FIX,153.11,157.7,4.59,1407.84,-0.58,11.54,11.74,248.16,0.022,0.3644,0,-2.998,1,0.6,4.5,2.889,0.35,0.0168,0.4,0,21.578,0,-4.588,0,248.16,-0.133,0,0,-0.22,0.01,0,-0.13,248.16,0,0,0,0,0,0,0,39.026,0,0,0,3,0,0,0,2119.55,0,0,0,248.17,0,0,0,0,0,0,0,0,0,0,0,0,0,2,2,0,0,VALID,0,0,0,0,0,1,0,0,0,0,0,0,0,0,0,0,0,0,0,0,272.97,1035.27,2,0,0.14,0.14,254,7.14,0.14,0.14,35.25,FLYING,X10-F,0:/Integrated Flight Computer/aircraft/x10_f_cfg.ks (inferred preloaded)
35.53,APPROACH,FLY_TO_FIX,153.09,157.7,4.61,1407.68,-0.58,11.53,11.72,248.16,0.021,0.3644,0,-1.708,1,0.6,4.5,2.889,0.35,0.0168,0.4,0,21.584,0,-4.612,0,248.16,-0.134,0,0,-0.22,0.01,0,-0.13,248.16,0,0,0,0,0,0,0,38.982,0,0,0,3,0,0,0,2117.26,0,0,0,248.17,0,0,0,0,0,0,0,0,0,0,0,0,0,2,2,0,0,VALID,0,0,0,0,0,1,0,0,0,0,0,0,0,0,0,0,0,0,0,0,278.64,1035.18,2,0,0.14,0.14,256,7.14,0.14,0.14,35.53,FLYING,X10-F,0:/Integrated Flight Computer/aircraft/x10_f_cfg.ks (inferred preloaded)
