t_s,phase,subphase,ias_ms,vapp_ms,spd_err_ms,agl_m,gear_h_m,vs_ms,pitch_deg,aoa_deg,hdg_deg,bank_deg,thr_cmd,thr_cur,thr_intg,at_gain,at_tau_s,at_a_up,at_a_dn,at_kp_thr,at_ki_spd,at_thr_slew,as_cmd_deg,as_cap_deg,as_raw_deg,as_spd_err_ms,as_active,aa_hdg_cmd_deg,aa_fpa_cmd_deg,aa_fbw,aa_dir,actual_fpa_deg,ftf_hdg_err_deg,ftf_fix_idx,kos_steer_pit_deg,kos_steer_hdg_deg,aa_dir_vx,aa_dir_vy,aa_dir_vz,aa_dir_pitch_deg,aa_dir_hdg_deg,ils_loc_m,ils_gs_m,ils_dist_km,loc_corr_deg,gs_corr_deg,gs_latched,active_gs_ang_deg,ils_intercept_alt_m,d_gs_ms,fpa_preclamped_deg,gs_nom_alt_m,flare_fpa_cmd,flare_tgt_vs,flare_frac,flare_mode,flare_auth_limited,flare_auth_reason,flare_vs_err,flare_fpa_err,flare_pitch_err,flare_theta_cmd_raw,flare_theta_cmd_clamped,flare_theta_clamp_active,flare_pitch_in_cmd,elev_defl_avg_deg,elev_defl_max_deg,elev_defl_n,flare_ctrl_h_m,flare_req_up_a,flare_thr_floor,flare_tecs_et_err,flare_tecs_eb_err,flare_tecs_h_ref,flare_tecs_v_ref,flare_gamma_ref,flare_gamma_eb_term,flare_gamma_unsat,steer_hdg_deg,steer_blend,ro_loc_corr_deg,ro_hdg_err_deg,ro_yaw_tgt,ro_yaw_scale,ro_yaw_gate,yaw_cmd,roll_cmd,pitch_cmd,ro_pitch_tgt_deg,ro_pitch_err_deg,ro_pitch_ff,ro_roll_assist,flaps_cur,flaps_tgt,asc_j_ab,asc_j_rk,asc_validity,asc_q_pa,asc_q_raw_pa,asc_mach,asc_apo_m,asc_drag_n,asc_w_prop,asc_edot_aero,asc_edot_orb,asc_pitch_bias,asc_blend,asc_spooling,asc_ab_thr_ratio,asc_ab_t_now,asc_ab_t_avail,asc_ab_ign_on,asc_ab_flameouts,asc_rk_t_now,asc_rk_t_avail,asc_rk_ign_on,asc_rk_flameouts,ship_thrust,ship_avail_thrust,ship_ign_on,ship_flameouts,ifc_raw_dt_s,ifc_dt_s,ifc_loop_n,ifc_hz_est,ifc_raw_dt_max_s,ifc_raw_dt_min_s,phase_el_s,status,craft_name,cfg_file
0.16,APPROACH,ILS_TRACK,153.92,152,-1.92,727.27,647.04,-8.25,15.42,18.35,269.93,0.397,0,0,0,0,0,0,0,0,0,0,0,0,0,0,0,0,0,1,0,-3.1,0,0,0,90,0,0,0,0,0,5.91,-489.88,21.81,0,0,0,3,727.27,0,0,1217.3,0,0,0,,0,NONE,0,0,0,0,0,0,0,0,0,0,647.04,0,0,0,0,0,0,0,0,0,269.92,0,0,0,0,0,0,0,0,0,0,0,0,0,0,0,0,0,VALID,0,0,0,0,0,1,0,0,0,0,0,0,0,0,0,0,0,0,0,0,299.69,1081.01,2,0,0.14,0.14,1,3.7,0.14,0.02,0.16,FLYING,X10-H,0:/Integrated Flight Computer/aircraft/x10_h_cfg.ks (inferred preloaded)
0.46,APPROACH,ILS_TRACK,153.37,152,-1.37,725.1,644.82,-6.73,15.76,18.14,269.88,0.302,0.072,0,-0.272,1,0.6,2.101,0.765,0.35,0.0168,0.4,0,21.492,0,1.414,0,269.93,0,0,1,-2.59,0,0,0,269.92,0.8531,-0.0012,-0.5217,0,269.93,5.74,-489.53,21.764,-0.068,0,0,3,727.27,1.297,0,1214.92,0,0,0,,0,NONE,0,0,0,0,0,0,0,0,0,0,644.82,0,0,0,0,0,0,0,0,0,269.92,0,0,0,0,0,0,0,0,0,0,0,0,0,1,3,0,0,VALID,0,0,0,0,0,1,0,0,0,0,0,0,0,0,0,0,0,0,0,0,270.1,1078.82,2,0,0.08,0.08,4,10,0.14,0.08,0.46,FLYING,X10-H,0:/Integrated Flight Computer/aircraft/x10_h_cfg.ks (inferred preloaded)
0.76,APPROACH,ILS_TRACK,152.59,152,-0.59,722.83,643.02,-5.4,14.32,16.09,269.85,0.202,0.192,0,-0.541,1,0.6,3.731,0.79,0.35,0.0168,0.4,0,21.712,0,0.635,0,269.93,0,0,1,-2.07,0,0,0,269.93,0.8531,-0.0012,-0.5218,0,269.93,5.55,-489.24,21.716,-0.07,0,0,3,727.27,0.749,0,1212.37,0,0,0,,0,NONE,0,0,0,0,0,0,0,0,0,0,643.02,0,0,0,0,0,0,0,0,0,269.92,0,0,0,0,0,0,0,0,0,0,0,0,0,1,3,0,0,VALID,0,0,0,0,0,1,0,0,0,0,0,0,0,0,0,0,0,0,0,0,253.61,1075.62,2,0,0.08,0.08,7,10,0.12,0.08,0.76,FLYING,X10-H,0:/Integrated Flight Computer/aircraft/x10_h_cfg.ks (inferred preloaded)
1.1,APPROACH,ILS_TRACK,152.18,152,-0.18,720.22,641.28,-4.86,11.24,12.76,269.79,0.046,0.328,0,-0.639,1,0.6,4.5,0.79,0.35,0.0168,0.4,0,21.839,0,0.185,0,269.95,0,0,1,-1.83,0,0,0,269.92,0.853,-0.0009,-0.5219,0,269.95,5.34,-488.98,21.661,-0.049,0,0,3,727.27,0.754,0,1209.5,0,0,0,,0,NONE,0,0,0,0,0,0,0,0,0,0,641.28,0,0,0,0,0,0,0,0,0,269.92,0,0,0,0,0,0,0,0,0,0,0,0,0,2,3,0,0,VALID,0,0,0,0,0,1,0,0,0,0,0,0,0,0,0,0,0,0,0,0,251.79,1073.96,2,0,0.1,0.1,10,8.82,0.12,0.08,1.1,FLYING,X10-H,0:/Integrated Flight Computer/aircraft/x10_h_cfg.ks (inferred preloaded)
1.38,APPROACH,ILS_TRACK,152.22,152,-0.22,718.16,639.86,-5.21,8.83,10.53,269.79,0.08,0.2808,0,-0.69,1,0.6,4.5,0.79,0.35,0.0168,0.4,0,21.831,0,0.212,0,269.95,0,0,1,-1.93,0,0,0,269.95,0.853,-0.0008,-0.522,0,269.95,5.17,-488.69,21.616,-0.047,0,0,3,727.27,1.197,0,1207.14,0,0,0,,0,NONE,0,0,0,0,0,0,0,0,0,0,639.86,0,0,0,0,0,0,0,0,0,269.92,0,0,0,0,0,0,0,0,0,0,0,0,0,3,3,0,0,VALID,0,0,0,0,0,1,0,0,0,0,0,0,0,0,0,0,0,0,0,0,257.71,1074.23,2,0,0.1,0.1,13,10.71,0.1,0.08,1.38,FLYING,X10-H,0:/Integrated Flight Computer/aircraft/x10_h_cfg.ks (inferred preloaded)
1.68,APPROACH,ILS_TRACK,152.46,152,-0.46,716.15,638.15,-5.98,7.5,9.56,269.8,0.137,0.1608,0,-0.758,1,0.6,4.5,0.79,0.35,0.0168,0.4,0,21.767,0,0.439,0,269.95,0,0,1,-2.21,0,0,0,269.96,0.8529,-0.0009,-0.522,0,269.95,4.99,-488.19,21.568,-0.054,0,0,3,727.27,1.907,0,1204.6,0,0,0,,0,NONE,0,0,0,0,0,0,0,0,0,0,638.15,0,0,0,0,0,0,0,0,0,269.92,0,0,0,0,0,0,0,0,0,0,0,0,0,3,3,0,0,VALID,0,0,0,0,0,1,0,0,0,0,0,0,0,0,0,0,0,0,0,0,257.95,1075.33,2,0,0.08,0.08,16,10,0.12,0.08,1.68,FLYING,X10-H,0:/Integrated Flight Computer/aircraft/x10_h_cfg.ks (inferred preloaded)
2.02,APPROACH,ILS_TRACK,152.78,152,-0.78,713.99,636,-6.67,7.35,9.71,269.81,0.183,0.0248,0,-0.746,1,0.6,4.5,0.758,0.35,0.0168,0.4,0,21.677,0,0.76,0,269.96,0,0,1,-2.47,0,0,0,269.96,0.8529,-0.0007,-0.5221,0,269.96,4.78,-487.48,21.513,-0.041,0,0,3,727.27,2.144,0,1201.72,0,0,0,,0,NONE,0,0,0,0,0,0,0,0,0,0,636,0,0,0,0,0,0,0,0,0,269.92,0,0,0,0,0,0,0,0,0,0,0,0,0,3,3,0,0,VALID,0,0,0,0,0,1,0,0,0,0,0,0,0,0,0,0,0,0,0,0,244,1076.85,2,0,0.1,0.1,19,8.82,0.12,0.08,2.02,FLYING,X10-H,0:/Integrated Flight Computer/aircraft/x10_h_cfg.ks (inferred preloaded)
2.3,APPROACH,ILS_TRACK,152.96,152,-0.96,712.33,634.05,-7.2,8.2,10.84,269.83,0.265,0,0,-0.735,1,0.6,4.5,0.75,0.35,0.0168,0.4,0,21.622,0,0.955,0,269.98,0,0,1,-2.67,0,0,0,269.96,0.8528,-0.0004,-0.5222,0,269.98,4.6,-486.79,21.467,-0.021,0,0,3,727.27,2.686,0,1199.35,0,0,0,,0,NONE,0,0,0,0,0,0,0,0,0,0,634.05,0,0,0,0,0,0,0,0,0,269.92,0,0,0,0,0,0,0,0,0,0,0,0,0,3,3,0,0,VALID,0,0,0,0,0,1,0,0,0,0,0,0,0,0,0,0,0,0,0,0,222.67,1077.8,2,0,0.08,0.08,22,10.71,0.1,0.08,2.3,FLYING,X10-H,0:/Integrated Flight Computer/aircraft/x10_h_cfg.ks (inferred preloaded)
2.6,APPROACH,ILS_TRACK,152.95,152,-0.95,710.76,631.87,-7.24,10.27,12.99,269.87,0.379,0,0,-0.724,1,0.6,4.5,0.75,0.35,0.0168,0.4,0,21.621,0,0.958,0,269.96,0,0,1,-2.73,0,0,0,269.97,0.8528,-0.0007,-0.5222,0,269.96,4.43,-485.84,21.419,-0.038,0,0,3,727.27,3.392,0,1196.8,0,0,0,,0,NONE,0,0,0,0,0,0,0,0,0,0,631.87,0,0,0,0,0,0,0,0,0,269.92,0,0,0,0,0,0,0,0,0,0,0,0,0,3,3,0,0,VALID,0,0,0,0,0,1,0,0,0,0,0,0,0,0,0,0,0,0,0,0,200.44,1077.94,2,0,0.08,0.08,25,10,0.12,0.08,2.6,FLYING,X10-H,0:/Integrated Flight Computer/aircraft/x10_h_cfg.ks (inferred preloaded)
2.9,APPROACH,ILS_TRACK,152.64,152,-0.64,709.27,629.79,-6.61,12.43,14.91,269.92,0.498,0.032,0,-0.771,1,0.6,4.5,0.75,0.35,0.0168,0.4,0,21.702,0,0.671,0,269.96,0,0,1,-2.52,0,0,0,269.98,0.8528,-0.0007,-0.5223,0,269.96,4.25,-484.79,21.37,-0.04,0,0,3,727.27,3.498,0,1194.26,0,0,0,,0,NONE,0,0,0,0,0,0,0,0,0,0,629.79,0,0,0,0,0,0,0,0,0,269.92,0,0,0,0,0,0,0,0,0,0,0,0,0,3,3,0,0,VALID,0,0,0,0,0,1,0,0,0,0,0,0,0,0,0,0,0,0,0,0,180.22,1076.81,2,0,0.08,0.08,28,10,0.12,0.08,2.9,FLYING,X10-H,0:/Integrated Flight Computer/aircraft/x10_h_cfg.ks (inferred preloaded)
3.2,APPROACH,ILS_TRACK,152.02,152,-0.02,707.83,627.96,-5.66,13.94,16.06,269.97,0.57,0.152,0,-0.856,1,0.6,4.5,0.75,0.35,0.0168,0.4,0,21.871,0,0.07,0,269.97,0,0,1,-2.19,0,0,0,269.98,0.8527,-0.0005,-0.5224,0,269.97,4.08,-483.71,21.322,-0.028,0,0,3,727.27,3.72,0,1191.73,0,0,0,,0,NONE,0,0,0,0,0,0,0,0,0,0,627.96,0,0,0,0,0,0,0,0,0,269.92,0,0,0,0,0,0,0,0,0,0,0,0,0,3,3,0,0,VALID,0,0,0,0,0,1,0,0,0,0,0,0,0,0,0,0,0,0,0,0,168.78,1074.35,2,0,0.08,0.08,31,10,0.12,0.08,3.2,FLYING,X10-H,0:/Integrated Flight Computer/aircraft/x10_h_cfg.ks (inferred preloaded)
3.5,APPROACH,ILS_TRACK,151.13,152,0.87,706.35,626.45,-4.52,14.24,15.87,270,0.601,0.272,0,-0.703,1,0.6,4.5,0.75,0.35,0.0168,0.4,0,22.121,0,-0.815,0,269.96,0,0,1,-1.76,0,0,0,269.97,0.8527,-0.0007,-0.5224,0,269.96,3.94,-482.66,21.274,-0.042,0,0,3,727.27,3.436,0,1189.21,0,0,0,,0,NONE,0,0,0,0,0,0,0,0,0,0,626.45,0,0,0,0,0,0,0,0,0,269.92,0,0,0,0,0,0,0,0,0,0,0,0,0,3,3,0,0,VALID,0,0,0,0,0,1,0,0,0,0,0,0,0,0,0,0,0,0,0,0,169.7,1070.7,2,0,0.08,0.08,34,10,0.12,0.08,3.5,FLYING,X10-H,0:/Integrated Flight Computer/aircraft/x10_h_cfg.ks (inferred preloaded)
3.8,APPROACH,ILS_TRACK,150.33,152,1.67,704.9,625.23,-3.69,13.47,14.75,270,0.595,0.392,0,-0.292,1,0.6,4.5,0.75,0.35,0.0168,0.4,0,22.349,0,-1.625,0,269.97,0,0,1,-1.44,0,0,0,269.95,0.8526,-0.0005,-0.5225,0,269.97,3.8,-481.62,21.226,-0.031,0,0,3,727.27,3.565,0,1186.7,0,0,0,,0,NONE,0,0,0,0,0,0,0,0,0,0,625.23,0,0,0,0,0,0,0,0,0,269.92,0,0,0,0,0,0,0,0,0,0,0,0,0,3,3,0,0,VALID,0,0,0,0,0,1,0,0,0,0,0,0,0,0,0,0,0,0,0,0,178.24,1067.42,2,0,0.08,0.08,37,10,0.12,0.08,3.8,FLYING,X10-H,0:/Integrated Flight Computer/aircraft/x10_h_cfg.ks (inferred preloaded)
4.1,APPROACH,ILS_TRACK,149.74,152,2.26,703.57,624.2,-3.23,12.37,13.48,269.99,0.568,0.512,0,0.322,1,0.6,4.5,0.75,0.35,0.0168,0.4,0,22.52,0,-2.231,0,269.96,0,0,1,-1.25,0,0,0,269.96,0.8526,-0.0008,-0.5226,0,269.96,3.67,-480.47,21.179,-0.044,0,0,3,727.27,4.014,0,1184.21,0,0,0,,0,NONE,0,0,0,0,0,0,0,0,0,0,624.2,0,0,0,0,0,0,0,0,0,269.92,0,0,0,0,0,0,0,0,0,0,0,0,0,3,3,0,0,VALID,0,0,0,0,0,1,0,0,0,0,0,0,0,0,0,0,0,0,0,0,193.81,1065,2,0,0.08,0.08,40,10,0.12,0.08,4.1,FLYING,X10-H,0:/Integrated Flight Computer/aircraft/x10_h_cfg.ks (inferred preloaded)
4.4,APPROACH,ILS_TRACK,149.32,152,2.68,702.43,623.27,-3,11.58,12.62,269.99,0.516,0.632,0,1.081,1,0.6,4.5,0.75,0.35,0.0168,0.4,0,22.641,0,-2.66,0,269.95,0,0,1,-1.16,0,0,0,269.95,0.8525,-0.0009,-0.5226,0,269.95,3.57,-479.15,21.131,-0.05,0,0,3,727.27,4.593,0,1181.72,0,0,0,,0,NONE,0,0,0,0,0,0,0,0,0,0,623.27,0,0,0,0,0,0,0,0,0,269.92,0,0,0,0,0,0,0,0,0,0,0,0,0,3,3,0,0,VALID,0,0,0,0,0,1,0,0,0,0,0,0,0,0,0,0,0,0,0,0,215.96,1063.31,2,0,0.08,0.08,43,10,0.12,0.08,4.4,FLYING,X10-H,0:/Integrated Flight Computer/aircraft/x10_h_cfg.ks (inferred preloaded)
4.7,APPROACH,ILS_TRACK,149.02,152,2.98,701.44,622.41,-2.82,11.1,12.1,269.98,0.463,0.7279,0,1.943,1,0.6,4.5,0.75,0.35,0.0168,0.4,0,22.726,0,-2.964,0,269.95,0,0,1,-1.09,0,0,0,269.94,0.8525,-0.0009,-0.5227,0,269.95,3.46,-477.67,21.084,-0.05,0,0,3,727.27,4.993,0,1179.24,0,0,0,,0,NONE,0,0,0,0,0,0,0,0,0,0,622.41,0,0,0,0,0,0,0,0,0,269.92,0,0,0,0,0,0,0,0,0,0,0,0,0,3,3,0,0,VALID,0,0,0,0,0,1,0,0,0,0,0,0,0,0,0,0,0,0,0,0,244.29,1062.13,2,0,0.08,0.08,46,10,0.12,0.08,4.7,FLYING,X10-H,0:/Integrated Flight Computer/aircraft/x10_h_cfg.ks (inferred preloaded)
5,APPROACH,ILS_TRACK,148.83,152,3.17,700.56,621.58,-2.63,10.91,11.86,269.98,0.407,0.6243,0,2.872,1,0.6,4.5,0.75,0.35,0.0168,0.4,0,22.78,0,-3.156,0,269.95,0,0,1,-1.02,0,0,0,269.94,0.8525,-0.0008,-0.5228,0,269.95,3.37,-476.08,21.036,-0.046,0,0,3,727.27,5.372,0,1176.76,0,0,0,,0,NONE,0,0,0,0,0,0,0,0,0,0,621.58,0,0,0,0,0,0,0,0,0,269.92,0,0,0,0,0,0,0,0,0,0,0,0,0,3,3,0,0,VALID,0,0,0,0,0,1,0,0,0,0,0,0,0,0,0,0,0,0,0,0,273.3,1061.42,2,0,0.08,0.08,49,10,0.12,0.08,5,FLYING,X10-H,0:/Integrated Flight Computer/aircraft/x10_h_cfg.ks (inferred preloaded)
5.3,APPROACH,ILS_TRACK,148.73,152,3.27,699.78,620.8,-2.61,10.84,11.81,269.97,0.358,0.53,0,3.843,1,0.6,4.5,0.75,0.35,0.0168,0.4,0,22.81,0,-3.262,0,269.94,0,0,1,-1,0,0,0,269.95,0.8524,-0.0011,-0.5228,0,269.94,3.28,-474.41,20.989,-0.064,0,0,3,727.27,5.809,0,1174.28,0,0,0,,0,NONE,0,0,0,0,0,0,0,0,0,0,620.8,0,0,0,0,0,0,0,0,0,269.92,0,0,0,0,0,0,0,0,0,0,0,0,0,3,3,0,0,VALID,0,0,0,0,0,1,0,0,0,0,0,0,0,0,0,0,0,0,0,0,294.66,1061.06,2,0,0.08,0.08,52,10,0.12,0.08,5.3,FLYING,X10-H,0:/Integrated Flight Computer/aircraft/x10_h_cfg.ks (inferred preloaded)
5.6,APPROACH,ILS_TRACK,148.65,152,3.35,699.26,620.04,-2.58,11.62,12.65,269.97,0.302,0.483,0,4.836,1,0.6,4.5,0.75,0.35,0.0168,0.4,0,22.832,0,-3.341,0,269.94,0,0,1,-1,0,0,0,269.94,0.8524,-0.0011,-0.5229,0,269.94,3.2,-472.49,20.942,-0.064,0,0,3,727.27,6.767,0,1171.8,0,0,0,,0,NONE,0,0,0,0,0,0,0,0,0,0,620.04,0,0,0,0,0,0,0,0,0,269.92,0,0,0,0,0,0,0,0,0,0,0,0,0,3,3,0,0,VALID,0,0,0,0,0,1,0,0,0,0,0,0,0,0,0,0,0,0,0,0,309.38,1060.8,2,0,0.08,0.08,55,10,0.12,0.08,5.6,FLYING,X10-H,0:/Integrated Flight Computer/aircraft/x10_h_cfg.ks (inferred preloaded)
5.9,APPROACH,ILS_TRACK,148.45,152,3.55,698.89,619.4,-1.72,12.76,13.44,269.97,0.254,0.5419,0,5.871,1,0.6,4.5,0.75,0.35,0.0168,0.4,0,22.885,0,-3.526,0,269.93,0,0,1,-0.72,0,0,0,269.94,0.8523,-0.0012,-0.523,0,269.93,3.13,-470.38,20.895,-0.068,0,0,3,727.27,6.933,0,1169.33,0,0,0,,0,NONE,0,0,0,0,0,0,0,0,0,0,619.4,0,0,0,0,0,0,0,0,0,269.92,0,0,0,0,0,0,0,0,0,0,0,0,0,3,3,0,0,VALID,0,0,0,0,0,1,0,0,0,0,0,0,0,0,0,0,0,0,0,0,321.5,1060.03,2,0,0.08,0.08,58,10,0.12,0.08,5.9,FLYING,X10-H,0:/Integrated Flight Computer/aircraft/x10_h_cfg.ks (inferred preloaded)
6.2,APPROACH,ILS_TRACK,148.06,152,3.94,698.31,619.03,-0.86,12.2,12.44,269.96,0.202,0.6619,0,7.007,1,0.6,4.5,0.75,0.35,0.0168,0.4,0,22.995,0,-3.918,0,269.93,0,0,1,-0.36,0,0,0,269.94,0.8523,-0.0012,-0.523,0,269.93,3.06,-468.47,20.847,-0.068,0,0,3,727.27,6.096,0,1166.86,0,0,0,,0,NONE,0,0,0,0,0,0,0,0,0,0,619.03,0,0,0,0,0,0,0,0,0,269.92,0,0,0,0,0,0,0,0,0,0,0,0,0,3,3,0,0,VALID,0,0,0,0,0,1,0,0,0,0,0,0,0,0,0,0,0,0,0,0,337.73,1058.43,2,0,0.08,0.08,61,10,0.12,0.08,6.2,FLYING,X10-H,0:/Integrated Flight Computer/aircraft/x10_h_cfg.ks (inferred preloaded)
6.5,APPROACH,ILS_TRACK,147.99,152,4.01,697.71,618.81,-0.59,10.87,11,269.95,0.155,0.6417,0,8.21,1,0.6,4.5,0.75,0.35,0.0168,0.4,0,23.022,0,-4.015,0,269.93,0,0,1,-0.23,0,0,0,269.94,0.8523,-0.0011,-0.5231,0,269.93,2.99,-466.6,20.8,-0.066,0,0,3,727.27,6.258,0,1164.39,0,0,0,,0,NONE,0,0,0,0,0,0,0,0,0,0,618.81,0,0,0,0,0,0,0,0,0,269.92,0,0,0,0,0,0,0,0,0,0,0,0,0,3,3,0,0,VALID,0,0,0,0,0,1,0,0,0,0,0,0,0,0,0,0,0,0,0,0,359.79,1058.12,2,0,0.08,0.08,64,10,0.12,0.08,6.5,FLYING,X10-H,0:/Integrated Flight Computer/aircraft/x10_h_cfg.ks (inferred preloaded)
6.86,APPROACH,ILS_TRACK,148.18,152,3.82,697.15,618.56,-0.74,9.63,9.85,269.94,0.114,0.4977,0,9.619,1,0.6,4.5,0.75,0.35,0.0168,0.4,0,22.972,0,-3.835,0,269.93,0,0,1,-0.28,0,0,0,269.94,0.8522,-0.0012,-0.5232,0,269.93,2.92,-464.23,20.744,-0.068,0,0,3,727.27,6.832,0,1161.43,0,0,0,,0,NONE,0,0,0,0,0,0,0,0,0,0,618.56,0,0,0,0,0,0,0,0,0,269.92,0,0,0,0,0,0,0,0,0,0,0,0,0,3,3,0,0,VALID,0,0,0,0,0,1,0,0,0,0,0,0,0,0,0,0,0,0,0,0,379.2,1058.92,2,0,0.12,0.12,67,8.33,0.12,0.08,6.86,FLYING,X10-H,0:/Integrated Flight Computer/aircraft/x10_h_cfg.ks (inferred preloaded)
7.2,APPROACH,ILS_TRACK,148.5,152,3.5,696.82,618.25,-1.08,9.42,9.84,269.94,0.086,0.3617,0,10.853,1,0.6,4.5,0.75,0.35,0.0168,0.4,0,22.883,0,-3.52,0,269.94,0,0,1,-0.41,0,0,0,269.93,0.8522,-0.0011,-0.5233,0,269.94,2.85,-461.79,20.69,-0.061,0,0,3,727.27,7.467,0,1158.63,0,0,0,,0,NONE,0,0,0,0,0,0,0,0,0,0,618.25,0,0,0,0,0,0,0,0,0,269.92,0,0,0,0,0,0,0,0,0,0,0,0,0,3,3,0,0,VALID,0,0,0,0,0,1,0,0,0,0,0,0,0,0,0,0,0,0,0,0,386.8,1060.27,2,0,0.1,0.1,70,8.82,0.12,0.1,7.2,FLYING,X10-H,0:/Integrated Flight Computer/aircraft/x10_h_cfg.ks (inferred preloaded)
7.48,APPROACH,ILS_TRACK,148.77,152,3.23,696.64,617.97,-1.04,9.84,10.26,269.94,0.073,0.2497,0,11.788,1,0.6,4.5,0.75,0.35,0.0168,0.4,0,22.808,0,-3.253,0,269.94,0,0,1,-0.41,0,0,0,269.94,0.8521,-0.0011,-0.5233,0,269.94,2.79,-459.65,20.646,-0.062,0,0,3,727.27,7.687,0,1156.32,0,0,0,,0,NONE,0,0,0,0,0,0,0,0,0,0,617.97,0,0,0,0,0,0,0,0,0,269.92,0,0,0,0,0,0,0,0,0,0,0,0,0,3,3,0,0,VALID,0,0,0,0,0,1,0,0,0,0,0,0,0,0,0,0,0,0,0,0,383.86,1061.4,2,0,0.08,0.08,73,10.71,0.1,0.08,7.48,FLYING,X10-H,0:/Integrated Flight Computer/aircraft/x10_h_cfg.ks (inferred preloaded)
7.78,APPROACH,ILS_TRACK,148.98,152,3.02,696.4,617.71,-0.82,9.96,10.25,269.94,0.064,0.183,0,12.717,1,0.6,4.5,0.75,0.35,0.0168,0.4,0,22.746,0,-3.034,0,269.94,0,0,1,-0.31,0,0,0,269.94,0.8521,-0.0011,-0.5234,0,269.94,2.73,-457.41,20.599,-0.063,0,0,3,727.27,7.358,0,1153.84,0,0,0,,0,NONE,0,0,0,0,0,0,0,0,0,0,617.71,0,0,0,0,0,0,0,0,0,269.92,0,0,0,0,0,0,0,0,0,0,0,0,0,3,3,0,0,VALID,0,0,0,0,0,1,0,0,0,0,0,0,0,0,0,0,0,0,0,0,369.19,1062.32,2,0,0.08,0.08,76,10,0.12,0.08,7.78,FLYING,X10-H,0:/Integrated Flight Computer/aircraft/x10_h_cfg.ks (inferred preloaded)
8.08,APPROACH,ILS_TRACK,149.18,152,2.82,696.14,617.47,-0.81,9.87,10.16,269.94,0.053,0.1899,0,13.586,1,0.6,4.5,0.75,0.35,0.0168,0.4,0,22.689,0,-2.833,0,269.94,0,0,1,-0.31,0,0,0,269.93,0.852,-0.001,-0.5235,0,269.94,2.68,-455.19,20.552,-0.059,0,0,3,727.27,7.467,0,1151.35,0,0,0,,0,NONE,0,0,0,0,0,0,0,0,0,0,617.47,0,0,0,0,0,0,0,0,0,269.92,0,0,0,0,0,0,0,0,0,0,0,0,0,3,3,0,0,VALID,0,0,0,0,0,1,0,0,0,0,0,0,0,0,0,0,0,0,0,0,351.95,1063.17,2,0,0.08,0.08,79,10,0.12,0.08,8.08,FLYING,X10-H,0:/Integrated Flight Computer/aircraft/x10_h_cfg.ks (inferred preloaded)
8.38,APPROACH,ILS_TRACK,149.32,152,2.68,695.91,617.24,-0.75,9.87,10.14,269.94,0.048,0.228,0,14.404,1,0.6,4.5,0.75,0.35,0.0168,0.4,0,22.647,0,-2.684,0,269.94,0,0,1,-0.28,0,0,0,269.94,0.852,-0.001,-0.5235,0,269.94,2.62,-452.93,20.504,-0.06,0,0,3,727.27,7.504,0,1148.87,0,0,0,,0,NONE,0,0,0,0,0,0,0,0,0,0,617.24,0,0,0,0,0,0,0,0,0,269.92,0,0,0,0,0,0,0,0,0,0,0,0,0,3,3,0,0,VALID,0,0,0,0,0,1,0,0,0,0,0,0,0,0,0,0,0,0,0,0,337.88,1063.79,2,0,0.08,0.08,82,10,0.12,0.08,8.38,FLYING,X10-H,0:/Integrated Flight Computer/aircraft/x10_h_cfg.ks (inferred preloaded)
8.68,APPROACH,ILS_TRACK,149.43,152,2.57,695.7,617.03,-0.68,9.89,10.13,269.94,0.045,0.2751,0,15.187,1,0.6,4.5,0.75,0.35,0.0168,0.4,0,22.617,0,-2.578,0,269.94,0,0,1,-0.26,0,0,0,269.94,0.852,-0.0011,-0.5236,0,269.94,2.57,-450.65,20.457,-0.06,0,0,3,727.27,7.537,0,1146.38,0,0,0,,0,NONE,0,0,0,0,0,0,0,0,0,0,617.03,0,0,0,0,0,0,0,0,0,269.92,0,0,0,0,0,0,0,0,0,0,0,0,0,3,3,0,0,VALID,0,0,0,0,0,1,0,0,0,0,0,0,0,0,0,0,0,0,0,0,329.51,1064.23,2,0,0.08,0.08,85,10,0.12,0.08,8.68,FLYING,X10-H,0:/Integrated Flight Computer/aircraft/x10_h_cfg.ks (inferred preloaded)
8.98,APPROACH,ILS_TRACK,149.51,152,2.49,695.5,616.83,-0.62,9.88,10.09,269.94,0.042,0.3135,0,15.943,1,0.6,4.5,0.75,0.35,0.0168,0.4,0,22.594,0,-2.494,0,269.94,0,0,1,-0.24,0,0,0,269.93,0.8519,-0.001,-0.5237,0,269.94,2.52,-448.36,20.409,-0.059,0,0,3,727.27,7.585,0,1143.89,0,0,0,,0,NONE,0,0,0,0,0,0,0,0,0,0,616.83,0,0,0,0,0,0,0,0,0,269.92,0,0,0,0,0,0,0,0,0,0,0,0,0,3,3,0,0,VALID,0,0,0,0,0,1,0,0,0,0,0,0,0,0,0,0,0,0,0,0,326.93,1064.6,2,0,0.08,0.08,88,10,0.12,0.08,8.98,FLYING,X10-H,0:/Integrated Flight Computer/aircraft/x10_h_cfg.ks (inferred preloaded)
9.28,APPROACH,ILS_TRACK,149.59,152,2.41,695.3,616.65,-0.59,9.84,10.05,269.94,0.037,0.3401,0,16.676,1,0.6,4.5,0.75,0.35,0.0168,0.4,0,22.572,0,-2.417,0,269.94,0,0,1,-0.22,0,0,0,269.95,0.8519,-0.001,-0.5237,0,269.94,2.46,-446.07,20.362,-0.056,0,0,3,727.27,7.605,0,1141.4,0,0,0,,0,NONE,0,0,0,0,0,0,0,0,0,0,616.65,0,0,0,0,0,0,0,0,0,269.92,0,0,0,0,0,0,0,0,0,0,0,0,0,3,3,0,0,VALID,0,0,0,0,0,1,0,0,0,0,0,0,0,0,0,0,0,0,0,0,327.81,1064.93,2,0,0.08,0.08,91,10,0.12,0.08,9.28,FLYING,X10-H,0:/Integrated Flight Computer/aircraft/x10_h_cfg.ks (inferred preloaded)
9.58,APPROACH,ILS_TRACK,149.67,152,2.33,695.12,616.47,-0.55,9.84,10.03,269.94,0.037,0.3526,0,17.384,1,0.6,4.5,0.75,0.35,0.0168,0.4,0,22.549,0,-2.335,0,269.95,0,0,1,-0.21,0,0,0,269.94,0.8518,-0.0009,-0.5238,0,269.95,2.41,-443.76,20.314,-0.05,0,0,3,727.27,7.685,0,1138.91,0,0,0,,0,NONE,0,0,0,0,0,0,0,0,0,0,616.47,0,0,0,0,0,0,0,0,0,269.92,0,0,0,0,0,0,0,0,0,0,0,0,0,3,3,0,0,VALID,0,0,0,0,0,1,0,0,0,0,0,0,0,0,0,0,0,0,0,0,330.12,1065.29,2,0,0.08,0.08,94,10,0.12,0.08,9.58,FLYING,X10-H,0:/Integrated Flight Computer/aircraft/x10_h_cfg.ks (inferred preloaded)
9.88,APPROACH,ILS_TRACK,149.76,152,2.24,694.96,616.31,-0.5,9.84,10.01,269.94,0.035,0.3568,0,18.067,1,0.6,4.5,0.75,0.35,0.0168,0.4,0,22.524,0,-2.246,0,269.96,0,0,1,-0.2,0,0,0,269.95,0.8518,-0.0008,-0.5239,0,269.96,2.36,-441.43,20.267,-0.045,0,0,3,727.27,7.735,0,1136.41,0,0,0,,0,NONE,0,0,0,0,0,0,0,0,0,0,616.31,0,0,0,0,0,0,0,0,0,269.92,0,0,0,0,0,0,0,0,0,0,0,0,0,3,3,0,0,VALID,0,0,0,0,0,1,0,0,0,0,0,0,0,0,0,0,0,0,0,0,332.99,1065.68,2,0,0.08,0.08,97,10,0.12,0.08,9.88,FLYING,X10-H,0:/Integrated Flight Computer/aircraft/x10_h_cfg.ks (inferred preloaded)
10.18,APPROACH,ILS_TRACK,149.86,152,2.14,694.8,616.15,-0.48,9.82,9.99,269.94,0.035,0.3544,0,18.721,1,0.6,4.5,0.75,0.35,0.0168,0.4,0,22.496,0,-2.147,0,269.95,0,0,1,-0.19,0,0,0,269.95,0.8518,-0.0009,-0.5239,0,269.95,2.31,-439.1,20.219,-0.052,0,0,3,727.27,7.8,0,1133.92,0,0,0,,0,NONE,0,0,0,0,0,0,0,0,0,0,616.15,0,0,0,0,0,0,0,0,0,269.92,0,0,0,0,0,0,0,0,0,0,0,0,0,3,3,0,0,VALID,0,0,0,0,0,1,0,0,0,0,0,0,0,0,0,0,0,0,0,0,335.9,1066.11,2,0,0.08,0.08,100,10,0.12,0.08,10.18,FLYING,X10-H,0:/Integrated Flight Computer/aircraft/x10_h_cfg.ks (inferred preloaded)
10.48,APPROACH,ILS_TRACK,149.97,152,2.03,694.64,616,-0.46,9.79,9.95,269.95,0.033,0.3488,0,19.344,1,0.6,4.5,0.75,0.35,0.0168,0.4,0,22.466,0,-2.039,0,269.95,0,0,1,-0.17,0,0,0,269.95,0.8517,-0.0009,-0.524,0,269.95,2.26,-436.76,20.171,-0.054,0,0,3,727.27,7.787,0,1131.42,0,0,0,,0,NONE,0,0,0,0,0,0,0,0,0,0,616,0,0,0,0,0,0,0,0,0,269.92,0,0,0,0,0,0,0,0,0,0,0,0,0,3,3,0,0,VALID,0,0,0,0,0,1,0,0,0,0,0,0,0,0,0,0,0,0,0,0,338.46,1066.57,2,0,0.08,0.08,103,10,0.12,0.08,10.48,FLYING,X10-H,0:/Integrated Flight Computer/aircraft/x10_h_cfg.ks (inferred preloaded)
10.78,APPROACH,ILS_TRACK,150.09,152,1.91,694.5,615.87,-0.44,9.75,9.91,269.95,0.031,0.3374,0,19.932,1,0.6,4.5,0.75,0.35,0.0168,0.4,0,22.431,0,-1.916,0,269.95,0,0,1,-0.17,0,0,0,269.96,0.8517,-0.0009,-0.5241,0,269.95,2.21,-434.41,20.124,-0.052,0,0,3,727.27,7.862,0,1128.92,0,0,0,,0,NONE,0,0,0,0,0,0,0,0,0,0,615.87,0,0,0,0,0,0,0,0,0,269.92,0,0,0,0,0,0,0,0,0,0,0,0,0,3,3,0,0,VALID,0,0,0,0,0,1,0,0,0,0,0,0,0,0,0,0,0,0,0,0,340.45,1067.1,2,0,0.08,0.08,106,10,0.12,0.08,10.78,FLYING,X10-H,0:/Integrated Flight Computer/aircraft/x10_h_cfg.ks (inferred preloaded)
11.08,APPROACH,ILS_TRACK,150.22,152,1.78,694.36,615.74,-0.4,9.73,9.88,269.95,0.03,0.3187,0,20,1,0.6,4.5,0.75,0.35,0.0168,0.4,0,22.394,0,-1.785,0,269.95,0,0,1,-0.16,0,0,0,269.95,0.8516,-0.0008,-0.5241,0,269.95,2.17,-432.04,20.076,-0.047,0,0,3,727.27,7.91,0,1126.42,0,0,0,,0,NONE,0,0,0,0,0,0,0,0,0,0,615.74,0,0,0,0,0,0,0,0,0,269.92,0,0,0,0,0,0,0,0,0,0,0,0,0,3,3,0,0,VALID,0,0,0,0,0,1,0,0,0,0,0,0,0,0,0,0,0,0,0,0,341.48,1067.66,2,0,0.08,0.08,109,10,0.12,0.08,11.08,FLYING,X10-H,0:/Integrated Flight Computer/aircraft/x10_h_cfg.ks (inferred preloaded)
11.38,APPROACH,ILS_TRACK,150.36,152,1.64,694.23,615.62,-0.39,9.7,9.83,269.95,0.029,0.303,0,20,1,0.6,4.5,0.75,0.35,0.0168,0.4,0,22.357,0,-1.652,0,269.96,0,0,1,-0.14,0,0,0,269.95,0.8516,-0.0007,-0.5242,0,269.96,2.12,-429.67,20.028,-0.042,0,0,3,727.27,7.916,0,1123.92,0,0,0,,0,NONE,0,0,0,0,0,0,0,0,0,0,615.62,0,0,0,0,0,0,0,0,0,269.92,0,0,0,0,0,0,0,0,0,0,0,0,0,3,3,0,0,VALID,0,0,0,0,0,1,0,0,0,0,0,0,0,0,0,0,0,0,0,0,341.1,1068.23,2,0,0.08,0.08,112,10,0.12,0.08,11.38,FLYING,X10-H,0:/Integrated Flight Computer/aircraft/x10_h_cfg.ks (inferred preloaded)
11.68,APPROACH,ILS_TRACK,150.49,152,1.51,694.12,615.51,-0.37,9.68,9.81,269.95,0.029,0.2904,0,20,1,0.6,4.5,0.75,0.35,0.0168,0.4,0,22.319,0,-1.519,0,269.96,0,0,1,-0.14,0,0,0,269.95,0.8515,-0.0008,-0.5243,0,269.96,2.07,-427.29,19.98,-0.043,0,0,3,727.27,7.95,0,1121.42,0,0,0,,0,NONE,0,0,0,0,0,0,0,0,0,0,615.51,0,0,0,0,0,0,0,0,0,269.92,0,0,0,0,0,0,0,0,0,0,0,0,0,3,3,0,0,VALID,0,0,0,0,0,1,0,0,0,0,0,0,0,0,0,0,0,0,0,0,339.16,1068.8,2,0,0.08,0.08,115,10,0.12,0.08,11.68,FLYING,X10-H,0:/Integrated Flight Computer/aircraft/x10_h_cfg.ks (inferred preloaded)
11.98,APPROACH,ILS_TRACK,150.62,152,1.38,694.01,615.4,-0.36,9.66,9.79,269.95,0.029,0.2827,0,20,1,0.6,4.5,0.75,0.35,0.0168,0.4,0,22.283,0,-1.39,0,269.95,0,0,1,-0.13,0,0,0,269.96,0.8515,-0.0009,-0.5243,0,269.95,2.03,-424.89,19.933,-0.05,0,0,3,727.27,7.983,0,1118.91,0,0,0,,0,NONE,0,0,0,0,0,0,0,0,0,0,615.4,0,0,0,0,0,0,0,0,0,269.92,0,0,0,0,0,0,0,0,0,0,0,0,0,3,3,0,0,VALID,0,0,0,0,0,1,0,0,0,0,0,0,0,0,0,0,0,0,0,0,336.18,1069.34,2,0,0.08,0.08,118,10,0.12,0.08,11.98,FLYING,X10-H,0:/Integrated Flight Computer/aircraft/x10_h_cfg.ks (inferred preloaded)
12.28,APPROACH,ILS_TRACK,150.73,152,1.27,693.9,615.3,-0.31,9.66,9.76,269.95,0.029,0.2818,0,20,1,0.6,4.5,0.75,0.35,0.0168,0.4,0,22.25,0,-1.273,0,269.96,0,0,1,-0.12,0,0,0,269.96,0.8515,-0.0008,-0.5244,0,269.96,1.98,-422.48,19.885,-0.045,0,0,3,727.27,8.027,0,1116.4,0,0,0,,0,NONE,0,0,0,0,0,0,0,0,0,0,615.3,0,0,0,0,0,0,0,0,0,269.92,0,0,0,0,0,0,0,0,0,0,0,0,0,3,3,0,0,VALID,0,0,0,0,0,1,0,0,0,0,0,0,0,0,0,0,0,0,0,0,332.86,1069.84,2,0,0.08,0.08,121,10,0.12,0.08,12.28,FLYING,X10-H,0:/Integrated Flight Computer/aircraft/x10_h_cfg.ks (inferred preloaded)
12.58,APPROACH,ILS_TRACK,150.84,152,1.16,693.81,615.21,-0.3,9.65,9.75,269.95,0.028,0.2836,0,20,1,0.6,4.5,0.75,0.35,0.0168,0.4,0,22.219,0,-1.165,0,269.96,0,0,1,-0.11,0,0,0,269.95,0.8514,-0.0007,-0.5245,0,269.96,1.94,-420.07,19.837,-0.038,0,0,3,727.27,8.053,0,1113.89,0,0,0,,0,NONE,0,0,0,0,0,0,0,0,0,0,615.21,0,0,0,0,0,0,0,0,0,269.92,0,0,0,0,0,0,0,0,0,0,0,0,0,3,3,0,0,VALID,0,0,0,0,0,1,0,0,0,0,0,0,0,0,0,0,0,0,0,0,329.86,1070.3,2,0,0.08,0.08,124,10,0.12,0.08,12.58,FLYING,X10-H,0:/Integrated Flight Computer/aircraft/x10_h_cfg.ks (inferred preloaded)
12.88,APPROACH,ILS_TRACK,150.94,152,1.06,693.72,615.12,-0.28,9.64,9.74,269.95,0.027,0.2849,0,20,1,0.6,4.5,0.75,0.35,0.0168,0.4,0,22.191,0,-1.064,0,269.97,0,0,1,-0.11,0,0,0,269.95,0.8514,-0.0006,-0.5246,0,269.97,1.89,-417.65,19.789,-0.034,0,0,3,727.27,8.092,0,1111.38,0,0,0,,0,NONE,0,0,0,0,0,0,0,0,0,0,615.12,0,0,0,0,0,0,0,0,0,269.92,0,0,0,0,0,0,0,0,0,0,0,0,0,3,3,0,0,VALID,0,0,0,0,0,1,0,0,0,0,0,0,0,0,0,0,0,0,0,0,327.35,1070.73,2,0,0.08,0.08,127,10,0.12,0.08,12.88,FLYING,X10-H,0:/Integrated Flight Computer/aircraft/x10_h_cfg.ks (inferred preloaded)
13.18,APPROACH,ILS_TRACK,151.03,152,0.97,693.64,615.04,-0.26,9.63,9.72,269.95,0.028,0.2874,0,20,1,0.6,4.5,0.75,0.35,0.0168,0.4,0,22.165,0,-0.972,0,269.96,0,0,1,-0.09,0,0,0,269.96,0.8513,-0.0007,-0.5246,0,269.96,1.85,-415.22,19.741,-0.038,0,0,3,727.27,8.096,0,1108.87,0,0,0,,0,NONE,0,0,0,0,0,0,0,0,0,0,615.04,0,0,0,0,0,0,0,0,0,269.92,0,0,0,0,0,0,0,0,0,0,0,0,0,3,3,0,0,VALID,0,0,0,0,0,1,0,0,0,0,0,0,0,0,0,0,0,0,0,0,325.26,1071.12,2,0,0.08,0.08,130,10,0.12,0.08,13.18,FLYING,X10-H,0:/Integrated Flight Computer/aircraft/x10_h_cfg.ks (inferred preloaded)
13.48,APPROACH,ILS_TRACK,151.12,152,0.88,693.56,614.97,-0.23,9.62,9.7,269.95,0.028,0.2907,0,20,1,0.6,4.5,0.75,0.35,0.0168,0.4,0,22.141,0,-0.887,0,269.95,0,0,1,-0.09,0,0,0,269.96,0.8513,-0.0008,-0.5247,0,269.95,1.81,-412.78,19.693,-0.048,0,0,3,727.27,8.142,0,1106.35,0,0,0,,0,NONE,0,0,0,0,0,0,0,0,0,0,614.97,0,0,0,0,0,0,0,0,0,269.92,0,0,0,0,0,0,0,0,0,0,0,0,0,3,3,0,0,VALID,0,0,0,0,0,1,0,0,0,0,0,0,0,0,0,0,0,0,0,0,323.67,1071.48,2,0,0.08,0.08,133,10,0.12,0.08,13.48,FLYING,X10-H,0:/Integrated Flight Computer/aircraft/x10_h_cfg.ks (inferred preloaded)
13.78,APPROACH,ILS_TRACK,151.2,152,0.8,693.49,614.9,-0.21,9.61,9.69,269.95,0.027,0.2921,0,20,1,0.6,4.5,0.75,0.35,0.0168,0.4,0,22.118,0,-0.807,0,269.96,0,0,1,-0.09,0,0,0,269.97,0.8513,-0.0007,-0.5248,0,269.96,1.76,-410.34,19.645,-0.039,0,0,3,727.27,8.155,0,1103.83,0,0,0,,0,NONE,0,0,0,0,0,0,0,0,0,0,614.9,0,0,0,0,0,0,0,0,0,269.92,0,0,0,0,0,0,0,0,0,0,0,0,0,3,3,0,0,VALID,0,0,0,0,0,1,0,0,0,0,0,0,0,0,0,0,0,0,0,0,322.57,1071.82,2,0,0.08,0.08,136,10,0.12,0.08,13.78,FLYING,X10-H,0:/Integrated Flight Computer/aircraft/x10_h_cfg.ks (inferred preloaded)
14.08,APPROACH,ILS_TRACK,151.28,152,0.72,693.42,614.83,-0.2,9.6,9.68,269.95,0.027,0.2912,0,20,1,0.6,4.5,0.75,0.35,0.0168,0.4,0,22.096,0,-0.729,0,269.96,0,0,1,-0.08,0,0,0,269.96,0.8512,-0.0007,-0.5248,0,269.96,1.73,-407.89,19.597,-0.041,0,0,3,727.27,8.193,0,1101.32,0,0,0,,0,NONE,0,0,0,0,0,0,0,0,0,0,614.83,0,0,0,0,0,0,0,0,0,269.92,0,0,0,0,0,0,0,0,0,0,0,0,0,3,3,0,0,VALID,0,0,0,0,0,1,0,0,0,0,0,0,0,0,0,0,0,0,0,0,321.69,1072.16,2,0,0.08,0.08,139,10,0.12,0.08,14.08,FLYING,X10-H,0:/Integrated Flight Computer/aircraft/x10_h_cfg.ks (inferred preloaded)
14.38,APPROACH,ILS_TRACK,151.35,152,0.65,693.36,614.78,-0.19,9.59,9.66,269.96,0.026,0.2907,0,20,1,0.6,4.5,0.75,0.35,0.0168,0.4,0,22.075,0,-0.655,0,269.96,0,0,1,-0.07,0,0,0,269.97,0.8512,-0.0007,-0.5249,0,269.96,1.69,-405.43,19.549,-0.038,0,0,3,727.27,8.185,0,1098.8,0,0,0,,0,NONE,0,0,0,0,0,0,0,0,0,0,614.78,0,0,0,0,0,0,0,0,0,269.92,0,0,0,0,0,0,0,0,0,0,0,0,0,3,3,0,0,VALID,0,0,0,0,0,1,0,0,0,0,0,0,0,0,0,0,0,0,0,0,320.82,1072.47,2,0,0.08,0.08,142,10,0.12,0.08,14.38,FLYING,X10-H,0:/Integrated Flight Computer/aircraft/x10_h_cfg.ks (inferred preloaded)
14.68,APPROACH,ILS_TRACK,151.42,152,0.58,693.31,614.72,-0.17,9.58,9.64,269.96,0.025,0.2908,0,20,1,0.6,4.5,0.75,0.35,0.0168,0.4,0,22.056,0,-0.585,0,269.97,0,0,1,-0.07,0,0,0,269.97,0.8511,-0.0006,-0.525,0,269.97,1.65,-402.97,19.501,-0.034,0,0,3,727.27,8.213,0,1096.28,0,0,0,,0,NONE,0,0,0,0,0,0,0,0,0,0,614.72,0,0,0,0,0,0,0,0,0,269.92,0,0,0,0,0,0,0,0,0,0,0,0,0,3,3,0,0,VALID,0,0,0,0,0,1,0,0,0,0,0,0,0,0,0,0,0,0,0,0,319.98,1072.77,2,0,0.08,0.08,145,10,0.12,0.08,14.68,FLYING,X10-H,0:/Integrated Flight Computer/aircraft/x10_h_cfg.ks (inferred preloaded)
14.98,APPROACH,ILS_TRACK,151.49,152,0.51,693.26,614.67,-0.16,9.57,9.63,269.96,0.026,0.2873,0,20,1,0.6,4.5,0.75,0.35,0.0168,0.4,0,22.036,0,-0.514,0,269.97,0,0,1,-0.06,0,0,0,269.97,0.8511,-0.0005,-0.525,0,269.97,1.61,-400.5,19.453,-0.027,0,0,3,727.27,8.249,0,1093.76,0,0,0,,0,NONE,0,0,0,0,0,0,0,0,0,0,614.67,0,0,0,0,0,0,0,0,0,269.92,0,0,0,0,0,0,0,0,0,0,0,0,0,3,3,0,0,VALID,0,0,0,0,0,1,0,0,0,0,0,0,0,0,0,0,0,0,0,0,319.14,1073.07,2,0,0.08,0.08,148,10,0.12,0.08,14.98,FLYING,X10-H,0:/Integrated Flight Computer/aircraft/x10_h_cfg.ks (inferred preloaded)
15.28,APPROACH,ILS_TRACK,151.56,152,0.44,693.21,614.63,-0.13,9.57,9.62,269.96,0.025,0.2847,0,20,1,0.6,4.5,0.75,0.35,0.0168,0.4,0,22.016,0,-0.445,0,269.97,0,0,1,-0.05,0,0,0,269.97,0.851,-0.0005,-0.5251,0,269.97,1.57,-398.02,19.404,-0.027,0,0,3,727.27,8.258,0,1091.24,0,0,0,,0,NONE,0,0,0,0,0,0,0,0,0,0,614.63,0,0,0,0,0,0,0,0,0,269.92,0,0,0,0,0,0,0,0,0,0,0,0,0,3,3,0,0,VALID,0,0,0,0,0,1,0,0,0,0,0,0,0,0,0,0,0,0,0,0,318.05,1073.37,2,0,0.08,0.08,151,10,0.12,0.08,15.28,FLYING,X10-H,0:/Integrated Flight Computer/aircraft/x10_h_cfg.ks (inferred preloaded)
15.58,APPROACH,ILS_TRACK,151.62,152,0.38,693.17,614.59,-0.12,9.56,9.61,269.96,0.025,0.284,0,20,1,0.6,4.5,0.75,0.35,0.0168,0.4,0,21.998,0,-0.38,0,269.97,0,0,1,-0.05,0,0,0,269.97,0.851,-0.0005,-0.5252,0,269.97,1.53,-395.54,19.356,-0.031,0,0,3,727.27,8.276,0,1088.71,0,0,0,,0,NONE,0,0,0,0,0,0,0,0,0,0,614.59,0,0,0,0,0,0,0,0,0,269.92,0,0,0,0,0,0,0,0,0,0,0,0,0,3,3,0,0,VALID,0,0,0,0,0,1,0,0,0,0,0,0,0,0,0,0,0,0,0,0,316.82,1073.64,2,0,0.08,0.08,154,10,0.12,0.08,15.58,FLYING,X10-H,0:/Integrated Flight Computer/aircraft/x10_h_cfg.ks (inferred preloaded)
15.88,APPROACH,ILS_TRACK,151.69,152,0.31,693.13,614.56,-0.1,9.56,9.6,269.96,0.023,0.2832,0,20,1,0.6,4.5,0.75,0.35,0.0168,0.4,0,21.981,0,-0.318,0,269.97,0,0,1,-0.05,0,0,0,269.98,0.851,-0.0006,-0.5252,0,269.97,1.49,-393.05,19.308,-0.033,0,0,3,727.27,8.321,0,1086.19,0,0,0,,0,NONE,0,0,0,0,0,0,0,0,0,0,614.56,0,0,0,0,0,0,0,0,0,269.92,0,0,0,0,0,0,0,0,0,0,0,0,0,3,3,0,0,VALID,0,0,0,0,0,1,0,0,0,0,0,0,0,0,0,0,0,0,0,0,315.66,1073.9,2,0,0.08,0.08,157,10,0.12,0.08,15.88,FLYING,X10-H,0:/Integrated Flight Computer/aircraft/x10_h_cfg.ks (inferred preloaded)
16.18,APPROACH,ILS_TRACK,151.74,152,0.26,693.1,614.53,-0.1,9.55,9.58,269.96,0.022,0.2842,0,20,1,0.6,4.5,0.75,0.35,0.0168,0.4,0,21.965,0,-0.263,0,269.97,0,0,1,-0.03,0,0,0,269.98,0.8509,-0.0006,-0.5253,0,269.97,1.46,-390.56,19.26,-0.033,0,0,3,727.27,8.293,0,1083.67,0,0,0,,0,NONE,0,0,0,0,0,0,0,0,0,0,614.53,0,0,0,0,0,0,0,0,0,269.92,0,0,0,0,0,0,0,0,0,0,0,0,0,3,3,0,0,VALID,0,0,0,0,0,1,0,0,0,0,0,0,0,0,0,0,0,0,0,0,314.6,1074.14,2,0,0.08,0.08,160,10,0.12,0.08,16.18,FLYING,X10-H,0:/Integrated Flight Computer/aircraft/x10_h_cfg.ks (inferred preloaded)
16.48,APPROACH,ILS_TRACK,151.8,152,0.2,693.07,614.5,-0.1,9.54,9.58,269.96,0.021,0.2839,0,20,1,0.6,4.5,0.75,0.35,0.0168,0.4,0,21.95,0,-0.208,0,269.97,0,0,1,-0.03,0,0,0,269.98,0.8509,-0.0004,-0.5254,0,269.97,1.42,-388.06,19.212,-0.025,0,0,3,727.27,8.319,0,1081.14,0,0,0,,0,NONE,0,0,0,0,0,0,0,0,0,0,614.5,0,0,0,0,0,0,0,0,0,269.92,0,0,0,0,0,0,0,0,0,0,0,0,0,3,3,0,0,VALID,0,0,0,0,0,1,0,0,0,0,0,0,0,0,0,0,0,0,0,0,313.71,1074.37,2,0,0.08,0.08,163,10,0.12,0.08,16.48,FLYING,X10-H,0:/Integrated Flight Computer/aircraft/x10_h_cfg.ks (inferred preloaded)
16.78,APPROACH,ILS_TRACK,151.84,152,0.16,693.05,614.48,-0.07,9.53,9.54,269.96,0.021,0.2848,0,20,1,0.6,4.5,0.75,0.35,0.0168,0.4,0,21.936,0,-0.158,0,269.97,0,0,1,-0.02,0,0,0,269.97,0.8508,-0.0005,-0.5254,0,269.97,1.39,-385.56,19.164,-0.028,0,0,3,727.27,8.303,0,1078.61,0,0,0,,0,NONE,0,0,0,0,0,0,0,0,0,0,614.48,0,0,0,0,0,0,0,0,0,269.92,0,0,0,0,0,0,0,0,0,0,0,0,0,3,3,0,0,VALID,0,0,0,0,0,1,0,0,0,0,0,0,0,0,0,0,0,0,0,0,312.91,1074.58,2,0,0.08,0.08,166,10,0.12,0.08,16.78,FLYING,X10-H,0:/Integrated Flight Computer/aircraft/x10_h_cfg.ks (inferred preloaded)
17.08,APPROACH,ILS_TRACK,151.89,152,0.11,693.03,614.46,-0.07,9.54,9.56,269.96,0.022,0.2871,0,20,1,0.6,4.5,0.75,0.35,0.0168,0.4,0,21.923,0,-0.113,0,269.98,0,0,1,-0.02,0,0,0,269.97,0.8508,-0.0004,-0.5255,0,269.98,1.35,-383.05,19.115,-0.025,0,0,3,727.27,8.341,0,1076.09,0,0,0,,0,NONE,0,0,0,0,0,0,0,0,0,0,614.46,0,0,0,0,0,0,0,0,0,269.92,0,0,0,0,0,0,0,0,0,0,0,0,0,3,3,0,0,VALID,0,0,0,0,0,1,0,0,0,0,0,0,0,0,0,0,0,0,0,0,312.25,1074.77,2,0,0.08,0.08,169,10,0.12,0.08,17.08,FLYING,X10-H,0:/Integrated Flight Computer/aircraft/x10_h_cfg.ks (inferred preloaded)
17.38,APPROACH,ILS_TRACK,151.93,152,0.07,693.02,614.45,-0.06,9.53,9.54,269.96,0.021,0.2907,0,20,1,0.6,4.5,0.75,0.35,0.0168,0.4,0,21.912,0,-0.074,0,269.96,0,0,1,-0.01,0,0,0,269.98,0.8507,-0.0006,-0.5256,0,269.96,1.32,-380.54,19.067,-0.036,0,0,3,727.27,8.329,0,1073.56,0,0,0,,0,NONE,0,0,0,0,0,0,0,0,0,0,614.45,0,0,0,0,0,0,0,0,0,269.92,0,0,0,0,0,0,0,0,0,0,0,0,0,3,3,0,0,VALID,0,0,0,0,0,1,0,0,0,0,0,0,0,0,0,0,0,0,0,0,311.96,1074.94,2,0,0.08,0.08,172,10,0.12,0.08,17.38,FLYING,X10-H,0:/Integrated Flight Computer/aircraft/x10_h_cfg.ks (inferred preloaded)
17.68,APPROACH,ILS_TRACK,151.97,152,0.03,693.01,614.44,-0.02,9.53,9.53,269.96,0.02,0.2872,0,20,1,0.6,4.5,0.75,0.35,0.0168,0.4,0,21.899,0,-0.03,0,269.97,0,0,1,-0.01,0,0,0,269.98,0.8507,-0.0004,-0.5256,0,269.97,1.28,-378.02,19.019,-0.026,0,0,3,727.27,8.382,0,1071.03,0,0,0,,0,NONE,0,0,0,0,0,0,0,0,0,0,614.44,0,0,0,0,0,0,0,0,0,269.92,0,0,0,0,0,0,0,0,0,0,0,0,0,3,3,0,0,VALID,0,0,0,0,0,1,0,0,0,0,0,0,0,0,0,0,0,0,0,0,311.93,1075.13,2,0,0.08,0.08,175,10,0.12,0.08,17.68,FLYING,X10-H,0:/Integrated Flight Computer/aircraft/x10_h_cfg.ks (inferred preloaded)
17.98,APPROACH,ILS_TRACK,152.02,152,-0.02,693,614.43,-0.01,9.53,9.54,269.96,0.021,0.2832,0,19.998,1,0.6,4.5,0.75,0.35,0.0168,0.4,0,21.887,0,0.015,0,269.97,0,0,1,-0.01,0,0,0,269.97,0.8507,-0.0005,-0.5257,0,269.97,1.25,-375.5,18.971,-0.03,0,0,3,727.27,8.435,0,1068.5,0,0,0,,0,NONE,0,0,0,0,0,0,0,0,0,0,614.43,0,0,0,0,0,0,0,0,0,269.92,0,0,0,0,0,0,0,0,0,0,0,0,0,3,3,0,0,VALID,0,0,0,0,0,1,0,0,0,0,0,0,0,0,0,0,0,0,0,0,311.54,1075.32,2,0,0.08,0.08,178,10,0.12,0.08,17.98,FLYING,X10-H,0:/Integrated Flight Computer/aircraft/x10_h_cfg.ks (inferred preloaded)
18.28,APPROACH,ILS_TRACK,152.06,152,-0.06,693,614.43,0,9.53,9.53,269.96,0.021,0.2798,0,19.985,1,0.6,4.5,0.75,0.35,0.0168,0.4,0,21.874,0,0.059,0,269.98,0,0,1,0,0,0,0,269.97,0.8506,-0.0004,-0.5258,0,269.98,1.22,-372.97,18.922,-0.021,0,0,3,727.27,8.423,0,1065.97,0,0,0,,0,NONE,0,0,0,0,0,0,0,0,0,0,614.43,0,0,0,0,0,0,0,0,0,269.92,0,0,0,0,0,0,0,0,0,0,0,0,0,3,3,0,0,VALID,0,0,0,0,0,1,0,0,0,0,0,0,0,0,0,0,0,0,0,0,310.8,1075.51,2,0,0.08,0.08,181,10,0.12,0.08,18.28,FLYING,X10-H,0:/Integrated Flight Computer/aircraft/x10_h_cfg.ks (inferred preloaded)
18.58,APPROACH,ILS_TRACK,152.11,152,-0.11,693,614.43,0.01,9.53,9.52,269.96,0.021,0.2769,0,19.958,1,0.6,4.5,0.75,0.35,0.0168,0.4,0,21.862,0,0.103,0,269.98,0,0,1,0,0,0,0,269.99,0.8506,-0.0003,-0.5259,0,269.98,1.19,-370.44,18.874,-0.019,0,0,3,727.27,8.442,0,1063.44,0,0,0,,0,NONE,0,0,0,0,0,0,0,0,0,0,614.43,0,0,0,0,0,0,0,0,0,269.92,0,0,0,0,0,0,0,0,0,0,0,0,0,3,3,0,0,VALID,0,0,0,0,0,1,0,0,0,0,0,0,0,0,0,0,0,0,0,0,309.77,1075.69,2,0,0.08,0.08,184,10,0.12,0.08,18.58,FLYING,X10-H,0:/Integrated Flight Computer/aircraft/x10_h_cfg.ks (inferred preloaded)
18.88,APPROACH,ILS_TRACK,152.15,152,-0.15,693,614.44,0.02,9.53,9.52,269.97,0.021,0.2755,0,19.919,1,0.6,4.5,0.75,0.35,0.0168,0.4,0,21.85,0,0.144,0,269.97,0,0,1,0.01,0,0,0,269.98,0.8505,-0.0005,-0.5259,0,269.97,1.16,-367.91,18.826,-0.027,0,0,3,727.27,8.456,0,1060.91,0,0,0,,0,NONE,0,0,0,0,0,0,0,0,0,0,614.44,0,0,0,0,0,0,0,0,0,269.92,0,0,0,0,0,0,0,0,0,0,0,0,0,3,3,0,0,VALID,0,0,0,0,0,1,0,0,0,0,0,0,0,0,0,0,0,0,0,0,308.57,1075.86,2,0,0.08,0.08,187,10,0.12,0.08,18.88,FLYING,X10-H,0:/Integrated Flight Computer/aircraft/x10_h_cfg.ks (inferred preloaded)
19.18,APPROACH,ILS_TRACK,152.18,152,-0.18,693.01,614.44,0.04,9.53,9.51,269.97,0.021,0.2754,0,19.869,1,0.6,4.5,0.75,0.35,0.0168,0.4,0,21.84,0,0.18,0,269.97,0,0,1,0.01,0,0,0,269.99,0.8505,-0.0006,-0.526,0,269.97,1.13,-365.37,18.778,-0.033,0,0,3,727.27,8.47,0,1058.38,0,0,0,,0,NONE,0,0,0,0,0,0,0,0,0,0,614.44,0,0,0,0,0,0,0,0,0,269.92,0,0,0,0,0,0,0,0,0,0,0,0,0,3,3,0,0,VALID,0,0,0,0,0,1,0,0,0,0,0,0,0,0,0,0,0,0,0,0,307.38,1076.01,2,0,0.08,0.08,190,10,0.12,0.08,19.18,FLYING,X10-H,0:/Integrated Flight Computer/aircraft/x10_h_cfg.ks (inferred preloaded)
19.48,APPROACH,ILS_TRACK,152.21,152,-0.21,693.02,614.46,0.05,9.53,9.51,269.97,0.021,0.276,0,19.808,1,0.6,4.5,0.75,0.35,0.0168,0.4,0,21.831,0,0.213,0,269.97,0,0,1,0.02,0,0,0,269.99,0.8504,-0.0004,-0.5261,0,269.97,1.1,-362.82,18.729,-0.026,0,0,3,727.27,8.485,0,1055.84,0,0,0,,0,NONE,0,0,0,0,0,0,0,0,0,0,614.46,0,0,0,0,0,0,0,0,0,269.92,0,0,0,0,0,0,0,0,0,0,0,0,0,3,3,0,0,VALID,0,0,0,0,0,1,0,0,0,0,0,0,0,0,0,0,0,0,0,0,306.31,1076.15,2,0,0.08,0.08,193,10,0.12,0.08,19.48,FLYING,X10-H,0:/Integrated Flight Computer/aircraft/x10_h_cfg.ks (inferred preloaded)
19.78,APPROACH,ILS_TRACK,152.24,152,-0.24,693.04,614.47,0.06,9.53,9.5,269.97,0.021,0.2767,0,19.738,1,0.6,4.5,0.75,0.35,0.0168,0.4,0,21.823,0,0.242,0,269.99,0,0,1,0.02,0,0,0,269.98,0.8504,-0.0002,-0.5261,0,269.99,1.07,-360.27,18.681,-0.012,0,0,3,727.27,8.503,0,1053.31,0,0,0,,0,NONE,0,0,0,0,0,0,0,0,0,0,614.47,0,0,0,0,0,0,0,0,0,269.92,0,0,0,0,0,0,0,0,0,0,0,0,0,3,3,0,0,VALID,0,0,0,0,0,1,0,0,0,0,0,0,0,0,0,0,0,0,0,0,305.43,1076.27,2,0,0.08,0.08,196,10,0.12,0.08,19.78,FLYING,X10-H,0:/Integrated Flight Computer/aircraft/x10_h_cfg.ks (inferred preloaded)
20.08,APPROACH,ILS_TRACK,152.27,152,-0.27,693.06,614.49,0.07,9.53,9.5,269.97,0.021,0.2772,0,19.66,1,0.6,4.5,0.75,0.35,0.0168,0.4,0,21.815,0,0.268,0,269.98,0,0,1,0.03,0,0,0,269.99,0.8504,-0.0004,-0.5262,0,269.98,1.04,-357.72,18.633,-0.025,0,0,3,727.27,8.512,0,1050.78,0,0,0,,0,NONE,0,0,0,0,0,0,0,0,0,0,614.49,0,0,0,0,0,0,0,0,0,269.92,0,0,0,0,0,0,0,0,0,0,0,0,0,3,3,0,0,VALID,0,0,0,0,0,1,0,0,0,0,0,0,0,0,0,0,0,0,0,0,304.7,1076.38,2,0,0.08,0.08,199,10,0.12,0.08,20.08,FLYING,X10-H,0:/Integrated Flight Computer/aircraft/x10_h_cfg.ks (inferred preloaded)
20.38,APPROACH,ILS_TRACK,152.29,152,-0.29,693.08,614.52,0.08,9.53,9.5,269.97,0.022,0.2772,0,19.575,1,0.6,4.5,0.75,0.35,0.0168,0.4,0,21.808,0,0.293,0,270,0,0,1,0.03,0,0,0,269.97,0.8503,0,-0.5263,0,270,1.01,-355.16,18.584,-0.002,0,0,3,727.27,8.53,0,1048.25,0,0,0,,0,NONE,0,0,0,0,0,0,0,0,0,0,614.52,0,0,0,0,0,0,0,0,0,269.92,0,0,0,0,0,0,0,0,0,0,0,0,0,3,3,0,0,VALID,0,0,0,0,0,1,0,0,0,0,0,0,0,0,0,0,0,0,0,0,304.08,1076.48,2,0,0.08,0.08,202,10,0.12,0.08,20.38,FLYING,X10-H,0:/Integrated Flight Computer/aircraft/x10_h_cfg.ks (inferred preloaded)
20.68,APPROACH,ILS_TRACK,152.32,152,-0.32,693.11,614.54,0.1,9.52,9.49,269.97,0.022,0.2767,0,19.482,1,0.6,4.5,0.75,0.35,0.0168,0.4,0,21.802,0,0.315,0,269.98,0,0,1,0.04,0,0,0,269.98,0.8503,-0.0003,-0.5263,0,269.98,0.98,-352.6,18.536,-0.016,0,0,3,727.27,8.539,0,1045.71,0,0,0,,0,NONE,0,0,0,0,0,0,0,0,0,0,614.54,0,0,0,0,0,0,0,0,0,269.92,0,0,0,0,0,0,0,0,0,0,0,0,0,3,3,0,0,VALID,0,0,0,0,0,1,0,0,0,0,0,0,0,0,0,0,0,0,0,0,303.52,1076.57,2,0,0.08,0.08,205,10,0.12,0.08,20.68,FLYING,X10-H,0:/Integrated Flight Computer/aircraft/x10_h_cfg.ks (inferred preloaded)
20.98,APPROACH,ILS_TRACK,152.34,152,-0.34,693.14,614.57,0.11,9.53,9.49,269.97,0.021,0.2761,0,19.384,1,0.6,4.5,0.75,0.35,0.0168,0.4,0,21.796,0,0.335,0,269.98,0,0,1,0.04,0,0,0,269.97,0.8502,-0.0003,-0.5264,0,269.98,0.96,-350.04,18.487,-0.016,0,0,3,727.27,8.552,0,1043.18,0,0,0,,0,NONE,0,0,0,0,0,0,0,0,0,0,614.57,0,0,0,0,0,0,0,0,0,269.92,0,0,0,0,0,0,0,0,0,0,0,0,0,3,3,0,0,VALID,0,0,0,0,0,1,0,0,0,0,0,0,0,0,0,0,0,0,0,0,302.95,1076.65,2,0,0.08,0.08,208,10,0.12,0.08,20.98,FLYING,X10-H,0:/Integrated Flight Computer/aircraft/x10_h_cfg.ks (inferred preloaded)
21.28,APPROACH,ILS_TRACK,152.35,152,-0.35,693.18,614.61,0.12,9.53,9.48,269.97,0.021,0.2755,0,19.28,1,0.6,4.5,0.75,0.35,0.0168,0.4,0,21.791,0,0.353,0,269.98,0,0,1,0.04,0,0,0,269.99,0.8502,-0.0004,-0.5265,0,269.98,0.93,-347.47,18.439,-0.022,0,0,3,727.27,8.561,0,1040.64,0,0,0,,0,NONE,0,0,0,0,0,0,0,0,0,0,614.61,0,0,0,0,0,0,0,0,0,269.92,0,0,0,0,0,0,0,0,0,0,0,0,0,3,3,0,0,VALID,0,0,0,0,0,1,0,0,0,0,0,0,0,0,0,0,0,0,0,0,302.38,1076.73,2,0,0.08,0.08,211,10,0.12,0.08,21.28,FLYING,X10-H,0:/Integrated Flight Computer/aircraft/x10_h_cfg.ks (inferred preloaded)
21.58,APPROACH,ILS_TRACK,152.37,152,-0.37,693.21,614.64,0.13,9.53,9.48,269.97,0.021,0.2747,0,19.17,1,0.6,4.5,0.75,0.35,0.0168,0.4,0,21.787,0,0.37,0,269.98,0,0,1,0.05,0,0,0,269.98,0.8502,-0.0003,-0.5265,0,269.98,0.9,-344.9,18.391,-0.019,0,0,3,727.27,8.574,0,1038.11,0,0,0,,0,NONE,0,0,0,0,0,0,0,0,0,0,614.64,0,0,0,0,0,0,0,0,0,269.92,0,0,0,0,0,0,0,0,0,0,0,0,0,3,3,0,0,VALID,0,0,0,0,0,1,0,0,0,0,0,0,0,0,0,0,0,0,0,0,301.79,1076.8,2,0,0.08,0.08,214,10,0.12,0.08,21.58,FLYING,X10-H,0:/Integrated Flight Computer/aircraft/x10_h_cfg.ks (inferred preloaded)
21.88,APPROACH,ILS_TRACK,152.39,152,-0.39,693.25,614.68,0.14,9.53,9.48,269.97,0.021,0.274,0,19.056,1,0.6,4.5,0.75,0.35,0.0168,0.4,0,21.783,0,0.385,0,269.98,0,0,1,0.05,0,0,0,269.99,0.8501,-0.0003,-0.5266,0,269.98,0.88,-342.33,18.342,-0.018,0,0,3,727.27,8.587,0,1035.57,0,0,0,,0,NONE,0,0,0,0,0,0,0,0,0,0,614.68,0,0,0,0,0,0,0,0,0,269.92,0,0,0,0,0,0,0,0,0,0,0,0,0,3,3,0,0,VALID,0,0,0,0,0,1,0,0,0,0,0,0,0,0,0,0,0,0,0,0,301.18,1076.85,2,0,0.08,0.08,217,10,0.12,0.08,21.88,FLYING,X10-H,0:/Integrated Flight Computer/aircraft/x10_h_cfg.ks (inferred preloaded)
22.18,APPROACH,ILS_TRACK,152.4,152,-0.4,693.3,614.73,0.15,9.53,9.48,269.97,0.021,0.2734,0,18.938,1,0.6,4.5,0.75,0.35,0.0168,0.4,0,21.779,0,0.397,0,269.99,0,0,1,0.06,0,0,0,269.98,0.8501,-0.0002,-0.5267,0,269.99,0.85,-339.75,18.294,-0.009,0,0,3,727.27,8.6,0,1033.04,0,0,0,,0,NONE,0,0,0,0,0,0,0,0,0,0,614.73,0,0,0,0,0,0,0,0,0,269.92,0,0,0,0,0,0,0,0,0,0,0,0,0,3,3,0,0,VALID,0,0,0,0,0,1,0,0,0,0,0,0,0,0,0,0,0,0,0,0,300.55,1076.9,2,0,0.08,0.08,220,10,0.12,0.08,22.18,FLYING,X10-H,0:/Integrated Flight Computer/aircraft/x10_h_cfg.ks (inferred preloaded)
22.48,APPROACH,ILS_TRACK,152.41,152,-0.41,693.34,614.77,0.16,9.53,9.47,269.97,0.022,0.273,0,18.817,1,0.6,4.5,0.75,0.35,0.0168,0.4,0,21.776,0,0.408,0,269.98,0,0,1,0.06,0,0,0,269.99,0.85,-0.0003,-0.5267,0,269.98,0.83,-337.17,18.246,-0.017,0,0,3,727.27,8.606,0,1030.5,0,0,0,,0,NONE,0,0,0,0,0,0,0,0,0,0,614.77,0,0,0,0,0,0,0,0,0,269.92,0,0,0,0,0,0,0,0,0,0,0,0,0,3,3,0,0,VALID,0,0,0,0,0,1,0,0,0,0,0,0,0,0,0,0,0,0,0,0,299.93,1076.94,2,0,0.08,0.08,223,10,0.12,0.08,22.48,FLYING,X10-H,0:/Integrated Flight Computer/aircraft/x10_h_cfg.ks (inferred preloaded)
22.78,APPROACH,ILS_TRACK,152.42,152,-0.42,693.39,614.82,0.17,9.53,9.47,269.97,0.022,0.2727,0,18.693,1,0.6,4.5,0.75,0.35,0.0168,0.4,0,21.774,0,0.416,0,269.98,0,0,1,0.06,0,0,0,269.99,0.85,-0.0003,-0.5268,0,269.98,0.81,-334.58,18.197,-0.019,0,0,3,727.27,8.616,0,1027.97,0,0,0,,0,NONE,0,0,0,0,0,0,0,0,0,0,614.82,0,0,0,0,0,0,0,0,0,269.92,0,0,0,0,0,0,0,0,0,0,0,0,0,3,3,0,0,VALID,0,0,0,0,0,1,0,0,0,0,0,0,0,0,0,0,0,0,0,0,299.33,1076.98,2,0,0.08,0.08,226,10,0.12,0.08,22.78,FLYING,X10-H,0:/Integrated Flight Computer/aircraft/x10_h_cfg.ks (inferred preloaded)
23.08,APPROACH,ILS_TRACK,152.42,152,-0.42,693.44,614.87,0.18,9.53,9.47,269.98,0.022,0.2725,0,18.566,1,0.6,4.5,0.75,0.35,0.0168,0.4,0,21.772,0,0.423,0,269.99,0,0,1,0.07,0,0,0,269.99,0.8499,-0.0002,-0.5269,0,269.99,0.78,-331.99,18.149,-0.01,0,0,3,727.27,8.63,0,1025.43,0,0,0,,0,NONE,0,0,0,0,0,0,0,0,0,0,614.87,0,0,0,0,0,0,0,0,0,269.92,0,0,0,0,0,0,0,0,0,0,0,0,0,3,3,0,0,VALID,0,0,0,0,0,1,0,0,0,0,0,0,0,0,0,0,0,0,0,0,298.76,1077,2,0,0.08,0.08,229,10,0.12,0.08,23.08,FLYING,X10-H,0:/Integrated Flight Computer/aircraft/x10_h_cfg.ks (inferred preloaded)
23.38,APPROACH,ILS_TRACK,152.43,152,-0.43,693.5,614.93,0.19,9.53,9.47,269.98,0.022,0.2723,0,18.439,1,0.6,4.5,0.75,0.35,0.0168,0.4,0,21.77,0,0.427,0,269.98,0,0,1,0.07,0,0,0,269.99,0.8499,-0.0003,-0.5269,0,269.98,0.76,-329.4,18.1,-0.018,0,0,3,727.27,8.634,0,1022.89,0,0,0,,0,NONE,0,0,0,0,0,0,0,0,0,0,614.93,0,0,0,0,0,0,0,0,0,269.92,0,0,0,0,0,0,0,0,0,0,0,0,0,3,3,0,0,VALID,0,0,0,0,0,1,0,0,0,0,0,0,0,0,0,0,0,0,0,0,298.22,1077.01,2,0,0.08,0.08,232,10,0.12,0.08,23.38,FLYING,X10-H,0:/Integrated Flight Computer/aircraft/x10_h_cfg.ks (inferred preloaded)
23.68,APPROACH,ILS_TRACK,152.43,152,-0.43,693.56,614.98,0.19,9.54,9.47,269.98,0.023,0.2721,0,18.31,1,0.6,4.5,0.75,0.35,0.0168,0.4,0,21.77,0,0.43,0,269.99,0,0,1,0.07,0,0,0,270,0.8499,-0.0002,-0.527,0,269.99,0.74,-326.81,18.052,-0.011,0,0,3,727.27,8.647,0,1020.36,0,0,0,,0,NONE,0,0,0,0,0,0,0,0,0,0,614.98,0,0,0,0,0,0,0,0,0,269.92,0,0,0,0,0,0,0,0,0,0,0,0,0,3,3,0,0,VALID,0,0,0,0,0,1,0,0,0,0,0,0,0,0,0,0,0,0,0,0,297.72,1077.02,2,0,0.08,0.08,235,10,0.12,0.08,23.68,FLYING,X10-H,0:/Integrated Flight Computer/aircraft/x10_h_cfg.ks (inferred preloaded)
23.98,APPROACH,ILS_TRACK,152.43,152,-0.43,693.62,615.04,0.2,9.54,9.47,269.98,0.023,0.2718,0,18.181,1,0.6,4.5,0.75,0.35,0.0168,0.4,0,21.769,0,0.431,0,269.99,0,0,1,0.08,0,0,0,269.99,0.8498,-0.0003,-0.5271,0,269.99,0.72,-324.21,18.004,-0.015,0,0,3,727.27,8.656,0,1017.82,0,0,0,,0,NONE,0,0,0,0,0,0,0,0,0,0,615.04,0,0,0,0,0,0,0,0,0,269.92,0,0,0,0,0,0,0,0,0,0,0,0,0,3,3,0,0,VALID,0,0,0,0,0,1,0,0,0,0,0,0,0,0,0,0,0,0,0,0,297.23,1077.02,2,0,0.08,0.08,238,10,0.12,0.08,23.98,FLYING,X10-H,0:/Integrated Flight Computer/aircraft/x10_h_cfg.ks (inferred preloaded)
24.28,APPROACH,ILS_TRACK,152.43,152,-0.43,693.68,615.11,0.21,9.54,9.47,269.98,0.023,0.2716,0,18.051,1,0.6,4.5,0.75,0.35,0.0168,0.4,0,21.769,0,0.431,0,269.99,0,0,1,0.08,0,0,0,269.99,0.8498,-0.0002,-0.5272,0,269.99,0.7,-321.62,17.955,-0.009,0,0,3,727.27,8.665,0,1015.28,0,0,0,,0,NONE,0,0,0,0,0,0,0,0,0,0,615.11,0,0,0,0,0,0,0,0,0,269.92,0,0,0,0,0,0,0,0,0,0,0,0,0,3,3,0,0,VALID,0,0,0,0,0,1,0,0,0,0,0,0,0,0,0,0,0,0,0,0,296.77,1077.02,2,0,0.08,0.08,241,10,0.12,0.08,24.28,FLYING,X10-H,0:/Integrated Flight Computer/aircraft/x10_h_cfg.ks (inferred preloaded)
24.58,APPROACH,ILS_TRACK,152.43,152,-0.43,693.74,615.17,0.22,9.54,9.47,269.98,0.023,0.2715,0,17.922,1,0.6,4.5,0.75,0.35,0.0168,0.4,0,21.77,0,0.429,0,269.99,0,0,1,0.08,0,0,0,269.99,0.8497,-0.0002,-0.5272,0,269.99,0.68,-319.01,17.907,-0.01,0,0,3,727.27,8.671,0,1012.75,0,0,0,,0,NONE,0,0,0,0,0,0,0,0,0,0,615.17,0,0,0,0,0,0,0,0,0,269.92,0,0,0,0,0,0,0,0,0,0,0,0,0,3,3,0,0,VALID,0,0,0,0,0,1,0,0,0,0,0,0,0,0,0,0,0,0,0,0,296.33,1077,2,0,0.08,0.08,244,10,0.12,0.08,24.58,FLYING,X10-H,0:/Integrated Flight Computer/aircraft/x10_h_cfg.ks (inferred preloaded)
24.88,APPROACH,ILS_TRACK,152.43,152,-0.43,693.81,615.24,0.23,9.55,9.47,269.98,0.023,0.2714,0,17.794,1,0.6,4.5,0.75,0.35,0.0168,0.4,0,21.771,0,0.426,0,269.99,0,0,1,0.08,0,0,0,270,0.8497,-0.0003,-0.5273,0,269.99,0.66,-316.41,17.858,-0.015,0,0,3,727.27,8.677,0,1010.21,0,0,0,,0,NONE,0,0,0,0,0,0,0,0,0,0,615.24,0,0,0,0,0,0,0,0,0,269.92,0,0,0,0,0,0,0,0,0,0,0,0,0,3,3,0,0,VALID,0,0,0,0,0,1,0,0,0,0,0,0,0,0,0,0,0,0,0,0,295.92,1076.98,2,0,0.08,0.08,247,10,0.12,0.08,24.88,FLYING,X10-H,0:/Integrated Flight Computer/aircraft/x10_h_cfg.ks (inferred preloaded)
25.18,APPROACH,ILS_TRACK,152.42,152,-0.42,693.88,615.31,0.23,9.55,9.47,269.98,0.022,0.2712,0,17.667,1,0.6,4.5,0.75,0.35,0.0168,0.4,0,21.772,0,0.421,0,269.99,0,0,1,0.09,0,0,0,270,0.8496,-0.0001,-0.5274,0,269.99,0.64,-313.81,17.81,-0.008,0,0,3,727.27,8.686,0,1007.68,0,0,0,,0,NONE,0,0,0,0,0,0,0,0,0,0,615.31,0,0,0,0,0,0,0,0,0,269.92,0,0,0,0,0,0,0,0,0,0,0,0,0,3,3,0,0,VALID,0,0,0,0,0,1,0,0,0,0,0,0,0,0,0,0,0,0,0,0,295.54,1076.96,2,0,0.08,0.08,250,10,0.12,0.08,25.18,FLYING,X10-H,0:/Integrated Flight Computer/aircraft/x10_h_cfg.ks (inferred preloaded)
25.48,APPROACH,ILS_TRACK,152.41,152,-0.41,693.95,615.38,0.24,9.55,9.47,269.98,0.023,0.2711,0,17.542,1,0.6,4.5,0.75,0.35,0.0168,0.4,0,21.774,0,0.415,0,270,0,0,1,0.09,0,0,0,269.99,0.8496,0,-0.5274,0,270,0.62,-311.2,17.762,-0.001,0,0,3,727.27,8.696,0,1005.14,0,0,0,,0,NONE,0,0,0,0,0,0,0,0,0,0,615.38,0,0,0,0,0,0,0,0,0,269.92,0,0,0,0,0,0,0,0,0,0,0,0,0,3,3,0,0,VALID,0,0,0,0,0,1,0,0,0,0,0,0,0,0,0,0,0,0,0,0,295.18,1076.92,2,0,0.08,0.08,253,10,0.12,0.08,25.48,FLYING,X10-H,0:/Integrated Flight Computer/aircraft/x10_h_cfg.ks (inferred preloaded)
25.78,APPROACH,ILS_TRACK,152.41,152,-0.41,694.03,615.45,0.25,9.55,9.47,269.98,0.023,0.2711,0,17.419,1,0.6,4.5,0.75,0.35,0.0168,0.4,0,21.776,0,0.408,0,269.99,0,0,1,0.09,0,0,0,269.99,0.8496,-0.0002,-0.5275,0,269.99,0.6,-308.59,17.713,-0.011,0,0,3,727.27,8.7,0,1002.6,0,0,0,,0,NONE,0,0,0,0,0,0,0,0,0,0,615.45,0,0,0,0,0,0,0,0,0,269.92,0,0,0,0,0,0,0,0,0,0,0,0,0,3,3,0,0,VALID,0,0,0,0,0,1,0,0,0,0,0,0,0,0,0,0,0,0,0,0,294.84,1076.89,2,0,0.08,0.08,256,10,0.12,0.08,25.78,FLYING,X10-H,0:/Integrated Flight Computer/aircraft/x10_h_cfg.ks (inferred preloaded)
26.08,APPROACH,ILS_TRACK,152.4,152,-0.4,694.1,615.52,0.25,9.56,9.47,269.98,0.024,0.271,0,17.298,1,0.6,4.5,0.75,0.35,0.0168,0.4,0,21.778,0,0.399,0,269.99,0,0,1,0.09,0,0,0,269.99,0.8495,-0.0001,-0.5276,0,269.99,0.58,-305.98,17.665,-0.008,0,0,3,727.27,8.705,0,1000.07,0,0,0,,0,NONE,0,0,0,0,0,0,0,0,0,0,615.52,0,0,0,0,0,0,0,0,0,269.92,0,0,0,0,0,0,0,0,0,0,0,0,0,3,3,0,0,VALID,0,0,0,0,0,1,0,0,0,0,0,0,0,0,0,0,0,0,0,0,294.53,1076.85,2,0,0.08,0.08,259,10,0.12,0.08,26.08,FLYING,X10-H,0:/Integrated Flight Computer/aircraft/x10_h_cfg.ks (inferred preloaded)
26.38,APPROACH,ILS_TRACK,152.39,152,-0.39,694.18,615.6,0.26,9.56,9.47,269.98,0.023,0.271,0,17.18,1,0.6,4.5,0.75,0.35,0.0168,0.4,0,21.781,0,0.39,0,269.99,0,0,1,0.1,0,0,0,269.99,0.8495,-0.0001,-0.5276,0,269.99,0.57,-303.37,17.617,-0.008,0,0,3,727.27,8.711,0,997.53,0,0,0,,0,NONE,0,0,0,0,0,0,0,0,0,0,615.6,0,0,0,0,0,0,0,0,0,269.92,0,0,0,0,0,0,0,0,0,0,0,0,0,3,3,0,0,VALID,0,0,0,0,0,1,0,0,0,0,0,0,0,0,0,0,0,0,0,0,294.24,1076.8,2,0,0.08,0.08,262,10,0.12,0.08,26.38,FLYING,X10-H,0:/Integrated Flight Computer/aircraft/x10_h_cfg.ks (inferred preloaded)
26.68,APPROACH,ILS_TRACK,152.38,152,-0.38,694.26,615.68,0.26,9.56,9.47,269.98,0.024,0.271,0,17.065,1,0.6,4.5,0.75,0.35,0.0168,0.4,0,21.784,0,0.38,0,269.98,0,0,1,0.1,0,0,0,269.99,0.8494,-0.0003,-0.5277,0,269.98,0.56,-300.75,17.568,-0.019,0,0,3,727.27,8.713,0,995,0,0,0,,0,NONE,0,0,0,0,0,0,0,0,0,0,615.68,0,0,0,0,0,0,0,0,0,269.92,0,0,0,0,0,0,0,0,0,0,0,0,0,3,3,0,0,VALID,0,0,0,0,0,1,0,0,0,0,0,0,0,0,0,0,0,0,0,0,293.98,1076.75,2,0,0.08,0.08,265,10,0.12,0.08,26.68,FLYING,X10-H,0:/Integrated Flight Computer/aircraft/x10_h_cfg.ks (inferred preloaded)
26.98,APPROACH,ILS_TRACK,152.37,152,-0.37,694.34,615.76,0.27,9.57,9.47,269.99,0.023,0.271,0,16.954,1,0.6,4.5,0.75,0.35,0.0168,0.4,0,21.787,0,0.369,0,269.99,0,0,1,0.1,0,0,0,269.99,0.8494,-0.0001,-0.5278,0,269.99,0.54,-298.13,17.52,-0.008,0,0,3,727.27,8.723,0,992.46,0,0,0,,0,NONE,0,0,0,0,0,0,0,0,0,0,615.76,0,0,0,0,0,0,0,0,0,269.92,0,0,0,0,0,0,0,0,0,0,0,0,0,3,3,0,0,VALID,0,0,0,0,0,1,0,0,0,0,0,0,0,0,0,0,0,0,0,0,293.75,1076.7,2,0,0.08,0.08,268,10,0.12,0.08,26.98,FLYING,X10-H,0:/Integrated Flight Computer/aircraft/x10_h_cfg.ks (inferred preloaded)
27.28,APPROACH,ILS_TRACK,152.36,152,-0.36,694.42,615.84,0.28,9.57,9.47,269.99,0.022,0.2711,0,16.846,1,0.6,4.5,0.75,0.35,0.0168,0.4,0,21.79,0,0.357,0,270,0,0,1,0.1,0,0,0,269.99,0.8493,-0.0001,-0.5278,0,270,0.52,-295.52,17.471,-0.005,0,0,3,727.27,8.728,0,989.93,0,0,0,,0,NONE,0,0,0,0,0,0,0,0,0,0,615.84,0,0,0,0,0,0,0,0,0,269.92,0,0,0,0,0,0,0,0,0,0,0,0,0,3,3,0,0,VALID,0,0,0,0,0,1,0,0,0,0,0,0,0,0,0,0,0,0,0,0,293.54,1076.64,2,0,0.08,0.08,271,10,0.12,0.08,27.28,FLYING,X10-H,0:/Integrated Flight Computer/aircraft/x10_h_cfg.ks (inferred preloaded)
27.58,APPROACH,ILS_TRACK,152.34,152,-0.34,694.51,615.93,0.28,9.57,9.47,269.99,0.023,0.2712,0,16.741,1,0.6,4.5,0.75,0.35,0.0168,0.4,0,21.794,0,0.344,0,269.99,0,0,1,0.11,0,0,0,269.99,0.8493,-0.0001,-0.5279,0,269.99,0.51,-292.9,17.423,-0.007,0,0,3,727.27,8.731,0,987.39,0,0,0,,0,NONE,0,0,0,0,0,0,0,0,0,0,615.93,0,0,0,0,0,0,0,0,0,269.92,0,0,0,0,0,0,0,0,0,0,0,0,0,3,3,0,0,VALID,0,0,0,0,0,1,0,0,0,0,0,0,0,0,0,0,0,0,0,0,293.35,1076.58,2,0,0.08,0.08,274,10,0.12,0.08,27.58,FLYING,X10-H,0:/Integrated Flight Computer/aircraft/x10_h_cfg.ks (inferred preloaded)
27.88,APPROACH,ILS_TRACK,152.33,152,-0.33,694.59,616.01,0.29,9.58,9.48,269.99,0.022,0.2712,0,16.641,1,0.6,4.5,0.75,0.35,0.0168,0.4,0,21.798,0,0.33,0,269.99,0,0,1,0.11,0,0,0,270,0.8493,-0.0002,-0.528,0,269.99,0.5,-290.28,17.375,-0.011,0,0,3,727.27,8.735,0,984.86,0,0,0,,0,NONE,0,0,0,0,0,0,0,0,0,0,616.01,0,0,0,0,0,0,0,0,0,269.92,0,0,0,0,0,0,0,0,0,0,0,0,0,3,3,0,0,VALID,0,0,0,0,0,1,0,0,0,0,0,0,0,0,0,0,0,0,0,0,293.19,1076.52,2,0,0.08,0.08,277,10,0.12,0.08,27.88,FLYING,X10-H,0:/Integrated Flight Computer/aircraft/x10_h_cfg.ks (inferred preloaded)
28.18,APPROACH,ILS_TRACK,152.32,152,-0.32,694.68,616.1,0.29,9.58,9.48,269.99,0.021,0.2714,0,16.544,1,0.6,4.5,0.75,0.35,0.0168,0.4,0,21.802,0,0.316,0,270,0,0,1,0.11,0,0,0,269.99,0.8492,-0.0001,-0.528,0,270,0.48,-287.65,17.326,-0.003,0,0,3,727.27,8.742,0,982.32,0,0,0,,0,NONE,0,0,0,0,0,0,0,0,0,0,616.1,0,0,0,0,0,0,0,0,0,269.92,0,0,0,0,0,0,0,0,0,0,0,0,0,3,3,0,0,VALID,0,0,0,0,0,1,0,0,0,0,0,0,0,0,0,0,0,0,0,0,293.05,1076.45,2,0,0.08,0.08,280,10,0.12,0.08,28.18,FLYING,X10-H,0:/Integrated Flight Computer/aircraft/x10_h_cfg.ks (inferred preloaded)
28.48,APPROACH,ILS_TRACK,152.3,152,-0.3,694.77,616.19,0.29,9.58,9.48,269.99,0.02,0.2714,0,16.452,1,0.6,4.5,0.75,0.35,0.0168,0.4,0,21.806,0,0.302,0,269.98,0,0,1,0.11,0,0,0,270,0.8492,-0.0003,-0.5281,0,269.98,0.47,-285.03,17.278,-0.017,0,0,3,727.27,8.741,0,979.79,0,0,0,,0,NONE,0,0,0,0,0,0,0,0,0,0,616.19,0,0,0,0,0,0,0,0,0,269.92,0,0,0,0,0,0,0,0,0,0,0,0,0,3,3,0,0,VALID,0,0,0,0,0,1,0,0,0,0,0,0,0,0,0,0,0,0,0,0,292.94,1076.38,2,0,0.08,0.08,283,10,0.12,0.08,28.48,FLYING,X10-H,0:/Integrated Flight Computer/aircraft/x10_h_cfg.ks (inferred preloaded)
28.78,APPROACH,ILS_TRACK,152.29,152,-0.29,694.86,616.28,0.3,9.58,9.48,269.99,0.018,0.2717,0,16.365,1,0.6,4.5,0.75,0.35,0.0168,0.4,0,21.81,0,0.287,0,270,0,0,1,0.11,0,0,0,269.99,0.8491,-0.0001,-0.5282,0,270,0.46,-282.41,17.23,-0.004,0,0,3,727.27,8.75,0,977.26,0,0,0,,0,NONE,0,0,0,0,0,0,0,0,0,0,616.28,0,0,0,0,0,0,0,0,0,269.92,0,0,0,0,0,0,0,0,0,0,0,0,0,3,3,0,0,VALID,0,0,0,0,0,1,0,0,0,0,0,0,0,0,0,0,0,0,0,0,292.85,1076.31,2,0,0.08,0.08,286,10,0.12,0.08,28.78,FLYING,X10-H,0:/Integrated Flight Computer/aircraft/x10_h_cfg.ks (inferred preloaded)
29.08,APPROACH,ILS_TRACK,152.27,152,-0.27,694.95,616.37,0.3,9.59,9.48,269.99,0.018,0.2717,0,16.282,1,0.6,4.5,0.75,0.35,0.0168,0.4,0,21.814,0,0.272,0,269.98,0,0,1,0.11,0,0,0,269.99,0.8491,-0.0003,-0.5283,0,269.98,0.45,-279.78,17.181,-0.017,0,0,3,727.27,8.749,0,974.72,0,0,0,,0,NONE,0,0,0,0,0,0,0,0,0,0,616.37,0,0,0,0,0,0,0,0,0,269.92,0,0,0,0,0,0,0,0,0,0,0,0,0,3,3,0,0,VALID,0,0,0,0,0,1,0,0,0,0,0,0,0,0,0,0,0,0,0,0,292.78,1076.24,2,0,0.08,0.08,289,10,0.12,0.08,29.08,FLYING,X10-H,0:/Integrated Flight Computer/aircraft/x10_h_cfg.ks (inferred preloaded)
29.38,APPROACH,ILS_TRACK,152.26,152,-0.26,695.04,616.46,0.31,9.59,9.48,269.99,0.016,0.2719,0,16.203,1,0.6,4.5,0.75,0.35,0.0168,0.4,0,21.819,0,0.256,0,269.98,0,0,1,0.12,0,0,0,269.99,0.849,-0.0003,-0.5283,0,269.98,0.44,-277.16,17.133,-0.018,0,0,3,727.27,8.753,0,972.19,0,0,0,,0,NONE,0,0,0,0,0,0,0,0,0,0,616.46,0,0,0,0,0,0,0,0,0,269.92,0,0,0,0,0,0,0,0,0,0,0,0,0,3,3,0,0,VALID,0,0,0,0,0,1,0,0,0,0,0,0,0,0,0,0,0,0,0,0,292.74,1076.17,2,0,0.08,0.08,292,10,0.12,0.08,29.38,FLYING,X10-H,0:/Integrated Flight Computer/aircraft/x10_h_cfg.ks (inferred preloaded)
29.68,APPROACH,ILS_TRACK,152.24,152,-0.24,695.14,616.55,0.32,9.6,9.48,269.99,0.015,0.2724,0,16.129,1,0.6,4.5,0.75,0.35,0.0168,0.4,0,21.823,0,0.24,0,269.99,0,0,1,0.12,0,0,0,269.99,0.849,-0.0002,-0.5284,0,269.99,0.43,-274.53,17.085,-0.01,0,0,3,727.27,8.775,0,969.65,0,0,0,,0,NONE,0,0,0,0,0,0,0,0,0,0,616.55,0,0,0,0,0,0,0,0,0,269.92,0,0,0,0,0,0,0,0,0,0,0,0,0,3,3,0,0,VALID,0,0,0,0,0,1,0,0,0,0,0,0,0,0,0,0,0,0,0,0,292.62,1076.09,2,0,0.08,0.08,295,10,0.12,0.08,29.68,FLYING,X10-H,0:/Integrated Flight Computer/aircraft/x10_h_cfg.ks (inferred preloaded)
29.98,APPROACH,ILS_TRACK,152.22,152,-0.22,695.23,616.65,0.32,9.6,9.49,269.99,0.014,0.2735,0,16.061,1,0.6,4.5,0.75,0.35,0.0168,0.4,0,21.828,0,0.223,0,270,0,0,1,0.12,0,0,0,269.99,0.849,0,-0.5285,0,270,0.42,-271.9,17.036,0,0,0,3,727.27,8.777,0,967.12,0,0,0,,0,NONE,0,0,0,0,0,0,0,0,0,0,616.65,0,0,0,0,0,0,0,0,0,269.92,0,0,0,0,0,0,0,0,0,0,0,0,0,3,3,0,0,VALID,0,0,0,0,0,1,0,0,0,0,0,0,0,0,0,0,0,0,0,0,292.66,1076.01,2,0,0.08,0.08,298,10,0.12,0.08,29.98,FLYING,X10-H,0:/Integrated Flight Computer/aircraft/x10_h_cfg.ks (inferred preloaded)
30.28,APPROACH,ILS_TRACK,152.2,152,-0.2,695.33,616.74,0.32,9.6,9.49,269.99,0.014,0.2745,0,15.998,1,0.6,4.5,0.75,0.35,0.0168,0.4,0,21.833,0,0.205,0,270,0,0,1,0.12,0,0,0,269.99,0.8489,-0.0001,-0.5285,0,270,0.41,-269.27,16.988,-0.004,0,0,3,727.27,8.766,0,964.59,0,0,0,,0,NONE,0,0,0,0,0,0,0,0,0,0,616.74,0,0,0,0,0,0,0,0,0,269.92,0,0,0,0,0,0,0,0,0,0,0,0,0,3,3,0,0,VALID,0,0,0,0,0,1,0,0,0,0,0,0,0,0,0,0,0,0,0,0,292.74,1075.93,2,0,0.08,0.08,301,10,0.12,0.08,30.28,FLYING,X10-H,0:/Integrated Flight Computer/aircraft/x10_h_cfg.ks (inferred preloaded)
30.58,APPROACH,ILS_TRACK,152.19,152,-0.19,695.43,616.84,0.33,9.61,9.49,269.99,0.014,0.2752,0,15.94,1,0.6,4.5,0.75,0.35,0.0168,0.4,0,21.838,0,0.187,0,269.99,0,0,1,0.12,0,0,0,269.99,0.8489,-0.0002,-0.5286,0,269.99,0.4,-266.64,16.94,-0.014,0,0,3,727.27,8.789,0,962.06,0,0,0,,0,NONE,0,0,0,0,0,0,0,0,0,0,616.84,0,0,0,0,0,0,0,0,0,269.92,0,0,0,0,0,0,0,0,0,0,0,0,0,3,3,0,0,VALID,0,0,0,0,0,1,0,0,0,0,0,0,0,0,0,0,0,0,0,0,292.88,1075.84,2,0,0.08,0.08,304,10,0.12,0.08,30.58,FLYING,X10-H,0:/Integrated Flight Computer/aircraft/x10_h_cfg.ks (inferred preloaded)
30.88,APPROACH,ILS_TRACK,152.17,152,-0.17,695.52,616.94,0.32,9.6,9.48,269.99,0.014,0.2763,0,15.887,1,0.6,4.5,0.75,0.35,0.0168,0.4,0,21.843,0,0.168,0,270,0,0,1,0.12,0,0,0,269.99,0.8488,0,-0.5287,0,270,0.4,-264.01,16.891,-0.001,0,0,3,727.27,8.754,0,959.52,0,0,0,,0,NONE,0,0,0,0,0,0,0,0,0,0,616.94,0,0,0,0,0,0,0,0,0,269.92,0,0,0,0,0,0,0,0,0,0,0,0,0,3,3,0,0,VALID,0,0,0,0,0,1,0,0,0,0,0,0,0,0,0,0,0,0,0,0,293.06,1075.76,2,0,0.08,0.08,307,10,0.12,0.08,30.88,FLYING,X10-H,0:/Integrated Flight Computer/aircraft/x10_h_cfg.ks (inferred preloaded)
31.18,APPROACH,ILS_TRACK,152.15,152,-0.15,695.63,617.03,0.33,9.61,9.5,269.99,0.013,0.2753,0,15.84,1,0.6,4.5,0.75,0.35,0.0168,0.4,0,21.848,0,0.152,0,270,0,0,1,0.12,0,0,0,269.99,0.8488,0,-0.5287,0,270,0.39,-261.38,16.843,-0.002,0,0,3,727.27,8.773,0,956.99,0,0,0,,0,NONE,0,0,0,0,0,0,0,0,0,0,617.03,0,0,0,0,0,0,0,0,0,269.92,0,0,0,0,0,0,0,0,0,0,0,0,0,3,3,0,0,VALID,0,0,0,0,0,1,0,0,0,0,0,0,0,0,0,0,0,0,0,0,293.26,1075.68,2,0,0.08,0.08,310,10,0.12,0.08,31.18,FLYING,X10-H,0:/Integrated Flight Computer/aircraft/x10_h_cfg.ks (inferred preloaded)
31.48,APPROACH,ILS_TRACK,152.14,152,-0.14,695.73,617.13,0.32,9.61,9.5,269.99,0.014,0.2748,0,15.798,1,0.6,4.5,0.75,0.35,0.0168,0.4,0,21.852,0,0.137,0,269.99,0,0,1,0.12,0,0,0,269.99,0.8487,-0.0002,-0.5288,0,269.99,0.38,-258.75,16.795,-0.014,0,0,3,727.27,8.768,0,954.46,0,0,0,,0,NONE,0,0,0,0,0,0,0,0,0,0,617.13,0,0,0,0,0,0,0,0,0,269.92,0,0,0,0,0,0,0,0,0,0,0,0,0,3,3,0,0,VALID,0,0,0,0,0,1,0,0,0,0,0,0,0,0,0,0,0,0,0,0,293.4,1075.61,2,0,0.08,0.08,313,10,0.12,0.08,31.48,FLYING,X10-H,0:/Integrated Flight Computer/aircraft/x10_h_cfg.ks (inferred preloaded)
31.78,APPROACH,ILS_TRACK,152.12,152,-0.12,695.83,617.23,0.34,9.62,9.5,269.99,0.012,0.2757,0,15.76,1,0.6,4.5,0.75,0.35,0.0168,0.4,0,21.857,0,0.12,0,269.99,0,0,1,0.13,0,0,0,269.98,0.8487,-0.0002,-0.5289,0,269.99,0.38,-256.11,16.746,-0.01,0,0,3,727.27,8.797,0,951.93,0,0,0,,0,NONE,0,0,0,0,0,0,0,0,0,0,617.23,0,0,0,0,0,0,0,0,0,269.92,0,0,0,0,0,0,0,0,0,0,0,0,0,3,3,0,0,VALID,0,0,0,0,0,1,0,0,0,0,0,0,0,0,0,0,0,0,0,0,293.53,1075.53,2,0,0.08,0.08,316,10,0.12,0.08,31.78,FLYING,X10-H,0:/Integrated Flight Computer/aircraft/x10_h_cfg.ks (inferred preloaded)
