t_s,phase,subphase,ias_ms,vapp_ms,spd_err_ms,agl_m,vs_ms,pitch_deg,aoa_deg,hdg_deg,bank_deg,thr_cmd,thr_cur,thr_intg,at_gain,at_tau_s,at_a_up,at_a_dn,at_kp_thr,at_ki_spd,at_thr_slew,as_cmd_deg,as_cap_deg,as_raw_deg,as_spd_err_ms,as_active,aa_hdg_cmd_deg,aa_fpa_cmd_deg,aa_fbw,aa_dir,actual_fpa_deg,ftf_hdg_err_deg,ftf_fix_idx,kos_steer_pit_deg,kos_steer_hdg_deg,aa_dir_vx,aa_dir_vy,aa_dir_vz,aa_dir_pitch_deg,aa_dir_hdg_deg,ils_loc_m,ils_gs_m,ils_dist_km,loc_corr_deg,gs_corr_deg,gs_latched,active_gs_ang_deg,ils_intercept_alt_m,d_gs_ms,fpa_preclamped_deg,gs_nom_alt_m,flare_fpa_cmd,flare_tgt_vs,flare_frac,steer_hdg_deg,steer_blend,ro_loc_corr_deg,ro_hdg_err_deg,ro_yaw_tgt,ro_yaw_scale,ro_yaw_gate,yaw_cmd,roll_cmd,pitch_cmd,ro_pitch_tgt_deg,ro_pitch_err_deg,ro_pitch_ff,ro_roll_assist,flaps_cur,flaps_tgt,asc_j_ab,asc_j_rk,asc_validity,asc_q_pa,asc_q_raw_pa,asc_mach,asc_apo_m,asc_drag_n,asc_w_prop,asc_edot_aero,asc_edot_orb,asc_pitch_bias,asc_blend,asc_spooling,asc_ab_thr_ratio,asc_ab_t_now,asc_ab_t_avail,asc_ab_ign_on,asc_ab_flameouts,asc_rk_t_now,asc_rk_t_avail,asc_rk_ign_on,asc_rk_flameouts,ship_thrust,ship_avail_thrust,ship_ign_on,ship_flameouts,ifc_raw_dt_s,ifc_dt_s,ifc_loop_n,ifc_hz_est,ifc_raw_dt_max_s,ifc_raw_dt_min_s,phase_el_s,status,craft_name,cfg_file
0.18,TAKEOFF,TO_GROUND_ROLL,249.72,80,-169.72,1499.89,0,-1.95,-1.95,180.02,0.037,1,0,0,0,0,0,0,0,0,0,0,0,0,0,0,90.4,0,1,0,0,0,0,0,90,0,0,0,0,0,0,0,0,0,0,0,3,0,0,0,69,0,0,0,90.4,1,0,89.624,0,0,1,0,0,0,0,0,0,0,0,1,0,0,VALID,0,0,0,0,0,1,0,0,0,0,0,0,0,0,0,0,0,0,0,0,73.96,349.9,2,0,0.16,0.16,1,3.7,0.16,0.02,0.02,FLYING,CF1-J,0:/Integrated Flight Computer/aircraft/cf1_j_cfg.ks (inferred preloaded)
0.46,TAKEOFF,TO_ROTATE,249.71,80,-169.71,1499.89,0.01,-1.93,-1.93,180.01,-0.288,1,0,0,0,0,0,0,0,0,0,0,0,0,0,0,90.4,-1.347,0,1,0,0,0,-1.53,90.4,-0.6033,-0.006,0.7975,-1.35,90.4,0,0,0,0,0,0,3,0,0,0,69,0,0,0,90.4,1,0,89.61,0,0,3,0,0,0,-1.347,0.584,0,0,1,1,0,0,VALID,0,0,0,0,0,1,0,0,0,0,0,0,0,0,0,0,0,0,0,0,77.54,349.9,2,0,0.06,0.06,5,14.29,0.16,0.06,0.3,FLYING,CF1-J,0:/Integrated Flight Computer/aircraft/cf1_j_cfg.ks (inferred preloaded)
0.72,TAKEOFF,TO_ROTATE,249.65,80,-169.65,1499.9,0.11,-1.91,-1.92,179.94,-2.714,1,0,0,0,0,0,0,0,0,0,0,0,0,0,0,90.4,-0.567,0,1,0.03,0,0,-0.75,90.4,-0.5924,-0.0066,0.8056,-0.57,90.4,0,0,0,0,0,0,3,0,0,0,69,0,0,0,90.4,1,0,89.539,0,0,3,0,0,0,-0.567,1.339,0,0,1,1,0,0,VALID,0,0,0,0,0,1,0,0,0,0,0,0,0,0,0,0,0,0,0,0,81.76,349.89,2,0,0.06,0.06,9,15.38,0.08,0.04,0.56,FLYING,CF1-J,0:/Integrated Flight Computer/aircraft/cf1_j_cfg.ks (inferred preloaded)
0.98,TAKEOFF,TO_ROTATE,249.65,80,-169.65,1499.95,0.37,-2.07,-2.13,179.97,-3.519,1,0,0,0,0,0,0,0,0,0,0,0,0,0,0,90.4,0.213,0,1,0.08,0,0,0.03,90.4,-0.5814,-0.0071,0.8136,0.21,90.4,0,0,0,0,0,0,3,0,0,0,69,0,0,0,90.4,1,0,89.575,0,0,3,0,0,0,0.213,2.28,0,0,1,1,0,0,VALID,0,0,0,0,0,1,0,0,0,0,0,0,0,0,0,0,0,0,0,0,85.91,349.89,2,0,0.06,0.06,13,15.38,0.08,0.04,0.82,FLYING,CF1-J,0:/Integrated Flight Computer/aircraft/cf1_j_cfg.ks (inferred preloaded)
1.24,TAKEOFF,TO_ROTATE,249.65,80,-169.65,1500.06,0.5,-2.12,-2.22,180,-3.73,1,0,0,0,0,0,0,0,0,0,0,0,0,0,0,90.4,0.993,0,1,0.11,0,0,0.81,90.4,-0.5703,-0.0077,0.8214,0.99,90.4,0,0,0,0,0,0,3,0,0,0,69,0,0,0,90.4,1,0,89.602,0,0,3,0,0,0,0.993,3.114,0,0,1,1,0,0,VALID,0,0,0,0,0,1,0,0,0,0,0,0,0,0,0,0,0,0,0,0,90,349.89,2,0,0.06,0.06,17,15.38,0.08,0.04,1.08,FLYING,CF1-J,0:/Integrated Flight Computer/aircraft/cf1_j_cfg.ks (inferred preloaded)
1.5,TAKEOFF,TO_ROTATE,249.63,80,-169.63,1500.17,0.59,-2.29,-2.4,180.01,-3.811,1,0,0,0,0,0,0,0,0,0,0,0,0,0,0,90.4,1.773,0,1,0.14,0,0,1.59,90.4,-0.559,-0.0082,0.8291,1.77,90.4,0,0,0,0,0,0,3,0,0,0,69,0,0,0,90.4,1,0,89.613,0,0,3,0,0,0,1.773,4.066,0,0,1,1,0,0,VALID,0,0,0,0,0,1,0,0,0,0,0,0,0,0,0,0,0,0,0,0,94.02,349.88,2,0,0.06,0.06,21,15.38,0.08,0.04,1.34,FLYING,CF1-J,0:/Integrated Flight Computer/aircraft/cf1_j_cfg.ks (inferred preloaded)
1.76,TAKEOFF,TO_ROTATE,249.6,80,-169.6,1500.31,0.86,-2.44,-2.53,180,-3.855,1,0,0,0,0,0,0,0,0,0,0,0,0,0,0,90.4,2.553,0,1,0.2,0,0,2.37,90.4,-0.5477,-0.0088,0.8366,2.55,90.4,0,0,0,0,0,0,3,0,0,0,69,0,0,0,90.4,1,0,89.603,0,0,3,0,0,0,2.553,4.989,0,0,1,1,0,0,VALID,0,0,0,0,0,1,0,0,0,0,0,0,0,0,0,0,0,0,0,0,97.98,349.87,2,0,0.06,0.06,25,15.38,0.08,0.04,1.6,FLYING,CF1-J,0:/Integrated Flight Computer/aircraft/cf1_j_cfg.ks (inferred preloaded)
2.04,CRUISE,,249.52,80,-169.52,1500.38,-0.2,-2.27,-2.3,179.96,-3.863,0.92,0,0.067,1,0.6,0.9,0.77,0.35,0.0168,0.4,0,0,0,0,0,180,0,0,0,-0.05,0,0,3.1,90.4,-0.5398,-0.0091,0.8418,3.1,90.4,0,0,0,0,0,0,3,0,0,0,69,0,0,0,90.4,1,0,89.624,0,0,3,0,0,0,2.793,5.7,0,0,0,0,0,0,VALID,0,0,0,0,0,1,0,0,0,0,0,0,0,0,0,0,0,0,0,0,102.11,349.86,2,0,0.06,0.06,29,14.29,0.08,0.06,0.14,FLYING,CF1-J,0:/Integrated Flight Computer/aircraft/cf1_j_cfg.ks (inferred preloaded)
2.3,CRUISE,,249.49,80,-169.49,1500.41,0.22,-2.43,-2.49,179.94,-3.891,0.816,0,0.196,1,0.6,2.483,0.77,0.35,0.0168,0.4,0,0,0,0,0,180,0,0,0,0.05,0,0,3.1,90.4,-0.5398,-0.0091,0.8418,3.1,90.4,0,0,0,0,0,0,3,0,0,0,69,0,0,0,90.4,1,0,89.624,0,0,3,0,0,0,2.793,5.7,0,0,0,0,0,0,VALID,0,0,0,0,0,1,0,0,0,0,0,0,0,0,0,0,0,0,0,0,105.38,349.85,2,0,0.06,0.06,34,19.23,0.06,0.04,0.4,FLYING,CF1-J,0:/Integrated Flight Computer/aircraft/cf1_j_cfg.ks (inferred preloaded)
2.6,CRUISE,,249.55,80,-169.55,1500.46,-0.04,-2.29,-2.3,179.89,-3.934,0.696,0,0.341,1,0.6,3.551,0.77,0.35,0.0168,0.4,0,0,0,0,0,180,0,0,0,-0.01,0,0,3.1,90.4,-0.5398,-0.0091,0.8418,3.1,90.4,0,0,0,0,0,0,3,0,0,0,69,0,0,0,90.4,1,0,89.624,0,0,3,0,0,0,2.793,5.7,0,0,0,0,0,0,VALID,0,0,0,0,0,1,0,0,0,0,0,0,0,0,0,0,0,0,0,0,108.4,349.86,2,0,0.06,0.06,39,16.67,0.08,0.04,0.7,FLYING,CF1-J,0:/Integrated Flight Computer/aircraft/cf1_j_cfg.ks (inferred preloaded)
2.9,CRUISE,,249.66,80,-169.66,1500.44,-0.15,-2.19,-2.17,179.85,-3.998,0.576,0,0.458,1,0.6,4.255,0.77,0.35,0.0168,0.4,0,0,0,0,0,180,0,0,0,-0.03,0,0,3.1,90.4,-0.5398,-0.0091,0.8418,3.1,90.4,0,0,0,0,0,0,3,0,0,0,69,0,0,0,90.4,1,0,89.624,0,0,3,0,0,0,2.793,5.7,0,0,0,0,0,0,VALID,0,0,0,0,0,1,0,0,0,0,0,0,0,0,0,0,0,0,0,0,110.62,349.89,2,0,0.06,0.06,44,16.67,0.06,0.06,1,FLYING,CF1-J,0:/Integrated Flight Computer/aircraft/cf1_j_cfg.ks (inferred preloaded)
3.16,CRUISE,,249.8,80,-169.8,1500.41,-0.24,-2.09,-2.05,179.8,-4.074,0.472,0,0.525,1,0.6,4.5,0.77,0.35,0.0168,0.4,0,0,0,0,0,180,0,0,0,-0.05,0,0,3.1,90.4,-0.5398,-0.0091,0.8418,3.1,90.4,0,0,0,0,0,0,3,0,0,0,69,0,0,0,90.4,1,0,89.624,0,0,3,0,0,0,2.793,5.7,0,0,0,0,0,0,VALID,0,0,0,0,0,1,0,0,0,0,0,0,0,0,0,0,0,0,0,0,111.9,349.92,2,0,0.04,0.04,49,19.23,0.06,0.04,1.26,FLYING,CF1-J,0:/Integrated Flight Computer/aircraft/cf1_j_cfg.ks (inferred preloaded)
3.44,CRUISE,,249.99,80,-169.99,1500.34,-0.31,-1.99,-1.93,179.75,-4.176,0.36,0,0.549,1,0.6,4.5,0.77,0.35,0.0168,0.4,0,0,0,0,0,180,0,0,0,-0.07,0,0,3.1,90.4,-0.5398,-0.0091,0.8418,3.1,90.4,0,0,0,0,0,0,3,0,0,0,69,0,0,0,90.4,1,0,89.624,0,0,3,0,0,0,2.793,5.7,0,0,0,0,0,0,VALID,0,0,0,0,0,1,0,0,0,0,0,0,0,0,0,0,0,0,0,0,112.63,349.96,2,0,0.06,0.06,54,17.86,0.06,0.04,1.54,FLYING,CF1-J,0:/Integrated Flight Computer/aircraft/cf1_j_cfg.ks (inferred preloaded)
3.72,CRUISE,,250.2,80,-170.2,1500.27,-0.25,-1.98,-1.93,179.71,-4.294,0.248,0,0.535,1,0.6,4.5,0.77,0.35,0.0168,0.4,0,0,0,0,0,180,0,0,0,-0.06,0,0,3.1,90.4,-0.5398,-0.0091,0.8418,3.1,90.4,0,0,0,0,0,0,3,0,0,0,69,0,0,0,90.4,1,0,89.624,0,0,3,0,0,0,2.793,5.7,0,0,0,0,0,0,VALID,0,0,0,0,0,1,0,0,0,0,0,0,0,0,0,0,0,0,0,0,112.51,350.01,2,0,0.06,0.06,59,17.86,0.08,0.04,1.82,FLYING,CF1-J,0:/Integrated Flight Computer/aircraft/cf1_j_cfg.ks (inferred preloaded)
3.98,CRUISE,,250.38,80,-170.38,1500.2,-0.25,-1.97,-1.92,179.67,-4.407,0.144,0,0.522,1,0.6,4.5,0.77,0.35,0.0168,0.4,0,0,0,0,0,180,0,0,0,-0.06,0,0,3.1,90.4,-0.5398,-0.0091,0.8418,3.1,90.4,0,0,0,0,0,0,3,0,0,0,69,0,0,0,90.4,1,0,89.624,0,0,3,0,0,0,2.793,5.7,0,0,0,0,0,0,VALID,0,0,0,0,0,1,0,0,0,0,0,0,0,0,0,0,0,0,0,0,110.33,350.05,2,0,0.06,0.06,64,19.23,0.06,0.04,2.08,FLYING,CF1-J,0:/Integrated Flight Computer/aircraft/cf1_j_cfg.ks (inferred preloaded)
4.24,CRUISE,,250.57,80,-170.57,1500.13,-0.31,-1.96,-1.91,179.63,-4.52,0.04,0,0.509,1,0.6,4.5,0.75,0.35,0.0168,0.4,0,0,0,0,0,180,0,0,0,-0.07,0,0,3.1,90.4,-0.5398,-0.0091,0.8418,3.1,90.4,0,0,0,0,0,0,3,0,0,0,69,0,0,0,90.4,1,0,89.624,0,0,3,0,0,0,2.793,5.7,0,0,0,0,0,0,VALID,0,0,0,0,0,1,0,0,0,0,0,0,0,0,0,0,0,0,0,0,105.99,350.09,2,0,0.06,0.06,69,19.23,0.06,0.04,2.34,FLYING,CF1-J,0:/Integrated Flight Computer/aircraft/cf1_j_cfg.ks (inferred preloaded)
4.5,CRUISE,,250.74,80,-170.74,1500.07,-0.25,-1.98,-1.93,179.6,-4.635,0,0,0.496,1,0.6,4.5,0.75,0.35,0.0168,0.4,0,0,0,0,0,180,0,0,0,-0.06,0,0,3.1,90.4,-0.5398,-0.0091,0.8418,3.1,90.4,0,0,0,0,0,0,3,0,0,0,69,0,0,0,90.4,1,0,89.624,0,0,3,0,0,0,2.793,5.7,0,0,0,0,0,0,VALID,0,0,0,0,0,1,0,0,0,0,0,0,0,0,0,0,0,0,0,0,99.78,350.13,2,0,0.06,0.06,74,19.23,0.06,0.04,2.6,FLYING,CF1-J,0:/Integrated Flight Computer/aircraft/cf1_j_cfg.ks (inferred preloaded)
4.76,CRUISE,,250.87,80,-170.87,1500,-0.25,-1.96,-1.91,179.55,-4.749,0,0,0.484,1,0.6,4.5,0.75,0.35,0.0168,0.4,0,0,0,0,0,180,0,0,0,-0.06,0,0,3.1,90.4,-0.5398,-0.0091,0.8418,3.1,90.4,0,0,0,0,0,0,3,0,0,0,69,0,0,0,90.4,1,0,89.624,0,0,3,0,0,0,2.793,5.7,0,0,0,0,0,0,VALID,0,0,0,0,0,1,0,0,0,0,0,0,0,0,0,0,0,0,0,0,93.5,350.16,2,0,0.06,0.06,79,19.23,0.06,0.04,2.86,FLYING,CF1-J,0:/Integrated Flight Computer/aircraft/cf1_j_cfg.ks (inferred preloaded)
5.02,CRUISE,,250.97,80,-170.97,1499.93,-0.29,-1.97,-1.92,179.51,-4.863,0,0,0.472,1,0.6,4.5,0.75,0.35,0.0168,0.4,0,0,0,0,0,180,0,0,0,-0.07,0,0,3.1,90.4,-0.5398,-0.0091,0.8418,3.1,90.4,0,0,0,0,0,0,3,0,0,0,69,0,0,0,90.4,1,0,89.624,0,0,3,0,0,0,2.793,5.7,0,0,0,0,0,0,VALID,0,0,0,0,0,1,0,0,0,0,0,0,0,0,0,0,0,0,0,0,87.6,350.18,2,0,0.06,0.06,84,19.23,0.06,0.04,3.12,FLYING,CF1-J,0:/Integrated Flight Computer/aircraft/cf1_j_cfg.ks (inferred preloaded)
5.28,CRUISE,,251.03,80,-171.03,1499.85,-0.29,-2,-1.94,179.47,-4.978,0,0,0.46,1,0.6,4.5,0.75,0.35,0.0168,0.4,0,0,0,0,0,180,0,0,0,-0.07,0,0,3.1,90.4,-0.5398,-0.0091,0.8418,3.1,90.4,0,0,0,0,0,0,3,0,0,0,69,0,0,0,90.4,1,0,89.624,0,0,3,0,0,0,2.793,5.7,0,0,0,0,0,0,VALID,0,0,0,0,0,1,0,0,0,0,0,0,0,0,0,0,0,0,0,0,82.08,350.2,2,0,0.06,0.06,89,19.23,0.06,0.04,3.38,FLYING,CF1-J,0:/Integrated Flight Computer/aircraft/cf1_j_cfg.ks (inferred preloaded)
5.54,CRUISE,,251.07,80,-171.07,1499.77,-0.31,-1.99,-1.92,179.43,-5.092,0,0,0.449,1,0.6,4.5,0.75,0.35,0.0168,0.4,0,0,0,0,0,180,0,0,0,-0.07,0,0,3.1,90.4,-0.5398,-0.0091,0.8418,3.1,90.4,0,0,0,0,0,0,3,0,0,0,69,0,0,0,90.4,1,0,89.624,0,0,3,0,0,0,2.793,5.7,0,0,0,0,0,0,VALID,0,0,0,0,0,1,0,0,0,0,0,0,0,0,0,0,0,0,0,0,76.91,350.21,2,0,0.06,0.06,94,19.23,0.06,0.04,3.64,FLYING,CF1-J,0:/Integrated Flight Computer/aircraft/cf1_j_cfg.ks (inferred preloaded)
5.8,CRUISE,,251.08,80,-171.08,1499.69,-0.34,-1.99,-1.92,179.38,-5.206,0,0,0.438,1,0.6,4.5,0.75,0.35,0.0168,0.4,0,0,0,0,0,180,0,0,0,-0.08,0,0,3.1,90.39,-0.5398,-0.0091,0.8418,3.1,90.4,0,0,0,0,0,0,3,0,0,0,69,0,0,0,90.4,1,0,89.624,0,0,3,0,0,0,2.793,5.7,0,0,0,0,0,0,VALID,0,0,0,0,0,1,0,0,0,0,0,0,0,0,0,0,0,0,0,0,72.06,350.22,2,0,0.06,0.06,99,19.23,0.06,0.04,3.9,FLYING,CF1-J,0:/Integrated Flight Computer/aircraft/cf1_j_cfg.ks (inferred preloaded)
6.06,CRUISE,,251.07,80,-171.07,1499.6,-0.35,-2,-1.93,179.34,-5.32,0,0,0.427,1,0.6,4.5,0.75,0.35,0.0168,0.4,0,0,0,0,0,180,0,0,0,-0.08,0,0,3.1,90.39,-0.5398,-0.0091,0.8418,3.1,90.4,0,0,0,0,0,0,3,0,0,0,69,0,0,0,90.4,1,0,89.624,0,0,3,0,0,0,2.793,5.7,0,0,0,0,0,0,VALID,0,0,0,0,0,1,0,0,0,0,0,0,0,0,0,0,0,0,0,0,67.51,350.22,2,0,0.06,0.06,104,19.23,0.06,0.04,4.16,FLYING,CF1-J,0:/Integrated Flight Computer/aircraft/cf1_j_cfg.ks (inferred preloaded)
6.32,CRUISE,,251.03,80,-171.03,1499.5,-0.37,-2,-1.93,179.29,-5.435,0,0,0.416,1,0.6,4.5,0.75,0.35,0.0168,0.4,0,0,0,0,0,180,0,0,0,-0.08,0,0,3.1,90.39,-0.5398,-0.0091,0.8418,3.1,90.4,0,0,0,0,0,0,3,0,0,0,69,0,0,0,90.4,1,0,89.624,0,0,3,0,0,0,2.793,5.7,0,0,0,0,0,0,VALID,0,0,0,0,0,1,0,0,0,0,0,0,0,0,0,0,0,0,0,0,63.25,350.22,2,0,0.06,0.06,109,19.23,0.06,0.04,4.42,FLYING,CF1-J,0:/Integrated Flight Computer/aircraft/cf1_j_cfg.ks (inferred preloaded)
6.58,CRUISE,,250.97,80,-170.97,1499.4,-0.41,-2,-1.93,179.24,-5.549,0.005,0,0.35,1,0.6,4.5,0.75,0.35,0.0168,0.4,0,0,0,0,0,180,0,0,0,-0.09,0,0,3.1,90.39,-0.5398,-0.0091,0.8418,3.1,90.4,0,0,0,0,0,0,3,0,0,0,69,0,0,0,90.4,1,0,89.624,0,0,3,0,0,0,2.793,5.7,0,0,0,0,0,0,VALID,0,0,0,0,0,1,0,0,0,0,0,0,0,0,0,0,0,0,0,0,59.26,350.21,2,0,0.06,0.06,114,19.23,0.06,0.04,4.68,FLYING,CF1-J,0:/Integrated Flight Computer/aircraft/cf1_j_cfg.ks (inferred preloaded)
6.84,CRUISE,,250.89,80,-170.89,1499.29,-0.42,-2.01,-1.93,179.19,-5.663,0.0347,0,0.11,1,0.6,4.5,0.75,0.35,0.0168,0.4,0,0,0,0,0,180,0,0,0,-0.1,0,0,3.1,90.39,-0.5398,-0.0091,0.8418,3.1,90.4,0,0,0,0,0,0,3,0,0,0,69,0,0,0,90.4,1,0,89.624,0,0,3,0,0,0,2.793,5.7,0,0,0,0,0,0,VALID,0,0,0,0,0,1,0,0,0,0,0,0,0,0,0,0,0,0,0,0,55.81,350.2,2,0,0.06,0.06,119,19.23,0.06,0.04,4.94,FLYING,CF1-J,0:/Integrated Flight Computer/aircraft/cf1_j_cfg.ks (inferred preloaded)
7.12,CRUISE,,250.79,80,-170.79,1499.19,-0.49,-1.87,-1.84,179.13,-5.787,0.0614,0,-0.123,1,0.6,4.5,0.75,0.35,0.0168,0.4,0,0,0,0,0,180,0,0,0,-0.11,0,0,3.1,90.39,-0.5398,-0.0091,0.8418,3.1,90.4,0,0,0,0,0,0,3,0,0,0,69,0,0,0,90.4,1,0,89.624,0,0,3,0,0,0,2.793,5.7,0,0,0,0,0,0,VALID,0,0,0,0,0,1,0,0,0,0,0,0,0,0,0,0,0,0,0,0,53.03,350.19,2,0,0.06,0.06,124,17.86,0.06,0.04,5.22,FLYING,CF1-J,0:/Integrated Flight Computer/aircraft/cf1_j_cfg.ks (inferred preloaded)
7.38,CRUISE,,250.67,80,-170.67,1499.53,2.11,-0.4,-0.74,178.92,-5.946,0.0928,0,-0.312,1,0.6,4.5,0.75,0.35,0.0168,0.4,0,0,0,0,0,180,0,0,0,0.48,0,0,3.1,90.39,-0.5398,-0.0091,0.8418,3.1,90.4,0,0,0,0,0,0,3,0,0,0,69,0,0,0,90.4,1,0,89.624,0,0,3,0,0,0,2.793,5.7,0,0,0,0,0,0,VALID,0,0,0,0,0,1,0,0,0,0,0,0,0,0,0,0,0,0,0,0,51.06,350.17,2,0,0.04,0.04,129,19.23,0.06,0.04,5.48,FLYING,CF1-J,0:/Integrated Flight Computer/aircraft/cf1_j_cfg.ks (inferred preloaded)
7.64,CRUISE,,250.44,80,-170.44,1500.12,2.81,-1.44,-2.08,178.98,-6.133,0.1968,0,-0.449,1,0.6,4.5,0.75,0.35,0.0168,0.4,0,0,0,0,0,180,0,0,0,0.64,0,0,3.1,90.39,-0.5398,-0.0091,0.8418,3.1,90.4,0,0,0,0,0,0,3,0,0,0,69,0,0,0,90.4,1,0,89.624,0,0,3,0,0,0,2.793,5.7,0,0,0,0,0,0,VALID,0,0,0,0,0,1,0,0,0,0,0,0,0,0,0,0,0,0,0,0,50.41,350.1,2,0,0.06,0.06,134,19.23,0.06,0.04,5.74,FLYING,CF1-J,0:/Integrated Flight Computer/aircraft/cf1_j_cfg.ks (inferred preloaded)
7.9,CRUISE,,250.29,80,-170.29,1500.83,2.68,-1.35,-1.94,178.91,-6.26,0.1965,0,-0.541,1,0.6,4.5,0.75,0.35,0.0168,0.4,0,0,0,0,0,180,0,0,0,0.61,0,0,3.1,90.39,-0.5398,-0.0091,0.8418,3.1,90.4,0,0,0,0,0,0,3,0,0,0,69,0,0,0,90.4,1,0,89.624,0,0,3,0,0,0,2.793,5.7,0,0,0,0,0,0,VALID,0,0,0,0,0,1,0,0,0,0,0,0,0,0,0,0,0,0,0,0,50.68,350.04,2,0,0.06,0.06,139,19.23,0.06,0.04,6,FLYING,CF1-J,0:/Integrated Flight Computer/aircraft/cf1_j_cfg.ks (inferred preloaded)
8.16,CRUISE,,250.12,80,-170.12,1501.52,2.61,-1.35,-1.93,178.86,-6.376,0.2037,0,-0.589,1,0.6,4.5,0.75,0.35,0.0168,0.4,0,0,0,0,0,180,0,0,0,0.6,0,0,3.1,90.39,-0.5398,-0.0091,0.8418,3.1,90.4,0,0,0,0,0,0,3,0,0,0,69,0,0,0,90.4,1,0,89.624,0,0,3,0,0,0,2.793,5.7,0,0,0,0,0,0,VALID,0,0,0,0,0,1,0,0,0,0,0,0,0,0,0,0,0,0,0,0,50.97,349.99,2,0,0.06,0.06,144,19.23,0.06,0.04,6.26,FLYING,CF1-J,0:/Integrated Flight Computer/aircraft/cf1_j_cfg.ks (inferred preloaded)
8.42,CRUISE,,249.96,80,-169.96,1502.19,2.56,-1.36,-1.93,178.8,-6.491,0.2107,0,-0.596,1,0.6,4.5,0.75,0.35,0.0168,0.4,0,0,0,0,0,180,0,0,0,0.59,0,0,3.1,90.39,-0.5398,-0.0091,0.8418,3.1,90.4,0,0,0,0,0,0,3,0,0,0,69,0,0,0,90.4,1,0,89.624,0,0,3,0,0,0,2.793,5.7,0,0,0,0,0,0,VALID,0,0,0,0,0,1,0,0,0,0,0,0,0,0,0,0,0,0,0,0,51.28,349.93,2,0,0.06,0.06,149,19.23,0.06,0.04,6.52,FLYING,CF1-J,0:/Integrated Flight Computer/aircraft/cf1_j_cfg.ks (inferred preloaded)
8.68,CRUISE,,249.8,80,-169.8,1502.84,2.47,-1.39,-1.94,178.75,-6.605,0.2186,0,-0.561,1,0.6,4.5,0.75,0.35,0.0168,0.4,0,0,0,0,0,180,0,0,0,0.57,0,0,3.1,90.39,-0.5398,-0.0091,0.8418,3.1,90.4,0,0,0,0,0,0,3,0,0,0,69,0,0,0,90.4,1,0,89.624,0,0,3,0,0,0,2.793,5.7,0,0,0,0,0,0,VALID,0,0,0,0,0,1,0,0,0,0,0,0,0,0,0,0,0,0,0,0,51.63,349.88,2,0,0.06,0.06,154,19.23,0.06,0.04,6.78,FLYING,CF1-J,0:/Integrated Flight Computer/aircraft/cf1_j_cfg.ks (inferred preloaded)
8.94,CRUISE,,249.65,80,-169.65,1503.47,2.39,-1.4,-1.93,178.69,-6.718,0.2253,0,-0.486,1,0.6,4.5,0.75,0.35,0.0168,0.4,0,0,0,0,0,180,0,0,0,0.55,0,0,3.1,90.39,-0.5398,-0.0091,0.8418,3.1,90.4,0,0,0,0,0,0,3,0,0,0,69,0,0,0,90.4,1,0,89.624,0,0,3,0,0,0,2.793,5.7,0,0,0,0,0,0,VALID,0,0,0,0,0,1,0,0,0,0,0,0,0,0,0,0,0,0,0,0,52.02,349.83,2,0,0.06,0.06,159,19.23,0.06,0.04,7.04,FLYING,CF1-J,0:/Integrated Flight Computer/aircraft/cf1_j_cfg.ks (inferred preloaded)
9.2,CRUISE,,249.5,80,-169.5,1504.08,2.33,-1.4,-1.92,178.63,-6.832,0.2329,0,-0.371,1,0.6,4.5,0.75,0.35,0.0168,0.4,0,0,0,0,0,180,0,0,0,0.53,0,0,3.1,90.39,-0.5398,-0.0091,0.8418,3.1,90.4,0,0,0,0,0,0,3,0,0,0,69,0,0,0,90.4,1,0,89.624,0,0,3,0,0,0,2.793,5.7,0,0,0,0,0,0,VALID,0,0,0,0,0,1,0,0,0,0,0,0,0,0,0,0,0,0,0,0,52.44,349.77,2,0,0.06,0.06,164,19.23,0.06,0.04,7.3,FLYING,CF1-J,0:/Integrated Flight Computer/aircraft/cf1_j_cfg.ks (inferred preloaded)
9.46,CRUISE,,249.35,80,-169.35,1504.67,2.28,-1.41,-1.92,178.57,-6.946,0.2409,0,-0.218,1,0.6,4.5,0.75,0.35,0.0168,0.4,0,0,0,0,0,180,0,0,0,0.52,0,0,3.1,90.39,-0.5398,-0.0091,0.8418,3.1,90.4,0,0,0,0,0,0,3,0,0,0,69,0,0,0,90.4,1,0,89.624,0,0,3,0,0,0,2.793,5.7,0,0,0,0,0,0,VALID,0,0,0,0,0,1,0,0,0,0,0,0,0,0,0,0,0,0,0,0,52.89,349.73,2,0,0.06,0.06,169,19.23,0.06,0.04,7.56,FLYING,CF1-J,0:/Integrated Flight Computer/aircraft/cf1_j_cfg.ks (inferred preloaded)
9.72,CRUISE,,249.21,80,-169.21,1505.26,2.24,-1.42,-1.92,178.51,-7.061,0.2495,0,-0.027,1,0.6,4.5,0.75,0.35,0.0168,0.4,0,0,0,0,0,180,0,0,0,0.51,0,0,3.1,90.39,-0.5398,-0.0091,0.8418,3.1,90.4,0,0,0,0,0,0,3,0,0,0,69,0,0,0,90.4,1,0,89.624,0,0,3,0,0,0,2.793,5.7,0,0,0,0,0,0,VALID,0,0,0,0,0,1,0,0,0,0,0,0,0,0,0,0,0,0,0,0,53.38,349.68,2,0,0.06,0.06,174,19.23,0.06,0.04,7.82,FLYING,CF1-J,0:/Integrated Flight Computer/aircraft/cf1_j_cfg.ks (inferred preloaded)
9.98,CRUISE,,249.07,80,-169.07,1505.84,2.2,-1.42,-1.91,178.45,-7.177,0.2579,0,0.2,1,0.6,4.5,0.75,0.35,0.0168,0.4,0,0,0,0,0,180,0,0,0,0.51,0,0,3.1,90.39,-0.5398,-0.0091,0.8418,3.1,90.4,0,0,0,0,0,0,3,0,0,0,69,0,0,0,90.4,1,0,89.624,0,0,3,0,0,0,2.793,5.7,0,0,0,0,0,0,VALID,0,0,0,0,0,1,0,0,0,0,0,0,0,0,0,0,0,0,0,0,53.91,349.63,2,0,0.06,0.06,179,19.23,0.06,0.04,8.08,FLYING,CF1-J,0:/Integrated Flight Computer/aircraft/cf1_j_cfg.ks (inferred preloaded)
10.24,CRUISE,,248.94,80,-168.94,1506.4,2.15,-1.43,-1.91,178.38,-7.292,0.2668,0,0.463,1,0.6,4.5,0.75,0.35,0.0168,0.4,0,0,0,0,0,180,0,0,0,0.5,0,0,3.1,90.39,-0.5398,-0.0091,0.8418,3.1,90.4,0,0,0,0,0,0,3,0,0,0,69,0,0,0,90.4,1,0,89.624,0,0,3,0,0,0,2.793,5.7,0,0,0,0,0,0,VALID,0,0,0,0,0,1,0,0,0,0,0,0,0,0,0,0,0,0,0,0,54.47,349.59,2,0,0.06,0.06,184,19.23,0.06,0.04,8.34,FLYING,CF1-J,0:/Integrated Flight Computer/aircraft/cf1_j_cfg.ks (inferred preloaded)
10.5,CRUISE,,248.8,80,-168.8,1506.95,2.11,-1.44,-1.91,178.32,-7.407,0.2756,0,0.761,1,0.6,4.5,0.75,0.35,0.0168,0.4,0,0,0,0,0,180,0,0,0,0.48,0,0,3.1,90.39,-0.5398,-0.0091,0.8418,3.1,90.4,0,0,0,0,0,0,3,0,0,0,69,0,0,0,90.4,1,0,89.624,0,0,3,0,0,0,2.793,5.7,0,0,0,0,0,0,VALID,0,0,0,0,0,1,0,0,0,0,0,0,0,0,0,0,0,0,0,0,55.08,349.54,2,0,0.06,0.06,189,19.23,0.06,0.04,8.6,FLYING,CF1-J,0:/Integrated Flight Computer/aircraft/cf1_j_cfg.ks (inferred preloaded)
10.76,CRUISE,,248.68,80,-168.68,1507.49,2.06,-1.45,-1.91,178.25,-7.522,0.2844,0,1.092,1,0.6,4.5,0.75,0.35,0.0168,0.4,0,0,0,0,0,180,0,0,0,0.48,0,0,3.1,90.39,-0.5398,-0.0091,0.8418,3.1,90.4,0,0,0,0,0,0,3,0,0,0,69,0,0,0,90.4,1,0,89.624,0,0,3,0,0,0,2.793,5.7,0,0,0,0,0,0,VALID,0,0,0,0,0,1,0,0,0,0,0,0,0,0,0,0,0,0,0,0,55.72,349.5,2,0,0.06,0.06,194,19.23,0.06,0.04,8.86,FLYING,CF1-J,0:/Integrated Flight Computer/aircraft/cf1_j_cfg.ks (inferred preloaded)
11.02,CRUISE,,248.55,80,-168.55,1508.02,2.02,-1.46,-1.91,178.18,-7.638,0.2932,0,1.455,1,0.6,4.5,0.75,0.35,0.0168,0.4,0,0,0,0,0,180,0,0,0,0.46,0,0,3.1,90.39,-0.5398,-0.0091,0.8418,3.1,90.4,0,0,0,0,0,0,3,0,0,0,69,0,0,0,90.4,1,0,89.624,0,0,3,0,0,0,2.793,5.7,0,0,0,0,0,0,VALID,0,0,0,0,0,1,0,0,0,0,0,0,0,0,0,0,0,0,0,0,56.41,349.46,2,0,0.06,0.06,199,19.23,0.06,0.04,9.12,FLYING,CF1-J,0:/Integrated Flight Computer/aircraft/cf1_j_cfg.ks (inferred preloaded)
11.28,CRUISE,,248.44,80,-168.44,1508.53,1.97,-1.46,-1.91,178.11,-7.753,0.3019,0,1.85,1,0.6,4.5,0.75,0.35,0.0168,0.4,0,0,0,0,0,180,0,0,0,0.45,0,0,3.1,90.39,-0.5398,-0.0091,0.8418,3.1,90.4,0,0,0,0,0,0,3,0,0,0,69,0,0,0,90.4,1,0,89.624,0,0,3,0,0,0,2.793,5.7,0,0,0,0,0,0,VALID,0,0,0,0,0,1,0,0,0,0,0,0,0,0,0,0,0,0,0,0,57.12,349.42,2,0,0.06,0.06,204,19.23,0.06,0.04,9.38,FLYING,CF1-J,0:/Integrated Flight Computer/aircraft/cf1_j_cfg.ks (inferred preloaded)
11.54,CRUISE,,248.32,80,-168.32,1509.04,1.92,-1.48,-1.91,178.04,-7.869,0.3105,0,2.275,1,0.6,4.5,0.75,0.35,0.0168,0.4,0,0,0,0,0,180,0,0,0,0.44,0,0,3.1,90.39,-0.5398,-0.0091,0.8418,3.1,90.4,0,0,0,0,0,0,3,0,0,0,69,0,0,0,90.4,1,0,89.624,0,0,3,0,0,0,2.793,5.7,0,0,0,0,0,0,VALID,0,0,0,0,0,1,0,0,0,0,0,0,0,0,0,0,0,0,0,0,57.88,349.38,2,0,0.06,0.06,209,19.23,0.06,0.04,9.64,FLYING,CF1-J,0:/Integrated Flight Computer/aircraft/cf1_j_cfg.ks (inferred preloaded)
11.8,CRUISE,,248.21,80,-168.21,1509.53,1.87,-1.49,-1.91,177.97,-7.984,0.319,0,2.728,1,0.6,4.5,0.75,0.35,0.0168,0.4,0,0,0,0,0,180,0,0,0,0.43,0,0,3.1,90.39,-0.5398,-0.0091,0.8418,3.1,90.4,0,0,0,0,0,0,3,0,0,0,69,0,0,0,90.4,1,0,89.624,0,0,3,0,0,0,2.793,5.7,0,0,0,0,0,0,VALID,0,0,0,0,0,1,0,0,0,0,0,0,0,0,0,0,0,0,0,0,58.67,349.34,2,0,0.06,0.06,214,19.23,0.06,0.04,9.9,FLYING,CF1-J,0:/Integrated Flight Computer/aircraft/cf1_j_cfg.ks (inferred preloaded)
12.06,CRUISE,,248.11,80,-168.11,1510,1.81,-1.49,-1.91,177.9,-8.099,0.3271,0,3.208,1,0.6,4.5,0.75,0.35,0.0168,0.4,0,0,0,0,0,180,0,0,0,0.42,0,0,3.1,90.39,-0.5398,-0.0091,0.8418,3.1,90.4,0,0,0,0,0,0,3,0,0,0,69,0,0,0,90.4,1,0,89.624,0,0,3,0,0,0,2.793,5.7,0,0,0,0,0,0,VALID,0,0,0,0,0,1,0,0,0,0,0,0,0,0,0,0,0,0,0,0,59.49,349.3,2,0,0.06,0.06,219,19.23,0.06,0.04,10.16,FLYING,CF1-J,0:/Integrated Flight Computer/aircraft/cf1_j_cfg.ks (inferred preloaded)
12.32,CRUISE,,248.01,80,-168.01,1510.47,1.76,-1.51,-1.91,177.83,-8.215,0.3355,0,3.715,1,0.6,4.5,0.75,0.35,0.0168,0.4,0,0,0,0,0,180,0,0,0,0.41,0,0,3.1,90.39,-0.5398,-0.0091,0.8418,3.1,90.4,0,0,0,0,0,0,3,0,0,0,69,0,0,0,90.4,1,0,89.624,0,0,3,0,0,0,2.793,5.7,0,0,0,0,0,0,VALID,0,0,0,0,0,1,0,0,0,0,0,0,0,0,0,0,0,0,0,0,60.34,349.27,2,0,0.06,0.06,224,19.23,0.06,0.04,10.42,FLYING,CF1-J,0:/Integrated Flight Computer/aircraft/cf1_j_cfg.ks (inferred preloaded)
12.58,CRUISE,,247.92,80,-167.92,1510.91,1.71,-1.52,-1.91,177.76,-8.33,0.3434,0,4.246,1,0.6,4.5,0.75,0.35,0.0168,0.4,0,0,0,0,0,180,0,0,0,0.39,0,0,3.1,90.39,-0.5398,-0.0091,0.8418,3.1,90.4,0,0,0,0,0,0,3,0,0,0,69,0,0,0,90.4,1,0,89.624,0,0,3,0,0,0,2.793,5.7,0,0,0,0,0,0,VALID,0,0,0,0,0,1,0,0,0,0,0,0,0,0,0,0,0,0,0,0,61.23,349.24,2,0,0.06,0.06,229,19.23,0.06,0.04,10.68,FLYING,CF1-J,0:/Integrated Flight Computer/aircraft/cf1_j_cfg.ks (inferred preloaded)
12.84,CRUISE,,247.84,80,-167.84,1511.35,1.65,-1.53,-1.91,177.68,-8.445,0.3509,0,4.8,1,0.6,4.5,0.75,0.35,0.0168,0.4,0,0,0,0,0,180,0,0,0,0.38,0,0,3.1,90.38,-0.5398,-0.0091,0.8418,3.1,90.4,0,0,0,0,0,0,3,0,0,0,69,0,0,0,90.4,1,0,89.624,0,0,3,0,0,0,2.793,5.7,0,0,0,0,0,0,VALID,0,0,0,0,0,1,0,0,0,0,0,0,0,0,0,0,0,0,0,0,62.14,349.21,2,0,0.06,0.06,234,19.23,0.06,0.04,10.94,FLYING,CF1-J,0:/Integrated Flight Computer/aircraft/cf1_j_cfg.ks (inferred preloaded)
13.1,CRUISE,,247.76,80,-167.76,1511.77,1.59,-1.54,-1.91,177.6,-8.561,0.3585,0,5.375,1,0.6,4.5,0.75,0.35,0.0168,0.4,0,0,0,0,0,180,0,0,0,0.37,0,0,3.1,90.38,-0.5398,-0.0091,0.8418,3.1,90.4,0,0,0,0,0,0,3,0,0,0,69,0,0,0,90.4,1,0,89.624,0,0,3,0,0,0,2.793,5.7,0,0,0,0,0,0,VALID,0,0,0,0,0,1,0,0,0,0,0,0,0,0,0,0,0,0,0,0,63.08,349.18,2,0,0.06,0.06,239,19.23,0.06,0.04,11.2,FLYING,CF1-J,0:/Integrated Flight Computer/aircraft/cf1_j_cfg.ks (inferred preloaded)
13.36,CRUISE,,247.68,80,-167.68,1512.16,1.52,-1.57,-1.92,177.53,-8.676,0.3659,0,5.97,1,0.6,4.5,0.75,0.35,0.0168,0.4,0,0,0,0,0,180,0,0,0,0.35,0,0,3.1,90.38,-0.5398,-0.0091,0.8418,3.1,90.4,0,0,0,0,0,0,3,0,0,0,69,0,0,0,90.4,1,0,89.624,0,0,3,0,0,0,2.793,5.7,0,0,0,0,0,0,VALID,0,0,0,0,0,1,0,0,0,0,0,0,0,0,0,0,0,0,0,0,64.05,349.15,2,0,0.06,0.06,244,19.23,0.06,0.04,11.46,FLYING,CF1-J,0:/Integrated Flight Computer/aircraft/cf1_j_cfg.ks (inferred preloaded)
13.62,CRUISE,,247.61,80,-167.61,1512.54,1.41,-1.59,-1.92,177.45,-8.79,0.3722,0,6.584,1,0.6,4.5,0.75,0.35,0.0168,0.4,0,0,0,0,0,180,0,0,0,0.33,0,0,3.1,90.38,-0.5398,-0.0091,0.8418,3.1,90.4,0,0,0,0,0,0,3,0,0,0,69,0,0,0,90.4,1,0,89.624,0,0,3,0,0,0,2.793,5.7,0,0,0,0,0,0,VALID,0,0,0,0,0,1,0,0,0,0,0,0,0,0,0,0,0,0,0,0,65.04,349.12,2,0,0.06,0.06,249,19.23,0.06,0.04,11.72,FLYING,CF1-J,0:/Integrated Flight Computer/aircraft/cf1_j_cfg.ks (inferred preloaded)
13.88,CRUISE,,247.55,80,-167.55,1512.89,1.32,-1.6,-1.91,177.37,-8.904,0.3778,0,7.214,1,0.6,4.5,0.75,0.35,0.0168,0.4,0,0,0,0,0,180,0,0,0,0.31,0,0,3.11,90.38,-0.5398,-0.0091,0.8418,3.1,90.4,0,0,0,0,0,0,3,0,0,0,69,0,0,0,90.4,1,0,89.624,0,0,3,0,0,0,2.793,5.7,0,0,0,0,0,0,VALID,0,0,0,0,0,1,0,0,0,0,0,0,0,0,0,0,0,0,0,0,66.05,349.1,2,0,0.06,0.06,254,19.23,0.06,0.04,11.98,FLYING,CF1-J,0:/Integrated Flight Computer/aircraft/cf1_j_cfg.ks (inferred preloaded)
14.14,CRUISE,,247.5,80,-167.5,1513.21,1.21,-1.66,-1.94,177.3,-9.018,0.3845,0,7.859,1,0.6,4.5,0.75,0.35,0.0168,0.4,0,0,0,0,0,180,0,0,0,0.28,0,0,3.11,90.38,-0.5398,-0.0091,0.8418,3.1,90.4,0,0,0,0,0,0,3,0,0,0,69,0,0,0,90.4,1,0,89.624,0,0,3,0,0,0,2.793,5.7,0,0,0,0,0,0,VALID,0,0,0,0,0,1,0,0,0,0,0,0,0,0,0,0,0,0,0,0,67.07,349.08,2,0,0.06,0.06,259,19.23,0.06,0.04,12.24,FLYING,CF1-J,0:/Integrated Flight Computer/aircraft/cf1_j_cfg.ks (inferred preloaded)
14.4,CRUISE,,247.45,80,-167.45,1513.5,1.04,-1.68,-1.94,177.22,-9.13,0.3883,0,8.517,1,0.6,4.5,0.75,0.35,0.0168,0.4,0,0,0,0,0,180,0,0,0,0.24,0,0,3.11,90.38,-0.5398,-0.0091,0.8418,3.1,90.4,0,0,0,0,0,0,3,0,0,0,69,0,0,0,90.4,1,0,89.624,0,0,3,0,0,0,2.793,5.7,0,0,0,0,0,0,VALID,0,0,0,0,0,1,0,0,0,0,0,0,0,0,0,0,0,0,0,0,68.12,349.06,2,0,0.06,0.06,264,19.23,0.06,0.04,12.5,FLYING,CF1-J,0:/Integrated Flight Computer/aircraft/cf1_j_cfg.ks (inferred preloaded)
14.66,CRUISE,,247.41,80,-167.41,1513.75,0.92,-1.7,-1.92,177.14,-9.242,0.3919,0,9.186,1,0.6,4.5,0.75,0.35,0.0168,0.4,0,0,0,0,0,180,0,0,0,0.21,0,0,3.11,90.38,-0.5398,-0.0091,0.8418,3.1,90.4,0,0,0,0,0,0,3,0,0,0,69,0,0,0,90.4,1,0,89.624,0,0,3,0,0,0,2.793,5.7,0,0,0,0,0,0,VALID,0,0,0,0,0,1,0,0,0,0,0,0,0,0,0,0,0,0,0,0,69.16,349.05,2,0,0.06,0.06,269,19.23,0.06,0.04,12.76,FLYING,CF1-J,0:/Integrated Flight Computer/aircraft/cf1_j_cfg.ks (inferred preloaded)
14.92,CRUISE,,247.38,80,-167.38,1513.97,0.8,-1.74,-1.94,177.06,-9.355,0.3962,0,9.864,1,0.6,4.5,0.75,0.35,0.0168,0.4,0,0,0,0,0,180,0,0,0,0.19,0,0,3.11,90.38,-0.5398,-0.0091,0.8418,3.1,90.4,0,0,0,0,0,0,3,0,0,0,69,0,0,0,90.4,1,0,89.624,0,0,3,0,0,0,2.793,5.7,0,0,0,0,0,0,VALID,0,0,0,0,0,1,0,0,0,0,0,0,0,0,0,0,0,0,0,0,70.21,349.04,2,0,0.06,0.06,274,19.23,0.06,0.04,13.02,FLYING,CF1-J,0:/Integrated Flight Computer/aircraft/cf1_j_cfg.ks (inferred preloaded)
15.18,CRUISE,,247.36,80,-167.36,1514.15,0.66,-1.76,-1.93,176.98,-9.468,0.3988,0,10.549,1,0.6,4.5,0.75,0.35,0.0168,0.4,0,0,0,0,0,180,0,0,0,0.15,0,0,3.11,90.38,-0.5398,-0.0091,0.8418,3.1,90.4,0,0,0,0,0,0,3,0,0,0,69,0,0,0,90.4,1,0,89.624,0,0,3,0,0,0,2.793,5.7,0,0,0,0,0,0,VALID,0,0,0,0,0,1,0,0,0,0,0,0,0,0,0,0,0,0,0,0,71.27,349.03,2,0,0.06,0.06,279,19.23,0.06,0.04,13.28,FLYING,CF1-J,0:/Integrated Flight Computer/aircraft/cf1_j_cfg.ks (inferred preloaded)
15.44,CRUISE,,247.34,80,-167.34,1514.31,0.55,-1.78,-1.93,176.89,-9.58,0.4017,0,11.24,1,0.6,4.5,0.75,0.35,0.0168,0.4,0,0,0,0,0,180,0,0,0,0.13,0,0,3.11,90.38,-0.5398,-0.0091,0.8418,3.1,90.4,0,0,0,0,0,0,3,0,0,0,69,0,0,0,90.4,1,0,89.624,0,0,3,0,0,0,2.793,5.7,0,0,0,0,0,0,VALID,0,0,0,0,0,1,0,0,0,0,0,0,0,0,0,0,0,0,0,0,72.32,349.02,2,0,0.06,0.06,284,19.23,0.06,0.04,13.54,FLYING,CF1-J,0:/Integrated Flight Computer/aircraft/cf1_j_cfg.ks (inferred preloaded)
15.7,CRUISE,,247.33,80,-167.33,1514.42,0.39,-1.83,-1.94,176.81,-9.693,0.4044,0,11.933,1,0.6,4.5,0.75,0.35,0.0168,0.4,0,0,0,0,0,180,0,0,0,0.09,0,0,3.11,90.38,-0.5398,-0.0091,0.8418,3.1,90.4,0,0,0,0,0,0,3,0,0,0,69,0,0,0,90.4,1,0,89.624,0,0,3,0,0,0,2.793,5.7,0,0,0,0,0,0,VALID,0,0,0,0,0,1,0,0,0,0,0,0,0,0,0,0,0,0,0,0,73.38,349.01,2,0,0.06,0.06,289,19.23,0.06,0.04,13.8,FLYING,CF1-J,0:/Integrated Flight Computer/aircraft/cf1_j_cfg.ks (inferred preloaded)
15.96,CRUISE,,247.33,80,-167.33,1514.5,0.25,-1.84,-1.92,176.72,-9.805,0.4053,0,12.628,1,0.6,4.5,0.75,0.35,0.0168,0.4,0,0,0,0,0,180,0,0,0,0.06,0,0,3.11,90.38,-0.5398,-0.0091,0.8418,3.1,90.4,0,0,0,0,0,0,3,0,0,0,69,0,0,0,90.4,1,0,89.624,0,0,3,0,0,0,2.793,5.7,0,0,0,0,0,0,VALID,0,0,0,0,0,1,0,0,0,0,0,0,0,0,0,0,0,0,0,0,74.43,349.01,2,0,0.06,0.06,294,19.23,0.06,0.04,14.06,FLYING,CF1-J,0:/Integrated Flight Computer/aircraft/cf1_j_cfg.ks (inferred preloaded)
16.22,CRUISE,,247.33,80,-167.33,1514.55,0.14,-1.88,-1.93,176.64,-9.918,0.407,0,13.322,1,0.6,4.5,0.75,0.35,0.0168,0.4,0,0,0,0,0,180,0,0,0,0.03,0,0,3.11,90.38,-0.5398,-0.0091,0.8418,3.1,90.4,0,0,0,0,0,0,3,0,0,0,69,0,0,0,90.4,1,0,89.624,0,0,3,0,0,0,2.793,5.7,0,0,0,0,0,0,VALID,0,0,0,0,0,1,0,0,0,0,0,0,0,0,0,0,0,0,0,0,75.47,349.01,2,0,0.06,0.06,299,19.23,0.06,0.04,14.32,FLYING,CF1-J,0:/Integrated Flight Computer/aircraft/cf1_j_cfg.ks (inferred preloaded)
16.48,CRUISE,,247.35,80,-167.35,1514.55,-0.03,-1.92,-1.95,176.56,-10.03,0.4083,0,14.014,1,0.6,4.5,0.75,0.35,0.0168,0.4,0,0,0,0,0,180,0,0,0,-0.01,0,0,3.11,90.38,-0.5398,-0.0091,0.8418,3.1,90.4,0,0,0,0,0,0,3,0,0,0,69,0,0,0,90.4,1,0,89.624,0,0,3,0,0,0,2.793,5.7,0,0,0,0,0,0,VALID,0,0,0,0,0,1,0,0,0,0,0,0,0,0,0,0,0,0,0,0,76.51,349.02,2,0,0.06,0.06,304,19.23,0.06,0.04,14.58,FLYING,CF1-J,0:/Integrated Flight Computer/aircraft/cf1_j_cfg.ks (inferred preloaded)
16.74,CRUISE,,247.37,80,-167.37,1514.52,-0.19,-1.94,-1.93,176.46,-10.141,0.4072,0,14.701,1,0.6,4.5,0.75,0.35,0.0168,0.4,0,0,0,0,0,180,0,0,0,-0.04,0,0,3.11,90.38,-0.5398,-0.0091,0.8418,3.1,90.4,0,0,0,0,0,0,3,0,0,0,69,0,0,0,90.4,1,0,89.624,0,0,3,0,0,0,2.793,5.7,0,0,0,0,0,0,VALID,0,0,0,0,0,1,0,0,0,0,0,0,0,0,0,0,0,0,0,0,77.53,349.02,2,0,0.06,0.06,309,19.23,0.06,0.04,14.84,FLYING,CF1-J,0:/Integrated Flight Computer/aircraft/cf1_j_cfg.ks (inferred preloaded)
17,CRUISE,,247.39,80,-167.39,1514.45,-0.3,-1.97,-1.93,176.38,-10.254,0.4071,0,15.381,1,0.6,4.5,0.75,0.35,0.0168,0.4,0,0,0,0,0,180,0,0,0,-0.07,0,0,3.11,90.38,-0.5398,-0.0091,0.8418,3.1,90.4,0,0,0,0,0,0,3,0,0,0,69,0,0,0,90.4,1,0,89.624,0,0,3,0,0,0,2.793,5.7,0,0,0,0,0,0,VALID,0,0,0,0,0,1,0,0,0,0,0,0,0,0,0,0,0,0,0,0,78.53,349.03,2,0,0.06,0.06,314,19.23,0.06,0.04,15.1,FLYING,CF1-J,0:/Integrated Flight Computer/aircraft/cf1_j_cfg.ks (inferred preloaded)
17.26,CRUISE,,247.43,80,-167.43,1514.34,-0.45,-2,-1.93,176.29,-10.366,0.4066,0,16.053,1,0.6,4.5,0.75,0.35,0.0168,0.4,0,0,0,0,0,180,0,0,0,-0.1,0,0,3.11,90.38,-0.5398,-0.0091,0.8418,3.1,90.4,0,0,0,0,0,0,3,0,0,0,69,0,0,0,90.4,1,0,89.624,0,0,3,0,0,0,2.793,5.7,0,0,0,0,0,0,VALID,0,0,0,0,0,1,0,0,0,0,0,0,0,0,0,0,0,0,0,0,79.52,349.05,2,0,0.06,0.06,319,19.23,0.06,0.04,15.36,FLYING,CF1-J,0:/Integrated Flight Computer/aircraft/cf1_j_cfg.ks (inferred preloaded)
17.52,CRUISE,,247.47,80,-167.47,1514.2,-0.59,-2.02,-1.93,176.19,-10.479,0.4047,0,16.715,1,0.6,4.5,0.75,0.35,0.0168,0.4,0,0,0,0,0,180,0,0,0,-0.14,0,0,3.11,90.38,-0.5398,-0.0091,0.8418,3.1,90.4,0,0,0,0,0,0,3,0,0,0,69,0,0,0,90.4,1,0,89.624,0,0,3,0,0,0,2.793,5.7,0,0,0,0,0,0,VALID,0,0,0,0,0,1,0,0,0,0,0,0,0,0,0,0,0,0,0,0,80.49,349.06,2,0,0.06,0.06,324,19.23,0.06,0.04,15.62,FLYING,CF1-J,0:/Integrated Flight Computer/aircraft/cf1_j_cfg.ks (inferred preloaded)
17.78,CRUISE,,247.52,80,-167.52,1514.03,-0.72,-2.06,-1.93,176.1,-10.591,0.4034,0,17.365,1,0.6,4.5,0.75,0.35,0.0168,0.4,0,0,0,0,0,180,0,0,0,-0.17,0,0,3.11,90.38,-0.5398,-0.0091,0.8418,3.1,90.4,0,0,0,0,0,0,3,0,0,0,69,0,0,0,90.4,1,0,89.624,0,0,3,0,0,0,2.793,5.7,0,0,0,0,0,0,VALID,0,0,0,0,0,1,0,0,0,0,0,0,0,0,0,0,0,0,0,0,81.43,349.08,2,0,0.06,0.06,329,19.23,0.06,0.04,15.88,FLYING,CF1-J,0:/Integrated Flight Computer/aircraft/cf1_j_cfg.ks (inferred preloaded)
18.04,CRUISE,,247.58,80,-167.58,1513.82,-0.86,-2.08,-1.92,176.01,-10.704,0.4005,0,18.001,1,0.6,4.5,0.75,0.35,0.0168,0.4,0,0,0,0,0,180,0,0,0,-0.2,0,0,3.11,90.38,-0.5398,-0.0091,0.8418,3.1,90.4,0,0,0,0,0,0,3,0,0,0,69,0,0,0,90.4,1,0,89.624,0,0,3,0,0,0,2.793,5.7,0,0,0,0,0,0,VALID,0,0,0,0,0,1,0,0,0,0,0,0,0,0,0,0,0,0,0,0,82.35,349.1,2,0,0.06,0.06,334,19.23,0.06,0.04,16.14,FLYING,CF1-J,0:/Integrated Flight Computer/aircraft/cf1_j_cfg.ks (inferred preloaded)
18.3,CRUISE,,247.64,80,-167.64,1513.58,-0.96,-2.1,-1.92,175.91,-10.817,0.3978,0,18.622,1,0.6,4.5,0.75,0.35,0.0168,0.4,0,0,0,0,0,180,0,0,0,-0.22,0,0,3.11,90.38,-0.5398,-0.0091,0.8418,3.1,90.4,0,0,0,0,0,0,3,0,0,0,69,0,0,0,90.4,1,0,89.624,0,0,3,0,0,0,2.793,5.7,0,0,0,0,0,0,VALID,0,0,0,0,0,1,0,0,0,0,0,0,0,0,0,0,0,0,0,0,83.24,349.12,2,0,0.06,0.06,339,19.23,0.06,0.04,16.4,FLYING,CF1-J,0:/Integrated Flight Computer/aircraft/cf1_j_cfg.ks (inferred preloaded)
18.56,CRUISE,,247.71,80,-167.71,1513.31,-1.07,-2.13,-1.92,175.82,-10.93,0.3951,0,19.225,1,0.6,4.5,0.75,0.35,0.0168,0.4,0,0,0,0,0,180,0,0,0,-0.25,0,0,3.11,90.38,-0.5398,-0.0091,0.8418,3.1,90.4,0,0,0,0,0,0,3,0,0,0,69,0,0,0,90.4,1,0,89.624,0,0,3,0,0,0,2.793,5.7,0,0,0,0,0,0,VALID,0,0,0,0,0,1,0,0,0,0,0,0,0,0,0,0,0,0,0,0,84.11,349.15,2,0,0.06,0.06,344,19.23,0.06,0.04,16.66,FLYING,CF1-J,0:/Integrated Flight Computer/aircraft/cf1_j_cfg.ks (inferred preloaded)
18.82,CRUISE,,247.78,80,-167.78,1513.01,-1.19,-2.14,-1.92,175.72,-11.044,0.3914,0,19.81,1,0.6,4.5,0.75,0.35,0.0168,0.4,0,0,0,0,0,180,0,0,0,-0.27,0,0,3.11,90.38,-0.5398,-0.0091,0.8418,3.1,90.4,0,0,0,0,0,0,3,0,0,0,69,0,0,0,90.4,1,0,89.624,0,0,3,0,0,0,2.793,5.7,0,0,0,0,0,0,VALID,0,0,0,0,0,1,0,0,0,0,0,0,0,0,0,0,0,0,0,0,84.94,349.17,2,0,0.06,0.06,349,19.23,0.06,0.04,16.92,FLYING,CF1-J,0:/Integrated Flight Computer/aircraft/cf1_j_cfg.ks (inferred preloaded)
19.08,CRUISE,,247.86,80,-167.86,1512.68,-1.28,-2.16,-1.92,175.62,-11.158,0.3812,0,20,1,0.6,4.5,0.75,0.35,0.0168,0.4,0,0,0,0,0,180,0,0,0,-0.3,0,0,3.11,90.38,-0.5398,-0.0091,0.8418,3.1,90.4,0,0,0,0,0,0,3,0,0,0,69,0,0,0,90.4,1,0,89.624,0,0,3,0,0,0,2.793,5.7,0,0,0,0,0,0,VALID,0,0,0,0,0,1,0,0,0,0,0,0,0,0,0,0,0,0,0,0,85.74,349.2,2,0,0.06,0.06,354,19.23,0.06,0.04,17.18,FLYING,CF1-J,0:/Integrated Flight Computer/aircraft/cf1_j_cfg.ks (inferred preloaded)
19.34,CRUISE,,247.95,80,-167.95,1512.33,-1.38,-2.18,-1.92,175.52,-11.272,0.3682,0,20,1,0.6,4.5,0.75,0.35,0.0168,0.4,0,0,0,0,0,180,0,0,0,-0.32,0,0,3.12,90.38,-0.5398,-0.0091,0.8418,3.1,90.4,0,0,0,0,0,0,3,0,0,0,69,0,0,0,90.4,1,0,89.624,0,0,3,0,0,0,2.793,5.7,0,0,0,0,0,0,VALID,0,0,0,0,0,1,0,0,0,0,0,0,0,0,0,0,0,0,0,0,86.47,349.23,2,0,0.06,0.06,359,19.23,0.06,0.04,17.44,FLYING,CF1-J,0:/Integrated Flight Computer/aircraft/cf1_j_cfg.ks (inferred preloaded)
19.6,CRUISE,,248.04,80,-168.04,1511.96,-1.47,-2.2,-1.92,175.42,-11.386,0.3549,0,20,1,0.6,4.5,0.75,0.35,0.0168,0.4,0,0,0,0,0,180,0,0,0,-0.34,0,0,3.12,90.38,-0.5398,-0.0091,0.8418,3.1,90.4,0,0,0,0,0,0,3,0,0,0,69,0,0,0,90.4,1,0,89.624,0,0,3,0,0,0,2.793,5.7,0,0,0,0,0,0,VALID,0,0,0,0,0,1,0,0,0,0,0,0,0,0,0,0,0,0,0,0,87.11,349.27,2,0,0.06,0.06,364,19.23,0.06,0.04,17.7,FLYING,CF1-J,0:/Integrated Flight Computer/aircraft/cf1_j_cfg.ks (inferred preloaded)
19.86,CRUISE,,248.13,80,-168.13,1511.56,-1.56,-2.22,-1.91,175.31,-11.501,0.3422,0,20,1,0.6,4.5,0.75,0.35,0.0168,0.4,0,0,0,0,0,180,0,0,0,-0.36,0,0,3.12,90.37,-0.5398,-0.0091,0.8418,3.1,90.4,0,0,0,0,0,0,3,0,0,0,69,0,0,0,90.4,1,0,89.624,0,0,3,0,0,0,2.793,5.7,0,0,0,0,0,0,VALID,0,0,0,0,0,1,0,0,0,0,0,0,0,0,0,0,0,0,0,0,87.67,349.3,2,0,0.06,0.06,369,19.23,0.06,0.04,17.96,FLYING,CF1-J,0:/Integrated Flight Computer/aircraft/cf1_j_cfg.ks (inferred preloaded)
20.12,CRUISE,,248.23,80,-168.23,1511.14,-1.64,-2.23,-1.91,175.21,-11.616,0.3299,0,20,1,0.6,4.5,0.75,0.35,0.0168,0.4,0,0,0,0,0,180,0,0,0,-0.38,0,0,3.12,90.37,-0.5398,-0.0091,0.8418,3.1,90.4,0,0,0,0,0,0,3,0,0,0,69,0,0,0,90.4,1,0,89.624,0,0,3,0,0,0,2.793,5.7,0,0,0,0,0,0,VALID,0,0,0,0,0,1,0,0,0,0,0,0,0,0,0,0,0,0,0,0,88.16,349.34,2,0,0.06,0.06,374,19.23,0.06,0.04,18.22,FLYING,CF1-J,0:/Integrated Flight Computer/aircraft/cf1_j_cfg.ks (inferred preloaded)
20.38,CRUISE,,248.33,80,-168.33,1510.7,-1.72,-2.25,-1.91,175.1,-11.731,0.3179,0,20,1,0.6,4.5,0.75,0.35,0.0168,0.4,0,0,0,0,0,180,0,0,0,-0.4,0,0,3.12,90.37,-0.5398,-0.0091,0.8418,3.1,90.4,0,0,0,0,0,0,3,0,0,0,69,0,0,0,90.4,1,0,89.624,0,0,3,0,0,0,2.793,5.7,0,0,0,0,0,0,VALID,0,0,0,0,0,1,0,0,0,0,0,0,0,0,0,0,0,0,0,0,88.57,349.38,2,0,0.06,0.06,379,19.23,0.06,0.04,18.48,FLYING,CF1-J,0:/Integrated Flight Computer/aircraft/cf1_j_cfg.ks (inferred preloaded)
20.64,CRUISE,,248.44,80,-168.44,1510.24,-1.79,-2.26,-1.91,175,-11.846,0.3064,0,20,1,0.6,4.5,0.75,0.35,0.0168,0.4,0,0,0,0,0,180,0,0,0,-0.41,0,0,3.12,90.37,-0.5398,-0.0091,0.8418,3.1,90.4,0,0,0,0,0,0,3,0,0,0,69,0,0,0,90.4,1,0,89.624,0,0,3,0,0,0,2.793,5.7,0,0,0,0,0,0,VALID,0,0,0,0,0,1,0,0,0,0,0,0,0,0,0,0,0,0,0,0,88.91,349.41,2,0,0.06,0.06,384,19.23,0.06,0.04,18.74,FLYING,CF1-J,0:/Integrated Flight Computer/aircraft/cf1_j_cfg.ks (inferred preloaded)
20.9,CRUISE,,248.54,80,-168.54,1509.77,-1.83,-2.27,-1.9,174.89,-11.962,0.2952,0,20,1,0.6,4.5,0.75,0.35,0.0168,0.4,0,0,0,0,0,180,0,0,0,-0.42,0,0,3.12,90.37,-0.5398,-0.0091,0.8418,3.1,90.4,0,0,0,0,0,0,3,0,0,0,69,0,0,0,90.4,1,0,89.624,0,0,3,0,0,0,2.793,5.7,0,0,0,0,0,0,VALID,0,0,0,0,0,1,0,0,0,0,0,0,0,0,0,0,0,0,0,0,89.19,349.46,2,0,0.06,0.06,389,19.23,0.06,0.04,19,FLYING,CF1-J,0:/Integrated Flight Computer/aircraft/cf1_j_cfg.ks (inferred preloaded)
21.16,CRUISE,,248.65,80,-168.65,1509.29,-1.87,-2.25,-1.88,174.77,-12.079,0.2842,0,20,1,0.6,4.5,0.75,0.35,0.0168,0.4,0,0,0,0,0,180,0,0,0,-0.43,0,0,3.12,90.37,-0.5398,-0.0091,0.8418,3.1,90.4,0,0,0,0,0,0,3,0,0,0,69,0,0,0,90.4,1,0,89.624,0,0,3,0,0,0,2.793,5.7,0,0,0,0,0,0,VALID,0,0,0,0,0,1,0,0,0,0,0,0,0,0,0,0,0,0,0,0,89.4,349.5,2,0,0.06,0.06,394,19.23,0.06,0.04,19.26,FLYING,CF1-J,0:/Integrated Flight Computer/aircraft/cf1_j_cfg.ks (inferred preloaded)
21.42,CRUISE,,248.76,80,-168.76,1508.8,-1.86,-2.24,-1.88,174.66,-12.197,0.275,0,20,1,0.6,4.5,0.75,0.35,0.0168,0.4,0,0,0,0,0,180,0,0,0,-0.43,0,0,3.12,90.37,-0.5398,-0.0091,0.8418,3.1,90.4,0,0,0,0,0,0,3,0,0,0,69,0,0,0,90.4,1,0,89.624,0,0,3,0,0,0,2.793,5.7,0,0,0,0,0,0,VALID,0,0,0,0,0,1,0,0,0,0,0,0,0,0,0,0,0,0,0,0,89.55,349.54,2,0,0.06,0.06,399,19.23,0.06,0.04,19.52,FLYING,CF1-J,0:/Integrated Flight Computer/aircraft/cf1_j_cfg.ks (inferred preloaded)
21.68,CRUISE,,248.87,80,-168.87,1508.32,-1.85,-2.24,-1.88,174.54,-12.316,0.2667,0,20,1,0.6,4.5,0.75,0.35,0.0168,0.4,0,0,0,0,0,180,0,0,0,-0.42,0,0,3.12,90.37,-0.5398,-0.0091,0.8418,3.1,90.4,0,0,0,0,0,0,3,0,0,0,69,0,0,0,90.4,1,0,89.624,0,0,3,0,0,0,2.793,5.7,0,0,0,0,0,0,VALID,0,0,0,0,0,1,0,0,0,0,0,0,0,0,0,0,0,0,0,0,89.66,349.58,2,0,0.06,0.06,404,19.23,0.06,0.04,19.78,FLYING,CF1-J,0:/Integrated Flight Computer/aircraft/cf1_j_cfg.ks (inferred preloaded)
21.94,CRUISE,,248.98,80,-168.98,1507.84,-1.85,-2.25,-1.89,174.43,-12.435,0.2585,0,20,1,0.6,4.5,0.75,0.35,0.0168,0.4,0,0,0,0,0,180,0,0,0,-0.43,0,0,3.12,90.37,-0.5398,-0.0091,0.8418,3.1,90.4,0,0,0,0,0,0,3,0,0,0,69,0,0,0,90.4,1,0,89.624,0,0,3,0,0,0,2.793,5.7,0,0,0,0,0,0,VALID,0,0,0,0,0,1,0,0,0,0,0,0,0,0,0,0,0,0,0,0,89.71,349.62,2,0,0.06,0.06,409,19.23,0.06,0.04,20.04,FLYING,CF1-J,0:/Integrated Flight Computer/aircraft/cf1_j_cfg.ks (inferred preloaded)
22.2,CRUISE,,249.09,80,-169.09,1507.36,-1.85,-2.25,-1.89,174.31,-12.554,0.251,0,20,1,0.6,4.5,0.75,0.35,0.0168,0.4,0,0,0,0,0,180,0,0,0,-0.43,0,0,3.12,90.37,-0.5398,-0.0091,0.8418,3.1,90.4,0,0,0,0,0,0,3,0,0,0,69,0,0,0,90.4,1,0,89.624,0,0,3,0,0,0,2.793,5.7,0,0,0,0,0,0,VALID,0,0,0,0,0,1,0,0,0,0,0,0,0,0,0,0,0,0,0,0,89.71,349.66,2,0,0.06,0.06,414,19.23,0.06,0.04,20.3,FLYING,CF1-J,0:/Integrated Flight Computer/aircraft/cf1_j_cfg.ks (inferred preloaded)
22.46,CRUISE,,249.2,80,-169.2,1506.87,-1.87,-2.26,-1.89,174.2,-12.672,0.2436,0,20,1,0.6,4.5,0.75,0.35,0.0168,0.4,0,0,0,0,0,180,0,0,0,-0.43,0,0,3.12,90.37,-0.5398,-0.0091,0.8418,3.1,90.4,0,0,0,0,0,0,3,0,0,0,69,0,0,0,90.4,1,0,89.624,0,0,3,0,0,0,2.793,5.7,0,0,0,0,0,0,VALID,0,0,0,0,0,1,0,0,0,0,0,0,0,0,0,0,0,0,0,0,89.55,349.7,2,0,0.06,0.06,419,19.23,0.06,0.04,20.56,FLYING,CF1-J,0:/Integrated Flight Computer/aircraft/cf1_j_cfg.ks (inferred preloaded)
22.72,CRUISE,,249.31,80,-169.31,1506.39,-1.88,-2.26,-1.89,174.08,-12.79,0.237,0,20,1,0.6,4.5,0.75,0.35,0.0168,0.4,0,0,0,0,0,180,0,0,0,-0.43,0,0,3.12,90.37,-0.5398,-0.0091,0.8418,3.1,90.4,0,0,0,0,0,0,3,0,0,0,69,0,0,0,90.4,1,0,89.624,0,0,3,0,0,0,2.793,5.7,0,0,0,0,0,0,VALID,0,0,0,0,0,1,0,0,0,0,0,0,0,0,0,0,0,0,0,0,89.25,349.75,2,0,0.06,0.06,424,19.23,0.06,0.04,20.82,FLYING,CF1-J,0:/Integrated Flight Computer/aircraft/cf1_j_cfg.ks (inferred preloaded)
22.98,CRUISE,,249.42,80,-169.42,1505.89,-1.9,-2.27,-1.9,173.96,-12.909,0.2316,0,20,1,0.6,4.5,0.75,0.35,0.0168,0.4,0,0,0,0,0,180,0,0,0,-0.44,0,0,3.12,90.37,-0.5398,-0.0091,0.8418,3.1,90.4,0,0,0,0,0,0,3,0,0,0,69,0,0,0,90.4,1,0,89.624,0,0,3,0,0,0,2.793,5.7,0,0,0,0,0,0,VALID,0,0,0,0,0,1,0,0,0,0,0,0,0,0,0,0,0,0,0,0,88.83,349.79,2,0,0.06,0.06,429,19.23,0.06,0.04,21.08,FLYING,CF1-J,0:/Integrated Flight Computer/aircraft/cf1_j_cfg.ks (inferred preloaded)
23.24,CRUISE,,249.52,80,-169.52,1505.39,-1.93,-2.28,-1.9,173.84,-13.027,0.2271,0,20,1,0.6,4.5,0.75,0.35,0.0168,0.4,0,0,0,0,0,180,0,0,0,-0.44,0,0,3.13,90.37,-0.5398,-0.0091,0.8418,3.1,90.4,0,0,0,0,0,0,3,0,0,0,69,0,0,0,90.4,1,0,89.624,0,0,3,0,0,0,2.793,5.7,0,0,0,0,0,0,VALID,0,0,0,0,0,1,0,0,0,0,0,0,0,0,0,0,0,0,0,0,88.32,349.83,2,0,0.06,0.06,434,19.23,0.06,0.04,21.34,FLYING,CF1-J,0:/Integrated Flight Computer/aircraft/cf1_j_cfg.ks (inferred preloaded)
23.5,CRUISE,,249.63,80,-169.63,1504.88,-1.97,-2.28,-1.9,173.72,-13.144,0.223,0,20,1,0.6,4.5,0.75,0.35,0.0168,0.4,0,0,0,0,0,180,0,0,0,-0.45,0,0,3.13,90.37,-0.5398,-0.0091,0.8418,3.1,90.4,0,0,0,0,0,0,3,0,0,0,69,0,0,0,90.4,1,0,89.624,0,0,3,0,0,0,2.793,5.7,0,0,0,0,0,0,VALID,0,0,0,0,0,1,0,0,0,0,0,0,0,0,0,0,0,0,0,0,87.75,349.87,2,0,0.06,0.06,439,19.23,0.06,0.04,21.6,FLYING,CF1-J,0:/Integrated Flight Computer/aircraft/cf1_j_cfg.ks (inferred preloaded)
23.76,CRUISE,,249.73,80,-169.73,1504.37,-2,-2.29,-1.9,173.6,-13.262,0.22,0,20,1,0.6,4.5,0.75,0.35,0.0168,0.4,0,0,0,0,0,180,0,0,0,-0.46,0,0,3.13,90.37,-0.5398,-0.0091,0.8418,3.1,90.4,0,0,0,0,0,0,3,0,0,0,69,0,0,0,90.4,1,0,89.624,0,0,3,0,0,0,2.793,5.7,0,0,0,0,0,0,VALID,0,0,0,0,0,1,0,0,0,0,0,0,0,0,0,0,0,0,0,0,87.13,349.91,2,0,0.06,0.06,444,19.23,0.06,0.04,21.86,FLYING,CF1-J,0:/Integrated Flight Computer/aircraft/cf1_j_cfg.ks (inferred preloaded)
24.02,CRUISE,,249.82,80,-169.82,1503.84,-2.03,-2.29,-1.9,173.47,-13.38,0.2171,0,20,1,0.6,4.5,0.75,0.35,0.0168,0.4,0,0,0,0,0,180,0,0,0,-0.47,0,0,3.13,90.37,-0.5398,-0.0091,0.8418,3.1,90.4,0,0,0,0,0,0,3,0,0,0,69,0,0,0,90.4,1,0,89.624,0,0,3,0,0,0,2.793,5.7,0,0,0,0,0,0,VALID,0,0,0,0,0,1,0,0,0,0,0,0,0,0,0,0,0,0,0,0,86.48,349.95,2,0,0.06,0.06,449,19.23,0.06,0.04,22.12,FLYING,CF1-J,0:/Integrated Flight Computer/aircraft/cf1_j_cfg.ks (inferred preloaded)
24.28,CRUISE,,249.92,80,-169.92,1503.31,-2.04,-2.28,-1.89,173.35,-13.498,0.2147,0,20,1,0.6,4.5,0.75,0.35,0.0168,0.4,0,0,0,0,0,180,0,0,0,-0.47,0,0,3.13,90.37,-0.5398,-0.0091,0.8418,3.1,90.4,0,0,0,0,0,0,3,0,0,0,69,0,0,0,90.4,1,0,89.624,0,0,3,0,0,0,2.793,5.7,0,0,0,0,0,0,VALID,0,0,0,0,0,1,0,0,0,0,0,0,0,0,0,0,0,0,0,0,85.81,349.99,2,0,0.06,0.06,454,19.23,0.06,0.04,22.38,FLYING,CF1-J,0:/Integrated Flight Computer/aircraft/cf1_j_cfg.ks (inferred preloaded)
24.54,CRUISE,,250.01,80,-170.01,1502.79,-2.03,-2.28,-1.89,173.22,-13.618,0.2135,0,20,1,0.6,4.5,0.75,0.35,0.0168,0.4,0,0,0,0,0,180,0,0,0,-0.46,0,0,3.13,90.37,-0.5398,-0.0091,0.8418,3.1,90.4,0,0,0,0,0,0,3,0,0,0,69,0,0,0,90.4,1,0,89.624,0,0,3,0,0,0,2.793,5.7,0,0,0,0,0,0,VALID,0,0,0,0,0,1,0,0,0,0,0,0,0,0,0,0,0,0,0,0,85.14,350.03,2,0,0.06,0.06,459,19.23,0.06,0.04,22.64,FLYING,CF1-J,0:/Integrated Flight Computer/aircraft/cf1_j_cfg.ks (inferred preloaded)
24.8,CRUISE,,250.09,80,-170.09,1502.26,-2.02,-2.29,-1.9,173.09,-13.738,0.2126,0,19.985,1,0.6,4.5,0.75,0.35,0.0168,0.4,0,0,0,0,0,180,0,0,0,-0.46,0,0,3.13,90.37,-0.5398,-0.0091,0.8418,3.1,90.4,0,0,0,0,0,0,3,0,0,0,69,0,0,0,90.4,1,0,89.624,0,0,3,0,0,0,2.793,5.7,0,0,0,0,0,0,VALID,0,0,0,0,0,1,0,0,0,0,0,0,0,0,0,0,0,0,0,0,84.49,350.07,2,0,0.06,0.06,464,19.23,0.06,0.04,22.9,FLYING,CF1-J,0:/Integrated Flight Computer/aircraft/cf1_j_cfg.ks (inferred preloaded)
25.06,CRUISE,,250.17,80,-170.17,1501.73,-2.05,-2.29,-1.9,172.97,-13.857,0.2112,0,19.949,1,0.6,4.5,0.75,0.35,0.0168,0.4,0,0,0,0,0,180,0,0,0,-0.47,0,0,3.13,90.37,-0.5398,-0.0091,0.8418,3.1,90.4,0,0,0,0,0,0,3,0,0,0,69,0,0,0,90.4,1,0,89.624,0,0,3,0,0,0,2.793,5.7,0,0,0,0,0,0,VALID,0,0,0,0,0,1,0,0,0,0,0,0,0,0,0,0,0,0,0,0,83.85,350.11,2,0,0.06,0.06,469,19.23,0.06,0.04,23.16,FLYING,CF1-J,0:/Integrated Flight Computer/aircraft/cf1_j_cfg.ks (inferred preloaded)
25.32,CRUISE,,250.25,80,-170.25,1501.19,-2.07,-2.29,-1.9,172.84,-13.975,0.2092,0,19.891,1,0.6,4.5,0.75,0.35,0.0168,0.4,0,0,0,0,0,180,0,0,0,-0.47,0,0,3.13,90.37,-0.5398,-0.0091,0.8418,3.1,90.4,0,0,0,0,0,0,3,0,0,0,69,0,0,0,90.4,1,0,89.624,0,0,3,0,0,0,2.793,5.7,0,0,0,0,0,0,VALID,0,0,0,0,0,1,0,0,0,0,0,0,0,0,0,0,0,0,0,0,83.22,350.14,2,0,0.06,0.06,474,19.23,0.06,0.04,23.42,FLYING,CF1-J,0:/Integrated Flight Computer/aircraft/cf1_j_cfg.ks (inferred preloaded)
25.58,CRUISE,,250.33,80,-170.33,1500.65,-2.09,-2.3,-1.9,172.71,-14.094,0.2071,0,19.814,1,0.6,4.5,0.75,0.35,0.0168,0.4,0,0,0,0,0,180,0,0,0,-0.48,0,0,3.13,90.37,-0.5398,-0.0091,0.8418,3.1,90.4,0,0,0,0,0,0,3,0,0,0,69,0,0,0,90.4,1,0,89.624,0,0,3,0,0,0,2.793,5.7,0,0,0,0,0,0,VALID,0,0,0,0,0,1,0,0,0,0,0,0,0,0,0,0,0,0,0,0,82.59,350.18,2,0,0.06,0.06,479,19.23,0.06,0.04,23.68,FLYING,CF1-J,0:/Integrated Flight Computer/aircraft/cf1_j_cfg.ks (inferred preloaded)
25.84,CRUISE,,250.4,80,-170.4,1500.1,-2.13,-2.32,-1.91,172.58,-14.213,0.205,0,19.718,1,0.6,4.5,0.75,0.35,0.0168,0.4,0,0,0,0,0,180,0,0,0,-0.49,0,0,3.13,90.37,-0.5398,-0.0091,0.8418,3.1,90.4,0,0,0,0,0,0,3,0,0,0,69,0,0,0,90.4,1,0,89.624,0,0,3,0,0,0,2.793,5.7,0,0,0,0,0,0,VALID,0,0,0,0,0,1,0,0,0,0,0,0,0,0,0,0,0,0,0,0,81.95,350.22,2,0,0.06,0.06,484,19.23,0.06,0.04,23.94,FLYING,CF1-J,0:/Integrated Flight Computer/aircraft/cf1_j_cfg.ks (inferred preloaded)
26.1,CRUISE,,250.46,80,-170.46,1499.52,-2.26,-2.4,-1.97,172.47,-14.329,0.2048,0,19.604,1,0.6,4.5,0.75,0.35,0.0168,0.4,0,0,0,0,0,180,0,0,0,-0.52,0,0,3.14,90.37,-0.5398,-0.0091,0.8418,3.1,90.4,0,0,0,0,0,0,3,0,0,0,69,0,0,0,90.4,1,0,89.624,0,0,3,0,0,0,2.793,5.7,0,0,0,0,0,0,VALID,0,0,0,0,0,1,0,0,0,0,0,0,0,0,0,0,0,0,0,0,81.32,350.25,2,0,0.06,0.06,489,19.23,0.06,0.04,24.2,FLYING,CF1-J,0:/Integrated Flight Computer/aircraft/cf1_j_cfg.ks (inferred preloaded)
26.36,CRUISE,,250.53,80,-170.53,1498.9,-2.46,-2.44,-1.97,172.34,-14.442,0.199,0,19.473,1,0.6,4.5,0.75,0.35,0.0168,0.4,0,0,0,0,0,180,0,0,0,-0.56,0,0,3.14,90.37,-0.5398,-0.0091,0.8418,3.1,90.4,0,0,0,0,0,0,3,0,0,0,69,0,0,0,90.4,1,0,89.624,0,0,3,0,0,0,2.793,5.7,0,0,0,0,0,0,VALID,0,0,0,0,0,1,0,0,0,0,0,0,0,0,0,0,0,0,0,0,80.69,350.29,2,0,0.06,0.06,494,19.23,0.06,0.04,24.46,FLYING,CF1-J,0:/Integrated Flight Computer/aircraft/cf1_j_cfg.ks (inferred preloaded)
26.62,CRUISE,,250.6,80,-170.6,1498.23,-2.65,-2.48,-1.97,172.22,-14.554,0.1935,0,19.324,1,0.6,4.5,0.75,0.35,0.0168,0.4,0,0,0,0,0,180,0,0,0,-0.61,0,0,3.14,90.36,-0.5398,-0.0091,0.8418,3.1,90.4,0,0,0,0,0,0,3,0,0,0,69,0,0,0,90.4,1,0,89.624,0,0,3,0,0,0,2.793,5.7,0,0,0,0,0,0,VALID,0,0,0,0,0,1,0,0,0,0,0,0,0,0,0,0,0,0,0,0,79.97,350.33,2,0,0.06,0.06,499,19.23,0.06,0.04,24.72,FLYING,CF1-J,0:/Integrated Flight Computer/aircraft/cf1_j_cfg.ks (inferred preloaded)
26.88,CRUISE,,250.66,80,-170.66,1497.5,-2.85,-2.53,-1.97,172.09,-14.665,0.1877,0,19.159,1,0.6,4.5,0.75,0.35,0.0168,0.4,0,0,0,0,0,180,0,0,0,-0.65,0,0,3.14,90.36,-0.5398,-0.0091,0.8418,3.1,90.4,0,0,0,0,0,0,3,0,0,0,69,0,0,0,90.4,1,0,89.624,0,0,3,0,0,0,2.793,5.7,0,0,0,0,0,0,VALID,0,0,0,0,0,1,0,0,0,0,0,0,0,0,0,0,0,0,0,0,79.18,350.37,2,0,0.06,0.06,504,19.23,0.06,0.04,24.98,FLYING,CF1-J,0:/Integrated Flight Computer/aircraft/cf1_j_cfg.ks (inferred preloaded)
27.14,CRUISE,,250.73,80,-170.73,1496.72,-3.06,-2.57,-1.97,171.97,-14.776,0.1823,0,18.977,1,0.6,4.5,0.75,0.35,0.0168,0.4,0,0,0,0,0,180,0,0,0,-0.7,0,0,3.14,90.36,-0.5398,-0.0091,0.8418,3.1,90.4,0,0,0,0,0,0,3,0,0,0,69,0,0,0,90.4,1,0,89.624,0,0,3,0,0,0,2.793,5.7,0,0,0,0,0,0,VALID,0,0,0,0,0,1,0,0,0,0,0,0,0,0,0,0,0,0,0,0,78.31,350.41,2,0,0.06,0.06,509,19.23,0.06,0.04,25.24,FLYING,CF1-J,0:/Integrated Flight Computer/aircraft/cf1_j_cfg.ks (inferred preloaded)
27.4,CRUISE,,250.79,80,-170.79,1495.89,-3.26,-2.61,-1.97,171.84,-14.887,0.1769,0,18.778,1,0.6,4.5,0.75,0.35,0.0168,0.4,0,0,0,0,0,180,0,0,0,-0.74,0,0,3.14,90.36,-0.5398,-0.0091,0.8418,3.1,90.4,0,0,0,0,0,0,3,0,0,0,69,0,0,0,90.4,1,0,89.624,0,0,3,0,0,0,2.793,5.7,0,0,0,0,0,0,VALID,0,0,0,0,0,1,0,0,0,0,0,0,0,0,0,0,0,0,0,0,77.38,350.46,2,0,0.06,0.06,514,19.23,0.06,0.04,25.5,FLYING,CF1-J,0:/Integrated Flight Computer/aircraft/cf1_j_cfg.ks (inferred preloaded)
27.66,CRUISE,,250.85,80,-170.85,1495.01,-3.46,-2.66,-1.97,171.71,-14.998,0.1722,0,18.565,1,0.6,4.5,0.75,0.35,0.0168,0.4,0,0,0,0,0,180,0,0,0,-0.79,0,0,3.14,90.36,-0.5398,-0.0091,0.8418,3.1,90.4,0,0,0,0,0,0,3,0,0,0,69,0,0,0,90.4,1,0,89.624,0,0,3,0,0,0,2.793,5.7,0,0,0,0,0,0,VALID,0,0,0,0,0,1,0,0,0,0,0,0,0,0,0,0,0,0,0,0,76.39,350.51,2,0,0.06,0.06,519,19.23,0.06,0.04,25.76,FLYING,CF1-J,0:/Integrated Flight Computer/aircraft/cf1_j_cfg.ks (inferred preloaded)
27.92,CRUISE,,250.9,80,-170.9,1494.07,-3.68,-2.7,-1.97,171.58,-15.109,0.1676,0,18.336,1,0.6,4.5,0.75,0.35,0.0168,0.4,0,0,0,0,0,180,0,0,0,-0.84,0,0,3.14,90.36,-0.5398,-0.0091,0.8418,3.1,90.4,0,0,0,0,0,0,3,0,0,0,69,0,0,0,90.4,1,0,89.624,0,0,3,0,0,0,2.793,5.7,0,0,0,0,0,0,VALID,0,0,0,0,0,1,0,0,0,0,0,0,0,0,0,0,0,0,0,0,75.37,350.55,2,0,0.06,0.06,524,19.23,0.06,0.04,26.02,FLYING,CF1-J,0:/Integrated Flight Computer/aircraft/cf1_j_cfg.ks (inferred preloaded)
28.18,CRUISE,,250.96,80,-170.96,1493.08,-3.89,-2.75,-1.97,171.45,-15.219,0.1631,0,18.093,1,0.6,4.5,0.75,0.35,0.0168,0.4,0,0,0,0,0,180,0,0,0,-0.89,0,0,3.14,90.36,-0.5398,-0.0091,0.8418,3.1,90.4,0,0,0,0,0,0,3,0,0,0,69,0,0,0,90.4,1,0,89.624,0,0,3,0,0,0,2.793,5.7,0,0,0,0,0,0,VALID,0,0,0,0,0,1,0,0,0,0,0,0,0,0,0,0,0,0,0,0,74.3,350.6,2,0,0.06,0.06,529,19.23,0.06,0.04,26.28,FLYING,CF1-J,0:/Integrated Flight Computer/aircraft/cf1_j_cfg.ks (inferred preloaded)
28.44,CRUISE,,251.01,80,-171.01,1492.03,-4.1,-2.79,-1.97,171.32,-15.33,0.1589,0,17.836,1,0.6,4.5,0.75,0.35,0.0168,0.4,0,0,0,0,0,180,0,0,0,-0.94,0,0,3.14,90.36,-0.5398,-0.0091,0.8418,3.1,90.4,0,0,0,0,0,0,3,0,0,0,69,0,0,0,90.4,1,0,89.624,0,0,3,0,0,0,2.793,5.7,0,0,0,0,0,0,VALID,0,0,0,0,0,1,0,0,0,0,0,0,0,0,0,0,0,0,0,0,73.21,350.65,2,0,0.06,0.06,534,19.23,0.06,0.04,26.54,FLYING,CF1-J,0:/Integrated Flight Computer/aircraft/cf1_j_cfg.ks (inferred preloaded)
28.7,CRUISE,,251.06,80,-171.06,1490.93,-4.31,-2.84,-1.97,171.19,-15.44,0.1548,0,17.566,1,0.6,4.5,0.75,0.35,0.0168,0.4,0,0,0,0,0,180,0,0,0,-0.98,0,0,3.15,90.36,-0.5398,-0.0091,0.8418,3.1,90.4,0,0,0,0,0,0,3,0,0,0,69,0,0,0,90.4,1,0,89.624,0,0,3,0,0,0,2.793,5.7,0,0,0,0,0,0,VALID,0,0,0,0,0,1,0,0,0,0,0,0,0,0,0,0,0,0,0,0,72.09,350.71,2,0,0.06,0.06,539,19.23,0.06,0.04,26.8,FLYING,CF1-J,0:/Integrated Flight Computer/aircraft/cf1_j_cfg.ks (inferred preloaded)
28.96,CRUISE,,251.1,80,-171.1,1489.77,-4.52,-2.88,-1.97,171.06,-15.551,0.1512,0,17.285,1,0.6,4.5,0.75,0.35,0.0168,0.4,0,0,0,0,0,180,0,0,0,-1.03,0,0,3.15,90.36,-0.5398,-0.0091,0.8418,3.1,90.4,0,0,0,0,0,0,3,0,0,0,69,0,0,0,90.4,1,0,89.624,0,0,3,0,0,0,2.793,5.7,0,0,0,0,0,0,VALID,0,0,0,0,0,1,0,0,0,0,0,0,0,0,0,0,0,0,0,0,70.96,350.76,2,0,0.06,0.06,544,19.23,0.06,0.04,27.06,FLYING,CF1-J,0:/Integrated Flight Computer/aircraft/cf1_j_cfg.ks (inferred preloaded)
29.22,CRUISE,,251.14,80,-171.14,1488.55,-4.74,-2.93,-1.97,170.92,-15.661,0.1472,0,16.992,1,0.6,4.5,0.75,0.35,0.0168,0.4,0,0,0,0,0,180,0,0,0,-1.08,0,0,3.15,90.36,-0.5398,-0.0091,0.8418,3.1,90.4,0,0,0,0,0,0,3,0,0,0,69,0,0,0,90.4,1,0,89.624,0,0,3,0,0,0,2.793,5.7,0,0,0,0,0,0,VALID,0,0,0,0,0,1,0,0,0,0,0,0,0,0,0,0,0,0,0,0,69.82,350.81,2,0,0.06,0.06,549,19.23,0.06,0.04,27.32,FLYING,CF1-J,0:/Integrated Flight Computer/aircraft/cf1_j_cfg.ks (inferred preloaded)
29.48,CRUISE,,251.18,80,-171.18,1487.28,-4.96,-2.97,-1.97,170.79,-15.771,0.1436,0,16.689,1,0.6,4.5,0.75,0.35,0.0168,0.4,0,0,0,0,0,180,0,0,0,-1.13,0,0,3.15,90.36,-0.5398,-0.0091,0.8418,3.1,90.4,0,0,0,0,0,0,3,0,0,0,69,0,0,0,90.4,1,0,89.624,0,0,3,0,0,0,2.793,5.7,0,0,0,0,0,0,VALID,0,0,0,0,0,1,0,0,0,0,0,0,0,0,0,0,0,0,0,0,68.66,350.87,2,0,0.06,0.06,554,19.23,0.06,0.04,27.58,FLYING,CF1-J,0:/Integrated Flight Computer/aircraft/cf1_j_cfg.ks (inferred preloaded)
29.74,CRUISE,,251.22,80,-171.22,1485.96,-5.17,-3.02,-1.97,170.65,-15.881,0.14,0,16.376,1,0.6,4.5,0.75,0.35,0.0168,0.4,0,0,0,0,0,180,0,0,0,-1.18,0,0,3.15,90.36,-0.5398,-0.0091,0.8418,3.1,90.4,0,0,0,0,0,0,3,0,0,0,69,0,0,0,90.4,1,0,89.624,0,0,3,0,0,0,2.793,5.7,0,0,0,0,0,0,VALID,0,0,0,0,0,1,0,0,0,0,0,0,0,0,0,0,0,0,0,0,67.5,350.93,2,0,0.06,0.06,559,19.23,0.06,0.04,27.84,FLYING,CF1-J,0:/Integrated Flight Computer/aircraft/cf1_j_cfg.ks (inferred preloaded)
30,CRUISE,,251.25,80,-171.25,1484.58,-5.36,-3.02,-1.94,170.5,-15.991,0.1356,0,16.054,1,0.6,4.5,0.75,0.35,0.0168,0.4,0,0,0,0,0,180,0,0,0,-1.22,0,0,3.15,90.36,-0.5398,-0.0091,0.8418,3.1,90.4,0,0,0,0,0,0,3,0,0,0,69,0,0,0,90.4,1,0,89.624,0,0,3,0,0,0,2.793,5.7,0,0,0,0,0,0,VALID,0,0,0,0,0,1,0,0,0,0,0,0,0,0,0,0,0,0,0,0,66.33,350.99,2,0,0.06,0.06,564,19.23,0.06,0.04,28.1,FLYING,CF1-J,0:/Integrated Flight Computer/aircraft/cf1_j_cfg.ks (inferred preloaded)
30.26,CRUISE,,251.28,80,-171.28,1483.18,-5.37,-3.04,-1.93,170.36,-16.106,0.1349,0,15.724,1,0.6,4.5,0.75,0.35,0.0168,0.4,0,0,0,0,0,180,0,0,0,-1.22,0,0,3.15,90.36,-0.5398,-0.0091,0.8418,3.1,90.4,0,0,0,0,0,0,3,0,0,0,69,0,0,0,90.4,1,0,89.624,0,0,3,0,0,0,2.793,5.7,0,0,0,0,0,0,VALID,0,0,0,0,0,1,0,0,0,0,0,0,0,0,0,0,0,0,0,0,65.14,351.05,2,0,0.06,0.06,569,19.23,0.06,0.04,28.36,FLYING,CF1-J,0:/Integrated Flight Computer/aircraft/cf1_j_cfg.ks (inferred preloaded)
30.52,CRUISE,,251.3,80,-171.3,1481.73,-5.61,-3.11,-1.97,170.22,-16.219,0.1346,0,15.388,1,0.6,4.5,0.75,0.35,0.0168,0.4,0,0,0,0,0,180,0,0,0,-1.28,0,0,3.15,90.36,-0.5398,-0.0091,0.8418,3.1,90.4,0,0,0,0,0,0,3,0,0,0,69,0,0,0,90.4,1,0,89.624,0,0,3,0,0,0,2.793,5.7,0,0,0,0,0,0,VALID,0,0,0,0,0,1,0,0,0,0,0,0,0,0,0,0,0,0,0,0,64.05,351.11,2,0,0.06,0.06,574,19.23,0.06,0.04,28.62,FLYING,CF1-J,0:/Integrated Flight Computer/aircraft/cf1_j_cfg.ks (inferred preloaded)
30.78,CRUISE,,251.32,80,-171.32,1480.24,-5.81,-3.15,-1.97,170.08,-16.329,0.1308,0,15.047,1,0.6,4.5,0.75,0.35,0.0168,0.4,0,0,0,0,0,180,0,0,0,-1.32,0,0,3.15,90.36,-0.5398,-0.0091,0.8418,3.1,90.4,0,0,0,0,0,0,3,0,0,0,69,0,0,0,90.4,1,0,89.624,0,0,3,0,0,0,2.793,5.7,0,0,0,0,0,0,VALID,0,0,0,0,0,1,0,0,0,0,0,0,0,0,0,0,0,0,0,0,62.98,351.17,2,0,0.06,0.06,579,19.23,0.06,0.04,28.88,FLYING,CF1-J,0:/Integrated Flight Computer/aircraft/cf1_j_cfg.ks (inferred preloaded)
31.04,CRUISE,,251.34,80,-171.34,1478.69,-6.03,-3.2,-1.97,169.94,-16.44,0.1284,0,14.701,1,0.6,4.5,0.75,0.35,0.0168,0.4,0,0,0,0,0,180,0,0,0,-1.37,0,0,3.16,90.36,-0.5398,-0.0091,0.8418,3.1,90.4,0,0,0,0,0,0,3,0,0,0,69,0,0,0,90.4,1,0,89.624,0,0,3,0,0,0,2.793,5.7,0,0,0,0,0,0,VALID,0,0,0,0,0,1,0,0,0,0,0,0,0,0,0,0,0,0,0,0,61.91,351.23,2,0,0.06,0.06,584,19.23,0.06,0.04,29.14,FLYING,CF1-J,0:/Integrated Flight Computer/aircraft/cf1_j_cfg.ks (inferred preloaded)
31.3,CRUISE,,251.35,80,-171.35,1477.09,-6.24,-3.24,-1.97,169.8,-16.549,0.1246,0,14.35,1,0.6,4.5,0.75,0.35,0.0168,0.4,0,0,0,0,0,180,0,0,0,-1.42,0,0,3.16,90.36,-0.5398,-0.0091,0.8418,3.1,90.4,0,0,0,0,0,0,3,0,0,0,69,0,0,0,90.4,1,0,89.624,0,0,3,0,0,0,2.793,5.7,0,0,0,0,0,0,VALID,0,0,0,0,0,1,0,0,0,0,0,0,0,0,0,0,0,0,0,0,60.84,351.3,2,0,0.06,0.06,589,19.23,0.06,0.04,29.4,FLYING,CF1-J,0:/Integrated Flight Computer/aircraft/cf1_j_cfg.ks (inferred preloaded)
31.56,CRUISE,,251.37,80,-171.37,1475.43,-6.45,-3.29,-1.97,169.66,-16.659,0.1216,0,13.996,1,0.6,4.5,0.75,0.35,0.0168,0.4,0,0,0,0,0,180,0,0,0,-1.47,0,0,3.16,90.36,-0.5398,-0.0091,0.8418,3.1,90.4,0,0,0,0,0,0,3,0,0,0,69,0,0,0,90.4,1,0,89.624,0,0,3,0,0,0,2.793,5.7,0,0,0,0,0,0,VALID,0,0,0,0,0,1,0,0,0,0,0,0,0,0,0,0,0,0,0,0,59.76,351.36,2,0,0.06,0.06,594,19.23,0.06,0.04,29.66,FLYING,CF1-J,0:/Integrated Flight Computer/aircraft/cf1_j_cfg.ks (inferred preloaded)
31.82,CRUISE,,251.38,80,-171.38,1473.71,-6.67,-3.33,-1.97,169.51,-16.769,0.1184,0,13.64,1,0.6,4.5,0.75,0.35,0.0168,0.4,0,0,0,0,0,180,0,0,0,-1.52,0,0,3.16,90.36,-0.5398,-0.0091,0.8418,3.1,90.4,0,0,0,0,0,0,3,0,0,0,69,0,0,0,90.4,1,0,89.624,0,0,3,0,0,0,2.793,5.7,0,0,0,0,0,0,VALID,0,0,0,0,0,1,0,0,0,0,0,0,0,0,0,0,0,0,0,0,58.68,351.43,2,0,0.06,0.06,599,19.23,0.06,0.04,29.92,FLYING,CF1-J,0:/Integrated Flight Computer/aircraft/cf1_j_cfg.ks (inferred preloaded)
32.08,CRUISE,,251.38,80,-171.38,1471.94,-6.88,-3.38,-1.97,169.36,-16.878,0.1155,0,13.281,1,0.6,4.5,0.75,0.35,0.0168,0.4,0,0,0,0,0,180,0,0,0,-1.57,0,0,3.16,90.36,-0.5398,-0.0091,0.8418,3.1,90.4,0,0,0,0,0,0,3,0,0,0,69,0,0,0,90.4,1,0,89.624,0,0,3,0,0,0,2.793,5.7,0,0,0,0,0,0,VALID,0,0,0,0,0,1,0,0,0,0,0,0,0,0,0,0,0,0,0,0,57.6,351.5,2,0,0.06,0.06,604,19.23,0.06,0.04,30.18,FLYING,CF1-J,0:/Integrated Flight Computer/aircraft/cf1_j_cfg.ks (inferred preloaded)
32.34,CRUISE,,251.39,80,-171.39,1470.11,-7.09,-3.42,-1.97,169.22,-16.987,0.1128,0,12.921,1,0.6,4.5,0.75,0.35,0.0168,0.4,0,0,0,0,0,180,0,0,0,-1.62,0,0,3.16,90.36,-0.5398,-0.0091,0.8418,3.1,90.4,0,0,0,0,0,0,3,0,0,0,69,0,0,0,90.4,1,0,89.624,0,0,3,0,0,0,2.793,5.7,0,0,0,0,0,0,VALID,0,0,0,0,0,1,0,0,0,0,0,0,0,0,0,0,0,0,0,0,56.52,351.57,2,0,0.06,0.06,609,19.23,0.06,0.04,30.44,FLYING,CF1-J,0:/Integrated Flight Computer/aircraft/cf1_j_cfg.ks (inferred preloaded)
32.6,CRUISE,,251.39,80,-171.39,1468.23,-7.3,-3.47,-1.97,169.07,-17.097,0.1102,0,12.56,1,0.6,4.5,0.75,0.35,0.0168,0.4,0,0,0,0,0,180,0,0,0,-1.66,0,0,3.16,90.36,-0.5398,-0.0091,0.8418,3.1,90.4,0,0,0,0,0,0,3,0,0,0,69,0,0,0,90.4,1,0,89.624,0,0,3,0,0,0,2.793,5.7,0,0,0,0,0,0,VALID,0,0,0,0,0,1,0,0,0,0,0,0,0,0,0,0,0,0,0,0,55.45,351.64,2,0,0.06,0.06,614,19.23,0.06,0.04,30.7,FLYING,CF1-J,0:/Integrated Flight Computer/aircraft/cf1_j_cfg.ks (inferred preloaded)
32.86,CRUISE,,251.39,80,-171.39,1466.3,-7.52,-3.51,-1.97,168.92,-17.206,0.1078,0,12.199,1,0.6,4.5,0.75,0.35,0.0168,0.4,0,0,0,0,0,180,0,0,0,-1.71,0,0,3.17,90.35,-0.5398,-0.0091,0.8418,3.1,90.4,0,0,0,0,0,0,3,0,0,0,69,0,0,0,90.4,1,0,89.624,0,0,3,0,0,0,2.793,5.7,0,0,0,0,0,0,VALID,0,0,0,0,0,1,0,0,0,0,0,0,0,0,0,0,0,0,0,0,54.39,351.71,2,0,0.06,0.06,619,19.23,0.06,0.04,30.96,FLYING,CF1-J,0:/Integrated Flight Computer/aircraft/cf1_j_cfg.ks (inferred preloaded)
33.12,CRUISE,,251.38,80,-171.38,1464.3,-7.73,-3.55,-1.97,168.77,-17.316,0.1053,0,11.839,1,0.6,4.5,0.75,0.35,0.0168,0.4,0,0,0,0,0,180,0,0,0,-1.76,0,0,3.17,90.35,-0.5398,-0.0091,0.8418,3.1,90.4,0,0,0,0,0,0,3,0,0,0,69,0,0,0,90.4,1,0,89.624,0,0,3,0,0,0,2.793,5.7,0,0,0,0,0,0,VALID,0,0,0,0,0,1,0,0,0,0,0,0,0,0,0,0,0,0,0,0,53.35,351.79,2,0,0.06,0.06,624,19.23,0.06,0.04,31.22,FLYING,CF1-J,0:/Integrated Flight Computer/aircraft/cf1_j_cfg.ks (inferred preloaded)
33.38,CRUISE,,251.38,80,-171.38,1462.26,-7.94,-3.6,-1.96,168.62,-17.425,0.1031,0,11.48,1,0.6,4.5,0.75,0.35,0.0168,0.4,0,0,0,0,0,180,0,0,0,-1.81,0,0,3.17,90.35,-0.5398,-0.0091,0.8418,3.1,90.4,0,0,0,0,0,0,3,0,0,0,69,0,0,0,90.4,1,0,89.624,0,0,3,0,0,0,2.793,5.7,0,0,0,0,0,0,VALID,0,0,0,0,0,1,0,0,0,0,0,0,0,0,0,0,0,0,0,0,52.32,351.87,2,0,0.06,0.06,629,19.23,0.06,0.04,31.48,FLYING,CF1-J,0:/Integrated Flight Computer/aircraft/cf1_j_cfg.ks (inferred preloaded)
33.64,CRUISE,,251.37,80,-171.37,1460.16,-8.15,-3.64,-1.96,168.47,-17.534,0.1009,0,11.123,1,0.6,4.5,0.75,0.35,0.0168,0.4,0,0,0,0,0,180,0,0,0,-1.86,0,0,3.17,90.35,-0.5398,-0.0091,0.8418,3.1,90.4,0,0,0,0,0,0,3,0,0,0,69,0,0,0,90.4,1,0,89.624,0,0,3,0,0,0,2.793,5.7,0,0,0,0,0,0,VALID,0,0,0,0,0,1,0,0,0,0,0,0,0,0,0,0,0,0,0,0,51.31,351.95,2,0,0.06,0.06,634,19.23,0.06,0.04,31.74,FLYING,CF1-J,0:/Integrated Flight Computer/aircraft/cf1_j_cfg.ks (inferred preloaded)
33.9,CRUISE,,251.36,80,-171.36,1458,-8.36,-3.68,-1.96,168.31,-17.643,0.0989,0,10.769,1,0.6,4.5,0.75,0.35,0.0168,0.4,0,0,0,0,0,180,0,0,0,-1.9,0,0,3.17,90.35,-0.5398,-0.0091,0.8418,3.1,90.4,0,0,0,0,0,0,3,0,0,0,69,0,0,0,90.4,1,0,89.624,0,0,3,0,0,0,2.793,5.7,0,0,0,0,0,0,VALID,0,0,0,0,0,1,0,0,0,0,0,0,0,0,0,0,0,0,0,0,50.31,352.03,2,0,0.06,0.06,639,19.23,0.06,0.04,32,FLYING,CF1-J,0:/Integrated Flight Computer/aircraft/cf1_j_cfg.ks (inferred preloaded)
