t_s,phase,subphase,ias_ms,vapp_ms,spd_err_ms,agl_m,vs_ms,pitch_deg,aoa_deg,hdg_deg,bank_deg,thr_cmd,thr_intg,aa_hdg_cmd_deg,aa_fpa_cmd_deg,ils_loc_m,ils_gs_m,ils_dist_km,loc_corr_deg,gs_corr_deg,flare_fpa_cmd,flare_tgt_vs,flare_frac,steer_hdg_deg,steer_blend,ro_loc_corr_deg,ro_hdg_err_deg,ro_yaw_tgt,ro_yaw_scale,ro_yaw_gate,yaw_cmd,roll_cmd,pitch_cmd,ro_pitch_tgt_deg,ro_pitch_err_deg,ro_pitch_ff,ro_roll_assist,flaps_cur,flaps_tgt,phase_el_s,status
1,APPROACH,FLY_TO_FIX,228.69,80.4,-148.29,2067.57,52.01,11.62,-0.47,325.74,55.134,0,-20,347.68,-2.812,0,0,0,0,0,0,0,0,329.02,0,0,0,0,0,0,0,0,0,0,0,0,0,0,0,1.04,FLYING
1.74,APPROACH,FLY_TO_FIX,228.46,80.8,-147.66,2102.36,43.56,6.97,-6.02,331.57,66.702,0,-20,348.19,-2.99,0,0,0,0,0,0,0,0,329.02,0,0,0,0,0,0,0,0,0,0,0,0,0,0,0,1.78,FLYING
2.44,APPROACH,FLY_TO_FIX,227.79,81.2,-146.59,2128.3,31.66,5.01,-6.85,336.67,74.424,0,-20,348.65,-3.125,0,0,0,0,0,0,0,0,329.02,0,0,0,0,0,0,0,0,0,0,0,0,0,0,0,2.48,FLYING
3.14,APPROACH,FLY_TO_FIX,227.1,81.6,-145.5,2146.33,21.2,3.46,-6.04,340.04,80.576,0,-20,349.03,-3.221,0,0,0,0,0,0,0,0,329.02,0,0,0,0,0,0,0,0,0,0,0,0,0,0,0,3.18,FLYING
3.84,APPROACH,FLY_TO_FIX,226.77,82,-144.77,2157.95,12.99,2.38,-4.63,341.76,86.914,0,-20,349.35,-3.283,0,0,0,0,0,0,0,0,329.02,0,0,0,0,0,0,0,0,0,0,0,0,0,0,0,3.88,FLYING
4.54,APPROACH,FLY_TO_FIX,226.6,82.4,-144.2,2164.43,6.48,1.42,-2.51,339.96,75.119,0,-20,349.64,-3.319,0,0,0,0,0,0,0,0,329.02,0,0,0,0,0,0,0,0,0,0,0,0,0,0,0,4.58,FLYING
5.24,APPROACH,FLY_TO_FIX,226.1,82.8,-143.3,2166.61,1.26,-0.02,-1.97,339.05,52.66,0,-20,349.95,-3.333,0,0,0,0,0,0,0,0,329.02,0,0,0,0,0,0,0,0,0,0,0,0,0,0,0,5.28,FLYING
5.94,APPROACH,FLY_TO_FIX,225.48,83.2,-142.28,2166.08,-1.49,-1.1,-1.58,337.9,30.027,0,-20,350.29,-3.331,0,0,0,0,0,0,0,0,329.02,0,0,0,0,0,0,0,0,0,0,0,0,0,0,0,5.98,FLYING
6.66,APPROACH,FLY_TO_FIX,224.63,83.6,-141.03,2164.57,-2.02,-1.69,-1.38,336.98,6.79,0,-20,350.67,-3.324,0,0,0,0,0,0,0,0,329.02,0,0,0,0,0,0,0,0,0,0,0,0,0,0,0,6.7,FLYING
7.38,APPROACH,FLY_TO_FIX,223.55,84,-139.55,2163.13,-1.9,-2.12,-1.39,336.55,-16.608,0,-20,351.07,-3.317,0,0,0,0,0,0,0,0,329.02,0,0,0,0,0,0,0,0,0,0,0,0,0,0,0,7.42,FLYING
8.1,APPROACH,FLY_TO_FIX,222.28,84,-138.28,2161.34,-3.26,-2.84,-1.63,336.42,-40.462,0,-20,351.49,-3.308,0,0,0,0,0,0,0,0,329.02,0,0,0,0,0,0,0,0,0,0,0,0,0,0,0,8.14,FLYING
8.82,APPROACH,FLY_TO_FIX,220.89,84,-136.89,2158.6,-4.2,-1.8,0.23,339.18,-63.433,0,-20,351.9,-3.295,0,0,0,0,0,0,0,0,329.02,0,0,0,0,0,0,0,0,0,0,0,0,0,0,0,8.86,FLYING
9.54,APPROACH,FLY_TO_FIX,219.9,84,-135.9,2155.01,-6.12,-1.74,-0.25,341.24,-67.396,0,-20,352.25,-3.278,0,0,0,0,0,0,0,0,329.02,0,0,0,0,0,0,0,0,0,0,0,0,0,0,0,9.58,FLYING
10.26,APPROACH,FLY_TO_FIX,218.97,84,-134.97,2149.75,-8.14,-2.01,-0.53,343.2,-59.972,0,-20,352.55,-3.253,0,0,0,0,0,0,0,0,329.02,0,0,0,0,0,0,0,0,0,0,0,0,0,0,0,10.3,FLYING
10.98,APPROACH,FLY_TO_FIX,218.06,84,-134.06,2143.2,-9.64,-2.52,-0.77,344.92,-52.473,0,-20,352.8,-3.221,0,0,0,0,0,0,0,0,329.02,0,0,0,0,0,0,0,0,0,0,0,0,0,0,0,11.02,FLYING
11.7,APPROACH,FLY_TO_FIX,217.17,84,-133.17,2135.76,-10.65,-2.97,-0.94,346.42,-44.26,0,-20,353,-3.184,0,0,0,0,0,0,0,0,329.02,0,0,0,0,0,0,0,0,0,0,0,0,0,0,0,11.74,FLYING
12.42,APPROACH,FLY_TO_FIX,216.27,84,-132.27,2127.73,-11.35,-3.35,-1.04,347.71,-36.976,0,-20,353.17,-3.144,0,0,0,0,0,0,0,0,329.02,0,0,0,0,0,0,0,0,0,0,0,0,0,0,0,12.46,FLYING
13.14,APPROACH,FLY_TO_FIX,215.38,84,-131.38,2119.32,-11.79,-3.63,-1.11,348.81,-30.13,0,-20,353.31,-3.103,0,0,0,0,0,0,0,0,329.02,0,0,0,0,0,0,0,0,0,0,0,0,0,0,0,13.18,FLYING
13.86,APPROACH,FLY_TO_FIX,214.5,84,-130.5,2110.68,-12.04,-3.84,-1.15,349.79,-25.063,0,-20,353.42,-3.059,0,0,0,0,0,0,0,0,329.02,0,0,0,0,0,0,0,0,0,0,0,0,0,0,0,13.9,FLYING
14.58,APPROACH,FLY_TO_FIX,213.61,84,-129.61,2101.93,-12.17,-3.97,-1.16,350.59,-20.453,0,-20,353.52,-3.016,0,0,0,0,0,0,0,0,329.02,0,0,0,0,0,0,0,0,0,0,0,0,0,0,0,14.62,FLYING
15.28,APPROACH,FLY_TO_FIX,212.75,84,-128.75,2093.37,-12.21,-4.03,-1.16,351.23,-16.61,0,-20,353.59,-2.973,0,0,0,0,0,0,0,0,329.02,0,0,0,0,0,0,0,0,0,0,0,0,0,0,0,15.32,FLYING
15.98,APPROACH,FLY_TO_FIX,211.89,84,-127.89,2084.82,-12.18,-4.06,-1.16,351.77,-13.617,0,-20,353.66,-2.93,0,0,0,0,0,0,0,0,329.02,0,0,0,0,0,0,0,0,0,0,0,0,0,0,0,16.02,FLYING
16.68,APPROACH,FLY_TO_FIX,211.02,84,-127.02,2076.33,-12.09,-4.06,-1.15,352.2,-10.89,0,-20,353.71,-2.888,0,0,0,0,0,0,0,0,329.02,0,0,0,0,0,0,0,0,0,0,0,0,0,0,0,16.72,FLYING
17.38,APPROACH,FLY_TO_FIX,210.14,84,-126.14,2067.91,-11.96,-4.05,-1.13,352.56,-8.611,0,-20,353.75,-2.846,0,0,0,0,0,0,0,0,329.02,0,0,0,0,0,0,0,0,0,0,0,0,0,0,0,17.42,FLYING
18.1,APPROACH,FLY_TO_FIX,209.23,84,-125.23,2059.36,-11.8,-4.01,-1.12,352.85,-6.723,0,-20,353.79,-2.803,0,0,0,0,0,0,0,0,329.02,0,0,0,0,0,0,0,0,0,0,0,0,0,0,0,18.14,FLYING
18.82,APPROACH,FLY_TO_FIX,208.32,84,-124.32,2050.94,-11.62,-3.97,-1.1,353.08,-5.241,0,-20,353.81,-2.761,0,0,0,0,0,0,0,0,329.02,0,0,0,0,0,0,0,0,0,0,0,0,0,0,0,18.86,FLYING
19.52,APPROACH,FLY_TO_FIX,207.42,84,-123.42,2042.89,-11.43,-3.93,-1.09,353.25,-3.879,0,-20,353.84,-2.72,0,0,0,0,0,0,0,0,329.02,0,0,0,0,0,0,0,0,0,0,0,0,0,0,0,19.56,FLYING
20.22,APPROACH,FLY_TO_FIX,206.52,84,-122.52,2034.95,-11.26,-3.89,-1.08,353.38,-2.727,0,-20,353.86,-2.68,0,0,0,0,0,0,0,0,329.02,0,0,0,0,0,0,0,0,0,0,0,0,0,0,0,20.26,FLYING
20.92,APPROACH,FLY_TO_FIX,205.62,84,-121.62,2027.14,-11.09,-3.84,-1.06,353.49,-1.954,0,-20,353.87,-2.641,0,0,0,0,0,0,0,0,329.02,0,0,0,0,0,0,0,0,0,0,0,0,0,0,0,20.96,FLYING
21.64,APPROACH,FLY_TO_FIX,204.68,84,-120.68,2019.23,-10.91,-3.79,-1.04,353.56,-1.456,0,-20,353.89,-2.602,0,0,0,0,0,0,0,0,329.02,0,0,0,0,0,0,0,0,0,0,0,0,0,0,0,21.68,FLYING
22.34,APPROACH,FLY_TO_FIX,203.78,84,-119.78,2011.66,-10.75,-3.74,-1.02,353.61,-1.157,0,-20,353.9,-2.564,0,0,0,0,0,0,0,0,329.02,0,0,0,0,0,0,0,0,0,0,0,0,0,0,0,22.38,FLYING
23.04,APPROACH,FLY_TO_FIX,202.87,84,-118.87,2004.2,-10.58,-3.7,-1,353.66,-0.961,0,-20,353.92,-2.526,0,0,0,0,0,0,0,0,329.02,0,0,0,0,0,0,0,0,0,0,0,0,0,0,0,23.08,FLYING
23.74,APPROACH,FLY_TO_FIX,201.96,84,-117.96,1996.86,-10.42,-3.65,-0.99,353.69,-0.827,0,-20,353.93,-2.49,0,0,0,0,0,0,0,0,329.02,0,0,0,0,0,0,0,0,0,0,0,0,0,0,0,23.78,FLYING
24.44,APPROACH,FLY_TO_FIX,201.06,84,-117.06,1989.64,-10.25,-3.6,-0.97,353.72,-0.731,0,-20,353.94,-2.453,0,0,0,0,0,0,0,0,329.02,0,0,0,0,0,0,0,0,0,0,0,0,0,0,0,24.48,FLYING
25.16,APPROACH,FLY_TO_FIX,200.12,84,-116.12,1982.33,-10.09,-3.55,-0.95,353.75,-0.654,0,-20,353.96,-2.417,0,0,0,0,0,0,0,0,329.02,0,0,0,0,0,0,0,0,0,0,0,0,0,0,0,25.2,FLYING
25.88,APPROACH,FLY_TO_FIX,199.19,84,-115.19,1975.14,-9.92,-3.5,-0.93,353.77,-0.598,0,-20,353.97,-2.381,0,0,0,0,0,0,0,0,329.02,0,0,0,0,0,0,0,0,0,0,0,0,0,0,0,25.92,FLYING
26.6,APPROACH,FLY_TO_FIX,198.27,84,-114.27,1968.07,-9.75,-3.44,-0.91,353.8,-0.553,0,-20,353.98,-2.345,0,0,0,0,0,0,0,0,329.02,0,0,0,0,0,0,0,0,0,0,0,0,0,0,0,26.64,FLYING
27.32,APPROACH,FLY_TO_FIX,197.34,84,-113.34,1961.12,-9.59,-3.39,-0.89,353.82,-0.514,0,-20,354,-2.31,0,0,0,0,0,0,0,0,329.02,0,0,0,0,0,0,0,0,0,0,0,0,0,0,0,27.36,FLYING
28.04,APPROACH,FLY_TO_FIX,196.42,84,-112.42,1954.28,-9.42,-3.34,-0.87,353.84,-0.485,0,-20,354.01,-2.276,0,0,0,0,0,0,0,0,329.02,0,0,0,0,0,0,0,0,0,0,0,0,0,0,0,28.08,FLYING
28.76,APPROACH,FLY_TO_FIX,195.5,84,-111.5,1947.57,-9.26,-3.29,-0.85,353.86,-0.464,0,-20,354.03,-2.242,0,0,0,0,0,0,0,0,329.02,0,0,0,0,0,0,0,0,0,0,0,0,0,0,0,28.8,FLYING
29.48,APPROACH,FLY_TO_FIX,194.58,84,-110.58,1940.97,-9.1,-3.23,-0.82,353.88,-0.449,0,-20,354.04,-2.209,0,0,0,0,0,0,0,0,329.02,0,0,0,0,0,0,0,0,0,0,0,0,0,0,0,29.52,FLYING
30.22,APPROACH,FLY_TO_FIX,193.64,84,-109.64,1934.31,-8.92,-3.19,-0.82,353.89,-0.397,0,-20,274.81,-5.396,0,0,0,0,0,0,0,0,329.02,0,0,0,0,0,0,0,0,0,0,0,0,0,0,0,30.26,FLYING
30.92,APPROACH,FLY_TO_FIX,192.52,84,-108.52,1928.09,-8.85,-3.24,-0.81,353.53,10.029,0,-20,274.26,-5.365,0,0,0,0,0,0,0,0,329.02,0,0,0,0,0,0,0,0,0,0,0,0,0,0,0,30.96,FLYING
31.62,APPROACH,FLY_TO_FIX,191.2,84,-107.2,1921.71,-9.43,-3.83,-0.97,352.95,29.447,0,-20,273.7,-5.333,0,0,0,0,0,0,0,0,329.02,0,0,0,0,0,0,0,0,0,0,0,0,0,0,0,31.66,FLYING
32.32,APPROACH,FLY_TO_FIX,189.96,84,-105.96,1914.23,-11.93,-5,-1.38,352.65,49.852,0,-20,273.15,-5.297,0,0,0,0,0,0,0,0,329.02,0,0,0,0,0,0,0,0,0,0,0,0,0,0,0,32.36,FLYING
33.02,APPROACH,FLY_TO_FIX,188.48,84,-104.48,1905.43,-13.02,-2.12,5.66,343.7,69.866,0,-20,272.61,-5.253,0,0,0,0,0,0,0,0,329.02,0,0,0,0,0,0,0,0,0,0,0,0,0,0,0,33.06,FLYING
33.72,APPROACH,FLY_TO_FIX,185.06,84,-101.06,1896.76,-12.61,-2.47,7.73,333.66,79.921,0.1752,-20,272.08,-5.21,0,0,0,0,0,0,0,0,329.02,0,0,0,0,0,0,0,0,0,0,0,0,0,0,0,33.76,FLYING
34.42,APPROACH,FLY_TO_FIX,181.05,84,-97.05,1887.31,-14.19,-2.79,8.38,324.24,80.339,0.3752,-20,271.58,-5.164,0,0,0,0,0,0,0,0,329.02,0,0,0,0,0,0,0,0,0,0,0,0,0,0,0,34.46,FLYING
35.14,APPROACH,FLY_TO_FIX,176.86,84,-92.86,1876.41,-15.82,-3.16,8.99,314.37,79.92,0.5752,-20,271.12,-5.11,0,0,0,0,0,0,0,0,329.02,0,0,0,0,0,0,0,0,0,0,0,0,0,0,0,35.18,FLYING
35.86,APPROACH,FLY_TO_FIX,173.19,84,-89.19,1864.31,-17.48,-3.78,7.38,307.27,78.101,0.7542,-20,270.71,-5.05,0,0,0,0,0,0,0,0,329.02,0,0,0,0,0,0,0,0,0,0,0,0,0,0,0,35.9,FLYING
36.58,APPROACH,FLY_TO_FIX,170.77,84,-86.77,1851.07,-18.95,-4.14,5.96,301.42,74.177,0.7284,-20,270.36,-4.985,0,0,0,0,0,0,0,0,329.02,0,0,0,0,0,0,0,0,0,0,0,0,0,0,0,36.62,FLYING
37.3,APPROACH,FLY_TO_FIX,169.3,84,-85.3,1837.05,-19.75,-4.4,4.75,296.55,70.476,0.611,-20,270.06,-4.915,0,0,0,0,0,0,0,0,329.02,0,0,0,0,0,0,0,0,0,0,0,0,0,0,0,37.34,FLYING
38.02,APPROACH,FLY_TO_FIX,168.46,84,-84.46,1822.6,-20.17,-4.56,3.79,292.38,65.895,0.4528,-20,269.8,-4.843,0,0,0,0,0,0,0,0,329.02,0,0,0,0,0,0,0,0,0,0,0,0,0,0,0,38.06,FLYING
38.74,APPROACH,FLY_TO_FIX,168.04,84,-84.04,1807.99,-20.25,-4.68,3.01,288.82,61.257,0.2835,-20,269.58,-4.77,0,0,0,0,0,0,0,0,329.02,0,0,0,0,0,0,0,0,0,0,0,0,0,0,0,38.78,FLYING
39.46,APPROACH,FLY_TO_FIX,167.92,84,-83.92,1793.4,-20.13,-4.81,2.35,285.77,56.825,0.1173,-20,269.4,-4.697,0,0,0,0,0,0,0,0,329.02,0,0,0,0,0,0,0,0,0,0,0,0,0,0,0,39.5,FLYING
40.18,APPROACH,FLY_TO_FIX,167.95,84,-83.95,1778.96,-19.9,-4.89,1.82,283.16,51.753,0,-20,269.24,-4.625,0,0,0,0,0,0,0,0,329.02,0,0,0,0,0,0,0,0,0,0,0,0,0,0,0,40.22,FLYING
40.9,APPROACH,FLY_TO_FIX,168.03,84,-84.03,1764.75,-19.53,-4.92,1.4,280.94,46.273,0,-20,269.1,-4.554,0,0,0,0,0,0,0,0,329.02,0,0,0,0,0,0,0,0,0,0,0,0,0,0,0,40.94,FLYING
41.62,APPROACH,FLY_TO_FIX,168.09,84,-84.09,1750.83,-19.08,-4.95,1.07,279.02,41.202,0,-20,268.99,-4.484,0,0,0,0,0,0,0,0,329.02,0,0,0,0,0,0,0,0,0,0,0,0,0,0,0,41.66,FLYING
42.34,APPROACH,FLY_TO_FIX,168.11,84,-84.11,1737.25,-18.59,-4.97,0.81,277.36,36.596,0,-20,268.89,-4.416,0,0,0,0,0,0,0,0,329.02,0,0,0,0,0,0,0,0,0,0,0,0,0,0,0,42.38,FLYING
43.06,APPROACH,FLY_TO_FIX,168.08,84,-84.08,1724.05,-18.08,-4.96,0.62,275.92,32.08,0,-20,268.81,-4.349,0,0,0,0,0,0,0,0,329.02,0,0,0,0,0,0,0,0,0,0,0,0,0,0,0,43.1,FLYING
43.78,APPROACH,FLY_TO_FIX,167.99,84,-83.99,1711.22,-17.57,-4.92,0.47,274.71,27.414,0,-20,268.75,-4.285,0,0,0,0,0,0,0,0,329.02,0,0,0,0,0,0,0,0,0,0,0,0,0,0,0,43.82,FLYING
44.5,APPROACH,FLY_TO_FIX,167.86,84,-83.86,1698.77,-17.05,-4.86,0.37,273.67,23.244,0,-20,268.69,-4.222,0,0,0,0,0,0,0,0,329.02,0,0,0,0,0,0,0,0,0,0,0,0,0,0,0,44.54,FLYING
45.22,APPROACH,FLY_TO_FIX,167.69,84,-83.69,1686.68,-16.56,-4.8,0.28,272.77,19.933,0,-20,268.64,-4.162,0,0,0,0,0,0,0,0,329.02,0,0,0,0,0,0,0,0,0,0,0,0,0,0,0,45.26,FLYING
45.94,APPROACH,FLY_TO_FIX,167.5,84,-83.5,1674.95,-16.09,-4.73,0.22,271.99,17.303,0,-20,268.6,-4.103,0,0,0,0,0,0,0,0,329.02,0,0,0,0,0,0,0,0,0,0,0,0,0,0,0,45.98,FLYING
46.66,APPROACH,FLY_TO_FIX,167.27,84,-83.27,1663.54,-15.65,-4.65,0.18,271.34,14.608,0,-20,268.57,-4.046,0,0,0,0,0,0,0,0,329.02,0,0,0,0,0,0,0,0,0,0,0,0,0,0,0,46.7,FLYING
47.38,APPROACH,FLY_TO_FIX,167,84,-83,1652.45,-15.23,-4.55,0.16,270.8,12.111,0,-20,268.55,-3.99,0,0,0,0,0,0,0,0,329.02,0,0,0,0,0,0,0,0,0,0,0,0,0,0,0,47.42,FLYING
48.1,APPROACH,FLY_TO_FIX,166.7,84,-82.7,1641.65,-14.82,-4.46,0.14,270.35,9.922,0,-20,268.52,-3.936,0,0,0,0,0,0,0,0,329.02,0,0,0,0,0,0,0,0,0,0,0,0,0,0,0,48.14,FLYING
48.82,APPROACH,FLY_TO_FIX,166.37,84,-82.37,1631.15,-14.43,-4.36,0.13,269.98,8.06,0,-20,268.51,-3.883,0,0,0,0,0,0,0,0,329.02,0,0,0,0,0,0,0,0,0,0,0,0,0,0,0,48.86,FLYING
49.54,APPROACH,FLY_TO_FIX,166.01,84,-82.01,1620.91,-14.05,-4.26,0.13,269.67,6.515,0,-20,268.49,-3.832,0,0,0,0,0,0,0,0,329.02,0,0,0,0,0,0,0,0,0,0,0,0,0,0,0,49.58,FLYING
50.26,APPROACH,FLY_TO_FIX,165.53,84,-81.53,1610.95,-13.69,-4.16,0.13,269.43,5.245,0,-20,268.48,-3.782,0,0,0,0,0,0,0,0,329.02,0,0,0,0,0,0,0,0,0,0,0,0,0,0,0,50.3,FLYING
50.98,APPROACH,FLY_TO_FIX,164.06,84,-80.06,1601.26,-13.23,-4.07,0.12,269.23,4.204,0,-20,268.47,-3.733,0,0,0,0,0,0,0,0,329.02,0,0,0,0,0,0,0,0,0,0,0,0,0,0,0,51.02,FLYING
51.7,APPROACH,FLY_TO_FIX,160.23,84,-76.23,1591.97,-12.68,-3.91,0.2,269.07,3.327,0,-20,268.47,-3.685,0,0,0,0,0,0,0,0,329.02,0,0,0,0,0,0,0,0,0,0,0,0,0,0,0,51.74,FLYING
52.44,APPROACH,FLY_TO_FIX,155.8,84,-71.8,1582.83,-12.14,-3.68,0.37,268.93,2.599,0.2,-20,268.46,-3.64,0,0,0,0,0,0,0,0,329.02,0,0,0,0,0,0,0,0,0,0,0,0,0,1,1,52.46,FLYING
53.18,APPROACH,FLY_TO_FIX,151.16,84,-67.16,1574.09,-11.59,-3.51,0.47,268.83,1.961,0.4,-20,268.46,-3.595,0,0,0,0,0,0,0,0,329.02,0,0,0,0,0,0,0,0,0,0,0,0,0,1,1,53.22,FLYING
53.88,APPROACH,FLY_TO_FIX,147.19,84,-63.19,1566.17,-11.14,-3.37,0.55,268.76,1.456,0.6,-20,268.45,-3.555,0,0,0,0,0,0,0,0,329.02,0,0,0,0,0,0,0,0,0,0,0,0,0,1,1,53.92,FLYING
54.58,APPROACH,FLY_TO_FIX,143.49,84,-59.49,1558.54,-10.74,-3.24,0.63,268.7,1.074,0.8,-20,268.45,-3.517,0,0,0,0,0,0,0,0,329.02,0,0,0,0,0,0,0,0,0,0,0,0,0,1,1,54.62,FLYING
55.28,APPROACH,FLY_TO_FIX,140.08,84,-56.08,1551.17,-10.39,-3.12,0.72,268.66,0.804,0.8908,-20,268.45,-3.48,0,0,0,0,0,0,0,0,329.02,0,0,0,0,0,0,0,0,0,0,0,0,0,1,1,55.32,FLYING
55.98,APPROACH,FLY_TO_FIX,136.95,84,-52.95,1544.03,-10.09,-2.99,0.82,268.63,0.618,0.9047,-20,268.44,-3.444,0,0,0,0,0,0,0,0,329.02,0,0,0,0,0,0,0,0,0,0,0,0,0,1,1,56.02,FLYING
56.68,APPROACH,FLY_TO_FIX,134.15,84,-50.15,1537.08,-9.86,-2.79,1,268.6,0.494,0.8833,-20,268.44,-3.409,0,0,0,0,0,0,0,0,329.02,0,0,0,0,0,0,0,0,0,0,0,0,0,1,1,56.72,FLYING
57.38,APPROACH,FLY_TO_FIX,131.88,84,-47.88,1530.29,-9.65,-2.59,1.18,268.58,0.409,0.8143,-20,268.44,-3.375,0,0,0,0,0,0,0,0,329.02,0,0,0,0,0,0,0,0,0,0,0,0,0,1,1,57.42,FLYING
58.1,APPROACH,FLY_TO_FIX,130.48,84,-46.48,1523.44,-9.49,-2.41,1.33,268.56,0.344,0.6763,-20,268.44,-3.341,0,0,0,0,0,0,0,0,329.02,0,0,0,0,0,0,0,0,0,0,0,0,0,1,1,58.14,FLYING
58.82,APPROACH,FLY_TO_FIX,130.59,84,-46.59,1516.66,-9.38,-2.33,1.37,268.54,0.292,0.4763,-20,268.44,-3.307,0,0,0,0,0,0,0,0,329.02,0,0,0,0,0,0,0,0,0,0,0,0,0,1,1,58.86,FLYING
59.54,APPROACH,FLY_TO_FIX,131.04,84,-47.04,1509.95,-9.28,-2.32,1.33,268.53,0.249,0.2763,-20,268.44,-3.273,0,0,0,0,0,0,0,0,329.02,0,0,0,0,0,0,0,0,0,0,0,0,0,1,1,59.58,FLYING
60.26,APPROACH,FLY_TO_FIX,131.56,84,-47.56,1503.3,-9.19,-2.31,1.29,268.52,0.216,0.0763,-20,268.44,-3.24,0,0,0,0,0,0,0,0,329.02,0,0,0,0,0,0,0,0,0,0,0,0,0,1,1,60.3,FLYING
60.98,APPROACH,FLY_TO_FIX,132.04,84,-48.04,1496.71,-9.11,-2.3,1.26,268.51,0.188,0,-20,268.44,-3.207,0,0,0,0,0,0,0,0,329.02,0,0,0,0,0,0,0,0,0,0,0,0,0,1,1,61.02,FLYING
61.7,APPROACH,FLY_TO_FIX,132.38,84,-48.38,1490.19,-9.02,-2.27,1.24,268.51,0.167,0,-20,268.44,-3.175,0,0,0,0,0,0,0,0,329.02,0,0,0,0,0,0,0,0,0,0,0,0,0,1,1,61.74,FLYING
62.42,APPROACH,FLY_TO_FIX,132.57,84,-48.57,1483.74,-8.93,-2.24,1.23,268.5,0.147,0,-20,268.44,-3.142,0,0,0,0,0,0,0,0,329.02,0,0,0,0,0,0,0,0,0,0,0,0,0,1,1,62.46,FLYING
63.14,APPROACH,FLY_TO_FIX,132.64,84,-48.64,1477.35,-8.83,-2.21,1.23,268.49,0.133,0,-20,268.43,-3.11,0,0,0,0,0,0,0,0,329.02,0,0,0,0,0,0,0,0,0,0,0,0,0,1,1,63.18,FLYING
63.86,APPROACH,FLY_TO_FIX,132.6,84,-48.6,1471.04,-8.73,-2.16,1.24,268.49,0.123,0,-20,268.43,-3.079,0,0,0,0,0,0,0,0,329.02,0,0,0,0,0,0,0,0,0,0,0,0,0,1,1,63.9,FLYING
64.58,APPROACH,FLY_TO_FIX,132.48,84,-48.48,1464.8,-8.63,-2.12,1.25,268.48,0.111,0,-20,268.43,-3.047,0,0,0,0,0,0,0,0,329.02,0,0,0,0,0,0,0,0,0,0,0,0,0,1,1,64.62,FLYING
65.3,APPROACH,FLY_TO_FIX,132.27,84,-48.27,1458.63,-8.53,-2.07,1.27,268.48,0.104,0,-20,268.43,-3.017,0,0,0,0,0,0,0,0,329.02,0,0,0,0,0,0,0,0,0,0,0,0,0,1,1,65.34,FLYING
66.02,APPROACH,FLY_TO_FIX,132.01,84,-48.01,1452.54,-8.42,-2.01,1.29,268.47,0.092,0,-20,268.43,-2.986,0,0,0,0,0,0,0,0,329.02,0,0,0,0,0,0,0,0,0,0,0,0,0,1,1,66.06,FLYING
66.74,APPROACH,FLY_TO_FIX,131.69,84,-47.69,1446.52,-8.32,-1.96,1.31,268.47,0.086,0,-20,268.43,-2.956,0,0,0,0,0,0,0,0,329.02,0,0,0,0,0,0,0,0,0,0,0,0,0,1,1,66.78,FLYING
67.46,APPROACH,FLY_TO_FIX,131.33,84,-47.33,1440.58,-8.21,-1.9,1.34,268.46,0.08,0,-20,268.43,-2.926,0,0,0,0,0,0,0,0,329.02,0,0,0,0,0,0,0,0,0,0,0,0,0,1,1,67.5,FLYING
68.18,APPROACH,FLY_TO_FIX,130.94,84,-46.94,1434.71,-8.11,-1.84,1.37,268.46,0.072,0,-20,268.43,-2.897,0,0,0,0,0,0,0,0,329.02,0,0,0,0,0,0,0,0,0,0,0,0,0,1,1,68.22,FLYING
68.9,APPROACH,FLY_TO_FIX,130.51,84,-46.51,1428.93,-8,-1.77,1.4,268.46,0.069,0,-20,268.43,-2.868,0,0,0,0,0,0,0,0,329.02,0,0,0,0,0,0,0,0,0,0,0,0,0,1,1,68.94,FLYING
69.62,APPROACH,FLY_TO_FIX,130.05,84,-46.05,1423.21,-7.9,-1.71,1.44,268.46,0.063,0,-20,268.43,-2.839,0,0,0,0,0,0,0,0,329.02,0,0,0,0,0,0,0,0,0,0,0,0,0,1,1,69.66,FLYING
70.34,APPROACH,FLY_TO_FIX,129.58,84,-45.58,1417.58,-7.79,-1.64,1.47,268.45,0.058,0,-20,268.43,-2.811,0,0,0,0,0,0,0,0,329.02,0,0,0,0,0,0,0,0,0,0,0,0,0,1,1,70.38,FLYING
71.06,APPROACH,FLY_TO_FIX,129.08,84,-45.08,1412.01,-7.69,-1.58,1.51,268.45,0.053,0,-20,268.43,-2.783,0,0,0,0,0,0,0,0,329.02,0,0,0,0,0,0,0,0,0,0,0,0,0,1,1,71.1,FLYING
71.78,APPROACH,FLY_TO_FIX,128.57,84,-44.57,1406.53,-7.59,-1.51,1.55,268.45,0.047,0,-20,268.43,-2.756,0,0,0,0,0,0,0,0,329.02,0,0,0,0,0,0,0,0,0,0,0,0,0,1,1,71.82,FLYING
72.5,APPROACH,FLY_TO_FIX,128.04,84,-44.04,1401.11,-7.48,-1.44,1.59,268.45,0.042,0,-20,268.43,-2.729,0,0,0,0,0,0,0,0,329.02,0,0,0,0,0,0,0,0,0,0,0,0,0,1,1,72.54,FLYING
73.22,APPROACH,FLY_TO_FIX,127.5,84,-43.5,1395.78,-7.38,-1.37,1.63,268.45,0.039,0,-20,268.43,-2.702,0,0,0,0,0,0,0,0,329.02,0,0,0,0,0,0,0,0,0,0,0,0,0,1,1,73.26,FLYING
73.94,APPROACH,FLY_TO_FIX,126.95,84,-42.95,1390.51,-7.28,-1.3,1.68,268.44,0.036,0,-20,268.43,-2.675,0,0,0,0,0,0,0,0,329.02,0,0,0,0,0,0,0,0,0,0,0,0,0,1,1,73.98,FLYING
74.66,APPROACH,FLY_TO_FIX,126.4,84,-42.4,1385.32,-7.18,-1.22,1.72,268.44,0.032,0,-20,268.43,-2.649,0,0,0,0,0,0,0,0,329.02,0,0,0,0,0,0,0,0,0,0,0,0,0,1,1,74.7,FLYING
75.38,APPROACH,FLY_TO_FIX,125.83,84,-41.83,1380.19,-7.08,-1.15,1.77,268.44,0.029,0,-20,268.43,-2.624,0,0,0,0,0,0,0,0,329.02,0,0,0,0,0,0,0,0,0,0,0,0,0,1,1,75.42,FLYING
76.1,APPROACH,FLY_TO_FIX,125.26,84,-41.26,1375.14,-6.99,-1.08,1.81,268.44,0.027,0,-20,268.43,-2.598,0,0,0,0,0,0,0,0,329.02,0,0,0,0,0,0,0,0,0,0,0,0,0,1,1,76.14,FLYING
76.82,APPROACH,FLY_TO_FIX,124.68,84,-40.68,1370.16,-6.89,-1,1.86,268.44,0.024,0,-20,268.43,-2.574,0,0,0,0,0,0,0,0,329.02,0,0,0,0,0,0,0,0,0,0,0,0,0,1,1,76.86,FLYING
77.54,APPROACH,FLY_TO_FIX,124.1,84,-40.1,1365.25,-6.79,-0.93,1.91,268.44,0.023,0,-20,268.43,-2.549,0,0,0,0,0,0,0,0,329.02,0,0,0,0,0,0,0,0,0,0,0,0,0,1,1,77.58,FLYING
78.26,APPROACH,FLY_TO_FIX,123.51,84,-39.51,1360.4,-6.7,-0.85,1.96,268.44,0.021,0,-20,268.43,-2.525,0,0,0,0,0,0,0,0,329.02,0,0,0,0,0,0,0,0,0,0,0,0,0,1,1,78.3,FLYING
78.98,APPROACH,FLY_TO_FIX,122.92,84,-38.92,1355.63,-6.61,-0.77,2.01,268.44,0.02,0,-20,268.43,-2.501,0,0,0,0,0,0,0,0,329.02,0,0,0,0,0,0,0,0,0,0,0,0,0,1,1,79.02,FLYING
79.7,APPROACH,FLY_TO_FIX,122.33,84,-38.33,1350.91,-6.52,-0.7,2.07,268.44,0.016,0,-20,268.43,-2.477,0,0,0,0,0,0,0,0,329.02,0,0,0,0,0,0,0,0,0,0,0,0,0,1,1,79.74,FLYING
80.42,APPROACH,FLY_TO_FIX,121.73,84,-37.73,1346.27,-6.43,-0.62,2.12,268.44,0.015,0,-20,268.43,-2.454,0,0,0,0,0,0,0,0,329.02,0,0,0,0,0,0,0,0,0,0,0,0,0,1,1,80.46,FLYING
81.14,APPROACH,FLY_TO_FIX,121.13,84,-37.13,1341.69,-6.34,-0.54,2.17,268.44,0.013,0,-20,268.43,-2.431,0,0,0,0,0,0,0,0,329.02,0,0,0,0,0,0,0,0,0,0,0,0,0,1,1,81.18,FLYING
81.86,APPROACH,FLY_TO_FIX,120.52,84,-36.52,1337.17,-6.25,-0.46,2.23,268.44,0.012,0,-20,268.43,-2.408,0,0,0,0,0,0,0,0,329.02,0,0,0,0,0,0,0,0,0,0,0,0,0,1,1,81.9,FLYING
82.58,APPROACH,FLY_TO_FIX,119.92,84,-35.92,1332.72,-6.16,-0.38,2.29,268.44,0.011,0,-20,268.43,-2.386,0,0,0,0,0,0,0,0,329.02,0,0,0,0,0,0,0,0,0,0,0,0,0,1,1,82.62,FLYING
83.32,APPROACH,FLY_TO_FIX,119.31,84,-35.31,1328.2,-6.07,-0.3,2.35,268.43,0.01,0,-20,268.43,-2.364,0,0,0,0,0,0,0,0,329.02,0,0,0,0,0,0,0,0,0,0,0,0,0,2,2,83.34,FLYING
84.06,APPROACH,FLY_TO_FIX,118.63,84,-34.63,1323.76,-5.95,-0.3,2.31,268.43,0.009,0,-20,268.43,-2.341,0,0,0,0,0,0,0,0,329.02,0,0,0,0,0,0,0,0,0,0,0,0,0,2,2,84.1,FLYING
84.76,APPROACH,FLY_TO_FIX,117.96,84,-33.96,1319.64,-5.83,-0.3,2.27,268.43,0.007,0,-20,268.43,-2.321,0,0,0,0,0,0,0,0,329.02,0,0,0,0,0,0,0,0,0,0,0,0,0,2,2,84.8,FLYING
85.46,APPROACH,FLY_TO_FIX,117.24,84,-33.24,1315.59,-5.72,-0.3,2.24,268.43,0.006,0,-20,268.43,-2.3,0,0,0,0,0,0,0,0,329.02,0,0,0,0,0,0,0,0,0,0,0,0,0,2,2,85.5,FLYING
86.16,APPROACH,FLY_TO_FIX,116.46,84,-32.46,1311.63,-5.61,-0.3,2.21,268.43,0.006,0,-20,268.43,-2.28,0,0,0,0,0,0,0,0,329.02,0,0,0,0,0,0,0,0,0,0,0,0,0,2,2,86.2,FLYING
86.86,APPROACH,FLY_TO_FIX,115.63,84,-31.63,1307.74,-5.52,-0.28,2.2,268.43,0.006,0,-20,268.43,-2.261,0,0,0,0,0,0,0,0,329.02,0,0,0,0,0,0,0,0,0,0,0,0,0,2,2,86.9,FLYING
87.56,APPROACH,FLY_TO_FIX,114.8,84,-30.8,1303.91,-5.47,-0.19,2.28,268.43,0.005,0,-20,268.43,-2.242,0,0,0,0,0,0,0,0,329.02,0,0,0,0,0,0,0,0,0,0,0,0,0,2,2,87.6,FLYING
88.26,APPROACH,FLY_TO_FIX,113.97,84,-29.97,1300.12,-5.41,-0.09,2.38,268.43,0.006,0,-20,268.43,-2.223,0,0,0,0,0,0,0,0,329.02,0,0,0,0,0,0,0,0,0,0,0,0,0,2,2,88.3,FLYING
89,APPROACH,FLY_TO_FIX,113.09,84,-29.09,1296.15,-5.35,0.03,2.48,268.43,0.006,0,-20,268.43,-2.203,0,0,0,0,0,0,0,0,329.02,0,0,0,0,0,0,0,0,0,0,0,0,0,2,2,89.04,FLYING
89.72,APPROACH,FLY_TO_FIX,112.24,84,-28.24,1292.35,-5.28,0.14,2.58,268.43,0.006,0,-20,268.43,-2.184,0,0,0,0,0,0,0,0,329.02,0,0,0,0,0,0,0,0,0,0,0,0,0,2,2,89.76,FLYING
90.44,APPROACH,FLY_TO_FIX,111.39,84,-27.39,1288.59,-5.21,0.25,2.68,268.43,0.006,0,-20,268.43,-2.165,0,0,0,0,0,0,0,0,329.02,0,0,0,0,0,0,0,0,0,0,0,0,0,2,2,90.48,FLYING
91.16,APPROACH,FLY_TO_FIX,110.54,84,-26.54,1284.88,-5.15,0.36,2.78,268.43,0.006,0,-20,268.43,-2.146,0,0,0,0,0,0,0,0,329.02,0,0,0,0,0,0,0,0,0,0,0,0,0,2,2,91.2,FLYING
91.88,APPROACH,FLY_TO_FIX,109.69,84,-25.69,1281.22,-5.08,0.49,2.89,268.43,0.006,0,-20,268.43,-2.128,0,0,0,0,0,0,0,0,329.02,0,0,0,0,0,0,0,0,0,0,0,0,0,2,2,91.92,FLYING
92.6,APPROACH,FLY_TO_FIX,108.84,84,-24.84,1277.6,-5.01,0.61,3,268.43,0.006,0,-20,268.43,-2.11,0,0,0,0,0,0,0,0,329.02,0,0,0,0,0,0,0,0,0,0,0,0,0,2,2,92.64,FLYING
93.32,APPROACH,FLY_TO_FIX,107.99,84,-23.99,1274.04,-4.94,0.73,3.11,268.43,0.005,0,-20,268.43,-2.092,0,0,0,0,0,0,0,0,329.02,0,0,0,0,0,0,0,0,0,0,0,0,0,2,2,93.36,FLYING
94.04,APPROACH,FLY_TO_FIX,107.14,84,-23.14,1270.53,-4.87,0.86,3.22,268.43,0.005,0,-20,268.43,-2.075,0,0,0,0,0,0,0,0,329.02,0,0,0,0,0,0,0,0,0,0,0,0,0,2,2,94.08,FLYING
94.76,APPROACH,FLY_TO_FIX,106.29,84,-22.29,1267.08,-4.8,0.99,3.33,268.43,0.005,0,-20,268.43,-2.057,0,0,0,0,0,0,0,0,329.02,0,0,0,0,0,0,0,0,0,0,0,0,0,2,2,94.8,FLYING
95.48,APPROACH,FLY_TO_FIX,105.43,84,-21.43,1263.67,-4.73,1.13,3.45,268.43,0.005,0,-20,268.43,-2.04,0,0,0,0,0,0,0,0,329.02,0,0,0,0,0,0,0,0,0,0,0,0,0,2,2,95.52,FLYING
96.2,APPROACH,FLY_TO_FIX,104.58,84,-20.58,1260.32,-4.66,1.26,3.57,268.43,0.004,0,-20,268.43,-2.023,0,0,0,0,0,0,0,0,329.02,0,0,0,0,0,0,0,0,0,0,0,0,0,2,2,96.24,FLYING
96.92,APPROACH,FLY_TO_FIX,103.73,84,-19.73,1257.01,-4.59,1.4,3.69,268.43,0.003,0,-20,268.43,-2.007,0,0,0,0,0,0,0,0,329.02,0,0,0,0,0,0,0,0,0,0,0,0,0,2,2,96.96,FLYING
97.64,APPROACH,FLY_TO_FIX,102.87,84,-18.87,1253.76,-4.52,1.55,3.82,268.43,0.003,0,-20,268.43,-1.991,0,0,0,0,0,0,0,0,329.02,0,0,0,0,0,0,0,0,0,0,0,0,0,2,2,97.68,FLYING
98.36,APPROACH,FLY_TO_FIX,102.01,84,-18.01,1250.56,-4.45,1.69,3.95,268.43,0.003,0,-20,268.43,-1.975,0,0,0,0,0,0,0,0,329.02,0,0,0,0,0,0,0,0,0,0,0,0,0,2,2,98.4,FLYING
99.08,APPROACH,FLY_TO_FIX,101.16,84,-17.16,1247.41,-4.38,1.84,4.09,268.43,0.002,0,-20,268.43,-1.959,0,0,0,0,0,0,0,0,329.02,0,0,0,0,0,0,0,0,0,0,0,0,0,2,2,99.12,FLYING
99.8,APPROACH,FLY_TO_FIX,100.29,84,-16.29,1244.31,-4.31,2,4.22,268.43,0.002,0,-20,268.43,-1.943,0,0,0,0,0,0,0,0,329.02,0,0,0,0,0,0,0,0,0,0,0,0,0,2,2,99.84,FLYING
100.52,APPROACH,FLY_TO_FIX,99.43,84,-15.43,1241.25,-4.24,2.16,4.37,268.43,0.001,0,-20,268.43,-1.928,0,0,0,0,0,0,0,0,329.02,0,0,0,0,0,0,0,0,0,0,0,0,0,2,2,100.56,FLYING
101.24,APPROACH,FLY_TO_FIX,98.56,84,-14.56,1238.25,-4.18,2.32,4.52,268.43,0.001,0,-20,268.43,-1.913,0,0,0,0,0,0,0,0,329.02,0,0,0,0,0,0,0,0,0,0,0,0,0,2,2,101.28,FLYING
101.96,APPROACH,FLY_TO_FIX,97.69,84,-13.69,1235.29,-4.11,2.49,4.67,268.43,0.001,0,-20,268.43,-1.898,0,0,0,0,0,0,0,0,329.02,0,0,0,0,0,0,0,0,0,0,0,0,0,2,2,102,FLYING
102.68,APPROACH,FLY_TO_FIX,96.82,84,-12.82,1232.38,-4.05,2.66,4.83,268.43,0,0,-20,268.43,-1.884,0,0,0,0,0,0,0,0,329.02,0,0,0,0,0,0,0,0,0,0,0,0,0,2,2,102.72,FLYING
103.4,APPROACH,FLY_TO_FIX,95.94,84,-11.94,1229.52,-3.99,2.83,4.99,268.43,0,0,-20,268.43,-1.869,0,0,0,0,0,0,0,0,329.02,0,0,0,0,0,0,0,0,0,0,0,0,0,2,2,103.44,FLYING
104.12,APPROACH,FLY_TO_FIX,95.06,84,-11.06,1226.71,-3.92,3.02,5.16,268.43,-0.001,0,-20,268.43,-1.855,0,0,0,0,0,0,0,0,329.02,0,0,0,0,0,0,0,0,0,0,0,0,0,2,2,104.16,FLYING
104.84,APPROACH,FLY_TO_FIX,94.18,84,-10.18,1223.93,-3.86,3.2,5.33,268.42,-0.002,0,-20,268.43,-1.841,0,0,0,0,0,0,0,0,329.02,0,0,0,0,0,0,0,0,0,0,0,0,0,2,2,104.88,FLYING
105.56,APPROACH,FLY_TO_FIX,93.29,84,-9.29,1221.21,-3.81,3.39,5.51,268.42,-0.002,0,-20,268.43,-1.828,0,0,0,0,0,0,0,0,329.02,0,0,0,0,0,0,0,0,0,0,0,0,0,2,2,105.6,FLYING
106.28,APPROACH,FLY_TO_FIX,92.39,84,-8.39,1218.52,-3.75,3.59,5.69,268.42,-0.003,0,-20,268.43,-1.814,0,0,0,0,0,0,0,0,329.02,0,0,0,0,0,0,0,0,0,0,0,0,0,2,2,106.32,FLYING
107,APPROACH,FLY_TO_FIX,91.49,84,-7.49,1215.88,-3.69,3.8,5.89,268.42,-0.004,0,-20,268.43,-1.801,0,0,0,0,0,0,0,0,329.02,0,0,0,0,0,0,0,0,0,0,0,0,0,2,2,107.04,FLYING
107.72,APPROACH,FLY_TO_FIX,90.58,84,-6.58,1213.27,-3.64,4.01,6.09,268.42,-0.005,0,-20,268.43,-1.788,0,0,0,0,0,0,0,0,329.02,0,0,0,0,0,0,0,0,0,0,0,0,0,2,2,107.76,FLYING
108.44,APPROACH,FLY_TO_FIX,89.67,84,-5.67,1210.71,-3.58,4.23,6.3,268.42,-0.006,0,-20,268.43,-1.775,0,0,0,0,0,0,0,0,329.02,0,0,0,0,0,0,0,0,0,0,0,0,0,2,2,108.48,FLYING
109.16,APPROACH,FLY_TO_FIX,88.75,84,-4.75,1208.19,-3.53,4.46,6.52,268.42,-0.006,0,-20,268.43,-1.762,0,0,0,0,0,0,0,0,329.02,0,0,0,0,0,0,0,0,0,0,0,0,0,2,2,109.2,FLYING
109.88,APPROACH,FLY_TO_FIX,87.82,84,-3.82,1205.71,-3.48,4.69,6.74,268.42,-0.008,0.0209,-20,268.43,-1.75,0,0,0,0,0,0,0,0,329.02,0,0,0,0,0,0,0,0,0,0,0,0,0,2,2,109.92,FLYING
110.6,APPROACH,FLY_TO_FIX,86.88,84,-2.88,1203.27,-3.42,4.94,6.98,268.42,-0.008,0.0707,-20,268.43,-1.738,0,0,0,0,0,0,0,0,329.02,0,0,0,0,0,0,0,0,0,0,0,0,0,2,2,110.64,FLYING
111.32,APPROACH,FLY_TO_FIX,85.94,84,-1.94,1200.86,-3.37,5.19,7.22,268.42,-0.009,0.1202,-20,268.43,-1.726,0,0,0,0,0,0,0,0,329.02,0,0,0,0,0,0,0,0,0,0,0,0,0,2,2,111.36,FLYING
112.04,APPROACH,FLY_TO_FIX,85.01,84,-1.01,1198.5,-3.32,5.45,7.47,268.42,-0.01,0.1683,-20,268.43,-1.714,0,0,0,0,0,0,0,0,329.02,0,0,0,0,0,0,0,0,0,0,0,0,0,2,2,112.08,FLYING
112.76,APPROACH,FLY_TO_FIX,84.09,84,-0.09,1196.17,-3.27,5.71,7.72,268.42,-0.01,0.214,-20,268.43,-1.702,0,0,0,0,0,0,0,0,329.02,0,0,0,0,0,0,0,0,0,0,0,0,0,2,2,112.8,FLYING
113.48,APPROACH,FLY_TO_FIX,83.2,84,0.8,1193.87,-3.22,5.97,7.97,268.42,-0.01,0.2611,-19.611,268.43,-1.691,0,0,0,0,0,0,0,0,329.02,0,0,0,0,0,0,0,0,0,0,0,0,0,2,2,113.52,FLYING
114.2,APPROACH,FLY_TO_FIX,82.33,84,1.67,1191.61,-3.18,6.22,8.22,268.41,-0.011,0.3098,-18.787,268.43,-1.679,0,0,0,0,0,0,0,0,329.02,0,0,0,0,0,0,0,0,0,0,0,0,0,2,2,114.24,FLYING
114.9,APPROACH,FLY_TO_FIX,81.52,84,2.48,1189.44,-3.13,6.46,8.45,268.41,-0.011,0.3556,-17.558,268.43,-1.668,0,0,0,0,0,0,0,0,329.02,0,0,0,0,0,0,0,0,0,0,0,0,0,2,2,114.94,FLYING
115.6,APPROACH,FLY_TO_FIX,80.75,84,3.25,1187.3,-3.09,6.7,8.68,268.41,-0.012,0.4022,-15.943,268.43,-1.658,0,0,0,0,0,0,0,0,329.02,0,0,0,0,0,0,0,0,0,0,0,0,0,2,2,115.64,FLYING
116.3,APPROACH,FLY_TO_FIX,80.02,84,3.98,1185.19,-3.04,6.93,8.9,268.41,-0.012,0.4485,-13.964,268.43,-1.647,0,0,0,0,0,0,0,0,329.02,0,0,0,0,0,0,0,0,0,0,0,0,0,2,2,116.34,FLYING
117.02,APPROACH,FLY_TO_FIX,79.33,84,4.67,1183.05,-3,7.14,9.1,268.41,-0.012,0.4969,-11.638,268.43,-1.636,0,0,0,0,0,0,0,0,329.02,0,0,0,0,0,0,0,0,0,0,0,0,0,2,2,117.06,FLYING
117.74,APPROACH,FLY_TO_FIX,78.7,84,5.3,1180.94,-2.96,7.35,9.29,268.41,-0.013,0.5428,-8.996,268.43,-1.626,0,0,0,0,0,0,0,0,329.02,0,0,0,0,0,0,0,0,0,0,0,0,0,2,2,117.78,FLYING
118.44,APPROACH,FLY_TO_FIX,78.15,84,5.85,1178.92,-2.92,7.52,9.45,268.41,-0.013,0.5833,-6.078,268.43,-1.616,0,0,0,0,0,0,0,0,329.02,0,0,0,0,0,0,0,0,0,0,0,0,0,2,2,118.48,FLYING
119.16,APPROACH,FLY_TO_FIX,77.66,84,6.34,1176.86,-2.87,7.67,9.58,268.41,-0.013,0.6227,-2.912,268.43,-1.605,0,0,0,0,0,0,0,0,329.02,0,0,0,0,0,0,0,0,0,0,0,0,0,2,2,119.2,FLYING
119.86,APPROACH,FLY_TO_FIX,77.25,84,6.75,1174.88,-2.83,7.8,9.7,268.41,-0.014,0.6559,0.457,268.43,-1.596,0,0,0,0,0,0,0,0,329.02,0,0,0,0,0,0,0,0,0,0,0,0,0,2,2,119.9,FLYING
120.58,APPROACH,FLY_TO_FIX,76.92,84,7.08,1172.87,-2.8,7.89,9.78,268.41,-0.014,0.6862,3.995,268.43,-1.585,0,0,0,0,0,0,0,0,329.02,0,0,0,0,0,0,0,0,0,0,0,0,0,2,2,120.62,FLYING
121.3,APPROACH,FLY_TO_FIX,76.67,84,7.33,1170.88,-2.76,7.95,9.82,268.41,-0.014,0.7108,7.658,268.43,-1.575,0,0,0,0,0,0,0,0,329.02,0,0,0,0,0,0,0,0,0,0,0,0,0,2,2,121.34,FLYING
122.02,APPROACH,FLY_TO_FIX,76.51,84,7.49,1168.91,-2.73,7.98,9.83,268.41,-0.015,0.7293,11.401,268.43,-1.566,0,0,0,0,0,0,0,0,329.02,0,0,0,0,0,0,0,0,0,0,0,0,0,2,2,122.06,FLYING
122.74,APPROACH,FLY_TO_FIX,76.44,84,7.56,1166.95,-2.7,7.98,9.81,268.41,-0.015,0.7387,15.179,268.43,-1.556,0,0,0,0,0,0,0,0,329.02,0,0,0,0,0,0,0,0,0,0,0,0,0,2,2,122.78,FLYING
123.46,APPROACH,FLY_TO_FIX,76.47,84,7.53,1165.01,-2.67,7.95,9.76,268.41,-0.015,0.7454,18.947,268.43,-1.546,0,0,0,0,0,0,0,0,329.02,0,0,0,0,0,0,0,0,0,0,0,0,0,2,2,123.5,FLYING
124.18,APPROACH,FLY_TO_FIX,76.58,84,7.42,1163.09,-2.64,7.88,9.67,268.41,-0.015,0.7143,20,268.43,-1.537,0,0,0,0,0,0,0,0,329.02,0,0,0,0,0,0,0,0,0,0,0,0,0,2,2,124.22,FLYING
124.9,APPROACH,FLY_TO_FIX,76.78,84,7.22,1161.18,-2.62,7.79,9.56,268.41,-0.015,0.6636,20,268.43,-1.527,0,0,0,0,0,0,0,0,329.02,0,0,0,0,0,0,0,0,0,0,0,0,0,2,2,124.94,FLYING
125.62,APPROACH,FLY_TO_FIX,77.06,84,6.94,1159.28,-2.6,7.68,9.43,268.41,-0.014,0.6094,20,268.43,-1.517,0,0,0,0,0,0,0,0,329.02,0,0,0,0,0,0,0,0,0,0,0,0,0,2,2,125.66,FLYING
126.34,APPROACH,FLY_TO_FIX,77.41,84,6.59,1157.39,-2.58,7.55,9.28,268.41,-0.014,0.5533,20,268.43,-1.508,0,0,0,0,0,0,0,0,329.02,0,0,0,0,0,0,0,0,0,0,0,0,0,2,2,126.38,FLYING
127.06,APPROACH,FLY_TO_FIX,77.81,84,6.19,1155.52,-2.57,7.42,9.13,268.41,-0.014,0.4969,20,268.43,-1.499,0,0,0,0,0,0,0,0,329.02,0,0,0,0,0,0,0,0,0,0,0,0,0,2,2,127.1,FLYING
127.78,APPROACH,FLY_TO_FIX,78.25,84,5.75,1153.65,-2.55,7.27,8.97,268.41,-0.014,0.4415,20,268.43,-1.489,0,0,0,0,0,0,0,0,329.02,0,0,0,0,0,0,0,0,0,0,0,0,0,2,2,127.82,FLYING
128.5,APPROACH,FLY_TO_FIX,78.72,84,5.28,1151.8,-2.54,7.13,8.81,268.41,-0.015,0.3882,20,268.43,-1.48,0,0,0,0,0,0,0,0,329.02,0,0,0,0,0,0,0,0,0,0,0,0,0,2,2,128.54,FLYING
129.22,APPROACH,FLY_TO_FIX,79.21,84,4.79,1149.95,-2.52,6.99,8.64,268.41,-0.015,0.338,20,268.44,-1.471,0,0,0,0,0,0,0,0,329.02,0,0,0,0,0,0,0,0,0,0,0,0,0,2,2,129.26,FLYING
129.94,APPROACH,FLY_TO_FIX,79.71,84,4.29,1148.12,-2.51,6.85,8.49,268.41,-0.016,0.292,20,268.44,-1.462,0,0,0,0,0,0,0,0,329.02,0,0,0,0,0,0,0,0,0,0,0,0,0,2,2,129.98,FLYING
130.66,APPROACH,FLY_TO_FIX,80.19,84,3.81,1146.29,-2.5,6.73,8.36,268.41,-0.016,0.2529,20,268.44,-1.452,0,0,0,0,0,0,0,0,329.02,0,0,0,0,0,0,0,0,0,0,0,0,0,2,2,130.7,FLYING
131.38,APPROACH,FLY_TO_FIX,80.62,84,3.38,1144.48,-2.49,6.64,8.25,268.41,-0.016,0.2237,20,268.44,-1.443,0,0,0,0,0,0,0,0,329.02,0,0,0,0,0,0,0,0,0,0,0,0,0,2,2,131.42,FLYING
132.1,APPROACH,FLY_TO_FIX,80.98,84,3.02,1142.68,-2.48,6.57,8.16,268.41,-0.017,0.2057,20,268.44,-1.434,0,0,0,0,0,0,0,0,329.02,0,0,0,0,0,0,0,0,0,0,0,0,0,2,2,132.14,FLYING
132.82,APPROACH,FLY_TO_FIX,81.28,84,2.72,1140.88,-2.47,6.52,8.1,268.41,-0.017,0.1986,20,268.44,-1.425,0,0,0,0,0,0,0,0,329.02,0,0,0,0,0,0,0,0,0,0,0,0,0,2,2,132.86,FLYING
133.54,APPROACH,FLY_TO_FIX,81.5,84,2.5,1139.1,-2.46,6.49,8.06,268.41,-0.017,0.2007,20,268.44,-1.417,0,0,0,0,0,0,0,0,329.02,0,0,0,0,0,0,0,0,0,0,0,0,0,2,2,133.58,FLYING
134.26,APPROACH,FLY_TO_FIX,81.66,84,2.34,1137.33,-2.45,6.48,8.03,268.41,-0.018,0.2097,20,268.44,-1.408,0,0,0,0,0,0,0,0,329.02,0,0,0,0,0,0,0,0,0,0,0,0,0,2,2,134.3,FLYING
134.98,APPROACH,FLY_TO_FIX,81.76,84,2.24,1135.58,-2.43,6.47,8.02,268.41,-0.018,0.2228,20,268.44,-1.399,0,0,0,0,0,0,0,0,329.02,0,0,0,0,0,0,0,0,0,0,0,0,0,2,2,135.02,FLYING
135.7,APPROACH,FLY_TO_FIX,81.84,84,2.16,1133.83,-2.42,6.47,8,268.41,-0.018,0.2375,20,268.44,-1.39,0,0,0,0,0,0,0,0,329.02,0,0,0,0,0,0,0,0,0,0,0,0,0,2,2,135.74,FLYING
136.42,APPROACH,FLY_TO_FIX,81.89,84,2.11,1132.09,-2.4,6.46,7.99,268.41,-0.018,0.2515,20,268.44,-1.381,0,0,0,0,0,0,0,0,329.02,0,0,0,0,0,0,0,0,0,0,0,0,0,2,2,136.46,FLYING
137.14,APPROACH,FLY_TO_FIX,81.94,84,2.06,1130.37,-2.39,6.46,7.98,268.41,-0.019,0.2631,20,268.44,-1.373,0,0,0,0,0,0,0,0,329.02,0,0,0,0,0,0,0,0,0,0,0,0,0,2,2,137.18,FLYING
137.86,APPROACH,FLY_TO_FIX,81.99,84,2.01,1128.65,-2.37,6.46,7.96,268.41,-0.019,0.2718,20,268.45,-1.364,0,0,0,0,0,0,0,0,329.02,0,0,0,0,0,0,0,0,0,0,0,0,0,2,2,137.9,FLYING
138.58,APPROACH,FLY_TO_FIX,82.04,84,1.96,1126.94,-2.36,6.45,7.95,268.41,-0.019,0.2779,20,268.45,-1.356,0,0,0,0,0,0,0,0,329.02,0,0,0,0,0,0,0,0,0,0,0,0,0,2,2,138.62,FLYING
139.3,APPROACH,FLY_TO_FIX,82.1,84,1.9,1125.25,-2.34,6.44,7.93,268.41,-0.019,0.2816,20,268.45,-1.347,0,0,0,0,0,0,0,0,329.02,0,0,0,0,0,0,0,0,0,0,0,0,0,2,2,139.34,FLYING
140.02,APPROACH,FLY_TO_FIX,82.16,84,1.84,1123.57,-2.33,6.43,7.91,268.41,-0.019,0.2832,20,268.45,-1.339,0,0,0,0,0,0,0,0,329.02,0,0,0,0,0,0,0,0,0,0,0,0,0,2,2,140.06,FLYING
140.74,APPROACH,FLY_TO_FIX,82.22,84,1.78,1121.89,-2.31,6.42,7.89,268.42,-0.019,0.2831,20,268.45,-1.33,0,0,0,0,0,0,0,0,329.02,0,0,0,0,0,0,0,0,0,0,0,0,0,2,2,140.78,FLYING
141.46,APPROACH,FLY_TO_FIX,82.29,84,1.71,1120.23,-2.3,6.41,7.86,268.42,-0.02,0.2815,20,268.45,-1.322,0,0,0,0,0,0,0,0,329.02,0,0,0,0,0,0,0,0,0,0,0,0,0,2,2,141.5,FLYING
142.18,APPROACH,FLY_TO_FIX,82.37,84,1.63,1118.58,-2.29,6.39,7.84,268.42,-0.021,0.2787,20,268.45,-1.314,0,0,0,0,0,0,0,0,329.02,0,0,0,0,0,0,0,0,0,0,0,0,0,2,2,142.22,FLYING
142.9,APPROACH,ILS_TRACK,82.45,84,1.55,1116.89,-2.27,6.38,7.81,268.42,-0.021,0.275,20,268.46,-1.306,0,0,0,0,0,0,0,0,329.02,0,0,0,0,0,0,0,0,0,0,0,0,0,2,2,142.94,FLYING
143.74,APPROACH,ILS_TRACK,82.55,84,1.45,1115.03,-2.24,6.34,7.77,268.42,-0.009,0.2688,20,245.4,-7,152.06,186.57,16.386,-82.111,-354.477,0,0,0,329.02,0,0,0,0,0,0,0,0,0,0,0,0,0,2,2,143.78,FLYING
144.52,APPROACH,ILS_TRACK,82.69,84,1.31,1112.92,-2.78,4.79,6.54,268.05,3.3,0.2575,20,265.64,-7,149.61,188.22,16.315,-4.76,-59.113,0,0,0,329.02,0,0,0,0,0,0,0,0,0,0,0,0,0,2,2,144.56,FLYING
145.3,APPROACH,ILS_TRACK,82.93,84,1.07,1110.36,-3.57,4.39,6.66,267.39,4.895,0.231,20,265.84,-7,146.96,189.48,16.244,-4.557,-58.861,0,0,0,329.02,0,0,0,0,0,0,0,0,0,0,0,0,0,2,2,145.34,FLYING
146.08,APPROACH,ILS_TRACK,83.23,84,0.77,1107.22,-4.27,4,6.69,267.21,3.946,0.1986,20,266.21,-7,143.83,190.15,16.173,-4.188,-58.108,0,0,0,329.02,0,0,0,0,0,0,0,0,0,0,0,0,0,2,2,146.12,FLYING
146.86,APPROACH,ILS_TRACK,83.55,84,0.45,1103.55,-4.93,3.59,6.67,267.05,3.03,0.1671,20,266.56,-7,140.3,190.29,16.102,-3.844,-57.311,0,0,0,329.02,0,0,0,0,0,0,0,0,0,0,0,0,0,2,2,146.9,FLYING
147.64,APPROACH,ILS_TRACK,83.86,84,0.14,1099.41,-5.52,3.25,6.69,266.94,2.18,0.1401,20,266.87,-7,136.44,189.96,16.03,-3.528,-56.462,0,0,0,329.02,0,0,0,0,0,0,0,0,0,0,0,0,0,2,2,147.68,FLYING
148.42,APPROACH,ILS_TRACK,84.12,84,-0.12,1094.83,-6.06,2.97,6.73,266.9,1.418,0.1214,19.944,267.15,-7,132.35,189.2,15.959,-3.249,-55.545,0,0,0,329.02,0,0,0,0,0,0,0,0,0,0,0,0,0,2,2,148.46,FLYING
149.22,APPROACH,ILS_TRACK,84.34,84,-0.34,1089.72,-6.57,2.7,6.76,266.89,0.747,0.1088,19.778,267.46,-7,128,188.01,15.885,-2.944,-54.5,0,0,0,329.02,0,0,0,0,0,0,0,0,0,0,0,0,0,2,2,149.26,FLYING
150.02,APPROACH,ILS_TRACK,84.52,84,-0.52,1084.24,-7.03,2.53,6.87,266.92,0.161,0.0999,19.518,267.68,-7,123.55,186.45,15.811,-2.719,-53.431,0,0,0,329.02,0,0,0,0,0,0,0,0,0,0,0,0,0,2,2,150.06,FLYING
150.82,APPROACH,ILS_TRACK,84.66,84,-0.66,1078.41,-7.44,2.32,6.91,266.98,-0.31,0.097,19.189,267.88,-7,119.07,184.53,15.738,-2.523,-52.295,0,0,0,329.02,0,0,0,0,0,0,0,0,0,0,0,0,0,2,2,150.86,FLYING
151.62,APPROACH,ILS_TRACK,84.75,84,-0.75,1072.27,-7.81,2.14,6.95,267.06,-0.677,0.0988,18.814,268.05,-7,114.61,182.31,15.664,-2.354,-51.138,0,0,0,329.02,0,0,0,0,0,0,0,0,0,0,0,0,0,2,2,151.66,FLYING
152.42,APPROACH,ILS_TRACK,84.81,84,-0.81,1065.86,-8.14,1.98,7,267.15,-0.952,0.1036,18.412,268.19,-7,110.2,179.81,15.59,-2.206,-49.943,0,0,0,329.02,0,0,0,0,0,0,0,0,0,0,0,0,0,2,2,152.46,FLYING
153.22,APPROACH,ILS_TRACK,84.83,84,-0.83,1059.2,-8.43,1.84,7.05,267.26,-1.149,0.1096,17.995,268.32,-7,105.89,177.06,15.516,-2.08,-48.716,0,0,0,329.02,0,0,0,0,0,0,0,0,0,0,0,0,0,2,2,153.26,FLYING
154,APPROACH,ILS_TRACK,84.85,84,-0.85,1052.5,-8.69,1.72,7.09,267.37,-1.275,0.1153,17.571,268.37,-7,101.8,174.16,15.444,-2.027,-47.606,0,0,0,329.02,0,0,0,0,0,0,0,0,0,0,0,0,0,2,2,154.04,FLYING
154.78,APPROACH,ILS_TRACK,84.86,84,-0.86,1045.6,-8.93,1.61,7.12,267.48,-1.325,0.1195,17.142,268.47,-7,97.84,171.06,15.372,-1.93,-46.364,0,0,0,329.02,0,0,0,0,0,0,0,0,0,0,0,0,0,2,2,154.82,FLYING
155.58,APPROACH,ILS_TRACK,84.87,84,-0.87,1038.35,-9.15,1.49,7.14,267.59,-1.357,0.1215,16.709,268.61,-7,93.91,167.7,15.298,-1.791,-44.935,0,0,0,329.02,0,0,0,0,0,0,0,0,0,0,0,0,0,2,2,155.62,FLYING
156.36,APPROACH,ILS_TRACK,84.88,84,-0.88,1031.12,-9.34,1.4,7.17,267.7,-1.384,0.1209,16.267,268.64,-7,90.21,164.26,15.226,-1.761,-43.775,0,0,0,329.02,0,0,0,0,0,0,0,0,0,0,0,0,0,2,2,156.4,FLYING
157.16,APPROACH,ILS_TRACK,84.91,84,-0.91,1023.56,-9.53,1.31,7.19,267.81,-1.374,0.1178,15.814,268.76,-7,86.57,160.58,15.153,-1.64,-42.285,0,0,0,329.02,0,0,0,0,0,0,0,0,0,0,0,0,0,2,2,157.2,FLYING
157.96,APPROACH,ILS_TRACK,84.94,84,-0.94,1015.85,-9.69,1.22,7.21,267.93,-1.369,0.113,15.345,268.83,-7,83.07,156.76,15.079,-1.573,-40.914,0,0,0,329.02,0,0,0,0,0,0,0,0,0,0,0,0,0,2,2,158,FLYING
158.76,APPROACH,ILS_TRACK,84.97,84,-0.97,1008.02,-9.84,1.14,7.23,268.03,-1.34,0.1071,14.86,268.89,-7,79.71,152.81,15.005,-1.511,-39.525,0,0,0,329.02,0,0,0,0,0,0,0,0,0,0,0,0,0,2,2,158.8,FLYING
159.56,APPROACH,ILS_TRACK,85,84,-1,1000.08,-9.98,1.07,7.24,268.14,-1.296,0.1009,14.359,268.94,-7,76.5,148.75,14.932,-1.455,-38.123,0,0,0,329.02,0,0,0,0,0,0,0,0,0,0,0,0,0,2,2,159.6,FLYING
160.36,APPROACH,ILS_TRACK,85.03,84,-1.03,992.04,-10.1,1.01,7.26,268.24,-1.243,0.0952,13.845,269,-7,73.43,144.58,14.858,-1.4,-36.708,0,0,0,329.02,0,0,0,0,0,0,0,0,0,0,0,0,0,2,2,160.4,FLYING
161.16,APPROACH,ILS_TRACK,85.04,84,-1.04,983.91,-10.2,0.96,7.27,268.33,-1.185,0.0906,13.324,269.05,-7,70.49,140.32,14.784,-1.351,-35.283,0,0,0,329.02,0,0,0,0,0,0,0,0,0,0,0,0,0,2,2,161.2,FLYING
161.96,APPROACH,ILS_TRACK,85.05,84,-1.05,975.7,-10.3,0.92,7.29,268.42,-1.125,0.0872,12.801,269.1,-7,67.68,135.98,14.711,-1.302,-33.849,0,0,0,329.02,0,0,0,0,0,0,0,0,0,0,0,0,0,2,2,162,FLYING
162.76,APPROACH,ILS_TRACK,85.03,84,-1.03,967.42,-10.38,0.88,7.31,268.5,-1.065,0.0854,12.284,269.14,-7,64.99,131.57,14.637,-1.256,-32.407,0,0,0,329.02,0,0,0,0,0,0,0,0,0,0,0,0,0,2,2,162.8,FLYING
163.56,APPROACH,ILS_TRACK,85.01,84,-1.01,959.08,-10.46,0.86,7.34,268.58,-1.007,0.085,11.778,269.19,-7,62.42,127.09,14.564,-1.213,-30.958,0,0,0,329.02,0,0,0,0,0,0,0,0,0,0,0,0,0,2,2,163.6,FLYING
164.36,APPROACH,ILS_TRACK,84.97,84,-0.97,950.68,-10.52,0.84,7.36,268.66,-0.951,0.0857,11.29,269.23,-7,59.96,122.55,14.49,-1.168,-29.504,0,0,0,329.02,0,0,0,0,0,0,0,0,0,0,0,0,0,2,2,164.4,FLYING
165.16,APPROACH,ILS_TRACK,84.93,84,-0.93,942.24,-10.57,0.82,7.39,268.73,-0.9,0.0871,10.825,269.27,-7,57.61,117.96,14.417,-1.126,-28.045,0,0,0,329.02,0,0,0,0,0,0,0,0,0,0,0,0,0,2,2,165.2,FLYING
165.96,APPROACH,ILS_TRACK,84.88,84,-0.88,933.76,-10.62,0.81,7.41,268.79,-0.852,0.089,10.387,269.31,-7,55.35,113.33,14.344,-1.086,-26.582,0,0,0,329.02,0,0,0,0,0,0,0,0,0,0,0,0,0,2,2,166,FLYING
166.76,APPROACH,ILS_TRACK,84.82,84,-0.82,925.25,-10.66,0.8,7.44,268.86,-0.807,0.0909,9.976,269.35,-7,53.19,108.65,14.27,-1.045,-25.115,0,0,0,329.02,0,0,0,0,0,0,0,0,0,0,0,0,0,2,2,166.8,FLYING
167.56,APPROACH,ILS_TRACK,84.76,84,-0.76,916.7,-10.7,0.79,7.46,268.92,-0.766,0.0926,9.595,269.39,-7,51.12,103.94,14.197,-1.01,-23.647,0,0,0,329.02,0,0,0,0,0,0,0,0,0,0,0,0,0,2,2,167.6,FLYING
168.34,APPROACH,ILS_TRACK,84.71,84,-0.71,908.34,-10.73,0.79,7.48,268.97,-0.727,0.0936,9.241,269.4,-7,49.18,99.32,14.126,-0.996,-22.4,0,0,0,329.02,0,0,0,0,0,0,0,0,0,0,0,0,0,2,2,168.38,FLYING
169.14,APPROACH,ILS_TRACK,84.65,84,-0.65,899.75,-10.75,0.79,7.5,269.03,-0.679,0.0944,8.916,269.46,-7,47.26,94.55,14.053,-0.936,-20.737,0,0,0,329.02,0,0,0,0,0,0,0,0,0,0,0,0,0,2,2,169.18,FLYING
169.94,APPROACH,ILS_TRACK,84.6,84,-0.6,891.14,-10.78,0.79,7.52,269.08,-0.649,0.0948,8.616,269.5,-7,45.43,89.76,13.98,-0.901,-19.261,0,0,0,329.02,0,0,0,0,0,0,0,0,0,0,0,0,0,2,2,169.98,FLYING
170.74,APPROACH,ILS_TRACK,84.55,84,-0.55,882.51,-10.79,0.79,7.55,269.13,-0.612,0.095,8.343,269.54,-7,43.67,84.95,13.907,-0.864,-17.785,0,0,0,329.02,0,0,0,0,0,0,0,0,0,0,0,0,0,2,2,170.78,FLYING
171.54,APPROACH,ILS_TRACK,84.5,84,-0.5,873.87,-10.81,0.79,7.56,269.17,-0.575,0.0951,8.095,269.57,-7,41.97,80.12,13.835,-0.831,-16.309,0,0,0,329.02,0,0,0,0,0,0,0,0,0,0,0,0,0,2,2,171.58,FLYING
172.34,APPROACH,ILS_TRACK,84.45,84,-0.45,865.22,-10.82,0.79,7.58,269.21,-0.539,0.0952,7.871,269.6,-7,40.34,75.27,13.762,-0.798,-14.834,0,0,0,329.02,0,0,0,0,0,0,0,0,0,0,0,0,0,2,2,172.38,FLYING
173.14,APPROACH,ILS_TRACK,84.4,84,-0.4,856.56,-10.83,0.8,7.6,269.25,-0.507,0.0952,7.671,269.64,-7,38.77,70.42,13.69,-0.764,-13.359,0,0,0,329.02,0,0,0,0,0,0,0,0,0,0,0,0,0,2,2,173.18,FLYING
173.94,APPROACH,ILS_TRACK,84.35,83.6,-0.75,847.9,-10.83,0.8,7.61,269.29,-0.48,0.073,7.293,269.67,-7,37.25,65.56,13.617,-0.731,-11.885,0,0,0,329.02,0,0,0,0,0,0,0,0,0,0,0,0,0,2,2,173.98,FLYING
174.76,APPROACH,ILS_TRACK,84.3,83.2,-1.1,839.01,-10.83,0.82,7.64,269.33,-0.457,0.0497,6.743,269.72,-7,35.75,60.56,13.543,-0.681,-10.18,0,0,0,329.02,0,0,0,0,0,0,0,0,0,0,0,0,0,2,2,174.8,FLYING
175.54,APPROACH,ILS_TRACK,84.22,82.8,-1.42,830.57,-10.83,0.84,7.67,269.37,-0.449,0.0275,6.029,269.71,-7,34.37,55.81,13.472,-0.686,-9.137,0,0,0,329.02,0,0,0,0,0,0,0,0,0,0,0,0,0,2,2,175.58,FLYING
176.32,APPROACH,ILS_TRACK,84.1,82.4,-1.7,822.13,-10.83,0.88,7.72,269.4,-0.415,0.0092,5.173,269.74,-7,33.04,51.05,13.402,-0.656,-7.709,0,0,0,329.02,0,0,0,0,0,0,0,0,0,0,0,0,0,2,2,176.36,FLYING
177.1,APPROACH,ILS_TRACK,83.94,82,-1.94,813.69,-10.81,0.95,7.79,269.43,-0.391,0,4.201,269.77,-7,31.75,46.3,13.332,-0.627,-6.287,0,0,0,329.02,0,0,0,0,0,0,0,0,0,0,0,0,0,2,2,177.14,FLYING
177.88,APPROACH,ILS_TRACK,83.71,81.6,-2.11,805.28,-10.79,1.02,7.88,269.46,-0.374,0,3.143,269.8,-7,30.51,41.56,13.262,-0.599,-4.871,0,0,0,329.02,0,0,0,0,0,0,0,0,0,0,0,0,0,2,2,177.92,FLYING
178.66,APPROACH,ILS_TRACK,83.42,81.2,-2.22,796.89,-10.77,1.12,7.98,269.48,-0.363,0,2.025,269.83,-6.465,29.31,36.82,13.192,-0.572,-3.465,0,0,0,329.02,0,0,0,0,0,0,0,0,0,0,0,0,0,2,2,178.7,FLYING
179.44,APPROACH,ILS_TRACK,83.07,80.8,-2.27,788.57,-10.68,1.39,8.22,269.52,-0.38,0,0.88,269.85,-5.131,28.15,32.13,13.122,-0.545,-2.131,0,0,0,329.02,0,0,0,0,0,0,0,0,0,0,0,0,0,2,2,179.48,FLYING
180.24,APPROACH,ILS_TRACK,82.62,80.4,-2.22,780.22,-10.41,1.98,8.68,269.56,-0.39,0.0047,-0.241,269.89,-3.771,27.01,27.46,13.052,-0.507,-0.771,0,0,0,329.02,0,0,0,0,0,0,0,0,0,0,0,0,0,2,2,180.28,FLYING
181.04,APPROACH,ILS_TRACK,82.07,80,-2.07,772.18,-9.96,2.71,9.17,269.6,-0.396,0.0321,-1.282,269.91,-2.872,25.91,23.06,12.981,-0.488,0.128,0,0,0,329.02,0,0,0,0,0,0,0,0,0,0,0,0,0,2,2,181.08,FLYING
181.84,APPROACH,ILS_TRACK,81.4,80,-1.4,764.55,-9.39,3.4,9.54,269.63,-0.396,0.0928,-1.992,269.93,-2.258,24.86,19.03,12.911,-0.472,0.742,0,0,0,329.02,0,0,0,0,0,0,0,0,0,0,0,0,0,2,2,181.88,FLYING
182.64,APPROACH,ILS_TRACK,80.67,80,-0.67,757.4,-8.78,4.07,9.86,269.67,-0.385,0.1613,-2.334,269.94,-1.887,23.87,15.44,12.842,-0.459,1.113,0,0,0,329.02,0,0,0,0,0,0,0,0,0,0,0,0,0,2,2,182.68,FLYING
183.44,APPROACH,ILS_TRACK,79.88,80,0.12,750.74,-8.16,4.69,10.13,269.7,-0.367,0.2343,-2.286,269.95,-1.68,22.93,12.3,12.773,-0.446,1.32,0,0,0,329.02,0,0,0,0,0,0,0,0,0,0,0,0,0,2,2,183.48,FLYING
184.24,APPROACH,ILS_TRACK,79.08,80,0.92,744.55,-7.57,5.26,10.37,269.73,-0.345,0.3085,-1.838,269.96,-1.584,22.04,9.62,12.705,-0.435,1.416,0,0,0,329.02,0,0,0,0,0,0,0,0,0,0,0,0,0,2,2,184.28,FLYING
185.04,APPROACH,ILS_TRACK,78.28,80,1.72,738.81,-7.03,5.79,10.57,269.76,-0.321,0.3813,-0.99,269.97,-1.564,21.19,7.34,12.637,-0.425,1.436,0,0,0,329.02,0,0,0,0,0,0,0,0,0,0,0,0,0,2,2,185.08,FLYING
185.84,APPROACH,ILS_TRACK,77.51,80,2.49,733.47,-6.54,6.26,10.76,269.79,-0.298,0.4504,0.245,269.99,-1.592,20.39,5.44,12.571,-0.414,1.408,0,0,0,329.02,0,0,0,0,0,0,0,0,0,0,0,0,0,2,2,185.88,FLYING
186.64,APPROACH,ILS_TRACK,76.79,80,3.21,728.48,-6.11,6.68,10.92,269.81,-0.278,0.514,1.843,270,-1.651,19.63,3.87,12.505,-0.403,1.349,0,0,0,329.02,0,0,0,0,0,0,0,0,0,0,0,0,0,2,2,186.68,FLYING
187.44,APPROACH,ILS_TRACK,76.12,80,3.88,723.81,-5.73,7.04,11.06,269.83,-0.258,0.5703,3.773,270.01,-1.729,18.9,2.59,12.439,-0.392,1.271,0,0,0,329.02,0,0,0,0,0,0,0,0,0,0,0,0,0,2,2,187.48,FLYING
188.24,APPROACH,ILS_TRACK,75.54,80,4.46,719.41,-5.4,7.35,11.17,269.85,-0.241,0.6182,5.996,270.02,-1.818,18.21,1.56,12.374,-0.382,1.182,0,0,0,329.02,0,0,0,0,0,0,0,0,0,0,0,0,0,2,2,188.28,FLYING
189.04,APPROACH,ILS_TRACK,75.05,80,4.95,715.23,-5.12,7.6,11.24,269.87,-0.225,0.6566,8.463,270.03,-1.91,17.54,0.74,12.309,-0.37,1.09,0,0,0,329.02,0,0,0,0,0,0,0,0,0,0,0,0,0,2,2,189.08,FLYING
189.84,APPROACH,ILS_TRACK,74.67,80,5.33,711.25,-4.89,7.78,11.27,269.89,-0.213,0.6849,11.124,270.04,-2.006,16.91,0.1,12.245,-0.359,0.994,0,0,0,329.02,0,0,0,0,0,0,0,0,0,0,0,0,0,2,2,189.88,FLYING
190.64,APPROACH,ILS_TRACK,74.4,80,5.6,707.44,-4.69,7.9,11.27,269.9,-0.203,0.7027,13.923,270.06,-2.105,16.29,-0.39,12.181,-0.344,0.895,0,0,0,329.02,0,0,0,0,0,0,0,0,0,0,0,0,0,2,2,190.68,FLYING
191.44,APPROACH,ILS_TRACK,74.24,80,5.76,703.76,-4.52,7.96,11.21,269.92,-0.196,0.7099,16.801,270.07,-2.208,15.7,-0.74,12.117,-0.333,0.792,0,0,0,329.02,0,0,0,0,0,0,0,0,0,0,0,0,0,2,2,191.48,FLYING
192.24,APPROACH,ILS_TRACK,74.21,80,5.79,700.19,-4.39,7.96,11.12,269.94,-0.191,0.7065,19.699,270.08,-2.31,15.13,-0.99,12.054,-0.321,0.69,0,0,0,329.02,0,0,0,0,0,0,0,0,0,0,0,0,0,2,2,192.28,FLYING
193.06,APPROACH,ILS_TRACK,74.29,80,5.71,696.63,-4.28,7.89,10.97,269.95,-0.185,0.6624,20,270.09,-2.415,14.59,-1.14,11.991,-0.313,0.585,0,0,0,329.02,0,0,0,0,0,0,0,0,0,0,0,0,0,2,2,193.11,FLYING
194.33,APPROACH,ILS_TRACK,74.63,80,5.37,691.26,-4.15,7.74,10.71,269.97,-0.184,0.5867,20,270.25,-2.495,13.79,-1.23,11.895,-0.151,0.505,0,0,0,329.02,0,0,0,0,0,0,0,0,0,0,0,0,0,2,2,194.4,FLYING
195.69,APPROACH,ILS_TRACK,75.27,80,4.73,685.61,-4.06,7.44,10.34,270.01,-0.218,0.4774,20,270.31,-2.771,12.93,-1.15,11.785,-0.087,0.229,0,0,0,329.02,0,0,0,0,0,0,0,0,0,0,0,0,0,2,2,195.76,FLYING
197.06,APPROACH,ILS_TRACK,76.12,80,3.88,679.99,-4.06,7.06,9.92,270.04,-0.221,0.3508,20,270.32,-3.01,12.13,-0.97,11.674,-0.083,-0.01,0,0,0,329.02,0,0,0,0,0,0,0,0,0,0,0,0,0,2,2,197.13,FLYING
198.42,APPROACH,ILS_TRACK,77.1,80,2.9,674.36,-4.09,6.68,9.53,270.07,-0.211,0.2219,20,270.32,-3.168,11.38,-0.72,11.562,-0.08,-0.168,0,0,0,329.02,0,0,0,0,0,0,0,0,0,0,0,0,0,2,2,198.49,FLYING
199.79,APPROACH,ILS_TRACK,78.02,80,1.98,668.67,-4.16,6.38,9.24,270.1,-0.218,0.1161,20,270.32,-3.271,10.68,-0.47,11.449,-0.078,-0.271,0,0,0,329.02,0,0,0,0,0,0,0,0,0,0,0,0,0,2,2,199.86,FLYING
201.15,APPROACH,ILS_TRACK,78.6,80,1.4,662.89,-4.25,6.26,9.15,270.14,-0.218,0.0702,20,270.32,-3.301,10.04,-0.24,11.335,-0.083,-0.301,0,0,0,329.02,0,0,0,0,0,0,0,0,0,0,0,0,0,2,2,201.22,FLYING
202.52,APPROACH,ILS_TRACK,78.72,80,1.28,657.04,-4.33,6.3,9.24,270.16,-0.191,0.0966,20,270.31,-3.262,9.46,-0.06,11.22,-0.089,-0.262,0,0,0,329.02,0,0,0,0,0,0,0,0,0,0,0,0,0,2,2,202.59,FLYING
203.88,APPROACH,ILS_TRACK,78.45,80,1.55,651.13,-4.36,6.46,9.43,270.18,-0.149,0.1767,20,270.3,-3.194,8.94,0.05,11.105,-0.098,-0.194,0,0,0,329.02,0,0,0,0,0,0,0,0,0,0,0,0,0,2,2,203.95,FLYING
205.25,APPROACH,ILS_TRACK,78,80,2,645.21,-4.36,6.62,9.61,270.19,-0.107,0.2721,20,270.3,-3.129,8.47,0.11,10.991,-0.1,-0.129,0,0,0,329.02,0,0,0,0,0,0,0,0,0,0,0,0,0,2,2,205.32,FLYING
206.61,APPROACH,ILS_TRACK,77.56,80,2.44,639.3,-4.34,6.76,9.75,270.2,-0.078,0.3518,20,270.3,-3.086,8.03,0.14,10.878,-0.102,-0.086,0,0,0,329.02,0,0,0,0,0,0,0,0,0,0,0,0,0,2,2,206.68,FLYING
207.98,APPROACH,ILS_TRACK,77.2,80,2.8,633.4,-4.33,6.86,9.86,270.2,-0.062,0.4084,20,270.31,-3.059,7.61,0.15,10.765,-0.095,-0.059,0,0,0,329.02,0,0,0,0,0,0,0,0,0,0,0,0,0,2,2,208.05,FLYING
209.34,APPROACH,ILS_TRACK,76.97,80,3.03,627.52,-4.31,6.91,9.91,270.21,-0.056,0.4385,20,270.31,-3.047,7.21,0.15,10.652,-0.088,-0.047,0,0,0,329.02,0,0,0,0,0,0,0,0,0,0,0,0,0,2,2,209.41,FLYING
210.71,APPROACH,ILS_TRACK,76.89,80,3.11,621.65,-4.29,6.9,9.89,270.21,-0.052,0.4415,20,270.32,-3.049,6.82,0.15,10.54,-0.079,-0.049,0,0,0,329.02,0,0,0,0,0,0,0,0,0,0,0,0,0,2,2,210.78,FLYING
212.07,APPROACH,ILS_TRACK,76.98,80,3.02,615.79,-4.28,6.84,9.82,270.22,-0.053,0.42,20,270.33,-3.066,6.44,0.16,10.428,-0.069,-0.066,0,0,0,329.02,0,0,0,0,0,0,0,0,0,0,0,0,0,2,2,212.14,FLYING
213.44,APPROACH,ILS_TRACK,77.23,80,2.77,609.93,-4.27,6.73,9.7,270.23,-0.055,0.3786,20,270.34,-3.098,6.08,0.19,10.316,-0.06,-0.098,0,0,0,329.02,0,0,0,0,0,0,0,0,0,0,0,0,0,2,2,213.51,FLYING
214.8,APPROACH,ILS_TRACK,77.6,80,2.4,604.07,-4.28,6.57,9.53,270.23,-0.057,0.3238,20,270.35,-3.139,5.72,0.23,10.203,-0.05,-0.139,0,0,0,329.02,0,0,0,0,0,0,0,0,0,0,0,0,0,2,2,214.87,FLYING
216.17,APPROACH,ILS_TRACK,78.06,80,1.94,598.19,-4.29,6.4,9.35,270.24,-0.06,0.2624,20,270.36,-3.182,5.37,0.29,10.09,-0.041,-0.182,0,0,0,329.02,0,0,0,0,0,0,0,0,0,0,0,0,0,2,2,216.24,FLYING
217.53,APPROACH,ILS_TRACK,78.56,80,1.44,592.29,-4.31,6.23,9.18,270.25,-0.065,0.2025,20,270.37,-3.218,5.04,0.36,9.976,-0.034,-0.218,0,0,0,329.02,0,0,0,0,0,0,0,0,0,0,0,0,0,2,2,217.6,FLYING
218.9,APPROACH,ILS_TRACK,79,80,1,586.35,-4.35,6.1,9.06,270.26,-0.071,0.1575,20,270.37,-3.245,4.71,0.43,9.862,-0.028,-0.245,0,0,0,329.02,0,0,0,0,0,0,0,0,0,0,0,0,0,2,2,218.97,FLYING
220.26,APPROACH,ILS_TRACK,79.26,80,0.74,580.38,-4.38,6.06,9.03,270.26,-0.075,0.1442,20,270.38,-3.25,4.4,0.49,9.747,-0.022,-0.25,0,0,0,329.02,0,0,0,0,0,0,0,0,0,0,0,0,0,2,2,220.33,FLYING
221.63,APPROACH,ILS_TRACK,79.29,80,0.71,574.39,-4.41,6.08,9.07,270.27,-0.079,0.1647,20,270.38,-3.227,4.11,0.54,9.632,-0.019,-0.227,0,0,0,329.02,0,0,0,0,0,0,0,0,0,0,0,0,0,2,2,221.7,FLYING
222.99,APPROACH,ILS_TRACK,79.15,80,0.85,568.37,-4.42,6.15,9.15,270.28,-0.079,0.2064,20,270.38,-3.187,3.84,0.55,9.517,-0.018,-0.187,0,0,0,329.02,0,0,0,0,0,0,0,0,0,0,0,0,0,2,2,223.06,FLYING
224.36,APPROACH,ILS_TRACK,78.95,80,1.05,562.35,-4.42,6.21,9.22,270.29,-0.072,0.2511,20,270.38,-3.149,3.59,0.54,9.402,-0.019,-0.149,0,0,0,329.02,0,0,0,0,0,0,0,0,0,0,0,0,0,2,2,224.43,FLYING
225.72,APPROACH,ILS_TRACK,78.77,80,1.23,556.33,-4.41,6.27,9.28,270.3,-0.06,0.2866,20,270.38,-3.123,3.36,0.52,9.287,-0.018,-0.123,0,0,0,329.02,0,0,0,0,0,0,0,0,0,0,0,0,0,2,2,225.79,FLYING
227.09,APPROACH,ILS_TRACK,78.64,80,1.36,550.33,-4.4,6.3,9.31,270.3,-0.052,0.3099,20,270.38,-3.108,3.14,0.49,9.173,-0.017,-0.108,0,0,0,329.02,0,0,0,0,0,0,0,0,0,0,0,0,0,2,2,227.16,FLYING
228.45,APPROACH,ILS_TRACK,78.58,80,1.42,544.33,-4.39,6.31,9.32,270.31,-0.047,0.3198,20,270.39,-3.101,2.94,0.47,9.059,-0.014,-0.101,0,0,0,329.02,0,0,0,0,0,0,0,0,0,0,0,0,0,2,2,228.52,FLYING
229.82,APPROACH,ILS_TRACK,78.59,80,1.41,538.34,-4.38,6.29,9.29,270.31,-0.045,0.3166,20,270.39,-3.105,2.74,0.45,8.945,-0.011,-0.105,0,0,0,329.02,0,0,0,0,0,0,0,0,0,0,0,0,0,2,2,229.89,FLYING
231.18,APPROACH,ILS_TRACK,78.68,80,1.32,532.36,-4.37,6.25,9.24,270.32,-0.044,0.3019,20,270.39,-3.116,2.55,0.44,8.832,-0.008,-0.116,0,0,0,329.02,0,0,0,0,0,0,0,0,0,0,0,0,0,2,2,231.25,FLYING
232.55,APPROACH,ILS_TRACK,78.85,80,1.15,526.38,-4.37,6.18,9.17,270.32,-0.044,0.2786,20,270.4,-3.133,2.37,0.44,8.717,-0.005,-0.133,0,0,0,329.02,0,0,0,0,0,0,0,0,0,0,0,0,0,2,2,232.62,FLYING
233.91,APPROACH,ILS_TRACK,79.07,80,0.93,520.4,-4.37,6.1,9.09,270.32,-0.044,0.2499,20,270.4,-3.154,2.2,0.45,8.603,-0.002,-0.154,0,0,0,329.02,0,0,0,0,0,0,0,0,0,0,0,0,0,2,2,233.98,FLYING
235.28,APPROACH,ILS_TRACK,79.32,80,0.68,514.42,-4.38,6.02,9,270.33,-0.046,0.2194,20,270.4,-3.175,2.04,0.47,8.489,0.001,-0.175,0,0,0,329.02,0,0,0,0,0,0,0,0,0,0,0,0,0,2,2,235.35,FLYING
236.64,APPROACH,ILS_TRACK,79.57,80,0.43,508.42,-4.39,5.94,8.92,270.33,-0.048,0.1924,20,270.4,-3.193,1.88,0.5,8.374,0.003,-0.193,0,0,0,329.02,0,0,0,0,0,0,0,0,0,0,0,0,0,2,2,236.71,FLYING
238.01,APPROACH,ILS_TRACK,79.76,80,0.24,502.4,-4.41,5.89,8.88,270.34,-0.049,0.1772,20,270.4,-3.205,1.73,0.53,8.258,0.004,-0.205,0,0,0,329.02,0,0,0,0,0,0,0,0,0,0,0,0,0,2,2,238.08,FLYING
239.37,APPROACH,ILS_TRACK,79.85,80,0.15,496.38,-4.42,5.89,8.87,270.34,-0.049,0.1788,20,270.4,-3.204,1.6,0.55,8.143,0.004,-0.204,0,0,0,329.02,0,0,0,0,0,0,0,0,0,0,0,0,0,2,2,239.44,FLYING
240.74,APPROACH,ILS_TRACK,79.83,80,0.17,490.34,-4.43,5.9,8.9,270.35,-0.049,0.1946,20,270.4,-3.19,1.47,0.57,8.028,0.005,-0.19,0,0,0,329.02,0,0,0,0,0,0,0,0,0,0,0,0,0,2,2,240.81,FLYING
242.1,APPROACH,ILS_TRACK,79.76,80,0.24,484.15,-4.43,5.95,8.95,270.35,-0.045,0.2165,20,270.4,-2.877,1.35,0.41,7.912,0.004,0.123,0,0,0,329.02,0,0,0,0,0,0,0,0,0,0,0,0,0,3,3,242.17,FLYING
243.57,APPROACH,ILS_TRACK,79.57,80,0.43,477.84,-4.32,5.78,8.74,270.36,-0.041,0.2495,20,270.41,-3.465,1.24,0.59,7.788,0.008,-0.465,0,0,0,329.02,0,0,0,0,0,0,0,0,0,0,0,0,0,3,3,243.64,FLYING
244.9,APPROACH,ILS_TRACK,79.32,80,0.68,472.01,-4.4,5.63,8.61,270.36,-0.046,0.2891,20,270.4,-3.224,1.14,0.62,7.677,0.002,-0.224,0,0,0,329.02,0,0,0,0,0,0,0,0,0,0,0,0,0,3,3,244.97,FLYING
246.23,APPROACH,ILS_TRACK,78.99,80,1.01,466.21,-4.35,5.66,8.65,270.37,-0.044,0.3347,20,270.4,-3.252,1.06,0.65,7.565,0.001,-0.252,0,0,0,329.02,0,0,0,0,0,0,0,0,0,0,0,0,0,3,3,246.3,FLYING
247.56,APPROACH,ILS_TRACK,78.73,80,1.27,460.43,-4.36,5.75,8.74,270.37,-0.04,0.3658,20,270.4,-3.234,0.98,0.67,7.454,-0.001,-0.234,0,0,0,329.02,0,0,0,0,0,0,0,0,0,0,0,0,0,3,3,247.63,FLYING
248.96,APPROACH,ILS_TRACK,78.55,80,1.45,454.33,-4.36,5.77,8.77,270.37,-0.037,0.3806,20,270.4,-3.209,0.91,0.68,7.338,0,-0.209,0,0,0,329.02,0,0,0,0,0,0,0,0,0,0,0,0,0,3,3,249.03,FLYING
250.33,APPROACH,ILS_TRACK,78.49,80,1.51,448.39,-4.36,5.77,8.77,270.37,-0.033,0.3768,20,270.4,-3.181,0.84,0.66,7.225,-0.002,-0.181,0,0,0,329.02,0,0,0,0,0,0,0,0,0,0,0,0,0,3,3,250.4,FLYING
251.69,APPROACH,ILS_TRACK,78.54,80,1.46,442.43,-4.36,5.73,8.73,270.38,-0.03,0.3579,20,270.4,-3.159,0.79,0.64,7.112,-0.003,-0.159,0,0,0,329.02,0,0,0,0,0,0,0,0,0,0,0,0,0,3,3,251.76,FLYING
253.06,APPROACH,ILS_TRACK,78.69,80,1.31,436.47,-4.37,5.66,8.66,270.38,-0.026,0.3276,20,270.4,-3.143,0.73,0.62,6.998,-0.002,-0.143,0,0,0,329.02,0,0,0,0,0,0,0,0,0,0,0,0,0,3,3,253.13,FLYING
254.42,APPROACH,ILS_TRACK,78.91,80,1.09,430.49,-4.37,5.57,8.57,270.38,-0.024,0.2905,20,270.4,-3.133,0.68,0.59,6.885,-0.002,-0.133,0,0,0,329.02,0,0,0,0,0,0,0,0,0,0,0,0,0,3,3,254.49,FLYING
255.79,APPROACH,ILS_TRACK,79.18,80,0.82,424.5,-4.38,5.48,8.48,270.38,-0.024,0.2516,20,270.4,-3.127,0.64,0.56,6.771,-0.002,-0.127,0,0,0,329.02,0,0,0,0,0,0,0,0,0,0,0,0,0,3,3,255.86,FLYING
257.15,APPROACH,ILS_TRACK,79.45,80,0.55,418.49,-4.39,5.41,8.41,270.38,-0.024,0.2172,20,270.4,-3.13,0.59,0.54,6.657,-0.002,-0.13,0,0,0,329.02,0,0,0,0,0,0,0,0,0,0,0,0,0,3,3,257.22,FLYING
258.52,APPROACH,ILS_TRACK,79.64,80,0.36,412.48,-4.4,5.37,8.37,270.38,-0.024,0.1974,20,270.4,-3.143,0.55,0.53,6.542,-0.001,-0.143,0,0,0,329.02,0,0,0,0,0,0,0,0,0,0,0,0,0,3,3,258.59,FLYING
259.88,APPROACH,ILS_TRACK,79.7,80,0.3,406.48,-4.4,5.39,8.38,270.39,-0.024,0.1992,20,270.4,-3.161,0.51,0.53,6.428,-0.001,-0.161,0,0,0,329.02,0,0,0,0,0,0,0,0,0,0,0,0,0,3,3,259.95,FLYING
261.25,APPROACH,ILS_TRACK,79.64,80,0.36,400.48,-4.39,5.43,8.43,270.39,-0.023,0.2194,20,270.4,-3.173,0.48,0.54,6.313,-0.002,-0.173,0,0,0,329.02,0,0,0,0,0,0,0,0,0,0,0,0,0,3,3,261.32,FLYING
262.61,APPROACH,ILS_TRACK,79.5,80,0.5,394.5,-4.39,5.48,8.47,270.39,-0.02,0.2471,20,270.4,-3.176,0.45,0.55,6.199,-0.002,-0.176,0,0,0,329.02,0,0,0,0,0,0,0,0,0,0,0,0,0,3,3,262.68,FLYING
263.98,APPROACH,ILS_TRACK,79.36,80,0.64,388.52,-4.38,5.52,8.52,270.39,-0.02,0.2715,20,270.4,-3.174,0.42,0.55,6.085,-0.001,-0.174,0,0,0,329.02,0,0,0,0,0,0,0,0,0,0,0,0,0,3,3,264.05,FLYING
265.34,APPROACH,ILS_TRACK,79.25,80,0.75,382.56,-4.37,5.55,8.55,270.39,-0.02,0.289,20,270.4,-3.168,0.39,0.55,5.971,-0.002,-0.168,0,0,0,329.02,0,0,0,0,0,0,0,0,0,0,0,0,0,3,3,265.41,FLYING
266.71,APPROACH,ILS_TRACK,79.17,80,0.83,376.6,-4.37,5.56,8.56,270.39,-0.02,0.2986,20,270.4,-3.162,0.36,0.55,5.857,-0.001,-0.162,0,0,0,329.02,0,0,0,0,0,0,0,0,0,0,0,0,0,3,3,266.78,FLYING
268.07,APPROACH,ILS_TRACK,79.14,80,0.86,370.64,-4.36,5.56,8.56,270.39,-0.021,0.2999,20,270.4,-3.157,0.34,0.55,5.744,-0.001,-0.157,0,0,0,329.02,0,0,0,0,0,0,0,0,0,0,0,0,0,3,3,268.14,FLYING
269.44,APPROACH,ILS_TRACK,79.16,80,0.84,364.68,-4.36,5.54,8.54,270.39,-0.021,0.2937,20,270.4,-3.154,0.31,0.54,5.63,-0.001,-0.154,0,0,0,329.02,0,0,0,0,0,0,0,0,0,0,0,0,0,3,3,269.51,FLYING
270.8,APPROACH,ILS_TRACK,79.23,80,0.77,358.72,-4.36,5.51,8.51,270.39,-0.02,0.2815,20,270.4,-3.153,0.29,0.54,5.516,-0.002,-0.153,0,0,0,329.02,0,0,0,0,0,0,0,0,0,0,0,0,0,3,3,270.87,FLYING
272.17,APPROACH,ILS_TRACK,79.34,80,0.66,352.76,-4.36,5.47,8.47,270.39,-0.019,0.2653,20,270.4,-3.153,0.27,0.53,5.403,-0.001,-0.153,0,0,0,329.02,0,0,0,0,0,0,0,0,0,0,0,0,0,3,3,272.24,FLYING
273.53,APPROACH,ILS_TRACK,79.47,80,0.53,346.79,-4.37,5.42,8.42,270.39,-0.018,0.2473,20,270.4,-3.154,0.26,0.53,5.289,-0.002,-0.154,0,0,0,329.02,0,0,0,0,0,0,0,0,0,0,0,0,0,3,3,273.6,FLYING
274.9,APPROACH,ILS_TRACK,79.61,80,0.39,340.82,-4.37,5.38,8.38,270.4,-0.018,0.2303,20,270.4,-3.157,0.24,0.53,5.175,-0.001,-0.157,0,0,0,329.02,0,0,0,0,0,0,0,0,0,0,0,0,0,3,3,274.97,FLYING
276.26,APPROACH,ILS_TRACK,79.72,80,0.28,334.84,-4.38,5.36,8.35,270.4,-0.017,0.2184,20,270.4,-3.164,0.23,0.53,5.061,-0.002,-0.164,0,0,0,329.02,0,0,0,0,0,0,0,0,0,0,0,0,0,3,3,276.33,FLYING
277.63,APPROACH,ILS_TRACK,79.78,80,0.22,328.86,-4.38,5.35,8.35,270.4,-0.018,0.2164,20,270.4,-3.17,0.21,0.54,4.947,-0.001,-0.17,0,0,0,329.02,0,0,0,0,0,0,0,0,0,0,0,0,0,3,3,277.7,FLYING
278.99,APPROACH,ILS_TRACK,79.77,80,0.23,322.88,-4.38,5.37,8.36,270.4,-0.018,0.224,20,270.4,-3.174,0.2,0.54,4.832,-0.001,-0.174,0,0,0,329.02,0,0,0,0,0,0,0,0,0,0,0,0,0,3,3,279.06,FLYING
280.36,APPROACH,ILS_TRACK,79.73,80,0.27,316.91,-4.38,5.38,8.38,270.4,-0.018,0.2366,20,270.4,-3.173,0.19,0.55,4.718,-0.002,-0.173,0,0,0,329.02,0,0,0,0,0,0,0,0,0,0,0,0,0,3,3,280.43,FLYING
281.72,APPROACH,ILS_TRACK,79.67,80,0.33,310.94,-4.37,5.4,8.4,270.4,-0.016,0.249,20,270.4,-3.17,0.18,0.55,4.604,-0.002,-0.17,0,0,0,329.02,0,0,0,0,0,0,0,0,0,0,0,0,0,3,3,281.79,FLYING
283.09,APPROACH,ILS_TRACK,79.62,80,0.38,304.97,-4.37,5.42,8.41,270.4,-0.016,0.2581,20,270.4,-3.167,0.17,0.55,4.49,-0.001,-0.167,0,0,0,329.02,0,0,0,0,0,0,0,0,0,0,0,0,0,3,3,283.16,FLYING
284.45,APPROACH,ILS_TRACK,79.58,80,0.42,299.01,-4.37,5.42,8.42,270.4,-0.017,0.2632,20,270.4,-3.164,0.16,0.55,4.377,-0.001,-0.164,0,0,0,329.02,0,0,0,0,0,0,0,0,0,0,0,0,0,3,3,284.52,FLYING
285.82,APPROACH,ILS_TRACK,79.58,80,0.42,293.05,-4.37,5.42,8.42,270.4,-0.017,0.2642,20,270.4,-3.162,0.15,0.55,4.263,-0.001,-0.162,0,0,0,329.02,0,0,0,0,0,0,0,0,0,0,0,0,0,3,3,285.89,FLYING
287.18,APPROACH,ILS_TRACK,79.59,80,0.41,287.09,-4.36,5.41,8.41,270.4,-0.015,0.2614,20,270.4,-3.16,0.14,0.55,4.149,-0.001,-0.16,0,0,0,329.02,0,0,0,0,0,0,0,0,0,0,0,0,0,3,3,287.25,FLYING
288.55,APPROACH,ILS_TRACK,79.63,80,0.37,281.13,-4.36,5.39,8.39,270.4,-0.015,0.2555,20,270.4,-3.159,0.13,0.54,4.036,-0.001,-0.159,0,0,0,329.02,0,0,0,0,0,0,0,0,0,0,0,0,0,3,3,288.62,FLYING
289.91,APPROACH,ILS_TRACK,79.69,80,0.31,275.17,-4.36,5.37,8.37,270.4,-0.015,0.2475,20,270.4,-3.159,0.12,0.54,3.922,-0.001,-0.159,0,0,0,329.02,0,0,0,0,0,0,0,0,0,0,0,0,0,3,3,289.98,FLYING
291.28,APPROACH,ILS_TRACK,79.76,80,0.24,269.2,-4.37,5.34,8.34,270.4,-0.015,0.2385,20,270.4,-3.16,0.11,0.54,3.808,0,-0.16,0,0,0,329.02,0,0,0,0,0,0,0,0,0,0,0,0,0,3,3,291.35,FLYING
292.64,APPROACH,ILS_TRACK,79.83,80,0.17,263.24,-4.37,5.32,8.32,270.4,-0.015,0.23,20,270.4,-3.162,0.1,0.54,3.694,0,-0.162,0,0,0,329.02,0,0,0,0,0,0,0,0,0,0,0,0,0,3,3,292.71,FLYING
294.01,APPROACH,ILS_TRACK,79.9,80,0.1,257.27,-4.37,5.31,8.3,270.4,-0.016,0.2243,20,270.4,-3.165,0.1,0.54,3.581,0,-0.165,0,0,0,329.02,0,0,0,0,0,0,0,0,0,0,0,0,0,3,3,294.08,FLYING
295.37,APPROACH,ILS_TRACK,79.93,80,0.07,251.3,-4.37,5.3,8.3,270.4,-0.015,0.2235,20,270.4,-3.168,0.09,0.54,3.467,0,-0.168,0,0,0,329.02,0,0,0,0,0,0,0,0,0,0,0,0,0,3,3,295.44,FLYING
