t_s,phase,subphase,ias_ms,vapp_ms,spd_err_ms,agl_m,vs_ms,pitch_deg,aoa_deg,hdg_deg,bank_deg,thr_cmd,thr_cur,thr_intg,at_gain,at_tau_s,at_a_up,at_a_dn,at_kp_thr,at_ki_spd,at_thr_slew,aa_hdg_cmd_deg,aa_fpa_cmd_deg,ils_loc_m,ils_gs_m,ils_dist_km,loc_corr_deg,gs_corr_deg,flare_fpa_cmd,flare_tgt_vs,flare_frac,steer_hdg_deg,steer_blend,ro_loc_corr_deg,ro_hdg_err_deg,ro_yaw_tgt,ro_yaw_scale,ro_yaw_gate,yaw_cmd,roll_cmd,pitch_cmd,ro_pitch_tgt_deg,ro_pitch_err_deg,ro_pitch_ff,ro_roll_assist,flaps_cur,flaps_tgt,asc_j_ab,asc_j_rk,asc_validity,asc_q_pa,asc_q_raw_pa,asc_mach,asc_apo_m,asc_drag_n,asc_w_prop,asc_edot_aero,asc_edot_orb,asc_pitch_bias,asc_blend,asc_spooling,asc_ab_thr_ratio,asc_ab_t_now,asc_ab_t_avail,asc_ab_ign_on,asc_ab_flameouts,asc_rk_t_now,asc_rk_t_avail,asc_rk_ign_on,asc_rk_flameouts,ship_thrust,ship_avail_thrust,ship_ign_on,ship_flameouts,ifc_raw_dt_s,ifc_dt_s,ifc_loop_n,ifc_hz_est,ifc_raw_dt_max_s,ifc_raw_dt_min_s,phase_el_s,status
1.2,APPROACH,FLY_TO_FIX,237.49,140.8,-96.69,1283.56,-1.73,4.61,5.31,266.89,-4.134,0,0,0,1,0.6,0.9,0.75,0.35,0.0168,0.4,265.89,0.292,0,0,-55.924,0,0,0,0,0,267.05,0,0,0,0,0,0,0,0,0,0,0,0,0,0,0,0,0,VALID,0,0,0,0,0,1,0,0,0,0,0,0,0,0,0,0,0,0,0,0,279.97,3814.15,6,0,0.94,0.5,1,1.96,0.94,0.02,1.24,FLYING
1.86,APPROACH,FLY_TO_FIX,236.2,141.6,-94.6,1288.32,1.32,8.84,12.2,266.11,-4.234,0,0,0,1,0.6,1.381,0.75,0.35,0.0168,0.4,265.88,0.279,0,0,-55.765,0,0,0,0,0,267.05,0,0,0,0,0,0,0,0,0,0,0,0,0,0,0,0,0,VALID,0,0,0,0,0,1,0,0,0,0,0,0,0,0,0,0,0,0,0,0,221.25,3800.52,6,0,0.68,0.5,2,1.56,0.94,0.68,1.9,FLYING
2.52,APPROACH,FLY_TO_FIX,231.34,142.4,-88.94,1298.87,14.02,18.35,17.68,263.88,-4.499,0.1339,0,-20,1,0.6,1.979,0.794,0.35,0.0168,0.4,265.88,0.233,0,0,-55.604,0,0,0,0,0,267.05,0,0,0,0,0,0,0,0,0,0,0,0,0,0,0,0,0,VALID,0,0,0,0,0,1,0,0,0,0,0,0,0,0,0,0,0,0,0,0,170.39,3743.88,6,0,0.66,0.5,3,1.52,0.68,0.66,2.56,FLYING
3.16,APPROACH,FLY_TO_FIX,223.9,143.2,-80.7,1315.91,27.98,24.33,19.61,261.73,-4.962,0.3339,0,-20,1,0.6,2.514,0.794,0.35,0.0168,0.4,265.88,0.158,0,0,-55.45,0,0,0,0,0,267.05,0,0,0,0,0,0,0,0,0,0,0,0,0,0,0,0,0,VALID,0,0,0,0,0,1,0,0,0,0,0,0,0,0,0,0,0,0,0,0,202.18,3659.94,6,0,0.64,0.5,4,1.56,0.66,0.64,3.2,FLYING
3.8,APPROACH,FLY_TO_FIX,215.68,144,-71.68,1340.34,40.69,28.31,19.75,260.24,-5.367,0.5339,0,-20,1,0.6,2.987,0.794,0.35,0.0168,0.4,265.88,0.046,0,0,-55.303,0,0,0,0,0,267.05,0,0,0,0,0,0,0,0,0,0,0,0,0,0,0,0,0,VALID,0,0,0,0,0,1,0,0,0,0,0,0,0,0,0,0,0,0,0,0,313.68,3560.41,6,0,0.64,0.5,5,1.56,0.64,0.64,3.84,FLYING
4.44,APPROACH,FLY_TO_FIX,207.81,144.8,-63.01,1372.02,51.63,31.53,19.75,258.99,-5.74,0.7339,0,-20,1,0.6,3.403,0.794,0.35,0.0168,0.4,265.88,0,0,0,-55.162,0,0,0,0,0,267.05,0,0,0,0,0,0,0,0,0,0,0,0,0,0,0,0,0,VALID,0,0,0,0,0,1,0,0,0,0,0,0,0,0,0,0,0,0,0,0,488.46,3461.73,6,0,0.64,0.5,6,1.56,0.64,0.64,4.48,FLYING
5.08,APPROACH,FLY_TO_FIX,200.43,145.6,-54.83,1410.07,61.12,34.59,19.75,257.95,-6.013,0.9339,0,-20,1,0.6,3.769,0.794,0.35,0.0168,0.4,265.88,0,0,0,-55.026,0,0,0,0,0,267.05,0,0,0,0,0,0,0,0,0,0,0,0,0,0,0,0,0,VALID,0,0,0,0,0,1,0,0,0,0,0,0,0,0,0,0,0,0,0,0,713.13,3366.68,6,0,0.64,0.5,7,1.56,0.64,0.64,5.12,FLYING
5.72,APPROACH,FLY_TO_FIX,193.56,146.4,-47.16,1453.65,69.43,37.54,19.75,257.29,-6.101,1,0,-20,1,0.6,4.088,0.794,0.35,0.0168,0.4,265.88,0,0,0,-54.897,0,0,0,0,0,267.05,0,0,0,0,0,0,0,0,0,0,0,0,0,0,0,0,0,VALID,0,0,0,0,0,1,0,0,0,0,0,0,0,0,0,0,0,0,0,0,976.75,3276.43,6,0,0.64,0.5,8,1.56,0.64,0.64,5.76,FLYING
6.36,APPROACH,FLY_TO_FIX,187.21,147.2,-40.01,1502.07,76.74,40.35,19.75,256.62,-6.198,1,0,-20,1,0.6,4.365,0.794,0.35,0.0168,0.4,265.88,0,0,0,-54.774,0,0,0,0,0,267.05,0,0,0,0,0,0,0,0,0,0,0,0,0,0,0,0,0,VALID,0,0,0,0,0,1,0,0,0,0,0,0,0,0,0,0,0,0,0,0,1220.74,3191.87,6,0,0.64,0.5,9,1.56,0.64,0.64,6.4,FLYING
7.02,APPROACH,FLY_TO_FIX,181.15,148,-33.15,1556.47,83.38,43.12,19.75,255.87,-6.315,1,0,-20,1,0.6,4.5,0.794,0.35,0.0168,0.4,265.88,0,0,0,-54.653,0,0,0,0,0,267.05,0,0,0,0,0,0,0,0,0,0,0,0,0,0,0,0,0,VALID,0,0,0,0,0,1,0,0,0,0,0,0,0,0,0,0,0,0,0,0,1427.71,3110.17,6,0,0.66,0.5,10,1.52,0.66,0.64,7.06,FLYING
7.68,APPROACH,FLY_TO_FIX,175.48,148.8,-26.68,1614.83,89.18,45.77,19.76,255.05,-6.444,1,0,-20,1,0.6,4.5,0.794,0.35,0.0168,0.4,265.89,0,0,0,-54.537,0,0,0,0,0,267.05,0,0,0,0,0,0,0,0,0,0,0,0,0,0,0,0,0,VALID,0,0,0,0,0,1,0,0,0,0,0,0,0,0,0,0,0,0,0,0,1595.87,3033.13,6,0,0.66,0.5,11,1.52,0.66,0.66,7.72,FLYING
8.34,APPROACH,FLY_TO_FIX,170.13,149,-21.13,1676.64,94.22,48.3,19.76,254.16,-6.589,1,0,-20,1,0.6,4.5,0.794,0.35,0.0168,0.4,265.89,0,0,0,-54.427,0,0,0,0,0,267.05,0,0,0,0,0,0,0,0,0,0,0,0,0,0,0,0,0,VALID,0,0,0,0,0,1,0,0,0,0,0,0,0,0,0,0,0,0,0,0,1731.46,2960.09,6,0,0.66,0.5,12,1.52,0.66,0.66,8.38,FLYING
9,APPROACH,FLY_TO_FIX,165.04,149,-16.04,1741.44,98.56,50.72,19.76,253.18,-6.744,1,0,-20,1,0.6,4.5,0.794,0.35,0.0168,0.4,265.89,0,0,0,-54.323,0,0,0,0,0,267.05,0,0,0,0,0,0,0,0,0,0,0,0,0,0,0,0,0,VALID,0,0,0,0,0,1,0,0,0,0,0,0,0,0,0,0,0,0,0,0,1839.57,2890.42,6,0,0.66,0.5,13,1.52,0.66,0.66,9.04,FLYING
9.66,APPROACH,FLY_TO_FIX,160.15,149,-11.15,1808.77,102.26,53.03,19.76,252.12,-6.91,1,0,-20,1,0.6,4.5,0.794,0.35,0.0168,0.4,265.9,0,0,0,-54.224,0,0,0,0,0,267.05,0,0,0,0,0,0,0,0,0,0,0,0,0,0,0,0,0,VALID,0,0,0,0,0,1,0,0,0,0,0,0,0,0,0,0,0,0,0,0,1924.48,2823.65,6,0,0.66,0.5,14,1.52,0.66,0.66,9.7,FLYING
10.32,APPROACH,FLY_TO_FIX,155.45,149,-6.45,1878.24,105.35,55.24,19.76,250.95,-7.093,1,0,-20,1,0.6,4.5,0.794,0.35,0.0168,0.4,265.9,0,0,0,-54.13,0,0,0,0,0,267.05,0,0,0,0,0,0,0,0,0,0,0,0,0,0,0,0,0,VALID,0,0,0,0,0,1,0,0,0,0,0,0,0,0,0,0,0,0,0,0,1989.8,2759.43,6,0,0.66,0.5,15,1.52,0.66,0.66,10.36,FLYING
10.98,APPROACH,FLY_TO_FIX,150.89,149,-1.89,1949.47,107.88,57.35,19.76,249.65,-7.286,1,0,-20,1,0.6,4.5,0.794,0.35,0.0168,0.4,265.91,0,0,0,-54.041,0,0,0,0,0,267.05,0,0,0,0,0,0,0,0,0,0,0,0,0,0,0,0,0,VALID,0,0,0,0,0,1,0,0,0,0,0,0,0,0,0,0,0,0,0,0,2038.52,2697.44,6,0,0.66,0.5,16,1.52,0.66,0.66,11.02,FLYING
11.62,APPROACH,FLY_TO_FIX,146.46,149,2.54,2022.11,109.89,59.36,19.76,248.21,-7.506,1,0,-19.9,1,0.6,4.5,0.794,0.35,0.0168,0.4,265.91,0,0,0,-53.957,0,0,0,0,0,267.05,0,0,0,0,0,0,0,0,0,0,0,0,0,0,0,0,0,VALID,0,0,0,0,0,1,0,0,0,0,0,0,0,0,0,0,0,0,0,0,2073.22,2637.46,6,0,0.66,0.5,17,1.52,0.66,0.66,11.68,FLYING
12.28,APPROACH,FLY_TO_FIX,142.13,149,6.87,2095.83,111.42,61.26,19.76,246.61,-7.734,1,0,-19.8,1,0.6,4.5,0.794,0.35,0.0168,0.4,265.92,0,0,0,-53.877,0,0,0,0,0,267.05,0,0,0,0,0,0,0,0,0,0,0,0,0,0,0,0,0,VALID,0,0,0,0,0,1,0,0,0,0,0,0,0,0,0,0,0,0,0,0,2096.1,2579.34,6,0,0.66,0.5,18,1.52,0.66,0.66,12.34,FLYING
12.94,APPROACH,FLY_TO_FIX,137.9,149,11.1,2170.33,112.48,63.07,19.76,244.85,-7.972,1,0,-19.701,1,0.6,4.5,0.794,0.35,0.0168,0.4,265.92,0,0,0,-53.802,0,0,0,0,0,267.05,0,0,0,0,0,0,0,0,0,0,0,0,0,0,0,0,0,VALID,0,0,0,0,0,1,0,0,0,0,0,0,0,0,0,0,0,0,0,0,2109.02,2522.94,6,0,0.66,0.5,19,1.52,0.66,0.66,13,FLYING
13.6,APPROACH,FLY_TO_FIX,133.75,149,15.25,2245.32,113.13,64.76,19.76,242.86,-8.235,1,0,-19.603,1,0.6,4.5,0.794,0.35,0.0168,0.4,265.93,0,0,0,-53.731,0,0,0,0,0,267.05,0,0,0,0,0,0,0,0,0,0,0,0,0,0,0,0,0,VALID,0,0,0,0,0,1,0,0,0,0,0,0,0,0,0,0,0,0,0,0,2113.62,2468.19,6,0,0.66,0.5,20,1.52,0.66,0.66,13.66,FLYING
14.26,APPROACH,FLY_TO_FIX,129.68,149,19.32,2320.54,113.37,66.35,19.76,240.65,-8.509,1,0,-19.505,1,0.6,4.5,0.794,0.35,0.0168,0.4,265.93,0,0,0,-53.664,0,0,0,0,0,267.05,0,0,0,0,0,0,0,0,0,0,0,0,0,0,0,0,0,VALID,0,0,0,0,0,1,0,0,0,0,0,0,0,0,0,0,0,0,0,0,2111.29,2415.06,6,0,0.66,0.5,21,1.52,0.66,0.66,14.32,FLYING
14.92,APPROACH,FLY_TO_FIX,125.68,149,23.32,2395.73,113.24,67.83,19.76,238.19,-8.803,1,0,-19.407,1,0.6,4.5,0.794,0.35,0.0168,0.4,265.94,0,0,0,-53.602,0,0,0,0,0,267.05,0,0,0,0,0,0,0,0,0,0,0,0,0,0,0,0,0,VALID,0,0,0,0,0,1,0,0,0,0,0,0,0,0,0,0,0,0,0,0,2103.23,2363.5,6,0,0.66,0.5,22,1.52,0.66,0.66,14.98,FLYING
15.58,APPROACH,FLY_TO_FIX,121.74,149,27.26,2470.66,112.78,69.2,19.76,235.45,-9.111,1,0,-19.31,1,0.6,4.5,0.794,0.35,0.0168,0.4,265.95,0,0,0,-53.543,0,0,0,0,0,267.05,0,0,0,0,0,0,0,0,0,0,0,0,0,0,0,0,0,VALID,0,0,0,0,0,1,0,0,0,0,0,0,0,0,0,0,0,0,0,0,2090.47,2313.5,6,0,0.66,0.5,23,1.52,0.66,0.66,15.64,FLYING
16.24,APPROACH,FLY_TO_FIX,117.86,149,31.14,2545.13,111.99,70.43,19.76,232.38,-9.455,1,0,-19.214,1,0.6,4.5,0.794,0.35,0.0168,0.4,265.95,0,0,0,-53.488,0,0,0,0,0,267.05,0,0,0,0,0,0,0,0,0,0,0,0,0,0,0,0,0,VALID,0,0,0,0,0,1,0,0,0,0,0,0,0,0,0,0,0,0,0,0,2073.94,2265.08,6,0,0.66,0.5,24,1.52,0.66,0.66,16.3,FLYING
16.9,APPROACH,FLY_TO_FIX,114.05,149,34.95,2618.94,110.92,71.54,19.76,228.99,-9.818,1,0,-19.118,1,0.6,4.5,0.794,0.35,0.0168,0.4,265.96,0,0,0,-53.436,0,0,0,0,0,267.05,0,0,0,0,0,0,0,0,0,0,0,0,0,0,0,0,0,VALID,0,0,0,0,0,1,0,0,0,0,0,0,0,0,0,0,0,0,0,0,2054.43,2218.27,6,0,0.66,0.5,25,1.52,0.66,0.66,16.96,FLYING
17.56,APPROACH,FLY_TO_FIX,110.29,149,38.71,2691.89,109.57,72.51,19.76,225.27,-10.213,1,0,-19.022,1,0.6,4.5,0.794,0.35,0.0168,0.4,265.97,0,0,0,-53.388,0,0,0,0,0,267.05,0,0,0,0,0,0,0,0,0,0,0,0,0,0,0,0,0,VALID,0,0,0,0,0,1,0,0,0,0,0,0,0,0,0,0,0,0,0,0,2032.62,2173.1,6,0,0.66,0.5,26,1.52,0.66,0.66,17.62,FLYING
18.22,APPROACH,FLY_TO_FIX,106.58,149,42.42,2763.83,107.98,73.33,19.76,221.21,-10.633,1,0,-18.927,1,0.6,4.5,0.794,0.35,0.0168,0.4,265.97,0,0,0,-53.343,0,0,0,0,0,267.05,0,0,0,0,0,0,0,0,0,0,0,0,0,0,0,0,0,VALID,0,0,0,0,0,1,0,0,0,0,0,0,0,0,0,0,0,0,0,0,2009.11,2129.57,6,0,0.66,0.5,27,1.52,0.66,0.66,18.28,FLYING
18.88,APPROACH,FLY_TO_FIX,102.93,149,46.07,2834.61,106.16,73.99,19.76,216.86,-11.089,1,0,-18.832,1,0.6,4.5,0.794,0.35,0.0168,0.4,265.98,0,0,0,-53.301,0,0,0,0,0,267.05,0,0,0,0,0,0,0,0,0,0,0,0,0,0,0,0,0,VALID,0,0,0,0,0,1,0,0,0,0,0,0,0,0,0,0,0,0,0,0,1984.32,2087.64,6,0,0.66,0.5,28,1.52,0.66,0.66,18.94,FLYING
19.54,APPROACH,FLY_TO_FIX,99.33,149,49.67,2904.07,104.13,74.49,19.76,212.28,-11.582,1,0,-18.738,1,0.6,4.5,0.794,0.35,0.0168,0.4,265.99,0,0,0,-53.261,0,0,0,0,0,267.05,0,0,0,0,0,0,0,0,0,0,0,0,0,0,0,0,0,VALID,0,0,0,0,0,1,0,0,0,0,0,0,0,0,0,0,0,0,0,0,1957.93,2046.51,6,0,0.66,0.5,29,1.52,0.66,0.66,19.6,FLYING
20.2,APPROACH,FLY_TO_FIX,95.79,149,53.21,2972.1,101.9,74.81,19.76,207.53,-12.116,1,0,-18.645,1,0.6,4.5,0.794,0.35,0.0168,0.4,266,0,0,0,-53.225,0,0,0,0,0,267.05,0,0,0,0,0,0,0,0,0,0,0,0,0,0,0,0,0,VALID,0,0,0,0,0,1,0,0,0,0,0,0,0,0,0,0,0,0,0,0,1930.38,2006.32,6,0,0.66,0.5,30,1.52,0.66,0.66,20.26,FLYING
20.86,APPROACH,FLY_TO_FIX,92.3,149,56.7,3038.56,99.51,74.96,19.76,202.74,-12.694,1,0,-18.551,1,0.6,4.5,0.794,0.35,0.0168,0.4,266,0,0,0,-53.191,0,0,0,0,0,267.05,0,0,0,0,0,0,0,0,0,0,0,0,0,0,0,0,0,VALID,0,0,0,0,0,1,0,0,0,0,0,0,0,0,0,0,0,0,0,0,1902.24,1967.34,6,0,0.66,0.5,31,1.52,0.66,0.66,20.92,FLYING
21.52,APPROACH,FLY_TO_FIX,88.86,149,60.14,3103.35,96.95,74.93,19.76,198.02,-13.327,1,0,-18.459,1,0.6,4.5,0.794,0.35,0.0168,0.4,266.01,0,0,0,-53.16,0,0,0,0,0,267.05,0,0,0,0,0,0,0,0,0,0,0,0,0,0,0,0,0,VALID,0,0,0,0,0,1,0,0,0,0,0,0,0,0,0,0,0,0,0,0,1874.02,1929.86,6,0,0.66,0.5,32,1.52,0.66,0.66,21.58,FLYING
22.18,APPROACH,FLY_TO_FIX,85.47,149,63.53,3166.37,94.24,74.72,19.76,193.49,-14.016,1,0,-18.366,1,0.6,4.5,0.794,0.35,0.0168,0.4,266.02,0,0,0,-53.131,0,0,0,0,0,267.05,0,0,0,0,0,0,0,0,0,0,0,0,0,0,0,0,0,VALID,0,0,0,0,0,1,0,0,0,0,0,0,0,0,0,0,0,0,0,0,1846.24,1894.16,6,0,0.66,0.5,33,1.52,0.66,0.66,22.24,FLYING
22.84,APPROACH,FLY_TO_FIX,82.13,149,66.87,3227.52,91.4,74.35,19.76,189.24,-14.771,1,0,-18.274,1,0.6,4.5,0.794,0.35,0.0168,0.4,266.03,0,0,0,-53.104,0,0,0,0,0,267.05,0,0,0,0,0,0,0,0,0,0,0,0,0,0,0,0,0,VALID,0,0,0,0,0,1,0,0,0,0,0,0,0,0,0,0,0,0,0,0,1819.37,1860.53,6,0,0.66,0.5,34,1.52,0.66,0.66,22.9,FLYING
23.5,APPROACH,FLY_TO_FIX,78.85,149,70.15,3286.73,88.45,73.81,19.76,185.36,-15.598,1,0,-18.183,1,0.6,4.5,0.794,0.35,0.0168,0.4,266.04,0,0,0,-53.079,0,0,0,0,0,267.05,0,0,0,0,0,0,0,0,0,0,0,0,0,0,0,0,0,VALID,0,0,0,0,0,1,0,0,0,0,0,0,0,0,0,0,0,0,0,0,1793.88,1829.27,6,0,0.66,0.5,35,1.52,0.66,0.66,23.56,FLYING
24.16,APPROACH,FLY_TO_FIX,75.63,149,73.37,3343.91,85.38,73.11,19.76,181.89,-16.51,1,0,-18.092,1,0.6,4.5,0.794,0.35,0.0168,0.4,266.05,0,0,0,-53.056,0,0,0,0,0,267.05,0,0,0,0,0,0,0,0,0,0,0,0,0,0,0,0,0,VALID,0,0,0,0,0,1,0,0,0,0,0,0,0,0,0,0,0,0,0,0,1770.16,1800.64,6,0,0.66,0.5,36,1.52,0.66,0.66,24.22,FLYING
24.82,APPROACH,FLY_TO_FIX,72.47,149,76.53,3398.98,82.22,72.25,19.76,178.85,-17.519,1,0,-18.002,1,0.6,4.5,0.794,0.35,0.0168,0.4,266.06,0,0,0,-53.034,0,0,0,0,0,267.05,0,0,0,0,0,0,0,0,0,0,0,0,0,0,0,0,0,VALID,0,0,0,0,0,1,0,0,0,0,0,0,0,0,0,0,0,0,0,0,1748.61,1774.91,6,0,0.66,0.5,37,1.52,0.66,0.66,24.88,FLYING
25.48,APPROACH,FLY_TO_FIX,69.38,149,79.62,3451.89,78.97,71.23,19.76,176.24,-18.639,1,0,-17.912,1,0.6,4.5,0.794,0.35,0.0168,0.4,266.07,0,0,0,-53.015,0,0,0,0,0,267.05,0,0,0,0,0,0,0,0,0,0,0,0,0,0,0,0,0,VALID,0,0,0,0,0,1,0,0,0,0,0,0,0,0,0,0,0,0,0,0,1729.55,1752.3,6,0,0.66,0.5,38,1.52,0.66,0.66,25.54,FLYING
