t_s,phase,subphase,ias_ms,vapp_ms,spd_err_ms,agl_m,vs_ms,pitch_deg,aoa_deg,hdg_deg,bank_deg,thr_cmd,thr_intg,aa_hdg_cmd_deg,aa_fpa_cmd_deg,ils_loc_m,ils_gs_m,ils_dist_km,loc_corr_deg,gs_corr_deg,flare_fpa_cmd,flare_tgt_vs,flare_frac,steer_hdg_deg,steer_blend,ro_loc_corr_deg,ro_hdg_err_deg,ro_yaw_tgt,ro_yaw_scale,ro_yaw_gate,yaw_cmd,roll_cmd,pitch_cmd,ro_roll_assist,flaps_cur,flaps_tgt,phase_el_s,status
113.02,APPROACH,ILS_TRACK,75.64,76,0.36,34.15,-4.14,3.61,6.62,270.4,0.009,0.176,13.034,270.38,-3.052,0.47,0.21,0.424,-0.018,-0.052,0,0,0,270.4,0,0,0,0,0,0,0,0,0,0,1,1,113.06,FLYING
113.22,APPROACH,ILS_TRACK,75.6,76,0.4,32.44,-4.14,3.62,6.63,270.4,0.009,0.179,13.112,270.38,-3.051,0.47,0.21,0.409,-0.018,-0.051,0,0,0,270.4,0,0,0,0,0,0,0,0,0,0,1,1,113.26,FLYING
113.44,FLARE,ILS_TRACK,75.56,76,0.44,30.71,-4.14,3.62,6.63,270.4,0.008,0.1821,13.199,270.38,-3.051,0.47,0.21,0.393,-0.018,-0.051,-3.136,0,0,270.4,0,0,0,0,0,0,0,0,0,0,1,1,0.06,FLYING
113.62,FLARE,ILS_TRACK,75.53,76,0.47,26.2,-4.14,3.63,6.64,270.4,0.008,0,13.199,270.4,-2.6,0.47,0.21,0.393,-0.018,-0.051,-2.6,-2.5,0.081,270.4,0,0,0,0,0,0,0,0,0,0,1,1,0.22,FLYING
113.78,FLARE,ILS_TRACK,75.5,76,0.5,24.27,-4.12,3.74,6.75,270.4,0.009,0,13.199,270.4,-2.243,0.47,0.21,0.393,-0.018,-0.051,-2.243,-2.5,0.193,270.4,0,0,0,0,0,0,0,0,0,0,1,1,0.38,FLYING
113.94,FLARE,ILS_TRACK,75.47,76,0.53,22.6,-4.11,3.91,6.88,270.4,0.008,0,13.199,270.4,-1.897,0.47,0.21,0.393,-0.018,-0.051,-1.897,-2.5,0.247,270.4,0,0,0,0,0,0,0,0,0,0,1,1,0.54,FLYING
114.1,FLARE,ILS_TRACK,75.41,76,0.59,20.94,-3.99,4.11,7.03,270.4,0.008,0,13.199,270.4,-1.898,0.47,0.21,0.393,-0.018,-0.051,-1.898,-2.5,0.301,270.4,0,0,0,0,0,0,0,0,0,0,1,1,0.7,FLYING
114.26,FLARE,ILS_TRACK,75.35,76,0.65,19.29,-3.89,4.16,7,270.4,0.008,0,13.199,270.4,-1.9,0.47,0.21,0.393,-0.018,-0.051,-1.9,-2.5,0.354,270.4,0,0,0,0,0,0,0,0,0,0,1,1,0.86,FLYING
114.42,FLARE,ILS_TRACK,75.27,76,0.73,17.83,-3.81,4.21,6.99,270.4,0.007,0,13.199,270.4,-1.902,0.47,0.21,0.393,-0.018,-0.051,-1.902,-2.5,0.408,270.4,0,0,0,0,0,0,0,0,0,0,1,1,1.02,FLYING
114.58,FLARE,ILS_TRACK,75.19,76,0.81,17.25,-3.73,4.27,7,270.4,0.006,0,13.199,270.4,-1.829,0.47,0.21,0.393,-0.018,-0.051,-1.829,-2.401,0.434,270.4,0,0,0,0,0,0,0,0,0,0,1,1,1.18,FLYING
114.76,FLARE,ILS_TRACK,75.08,76,0.92,16.62,-3.64,4.36,7.03,270.4,0.005,0,13.199,270.4,-1.766,0.47,0.21,0.393,-0.018,-0.051,-1.766,-2.315,0.454,270.4,0,0,0,0,0,0,0,0,0,0,1,1,1.36,FLYING
114.92,FLARE,ILS_TRACK,74.98,76,1.02,16.08,-3.55,4.45,7.06,270.4,0.005,0,13.199,270.4,-1.711,0.47,0.21,0.393,-0.018,-0.051,-1.711,-2.241,0.472,270.4,0,0,0,0,0,0,0,0,0,0,1,1,1.52,FLYING
115.08,FLARE,ILS_TRACK,74.88,76,1.12,15.54,-3.47,4.52,7.06,270.4,0.005,0,13.199,270.4,-1.658,0.47,0.21,0.393,-0.018,-0.051,-1.658,-2.168,0.49,270.4,0,0,0,0,0,0,0,0,0,0,1,1,1.68,FLYING
115.24,FLARE,ILS_TRACK,74.76,76,1.24,15.02,-3.39,4.59,7.08,270.4,0.005,0,13.199,270.4,-1.606,0.47,0.21,0.393,-0.018,-0.051,-1.606,-2.097,0.507,270.4,0,0,0,0,0,0,0,0,0,0,1,1,1.84,FLYING
115.4,FLARE,ILS_TRACK,74.64,76,1.36,14.52,-3.31,4.67,7.11,270.4,0.005,0,13.199,270.4,-1.556,0.47,0.21,0.393,-0.018,-0.051,-1.556,-2.028,0.523,270.4,0,0,0,0,0,0,0,0,0,0,1,1,2,FLYING
115.56,FLARE,ILS_TRACK,74.51,76,1.49,14.02,-3.22,4.75,7.13,270.4,0.005,0,13.199,270.4,-1.506,0.47,0.21,0.393,-0.018,-0.051,-1.506,-1.96,0.539,270.4,0,0,0,0,0,0,0,0,0,0,1,1,2.16,FLYING
115.72,FLARE,ILS_TRACK,74.38,76,1.62,13.54,-3.14,4.83,7.15,270.4,0.006,0,13.199,270.4,-1.459,0.47,0.21,0.393,-0.018,-0.051,-1.459,-1.895,0.555,270.4,0,0,0,0,0,0,0,0,0,0,1,1,2.32,FLYING
115.9,FLARE,ILS_TRACK,74.22,76,1.78,13.01,-3.05,4.91,7.18,270.4,0.006,0,13.199,270.4,-1.406,0.47,0.21,0.393,-0.018,-0.051,-1.406,-1.823,0.572,270.4,0,0,0,0,0,0,0,0,0,0,1,1,2.5,FLYING
116.06,FLARE,ILS_TRACK,74.08,76,1.92,12.56,-2.97,4.99,7.2,270.4,0.006,0,13.199,270.4,-1.361,0.47,0.21,0.393,-0.018,-0.051,-1.361,-1.761,0.587,270.4,0,0,0,0,0,0,0,0,0,0,1,1,2.66,FLYING
116.22,FLARE,ILS_TRACK,73.93,76,2.07,12.12,-2.89,5.08,7.23,270.4,0.006,0,13.199,270.4,-1.317,0.47,0.21,0.393,-0.018,-0.051,-1.317,-1.7,0.602,270.4,0,0,0,0,0,0,0,0,0,0,1,1,2.82,FLYING
116.38,FLARE,ILS_TRACK,73.78,76,2.22,11.69,-2.81,5.15,7.25,270.4,0.006,0,13.199,270.4,-1.274,0.47,0.21,0.393,-0.018,-0.051,-1.274,-1.641,0.616,270.4,0,0,0,0,0,0,0,0,0,0,1,1,2.98,FLYING
116.54,FLARE,ILS_TRACK,73.63,76,2.37,11.27,-2.74,5.22,7.27,270.4,0.006,0,13.199,270.4,-1.232,0.47,0.21,0.393,-0.018,-0.051,-1.232,-1.584,0.63,270.4,0,0,0,0,0,0,0,0,0,0,1,1,3.14,FLYING
116.7,FLARE,ILS_TRACK,73.47,76,2.53,10.86,-2.67,5.3,7.3,270.4,0.007,0,13.199,270.4,-1.192,0.47,0.21,0.393,-0.018,-0.051,-1.192,-1.529,0.643,270.4,0,0,0,0,0,0,0,0,0,0,1,1,3.3,FLYING
116.86,FLARE,ILS_TRACK,73.3,76,2.7,10.47,-2.59,5.38,7.32,270.41,0.007,0,13.199,270.4,-1.152,0.47,0.21,0.393,-0.018,-0.051,-1.152,-1.475,0.656,270.4,0,0,0,0,0,0,0,0,0,0,1,1,3.46,FLYING
117.04,FLARE,ILS_TRACK,73.11,76,2.89,10.04,-2.51,5.46,7.35,270.41,0.008,0,13.199,270.4,-1.109,0.47,0.21,0.393,-0.018,-0.051,-1.109,-1.416,0.67,270.4,0,0,0,0,0,0,0,0,0,0,1,1,3.64,FLYING
117.2,FLARE,ILS_TRACK,72.94,76,3.06,9.67,-2.44,5.54,7.37,270.41,0.008,0,13.199,270.4,-1.072,0.47,0.21,0.393,-0.018,-0.051,-1.072,-1.365,0.682,270.4,0,0,0,0,0,0,0,0,0,0,1,1,3.8,FLYING
117.36,FLARE,ILS_TRACK,72.77,76,3.23,9.31,-2.37,5.61,7.4,270.41,0.01,0,13.199,270.4,-1.036,0.47,0.21,0.393,-0.018,-0.051,-1.036,-1.316,0.694,270.4,0,0,0,0,0,0,0,0,0,0,1,1,3.96,FLYING
117.52,FLARE,ILS_TRACK,72.59,76,3.41,8.96,-2.3,5.68,7.42,270.41,0.01,0,13.199,270.4,-1,0.47,0.21,0.393,-0.018,-0.051,-1,-1.269,0.705,270.4,0,0,0,0,0,0,0,0,0,0,1,1,4.12,FLYING
117.68,FLARE,ILS_TRACK,72.41,76,3.59,8.62,-2.24,5.76,7.46,270.41,0.011,0,13.199,270.4,-0.966,0.47,0.21,0.393,-0.018,-0.051,-0.966,-1.222,0.717,270.4,0,0,0,0,0,0,0,0,0,0,1,1,4.28,FLYING
117.84,FLARE,ILS_TRACK,72.23,76,3.77,8.29,-2.17,5.84,7.49,270.41,0.011,0,13.199,270.4,-0.933,0.47,0.21,0.393,-0.018,-0.051,-0.933,-1.177,0.727,270.4,0,0,0,0,0,0,0,0,0,0,1,1,4.44,FLYING
118,FLARE,ILS_TRACK,72.05,76,3.95,7.97,-2.11,5.91,7.51,270.41,0.012,0,13.199,270.4,-0.901,0.47,0.21,0.393,-0.018,-0.051,-0.901,-1.134,0.738,270.4,0,0,0,0,0,0,0,0,0,0,1,1,4.6,FLYING
118.18,FLARE,ILS_TRACK,71.84,76,4.16,7.59,-2.04,5.99,7.55,270.41,0.011,0,13.199,270.4,-0.866,0.47,0.21,0.393,-0.018,-0.051,-0.866,-1.086,0.749,270.4,0,0,0,0,0,0,0,0,0,0,1,1,4.78,FLYING
118.34,FLARE,ILS_TRACK,71.65,76,4.35,7.29,-1.98,6.06,7.58,270.41,0.011,0,13.199,270.4,-0.832,0.47,0.21,0.393,-0.018,-0.051,-0.832,-1.041,0.76,270.4,0,0,0,0,0,0,0,0,0,0,1,1,4.94,FLYING
118.5,FLARE,ILS_TRACK,71.46,76,4.54,7,-1.92,6.14,7.62,270.41,0.012,0,13.199,270.4,-0.803,0.47,0.21,0.393,-0.018,-0.051,-0.803,-1.002,0.769,270.4,0,0,0,0,0,0,0,0,0,0,1,1,5.1,FLYING
118.66,FLARE,ILS_TRACK,71.27,76,4.73,6.72,-1.87,6.21,7.65,270.41,0.012,0,13.199,270.4,-0.774,0.47,0.21,0.393,-0.018,-0.051,-0.774,-0.964,0.779,270.4,0,0,0,0,0,0,0,0,0,0,1,1,5.26,FLYING
118.82,FLARE,ILS_TRACK,71.07,76,4.93,6.45,-1.81,6.29,7.69,270.41,0.014,0,13.199,270.4,-0.746,0.47,0.21,0.393,-0.018,-0.051,-0.746,-0.926,0.788,270.4,0,0,0,0,0,0,0,0,0,0,1,1,5.42,FLYING
118.98,FLARE,ILS_TRACK,70.88,76,5.12,6.19,-1.75,6.37,7.72,270.41,0.015,0,13.199,270.4,-0.719,0.47,0.21,0.393,-0.018,-0.051,-0.719,-0.891,0.796,270.4,0,0,0,0,0,0,0,0,0,0,1,1,5.58,FLYING
119.14,FLARE,ILS_TRACK,70.68,76,5.32,5.93,-1.7,6.44,7.76,270.41,0.017,0,13.199,270.4,-0.693,0.47,0.21,0.393,-0.018,-0.051,-0.693,-0.856,0.805,270.4,0,0,0,0,0,0,0,0,0,0,1,1,5.74,FLYING
119.32,FLARE,ILS_TRACK,70.45,76,5.55,5.65,-1.64,6.51,7.79,270.41,0.02,0,13.199,270.4,-0.665,0.47,0.21,0.393,-0.018,-0.051,-0.665,-0.818,0.814,270.4,0,0,0,0,0,0,0,0,0,0,1,1,5.92,FLYING
119.48,FLARE,ILS_TRACK,70.25,76,5.75,5.41,-1.59,6.58,7.82,270.41,0.021,0,13.199,270.4,-0.64,0.47,0.21,0.393,-0.018,-0.051,-0.64,-0.786,0.822,270.4,0,0,0,0,0,0,0,0,0,0,1,1,6.08,FLYING
119.64,FLARE,ILS_TRACK,70.05,76,5.95,5.18,-1.54,6.65,7.86,270.41,0.021,0,13.199,270.4,-0.616,0.47,0.21,0.393,-0.018,-0.051,-0.616,-0.754,0.829,270.4,0,0,0,0,0,0,0,0,0,0,1,1,6.24,FLYING
119.8,FLARE,ILS_TRACK,69.84,76,6.16,4.96,-1.49,6.72,7.89,270.41,0.023,0,13.199,270.4,-0.593,0.47,0.21,0.393,-0.018,-0.051,-0.593,-0.724,0.836,270.4,0,0,0,0,0,0,0,0,0,0,1,1,6.4,FLYING
119.96,FLARE,ILS_TRACK,69.64,76,6.36,4.75,-1.45,6.79,7.93,270.41,0.024,0,13.199,270.4,-0.571,0.47,0.21,0.393,-0.018,-0.051,-0.571,-0.694,0.843,270.4,0,0,0,0,0,0,0,0,0,0,1,1,6.56,FLYING
120.12,FLARE,ILS_TRACK,69.43,76,6.57,4.54,-1.4,6.86,7.97,270.41,0.025,0,13.199,270.4,-0.549,0.47,0.21,0.393,-0.018,-0.051,-0.549,-0.666,0.85,270.4,0,0,0,0,0,0,0,0,0,0,1,1,6.72,FLYING
120.28,FLARE,ILS_TRACK,69.22,76,6.78,4.33,-1.36,6.93,8,270.41,0.026,0,13.199,270.4,-0.528,0.47,0.21,0.393,-0.018,-0.051,-0.528,-0.639,0.857,270.4,0,0,0,0,0,0,0,0,0,0,1,1,6.88,FLYING
120.46,FLARE,ILS_TRACK,68.99,76,7.01,4.11,-1.31,7,8.05,270.41,0.026,0,13.199,270.4,-0.505,0.47,0.21,0.393,-0.018,-0.051,-0.505,-0.609,0.864,270.4,0,0,0,0,0,0,0,0,0,0,1,1,7.06,FLYING
120.62,FLARE,ILS_TRACK,68.78,76,7.22,3.93,-1.28,7.07,8.09,270.41,0.028,0,13.199,270.4,-0.485,0.47,0.21,0.393,-0.018,-0.051,-0.485,-0.583,0.87,270.4,0,0,0,0,0,0,0,0,0,0,1,1,7.22,FLYING
120.78,FLARE,ILS_TRACK,68.57,76,7.43,3.74,-1.24,7.14,8.13,270.42,0.027,0,13.199,270.4,-0.466,0.47,0.21,0.393,-0.018,-0.051,-0.466,-0.558,0.876,270.4,0,0,0,0,0,0,0,0,0,0,1,1,7.38,FLYING
120.94,FLARE,ILS_TRACK,68.35,76,7.65,3.56,-1.2,7.21,8.17,270.42,0.03,0,13.199,270.4,-0.447,0.47,0.21,0.393,-0.018,-0.051,-0.447,-0.534,0.882,270.4,0,0,0,0,0,0,0,0,0,0,1,1,7.54,FLYING
121.1,FLARE,ILS_TRACK,68.14,76,7.86,3.39,-1.16,7.27,8.2,270.42,0.034,0,13.199,270.4,-0.429,0.47,0.21,0.393,-0.018,-0.051,-0.429,-0.511,0.888,270.4,0,0,0,0,0,0,0,0,0,0,1,1,7.7,FLYING
121.26,FLARE,ILS_TRACK,67.92,76,8.08,3.22,-1.13,7.33,8.24,270.42,0.034,0,13.199,270.4,-0.411,0.47,0.21,0.393,-0.018,-0.051,-0.411,-0.488,0.893,270.4,0,0,0,0,0,0,0,0,0,0,1,1,7.86,FLYING
121.42,FLARE,ILS_TRACK,67.71,76,8.29,3.06,-1.1,7.41,8.29,270.42,0.034,0,13.199,270.4,-0.394,0.47,0.21,0.393,-0.018,-0.051,-0.394,-0.466,0.899,270.4,0,0,0,0,0,0,0,0,0,0,1,1,8.02,FLYING
121.6,FLARE,ILS_TRACK,67.46,76,8.54,2.89,-1.07,7.48,8.35,270.42,0.035,0,13.199,270.4,-0.375,0.47,0.21,0.393,-0.018,-0.051,-0.375,-0.442,0.905,270.4,0,0,0,0,0,0,0,0,0,0,1,1,8.2,FLYING
121.76,FLARE,ILS_TRACK,67.25,76,8.75,2.73,-1.04,7.55,8.39,270.42,0.036,0,13.199,270.4,-0.359,0.47,0.21,0.393,-0.018,-0.051,-0.359,-0.421,0.909,270.4,0,0,0,0,0,0,0,0,0,0,1,1,8.36,FLYING
121.92,FLARE,ILS_TRACK,67.03,76,8.97,2.59,-1.01,7.61,8.44,270.42,0.037,0,13.199,270.4,-0.343,0.47,0.21,0.393,-0.018,-0.051,-0.343,-0.402,0.914,270.4,0,0,0,0,0,0,0,0,0,0,1,1,8.52,FLYING
122.08,FLARE,ILS_TRACK,66.81,76,9.19,2.44,-0.98,7.68,8.48,270.42,0.038,0,13.199,270.4,-0.327,0.47,0.21,0.393,-0.018,-0.051,-0.327,-0.382,0.919,270.4,0,0,0,0,0,0,0,0,0,0,1,1,8.68,FLYING
122.24,FLARE,ILS_TRACK,66.59,76,9.41,2.31,-0.95,7.75,8.53,270.42,0.039,0,13.199,270.4,-0.327,0.47,0.21,0.393,-0.018,-0.051,-0.327,-0.363,0.924,270.4,0,0,0,0,0,0,0,0,0,0,1,1,8.84,LANDED
122.4,FLARE,ILS_TRACK,66.22,76,9.78,2.19,-0.09,6.84,7.2,270.42,0.039,0,13.199,270.4,-0.299,0.47,0.21,0.393,-0.018,-0.051,-0.299,-0.347,0.928,270.4,0,0,0,0,0,0,0,0,0,0,1,1,9,LANDED
122.56,TOUCHDOWN,ILS_TRACK,65.57,76,10.43,2,-0.26,4.07,4.66,270.42,0.04,0,13.199,270.4,-0.284,0.47,0.21,0.393,-0.018,-0.051,-0.284,-0.326,0.933,270.4,0,0,0,0,0,0,0,0,0,0,1,1,0.04,LANDED
122.72,TOUCHDOWN,ILS_TRACK,65.28,76,10.72,1.72,-0.59,0.58,1.51,270.43,0.042,0,13.199,270.4,-0.284,0.47,0.21,0.393,-0.018,-0.051,-0.284,-0.326,0.933,270.4,0,0,0,0,0,0,0,0,0,0,1,1,0.2,LANDED
122.84,ROLLOUT,ILS_TRACK,65.18,76,10.82,1.54,0.05,-1.74,-1.53,270.43,0.047,0,13.199,270.4,-0.284,0.47,0.21,0.393,-0.018,-0.051,-0.284,-0.326,0.933,270.4,0,0,0,0,0,0,0,0,0,0,1,1,0.06,LANDED
123.04,ROLLOUT,ILS_TRACK,64.99,76,11.01,1.56,-0.06,-1.32,-1.28,270.42,0.053,0,13.199,270.4,-0.284,0.47,0.21,0.393,-0.018,-0.051,-0.284,-0.326,0.933,270.4,0.598,-0.012,0.022,-0.0001,0.197,0,-0.0001,0,0,0,1,1,0.24,LANDED
123.24,ROLLOUT,ILS_TRACK,64.76,76,11.24,1.62,-0.03,-0.71,-0.77,270.4,0.044,0,13.199,270.4,-0.284,0.47,0.21,0.393,-0.018,-0.051,-0.284,-0.326,0.933,270.4,0.603,-0.012,0.006,0,0.207,0,0,0,0,0,1,1,0.44,LANDED
123.44,ROLLOUT,ILS_TRACK,64.64,76,11.36,1.64,-0.04,-0.42,-0.41,270.38,0.012,0,13.199,270.4,-0.284,0.47,0.21,0.393,-0.018,-0.051,-0.284,-0.326,0.933,270.4,0.606,-0.012,-0.018,0.0001,0.213,0,0.0001,0,0,0,1,1,0.64,LANDED
123.64,ROLLOUT,ILS_TRACK,64.54,76,11.46,1.66,-0.02,-0.14,-0.15,270.41,0.01,0,13.199,270.4,-0.284,0.47,0.21,0.393,-0.018,-0.051,-0.284,-0.326,0.933,270.4,0.608,-0.012,0,0,0.217,0,0,0,0,0,1,1,0.84,LANDED
123.86,ROLLOUT,ILS_TRACK,64.44,76,11.56,1.66,-0.07,-0.13,-0.05,270.45,0.1,0,13.199,270.4,-0.284,0.47,0.21,0.393,-0.018,-0.051,-0.284,-0.326,0.933,270.4,0.61,-0.012,0.047,-0.0003,0.221,0,-0.0003,0,0,0,1,1,1.06,LANDED
124.06,ROLLOUT,ILS_TRACK,64.34,76,11.66,1.66,-0.04,-0.23,-0.2,270.4,0.134,0,13.199,270.4,-0.284,0.47,0.21,0.393,-0.018,-0.051,-0.284,-0.326,0.933,270.4,0.612,-0.012,0.015,-0.0001,0.225,0,-0.0001,0,0,0,1,1,1.26,LANDED
124.26,ROLLOUT,ILS_TRACK,64.24,76,11.76,1.66,-0.06,-0.17,-0.12,270.34,0.011,0,13.199,270.4,-0.284,0.47,0.21,0.393,-0.018,-0.051,-0.284,-0.326,0.933,270.4,0.614,-0.012,-0.063,0.0004,0.229,0,0.0004,0,0,0,1,1,1.46,LANDED
124.46,ROLLOUT,ILS_TRACK,64.14,76,11.86,1.66,-0.05,-0.19,-0.15,270.42,-0.052,0,13.199,270.4,-0.284,0.47,0.21,0.393,-0.018,-0.051,-0.284,-0.326,0.933,270.4,0.616,-0.012,-0.013,0.0001,0.233,0,0.0001,0,0,0,1,1,1.66,LANDED
124.66,ROLLOUT,ILS_TRACK,64.03,76,11.97,1.66,-0.05,-0.17,-0.13,270.51,0.128,0,13.199,270.4,-0.284,0.47,0.21,0.393,-0.018,-0.051,-0.284,-0.326,0.933,270.4,0.618,-0.012,0.101,-0.0006,0.237,0,-0.0006,0,0,0,1,1,1.86,LANDED
124.88,ROLLOUT,ILS_TRACK,63.91,76,12.09,1.66,-0.04,-0.19,-0.15,270.37,0.212,0,13.199,270.4,-0.284,0.47,0.21,0.393,-0.018,-0.051,-0.284,-0.326,0.933,270.4,0.621,-0.012,0.01,-0.0001,0.242,0,-0.0001,0,0,0,1,1,2.08,LANDED
125.08,ROLLOUT,ILS_TRACK,63.8,76,12.2,1.66,-0.05,-0.17,-0.13,270.23,-0.085,0,13.199,270.4,-0.284,0.47,0.21,0.393,-0.018,-0.051,-0.284,-0.326,0.933,270.4,0.623,-0.012,-0.164,0.001,0.246,0,0.001,0,0,0,1,1,2.28,LANDED
125.28,ROLLOUT,ILS_TRACK,63.69,76,12.31,1.66,-0.04,-0.18,-0.15,270.43,-0.208,0,13.199,270.4,-0.284,0.47,0.21,0.393,-0.018,-0.051,-0.284,-0.326,0.933,270.4,0.625,-0.012,-0.037,0.0002,0.251,0,0.0002,0,0,0,1,1,2.48,LANDED
125.48,ROLLOUT,ILS_TRACK,63.58,76,12.42,1.65,-0.01,-0.29,-0.29,270.66,0.29,0,13.199,270.4,-0.284,0.47,0.21,0.393,-0.018,-0.051,-0.284,-0.326,0.933,270.4,0.628,-0.012,0.252,-0.0016,0.255,0,-0.0016,0,0,0,1,1,2.68,LANDED
125.68,ROLLOUT,ILS_TRACK,63.47,76,12.53,1.67,-0.04,-0.04,-0.01,270.25,0.423,0,13.199,270.4,-0.284,0.47,0.21,0.393,-0.018,-0.051,-0.284,-0.326,0.933,270.4,0.63,-0.013,-0.042,0.0003,0.26,0,0.0003,0,0,0,1,1,2.88,LANDED
125.9,ROLLOUT,ILS_TRACK,63.34,76,12.66,1.66,-0.04,-0.23,-0.19,269.84,-0.533,0,13.199,270.4,-0.284,0.47,0.21,0.393,-0.018,-0.051,-0.284,-0.326,0.933,270.4,0.632,-0.012,-0.542,0.0036,0.264,0,0.0036,0,0,0,1,1,3.1,LANDED
126.1,ROLLOUT,ILS_TRACK,63.23,76,12.77,1.66,-0.04,-0.19,-0.16,270.17,-0.908,0,13.199,270.4,-0.284,0.47,0.21,0.393,-0.018,-0.051,-0.284,-0.326,0.933,270.4,0.634,-0.01,-0.353,0.0024,0.269,0,0.0024,0,0,0,1,1,3.3,LANDED
126.3,ROLLOUT,ILS_TRACK,63.12,76,12.88,1.66,-0.03,-0.15,-0.12,270.96,0.228,0,13.199,270.4,-0.284,0.47,0.21,0.393,-0.018,-0.051,-0.284,-0.326,0.933,270.4,0.637,-0.009,0.39,-0.0027,0.273,0,-0.0027,0,0,0,1,1,3.5,LANDED
126.5,ROLLOUT,ILS_TRACK,63.01,76,12.99,1.66,-0.04,-0.19,-0.17,271.51,1.969,0,13.199,270.4,-0.284,0.47,0.21,0.393,-0.018,-0.051,-0.284,-0.326,0.933,270.4,0.639,-0.01,1.054,-0.0073,0.278,0,-0.0073,0,0,0,1,1,3.7,LANDED
126.7,ROLLOUT,ILS_TRACK,62.9,76,13.1,1.66,0.03,-0.5,-0.5,271.34,2.089,0,13.199,270.4,-0.284,0.47,0.21,0.393,-0.018,-0.051,-0.284,-0.326,0.933,270.4,0.641,-0.014,1.03,-0.0073,0.282,0,-0.0073,0,0,0,1,1,3.9,LANDED
126.92,ROLLOUT,ILS_TRACK,62.78,76,13.22,1.65,-0.08,-0.6,-0.57,270.54,-0.259,0,13.199,270.4,-0.284,0.47,0.21,0.393,-0.018,-0.051,-0.284,-0.326,0.933,270.4,0.644,-0.02,0.324,-0.0023,0.287,0,-0.0023,0,0,0,1,1,4.12,LANDED
127.12,ROLLOUT,ILS_TRACK,62.66,76,13.34,1.66,-0.02,-0.21,-0.15,269.51,-2.928,0,13.199,270.4,-0.284,0.47,0.21,0.393,-0.018,-0.051,-0.284,-0.326,0.933,270.39,0.646,-0.023,-0.67,0.0049,0.292,0,0.0049,0,0,0,1,1,4.32,LANDED
127.32,ROLLOUT,ILS_TRACK,62.54,76,13.46,1.67,0.07,-0.5,-0.56,268.48,-3.536,0,13.199,270.4,-0.284,0.47,0.21,0.393,-0.018,-0.051,-0.284,-0.326,0.933,270.4,0.648,-0.021,-1.73,0.0128,0.296,0,0.0128,0,0,0,1,1,4.52,LANDED
127.52,ROLLOUT,ILS_TRACK,62.43,76,13.57,1.67,0.1,-1.05,-1.15,267.68,-2.751,0,13.199,270.4,-0.284,0.47,0.21,0.393,-0.018,-0.051,-0.284,-0.326,0.933,270.4,0.651,-0.014,-2.583,0.0194,0.301,0,0.0194,0,0,0,1,1,4.72,LANDED
127.72,ROLLOUT,ILS_TRACK,62.32,76,13.68,1.66,-0.1,-1.09,-1.03,267.47,-1.563,0,13.199,270.4,-0.284,0.47,0.21,0.393,-0.018,-0.051,-0.284,-0.326,0.933,270.41,0.653,-0.003,-2.98,0.0228,0.305,0,0.0228,0,0,0,1,1,4.92,LANDED
127.94,ROLLOUT,ILS_TRACK,62.2,76,13.8,1.66,-0.08,-0.59,-0.54,268.19,0.525,0,13.199,270.4,-0.284,0.47,0.21,0.393,-0.018,-0.051,-0.284,-0.326,0.933,270.42,0.655,0.013,-2.395,0.0186,0.31,0,0.0186,0,0,0,1,1,5.14,LANDED
128.14,ROLLOUT,ILS_TRACK,62.09,76,13.91,1.66,-0.03,-0.5,-0.49,269.19,2.573,0,13.199,270.4,-0.284,0.47,0.21,0.393,-0.018,-0.051,-0.284,-0.326,0.933,270.42,0.657,0.024,-1.447,0.0114,0.315,0,0.0114,0,0,0,1,1,5.34,LANDED
128.34,ROLLOUT,ILS_TRACK,61.97,76,14.03,1.66,0.04,-0.67,-0.72,270.42,3.325,0,13.199,270.4,-0.284,0.47,0.21,0.393,-0.018,-0.051,-0.284,-0.326,0.933,270.43,0.66,0.032,-0.278,0.0022,0.319,0,0.0022,0,0,0,1,1,5.54,LANDED
128.54,ROLLOUT,ILS_TRACK,61.85,76,14.15,1.66,0.21,-0.82,-0.98,271.93,3.264,0,13.199,270.4,-0.284,0.47,0.21,0.393,-0.018,-0.051,-0.284,-0.326,0.933,270.43,0.662,0.033,1.18,-0.0096,0.324,0,-0.0096,0,0,0,1,1,5.74,LANDED
128.74,ROLLOUT,ILS_TRACK,61.73,76,14.27,1.67,-0.02,-1.14,-1.15,273.53,2.769,0,13.199,270.4,-0.284,0.47,0.21,0.393,-0.018,-0.051,-0.284,-0.326,0.933,270.43,0.664,0.029,2.791,-0.0229,0.329,0,-0.0229,0,0,0,1,1,5.94,LANDED
128.94,ROLLOUT,ILS_TRACK,61.59,76,14.41,1.67,-0.05,-1.05,-1.08,275.17,2.38,0,13.199,270.4,-0.284,0.47,0.21,0.393,-0.018,-0.051,-0.284,-0.326,0.933,270.42,0.667,0.017,4.452,-0.0372,0.334,0,-0.0372,0,0,0,1,1,6.16,LANDED
129.14,ROLLOUT,ILS_TRACK,61.46,76,14.54,1.66,-0.18,-0.82,-0.71,276.53,2.048,0,13.199,270.4,-0.284,0.47,0.21,0.393,-0.018,-0.051,-0.284,-0.326,0.933,270.41,0.67,-0.001,5.874,-0.0499,0.339,0,-0.0499,0,0,0,1,1,6.36,LANDED
129.34,ROLLOUT,ILS_TRACK,61.34,76,14.66,1.65,-0.02,-0.71,-0.72,277.56,2.207,0,13.199,270.4,-0.284,0.47,0.21,0.393,-0.018,-0.051,-0.284,-0.326,0.933,270.39,0.672,-0.025,6.996,-0.0602,0.344,0,-0.0602,0,0,0,1,1,6.56,LANDED
129.54,ROLLOUT,ILS_TRACK,61.23,76,14.77,1.66,-0.01,-0.67,-0.66,277.9,2.059,0,13.199,270.4,-0.284,0.47,0.21,0.393,-0.018,-0.051,-0.284,-0.326,0.933,270.37,0.674,-0.055,7.544,-0.0658,0.349,0,-0.0658,0,0,0,1,1,6.76,LANDED
129.74,ROLLOUT,ILS_TRACK,61.13,76,14.87,1.65,-0.04,-0.73,-0.7,277.34,0.95,0,13.199,270.4,-0.284,0.47,0.21,0.393,-0.018,-0.051,-0.284,-0.326,0.933,270.35,0.677,-0.088,7.156,-0.0632,0.353,0,-0.0632,0,0,0,1,1,6.96,LANDED
129.96,ROLLOUT,ILS_TRACK,61.01,76,14.99,1.65,-0.04,-0.6,-0.6,276.06,-1.929,0,13.199,270.4,-0.284,0.47,0.21,0.393,-0.018,-0.051,-0.284,-0.326,0.933,270.32,0.679,-0.123,6.018,-0.0538,0.358,0,-0.0538,0,0,0,1,1,7.18,LANDED
130.16,ROLLOUT,ILS_TRACK,60.88,76,15.12,1.66,0.11,-0.54,-0.69,274.25,-3.638,0,13.199,270.4,-0.284,0.47,0.21,0.393,-0.018,-0.051,-0.284,-0.326,0.933,270.31,0.681,-0.151,4.369,-0.0396,0.363,0,-0.0396,0,0,0,1,1,7.38,LANDED
130.36,ROLLOUT,ILS_TRACK,60.74,76,15.26,1.68,0.29,-1.08,-1.38,271.91,-4.16,0,13.199,270.4,-0.284,0.47,0.21,0.393,-0.018,-0.051,-0.284,-0.326,0.933,270.29,0.684,-0.172,2.094,-0.0193,0.368,0,-0.0193,0,0,0,1,1,7.58,LANDED
130.56,ROLLOUT,ILS_TRACK,60.59,76,15.41,1.65,0.05,-1.94,-2.05,269.69,-4.84,0,13.199,270.4,-0.284,0.47,0.21,0.393,-0.018,-0.051,-0.284,-0.326,0.933,270.28,0.687,-0.183,-0.136,0.0013,0.374,0,0.0013,0,0,0,1,1,7.78,LANDED
130.76,ROLLOUT,ILS_TRACK,60.43,76,15.57,1.66,0.09,-2.1,-2.34,267.15,-6.138,0,13.199,270.4,-0.284,0.47,0.21,0.393,-0.018,-0.051,-0.284,-0.326,0.933,270.28,0.69,-0.185,-2.593,0.0246,0.38,0,0.0246,0,0,0,1,1,7.98,LANDED
130.98,ROLLOUT,ILS_TRACK,60.26,76,15.74,1.66,0.06,-2.43,-2.65,264.44,-7.525,0,13.199,270.4,-0.284,0.47,0.21,0.393,-0.018,-0.051,-0.284,-0.326,0.933,270.29,0.694,-0.176,-5.396,0.0522,0.387,0,0.0522,0,0,0,1,1,8.2,LANDED
131.18,ROLLOUT,ILS_TRACK,60.1,76,15.9,1.65,0.04,-2.8,-2.98,262.59,-8.403,0,13.199,270.4,-0.284,0.47,0.21,0.393,-0.018,-0.051,-0.284,-0.326,0.933,270.3,0.697,-0.155,-7.389,0.0727,0.394,0,0.0727,0,0,0,1,1,8.4,LANDED
131.38,ROLLOUT,ILS_TRACK,59.97,76,16.03,1.64,-0.02,-2.96,-3.06,261.33,-8.619,0,13.199,270.4,-0.284,0.47,0.21,0.393,-0.018,-0.051,-0.284,-0.326,0.933,270.32,0.7,-0.126,-8.779,0.0876,0.399,0,0.0876,0,0,0,1,1,8.6,LANDED
131.6,ROLLOUT,ILS_TRACK,59.86,76,16.14,1.64,-0.08,-2.83,-2.82,260.67,-7.975,0,13.199,270.4,-0.284,0.47,0.21,0.393,-0.018,-0.051,-0.284,-0.326,0.933,270.34,0.702,-0.089,-9.618,0.0971,0.404,0,0.0971,0,0,0,1,1,8.8,LANDED
131.8,ROLLOUT,ILS_TRACK,59.74,76,16.26,1.63,-0.23,-2.52,-2.33,261,-5.792,0,13.199,270.4,-0.284,0.47,0.21,0.393,-0.018,-0.051,-0.284,-0.326,0.933,270.37,0.704,-0.048,-9.517,0.0971,0.408,0,0.0971,0,0,0,1,1,9,LANDED
132.02,ROLLOUT,ILS_TRACK,59.4,76,16.6,1.62,-0.33,-1.4,-1.14,262.45,-0.249,0,13.199,270.4,-0.284,0.47,0.21,0.393,-0.018,-0.051,-0.284,-0.326,0.933,270.41,0.709,-0.002,-8.301,0.0867,0.418,0,0.0867,0,0,0,1,1,9.22,LANDED
132.22,ROLLOUT,ILS_TRACK,58.61,76,17.39,1.63,0.3,-1.09,-1.48,264.58,4.115,0,13.199,270.4,-0.284,0.47,0.21,0.393,-0.018,-0.051,-0.284,-0.326,0.933,270.43,0.72,0.037,-6.387,0.0703,0.44,0,0.0703,0,0,0,1,1,9.42,LANDED
132.42,ROLLOUT,ILS_TRACK,57.83,76,18.17,1.68,0.41,-1.97,-2.46,267.81,7.276,0,13.199,270.4,-0.284,0.47,0.21,0.393,-0.018,-0.051,-0.284,-0.326,0.933,270.46,0.738,0.068,-3.288,0.0391,0.476,0,0.0391,0,0,0,1,1,9.62,LANDED
132.62,ROLLOUT,ILS_TRACK,57.28,76,18.72,1.61,0.19,-3.92,-4.29,270.47,10.315,0,13.199,270.4,-0.284,0.47,0.21,0.393,-0.018,-0.051,-0.284,-0.326,0.933,270.47,0.75,0.086,-0.476,0.0059,0.5,0,0.0059,0,0,0,1,1,9.82,LANDED
132.82,ROLLOUT,ILS_TRACK,56.59,76,19.41,1.61,0.16,-4.76,-5.33,273.2,14.248,0,13.199,270.4,-0.284,0.47,0.21,0.393,-0.018,-0.051,-0.284,-0.326,0.933,270.48,0.763,0.094,2.138,-0.0281,0.525,0,-0.0281,0,0,0,1,1,10.02,LANDED
133.04,ROLLOUT,ILS_TRACK,55.89,76,20.11,1.56,0.09,-6.06,-6.77,276.25,18.227,0,13.199,270.4,-0.284,0.47,0.21,0.393,-0.018,-0.051,-0.284,-0.326,0.933,270.48,0.777,0.092,5.264,-0.0729,0.554,0,-0.0729,0,0,0,1,1,10.24,LANDED
133.24,ROLLOUT,ILS_TRACK,55.2,76,20.8,1.52,-0.06,-7.04,-7.61,278.38,21.456,0,13.199,270.4,-0.284,0.47,0.21,0.393,-0.018,-0.051,-0.284,-0.326,0.933,270.47,0.79,0.08,7.554,-0.1097,0.581,0,-0.1097,0,0,0,1,1,10.44,LANDED
133.44,ROLLOUT,ILS_TRACK,54.41,76,21.59,1.46,0.1,-8.19,-8.96,279.38,23.479,0,13.199,270.4,-0.284,0.47,0.21,0.393,-0.018,-0.051,-0.284,-0.326,0.933,270.45,0.805,0.062,8.846,-0.135,0.61,0,-0.135,0,0,0,1,1,10.64,LANDED
133.64,ROLLOUT,ILS_TRACK,53.5,76,22.5,1.46,0.06,-8.49,-9.21,278.6,23.121,0,13.199,270.4,-0.284,0.47,0.21,0.393,-0.018,-0.051,-0.284,-0.326,0.933,270.44,0.823,0.041,8.48,-0.1368,0.645,0,-0.1368,0,0,0,1,1,10.84,LANDED
133.84,ROLLOUT,ILS_TRACK,52.57,76,23.43,1.52,-0.08,-7.18,-7.34,276.08,19.703,0,13.199,270.4,-0.284,0.47,0.21,0.393,-0.018,-0.051,-0.284,-0.326,0.933,270.42,0.841,0.022,6.269,-0.1069,0.682,0,-0.1069,0,0,0,1,1,11.04,LANDED
134.06,ROLLOUT,ILS_TRACK,51.59,76,24.41,1.6,-0.41,-4.65,-4.13,271.96,11.801,0,13.199,270.4,-0.284,0.47,0.21,0.393,-0.018,-0.051,-0.284,-0.326,0.933,270.41,0.861,0.004,2.388,-0.0431,0.722,0,-0.0431,0,0,0,1,1,11.26,LANDED
134.26,ROLLOUT,ILS_TRACK,50.8,76,25.2,1.66,-1.11,-1.08,-0.24,267.31,1.118,0,13.199,270.4,-0.284,0.47,0.21,0.393,-0.018,-0.051,-0.284,-0.326,0.933,270.4,0.878,-0.008,-2.084,0.0394,0.756,0,0.0394,0,0,0,1,1,11.46,LANDED
134.44,ROLLOUT,ILS_TRACK,49.84,76,26.16,1.8,1.37,-0.08,-2.14,262.17,-7.688,0,13.199,270.4,-0.284,0.47,0.21,0.393,-0.018,-0.051,-0.284,-0.326,0.933,270.39,0.894,-0.013,-7.287,0,0,3,0,0,0,0,1,1,11.66,LANDED
134.64,ROLLOUT,ILS_TRACK,48.95,76,27.05,1.99,0.48,-1.08,-2.28,259.03,-14.83,0,13.199,270.4,-0.284,0.47,0.21,0.393,-0.018,-0.051,-0.284,-0.326,0.933,270.4,0.915,0.002,-10.793,0.2238,0.83,0,0.2238,0,0,0,1,1,11.84,LANDED
134.84,ROLLOUT,ILS_TRACK,48.41,76,27.59,1.9,0.03,-3.27,-4.13,256.72,-24.053,0,13.199,270.4,-0.284,0.47,0.21,0.393,-0.018,-0.051,-0.284,-0.326,0.933,270.43,0.928,0.034,-13.317,0.2848,0.855,0,0.2848,0,0,0,1,1,12.04,LANDED
135.04,ROLLOUT,ILS_TRACK,47.88,76,28.12,1.67,-0.42,-6.99,-7.36,255.61,-28.229,0,13.199,270.4,-0.284,0.47,0.21,0.393,-0.018,-0.051,-0.284,-0.326,0.933,270.48,0.938,0.079,-14.799,0.324,0.876,0,0.324,0,0,0,1,1,12.24,LANDED
135.26,ROLLOUT,ILS_TRACK,47.21,76,28.79,1.36,0.42,-10.97,-11.54,256.74,-23.542,0,13.199,270.4,-0.284,0.47,0.21,0.393,-0.018,-0.051,-0.284,-0.326,0.933,270.52,0.95,0.121,-14.277,0.3214,0.901,0,0.3214,0,0,0,1,1,12.46,LANDED
135.46,ROLLOUT,ILS_TRACK,45.62,76,30.38,1.64,-1.42,-5.71,-4.57,261.19,-13.641,0,13.199,270.4,-0.284,0.47,0.21,0.393,-0.018,-0.051,-0.284,-0.326,0.933,270.55,0.975,0.158,-10.305,0.2449,0.951,0,0.2449,0,0,0,1,1,12.66,LANDED
135.66,ROLLOUT,ILS_TRACK,45.11,76,30.89,1.66,-2.07,-0.88,1.37,265.55,-1.103,0,13.199,270.4,-0.284,0.47,0.21,0.393,-0.018,-0.051,-0.284,-0.326,0.933,270.59,0.993,0.192,-5.907,0.1457,0.987,0,0.1457,0,0,0,1,1,12.86,LANDED
135.86,ROLLOUT,ILS_TRACK,43.95,76,32.05,1.83,0.8,-0.15,-2.19,270.3,9,0,13.199,270.4,-0.284,0.47,0.21,0.393,-0.018,-0.051,-0.284,-0.326,0.933,270.62,1,0.223,-1.205,0.0301,1,0,0.0301,0,0,0,1,1,13.06,LANDED
136.06,ROLLOUT,ILS_TRACK,42.92,76,33.08,2,0.3,-1.03,-3.23,273.44,20.681,0,13.199,270.4,-0.284,0.47,0.21,0.393,-0.018,-0.051,-0.284,-0.326,0.933,270.64,1,0.242,2.328,-0.0582,1,0,-0.0582,0,0,0,1,1,13.26,LANDED
136.28,ROLLOUT,ILS_TRACK,42.15,76,33.85,2.06,-0.21,-1.93,-3.6,274.25,31.052,0,13.199,270.4,-0.284,0.47,0.21,0.393,-0.018,-0.051,-0.284,-0.326,0.933,270.64,1,0.238,3.735,-0.0934,1,0,-0.0934,0,0,0,1,1,13.48,LANDED
136.48,ROLLOUT,ILS_TRACK,41.44,76,34.56,1.92,0.02,-4.08,-4.56,272.74,36.604,0,13.199,270.4,-0.284,0.47,0.21,0.393,-0.018,-0.051,-0.284,-0.326,0.933,270.64,1,0.238,2.484,-0.0621,1,0,-0.0621,0,0,0,1,1,13.68,LANDED
136.68,ROLLOUT,ILS_TRACK,40.85,76,35.15,1.59,-0.46,-8.2,-6.7,270.83,33.592,0,13.199,270.4,-0.284,0.47,0.21,0.393,-0.018,-0.051,-0.284,-0.326,0.933,270.64,1,0.239,0.579,-0.0145,1,0,-0.0145,0,0,0,1,1,13.88,LANDED
136.88,ROLLOUT,ILS_TRACK,40.01,76,35.99,1.4,0.15,-10.63,-10.79,268.49,22.091,0,13.199,270.4,-0.284,0.47,0.21,0.393,-0.018,-0.051,-0.284,-0.326,0.933,270.64,1,0.242,-1.576,0.0394,1,0,0.0394,0,0,0,1,1,14.08,LANDED
137.08,ROLLOUT,ILS_TRACK,38.56,76,37.44,1.59,-0.91,-6.11,-4.61,264.51,14.833,0,13.199,270.4,-0.284,0.47,0.21,0.393,-0.018,-0.051,-0.284,-0.326,0.933,270.65,1,0.248,-5.232,0.1308,1,0,0.1308,0,0,0,1,1,14.28,LANDED
137.3,ROLLOUT,ILS_TRACK,37.59,76,38.41,1.64,-1.24,-1.17,0.47,259.9,0.154,0,13.199,270.4,-0.284,0.47,0.21,0.393,-0.018,-0.051,-0.284,-0.326,0.933,270.66,1,0.257,-10.032,0.2508,1,0,0.2508,0,0,0,1,1,14.5,LANDED
137.5,ROLLOUT,ILS_TRACK,36.27,76,39.73,1.78,0.05,1.4,0.81,256.6,-3.337,0,13.199,270.4,-0.284,0.47,0.21,0.393,-0.018,-0.051,-0.284,-0.326,0.933,270.67,1,0.269,-13.511,0.3378,1,0,0.3378,0,0,0,1,1,14.7,LANDED
137.7,ROLLOUT,ILS_TRACK,35.01,76,40.99,1.79,0,1.42,1.3,254.73,-3.496,0,13.199,270.4,-0.284,0.47,0.21,0.393,-0.018,-0.051,-0.284,-0.326,0.933,270.69,1,0.293,-15.726,0.3931,1,0,0.3931,0,0,0,1,1,14.9,LANDED
137.9,ROLLOUT,ILS_TRACK,34.31,76,41.69,1.7,-0.01,-0.05,0.12,254.45,-3.177,0,13.199,270.4,-0.284,0.47,0.21,0.393,-0.018,-0.051,-0.284,-0.326,0.933,270.73,1,0.328,-16.342,0.4086,1,0,0.4086,0,0,0,1,1,15.1,LANDED
138.1,ROLLOUT,ILS_TRACK,33.6,76,42.4,1.59,0.1,-1.83,-1.91,255.71,-0.863,0,13.199,270.4,-0.284,0.47,0.21,0.393,-0.018,-0.051,-0.284,-0.326,0.933,270.77,1,0.367,-15.514,0.3878,1,0,0.3878,0,0,0,1,1,15.3,LANDED
138.32,ROLLOUT,ILS_TRACK,32.16,76,43.84,1.63,0.03,-1.35,-1.56,260.18,2.729,0,13.199,270.4,-0.284,0.47,0.21,0.393,-0.018,-0.051,-0.284,-0.326,0.933,270.81,1,0.408,-11.646,0.2912,1,0,0.2912,0,0,0,1,1,15.52,LANDED
138.52,ROLLOUT,ILS_TRACK,31.01,76,44.99,1.71,0.54,-1.25,-2.56,265.61,6.716,0,13.199,270.4,-0.284,0.47,0.21,0.393,-0.018,-0.051,-0.284,-0.326,0.933,270.84,1,0.437,-6.313,0.1578,1,0,0.1578,0,0,0,1,1,15.72,LANDED
138.72,ROLLOUT,ILS_TRACK,30.23,76,45.77,1.79,0.6,-2.16,-3.73,270.08,9.813,0,13.199,270.4,-0.284,0.47,0.21,0.393,-0.018,-0.051,-0.284,-0.326,0.933,270.86,1,0.455,-1.513,0.0378,1,0,0.0378,0,0,0,1,1,15.92,LANDED
138.92,ROLLOUT,ILS_TRACK,29.67,76,46.33,1.77,0.35,-3.86,-5.14,272.71,16.461,0,13.199,270.4,-0.284,0.47,0.21,0.393,-0.018,-0.051,-0.284,-0.326,0.933,270.86,1,0.462,1.453,-0.0363,1,0,-0.0363,0,0,0,1,1,16.12,LANDED
139.12,ROLLOUT,ILS_TRACK,29.03,76,46.97,1.59,-0.07,-7.16,-7.71,273.89,21.805,0,13.199,270.4,-0.284,0.47,0.21,0.393,-0.018,-0.051,-0.284,-0.326,0.933,270.86,1,0.464,2.89,-0.0722,1,0,-0.0722,0,0,0,1,1,16.32,LANDED
139.34,ROLLOUT,ILS_TRACK,28.25,76,47.75,1.4,0.19,-10.34,-11.36,273.56,25.759,0,13.199,270.4,-0.284,0.47,0.21,0.393,-0.018,-0.051,-0.284,-0.326,0.933,270.87,1,0.465,2.932,-0.0733,1,0,-0.0733,0,0,0,1,1,16.54,LANDED
139.54,ROLLOUT,ILS_TRACK,27.3,76,48.7,1.4,-0.06,-10.29,-10.7,271.16,28.003,0,13.199,270.4,-0.284,0.47,0.21,0.393,-0.018,-0.051,-0.284,-0.326,0.933,270.87,1,0.468,0.889,-0.0222,1,0,-0.0222,0,0,0,1,1,16.74,LANDED
139.74,ROLLOUT,ILS_TRACK,26.28,76,49.72,1.45,-0.03,-9.31,-9.1,267.68,25.542,0,13.199,270.4,-0.284,0.47,0.21,0.393,-0.018,-0.051,-0.284,-0.326,0.933,270.87,1,0.473,-2.478,0.062,1,0,0.062,0,0,0,1,1,16.94,LANDED
139.94,ROLLOUT,ILS_TRACK,25.23,76,50.77,1.52,-0.15,-7.81,-6.81,264.46,20.898,0,13.199,270.4,-0.284,0.47,0.21,0.393,-0.018,-0.051,-0.284,-0.326,0.933,270.88,1,0.481,-5.836,0.1459,1,0,0.1459,0,0,0,1,1,17.14,LANDED
140.14,ROLLOUT,ILS_TRACK,24.18,76,51.82,1.59,-0.41,-5.63,-4.05,262.09,14.337,0,13.199,270.4,-0.284,0.47,0.21,0.393,-0.018,-0.051,-0.284,-0.326,0.933,270.89,1,0.489,-8.412,0.2103,1,0,0.2103,0,0,0,1,1,17.34,LANDED
140.36,ROLLOUT,ILS_TRACK,23.04,76,52.96,1.64,-0.82,-2.5,-0.47,260.82,5.268,0,13.199,270.4,-0.284,0.47,0.21,0.393,-0.018,-0.051,-0.284,-0.326,0.933,270.9,1,0.499,-9.964,0.2491,1,0,0.2491,0,0,0,1,1,17.56,LANDED
140.56,ROLLOUT,ILS_TRACK,22,76,54,1.69,-0.06,0.12,0.4,260.83,-1.699,0,13.199,270.4,-0.284,0.47,0.21,0.393,-0.018,-0.051,-0.284,-0.326,0.933,270.91,1,0.506,-10.134,0.2533,1,0,0.2533,0,0,0,1,1,17.76,LANDED
140.76,ROLLOUT,ILS_TRACK,20.77,76,55.23,1.66,0.11,-0.53,-0.69,261.59,-2.267,0,13.199,270.4,-0.284,0.47,0.21,0.393,-0.018,-0.051,-0.284,-0.326,0.933,270.92,1,0.516,-9.551,0.2388,1,0,0.2388,0,0,0,1,1,17.96,LANDED
140.96,ROLLOUT,ILS_TRACK,19.76,76,56.24,1.6,0.05,-1.72,-1.87,263.45,-0.169,0,13.199,270.4,-0.284,0.47,0.21,0.393,-0.018,-0.051,-0.284,-0.326,0.933,270.93,1,0.529,-7.973,0.1993,1,0,0.1993,0,0,0,1,1,18.16,LANDED
141.16,ROLLOUT,ILS_TRACK,18.43,76,57.57,1.63,-0.05,-1.27,-1.3,266.83,1.732,0,13.199,270.4,-0.284,0.47,0.21,0.393,-0.018,-0.051,-0.284,-0.326,0.933,270.94,1,0.541,-4.884,0.1221,1,0,0.1221,0,0,0,1,1,18.36,LANDED
141.38,ROLLOUT,ILS_TRACK,17.19,76,58.81,1.65,-0.02,-0.7,-0.83,271.19,3.26,0,13.199,270.4,-0.284,0.47,0.21,0.393,-0.018,-0.051,-0.284,-0.326,0.933,270.95,1,0.55,-0.53,0.0132,1,0,0.0132,0,0,0,1,1,18.58,LANDED
141.58,ROLLOUT,ILS_TRACK,16.09,76,59.91,1.67,0.38,-1.19,-2.64,274.69,3.891,0,13.199,270.4,-0.284,0.47,0.21,0.393,-0.018,-0.051,-0.284,-0.326,0.933,270.95,1,0.553,3.109,-0.0777,1,0,-0.0777,0,0,0,1,1,18.78,LANDED
141.78,ROLLOUT,ILS_TRACK,15.11,76,60.89,1.63,0.32,-2.86,-4.13,276.98,5.522,0,13.199,270.4,-0.284,0.47,0.21,0.393,-0.018,-0.051,-0.284,-0.326,0.933,270.95,1,0.551,5.685,-0.1421,1,0,-0.1421,0,0,0,1,1,18.98,LANDED
141.98,ROLLOUT,ILS_TRACK,14.1,76,61.9,1.63,0.07,-3.5,-4.14,277.75,7.044,0,13.199,270.4,-0.284,0.47,0.21,0.393,-0.018,-0.051,-0.284,-0.326,0.933,270.95,1,0.546,6.747,-0.1687,1,0,-0.1687,0,0,0,1,1,19.18,LANDED
142.18,ROLLOUT,ILS_TRACK,13.07,76,62.93,1.63,-0.06,-3.37,-3.36,277.54,7.416,0,13.199,270.4,-0.284,0.47,0.21,0.393,-0.018,-0.051,-0.284,-0.326,0.933,270.94,1,0.541,6.707,-0.1677,1,0,-0.1677,0,0,0,1,1,19.38,LANDED
142.4,ROLLOUT,ILS_TRACK,11.94,76,64.06,1.64,-0.26,-2.69,-1.6,276.32,5.408,0,13.199,270.4,-0.284,0.47,0.21,0.393,-0.018,-0.051,-0.284,-0.326,0.933,270.94,1,0.535,5.69,-0.1422,1,0,-0.1422,0,0,0,1,1,19.6,LANDED
142.6,ROLLOUT,ILS_TRACK,10.93,76,65.07,1.65,-0.46,-1.18,1.64,274.17,0.93,0,13.199,270.4,-0.284,0.47,0.21,0.393,-0.018,-0.051,-0.284,-0.326,0.933,270.93,1,0.53,3.736,-0.0934,1,0,-0.0934,0,0,0,1,1,19.8,LANDED
142.8,ROLLOUT,ILS_TRACK,9.78,76,66.22,1.65,0.04,-0.64,-0.7,271.42,-0.934,0,13.199,270.4,-0.284,0.47,0.21,0.393,-0.018,-0.051,-0.284,-0.326,0.933,270.92,1,0.524,1.048,-0.0262,1,0,-0.0262,0,0,0,1,1,20,LANDED
143,ROLLOUT,ILS_TRACK,8.28,76,67.72,1.62,0.08,-1.41,-2.11,268.94,-1.256,0,13.199,270.4,-0.284,0.47,0.21,0.393,-0.018,-0.051,-0.284,-0.326,0.933,270.92,1,0.521,-1.565,0.0391,1,0,0.0391,0,0,0,1,1,20.2,LANDED
143.2,ROLLOUT,ILS_TRACK,7.02,76,68.98,1.62,-0.02,-1.43,-1.37,267.56,-0.751,0,13.199,270.4,-0.284,0.47,0.21,0.393,-0.018,-0.051,-0.284,-0.326,0.933,270.92,1,0.52,-3.17,0.0792,1,0,0.0792,0,0,0,1,1,20.4,LANDED
143.42,ROLLOUT,ILS_TRACK,5.45,76,70.55,1.61,0,-1.48,-1.48,267.04,-0.323,0,13.199,270.4,-0.284,0.47,0.21,0.393,-0.018,-0.051,-0.284,-0.326,0.933,270.92,1,0.52,-3.859,0.0965,1,0,0.0965,0,0,0,1,1,20.62,LANDED
143.62,ROLLOUT,ILS_TRACK,3.85,76,72.15,1.61,0,-1.49,-1.6,267.18,-0.233,0,13.199,270.4,-0.284,0.47,0.21,0.393,-0.018,-0.051,-0.284,-0.326,0.933,270.92,1,0.52,-3.786,0.0946,1,0,0.0946,0,0,0,1,1,20.82,LANDED
143.82,DONE,ILS_TRACK,2.09,76,73.91,1.62,-0.02,-1.37,-0.82,267.37,-0.096,0,13.199,270.4,-0.284,0.47,0.21,0.393,-0.018,-0.051,-0.284,-0.326,0.933,270.92,1,0.521,-3.587,0.0897,1,0,0,0,0,0,1,1,0.04,LANDED
# end T+143.9  IAS 1.3 m/s
