t_s,phase,subphase,ias_ms,vapp_ms,spd_err_ms,agl_m,vs_ms,pitch_deg,aoa_deg,hdg_deg,bank_deg,thr_cmd,thr_cur,thr_intg,at_gain,at_tau_s,at_a_up,at_a_dn,at_kp_thr,at_ki_spd,at_thr_slew,aa_hdg_cmd_deg,aa_fpa_cmd_deg,ils_loc_m,ils_gs_m,ils_dist_km,loc_corr_deg,gs_corr_deg,flare_fpa_cmd,flare_tgt_vs,flare_frac,steer_hdg_deg,steer_blend,ro_loc_corr_deg,ro_hdg_err_deg,ro_yaw_tgt,ro_yaw_scale,ro_yaw_gate,yaw_cmd,roll_cmd,pitch_cmd,ro_pitch_tgt_deg,ro_pitch_err_deg,ro_pitch_ff,ro_roll_assist,flaps_cur,flaps_tgt,phase_el_s,status
1,APPROACH,FLY_TO_FIX,176.96,75.4,-101.56,1460.19,-2.25,-0.99,-0.39,269.48,-0.102,0,0,0,1,0.6,0.9,0.75,0.35,0.0168,0.4,327.48,-5.091,0,0,0,0,0,0,0,0,269.47,0,0,0,0,0,0,0,0,0,0,0,0,0,0,0,1.04,FLYING
1.72,APPROACH,FLY_TO_FIX,178.72,75.8,-102.92,1477.11,-2.22,-1.17,-0.47,270.08,-11.271,0,0,0,1,0.6,0.9,0.75,0.35,0.0168,0.4,327.76,-5.082,0,0,0,0,0,0,0,0,269.47,0,0,0,0,0,0,0,0,0,0,0,0,0,0,0,1.78,FLYING
2.44,APPROACH,FLY_TO_FIX,179.98,76.2,-103.78,1502.78,-3.02,-2.03,-0.74,270.81,-31.218,0,0,0,1,0.6,0.9,0.75,0.35,0.0168,0.4,328.04,-5.073,0,0,0,0,0,0,0,0,269.47,0,0,0,0,0,0,0,0,0,0,0,0,0,0,0,2.5,FLYING
3.16,APPROACH,FLY_TO_FIX,181.01,76.6,-104.41,1508.23,-6.08,-2.49,0.03,272.27,-52.24,0,0,0,1,0.6,0.939,0.75,0.35,0.0168,0.4,328.32,-5.059,0,0,0,0,0,0,0,0,269.47,0,0,0,0,0,0,0,0,0,0,0,0,0,0,0,3.22,FLYING
3.88,APPROACH,FLY_TO_FIX,181.07,77,-104.07,1530.48,-5.08,-0.58,4.46,280.02,-71.119,0,0,0,1,0.6,1.129,0.75,0.35,0.0168,0.4,328.6,-5.04,0,0,0,0,0,0,0,0,269.47,0,0,0,0,0,0,0,0,0,0,0,0,0,0,0,3.94,FLYING
4.6,APPROACH,FLY_TO_FIX,180.3,77.4,-102.9,1549.91,-6.26,-0.77,4.86,285.98,-76.041,0,0,0,1,0.6,1.304,0.75,0.35,0.0168,0.4,328.86,-5.021,0,0,0,0,0,0,0,0,269.47,0,0,0,0,0,0,0,0,0,0,0,0,0,0,0,4.66,FLYING
5.32,APPROACH,FLY_TO_FIX,179.22,77.8,-101.42,1568.85,-7.98,-1.06,5.02,291.9,-76.75,0,0,0,1,0.6,1.465,0.75,0.35,0.0168,0.4,329.1,-4.996,0,0,0,0,0,0,0,0,269.47,0,0,0,0,0,0,0,0,0,0,0,0,0,0,0,5.38,FLYING
6.17,APPROACH,FLY_TO_FIX,177.8,78.2,-99.6,1556.18,-10.16,-1.6,5.22,299.05,-76.784,0,0,0,1,0.6,1.613,0.75,0.35,0.0168,0.4,329.34,-4.961,0,0,0,0,0,0,0,0,269.47,0,0,0,0,0,0,0,0,0,0,0,0,0,0,0,6.25,FLYING
7.23,APPROACH,FLY_TO_FIX,175.7,78.6,-97.1,1515.09,-12.82,-2.26,5.3,307.84,-76.179,0,0,-20,1,0.6,1.75,0.75,0.35,0.0168,0.4,329.6,-4.902,0,0,0,0,0,0,0,0,269.47,0,0,0,0,0,0,0,0,0,0,0,0,0,0,0,7.32,FLYING
8.28,APPROACH,FLY_TO_FIX,174.01,79,-95.01,1521.61,-15.21,-2.88,3.32,313.09,-69.952,0,0,-19.9,1,0.6,1.876,0.75,0.35,0.0168,0.4,329.8,-4.829,0,0,0,0,0,0,0,0,269.47,0,0,0,0,0,0,0,0,0,0,0,0,0,0,0,8.37,FLYING
9.33,APPROACH,FLY_TO_FIX,173.19,79.4,-93.79,1630.59,-16.64,-3.32,2.08,317.08,-61.089,0,0,-19.8,1,0.6,1.993,0.75,0.35,0.0168,0.4,329.96,-4.746,0,0,0,0,0,0,0,0,269.47,0,0,0,0,0,0,0,0,0,0,0,0,0,0,0,9.42,FLYING
10.38,APPROACH,FLY_TO_FIX,172.76,79.8,-92.96,1682.57,-17.22,-3.73,1.23,320.1,-51.705,0,0,-19.701,1,0.6,2.1,0.75,0.35,0.0168,0.4,330.07,-4.657,0,0,0,0,0,0,0,0,269.47,0,0,0,0,0,0,0,0,0,0,0,0,0,0,0,10.47,FLYING
11.43,APPROACH,FLY_TO_FIX,172.46,80.2,-92.26,1676.88,-17.39,-4.04,0.71,322.47,-41.939,0,0,-19.603,1,0.6,2.2,0.771,0.35,0.0168,0.4,330.15,-4.566,0,0,0,0,0,0,0,0,269.47,0,0,0,0,0,0,0,0,0,0,0,0,0,0,0,11.52,FLYING
12.48,APPROACH,FLY_TO_FIX,172.2,80.6,-91.6,1675.85,-17.29,-4.3,0.37,324.37,-33.444,0,0,-19.505,1,0.6,2.292,0.792,0.35,0.0168,0.4,330.21,-4.474,0,0,0,0,0,0,0,0,269.47,0,0,0,0,0,0,0,0,0,0,0,0,0,0,0,12.57,FLYING
13.53,APPROACH,FLY_TO_FIX,171.91,81,-90.91,1648.9,-17.04,-4.45,0.18,325.89,-25.879,0,0,-19.407,1,0.6,2.377,0.807,0.35,0.0168,0.4,330.26,-4.384,0,0,0,0,0,0,0,0,269.47,0,0,0,0,0,0,0,0,0,0,0,0,0,0,0,13.62,FLYING
14.58,APPROACH,FLY_TO_FIX,171.59,81,-90.59,1624.44,-16.71,-4.5,0.08,327.05,-19.194,0,0,-19.31,1,0.6,2.456,0.817,0.35,0.0168,0.4,330.29,-4.295,0,0,0,0,0,0,0,0,269.47,0,0,0,0,0,0,0,0,0,0,0,0,0,0,0,14.67,FLYING
15.63,APPROACH,FLY_TO_FIX,171.25,81,-90.25,1588.64,-16.34,-4.51,0.03,328,-14.894,0,0,-19.214,1,0.6,2.529,0.825,0.35,0.0168,0.4,330.32,-4.207,0,0,0,0,0,0,0,0,269.47,0,0,0,0,0,0,0,0,0,0,0,0,0,0,0,15.72,FLYING
16.68,APPROACH,FLY_TO_FIX,170.87,81,-89.87,1551.93,-15.96,-4.45,0,328.69,-10.872,0,0,-19.118,1,0.6,2.597,0.831,0.35,0.0168,0.4,330.34,-4.122,0,0,0,0,0,0,0,0,269.47,0,0,0,0,0,0,0,0,0,0,0,0,0,0,0,16.77,FLYING
17.73,APPROACH,FLY_TO_FIX,170.46,81,-89.46,1485.86,-15.55,-4.37,0,329.2,-7.649,0,0,-19.022,1,0.6,2.66,0.836,0.35,0.0168,0.4,330.35,-4.039,0,0,0,0,0,0,0,0,269.47,0,0,0,0,0,0,0,0,0,0,0,0,0,0,0,17.82,FLYING
18.78,APPROACH,FLY_TO_FIX,170.01,81,-89.01,1474.93,-15.13,-4.27,0,329.56,-5.28,0,0,-18.927,1,0.6,2.719,0.841,0.35,0.0168,0.4,330.36,-3.959,0,0,0,0,0,0,0,0,269.47,0,0,0,0,0,0,0,0,0,0,0,0,0,0,0,18.87,FLYING
19.83,APPROACH,FLY_TO_FIX,169.53,81,-88.53,1440.96,-14.72,-4.17,0.01,329.82,-3.6,0,0,-18.832,1,0.6,2.773,0.846,0.35,0.0168,0.4,330.36,-3.88,0,0,0,0,0,0,0,0,269.47,0,0,0,0,0,0,0,0,0,0,0,0,0,0,0,19.92,FLYING
20.88,APPROACH,FLY_TO_FIX,169.02,81,-88.02,1299,-14.36,-4.09,0.01,329.98,-2.218,0,0,-18.738,1,0.6,2.823,0.853,0.35,0.0168,0.4,330.37,-3.803,0,0,0,0,0,0,0,0,269.47,0,0,0,0,0,0,0,0,0,0,0,0,0,0,0,20.97,FLYING
21.93,APPROACH,FLY_TO_FIX,168.49,81,-87.49,1315.11,-14.05,-4,0.02,330.09,-1.342,0,0,-18.645,1,0.6,2.87,0.86,0.35,0.0168,0.4,330.37,-3.729,0,0,0,0,0,0,0,0,269.47,0,0,0,0,0,0,0,0,0,0,0,0,0,0,0,22.02,FLYING
22.98,APPROACH,FLY_TO_FIX,167.95,81,-86.95,1369.38,-13.76,-3.92,0.03,330.16,-0.876,0,0,-18.551,1,0.6,2.913,0.868,0.35,0.0168,0.4,330.38,-3.656,0,0,0,0,0,0,0,0,269.47,0,0,0,0,0,0,0,0,0,0,0,0,0,0,0,23.07,FLYING
24.03,APPROACH,FLY_TO_FIX,167.39,81,-86.39,1325.64,-13.47,-3.83,0.06,330.21,-0.624,0,0,-18.459,1,0.6,2.954,0.878,0.35,0.0168,0.4,330.38,-3.584,0,0,0,0,0,0,0,0,269.47,0,0,0,0,0,0,0,0,0,0,0,0,0,0,0,24.12,FLYING
25.08,APPROACH,FLY_TO_FIX,166.81,81,-85.81,1303.16,-13.19,-3.74,0.08,330.25,-0.476,0,0,-18.366,1,0.6,2.991,0.888,0.35,0.0168,0.4,330.38,-3.514,0,0,0,0,0,0,0,0,269.47,0,0,0,0,0,0,0,0,0,0,0,0,0,0,0,25.17,FLYING
26.13,APPROACH,FLY_TO_FIX,166.22,81,-85.22,1200.25,-12.91,-3.66,0.1,330.27,-0.378,0,0,-18.274,1,0.6,3.026,0.899,0.35,0.0168,0.4,330.38,-3.445,0,0,0,0,0,0,0,0,269.47,0,0,0,0,0,0,0,0,0,0,0,0,0,0,0,26.22,FLYING
27.18,APPROACH,FLY_TO_FIX,165.62,81,-84.62,1023.61,-12.64,-3.57,0.12,330.29,-0.304,0,0,-18.183,1,0.6,3.059,0.911,0.35,0.0168,0.4,330.38,-3.378,0,0,0,0,0,0,0,0,269.47,0,0,0,0,0,0,0,0,0,0,0,0,0,0,0,27.27,FLYING
28.23,APPROACH,FLY_TO_FIX,165.01,81,-84.01,958.58,-12.36,-3.48,0.14,330.31,-0.253,0,0,-18.092,1,0.6,3.09,0.923,0.35,0.0168,0.4,330.39,-3.312,0,0,0,0,0,0,0,0,269.47,0,0,0,0,0,0,0,0,0,0,0,0,0,0,0,28.32,FLYING
29.28,APPROACH,FLY_TO_FIX,164.39,81,-83.39,1141.81,-12.09,-3.39,0.17,330.32,-0.209,0,0,-18.002,1,0.6,3.118,0.937,0.35,0.0168,0.4,330.39,-3.248,0,0,0,0,0,0,0,0,269.47,0,0,0,0,0,0,0,0,0,0,0,0,0,0,0,29.37,FLYING
31.36,APPROACH,FLY_TO_FIX,163.35,81,-82.35,1249.41,-11.75,-3.2,0.28,330.35,-0.139,0,0,-17.912,1,0.6,3.146,0.956,0.35,0.0168,0.4,330.39,-3.141,0,0,0,0,0,0,0,0,269.47,0,0,0,0,0,0,0,0,0,0,0,0,0,0,0,31.6,FLYING
34.16,APPROACH,FLY_TO_FIX,161.64,81,-80.64,1472.25,-11.05,-2.97,0.34,330.35,-0.04,0,0,-17.822,1,0.6,3.172,0.993,0.35,0.0168,0.4,330.39,-2.981,0,0,0,0,0,0,0,0,269.47,0,0,0,0,0,0,0,0,0,0,0,0,0,0,0,34.4,FLYING
36.96,APPROACH,FLY_TO_FIX,159.87,81,-78.87,1687.22,-10.38,-2.75,0.41,330.36,-0.022,0.0264,0,-20,1,0.6,3.197,1.045,0.35,0.0168,0.4,330.4,-2.829,0,0,0,0,0,0,0,0,269.47,0,0,0,0,0,0,0,0,0,0,0,0,0,0,0,37.2,FLYING
39.76,APPROACH,FLY_TO_FIX,158.07,81,-77.07,1738.1,-9.77,-2.52,0.49,330.36,-0.022,0.1106,0,-20,1,0.6,3.221,1.108,0.35,0.0168,0.4,330.4,-2.687,0,0,0,0,0,0,0,0,269.47,0,0,0,0,0,0,0,0,0,0,0,0,0,0,0,40,FLYING
42.56,APPROACH,FLY_TO_FIX,156.34,81,-75.34,1732.61,-9.22,-2.31,0.56,330.36,-0.03,0.187,0,-20,1,0.6,3.245,1.108,0.35,0.0168,0.4,330.4,-2.553,0,0,0,0,0,0,0,0,269.47,0,0,0,0,0,0,0,0,0,0,0,0,0,0,0,42.8,FLYING
45.36,APPROACH,FLY_TO_FIX,154.85,81,-73.85,1724.39,-8.68,-2.11,0.62,330.36,-0.027,0.2173,0,-20,1,0.6,3.268,1.108,0.35,0.0168,0.4,330.41,-2.427,0,0,0,0,0,0,0,0,269.47,0,0,0,0,0,0,0,0,0,0,0,0,0,0,0,45.6,FLYING
48.16,APPROACH,FLY_TO_FIX,153.67,81,-72.67,1706.75,-8.17,-1.92,0.67,330.36,-0.028,0.1979,0,-20,1,0.6,3.29,1.108,0.35,0.0168,0.4,330.41,-2.308,0,0,0,0,0,0,0,0,269.47,0,0,0,0,0,0,0,0,0,0,0,0,0,0,0,48.4,FLYING
50.96,APPROACH,FLY_TO_FIX,152.78,81,-71.78,1700.19,-7.71,-1.76,0.7,330.36,-0.024,0.1415,0,-20,1,0.6,3.311,1.108,0.35,0.0168,0.4,330.42,-2.196,0,0,0,0,0,0,0,0,269.47,0,0,0,0,0,0,0,0,0,0,0,0,0,0,0,51.2,FLYING
53.76,APPROACH,FLY_TO_FIX,152.05,81,-71.05,1654.83,-7.29,-1.61,0.73,330.36,-0.03,0.0715,0,-20,1,0.6,3.332,1.108,0.35,0.0168,0.4,330.42,-2.091,0,0,0,0,0,0,0,0,269.47,0,0,0,0,0,0,0,0,0,0,0,0,0,0,0,54,FLYING
56.56,APPROACH,FLY_TO_FIX,151.26,81,-70.26,1643.56,-6.88,-1.46,0.76,330.36,-0.031,0.0031,0,-20,1,0.6,3.352,1.157,0.35,0.0168,0.4,330.42,-1.991,0,0,0,0,0,0,0,0,269.47,0,0,0,0,0,0,0,0,0,0,0,0,0,0,0,56.8,FLYING
59.36,APPROACH,FLY_TO_FIX,150.07,81,-69.07,1619.86,-6.51,-1.28,0.84,330.36,-0.032,0,0,-19.9,1,0.6,3.371,1.206,0.35,0.0168,0.4,330.43,-1.896,0,0,0,0,0,0,0,0,269.47,0,0,0,0,0,0,0,0,0,0,0,0,0,0,0,59.6,FLYING
62.16,APPROACH,FLY_TO_FIX,148.37,81,-67.37,1578.72,-6.13,-1.09,0.93,330.36,-0.03,0.0598,0,-20,1,0.6,3.389,1.263,0.35,0.0168,0.4,330.43,-1.807,0,0,0,0,0,0,0,0,269.47,0,0,0,0,0,0,0,0,0,0,0,0,0,0,0,62.4,FLYING
64.96,APPROACH,FLY_TO_FIX,146.47,81,-65.47,1640.42,-5.78,-0.91,1.02,330.36,-0.031,0.1345,0,-20,1,0.6,3.407,1.33,0.35,0.0168,0.4,330.44,-1.723,0,0,0,0,0,0,0,0,269.47,0,0,0,0,0,0,0,0,0,0,0,0,0,0,0,65.2,FLYING
67.76,APPROACH,FLY_TO_FIX,144.67,81,-63.67,1646.24,-5.46,-0.73,1.12,330.36,-0.032,0.2006,0,-20,1,0.6,3.425,1.33,0.35,0.0168,0.4,330.44,-1.644,0,0,0,0,0,0,0,0,269.47,0,0,0,0,0,0,0,0,0,0,0,0,0,0,0,68,FLYING
70.56,APPROACH,FLY_TO_FIX,143.12,81,-62.12,2633.28,-5.15,-0.57,1.19,330.36,-0.034,0.221,0,-20,1,0.6,3.443,1.33,0.35,0.0168,0.4,330.44,-1.569,0,0,0,0,0,0,0,0,269.47,0,0,0,0,0,0,0,0,0,0,0,0,0,0,0,70.8,FLYING
73.36,APPROACH,FLY_TO_FIX,141.88,81,-60.88,2619.29,-4.87,-0.42,1.26,330.37,-0.035,0.1943,0,-20,1,0.6,3.459,1.33,0.35,0.0168,0.4,330.45,-1.498,0,0,0,0,0,0,0,0,269.47,0,0,0,0,0,0,0,0,0,0,0,0,0,0,0,73.6,FLYING
76.16,APPROACH,FLY_TO_FIX,140.9,81,-59.9,2606.05,-4.61,-0.29,1.31,330.37,-0.031,0.1351,0,-20,1,0.6,3.476,1.33,0.35,0.0168,0.4,330.45,-1.431,0,0,0,0,0,0,0,0,269.47,0,0,0,0,0,0,0,0,0,0,0,0,0,0,0,76.4,FLYING
78.96,APPROACH,FLY_TO_FIX,140.05,81,-59.05,2593.51,-4.37,-0.16,1.36,330.37,-0.034,0.0669,0,-20,1,0.6,3.492,1.33,0.35,0.0168,0.4,330.46,-1.368,0,0,0,0,0,0,0,0,269.47,0,0,0,0,0,0,0,0,0,0,0,0,0,0,0,79.2,FLYING
81.76,APPROACH,FLY_TO_FIX,139.09,81,-58.09,2581.31,-4.13,-0.03,1.43,330.37,-0.037,0.0068,0,-20,1,0.6,3.507,1.381,0.35,0.0168,0.4,330.46,-1.308,0,0,0,0,0,0,0,0,269.47,0,0,0,0,0,0,0,0,0,0,0,0,0,0,0,82,FLYING
84.56,APPROACH,FLY_TO_FIX,137.68,81,-56.68,2570.06,-3.93,0.13,1.53,330.37,-0.039,0.0141,0,-20,1,0.6,3.522,1.433,0.35,0.0168,0.4,330.47,-1.251,0,0,0,0,0,0,0,0,269.47,0,0,0,0,0,0,0,0,0,0,0,0,0,0,0,84.8,FLYING
87.36,APPROACH,FLY_TO_FIX,135.8,81,-54.8,2559.38,-3.72,0.32,1.66,330.37,-0.042,0.0814,0,-20,1,0.6,3.537,1.493,0.35,0.0168,0.4,330.47,-1.197,0,0,0,0,0,0,0,0,269.47,0,0,0,0,0,0,0,0,0,0,0,0,0,0,0,87.6,FLYING
90.16,APPROACH,FLY_TO_FIX,133.8,81,-52.8,2549.55,-3.54,0.5,1.79,330.37,-0.046,0.1739,0,-20,1,0.6,3.552,1.493,0.35,0.0168,0.4,330.48,-1.146,0,0,0,0,0,0,0,0,269.47,0,0,0,0,0,0,0,0,0,0,0,0,0,0,0,90.4,FLYING
92.96,APPROACH,FLY_TO_FIX,131.95,81,-50.95,2539.95,-3.35,0.68,1.92,330.37,-0.045,0.2291,0,-20,1,0.6,3.566,1.493,0.35,0.0168,0.4,330.49,-1.098,0,0,0,0,0,0,0,0,269.47,0,0,0,0,0,0,0,0,0,0,0,0,0,0,0,93.2,FLYING
95.76,APPROACH,FLY_TO_FIX,130.4,81,-49.4,2530.86,-3.17,0.84,2.03,330.38,-0.046,0.2332,0,-20,1,0.6,3.581,1.493,0.35,0.0168,0.4,330.49,-1.052,0,0,0,0,0,0,0,0,269.47,0,0,0,0,0,0,0,0,0,0,0,0,0,0,0,96,FLYING
98.56,APPROACH,FLY_TO_FIX,129.17,81,-48.17,2522.26,-3,0.98,2.11,330.38,-0.046,0.1907,0,-20,1,0.6,3.595,1.493,0.35,0.0168,0.4,330.5,-1.009,0,0,0,0,0,0,0,0,269.47,0,0,0,0,0,0,0,0,0,0,0,0,0,0,0,98.8,FLYING
101.36,APPROACH,FLY_TO_FIX,128.18,81,-47.18,2514.13,-2.83,1.1,2.18,330.38,-0.046,0.1211,0,-20,1,0.6,3.609,1.493,0.35,0.0168,0.4,330.51,-0.967,0,0,0,0,0,0,0,0,269.47,0,0,0,0,0,0,0,0,0,0,0,0,0,0,0,101.6,FLYING
104.16,APPROACH,FLY_TO_FIX,127.28,81,-46.28,2506.43,-2.68,1.22,2.26,330.38,-0.047,0.0507,0,-20,1,0.6,3.622,1.493,0.35,0.0168,0.4,330.51,-0.929,0,0,0,0,0,0,0,0,269.47,0,0,0,0,0,0,0,0,0,0,0,0,0,0,0,104.4,FLYING
106.96,APPROACH,FLY_TO_FIX,126.17,81,-45.17,2498.92,-2.55,1.37,2.36,330.39,-0.048,0.0015,0,-20,1,0.6,3.635,1.544,0.35,0.0168,0.4,330.52,-0.892,0,0,0,0,0,0,0,0,269.47,0,0,0,0,0,0,0,0,0,0,0,0,0,0,0,107.2,FLYING
109.76,APPROACH,FLY_TO_FIX,124.51,81,-43.51,2491.96,-2.44,1.56,2.51,330.39,-0.05,0.0316,0,-20,1,0.6,3.648,1.599,0.35,0.0168,0.4,330.53,-0.857,0,0,0,0,0,0,0,0,269.47,0,0,0,0,0,0,0,0,0,0,0,0,0,0,0,110,FLYING
112.56,APPROACH,FLY_TO_FIX,122.46,81,-41.46,2485.32,-2.33,1.77,2.7,330.4,-0.053,0.1092,0,-20,1,0.6,3.661,1.664,0.35,0.0168,0.4,330.54,-0.823,0,0,0,0,0,0,0,0,269.47,0,0,0,0,0,0,0,0,0,0,0,0,0,0,0,112.8,FLYING
115.36,APPROACH,FLY_TO_FIX,120.38,81,-39.38,2479.14,-2.23,1.98,2.89,330.4,-0.059,0.1953,0,-20,1,0.6,3.675,1.664,0.35,0.0168,0.4,330.55,-0.791,0,0,0,0,0,0,0,0,269.47,0,0,0,0,0,0,0,0,0,0,0,0,0,0,0,115.6,FLYING
118.16,APPROACH,FLY_TO_FIX,118.49,81,-37.49,2473.08,-2.12,2.19,3.07,330.41,-0.06,0.2404,0,-20,1,0.6,3.688,1.664,0.35,0.0168,0.4,330.56,-0.761,0,0,0,0,0,0,0,0,269.47,0,0,0,0,0,0,0,0,0,0,0,0,0,0,0,118.4,FLYING
120.96,APPROACH,FLY_TO_FIX,116.9,81,-35.9,2467.32,-2.02,2.38,3.22,330.41,-0.064,0.235,0,-20,1,0.6,3.702,1.664,0.35,0.0168,0.4,330.57,-0.731,0,0,0,0,0,0,0,0,269.47,0,0,0,0,0,0,0,0,0,0,0,0,0,0,0,121.2,FLYING
123.76,APPROACH,FLY_TO_FIX,115.62,81,-34.62,2461.84,-1.91,2.54,3.35,330.42,-0.062,0.1873,0,-20,1,0.6,3.715,1.664,0.35,0.0168,0.4,330.58,-0.704,0,0,0,0,0,0,0,0,269.47,0,0,0,0,0,0,0,0,0,0,0,0,0,0,0,124,FLYING
126.56,APPROACH,FLY_TO_FIX,114.55,81,-33.55,2456.67,-1.81,2.68,3.46,330.42,-0.067,0.1177,0,-20,1,0.6,3.728,1.664,0.35,0.0168,0.4,330.59,-0.678,0,0,0,0,0,0,0,0,269.47,0,0,0,0,0,0,0,0,0,0,0,0,0,0,0,126.8,FLYING
129.36,APPROACH,FLY_TO_FIX,113.52,81,-32.52,2451.76,-1.72,2.83,3.57,330.43,-0.066,0.0541,0,-20,1,0.6,3.74,1.664,0.35,0.0168,0.4,330.6,-0.653,0,0,0,0,0,0,0,0,269.47,0,0,0,0,0,0,0,0,0,0,0,0,0,0,0,129.6,FLYING
132.16,APPROACH,FLY_TO_FIX,112.23,81,-31.23,2446.95,-1.65,3.03,3.74,330.44,-0.071,0.0163,0,-20,1,0.6,3.753,1.717,0.35,0.0168,0.4,330.61,-0.629,0,0,0,0,0,0,0,0,269.47,0,0,0,0,0,0,0,0,0,0,0,0,0,0,0,132.4,FLYING
134.96,APPROACH,FLY_TO_FIX,110.43,81,-29.43,2442.44,-1.6,3.28,3.98,330.45,-0.078,0.0505,0,-20,1,0.6,3.765,1.775,0.35,0.0168,0.4,330.63,-0.607,0,0,0,0,0,0,0,0,269.47,0,0,0,0,0,0,0,0,0,0,0,0,0,0,0,135.2,FLYING
137.76,APPROACH,FLY_TO_FIX,108.3,81,-27.3,2438.05,-1.56,3.57,4.26,330.46,-0.086,0.1218,0,-20,1,0.6,3.778,1.843,0.35,0.0168,0.4,330.64,-0.585,0,0,0,0,0,0,0,0,269.47,0,0,0,0,0,0,0,0,0,0,0,0,0,0,0,138,FLYING
140.56,APPROACH,FLY_TO_FIX,106.17,81,-25.17,2433.92,-1.51,3.86,4.55,330.47,-0.088,0.1999,0,-20,1,0.6,3.791,1.843,0.35,0.0168,0.4,330.66,-0.563,0,0,0,0,0,0,0,0,269.47,0,0,0,0,0,0,0,0,0,0,0,0,0,0,0,140.8,FLYING
142.18,APPROACH,FLY_TO_FIX,104.76,81,-23.76,1344.54,-1.43,4,4.67,330.47,-0.075,0.1808,0,-20,1,0.6,3.804,1.843,0.35,0.0168,0.4,330.67,-0.549,0,0,0,0,0,0,0,0,269.47,0,0,0,0,0,0,0,0,0,0,0,0,0,0,0,142.24,FLYING
142.9,APPROACH,FLY_TO_FIX,104.27,81,-23.27,1337.67,-1.4,4.09,4.75,330.48,-0.12,0.0179,0,-20,1,0.6,3.816,1.843,0.35,0.0168,0.4,330.68,-0.544,0,0,0,0,0,0,0,0,269.47,0,0,0,0,0,0,0,0,0,0,0,0,0,0,0,142.96,FLYING
143.62,APPROACH,FLY_TO_FIX,103.76,81,-22.76,1334.15,-1.38,4.18,4.83,330.49,-0.144,0,0,-19.9,1,0.6,3.828,1.879,0.35,0.0168,0.4,330.68,-0.539,0,0,0,0,0,0,0,0,269.47,0,0,0,0,0,0,0,0,0,0,0,0,0,0,0,143.68,FLYING
144.34,APPROACH,FLY_TO_FIX,103.22,81,-22.22,1328.26,-1.35,4.28,4.91,330.5,-0.152,0,0,-19.8,1,0.6,3.839,1.9,0.35,0.0168,0.4,330.69,-0.534,0,0,0,0,0,0,0,0,269.47,0,0,0,0,0,0,0,0,0,0,0,0,0,0,0,144.4,FLYING
145.06,APPROACH,FLY_TO_FIX,102.64,81,-21.64,1315.8,-1.33,4.39,5.01,330.51,-0.152,0,0,-19.701,1,0.6,3.849,1.912,0.35,0.0168,0.4,330.7,-0.529,0,0,0,0,0,0,0,0,269.47,0,0,0,0,0,0,0,0,0,0,0,0,0,0,0,145.12,FLYING
145.78,APPROACH,FLY_TO_FIX,102.02,81,-21.02,1305.89,-1.3,4.5,5.11,330.51,-0.148,0,0,-19.603,1,0.6,3.859,1.916,0.35,0.0168,0.4,330.7,-0.524,0,0,0,0,0,0,0,0,269.47,0,0,0,0,0,0,0,0,0,0,0,0,0,0,0,145.84,FLYING
146.5,APPROACH,FLY_TO_FIX,101.37,81,-20.37,1295.85,-1.28,4.61,5.22,330.52,-0.142,0,0,-19.505,1,0.6,3.869,1.916,0.35,0.0168,0.4,330.71,-0.52,0,0,0,0,0,0,0,0,269.47,0,0,0,0,0,0,0,0,0,0,0,0,0,0,0,146.56,FLYING
147.22,APPROACH,FLY_TO_FIX,100.7,81,-19.7,1289.06,-1.25,4.74,5.34,330.53,-0.134,0,0,-19.407,1,0.6,3.878,1.912,0.35,0.0168,0.4,330.71,-0.515,0,0,0,0,0,0,0,0,269.47,0,0,0,0,0,0,0,0,0,0,0,0,0,0,0,147.28,FLYING
147.94,APPROACH,FLY_TO_FIX,100,81,-19,1285.52,-1.23,4.86,5.46,330.53,-0.126,0,0,-19.31,1,0.6,3.887,1.906,0.35,0.0168,0.4,330.72,-0.511,0,0,0,0,0,0,0,0,269.47,0,0,0,0,0,0,0,0,0,0,0,0,0,0,0,148,FLYING
148.7,APPROACH,FLY_TO_FIX,99.29,81,-18.29,1283,-1.21,5.01,5.6,330.55,-0.136,0,0,-19.214,1,0.6,3.896,1.899,0.35,0.0168,0.4,330.72,-0.507,0,0,0,0,0,0,0,0,269.47,0,0,0,0,0,0,0,0,0,0,0,0,0,0,0,148.82,FLYING
151.15,APPROACH,FLY_TO_FIX,97.04,81,-16.04,1295.88,-1.27,5.47,6.1,330.56,-0.085,0,0,-19.118,1,0.6,3.905,1.914,0.35,0.0168,0.4,330.74,-0.494,0,0,0,0,0,0,0,0,269.47,0,0,0,0,0,0,0,0,0,0,0,0,0,0,0,151.39,FLYING
153.95,APPROACH,FLY_TO_FIX,93.96,81,-12.96,1297.83,-1.3,6.06,6.72,330.56,-0.068,0,0,-20,1,0.6,3.916,1.964,0.35,0.0168,0.4,330.76,-0.476,0,0,0,0,0,0,0,0,269.47,0,0,0,0,0,0,0,0,0,0,0,0,0,0,0,154.19,FLYING
156.75,APPROACH,FLY_TO_FIX,90.72,81,-9.72,1307.48,-1.33,6.76,7.45,330.58,-0.085,0.2,0,-20,1,0.6,3.928,2.044,0.35,0.0168,0.4,330.79,-0.458,0,0,0,0,0,0,0,0,269.47,0,0,0,0,0,0,0,0,0,0,0,0,0,0,0,156.99,FLYING
159.55,APPROACH,FLY_TO_FIX,87.44,81,-6.44,1327.94,-1.33,7.51,8.25,330.6,-0.108,0.4,0,-20,1,0.6,3.94,2.044,0.35,0.0168,0.4,330.82,-0.44,0,0,0,0,0,0,0,0,269.47,0,0,0,0,0,0,0,0,0,0,0,0,0,0,0,159.79,FLYING
162.35,APPROACH,FLY_TO_FIX,84.52,81,-3.52,1334.51,-1.29,8.25,8.99,330.62,-0.126,0.6,0,-20,1,0.6,3.954,2.044,0.35,0.0168,0.4,330.86,-0.423,0,0,0,0,0,0,0,0,269.47,0,0,0,0,0,0,0,0,0,0,0,0,0,0,0,162.59,FLYING
164.73,APPROACH,FLY_TO_FIX,82.44,81,-1.44,1340.25,-1.19,8.78,9.48,330.64,-0.112,0.8,0,-20,1,0.6,3.968,2.044,0.35,0.0168,0.4,330.91,-0.407,0,0,0,0,0,0,0,0,269.47,0,0,0,0,0,0,0,0,0,0,0,0,0,0,0,164.84,FLYING
165.52,APPROACH,FLY_TO_FIX,81.88,81,-0.88,1345,-1.13,8.84,9.51,330.65,-0.125,0.9539,0,-20,1,0.6,3.982,2.044,0.35,0.0168,0.4,182.82,-3.971,0,0,0,0,0,0,0,0,269.47,0,0,0,0,0,0,0,0,0,0,0,0,0,0,0,165.58,FLYING
166.22,APPROACH,FLY_TO_FIX,81.53,81,-0.53,1354.34,-1.13,8.84,9.52,330.17,2.88,0.7567,0,-20,1,0.6,3.995,2.044,0.35,0.0168,0.4,182.67,-3.967,0,0,0,0,0,0,0,0,269.47,0,0,0,0,0,0,0,0,0,0,0,0,0,0,0,166.28,FLYING
166.92,APPROACH,FLY_TO_FIX,81.27,81,-0.27,1362.72,-1.2,8.35,9.17,328.74,10.015,0.5878,0,-20,1,0.6,4.006,2.044,0.35,0.0168,0.4,182.53,-3.963,0,0,0,0,0,0,0,0,269.47,0,0,0,0,0,0,0,0,0,0,0,0,0,0,0,166.98,FLYING
167.62,APPROACH,FLY_TO_FIX,81.08,81,-0.08,1367.53,-1.44,8.71,10.02,326.22,18.886,0.4393,0,-20,1,0.6,4.017,2.044,0.35,0.0168,0.4,182.38,-3.959,0,0,0,0,0,0,0,0,269.47,0,0,0,0,0,0,0,0,0,0,0,0,0,0,0,167.68,FLYING
168.34,APPROACH,FLY_TO_FIX,80.88,81,0.12,1377.99,-1.71,8.34,10.33,323.11,26.722,0.3263,0,-19.946,1,0.6,4.028,2.044,0.35,0.0168,0.4,182.22,-3.953,0,0,0,0,0,0,0,0,269.47,0,0,0,0,0,0,0,0,0,0,0,0,0,0,0,168.4,FLYING
169.04,APPROACH,FLY_TO_FIX,80.72,81,0.28,1394.41,-2.19,7.86,10.43,320.55,28.325,0.2321,0,-19.809,1,0.6,4.037,2.044,0.35,0.0168,0.4,182.07,-3.946,0,0,0,0,0,0,0,0,269.47,0,0,0,0,0,0,0,0,0,0,0,0,0,0,0,169.1,FLYING
169.74,APPROACH,FLY_TO_FIX,80.59,81,0.41,1408.47,-2.72,7.53,10.46,318.42,28.742,0.1535,0,-19.609,1,0.6,4.046,2.044,0.35,0.0168,0.4,181.91,-3.938,0,0,0,0,0,0,0,0,269.47,0,0,0,0,0,0,0,0,0,0,0,0,0,0,0,169.8,FLYING
170.46,APPROACH,FLY_TO_FIX,80.46,81,0.54,1416.69,-3.28,7.22,10.5,316.27,28.879,0.0934,0,-19.345,1,0.6,4.055,2.044,0.35,0.0168,0.4,181.73,-3.927,0,0,0,0,0,0,0,0,269.47,0,0,0,0,0,0,0,0,0,0,0,0,0,0,0,170.52,FLYING
171.04,APPROACH,ILS_TRACK,80.34,81,0.66,1422.54,-3.75,6.98,10.53,314.61,28.817,0.0934,0,-19.345,1,0.6,4.055,2.044,0.35,0.0168,0.4,181.73,-3.927,0,0,0,0,0,0,0,0,269.47,0,0,0,0,0,0,0,0,0,0,0,0,0,0,0,171.08,FLYING
171.88,APPROACH,ILS_TRACK,80.12,80.6,0.48,1427.11,-4.43,6.61,10.57,312.19,28.502,0.0626,0,-19.115,1,0.6,4.063,2.044,0.35,0.0168,0.4,205.4,-7,-139.69,30.39,29.304,46.182,-57.734,0,0,0,269.47,0,0,0,0,0,0,0,0,0,0,0,0,0,0,0,171.92,FLYING
172.66,APPROACH,ILS_TRACK,79.88,80.2,0.32,1432.96,-5.1,6.33,10.67,309.9,28.039,0.0164,0,-18.968,1,0.6,4.071,2.002,0.35,0.0168,0.4,166.25,0,-89.05,23.95,29.357,-14.148,3.108,0,0,0,269.47,0,0,0,0,0,0,0,0,0,0,0,0,0,0,0,172.7,FLYING
173.46,APPROACH,ILS_TRACK,79.54,79.8,0.26,1439.38,-5.59,6.42,10.87,308.03,24.909,0,0,-18.854,1,0.6,4.079,1.959,0.35,0.0168,0.4,157.57,0,-35.22,17.02,29.409,-22.832,5.978,0,0,0,269.47,0,0,0,0,0,0,0,0,0,0,0,0,0,0,0,173.52,FLYING
174.3,APPROACH,ILS_TRACK,79.14,79.4,0.26,1443.59,-6.08,6.16,10.85,306.09,24.358,0,0,-18.745,1,0.6,4.086,1.918,0.35,0.0168,0.4,155.4,0,23.07,9.43,29.461,-30.067,9.325,0,0,0,269.47,0,0,0,0,0,0,0,0,0,0,0,0,0,0,0,174.34,FLYING
175.1,APPROACH,ILS_TRACK,78.72,79,0.28,1446.38,-6.6,5.94,10.95,304.1,23.962,0,0,-18.628,1,0.6,4.093,1.878,0.35,0.0168,0.4,155.4,0,80,1.91,29.509,-31.664,11.448,0,0,0,269.47,0,0,0,0,0,0,0,0,0,0,0,0,0,0,0,175.14,FLYING
176.23,APPROACH,ILS_TRACK,78.14,78.6,0.46,1455.12,-7.32,5.71,11.11,301.48,22.761,0.027,0,-18.439,1,0.6,4.101,1.842,0.35,0.0168,0.4,155.4,0,150.51,-7.54,29.563,-41.276,17.389,0,0,0,269.47,0,0,0,0,0,0,0,0,0,0,0,0,0,0,0,176.31,FLYING
177.79,APPROACH,ILS_TRACK,77.21,78.2,0.99,1464.58,-8.18,5.58,11.36,298.6,19.435,0.138,0,-17.99,1,0.6,4.109,1.816,0.35,0.0168,0.4,155.4,0,265.92,-23.41,29.642,-68.344,32.418,0,0,0,269.47,0,0,0,0,0,0,0,0,0,0,0,0,0,0,0,177.87,FLYING
179.35,APPROACH,ILS_TRACK,76.35,78.6,2.25,1467.3,-8.86,5.49,11.57,296.32,16.019,0.2924,0,-16.903,1,0.6,4.117,1.816,0.35,0.0168,0.4,155.4,0,385.54,-40.31,29.714,-75.232,39.131,0,0,0,269.47,0,0,0,0,0,0,0,0,0,0,0,0,0,0,0,179.43,FLYING
180.37,APPROACH,ILS_TRACK,75.82,79,3.18,1469,-9.2,5.45,11.69,295.07,13.724,0.382,0,-15.33,1,0.6,4.125,1.816,0.35,0.0168,0.4,155.4,0,479.21,-53.78,29.766,-66.003,37.69,0,0,0,269.47,0,0,0,0,0,0,0,0,0,0,0,0,0,0,0,180.41,FLYING
181.15,APPROACH,ILS_TRACK,75.54,79.4,3.86,1466.85,-9.42,5.42,11.76,294.24,12.243,0.4186,0,-13.414,1,0.6,4.133,1.816,0.35,0.0168,0.4,155.4,0,540.37,-62.66,29.797,-52.194,33.004,0,0,0,269.47,0,0,0,0,0,0,0,0,0,0,0,0,0,0,0,181.19,FLYING
181.93,APPROACH,ILS_TRACK,75.33,79.8,4.47,1466.9,-9.6,5.32,11.75,293.45,11.245,0.4547,0,-11.189,1,0.6,4.141,1.816,0.35,0.0168,0.4,155.4,0,601.86,-71.64,29.827,-54.818,35.862,0,0,0,269.47,0,0,0,0,0,0,0,0,0,0,0,0,0,0,0,181.97,FLYING
182.71,APPROACH,ILS_TRACK,75.18,80.2,5.02,1469.28,-9.75,5.14,11.68,292.57,10.987,0.4916,0,-8.685,1,0.6,4.149,1.816,0.35,0.0168,0.4,155.4,0,663.65,-80.71,29.856,-57.442,38.713,0,0,0,269.47,0,0,0,0,0,0,0,0,0,0,0,0,0,0,0,182.75,FLYING
183.49,APPROACH,ILS_TRACK,75.09,80.6,5.51,1473.89,-9.89,4.93,11.58,291.55,11.432,0.5285,0,-5.933,1,0.6,4.157,1.816,0.35,0.0168,0.4,155.4,0,725.76,-89.83,29.884,-60.088,41.555,0,0,0,269.47,0,0,0,0,0,0,0,0,0,0,0,0,0,0,0,183.53,FLYING
184.27,APPROACH,ILS_TRACK,75.06,81,5.94,1476.35,-10.03,4.69,11.48,290.38,12.354,0.5646,0,-2.965,1,0.6,4.164,1.816,0.35,0.0168,0.4,155.4,0,788.24,-99.02,29.911,-62.771,44.404,0,0,0,269.47,0,0,0,0,0,0,0,0,0,0,0,0,0,0,0,184.31,FLYING
185.09,APPROACH,ILS_TRACK,75.1,81,5.9,1480.93,-10.2,4.41,11.36,289,13.646,0.5674,0,-0.014,1,0.6,4.171,1.816,0.35,0.0168,0.4,155.4,0,854.4,-108.74,29.938,-67.251,48.181,0,0,0,269.47,0,0,0,0,0,0,0,0,0,0,0,0,0,0,0,185.13,FLYING
185.89,APPROACH,ILS_TRACK,75.21,81,5.79,1478.25,-10.37,4.1,11.23,287.49,15.089,0.565,0,2.889,1,0.6,4.178,1.816,0.35,0.0168,0.4,155.4,0,919.47,-118.3,29.963,-69.316,50.775,0,0,0,269.47,0,0,0,0,0,0,0,0,0,0,0,0,0,0,0,185.93,FLYING
186.69,APPROACH,ILS_TRACK,75.38,81,5.62,1473.51,-10.64,3.6,10.9,286.04,15.855,0.5561,0,5.711,1,0.6,4.184,1.816,0.35,0.0168,0.4,155.4,0,985.15,-127.96,29.986,-72.249,53.845,0,0,0,269.47,0,0,0,0,0,0,0,0,0,0,0,0,0,0,0,186.73,FLYING
187.49,APPROACH,ILS_TRACK,75.63,81,5.37,1474.7,-10.89,3.18,10.64,284.69,15.964,0.538,0,8.412,1,0.6,4.19,1.816,0.35,0.0168,0.4,155.4,0,1051.51,-137.71,30.008,-75.237,56.922,0,0,0,269.47,0,0,0,0,0,0,0,0,0,0,0,0,0,0,0,187.53,FLYING
188.29,APPROACH,ILS_TRACK,75.94,81,5.06,1472.18,-11.13,2.86,10.46,283.28,16.282,0.5129,0,10.96,1,0.6,4.196,1.816,0.35,0.0168,0.4,155.4,0,1118.56,-147.59,30.028,-78.271,60.081,0,0,0,269.47,0,0,0,0,0,0,0,0,0,0,0,0,0,0,0,188.33,FLYING
189.09,APPROACH,ILS_TRACK,76.31,81,4.69,1463.24,-11.39,2.69,10.47,281.68,17.154,0.4808,0,13.324,1,0.6,4.202,1.816,0.35,0.0168,0.4,155.4,0,1186.33,-157.59,30.047,-81.338,63.275,0,0,0,269.47,0,0,0,0,0,0,0,0,0,0,0,0,0,0,0,189.13,FLYING
189.89,APPROACH,ILS_TRACK,76.74,81,4.26,1457.64,-11.65,2.4,10.37,279.95,18.297,0.4425,0,15.476,1,0.6,4.207,1.816,0.35,0.0168,0.4,155.4,0,1254.86,-167.7,30.064,-84.457,66.495,0,0,0,269.47,0,0,0,0,0,0,0,0,0,0,0,0,0,0,0,189.93,FLYING
190.69,APPROACH,ILS_TRACK,77.22,81,3.78,1455.97,-11.9,2.13,10.29,278.11,19.516,0.3983,0,17.389,1,0.6,4.212,1.816,0.35,0.0168,0.4,155.4,0,1324.17,-177.92,30.079,-87.622,69.725,0,0,0,269.47,0,0,0,0,0,0,0,0,0,0,0,0,0,0,0,190.73,FLYING
191.49,APPROACH,ILS_TRACK,77.74,81,3.26,1448.82,-12.16,1.86,10.21,276.16,20.774,0.35,0,19.044,1,0.6,4.217,1.816,0.35,0.0168,0.4,155.4,0,1394.28,-188.24,30.093,-90.827,72.984,0,0,0,269.47,0,0,0,0,0,0,0,0,0,0,0,0,0,0,0,191.53,FLYING
192.29,APPROACH,ILS_TRACK,78.29,81,2.71,1439.24,-12.42,1.59,10.13,274.1,22.039,0.292,0,20,1,0.6,4.221,1.816,0.35,0.0168,0.4,155.4,0,1465.19,-198.66,30.104,-94.061,76.259,0,0,0,269.47,0,0,0,0,0,0,0,0,0,0,0,0,0,0,0,192.33,FLYING
193.09,APPROACH,ILS_TRACK,78.85,81,2.15,1431.06,-12.69,1.33,10.06,271.94,23.257,0.2215,0,20,1,0.6,4.225,1.816,0.35,0.0168,0.4,155.4,0,1536.85,-209.16,30.113,-97.307,79.551,0,0,0,269.47,0,0,0,0,0,0,0,0,0,0,0,0,0,0,0,193.13,FLYING
193.9,APPROACH,ILS_TRACK,79.41,81,1.59,1423.84,-12.95,1.08,10.01,269.66,24.405,0.1582,0,20,1,0.6,4.229,1.816,0.35,0.0168,0.4,155.4,0,1609.23,-219.74,30.119,-100.557,82.848,0,0,0,269.47,0,0,0,0,0,0,0,0,0,0,0,0,0,0,0,193.94,FLYING
196.46,APPROACH,ILS_TRACK,80.69,81,0.31,1391.5,-13.81,0.44,9.98,261.97,27.206,0,0,20,1,0.6,4.233,1.816,0.35,0.0168,0.4,155.4,0,1794.87,-246.85,30.122,-131.57,117.434,0,0,0,269.47,0,0,0,0,0,0,0,0,0,0,0,0,0,0,0,196.62,FLYING
199.58,APPROACH,ILS_TRACK,81.34,81,-0.34,1352.38,-14.73,-0.05,10.12,252.09,28.342,0,0,19.9,1,0.6,4.238,1.743,0.35,0.0168,0.4,155.4,0,2081.55,-289.16,30.089,-143.022,154.44,0,0,0,269.47,0,0,0,0,0,0,0,0,0,0,0,0,0,0,0,199.74,FLYING
202.7,APPROACH,ILS_TRACK,80.77,81,0.23,1290.77,-15.37,-0.19,10.38,242.3,27.054,0.0662,0,19.969,1,0.6,4.246,1.673,0.35,0.0168,0.4,155.4,0,2357.57,-331.55,30.008,-167.574,167.302,0,0,0,269.47,0,0,0,0,0,0,0,0,0,0,0,0,0,0,0,202.86,FLYING
205.82,APPROACH,ILS_TRACK,79.9,81,1.1,1226.03,-15.62,-0.09,10.63,233.34,25.068,0.2662,0,20,1,0.6,4.255,1.606,0.35,0.0168,0.4,155.4,0,2612.97,-373.3,29.884,-210.713,178.784,0,0,0,269.47,0,0,0,0,0,0,0,0,0,0,0,0,0,0,0,206.06,FLYING
208.94,APPROACH,ILS_TRACK,79.34,81,1.66,1154.45,-15.51,0.14,10.77,225.11,23.402,0.4561,0,20,1,0.6,4.266,1.606,0.35,0.0168,0.4,155.4,0,2842.7,-413.56,29.724,-228.576,188.484,0,0,0,269.47,0,0,0,0,0,0,0,0,0,0,0,0,0,0,0,209.1,FLYING
212.06,APPROACH,ILS_TRACK,79.42,81,1.58,1098.56,-15.05,0.47,10.77,216.87,22.739,0.4534,0,20,1,0.6,4.278,1.606,0.35,0.0168,0.4,155.4,0,3044.68,-451.51,29.532,-222.774,196.174,0,0,0,269.47,0,0,0,0,0,0,0,0,0,0,0,0,0,0,0,212.22,FLYING
215.18,APPROACH,ILS_TRACK,80.19,81,0.81,1061.51,-14.21,0.94,10.68,208.36,23.32,0.3027,0,20,1,0.6,4.291,1.606,0.35,0.0168,0.4,155.4,0,3217.27,-486.21,29.312,-214.988,201.388,0,0,0,269.47,0,0,0,0,0,0,0,0,0,0,0,0,0,0,0,215.34,FLYING
218.3,APPROACH,ILS_TRACK,81.15,81,-0.15,1027.45,-12.95,1.69,10.64,199.35,24.446,0.1174,0,19.969,1,0.6,4.304,1.606,0.35,0.0168,0.4,155.4,0,3356.83,-516.53,29.066,-204.054,203.462,0,0,0,269.47,0,0,0,0,0,0,0,0,0,0,0,0,0,0,0,218.46,FLYING
221.42,APPROACH,ILS_TRACK,81.35,81,-0.35,991.46,-11.32,2.83,10.81,190.05,24.765,0.0862,0,19.77,1,0.6,4.318,1.606,0.35,0.0168,0.4,155.4,0,3457.44,-541.36,28.799,-182.414,202.147,0,0,0,269.47,0,0,0,0,0,0,0,0,0,0,0,0,0,0,0,221.58,FLYING
224.54,APPROACH,ILS_TRACK,80.21,81,0.79,949.61,-9.57,4.25,11.12,181.25,23.108,0.2862,0,20,1,0.6,4.333,1.606,0.35,0.0168,0.4,155.4,0,3514.05,-560.31,28.52,-168.866,198.404,0,0,0,269.47,0,0,0,0,0,0,0,0,0,0,0,0,0,0,0,224.7,FLYING
227.66,APPROACH,ILS_TRACK,78.41,81,2.59,898.57,-7.89,5.7,11.4,173.75,19.731,0.4862,0,20,1,0.6,4.349,1.606,0.35,0.0168,0.4,155.4,0,3527.4,-573.83,28.241,-147.77,193.786,0,0,0,269.47,0,0,0,0,0,0,0,0,0,0,0,0,0,0,0,227.82,FLYING
230.78,APPROACH,ILS_TRACK,76.87,81,4.13,860.59,-6.26,7.07,11.59,167.64,16.082,0.6862,0,19.9,1,0.6,4.366,1.606,0.35,0.0168,0.4,155.4,0,3503.86,-582.52,27.969,-128.387,188.665,0,0,0,269.47,0,0,0,0,0,0,0,0,0,0,0,0,0,0,0,230.94,FLYING
233.9,APPROACH,ILS_TRACK,76.04,81,4.96,844.93,-4.67,8.01,11.36,162.98,12.252,0.8862,0,19.8,1,0.6,4.383,1.606,0.35,0.0168,0.4,155.4,0,3451.09,-586.6,27.706,-111.66,182.497,0,0,0,269.47,0,0,0,0,0,0,0,0,0,0,0,0,0,0,0,234.06,FLYING
236.49,APPROACH,ILS_TRACK,76.37,81,4.63,823.79,-3.57,8.19,10.68,160.4,8.917,0.9945,0,20,1,0.6,4.399,1.606,0.35,0.0168,0.4,155.4,0,3381.33,-586.58,27.465,-100.369,175.954,0,0,0,269.47,0,0,0,0,0,0,0,0,0,0,0,0,0,0,0,236.57,FLYING
237.34,APPROACH,ILS_TRACK,76.79,81,4.21,811.69,-3.28,8.09,10.35,159.7,7.898,0.8351,0,20,1,0.6,4.414,1.606,0.35,0.0168,0.4,155.4,0,3352.05,-585.79,27.378,-119.446,174.461,0,0,0,269.47,0,0,0,0,0,0,0,0,0,0,0,0,0,0,0,237.38,FLYING
238.14,APPROACH,ILS_TRACK,77.27,81,3.73,796.72,-3.03,8.02,10.09,159.18,6.986,0.6969,0,20,1,0.6,4.427,1.606,0.35,0.0168,0.4,155.4,0,3328.91,-584.93,27.313,-121.584,174.116,0,0,0,269.47,0,0,0,0,0,0,0,0,0,0,0,0,0,0,0,238.18,FLYING
238.94,APPROACH,ILS_TRACK,77.82,81,3.18,783.84,-2.78,7.95,9.82,158.74,6.18,0.5634,0,20,1,0.6,4.439,1.606,0.35,0.0168,0.4,155.4,0,3304.85,-583.87,27.247,-120.164,173.466,0,0,0,269.47,0,0,0,0,0,0,0,0,0,0,0,0,0,0,0,238.98,FLYING
239.74,APPROACH,ILS_TRACK,78.41,81,2.59,772.21,-2.55,7.87,9.56,158.34,5.475,0.4392,0,20,1,0.6,4.449,1.606,0.35,0.0168,0.4,155.4,0,3279.94,-582.61,27.181,-118.74,172.759,0,0,0,269.47,0,0,0,0,0,0,0,0,0,0,0,0,0,0,0,239.78,FLYING
240.54,APPROACH,ILS_TRACK,79.02,81,1.98,768.59,-2.33,7.78,9.31,158,4.854,0.3279,0,20,1,0.6,4.459,1.606,0.35,0.0168,0.4,155.4,0,3254.24,-581.15,27.115,-117.323,172.004,0,0,0,269.47,0,0,0,0,0,0,0,0,0,0,0,0,0,0,0,240.58,FLYING
241.34,APPROACH,ILS_TRACK,79.59,81,1.41,775.38,-2.13,7.73,9.12,157.69,4.305,0.2363,0,20,1,0.6,4.467,1.606,0.35,0.0168,0.4,155.4,0,3227.83,-579.49,27.049,-115.909,171.201,0,0,0,269.47,0,0,0,0,0,0,0,0,0,0,0,0,0,0,0,241.38,FLYING
242.14,APPROACH,ILS_TRACK,80.05,81,0.95,782.84,-1.94,7.73,8.98,157.41,3.818,0.1772,0,20,1,0.6,4.475,1.606,0.35,0.0168,0.4,155.4,0,3200.79,-577.66,26.982,-114.511,170.365,0,0,0,269.47,0,0,0,0,0,0,0,0,0,0,0,0,0,0,0,242.18,FLYING
242.94,APPROACH,ILS_TRACK,80.35,81,0.65,784.09,-1.77,7.79,8.92,157.16,3.38,0.1557,0,20,1,0.6,4.482,1.606,0.35,0.0168,0.4,155.4,0,3173.21,-575.66,26.915,-113.136,169.505,0,0,0,269.47,0,0,0,0,0,0,0,0,0,0,0,0,0,0,0,242.98,FLYING
243.74,APPROACH,ILS_TRACK,80.49,81,0.51,785.57,-1.6,7.88,8.9,156.94,2.986,0.1695,0,20,1,0.6,4.488,1.606,0.35,0.0168,0.4,155.4,0,3145.19,-573.52,26.848,-111.799,168.631,0,0,0,269.47,0,0,0,0,0,0,0,0,0,0,0,0,0,0,0,243.78,FLYING
244.54,APPROACH,ILS_TRACK,80.47,81,0.53,793.13,-1.45,8,8.93,156.74,2.63,0.2101,0,20,1,0.6,4.494,1.606,0.35,0.0168,0.4,155.4,0,3116.84,-571.25,26.782,-110.496,167.747,0,0,0,269.47,0,0,0,0,0,0,0,0,0,0,0,0,0,0,0,244.58,FLYING
245.34,APPROACH,ILS_TRACK,80.36,81,0.64,797.89,-1.32,8.13,8.97,156.57,2.309,0.2656,0,20,1,0.6,4.5,1.606,0.35,0.0168,0.4,155.4,0,3088.22,-568.88,26.715,-109.221,166.858,0,0,0,269.47,0,0,0,0,0,0,0,0,0,0,0,0,0,0,0,245.38,FLYING
246.14,APPROACH,ILS_TRACK,80.19,81,0.81,800.54,-1.19,8.25,9,156.42,2.022,0.3236,0,20,1,0.6,4.5,1.606,0.35,0.0168,0.4,155.4,0,3059.42,-566.4,26.649,-107.974,165.963,0,0,0,269.47,0,0,0,0,0,0,0,0,0,0,0,0,0,0,0,246.18,FLYING
246.94,APPROACH,ILS_TRACK,80.01,81,0.99,803.07,-1.07,8.35,9.04,156.29,1.765,0.375,0,20,1,0.6,4.5,1.606,0.35,0.0168,0.4,155.4,0,3030.46,-563.84,26.583,-106.742,165.058,0,0,0,269.47,0,0,0,0,0,0,0,0,0,0,0,0,0,0,0,246.98,FLYING
247.74,APPROACH,ILS_TRACK,79.83,81,1.17,807.18,-0.97,8.45,9.07,156.18,1.537,0.4177,0,20,1,0.6,4.5,1.606,0.35,0.0168,0.4,155.4,0,3001.39,-561.21,26.517,-105.517,164.145,0,0,0,269.47,0,0,0,0,0,0,0,0,0,0,0,0,0,0,0,247.78,FLYING
248.54,APPROACH,ILS_TRACK,79.67,81,1.33,809.65,-0.87,8.54,9.1,156.08,1.34,0.4515,0,20,1,0.6,4.5,1.606,0.35,0.0168,0.4,155.4,0,2972.21,-558.5,26.451,-104.3,163.22,0,0,0,269.47,0,0,0,0,0,0,0,0,0,0,0,0,0,0,0,248.58,FLYING
249.34,APPROACH,ILS_TRACK,79.54,81,1.46,807.38,-0.78,8.61,9.11,155.99,1.164,0.4761,0,20,1,0.6,4.5,1.606,0.35,0.0168,0.4,155.4,0,2942.94,-555.73,26.386,-103.085,162.287,0,0,0,269.47,0,0,0,0,0,0,0,0,0,0,0,0,0,0,0,249.38,FLYING
250.14,APPROACH,ILS_TRACK,79.43,81,1.57,806.54,-0.7,8.67,9.12,155.92,1.011,0.4917,0,20,1,0.6,4.5,1.606,0.35,0.0168,0.4,155.4,0,2913.6,-552.9,26.32,-101.873,161.343,0,0,0,269.47,0,0,0,0,0,0,0,0,0,0,0,0,0,0,0,250.18,FLYING
250.94,APPROACH,ILS_TRACK,79.35,81,1.65,805.19,-0.62,8.72,9.12,155.85,0.876,0.4991,0,20,1,0.6,4.5,1.606,0.35,0.0168,0.4,155.4,0,2884.19,-550.02,26.255,-100.66,160.391,0,0,0,269.47,0,0,0,0,0,0,0,0,0,0,0,0,0,0,0,250.98,FLYING
251.74,APPROACH,ILS_TRACK,79.31,81,1.69,805.2,-0.55,8.75,9.11,155.8,0.759,0.499,0,20,1,0.6,4.5,1.606,0.35,0.0168,0.4,155.4,0,2854.7,-547.08,26.19,-99.445,159.428,0,0,0,269.47,0,0,0,0,0,0,0,0,0,0,0,0,0,0,0,251.78,FLYING
254.03,APPROACH,ILS_TRACK,79.36,81,1.64,819.47,-0.41,8.81,9.07,155.69,0.456,0.4841,0,20,1,0.6,4.5,1.606,0.35,0.0168,0.4,155.4,0,2789.88,-540.5,26.048,-79.184,151.625,0,0,0,269.47,0,0,0,0,0,0,0,0,0,0,0,0,0,0,0,254.19,FLYING
257.15,APPROACH,ILS_TRACK,79.81,81,1.19,822.32,-0.22,8.7,8.85,155.61,0.193,0.3935,0,20,1,0.6,4.5,1.606,0.35,0.0168,0.4,155.4,0,2673.49,-528.3,25.794,-48.745,138.956,0,0,0,269.47,0,0,0,0,0,0,0,0,0,0,0,0,0,0,0,257.31,FLYING
260.27,APPROACH,ILS_TRACK,80.54,81,0.46,828.79,-0.08,8.53,8.59,155.56,0.073,0.2484,0,20,1,0.6,4.5,1.606,0.35,0.0168,0.4,155.4,0,2555.79,-515.48,25.538,-43.382,134.133,0,0,0,269.47,0,0,0,0,0,0,0,0,0,0,0,0,0,0,0,260.43,FLYING
263.39,APPROACH,ILS_TRACK,80.87,81,0.13,839.97,-0.02,8.57,8.58,155.53,0.028,0.1849,0,20,1,0.6,4.5,1.606,0.35,0.0168,0.4,155.4,0,2436.9,-502.16,25.281,-38.029,129.34,0,0,0,269.47,0,0,0,0,0,0,0,0,0,0,0,0,0,0,0,263.55,FLYING
266.51,APPROACH,ILS_TRACK,80.06,81,0.94,844.84,-0.05,8.93,8.95,155.51,0.013,0.3617,0,20,1,0.6,4.5,1.606,0.35,0.0168,0.4,155.4,0,2318.08,-488.72,25.024,-33.317,125.115,0,0,0,269.47,0,0,0,0,0,0,0,0,0,0,0,0,0,0,0,266.67,FLYING
269.63,APPROACH,ILS_TRACK,78.67,81,2.33,831.88,-0.09,9.34,9.39,155.49,0.002,0.5617,0,20,1,0.6,4.5,1.606,0.35,0.0168,0.4,155.4,0,2200.86,-475.58,24.77,-29.422,121.653,0,0,0,269.47,0,0,0,0,0,0,0,0,0,0,0,0,0,0,0,269.79,FLYING
272.75,APPROACH,ILS_TRACK,77.73,81,3.27,823.62,-0.08,9.57,9.62,155.47,-0.007,0.7617,0,20,1,0.6,4.5,1.606,0.35,0.0168,0.4,155.4,0,2085.35,-462.75,24.521,-25.661,118.302,0,0,0,269.47,0,0,0,0,0,0,0,0,0,0,0,0,0,0,0,272.91,FLYING
275.8,APPROACH,ILS_TRACK,77.77,81,3.23,832.89,0.02,9.48,9.47,155.56,-0.888,0.7991,0,20,1,0.6,4.5,1.606,0.35,0.0168,0.4,158.95,0,1970.61,-449.97,24.273,-21.453,114.541,0,0,0,269.47,0,0,0,0,0,0,0,0,0,0,0,0,0,0,0,275.92,FLYING
277.1,APPROACH,ILS_TRACK,78.25,81,2.75,841.13,0.08,9.22,9.18,156.22,-2.729,0.6458,0,20,1,0.6,4.5,1.606,0.35,0.0168,0.4,155.4,0,1905.42,-442.57,24.132,-43.624,120.929,0,0,0,269.47,0,0,0,0,0,0,0,0,0,0,0,0,0,0,0,277.14,FLYING
277.9,APPROACH,ILS_TRACK,78.63,81,2.37,842.74,0.07,9.07,9.03,156.2,-1.614,0.5458,0,20,1,0.6,4.5,1.606,0.35,0.0168,0.4,155.4,0,1876.1,-439.17,24.068,-60.382,126.313,0,0,0,269.47,0,0,0,0,0,0,0,0,0,0,0,0,0,0,0,277.94,FLYING
278.7,APPROACH,ILS_TRACK,79.05,81,1.95,847.58,0.08,8.94,8.89,156.14,-0.727,0.4497,0,20,1,0.6,4.5,1.606,0.35,0.0168,0.4,155.4,0,1846.82,-435.74,24.003,-59.235,125.236,0,0,0,269.47,0,0,0,0,0,0,0,0,0,0,0,0,0,0,0,278.74,FLYING
279.5,APPROACH,ILS_TRACK,79.49,81,1.51,854.28,0.1,8.8,8.74,156.09,-0.151,0.3617,0,20,1,0.6,4.5,1.606,0.35,0.0168,0.4,155.4,0,1817.47,-432.29,23.938,-58.024,124.153,0,0,0,269.47,0,0,0,0,0,0,0,0,0,0,0,0,0,0,0,279.54,FLYING
280.3,APPROACH,ILS_TRACK,79.93,81,1.07,860.6,0.11,8.69,8.62,156.03,0.212,0.2866,0,20,1,0.6,4.5,1.606,0.35,0.0168,0.4,155.4,0,1787.99,-428.8,23.873,-56.777,123.056,0,0,0,269.47,0,0,0,0,0,0,0,0,0,0,0,0,0,0,0,280.34,FLYING
281.12,APPROACH,ILS_TRACK,80.3,81,0.7,863.56,0.11,8.61,8.55,155.97,0.43,0.2321,0,20,1,0.6,4.5,1.606,0.35,0.0168,0.4,155.4,0,1757.59,-425.19,23.806,-55.105,121.785,0,0,0,269.47,0,0,0,0,0,0,0,0,0,0,0,0,0,0,0,281.16,FLYING
281.92,APPROACH,ILS_TRACK,80.55,81,0.45,863.67,0.11,8.58,8.51,155.91,0.543,0.2079,0,20,1,0.6,4.5,1.606,0.35,0.0168,0.4,155.4,0,1727.78,-421.65,23.74,-54.204,120.826,0,0,0,269.47,0,0,0,0,0,0,0,0,0,0,0,0,0,0,0,281.96,FLYING
282.72,APPROACH,ILS_TRACK,80.67,81,0.33,864.12,0.11,8.59,8.52,155.86,0.584,0.2113,0,20,1,0.6,4.5,1.606,0.35,0.0168,0.4,155.4,0,1697.84,-418.09,23.673,-52.944,119.735,0,0,0,269.47,0,0,0,0,0,0,0,0,0,0,0,0,0,0,0,282.76,FLYING
283.52,APPROACH,ILS_TRACK,80.68,81,0.32,865.71,0.11,8.63,8.55,155.81,0.561,0.2369,0,20,1,0.6,4.5,1.606,0.35,0.0168,0.4,155.4,0,1667.81,-414.53,23.607,-51.7,118.655,0,0,0,269.47,0,0,0,0,0,0,0,0,0,0,0,0,0,0,0,283.56,FLYING
284.32,APPROACH,ILS_TRACK,80.6,81,0.4,866.29,0.11,8.68,8.6,155.77,0.504,0.2761,0,20,1,0.6,4.5,1.606,0.35,0.0168,0.4,155.4,0,1637.74,-410.96,23.541,-50.472,117.586,0,0,0,269.47,0,0,0,0,0,0,0,0,0,0,0,0,0,0,0,284.36,FLYING
285.12,APPROACH,ILS_TRACK,80.48,81,0.52,864.79,0.12,8.73,8.65,155.73,0.437,0.3196,0,20,1,0.6,4.5,1.606,0.35,0.0168,0.4,155.4,0,1607.65,-407.4,23.475,-49.26,116.527,0,0,0,269.47,0,0,0,0,0,0,0,0,0,0,0,0,0,0,0,285.16,FLYING
285.92,APPROACH,ILS_TRACK,80.34,81,0.66,858.16,0.12,8.77,8.7,155.71,0.37,0.3596,0,20,1,0.6,4.5,1.606,0.35,0.0168,0.4,155.4,0,1577.56,-403.85,23.409,-48.057,115.471,0,0,0,269.47,0,0,0,0,0,0,0,0,0,0,0,0,0,0,0,285.96,FLYING
286.72,APPROACH,ILS_TRACK,80.2,81,0.8,849.62,0.12,8.81,8.74,155.68,0.309,0.3927,0,20,1,0.6,4.5,1.606,0.35,0.0168,0.4,155.4,0,1547.47,-400.3,23.343,-46.857,114.416,0,0,0,269.47,0,0,0,0,0,0,0,0,0,0,0,0,0,0,0,286.76,FLYING
287.52,APPROACH,ILS_TRACK,80.08,81,0.92,842.51,0.12,8.85,8.77,155.66,0.255,0.4186,0,20,1,0.6,4.5,1.606,0.35,0.0168,0.4,155.4,0,1517.4,-396.76,23.278,-45.662,113.362,0,0,0,269.47,0,0,0,0,0,0,0,0,0,0,0,0,0,0,0,287.56,FLYING
288.32,APPROACH,ILS_TRACK,79.97,81,1.03,832.75,0.13,8.88,8.8,155.65,0.211,0.4373,0,20,1,0.6,4.5,1.606,0.35,0.0168,0.4,155.4,0,1487.35,-393.22,23.212,-44.466,112.306,0,0,0,269.47,0,0,0,0,0,0,0,0,0,0,0,0,0,0,0,288.36,FLYING
289.12,APPROACH,ILS_TRACK,79.89,81,1.11,821.53,0.13,8.9,8.81,155.63,0.174,0.449,0,20,1,0.6,4.5,1.606,0.35,0.0168,0.4,155.4,0,1457.3,-389.69,23.147,-43.269,111.25,0,0,0,269.47,0,0,0,0,0,0,0,0,0,0,0,0,0,0,0,289.16,FLYING
289.92,APPROACH,ILS_TRACK,79.83,81,1.17,812.92,0.14,8.91,8.82,155.62,0.144,0.4544,0,20,1,0.6,4.5,1.606,0.35,0.0168,0.4,155.4,0,1427.26,-386.15,23.082,-42.069,110.19,0,0,0,269.47,0,0,0,0,0,0,0,0,0,0,0,0,0,0,0,289.96,FLYING
290.72,APPROACH,ILS_TRACK,79.8,81,1.2,803.49,0.14,8.91,8.82,155.61,0.12,0.454,0,20,1,0.6,4.5,1.606,0.35,0.0168,0.4,155.4,0,1397.21,-382.62,23.016,-40.865,109.129,0,0,0,269.47,0,0,0,0,0,0,0,0,0,0,0,0,0,0,0,290.76,FLYING
291.52,APPROACH,ILS_TRACK,79.8,81,1.2,793.58,0.15,8.91,8.81,155.6,0.101,0.4487,0,20,1,0.6,4.5,1.606,0.35,0.0168,0.4,155.4,0,1367.16,-379.08,22.951,-39.661,108.063,0,0,0,269.47,0,0,0,0,0,0,0,0,0,0,0,0,0,0,0,291.56,FLYING
292.32,APPROACH,ILS_TRACK,79.82,81,1.18,784.7,0.16,8.9,8.8,155.59,0.087,0.4393,0,20,1,0.6,4.5,1.606,0.35,0.0168,0.4,155.4,0,1337.09,-375.54,22.886,-38.449,106.994,0,0,0,269.47,0,0,0,0,0,0,0,0,0,0,0,0,0,0,0,292.36,FLYING
293.12,APPROACH,ILS_TRACK,79.86,81,1.14,778.42,0.16,8.88,8.77,155.58,0.075,0.4268,0,20,1,0.6,4.5,1.606,0.35,0.0168,0.4,155.4,0,1307,-371.99,22.82,-37.233,105.921,0,0,0,269.47,0,0,0,0,0,0,0,0,0,0,0,0,0,0,0,293.16,FLYING
293.92,APPROACH,ILS_TRACK,79.92,81,1.08,770.94,0.17,8.86,8.75,155.57,0.065,0.4119,0,20,1,0.6,4.5,1.606,0.35,0.0168,0.4,155.4,0,1276.87,-368.44,22.755,-36.012,104.843,0,0,0,269.47,0,0,0,0,0,0,0,0,0,0,0,0,0,0,0,293.96,FLYING
294.72,APPROACH,ILS_TRACK,80,81,1,762.27,0.18,8.83,8.71,155.56,0.058,0.3957,0,20,1,0.6,4.5,1.606,0.35,0.0168,0.4,155.4,0,1246.71,-364.87,22.69,-34.788,103.762,0,0,0,269.47,0,0,0,0,0,0,0,0,0,0,0,0,0,0,0,294.76,FLYING
295.52,APPROACH,ILS_TRACK,80.09,81,0.91,754,0.19,8.8,8.68,155.56,0.05,0.3789,0,20,1,0.6,4.5,1.606,0.35,0.0168,0.4,155.4,0,1216.51,-361.3,22.624,-33.558,102.676,0,0,0,269.47,0,0,0,0,0,0,0,0,0,0,0,0,0,0,0,295.56,FLYING
296.32,APPROACH,ILS_TRACK,80.19,81,0.81,747.73,0.19,8.77,8.65,155.55,0.044,0.3622,0,20,1,0.6,4.5,1.606,0.35,0.0168,0.4,155.4,0,1186.26,-357.72,22.559,-32.327,101.587,0,0,0,269.47,0,0,0,0,0,0,0,0,0,0,0,0,0,0,0,296.36,FLYING
297.12,APPROACH,ILS_TRACK,80.3,81,0.7,746.56,0.2,8.74,8.62,155.55,0.038,0.3463,0,20,1,0.6,4.5,1.606,0.35,0.0168,0.4,155.4,0,1155.96,-354.13,22.493,-31.091,100.495,0,0,0,269.47,0,0,0,0,0,0,0,0,0,0,0,0,0,0,0,297.16,FLYING
297.92,APPROACH,ILS_TRACK,80.4,81,0.6,750.3,0.21,8.71,8.58,155.54,0.031,0.332,0,20,1,0.6,4.5,1.606,0.35,0.0168,0.4,155.4,0,1125.62,-350.53,22.427,-29.853,99.398,0,0,0,269.47,0,0,0,0,0,0,0,0,0,0,0,0,0,0,0,297.96,FLYING
298.72,APPROACH,ILS_TRACK,80.5,81,0.5,749.14,0.21,8.69,8.56,155.54,0.025,0.3208,0,20,1,0.6,4.5,1.606,0.35,0.0168,0.4,155.4,0,1095.24,-346.92,22.361,-28.617,98.299,0,0,0,269.47,0,0,0,0,0,0,0,0,0,0,0,0,0,0,0,298.76,FLYING
299.52,APPROACH,ILS_TRACK,80.58,81,0.42,748.99,0.22,8.68,8.54,155.53,0.019,0.314,0,20,1,0.6,4.5,1.606,0.35,0.0168,0.4,155.4,0,1064.8,-343.3,22.296,-27.377,97.198,0,0,0,269.47,0,0,0,0,0,0,0,0,0,0,0,0,0,0,0,299.56,FLYING
300.32,APPROACH,ILS_TRACK,80.63,81,0.37,748.15,0.22,8.67,8.53,155.53,0.013,0.3122,0,20,1,0.6,4.5,1.606,0.35,0.0168,0.4,155.4,0,1034.35,-339.67,22.23,-26.146,96.096,0,0,0,269.47,0,0,0,0,0,0,0,0,0,0,0,0,0,0,0,300.36,FLYING
301.12,APPROACH,ILS_TRACK,80.67,81,0.33,753.13,0.23,8.67,8.53,155.52,0.005,0.3147,0,20,1,0.6,4.5,1.606,0.35,0.0168,0.4,155.49,0,1003.87,-336.04,22.164,-24.913,94.997,0,0,0,269.47,0,0,0,0,0,0,0,0,0,0,0,0,0,0,0,301.16,FLYING
301.92,APPROACH,ILS_TRACK,80.68,81,0.32,760.86,0.24,8.66,8.51,155.53,-0.04,0.3203,0,20,1,0.6,4.5,1.606,0.35,0.0168,0.4,156.71,0,973.37,-332.4,22.098,-23.686,93.895,0,0,0,269.47,0,0,0,0,0,0,0,0,0,0,0,0,0,0,0,301.96,FLYING
302.72,APPROACH,ILS_TRACK,80.69,81,0.31,765.17,0.22,8.65,8.51,155.65,-0.646,0.327,0,20,1,0.6,4.5,1.606,0.35,0.0168,0.4,157.94,0,942.87,-328.76,22.032,-22.464,92.809,0,0,0,269.47,0,0,0,0,0,0,0,0,0,0,0,0,0,0,0,302.76,FLYING
303.52,APPROACH,ILS_TRACK,80.68,81,0.32,769.16,0.22,8.66,8.53,155.88,-1.581,0.3336,0,20,1,0.6,4.5,1.606,0.35,0.0168,0.4,159.13,0,912.41,-325.12,21.966,-21.267,91.72,0,0,0,269.47,0,0,0,0,0,0,0,0,0,0,0,0,0,0,0,303.56,FLYING
304.32,APPROACH,ILS_TRACK,80.68,81,0.32,774.46,0.22,8.68,8.55,156.22,-2.668,0.3395,0,20,1,0.6,4.5,1.606,0.35,0.0168,0.4,160.28,0,882.08,-321.49,21.9,-20.119,90.625,0,0,0,269.47,0,0,0,0,0,0,0,0,0,0,0,0,0,0,0,304.36,FLYING
305.12,APPROACH,ILS_TRACK,80.67,81,0.33,778.74,0.22,8.69,8.57,156.66,-3.781,0.3446,0,20,1,0.6,4.5,1.606,0.35,0.0168,0.4,161.37,0,851.98,-317.84,21.834,-19.03,89.52,0,0,0,269.47,0,0,0,0,0,0,0,0,0,0,0,0,0,0,0,305.16,FLYING
305.92,APPROACH,ILS_TRACK,80.66,81,0.34,782.61,0.23,8.71,8.59,157.18,-4.833,0.3491,0,20,1,0.6,4.5,1.606,0.35,0.0168,0.4,162.39,0,822.22,-314.18,21.767,-18.011,88.402,0,0,0,269.47,0,0,0,0,0,0,0,0,0,0,0,0,0,0,0,305.96,FLYING
306.72,APPROACH,ILS_TRACK,80.66,81,0.34,790.26,0.24,8.72,8.61,157.76,-5.765,0.3528,0,20,1,0.6,4.5,1.606,0.35,0.0168,0.4,163.34,0,792.92,-310.51,21.701,-17.063,87.275,0,0,0,269.47,0,0,0,0,0,0,0,0,0,0,0,0,0,0,0,306.76,FLYING
307.52,APPROACH,ILS_TRACK,80.65,81,0.35,798.12,0.24,8.72,8.63,158.4,-6.541,0.3558,0,20,1,0.6,4.5,1.606,0.35,0.0168,0.4,164.21,0,764.16,-306.82,21.634,-16.188,86.14,0,0,0,269.47,0,0,0,0,0,0,0,0,0,0,0,0,0,0,0,307.56,FLYING
308.32,APPROACH,ILS_TRACK,80.64,81,0.36,807.24,0.24,8.72,8.64,159.07,-7.16,0.3578,0,20,1,0.6,4.5,1.606,0.35,0.0168,0.4,165.02,0,736.03,-303.11,21.567,-15.377,85.003,0,0,0,269.47,0,0,0,0,0,0,0,0,0,0,0,0,0,0,0,308.36,FLYING
309.12,APPROACH,ILS_TRACK,80.64,81,0.36,819.05,0.24,8.72,8.65,159.77,-7.633,0.3587,0,20,1,0.6,4.5,1.606,0.35,0.0168,0.4,165.77,0,708.6,-299.39,21.5,-14.629,83.864,0,0,0,269.47,0,0,0,0,0,0,0,0,0,0,0,0,0,0,0,309.16,FLYING
309.92,APPROACH,ILS_TRACK,80.65,81,0.35,832.85,0.23,8.71,8.65,160.48,-7.977,0.3585,0,20,1,0.6,4.5,1.606,0.35,0.0168,0.4,166.46,0,681.92,-295.66,21.432,-13.936,82.726,0,0,0,269.47,0,0,0,0,0,0,0,0,0,0,0,0,0,0,0,309.96,FLYING
310.72,APPROACH,ILS_TRACK,80.66,81,0.34,846.4,0.22,8.7,8.65,161.2,-8.2,0.3572,0,20,1,0.6,4.5,1.606,0.35,0.0168,0.4,167.1,0,656.03,-291.92,21.364,-13.295,81.588,0,0,0,269.47,0,0,0,0,0,0,0,0,0,0,0,0,0,0,0,310.76,FLYING
311.52,APPROACH,ILS_TRACK,80.67,81,0.33,854.99,0.21,8.68,8.64,161.92,-8.32,0.3549,0,20,1,0.6,4.5,1.606,0.35,0.0168,0.4,167.7,0,630.95,-288.17,21.296,-12.7,80.453,0,0,0,269.47,0,0,0,0,0,0,0,0,0,0,0,0,0,0,0,311.56,FLYING
312.32,APPROACH,ILS_TRACK,80.69,81,0.31,859.85,0.19,8.66,8.63,162.63,-8.341,0.3518,0,20,1,0.6,4.5,1.606,0.35,0.0168,0.4,168.25,0,606.71,-284.42,21.228,-12.148,79.319,0,0,0,269.47,0,0,0,0,0,0,0,0,0,0,0,0,0,0,0,312.36,FLYING
313.12,APPROACH,ILS_TRACK,80.71,81,0.29,861.17,0.18,8.64,8.62,163.32,-8.281,0.3479,0,20,1,0.6,4.5,1.606,0.35,0.0168,0.4,168.77,0,583.31,-280.66,21.159,-11.634,78.185,0,0,0,269.47,0,0,0,0,0,0,0,0,0,0,0,0,0,0,0,313.16,FLYING
313.92,APPROACH,ILS_TRACK,80.74,81,0.26,859.91,0.16,8.62,8.61,164,-8.153,0.3434,0,20,1,0.6,4.5,1.606,0.35,0.0168,0.4,169.25,0,560.75,-276.9,21.09,-11.151,77.053,0,0,0,269.47,0,0,0,0,0,0,0,0,0,0,0,0,0,0,0,313.96,FLYING
314.72,APPROACH,ILS_TRACK,80.78,81,0.22,859.41,0.14,8.6,8.59,164.65,-7.967,0.3385,0,20,1,0.6,4.5,1.606,0.35,0.0168,0.4,169.7,0,539.03,-273.14,21.02,-10.698,75.922,0,0,0,269.47,0,0,0,0,0,0,0,0,0,0,0,0,0,0,0,314.76,FLYING
315.52,APPROACH,ILS_TRACK,80.82,81,0.18,861.89,0.13,8.58,8.57,165.29,-7.742,0.3335,0,20,1,0.6,4.5,1.606,0.35,0.0168,0.4,170.13,0,518.11,-269.37,20.951,-10.268,74.79,0,0,0,269.47,0,0,0,0,0,0,0,0,0,0,0,0,0,0,0,315.56,FLYING
317.33,APPROACH,ILS_TRACK,80.88,81,0.12,866.24,0.11,8.79,8.79,166.75,-8.321,0.3233,0,20,1,0.6,4.5,1.606,0.35,0.0168,0.4,177.21,0,485.65,-263.22,20.836,-3.193,69.126,0,0,0,269.47,0,0,0,0,0,0,0,0,0,0,0,0,0,0,0,317.49,FLYING
320.45,APPROACH,ILS_TRACK,80.81,81,0.19,872,0.11,9.5,9.51,171.49,-12.715,0.3392,0,20,1,0.6,4.5,1.606,0.35,0.0168,0.4,196.92,0,419.08,-248.51,20.563,16.52,51.021,0,0,0,269.47,0,0,0,0,0,0,0,0,0,0,0,0,0,0,0,320.61,FLYING
323.49,APPROACH,ILS_TRACK,79.88,81,1.12,883.03,0.3,8.18,9.04,181.04,-24.342,0.5217,0,20,1,0.6,4.5,1.606,0.35,0.0168,0.4,186.27,0,374.74,-232.33,20.284,5.869,43.81,0,0,0,269.47,0,0,0,0,0,0,0,0,0,0,0,0,0,0,0,323.61,FLYING
324.75,APPROACH,ILS_TRACK,79.82,81,1.18,891.64,-0.53,8.34,8.94,181.76,-12.635,0.5292,0,20,1,0.6,4.5,1.606,0.35,0.0168,0.4,169.42,0,367.32,-224.36,20.13,-10.979,54.561,0,0,0,269.47,0,0,0,0,0,0,0,0,0,0,0,0,0,0,0,324.79,FLYING
325.55,APPROACH,ILS_TRACK,79.95,81,1.05,897.53,-0.89,7.82,8.4,181.19,-4.457,0.4825,0,20,1,0.6,4.5,1.606,0.35,0.0168,0.4,166,0,366.78,-221.19,20.058,-14.404,61.269,0,0,0,269.47,0,0,0,0,0,0,0,0,0,0,0,0,0,0,0,325.59,FLYING
326.35,APPROACH,ILS_TRACK,80.09,81,0.91,902.39,-0.86,8.49,9.05,179.91,4.999,0.4367,0,20,1,0.6,4.5,1.606,0.35,0.0168,0.4,165.64,0,366.95,-218.02,19.986,-14.763,60.333,0,0,0,269.47,0,0,0,0,0,0,0,0,0,0,0,0,0,0,0,326.39,FLYING
327.15,APPROACH,ILS_TRACK,80.19,81,0.81,906.56,-0.65,8.64,9.26,177.73,13.608,0.4094,0,20,1,0.6,4.5,1.606,0.35,0.0168,0.4,165.76,0,366.87,-214.81,19.913,-14.636,59.319,0,0,0,269.47,0,0,0,0,0,0,0,0,0,0,0,0,0,0,0,327.19,FLYING
327.95,APPROACH,ILS_TRACK,80.3,81,0.7,912.37,-0.57,8.43,9.12,175.95,15.066,0.3838,0,20,1,0.6,4.5,1.606,0.35,0.0168,0.4,166.45,0,365.53,-211.54,19.841,-13.95,58.229,0,0,0,269.47,0,0,0,0,0,0,0,0,0,0,0,0,0,0,0,327.99,FLYING
328.75,APPROACH,ILS_TRACK,80.44,81,0.56,915.66,-0.57,8.24,8.89,174.89,14.161,0.3555,0,20,1,0.6,4.5,1.606,0.35,0.0168,0.4,167.42,0,362.5,-208.24,19.769,-12.984,57.188,0,0,0,269.47,0,0,0,0,0,0,0,0,0,0,0,0,0,0,0,328.8,FLYING
330.01,APPROACH,ILS_TRACK,80.66,81,0.34,920.62,-0.6,8.17,8.69,173.89,10.561,0.3157,0,20,1,0.6,4.5,1.606,0.35,0.0168,0.4,169.45,0,355.92,-203.78,19.671,-10.946,54.008,0,0,0,269.47,0,0,0,0,0,0,0,0,0,0,0,0,0,0,0,330.09,FLYING
331.57,APPROACH,ILS_TRACK,80.95,81,0.05,924.21,-0.55,8.11,8.5,173.19,6.497,0.2628,0,20,1,0.6,4.5,1.606,0.35,0.0168,0.4,173.39,0,342.54,-197.32,19.53,-7.015,48.854,0,0,0,269.47,0,0,0,0,0,0,0,0,0,0,0,0,0,0,0,331.65,FLYING
333.13,APPROACH,ILS_TRACK,81.09,81,-0.09,931.08,-0.5,8.21,8.53,173.5,0.926,0.2444,0,19.957,1,0.6,4.5,1.606,0.35,0.0168,0.4,175.47,0,326.29,-190.77,19.388,-4.927,46.752,0,0,0,269.47,0,0,0,0,0,0,0,0,0,0,0,0,0,0,0,333.21,FLYING
334.69,APPROACH,ILS_TRACK,81.02,81,-0.02,934.01,-0.4,8.35,8.6,173.89,-1.521,0.2717,0,19.939,1,0.6,4.5,1.606,0.35,0.0168,0.4,176.54,0,309.27,-184.08,19.247,-3.86,44.514,0,0,0,269.47,0,0,0,0,0,0,0,0,0,0,0,0,0,0,0,334.77,FLYING
336.25,APPROACH,ILS_TRACK,80.77,81,0.23,933.69,-0.31,8.48,8.69,174.4,-2.713,0.3336,0,20,1,0.6,4.5,1.606,0.35,0.0168,0.4,176.98,0,292.7,-177.24,19.106,-3.425,42.23,0,0,0,269.47,0,0,0,0,0,0,0,0,0,0,0,0,0,0,0,336.33,FLYING
337.81,APPROACH,ILS_TRACK,80.48,81,0.52,927.41,-0.24,8.6,8.76,174.93,-3.108,0.3979,0,20,1,0.6,4.5,1.606,0.35,0.0168,0.4,177.08,0,277.18,-170.29,18.965,-3.325,39.97,0,0,0,269.47,0,0,0,0,0,0,0,0,0,0,0,0,0,0,0,337.89,FLYING
339.37,APPROACH,ILS_TRACK,80.23,81,0.77,925.22,-0.19,8.69,8.82,175.41,-2.968,0.4472,0,20,1,0.6,4.5,1.606,0.35,0.0168,0.4,177.01,0,262.93,-163.26,18.824,-3.392,37.737,0,0,0,269.47,0,0,0,0,0,0,0,0,0,0,0,0,0,0,0,339.45,FLYING
340.93,APPROACH,ILS_TRACK,80.05,81,0.95,928.49,-0.14,8.74,8.84,175.79,-2.493,0.4741,0,20,1,0.6,4.5,1.606,0.35,0.0168,0.4,176.9,0,249.94,-156.18,18.684,-3.501,35.513,0,0,0,269.47,0,0,0,0,0,0,0,0,0,0,0,0,0,0,0,341.01,FLYING
342.49,APPROACH,ILS_TRACK,79.99,81,1.01,929.95,-0.1,8.76,8.83,176.06,-1.932,0.476,0,20,1,0.6,4.5,1.606,0.35,0.0168,0.4,176.84,0,238.01,-149.03,18.544,-3.559,33.277,0,0,0,269.47,0,0,0,0,0,0,0,0,0,0,0,0,0,0,0,342.57,FLYING
344.09,APPROACH,ILS_TRACK,80.04,81,0.96,924.67,-0.05,8.74,8.78,176.27,-1.464,0.454,0,20,1,0.6,4.5,1.606,0.35,0.0168,0.4,177.01,0,226.65,-141.64,18.4,-3.386,30.661,0,0,0,269.47,0,0,0,0,0,0,0,0,0,0,0,0,0,0,0,344.17,FLYING
345.65,APPROACH,ILS_TRACK,80.19,81,0.81,917.89,-0.01,8.69,8.71,176.46,-1.212,0.4139,0,20,1,0.6,4.5,1.606,0.35,0.0168,0.4,176.98,0,216.2,-134.36,18.26,-3.421,28.655,0,0,0,269.47,0,0,0,0,0,0,0,0,0,0,0,0,0,0,0,345.73,FLYING
347.21,APPROACH,ILS_TRACK,80.42,81,0.58,916.21,0.02,8.63,8.62,176.6,-0.97,0.3636,0,20,1,0.6,4.5,1.606,0.35,0.0168,0.4,177.14,0,206.23,-127,18.119,-3.263,26.327,0,0,0,269.47,0,0,0,0,0,0,0,0,0,0,0,0,0,0,0,347.29,FLYING
348.77,APPROACH,ILS_TRACK,80.68,80.6,-0.08,923.4,0.05,8.56,8.53,176.74,-0.887,0.2832,0,19.973,1,0.6,4.5,1.606,0.35,0.0168,0.4,177.33,0,196.63,-119.56,17.978,-3.066,23.974,0,0,0,269.47,0,0,0,0,0,0,0,0,0,0,0,0,0,0,0,348.85,FLYING
350.33,APPROACH,ILS_TRACK,80.87,80.2,-0.67,923.73,0.07,8.54,8.5,176.88,-0.903,0.2156,0,19.642,1,0.6,4.5,1.606,0.35,0.0168,0.4,177.54,0,187.36,-112.06,17.836,-2.859,21.608,0,0,0,269.47,0,0,0,0,0,0,0,0,0,0,0,0,0,0,0,350.41,FLYING
351.89,APPROACH,ILS_TRACK,80.81,79.8,-1.01,920.07,0.07,8.62,8.58,177.04,-0.948,0.1981,0,19.125,1,0.6,4.5,1.606,0.35,0.0168,0.4,177.73,0,178.43,-104.51,17.695,-2.672,19.277,0,0,0,269.47,0,0,0,0,0,0,0,0,0,0,0,0,0,0,0,351.97,FLYING
353.45,APPROACH,ILS_TRACK,80.45,79.4,-1.05,925.9,0.06,8.78,8.75,177.2,-0.983,0.2421,0,18.576,1,0.6,4.5,1.606,0.35,0.0168,0.4,177.88,0,169.88,-96.97,17.553,-2.523,17.028,0,0,0,269.47,0,0,0,0,0,0,0,0,0,0,0,0,0,0,0,353.53,FLYING
355.01,APPROACH,ILS_TRACK,79.87,79,-0.87,920.98,0.04,8.98,8.95,177.36,-0.987,0.3227,0,18.108,1,0.6,4.5,1.606,0.35,0.0168,0.4,177.98,0,161.77,-89.49,17.412,-2.415,14.869,0,0,0,269.47,0,0,0,0,0,0,0,0,0,0,0,0,0,0,0,355.09,FLYING
356.57,APPROACH,ILS_TRACK,79.26,78.6,-0.66,927.43,0.03,9.17,9.15,177.52,-0.94,0.4008,0,17.748,1,0.6,4.5,1.606,0.35,0.0168,0.4,178.07,0,154.11,-82.07,17.273,-2.332,12.761,0,0,0,269.47,0,0,0,0,0,0,0,0,0,0,0,0,0,0,0,356.65,FLYING
358.13,APPROACH,ILS_TRACK,78.7,78.2,-0.5,936.64,0.03,9.34,9.32,177.65,-0.864,0.4576,0,17.473,1,0.6,4.5,1.606,0.35,0.0168,0.4,178.14,0,146.87,-74.73,17.134,-2.257,10.67,0,0,0,269.47,0,0,0,0,0,0,0,0,0,0,0,0,0,0,0,358.21,FLYING
359.69,APPROACH,ILS_TRACK,78.23,77.8,-0.43,942.14,0.03,9.47,9.45,177.77,-0.775,0.4851,0,17.236,1,0.6,4.5,1.606,0.35,0.0168,0.4,178.22,0,140.02,-67.44,16.996,-2.177,8.575,0,0,0,269.47,0,0,0,0,0,0,0,0,0,0,0,0,0,0,0,359.77,FLYING
361.33,APPROACH,ILS_TRACK,77.88,77.4,-0.48,944.6,0.04,9.56,9.54,177.88,-0.702,0.4838,0,16.981,1,0.6,4.5,1.606,0.35,0.0168,0.4,178.49,0,133.19,-59.82,16.852,-1.914,5.757,0,0,0,269.47,0,0,0,0,0,0,0,0,0,0,0,0,0,0,0,361.41,FLYING
362.89,APPROACH,ILS_TRACK,77.68,77,-0.68,940.93,0.05,9.6,9.57,178.02,-0.747,0.4475,0,16.633,1,0.6,4.5,1.606,0.35,0.0168,0.4,178.41,0,127.01,-52.59,16.716,-1.989,4.211,0,0,0,269.47,0,0,0,0,0,0,0,0,0,0,0,0,0,0,0,362.97,FLYING
364.45,APPROACH,ILS_TRACK,77.6,76.6,-1,946.46,0.09,9.42,9.4,178.1,-0.62,0.3877,0,16.132,1,0.6,4.5,1.606,0.35,0.0168,0.4,178.5,-0.959,121.12,-45.36,16.579,-1.9,2.041,0,0,0,269.47,0,0,0,0,0,0,0,0,0,0,0,0,0,0,0,364.53,FLYING
366.05,APPROACH,ILS_TRACK,77.67,76.2,-1.47,943.82,-0.14,8.92,9.09,178.2,-0.622,0.2987,0,15.404,1,0.6,4.5,1.606,0.35,0.0168,0.4,178.68,-3.141,115.34,-38.13,16.439,-1.724,-0.141,0,0,0,269.47,0,0,0,0,0,0,0,0,0,0,0,0,0,0,0,366.13,FLYING
367.12,APPROACH,ILS_TRACK,77.85,75.8,-2.05,942.32,-0.73,8.35,8.81,178.26,-0.631,0.1876,0,14.386,1,0.6,4.5,1.606,0.35,0.0168,0.4,178.14,-1.451,110.98,-32.92,16.33,-2.257,1.549,0,0,0,269.47,0,0,0,0,0,0,0,0,0,0,0,0,0,0,0,367.16,FLYING
367.92,APPROACH,ILS_TRACK,77.91,75.4,-2.51,944.95,-0.94,8.71,9.3,178.27,-0.362,0.1055,0,13.131,1,0.6,4.5,1.606,0.35,0.0168,0.4,177.43,0,108.27,-29.84,16.259,-2.974,4.012,0,0,0,269.47,0,0,0,0,0,0,0,0,0,0,0,0,0,0,0,367.96,FLYING
368.72,APPROACH,ILS_TRACK,77.78,75,-2.78,948.19,-0.87,9.21,9.78,178.19,0.099,0.0646,0,11.731,1,0.6,4.5,1.606,0.35,0.0168,0.4,177.51,0,105.6,-26.81,16.189,-2.89,3.196,0,0,0,269.47,0,0,0,0,0,0,0,0,0,0,0,0,0,0,0,368.76,FLYING
369.52,APPROACH,ILS_TRACK,77.46,75,-2.46,949.31,-0.76,9.38,9.9,178.13,0.338,0.0945,0,10.483,1,0.6,4.5,1.554,0.35,0.0168,0.4,177.61,-0.705,102.93,-23.78,16.119,-2.785,2.295,0,0,0,269.47,0,0,0,0,0,0,0,0,0,0,0,0,0,0,0,369.56,FLYING
370.34,APPROACH,ILS_TRACK,77,75,-2,948.73,-0.79,9.39,9.93,178.08,0.423,0.1532,0,9.459,1,0.6,4.5,1.554,0.35,0.0168,0.4,177.77,-1.741,100.18,-20.69,16.048,-2.631,1.259,0,0,0,269.47,0,0,0,0,0,0,0,0,0,0,0,0,0,0,0,370.38,FLYING
371.14,APPROACH,ILS_TRACK,76.5,75,-1.5,949.94,-0.96,9.25,9.9,178.05,0.387,0.2178,0,8.685,1,0.6,4.5,1.554,0.35,0.0168,0.4,177.86,-2.341,97.46,-17.77,15.979,-2.54,0.659,0,0,0,269.47,0,0,0,0,0,0,0,0,0,0,0,0,0,0,0,371.18,FLYING
371.96,APPROACH,ILS_TRACK,75.98,75,-0.98,953.26,-1.18,9.18,9.98,178.03,0.307,0.2809,0,8.168,1,0.6,4.5,1.554,0.35,0.0168,0.4,178.02,-3.044,94.65,-14.94,15.908,-2.379,-0.044,0,0,0,269.47,0,0,0,0,0,0,0,0,0,0,0,0,0,0,0,372,FLYING
372.78,APPROACH,ILS_TRACK,75.51,75,-0.51,956,-1.48,9.03,10.03,178.03,0.178,0.3327,0,7.889,1,0.6,4.5,1.554,0.35,0.0168,0.4,178.15,-3.436,91.81,-12.35,15.838,-2.254,-0.436,0,0,0,269.47,0,0,0,0,0,0,0,0,0,0,0,0,0,0,0,372.82,FLYING
373.6,APPROACH,ILS_TRACK,75.09,75,-0.09,958.02,-1.79,8.93,10.15,178.04,0.041,0.3736,0,7.824,1,0.6,4.5,1.554,0.35,0.0168,0.4,178.26,-3.718,88.97,-10.02,15.769,-2.136,-0.718,0,0,0,269.47,0,0,0,0,0,0,0,0,0,0,0,0,0,0,0,373.64,FLYING
374.42,APPROACH,ILS_TRACK,74.72,75,0.28,960.62,-2.1,8.83,10.27,178.06,-0.095,0.4042,0,7.946,1,0.6,4.5,1.554,0.35,0.0168,0.4,178.38,-3.898,86.12,-7.97,15.7,-2.023,-0.898,0,0,0,269.47,0,0,0,0,0,0,0,0,0,0,0,0,0,0,0,374.46,FLYING
375.24,APPROACH,ILS_TRACK,74.41,75,0.59,964.6,-2.4,8.75,10.39,178.09,-0.22,0.4252,0,8.228,1,0.6,4.5,1.554,0.35,0.0168,0.4,178.48,-4.005,83.3,-6.18,15.631,-1.917,-1.005,0,0,0,269.47,0,0,0,0,0,0,0,0,0,0,0,0,0,0,0,375.28,FLYING
376.04,APPROACH,ILS_TRACK,74.16,75,0.84,968.51,-2.69,8.69,10.53,178.13,-0.328,0.4361,0,8.637,1,0.6,4.5,1.554,0.35,0.0168,0.4,178.54,-3.989,80.56,-4.68,15.564,-1.857,-0.989,0,0,0,269.47,0,0,0,0,0,0,0,0,0,0,0,0,0,0,0,376.08,FLYING
376.84,APPROACH,ILS_TRACK,73.96,75,1.04,969.11,-2.93,8.61,10.62,178.18,-0.409,0.4403,0,9.147,1,0.6,4.5,1.554,0.35,0.0168,0.4,178.63,-4.02,77.87,-3.41,15.497,-1.765,-1.02,0,0,0,269.47,0,0,0,0,0,0,0,0,0,0,0,0,0,0,0,376.88,FLYING
377.66,APPROACH,ILS_TRACK,73.82,75,1.18,968.08,-3.16,8.52,10.69,178.23,-0.485,0.439,0,9.733,1,0.6,4.5,1.554,0.35,0.0168,0.4,178.75,-4.06,75.15,-2.31,15.429,-1.646,-1.06,0,0,0,269.47,0,0,0,0,0,0,0,0,0,0,0,0,0,0,0,377.7,FLYING
378.46,APPROACH,ILS_TRACK,73.73,75,1.27,968.82,-3.38,8.44,10.76,178.28,-0.556,0.4306,0,10.366,1,0.6,4.5,1.554,0.35,0.0168,0.4,178.8,-3.977,72.54,-1.43,15.363,-1.599,-0.977,0,0,0,269.47,0,0,0,0,0,0,0,0,0,0,0,0,0,0,0,378.5,FLYING
379.26,APPROACH,ILS_TRACK,73.69,75,1.31,970.4,-3.57,8.36,10.81,178.34,-0.6,0.4178,0,11.022,1,0.6,4.5,1.554,0.35,0.0168,0.4,178.88,-3.929,69.99,-0.72,15.296,-1.523,-0.929,0,0,0,269.47,0,0,0,0,0,0,0,0,0,0,0,0,0,0,0,379.3,FLYING
380.08,APPROACH,ILS_TRACK,73.69,75,1.31,970.88,-3.74,8.26,10.83,178.4,-0.641,0.4014,0,11.679,1,0.6,4.5,1.554,0.35,0.0168,0.4,178.98,-3.886,67.44,-0.14,15.228,-1.421,-0.886,0,0,0,269.47,0,0,0,0,0,0,0,0,0,0,0,0,0,0,0,380.12,FLYING
380.9,APPROACH,ILS_TRACK,73.73,75,1.27,972.09,-3.89,8.17,10.85,178.47,-0.682,0.3816,0,12.318,1,0.6,4.5,1.554,0.35,0.0168,0.4,179.05,-3.802,64.95,0.31,15.16,-1.353,-0.802,0,0,0,269.47,0,0,0,0,0,0,0,0,0,0,0,0,0,0,0,380.94,FLYING
381.72,APPROACH,ILS_TRACK,73.8,75,1.2,973.17,-4.03,8.07,10.84,178.53,-0.713,0.3597,0,12.921,1,0.6,4.5,1.554,0.35,0.0168,0.4,179.11,-3.711,62.52,0.63,15.093,-1.289,-0.711,0,0,0,269.47,0,0,0,0,0,0,0,0,0,0,0,0,0,0,0,381.76,FLYING
382.54,APPROACH,ILS_TRACK,73.9,75,1.1,973.74,-4.14,7.99,10.83,178.6,-0.74,0.3365,0,13.475,1,0.6,4.5,1.554,0.35,0.0168,0.4,179.17,-3.626,60.17,0.86,15.024,-1.233,-0.626,0,0,0,269.47,0,0,0,0,0,0,0,0,0,0,0,0,0,0,0,382.58,FLYING
383.36,APPROACH,ILS_TRACK,74.03,75,0.97,972.57,-4.23,7.91,10.82,178.67,-0.759,0.313,0,13.968,1,0.6,4.5,1.554,0.35,0.0168,0.4,179.22,-3.535,57.9,1.01,14.956,-1.178,-0.535,0,0,0,269.47,0,0,0,0,0,0,0,0,0,0,0,0,0,0,0,383.4,FLYING
385.31,APPROACH,ILS_TRACK,74.33,75,0.67,970.65,-4.4,7.76,10.78,178.85,-0.912,0.2599,0,14.325,1,0.6,4.5,1.554,0.35,0.0168,0.4,180.34,-3.483,53.72,1.1,14.825,-0.06,-0.483,0,0,0,269.47,0,0,0,0,0,0,0,0,0,0,0,0,0,0,0,385.43,FLYING
387.71,APPROACH,ILS_TRACK,74.71,75,0.29,959.67,-4.52,7.71,10.8,179.31,-1.581,0.1856,0,14.484,1,0.6,4.5,1.554,0.35,0.0168,0.4,181.32,-3.018,48.03,0.94,14.624,0.923,-0.018,0,0,0,269.47,0,0,0,0,0,0,0,0,0,0,0,0,0,0,0,387.83,FLYING
390.11,APPROACH,ILS_TRACK,74.71,75,0.29,951.26,-4.48,7.88,10.93,179.9,-1.927,0.1916,0,14.614,1,0.6,4.5,1.554,0.35,0.0168,0.4,180.84,-2.815,43.66,0.69,14.423,0.438,0.185,0,0,0,269.47,0,0,0,0,0,0,0,0,0,0,0,0,0,0,0,390.23,FLYING
392.51,APPROACH,ILS_TRACK,74.22,75,0.78,936.37,-4.38,8.13,11.13,180.18,-1.188,0.3073,0,14.971,1,0.6,4.5,1.554,0.35,0.0168,0.4,180.05,-3.003,41.07,0.58,14.222,-0.346,-0.003,0,0,0,269.47,0,0,0,0,0,0,0,0,0,0,0,0,0,0,0,392.63,FLYING
394.91,APPROACH,ILS_TRACK,73.6,75,1.4,919.34,-4.35,8.33,11.35,180.16,-0.217,0.4493,0,15.642,1,0.6,4.5,1.554,0.35,0.0168,0.4,179.46,-3.111,39.77,0.55,14.023,-0.942,-0.111,0,0,0,269.47,0,0,0,0,0,0,0,0,0,0,0,0,0,0,0,395.03,FLYING
397.31,APPROACH,ILS_TRACK,73.2,75,1.8,903.92,-4.34,8.45,11.48,179.97,0.429,0.5361,0,16.529,1,0.6,4.5,1.554,0.35,0.0168,0.4,179.31,-3,38.84,0.46,13.826,-1.086,0,0,0,0,269.47,0,0,0,0,0,0,0,0,0,0,0,0,0,0,0,397.43,FLYING
399.71,APPROACH,ILS_TRACK,73.21,75,1.79,888.97,-4.29,8.38,11.38,179.8,0.504,0.532,0,17.433,1,0.6,4.5,1.554,0.35,0.0168,0.4,179.54,-2.977,37.55,0.38,13.629,-0.859,0.023,0,0,0,269.47,0,0,0,0,0,0,0,0,0,0,0,0,0,0,0,399.83,FLYING
