t_s,phase,subphase,ias_ms,vapp_ms,spd_err_ms,agl_m,vs_ms,pitch_deg,aoa_deg,hdg_deg,bank_deg,thr_cmd,thr_intg,aa_hdg_cmd_deg,aa_fpa_cmd_deg,ils_loc_m,ils_gs_m,ils_dist_km,loc_corr_deg,gs_corr_deg,flare_fpa_cmd,flare_tgt_vs,flare_frac,steer_hdg_deg,steer_blend,ro_loc_corr_deg,ro_hdg_err_deg,ro_yaw_tgt,ro_yaw_scale,ro_yaw_gate,yaw_cmd,roll_cmd,pitch_cmd,ro_pitch_tgt_deg,ro_pitch_err_deg,ro_pitch_ff,ro_roll_assist,flaps_cur,flaps_tgt,phase_el_s,status
0.2,APPROACH,FLY_TO_FIX,203.58,200,-3.58,2374.77,-29.74,-9.83,-2.35,269.83,-1.226,0,-0.281,64.4,-4.38,0,0,0,0,0,0,0,0,269.86,0,0,0,0,0,0,0,0,0,0,0,0,0,0,1,0.24,FLYING
0.42,APPROACH,ILS_TRACK,204.16,200,-4.16,2367.43,-32.64,-11.39,-3.31,269.8,-1.193,0,-1.197,128.32,-6,0,0,0,0,0,0,0,0,269.86,0,0,0,0,0,0,0,0,0,0,0,0,0,0,1,0.44,FLYING
0.64,APPROACH,ILS_TRACK,204.7,200,-4.7,2359.79,-35.68,-11.72,-3.02,269.82,-0.856,0,-2.23,249.72,0,17.58,-47.6,44.627,-20.677,187.353,0,0,0,269.86,0,0,0,0,0,0,0,0,0,0,0,0,0,1,1,0.66,FLYING
0.84,APPROACH,ILS_TRACK,205.14,200,-5.14,2352.63,-38.2,-10.81,-1.4,269.85,-0.623,0,-3.352,270.25,0,17.11,-52.08,44.576,-0.155,31.912,0,0,0,269.86,0,0,0,0,0,0,0,0,0,0,0,0,0,1,1,0.88,FLYING
1.04,APPROACH,ILS_TRACK,205.52,200,-5.52,2345.33,-40.12,-8.84,1.03,269.87,-0.249,0,-4.449,270.27,0,16.68,-56.95,44.531,-0.134,36.569,0,0,0,269.86,0,0,0,0,0,0,0,0,0,0,0,0,0,1,1,1.08,FLYING
1.26,APPROACH,ILS_TRACK,206.02,200,-6.02,2337.07,-41.16,-6.41,3.7,269.88,-0.197,0,-5.764,270.28,0,16.22,-62.52,44.48,-0.119,39.011,0,0,0,269.86,0,0,0,0,0,0,0,0,0,0,0,0,0,1,1,1.3,FLYING
1.46,APPROACH,ILS_TRACK,206.44,200,-6.44,2329.36,-41.67,-4.4,5.83,269.91,-0.339,0,-7.044,270.3,0,15.79,-67.8,44.434,-0.096,41.486,0,0,0,269.86,0,0,0,0,0,0,0,0,0,0,0,0,0,1,1,1.5,FLYING
1.66,APPROACH,ILS_TRACK,206.69,200,-6.69,2321.66,-41.66,-2.17,8.05,269.94,-0.476,0,-8.378,270.31,0,15.37,-73.1,44.389,-0.087,43.137,0,0,0,269.86,0,0,0,0,0,0,0,0,0,0,0,0,0,1,1,1.7,FLYING
1.86,APPROACH,ILS_TRACK,206.76,200,-6.76,2313.96,-40.91,-0.26,9.78,269.98,-0.595,0,-9.731,270.33,0,14.94,-78.4,44.343,-0.069,44.686,0,0,0,269.86,0,0,0,0,0,0,0,0,0,0,0,0,0,1,1,1.9,FLYING
2.06,APPROACH,ILS_TRACK,206.64,200,-6.64,2306.29,-39.82,1.09,10.87,270.02,-0.696,0,-11.064,270.35,0,14.52,-83.67,44.297,-0.051,46.211,0,0,0,269.86,0,0,0,0,0,0,0,0,0,0,0,0,0,1,1,2.1,FLYING
2.28,APPROACH,ILS_TRACK,206.33,200,-6.33,2297.9,-38.43,2.02,11.48,270.06,-0.79,0,-12.465,270.35,0,14.07,-89.4,44.246,-0.05,47.647,0,0,0,269.86,0,0,0,0,0,0,0,0,0,0,0,0,0,1,1,2.32,FLYING
2.49,APPROACH,ILS_TRACK,205.94,200,-5.94,2290.09,-37.09,2.52,11.67,270.09,-0.854,0,-13.696,270.36,0,13.65,-94.66,44.198,-0.038,48.852,0,0,0,269.86,0,0,0,0,0,0,0,0,0,0,0,0,0,1,1,2.54,FLYING
2.71,APPROACH,ILS_TRACK,205.45,200,-5.45,2282.13,-35.72,2.87,11.7,270.11,-0.907,0,-14.886,270.37,0,13.22,-99.97,44.148,-0.031,49.593,0,0,0,269.86,0,0,0,0,0,0,0,0,0,0,0,0,0,1,1,2.76,FLYING
2.96,APPROACH,ILS_TRACK,204.87,200,-4.87,2273.79,-34.21,3.14,11.62,270.13,-0.949,0,-16.007,270.38,0,12.78,-105.36,44.094,-0.023,50.587,0,0,0,269.86,0,0,0,0,0,0,0,0,0,0,0,0,0,1,1,3.01,FLYING
3.19,APPROACH,ILS_TRACK,204.24,200,-4.24,2265.99,-32.9,3.46,11.65,270.16,-0.989,0,-16.999,270.37,0,12.35,-110.38,44.041,-0.028,50.579,0,0,0,269.86,0,0,0,0,0,0,0,0,0,0,0,0,0,1,1,3.25,FLYING
3.47,APPROACH,ILS_TRACK,203.43,200,-3.43,2257.35,-31.15,3.88,11.67,270.18,-1.012,0,-17.941,270.37,0,11.87,-115.78,43.979,-0.029,50.89,0,0,0,269.86,0,0,0,0,0,0,0,0,0,0,0,0,0,1,1,3.52,FLYING
3.73,APPROACH,ILS_TRACK,202.61,200,-2.61,2249.36,-29.63,4.25,11.69,270.21,-1.022,0,-18.63,270.38,0,11.43,-120.61,43.92,-0.021,51.399,0,0,0,269.86,0,0,0,0,0,0,0,0,0,0,0,0,0,1,1,3.8,FLYING
4.02,APPROACH,ILS_TRACK,201.65,200,-1.65,2241.34,-27.84,4.66,11.67,270.23,-1.033,0,-19.119,270.37,0,10.98,-125.32,43.857,-0.035,51.195,0,0,0,269.86,0,0,0,0,0,0,0,0,0,0,0,0,0,1,1,4.08,FLYING
4.31,APPROACH,ILS_TRACK,200.58,200,-0.58,2233.47,-26.16,5.07,11.7,270.25,-1.039,0,-19.325,270.36,0,10.53,-129.78,43.791,-0.038,51.251,0,0,0,269.86,0,0,0,0,0,0,0,0,0,0,0,0,0,1,1,4.38,FLYING
4.66,APPROACH,ILS_TRACK,199.25,200,0.75,2224.98,-24.04,5.53,11.66,270.27,-1.035,0,-19.119,270.36,0,10.05,-134.33,43.714,-0.042,51.069,0,0,0,269.86,0,0,0,0,0,0,0,0,0,0,0,0,0,1,1,4.73,FLYING
4.97,APPROACH,ILS_TRACK,197.94,200,2.06,2217.86,-22.28,6.03,11.75,270.29,-1.03,0,-18.519,270.35,0,9.63,-137.93,43.644,-0.054,50.528,0,0,0,269.86,0,0,0,0,0,0,0,0,0,0,0,0,0,1,1,5.04,FLYING
5.29,APPROACH,ILS_TRACK,196.55,200,3.45,2211.27,-20.39,6.37,11.64,270.31,-1.009,0,-17.482,270.34,0,9.25,-140.98,43.575,-0.063,50.045,0,0,0,269.86,0,0,0,0,0,0,0,0,0,0,0,0,0,1,1,5.36,FLYING
5.6,APPROACH,ILS_TRACK,195.11,200,4.89,2205.26,-18.75,6.8,11.68,270.32,-0.975,0.0679,-15.994,270.32,0,8.89,-143.5,43.506,-0.076,49.467,0,0,0,269.86,0,0,0,0,0,0,0,0,0,0,0,0,0,1,1,5.67,FLYING
5.95,APPROACH,ILS_TRACK,193.44,200,6.56,2199.22,-16.72,7.25,11.64,270.33,-0.916,0.1864,-13.758,270.32,0,8.52,-145.67,43.43,-0.078,48.643,0,0,0,269.86,0,0,0,0,0,0,0,0,0,0,0,0,0,1,1,6.02,FLYING
6.27,APPROACH,ILS_TRACK,191.92,200,8.08,2194.29,-15.14,7.45,11.45,270.34,-0.881,0.2998,-11.266,270.31,0,8.23,-147.14,43.362,-0.093,47.899,0,0,0,269.86,0,0,0,0,0,0,0,0,0,0,0,0,0,1,1,6.34,FLYING
6.57,APPROACH,ILS_TRACK,190.41,200,9.59,2190.06,-13.72,7.92,11.57,270.35,-0.839,0.4188,-8.308,270.3,0,7.96,-148.09,43.295,-0.102,46.837,0,0,0,269.86,0,0,0,0,0,0,0,0,0,0,0,0,0,1,1,6.63,FLYING
6.82,APPROACH,ILS_TRACK,189.04,200,10.96,2186.99,-12.38,8.43,11.74,270.35,-0.799,0.5327,-5.228,270.28,0,7.74,-148.48,43.239,-0.119,45.648,0,0,0,269.86,0,0,0,0,0,0,0,0,0,0,0,0,0,1,1,6.87,FLYING
7.07,APPROACH,ILS_TRACK,187.78,200,12.22,2184.17,-11.07,8.55,11.53,270.35,-0.735,0.6438,-1.911,270.27,0,7.55,-148.62,43.185,-0.131,44.997,0,0,0,269.86,0,0,0,0,0,0,0,0,0,0,0,0,0,1,1,7.11,FLYING
7.27,APPROACH,ILS_TRACK,186.9,200,13.1,2182.09,-10.17,8.66,11.41,270.35,-0.658,0.7245,0.694,270.28,0,7.41,-148.53,43.143,-0.122,44.203,0,0,0,269.86,0,0,0,0,0,0,0,0,0,0,0,0,0,1,1,7.31,FLYING
7.47,APPROACH,ILS_TRACK,186.09,200,13.91,2180.24,-9.34,8.97,11.5,270.35,-0.602,0.802,3.459,270.28,0,7.27,-148.23,43.101,-0.119,43.256,0,0,0,269.86,0,0,0,0,0,0,0,0,0,0,0,0,0,1,1,7.51,FLYING
7.67,APPROACH,ILS_TRACK,185.35,200,14.65,2178.57,-8.25,9.26,11.51,270.34,-0.548,0.8783,6.375,270.27,0,7.15,-147.73,43.059,-0.128,42.311,0,0,0,269.86,0,0,0,0,0,0,0,0,0,0,0,0,0,1,1,7.71,FLYING
7.87,APPROACH,ILS_TRACK,184.68,200,15.32,2176.98,-7.26,9.08,11.07,270.34,-0.479,0.9521,9.426,270.27,0,7.03,-147.15,43.017,-0.132,41.813,0,0,0,269.86,0,0,0,0,0,0,0,0,0,0,0,0,0,1,1,7.91,FLYING
8.09,APPROACH,ILS_TRACK,184.08,200,15.92,2175.41,-6.39,8.81,10.56,270.32,-0.4,1,12.918,270.27,0,6.9,-146.35,42.971,-0.13,41.014,0,0,0,269.86,0,0,0,0,0,0,0,0,0,0,0,0,0,1,1,8.13,FLYING
8.29,APPROACH,ILS_TRACK,183.65,200,16.35,2174.1,-5.7,8.44,10,270.31,-0.341,1,16.18,270.26,0,6.79,-145.5,42.93,-0.136,40.247,0,0,0,269.86,0,0,0,0,0,0,0,0,0,0,0,0,0,1,1,8.33,FLYING
8.49,APPROACH,ILS_TRACK,183.34,200,16.66,2172.94,-5.14,8.15,9.57,270.3,-0.278,1,19.507,270.27,0,6.68,-144.51,42.888,-0.129,39.411,0,0,0,269.86,0,0,0,0,0,0,0,0,0,0,0,0,0,1,1,8.53,FLYING
8.69,APPROACH,ILS_TRACK,183.13,200,16.87,2171.91,-4.67,7.94,9.23,270.3,-0.237,1,20,270.27,0,6.57,-143.4,42.847,-0.128,38.575,0,0,0,269.86,0,0,0,0,0,0,0,0,0,0,0,0,0,1,1,8.73,FLYING
8.89,APPROACH,ILS_TRACK,183.02,200,16.98,2170.99,-4.22,7.82,8.98,270.29,-0.205,1,20,270.27,0,6.47,-142.17,42.805,-0.134,37.732,0,0,0,269.86,0,0,0,0,0,0,0,0,0,0,0,0,0,1,1,8.93,FLYING
9.11,APPROACH,ILS_TRACK,183.01,200,16.99,2170.07,-3.72,7.65,8.67,270.29,-0.163,1,20,270.28,0,6.36,-140.72,42.76,-0.124,36.916,0,0,0,269.86,0,0,0,0,0,0,0,0,0,0,0,0,0,1,1,9.15,FLYING
9.31,APPROACH,ILS_TRACK,183.08,200,16.92,2169.33,-3.34,7.51,8.43,270.29,-0.151,1,20,270.27,0,6.26,-139.3,42.718,-0.127,36.134,0,0,0,269.86,0,0,0,0,0,0,0,0,0,0,0,0,0,1,1,9.35,FLYING
9.51,APPROACH,ILS_TRACK,183.24,200,16.76,2168.67,-2.99,7.42,8.24,270.29,-0.135,1,20,270.28,0,6.16,-137.8,42.677,-0.121,35.341,0,0,0,269.86,0,0,0,0,0,0,0,0,0,0,0,0,0,1,1,9.55,FLYING
9.71,APPROACH,ILS_TRACK,183.46,200,16.54,2168.08,-2.65,7.29,8.02,270.29,-0.137,1,20,270.28,0,6.06,-136.23,42.635,-0.117,34.594,0,0,0,269.86,0,0,0,0,0,0,0,0,0,0,0,0,0,1,1,9.75,FLYING
9.91,APPROACH,ILS_TRACK,183.76,200,16.24,2167.54,-2.33,7.12,7.76,270.29,-0.142,1,20,270.28,0,5.96,-134.61,42.594,-0.116,33.874,0,0,0,269.86,0,0,0,0,0,0,0,0,0,0,0,0,0,1,1,9.95,FLYING
10.13,APPROACH,ILS_TRACK,184.18,200,15.82,2167,-2.06,6.94,7.51,270.29,-0.148,1,20,270.29,0,5.85,-132.75,42.548,-0.107,33.069,0,0,0,269.86,0,0,0,0,0,0,0,0,0,0,0,0,0,1,1,10.17,FLYING
10.33,APPROACH,ILS_TRACK,184.63,200,15.37,2166.57,-1.83,6.77,7.27,270.29,-0.167,1,20,270.29,0,5.75,-131,42.506,-0.111,32.319,0,0,0,269.86,0,0,0,0,0,0,0,0,0,0,0,0,0,1,1,10.37,FLYING
10.53,APPROACH,ILS_TRACK,185.14,200,14.86,2166.17,-1.62,6.58,7.02,270.29,-0.171,1,20,270.29,0,5.66,-129.21,42.464,-0.105,31.598,0,0,0,269.86,0,0,0,0,0,0,0,0,0,0,0,0,0,1,1,10.57,FLYING
10.73,APPROACH,ILS_TRACK,185.71,200,14.29,2165.82,-1.46,6.4,6.79,270.3,-0.177,1,20,270.3,0,5.56,-127.38,42.422,-0.101,30.874,0,0,0,269.86,0,0,0,0,0,0,0,0,0,0,0,0,0,1,1,10.77,FLYING
10.93,APPROACH,ILS_TRACK,186.34,200,13.66,2165.49,-1.33,6.24,6.6,270.3,-0.182,0.9947,20,270.3,0,5.47,-125.5,42.38,-0.099,30.145,0,0,0,269.86,0,0,0,0,0,0,0,0,0,0,0,0,0,1,1,10.97,FLYING
11.15,APPROACH,ILS_TRACK,187.1,200,12.9,2165.17,-1.21,6.09,6.41,270.3,-0.186,0.9536,20,270.31,0,5.36,-123.39,42.334,-0.095,29.352,0,0,0,269.86,0,0,0,0,0,0,0,0,0,0,0,0,0,1,1,11.19,FLYING
11.35,APPROACH,ILS_TRACK,187.83,200,12.17,2164.91,-1.11,5.96,6.26,270.3,-0.189,0.9134,20,270.3,0,5.27,-121.44,42.291,-0.098,28.623,0,0,0,269.86,0,0,0,0,0,0,0,0,0,0,0,0,0,1,1,11.39,FLYING
11.55,APPROACH,ILS_TRACK,188.61,200,11.39,2164.66,-1.02,5.85,6.12,270.3,-0.182,0.8707,20,270.31,0,5.18,-119.46,42.249,-0.091,27.91,0,0,0,269.86,0,0,0,0,0,0,0,0,0,0,0,0,0,1,1,11.59,FLYING
11.75,APPROACH,ILS_TRACK,189.43,200,10.57,2164.43,-0.94,5.74,6,270.3,-0.186,0.8258,20,270.31,0,5.08,-117.45,42.206,-0.087,27.193,0,0,0,269.86,0,0,0,0,0,0,0,0,0,0,0,0,0,1,1,11.79,FLYING
11.95,APPROACH,ILS_TRACK,190.28,200,9.72,2164.23,-0.87,5.65,5.88,270.3,-0.188,0.7791,20,270.31,0,4.99,-115.41,42.163,-0.086,26.475,0,0,0,269.86,0,0,0,0,0,0,0,0,0,0,0,0,0,1,1,11.99,FLYING
12.17,APPROACH,ILS_TRACK,191.25,200,8.75,2164.01,-0.8,5.55,5.76,270.31,-0.187,0.726,20,270.31,0,4.9,-113.14,42.116,-0.087,25.692,0,0,0,269.86,0,0,0,0,0,0,0,0,0,0,0,0,0,1,1,12.21,FLYING
12.37,APPROACH,ILS_TRACK,192.16,200,7.84,2163.83,-0.74,5.46,5.65,270.31,-0.18,0.6763,20,270.32,0,4.8,-111.05,42.072,-0.077,24.969,0,0,0,269.86,0,0,0,0,0,0,0,0,0,0,0,0,0,1,1,12.41,FLYING
12.57,APPROACH,ILS_TRACK,193.08,200,6.92,2163.67,-0.69,5.38,5.56,270.31,-0.183,0.6258,20,270.32,0,4.72,-108.94,42.029,-0.081,24.242,0,0,0,269.86,0,0,0,0,0,0,0,0,0,0,0,0,0,1,1,12.61,FLYING
12.77,APPROACH,ILS_TRACK,194.01,200,5.99,2163.51,-0.64,5.3,5.47,270.31,-0.179,0.5746,20,270.33,0,4.63,-106.81,41.985,-0.074,23.519,0,0,0,269.86,0,0,0,0,0,0,0,0,0,0,0,0,0,1,1,12.81,FLYING
12.97,APPROACH,ILS_TRACK,194.95,200,5.05,2163.37,-0.6,5.23,5.38,270.31,-0.182,0.523,20,270.33,0,4.54,-104.66,41.941,-0.074,22.788,0,0,0,269.86,0,0,0,0,0,0,0,0,0,0,0,0,0,1,1,13.01,FLYING
13.19,APPROACH,ILS_TRACK,195.97,200,4.03,2163.22,-0.55,5.15,5.29,270.31,-0.181,0.4665,20,270.33,0,4.45,-102.27,41.893,-0.07,21.987,0,0,0,269.86,0,0,0,0,0,0,0,0,0,0,0,0,0,1,1,13.23,FLYING
13.39,APPROACH,ILS_TRACK,196.9,200,3.1,2163.1,-0.51,5.09,5.22,270.31,-0.185,0.4157,20,270.33,0,4.36,-100.08,41.849,-0.068,21.248,0,0,0,269.86,0,0,0,0,0,0,0,0,0,0,0,0,0,1,1,13.43,FLYING
13.59,APPROACH,ILS_TRACK,197.8,200,2.2,2162.98,-0.48,5.03,5.15,270.31,-0.182,0.366,20,270.33,0,4.28,-97.86,41.804,-0.067,20.509,0,0,0,269.86,0,0,0,0,0,0,0,0,0,0,0,0,0,1,1,13.63,FLYING
13.79,APPROACH,ILS_TRACK,198.67,200,1.33,2162.87,-0.44,4.97,5.09,270.31,-0.178,0.3178,20,270.33,0,4.2,-95.63,41.76,-0.065,19.771,0,0,0,269.86,0,0,0,0,0,0,0,0,0,0,0,0,0,1,1,13.83,FLYING
13.99,APPROACH,ILS_TRACK,199.51,200,0.49,2162.78,-0.41,4.93,5.03,270.31,-0.174,0.2714,20,270.34,0,4.11,-93.39,41.715,-0.055,19.028,0,0,0,269.86,0,0,0,0,0,0,0,0,0,0,0,0,0,1,1,14.03,FLYING
14.21,APPROACH,ILS_TRACK,200.39,200,-0.39,2162.67,-0.38,4.88,4.98,270.32,-0.179,0.2222,19.932,270.34,0,4.02,-90.9,41.665,-0.056,18.212,0,0,0,269.86,0,0,0,0,0,0,0,0,0,0,0,0,0,1,1,14.25,FLYING
14.41,APPROACH,ILS_TRACK,201.13,200,-1.13,2162.59,-0.35,4.84,4.93,270.32,-0.181,0.1783,19.72,270.34,0,3.94,-88.62,41.62,-0.059,17.464,0,0,0,269.86,0,0,0,0,0,0,0,0,0,0,0,0,0,1,1,14.45,FLYING
14.61,APPROACH,ILS_TRACK,201.83,200,-1.83,2162.51,-0.31,4.81,4.89,270.32,-0.175,0.1356,19.368,270.35,0,3.86,-86.32,41.575,-0.051,16.72,0,0,0,269.86,0,0,0,0,0,0,0,0,0,0,0,0,0,1,1,14.65,FLYING
14.81,APPROACH,ILS_TRACK,202.46,200,-2.46,2162.44,-0.29,4.77,4.85,270.32,-0.176,0.0946,18.888,270.35,0,3.77,-84.01,41.53,-0.05,15.978,0,0,0,269.86,0,0,0,0,0,0,0,0,0,0,0,0,0,1,1,14.85,FLYING
15.01,APPROACH,ILS_TRACK,203.03,200,-3.03,2162.38,-0.27,4.76,4.82,270.32,-0.176,0.0559,18.293,270.35,0,3.7,-81.69,41.484,-0.049,15.223,0,0,0,269.86,0,0,0,0,0,0,0,0,0,0,0,0,0,1,1,15.05,FLYING
15.23,APPROACH,ILS_TRACK,203.56,200,-3.56,2162.32,-0.25,4.74,4.8,270.32,-0.173,0.0167,17.519,270.35,0,3.61,-79.13,41.434,-0.047,14.41,0,0,0,269.86,0,0,0,0,0,0,0,0,0,0,0,0,0,1,1,15.27,FLYING
15.43,APPROACH,ILS_TRACK,203.97,200,-3.97,2162.27,-0.23,4.73,4.79,270.32,-0.168,0,16.732,270.35,0,3.53,-76.79,41.388,-0.047,13.662,0,0,0,269.86,0,0,0,0,0,0,0,0,0,0,0,0,0,1,1,15.47,FLYING
15.63,APPROACH,ILS_TRACK,204.29,200,-4.29,2162.22,-0.21,4.72,4.78,270.32,-0.166,0,15.88,270.36,0,3.46,-74.43,41.342,-0.045,12.917,0,0,0,269.86,0,0,0,0,0,0,0,0,0,0,0,0,0,1,1,15.67,FLYING
15.83,APPROACH,ILS_TRACK,204.53,200,-4.53,2162.18,-0.19,4.72,4.77,270.32,-0.163,0,14.978,270.37,0,3.38,-72.07,41.297,-0.035,12.177,0,0,0,269.86,0,0,0,0,0,0,0,0,0,0,0,0,0,1,1,15.87,FLYING
16.03,APPROACH,ILS_TRACK,204.7,200,-4.7,2162.15,-0.17,4.73,4.77,270.33,-0.167,0,14.041,270.36,0,3.31,-69.7,41.251,-0.04,11.438,0,0,0,269.86,0,0,0,0,0,0,0,0,0,0,0,0,0,1,1,16.07,FLYING
16.25,APPROACH,ILS_TRACK,204.79,200,-4.79,2162.11,-0.15,4.74,4.77,270.33,-0.165,0,12.988,270.37,0,3.22,-67.09,41.2,-0.035,10.631,0,0,0,269.86,0,0,0,0,0,0,0,0,0,0,0,0,0,1,1,16.29,FLYING
16.45,APPROACH,ILS_TRACK,204.81,200,-4.81,2162.09,-0.13,4.75,4.78,270.33,-0.167,0,12.025,270.37,0,3.15,-64.71,41.154,-0.035,9.896,0,0,0,269.86,0,0,0,0,0,0,0,0,0,0,0,0,0,1,1,16.49,FLYING
16.65,APPROACH,ILS_TRACK,204.77,200,-4.77,2162.07,-0.11,4.76,4.79,270.33,-0.166,0,11.07,270.36,0,3.08,-62.33,41.108,-0.036,9.162,0,0,0,269.86,0,0,0,0,0,0,0,0,0,0,0,0,0,1,1,16.69,FLYING
16.85,APPROACH,ILS_TRACK,204.67,200,-4.67,2162.05,-0.1,4.78,4.8,270.33,-0.16,0,10.134,270.37,0,3.01,-59.94,41.063,-0.029,8.433,0,0,0,269.86,0,0,0,0,0,0,0,0,0,0,0,0,0,1,1,16.89,FLYING
17.05,APPROACH,ILS_TRACK,204.51,200,-4.51,2162.04,-0.08,4.8,4.82,270.33,-0.161,0,9.229,270.37,0,2.94,-57.55,41.017,-0.032,7.705,0,0,0,269.86,0,0,0,0,0,0,0,0,0,0,0,0,0,1,1,17.09,FLYING
17.27,APPROACH,ILS_TRACK,204.28,200,-4.28,2162.03,-0.06,4.83,4.84,270.33,-0.158,0,8.282,270.37,0,2.86,-54.92,40.966,-0.026,6.909,0,0,0,269.86,0,0,0,0,0,0,0,0,0,0,0,0,0,1,1,17.31,FLYING
17.47,APPROACH,ILS_TRACK,204.02,200,-4.02,2162.03,-0.04,4.85,4.86,270.33,-0.159,0,7.472,270.37,0,2.79,-52.53,40.921,-0.029,6.183,0,0,0,269.86,0,0,0,0,0,0,0,0,0,0,0,0,0,1,1,17.51,FLYING
17.67,APPROACH,ILS_TRACK,203.72,200,-3.72,2162.03,-0.03,4.88,4.89,270.33,-0.155,0,6.722,270.38,0,2.73,-50.13,40.875,-0.024,5.467,0,0,0,269.86,0,0,0,0,0,0,0,0,0,0,0,0,0,1,1,17.71,FLYING
17.87,APPROACH,ILS_TRACK,203.38,200,-3.38,2162.04,0,4.9,4.9,270.34,-0.155,0,6.04,270.37,0,2.66,-47.74,40.829,-0.029,4.745,0,0,0,269.86,0,0,0,0,0,0,0,0,0,0,0,0,0,1,1,17.91,FLYING
18.07,APPROACH,ILS_TRACK,203,200,-3,2162.04,0,4.94,4.94,270.34,-0.149,0,5.433,270.38,0,2.6,-45.35,40.784,-0.018,4.032,0,0,0,269.86,0,0,0,0,0,0,0,0,0,0,0,0,0,1,1,18.11,FLYING
18.29,APPROACH,ILS_TRACK,202.54,200,-2.54,2162.06,0.01,4.98,4.98,270.34,-0.154,0,4.864,270.38,0,2.52,-42.71,40.734,-0.018,3.243,0,0,0,269.86,0,0,0,0,0,0,0,0,0,0,0,0,0,1,1,18.33,FLYING
18.49,APPROACH,ILS_TRACK,202.09,200,-2.09,2162.07,0.02,5.03,5.02,270.34,-0.156,0,4.436,270.38,-0.47,2.46,-40.32,40.688,-0.023,2.53,0,0,0,269.86,0,0,0,0,0,0,0,0,0,0,0,0,0,1,1,18.53,FLYING
18.69,APPROACH,ILS_TRACK,201.63,200,-1.63,2162.03,0.24,4.77,4.71,270.35,-0.268,0,4.102,270.38,-1.01,2.4,-37.97,40.643,-0.02,1.99,0,0,0,269.86,0,0,0,0,0,0,0,0,0,0,0,0,0,1,1,18.73,FLYING
18.89,APPROACH,ILS_TRACK,201.17,200,-1.17,2161.83,0.28,3.89,3.82,270.36,-0.412,0,3.858,270.38,-1.065,2.34,-35.77,40.598,-0.017,1.935,0,0,0,269.86,0,0,0,0,0,0,0,0,0,0,0,0,0,1,1,18.93,FLYING
19.09,APPROACH,ILS_TRACK,200.73,200,-0.73,2161.56,-0.12,2.89,2.92,270.36,-0.522,0.0018,3.703,270.39,-1.282,2.28,-33.68,40.553,-0.015,1.718,0,0,0,269.86,0,0,0,0,0,0,0,0,0,0,0,0,0,1,1,19.13,FLYING
19.31,APPROACH,ILS_TRACK,200.21,200,-0.21,2161.23,-0.86,2.17,2.39,270.36,-0.609,0.0295,3.646,270.38,-1.843,2.22,-31.4,40.503,-0.024,1.157,0,0,0,269.86,0,0,0,0,0,0,0,0,0,0,0,0,0,1,1,19.35,FLYING
19.51,APPROACH,ILS_TRACK,199.74,200,0.26,2160.89,-1.47,1.79,2.17,270.37,-0.626,0.0564,3.69,270.39,-2.274,2.16,-29.38,40.459,-0.011,0.726,0,0,0,269.86,0,0,0,0,0,0,0,0,0,0,0,0,0,1,1,19.55,FLYING
19.71,APPROACH,ILS_TRACK,199.31,200,0.69,2160.4,-2.01,1.32,1.83,270.37,-0.693,0.0815,3.819,270.37,-2.329,2.12,-27.49,40.414,-0.028,0.671,0,0,0,269.86,0,0,0,0,0,0,0,0,0,0,0,0,0,1,1,19.75,FLYING
19.91,APPROACH,ILS_TRACK,198.91,200,1.09,2159.76,-2.78,0.79,1.5,270.37,-0.653,0.1062,4.03,270.38,-2.176,2.07,-25.76,40.369,-0.023,0.824,0,0,0,269.86,0,0,0,0,0,0,0,0,0,0,0,0,0,1,1,19.95,FLYING
20.11,APPROACH,ILS_TRACK,198.46,200,1.54,2159.05,-3.69,0.61,1.55,270.37,-0.599,0.1343,4.329,270.38,-2.315,2.02,-24.12,40.325,-0.024,0.685,0,0,0,269.86,0,0,0,0,0,0,0,0,0,0,0,0,0,1,1,20.15,FLYING
20.33,APPROACH,ILS_TRACK,197.92,200,2.08,2158.23,-4.66,1,2.19,270.37,-0.533,0.1687,4.775,270.37,-2.659,1.98,-22.37,40.276,-0.028,0.341,0,0,0,269.86,0,0,0,0,0,0,0,0,0,0,0,0,0,1,1,20.37,FLYING
20.53,APPROACH,ILS_TRACK,197.47,200,2.53,2157.4,-5.04,1.5,2.79,270.38,-0.461,0.2,5.272,270.37,-2.851,1.94,-20.85,40.231,-0.03,0.149,0,0,0,269.86,0,0,0,0,0,0,0,0,0,0,0,0,0,1,1,20.57,FLYING
20.73,APPROACH,ILS_TRACK,197.11,200,2.89,2156.31,-5.28,1.3,2.66,270.38,-0.392,0.2272,5.843,270.36,-2.275,1.91,-19.56,40.187,-0.035,0.725,0,0,0,269.86,0,0,0,0,0,0,0,0,0,0,0,0,0,1,1,20.77,FLYING
20.93,APPROACH,ILS_TRACK,196.76,200,3.24,2155.05,-5.86,0.82,2.33,270.37,-0.312,0.2542,6.485,270.37,-1.798,1.87,-18.47,40.143,-0.03,1.202,0,0,0,269.86,0,0,0,0,0,0,0,0,0,0,0,0,0,1,1,20.97,FLYING
21.13,APPROACH,ILS_TRACK,196.39,200,3.61,2153.74,-6.6,0.6,2.31,270.37,-0.247,0.2831,7.2,270.37,-1.779,1.84,-17.47,40.098,-0.032,1.221,0,0,0,269.86,0,0,0,0,0,0,0,0,0,0,0,0,0,1,1,21.17,FLYING
21.35,APPROACH,ILS_TRACK,195.95,200,4.05,2152.27,-7.43,0.91,2.83,270.37,-0.187,0.3174,8.082,270.37,-1.991,1.8,-16.39,40.05,-0.029,1.009,0,0,0,269.86,0,0,0,0,0,0,0,0,0,0,0,0,0,1,1,21.39,FLYING
21.55,APPROACH,ILS_TRACK,195.55,200,4.45,2150.95,-8.03,1.73,3.81,270.38,-0.146,0.3498,8.963,270.36,-2.31,1.77,-15.41,40.006,-0.037,0.69,0,0,0,269.86,0,0,0,0,0,0,0,0,0,0,0,0,0,1,1,21.59,FLYING
21.75,APPROACH,ILS_TRACK,195.2,200,4.8,2149.59,-8.08,2.59,4.69,270.38,-0.108,0.3814,9.917,270.36,-2.498,1.75,-14.45,39.962,-0.036,0.502,0,0,0,269.86,0,0,0,0,0,0,0,0,0,0,0,0,0,1,1,21.79,FLYING
21.95,APPROACH,ILS_TRACK,194.89,200,5.11,2148.05,-7.9,2.79,4.85,270.37,-0.078,0.4103,10.932,270.37,-2.096,1.71,-13.65,39.918,-0.031,0.904,0,0,0,269.86,0,0,0,0,0,0,0,0,0,0,0,0,0,1,1,21.99,FLYING
22.15,APPROACH,ILS_TRACK,194.61,200,5.39,2146.4,-8,2.58,4.66,270.37,-0.066,0.4391,12.005,270.37,-1.718,1.69,-13,39.875,-0.033,1.282,0,0,0,269.86,0,0,0,0,0,0,0,0,0,0,0,0,0,1,1,22.19,FLYING
22.37,APPROACH,ILS_TRACK,194.3,200,5.7,2144.59,-8.31,2.51,4.68,270.37,-0.053,0.4709,13.253,270.36,-1.846,1.66,-12.3,39.826,-0.036,1.154,0,0,0,269.86,0,0,0,0,0,0,0,0,0,0,0,0,0,1,1,22.41,FLYING
22.57,APPROACH,ILS_TRACK,194.02,200,5.98,2142.99,-8.61,2.86,5.11,270.37,-0.037,0.5008,14.444,270.37,-2.223,1.63,-11.63,39.783,-0.03,0.777,0,0,0,269.86,0,0,0,0,0,0,0,0,0,0,0,0,0,1,1,22.61,FLYING
22.77,APPROACH,ILS_TRACK,193.77,200,6.23,2141.4,-8.51,3.27,5.5,270.37,-0.035,0.5299,15.686,270.38,-2.534,1.6,-10.92,39.739,-0.025,0.466,0,0,0,269.86,0,0,0,0,0,0,0,0,0,0,0,0,0,1,1,22.81,FLYING
22.97,APPROACH,ILS_TRACK,193.59,200,6.41,2139.69,-8.28,3.15,5.32,270.37,-0.04,0.5555,16.966,270.37,-2.297,1.58,-10.32,39.696,-0.033,0.703,0,0,0,269.86,0,0,0,0,0,0,0,0,0,0,0,0,0,1,1,23.01,FLYING
23.17,APPROACH,ILS_TRACK,193.45,200,6.55,2137.93,-8.4,2.81,5.01,270.37,-0.037,0.5791,18.274,270.37,-2.124,1.55,-9.81,39.652,-0.025,0.876,0,0,0,269.86,0,0,0,0,0,0,0,0,0,0,0,0,0,1,1,23.21,FLYING
23.39,APPROACH,ILS_TRACK,193.31,200,6.69,2136.02,-8.69,2.75,5.03,270.37,-0.041,0.604,19.742,270.37,-2.39,1.52,-9.22,39.604,-0.026,0.61,0,0,0,269.86,0,0,0,0,0,0,0,0,0,0,0,0,0,1,1,23.43,FLYING
23.59,APPROACH,ILS_TRACK,193.21,200,6.79,2134.36,-8.82,3.08,5.4,270.37,-0.041,0.613,20,270.37,-2.836,1.49,-8.61,39.561,-0.026,0.164,0,0,0,269.86,0,0,0,0,0,0,0,0,0,0,0,0,0,1,1,23.63,FLYING
23.79,APPROACH,ILS_TRACK,193.18,200,6.82,2132.59,-8.48,2.96,5.18,270.37,-0.045,0.6153,20,270.37,-2.77,1.46,-8.06,39.518,-0.025,0.23,0,0,0,269.86,0,0,0,0,0,0,0,0,0,0,0,0,0,1,1,23.83,FLYING
23.99,APPROACH,ILS_TRACK,193.21,200,6.79,2130.7,-8.57,2.27,4.52,270.37,-0.054,0.6138,20,270.37,-2.267,1.44,-7.67,39.474,-0.026,0.733,0,0,0,269.86,0,0,0,0,0,0,0,0,0,0,0,0,0,1,1,24.03,FLYING
24.19,APPROACH,ILS_TRACK,193.3,200,6.7,2128.78,-8.97,1.73,4.09,270.37,-0.051,0.6089,20,270.38,-2.251,1.41,-7.31,39.431,-0.02,0.749,0,0,0,269.86,0,0,0,0,0,0,0,0,0,0,0,0,0,1,1,24.23,FLYING
24.41,APPROACH,ILS_TRACK,193.42,200,6.58,2126.72,-9.54,1.67,4.17,270.37,-0.054,0.6023,20,270.38,-2.52,1.38,-6.87,39.383,-0.023,0.48,0,0,0,269.86,0,0,0,0,0,0,0,0,0,0,0,0,0,1,1,24.45,FLYING
24.61,APPROACH,ILS_TRACK,193.55,200,6.45,2124.92,-9.95,2.2,4.8,270.37,-0.05,0.5957,20,270.38,-2.918,1.36,-6.41,39.339,-0.024,0.082,0,0,0,269.86,0,0,0,0,0,0,0,0,0,0,0,0,0,1,1,24.65,FLYING
24.81,APPROACH,ILS_TRACK,193.72,200,6.28,2123.06,-9.71,2.56,5.1,270.37,-0.051,0.5865,20,270.38,-3.008,1.33,-5.96,39.296,-0.018,-0.008,0,0,0,269.86,0,0,0,0,0,0,0,0,0,0,0,0,0,1,1,24.85,FLYING
25.01,APPROACH,ILS_TRACK,193.96,200,6.04,2121.03,-9.64,2.22,4.74,270.38,-0.073,0.5738,20,270.38,-2.428,1.3,-5.68,39.252,-0.022,0.572,0,0,0,269.86,0,0,0,0,0,0,0,0,0,0,0,0,0,1,1,25.05,FLYING
25.21,APPROACH,ILS_TRACK,194.23,200,5.77,2118.97,-9.93,1.86,4.45,270.38,-0.069,0.5588,20,270.39,-2.244,1.28,-5.46,39.209,-0.014,0.756,0,0,0,269.86,0,0,0,0,0,0,0,0,0,0,0,0,0,1,1,25.25,FLYING
25.43,APPROACH,ILS_TRACK,194.53,200,5.47,2116.75,-10.38,1.91,4.61,270.38,-0.086,0.5421,20,270.38,-2.464,1.25,-5.18,39.161,-0.022,0.536,0,0,0,269.86,0,0,0,0,0,0,0,0,0,0,0,0,0,1,1,25.47,FLYING
25.63,APPROACH,ILS_TRACK,194.8,200,5.2,2114.8,-10.65,2.5,5.27,270.38,-0.079,0.5275,20,270.39,-2.878,1.22,-4.85,39.117,-0.013,0.122,0,0,0,269.86,0,0,0,0,0,0,0,0,0,0,0,0,0,1,1,25.67,FLYING
25.83,APPROACH,ILS_TRACK,195.09,200,4.91,2112.81,-10.24,2.81,5.47,270.38,-0.08,0.5115,20,270.38,-2.948,1.2,-4.52,39.073,-0.019,0.052,0,0,0,269.86,0,0,0,0,0,0,0,0,0,0,0,0,0,1,1,25.87,FLYING
26.03,APPROACH,ILS_TRACK,195.43,200,4.57,2110.67,-10.14,2.44,5.07,270.38,-0.084,0.4934,20,270.39,-2.404,1.17,-4.34,39.029,-0.014,0.596,0,0,0,269.86,0,0,0,0,0,0,0,0,0,0,0,0,0,1,1,26.07,FLYING
26.23,APPROACH,ILS_TRACK,195.79,200,4.21,2108.53,-10.37,2.13,4.82,270.38,-0.089,0.4734,20,270.38,-2.358,1.15,-4.19,38.986,-0.02,0.642,0,0,0,269.86,0,0,0,0,0,0,0,0,0,0,0,0,0,1,1,26.27,FLYING
26.45,APPROACH,ILS_TRACK,196.17,200,3.83,2106.26,-10.72,2.31,5.08,270.38,-0.086,0.4523,20,270.39,-2.699,1.12,-3.95,38.937,-0.013,0.301,0,0,0,269.86,0,0,0,0,0,0,0,0,0,0,0,0,0,1,1,26.49,FLYING
26.65,APPROACH,ILS_TRACK,196.53,200,3.47,2104.21,-10.5,2.55,5.26,270.38,-0.076,0.4331,20,270.39,-2.973,1.1,-3.68,38.893,-0.014,0.027,0,0,0,269.86,0,0,0,0,0,0,0,0,0,0,0,0,0,1,1,26.69,FLYING
26.85,APPROACH,ILS_TRACK,196.93,200,3.07,2102.05,-10.39,2.27,4.95,270.38,-0.08,0.4112,20,270.38,-2.616,1.08,-3.51,38.849,-0.018,0.384,0,0,0,269.86,0,0,0,0,0,0,0,0,0,0,0,0,0,1,1,26.89,FLYING
27.05,APPROACH,ILS_TRACK,197.34,200,2.66,2099.88,-10.62,2.06,4.8,270.38,-0.073,0.3886,20,270.39,-2.573,1.06,-3.37,38.805,-0.014,0.427,0,0,0,269.86,0,0,0,0,0,0,0,0,0,0,0,0,0,1,1,27.09,FLYING
27.25,APPROACH,ILS_TRACK,197.72,200,2.28,2097.79,-10.88,2.29,5.09,270.38,-0.074,0.3676,20,270.39,-2.903,1.03,-3.15,38.761,-0.011,0.097,0,0,0,269.86,0,0,0,0,0,0,0,0,0,0,0,0,0,1,1,27.29,FLYING
27.47,APPROACH,ILS_TRACK,198.13,200,1.87,2095.47,-10.57,2.39,5.1,270.38,-0.075,0.3448,20,270.39,-3.049,1.01,-2.9,38.712,-0.013,-0.049,0,0,0,269.86,0,0,0,0,0,0,0,0,0,0,0,0,0,1,1,27.51,FLYING
27.67,APPROACH,ILS_TRACK,198.55,200,1.45,2093.25,-10.53,1.98,4.67,270.38,-0.082,0.322,20,270.39,-2.638,0.99,-2.78,38.667,-0.011,0.362,0,0,0,269.86,0,0,0,0,0,0,0,0,0,0,0,0,0,1,1,27.71,FLYING
27.87,APPROACH,ILS_TRACK,198.96,200,1.04,2091.03,-10.82,1.7,4.46,270.38,-0.079,0.2992,20,270.38,-2.622,0.97,-2.68,38.623,-0.015,0.378,0,0,0,269.86,0,0,0,0,0,0,0,0,0,0,0,0,0,1,1,27.91,FLYING
28.07,APPROACH,ILS_TRACK,199.33,200,0.67,2088.88,-11.16,1.89,4.74,270.38,-0.076,0.2789,20,270.39,-2.939,0.95,-2.5,38.578,-0.01,0.061,0,0,0,269.86,0,0,0,0,0,0,0,0,0,0,0,0,0,1,1,28.11,FLYING
28.27,APPROACH,ILS_TRACK,199.67,200,0.33,2086.74,-10.96,2.15,4.94,270.38,-0.071,0.2599,20,270.39,-3.173,0.93,-2.29,38.534,-0.012,-0.173,0,0,0,269.86,0,0,0,0,0,0,0,0,0,0,0,0,0,1,1,28.31,FLYING
28.49,APPROACH,ILS_TRACK,200.08,200,-0.08,2084.24,-10.81,1.74,4.49,270.38,-0.08,0.2373,19.99,270.39,-2.702,0.9,-2.19,38.485,-0.008,0.298,0,0,0,269.86,0,0,0,0,0,0,0,0,0,0,0,0,0,1,1,28.53,FLYING
28.69,APPROACH,ILS_TRACK,200.44,200,-0.44,2081.94,-11.09,1.35,4.17,270.38,-0.077,0.2163,19.907,270.39,-2.508,0.88,-2.15,38.44,-0.01,0.492,0,0,0,269.86,0,0,0,0,0,0,0,0,0,0,0,0,0,1,1,28.73,FLYING
28.89,APPROACH,ILS_TRACK,200.75,200,-0.75,2079.69,-11.48,1.4,4.31,270.39,-0.081,0.1975,19.763,270.39,-2.727,0.86,-2.07,38.395,-0.012,0.273,0,0,0,269.86,0,0,0,0,0,0,0,0,0,0,0,0,0,1,1,28.93,FLYING
29.09,APPROACH,ILS_TRACK,201,200,-1,2077.5,-11.58,1.84,4.78,270.39,-0.078,0.1811,19.568,270.39,-3.068,0.84,-1.91,38.35,-0.011,-0.068,0,0,0,269.86,0,0,0,0,0,0,0,0,0,0,0,0,0,1,1,29.13,FLYING
29.29,APPROACH,ILS_TRACK,201.27,200,-1.27,2075.22,-11.38,1.88,4.76,270.39,-0.076,0.1632,19.318,270.39,-2.853,0.83,-1.81,38.305,-0.009,0.147,0,0,0,269.86,0,0,0,0,0,0,0,0,0,0,0,0,0,1,1,29.33,FLYING
29.51,APPROACH,ILS_TRACK,201.54,200,-1.54,2072.69,-11.53,1.82,4.74,270.39,-0.069,0.1444,18.984,270.39,-2.658,0.81,-1.76,38.256,-0.011,0.342,0,0,0,269.86,0,0,0,0,0,0,0,0,0,0,0,0,0,1,1,29.55,FLYING
29.71,APPROACH,ILS_TRACK,201.7,200,-1.7,2070.45,-11.63,2.11,5.05,270.39,-0.07,0.1311,18.647,270.39,-2.924,0.79,-1.65,38.211,-0.009,0.076,0,0,0,269.86,0,0,0,0,0,0,0,0,0,0,0,0,0,1,1,29.75,FLYING
29.91,APPROACH,ILS_TRACK,201.84,200,-1.84,2068.15,-11.34,2.06,4.93,270.39,-0.063,0.119,18.282,270.4,-2.859,0.77,-1.57,38.166,-0.005,0.141,0,0,0,269.86,0,0,0,0,0,0,0,0,0,0,0,0,0,1,1,29.95,FLYING
30.11,APPROACH,ILS_TRACK,201.97,200,-1.97,2065.81,-11.42,1.85,4.74,270.39,-0.062,0.107,17.891,270.39,-2.624,0.75,-1.55,38.121,-0.007,0.376,0,0,0,269.86,0,0,0,0,0,0,0,0,0,0,0,0,0,1,1,30.15,FLYING
30.31,APPROACH,ILS_TRACK,202.03,200,-2.03,2063.54,-11.61,1.96,4.9,270.39,-0.066,0.0984,17.486,270.39,-2.844,0.73,-1.48,38.076,-0.006,0.156,0,0,0,269.86,0,0,0,0,0,0,0,0,0,0,0,0,0,1,1,30.35,FLYING
30.53,APPROACH,ILS_TRACK,202.05,200,-2.05,2061.04,-11.37,2.07,4.94,270.39,-0.065,0.0917,17.035,270.39,-3.014,0.71,-1.36,38.026,-0.01,-0.014,0,0,0,269.86,0,0,0,0,0,0,0,0,0,0,0,0,0,1,1,30.57,FLYING
30.73,APPROACH,ILS_TRACK,202.08,200,-2.08,2058.72,-11.39,1.89,4.77,270.39,-0.067,0.0851,16.619,270.39,-2.753,0.7,-1.32,37.981,-0.008,0.247,0,0,0,269.86,0,0,0,0,0,0,0,0,0,0,0,0,0,1,1,30.77,FLYING
30.93,APPROACH,ILS_TRACK,202.04,200,-2.04,2056.44,-11.54,1.95,4.87,270.39,-0.069,0.0817,16.209,270.4,-2.898,0.68,-1.25,37.936,-0.005,0.102,0,0,0,269.86,0,0,0,0,0,0,0,0,0,0,0,0,0,1,1,30.97,FLYING
31.13,APPROACH,ILS_TRACK,201.97,200,-1.97,2054.17,-11.41,2.02,4.91,270.39,-0.062,0.081,15.813,270.39,-3.044,0.67,-1.16,37.891,-0.008,-0.044,0,0,0,269.86,0,0,0,0,0,0,0,0,0,0,0,0,0,1,1,31.17,FLYING
31.33,APPROACH,ILS_TRACK,201.91,200,-1.91,2051.86,-11.39,1.9,4.79,270.39,-0.065,0.0799,15.431,270.39,-2.879,0.65,-1.1,37.846,-0.007,0.121,0,0,0,269.86,0,0,0,0,0,0,0,0,0,0,0,0,0,1,1,31.37,FLYING
31.55,APPROACH,ILS_TRACK,201.77,200,-1.77,2049.36,-11.51,1.97,4.89,270.39,-0.06,0.0823,15.038,270.39,-2.983,0.63,-1.02,37.797,-0.006,0.017,0,0,0,269.86,0,0,0,0,0,0,0,0,0,0,0,0,0,1,1,31.59,FLYING
31.75,APPROACH,ILS_TRACK,201.62,200,-1.62,2047.08,-11.43,2.02,4.92,270.39,-0.058,0.0866,14.711,270.39,-3.063,0.62,-0.94,37.752,-0.009,-0.063,0,0,0,269.86,0,0,0,0,0,0,0,0,0,0,0,0,0,1,1,31.79,FLYING
31.95,APPROACH,ILS_TRACK,201.47,200,-1.47,2044.78,-11.37,1.93,4.82,270.39,-0.059,0.0914,14.415,270.4,-2.963,0.6,-0.88,37.707,-0.002,0.037,0,0,0,269.86,0,0,0,0,0,0,0,0,0,0,0,0,0,1,1,31.99,FLYING
32.15,APPROACH,ILS_TRACK,201.28,200,-1.28,2042.5,-11.49,1.96,4.88,270.39,-0.06,0.0985,14.155,270.4,-2.993,0.59,-0.82,37.662,-0.003,0.007,0,0,0,269.86,0,0,0,0,0,0,0,0,0,0,0,0,0,1,1,32.19,FLYING
32.35,APPROACH,ILS_TRACK,201.06,200,-1.06,2040.24,-11.44,2.05,4.96,270.39,-0.059,0.1081,13.94,270.4,-3.134,0.57,-0.73,37.617,-0.004,-0.134,0,0,0,269.86,0,0,0,0,0,0,0,0,0,0,0,0,0,1,1,32.39,FLYING
32.57,APPROACH,ILS_TRACK,200.83,200,-0.83,2037.7,-11.33,1.9,4.78,270.39,-0.064,0.1184,13.753,270.39,-2.971,0.56,-0.68,37.568,-0.005,0.029,0,0,0,269.86,0,0,0,0,0,0,0,0,0,0,0,0,0,1,1,32.61,FLYING
32.77,APPROACH,ILS_TRACK,200.59,200,-0.59,2035.39,-11.47,1.8,4.73,270.39,-0.061,0.1295,13.63,270.39,-2.911,0.54,-0.66,37.523,-0.005,0.089,0,0,0,269.86,0,0,0,0,0,0,0,0,0,0,0,0,0,1,1,32.81,FLYING
32.97,APPROACH,ILS_TRACK,200.32,200,-0.32,2033.14,-11.55,2.01,4.96,270.39,-0.055,0.1438,13.561,270.39,-3.154,0.53,-0.57,37.478,-0.006,-0.154,0,0,0,269.86,0,0,0,0,0,0,0,0,0,0,0,0,0,1,1,33.01,FLYING
33.17,APPROACH,ILS_TRACK,200.07,200,-0.07,2030.84,-11.4,1.96,4.88,270.39,-0.059,0.1576,13.543,270.4,-3.038,0.52,-0.53,37.434,-0.002,-0.038,0,0,0,269.86,0,0,0,0,0,0,0,0,0,0,0,0,0,1,1,33.21,FLYING
33.37,APPROACH,ILS_TRACK,199.82,200,0.18,2028.52,-11.51,1.87,4.81,270.39,-0.062,0.1714,13.574,270.39,-2.886,0.5,-0.52,37.389,-0.007,0.114,0,0,0,269.86,0,0,0,0,0,0,0,0,0,0,0,0,0,1,1,33.41,FLYING
33.59,APPROACH,ILS_TRACK,199.51,200,0.49,2026.03,-11.6,2.07,5.05,270.39,-0.056,0.1898,13.677,270.4,-3.096,0.49,-0.45,37.34,-0.004,-0.096,0,0,0,269.86,0,0,0,0,0,0,0,0,0,0,0,0,0,1,1,33.63,FLYING
33.79,APPROACH,ILS_TRACK,199.25,200,0.75,2023.72,-11.48,2.07,5.02,270.39,-0.058,0.2058,13.822,270.4,-3.026,0.48,-0.41,37.296,-0.001,-0.026,0,0,0,269.86,0,0,0,0,0,0,0,0,0,0,0,0,0,1,1,33.83,FLYING
33.99,APPROACH,ILS_TRACK,199,200,1,2021.42,-11.57,2.08,5.06,270.39,-0.06,0.2218,14.017,270.39,-2.944,0.47,-0.4,37.252,-0.005,0.056,0,0,0,269.86,0,0,0,0,0,0,0,0,0,0,0,0,0,1,1,34.03,FLYING
34.19,APPROACH,ILS_TRACK,198.73,200,1.27,2019.15,-11.52,2.21,5.17,270.39,-0.054,0.2396,14.265,270.4,-3.084,0.46,-0.35,37.207,-0.005,-0.084,0,0,0,269.86,0,0,0,0,0,0,0,0,0,0,0,0,0,1,1,34.23,FLYING
34.39,APPROACH,ILS_TRACK,198.5,200,1.5,2016.84,-11.44,2.14,5.09,270.39,-0.055,0.2561,14.561,270.4,-2.957,0.44,-0.34,37.163,0.002,0.043,0,0,0,269.86,0,0,0,0,0,0,0,0,0,0,0,0,0,1,1,34.43,FLYING
34.61,APPROACH,ILS_TRACK,198.23,200,1.77,2014.32,-11.54,2.19,5.17,270.39,-0.053,0.2752,14.944,270.4,-2.977,0.43,-0.32,37.115,-0.004,0.023,0,0,0,269.86,0,0,0,0,0,0,0,0,0,0,0,0,0,1,1,34.65,FLYING
34.81,APPROACH,ILS_TRACK,198,200,2,2012.05,-11.47,2.27,5.24,270.39,-0.049,0.2931,15.341,270.4,-3.078,0.42,-0.28,37.07,-0.003,-0.078,0,0,0,269.86,0,0,0,0,0,0,0,0,0,0,0,0,0,1,1,34.85,FLYING
35.01,APPROACH,ILS_TRACK,197.79,200,2.21,2009.74,-11.41,2.2,5.15,270.39,-0.051,0.3097,15.779,270.4,-2.964,0.41,-0.27,37.026,-0.002,0.036,0,0,0,269.86,0,0,0,0,0,0,0,0,0,0,0,0,0,1,1,35.05,FLYING
35.21,APPROACH,ILS_TRACK,197.58,200,2.42,2007.47,-11.5,2.25,5.23,270.39,-0.05,0.3267,16.257,270.4,-3.006,0.4,-0.25,36.982,-0.004,-0.006,0,0,0,269.86,0,0,0,0,0,0,0,0,0,0,0,0,0,1,1,35.25,FLYING
35.41,APPROACH,ILS_TRACK,197.39,200,2.61,2005.19,-11.42,2.31,5.27,270.39,-0.047,0.344,16.776,270.4,-3.085,0.38,-0.21,36.938,0.001,-0.085,0,0,0,269.86,0,0,0,0,0,0,0,0,0,0,0,0,0,1,1,35.45,FLYING
35.63,APPROACH,ILS_TRACK,197.21,200,2.79,2002.67,-11.38,2.23,5.18,270.39,-0.05,0.361,17.386,270.4,-2.978,0.37,-0.2,36.89,-0.003,0.022,0,0,0,269.86,0,0,0,0,0,0,0,0,0,0,0,0,0,1,1,35.67,FLYING
35.83,APPROACH,ILS_TRACK,197.05,200,2.95,2000.4,-11.44,2.3,5.27,270.4,-0.047,0.3769,17.972,270.4,-3.06,0.36,-0.17,36.846,0,-0.06,0,0,0,269.86,0,0,0,0,0,0,0,0,0,0,0,0,0,1,1,35.87,FLYING
36.03,APPROACH,ILS_TRACK,196.92,200,3.08,1998.12,-11.37,2.28,5.23,270.4,-0.05,0.3918,18.586,270.4,-3.044,0.35,-0.15,36.802,-0.004,-0.044,0,0,0,269.86,0,0,0,0,0,0,0,0,0,0,0,0,0,1,1,36.07,FLYING
36.23,APPROACH,ILS_TRACK,196.8,200,3.2,1995.86,-11.39,2.34,5.3,270.4,-0.047,0.4059,19.223,270.4,-3.076,0.34,-0.12,36.758,0,-0.076,0,0,0,269.86,0,0,0,0,0,0,0,0,0,0,0,0,0,1,1,36.27,FLYING
36.43,APPROACH,ILS_TRACK,196.71,200,3.29,1993.57,-11.34,2.26,5.21,270.4,-0.05,0.4189,19.879,270.4,-3.02,0.33,-0.11,36.715,-0.003,-0.02,0,0,0,269.86,0,0,0,0,0,0,0,0,0,0,0,0,0,1,1,36.47,FLYING
36.65,APPROACH,ILS_TRACK,196.63,200,3.37,1991.08,-11.39,2.32,5.28,270.4,-0.049,0.425,20,270.4,-3.082,0.32,-0.08,36.666,-0.001,-0.082,0,0,0,269.86,0,0,0,0,0,0,0,0,0,0,0,0,0,1,1,36.69,FLYING
36.85,APPROACH,ILS_TRACK,196.59,200,3.41,1988.79,-11.34,2.26,5.21,270.4,-0.052,0.4276,20,270.4,-3.049,0.31,-0.06,36.623,0.001,-0.049,0,0,0,269.86,0,0,0,0,0,0,0,0,0,0,0,0,0,1,1,36.89,FLYING
37.05,APPROACH,ILS_TRACK,196.56,200,3.44,1986.53,-11.38,2.3,5.26,270.4,-0.053,0.4291,20,270.4,-3.09,0.3,-0.04,36.579,0,-0.09,0,0,0,269.86,0,0,0,0,0,0,0,0,0,0,0,0,0,1,1,37.09,FLYING
37.25,APPROACH,ILS_TRACK,196.56,200,3.44,1984.25,-11.34,2.25,5.2,270.4,-0.057,0.4291,20,270.4,-3.055,0.3,-0.02,36.535,-0.004,-0.055,0,0,0,269.86,0,0,0,0,0,0,0,0,0,0,0,0,0,1,1,37.29,FLYING
37.45,APPROACH,ILS_TRACK,196.58,200,3.42,1981.99,-11.36,2.3,5.26,270.4,-0.051,0.4284,20,270.4,-3.119,0.28,0.01,36.491,0.003,-0.119,0,0,0,269.86,0,0,0,0,0,0,0,0,0,0,0,0,0,1,1,37.49,FLYING
37.67,APPROACH,ILS_TRACK,196.63,200,3.37,1979.46,-11.33,2.18,5.13,270.4,-0.056,0.4257,20,270.39,-3.021,0.28,0.01,36.443,-0.005,-0.021,0,0,0,269.86,0,0,0,0,0,0,0,0,0,0,0,0,0,1,1,37.71,FLYING
37.87,APPROACH,ILS_TRACK,196.68,200,3.32,1977.2,-11.44,2.24,5.22,270.4,-0.05,0.4227,20,270.4,-3.096,0.27,0.03,36.399,0.002,-0.096,0,0,0,269.86,0,0,0,0,0,0,0,0,0,0,0,0,0,1,1,37.91,FLYING
38.07,APPROACH,ILS_TRACK,196.76,200,3.24,1974.92,-11.36,2.21,5.17,270.4,-0.052,0.4187,20,270.4,-3.098,0.26,0.05,36.356,0.001,-0.098,0,0,0,269.86,0,0,0,0,0,0,0,0,0,0,0,0,0,1,1,38.11,FLYING
38.27,APPROACH,ILS_TRACK,196.86,200,3.14,1972.64,-11.38,2.22,5.18,270.4,-0.053,0.4133,20,270.4,-3.094,0.25,0.07,36.312,-0.003,-0.094,0,0,0,269.86,0,0,0,0,0,0,0,0,0,0,0,0,0,1,1,38.31,FLYING
38.47,APPROACH,ILS_TRACK,196.98,200,3.02,1970.36,-11.4,2.21,5.17,270.4,-0.05,0.4068,20,270.4,-3.083,0.24,0.09,36.268,0.002,-0.083,0,0,0,269.86,0,0,0,0,0,0,0,0,0,0,0,0,0,1,1,38.51,FLYING
38.69,APPROACH,ILS_TRACK,197.13,200,2.87,1967.85,-11.4,2.21,5.17,270.4,-0.053,0.3988,20,270.4,-3.105,0.24,0.11,36.22,-0.001,-0.105,0,0,0,269.86,0,0,0,0,0,0,0,0,0,0,0,0,0,1,1,38.73,FLYING
38.89,APPROACH,ILS_TRACK,197.28,200,2.72,1965.56,-11.42,2.16,5.13,270.4,-0.053,0.3905,20,270.4,-3.067,0.23,0.12,36.176,0.001,-0.067,0,0,0,269.86,0,0,0,0,0,0,0,0,0,0,0,0,0,1,1,38.93,FLYING
39.09,APPROACH,ILS_TRACK,197.43,200,2.57,1963.29,-11.37,2.21,5.16,270.4,-0.051,0.3824,20,270.4,-3.159,0.22,0.14,36.132,0,-0.159,0,0,0,269.86,0,0,0,0,0,0,0,0,0,0,0,0,0,1,1,39.13,FLYING
39.29,APPROACH,ILS_TRACK,197.61,200,2.39,1960.97,-11.37,2.04,4.98,270.4,-0.055,0.3727,20,270.4,-2.993,0.22,0.13,36.088,-0.001,0.007,0,0,0,269.86,0,0,0,0,0,0,0,0,0,0,0,0,0,1,1,39.33,FLYING
39.49,APPROACH,ILS_TRACK,197.78,200,2.22,1958.69,-11.54,2.08,5.07,270.4,-0.051,0.3632,20,270.4,-3.083,0.21,0.14,36.044,0.002,-0.083,0,0,0,269.86,0,0,0,0,0,0,0,0,0,0,0,0,0,1,1,39.53,FLYING
39.71,APPROACH,ILS_TRACK,197.97,200,2.03,1956.17,-11.44,2.1,5.06,270.4,-0.05,0.3527,20,270.4,-3.156,0.2,0.17,35.996,-0.003,-0.156,0,0,0,269.86,0,0,0,0,0,0,0,0,0,0,0,0,0,1,1,39.75,FLYING
39.91,APPROACH,ILS_TRACK,198.18,200,1.82,1953.86,-11.47,2.01,4.98,270.4,-0.047,0.3413,20,270.4,-3.028,0.19,0.17,35.952,0.003,-0.028,0,0,0,269.86,0,0,0,0,0,0,0,0,0,0,0,0,0,1,1,39.95,FLYING
40.11,APPROACH,ILS_TRACK,198.37,200,1.63,1951.58,-11.52,2.11,5.08,270.4,-0.047,0.3308,20,270.4,-3.149,0.19,0.19,35.908,0,-0.149,0,0,0,269.86,0,0,0,0,0,0,0,0,0,0,0,0,0,1,1,40.15,FLYING
40.31,APPROACH,ILS_TRACK,198.57,200,1.43,1949.25,-11.44,1.98,4.93,270.4,-0.049,0.3196,20,270.4,-3.037,0.18,0.18,35.864,0,-0.037,0,0,0,269.86,0,0,0,0,0,0,0,0,0,0,0,0,0,1,1,40.35,FLYING
40.51,APPROACH,ILS_TRACK,198.78,200,1.22,1946.94,-11.62,1.97,4.96,270.4,-0.048,0.3081,20,270.4,-3.025,0.18,0.18,35.82,-0.003,-0.025,0,0,0,269.86,0,0,0,0,0,0,0,0,0,0,0,0,0,1,1,40.55,FLYING
40.73,APPROACH,ILS_TRACK,198.99,200,1.01,1944.42,-11.55,2.07,5.04,270.4,-0.042,0.2965,20,270.4,-3.174,0.17,0.21,35.771,0.003,-0.174,0,0,0,269.86,0,0,0,0,0,0,0,0,0,0,0,0,0,1,1,40.77,FLYING
40.93,APPROACH,ILS_TRACK,199.21,200,0.79,1942.08,-11.48,1.91,4.87,270.4,-0.045,0.2844,20,270.4,-2.998,0.17,0.19,35.727,-0.001,0.002,0,0,0,269.86,0,0,0,0,0,0,0,0,0,0,0,0,0,1,1,40.97,FLYING
41.13,APPROACH,ILS_TRACK,199.42,200,0.58,1939.76,-11.66,1.88,4.88,270.4,-0.043,0.273,20,270.4,-2.988,0.16,0.18,35.683,0,0.012,0,0,0,269.86,0,0,0,0,0,0,0,0,0,0,0,0,0,1,1,41.17,FLYING
41.33,APPROACH,ILS_TRACK,199.59,200,0.41,1937.47,-11.61,2.02,5.01,270.4,-0.04,0.2634,20,270.4,-3.183,0.16,0.21,35.638,0,-0.183,0,0,0,269.86,0,0,0,0,0,0,0,0,0,0,0,0,0,1,1,41.37,FLYING
41.53,APPROACH,ILS_TRACK,199.8,200,0.2,1935.12,-11.52,1.86,4.82,270.4,-0.043,0.2522,20,270.4,-2.981,0.15,0.19,35.594,0.001,0.019,0,0,0,269.86,0,0,0,0,0,0,0,0,0,0,0,0,0,1,1,41.57,FLYING
41.75,APPROACH,ILS_TRACK,200,200,0,1932.54,-11.72,1.79,4.8,270.4,-0.042,0.2408,20,270.4,-2.936,0.14,0.16,35.545,0.003,0.064,0,0,0,269.86,0,0,0,0,0,0,0,0,0,0,0,0,0,1,1,41.79,FLYING
41.95,APPROACH,ILS_TRACK,200.14,200,-0.14,1930.24,-11.7,1.97,4.97,270.4,-0.044,0.2326,19.974,270.4,-3.17,0.14,0.19,35.501,0,-0.17,0,0,0,269.86,0,0,0,0,0,0,0,0,0,0,0,0,0,1,1,41.99,FLYING
42.15,APPROACH,ILS_TRACK,200.31,200,-0.31,1927.88,-11.58,1.83,4.8,270.4,-0.045,0.2226,19.915,270.4,-2.968,0.13,0.17,35.456,-0.001,0.032,0,0,0,269.86,0,0,0,0,0,0,0,0,0,0,0,0,0,1,1,42.19,FLYING
42.35,APPROACH,ILS_TRACK,200.47,200,-0.47,1925.53,-11.74,1.75,4.76,270.4,-0.043,0.213,19.824,270.4,-2.89,0.13,0.13,35.412,0.003,0.11,0,0,0,269.86,0,0,0,0,0,0,0,0,0,0,0,0,0,1,1,42.39,FLYING
42.55,APPROACH,ILS_TRACK,200.57,200,-0.57,1923.22,-11.77,1.95,4.97,270.4,-0.044,0.2059,19.712,270.4,-3.13,0.13,0.15,35.368,-0.002,-0.13,0,0,0,269.86,0,0,0,0,0,0,0,0,0,0,0,0,0,1,1,42.59,FLYING
42.77,APPROACH,ILS_TRACK,200.7,200,-0.7,1920.63,-11.65,1.85,4.83,270.4,-0.039,0.1968,19.56,270.4,-2.961,0.12,0.13,35.319,0.004,0.039,0,0,0,269.86,0,0,0,0,0,0,0,0,0,0,0,0,0,1,1,42.81,FLYING
42.97,APPROACH,ILS_TRACK,200.8,200,-0.8,1918.28,-11.79,1.83,4.86,270.4,-0.04,0.1892,19.402,270.4,-2.92,0.11,0.1,35.274,0.001,0.08,0,0,0,269.86,0,0,0,0,0,0,0,0,0,0,0,0,0,1,1,43.01,FLYING
43.17,APPROACH,ILS_TRACK,200.86,200,-0.86,1915.96,-11.71,1.97,4.97,270.4,-0.041,0.184,19.232,270.4,-3.109,0.11,0.12,35.23,-0.002,-0.109,0,0,0,269.86,0,0,0,0,0,0,0,0,0,0,0,0,0,1,1,43.21,FLYING
43.37,APPROACH,ILS_TRACK,200.93,200,-0.93,1913.6,-11.66,1.85,4.84,270.4,-0.038,0.1777,19.047,270.4,-2.91,0.11,0.09,35.185,0.002,0.09,0,0,0,269.86,0,0,0,0,0,0,0,0,0,0,0,0,0,1,1,43.41,FLYING
43.57,APPROACH,ILS_TRACK,200.97,200,-0.97,1911.27,-11.79,1.9,4.92,270.4,-0.041,0.173,18.853,270.4,-2.966,0.1,0.08,35.141,0.003,0.034,0,0,0,269.86,0,0,0,0,0,0,0,0,0,0,0,0,0,1,1,43.61,FLYING
43.79,APPROACH,ILS_TRACK,200.99,200,-0.99,1908.7,-11.71,1.95,4.95,270.4,-0.041,0.1694,18.636,270.4,-3.053,0.1,0.08,35.092,-0.003,-0.053,0,0,0,269.86,0,0,0,0,0,0,0,0,0,0,0,0,0,1,1,43.83,FLYING
43.99,APPROACH,ILS_TRACK,201.01,200,-1.01,1906.36,-11.68,1.92,4.91,270.4,-0.038,0.1659,18.435,270.4,-2.969,0.09,0.07,35.047,0.005,0.031,0,0,0,269.86,0,0,0,0,0,0,0,0,0,0,0,0,0,1,1,44.03,FLYING
44.19,APPROACH,ILS_TRACK,200.99,200,-0.99,1904.03,-11.67,1.96,4.96,270.4,-0.039,0.1641,18.236,270.4,-3.036,0.09,0.07,35.003,-0.001,-0.036,0,0,0,269.86,0,0,0,0,0,0,0,0,0,0,0,0,0,1,1,44.23,FLYING
44.39,APPROACH,ILS_TRACK,200.97,200,-0.97,1901.7,-11.67,1.95,4.94,270.4,-0.037,0.1628,18.041,270.4,-2.998,0.09,0.07,34.958,0.001,0.002,0,0,0,269.86,0,0,0,0,0,0,0,0,0,0,0,0,0,1,1,44.43,FLYING
44.59,APPROACH,ILS_TRACK,200.93,200,-0.93,1899.37,-11.64,1.98,4.96,270.4,-0.037,0.1629,17.854,270.4,-3.046,0.08,0.07,34.914,0.002,-0.046,0,0,0,269.86,0,0,0,0,0,0,0,0,0,0,0,0,0,1,1,44.63,FLYING
44.81,APPROACH,ILS_TRACK,200.87,200,-0.87,1896.81,-11.65,1.96,4.95,270.4,-0.038,0.1636,17.661,270.4,-3.02,0.08,0.07,34.865,0.001,-0.02,0,0,0,269.86,0,0,0,0,0,0,0,0,0,0,0,0,0,1,1,44.85,FLYING
45.01,APPROACH,ILS_TRACK,200.8,200,-0.8,1894.49,-11.61,1.98,4.96,270.4,-0.037,0.1657,17.5,270.4,-3.067,0.08,0.08,34.821,0,-0.067,0,0,0,269.86,0,0,0,0,0,0,0,0,0,0,0,0,0,1,1,45.05,FLYING
45.21,APPROACH,ILS_TRACK,200.72,200,-0.72,1892.17,-11.59,1.95,4.92,270.4,-0.035,0.168,17.353,270.4,-3.03,0.07,0.08,34.776,0.001,-0.03,0,0,0,269.86,0,0,0,0,0,0,0,0,0,0,0,0,0,1,1,45.25,FLYING
45.41,APPROACH,ILS_TRACK,200.62,200,-0.62,1889.86,-11.58,1.99,4.97,270.4,-0.035,0.1719,17.227,270.4,-3.096,0.07,0.1,34.732,0,-0.096,0,0,0,269.86,0,0,0,0,0,0,0,0,0,0,0,0,0,1,1,45.45,FLYING
45.61,APPROACH,ILS_TRACK,200.53,200,-0.53,1887.53,-11.54,1.92,4.89,270.4,-0.034,0.1759,17.119,270.4,-3.028,0.07,0.1,34.688,0.002,-0.028,0,0,0,269.86,0,0,0,0,0,0,0,0,0,0,0,0,0,1,1,45.65,FLYING
45.83,APPROACH,ILS_TRACK,200.39,200,-0.39,1885,-11.59,1.99,4.97,270.4,-0.037,0.1819,17.03,270.4,-3.103,0.07,0.12,34.639,-0.002,-0.103,0,0,0,269.86,0,0,0,0,0,0,0,0,0,0,0,0,0,1,1,45.87,FLYING
46.03,APPROACH,ILS_TRACK,200.28,200,-0.28,1882.68,-11.53,1.93,4.9,270.4,-0.032,0.1876,16.971,270.4,-3.055,0.06,0.12,34.595,0.002,-0.055,0,0,0,269.86,0,0,0,0,0,0,0,0,0,0,0,0,0,1,1,46.07,FLYING
46.23,APPROACH,ILS_TRACK,200.15,200,-0.15,1880.38,-11.59,1.99,4.98,270.4,-0.032,0.1942,16.939,270.4,-3.094,0.06,0.14,34.55,0.001,-0.094,0,0,0,269.86,0,0,0,0,0,0,0,0,0,0,0,0,0,1,1,46.27,FLYING
46.43,APPROACH,ILS_TRACK,200.02,200,-0.02,1878.07,-11.53,1.97,4.95,270.4,-0.034,0.2015,16.932,270.4,-3.089,0.06,0.15,34.506,0.001,-0.089,0,0,0,269.86,0,0,0,0,0,0,0,0,0,0,0,0,0,1,1,46.47,FLYING
46.63,APPROACH,ILS_TRACK,199.89,200,0.11,1875.77,-11.53,2.01,4.99,270.4,-0.032,0.209,16.953,270.4,-3.106,0.05,0.16,34.462,0.003,-0.106,0,0,0,269.86,0,0,0,0,0,0,0,0,0,0,0,0,0,1,1,46.67,FLYING
46.86,APPROACH,ILS_TRACK,199.75,200,0.25,1873.13,-11.55,1.98,4.96,270.4,-0.033,0.2173,17.006,270.4,-3.055,0.05,0.16,34.412,-0.003,-0.055,0,0,0,269.86,0,0,0,0,0,0,0,0,0,0,0,0,0,1,1,46.91,FLYING
47.08,APPROACH,ILS_TRACK,199.61,200,0.39,1870.5,-11.55,2.07,5.05,270.4,-0.019,0.2258,17.084,270.4,-3.147,0.05,0.19,34.363,0.002,-0.147,0,0,0,269.86,0,0,0,0,0,0,0,0,0,0,0,0,0,1,1,47.14,FLYING
47.32,APPROACH,ILS_TRACK,199.46,200,0.54,1867.72,-11.51,1.98,4.95,270.4,-0.019,0.2353,17.207,270.4,-3.04,0.05,0.18,34.311,0.002,-0.04,0,0,0,269.86,0,0,0,0,0,0,0,0,0,0,0,0,0,1,1,47.38,FLYING
47.58,APPROACH,ILS_TRACK,199.29,200,0.71,1864.84,-11.6,2.1,5.1,270.4,-0.02,0.2464,17.375,270.4,-3.096,0.04,0.19,34.256,0.001,-0.096,0,0,0,269.86,0,0,0,0,0,0,0,0,0,0,0,0,0,1,1,47.64,FLYING
47.85,APPROACH,ILS_TRACK,199.12,200,0.88,1861.66,-11.59,2.15,5.15,270.4,-0.016,0.2588,17.602,270.4,-3.091,0.04,0.2,34.197,0,-0.091,0,0,0,269.86,0,0,0,0,0,0,0,0,0,0,0,0,0,1,1,47.92,FLYING
48.17,APPROACH,ILS_TRACK,198.92,200,1.08,1857.95,-11.56,2.22,5.22,270.4,-0.017,0.2737,17.936,270.4,-3.081,0.04,0.21,34.127,0.002,-0.081,0,0,0,269.86,0,0,0,0,0,0,0,0,0,0,0,0,0,1,1,48.24,FLYING
48.48,APPROACH,ILS_TRACK,198.73,200,1.27,1854.45,-11.55,2.28,5.28,270.4,-0.019,0.2882,18.306,270.4,-3.069,0.04,0.21,34.06,-0.001,-0.069,0,0,0,269.86,0,0,0,0,0,0,0,0,0,0,0,0,0,1,1,48.55,FLYING
48.79,APPROACH,ILS_TRACK,198.55,200,1.45,1850.84,-11.53,2.33,5.33,270.4,-0.018,0.3037,18.75,270.4,-3.063,0.04,0.21,33.992,0.001,-0.063,0,0,0,269.86,0,0,0,0,0,0,0,0,0,0,0,0,0,1,1,48.86,FLYING
49.11,APPROACH,ILS_TRACK,198.38,200,1.62,1847.22,-11.5,2.37,5.36,270.4,-0.024,0.3194,19.256,270.4,-3.057,0.03,0.21,33.923,0,-0.057,0,0,0,269.86,0,0,0,0,0,0,0,0,0,0,0,0,0,1,1,49.18,FLYING
49.46,APPROACH,ILS_TRACK,198.21,200,1.79,1843.21,-11.47,2.38,5.37,270.4,-0.027,0.3362,19.877,270.4,-3.057,0.03,0.21,33.846,0.001,-0.057,0,0,0,269.86,0,0,0,0,0,0,0,0,0,0,0,0,0,1,1,49.53,FLYING
49.77,APPROACH,ILS_TRACK,198.09,200,1.91,1839.6,-11.45,2.39,5.37,270.41,-0.035,0.3446,20,270.4,-3.067,0.03,0.21,33.777,0.001,-0.067,0,0,0,269.86,0,0,0,0,0,0,0,0,0,0,0,0,0,1,1,49.84,FLYING
50.09,APPROACH,ILS_TRACK,197.99,200,2.01,1835.99,-11.43,2.39,5.37,270.41,-0.036,0.3499,20,270.4,-3.077,0.03,0.21,33.708,0,-0.077,0,0,0,269.86,0,0,0,0,0,0,0,0,0,0,0,0,0,1,1,50.16,FLYING
50.4,APPROACH,ILS_TRACK,197.93,200,2.07,1832.4,-11.41,2.38,5.36,270.41,-0.037,0.3534,20,270.4,-3.086,0.03,0.22,33.64,-0.002,-0.086,0,0,0,269.86,0,0,0,0,0,0,0,0,0,0,0,0,0,1,1,50.47,FLYING
50.75,APPROACH,ILS_TRACK,197.9,200,2.1,1828.4,-11.4,2.37,5.35,270.41,-0.031,0.3554,20,270.4,-3.099,0.03,0.23,33.563,-0.004,-0.099,0,0,0,269.86,0,0,0,0,0,0,0,0,0,0,0,0,0,1,1,50.82,FLYING
51.07,APPROACH,ILS_TRACK,197.91,200,2.09,1824.81,-11.39,2.36,5.33,270.41,-0.026,0.3553,20,270.4,-3.105,0.03,0.25,33.494,0.001,-0.105,0,0,0,269.86,0,0,0,0,0,0,0,0,0,0,0,0,0,1,1,51.14,FLYING
51.38,APPROACH,ILS_TRACK,197.94,200,2.06,1821.22,-11.39,2.35,5.32,270.41,-0.032,0.3536,20,270.4,-3.114,0.03,0.26,33.425,-0.003,-0.114,0,0,0,269.86,0,0,0,0,0,0,0,0,0,0,0,0,0,1,1,51.45,FLYING
51.7,APPROACH,ILS_TRACK,198,200,2,1817.63,-11.39,2.33,5.3,270.41,-0.026,0.3503,20,270.4,-3.118,0.03,0.27,33.357,-0.002,-0.118,0,0,0,269.86,0,0,0,0,0,0,0,0,0,0,0,0,0,1,1,51.77,FLYING
52.05,APPROACH,ILS_TRACK,198.1,200,1.9,1813.64,-11.39,2.31,5.28,270.41,-0.021,0.3449,20,270.39,-3.124,0.04,0.29,33.28,-0.005,-0.124,0,0,0,269.86,0,0,0,0,0,0,0,0,0,0,0,0,0,1,1,52.12,FLYING
52.36,APPROACH,ILS_TRACK,198.22,200,1.78,1810.04,-11.4,2.3,5.27,270.41,-0.014,0.3387,20,270.4,-3.125,0.04,0.3,33.211,-0.003,-0.125,0,0,0,269.86,0,0,0,0,0,0,0,0,0,0,0,0,0,1,1,52.43,FLYING
52.68,APPROACH,ILS_TRACK,198.35,200,1.65,1806.45,-11.41,2.28,5.26,270.41,-0.014,0.3314,20,270.4,-3.131,0.04,0.32,33.143,-0.004,-0.131,0,0,0,269.86,0,0,0,0,0,0,0,0,0,0,0,0,0,1,1,52.75,FLYING
52.99,APPROACH,ILS_TRACK,198.51,200,1.49,1802.85,-11.42,2.26,5.24,270.41,-0.01,0.323,20,270.39,-3.128,0.05,0.33,33.074,-0.005,-0.128,0,0,0,269.86,0,0,0,0,0,0,0,0,0,0,0,0,0,1,1,53.06,FLYING
53.34,APPROACH,ILS_TRACK,198.7,200,1.3,1798.84,-11.43,2.25,5.22,270.41,-0.007,0.3128,20,270.4,-3.132,0.05,0.34,32.997,-0.004,-0.132,0,0,0,269.86,0,0,0,0,0,0,0,0,0,0,0,0,0,1,1,53.41,FLYING
53.66,APPROACH,ILS_TRACK,198.88,200,1.12,1795.24,-11.44,2.23,5.2,270.41,-0.005,0.303,20,270.39,-3.129,0.05,0.35,32.928,-0.006,-0.129,0,0,0,269.86,0,0,0,0,0,0,0,0,0,0,0,0,0,1,1,53.73,FLYING
53.97,APPROACH,ILS_TRACK,199.06,200,0.94,1791.63,-11.45,2.22,5.19,270.41,-0.001,0.2927,20,270.4,-3.133,0.06,0.36,32.859,-0.004,-0.133,0,0,0,269.86,0,0,0,0,0,0,0,0,0,0,0,0,0,1,1,54.04,FLYING
54.29,APPROACH,ILS_TRACK,199.26,200,0.74,1788.01,-11.46,2.2,5.17,270.41,-0.006,0.2821,20,270.39,-3.128,0.06,0.37,32.79,-0.006,-0.128,0,0,0,269.86,0,0,0,0,0,0,0,0,0,0,0,0,0,1,1,54.36,FLYING
54.64,APPROACH,ILS_TRACK,199.47,200,0.53,1783.99,-11.48,2.18,5.16,270.41,0,0.2704,20,270.39,-3.131,0.07,0.38,32.713,-0.006,-0.131,0,0,0,269.86,0,0,0,0,0,0,0,0,0,0,0,0,0,1,1,54.71,FLYING
54.95,APPROACH,ILS_TRACK,199.66,200,0.34,1780.37,-11.49,2.17,5.15,270.41,0.003,0.26,20,270.39,-3.13,0.07,0.38,32.644,-0.006,-0.13,0,0,0,269.86,0,0,0,0,0,0,0,0,0,0,0,0,0,1,1,55.02,FLYING
55.27,APPROACH,ILS_TRACK,199.83,200,0.17,1776.75,-11.5,2.16,5.14,270.41,0,0.2502,20,270.39,-3.13,0.07,0.39,32.575,-0.005,-0.13,0,0,0,269.86,0,0,0,0,0,0,0,0,0,0,0,0,0,1,1,55.34,FLYING
55.58,APPROACH,ILS_TRACK,200,200,0,1773.12,-11.5,2.15,5.13,270.41,-0.003,0.2411,20,270.39,-3.13,0.08,0.39,32.505,-0.007,-0.13,0,0,0,269.86,0,0,0,0,0,0,0,0,0,0,0,0,0,1,1,55.65,FLYING
55.93,APPROACH,ILS_TRACK,200.16,200,-0.16,1769.09,-11.51,2.14,5.12,270.41,0.002,0.2315,19.95,270.39,-3.13,0.08,0.4,32.428,-0.005,-0.13,0,0,0,269.86,0,0,0,0,0,0,0,0,0,0,0,0,0,1,1,56,FLYING
56.25,APPROACH,ILS_TRACK,200.28,200,-0.28,1765.46,-11.52,2.13,5.11,270.41,-0.001,0.2236,19.865,270.39,-3.131,0.08,0.4,32.359,-0.007,-0.131,0,0,0,269.86,0,0,0,0,0,0,0,0,0,0,0,0,0,1,1,56.32,FLYING
56.56,APPROACH,ILS_TRACK,200.38,200,-0.38,1761.83,-11.52,2.12,5.1,270.41,0.003,0.2165,19.747,270.39,-3.129,0.09,0.4,32.29,-0.008,-0.129,0,0,0,269.86,0,0,0,0,0,0,0,0,0,0,0,0,0,1,1,56.63,FLYING
56.88,APPROACH,ILS_TRACK,200.46,200,-0.46,1758.2,-11.53,2.12,5.1,270.41,0.005,0.2105,19.605,270.39,-3.13,0.09,0.41,32.22,-0.007,-0.13,0,0,0,269.86,0,0,0,0,0,0,0,0,0,0,0,0,0,1,1,56.95,FLYING
57.23,APPROACH,ILS_TRACK,200.51,200,-0.51,1754.16,-11.53,2.12,5.1,270.41,0.004,0.2053,19.428,270.39,-3.129,0.1,0.41,32.143,-0.006,-0.129,0,0,0,269.86,0,0,0,0,0,0,0,0,0,0,0,0,0,1,1,57.3,FLYING
57.54,APPROACH,ILS_TRACK,200.53,200,-0.53,1750.53,-11.53,2.12,5.11,270.41,-0.002,0.202,19.261,270.39,-3.13,0.1,0.41,32.074,-0.009,-0.13,0,0,0,269.86,0,0,0,0,0,0,0,0,0,0,0,0,0,1,1,57.61,FLYING
57.86,APPROACH,ILS_TRACK,200.52,200,-0.52,1746.9,-11.53,2.12,5.11,270.41,0.002,0.2003,19.096,270.39,-3.129,0.1,0.41,32.005,-0.006,-0.129,0,0,0,269.86,0,0,0,0,0,0,0,0,0,0,0,0,0,1,1,57.93,FLYING
58.17,APPROACH,ILS_TRACK,200.49,200,-0.49,1743.27,-11.53,2.12,5.11,270.41,0.001,0.2,18.94,270.39,-3.127,0.11,0.42,31.935,-0.007,-0.127,0,0,0,269.86,0,0,0,0,0,0,0,0,0,0,0,0,0,1,1,58.24,FLYING
58.52,APPROACH,ILS_TRACK,200.43,200,-0.43,1739.23,-11.53,2.13,5.12,270.4,0.003,0.2016,18.788,270.39,-3.127,0.11,0.42,31.858,-0.007,-0.127,0,0,0,269.86,0,0,0,0,0,0,0,0,0,0,0,0,0,1,1,58.59,FLYING
58.84,APPROACH,ILS_TRACK,200.35,200,-0.35,1735.61,-11.52,2.14,5.13,270.4,0.002,0.2045,18.676,270.39,-3.126,0.12,0.42,31.789,-0.007,-0.126,0,0,0,269.86,0,0,0,0,0,0,0,0,0,0,0,0,0,1,1,58.91,FLYING
59.15,APPROACH,ILS_TRACK,200.25,200,-0.25,1731.98,-11.52,2.15,5.14,270.4,0.002,0.2089,18.594,270.39,-3.128,0.12,0.42,31.72,-0.009,-0.128,0,0,0,269.86,0,0,0,0,0,0,0,0,0,0,0,0,0,1,1,59.22,FLYING
59.47,APPROACH,ILS_TRACK,200.13,200,-0.13,1728.36,-11.51,2.16,5.15,270.4,0.002,0.2146,18.548,270.39,-3.125,0.13,0.42,31.651,-0.009,-0.125,0,0,0,269.86,0,0,0,0,0,0,0,0,0,0,0,0,0,1,1,59.54,FLYING
59.82,APPROACH,ILS_TRACK,199.99,200,0.01,1724.33,-11.5,2.18,5.17,270.4,0.004,0.2223,18.547,270.39,-3.126,0.13,0.42,31.574,-0.006,-0.126,0,0,0,269.86,0,0,0,0,0,0,0,0,0,0,0,0,0,1,1,59.89,FLYING
60.13,APPROACH,ILS_TRACK,199.86,200,0.14,1720.72,-11.49,2.18,5.17,270.4,-0.001,0.2302,18.587,270.39,-3.124,0.13,0.42,31.505,-0.006,-0.124,0,0,0,269.86,0,0,0,0,0,0,0,0,0,0,0,0,0,1,1,60.2,FLYING
60.45,APPROACH,ILS_TRACK,199.72,200,0.28,1717.1,-11.48,2.19,5.18,270.41,-0.004,0.2388,18.672,270.39,-3.125,0.13,0.42,31.436,-0.008,-0.125,0,0,0,269.86,0,0,0,0,0,0,0,0,0,0,0,0,0,1,1,60.52,FLYING
60.76,APPROACH,ILS_TRACK,199.58,200,0.42,1713.49,-11.47,2.2,5.19,270.41,-0.002,0.2479,18.799,270.39,-3.121,0.14,0.42,31.367,-0.009,-0.121,0,0,0,269.86,0,0,0,0,0,0,0,0,0,0,0,0,0,1,1,60.83,FLYING
61.11,APPROACH,ILS_TRACK,199.43,200,0.57,1709.48,-11.46,2.21,5.2,270.41,-0.002,0.2584,18.993,270.39,-3.124,0.14,0.42,31.29,-0.008,-0.124,0,0,0,269.86,0,0,0,0,0,0,0,0,0,0,0,0,0,1,1,61.18,FLYING
61.43,APPROACH,ILS_TRACK,199.3,200,0.7,1705.87,-11.46,2.22,5.21,270.4,0.001,0.268,19.208,270.39,-3.12,0.14,0.41,31.222,-0.009,-0.12,0,0,0,269.86,0,0,0,0,0,0,0,0,0,0,0,0,0,1,1,61.5,FLYING
61.74,APPROACH,ILS_TRACK,199.18,200,0.82,1702.27,-11.45,2.23,5.22,270.4,0.001,0.2777,19.461,270.39,-3.123,0.15,0.41,31.153,-0.01,-0.123,0,0,0,269.86,0,0,0,0,0,0,0,0,0,0,0,0,0,1,1,61.81,FLYING
62.06,APPROACH,ILS_TRACK,199.08,200,0.92,1698.67,-11.44,2.24,5.23,270.4,0,0.2871,19.748,270.39,-3.12,0.15,0.41,31.084,-0.007,-0.12,0,0,0,269.86,0,0,0,0,0,0,0,0,0,0,0,0,0,1,1,62.13,FLYING
62.41,APPROACH,ILS_TRACK,198.97,200,1.03,1694.67,-11.43,2.25,5.24,270.41,-0.009,0.296,20,270.39,-3.123,0.16,0.41,31.008,-0.011,-0.123,0,0,0,269.86,0,0,0,0,0,0,0,0,0,0,0,0,0,1,1,62.48,FLYING
62.72,APPROACH,ILS_TRACK,198.89,200,1.11,1691.07,-11.42,2.25,5.24,270.41,-0.004,0.3004,20,270.39,-3.12,0.16,0.41,30.939,-0.008,-0.12,0,0,0,269.86,0,0,0,0,0,0,0,0,0,0,0,0,0,1,1,62.79,FLYING
63.04,APPROACH,ILS_TRACK,198.83,200,1.17,1687.47,-11.41,2.25,5.24,270.41,-0.004,0.3039,20,270.39,-3.122,0.16,0.41,30.871,-0.007,-0.122,0,0,0,269.86,0,0,0,0,0,0,0,0,0,0,0,0,0,1,1,63.11,FLYING
63.35,APPROACH,ILS_TRACK,198.79,200,1.21,1683.88,-11.41,2.25,5.24,270.41,-0.007,0.3065,20,270.39,-3.123,0.17,0.41,30.802,-0.013,-0.123,0,0,0,269.86,0,0,0,0,0,0,0,0,0,0,0,0,0,1,1,63.42,FLYING
63.7,APPROACH,ILS_TRACK,198.76,200,1.24,1679.89,-11.4,2.25,5.24,270.4,0.006,0.3081,20,270.39,-3.123,0.17,0.41,30.726,-0.01,-0.123,0,0,0,269.86,0,0,0,0,0,0,0,0,0,0,0,0,0,1,1,63.77,FLYING
64.02,APPROACH,ILS_TRACK,198.75,200,1.25,1676.3,-11.4,2.25,5.24,270.4,0.009,0.3086,20,270.39,-3.123,0.17,0.41,30.657,-0.007,-0.123,0,0,0,269.86,0,0,0,0,0,0,0,0,0,0,0,0,0,1,1,64.09,FLYING
64.33,APPROACH,ILS_TRACK,198.76,200,1.24,1672.71,-11.39,2.24,5.23,270.4,0.005,0.3082,20,270.39,-3.124,0.18,0.41,30.589,-0.012,-0.124,0,0,0,269.86,0,0,0,0,0,0,0,0,0,0,0,0,0,1,1,64.4,FLYING
64.65,APPROACH,ILS_TRACK,198.79,200,1.21,1669.12,-11.39,2.24,5.22,270.4,0.012,0.3069,20,270.39,-3.122,0.18,0.41,30.52,-0.01,-0.122,0,0,0,269.86,0,0,0,0,0,0,0,0,0,0,0,0,0,1,1,64.72,FLYING
65,APPROACH,ILS_TRACK,198.83,200,1.17,1665.13,-11.39,2.23,5.22,270.4,0.013,0.3044,20,270.39,-3.126,0.18,0.41,30.444,-0.01,-0.126,0,0,0,269.86,0,0,0,0,0,0,0,0,0,0,0,0,0,1,1,65.07,FLYING
65.31,APPROACH,ILS_TRACK,198.89,200,1.11,1661.54,-11.39,2.23,5.21,270.4,0.01,0.3014,20,270.39,-3.124,0.19,0.41,30.376,-0.012,-0.124,0,0,0,269.86,0,0,0,0,0,0,0,0,0,0,0,0,0,1,1,65.38,FLYING
65.63,APPROACH,ILS_TRACK,198.96,200,1.04,1657.94,-11.39,2.22,5.2,270.4,0.011,0.2977,20,270.39,-3.123,0.19,0.41,30.307,-0.009,-0.123,0,0,0,269.86,0,0,0,0,0,0,0,0,0,0,0,0,0,1,1,65.7,FLYING
65.94,APPROACH,ILS_TRACK,199.04,200,0.96,1654.35,-11.4,2.21,5.19,270.4,0.007,0.2934,20,270.39,-3.125,0.19,0.41,30.239,-0.009,-0.125,0,0,0,269.86,0,0,0,0,0,0,0,0,0,0,0,0,0,1,1,66.01,FLYING
66.29,APPROACH,ILS_TRACK,199.14,200,0.86,1650.36,-11.4,2.2,5.19,270.4,0.003,0.288,20,270.39,-3.124,0.2,0.41,30.162,-0.01,-0.124,0,0,0,269.86,0,0,0,0,0,0,0,0,0,0,0,0,0,1,1,66.36,FLYING
66.61,APPROACH,ILS_TRACK,199.23,200,0.77,1646.77,-11.4,2.19,5.18,270.4,0.007,0.2828,20,270.39,-3.126,0.2,0.41,30.094,-0.01,-0.126,0,0,0,269.86,0,0,0,0,0,0,0,0,0,0,0,0,0,1,1,66.68,FLYING
66.92,APPROACH,ILS_TRACK,199.33,200,0.67,1643.17,-11.41,2.18,5.17,270.4,0.003,0.2772,20,270.39,-3.126,0.2,0.41,30.025,-0.01,-0.126,0,0,0,269.86,0,0,0,0,0,0,0,0,0,0,0,0,0,1,1,66.99,FLYING
67.24,APPROACH,ILS_TRACK,199.44,200,0.56,1639.58,-11.41,2.18,5.16,270.4,0.004,0.2715,20,270.39,-3.125,0.2,0.41,29.957,-0.011,-0.125,0,0,0,269.86,0,0,0,0,0,0,0,0,0,0,0,0,0,1,1,67.31,FLYING
67.59,APPROACH,ILS_TRACK,199.56,200,0.44,1635.58,-11.41,2.17,5.15,270.4,0.008,0.265,20,270.39,-3.127,0.2,0.42,29.88,-0.009,-0.127,0,0,0,269.86,0,0,0,0,0,0,0,0,0,0,0,0,0,1,1,67.66,FLYING
67.9,APPROACH,ILS_TRACK,199.66,200,0.34,1631.98,-11.41,2.16,5.14,270.4,0.004,0.2592,20,270.39,-3.128,0.21,0.42,29.812,-0.01,-0.128,0,0,0,269.86,0,0,0,0,0,0,0,0,0,0,0,0,0,1,1,67.97,FLYING
68.22,APPROACH,ILS_TRACK,199.76,200,0.24,1628.38,-11.42,2.15,5.13,270.4,0.005,0.2536,20,270.39,-3.127,0.21,0.42,29.743,-0.01,-0.127,0,0,0,269.86,0,0,0,0,0,0,0,0,0,0,0,0,0,1,1,68.29,FLYING
68.53,APPROACH,ILS_TRACK,199.86,200,0.14,1624.78,-11.42,2.14,5.13,270.4,0.007,0.2484,20,270.39,-3.129,0.21,0.42,29.674,-0.01,-0.129,0,0,0,269.86,0,0,0,0,0,0,0,0,0,0,0,0,0,1,1,68.6,FLYING
68.88,APPROACH,ILS_TRACK,199.95,200,0.05,1620.78,-11.42,2.13,5.12,270.4,0.006,0.2431,20,270.39,-3.129,0.21,0.42,29.598,-0.01,-0.129,0,0,0,269.86,0,0,0,0,0,0,0,0,0,0,0,0,0,1,1,68.95,FLYING
69.2,APPROACH,ILS_TRACK,200.03,200,-0.03,1617.18,-11.43,2.13,5.11,270.4,0.007,0.2388,19.994,270.39,-3.129,0.22,0.42,29.529,-0.011,-0.129,0,0,0,269.86,0,0,0,0,0,0,0,0,0,0,0,0,0,1,1,69.27,FLYING
69.51,APPROACH,ILS_TRACK,200.09,200,-0.09,1613.58,-11.43,2.12,5.11,270.4,0.008,0.235,19.967,270.39,-3.128,0.21,0.42,29.461,-0.008,-0.128,0,0,0,269.86,0,0,0,0,0,0,0,0,0,0,0,0,0,1,1,69.58,FLYING
69.83,APPROACH,ILS_TRACK,200.14,200,-0.14,1609.98,-11.43,2.12,5.11,270.4,0,0.2317,19.925,270.39,-3.129,0.22,0.42,29.392,-0.011,-0.129,0,0,0,269.86,0,0,0,0,0,0,0,0,0,0,0,0,0,1,1,69.9,FLYING
70.18,APPROACH,ILS_TRACK,200.18,200,-0.18,1605.98,-11.44,2.12,5.11,270.4,0.005,0.2287,19.864,270.39,-3.127,0.22,0.42,29.315,-0.01,-0.127,0,0,0,269.86,0,0,0,0,0,0,0,0,0,0,0,0,0,1,1,70.25,FLYING
70.49,APPROACH,ILS_TRACK,200.2,200,-0.2,1602.38,-11.43,2.12,5.11,270.4,0.002,0.2268,19.802,270.39,-3.131,0.22,0.42,29.247,-0.01,-0.131,0,0,0,269.86,0,0,0,0,0,0,0,0,0,0,0,0,0,1,1,70.56,FLYING
70.81,APPROACH,ILS_TRACK,200.2,200,-0.2,1598.78,-11.43,2.12,5.11,270.4,-0.001,0.2257,19.738,270.39,-3.126,0.22,0.42,29.178,-0.009,-0.126,0,0,0,269.86,0,0,0,0,0,0,0,0,0,0,0,0,0,1,1,70.88,FLYING
71.12,APPROACH,ILS_TRACK,200.19,200,-0.19,1595.18,-11.43,2.12,5.11,270.4,-0.001,0.2253,19.676,270.39,-3.128,0.22,0.42,29.109,-0.009,-0.128,0,0,0,269.86,0,0,0,0,0,0,0,0,0,0,0,0,0,1,1,71.19,FLYING
71.47,APPROACH,ILS_TRACK,200.17,200,-0.17,1591.18,-11.43,2.12,5.11,270.4,-0.002,0.2258,19.615,270.39,-3.127,0.22,0.42,29.033,-0.011,-0.127,0,0,0,269.86,0,0,0,0,0,0,0,0,0,0,0,0,0,1,1,71.54,FLYING
71.79,APPROACH,ILS_TRACK,200.14,200,-0.14,1587.58,-11.42,2.13,5.12,270.4,0.001,0.2272,19.571,270.39,-3.128,0.23,0.42,28.964,-0.01,-0.128,0,0,0,269.86,0,0,0,0,0,0,0,0,0,0,0,0,0,1,1,71.86,FLYING
72.1,APPROACH,ILS_TRACK,200.09,200,-0.09,1583.98,-11.42,2.13,5.12,270.4,0.001,0.2292,19.541,270.39,-3.126,0.23,0.42,28.896,-0.009,-0.126,0,0,0,269.86,0,0,0,0,0,0,0,0,0,0,0,0,0,1,1,72.17,FLYING
72.42,APPROACH,ILS_TRACK,200.04,200,-0.04,1580.39,-11.41,2.14,5.13,270.4,-0.001,0.232,19.527,270.39,-3.127,0.23,0.42,28.827,-0.01,-0.127,0,0,0,269.86,0,0,0,0,0,0,0,0,0,0,0,0,0,1,1,72.49,FLYING
72.77,APPROACH,ILS_TRACK,199.97,200,0.03,1576.4,-11.41,2.14,5.13,270.4,0.002,0.2357,19.536,270.39,-3.126,0.23,0.42,28.751,-0.01,-0.126,0,0,0,269.86,0,0,0,0,0,0,0,0,0,0,0,0,0,1,1,72.84,FLYING
73.08,APPROACH,ILS_TRACK,199.9,200,0.1,1572.8,-11.4,2.14,5.13,270.4,0.002,0.2397,19.564,270.39,-3.125,0.23,0.42,28.682,-0.01,-0.125,0,0,0,269.86,0,0,0,0,0,0,0,0,0,0,0,0,0,1,1,73.15,FLYING
73.4,APPROACH,ILS_TRACK,199.84,200,0.16,1569.21,-11.4,2.15,5.14,270.4,0.001,0.244,19.613,270.39,-3.124,0.23,0.42,28.614,-0.01,-0.124,0,0,0,269.86,0,0,0,0,0,0,0,0,0,0,0,0,0,1,1,73.47,FLYING
73.71,APPROACH,ILS_TRACK,199.77,200,0.23,1565.63,-11.4,2.15,5.15,270.4,0,0.2486,19.684,270.39,-3.125,0.23,0.42,28.545,-0.011,-0.125,0,0,0,269.86,0,0,0,0,0,0,0,0,0,0,0,0,0,1,1,73.78,FLYING
74.06,APPROACH,ILS_TRACK,199.69,200,0.31,1561.64,-11.39,2.16,5.15,270.4,0.003,0.254,19.789,270.39,-3.124,0.23,0.42,28.469,-0.009,-0.124,0,0,0,269.86,0,0,0,0,0,0,0,0,0,0,0,0,0,1,1,74.13,FLYING
74.38,APPROACH,ILS_TRACK,199.63,200,0.37,1558.05,-11.38,2.16,5.16,270.4,0.001,0.2589,19.904,270.39,-3.122,0.23,0.42,28.401,-0.009,-0.122,0,0,0,269.86,0,0,0,0,0,0,0,0,0,0,0,0,0,1,1,74.45,FLYING
74.69,APPROACH,ILS_TRACK,199.57,200,0.43,1554.47,-11.38,2.17,5.16,270.4,0.001,0.2634,20,270.39,-3.123,0.23,0.42,28.333,-0.011,-0.123,0,0,0,269.86,0,0,0,0,0,0,0,0,0,0,0,0,0,1,1,74.76,FLYING
75.01,APPROACH,ILS_TRACK,199.51,200,0.49,1550.89,-11.37,2.17,5.16,270.4,0,0.2664,20,270.39,-3.124,0.24,0.42,28.264,-0.011,-0.124,0,0,0,269.86,0,0,0,0,0,0,0,0,0,0,0,0,0,1,1,75.08,FLYING
75.36,APPROACH,ILS_TRACK,199.46,200,0.54,1546.91,-11.36,2.18,5.17,270.4,0,0.2694,20,270.39,-3.122,0.24,0.42,28.188,-0.01,-0.122,0,0,0,269.86,0,0,0,0,0,0,0,0,0,0,0,0,0,1,1,75.43,FLYING
75.67,APPROACH,ILS_TRACK,199.42,200,0.58,1543.33,-11.36,2.18,5.17,270.4,-0.003,0.2717,20,270.39,-3.124,0.24,0.42,28.12,-0.01,-0.124,0,0,0,269.86,0,0,0,0,0,0,0,0,0,0,0,0,0,1,1,75.74,FLYING
75.99,APPROACH,ILS_TRACK,199.39,200,0.61,1539.76,-11.35,2.18,5.17,270.4,0.002,0.2736,20,270.39,-3.121,0.24,0.41,28.052,-0.009,-0.121,0,0,0,269.86,0,0,0,0,0,0,0,0,0,0,0,0,0,1,1,76.06,FLYING
76.3,APPROACH,ILS_TRACK,199.36,200,0.64,1536.18,-11.35,2.18,5.17,270.4,0,0.275,20,270.39,-3.125,0.24,0.42,27.984,-0.011,-0.125,0,0,0,269.86,0,0,0,0,0,0,0,0,0,0,0,0,0,1,1,76.37,FLYING
