t_s,phase,subphase,ias_ms,vapp_ms,spd_err_ms,agl_m,vs_ms,pitch_deg,aoa_deg,hdg_deg,bank_deg,thr_cmd,thr_intg,aa_hdg_cmd_deg,aa_fpa_cmd_deg,ils_loc_m,ils_gs_m,ils_dist_km,loc_corr_deg,gs_corr_deg,flare_fpa_cmd,flare_tgt_vs,flare_frac,steer_hdg_deg,steer_blend,ro_loc_corr_deg,ro_hdg_err_deg,ro_yaw_tgt,ro_yaw_scale,ro_yaw_gate,yaw_cmd,roll_cmd,pitch_cmd,ro_pitch_tgt_deg,ro_pitch_err_deg,ro_pitch_ff,ro_roll_assist,flaps_cur,flaps_tgt,phase_el_s,status
0.26,APPROACH,FLY_TO_FIX,198.06,175.13,-22.93,2480.55,-23.22,2.23,8.23,269.66,-1.906,0.032,-1.832,9.61,-4.913,0,0,0,0,0,0,0,0,269.68,0,0,0,0,0,0,0,0,0,0,0,0,0,0,3,0.3,FLYING
0.54,APPROACH,ILS_TRACK,198.31,175.58,-22.73,2473.49,-23.72,0.53,6.6,269.83,-2.176,0,-8.19,107.55,-6,0,0,0,0,0,0,0,0,269.68,0,0,0,0,0,0,0,0,0,0,0,0,0,1,3,0.56,FLYING
0.8,APPROACH,ILS_TRACK,198.62,176.02,-22.59,2467,-24.54,-0.17,6.02,269.83,-3.255,0,-14.511,245.4,0,33.79,-21.83,46.201,-31.519,68.905,0,0,0,269.68,0,0,0,0,0,0,0,0,0,0,0,0,0,1,3,0.84,FLYING
1.06,APPROACH,ILS_TRACK,198.86,176.44,-22.42,2460.12,-25.34,0.23,6.54,269.87,-0.723,0,-20,270.01,0,32.83,-25.44,46.138,-0.39,18.768,0,0,0,269.68,0,0,0,0,0,0,0,0,0,0,0,0,0,2,3,1.1,FLYING
1.38,APPROACH,ILS_TRACK,199.04,176.95,-22.09,2452.69,-25.46,0.95,7.33,269.54,3,0,-20,269.89,0,31.85,-29.27,46.071,-0.508,18.354,0,0,0,269.68,0,0,0,0,0,0,0,0,0,0,0,0,0,2,3,1.42,FLYING
1.64,APPROACH,ILS_TRACK,199.09,177.37,-21.72,2445.49,-25.51,0.69,7.13,269.25,2.458,0,-20,270.03,0,30.94,-33.09,46.008,-0.366,21.667,0,0,0,269.68,0,0,0,0,0,0,0,0,0,0,0,0,0,3,3,1.68,FLYING
1.9,APPROACH,ILS_TRACK,199.12,176.95,-22.17,2439.31,-25.8,0.64,7.13,269.24,1.672,0,-20,269.99,0,30.11,-36.45,45.954,-0.405,21.286,0,0,0,269.68,0,0,0,0,0,0,0,0,0,0,0,0,0,3,3,1.94,FLYING
2.16,APPROACH,ILS_TRACK,199.13,176.54,-22.59,2432.61,-25.94,0.74,7.26,269.3,1.107,0,-20,270.14,0,29.17,-40.08,45.895,-0.261,23.174,0,0,0,269.68,0,0,0,0,0,0,0,0,0,0,0,0,0,3,3,2.2,FLYING
2.46,APPROACH,ILS_TRACK,199.07,176.06,-23.01,2424.86,-26.02,0.89,7.43,269.36,0.626,0,-20,270.2,0,28.06,-44.29,45.828,-0.202,24.521,0,0,0,269.68,0,0,0,0,0,0,0,0,0,0,0,0,0,3,3,2.5,FLYING
2.72,APPROACH,ILS_TRACK,198.95,175.64,-23.31,2418.14,-26.01,1.02,7.58,269.41,0.317,0,-20,270.24,0,27.1,-47.95,45.769,-0.162,25.658,0,0,0,269.68,0,0,0,0,0,0,0,0,0,0,0,0,0,3,3,2.76,FLYING
2.98,APPROACH,ILS_TRACK,198.78,175.22,-23.56,2411.42,-25.93,1.16,7.71,269.44,0.084,0,-20,270.29,0,26.13,-51.61,45.711,-0.113,26.743,0,0,0,269.68,0,0,0,0,0,0,0,0,0,0,0,0,0,3,3,3.02,FLYING
3.24,APPROACH,ILS_TRACK,198.56,175,-23.56,2404.74,-25.79,1.3,7.81,269.47,-0.086,0,-20,270.32,0,25.17,-55.25,45.653,-0.083,27.781,0,0,0,269.68,0,0,0,0,0,0,0,0,0,0,0,0,0,3,3,3.28,FLYING
3.54,APPROACH,ILS_TRACK,198.24,175,-23.24,2397.08,-25.56,1.43,7.9,269.49,-0.209,0,-20,270.37,0,24.05,-59.42,45.586,-0.027,28.928,0,0,0,269.68,0,0,0,0,0,0,0,0,0,0,0,0,0,3,3,3.58,FLYING
3.8,APPROACH,ILS_TRACK,197.91,175,-22.91,2390.49,-25.32,1.52,7.95,269.5,-0.265,0,-20,270.4,0,23.09,-62.98,45.528,-0.003,29.857,0,0,0,269.68,0,0,0,0,0,0,0,0,0,0,0,0,0,3,3,3.84,FLYING
4.06,APPROACH,ILS_TRACK,197.54,175,-22.54,2383.9,-24.97,1.31,7.69,269.5,-0.287,0,-20,270.43,0,22.14,-66.52,45.47,0.03,30.85,0,0,0,269.68,0,0,0,0,0,0,0,0,0,0,0,0,0,3,3,4.1,FLYING
4.32,APPROACH,ILS_TRACK,197.15,175,-22.15,2377.38,-24.93,1.2,7.54,269.52,-0.471,0,-20,270.47,0,21.19,-70.06,45.412,0.068,31.894,0,0,0,269.68,0,0,0,0,0,0,0,0,0,0,0,0,0,3,3,4.36,FLYING
4.62,APPROACH,ILS_TRACK,196.64,175,-21.64,2370.03,-24.71,1.54,7.84,269.58,-0.842,0,-20,270.51,0,20.1,-73.96,45.345,0.108,32.611,0,0,0,269.68,0,0,0,0,0,0,0,0,0,0,0,0,0,3,3,4.66,FLYING
4.88,APPROACH,ILS_TRACK,196.17,175,-21.17,2363.75,-24.38,1.89,8.12,269.63,-1.143,0,-20,270.53,0,19.17,-77.26,45.288,0.128,33.313,0,0,0,269.68,0,0,0,0,0,0,0,0,0,0,0,0,0,3,3,4.92,FLYING
5.14,APPROACH,ILS_TRACK,195.63,175,-20.63,2357.56,-23.94,2.19,8.33,269.69,-1.327,0,-20,270.56,0,18.24,-80.47,45.23,0.162,34.033,0,0,0,269.68,0,0,0,0,0,0,0,0,0,0,0,0,0,3,3,5.18,FLYING
5.4,APPROACH,ILS_TRACK,195.04,175,-20.04,2351.43,-23.37,2.24,8.29,269.7,-1.286,0,-20,270.57,0,17.34,-83.62,45.173,0.172,34.758,0,0,0,269.68,0,0,0,0,0,0,0,0,0,0,0,0,0,3,3,5.44,FLYING
5.7,APPROACH,ILS_TRACK,194.33,175,-19.33,2344.45,-22.83,2.02,7.96,269.71,-0.515,0,-20,270.59,0,16.33,-87.19,45.107,0.189,35.691,0,0,0,269.68,0,0,0,0,0,0,0,0,0,0,0,0,0,3,3,5.74,FLYING
5.96,APPROACH,ILS_TRACK,193.68,175,-18.68,2338.51,-22.45,1.81,7.66,269.51,2.783,0,-20,270.61,0,15.47,-90.19,45.05,0.205,36.286,0,0,0,269.68,0,0,0,0,0,0,0,0,0,0,0,0,0,3,3,6,FLYING
6.22,APPROACH,ILS_TRACK,193.05,175,-18.05,2332.64,-22.11,1.55,7.34,269.2,4.86,0,-20,270.61,0,14.64,-93.11,44.993,0.215,36.902,0,0,0,269.68,0,0,0,0,0,0,0,0,0,0,0,0,0,3,3,6.26,FLYING
6.48,APPROACH,ILS_TRACK,192.42,175,-17.42,2326.84,-21.9,1.28,7.04,268.95,4.55,0,-20,270.68,0,13.77,-95.97,44.937,0.283,37.607,0,0,0,269.68,0,0,0,0,0,0,0,0,0,0,0,0,0,3,3,6.52,FLYING
6.78,APPROACH,ILS_TRACK,191.65,175,-16.65,2320.28,-21.71,1.22,6.93,268.93,2.055,0,-20,270.82,0,12.66,-99.17,44.872,0.424,38.276,0,0,0,269.68,0,0,0,0,0,0,0,0,0,0,0,0,0,3,3,6.82,FLYING
7.04,APPROACH,ILS_TRACK,190.98,175,-15.98,2314.69,-21.53,1.3,6.97,269.08,0.909,0,-20,270.92,0,11.63,-101.86,44.816,0.519,38.826,0,0,0,269.68,0,0,0,0,0,0,0,0,0,0,0,0,0,3,3,7.08,FLYING
7.3,APPROACH,ILS_TRACK,190.31,175,-15.31,2309.11,-21.19,1.19,6.82,269.27,-0.73,0,-20,270.98,0,10.59,-104.49,44.76,0.583,39.461,0,0,0,269.68,0,0,0,0,0,0,0,0,0,0,0,0,0,3,3,7.34,FLYING
7.56,APPROACH,ILS_TRACK,189.64,175,-14.64,2303.44,-20.85,0.49,6.1,269.41,-0.951,0,-20,271.02,0,9.54,-107.19,44.704,0.625,40.444,0,0,0,269.68,0,0,0,0,0,0,0,0,0,0,0,0,0,3,3,7.6,FLYING
7.86,APPROACH,ILS_TRACK,188.92,175.48,-13.44,2296.79,-21.03,-0.82,4.85,269.46,-1.228,0,-20,271.05,0,8.36,-110.46,44.64,0.649,41.866,0,0,0,269.68,0,0,0,0,0,0,0,0,0,0,0,0,0,3,3,7.9,FLYING
8.12,APPROACH,ILS_TRACK,188.3,175.9,-12.41,2291.05,-21.54,-1.54,4.24,269.51,-2.014,0,-20,271.07,0,7.35,-113.32,44.584,0.671,42.784,0,0,0,269.68,0,0,0,0,0,0,0,0,0,0,0,0,0,3,3,8.16,FLYING
8.38,APPROACH,ILS_TRACK,187.66,176.31,-11.35,2285.35,-22.12,-1.6,4.3,269.59,-2.626,0,-20,271.09,0,6.38,-116.14,44.529,0.687,43.542,0,0,0,269.68,0,0,0,0,0,0,0,0,0,0,0,0,0,3,3,8.42,FLYING
8.64,APPROACH,ILS_TRACK,186.98,176.73,-10.25,2279.72,-22.57,-0.95,5.05,269.69,-3.024,0,-20,271.11,0,5.41,-118.92,44.474,0.71,44.23,0,0,0,269.68,0,0,0,0,0,0,0,0,0,0,0,0,0,3,3,8.68,FLYING
8.94,APPROACH,ILS_TRACK,186.14,177.21,-8.93,2273.35,-22.77,0.57,6.62,269.86,-3.338,0.0121,-20,271.12,0,4.34,-122.04,44.411,0.723,44.912,0,0,0,269.68,0,0,0,0,0,0,0,0,0,0,0,0,0,3,3,8.98,FLYING
9.2,APPROACH,ILS_TRACK,185.31,177.62,-7.69,2268,-22.53,2.46,8.44,270.04,-3.631,0.0439,-20,271.11,0,3.45,-124.6,44.357,0.71,45.267,0,0,0,269.68,0,0,0,0,0,0,0,0,0,0,0,0,0,3,3,9.24,FLYING
9.46,APPROACH,ILS_TRACK,184.38,178.04,-6.34,2262.81,-21.62,4.34,10.16,270.25,-3.907,0.1442,-20,271.11,0,2.61,-126.99,44.302,0.712,45.467,0,0,0,269.68,0,0,0,0,0,0,0,0,0,0,0,0,0,3,3,9.5,FLYING
9.72,APPROACH,ILS_TRACK,183.34,178.46,-4.89,2257.71,-20.45,5.59,11.17,270.43,-4.158,0.2482,-20,271.08,0,1.82,-129.31,44.249,0.685,45.929,0,0,0,269.68,0,0,0,0,0,0,0,0,0,0,0,0,0,3,3,9.76,FLYING
10.02,APPROACH,ILS_TRACK,182.06,178.94,-3.12,2252.05,-19,6.41,11.68,270.59,-4.27,0.3682,-20,271.04,0,1,-131.81,44.187,0.641,46.215,0,0,0,269.68,0,0,0,0,0,0,0,0,0,0,0,0,0,3,3,10.06,FLYING
10.28,APPROACH,ILS_TRACK,180.94,179.35,-1.59,2247.38,-17.82,6.78,11.77,270.67,-4.236,0.4722,-20,270.99,0,0.37,-133.78,44.133,0.588,46.177,0,0,0,269.68,0,0,0,0,0,0,0,0,0,0,0,0,0,3,3,10.32,FLYING
10.54,APPROACH,ILS_TRACK,179.87,179.77,-0.1,2242.99,-16.71,7.06,11.76,270.73,-4.113,0.5762,-20,270.94,0,-0.18,-135.5,44.08,0.539,45.942,0,0,0,269.68,0,0,0,0,0,0,0,0,0,0,0,0,0,3,3,10.58,FLYING
10.8,APPROACH,ILS_TRACK,178.87,180.18,1.31,2238.87,-15.69,7.32,11.75,270.77,-3.944,0.6802,-19.678,270.89,0,-0.66,-136.96,44.027,0.488,45.589,0,0,0,269.68,0,0,0,0,0,0,0,0,0,0,0,0,0,3,3,10.84,FLYING
11.1,APPROACH,ILS_TRACK,177.83,180.66,2.83,2234.44,-14.49,7.62,11.74,270.8,-3.714,0.8002,-18.848,270.84,0,-1.13,-138.32,43.967,0.435,45.119,0,0,0,269.68,0,0,0,0,0,0,0,0,0,0,0,0,0,3,3,11.14,FLYING
11.36,APPROACH,ILS_TRACK,177.03,181.08,4.05,2230.89,-13.45,7.89,11.74,270.82,-3.497,0.8684,-17.81,270.79,0,-1.47,-139.22,43.914,0.392,44.55,0,0,0,269.68,0,0,0,0,0,0,0,0,0,0,0,0,0,3,3,11.4,FLYING
11.62,APPROACH,ILS_TRACK,176.35,181.5,5.15,2227.57,-12.52,8.02,11.6,270.83,-3.28,0.8958,-16.485,270.75,0,-1.76,-139.91,43.862,0.348,44.089,0,0,0,269.68,0,0,0,0,0,0,0,0,0,0,0,0,0,3,3,11.66,FLYING
11.88,APPROACH,ILS_TRACK,175.78,181.91,6.13,2224.54,-11.63,8.38,11.72,270.84,-3.041,0.9079,-14.901,270.69,0,-1.99,-140.34,43.81,0.294,43.406,0,0,0,269.68,0,0,0,0,0,0,0,0,0,0,0,0,0,3,3,11.92,FLYING
12.18,APPROACH,ILS_TRACK,175.26,182.39,7.14,2221.33,-10.53,8.73,11.75,270.84,-2.75,0.9168,-12.769,270.66,0,-2.19,-140.51,43.751,0.256,42.632,0,0,0,269.68,0,0,0,0,0,0,0,0,0,0,0,0,0,3,3,12.22,FLYING
12.44,APPROACH,ILS_TRACK,174.91,182.81,7.9,2218.8,-9.58,8.99,11.75,270.84,-2.499,0.8859,-10.722,270.62,0,-2.32,-140.42,43.699,0.216,41.837,0,0,0,269.68,0,0,0,0,0,0,0,0,0,0,0,0,0,3,3,12.48,FLYING
12.7,APPROACH,ILS_TRACK,174.66,183.22,8.56,2216.52,-8.58,9.25,11.73,270.83,-2.241,0.8341,-8.5,270.58,0,-2.4,-140.08,43.647,0.179,40.992,0,0,0,269.68,0,0,0,0,0,0,0,0,0,0,0,0,0,3,3,12.74,FLYING
12.96,APPROACH,ILS_TRACK,174.5,183.64,9.14,2214.47,-7.72,9.43,11.65,270.81,-1.965,0.7827,-6.125,270.53,0,-2.44,-139.53,43.596,0.133,40.155,0,0,0,269.68,0,0,0,0,0,0,0,0,0,0,0,0,0,3,3,13,FLYING
13.26,APPROACH,ILS_TRACK,174.39,184.12,9.73,2212.38,-6.47,9.55,11.44,270.77,-1.594,0.7398,-3.209,270.52,0,-2.46,-138.58,43.536,0.117,39.035,0,0,0,269.68,0,0,0,0,0,0,0,0,0,0,0,0,0,3,3,13.3,FLYING
13.52,APPROACH,ILS_TRACK,174.4,184.54,10.13,2210.77,-5.6,9.38,11.03,270.72,-1.257,0.6906,-0.573,270.47,0,-2.44,-137.57,43.485,0.072,38.164,0,0,0,269.68,0,0,0,0,0,0,0,0,0,0,0,0,0,3,3,13.56,FLYING
13.78,APPROACH,ILS_TRACK,174.5,184.95,10.45,2209.34,-4.79,9.05,10.47,270.65,-0.876,0.6412,2.147,270.45,0,-2.39,-136.37,43.433,0.053,37.211,0,0,0,269.68,0,0,0,0,0,0,0,0,0,0,0,0,0,3,3,13.82,FLYING
14.04,APPROACH,ILS_TRACK,174.69,185.37,10.68,2208.08,-4.19,8.71,9.95,270.59,-0.532,0.5913,4.927,270.43,0,-2.33,-134.99,43.382,0.034,36.264,0,0,0,269.68,0,0,0,0,0,0,0,0,0,0,0,0,0,3,3,14.08,FLYING
14.34,APPROACH,ILS_TRACK,175,185.85,10.85,2206.83,-3.57,8.39,9.44,270.53,-0.192,0.5484,8.189,270.42,0,-2.25,-133.18,43.322,0.021,35.134,0,0,0,269.68,0,0,0,0,0,0,0,0,0,0,0,0,0,3,3,14.38,FLYING
14.6,APPROACH,ILS_TRACK,175.33,186.25,10.92,2205.91,-3.14,8.22,9.14,270.49,0.055,0.5103,11.042,270.41,0,-2.17,-131.45,43.27,0.013,34.093,0,0,0,269.68,0,0,0,0,0,0,0,0,0,0,0,0,0,3,3,14.64,FLYING
14.86,APPROACH,ILS_TRACK,175.69,186.25,10.56,2205.11,-2.71,8.09,8.88,270.45,0.254,0.4736,13.802,270.41,0,-2.1,-129.57,43.218,0.012,33.09,0,0,0,269.68,0,0,0,0,0,0,0,0,0,0,0,0,0,3,3,14.9,FLYING
15.12,APPROACH,ILS_TRACK,176.09,186.25,10.16,2204.42,-2.33,7.93,8.61,270.42,0.382,0.4439,16.46,270.42,0,-2.03,-127.58,43.166,0.017,32.154,0,0,0,269.68,0,0,0,0,0,0,0,0,0,0,0,0,0,3,3,15.16,FLYING
15.42,APPROACH,ILS_TRACK,176.57,186.25,9.68,2203.72,-1.92,7.72,8.29,270.41,0.442,0.4253,19.385,270.42,0,-1.95,-125.16,43.106,0.016,31.1,0,0,0,269.68,0,0,0,0,0,0,0,0,0,0,0,0,0,3,3,15.46,FLYING
15.68,APPROACH,ILS_TRACK,177,186.25,9.25,2203.19,-1.66,7.49,7.98,270.4,0.447,0.386,20,270.42,0,-1.89,-122.98,43.054,0.016,30.192,0,0,0,269.68,0,0,0,0,0,0,0,0,0,0,0,0,0,3,3,15.72,FLYING
15.94,APPROACH,ILS_TRACK,177.45,186.25,8.8,2202.73,-1.46,7.29,7.72,270.4,0.418,0.3464,20,270.42,0,-1.84,-120.73,43.002,0.021,29.273,0,0,0,269.68,0,0,0,0,0,0,0,0,0,0,0,0,0,3,3,15.98,FLYING
16.2,APPROACH,ILS_TRACK,177.89,186.25,8.36,2202.33,-1.3,7.14,7.52,270.4,0.357,0.3147,20,270.43,0,-1.8,-118.4,42.949,0.032,28.372,0,0,0,269.68,0,0,0,0,0,0,0,0,0,0,0,0,0,3,3,16.24,FLYING
16.5,APPROACH,ILS_TRACK,178.38,186.25,7.87,2201.9,-1.1,6.92,7.26,270.41,0.267,0.2923,20,270.43,0,-1.75,-115.65,42.889,0.033,27.366,0,0,0,269.68,0,0,0,0,0,0,0,0,0,0,0,0,0,3,3,16.54,FLYING
16.76,APPROACH,ILS_TRACK,178.78,186.25,7.47,2201.57,-1.11,6.75,7.05,270.42,0.206,0.2785,20,270.43,0,-1.71,-113.25,42.836,0.028,26.568,0,0,0,269.68,0,0,0,0,0,0,0,0,0,0,0,0,0,3,3,16.8,FLYING
17.02,APPROACH,ILS_TRACK,179.13,186.25,7.12,2201.33,-0.97,6.89,7.18,270.42,0.166,0.2603,20,270.43,0,-1.68,-110.75,42.783,0.035,25.539,0,0,0,269.68,0,0,0,0,0,0,0,0,0,0,0,0,0,3,3,17.06,FLYING
17.28,APPROACH,ILS_TRACK,179.46,186.25,6.79,2201.05,-0.94,6.77,7.03,270.42,0.123,0.2481,20,270.43,0,-1.64,-108.25,42.73,0.033,24.78,0,0,0,269.68,0,0,0,0,0,0,0,0,0,0,0,0,0,3,3,17.32,FLYING
17.58,APPROACH,ILS_TRACK,179.78,186.25,6.47,2200.79,-0.81,6.76,6.99,270.43,0.087,0.2431,20,270.44,0,-1.61,-105.32,42.669,0.039,23.782,0,0,0,269.68,0,0,0,0,0,0,0,0,0,0,0,0,0,3,3,17.62,FLYING
17.84,APPROACH,ILS_TRACK,180.03,186.25,6.22,2200.57,-0.74,6.73,6.94,270.43,0.06,0.2462,20,270.43,0,-1.58,-102.76,42.616,0.03,22.954,0,0,0,269.68,0,0,0,0,0,0,0,0,0,0,0,0,0,3,3,17.88,FLYING
18.1,APPROACH,ILS_TRACK,180.24,186.25,6.01,2200.38,-0.7,6.7,6.9,270.43,0.048,0.2549,20,270.44,0,-1.55,-100.18,42.563,0.039,22.121,0,0,0,269.68,0,0,0,0,0,0,0,0,0,0,0,0,0,3,3,18.14,FLYING
18.36,APPROACH,ILS_TRACK,180.42,186.25,5.83,2200.2,-0.65,6.7,6.88,270.43,0.029,0.2675,20,270.44,0,-1.53,-97.58,42.51,0.04,21.273,0,0,0,269.68,0,0,0,0,0,0,0,0,0,0,0,0,0,3,3,18.4,FLYING
18.66,APPROACH,ILS_TRACK,180.6,186.25,5.65,2200.01,-0.57,6.69,6.85,270.43,0.014,0.2816,20,270.44,0,-1.5,-94.56,42.448,0.036,20.304,0,0,0,269.68,0,0,0,0,0,0,0,0,0,0,0,0,0,3,3,18.7,FLYING
18.92,APPROACH,ILS_TRACK,180.72,186.25,5.53,2199.86,-0.54,6.7,6.86,270.43,0.011,0.2986,20,270.43,0,-1.47,-91.92,42.395,0.033,19.474,0,0,0,269.68,0,0,0,0,0,0,0,0,0,0,0,0,0,3,3,18.96,FLYING
19.18,APPROACH,ILS_TRACK,180.83,186.25,5.42,2199.7,-0.52,6.59,6.73,270.43,0.01,0.3155,20,270.43,0,-1.44,-89.28,42.342,0.028,18.666,0,0,0,269.68,0,0,0,0,0,0,0,0,0,0,0,0,0,3,3,19.22,FLYING
19.44,APPROACH,ILS_TRACK,180.93,186.25,5.32,2199.59,-0.46,6.64,6.77,270.43,0.012,0.3321,20,270.43,0,-1.42,-86.62,42.289,0.034,17.778,0,0,0,269.68,0,0,0,0,0,0,0,0,0,0,0,0,0,3,3,19.48,FLYING
19.74,APPROACH,ILS_TRACK,181.04,186.25,5.21,2199.44,-0.4,6.63,6.75,270.43,0.011,0.342,20,270.43,0,-1.39,-83.54,42.227,0.027,16.842,0,0,0,269.68,0,0,0,0,0,0,0,0,0,0,0,0,0,3,3,19.78,FLYING
20,APPROACH,ILS_TRACK,181.14,186.25,5.11,2199.34,-0.45,6.63,6.75,270.43,0.012,0.3495,20,270.43,0,-1.36,-80.86,42.174,0.029,16.035,0,0,0,269.68,0,0,0,0,0,0,0,0,0,0,0,0,0,3,3,20.04,FLYING
20.26,APPROACH,ILS_TRACK,181.24,186.25,5.01,2199.23,-0.4,6.6,6.71,270.43,0.011,0.3534,20,270.43,0,-1.34,-78.17,42.12,0.032,15.155,0,0,0,269.68,0,0,0,0,0,0,0,0,0,0,0,0,0,3,3,20.3,FLYING
20.52,APPROACH,ILS_TRACK,181.35,186.25,4.9,2199.13,-0.34,6.6,6.7,270.43,0.012,0.3554,20,270.42,0,-1.31,-75.46,42.067,0.025,14.323,0,0,0,269.68,0,0,0,0,0,0,0,0,0,0,0,0,0,3,3,20.56,FLYING
20.82,APPROACH,ILS_TRACK,181.48,186.25,4.77,2199.03,-0.3,6.59,6.68,270.43,0.012,0.3528,20,270.43,0,-1.28,-72.34,42.005,0.031,13.357,0,0,0,269.68,0,0,0,0,0,0,0,0,0,0,0,0,0,3,3,20.86,FLYING
21.08,APPROACH,ILS_TRACK,181.6,186.25,4.65,2198.95,-0.27,6.58,6.65,270.43,0.012,0.3491,20,270.42,0,-1.26,-69.62,41.952,0.024,12.515,0,0,0,269.68,0,0,0,0,0,0,0,0,0,0,0,0,0,3,3,21.12,FLYING
21.34,APPROACH,ILS_TRACK,181.72,185.83,4.11,2198.88,-0.25,6.57,6.64,270.43,0.012,0.3233,20,270.43,0,-1.24,-66.89,41.898,0.028,11.667,0,0,0,269.68,0,0,0,0,0,0,0,0,0,0,0,0,0,3,3,21.38,FLYING
21.6,APPROACH,ILS_TRACK,181.85,185.42,3.57,2198.81,-0.22,6.55,6.62,270.43,0.012,0.2962,20,270.42,0,-1.21,-64.15,41.845,0.025,10.822,0,0,0,269.68,0,0,0,0,0,0,0,0,0,0,0,0,0,3,3,21.64,FLYING
21.9,APPROACH,ILS_TRACK,181.99,184.94,2.95,2198.75,-0.2,6.55,6.61,270.43,0.013,0.266,20,270.42,0,-1.18,-60.98,41.783,0.025,9.837,0,0,0,269.68,0,0,0,0,0,0,0,0,0,0,0,0,0,3,3,21.94,FLYING
22.16,APPROACH,ILS_TRACK,182.1,184.52,2.42,2198.7,-0.18,6.55,6.6,270.43,0.012,0.2424,20,270.42,0,-1.15,-58.22,41.729,0.016,8.981,0,0,0,269.68,0,0,0,0,0,0,0,0,0,0,0,0,0,3,3,22.2,FLYING
22.42,APPROACH,ILS_TRACK,182.19,184.11,1.91,2198.66,-0.15,6.55,6.59,270.43,0.014,0.2227,20,270.43,0,-1.13,-55.45,41.676,0.027,8.125,0,0,0,269.68,0,0,0,0,0,0,0,0,0,0,0,0,0,3,3,22.46,FLYING
22.68,APPROACH,ILS_TRACK,182.26,183.69,1.43,2198.62,-0.14,6.55,6.59,270.43,0.014,0.2078,20,270.42,0,-1.11,-52.68,41.622,0.023,7.271,0,0,0,269.68,0,0,0,0,0,0,0,0,0,0,0,0,0,3,3,22.72,FLYING
22.98,APPROACH,ILS_TRACK,182.3,183.21,0.91,2198.58,-0.11,6.56,6.6,270.43,0.014,0.195,20,270.42,0,-1.09,-49.47,41.56,0.024,6.285,0,0,0,269.68,0,0,0,0,0,0,0,0,0,0,0,0,0,3,3,23.02,FLYING
23.24,APPROACH,ILS_TRACK,182.31,182.79,0.49,2198.56,-0.09,6.58,6.6,270.43,0.013,0.1909,20,270.41,0,-1.06,-46.68,41.506,0.012,5.427,0,0,0,269.68,0,0,0,0,0,0,0,0,0,0,0,0,0,3,3,23.28,FLYING
23.5,APPROACH,ILS_TRACK,182.28,182.38,0.1,2198.54,-0.08,6.59,6.61,270.43,0.015,0.1911,20,270.43,0,-1.04,-43.89,41.453,0.026,4.571,0,0,0,269.68,0,0,0,0,0,0,0,0,0,0,0,0,0,3,3,23.54,FLYING
23.76,APPROACH,ILS_TRACK,182.22,181.96,-0.26,2198.53,-0.06,6.61,6.62,270.43,0.014,0.194,19.932,270.42,0,-1.02,-41.09,41.399,0.017,3.717,0,0,0,269.68,0,0,0,0,0,0,0,0,0,0,0,0,0,3,3,23.8,FLYING
24.06,APPROACH,ILS_TRACK,182.12,181.48,-0.63,2198.52,0.02,6.61,6.62,270.43,0.02,0.1957,19.739,270.41,-0.268,-0.98,-37.86,41.337,0.013,2.732,0,0,0,269.68,0,0,0,0,0,0,0,0,0,0,0,0,0,3,3,24.1,FLYING
24.32,APPROACH,ILS_TRACK,182.01,181.07,-0.95,2198.44,0.1,6.25,6.26,270.42,0.041,0.1987,19.491,270.42,-0.959,-0.97,-35.1,41.283,0.021,2.041,0,0,0,269.68,0,0,0,0,0,0,0,0,0,0,0,0,0,3,3,24.36,FLYING
24.58,APPROACH,ILS_TRACK,181.92,180.65,-1.27,2198.18,0.22,5.19,5.24,270.42,0.056,0.1948,19.16,270.42,-1.392,-0.95,-32.46,41.23,0.021,1.608,0,0,0,269.68,0,0,0,0,0,0,0,0,0,0,0,0,0,3,3,24.62,FLYING
24.84,APPROACH,ILS_TRACK,181.89,180.23,-1.65,2197.77,-0.33,3.78,3.95,270.42,0.062,0.1716,18.73,270.42,-1.498,-0.93,-30.02,41.176,0.019,1.502,0,0,0,269.68,0,0,0,0,0,0,0,0,0,0,0,0,0,3,3,24.88,FLYING
25.14,APPROACH,ILS_TRACK,181.85,179.75,-2.09,2197.23,-1.44,2.89,3.29,270.42,0.079,0.142,18.1,270.41,-2.053,-0.9,-27.3,41.114,0.014,0.947,0,0,0,269.68,0,0,0,0,0,0,0,0,0,0,0,0,0,3,3,25.18,FLYING
25.4,APPROACH,ILS_TRACK,181.79,179.34,-2.45,2196.74,-2.28,2.95,3.56,270.42,0.107,0.1217,17.461,270.42,-2.706,-0.88,-24.96,41.061,0.017,0.294,0,0,0,269.68,0,0,0,0,0,0,0,0,0,0,0,0,0,3,3,25.44,FLYING
25.66,APPROACH,ILS_TRACK,181.79,178.92,-2.87,2195.94,-2.62,2.35,3.14,270.42,0.112,0.0861,16.716,270.42,-2.807,-0.87,-22.8,41.007,0.019,0.193,0,0,0,269.68,0,0,0,0,0,0,0,0,0,0,0,0,0,3,3,25.7,FLYING
25.92,APPROACH,ILS_TRACK,181.8,178.51,-3.3,2194.82,-3.61,1.28,2.32,270.42,0.102,0.0463,15.859,270.41,-2.155,-0.85,-21.03,40.954,0.015,0.845,0,0,0,269.68,0,0,0,0,0,0,0,0,0,0,0,0,0,3,3,25.96,FLYING
26.22,APPROACH,ILS_TRACK,181.72,178.03,-3.7,2193.36,-5.08,0.79,2.17,270.42,0.101,0.0201,14.747,270.42,-2.106,-0.83,-19.2,40.892,0.015,0.894,0,0,0,269.68,0,0,0,0,0,0,0,0,0,0,0,0,0,3,3,26.26,FLYING
26.48,APPROACH,ILS_TRACK,181.57,177.61,-3.96,2192.02,-6.28,1.33,2.97,270.42,0.091,0.0175,13.714,270.42,-2.255,-0.81,-17.72,40.839,0.02,0.745,0,0,0,269.68,0,0,0,0,0,0,0,0,0,0,0,0,0,3,3,26.52,FLYING
26.74,APPROACH,ILS_TRACK,181.34,177.19,-4.15,2190.66,-7.1,2.7,4.54,270.41,0.072,0.0269,12.631,270.42,-2.558,-0.8,-16.27,40.785,0.016,0.442,0,0,0,269.68,0,0,0,0,0,0,0,0,0,0,0,0,0,3,3,26.78,FLYING
27,APPROACH,ILS_TRACK,181.09,176.78,-4.31,2189.08,-6.98,3.6,5.53,270.41,0.068,0.0359,11.504,270.42,-2.657,-0.78,-14.93,40.732,0.019,0.343,0,0,0,269.68,0,0,0,0,0,0,0,0,0,0,0,0,0,3,3,27.04,FLYING
27.3,APPROACH,ILS_TRACK,180.73,176.3,-4.43,2186.85,-7.12,3.15,5.17,270.41,0.044,0.051,10.167,270.42,-1.807,-0.77,-13.82,40.67,0.02,1.193,0,0,0,269.68,0,0,0,0,0,0,0,0,0,0,0,0,0,3,3,27.34,FLYING
27.56,APPROACH,ILS_TRACK,180.39,175.88,-4.51,2184.83,-7.65,2.81,4.94,270.42,0.031,0.0661,8.987,270.41,-1.466,-0.75,-13.05,40.617,0.013,1.534,0,0,0,269.68,0,0,0,0,0,0,0,0,0,0,0,0,0,3,3,27.6,FLYING
27.82,APPROACH,ILS_TRACK,180,175.47,-4.53,2182.84,-8.22,3.06,5.31,270.41,0.027,0.0892,7.801,270.42,-1.678,-0.75,-12.28,40.564,0.022,1.322,0,0,0,269.68,0,0,0,0,0,0,0,0,0,0,0,0,0,3,3,27.86,FLYING
28.08,APPROACH,ILS_TRACK,179.54,175.05,-4.49,2180.9,-8.6,3.98,6.3,270.42,0.013,0.118,6.623,270.41,-2.062,-0.73,-11.47,40.511,0.012,0.938,0,0,0,269.68,0,0,0,0,0,0,0,0,0,0,0,0,0,3,3,28.12,FLYING
28.38,APPROACH,ILS_TRACK,179.02,175,-4.02,2178.6,-8.35,4.83,7.16,270.41,0.018,0.1545,5.397,270.42,-2.351,-0.72,-10.53,40.45,0.018,0.649,0,0,0,269.68,0,0,0,0,0,0,0,0,0,0,0,0,0,3,3,28.42,FLYING
28.64,APPROACH,ILS_TRACK,178.53,175,-3.53,2176.43,-8.14,4.7,7.02,270.41,0.014,0.2009,4.459,270.42,-2.03,-0.71,-9.88,40.398,0.022,0.97,0,0,0,269.68,0,0,0,0,0,0,0,0,0,0,0,0,0,3,3,28.68,FLYING
28.9,APPROACH,ILS_TRACK,178.06,175,-3.06,2174.26,-8.25,4.55,6.88,270.42,0.002,0.2411,3.645,270.42,-1.937,-0.7,-9.32,40.345,0.023,1.063,0,0,0,269.68,0,0,0,0,0,0,0,0,0,0,0,0,0,3,3,28.94,FLYING
29.16,APPROACH,ILS_TRACK,177.56,175,-2.56,2172.18,-8.38,4.87,7.21,270.42,-0.008,0.2817,2.96,270.41,-2.316,-0.69,-8.69,40.293,0.013,0.684,0,0,0,269.68,0,0,0,0,0,0,0,0,0,0,0,0,0,3,3,29.2,FLYING
29.46,APPROACH,ILS_TRACK,177.04,175,-2.04,2169.72,-8.11,4.88,7.21,270.42,-0.004,0.3142,2.329,270.41,-2.6,-0.67,-7.95,40.233,0.014,0.4,0,0,0,269.68,0,0,0,0,0,0,0,0,0,0,0,0,0,3,3,29.5,FLYING
29.72,APPROACH,ILS_TRACK,176.64,175,-1.64,2167.51,-8.14,4.51,6.85,270.42,-0.004,0.3292,1.888,270.42,-2.414,-0.67,-7.41,40.181,0.024,0.586,0,0,0,269.68,0,0,0,0,0,0,0,0,0,0,0,0,0,3,3,29.76,FLYING
29.98,APPROACH,ILS_TRACK,176.25,175,-1.25,2165.35,-8.39,4.48,6.85,270.42,-0.006,0.3397,1.547,270.42,-2.578,-0.66,-6.88,40.129,0.016,0.422,0,0,0,269.68,0,0,0,0,0,0,0,0,0,0,0,0,0,3,3,30.02,FLYING
30.24,APPROACH,ILS_TRACK,175.89,175,-0.89,2163.25,-8.36,4.78,7.17,270.42,-0.003,0.3496,1.302,270.42,-2.996,-0.65,-6.27,40.077,0.018,0.004,0,0,0,269.68,0,0,0,0,0,0,0,0,0,0,0,0,0,3,3,30.28,FLYING
30.54,APPROACH,ILS_TRACK,175.54,175,-0.54,2160.58,-8.15,4.05,6.45,270.42,-0.004,0.3497,1.129,270.41,-2.785,-0.63,-5.71,40.017,0.011,0.215,0,0,0,269.68,0,0,0,0,0,0,0,0,0,0,0,0,0,3,3,30.58,FLYING
30.8,APPROACH,ILS_TRACK,175.32,175,-0.32,2158.18,-8.53,3.24,5.73,270.42,0.001,0.33,1.036,270.42,-2.353,-0.63,-5.39,39.965,0.021,0.647,0,0,0,269.68,0,0,0,0,0,0,0,0,0,0,0,0,0,3,3,30.84,FLYING
31.06,APPROACH,ILS_TRACK,175.14,175,-0.14,2155.81,-9.1,2.99,5.59,270.42,-0.001,0.3077,0.993,270.41,-2.454,-0.61,-5.08,39.914,0.009,0.546,0,0,0,269.68,0,0,0,0,0,0,0,0,0,0,0,0,0,3,3,31.1,FLYING
31.32,APPROACH,ILS_TRACK,174.96,175,0.04,2153.5,-9.64,3.46,6.16,270.41,0.002,0.2899,0.996,270.42,-2.713,-0.61,-4.71,39.862,0.018,0.287,0,0,0,269.68,0,0,0,0,0,0,0,0,0,0,0,0,0,3,3,31.36,FLYING
31.62,APPROACH,ILS_TRACK,174.77,175,0.23,2150.85,-9.64,4.37,7.12,270.41,0.004,0.2785,1.059,270.42,-3.032,-0.6,-4.22,39.803,0.02,-0.032,0,0,0,269.68,0,0,0,0,0,0,0,0,0,0,0,0,0,3,3,31.66,FLYING
31.88,APPROACH,ILS_TRACK,174.62,175,0.38,2148.37,-9.49,4.34,7.09,270.41,0.001,0.265,1.152,270.41,-2.671,-0.59,-3.95,39.751,0.013,0.329,0,0,0,269.68,0,0,0,0,0,0,0,0,0,0,0,0,0,3,3,31.92,FLYING
32.14,APPROACH,ILS_TRACK,174.47,175,0.53,2145.86,-9.68,4.27,7.05,270.41,0.001,0.2546,1.283,270.41,-2.396,-0.58,-3.77,39.7,0.012,0.604,0,0,0,269.68,0,0,0,0,0,0,0,0,0,0,0,0,0,3,3,32.18,FLYING
32.4,APPROACH,ILS_TRACK,174.3,175,0.7,2143.44,-9.84,4.71,7.51,270.41,0.002,0.255,1.458,270.42,-2.644,-0.57,-3.54,39.649,0.017,0.356,0,0,0,269.68,0,0,0,0,0,0,0,0,0,0,0,0,0,3,3,32.44,FLYING
32.7,APPROACH,ILS_TRACK,174.11,175,0.89,2140.57,-9.53,4.8,7.57,270.41,0.003,0.2601,1.719,270.41,-2.792,-0.56,-3.26,39.59,0.015,0.208,0,0,0,269.68,0,0,0,0,0,0,0,0,0,0,0,0,0,3,3,32.74,FLYING
32.96,APPROACH,ILS_TRACK,173.96,175,1.04,2138.05,-9.6,4.67,7.44,270.41,0.001,0.2593,1.983,270.41,-2.544,-0.55,-3.1,39.538,0.013,0.456,0,0,0,269.68,0,0,0,0,0,0,0,0,0,0,0,0,0,3,3,33,FLYING
33.22,APPROACH,ILS_TRACK,173.8,175,1.2,2135.61,-9.63,4.93,7.71,270.41,0.002,0.2656,2.29,270.42,-2.784,-0.55,-2.89,39.487,0.015,0.216,0,0,0,269.68,0,0,0,0,0,0,0,0,0,0,0,0,0,3,3,33.26,FLYING
33.48,APPROACH,ILS_TRACK,173.65,175,1.35,2133.1,-9.43,4.77,7.53,270.41,0.002,0.2712,2.636,270.42,-2.851,-0.54,-2.68,39.436,0.019,0.149,0,0,0,269.68,0,0,0,0,0,0,0,0,0,0,0,0,0,3,3,33.52,FLYING
33.78,APPROACH,ILS_TRACK,173.5,175,1.5,2130.23,-9.6,4.71,7.47,270.41,0,0.274,3.081,270.41,-2.751,-0.53,-2.49,39.377,0.01,0.249,0,0,0,269.68,0,0,0,0,0,0,0,0,0,0,0,0,0,3,3,33.82,FLYING
34.04,APPROACH,ILS_TRACK,173.37,175,1.63,2127.78,-9.46,4.82,7.58,270.41,0.002,0.2791,3.501,270.41,-3.031,-0.52,-2.26,39.326,0.011,-0.031,0,0,0,269.68,0,0,0,0,0,0,0,0,0,0,0,0,0,3,3,34.08,FLYING
34.3,APPROACH,ILS_TRACK,173.27,175,1.73,2125.23,-9.41,4.46,7.22,270.41,0.002,0.2776,3.947,270.41,-2.859,-0.51,-2.1,39.275,0.012,0.141,0,0,0,269.68,0,0,0,0,0,0,0,0,0,0,0,0,0,3,3,34.34,FLYING
34.56,APPROACH,ILS_TRACK,173.19,175,1.81,2122.71,-9.66,4.33,7.12,270.41,0.002,0.2746,4.415,270.42,-2.802,-0.51,-1.97,39.224,0.017,0.198,0,0,0,269.68,0,0,0,0,0,0,0,0,0,0,0,0,0,3,3,34.6,FLYING
34.86,APPROACH,ILS_TRACK,173.07,175,1.93,2119.9,-9.68,4.7,7.52,270.41,0.003,0.2806,4.99,270.41,-3.148,-0.5,-1.72,39.165,0.012,-0.148,0,0,0,269.68,0,0,0,0,0,0,0,0,0,0,0,0,0,3,3,34.9,FLYING
35.12,APPROACH,ILS_TRACK,173,175,2,2117.32,-9.53,4.36,7.16,270.41,0.003,0.281,5.509,270.41,-2.98,-0.49,-1.58,39.114,0.014,0.02,0,0,0,269.68,0,0,0,0,0,0,0,0,0,0,0,0,0,3,3,35.16,FLYING
35.38,APPROACH,ILS_TRACK,172.95,175,2.05,2114.72,-9.78,4.04,6.89,270.41,0,0.275,6.04,270.41,-2.711,-0.49,-1.52,39.064,0.014,0.289,0,0,0,269.68,0,0,0,0,0,0,0,0,0,0,0,0,0,3,3,35.42,FLYING
35.64,APPROACH,ILS_TRACK,172.89,175,2.11,2112.2,-10.1,4.29,7.18,270.41,-0.001,0.2747,6.584,270.42,-2.915,-0.48,-1.41,39.013,0.016,0.085,0,0,0,269.68,0,0,0,0,0,0,0,0,0,0,0,0,0,3,3,35.68,FLYING
35.94,APPROACH,ILS_TRACK,172.84,175,2.16,2109.3,-9.93,4.67,7.57,270.41,0.002,0.2781,7.232,270.41,-3.164,-0.47,-1.21,38.954,0.009,-0.164,0,0,0,269.68,0,0,0,0,0,0,0,0,0,0,0,0,0,3,3,35.98,FLYING
36.2,APPROACH,ILS_TRACK,172.8,175,2.2,2106.66,-9.85,4.37,7.27,270.41,0.003,0.2777,7.803,270.41,-2.847,-0.47,-1.15,38.903,0.012,0.153,0,0,0,269.68,0,0,0,0,0,0,0,0,0,0,0,0,0,3,3,36.24,FLYING
36.46,APPROACH,ILS_TRACK,172.77,175,2.23,2104.03,-10.09,4.24,7.17,270.41,0.002,0.2759,8.381,270.42,-2.693,-0.46,-1.14,38.852,0.016,0.307,0,0,0,269.68,0,0,0,0,0,0,0,0,0,0,0,0,0,3,3,36.5,FLYING
36.72,APPROACH,ILS_TRACK,172.72,175,2.28,2101.5,-10.25,4.68,7.63,270.41,0,0.2823,8.972,270.41,-2.965,-0.46,-1.05,38.802,0.012,0.035,0,0,0,269.68,0,0,0,0,0,0,0,0,0,0,0,0,0,3,3,36.76,FLYING
37.02,APPROACH,ILS_TRACK,172.66,175,2.34,2098.49,-9.95,4.7,7.62,270.41,0.001,0.2919,9.673,270.41,-3.042,-0.45,-0.93,38.743,0.008,-0.042,0,0,0,269.68,0,0,0,0,0,0,0,0,0,0,0,0,0,3,3,37.06,FLYING
37.28,APPROACH,ILS_TRACK,172.63,175,2.37,2095.86,-10.08,4.61,7.54,270.41,-0.001,0.294,10.287,270.42,-2.765,-0.45,-0.92,38.692,0.019,0.235,0,0,0,269.68,0,0,0,0,0,0,0,0,0,0,0,0,0,3,3,37.32,FLYING
37.54,APPROACH,ILS_TRACK,172.59,175,2.41,2093.3,-9.99,4.81,7.74,270.41,-0.004,0.3009,10.912,270.41,-3.003,-0.43,-0.83,38.642,0.006,-0.003,0,0,0,269.68,0,0,0,0,0,0,0,0,0,0,0,0,0,3,3,37.58,FLYING
37.8,APPROACH,ILS_TRACK,172.58,175,2.42,2090.66,-9.94,4.6,7.52,270.41,-0.002,0.3028,11.541,270.41,-2.889,-0.43,-0.79,38.591,0.01,0.111,0,0,0,269.68,0,0,0,0,0,0,0,0,0,0,0,0,0,3,3,37.84,FLYING
38.1,APPROACH,ILS_TRACK,172.56,175,2.44,2087.67,-10.05,4.69,7.62,270.41,-0.002,0.3058,12.271,270.41,-2.905,-0.42,-0.74,38.532,0.012,0.095,0,0,0,269.68,0,0,0,0,0,0,0,0,0,0,0,0,0,3,3,38.14,FLYING
38.36,APPROACH,ILS_TRACK,172.57,175,2.43,2085.08,-9.95,4.71,7.63,270.41,-0.001,0.3064,12.904,270.41,-3.044,-0.41,-0.67,38.482,0.01,-0.044,0,0,0,269.68,0,0,0,0,0,0,0,0,0,0,0,0,0,3,3,38.4,FLYING
38.62,APPROACH,ILS_TRACK,172.58,175,2.42,2082.46,-9.99,4.59,7.51,270.41,-0.001,0.304,13.533,270.41,-2.932,-0.41,-0.63,38.431,0.011,0.068,0,0,0,269.68,0,0,0,0,0,0,0,0,0,0,0,0,0,3,3,38.66,FLYING
38.88,APPROACH,ILS_TRACK,172.59,175,2.41,2079.88,-9.96,4.68,7.6,270.41,0,0.3049,14.159,270.41,-3.043,-0.41,-0.56,38.38,0.013,-0.043,0,0,0,269.68,0,0,0,0,0,0,0,0,0,0,0,0,0,3,3,38.92,FLYING
39.18,APPROACH,ILS_TRACK,172.63,175,2.37,2076.87,-10.03,4.6,7.52,270.41,-0.001,0.303,14.872,270.41,-2.994,-0.4,-0.5,38.322,0.01,0.006,0,0,0,269.68,0,0,0,0,0,0,0,0,0,0,0,0,0,3,3,39.22,FLYING
39.44,APPROACH,ILS_TRACK,172.66,175,2.34,2074.28,-9.94,4.65,7.57,270.41,0.001,0.3028,15.482,270.41,-3.094,-0.39,-0.43,38.271,0.009,-0.094,0,0,0,269.68,0,0,0,0,0,0,0,0,0,0,0,0,0,3,3,39.48,FLYING
39.7,APPROACH,ILS_TRACK,172.71,175,2.29,2071.65,-9.98,4.49,7.4,270.41,0,0.2984,16.08,270.42,-2.984,-0.39,-0.4,38.221,0.018,0.016,0,0,0,269.68,0,0,0,0,0,0,0,0,0,0,0,0,0,3,3,39.74,FLYING
39.96,APPROACH,ILS_TRACK,172.75,175,2.25,2069.07,-10.01,4.6,7.53,270.41,0,0.2974,16.667,270.41,-3.079,-0.38,-0.34,38.17,0.006,-0.079,0,0,0,269.68,0,0,0,0,0,0,0,0,0,0,0,0,0,3,3,40,FLYING
40.26,APPROACH,ILS_TRACK,172.81,175,2.19,2066.05,-10.05,4.53,7.46,270.41,0.001,0.2951,17.326,270.41,-3.069,-0.37,-0.28,38.111,0.006,-0.069,0,0,0,269.68,0,0,0,0,0,0,0,0,0,0,0,0,0,3,3,40.3,FLYING
40.52,APPROACH,ILS_TRACK,172.87,175,2.13,2063.45,-9.97,4.55,7.47,270.41,0.002,0.2931,17.883,270.41,-3.118,-0.37,-0.22,38.061,0.013,-0.118,0,0,0,269.68,0,0,0,0,0,0,0,0,0,0,0,0,0,3,3,40.56,FLYING
40.78,APPROACH,ILS_TRACK,172.94,175,2.06,2060.81,-10.05,4.42,7.35,270.41,0,0.2879,18.422,270.41,-3.016,-0.37,-0.2,38.01,0.012,-0.016,0,0,0,269.68,0,0,0,0,0,0,0,0,0,0,0,0,0,3,3,40.82,FLYING
41.04,APPROACH,ILS_TRACK,173,175,2,2058.22,-10.04,4.54,7.48,270.41,0.001,0.2868,18.944,270.41,-3.13,-0.36,-0.14,37.959,0.007,-0.13,0,0,0,269.68,0,0,0,0,0,0,0,0,0,0,0,0,0,3,3,41.08,FLYING
41.34,APPROACH,ILS_TRACK,173.09,175,1.91,2055.17,-10.09,4.38,7.32,270.41,0.001,0.2837,19.522,270.41,-3.044,-0.36,-0.11,37.901,0.012,-0.044,0,0,0,269.68,0,0,0,0,0,0,0,0,0,0,0,0,0,3,3,41.38,FLYING
41.6,APPROACH,ILS_TRACK,173.15,175,1.85,2052.57,-10.09,4.51,7.47,270.41,0.001,0.2833,20,270.41,-3.125,-0.35,-0.06,37.85,0.008,-0.125,0,0,0,269.68,0,0,0,0,0,0,0,0,0,0,0,0,0,3,3,41.64,FLYING
41.86,APPROACH,ILS_TRACK,173.23,175,1.77,2049.91,-10.11,4.38,7.33,270.41,0.002,0.2751,20,270.4,-3.06,-0.34,-0.04,37.799,0.004,-0.06,0,0,0,269.68,0,0,0,0,0,0,0,0,0,0,0,0,0,3,3,41.9,FLYING
42.12,APPROACH,ILS_TRACK,173.29,175,1.71,2047.3,-10.13,4.49,7.44,270.41,0.003,0.269,20,270.42,-3.096,-0.35,-0.01,37.748,0.019,-0.096,0,0,0,269.68,0,0,0,0,0,0,0,0,0,0,0,0,0,3,3,42.16,FLYING
42.42,APPROACH,ILS_TRACK,173.38,175,1.62,2044.25,-10.15,4.43,7.39,270.41,-0.005,0.2613,20,270.4,-3.084,-0.34,0.02,37.69,0.004,-0.084,0,0,0,269.68,0,0,0,0,0,0,0,0,0,0,0,0,0,3,3,42.46,FLYING
42.68,APPROACH,ILS_TRACK,173.46,175,1.54,2041.61,-10.12,4.45,7.41,270.41,-0.004,0.2556,20,270.41,-3.101,-0.34,0.05,37.639,0.013,-0.101,0,0,0,269.68,0,0,0,0,0,0,0,0,0,0,0,0,0,3,3,42.72,FLYING
42.94,APPROACH,ILS_TRACK,173.52,175,1.48,2038.98,-10.17,4.47,7.44,270.41,-0.004,0.2507,20,270.41,-3.08,-0.33,0.07,37.588,0.009,-0.08,0,0,0,269.68,0,0,0,0,0,0,0,0,0,0,0,0,0,3,3,42.98,FLYING
43.2,APPROACH,ILS_TRACK,173.59,175,1.41,2036.33,-10.11,4.43,7.39,270.41,-0.003,0.2486,20,270.41,-3.117,-0.33,0.1,37.537,0.009,-0.117,0,0,0,269.68,0,0,0,0,0,0,0,0,0,0,0,0,0,3,3,43.24,FLYING
43.5,APPROACH,ILS_TRACK,173.65,175,1.35,2033.28,-10.24,4.41,7.37,270.41,-0.003,0.246,20,270.41,-3.05,-0.32,0.1,37.479,0.01,-0.05,0,0,0,269.68,0,0,0,0,0,0,0,0,0,0,0,0,0,3,3,43.54,FLYING
43.76,APPROACH,ILS_TRACK,173.69,175,1.31,2030.64,-10.11,4.46,7.42,270.41,-0.001,0.2486,20,270.41,-3.175,-0.32,0.15,37.428,0.01,-0.175,0,0,0,269.68,0,0,0,0,0,0,0,0,0,0,0,0,0,3,3,43.8,FLYING
44.02,APPROACH,ILS_TRACK,173.74,175,1.26,2027.95,-10.15,4.23,7.19,270.41,-0.002,0.2479,20,270.4,-2.999,-0.31,0.13,37.377,0.003,0.001,0,0,0,269.68,0,0,0,0,0,0,0,0,0,0,0,0,0,3,3,44.06,FLYING
44.28,APPROACH,ILS_TRACK,173.77,175,1.23,2025.32,-10.32,4.36,7.35,270.41,-0.002,0.2509,20,270.42,-3.042,-0.32,0.13,37.326,0.021,-0.042,0,0,0,269.68,0,0,0,0,0,0,0,0,0,0,0,0,0,3,3,44.32,FLYING
44.58,APPROACH,ILS_TRACK,173.8,175,1.2,2022.27,-10.16,4.45,7.43,270.41,-0.003,0.2548,20,270.41,-3.188,-0.32,0.18,37.268,0.01,-0.188,0,0,0,269.68,0,0,0,0,0,0,0,0,0,0,0,0,0,3,3,44.62,FLYING
44.84,APPROACH,ILS_TRACK,173.84,175,1.16,2019.56,-10.19,4.2,7.18,270.41,-0.004,0.2555,20,270.4,-2.963,-0.3,0.16,37.217,0,0.037,0,0,0,269.68,0,0,0,0,0,0,0,0,0,0,0,0,0,3,3,44.88,FLYING
45.1,APPROACH,ILS_TRACK,173.86,175,1.14,2016.91,-10.4,4.3,7.3,270.41,-0.003,0.2582,20,270.41,-2.979,-0.3,0.14,37.166,0.008,0.021,0,0,0,269.68,0,0,0,0,0,0,0,0,0,0,0,0,0,3,3,45.14,FLYING
45.36,APPROACH,ILS_TRACK,173.87,175,1.13,2014.27,-10.24,4.44,7.44,270.41,-0.002,0.2631,20,270.42,-3.173,-0.3,0.18,37.115,0.016,-0.173,0,0,0,269.68,0,0,0,0,0,0,0,0,0,0,0,0,0,3,3,45.4,FLYING
45.66,APPROACH,ILS_TRACK,173.91,175,1.09,2011.14,-10.27,4.22,7.21,270.41,-0.007,0.2624,20,270.41,-2.937,-0.3,0.14,37.056,0.01,0.063,0,0,0,269.68,0,0,0,0,0,0,0,0,0,0,0,0,0,3,3,45.7,FLYING
45.92,APPROACH,ILS_TRACK,173.92,175,1.08,2008.49,-10.39,4.39,7.41,270.41,-0.005,0.2655,20,270.4,-2.995,-0.29,0.12,37.006,0,0.005,0,0,0,269.68,0,0,0,0,0,0,0,0,0,0,0,0,0,3,3,45.96,FLYING
46.18,APPROACH,ILS_TRACK,173.94,175,1.06,2005.82,-10.27,4.43,7.43,270.41,-0.004,0.2677,20,270.41,-3.089,-0.29,0.14,36.955,0.014,-0.089,0,0,0,269.68,0,0,0,0,0,0,0,0,0,0,0,0,0,3,3,46.22,FLYING
46.44,APPROACH,ILS_TRACK,173.96,175,1.04,2003.14,-10.34,4.41,7.41,270.41,-0.006,0.2665,20,270.41,-2.961,-0.29,0.11,36.904,0.006,0.039,0,0,0,269.68,0,0,0,0,0,0,0,0,0,0,0,0,0,3,3,46.48,FLYING
46.74,APPROACH,ILS_TRACK,173.98,175,1.02,2000.07,-10.25,4.45,7.45,270.41,-0.004,0.2682,20,270.41,-3.04,-0.28,0.12,36.845,0.011,-0.04,0,0,0,269.68,0,0,0,0,0,0,0,0,0,0,0,0,0,3,3,46.78,FLYING
47,APPROACH,ILS_TRACK,174,175,1,1997.39,-10.28,4.45,7.44,270.41,-0.005,0.2669,20,270.41,-2.986,-0.29,0.1,36.794,0.012,0.014,0,0,0,269.68,0,0,0,0,0,0,0,0,0,0,0,0,0,3,3,47.04,FLYING
47.26,APPROACH,ILS_TRACK,174.02,175,0.98,1994.73,-10.22,4.45,7.43,270.41,-0.004,0.2665,20,270.4,-3.042,-0.28,0.11,36.744,0.003,-0.042,0,0,0,269.68,0,0,0,0,0,0,0,0,0,0,0,0,0,3,3,47.3,FLYING
47.52,APPROACH,ILS_TRACK,174.05,175,0.95,1992.07,-10.24,4.44,7.42,270.41,-0.002,0.2647,20,270.41,-3.008,-0.28,0.1,36.693,0.01,-0.008,0,0,0,269.68,0,0,0,0,0,0,0,0,0,0,0,0,0,3,3,47.56,FLYING
47.82,APPROACH,ILS_TRACK,174.08,175,0.92,1989,-10.19,4.44,7.41,270.41,-0.002,0.2631,20,270.41,-3.059,-0.28,0.11,36.634,0.012,-0.059,0,0,0,269.68,0,0,0,0,0,0,0,0,0,0,0,0,0,3,3,47.86,FLYING
48.08,APPROACH,ILS_TRACK,174.11,175,0.89,1986.34,-10.25,4.41,7.39,270.41,-0.003,0.2608,20,270.41,-3.021,-0.28,0.1,36.583,0.009,-0.021,0,0,0,269.68,0,0,0,0,0,0,0,0,0,0,0,0,0,3,3,48.12,FLYING
48.34,APPROACH,ILS_TRACK,174.13,175,0.87,1983.69,-10.17,4.43,7.4,270.41,-0.002,0.2607,20,270.41,-3.091,-0.27,0.12,36.532,0.008,-0.091,0,0,0,269.68,0,0,0,0,0,0,0,0,0,0,0,0,0,3,3,48.38,FLYING
48.6,APPROACH,ILS_TRACK,174.16,175,0.84,1981.02,-10.22,4.34,7.31,270.41,-0.003,0.258,20,270.41,-3.023,-0.27,0.12,36.482,0.007,-0.023,0,0,0,269.68,0,0,0,0,0,0,0,0,0,0,0,0,0,3,3,48.64,FLYING
48.9,APPROACH,ILS_TRACK,174.18,175,0.82,1977.97,-10.14,4.41,7.38,270.41,0,0.2585,20,270.41,-3.12,-0.27,0.15,36.423,0.01,-0.12,0,0,0,269.68,0,0,0,0,0,0,0,0,0,0,0,0,0,3,3,48.94,FLYING
49.16,APPROACH,ILS_TRACK,174.21,175,0.79,1975.3,-10.2,4.27,7.24,270.41,-0.001,0.2554,20,270.4,-3.01,-0.26,0.14,36.372,0.002,-0.01,0,0,0,269.68,0,0,0,0,0,0,0,0,0,0,0,0,0,3,3,49.2,FLYING
49.42,APPROACH,ILS_TRACK,174.22,175,0.78,1972.67,-10.18,4.4,7.37,270.41,0,0.257,20,270.41,-3.117,-0.26,0.16,36.321,0.014,-0.117,0,0,0,269.68,0,0,0,0,0,0,0,0,0,0,0,0,0,3,3,49.46,FLYING
49.68,APPROACH,ILS_TRACK,174.25,175,0.75,1969.98,-10.2,4.26,7.23,270.41,-0.002,0.2554,20,270.41,-3.042,-0.26,0.16,36.271,0.007,-0.042,0,0,0,269.68,0,0,0,0,0,0,0,0,0,0,0,0,0,3,3,49.72,FLYING
49.98,APPROACH,ILS_TRACK,174.26,175,0.74,1966.94,-10.2,4.37,7.35,270.41,0,0.2561,20,270.41,-3.097,-0.26,0.17,36.212,0.012,-0.097,0,0,0,269.68,0,0,0,0,0,0,0,0,0,0,0,0,0,3,3,50.02,FLYING
50.24,APPROACH,ILS_TRACK,174.29,175,0.71,1964.28,-10.25,4.34,7.32,270.41,-0.002,0.2547,20,270.41,-3.066,-0.26,0.18,36.161,0.006,-0.066,0,0,0,269.68,0,0,0,0,0,0,0,0,0,0,0,0,0,3,3,50.28,FLYING
50.5,APPROACH,ILS_TRACK,174.3,175,0.7,1961.63,-10.18,4.37,7.35,270.41,0,0.2556,20,270.41,-3.111,-0.25,0.2,36.11,0.009,-0.111,0,0,0,269.68,0,0,0,0,0,0,0,0,0,0,0,0,0,3,3,50.54,FLYING
50.76,APPROACH,ILS_TRACK,174.32,175,0.68,1958.96,-10.25,4.32,7.3,270.41,-0.001,0.254,20,270.41,-3.038,-0.26,0.19,36.059,0.013,-0.038,0,0,0,269.68,0,0,0,0,0,0,0,0,0,0,0,0,0,3,3,50.8,FLYING
51.06,APPROACH,ILS_TRACK,174.33,175,0.67,1955.91,-10.14,4.35,7.33,270.41,-0.001,0.2565,20,270.41,-3.135,-0.26,0.22,36.001,0.009,-0.135,0,0,0,269.68,0,0,0,0,0,0,0,0,0,0,0,0,0,3,3,51.1,FLYING
51.32,APPROACH,ILS_TRACK,174.35,175,0.65,1953.23,-10.24,4.25,7.23,270.41,-0.002,0.2547,20,270.41,-2.998,-0.25,0.2,35.95,0.005,0.002,0,0,0,269.68,0,0,0,0,0,0,0,0,0,0,0,0,0,3,3,51.36,FLYING
51.58,APPROACH,ILS_TRACK,174.35,175,0.65,1950.6,-10.17,4.38,7.36,270.41,-0.002,0.2583,20,270.41,-3.154,-0.25,0.22,35.899,0.014,-0.154,0,0,0,269.68,0,0,0,0,0,0,0,0,0,0,0,0,0,3,3,51.62,FLYING
51.84,APPROACH,ILS_TRACK,174.37,175,0.63,1947.91,-10.19,4.19,7.17,270.41,-0.008,0.2572,20,270.41,-3.011,-0.25,0.21,35.848,0.006,-0.011,0,0,0,269.68,0,0,0,0,0,0,0,0,0,0,0,0,0,3,3,51.88,FLYING
52.14,APPROACH,ILS_TRACK,174.37,175,0.63,1944.86,-10.27,4.34,7.34,270.41,-0.007,0.2585,20,270.41,-3.07,-0.25,0.21,35.79,0.01,-0.07,0,0,0,269.68,0,0,0,0,0,0,0,0,0,0,0,0,0,3,3,52.18,FLYING
52.4,APPROACH,ILS_TRACK,174.39,175,0.61,1942.2,-10.19,4.34,7.33,270.41,-0.007,0.2584,20,270.41,-3.128,-0.25,0.23,35.739,0.01,-0.128,0,0,0,269.68,0,0,0,0,0,0,0,0,0,0,0,0,0,3,3,52.44,FLYING
52.66,APPROACH,ILS_TRACK,174.4,175,0.6,1939.53,-10.28,4.27,7.26,270.41,-0.008,0.2561,20,270.41,-3.005,-0.25,0.21,35.688,0.012,-0.005,0,0,0,269.68,0,0,0,0,0,0,0,0,0,0,0,0,0,3,3,52.7,FLYING
52.92,APPROACH,ILS_TRACK,174.41,175,0.59,1936.88,-10.19,4.37,7.36,270.41,-0.006,0.2585,20,270.4,-3.125,-0.25,0.23,35.637,0.004,-0.125,0,0,0,269.68,0,0,0,0,0,0,0,0,0,0,0,0,0,3,3,52.96,FLYING
53.22,APPROACH,ILS_TRACK,174.43,175,0.57,1933.79,-10.27,4.24,7.23,270.41,-0.006,0.2562,20,270.41,-2.999,-0.25,0.21,35.579,0.012,0.001,0,0,0,269.68,0,0,0,0,0,0,0,0,0,0,0,0,0,3,3,53.26,FLYING
53.48,APPROACH,ILS_TRACK,174.42,175,0.58,1931.15,-10.19,4.37,7.36,270.41,-0.005,0.259,20,270.41,-3.127,-0.25,0.22,35.528,0.013,-0.127,0,0,0,269.68,0,0,0,0,0,0,0,0,0,0,0,0,0,3,3,53.52,FLYING
53.74,APPROACH,ILS_TRACK,174.44,175,0.56,1928.45,-10.22,4.2,7.18,270.41,-0.008,0.2573,20,270.4,-2.994,-0.25,0.2,35.477,0.004,0.006,0,0,0,269.68,0,0,0,0,0,0,0,0,0,0,0,0,0,3,3,53.78,FLYING
54,APPROACH,ILS_TRACK,174.44,175,0.56,1925.81,-10.29,4.33,7.32,270.41,-0.006,0.258,20,270.41,-3.046,-0.25,0.2,35.427,0.008,-0.046,0,0,0,269.68,0,0,0,0,0,0,0,0,0,0,0,0,0,3,3,54.04,FLYING
54.3,APPROACH,ILS_TRACK,174.46,175,0.54,1922.74,-10.2,4.35,7.33,270.41,-0.006,0.2569,20,270.41,-3.108,-0.24,0.22,35.368,0.009,-0.108,0,0,0,269.68,0,0,0,0,0,0,0,0,0,0,0,0,0,3,3,54.34,FLYING
54.56,APPROACH,ILS_TRACK,174.48,175,0.52,1920.07,-10.28,4.29,7.28,270.41,-0.008,0.2545,20,270.41,-3.003,-0.24,0.2,35.317,0.007,-0.003,0,0,0,269.68,0,0,0,0,0,0,0,0,0,0,0,0,0,3,3,54.6,FLYING
54.82,APPROACH,ILS_TRACK,174.48,175,0.52,1917.42,-10.19,4.36,7.34,270.41,-0.007,0.2558,20,270.41,-3.106,-0.24,0.21,35.266,0.013,-0.106,0,0,0,269.68,0,0,0,0,0,0,0,0,0,0,0,0,0,3,3,54.86,FLYING
55.08,APPROACH,ILS_TRACK,174.5,175,0.5,1914.74,-10.24,4.26,7.24,270.41,-0.01,0.2535,20,270.4,-3.007,-0.24,0.19,35.216,0.004,-0.007,0,0,0,269.68,0,0,0,0,0,0,0,0,0,0,0,0,0,3,3,55.12,FLYING
55.38,APPROACH,ILS_TRACK,174.5,175,0.5,1911.7,-10.18,4.36,7.34,270.41,-0.008,0.2551,20,270.41,-3.104,-0.24,0.21,35.157,0.012,-0.104,0,0,0,269.68,0,0,0,0,0,0,0,0,0,0,0,0,0,3,3,55.42,FLYING
55.64,APPROACH,ILS_TRACK,174.52,175,0.48,1909.02,-10.24,4.26,7.24,270.41,-0.01,0.2531,20,270.41,-3.014,-0.24,0.2,35.106,0.007,-0.014,0,0,0,269.68,0,0,0,0,0,0,0,0,0,0,0,0,0,3,3,55.68,FLYING
55.9,APPROACH,ILS_TRACK,174.52,175,0.48,1906.38,-10.18,4.35,7.34,270.41,-0.008,0.2553,20,270.42,-3.109,-0.25,0.21,35.056,0.016,-0.109,0,0,0,269.68,0,0,0,0,0,0,0,0,0,0,0,0,0,3,3,55.94,FLYING
56.16,APPROACH,ILS_TRACK,174.53,175,0.47,1903.7,-10.23,4.25,7.23,270.41,-0.01,0.2537,20,270.4,-3.021,-0.24,0.2,35.005,0.002,-0.021,0,0,0,269.68,0,0,0,0,0,0,0,0,0,0,0,0,0,3,3,56.2,FLYING
56.46,APPROACH,ILS_TRACK,174.53,175,0.47,1900.66,-10.16,4.35,7.33,270.41,-0.007,0.2562,20,270.41,-3.118,-0.24,0.22,34.946,0.015,-0.118,0,0,0,269.68,0,0,0,0,0,0,0,0,0,0,0,0,0,3,3,56.5,FLYING
56.72,APPROACH,ILS_TRACK,174.54,175,0.46,1897.98,-10.22,4.22,7.2,270.41,-0.009,0.2547,20,270.41,-2.998,-0.25,0.2,34.896,0.012,0.002,0,0,0,269.68,0,0,0,0,0,0,0,0,0,0,0,0,0,3,3,56.76,FLYING
56.98,APPROACH,ILS_TRACK,174.54,175,0.46,1895.35,-10.18,4.35,7.33,270.41,-0.007,0.2572,20,270.41,-3.114,-0.24,0.21,34.845,0.007,-0.114,0,0,0,269.68,0,0,0,0,0,0,0,0,0,0,0,0,0,3,3,57.02,FLYING
57.24,APPROACH,ILS_TRACK,174.55,175,0.45,1892.67,-10.21,4.23,7.21,270.41,-0.008,0.2565,20,270.41,-3.033,-0.24,0.2,34.794,0.011,-0.033,0,0,0,269.68,0,0,0,0,0,0,0,0,0,0,0,0,0,3,3,57.28,FLYING
57.54,APPROACH,ILS_TRACK,174.55,175,0.45,1889.63,-10.19,4.34,7.32,270.41,-0.007,0.2577,20,270.41,-3.101,-0.25,0.22,34.736,0.011,-0.101,0,0,0,269.68,0,0,0,0,0,0,0,0,0,0,0,0,0,3,3,57.58,FLYING
57.8,APPROACH,ILS_TRACK,174.56,175,0.44,1886.96,-10.24,4.28,7.26,270.41,-0.009,0.2555,20,270.4,-3.038,-0.24,0.21,34.685,0.003,-0.038,0,0,0,269.68,0,0,0,0,0,0,0,0,0,0,0,0,0,3,3,57.84,FLYING
58.06,APPROACH,ILS_TRACK,174.56,175,0.44,1884.32,-10.16,4.33,7.31,270.41,-0.007,0.2562,20,270.41,-3.11,-0.24,0.22,34.634,0.012,-0.11,0,0,0,269.68,0,0,0,0,0,0,0,0,0,0,0,0,0,3,3,58.1,FLYING
58.32,APPROACH,ILS_TRACK,174.58,175,0.42,1881.65,-10.23,4.24,7.23,270.41,-0.009,0.2536,20,270.41,-3.018,-0.24,0.21,34.584,0.011,-0.018,0,0,0,269.68,0,0,0,0,0,0,0,0,0,0,0,0,0,3,3,58.36,FLYING
58.62,APPROACH,ILS_TRACK,174.58,175,0.42,1878.6,-10.15,4.31,7.29,270.41,-0.007,0.2552,20,270.41,-3.122,-0.24,0.23,34.525,0.006,-0.122,0,0,0,269.68,0,0,0,0,0,0,0,0,0,0,0,0,0,3,3,58.66,FLYING
58.88,APPROACH,ILS_TRACK,174.59,175,0.41,1875.93,-10.24,4.24,7.22,270.41,-0.007,0.2526,20,270.41,-3.01,-0.24,0.21,34.475,0.015,-0.01,0,0,0,269.68,0,0,0,0,0,0,0,0,0,0,0,0,0,3,3,58.92,FLYING
59.14,APPROACH,ILS_TRACK,174.59,175,0.41,1873.3,-10.13,4.34,7.32,270.4,-0.006,0.2556,20,270.41,-3.149,-0.24,0.24,34.424,0.008,-0.149,0,0,0,269.68,0,0,0,0,0,0,0,0,0,0,0,0,0,3,3,59.18,FLYING
59.4,APPROACH,ILS_TRACK,174.6,175,0.4,1870.61,-10.19,4.15,7.13,270.4,-0.007,0.2538,20,270.41,-2.981,-0.24,0.21,34.373,0.012,0.019,0,0,0,269.68,0,0,0,0,0,0,0,0,0,0,0,0,0,3,3,59.44,FLYING
59.7,APPROACH,ILS_TRACK,174.6,175,0.4,1867.57,-10.23,4.31,7.3,270.4,-0.007,0.2554,20,270.41,-3.082,-0.24,0.22,34.315,0.009,-0.082,0,0,0,269.68,0,0,0,0,0,0,0,0,0,0,0,0,0,3,3,59.74,FLYING
59.96,APPROACH,ILS_TRACK,174.61,175,0.39,1864.91,-10.21,4.3,7.28,270.4,-0.007,0.2543,20,270.41,-3.092,-0.24,0.22,34.264,0.008,-0.092,0,0,0,269.68,0,0,0,0,0,0,0,0,0,0,0,0,0,3,3,60,FLYING
60.22,APPROACH,ILS_TRACK,174.62,175,0.38,1862.26,-10.22,4.31,7.29,270.4,-0.007,0.2524,20,270.41,-3.063,-0.24,0.22,34.214,0.012,-0.063,0,0,0,269.68,0,0,0,0,0,0,0,0,0,0,0,0,0,3,3,60.26,FLYING
60.48,APPROACH,ILS_TRACK,174.63,175,0.37,1859.61,-10.17,4.31,7.3,270.4,-0.006,0.2516,20,270.41,-3.081,-0.24,0.23,34.163,0.008,-0.081,0,0,0,269.68,0,0,0,0,0,0,0,0,0,0,0,0,0,3,3,60.52,FLYING
60.78,APPROACH,ILS_TRACK,174.64,175,0.36,1856.55,-10.17,4.32,7.3,270.4,-0.007,0.2511,20,270.41,-3.069,-0.24,0.23,34.105,0.011,-0.069,0,0,0,269.68,0,0,0,0,0,0,0,0,0,0,0,0,0,3,3,60.82,FLYING
61.04,APPROACH,ILS_TRACK,174.64,175,0.36,1853.9,-10.2,4.31,7.29,270.4,-0.008,0.2514,20,270.41,-3.067,-0.24,0.23,34.054,0.007,-0.067,0,0,0,269.68,0,0,0,0,0,0,0,0,0,0,0,0,0,3,3,61.08,FLYING
61.3,APPROACH,ILS_TRACK,174.65,175,0.35,1851.26,-10.14,4.3,7.28,270.4,-0.007,0.2518,20,270.41,-3.108,-0.24,0.24,34.003,0.008,-0.108,0,0,0,269.68,0,0,0,0,0,0,0,0,0,0,0,0,0,3,3,61.34,FLYING
61.56,APPROACH,ILS_TRACK,174.65,175,0.35,1848.6,-10.23,4.27,7.25,270.4,-0.008,0.2509,20,270.42,-3.049,-0.24,0.23,33.953,0.015,-0.049,0,0,0,269.68,0,0,0,0,0,0,0,0,0,0,0,0,0,3,3,61.6,FLYING
61.86,APPROACH,ILS_TRACK,174.65,175,0.35,1845.56,-10.12,4.31,7.29,270.4,-0.009,0.2527,20,270.41,-3.137,-0.24,0.26,33.894,0.008,-0.137,0,0,0,269.68,0,0,0,0,0,0,0,0,0,0,0,0,0,3,3,61.9,FLYING
62.12,APPROACH,ILS_TRACK,174.66,175,0.34,1842.89,-10.18,4.17,7.15,270.4,-0.01,0.2513,20,270.41,-3.023,-0.25,0.24,33.844,0.012,-0.023,0,0,0,269.68,0,0,0,0,0,0,0,0,0,0,0,0,0,3,3,62.16,FLYING
62.38,APPROACH,ILS_TRACK,174.65,175,0.35,1840.27,-10.16,4.3,7.28,270.4,-0.01,0.2544,20,270.41,-3.128,-0.24,0.26,33.793,0.008,-0.128,0,0,0,269.68,0,0,0,0,0,0,0,0,0,0,0,0,0,3,3,62.42,FLYING
62.64,APPROACH,ILS_TRACK,174.66,175,0.34,1837.6,-10.19,4.2,7.19,270.4,-0.011,0.2539,20,270.41,-3.063,-0.25,0.25,33.743,0.012,-0.063,0,0,0,269.68,0,0,0,0,0,0,0,0,0,0,0,0,0,3,3,62.68,FLYING
62.94,APPROACH,ILS_TRACK,174.65,175,0.35,1834.56,-10.15,4.3,7.28,270.4,-0.011,0.2558,20,270.41,-3.125,-0.25,0.27,33.684,0.011,-0.125,0,0,0,269.68,0,0,0,0,0,0,0,0,0,0,0,0,0,3,3,62.98,FLYING
63.2,APPROACH,ILS_TRACK,174.66,175,0.34,1831.9,-10.21,4.22,7.2,270.41,-0.012,0.254,20,270.41,-3.036,-0.25,0.26,33.634,0.011,-0.036,0,0,0,269.68,0,0,0,0,0,0,0,0,0,0,0,0,0,3,3,63.24,FLYING
63.46,APPROACH,ILS_TRACK,174.65,175,0.35,1829.27,-10.15,4.3,7.29,270.41,-0.011,0.256,20,270.41,-3.13,-0.25,0.27,33.583,0.01,-0.13,0,0,0,269.68,0,0,0,0,0,0,0,0,0,0,0,0,0,3,3,63.5,FLYING
63.72,APPROACH,ILS_TRACK,174.66,175,0.34,1826.59,-10.19,4.18,7.17,270.41,-0.012,0.2541,20,270.41,-3.028,-0.25,0.26,33.532,0.01,-0.028,0,0,0,269.68,0,0,0,0,0,0,0,0,0,0,0,0,0,3,3,63.76,FLYING
64.02,APPROACH,ILS_TRACK,174.66,175,0.34,1823.56,-10.16,4.3,7.29,270.4,-0.01,0.2558,20,270.41,-3.117,-0.25,0.27,33.474,0.009,-0.117,0,0,0,269.68,0,0,0,0,0,0,0,0,0,0,0,0,0,3,3,64.06,FLYING
64.28,APPROACH,ILS_TRACK,174.67,175,0.33,1820.89,-10.21,4.2,7.19,270.41,-0.012,0.2538,20,270.41,-3.036,-0.25,0.26,33.424,0.014,-0.036,0,0,0,269.68,0,0,0,0,0,0,0,0,0,0,0,0,0,3,3,64.32,FLYING
64.54,APPROACH,ILS_TRACK,174.66,175,0.34,1818.26,-10.14,4.31,7.3,270.41,-0.011,0.256,20,270.41,-3.129,-0.25,0.27,33.373,0.009,-0.129,0,0,0,269.68,0,0,0,0,0,0,0,0,0,0,0,0,0,3,3,64.58,FLYING
64.8,APPROACH,ILS_TRACK,174.67,175,0.33,1815.59,-10.19,4.17,7.16,270.41,-0.012,0.2547,20,270.41,-3.014,-0.25,0.25,33.323,0.012,-0.014,0,0,0,269.68,0,0,0,0,0,0,0,0,0,0,0,0,0,3,3,64.84,FLYING
65.1,APPROACH,ILS_TRACK,174.66,175,0.34,1812.55,-10.17,4.29,7.28,270.41,-0.011,0.2561,20,270.41,-3.107,-0.25,0.26,33.264,0.009,-0.107,0,0,0,269.68,0,0,0,0,0,0,0,0,0,0,0,0,0,3,3,65.14,FLYING
65.36,APPROACH,ILS_TRACK,174.67,175,0.33,1809.89,-10.22,4.24,7.22,270.41,-0.011,0.2539,20,270.41,-3.047,-0.25,0.25,33.214,0.008,-0.047,0,0,0,269.68,0,0,0,0,0,0,0,0,0,0,0,0,0,3,3,65.4,FLYING
65.62,APPROACH,ILS_TRACK,174.67,175,0.33,1807.25,-10.14,4.29,7.28,270.41,-0.01,0.2548,20,270.41,-3.113,-0.25,0.26,33.163,0.009,-0.113,0,0,0,269.68,0,0,0,0,0,0,0,0,0,0,0,0,0,3,3,65.66,FLYING
65.88,APPROACH,ILS_TRACK,174.68,175,0.32,1804.6,-10.22,4.23,7.22,270.41,-0.011,0.2524,20,270.41,-3.025,-0.25,0.25,33.113,0.008,-0.025,0,0,0,269.68,0,0,0,0,0,0,0,0,0,0,0,0,0,3,3,65.92,FLYING
66.18,APPROACH,ILS_TRACK,174.68,175,0.32,1801.56,-10.13,4.3,7.29,270.4,-0.01,0.2537,20,270.41,-3.123,-0.25,0.26,33.054,0.012,-0.123,0,0,0,269.68,0,0,0,0,0,0,0,0,0,0,0,0,0,3,3,66.22,FLYING
66.44,APPROACH,ILS_TRACK,174.69,175,0.31,1798.89,-10.19,4.18,7.17,270.41,-0.011,0.2512,20,270.41,-3.012,-0.25,0.24,33.004,0.005,-0.012,0,0,0,269.68,0,0,0,0,0,0,0,0,0,0,0,0,0,3,3,66.48,FLYING
66.7,APPROACH,ILS_TRACK,174.69,175,0.31,1796.26,-10.15,4.29,7.28,270.41,-0.013,0.2533,20,270.42,-3.116,-0.26,0.26,32.953,0.022,-0.116,0,0,0,269.68,0,0,0,0,0,0,0,0,0,0,0,0,0,3,3,66.74,FLYING
66.96,APPROACH,ILS_TRACK,174.7,175,0.3,1793.6,-10.19,4.21,7.19,270.41,-0.02,0.2516,20,270.4,-3.043,-0.25,0.25,32.903,0.002,-0.043,0,0,0,269.68,0,0,0,0,0,0,0,0,0,0,0,0,0,3,3,67,FLYING
67.26,APPROACH,ILS_TRACK,174.69,175,0.31,1790.56,-10.13,4.28,7.27,270.41,-0.019,0.2527,20,270.41,-3.111,-0.25,0.26,32.845,0.012,-0.111,0,0,0,269.68,0,0,0,0,0,0,0,0,0,0,0,0,0,3,3,67.3,FLYING
67.52,APPROACH,ILS_TRACK,174.7,175,0.3,1787.91,-10.21,4.22,7.2,270.41,-0.019,0.2506,20,270.41,-3.031,-0.25,0.25,32.794,0.014,-0.031,0,0,0,269.68,0,0,0,0,0,0,0,0,0,0,0,0,0,3,3,67.56,FLYING
67.78,APPROACH,ILS_TRACK,174.7,175,0.3,1785.28,-10.12,4.29,7.28,270.41,-0.018,0.2526,20,270.41,-3.132,-0.26,0.26,32.744,0.012,-0.132,0,0,0,269.68,0,0,0,0,0,0,0,0,0,0,0,0,0,3,3,67.82,FLYING
68.04,APPROACH,ILS_TRACK,174.71,175,0.29,1782.61,-10.17,4.16,7.15,270.41,-0.018,0.2506,20,270.41,-3.016,-0.25,0.24,32.693,0.006,-0.016,0,0,0,269.68,0,0,0,0,0,0,0,0,0,0,0,0,0,3,3,68.08,FLYING
68.34,APPROACH,ILS_TRACK,174.7,175,0.3,1779.58,-10.14,4.28,7.27,270.41,-0.016,0.2528,20,270.41,-3.116,-0.25,0.26,32.635,0.01,-0.116,0,0,0,269.68,0,0,0,0,0,0,0,0,0,0,0,0,0,3,3,68.38,FLYING
68.6,APPROACH,ILS_TRACK,174.71,175,0.29,1776.92,-10.18,4.19,7.18,270.41,-0.017,0.2512,20,270.41,-3.034,-0.25,0.25,32.585,0.008,-0.034,0,0,0,269.68,0,0,0,0,0,0,0,0,0,0,0,0,0,3,3,68.64,FLYING
68.86,APPROACH,ILS_TRACK,174.71,175,0.29,1774.29,-10.14,4.28,7.27,270.41,-0.015,0.2531,20,270.41,-3.111,-0.25,0.26,32.534,0.012,-0.111,0,0,0,269.68,0,0,0,0,0,0,0,0,0,0,0,0,0,3,3,68.9,FLYING
69.12,APPROACH,ILS_TRACK,174.71,175,0.29,1771.64,-10.2,4.21,7.2,270.41,-0.015,0.2516,20,270.41,-3.039,-0.25,0.25,32.484,0.011,-0.039,0,0,0,269.68,0,0,0,0,0,0,0,0,0,0,0,0,0,3,3,69.16,FLYING
69.42,APPROACH,ILS_TRACK,174.71,175,0.29,1768.6,-10.11,4.28,7.27,270.41,-0.013,0.2536,20,270.41,-3.119,-0.25,0.26,32.426,0.006,-0.119,0,0,0,269.68,0,0,0,0,0,0,0,0,0,0,0,0,0,3,3,69.46,FLYING
69.68,APPROACH,ILS_TRACK,174.72,175,0.28,1765.94,-10.19,4.2,7.18,270.41,-0.014,0.2516,20,270.41,-3.017,-0.25,0.24,32.375,0.01,-0.017,0,0,0,269.68,0,0,0,0,0,0,0,0,0,0,0,0,0,3,3,69.72,FLYING
69.94,APPROACH,ILS_TRACK,174.71,175,0.29,1763.32,-10.12,4.29,7.27,270.41,-0.012,0.254,20,270.41,-3.125,-0.25,0.26,32.325,0.01,-0.125,0,0,0,269.68,0,0,0,0,0,0,0,0,0,0,0,0,0,3,3,69.98,FLYING
70.2,APPROACH,ILS_TRACK,174.72,175,0.28,1760.66,-10.17,4.18,7.16,270.41,-0.013,0.2521,20,270.41,-3.024,-0.25,0.24,32.275,0.014,-0.024,0,0,0,269.68,0,0,0,0,0,0,0,0,0,0,0,0,0,3,3,70.24,FLYING
70.5,APPROACH,ILS_TRACK,174.71,175,0.29,1757.63,-10.12,4.28,7.27,270.41,-0.011,0.254,20,270.41,-3.115,-0.25,0.26,32.216,0.007,-0.115,0,0,0,269.68,0,0,0,0,0,0,0,0,0,0,0,0,0,3,3,70.54,FLYING
70.76,APPROACH,ILS_TRACK,174.72,175,0.28,1754.97,-10.17,4.18,7.17,270.41,-0.011,0.2519,20,270.41,-3.027,-0.25,0.24,32.166,0.008,-0.027,0,0,0,269.68,0,0,0,0,0,0,0,0,0,0,0,0,0,3,3,70.8,FLYING
71.02,APPROACH,ILS_TRACK,174.71,175,0.29,1752.35,-10.1,4.28,7.27,270.41,-0.009,0.2543,20,270.41,-3.123,-0.25,0.26,32.116,0.011,-0.123,0,0,0,269.68,0,0,0,0,0,0,0,0,0,0,0,0,0,3,3,71.06,FLYING
71.28,APPROACH,ILS_TRACK,174.72,175,0.28,1749.69,-10.16,4.16,7.15,270.41,-0.011,0.253,20,270.41,-3.014,-0.25,0.24,32.065,0.008,-0.014,0,0,0,269.68,0,0,0,0,0,0,0,0,0,0,0,0,0,3,3,71.32,FLYING
71.58,APPROACH,ILS_TRACK,174.71,175,0.29,1746.66,-10.12,4.28,7.27,270.41,-0.009,0.2546,20,270.41,-3.113,-0.24,0.25,32.007,0.005,-0.113,0,0,0,269.68,0,0,0,0,0,0,0,0,0,0,0,0,0,3,3,71.62,FLYING
71.84,APPROACH,ILS_TRACK,174.72,175,0.28,1744.01,-10.17,4.18,7.17,270.41,-0.009,0.2522,20,270.41,-3.03,-0.25,0.24,31.957,0.014,-0.03,0,0,0,269.68,0,0,0,0,0,0,0,0,0,0,0,0,0,3,3,71.88,FLYING
72.1,APPROACH,ILS_TRACK,174.72,175,0.28,1741.38,-10.12,4.27,7.26,270.41,-0.009,0.2536,20,270.41,-3.108,-0.25,0.25,31.906,0.009,-0.108,0,0,0,269.68,0,0,0,0,0,0,0,0,0,0,0,0,0,3,3,72.14,FLYING
72.36,APPROACH,ILS_TRACK,174.72,175,0.28,1738.73,-10.18,4.21,7.19,270.41,-0.011,0.2516,20,270.41,-3.037,-0.25,0.24,31.856,0.009,-0.037,0,0,0,269.68,0,0,0,0,0,0,0,0,0,0,0,0,0,3,3,72.4,FLYING
72.66,APPROACH,ILS_TRACK,174.72,175,0.28,1735.7,-10.1,4.27,7.26,270.41,-0.009,0.2528,20,270.41,-3.113,-0.24,0.25,31.798,0.007,-0.113,0,0,0,269.68,0,0,0,0,0,0,0,0,0,0,0,0,0,3,3,72.7,FLYING
72.92,APPROACH,ILS_TRACK,174.73,175,0.27,1733.05,-10.17,4.2,7.18,270.41,-0.009,0.2505,20,270.41,-3.025,-0.24,0.24,31.748,0.008,-0.025,0,0,0,269.68,0,0,0,0,0,0,0,0,0,0,0,0,0,3,3,72.96,FLYING
73.18,APPROACH,ILS_TRACK,174.73,175,0.27,1730.43,-10.1,4.28,7.26,270.41,-0.008,0.2524,20,270.41,-3.123,-0.24,0.25,31.697,0.008,-0.123,0,0,0,269.68,0,0,0,0,0,0,0,0,0,0,0,0,0,3,3,73.22,FLYING
73.44,APPROACH,ILS_TRACK,174.74,175,0.26,1727.77,-10.15,4.17,7.15,270.41,-0.01,0.2502,20,270.41,-3.024,-0.24,0.24,31.647,0.012,-0.024,0,0,0,269.68,0,0,0,0,0,0,0,0,0,0,0,0,0,3,3,73.48,FLYING
73.74,APPROACH,ILS_TRACK,174.73,175,0.27,1724.75,-10.1,4.27,7.26,270.41,-0.009,0.2518,20,270.41,-3.118,-0.24,0.25,31.589,0.01,-0.118,0,0,0,269.68,0,0,0,0,0,0,0,0,0,0,0,0,0,3,3,73.78,FLYING
74,APPROACH,ILS_TRACK,174.74,175,0.26,1722.1,-10.15,4.17,7.15,270.41,-0.01,0.2498,20,270.41,-3.029,-0.24,0.24,31.539,0.007,-0.029,0,0,0,269.68,0,0,0,0,0,0,0,0,0,0,0,0,0,3,3,74.04,FLYING
74.26,APPROACH,ILS_TRACK,174.73,175,0.27,1719.48,-10.09,4.27,7.26,270.41,-0.009,0.2524,20,270.41,-3.128,-0.24,0.26,31.488,0.012,-0.128,0,0,0,269.68,0,0,0,0,0,0,0,0,0,0,0,0,0,3,3,74.3,FLYING
74.52,APPROACH,ILS_TRACK,174.74,175,0.26,1716.82,-10.14,4.15,7.13,270.41,-0.01,0.2513,20,270.41,-3.016,-0.24,0.24,31.438,0.01,-0.016,0,0,0,269.68,0,0,0,0,0,0,0,0,0,0,0,0,0,3,3,74.56,FLYING
74.82,APPROACH,ILS_TRACK,174.73,175,0.27,1713.81,-10.1,4.27,7.26,270.41,-0.009,0.2533,20,270.41,-3.115,-0.24,0.25,31.38,0.007,-0.115,0,0,0,269.68,0,0,0,0,0,0,0,0,0,0,0,0,0,3,3,74.86,FLYING
75.08,APPROACH,ILS_TRACK,174.74,175,0.26,1711.15,-10.16,4.18,7.16,270.41,-0.01,0.2513,20,270.41,-3.031,-0.24,0.24,31.33,0.008,-0.031,0,0,0,269.68,0,0,0,0,0,0,0,0,0,0,0,0,0,3,3,75.12,FLYING
75.34,APPROACH,ILS_TRACK,174.73,175,0.27,1708.54,-10.1,4.26,7.25,270.41,-0.009,0.253,20,270.41,-3.113,-0.24,0.25,31.28,0.013,-0.113,0,0,0,269.68,0,0,0,0,0,0,0,0,0,0,0,0,0,3,3,75.38,FLYING
75.6,APPROACH,ILS_TRACK,174.74,175,0.26,1705.88,-10.15,4.18,7.17,270.41,-0.012,0.2511,20,270.41,-3.027,-0.24,0.24,31.229,0.011,-0.027,0,0,0,269.68,0,0,0,0,0,0,0,0,0,0,0,0,0,3,3,75.64,FLYING
75.9,APPROACH,ILS_TRACK,174.74,175,0.26,1702.86,-10.08,4.26,7.25,270.41,-0.009,0.2527,20,270.41,-3.115,-0.24,0.25,31.171,0.007,-0.115,0,0,0,269.68,0,0,0,0,0,0,0,0,0,0,0,0,0,3,3,75.94,FLYING
76.16,APPROACH,ILS_TRACK,174.75,175,0.25,1700.21,-10.15,4.18,7.16,270.41,-0.01,0.2505,20,270.41,-3.019,-0.24,0.24,31.121,0.008,-0.019,0,0,0,269.68,0,0,0,0,0,0,0,0,0,0,0,0,0,3,3,76.2,FLYING
76.42,APPROACH,ILS_TRACK,174.74,175,0.26,1697.6,-10.08,4.26,7.25,270.41,-0.009,0.2525,20,270.41,-3.122,-0.24,0.25,31.071,0.015,-0.122,0,0,0,269.68,0,0,0,0,0,0,0,0,0,0,0,0,0,3,3,76.46,FLYING
76.68,APPROACH,ILS_TRACK,174.75,175,0.25,1694.94,-10.12,4.13,7.12,270.41,-0.012,0.2503,20,270.41,-3.016,-0.24,0.23,31.021,0.006,-0.016,0,0,0,269.68,0,0,0,0,0,0,0,0,0,0,0,0,0,3,3,76.72,FLYING
76.98,APPROACH,ILS_TRACK,174.74,175,0.26,1691.92,-10.1,4.25,7.24,270.41,-0.011,0.2521,20,270.41,-3.107,-0.24,0.25,30.963,0.007,-0.107,0,0,0,269.68,0,0,0,0,0,0,0,0,0,0,0,0,0,3,3,77.02,FLYING
77.24,APPROACH,ILS_TRACK,174.75,175,0.25,1689.28,-10.15,4.19,7.18,270.41,-0.011,0.2502,20,270.41,-3.043,-0.24,0.24,30.913,0.01,-0.043,0,0,0,269.68,0,0,0,0,0,0,0,0,0,0,0,0,0,3,3,77.28,FLYING
77.5,APPROACH,ILS_TRACK,174.74,175,0.26,1686.66,-10.06,4.24,7.22,270.41,-0.008,0.2524,20,270.41,-3.123,-0.23,0.25,30.862,0.006,-0.123,0,0,0,269.68,0,0,0,0,0,0,0,0,0,0,0,0,0,3,3,77.54,FLYING
77.76,APPROACH,ILS_TRACK,174.75,175,0.25,1684.01,-10.16,4.16,7.15,270.41,-0.009,0.2507,20,270.41,-3.001,-0.23,0.23,30.812,0.012,-0.001,0,0,0,269.68,0,0,0,0,0,0,0,0,0,0,0,0,0,3,3,77.8,FLYING
78.06,APPROACH,ILS_TRACK,174.74,175,0.26,1681,-10.07,4.27,7.25,270.41,-0.008,0.2527,20,270.41,-3.134,-0.23,0.25,30.754,0.008,-0.134,0,0,0,269.68,0,0,0,0,0,0,0,0,0,0,0,0,0,3,3,78.1,FLYING
78.32,APPROACH,ILS_TRACK,174.75,175,0.25,1678.34,-10.11,4.12,7.1,270.41,-0.009,0.2503,20,270.41,-3.004,-0.23,0.23,30.704,0.009,-0.004,0,0,0,269.68,0,0,0,0,0,0,0,0,0,0,0,0,0,3,3,78.36,FLYING
78.58,APPROACH,ILS_TRACK,174.74,175,0.26,1675.73,-10.1,4.24,7.24,270.4,-0.008,0.2524,20,270.41,-3.093,-0.24,0.24,30.654,0.014,-0.093,0,0,0,269.68,0,0,0,0,0,0,0,0,0,0,0,0,0,3,3,78.62,FLYING
78.84,APPROACH,ILS_TRACK,174.75,175,0.25,1673.09,-10.14,4.16,7.15,270.4,-0.009,0.2519,20,270.4,-3.048,-0.23,0.23,30.604,0.004,-0.048,0,0,0,269.68,0,0,0,0,0,0,0,0,0,0,0,0,0,3,3,78.88,FLYING
79.14,APPROACH,ILS_TRACK,174.75,175,0.25,1670.07,-10.08,4.24,7.23,270.4,-0.008,0.2527,20,270.41,-3.103,-0.23,0.24,30.546,0.011,-0.103,0,0,0,269.68,0,0,0,0,0,0,0,0,0,0,0,0,0,3,3,79.18,FLYING
79.4,APPROACH,ILS_TRACK,174.76,175,0.24,1667.42,-10.16,4.19,7.18,270.4,-0.01,0.2504,20,270.41,-3.019,-0.24,0.23,30.496,0.011,-0.019,0,0,0,269.68,0,0,0,0,0,0,0,0,0,0,0,0,0,3,3,79.44,FLYING
79.66,APPROACH,ILS_TRACK,174.75,175,0.25,1664.81,-10.08,4.26,7.25,270.4,-0.008,0.2518,20,270.4,-3.113,-0.23,0.24,30.445,0.004,-0.113,0,0,0,269.68,0,0,0,0,0,0,0,0,0,0,0,0,0,3,3,79.7,FLYING
79.92,APPROACH,ILS_TRACK,174.76,175,0.24,1662.16,-10.12,4.15,7.14,270.4,-0.009,0.2495,20,270.42,-3.015,-0.24,0.22,30.395,0.015,-0.015,0,0,0,269.68,0,0,0,0,0,0,0,0,0,0,0,0,0,3,3,79.96,FLYING
80.22,APPROACH,ILS_TRACK,174.76,175,0.24,1659.15,-10.07,4.25,7.24,270.4,-0.007,0.2511,20,270.41,-3.107,-0.23,0.24,30.337,0.008,-0.107,0,0,0,269.68,0,0,0,0,0,0,0,0,0,0,0,0,0,3,3,80.26,FLYING
80.48,APPROACH,ILS_TRACK,174.77,175,0.23,1656.51,-10.12,4.18,7.16,270.4,-0.009,0.2491,20,270.4,-3.03,-0.23,0.22,30.287,0.005,-0.03,0,0,0,269.68,0,0,0,0,0,0,0,0,0,0,0,0,0,3,3,80.52,FLYING
80.74,APPROACH,ILS_TRACK,174.76,175,0.24,1653.89,-10.06,4.23,7.21,270.4,-0.007,0.2506,20,270.41,-3.108,-0.23,0.24,30.237,0.011,-0.108,0,0,0,269.68,0,0,0,0,0,0,0,0,0,0,0,0,0,3,3,80.78,FLYING
81,APPROACH,ILS_TRACK,174.77,175,0.23,1651.26,-10.15,4.21,7.2,270.4,-0.009,0.249,20,270.42,-3.033,-0.24,0.23,30.187,0.016,-0.033,0,0,0,269.68,0,0,0,0,0,0,0,0,0,0,0,0,0,3,3,81.04,FLYING
81.3,APPROACH,ILS_TRACK,174.76,175,0.24,1648.24,-10.05,4.25,7.24,270.4,-0.008,0.2506,20,270.4,-3.122,-0.23,0.24,30.129,0.003,-0.122,0,0,0,269.68,0,0,0,0,0,0,0,0,0,0,0,0,0,3,3,81.34,FLYING
81.56,APPROACH,ILS_TRACK,174.77,175,0.23,1645.6,-10.1,4.15,7.13,270.4,-0.007,0.2491,20,270.41,-3.024,-0.23,0.23,30.079,0.012,-0.024,0,0,0,269.68,0,0,0,0,0,0,0,0,0,0,0,0,0,3,3,81.6,FLYING
81.82,APPROACH,ILS_TRACK,174.76,175,0.24,1643,-10.05,4.24,7.23,270.4,-0.006,0.2514,20,270.41,-3.123,-0.23,0.25,30.029,0.011,-0.123,0,0,0,269.68,0,0,0,0,0,0,0,0,0,0,0,0,0,3,3,81.86,FLYING
82.08,APPROACH,ILS_TRACK,174.77,175,0.23,1640.35,-10.1,4.14,7.12,270.4,-0.008,0.2497,20,270.41,-3.037,-0.24,0.23,29.979,0.012,-0.037,0,0,0,269.68,0,0,0,0,0,0,0,0,0,0,0,0,0,3,3,82.12,FLYING
82.38,APPROACH,ILS_TRACK,174.76,175,0.24,1637.35,-10.05,4.24,7.23,270.4,-0.008,0.2516,20,270.4,-3.124,-0.23,0.25,29.921,0.005,-0.124,0,0,0,269.68,0,0,0,0,0,0,0,0,0,0,0,0,0,3,3,82.42,FLYING
82.64,APPROACH,ILS_TRACK,174.77,175,0.23,1634.71,-10.1,4.13,7.12,270.4,-0.008,0.2496,20,270.41,-3.029,-0.23,0.24,29.871,0.011,-0.029,0,0,0,269.68,0,0,0,0,0,0,0,0,0,0,0,0,0,3,3,82.68,FLYING
82.9,APPROACH,ILS_TRACK,174.76,175,0.24,1632.1,-10.06,4.23,7.22,270.4,-0.007,0.2517,20,270.41,-3.12,-0.23,0.25,29.821,0.007,-0.12,0,0,0,269.68,0,0,0,0,0,0,0,0,0,0,0,0,0,3,3,82.94,FLYING
83.16,APPROACH,ILS_TRACK,174.77,175,0.23,1629.46,-10.11,4.15,7.14,270.4,-0.009,0.2502,20,270.41,-3.044,-0.23,0.24,29.771,0.011,-0.044,0,0,0,269.68,0,0,0,0,0,0,0,0,0,0,0,0,0,3,3,83.2,FLYING
83.46,APPROACH,ILS_TRACK,174.77,175,0.23,1626.45,-10.04,4.23,7.22,270.4,-0.008,0.2515,20,270.41,-3.12,-0.24,0.26,29.713,0.014,-0.12,0,0,0,269.68,0,0,0,0,0,0,0,0,0,0,0,0,0,3,3,83.5,FLYING
83.72,APPROACH,ILS_TRACK,174.78,175,0.22,1623.81,-10.11,4.14,7.13,270.4,-0.012,0.2493,20,270.41,-3.022,-0.24,0.24,29.663,0.01,-0.022,0,0,0,269.68,0,0,0,0,0,0,0,0,0,0,0,0,0,3,3,83.76,FLYING
83.98,APPROACH,ILS_TRACK,174.77,175,0.23,1621.21,-10.05,4.23,7.22,270.4,-0.011,0.2513,20,270.41,-3.126,-0.24,0.26,29.613,0.006,-0.126,0,0,0,269.68,0,0,0,0,0,0,0,0,0,0,0,0,0,3,3,84.02,FLYING
84.24,APPROACH,ILS_TRACK,174.78,175,0.22,1618.57,-10.09,4.12,7.11,270.4,-0.011,0.2494,20,270.41,-3.027,-0.23,0.24,29.563,0.008,-0.027,0,0,0,269.68,0,0,0,0,0,0,0,0,0,0,0,0,0,3,3,84.28,FLYING
84.54,APPROACH,ILS_TRACK,174.77,175,0.23,1615.56,-10.05,4.23,7.22,270.4,-0.01,0.2513,20,270.42,-3.118,-0.24,0.26,29.505,0.017,-0.118,0,0,0,269.68,0,0,0,0,0,0,0,0,0,0,0,0,0,3,3,84.58,FLYING
84.8,APPROACH,ILS_TRACK,174.78,175,0.22,1612.92,-10.1,4.14,7.13,270.4,-0.014,0.2492,20,270.4,-3.031,-0.23,0.24,29.455,0.001,-0.031,0,0,0,269.68,0,0,0,0,0,0,0,0,0,0,0,0,0,3,3,84.84,FLYING
85.06,APPROACH,ILS_TRACK,174.77,175,0.23,1610.32,-10.05,4.23,7.21,270.4,-0.012,0.2508,20,270.41,-3.114,-0.24,0.26,29.405,0.012,-0.114,0,0,0,269.68,0,0,0,0,0,0,0,0,0,0,0,0,0,3,3,85.1,FLYING
