t_s,phase,subphase,ias_ms,vapp_ms,spd_err_ms,agl_m,vs_ms,pitch_deg,aoa_deg,hdg_deg,bank_deg,thr_cmd,thr_cur,thr_intg,at_gain,at_tau_s,at_a_up,at_a_dn,at_kp_thr,at_ki_spd,at_thr_slew,as_cmd_deg,as_cap_deg,as_raw_deg,as_spd_err_ms,as_active,aa_hdg_cmd_deg,aa_fpa_cmd_deg,aa_fbw,aa_dir,actual_fpa_deg,ftf_hdg_err_deg,ftf_fix_idx,kos_steer_pit_deg,kos_steer_hdg_deg,aa_dir_vx,aa_dir_vy,aa_dir_vz,aa_dir_pitch_deg,aa_dir_hdg_deg,ils_loc_m,ils_gs_m,ils_dist_km,loc_corr_deg,gs_corr_deg,gs_latched,active_gs_ang_deg,ils_intercept_alt_m,d_gs_ms,fpa_preclamped_deg,gs_nom_alt_m,flare_fpa_cmd,flare_tgt_vs,flare_frac,steer_hdg_deg,steer_blend,ro_loc_corr_deg,ro_hdg_err_deg,ro_yaw_tgt,ro_yaw_scale,ro_yaw_gate,yaw_cmd,roll_cmd,pitch_cmd,ro_pitch_tgt_deg,ro_pitch_err_deg,ro_pitch_ff,ro_roll_assist,flaps_cur,flaps_tgt,asc_j_ab,asc_j_rk,asc_validity,asc_q_pa,asc_q_raw_pa,asc_mach,asc_apo_m,asc_drag_n,asc_w_prop,asc_edot_aero,asc_edot_orb,asc_pitch_bias,asc_blend,asc_spooling,asc_ab_thr_ratio,asc_ab_t_now,asc_ab_t_avail,asc_ab_ign_on,asc_ab_flameouts,asc_rk_t_now,asc_rk_t_avail,asc_rk_ign_on,asc_rk_flameouts,ship_thrust,ship_avail_thrust,ship_ign_on,ship_flameouts,ifc_raw_dt_s,ifc_dt_s,ifc_loop_n,ifc_hz_est,ifc_raw_dt_max_s,ifc_raw_dt_min_s,phase_el_s,status,craft_name,cfg_file
0.22,TAKEOFF,TO_PREFLIGHT,0.28,80,79.72,3.61,0,-0.18,0.36,90.14,0.109,0.072,0,0,0,0,0,0,0,0,0,0,0,0,0,0,90.4,0,1,0,-0.12,0,0,0,90,0,0,0,0,0,0,0,0,0,0,0,3,0,0,0,69,0,0,0,90.4,1,0,-0.258,0,0,1,0,0,0,0,0,0,0,0,1,0,0,VALID,0,0,0,0,0,1,0,0,0,0,0,0,0,0,0,0,0,0,0,0,0,518.06,2,0,0.18,0.18,1,3.45,0.18,0.02,0.04,PRELAUNCH,CF1-J,0:/Integrated Flight Computer/aircraft/cf1_j_cfg.ks (inferred preloaded)
0.48,TAKEOFF,TO_PREFLIGHT,0.27,80,79.73,3.61,0,-0.19,-0.04,90.15,0.146,0.12,0,0,0,0,0,0,0,0,0,0,0,0,0,0,90.4,0,1,0,0.11,0,0,0,90,0,0,0,0,0,0,0,0,0,0,0,3,0,0,0,69,0,0,0,90.4,1,0,-0.256,0,0,1,0,0,0,0,0,0,0,1,1,0,0,VALID,0,0,0,0,0,1,0,0,0,0,0,0,0,0,0,0,0,0,0,0,0.46,518.06,2,0,0.04,0.04,6,19.23,0.18,0.04,0.3,PRELAUNCH,CF1-J,0:/Integrated Flight Computer/aircraft/cf1_j_cfg.ks (inferred preloaded)
0.74,TAKEOFF,TO_PREFLIGHT,0.14,80,79.86,3.6,0.01,-0.29,-6.57,90.15,0.137,0.224,0,0,0,0,0,0,0,0,0,0,0,0,0,0,90.4,0,1,0,0.34,0,0,0,90,0,0,0,0,0,0,0,0,0,0,0,3,0,0,0,69,0,0,0,90.4,1,0,-0.256,0,0,1,0,0,0,0,0,0,0,1,1,0,0,VALID,0,0,0,0,0,1,0,0,0,0,0,0,0,0,0,0,0,0,0,0,1.62,518.09,2,0,0.04,0.04,11,19.23,0.08,0.04,0.56,PRELAUNCH,CF1-J,0:/Integrated Flight Computer/aircraft/cf1_j_cfg.ks (inferred preloaded)
1,TAKEOFF,TO_PREFLIGHT,0.03,80,79.97,3.61,-0.02,-0.2,20.8,90.15,0.103,0.328,0,0,0,0,0,0,0,0,0,0,0,0,0,0,90.4,0,1,0,-0.96,0,0,0,90,0,0,0,0,0,0,0,0,0,0,0,3,0,0,0,69,0,0,0,90.4,1,0,-0.256,0,0,1,0,0,0,0,0,0,0,1,1,0,0,VALID,0,0,0,0,0,1,0,0,0,0,0,0,0,0,0,0,0,0,0,0,3.59,518.11,2,0,0.04,0.04,16,19.23,0.08,0.04,0.82,PRELAUNCH,CF1-J,0:/Integrated Flight Computer/aircraft/cf1_j_cfg.ks (inferred preloaded)
1.26,TAKEOFF,TO_PREFLIGHT,0.03,80,79.97,3.62,0.01,-0.13,-51.91,90.15,0.079,0.432,0,0,0,0,0,0,0,0,0,0,0,0,0,0,90.4,0,1,0,0.34,0,0,0,90,0,0,0,0,0,0,0,0,0,0,0,3,0,0,0,69,0,0,0,90.4,1,0,-0.256,0,0,1,0,0,0,0,0,0,0,1,1,0,0,VALID,0,0,0,0,0,1,0,0,0,0,0,0,0,0,0,0,0,0,0,0,6.37,518.11,2,0,0.04,0.04,21,19.23,0.08,0.04,1.08,PRELAUNCH,CF1-J,0:/Integrated Flight Computer/aircraft/cf1_j_cfg.ks (inferred preloaded)
1.52,TAKEOFF,TO_PREFLIGHT,0.03,80,79.97,3.61,0.01,-0.22,-10.24,90.15,0.082,0.536,0,0,0,0,0,0,0,0,0,0,0,0,0,0,90.4,0,1,0,0.33,0,0,0,90,0,0,0,0,0,0,0,0,0,0,0,3,0,0,0,69,0,0,0,90.4,1,0,-0.256,0,0,1,0,0,0,0,0,0,0,1,1,0,0,VALID,0,0,0,0,0,1,0,0,0,0,0,0,0,0,0,0,0,0,0,0,9.93,518.11,2,0,0.04,0.04,26,19.23,0.08,0.04,1.34,PRELAUNCH,CF1-J,0:/Integrated Flight Computer/aircraft/cf1_j_cfg.ks (inferred preloaded)
1.78,TAKEOFF,TO_PREFLIGHT,0.02,80,79.98,3.61,0,-0.23,46.51,90.15,0.106,0.64,0,0,0,0,0,0,0,0,0,0,0,0,0,0,90.4,0,1,0,-0.23,0,0,0,90,0,0,0,0,0,0,0,0,0,0,0,3,0,0,0,69,0,0,0,90.4,1,0,-0.256,0,0,1,0,0,0,0,0,0,0,1,1,0,0,VALID,0,0,0,0,0,1,0,0,0,0,0,0,0,0,0,0,0,0,0,0,14.28,518.12,2,0,0.04,0.04,31,19.23,0.08,0.04,1.6,PRELAUNCH,CF1-J,0:/Integrated Flight Computer/aircraft/cf1_j_cfg.ks (inferred preloaded)
2.04,TAKEOFF,TO_PREFLIGHT,0.01,80,79.99,3.61,0,-0.18,43.33,90.15,0.127,0.744,0,0,0,0,0,0,0,0,0,0,0,0,0,0,90.4,0,1,0,-0.09,0,0,0,90,0,0,0,0,0,0,0,0,0,0,0,3,0,0,0,69,0,0,0,90.4,1,0,-0.256,0,0,1,0,0,0,0,0,0,0,1,1,0,0,VALID,0,0,0,0,0,1,0,0,0,0,0,0,0,0,0,0,0,0,0,0,19.39,518.12,2,0,0.04,0.04,36,19.23,0.08,0.04,1.86,PRELAUNCH,CF1-J,0:/Integrated Flight Computer/aircraft/cf1_j_cfg.ks (inferred preloaded)
2.36,TAKEOFF,TO_PREFLIGHT,0.03,80,79.97,3.61,0,-0.22,-6.47,90.15,0.127,0.872,0,0,0,0,0,0,0,0,0,0,0,0,0,0,90.4,0,1,0,0.21,0,0,0,90,0,0,0,0,0,0,0,0,0,0,0,3,0,0,0,69,0,0,0,90.4,1,0,-0.256,0,0,1,0,0,0,0,0,0,0,1,1,0,0,VALID,0,0,0,0,0,1,0,0,0,0,0,0,0,0,0,0,0,0,0,0,26.72,518.11,2,0,0.08,0.08,41,15.63,0.08,0.04,2.18,PRELAUNCH,CF1-J,0:/Integrated Flight Computer/aircraft/cf1_j_cfg.ks (inferred preloaded)
2.64,TAKEOFF,TO_PREFLIGHT,0.03,80,79.97,3.61,0,-0.23,3.17,90.15,0.106,0.984,0,0,0,0,0,0,0,0,0,0,0,0,0,0,90.4,0,1,0,-0.07,0,0,0,90,0,0,0,0,0,0,0,0,0,0,0,3,0,0,0,69,0,0,0,90.4,1,0,-0.256,0,0,1,0,0,0,0,0,0,0,1,1,0,0,VALID,0,0,0,0,0,1,0,0,0,0,0,0,0,0,0,0,0,0,0,0,34.03,518.11,2,0,0.08,0.08,45,14.29,0.08,0.06,2.46,PRELAUNCH,CF1-J,0:/Integrated Flight Computer/aircraft/cf1_j_cfg.ks (inferred preloaded)
2.92,TAKEOFF,TO_PREFLIGHT,0.03,80,79.97,3.61,0,-0.22,-0.72,90.15,0.09,1,0,0,0,0,0,0,0,0,0,0,0,0,0,0,90.4,0,1,0,0.04,0,0,0,90,0,0,0,0,0,0,0,0,0,0,0,3,0,0,0,69,0,0,0,90.4,1,0,-0.256,0,0,1,0,0,0,0,0,0,0,1,1,0,0,VALID,0,0,0,0,0,1,0,0,0,0,0,0,0,0,0,0,0,0,0,0,42.01,518.11,2,0,0.08,0.08,49,14.29,0.08,0.06,2.74,PRELAUNCH,CF1-J,0:/Integrated Flight Computer/aircraft/cf1_j_cfg.ks (inferred preloaded)
3.2,TAKEOFF,TO_PREFLIGHT,0.04,80,79.96,3.61,0,-0.24,-2.88,90.16,0.094,1,0,0,0,0,0,0,0,0,0,0,0,0,0,0,90.4,0,1,0,0.1,0,0,0,90,0,0,0,0,0,0,0,0,0,0,0,3,0,0,0,69,0,0,0,90.4,1,0,-0.256,0,0,1,0,0,0,0,0,0,0,1,1,0,0,VALID,0,0,0,0,0,1,0,0,0,0,0,0,0,0,0,0,0,0,0,0,49.95,518.11,2,0,0.08,0.08,53,14.29,0.08,0.06,3.02,PRELAUNCH,CF1-J,0:/Integrated Flight Computer/aircraft/cf1_j_cfg.ks (inferred preloaded)
3.48,TAKEOFF,TO_GROUND_ROLL,0.06,80,79.94,3.61,0,-0.23,0.15,90.16,0.111,1,0,0,0,0,0,0,0,0,0,0,0,0,0,0,90.4,0,1,0,-0.15,0,0,0,90,0,0,0,0,0,0,0,0,0,0,0,3,0,0,0,69,0,0,0,90.4,1,0,-0.245,0,0,3,0,0,0,0,0,0,0,1,1,0,0,VALID,0,0,0,0,0,1,0,0,0,0,0,0,0,0,0,0,0,0,0,0,57.75,518.1,2,0,0.08,0.08,57,14.29,0.08,0.06,3.32,PRELAUNCH,CF1-J,0:/Integrated Flight Computer/aircraft/cf1_j_cfg.ks (inferred preloaded)
3.76,TAKEOFF,TO_GROUND_ROLL,0.29,80,79.71,3.62,-0.01,-0.12,1.36,90.16,0.122,1,0,0,0,0,0,0,0,0,0,0,0,0,0,0,90.4,0,1,0,-0.47,0,0,0,90,0,0,0,0,0,0,0,0,0,0,0,3,0,0,0,69,0,0,0,90.4,1,0,-0.244,0,0,3,0,0,0,0,0,0,0,1,1,0,0,VALID,0,0,0,0,0,1,0,0,0,0,0,0,0,0,0,0,0,0,0,0,65.42,518.05,2,0,0.08,0.08,61,14.29,0.08,0.06,3.6,PRELAUNCH,CF1-J,0:/Integrated Flight Computer/aircraft/cf1_j_cfg.ks (inferred preloaded)
4.04,TAKEOFF,TO_GROUND_ROLL,0.63,80,79.37,3.61,0,-0.17,-0.35,90.16,0.117,1,0,0,0,0,0,0,0,0,0,0,0,0,0,0,90.4,0,1,0,0.13,0,0,0,90,0,0,0,0,0,0,0,0,0,0,0,3,0,0,0,69,0,0,0,90.4,1,0,-0.24,0,0,3,0,0,0,0,0,0,0,1,1,0,0,VALID,0,0,0,0,0,1,0,0,0,0,0,0,0,0,0,0,0,0,0,0,72.95,517.96,2,0,0.08,0.08,65,14.29,0.08,0.06,3.88,PRELAUNCH,CF1-J,0:/Integrated Flight Computer/aircraft/cf1_j_cfg.ks (inferred preloaded)
4.32,TAKEOFF,TO_GROUND_ROLL,1.02,80,78.98,3.62,-0.01,-0.16,0.36,90.16,0.102,1,0,0,0,0,0,0,0,0,0,0,0,0,0,0,90.4,0,1,0,-0.65,0,0,0,90,0,0,0,0,0,0,0,0,0,0,0,3,0,0,0,69,0,0,0,90.4,1,0,-0.233,0,0,3,0,0,0,0,0,0,0,1,1,0,0,VALID,0,0,0,0,0,1,0,0,0,0,0,0,0,0,0,0,0,0,0,0,80.35,517.87,2,0,0.08,0.08,69,14.29,0.08,0.06,4.16,PRELAUNCH,CF1-J,0:/Integrated Flight Computer/aircraft/cf1_j_cfg.ks (inferred preloaded)
4.6,TAKEOFF,TO_GROUND_ROLL,1.44,80,78.56,3.62,-0.01,-0.14,0.08,90.17,0.095,1,0,0,0,0,0,0,0,0,0,0,0,0,0,0,90.39,0,1,0,-0.26,0,0,0,90,0,0,0,0,0,0,0,0,0,0,0,3,0,0,0,69,0,0,0,90.39,1,0,-0.223,0,0,3,0,0,0,0,0,0,0,1,1,0,0,VALID,0,0,0,0,0,1,0,0,0,0,0,0,0,0,0,0,0,0,0,0,87.63,517.76,2,0,0.08,0.08,73,14.29,0.08,0.06,4.44,PRELAUNCH,CF1-J,0:/Integrated Flight Computer/aircraft/cf1_j_cfg.ks (inferred preloaded)
4.88,TAKEOFF,TO_GROUND_ROLL,1.9,80,78.1,3.62,-0.01,-0.16,0.14,90.18,0.101,1,0,0,0,0,0,0,0,0,0,0,0,0,0,0,90.39,0,1,0,-0.35,0,0,0,90,0,0,0,0,0,0,0,0,0,0,0,3,0,0,0,69,0,0,0,90.39,1,0,-0.211,0,0,3,0,0,0,0,0,0,0,1,1,0,0,VALID,0,0,0,0,0,1,0,0,0,0,0,0,0,0,0,0,0,0,0,0,94.78,517.65,2,0,0.08,0.08,77,14.29,0.08,0.06,4.72,PRELAUNCH,CF1-J,0:/Integrated Flight Computer/aircraft/cf1_j_cfg.ks (inferred preloaded)
5.16,TAKEOFF,TO_GROUND_ROLL,2.39,80,77.61,3.62,-0.02,-0.14,0.18,90.19,0.112,1,0,0,0,0,0,0,0,0,0,0,0,0,0,0,90.39,0,1,0,-0.38,0,0,0,90,0,0,0,0,0,0,0,0,0,0,0,3,0,0,0,69,0,0,0,90.39,1,0,-0.197,0.0017,0.25,1,0.0017,0,0,0,0,0,0,1,1,0,0,VALID,0,0,0,0,0,1,0,0,0,0,0,0,0,0,0,0,0,0,0,0,101.8,517.52,2,0,0.08,0.08,81,14.29,0.08,0.06,5,LANDED,CF1-J,0:/Integrated Flight Computer/aircraft/cf1_j_cfg.ks (inferred preloaded)
5.44,TAKEOFF,TO_GROUND_ROLL,2.92,80,77.08,3.62,-0.02,-0.15,0.15,90.21,0.116,1,0,0,0,0,0,0,0,0,0,0,0,0,0,0,90.39,0,1,0,-0.33,0,0,0,90,0,0,0,0,0,0,0,0,0,0,0,3,0,0,0,69,0,0,0,90.39,1,0,-0.183,0.0016,0.25,1,0.0016,0,0,0,0,0,0,1,1,0,0,VALID,0,0,0,0,0,1,0,0,0,0,0,0,0,0,0,0,0,0,0,0,108.7,517.38,2,0,0.08,0.08,85,14.29,0.08,0.06,5.28,LANDED,CF1-J,0:/Integrated Flight Computer/aircraft/cf1_j_cfg.ks (inferred preloaded)
5.72,TAKEOFF,TO_GROUND_ROLL,3.48,80,76.52,3.62,-0.02,-0.15,0.16,90.22,0.11,1,0,0,0,0,0,0,0,0,0,0,0,0,0,0,90.39,0,1,0,-0.35,0,0,0,90,0,0,0,0,0,0,0,0,0,0,0,3,0,0,0,69,0,0,0,90.39,1,0,-0.167,0.0014,0.25,1,0.0014,0,0,0,0,0,0,1,1,0,0,VALID,0,0,0,0,0,1,0,0,0,0,0,0,0,0,0,0,0,0,0,0,115.48,517.22,2,0,0.08,0.08,89,14.29,0.08,0.06,5.56,LANDED,CF1-J,0:/Integrated Flight Computer/aircraft/cf1_j_cfg.ks (inferred preloaded)
6,TAKEOFF,TO_GROUND_ROLL,4.08,80,75.92,3.62,-0.02,-0.14,0.17,90.24,0.102,1,0,0,0,0,0,0,0,0,0,0,0,0,0,0,90.39,0,1,0,-0.34,0,0,0,90,0,0,0,0,0,0,0,0,0,0,0,3,0,0,0,69,0,0,0,90.39,1,0,-0.149,0.0012,0.25,1,0.0012,0,0,0,0,0,0,1,1,0,0,VALID,0,0,0,0,0,1,0,0,0,0,0,0,0,0,0,0,0,0,0,0,122.14,517.06,2,0,0.08,0.08,93,14.29,0.08,0.06,5.84,LANDED,CF1-J,0:/Integrated Flight Computer/aircraft/cf1_j_cfg.ks (inferred preloaded)
6.28,TAKEOFF,TO_GROUND_ROLL,4.71,80,75.29,3.62,-0.03,-0.14,0.16,90.26,0.099,1,0,0,0,0,0,0,0,0,0,0,0,0,0,0,90.39,0,1,0,-0.33,0,0,0,90,0,0,0,0,0,0,0,0,0,0,0,3,0,0,0,69,0,0,0,90.39,1,0,-0.131,0.001,0.25,1,0.001,0,0,0,0,0,0,1,1,0,0,VALID,0,0,0,0,0,1,0,0,0,0,0,0,0,0,0,0,0,0,0,0,128.68,516.88,2,0,0.08,0.08,97,14.29,0.08,0.06,6.12,LANDED,CF1-J,0:/Integrated Flight Computer/aircraft/cf1_j_cfg.ks (inferred preloaded)
6.56,TAKEOFF,TO_GROUND_ROLL,5.38,80,74.62,3.62,-0.03,-0.14,0.16,90.27,0.103,1,0,0,0,0,0,0,0,0,0,0,0,0,0,0,90.39,0,1,0,-0.33,0,0,0,90,0,0,0,0,0,0,0,0,0,0,0,3,0,0,0,69,0,0,0,90.39,1,0,-0.113,0.0009,0.25,1,0.0009,0,0,0,0,0,0,1,1,0,0,VALID,0,0,0,0,0,1,0,0,0,0,0,0,0,0,0,0,0,0,0,0,135.1,516.69,2,0,0.08,0.08,101,14.29,0.08,0.06,6.4,LANDED,CF1-J,0:/Integrated Flight Computer/aircraft/cf1_j_cfg.ks (inferred preloaded)
6.84,TAKEOFF,TO_GROUND_ROLL,6.07,80,73.93,3.62,-0.03,-0.14,0.16,90.29,0.108,1,0,0,0,0,0,0,0,0,0,0,0,0,0,0,90.39,0,1,0,-0.33,0,0,0,90,0,0,0,0,0,0,0,0,0,0,0,3,0,0,0,69,0,0,0,90.39,1,0,-0.096,0.0007,0.25,1,0.0007,0,0,0,0,0,0,1,1,0,0,VALID,0,0,0,0,0,1,0,0,0,0,0,0,0,0,0,0,0,0,0,0,141.41,516.48,2,0,0.08,0.08,105,14.29,0.08,0.06,6.68,LANDED,CF1-J,0:/Integrated Flight Computer/aircraft/cf1_j_cfg.ks (inferred preloaded)
7.12,TAKEOFF,TO_GROUND_ROLL,6.8,80,73.2,3.62,-0.04,-0.13,0.17,90.31,0.109,1,0,0,0,0,0,0,0,0,0,0,0,0,0,0,90.39,0,1,0,-0.34,0,0,0,90,0,0,0,0,0,0,0,0,-0.001,0,0,3,0,0,0,69,0,0,0,90.39,1,-0.001,-0.079,0.0006,0.25,1,0.0006,0,0,0,0,0,0,1,1,0,0,VALID,0,0,0,0,0,1,0,0,0,0,0,0,0,0,0,0,0,0,0,0,147.59,516.26,2,0,0.08,0.08,109,14.29,0.08,0.06,6.96,LANDED,CF1-J,0:/Integrated Flight Computer/aircraft/cf1_j_cfg.ks (inferred preloaded)
7.4,TAKEOFF,TO_GROUND_ROLL,7.56,80,72.44,3.62,-0.04,-0.13,0.17,90.32,0.105,1,0,0,0,0,0,0,0,0,0,0,0,0,0,0,90.39,0,1,0,-0.33,0,0,0,90,0,0,0,0,0,0,0,0,-0.001,0,0,3,0,0,0,69,0,0,0,90.39,1,-0.001,-0.064,0.0004,0.25,1,0.0004,0,0,0,0,0,0,1,1,0,0,VALID,0,0,0,0,0,1,0,0,0,0,0,0,0,0,0,0,0,0,0,0,153.67,516.03,2,0,0.08,0.08,113,14.29,0.08,0.06,7.24,LANDED,CF1-J,0:/Integrated Flight Computer/aircraft/cf1_j_cfg.ks (inferred preloaded)
7.68,TAKEOFF,TO_GROUND_ROLL,8.35,80,71.65,3.62,-0.05,-0.13,0.18,90.34,0.101,1,0,0,0,0,0,0,0,0,0,0,0,0,0,0,90.39,0,1,0,-0.33,0,0,0,90,0,0,0,0,0,0,0,0,-0.001,0,0,3,0,0,0,69,0,0,0,90.39,1,-0.001,-0.05,0.0003,0.25,1,0.0003,0,0,0,0,0,0,1,1,0,0,VALID,0,0,0,0,0,1,0,0,0,0,0,0,0,0,0,0,0,0,0,0,159.63,515.77,2,0,0.08,0.08,117,14.29,0.08,0.06,7.52,LANDED,CF1-J,0:/Integrated Flight Computer/aircraft/cf1_j_cfg.ks (inferred preloaded)
7.96,TAKEOFF,TO_GROUND_ROLL,9.17,80,70.83,3.62,-0.05,-0.13,0.18,90.35,0.1,1,0,0,0,0,0,0,0,0,0,0,0,0,0,0,90.39,0,1,0,-0.33,0,0,0,90,0,0,0,0,0,0,0,0,-0.001,0,0,3,0,0,0,69,0,0,0,90.39,1,-0.001,-0.037,0.0003,0.25,1,0.0003,0,0,0,0,0,0,1,1,0,0,VALID,0,0,0,0,0,1,0,0,0,0,0,0,0,0,0,0,0,0,0,0,165.49,515.51,2,0,0.08,0.08,121,14.29,0.08,0.06,7.8,LANDED,CF1-J,0:/Integrated Flight Computer/aircraft/cf1_j_cfg.ks (inferred preloaded)
8.24,TAKEOFF,TO_GROUND_ROLL,10.01,80,69.99,3.62,-0.06,-0.12,0.18,90.36,0.103,1,0,0,0,0,0,0,0,0,0,0,0,0,0,0,90.39,0,1,0,-0.33,0,0,0,90,0,0,0,0,0,0,0,0,-0.002,0,0,3,0,0,0,69,0,0,0,90.39,1,-0.002,-0.027,0.0002,0.25,1,0.0002,0,0,0,0,0,0,1,1,0,0,VALID,0,0,0,0,0,1,0,0,0,0,0,0,0,0,0,0,0,0,0,0,171.23,515.23,2,0,0.08,0.08,125,14.29,0.08,0.06,8.08,LANDED,CF1-J,0:/Integrated Flight Computer/aircraft/cf1_j_cfg.ks (inferred preloaded)
8.52,TAKEOFF,TO_GROUND_ROLL,10.89,80,69.11,3.62,-0.06,-0.12,0.18,90.37,0.107,1,0,0,0,0,0,0,0,0,0,0,0,0,0,0,90.39,0,1,0,-0.33,0,0,0,90,0,0,0,0,0,0,0,0,-0.002,0,0,3,0,0,0,69,0,0,0,90.39,1,-0.002,-0.019,0.0001,0.25,1,0.0001,0,0,0,0,0,0,1,1,0,0,VALID,0,0,0,0,0,1,0,0,0,0,0,0,0,0,0,0,0,0,0,0,176.86,514.93,2,0,0.08,0.08,129,14.29,0.08,0.06,8.36,LANDED,CF1-J,0:/Integrated Flight Computer/aircraft/cf1_j_cfg.ks (inferred preloaded)
8.8,TAKEOFF,TO_GROUND_ROLL,11.79,80,68.21,3.62,-0.07,-0.12,0.19,90.38,0.107,1,0,0,0,0,0,0,0,0,0,0,0,0,0,0,90.39,0,1,0,-0.33,0,0,0,90,0,0,0,0,0,0,0,0,-0.003,0,0,3,0,0,0,69,0,0,0,90.39,1,-0.003,-0.013,0.0001,0.25,1,0.0001,0,0,0,0,0,0,1,1,0,0,VALID,0,0,0,0,0,1,0,0,0,0,0,0,0,0,0,0,0,0,0,0,182.38,514.61,2,0,0.08,0.08,133,14.29,0.08,0.06,8.64,LANDED,CF1-J,0:/Integrated Flight Computer/aircraft/cf1_j_cfg.ks (inferred preloaded)
9.08,TAKEOFF,TO_GROUND_ROLL,12.72,80,67.28,3.62,-0.07,-0.12,0.18,90.38,0.105,1,0,0,0,0,0,0,0,0,0,0,0,0,0,0,90.39,0,1,0,-0.32,0,0,0,90,0,0,0,0,0,0,0,0,-0.003,0,0,3,0,0,0,69,0,0,0,90.39,1,-0.003,-0.009,0.0001,0.25,1,0.0001,0,0,0,0,0,0,1,1,0,0,VALID,0,0,0,0,0,1,0,0,0,0,0,0,0,0,0,0,0,0,0,0,187.8,514.28,2,0,0.08,0.08,137,14.29,0.08,0.06,8.92,LANDED,CF1-J,0:/Integrated Flight Computer/aircraft/cf1_j_cfg.ks (inferred preloaded)
9.36,TAKEOFF,TO_GROUND_ROLL,13.68,80,66.32,3.62,-0.08,-0.12,0.18,90.39,0.103,1,0,0,0,0,0,0,0,0,0,0,0,0,0,0,90.39,0,1,0,-0.33,0,0,0,90,0,0,0,0,0,0,0,0,-0.004,0,0,3,0,0,0,69,0,0,0,90.39,1,-0.004,-0.004,0,0.25,1,0,0,0,0,0,0,0,1,1,0,0,VALID,0,0,0,0,0,1,0,0,0,0,0,0,0,0,0,0,0,0,0,0,193.11,513.93,2,0,0.08,0.08,141,14.29,0.08,0.06,9.2,LANDED,CF1-J,0:/Integrated Flight Computer/aircraft/cf1_j_cfg.ks (inferred preloaded)
9.64,TAKEOFF,TO_GROUND_ROLL,14.66,80,65.34,3.62,-0.08,-0.11,0.19,90.39,0.104,1,0,0,0,0,0,0,0,0,0,0,0,0,0,0,90.39,0,1,0,-0.32,0,0,0,90,0,0,0,0,0,0,0,0,-0.004,0,0,3,0,0,0,69,0,0,0,90.39,1,-0.004,-0.001,0,0.25,1,0,0,0,0,0,0,0,1,1,0,0,VALID,0,0,0,0,0,1,0,0,0,0,0,0,0,0,0,0,0,0,0,0,198.32,513.56,2,0,0.08,0.08,145,14.29,0.08,0.06,9.48,LANDED,CF1-J,0:/Integrated Flight Computer/aircraft/cf1_j_cfg.ks (inferred preloaded)
9.92,TAKEOFF,TO_GROUND_ROLL,15.67,80,64.33,3.62,-0.09,-0.11,0.19,90.39,0.106,1,0,0,0,0,0,0,0,0,0,0,0,0,0,0,90.4,0,1,0,-0.32,0,0,0,90,0,0,0,0,0,0,0,0,-0.005,0,0,3,0,0,0,69,0,0,0,90.4,1,-0.005,-0.006,0,0.25,1,0,0,0,0,0,0,0,1,1,0,0,VALID,0,0,0,0,0,1,0,0,0,0,0,0,0,0,0,0,0,0,0,0,203.42,513.17,2,0,0.08,0.08,149,14.29,0.08,0.06,9.76,LANDED,CF1-J,0:/Integrated Flight Computer/aircraft/cf1_j_cfg.ks (inferred preloaded)
10.2,TAKEOFF,TO_GROUND_ROLL,16.7,80,63.3,3.62,-0.09,-0.11,0.19,90.39,0.108,1,0,0,0,0,0,0,0,0,0,0,0,0,0,0,90.39,0,1,0,-0.32,0,0,0,90,0,0,0,0,0,0,0,0,-0.005,0,0,3,0,0,0,69,0,0,0,90.39,1,-0.005,-0.005,0,0.25,1,0,0,0,0,0,0,0,1,1,0,0,VALID,0,0,0,0,0,1,0,0,0,0,0,0,0,0,0,0,0,0,0,0,208.42,512.76,2,0,0.08,0.08,153,14.29,0.08,0.06,10.04,LANDED,CF1-J,0:/Integrated Flight Computer/aircraft/cf1_j_cfg.ks (inferred preloaded)
10.48,TAKEOFF,TO_GROUND_ROLL,17.76,80,62.24,3.62,-0.1,-0.11,0.19,90.39,0.108,1,0,0,0,0,0,0,0,0,0,0,0,0,0,0,90.39,0,1,0,-0.32,0,0,0.01,90,0,0,0,0,0,0,0,0,-0.006,0,0,3,0,0,0,69,0,0,0,90.39,1,-0.006,-0.003,0,0.25,1,0,0,0,0,0,0,0,1,1,0,0,VALID,0,0,0,0,0,1,0,0,0,0,0,0,0,0,0,0,0,0,0,0,213.32,512.33,2,0,0.08,0.08,157,14.29,0.08,0.06,10.32,LANDED,CF1-J,0:/Integrated Flight Computer/aircraft/cf1_j_cfg.ks (inferred preloaded)
10.76,TAKEOFF,TO_GROUND_ROLL,18.84,80,61.16,3.62,-0.11,-0.1,0.2,90.39,0.106,1,0,0,0,0,0,0,0,0,0,0,0,0,0,0,90.39,0,1,0,-0.32,0,0,0.01,90,0,0,0,0,0,0,0,0,-0.007,0,0,3,0,0,0,69,0,0,0,90.39,1,-0.007,-0.002,0,0.25,1,0,0,0,0,0,0,0,1,1,0,0,VALID,0,0,0,0,0,1,0,0,0,0,0,0,0,0,0,0,0,0,0,0,218.11,511.89,2,0,0.08,0.08,161,14.29,0.08,0.06,10.6,LANDED,CF1-J,0:/Integrated Flight Computer/aircraft/cf1_j_cfg.ks (inferred preloaded)
11.04,TAKEOFF,TO_GROUND_ROLL,19.95,80,60.05,3.62,-0.11,-0.1,0.2,90.39,0.105,1,0,0,0,0,0,0,0,0,0,0,0,0,0,0,90.4,0,1,0,-0.32,0,0,0.01,90,0,0,0,0,0,0,0,0,-0.008,0,0,3,0,0,0,69,0,0,0,90.4,1,-0.008,-0.007,0,0.25,1,0,0,0,0,0,0,0,1,1,0,0,VALID,0,0,0,0,0,1,0,0,0,0,0,0,0,0,0,0,0,0,0,0,222.81,511.42,2,0,0.08,0.08,165,14.29,0.08,0.06,10.88,LANDED,CF1-J,0:/Integrated Flight Computer/aircraft/cf1_j_cfg.ks (inferred preloaded)
11.32,TAKEOFF,TO_GROUND_ROLL,21.08,80,58.92,3.63,-0.12,-0.1,0.2,90.38,0.107,1,0,0,0,0,0,0,0,0,0,0,0,0,0,0,90.4,0,1,0,-0.32,0,0,0.01,90,0,0,0,0,0,0,0,0,-0.008,0,0,3,0,0,0,69,0,0,0,90.4,1,-0.008,-0.026,0.0002,0.262,0,0.0002,0,0,0,0,0,0,1,1,0,0,VALID,0,0,0,0,0,1,0,0,0,0,0,0,0,0,0,0,0,0,0,0,227.4,510.94,2,0,0.08,0.08,169,14.29,0.08,0.06,11.16,LANDED,CF1-J,0:/Integrated Flight Computer/aircraft/cf1_j_cfg.ks (inferred preloaded)
11.6,TAKEOFF,TO_GROUND_ROLL,22.23,80,57.77,3.63,-0.12,-0.1,0.2,90.37,0.112,1,0,0,0,0,0,0,0,0,0,0,0,0,0,0,90.39,0,1,0,-0.32,0,0,0.01,90,0,0,0,0,0,0,0,0,-0.009,0,0,3,0,0,0,69,0,0,0,90.39,1,-0.009,-0.028,0.0002,0.274,0,0.0002,0,0,0,0,0,0,1,1,0,0,VALID,0,0,0,0,0,1,0,0,0,0,0,0,0,0,0,0,0,0,0,0,231.9,510.43,2,0,0.08,0.08,173,14.29,0.08,0.06,11.44,LANDED,CF1-J,0:/Integrated Flight Computer/aircraft/cf1_j_cfg.ks (inferred preloaded)
11.88,TAKEOFF,TO_GROUND_ROLL,23.4,80,56.6,3.63,-0.13,-0.1,0.2,90.37,0.111,1,0,0,0,0,0,0,0,0,0,0,0,0,0,0,90.39,0,1,0,-0.32,0,0,0.01,90,0,0,0,0,0,0,0,0,-0.01,0,0,3,0,0,0,69,0,0,0,90.39,1,-0.01,-0.022,0.0002,0.286,0,0.0002,0,0,0,0,0,0,1,1,0,0,VALID,0,0,0,0,0,1,0,0,0,0,0,0,0,0,0,0,0,0,0,0,236.3,509.9,2,0,0.08,0.08,177,14.29,0.08,0.06,11.72,LANDED,CF1-J,0:/Integrated Flight Computer/aircraft/cf1_j_cfg.ks (inferred preloaded)
12.16,TAKEOFF,TO_GROUND_ROLL,24.59,80,55.41,3.63,-0.13,-0.09,0.2,90.37,0.105,1,0,0,0,0,0,0,0,0,0,0,0,0,0,0,90.39,0,1,0,-0.31,0,0,0.01,90,0,0,0,0,0,0,0,0,-0.011,0,0,3,0,0,0,69,0,0,0,90.39,1,-0.011,-0.016,0.0001,0.299,0,0.0001,0,0,0,0,0,0,1,1,0,0,VALID,0,0,0,0,0,1,0,0,0,0,0,0,0,0,0,0,0,0,0,0,240.61,509.36,2,0,0.08,0.08,181,14.29,0.08,0.06,12,LANDED,CF1-J,0:/Integrated Flight Computer/aircraft/cf1_j_cfg.ks (inferred preloaded)
12.44,TAKEOFF,TO_GROUND_ROLL,25.8,80,54.2,3.63,-0.14,-0.09,0.2,90.37,0.099,1,0,0,0,0,0,0,0,0,0,0,0,0,0,0,90.38,0,1,0,-0.32,0,0,0.01,90,0,0,0,0,0,0,0,0,-0.012,0,0,3,0,0,0,69,0,0,0,90.38,1,-0.012,-0.01,0.0001,0.312,0,0.0001,0,0,0,0,0,0,1,1,0,0,VALID,0,0,0,0,0,1,0,0,0,0,0,0,0,0,0,0,0,0,0,0,244.81,508.79,2,0,0.08,0.08,185,14.29,0.08,0.06,12.28,LANDED,CF1-J,0:/Integrated Flight Computer/aircraft/cf1_j_cfg.ks (inferred preloaded)
12.72,TAKEOFF,TO_GROUND_ROLL,27.03,80,52.97,3.63,-0.15,-0.09,0.21,90.38,0.098,1,0,0,0,0,0,0,0,0,0,0,0,0,0,0,90.38,0,1,0,-0.31,0,0,0.01,90,0,0,0,0,0,0,0,0,-0.013,0,0,3,0,0,0,69,0,0,0,90.38,1,-0.013,-0.003,0,0.325,0,0,0,0,0,0,0,0,1,1,0,0,VALID,0,0,0,0,0,1,0,0,0,0,0,0,0,0,0,0,0,0,0,0,248.93,508.2,2,0,0.08,0.08,189,14.29,0.08,0.06,12.56,LANDED,CF1-J,0:/Integrated Flight Computer/aircraft/cf1_j_cfg.ks (inferred preloaded)
13,TAKEOFF,TO_GROUND_ROLL,28.29,80,51.71,3.63,-0.15,-0.09,0.21,90.38,0.102,1,0,0,0,0,0,0,0,0,0,0,0,0,0,0,90.38,0,1,0,-0.31,0,0,0.01,90,0,0,0,0,0,0,0,0,-0.014,0,0,3,0,0,0,69,0,0,0,90.38,1,-0.014,-0.001,0,0.339,0,0,0,0,0,0,0,0,1,1,0,0,VALID,0,0,0,0,0,1,0,0,0,0,0,0,0,0,0,0,0,0,0,0,252.95,507.59,2,0,0.08,0.08,193,14.29,0.08,0.06,12.84,LANDED,CF1-J,0:/Integrated Flight Computer/aircraft/cf1_j_cfg.ks (inferred preloaded)
13.28,TAKEOFF,TO_GROUND_ROLL,29.56,80,50.44,3.63,-0.16,-0.09,0.21,90.38,0.107,1,0,0,0,0,0,0,0,0,0,0,0,0,0,0,90.39,0,1,0,-0.31,0,0,0.01,90,0,0,0,0,0,0,0,0,-0.015,0,0,3,0,0,0,69,0,0,0,90.39,1,-0.015,-0.007,0.0001,0.352,0,0.0001,0,0,0,0,0,0,1,1,0,0,VALID,0,0,0,0,0,1,0,0,0,0,0,0,0,0,0,0,0,0,0,0,256.87,506.96,2,0,0.08,0.08,197,14.29,0.08,0.06,13.12,LANDED,CF1-J,0:/Integrated Flight Computer/aircraft/cf1_j_cfg.ks (inferred preloaded)
13.56,TAKEOFF,TO_GROUND_ROLL,30.85,80,49.15,3.63,-0.17,-0.08,0.21,90.38,0.11,1,0,0,0,0,0,0,0,0,0,0,0,0,0,0,90.39,0,1,0,-0.31,0,0,0.01,90,0,0,0,0,0,0,0,0,-0.016,0,0,3,0,0,0,69,0,0,0,90.39,1,-0.016,-0.012,0.0001,0.366,0,0.0001,0,0,0,0,0,0,1,1,0,0,VALID,0,0,0,0,0,1,0,0,0,0,0,0,0,0,0,0,0,0,0,0,260.71,506.31,2,0,0.08,0.08,201,14.29,0.08,0.06,13.4,LANDED,CF1-J,0:/Integrated Flight Computer/aircraft/cf1_j_cfg.ks (inferred preloaded)
13.84,TAKEOFF,TO_GROUND_ROLL,32.15,80,47.85,3.63,-0.17,-0.08,0.21,90.37,0.111,1,0,0,0,0,0,0,0,0,0,0,0,0,0,0,90.39,0,1,0,-0.31,0,0,0.01,90,0,0,0,0,0,0,0,0,-0.017,0,0,3,0,0,0,69,0,0,0,90.39,1,-0.017,-0.017,0.0002,0.38,0,0.0002,0,0,0,0,0,0,1,1,0,0,VALID,0,0,0,0,0,1,0,0,0,0,0,0,0,0,0,0,0,0,0,0,264.45,505.64,2,0,0.08,0.08,205,14.29,0.08,0.06,13.68,LANDED,CF1-J,0:/Integrated Flight Computer/aircraft/cf1_j_cfg.ks (inferred preloaded)
14.12,TAKEOFF,TO_GROUND_ROLL,33.48,80,46.52,3.63,-0.18,-0.08,0.21,90.37,0.109,1,0,0,0,0,0,0,0,0,0,0,0,0,0,0,90.38,0,1,0,-0.31,0,0,0.01,90,0,0,0,0,0,0,0,0,-0.019,0,0,3,0,0,0,69,0,0,0,90.38,1,-0.019,-0.017,0.0002,0.394,0,0.0002,0,0,0,0,0,0,1,1,0,0,VALID,0,0,0,0,0,1,0,0,0,0,0,0,0,0,0,0,0,0,0,0,268.11,504.95,2,0,0.08,0.08,209,14.29,0.08,0.06,13.96,LANDED,CF1-J,0:/Integrated Flight Computer/aircraft/cf1_j_cfg.ks (inferred preloaded)
14.4,TAKEOFF,TO_GROUND_ROLL,34.82,80,45.18,3.63,-0.19,-0.08,0.22,90.36,0.105,1,0,0,0,0,0,0,0,0,0,0,0,0,0,0,90.38,0,1,0,-0.31,0,0,0.02,90,0,0,0,0,0,0,0,0,-0.02,0,0,3,0,0,0,69,0,0,0,90.38,1,-0.02,-0.017,0.0002,0.409,0,0.0002,0,0,0,0,0,0,1,1,0,0,VALID,0,0,0,0,0,1,0,0,0,0,0,0,0,0,0,0,0,0,0,0,271.67,504.23,2,0,0.08,0.08,213,14.29,0.08,0.06,14.24,LANDED,CF1-J,0:/Integrated Flight Computer/aircraft/cf1_j_cfg.ks (inferred preloaded)
14.68,TAKEOFF,TO_GROUND_ROLL,36.18,80,43.82,3.63,-0.19,-0.07,0.22,90.36,0.102,1,0,0,0,0,0,0,0,0,0,0,0,0,0,0,90.38,0,1,0,-0.31,0,0,0.02,90,0,0,0,0,0,0,0,0,-0.021,0,0,3,0,0,0,69,0,0,0,90.38,1,-0.021,-0.016,0.0002,0.423,0,0.0002,0,0,0,0,0,0,1,1,0,0,VALID,0,0,0,0,0,1,0,0,0,0,0,0,0,0,0,0,0,0,0,0,275.15,503.5,2,0,0.08,0.08,217,14.29,0.08,0.06,14.52,LANDED,CF1-J,0:/Integrated Flight Computer/aircraft/cf1_j_cfg.ks (inferred preloaded)
14.96,TAKEOFF,TO_GROUND_ROLL,37.55,80,42.45,3.63,-0.2,-0.07,0.22,90.36,0.103,1,0,0,0,0,0,0,0,0,0,0,0,0,0,0,90.38,0,1,0,-0.3,0,0,0.02,90,0,0,0,0,0,0,0,0,-0.023,0,0,3,0,0,0,69,0,0,0,90.38,1,-0.023,-0.016,0.0002,0.438,0,0.0002,0,0,0,0,0,0,1,1,0,0,VALID,0,0,0,0,0,1,0,0,0,0,0,0,0,0,0,0,0,0,0,0,278.54,502.75,2,0,0.08,0.08,221,14.29,0.08,0.06,14.8,LANDED,CF1-J,0:/Integrated Flight Computer/aircraft/cf1_j_cfg.ks (inferred preloaded)
15.24,TAKEOFF,TO_GROUND_ROLL,38.94,80,41.06,3.63,-0.21,-0.07,0.22,90.36,0.105,1,0,0,0,0,0,0,0,0,0,0,0,0,0,0,90.38,0,1,0,-0.3,0,0,0.02,90,0,0,0,0,0,0,0,0,-0.024,0,0,3,0,0,0,69,0,0,0,90.38,1,-0.024,-0.016,0.0002,0.453,0,0.0002,0,0,0,0,0,0,1,1,0,0,VALID,0,0,0,0,0,1,0,0,0,0,0,0,0,0,0,0,0,0,0,0,281.85,501.97,2,0,0.08,0.08,225,14.29,0.08,0.06,15.08,LANDED,CF1-J,0:/Integrated Flight Computer/aircraft/cf1_j_cfg.ks (inferred preloaded)
15.52,TAKEOFF,TO_GROUND_ROLL,40.34,80,39.66,3.63,-0.21,-0.07,0.22,90.36,0.106,1,0,0,0,0,0,0,0,0,0,0,0,0,0,0,90.38,0,1,0,-0.3,0,0,0.02,90,0,0,0,0,0,0,0,0,-0.025,0,0,3,0,0,0,69,0,0,0,90.38,1,-0.025,-0.016,0.0002,0.468,0,0.0002,0,0,0,0,0,0,1,1,0,0,VALID,0,0,0,0,0,1,0,0,0,0,0,0,0,0,0,0,0,0,0,0,285.07,501.18,2,0,0.08,0.08,229,14.29,0.08,0.06,15.36,LANDED,CF1-J,0:/Integrated Flight Computer/aircraft/cf1_j_cfg.ks (inferred preloaded)
15.8,TAKEOFF,TO_GROUND_ROLL,41.75,80,38.25,3.63,-0.22,-0.06,0.22,90.36,0.106,1,0,0,0,0,0,0,0,0,0,0,0,0,0,0,90.37,0,1,0,-0.3,0,0,0.02,90,0,0,0,0,0,0,0,0,-0.027,0,0,3,0,0,0,69,0,0,0,90.37,1,-0.027,-0.017,0.0002,0.483,0,0.0002,0,0,0,0,0,0,1,1,0,0,VALID,0,0,0,0,0,1,0,0,0,0,0,0,0,0,0,0,0,0,0,0,288.2,500.36,2,0,0.08,0.08,233,14.29,0.08,0.06,15.64,LANDED,CF1-J,0:/Integrated Flight Computer/aircraft/cf1_j_cfg.ks (inferred preloaded)
16.08,TAKEOFF,TO_GROUND_ROLL,43.18,80,36.82,3.63,-0.22,-0.06,0.22,90.35,0.106,1,0,0,0,0,0,0,0,0,0,0,0,0,0,0,90.37,0,1,0,-0.3,0,0,0.02,90,0,0,0,0,0,0,0,0,-0.028,0,0,3,0,0,0,69,0,0,0,90.37,1,-0.028,-0.02,0.0003,0.498,0,0.0003,0,0,0,0,0,0,1,1,0,0,VALID,0,0,0,0,0,1,0,0,0,0,0,0,0,0,0,0,0,0,0,0,291.25,499.53,2,0,0.08,0.08,237,14.29,0.08,0.06,15.92,LANDED,CF1-J,0:/Integrated Flight Computer/aircraft/cf1_j_cfg.ks (inferred preloaded)
16.36,TAKEOFF,TO_GROUND_ROLL,44.63,80,35.37,3.63,-0.23,-0.06,0.22,90.35,0.107,1,0,0,0,0,0,0,0,0,0,0,0,0,0,0,90.37,0,1,0,-0.3,0,0,0.02,90,0,0,0,0,0,0,0,0,-0.03,0,0,3,0,0,0,69,0,0,0,90.37,1,-0.03,-0.024,0.0003,0.514,0,0.0003,0,0,0,0,0,0,1,1,0,0,VALID,0,0,0,0,0,1,0,0,0,0,0,0,0,0,0,0,0,0,0,0,294.22,498.68,2,0,0.08,0.08,241,14.29,0.08,0.06,16.2,LANDED,CF1-J,0:/Integrated Flight Computer/aircraft/cf1_j_cfg.ks (inferred preloaded)
16.64,TAKEOFF,TO_GROUND_ROLL,46.08,80,33.92,3.63,-0.24,-0.06,0.22,90.34,0.108,1,0,0,0,0,0,0,0,0,0,0,0,0,0,0,90.37,0,1,0,-0.3,0,0,0.02,90,0,0,0,0,0,0,0,0,-0.032,0,0,3,0,0,0,69,0,0,0,90.37,1,-0.032,-0.028,0.0004,0.529,0,0.0004,0,0,0,0,0,0,1,1,0,0,VALID,0,0,0,0,0,1,0,0,0,0,0,0,0,0,0,0,0,0,0,0,297.11,497.81,2,0,0.08,0.08,245,14.29,0.08,0.06,16.48,LANDED,CF1-J,0:/Integrated Flight Computer/aircraft/cf1_j_cfg.ks (inferred preloaded)
16.92,TAKEOFF,TO_GROUND_ROLL,47.55,80,32.45,3.64,-0.24,-0.05,0.23,90.34,0.109,1,0,0,0,0,0,0,0,0,0,0,0,0,0,0,90.37,0,1,0,-0.29,0,0,0.03,90,0,0,0,0,0,0,0,0,-0.033,0,0,3,0,0,0,69,0,0,0,90.37,1,-0.033,-0.033,0.0005,0.545,0,0.0005,0,0,0,0,0,0,1,1,0,0,VALID,0,0,0,0,0,1,0,0,0,0,0,0,0,0,0,0,0,0,0,0,299.93,496.92,2,0,0.08,0.08,249,14.29,0.08,0.06,16.76,LANDED,CF1-J,0:/Integrated Flight Computer/aircraft/cf1_j_cfg.ks (inferred preloaded)
17.2,TAKEOFF,TO_GROUND_ROLL,49.03,80,30.97,3.64,-0.25,-0.05,0.23,90.33,0.11,1,0,0,0,0,0,0,0,0,0,0,0,0,0,0,90.37,0,1,0,-0.29,0,0,0.03,90,0,0,0,0,0,0,0,0,-0.035,0,0,3,0,0,0,69,0,0,0,90.37,1,-0.035,-0.04,0.0006,0.561,0,0.0006,0,0,0,0,0,0,1,1,0,0,VALID,0,0,0,0,0,1,0,0,0,0,0,0,0,0,0,0,0,0,0,0,302.66,496.01,2,0,0.08,0.08,253,14.29,0.08,0.06,17.04,LANDED,CF1-J,0:/Integrated Flight Computer/aircraft/cf1_j_cfg.ks (inferred preloaded)
17.48,TAKEOFF,TO_GROUND_ROLL,50.52,80,29.48,3.64,-0.26,-0.05,0.23,90.32,0.112,1,0,0,0,0,0,0,0,0,0,0,0,0,0,0,90.37,0,1,0,-0.29,0,0,0.03,90,0,0,0,0,0,0,0,0,-0.037,0,0,3,0,0,0,69,0,0,0,90.37,1,-0.037,-0.049,0.0008,0.577,0,0.0008,0,0,0,0,0,0,1,1,0,0,VALID,0,0,0,0,0,1,0,0,0,0,0,0,0,0,0,0,0,0,0,0,305.31,495.09,2,0,0.08,0.08,257,14.29,0.08,0.06,17.32,LANDED,CF1-J,0:/Integrated Flight Computer/aircraft/cf1_j_cfg.ks (inferred preloaded)
17.76,TAKEOFF,TO_GROUND_ROLL,52.02,80,27.98,3.64,-0.26,-0.03,0.24,90.31,0.113,1,0,0,0,0,0,0,0,0,0,0,0,0,0,0,90.37,0,1,0,-0.29,0,0,0.03,90,0,0,0,0,0,0,0,0,-0.038,0,0,3,0,0,0,69,0,0,0,90.37,1,-0.038,-0.059,0.001,0.593,0,0.001,0,0,0,0,0,0,1,1,0,0,VALID,0,0,0,0,0,1,0,0,0,0,0,0,0,0,0,0,0,0,0,0,307.89,494.15,2,0,0.08,0.08,261,14.29,0.08,0.06,17.6,LANDED,CF1-J,0:/Integrated Flight Computer/aircraft/cf1_j_cfg.ks (inferred preloaded)
18.04,TAKEOFF,TO_GROUND_ROLL,53.53,80,26.47,3.65,-0.27,0,0.27,90.3,0.115,1,0,0,0,0,0,0,0,0,0,0,0,0,0,0,90.37,0,1,0,-0.28,0,0,0.03,90,0,0,0,0,0,0,0,0,-0.04,0,0,3,0,0,0,69,0,0,0,90.37,1,-0.04,-0.071,0.0012,0.609,0,0.0012,0,0,0,0,0,0,1,1,0,0,VALID,0,0,0,0,0,1,0,0,0,0,0,0,0,0,0,0,0,0,0,0,310.4,493.19,2,0,0.08,0.08,265,14.29,0.08,0.06,17.88,LANDED,CF1-J,0:/Integrated Flight Computer/aircraft/cf1_j_cfg.ks (inferred preloaded)
18.32,TAKEOFF,TO_GROUND_ROLL,55.05,80,24.95,3.65,-0.27,0.05,0.31,90.29,0.116,1,0,0,0,0,0,0,0,0,0,0,0,0,0,0,90.37,0,1,0,-0.28,0,0,0.03,90,0,0,0,0,0,0,0,0,-0.041,0,0,3,0,0,0,69,0,0,0,90.37,1,-0.041,-0.083,0.0015,0.626,0,0.0015,0,0,0,0,0,0,1,1,0,0,VALID,0,0,0,0,0,1,0,0,0,0,0,0,0,0,0,0,0,0,0,0,312.83,492.21,2,0,0.08,0.08,269,14.29,0.08,0.06,18.16,LANDED,CF1-J,0:/Integrated Flight Computer/aircraft/cf1_j_cfg.ks (inferred preloaded)
18.6,TAKEOFF,TO_GROUND_ROLL,56.58,80,23.42,3.68,-0.18,0.11,0.28,90.27,0.116,1,0,0,0,0,0,0,0,0,0,0,0,0,0,0,90.37,0,1,0,-0.18,0,0,0.03,90,0,0,0,0,0,0,0,0,-0.043,0,0,3,0,0,0,69,0,0,0,90.37,1,-0.043,-0.093,0.0018,0.642,0,0.0018,0,0,0,0,0,0,1,1,0,0,VALID,0,0,0,0,0,1,0,0,0,0,0,0,0,0,0,0,0,0,0,0,315.18,491.22,2,0,0.08,0.08,273,14.29,0.08,0.06,18.44,LANDED,CF1-J,0:/Integrated Flight Computer/aircraft/cf1_j_cfg.ks (inferred preloaded)
18.88,TAKEOFF,TO_GROUND_ROLL,58.12,80,21.88,3.69,-0.29,0.23,0.51,90.26,0.111,1,0,0,0,0,0,0,0,0,0,0,0,0,0,0,90.36,0,1,0,-0.29,0,0,0.04,90,0,0,0,0,0,0,0,0,-0.045,0,0,3,0,0,0,69,0,0,0,90.36,1,-0.045,-0.104,0.0021,0.658,0,0.0021,0,0,0,0,0,0,1,1,0,0,VALID,0,0,0,0,0,1,0,0,0,0,0,0,0,0,0,0,0,0,0,0,317.47,490.22,2,0,0.08,0.08,277,14.29,0.08,0.06,18.72,LANDED,CF1-J,0:/Integrated Flight Computer/aircraft/cf1_j_cfg.ks (inferred preloaded)
19.16,TAKEOFF,TO_GROUND_ROLL,59.67,80,20.33,3.72,-0.29,0.35,0.6,90.25,0.109,1,0,0,0,0,0,0,0,0,0,0,0,0,0,0,90.36,0,1,0,-0.28,0,0,0.04,90,0,0,0,0,0,0,0,0,-0.046,0,0,3,0,0,0,69,0,0,0,90.36,1,-0.046,-0.112,0.0023,0.675,0,0.0023,0,0,0,0,0,0,1,1,0,0,VALID,0,0,0,0,0,1,0,0,0,0,0,0,0,0,0,0,0,0,0,0,319.69,489.2,2,0,0.08,0.08,281,14.29,0.08,0.06,19,LANDED,CF1-J,0:/Integrated Flight Computer/aircraft/cf1_j_cfg.ks (inferred preloaded)
19.44,TAKEOFF,TO_GROUND_ROLL,61.22,80,18.78,3.74,-0.28,0.44,0.69,90.24,0.108,1,0,0,0,0,0,0,0,0,0,0,0,0,0,0,90.36,0,1,0,-0.27,0,0,0.04,90,0,0,0,0,0,0,0,0,-0.048,0,0,3,0,0,0,69,0,0,0,90.36,1,-0.048,-0.118,0.0025,0.692,0,0.0025,0,0,0,0,0,0,1,1,0,0,VALID,0,0,0,0,0,1,0,0,0,0,0,0,0,0,0,0,0,0,0,0,321.84,488.17,2,0,0.08,0.08,285,14.29,0.08,0.06,19.28,LANDED,CF1-J,0:/Integrated Flight Computer/aircraft/cf1_j_cfg.ks (inferred preloaded)
19.72,TAKEOFF,TO_GROUND_ROLL,62.77,80,17.23,3.75,-0.3,0.51,0.77,90.23,0.107,1,0,0,0,0,0,0,0,0,0,0,0,0,0,0,90.36,0,1,0,-0.27,0,0,0.04,90,0,0,0,0,0,0,0,0,-0.049,0,0,3,0,0,0,69,0,0,0,90.36,1,-0.049,-0.123,0.0027,0.708,0,0.0027,0,0,0,0,0,0,1,1,0,0,VALID,0,0,0,0,0,1,0,0,0,0,0,0,0,0,0,0,0,0,0,0,323.92,487.13,2,0,0.08,0.08,289,14.29,0.08,0.06,19.56,LANDED,CF1-J,0:/Integrated Flight Computer/aircraft/cf1_j_cfg.ks (inferred preloaded)
20,TAKEOFF,TO_GROUND_ROLL,64.34,80,15.66,3.75,-0.31,0.55,0.81,90.23,0.104,1,0,0,0,0,0,0,0,0,0,0,0,0,0,0,90.35,0,1,0,-0.27,0,0,0.04,90,0,0,0,0,0,0,0,0,-0.051,0,0,3,0,0,0,69,0,0,0,90.35,1,-0.051,-0.126,0.0029,0.725,0,0.0029,0,0,0,0,0,0,1,1,0,0,VALID,0,0,0,0,0,1,0,0,0,0,0,0,0,0,0,0,0,0,0,0,325.93,486.08,2,0,0.08,0.08,293,14.29,0.08,0.06,19.84,LANDED,CF1-J,0:/Integrated Flight Computer/aircraft/cf1_j_cfg.ks (inferred preloaded)
20.28,TAKEOFF,TO_GROUND_ROLL,65.9,80,14.1,3.76,-0.31,0.58,0.83,90.22,0.102,1,0,0,0,0,0,0,0,0,0,0,0,0,0,0,90.35,0,1,0,-0.27,0,0,0.05,90,0,0,0,0,0,0,0,0,-0.052,0,0,3,0,0,0,69,0,0,0,90.35,1,-0.052,-0.129,0.003,0.742,0,0.003,0,0,0,0,0,0,1,1,0,0,VALID,0,0,0,0,0,1,0,0,0,0,0,0,0,0,0,0,0,0,0,0,327.89,485.02,2,0,0.08,0.08,297,14.29,0.08,0.06,20.12,LANDED,CF1-J,0:/Integrated Flight Computer/aircraft/cf1_j_cfg.ks (inferred preloaded)
20.56,TAKEOFF,TO_GROUND_ROLL,67.48,80,12.52,3.75,0.05,0.6,0.6,90.22,0.101,1,0,0,0,0,0,0,0,0,0,0,0,0,0,0,90.35,0,1,0,0.05,0,0,0.05,90,0,0,0,0,0,0,0,0,-0.053,0,0,3,0,0,0,69,0,0,0,90.35,1,-0.053,-0.133,0.0032,0.759,0,0.0032,0,0,0,0,0,0,1,1,0,0,VALID,0,0,0,0,0,1,0,0,0,0,0,0,0,0,0,0,0,0,0,0,329.78,483.94,2,0,0.08,0.08,301,14.29,0.08,0.06,20.4,LANDED,CF1-J,0:/Integrated Flight Computer/aircraft/cf1_j_cfg.ks (inferred preloaded)
20.86,TAKEOFF,TO_ROTATE,69.17,80,10.83,3.77,-0.46,0.67,1.06,90.21,0.102,1,0,0,0,0,0,0,0,0,0,0,0,0,0,0,90.35,1.017,1,0,-0.41,0,0,0.05,90,0,0,0,0,0,0,0,0,-0.055,0,0,3,0,0,0,69,0,0,0,90.35,1,-0.055,-0.139,0.0034,0.776,0,0.0034,0,0.12,1.017,0.343,0.08,0,1,1,0,0,VALID,0,0,0,0,0,1,0,0,0,0,0,0,0,0,0,0,0,0,0,0,331.73,482.78,2,0,0.08,0.08,305,13.33,0.08,0.06,20.68,LANDED,CF1-J,0:/Integrated Flight Computer/aircraft/cf1_j_cfg.ks (inferred preloaded)
21.14,TAKEOFF,TO_ROTATE,70.75,80,9.25,3.81,-0.32,0.8,1.03,90.21,0.103,1,0,0,0,0,0,0,0,0,0,0,0,0,0,0,90.35,1.857,1,0,-0.24,0,0,0.05,90,0,0,0,0,0,0,0,0,-0.056,0,0,3,0,0,0,69,0,0,0,90.35,1,-0.056,-0.138,0.0035,0.793,0,0.0035,0,0.1649,1.857,1.061,0.08,0,1,1,0,0,VALID,0,0,0,0,0,1,0,0,0,0,0,0,0,0,0,0,0,0,0,0,333.49,481.69,2,0,0.08,0.08,309,14.29,0.08,0.06,20.96,LANDED,CF1-J,0:/Integrated Flight Computer/aircraft/cf1_j_cfg.ks (inferred preloaded)
21.42,TAKEOFF,TO_ROTATE,72.33,80,7.67,3.84,-0.29,1.01,1.24,90.21,0.099,1,0,0,0,0,0,0,0,0,0,0,0,0,0,0,90.34,2.697,1,0,-0.24,0,0,0.05,90,0,0,0,0,0,0,0,0,-0.058,0,0,3,0,0,0,69,0,0,0,90.34,1,-0.058,-0.137,0.0035,0.809,0,0.0035,0,0.215,2.697,1.688,0.08,0,1,1,0,0,VALID,0,0,0,0,0,1,0,0,0,0,0,0,0,0,0,0,0,0,0,0,335.2,480.59,2,0,0.08,0.08,313,14.29,0.08,0.06,21.24,LANDED,CF1-J,0:/Integrated Flight Computer/aircraft/cf1_j_cfg.ks (inferred preloaded)
21.72,TAKEOFF,TO_ROTATE,74.02,80,5.98,3.89,-0.31,1.3,1.53,90.21,0.094,1,0,0,0,0,0,0,0,0,0,0,0,0,0,0,90.34,3.597,1,0,-0.25,0,0,0.06,90,0,0,0,0,0,0,0,0,-0.06,0,0,3,0,0,0,69,0,0,0,90.34,1,-0.06,-0.133,0.0035,0.828,0,0.0035,0,0.2641,3.597,2.302,0.08,0,1,1,0,0,VALID,0,0,0,0,0,1,0,0,0,0,0,0,0,0,0,0,0,0,0,0,336.97,479.41,2,0,0.08,0.08,317,13.33,0.08,0.06,21.54,LANDED,CF1-J,0:/Integrated Flight Computer/aircraft/cf1_j_cfg.ks (inferred preloaded)
22,TAKEOFF,TO_ROTATE,75.59,80,4.41,3.96,-0.28,1.62,1.82,90.21,0.086,1,0,0,0,0,0,0,0,0,0,0,0,0,0,0,90.34,4.437,1,0,-0.21,0,0,0.06,90,0,0,0,0,0,0,0,0,-0.061,0,0,3,0,0,0,69,0,0,0,90.34,1,-0.061,-0.128,0.0034,0.844,0,0.0034,0,0.3053,4.437,2.817,0.08,0,1,1,0,0,VALID,0,0,0,0,0,1,0,0,0,0,0,0,0,0,0,0,0,0,0,0,338.56,478.31,2,0,0.08,0.08,321,14.29,0.08,0.06,21.82,LANDED,CF1-J,0:/Integrated Flight Computer/aircraft/cf1_j_cfg.ks (inferred preloaded)
22.28,TAKEOFF,TO_ROTATE,77.15,80,2.85,4.08,-0.25,2.05,2.19,90.21,0.079,1,0,0,0,0,0,0,0,0,0,0,0,0,0,0,90.33,5.277,1,0,-0.15,0,0,0.06,90,0,0,0,0,0,0,0,0,-0.063,0,0,3,0,0,0,69,0,0,0,90.33,1,-0.063,-0.121,0.0032,0.861,0,0.0032,0,0.3384,5.277,3.23,0.08,0,1,1,0,0,VALID,0,0,0,0,0,1,0,0,0,0,0,0,0,0,0,0,0,0,0,0,340.11,477.2,2,0,0.08,0.08,325,14.29,0.08,0.06,22.1,LANDED,CF1-J,0:/Integrated Flight Computer/aircraft/cf1_j_cfg.ks (inferred preloaded)
22.56,TAKEOFF,TO_ROTATE,78.7,80,1.3,4.23,-0.16,2.85,2.98,90.22,0.08,1,0,0,0,0,0,0,0,0,0,0,0,0,0,0,90.33,6.117,1,0,-0.13,0,0,0.06,90,0,0,0,0,0,0,0,0,-0.064,0,0,3,0,0,0,69,0,0,0,90.33,1,-0.064,-0.117,0.0032,0.878,0,0.0032,0,0.3414,6.117,3.268,0.08,0,1,1,0,0,VALID,0,0,0,0,0,1,0,0,0,0,0,0,0,0,0,0,0,0,0,0,341.61,476.11,2,0,0.08,0.08,329,14.29,0.08,0.06,22.38,LANDED,CF1-J,0:/Integrated Flight Computer/aircraft/cf1_j_cfg.ks (inferred preloaded)
22.84,TAKEOFF,TO_ROTATE,80.21,80,-0.21,4.43,-0.27,3.84,4.03,90.22,0.081,1,0,0,0,0,0,0,0,0,0,0,0,0,0,0,90.33,6.957,1,0,-0.19,0,0,0.06,90,0,0,0,0,0,0,0,0,-0.066,0,0,3,0,0,0,69,0,0,0,90.33,1,-0.066,-0.111,0.003,0.894,0,0.003,0,0.3292,6.957,3.115,0.08,0,1,1,0,0,VALID,0,0,0,0,0,1,0,0,0,0,0,0,0,0,0,0,0,0,0,0,343.08,475.04,2,0,0.08,0.08,333,14.29,0.08,0.06,22.66,LANDED,CF1-J,0:/Integrated Flight Computer/aircraft/cf1_j_cfg.ks (inferred preloaded)
23.12,TAKEOFF,TO_ROTATE,81.67,80,-1.67,4.67,-0.14,5.02,5.12,90.22,0.071,1,0,0,0,0,0,0,0,0,0,0,0,0,0,0,90.33,7.797,1,0,-0.1,0,0,0.07,90,0,0,0,0,0,0,0,0,-0.068,0,0,3,0,0,0,69,0,0,0,90.33,1,-0.068,-0.106,0.0029,0.91,0,0.0029,0,0.3019,7.797,2.774,0.08,0,1,1,0,0,VALID,0,0,0,0,0,1,0,0,0,0,0,0,0,0,0,0,0,0,0,0,344.52,474,2,0,0.08,0.08,337,14.29,0.08,0.06,22.94,LANDED,CF1-J,0:/Integrated Flight Computer/aircraft/cf1_j_cfg.ks (inferred preloaded)
23.38,TAKEOFF,TO_ROTATE,82.96,80,-2.96,4.93,0.23,6.14,5.94,90.22,0.029,1,0,0,0,0,0,0,0,0,0,0,0,0,0,0,90.4,8.637,0,1,0.16,0,0,8.4,90.4,0.1303,-0.0068,0.9914,8.64,90.4,0,0,0,0,0,0,3,0,0,0,69,0,0,0,90.4,1,0,-0.177,0,0,3,0,0,0,8.637,2.502,0,0,1,1,0,0,VALID,0,0,0,0,0,1,0,0,0,0,0,0,0,0,0,0,0,0,0,0,345.85,473.07,2,0,0.08,0.08,341,15.38,0.08,0.06,23.2,FLYING,CF1-J,0:/Integrated Flight Computer/aircraft/cf1_j_cfg.ks (inferred preloaded)
23.66,TAKEOFF,TO_ROTATE,84.29,80,-4.29,5.29,0.95,6.66,6.05,90.22,0.048,1,0,0,0,0,0,0,0,0,0,0,0,0,0,0,90.4,9.477,0,1,0.65,0,0,9.24,90.4,0.1448,-0.0068,0.9894,9.48,90.4,0,0,0,0,0,0,3,0,0,0,69,0,0,0,90.4,1,0,-0.178,0,0,3,0,0,0,9.477,2.814,0,0,1,1,0,0,VALID,0,0,0,0,0,1,0,0,0,0,0,0,0,0,0,0,0,0,0,0,347.26,472.11,2,0,0.08,0.08,345,14.29,0.08,0.06,23.48,FLYING,CF1-J,0:/Integrated Flight Computer/aircraft/cf1_j_cfg.ks (inferred preloaded)
23.94,TAKEOFF,TO_ROTATE,85.59,80,-5.59,5.81,1.68,6.98,5.91,90.23,0.067,1,0,0,0,0,0,0,0,0,0,0,0,0,0,0,90.4,10,0,1,1.13,0,0,10,90.4,0.1538,-0.0067,0.9881,10,90.4,0,0,0,0,0,0,3,0,0,0,69,0,0,0,90.4,1,0,-0.175,0,0,3,0,0,0,10,3.022,0,0,1,1,0,0,VALID,0,0,0,0,0,1,0,0,0,0,0,0,0,0,0,0,0,0,0,0,348.64,471.16,2,0,0.08,0.08,349,14.29,0.08,0.06,23.76,FLYING,CF1-J,0:/Integrated Flight Computer/aircraft/cf1_j_cfg.ks (inferred preloaded)
24.22,TAKEOFF,TO_CLIMB,86.87,80,-6.87,6.54,2.46,7.21,5.67,90.23,0.082,0.944,0,0,0,0,0,0,0,0,0,0,0,0,0,0,90.4,7.333,0,1,1.62,0,0,7.21,90.4,0.1076,-0.0068,0.9942,7.33,90.4,0,0,0,0,0,0,3,0,0,0,69,0,0,0,90.4,1,0,-0.172,0,0,3,0,0,0,10,2.891,0,0,1,1,0,0,VALID,0,0,0,0,0,1,0,0,0,0,0,0,0,0,0,0,0,0,0,0,349.94,470.2,2,0,0.08,0.08,353,14.29,0.08,0.06,24.04,FLYING,CF1-J,0:/Integrated Flight Computer/aircraft/cf1_j_cfg.ks (inferred preloaded)
24.5,TAKEOFF,TO_CLIMB,88.13,80,-8.13,7.47,3.25,7.38,5.37,90.23,0.088,0.8687,0,0,0,0,0,0,0,0,0,0,0,0,0,0,90.4,7.781,0,1,2.11,0,0,7.65,90.4,0.1153,-0.0068,0.9933,7.78,90.4,0,0,0,0,0,0,3,0,0,0,69,0,0,0,90.4,1,0,-0.169,0,0,3,0,0,0,10,2.891,0,0,1,1,0,0,VALID,0,0,0,0,0,1,0,0,0,0,0,0,0,0,0,0,0,0,0,0,350.6,469.24,2,0,0.08,0.08,357,14.29,0.08,0.06,24.32,FLYING,CF1-J,0:/Integrated Flight Computer/aircraft/cf1_j_cfg.ks (inferred preloaded)
24.78,TAKEOFF,TO_CLIMB,89.39,80,-9.39,8.6,4.06,7.33,4.88,90.23,0.1,0.8561,0,0,0,0,0,0,0,0,0,0,0,0,0,0,90.4,8,0,1,2.6,0,0,8,90.4,0.1191,-0.0068,0.9929,8,90.4,0,0,0,0,0,0,3,0,0,0,69,0,0,0,90.4,1,0,-0.167,0,0,3,0,0,0,10,2.891,0,0,1,1,0,0,VALID,0,0,0,0,0,1,0,0,0,0,0,0,0,0,0,0,0,0,0,0,350.8,468.27,2,0,0.08,0.08,361,14.29,0.08,0.06,24.6,FLYING,CF1-J,0:/Integrated Flight Computer/aircraft/cf1_j_cfg.ks (inferred preloaded)
25.06,TAKEOFF,TO_CLIMB,90.65,80,-10.65,9.9,4.66,7.09,4.28,90.24,0.128,0.8435,0,0,0,0,0,0,0,0,0,0,0,0,0,0,90.4,8,0,1,2.94,0,0,8,90.4,0.119,-0.0068,0.9929,8,90.4,0,0,0,0,0,0,3,0,0,0,69,0,0,0,90.4,1,0,-0.162,0,0,3,0,0,0,10,2.891,0,0,1,1,0,0,VALID,0,0,0,0,0,1,0,0,0,0,0,0,0,0,0,0,0,0,0,0,350.87,467.28,2,0,0.08,0.08,365,14.29,0.08,0.06,24.88,FLYING,CF1-J,0:/Integrated Flight Computer/aircraft/cf1_j_cfg.ks (inferred preloaded)
25.34,TAKEOFF,TO_CLIMB,91.92,80,-11.92,11.39,5.22,7.14,4.02,90.24,0.157,0.8308,0,0,0,0,0,0,0,0,0,0,0,0,0,0,90.4,8,0,1,3.25,0,0,8,90.4,0.119,-0.0068,0.9929,8,90.4,0,0,0,0,0,0,3,0,0,0,69,0,0,0,90.4,1,0,-0.156,0,0,3,0,0,0,10,2.891,0,0,1,1,0,0,VALID,0,0,0,0,0,1,0,0,0,0,0,0,0,0,0,0,0,0,0,0,350.82,466.28,2,0,0.08,0.08,369,14.29,0.08,0.06,25.16,FLYING,CF1-J,0:/Integrated Flight Computer/aircraft/cf1_j_cfg.ks (inferred preloaded)
25.62,TAKEOFF,TO_CLIMB,93.19,80,-13.19,13.06,5.79,7.24,3.82,90.25,0.185,0.8181,0,0,0,0,0,0,0,0,0,0,0,0,0,0,90.4,8,0,1,3.56,0,0,8,90.4,0.119,-0.0068,0.9929,8,90.4,0,0,0,0,0,0,3,0,0,0,69,0,0,0,90.4,1,0,-0.15,0,0,3,0,0,0,10,2.891,0,0,1,1,0,0,VALID,0,0,0,0,0,1,0,0,0,0,0,0,0,0,0,0,0,0,0,0,350.64,465.27,2,0,0.08,0.08,373,14.29,0.08,0.06,25.44,FLYING,CF1-J,0:/Integrated Flight Computer/aircraft/cf1_j_cfg.ks (inferred preloaded)
25.9,TAKEOFF,TO_CLIMB,94.44,80,-14.44,14.89,6.39,7.34,3.62,90.26,0.209,0.8056,0,0,0,0,0,0,0,0,0,0,0,0,0,0,90.4,8,0,1,3.87,0,0,8,90.4,0.1189,-0.0068,0.9929,8,90.4,0,0,0,0,0,0,3,0,0,0,69,0,0,0,90.4,1,0,-0.143,0,0,3,0,0,0,10,2.891,0,0,1,1,0,0,VALID,0,0,0,0,0,1,0,0,0,0,0,0,0,0,0,0,0,0,0,0,350.36,464.26,2,0,0.08,0.08,377,14.29,0.08,0.06,25.72,FLYING,CF1-J,0:/Integrated Flight Computer/aircraft/cf1_j_cfg.ks (inferred preloaded)
26.18,TAKEOFF,TO_CLIMB,95.67,80,-15.67,16.87,6.99,7.34,3.33,90.26,0.226,0.7933,0,0,0,0,0,0,0,0,0,0,0,0,0,0,90.4,8,0,1,4.18,0,0,8,90.4,0.1189,-0.0068,0.9929,8,90.4,0,0,0,0,0,0,3,0,0,0,69,0,0,0,90.4,1,0,-0.137,0,0,3,0,0,0,10,2.891,0,0,1,1,0,0,VALID,0,0,0,0,0,1,0,0,0,0,0,0,0,0,0,0,0,0,0,0,349.97,463.24,2,0,0.08,0.08,381,14.29,0.08,0.06,26,FLYING,CF1-J,0:/Integrated Flight Computer/aircraft/cf1_j_cfg.ks (inferred preloaded)
26.46,TAKEOFF,TO_CLIMB,96.91,80,-16.91,19.04,7.54,7.2,2.93,90.27,0.229,0.7809,0,0,0,0,0,0,0,0,0,0,0,0,0,0,90.4,8,0,1,4.45,0,0,8,90.4,0.1188,-0.0068,0.9929,8,90.4,0,0,0,0,0,0,3,0,0,0,69,0,0,0,90.4,1,0,-0.132,0,0,3,0,0,0,10,2.891,0,0,1,1,0,0,VALID,0,0,0,0,0,1,0,0,0,0,0,0,0,0,0,0,0,0,0,0,349.47,462.23,2,0,0.08,0.08,385,14.29,0.08,0.06,26.28,FLYING,CF1-J,0:/Integrated Flight Computer/aircraft/cf1_j_cfg.ks (inferred preloaded)
26.74,TAKEOFF,TO_CLIMB,98.14,80,-18.14,21.28,7.97,6.97,2.51,90.27,0.218,0.78,0,0,0,0,0,0,0,0,0,0,0,0,0,0,90.4,8,0,1,4.64,0,0,8,90.4,0.1188,-0.0068,0.9929,8,90.4,0,0,0,0,0,0,3,0,0,0,69,0,0,0,90.4,1,0,-0.129,0,0,3,0,0,0,10,2.891,0,0,1,1,0,0,VALID,0,0,0,0,0,1,0,0,0,0,0,0,0,0,0,0,0,0,0,0,348.89,461.2,2,0,0.08,0.08,389,14.29,0.08,0.06,26.56,FLYING,CF1-J,0:/Integrated Flight Computer/aircraft/cf1_j_cfg.ks (inferred preloaded)
27.02,TAKEOFF,TO_CLIMB,99.38,80,-19.38,23.64,8.31,6.8,2.2,90.27,0.203,0.78,0,0,0,0,0,0,0,0,0,0,0,0,0,0,90.4,8,0,1,4.78,0,0,8,90.4,0.1187,-0.0068,0.9929,8,90.4,0,0,0,0,0,0,3,0,0,0,69,0,0,0,90.4,1,0,-0.126,0,0,3,0,0,0,10,2.891,0,0,1,1,0,0,VALID,0,0,0,0,0,1,0,0,0,0,0,0,0,0,0,0,0,0,0,0,348.29,460.16,2,0,0.08,0.08,393,14.29,0.08,0.06,26.84,FLYING,CF1-J,0:/Integrated Flight Computer/aircraft/cf1_j_cfg.ks (inferred preloaded)
27.3,TAKEOFF,TO_CLIMB,100.62,80,-20.62,26.1,8.6,6.71,1.99,90.28,0.19,0.78,0,0,0,0,0,0,0,0,0,0,0,0,0,0,90.4,8,0,1,4.89,0,0,8,90.4,0.1187,-0.0068,0.9929,8,90.4,0,0,0,0,0,0,3,0,0,0,69,0,0,0,90.4,1,0,-0.122,0,0,3,0,0,0,10,2.891,0,0,1,1,0,0,VALID,0,0,0,0,0,1,0,0,0,0,0,0,0,0,0,0,0,0,0,0,347.68,459.13,2,0,0.08,0.08,397,14.29,0.08,0.06,27.12,FLYING,CF1-J,0:/Integrated Flight Computer/aircraft/cf1_j_cfg.ks (inferred preloaded)
27.58,TAKEOFF,TO_CLIMB,101.85,80,-21.85,28.65,8.89,6.65,1.83,90.28,0.178,0.78,0,0,0,0,0,0,0,0,0,0,0,0,0,0,90.4,8,0,1,4.99,0,0,8,90.4,0.1186,-0.0068,0.9929,8,90.4,0,0,0,0,0,0,3,0,0,0,69,0,0,0,90.4,1,0,-0.118,0,0,3,0,0,0,10,2.891,0,0,1,1,0,0,VALID,0,0,0,0,0,1,0,0,0,0,0,0,0,0,0,0,0,0,0,0,347.07,458.09,2,0,0.08,0.08,401,14.29,0.08,0.06,27.4,FLYING,CF1-J,0:/Integrated Flight Computer/aircraft/cf1_j_cfg.ks (inferred preloaded)
27.86,TAKEOFF,TO_CLIMB,103.08,80,-23.08,31.28,9.2,6.6,1.68,90.29,0.169,0.78,0,0,0,0,0,0,0,0,0,0,0,0,0,0,90.4,8,0,1,5.1,0,0,8,90.4,0.1186,-0.0068,0.9929,8,90.4,0,0,0,0,0,0,3,0,0,0,69,0,0,0,90.4,1,0,-0.115,0,0,3,0,0,0,10,2.891,0,0,1,1,0,0,VALID,0,0,0,0,0,1,0,0,0,0,0,0,0,0,0,0,0,0,0,0,346.45,457.05,2,0,0.08,0.08,405,14.29,0.08,0.06,27.68,FLYING,CF1-J,0:/Integrated Flight Computer/aircraft/cf1_j_cfg.ks (inferred preloaded)
28.14,TAKEOFF,TO_CLIMB,104.3,80,-24.3,33.99,9.49,6.55,1.53,90.29,0.161,0.78,0,0,0,0,0,0,0,0,0,0,0,0,0,0,90.4,8,0,1,5.2,0,0,8,90.4,0.1185,-0.0068,0.9929,8,90.4,0,0,0,0,0,0,3,0,0,0,69,0,0,0,90.4,1,0,-0.111,0,0,3,0,0,0,10,2.891,0,0,1,1,0,0,VALID,0,0,0,0,0,1,0,0,0,0,0,0,0,0,0,0,0,0,0,0,345.83,456.01,2,0,0.08,0.08,409,14.29,0.08,0.06,27.96,FLYING,CF1-J,0:/Integrated Flight Computer/aircraft/cf1_j_cfg.ks (inferred preloaded)
28.42,TAKEOFF,TO_CLIMB,105.52,80,-25.52,36.79,9.78,6.51,1.39,90.29,0.153,0.78,0,0,0,0,0,0,0,0,0,0,0,0,0,0,90.4,8,0,1,5.29,0,0,8,90.4,0.1185,-0.0068,0.9929,8,90.4,0,0,0,0,0,0,3,0,0,0,69,0,0,0,90.4,1,0,-0.107,0,0,3,0,0,0,10,2.891,0,0,1,1,0,0,VALID,0,0,0,0,0,1,0,0,0,0,0,0,0,0,0,0,0,0,0,0,345.21,454.98,2,0,0.08,0.08,413,14.29,0.08,0.06,28.24,FLYING,CF1-J,0:/Integrated Flight Computer/aircraft/cf1_j_cfg.ks (inferred preloaded)
28.7,TAKEOFF,TO_CLIMB,106.73,80,-26.73,39.66,10.06,6.47,1.26,90.3,0.147,0.78,0,0,0,0,0,0,0,0,0,0,0,0,0,0,90.4,8,0,1,5.39,0,0,8,90.4,0.1184,-0.0068,0.9929,8,90.4,0,0,0,0,0,0,3,0,0,0,69,0,0,0,90.4,1,0,-0.104,0,0,3,0,0,0,10,2.891,0,0,1,1,0,0,VALID,0,0,0,0,0,1,0,0,0,0,0,0,0,0,0,0,0,0,0,0,344.59,453.95,2,0,0.08,0.08,417,14.29,0.08,0.06,28.52,FLYING,CF1-J,0:/Integrated Flight Computer/aircraft/cf1_j_cfg.ks (inferred preloaded)
28.98,TAKEOFF,TO_CLIMB,107.93,80,-27.93,42.62,10.35,6.44,1.14,90.3,0.142,0.78,0,0,0,0,0,0,0,0,0,0,0,0,0,0,90.4,8,0,1,5.48,0,0,8,90.4,0.1184,-0.0068,0.9929,8,90.4,0,0,0,0,0,0,3,0,0,0,69,0,0,0,90.4,1,0,-0.101,0,0,3,0,0,0,10,2.891,0,0,1,1,0,0,VALID,0,0,0,0,0,1,0,0,0,0,0,0,0,0,0,0,0,0,0,0,343.97,452.92,2,0,0.08,0.08,421,14.29,0.08,0.06,28.8,FLYING,CF1-J,0:/Integrated Flight Computer/aircraft/cf1_j_cfg.ks (inferred preloaded)
29.26,TAKEOFF,TO_CLIMB,109.12,80,-29.12,45.65,10.63,6.37,0.99,90.3,0.136,0.78,0,0,0,0,0,0,0,0,0,0,0,0,0,0,90.4,8,0,1,5.56,0,0,8,90.4,0.1183,-0.0068,0.993,8,90.4,0,0,0,0,0,0,3,0,0,0,69,0,0,0,90.4,1,0,-0.098,0,0,3,0,0,0,10,2.891,0,0,1,1,0,0,VALID,0,0,0,0,0,1,0,0,0,0,0,0,0,0,0,0,0,0,0,0,343.35,451.89,2,0,0.08,0.08,425,14.29,0.08,0.06,29.08,FLYING,CF1-J,0:/Integrated Flight Computer/aircraft/cf1_j_cfg.ks (inferred preloaded)
29.54,TAKEOFF,TO_CLIMB,110.31,80,-30.31,48.76,10.89,6.32,0.86,90.3,0.13,0.78,0,0,0,0,0,0,0,0,0,0,0,0,0,0,90.4,8,0,1,5.64,0,0,8,90.4,0.1183,-0.0068,0.993,8,90.4,0,0,0,0,0,0,3,0,0,0,69,0,0,0,90.4,1,0,-0.095,0,0,3,0,0,0,10,2.891,0,0,1,1,0,0,VALID,0,0,0,0,0,1,0,0,0,0,0,0,0,0,0,0,0,0,0,0,342.72,450.87,2,0,0.08,0.08,429,14.29,0.08,0.06,29.36,FLYING,CF1-J,0:/Integrated Flight Computer/aircraft/cf1_j_cfg.ks (inferred preloaded)
29.82,TAKEOFF,TO_CLIMB,111.49,80,-31.49,51.94,11.15,6.28,0.75,90.31,0.124,0.78,0,0,0,0,0,0,0,0,0,0,0,0,0,0,90.4,8,0,1,5.71,0,0,8,90.4,0.1182,-0.0068,0.993,8,90.4,0,0,0,0,0,0,3,0,0,0,69,0,0,0,90.4,1,0,-0.092,0,0,3,0,0,0,10,2.891,0,0,1,1,0,0,VALID,0,0,0,0,0,1,0,0,0,0,0,0,0,0,0,0,0,0,0,0,342.1,449.85,2,0,0.08,0.08,433,14.29,0.08,0.06,29.64,FLYING,CF1-J,0:/Integrated Flight Computer/aircraft/cf1_j_cfg.ks (inferred preloaded)
30.1,TAKEOFF,TO_CLIMB,112.66,80,-32.66,55.19,11.41,6.25,0.64,90.31,0.12,0.78,0,0,0,0,0,0,0,0,0,0,0,0,0,0,90.4,8,0,1,5.78,0,0,8,90.4,0.1182,-0.0068,0.993,8,90.4,0,0,0,0,0,0,3,0,0,0,69,0,0,0,90.4,1,0,-0.089,0,0,3,0,0,0,10,2.891,0,0,1,1,0,0,VALID,0,0,0,0,0,1,0,0,0,0,0,0,0,0,0,0,0,0,0,0,341.47,448.84,2,0,0.08,0.08,437,14.29,0.08,0.06,29.92,FLYING,CF1-J,0:/Integrated Flight Computer/aircraft/cf1_j_cfg.ks (inferred preloaded)
30.38,TAKEOFF,TO_CLIMB,113.83,80,-33.83,58.52,11.66,6.21,0.54,90.31,0.116,0.78,0,0,0,0,0,0,0,0,0,0,0,0,0,0,90.4,8,0,1,5.85,0,0,8,90.4,0.1181,-0.0068,0.993,8,90.4,0,0,0,0,0,0,3,0,0,0,69,0,0,0,90.4,1,0,-0.087,0,0,3,0,0,0,10,2.891,0,0,1,1,0,0,VALID,0,0,0,0,0,1,0,0,0,0,0,0,0,0,0,0,0,0,0,0,340.85,447.83,2,0,0.08,0.08,441,14.29,0.08,0.06,30.2,FLYING,CF1-J,0:/Integrated Flight Computer/aircraft/cf1_j_cfg.ks (inferred preloaded)
30.66,TAKEOFF,TO_CLIMB,114.99,80,-34.99,61.91,11.92,6.18,0.44,90.32,0.112,0.78,0,0,0,0,0,0,0,0,0,0,0,0,0,0,90.4,8,0,1,5.92,0,0,8,90.4,0.1181,-0.0068,0.993,8,90.4,0,0,0,0,0,0,3,0,0,0,69,0,0,0,90.4,1,0,-0.084,0,0,3,0,0,0,10,2.891,0,0,1,1,0,0,VALID,0,0,0,0,0,1,0,0,0,0,0,0,0,0,0,0,0,0,0,0,340.22,446.82,2,0,0.08,0.08,445,14.29,0.08,0.06,30.48,FLYING,CF1-J,0:/Integrated Flight Computer/aircraft/cf1_j_cfg.ks (inferred preloaded)
30.94,TAKEOFF,TO_CLIMB,116.14,80,-36.14,65.37,12.17,6.16,0.35,90.32,0.111,0.78,0,0,0,0,0,0,0,0,0,0,0,0,0,0,90.4,8,0,1,5.98,0,0,8,90.4,0.118,-0.0068,0.993,8,90.4,0,0,0,0,0,0,3,0,0,0,69,0,0,0,90.4,1,0,-0.082,0,0,3,0,0,0,10,2.891,0,0,1,1,0,0,VALID,0,0,0,0,0,1,0,0,0,0,0,0,0,0,0,0,0,0,0,0,339.6,445.82,2,0,0.08,0.08,449,14.29,0.08,0.06,30.76,FLYING,CF1-J,0:/Integrated Flight Computer/aircraft/cf1_j_cfg.ks (inferred preloaded)
31.22,TAKEOFF,TO_CLIMB,117.28,80,-37.28,68.91,12.42,6.13,0.26,90.32,0.11,0.78,0,0,0,0,0,0,0,0,0,0,0,0,0,0,90.4,8,0,1,6.05,0,0,8,90.4,0.1179,-0.0068,0.993,8,90.4,0,0,0,0,0,0,3,0,0,0,69,0,0,0,90.4,1,0,-0.079,0,0,3,0,0,0,10,2.891,0,0,1,1,0,0,VALID,0,0,0,0,0,1,0,0,0,0,0,0,0,0,0,0,0,0,0,0,338.98,444.82,2,0,0.08,0.08,453,14.29,0.08,0.06,31.04,FLYING,CF1-J,0:/Integrated Flight Computer/aircraft/cf1_j_cfg.ks (inferred preloaded)
31.5,TAKEOFF,TO_CLIMB,118.41,80,-38.41,72.52,12.68,6.11,0.17,90.32,0.108,0.78,0,0,0,0,0,0,0,0,0,0,0,0,0,0,90.4,8,0,1,6.11,0,0,8,90.4,0.1179,-0.0068,0.993,8,90.4,0,0,0,0,0,0,3,0,0,0,69,0,0,0,90.4,1,0,-0.077,0,0,3,0,0,0,10,2.891,0,0,1,1,0,0,VALID,0,0,0,0,0,1,0,0,0,0,0,0,0,0,0,0,0,0,0,0,338.36,443.83,2,0,0.08,0.08,457,14.29,0.08,0.06,31.32,FLYING,CF1-J,0:/Integrated Flight Computer/aircraft/cf1_j_cfg.ks (inferred preloaded)
31.78,TAKEOFF,TO_CLIMB,119.54,80,-39.54,76.19,12.93,6.08,0.08,90.33,0.105,0.78,0,0,0,0,0,0,0,0,0,0,0,0,0,0,90.4,8,0,1,6.17,0,0,8,90.4,0.1178,-0.0068,0.993,8,90.4,0,0,0,0,0,0,3,0,0,0,69,0,0,0,90.4,1,0,-0.074,0,0,3,0,0,0,10,2.891,0,0,1,1,0,0,VALID,0,0,0,0,0,1,0,0,0,0,0,0,0,0,0,0,0,0,0,0,337.74,442.85,2,0,0.08,0.08,461,14.29,0.08,0.06,31.6,FLYING,CF1-J,0:/Integrated Flight Computer/aircraft/cf1_j_cfg.ks (inferred preloaded)
32.06,TAKEOFF,TO_CLIMB,120.66,80,-40.66,79.94,13.17,6.05,0,90.33,0.102,0.78,0,0,0,0,0,0,0,0,0,0,0,0,0,0,90.4,8,0,1,6.23,0,0,8,90.4,0.1178,-0.0068,0.993,8,90.4,0,0,0,0,0,0,3,0,0,0,69,0,0,0,90.4,1,0,-0.072,0,0,3,0,0,0,10,2.891,0,0,1,1,0,0,VALID,0,0,0,0,0,1,0,0,0,0,0,0,0,0,0,0,0,0,0,0,337.12,441.87,2,0,0.08,0.08,465,14.29,0.08,0.06,31.88,FLYING,CF1-J,0:/Integrated Flight Computer/aircraft/cf1_j_cfg.ks (inferred preloaded)
32.34,TAKEOFF,TO_CLIMB,121.77,80,-41.77,83.75,13.42,6.05,-0.06,90.33,0.102,0.78,0,0,0,0,0,0,0,0,0,0,0,0,0,0,90.4,8,0,1,6.29,0,0,8,90.4,0.1177,-0.0068,0.993,8,90.4,0,0,0,0,0,0,3,0,0,0,69,0,0,0,90.4,1,0,-0.07,0,0,3,0,0,0,10,2.891,0,0,1,1,0,0,VALID,0,0,0,0,0,1,0,0,0,0,0,0,0,0,0,0,0,0,0,0,336.5,440.9,2,0,0.08,0.08,469,14.29,0.08,0.06,32.16,FLYING,CF1-J,0:/Integrated Flight Computer/aircraft/cf1_j_cfg.ks (inferred preloaded)
32.62,TAKEOFF,TO_CLIMB,122.86,80,-42.86,87.64,13.68,6.04,-0.13,90.33,0.101,0.78,0,0,0,0,0,0,0,0,0,0,0,0,0,0,90.4,8,0,1,6.35,0,0,8,90.4,0.1177,-0.0068,0.993,8,90.4,0,0,0,0,0,0,3,0,0,0,69,0,0,0,90.4,1,0,-0.067,0,0,3,0,0,0,10,2.891,0,0,1,1,0,0,VALID,0,0,0,0,0,1,0,0,0,0,0,0,0,0,0,0,0,0,0,0,335.89,439.93,2,0,0.08,0.08,473,14.29,0.08,0.06,32.44,FLYING,CF1-J,0:/Integrated Flight Computer/aircraft/cf1_j_cfg.ks (inferred preloaded)
32.9,TAKEOFF,TO_CLIMB,123.95,80,-43.95,91.59,13.93,6.03,-0.21,90.33,0.099,0.78,0,0,0,0,0,0,0,0,0,0,0,0,0,0,90.4,8,0,1,6.41,0,0,8,90.4,0.1176,-0.0068,0.993,8,90.4,0,0,0,0,0,0,3,0,0,0,69,0,0,0,90.4,1,0,-0.065,0,0,3,0,0,0,10,2.891,0,0,1,1,0,0,VALID,0,0,0,0,0,1,0,0,0,0,0,0,0,0,0,0,0,0,0,0,335.28,438.97,2,0,0.08,0.08,477,14.29,0.08,0.06,32.72,FLYING,CF1-J,0:/Integrated Flight Computer/aircraft/cf1_j_cfg.ks (inferred preloaded)
33.18,TAKEOFF,TO_CLIMB,125.04,80,-45.04,95.61,14.18,6.01,-0.29,90.34,0.099,0.78,0,0,0,0,0,0,0,0,0,0,0,0,0,0,90.4,8,0,1,6.47,0,0,8,90.4,0.1175,-0.0068,0.993,8,90.4,0,0,0,0,0,0,3,0,0,0,69,0,0,0,90.4,1,0,-0.063,0,0,3,0,0,0,10,2.891,0,0,1,1,0,0,VALID,0,0,0,0,0,1,0,0,0,0,0,0,0,0,0,0,0,0,0,0,334.67,438.02,2,0,0.08,0.08,481,14.29,0.08,0.06,33,FLYING,CF1-J,0:/Integrated Flight Computer/aircraft/cf1_j_cfg.ks (inferred preloaded)
33.46,TAKEOFF,TO_CLIMB,126.11,80,-46.11,99.71,14.44,6,-0.35,90.34,0.098,0.78,0,0,0,0,0,0,0,0,0,0,0,0,0,0,90.4,8,0,1,6.53,0,0,8,90.4,0.1175,-0.0068,0.9931,8,90.4,0,0,0,0,0,0,3,0,0,0,69,0,0,0,90.4,1,0,-0.061,0,0,3,0,0,0,10,2.891,0,0,1,1,0,0,VALID,0,0,0,0,0,1,0,0,0,0,0,0,0,0,0,0,0,0,0,0,334.06,437.07,2,0,0.08,0.08,485,14.29,0.08,0.06,33.28,FLYING,CF1-J,0:/Integrated Flight Computer/aircraft/cf1_j_cfg.ks (inferred preloaded)
33.74,TAKEOFF,TO_CLIMB,127.17,80,-47.17,103.87,14.68,5.99,-0.42,90.34,0.097,0.78,0,0,0,0,0,0,0,0,0,0,0,0,0,0,90.4,8,0,1,6.59,0,0,8,90.4,0.1174,-0.0068,0.9931,8,90.4,0,0,0,0,0,0,3,0,0,0,69,0,0,0,90.4,1,0,-0.059,0,0,3,0,0,0,10,2.891,0,0,1,1,0,0,VALID,0,0,0,0,0,1,0,0,0,0,0,0,0,0,0,0,0,0,0,0,333.46,436.13,2,0,0.08,0.08,489,14.29,0.08,0.06,33.56,FLYING,CF1-J,0:/Integrated Flight Computer/aircraft/cf1_j_cfg.ks (inferred preloaded)
34.02,TAKEOFF,TO_CLIMB,128.23,80,-48.23,108.09,14.93,5.98,-0.49,90.34,0.096,0.78,0,0,0,0,0,0,0,0,0,0,0,0,0,0,90.4,8,0,1,6.64,0,0,8,90.4,0.1174,-0.0068,0.9931,8,90.4,0,0,0,0,0,0,3,0,0,0,69,0,0,0,90.4,1,0,-0.056,0,0,3,0,0,0,10,2.891,0,0,1,1,0,0,VALID,0,0,0,0,0,1,0,0,0,0,0,0,0,0,0,0,0,0,0,0,332.86,435.19,2,0,0.08,0.08,493,14.29,0.08,0.06,33.84,FLYING,CF1-J,0:/Integrated Flight Computer/aircraft/cf1_j_cfg.ks (inferred preloaded)
34.3,TAKEOFF,TO_CLIMB,129.27,80,-49.27,112.39,15.17,5.97,-0.55,90.35,0.095,0.78,0,0,0,0,0,0,0,0,0,0,0,0,0,0,90.4,8,0,1,6.69,0,0,8,90.4,0.1173,-0.0068,0.9931,8,90.4,0,0,0,0,0,0,3,0,0,0,69,0,0,0,90.4,1,0,-0.054,0,0,3,0,0,0,10,2.891,0,0,1,1,0,0,VALID,0,0,0,0,0,1,0,0,0,0,0,0,0,0,0,0,0,0,0,0,332.26,434.27,2,0,0.08,0.08,497,14.29,0.08,0.06,34.12,FLYING,CF1-J,0:/Integrated Flight Computer/aircraft/cf1_j_cfg.ks (inferred preloaded)
34.58,TAKEOFF,TO_CLIMB,130.31,80,-50.31,116.75,15.41,5.95,-0.62,90.35,0.094,0.78,0,0,0,0,0,0,0,0,0,0,0,0,0,0,90.4,8,0,1,6.74,0,0,8,90.4,0.1172,-0.0068,0.9931,8,90.4,0,0,0,0,0,0,3,0,0,0,69,0,0,0,90.4,1,0,-0.052,0,0,3,0,0,0,10,2.891,0,0,1,1,0,0,VALID,0,0,0,0,0,1,0,0,0,0,0,0,0,0,0,0,0,0,0,0,331.66,433.35,2,0,0.08,0.08,501,14.29,0.08,0.06,34.4,FLYING,CF1-J,0:/Integrated Flight Computer/aircraft/cf1_j_cfg.ks (inferred preloaded)
34.86,TAKEOFF,TO_CLIMB,131.34,80,-51.34,121.16,15.64,5.95,-0.67,90.35,0.092,0.78,0,0,0,0,0,0,0,0,0,0,0,0,0,0,90.4,8,0,1,6.79,0,0,8,90.4,0.1172,-0.0068,0.9931,8,90.4,0,0,0,0,0,0,3,0,0,0,69,0,0,0,90.4,1,0,-0.05,0,0,3,0,0,0,10,2.891,0,0,1,1,0,0,VALID,0,0,0,0,0,1,0,0,0,0,0,0,0,0,0,0,0,0,0,0,331.07,432.43,2,0,0.08,0.08,505,14.29,0.08,0.06,34.68,FLYING,CF1-J,0:/Integrated Flight Computer/aircraft/cf1_j_cfg.ks (inferred preloaded)
35.14,TAKEOFF,TO_CLIMB,132.36,80,-52.36,125.66,15.89,5.96,-0.71,90.35,0.092,0.78,0,0,0,0,0,0,0,0,0,0,0,0,0,0,90.4,8,0,1,6.84,0,0,8,90.4,0.1171,-0.0068,0.9931,8,90.4,0,0,0,0,0,0,3,0,0,0,69,0,0,0,90.4,1,0,-0.048,0,0,3,0,0,0,10,2.891,0,0,1,1,0,0,VALID,0,0,0,0,0,1,0,0,0,0,0,0,0,0,0,0,0,0,0,0,330.48,431.52,2,0,0.08,0.08,509,14.29,0.08,0.06,34.96,FLYING,CF1-J,0:/Integrated Flight Computer/aircraft/cf1_j_cfg.ks (inferred preloaded)
35.42,TAKEOFF,TO_CLIMB,133.37,80,-53.37,130.22,16.14,5.95,-0.77,90.35,0.091,0.78,0,0,0,0,0,0,0,0,0,0,0,0,0,0,90.4,8,0,1,6.9,0,0,8,90.4,0.117,-0.0068,0.9931,8,90.4,0,0,0,0,0,0,3,0,0,0,69,0,0,0,90.4,1,0,-0.046,0,0,3,0,0,0,10,2.891,0,0,1,1,0,0,VALID,0,0,0,0,0,1,0,0,0,0,0,0,0,0,0,0,0,0,0,0,329.89,430.62,2,0,0.08,0.08,513,14.29,0.08,0.06,35.24,FLYING,CF1-J,0:/Integrated Flight Computer/aircraft/cf1_j_cfg.ks (inferred preloaded)
35.7,TAKEOFF,TO_CLIMB,134.37,80,-54.37,134.84,16.38,5.96,-0.81,90.36,0.091,0.78,0,0,0,0,0,0,0,0,0,0,0,0,0,0,90.4,8,0,1,6.95,0,0,8,90.4,0.117,-0.0068,0.9931,8,90.4,0,0,0,0,0,0,3,0,0,0,69,0,0,0,90.4,1,0,-0.044,0,0,3,0,0,0,10,2.891,0,0,1,1,0,0,VALID,0,0,0,0,0,1,0,0,0,0,0,0,0,0,0,0,0,0,0,0,329.3,429.73,2,0,0.08,0.08,517,14.29,0.08,0.06,35.52,FLYING,CF1-J,0:/Integrated Flight Computer/aircraft/cf1_j_cfg.ks (inferred preloaded)
35.98,TAKEOFF,TO_CLIMB,135.36,80,-55.36,139.54,16.64,5.98,-0.85,90.36,0.09,0.78,0,0,0,0,0,0,0,0,0,0,0,0,0,0,90.4,8,0,1,7.01,0,0,8,90.4,0.1169,-0.0068,0.9931,8,90.4,0,0,0,0,0,0,3,0,0,0,69,0,0,0,90.4,1,0,-0.042,0,0,3,0,0,0,10,2.891,0,0,1,1,0,0,VALID,0,0,0,0,0,1,0,0,0,0,0,0,0,0,0,0,0,0,0,0,328.72,428.84,2,0,0.08,0.08,521,14.29,0.08,0.06,35.8,FLYING,CF1-J,0:/Integrated Flight Computer/aircraft/cf1_j_cfg.ks (inferred preloaded)
36.26,TAKEOFF,TO_CLIMB,136.34,80,-56.34,144.31,16.91,5.98,-0.9,90.36,0.091,0.78,0,0,0,0,0,0,0,0,0,0,0,0,0,0,90.4,8,0,1,7.07,0,0,8,90.4,0.1169,-0.0068,0.9931,8,90.4,0,0,0,0,0,0,3,0,0,0,69,0,0,0,90.4,1,0,-0.041,0,0,3,0,0,0,10,2.891,0,0,1,1,0,0,VALID,0,0,0,0,0,1,0,0,0,0,0,0,0,0,0,0,0,0,0,0,328.14,427.96,2,0,0.08,0.08,525,14.29,0.08,0.06,36.08,FLYING,CF1-J,0:/Integrated Flight Computer/aircraft/cf1_j_cfg.ks (inferred preloaded)
36.54,TAKEOFF,TO_CLIMB,137.32,80,-57.32,149.15,17.16,5.99,-0.95,90.36,0.091,0.78,0,0,0,0,0,0,0,0,0,0,0,0,0,0,90.4,8,0,1,7.12,0,0,8,90.4,0.1168,-0.0068,0.9931,8,90.4,0,0,0,0,0,0,3,0,0,0,69,0,0,0,90.4,1,0,-0.039,0,0,3,0,0,0,10,2.891,0,0,1,1,0,0,VALID,0,0,0,0,0,1,0,0,0,0,0,0,0,0,0,0,0,0,0,0,327.57,427.09,2,0,0.08,0.08,529,14.29,0.08,0.06,36.36,FLYING,CF1-J,0:/Integrated Flight Computer/aircraft/cf1_j_cfg.ks (inferred preloaded)
36.82,TAKEOFF,TO_CLIMB,138.28,80,-58.28,154.05,17.41,5.99,-1.01,90.36,0.091,0.78,0,0,0,0,0,0,0,0,0,0,0,0,0,0,90.4,8,0,1,7.18,0,0,8,90.4,0.1167,-0.0068,0.9931,8,90.4,0,0,0,0,0,0,3,0,0,0,69,0,0,0,90.4,1,0,-0.037,0,0,3,0,0,0,10,2.891,0,0,1,1,0,0,VALID,0,0,0,0,0,1,0,0,0,0,0,0,0,0,0,0,0,0,0,0,327,426.22,2,0,0.08,0.08,533,14.29,0.08,0.06,36.64,FLYING,CF1-J,0:/Integrated Flight Computer/aircraft/cf1_j_cfg.ks (inferred preloaded)
37.1,TAKEOFF,TO_CLIMB,139.24,80,-59.24,159.01,17.66,6,-1.05,90.37,0.091,0.78,0,0,0,0,0,0,0,0,0,0,0,0,0,0,90.4,8,0,1,7.23,0,0,8,90.4,0.1167,-0.0068,0.9931,8,90.4,0,0,0,0,0,0,3,0,0,0,69,0,0,0,90.4,1,0,-0.035,0,0,3,0,0,0,10,2.891,0,0,1,1,0,0,VALID,0,0,0,0,0,1,0,0,0,0,0,0,0,0,0,0,0,0,0,0,326.43,425.36,2,0,0.08,0.08,537,14.29,0.08,0.06,36.92,FLYING,CF1-J,0:/Integrated Flight Computer/aircraft/cf1_j_cfg.ks (inferred preloaded)
37.38,TAKEOFF,TO_CLIMB,140.18,80,-60.18,164.05,17.91,6,-1.11,90.37,0.09,0.78,0,0,0,0,0,0,0,0,0,0,0,0,0,0,90.4,8,0,1,7.28,0,0,8,90.4,0.1166,-0.0068,0.9932,8,90.4,0,0,0,0,0,0,3,0,0,0,69,0,0,0,90.4,1,0,-0.033,0,0,3,0,0,0,10,2.891,0,0,1,1,0,0,VALID,0,0,0,0,0,1,0,0,0,0,0,0,0,0,0,0,0,0,0,0,325.86,424.51,2,0,0.08,0.08,541,14.29,0.08,0.06,37.2,FLYING,CF1-J,0:/Integrated Flight Computer/aircraft/cf1_j_cfg.ks (inferred preloaded)
37.66,TAKEOFF,TO_CLIMB,141.12,80,-61.12,169.15,18.15,5.99,-1.16,90.37,0.087,0.78,0,0,0,0,0,0,0,0,0,0,0,0,0,0,90.4,8,0,1,7.33,0,0,8,90.4,0.1165,-0.0068,0.9932,8,90.4,0,0,0,0,0,0,3,0,0,0,69,0,0,0,90.4,1,0,-0.031,0,0,3,0,0,0,10,2.891,0,0,1,1,0,0,VALID,0,0,0,0,0,1,0,0,0,0,0,0,0,0,0,0,0,0,0,0,325.3,423.66,2,0,0.08,0.08,545,14.29,0.08,0.06,37.48,FLYING,CF1-J,0:/Integrated Flight Computer/aircraft/cf1_j_cfg.ks (inferred preloaded)
37.94,TAKEOFF,TO_CLIMB,142.05,80,-62.05,174.32,18.37,5.98,-1.21,90.37,0.084,0.78,0,0,0,0,0,0,0,0,0,0,0,0,0,0,90.4,8,0,1,7.37,0,0,8,90.4,0.1165,-0.0068,0.9932,8,90.4,0,0,0,0,0,0,3,0,0,0,69,0,0,0,90.4,1,0,-0.029,0,0,3,0,0,0,10,2.891,0,0,1,1,0,0,VALID,0,0,0,0,0,1,0,0,0,0,0,0,0,0,0,0,0,0,0,0,324.74,422.82,2,0,0.08,0.08,549,14.29,0.08,0.06,37.76,FLYING,CF1-J,0:/Integrated Flight Computer/aircraft/cf1_j_cfg.ks (inferred preloaded)
38.22,TAKEOFF,TO_CLIMB,142.97,80,-62.97,179.57,18.59,5.98,-1.25,90.37,0.08,0.78,0,0,0,0,0,0,0,0,0,0,0,0,0,0,90.4,8,0,1,7.41,0,0,8,90.4,0.1164,-0.0068,0.9932,8,90.4,0,0,0,0,0,0,3,0,0,0,69,0,0,0,90.4,1,0,-0.028,0,0,3,0,0,0,10,2.891,0,0,1,1,0,0,VALID,0,0,0,0,0,1,0,0,0,0,0,0,0,0,0,0,0,0,0,0,324.19,421.99,2,0,0.08,0.08,553,14.29,0.08,0.06,38.04,FLYING,CF1-J,0:/Integrated Flight Computer/aircraft/cf1_j_cfg.ks (inferred preloaded)
38.5,TAKEOFF,TO_CLIMB,143.88,80,-63.88,184.88,18.8,5.97,-1.29,90.37,0.076,0.78,0,0,0,0,0,0,0,0,0,0,0,0,0,0,90.4,8,0,1,7.45,0,0,8,90.4,0.1163,-0.0068,0.9932,8,90.4,0,0,0,0,0,0,3,0,0,0,69,0,0,0,90.4,1,0,-0.026,0,0,3,0,0,0,10,2.891,0,0,1,1,0,0,VALID,0,0,0,0,0,1,0,0,0,0,0,0,0,0,0,0,0,0,0,0,323.64,421.16,2,0,0.08,0.08,557,14.29,0.08,0.06,38.32,FLYING,CF1-J,0:/Integrated Flight Computer/aircraft/cf1_j_cfg.ks (inferred preloaded)
