t_s,phase,subphase,ias_ms,vapp_ms,spd_err_ms,agl_m,vs_ms,pitch_deg,aoa_deg,hdg_deg,bank_deg,thr_cmd,thr_cur,thr_intg,at_gain,at_tau_s,at_a_up,at_a_dn,at_kp_thr,at_ki_spd,at_thr_slew,aa_hdg_cmd_deg,aa_fpa_cmd_deg,ils_loc_m,ils_gs_m,ils_dist_km,loc_corr_deg,gs_corr_deg,flare_fpa_cmd,flare_tgt_vs,flare_frac,steer_hdg_deg,steer_blend,ro_loc_corr_deg,ro_hdg_err_deg,ro_yaw_tgt,ro_yaw_scale,ro_yaw_gate,yaw_cmd,roll_cmd,pitch_cmd,ro_pitch_tgt_deg,ro_pitch_err_deg,ro_pitch_ff,ro_roll_assist,flaps_cur,flaps_tgt,asc_j_ab,asc_j_rk,asc_validity,asc_q_pa,asc_q_raw_pa,asc_mach,asc_apo_m,asc_drag_n,asc_w_prop,asc_edot_aero,asc_edot_orb,asc_pitch_bias,asc_blend,asc_spooling,asc_ab_thr_ratio,asc_ab_t_now,asc_ab_t_avail,asc_ab_ign_on,asc_ab_flameouts,asc_rk_t_now,asc_rk_t_avail,asc_rk_ign_on,asc_rk_flameouts,ship_thrust,ship_avail_thrust,ship_ign_on,ship_flameouts,phase_el_s,status
0.94,TAKEOFF,TO_PREFLIGHT,0.18,80,79.82,4.12,-0.14,1.33,32.8,91.32,-0.043,0.2,0,0,0,0,0,0,0,0,0,90.4,0,0,0,0,0,0,0,0,0,90.4,1,0,0.913,0,0,1,0,0,0,0,0,0,0,1,2,0,0,VALID,0,0,0,0,0,1,0,0,0,0,0,0,0,0,0,0,0,0,0,0,0,888.42,2,0,0.22,LANDED
3.52,TAKEOFF,TO_PREFLIGHT,0.03,80,79.97,3.62,0.02,-0.11,-17.19,91.21,-0.078,1,0,0,0,0,0,0,0,0,0,90.4,0,0,0,0,0,0,0,0,0,90.4,1,0,0.913,0,0,1,0,0,0,0,0,0,0,2,2,0,0,VALID,0,0,0,0,0,1,0,0,0,0,0,0,0,0,0,0,0,0,0,0,184.42,888.42,2,0,2.78,LANDED
6.08,TAKEOFF,TO_PREFLIGHT,0.16,80,79.84,3.59,0,-0.22,-1.75,90.69,-0.04,1,0,0,0,0,0,0,0,0,0,90.4,0,0,0,0,0,0,0,0,0,90.4,1,0,0.913,0,0,1,0,0,0,0,0,0,0,2,2,0,0,VALID,0,0,0,0,0,1,0,0,0,0,0,0,0,0,0,0,0,0,0,0,466.94,888.41,2,0,5.34,LANDED
8.66,TAKEOFF,TO_PREFLIGHT,0.4,80,79.6,3.58,0,-0.24,-0.34,90.4,-0.052,1,0,0,0,0,0,0,0,0,0,90.4,0,0,0,0,0,0,0,0,0,90.4,1,0,0.913,0,0,1,0,0,0,0,0,0,0,2,2,0,0,VALID,0,0,0,0,0,1,0,0,0,0,0,0,0,0,0,0,0,0,0,0,637.09,888.4,2,0,7.92,LANDED
10.7,TAKEOFF,TO_GROUND_ROLL,3.18,80,76.82,3.62,0.02,-0.13,-0.43,90.39,-0.052,1,0,0,0,0,0,0,0,0,0,90.72,0,0,0,0,-0.009,0,0,0,0,90.72,1,-0.009,-0.333,0.0331,0.578,0,0.0331,0,0,0,0,0,0,2,2,0,0,VALID,0,0,0,0,0,1,0,0,0,0,0,0,0,0,0,0,0,0,0,0,722.04,888.34,2,0,9.98,LANDED
12.78,TAKEOFF,TO_GROUND_ROLL,12.79,80,67.21,3.62,-0.03,-0.1,0.03,90.47,-0.053,1,0,0,0,0,0,0,0,0,0,90.39,0,0,0,0,-0.009,0,0,0,0,90.39,1,-0.009,0.077,-0.0026,0.675,0,-0.0026,0,0,0,0,0,0,2,2,0,0,VALID,0,0,0,0,0,1,0,0,0,0,0,0,0,0,0,0,0,0,0,0,777.61,887.56,2,0,12.06,LANDED
14.84,TAKEOFF,TO_GROUND_ROLL,22.98,80,57.02,3.62,-0.05,-0.09,0.03,90.51,-0.05,1,0,0,0,0,0,0,0,0,0,90.38,0,0,0,0,-0.011,0,0,0,0,90.38,1,-0.011,0.118,-0.0049,0.777,0,-0.0049,0,0,0,0,0,0,2,2,0,0,VALID,0,0,0,0,0,1,0,0,0,0,0,0,0,0,0,0,0,0,0,0,813.4,886.02,2,0,14.12,LANDED
16.96,TAKEOFF,TO_GROUND_ROLL,33.86,80,46.14,3.62,-0.07,-0.09,0.02,90.57,-0.049,1,0,0,0,0,0,0,0,0,0,90.37,0,0,0,0,-0.017,0,0,0,0,90.37,1,-0.017,0.192,-0.009,0.885,0,-0.009,0,0,0,0,0,0,2,2,0,0,VALID,0,0,0,0,0,1,0,0,0,0,0,0,0,0,0,0,0,0,0,0,836.6,883.96,2,0,16.24,LANDED
19.08,TAKEOFF,TO_GROUND_ROLL,44.99,80,35.01,3.62,-0.09,-0.08,0.02,90.66,-0.049,1,0,0,0,0,0,0,0,0,0,90.36,0,0,0,0,-0.031,0,0,0,0,90.36,1,-0.031,0.293,-0.0151,0.997,0,-0.0151,0,0,0,0,0,0,2,2,0,0,VALID,0,0,0,0,0,1,0,0,0,0,0,0,0,0,0,0,0,0,0,0,850.98,881.87,2,0,18.36,LANDED
21.2,TAKEOFF,TO_GROUND_ROLL,56.27,80,23.73,3.62,-0.1,-0.08,0.02,90.75,-0.049,1,0,0,0,0,0,0,0,0,0,90.33,0,0,0,0,-0.058,0,0,0,0,90.33,1,-0.058,0.408,-0.0206,1,0,-0.0206,0,0,0,0,0,0,2,2,0,0,VALID,0,0,0,0,0,1,0,0,0,0,0,0,0,0,0,0,0,0,0,0,860.07,880.23,2,0,20.48,LANDED
23.32,TAKEOFF,TO_GROUND_ROLL,67.65,80,12.35,3.62,-0.1,-0.07,0.01,90.84,-0.049,1,0,0,0,0,0,0,0,0,0,90.29,0,0,0,0,-0.102,0,0,0,0,90.29,1,-0.102,0.543,-0.027,1,0,-0.027,0,0,0,0,0,0,2,2,0,0,VALID,0,0,0,0,0,1,0,0,0,0,0,0,0,0,0,0,0,0,0,0,866.37,879.55,2,0,22.6,LANDED
25.44,TAKEOFF,TO_GROUND_ROLL,79.13,80,0.87,3.62,-0.09,-0.05,0.02,90.92,-0.025,1,0,0,0,0,0,0,0,0,0,90.23,0,0,0,0,-0.166,0,0,0,0,90.23,1,-0.166,0.693,-0.034,1,0,-0.034,0,0,0,0,0,0,2,2,0,0,VALID,0,0,0,0,0,1,0,0,0,0,0,0,0,0,0,0,0,0,0,0,879.87,888.75,2,0,24.72,LANDED
27.56,TAKEOFF,TO_GROUND_ROLL,90.88,80,-10.88,3.62,-0.1,-0.06,-0.01,90.9,-0.069,1,0,0,0,0,0,0,0,0,0,90.16,0,0,0,0,-0.25,0,0,0,0,90.16,1,-0.25,0.749,-0.0342,1,0,-0.0342,0,0,0,0,0,0,2,2,0,0,VALID,0,0,0,0,0,1,0,0,0,0,0,0,0,0,0,0,0,0,0,0,908.89,915.06,2,0,26.84,LANDED
29.68,TAKEOFF,TO_GROUND_ROLL,103.1,80,-23.1,3.64,-0.03,-0.02,-0.01,90.77,-0.073,1,0,0,0,0,0,0,0,0,0,90.08,0,0,0,0,-0.329,0,0,0,0,90.08,1,-0.329,0.689,-0.031,1,0,-0.031,0,0,0,0,0,0,2,2,0,0,VALID,0,0,0,0,0,1,0,0,0,0,0,0,0,0,0,0,0,0,0,0,950.36,954.78,2,0,28.96,LANDED
31.78,TAKEOFF,TO_GROUND_ROLL,115.81,80,-35.81,3.61,-0.04,-0.02,-0.01,90.92,-0.024,1,0,0,0,0,0,0,0,0,0,89.96,0,0,0,0,-0.412,0,0,0,0,89.96,1,-0.412,0.947,-0.0481,1,0,-0.0481,0,0,0,0,0,0,2,2,0,0,VALID,0,0,0,0,0,1,0,0,0,0,0,0,0,0,0,0,0,0,0,0,999.97,1003.22,2,0,31.06,LANDED
33.9,TAKEOFF,TO_GROUND_ROLL,129.36,80,-49.36,3.64,0.11,0.03,-0.03,90.8,-0.151,1,0,0,0,0,0,0,0,0,0,89.91,0,0,0,0,-0.534,0,0,0,0,89.91,1,-0.534,0.933,-0.0392,1,0,-0.0392,0,0,0,0,0,0,2,2,0,0,VALID,0,0,0,0,0,1,0,0,0,0,0,0,0,0,0,0,0,0,0,0,1053.31,1055.7,2,0,33.18,LANDED
36,TAKEOFF,TO_GROUND_ROLL,143.53,80,-63.53,3.62,0.12,0.01,-0.04,89.87,-0.155,1,0,0,0,0,0,0,0,0,0,89.97,0,0,0,0,-0.537,0,0,0,0,89.97,1,-0.537,-0.049,0.0141,1,0,0.0141,0,0,0,0,0,0,2,2,0,0,VALID,0,0,0,0,0,1,0,0,0,0,0,0,0,0,0,0,0,0,0,0,1109.27,1111.14,2,0,35.28,LANDED
38.12,TAKEOFF,TO_GROUND_ROLL,158.69,80,-78.69,3.64,0.26,0.12,0.02,89.75,-0.086,1,0,0,0,0,0,0,0,0,0,90.03,0,0,0,0,-0.348,0,0,0,0,90.03,1,-0.348,-0.272,0.0098,1,0,0.0098,0,0,0,0,0,0,2,2,0,0,VALID,0,0,0,0,0,1,0,0,0,0,0,0,0,0,0,0,0,0,0,0,1173.98,1175.54,2,0,37.4,LANDED
40.24,TAKEOFF,TO_ROTATE,175.01,80,-95.01,7.41,-0.87,0.37,0.62,89.93,-0.031,1,0,0,0,0,0,0,0,0,0,90.4,3.654,0,0,0,0,0,0,0,0,90.4,1,0,-0.472,0,0,3,0,0,0,3.654,3.347,0,0,2,2,0,0,VALID,0,0,0,0,0,1,0,0,0,0,0,0,0,0,0,0,0,0,0,0,1248.72,1250.09,2,0,39.52,FLYING
42.72,TAKEOFF,TO_ROTATE,187.39,80,-107.39,29.73,3.02,20.42,19.47,90.45,-1.1,1,0,0,0,0,0,0,0,0,0,90.4,10.854,0,0,0,0,0,0,0,0,90.4,1,0,0.05,0,0,3,0,0,0,10.854,-9.491,0,0,2,2,0,0,VALID,0,0,0,0,0,1,0,0,0,0,0,0,0,0,0,0,0,0,0,0,1310.45,1311.06,2,0,42,FLYING
45.3,TAKEOFF,TO_CLIMB,190.96,80,-110.96,103.73,21.41,22.5,16.24,90.54,-0.931,0.8512,0,0,0,0,0,0,0,0,0,90.4,7.3,0,0,0,0,0,0,0,0,90.4,1,0,0.143,0,0,3,0,0,0,11.5,-10.342,0,0,1,1,0,0,VALID,0,0,0,0,0,1,0,0,0,0,0,0,0,0,0,0,0,0,0,0,1259.87,1326.01,2,0,44.56,FLYING
47.7,TAKEOFF,TO_CLIMB,201.23,80,-121.23,158.24,24.17,17.15,10.29,90.39,-0.275,0.82,0,0,0,0,0,0,0,0,0,90.4,7,0,0,0,0,0,0,0,0,90.4,1,0,-0.005,0,0,3,0,0,0,11.5,-10.342,0,0,1,1,0,0,VALID,0,0,0,0,0,1,0,0,0,0,0,0,0,0,0,0,0,0,0,0,1209.1,1372.97,2,0,46.96,FLYING
50.14,TAKEOFF,TO_CLIMB,212.85,80,-132.85,219.2,25.99,16.03,9.05,90.37,-0.111,0.82,0,0,0,0,0,0,0,0,0,90.4,7,0,0,0,0,0,0,0,0,90.4,1,0,-0.03,0,0,3,0,0,0,11.5,-10.342,0,0,1,1,0,0,VALID,0,0,0,0,0,1,0,0,0,0,0,0,0,0,0,0,0,0,0,0,1207.66,1428.2,2,0,49.4,FLYING
52.62,TAKEOFF,TO_CLIMB,225.36,80,-145.36,285.57,27.71,15.35,8.31,90.37,-0.093,0.82,0,0,0,0,0,0,0,0,0,90.4,7,0,0,0,0,0,0,0,0,90.4,1,0,-0.026,0,0,3,0,0,0,11.5,-10.342,0,0,1,1,0,0,VALID,0,0,0,0,0,1,0,0,0,0,0,0,0,0,0,0,0,0,0,0,1237.18,1489.62,2,0,51.88,FLYING
55.12,ASCENT,AB_CORRIDOR,239.13,80,-159.13,357.01,29.64,14.43,7.32,90.38,-0.047,0.9984,0,0,0,0,0,0,0,0,0,90.38,7.168,0,0,0,0,0,0,0,0,90.4,1,0,-0.024,0,0,3,0,0,0,11.5,-10.342,0,0,1,1,24.444,6.263,DEGRADED,30105.5,30866,0.677,367,0,1.1163,933.04,649.54,0.053,0,0,0.8449,1309.69,1550.15,2,0,1311.89,387.61,2,0,1331.47,1559.31,2,0,1.88,FLYING
57.6,ASCENT,AB_CORRIDOR,255.49,80,-175.49,433.64,32.46,14.15,6.82,90.38,-0.03,0.959,0,0,0,0,0,0,0,0,0,90.38,7.967,0,0,0,0,0,0,0,0,90.4,1,0,-0.024,0,0,3,0,0,0,11.5,-10.342,0,0,1,1,20.231,3.559,VALID,32731.2,34648.4,0.721,408,0,1.1167,2060.93,2239.37,0.647,0,0,0.901,1472.09,1633.83,2,0,1473.8,408.55,2,0,1489.07,1645.15,2,0,4.36,FLYING
60.1,ASCENT,AB_CORRIDOR,273.36,80,-193.36,522.86,39.16,15.34,7.04,90.38,-0.036,0.9022,0,0,0,0,0,0,0,0,0,90.38,9.605,0,0,0,0,0,0,0,0,90.4,1,0,-0.024,0,0,3,0,0,0,11.5,-10.342,0,0,1,1,11.953,3.035,DEGRADED,36520.2,38991.4,0.77,479,0,1.1172,2949.41,3447.58,1.356,0,0,0.9179,1586.91,1728.79,2,0,1588,432.29,2,0,1597.65,1740.59,2,0,6.86,FLYING
62.6,ASCENT,AB_CORRIDOR,290.87,80,-210.87,634.51,50.17,17.35,7.32,90.39,-0.046,0.8382,0,0,0,0,0,0,0,0,0,90.39,11.925,0,0,0,0,0,0,0,0,90.4,1,0,-0.024,0,0,3,0,0,0,11.5,-10.342,0,0,1,1,11.061,2.887,DEGRADED,40786.7,43408,0.819,585,0,1.1176,3634.13,4260.16,2.006,0,0,0.8976,1635.99,1822.71,2,0,1636.18,455.76,2,0,1638.06,1833.52,2,0,9.36,FLYING
65.1,ASCENT,AB_CORRIDOR,305.72,80,-225.72,779.31,65.53,20.01,7.52,90.4,-0.066,0.7768,0,0,0,0,0,0,0,0,0,90.4,14.87,0,0,0,0,0,0,0,0,90.4,1,0,-0.024,0,0,3,0,0,0,11.5,-10.342,0,0,1,1,15.031,2.837,VALID,44882.8,47273.3,0.864,742,0,1.1181,4108.75,4638.1,2.487,0,0,0.852,1619.84,1901.18,2,0,1619.28,475.35,2,0,1614.99,1908.78,2,0,11.86,FLYING
67.6,ASCENT,AB_CORRIDOR,316.42,80,-236.42,966.11,83.56,23.12,7.71,90.41,-0.091,0.7267,0,0,0,0,0,0,0,0,0,90.41,18.096,0,0,0,0,0,0,0,0,90.4,1,0,-0.024,0,0,3,0,0,0,11.5,-10.342,0,0,1,1,14.502,2.81,VALID,48218.6,50047,0.901,965,0,1.1186,4383.34,4608.8,2.829,0,0,0.799,1560.06,1952.56,2,0,1559.07,488.16,2,0,1551.27,1956.29,2,0,14.36,FLYING
70.1,ASCENT,AB_CORRIDOR,321.84,80,-241.84,1200.73,103.46,26.67,7.97,90.44,-0.147,0.6947,0,0,0,0,0,0,0,0,0,90.44,21.581,0,0,0,0,0,0,0,0,90.4,1,0,-0.024,0,0,3,0,0,0,11.5,-10.342,0,0,1,1,14.077,2.773,VALID,50351.8,51372.8,0.929,1272,0,1.119,4480.54,4219.72,3.022,0,0,0.7507,1478.97,1970.17,2,0,1477.86,492.53,2,0,1468.78,1969.52,2,0,16.86,FLYING
72.6,ASCENT,AB_CORRIDOR,321.98,80,-241.98,1485.31,123.3,30.31,8.16,90.5,-0.291,0.6843,0,0,0,0,0,0,0,0,0,90.49,25.065,0,0,0,0,0,0,0,0,90.4,1,0,-0.024,0,0,3,0,0,0,11.5,-10.342,0,0,1,1,9.639,2.726,DEGRADED,51043.5,51181.7,0.947,1669,0,1.1194,4444.44,3597.15,3.063,0,0,0.7157,1398.25,1953.81,2,0,1397.26,488.41,2,0,1389.29,1949.63,2,0,19.36,FLYING
75.08,ASCENT,AB_CORRIDOR,318.47,80,-238.47,1814.54,141.2,33.43,8.04,90.61,-0.578,0.6931,0,0,0,0,0,0,0,0,0,90.61,28.238,0,0,0,0,0,0,0,0,90.4,1,0,-0.024,0,0,3,0,0,0,11.5,-10.342,0,0,1,1,9.57,2.772,DEGRADED,50461.1,49898.5,0.959,2146,0,1.1198,4336.63,2986.84,3.006,0,0,0.6986,1337.14,1914,2,0,1336.46,478.44,2,0,1331.28,1908.23,2,0,21.84,FLYING
77.58,ASCENT,AB_CORRIDOR,312.65,80,-232.65,2188.23,156.81,36.29,7.92,90.84,-1.115,0.715,0,0,0,0,0,0,0,0,0,90.83,31.106,0,0,0,0,0,0,0,0,90.4,1,0,-0.024,0,0,3,0,0,0,11.5,-10.342,0,0,1,1,9.581,2.835,DEGRADED,49002.7,47976.5,0.968,2688,0,1.1202,4208.11,2555.79,2.868,0,0,0.698,1299.39,1861.62,2,0,1299,465.35,2,0,1295.72,1854.84,2,0,24.34,FLYING
80.08,ASCENT,AB_CORRIDOR,305.23,80,-225.23,2597.8,170.02,38.66,7.65,91.24,-1.979,0.7453,0,0,0,0,0,0,0,0,0,91.23,33.587,0,0,0,0,0,0,0,0,90.4,1,0,-0.024,0,0,3,0,0,0,11.5,-10.342,0,0,1,1,9.59,2.912,DEGRADED,46982.2,45653.2,0.975,3275,0,1.1206,4084.32,2255.93,2.661,0,0,0.7078,1276.2,1802.99,2,0,1275.86,450.67,2,0,1273.62,1795.28,2,0,26.84,FLYING
82.56,ASCENT,AB_CORRIDOR,296.78,80,-216.78,3033.69,180.83,40.7,7.45,91.88,-3.337,0.7814,0,0,0,0,0,0,0,0,0,91.87,35.577,0,0,0,0,0,0,0,0,90.4,1,0,-0.024,0,0,3,0,0,0,11.5,-10.342,0,0,1,1,9.64,3.001,DEGRADED,44574.9,43063.8,0.98,3886,0,1.1209,3976.74,2093.24,2.392,0,0,0.7262,1264.57,1741.25,2,0,1264.5,435.25,2,0,1264.02,1734.26,2,0,29.32,FLYING
85.06,ASCENT,AB_CORRIDOR,287.38,80,-207.38,3498.32,190.39,43.25,8.01,94.32,-9.683,0.8202,0,0,0,0,0,0,0,0,0,94.3,37.457,0,0,0,0,0,0,0,0,90.4,1,0,-0.024,0,0,3,0,0,0,11.5,-10.342,0,0,1,1,9.595,3.076,DEGRADED,41988.8,40375.4,0.985,4517,0,1.1213,3886.84,2012.28,2.076,0,0,0.752,1264.03,1680.85,2,0,1264.01,420.15,2,0,1263.58,1672.85,2,0,31.82,FLYING
87.56,ASCENT,AB_CORRIDOR,276.26,80,-196.26,3983.88,197.35,44.5,9.32,102.8,-29.741,0.8626,0,0,0,0,0,0,0,0,0,102.61,39.084,0,0,0,0,0,0,0,0,90.4,1,0,-0.024,0,0,3,0,0,0,11.5,-10.342,0,0,1,1,9.433,3.13,DEGRADED,39163.3,37366.6,0.986,5154,0,1.1217,3809.74,1786.72,1.778,0,0,0.7833,1265.92,1616.04,2,0,1265.76,403.93,2,0,1265.24,1607.3,2,0,34.32,FLYING
90.04,ASCENT,AB_CORRIDOR,258.11,80,-178.11,4475.12,196.93,45.43,18.18,125.58,-43.047,0.9142,0,0,0,0,0,0,0,0,0,124.98,39.828,0,0,0,0,0,0,0,0,90.4,1,0,-0.024,0,0,3,0,0,0,11.5,-10.342,0,0,1,1,3.679,2.908,INVALID,35717.6,33262.5,0.969,5750,0,1.122,3671.82,813.73,1.13,0,0,0.8196,1249.62,1524.68,2,0,1248.92,381.03,2,0,1242.83,1508.05,2,0,36.8,FLYING
92.52,ASCENT,AB_CORRIDOR,235.34,80,-155.34,4956.53,191.14,46.09,18.27,136.6,-42.712,0.9848,0,0,0,0,0,0,0,0,0,136.12,39.893,0,0,0,0,0,0,0,0,90.4,1,0,-0.024,0,0,3,0,0,0,11.5,-10.342,0,0,1,1,7.8,2.708,DEGRADED,31013.5,28108.1,0.928,6243,0,1.1224,3427.16,-814.4,0.17,0,0,0.8641,1209.93,1400.2,2,0,1209.61,349.94,2,0,1206.73,1387.05,2,0,39.28,FLYING
94.98,ASCENT,AB_CORRIDOR,216.67,80,-136.67,5422.88,184.87,46.36,18.1,146.49,-42.591,1,0,0,0,0,0,0,0,0,0,146.11,39.246,0,0,0,0,0,0,0,0,90.4,1,0,-0.024,0,0,3,0,0,0,11.5,-10.342,0,0,1,1,7.206,2.561,DEGRADED,26644.6,24120.3,0.896,6665,0,1.1227,3164.35,-1604.38,-1.023,0,0,0.9144,1190.66,1302.18,2,0,1190.37,325.46,2,0,1187.64,1291.78,2,0,41.76,FLYING
97.46,ASCENT,AB_CORRIDOR,201.13,80,-121.13,5873.03,178.21,46.46,17.88,155.29,-42.407,1,0,0,0,0,0,0,0,0,0,154.87,38.044,0,0,0,0,0,0,0,0,90.4,1,0,-0.024,0,0,3,0,0,0,11.5,-10.342,0,0,1,1,6.621,2.443,DEGRADED,23033.9,20980.6,0.869,7039,0,1.1231,2899.25,-1887.58,-2.322,0,0,0.948,1160.62,1224.25,2,0,1160.23,305.99,2,0,1156.56,1216.06,2,0,44.24,FLYING
99.96,ASCENT,AB_ZOOM,188.12,80,-108.12,6305.85,170.88,45.84,17.54,163.05,-42.966,1,0,0,0,0,0,0,0,0,0,162.68,36.214,0,0,0,0,0,0,0,0,90.4,1,0,-0.024,0,0,3,0,0,0,11.5,-10.342,0,0,1,1,6.104,2.34,DEGRADED,20135.2,18487.9,0.848,7381,0,1.1234,2640.32,-1866.82,-3.734,0,0,0.9685,1125.85,1162.47,2,0,1125.42,290.56,2,0,1121.27,1155.38,2,0,46.74,FLYING
102.24,ASCENT,RKT_SUSTAIN,176.63,80,-96.63,6688.99,163.44,44.79,14.28,164.82,-43.997,1,0,0,0,0,0,0,0,0,0,165.08,25,0,0,0,0,0,0,0,0,90.4,1,0,-0.024,0,0,3,0,0,0,11.5,-10.342,0,0,1,1,0,5.137,DEGRADED,17692.9,16324.2,0.826,7685,0,1.1195,1846.82,-1826.87,-2.734,0.325,0,0,0,0,0,0,1345.06,1513.01,2,0,1392.61,1513.22,2,0,49.02,FLYING
104.3,ASCENT,RKT_SUSTAIN,175.26,80,-95.26,7015.04,153.86,32.13,15.13,169.81,-53.106,1,0,0,0,0,0,0,0,0,0,169.63,25,0,0,0,0,0,0,0,0,90.4,1,0,-0.024,0,0,3,0,0,0,11.5,-10.342,0,0,1,1,0,3.534,DEGRADED,16431.6,15892.9,0.841,7949,0,1.1095,1134.18,-546.35,-1.234,0.84,0,0,0,0,0,0,1513.99,1518.08,2,0,1515.5,1518.31,2,0,51.08,FLYING
106.36,ASCENT,RKT_SUSTAIN,173.48,80,-93.48,7318.73,142.08,33.75,15.65,176.83,-56.254,1,0,0,0,0,0,0,0,0,0,176.85,23.47,0,0,0,0,0,0,0,0,90.4,1,0,-0.024,0,0,3,0,0,0,11.5,-10.342,0,0,1,1,0,2.911,DEGRADED,15805.4,15487.1,0.854,8136,0,1.0992,696.53,-142.79,0.266,1,0,0,0,0,0,0,1522.37,1522.59,2,0,1522.73,1522.78,2,0,53.14,FLYING
108.46,ASCENT,RKT_SUSTAIN,173.02,80,-93.02,7609.73,135.42,34.77,15.33,181.1,-53.221,1,0,0,0,0,0,0,0,0,0,181.09,24.185,0,0,0,0,0,0,0,0,90.4,1,0,-0.024,0,0,3,0,0,0,11.5,-10.342,0,0,1,1,0,2.723,DEGRADED,15449.2,15272.9,0.871,8316,0,1.0888,427.75,90.57,1.766,1,0,0,0,0,0,0,1526.49,1526.71,2,0,1526.83,1526.86,2,0,55.24,FLYING
110.54,ASCENT,RKT_SUSTAIN,172.98,80,-92.98,7887.53,131.88,36.28,15.95,185.48,-47.719,1,0,0,0,0,0,0,0,0,0,185.37,25,0,0,0,0,0,0,0,0,90.4,1,0,-0.024,0,0,3,0,0,0,11.5,-10.342,0,0,1,1,0,2.645,VALID,15240.3,15127.5,0.89,8513,0,1.0784,262.69,225.5,3.266,1,0,0,0,0,0,0,1530.25,1530.46,2,0,1530.56,1530.6,2,0,57.32,FLYING
112.66,ASCENT,RKT_SUSTAIN,173.15,80,-93.15,8165.98,130.81,37.02,17.64,191.25,-46.425,1,0,0,0,0,0,0,0,0,0,191.2,25,0,0,0,0,0,0,0,0,90.4,1,0,-0.024,0,0,3,0,0,0,11.5,-10.342,0,0,1,1,0,2.55,DEGRADED,15110,15054.3,0.912,8738,0,1.0679,161.33,390.55,3.876,1,0,0,0,0,0,0,1533.85,1534.06,2,0,1534.15,1534.18,2,0,59.44,FLYING
114.78,ASCENT,RKT_SUSTAIN,173.05,80,-93.05,8442.56,130.4,37.36,16.53,193.28,-42.403,1,0,0,0,0,0,0,0,0,0,193.15,25,0,0,0,0,0,0,0,0,90.4,1,0,-0.024,0,0,3,0,0,0,11.5,-10.342,0,0,1,1,0,2.626,DEGRADED,14953.9,14872.1,0.931,8983,0,1.0573,99.08,399.21,3.864,1,0,0,0,0,0,0,1537.28,1537.48,2,0,1537.57,1537.6,2,0,61.56,FLYING
116.9,ASCENT,RKT_SUSTAIN,173.19,80,-93.19,8719.58,131.01,37.26,16.34,196.62,-41.444,1,0,0,0,0,0,0,0,0,0,196.64,25,0,0,0,0,0,0,0,0,90.4,1,0,-0.024,0,0,3,0,0,0,11.5,-10.342,0,0,1,1,0,2.645,DEGRADED,14834.9,14771.3,0.953,9246,0,1.0468,60.84,496.27,3.882,1,0,0,0,0,0,0,1540.57,1540.76,2,0,1540.84,1540.87,2,0,63.68,FLYING
119.02,ASCENT,RKT_SUSTAIN,172.71,80,-92.71,8994.61,131.09,37.45,16.6,200.24,-39.988,1,0,0,0,0,0,0,0,0,0,200.15,25,0,0,0,0,0,0,0,0,90.4,1,0,-0.024,0,0,3,0,0,0,11.5,-10.342,0,0,1,1,0,2.683,VALID,14677.7,14566.6,0.972,9518,0,1.0362,37.37,552.72,3.887,1,0,0,0,0,0,0,1543.72,1543.9,2,0,1543.98,1544.01,2,0,65.8,FLYING
121.14,ASCENT,RKT_SUSTAIN,171.83,80,-91.83,9273.87,132.36,38.16,16.96,203.31,-37.394,1,0,0,0,0,0,0,0,0,0,203.34,25,0,0,0,0,0,0,0,0,90.4,1,0,-0.024,0,0,3,0,0,0,11.5,-10.342,0,0,1,1,0,2.732,VALID,14448,14304.4,0.99,9799,0,1.0257,22.95,662.08,3.924,1,0,0,0,0,0,0,1546.72,1546.9,2,0,1546.97,1547,2,0,67.92,FLYING
123.26,ASCENT,RKT_SUSTAIN,170.83,80,-90.83,9555.6,133.48,37.78,15.88,204.83,-35.595,1,0,0,0,0,0,0,0,0,0,204.67,25,0,0,0,0,0,0,0,0,90.4,1,0,-0.024,0,0,3,0,0,0,11.5,-10.342,0,0,1,1,0,2.858,VALID,14185.2,14006.3,1.008,10089,0,1.0151,14.09,743.26,3.962,1,0,0,0,0,0,0,1549.59,1549.75,2,0,1549.82,1549.85,2,0,70.04,FLYING
125.38,ASCENT,RKT_SUSTAIN,169.82,80,-89.82,9839.58,134.23,38.03,17.02,209.15,-35.862,1,0,0,0,0,0,0,0,0,0,209.24,25,0,0,0,0,0,0,0,0,90.4,1,0,-0.024,0,0,3,0,0,0,11.5,-10.342,0,0,1,1,0,2.855,VALID,13905.3,13746.3,1.026,10383,0,1.0046,8.65,866.39,3.984,1,0,0,0,0,0,0,1552.32,1552.48,2,0,1552.55,1552.57,2,0,72.16,FLYING
127.5,ASCENT,RKT_SUSTAIN,168.97,80,-88.97,10126.92,137.07,40.37,16.8,207.95,-29.553,1,0,0,0,0,0,0,0,0,0,207.47,25,0,0,0,0,0,0,0,0,90.4,1,0,-0.024,0,0,3,0,0,0,11.5,-10.342,0,0,1,1,0,3.096,VALID,13632,13467.3,1.045,10684,0,1,5.32,1110.54,4.069,1,0,0,0,0,0,0,1554.92,1555.08,2,0,1555.14,1555.16,2,0,74.28,FLYING
129.62,ASCENT,RKT_SUSTAIN,168.06,80,-88.06,10418.64,138.55,38.23,15.9,211.69,-32.448,1,0,0,0,0,0,0,0,0,0,211.45,25,0,0,0,0,0,0,0,0,90.4,1,0,-0.024,0,0,3,0,0,0,11.5,-10.342,0,0,1,1,0,3.099,VALID,13357,13189.4,1.064,10997,0,1,3.26,1200.22,4.119,1,0,0,0,0,0,0,1557.43,1557.58,2,0,1557.64,1557.66,2,0,76.4,FLYING
131.74,ASCENT,RKT_SUSTAIN,167.47,80,-87.47,10713.53,139.3,37.91,15.53,213.39,-30.486,1,0,0,0,0,0,0,0,0,0,213.16,25,0,0,0,0,0,0,0,0,90.4,1,0,-0.024,0,0,3,0,0,0,11.5,-10.342,0,0,1,1,0,3.195,VALID,13094.3,12955.6,1.086,11311,0,1,2,1343.24,4.145,1,0,0,0,0,0,0,1559.83,1559.96,2,0,1560.02,1560.05,2,0,78.52,FLYING
133.8,ASCENT,RKT_SUSTAIN,166.68,80,-86.68,11003.7,141.91,39.59,17.36,216.56,-28.987,1,0,0,0,0,0,0,0,0,0,216.55,25,0,0,0,0,0,0,0,0,90.4,1,0,-0.024,0,0,3,0,0,0,11.5,-10.342,0,0,1,1,0,3.22,VALID,12871.2,12727.8,1.107,11628,0,1,1.23,1450.96,4.225,1,0,0,0,0,0,0,1562.06,1562.19,2,0,1562.21,1562.23,2,0,80.56,FLYING
135.84,ASCENT,RKT_SUSTAIN,165.99,80,-85.99,11295.9,144.49,39.97,17.24,217.63,-26.636,1,0,0,0,0,0,0,0,0,0,217.61,25,0,0,0,0,0,0,0,0,90.4,1,0,-0.024,0,0,3,0,0,0,11.5,-10.342,0,0,1,1,0,3.346,VALID,12638.1,12495.7,1.129,11952,0,1,0.76,1582.58,4.306,1,0,0,0,0,0,0,1564.17,1564.3,2,0,1564.32,1564.34,2,0,82.6,FLYING
137.86,ASCENT,RKT_SUSTAIN,165.41,80,-85.41,11590.61,147.17,40.22,16.91,218.03,-23.577,1,0,0,0,0,0,0,0,0,0,218.01,25,0,0,0,0,0,0,0,0,90.4,1,0,-0.024,0,0,3,0,0,0,11.5,-10.342,0,0,1,1,0,3.501,VALID,12417.3,12281.5,1.152,12282,0,1,0.46,1765.68,4.39,1,0,0,0,0,0,0,1566.18,1566.3,2,0,1566.32,1566.34,2,0,84.64,FLYING
139.88,ASCENT,RKT_SUSTAIN,164.74,80,-84.74,11890.91,149.96,40.25,16.71,218.91,-22.084,1,0,0,0,0,0,0,0,0,0,218.92,25,0,0,0,0,0,0,0,0,90.4,1,0,-0.024,0,0,3,0,0,0,11.5,-10.342,0,0,1,1,0,3.638,VALID,12197.3,12064.5,1.176,12619,0,1,0.29,1927.96,4.479,1,0,0,0,0,0,0,1568.11,1568.23,2,0,1568.25,1568.26,2,0,86.64,FLYING
141.9,ASCENT,RKT_SUSTAIN,164.16,80,-84.16,12196.75,152.52,40.94,17.55,220.83,-22.792,1,0,0,0,0,0,0,0,0,0,220.63,25,0,0,0,0,0,0,0,0,90.4,1,0,-0.024,0,0,3,0,0,0,11.5,-10.342,0,0,1,1,0,3.765,VALID,11979.3,11854.4,1.201,12961,0,1,0.18,2130.47,4.559,1,0,0,0,0,0,0,1569.97,1570.07,2,0,1570.09,1570.11,2,0,88.66,FLYING
143.92,ASCENT,RKT_SUSTAIN,163.24,80,-83.24,12508.26,155.81,41.3,17.61,221.56,-20.738,1,0,0,0,0,0,0,0,0,0,221.55,25,0,0,0,0,0,0,0,0,90.4,1,0,-0.024,0,0,3,0,0,0,11.5,-10.342,0,0,1,1,0,3.903,VALID,11751.3,11615.8,1.226,13312,0,1,0.11,2225.23,4.663,1,0,0,0,0,0,0,1571.74,1571.84,2,0,1571.86,1571.88,2,0,90.68,FLYING
145.94,ASCENT,RKT_SUSTAIN,162.51,80,-82.51,12825.92,158.64,40.85,17.42,223.51,-21.69,1,0,0,0,0,0,0,0,0,0,223.61,25,0,0,0,0,0,0,0,0,90.4,1,0,-0.024,0,0,3,0,0,0,11.5,-10.342,0,0,1,1,0,4.02,VALID,11529.3,11396.4,1.252,13672,0,1,0.07,2315.41,4.754,1,0,0,0,0,0,0,1573.45,1573.54,2,0,1573.56,1573.58,2,0,92.72,FLYING
147.96,ASCENT,RKT_SUSTAIN,161.66,80,-81.66,13150.54,162.37,41.94,17.92,224.02,-14.898,1,0,0,0,0,0,0,0,0,0,224.21,25,0,0,0,0,0,0,0,0,90.4,1,0,-0.024,0,0,3,0,0,0,11.5,-10.342,0,0,1,1,0,4.197,VALID,11310.9,11169,1.28,14042,0,1,0.04,2417.11,4.872,1,0,0,0,0,0,0,1575.08,1575.17,2,0,1575.19,1575.21,2,0,94.72,FLYING
150,ASCENT,RKT_SUSTAIN,161.35,80,-81.35,13487.22,167.82,38.88,14.34,222.47,-19.66,1,0,0,0,0,0,0,0,0,0,222.3,25,0,0,0,0,0,0,0,0,90.4,1,0,-0.024,0,0,3,0,0,0,11.5,-10.342,0,0,1,1,0,4.539,VALID,11101.5,10992.6,1.312,14439,0,1,0.02,2908.03,5.044,1,0,0,0,0,0,0,1576.67,1576.75,2,0,1576.78,1576.79,2,0,96.76,FLYING
152.02,ASCENT,RKT_SUSTAIN,161.2,80,-81.2,13829.94,171.99,38.12,14.6,226.21,-24.247,1,0,0,0,0,0,0,0,0,0,226.31,25,0,0,0,0,0,0,0,0,90.4,1,0,-0.024,0,0,3,0,0,0,11.5,-10.342,0,0,1,1,0,4.63,VALID,10953.3,10850.9,1.348,14848,0,1,0.02,3049.8,5.18,1,0,0,0,0,0,0,1578.19,1578.26,2,0,1578.29,1578.3,2,0,98.78,FLYING
154.04,ASCENT,RKT_SUSTAIN,161.2,80,-81.2,14181.91,176.79,38.28,15.32,229.03,-27.62,1,0,0,0,0,0,0,0,0,0,228.96,25,0,0,0,0,0,0,0,0,90.4,1,0,-0.024,0,0,3,0,0,0,11.5,-10.342,0,0,1,1,0,4.817,VALID,10814,10726.9,1.388,15271,0,1,0.01,3285.01,5.335,1,0,0,0,0,0,0,1579.64,1579.71,2,0,1579.74,1579.75,2,0,100.82,FLYING
156.06,ASCENT,RKT_SUSTAIN,160.49,80,-80.49,14543.51,181.15,38.17,15.04,230.4,-24.575,1,0,0,0,0,0,0,0,0,0,230.53,25,0,0,0,0,0,0,0,0,90.4,1,0,-0.024,0,0,3,0,0,0,11.5,-10.342,0,0,1,1,0,5.03,VALID,10642.2,10527.9,1.424,15708,0,1,0.01,3287.16,5.475,1,0,0,0,0,0,0,1581.03,1581.1,2,0,1581.13,1581.14,2,0,102.82,FLYING
158.08,ASCENT,RKT_SUSTAIN,159.89,80,-79.89,14915.66,187.08,38.57,15.87,233.05,-28.565,1,0,0,0,0,0,0,0,0,0,233.09,25,0,0,0,0,0,0,0,0,90.4,1,0,-0.024,0,0,3,0,0,0,11.5,-10.342,0,0,1,1,0,5.24,VALID,10463,10351.5,1.465,16166,0,1,0,3542.99,5.665,1,0,0,0,0,0,0,1582.36,1582.43,2,0,1582.45,1582.47,2,0,104.84,FLYING
160.1,ASCENT,RKT_SUSTAIN,158.94,80,-78.94,15299.41,193.42,40.53,15.75,230.02,-14.357,1,0,0,0,0,0,0,0,0,0,230.21,25,0,0,0,0,0,0,0,0,90.4,1,0,-0.024,0,0,3,0,0,0,11.5,-10.342,0,0,1,1,0,5.66,VALID,10264.8,10139.4,1.505,16643,0,1,0,3740.7,5.866,1,0,0,0,0,0,0,1583.64,1583.7,2,0,1583.72,1583.74,2,0,106.86,FLYING
162.14,ASCENT,RKT_SUSTAIN,158.25,80,-78.25,15699.11,198.37,37.27,14.57,235.26,-31.105,1,0,0,0,0,0,0,0,0,0,234.96,25,0,0,0,0,0,0,0,0,90.4,1,0,-0.024,0,0,3,0,0,0,11.5,-10.342,0,0,1,1,0,5.853,DEGRADED,10056.1,9939.7,1.55,17147,0,1,0,4166.16,6.033,1,0,0,0,0,0,0,1584.87,1584.92,2,0,1584.96,1584.97,2,0,108.92,FLYING
164.18,ASCENT,RKT_SUSTAIN,156.58,80,-76.58,16110.42,204.85,38.58,16.05,238.05,-31.065,1,0,0,0,0,0,0,0,0,0,237.94,25,0,0,0,0,0,0,0,0,90.4,1,0,-0.024,0,0,3,0,0,0,11.5,-10.342,0,0,1,1,0,6.072,VALID,9822.5,9661.4,1.59,17664,0,1,0,4181.92,6.247,1,0,0,0,0,0,0,1586.03,1586.08,2,0,1586.11,1586.12,2,0,110.94,FLYING
166.22,ASCENT,RKT_SUSTAIN,154.55,80,-74.55,16533.8,210.35,37.84,16.88,242.46,-36.353,1,0,0,0,0,0,0,0,0,0,242.41,25,0,0,0,0,0,0,0,0,90.4,1,0,-0.024,0,0,3,0,0,0,11.5,-10.342,0,0,1,1,0,6.243,VALID,9530.3,9344.6,1.629,18203,0,1,0,4253.53,6.427,1,0,0,0,0,0,0,1587.14,1587.18,2,0,1587.21,1587.22,2,0,112.98,FLYING
168.24,ASCENT,RKT_SUSTAIN,152.25,80,-72.25,16964.4,215.96,37.71,16.89,244.65,-37.007,1,0,0,0,0,0,0,0,0,0,244.62,25,0,0,0,0,0,0,0,0,90.4,1,0,-0.024,0,0,3,0,0,0,11.5,-10.342,0,0,1,1,0,6.529,VALID,9207.8,9007.4,1.668,18754,0,1,0,4307.64,6.615,1,0,0,0,0,0,0,1588.17,1588.21,2,0,1588.24,1588.25,2,0,115,FLYING
170.26,ASCENT,RKT_SUSTAIN,149.78,80,-69.78,17406.51,221.39,38.18,17.77,247.67,-37.291,1,0,0,0,0,0,0,0,0,0,247.55,25,0,0,0,0,0,0,0,0,90.4,1,0,-0.024,0,0,3,0,0,0,11.5,-10.342,0,0,1,1,0,6.804,VALID,8869.3,8660.7,1.708,19318,0,1,0,4427,6.798,1,0,0,0,0,0,0,1589.15,1589.19,2,0,1589.21,1589.22,2,0,117.04,FLYING
172.3,ASCENT,RKT_SUSTAIN,147.08,80,-67.08,17865.08,227.89,37.87,16.45,247.68,-35.668,1,0,0,0,0,0,0,0,0,0,247.64,25,0,0,0,0,0,0,0,0,90.4,1,0,-0.024,0,0,3,0,0,0,11.5,-10.342,0,0,1,1,0,7.228,VALID,8512.2,8299.8,1.748,19905,0,1,0,4647.44,7.013,1,0,0,0,0,0,0,1590.07,1590.11,2,0,1590.14,1590.14,2,0,119.06,FLYING
174.32,ASCENT,RKT_SUSTAIN,144.45,80,-64.45,18331.43,233.81,37.71,16.04,248.89,-35.203,1,0,0,0,0,0,0,0,0,0,248.86,25,0,0,0,0,0,0,0,0,90.4,1,0,-0.024,0,0,3,0,0,0,11.5,-10.342,0,0,1,1,0,7.62,VALID,8166.8,7958.2,1.791,20510,0,1,0,4919.22,7.217,1,0,0,0,0,0,0,1590.93,1590.97,2,0,1590.99,1591,2,0,121.08,FLYING
176.34,ASCENT,RKT_SUSTAIN,141.72,80,-61.72,18810.11,239.94,38.68,17.38,251.73,-35.341,1,0,0,0,0,0,0,0,0,0,251.59,25,0,0,0,0,0,0,0,0,90.4,1,0,-0.024,0,0,3,0,0,0,11.5,-10.342,0,0,1,1,0,7.966,VALID,7824.2,7617.1,1.835,21131,0,1,0,5229.63,7.425,1,0,0,0,0,0,0,1591.73,1591.76,2,0,1591.79,1591.79,2,0,123.1,FLYING
178.36,ASCENT,RKT_SUSTAIN,138.61,80,-58.61,19301.03,246.04,38.64,17.52,253.76,-35.642,1,0,0,0,0,0,0,0,0,0,253.71,25,0,0,0,0,0,0,0,0,90.4,1,0,-0.024,0,0,3,0,0,0,11.5,-10.342,0,0,1,1,0,8.337,VALID,7467.4,7247.5,1.876,21771,0,1,0,5387.9,7.637,1,0,0,0,0,0,0,1592.48,1592.5,2,0,1592.53,1592.53,2,0,125.14,FLYING
180.38,ASCENT,RKT_SUSTAIN,135.49,80,-55.49,19804.47,252.49,40.09,17.23,252.73,-29.31,1,0,0,0,0,0,0,0,0,0,252.77,25,0,0,0,0,0,0,0,0,90.4,1,0,-0.024,0,0,3,0,0,0,11.5,-10.342,0,0,1,1,0,8.866,VALID,7110.5,6893.2,1.92,22430,0,1,0,5662.55,7.86,1,0,0,0,0,0,0,1593.17,1593.19,2,0,1593.21,1593.22,2,0,127.14,FLYING
182.42,ASCENT,RKT_SUSTAIN,132.38,80,-52.38,20326.29,258.74,40.28,17.78,254.97,-29.061,1,0,0,0,0,0,0,0,0,0,254.99,25,0,0,0,0,0,0,0,0,90.4,1,0,-0.024,0,0,3,0,0,0,11.5,-10.342,0,0,1,1,0,9.293,VALID,6757.3,6545.6,1.966,23118,0,1,0,6072.19,8.083,1,0,0,0,0,0,0,1593.81,1593.83,2,0,1593.85,1593.86,2,0,129.18,FLYING
184.48,ASCENT,RKT_SUSTAIN,123.89,80,-43.89,20852.03,249.53,40.65,18.14,254.79,-26.568,1,0,0,0,0,0,0,0,0,0,254.76,25,0,0,0,0,0,0,0,0,90.4,1,0,-0.024,0,0,3,0,0,0,11.5,-10.342,0,0,1,1,0,0,VALID,6195,5782.9,1.942,23684,0,1,0,3834.7,7.816,1,0,0,0,0,0,0,0,0,2,2,0,0,2,2,131.26,FLYING
186.54,ASCENT,RKT_SUSTAIN,115.12,80,-35.12,21354.53,238.15,41.22,19.99,257.21,-28.187,1,0,0,0,0,0,0,0,0,0,257.2,25,0,0,0,0,0,0,0,0,90.4,1,0,-0.024,0,0,3,0,0,0,11.5,-10.342,0,0,1,1,0,0,VALID,5464.5,5018.2,1.898,24068,0,1,0,1917.04,7.458,1,0,0,0,0,0,0,0,0,2,2,0,0,2,2,133.32,FLYING
188.6,ASCENT,RKT_SUSTAIN,107.31,80,-27.31,21832.52,226.02,41.17,19.99,256.3,-24.023,1,0,0,0,0,0,0,0,0,0,256.35,25,0,0,0,0,0,0,0,0,90.4,1,0,-0.024,0,0,3,0,0,0,11.5,-10.342,0,0,1,1,0,0,VALID,4780.1,4380.7,1.856,24347,0,1,0,807.88,7.077,1,0,0,0,0,0,0,0,0,2,2,0,0,2,2,135.38,FLYING
190.66,ASCENT,RKT_SUSTAIN,100.38,80,-20.38,22285.2,213.54,41.15,19.98,254.64,-19.593,1,0,0,0,0,0,0,0,0,0,254.69,25,0,0,0,0,0,0,0,0,90.4,1,0,-0.024,0,0,3,0,0,0,11.5,-10.342,0,0,1,1,0,0,VALID,4190.6,3850.5,1.817,24563,0,1,0,208.48,6.686,1,0,0,0,0,0,0,0,0,2,2,0,0,2,2,137.44,FLYING
192.72,ASCENT,RKT_SUSTAIN,94.22,80,-14.22,22711.64,200.62,40.79,19.99,252.94,-15.729,1,0,0,0,0,0,0,0,0,0,252.98,25,0,0,0,0,0,0,0,0,90.4,1,0,-0.024,0,0,3,0,0,0,11.5,-10.342,0,0,1,1,0,0,VALID,3693.8,3408,1.781,24738,0,1,0,-106.11,6.282,1,0,0,0,0,0,0,0,0,2,2,0,0,2,2,139.5,FLYING
194.78,ASCENT,RKT_SUSTAIN,88.77,80,-8.77,23110.94,187.28,40.17,19.99,251.16,-11.73,1,0,0,0,0,0,0,0,0,0,251.21,25,0,0,0,0,0,0,0,0,90.4,1,0,-0.024,0,0,3,0,0,0,11.5,-10.342,0,0,1,1,0,0,VALID,3277.8,3038.7,1.747,24884,0,1,0,-257.2,5.866,1,0,0,0,0,0,0,0,0,2,2,0,0,2,2,141.56,FLYING
196.84,ASCENT,RKT_SUSTAIN,83.96,80,-3.96,23482.28,173.54,39.26,19.99,249.59,-8.48,1,0,0,0,0,0,0,0,0,0,249.63,25,0,0,0,0,0,0,0,0,90.4,1,0,-0.024,0,0,3,0,0,0,11.5,-10.342,0,0,1,1,0,0,VALID,2929.8,2729.8,1.716,25006,0,1,0,-320.05,5.437,1,0,0,0,0,0,0,0,0,2,2,0,0,2,2,143.62,FLYING
198.9,ASCENT,RKT_SUSTAIN,79.73,80,0.27,23824.91,159.47,38.12,19.99,248.15,-5.73,1,0,0,0,0,0,0,0,0,0,248.19,25,0,0,0,0,0,0,0,0,90.4,1,0,-0.024,0,0,3,0,0,0,11.5,-10.342,0,0,1,1,0,0,VALID,2638.8,2471.7,1.687,25110,0,1,0,-334.89,4.997,1,0,0,0,0,0,0,0,0,2,2,0,0,2,2,145.68,FLYING
200.96,ASCENT,RKT_SUSTAIN,76.02,80,3.98,24138.16,145.08,36.78,19.99,247.02,-3.153,1,0,0,0,0,0,0,0,0,0,247.06,25,0,0,0,0,0,0,0,0,90.4,1,0,-0.024,0,0,3,0,0,0,11.5,-10.342,0,0,1,1,0,0,VALID,2395.6,2255.9,1.66,25198,0,1,0,-327.61,4.548,1,0,0,0,0,0,0,0,0,2,2,0,0,2,2,147.74,FLYING
203.02,ASCENT,RKT_SUSTAIN,72.79,80,7.21,24421.45,130.44,35.28,19.95,245.86,-0.886,1,0,0,0,0,0,0,0,0,0,245.89,25,0,0,0,0,0,0,0,0,90.4,1,0,-0.024,0,0,3,0,0,0,11.5,-10.342,0,0,1,1,0,0,VALID,2192.5,2075.8,1.636,25272,0,1,0,-310.02,4.09,1,0,0,0,0,0,0,0,0,2,2,0,0,2,2,149.8,FLYING
205.06,ASCENT,RKT_SUSTAIN,70.02,80,9.98,24671.98,115.7,33.73,19.99,245.34,-0.268,1,0,0,0,0,0,0,0,0,0,245.35,23.709,0,0,0,0,0,0,0,0,90.4,1,0,-0.024,0,0,3,0,0,0,11.5,-10.342,0,0,1,1,0,0,VALID,2023.6,1927.3,1.614,25335,0,1,0,-288.54,3.629,1,0,0,0,0,0,0,0,0,2,2,0,0,2,2,151.84,FLYING
207.1,ASCENT,RKT_SUSTAIN,67.64,80,12.36,24892.25,100.8,32.07,19.99,245.25,-0.084,1,0,0,0,0,0,0,0,0,0,245.25,20.957,0,0,0,0,0,0,0,0,90.4,1,0,-0.024,0,0,3,0,0,0,11.5,-10.342,0,0,1,1,0,0,VALID,1884.1,1804.2,1.594,25387,0,1,0,-269.8,3.163,1,0,0,0,0,0,0,0,0,2,2,0,0,2,2,153.88,FLYING
209.12,ASCENT,RKT_SUSTAIN,65.65,80,14.35,25080.21,85.85,30.37,19.99,245.22,-0.023,1,0,0,0,0,0,0,0,0,0,245.22,18.087,0,0,0,0,0,0,0,0,90.4,1,0,-0.024,0,0,3,0,0,0,11.5,-10.342,0,0,1,1,0,0,VALID,1769.3,1704,1.577,25431,0,1,0,-253.79,2.696,1,0,0,0,0,0,0,0,0,2,2,0,0,2,2,155.9,FLYING
211.16,ASCENT,RKT_SUSTAIN,63.97,80,16.03,25239.09,70.54,28.58,19.99,245.22,-0.005,1,0,0,0,0,0,0,0,0,0,245.22,15.043,0,0,0,0,0,0,0,0,90.4,1,0,-0.024,0,0,3,0,0,0,11.5,-10.342,0,0,1,1,0,0,VALID,1675.3,1622.1,1.562,25466,0,1,0,-242.26,2.216,1,0,0,0,0,0,0,0,0,2,2,0,0,2,2,157.94,FLYING
213.18,ASCENT,RKT_SUSTAIN,62.63,80,17.37,25365.52,55.29,26.76,19.99,245.23,-0.007,1,0,0,0,0,0,0,0,0,0,245.23,11.923,0,0,0,0,0,0,0,0,90.4,1,0,-0.024,0,0,3,0,0,0,11.5,-10.342,0,0,1,1,0,0,VALID,1600.2,1558,1.549,25494,0,1,0,-233.03,1.739,1,0,0,0,0,0,0,0,0,2,2,0,0,2,2,159.96,FLYING
215.22,ASCENT,RKT_SUSTAIN,61.58,80,18.42,25461.87,39.84,24.9,19.99,245.23,-0.019,1,0,0,0,0,0,0,0,0,0,245.23,8.681,0,0,0,0,0,0,0,0,90.4,1,0,-0.024,0,0,3,0,0,0,11.5,-10.342,0,0,1,1,0,0,VALID,1541.4,1508.5,1.538,25516,0,1,0,-227.99,1.256,1,0,0,0,0,0,0,0,0,2,2,0,0,2,2,162,FLYING
217.76,ASCENT,RKT_SUSTAIN,60.68,80,19.32,25537.7,20.55,22.53,19.99,245.24,-0.038,1,0,0,0,0,0,0,0,0,0,245.24,4.546,0,0,0,0,0,0,0,0,90.4,1,0,-0.024,0,0,3,0,0,0,11.5,-10.342,0,0,1,1,0,0,VALID,1486.7,1466.2,1.527,25537,0,1,0,-219.25,0.652,1,0,0,0,0,0,0,0,0,2,2,0,0,2,2,164.54,FLYING
220.3,ASCENT,RKT_SUSTAIN,60.22,80,19.78,25564.47,1.24,20.14,19.99,245.25,-0.057,1,0,0,0,0,0,0,0,0,0,245.25,0.339,0,0,0,0,0,0,0,0,90.4,1,0,-0.024,0,0,3,0,0,0,11.5,-10.342,0,0,1,1,0,0,VALID,1455.6,1445,1.52,25549,0,1,0,-215.95,0.048,1,0,0,0,0,0,0,0,0,2,2,0,0,2,2,167.08,FLYING
222.8,ASCENT,RKT_SUSTAIN,60.18,80,19.82,25542.96,-17.73,17.78,19.99,245.26,-0.078,1,0,0,0,0,0,0,0,0,0,245.26,-1.238,0,0,0,0,0,0,0,0,90.4,1,0,-0.024,0,0,3,0,0,0,11.5,-10.342,0,0,1,1,0,0,VALID,1444.8,1443.1,1.517,25554,0,1,0,-216.38,2.048,1,0,0,0,0,0,0,0,0,2,2,0,0,2,2,169.58,FLYING
225.3,ASCENT,RKT_SUSTAIN,60.55,80,19.45,25474.06,-36.65,15.41,19.99,245.27,-0.099,1,0,0,0,0,0,0,0,0,0,245.27,-2.805,0,0,0,0,0,0,0,0,90.4,1,0,-0.024,0,0,3,0,0,0,11.5,-10.342,0,0,1,1,0,0,VALID,1453.1,1460,1.517,25551,0,1,0,-222.28,4.048,1,0,0,0,0,0,0,0,0,2,2,0,0,2,2,172.08,FLYING
227.84,ASCENT,RKT_SUSTAIN,61.35,80,18.65,25355.75,-55.76,13.03,19.99,245.27,-0.121,1,0,0,0,0,0,0,0,0,0,245.27,-4.378,0,0,0,0,0,0,0,0,90.4,1,0,-0.024,0,0,3,0,0,0,11.5,-10.342,0,0,1,1,0,0,VALID,1480.8,1496.8,1.52,25541,0,1,0,-234.85,6.048,1,0,0,0,0,0,0,0,0,2,2,0,0,2,2,174.62,FLYING
230.36,ASCENT,RKT_SUSTAIN,62.58,80,17.42,25190.58,-74.57,10.7,19.99,245.28,-0.146,1,0,0,0,0,0,0,0,0,0,245.28,-5.834,0,0,0,0,0,0,0,0,90.4,1,0,-0.024,0,0,3,0,0,0,11.5,-10.342,0,0,1,1,0,0,VALID,1528.8,1554.1,1.526,25522,0,1,0,-250.5,8.048,1,0,0,0,0,0,0,0,0,2,2,0,0,2,2,177.14,FLYING
232.86,ASCENT,RKT_SUSTAIN,64.24,80,15.76,24980.12,-93.04,8.43,19.99,245.28,-0.171,1,0,0,0,0,0,0,0,0,0,245.28,-7.142,0,0,0,0,0,0,0,0,90.4,1,0,-0.024,0,0,3,0,0,0,11.5,-10.342,0,0,1,1,0,0,VALID,1598.1,1633.4,1.535,25496,0,1,0,-269.92,10.048,1,0,0,0,0,0,0,0,0,2,2,0,0,2,2,179.64,FLYING
235.36,ASCENT,RKT_SUSTAIN,66.37,80,13.63,24723.82,-111.25,6.23,19.99,245.29,-0.197,1,0,0,0,0,0,0,0,0,0,245.29,-8.302,0,0,0,0,0,0,0,0,90.4,1,0,-0.024,0,0,3,0,0,0,11.5,-10.342,0,0,1,1,0,0,VALID,1691.2,1737.8,1.546,25459,0,1,0,-295.39,12.048,1,0,0,0,0,0,0,0,0,2,2,0,0,2,2,182.14,FLYING
237.86,ASCENT,RKT_SUSTAIN,68.99,80,11.01,24422.4,-129.15,4.1,19.99,245.29,-0.222,1,0,0,0,0,0,0,0,0,0,245.29,-9.289,0,0,0,0,0,0,0,0,90.4,1,0,-0.024,0,0,3,0,0,0,11.5,-10.342,0,0,1,1,0,0,VALID,1811.3,1870.8,1.561,25412,0,1,0,-327.62,14.048,1,0,0,0,0,0,0,0,0,2,2,0,0,2,2,184.64,FLYING
240.36,ASCENT,RKT_SUSTAIN,72.15,80,7.85,24076.76,-146.64,2.06,19.99,245.29,-0.246,1,0,0,0,0,0,0,0,0,0,245.29,-10.085,0,0,0,0,0,0,0,0,90.4,1,0,-0.024,0,0,3,0,0,0,11.5,-10.342,0,0,1,1,0,0,VALID,1962.8,2037.3,1.578,25351,0,1,0,-367.83,16.048,1,0,0,0,0,0,0,0,0,2,2,0,0,2,2,187.14,FLYING
242.86,ASCENT,RKT_SUSTAIN,75.86,80,4.14,23688.2,-163.46,0.15,19.99,245.29,-0.271,1,0,0,0,0,0,0,0,0,0,245.29,-10.643,0,0,0,0,0,0,0,0,90.4,1,0,-0.024,0,0,3,0,0,0,11.5,-10.342,0,0,1,1,0,0,VALID,2150.7,2242.8,1.596,25274,0,1,0,-421.86,18.048,1,0,0,0,0,0,0,0,0,2,2,0,0,2,2,189.64,FLYING
245.36,ASCENT,RKT_SUSTAIN,80.18,80,-0.18,23258.5,-179.61,-1.64,19.99,245.29,-0.294,1,0,0,0,0,0,0,0,0,0,245.29,-10.975,0,0,0,0,0,0,0,0,90.4,1,0,-0.024,0,0,3,0,0,0,11.5,-10.342,0,0,1,1,0,0,VALID,2381.5,2494.2,1.617,25177,0,1,0,-486.8,20.048,1,0,0,0,0,0,0,0,0,2,2,0,0,2,2,192.14,FLYING
247.86,ASCENT,RKT_SUSTAIN,85.15,80,-5.15,22789.36,-195.02,-3.3,19.99,245.29,-0.319,1,0,0,0,0,0,0,0,0,0,245.29,-11.079,0,0,0,0,0,0,0,0,90.4,1,0,-0.024,0,0,3,0,0,0,11.5,-10.342,0,0,1,1,0,0,VALID,2662.9,2800,1.639,25055,0,1,0,-564.47,22.048,1,0,0,0,0,0,0,0,0,2,2,0,0,2,2,194.64,FLYING
250.38,ASCENT,RKT_SUSTAIN,90.86,80,-10.86,22278.65,-209.64,-4.82,19.99,245.29,-0.344,1,0,0,0,0,0,0,0,0,0,245.29,-10.96,0,0,0,0,0,0,0,0,90.4,1,0,-0.024,0,0,3,0,0,0,11.5,-10.342,0,0,1,1,0,0,VALID,3006.2,3173.1,1.662,24905,0,1,0,-661.07,24.048,1,0,0,0,0,0,0,0,0,2,2,0,0,2,2,197.16,FLYING
252.88,ASCENT,RKT_SUSTAIN,97.24,80,-17.24,21736.98,-223.04,-6.17,19.99,245.3,-0.369,1,0,0,0,0,0,0,0,0,0,245.3,-11.624,0,0,0,0,0,0,0,0,90.4,1,0,-0.024,0,0,3,0,0,0,11.5,-10.342,0,0,1,1,0,0,VALID,3418.3,3618.2,1.686,24722,0,1,0,-773.38,25,1,0,0,0,0,0,0,0,0,2,2,0,0,2,2,199.66,FLYING
255.4,ASCENT,RKT_SUSTAIN,104.41,80,-24.41,21158.77,-235.23,-7.34,19.99,245.3,-0.387,1,0,0,0,0,0,0,0,0,0,245.3,-12.992,0,0,0,0,0,0,0,0,90.4,1,0,-0.024,0,0,3,0,0,0,11.5,-10.342,0,0,1,1,0,0,VALID,3912.6,4154.1,1.71,24498,0,1,0,-914.73,25,1,0,0,0,0,0,0,0,0,2,2,0,0,2,2,202.18,FLYING
257.94,ASCENT,RKT_SUSTAIN,112.4,80,-32.4,20546.94,-245.91,-8.31,19.99,245.3,-0.402,1,0,0,0,0,0,0,0,0,0,245.3,-14.092,0,0,0,0,0,0,0,0,90.4,1,0,-0.024,0,0,3,0,0,0,11.5,-10.342,0,0,1,1,0,0,VALID,4507.5,4794.9,1.734,24223,0,1,0,-1084.73,25,1,0,0,0,0,0,0,0,0,2,2,0,0,2,2,204.72,FLYING
260.44,ASCENT,RKT_SUSTAIN,121.04,80,-41.04,19920.6,-254.57,-9.05,19.99,245.3,-0.42,1,0,0,0,0,0,0,0,0,0,245.3,-14.885,0,0,0,0,0,0,0,0,90.4,1,0,-0.024,0,0,3,0,0,0,11.5,-10.342,0,0,1,1,0,0,VALID,5204.6,5540.1,1.756,23893,0,1,0,-1271.39,25,1,0,0,0,0,0,0,0,0,2,2,0,0,2,2,207.22,FLYING
262.98,ASCENT,RKT_SUSTAIN,130.63,80,-50.63,19264.92,-261.12,-9.54,19.99,245.3,-0.44,1,0,0,0,0,0,0,0,0,0,245.3,-15,0,0,0,0,0,0,0,0,90.4,1,0,-0.024,0,0,3,0,0,0,11.5,-10.342,0,0,1,1,0,0,VALID,6032,6431.1,1.778,23495,0,1,0,-1508.41,25,1,0,0,0,0,0,0,0,0,2,2,0,0,2,2,209.74,FLYING
265.52,ASCENT,RKT_SUSTAIN,140.97,80,-60.97,18596.02,-264.99,-9.75,19.98,245.31,-0.465,1,0,0,0,0,0,0,0,0,0,245.31,-15,0,0,0,0,0,0,0,0,90.4,1,0,-0.024,0,0,3,0,0,0,11.5,-10.342,0,0,1,1,0,0,VALID,7002,7470,1.797,23019,0,1,0,-1783.23,25,1,0,0,0,0,0,0,0,0,2,2,0,0,2,2,212.3,FLYING
268.08,ASCENT,RKT_SUSTAIN,152.05,80,-72.05,17915.85,-265.81,-9.81,19.81,245.31,-0.484,1,0,0,0,0,0,0,0,0,0,245.31,-15,0,0,0,0,0,0,0,0,90.4,1,0,-0.024,0,0,3,0,0,0,11.5,-10.342,0,0,1,1,0,0,VALID,8130.6,8672.9,1.812,22453,0,1,0,-2098.97,25,1,0,0,0,0,0,0,0,0,2,2,0,0,2,2,214.86,FLYING
270.62,ASCENT,RKT_SUSTAIN,163.49,80,-83.49,17243.38,-263.17,-9.47,19.7,245.31,-0.509,1,0,0,0,0,0,0,0,0,0,245.31,-14.64,0,0,0,0,0,0,0,0,90.4,1,0,-0.024,0,0,3,0,0,0,11.5,-10.342,0,0,1,1,0,0,VALID,9410.4,10013.9,1.823,21791,0,1,0,-2428.56,25,1,0,0,0,0,0,0,0,0,2,2,0,0,2,2,217.4,FLYING
273.12,ASCENT,RKT_SUSTAIN,174.86,80,-94.86,16592.88,-256.82,-8.72,19.64,245.32,-0.532,1,0,0,0,0,0,0,0,0,0,245.32,-13.582,0,0,0,0,0,0,0,0,90.4,1,0,-0.024,0,0,3,0,0,0,11.5,-10.342,0,0,1,1,0,0,VALID,10802.4,11451.5,1.83,21041,0,1,0,-2755.97,25,1,0,0,0,0,0,0,0,0,2,2,0,0,2,2,219.9,FLYING
275.62,ASCENT,RKT_SUSTAIN,186.54,80,-106.54,15961.07,-249.12,-9.06,18.26,245.32,-0.535,1,0,0,0,0,0,0,0,0,0,245.32,-12.343,0,0,0,0,0,0,0,0,90.4,1,0,-0.024,0,0,3,0,0,0,11.5,-10.342,0,0,1,1,0,0,VALID,12310.7,13027.6,1.835,20224,0,1,0,-2905.44,25,1,0,0,0,0,0,0,0,0,2,2,0,0,2,2,222.4,FLYING
278.12,ASCENT,RKT_SUSTAIN,196.92,80,-116.92,15356.85,-234.55,-6.64,19.16,245.35,-0.551,1,0,0,0,0,0,0,0,0,0,245.35,-10.323,0,0,0,0,0,0,0,0,90.4,1,0,-0.024,0,0,3,0,0,0,11.5,-10.342,0,0,1,1,0,0,VALID,13853.9,14547.2,1.827,19333,0,1,0,-3318.6,25,1,0,0,0,0,0,0,0,0,2,2,0,0,2,2,224.9,FLYING
280.62,ASCENT,RKT_SUSTAIN,206.23,80,-126.23,14792.97,-216.55,-4.88,19.01,245.36,-0.544,1,0,0,0,0,0,0,0,0,0,245.36,-7.914,0,0,0,0,0,0,0,0,90.4,1,0,-0.024,0,0,3,0,0,0,11.5,-10.342,0,0,1,1,0,0,VALID,15339.1,16000.1,1.812,18371,0,1,0,-3648.42,25,1,0,0,0,0,0,0,0,0,2,2,0,0,2,2,227.4,FLYING
283.14,ASCENT,RKT_SUSTAIN,214.14,80,-134.14,14274.45,-195.14,-2.83,18.84,245.36,-0.532,1,0,0,0,0,0,0,0,0,0,245.36,-5.084,0,0,0,0,0,0,0,0,90.4,1,0,-0.024,0,0,3,0,0,0,11.5,-10.342,0,0,1,1,0,0,VALID,16716.5,17317.2,1.791,17380,0,1,0,-3903.59,25,1,0,0,0,0,0,0,0,0,2,2,0,0,2,2,229.92,FLYING
285.64,ASCENT,RKT_SUSTAIN,220.23,80,-140.23,13816.84,-171.35,-0.54,18.68,245.36,-0.495,1,0,0,0,0,0,0,0,0,0,245.36,-1.924,0,0,0,0,0,0,0,0,90.4,1,0,-0.024,0,0,3,0,0,0,11.5,-10.342,0,0,1,1,0,0,VALID,17903.5,18406.6,1.765,16404,0,1,0,-4013.33,25,1,0,0,0,0,0,0,0,0,2,2,0,0,2,2,232.42,FLYING
288.14,ASCENT,RKT_SUSTAIN,224.29,80,-144.29,13420.22,-145.47,0.06,16.75,245.3,-0.371,1,0,0,0,0,0,0,0,0,0,245.31,1.593,0,0,0,0,0,0,0,0,90.4,1,0,-0.024,0,0,3,0,0,0,11.5,-10.342,0,0,1,1,0,0,VALID,18834.5,19204.4,1.733,15487,0,1,0,-4046.1,25,1,0,0,0,0,0,0,0,0,2,2,0,0,2,2,234.92,FLYING
290.64,ASCENT,RKT_SUSTAIN,231.31,80,-151.31,13064.68,-139.98,-0.82,14.88,245.28,-0.295,1,0,0,0,0,0,0,0,0,0,245.28,2.412,0,0,0,0,0,0,0,0,90.4,1,0,-0.024,0,0,3,0,0,0,11.5,-10.342,0,0,1,1,0,0,DEGRADED,19874.5,20423.6,1.726,14771,0,1,0,-3059.52,25,1,0,0,0,0,0,0,0,0,2,2,0,0,2,2,237.42,FLYING
293.14,ASCENT,RKT_SUSTAIN,232.47,80,-152.47,12753.61,-110.86,5.92,18.75,245.28,-0.284,1,0,0,0,0,0,0,0,0,0,245.28,6.532,0,0,0,0,0,0,0,0,90.4,1,0,-0.024,0,0,3,0,0,0,11.5,-10.342,0,0,1,1,0,0,VALID,20606.5,20811.6,1.689,14105,0,1,0,-3457.44,25,1,0,0,0,0,0,0,0,0,2,2,0,0,2,2,239.92,FLYING
295.66,ASCENT,RKT_SUSTAIN,230.48,80,-150.48,12512.42,-82.18,8.81,18.56,245.25,-0.264,1,0,0,0,0,0,0,0,0,0,245.26,10.749,0,0,0,0,0,0,0,0,90.4,1,0,-0.024,0,0,3,0,0,0,11.5,-10.342,0,0,1,1,0,0,VALID,20684.6,20646.5,1.642,13478,0,1,0,-3610.74,25,1,0,0,0,0,0,0,0,0,2,2,0,0,2,2,242.44,FLYING
298.16,ASCENT,RKT_SUSTAIN,227.33,80,-147.33,12338.51,-58.36,8.47,15.6,245.21,-0.232,1,0,0,0,0,0,0,0,0,0,245.22,14.503,0,0,0,0,0,0,0,0,90.4,1,0,-0.024,0,0,3,0,0,0,11.5,-10.342,0,0,1,1,0,0,VALID,20407.4,20254,1.598,12974,0,1,0,-3339.99,25,1,0,0,0,0,0,0,0,0,2,2,0,0,2,2,244.94,FLYING
300.66,ASCENT,RKT_SUSTAIN,224.63,80,-144.63,12214.53,-41.6,10.28,15.44,245.19,-0.183,1,0,0,0,0,0,0,0,0,0,245.19,17.271,0,0,0,0,0,0,0,0,90.4,1,0,-0.024,0,0,3,0,0,0,11.5,-10.342,0,0,1,1,0,0,VALID,20076.2,19915.9,1.565,12618,0,1,0,-2781.73,25,1,0,0,0,0,0,0,0,0,2,2,0,0,2,2,247.44,FLYING
303.18,ASCENT,RKT_SUSTAIN,221.51,80,-141.51,12127.94,-28.39,9.34,12.87,245.18,-0.16,1,0,0,0,0,0,0,0,0,0,245.18,19.587,0,0,0,0,0,0,0,0,90.4,1,0,-0.024,0,0,3,0,0,0,11.5,-10.342,0,0,1,1,0,0,VALID,19667.2,19488.3,1.535,12376,0,1,0,-2288.41,25,1,0,0,0,0,0,0,0,0,2,2,0,0,2,2,249.96,FLYING
305.7,ASCENT,RKT_SUSTAIN,216.66,80,-136.66,12074.05,-14.12,9.4,11.43,245.15,-0.136,1,0,0,0,0,0,0,0,0,0,245.16,22.205,0,0,0,0,0,0,0,0,90.4,1,0,-0.024,0,0,3,0,0,0,11.5,-10.342,0,0,1,1,0,0,DEGRADED,19112.1,18804.7,1.5,12217,0,1,0,-2060.6,25,1,0,0,0,0,0,0,0,0,2,2,0,0,2,2,252.48,FLYING
308.2,ASCENT,RKT_SUSTAIN,214.28,80,-134.28,12038.18,-12.49,10.94,12.56,245.16,-0.13,1,0,0,0,0,0,0,0,0,0,245.16,22.476,0,0,0,0,0,0,0,0,90.4,1,0,-0.024,0,0,3,0,0,0,11.5,-10.342,0,0,1,1,0,0,DEGRADED,18657.4,18474.2,1.481,12123,0,1,0,-1524.3,25,1,0,0,0,0,0,0,0,0,2,2,0,0,2,2,254.98,FLYING
310.7,ASCENT,RKT_SUSTAIN,210.15,80,-130.15,12016.66,-5.79,11.99,12.7,245.15,-0.119,1,0,0,0,0,0,0,0,0,0,245.15,23.791,0,0,0,0,0,0,0,0,90.4,1,0,-0.024,0,0,3,0,0,0,11.5,-10.342,0,0,1,1,0,0,VALID,18140.6,17891.6,1.454,12064,0,1,0,-1357.44,25,1,0,0,0,0,0,0,0,0,2,2,0,0,2,2,257.48,FLYING
313.24,ASCENT,RKT_SUSTAIN,205.71,80,-125.71,12009.95,-0.86,10.69,10.75,245.14,-0.122,1,0,0,0,0,0,0,0,0,0,245.14,24.811,0,0,0,0,0,0,0,0,90.4,1,0,-0.024,0,0,3,0,0,0,11.5,-10.342,0,0,1,1,0,0,VALID,17529.2,17259,1.428,12031,0,1,0,-1212.92,25,1,0,0,0,0,0,0,0,0,2,2,0,0,2,2,260.02,FLYING
315.8,ASCENT,RKT_SUSTAIN,201.05,80,-121.05,12013.9,2.8,12.43,12.01,245.13,-0.104,1,0,0,0,0,0,0,0,0,0,245.13,23.598,0,0,0,0,0,0,0,0,90.4,1,0,-0.024,0,0,3,0,0,0,11.5,-10.342,0,0,1,1,0,0,VALID,16903.9,16613.2,1.401,12018,0,1,0,-1104.74,23,1,0,0,0,0,0,0,0,0,2,2,0,0,2,2,262.58,FLYING
318.36,ASCENT,RKT_SUSTAIN,196.48,80,-116.48,12024.2,4.17,13.16,12.51,245.14,-0.13,1,0,0,0,0,0,0,0,0,0,245.14,21.922,0,0,0,0,0,0,0,0,90.4,1,0,-0.024,0,0,3,0,0,0,11.5,-10.342,0,0,1,1,0,0,VALID,16266.4,15984,1.376,12018,0,1,0,-995.8,21,1,0,0,0,0,0,0,0,0,2,2,0,0,2,2,265.14,FLYING
320.9,ASCENT,RKT_SUSTAIN,192.46,80,-112.46,12034.48,2.77,10.86,10.39,245.16,-0.131,1,0,0,0,0,0,0,0,0,0,245.16,19.643,0,0,0,0,0,0,0,0,90.4,1,0,-0.024,0,0,3,0,0,0,11.5,-10.342,0,0,1,1,0,0,VALID,15674.2,15431,1.353,12024,0,1,0,-872.84,19,1,0,0,0,0,0,0,0,0,2,2,0,0,2,2,267.68,FLYING
323.44,ASCENT,RKT_SUSTAIN,187.74,80,-107.74,12042.51,2.6,15.07,14.66,245.2,-0.12,1,0,0,0,0,0,0,0,0,0,245.2,17.615,0,0,0,0,0,0,0,0,90.4,1,0,-0.024,0,0,3,0,0,0,11.5,-10.342,0,0,1,1,0,0,VALID,15103.7,14819.8,1.327,12031,0,1,0,-888.45,17,1,0,0,0,0,0,0,0,0,2,2,0,0,2,2,270.22,FLYING
326,ASCENT,RKT_SUSTAIN,181.97,80,-101.97,12047.85,1.27,13.3,13.11,245.22,-0.117,1,0,0,0,0,0,0,0,0,0,245.22,15.327,0,0,0,0,0,0,0,0,90.4,1,0,-0.024,0,0,3,0,0,0,11.5,-10.342,0,0,1,1,0,0,DEGRADED,14394.1,14070.8,1.294,12038,0,1,0,-976.56,15,1,0,0,0,0,0,0,0,0,2,2,0,0,2,2,272.78,FLYING
328.54,ASCENT,RKT_SUSTAIN,176.81,80,-96.81,12047.32,-2.31,18.95,19.3,245.25,-0.115,1,0,0,0,0,0,0,0,0,0,245.25,15.413,0,0,0,0,0,0,0,0,90.4,1,0,-0.024,0,0,3,0,0,0,11.5,-10.342,0,0,1,1,0,0,DEGRADED,13751.2,13440.9,1.264,12041,0,1,0,-984.07,16,1,0,0,0,0,0,0,0,0,2,2,0,0,2,2,275.32,FLYING
331.06,ASCENT,RKT_SUSTAIN,169.14,80,-89.14,12040.24,-3.96,19.35,19.98,245.28,-0.115,1,0,0,0,0,0,0,0,0,0,245.28,16.942,0,0,0,0,0,0,0,0,90.4,1,0,-0.024,0,0,3,0,0,0,11.5,-10.342,0,0,1,1,0,0,VALID,12912.9,12515.2,1.219,12039,0,1,0,-1184.29,18,1,0,0,0,0,0,0,0,0,2,2,0,0,2,2,277.84,FLYING
333.6,ASCENT,RKT_SUSTAIN,161.6,80,-81.6,12025.72,-7.48,18.75,19.99,245.3,-0.114,1,0,0,0,0,0,0,0,0,0,245.3,17.875,0,0,0,0,0,0,0,0,90.4,1,0,-0.024,0,0,3,0,0,0,11.5,-10.342,0,0,1,1,0,0,VALID,12027,11632.1,1.173,12032,0,1,0,-1259.29,20,1,0,0,0,0,0,0,0,0,2,2,0,0,2,2,280.38,FLYING
336.14,ASCENT,RKT_SUSTAIN,154.82,80,-74.82,12001.4,-11.52,18.01,19.99,245.31,-0.118,1,0,0,0,0,0,0,0,0,0,245.31,18.519,0,0,0,0,0,0,0,0,90.4,1,0,-0.024,0,0,3,0,0,0,11.5,-10.342,0,0,1,1,0,0,VALID,11219.2,10866.7,1.132,12019,0,1,0,-1233.54,22,1,0,0,0,0,0,0,0,0,2,2,0,0,2,2,282.92,FLYING
338.68,ASCENT,RKT_SUSTAIN,148.79,80,-68.79,11966.36,-15.88,17.17,19.99,245.33,-0.123,1,0,0,0,0,0,0,0,0,0,245.33,18.919,0,0,0,0,0,0,0,0,90.4,1,0,-0.024,0,0,3,0,0,0,11.5,-10.342,0,0,1,1,0,0,VALID,10514.6,10209.8,1.093,11999,0,1,0,-1165.32,24,1,0,0,0,0,0,0,0,0,2,2,0,0,2,2,285.46,FLYING
341.2,ASCENT,RKT_SUSTAIN,143.53,80,-63.53,11920.28,-20.47,16.24,19.99,245.34,-0.126,1,0,0,0,0,0,0,0,0,0,245.34,18.091,0,0,0,0,0,0,0,0,90.4,1,0,-0.024,0,0,3,0,0,0,11.5,-10.342,0,0,1,1,0,0,VALID,9911.9,9654.3,1.058,11970,0,1,0,-1081.76,25,1,0,0,0,0,0,0,0,0,2,2,0,0,2,2,287.98,FLYING
343.74,ASCENT,RKT_SUSTAIN,138.93,80,-58.93,11861.84,-25.31,15.32,20.1,245.36,-0.132,1,0,0,0,0,0,0,0,0,0,245.35,16.014,0,0,0,0,0,0,0,0,90.4,1,0,-0.024,0,0,3,0,0,0,11.5,-10.342,0,0,1,1,0,0,VALID,9399.8,9181.6,1.026,11933,0,1,0,-1008.26,25,1,0,0,0,0,0,0,0,0,2,2,0,0,2,2,290.52,FLYING
346.28,ASCENT,RKT_SUSTAIN,134.9,80,-54.9,11791.19,-30.11,14.93,20.79,245.37,-0.139,1,0,0,0,0,0,0,0,0,0,245.37,13.784,0,0,0,0,0,0,0,0,90.4,1,0,-0.024,0,0,3,0,0,0,11.5,-10.342,0,0,1,1,0,0,VALID,8963.7,8775.5,0.997,11887,0,1,0,-951.94,25,1,0,0,0,0,0,0,0,0,2,2,0,0,2,2,293.06,FLYING
348.8,ASCENT,RKT_SUSTAIN,131.53,80,-51.53,11709.59,-34.19,14.12,21.02,245.38,-0.137,1,0,0,0,0,0,0,0,0,0,245.38,11.692,0,0,0,0,0,0,0,0,90.4,1,0,-0.024,0,0,3,0,0,0,11.5,-10.342,0,0,1,1,0,0,VALID,8605,8448.1,0.97,11830,0,1,0,-902.89,25,1,0,0,0,0,0,0,0,0,2,2,0,0,2,2,295.58,FLYING
351.32,ASCENT,RKT_SUSTAIN,129.35,80,-49.35,11616.08,-39.47,12.84,20.89,245.39,-0.145,1,0,0,0,0,0,0,0,0,0,245.39,9.133,0,0,0,0,0,0,0,0,90.4,1,0,-0.024,0,0,3,0,0,0,11.5,-10.342,0,0,1,1,0,0,VALID,8342.1,8239.6,0.949,11765,0,1,0,-826.96,25,1,0,0,0,0,0,0,0,0,2,2,0,0,2,2,298.1,FLYING
353.84,ASCENT,RKT_SUSTAIN,127.19,80,-47.19,11511.11,-43.53,12.37,21.49,245.4,-0.149,1,0,0,0,0,0,0,0,0,0,245.4,6.89,0,0,0,0,0,0,0,0,90.4,1,0,-0.024,0,0,3,0,0,0,11.5,-10.342,0,0,1,1,0,0,VALID,8134.6,8040.8,0.928,11690,0,1,0,-813.27,25,1,0,0,0,0,0,0,0,0,2,2,0,0,2,2,300.62,FLYING
356.38,ASCENT,RKT_SUSTAIN,125.4,80,-45.4,11395.31,-47.39,12.58,22.71,245.41,-0.157,1,0,0,0,0,0,0,0,0,0,245.41,4.639,0,0,0,0,0,0,0,0,90.4,1,0,-0.024,0,0,3,0,0,0,11.5,-10.342,0,0,1,1,0,0,VALID,7959.9,7883.8,0.909,11604,0,1,0,-806.38,25,1,0,0,0,0,0,0,0,0,2,2,0,0,2,2,303.16,FLYING
358.92,ASCENT,RKT_SUSTAIN,123.65,80,-43.65,11270.54,-50.66,11.74,22.81,245.41,-0.155,1,0,0,0,0,0,0,0,0,0,245.41,2.53,0,0,0,0,0,0,0,0,90.4,1,0,-0.024,0,0,3,0,0,0,11.5,-10.342,0,0,1,1,0,0,VALID,7798.6,7727.4,0.889,11507,0,1,0,-817.92,25,1,0,0,0,0,0,0,0,0,2,2,0,0,2,2,305.7,FLYING
361.48,ASCENT,RKT_SUSTAIN,122.76,80,-42.76,11135.03,-55.05,7.96,20.21,245.41,-0.142,1,0,0,0,0,0,0,0,0,0,245.41,0.045,0,0,0,0,0,0,0,0,90.4,1,0,-0.024,0,0,3,0,0,0,11.5,-10.342,0,0,1,1,0,0,VALID,7683.1,7657.3,0.873,11402,0,1,0,-792.86,25,1,0,0,0,0,0,0,0,0,2,2,0,0,2,2,308.26,FLYING
364.02,ASCENT,RKT_SUSTAIN,122.72,80,-42.72,10989.11,-59.58,8.47,21.93,245.42,-0.152,1,0,0,0,0,0,0,0,0,0,245.42,-2.402,0,0,0,0,0,0,0,0,90.4,1,0,-0.024,0,0,3,0,0,0,11.5,-10.342,0,0,1,1,0,0,VALID,7683.9,7689.4,0.863,11292,0,1,0,-769.33,25,1,0,0,0,0,0,0,0,0,2,2,0,0,2,2,310.8,FLYING
366.54,ASCENT,RKT_SUSTAIN,122.5,80,-42.5,10834.39,-62.89,8.59,23.03,245.43,-0.149,1,0,0,0,0,0,0,0,0,0,245.43,-4.437,0,0,0,0,0,0,0,0,90.4,1,0,-0.024,0,0,3,0,0,0,11.5,-10.342,0,0,1,1,0,0,VALID,7697.4,7701.9,0.851,11171,0,1,0,-792.16,25,1,0,0,0,0,0,0,0,0,2,2,0,0,2,2,313.32,FLYING
369.1,ASCENT,RKT_SUSTAIN,123.24,80,-43.24,10666.33,-67.78,4.29,19.99,245.41,-0.137,1,0,0,0,0,0,0,0,0,0,245.41,-6.87,0,0,0,0,0,0,0,0,90.4,1,0,-0.024,0,0,3,0,0,0,11.5,-10.342,0,0,1,1,0,0,VALID,7754.3,7808,0.843,11042,0,1,0,-780.75,25,1,0,0,0,0,0,0,0,0,2,2,0,0,2,2,315.88,FLYING
371.64,ASCENT,RKT_SUSTAIN,124.76,80,-44.76,10487.59,-72.59,3.45,20.36,245.42,-0.152,1,0,0,0,0,0,0,0,0,0,245.42,-9.098,0,0,0,0,0,0,0,0,90.4,1,0,-0.024,0,0,3,0,0,0,11.5,-10.342,0,0,1,1,0,0,VALID,7925.3,8013.2,0.839,10907,0,1,0,-774.01,25,1,0,0,0,0,0,0,0,0,2,2,0,0,2,2,318.42,FLYING
374.14,ASCENT,RKT_SUSTAIN,126.16,80,-46.16,10301.76,-75.9,3.85,21.65,245.43,-0.167,1,0,0,0,0,0,0,0,0,0,245.43,-10.771,0,0,0,0,0,0,0,0,90.4,1,0,-0.024,0,0,3,0,0,0,11.5,-10.342,0,0,1,1,0,0,VALID,8122.7,8211.6,0.834,10761,0,1,0,-807.95,25,1,0,0,0,0,0,0,0,0,2,2,0,0,2,2,320.92,FLYING
376.64,ASCENT,RKT_SUSTAIN,127.01,80,-47.01,10110.09,-77.36,4.54,22.89,245.45,-0.176,1,0,0,0,0,0,0,0,0,0,245.45,-11.86,0,0,0,0,0,0,0,0,90.4,1,0,-0.024,0,0,3,0,0,0,11.5,-10.342,0,0,1,1,0,0,VALID,8288.8,8354,0.825,10599,0,1,0,-880.33,25,1,0,0,0,0,0,0,0,0,2,2,0,0,2,2,323.42,FLYING
379.16,ASCENT,RKT_SUSTAIN,128.42,80,-48.42,9911.83,-79.79,0.92,20.01,245.44,-0.166,1,0,0,0,0,0,0,0,0,0,245.44,-13.172,0,0,0,0,0,0,0,0,90.4,1,0,-0.024,0,0,3,0,0,0,11.5,-10.342,0,0,1,1,0,0,VALID,8452,8551.5,0.819,10426,0,1,0,-899.4,25,1,0,0,0,0,0,0,0,0,2,2,0,0,2,2,325.94,FLYING
381.66,ASCENT,RKT_SUSTAIN,130.45,80,-50.45,9709.31,-82.01,1.55,21.25,245.46,-0.195,1,0,0,0,0,0,0,0,0,0,245.46,-14.261,0,0,0,0,0,0,0,0,90.4,1,0,-0.024,0,0,3,0,0,0,11.5,-10.342,0,0,1,1,0,0,VALID,8715.6,8837.3,0.816,10249,0,1,0,-908.6,25,1,0,0,0,0,0,0,0,0,2,2,0,0,2,2,328.44,FLYING
384.18,ASCENT,RKT_SUSTAIN,131.65,80,-51.65,9502.38,-81.91,2.08,21.99,245.47,-0.203,1,0,0,0,0,0,0,0,0,0,245.47,-14.684,0,0,0,0,0,0,0,0,90.4,1,0,-0.024,0,0,3,0,0,0,11.5,-10.342,0,0,1,1,0,0,VALID,8946.2,9033.1,0.809,10059,0,1,0,-980.92,25,1,0,0,0,0,0,0,0,0,2,2,0,0,2,2,330.96,FLYING
386.74,ASCENT,RKT_SUSTAIN,132.93,80,-52.93,9292.43,-81.8,2.59,22.62,245.5,-0.231,1,0,0,0,0,0,0,0,0,0,245.5,-15,0,0,0,0,0,0,0,0,90.4,1,0,-0.024,0,0,3,0,0,0,11.5,-10.342,0,0,1,1,0,0,VALID,9147.8,9237.7,0.801,9857,0,1,0,-1023.65,25,1,0,0,0,0,0,0,0,0,2,2,0,0,2,2,333.52,FLYING
389.3,ASCENT,RKT_SUSTAIN,134.35,80,-54.35,9082.78,-82.05,-0.67,19.58,245.46,-0.154,1,0,0,0,0,0,0,0,0,0,245.46,-15,0,0,0,0,0,0,0,0,90.4,1,0,-0.024,0,0,3,0,0,0,11.5,-10.342,0,0,1,1,0,0,VALID,9338.8,9450.6,0.794,9648,0,1,0,-1031.87,25,1,0,0,0,0,0,0,0,0,2,2,0,0,2,2,336.08,FLYING
391.86,ASCENT,RKT_SUSTAIN,136.57,80,-56.57,8871.78,-82.69,-0.52,19.99,245.47,-0.169,1,0,0,0,0,0,0,0,0,0,245.47,-15,0,0,0,0,0,0,0,0,90.4,1,0,-0.024,0,0,3,0,0,0,11.5,-10.342,0,0,1,1,0,0,VALID,9636.4,9778.5,0.791,9443,0,1,0,-1017.48,25,1,0,0,0,0,0,0,0,0,2,2,0,0,2,2,338.64,FLYING
394.42,ASCENT,RKT_SUSTAIN,138.22,80,-58.22,8660.01,-82.62,-0.59,19.98,245.48,-0.181,1,0,0,0,0,0,0,0,0,0,245.48,-15,0,0,0,0,0,0,0,0,90.4,1,0,-0.024,0,0,3,0,0,0,11.5,-10.342,0,0,1,1,0,0,VALID,9924.1,10043.9,0.785,9235,0,1,0,-1026.36,25,1,0,0,0,0,0,0,0,0,2,2,0,0,2,2,341.2,FLYING
396.98,ASCENT,RKT_SUSTAIN,139.61,80,-59.61,8449.08,-82.13,-0.75,19.8,245.47,-0.143,1,0,0,0,0,0,0,0,0,0,245.47,-15,0,0,0,0,0,0,0,0,90.4,1,0,-0.024,0,0,3,0,0,0,11.5,-10.342,0,0,1,1,0,0,VALID,10166.1,10274,0.778,9023,0,1,0,-1037.13,25,1,0,0,0,0,0,0,0,0,2,2,0,0,2,2,343.76,FLYING
399.54,ASCENT,RKT_SUSTAIN,140.8,80,-60.8,7893.06,-81.04,-0.46,19.94,245.49,-0.173,1,0,0,0,0,0,0,0,0,0,245.49,-15,0,0,0,0,0,0,0,0,90.4,1,0,-0.024,0,0,3,0,0,0,11.5,-10.342,0,0,1,1,0,0,VALID,10387,10482.9,0.77,8808,0,1,0,-1049.62,25,1,0,0,0,0,0,0,0,0,2,2,0,0,2,2,346.32,FLYING
402.1,ASCENT,RKT_SUSTAIN,141.78,80,-61.78,7678.42,-79.53,-0.23,19.92,245.5,-0.191,1,0,0,0,0,0,0,0,0,0,245.5,-15,0,0,0,0,0,0,0,0,90.4,1,0,-0.024,0,0,3,0,0,0,11.5,-10.342,0,0,1,1,0,0,VALID,10580.6,10664.5,0.761,8591,0,1,0,-1058.3,25,1,0,0,0,0,0,0,0,0,2,2,0,0,2,2,348.88,FLYING
404.66,ASCENT,RKT_SUSTAIN,142.54,80,-62.54,7539.64,-77.67,0.08,19.9,245.52,-0.205,1,0,0,0,0,0,0,0,0,0,245.52,-15,0,0,0,0,0,0,0,0,90.4,1,0,-0.024,0,0,3,0,0,0,11.5,-10.342,0,0,1,1,0,0,VALID,10746.3,10816.8,0.752,8373,0,1,0,-1060.42,25,1,0,0,0,0,0,0,0,0,2,2,0,0,2,2,351.42,FLYING
407.22,ASCENT,RKT_SUSTAIN,143.07,80,-63.07,7354.5,-75.54,0.46,19.9,245.54,-0.216,1,0,0,0,0,0,0,0,0,0,245.54,-14.771,0,0,0,0,0,0,0,0,90.4,1,0,-0.024,0,0,3,0,0,0,11.5,-10.342,0,0,1,1,0,0,VALID,10881.3,10937.5,0.743,8157,0,1,0,-1055.84,25,1,0,0,0,0,0,0,0,0,2,2,0,0,2,2,354,FLYING
409.74,ASCENT,RKT_SUSTAIN,143.35,80,-63.35,7284.19,-73.25,0.88,19.9,245.55,-0.218,1,0,0,0,0,0,0,0,0,0,245.55,-14.201,0,0,0,0,0,0,0,0,90.4,1,0,-0.024,0,0,3,0,0,0,11.5,-10.342,0,0,1,1,0,0,VALID,10982.7,11023.2,0.732,7946,0,1,0,-1037.42,25,1,0,0,0,0,0,0,0,0,2,2,0,0,2,2,356.52,FLYING
412.24,ASCENT,RKT_SUSTAIN,143.41,80,-63.41,7119.33,-70.85,1.32,19.9,245.56,-0.214,1,0,0,0,0,0,0,0,0,0,245.56,-13.598,0,0,0,0,0,0,0,0,90.4,1,0,-0.024,0,0,3,0,0,0,11.5,-10.342,0,0,1,1,0,0,VALID,11049.9,11074.9,0.722,7741,0,1,0,-1012.1,25,1,0,0,0,0,0,0,0,0,2,2,0,0,2,2,359.02,FLYING
414.76,ASCENT,RKT_SUSTAIN,143.24,80,-63.24,6887.87,-68.4,1.67,19.81,245.56,-0.17,1,0,0,0,0,0,0,0,0,0,245.56,-12.971,0,0,0,0,0,0,0,0,90.4,1,0,-0.024,0,0,3,0,0,0,11.5,-10.342,0,0,1,1,0,0,VALID,11084.1,11093.9,0.711,7541,0,1,0,-989.9,25,1,0,0,0,0,0,0,0,0,2,2,0,0,2,2,361.54,FLYING
417.3,ASCENT,RKT_SUSTAIN,142.99,80,-62.99,6712.3,-66.15,2.18,19.93,245.56,-0.144,1,0,0,0,0,0,0,0,0,0,245.56,-12.414,0,0,0,0,0,0,0,0,90.4,1,0,-0.024,0,0,3,0,0,0,11.5,-10.342,0,0,1,1,0,0,VALID,11097.6,11096.7,0.7,7348,0,1,0,-965.26,25,1,0,0,0,0,0,0,0,0,2,2,0,0,2,2,364.08,FLYING
419.84,ASCENT,RKT_SUSTAIN,142.56,80,-62.56,6575.59,-64.02,2.13,19.52,245.56,-0.126,1,0,0,0,0,0,0,0,0,0,245.56,-11.881,0,0,0,0,0,0,0,0,90.4,1,0,-0.024,0,0,3,0,0,0,11.5,-10.342,0,0,1,1,0,0,VALID,11082.8,11073.5,0.689,7162,0,1,0,-937.31,25,1,0,0,0,0,0,0,0,0,2,2,0,0,2,2,366.62,FLYING
422.4,ASCENT,RKT_SUSTAIN,142.23,80,-62.23,6371.91,-62.41,2.14,19.27,245.56,-0.125,1,0,0,0,0,0,0,0,0,0,245.56,-11.535,0,0,0,0,0,0,0,0,90.4,1,0,-0.024,0,0,3,0,0,0,11.5,-10.342,0,0,1,1,0,0,VALID,11065.1,11058.7,0.678,6982,0,1,0,-904.63,25,1,0,0,0,0,0,0,0,0,2,2,0,0,2,2,369.18,FLYING
424.94,ASCENT,RKT_SUSTAIN,141.89,80,-61.89,6268.82,-60.98,2.25,19.2,245.56,-0.118,1,0,0,0,0,0,0,0,0,0,245.56,-11.258,0,0,0,0,0,0,0,0,90.4,1,0,-0.024,0,0,3,0,0,0,11.5,-10.342,0,0,1,1,0,0,VALID,11050.5,11043.5,0.668,6809,0,1,0,-870.42,25,1,0,0,0,0,0,0,0,0,2,2,0,0,2,2,371.72,FLYING
427.48,ASCENT,RKT_SUSTAIN,141.55,80,-61.55,6122.44,-59.81,2.28,19.09,245.57,-0.116,1,0,0,0,0,0,0,0,0,0,245.57,-11.065,0,0,0,0,0,0,0,0,90.4,1,0,-0.024,0,0,3,0,0,0,11.5,-10.342,0,0,1,1,0,0,VALID,11036,11026.6,0.658,6643,0,1,0,-841.58,25,1,0,0,0,0,0,0,0,0,2,2,0,0,2,2,374.26,FLYING
430,ASCENT,RKT_SUSTAIN,141.31,80,-61.31,5954.85,-58.98,2.01,18.77,245.57,-0.114,1,0,0,0,0,0,0,0,0,0,245.57,-10.991,0,0,0,0,0,0,0,0,90.4,1,0,-0.024,0,0,3,0,0,0,11.5,-10.342,0,0,1,1,0,0,VALID,11023.3,11018.5,0.649,6481,0,1,0,-810.43,25,1,0,0,0,0,0,0,0,0,2,2,0,0,2,2,376.78,FLYING
432.5,ASCENT,RKT_SUSTAIN,141.11,80,-61.11,5816.56,-58.3,2.45,19.18,245.57,-0.113,1,0,0,0,0,0,0,0,0,0,245.57,-10.982,0,0,0,0,0,0,0,0,90.4,1,0,-0.024,0,0,3,0,0,0,11.5,-10.342,0,0,1,1,0,0,VALID,11020.6,11023,0.641,6326,0,1,0,-780.81,25,1,0,0,0,0,0,0,0,0,2,2,0,0,2,2,379.28,FLYING
435.02,ASCENT,RKT_SUSTAIN,140.87,80,-60.87,5635.66,-57.77,2.19,18.91,245.58,-0.118,1,0,0,0,0,0,0,0,0,0,245.58,-11.006,0,0,0,0,0,0,0,0,90.4,1,0,-0.024,0,0,3,0,0,0,11.5,-10.342,0,0,1,1,0,0,VALID,11007.9,11007.3,0.632,6173,0,1,0,-764.1,25,1,0,0,0,0,0,0,0,0,2,2,0,0,2,2,381.8,FLYING
437.52,ASCENT,RKT_SUSTAIN,140.63,80,-60.63,5497.97,-57.15,1.97,18.72,245.58,-0.112,1,0,0,0,0,0,0,0,0,0,245.58,-10.99,0,0,0,0,0,0,0,0,90.4,1,0,-0.024,0,0,3,0,0,0,11.5,-10.342,0,0,1,1,0,0,VALID,10997.9,10999.6,0.624,6023,0,1,0,-746.32,25,1,0,0,0,0,0,0,0,0,2,2,0,0,2,2,384.3,FLYING
440.04,ASCENT,RKT_SUSTAIN,140.53,80,-60.53,5340.05,-56.86,1.94,18.76,245.58,-0.113,1,0,0,0,0,0,0,0,0,0,245.58,-11.094,0,0,0,0,0,0,0,0,90.4,1,0,-0.024,0,0,3,0,0,0,11.5,-10.342,0,0,1,1,0,0,VALID,11003.3,11010.8,0.617,5876,0,1,0,-732.86,25,1,0,0,0,0,0,0,0,0,2,2,0,0,2,2,386.82,FLYING
442.54,ASCENT,RKT_SUSTAIN,140.46,80,-60.46,5223.85,-56.65,1.45,18.37,245.58,-0.108,1,0,0,0,0,0,0,0,0,0,245.58,-11.207,0,0,0,0,0,0,0,0,90.4,1,0,-0.024,0,0,3,0,0,0,11.5,-10.342,0,0,1,1,0,0,VALID,11013.7,11020,0.609,5731,0,1,0,-721.71,25,1,0,0,0,0,0,0,0,0,2,2,0,0,2,2,389.32,FLYING
445.04,ASCENT,RKT_SUSTAIN,140.55,80,-60.55,5126.67,-56.66,1.36,18.41,245.59,-0.109,1,0,0,0,0,0,0,0,0,0,245.59,-11.413,0,0,0,0,0,0,0,0,90.4,1,0,-0.024,0,0,3,0,0,0,11.5,-10.342,0,0,1,1,0,0,VALID,11042.8,11058.5,0.603,5587,0,1,0,-710.06,25,1,0,0,0,0,0,0,0,0,2,2,0,0,2,2,391.82,FLYING
447.56,ASCENT,RKT_SUSTAIN,140.69,80,-60.69,5061.78,-56.7,0.93,18.11,245.59,-0.109,1,0,0,0,0,0,0,0,0,0,245.59,-11.598,0,0,0,0,0,0,0,0,90.4,1,0,-0.024,0,0,3,0,0,0,11.5,-10.342,0,0,1,1,0,0,VALID,11079.7,11096.9,0.597,5445,0,1,0,-706.99,25,1,0,0,0,0,0,0,0,0,2,2,0,0,2,2,394.34,FLYING
450.06,ASCENT,RKT_SUSTAIN,140.94,80,-60.94,4989.71,-56.82,1.78,19.08,245.6,-0.117,1,0,0,0,0,0,0,0,0,0,245.6,-11.835,0,0,0,0,0,0,0,0,90.4,1,0,-0.024,0,0,3,0,0,0,11.5,-10.342,0,0,1,1,0,0,VALID,11126.7,11154.3,0.591,5302,0,1,0,-696.96,25,1,0,0,0,0,0,0,0,0,2,2,0,0,2,2,396.84,FLYING
452.6,ASCENT,RKT_SUSTAIN,139.87,80,-59.87,4848.71,-54.64,3,19.95,245.61,-0.131,1,0,0,0,0,0,0,0,0,0,245.61,-11.027,0,0,0,0,0,0,0,0,90.4,1,0,-0.024,0,0,3,0,0,0,11.5,-10.342,0,0,1,1,0,0,VALID,11072.4,11028.5,0.58,5155,0,1,0,-726.12,25,1,0,0,0,0,0,0,0,0,2,2,0,0,2,2,399.38,FLYING
455.14,ASCENT,RKT_SUSTAIN,138.73,80,-58.73,4712.36,-52.88,3.31,19.96,245.62,-0.144,1,0,0,0,0,0,0,0,0,0,245.62,-10.369,0,0,0,0,0,0,0,0,90.4,1,0,-0.024,0,0,3,0,0,0,11.5,-10.342,0,0,1,1,0,0,VALID,10946.1,10883.4,0.57,5007,0,1,0,-725.23,25,1,0,0,0,0,0,0,0,0,2,2,0,0,2,2,401.92,FLYING
457.68,ASCENT,RKT_SUSTAIN,137.55,80,-57.55,4579.98,-51.48,3.52,19.98,245.63,-0.14,1,0,0,0,0,0,0,0,0,0,245.63,-9.862,0,0,0,0,0,0,0,0,90.4,1,0,-0.024,0,0,3,0,0,0,11.5,-10.342,0,0,1,1,0,0,VALID,10799,10730.6,0.559,4863,0,1,0,-709.13,25,1,0,0,0,0,0,0,0,0,2,2,0,0,2,2,404.46,FLYING
460.2,ASCENT,RKT_SUSTAIN,136.39,80,-56.39,4451.66,-50.45,3.61,20,245.64,-0.13,1,0,0,0,0,0,0,0,0,0,245.64,-9.51,0,0,0,0,0,0,0,0,90.4,1,0,-0.024,0,0,3,0,0,0,11.5,-10.342,0,0,1,1,0,0,VALID,10647.5,10578.9,0.549,4724,0,1,0,-685.16,25,1,0,0,0,0,0,0,0,0,2,2,0,0,2,2,406.98,FLYING
462.74,ASCENT,RKT_SUSTAIN,135.27,80,-55.27,4324.42,-49.79,3.57,19.99,245.64,-0.124,1,0,0,0,0,0,0,0,0,0,245.64,-9.301,0,0,0,0,0,0,0,0,90.4,1,0,-0.024,0,0,3,0,0,0,11.5,-10.342,0,0,1,1,0,0,VALID,10499.2,10433.4,0.54,4589,0,1,0,-664.19,25,1,0,0,0,0,0,0,0,0,2,2,0,0,2,2,409.52,FLYING
465.26,ASCENT,RKT_SUSTAIN,134.33,80,-54.33,4199.19,-49.59,3.02,19.62,245.64,-0.11,1,0,0,0,0,0,0,0,0,0,245.64,-9.304,0,0,0,0,0,0,0,0,90.4,1,0,-0.024,0,0,3,0,0,0,11.5,-10.342,0,0,1,1,0,0,VALID,10364.8,10309.9,0.531,4458,0,1,0,-641.4,25,1,0,0,0,0,0,0,0,0,2,2,0,0,2,2,412.04,FLYING
467.82,ASCENT,RKT_SUSTAIN,133.93,80,-53.93,4071.19,-50.28,1.93,18.94,245.64,-0.105,1,0,0,0,0,0,0,0,0,0,245.64,-9.738,0,0,0,0,0,0,0,0,90.4,1,0,-0.024,0,0,3,0,0,0,11.5,-10.342,0,0,1,1,0,0,VALID,10285.5,10262.1,0.524,4331,0,1,0,-624.08,25,1,0,0,0,0,0,0,0,0,2,2,0,0,2,2,414.6,FLYING
470.32,ASCENT,RKT_SUSTAIN,133.92,80,-53.92,3944,-51.31,1.5,19,245.65,-0.11,1,0,0,0,0,0,0,0,0,0,245.65,-10.332,0,0,0,0,0,0,0,0,90.4,1,0,-0.024,0,0,3,0,0,0,11.5,-10.342,0,0,1,1,0,0,VALID,10272.7,10273.4,0.519,4207,0,1,0,-607.24,25,1,0,0,0,0,0,0,0,0,2,2,0,0,2,2,417.1,FLYING
472.86,ASCENT,RKT_SUSTAIN,134.12,80,-54.12,3812.13,-52.36,0.9,18.89,245.65,-0.111,1,0,0,0,0,0,0,0,0,0,245.65,-10.911,0,0,0,0,0,0,0,0,90.4,1,0,-0.024,0,0,3,0,0,0,11.5,-10.342,0,0,1,1,0,0,VALID,10297.5,10314.6,0.514,4082,0,1,0,-607.97,25,1,0,0,0,0,0,0,0,0,2,2,0,0,2,2,419.64,FLYING
475.4,ASCENT,RKT_SUSTAIN,134.54,80,-54.54,3677.61,-53.4,0.31,18.78,245.66,-0.112,1,0,0,0,0,0,0,0,0,0,245.66,-11.468,0,0,0,0,0,0,0,0,90.4,1,0,-0.024,0,0,3,0,0,0,11.5,-10.342,0,0,1,1,0,0,VALID,10355.4,10387.3,0.51,3956,0,1,0,-614.68,25,1,0,0,0,0,0,0,0,0,2,2,0,0,2,2,422.18,FLYING
477.94,ASCENT,RKT_SUSTAIN,135.16,80,-55.16,3540.49,-54.4,-0.27,18.63,245.66,-0.112,1,0,0,0,0,0,0,0,0,0,245.66,-11.99,0,0,0,0,0,0,0,0,90.4,1,0,-0.024,0,0,3,0,0,0,11.5,-10.342,0,0,1,1,0,0,VALID,10444.2,10490,0.507,3827,0,1,0,-624.29,25,1,0,0,0,0,0,0,0,0,2,2,0,0,2,2,424.72,FLYING
480.44,ASCENT,RKT_SUSTAIN,135.97,80,-55.97,3403.1,-55.34,-0.87,18.41,245.67,-0.112,1,0,0,0,0,0,0,0,0,0,245.67,-12.47,0,0,0,0,0,0,0,0,90.4,1,0,-0.024,0,0,3,0,0,0,11.5,-10.342,0,0,1,1,0,0,VALID,10562.5,10621.2,0.505,3696,0,1,0,-629.64,25,1,0,0,0,0,0,0,0,0,2,2,0,0,2,2,427.22,FLYING
