t_s,phase,subphase,ias_ms,vapp_ms,spd_err_ms,agl_m,gear_h_m,vs_ms,pitch_deg,aoa_deg,hdg_deg,bank_deg,thr_cmd,thr_cur,thr_intg,at_gain,at_tau_s,at_a_up,at_a_dn,at_kp_thr,at_ki_spd,at_thr_slew,as_cmd_deg,as_cap_deg,as_raw_deg,as_spd_err_ms,as_active,aa_hdg_cmd_deg,aa_fpa_cmd_deg,aa_fbw,aa_dir,actual_fpa_deg,ftf_hdg_err_deg,ftf_fix_idx,kos_steer_pit_deg,kos_steer_hdg_deg,aa_dir_vx,aa_dir_vy,aa_dir_vz,aa_dir_pitch_deg,aa_dir_hdg_deg,ils_loc_m,ils_gs_m,ils_dist_km,loc_corr_deg,gs_corr_deg,gs_latched,active_gs_ang_deg,ils_intercept_alt_m,d_gs_ms,fpa_preclamped_deg,gs_nom_alt_m,flare_fpa_cmd,flare_tgt_vs,flare_frac,flare_vs_err,flare_fpa_err,flare_pitch_err,flare_req_up_a,flare_thr_floor,steer_hdg_deg,steer_blend,ro_loc_corr_deg,ro_hdg_err_deg,ro_yaw_tgt,ro_yaw_scale,ro_yaw_gate,yaw_cmd,roll_cmd,pitch_cmd,ro_pitch_tgt_deg,ro_pitch_err_deg,ro_pitch_ff,ro_roll_assist,flaps_cur,flaps_tgt,asc_j_ab,asc_j_rk,asc_validity,asc_q_pa,asc_q_raw_pa,asc_mach,asc_apo_m,asc_drag_n,asc_w_prop,asc_edot_aero,asc_edot_orb,asc_pitch_bias,asc_blend,asc_spooling,asc_ab_thr_ratio,asc_ab_t_now,asc_ab_t_avail,asc_ab_ign_on,asc_ab_flameouts,asc_rk_t_now,asc_rk_t_avail,asc_rk_ign_on,asc_rk_flameouts,ship_thrust,ship_avail_thrust,ship_ign_on,ship_flameouts,ifc_raw_dt_s,ifc_dt_s,ifc_loop_n,ifc_hz_est,ifc_raw_dt_max_s,ifc_raw_dt_min_s,phase_el_s,status,craft_name,cfg_file
0.16,APPROACH,ILS_TRACK,156.74,152,-4.74,1338.71,1258.21,-13.86,12.1,17.31,268.38,-14.261,0,0,0,0,0,0,0,0,0,0,0,0,0,0,0,0,0,1,0,-5.07,0,0,0,90,0,0,0,0,0,-105.5,-272.19,29.32,0,0,0,3,1338.71,0,0,1610.9,0,0,0,0,0,0,0,0,268.4,0,0,0,0,0,0,0,0,0,0,0,0,0,0,0,0,0,VALID,0,0,0,0,0,1,0,0,0,0,0,0,0,0,0,0,0,0,0,0,339.72,1052.86,2,0,0.14,0.14,1,3.7,0.14,0.02,0.16,FLYING,X10-F,0:/Integrated Flight Computer/aircraft/x10_f_cfg.ks (inferred preloaded)
0.42,APPROACH,ILS_TRACK,156.73,152,-4.73,1335.18,1254.77,-13.18,12.07,17,268.32,-13.455,0,0,0,1,0.6,1.422,0.75,0.35,0.0168,0.4,3.59,20.558,3.59,4.73,1,272.2,0,0,1,-4.85,0,0,0,295,0.0308,0.0384,0.9988,0,272.2,-103.75,-273.22,29.283,2.203,0,0,3,1338.71,-4.53,0,1608.94,0,0,0,0,0,0,0,0,268.4,0,0,0,0,0,0,0,0,0,0,0,0,0,1,3,0,0,VALID,0,0,0,0,0,1,0,0,0,0,0,0,0,0,0,0,0,0,0,0,310.12,1053.02,2,0,0.12,0.12,3,7.69,0.14,0.12,0.42,FLYING,X10-F,0:/Integrated Flight Computer/aircraft/x10_f_cfg.ks (inferred preloaded)
0.74,APPROACH,ILS_TRACK,156.61,152,-4.61,1331.03,1250.87,-12.48,11.84,16.43,268.48,-11.46,0,0,0,1,0.6,3.156,0.75,0.35,0.0168,0.4,3.474,20.588,3.474,4.622,1,272.39,0,0,1,-4.58,0,0,0,272.34,0.0309,0.0417,0.9987,0,272.39,-101.5,-274.54,29.228,2.391,0,0,3,1338.71,-3.861,0,1606.07,0,0,0,0,0,0,0,0,268.4,0,0,0,0,0,0,0,0,0,0,0,0,0,1,3,0,0,VALID,0,0,0,0,0,1,0,0,0,0,0,0,0,0,0,0,0,0,0,0,277.1,1052.78,2,0,0.08,0.08,6,9.38,0.14,0.08,0.74,FLYING,X10-F,0:/Integrated Flight Computer/aircraft/x10_f_cfg.ks (inferred preloaded)
1.1,APPROACH,ILS_TRACK,156.41,152,-4.41,1326.71,1247,-11.89,11.97,16.18,269,-5.655,0,0,0,1,0.6,4.5,0.75,0.35,0.0168,0.4,3.264,20.644,3.264,4.425,1,272.51,0,0,1,-4.37,0,0,0,272.48,0.031,0.0438,0.9986,0,272.51,-99.29,-275.69,29.167,2.511,0,0,3,1338.71,-2.819,0,1602.86,0,0,0,0,0,0,0,0,268.4,0,0,0,0,0,0,0,0,0,0,0,0,0,2,3,0,0,VALID,0,0,0,0,0,1,0,0,0,0,0,0,0,0,0,0,0,0,0,0,244.05,1052.18,2,0,0.12,0.12,9,8.33,0.12,0.08,1.1,FLYING,X10-F,0:/Integrated Flight Computer/aircraft/x10_f_cfg.ks (inferred preloaded)
1.46,APPROACH,ILS_TRACK,156.09,152,-4.09,1322.84,1243.22,-11.32,12.97,16.89,269.78,-1.167,0,0,0,1,0.6,4.5,0.75,0.35,0.0168,0.4,2.933,20.731,2.933,4.118,1,272.56,0,0,1,-4.17,0,0,0,272.56,0.0311,0.0446,0.9985,0,272.56,-97.32,-276.4,29.106,2.556,0,0,3,1338.71,-1.518,0,1599.65,0,0,0,0,0,0,0,0,268.4,0,0,0,0,0,0,0,0,0,0,0,0,0,3,3,0,0,VALID,0,0,0,0,0,1,0,0,0,0,0,0,0,0,0,0,0,0,0,0,214.84,1051.06,2,0,0.12,0.12,12,8.33,0.12,0.12,1.46,FLYING,X10-F,0:/Integrated Flight Computer/aircraft/x10_f_cfg.ks (inferred preloaded)
1.82,APPROACH,ILS_TRACK,155.49,152,-3.49,1319.42,1239.27,-10.28,14.7,18.25,270.69,1.25,0.0917,0,-1.353,1,0.6,4.5,0.75,0.35,0.0168,0.4,0,20.894,0,3.539,0,272.51,0,0,1,-3.85,0,0,0,272.53,0.0312,0.0438,0.9986,0,272.51,-95.43,-276.66,29.044,2.512,0,0,3,1338.71,-0.386,0,1596.45,0,0,0,0,0,0,0,0,268.4,0,0,0,0,0,0,0,0,0,0,0,0,0,3,3,0,0,VALID,0,0,0,0,0,1,0,0,0,0,0,0,0,0,0,0,0,0,0,0,190.5,1048.72,2,0,0.12,0.12,15,8.33,0.12,0.12,1.82,FLYING,X10-F,0:/Integrated Flight Computer/aircraft/x10_f_cfg.ks (inferred preloaded)
2.16,APPROACH,ILS_TRACK,154.57,152,-2.57,1316.39,1236.09,-8.79,15.5,18.5,271.41,1.18,0.2277,0,-2.353,1,0.6,4.5,0.75,0.35,0.0168,0.4,0,21.152,0,2.623,0,272.41,0,0,1,-3.31,0,0,0,272.45,0.0313,0.042,0.9986,0,272.41,-93.63,-276.7,28.987,2.408,0,0,3,1338.71,0.02,0,1593.44,0,0,0,0,0,0,0,0,268.4,0,0,0,0,0,0,0,0,0,0,0,0,0,3,3,0,0,VALID,0,0,0,0,0,1,0,0,0,0,0,0,0,0,0,0,0,0,0,0,183.57,1044.9,2,0,0.1,0.1,18,8.82,0.12,0.1,2.16,FLYING,X10-F,0:/Integrated Flight Computer/aircraft/x10_f_cfg.ks (inferred preloaded)
2.44,APPROACH,ILS_TRACK,153.78,152,-1.78,1314.07,1233.82,-7.73,15.48,18.12,271.76,-0.498,0.3397,0,-2.939,1,0.6,4.5,0.75,0.35,0.0168,0.4,0,21.374,0,1.833,0,272.32,0,0,1,-2.93,0,0,0,272.34,0.0314,0.0404,0.9987,0,272.32,-92.11,-276.59,28.94,2.317,0,0,3,1338.71,0.663,0,1590.97,0,0,0,0,0,0,0,0,268.4,0,0,0,0,0,0,0,0,0,0,0,0,0,3,3,0,0,VALID,0,0,0,0,0,1,0,0,0,0,0,0,0,0,0,0,0,0,0,0,187.61,1041.64,2,0,0.08,0.08,21,10.71,0.1,0.08,2.44,FLYING,X10-F,0:/Integrated Flight Computer/aircraft/x10_f_cfg.ks (inferred preloaded)
2.8,APPROACH,ILS_TRACK,152.85,152,-0.85,1311.38,1231.19,-6.62,15.04,17.3,271.72,-1.353,0.4837,0,-3.371,1,0.6,4.5,0.75,0.35,0.0168,0.4,0,21.637,0,0.899,0,272.2,0,0,1,-2.51,0,0,0,272.26,0.0315,0.0384,0.9988,0,272.2,-90.11,-276.16,28.88,2.201,0,0,3,1338.71,1.499,0,1587.82,0,0,0,0,0,0,0,0,268.4,0,0,0,0,0,0,0,0,0,0,0,0,0,3,3,0,0,VALID,0,0,0,0,0,1,0,0,0,0,0,0,0,0,0,0,0,0,0,0,201.46,1037.8,2,0,0.12,0.12,24,8.33,0.12,0.08,2.8,FLYING,X10-F,0:/Integrated Flight Computer/aircraft/x10_f_cfg.ks (inferred preloaded)
3.14,APPROACH,ILS_TRACK,152.14,152,-0.14,1309.14,1229.11,-5.87,14.56,16.57,271.47,-1.134,0.6197,0,-3.51,1,0.6,4.5,0.75,0.35,0.0168,0.4,0,21.84,0,0.182,0,272.17,0,0,1,-2.23,0,0,0,272.17,0.0316,0.0379,0.9988,0,272.17,-88.24,-275.46,28.823,2.175,0,0,3,1338.71,2.305,0,1584.85,0,0,0,0,0,0,0,0,268.4,0,0,0,0,0,0,0,0,0,0,0,0,0,3,3,0,0,VALID,0,0,0,0,0,1,0,0,0,0,0,0,0,0,0,0,0,0,0,0,223.18,1034.89,2,0,0.1,0.1,27,8.82,0.12,0.1,3.14,FLYING,X10-F,0:/Integrated Flight Computer/aircraft/x10_f_cfg.ks (inferred preloaded)
3.42,APPROACH,ILS_TRACK,151.67,152,0.33,1307.51,1227.58,-5.5,14.34,16.25,271.56,-0.521,0.6596,0,-3.469,1,0.6,4.5,0.75,0.35,0.0168,0.4,0,21.976,0,-0.3,0,272.15,0,0,1,-2.09,0,0,0,272.17,0.0317,0.0376,0.9988,0,272.15,-86.76,-274.69,28.777,2.154,0,0,3,1338.71,2.99,0,1582.42,0,0,0,0,0,0,0,0,268.4,0,0,0,0,0,0,0,0,0,0,0,0,0,3,3,0,0,VALID,0,0,0,0,0,1,0,0,0,0,0,0,0,0,0,0,0,0,0,0,247,1032.95,2,0,0.08,0.08,30,10.71,0.1,0.08,3.42,FLYING,X10-F,0:/Integrated Flight Computer/aircraft/x10_f_cfg.ks (inferred preloaded)
3.72,APPROACH,ILS_TRACK,151.25,152,0.75,1305.97,1226.02,-5.16,14.51,16.32,271.72,-0.032,0.5909,0,-3.292,1,0.6,4.5,0.75,0.35,0.0168,0.4,0,22.095,0,-0.725,0,272.11,0,0,1,-1.97,0,0,0,272.13,0.0318,0.0368,0.9988,0,272.11,-85.2,-273.66,28.727,2.107,0,0,3,1338.71,3.726,0,1579.82,0,0,0,0,0,0,0,0,268.4,0,0,0,0,0,0,0,0,0,0,0,0,0,3,3,0,0,VALID,0,0,0,0,0,1,0,0,0,0,0,0,0,0,0,0,0,0,0,0,270.98,1031.26,2,0,0.08,0.08,33,10,0.12,0.08,3.72,FLYING,X10-F,0:/Integrated Flight Computer/aircraft/x10_f_cfg.ks (inferred preloaded)
4.02,APPROACH,ILS_TRACK,150.82,152,1.18,1304.6,1224.57,-4.24,14.79,16.27,271.85,0.276,0.5767,0,-2.992,1,0.6,4.5,0.75,0.35,0.0168,0.4,0,22.213,0,-1.143,0,272.05,0,0,1,-1.67,0,0,0,272.07,0.0318,0.0357,0.9989,0,272.05,-83.64,-272.45,28.678,2.045,0,0,3,1338.71,4.102,0,1577.23,0,0,0,0,0,0,0,0,268.4,0,0,0,0,0,0,0,0,0,0,0,0,0,3,3,0,0,VALID,0,0,0,0,0,1,0,0,0,0,0,0,0,0,0,0,0,0,0,0,289.84,1029.55,2,0,0.08,0.08,36,10,0.12,0.08,4.02,FLYING,X10-F,0:/Integrated Flight Computer/aircraft/x10_f_cfg.ks (inferred preloaded)
4.38,APPROACH,ILS_TRACK,150.25,152,1.75,1302.86,1223.26,-2.97,13.42,14.32,271.94,0.454,0.6333,0,-2.437,1,0.6,4.5,0.75,0.35,0.0168,0.4,0,22.377,0,-1.725,0,271.96,0,0,1,-1.18,0,0,0,271.99,0.0319,0.0342,0.9989,0,271.96,-81.77,-271.06,28.619,1.961,0,0,3,1338.71,3.663,0,1574.13,0,0,0,0,0,0,0,0,268.4,0,0,0,0,0,0,0,0,0,0,0,0,0,3,3,0,0,VALID,0,0,0,0,0,1,0,0,0,0,0,0,0,0,0,0,0,0,0,0,311.9,1027.15,2,0,0.12,0.12,39,8.33,0.12,0.08,4.38,FLYING,X10-F,0:/Integrated Flight Computer/aircraft/x10_f_cfg.ks (inferred preloaded)
4.72,APPROACH,ILS_TRACK,150.1,152,1.9,1301.11,1222.28,-2.84,10.62,11.45,271.94,0.443,0.5342,0,-1.791,1,0.6,4.5,0.75,0.35,0.0168,0.4,0,22.428,0,-1.907,0,271.88,0,0,1,-1.07,0,0,0,271.9,0.032,0.0327,0.999,0,271.88,-79.97,-269.89,28.563,1.876,0,0,3,1338.71,3.482,0,1571.2,0,0,0,0,0,0,0,0,268.4,0,0,0,0,0,0,0,0,0,0,0,0,0,3,3,0,0,VALID,0,0,0,0,0,1,0,0,0,0,0,0,0,0,0,0,0,0,0,0,332.7,1026.55,2,0,0.1,0.1,42,8.82,0.12,0.1,4.72,FLYING,X10-F,0:/Integrated Flight Computer/aircraft/x10_f_cfg.ks (inferred preloaded)
5.06,APPROACH,ILS_TRACK,150.38,152,1.62,1299.48,1221.21,-3.46,8.52,9.63,271.91,0.323,0.3982,0,-1.197,1,0.6,4.5,0.75,0.35,0.0168,0.4,0,22.354,0,-1.642,0,271.8,0,0,1,-1.28,0,0,0,271.83,0.0321,0.0314,0.999,0,271.8,-78.17,-268.61,28.507,1.801,0,0,3,1338.71,3.926,0,1568.28,0,0,0,0,0,0,0,0,268.4,0,0,0,0,0,0,0,0,0,0,0,0,0,3,3,0,0,VALID,0,0,0,0,0,1,0,0,0,0,0,0,0,0,0,0,0,0,0,0,344.7,1027.77,2,0,0.12,0.12,45,8.82,0.12,0.1,5.06,FLYING,X10-F,0:/Integrated Flight Computer/aircraft/x10_f_cfg.ks (inferred preloaded)
5.4,APPROACH,ILS_TRACK,150.78,152,1.22,1298.02,1219.89,-4.31,7.87,9.36,271.89,0.148,0.2622,0,-0.727,1,0.6,4.5,0.75,0.35,0.0168,0.4,0,22.242,0,-1.248,0,271.71,0,0,1,-1.6,0,0,0,271.74,0.0322,0.0298,0.999,0,271.71,-76.35,-267.16,28.451,1.707,0,0,3,1338.71,4.43,0,1565.34,0,0,0,0,0,0,0,0,268.4,0,0,0,0,0,0,0,0,0,0,0,0,0,3,3,0,0,VALID,0,0,0,0,0,1,0,0,0,0,0,0,0,0,0,0,0,0,0,0,346.58,1029.54,2,0,0.1,0.1,48,8.82,0.12,0.1,5.4,FLYING,X10-F,0:/Integrated Flight Computer/aircraft/x10_f_cfg.ks (inferred preloaded)
5.68,APPROACH,ILS_TRACK,151.08,152,0.92,1296.94,1218.61,-4.89,8.49,10.25,271.86,-0.025,0.1502,0,-0.438,1,0.6,4.5,0.75,0.35,0.0168,0.4,0,22.155,0,-0.936,0,271.65,0,0,1,-1.83,0,0,0,271.67,0.0323,0.0288,0.9991,0,271.65,-74.85,-265.84,28.405,1.651,0,0,3,1338.71,4.893,0,1562.92,0,0,0,0,0,0,0,0,268.4,0,0,0,0,0,0,0,0,0,0,0,0,0,3,3,0,0,VALID,0,0,0,0,0,1,0,0,0,0,0,0,0,0,0,0,0,0,0,0,337.02,1030.94,2,0,0.08,0.08,51,10.71,0.1,0.08,5.68,FLYING,X10-F,0:/Integrated Flight Computer/aircraft/x10_f_cfg.ks (inferred preloaded)
5.98,APPROACH,ILS_TRACK,151.28,152,0.72,1295.94,1217.09,-5.08,10.2,12.09,271.82,-0.226,0.0302,0,-0.203,1,0.6,4.5,0.75,0.35,0.0168,0.4,0,22.096,0,-0.728,0,271.58,0,0,1,-1.94,0,0,0,271.6,0.0324,0.0276,0.9991,0,271.58,-73.23,-264.26,28.355,1.583,0,0,3,1338.71,5.465,0,1560.33,0,0,0,0,0,0,0,0,268.4,0,0,0,0,0,0,0,0,0,0,0,0,0,3,3,0,0,VALID,0,0,0,0,0,1,0,0,0,0,0,0,0,0,0,0,0,0,0,0,315.75,1031.89,2,0,0.08,0.08,54,10,0.12,0.08,5.98,FLYING,X10-F,0:/Integrated Flight Computer/aircraft/x10_f_cfg.ks (inferred preloaded)
6.34,APPROACH,ILS_TRACK,151.13,152,0.87,1294.68,1215.42,-4.22,11.79,13.3,271.76,-0.485,0.003,0,0.075,1,0.6,4.5,0.75,0.35,0.0168,0.4,0,22.131,0,-0.851,0,271.51,0,0,1,-1.63,0,0,0,271.53,0.0325,0.0264,0.9991,0,271.51,-71.3,-262.39,28.296,1.514,0,0,3,1338.71,4.986,0,1557.21,0,0,0,0,0,0,0,0,268.4,0,0,0,0,0,0,0,0,0,0,0,0,0,3,3,0,0,VALID,0,0,0,0,0,1,0,0,0,0,0,0,0,0,0,0,0,0,0,0,279.73,1031.39,2,0,0.12,0.12,57,8.33,0.12,0.08,6.34,FLYING,X10-F,0:/Integrated Flight Computer/aircraft/x10_f_cfg.ks (inferred preloaded)
6.7,APPROACH,ILS_TRACK,150.73,152,1.27,1293.3,1214.04,-3.43,11.86,13.03,271.68,-0.747,0.147,0,0.469,1,0.6,4.5,0.75,0.35,0.0168,0.4,0,22.241,0,-1.243,0,271.45,0,0,1,-1.32,0,0,0,271.47,0.0326,0.0253,0.9991,0,271.45,-69.38,-260.65,28.237,1.448,0,0,3,1338.71,4.709,0,1554.1,0,0,0,0,0,0,0,0,268.4,0,0,0,0,0,0,0,0,0,0,0,0,0,3,3,0,0,VALID,0,0,0,0,0,1,0,0,0,0,0,0,0,0,0,0,0,0,0,0,251.86,1029.78,2,0,0.12,0.12,60,8.33,0.12,0.12,6.7,FLYING,X10-F,0:/Integrated Flight Computer/aircraft/x10_f_cfg.ks (inferred preloaded)
7.06,APPROACH,ILS_TRACK,150.34,152,1.66,1292.01,1212.83,-3.26,11.47,12.6,271.62,-0.95,0.291,0,1.013,1,0.6,4.5,0.75,0.35,0.0168,0.4,0,22.354,0,-1.642,0,271.38,0,0,1,-1.24,0,0,0,271.41,0.0327,0.0241,0.9992,0,271.38,-67.48,-258.86,28.177,1.383,0,0,3,1338.71,5.164,0,1551,0,0,0,0,0,0,0,0,268.4,0,0,0,0,0,0,0,0,0,0,0,0,0,3,3,0,0,VALID,0,0,0,0,0,1,0,0,0,0,0,0,0,0,0,0,0,0,0,0,244.54,1028.16,2,0,0.12,0.12,63,8.33,0.12,0.12,7.06,FLYING,X10-F,0:/Integrated Flight Computer/aircraft/x10_f_cfg.ks (inferred preloaded)
7.42,APPROACH,ILS_TRACK,149.92,152,2.08,1290.91,1211.64,-3.28,11.64,12.81,271.55,-1.118,0.435,0,1.703,1,0.6,4.5,0.75,0.35,0.0168,0.4,0,22.471,0,-2.06,0,271.33,0,0,1,-1.25,0,0,0,271.36,0.0328,0.0232,0.9992,0,271.33,-65.62,-256.89,28.118,1.327,0,0,3,1338.71,5.608,0,1547.91,0,0,0,0,0,0,0,0,268.4,0,0,0,0,0,0,0,0,0,0,0,0,0,3,3,0,0,VALID,0,0,0,0,0,1,0,0,0,0,0,0,0,0,0,0,0,0,0,0,250.85,1026.46,2,0,0.12,0.12,66,8.33,0.12,0.12,7.42,FLYING,X10-F,0:/Integrated Flight Computer/aircraft/x10_f_cfg.ks (inferred preloaded)
7.78,APPROACH,ILS_TRACK,149.46,152,2.54,1289.94,1210.48,-3.02,12.31,13.41,271.48,-1.173,0.579,0,2.554,1,0.6,4.5,0.75,0.35,0.0168,0.4,0,22.6,0,-2.518,0,271.29,0,0,1,-1.19,0,0,0,271.3,0.0329,0.0224,0.9992,0,271.29,-63.78,-254.78,28.059,1.285,0,0,3,1338.71,5.924,0,1544.83,0,0,0,0,0,0,0,0,268.4,0,0,0,0,0,0,0,0,0,0,0,0,0,3,3,0,0,VALID,0,0,0,0,0,1,0,0,0,0,0,0,0,0,0,0,0,0,0,0,266.91,1024.6,2,0,0.12,0.12,69,8.33,0.12,0.12,7.78,FLYING,X10-F,0:/Integrated Flight Computer/aircraft/x10_f_cfg.ks (inferred preloaded)
8.14,APPROACH,ILS_TRACK,148.98,152,3.02,1288.94,1209.54,-2.25,12.15,12.92,271.45,-1.348,0.6955,0,3.576,1,0.6,4.5,0.75,0.35,0.0168,0.4,0,22.735,0,-2.995,0,271.23,0,0,1,-0.88,0,0,0,271.25,0.033,0.0214,0.9992,0,271.23,-61.98,-252.7,28.001,1.229,0,0,3,1338.71,5.694,0,1541.75,0,0,0,0,0,0,0,0,268.4,0,0,0,0,0,0,0,0,0,0,0,0,0,3,3,0,0,VALID,0,0,0,0,0,1,0,0,0,0,0,0,0,0,0,0,0,0,0,0,291.98,1022.66,2,0,0.12,0.12,72,8.33,0.12,0.12,8.14,FLYING,X10-F,0:/Integrated Flight Computer/aircraft/x10_f_cfg.ks (inferred preloaded)
8.5,APPROACH,ILS_TRACK,148.74,152,3.26,1287.96,1208.79,-1.94,11.28,11.92,271.39,-1.544,0.6421,0,4.722,1,0.6,4.5,0.75,0.35,0.0168,0.4,0,22.808,0,-3.253,0,271.19,0,0,1,-0.75,0,0,0,271.2,0.0331,0.0208,0.9992,0,271.19,-60.21,-250.62,27.942,1.191,0,0,3,1338.71,5.874,0,1538.68,0,0,0,0,0,0,0,0,268.4,0,0,0,0,0,0,0,0,0,0,0,0,0,3,3,0,0,VALID,0,0,0,0,0,1,0,0,0,0,0,0,0,0,0,0,0,0,0,0,320.14,1021.66,2,0,0.12,0.12,75,8.33,0.12,0.12,8.5,FLYING,X10-F,0:/Integrated Flight Computer/aircraft/x10_f_cfg.ks (inferred preloaded)
8.86,APPROACH,ILS_TRACK,148.69,152,3.31,1287.17,1208.05,-2.13,10.95,11.71,271.33,-1.688,0.5275,0,5.91,1,0.6,4.5,0.75,0.35,0.0168,0.4,0,22.824,0,-3.311,0,271.14,0,0,1,-0.81,0,0,0,271.16,0.0332,0.02,0.9993,0,271.14,-58.48,-248.37,27.884,1.145,0,0,3,1338.71,6.432,0,1535.62,0,0,0,0,0,0,0,0,268.4,0,0,0,0,0,0,0,0,0,0,0,0,0,3,3,0,0,VALID,0,0,0,0,0,1,0,0,0,0,0,0,0,0,0,0,0,0,0,0,341.06,1021.48,2,0,0.12,0.12,78,8.33,0.12,0.12,8.86,FLYING,X10-F,0:/Integrated Flight Computer/aircraft/x10_f_cfg.ks (inferred preloaded)
9.22,APPROACH,ILS_TRACK,148.69,152,3.31,1286.53,1207.27,-2.01,11.44,12.18,271.26,-1.753,0.453,0,7.103,1,0.6,4.5,0.75,0.35,0.0168,0.4,0,22.825,0,-3.314,0,271.11,0,0,1,-0.8,0,0,0,271.12,0.0333,0.0193,0.9993,0,271.11,-56.78,-245.95,27.825,1.106,0,0,3,1338.71,6.804,0,1532.55,0,0,0,0,0,0,0,0,268.4,0,0,0,0,0,0,0,0,0,0,0,0,0,3,3,0,0,VALID,0,0,0,0,0,1,0,0,0,0,0,0,0,0,0,0,0,0,0,0,353.09,1021.53,2,0,0.12,0.12,81,8.33,0.12,0.12,9.22,FLYING,X10-F,0:/Integrated Flight Computer/aircraft/x10_f_cfg.ks (inferred preloaded)
9.58,APPROACH,ILS_TRACK,148.67,152,3.33,1285.85,1206.64,-1.58,11.28,11.83,271.2,-1.892,0.4341,0,8.303,1,0.6,4.5,0.75,0.35,0.0168,0.4,0,22.831,0,-3.336,0,271.06,0,0,1,-0.62,0,0,0,271.08,0.0334,0.0186,0.9993,0,271.06,-55.13,-243.56,27.767,1.064,0,0,3,1338.71,6.603,0,1529.49,0,0,0,0,0,0,0,0,268.4,0,0,0,0,0,0,0,0,0,0,0,0,0,3,3,0,0,VALID,0,0,0,0,0,1,0,0,0,0,0,0,0,0,0,0,0,0,0,0,360.41,1021.49,2,0,0.12,0.12,84,8.33,0.12,0.12,9.58,FLYING,X10-F,0:/Integrated Flight Computer/aircraft/x10_f_cfg.ks (inferred preloaded)
9.84,APPROACH,ILS_TRACK,148.72,152,3.28,1285.4,1206.24,-1.48,11.04,11.56,271.17,-1.93,0.3958,0,9.16,1,0.6,4.5,0.75,0.35,0.0168,0.4,0,22.816,0,-3.281,0,271.05,0,0,1,-0.57,0,0,0,271.05,0.0334,0.0183,0.9993,0,271.05,-53.96,-241.81,27.725,1.046,0,0,3,1338.71,6.788,0,1527.27,0,0,0,0,0,0,0,0,268.4,0,0,0,0,0,0,0,0,0,0,0,0,0,3,3,0,0,VALID,0,0,0,0,0,1,0,0,0,0,0,0,0,0,0,0,0,0,0,0,364.37,1021.75,2,0,0.12,0.12,86,7.69,0.14,0.12,9.84,FLYING,X10-F,0:/Integrated Flight Computer/aircraft/x10_f_cfg.ks (inferred preloaded)
10.2,APPROACH,ILS_TRACK,148.84,152,3.16,1284.86,1205.74,-1.32,10.91,11.38,271.12,-1.979,0.348,0,10.315,1,0.6,4.5,0.75,0.35,0.0168,0.4,0,22.784,0,-3.17,0,271.02,0,0,1,-0.52,0,0,0,271.02,0.0335,0.0177,0.9993,0,271.02,-52.39,-239.29,27.666,1.017,0,0,3,1338.71,7.073,0,1524.2,0,0,0,0,0,0,0,0,268.4,0,0,0,0,0,0,0,0,0,0,0,0,0,3,3,0,0,VALID,0,0,0,0,0,1,0,0,0,0,0,0,0,0,0,0,0,0,0,0,366.26,1022.26,2,0,0.12,0.12,89,8.33,0.12,0.12,10.2,FLYING,X10-F,0:/Integrated Flight Computer/aircraft/x10_f_cfg.ks (inferred preloaded)
10.56,APPROACH,ILS_TRACK,148.97,152,3.03,1284.37,1205.29,-1.16,10.76,11.17,271.08,-1.985,0.3169,0,11.425,1,0.6,4.5,0.75,0.35,0.0168,0.4,0,22.747,0,-3.037,0,270.98,0,0,1,-0.45,0,0,0,270.99,0.0336,0.0171,0.9993,0,270.98,-50.85,-236.71,27.607,0.982,0,0,3,1338.71,7.224,0,1521.13,0,0,0,0,0,0,0,0,268.4,0,0,0,0,0,0,0,0,0,0,0,0,0,3,3,0,0,VALID,0,0,0,0,0,1,0,0,0,0,0,0,0,0,0,0,0,0,0,0,364.05,1022.85,2,0,0.12,0.12,92,8.33,0.12,0.12,10.56,FLYING,X10-F,0:/Integrated Flight Computer/aircraft/x10_f_cfg.ks (inferred preloaded)
10.92,APPROACH,ILS_TRACK,149.11,152,2.89,1283.95,1204.89,-1.07,10.69,11.07,271.05,-1.946,0.3036,0,12.485,1,0.6,4.5,0.75,0.35,0.0168,0.4,0,22.708,0,-2.9,0,270.95,0,0,1,-0.41,0,0,0,270.96,0.0337,0.0166,0.9993,0,270.95,-49.36,-234.07,27.549,0.953,0,0,3,1338.71,7.369,0,1518.06,0,0,0,0,0,0,0,0,268.4,0,0,0,0,0,0,0,0,0,0,0,0,0,3,3,0,0,VALID,0,0,0,0,0,1,0,0,0,0,0,0,0,0,0,0,0,0,0,0,358.86,1023.45,2,0,0.12,0.12,95,8.33,0.12,0.12,10.92,FLYING,X10-F,0:/Integrated Flight Computer/aircraft/x10_f_cfg.ks (inferred preloaded)
11.28,APPROACH,ILS_TRACK,149.23,152,2.77,1283.57,1204.51,-0.99,10.67,11.02,271.02,-1.903,0.3071,0,13.499,1,0.6,4.5,0.75,0.35,0.0168,0.4,0,22.674,0,-2.777,0,270.93,0,0,1,-0.39,0,0,0,270.93,0.0338,0.0162,0.9993,0,270.93,-47.92,-231.37,27.49,0.928,0,0,3,1338.71,7.517,0,1514.98,0,0,0,0,0,0,0,0,268.4,0,0,0,0,0,0,0,0,0,0,0,0,0,3,3,0,0,VALID,0,0,0,0,0,1,0,0,0,0,0,0,0,0,0,0,0,0,0,0,353.38,1023.99,2,0,0.12,0.12,98,8.33,0.12,0.12,11.28,FLYING,X10-F,0:/Integrated Flight Computer/aircraft/x10_f_cfg.ks (inferred preloaded)
11.64,APPROACH,ILS_TRACK,149.34,152,2.66,1283.18,1204.19,-0.94,10.48,10.8,271,-1.823,0.3211,0,14.474,1,0.6,4.5,0.75,0.35,0.0168,0.4,0,22.644,0,-2.671,0,270.89,0,0,1,-0.35,0,0,0,270.91,0.0339,0.0156,0.9993,0,270.89,-46.52,-228.68,27.431,0.895,0,0,3,1338.71,7.506,0,1511.9,0,0,0,0,0,0,0,0,268.4,0,0,0,0,0,0,0,0,0,0,0,0,0,3,3,0,0,VALID,0,0,0,0,0,1,0,0,0,0,0,0,0,0,0,0,0,0,0,0,349.51,1024.46,2,0,0.12,0.12,101,8.33,0.12,0.12,11.64,FLYING,X10-F,0:/Integrated Flight Computer/aircraft/x10_f_cfg.ks (inferred preloaded)
12,APPROACH,ILS_TRACK,149.43,152,2.57,1282.9,1203.85,-0.86,10.72,11.04,270.96,-1.762,0.3364,0,15.41,1,0.6,4.5,0.75,0.35,0.0168,0.4,0,22.615,0,-2.57,0,270.87,0,0,1,-0.35,0,0,0,270.88,0.034,0.0152,0.9993,0,270.87,-45.16,-225.89,27.373,0.872,0,0,3,1338.71,7.804,0,1508.82,0,0,0,0,0,0,0,0,268.4,0,0,0,0,0,0,0,0,0,0,0,0,0,3,3,0,0,VALID,0,0,0,0,0,1,0,0,0,0,0,0,0,0,0,0,0,0,0,0,347.49,1024.9,2,0,0.12,0.12,104,8.33,0.12,0.12,12,FLYING,X10-F,0:/Integrated Flight Computer/aircraft/x10_f_cfg.ks (inferred preloaded)
12.26,APPROACH,ILS_TRACK,149.48,152,2.52,1282.65,1203.66,-0.75,10.57,10.82,270.95,-1.699,0.3599,0,16.07,1,0.6,4.5,0.75,0.35,0.0168,0.4,0,22.603,0,-2.527,0,270.85,0,0,1,-0.28,0,0,0,270.86,0.0341,0.0149,0.9993,0,270.85,-44.2,-223.9,27.33,0.852,0,0,3,1338.71,7.57,0,1506.6,0,0,0,0,0,0,0,0,268.4,0,0,0,0,0,0,0,0,0,0,0,0,0,3,3,0,0,VALID,0,0,0,0,0,1,0,0,0,0,0,0,0,0,0,0,0,0,0,0,347.57,1025.1,2,0,0.12,0.12,106,7.69,0.14,0.12,12.26,FLYING,X10-F,0:/Integrated Flight Computer/aircraft/x10_f_cfg.ks (inferred preloaded)
12.62,APPROACH,ILS_TRACK,149.58,152,2.42,1282.39,1203.37,-0.75,10.62,10.9,270.93,-1.609,0.3631,0,16.955,1,0.6,4.5,0.75,0.35,0.0168,0.4,0,22.575,0,-2.427,0,270.82,0,0,1,-0.3,0,0,0,270.84,0.0342,0.0143,0.9993,0,270.82,-42.91,-221.1,27.271,0.82,0,0,3,1338.71,7.892,0,1503.51,0,0,0,0,0,0,0,0,268.4,0,0,0,0,0,0,0,0,0,0,0,0,0,3,3,0,0,VALID,0,0,0,0,0,1,0,0,0,0,0,0,0,0,0,0,0,0,0,0,349.2,1025.54,2,0,0.12,0.12,109,8.33,0.12,0.12,12.62,FLYING,X10-F,0:/Integrated Flight Computer/aircraft/x10_f_cfg.ks (inferred preloaded)
12.98,APPROACH,ILS_TRACK,149.67,152,2.33,1282.11,1203.13,-0.71,10.54,10.8,270.92,-1.516,0.3692,0,17.807,1,0.6,4.5,0.75,0.35,0.0168,0.4,0,22.548,0,-2.332,0,270.8,0,0,1,-0.27,0,0,0,270.8,0.0343,0.014,0.9993,0,270.8,-41.65,-218.29,27.212,0.8,0,0,3,1338.71,7.841,0,1500.43,0,0,0,0,0,0,0,0,268.4,0,0,0,0,0,0,0,0,0,0,0,0,0,3,3,0,0,VALID,0,0,0,0,0,1,0,0,0,0,0,0,0,0,0,0,0,0,0,0,351.26,1025.97,2,0,0.12,0.12,112,8.33,0.12,0.12,12.98,FLYING,X10-F,0:/Integrated Flight Computer/aircraft/x10_f_cfg.ks (inferred preloaded)
13.34,APPROACH,ILS_TRACK,149.79,152,2.21,1281.87,1202.9,-0.62,10.53,10.74,270.9,-1.442,0.3684,0,18.62,1,0.6,4.5,0.75,0.35,0.0168,0.4,0,22.517,0,-2.221,0,270.77,0,0,1,-0.24,0,0,0,270.78,0.0344,0.0135,0.9993,0,270.77,-40.43,-215.45,27.153,0.774,0,0,3,1338.71,7.879,0,1497.34,0,0,0,0,0,0,0,0,268.4,0,0,0,0,0,0,0,0,0,0,0,0,0,3,3,0,0,VALID,0,0,0,0,0,1,0,0,0,0,0,0,0,0,0,0,0,0,0,0,353.28,1026.45,2,0,0.12,0.12,115,8.33,0.12,0.12,13.34,FLYING,X10-F,0:/Integrated Flight Computer/aircraft/x10_f_cfg.ks (inferred preloaded)
13.7,APPROACH,ILS_TRACK,149.91,152,2.09,1281.65,1202.69,-0.58,10.52,10.72,270.88,-1.367,0.3619,0,19.39,1,0.6,4.5,0.75,0.35,0.0168,0.4,0,22.482,0,-2.096,0,270.75,0,0,1,-0.22,0,0,0,270.76,0.0345,0.0131,0.9993,0,270.75,-39.23,-212.58,27.095,0.748,0,0,3,1338.71,7.99,0,1494.25,0,0,0,0,0,0,0,0,268.4,0,0,0,0,0,0,0,0,0,0,0,0,0,3,3,0,0,VALID,0,0,0,0,0,1,0,0,0,0,0,0,0,0,0,0,0,0,0,0,355.03,1027,2,0,0.12,0.12,118,8.33,0.12,0.12,13.7,FLYING,X10-F,0:/Integrated Flight Computer/aircraft/x10_f_cfg.ks (inferred preloaded)
14.06,APPROACH,ILS_TRACK,150.04,152,1.96,1281.43,1202.51,-0.52,10.39,10.57,270.87,-1.309,0.3547,0,20,1,0.6,4.5,0.75,0.35,0.0168,0.4,0,22.445,0,-1.966,0,270.72,0,0,1,-0.19,0,0,0,270.73,0.0346,0.0126,0.9993,0,270.72,-38.07,-209.71,27.036,0.721,0,0,3,1338.71,7.973,0,1491.16,0,0,0,0,0,0,0,0,268.4,0,0,0,0,0,0,0,0,0,0,0,0,0,3,3,0,0,VALID,0,0,0,0,0,1,0,0,0,0,0,0,0,0,0,0,0,0,0,0,356.29,1027.57,2,0,0.12,0.12,121,8.33,0.12,0.12,14.06,FLYING,X10-F,0:/Integrated Flight Computer/aircraft/x10_f_cfg.ks (inferred preloaded)
14.42,APPROACH,ILS_TRACK,150.18,152,1.82,1281.28,1202.31,-0.46,10.55,10.73,270.85,-1.266,0.339,0,20,1,0.6,4.5,0.75,0.35,0.0168,0.4,0,22.406,0,-1.829,0,270.7,0,0,1,-0.19,0,0,0,270.7,0.0347,0.0123,0.9993,0,270.7,-36.94,-206.77,26.976,0.703,0,0,3,1338.71,8.252,0,1488.07,0,0,0,0,0,0,0,0,268.4,0,0,0,0,0,0,0,0,0,0,0,0,0,3,3,0,0,VALID,0,0,0,0,0,1,0,0,0,0,0,0,0,0,0,0,0,0,0,0,356.52,1028.15,2,0,0.12,0.12,124,8.33,0.12,0.12,14.42,FLYING,X10-F,0:/Integrated Flight Computer/aircraft/x10_f_cfg.ks (inferred preloaded)
14.68,APPROACH,ILS_TRACK,150.25,152,1.75,1281.13,1202.22,-0.36,10.42,10.54,270.84,-1.23,0.3419,0,20,1,0.6,4.5,0.75,0.35,0.0168,0.4,0,22.385,0,-1.754,0,270.68,0,0,1,-0.14,0,0,0,270.68,0.0348,0.0118,0.9993,0,270.68,-36.13,-204.67,26.934,0.678,0,0,3,1338.71,8.022,0,1485.83,0,0,0,0,0,0,0,0,268.4,0,0,0,0,0,0,0,0,0,0,0,0,0,3,3,0,0,VALID,0,0,0,0,0,1,0,0,0,0,0,0,0,0,0,0,0,0,0,0,356.07,1028.48,2,0,0.12,0.12,126,7.69,0.14,0.12,14.68,FLYING,X10-F,0:/Integrated Flight Computer/aircraft/x10_f_cfg.ks (inferred preloaded)
15.04,APPROACH,ILS_TRACK,150.4,152,1.6,1280.97,1202.08,-0.44,10.28,10.44,270.82,-1.192,0.3198,0,20,1,0.6,4.5,0.75,0.35,0.0168,0.4,0,22.344,0,-1.609,0,270.65,0,0,1,-0.16,0,0,0,270.66,0.0349,0.0114,0.9993,0,270.65,-35.04,-201.75,26.875,0.651,0,0,3,1338.71,8.192,0,1482.73,0,0,0,0,0,0,0,0,268.4,0,0,0,0,0,0,0,0,0,0,0,0,0,3,3,0,0,VALID,0,0,0,0,0,1,0,0,0,0,0,0,0,0,0,0,0,0,0,0,354.93,1029.11,2,0,0.12,0.12,129,8.33,0.12,0.12,15.04,FLYING,X10-F,0:/Integrated Flight Computer/aircraft/x10_f_cfg.ks (inferred preloaded)
15.4,APPROACH,ILS_TRACK,150.53,152,1.47,1280.85,1201.94,-0.33,10.4,10.51,270.8,-1.174,0.3138,0,20,1,0.6,4.5,0.75,0.35,0.0168,0.4,0,22.308,0,-1.48,0,270.63,0,0,1,-0.12,0,0,0,270.63,0.0349,0.011,0.9993,0,270.63,-33.98,-198.76,26.815,0.63,0,0,3,1338.71,8.222,0,1479.63,0,0,0,0,0,0,0,0,268.4,0,0,0,0,0,0,0,0,0,0,0,0,0,3,3,0,0,VALID,0,0,0,0,0,1,0,0,0,0,0,0,0,0,0,0,0,0,0,0,351.55,1029.66,2,0,0.12,0.12,132,8.33,0.12,0.12,15.4,FLYING,X10-F,0:/Integrated Flight Computer/aircraft/x10_f_cfg.ks (inferred preloaded)
15.76,APPROACH,ILS_TRACK,150.64,152,1.36,1280.74,1201.81,-0.28,10.46,10.56,270.77,-1.161,0.312,0,20,1,0.6,4.5,0.75,0.35,0.0168,0.4,0,22.275,0,-1.363,0,270.61,0,0,1,-0.12,0,0,0,270.6,0.035,0.0106,0.9993,0,270.61,-32.94,-195.77,26.756,0.607,0,0,3,1338.71,8.36,0,1476.52,0,0,0,0,0,0,0,0,268.4,0,0,0,0,0,0,0,0,0,0,0,0,0,3,3,0,0,VALID,0,0,0,0,0,1,0,0,0,0,0,0,0,0,0,0,0,0,0,0,348.16,1030.16,2,0,0.12,0.12,135,8.33,0.12,0.12,15.76,FLYING,X10-F,0:/Integrated Flight Computer/aircraft/x10_f_cfg.ks (inferred preloaded)
16.12,APPROACH,ILS_TRACK,150.74,152,1.26,1280.64,1201.7,-0.41,10.46,10.62,270.75,-1.159,0.3163,0,20,1,0.6,4.5,0.75,0.35,0.0168,0.4,0,22.247,0,-1.265,0,270.58,0,0,1,-0.15,0,0,0,270.58,0.0351,0.0102,0.9993,0,270.58,-31.93,-192.78,26.697,0.584,0,0,3,1338.71,8.435,0,1473.42,0,0,0,0,0,0,0,0,268.4,0,0,0,0,0,0,0,0,0,0,0,0,0,3,3,0,0,VALID,0,0,0,0,0,1,0,0,0,0,0,0,0,0,0,0,0,0,0,0,345.54,1030.59,2,0,0.12,0.12,138,8.33,0.12,0.12,16.12,FLYING,X10-F,0:/Integrated Flight Computer/aircraft/x10_f_cfg.ks (inferred preloaded)
16.48,APPROACH,ILS_TRACK,150.78,152,1.22,1280.55,1201.62,-0.11,10.53,10.55,270.73,-1.128,0.3461,0,20,1,0.6,4.5,0.75,0.35,0.0168,0.4,0,22.234,0,-1.218,0,270.56,0,0,1,-0.04,0,0,0,270.57,0.0352,0.0098,0.9993,0,270.56,-30.94,-189.74,26.638,0.561,0,0,3,1338.71,8.248,0,1470.31,0,0,0,0,0,0,0,0,268.4,0,0,0,0,0,0,0,0,0,0,0,0,0,3,3,0,0,VALID,0,0,0,0,0,1,0,0,0,0,0,0,0,0,0,0,0,0,0,0,343.93,1030.78,2,0,0.12,0.12,141,8.33,0.12,0.12,16.48,FLYING,X10-F,0:/Integrated Flight Computer/aircraft/x10_f_cfg.ks (inferred preloaded)
16.84,APPROACH,ILS_TRACK,150.87,152,1.13,1280.47,1201.56,-0.16,10.41,10.47,270.71,-1.096,0.3353,0,20,1,0.6,4.5,0.75,0.35,0.0168,0.4,0,22.21,0,-1.133,0,270.54,0,0,1,-0.07,0,0,0,270.54,0.0353,0.0094,0.9993,0,270.54,-29.98,-186.73,26.578,0.539,0,0,3,1338.71,8.46,0,1467.2,0,0,0,0,0,0,0,0,268.4,0,0,0,0,0,0,0,0,0,0,0,0,0,3,3,0,0,VALID,0,0,0,0,0,1,0,0,0,0,0,0,0,0,0,0,0,0,0,0,344.76,1031.16,2,0,0.12,0.12,144,8.33,0.12,0.12,16.84,FLYING,X10-F,0:/Integrated Flight Computer/aircraft/x10_f_cfg.ks (inferred preloaded)
17.1,APPROACH,ILS_TRACK,150.94,152,1.06,1280.42,1201.52,-0.14,10.37,10.42,270.7,-1.091,0.3252,0,20,1,0.6,4.5,0.75,0.35,0.0168,0.4,0,22.19,0,-1.063,0,270.51,0,0,1,-0.06,0,0,0,270.53,0.0354,0.009,0.9993,0,270.51,-29.3,-184.53,26.536,0.514,0,0,3,1338.71,8.463,0,1464.96,0,0,0,0,0,0,0,0,268.4,0,0,0,0,0,0,0,0,0,0,0,0,0,3,3,0,0,VALID,0,0,0,0,0,1,0,0,0,0,0,0,0,0,0,0,0,0,0,0,344.78,1031.46,2,0,0.12,0.12,146,7.69,0.14,0.12,17.1,FLYING,X10-F,0:/Integrated Flight Computer/aircraft/x10_f_cfg.ks (inferred preloaded)
17.46,APPROACH,ILS_TRACK,151.04,152,0.96,1280.36,1201.47,-0.12,10.35,10.39,270.68,-1.094,0.312,0,20,1,0.6,4.5,0.75,0.35,0.0168,0.4,0,22.162,0,-0.962,0,270.5,0,0,1,-0.04,0,0,0,270.51,0.0355,0.0087,0.9993,0,270.5,-28.37,-181.47,26.476,0.499,0,0,3,1338.71,8.499,0,1461.84,0,0,0,0,0,0,0,0,268.4,0,0,0,0,0,0,0,0,0,0,0,0,0,3,3,0,0,VALID,0,0,0,0,0,1,0,0,0,0,0,0,0,0,0,0,0,0,0,0,343.29,1031.89,2,0,0.12,0.12,149,8.33,0.12,0.12,17.46,FLYING,X10-F,0:/Integrated Flight Computer/aircraft/x10_f_cfg.ks (inferred preloaded)
17.82,APPROACH,ILS_TRACK,151.14,152,0.86,1280.32,1201.43,-0.1,10.34,10.38,270.65,-1.098,0.3044,0,20,1,0.6,4.5,0.75,0.35,0.0168,0.4,0,22.135,0,-0.866,0,270.48,0,0,1,-0.04,0,0,0,270.48,0.0356,0.0084,0.9993,0,270.48,-27.48,-178.4,26.417,0.48,0,0,3,1338.71,8.543,0,1458.73,0,0,0,0,0,0,0,0,268.4,0,0,0,0,0,0,0,0,0,0,0,0,0,3,3,0,0,VALID,0,0,0,0,0,1,0,0,0,0,0,0,0,0,0,0,0,0,0,0,340.58,1032.3,2,0,0.12,0.12,152,8.33,0.12,0.12,17.82,FLYING,X10-F,0:/Integrated Flight Computer/aircraft/x10_f_cfg.ks (inferred preloaded)
18.18,APPROACH,ILS_TRACK,151.23,152,0.77,1280.29,1201.4,-0.07,10.34,10.36,270.63,-1.098,0.3024,0,20,1,0.6,4.5,0.75,0.35,0.0168,0.4,0,22.11,0,-0.779,0,270.46,0,0,1,-0.03,0,0,0,270.47,0.0357,0.008,0.9993,0,270.46,-26.6,-175.32,26.357,0.458,0,0,3,1338.71,8.569,0,1455.62,0,0,0,0,0,0,0,0,268.4,0,0,0,0,0,0,0,0,0,0,0,0,0,3,3,0,0,VALID,0,0,0,0,0,1,0,0,0,0,0,0,0,0,0,0,0,0,0,0,337.46,1032.67,2,0,0.12,0.12,155,8.33,0.12,0.12,18.18,FLYING,X10-F,0:/Integrated Flight Computer/aircraft/x10_f_cfg.ks (inferred preloaded)
18.54,APPROACH,ILS_TRACK,151.3,152,0.7,1280.26,1201.38,-0.04,10.32,10.33,270.61,-1.061,0.3049,0,20,1,0.6,4.5,0.75,0.35,0.0168,0.4,0,22.089,0,-0.704,0,270.44,0,0,1,-0.02,0,0,0,270.45,0.0358,0.0078,0.9993,0,270.44,-25.75,-172.23,26.298,0.444,0,0,3,1338.71,8.603,0,1452.5,0,0,0,0,0,0,0,0,268.4,0,0,0,0,0,0,0,0,0,0,0,0,0,3,3,0,0,VALID,0,0,0,0,0,1,0,0,0,0,0,0,0,0,0,0,0,0,0,0,334.64,1032.99,2,0,0.12,0.12,158,8.33,0.12,0.12,18.54,FLYING,X10-F,0:/Integrated Flight Computer/aircraft/x10_f_cfg.ks (inferred preloaded)
18.9,APPROACH,ILS_TRACK,151.36,152,0.64,1280.23,1201.38,-0.03,10.24,10.26,270.6,-1.02,0.3085,0,20,1,0.6,4.5,0.75,0.35,0.0168,0.4,0,22.071,0,-0.639,0,270.43,0,0,1,-0.02,0,0,0,270.44,0.0359,0.0075,0.9993,0,270.43,-24.93,-169.15,26.238,0.431,0,0,3,1338.71,8.615,0,1449.38,0,0,0,0,0,0,0,0,268.4,0,0,0,0,0,0,0,0,0,0,0,0,0,3,3,0,0,VALID,0,0,0,0,0,1,0,0,0,0,0,0,0,0,0,0,0,0,0,0,332.6,1033.27,2,0,0.12,0.12,161,8.33,0.12,0.12,18.9,FLYING,X10-F,0:/Integrated Flight Computer/aircraft/x10_f_cfg.ks (inferred preloaded)
19.26,APPROACH,ILS_TRACK,151.42,152,0.58,1280.21,1201.37,-0.01,10.19,10.19,270.58,-0.987,0.3121,0,20,1,0.6,4.5,0.75,0.35,0.0168,0.4,0,22.054,0,-0.58,0,270.41,0,0,1,0,0,0,0,270.42,0.036,0.0072,0.9993,0,270.41,-24.12,-166.05,26.179,0.414,0,0,3,1338.71,8.573,0,1446.26,0,0,0,0,0,0,0,0,268.4,0,0,0,0,0,0,0,0,0,0,0,0,0,3,3,0,0,VALID,0,0,0,0,0,1,0,0,0,0,0,0,0,0,0,0,0,0,0,0,331.15,1033.52,2,0,0.12,0.12,164,8.33,0.12,0.12,19.26,FLYING,X10-F,0:/Integrated Flight Computer/aircraft/x10_f_cfg.ks (inferred preloaded)
19.52,APPROACH,ILS_TRACK,151.47,152,0.53,1280.22,1201.36,-0.05,10.28,10.31,270.57,-0.958,0.3113,0,20,1,0.6,4.5,0.75,0.35,0.0168,0.4,0,22.042,0,-0.537,0,270.4,0,0,1,-0.03,0,0,0,270.41,0.0361,0.0069,0.9993,0,270.4,-23.56,-163.79,26.136,0.396,0,0,3,1338.71,8.766,0,1444.01,0,0,0,0,0,0,0,0,268.4,0,0,0,0,0,0,0,0,0,0,0,0,0,3,3,0,0,VALID,0,0,0,0,0,1,0,0,0,0,0,0,0,0,0,0,0,0,0,0,330.42,1033.7,2,0,0.12,0.12,166,7.69,0.14,0.12,19.52,FLYING,X10-F,0:/Integrated Flight Computer/aircraft/x10_f_cfg.ks (inferred preloaded)
19.88,APPROACH,ILS_TRACK,151.51,152,0.49,1280.22,1201.35,-0.01,10.29,10.3,270.56,-0.943,0.3161,0,20,1,0.6,4.5,0.75,0.35,0.0168,0.4,0,22.029,0,-0.49,0,270.39,0,0,1,0,0,0,0,270.39,0.0362,0.0067,0.9993,0,270.39,-22.79,-160.67,26.076,0.385,0,0,3,1338.71,8.636,0,1440.88,0,0,0,0,0,0,0,0,268.4,0,0,0,0,0,0,0,0,0,0,0,0,0,3,3,0,0,VALID,0,0,0,0,0,1,0,0,0,0,0,0,0,0,0,0,0,0,0,0,329.74,1033.9,2,0,0.12,0.12,169,8.33,0.12,0.12,19.88,FLYING,X10-F,0:/Integrated Flight Computer/aircraft/x10_f_cfg.ks (inferred preloaded)
20.24,APPROACH,ILS_TRACK,151.56,152,0.44,1280.22,1201.35,-0.01,10.3,10.31,270.54,-0.92,0.3157,0,20,1,0.6,4.5,0.75,0.35,0.0168,0.4,0,22.015,0,-0.441,0,270.36,0,0,1,-0.01,0,0,0,270.38,0.0363,0.0063,0.9993,0,270.36,-22.04,-157.55,26.017,0.362,0,0,3,1338.71,8.693,0,1437.76,0,0,0,0,0,0,0,0,268.4,0,0,0,0,0,0,0,0,0,0,0,0,0,3,3,0,0,VALID,0,0,0,0,0,1,0,0,0,0,0,0,0,0,0,0,0,0,0,0,329.43,1034.12,2,0,0.12,0.12,172,8.33,0.12,0.12,20.24,FLYING,X10-F,0:/Integrated Flight Computer/aircraft/x10_f_cfg.ks (inferred preloaded)
20.6,APPROACH,ILS_TRACK,151.61,152,0.39,1280.22,1201.36,0.01,10.28,10.28,270.52,-0.894,0.3169,0,20,1,0.6,4.5,0.75,0.35,0.0168,0.4,0,22.003,0,-0.398,0,270.36,0,0,1,0,0,0,0,270.36,0.0364,0.0062,0.9993,0,270.36,-21.32,-154.42,25.957,0.356,0,0,3,1338.71,8.724,0,1434.64,0,0,0,0,0,0,0,0,268.4,0,0,0,0,0,0,0,0,0,0,0,0,0,3,3,0,0,VALID,0,0,0,0,0,1,0,0,0,0,0,0,0,0,0,0,0,0,0,0,329.35,1034.3,2,0,0.12,0.12,175,8.33,0.12,0.12,20.6,FLYING,X10-F,0:/Integrated Flight Computer/aircraft/x10_f_cfg.ks (inferred preloaded)
20.96,APPROACH,ILS_TRACK,151.65,152,0.35,1280.23,1201.38,0.02,10.27,10.27,270.51,-0.865,0.3146,0,20,1,0.6,4.5,0.75,0.35,0.0168,0.4,0,21.99,0,-0.352,0,270.34,0,0,1,0.01,0,0,0,270.35,0.0365,0.006,0.9993,0,270.34,-20.61,-151.29,25.897,0.342,0,0,3,1338.71,8.697,0,1431.51,0,0,0,0,0,0,0,0,268.4,0,0,0,0,0,0,0,0,0,0,0,0,0,3,3,0,0,VALID,0,0,0,0,0,1,0,0,0,0,0,0,0,0,0,0,0,0,0,0,329.2,1034.49,2,0,0.12,0.12,178,8.33,0.12,0.12,20.96,FLYING,X10-F,0:/Integrated Flight Computer/aircraft/x10_f_cfg.ks (inferred preloaded)
21.32,APPROACH,ILS_TRACK,151.7,152,0.3,1280.24,1201.39,0.05,10.27,10.26,270.5,-0.851,0.311,0,20,1,0.6,4.5,0.75,0.35,0.0168,0.4,0,21.977,0,-0.304,0,270.33,0,0,1,0.02,0,0,0,270.32,0.0366,0.0057,0.9993,0,270.33,-19.92,-148.15,25.838,0.325,0,0,3,1338.71,8.724,0,1428.39,0,0,0,0,0,0,0,0,268.4,0,0,0,0,0,0,0,0,0,0,0,0,0,3,3,0,0,VALID,0,0,0,0,0,1,0,0,0,0,0,0,0,0,0,0,0,0,0,0,328.7,1034.7,2,0,0.12,0.12,181,8.33,0.12,0.12,21.32,FLYING,X10-F,0:/Integrated Flight Computer/aircraft/x10_f_cfg.ks (inferred preloaded)
21.68,APPROACH,ILS_TRACK,151.75,152,0.25,1280.26,1201.41,0.06,10.27,10.25,270.48,-0.857,0.3078,0,20,1,0.6,4.5,0.75,0.35,0.0168,0.4,0,21.963,0,-0.256,0,270.31,0,0,1,0.02,0,0,0,270.32,0.0367,0.0054,0.9993,0,270.31,-19.25,-145.01,25.778,0.312,0,0,3,1338.71,8.741,0,1425.26,0,0,0,0,0,0,0,0,268.4,0,0,0,0,0,0,0,0,0,0,0,0,0,3,3,0,0,VALID,0,0,0,0,0,1,0,0,0,0,0,0,0,0,0,0,0,0,0,0,327.81,1034.9,2,0,0.12,0.12,184,8.33,0.12,0.12,21.68,FLYING,X10-F,0:/Integrated Flight Computer/aircraft/x10_f_cfg.ks (inferred preloaded)
21.94,APPROACH,ILS_TRACK,151.78,152,0.22,1280.28,1201.43,0.08,10.27,10.24,270.47,-0.857,0.3066,0,20,1,0.6,4.5,0.75,0.35,0.0168,0.4,0,21.954,0,-0.224,0,270.3,0,0,1,0.03,0,0,0,270.3,0.0367,0.0052,0.9993,0,270.3,-18.78,-142.73,25.735,0.298,0,0,3,1338.71,8.753,0,1423,0,0,0,0,0,0,0,0,268.4,0,0,0,0,0,0,0,0,0,0,0,0,0,3,3,0,0,VALID,0,0,0,0,0,1,0,0,0,0,0,0,0,0,0,0,0,0,0,0,327.02,1035.04,2,0,0.12,0.12,186,7.69,0.14,0.12,21.94,FLYING,X10-F,0:/Integrated Flight Computer/aircraft/x10_f_cfg.ks (inferred preloaded)
22.3,APPROACH,ILS_TRACK,151.82,152,0.18,1280.3,1201.46,0.08,10.26,10.23,270.45,-0.854,0.3063,0,20,1,0.6,4.5,0.75,0.35,0.0168,0.4,0,21.942,0,-0.183,0,270.29,0,0,1,0.03,0,0,0,270.29,0.0368,0.0051,0.9993,0,270.29,-18.14,-139.58,25.675,0.291,0,0,3,1338.71,8.767,0,1419.88,0,0,0,0,0,0,0,0,268.4,0,0,0,0,0,0,0,0,0,0,0,0,0,3,3,0,0,VALID,0,0,0,0,0,1,0,0,0,0,0,0,0,0,0,0,0,0,0,0,325.9,1035.21,2,0,0.12,0.12,189,8.33,0.12,0.12,22.3,FLYING,X10-F,0:/Integrated Flight Computer/aircraft/x10_f_cfg.ks (inferred preloaded)
22.66,APPROACH,ILS_TRACK,151.86,152,0.14,1280.34,1201.49,0.09,10.26,10.22,270.43,-0.838,0.307,0,20,1,0.6,4.5,0.75,0.35,0.0168,0.4,0,21.932,0,-0.146,0,270.27,0,0,1,0.04,0,0,0,270.28,0.0369,0.0048,0.9993,0,270.27,-17.52,-136.42,25.616,0.274,0,0,3,1338.71,8.782,0,1416.75,0,0,0,0,0,0,0,0,268.4,0,0,0,0,0,0,0,0,0,0,0,0,0,3,3,0,0,VALID,0,0,0,0,0,1,0,0,0,0,0,0,0,0,0,0,0,0,0,0,324.92,1035.36,2,0,0.12,0.12,192,8.33,0.12,0.12,22.66,FLYING,X10-F,0:/Integrated Flight Computer/aircraft/x10_f_cfg.ks (inferred preloaded)
23.02,APPROACH,ILS_TRACK,151.89,152,0.11,1280.37,1201.53,0.11,10.25,10.22,270.42,-0.815,0.3083,0,20,1,0.6,4.5,0.75,0.35,0.0168,0.4,0,21.923,0,-0.113,0,270.26,0,0,1,0.04,0,0,0,270.26,0.037,0.0046,0.9993,0,270.26,-16.92,-133.25,25.556,0.262,0,0,3,1338.71,8.796,0,1413.62,0,0,0,0,0,0,0,0,268.4,0,0,0,0,0,0,0,0,0,0,0,0,0,3,3,0,0,VALID,0,0,0,0,0,1,0,0,0,0,0,0,0,0,0,0,0,0,0,0,324.18,1035.5,2,0,0.12,0.12,195,8.33,0.12,0.12,23.02,FLYING,X10-F,0:/Integrated Flight Computer/aircraft/x10_f_cfg.ks (inferred preloaded)
23.38,APPROACH,ILS_TRACK,151.92,152,0.08,1280.41,1201.58,0.12,10.25,10.21,270.4,-0.792,0.3086,0,20,1,0.6,4.5,0.75,0.35,0.0168,0.4,0,21.914,0,-0.082,0,270.25,0,0,1,0.04,0,0,0,270.26,0.0371,0.0044,0.9993,0,270.25,-16.34,-130.08,25.496,0.253,0,0,3,1338.71,8.809,0,1410.49,0,0,0,0,0,0,0,0,268.4,0,0,0,0,0,0,0,0,0,0,0,0,0,3,3,0,0,VALID,0,0,0,0,0,1,0,0,0,0,0,0,0,0,0,0,0,0,0,0,323.65,1035.63,2,0,0.12,0.12,198,8.33,0.12,0.12,23.38,FLYING,X10-F,0:/Integrated Flight Computer/aircraft/x10_f_cfg.ks (inferred preloaded)
23.74,APPROACH,ILS_TRACK,151.95,152,0.05,1280.46,1201.62,0.13,10.25,10.21,270.39,-0.767,0.3086,0,20,1,0.6,4.5,0.75,0.35,0.0168,0.4,0,21.906,0,-0.052,0,270.24,0,0,1,0.05,0,0,0,270.25,0.0372,0.0042,0.9993,0,270.24,-15.78,-126.91,25.436,0.243,0,0,3,1338.71,8.822,0,1407.36,0,0,0,0,0,0,0,0,268.4,0,0,0,0,0,0,0,0,0,0,0,0,0,3,3,0,0,VALID,0,0,0,0,0,1,0,0,0,0,0,0,0,0,0,0,0,0,0,0,323.2,1035.76,2,0,0.12,0.12,201,8.33,0.12,0.12,23.74,FLYING,X10-F,0:/Integrated Flight Computer/aircraft/x10_f_cfg.ks (inferred preloaded)
24.1,APPROACH,ILS_TRACK,151.98,152,0.02,1280.5,1201.67,0.13,10.24,10.2,270.38,-0.743,0.3088,0,20,1,0.6,4.5,0.75,0.35,0.0168,0.4,0,21.898,0,-0.024,0,270.23,0,0,1,0.05,0,0,0,270.24,0.0373,0.0041,0.9993,0,270.23,-15.23,-123.73,25.377,0.232,0,0,3,1338.71,8.833,0,1404.23,0,0,0,0,0,0,0,0,268.4,0,0,0,0,0,0,0,0,0,0,0,0,0,3,3,0,0,VALID,0,0,0,0,0,1,0,0,0,0,0,0,0,0,0,0,0,0,0,0,322.82,1035.87,2,0,0.12,0.12,204,8.33,0.12,0.12,24.1,FLYING,X10-F,0:/Integrated Flight Computer/aircraft/x10_f_cfg.ks (inferred preloaded)
24.36,APPROACH,ILS_TRACK,152,152,0,1280.54,1201.71,0.15,10.24,10.2,270.37,-0.715,0.3089,0,20,1,0.6,4.5,0.75,0.35,0.0168,0.4,0,21.893,0,-0.006,0,270.22,0,0,1,0.05,0,0,0,270.23,0.0374,0.0038,0.9993,0,270.22,-14.84,-121.43,25.334,0.217,0,0,3,1338.71,8.844,0,1401.97,0,0,0,0,0,0,0,0,268.4,0,0,0,0,0,0,0,0,0,0,0,0,0,3,3,0,0,VALID,0,0,0,0,0,1,0,0,0,0,0,0,0,0,0,0,0,0,0,0,322.59,1035.95,2,0,0.12,0.12,206,7.69,0.14,0.12,24.36,FLYING,X10-F,0:/Integrated Flight Computer/aircraft/x10_f_cfg.ks (inferred preloaded)
24.72,APPROACH,ILS_TRACK,152.02,152,-0.02,1280.59,1201.77,0.12,10.22,10.18,270.37,-0.672,0.3088,0,19.996,1,0.6,4.5,0.75,0.35,0.0168,0.4,0,21.886,0,0.019,0,270.22,0,0,1,0.05,0,0,0,270.22,0.0375,0.0038,0.9993,0,270.22,-14.33,-118.25,25.274,0.216,0,0,3,1338.71,8.871,0,1398.83,0,0,0,0,0,0,0,0,268.4,0,0,0,0,0,0,0,0,0,0,0,0,0,3,3,0,0,VALID,0,0,0,0,0,1,0,0,0,0,0,0,0,0,0,0,0,0,0,0,322.35,1036.05,2,0,0.12,0.12,209,8.33,0.12,0.12,24.72,FLYING,X10-F,0:/Integrated Flight Computer/aircraft/x10_f_cfg.ks (inferred preloaded)
25.08,APPROACH,ILS_TRACK,152.04,152,-0.04,1280.64,1201.84,0.13,10.16,10.12,270.36,-0.64,0.312,0,19.985,1,0.6,4.5,0.75,0.35,0.0168,0.4,0,21.881,0,0.036,0,270.21,0,0,1,0.06,0,0,0,270.21,0.0376,0.0036,0.9993,0,270.21,-13.82,-115.07,25.214,0.208,0,0,3,1338.71,8.803,0,1395.7,0,0,0,0,0,0,0,0,268.4,0,0,0,0,0,0,0,0,0,0,0,0,0,3,3,0,0,VALID,0,0,0,0,0,1,0,0,0,0,0,0,0,0,0,0,0,0,0,0,322.21,1036.12,2,0,0.12,0.12,212,8.33,0.12,0.12,25.08,FLYING,X10-F,0:/Integrated Flight Computer/aircraft/x10_f_cfg.ks (inferred preloaded)
25.44,APPROACH,ILS_TRACK,152.06,152,-0.06,1280.71,1201.89,0.16,10.23,10.18,270.35,-0.611,0.3104,0,19.967,1,0.6,4.5,0.75,0.35,0.0168,0.4,0,21.875,0,0.058,0,270.19,0,0,1,0.06,0,0,0,270.2,0.0377,0.0034,0.9993,0,270.19,-13.33,-111.87,25.154,0.195,0,0,3,1338.71,8.86,0,1392.57,0,0,0,0,0,0,0,0,268.4,0,0,0,0,0,0,0,0,0,0,0,0,0,3,3,0,0,VALID,0,0,0,0,0,1,0,0,0,0,0,0,0,0,0,0,0,0,0,0,322.21,1036.21,2,0,0.12,0.12,215,8.33,0.12,0.12,25.44,FLYING,X10-F,0:/Integrated Flight Computer/aircraft/x10_f_cfg.ks (inferred preloaded)
25.8,APPROACH,ILS_TRACK,152.08,152,-0.08,1280.77,1201.95,0.17,10.23,10.17,270.34,-0.592,0.3072,0,19.94,1,0.6,4.5,0.75,0.35,0.0168,0.4,0,21.868,0,0.082,0,270.19,0,0,1,0.06,0,0,0,270.19,0.0378,0.0032,0.9993,0,270.19,-12.86,-108.68,25.094,0.185,0,0,3,1338.71,8.875,0,1389.43,0,0,0,0,0,0,0,0,268.4,0,0,0,0,0,0,0,0,0,0,0,0,0,3,3,0,0,VALID,0,0,0,0,0,1,0,0,0,0,0,0,0,0,0,0,0,0,0,0,322.02,1036.31,2,0,0.12,0.12,218,8.33,0.12,0.12,25.8,FLYING,X10-F,0:/Integrated Flight Computer/aircraft/x10_f_cfg.ks (inferred preloaded)
26.16,APPROACH,ILS_TRACK,152.11,152,-0.11,1280.83,1202.02,0.18,10.23,10.17,270.33,-0.593,0.3042,0,19.905,1,0.6,4.5,0.75,0.35,0.0168,0.4,0,21.861,0,0.106,0,270.17,0,0,1,0.07,0,0,0,270.18,0.0379,0.003,0.9993,0,270.17,-12.39,-105.48,25.035,0.174,0,0,3,1338.71,8.882,0,1386.3,0,0,0,0,0,0,0,0,268.4,0,0,0,0,0,0,0,0,0,0,0,0,0,3,3,0,0,VALID,0,0,0,0,0,1,0,0,0,0,0,0,0,0,0,0,0,0,0,0,321.5,1036.41,2,0,0.12,0.12,221,8.33,0.12,0.12,26.16,FLYING,X10-F,0:/Integrated Flight Computer/aircraft/x10_f_cfg.ks (inferred preloaded)
26.52,APPROACH,ILS_TRACK,152.13,152,-0.13,1280.9,1202.08,0.19,10.23,10.16,270.32,-0.596,0.3024,0,19.861,1,0.6,4.5,0.75,0.35,0.0168,0.4,0,21.855,0,0.128,0,270.17,0,0,1,0.07,0,0,0,270.17,0.038,0.003,0.9993,0,270.17,-11.94,-102.28,24.975,0.174,0,0,3,1338.71,8.892,0,1383.17,0,0,0,0,0,0,0,0,268.4,0,0,0,0,0,0,0,0,0,0,0,0,0,3,3,0,0,VALID,0,0,0,0,0,1,0,0,0,0,0,0,0,0,0,0,0,0,0,0,320.71,1036.5,2,0,0.12,0.12,224,8.33,0.12,0.12,26.52,FLYING,X10-F,0:/Integrated Flight Computer/aircraft/x10_f_cfg.ks (inferred preloaded)
26.78,APPROACH,ILS_TRACK,152.14,152,-0.14,1280.94,1202.13,0.19,10.23,10.16,270.31,-0.59,0.3019,0,19.825,1,0.6,4.5,0.75,0.35,0.0168,0.4,0,21.851,0,0.143,0,270.16,0,0,1,0.07,0,0,0,270.16,0.0381,0.0027,0.9993,0,270.16,-11.62,-99.97,24.932,0.157,0,0,3,1338.71,8.899,0,1380.9,0,0,0,0,0,0,0,0,268.4,0,0,0,0,0,0,0,0,0,0,0,0,0,3,3,0,0,VALID,0,0,0,0,0,1,0,0,0,0,0,0,0,0,0,0,0,0,0,0,320.08,1036.56,2,0,0.12,0.12,226,7.69,0.14,0.12,26.78,FLYING,X10-F,0:/Integrated Flight Computer/aircraft/x10_f_cfg.ks (inferred preloaded)
27.14,APPROACH,ILS_TRACK,152.16,152,-0.16,1281.02,1202.2,0.2,10.23,10.16,270.3,-0.58,0.3022,0,19.77,1,0.6,4.5,0.75,0.35,0.0168,0.4,0,21.846,0,0.16,0,270.15,0,0,1,0.08,0,0,0,270.16,0.0382,0.0027,0.9993,0,270.15,-11.2,-96.76,24.872,0.152,0,0,3,1338.71,8.906,0,1377.77,0,0,0,0,0,0,0,0,268.4,0,0,0,0,0,0,0,0,0,0,0,0,0,3,3,0,0,VALID,0,0,0,0,0,1,0,0,0,0,0,0,0,0,0,0,0,0,0,0,319.26,1036.62,2,0,0.12,0.12,229,8.33,0.12,0.12,27.14,FLYING,X10-F,0:/Integrated Flight Computer/aircraft/x10_f_cfg.ks (inferred preloaded)
27.5,APPROACH,ILS_TRACK,152.17,152,-0.17,1281.09,1202.28,0.21,10.23,10.16,270.29,-0.571,0.303,0,19.709,1,0.6,4.5,0.75,0.35,0.0168,0.4,0,21.842,0,0.173,0,270.14,0,0,1,0.08,0,0,0,270.15,0.0383,0.0025,0.9993,0,270.14,-10.78,-93.55,24.812,0.141,0,0,3,1338.71,8.916,0,1374.63,0,0,0,0,0,0,0,0,268.4,0,0,0,0,0,0,0,0,0,0,0,0,0,3,3,0,0,VALID,0,0,0,0,0,1,0,0,0,0,0,0,0,0,0,0,0,0,0,0,318.59,1036.68,2,0,0.12,0.12,232,8.33,0.12,0.12,27.5,FLYING,X10-F,0:/Integrated Flight Computer/aircraft/x10_f_cfg.ks (inferred preloaded)
27.86,APPROACH,ILS_TRACK,152.19,152,-0.19,1281.17,1202.36,0.22,10.23,10.15,270.28,-0.559,0.3033,0,19.644,1,0.6,4.5,0.75,0.35,0.0168,0.4,0,21.839,0,0.185,0,270.14,0,0,1,0.08,0,0,0,270.14,0.0384,0.0024,0.9993,0,270.14,-10.38,-90.34,24.752,0.139,0,0,3,1338.71,8.923,0,1371.5,0,0,0,0,0,0,0,0,268.4,0,0,0,0,0,0,0,0,0,0,0,0,0,3,3,0,0,VALID,0,0,0,0,0,1,0,0,0,0,0,0,0,0,0,0,0,0,0,0,318.09,1036.72,2,0,0.12,0.12,235,8.33,0.12,0.12,27.86,FLYING,X10-F,0:/Integrated Flight Computer/aircraft/x10_f_cfg.ks (inferred preloaded)
28.22,APPROACH,ILS_TRACK,152.2,152,-0.2,1281.24,1202.44,0.22,10.23,10.15,270.27,-0.545,0.3035,0,19.575,1,0.6,4.5,0.75,0.35,0.0168,0.4,0,21.836,0,0.195,0,270.13,0,0,1,0.08,0,0,0,270.14,0.0385,0.0023,0.9993,0,270.13,-9.99,-87.13,24.692,0.13,0,0,3,1338.71,8.932,0,1368.36,0,0,0,0,0,0,0,0,268.4,0,0,0,0,0,0,0,0,0,0,0,0,0,3,3,0,0,VALID,0,0,0,0,0,1,0,0,0,0,0,0,0,0,0,0,0,0,0,0,317.67,1036.76,2,0,0.12,0.12,238,8.33,0.12,0.12,28.22,FLYING,X10-F,0:/Integrated Flight Computer/aircraft/x10_f_cfg.ks (inferred preloaded)
28.58,APPROACH,ILS_TRACK,152.2,152,-0.2,1281.33,1202.52,0.22,10.23,10.15,270.26,-0.525,0.3038,0,19.502,1,0.6,4.5,0.75,0.35,0.0168,0.4,0,21.834,0,0.203,0,270.12,0,0,1,0.09,0,0,0,270.12,0.0386,0.0022,0.9993,0,270.12,-9.61,-83.91,24.633,0.125,0,0,3,1338.71,8.938,0,1365.23,0,0,0,0,0,0,0,0,268.4,0,0,0,0,0,0,0,0,0,0,0,0,0,3,3,0,0,VALID,0,0,0,0,0,1,0,0,0,0,0,0,0,0,0,0,0,0,0,0,317.33,1036.79,2,0,0.12,0.12,241,8.33,0.12,0.12,28.58,FLYING,X10-F,0:/Integrated Flight Computer/aircraft/x10_f_cfg.ks (inferred preloaded)
28.94,APPROACH,ILS_TRACK,152.21,152,-0.21,1281.41,1202.6,0.24,10.23,10.15,270.25,-0.505,0.3037,0,19.428,1,0.6,4.5,0.75,0.35,0.0168,0.4,0,21.832,0,0.209,0,270.12,0,0,1,0.09,0,0,0,270.12,0.0387,0.002,0.9992,0,270.12,-9.24,-80.69,24.573,0.115,0,0,3,1338.71,8.945,0,1362.09,0,0,0,0,0,0,0,0,268.4,0,0,0,0,0,0,0,0,0,0,0,0,0,3,3,0,0,VALID,0,0,0,0,0,1,0,0,0,0,0,0,0,0,0,0,0,0,0,0,317.06,1036.81,2,0,0.12,0.12,244,8.33,0.12,0.12,28.94,FLYING,X10-F,0:/Integrated Flight Computer/aircraft/x10_f_cfg.ks (inferred preloaded)
29.2,APPROACH,ILS_TRACK,152.21,152,-0.21,1281.47,1202.67,0.24,10.23,10.15,270.25,-0.498,0.3032,0,19.372,1,0.6,4.5,0.75,0.35,0.0168,0.4,0,21.831,0,0.214,0,270.11,0,0,1,0.09,0,0,0,270.12,0.0388,0.0019,0.9992,0,270.11,-8.99,-78.36,24.529,0.11,16.348,1,3,1338.71,8.951,0,1359.82,0,0,0,0,0,0,0,0,268.4,0,0,0,0,0,0,0,0,0,0,0,0,0,3,3,0,0,VALID,0,0,0,0,0,1,0,0,0,0,0,0,0,0,0,0,0,0,0,0,316.87,1036.82,2,0,0.12,0.12,246,7.69,0.14,0.12,29.2,FLYING,X10-F,0:/Integrated Flight Computer/aircraft/x10_f_cfg.ks (inferred preloaded)
29.56,APPROACH,ILS_TRACK,152.22,152,-0.22,1281.57,1202.74,0.17,10.26,10.21,270.24,-0.487,0.3021,0,19.294,1,0.6,4.5,0.75,0.35,0.0168,0.4,0,21.829,0,0.22,0,270.1,0,0,1,0.06,0,0,0,270.11,0.0389,0.0018,0.9992,0,270.1,-8.64,-75.14,24.47,0.104,15.35,1,3,1338.71,8.988,0,1356.69,0,0,0,0,0,0,0,0,268.4,0,0,0,0,0,0,0,0,0,0,0,0,0,3,3,0,0,VALID,0,0,0,0,0,1,0,0,0,0,0,0,0,0,0,0,0,0,0,0,316.55,1036.85,2,0,0.12,0.12,249,8.33,0.12,0.12,29.56,FLYING,X10-F,0:/Integrated Flight Computer/aircraft/x10_f_cfg.ks (inferred preloaded)
29.92,APPROACH,ILS_TRACK,152.21,152,-0.21,1281.64,1202.78,0.21,10.25,10.17,270.23,-0.465,0.3111,0,19.218,1,0.6,4.5,0.75,0.35,0.0168,0.4,0,21.832,0,0.207,0,270.1,0,0,1,0.09,0,0,0,270.1,0.039,0.0017,0.9992,0,270.1,-8.3,-71.92,24.41,0.099,14.458,1,3,1338.71,8.897,0,1353.55,0,0,0,0,0,0,0,0,268.4,0,0,0,0,0,0,0,0,0,0,0,0,0,3,3,0,0,VALID,0,0,0,0,0,1,0,0,0,0,0,0,0,0,0,0,0,0,0,0,316.41,1036.79,2,0,0.12,0.12,252,8.33,0.12,0.12,29.92,FLYING,X10-F,0:/Integrated Flight Computer/aircraft/x10_f_cfg.ks (inferred preloaded)
30.28,APPROACH,ILS_TRACK,152.2,152,-0.2,1281.73,1202.77,0.24,10.28,10.2,270.22,-0.442,0.3102,0,19.144,1,0.6,4.5,0.75,0.35,0.0168,0.4,0,21.833,0,0.204,0,270.09,0,0,1,0.09,0,0,0,270.1,0.0391,0.0016,0.9992,0,270.09,-7.98,-68.69,24.35,0.09,13.443,1,3,1338.71,8.955,0,1350.42,0,0,0,0,0,0,0,0,268.4,0,0,0,0,0,0,0,0,0,0,0,0,0,3,3,0,0,VALID,0,0,0,0,0,1,0,0,0,0,0,0,0,0,0,0,0,0,0,0,316.8,1036.77,2,0,0.12,0.12,255,8.33,0.12,0.12,30.28,FLYING,X10-F,0:/Integrated Flight Computer/aircraft/x10_f_cfg.ks (inferred preloaded)
30.64,APPROACH,ILS_TRACK,152.2,152,-0.2,1281.82,1202.73,0.25,10.28,10.2,270.22,-0.425,0.308,0,19.07,1,0.6,4.5,0.75,0.35,0.0168,0.4,0,21.834,0,0.204,0,270.09,0,0,1,0.1,0,0,0,270.09,0.0392,0.0016,0.9992,0,270.09,-7.66,-65.47,24.29,0.092,12.471,1,3,1338.71,8.961,0,1347.28,0,0,0,0,0,0,0,0,268.4,0,0,0,0,0,0,0,0,0,0,0,0,0,3,3,0,0,VALID,0,0,0,0,0,1,0,0,0,0,0,0,0,0,0,0,0,0,0,0,317.07,1036.76,2,0,0.12,0.12,258,8.33,0.12,0.12,30.64,FLYING,X10-F,0:/Integrated Flight Computer/aircraft/x10_f_cfg.ks (inferred preloaded)
31,APPROACH,ILS_TRACK,152.2,152,-0.2,1281.91,1202.66,0.26,10.29,10.2,270.21,-0.403,0.3062,0,18.997,1,0.6,4.5,0.75,0.35,0.0168,0.4,0,21.834,0,0.203,0,270.09,0,0,1,0.1,0,0,0,270.08,0.0393,0.0016,0.9992,0,270.09,-7.36,-62.24,24.23,0.091,11.501,1,3,1338.71,8.963,0,1344.14,0,0,0,0,0,0,0,0,268.4,0,0,0,0,0,0,0,0,0,0,0,0,0,3,3,0,0,VALID,0,0,0,0,0,1,0,0,0,0,0,0,0,0,0,0,0,0,0,0,317.2,1036.75,2,0,0.12,0.12,261,8.33,0.12,0.12,31,FLYING,X10-F,0:/Integrated Flight Computer/aircraft/x10_f_cfg.ks (inferred preloaded)
31.36,APPROACH,ILS_TRACK,152.2,152,-0.2,1282.01,1202.57,0.32,10.35,10.23,270.21,-0.391,0.3071,0,18.924,1,0.6,4.5,0.75,0.35,0.0168,0.4,0,21.835,0,0.199,0,270.08,0,0,1,0.11,0,0,0,270.09,0.0394,0.0014,0.9992,0,270.08,-7.06,-59,24.17,0.079,10.501,1,3,1338.71,8.999,0,1341.01,0,0,0,0,0,0,0,0,268.4,0,0,0,0,0,0,0,0,0,0,0,0,0,3,3,0,0,VALID,0,0,0,0,0,1,0,0,0,0,0,0,0,0,0,0,0,0,0,0,317.1,1036.72,2,0,0.12,0.12,264,8.33,0.12,0.12,31.36,FLYING,X10-F,0:/Integrated Flight Computer/aircraft/x10_f_cfg.ks (inferred preloaded)
31.62,APPROACH,ILS_TRACK,152.19,152,-0.19,1282.07,1202.52,0.26,10.25,10.16,270.2,-0.382,0.3102,0,18.875,1,0.6,4.5,0.75,0.35,0.0168,0.4,0,21.838,0,0.189,0,270.07,0,0,1,0.1,0,0,0,270.08,0.0394,0.0013,0.9992,0,270.07,-6.86,-56.69,24.127,0.074,9.851,1,3,1338.71,8.944,0,1338.74,0,0,0,0,0,0,0,0,268.4,0,0,0,0,0,0,0,0,0,0,0,0,0,3,3,0,0,VALID,0,0,0,0,0,1,0,0,0,0,0,0,0,0,0,0,0,0,0,0,317.22,1036.68,2,0,0.12,0.12,266,7.69,0.14,0.12,31.62,FLYING,X10-F,0:/Integrated Flight Computer/aircraft/x10_f_cfg.ks (inferred preloaded)
31.98,APPROACH,ILS_TRACK,152.19,152,-0.19,1282.16,1202.43,0.28,10.23,10.14,270.2,-0.375,0.3051,0,18.807,1,0.6,4.5,0.75,0.35,0.0168,0.4,0,21.837,0,0.19,0,270.07,0,0,1,0.11,0,0,0,270.07,0.0395,0.0013,0.9992,0,270.07,-6.58,-53.45,24.067,0.074,8.85,1,3,1338.71,8.983,0,1335.61,0,0,0,0,0,0,0,0,268.4,0,0,0,0,0,0,0,0,0,0,0,0,0,3,3,0,0,VALID,0,0,0,0,0,1,0,0,0,0,0,0,0,0,0,0,0,0,0,0,317.43,1036.68,2,0,0.12,0.12,269,8.33,0.12,0.12,31.98,FLYING,X10-F,0:/Integrated Flight Computer/aircraft/x10_f_cfg.ks (inferred preloaded)
32.34,APPROACH,ILS_TRACK,152.2,152,-0.2,1282.27,1202.36,0.29,10.23,10.13,270.19,-0.366,0.3001,0,18.738,1,0.6,4.5,0.75,0.35,0.0168,0.4,0,21.836,0,0.195,0,270.06,0,0,1,0.11,0,0,0,270.07,0.0396,0.001,0.9992,0,270.06,-6.3,-50.21,24.008,0.057,7.869,1,3,1338.71,8.994,0,1332.47,0,0,0,0,0,0,0,0,268.4,0,0,0,0,0,0,0,0,0,0,0,0,0,3,3,0,0,VALID,0,0,0,0,0,1,0,0,0,0,0,0,0,0,0,0,0,0,0,0,317.1,1036.69,2,0,0.12,0.12,272,8.33,0.12,0.12,32.34,FLYING,X10-F,0:/Integrated Flight Computer/aircraft/x10_f_cfg.ks (inferred preloaded)
32.7,APPROACH,ILS_TRACK,152.2,152,-0.2,1282.37,1202.3,0.3,10.22,10.11,270.18,-0.359,0.297,0,18.667,1,0.6,4.5,0.75,0.35,0.0168,0.4,0,21.835,0,0.199,0,270.06,0,0,1,0.12,0,0,0,270.06,0.0397,0.0011,0.9992,0,270.06,-6.04,-46.98,23.948,0.064,6.886,1,3,1338.71,9.008,0,1329.33,0,0,0,0,0,0,0,0,268.4,0,0,0,0,0,0,0,0,0,0,0,0,0,3,3,0,0,VALID,0,0,0,0,0,1,0,0,0,0,0,0,0,0,0,0,0,0,0,0,316.26,1036.7,2,0,0.12,0.12,275,8.33,0.12,0.12,32.7,FLYING,X10-F,0:/Integrated Flight Computer/aircraft/x10_f_cfg.ks (inferred preloaded)
33.06,APPROACH,ILS_TRACK,152.19,152,-0.19,1282.48,1202.26,0.34,10.29,10.18,270.18,-0.348,0.3003,0,18.595,1,0.6,4.5,0.75,0.35,0.0168,0.4,0,21.836,0,0.195,0,270.05,0,0,1,0.12,0,0,0,270.06,0.0398,0.0009,0.9992,0,270.05,-5.78,-43.72,23.888,0.051,5.883,1,3,1338.71,9.043,0,1326.2,0,0,0,0,0,0,0,0,268.4,0,0,0,0,0,0,0,0,0,0,0,0,0,3,3,0,0,VALID,0,0,0,0,0,1,0,0,0,0,0,0,0,0,0,0,0,0,0,0,315.21,1036.67,2,0,0.12,0.12,278,8.33,0.12,0.12,33.06,FLYING,X10-F,0:/Integrated Flight Computer/aircraft/x10_f_cfg.ks (inferred preloaded)
33.42,APPROACH,ILS_TRACK,152.18,152,-0.18,1282.58,1202.26,0.32,10.25,10.14,270.17,-0.339,0.3066,0,18.529,1,0.6,4.5,0.75,0.35,0.0168,0.4,0,21.841,0,0.179,0,270.05,0,0,1,0.12,0,0,0,270.05,0.0399,0.0009,0.9992,0,270.05,-5.53,-40.49,23.828,0.049,4.92,1,3,1338.71,9.034,0,1323.06,0,0,0,0,0,0,0,0,268.4,0,0,0,0,0,0,0,0,0,0,0,0,0,3,3,0,0,VALID,0,0,0,0,0,1,0,0,0,0,0,0,0,0,0,0,0,0,0,0,315.07,1036.6,2,0,0.12,0.12,281,8.33,0.12,0.12,33.42,FLYING,X10-F,0:/Integrated Flight Computer/aircraft/x10_f_cfg.ks (inferred preloaded)
33.78,APPROACH,ILS_TRACK,152.17,152,-0.17,1282.69,1202.22,0.31,10.23,10.12,270.17,-0.328,0.306,0,18.468,1,0.6,4.5,0.75,0.35,0.0168,0.4,0,21.843,0,0.17,0,270.04,0,0,1,0.12,0,0,0,270.05,0.04,0.0007,0.9992,0,270.04,-5.29,-37.25,23.768,0.041,3.96,1,3,1338.71,9.018,0,1319.93,0,0,0,0,0,0,0,0,268.4,0,0,0,0,0,0,0,0,0,0,0,0,0,3,3,0,0,VALID,0,0,0,0,0,1,0,0,0,0,0,0,0,0,0,0,0,0,0,0,315.29,1036.56,2,0,0.12,0.12,284,8.33,0.12,0.12,33.78,FLYING,X10-F,0:/Integrated Flight Computer/aircraft/x10_f_cfg.ks (inferred preloaded)
34.14,APPROACH,ILS_TRACK,152.17,152,-0.17,1282.8,1202.2,0.31,10.23,10.12,270.16,-0.329,0.3031,0,18.407,1,0.6,4.5,0.75,0.35,0.0168,0.4,0,21.844,0,0.167,0,270.04,-0.019,0,1,0.12,0,0,0,270.05,0.0404,0.0006,0.9992,-0.02,270.04,-5.05,-34,23.708,0.037,2.981,1,3,1338.71,9.024,-0.019,1316.79,0,0,0,0,0,0,0,0,268.4,0,0,0,0,0,0,0,0,0,0,0,0,0,3,3,0,0,VALID,0,0,0,0,0,1,0,0,0,0,0,0,0,0,0,0,0,0,0,0,315.36,1036.54,2,0,0.12,0.12,287,8.33,0.12,0.12,34.14,FLYING,X10-F,0:/Integrated Flight Computer/aircraft/x10_f_cfg.ks (inferred preloaded)
34.5,APPROACH,ILS_TRACK,152.15,152,-0.15,1282.85,1202.24,0.53,10.03,9.81,270.15,-0.383,0.3055,0,18.349,1,0.6,4.5,0.75,0.35,0.0168,0.4,0,21.847,0,0.157,0,270.03,-0.77,0,1,0.19,0,0,-0.62,270.03,0.0536,0.0006,0.9986,-0.77,270.03,-4.82,-30.79,23.648,0.034,2.23,1,3,1338.71,8.76,-0.77,1313.65,0,0,0,0,0,0,0,0,268.4,0,0,0,0,0,0,0,0,0,0,0,0,0,3,3,0,0,VALID,0,0,0,0,0,1,0,0,0,0,0,0,0,0,0,0,0,0,0,0,315.14,1036.47,2,0,0.12,0.12,290,8.33,0.12,0.12,34.5,FLYING,X10-F,0:/Integrated Flight Computer/aircraft/x10_f_cfg.ks (inferred preloaded)
34.86,APPROACH,ILS_TRACK,152.18,152,-0.18,1282.74,1202.37,0.34,9.02,8.84,270.13,-0.515,0.2867,0,18.292,1,0.6,4.5,0.75,0.35,0.0168,0.4,0,21.842,0,0.175,0,270.03,-1.349,0,1,0.15,0,0,-1.07,270.03,0.0638,0.0005,0.998,-1.35,270.03,-4.6,-27.77,23.589,0.031,1.651,1,3,1338.71,8.348,-1.349,1310.52,0,0,0,0,0,0,0,0,268.4,0,0,0,0,0,0,0,0,0,0,0,0,0,3,3,0,0,VALID,0,0,0,0,0,1,0,0,0,0,0,0,0,0,0,0,0,0,0,0,315.38,1036.56,2,0,0.12,0.12,293,8.33,0.12,0.12,34.86,FLYING,X10-F,0:/Integrated Flight Computer/aircraft/x10_f_cfg.ks (inferred preloaded)
35.22,APPROACH,ILS_TRACK,152.29,152,-0.29,1282.62,1202.38,0.09,8.44,8.36,270.11,-0.58,0.2299,0,18.204,1,0.6,4.5,0.75,0.35,0.0168,0.4,0,21.811,0,0.283,0,270.03,-2.223,0,1,0.04,0,0,-2.09,270.04,0.0791,0.0005,0.9969,-2.22,270.03,-4.39,-24.74,23.529,0.032,0.777,1,3,1338.71,8.304,-2.223,1307.38,0,0,0,0,0,0,0,0,268.4,0,0,0,0,0,0,0,0,0,0,0,0,0,3,3,0,0,VALID,0,0,0,0,0,1,0,0,0,0,0,0,0,0,0,0,0,0,0,0,311.17,1037.01,2,0,0.12,0.12,296,8.33,0.12,0.12,35.22,FLYING,X10-F,0:/Integrated Flight Computer/aircraft/x10_f_cfg.ks (inferred preloaded)
35.58,APPROACH,ILS_TRACK,152.45,152,-0.45,1282.27,1202.34,-0.44,7.35,7.44,270.1,-0.636,0.1694,0,18.068,1,0.6,4.5,0.75,0.35,0.0168,0.4,0,21.768,0,0.436,0,270.03,-2.56,0,1,-0.13,0,0,-2.34,270.03,0.0851,0.0004,0.9964,-2.56,270.03,-4.19,-21.93,23.469,0.026,0.44,1,3,1338.71,7.674,-2.56,1304.24,0,0,0,0,0,0,0,0,268.4,0,0,0,0,0,0,0,0,0,0,0,0,0,3,3,0,0,VALID,0,0,0,0,0,1,0,0,0,0,0,0,0,0,0,0,0,0,0,0,300.99,1037.67,2,0,0.12,0.12,299,8.33,0.12,0.12,35.58,FLYING,X10-F,0:/Integrated Flight Computer/aircraft/x10_f_cfg.ks (inferred preloaded)
35.94,APPROACH,ILS_TRACK,152.61,152,-0.61,1281.89,1202.01,-1.1,7.07,7.44,270.09,-0.649,0.1251,0,17.869,1,0.6,4.5,0.75,0.35,0.0168,0.4,0,21.72,0,0.606,0,270.03,-3.403,0,1,-0.41,0,0,-3.18,270.04,0.0999,0.0005,0.995,-3.4,270.03,-4,-19.16,23.409,0.029,-0.403,1,3,1338.71,7.687,-3.403,1301.1,0,0,0,0,0,0,0,0,268.4,0,0,0,0,0,0,0,0,0,0,0,0,0,3,3,0,0,VALID,0,0,0,0,0,1,0,0,0,0,0,0,0,0,0,0,0,0,0,0,284.32,1038.41,2,0,0.12,0.12,302,8.33,0.12,0.12,35.94,FLYING,X10-F,0:/Integrated Flight Computer/aircraft/x10_f_cfg.ks (inferred preloaded)
36.3,APPROACH,ILS_TRACK,152.76,152,-0.76,1281.21,1201.54,-1.7,6.42,6.95,270.08,-0.642,0.108,0,17.618,1,0.6,4.5,0.75,0.35,0.0168,0.4,0,21.68,0,0.747,0,270.03,-3.356,0,1,-0.6,0,0,-3.26,270.03,0.0991,0.0006,0.9951,-3.36,270.03,-3.83,-16.66,23.349,0.034,-0.356,1,3,1338.71,6.691,-3.356,1297.95,0,0,0,0,0,0,0,0,268.4,0,0,0,0,0,0,0,0,0,0,0,0,0,3,3,0,0,VALID,0,0,0,0,0,1,0,0,0,0,0,0,0,0,0,0,0,0,0,0,265.72,1039.03,2,0,0.12,0.12,305,8.33,0.12,0.12,36.3,FLYING,X10-F,0:/Integrated Flight Computer/aircraft/x10_f_cfg.ks (inferred preloaded)
36.66,APPROACH,ILS_TRACK,152.87,152,-0.87,1280.43,1200.76,-2.46,6.36,7.2,270.07,-0.616,0.1094,0,17.319,1,0.6,4.5,0.75,0.35,0.0168,0.4,0,21.648,0,0.861,0,270.03,-3.947,0,1,-0.91,0,0,-3.79,270.04,0.1095,0.0006,0.994,-3.95,270.03,-3.67,-14.28,23.289,0.035,-0.947,1,3,1338.71,6.539,-3.947,1294.8,0,0,0,0,0,0,0,0,268.4,0,0,0,0,0,0,0,0,0,0,0,0,0,3,3,0,0,VALID,0,0,0,0,0,1,0,0,0,0,0,0,0,0,0,0,0,0,0,0,247.26,1039.55,2,0,0.12,0.12,308,8.33,0.12,0.12,36.66,FLYING,X10-F,0:/Integrated Flight Computer/aircraft/x10_f_cfg.ks (inferred preloaded)
37.02,APPROACH,ILS_TRACK,152.92,152,-0.92,1279.3,1199.91,-3.03,5.87,6.86,270.07,-0.582,0.1323,0,16.996,1,0.6,4.5,0.75,0.35,0.0168,0.4,0,21.632,0,0.917,0,270.04,-3.683,0,1,-1.1,0,0,-3.67,270.04,0.105,0.0007,0.9945,-3.68,270.04,-3.51,-12.21,23.229,0.041,-0.683,1,3,1338.71,5.434,-3.683,1291.65,0,0,0,0,0,0,0,0,268.4,0,0,0,0,0,0,0,0,0,0,0,0,0,3,3,0,0,VALID,0,0,0,0,0,1,0,0,0,0,0,0,0,0,0,0,0,0,0,0,232.5,1039.85,2,0,0.12,0.12,311,8.33,0.12,0.12,37.02,FLYING,X10-F,0:/Integrated Flight Computer/aircraft/x10_f_cfg.ks (inferred preloaded)
37.38,APPROACH,ILS_TRACK,152.95,152,-0.95,1278.06,1198.63,-3.9,5.9,7.24,270.06,-0.535,0.1536,0,16.655,1,0.6,4.5,0.75,0.35,0.0168,0.4,0,21.623,0,0.952,0,270.04,-4.159,0,1,-1.44,0,0,-3.98,270.04,0.1134,0.0007,0.9936,-4.16,270.04,-3.37,-10.3,23.169,0.043,-1.159,1,3,1338.71,5.309,-4.159,1288.5,0,0,0,0,0,0,0,0,268.4,0,0,0,0,0,0,0,0,0,0,0,0,0,3,3,0,0,VALID,0,0,0,0,0,1,0,0,0,0,0,0,0,0,0,0,0,0,0,0,221.68,1040.06,2,0,0.12,0.12,314,8.33,0.12,0.12,37.38,FLYING,X10-F,0:/Integrated Flight Computer/aircraft/x10_f_cfg.ks (inferred preloaded)
37.64,APPROACH,ILS_TRACK,152.95,152,-0.95,1277,1197.58,-4.23,5.93,7.35,270.06,-0.501,0.1716,0,16.408,1,0.6,4.5,0.75,0.35,0.0168,0.4,0,21.623,0,0.95,0,270.04,-3.942,0,1,-1.55,0,0,-4.1,270.03,0.1097,0.0007,0.994,-3.94,270.04,-3.28,-9.05,23.125,0.042,-0.942,1,3,1338.71,4.571,-3.942,1286.23,0,0,0,0,0,0,0,0,268.4,0,0,0,0,0,0,0,0,0,0,0,0,0,3,3,0,0,VALID,0,0,0,0,0,1,0,0,0,0,0,0,0,0,0,0,0,0,0,0,216.54,1040.12,2,0,0.12,0.12,316,7.69,0.14,0.12,37.64,FLYING,X10-F,0:/Integrated Flight Computer/aircraft/x10_f_cfg.ks (inferred preloaded)
38,APPROACH,ILS_TRACK,152.93,152,-0.93,1275.4,1195.92,-4.86,6.08,7.76,270.05,-0.453,0.1944,0,16.068,1,0.6,4.5,0.75,0.35,0.0168,0.4,0,21.628,0,0.934,0,270.04,-4.165,0,1,-1.81,0,0,-4.07,270.04,0.1137,0.0007,0.9935,-4.17,270.04,-3.15,-7.49,23.065,0.041,-1.165,1,3,1338.71,4.266,-4.165,1283.08,0,0,0,0,0,0,0,0,268.4,0,0,0,0,0,0,0,0,0,0,0,0,0,3,3,0,0,VALID,0,0,0,0,0,1,0,0,0,0,0,0,0,0,0,0,0,0,0,0,212.62,1040.15,2,0,0.12,0.12,319,8.33,0.12,0.12,38,FLYING,X10-F,0:/Integrated Flight Computer/aircraft/x10_f_cfg.ks (inferred preloaded)
38.36,APPROACH,ILS_TRACK,152.88,152,-0.88,1273.52,1194.11,-5.32,5.89,7.69,270.05,-0.406,0.2196,0,15.744,1,0.6,4.5,0.75,0.35,0.0168,0.4,0,21.641,0,0.886,0,270.04,-3.833,0,1,-1.96,0,0,-3.84,270.04,0.108,0.0007,0.9942,-3.83,270.04,-3.03,-6.2,23.005,0.044,-0.833,1,3,1338.71,3.364,-3.833,1279.93,0,0,0,0,0,0,0,0,268.4,0,0,0,0,0,0,0,0,0,0,0,0,0,3,3,0,0,VALID,0,0,0,0,0,1,0,0,0,0,0,0,0,0,0,0,0,0,0,0,212.34,1040.05,2,0,0.12,0.12,322,8.33,0.12,0.12,38.36,FLYING,X10-F,0:/Integrated Flight Computer/aircraft/x10_f_cfg.ks (inferred preloaded)
38.72,APPROACH,ILS_TRACK,152.84,152,-0.84,1271.56,1192.06,-5.86,6.14,8.17,270.05,-0.359,0.2319,0,15.434,1,0.6,4.5,0.75,0.35,0.0168,0.4,0,21.654,0,0.84,0,270.04,-4.12,0,1,-2.19,0,0,-4.07,270.04,0.1131,0.0007,0.9936,-4.12,270.04,-2.92,-5,22.945,0.041,-1.12,1,3,1338.71,3.276,-4.12,1276.79,0,0,0,0,0,0,0,0,268.4,0,0,0,0,0,0,0,0,0,0,0,0,0,3,3,0,0,VALID,0,0,0,0,0,1,0,0,0,0,0,0,0,0,0,0,0,0,0,0,213.58,1039.98,2,0,0.12,0.12,325,8.33,0.12,0.12,38.72,FLYING,X10-F,0:/Integrated Flight Computer/aircraft/x10_f_cfg.ks (inferred preloaded)
39.08,APPROACH,ILS_TRACK,152.78,152,-0.78,1269.33,1189.91,-6.23,5.95,8.06,270.05,-0.318,0.2422,0,15.147,1,0.6,4.5,0.75,0.35,0.0168,0.4,0,21.67,0,0.782,0,270.05,-3.714,0,1,-2.31,0,0,-3.74,270.04,0.1061,0.0007,0.9944,-3.71,270.05,-2.82,-4.06,22.885,0.046,-0.714,1,3,1338.71,2.414,-3.714,1273.64,0,0,0,0,0,0,0,0,268.4,0,0,0,0,0,0,0,0,0,0,0,0,0,3,3,0,0,VALID,0,0,0,0,0,1,0,0,0,0,0,0,0,0,0,0,0,0,0,0,215.9,1039.88,2,0,0.12,0.12,328,8.33,0.12,0.12,39.08,FLYING,X10-F,0:/Integrated Flight Computer/aircraft/x10_f_cfg.ks (inferred preloaded)
