t_s,phase,subphase,ias_ms,vapp_ms,spd_err_ms,agl_m,vs_ms,pitch_deg,aoa_deg,hdg_deg,bank_deg,thr_cmd,thr_cur,thr_intg,at_gain,at_tau_s,at_a_up,at_a_dn,at_kp_thr,at_ki_spd,at_thr_slew,aa_hdg_cmd_deg,aa_fpa_cmd_deg,aa_fbw,aa_dir,actual_fpa_deg,ftf_hdg_err_deg,ftf_fix_idx,kos_steer_pit_deg,kos_steer_hdg_deg,aa_dir_vx,aa_dir_vy,aa_dir_vz,aa_dir_pitch_deg,aa_dir_hdg_deg,ils_loc_m,ils_gs_m,ils_dist_km,loc_corr_deg,gs_corr_deg,flare_fpa_cmd,flare_tgt_vs,flare_frac,steer_hdg_deg,steer_blend,ro_loc_corr_deg,ro_hdg_err_deg,ro_yaw_tgt,ro_yaw_scale,ro_yaw_gate,yaw_cmd,roll_cmd,pitch_cmd,ro_pitch_tgt_deg,ro_pitch_err_deg,ro_pitch_ff,ro_roll_assist,flaps_cur,flaps_tgt,asc_j_ab,asc_j_rk,asc_validity,asc_q_pa,asc_q_raw_pa,asc_mach,asc_apo_m,asc_drag_n,asc_w_prop,asc_edot_aero,asc_edot_orb,asc_pitch_bias,asc_blend,asc_spooling,asc_ab_thr_ratio,asc_ab_t_now,asc_ab_t_avail,asc_ab_ign_on,asc_ab_flameouts,asc_rk_t_now,asc_rk_t_avail,asc_rk_ign_on,asc_rk_flameouts,ship_thrust,ship_avail_thrust,ship_ign_on,ship_flameouts,ifc_raw_dt_s,ifc_dt_s,ifc_loop_n,ifc_hz_est,ifc_raw_dt_max_s,ifc_raw_dt_min_s,phase_el_s,status,craft_name,cfg_file
0.12,TAKEOFF,TO_PREFLIGHT,1.63,80,78.37,3.64,-0.01,-0.22,0.08,91.23,0.1,0.032,0,0,0,0,0,0,0,0,0,90.4,0,1,0,-0.32,0,0,0,90,0,0,0,0,0,0,0,0,0,0,0,0,0,90.4,1,0,0.829,0,0,1,0,0,0,0,0,0,0,0,2,0,0,VALID,0,0,0,0,0,1,0,0,0,0,0,0,0,0,0,0,0,0,0,0,0,887.74,2,0,0.08,0.08,1,3.45,0.08,0.02,0.04,LANDED,X10-G,0:/Integrated Flight Computer/aircraft/x10_g_cfg.ks (inferred preloaded)
0.38,TAKEOFF,TO_PREFLIGHT,1.63,80,78.37,3.64,-0.01,-0.23,0.01,91.25,0.1,0.12,0,0,0,0,0,0,0,0,0,90.4,0,1,0,-0.23,0,0,0,90,0,0,0,0,0,0,0,0,0,0,0,0,0,90.4,1,0,0.837,0,0,1,0,0,0,0,0,0,0,1,2,0,0,VALID,0,0,0,0,0,1,0,0,0,0,0,0,0,0,0,0,0,0,0,0,2.07,887.74,2,0,0.04,0.04,6,19.23,0.12,0.04,0.3,LANDED,X10-G,0:/Integrated Flight Computer/aircraft/x10_g_cfg.ks (inferred preloaded)
0.64,TAKEOFF,TO_PREFLIGHT,1.55,80,78.45,3.63,0,-0.27,-0.3,91.27,0.1,0.224,0,0,0,0,0,0,0,0,0,90.4,0,1,0,0.03,0,0,0,90,0,0,0,0,0,0,0,0,0,0,0,0,0,90.4,1,0,0.837,0,0,1,0,0,0,0,0,0,0,1,2,0,0,VALID,0,0,0,0,0,1,0,0,0,0,0,0,0,0,0,0,0,0,0,0,8.5,887.74,2,0,0.04,0.04,11,19.23,0.08,0.04,0.56,LANDED,X10-G,0:/Integrated Flight Computer/aircraft/x10_g_cfg.ks (inferred preloaded)
0.94,TAKEOFF,TO_PREFLIGHT,1.31,80,78.69,3.62,-0.01,-0.28,0.11,91.29,0.1,0.344,0,0,0,0,0,0,0,0,0,90.4,0,1,0,-0.39,0,0,0,90,0,0,0,0,0,0,0,0,0,0,0,0,0,90.4,1,0,0.837,0,0,1,0,0,0,0,0,0,0,2,2,0,0,VALID,0,0,0,0,0,1,0,0,0,0,0,0,0,0,0,0,0,0,0,0,21.3,887.74,2,0,0.06,0.06,16,16.67,0.08,0.04,0.86,LANDED,X10-G,0:/Integrated Flight Computer/aircraft/x10_g_cfg.ks (inferred preloaded)
1.24,TAKEOFF,TO_PREFLIGHT,0.98,80,79.02,3.61,0,-0.31,-0.22,91.31,0.1,0.464,0,0,0,0,0,0,0,0,0,90.4,0,1,0,0.07,0,0,0,90,0,0,0,0,0,0,0,0,0,0,0,0,0,90.4,1,0,0.837,0,0,1,0,0,0,0,0,0,0,2,2,0,0,VALID,0,0,0,0,0,1,0,0,0,0,0,0,0,0,0,0,0,0,0,0,39.67,887.74,2,0,0.08,0.08,22,20,0.08,0.04,1.16,LANDED,X10-G,0:/Integrated Flight Computer/aircraft/x10_g_cfg.ks (inferred preloaded)
1.52,TAKEOFF,TO_PREFLIGHT,0.26,80,79.74,3.59,0.02,-0.39,-87.46,91.32,0.102,0.576,0,0,0,0,0,0,0,0,0,90.4,0,1,0,0.93,0,0,0,90,0,0,0,0,0,0,0,0,0,0,0,0,0,90.4,1,0,0.837,0,0,1,0,0,0,0,0,0,0,2,2,0,0,VALID,0,0,0,0,0,1,0,0,0,0,0,0,0,0,0,0,0,0,0,0,61.37,887.75,2,0,0.04,0.04,28,21.43,0.08,0.04,1.44,LANDED,X10-G,0:/Integrated Flight Computer/aircraft/x10_g_cfg.ks (inferred preloaded)
1.8,TAKEOFF,TO_PREFLIGHT,0.1,80,79.9,3.66,-0.07,-0.15,59.26,91.31,0.095,0.688,0,0,0,0,0,0,0,0,0,90.4,0,1,0,-4.28,0,0,0,90,0,0,0,0,0,0,0,0,0,0,0,0,0,90.4,1,0,0.837,0,0,1,0,0,0,0,0,0,0,2,2,0,0,VALID,0,0,0,0,0,1,0,0,0,0,0,0,0,0,0,0,0,0,0,0,87.27,887.75,2,0,0.04,0.04,33,17.86,0.08,0.04,1.72,LANDED,X10-G,0:/Integrated Flight Computer/aircraft/x10_g_cfg.ks (inferred preloaded)
2.06,TAKEOFF,TO_PREFLIGHT,0.02,80,79.98,3.67,0.06,-0.1,-65.14,91.32,0.101,0.792,0,0,0,0,0,0,0,0,0,90.4,0,1,0,3.69,0,0,0,90,0,0,0,0,0,0,0,0,0,0,0,0,0,90.4,1,0,0.837,0,0,1,0,0,0,0,0,0,0,2,2,0,0,VALID,0,0,0,0,0,1,0,0,0,0,0,0,0,0,0,0,0,0,0,0,114.98,887.75,2,0,0.04,0.04,38,19.23,0.08,0.04,1.98,LANDED,X10-G,0:/Integrated Flight Computer/aircraft/x10_g_cfg.ks (inferred preloaded)
2.32,TAKEOFF,TO_PREFLIGHT,0.08,80,79.92,3.62,-0.03,-0.28,17.38,91.32,0.102,0.896,0,0,0,0,0,0,0,0,0,90.4,0,1,0,-1.88,0,0,0,90,0,0,0,0,0,0,0,0,0,0,0,0,0,90.4,1,0,0.837,0,0,1,0,0,0,0,0,0,0,2,2,0,0,VALID,0,0,0,0,0,1,0,0,0,0,0,0,0,0,0,0,0,0,0,0,145.91,887.74,2,0,0.06,0.06,42,15.38,0.08,0.04,2.24,LANDED,X10-G,0:/Integrated Flight Computer/aircraft/x10_g_cfg.ks (inferred preloaded)
2.58,TAKEOFF,TO_PREFLIGHT,0.08,80,79.92,3.62,0.02,-0.3,-26.31,91.32,0.099,1,0,0,0,0,0,0,0,0,0,90.4,0,1,0,1.03,0,0,0,90,0,0,0,0,0,0,0,0,0,0,0,0,0,90.4,1,0,0.837,0,0,1,0,0,0,0,0,0,0,2,2,0,0,VALID,0,0,0,0,0,1,0,0,0,0,0,0,0,0,0,0,0,0,0,0,179.91,887.74,2,0,0.06,0.06,46,15.38,0.08,0.04,2.5,LANDED,X10-G,0:/Integrated Flight Computer/aircraft/x10_g_cfg.ks (inferred preloaded)
2.84,TAKEOFF,TO_PREFLIGHT,0.04,80,79.96,3.62,-0.02,-0.27,28.37,91.32,0.098,1,0,0,0,0,0,0,0,0,0,90.4,0,1,0,-1.26,0,0,0,90,0,0,0,0,0,0,0,0,0,0,0,0,0,90.4,1,0,0.837,0,0,1,0,0,0,0,0,0,0,2,2,0,0,VALID,0,0,0,0,0,1,0,0,0,0,0,0,0,0,0,0,0,0,0,0,215.68,887.74,2,0,0.06,0.06,50,15.38,0.08,0.04,2.76,LANDED,X10-G,0:/Integrated Flight Computer/aircraft/x10_g_cfg.ks (inferred preloaded)
3.1,TAKEOFF,TO_PREFLIGHT,0.07,80,79.93,3.62,0.02,-0.29,-14.68,91.32,0.101,1,0,0,0,0,0,0,0,0,0,90.4,0,1,0,1.25,0,0,0,90,0,0,0,0,0,0,0,0,0,0,0,0,0,90.4,1,0,0.837,0,0,1,0,0,0,0,0,0,0,2,2,0,0,VALID,0,0,0,0,0,1,0,0,0,0,0,0,0,0,0,0,0,0,0,0,249.8,887.74,2,0,0.06,0.06,54,15.38,0.08,0.04,3.02,LANDED,X10-G,0:/Integrated Flight Computer/aircraft/x10_g_cfg.ks (inferred preloaded)
3.41,TAKEOFF,TO_PREFLIGHT,0.06,80,79.94,3.61,0,-0.32,89.62,91.32,0.101,1,0,0,0,0,0,0,0,0,0,90.4,0,1,0,0,0,0,0,90,0,0,0,0,0,0,0,0,0,0,0,0,0,90.4,1,0,0.837,0,0,1,0,0,0,0,0,0,0,2,2,0,0,VALID,0,0,0,0,0,1,0,0,0,0,0,0,0,0,0,0,0,0,0,0,0,887.74,2,0,0.126,0.126,58,12.71,0.126,0.04,3.33,LANDED,X10-G,0:/Integrated Flight Computer/aircraft/x10_g_cfg.ks (inferred preloaded)
3.73,TAKEOFF,TO_PREFLIGHT,0.03,80,79.97,3.61,0,-0.32,82.53,91.32,0.101,1,0,0,0,0,0,0,0,0,0,90.4,0,1,0,0,0,0,0,90,0,0,0,0,0,0,0,0,0,0,0,0,0,90.4,1,0,0.837,0,0,1,0,0,0,0,0,0,0,2,2,0,0,VALID,0,0,0,0,0,1,0,0,0,0,0,0,0,0,0,0,0,0,0,0,0,887.74,2,0,0.312,0.312,59,3.2,0.312,0.126,3.65,LANDED,X10-G,0:/Integrated Flight Computer/aircraft/x10_g_cfg.ks (inferred preloaded)
4.06,TAKEOFF,TO_PREFLIGHT,0,80,80,3.61,0,-0.32,84.86,91.32,0.101,1,0,0,0,0,0,0,0,0,0,90.4,0,1,0,0,0,0,0,90,0,0,0,0,0,0,0,0,0,0,0,0,0,90.4,1,0,0.837,0,0,1,0,0,0,0,0,0,0,2,2,0,0,VALID,0,0,0,0,0,1,0,0,0,0,0,0,0,0,0,0,0,0,0,0,0,887.74,2,0,0.33,0.33,60,3.03,0.33,0.312,3.98,LANDED,X10-G,0:/Integrated Flight Computer/aircraft/x10_g_cfg.ks (inferred preloaded)
4.41,TAKEOFF,TO_PREFLIGHT,0,80,80,3.61,0,-0.32,89.55,91.32,0.101,1,0,0,0,0,0,0,0,0,0,90.4,0,1,0,0,0,0,0,90,0,0,0,0,0,0,0,0,0,0,0,0,0,90.4,1,0,0.837,0,0,1,0,0,0,0,0,0,0,2,2,0,0,VALID,0,0,0,0,0,1,0,0,0,0,0,0,0,0,0,0,0,0,0,0,0,887.74,2,0,0.348,0.348,61,2.87,0.348,0.33,4.33,LANDED,X10-G,0:/Integrated Flight Computer/aircraft/x10_g_cfg.ks (inferred preloaded)
4.77,TAKEOFF,TO_PREFLIGHT,0,80,80,3.61,0,-0.32,89.62,91.32,0.101,1,0,0,0,0,0,0,0,0,0,90.4,0,1,0,0,0,0,0,90,0,0,0,0,0,0,0,0,0,0,0,0,0,90.4,1,0,0.837,0,0,1,0,0,0,0,0,0,0,2,2,0,0,VALID,0,0,0,0,0,1,0,0,0,0,0,0,0,0,0,0,0,0,0,0,0,887.74,2,0,0.366,0.366,62,2.73,0.366,0.348,4.69,LANDED,X10-G,0:/Integrated Flight Computer/aircraft/x10_g_cfg.ks (inferred preloaded)
5.16,TAKEOFF,TO_PREFLIGHT,0,80,80,3.61,0,-0.32,84.88,91.32,0.101,1,0,0,0,0,0,0,0,0,0,90.4,0,1,0,0,0,0,0,90,0,0,0,0,0,0,0,0,0,0,0,0,0,90.4,1,0,0.837,0,0,1,0,0,0,0,0,0,0,2,2,0,0,VALID,0,0,0,0,0,1,0,0,0,0,0,0,0,0,0,0,0,0,0,0,0,887.74,2,0,0.384,0.384,63,2.6,0.384,0.366,5.08,LANDED,X10-G,0:/Integrated Flight Computer/aircraft/x10_g_cfg.ks (inferred preloaded)
5.56,TAKEOFF,TO_PREFLIGHT,0,80,80,3.61,0,-0.32,66.36,91.32,0.101,1,0,0,0,0,0,0,0,0,0,90.4,0,1,0,0,0,0,0,90,0,0,0,0,0,0,0,0,0,0,0,0,0,90.4,1,0,0.837,0,0,1,0,0,0,0,0,0,0,2,2,0,0,VALID,0,0,0,0,0,1,0,0,0,0,0,0,0,0,0,0,0,0,0,0,0,887.73,2,0,0.402,0.402,64,2.49,0.402,0.384,5.48,LANDED,X10-G,0:/Integrated Flight Computer/aircraft/x10_g_cfg.ks (inferred preloaded)
6.09,TAKEOFF,TO_PREFLIGHT,0,80,80,3.61,0,-0.32,89.55,91.32,0.101,1,0,0,0,0,0,0,0,0,0,90.4,0,1,0,0,0,0,0,90,0,0,0,0,0,0,0,0,0,0,0,0,0,90.4,1,0,0.837,0,0,1,0,0,0,0,0,0,0,2,2,0,0,VALID,0,0,0,0,0,1,0,0,0,0,0,0,0,0,0,0,0,0,0,0,0,887.73,2,0,0.532,0.5,65,1.88,0.532,0.402,6.01,LANDED,X10-G,0:/Integrated Flight Computer/aircraft/x10_g_cfg.ks (inferred preloaded)
6.86,TAKEOFF,TO_PREFLIGHT,0,80,80,3.61,0,-0.32,84.88,91.32,0.101,1,0,0,0,0,0,0,0,0,0,90.4,0,1,0,0,0,0,0,90,0,0,0,0,0,0,0,0,0,0,0,0,0,90.4,1,0,0.837,0,0,1,0,0,0,0,0,0,0,2,2,0,0,VALID,0,0,0,0,0,1,0,0,0,0,0,0,0,0,0,0,0,0,0,0,0,887.73,2,0,0.764,0.5,66,1.31,0.764,0.532,6.78,LANDED,X10-G,0:/Integrated Flight Computer/aircraft/x10_g_cfg.ks (inferred preloaded)
7.32,TAKEOFF,TO_PREFLIGHT,0,80,80,3.61,0,-0.32,84.91,91.32,0.101,1,0,0,0,0,0,0,0,0,0,90.4,0,1,0,0,0,0,0,90,0,0,0,0,0,0,0,0,0,0,0,0,0,90.4,1,0,0.837,0,0,1,0,0,0,0,0,0,0,2,2,0,0,VALID,0,0,0,0,0,1,0,0,0,0,0,0,0,0,0,0,0,0,0,0,0,887.73,2,0,0.469,0.469,67,2.13,0.764,0.469,7.24,LANDED,X10-G,0:/Integrated Flight Computer/aircraft/x10_g_cfg.ks (inferred preloaded)
7.61,TAKEOFF,TO_PREFLIGHT,0,80,80,3.61,0,-0.32,89.62,91.32,0.101,1,0,0,0,0,0,0,0,0,0,90.4,0,1,0,0,0,0,0,90,0,0,0,0,0,0,0,0,0,0,0,0,0,90.4,1,0,0.837,0,0,1,0,0,0,0,0,0,0,2,2,0,0,VALID,0,0,0,0,0,1,0,0,0,0,0,0,0,0,0,0,0,0,0,0,0,887.73,2,0,0.286,0.286,68,3.5,0.469,0.286,7.53,LANDED,X10-G,0:/Integrated Flight Computer/aircraft/x10_g_cfg.ks (inferred preloaded)
7.91,TAKEOFF,TO_PREFLIGHT,0.02,80,79.98,3.62,-0.03,-0.31,7.85,91.32,0.102,1,0,0,0,0,0,0,0,0,0,90.4,0,1,0,-1.93,0,0,0,90,0,0,0,0,0,0,0,0,0,0,0,0,0,90.4,1,0,0.837,0,0,1,0,0,0,0,0,0,0,2,2,0,0,VALID,0,0,0,0,0,1,0,0,0,0,0,0,0,0,0,0,0,0,0,0,274.86,887.72,2,0,0.08,0.08,70,6.61,0.286,0.08,7.83,LANDED,X10-G,0:/Integrated Flight Computer/aircraft/x10_g_cfg.ks (inferred preloaded)
8.19,TAKEOFF,TO_PREFLIGHT,0.46,80,79.54,3.59,-0.04,-0.13,34.44,91.32,0.099,1,0,0,0,0,0,0,0,0,0,90.4,0,1,0,-2.57,0,0,0,90,0,0,0,0,0,0,0,0,0,0,0,0,0,90.4,1,0,0.837,0,0,1,0,0,0,0,0,0,0,2,2,0,0,VALID,0,0,0,0,0,1,0,0,0,0,0,0,0,0,0,0,0,0,0,0,308.3,887.73,2,0,0.08,0.08,74,14.29,0.08,0.06,8.11,LANDED,X10-G,0:/Integrated Flight Computer/aircraft/x10_g_cfg.ks (inferred preloaded)
8.47,TAKEOFF,TO_PREFLIGHT,0.52,80,79.48,3.69,0.15,-0.22,-65.16,91.32,0.094,1,0,0,0,0,0,0,0,0,0,90.4,0,1,0,8.35,0,0,0,90,0,0,0,0,0,0,0,0,0,0,0,0,0,90.4,1,0,0.837,0,0,1,0,0,0,0,0,0,0,2,2,0,0,VALID,0,0,0,0,0,1,0,0,0,0,0,0,0,0,0,0,0,0,0,0,339.92,887.72,2,0,0.08,0.08,78,14.29,0.08,0.06,8.39,LANDED,X10-G,0:/Integrated Flight Computer/aircraft/x10_g_cfg.ks (inferred preloaded)
8.75,TAKEOFF,TO_PREFLIGHT,0.44,80,79.56,3.57,-0.11,-0.39,34.01,91.31,0.102,1,0,0,0,0,0,0,0,0,0,90.4,0,1,0,-6.48,0,0,0,90,0,0,0,0,0,0,0,0,0,0,0,0,0,90.4,1,0,0.837,0,0,1,0,0,0,0,0,0,0,2,2,0,0,VALID,0,0,0,0,0,1,0,0,0,0,0,0,0,0,0,0,0,0,0,0,369.81,887.72,2,0,0.08,0.08,82,14.29,0.08,0.06,8.67,LANDED,X10-G,0:/Integrated Flight Computer/aircraft/x10_g_cfg.ks (inferred preloaded)
9.03,TAKEOFF,TO_GROUND_ROLL,0.2,80,79.8,3.67,0.05,-0.15,-16.3,91.32,0.098,1,0,0,0,0,0,0,0,0,0,90.39,0,1,0,2.82,0,0,0,90,0,0,0,0,0,0,0,0,-0.002,0,0,0,0,90.39,1,-0.002,0.928,-0.0928,0.552,0,-0.0928,0,0,0,0,0,0,2,2,0,0,VALID,0,0,0,0,0,1,0,0,0,0,0,0,0,0,0,0,0,0,0,0,398.07,887.72,2,0,0.08,0.08,86,14.29,0.08,0.06,8.97,LANDED,X10-G,0:/Integrated Flight Computer/aircraft/x10_g_cfg.ks (inferred preloaded)
9.31,TAKEOFF,TO_GROUND_ROLL,0.7,80,79.3,3.63,-0.05,-0.21,4.07,91.31,0.108,1,0,0,0,0,0,0,0,0,0,90.41,0,1,0,-3.06,0,0,0,90,0,0,0,0,0,0,0,0,-0.003,0,0,0,0,90.41,1,-0.003,0.898,-0.0873,0.557,0,-0.0873,0,0,0,0,0,0,2,2,0,0,VALID,0,0,0,0,0,1,0,0,0,0,0,0,0,0,0,0,0,0,0,0,424.79,887.72,2,0,0.08,0.08,90,14.29,0.08,0.06,9.25,LANDED,X10-G,0:/Integrated Flight Computer/aircraft/x10_g_cfg.ks (inferred preloaded)
9.59,TAKEOFF,TO_GROUND_ROLL,1.44,80,78.56,3.65,0.02,-0.19,-1.19,91.28,0.107,1,0,0,0,0,0,0,0,0,0,90.42,0,1,0,0.84,0,0,0,90,0,0,0,0,0,0,0,0,-0.003,0,0,0,0,90.42,1,-0.003,0.852,-0.0815,0.564,0,-0.0815,0,0,0,0,0,0,2,2,0,0,VALID,0,0,0,0,0,1,0,0,0,0,0,0,0,0,0,0,0,0,0,0,450.04,887.71,2,0,0.08,0.08,94,14.29,0.08,0.06,9.53,LANDED,X10-G,0:/Integrated Flight Computer/aircraft/x10_g_cfg.ks (inferred preloaded)
9.87,TAKEOFF,TO_GROUND_ROLL,2.22,80,77.78,3.64,-0.04,-0.21,0.79,91.22,0.103,1,0,0,0,0,0,0,0,0,0,90.43,0,1,0,-1.03,0,0,0,90,0,0,0,0,0,0,0,0,-0.004,0,0,0,0,90.43,1,-0.004,0.786,-0.0736,0.572,0,-0.0736,0,0,0,0,0,0,2,2,0,0,VALID,0,0,0,0,0,1,0,0,0,0,0,0,0,0,0,0,0,0,0,0,473.92,887.69,2,0,0.08,0.08,98,14.29,0.08,0.06,9.81,LANDED,X10-G,0:/Integrated Flight Computer/aircraft/x10_g_cfg.ks (inferred preloaded)
10.15,TAKEOFF,TO_GROUND_ROLL,3.05,80,76.95,3.64,0,-0.21,-0.2,91.16,0.107,1,0,0,0,0,0,0,0,0,0,90.44,0,1,0,-0.08,0,0,0,90,0,0,0,0,0,0,0,0,-0.005,0,0,0,0,90.44,1,-0.005,0.717,-0.0664,0.58,0,-0.0664,0,0,0,0,0,0,2,2,0,0,VALID,0,0,0,0,0,1,0,0,0,0,0,0,0,0,0,0,0,0,0,0,496.48,887.67,2,0,0.08,0.08,102,14.29,0.08,0.06,10.09,LANDED,X10-G,0:/Integrated Flight Computer/aircraft/x10_g_cfg.ks (inferred preloaded)
10.43,TAKEOFF,TO_GROUND_ROLL,3.91,80,76.09,3.64,-0.03,-0.22,0.19,91.08,0.109,1,0,0,0,0,0,0,0,0,0,90.44,0,1,0,-0.43,0,0,0,90,0,0,0,0,0,0,0,0,-0.006,0,0,0,0,90.44,1,-0.006,0.638,-0.058,0.589,0,-0.058,0,0,0,0,0,0,2,2,0,0,VALID,0,0,0,0,0,1,0,0,0,0,0,0,0,0,0,0,0,0,0,0,517.81,887.63,2,0,0.08,0.08,106,14.29,0.08,0.06,10.37,LANDED,X10-G,0:/Integrated Flight Computer/aircraft/x10_g_cfg.ks (inferred preloaded)
10.71,TAKEOFF,TO_GROUND_ROLL,4.81,80,75.19,3.64,-0.03,-0.2,0.09,91.01,0.108,1,0,0,0,0,0,0,0,0,0,90.44,0,1,0,-0.33,0,0,0,90,0,0,0,0,0,0,0,0,-0.008,0,0,0,0,90.44,1,-0.008,0.563,-0.0508,0.598,0,-0.0508,0,0,0,0,0,0,2,2,0,0,VALID,0,0,0,0,0,1,0,0,0,0,0,0,0,0,0,0,0,0,0,0,537.96,887.59,2,0,0.08,0.08,110,14.29,0.08,0.06,10.65,LANDED,X10-G,0:/Integrated Flight Computer/aircraft/x10_g_cfg.ks (inferred preloaded)
10.99,TAKEOFF,TO_GROUND_ROLL,5.74,80,74.26,3.64,-0.03,-0.22,0.06,90.93,0.108,1,0,0,0,0,0,0,0,0,0,90.44,0,1,0,-0.31,0,0,0,90,0,0,0,0,0,0,0,0,-0.009,0,0,0,0,90.44,1,-0.009,0.482,-0.0422,0.607,0,-0.0422,0,0,0,0,0,0,2,2,0,0,VALID,0,0,0,0,0,1,0,0,0,0,0,0,0,0,0,0,0,0,0,0,557.01,887.54,2,0,0.08,0.08,114,14.29,0.08,0.06,10.93,LANDED,X10-G,0:/Integrated Flight Computer/aircraft/x10_g_cfg.ks (inferred preloaded)
11.27,TAKEOFF,TO_GROUND_ROLL,6.71,80,73.29,3.64,-0.04,-0.21,0.13,90.85,0.11,1,0,0,0,0,0,0,0,0,0,90.44,0,1,0,-0.37,0,0,0,90,0,0,0,0,0,0,0,0,-0.011,0,0,0,0,90.44,1,-0.011,0.408,-0.0352,0.617,0,-0.0352,0,0,0,0,0,0,2,2,0,0,VALID,0,0,0,0,0,1,0,0,0,0,0,0,0,0,0,0,0,0,0,0,575,887.47,2,0,0.08,0.08,118,14.29,0.08,0.06,11.21,LANDED,X10-G,0:/Integrated Flight Computer/aircraft/x10_g_cfg.ks (inferred preloaded)
11.55,TAKEOFF,TO_GROUND_ROLL,7.7,80,72.3,3.64,-0.04,-0.21,0.07,90.77,0.109,1,0,0,0,0,0,0,0,0,0,90.44,0,1,0,-0.31,0,0,0,90,0,0,0,0,0,0,0,0,-0.012,0,0,0,0,90.44,1,-0.012,0.335,-0.0278,0.627,0,-0.0278,0,0,0,0,0,0,2,2,0,0,VALID,0,0,0,0,0,1,0,0,0,0,0,0,0,0,0,0,0,0,0,0,592.01,887.4,2,0,0.08,0.08,122,14.29,0.08,0.06,11.49,LANDED,X10-G,0:/Integrated Flight Computer/aircraft/x10_g_cfg.ks (inferred preloaded)
11.83,TAKEOFF,TO_GROUND_ROLL,8.73,80,71.27,3.64,-0.05,-0.21,0.1,90.7,0.109,1,0,0,0,0,0,0,0,0,0,90.43,0,1,0,-0.34,0,0,0,90,0,0,0,0,0,0,0,0,-0.014,0,0,0,0,90.43,1,-0.014,0.267,-0.021,0.637,0,-0.021,0,0,0,0,0,0,2,2,0,0,VALID,0,0,0,0,0,1,0,0,0,0,0,0,0,0,0,0,0,0,0,0,608.07,887.31,2,0,0.08,0.08,126,14.29,0.08,0.06,11.77,LANDED,X10-G,0:/Integrated Flight Computer/aircraft/x10_g_cfg.ks (inferred preloaded)
12.11,TAKEOFF,TO_GROUND_ROLL,9.78,80,70.22,3.64,-0.06,-0.21,0.09,90.63,0.11,1,0,0,0,0,0,0,0,0,0,90.43,0,1,0,-0.33,0,0,0,90,0,0,0,0,0,0,0,0,-0.016,0,0,0,0,90.43,1,-0.016,0.206,-0.015,0.648,0,-0.015,0,0,0,0,0,0,2,2,0,0,VALID,0,0,0,0,0,1,0,0,0,0,0,0,0,0,0,0,0,0,0,0,623.24,887.22,2,0,0.08,0.08,130,14.29,0.08,0.06,12.05,LANDED,X10-G,0:/Integrated Flight Computer/aircraft/x10_g_cfg.ks (inferred preloaded)
12.39,TAKEOFF,TO_GROUND_ROLL,10.86,80,69.14,3.64,-0.06,-0.21,0.09,90.57,0.109,1,0,0,0,0,0,0,0,0,0,90.42,0,1,0,-0.32,0,0,0,90,0,0,0,0,0,0,0,0,-0.017,0,0,0,0,90.42,1,-0.017,0.15,-0.0085,0.659,0,-0.0085,0,0,0,0,0,0,2,2,0,0,VALID,0,0,0,0,0,1,0,0,0,0,0,0,0,0,0,0,0,0,0,0,637.56,887.11,2,0,0.08,0.08,134,14.29,0.08,0.06,12.33,LANDED,X10-G,0:/Integrated Flight Computer/aircraft/x10_g_cfg.ks (inferred preloaded)
12.67,TAKEOFF,TO_GROUND_ROLL,11.96,80,68.04,3.64,-0.07,-0.21,0.1,90.51,0.109,1,0,0,0,0,0,0,0,0,0,90.41,0,1,0,-0.33,0,0,0,90,0,0,0,0,0,0,0,0,-0.019,0,0,0,0,90.41,1,-0.019,0.1,-0.0037,0.67,0,-0.0037,0,0,0,0,0,0,2,2,0,0,VALID,0,0,0,0,0,1,0,0,0,0,0,0,0,0,0,0,0,0,0,0,651.09,886.99,2,0,0.08,0.08,138,14.29,0.08,0.06,12.61,LANDED,X10-G,0:/Integrated Flight Computer/aircraft/x10_g_cfg.ks (inferred preloaded)
12.95,TAKEOFF,TO_GROUND_ROLL,13.08,80,66.92,3.64,-0.07,-0.21,0.09,90.47,0.109,1,0,0,0,0,0,0,0,0,0,90.41,0,1,0,-0.32,0,0,0,90,0,0,0,0,0,0,0,0,-0.021,0,0,0,0,90.41,1,-0.021,0.057,-0.0001,0.681,0,-0.0001,0,0,0,0,0,0,2,2,0,0,VALID,0,0,0,0,0,1,0,0,0,0,0,0,0,0,0,0,0,0,0,0,663.87,886.86,2,0,0.08,0.08,142,14.29,0.08,0.06,12.89,LANDED,X10-G,0:/Integrated Flight Computer/aircraft/x10_g_cfg.ks (inferred preloaded)
13.23,TAKEOFF,TO_GROUND_ROLL,14.23,80,65.77,3.64,-0.08,-0.21,0.09,90.42,0.108,1,0,0,0,0,0,0,0,0,0,90.4,0,1,0,-0.33,0,0,0,90,0,0,0,0,0,0,0,0,-0.023,0,0,0,0,90.4,1,-0.023,0.019,0.0026,0.692,0,0.0026,0,0,0,0,0,0,2,2,0,0,VALID,0,0,0,0,0,1,0,0,0,0,0,0,0,0,0,0,0,0,0,0,675.93,886.71,2,0,0.08,0.08,146,14.29,0.08,0.06,13.17,LANDED,X10-G,0:/Integrated Flight Computer/aircraft/x10_g_cfg.ks (inferred preloaded)
13.51,TAKEOFF,TO_GROUND_ROLL,15.39,80,64.61,3.64,-0.09,-0.21,0.09,90.39,0.108,1,0,0,0,0,0,0,0,0,0,90.4,0,1,0,-0.32,0,0,0,90,0,0,0,0,0,0,0,0,-0.024,0,0,0,0,90.4,1,-0.024,-0.013,0.0048,0.704,0,0.0048,0,0,0,0,0,0,2,2,0,0,VALID,0,0,0,0,0,1,0,0,0,0,0,0,0,0,0,0,0,0,0,0,687.31,886.56,2,0,0.08,0.08,150,14.29,0.08,0.06,13.45,LANDED,X10-G,0:/Integrated Flight Computer/aircraft/x10_g_cfg.ks (inferred preloaded)
13.79,TAKEOFF,TO_GROUND_ROLL,16.58,80,63.42,3.64,-0.09,-0.21,0.09,90.35,0.108,1,0,0,0,0,0,0,0,0,0,90.39,0,1,0,-0.32,0,0,0,90,0,0,0,0,0,0,0,0,-0.026,0,0,0,0,90.39,1,-0.026,-0.04,0.0073,0.716,0,0.0073,0,0,0,0,0,0,2,2,0,0,VALID,0,0,0,0,0,1,0,0,0,0,0,0,0,0,0,0,0,0,0,0,698.05,886.39,2,0,0.08,0.08,154,14.29,0.08,0.06,13.73,LANDED,X10-G,0:/Integrated Flight Computer/aircraft/x10_g_cfg.ks (inferred preloaded)
14.07,TAKEOFF,TO_GROUND_ROLL,17.78,80,62.22,3.64,-0.1,-0.21,0.09,90.33,0.107,1,0,0,0,0,0,0,0,0,0,90.39,0,1,0,-0.32,0,0,0,90,0,0,0,0,0,0,0,0,-0.027,0,0,0,0,90.39,1,-0.027,-0.064,0.0096,0.728,0,0.0096,0,0,0,0,0,0,2,2,0,0,VALID,0,0,0,0,0,1,0,0,0,0,0,0,0,0,0,0,0,0,0,0,708.19,886.21,2,0,0.08,0.08,158,14.29,0.08,0.06,14.01,LANDED,X10-G,0:/Integrated Flight Computer/aircraft/x10_g_cfg.ks (inferred preloaded)
14.35,TAKEOFF,TO_GROUND_ROLL,19,80,61,3.64,-0.11,-0.21,0.09,90.3,0.106,1,0,0,0,0,0,0,0,0,0,90.38,0,1,0,-0.32,0,0,0,90,0,0,0,0,0,0,0,0,-0.029,0,0,0,0,90.38,1,-0.029,-0.083,0.0116,0.74,0,0.0116,0,0,0,0,0,0,2,2,0,0,VALID,0,0,0,0,0,1,0,0,0,0,0,0,0,0,0,0,0,0,0,0,717.75,886.02,2,0,0.08,0.08,162,14.29,0.08,0.06,14.29,LANDED,X10-G,0:/Integrated Flight Computer/aircraft/x10_g_cfg.ks (inferred preloaded)
14.63,TAKEOFF,TO_GROUND_ROLL,20.24,80,59.76,3.64,-0.11,-0.21,0.09,90.28,0.106,1,0,0,0,0,0,0,0,0,0,90.38,0,1,0,-0.32,0,0,0.01,90,0,0,0,0,0,0,0,0,-0.031,0,0,0,0,90.38,1,-0.031,-0.098,0.0133,0.752,0,0.0133,0,0,0,0,0,0,2,2,0,0,VALID,0,0,0,0,0,1,0,0,0,0,0,0,0,0,0,0,0,0,0,0,726.77,885.83,2,0,0.08,0.08,166,14.29,0.08,0.06,14.57,LANDED,X10-G,0:/Integrated Flight Computer/aircraft/x10_g_cfg.ks (inferred preloaded)
14.91,TAKEOFF,TO_GROUND_ROLL,21.49,80,58.51,3.64,-0.12,-0.21,0.09,90.27,0.105,1,0,0,0,0,0,0,0,0,0,90.38,0,1,0,-0.32,0,0,0.01,90,0,0,0,0,0,0,0,0,-0.032,0,0,0,0,90.38,1,-0.032,-0.109,0.0146,0.765,0,0.0146,0,0,0,0,0,0,2,2,0,0,VALID,0,0,0,0,0,1,0,0,0,0,0,0,0,0,0,0,0,0,0,0,735.28,885.62,2,0,0.08,0.08,170,14.29,0.08,0.06,14.85,LANDED,X10-G,0:/Integrated Flight Computer/aircraft/x10_g_cfg.ks (inferred preloaded)
15.19,TAKEOFF,TO_GROUND_ROLL,22.76,80,57.24,3.64,-0.13,-0.21,0.09,90.26,0.105,1,0,0,0,0,0,0,0,0,0,90.37,0,1,0,-0.32,0,0,0.01,90,0,0,0,0,0,0,0,0,-0.034,0,0,0,0,90.37,1,-0.034,-0.117,0.0157,0.778,0,0.0157,0,0,0,0,0,0,2,2,0,0,VALID,0,0,0,0,0,1,0,0,0,0,0,0,0,0,0,0,0,0,0,0,743.3,885.4,2,0,0.08,0.08,174,14.29,0.08,0.06,15.13,LANDED,X10-G,0:/Integrated Flight Computer/aircraft/x10_g_cfg.ks (inferred preloaded)
15.47,TAKEOFF,TO_GROUND_ROLL,24.04,80,55.96,3.64,-0.13,-0.21,0.09,90.25,0.104,1,0,0,0,0,0,0,0,0,0,90.37,0,1,0,-0.32,0,0,0.01,90,0,0,0,0,0,0,0,0,-0.035,0,0,0,0,90.37,1,-0.035,-0.122,0.0162,0.79,0,0.0162,0,0,0,0,0,0,2,2,0,0,VALID,0,0,0,0,0,1,0,0,0,0,0,0,0,0,0,0,0,0,0,0,750.87,885.18,2,0,0.08,0.08,178,14.29,0.08,0.06,15.41,LANDED,X10-G,0:/Integrated Flight Computer/aircraft/x10_g_cfg.ks (inferred preloaded)
15.75,TAKEOFF,TO_GROUND_ROLL,25.33,80,54.67,3.64,-0.14,-0.21,0.09,90.24,0.104,1,0,0,0,0,0,0,0,0,0,90.37,0,1,0,-0.31,0,0,0.01,90,0,0,0,0,0,0,0,0,-0.037,0,0,0,0,90.37,1,-0.037,-0.125,0.0166,0.803,0,0.0166,0,0,0,0,0,0,2,2,0,0,VALID,0,0,0,0,0,1,0,0,0,0,0,0,0,0,0,0,0,0,0,0,758,884.95,2,0,0.08,0.08,182,14.29,0.08,0.06,15.69,LANDED,X10-G,0:/Integrated Flight Computer/aircraft/x10_g_cfg.ks (inferred preloaded)
16.03,TAKEOFF,TO_GROUND_ROLL,26.63,80,53.37,3.64,-0.15,-0.21,0.09,90.24,0.103,1,0,0,0,0,0,0,0,0,0,90.36,0,1,0,-0.31,0,0,0.01,90,0,0,0,0,0,0,0,0,-0.039,0,0,0,0,90.36,1,-0.039,-0.125,0.0166,0.816,0,0.0166,0,0,0,0,0,0,2,2,0,0,VALID,0,0,0,0,0,1,0,0,0,0,0,0,0,0,0,0,0,0,0,0,764.72,884.71,2,0,0.08,0.08,186,14.29,0.08,0.06,15.97,LANDED,X10-G,0:/Integrated Flight Computer/aircraft/x10_g_cfg.ks (inferred preloaded)
16.31,TAKEOFF,TO_GROUND_ROLL,27.95,80,52.05,3.64,-0.15,-0.21,0.09,90.24,0.103,1,0,0,0,0,0,0,0,0,0,90.36,0,1,0,-0.31,0,0,0.01,90,0,0,0,0,0,0,0,0,-0.04,0,0,0,0,90.36,1,-0.04,-0.124,0.0164,0.83,0,0.0164,0,0,0,0,0,0,2,2,0,0,VALID,0,0,0,0,0,1,0,0,0,0,0,0,0,0,0,0,0,0,0,0,771.06,884.46,2,0,0.08,0.08,190,14.29,0.08,0.06,16.25,LANDED,X10-G,0:/Integrated Flight Computer/aircraft/x10_g_cfg.ks (inferred preloaded)
16.59,TAKEOFF,TO_GROUND_ROLL,29.28,80,50.72,3.64,-0.16,-0.21,0.09,90.24,0.103,1,0,0,0,0,0,0,0,0,0,90.36,0,1,0,-0.31,0,0,0.01,90,0,0,0,0,0,0,0,0,-0.042,0,0,0,0,90.36,1,-0.042,-0.122,0.0161,0.843,0,0.0161,0,0,0,0,0,0,2,2,0,0,VALID,0,0,0,0,0,1,0,0,0,0,0,0,0,0,0,0,0,0,0,0,777.03,884.21,2,0,0.08,0.08,194,14.29,0.08,0.06,16.53,LANDED,X10-G,0:/Integrated Flight Computer/aircraft/x10_g_cfg.ks (inferred preloaded)
16.87,TAKEOFF,TO_GROUND_ROLL,30.61,80,49.39,3.64,-0.17,-0.21,0.09,90.24,0.102,1,0,0,0,0,0,0,0,0,0,90.36,0,1,0,-0.31,0,0,0.01,90,0,0,0,0,0,0,0,0,-0.044,0,0,0,0,90.36,1,-0.044,-0.119,0.0156,0.856,0,0.0156,0,0,0,0,0,0,2,2,0,0,VALID,0,0,0,0,0,1,0,0,0,0,0,0,0,0,0,0,0,0,0,0,782.65,883.96,2,0,0.08,0.08,198,14.29,0.08,0.06,16.81,LANDED,X10-G,0:/Integrated Flight Computer/aircraft/x10_g_cfg.ks (inferred preloaded)
17.15,TAKEOFF,TO_GROUND_ROLL,31.96,80,48.04,3.64,-0.17,-0.2,0.09,90.24,0.102,1,0,0,0,0,0,0,0,0,0,90.35,0,1,0,-0.31,0,0,0.01,90,0,0,0,0,0,0,0,0,-0.046,0,0,0,0,90.35,1,-0.046,-0.115,0.0151,0.87,0,0.0151,0,0,0,0,0,0,2,2,0,0,VALID,0,0,0,0,0,1,0,0,0,0,0,0,0,0,0,0,0,0,0,0,787.95,883.7,2,0,0.08,0.08,202,14.29,0.08,0.06,17.09,LANDED,X10-G,0:/Integrated Flight Computer/aircraft/x10_g_cfg.ks (inferred preloaded)
17.43,TAKEOFF,TO_GROUND_ROLL,33.31,80,46.69,3.64,-0.18,-0.2,0.09,90.24,0.102,1,0,0,0,0,0,0,0,0,0,90.35,0,1,0,-0.31,0,0,0.01,90,0,0,0,0,0,0,0,0,-0.048,0,0,0,0,90.35,1,-0.048,-0.111,0.0146,0.883,0,0.0146,0,0,0,0,0,0,2,2,0,0,VALID,0,0,0,0,0,1,0,0,0,0,0,0,0,0,0,0,0,0,0,0,792.94,883.44,2,0,0.08,0.08,206,14.29,0.08,0.06,17.37,LANDED,X10-G,0:/Integrated Flight Computer/aircraft/x10_g_cfg.ks (inferred preloaded)
17.71,TAKEOFF,TO_GROUND_ROLL,34.68,80,45.32,3.64,-0.19,-0.2,0.09,90.24,0.102,1,0,0,0,0,0,0,0,0,0,90.35,0,1,0,-0.31,0,0,0.01,90,0,0,0,0,0,0,0,0,-0.05,0,0,0,0,90.35,1,-0.05,-0.106,0.0141,0.897,0,0.0141,0,0,0,0,0,0,2,2,0,0,VALID,0,0,0,0,0,1,0,0,0,0,0,0,0,0,0,0,0,0,0,0,797.64,883.17,2,0,0.08,0.08,210,14.29,0.08,0.06,17.65,LANDED,X10-G,0:/Integrated Flight Computer/aircraft/x10_g_cfg.ks (inferred preloaded)
17.99,TAKEOFF,TO_GROUND_ROLL,36.05,80,43.95,3.64,-0.19,-0.2,0.09,90.24,0.102,1,0,0,0,0,0,0,0,0,0,90.35,0,1,0,-0.3,0,0,0.02,90,0,0,0,0,0,0,0,0,-0.053,0,0,0,0,90.35,1,-0.053,-0.101,0.0134,0.91,0,0.0134,0,0,0,0,0,0,2,2,0,0,VALID,0,0,0,0,0,1,0,0,0,0,0,0,0,0,0,0,0,0,0,0,802.07,882.91,2,0,0.08,0.08,214,14.29,0.08,0.06,17.93,LANDED,X10-G,0:/Integrated Flight Computer/aircraft/x10_g_cfg.ks (inferred preloaded)
18.27,TAKEOFF,TO_GROUND_ROLL,37.43,80,42.57,3.64,-0.2,-0.2,0.09,90.25,0.102,1,0,0,0,0,0,0,0,0,0,90.34,0,1,0,-0.3,0,0,0.02,90,0,0,0,0,0,0,0,0,-0.055,0,0,0,0,90.34,1,-0.055,-0.097,0.013,0.924,0,0.013,0,0,0,0,0,0,2,2,0,0,VALID,0,0,0,0,0,1,0,0,0,0,0,0,0,0,0,0,0,0,0,0,806.24,882.65,2,0,0.08,0.08,218,14.29,0.08,0.06,18.21,LANDED,X10-G,0:/Integrated Flight Computer/aircraft/x10_g_cfg.ks (inferred preloaded)
18.55,TAKEOFF,TO_GROUND_ROLL,38.81,80,41.19,3.64,-0.2,-0.2,0.09,90.25,0.102,1,0,0,0,0,0,0,0,0,0,90.34,0,1,0,-0.3,0,0,0.02,90,0,0,0,0,0,0,0,0,-0.057,0,0,0,0,90.34,1,-0.057,-0.092,0.0124,0.938,0,0.0124,0,0,0,0,0,0,2,2,0,0,VALID,0,0,0,0,0,1,0,0,0,0,0,0,0,0,0,0,0,0,0,0,810.17,882.38,2,0,0.08,0.08,222,14.29,0.08,0.06,18.49,LANDED,X10-G,0:/Integrated Flight Computer/aircraft/x10_g_cfg.ks (inferred preloaded)
18.83,TAKEOFF,TO_GROUND_ROLL,40.2,80,39.8,3.64,-0.21,-0.2,0.09,90.25,0.102,1,0,0,0,0,0,0,0,0,0,90.34,0,1,0,-0.3,0,0,0.02,90,0,0,0,0,0,0,0,0,-0.06,0,0,0,0,90.34,1,-0.06,-0.087,0.0118,0.952,0,0.0118,0,0,0,0,0,0,2,2,0,0,VALID,0,0,0,0,0,1,0,0,0,0,0,0,0,0,0,0,0,0,0,0,813.87,882.12,2,0,0.08,0.08,226,14.29,0.08,0.06,18.77,LANDED,X10-G,0:/Integrated Flight Computer/aircraft/x10_g_cfg.ks (inferred preloaded)
19.11,TAKEOFF,TO_GROUND_ROLL,41.6,80,38.4,3.64,-0.22,-0.2,0.09,90.25,0.102,1,0,0,0,0,0,0,0,0,0,90.34,0,1,0,-0.3,0,0,0.02,90,0,0,0,0,0,0,0,0,-0.063,0,0,0,0,90.34,1,-0.063,-0.083,0.0113,0.966,0,0.0113,0,0,0,0,0,0,2,2,0,0,VALID,0,0,0,0,0,1,0,0,0,0,0,0,0,0,0,0,0,0,0,0,817.36,881.87,2,0,0.08,0.08,230,14.29,0.08,0.06,19.05,LANDED,X10-G,0:/Integrated Flight Computer/aircraft/x10_g_cfg.ks (inferred preloaded)
19.39,TAKEOFF,TO_GROUND_ROLL,43.01,80,36.99,3.64,-0.22,-0.2,0.08,90.26,0.102,1,0,0,0,0,0,0,0,0,0,90.33,0,1,0,-0.3,0,0,0.02,90,0,0,0,0,0,0,0,0,-0.066,0,0,0,0,90.33,1,-0.066,-0.078,0.0106,0.98,0,0.0106,0,0,0,0,0,0,2,2,0,0,VALID,0,0,0,0,0,1,0,0,0,0,0,0,0,0,0,0,0,0,0,0,820.65,881.62,2,0,0.08,0.08,234,14.29,0.08,0.06,19.33,LANDED,X10-G,0:/Integrated Flight Computer/aircraft/x10_g_cfg.ks (inferred preloaded)
19.67,TAKEOFF,TO_GROUND_ROLL,44.42,80,35.58,3.64,-0.23,-0.2,0.08,90.26,0.102,1,0,0,0,0,0,0,0,0,0,90.33,0,1,0,-0.3,0,0,0.02,90,0,0,0,0,0,0,0,0,-0.069,0,0,0,0,90.33,1,-0.069,-0.074,0.0103,0.994,0,0.0103,0,0,0,0,0,0,2,2,0,0,VALID,0,0,0,0,0,1,0,0,0,0,0,0,0,0,0,0,0,0,0,0,823.74,881.37,2,0,0.08,0.08,238,14.29,0.08,0.06,19.61,LANDED,X10-G,0:/Integrated Flight Computer/aircraft/x10_g_cfg.ks (inferred preloaded)
19.95,TAKEOFF,TO_GROUND_ROLL,45.83,80,34.17,3.64,-0.24,-0.2,0.08,90.26,0.103,1,0,0,0,0,0,0,0,0,0,90.33,0,1,0,-0.3,0,0,0.02,90,0,0,0,0,0,0,0,0,-0.072,0,0,0,0,90.33,1,-0.072,-0.07,0.0098,1,0,0.0098,0,0,0,0,0,0,2,2,0,0,VALID,0,0,0,0,0,1,0,0,0,0,0,0,0,0,0,0,0,0,0,0,826.66,881.13,2,0,0.08,0.08,242,14.29,0.08,0.06,19.89,LANDED,X10-G,0:/Integrated Flight Computer/aircraft/x10_g_cfg.ks (inferred preloaded)
20.23,TAKEOFF,TO_GROUND_ROLL,47.25,80,32.75,3.64,-0.24,-0.2,0.08,90.26,0.103,1,0,0,0,0,0,0,0,0,0,90.32,0,1,0,-0.29,0,0,0.02,90,0,0,0,0,0,0,0,0,-0.075,0,0,0,0,90.32,1,-0.075,-0.066,0.009,1,0,0.009,0,0,0,0,0,0,2,2,0,0,VALID,0,0,0,0,0,1,0,0,0,0,0,0,0,0,0,0,0,0,0,0,829.42,880.9,2,0,0.08,0.08,246,14.29,0.08,0.06,20.17,LANDED,X10-G,0:/Integrated Flight Computer/aircraft/x10_g_cfg.ks (inferred preloaded)
20.51,TAKEOFF,TO_GROUND_ROLL,48.68,80,31.32,3.64,-0.25,-0.2,0.08,90.26,0.103,1,0,0,0,0,0,0,0,0,0,90.32,0,1,0,-0.29,0,0,0.03,90,0,0,0,0,0,0,0,0,-0.078,0,0,0,0,90.32,1,-0.078,-0.062,0.0085,1,0,0.0085,0,0,0,0,0,0,2,2,0,0,VALID,0,0,0,0,0,1,0,0,0,0,0,0,0,0,0,0,0,0,0,0,832.01,880.67,2,0,0.08,0.08,250,14.29,0.08,0.06,20.45,LANDED,X10-G,0:/Integrated Flight Computer/aircraft/x10_g_cfg.ks (inferred preloaded)
20.79,TAKEOFF,TO_GROUND_ROLL,50.11,80,29.89,3.64,-0.25,-0.2,0.08,90.26,0.103,1,0,0,0,0,0,0,0,0,0,90.32,0,1,0,-0.29,0,0,0.03,90,0,0,0,0,0,0,0,0,-0.081,0,0,0,0,90.32,1,-0.081,-0.059,0.0082,1,0,0.0082,0,0,0,0,0,0,2,2,0,0,VALID,0,0,0,0,0,1,0,0,0,0,0,0,0,0,0,0,0,0,0,0,834.47,880.46,2,0,0.08,0.08,254,14.29,0.08,0.06,20.73,LANDED,X10-G,0:/Integrated Flight Computer/aircraft/x10_g_cfg.ks (inferred preloaded)
21.07,TAKEOFF,TO_GROUND_ROLL,51.54,80,28.46,3.64,-0.26,-0.19,0.08,90.26,0.103,1,0,0,0,0,0,0,0,0,0,90.31,0,1,0,-0.29,0,0,0.03,90,0,0,0,0,0,0,0,0,-0.085,0,0,0,0,90.31,1,-0.085,-0.054,0.0072,1,0,0.0072,0,0,0,0,0,0,2,2,0,0,VALID,0,0,0,0,0,1,0,0,0,0,0,0,0,0,0,0,0,0,0,0,836.78,880.25,2,0,0.08,0.08,258,14.29,0.08,0.06,21.01,LANDED,X10-G,0:/Integrated Flight Computer/aircraft/x10_g_cfg.ks (inferred preloaded)
21.35,TAKEOFF,TO_GROUND_ROLL,52.97,80,27.03,3.64,-0.27,-0.19,0.08,90.26,0.103,1,0,0,0,0,0,0,0,0,0,90.31,0,1,0,-0.29,0,0,0.03,90,0,0,0,0,0,0,0,0,-0.088,0,0,0,0,90.31,1,-0.088,-0.051,0.0069,1,0,0.0069,0,0,0,0,0,0,2,2,0,0,VALID,0,0,0,0,0,1,0,0,0,0,0,0,0,0,0,0,0,0,0,0,838.97,880.06,2,0,0.08,0.08,262,14.29,0.08,0.06,21.29,LANDED,X10-G,0:/Integrated Flight Computer/aircraft/x10_g_cfg.ks (inferred preloaded)
21.63,TAKEOFF,TO_GROUND_ROLL,54.42,80,25.58,3.64,-0.27,-0.19,0.08,90.26,0.103,1,0,0,0,0,0,0,0,0,0,90.31,0,1,0,-0.29,0,0,0.03,90,0,0,0,0,0,0,0,0,-0.092,0,0,0,0,90.31,1,-0.092,-0.048,0.0064,1,0,0.0064,0,0,0,0,0,0,2,2,0,0,VALID,0,0,0,0,0,1,0,0,0,0,0,0,0,0,0,0,0,0,0,0,841.04,879.88,2,0,0.08,0.08,266,14.29,0.08,0.06,21.57,LANDED,X10-G,0:/Integrated Flight Computer/aircraft/x10_g_cfg.ks (inferred preloaded)
21.91,TAKEOFF,TO_GROUND_ROLL,55.86,80,24.14,3.64,-0.28,-0.19,0.08,90.26,0.104,1,0,0,0,0,0,0,0,0,0,90.3,0,1,0,-0.28,0,0,0.03,90,0,0,0,0,0,0,0,0,-0.096,0,0,0,0,90.3,1,-0.096,-0.045,0.0061,1,0,0.0061,0,0,0,0,0,0,2,2,0,0,VALID,0,0,0,0,0,1,0,0,0,0,0,0,0,0,0,0,0,0,0,0,843,879.72,2,0,0.08,0.08,270,14.29,0.08,0.06,21.85,LANDED,X10-G,0:/Integrated Flight Computer/aircraft/x10_g_cfg.ks (inferred preloaded)
22.19,TAKEOFF,TO_GROUND_ROLL,57.31,80,22.69,3.64,-0.28,-0.19,0.08,90.26,0.104,1,0,0,0,0,0,0,0,0,0,90.3,0,1,0,-0.28,0,0,0.03,90,0,0,0,0,0,0,0,0,-0.1,0,0,0,0,90.3,1,-0.1,-0.041,0.0055,1,0,0.0055,0,0,0,0,0,0,2,2,0,0,VALID,0,0,0,0,0,1,0,0,0,0,0,0,0,0,0,0,0,0,0,0,844.86,879.57,2,0,0.08,0.08,274,14.29,0.08,0.06,22.13,LANDED,X10-G,0:/Integrated Flight Computer/aircraft/x10_g_cfg.ks (inferred preloaded)
22.47,TAKEOFF,TO_GROUND_ROLL,58.76,80,21.24,3.64,-0.29,-0.19,0.08,90.26,0.104,1,0,0,0,0,0,0,0,0,0,90.3,0,1,0,-0.28,0,0,0.04,90,0,0,0,0,0,0,0,0,-0.104,0,0,0,0,90.3,1,-0.104,-0.039,0.0054,1,0,0.0054,0,0,0,0,0,0,2,2,0,0,VALID,0,0,0,0,0,1,0,0,0,0,0,0,0,0,0,0,0,0,0,0,846.63,879.44,2,0,0.08,0.08,278,14.29,0.08,0.06,22.41,LANDED,X10-G,0:/Integrated Flight Computer/aircraft/x10_g_cfg.ks (inferred preloaded)
22.75,TAKEOFF,TO_GROUND_ROLL,60.21,80,19.79,3.64,-0.29,-0.19,0.08,90.26,0.104,1,0,0,0,0,0,0,0,0,0,90.29,0,1,0,-0.28,0,0,0.04,90,0,0,0,0,0,0,0,0,-0.108,0,0,0,0,90.29,1,-0.108,-0.037,0.0051,1,0,0.0051,0,0,0,0,0,0,2,2,0,0,VALID,0,0,0,0,0,1,0,0,0,0,0,0,0,0,0,0,0,0,0,0,848.31,879.32,2,0,0.08,0.08,282,14.29,0.08,0.06,22.69,LANDED,X10-G,0:/Integrated Flight Computer/aircraft/x10_g_cfg.ks (inferred preloaded)
23.03,TAKEOFF,TO_GROUND_ROLL,61.67,80,18.33,3.64,-0.3,-0.19,0.08,90.26,0.104,1,0,0,0,0,0,0,0,0,0,90.29,0,1,0,-0.28,0,0,0.04,90,0,0,0,0,0,0,0,0,-0.112,0,0,0,0,90.29,1,-0.112,-0.033,0.0046,1,0,0.0046,0,0,0,0,0,0,2,2,0,0,VALID,0,0,0,0,0,1,0,0,0,0,0,0,0,0,0,0,0,0,0,0,849.9,879.22,2,0,0.08,0.08,286,14.29,0.08,0.06,22.97,LANDED,X10-G,0:/Integrated Flight Computer/aircraft/x10_g_cfg.ks (inferred preloaded)
23.31,TAKEOFF,TO_GROUND_ROLL,63.13,80,16.87,3.64,-0.3,-0.19,0.08,90.25,0.104,1,0,0,0,0,0,0,0,0,0,90.29,0,1,0,-0.27,0,0,0.04,90,0,0,0,0,0,0,0,0,-0.116,0,0,0,0,90.29,1,-0.116,-0.03,0.0042,1,0,0.0042,0,0,0,0,0,0,2,2,0,0,VALID,0,0,0,0,0,1,0,0,0,0,0,0,0,0,0,0,0,0,0,0,851.43,879.15,2,0,0.08,0.08,290,14.29,0.08,0.06,23.25,LANDED,X10-G,0:/Integrated Flight Computer/aircraft/x10_g_cfg.ks (inferred preloaded)
23.59,TAKEOFF,TO_GROUND_ROLL,64.59,80,15.41,3.64,-0.31,-0.19,0.08,90.25,0.104,1,0,0,0,0,0,0,0,0,0,90.28,0,1,0,-0.27,0,0,0.04,90,0,0,0,0,0,0,0,0,-0.12,0,0,0,0,90.28,1,-0.12,-0.027,0.0037,1,0,0.0037,0,0,0,0,0,0,2,2,0,0,VALID,0,0,0,0,0,1,0,0,0,0,0,0,0,0,0,0,0,0,0,0,852.88,879.09,2,0,0.08,0.08,294,14.29,0.08,0.06,23.53,LANDED,X10-G,0:/Integrated Flight Computer/aircraft/x10_g_cfg.ks (inferred preloaded)
23.87,TAKEOFF,TO_GROUND_ROLL,66.05,80,13.95,3.64,-0.31,-0.19,0.07,90.25,0.104,1,0,0,0,0,0,0,0,0,0,90.28,0,1,0,-0.27,0,0,0.04,90,0,0,0,0,0,0,0,0,-0.124,0,0,0,0,90.28,1,-0.124,-0.025,0.0035,1,0,0.0035,0,0,0,0,0,0,2,2,0,0,VALID,0,0,0,0,0,1,0,0,0,0,0,0,0,0,0,0,0,0,0,0,854.28,879.05,2,0,0.08,0.08,298,14.29,0.08,0.06,23.81,LANDED,X10-G,0:/Integrated Flight Computer/aircraft/x10_g_cfg.ks (inferred preloaded)
24.15,TAKEOFF,TO_GROUND_ROLL,67.52,80,12.48,3.65,-0.32,-0.17,0.08,90.25,0.104,1,0,0,0,0,0,0,0,0,0,90.27,0,1,0,-0.27,0,0,0.05,90,0,0,0,0,0,0,0,0,-0.129,0,0,0,0,90.27,1,-0.129,-0.021,0.0028,1,0,0.0028,0,0,0,0,0,0,2,2,0,0,VALID,0,0,0,0,0,1,0,0,0,0,0,0,0,0,0,0,0,0,0,0,855.62,879.04,2,0,0.08,0.08,302,14.29,0.08,0.06,24.09,LANDED,X10-G,0:/Integrated Flight Computer/aircraft/x10_g_cfg.ks (inferred preloaded)
24.43,TAKEOFF,TO_GROUND_ROLL,68.98,80,11.02,3.63,-0.32,-0.19,0.07,90.25,0.105,1,0,0,0,0,0,0,0,0,0,90.27,0,1,0,-0.27,0,0,0.05,90,0,0,0,0,0,0,0,0,-0.133,0,0,0,0,90.27,1,-0.133,-0.018,0.0024,1,0,0.0024,0,0,0,0,0,0,2,2,0,0,VALID,0,0,0,0,0,1,0,0,0,0,0,0,0,0,0,0,0,0,0,0,856.96,879.13,2,0,0.08,0.08,306,14.29,0.08,0.06,24.37,LANDED,X10-G,0:/Integrated Flight Computer/aircraft/x10_g_cfg.ks (inferred preloaded)
24.71,TAKEOFF,TO_GROUND_ROLL,70.45,80,9.55,3.64,-0.33,-0.17,0.08,90.25,0.104,1,0,0,0,0,0,0,0,0,0,90.26,0,1,0,-0.26,0,0,0.05,90,0,0,0,0,0,0,0,0,-0.138,0,0,0,0,90.26,1,-0.138,-0.014,0.002,1,0,0.002,0,0,0,0,0,0,2,2,0,0,VALID,0,0,0,0,0,1,0,0,0,0,0,0,0,0,0,0,0,0,0,0,858.55,879.54,2,0,0.08,0.08,310,14.29,0.08,0.06,24.65,LANDED,X10-G,0:/Integrated Flight Computer/aircraft/x10_g_cfg.ks (inferred preloaded)
24.99,TAKEOFF,TO_GROUND_ROLL,71.93,80,8.07,3.63,-0.33,-0.19,0.06,90.25,0.105,1,0,0,0,0,0,0,0,0,0,90.26,0,1,0,-0.26,0,0,0.05,90,0,0,0,0,0,0,0,0,-0.142,0,0,0,0,90.26,1,-0.142,-0.012,0.0017,1,0,0.0017,0,0,0,0,0,0,2,2,0,0,VALID,0,0,0,0,0,1,0,0,0,0,0,0,0,0,0,0,0,0,0,0,860.4,880.28,2,0,0.08,0.08,314,14.29,0.08,0.06,24.93,LANDED,X10-G,0:/Integrated Flight Computer/aircraft/x10_g_cfg.ks (inferred preloaded)
25.27,TAKEOFF,TO_GROUND_ROLL,73.4,80,6.6,3.64,-0.34,-0.18,0.08,90.25,0.105,1,0,0,0,0,0,0,0,0,0,90.25,0,1,0,-0.26,0,0,0.05,90,0,0,0,0,0,0,0,0,-0.147,0,0,0,0,90.25,1,-0.147,-0.009,0.0013,1,0,0.0013,0,0,0,0,0,0,2,2,0,0,VALID,0,0,0,0,0,1,0,0,0,0,0,0,0,0,0,0,0,0,0,0,862.5,881.35,2,0,0.08,0.08,318,14.29,0.08,0.06,25.21,LANDED,X10-G,0:/Integrated Flight Computer/aircraft/x10_g_cfg.ks (inferred preloaded)
25.55,TAKEOFF,TO_GROUND_ROLL,74.88,80,5.12,3.64,-0.33,-0.18,0.07,90.24,0.105,1,0,0,0,0,0,0,0,0,0,90.25,0,1,0,-0.26,0,0,0.06,90,0,0,0,0,0,0,0,0,-0.152,0,0,0,0,90.25,1,-0.152,-0.006,0.001,1,0,0.001,0,0,0,0,0,0,2,2,0,0,VALID,0,0,0,0,0,1,0,0,0,0,0,0,0,0,0,0,0,0,0,0,864.86,882.74,2,0,0.08,0.08,322,14.29,0.08,0.06,25.49,LANDED,X10-G,0:/Integrated Flight Computer/aircraft/x10_g_cfg.ks (inferred preloaded)
25.83,TAKEOFF,TO_GROUND_ROLL,76.37,80,3.63,3.64,-0.34,-0.18,0.07,90.24,0.105,1,0,0,0,0,0,0,0,0,0,90.24,0,1,0,-0.26,0,0,0.06,90,0,0,0,0,0,0,0,0,-0.156,0,0,0,0,90.24,1,-0.156,-0.003,0.0007,1,0,0.0007,0,0,0,0,0,0,2,2,0,0,VALID,0,0,0,0,0,1,0,0,0,0,0,0,0,0,0,0,0,0,0,0,867.47,884.43,2,0,0.08,0.08,326,14.29,0.08,0.06,25.77,LANDED,X10-G,0:/Integrated Flight Computer/aircraft/x10_g_cfg.ks (inferred preloaded)
26.11,TAKEOFF,TO_GROUND_ROLL,77.86,80,2.14,3.64,-0.34,-0.18,0.07,90.24,0.105,1,0,0,0,0,0,0,0,0,0,90.24,0,1,0,-0.25,0,0,0.06,90,0,0,0,0,0,0,0,0,-0.161,0,0,0,0,90.24,1,-0.161,-0.001,0.0004,1,0,0.0004,0,0,0,0,0,0,2,2,0,0,VALID,0,0,0,0,0,1,0,0,0,0,0,0,0,0,0,0,0,0,0,0,870.33,886.43,2,0,0.08,0.08,330,14.29,0.08,0.06,26.05,LANDED,X10-G,0:/Integrated Flight Computer/aircraft/x10_g_cfg.ks (inferred preloaded)
26.39,TAKEOFF,TO_GROUND_ROLL,79.35,80,0.65,3.64,-0.35,-0.18,0.07,90.24,0.106,1,0,0,0,0,0,0,0,0,0,90.24,0,1,0,-0.25,0,0,0.06,90,0,0,0,0,0,0,0,0,-0.166,0,0,0,0,90.24,1,-0.166,0.002,0,1,0,0,0,0,0,0,0,0,2,2,0,0,VALID,0,0,0,0,0,1,0,0,0,0,0,0,0,0,0,0,0,0,0,0,873.43,888.72,2,0,0.08,0.08,334,14.29,0.08,0.06,26.33,LANDED,X10-G,0:/Integrated Flight Computer/aircraft/x10_g_cfg.ks (inferred preloaded)
26.67,TAKEOFF,TO_GROUND_ROLL,80.85,80,-0.85,3.64,-0.35,-0.17,0.07,90.24,0.106,1,0,0,0,0,0,0,0,0,0,90.23,0,1,0,-0.25,0,0,0.07,90,0,0,0,0,0,0,0,0,-0.171,0,0,0,0,90.23,1,-0.171,0.004,-0.0002,1,0,-0.0002,0,0,0,0,0,0,2,2,0,0,VALID,0,0,0,0,0,1,0,0,0,0,0,0,0,0,0,0,0,0,0,0,876.76,891.29,2,0,0.08,0.08,338,14.29,0.08,0.06,26.61,LANDED,X10-G,0:/Integrated Flight Computer/aircraft/x10_g_cfg.ks (inferred preloaded)
26.95,TAKEOFF,TO_GROUND_ROLL,82.35,80,-2.35,3.64,-0.35,-0.17,0.06,90.23,0.106,1,0,0,0,0,0,0,0,0,0,90.23,0,1,0,-0.25,0,0,0.07,90,0,0,0,0,0,0,0,0,-0.176,0,0,0,0,90.23,1,-0.176,0.007,-0.0006,1,0,-0.0006,0,0,0,0,0,0,2,2,0,0,VALID,0,0,0,0,0,1,0,0,0,0,0,0,0,0,0,0,0,0,0,0,880.33,894.14,2,0,0.08,0.08,342,14.29,0.08,0.06,26.89,LANDED,X10-G,0:/Integrated Flight Computer/aircraft/x10_g_cfg.ks (inferred preloaded)
27.23,TAKEOFF,TO_GROUND_ROLL,83.87,80,-3.87,3.64,-0.36,-0.17,0.06,90.23,0.106,1,0,0,0,0,0,0,0,0,0,90.22,0,1,0,-0.24,0,0,0.07,90,0,0,0,0,0,0,0,0,-0.181,0,0,0,0,90.22,1,-0.181,0.01,-0.0009,1,0,-0.0009,0,0,0,0,0,0,2,2,0,0,VALID,0,0,0,0,0,1,0,0,0,0,0,0,0,0,0,0,0,0,0,0,884.13,897.26,2,0,0.08,0.08,346,14.29,0.08,0.06,27.17,LANDED,X10-G,0:/Integrated Flight Computer/aircraft/x10_g_cfg.ks (inferred preloaded)
27.51,TAKEOFF,TO_GROUND_ROLL,85.38,80,-5.38,3.64,-0.36,-0.17,0.06,90.23,0.106,1,0,0,0,0,0,0,0,0,0,90.22,0,1,0,-0.24,0,0,0.07,90,0,0,0,0,0,0,0,0,-0.186,0,0,0,0,90.22,1,-0.186,0.012,-0.0012,1,0,-0.0012,0,0,0,0,0,0,2,2,0,0,VALID,0,0,0,0,0,1,0,0,0,0,0,0,0,0,0,0,0,0,0,0,888.15,900.64,2,0,0.08,0.08,350,14.29,0.08,0.06,27.45,LANDED,X10-G,0:/Integrated Flight Computer/aircraft/x10_g_cfg.ks (inferred preloaded)
27.79,TAKEOFF,TO_GROUND_ROLL,86.91,80,-6.91,3.64,-0.36,-0.17,0.06,90.23,0.106,1,0,0,0,0,0,0,0,0,0,90.21,0,1,0,-0.24,0,0,0.07,90,0,0,0,0,0,0,0,0,-0.191,0,0,0,0,90.21,1,-0.191,0.015,-0.0015,1,0,-0.0015,0,0,0,0,0,0,2,2,0,0,VALID,0,0,0,0,0,1,0,0,0,0,0,0,0,0,0,0,0,0,0,0,892.39,904.27,2,0,0.08,0.08,354,14.29,0.08,0.06,27.73,LANDED,X10-G,0:/Integrated Flight Computer/aircraft/x10_g_cfg.ks (inferred preloaded)
28.07,TAKEOFF,TO_GROUND_ROLL,88.44,80,-8.44,3.64,-0.36,-0.17,0.06,90.22,0.106,1,0,0,0,0,0,0,0,0,0,90.21,0,1,0,-0.24,0,0,0.08,90,0,0,0,0,0,0,0,0,-0.196,0,0,0,0,90.21,1,-0.196,0.018,-0.002,1,0,-0.002,0,0,0,0,0,0,2,2,0,0,VALID,0,0,0,0,0,1,0,0,0,0,0,0,0,0,0,0,0,0,0,0,896.84,908.15,2,0,0.08,0.08,358,14.29,0.08,0.06,28.01,LANDED,X10-G,0:/Integrated Flight Computer/aircraft/x10_g_cfg.ks (inferred preloaded)
28.35,TAKEOFF,TO_GROUND_ROLL,89.98,80,-9.98,3.64,-0.37,-0.17,0.06,90.22,0.106,1,0,0,0,0,0,0,0,0,0,90.2,0,1,0,-0.23,0,0,0.08,90,0,0,0,0,0,0,0,0,-0.201,0,0,0,0,90.2,1,-0.201,0.02,-0.0022,1,0,-0.0022,0,0,0,0,0,0,2,2,0,0,VALID,0,0,0,0,0,1,0,0,0,0,0,0,0,0,0,0,0,0,0,0,901.49,912.27,2,0,0.08,0.08,362,14.29,0.08,0.06,28.29,LANDED,X10-G,0:/Integrated Flight Computer/aircraft/x10_g_cfg.ks (inferred preloaded)
28.63,TAKEOFF,TO_GROUND_ROLL,91.53,80,-11.53,3.64,-0.37,-0.16,0.06,90.22,0.107,1,0,0,0,0,0,0,0,0,0,90.2,0,1,0,-0.23,0,0,0.08,90,0,0,0,0,0,0,0,0,-0.206,0,0,0,0,90.2,1,-0.206,0.022,-0.0025,1,0,-0.0025,0,0,0,0,0,0,2,2,0,0,VALID,0,0,0,0,0,1,0,0,0,0,0,0,0,0,0,0,0,0,0,0,906.35,916.62,2,0,0.08,0.08,366,14.29,0.08,0.06,28.57,LANDED,X10-G,0:/Integrated Flight Computer/aircraft/x10_g_cfg.ks (inferred preloaded)
28.91,TAKEOFF,TO_GROUND_ROLL,93.08,80,-13.08,3.64,-0.37,-0.16,0.06,90.21,0.107,1,0,0,0,0,0,0,0,0,0,90.19,0,1,0,-0.23,0,0,0.08,90,0,0,0,0,0,0,0,0,-0.211,0,0,0,0,90.19,1,-0.211,0.025,-0.0028,1,0,-0.0028,0,0,0,0,0,0,2,2,0,0,VALID,0,0,0,0,0,1,0,0,0,0,0,0,0,0,0,0,0,0,0,0,911.41,921.2,2,0,0.08,0.08,370,14.29,0.08,0.06,28.85,LANDED,X10-G,0:/Integrated Flight Computer/aircraft/x10_g_cfg.ks (inferred preloaded)
29.19,TAKEOFF,TO_GROUND_ROLL,94.65,80,-14.65,3.63,-0.37,-0.16,0.06,90.21,0.107,1,0,0,0,0,0,0,0,0,0,90.19,0,1,0,-0.22,0,0,0.09,90,0,0,0,0,0,0,0,0,-0.217,0,0,0,0,90.19,1,-0.217,0.026,-0.0029,1,0,-0.0029,0,0,0,0,0,0,2,2,0,0,VALID,0,0,0,0,0,1,0,0,0,0,0,0,0,0,0,0,0,0,0,0,916.65,925.98,2,0,0.08,0.08,374,14.29,0.08,0.06,29.13,LANDED,X10-G,0:/Integrated Flight Computer/aircraft/x10_g_cfg.ks (inferred preloaded)
29.47,TAKEOFF,TO_GROUND_ROLL,96.22,80,-16.22,3.63,-0.37,-0.16,0.06,90.21,0.107,1,0,0,0,0,0,0,0,0,0,90.18,0,1,0,-0.22,0,0,0.09,90,0,0,0,0,0,0,0,0,-0.222,0,0,0,0,90.18,1,-0.222,0.029,-0.0034,1,0,-0.0034,0,0,0,0,0,0,2,2,0,0,VALID,0,0,0,0,0,1,0,0,0,0,0,0,0,0,0,0,0,0,0,0,922.08,930.98,2,0,0.08,0.08,378,14.29,0.08,0.06,29.41,LANDED,X10-G,0:/Integrated Flight Computer/aircraft/x10_g_cfg.ks (inferred preloaded)
29.75,TAKEOFF,TO_GROUND_ROLL,97.81,80,-17.81,3.63,-0.37,-0.16,0.05,90.21,0.107,1,0,0,0,0,0,0,0,0,0,90.18,0,1,0,-0.22,0,0,0.09,90,0,0,0,0,0,0,0,0,-0.227,0,0,0,0,90.18,1,-0.227,0.03,-0.0033,1,0,-0.0033,0,0,0,0,0,0,2,2,0,0,VALID,0,0,0,0,0,1,0,0,0,0,0,0,0,0,0,0,0,0,0,0,927.68,936.17,2,0,0.08,0.08,382,14.29,0.08,0.06,29.69,LANDED,X10-G,0:/Integrated Flight Computer/aircraft/x10_g_cfg.ks (inferred preloaded)
30.03,TAKEOFF,TO_GROUND_ROLL,99.4,80,-19.4,3.63,-0.39,-0.15,0.06,90.2,0.108,1,0,0,0,0,0,0,0,0,0,90.17,0,1,0,-0.22,0,0,0.1,90,0,0,0,0,0,0,0,0,-0.232,0,0,0,0,90.17,1,-0.232,0.033,-0.0039,1,0,-0.0039,0,0,0,0,0,0,2,2,0,0,VALID,0,0,0,0,0,1,0,0,0,0,0,0,0,0,0,0,0,0,0,0,933.45,941.56,2,0,0.08,0.08,386,14.29,0.08,0.06,29.97,LANDED,X10-G,0:/Integrated Flight Computer/aircraft/x10_g_cfg.ks (inferred preloaded)
30.31,TAKEOFF,TO_GROUND_ROLL,101,80,-21,3.64,-0.37,-0.13,0.07,90.2,0.107,1,0,0,0,0,0,0,0,0,0,90.16,0,1,0,-0.21,0,0,0.1,90,0,0,0,0,0,0,0,0,-0.237,0,0,0,0,90.16,1,-0.237,0.036,-0.0042,1,0,-0.0042,0,0,0,0,0,0,2,2,0,0,VALID,0,0,0,0,0,1,0,0,0,0,0,0,0,0,0,0,0,0,0,0,939.38,947.12,2,0,0.08,0.08,390,14.29,0.08,0.06,30.25,LANDED,X10-G,0:/Integrated Flight Computer/aircraft/x10_g_cfg.ks (inferred preloaded)
30.59,TAKEOFF,TO_GROUND_ROLL,102.62,80,-22.62,3.63,-0.37,-0.17,0.03,90.2,0.108,1,0,0,0,0,0,0,0,0,0,90.16,0,1,0,-0.21,0,0,0.1,90,0,0,0,0,0,0,0,0,-0.243,0,0,0,0,90.16,1,-0.243,0.037,-0.0042,1,0,-0.0042,0,0,0,0,0,0,2,2,0,0,VALID,0,0,0,0,0,1,0,0,0,0,0,0,0,0,0,0,0,0,0,0,945.46,952.85,2,0,0.08,0.08,394,14.29,0.08,0.06,30.53,LANDED,X10-G,0:/Integrated Flight Computer/aircraft/x10_g_cfg.ks (inferred preloaded)
30.87,TAKEOFF,TO_GROUND_ROLL,104.24,80,-24.24,3.64,-0.39,-0.14,0.07,90.19,0.108,1,0,0,0,0,0,0,0,0,0,90.15,0,1,0,-0.21,0,0,0.1,90,0,0,0,0,0,0,0,0,-0.248,0,0,0,0,90.15,1,-0.248,0.039,-0.0047,1,0,-0.0047,0,0,0,0,0,0,2,2,0,0,VALID,0,0,0,0,0,1,0,0,0,0,0,0,0,0,0,0,0,0,0,0,951.68,958.75,2,0,0.08,0.08,398,14.29,0.08,0.06,30.81,LANDED,X10-G,0:/Integrated Flight Computer/aircraft/x10_g_cfg.ks (inferred preloaded)
31.15,TAKEOFF,TO_GROUND_ROLL,105.88,80,-25.88,3.63,-0.37,-0.15,0.04,90.19,0.108,1,0,0,0,0,0,0,0,0,0,90.15,0,1,0,-0.2,0,0,0.11,90,0,0,0,0,0,0,0,0,-0.253,0,0,0,0,90.15,1,-0.253,0.041,-0.0049,1,0,-0.0049,0,0,0,0,0,0,2,2,0,0,VALID,0,0,0,0,0,1,0,0,0,0,0,0,0,0,0,0,0,0,0,0,958.04,964.79,2,0,0.08,0.08,402,14.29,0.08,0.06,31.09,LANDED,X10-G,0:/Integrated Flight Computer/aircraft/x10_g_cfg.ks (inferred preloaded)
31.43,TAKEOFF,TO_GROUND_ROLL,107.52,80,-27.52,3.63,-0.38,-0.15,0.05,90.19,0.108,1,0,0,0,0,0,0,0,0,0,90.14,0,1,0,-0.2,0,0,0.11,90,0,0,0,0,0,0,0,0,-0.258,0,0,0,0,90.14,1,-0.258,0.042,-0.005,1,0,-0.005,0,0,0,0,0,0,2,2,0,0,VALID,0,0,0,0,0,1,0,0,0,0,0,0,0,0,0,0,0,0,0,0,964.52,970.97,2,0,0.08,0.08,406,14.29,0.08,0.06,31.37,LANDED,X10-G,0:/Integrated Flight Computer/aircraft/x10_g_cfg.ks (inferred preloaded)
31.71,TAKEOFF,TO_GROUND_ROLL,109.18,80,-29.18,3.63,-0.37,-0.14,0.05,90.18,0.108,1,0,0,0,0,0,0,0,0,0,90.14,0,1,0,-0.2,0,0,0.11,90,0,0,0,0,0,0,0,0,-0.263,0,0,0,0,90.14,1,-0.263,0.044,-0.0052,1,0,-0.0052,0,0,0,0,0,0,2,2,0,0,VALID,0,0,0,0,0,1,0,0,0,0,0,0,0,0,0,0,0,0,0,0,971.11,977.29,2,0,0.08,0.08,410,14.29,0.08,0.06,31.65,LANDED,X10-G,0:/Integrated Flight Computer/aircraft/x10_g_cfg.ks (inferred preloaded)
31.99,TAKEOFF,TO_GROUND_ROLL,110.85,80,-30.85,3.63,-0.38,-0.15,0.04,90.18,0.109,1,0,0,0,0,0,0,0,0,0,90.13,0,1,0,-0.2,0,0,0.12,90,0,0,0,0,0,0,0,0,-0.268,0,0,0,0,90.13,1,-0.268,0.045,-0.0054,1,0,-0.0054,0,0,0,0,0,0,2,2,0,0,VALID,0,0,0,0,0,1,0,0,0,0,0,0,0,0,0,0,0,0,0,0,977.81,983.71,2,0,0.08,0.08,414,14.29,0.08,0.06,31.93,LANDED,X10-G,0:/Integrated Flight Computer/aircraft/x10_g_cfg.ks (inferred preloaded)
32.27,TAKEOFF,TO_GROUND_ROLL,112.53,80,-32.53,3.63,-0.38,-0.14,0.05,90.17,0.109,1,0,0,0,0,0,0,0,0,0,90.13,0,1,0,-0.19,0,0,0.12,90,0,0,0,0,0,0,0,0,-0.274,0,0,0,0,90.13,1,-0.274,0.046,-0.0054,1,0,-0.0054,0,0,0,0,0,0,2,2,0,0,VALID,0,0,0,0,0,1,0,0,0,0,0,0,0,0,0,0,0,0,0,0,984.59,990.25,2,0,0.08,0.08,418,14.29,0.08,0.06,32.21,LANDED,X10-G,0:/Integrated Flight Computer/aircraft/x10_g_cfg.ks (inferred preloaded)
32.55,TAKEOFF,TO_GROUND_ROLL,114.23,80,-34.23,3.63,-0.37,-0.14,0.04,90.17,0.109,1,0,0,0,0,0,0,0,0,0,90.12,0,1,0,-0.19,0,0,0.12,90,0,0,0,0,0,0,0,0,-0.279,0,0,0,0,90.12,1,-0.279,0.047,-0.0058,1,0,-0.0058,0,0,0,0,0,0,2,2,0,0,VALID,0,0,0,0,0,1,0,0,0,0,0,0,0,0,0,0,0,0,0,0,991.46,996.87,2,0,0.08,0.08,422,14.29,0.08,0.06,32.49,LANDED,X10-G,0:/Integrated Flight Computer/aircraft/x10_g_cfg.ks (inferred preloaded)
32.83,TAKEOFF,TO_GROUND_ROLL,115.93,80,-35.93,3.63,-0.38,-0.14,0.04,90.17,0.109,1,0,0,0,0,0,0,0,0,0,90.12,0,1,0,-0.19,0,0,0.13,90,0,0,0,0,0,0,0,0,-0.284,0,0,0,0,90.12,1,-0.284,0.048,-0.0058,1,0,-0.0058,0,0,0,0,0,0,2,2,0,0,VALID,0,0,0,0,0,1,0,0,0,0,0,0,0,0,0,0,0,0,0,0,998.4,1003.57,2,0,0.08,0.08,426,14.29,0.08,0.06,32.77,LANDED,X10-G,0:/Integrated Flight Computer/aircraft/x10_g_cfg.ks (inferred preloaded)
33.11,TAKEOFF,TO_GROUND_ROLL,117.65,80,-37.65,3.63,-0.37,-0.14,0.04,90.16,0.109,1,0,0,0,0,0,0,0,0,0,90.11,0,1,0,-0.18,0,0,0.13,90,0,0,0,0,0,0,0,0,-0.289,0,0,0,0,90.11,1,-0.289,0.049,-0.0058,1,0,-0.0058,0,0,0,0,0,0,2,2,0,0,VALID,0,0,0,0,0,1,0,0,0,0,0,0,0,0,0,0,0,0,0,0,1005.39,1010.34,2,0,0.08,0.08,430,14.29,0.08,0.06,33.05,LANDED,X10-G,0:/Integrated Flight Computer/aircraft/x10_g_cfg.ks (inferred preloaded)
33.39,TAKEOFF,TO_GROUND_ROLL,119.39,80,-39.39,3.63,-0.37,-0.14,0.04,90.16,0.109,1,0,0,0,0,0,0,0,0,0,90.11,0,1,0,-0.18,0,0,0.13,90,0,0,0,0,0,0,0,0,-0.294,0,0,0,0,90.11,1,-0.294,0.051,-0.0063,1,0,-0.0063,0,0,0,0,0,0,2,2,0,0,VALID,0,0,0,0,0,1,0,0,0,0,0,0,0,0,0,0,0,0,0,0,1012.41,1017.15,2,0,0.08,0.08,434,14.29,0.08,0.06,33.33,LANDED,X10-G,0:/Integrated Flight Computer/aircraft/x10_g_cfg.ks (inferred preloaded)
33.67,TAKEOFF,TO_GROUND_ROLL,121.13,80,-41.13,3.63,-0.37,-0.13,0.04,90.16,0.109,1,0,0,0,0,0,0,0,0,0,90.1,0,1,0,-0.17,0,0,0.13,90,0,0,0,0,0,0,0,0,-0.298,0,0,0,0,90.1,1,-0.298,0.051,-0.0064,1,0,-0.0064,0,0,0,0,0,0,2,2,0,0,VALID,0,0,0,0,0,1,0,0,0,0,0,0,0,0,0,0,0,0,0,0,1019.46,1024,2,0,0.08,0.08,438,14.29,0.08,0.06,33.61,LANDED,X10-G,0:/Integrated Flight Computer/aircraft/x10_g_cfg.ks (inferred preloaded)
33.95,TAKEOFF,TO_GROUND_ROLL,122.89,80,-42.89,3.63,-0.37,-0.13,0.03,90.15,0.11,1,0,0,0,0,0,0,0,0,0,90.1,0,1,0,-0.17,0,0,0.14,90,0,0,0,0,0,0,0,0,-0.303,0,0,0,0,90.1,1,-0.303,0.052,-0.0064,1,0,-0.0064,0,0,0,0,0,0,2,2,0,0,VALID,0,0,0,0,0,1,0,0,0,0,0,0,0,0,0,0,0,0,0,0,1026.53,1030.87,2,0,0.08,0.08,442,14.29,0.08,0.06,33.89,LANDED,X10-G,0:/Integrated Flight Computer/aircraft/x10_g_cfg.ks (inferred preloaded)
34.23,TAKEOFF,TO_GROUND_ROLL,124.65,80,-44.65,3.63,-0.18,-0.1,-0.02,90.15,0.11,1,0,0,0,0,0,0,0,0,0,90.09,0,1,0,-0.08,0,0,0.14,90,0,0,0,0,0,0,0,0,-0.308,0,0,0,0,90.09,1,-0.308,0.053,-0.0065,1,0,-0.0065,0,0,0,0,0,0,2,2,0,0,VALID,0,0,0,0,0,1,0,0,0,0,0,0,0,0,0,0,0,0,0,0,1033.58,1037.74,2,0,0.08,0.08,446,14.29,0.08,0.06,34.17,LANDED,X10-G,0:/Integrated Flight Computer/aircraft/x10_g_cfg.ks (inferred preloaded)
34.51,TAKEOFF,TO_GROUND_ROLL,126.44,80,-46.44,3.65,-0.46,-0.1,0.1,90.14,0.107,1,0,0,0,0,0,0,0,0,0,90.09,0,1,0,-0.21,0,0,0.15,90,0,0,0,0,0,0,0,0,-0.313,0,0,0,0,90.09,1,-0.313,0.056,-0.0072,1,0,-0.0072,0,0,0,0,0,0,2,2,0,0,VALID,0,0,0,0,0,1,0,0,0,0,0,0,0,0,0,0,0,0,0,0,1040.61,1044.58,2,0,0.08,0.08,450,14.29,0.08,0.06,34.45,LANDED,X10-G,0:/Integrated Flight Computer/aircraft/x10_g_cfg.ks (inferred preloaded)
34.79,TAKEOFF,TO_GROUND_ROLL,128.23,80,-48.23,3.63,-0.3,-0.1,0.02,90.14,0.108,1,0,0,0,0,0,0,0,0,0,90.08,0,1,0,-0.13,0,0,0.15,90,0,0,0,0,0,0,0,0,-0.317,0,0,0,0,90.08,1,-0.317,0.058,-0.0075,1,0,-0.0075,0,0,0,0,0,0,2,2,0,0,VALID,0,0,0,0,0,1,0,0,0,0,0,0,0,0,0,0,0,0,0,0,1047.6,1051.4,2,0,0.08,0.08,454,14.29,0.08,0.06,34.73,LANDED,X10-G,0:/Integrated Flight Computer/aircraft/x10_g_cfg.ks (inferred preloaded)
35.07,TAKEOFF,TO_ROTATE,130.04,80,-50.04,3.63,-0.38,-0.13,0.04,90.14,0.11,1,0,0,0,0,0,0,0,0,0,90.08,0,1,0,-0.17,0,0,0.15,90,0,0,0,0,0,0,0,0,-0.322,0,0,0,0,90.08,1,-0.322,0.058,-0.0072,1,0,0,0,0,0,0,0,0,2,2,0,0,VALID,0,0,0,0,0,1,0,0,0,0,0,0,0,0,0,0,0,0,0,0,1054.54,1058.19,2,0,0.08,0.08,458,14.29,0.08,0.06,35.01,LANDED,X10-G,0:/Integrated Flight Computer/aircraft/x10_g_cfg.ks (inferred preloaded)
35.37,TAKEOFF,TO_ROTATE,131.99,80,-51.99,3.64,-0.36,-0.09,0.06,90.13,0.11,1,0,0,0,0,0,0,0,0,0,90.08,0.875,1,0,-0.16,0,0,0.16,90,0,0,0,0,0,0,0,0,-0.327,0,0,0,0,90.08,1,-0.327,0.059,-0.0077,1,0,-0.0077,0,0.2061,0.875,0.97,0.08,0,2,2,0,0,VALID,0,0,0,0,0,1,0,0,0,0,0,0,0,0,0,0,0,0,0,0,1062.09,1065.58,2,0,0.08,0.08,462,13.33,0.08,0.06,35.29,LANDED,X10-G,0:/Integrated Flight Computer/aircraft/x10_g_cfg.ks (inferred preloaded)
35.65,TAKEOFF,TO_ROTATE,133.82,80,-53.82,3.66,-0.35,-0.02,0.13,90.13,0.109,1,0,0,0,0,0,0,0,0,0,90.07,1.883,1,0,-0.15,0,0,0.16,90,0,0,0,0,0,0,0,0,-0.331,0,0,0,0,90.07,1,-0.331,0.059,-0.0074,1,0,-0.0074,0,0.3269,1.883,1.899,0.08,0,2,2,0,0,VALID,0,0,0,0,0,1,0,0,0,0,0,0,0,0,0,0,0,0,0,0,1069.26,1072.61,2,0,0.08,0.08,466,14.29,0.08,0.06,35.57,LANDED,X10-G,0:/Integrated Flight Computer/aircraft/x10_g_cfg.ks (inferred preloaded)
35.93,TAKEOFF,TO_ROTATE,135.67,80,-55.67,3.69,-0.35,0.08,0.22,90.12,0.113,1,0,0,0,0,0,0,0,0,0,90.07,2.891,1,0,-0.15,0,0,0.16,90,0,0,0,0,0,0,0,0,-0.336,0,0,0,0,90.07,1,-0.336,0.056,-0.0066,1,0,-0.0066,0,0.4455,2.891,2.812,0.08,0,2,2,0,0,VALID,0,0,0,0,0,1,0,0,0,0,0,0,0,0,0,0,0,0,0,0,1076.54,1079.77,2,0,0.08,0.08,470,14.29,0.08,0.06,35.85,LANDED,X10-G,0:/Integrated Flight Computer/aircraft/x10_g_cfg.ks (inferred preloaded)
36.21,TAKEOFF,TO_ROTATE,137.52,80,-57.52,3.77,-0.16,0.29,0.36,90.12,0.115,1,0,0,0,0,0,0,0,0,0,90.06,3.899,1,0,-0.07,0,0,0.17,90,0,0,0,0,0,0,0,0,-0.34,0,0,0,0,90.06,1,-0.34,0.053,-0.0059,1,0,-0.0059,0,0.549,3.899,3.608,0.08,0,2,2,0,0,VALID,0,0,0,0,0,1,0,0,0,0,0,0,0,0,0,0,0,0,0,0,1083.94,1087.04,2,0,0.08,0.08,474,14.29,0.08,0.06,36.13,LANDED,X10-G,0:/Integrated Flight Computer/aircraft/x10_g_cfg.ks (inferred preloaded)
36.49,TAKEOFF,TO_ROTATE,139.38,80,-59.38,3.93,-0.44,0.77,0.94,90.11,0.109,1,0,0,0,0,0,0,0,0,0,90.06,4.907,1,0,-0.18,0,0,0.17,90,0,0,0,0,0,0,0,0,-0.344,0,0,0,0,90.06,1,-0.344,0.05,-0.0057,1,0,-0.0057,0,0.6184,4.907,4.141,0.08,0,2,2,0,0,VALID,0,0,0,0,0,1,0,0,0,0,0,0,0,0,0,0,0,0,0,0,1091.44,1094.43,2,0,0.08,0.08,478,14.29,0.08,0.06,36.41,LANDED,X10-G,0:/Integrated Flight Computer/aircraft/x10_g_cfg.ks (inferred preloaded)
36.77,TAKEOFF,TO_ROTATE,141.24,80,-61.24,4.12,-0.23,1.41,1.5,90.1,0.109,1,0,0,0,0,0,0,0,0,0,90.06,5.915,1,0,-0.09,0,0,0.17,90,0,0,0,0,0,0,0,0,-0.348,0,0,0,0,90.06,1,-0.348,0.047,-0.0051,1,0,-0.0051,0,0.6656,5.915,4.504,0.08,0,2,2,0,0,VALID,0,0,0,0,0,1,0,0,0,0,0,0,0,0,0,0,0,0,0,0,1099.04,1101.92,2,0,0.08,0.08,482,14.29,0.08,0.06,36.69,LANDED,X10-G,0:/Integrated Flight Computer/aircraft/x10_g_cfg.ks (inferred preloaded)
37.05,TAKEOFF,TO_ROTATE,143.11,80,-63.11,4.31,-0.37,2.03,2.17,90.1,0.103,1,0,0,0,0,0,0,0,0,0,90.05,6.923,1,0,-0.15,0,0,0.18,90,0,0,0,0,0,0,0,0,-0.352,0,0,0,0,90.05,1,-0.352,0.042,-0.0041,1,0,-0.0041,0,0.7167,6.923,4.897,0.08,0,2,2,0,0,VALID,0,0,0,0,0,1,0,0,0,0,0,0,0,0,0,0,0,0,0,0,1106.74,1109.52,2,0,0.08,0.08,486,14.29,0.08,0.06,36.97,LANDED,X10-G,0:/Integrated Flight Computer/aircraft/x10_g_cfg.ks (inferred preloaded)
37.33,TAKEOFF,TO_ROTATE,144.99,80,-64.99,4.44,-0.27,2.46,2.56,90.09,0.101,1,0,0,0,0,0,0,0,0,0,90.05,7.931,1,0,-0.11,0,0,0.18,90,0,0,0,0,0,0,0,0,-0.355,0,0,0,0,90.05,1,-0.355,0.04,-0.0041,1,0,-0.0041,0,0.72,7.931,5.47,0.08,0,2,2,0,0,VALID,0,0,0,0,0,1,0,0,0,0,0,0,0,0,0,0,0,0,0,0,1114.54,1117.22,2,0,0.08,0.08,490,14.29,0.08,0.06,37.25,LANDED,X10-G,0:/Integrated Flight Computer/aircraft/x10_g_cfg.ks (inferred preloaded)
37.61,TAKEOFF,TO_ROTATE,146.88,80,-66.88,4.47,-0.34,2.61,2.74,90.08,0.1,1,0,0,0,0,0,0,0,0,0,90.04,8.939,1,0,-0.13,0,0,0.19,90,0,0,0,0,0,0,0,0,-0.358,0,0,0,0,90.04,1,-0.358,0.04,-0.0046,1,0,-0.0046,0,0.72,8.939,6.334,0.08,0,2,2,0,0,VALID,0,0,0,0,0,1,0,0,0,0,0,0,0,0,0,0,0,0,0,0,1122.45,1125.03,2,0,0.08,0.08,494,14.29,0.08,0.06,37.53,LANDED,X10-G,0:/Integrated Flight Computer/aircraft/x10_g_cfg.ks (inferred preloaded)
37.89,TAKEOFF,TO_ROTATE,148.78,80,-68.78,4.42,-0.2,2.45,2.52,90.08,0.1,1,0,0,0,0,0,0,0,0,0,90.04,9.947,1,0,-0.08,0,0,0.19,90,0,0,0,0,0,0,0,0,-0.361,0,0,0,0,90.04,1,-0.361,0.039,-0.0047,1,0,-0.0047,0,0.72,9.947,7.5,0.08,0,2,2,0,0,VALID,0,0,0,0,0,1,0,0,0,0,0,0,0,0,0,0,0,0,0,0,1130.48,1132.98,2,0,0.08,0.08,498,14.29,0.08,0.06,37.81,LANDED,X10-G,0:/Integrated Flight Computer/aircraft/x10_g_cfg.ks (inferred preloaded)
38.17,TAKEOFF,TO_ROTATE,150.69,80,-70.69,4.31,-0.38,2.11,2.25,90.08,0.102,1,0,0,0,0,0,0,0,0,0,90.04,10.955,1,0,-0.15,0,0,0.19,90,0,0,0,0,0,0,0,0,-0.364,0,0,0,0,90.04,1,-0.364,0.038,-0.0044,1,0,-0.0044,0,0.72,10.955,8.848,0.08,0,2,2,0,0,VALID,0,0,0,0,0,1,0,0,0,0,0,0,0,0,0,0,0,0,0,0,1138.65,1141.06,2,0,0.08,0.08,502,14.29,0.08,0.06,38.09,LANDED,X10-G,0:/Integrated Flight Computer/aircraft/x10_g_cfg.ks (inferred preloaded)
38.45,TAKEOFF,TO_ROTATE,152.62,80,-72.62,4.21,-0.25,1.77,1.86,90.07,0.103,1,0,0,0,0,0,0,0,0,0,90.04,11.5,1,0,-0.09,0,0,0.2,90,0,0,0,0,0,0,0,0,-0.367,0,0,0,0,90.04,1,-0.367,0.036,-0.0039,1,0,-0.0039,0,0.72,11.5,9.733,0.08,0,2,2,0,0,VALID,0,0,0,0,0,1,0,0,0,0,0,0,0,0,0,0,0,0,0,0,1146.97,1149.31,2,0,0.08,0.08,506,14.29,0.08,0.06,38.37,LANDED,X10-G,0:/Integrated Flight Computer/aircraft/x10_g_cfg.ks (inferred preloaded)
38.73,TAKEOFF,TO_ROTATE,154.57,80,-74.57,4.15,-0.32,1.59,1.71,90.07,0.105,1,0,0,0,0,0,0,0,0,0,90.03,11.5,1,0,-0.12,0,0,0.2,90,0,0,0,0,0,0,0,0,-0.37,0,0,0,0,90.03,1,-0.37,0.032,-0.0032,1,0,-0.0032,0,0.72,11.5,9.909,0.08,0,2,2,0,0,VALID,0,0,0,0,0,1,0,0,0,0,0,0,0,0,0,0,0,0,0,0,1155.43,1157.7,2,0,0.08,0.08,510,14.29,0.08,0.06,38.65,LANDED,X10-G,0:/Integrated Flight Computer/aircraft/x10_g_cfg.ks (inferred preloaded)
39.01,TAKEOFF,TO_ROTATE,156.54,80,-76.54,4.18,-0.25,1.65,1.73,90.06,0.105,1,0,0,0,0,0,0,0,0,0,90.03,11.5,1,0,-0.09,0,0,0.21,90,0,0,0,0,0,0,0,0,-0.372,0,0,0,0,90.03,1,-0.372,0.027,-0.0024,1,0,-0.0024,0,0.72,11.5,9.852,0.08,0,2,2,0,0,VALID,0,0,0,0,0,1,0,0,0,0,0,0,0,0,0,0,0,0,0,0,1164.05,1166.24,2,0,0.08,0.08,514,14.29,0.08,0.06,38.93,LANDED,X10-G,0:/Integrated Flight Computer/aircraft/x10_g_cfg.ks (inferred preloaded)
39.29,TAKEOFF,TO_ROTATE,158.51,80,-78.51,4.26,-0.27,1.91,2,90.05,0.104,1,0,0,0,0,0,0,0,0,0,90.03,11.5,1,0,-0.1,0,0,0.21,90,0,0,0,0,0,0,0,0,-0.375,0,0,0,0,90.03,1,-0.375,0.024,-0.0022,1,0,-0.0022,0,0.72,11.5,9.594,0.08,0,2,2,0,0,VALID,0,0,0,0,0,1,0,0,0,0,0,0,0,0,0,0,0,0,0,0,1172.8,1174.93,2,0,0.08,0.08,518,14.29,0.08,0.06,39.21,LANDED,X10-G,0:/Integrated Flight Computer/aircraft/x10_g_cfg.ks (inferred preloaded)
39.57,TAKEOFF,TO_ROTATE,160.5,80,-80.5,4.37,-0.24,2.25,2.33,90.05,0.102,1,0,0,0,0,0,0,0,0,0,90.03,11.5,1,0,-0.08,0,0,0.22,90,0,0,0,0,0,0,0,0,-0.377,0,0,0,0,90.03,1,-0.377,0.022,-0.0021,1,0,-0.0021,0,0.72,11.5,9.249,0.08,0,2,2,0,0,VALID,0,0,0,0,0,1,0,0,0,0,0,0,0,0,0,0,0,0,0,0,1181.69,1183.76,2,0,0.08,0.08,522,14.29,0.08,0.06,39.49,LANDED,X10-G,0:/Integrated Flight Computer/aircraft/x10_g_cfg.ks (inferred preloaded)
39.85,TAKEOFF,TO_ROTATE,162.51,80,-82.51,4.45,-0.25,2.54,2.62,90.04,0.1,1,0,0,0,0,0,0,0,0,0,90.02,11.5,1,0,-0.09,0,0,0.22,90,0,0,0,0,0,0,0,0,-0.379,0,0,0,0,90.02,1,-0.379,0.021,-0.0022,1,0,-0.0022,0,0.72,11.5,8.965,0.08,0,2,2,0,0,VALID,0,0,0,0,0,1,0,0,0,0,0,0,0,0,0,0,0,0,0,0,1190.72,1192.73,2,0,0.08,0.08,526,14.29,0.08,0.06,39.77,LANDED,X10-G,0:/Integrated Flight Computer/aircraft/x10_g_cfg.ks (inferred preloaded)
40.13,TAKEOFF,TO_ROTATE,164.53,80,-84.53,4.48,-0.23,2.65,2.73,90.04,0.099,1,0,0,0,0,0,0,0,0,0,90.02,11.5,1,0,-0.08,0,0,0.22,90,0,0,0,0,0,0,0,0,-0.381,0,0,0,0,90.02,1,-0.381,0.021,-0.0023,1,0,-0.0023,0,0.72,11.5,8.848,0.08,0,2,2,0,0,VALID,0,0,0,0,0,1,0,0,0,0,0,0,0,0,0,0,0,0,0,0,1199.88,1201.83,2,0,0.08,0.08,530,14.29,0.08,0.06,40.05,LANDED,X10-G,0:/Integrated Flight Computer/aircraft/x10_g_cfg.ks (inferred preloaded)
40.41,TAKEOFF,TO_ROTATE,166.56,80,-86.56,4.45,-0.23,2.58,2.66,90.04,0.099,1,0,0,0,0,0,0,0,0,0,90.02,11.5,1,0,-0.08,0,0,0.23,90,0,0,0,0,0,0,0,0,-0.382,0,0,0,0,90.02,1,-0.382,0.023,-0.0027,1,0,-0.0027,0,0.72,11.5,8.922,0.08,0,2,2,0,0,VALID,0,0,0,0,0,1,0,0,0,0,0,0,0,0,0,0,0,0,0,0,1209.18,1211.09,2,0,0.08,0.08,534,14.29,0.08,0.06,40.33,LANDED,X10-G,0:/Integrated Flight Computer/aircraft/x10_g_cfg.ks (inferred preloaded)
40.69,TAKEOFF,TO_ROTATE,168.61,80,-88.61,4.39,-0.22,2.38,2.45,90.04,0.1,1,0,0,0,0,0,0,0,0,0,90.02,11.5,1,0,-0.07,0,0,0.23,90,0,0,0,0,0,0,0,0,-0.384,0,0,0,0,90.02,1,-0.384,0.024,-0.0029,1,0,-0.0029,0,0.72,11.5,9.119,0.08,0,2,2,0,0,VALID,0,0,0,0,0,1,0,0,0,0,0,0,0,0,0,0,0,0,0,0,1218.65,1220.51,2,0,0.08,0.08,538,14.29,0.08,0.06,40.61,LANDED,X10-G,0:/Integrated Flight Computer/aircraft/x10_g_cfg.ks (inferred preloaded)
40.97,TAKEOFF,TO_ROTATE,170.68,80,-90.68,4.33,-0.22,2.18,2.25,90.04,0.101,1,0,0,0,0,0,0,0,0,0,90.02,11.5,1,0,-0.07,0,0,0.24,90,0,0,0,0,0,0,0,0,-0.386,0,0,0,0,90.02,1,-0.386,0.023,-0.0024,1,0,-0.0024,0,0.72,11.5,9.32,0.08,0,2,2,0,0,VALID,0,0,0,0,0,1,0,0,0,0,0,0,0,0,0,0,0,0,0,0,1228.27,1230.09,2,0,0.08,0.08,542,14.29,0.08,0.06,40.89,LANDED,X10-G,0:/Integrated Flight Computer/aircraft/x10_g_cfg.ks (inferred preloaded)
41.25,TAKEOFF,TO_ROTATE,172.77,80,-92.77,4.3,-0.18,2.08,2.14,90.04,0.102,1,0,0,0,0,0,0,0,0,0,90.01,11.5,1,0,-0.06,0,0,0.24,90,0,0,0,0,0,0,0,0,-0.387,0,0,0,0,90.01,1,-0.387,0.022,-0.0023,1,0,-0.0023,0,0.72,11.5,9.416,0.08,0,2,2,0,0,VALID,0,0,0,0,0,1,0,0,0,0,0,0,0,0,0,0,0,0,0,0,1238.07,1239.85,2,0,0.08,0.08,546,14.29,0.08,0.06,41.17,LANDED,X10-G,0:/Integrated Flight Computer/aircraft/x10_g_cfg.ks (inferred preloaded)
41.53,TAKEOFF,TO_ROTATE,174.87,80,-94.87,4.32,-0.18,2.14,2.2,90.03,0.102,1,0,0,0,0,0,0,0,0,0,90.01,11.5,1,0,-0.06,0,0,0.25,90,0,0,0,0,0,0,0,0,-0.389,0,0,0,0,90.01,1,-0.389,0.02,-0.0021,1,0,-0.0021,0,0.72,11.5,9.361,0.08,0,2,2,0,0,VALID,0,0,0,0,0,1,0,0,0,0,0,0,0,0,0,0,0,0,0,0,1248.03,1249.77,2,0,0.08,0.08,550,14.29,0.08,0.06,41.45,LANDED,X10-G,0:/Integrated Flight Computer/aircraft/x10_g_cfg.ks (inferred preloaded)
41.81,TAKEOFF,TO_ROTATE,177,80,-97,4.38,-0.15,2.32,2.37,90.03,0.101,1,0,0,0,0,0,0,0,0,0,90.01,11.5,1,0,-0.05,0,0,0.25,90,0,0,0,0,0,0,0,0,-0.39,0,0,0,0,90.01,1,-0.39,0.019,-0.0021,1,0,-0.0021,0,0.72,11.5,9.179,0.08,0,2,2,0,0,VALID,0,0,0,0,0,1,0,0,0,0,0,0,0,0,0,0,0,0,0,0,1258.15,1259.85,2,0,0.08,0.08,554,14.29,0.08,0.06,41.73,LANDED,X10-G,0:/Integrated Flight Computer/aircraft/x10_g_cfg.ks (inferred preloaded)
42.09,TAKEOFF,TO_ROTATE,179.14,80,-99.14,4.45,-0.15,2.55,2.6,90.03,0.1,1,0,0,0,0,0,0,0,0,0,90.01,11.5,1,0,-0.05,0,0,0.26,90,0,0,0,0,0,0,0,0,-0.392,0,0,0,0,90.01,1,-0.392,0.019,-0.0022,1,0,-0.0022,0,0.72,11.5,8.95,0.08,0,2,2,0,0,VALID,0,0,0,0,0,1,0,0,0,0,0,0,0,0,0,0,0,0,0,0,1268.43,1270.1,2,0,0.08,0.08,558,14.29,0.08,0.06,42.01,LANDED,X10-G,0:/Integrated Flight Computer/aircraft/x10_g_cfg.ks (inferred preloaded)
42.37,TAKEOFF,TO_ROTATE,181.29,80,-101.29,4.5,-0.12,2.73,2.77,90.03,0.099,1,0,0,0,0,0,0,0,0,0,90.01,11.5,1,0,-0.04,0,0,0.26,90,0,0,0,0,0,0,0,0,-0.393,0,0,0,0,90.01,1,-0.393,0.02,-0.0024,1,0,-0.0024,0,0.72,11.5,8.771,0.08,0,2,2,0,0,VALID,0,0,0,0,0,1,0,0,0,0,0,0,0,0,0,0,0,0,0,0,1278.86,1280.5,2,0,0.08,0.08,562,14.29,0.08,0.06,42.29,LANDED,X10-G,0:/Integrated Flight Computer/aircraft/x10_g_cfg.ks (inferred preloaded)
