t_s,phase,subphase,ias_ms,vapp_ms,spd_err_ms,agl_m,vs_ms,pitch_deg,aoa_deg,hdg_deg,bank_deg,thr_cmd,thr_cur,thr_intg,at_gain,at_tau_s,at_a_up,at_a_dn,at_kp_thr,at_ki_spd,at_thr_slew,aa_hdg_cmd_deg,aa_fpa_cmd_deg,aa_fbw,aa_dir,actual_fpa_deg,ftf_hdg_err_deg,ftf_fix_idx,kos_steer_pit_deg,kos_steer_hdg_deg,aa_dir_vx,aa_dir_vy,aa_dir_vz,aa_dir_pitch_deg,aa_dir_hdg_deg,ils_loc_m,ils_gs_m,ils_dist_km,loc_corr_deg,gs_corr_deg,flare_fpa_cmd,flare_tgt_vs,flare_frac,steer_hdg_deg,steer_blend,ro_loc_corr_deg,ro_hdg_err_deg,ro_yaw_tgt,ro_yaw_scale,ro_yaw_gate,yaw_cmd,roll_cmd,pitch_cmd,ro_pitch_tgt_deg,ro_pitch_err_deg,ro_pitch_ff,ro_roll_assist,flaps_cur,flaps_tgt,asc_j_ab,asc_j_rk,asc_validity,asc_q_pa,asc_q_raw_pa,asc_mach,asc_apo_m,asc_drag_n,asc_w_prop,asc_edot_aero,asc_edot_orb,asc_pitch_bias,asc_blend,asc_spooling,asc_ab_thr_ratio,asc_ab_t_now,asc_ab_t_avail,asc_ab_ign_on,asc_ab_flameouts,asc_rk_t_now,asc_rk_t_avail,asc_rk_ign_on,asc_rk_flameouts,ship_thrust,ship_avail_thrust,ship_ign_on,ship_flameouts,ifc_raw_dt_s,ifc_dt_s,ifc_loop_n,ifc_hz_est,ifc_raw_dt_max_s,ifc_raw_dt_min_s,phase_el_s,status
1.1,TAKEOFF,TO_PREFLIGHT,0,80,80,3.61,0,-0.35,11.4,91.58,0.097,0.2,0,0,0,0,0,0,0,0,0,90.4,0,1,0,0,0,0,0,90,0,0,0,0,0,0,0,0,0,0,0,0,0,90.4,1,0,1.177,0,0,1,0,0,0,0,0,0,0,1,2,0,0,VALID,0,0,0,0,0,1,0,0,0,0,0,0,0,0,0,0,0,0,0,0,0,887.32,2,0,0.92,0.5,1,2.44,0.92,0.02,0.22,LANDED
1.8,TAKEOFF,TO_PREFLIGHT,0.01,80,79.99,3.6,0,-0.35,1.15,91.58,0.099,0.4,0,0,0,0,0,0,0,0,0,90.4,0,1,0,0.04,0,0,0,90,0,0,0,0,0,0,0,0,0,0,0,0,0,90.4,1,0,1.177,0,0,1,0,0,0,0,0,0,0,2,2,0,0,VALID,0,0,0,0,0,1,0,0,0,0,0,0,0,0,0,0,0,0,0,0,21.99,887.32,2,0,0.74,0.5,2,1.47,0.92,0.74,0.9,LANDED
2.48,TAKEOFF,TO_PREFLIGHT,0.02,80,79.98,3.6,0,-0.36,0.02,91.59,0.098,0.6,0,0,0,0,0,0,0,0,0,90.4,0,1,0,0.05,0,0,0,90,0,0,0,0,0,0,0,0,0,0,0,0,0,90.4,1,0,1.177,0,0,1,0,0,0,0,0,0,0,2,2,0,0,VALID,0,0,0,0,0,1,0,0,0,0,0,0,0,0,0,0,0,0,0,0,64.94,887.32,2,0,0.7,0.5,3,1.47,0.74,0.7,1.58,LANDED
3.16,TAKEOFF,TO_PREFLIGHT,0.03,80,79.97,3.6,0,-0.38,-0.71,91.59,0.098,0.8,0,0,0,0,0,0,0,0,0,90.4,0,1,0,0.06,0,0,0,90,0,0,0,0,0,0,0,0,0,0,0,0,0,90.4,1,0,1.177,0,0,1,0,0,0,0,0,0,0,2,2,0,0,VALID,0,0,0,0,0,1,0,0,0,0,0,0,0,0,0,0,0,0,0,0,124.58,887.32,2,0,0.64,0.5,4,1.47,0.7,0.64,2.26,LANDED
3.84,TAKEOFF,TO_PREFLIGHT,0.05,80,79.95,3.59,0,-0.4,-0.8,91.6,0.099,1,0,0,0,0,0,0,0,0,0,90.4,0,1,0,0.1,0,0,0,90,0,0,0,0,0,0,0,0,0,0,0,0,0,90.4,1,0,1.177,0,0,1,0,0,0,0,0,0,0,2,2,0,0,VALID,0,0,0,0,0,1,0,0,0,0,0,0,0,0,0,0,0,0,0,0,199.85,887.31,2,0,0.68,0.5,5,1.47,0.68,0.64,2.94,LANDED
4.52,TAKEOFF,TO_PREFLIGHT,0.08,80,79.92,3.58,0,-0.42,-0.32,91.61,0.099,1,0,0,0,0,0,0,0,0,0,90.4,0,1,0,0.01,0,0,0,90,0,0,0,0,0,0,0,0,0,0,0,0,0,90.4,1,0,1.177,0,0,1,0,0,0,0,0,0,0,2,2,0,0,VALID,0,0,0,0,0,1,0,0,0,0,0,0,0,0,0,0,0,0,0,0,287.43,887.31,2,0,0.68,0.5,6,1.47,0.68,0.68,3.62,LANDED
5.2,TAKEOFF,TO_PREFLIGHT,0.11,80,79.89,3.58,0,-0.44,-0.24,91.63,0.098,1,0,0,0,0,0,0,0,0,0,90.4,0,1,0,-0.05,0,0,0,90,0,0,0,0,0,0,0,0,0,0,0,0,0,90.4,1,0,1.177,0,0,1,0,0,0,0,0,0,0,2,2,0,0,VALID,0,0,0,0,0,1,0,0,0,0,0,0,0,0,0,0,0,0,0,0,363.85,887.31,2,0,0.68,0.5,7,1.47,0.68,0.68,4.3,LANDED
5.88,TAKEOFF,TO_PREFLIGHT,0.13,80,79.87,3.58,0,-0.45,-0.34,91.65,0.099,1,0,0,0,0,0,0,0,0,0,90.4,0,1,0,-0.08,0,0,0,90,0,0,0,0,0,0,0,0,0,0,0,0,0,90.4,1,0,1.177,0,0,1,0,0,0,0,0,0,0,2,2,0,0,VALID,0,0,0,0,0,1,0,0,0,0,0,0,0,0,0,0,0,0,0,0,428.7,887.31,2,0,0.68,0.5,8,1.47,0.68,0.68,4.98,LANDED
6.56,TAKEOFF,TO_PREFLIGHT,0.15,80,79.85,3.57,0,-0.46,-0.23,91.67,0.099,1,0,0,0,0,0,0,0,0,0,90.4,0,1,0,-0.04,0,0,0,90,0,0,0,0,0,0,0,0,0,0,0,0,0,90.4,1,0,1.177,0,0,1,0,0,0,0,0,0,0,2,2,0,0,VALID,0,0,0,0,0,1,0,0,0,0,0,0,0,0,0,0,0,0,0,0,487.13,887.3,2,0,0.68,0.5,9,1.47,0.68,0.68,5.66,LANDED
7.24,TAKEOFF,TO_PREFLIGHT,0.17,80,79.83,3.57,0,-0.47,-0.06,91.7,0.098,1,0,0,0,0,0,0,0,0,0,90.4,0,1,0,-0.02,0,0,0,90,0,0,0,0,0,0,0,0,0,0,0,0,0,90.4,1,0,1.177,0,0,1,0,0,0,0,0,0,0,2,2,0,0,VALID,0,0,0,0,0,1,0,0,0,0,0,0,0,0,0,0,0,0,0,0,538.11,887.3,2,0,0.68,0.5,10,1.47,0.68,0.68,6.34,LANDED
7.94,TAKEOFF,TO_PREFLIGHT,0.19,80,79.81,3.57,0,-0.48,-0.12,91.74,0.098,1,0,0,0,0,0,0,0,0,0,90.4,0,1,0,-0.07,0,0,0,90,0,0,0,0,0,0,0,0,0,0,0,0,0,90.4,1,0,1.177,0,0,1,0,0,0,0,0,0,0,2,2,0,0,VALID,0,0,0,0,0,1,0,0,0,0,0,0,0,0,0,0,0,0,0,0,585.02,887.3,2,0,0.7,0.5,11,1.43,0.7,0.68,7.04,LANDED
8.62,TAKEOFF,TO_PREFLIGHT,0.23,80,79.77,3.57,0,-0.49,-0.16,91.78,0.097,1,0,0,0,0,0,0,0,0,0,90.4,0,1,0,-0.07,0,0,0,90,0,0,0,0,0,0,0,0,0,0,0,0,0,90.4,1,0,1.177,0,0,1,0,0,0,0,0,0,0,2,2,0,0,VALID,0,0,0,0,0,1,0,0,0,0,0,0,0,0,0,0,0,0,0,0,623.53,887.3,2,0,0.68,0.5,12,1.47,0.7,0.68,7.72,LANDED
9.3,TAKEOFF,TO_PREFLIGHT,0.38,80,79.62,3.57,0,-0.49,-0.17,91.84,0.097,1,0,0,0,0,0,0,0,0,0,90.4,0,1,0,-0.15,0,0,0,90,0,0,0,0,0,0,0,0,0,0,0,0,0,90.4,1,0,1.177,0,0,1,0,0,0,0,0,0,0,2,2,0,0,VALID,0,0,0,0,0,1,0,0,0,0,0,0,0,0,0,0,0,0,0,0,656.21,887.29,2,0,0.68,0.5,13,1.47,0.68,0.68,8.4,LANDED
9.98,TAKEOFF,TO_GROUND_ROLL,0.67,80,79.33,3.57,0,-0.49,-0.19,91.9,0.098,1,0,0,0,0,0,0,0,0,0,90.4,0,1,0,-0.2,0,0,0,90,0,0,0,0,0,0,0,0,0,0,0,0,0,90.4,1,0,1.177,0,0,1,0,0,0,0,0,0,0,2,2,0,0,VALID,0,0,0,0,0,1,0,0,0,0,0,0,0,0,0,0,0,0,0,0,686.45,887.29,2,0,0.68,0.5,14,1.47,0.68,0.68,9.1,LANDED
10.74,TAKEOFF,TO_GROUND_ROLL,3.12,80,76.88,3.6,-0.02,-0.35,-0.2,91.93,0.097,1,0,0,0,0,0,0,0,0,0,90.27,0,1,0,0.64,0,0,0,90,0,0,0,0,0,0,0,0,0,0,0,0,0,90.27,1,0,1.662,-0.055,0.579,0,-0.055,0,0,0,0,0,0,2,2,0,0,VALID,0,0,0,0,0,1,0,0,0,0,0,0,0,0,0,0,0,0,0,0,714.78,887.23,2,0,0.7,0.5,15,1.35,0.7,0.68,9.84,LANDED
11.46,TAKEOFF,TO_GROUND_ROLL,6.31,80,73.69,3.6,-0.05,-0.35,0.05,91.93,0.107,1,0,0,0,0,0,0,0,0,0,90.4,0,1,0,-0.16,0,0,0,90,0,0,0,0,0,0,0,0,0,0,0,0,0,90.4,1,0,1.528,-0.0441,0.61,0,-0.0441,0,0,0,0,0,0,2,2,0,0,VALID,0,0,0,0,0,1,0,0,0,0,0,0,0,0,0,0,0,0,0,0,737.22,887.07,2,0,0.72,0.5,16,1.39,0.72,0.7,10.56,LANDED
12.18,TAKEOFF,TO_GROUND_ROLL,9.61,80,70.39,3.61,-0.06,-0.35,0,91.92,0.101,1,0,0,0,0,0,0,0,0,0,90.4,0,1,0,-0.31,0,0,0,90,0,0,0,0,0,0,0,0,0,0,0,0,0,90.4,1,0,1.511,-0.0457,0.642,0,-0.0457,0,0,0,0,0,0,2,2,0,0,VALID,0,0,0,0,0,1,0,0,0,0,0,0,0,0,0,0,0,0,0,0,757.13,886.81,2,0,0.72,0.5,17,1.39,0.72,0.72,11.28,LANDED
12.88,TAKEOFF,TO_GROUND_ROLL,12.89,80,67.11,3.61,-0.08,-0.35,-0.02,91.9,0.102,1,0,0,0,0,0,0,0,0,0,90.4,0,1,0,-0.33,0,0,0,90,0,0,0,0,0,0,0,0,0,0,0,0,0,90.4,1,0,1.5,-0.0477,0.675,0,-0.0477,0,0,0,0,0,0,2,2,0,0,VALID,0,0,0,0,0,1,0,0,0,0,0,0,0,0,0,0,0,0,0,0,773.8,886.45,2,0,0.7,0.5,18,1.43,0.72,0.7,11.98,LANDED
13.58,TAKEOFF,TO_GROUND_ROLL,16.23,80,63.77,3.61,-0.09,-0.34,-0.03,91.89,0.104,1,0,0,0,0,0,0,0,0,0,90.4,0,1,0,-0.34,0,0,0,90,0,0,0,0,0,0,0,0,0,0,0,0,0,90.4,1,0,1.486,-0.0496,0.708,0,-0.0496,0,0,0,0,0,0,2,2,0,0,VALID,0,0,0,0,0,1,0,0,0,0,0,0,0,0,0,0,0,0,0,0,788.15,886.01,2,0,0.7,0.5,19,1.43,0.7,0.7,12.68,LANDED
14.3,TAKEOFF,TO_GROUND_ROLL,19.74,80,60.26,3.61,-0.11,-0.34,-0.03,91.88,0.104,1,0,0,0,0,0,0,0,0,0,90.41,0,1,0,-0.33,0,0,0,90,0,0,0,0,0,0,0,0,0,0,0,0,0,90.41,1,0,1.47,-0.0514,0.743,0,-0.0514,0,0,0,0,0,0,2,2,0,0,VALID,0,0,0,0,0,1,0,0,0,0,0,0,0,0,0,0,0,0,0,0,800.83,885.48,2,0,0.72,0.5,20,1.39,0.72,0.7,13.4,LANDED
15,TAKEOFF,TO_GROUND_ROLL,23.19,80,56.81,3.61,-0.13,-0.34,-0.04,91.86,0.104,1,0,0,0,0,0,0,0,0,0,90.41,0,1,0,-0.33,0,0,0.01,90,0,0,0,0,0,0,0,0,0,0,0,0,0,90.41,1,0,1.452,-0.0531,0.778,0,-0.0531,0,0,0,0,0,0,2,2,0,0,VALID,0,0,0,0,0,1,0,0,0,0,0,0,0,0,0,0,0,0,0,0,811.38,884.9,2,0,0.7,0.5,21,1.43,0.72,0.7,14.1,LANDED
15.74,TAKEOFF,TO_GROUND_ROLL,26.89,80,53.11,3.61,-0.15,-0.34,-0.04,91.84,0.105,1,0,0,0,0,0,0,0,0,0,90.41,0,1,0,-0.32,0,0,0.01,90,0,0,0,0,0,0,0,0,0,0,0,0,0,90.41,1,0,1.431,-0.0547,0.815,0,-0.0547,0,0,0,0,0,0,2,2,0,0,VALID,0,0,0,0,0,1,0,0,0,0,0,0,0,0,0,0,0,0,0,0,820.89,884.23,2,0,0.74,0.5,22,1.35,0.74,0.7,14.84,LANDED
16.46,TAKEOFF,TO_GROUND_ROLL,30.53,80,49.47,3.61,-0.17,-0.34,-0.04,91.82,0.106,1,0,0,0,0,0,0,0,0,0,90.41,0,1,0,-0.32,0,0,0.01,90,0,0,0,0,0,0,0,0,0,0,0,0,0,90.41,1,0,1.409,-0.0562,0.851,0,-0.0562,0,0,0,0,0,0,2,2,0,0,VALID,0,0,0,0,0,1,0,0,0,0,0,0,0,0,0,0,0,0,0,0,828.76,883.54,2,0,0.72,0.5,23,1.39,0.74,0.72,15.56,LANDED
17.18,TAKEOFF,TO_GROUND_ROLL,34.2,80,45.8,3.61,-0.19,-0.34,-0.04,91.79,0.107,1,0,0,0,0,0,0,0,0,0,90.41,0,1,0,-0.31,0,0,0.01,90,0,0,0,0,0,0,0,0,0,0,0,0,0,90.41,1,0,1.386,-0.0575,0.888,0,-0.0575,0,0,0,0,0,0,2,2,0,0,VALID,0,0,0,0,0,1,0,0,0,0,0,0,0,0,0,0,0,0,0,0,835.46,882.84,2,0,0.72,0.5,24,1.39,0.72,0.72,16.28,LANDED
17.9,TAKEOFF,TO_GROUND_ROLL,37.9,80,42.1,3.61,-0.21,-0.33,-0.04,91.77,0.108,1,0,0,0,0,0,0,0,0,0,90.41,0,1,0,-0.31,0,0,0.01,90,0,0,0,0,0,0,0,0,0,0,0,0,0,90.41,1,0,1.361,-0.0588,0.925,0,-0.0588,0,0,0,0,0,0,2,2,0,0,VALID,0,0,0,0,0,1,0,0,0,0,0,0,0,0,0,0,0,0,0,0,841.15,882.13,2,0,0.72,0.5,25,1.39,0.72,0.72,17,LANDED
18.62,TAKEOFF,TO_GROUND_ROLL,41.62,80,38.38,3.61,-0.22,-0.33,-0.04,91.74,0.108,1,0,0,0,0,0,0,0,0,0,90.41,0,1,0,-0.31,0,0,0.02,90,0,0,0,0,0,0,0,0,0,0,0,0,0,90.41,1,0,1.334,-0.0598,0.962,0,-0.0598,0,0,0,0,0,0,2,2,0,0,VALID,0,0,0,0,0,1,0,0,0,0,0,0,0,0,0,0,0,0,0,0,845.99,881.44,2,0,0.72,0.5,26,1.39,0.72,0.72,17.72,LANDED
19.34,TAKEOFF,TO_GROUND_ROLL,45.37,80,34.63,3.61,-0.24,-0.33,-0.04,91.72,0.109,1,0,0,0,0,0,0,0,0,0,90.41,0,1,0,-0.3,0,0,0.02,90,0,0,0,0,0,0,0,0,0,0,0,0,0,90.41,1,0,1.306,-0.0608,0.999,0,-0.0608,0,0,0,0,0,0,2,2,0,0,VALID,0,0,0,0,0,1,0,0,0,0,0,0,0,0,0,0,0,0,0,0,850.12,880.78,2,0,0.72,0.5,27,1.39,0.72,0.72,18.44,LANDED
20.06,TAKEOFF,TO_GROUND_ROLL,49.12,80,30.88,3.61,-0.26,-0.33,-0.04,91.69,0.111,1,0,0,0,0,0,0,0,0,0,90.41,0,1,0,-0.3,0,0,0.02,90,0,0,0,0,0,0,0,0,0,0,0,0,0,90.41,1,0,1.276,-0.0593,1,0,-0.0593,0,0,0,0,0,0,2,2,0,0,VALID,0,0,0,0,0,1,0,0,0,0,0,0,0,0,0,0,0,0,0,0,853.66,880.18,2,0,0.72,0.5,28,1.39,0.72,0.72,19.16,LANDED
20.78,TAKEOFF,TO_GROUND_ROLL,52.9,80,27.1,3.61,-0.27,-0.32,-0.04,91.66,0.11,1,0,0,0,0,0,0,0,0,0,90.41,0,1,0,-0.3,0,0,0.03,90,0,0,0,0,0,0,0,0,0,0,0,0,0,90.41,1,0,1.247,-0.0579,1,0,-0.0579,0,0,0,0,0,0,2,2,0,0,VALID,0,0,0,0,0,1,0,0,0,0,0,0,0,0,0,0,0,0,0,0,856.7,879.64,2,0,0.72,0.5,29,1.39,0.72,0.72,19.88,LANDED
21.5,TAKEOFF,TO_GROUND_ROLL,56.68,80,23.32,3.61,-0.29,-0.32,-0.04,91.63,0.111,1,0,0,0,0,0,0,0,0,0,90.41,0,1,0,-0.29,0,0,0.03,90,0,0,0,0,0,0,0,0,0,0,0,0,0,90.41,1,0,1.218,-0.0565,1,0,-0.0565,0,0,0,0,0,0,2,2,0,0,VALID,0,0,0,0,0,1,0,0,0,0,0,0,0,0,0,0,0,0,0,0,859.35,879.2,2,0,0.72,0.5,30,1.39,0.72,0.72,20.6,LANDED
22.22,TAKEOFF,TO_GROUND_ROLL,60.48,80,19.52,3.61,-0.3,-0.32,-0.04,91.6,0.111,1,0,0,0,0,0,0,0,0,0,90.41,0,1,0,-0.29,0,0,0.04,90,0,0,0,0,0,0,0,0,0,0,0,0,0,90.41,1,0,1.189,-0.0552,1,0,-0.0552,0,0,0,0,0,0,2,2,0,0,VALID,0,0,0,0,0,1,0,0,0,0,0,0,0,0,0,0,0,0,0,0,861.7,878.87,2,0,0.72,0.5,31,1.39,0.72,0.72,21.32,LANDED
22.94,TAKEOFF,TO_GROUND_ROLL,64.29,80,15.71,3.61,-0.32,-0.32,-0.05,91.57,0.111,1,0,0,0,0,0,0,0,0,0,90.41,0,1,0,-0.28,0,0,0.04,90,0,0,0,0,0,0,0,0,0,0,0,0,0,90.41,1,0,1.161,-0.0538,1,0,-0.0538,0,0,0,0,0,0,2,2,0,0,VALID,0,0,0,0,0,1,0,0,0,0,0,0,0,0,0,0,0,0,0,0,863.8,878.67,2,0,0.72,0.5,32,1.39,0.72,0.72,22.04,LANDED
23.66,TAKEOFF,TO_GROUND_ROLL,68.1,80,11.9,3.61,-0.33,-0.31,-0.05,91.54,0.112,1,0,0,0,0,0,0,0,0,0,90.41,0,1,0,-0.28,0,0,0.04,90,0,0,0,0,0,0,0,0,0,0,0,0,0,90.41,1,0,1.133,-0.0525,1,0,-0.0525,0,0,0,0,0,0,2,2,0,0,VALID,0,0,0,0,0,1,0,0,0,0,0,0,0,0,0,0,0,0,0,0,865.74,878.62,2,0,0.72,0.5,33,1.39,0.72,0.72,22.76,LANDED
24.38,TAKEOFF,TO_GROUND_ROLL,71.93,80,8.07,3.62,-0.31,-0.37,-0.03,91.52,0.109,1,0,0,0,0,0,0,0,0,0,90.41,0,1,0,-0.34,0,0,0.05,90,0,0,0,0,0,0,0,0,0,0,0,0,0,90.41,1,0,1.106,-0.0513,1,0,-0.0513,0,0,0,0,0,0,2,2,0,0,VALID,0,0,0,0,0,1,0,0,0,0,0,0,0,0,0,0,0,0,0,0,868.63,879.85,2,0,0.72,0.5,34,1.39,0.72,0.72,23.48,LANDED
25.12,TAKEOFF,TO_GROUND_ROLL,75.87,80,4.13,3.61,-0.35,-0.29,-0.03,91.49,0.112,1,0,0,0,0,0,0,0,0,0,90.41,0,1,0,-0.28,0,0,0.05,90,0,0,0,0,0,0,0,0,0,0,0,0,0,90.41,1,0,1.077,-0.0499,1,0,-0.0499,0,0,0,0,0,0,2,2,0,0,VALID,0,0,0,0,0,1,0,0,0,0,0,0,0,0,0,0,0,0,0,0,873.62,883.41,2,0,0.74,0.5,35,1.35,0.74,0.72,24.22,LANDED
25.84,TAKEOFF,TO_GROUND_ROLL,79.74,80,0.26,3.61,-0.35,-0.29,-0.05,91.46,0.113,1,0,0,0,0,0,0,0,0,0,90.41,0,1,0,-0.27,0,0,0.06,90,0,0,0,0,0,0,0,0,0,0,0,0,0,90.41,1,0,1.049,-0.0486,1,0,-0.0486,0,0,0,0,0,0,2,2,0,0,VALID,0,0,0,0,0,1,0,0,0,0,0,0,0,0,0,0,0,0,0,0,880.33,888.93,2,0,0.72,0.5,36,1.39,0.74,0.72,24.94,LANDED
26.56,TAKEOFF,TO_GROUND_ROLL,83.64,80,-3.64,3.6,-0.36,-0.29,-0.06,91.43,0.114,1,0,0,0,0,0,0,0,0,0,90.41,0,1,0,-0.25,0,0,0.07,90,0,0,0,0,0,0,0,0,0,0,0,0,0,90.41,1,0,1.021,-0.0472,1,0,-0.0472,0,0,0,0,0,0,2,2,0,0,VALID,0,0,0,0,0,1,0,0,0,0,0,0,0,0,0,0,0,0,0,0,888.76,896.34,2,0,0.72,0.5,37,1.39,0.72,0.72,25.66,LANDED
27.28,TAKEOFF,TO_GROUND_ROLL,87.57,80,-7.57,3.6,-0.37,-0.29,-0.06,91.4,0.114,1,0,0,0,0,0,0,0,0,0,90.41,0,1,0,-0.25,0,0,0.07,90,0,0,0,0,0,0,0,0,0,0,0,0,0,90.41,1,0,0.992,-0.0459,1,0,-0.0459,0,0,0,0,0,0,2,2,0,0,VALID,0,0,0,0,0,1,0,0,0,0,0,0,0,0,0,0,0,0,0,0,898.8,905.5,2,0,0.72,0.5,38,1.39,0.72,0.72,26.38,LANDED
28,TAKEOFF,TO_GROUND_ROLL,91.56,80,-11.56,3.6,-0.38,-0.29,-0.06,91.37,0.114,1,0,0,0,0,0,0,0,0,0,90.41,0,1,0,-0.24,0,0,0.08,90,0,0,0,0,0,0,0,0,0,0,0,0,0,90.41,1,0,0.964,-0.0445,1,0,-0.0445,0,0,0,0,0,0,2,2,0,0,VALID,0,0,0,0,0,1,0,0,0,0,0,0,0,0,0,0,0,0,0,0,910.33,916.27,2,0,0.72,0.5,39,1.39,0.72,0.72,27.1,LANDED
28.72,TAKEOFF,TO_GROUND_ROLL,95.6,80,-15.6,3.6,-0.39,-0.28,-0.06,91.34,0.115,1,0,0,0,0,0,0,0,0,0,90.41,0,1,0,-0.23,0,0,0.08,90,0,0,0,0,0,0,0,0,0,0,0,0,0,90.41,1,0,0.934,-0.0431,1,0,-0.0431,0,0,0,0,0,0,2,2,0,0,VALID,0,0,0,0,0,1,0,0,0,0,0,0,0,0,0,0,0,0,0,0,923.24,928.53,2,0,0.72,0.5,40,1.39,0.72,0.72,27.82,LANDED
29.44,TAKEOFF,TO_GROUND_ROLL,99.69,80,-19.69,3.6,-0.39,-0.28,-0.06,91.32,0.115,1,0,0,0,0,0,0,0,0,0,90.41,0,1,0,-0.22,0,0,0.09,90,0,0,0,0,0,0,0,0,0,0,0,0,0,90.41,1,0,0.905,-0.0417,1,0,-0.0417,0,0,0,0,0,0,2,2,0,0,VALID,0,0,0,0,0,1,0,0,0,0,0,0,0,0,0,0,0,0,0,0,937.39,942.12,2,0,0.72,0.5,41,1.39,0.72,0.72,28.54,LANDED
30.16,TAKEOFF,TO_GROUND_ROLL,103.86,80,-23.86,3.61,-0.39,-0.28,-0.06,91.29,0.116,1,0,0,0,0,0,0,0,0,0,90.41,0,1,0,-0.22,0,0,0.1,90,0,0,0,0,0,0,0,0,0,0,0,0,0,90.41,1,0,0.876,-0.0403,1,0,-0.0403,0,0,0,0,0,0,2,2,0,0,VALID,0,0,0,0,0,1,0,0,0,0,0,0,0,0,0,0,0,0,0,0,952.66,956.89,2,0,0.72,0.5,42,1.39,0.72,0.72,29.26,LANDED
30.88,TAKEOFF,TO_GROUND_ROLL,108.09,80,-28.09,3.6,-0.39,-0.27,-0.06,91.26,0.116,1,0,0,0,0,0,0,0,0,0,90.41,0,1,0,-0.21,0,0,0.11,90,0,0,0,0,0,0,0,0,0,0,0,0,0,90.41,1,0,0.846,-0.0388,1,0,-0.0388,0,0,0,0,0,0,2,2,0,0,VALID,0,0,0,0,0,1,0,0,0,0,0,0,0,0,0,0,0,0,0,0,968.87,972.67,2,0,0.72,0.5,43,1.39,0.72,0.72,29.98,LANDED
31.6,TAKEOFF,TO_GROUND_ROLL,112.4,80,-32.4,3.6,-0.39,-0.26,-0.07,91.23,0.117,1,0,0,0,0,0,0,0,0,0,90.41,0,1,0,-0.2,0,0,0.11,90,0,0,0,0,0,0,0,0,0,0,0,0,0,90.41,1,0,0.815,-0.0374,1,0,-0.0374,0,0,0,0,0,0,2,2,0,0,VALID,0,0,0,0,0,1,0,0,0,0,0,0,0,0,0,0,0,0,0,0,985.84,989.26,2,0,0.72,0.5,44,1.39,0.72,0.72,30.7,LANDED
32.32,TAKEOFF,TO_GROUND_ROLL,116.79,80,-36.79,3.6,-0.39,-0.26,-0.07,91.2,0.118,1,0,0,0,0,0,0,0,0,0,90.41,0,1,0,-0.19,0,0,0.12,90,0,0,0,0,0,0,0,0,0,0,0,0,0,90.41,1,0,0.785,-0.0359,1,0,-0.0359,0,0,0,0,0,0,2,2,0,0,VALID,0,0,0,0,0,1,0,0,0,0,0,0,0,0,0,0,0,0,0,0,1003.38,1006.46,2,0,0.72,0.5,45,1.39,0.72,0.72,31.42,LANDED
33.04,TAKEOFF,TO_GROUND_ROLL,121.26,80,-41.26,3.6,-0.38,-0.25,-0.07,91.16,0.118,1,0,0,0,0,0,0,0,0,0,90.41,0,1,0,-0.18,0,0,0.13,90,0,0,0,0,0,0,0,0,0,0,0,0,0,90.41,1,0,0.753,-0.0344,1,0,-0.0344,0,0,0,0,0,0,2,2,0,0,VALID,0,0,0,0,0,1,0,0,0,0,0,0,0,0,0,0,0,0,0,0,1021.25,1024.03,2,0,0.72,0.5,46,1.39,0.72,0.72,32.14,LANDED
33.76,TAKEOFF,TO_GROUND_ROLL,125.81,80,-45.81,3.6,-0.38,-0.25,-0.08,91.13,0.119,1,0,0,0,0,0,0,0,0,0,90.41,0,1,0,-0.17,0,0,0.14,90,0,0,0,0,0,0,0,0,0,0,0,0,0,90.41,1,0,0.722,-0.0329,1,0,-0.0329,0,0,0,0,0,0,2,2,0,0,VALID,0,0,0,0,0,1,0,0,0,0,0,0,0,0,0,0,0,0,0,0,1039.2,1041.71,2,0,0.72,0.5,47,1.39,0.72,0.72,32.86,LANDED
34.48,TAKEOFF,TO_ROTATE,130.58,80,-50.58,3.6,-0.37,-0.24,-0.08,91.1,0.119,1,0,0,0,0,0,0,0,0,0,90.41,0,1,0,-0.16,0,0,0.15,90,0,0,0,0,0,0,0,0,0,0,0,0,0,90.41,1,0,0.69,-0.0314,1,0,0,0,0,0,0,0,0,2,2,0,0,VALID,0,0,0,0,0,1,0,0,0,0,0,0,0,0,0,0,0,0,0,0,1057.48,1059.73,2,0,0.72,0.5,48,1.35,0.72,0.72,33.6,LANDED
35.28,TAKEOFF,TO_ROTATE,135.83,80,-55.83,3.6,-0.36,-0.24,-0.08,91.09,0.085,1,0,0,0,0,0,0,0,0,0,90.4,1.563,1,0,-0.15,0,0,0.16,90,0,0,0,0,0,0,0,0,0,0,0,0,0,90.4,1,0,0.686,-0.0321,1,0,-0.0321,0,0.3139,1.563,1.799,0.08,0,2,2,0,0,VALID,0,0,0,0,0,1,0,0,0,0,0,0,0,0,0,0,0,0,0,0,1077.86,1079.91,2,0,0.76,0.5,49,1.25,0.76,0.72,34.4,LANDED
36.04,TAKEOFF,TO_ROTATE,140.91,80,-60.91,3.62,-0.35,-0.14,-0.03,91.07,0.141,1,0,0,0,0,0,0,0,0,0,90.41,3.363,1,0,-0.14,0,0,0.17,90,0,0,0,0,0,0,0,0,0,0,0,0,0,90.41,1,0,0.666,-0.0309,1,0,-0.0309,0,0.5357,3.363,3.505,0.08,0,2,2,0,0,VALID,0,0,0,0,0,1,0,0,0,0,0,0,0,0,0,0,0,0,0,0,1098.16,1100.04,2,0,0.76,0.5,50,1.32,0.76,0.76,35.16,LANDED
36.8,TAKEOFF,TO_ROTATE,146.04,80,-66.04,3.63,-0.33,-0.07,0.03,91.03,0.129,1,0,0,0,0,0,0,0,0,0,90.42,5.163,1,0,-0.12,0,0,0.18,90,0,0,0,0,0,0,0,0,0,0,0,0,0,90.42,1,0,0.615,-0.0273,1,0,-0.0273,0,0.72,5.163,5.234,0.08,0,2,2,0,0,VALID,0,0,0,0,0,1,0,0,0,0,0,0,0,0,0,0,0,0,0,0,1119.26,1120.99,2,0,0.76,0.5,51,1.32,0.76,0.76,35.92,LANDED
37.56,TAKEOFF,TO_ROTATE,151.2,80,-71.2,3.73,-0.17,0.08,0.27,90.98,0.123,1,0,0,0,0,0,0,0,0,0,90.42,6.963,1,0,-0.11,0,0,0.19,90,0,0,0,0,0,0,0,0,0,0,0,0,0,90.42,1,0,0.565,-0.0247,1,0,-0.0247,0,0.72,6.963,6.883,0.08,0,2,2,0,0,VALID,0,0,0,0,0,1,0,0,0,0,0,0,0,0,0,0,0,0,0,0,1141.06,1142.67,2,0,0.76,0.5,52,1.32,0.76,0.76,36.68,LANDED
38.32,TAKEOFF,TO_ROTATE,156.44,80,-76.44,3.99,-0.25,0.62,1.02,90.93,0.122,1,0,0,0,0,0,0,0,0,0,90.42,8.763,1,0,-0.08,0,0,0.2,90,0,0,0,0,0,0,0,0,0,0,0,0,0,90.42,1,0,0.515,-0.0222,1,0,-0.0222,0,0.72,8.763,8.147,0.08,0,2,2,0,0,VALID,0,0,0,0,0,1,0,0,0,0,0,0,0,0,0,0,0,0,0,0,1163.75,1165.26,2,0,0.76,0.5,53,1.32,0.76,0.76,37.44,LANDED
39.08,TAKEOFF,TO_ROTATE,161.77,80,-81.77,4.27,-0.23,1.57,1.94,90.89,0.114,1,0,0,0,0,0,0,0,0,0,90.42,10.563,1,0,-0.08,0,0,0.21,90,0,0,0,0,0,0,0,0,0,0,0,0,0,90.42,1,0,0.475,-0.0206,1,0,-0.0206,0,0.72,10.563,8.99,0.08,0,2,2,0,0,VALID,0,0,0,0,0,1,0,0,0,0,0,0,0,0,0,0,0,0,0,0,1187.45,1188.87,2,0,0.76,0.5,54,1.32,0.76,0.76,38.2,LANDED
39.84,TAKEOFF,TO_ROTATE,167.21,80,-87.21,4.38,-0.21,2.13,2.28,90.85,0.108,1,0,0,0,0,0,0,0,0,0,90.41,11.5,1,0,-0.08,0,0,0.22,90,0,0,0,0,0,0,0,0,0,0,0,0,0,90.41,1,0,0.438,-0.0191,1,0,-0.0191,0,0.72,11.5,9.374,0.08,0,2,2,0,0,VALID,0,0,0,0,0,1,0,0,0,0,0,0,0,0,0,0,0,0,0,0,1212.16,1213.52,2,0,0.76,0.5,55,1.32,0.76,0.76,38.96,LANDED
40.62,TAKEOFF,TO_ROTATE,172.91,80,-92.91,4.36,-0.05,2.15,2.12,90.82,0.107,1,0,0,0,0,0,0,0,0,0,90.41,11.5,1,0,-0.07,0,0,0.24,90,0,0,0,0,0,0,0,0,0,0,0,0,0,90.41,1,0,0.405,-0.0177,1,0,-0.0177,0,0.72,11.5,9.352,0.08,0,2,2,0,0,VALID,0,0,0,0,0,1,0,0,0,0,0,0,0,0,0,0,0,0,0,0,1238.66,1239.95,2,0,0.78,0.5,56,1.28,0.78,0.76,39.74,LANDED
41.4,TAKEOFF,TO_ROTATE,178.74,80,-98.74,4.41,-0.21,2.17,2.4,90.79,0.109,1,0,0,0,0,0,0,0,0,0,90.41,11.5,1,0,-0.02,0,0,0.25,90,0,0,0,0,0,0,0,0,0,0,0,0,0,90.41,1,0,0.374,-0.0163,1,0,-0.0163,0,0.72,11.5,9.333,0.08,0,2,2,0,0,VALID,0,0,0,0,0,1,0,0,0,0,0,0,0,0,0,0,0,0,0,0,1266.36,1267.62,2,0,0.78,0.5,57,1.28,0.78,0.78,40.52,LANDED
42.18,TAKEOFF,TO_ROTATE,184.7,80,-104.7,4.61,-0.06,2.67,2.94,90.76,0.105,1,0,0,0,0,0,0,0,0,0,90.41,11.5,1,0,-0.04,0,0,0.26,90,0,0,0,0,0,0,0,0,0,0,0,0,0,90.41,1,0,0.348,-0.0153,1,0,-0.0153,0,0.72,11.5,8.826,0.08,0,2,2,0,0,VALID,0,0,0,0,0,1,0,0,0,0,0,0,0,0,0,0,0,0,0,0,1295.28,1296.5,2,0,0.78,0.5,58,1.28,0.78,0.78,41.3,LANDED
42.96,TAKEOFF,TO_ROTATE,190.78,80,-110.78,4.79,-0.01,3.28,3.47,90.74,0.101,1,0,0,0,0,0,0,0,0,0,90.41,11.5,1,0,-0.01,0,0,0.28,90,0,0,0,0,0,0,0,0,0,0,0,0,0,90.41,1,0,0.333,-0.015,1,0,-0.015,0,0.72,11.5,8.216,0.08,0,2,2,0,0,VALID,0,0,0,0,0,1,0,0,0,0,0,0,0,0,0,0,0,0,0,0,1325.38,1326.57,2,0,0.78,0.5,59,1.28,0.78,0.78,42.08,LANDED
43.74,TAKEOFF,TO_ROTATE,196.95,80,-116.95,5.13,0.24,3.98,4.37,90.73,0.108,1,0,0,0,0,0,0,0,0,0,90.4,11.5,1,0,0,0,0,0.29,90,0,0,0,0,0,0,0,0,0,0,0,0,0,90.4,1,0,0.323,-0.0148,1,0,-0.0148,0,0.72,11.5,7.52,0.08,0,2,2,0,0,VALID,0,0,0,0,0,1,0,0,0,0,0,0,0,0,0,0,0,0,0,0,1356.58,1357.74,2,0,0.78,0.5,60,1.28,0.78,0.78,42.86,LANDED
44.52,TAKEOFF,TO_ROTATE,203.11,80,-123.11,6.22,0.39,6.1,7.25,90.71,0.098,1,0,0,0,0,0,0,0,0,0,90.41,11.5,1,0,0.05,0,0,0.31,90,0,0,0,0,0,0,0,0,0,0,0,0,0,90.41,1,0,0.303,-0.0136,1,0,-0.0136,0,0.72,11.5,5.403,0.08,0,2,2,0,0,VALID,0,0,0,0,0,1,0,0,0,0,0,0,0,0,0,0,0,0,0,0,1388.32,1389.43,2,0,0.78,0.5,61,1.28,0.78,0.78,43.64,LANDED
45.3,TAKEOFF,TO_ROTATE,208.31,80,-128.31,9.18,1.59,12.58,15.38,90.64,0.088,1,0,0,0,0,0,0,0,0,0,90.43,11.5,1,0,0.2,0,0,0.32,90,0,0,0,0,0,0,0,0,0,0,0,0,0,90.43,1,0,0.21,0,0,3,0,0,-0.0599,11.5,-1.076,0.08,0,2,2,0,0,VALID,0,0,0,0,0,1,0,0,0,0,0,0,0,0,0,0,0,0,0,0,1415.9,1416.73,2,0,0.78,0.5,62,1.32,0.78,0.78,44.4,FLYING
45.98,TAKEOFF,TO_CLIMB,210.22,80,-130.22,12.97,7.38,18.34,16.07,90.74,0.074,1,0,0,0,0,0,0,0,0,0,90.4,11.5,1,0,1.77,0,0,0.34,90,-0.8864,-0.0059,-0.4629,27.81,90.4,0,0,0,0,0,0,0,0,90.4,1,0,0.339,0,0,3,0,0,0,11.5,-6.841,0,0,2,2,0,0,VALID,0,0,0,0,0,1,0,0,0,0,0,0,0,0,0,0,0,0,0,0,1425.96,1426.54,2,0,0.78,0.5,63,1.47,0.78,0.78,45.08,FLYING
46.68,TAKEOFF,TO_CLIMB,212.91,80,-132.91,19.76,10.79,18.41,16.55,90.7,-0.094,0.82,0,0,0,0,0,0,0,0,0,90.4,16.941,0,1,2.7,0,0,27.83,90.4,-0.925,-0.0055,-0.38,33.07,90.4,0,0,0,0,0,0,0,0,90.4,1,0,0.296,0,0,3,0,0,0,11.5,-6.841,0,0,1,1,0,0,VALID,0,0,0,0,0,1,0,0,0,0,0,0,0,0,0,0,0,0,0,0,1437.88,1440.29,2,0,0.68,0.5,64,1.47,0.78,0.68,45.78,FLYING
47.36,TAKEOFF,TO_CLIMB,214.09,80,-134.09,30.32,17.14,23.7,19.4,90.64,-0.202,0.82,0,0,0,0,0,0,0,0,0,90.4,15.541,0,1,4.24,0,0,33.08,90.4,-0.9368,-0.0054,-0.3498,34.94,90.4,0,0,0,0,0,0,0,0,90.4,1,0,0.237,0,0,3,0,0,0,11.5,-6.841,0,0,1,1,0,0,VALID,0,0,0,0,0,1,0,0,0,0,0,0,0,0,0,0,0,0,0,0,1387.42,1445.77,2,0,0.7,0.5,65,1.43,0.7,0.68,46.48,FLYING
48,TAKEOFF,TO_CLIMB,214.5,80,-134.5,43.8,22.85,25.24,19.45,90.61,-0.223,0.82,0,0,0,0,0,0,0,0,0,90.4,14.141,0,1,5.77,0,0,34.95,90.4,-0.9282,-0.0055,-0.3722,33.58,90.4,0,0,0,0,0,0,0,0,90.4,1,0,0.213,0,0,3,0,0,0,11.5,-6.841,0,0,1,1,0,0,VALID,0,0,0,0,0,1,0,0,0,0,0,0,0,0,0,0,0,0,0,0,1347.78,1446.82,2,0,0.64,0.5,66,1.56,0.7,0.64,47.12,FLYING
48.64,TAKEOFF,TO_CLIMB,214.65,80,-134.65,60.87,28.43,26.62,19.35,90.6,-0.233,0.82,0,0,0,0,0,0,0,0,0,90.4,12.741,0,1,7.21,0,0,33.59,90.4,-0.918,-0.0056,-0.3965,32.08,90.4,0,0,0,0,0,0,0,0,90.4,1,0,0.197,0,0,3,0,0,0,11.5,-6.841,0,0,1,1,0,0,VALID,0,0,0,0,0,1,0,0,0,0,0,0,0,0,0,0,0,0,0,0,1314.73,1446.15,2,0,0.64,0.5,67,1.56,0.64,0.64,47.76,FLYING
49.28,TAKEOFF,TO_CLIMB,214.54,80,-134.54,87.69,33.82,28.16,19.43,90.58,-0.249,0.82,0,0,0,0,0,0,0,0,0,90.4,11.341,0,1,8.67,0,0,32.09,90.4,-0.9082,-0.0057,-0.4184,30.72,90.4,0,0,0,0,0,0,0,0,90.4,1,0,0.176,0,0,3,0,0,0,11.5,-6.841,0,0,1,1,0,0,VALID,0,0,0,0,0,1,0,0,0,0,0,0,0,0,0,0,0,0,0,0,1286.71,1443.78,2,0,0.64,0.5,68,1.56,0.64,0.64,48.4,FLYING
49.92,TAKEOFF,TO_CLIMB,214.27,80,-134.27,110.71,39.04,29.49,19.22,90.55,-0.268,0.82,0,0,0,0,0,0,0,0,0,90.4,9.941,0,1,10.03,0,0,30.73,90.4,-0.8968,-0.0058,-0.4424,29.21,90.4,0,0,0,0,0,0,0,0,90.4,1,0,0.154,0,0,3,0,0,0,11.5,-6.841,0,0,1,1,0,0,VALID,0,0,0,0,0,1,0,0,0,0,0,0,0,0,0,0,0,0,0,0,1262.93,1440.23,2,0,0.64,0.5,69,1.56,0.64,0.64,49.04,FLYING
50.56,TAKEOFF,TO_CLIMB,213.92,80,-133.92,138.35,43.84,30.69,19.11,90.53,-0.284,0.82,0,0,0,0,0,0,0,0,0,90.4,8.541,0,1,11.31,0,0,29.22,90.4,-0.8843,-0.0059,-0.4669,27.65,90.4,0,0,0,0,0,0,0,0,90.4,1,0,0.133,0,0,3,0,0,0,11.5,-6.841,0,0,1,1,0,0,VALID,0,0,0,0,0,1,0,0,0,0,0,0,0,0,0,0,0,0,0,0,1242.82,1435.99,2,0,0.64,0.5,70,1.56,0.64,0.64,49.68,FLYING
51.2,TAKEOFF,TO_CLIMB,213.35,80,-133.35,167.29,48.6,32.02,19.11,90.5,-0.312,0.82,0,0,0,0,0,0,0,0,0,90.4,7.141,0,1,12.56,0,0,27.66,90.4,-0.8726,-0.006,-0.4884,26.26,90.4,0,0,0,0,0,0,0,0,90.4,1,0,0.104,0,0,3,0,0,0,11.5,-6.841,0,0,1,1,0,0,VALID,0,0,0,0,0,1,0,0,0,0,0,0,0,0,0,0,0,0,0,0,1224.91,1430.34,2,0,0.64,0.5,71,1.56,0.64,0.64,50.32,FLYING
51.84,TAKEOFF,TO_CLIMB,212.44,80,-132.44,200.06,53.29,32.51,17.94,90.48,-0.352,0.82,0,0,0,0,0,0,0,0,0,90.4,7,0,1,13.86,0,0,26.27,90.4,-0.8619,-0.0061,-0.507,25.04,90.4,0,0,0,0,0,0,0,0,90.4,1,0,0.075,0,0,3,0,0,0,11.5,-6.841,0,0,1,1,0,0,VALID,0,0,0,0,0,1,0,0,0,0,0,0,0,0,0,0,0,0,0,0,1207.86,1422.57,2,0,0.64,0.5,72,1.61,0.64,0.64,50.96,FLYING
52.5,TAKEOFF,TO_CLIMB,211.64,80,-131.64,239.48,57.71,34.57,19.34,90.42,-0.401,0.82,0,0,0,0,0,0,0,0,0,90.4,7,0,1,14.96,0,0,25.05,90.4,-0.8725,-0.006,-0.4886,26.27,90.4,0,0,0,0,0,0,0,0,90.4,1,0,0.024,0,0,3,0,0,0,11.5,-6.841,0,0,1,1,0,0,VALID,0,0,0,0,0,1,0,0,0,0,0,0,0,0,0,0,0,0,0,0,1193.21,1415.16,2,0,0.66,0.5,73,1.52,0.66,0.64,51.62,FLYING
53.16,TAKEOFF,TO_CLIMB,210.13,80,-130.13,283.29,62.56,36.31,19.38,90.38,-0.414,0.82,0,0,0,0,0,0,0,0,0,90.4,7,0,1,16.28,0,0,26.28,90.4,-0.8738,-0.006,-0.4862,26.44,90.4,0,0,0,0,0,0,0,0,90.4,1,0,-0.017,0,0,3,0,0,0,11.5,-6.841,0,0,1,1,0,0,VALID,0,0,0,0,0,1,0,0,0,0,0,0,0,0,0,0,0,0,0,0,1176.96,1403.75,2,0,0.66,0.5,74,1.56,0.66,0.66,52.28,FLYING
53.88,CRUISE,,208.33,80,-128.33,355.11,67.49,37.67,19.27,90.36,-0.404,0.82,0,0,0,0,0,0,0,0,0,90.4,7,0,1,17.54,0,0,26.45,90.4,-0.8736,-0.006,-0.4866,26.42,90.4,0,0,0,0,0,0,0,0,90.4,1,0,-0.042,0,0,3,0,0,0,11.5,-6.841,0,0,1,1,0,0,VALID,0,0,0,0,0,1,0,0,0,0,0,0,0,0,0,0,0,0,0,0,1160.31,1390.41,2,0,0.66,0.5,75,1.43,0.66,0.66,0.06,FLYING
54.48,CRUISE,,206.61,80,-126.61,416.77,71.34,38.22,18.1,90.34,-0.394,0.8775,0,20,1,0.6,0.9,0.77,0.35,0.0168,0.4,90,5,0,1,18.78,0,0,26.43,90.4,-0.8472,0.0003,-0.5314,23.46,90,0,0,0,0,0,0,0,0,90.4,1,0,-0.042,0,0,3,0,0,0,11.5,-6.841,0,0,1,1,0,0,VALID,0,0,0,0,0,1,0,0,0,0,0,0,0,0,0,0,0,0,0,0,1146.08,1377.87,2,0,0.64,0.5,76,1.67,0.66,0.64,0.66,FLYING
55,CRUISE,,205.54,80,-125.54,466.78,73.86,35.58,14.12,90.21,-0.955,1,0,19.9,1,0.6,1.142,0.77,0.35,0.0168,0.4,90,5,0,1,19.63,0,0,23.47,90,-0.811,0.0002,-0.5851,19.76,90,0,0,0,0,0,0,0,0,90.4,1,0,-0.042,0,0,3,0,0,0,11.5,-6.841,0,0,1,1,0,0,VALID,0,0,0,0,0,1,0,0,0,0,0,0,0,0,0,0,0,0,0,0,1144.57,1368.89,2,0,0.54,0.5,77,1.85,0.64,0.54,1.2,FLYING
55.54,CRUISE,,205.5,80,-125.5,505.79,74.96,31.04,8.74,90.09,-1.764,1,0,19.8,1,0.6,1.641,0.77,0.35,0.0168,0.4,90,5,0,1,20.06,0,0,19.77,90,-0.7557,0.0002,-0.6549,14.66,90,0,0,0,0,0,0,0,0,90.4,1,0,-0.042,0,0,3,0,0,0,11.5,-6.841,0,0,1,1,0,0,VALID,0,0,0,0,0,1,0,0,0,0,0,0,0,0,0,0,0,0,0,0,1163.72,1365.25,2,0,0.54,0.5,78,1.85,0.54,0.54,1.74,FLYING
56.08,CRUISE,,206.57,80,-126.57,544.46,74.05,25.05,2.85,90.11,-4.434,1,0,19.701,1,0.6,2.102,0.77,0.35,0.0168,0.4,90,4.813,0,1,19.9,0,0,14.67,90,-0.6834,0.0001,-0.73,8.7,90,0,0,0,0,0,0,0,0,90.4,1,0,-0.042,0,0,3,0,0,0,11.5,-6.841,0,0,1,1,0,0,VALID,0,0,0,0,0,1,0,0,0,0,0,0,0,0,0,0,0,0,0,0,1186.07,1367.34,2,0,0.54,0.5,79,1.85,0.54,0.54,2.28,FLYING
56.62,CRUISE,,208.23,80,-128.23,581.77,70.68,18.34,-2.78,90.52,-5.578,1,0,19.603,1,0.6,2.528,0.77,0.35,0.0168,0.4,90,4.625,0,1,19.09,0,0,8.71,90,-0.6048,0.0001,-0.7964,2.81,90,0,0,0,0,0,0,0,0,90.4,1,0,-0.042,0,0,3,0,0,0,11.5,-6.841,0,0,1,1,0,0,VALID,0,0,0,0,0,1,0,0,0,0,0,0,0,0,0,0,0,0,0,0,1209.31,1372.71,2,0,0.54,0.5,80,1.85,0.54,0.54,2.82,FLYING
57.16,CRUISE,,210.13,80,-130.13,617.46,64.54,10.77,-8.63,90.56,0.037,0.976,0,20,1,0.6,2.922,0.77,0.35,0.0168,0.4,90,4.449,0,1,17.67,0,0,2.82,90,-0.5166,0,-0.8562,-3.29,90,0,0,0,0,0,0,0,0,90.4,1,0,-0.042,0,0,3,0,0,0,11.5,-6.841,0,0,1,1,0,0,VALID,0,0,0,0,0,1,0,0,0,0,0,0,0,0,0,0,0,0,0,0,1232.14,1379.53,2,0,0.54,0.5,81,1.85,0.54,0.54,3.36,FLYING
57.7,CRUISE,,211.82,80,-131.82,647.36,55.8,2.67,-15.03,90.04,1.569,0.938,0,20,1,0.6,3.288,0.77,0.35,0.0168,0.4,89.99,4.294,0,1,15.59,0,0,-3.27,90,-0.4224,0,-0.9064,-9.39,89.99,0,0,0,0,0,0,0,0,90.4,1,0,-0.042,0,0,3,0,0,0,11.5,-6.841,0,0,1,1,0,0,VALID,0,0,0,0,0,1,0,0,0,0,0,0,0,0,0,0,0,0,0,0,1249.44,1385.53,2,0,0.54,0.5,82,1.85,0.54,0.54,3.9,FLYING
58.24,CRUISE,,212.08,80,-132.08,670.94,43.08,-6.45,-18.94,89.81,1.489,1,0,19.9,1,0.6,3.625,0.77,0.35,0.0168,0.4,89.99,4.166,0,1,12.42,0,0,-9.38,89.99,-0.3352,0,-0.9422,-14.79,89.99,0,0,0,0,0,0,0,0,90.4,1,0,-0.042,0,0,3,0,0,0,11.5,-6.841,0,0,1,1,0,0,VALID,0,0,0,0,0,1,0,0,0,0,0,0,0,0,0,0,0,0,0,0,1254.2,1384.55,2,0,0.54,0.5,83,1.85,0.54,0.54,4.44,FLYING
58.78,CRUISE,,212.38,80,-132.38,689.32,29.98,-10.65,-19.8,89.8,1.265,1,0,19.8,1,0.6,3.935,0.77,0.35,0.0168,0.4,89.99,4.068,0,1,9.02,0,0,-14.78,89.99,-0.3219,0,-0.9468,-15.58,89.99,0,0,0,0,0,0,0,0,90.4,1,0,-0.042,0,0,3,0,0,0,11.5,-6.841,0,0,1,1,0,0,VALID,0,0,0,0,0,1,0,0,0,0,0,0,0,0,0,0,0,0,0,0,1267.02,1384.46,2,0,0.54,0.5,84,1.85,0.54,0.54,4.98,FLYING
59.34,CRUISE,,212.74,80,-132.74,701.64,15.53,-12.74,-16.5,89.85,1.111,1,0,19.701,1,0.6,4.219,0.77,0.35,0.0168,0.4,89.99,4,0,1,5.08,0,0,-15.57,89.99,-0.358,0,-0.9337,-13.37,89.99,0,0,0,0,0,0,0,0,90.4,1,0,-0.042,0,0,3,0,0,0,11.5,-6.841,0,0,1,1,0,0,VALID,0,0,0,0,0,1,0,0,0,0,0,0,0,0,0,0,0,0,0,0,1280.03,1385.3,2,0,0.56,0.5,85,1.79,0.56,0.54,5.54,FLYING
59.9,CRUISE,,215.16,80,-135.16,707.74,4.01,-9.93,-10.29,89.92,1.204,1,0,19.603,1,0.6,4.486,0.77,0.35,0.0168,0.4,89.99,3.964,0,1,1.75,0,0,-13.36,89.99,-0.4551,0.0001,-0.8905,-7.27,89.99,0,0,0,0,0,0,0,0,90.4,1,0,-0.042,0,0,3,0,0,0,11.5,-6.841,0,0,1,1,0,0,VALID,0,0,0,0,0,1,0,0,0,0,0,0,0,0,0,0,0,0,0,0,1302.42,1397.79,2,0,0.56,0.5,86,1.79,0.56,0.56,6.1,FLYING
60.46,CRUISE,,219.18,80,-139.18,708.86,-5.2,-5.7,-2.44,90.07,-0.349,0.875,0,20,1,0.6,4.5,0.77,0.35,0.0168,0.4,89.99,3.956,0,1,-0.83,0,0,-7.26,89.99,-0.5604,0.0001,-0.8282,-0.24,89.99,0,0,0,0,0,0,0,0,90.4,1,0,-0.042,0,0,3,0,0,0,11.5,-6.841,0,0,1,1,0,0,VALID,0,0,0,0,0,1,0,0,0,0,0,0,0,0,0,0,0,0,0,0,1332.55,1419.38,2,0,0.56,0.5,87,1.79,0.56,0.56,6.66,FLYING
61.02,CRUISE,,224.08,80,-144.08,707.42,-8.32,3.17,7.18,90.05,-0.969,0.675,0,20,1,0.6,4.5,0.77,0.35,0.0168,0.4,89.99,3.96,0,1,-2.04,0,0,-0.23,89.99,-0.6952,0.0002,-0.7188,9.73,89.99,0,0,0,0,0,0,0,0,90.4,1,0,-0.042,0,0,3,0,0,0,11.5,-6.841,0,0,1,1,0,0,VALID,0,0,0,0,0,1,0,0,0,0,0,0,0,0,0,0,0,0,0,0,1341.98,1446.3,2,0,0.56,0.5,88,1.79,0.56,0.56,7.22,FLYING
61.58,CRUISE,,228.08,80,-148.08,705.63,-7.06,11.98,16.41,89.94,-0.709,0.475,0,20,1,0.6,4.5,0.77,0.35,0.0168,0.4,89.99,3.971,0,1,-2.1,0,0,9.74,89.99,-0.799,0.0003,-0.6013,18.73,89.99,0,0,0,0,0,0,0,0,90.4,1,0,-0.042,0,0,3,0,0,0,11.5,-6.841,0,0,1,1,0,0,VALID,0,0,0,0,0,1,0,0,0,0,0,0,0,0,0,0,0,0,0,0,1298.41,1468.7,2,0,0.56,0.5,89,1.79,0.56,0.56,7.78,FLYING
62.14,CRUISE,,228.94,80,-148.94,704.66,-1.06,18.62,19.39,89.93,-0.441,0.275,0,20,1,0.6,4.5,0.77,0.35,0.0168,0.4,89.99,3.976,0,1,-0.67,0,0,18.75,89.99,-0.8442,0.0004,-0.536,23.3,89.99,0,0,0,0,0,0,0,0,90.4,1,0,-0.042,0,0,3,0,0,0,11.5,-6.841,0,0,1,1,0,0,VALID,0,0,0,0,0,1,0,0,0,0,0,0,0,0,0,0,0,0,0,0,1197.25,1473.72,2,0,0.56,0.5,90,1.79,0.56,0.56,8.34,FLYING
62.7,CRUISE,,228.99,80,-148.99,706.06,4.45,20.17,19.42,89.98,-0.267,0.475,0,20,1,0.6,4.5,0.77,0.35,0.0168,0.4,89.99,3.972,0,1,0.72,0,0,23.32,89.99,-0.8454,0.0004,-0.5341,23.44,89.99,0,0,0,0,0,0,0,0,90.4,1,0,-0.042,0,0,3,0,0,0,11.5,-6.841,0,0,1,1,0,0,VALID,0,0,0,0,0,1,0,0,0,0,0,0,0,0,0,0,0,0,0,0,1057.78,1473.94,2,0,0.56,0.5,91,1.79,0.56,0.56,8.9,FLYING
63.26,CRUISE,,228.42,80,-148.42,710.44,9.67,21.43,19.37,90,-0.184,0.675,0,20,1,0.6,4.5,0.77,0.35,0.0168,0.4,89.99,3.954,0,1,2.08,0,0,23.45,89.99,-0.8441,0.0004,-0.5362,23.31,89.99,0,0,0,0,0,0,0,0,90.4,1,0,-0.042,0,0,3,0,0,0,11.5,-6.841,0,0,1,1,0,0,VALID,0,0,0,0,0,1,0,0,0,0,0,0,0,0,0,0,0,0,0,0,990.02,1470.61,2,0,0.56,0.5,92,1.79,0.56,0.56,9.46,FLYING
63.82,CRUISE,,227.6,80,-147.6,717.78,14.91,22.77,19.47,90.01,-0.141,0.875,0,19.9,1,0.6,4.5,0.77,0.35,0.0168,0.4,89.99,3.92,0,1,3.37,0,0,23.33,89.99,-0.8448,0.0004,-0.5351,23.4,89.99,0,0,0,0,0,0,0,0,90.4,1,0,-0.042,0,0,3,0,0,0,11.5,-6.841,0,0,1,1,0,0,VALID,0,0,0,0,0,1,0,0,0,0,0,0,0,0,0,0,0,0,0,0,985.15,1465.62,2,0,0.56,0.5,93,1.79,0.56,0.56,10.02,FLYING
64.38,CRUISE,,226.63,80,-146.63,727.57,20.07,24.07,19.47,90.01,-0.119,1,0,19.8,1,0.6,4.5,0.77,0.35,0.0168,0.4,89.99,3.872,0,1,4.69,0,0,23.41,89.99,-0.8441,0.0004,-0.5362,23.34,89.99,0,0,0,0,0,0,0,0,90.4,1,0,-0.042,0,0,3,0,0,0,11.5,-6.841,0,0,1,1,0,0,VALID,0,0,0,0,0,1,0,0,0,0,0,0,0,0,0,0,0,0,0,0,1011.54,1459.63,2,0,0.56,0.5,94,1.79,0.56,0.56,10.58,FLYING
64.94,CRUISE,,225.65,80,-145.65,740.51,25.11,25.34,19.46,90.01,-0.111,1,0,19.701,1,0.6,4.5,0.77,0.35,0.0168,0.4,89.99,3.81,0,1,5.99,0,0,23.35,89.99,-0.8433,0.0004,-0.5374,23.26,89.99,0,0,0,0,0,0,0,0,90.4,1,0,-0.042,0,0,3,0,0,0,11.5,-6.841,0,0,1,1,0,0,VALID,0,0,0,0,0,1,0,0,0,0,0,0,0,0,0,0,0,0,0,0,1053.91,1453.32,2,0,0.56,0.5,95,1.79,0.56,0.56,11.14,FLYING
65.5,CRUISE,,224.68,80,-144.68,756.29,30.17,26.63,19.48,90.01,-0.106,1,0,19.603,1,0.6,4.5,0.77,0.35,0.0168,0.4,89.99,3.734,0,1,7.28,0,0,23.28,89.99,-0.8426,0.0004,-0.5386,23.2,89.99,0,0,0,0,0,0,0,0,90.4,1,0,-0.042,0,0,3,0,0,0,11.5,-6.841,0,0,1,1,0,0,VALID,0,0,0,0,0,1,0,0,0,0,0,0,0,0,0,0,0,0,0,0,1091.51,1446.93,2,0,0.56,0.5,96,1.79,0.56,0.56,11.7,FLYING
66.06,CRUISE,,223.71,80,-143.71,774.88,35.17,27.92,19.47,90,-0.103,1,0,19.505,1,0.6,4.5,0.77,0.35,0.0168,0.4,89.99,3.643,0,1,8.57,0,0,23.21,89.99,-0.8416,0.0004,-0.5401,23.11,89.99,0,0,0,0,0,0,0,0,90.4,1,0,-0.042,0,0,3,0,0,0,11.5,-6.841,0,0,1,1,0,0,VALID,0,0,0,0,0,1,0,0,0,0,0,0,0,0,0,0,0,0,0,0,1124.09,1440.29,2,0,0.56,0.5,97,1.79,0.56,0.56,12.26,FLYING
66.62,CRUISE,,222.72,80,-142.72,796.25,40.09,29.19,19.49,90,-0.102,1,0,19.407,1,0.6,4.5,0.77,0.35,0.0168,0.4,89.99,3.539,0,1,9.84,0,0,23.12,89.99,-0.8405,0.0004,-0.5417,23.01,89.99,0,0,0,0,0,0,0,0,90.4,1,0,-0.042,0,0,3,0,0,0,11.5,-6.841,0,0,1,1,0,0,VALID,0,0,0,0,0,1,0,0,0,0,0,0,0,0,0,0,0,0,0,0,1152.14,1433.38,2,0,0.56,0.5,98,1.79,0.56,0.56,12.82,FLYING
67.18,CRUISE,,221.69,80,-141.69,820.36,44.99,30.45,19.47,89.99,-0.1,1,0,19.31,1,0.6,4.5,0.77,0.35,0.0168,0.4,89.99,3.421,0,1,11.11,0,0,23.02,89.99,-0.8392,0.0004,-0.5438,22.88,89.99,0,0,0,0,0,0,0,0,90.4,1,0,-0.042,0,0,3,0,0,0,11.5,-6.841,0,0,1,1,0,0,VALID,0,0,0,0,0,1,0,0,0,0,0,0,0,0,0,0,0,0,0,0,1176.03,1426.1,2,0,0.56,0.5,99,1.79,0.56,0.56,13.38,FLYING
67.74,CRUISE,,220.62,80,-140.62,847.19,49.65,31.76,19.46,89.99,-0.099,1,0,19.214,1,0.6,4.5,0.77,0.35,0.0168,0.4,89.99,3.289,0,1,12.36,0,0,22.89,89.99,-0.8381,0.0004,-0.5455,22.78,89.99,0,0,0,0,0,0,0,0,90.4,1,0,-0.042,0,0,3,0,0,0,11.5,-6.841,0,0,1,1,0,0,VALID,0,0,0,0,0,1,0,0,0,0,0,0,0,0,0,0,0,0,0,0,1196.1,1418.37,2,0,0.56,0.5,100,1.79,0.56,0.56,13.94,FLYING
68.3,CRUISE,,219.48,80,-139.48,876.69,54.38,33.05,19.44,89.98,-0.098,1,0,19.118,1,0.6,4.5,0.77,0.35,0.0168,0.4,89.99,3.144,0,1,13.62,0,0,22.79,89.99,-0.8364,0.0004,-0.5481,22.61,89.99,0,0,0,0,0,0,0,0,90.4,1,0,-0.042,0,0,3,0,0,0,11.5,-6.841,0,0,1,1,0,0,VALID,0,0,0,0,0,1,0,0,0,0,0,0,0,0,0,0,0,0,0,0,1212.65,1410.1,2,0,0.56,0.5,101,1.79,0.56,0.56,14.5,FLYING
68.86,CRUISE,,218.28,80,-138.28,908.76,59.21,34.21,19.16,89.98,-0.098,1,0,19.022,1,0.6,4.5,0.77,0.35,0.0168,0.4,89.99,2.986,0,1,14.83,0,0,22.62,89.99,-0.834,0.0004,-0.5518,22.37,89.99,0,0,0,0,0,0,0,0,90.4,1,0,-0.042,0,0,3,0,0,0,11.5,-6.841,0,0,1,1,0,0,VALID,0,0,0,0,0,1,0,0,0,0,0,0,0,0,0,0,0,0,0,0,1226.03,1401.37,2,0,0.56,0.5,102,1.79,0.56,0.56,15.06,FLYING
69.42,CRUISE,,217.28,80,-137.28,942.98,63.36,33.72,17.39,89.98,-0.096,1,0,18.927,1,0.6,4.5,0.77,0.35,0.0168,0.4,89.99,2.817,0,1,15.97,0,0,22.38,89.99,-0.8153,0.0004,-0.5791,20.49,89.99,0,0,0,0,0,0,0,0,90.4,1,0,-0.042,0,0,3,0,0,0,11.5,-6.841,0,0,1,1,0,0,VALID,0,0,0,0,0,1,0,0,0,0,0,0,0,0,0,0,0,0,0,0,1237.6,1393.51,2,0,0.56,0.5,103,1.79,0.56,0.56,15.62,FLYING
69.98,CRUISE,,216.84,80,-136.84,978.79,66.46,31.28,13.69,89.98,-0.094,1,0,18.832,1,0.6,4.5,0.77,0.35,0.0168,0.4,89.99,2.639,0,1,16.92,0,0,20.5,89.99,-0.7755,0.0003,-0.6313,16.74,89.99,0,0,0,0,0,0,0,0,90.4,1,0,-0.042,0,0,3,0,0,0,11.5,-6.841,0,0,1,1,0,0,VALID,0,0,0,0,0,1,0,0,0,0,0,0,0,0,0,0,0,0,0,0,1249.47,1388.49,2,0,0.56,0.5,104,1.79,0.56,0.56,16.18,FLYING
70.54,CRUISE,,217.4,80,-137.4,1015.49,68.32,27.38,8.61,89.99,-0.096,1,0,18.738,1,0.6,4.5,0.77,0.35,0.0168,0.4,89.99,2.455,0,1,17.45,0,0,16.75,89.99,-0.7198,0.0003,-0.6942,11.93,89.99,0,0,0,0,0,0,0,0,90.4,1,0,-0.042,0,0,3,0,0,0,11.5,-6.841,0,0,1,1,0,0,VALID,0,0,0,0,0,1,0,0,0,0,0,0,0,0,0,0,0,0,0,0,1264.25,1388.71,2,0,0.56,0.5,105,1.79,0.56,0.56,16.74,FLYING
71.1,CRUISE,,219.17,80,-139.17,1051.9,67.3,20.93,2.47,89.99,-0.175,1,0,18.645,1,0.6,4.5,0.77,0.35,0.0168,0.4,89.99,2.273,0,1,17.3,0,0,11.94,89.99,-0.6377,0.0002,-0.7703,5.52,89.99,0,0,0,0,0,0,0,0,90.4,1,0,-0.042,0,0,3,0,0,0,11.5,-6.841,0,0,1,1,0,0,VALID,0,0,0,0,0,1,0,0,0,0,0,0,0,0,0,0,0,0,0,0,1283.36,1395.3,2,0,0.56,0.5,106,1.79,0.56,0.56,17.3,FLYING
71.66,CRUISE,,221.6,80,-141.6,1086.67,63.82,14.02,-4.11,90,-0.033,1,0,18.551,1,0.6,4.5,0.77,0.35,0.0168,0.4,89.99,2.097,0,1,16.5,0,0,5.53,89.99,-0.5483,0.0002,-0.8363,-0.83,89.99,0,0,0,0,0,0,0,0,90.4,1,0,-0.042,0,0,3,0,0,0,11.5,-6.841,0,0,1,1,0,0,VALID,0,0,0,0,0,1,0,0,0,0,0,0,0,0,0,0,0,0,0,0,1304.66,1405.55,2,0,0.56,0.5,107,1.79,0.56,0.56,17.86,FLYING
72.22,CRUISE,,224.06,80,-144.06,1117.76,55.73,4.56,-11.22,90,0.025,1,0,18.459,1,0.6,4.5,0.77,0.35,0.0168,0.4,89.99,1.938,0,1,14.71,0,0,-0.82,89.99,-0.4327,0.0001,-0.9015,-8.43,89.99,0,0,0,0,0,0,0,0,90.4,1,0,-0.042,0,0,3,0,0,0,11.5,-6.841,0,0,1,1,0,0,VALID,0,0,0,0,0,1,0,0,0,0,0,0,0,0,0,0,0,0,0,0,1325.41,1416.18,2,0,0.56,0.5,108,1.79,0.56,0.56,18.42,FLYING
72.78,CRUISE,,225.82,80,-145.82,1143.5,44.17,-4.01,-16.97,89.99,0.032,1,0,18.366,1,0.6,4.5,0.77,0.35,0.0168,0.4,89.99,1.803,0,1,12.05,0,0,-8.42,89.99,-0.3372,0,-0.9414,-14.36,89.99,0,0,0,0,0,0,0,0,90.4,1,0,-0.042,0,0,3,0,0,0,11.5,-6.841,0,0,1,1,0,0,VALID,0,0,0,0,0,1,0,0,0,0,0,0,0,0,0,0,0,0,0,0,1342.08,1423.49,2,0,0.56,0.5,109,1.79,0.56,0.56,18.98,FLYING
73.34,CRUISE,,226.33,80,-146.33,1162.36,29.75,-11.43,-19.84,89.99,0.034,1,0,18.274,1,0.6,4.5,0.77,0.35,0.0168,0.4,89.99,1.702,0,1,8.46,0,0,-14.34,89.99,-0.2767,0,-0.9609,-17.98,89.99,0,0,0,0,0,0,0,0,90.4,1,0,-0.042,0,0,3,0,0,0,11.5,-6.841,0,0,1,1,0,0,VALID,0,0,0,0,0,1,0,0,0,0,0,0,0,0,0,0,0,0,0,0,1351.9,1424.65,2,0,0.56,0.5,110,1.79,0.56,0.56,19.54,FLYING
73.9,CRUISE,,226.85,80,-146.85,1173.39,14.28,-15.58,-19.97,89.98,0.032,1,0,18.183,1,0.6,4.5,0.77,0.35,0.0168,0.4,89.99,1.64,0,1,4.58,0,0,-17.97,89.99,-0.2707,0,-0.9627,-18.33,89.99,0,0,0,0,0,0,0,0,90.4,1,0,-0.042,0,0,3,0,0,0,11.5,-6.841,0,0,1,1,0,0,VALID,0,0,0,0,0,1,0,0,0,0,0,0,0,0,0,0,0,0,0,0,1361.23,1426.47,2,0,0.56,0.5,111,1.79,0.56,0.56,20.1,FLYING
74.46,CRUISE,,227.78,80,-147.78,1175.97,-1.77,-19.22,-19.01,89.98,0.029,1,0,18.092,1,0.6,4.5,0.77,0.35,0.0168,0.4,89.99,1.62,0,1,0.6,0,0,-18.31,89.99,-0.2758,0,-0.9612,-18.01,89.99,0,0,0,0,0,0,0,0,90.4,1,0,-0.042,0,0,3,0,0,0,11.5,-6.841,0,0,1,1,0,0,VALID,0,0,0,0,0,1,0,0,0,0,0,0,0,0,0,0,0,0,0,0,1372.65,1431.17,2,0,0.56,0.5,112,1.79,0.56,0.56,20.66,FLYING
75.02,CRUISE,,229.91,80,-149.91,1170.9,-16.58,-18.18,-13.84,89.99,0.028,1,0,20,1,0.6,4.5,0.77,0.35,0.0168,0.4,89.99,1.637,0,1,-3.18,0,0,-18,89.99,-0.3562,0,-0.9344,-13.15,89.99,0,0,0,0,0,0,0,0,90.4,1,0,-0.042,0,0,3,0,0,0,11.5,-6.841,0,0,1,1,0,0,VALID,0,0,0,0,0,1,0,0,0,0,0,0,0,0,0,0,0,0,0,0,1389.81,1443.1,2,0,0.56,0.5,113,1.79,0.56,0.56,21.22,FLYING
75.58,CRUISE,,234.03,80,-154.03,1160.06,-27.74,-13.12,-4.57,89.98,0.178,0.8,0,20,1,0.6,4.5,0.77,0.35,0.0168,0.4,89.99,1.686,0,1,-6.21,0,0,-13.13,89.99,-0.4891,0.0001,-0.8722,-4.71,89.99,0,0,0,0,0,0,0,0,90.4,1,0,-0.042,0,0,3,0,0,0,11.5,-6.841,0,0,1,1,0,0,VALID,0,0,0,0,0,1,0,0,0,0,0,0,0,0,0,0,0,0,0,0,1417.69,1466.59,2,0,0.56,0.5,114,1.79,0.56,0.56,21.78,FLYING
76.14,CRUISE,,239.97,80,-159.97,1145.74,-32.51,-3.77,6.08,90.01,0.286,0.6,0,20,1,0.6,4.5,0.77,0.35,0.0168,0.4,89.99,1.755,0,1,-7.58,0,0,-4.7,89.99,-0.6429,0.0002,-0.766,6.02,89.99,0,0,0,0,0,0,0,0,90.4,1,0,-0.042,0,0,3,0,0,0,11.5,-6.841,0,0,1,1,0,0,VALID,0,0,0,0,0,1,0,0,0,0,0,0,0,0,0,0,0,0,0,0,1407.42,1500.75,2,0,0.56,0.5,115,1.79,0.56,0.56,22.34,FLYING
76.7,CRUISE,,244.77,80,-164.77,1130.94,-30.36,6.99,16.26,90.03,0.13,0.4,0,20,1,0.6,4.5,0.77,0.35,0.0168,0.4,89.99,1.83,0,1,-7.45,0,0,6.04,89.99,-0.7733,0.0003,-0.634,16.68,89.99,0,0,0,0,0,0,0,0,90.4,1,0,-0.042,0,0,3,0,0,0,11.5,-6.841,0,0,1,1,0,0,VALID,0,0,0,0,0,1,0,0,0,0,0,0,0,0,0,0,0,0,0,0,1343.84,1528.99,2,0,0.56,0.5,116,1.79,0.56,0.56,22.9,FLYING
77.26,CRUISE,,246.24,80,-166.24,1117.2,-23.48,13.35,19.31,90.02,0.048,0.2,0,20,1,0.6,4.5,0.77,0.35,0.0168,0.4,89.99,1.9,0,1,-5.91,0,0,16.7,89.99,-0.8194,0.0004,-0.5733,21.06,89.99,0,0,0,0,0,0,0,0,90.4,1,0,-0.042,0,0,3,0,0,0,11.5,-6.841,0,0,1,1,0,0,VALID,0,0,0,0,0,1,0,0,0,0,0,0,0,0,0,0,0,0,0,0,1222.68,1538.38,2,0,0.56,0.5,117,1.79,0.56,0.56,23.46,FLYING
77.82,CRUISE,,246.45,80,-166.45,1106.51,-16.68,15.2,19.42,90.01,0.016,0,0,20,1,0.6,4.5,0.77,0.35,0.0168,0.4,89.99,1.958,0,1,-4.31,0,0,21.08,89.99,-0.8219,0.0004,-0.5696,21.34,89.99,0,0,0,0,0,0,0,0,90.4,1,0,-0.042,0,0,3,0,0,0,11.5,-6.841,0,0,1,1,0,0,VALID,0,0,0,0,0,1,0,0,0,0,0,0,0,0,0,0,0,0,0,0,1062.6,1540.42,2,0,0.56,0.5,118,1.79,0.56,0.56,24.02,FLYING
78.4,CRUISE,,245.83,80,-165.83,1099.53,-10.08,16.77,19.46,90,0.007,0,0,20,1,0.6,4.5,0.75,0.35,0.0168,0.4,89.99,1.996,0,1,-2.78,0,0,21.35,89.99,-0.8229,0.0004,-0.5682,21.45,89.99,0,0,0,0,0,0,0,0,90.4,1,0,-0.042,0,0,3,0,0,0,11.5,-6.841,0,0,1,1,0,0,VALID,0,0,0,0,0,1,0,0,0,0,0,0,0,0,0,0,0,0,0,0,873.13,1537.54,2,0,0.56,0.5,119,1.79,0.56,0.56,24.58,FLYING
78.96,CRUISE,,244.37,80,-164.37,1096.15,-3.75,18.21,19.48,90,0.002,0.0029,0,20,1,0.6,4.5,0.75,0.35,0.0168,0.4,89.99,2.017,0,1,-1.3,0,0,21.46,89.99,-0.8232,0.0004,-0.5678,21.49,89.99,0,0,0,0,0,0,0,0,90.4,1,0,-0.042,0,0,3,0,0,0,11.5,-6.841,0,0,1,1,0,0,VALID,0,0,0,0,0,1,0,0,0,0,0,0,0,0,0,0,0,0,0,0,713.64,1529.7,2,0,0.56,0.5,120,1.79,0.56,0.56,25.14,FLYING
79.52,CRUISE,,242.2,80,-162.2,1096.19,2.25,19.63,19.5,90,0.001,0.2029,0,20,1,0.6,4.5,0.75,0.35,0.0168,0.4,89.99,2.02,0,1,0.13,0,0,21.5,89.99,-0.8233,0.0004,-0.5676,21.51,89.99,0,0,0,0,0,0,0,0,90.4,1,0,-0.042,0,0,3,0,0,0,11.5,-6.841,0,0,1,1,0,0,VALID,0,0,0,0,0,1,0,0,0,0,0,0,0,0,0,0,0,0,0,0,582.41,1517.74,2,0,0.56,0.5,121,1.79,0.56,0.56,25.7,FLYING
80.06,CRUISE,,239.55,80,-159.55,1099.48,7.91,20.95,19.5,90,-0.001,0.4029,0,19.9,1,0.6,4.5,0.75,0.35,0.0168,0.4,89.99,2.007,0,1,1.51,0,0,21.53,89.99,-0.823,0.0004,-0.568,21.5,89.99,0,0,0,0,0,0,0,0,90.4,1,0,-0.042,0,0,3,0,0,0,11.5,-6.841,0,0,1,1,0,0,VALID,0,0,0,0,0,1,0,0,0,0,0,0,0,0,0,0,0,0,0,0,524.73,1502.89,2,0,0.56,0.5,122,1.79,0.56,0.56,26.26,FLYING
80.62,CRUISE,,236.7,80,-156.7,1105.84,13.27,22.22,19.5,90,-0.003,0.6029,0,19.8,1,0.6,4.5,0.75,0.35,0.0168,0.4,89.99,1.979,0,1,2.84,0,0,21.51,89.99,-0.8226,0.0004,-0.5687,21.47,89.99,0,0,0,0,0,0,0,0,90.4,1,0,-0.042,0,0,3,0,0,0,11.5,-6.841,0,0,1,1,0,0,VALID,0,0,0,0,0,1,0,0,0,0,0,0,0,0,0,0,0,0,0,0,525.96,1486.76,2,0,0.56,0.5,123,1.79,0.56,0.56,26.82,FLYING
81.18,CRUISE,,233.83,80,-153.83,1115.11,18.39,23.48,19.5,90,-0.004,0.8029,0,19.701,1,0.6,4.5,0.75,0.35,0.0168,0.4,89.99,1.936,0,1,4.13,0,0,21.48,89.99,-0.8221,0.0004,-0.5694,21.43,89.99,0,0,0,0,0,0,0,0,90.4,1,0,-0.042,0,0,3,0,0,0,11.5,-6.841,0,0,1,1,0,0,VALID,0,0,0,0,0,1,0,0,0,0,0,0,0,0,0,0,0,0,0,0,558.04,1470.42,2,0,0.56,0.5,124,1.79,0.56,0.56,27.38,FLYING
81.74,CRUISE,,231.07,80,-151.07,1126.69,23.28,24.7,19.5,90,-0.005,1,0,19.603,1,0.6,4.5,0.75,0.35,0.0168,0.4,89.99,1.878,0,1,5.4,0,0,21.44,89.99,-0.8214,0.0004,-0.5704,21.37,89.99,0,0,0,0,0,0,0,0,90.4,1,0,-0.042,0,0,3,0,0,0,11.5,-6.841,0,0,1,1,0,0,VALID,0,0,0,0,0,1,0,0,0,0,0,0,0,0,0,0,0,0,0,0,616.36,1454.5,2,0,0.56,0.5,125,1.79,0.56,0.56,27.94,FLYING
82.3,CRUISE,,228.48,80,-148.48,1141.35,28.06,25.9,19.49,90,-0.006,1,0,19.505,1,0.6,4.5,0.75,0.35,0.0168,0.4,89.99,1.807,0,1,6.65,0,0,21.39,89.99,-0.8204,0.0004,-0.5718,21.29,89.99,0,0,0,0,0,0,0,0,90.4,1,0,-0.042,0,0,3,0,0,0,11.5,-6.841,0,0,1,1,0,0,VALID,0,0,0,0,0,1,0,0,0,0,0,0,0,0,0,0,0,0,0,0,697.08,1439.48,2,0,0.56,0.5,126,1.79,0.56,0.56,28.5,FLYING
82.86,CRUISE,,226.12,80,-146.12,1158.64,32.7,27.08,19.48,90,-0.008,1,0,19.407,1,0.6,4.5,0.75,0.35,0.0168,0.4,89.99,1.723,0,1,7.88,0,0,21.3,89.99,-0.8195,0.0004,-0.573,21.21,89.99,0,0,0,0,0,0,0,0,90.4,1,0,-0.042,0,0,3,0,0,0,11.5,-6.841,0,0,1,1,0,0,VALID,0,0,0,0,0,1,0,0,0,0,0,0,0,0,0,0,0,0,0,0,768.41,1425.53,2,0,0.56,0.5,127,1.79,0.56,0.56,29.06,FLYING
83.42,CRUISE,,223.94,80,-143.94,1178.48,37.21,28.27,19.48,89.99,-0.008,1,0,19.31,1,0.6,4.5,0.75,0.35,0.0168,0.4,89.99,1.626,0,1,9.09,0,0,21.23,89.99,-0.8183,0.0004,-0.5747,21.11,89.99,0,0,0,0,0,0,0,0,90.4,1,0,-0.042,0,0,3,0,0,0,11.5,-6.841,0,0,1,1,0,0,VALID,0,0,0,0,0,1,0,0,0,0,0,0,0,0,0,0,0,0,0,0,830.53,1412.48,2,0,0.56,0.5,128,1.79,0.56,0.56,29.62,FLYING
83.98,CRUISE,,221.9,80,-141.9,1200.83,41.63,29.45,19.47,89.99,-0.009,1,0,19.214,1,0.6,4.5,0.75,0.35,0.0168,0.4,89.99,1.517,0,1,10.3,0,0,21.12,89.99,-0.8171,0.0004,-0.5766,20.99,89.99,0,0,0,0,0,0,0,0,90.4,1,0,-0.042,0,0,3,0,0,0,11.5,-6.841,0,0,1,1,0,0,VALID,0,0,0,0,0,1,0,0,0,0,0,0,0,0,0,0,0,0,0,0,884.5,1400.07,2,0,0.56,0.5,129,1.79,0.56,0.56,30.18,FLYING
84.54,CRUISE,,219.98,80,-139.98,1225.64,45.99,30.61,19.48,89.99,-0.011,1,0,19.118,1,0.6,4.5,0.75,0.35,0.0168,0.4,89.99,1.395,0,1,11.48,0,0,21,89.99,-0.8156,0.0004,-0.5786,20.86,89.99,0,0,0,0,0,0,0,0,90.4,1,0,-0.042,0,0,3,0,0,0,11.5,-6.841,0,0,1,1,0,0,VALID,0,0,0,0,0,1,0,0,0,0,0,0,0,0,0,0,0,0,0,0,931.28,1388.15,2,0,0.56,0.5,130,1.79,0.56,0.56,30.74,FLYING
85.1,CRUISE,,218.14,80,-138.14,1252.84,50.24,31.75,19.5,89.99,-0.011,1,0,19.022,1,0.6,4.5,0.75,0.35,0.0168,0.4,89.99,1.261,0,1,12.64,0,0,20.88,89.99,-0.8142,0.0004,-0.5805,20.74,89.99,0,0,0,0,0,0,0,0,90.4,1,0,-0.042,0,0,3,0,0,0,11.5,-6.841,0,0,1,1,0,0,VALID,0,0,0,0,0,1,0,0,0,0,0,0,0,0,0,0,0,0,0,0,971.66,1376.6,2,0,0.56,0.5,131,1.79,0.56,0.56,31.3,FLYING
85.66,CRUISE,,216.35,80,-136.35,1282.39,54.36,32.91,19.5,89.99,-0.013,1,0,18.927,1,0.6,4.5,0.75,0.35,0.0168,0.4,89.99,1.115,0,1,13.79,0,0,20.75,89.99,-0.8126,0.0004,-0.5828,20.59,89.99,0,0,0,0,0,0,0,0,90.4,1,0,-0.042,0,0,3,0,0,0,11.5,-6.841,0,0,1,1,0,0,VALID,0,0,0,0,0,1,0,0,0,0,0,0,0,0,0,0,0,0,0,0,1006.29,1365.2,2,0,0.56,0.5,132,1.79,0.56,0.56,31.86,FLYING
86.22,CRUISE,,214.62,80,-134.62,1313.86,58.43,32.85,17.82,89.99,-0.014,1,0,18.832,1,0.6,4.5,0.75,0.35,0.0168,0.4,89.99,0.96,0,1,14.95,0,0,20.6,89.99,-0.797,0.0004,-0.6039,19.1,89.99,0,0,0,0,0,0,0,0,90.4,1,0,-0.042,0,0,3,0,0,0,11.5,-6.841,0,0,1,1,0,0,VALID,0,0,0,0,0,1,0,0,0,0,0,0,0,0,0,0,0,0,0,0,1035.79,1353.99,2,0,0.56,0.5,133,1.79,0.56,0.56,32.42,FLYING
86.78,CRUISE,,213.66,80,-133.66,1346.87,61.33,30.8,14.76,89.99,-0.014,1,0,18.738,1,0.6,4.5,0.75,0.35,0.0168,0.4,89.99,0.796,0,1,15.84,0,0,19.11,89.99,-0.7626,0.0003,-0.6469,15.96,89.99,0,0,0,0,0,0,0,0,90.4,1,0,-0.042,0,0,3,0,0,0,11.5,-6.841,0,0,1,1,0,0,VALID,0,0,0,0,0,1,0,0,0,0,0,0,0,0,0,0,0,0,0,0,1063.77,1346.77,2,0,0.56,0.5,134,1.79,0.56,0.56,32.98,FLYING
87.34,CRUISE,,213.56,80,-133.56,1380.68,62.99,27.09,9.97,89.99,-0.013,1,0,18.645,1,0.6,4.5,0.75,0.35,0.0168,0.4,89.99,0.627,0,1,16.41,0,0,15.97,89.99,-0.7081,0.0003,-0.7062,11.35,89.99,0,0,0,0,0,0,0,0,90.4,1,0,-0.042,0,0,3,0,0,0,11.5,-6.841,0,0,1,1,0,0,VALID,0,0,0,0,0,1,0,0,0,0,0,0,0,0,0,0,0,0,0,0,1091.37,1343.94,2,0,0.56,0.5,135,1.79,0.56,0.56,33.54,FLYING
87.9,CRUISE,,214.65,80,-134.65,1414.35,62.37,21.4,4.32,89.99,-0.03,1,0,18.551,1,0.6,4.5,0.75,0.35,0.0168,0.4,89.99,0.458,0,1,16.38,0,0,11.36,89.99,-0.6329,0.0002,-0.7742,5.55,89.99,0,0,0,0,0,0,0,0,90.4,1,0,-0.042,0,0,3,0,0,0,11.5,-6.841,0,0,1,1,0,0,VALID,0,0,0,0,0,1,0,0,0,0,0,0,0,0,0,0,0,0,0,0,1120.9,1347.39,2,0,0.56,0.5,136,1.79,0.56,0.56,34.1,FLYING
88.46,CRUISE,,216.53,80,-136.53,1446.7,59.37,14.92,-1.66,89.99,0.059,1,0,18.459,1,0.6,4.5,0.75,0.35,0.0168,0.4,89.99,0.295,0,1,15.71,0,0,5.56,89.99,-0.5484,0.0002,-0.8362,-0.45,89.99,0,0,0,0,0,0,0,0,90.4,1,0,-0.042,0,0,3,0,0,0,11.5,-6.841,0,0,1,1,0,0,VALID,0,0,0,0,0,1,0,0,0,0,0,0,0,0,0,0,0,0,0,0,1151.4,1355.12,2,0,0.56,0.5,137,1.79,0.56,0.56,34.66,FLYING
89.02,CRUISE,,218.77,80,-138.77,1476.18,53.42,7.16,-7.86,89.98,0.068,1,0,18.366,1,0.6,4.5,0.75,0.35,0.0168,0.4,89.99,0.144,0,1,14.27,0,0,-0.43,89.99,-0.4516,0.0001,-0.8922,-6.85,89.99,0,0,0,0,0,0,0,0,90.4,1,0,-0.042,0,0,3,0,0,0,11.5,-6.841,0,0,1,1,0,0,VALID,0,0,0,0,0,1,0,0,0,0,0,0,0,0,0,0,0,0,0,0,1181.46,1364.89,2,0,0.56,0.5,138,1.79,0.56,0.56,35.22,FLYING
89.58,CRUISE,,220.7,80,-140.7,1501.29,43.77,-0.71,-12.86,89.98,0.045,1,0,18.274,1,0.6,4.5,0.75,0.35,0.0168,0.4,89.99,0.014,0,1,11.96,0,0,-6.83,89.99,-0.3633,0.0001,-0.9317,-12.38,89.99,0,0,0,0,0,0,0,0,90.4,1,0,-0.042,0,0,3,0,0,0,11.5,-6.841,0,0,1,1,0,0,VALID,0,0,0,0,0,1,0,0,0,0,0,0,0,0,0,0,0,0,0,0,1208.47,1373.36,2,0,0.56,0.5,139,1.79,0.56,0.56,35.78,FLYING
90.14,CRUISE,,222.23,80,-142.23,1520.56,32.05,-7.29,-16.74,89.98,0.026,1,0,18.183,1,0.6,4.5,0.75,0.35,0.0168,0.4,89.99,-0.088,0,1,9.08,0,0,-12.36,89.99,-0.2994,0,-0.9541,-16.25,89.99,0,0,0,0,0,0,0,0,90.4,1,0,-0.042,0,0,3,0,0,0,11.5,-6.841,0,0,1,1,0,0,VALID,0,0,0,0,0,1,0,0,0,0,0,0,0,0,0,0,0,0,0,0,1232.04,1380.13,2,0,0.56,0.5,140,1.79,0.56,0.56,36.34,FLYING
90.7,CRUISE,,222.93,80,-142.93,1532.8,17.47,-13.88,-18.78,89.98,0.017,1,0,18.092,1,0.6,4.5,0.75,0.35,0.0168,0.4,89.99,-0.155,0,1,5.48,0,0,-16.23,89.99,-0.2501,0,-0.9682,-19.17,89.99,0,0,0,0,0,0,0,0,90.4,1,0,-0.042,0,0,3,0,0,0,11.5,-6.841,0,0,1,1,0,0,VALID,0,0,0,0,0,1,0,0,0,0,0,0,0,0,0,0,0,0,0,0,1250.37,1382.85,2,0,0.56,0.5,141,1.79,0.56,0.56,36.9,FLYING
91.26,CRUISE,,223.98,80,-143.98,1538.02,3.34,-15.67,-16.82,89.98,0.013,1,0,18.002,1,0.6,4.5,0.75,0.35,0.0168,0.4,89.99,-0.188,0,1,1.73,0,0,-19.16,89.99,-0.281,0,-0.9597,-17.32,89.99,0,0,0,0,0,0,0,0,90.4,1,0,-0.042,0,0,3,0,0,0,11.5,-6.841,0,0,1,1,0,0,VALID,0,0,0,0,0,1,0,0,0,0,0,0,0,0,0,0,0,0,0,0,1268.88,1388.12,2,0,0.56,0.5,142,1.79,0.56,0.56,37.46,FLYING
91.82,CRUISE,,226.21,80,-146.21,1536.35,-10.09,-15.12,-11.93,89.99,0.003,1,0,17.912,1,0.6,4.5,0.75,0.35,0.0168,0.4,89.99,-0.185,0,1,-1.76,0,0,-17.31,89.99,-0.3483,0,-0.9374,-13.25,89.99,0,0,0,0,0,0,0,0,90.4,1,0,-0.042,0,0,3,0,0,0,11.5,-6.841,0,0,1,1,0,0,VALID,0,0,0,0,0,1,0,0,0,0,0,0,0,0,0,0,0,0,0,0,1292.49,1400.27,2,0,0.56,0.5,143,1.79,0.56,0.56,38.02,FLYING
92.36,CRUISE,,230.17,80,-150.17,1529.2,-19.55,-10.43,-4.89,89.99,-0.03,0.8,0,20,1,0.6,4.5,0.75,0.35,0.0168,0.4,89.99,-0.156,0,1,-4.34,0,0,-13.24,89.99,-0.4627,0.0001,-0.8865,-6.06,89.99,0,0,0,0,0,0,0,0,90.4,1,0,-0.042,0,0,3,0,0,0,11.5,-6.841,0,0,1,1,0,0,VALID,0,0,0,0,0,1,0,0,0,0,0,0,0,0,0,0,0,0,0,0,1323.64,1422.32,2,0,0.54,0.5,144,1.85,0.56,0.54,38.56,FLYING
92.92,CRUISE,,235.38,80,-155.38,1518.36,-25.8,-4.56,3.64,89.98,-0.012,0.6,0,20,1,0.6,4.5,0.75,0.35,0.0168,0.4,89.99,-0.104,0,1,-6.05,0,0,-6.04,89.99,-0.5789,0.0002,-0.8154,1.77,89.99,0,0,0,0,0,0,0,0,90.4,1,0,-0.042,0,0,3,0,0,0,11.5,-6.841,0,0,1,1,0,0,VALID,0,0,0,0,0,1,0,0,0,0,0,0,0,0,0,0,0,0,0,0,1318.37,1451.71,2,0,0.56,0.5,145,1.79,0.56,0.54,39.12,FLYING
93.48,CRUISE,,240.12,80,-160.12,1506.84,-25.56,5.85,14.35,89.98,-0.006,0.4,0,20,1,0.6,4.5,0.75,0.35,0.0168,0.4,89.99,-0.046,0,1,-6.33,0,0,1.78,89.99,-0.7212,0.0003,-0.6927,12.56,89.99,0,0,0,0,0,0,0,0,90.4,1,0,-0.042,0,0,3,0,0,0,11.5,-6.841,0,0,1,1,0,0,VALID,0,0,0,0,0,1,0,0,0,0,0,0,0,0,0,0,0,0,0,0,1263.66,1478.96,2,0,0.56,0.5,146,1.79,0.56,0.56,39.68,FLYING
94.04,CRUISE,,241.79,80,-161.79,1495.95,-19.44,13.84,19.1,89.98,-0.007,0.2,0,20,1,0.6,4.5,0.75,0.35,0.0168,0.4,89.99,0.009,0,1,-5.05,0,0,12.58,89.99,-0.7921,0.0004,-0.6104,18.8,89.99,0,0,0,0,0,0,0,0,90.4,1,0,-0.042,0,0,3,0,0,0,11.5,-6.841,0,0,1,1,0,0,VALID,0,0,0,0,0,1,0,0,0,0,0,0,0,0,0,0,0,0,0,0,1153.66,1489.11,2,0,0.56,0.5,147,1.79,0.56,0.56,40.24,FLYING
94.6,CRUISE,,241.78,80,-161.78,1487.45,-13.03,16.11,19.45,89.98,-0.006,0,0,20,1,0.6,4.5,0.75,0.35,0.0168,0.4,89.99,0.055,0,1,-3.5,0,0,18.81,89.99,-0.799,0.0004,-0.6013,19.47,89.99,0,0,0,0,0,0,0,0,90.4,1,0,-0.042,0,0,3,0,0,0,11.5,-6.841,0,0,1,1,0,0,VALID,0,0,0,0,0,1,0,0,0,0,0,0,0,0,0,0,0,0,0,0,1003.07,1489.7,2,0,0.56,0.5,148,1.79,0.56,0.56,40.8,FLYING
95.18,CRUISE,,241.03,80,-161.03,1482.35,-6.9,17.53,19.46,89.98,-0.005,0,0,20,1,0.6,4.5,0.75,0.35,0.0168,0.4,89.99,0.084,0,1,-2.05,0,0,19.49,89.99,-0.7997,0.0004,-0.6004,19.55,89.99,0,0,0,0,0,0,0,0,90.4,1,0,-0.042,0,0,3,0,0,0,11.5,-6.841,0,0,1,1,0,0,VALID,0,0,0,0,0,1,0,0,0,0,0,0,0,0,0,0,0,0,0,0,823.7,1485.92,2,0,0.56,0.5,149,1.79,0.56,0.56,41.36,FLYING
95.74,CRUISE,,239.49,80,-159.49,1480.6,-0.98,18.89,19.55,89.98,-0.003,0.2,0,20,1,0.6,4.5,0.75,0.35,0.0168,0.4,89.99,0.097,0,1,-0.64,0,0,19.57,89.99,-0.8002,0.0004,-0.5998,19.61,89.99,0,0,0,0,0,0,0,0,90.4,1,0,-0.042,0,0,3,0,0,0,11.5,-6.841,0,0,1,1,0,0,VALID,0,0,0,0,0,1,0,0,0,0,0,0,0,0,0,0,0,0,0,0,672.92,1477.64,2,0,0.56,0.5,150,1.79,0.56,0.56,41.92,FLYING
96.28,CRUISE,,237.37,80,-157.37,1482.01,4.55,20.16,19.51,89.98,-0.001,0.4,0,20,1,0.6,4.5,0.75,0.35,0.0168,0.4,89.99,0.093,0,1,0.72,0,0,19.62,89.99,-0.7996,0.0004,-0.6005,19.57,89.99,0,0,0,0,0,0,0,0,90.4,1,0,-0.042,0,0,3,0,0,0,11.5,-6.841,0,0,1,1,0,0,VALID,0,0,0,0,0,1,0,0,0,0,0,0,0,0,0,0,0,0,0,0,597.38,1465.94,2,0,0.56,0.5,151,1.79,0.56,0.56,42.48,FLYING
96.84,CRUISE,,234.99,80,-154.99,1486.25,9.68,21.41,19.49,89.98,0.001,0.6,0,19.9,1,0.6,4.5,0.75,0.35,0.0168,0.4,89.99,0.074,0,1,2.03,0,0,19.58,89.99,-0.7994,0.0004,-0.6008,19.57,89.99,0,0,0,0,0,0,0,0,90.4,1,0,-0.042,0,0,3,0,0,0,11.5,-6.841,0,0,1,1,0,0,VALID,0,0,0,0,0,1,0,0,0,0,0,0,0,0,0,0,0,0,0,0,588.39,1452.65,2,0,0.56,0.5,152,1.79,0.56,0.56,43.04,FLYING
97.4,CRUISE,,232.54,80,-152.54,1493.49,14.77,22.64,19.48,89.98,0.002,0.8,0,19.8,1,0.6,4.5,0.75,0.35,0.0168,0.4,89.99,0.04,0,1,3.32,0,0,19.58,89.99,-0.799,0.0004,-0.6014,19.53,89.99,0,0,0,0,0,0,0,0,90.4,1,0,-0.042,0,0,3,0,0,0,11.5,-6.841,0,0,1,1,0,0,VALID,0,0,0,0,0,1,0,0,0,0,0,0,0,0,0,0,0,0,0,0,611.57,1438.89,2,0,0.56,0.5,153,1.79,0.56,0.56,43.6,FLYING
97.96,CRUISE,,230.14,80,-150.14,1503.51,19.72,23.84,19.42,89.98,0.003,1,0,19.701,1,0.6,4.5,0.75,0.35,0.0168,0.4,89.99,-0.008,0,1,4.58,0,0,19.55,89.99,-0.7983,0.0004,-0.6022,19.49,89.99,0,0,0,0,0,0,0,0,90.4,1,0,-0.042,0,0,3,0,0,0,11.5,-6.841,0,0,1,1,0,0,VALID,0,0,0,0,0,1,0,0,0,0,0,0,0,0,0,0,0,0,0,0,661.52,1425.24,2,0,0.56,0.5,154,1.79,0.56,0.56,44.16,FLYING
98.52,CRUISE,,227.9,80,-147.9,1516.25,24.46,24.96,19.47,89.98,0.005,1,0,19.603,1,0.6,4.5,0.75,0.35,0.0168,0.4,89.99,-0.069,0,1,5.82,0,0,19.5,89.99,-0.7972,0.0004,-0.6037,19.4,89.99,0,0,0,0,0,0,0,0,90.4,1,0,-0.042,0,0,3,0,0,0,11.5,-6.841,0,0,1,1,0,0,VALID,0,0,0,0,0,1,0,0,0,0,0,0,0,0,0,0,0,0,0,0,734.91,1412.38,2,0,0.56,0.5,155,1.79,0.56,0.56,44.72,FLYING
99.08,CRUISE,,225.84,80,-145.84,1531.62,29.14,26.12,19.48,89.98,0.006,1,0,19.505,1,0.6,4.5,0.75,0.35,0.0168,0.4,89.99,-0.143,0,1,7.05,0,0,19.41,89.99,-0.7965,0.0004,-0.6047,19.34,89.99,0,0,0,0,0,0,0,0,90.4,1,0,-0.042,0,0,3,0,0,0,11.5,-6.841,0,0,1,1,0,0,VALID,0,0,0,0,0,1,0,0,0,0,0,0,0,0,0,0,0,0,0,0,800.01,1400.38,2,0,0.56,0.5,156,1.79,0.56,0.56,45.28,FLYING
99.64,CRUISE,,223.92,80,-143.92,1549.59,33.7,27.29,19.49,89.98,0.008,1,0,19.407,1,0.6,4.5,0.75,0.35,0.0168,0.4,89.99,-0.231,0,1,8.27,0,0,19.35,89.99,-0.7953,0.0004,-0.6063,19.24,89.99,0,0,0,0,0,0,0,0,90.4,1,0,-0.042,0,0,3,0,0,0,11.5,-6.841,0,0,1,1,0,0,VALID,0,0,0,0,0,1,0,0,0,0,0,0,0,0,0,0,0,0,0,0,856.77,1389.03,2,0,0.56,0.5,157,1.79,0.56,0.56,45.84,FLYING
100.2,CRUISE,,222.11,80,-142.11,1570.1,38.24,28.44,19.5,89.99,0.01,1,0,19.31,1,0.6,4.5,0.75,0.35,0.0168,0.4,89.99,-0.331,0,1,9.47,0,0,19.25,89.99,-0.7942,0.0004,-0.6076,19.15,89.99,0,0,0,0,0,0,0,0,90.4,1,0,-0.042,0,0,3,0,0,0,11.5,-6.841,0,0,1,1,0,0,VALID,0,0,0,0,0,1,0,0,0,0,0,0,0,0,0,0,0,0,0,0,906.18,1378.18,2,0,0.56,0.5,158,1.79,0.56,0.56,46.4,FLYING
100.76,CRUISE,,220.39,80,-140.39,1593.09,42.66,29.58,19.49,89.99,0.011,1,0,19.214,1,0.6,4.5,0.75,0.35,0.0168,0.4,89.99,-0.444,0,1,10.66,0,0,19.16,89.99,-0.7928,0.0004,-0.6095,19.03,89.99,0,0,0,0,0,0,0,0,90.4,1,0,-0.042,0,0,3,0,0,0,11.5,-6.841,0,0,1,1,0,0,VALID,0,0,0,0,0,1,0,0,0,0,0,0,0,0,0,0,0,0,0,0,949.04,1367.69,2,0,0.56,0.5,159,1.79,0.56,0.56,46.96,FLYING
101.32,CRUISE,,218.74,80,-138.74,1618.54,47.01,30.7,19.48,89.99,0.011,1,0,19.118,1,0.6,4.5,0.75,0.35,0.0168,0.4,89.99,-0.569,0,1,11.83,0,0,19.04,89.99,-0.7914,0.0004,-0.6114,18.91,89.99,0,0,0,0,0,0,0,0,90.4,1,0,-0.042,0,0,3,0,0,0,11.5,-6.841,0,0,1,1,0,0,VALID,0,0,0,0,0,1,0,0,0,0,0,0,0,0,0,0,0,0,0,0,986.1,1357.48,2,0,0.56,0.5,160,1.79,0.56,0.56,47.52,FLYING
101.88,CRUISE,,217.21,80,-137.21,1646.28,51.02,31.3,19.21,89.99,0.014,1,0,19.022,1,0.6,4.5,0.75,0.35,0.0168,0.4,89.99,-0.706,0,1,12.95,0,0,18.92,89.99,-0.7851,0.0004,-0.6194,18.34,89.99,0,0,0,0,0,0,0,0,90.4,1,0,-0.042,0,0,3,0,0,0,11.5,-6.841,0,0,1,1,0,0,VALID,0,0,0,0,0,1,0,0,0,0,0,0,0,0,0,0,0,0,0,0,1018.22,1347.81,2,0,0.56,0.5,161,1.79,0.56,0.56,48.08,FLYING
102.44,CRUISE,,215.68,80,-135.68,1675.88,55.12,31.07,17.06,89.99,0.014,1,0,18.927,1,0.6,4.5,0.75,0.35,0.0168,0.4,89.99,-0.852,0,1,14.11,0,0,18.35,89.99,-0.7659,0.0003,-0.643,16.6,89.99,0,0,0,0,0,0,0,0,90.4,1,0,-0.042,0,0,3,0,0,0,11.5,-6.841,0,0,1,1,0,0,VALID,0,0,0,0,0,1,0,0,0,0,0,0,0,0,0,0,0,0,0,0,1045.51,1337.99,2,0,0.56,0.5,162,1.79,0.56,0.56,48.64,FLYING
103,CRUISE,,215.12,80,-135.12,1706.74,57.73,27.93,12.88,89.99,0.018,1,0,18.832,1,0.6,4.5,0.75,0.35,0.0168,0.4,89.99,-1.006,0,1,14.93,0,0,16.62,89.99,-0.7169,0.0003,-0.6971,12.43,89.99,0,0,0,0,0,0,0,0,90.4,1,0,-0.042,0,0,3,0,0,0,11.5,-6.841,0,0,1,1,0,0,VALID,0,0,0,0,0,1,0,0,0,0,0,0,0,0,0,0,0,0,0,0,1072.56,1333.2,2,0,0.56,0.5,163,1.79,0.56,0.56,49.2,FLYING
103.56,CRUISE,,215.68,80,-135.68,1738.1,58.66,23.29,7.51,89.99,0.022,1,0,18.738,1,0.6,4.5,0.75,0.35,0.0168,0.4,89.99,-1.162,0,1,15.28,0,0,12.44,89.99,-0.6502,0.0002,-0.7598,7.2,89.99,0,0,0,0,0,0,0,0,90.4,1,0,-0.042,0,0,3,0,0,0,11.5,-6.841,0,0,1,1,0,0,VALID,0,0,0,0,0,1,0,0,0,0,0,0,0,0,0,0,0,0,0,0,1100.94,1334.26,2,0,0.56,0.5,164,1.79,0.56,0.56,49.76,FLYING
104.12,CRUISE,,217.33,80,-137.33,1768.75,56.94,16.74,1.28,89.99,0.076,1,0,18.645,1,0.6,4.5,0.75,0.35,0.0168,0.4,89.99,-1.317,0,1,14.94,0,0,7.21,89.99,-0.5618,0.0002,-0.8273,0.83,89.99,0,0,0,0,0,0,0,0,90.4,1,0,-0.042,0,0,3,0,0,0,11.5,-6.841,0,0,1,1,0,0,VALID,0,0,0,0,0,1,0,0,0,0,0,0,0,0,0,0,0,0,0,0,1131.35,1341.13,2,0,0.56,0.5,165,1.79,0.56,0.56,50.32,FLYING
104.68,CRUISE,,219.59,80,-139.59,1797.23,52.5,9.35,-5.46,89.98,0.034,1,0,18.551,1,0.6,4.5,0.75,0.35,0.0168,0.4,89.99,-1.462,0,1,13.9,0,0,0.84,89.99,-0.4631,0.0001,-0.8863,-5.75,89.99,0,0,0,0,0,0,0,0,90.4,1,0,-0.042,0,0,3,0,0,0,11.5,-6.841,0,0,1,1,0,0,VALID,0,0,0,0,0,1,0,0,0,0,0,0,0,0,0,0,0,0,0,0,1162.33,1351.35,2,0,0.56,0.5,166,1.79,0.56,0.56,50.88,FLYING
105.24,CRUISE,,221.72,80,-141.72,1821.73,43.57,0.22,-11.81,89.98,0.009,1,0,18.459,1,0.6,4.5,0.75,0.35,0.0168,0.4,89.99,-1.588,0,1,11.83,0,0,-5.74,89.99,-0.3509,0,-0.9364,-12.78,89.99,0,0,0,0,0,0,0,0,90.4,1,0,-0.042,0,0,3,0,0,0,11.5,-6.841,0,0,1,1,0,0,VALID,0,0,0,0,0,1,0,0,0,0,0,0,0,0,0,0,0,0,0,0,1191.04,1361.11,2,0,0.56,0.5,167,1.79,0.56,0.56,51.44,FLYING
105.8,CRUISE,,223.39,80,-143.39,1840.83,32.22,-6.91,-16.44,89.98,-0.001,1,0,18.366,1,0.6,4.5,0.75,0.35,0.0168,0.4,89.99,-1.69,0,1,9.06,0,0,-12.77,89.99,-0.2744,0,-0.9616,-17.38,89.99,0,0,0,0,0,0,0,0,90.4,1,0,-0.042,0,0,3,0,0,0,11.5,-6.841,0,0,1,1,0,0,VALID,0,0,0,0,0,1,0,0,0,0,0,0,0,0,0,0,0,0,0,0,1215.92,1368.76,2,0,0.56,0.5,168,1.79,0.56,0.56,52,FLYING
106.36,CRUISE,,224.13,80,-144.13,1852.84,17.75,-14.31,-19.76,89.99,-0.004,1,0,18.274,1,0.6,4.5,0.75,0.35,0.0168,0.4,89.99,-1.756,0,1,5.51,0,0,-17.37,89.99,-0.2082,-0.0001,-0.9781,-21.28,89.99,0,0,0,0,0,0,0,0,90.4,1,0,-0.042,0,0,3,0,0,0,11.5,-6.841,0,0,1,1,0,0,VALID,0,0,0,0,0,1,0,0,0,0,0,0,0,0,0,0,0,0,0,0,1234.95,1371.75,2,0,0.56,0.5,169,1.79,0.56,0.56,52.56,FLYING
106.92,CRUISE,,224.67,80,-144.67,1857.24,2.47,-18.49,-19.97,89.99,-0.006,1,0,18.183,1,0.6,4.5,0.75,0.35,0.0168,0.4,89.99,-1.785,0,1,1.61,0,0,-21.27,89.99,-0.1999,-0.0001,-0.9798,-21.75,89.99,0,0,0,0,0,0,0,0,90.4,1,0,-0.042,0,0,3,0,0,0,11.5,-6.841,0,0,1,1,0,0,VALID,0,0,0,0,0,1,0,0,0,0,0,0,0,0,0,0,0,0,0,0,1251.62,1374.25,2,0,0.56,0.5,170,1.79,0.56,0.56,53.12,FLYING
107.48,CRUISE,,225.76,80,-145.76,1853.21,-13.1,-22.09,-19.74,89.99,-0.008,1,0,18.092,1,0.6,4.5,0.75,0.35,0.0168,0.4,89.99,-1.773,0,1,-2.3,0,0,-21.74,89.99,-0.1999,-0.0001,-0.9798,-21.74,89.99,0,0,0,0,0,0,0,0,90.4,1,0,-0.042,0,0,3,0,0,0,11.5,-6.841,0,0,1,1,0,0,VALID,0,0,0,0,0,1,0,0,0,0,0,0,0,0,0,0,0,0,0,0,1269.97,1380.12,2,0,0.56,0.5,171,1.79,0.56,0.56,53.68,FLYING
108.04,CRUISE,,227.33,80,-147.33,1842.18,-27.69,-20.91,-13.51,89.99,-0.014,1,0,18.002,1,0.6,4.5,0.75,0.35,0.0168,0.4,89.99,-1.723,0,1,-6.2,0,0,-21.72,89.99,-0.2901,0,-0.957,-16.39,89.99,0,0,0,0,0,0,0,0,90.4,1,0,-0.042,0,0,3,0,0,0,11.5,-6.841,0,0,1,1,0,0,VALID,0,0,0,0,0,1,0,0,0,0,0,0,0,0,0,0,0,0,0,0,1289.67,1389.25,2,0,0.56,0.5,172,1.79,0.56,0.56,54.24,FLYING
108.58,CRUISE,,231.37,80,-151.37,1825.15,-38.51,-15.43,-4.77,89.99,-0.099,0.8,0,20,1,0.6,4.5,0.75,0.35,0.0168,0.4,89.99,-1.646,0,1,-8.94,0,0,-16.38,89.99,-0.4257,0.0001,-0.9049,-8.05,89.99,0,0,0,0,0,0,0,0,90.4,1,0,-0.042,0,0,3,0,0,0,11.5,-6.841,0,0,1,1,0,0,VALID,0,0,0,0,0,1,0,0,0,0,0,0,0,0,0,0,0,0,0,0,1320.96,1412.24,2,0,0.54,0.5,173,1.85,0.56,0.54,54.78,FLYING
