t_s,phase,subphase,ias_ms,vapp_ms,spd_err_ms,agl_m,vs_ms,pitch_deg,aoa_deg,hdg_deg,bank_deg,thr_cmd,thr_cur,thr_intg,at_gain,at_tau_s,at_a_up,at_a_dn,at_kp_thr,at_ki_spd,at_thr_slew,as_cmd_deg,as_cap_deg,as_raw_deg,as_spd_err_ms,as_active,aa_hdg_cmd_deg,aa_fpa_cmd_deg,aa_fbw,aa_dir,actual_fpa_deg,ftf_hdg_err_deg,ftf_fix_idx,kos_steer_pit_deg,kos_steer_hdg_deg,aa_dir_vx,aa_dir_vy,aa_dir_vz,aa_dir_pitch_deg,aa_dir_hdg_deg,ils_loc_m,ils_gs_m,ils_dist_km,loc_corr_deg,gs_corr_deg,gs_latched,active_gs_ang_deg,ils_intercept_alt_m,d_gs_ms,fpa_preclamped_deg,gs_nom_alt_m,flare_fpa_cmd,flare_tgt_vs,flare_frac,steer_hdg_deg,steer_blend,ro_loc_corr_deg,ro_hdg_err_deg,ro_yaw_tgt,ro_yaw_scale,ro_yaw_gate,yaw_cmd,roll_cmd,pitch_cmd,ro_pitch_tgt_deg,ro_pitch_err_deg,ro_pitch_ff,ro_roll_assist,flaps_cur,flaps_tgt,asc_j_ab,asc_j_rk,asc_validity,asc_q_pa,asc_q_raw_pa,asc_mach,asc_apo_m,asc_drag_n,asc_w_prop,asc_edot_aero,asc_edot_orb,asc_pitch_bias,asc_blend,asc_spooling,asc_ab_thr_ratio,asc_ab_t_now,asc_ab_t_avail,asc_ab_ign_on,asc_ab_flameouts,asc_rk_t_now,asc_rk_t_avail,asc_rk_ign_on,asc_rk_flameouts,ship_thrust,ship_avail_thrust,ship_ign_on,ship_flameouts,ifc_raw_dt_s,ifc_dt_s,ifc_loop_n,ifc_hz_est,ifc_raw_dt_max_s,ifc_raw_dt_min_s,phase_el_s,status,craft_name,cfg_file
1.9,TAKEOFF,TO_PREFLIGHT,0.35,80,79.65,3.97,0.25,4.11,-38.09,89.56,0.082,0.056,0,0,0,0,0,0,0,0,0,0,0,0,0,0,90,0,1,0,-2.56,0,0,0,90,0,0,0,0,0,0,0,0,0,0,0,3,0,0,0,69,0,0,0,90,1,0,-0.442,0,0,1,0,0,0,0,0,0,0,0,2,0,0,VALID,0,0,0,0,0,1,0,0,0,0,0,0,0,0,0,0,0,0,0,0,0,877.71,2,0,0.14,0.14,1,0.5,0.14,0.02,1.76,LANDED,X10-F,0:/Integrated Flight Computer/aircraft/x10_f_cfg.ks (inferred preloaded)
2.16,TAKEOFF,TO_PREFLIGHT,0.33,80,79.67,4.19,-0.21,1.7,35.26,89.49,0.096,0.328,0,0,0,0,0,0,0,0,0,0,0,0,0,0,90,0,1,0,-11.69,0,0,0,90,0,0,0,0,0,0,0,0,0,0,0,3,0,0,0,69,0,0,0,90,1,0,-0.442,0,0,1,0,0,0,0,0,0,0,1,2,0,0,VALID,0,0,0,0,0,1,0,0,0,0,0,0,0,0,0,0,0,0,0,0,7.42,877.71,2,0,0.04,0.04,6,19.23,1.84,0.04,2.02,LANDED,X10-F,0:/Integrated Flight Computer/aircraft/x10_f_cfg.ks (inferred preloaded)
2.42,TAKEOFF,TO_PREFLIGHT,0.22,80,79.78,4.37,0.1,2.36,-25.25,89.48,0.099,0.432,0,0,0,0,0,0,0,0,0,0,0,0,0,0,90,0,1,0,5.43,0,0,0,90,0,0,0,0,0,0,0,0,0,0,0,3,0,0,0,69,0,0,0,90,1,0,-0.442,0,0,1,0,0,0,0,0,0,0,2,2,0,0,VALID,0,0,0,0,0,1,0,0,0,0,0,0,0,0,0,0,0,0,0,0,22.72,877.71,2,0,0.06,0.06,10,15.38,0.08,0.04,2.28,LANDED,X10-F,0:/Integrated Flight Computer/aircraft/x10_f_cfg.ks (inferred preloaded)
2.68,TAKEOFF,TO_PREFLIGHT,0.03,80,79.97,4.47,-0.05,2.66,29.41,89.46,0.098,0.536,0,0,0,0,0,0,0,0,0,0,0,0,0,0,90,0,1,0,-3.03,0,0,0,90,0,0,0,0,0,0,0,0,0,0,0,3,0,0,0,69,0,0,0,90,1,0,-0.442,0,0,1,0,0,0,0,0,0,0,2,2,0,0,VALID,0,0,0,0,0,1,0,0,0,0,0,0,0,0,0,0,0,0,0,0,41.83,877.71,2,0,0.06,0.06,14,15.38,0.08,0.04,2.54,LANDED,X10-F,0:/Integrated Flight Computer/aircraft/x10_f_cfg.ks (inferred preloaded)
2.94,TAKEOFF,TO_PREFLIGHT,0.04,80,79.96,4.47,0.02,2.69,-3.64,89.45,0.099,0.64,0,0,0,0,0,0,0,0,0,0,0,0,0,0,90,0,1,0,0.86,0,0,0,90,0,0,0,0,0,0,0,0,0,0,0,3,0,0,0,69,0,0,0,90,1,0,-0.442,0,0,1,0,0,0,0,0,0,0,2,2,0,0,VALID,0,0,0,0,0,1,0,0,0,0,0,0,0,0,0,0,0,0,0,0,64.6,877.71,2,0,0.06,0.06,18,15.38,0.08,0.04,2.8,LANDED,X10-F,0:/Integrated Flight Computer/aircraft/x10_f_cfg.ks (inferred preloaded)
3.2,TAKEOFF,TO_PREFLIGHT,0.09,80,79.91,4.42,0.01,2.51,-6.92,89.44,0.099,0.744,0,0,0,0,0,0,0,0,0,0,0,0,0,0,90,0,1,0,0.63,0,0,0,90,0,0,0,0,0,0,0,0,0,0,0,3,0,0,0,69,0,0,0,90,1,0,-0.442,0,0,1,0,0,0,0,0,0,0,2,2,0,0,VALID,0,0,0,0,0,1,0,0,0,0,0,0,0,0,0,0,0,0,0,0,90.84,877.71,2,0,0.06,0.06,22,15.38,0.08,0.04,3.06,LANDED,X10-F,0:/Integrated Flight Computer/aircraft/x10_f_cfg.ks (inferred preloaded)
3.46,TAKEOFF,TO_PREFLIGHT,0.15,80,79.85,4.29,0,2.07,3.13,89.44,0.099,0.848,0,0,0,0,0,0,0,0,0,0,0,0,0,0,90,0,1,0,0.05,0,0,0,90,0,0,0,0,0,0,0,0,0,0,0,3,0,0,0,69,0,0,0,90,1,0,-0.442,0,0,1,0,0,0,0,0,0,0,2,2,0,0,VALID,0,0,0,0,0,1,0,0,0,0,0,0,0,0,0,0,0,0,0,0,120.39,877.71,2,0,0.06,0.06,26,15.38,0.08,0.04,3.32,LANDED,X10-F,0:/Integrated Flight Computer/aircraft/x10_f_cfg.ks (inferred preloaded)
3.72,TAKEOFF,TO_PREFLIGHT,0.23,80,79.77,4.09,0.03,1.36,-4.58,89.43,0.1,0.952,0,0,0,0,0,0,0,0,0,0,0,0,0,0,90,0,1,0,1.49,0,0,0,90,0,0,0,0,0,0,0,0,0,0,0,3,0,0,0,69,0,0,0,90,1,0,-0.442,0,0,1,0,0,0,0,0,0,0,2,2,0,0,VALID,0,0,0,0,0,1,0,0,0,0,0,0,0,0,0,0,0,0,0,0,153.07,877.7,2,0,0.06,0.06,30,15.38,0.08,0.04,3.58,LANDED,X10-F,0:/Integrated Flight Computer/aircraft/x10_f_cfg.ks (inferred preloaded)
3.98,TAKEOFF,TO_PREFLIGHT,0.3,80,79.7,3.81,0.01,0.38,-0.43,89.42,0.101,1,0,0,0,0,0,0,0,0,0,0,0,0,0,0,90,0,1,0,0.31,0,0,0,90,0,0,0,0,0,0,0,0,0,0,0,3,0,0,0,69,0,0,0,90,1,0,-0.442,0,0,1,0,0,0,0,0,0,0,2,2,0,0,VALID,0,0,0,0,0,1,0,0,0,0,0,0,0,0,0,0,0,0,0,0,188.62,877.7,2,0,0.06,0.06,34,15.38,0.08,0.04,3.84,LANDED,X10-F,0:/Integrated Flight Computer/aircraft/x10_f_cfg.ks (inferred preloaded)
4.24,TAKEOFF,TO_PREFLIGHT,0.36,80,79.64,3.53,0.06,-0.61,-7.02,89.41,0.102,1,0,0,0,0,0,0,0,0,0,0,0,0,0,0,90,0,1,0,3.22,0,0,0,90,0,0,0,0,0,0,0,0,0,0,0,3,0,0,0,69,0,0,0,90,1,0,-0.442,0,0,1,0,0,0,0,0,0,0,2,2,0,0,VALID,0,0,0,0,0,1,0,0,0,0,0,0,0,0,0,0,0,0,0,0,223.6,877.7,2,0,0.06,0.06,38,15.38,0.08,0.04,4.1,LANDED,X10-F,0:/Integrated Flight Computer/aircraft/x10_f_cfg.ks (inferred preloaded)
4.5,TAKEOFF,TO_PREFLIGHT,0.1,80,79.9,3.62,-0.19,-0.31,77.22,89.4,0.103,1,0,0,0,0,0,0,0,0,0,0,0,0,0,0,90,0,1,0,-10.49,0,0,0,90,0,0,0,0,0,0,0,0,0,0,0,3,0,0,0,69,0,0,0,90,1,0,-0.442,0,0,1,0,0,0,0,0,0,0,2,2,0,0,VALID,0,0,0,0,0,1,0,0,0,0,0,0,0,0,0,0,0,0,0,0,256.81,877.7,2,0,0.06,0.06,42,15.38,0.08,0.04,4.36,LANDED,X10-F,0:/Integrated Flight Computer/aircraft/x10_f_cfg.ks (inferred preloaded)
4.76,TAKEOFF,TO_PREFLIGHT,0.19,80,79.81,3.66,-0.04,0.01,52.53,89.39,0.106,1,0,0,0,0,0,0,0,0,0,0,0,0,0,0,90,0,1,0,-2.16,0,0,0,90,0,0,0,0,0,0,0,0,0,0,0,3,0,0,0,69,0,0,0,90,1,0,-0.442,0,0,1,0,0,0,0,0,0,0,2,2,0,0,VALID,0,0,0,0,0,1,0,0,0,0,0,0,0,0,0,0,0,0,0,0,288.34,877.7,2,0,0.06,0.06,46,15.38,0.08,0.04,4.62,LANDED,X10-F,0:/Integrated Flight Computer/aircraft/x10_f_cfg.ks (inferred preloaded)
5.02,TAKEOFF,TO_PREFLIGHT,0.17,80,79.83,3.66,0.11,-0.09,-34.78,89.38,0.1,1,0,0,0,0,0,0,0,0,0,0,0,0,0,0,90,0,1,0,6.12,0,0,0,90,0,0,0,0,0,0,0,0,0,0,0,3,0,0,0,69,0,0,0,90,1,0,-0.442,0,0,1,0,0,0,0,0,0,0,2,2,0,0,VALID,0,0,0,0,0,1,0,0,0,0,0,0,0,0,0,0,0,0,0,0,318.26,877.7,2,0,0.06,0.06,50,15.38,0.08,0.04,4.88,LANDED,X10-F,0:/Integrated Flight Computer/aircraft/x10_f_cfg.ks (inferred preloaded)
5.28,TAKEOFF,TO_PREFLIGHT,0.25,80,79.75,3.58,0.03,-0.4,-6.03,89.38,0.1,1,0,0,0,0,0,0,0,0,0,0,0,0,0,0,90,0,1,0,1.87,0,0,0,90,0,0,0,0,0,0,0,0,0,0,0,3,0,0,0,69,0,0,0,90,1,0,-0.442,0,0,1,0,0,0,0,0,0,0,2,2,0,0,VALID,0,0,0,0,0,1,0,0,0,0,0,0,0,0,0,0,0,0,0,0,346.66,877.7,2,0,0.06,0.06,54,15.38,0.08,0.04,5.14,LANDED,X10-F,0:/Integrated Flight Computer/aircraft/x10_f_cfg.ks (inferred preloaded)
5.54,TAKEOFF,TO_PREFLIGHT,0.16,80,79.84,3.6,-0.06,-0.32,19.75,89.37,0.105,1,0,0,0,0,0,0,0,0,0,0,0,0,0,0,90,0,1,0,-3.21,0,0,0,90,0,0,0,0,0,0,0,0,0,0,0,3,0,0,0,69,0,0,0,90,1,0,-0.442,0,0,1,0,0,0,0,0,0,0,2,2,0,0,VALID,0,0,0,0,0,1,0,0,0,0,0,0,0,0,0,0,0,0,0,0,373.62,877.7,2,0,0.06,0.06,58,15.38,0.08,0.04,5.4,LANDED,X10-F,0:/Integrated Flight Computer/aircraft/x10_f_cfg.ks (inferred preloaded)
5.8,TAKEOFF,TO_PREFLIGHT,0.14,80,79.86,3.62,-0.01,-0.23,8.56,89.36,0.105,1,0,0,0,0,0,0,0,0,0,0,0,0,0,0,90,0,1,0,-0.84,0,0,0,90,0,0,0,0,0,0,0,0,0,0,0,3,0,0,0,69,0,0,0,90,1,0,-0.442,0,0,1,0,0,0,0,0,0,0,2,2,0,0,VALID,0,0,0,0,0,1,0,0,0,0,0,0,0,0,0,0,0,0,0,0,399.21,877.7,2,0,0.06,0.06,62,15.38,0.08,0.04,5.66,LANDED,X10-F,0:/Integrated Flight Computer/aircraft/x10_f_cfg.ks (inferred preloaded)
6.06,TAKEOFF,TO_PREFLIGHT,0.19,80,79.81,3.61,0.04,-0.28,-10.09,89.35,0.102,1,0,0,0,0,0,0,0,0,0,0,0,0,0,0,90,0,1,0,2.16,0,0,0,90,0,0,0,0,0,0,0,0,0,0,0,3,0,0,0,69,0,0,0,90,1,0,-0.442,0,0,1,0,0,0,0,0,0,0,2,2,0,0,VALID,0,0,0,0,0,1,0,0,0,0,0,0,0,0,0,0,0,0,0,0,423.5,877.7,2,0,0.06,0.06,66,15.38,0.08,0.04,5.92,LANDED,X10-F,0:/Integrated Flight Computer/aircraft/x10_f_cfg.ks (inferred preloaded)
6.32,TAKEOFF,TO_PREFLIGHT,0.24,80,79.76,3.59,0.01,-0.37,-2.35,89.34,0.102,1,0,0,0,0,0,0,0,0,0,0,0,0,0,0,90,0,1,0,0.32,0,0,0,90,0,0,0,0,0,0,0,0,0,0,0,3,0,0,0,69,0,0,0,90,1,0,-0.442,0,0,1,0,0,0,0,0,0,0,2,2,0,0,VALID,0,0,0,0,0,1,0,0,0,0,0,0,0,0,0,0,0,0,0,0,446.56,877.7,2,0,0.06,0.06,70,15.38,0.08,0.04,6.18,LANDED,X10-F,0:/Integrated Flight Computer/aircraft/x10_f_cfg.ks (inferred preloaded)
6.58,TAKEOFF,TO_PREFLIGHT,0.3,80,79.7,3.6,-0.03,-0.32,4.32,89.33,0.104,1,0,0,0,0,0,0,0,0,0,0,0,0,0,0,90,0,1,0,-1.65,0,0,0,90,0,0,0,0,0,0,0,0,0,0,0,3,0,0,0,69,0,0,0,90,1,0,-0.442,0,0,1,0,0,0,0,0,0,0,2,2,0,0,VALID,0,0,0,0,0,1,0,0,0,0,0,0,0,0,0,0,0,0,0,0,468.45,877.7,2,0,0.06,0.06,74,15.38,0.08,0.04,6.44,LANDED,X10-F,0:/Integrated Flight Computer/aircraft/x10_f_cfg.ks (inferred preloaded)
6.84,TAKEOFF,TO_PREFLIGHT,0.42,80,79.58,3.61,0,-0.28,0.29,89.32,0.104,1,0,0,0,0,0,0,0,0,0,0,0,0,0,0,90,0,1,0,-0.19,0,0,0,90,0,0,0,0,0,0,0,0,0,0,0,3,0,0,0,69,0,0,0,90,1,0,-0.442,0,0,1,0,0,0,0,0,0,0,2,2,0,0,VALID,0,0,0,0,0,1,0,0,0,0,0,0,0,0,0,0,0,0,0,0,489.23,877.69,2,0,0.06,0.06,78,15.38,0.08,0.04,6.7,LANDED,X10-F,0:/Integrated Flight Computer/aircraft/x10_f_cfg.ks (inferred preloaded)
7.1,TAKEOFF,TO_PREFLIGHT,0.58,80,79.42,3.59,0.02,-0.34,-1.81,89.31,0.103,1,0,0,0,0,0,0,0,0,0,0,0,0,0,0,90,0,1,0,0.97,0,0,0,90,0,0,0,0,0,0,0,0,0,0,0,3,0,0,0,69,0,0,0,90,1,0,-0.442,0,0,1,0,0,0,0,0,0,0,2,2,0,0,VALID,0,0,0,0,0,1,0,0,0,0,0,0,0,0,0,0,0,0,0,0,508.95,877.69,2,0,0.06,0.06,82,15.38,0.08,0.04,6.96,LANDED,X10-F,0:/Integrated Flight Computer/aircraft/x10_f_cfg.ks (inferred preloaded)
7.36,TAKEOFF,TO_PREFLIGHT,0.77,80,79.23,3.59,-0.01,-0.36,0.18,89.3,0.103,1,0,0,0,0,0,0,0,0,0,0,0,0,0,0,90,0,1,0,-0.56,0,0,0,90,0,0,0,0,0,0,0,0,0,0,0,3,0,0,0,69,0,0,0,90,1,0,-0.442,0,0,1,0,0,0,0,0,0,0,2,2,0,0,VALID,0,0,0,0,0,1,0,0,0,0,0,0,0,0,0,0,0,0,0,0,527.67,877.69,2,0,0.06,0.06,86,15.38,0.08,0.04,7.22,LANDED,X10-F,0:/Integrated Flight Computer/aircraft/x10_f_cfg.ks (inferred preloaded)
7.62,TAKEOFF,TO_PREFLIGHT,0.92,80,79.08,3.59,-0.01,-0.34,0.3,89.29,0.104,1,0,0,0,0,0,0,0,0,0,0,0,0,0,0,90,0,1,0,-0.56,0,0,0,90,0,0,0,0,0,0,0,0,0,0,0,3,0,0,0,69,0,0,0,90,1,0,-0.442,0,0,1,0,0,0,0,0,0,0,2,2,0,0,VALID,0,0,0,0,0,1,0,0,0,0,0,0,0,0,0,0,0,0,0,0,545.44,877.69,2,0,0.06,0.06,90,15.38,0.08,0.04,7.48,LANDED,X10-F,0:/Integrated Flight Computer/aircraft/x10_f_cfg.ks (inferred preloaded)
7.88,TAKEOFF,TO_PREFLIGHT,1,80,79,3.59,0,-0.35,-0.45,89.28,0.104,1,0,0,0,0,0,0,0,0,0,0,0,0,0,0,90,0,1,0,0.11,0,0,0,90,0,0,0,0,0,0,0,0,0,0,0,3,0,0,0,69,0,0,0,90,1,0,-0.442,0,0,1,0,0,0,0,0,0,0,2,2,0,0,VALID,0,0,0,0,0,1,0,0,0,0,0,0,0,0,0,0,0,0,0,0,562.31,877.69,2,0,0.06,0.06,94,15.38,0.08,0.04,7.74,LANDED,X10-F,0:/Integrated Flight Computer/aircraft/x10_f_cfg.ks (inferred preloaded)
8.14,TAKEOFF,TO_PREFLIGHT,1.06,80,78.94,3.58,0,-0.38,-0.33,89.27,0.104,1,0,0,0,0,0,0,0,0,0,0,0,0,0,0,90,0,1,0,-0.08,0,0,0,90,0,0,0,0,0,0,0,0,0,0,0,3,0,0,0,69,0,0,0,90,1,0,-0.442,0,0,1,0,0,0,0,0,0,0,2,2,0,0,VALID,0,0,0,0,0,1,0,0,0,0,0,0,0,0,0,0,0,0,0,0,578.32,877.68,2,0,0.06,0.06,98,15.38,0.08,0.04,8,LANDED,X10-F,0:/Integrated Flight Computer/aircraft/x10_f_cfg.ks (inferred preloaded)
8.4,TAKEOFF,TO_PREFLIGHT,1.09,80,78.91,3.58,-0.01,-0.38,0.06,89.26,0.104,1,0,0,0,0,0,0,0,0,0,0,0,0,0,0,90,0,1,0,-0.45,0,0,0,90,0,0,0,0,0,0,0,0,0,0,0,3,0,0,0,69,0,0,0,90,1,0,-0.442,0,0,1,0,0,0,0,0,0,0,2,2,0,0,VALID,0,0,0,0,0,1,0,0,0,0,0,0,0,0,0,0,0,0,0,0,593.51,877.68,2,0,0.06,0.06,102,15.38,0.08,0.04,8.26,LANDED,X10-F,0:/Integrated Flight Computer/aircraft/x10_f_cfg.ks (inferred preloaded)
8.66,TAKEOFF,TO_PREFLIGHT,1.12,80,78.88,3.58,-0.01,-0.38,-0.03,89.25,0.104,1,0,0,0,0,0,0,0,0,0,0,0,0,0,0,90,0,1,0,-0.34,0,0,0,90,0,0,0,0,0,0,0,0,0,0,0,3,0,0,0,69,0,0,0,90,1,0,-0.442,0,0,1,0,0,0,0,0,0,0,2,2,0,0,VALID,0,0,0,0,0,1,0,0,0,0,0,0,0,0,0,0,0,0,0,0,607.94,877.68,2,0,0.06,0.06,106,15.38,0.08,0.04,8.52,LANDED,X10-F,0:/Integrated Flight Computer/aircraft/x10_f_cfg.ks (inferred preloaded)
8.92,TAKEOFF,TO_PREFLIGHT,1.15,80,78.85,3.58,0,-0.38,-0.22,89.25,0.104,1,0,0,0,0,0,0,0,0,0,0,0,0,0,0,90,0,1,0,-0.17,0,0,0,90,0,0,0,0,0,0,0,0,0,0,0,3,0,0,0,69,0,0,0,90,1,0,-0.442,0,0,1,0,0,0,0,0,0,0,2,2,0,0,VALID,0,0,0,0,0,1,0,0,0,0,0,0,0,0,0,0,0,0,0,0,621.63,877.68,2,0,0.06,0.06,110,15.38,0.08,0.04,8.78,LANDED,X10-F,0:/Integrated Flight Computer/aircraft/x10_f_cfg.ks (inferred preloaded)
9.18,TAKEOFF,TO_PREFLIGHT,1.18,80,78.82,3.58,-0.01,-0.39,-0.16,89.24,0.104,1,0,0,0,0,0,0,0,0,0,0,0,0,0,0,90,0,1,0,-0.25,0,0,0,90,0,0,0,0,0,0,0,0,0,0,0,3,0,0,0,69,0,0,0,90,1,0,-0.442,0,0,1,0,0,0,0,0,0,0,2,2,0,0,VALID,0,0,0,0,0,1,0,0,0,0,0,0,0,0,0,0,0,0,0,0,634.63,877.68,2,0,0.06,0.06,114,15.38,0.08,0.04,9.04,LANDED,X10-F,0:/Integrated Flight Computer/aircraft/x10_f_cfg.ks (inferred preloaded)
9.44,TAKEOFF,TO_PREFLIGHT,1.2,80,78.8,3.58,-0.01,-0.4,-0.06,89.23,0.105,1,0,0,0,0,0,0,0,0,0,0,0,0,0,0,90,0,1,0,-0.35,0,0,0,90,0,0,0,0,0,0,0,0,0,0,0,3,0,0,0,69,0,0,0,90,1,0,-0.442,0,0,1,0,0,0,0,0,0,0,2,2,0,0,VALID,0,0,0,0,0,1,0,0,0,0,0,0,0,0,0,0,0,0,0,0,646.97,877.68,2,0,0.06,0.06,118,15.38,0.08,0.04,9.3,LANDED,X10-F,0:/Integrated Flight Computer/aircraft/x10_f_cfg.ks (inferred preloaded)
9.7,TAKEOFF,TO_PREFLIGHT,1.22,80,78.78,3.58,-0.01,-0.4,-0.13,89.22,0.104,1,0,0,0,0,0,0,0,0,0,0,0,0,0,0,90,0,1,0,-0.28,0,0,0,90,0,0,0,0,0,0,0,0,0,0,0,3,0,0,0,69,0,0,0,90,1,0,-0.442,0,0,1,0,0,0,0,0,0,0,2,2,0,0,VALID,0,0,0,0,0,1,0,0,0,0,0,0,0,0,0,0,0,0,0,0,658.68,877.68,2,0,0.06,0.06,122,15.38,0.08,0.04,9.56,LANDED,X10-F,0:/Integrated Flight Computer/aircraft/x10_f_cfg.ks (inferred preloaded)
9.96,TAKEOFF,TO_PREFLIGHT,1.24,80,78.76,3.58,-0.01,-0.4,-0.15,89.21,0.104,1,0,0,0,0,0,0,0,0,0,0,0,0,0,0,90,0,1,0,-0.27,0,0,0,90,0,0,0,0,0,0,0,0,0,0,0,3,0,0,0,69,0,0,0,90,1,0,-0.442,0,0,1,0,0,0,0,0,0,0,2,2,0,0,VALID,0,0,0,0,0,1,0,0,0,0,0,0,0,0,0,0,0,0,0,0,669.8,877.68,2,0,0.06,0.06,126,15.38,0.08,0.04,9.82,LANDED,X10-F,0:/Integrated Flight Computer/aircraft/x10_f_cfg.ks (inferred preloaded)
10.22,TAKEOFF,TO_PREFLIGHT,1.26,80,78.74,3.58,-0.01,-0.41,-0.14,89.2,0.104,1,0,0,0,0,0,0,0,0,0,0,0,0,0,0,90,0,1,0,-0.3,0,0,0,90,0,0,0,0,0,0,0,0,0,0,0,3,0,0,0,69,0,0,0,90,1,0,-0.442,0,0,1,0,0,0,0,0,0,0,2,2,0,0,VALID,0,0,0,0,0,1,0,0,0,0,0,0,0,0,0,0,0,0,0,0,680.35,877.68,2,0,0.06,0.06,130,15.38,0.08,0.04,10.08,LANDED,X10-F,0:/Integrated Flight Computer/aircraft/x10_f_cfg.ks (inferred preloaded)
10.48,TAKEOFF,TO_GROUND_ROLL,1.28,80,78.72,3.58,-0.01,-0.41,-0.12,89.19,0.105,1,0,0,0,0,0,0,0,0,0,0,0,0,0,0,91.1,0,1,0,-0.31,0,0,0,90,0,0,0,0,0,0,0,0,0.003,0,0,3,0,0,0,69,0,0,0,91.1,1,0.003,-1.902,0.1277,0.563,0,0.1277,0,0,0,0,0,0,2,2,0,0,VALID,0,0,0,0,0,1,0,0,0,0,0,0,0,0,0,0,0,0,0,0,690.37,877.67,2,0,0.06,0.06,134,15.38,0.08,0.04,10.36,LANDED,X10-F,0:/Integrated Flight Computer/aircraft/x10_f_cfg.ks (inferred preloaded)
10.76,TAKEOFF,TO_GROUND_ROLL,2.23,80,77.77,3.66,-0.13,-0.06,2.36,89.2,0.095,1,0,0,0,0,0,0,0,0,0,0,0,0,0,0,89.99,0,1,0,-3.35,0,0,0,90,0,0,0,0,0,0,0,0,0.004,0,0,3,0,0,0,69,0,0,0,89.99,1,0.004,-0.795,0.021,0.572,0,0.021,0,0,0,0,0,0,2,2,0,0,VALID,0,0,0,0,0,1,0,0,0,0,0,0,0,0,0,0,0,0,0,0,700.58,877.66,2,0,0.06,0.06,138,14.29,0.08,0.06,10.64,LANDED,X10-F,0:/Integrated Flight Computer/aircraft/x10_f_cfg.ks (inferred preloaded)
11.04,TAKEOFF,TO_GROUND_ROLL,4.08,80,75.92,3.81,0.2,0.43,-1.5,89.22,0.092,1,0,0,0,0,0,0,0,0,0,0,0,0,0,0,89.99,0,1,0,2.82,0,0,0,90,0,0,0,0,0,0,0,0,0.005,0,0,3,0,0,0,69,0,0,0,89.99,1,0.005,-0.773,0.0207,0.591,0,0.0207,0,0,0,0,0,0,2,2,0,0,VALID,0,0,0,0,0,1,0,0,0,0,0,0,0,0,0,0,0,0,0,0,710.19,877.59,2,0,0.06,0.06,142,14.29,0.08,0.06,10.92,LANDED,X10-F,0:/Integrated Flight Computer/aircraft/x10_f_cfg.ks (inferred preloaded)
11.32,TAKEOFF,TO_GROUND_ROLL,6.01,80,73.99,4.03,-0.16,1.09,2.11,89.24,0.098,1,0,0,0,0,0,0,0,0,0,0,0,0,0,0,89.99,0,1,0,-1.54,0,0,0,90,0,0,0,0,0,0,0,0,0.006,0,0,3,0,0,0,69,0,0,0,89.99,1,0.006,-0.748,0.0204,0.61,0,0.0204,0,0,0,0,0,0,2,2,0,0,VALID,0,0,0,0,0,1,0,0,0,0,0,0,0,0,0,0,0,0,0,0,719.24,877.49,2,0,0.06,0.06,146,14.29,0.08,0.06,11.2,LANDED,X10-F,0:/Integrated Flight Computer/aircraft/x10_f_cfg.ks (inferred preloaded)
11.6,TAKEOFF,TO_GROUND_ROLL,7.97,80,72.03,4.22,-0.01,1.82,1.98,89.27,0.099,1,0,0,0,0,0,0,0,0,0,0,0,0,0,0,89.98,0,1,0,-0.07,0,0,0,90,0,0,0,0,0,0,0,0,0.007,0,0,3,0,0,0,69,0,0,0,89.98,1,0.007,-0.712,0.0195,0.63,0,0.0195,0,0,0,0,0,0,2,2,0,0,VALID,0,0,0,0,0,1,0,0,0,0,0,0,0,0,0,0,0,0,0,0,727.77,877.35,2,0,0.06,0.06,150,14.29,0.08,0.06,11.48,LANDED,X10-F,0:/Integrated Flight Computer/aircraft/x10_f_cfg.ks (inferred preloaded)
11.88,TAKEOFF,TO_GROUND_ROLL,9.95,80,70.05,4.44,-0.09,2.54,2.86,89.32,0.093,1,0,0,0,0,0,0,0,0,0,0,0,0,0,0,89.98,0,1,0,-0.51,0,0,0,90,0,0,0,0,0,0,0,0,0.009,0,0,3,0,0,0,69,0,0,0,89.98,1,0.009,-0.662,0.0179,0.649,0,0.0179,0,0,0,0,0,0,2,2,0,0,VALID,0,0,0,0,0,1,0,0,0,0,0,0,0,0,0,0,0,0,0,0,735.78,877.17,2,0,0.06,0.06,154,14.29,0.08,0.06,11.76,LANDED,X10-F,0:/Integrated Flight Computer/aircraft/x10_f_cfg.ks (inferred preloaded)
12.16,TAKEOFF,TO_GROUND_ROLL,11.94,80,68.06,4.6,-0.08,3.13,3.49,89.37,0.091,1,0,0,0,0,0,0,0,0,0,0,0,0,0,0,89.97,0,1,0,-0.39,0,0,0,90,0,0,0,0,0,0,0,0,0.012,0,0,3,0,0,0,69,0,0,0,89.97,1,0.012,-0.598,0.0156,0.669,0,0.0156,0,0,0,0,0,0,2,2,0,0,VALID,0,0,0,0,0,1,0,0,0,0,0,0,0,0,0,0,0,0,0,0,743.32,876.96,2,0,0.06,0.06,158,14.29,0.08,0.06,12.04,LANDED,X10-F,0:/Integrated Flight Computer/aircraft/x10_f_cfg.ks (inferred preloaded)
12.44,TAKEOFF,TO_GROUND_ROLL,13.96,80,66.04,4.71,-0.08,3.51,3.76,89.44,0.09,1,0,0,0,0,0,0,0,0,0,0,0,0,0,0,89.96,0,1,0,-0.33,0,0,0,90,0,0,0,0,0,0,0,0,0.014,0,0,3,0,0,0,69,0,0,0,89.96,1,0.014,-0.52,0.0128,0.69,0,0.0128,0,0,0,0,0,0,2,2,0,0,VALID,0,0,0,0,0,1,0,0,0,0,0,0,0,0,0,0,0,0,0,0,750.41,876.72,2,0,0.06,0.06,162,14.29,0.08,0.06,12.32,LANDED,X10-F,0:/Integrated Flight Computer/aircraft/x10_f_cfg.ks (inferred preloaded)
12.72,TAKEOFF,TO_GROUND_ROLL,16,80,64,4.74,-0.1,3.62,3.96,89.53,0.086,1,0,0,0,0,0,0,0,0,0,0,0,0,0,0,89.96,0,1,0,-0.36,0,0,0,90,0,0,0,0,0,0,0,0,0.016,0,0,3,0,0,0,69,0,0,0,89.96,1,0.016,-0.429,0.0093,0.71,0,0.0093,0,0,0,0,0,0,2,2,0,0,VALID,0,0,0,0,0,1,0,0,0,0,0,0,0,0,0,0,0,0,0,0,757.07,876.45,2,0,0.06,0.06,166,14.29,0.08,0.06,12.6,LANDED,X10-F,0:/Integrated Flight Computer/aircraft/x10_f_cfg.ks (inferred preloaded)
13,TAKEOFF,TO_GROUND_ROLL,18.05,80,61.95,4.7,-0.09,3.46,3.74,89.63,0.083,1,0,0,0,0,0,0,0,0,0,0,0,0,0,0,89.95,0,1,0,-0.29,0,0,0,90,0,0,0,0,0,0,0,0,0.019,0,0,3,0,0,0,69,0,0,0,89.95,1,0.019,-0.325,0.0053,0.731,0,0.0053,0,0,0,0,0,0,2,2,0,0,VALID,0,0,0,0,0,1,0,0,0,0,0,0,0,0,0,0,0,0,0,0,763.33,876.15,2,0,0.06,0.06,170,14.29,0.08,0.06,12.88,LANDED,X10-F,0:/Integrated Flight Computer/aircraft/x10_f_cfg.ks (inferred preloaded)
13.28,TAKEOFF,TO_GROUND_ROLL,20.12,80,59.88,4.58,-0.11,3.06,3.38,89.74,0.079,1,0,0,0,0,0,0,0,0,0,0,0,0,0,0,89.95,0,1,0,-0.31,0,0,0,90,0,0,0,0,0,0,0,0,0.021,0,0,3,0,0,0,69,0,0,0,89.95,1,0.021,-0.208,0.0004,0.751,0,0.0004,0,0,0,0,0,0,2,2,0,0,VALID,0,0,0,0,0,1,0,0,0,0,0,0,0,0,0,0,0,0,0,0,769.2,875.83,2,0,0.06,0.06,174,14.29,0.08,0.06,13.16,LANDED,X10-F,0:/Integrated Flight Computer/aircraft/x10_f_cfg.ks (inferred preloaded)
13.56,TAKEOFF,TO_GROUND_ROLL,22.21,80,57.79,4.42,-0.11,2.47,2.78,89.86,0.074,1,0,0,0,0,0,0,0,0,0,0,0,0,0,0,89.94,0,1,0,-0.28,0,0,0,90,0,0,0,0,0,0,0,0,0.022,0,0,3,0,0,0,69,0,0,0,89.94,1,0.022,-0.077,-0.0049,0.772,0,-0.0049,0,0,0,0,0,0,2,2,0,0,VALID,0,0,0,0,0,1,0,0,0,0,0,0,0,0,0,0,0,0,0,0,774.72,875.48,2,0,0.06,0.06,178,14.29,0.08,0.06,13.44,LANDED,X10-F,0:/Integrated Flight Computer/aircraft/x10_f_cfg.ks (inferred preloaded)
13.84,TAKEOFF,TO_GROUND_ROLL,24.31,80,55.69,4.22,-0.13,1.81,2.14,90,0.071,1,0,0,0,0,0,0,0,0,0,0,0,0,0,0,89.93,0,1,0,-0.31,0,0,0,90,0,0,0,0,0,0,0,0,0.023,0,0,3,0,0,0,69,0,0,0,89.93,1,0.023,0.066,-0.0106,0.793,0,-0.0106,0,0,0,0,0,0,2,2,0,0,VALID,0,0,0,0,0,1,0,0,0,0,0,0,0,0,0,0,0,0,0,0,779.89,875.11,2,0,0.06,0.06,182,14.29,0.08,0.06,13.72,LANDED,X10-F,0:/Integrated Flight Computer/aircraft/x10_f_cfg.ks (inferred preloaded)
14.12,TAKEOFF,TO_GROUND_ROLL,26.43,80,53.57,4.03,-0.14,1.15,1.47,90.15,0.067,1,0,0,0,0,0,0,0,0,0,0,0,0,0,0,89.93,0,1,0,-0.3,0,0,0.01,90,0,0,0,0,0,0,0,0,0.023,0,0,3,0,0,0,69,0,0,0,89.93,1,0.023,0.219,-0.0183,0.814,0,-0.0183,0,0,0,0,0,0,2,2,0,0,VALID,0,0,0,0,0,1,0,0,0,0,0,0,0,0,0,0,0,0,0,0,784.75,874.73,2,0,0.06,0.06,186,14.29,0.08,0.06,14,LANDED,X10-F,0:/Integrated Flight Computer/aircraft/x10_f_cfg.ks (inferred preloaded)
14.4,TAKEOFF,TO_GROUND_ROLL,28.57,80,51.43,3.87,-0.16,0.6,0.92,90.3,0.065,1,0,0,0,0,0,0,0,0,0,0,0,0,0,0,89.92,0,1,0,-0.32,0,0,0.01,90,0,0,0,0,0,0,0,0,0.022,0,0,3,0,0,0,69,0,0,0,89.92,1,0.022,0.38,-0.0256,0.836,0,-0.0256,0,0,0,0,0,0,2,2,0,0,VALID,0,0,0,0,0,1,0,0,0,0,0,0,0,0,0,0,0,0,0,0,789.3,874.33,2,0,0.06,0.06,190,14.29,0.08,0.06,14.28,LANDED,X10-F,0:/Integrated Flight Computer/aircraft/x10_f_cfg.ks (inferred preloaded)
14.68,TAKEOFF,TO_GROUND_ROLL,30.71,80,49.29,3.77,-0.17,0.23,0.54,90.46,0.058,1,0,0,0,0,0,0,0,0,0,0,0,0,0,0,89.92,0,1,0,-0.32,0,0,0.01,90,0,0,0,0,0,0,0,0,0.02,0,0,3,0,0,0,69,0,0,0,89.92,1,0.02,0.533,-0.0321,0.857,0,-0.0321,0,0,0,0,0,0,2,2,0,0,VALID,0,0,0,0,0,1,0,0,0,0,0,0,0,0,0,0,0,0,0,0,793.58,873.93,2,0,0.06,0.06,194,14.29,0.08,0.06,14.56,LANDED,X10-F,0:/Integrated Flight Computer/aircraft/x10_f_cfg.ks (inferred preloaded)
14.96,TAKEOFF,TO_GROUND_ROLL,32.87,80,47.13,3.73,-0.18,0.08,0.39,90.59,0.064,1,0,0,0,0,0,0,0,0,0,0,0,0,0,0,89.93,0,1,0,-0.32,0,0,0.01,90,0,0,0,0,0,0,0,0,0.015,0,0,3,0,0,0,69,0,0,0,89.93,1,0.015,0.661,-0.0366,0.879,0,-0.0366,0,0,0,0,0,0,2,2,0,0,VALID,0,0,0,0,0,1,0,0,0,0,0,0,0,0,0,0,0,0,0,0,797.59,873.52,2,0,0.06,0.06,198,14.29,0.08,0.06,14.84,LANDED,X10-F,0:/Integrated Flight Computer/aircraft/x10_f_cfg.ks (inferred preloaded)
15.24,TAKEOFF,TO_GROUND_ROLL,35.03,80,44.97,3.76,-0.2,0.18,0.47,90.7,0.076,1,0,0,0,0,0,0,0,0,0,0,0,0,0,0,89.95,0,1,0,-0.32,0,0,0.01,90,0,0,0,0,0,0,0,0,0.01,0,0,3,0,0,0,69,0,0,0,89.95,1,0.01,0.755,-0.0393,0.9,0,-0.0393,0,0,0,0,0,0,2,2,0,0,VALID,0,0,0,0,0,1,0,0,0,0,0,0,0,0,0,0,0,0,0,0,801.35,873.1,2,0,0.06,0.06,202,14.29,0.08,0.06,15.12,LANDED,X10-F,0:/Integrated Flight Computer/aircraft/x10_f_cfg.ks (inferred preloaded)
15.52,TAKEOFF,TO_GROUND_ROLL,37.21,80,42.79,3.85,-0.21,0.5,0.77,90.78,0.083,1,0,0,0,0,0,0,0,0,0,0,0,0,0,0,89.96,0,1,0,-0.32,0,0,0.01,90,0,0,0,0,0,0,0,0,0.003,0,0,3,0,0,0,69,0,0,0,89.96,1,0.003,0.822,-0.041,0.922,0,-0.041,0,0,0,0,0,0,2,2,0,0,VALID,0,0,0,0,0,1,0,0,0,0,0,0,0,0,0,0,0,0,0,0,804.88,872.69,2,0,0.06,0.06,206,14.29,0.08,0.06,15.4,LANDED,X10-F,0:/Integrated Flight Computer/aircraft/x10_f_cfg.ks (inferred preloaded)
15.8,TAKEOFF,TO_GROUND_ROLL,39.39,80,40.61,3.98,-0.22,0.97,1.23,90.83,0.083,1,0,0,0,0,0,0,0,0,0,0,0,0,0,0,89.97,0,1,0,-0.32,0,0,0.01,90,0,0,0,0,0,0,0,0,-0.005,0,0,3,0,0,0,69,0,0,0,89.97,1,-0.005,0.868,-0.0423,0.944,0,-0.0423,0,0,0,0,0,0,2,2,0,0,VALID,0,0,0,0,0,1,0,0,0,0,0,0,0,0,0,0,0,0,0,0,808.2,872.28,2,0,0.06,0.06,210,14.29,0.08,0.06,15.68,LANDED,X10-F,0:/Integrated Flight Computer/aircraft/x10_f_cfg.ks (inferred preloaded)
16.08,TAKEOFF,TO_GROUND_ROLL,41.59,80,38.41,4.14,-0.24,1.52,1.79,90.86,0.089,1,0,0,0,0,0,0,0,0,0,0,0,0,0,0,89.97,0,1,0,-0.32,0,0,0.01,90,0,0,0,0,0,0,0,0,-0.014,0,0,3,0,0,0,69,0,0,0,89.97,1,-0.014,0.889,-0.0421,0.966,0,-0.0421,0,0,0,0,0,0,2,2,0,0,VALID,0,0,0,0,0,1,0,0,0,0,0,0,0,0,0,0,0,0,0,0,811.33,871.87,2,0,0.06,0.06,214,14.29,0.08,0.06,15.96,LANDED,X10-F,0:/Integrated Flight Computer/aircraft/x10_f_cfg.ks (inferred preloaded)
16.36,TAKEOFF,TO_GROUND_ROLL,43.79,80,36.21,4.3,-0.25,2.07,2.34,90.86,0.097,1,0,0,0,0,0,0,0,0,0,0,0,0,0,0,89.99,0,1,0,-0.32,0,0,0.01,90,0,0,0,0,0,0,0,0,-0.024,0,0,3,0,0,0,69,0,0,0,89.99,1,-0.024,0.876,-0.0399,0.988,0,-0.0399,0,0,0,0,0,0,2,2,0,0,VALID,0,0,0,0,0,1,0,0,0,0,0,0,0,0,0,0,0,0,0,0,814.27,871.48,2,0,0.06,0.06,218,14.29,0.08,0.06,16.24,LANDED,X10-F,0:/Integrated Flight Computer/aircraft/x10_f_cfg.ks (inferred preloaded)
16.64,TAKEOFF,TO_GROUND_ROLL,45.99,80,34.01,4.43,-0.26,2.53,2.8,90.82,0.107,1,0,0,0,0,0,0,0,0,0,0,0,0,0,0,90,0,1,0,-0.32,0,0,0.01,90,0,0,0,0,0,0,0,0,-0.034,0,0,3,0,0,0,69,0,0,0,90,1,-0.034,0.825,-0.035,1,0,-0.035,0,0,0,0,0,0,2,2,0,0,VALID,0,0,0,0,0,1,0,0,0,0,0,0,0,0,0,0,0,0,0,0,817.04,871.11,2,0,0.06,0.06,222,14.29,0.08,0.06,16.52,LANDED,X10-F,0:/Integrated Flight Computer/aircraft/x10_f_cfg.ks (inferred preloaded)
16.92,TAKEOFF,TO_GROUND_ROLL,48.2,80,31.8,4.52,-0.26,2.82,3.1,90.75,0.119,1,0,0,0,0,0,0,0,0,0,0,0,0,0,0,90.02,0,1,0,-0.31,0,0,0.02,90,0,0,0,0,0,0,0,0,-0.045,0,0,3,0,0,0,69,0,0,0,90.02,1,-0.045,0.73,-0.027,1,0,-0.027,0,0,0,0,0,0,2,2,0,0,VALID,0,0,0,0,0,1,0,0,0,0,0,0,0,0,0,0,0,0,0,0,819.65,870.75,2,0,0.06,0.06,226,14.29,0.08,0.06,16.8,LANDED,X10-F,0:/Integrated Flight Computer/aircraft/x10_f_cfg.ks (inferred preloaded)
17.2,TAKEOFF,TO_GROUND_ROLL,50.42,80,29.58,4.54,-0.27,2.91,3.2,90.62,0.135,1,0,0,0,0,0,0,0,0,0,0,0,0,0,0,90.04,0,1,0,-0.31,0,0,0.02,90,0,0,0,0,0,0,0,0,-0.055,0,0,3,0,0,0,69,0,0,0,90.04,1,-0.055,0.587,-0.0165,1,0,-0.0165,0,0,0,0,0,0,2,2,0,0,VALID,0,0,0,0,0,1,0,0,0,0,0,0,0,0,0,0,0,0,0,0,822.13,870.42,2,0,0.06,0.06,230,14.29,0.08,0.06,17.08,LANDED,X10-F,0:/Integrated Flight Computer/aircraft/x10_f_cfg.ks (inferred preloaded)
17.48,TAKEOFF,TO_GROUND_ROLL,52.64,80,27.36,4.51,-0.28,2.79,3.09,90.45,0.162,1,0,0,0,0,0,0,0,0,0,0,0,0,0,0,90.06,0,1,0,-0.3,0,0,0.02,90,0,0,0,0,0,0,0,0,-0.063,0,0,3,0,0,0,69,0,0,0,90.06,1,-0.063,0.391,-0.0032,1,0,-0.0032,0,0,0,0,0,0,2,2,0,0,VALID,0,0,0,0,0,1,0,0,0,0,0,0,0,0,0,0,0,0,0,0,824.47,870.11,2,0,0.06,0.06,234,14.29,0.08,0.06,17.36,LANDED,X10-F,0:/Integrated Flight Computer/aircraft/x10_f_cfg.ks (inferred preloaded)
17.76,TAKEOFF,TO_GROUND_ROLL,54.86,80,25.14,4.41,-0.28,2.47,2.78,90.24,0.203,1,0,0,0,0,0,0,0,0,0,0,0,0,0,0,90.07,0,1,0,-0.3,0,0,0.02,90,0,0,0,0,0,0,0,0,-0.07,0,0,3,0,0,0,69,0,0,0,90.07,1,-0.07,0.163,0.0103,1,0,0.0103,0,0,0,0,0,0,2,2,0,0,VALID,0,0,0,0,0,1,0,0,0,0,0,0,0,0,0,0,0,0,0,0,826.7,869.84,2,0,0.06,0.06,238,14.29,0.08,0.06,17.64,LANDED,X10-F,0:/Integrated Flight Computer/aircraft/x10_f_cfg.ks (inferred preloaded)
18.04,TAKEOFF,TO_GROUND_ROLL,57.1,80,22.9,4.29,-0.29,2.03,2.34,90.02,0.163,1,0,0,0,0,0,0,0,0,0,0,0,0,0,0,90.06,0,1,0,-0.29,0,0,0.02,90,0,0,0,0,0,0,0,0,-0.072,0,0,3,0,0,0,69,0,0,0,90.06,1,-0.072,-0.036,0.0157,1,0,0.0157,0,0,0,0,0,0,2,2,0,0,VALID,0,0,0,0,0,1,0,0,0,0,0,0,0,0,0,0,0,0,0,0,828.82,869.6,2,0,0.06,0.06,242,14.29,0.08,0.06,17.92,LANDED,X10-F,0:/Integrated Flight Computer/aircraft/x10_f_cfg.ks (inferred preloaded)
18.32,TAKEOFF,TO_GROUND_ROLL,59.34,80,20.66,4.14,-0.3,1.53,1.84,89.85,0.145,1,0,0,0,0,0,0,0,0,0,0,0,0,0,0,90.03,0,1,0,-0.29,0,0,0.02,90,0,0,0,0,0,0,0,0,-0.071,0,0,3,0,0,0,69,0,0,0,90.03,1,-0.071,-0.182,0.0213,1,0,0.0213,0,0,0,0,0,0,2,2,0,0,VALID,0,0,0,0,0,1,0,0,0,0,0,0,0,0,0,0,0,0,0,0,830.85,869.39,2,0,0.06,0.06,246,14.29,0.08,0.06,18.2,LANDED,X10-F,0:/Integrated Flight Computer/aircraft/x10_f_cfg.ks (inferred preloaded)
18.6,TAKEOFF,TO_GROUND_ROLL,61.59,80,18.41,4,-0.31,1.04,1.35,89.71,0.161,1,0,0,0,0,0,0,0,0,0,0,0,0,0,0,90.01,0,1,0,-0.29,0,0,0.03,90,0,0,0,0,0,0,0,0,-0.068,0,0,3,0,0,0,69,0,0,0,90.01,1,-0.068,-0.294,0.0236,1,0,0.0236,0,0,0,0,0,0,2,2,0,0,VALID,0,0,0,0,0,1,0,0,0,0,0,0,0,0,0,0,0,0,0,0,832.8,869.23,2,0,0.06,0.06,250,14.29,0.08,0.06,18.48,LANDED,X10-F,0:/Integrated Flight Computer/aircraft/x10_f_cfg.ks (inferred preloaded)
18.88,TAKEOFF,TO_GROUND_ROLL,63.84,80,16.16,3.88,-0.32,0.63,0.94,89.62,0.137,1,0,0,0,0,0,0,0,0,0,0,0,0,0,0,89.99,0,1,0,-0.29,0,0,0.03,90,0,0,0,0,0,0,0,0,-0.063,0,0,3,0,0,0,69,0,0,0,89.99,1,-0.063,-0.378,0.025,1,0,0.025,0,0,0,0,0,0,2,2,0,0,VALID,0,0,0,0,0,1,0,0,0,0,0,0,0,0,0,0,0,0,0,0,834.67,869.12,2,0,0.06,0.06,254,14.29,0.08,0.06,18.76,LANDED,X10-F,0:/Integrated Flight Computer/aircraft/x10_f_cfg.ks (inferred preloaded)
19.16,TAKEOFF,TO_GROUND_ROLL,66.1,80,13.9,3.8,-0.33,0.36,0.65,89.55,0.121,1,0,0,0,0,0,0,0,0,0,0,0,0,0,0,89.98,0,1,0,-0.29,0,0,0.03,90,0,0,0,0,0,0,0,0,-0.056,0,0,3,0,0,0,69,0,0,0,89.98,1,-0.056,-0.436,0.0254,1,0,0.0254,0,0,0,0,0,0,2,2,0,0,VALID,0,0,0,0,0,1,0,0,0,0,0,0,0,0,0,0,0,0,0,0,836.49,869.05,2,0,0.06,0.06,258,14.29,0.08,0.06,19.04,LANDED,X10-F,0:/Integrated Flight Computer/aircraft/x10_f_cfg.ks (inferred preloaded)
19.44,TAKEOFF,TO_GROUND_ROLL,68.37,80,11.63,3.77,-0.34,0.26,0.53,89.5,0.119,1,0,0,0,0,0,0,0,0,0,0,0,0,0,0,89.97,0,1,0,-0.29,0,0,0.03,90,0,0,0,0,0,0,0,0,-0.048,0,0,3,0,0,0,69,0,0,0,89.97,1,-0.048,-0.471,0.0251,1,0,0.0251,0,0,0,0,0,0,2,2,0,0,VALID,0,0,0,0,0,1,0,0,0,0,0,0,0,0,0,0,0,0,0,0,838.25,869.05,2,0,0.06,0.06,262,14.29,0.08,0.06,19.32,LANDED,X10-F,0:/Integrated Flight Computer/aircraft/x10_f_cfg.ks (inferred preloaded)
19.72,TAKEOFF,TO_GROUND_ROLL,70.64,80,9.36,3.79,-0.35,0.33,0.59,89.49,0.102,1,0,0,0,0,0,0,0,0,0,0,0,0,0,0,89.97,0,1,0,-0.29,0,0,0.03,90,0,0,0,0,0,0,0,0,-0.039,0,0,3,0,0,0,69,0,0,0,89.97,1,-0.039,-0.479,0.0233,1,0,0.0233,0,0,0,0,0,0,2,2,0,0,VALID,0,0,0,0,0,1,0,0,0,0,0,0,0,0,0,0,0,0,0,0,840.41,869.6,2,0,0.06,0.06,266,14.29,0.08,0.06,19.6,LANDED,X10-F,0:/Integrated Flight Computer/aircraft/x10_f_cfg.ks (inferred preloaded)
20,TAKEOFF,TO_GROUND_ROLL,72.92,80,7.08,3.86,-0.36,0.55,0.8,89.5,0.087,1,0,0,0,0,0,0,0,0,0,0,0,0,0,0,89.96,0,1,0,-0.28,0,0,0.04,90,0,0,0,0,0,0,0,0,-0.03,0,0,3,0,0,0,69,0,0,0,89.96,1,-0.03,-0.462,0.0204,1,0,0.0204,0,0,0,0,0,0,2,2,0,0,VALID,0,0,0,0,0,1,0,0,0,0,0,0,0,0,0,0,0,0,0,0,843.24,870.94,2,0,0.06,0.06,270,14.29,0.08,0.06,19.88,LANDED,X10-F,0:/Integrated Flight Computer/aircraft/x10_f_cfg.ks (inferred preloaded)
20.28,TAKEOFF,TO_GROUND_ROLL,75.2,80,4.8,3.95,-0.37,0.87,1.11,89.53,0.078,1,0,0,0,0,0,0,0,0,0,0,0,0,0,0,89.95,0,1,0,-0.28,0,0,0.04,90,0,0,0,0,0,0,0,0,-0.02,0,0,3,0,0,0,69,0,0,0,89.95,1,-0.02,-0.418,0.0161,1,0,0.0161,0,0,0,0,0,0,2,2,0,0,VALID,0,0,0,0,0,1,0,0,0,0,0,0,0,0,0,0,0,0,0,0,846.71,873.02,2,0,0.06,0.06,274,14.29,0.08,0.06,20.16,LANDED,X10-F,0:/Integrated Flight Computer/aircraft/x10_f_cfg.ks (inferred preloaded)
20.56,TAKEOFF,TO_GROUND_ROLL,77.49,80,2.51,4.06,-0.38,1.24,1.48,89.6,0.062,1,0,0,0,0,0,0,0,0,0,0,0,0,0,0,89.94,0,1,0,-0.28,0,0,0.04,90,0,0,0,0,0,0,0,0,-0.011,0,0,3,0,0,0,69,0,0,0,89.94,1,-0.011,-0.347,0.0106,1,0,0.0106,0,0,0,0,0,0,2,2,0,0,VALID,0,0,0,0,0,1,0,0,0,0,0,0,0,0,0,0,0,0,0,0,850.82,875.83,2,0,0.06,0.06,278,14.29,0.08,0.06,20.44,LANDED,X10-F,0:/Integrated Flight Computer/aircraft/x10_f_cfg.ks (inferred preloaded)
20.84,TAKEOFF,TO_GROUND_ROLL,79.79,80,0.21,4.16,-0.39,1.58,1.83,89.69,0.041,1,0,0,0,0,0,0,0,0,0,0,0,0,0,0,89.93,0,1,0,-0.28,0,0,0.04,90,0,0,0,0,0,0,0,0,-0.003,0,0,3,0,0,0,69,0,0,0,89.93,1,-0.003,-0.236,0.0025,1,0,0.0025,0,0,0,0,0,0,2,2,0,0,VALID,0,0,0,0,0,1,0,0,0,0,0,0,0,0,0,0,0,0,0,0,855.52,879.32,2,0,0.06,0.06,282,14.29,0.08,0.06,20.72,LANDED,X10-F,0:/Integrated Flight Computer/aircraft/x10_f_cfg.ks (inferred preloaded)
21.12,TAKEOFF,TO_GROUND_ROLL,82.1,80,-2.1,4.23,-0.39,1.85,2.09,89.81,0.02,1,0,0,0,0,0,0,0,0,0,0,0,0,0,0,89.92,0,1,0,-0.28,0,0,0.04,90,0,0,0,0,0,0,0,0,0.003,0,0,3,0,0,0,69,0,0,0,89.92,1,0.003,-0.104,-0.0056,1,0,-0.0056,0,0,0,0,0,0,2,2,0,0,VALID,0,0,0,0,0,1,0,0,0,0,0,0,0,0,0,0,0,0,0,0,860.8,883.46,2,0,0.06,0.06,286,14.29,0.08,0.06,21,LANDED,X10-F,0:/Integrated Flight Computer/aircraft/x10_f_cfg.ks (inferred preloaded)
21.4,TAKEOFF,TO_GROUND_ROLL,84.42,80,-4.42,4.27,-0.4,1.98,2.24,89.95,0.007,1,0,0,0,0,0,0,0,0,0,0,0,0,0,0,89.92,0,1,0,-0.27,0,0,0.05,90,0,0,0,0,0,0,0,0,0.006,0,0,3,0,0,0,69,0,0,0,89.92,1,0.006,0.039,-0.0116,1,0,-0.0116,0,0,0,0,0,0,2,2,0,0,VALID,0,0,0,0,0,1,0,0,0,0,0,0,0,0,0,0,0,0,0,0,866.64,888.24,2,0,0.06,0.06,290,14.29,0.08,0.06,21.28,LANDED,X10-F,0:/Integrated Flight Computer/aircraft/x10_f_cfg.ks (inferred preloaded)
21.68,TAKEOFF,TO_GROUND_ROLL,86.76,80,-6.76,4.27,-0.34,1.98,2.2,90.09,0.011,1,0,0,0,0,0,0,0,0,0,0,0,0,0,0,89.93,0,1,0,-0.22,0,0,0.05,90,0,0,0,0,0,0,0,0,0.006,0,0,3,0,0,0,69,0,0,0,89.93,1,0.006,0.166,-0.018,1,0,-0.018,0,0,0,0,0,0,2,2,0,0,VALID,0,0,0,0,0,1,0,0,0,0,0,0,0,0,0,0,0,0,0,0,873,893.61,2,0,0.06,0.06,294,14.29,0.08,0.06,21.56,LANDED,X10-F,0:/Integrated Flight Computer/aircraft/x10_f_cfg.ks (inferred preloaded)
21.96,TAKEOFF,TO_GROUND_ROLL,89.11,80,-9.11,4.23,-0.45,1.84,2.13,90.2,0.048,1,0,0,0,0,0,0,0,0,0,0,0,0,0,0,89.95,0,1,0,-0.29,0,0,0.05,90,0,0,0,0,0,0,0,0,0.003,0,0,3,0,0,0,69,0,0,0,89.95,1,0.003,0.25,-0.019,1,0,-0.019,0,0,0,0,0,0,2,2,0,0,VALID,0,0,0,0,0,1,0,0,0,0,0,0,0,0,0,0,0,0,0,0,879.89,899.56,2,0,0.06,0.06,298,14.29,0.08,0.06,21.84,LANDED,X10-F,0:/Integrated Flight Computer/aircraft/x10_f_cfg.ks (inferred preloaded)
22.24,TAKEOFF,TO_GROUND_ROLL,91.48,80,-11.48,4.15,-0.4,1.57,1.84,90.26,0.061,1,0,0,0,0,0,0,0,0,0,0,0,0,0,0,89.96,0,1,0,-0.25,0,0,0.05,90,0,0,0,0,0,0,0,0,-0.003,0,0,3,0,0,0,69,0,0,0,89.96,1,-0.003,0.299,-0.0185,1,0,-0.0185,0,0,0,0,0,0,2,2,0,0,VALID,0,0,0,0,0,1,0,0,0,0,0,0,0,0,0,0,0,0,0,0,887.27,906.05,2,0,0.06,0.06,302,14.29,0.08,0.06,22.12,LANDED,X10-F,0:/Integrated Flight Computer/aircraft/x10_f_cfg.ks (inferred preloaded)
22.52,TAKEOFF,TO_GROUND_ROLL,93.87,80,-13.87,4.06,-0.44,1.24,1.52,90.31,0.081,1,0,0,0,0,0,0,0,0,0,0,0,0,0,0,89.96,0,1,0,-0.27,0,0,0.06,90,0,0,0,0,0,0,0,0,-0.009,0,0,3,0,0,0,69,0,0,0,89.96,1,-0.009,0.341,-0.0194,1,0,-0.0194,0,0,0,0,0,0,2,2,0,0,VALID,0,0,0,0,0,1,0,0,0,0,0,0,0,0,0,0,0,0,0,0,895.12,913.08,2,0,0.06,0.06,306,14.29,0.08,0.06,22.4,LANDED,X10-F,0:/Integrated Flight Computer/aircraft/x10_f_cfg.ks (inferred preloaded)
22.8,TAKEOFF,TO_GROUND_ROLL,96.29,80,-16.29,3.95,-0.43,0.88,1.15,90.34,0.072,1,0,0,0,0,0,0,0,0,0,0,0,0,0,0,89.96,0,1,0,-0.26,0,0,0.06,90,0,0,0,0,0,0,0,0,-0.017,0,0,3,0,0,0,69,0,0,0,89.96,1,-0.017,0.381,-0.0209,1,0,-0.0209,0,0,0,0,0,0,2,2,0,0,VALID,0,0,0,0,0,1,0,0,0,0,0,0,0,0,0,0,0,0,0,0,903.43,920.61,2,0,0.06,0.06,310,14.29,0.08,0.06,22.68,LANDED,X10-F,0:/Integrated Flight Computer/aircraft/x10_f_cfg.ks (inferred preloaded)
23.08,TAKEOFF,TO_GROUND_ROLL,98.74,80,-18.74,3.86,-0.44,0.56,0.83,90.37,0.074,1,0,0,0,0,0,0,0,0,0,0,0,0,0,0,89.96,0,1,0,-0.26,0,0,0.06,90,0,0,0,0,0,0,0,0,-0.026,0,0,3,0,0,0,69,0,0,0,89.96,1,-0.026,0.418,-0.0221,1,0,-0.0221,0,0,0,0,0,0,2,2,0,0,VALID,0,0,0,0,0,1,0,0,0,0,0,0,0,0,0,0,0,0,0,0,912.17,928.61,2,0,0.06,0.06,314,14.29,0.08,0.06,22.96,LANDED,X10-F,0:/Integrated Flight Computer/aircraft/x10_f_cfg.ks (inferred preloaded)
23.36,TAKEOFF,TO_GROUND_ROLL,101.21,80,-21.21,3.79,-0.45,0.33,0.58,90.39,0.087,1,0,0,0,0,0,0,0,0,0,0,0,0,0,0,89.95,0,1,0,-0.25,0,0,0.06,90,0,0,0,0,0,0,0,0,-0.036,0,0,3,0,0,0,69,0,0,0,89.95,1,-0.036,0.441,-0.0222,1,0,-0.0222,0,0,0,0,0,0,2,2,0,0,VALID,0,0,0,0,0,1,0,0,0,0,0,0,0,0,0,0,0,0,0,0,921.31,937.05,2,0,0.06,0.06,318,14.29,0.08,0.06,23.24,LANDED,X10-F,0:/Integrated Flight Computer/aircraft/x10_f_cfg.ks (inferred preloaded)
23.64,TAKEOFF,TO_GROUND_ROLL,103.71,80,-23.71,3.76,-0.45,0.2,0.45,90.4,0.098,1,0,0,0,0,0,0,0,0,0,0,0,0,0,0,89.95,0,1,0,-0.25,0,0,0.07,90,0,0,0,0,0,0,0,0,-0.047,0,0,3,0,0,0,69,0,0,0,89.95,1,-0.047,0.454,-0.022,1,0,-0.022,0,0,0,0,0,0,2,2,0,0,VALID,0,0,0,0,0,1,0,0,0,0,0,0,0,0,0,0,0,0,0,0,930.82,945.89,2,0,0.06,0.06,322,14.29,0.08,0.06,23.52,LANDED,X10-F,0:/Integrated Flight Computer/aircraft/x10_f_cfg.ks (inferred preloaded)
23.92,TAKEOFF,TO_GROUND_ROLL,106.23,80,-26.23,3.75,-0.46,0.2,0.43,90.4,0.104,1,0,0,0,0,0,0,0,0,0,0,0,0,0,0,89.95,0,1,0,-0.25,0,0,0.07,90,0,0,0,0,0,0,0,0,-0.058,0,0,3,0,0,0,69,0,0,0,89.95,1,-0.058,0.458,-0.0213,1,0,-0.0213,0,0,0,0,0,0,2,2,0,0,VALID,0,0,0,0,0,1,0,0,0,0,0,0,0,0,0,0,0,0,0,0,940.66,955.11,2,0,0.06,0.06,326,14.29,0.08,0.06,23.8,LANDED,X10-F,0:/Integrated Flight Computer/aircraft/x10_f_cfg.ks (inferred preloaded)
24.2,TAKEOFF,TO_GROUND_ROLL,108.78,80,-28.78,3.78,-0.46,0.3,0.53,90.4,0.111,1,0,0,0,0,0,0,0,0,0,0,0,0,0,0,89.94,0,1,0,-0.24,0,0,0.07,90,0,0,0,0,0,0,0,0,-0.069,0,0,3,0,0,0,69,0,0,0,89.94,1,-0.069,0.457,-0.0209,1,0,-0.0209,0,0,0,0,0,0,2,2,0,0,VALID,0,0,0,0,0,1,0,0,0,0,0,0,0,0,0,0,0,0,0,0,950.8,964.65,2,0,0.06,0.06,330,14.29,0.08,0.06,24.08,LANDED,X10-F,0:/Integrated Flight Computer/aircraft/x10_f_cfg.ks (inferred preloaded)
24.48,TAKEOFF,TO_GROUND_ROLL,111.36,80,-31.36,3.84,-0.47,0.49,0.7,90.38,0.116,1,0,0,0,0,0,0,0,0,0,0,0,0,0,0,89.93,0,1,0,-0.24,0,0,0.08,90,0,0,0,0,0,0,0,0,-0.08,0,0,3,0,0,0,69,0,0,0,89.93,1,-0.08,0.448,-0.0198,1,0,-0.0198,0,0,0,0,0,0,2,2,0,0,VALID,0,0,0,0,0,1,0,0,0,0,0,0,0,0,0,0,0,0,0,0,961.19,974.46,2,0,0.06,0.06,334,14.29,0.08,0.06,24.36,LANDED,X10-F,0:/Integrated Flight Computer/aircraft/x10_f_cfg.ks (inferred preloaded)
24.76,TAKEOFF,TO_GROUND_ROLL,113.97,80,-33.97,3.9,-0.47,0.7,0.91,90.36,0.12,1,0,0,0,0,0,0,0,0,0,0,0,0,0,0,89.92,0,1,0,-0.24,0,0,0.08,90,0,0,0,0,0,0,0,0,-0.091,0,0,3,0,0,0,69,0,0,0,89.92,1,-0.091,0.439,-0.0193,1,0,-0.0193,0,0,0,0,0,0,2,2,0,0,VALID,0,0,0,0,0,1,0,0,0,0,0,0,0,0,0,0,0,0,0,0,971.78,984.51,2,0,0.06,0.06,338,14.29,0.08,0.06,24.64,LANDED,X10-F,0:/Integrated Flight Computer/aircraft/x10_f_cfg.ks (inferred preloaded)
25.04,TAKEOFF,TO_GROUND_ROLL,116.6,80,-36.6,3.96,-0.47,0.91,1.12,90.34,0.121,1,0,0,0,0,0,0,0,0,0,0,0,0,0,0,89.91,0,1,0,-0.23,0,0,0.08,90,0,0,0,0,0,0,0,0,-0.102,0,0,3,0,0,0,69,0,0,0,89.91,1,-0.102,0.426,-0.0184,1,0,-0.0184,0,0,0,0,0,0,2,2,0,0,VALID,0,0,0,0,0,1,0,0,0,0,0,0,0,0,0,0,0,0,0,0,982.54,994.74,2,0,0.06,0.06,342,14.29,0.08,0.06,24.92,LANDED,X10-F,0:/Integrated Flight Computer/aircraft/x10_f_cfg.ks (inferred preloaded)
25.32,TAKEOFF,TO_GROUND_ROLL,119.26,80,-39.26,4,-0.48,1.06,1.27,90.32,0.121,1,0,0,0,0,0,0,0,0,0,0,0,0,0,0,89.9,0,1,0,-0.23,0,0,0.09,90,0,0,0,0,0,0,0,0,-0.112,0,0,3,0,0,0,69,0,0,0,89.9,1,-0.112,0.417,-0.0182,1,0,-0.0182,0,0,0,0,0,0,2,2,0,0,VALID,0,0,0,0,0,1,0,0,0,0,0,0,0,0,0,0,0,0,0,0,993.4,1005.09,2,0,0.06,0.06,346,14.29,0.08,0.06,25.2,LANDED,X10-F,0:/Integrated Flight Computer/aircraft/x10_f_cfg.ks (inferred preloaded)
25.6,TAKEOFF,TO_GROUND_ROLL,121.95,80,-41.95,4.02,-0.48,1.12,1.34,90.3,0.119,1,0,0,0,0,0,0,0,0,0,0,0,0,0,0,89.89,0,1,0,-0.23,0,0,0.09,90,0,0,0,0,0,0,0,0,-0.121,0,0,3,0,0,0,69,0,0,0,89.89,1,-0.121,0.41,-0.018,1,0,-0.018,0,0,0,0,0,0,2,2,0,0,VALID,0,0,0,0,0,1,0,0,0,0,0,0,0,0,0,0,0,0,0,0,1004.31,1015.52,2,0,0.06,0.06,350,14.29,0.08,0.06,25.48,LANDED,X10-F,0:/Integrated Flight Computer/aircraft/x10_f_cfg.ks (inferred preloaded)
25.88,TAKEOFF,TO_GROUND_ROLL,124.67,80,-44.67,4.01,-0.48,1.09,1.31,90.28,0.118,1,0,0,0,0,0,0,0,0,0,0,0,0,0,0,89.88,0,1,0,-0.22,0,0,0.09,90,0,0,0,0,0,0,0,0,-0.131,0,0,3,0,0,0,69,0,0,0,89.88,1,-0.131,0.403,-0.0179,1,0,-0.0179,0,0,0,0,0,0,2,2,0,0,VALID,0,0,0,0,0,1,0,0,0,0,0,0,0,0,0,0,0,0,0,0,1015.23,1025.97,2,0,0.06,0.06,354,14.29,0.08,0.06,25.76,LANDED,X10-F,0:/Integrated Flight Computer/aircraft/x10_f_cfg.ks (inferred preloaded)
26.16,TAKEOFF,TO_GROUND_ROLL,127.42,80,-47.42,3.98,-0.51,0.96,1.18,90.27,0.115,1,0,0,0,0,0,0,0,0,0,0,0,0,0,0,89.87,0,1,0,-0.23,0,0,0.1,90,0,0,0,0,0,0,0,0,-0.14,0,0,3,0,0,0,69,0,0,0,89.87,1,-0.14,0.4,-0.0179,1,0,-0.0179,0,0,0,0,0,0,2,2,0,0,VALID,0,0,0,0,0,1,0,0,0,0,0,0,0,0,0,0,0,0,0,0,1026.1,1036.38,2,0,0.06,0.06,358,14.29,0.08,0.06,26.04,LANDED,X10-F,0:/Integrated Flight Computer/aircraft/x10_f_cfg.ks (inferred preloaded)
26.44,TAKEOFF,TO_GROUND_ROLL,130.2,80,-50.2,3.91,-0.48,0.76,0.98,90.26,0.111,1,0,0,0,0,0,0,0,0,0,0,0,0,0,0,89.86,0,1,0,-0.21,0,0,0.1,90,0,0,0,0,0,0,0,0,-0.148,0,0,3,0,0,0,69,0,0,0,89.86,1,-0.148,0.398,-0.0179,1,0,-0.0179,0,0,0,0,0,0,2,2,0,0,VALID,0,0,0,0,0,1,0,0,0,0,0,0,0,0,0,0,0,0,0,0,1036.88,1046.73,2,0,0.06,0.06,362,14.29,0.08,0.06,26.32,LANDED,X10-F,0:/Integrated Flight Computer/aircraft/x10_f_cfg.ks (inferred preloaded)
26.72,TAKEOFF,TO_GROUND_ROLL,133.02,80,-53.02,3.85,-0.49,0.53,0.75,90.24,0.114,1,0,0,0,0,0,0,0,0,0,0,0,0,0,0,89.85,0,1,0,-0.21,0,0,0.1,90,0,0,0,0,0,0,0,0,-0.157,0,0,3,0,0,0,69,0,0,0,89.85,1,-0.157,0.394,-0.0177,1,0,-0.0177,0,0,0,0,0,0,2,2,0,0,VALID,0,0,0,0,0,1,0,0,0,0,0,0,0,0,0,0,0,0,0,0,1047.85,1057.32,2,0,0.06,0.06,366,14.29,0.08,0.06,26.6,LANDED,X10-F,0:/Integrated Flight Computer/aircraft/x10_f_cfg.ks (inferred preloaded)
27,TAKEOFF,TO_GROUND_ROLL,135.87,80,-55.87,3.78,-0.49,0.3,0.52,90.23,0.117,1,0,0,0,0,0,0,0,0,0,0,0,0,0,0,89.84,0,1,0,-0.21,0,0,0.11,90,0,0,0,0,0,0,0,0,-0.166,0,0,3,0,0,0,69,0,0,0,89.84,1,-0.166,0.388,-0.0173,1,0,-0.0173,0,0,0,0,0,0,2,2,0,0,VALID,0,0,0,0,0,1,0,0,0,0,0,0,0,0,0,0,0,0,0,0,1059.13,1068.24,2,0,0.06,0.06,370,14.29,0.08,0.06,26.88,LANDED,X10-F,0:/Integrated Flight Computer/aircraft/x10_f_cfg.ks (inferred preloaded)
27.28,TAKEOFF,TO_GROUND_ROLL,138.75,80,-58.75,3.72,-0.49,0.11,0.31,90.22,0.118,1,0,0,0,0,0,0,0,0,0,0,0,0,0,0,89.84,0,1,0,-0.2,0,0,0.11,90,0,0,0,0,0,0,0,0,-0.174,0,0,3,0,0,0,69,0,0,0,89.84,1,-0.174,0.38,-0.0168,1,0,-0.0168,0,0,0,0,0,0,2,2,0,0,VALID,0,0,0,0,0,1,0,0,0,0,0,0,0,0,0,0,0,0,0,0,1070.73,1079.49,2,0,0.06,0.06,374,14.29,0.08,0.06,27.16,LANDED,X10-F,0:/Integrated Flight Computer/aircraft/x10_f_cfg.ks (inferred preloaded)
27.56,TAKEOFF,TO_GROUND_ROLL,141.68,80,-61.68,3.69,-0.54,-0.02,0.19,90.2,0.122,1,0,0,0,0,0,0,0,0,0,0,0,0,0,0,89.83,0,1,0,-0.22,0,0,0.11,90,0,0,0,0,0,0,0,0,-0.181,0,0,3,0,0,0,69,0,0,0,89.83,1,-0.181,0.369,-0.0161,1,0,-0.0161,0,0,0,0,0,0,2,2,0,0,VALID,0,0,0,0,0,1,0,0,0,0,0,0,0,0,0,0,0,0,0,0,1082.65,1091.07,2,0,0.06,0.06,378,14.29,0.08,0.06,27.44,LANDED,X10-F,0:/Integrated Flight Computer/aircraft/x10_f_cfg.ks (inferred preloaded)
27.84,TAKEOFF,TO_GROUND_ROLL,144.6,80,-64.6,3.65,-0.5,-0.05,0.15,90.18,0.133,1,0,0,0,0,0,0,0,0,0,0,0,0,0,0,89.82,0,1,0,-0.2,0,0,0.12,90,0,0,0,0,0,0,0,0,-0.189,0,0,3,0,0,0,69,0,0,0,89.82,1,-0.189,0.356,-0.0153,1,0,-0.0153,0,0,0,0,0,0,2,2,0,0,VALID,0,0,0,0,0,1,0,0,0,0,0,0,0,0,0,0,0,0,0,0,1094.77,1102.87,2,0,0.06,0.06,382,14.29,0.08,0.06,27.72,LANDED,X10-F,0:/Integrated Flight Computer/aircraft/x10_f_cfg.ks (inferred preloaded)
28.12,TAKEOFF,TO_GROUND_ROLL,147.56,80,-67.56,3.67,-0.46,-0.04,0.13,90.16,0.134,1,0,0,0,0,0,0,0,0,0,0,0,0,0,0,89.82,0,1,0,-0.18,0,0,0.12,90,0,0,0,0,0,0,0,0,-0.196,0,0,3,0,0,0,69,0,0,0,89.82,1,-0.196,0.343,-0.0146,1,0,-0.0146,0,0,0,0,0,0,2,2,0,0,VALID,0,0,0,0,0,1,0,0,0,0,0,0,0,0,0,0,0,0,0,0,1107.18,1115,2,0,0.06,0.06,386,14.29,0.08,0.06,28,LANDED,X10-F,0:/Integrated Flight Computer/aircraft/x10_f_cfg.ks (inferred preloaded)
28.4,TAKEOFF,TO_GROUND_ROLL,150.59,80,-70.59,3.67,-0.51,-0.03,0.16,90.14,0.13,1,0,0,0,0,0,0,0,0,0,0,0,0,0,0,89.81,0,1,0,-0.19,0,0,0.13,90,0,0,0,0,0,0,0,0,-0.202,0,0,3,0,0,0,69,0,0,0,89.81,1,-0.202,0.329,-0.0141,1,0,-0.0141,0,0,0,0,0,0,2,2,0,0,VALID,0,0,0,0,0,1,0,0,0,0,0,0,0,0,0,0,0,0,0,0,1120.06,1127.6,2,0,0.06,0.06,390,14.29,0.08,0.06,28.28,LANDED,X10-F,0:/Integrated Flight Computer/aircraft/x10_f_cfg.ks (inferred preloaded)
28.68,TAKEOFF,TO_GROUND_ROLL,153.65,80,-73.65,3.67,-0.47,0,0.17,90.12,0.133,1,0,0,0,0,0,0,0,0,0,0,0,0,0,0,89.81,0,1,0,-0.18,0,0,0.13,90,0,0,0,0,0,0,0,0,-0.207,0,0,3,0,0,0,69,0,0,0,89.81,1,-0.207,0.315,-0.0134,1,0,-0.0134,0,0,0,0,0,0,2,2,0,0,VALID,0,0,0,0,0,1,0,0,0,0,0,0,0,0,0,0,0,0,0,0,1133.29,1140.56,2,0,0.06,0.06,394,14.29,0.08,0.06,28.56,LANDED,X10-F,0:/Integrated Flight Computer/aircraft/x10_f_cfg.ks (inferred preloaded)
28.96,TAKEOFF,TO_GROUND_ROLL,156.75,80,-76.75,3.68,-0.48,0.02,0.19,90.1,0.131,1,0,0,0,0,0,0,0,0,0,0,0,0,0,0,89.8,0,1,0,-0.18,0,0,0.14,90,0,0,0,0,0,0,0,0,-0.212,0,0,3,0,0,0,69,0,0,0,89.8,1,-0.212,0.303,-0.013,1,0,-0.013,0,0,0,0,0,0,2,2,0,0,VALID,0,0,0,0,0,1,0,0,0,0,0,0,0,0,0,0,0,0,0,0,1146.87,1153.9,2,0,0.06,0.06,398,14.29,0.08,0.06,28.84,LANDED,X10-F,0:/Integrated Flight Computer/aircraft/x10_f_cfg.ks (inferred preloaded)
29.24,TAKEOFF,TO_GROUND_ROLL,159.9,80,-79.9,3.68,-0.48,0.02,0.19,90.09,0.128,1,0,0,0,0,0,0,0,0,0,0,0,0,0,0,89.79,0,1,0,-0.17,0,0,0.14,90,0,0,0,0,0,0,0,0,-0.216,0,0,3,0,0,0,69,0,0,0,89.79,1,-0.216,0.292,-0.0126,1,0,-0.0126,0,0,0,0,0,0,2,2,0,0,VALID,0,0,0,0,0,1,0,0,0,0,0,0,0,0,0,0,0,0,0,0,1160.82,1167.61,2,0,0.06,0.06,402,14.29,0.08,0.06,29.12,LANDED,X10-F,0:/Integrated Flight Computer/aircraft/x10_f_cfg.ks (inferred preloaded)
29.54,TAKEOFF,TO_ROTATE,163.32,80,-83.32,3.68,-0.43,0.03,0.18,90.07,0.124,1,0,0,0,0,0,0,0,0,0,0,0,0,0,0,89.79,0.742,1,0,-0.15,0,0,0.14,90,0,0,0,0,0,0,0,0,-0.22,0,0,3,0,0,0,69,0,0,0,89.79,1,-0.22,0.287,-0.0129,1,0,-0.0129,0,0.1731,0.742,0.716,0.08,0,2,2,0,0,VALID,0,0,0,0,0,1,0,0,0,0,0,0,0,0,0,0,0,0,0,0,1176.17,1182.72,2,0,0.06,0.06,406,13.33,0.08,0.06,29.4,LANDED,X10-F,0:/Integrated Flight Computer/aircraft/x10_f_cfg.ks (inferred preloaded)
29.82,TAKEOFF,TO_ROTATE,166.53,80,-86.53,3.72,-0.46,0.15,0.32,90.07,0.116,1,0,0,0,0,0,0,0,0,0,0,0,0,0,0,89.78,1.75,1,0,-0.17,0,0,0.15,90,0,0,0,0,0,0,0,0,-0.223,0,0,3,0,0,0,69,0,0,0,89.78,1,-0.223,0.284,-0.0129,1,0,-0.0129,0,0.2875,1.75,1.596,0.08,0,2,2,0,0,VALID,0,0,0,0,0,1,0,0,0,0,0,0,0,0,0,0,0,0,0,0,1190.83,1197.17,2,0,0.06,0.06,410,14.29,0.08,0.06,29.68,LANDED,X10-F,0:/Integrated Flight Computer/aircraft/x10_f_cfg.ks (inferred preloaded)
30.12,TAKEOFF,TO_ROTATE,170.03,80,-90.03,3.91,-0.46,0.68,0.83,90.06,0.11,1,0,0,0,0,0,0,0,0,0,0,0,0,0,0,89.78,2.83,1,0,-0.15,0,0,0.15,90,0,0,0,0,0,0,0,0,-0.226,0,0,3,0,0,0,69,0,0,0,89.78,1,-0.226,0.284,-0.0132,1,0,-0.0132,0,0.359,2.83,2.146,0.08,0,2,2,0,0,VALID,0,0,0,0,0,1,0,0,0,0,0,0,0,0,0,0,0,0,0,0,1207,1213.13,2,0,0.06,0.06,414,13.33,0.1,0.06,29.98,LANDED,X10-F,0:/Integrated Flight Computer/aircraft/x10_f_cfg.ks (inferred preloaded)
30.4,TAKEOFF,TO_ROTATE,173.33,80,-93.33,4.18,-0.44,1.63,1.78,90.06,0.111,1,0,0,0,0,0,0,0,0,0,0,0,0,0,0,89.77,3.838,1,0,-0.15,0,0,0.16,90,0,0,0,0,0,0,0,0,-0.229,0,0,3,0,0,0,69,0,0,0,89.77,1,-0.229,0.288,-0.0137,1,0,-0.0137,0,0.3667,3.838,2.206,0.08,0,2,2,0,0,VALID,0,0,0,0,0,1,0,0,0,0,0,0,0,0,0,0,0,0,0,0,1222.44,1228.37,2,0,0.06,0.06,418,14.29,0.08,0.06,30.26,LANDED,X10-F,0:/Integrated Flight Computer/aircraft/x10_f_cfg.ks (inferred preloaded)
30.68,TAKEOFF,TO_ROTATE,176.64,80,-96.64,4.56,-0.42,2.86,2.99,90.06,0.109,1,0,0,0,0,0,0,0,0,0,0,0,0,0,0,89.77,4.846,1,0,-0.13,0,0,0.16,90,0,0,0,0,0,0,0,0,-0.232,0,0,3,0,0,0,69,0,0,0,89.77,1,-0.232,0.296,-0.0143,1,0,-0.0143,0,0.3379,4.846,1.984,0.08,0,2,2,0,0,VALID,0,0,0,0,0,1,0,0,0,0,0,0,0,0,0,0,0,0,0,0,1238.15,1243.9,2,0,0.06,0.06,422,14.29,0.08,0.06,30.54,LANDED,X10-F,0:/Integrated Flight Computer/aircraft/x10_f_cfg.ks (inferred preloaded)
30.96,TAKEOFF,TO_ROTATE,179.96,80,-99.96,4.94,-0.25,4.08,4.17,90.06,0.098,1,0,0,0,0,0,0,0,0,0,0,0,0,0,0,89.77,5.854,1,0,-0.09,0,0,0.17,90,0,0,0,0,0,0,0,0,-0.234,0,0,3,0,0,0,69,0,0,0,89.77,1,-0.234,0.289,-0.0131,1,0,-0.0131,0,0.3104,5.854,1.772,0.08,0,2,2,0,0,VALID,0,0,0,0,0,1,0,0,0,0,0,0,0,0,0,0,0,0,0,0,1254.07,1259.63,2,0,0.06,0.06,426,14.29,0.08,0.06,30.82,LANDED,X10-F,0:/Integrated Flight Computer/aircraft/x10_f_cfg.ks (inferred preloaded)
31.24,TAKEOFF,TO_ROTATE,183.26,80,-103.26,5.38,0,5.16,5.15,90.04,0.107,1,0,0,0,0,0,0,0,0,0,0,0,0,0,0,89.78,6.862,1,0,0.01,0,0,0.17,90,0,0,0,0,0,0,0,0,-0.236,0,0,3,0,0,0,69,0,0,0,89.78,1,-0.236,0.268,-0.0111,1,0,-0.0111,0,0.3008,6.862,1.698,0.08,0,2,2,0,0,VALID,0,0,0,0,0,1,0,0,0,0,0,0,0,0,0,0,0,0,0,0,1270.08,1275.46,2,0,0.06,0.06,430,14.29,0.08,0.06,31.1,LANDED,X10-F,0:/Integrated Flight Computer/aircraft/x10_f_cfg.ks (inferred preloaded)
31.5,TAKEOFF,TO_ROTATE,186.29,80,-106.29,5.75,0.06,6.18,6.11,90.04,0.111,1,0,0,0,0,0,0,0,0,0,0,0,0,0,0,90,7.87,0,1,0.02,0,0,7.65,90,0.4827,0.0001,-0.8758,7.87,90,0,0,0,0,0,0,3,0,0,0,69,0,0,0,90,1,0,0.04,0,0,3,0,0,0,7.87,1.691,0,0,2,2,0,0,VALID,0,0,0,0,0,1,0,0,0,0,0,0,0,0,0,0,0,0,0,0,1284.96,1290.17,2,0,0.06,0.06,434,15.38,0.08,0.06,31.36,FLYING,X10-F,0:/Integrated Flight Computer/aircraft/x10_f_cfg.ks (inferred preloaded)
31.76,TAKEOFF,TO_ROTATE,189.27,80,-109.27,6.18,-0.1,7.3,7.19,90.05,0.01,1,0,0,0,0,0,0,0,0,0,0,0,0,0,0,90,8.806,0,1,-0.03,0,0,8.66,90,0.4684,0.0001,-0.8835,8.81,90,0,0,0,0,0,0,3,0,0,0,69,0,0,0,90,1,0,0.054,0,0,3,0,0,0,8.806,1.51,0,0,2,2,0,0,VALID,0,0,0,0,0,1,0,0,0,0,0,0,0,0,0,0,0,0,0,0,1299.77,1304.81,2,0,0.04,0.04,438,15.38,0.08,0.04,31.62,FLYING,X10-F,0:/Integrated Flight Computer/aircraft/x10_f_cfg.ks (inferred preloaded)
32.04,TAKEOFF,TO_ROTATE,192.36,80,-112.36,7.11,0.15,10.16,9.87,90.04,-0.074,1,0,0,0,0,0,0,0,0,0,0,0,0,0,0,90,9.814,0,1,0.05,0,0,9.6,90,0.4529,0.0001,-0.8916,9.81,90,0,0,0,0,0,0,3,0,0,0,69,0,0,0,90,1,0,0.041,0,0,3,0,0,0,9.814,-0.35,0,0,2,2,0,0,VALID,0,0,0,0,0,1,0,0,0,0,0,0,0,0,0,0,0,0,0,0,1315.3,1320.1,2,0,0.06,0.06,442,14.29,0.08,0.04,31.9,FLYING,X10-F,0:/Integrated Flight Computer/aircraft/x10_f_cfg.ks (inferred preloaded)
32.3,TAKEOFF,TO_ROTATE,194.91,80,-114.91,8.63,1.59,14.34,13.56,90.02,-0.122,1,0,0,0,0,0,0,0,0,0,0,0,0,0,0,90,10.75,0,1,0.47,0,0,10.61,90,0.4383,0.0001,-0.8988,10.75,90,0,0,0,0,0,0,3,0,0,0,69,0,0,0,90,1,0,0.025,0,0,3,0,0,0,10.75,-3.593,0,0,2,2,0,0,VALID,0,0,0,0,0,1,0,0,0,0,0,0,0,0,0,0,0,0,0,0,1328.39,1332.89,2,0,0.04,0.04,446,15.38,0.08,0.04,32.16,FLYING,X10-F,0:/Integrated Flight Computer/aircraft/x10_f_cfg.ks (inferred preloaded)
32.58,TAKEOFF,TO_ROTATE,196.95,80,-116.95,11.01,5.54,18.96,17.19,90.01,-0.152,1,0,0,0,0,0,0,0,0,0,0,0,0,0,0,90,11.5,0,1,1.61,0,0,11.5,90,0.4266,0.0001,-0.9044,11.5,90,0,0,0,0,0,0,3,0,0,0,69,0,0,0,90,1,0,0.007,0,0,3,0,0,0,11.5,-7.464,0,0,2,2,0,0,VALID,0,0,0,0,0,1,0,0,0,0,0,0,0,0,0,0,0,0,0,0,1339.19,1343.16,2,0,0.06,0.06,450,14.29,0.08,0.04,32.44,FLYING,X10-F,0:/Integrated Flight Computer/aircraft/x10_f_cfg.ks (inferred preloaded)
32.86,TAKEOFF,TO_CLIMB,198.15,80,-118.15,14.15,10.32,21.79,18.77,89.99,-0.169,0.944,0,0,0,0,0,0,0,0,0,0,0,0,0,0,90,20.182,0,1,2.98,0,0,20.35,90,0.2853,0.0003,-0.9584,20.18,90,0,0,0,0,0,0,3,0,0,0,69,0,0,0,90,1,0,-0.01,0,0,3,0,0,0,11.5,-9.074,0,0,1,1,0,0,VALID,0,0,0,0,0,1,0,0,0,0,0,0,0,0,0,0,0,0,0,0,1345.2,1349.08,2,0,0.06,0.06,454,14.29,0.08,0.06,32.72,FLYING,X10-F,0:/Integrated Flight Computer/aircraft/x10_f_cfg.ks (inferred preloaded)
33.16,TAKEOFF,TO_CLIMB,199.11,80,-119.11,18.64,15.25,23.58,19.2,89.99,-0.142,0.824,0,0,0,0,0,0,0,0,0,0,0,0,0,0,90,19.342,0,1,4.38,0,0,19.51,90,0.2994,0.0002,-0.9541,19.34,90,0,0,0,0,0,0,3,0,0,0,69,0,0,0,90,1,0,-0.009,0,0,3,0,0,0,11.5,-9.074,0,0,1,1,0,0,VALID,0,0,0,0,0,1,0,0,0,0,0,0,0,0,0,0,0,0,0,0,1338.27,1353.67,2,0,0.06,0.06,459,16.67,0.08,0.04,33.02,FLYING,X10-F,0:/Integrated Flight Computer/aircraft/x10_f_cfg.ks (inferred preloaded)
33.44,TAKEOFF,TO_CLIMB,199.94,80,-119.94,23.99,19.49,24.91,19.35,89.99,-0.128,0.82,0,0,0,0,0,0,0,0,0,0,0,0,0,0,90,18.558,0,1,5.57,0,0,18.67,90,0.3125,0.0002,-0.9499,18.56,90,0,0,0,0,0,0,3,0,0,0,69,0,0,0,90,1,0,-0.008,0,0,3,0,0,0,11.5,-9.074,0,0,1,1,0,0,VALID,0,0,0,0,0,1,0,0,0,0,0,0,0,0,0,0,0,0,0,0,1321.25,1357.46,2,0,0.04,0.04,464,17.86,0.08,0.04,33.3,FLYING,X10-F,0:/Integrated Flight Computer/aircraft/x10_f_cfg.ks (inferred preloaded)
33.7,TAKEOFF,TO_CLIMB,200.53,80,-120.53,29.93,23.48,25.75,19.1,89.99,-0.126,0.82,0,0,0,0,0,0,0,0,0,0,0,0,0,0,90,17.83,0,1,6.68,0,0,18.06,90,0.3246,0.0002,-0.9458,17.83,90,0,0,0,0,0,0,3,0,0,0,69,0,0,0,90,1,0,-0.009,0,0,3,0,0,0,11.5,-9.074,0,0,1,1,0,0,VALID,0,0,0,0,0,1,0,0,0,0,0,0,0,0,0,0,0,0,0,0,1305.55,1359.98,2,0,0.08,0.08,468,15.38,0.08,0.04,33.56,FLYING,X10-F,0:/Integrated Flight Computer/aircraft/x10_f_cfg.ks (inferred preloaded)
33.98,TAKEOFF,TO_CLIMB,201.16,80,-121.16,37.37,27.34,26.55,18.79,89.99,-0.126,0.82,0,0,0,0,0,0,0,0,0,0,0,0,0,0,90,17.046,0,1,7.74,0,0,17.27,90,0.3376,0.0002,-0.9413,17.05,90,0,0,0,0,0,0,3,0,0,0,69,0,0,0,90,1,0,-0.011,0,0,3,0,0,0,11.5,-9.074,0,0,1,1,0,0,VALID,0,0,0,0,0,1,0,0,0,0,0,0,0,0,0,0,0,0,0,0,1290.15,1362.59,2,0,0.08,0.08,472,14.29,0.08,0.06,33.84,FLYING,X10-F,0:/Integrated Flight Computer/aircraft/x10_f_cfg.ks (inferred preloaded)
34.26,TAKEOFF,TO_CLIMB,201.77,80,-121.77,45.98,31.19,27.72,18.88,89.99,-0.126,0.82,0,0,0,0,0,0,0,0,0,0,0,0,0,0,90,16.262,0,1,8.79,0,0,16.49,90,0.3506,0.0002,-0.9365,16.26,90,0,0,0,0,0,0,3,0,0,0,69,0,0,0,90,1,0,-0.014,0,0,3,0,0,0,11.5,-9.074,0,0,1,1,0,0,VALID,0,0,0,0,0,1,0,0,0,0,0,0,0,0,0,0,0,0,0,0,1276.25,1365.01,2,0,0.08,0.08,476,14.29,0.08,0.06,34.12,FLYING,X10-F,0:/Integrated Flight Computer/aircraft/x10_f_cfg.ks (inferred preloaded)
34.54,TAKEOFF,TO_CLIMB,202.25,80,-122.25,55.67,35.42,28.83,18.86,89.98,-0.131,0.82,0,0,0,0,0,0,0,0,0,0,0,0,0,0,90,15.478,0,1,9.93,0,0,15.7,90,0.3634,0.0002,-0.9316,15.48,90,0,0,0,0,0,0,3,0,0,0,69,0,0,0,90,1,0,-0.019,0,0,3,0,0,0,11.5,-9.074,0,0,1,1,0,0,VALID,0,0,0,0,0,1,0,0,0,0,0,0,0,0,0,0,0,0,0,0,1263.09,1366.62,2,0,0.08,0.08,480,14.29,0.08,0.06,34.4,FLYING,X10-F,0:/Integrated Flight Computer/aircraft/x10_f_cfg.ks (inferred preloaded)
34.82,TAKEOFF,TO_CLIMB,202.35,80,-122.35,66.18,40.51,27.73,16.51,89.98,-0.139,0.82,0,0,0,0,0,0,0,0,0,0,0,0,0,0,90,14.694,0,1,11.32,0,0,14.92,90,0.3762,0.0002,-0.9265,14.69,90,0,0,0,0,0,0,3,0,0,0,69,0,0,0,90,1,0,-0.018,0,0,3,0,0,0,11.5,-9.074,0,0,1,1,0,0,VALID,0,0,0,0,0,1,0,0,0,0,0,0,0,0,0,0,0,0,0,0,1249.43,1366.18,2,0,0.08,0.08,484,14.29,0.08,0.06,34.68,FLYING,X10-F,0:/Integrated Flight Computer/aircraft/x10_f_cfg.ks (inferred preloaded)
35.1,TAKEOFF,TO_CLIMB,203.13,80,-123.13,77.36,44,24.74,12.63,89.99,-0.155,0.82,0,0,0,0,0,0,0,0,0,0,0,0,0,0,90,13.91,0,1,12.22,0,0,14.14,90,0.389,0.0002,-0.9213,13.91,90,0,0,0,0,0,0,3,0,0,0,69,0,0,0,90,1,0,-0.015,0,0,3,0,0,0,11.5,-9.074,0,0,1,1,0,0,VALID,0,0,0,0,0,1,0,0,0,0,0,0,0,0,0,0,0,0,0,0,1239.58,1369.05,2,0,0.08,0.08,488,14.29,0.08,0.06,34.96,FLYING,X10-F,0:/Integrated Flight Computer/aircraft/x10_f_cfg.ks (inferred preloaded)
35.38,TAKEOFF,TO_CLIMB,204.77,80,-124.77,89.2,45.81,21.5,8.89,89.99,-0.178,0.82,0,0,0,0,0,0,0,0,0,0,0,0,0,0,90,13.126,0,1,12.61,0,0,13.35,90,0.4016,0.0002,-0.9158,13.13,90,0,0,0,0,0,0,3,0,0,0,69,0,0,0,90,1,0,-0.01,0,0,3,0,0,0,11.5,-9.074,0,0,1,1,0,0,VALID,0,0,0,0,0,1,0,0,0,0,0,0,0,0,0,0,0,0,0,0,1234.85,1376.29,2,0,0.08,0.08,492,14.29,0.08,0.06,35.24,FLYING,X10-F,0:/Integrated Flight Computer/aircraft/x10_f_cfg.ks (inferred preloaded)
35.66,TAKEOFF,TO_CLIMB,206.94,80,-126.94,101.71,46.72,19.7,6.9,90,-0.147,0.82,0,0,0,0,0,0,0,0,0,0,0,0,0,0,90,12.342,0,1,12.72,0,0,12.57,90,0.4142,0.0002,-0.9102,12.34,90,0,0,0,0,0,0,3,0,0,0,69,0,0,0,90,1,0,-0.004,0,0,3,0,0,0,11.5,-9.074,0,0,1,1,0,0,VALID,0,0,0,0,0,1,0,0,0,0,0,0,0,0,0,0,0,0,0,0,1233.67,1386.32,2,0,0.08,0.08,496,14.29,0.08,0.06,35.52,FLYING,X10-F,0:/Integrated Flight Computer/aircraft/x10_f_cfg.ks (inferred preloaded)
35.94,TAKEOFF,TO_CLIMB,209.32,80,-129.32,114.49,47.72,17.81,4.93,90,-0.186,0.82,0,0,0,0,0,0,0,0,0,0,0,0,0,0,90,11.558,0,1,12.84,0,0,11.78,90,0.4267,0.0001,-0.9044,11.56,90,0,0,0,0,0,0,3,0,0,0,69,0,0,0,90,1,0,-0.001,0,0,3,0,0,0,11.5,-9.074,0,0,1,1,0,0,VALID,0,0,0,0,0,1,0,0,0,0,0,0,0,0,0,0,0,0,0,0,1234.31,1397.44,2,0,0.08,0.08,500,14.29,0.08,0.06,35.8,FLYING,X10-F,0:/Integrated Flight Computer/aircraft/x10_f_cfg.ks (inferred preloaded)
36.22,TAKEOFF,TO_CLIMB,211.92,80,-131.92,127.33,47.51,15.86,3.12,90,-0.247,0.82,0,0,0,0,0,0,0,0,0,0,0,0,0,0,90,10.774,0,1,12.64,0,0,11,90,0.4391,0.0001,-0.8984,10.77,90,0,0,0,0,0,0,3,0,0,0,69,0,0,0,90,1,0,0,0,0,3,0,0,0,11.5,-9.074,0,0,1,1,0,0,VALID,0,0,0,0,0,1,0,0,0,0,0,0,0,0,0,0,0,0,0,0,1236.74,1409.81,2,0,0.08,0.08,504,14.29,0.08,0.06,36.08,FLYING,X10-F,0:/Integrated Flight Computer/aircraft/x10_f_cfg.ks (inferred preloaded)
36.5,TAKEOFF,TO_CLIMB,214.66,80,-134.66,140.23,47.06,14.59,2.13,90,-0.274,0.82,0,0,0,0,0,0,0,0,0,0,0,0,0,0,90,9.99,0,1,12.37,0,0,10.22,90,0.4515,0.0001,-0.8923,9.99,90,0,0,0,0,0,0,3,0,0,0,69,0,0,0,90,1,0,0.001,0,0,3,0,0,0,11.5,-9.074,0,0,1,1,0,0,VALID,0,0,0,0,0,1,0,0,0,0,0,0,0,0,0,0,0,0,0,0,1240.62,1423.04,2,0,0.08,0.08,508,14.29,0.08,0.06,36.36,FLYING,X10-F,0:/Integrated Flight Computer/aircraft/x10_f_cfg.ks (inferred preloaded)
36.78,TAKEOFF,TO_CLIMB,217.47,80,-137.47,152.95,46.36,13.31,1.2,90,-0.305,0.82,0,0,0,0,0,0,0,0,0,0,0,0,0,0,90,9.206,0,1,12.03,0,0,9.43,90,0.4637,0.0001,-0.886,9.21,90,0,0,0,0,0,0,3,0,0,0,69,0,0,0,90,1,0,0.003,0,0,3,0,0,0,11.5,-9.074,0,0,1,1,0,0,VALID,0,0,0,0,0,1,0,0,0,0,0,0,0,0,0,0,0,0,0,0,1245.48,1436.72,2,0,0.08,0.08,512,14.29,0.08,0.06,36.64,FLYING,X10-F,0:/Integrated Flight Computer/aircraft/x10_f_cfg.ks (inferred preloaded)
37.06,TAKEOFF,TO_CLIMB,220.34,80,-140.34,165.41,45.1,11.96,0.3,90.01,-0.364,0.82,0,0,0,0,0,0,0,0,0,0,0,0,0,0,90,8.422,0,1,11.57,0,0,8.65,90,0.4759,0.0001,-0.8795,8.42,90,0,0,0,0,0,0,3,0,0,0,69,0,0,0,90,1,0,0.006,0,0,3,0,0,0,11.5,-9.074,0,0,1,1,0,0,VALID,0,0,0,0,0,1,0,0,0,0,0,0,0,0,0,0,0,0,0,0,1251.27,1450.86,2,0,0.08,0.08,516,14.29,0.08,0.06,36.92,FLYING,X10-F,0:/Integrated Flight Computer/aircraft/x10_f_cfg.ks (inferred preloaded)
37.34,TAKEOFF,TO_CLIMB,223.29,80,-143.29,177.55,43.73,10.99,-0.17,90.01,-0.437,0.82,0,0,0,0,0,0,0,0,0,0,0,0,0,0,90,7.638,0,1,11.08,0,0,7.86,90,0.488,0.0001,-0.8729,7.64,90,0,0,0,0,0,0,3,0,0,0,69,0,0,0,90,1,0,0.008,0,0,3,0,0,0,11.5,-9.074,0,0,1,1,0,0,VALID,0,0,0,0,0,1,0,0,0,0,0,0,0,0,0,0,0,0,0,0,1257.98,1465.52,2,0,0.08,0.08,520,14.29,0.08,0.06,37.2,FLYING,X10-F,0:/Integrated Flight Computer/aircraft/x10_f_cfg.ks (inferred preloaded)
37.62,TAKEOFF,TO_CLIMB,226.3,80,-146.3,189.27,42.16,9.84,-0.77,90.01,-0.692,0.82,0,0,0,0,0,0,0,0,0,0,0,0,0,0,90,7,0,1,10.55,0,0,7.08,90,0.4977,0.0001,-0.8673,7,90,0,0,0,0,0,0,3,0,0,0,69,0,0,0,90,1,0,0.013,0,0,3,0,0,0,11.5,-9.074,0,0,1,1,0,0,VALID,0,0,0,0,0,1,0,0,0,0,0,0,0,0,0,0,0,0,0,0,1265.56,1480.66,2,0,0.08,0.08,524,14.29,0.08,0.06,37.48,FLYING,X10-F,0:/Integrated Flight Computer/aircraft/x10_f_cfg.ks (inferred preloaded)
37.9,TAKEOFF,TO_CLIMB,229.35,80,-149.35,200.6,39.9,9.39,-0.61,90.01,-0.743,0.82,0,0,0,0,0,0,0,0,0,0,0,0,0,0,90,7,0,1,9.87,0,0,7,90,0.4978,0.0001,-0.8673,7,90,0,0,0,0,0,0,3,0,0,0,69,0,0,0,90,1,0,0.014,0,0,3,0,0,0,11.5,-9.074,0,0,1,1,0,0,VALID,0,0,0,0,0,1,0,0,0,0,0,0,0,0,0,0,0,0,0,0,1273.88,1496.19,2,0,0.08,0.08,528,14.29,0.08,0.06,37.76,FLYING,X10-F,0:/Integrated Flight Computer/aircraft/x10_f_cfg.ks (inferred preloaded)
38.18,TAKEOFF,TO_CLIMB,232.47,80,-152.47,211.57,38.33,9.48,-0.02,90.01,-0.657,0.82,0,0,0,0,0,0,0,0,0,0,0,0,0,0,90,7,0,1,9.36,0,0,7,90,0.4979,0.0001,-0.8672,7,90,0,0,0,0,0,0,3,0,0,0,69,0,0,0,90,1,0,0.007,0,0,3,0,0,0,11.5,-9.074,0,0,1,1,0,0,VALID,0,0,0,0,0,1,0,0,0,0,0,0,0,0,0,0,0,0,0,0,1282.97,1512.25,2,0,0.08,0.08,532,14.29,0.08,0.06,38.04,FLYING,X10-F,0:/Integrated Flight Computer/aircraft/x10_f_cfg.ks (inferred preloaded)
38.46,TAKEOFF,TO_CLIMB,235.67,80,-155.67,222.21,37.23,9.75,0.69,90,-0.484,0.82,0,0,0,0,0,0,0,0,0,0,0,0,0,0,90,7,0,1,8.98,0,0,7,90,0.498,0.0001,-0.8672,7,90,0,0,0,0,0,0,3,0,0,0,69,0,0,0,90,1,0,0,0,0,3,0,0,0,11.5,-9.074,0,0,1,1,0,0,VALID,0,0,0,0,0,1,0,0,0,0,0,0,0,0,0,0,0,0,0,0,1292.91,1528.89,2,0,0.08,0.08,536,14.29,0.08,0.06,38.32,FLYING,X10-F,0:/Integrated Flight Computer/aircraft/x10_f_cfg.ks (inferred preloaded)
38.74,TAKEOFF,TO_CLIMB,238.92,80,-158.92,232.48,36.17,9.86,1.16,90,-0.328,0.82,0,0,0,0,0,0,0,0,0,0,0,0,0,0,90,7,0,1,8.61,0,0,7,90,0.4981,0.0001,-0.8671,7,90,0,0,0,0,0,0,3,0,0,0,69,0,0,0,90,1,0,-0.003,0,0,3,0,0,0,11.5,-9.074,0,0,1,1,0,0,VALID,0,0,0,0,0,1,0,0,0,0,0,0,0,0,0,0,0,0,0,0,1303.53,1545.96,2,0,0.08,0.08,540,14.29,0.08,0.06,38.6,FLYING,X10-F,0:/Integrated Flight Computer/aircraft/x10_f_cfg.ks (inferred preloaded)
39.02,TAKEOFF,TO_CLIMB,242.23,80,-162.23,242.52,35.39,10,1.61,90,-0.204,0.82,0,0,0,0,0,0,0,0,0,0,0,0,0,0,90,7,0,1,8.31,0,0,7,90,0.4982,0.0001,-0.8671,7,90,0,0,0,0,0,0,3,0,0,0,69,0,0,0,90,1,0,-0.004,0,0,3,0,0,0,11.5,-9.074,0,0,1,1,0,0,VALID,0,0,0,0,0,1,0,0,0,0,0,0,0,0,0,0,0,0,0,0,1314.75,1563.42,2,0,0.08,0.08,544,14.29,0.08,0.06,38.88,FLYING,X10-F,0:/Integrated Flight Computer/aircraft/x10_f_cfg.ks (inferred preloaded)
39.3,TAKEOFF,TO_CLIMB,245.57,80,-165.57,252.32,34.82,10.11,1.97,90,-0.115,0.82,0,0,0,0,0,0,0,0,0,0,0,0,0,0,90,7,0,1,8.07,0,0,7,90,0.4983,0.0001,-0.867,7,90,0,0,0,0,0,0,3,0,0,0,69,0,0,0,90,1,0,-0.003,0,0,3,0,0,0,11.5,-9.074,0,0,1,1,0,0,VALID,0,0,0,0,0,1,0,0,0,0,0,0,0,0,0,0,0,0,0,0,1326.52,1581.23,2,0,0.08,0.08,548,14.29,0.08,0.06,39.16,FLYING,X10-F,0:/Integrated Flight Computer/aircraft/x10_f_cfg.ks (inferred preloaded)
39.58,TAKEOFF,TO_CLIMB,248.96,80,-168.96,261.99,34.41,10.18,2.24,90,-0.054,0.82,0,0,0,0,0,0,0,0,0,0,0,0,0,0,90,7,0,1,7.87,0,0,7,90,0.4984,0.0001,-0.8669,7,90,0,0,0,0,0,0,3,0,0,0,69,0,0,0,90,1,0,-0.002,0,0,3,0,0,0,11.5,-9.074,0,0,1,1,0,0,VALID,0,0,0,0,0,1,0,0,0,0,0,0,0,0,0,0,0,0,0,0,1338.81,1599.39,2,0,0.08,0.08,552,14.29,0.08,0.06,39.44,FLYING,X10-F,0:/Integrated Flight Computer/aircraft/x10_f_cfg.ks (inferred preloaded)
39.86,TAKEOFF,TO_CLIMB,252.4,80,-172.4,271.55,34.19,10.23,2.46,90,-0.022,0.82,0,0,0,0,0,0,0,0,0,0,0,0,0,0,90,7,0,1,7.72,0,0,7,90,0.4985,0.0001,-0.8669,7,90,0,0,0,0,0,0,3,0,0,0,69,0,0,0,90,1,0,0,0,0,3,0,0,0,11.5,-9.074,0,0,0,0,0,0,VALID,0,0,0,0,0,1,0,0,0,0,0,0,0,0,0,0,0,0,0,0,1351.6,1617.88,2,0,0.08,0.08,556,14.29,0.08,0.06,39.74,FLYING,X10-F,0:/Integrated Flight Computer/aircraft/x10_f_cfg.ks (inferred preloaded)
