t_s,phase,subphase,ias_ms,vapp_ms,spd_err_ms,agl_m,gear_h_m,vs_ms,pitch_deg,aoa_deg,hdg_deg,bank_deg,thr_cmd,thr_cur,thr_intg,at_gain,at_tau_s,at_a_up,at_a_dn,at_kp_thr,at_ki_spd,at_thr_slew,as_cmd_deg,as_cap_deg,as_raw_deg,as_spd_err_ms,as_active,aa_hdg_cmd_deg,aa_fpa_cmd_deg,aa_fbw,aa_dir,actual_fpa_deg,ftf_hdg_err_deg,ftf_fix_idx,kos_steer_pit_deg,kos_steer_hdg_deg,aa_dir_vx,aa_dir_vy,aa_dir_vz,aa_dir_pitch_deg,aa_dir_hdg_deg,ils_loc_m,ils_gs_m,ils_dist_km,loc_corr_deg,gs_corr_deg,gs_latched,active_gs_ang_deg,ils_intercept_alt_m,d_gs_ms,fpa_preclamped_deg,gs_nom_alt_m,flare_fpa_cmd,flare_tgt_vs,flare_frac,flare_round_blend_h,flare_round_blend_ttg,flare_round_blend,flare_mode,flare_auth_limited,flare_auth_reason,flare_vs_err,flare_fpa_err,flare_pitch_err,flare_theta_cmd_raw,flare_theta_cmd_clamped,flare_theta_clamp_active,flare_aoa_clamp_active,flare_pitch_in_cmd,elev_defl_avg_deg,elev_defl_max_deg,elev_defl_n,flare_ctrl_h_m,flare_req_up_a,flare_thr_floor,flare_tecs_et_err,flare_tecs_eb_err,flare_tecs_h_ref,flare_tecs_v_ref,flare_gamma_ref,flare_gamma_eb_term,flare_gamma_unsat,steer_hdg_deg,steer_blend,ro_loc_corr_deg,ro_hdg_err_deg,ro_yaw_tgt,ro_yaw_scale,ro_yaw_gate,yaw_cmd,roll_cmd,pitch_cmd,ro_pitch_tgt_deg,ro_pitch_err_deg,ro_pitch_ff,ro_roll_assist,flaps_cur,flaps_tgt,asc_j_ab,asc_j_rk,asc_validity,asc_q_pa,asc_q_raw_pa,asc_mach,asc_apo_m,asc_drag_n,asc_w_prop,asc_edot_aero,asc_edot_orb,asc_pitch_bias,asc_blend,asc_spooling,asc_ab_thr_ratio,asc_ab_t_now,asc_ab_t_avail,asc_ab_ign_on,asc_ab_flameouts,asc_rk_t_now,asc_rk_t_avail,asc_rk_ign_on,asc_rk_flameouts,ship_thrust,ship_avail_thrust,ship_ign_on,ship_flameouts,ifc_raw_dt_s,ifc_dt_s,ifc_loop_n,ifc_hz_est,ifc_raw_dt_max_s,ifc_raw_dt_min_s,phase_el_s,status,craft_name,cfg_file
0.22,APPROACH,FLY_TO_FIX,165.17,70,-95.17,2094.79,1960.79,-11.73,-1.97,4.05,60.35,66.759,0,0,0,0,0,0,0,0,0,0,0,0,0,0,0,0,0,1,0,-4.07,0,0,0,90,0,0,0,0,0,0,0,22.749,0,0,0,3,0,0,0,1326.24,0,0,0,0,0,0,,0,NONE,0,0,0,0,0,0,0,0,0,0,0,1960.79,0,0,0,0,0,0,0,0,0,58.97,0,0,0,0,0,0,0,0,0,0,0,0,0,0,0,0,0,VALID,0,0,0,0,0,1,0,0,0,0,0,0,0,0,0,0,0,0,0,0,0,301.85,2,0,0.2,0.2,1,3.7,0.2,0.02,0.22,FLYING,CF1-J,0:/Integrated Flight Computer/aircraft/cf1_j_cfg.ks (inferred preloaded)
0.52,APPROACH,FLY_TO_FIX,164.66,70.22,-94.44,2091.29,1957.29,-11.22,-2.22,2.91,61.73,67.044,0,0,-7.558,1,0.6,1.047,0.765,0.35,0.0168,0.4,7,18.313,18.313,94.472,1,90.96,-2.48,0,0,-3.91,29.22,1,-2.44,90.9,0,0,0,0,0,0,0,22.704,0,0,0,3,0,0,0,1323.89,0,0,0,0,0,0,,0,NONE,0,0,0,0,0,0,0,0,0,0,0,1957.29,0,0,0,0,0,0,0,0,0,58.97,0,0,0,0,0,0,0,0,0,0,0,0,0,0,0,0,0,VALID,0,0,0,0,0,1,0,0,0,0,0,0,0,0,0,0,0,0,0,0,0,302.07,2,0,0.08,0.08,4,10,0.2,0.08,0.52,FLYING,CF1-J,0:/Integrated Flight Computer/aircraft/cf1_j_cfg.ks (inferred preloaded)
0.8,APPROACH,FLY_TO_FIX,164.33,70.45,-93.88,2087.76,1953.76,-12.27,-4.1,-1.13,59.49,69.47,0,0,-7.445,1,0.6,1.863,0.808,0.35,0.0168,0.4,14,18.412,18.412,93.897,1,91.16,-2.25,0,0,-4.17,31.67,1,-2.43,91.09,0,0,0,0,0,0,0,22.659,0,0,0,3,0,0,0,1321.5,0,0,0,0,0,0,,0,NONE,0,0,0,0,0,0,0,0,0,0,0,1953.76,0,0,0,0,0,0,0,0,0,58.97,0,0,0,0,0,0,0,0,0,0,0,0,0,0,0,0,0,VALID,0,0,0,0,0,1,0,0,0,0,0,0,0,0,0,0,0,0,0,0,0,302.25,2,0,0.1,0.1,7,10.71,0.1,0.08,0.8,FLYING,CF1-J,0:/Integrated Flight Computer/aircraft/cf1_j_cfg.ks (inferred preloaded)
1.06,APPROACH,FLY_TO_FIX,164.23,70.66,-93.58,2084.1,1950.1,-14.56,-5.32,-2.17,58.54,73.682,0,0,-7.334,1,0.6,2.499,0.819,0.35,0.0168,0.4,18.442,18.442,18.442,93.583,1,91.34,-1.562,0,0,-4.94,32.8,1,-1.79,91.29,0,0,0,0,0,0,0,22.616,0,0,0,3,0,0,0,1319.27,0,0,0,0,0,0,,0,NONE,0,0,0,0,0,0,0,0,0,0,0,1950.1,0,0,0,0,0,0,0,0,0,58.97,0,0,0,0,0,0,0,0,0,0,0,0,0,0,0,0,0,VALID,0,0,0,0,0,1,0,0,0,0,0,0,0,0,0,0,0,0,0,0,0,302.4,2,0,0.08,0.08,10,11.54,0.1,0.08,1.06,FLYING,CF1-J,0:/Integrated Flight Computer/aircraft/cf1_j_cfg.ks (inferred preloaded)
1.34,APPROACH,FLY_TO_FIX,164.13,70.88,-93.25,2079.53,1945.53,-17.09,-6.2,-2.41,58.5,78.982,0,0,-7.224,1,0.6,2.995,0.8,0.35,0.0168,0.4,18.471,18.471,18.471,93.254,1,91.55,-0.785,0,0,-5.82,33.04,1,-1.07,91.47,0,0,0,0,0,0,0,22.57,0,0,0,3,0,0,0,1316.86,0,0,0,0,0,0,,0,NONE,0,0,0,0,0,0,0,0,0,0,0,1945.53,0,0,0,0,0,0,0,0,0,58.97,0,0,0,0,0,0,0,0,0,0,0,0,0,0,0,0,0,VALID,0,0,0,0,0,1,0,0,0,0,0,0,0,0,0,0,0,0,0,0,0,302.58,2,0,0.1,0.1,13,10.71,0.1,0.08,1.34,FLYING,CF1-J,0:/Integrated Flight Computer/aircraft/cf1_j_cfg.ks (inferred preloaded)
1.6,APPROACH,FLY_TO_FIX,164.05,71.09,-92.96,2074.66,1940.66,-19.57,-6.91,-1.86,58.79,82.583,0,0,-7.117,1,0.6,3.382,0.768,0.35,0.0168,0.4,18.493,18.493,18.493,92.968,1,91.73,-0.019,0,0,-6.67,32.94,1,-0.26,91.68,0,0,0,0,0,0,0,22.528,0,0,0,3,0,0,0,1314.63,0,0,0,0,0,0,,0,NONE,0,0,0,0,0,0,0,0,0,0,0,1940.66,0,0,0,0,0,0,0,0,0,58.97,0,0,0,0,0,0,0,0,0,0,0,0,0,0,0,0,0,VALID,0,0,0,0,0,1,0,0,0,0,0,0,0,0,0,0,0,0,0,0,0,302.77,2,0,0.08,0.08,16,11.54,0.1,0.08,1.6,FLYING,CF1-J,0:/Integrated Flight Computer/aircraft/cf1_j_cfg.ks (inferred preloaded)
1.88,APPROACH,FLY_TO_FIX,164,71.31,-92.69,2068.68,1934.68,-22.28,-7.69,0.9,62.24,81.328,0,0,-7.01,1,0.6,3.684,0.75,0.35,0.0168,0.4,18.507,18.507,18.507,92.695,1,91.94,0.811,0,0,-7.59,29.7,1,0.51,91.86,0,0,0,0,0,0,0,22.482,0,0,0,3,0,0,0,1312.22,0,0,0,0,0,0,,0,NONE,0,0,0,0,0,0,0,0,0,0,0,1934.68,0,0,0,0,0,0,0,0,0,58.97,0,0,0,0,0,0,0,0,0,0,0,0,0,0,0,0,0,VALID,0,0,0,0,0,1,0,0,0,0,0,0,0,0,0,0,0,0,0,0,0,302.99,2,0,0.1,0.1,19,10.71,0.1,0.08,1.88,FLYING,CF1-J,0:/Integrated Flight Computer/aircraft/cf1_j_cfg.ks (inferred preloaded)
2.14,APPROACH,FLY_TO_FIX,163.94,71.52,-92.42,2062.35,1928.35,-25.28,-8.63,1.21,63.93,76.749,0,0,-6.906,1,0.6,3.919,0.75,0.35,0.0168,0.4,18.527,18.527,18.527,92.417,1,92.12,1.721,0,0,-8.6,28.19,1,1.43,92.06,0,0,0,0,0,0,0,22.439,0,0,0,3,0,0,0,1309.97,0,0,0,0,0,0,,0,NONE,0,0,0,0,0,0,0,0,0,0,0,1928.35,0,0,0,0,0,0,0,0,0,58.97,0,0,0,0,0,0,0,0,0,0,0,0,0,0,0,0,0,VALID,0,0,0,0,0,1,0,0,0,0,0,0,0,0,0,0,0,0,0,0,0,303.23,2,0,0.08,0.08,22,11.54,0.1,0.08,2.14,FLYING,CF1-J,0:/Integrated Flight Computer/aircraft/cf1_j_cfg.ks (inferred preloaded)
2.42,APPROACH,FLY_TO_FIX,164,71.74,-92.26,2054.58,1920.58,-28.96,-9.67,1.19,65.31,72.799,0,0,-6.803,1,0.6,4.104,0.75,0.35,0.0168,0.4,18.511,18.511,18.511,92.251,1,92.31,2.845,0,0,-9.83,27,1,2.43,92.24,0,0,0,0,0,0,0,22.392,0,0,0,3,0,0,0,1307.53,0,0,0,0,0,0,,0,NONE,0,0,0,0,0,0,0,0,0,0,0,1920.58,0,0,0,0,0,0,0,0,0,58.97,0,0,0,0,0,0,0,0,0,0,0,0,0,0,0,0,0,VALID,0,0,0,0,0,1,0,0,0,0,0,0,0,0,0,0,0,0,0,0,0,303.49,2,0,0.1,0.1,25,10.71,0.1,0.08,2.42,FLYING,CF1-J,0:/Integrated Flight Computer/aircraft/cf1_j_cfg.ks (inferred preloaded)
2.68,APPROACH,FLY_TO_FIX,164.14,71.95,-92.19,2046.43,1912.43,-32.49,-10.51,1.02,66.44,71.508,0,0,-6.701,1,0.6,4.249,0.75,0.35,0.0168,0.4,18.473,18.473,18.473,92.177,1,92.48,3.946,0,0,-11.02,26.04,1,3.61,92.43,0,0,0,0,0,0,0,22.348,0,0,0,3,0,0,0,1305.24,0,0,0,0,0,0,,0,NONE,0,0,0,0,0,0,0,0,0,0,0,1912.43,0,0,0,0,0,0,0,0,0,58.97,0,0,0,0,0,0,0,0,0,0,0,0,0,0,0,0,0,VALID,0,0,0,0,0,1,0,0,0,0,0,0,0,0,0,0,0,0,0,0,0,303.76,2,0,0.08,0.08,28,11.54,0.1,0.08,2.68,FLYING,CF1-J,0:/Integrated Flight Computer/aircraft/cf1_j_cfg.ks (inferred preloaded)
2.96,APPROACH,FLY_TO_FIX,164.37,72.18,-92.19,2036.63,1902.63,-36.23,-11.4,0.84,67.67,71.368,0,0,-6.601,1,0.6,4.362,0.75,0.35,0.0168,0.4,18.411,18.411,18.411,92.174,1,92.66,5,0,0,-12.26,24.99,1,4.7,92.6,0,0,0,0,0,0,0,22.301,0,0,0,3,0,0,0,1302.75,0,0,0,0,0,0,,0,NONE,0,0,0,0,0,0,0,0,0,0,0,1902.63,0,0,0,0,0,0,0,0,0,58.97,0,0,0,0,0,0,0,0,0,0,0,0,0,0,0,0,0,VALID,0,0,0,0,0,1,0,0,0,0,0,0,0,0,0,0,0,0,0,0,0,304.07,2,0,0.1,0.1,31,10.71,0.1,0.08,2.96,FLYING,CF1-J,0:/Integrated Flight Computer/aircraft/cf1_j_cfg.ks (inferred preloaded)
3.22,APPROACH,FLY_TO_FIX,164.64,72.38,-92.26,2026.61,1892.61,-39.56,-12.2,0.65,68.68,71.826,0,0,-6.503,1,0.6,4.452,0.75,0.35,0.0168,0.4,18.335,18.335,18.335,92.235,1,92.82,5,0,0,-13.35,24.14,1,5,92.77,0,0,0,0,0,0,0,22.257,0,0,0,3,0,0,0,1300.43,0,0,0,0,0,0,,0,NONE,0,0,0,0,0,0,0,0,0,0,0,1892.61,0,0,0,0,0,0,0,0,0,58.97,0,0,0,0,0,0,0,0,0,0,0,0,0,0,0,0,0,VALID,0,0,0,0,0,1,0,0,0,0,0,0,0,0,0,0,0,0,0,0,0,304.37,2,0,0.08,0.08,34,11.54,0.1,0.08,3.22,FLYING,CF1-J,0:/Integrated Flight Computer/aircraft/cf1_j_cfg.ks (inferred preloaded)
3.5,APPROACH,FLY_TO_FIX,164.98,72.61,-92.37,2014.88,1880.88,-42.95,-13.04,0.48,69.77,73.192,0,0,-6.406,1,0.6,4.5,0.75,0.35,0.0168,0.4,18.241,18.241,18.241,92.342,1,92.98,5,0,0,-14.44,23.21,1,5,92.92,0,0,0,0,0,0,0,22.209,0,0,0,3,0,0,0,1297.92,0,0,0,0,0,0,,0,NONE,0,0,0,0,0,0,0,0,0,0,0,1880.88,0,0,0,0,0,0,0,0,0,58.97,0,0,0,0,0,0,0,0,0,0,0,0,0,0,0,0,0,VALID,0,0,0,0,0,1,0,0,0,0,0,0,0,0,0,0,0,0,0,0,0,304.73,2,0,0.1,0.1,37,10.71,0.1,0.08,3.5,FLYING,CF1-J,0:/Integrated Flight Computer/aircraft/cf1_j_cfg.ks (inferred preloaded)
3.76,APPROACH,FLY_TO_FIX,165.36,72.82,-92.54,2003.16,1869.16,-45.89,-13.81,0.31,70.69,74.168,0,0,-6.31,1,0.6,4.5,0.75,0.35,0.0168,0.4,18.135,18.135,18.135,92.513,1,93.13,5,0,0,-15.37,22.44,1,5,93.09,0,0,0,0,0,0,0,22.164,0,0,0,3,0,0,0,1295.58,0,0,0,0,0,0,,0,NONE,0,0,0,0,0,0,0,0,0,0,0,1869.16,0,0,0,0,0,0,0,0,0,58.97,0,0,0,0,0,0,0,0,0,0,0,0,0,0,0,0,0,VALID,0,0,0,0,0,1,0,0,0,0,0,0,0,0,0,0,0,0,0,0,0,305.08,2,0,0.08,0.08,40,11.54,0.1,0.08,3.76,FLYING,CF1-J,0:/Integrated Flight Computer/aircraft/cf1_j_cfg.ks (inferred preloaded)
4.04,APPROACH,FLY_TO_FIX,165.83,73.04,-92.79,1989.73,1855.73,-48.85,-14.62,0.16,71.65,74.672,0,0,-6.216,1,0.6,4.5,0.75,0.35,0.0168,0.4,18.003,18.003,18.003,92.757,1,93.29,5,0,0,-16.29,21.63,1,5,93.23,0,0,0,0,0,0,0,22.116,0,0,0,3,0,0,0,1293.04,0,0,0,0,0,0,,0,NONE,0,0,0,0,0,0,0,0,0,0,0,1855.73,0,0,0,0,0,0,0,0,0,58.97,0,0,0,0,0,0,0,0,0,0,0,0,0,0,0,0,0,VALID,0,0,0,0,0,1,0,0,0,0,0,0,0,0,0,0,0,0,0,0,0,305.47,2,0,0.1,0.1,43,10.71,0.1,0.08,4.04,FLYING,CF1-J,0:/Integrated Flight Computer/aircraft/cf1_j_cfg.ks (inferred preloaded)
4.3,APPROACH,FLY_TO_FIX,166.32,73.25,-93.07,1976.54,1842.54,-51.41,-15.36,0.04,72.53,74.561,0,0,-6.123,1,0.6,4.5,0.75,0.35,0.0168,0.4,17.866,17.866,17.866,93.033,1,93.42,5,0,0,-17.06,20.9,1,5,93.38,0,0,0,0,0,0,0,22.071,0,0,0,3,0,0,0,1290.68,0,0,0,0,0,0,,0,NONE,0,0,0,0,0,0,0,0,0,0,0,1842.54,0,0,0,0,0,0,0,0,0,58.97,0,0,0,0,0,0,0,0,0,0,0,0,0,0,0,0,0,VALID,0,0,0,0,0,1,0,0,0,0,0,0,0,0,0,0,0,0,0,0,0,305.86,2,0,0.08,0.08,46,11.54,0.1,0.08,4.3,FLYING,CF1-J,0:/Integrated Flight Computer/aircraft/cf1_j_cfg.ks (inferred preloaded)
4.58,APPROACH,FLY_TO_FIX,166.89,73.47,-93.42,1961.63,1827.63,-53.97,-16.1,-0.08,73.44,73.807,0,0,-6.032,1,0.6,4.5,0.75,0.35,0.0168,0.4,17.707,17.707,17.707,93.375,1,93.57,5,0,0,-17.82,20.13,1,5,93.52,0,0,0,0,0,0,0,22.022,0,0,0,3,0,0,0,1288.12,0,0,0,0,0,0,,0,NONE,0,0,0,0,0,0,0,0,0,0,0,1827.63,0,0,0,0,0,0,0,0,0,58.97,0,0,0,0,0,0,0,0,0,0,0,0,0,0,0,0,0,VALID,0,0,0,0,0,1,0,0,0,0,0,0,0,0,0,0,0,0,0,0,0,306.3,2,0,0.1,0.1,49,10.71,0.1,0.08,4.58,FLYING,CF1-J,0:/Integrated Flight Computer/aircraft/cf1_j_cfg.ks (inferred preloaded)
4.84,APPROACH,FLY_TO_FIX,167.46,73.68,-93.78,1947.17,1813.17,-56.19,-16.76,-0.17,74.26,72.555,0,0,-5.942,1,0.6,4.5,0.75,0.35,0.0168,0.4,17.548,17.548,17.548,93.731,1,93.7,5,0,0,-18.46,19.43,1,5,93.66,0,0,0,0,0,0,0,21.977,0,0,0,3,0,0,0,1285.74,0,0,0,0,0,0,,0,NONE,0,0,0,0,0,0,0,0,0,0,0,1813.17,0,0,0,0,0,0,0,0,0,58.97,0,0,0,0,0,0,0,0,0,0,0,0,0,0,0,0,0,VALID,0,0,0,0,0,1,0,0,0,0,0,0,0,0,0,0,0,0,0,0,0,306.72,2,0,0.08,0.08,52,11.54,0.1,0.08,4.84,FLYING,CF1-J,0:/Integrated Flight Computer/aircraft/cf1_j_cfg.ks (inferred preloaded)
5.12,APPROACH,FLY_TO_FIX,168.1,73.9,-94.2,1930.99,1796.99,-58.4,-17.42,-0.26,75.13,70.686,0,0,-5.853,1,0.6,4.5,0.75,0.35,0.0168,0.4,17.366,17.366,17.366,94.151,1,93.83,5,0,0,-19.07,18.7,1,5,93.78,0,0,0,0,0,0,0,21.927,0,0,0,3,0,0,0,1283.17,0,0,0,0,0,0,,0,NONE,0,0,0,0,0,0,0,0,0,0,0,1796.99,0,0,0,0,0,0,0,0,0,58.97,0,0,0,0,0,0,0,0,0,0,0,0,0,0,0,0,0,VALID,0,0,0,0,0,1,0,0,0,0,0,0,0,0,0,0,0,0,0,0,0,307.2,2,0,0.1,0.1,55,10.71,0.1,0.08,5.12,FLYING,CF1-J,0:/Integrated Flight Computer/aircraft/cf1_j_cfg.ks (inferred preloaded)
5.38,APPROACH,FLY_TO_FIX,168.73,74.11,-94.62,1915.44,1781.44,-60.3,-18,-0.33,75.92,68.556,0,0,-5.766,1,0.6,4.5,0.75,0.35,0.0168,0.4,17.189,17.189,17.189,94.573,1,93.95,5,0,0,-19.59,18.03,1,5,93.91,0,0,0,0,0,0,0,21.882,0,0,0,3,0,0,0,1280.77,0,0,0,0,0,0,,0,NONE,0,0,0,0,0,0,0,0,0,0,0,1781.44,0,0,0,0,0,0,0,0,0,58.97,0,0,0,0,0,0,0,0,0,0,0,0,0,0,0,0,0,VALID,0,0,0,0,0,1,0,0,0,0,0,0,0,0,0,0,0,0,0,0,0,307.65,2,0,0.08,0.08,58,11.54,0.1,0.08,5.38,FLYING,CF1-J,0:/Integrated Flight Computer/aircraft/cf1_j_cfg.ks (inferred preloaded)
5.66,APPROACH,FLY_TO_FIX,169.45,74.34,-95.11,1898.17,1764.17,-62.17,-18.57,-0.4,76.76,65.95,0,0,-5.679,1,0.6,4.5,0.75,0.35,0.0168,0.4,16.989,16.989,16.989,95.059,1,94.07,5,0,0,-20.08,17.31,1,5,94.03,0,0,0,0,0,0,0,21.832,0,0,0,3,0,0,0,1278.19,0,0,0,0,0,0,,0,NONE,0,0,0,0,0,0,0,0,0,0,0,1764.17,0,0,0,0,0,0,0,0,0,58.97,0,0,0,0,0,0,0,0,0,0,0,0,0,0,0,0,0,VALID,0,0,0,0,0,1,0,0,0,0,0,0,0,0,0,0,0,0,0,0,0,308.17,2,0,0.1,0.1,61,10.71,0.1,0.08,5.66,FLYING,CF1-J,0:/Integrated Flight Computer/aircraft/cf1_j_cfg.ks (inferred preloaded)
5.94,APPROACH,FLY_TO_FIX,170.19,74.56,-95.63,1880.41,1746.41,-63.88,-19.1,-0.45,77.58,63.111,0,0,-5.595,1,0.6,4.5,0.75,0.35,0.0168,0.4,16.78,16.78,16.78,95.576,1,94.19,5,0,0,-20.52,16.61,1,5,94.16,0,0,0,0,0,0,0,21.783,0,0,0,3,0,0,0,1275.59,0,0,0,0,0,0,,0,NONE,0,0,0,0,0,0,0,0,0,0,0,1746.41,0,0,0,0,0,0,0,0,0,58.97,0,0,0,0,0,0,0,0,0,0,0,0,0,0,0,0,0,VALID,0,0,0,0,0,1,0,0,0,0,0,0,0,0,0,0,0,0,0,0,0,308.69,2,0,0.08,0.08,64,10.71,0.1,0.08,5.94,FLYING,CF1-J,0:/Integrated Flight Computer/aircraft/cf1_j_cfg.ks (inferred preloaded)
6.22,APPROACH,FLY_TO_FIX,170.96,74.78,-96.17,1862.2,1728.2,-65.43,-19.58,-0.49,78.38,60.12,0,0,-5.511,1,0.6,4.5,0.75,0.35,0.0168,0.4,16.564,16.564,16.564,96.119,1,94.31,5,0,0,-20.89,15.92,1,5,94.27,0,0,0,0,0,0,0,21.733,0,0,0,3,0,0,0,1272.98,0,0,0,0,0,0,,0,NONE,0,0,0,0,0,0,0,0,0,0,0,1728.2,0,0,0,0,0,0,0,0,0,58.97,0,0,0,0,0,0,0,0,0,0,0,0,0,0,0,0,0,VALID,0,0,0,0,0,1,0,0,0,0,0,0,0,0,0,0,0,0,0,0,0,309.24,2,0,0.1,0.1,67,10.71,0.1,0.08,6.22,FLYING,CF1-J,0:/Integrated Flight Computer/aircraft/cf1_j_cfg.ks (inferred preloaded)
6.5,APPROACH,FLY_TO_FIX,171.75,75.01,-96.74,1843.59,1709.59,-66.82,-20.01,-0.52,79.17,57.047,0,0,-5.429,1,0.6,4.5,0.75,0.35,0.0168,0.4,16.34,16.34,16.34,96.687,1,94.42,5,0,0,-21.22,15.24,1,5,94.39,0,0,0,0,0,0,0,21.683,0,0,0,3,0,0,0,1270.37,0,0,0,0,0,0,,0,NONE,0,0,0,0,0,0,0,0,0,0,0,1709.59,0,0,0,0,0,0,0,0,0,58.97,0,0,0,0,0,0,0,0,0,0,0,0,0,0,0,0,0,VALID,0,0,0,0,0,1,0,0,0,0,0,0,0,0,0,0,0,0,0,0,0,309.8,2,0,0.08,0.08,70,10.71,0.1,0.08,6.5,FLYING,CF1-J,0:/Integrated Flight Computer/aircraft/cf1_j_cfg.ks (inferred preloaded)
6.78,APPROACH,FLY_TO_FIX,172.57,75.23,-97.34,1824.62,1690.62,-68.06,-20.39,-0.55,79.95,53.956,0,0,-5.348,1,0.6,4.5,0.75,0.35,0.0168,0.4,16.111,16.111,16.111,97.278,1,94.52,5,0,0,-21.49,14.57,1,5,94.49,0,0,0,0,0,0,0,21.633,0,0,0,3,0,0,0,1267.74,0,0,0,0,0,0,,0,NONE,0,0,0,0,0,0,0,0,0,0,0,1690.62,0,0,0,0,0,0,0,0,0,58.97,0,0,0,0,0,0,0,0,0,0,0,0,0,0,0,0,0,VALID,0,0,0,0,0,1,0,0,0,0,0,0,0,0,0,0,0,0,0,0,0,310.37,2,0,0.1,0.1,73,10.71,0.1,0.08,6.78,FLYING,CF1-J,0:/Integrated Flight Computer/aircraft/cf1_j_cfg.ks (inferred preloaded)
7.06,APPROACH,FLY_TO_FIX,173.41,75.46,-97.95,1805.34,1671.34,-69.15,-20.73,-0.57,80.71,50.891,0,0,-5.268,1,0.6,4.5,0.75,0.35,0.0168,0.4,15.876,15.876,15.876,97.889,1,94.62,5,0,0,-21.71,13.92,1,5,94.6,0,0,0,0,0,0,0,21.583,0,0,0,3,0,0,0,1265.11,0,0,0,0,0,0,,0,NONE,0,0,0,0,0,0,0,0,0,0,0,1671.34,0,0,0,0,0,0,0,0,0,58.97,0,0,0,0,0,0,0,0,0,0,0,0,0,0,0,0,0,VALID,0,0,0,0,0,1,0,0,0,0,0,0,0,0,0,0,0,0,0,0,0,310.96,2,0,0.08,0.08,76,10.71,0.1,0.08,7.06,FLYING,CF1-J,0:/Integrated Flight Computer/aircraft/cf1_j_cfg.ks (inferred preloaded)
7.34,APPROACH,FLY_TO_FIX,174.26,75.68,-98.58,1785.78,1651.78,-70.1,-21.02,-0.58,81.45,47.886,0,0,-5.189,1,0.6,4.5,0.75,0.35,0.0168,0.4,15.635,15.635,15.635,98.517,1,94.72,5,0,0,-21.89,13.27,1,5,94.69,0,0,0,0,0,0,0,21.532,0,0,0,3,0,0,0,1262.47,0,0,0,0,0,0,,0,NONE,0,0,0,0,0,0,0,0,0,0,0,1651.78,0,0,0,0,0,0,0,0,0,58.97,0,0,0,0,0,0,0,0,0,0,0,0,0,0,0,0,0,VALID,0,0,0,0,0,1,0,0,0,0,0,0,0,0,0,0,0,0,0,0,0,311.56,2,0,0.1,0.1,79,10.71,0.1,0.08,7.34,FLYING,CF1-J,0:/Integrated Flight Computer/aircraft/cf1_j_cfg.ks (inferred preloaded)
7.62,APPROACH,FLY_TO_FIX,175.13,75.9,-99.22,1765.98,1631.98,-70.91,-21.26,-0.58,82.18,44.97,0,0,-5.112,1,0.6,4.5,0.75,0.35,0.0168,0.4,15.391,15.391,15.391,99.161,1,94.82,5,0,0,-22.03,12.64,1,5,94.79,0,0,0,0,0,0,0,21.482,0,0,0,3,0,0,0,1259.82,0,0,0,0,0,0,,0,NONE,0,0,0,0,0,0,0,0,0,0,0,1631.98,0,0,0,0,0,0,0,0,0,58.97,0,0,0,0,0,0,0,0,0,0,0,0,0,0,0,0,0,VALID,0,0,0,0,0,1,0,0,0,0,0,0,0,0,0,0,0,0,0,0,0,312.18,2,0,0.08,0.08,82,10.71,0.1,0.08,7.62,FLYING,CF1-J,0:/Integrated Flight Computer/aircraft/cf1_j_cfg.ks (inferred preloaded)
7.9,APPROACH,FLY_TO_FIX,176.01,76.13,-99.88,1745.99,1611.99,-71.59,-21.45,-0.58,82.88,42.169,0,0,-5.036,1,0.6,4.5,0.75,0.35,0.0168,0.4,15.142,15.142,15.142,99.818,1,94.91,5,0,0,-22.12,12.03,1,5,94.87,0,0,0,0,0,0,0,21.431,0,0,0,3,0,0,0,1257.15,0,0,0,0,0,0,,0,NONE,0,0,0,0,0,0,0,0,0,0,0,1611.99,0,0,0,0,0,0,0,0,0,58.97,0,0,0,0,0,0,0,0,0,0,0,0,0,0,0,0,0,VALID,0,0,0,0,0,1,0,0,0,0,0,0,0,0,0,0,0,0,0,0,0,312.81,2,0,0.1,0.1,85,10.71,0.1,0.08,7.9,FLYING,CF1-J,0:/Integrated Flight Computer/aircraft/cf1_j_cfg.ks (inferred preloaded)
8.18,APPROACH,FLY_TO_FIX,176.9,76.35,-100.55,1725.83,1591.83,-72.15,-21.6,-0.58,83.56,39.497,0,0,-4.961,1,0.6,4.5,0.75,0.35,0.0168,0.4,14.891,14.891,14.891,100.486,1,94.99,5,0,0,-22.18,11.43,1,5,94.97,0,0,0,0,0,0,0,21.38,0,0,0,3,0,0,0,1254.48,0,0,0,0,0,0,,0,NONE,0,0,0,0,0,0,0,0,0,0,0,1591.83,0,0,0,0,0,0,0,0,0,58.97,0,0,0,0,0,0,0,0,0,0,0,0,0,0,0,0,0,VALID,0,0,0,0,0,1,0,0,0,0,0,0,0,0,0,0,0,0,0,0,0,313.44,2,0,0.08,0.08,88,10.71,0.1,0.08,8.18,FLYING,CF1-J,0:/Integrated Flight Computer/aircraft/cf1_j_cfg.ks (inferred preloaded)
8.46,APPROACH,FLY_TO_FIX,177.8,76.58,-101.23,1705.53,1571.53,-72.58,-21.7,-0.58,84.22,36.966,0,0,-4.887,1,0.6,4.5,0.75,0.35,0.0168,0.4,14.637,14.637,14.637,101.162,1,95.08,5,0,0,-22.21,10.85,1,5,95.05,0,0,0,0,0,0,0,21.329,0,0,0,3,0,0,0,1251.8,0,0,0,0,0,0,,0,NONE,0,0,0,0,0,0,0,0,0,0,0,1571.53,0,0,0,0,0,0,0,0,0,58.97,0,0,0,0,0,0,0,0,0,0,0,0,0,0,0,0,0,VALID,0,0,0,0,0,1,0,0,0,0,0,0,0,0,0,0,0,0,0,0,0,314.09,2,0,0.1,0.1,91,10.71,0.1,0.08,8.46,FLYING,CF1-J,0:/Integrated Flight Computer/aircraft/cf1_j_cfg.ks (inferred preloaded)
8.74,APPROACH,FLY_TO_FIX,178.72,76.8,-101.92,1685.14,1551.14,-72.92,-21.79,-0.57,84.9,35.254,0,0,-4.814,1,0.6,4.5,0.75,0.35,0.0168,0.4,14.379,14.379,14.379,101.853,1,95.16,5,0,0,-22.2,10.26,1,5,95.13,0,0,0,0,0,0,0,21.277,0,0,0,3,0,0,0,1249.1,0,0,0,0,0,0,,0,NONE,0,0,0,0,0,0,0,0,0,0,0,1551.14,0,0,0,0,0,0,0,0,0,58.97,0,0,0,0,0,0,0,0,0,0,0,0,0,0,0,0,0,VALID,0,0,0,0,0,1,0,0,0,0,0,0,0,0,0,0,0,0,0,0,0,314.74,2,0,0.08,0.08,94,10.71,0.1,0.08,8.74,FLYING,CF1-J,0:/Integrated Flight Computer/aircraft/cf1_j_cfg.ks (inferred preloaded)
9.02,APPROACH,FLY_TO_FIX,179.61,77.02,-102.58,1664.68,1530.68,-73.14,-21.8,-0.56,85.49,32.872,0,0,-4.742,1,0.6,4.5,0.75,0.35,0.0168,0.4,14.129,14.129,14.129,102.52,1,95.23,5,0,0,-22.17,9.74,1,5,95.21,0,0,0,0,0,0,0,21.226,0,0,0,3,0,0,0,1246.4,0,0,0,0,0,0,,0,NONE,0,0,0,0,0,0,0,0,0,0,0,1530.68,0,0,0,0,0,0,0,0,0,58.97,0,0,0,0,0,0,0,0,0,0,0,0,0,0,0,0,0,VALID,0,0,0,0,0,1,0,0,0,0,0,0,0,0,0,0,0,0,0,0,0,315.41,2,0,0.1,0.1,97,10.71,0.1,0.08,9.02,FLYING,CF1-J,0:/Integrated Flight Computer/aircraft/cf1_j_cfg.ks (inferred preloaded)
9.3,APPROACH,FLY_TO_FIX,180.52,77.25,-103.28,1644.18,1510.18,-73.27,-21.8,-0.55,86.1,31.146,0,0,-4.671,1,0.6,4.5,0.75,0.35,0.0168,0.4,14,14,14,103.212,1,95.31,5,0,0,-22.1,9.21,1,5,95.29,0,0,0,0,0,0,0,21.174,0,0,0,3,0,0,0,1243.68,0,0,0,0,0,0,,0,NONE,0,0,0,0,0,0,0,0,0,0,0,1510.18,0,0,0,0,0,0,0,0,0,58.97,0,0,0,0,0,0,0,0,0,0,0,0,0,0,0,0,0,VALID,0,0,0,0,0,1,0,0,0,0,0,0,0,0,0,0,0,0,0,0,0,316.08,2,0,0.08,0.08,100,10.71,0.1,0.08,9.3,FLYING,CF1-J,0:/Integrated Flight Computer/aircraft/cf1_j_cfg.ks (inferred preloaded)
9.58,APPROACH,FLY_TO_FIX,181.42,77.47,-103.95,1623.66,1489.66,-73.29,-21.74,-0.54,86.66,29.162,0,0,-4.601,1,0.6,4.5,0.75,0.35,0.0168,0.4,14,14,14,103.885,1,95.38,5,0,0,-22.01,8.72,1,5,95.35,0,0,0,0,0,0,0,21.122,0,0,0,3,0,0,0,1240.95,0,0,0,0,0,0,,0,NONE,0,0,0,0,0,0,0,0,0,0,0,1489.66,0,0,0,0,0,0,0,0,0,58.97,0,0,0,0,0,0,0,0,0,0,0,0,0,0,0,0,0,VALID,0,0,0,0,0,1,0,0,0,0,0,0,0,0,0,0,0,0,0,0,0,316.77,2,0,0.1,0.1,103,10.71,0.1,0.08,9.58,FLYING,CF1-J,0:/Integrated Flight Computer/aircraft/cf1_j_cfg.ks (inferred preloaded)
9.86,APPROACH,FLY_TO_FIX,182.32,77.7,-104.63,1603.16,1469.16,-73.22,-21.66,-0.53,87.21,27.489,0,0,-4.533,1,0.6,4.5,0.75,0.35,0.0168,0.4,14,14,14,104.563,1,95.44,5,0,0,-21.9,8.24,1,5,95.43,0,0,0,0,0,0,0,21.07,0,0,0,3,0,0,0,1238.21,0,0,0,0,0,0,,0,NONE,0,0,0,0,0,0,0,0,0,0,0,1469.16,0,0,0,0,0,0,0,0,0,58.97,0,0,0,0,0,0,0,0,0,0,0,0,0,0,0,0,0,VALID,0,0,0,0,0,1,0,0,0,0,0,0,0,0,0,0,0,0,0,0,0,317.45,2,0,0.08,0.08,106,10.71,0.1,0.08,9.86,FLYING,CF1-J,0:/Integrated Flight Computer/aircraft/cf1_j_cfg.ks (inferred preloaded)
10.14,APPROACH,FLY_TO_FIX,183.22,77.92,-105.3,1582.69,1448.69,-73.06,-21.55,-0.52,87.73,25.94,0,0,-4.465,1,0.6,4.5,0.75,0.35,0.0168,0.4,14,14,14,105.236,1,95.51,5,0,0,-21.76,7.78,1,5,95.49,0,0,0,0,0,0,0,21.017,0,0,0,3,0,0,0,1235.46,0,0,0,0,0,0,,0,NONE,0,0,0,0,0,0,0,0,0,0,0,1448.69,0,0,0,0,0,0,0,0,0,58.97,0,0,0,0,0,0,0,0,0,0,0,0,0,0,0,0,0,VALID,0,0,0,0,0,1,0,0,0,0,0,0,0,0,0,0,0,0,0,0,0,318.14,2,0,0.1,0.1,109,10.71,0.1,0.08,10.14,FLYING,CF1-J,0:/Integrated Flight Computer/aircraft/cf1_j_cfg.ks (inferred preloaded)
10.42,APPROACH,FLY_TO_FIX,184.11,78.14,-105.97,1562.29,1428.29,-72.81,-21.41,-0.5,88.23,24.37,0,0,-4.398,1,0.6,4.5,0.75,0.35,0.0168,0.4,14,14,14,105.904,1,95.57,5,0,0,-21.6,7.34,1,5,95.55,0,0,0,0,0,0,0,20.964,0,0,0,3,0,0,0,1232.7,0,0,0,0,0,0,,0,NONE,0,0,0,0,0,0,0,0,0,0,0,1428.29,0,0,0,0,0,0,0,0,0,58.97,0,0,0,0,0,0,0,0,0,0,0,0,0,0,0,0,0,VALID,0,0,0,0,0,1,0,0,0,0,0,0,0,0,0,0,0,0,0,0,0,318.84,2,0,0.08,0.08,112,10.71,0.1,0.08,10.42,FLYING,CF1-J,0:/Integrated Flight Computer/aircraft/cf1_j_cfg.ks (inferred preloaded)
10.7,APPROACH,FLY_TO_FIX,185,78.37,-106.63,1541.97,1407.97,-72.47,-21.25,-0.49,88.71,23.174,0,0,-4.333,1,0.6,4.5,0.75,0.35,0.0168,0.4,14,14,14,106.571,1,95.63,5,0,0,-21.42,6.92,1,5,95.61,0,0,0,0,0,0,0,20.911,0,0,0,3,0,0,0,1229.92,0,0,0,0,0,0,,0,NONE,0,0,0,0,0,0,0,0,0,0,0,1407.97,0,0,0,0,0,0,0,0,0,58.97,0,0,0,0,0,0,0,0,0,0,0,0,0,0,0,0,0,VALID,0,0,0,0,0,1,0,0,0,0,0,0,0,0,0,0,0,0,0,0,0,319.54,2,0,0.1,0.1,115,10.71,0.1,0.08,10.7,FLYING,CF1-J,0:/Integrated Flight Computer/aircraft/cf1_j_cfg.ks (inferred preloaded)
10.98,APPROACH,FLY_TO_FIX,185.88,78.59,-107.29,1521.77,1387.77,-72.06,-21.06,-0.48,89.16,21.804,0,0,-4.268,1,0.6,4.5,0.75,0.35,0.0168,0.4,14,14,14,107.226,1,95.69,5,0,0,-21.22,6.53,1,5,95.67,0,0,0,0,0,0,0,20.858,0,0,0,3,0,0,0,1227.13,0,0,0,0,0,0,,0,NONE,0,0,0,0,0,0,0,0,0,0,0,1387.77,0,0,0,0,0,0,0,0,0,58.97,0,0,0,0,0,0,0,0,0,0,0,0,0,0,0,0,0,VALID,0,0,0,0,0,1,0,0,0,0,0,0,0,0,0,0,0,0,0,0,0,320.24,2,0,0.08,0.08,118,10.71,0.1,0.08,10.98,FLYING,CF1-J,0:/Integrated Flight Computer/aircraft/cf1_j_cfg.ks (inferred preloaded)
11.26,APPROACH,FLY_TO_FIX,186.75,78.82,-107.94,1501.69,1367.69,-71.57,-20.86,-0.47,89.6,20.73,0,0,-4.204,1,0.6,4.5,0.75,0.35,0.0168,0.4,14,14,14,107.877,1,95.74,5,0,0,-21,6.14,1,5,95.72,0,0,0,0,0,0,0,20.805,0,0,0,3,0,0,0,1224.33,0,0,0,0,0,0,,0,NONE,0,0,0,0,0,0,0,0,0,0,0,1367.69,0,0,0,0,0,0,0,0,0,58.97,0,0,0,0,0,0,0,0,0,0,0,0,0,0,0,0,0,VALID,0,0,0,0,0,1,0,0,0,0,0,0,0,0,0,0,0,0,0,0,0,320.95,2,0,0.1,0.1,121,10.71,0.1,0.08,11.26,FLYING,CF1-J,0:/Integrated Flight Computer/aircraft/cf1_j_cfg.ks (inferred preloaded)
11.54,APPROACH,FLY_TO_FIX,187.62,79.04,-108.58,1481.76,1347.76,-71.01,-20.63,-0.46,90.02,19.64,0,0,-4.142,1,0.6,4.5,0.75,0.35,0.0168,0.4,14,14,14,108.516,1,95.79,5,0,0,-20.77,5.77,1,5,95.78,0,0,0,0,0,0,0,20.751,0,0,0,3,0,0,0,1221.52,0,0,0,0,0,0,,0,NONE,0,0,0,0,0,0,0,0,0,0,0,1347.76,0,0,0,0,0,0,0,0,0,58.97,0,0,0,0,0,0,0,0,0,0,0,0,0,0,0,0,0,VALID,0,0,0,0,0,1,0,0,0,0,0,0,0,0,0,0,0,0,0,0,0,321.65,2,0,0.08,0.08,124,10.71,0.1,0.08,11.54,FLYING,CF1-J,0:/Integrated Flight Computer/aircraft/cf1_j_cfg.ks (inferred preloaded)
11.82,APPROACH,FLY_TO_FIX,188.47,79.26,-109.2,1462.01,1328.01,-70.37,-20.38,-0.45,90.41,18.552,0,0,-4.08,1,0.6,4.5,0.75,0.35,0.0168,0.4,14,14,14,109.142,1,95.84,5,0,0,-20.51,5.43,1,5,95.82,0,0,0,0,0,0,0,20.697,0,0,0,3,0,0,0,1218.69,0,0,0,0,0,0,,0,NONE,0,0,0,0,0,0,0,0,0,0,0,1328.01,0,0,0,0,0,0,0,0,0,58.97,0,0,0,0,0,0,0,0,0,0,0,0,0,0,0,0,0,VALID,0,0,0,0,0,1,0,0,0,0,0,0,0,0,0,0,0,0,0,0,0,322.35,2,0,0.1,0.1,127,10.71,0.1,0.08,11.82,FLYING,CF1-J,0:/Integrated Flight Computer/aircraft/cf1_j_cfg.ks (inferred preloaded)
12.1,APPROACH,FLY_TO_FIX,189.3,79.49,-109.81,1442.45,1308.45,-69.66,-20.11,-0.45,90.78,17.482,0,0,-4.019,1,0.6,4.5,0.75,0.35,0.0168,0.4,14,14,14,109.754,1,95.89,5,0,0,-20.24,5.11,1,5,95.88,0,0,0,0,0,0,0,20.643,0,0,0,3,0,0,0,1215.85,0,0,0,0,0,0,,0,NONE,0,0,0,0,0,0,0,0,0,0,0,1308.45,0,0,0,0,0,0,0,0,0,58.97,0,0,0,0,0,0,0,0,0,0,0,0,0,0,0,0,0,VALID,0,0,0,0,0,1,0,0,0,0,0,0,0,0,0,0,0,0,0,0,0,323.06,2,0,0.08,0.08,130,10.71,0.1,0.08,12.1,FLYING,CF1-J,0:/Integrated Flight Computer/aircraft/cf1_j_cfg.ks (inferred preloaded)
12.38,APPROACH,FLY_TO_FIX,190.12,79.71,-110.41,1423.1,1289.1,-68.88,-19.82,-0.44,91.14,16.449,0,0,-3.959,1,0.6,4.5,0.75,0.35,0.0168,0.4,14,14,14,110.351,1,95.93,5,0,0,-19.96,4.8,1,5,95.92,0,0,0,0,0,0,0,20.588,0,0,0,3,0,0,0,1213,0,0,0,0,0,0,,0,NONE,0,0,0,0,0,0,0,0,0,0,0,1289.1,0,0,0,0,0,0,0,0,0,58.97,0,0,0,0,0,0,0,0,0,0,0,0,0,0,0,0,0,VALID,0,0,0,0,0,1,0,0,0,0,0,0,0,0,0,0,0,0,0,0,0,323.76,2,0,0.1,0.1,133,10.71,0.1,0.08,12.38,FLYING,CF1-J,0:/Integrated Flight Computer/aircraft/cf1_j_cfg.ks (inferred preloaded)
12.66,APPROACH,FLY_TO_FIX,190.92,79.94,-110.99,1403.98,1269.98,-68.04,-19.52,-0.43,91.47,15.46,0,0,-3.9,1,0.6,4.5,0.75,0.35,0.0168,0.4,14,14,14,110.931,1,95.98,5,0,0,-19.66,4.51,1,5,95.96,0,0,0,0,0,0,0,20.534,0,0,0,3,0,0,0,1210.13,0,0,0,0,0,0,,0,NONE,0,0,0,0,0,0,0,0,0,0,0,1269.98,0,0,0,0,0,0,0,0,0,58.97,0,0,0,0,0,0,0,0,0,0,0,0,0,0,0,0,0,VALID,0,0,0,0,0,1,0,0,0,0,0,0,0,0,0,0,0,0,0,0,0,324.46,2,0,0.08,0.08,136,10.71,0.1,0.08,12.66,FLYING,CF1-J,0:/Integrated Flight Computer/aircraft/cf1_j_cfg.ks (inferred preloaded)
12.94,APPROACH,FLY_TO_FIX,191.71,80.16,-111.55,1385.11,1251.11,-67.14,-19.21,-0.43,91.79,14.517,0,0,-3.842,1,0.6,4.5,0.75,0.35,0.0168,0.4,14,14,14,111.495,1,96.02,5,0,0,-19.35,4.23,1,5,96,0,0,0,0,0,0,0,20.479,0,0,0,3,0,0,0,1207.25,0,0,0,0,0,0,,0,NONE,0,0,0,0,0,0,0,0,0,0,0,1251.11,0,0,0,0,0,0,0,0,0,58.97,0,0,0,0,0,0,0,0,0,0,0,0,0,0,0,0,0,VALID,0,0,0,0,0,1,0,0,0,0,0,0,0,0,0,0,0,0,0,0,0,325.15,2,0,0.1,0.1,139,10.71,0.1,0.08,12.94,FLYING,CF1-J,0:/Integrated Flight Computer/aircraft/cf1_j_cfg.ks (inferred preloaded)
13.22,APPROACH,FLY_TO_FIX,192.48,80.38,-112.09,1366.5,1232.5,-66.18,-18.88,-0.42,92.09,13.625,0,0,-3.784,1,0.6,4.5,0.75,0.35,0.0168,0.4,14,14,14,112.04,1,96.06,5,0,0,-19.02,3.97,1,5,96.04,0,0,0,0,0,0,0,20.424,0,0,0,3,0,0,0,1204.36,0,0,0,0,0,0,,0,NONE,0,0,0,0,0,0,0,0,0,0,0,1232.5,0,0,0,0,0,0,0,0,0,58.97,0,0,0,0,0,0,0,0,0,0,0,0,0,0,0,0,0,VALID,0,0,0,0,0,1,0,0,0,0,0,0,0,0,0,0,0,0,0,0,0,325.85,2,0,0.08,0.08,142,10.71,0.1,0.08,13.22,FLYING,CF1-J,0:/Integrated Flight Computer/aircraft/cf1_j_cfg.ks (inferred preloaded)
13.5,APPROACH,FLY_TO_FIX,193.23,80.61,-112.62,1348.18,1214.18,-65.16,-18.55,-0.42,92.37,12.786,0,0,-3.728,1,0.6,4.5,0.75,0.35,0.0168,0.4,14,14,14,112.566,1,96.09,5,0,0,-18.68,3.72,1,5,96.08,0,0,0,0,0,0,0,20.368,0,0,0,3,0,0,0,1201.46,0,0,0,0,0,0,,0,NONE,0,0,0,0,0,0,0,0,0,0,0,1214.18,0,0,0,0,0,0,0,0,0,58.97,0,0,0,0,0,0,0,0,0,0,0,0,0,0,0,0,0,VALID,0,0,0,0,0,1,0,0,0,0,0,0,0,0,0,0,0,0,0,0,0,326.53,2,0,0.1,0.1,145,10.71,0.1,0.08,13.5,FLYING,CF1-J,0:/Integrated Flight Computer/aircraft/cf1_j_cfg.ks (inferred preloaded)
13.78,APPROACH,FLY_TO_FIX,193.96,80.83,-113.12,1330.14,1196.14,-64.09,-18.2,-0.42,92.64,12,0,0,-3.672,1,0.6,4.5,0.75,0.35,0.0168,0.4,14,14,14,113.073,1,96.13,5,0,0,-18.34,3.49,1,5,96.12,0,0,0,0,0,0,0,20.313,0,0,0,3,0,0,0,1198.54,0,0,0,0,0,0,,0,NONE,0,0,0,0,0,0,0,0,0,0,0,1196.14,0,0,0,0,0,0,0,0,0,58.97,0,0,0,0,0,0,0,0,0,0,0,0,0,0,0,0,0,VALID,0,0,0,0,0,1,0,0,0,0,0,0,0,0,0,0,0,0,0,0,0,327.21,2,0,0.08,0.08,148,10.71,0.1,0.08,13.78,FLYING,CF1-J,0:/Integrated Flight Computer/aircraft/cf1_j_cfg.ks (inferred preloaded)
14.06,APPROACH,FLY_TO_FIX,194.67,81.06,-113.61,1312.42,1178.42,-62.97,-17.84,-0.42,92.89,11.261,0,0,-3.617,1,0.6,4.5,0.75,0.35,0.0168,0.4,14,14,14,113.56,1,96.16,5,0,0,-17.98,3.27,1,5,96.15,0,0,0,0,0,0,0,20.257,0,0,0,3,0,0,0,1195.62,0,0,0,0,0,0,,0,NONE,0,0,0,0,0,0,0,0,0,0,0,1178.42,0,0,0,0,0,0,0,0,0,58.97,0,0,0,0,0,0,0,0,0,0,0,0,0,0,0,0,0,VALID,0,0,0,0,0,1,0,0,0,0,0,0,0,0,0,0,0,0,0,0,0,327.88,2,0,0.1,0.1,151,10.71,0.1,0.08,14.06,FLYING,CF1-J,0:/Integrated Flight Computer/aircraft/cf1_j_cfg.ks (inferred preloaded)
14.34,APPROACH,FLY_TO_FIX,195.35,81.28,-114.07,1295.01,1161.01,-61.81,-17.48,-0.42,93.12,10.57,0,0,-3.563,1,0.6,4.5,0.75,0.35,0.0168,0.4,14,14,14,114.026,1,96.19,5,0,0,-17.61,3.07,1,5,96.18,0,0,0,0,0,0,0,20.201,0,0,0,3,0,0,0,1192.68,0,0,0,0,0,0,,0,NONE,0,0,0,0,0,0,0,0,0,0,0,1161.01,0,0,0,0,0,0,0,0,0,58.97,0,0,0,0,0,0,0,0,0,0,0,0,0,0,0,0,0,VALID,0,0,0,0,0,1,0,0,0,0,0,0,0,0,0,0,0,0,0,0,0,328.55,2,0,0.08,0.08,154,10.71,0.1,0.08,14.34,FLYING,CF1-J,0:/Integrated Flight Computer/aircraft/cf1_j_cfg.ks (inferred preloaded)
14.62,APPROACH,FLY_TO_FIX,196.02,81.5,-114.52,1277.94,1143.94,-60.61,-17.11,-0.42,93.34,9.926,0,0,-3.51,1,0.6,4.5,0.75,0.35,0.0168,0.4,14,14,14,114.47,1,96.22,5,0,0,-17.24,2.88,1,5,96.21,0,0,0,0,0,0,0,20.144,0,0,0,3,0,0,0,1189.73,0,0,0,0,0,0,,0,NONE,0,0,0,0,0,0,0,0,0,0,0,1143.94,0,0,0,0,0,0,0,0,0,58.97,0,0,0,0,0,0,0,0,0,0,0,0,0,0,0,0,0,VALID,0,0,0,0,0,1,0,0,0,0,0,0,0,0,0,0,0,0,0,0,0,329.2,2,0,0.1,0.1,157,10.71,0.1,0.08,14.62,FLYING,CF1-J,0:/Integrated Flight Computer/aircraft/cf1_j_cfg.ks (inferred preloaded)
14.9,APPROACH,FLY_TO_FIX,196.67,81.73,-114.94,1261.21,1127.21,-59.38,-16.73,-0.42,93.55,9.324,0,0,-3.458,1,0.6,4.5,0.75,0.35,0.0168,0.4,14,14,14,114.892,1,96.25,5,0,0,-16.85,2.7,1,5,96.24,0,0,0,0,0,0,0,20.088,0,0,0,3,0,0,0,1186.77,0,0,0,0,0,0,,0,NONE,0,0,0,0,0,0,0,0,0,0,0,1127.21,0,0,0,0,0,0,0,0,0,58.97,0,0,0,0,0,0,0,0,0,0,0,0,0,0,0,0,0,VALID,0,0,0,0,0,1,0,0,0,0,0,0,0,0,0,0,0,0,0,0,0,329.85,2,0,0.08,0.08,160,10.71,0.1,0.08,14.9,FLYING,CF1-J,0:/Integrated Flight Computer/aircraft/cf1_j_cfg.ks (inferred preloaded)
15.18,APPROACH,FLY_TO_FIX,197.29,81.95,-115.34,1244.83,1110.83,-58.1,-16.34,-0.43,93.75,8.758,0,0,-3.406,1,0.6,4.5,0.75,0.35,0.0168,0.4,14,14,14,115.291,1,96.28,5,0,0,-16.47,2.53,1,5,96.27,0,0,0,0,0,0,0,20.031,0,0,0,3,0,0,0,1183.79,0,0,0,0,0,0,,0,NONE,0,0,0,0,0,0,0,0,0,0,0,1110.83,0,0,0,0,0,0,0,0,0,58.97,0,0,0,0,0,0,0,0,0,0,0,0,0,0,0,0,0,VALID,0,0,0,0,0,1,0,0,0,0,0,0,0,0,0,0,0,0,0,0,0,330.49,2,0,0.1,0.1,163,10.71,0.1,0.08,15.18,FLYING,CF1-J,0:/Integrated Flight Computer/aircraft/cf1_j_cfg.ks (inferred preloaded)
15.46,APPROACH,FLY_TO_FIX,197.89,82.18,-115.71,1228.81,1094.81,-56.8,-15.95,-0.43,93.93,8.231,0,0,-3.355,1,0.6,4.5,0.75,0.35,0.0168,0.4,14,14,14,115.668,1,96.31,5,0,0,-16.07,2.38,1,5,96.3,0,0,0,0,0,0,0,19.974,0,0,0,3,0,0,0,1180.81,0,0,0,0,0,0,,0,NONE,0,0,0,0,0,0,0,0,0,0,0,1094.81,0,0,0,0,0,0,0,0,0,58.97,0,0,0,0,0,0,0,0,0,0,0,0,0,0,0,0,0,VALID,0,0,0,0,0,1,0,0,0,0,0,0,0,0,0,0,0,0,0,0,0,331.11,2,0,0.08,0.08,166,10.71,0.1,0.08,15.46,FLYING,CF1-J,0:/Integrated Flight Computer/aircraft/cf1_j_cfg.ks (inferred preloaded)
15.74,APPROACH,FLY_TO_FIX,198.46,82.4,-116.06,1213.17,1079.17,-55.47,-15.56,-0.44,94.1,7.737,0,0,-3.305,1,0.6,4.5,0.75,0.35,0.0168,0.4,14,14,14,116.021,1,96.33,5,0,0,-15.67,2.23,1,5,96.32,0,0,0,0,0,0,0,19.917,0,0,0,3,0,0,0,1177.81,0,0,0,0,0,0,,0,NONE,0,0,0,0,0,0,0,0,0,0,0,1079.17,0,0,0,0,0,0,0,0,0,58.97,0,0,0,0,0,0,0,0,0,0,0,0,0,0,0,0,0,VALID,0,0,0,0,0,1,0,0,0,0,0,0,0,0,0,0,0,0,0,0,0,331.73,2,0,0.1,0.1,169,10.71,0.1,0.08,15.74,FLYING,CF1-J,0:/Integrated Flight Computer/aircraft/cf1_j_cfg.ks (inferred preloaded)
16.02,APPROACH,FLY_TO_FIX,199.01,82.62,-116.39,1197.9,1063.9,-54.11,-15.16,-0.44,94.26,7.277,0,0,-3.256,1,0.6,4.5,0.75,0.35,0.0168,0.4,14,14,14,116.35,1,96.35,5,0,0,-15.27,2.1,1,5,96.35,0,0,0,0,0,0,0,19.86,0,0,0,3,0,0,0,1174.81,0,0,0,0,0,0,,0,NONE,0,0,0,0,0,0,0,0,0,0,0,1063.9,0,0,0,0,0,0,0,0,0,58.97,0,0,0,0,0,0,0,0,0,0,0,0,0,0,0,0,0,VALID,0,0,0,0,0,1,0,0,0,0,0,0,0,0,0,0,0,0,0,0,0,332.33,2,0,0.08,0.08,172,10.71,0.1,0.08,16.02,FLYING,CF1-J,0:/Integrated Flight Computer/aircraft/cf1_j_cfg.ks (inferred preloaded)
16.3,APPROACH,FLY_TO_FIX,199.54,82.85,-116.69,1183.02,1049.02,-52.73,-14.77,-0.45,94.41,6.849,0,0,-3.207,1,0.6,4.5,0.75,0.35,0.0168,0.4,14,14,14,116.655,1,96.38,5,0,0,-14.86,1.97,1,5,96.37,0,0,0,0,0,0,0,19.802,0,0,0,3,0,0,0,1171.8,0,0,0,0,0,0,,0,NONE,0,0,0,0,0,0,0,0,0,0,0,1049.02,0,0,0,0,0,0,0,0,0,58.97,0,0,0,0,0,0,0,0,0,0,0,0,0,0,0,0,0,VALID,0,0,0,0,0,1,0,0,0,0,0,0,0,0,0,0,0,0,0,0,0,332.92,2,0,0.1,0.1,175,10.71,0.1,0.08,16.3,FLYING,CF1-J,0:/Integrated Flight Computer/aircraft/cf1_j_cfg.ks (inferred preloaded)
16.58,APPROACH,FLY_TO_FIX,200.04,83.07,-116.97,1168.53,1034.53,-51.32,-14.37,-0.45,94.55,6.451,0,0,-3.159,1,0.6,4.5,0.75,0.35,0.0168,0.4,14,14,14,116.936,1,96.4,5,0,0,-14.45,1.85,1,5,96.39,0,0,0,0,0,0,0,19.745,0,0,0,3,0,0,0,1168.77,0,0,0,0,0,0,,0,NONE,0,0,0,0,0,0,0,0,0,0,0,1034.53,0,0,0,0,0,0,0,0,0,58.97,0,0,0,0,0,0,0,0,0,0,0,0,0,0,0,0,0,VALID,0,0,0,0,0,1,0,0,0,0,0,0,0,0,0,0,0,0,0,0,0,333.5,2,0,0.08,0.08,178,10.71,0.1,0.08,16.58,FLYING,CF1-J,0:/Integrated Flight Computer/aircraft/cf1_j_cfg.ks (inferred preloaded)
16.86,APPROACH,FLY_TO_FIX,200.52,83.3,-117.23,1154.43,1020.43,-49.9,-13.96,-0.46,94.68,6.078,0,0,-3.112,1,0.6,4.5,0.75,0.35,0.0168,0.4,14,14,14,117.192,1,96.42,5,0,0,-14.03,1.73,1,5,96.41,0,0,0,0,0,0,0,19.687,0,0,0,3,0,0,0,1165.74,0,0,0,0,0,0,,0,NONE,0,0,0,0,0,0,0,0,0,0,0,1020.43,0,0,0,0,0,0,0,0,0,58.97,0,0,0,0,0,0,0,0,0,0,0,0,0,0,0,0,0,VALID,0,0,0,0,0,1,0,0,0,0,0,0,0,0,0,0,0,0,0,0,0,334.06,2,0,0.1,0.1,181,10.71,0.1,0.08,16.86,FLYING,CF1-J,0:/Integrated Flight Computer/aircraft/cf1_j_cfg.ks (inferred preloaded)
17.14,APPROACH,FLY_TO_FIX,200.98,83.52,-117.46,1140.74,1006.74,-48.47,-13.56,-0.46,94.81,5.73,0,0,-3.066,1,0.6,4.5,0.75,0.35,0.0168,0.4,14,14,14,117.424,1,96.44,5,0,0,-13.62,1.63,1,5,96.43,0,0,0,0,0,0,0,19.629,0,0,0,3,0,0,0,1162.7,0,0,0,0,0,0,,0,NONE,0,0,0,0,0,0,0,0,0,0,0,1006.74,0,0,0,0,0,0,0,0,0,58.97,0,0,0,0,0,0,0,0,0,0,0,0,0,0,0,0,0,VALID,0,0,0,0,0,1,0,0,0,0,0,0,0,0,0,0,0,0,0,0,0,334.61,2,0,0.08,0.08,184,10.71,0.1,0.08,17.14,FLYING,CF1-J,0:/Integrated Flight Computer/aircraft/cf1_j_cfg.ks (inferred preloaded)
17.42,APPROACH,FLY_TO_FIX,201.4,83.74,-117.66,1127.44,993.44,-47.01,-13.15,-0.47,94.93,5.402,0,0,-3.02,1,0.6,4.5,0.75,0.35,0.0168,0.4,14,14,14,117.631,1,96.46,5,0,0,-13.2,1.53,1,5,96.45,0,0,0,0,0,0,0,19.57,0,0,0,3,0,0,0,1159.65,0,0,0,0,0,0,,0,NONE,0,0,0,0,0,0,0,0,0,0,0,993.44,0,0,0,0,0,0,0,0,0,58.97,0,0,0,0,0,0,0,0,0,0,0,0,0,0,0,0,0,VALID,0,0,0,0,0,1,0,0,0,0,0,0,0,0,0,0,0,0,0,0,0,335.14,2,0,0.1,0.1,187,10.71,0.1,0.08,17.42,FLYING,CF1-J,0:/Integrated Flight Computer/aircraft/cf1_j_cfg.ks (inferred preloaded)
17.7,APPROACH,FLY_TO_FIX,201.81,83.97,-117.84,1114.56,980.56,-45.55,-12.75,-0.48,95.04,5.092,0,0,-2.975,1,0.6,4.5,0.75,0.35,0.0168,0.4,14,14,14,117.813,1,96.47,5,0,0,-12.78,1.44,1,5,96.47,0,0,0,0,0,0,0,19.512,0,0,0,3,0,0,0,1156.59,0,0,0,0,0,0,,0,NONE,0,0,0,0,0,0,0,0,0,0,0,980.56,0,0,0,0,0,0,0,0,0,58.97,0,0,0,0,0,0,0,0,0,0,0,0,0,0,0,0,0,VALID,0,0,0,0,0,1,0,0,0,0,0,0,0,0,0,0,0,0,0,0,0,335.66,2,0,0.08,0.08,190,10.71,0.1,0.08,17.7,FLYING,CF1-J,0:/Integrated Flight Computer/aircraft/cf1_j_cfg.ks (inferred preloaded)
17.98,APPROACH,FLY_TO_FIX,202.19,84.19,-118,1102.09,968.09,-44.07,-12.34,-0.49,95.14,4.801,0,0,-2.931,1,0.6,4.5,0.75,0.35,0.0168,0.4,14,14,14,117.97,1,96.49,5,0,0,-12.36,1.35,1,5,96.49,0,0,0,0,0,0,0,19.454,0,0,0,3,0,0,0,1153.52,0,0,0,0,0,0,,0,NONE,0,0,0,0,0,0,0,0,0,0,0,968.09,0,0,0,0,0,0,0,0,0,58.97,0,0,0,0,0,0,0,0,0,0,0,0,0,0,0,0,0,VALID,0,0,0,0,0,1,0,0,0,0,0,0,0,0,0,0,0,0,0,0,0,336.16,2,0,0.1,0.1,193,10.71,0.1,0.08,17.98,FLYING,CF1-J,0:/Integrated Flight Computer/aircraft/cf1_j_cfg.ks (inferred preloaded)
18.26,APPROACH,FLY_TO_FIX,202.54,84.42,-118.13,1090.04,956.04,-42.68,-11.93,-0.45,95.24,4.524,0,0,-2.887,1,0.6,4.5,0.75,0.35,0.0168,0.4,14,14,14,118.102,1,96.51,5,0,0,-11.94,1.27,1,5,96.5,0,0,0,0,0,0,0,19.395,0,0,0,3,0,0,0,1150.45,0,0,0,0,0,0,,0,NONE,0,0,0,0,0,0,0,0,0,0,0,956.04,0,0,0,0,0,0,0,0,0,58.97,0,0,0,0,0,0,0,0,0,0,0,0,0,0,0,0,0,VALID,0,0,0,0,0,1,0,0,0,0,0,0,0,0,0,0,0,0,0,0,0,336.65,2,0,0.08,0.08,196,10.71,0.1,0.08,18.26,FLYING,CF1-J,0:/Integrated Flight Computer/aircraft/cf1_j_cfg.ks (inferred preloaded)
18.54,APPROACH,FLY_TO_FIX,202.85,84.64,-118.21,1078.64,944.64,-40.1,-10.51,0.3,95.39,3.958,0,0,-2.844,1,0.6,4.5,0.75,0.35,0.0168,0.4,14,14,14,118.188,1,96.52,5,0,0,-11.31,1.13,1,5,96.52,0,0,0,0,0,0,0,19.336,0,0,0,3,0,0,0,1147.37,0,0,0,0,0,0,,0,NONE,0,0,0,0,0,0,0,0,0,0,0,944.64,0,0,0,0,0,0,0,0,0,58.97,0,0,0,0,0,0,0,0,0,0,0,0,0,0,0,0,0,VALID,0,0,0,0,0,1,0,0,0,0,0,0,0,0,0,0,0,0,0,0,0,337.12,2,0,0.1,0.1,199,10.71,0.1,0.08,18.54,FLYING,CF1-J,0:/Integrated Flight Computer/aircraft/cf1_j_cfg.ks (inferred preloaded)
18.82,APPROACH,FLY_TO_FIX,203.07,84.86,-118.21,1067.91,933.91,-37.41,-9.92,0.16,95.47,3.531,0,0,-2.801,1,0.6,4.5,0.75,0.35,0.0168,0.4,14,14,14,118.193,1,96.54,5,0,0,-10.55,1.06,1,5,96.53,0,0,0,0,0,0,0,19.277,0,0,0,3,0,0,0,1144.28,0,0,0,0,0,0,,0,NONE,0,0,0,0,0,0,0,0,0,0,0,933.91,0,0,0,0,0,0,0,0,0,58.97,0,0,0,0,0,0,0,0,0,0,0,0,0,0,0,0,0,VALID,0,0,0,0,0,1,0,0,0,0,0,0,0,0,0,0,0,0,0,0,0,337.56,2,0,0.08,0.08,202,10.71,0.1,0.08,18.82,FLYING,CF1-J,0:/Integrated Flight Computer/aircraft/cf1_j_cfg.ks (inferred preloaded)
19.1,APPROACH,FLY_TO_FIX,203.27,85,-118.27,1057.92,923.92,-34.83,-9.33,0.04,95.56,3.218,0,0,-2.76,1,0.6,4.5,0.75,0.35,0.0168,0.4,14,14,14,118.253,1,96.55,5,0,0,-9.82,1,1,5,96.55,0,0,0,0,0,0,0,19.218,0,0,0,3,0,0,0,1141.19,0,0,0,0,0,0,,0,NONE,0,0,0,0,0,0,0,0,0,0,0,923.92,0,0,0,0,0,0,0,0,0,58.97,0,0,0,0,0,0,0,0,0,0,0,0,0,0,0,0,0,VALID,0,0,0,0,0,1,0,0,0,0,0,0,0,0,0,0,0,0,0,0,0,337.97,2,0,0.1,0.1,205,10.71,0.1,0.08,19.1,FLYING,CF1-J,0:/Integrated Flight Computer/aircraft/cf1_j_cfg.ks (inferred preloaded)
19.38,APPROACH,FLY_TO_FIX,203.43,85,-118.43,1048.62,914.62,-32.43,-8.77,-0.06,95.63,2.986,0,0,-2.718,1,0.6,4.5,0.75,0.35,0.0168,0.4,14,14,14,118.415,1,96.56,5,0,0,-9.15,0.93,1,5,96.56,0,0,0,0,0,0,0,19.159,0,0,0,3,0,0,0,1138.08,0,0,0,0,0,0,,0,NONE,0,0,0,0,0,0,0,0,0,0,0,914.62,0,0,0,0,0,0,0,0,0,58.97,0,0,0,0,0,0,0,0,0,0,0,0,0,0,0,0,0,VALID,0,0,0,0,0,1,0,0,0,0,0,0,0,0,0,0,0,0,0,0,0,338.35,2,0,0.08,0.08,208,10.71,0.1,0.08,19.38,FLYING,CF1-J,0:/Integrated Flight Computer/aircraft/cf1_j_cfg.ks (inferred preloaded)
19.66,APPROACH,FLY_TO_FIX,203.55,85,-118.55,1039.96,905.96,-30.18,-8.26,-0.15,95.7,2.81,0,0,-2.678,1,0.6,4.5,0.75,0.35,0.0168,0.4,14,14,14,118.545,1,96.58,5,0,0,-8.52,0.88,1,5,96.57,0,0,0,0,0,0,0,19.1,0,0,0,3,0,0,0,1134.98,0,0,0,0,0,0,,0,NONE,0,0,0,0,0,0,0,0,0,0,0,905.96,0,0,0,0,0,0,0,0,0,58.97,0,0,0,0,0,0,0,0,0,0,0,0,0,0,0,0,0,VALID,0,0,0,0,0,1,0,0,0,0,0,0,0,0,0,0,0,0,0,0,0,338.7,2,0,0.1,0.1,211,10.71,0.1,0.08,19.66,FLYING,CF1-J,0:/Integrated Flight Computer/aircraft/cf1_j_cfg.ks (inferred preloaded)
19.94,APPROACH,FLY_TO_FIX,203.65,85,-118.65,1031.9,897.9,-28.08,-7.78,-0.23,95.76,2.67,0,0,-2.638,1,0.6,4.5,0.75,0.35,0.0168,0.4,14,14,14,118.646,1,96.59,5,0,0,-7.93,0.82,1,5,96.58,0,0,0,0,0,0,0,19.04,0,0,0,3,0,0,0,1131.87,0,0,0,0,0,0,,0,NONE,0,0,0,0,0,0,0,0,0,0,0,897.9,0,0,0,0,0,0,0,0,0,58.97,0,0,0,0,0,0,0,0,0,0,0,0,0,0,0,0,0,VALID,0,0,0,0,0,1,0,0,0,0,0,0,0,0,0,0,0,0,0,0,0,339.04,2,0,0.08,0.08,214,10.71,0.1,0.08,19.94,FLYING,CF1-J,0:/Integrated Flight Computer/aircraft/cf1_j_cfg.ks (inferred preloaded)
20.22,APPROACH,FLY_TO_FIX,203.72,85,-118.72,1024.4,890.4,-26.13,-7.33,-0.32,95.82,2.556,0,0,-2.598,1,0.6,4.5,0.75,0.35,0.0168,0.4,14,14,14,118.717,1,96.6,5,0,0,-7.38,0.78,1,5,96.6,0,0,0,0,0,0,0,18.981,0,0,0,3,0,0,0,1128.75,0,0,0,0,0,0,,0,NONE,0,0,0,0,0,0,0,0,0,0,0,890.4,0,0,0,0,0,0,0,0,0,58.97,0,0,0,0,0,0,0,0,0,0,0,0,0,0,0,0,0,VALID,0,0,0,0,0,1,0,0,0,0,0,0,0,0,0,0,0,0,0,0,0,339.34,2,0,0.1,0.1,217,10.71,0.1,0.08,20.22,FLYING,CF1-J,0:/Integrated Flight Computer/aircraft/cf1_j_cfg.ks (inferred preloaded)
20.5,APPROACH,FLY_TO_FIX,203.76,85,-118.76,1017.43,883.43,-24.31,-6.92,-0.39,95.87,2.463,0,0,-2.56,1,0.6,4.5,0.75,0.35,0.0168,0.4,14,14,14,118.763,1,96.61,5,0,0,-6.87,0.74,1,5,96.61,0,0,0,0,0,0,0,18.921,0,0,0,3,0,0,0,1125.63,0,0,0,0,0,0,,0,NONE,0,0,0,0,0,0,0,0,0,0,0,883.43,0,0,0,0,0,0,0,0,0,58.97,0,0,0,0,0,0,0,0,0,0,0,0,0,0,0,0,0,VALID,0,0,0,0,0,1,0,0,0,0,0,0,0,0,0,0,0,0,0,0,0,339.63,2,0,0.08,0.08,220,10.71,0.1,0.08,20.5,FLYING,CF1-J,0:/Integrated Flight Computer/aircraft/cf1_j_cfg.ks (inferred preloaded)
20.78,APPROACH,FLY_TO_FIX,203.78,85,-118.78,1010.94,876.94,-22.62,-6.53,-0.46,95.92,2.382,0,0,-2.521,1,0.6,4.5,0.75,0.35,0.0168,0.4,14,14,14,118.783,1,96.62,5,0,0,-6.4,0.7,1,5,96.62,0,0,0,0,0,0,0,18.862,0,0,0,3,0,0,0,1122.51,0,0,0,0,0,0,,0,NONE,0,0,0,0,0,0,0,0,0,0,0,876.94,0,0,0,0,0,0,0,0,0,58.97,0,0,0,0,0,0,0,0,0,0,0,0,0,0,0,0,0,VALID,0,0,0,0,0,1,0,0,0,0,0,0,0,0,0,0,0,0,0,0,0,339.9,2,0,0.1,0.1,223,10.71,0.1,0.08,20.78,FLYING,CF1-J,0:/Integrated Flight Computer/aircraft/cf1_j_cfg.ks (inferred preloaded)
21.06,APPROACH,FLY_TO_FIX,203.78,85,-118.78,1004.9,870.9,-21.05,-6.17,-0.52,95.97,2.308,0,0,-2.484,1,0.6,4.5,0.75,0.35,0.0168,0.4,14,14,14,118.781,1,96.63,5,0,0,-5.96,0.66,1,5,96.63,0,0,0,0,0,0,0,18.802,0,0,0,3,0,0,0,1119.39,0,0,0,0,0,0,,0,NONE,0,0,0,0,0,0,0,0,0,0,0,870.9,0,0,0,0,0,0,0,0,0,58.97,0,0,0,0,0,0,0,0,0,0,0,0,0,0,0,0,0,VALID,0,0,0,0,0,1,0,0,0,0,0,0,0,0,0,0,0,0,0,0,0,340.15,2,0,0.08,0.08,226,10.71,0.1,0.08,21.06,FLYING,CF1-J,0:/Integrated Flight Computer/aircraft/cf1_j_cfg.ks (inferred preloaded)
21.34,APPROACH,FLY_TO_FIX,203.75,85,-118.75,999.28,865.28,-19.58,-5.84,-0.58,96.01,2.239,0,0,-2.447,1,0.6,4.5,0.75,0.35,0.0168,0.4,14,14,14,118.756,1,96.64,5,0,0,-5.55,0.63,1,5,96.64,0,0,0,0,0,0,0,18.743,0,0,0,3,0,0,0,1116.27,0,0,0,0,0,0,,0,NONE,0,0,0,0,0,0,0,0,0,0,0,865.28,0,0,0,0,0,0,0,0,0,58.97,0,0,0,0,0,0,0,0,0,0,0,0,0,0,0,0,0,VALID,0,0,0,0,0,1,0,0,0,0,0,0,0,0,0,0,0,0,0,0,0,340.38,2,0,0.1,0.1,229,10.71,0.1,0.08,21.34,FLYING,CF1-J,0:/Integrated Flight Computer/aircraft/cf1_j_cfg.ks (inferred preloaded)
21.62,APPROACH,FLY_TO_FIX,203.71,85,-118.71,994.05,860.05,-18.23,-5.53,-0.64,96.05,2.174,0,0,-2.41,1,0.6,4.5,0.75,0.35,0.0168,0.4,14,14,14,118.712,1,96.65,5,0,0,-5.17,0.6,1,5,96.65,0,0,0,0,0,0,0,18.683,0,0,0,3,0,0,0,1113.15,0,0,0,0,0,0,,0,NONE,0,0,0,0,0,0,0,0,0,0,0,860.05,0,0,0,0,0,0,0,0,0,58.97,0,0,0,0,0,0,0,0,0,0,0,0,0,0,0,0,0,VALID,0,0,0,0,0,1,0,0,0,0,0,0,0,0,0,0,0,0,0,0,0,340.59,2,0,0.08,0.08,232,10.71,0.1,0.08,21.62,FLYING,CF1-J,0:/Integrated Flight Computer/aircraft/cf1_j_cfg.ks (inferred preloaded)
21.9,APPROACH,FLY_TO_FIX,203.64,85,-118.64,989.18,855.18,-16.97,-5.25,-0.69,96.09,2.112,0,0,-2.374,1,0.6,4.5,0.75,0.35,0.0168,0.4,14,14,14,118.648,1,96.66,4.793,0,0,-4.81,0.57,1,4.92,96.65,0,0,0,0,0,0,0,18.624,0,0,0,3,0,0,0,1110.03,0,0,0,0,0,0,,0,NONE,0,0,0,0,0,0,0,0,0,0,0,855.18,0,0,0,0,0,0,0,0,0,58.97,0,0,0,0,0,0,0,0,0,0,0,0,0,0,0,0,0,VALID,0,0,0,0,0,1,0,0,0,0,0,0,0,0,0,0,0,0,0,0,0,340.8,2,0,0.1,0.1,235,10.71,0.1,0.08,21.9,FLYING,CF1-J,0:/Integrated Flight Computer/aircraft/cf1_j_cfg.ks (inferred preloaded)
22.18,APPROACH,FLY_TO_FIX,203.56,85,-118.56,984.65,850.65,-15.8,-4.98,-0.73,96.12,2.051,0,0,-2.339,1,0.6,4.5,0.75,0.35,0.0168,0.4,14,14,14,118.567,1,96.67,4.461,0,0,-4.48,0.54,1,4.56,96.66,0,0,0,0,0,0,0,18.564,0,0,0,3,0,0,0,1106.91,0,0,0,0,0,0,,0,NONE,0,0,0,0,0,0,0,0,0,0,0,850.65,0,0,0,0,0,0,0,0,0,58.97,0,0,0,0,0,0,0,0,0,0,0,0,0,0,0,0,0,VALID,0,0,0,0,0,1,0,0,0,0,0,0,0,0,0,0,0,0,0,0,0,340.98,2,0,0.08,0.08,238,10.71,0.1,0.08,22.18,FLYING,CF1-J,0:/Integrated Flight Computer/aircraft/cf1_j_cfg.ks (inferred preloaded)
22.46,APPROACH,FLY_TO_FIX,203.46,85,-118.46,980.43,846.43,-14.71,-4.73,-0.78,96.16,1.991,0,0,-2.304,1,0.6,4.5,0.75,0.35,0.0168,0.4,14,14,14,118.47,1,96.67,4.152,0,0,-4.18,0.52,1,4.26,96.67,0,0,0,0,0,0,0,18.505,0,0,0,3,0,0,0,1103.79,0,0,0,0,0,0,,0,NONE,0,0,0,0,0,0,0,0,0,0,0,846.43,0,0,0,0,0,0,0,0,0,58.97,0,0,0,0,0,0,0,0,0,0,0,0,0,0,0,0,0,VALID,0,0,0,0,0,1,0,0,0,0,0,0,0,0,0,0,0,0,0,0,0,341.16,2,0,0.1,0.1,241,10.71,0.1,0.08,22.46,FLYING,CF1-J,0:/Integrated Flight Computer/aircraft/cf1_j_cfg.ks (inferred preloaded)
22.74,APPROACH,FLY_TO_FIX,203.35,85,-118.35,976.5,842.5,-13.7,-4.5,-0.82,96.19,1.93,0,0,-2.27,1,0.6,4.5,0.75,0.35,0.0168,0.4,14,14,14,118.357,1,96.68,3.867,0,0,-3.89,0.49,1,3.95,96.68,0,0,0,0,0,0,0,18.445,0,0,0,3,0,0,0,1100.67,0,0,0,0,0,0,,0,NONE,0,0,0,0,0,0,0,0,0,0,0,842.5,0,0,0,0,0,0,0,0,0,58.97,0,0,0,0,0,0,0,0,0,0,0,0,0,0,0,0,0,VALID,0,0,0,0,0,1,0,0,0,0,0,0,0,0,0,0,0,0,0,0,0,341.32,2,0,0.08,0.08,244,10.71,0.1,0.08,22.74,FLYING,CF1-J,0:/Integrated Flight Computer/aircraft/cf1_j_cfg.ks (inferred preloaded)
23.02,APPROACH,FLY_TO_FIX,203.22,85,-118.22,972.84,838.84,-12.76,-4.29,-0.85,96.22,1.871,0,0,-2.236,1,0.6,4.5,0.75,0.35,0.0168,0.4,14,14,14,118.23,1,96.69,3.601,0,0,-3.63,0.47,1,3.7,96.69,0,0,0,0,0,0,0,18.386,0,0,0,3,0,0,0,1097.55,0,0,0,0,0,0,,0,NONE,0,0,0,0,0,0,0,0,0,0,0,838.84,0,0,0,0,0,0,0,0,0,58.97,0,0,0,0,0,0,0,0,0,0,0,0,0,0,0,0,0,VALID,0,0,0,0,0,1,0,0,0,0,0,0,0,0,0,0,0,0,0,0,0,341.47,2,0,0.1,0.1,247,10.71,0.1,0.08,23.02,FLYING,CF1-J,0:/Integrated Flight Computer/aircraft/cf1_j_cfg.ks (inferred preloaded)
23.3,APPROACH,FLY_TO_FIX,203.08,85,-118.08,969.43,835.43,-11.89,-4.09,-0.88,96.25,1.812,0,0,-2.202,1,0.6,4.5,0.75,0.35,0.0168,0.4,14,14,14,118.09,1,96.7,3.354,0,0,-3.39,0.45,1,3.42,96.7,0,0,0,0,0,0,0,18.326,0,0,0,3,0,0,0,1094.44,0,0,0,0,0,0,,0,NONE,0,0,0,0,0,0,0,0,0,0,0,835.43,0,0,0,0,0,0,0,0,0,58.97,0,0,0,0,0,0,0,0,0,0,0,0,0,0,0,0,0,VALID,0,0,0,0,0,1,0,0,0,0,0,0,0,0,0,0,0,0,0,0,0,341.61,2,0,0.08,0.08,250,10.71,0.1,0.08,23.3,FLYING,CF1-J,0:/Integrated Flight Computer/aircraft/cf1_j_cfg.ks (inferred preloaded)
23.58,APPROACH,FLY_TO_FIX,202.93,85,-117.93,966.25,832.25,-11.09,-3.9,-0.91,96.28,1.753,0,0,-2.169,1,0.6,4.5,0.75,0.35,0.0168,0.4,14,14,14,117.938,1,96.7,3.126,0,0,-3.16,0.43,1,3.21,96.7,0,0,0,0,0,0,0,18.267,0,0,0,3,0,0,0,1091.33,0,0,0,0,0,0,,0,NONE,0,0,0,0,0,0,0,0,0,0,0,832.25,0,0,0,0,0,0,0,0,0,58.97,0,0,0,0,0,0,0,0,0,0,0,0,0,0,0,0,0,VALID,0,0,0,0,0,1,0,0,0,0,0,0,0,0,0,0,0,0,0,0,0,341.74,2,0,0.1,0.1,253,10.71,0.1,0.08,23.58,FLYING,CF1-J,0:/Integrated Flight Computer/aircraft/cf1_j_cfg.ks (inferred preloaded)
23.86,APPROACH,FLY_TO_FIX,202.76,85,-117.76,963.29,829.29,-10.33,-3.73,-0.94,96.3,1.694,0,0,-2.137,1,0.6,4.5,0.75,0.35,0.0168,0.4,14,14,14,117.775,1,96.71,2.913,0,0,-2.95,0.41,1,2.97,96.71,0,0,0,0,0,0,0,18.208,0,0,0,3,0,0,0,1088.22,0,0,0,0,0,0,,0,NONE,0,0,0,0,0,0,0,0,0,0,0,829.29,0,0,0,0,0,0,0,0,0,58.97,0,0,0,0,0,0,0,0,0,0,0,0,0,0,0,0,0,VALID,0,0,0,0,0,1,0,0,0,0,0,0,0,0,0,0,0,0,0,0,0,341.87,2,0,0.08,0.08,256,10.71,0.1,0.08,23.86,FLYING,CF1-J,0:/Integrated Flight Computer/aircraft/cf1_j_cfg.ks (inferred preloaded)
24.14,APPROACH,FLY_TO_FIX,202.59,85,-117.59,960.53,826.53,-9.64,-3.57,-0.96,96.33,1.637,0,0,-2.105,1,0.6,4.5,0.75,0.35,0.0168,0.4,14,14,14,117.601,1,96.72,2.716,0,0,-2.75,0.39,1,2.79,96.72,0,0,0,0,0,0,0,18.148,0,0,0,3,0,0,0,1085.11,0,0,0,0,0,0,,0,NONE,0,0,0,0,0,0,0,0,0,0,0,826.53,0,0,0,0,0,0,0,0,0,58.97,0,0,0,0,0,0,0,0,0,0,0,0,0,0,0,0,0,VALID,0,0,0,0,0,1,0,0,0,0,0,0,0,0,0,0,0,0,0,0,0,341.98,2,0,0.1,0.1,259,10.71,0.1,0.08,24.14,FLYING,CF1-J,0:/Integrated Flight Computer/aircraft/cf1_j_cfg.ks (inferred preloaded)
24.42,APPROACH,FLY_TO_FIX,202.4,85,-117.4,957.95,823.95,-8.99,-3.42,-0.99,96.35,1.58,0,0,-2.074,1,0.6,4.5,0.75,0.35,0.0168,0.4,14,14,14,117.418,1,96.72,2.532,0,0,-2.57,0.37,1,2.58,96.72,0,0,0,0,0,0,0,18.089,0,0,0,3,0,0,0,1082.01,0,0,0,0,0,0,,0,NONE,0,0,0,0,0,0,0,0,0,0,0,823.95,0,0,0,0,0,0,0,0,0,58.97,0,0,0,0,0,0,0,0,0,0,0,0,0,0,0,0,0,VALID,0,0,0,0,0,1,0,0,0,0,0,0,0,0,0,0,0,0,0,0,0,342.09,2,0,0.08,0.08,262,10.71,0.1,0.08,24.42,FLYING,CF1-J,0:/Integrated Flight Computer/aircraft/cf1_j_cfg.ks (inferred preloaded)
24.7,APPROACH,FLY_TO_FIX,202.21,85,-117.21,955.55,821.55,-8.39,-3.28,-1.01,96.38,1.523,0,0,-2.043,1,0.6,4.5,0.75,0.35,0.0168,0.4,14,14,14,117.225,1,96.73,2.362,0,0,-2.4,0.35,1,2.42,96.73,0,0,0,0,0,0,0,18.03,0,0,0,3,0,0,0,1078.9,0,0,0,0,0,0,,0,NONE,0,0,0,0,0,0,0,0,0,0,0,821.55,0,0,0,0,0,0,0,0,0,58.97,0,0,0,0,0,0,0,0,0,0,0,0,0,0,0,0,0,VALID,0,0,0,0,0,1,0,0,0,0,0,0,0,0,0,0,0,0,0,0,0,342.19,2,0,0.1,0.1,265,10.71,0.1,0.08,24.7,FLYING,CF1-J,0:/Integrated Flight Computer/aircraft/cf1_j_cfg.ks (inferred preloaded)
24.98,APPROACH,FLY_TO_FIX,202.01,85,-117.01,953.3,819.3,-7.83,-3.15,-1.03,96.4,1.467,0,0,-2.012,1,0.6,4.5,0.75,0.35,0.0168,0.4,14,14,14,117.025,1,96.74,2.204,0,0,-2.24,0.34,1,2.25,96.73,0,0,0,0,0,0,0,17.971,0,0,0,3,0,0,0,1075.81,0,0,0,0,0,0,,0,NONE,0,0,0,0,0,0,0,0,0,0,0,819.3,0,0,0,0,0,0,0,0,0,58.97,0,0,0,0,0,0,0,0,0,0,0,0,0,0,0,0,0,VALID,0,0,0,0,0,1,0,0,0,0,0,0,0,0,0,0,0,0,0,0,0,342.28,2,0,0.08,0.08,268,10.71,0.1,0.08,24.98,FLYING,CF1-J,0:/Integrated Flight Computer/aircraft/cf1_j_cfg.ks (inferred preloaded)
25.26,APPROACH,FLY_TO_FIX,201.8,85,-116.8,951.21,817.21,-7.31,-3.03,-1.04,96.42,1.413,0,0,-1.982,1,0.6,4.5,0.75,0.35,0.0168,0.4,14,14,14,116.816,1,96.74,2.056,0,0,-2.09,0.32,1,2.11,96.74,0,0,0,0,0,0,0,17.912,0,0,0,3,0,0,0,1072.71,0,0,0,0,0,0,,0,NONE,0,0,0,0,0,0,0,0,0,0,0,817.21,0,0,0,0,0,0,0,0,0,58.97,0,0,0,0,0,0,0,0,0,0,0,0,0,0,0,0,0,VALID,0,0,0,0,0,1,0,0,0,0,0,0,0,0,0,0,0,0,0,0,0,342.37,2,0,0.1,0.1,271,10.71,0.1,0.08,25.26,FLYING,CF1-J,0:/Integrated Flight Computer/aircraft/cf1_j_cfg.ks (inferred preloaded)
25.54,APPROACH,FLY_TO_FIX,201.59,85,-116.59,949.25,815.25,-6.82,-2.91,-1.06,96.44,1.359,0,0,-1.953,1,0.6,4.5,0.75,0.35,0.0168,0.4,14,14,14,116.601,1,96.75,1.92,0,0,-1.96,0.31,1,1.96,96.75,0,0,0,0,0,0,0,17.853,0,0,0,3,0,0,0,1069.62,0,0,0,0,0,0,,0,NONE,0,0,0,0,0,0,0,0,0,0,0,815.25,0,0,0,0,0,0,0,0,0,58.97,0,0,0,0,0,0,0,0,0,0,0,0,0,0,0,0,0,VALID,0,0,0,0,0,1,0,0,0,0,0,0,0,0,0,0,0,0,0,0,0,342.46,2,0,0.08,0.08,274,10.71,0.1,0.08,25.54,FLYING,CF1-J,0:/Integrated Flight Computer/aircraft/cf1_j_cfg.ks (inferred preloaded)
25.82,APPROACH,FLY_TO_FIX,201.36,85,-116.36,947.43,813.43,-6.37,-2.81,-1.07,96.46,1.307,0,0,-1.924,1,0.6,4.5,0.75,0.35,0.0168,0.4,14,14,14,116.379,1,96.75,1.793,0,0,-1.83,0.29,1,1.84,96.75,0,0,0,0,0,0,0,17.794,0,0,0,3,0,0,0,1066.53,0,0,0,0,0,0,,0,NONE,0,0,0,0,0,0,0,0,0,0,0,813.43,0,0,0,0,0,0,0,0,0,58.97,0,0,0,0,0,0,0,0,0,0,0,0,0,0,0,0,0,VALID,0,0,0,0,0,1,0,0,0,0,0,0,0,0,0,0,0,0,0,0,0,342.54,2,0,0.1,0.1,277,10.71,0.1,0.08,25.82,FLYING,CF1-J,0:/Integrated Flight Computer/aircraft/cf1_j_cfg.ks (inferred preloaded)
26.1,APPROACH,FLY_TO_FIX,201.13,85,-116.13,945.72,811.72,-5.95,-2.7,-1.08,96.48,1.247,0,0,-1.895,1,0.6,4.5,0.75,0.35,0.0168,0.4,14,14,14,116.15,1,96.76,1.674,0,0,-1.71,0.28,1,1.71,96.76,0,0,0,0,0,0,0,17.735,0,0,0,3,0,0,0,1063.44,0,0,0,0,0,0,,0,NONE,0,0,0,0,0,0,0,0,0,0,0,811.72,0,0,0,0,0,0,0,0,0,58.97,0,0,0,0,0,0,0,0,0,0,0,0,0,0,0,0,0,VALID,0,0,0,0,0,1,0,0,0,0,0,0,0,0,0,0,0,0,0,0,0,342.61,2,0,0.08,0.08,280,10.71,0.1,0.08,26.1,FLYING,CF1-J,0:/Integrated Flight Computer/aircraft/cf1_j_cfg.ks (inferred preloaded)
26.38,APPROACH,FLY_TO_FIX,200.9,85,-115.9,944.13,810.13,-5.56,-2.61,-1.09,96.5,1.174,0,0,-1.867,1,0.6,4.5,0.75,0.35,0.0168,0.4,14,14,14,115.917,1,96.76,1.562,0,0,-1.6,0.27,1,1.6,96.76,0,0,0,0,0,0,0,17.676,0,0,0,3,0,0,0,1060.36,0,0,0,0,0,0,,0,NONE,0,0,0,0,0,0,0,0,0,0,0,810.13,0,0,0,0,0,0,0,0,0,58.97,0,0,0,0,0,0,0,0,0,0,0,0,0,0,0,0,0,VALID,0,0,0,0,0,1,0,0,0,0,0,0,0,0,0,0,0,0,0,0,0,342.68,2,0,0.1,0.1,283,10.71,0.1,0.08,26.38,FLYING,CF1-J,0:/Integrated Flight Computer/aircraft/cf1_j_cfg.ks (inferred preloaded)
26.66,APPROACH,FLY_TO_FIX,200.66,85,-115.66,942.65,808.65,-5.18,-2.52,-1.1,96.51,1.101,0,0,-1.839,1,0.6,4.5,0.75,0.35,0.0168,0.4,14,14,14,115.677,1,96.77,1.457,0,0,-1.49,0.26,1,1.49,96.77,0,0,0,0,0,0,0,17.617,0,0,0,3,0,0,0,1057.28,0,0,0,0,0,0,,0,NONE,0,0,0,0,0,0,0,0,0,0,0,808.65,0,0,0,0,0,0,0,0,0,58.97,0,0,0,0,0,0,0,0,0,0,0,0,0,0,0,0,0,VALID,0,0,0,0,0,1,0,0,0,0,0,0,0,0,0,0,0,0,0,0,0,342.75,2,0,0.08,0.08,286,10.71,0.1,0.08,26.66,FLYING,CF1-J,0:/Integrated Flight Computer/aircraft/cf1_j_cfg.ks (inferred preloaded)
26.94,APPROACH,FLY_TO_FIX,200.42,85,-115.42,941.26,807.26,-4.84,-2.43,-1.11,96.53,1.03,0,0,-13.264,1,0.6,4.5,0.75,0.35,0.0168,0.4,14,14,14,115.433,1,96.77,1.359,0,0,-1.4,0.25,1,1.39,96.77,0,0,0,0,0,0,0,17.559,0,0,0,3,0,0,0,1054.21,0,0,0,0,0,0,,0,NONE,0,0,0,0,0,0,0,0,0,0,0,807.26,0,0,0,0,0,0,0,0,0,58.97,0,0,0,0,0,0,0,0,0,0,0,0,0,0,0,0,0,VALID,0,0,0,0,0,1,0,0,0,0,0,0,0,0,0,0,0,0,0,0,0,342.81,2,0,0.1,0.1,289,10.71,0.1,0.08,26.94,FLYING,CF1-J,0:/Integrated Flight Computer/aircraft/cf1_j_cfg.ks (inferred preloaded)
27.22,APPROACH,FLY_TO_FIX,200.17,85,-115.17,939.97,805.97,-4.51,-2.35,-1.12,96.54,0.962,0,0,-13.066,1,0.6,4.5,0.75,0.35,0.0168,0.4,14,14,14,115.185,1,96.78,1.266,0,0,-1.3,0.24,1,1.29,96.78,0,0,0,0,0,0,0,17.5,0,0,0,3,0,0,0,1051.13,0,0,0,0,0,0,,0,NONE,0,0,0,0,0,0,0,0,0,0,0,805.97,0,0,0,0,0,0,0,0,0,58.97,0,0,0,0,0,0,0,0,0,0,0,0,0,0,0,0,0,VALID,0,0,0,0,0,1,0,0,0,0,0,0,0,0,0,0,0,0,0,0,0,342.87,2,0,0.08,0.08,292,10.71,0.1,0.08,27.22,FLYING,CF1-J,0:/Integrated Flight Computer/aircraft/cf1_j_cfg.ks (inferred preloaded)
27.5,APPROACH,FLY_TO_FIX,199.91,85,-114.91,938.76,804.76,-4.21,-2.28,-1.12,96.56,0.899,0,0,-12.871,1,0.6,4.5,0.75,0.35,0.0168,0.4,14,14,14,114.932,1,96.78,1.181,0,0,-1.22,0.23,1,1.21,96.78,0,0,0,0,0,0,0,17.441,0,0,0,3,0,0,0,1048.07,0,0,0,0,0,0,,0,NONE,0,0,0,0,0,0,0,0,0,0,0,804.76,0,0,0,0,0,0,0,0,0,58.97,0,0,0,0,0,0,0,0,0,0,0,0,0,0,0,0,0,VALID,0,0,0,0,0,1,0,0,0,0,0,0,0,0,0,0,0,0,0,0,0,342.93,2,0,0.1,0.1,295,10.71,0.1,0.08,27.5,FLYING,CF1-J,0:/Integrated Flight Computer/aircraft/cf1_j_cfg.ks (inferred preloaded)
27.78,APPROACH,FLY_TO_FIX,199.66,85,-114.66,937.64,803.64,-3.92,-2.21,-1.13,96.57,0.843,0,0,-12.679,1,0.6,4.5,0.772,0.35,0.0168,0.4,14,14,14,114.675,1,96.79,1.1,0,0,-1.14,0.22,1,1.12,96.79,0,0,0,0,0,0,0,17.383,0,0,0,3,0,0,0,1045,0,0,0,0,0,0,,0,NONE,0,0,0,0,0,0,0,0,0,0,0,803.64,0,0,0,0,0,0,0,0,0,58.97,0,0,0,0,0,0,0,0,0,0,0,0,0,0,0,0,0,VALID,0,0,0,0,0,1,0,0,0,0,0,0,0,0,0,0,0,0,0,0,0,342.98,2,0,0.08,0.08,298,10.71,0.1,0.08,27.78,FLYING,CF1-J,0:/Integrated Flight Computer/aircraft/cf1_j_cfg.ks (inferred preloaded)
28.06,APPROACH,FLY_TO_FIX,199.4,85,-114.4,936.59,802.59,-3.66,-2.14,-1.14,96.58,0.791,0,0,-12.49,1,0.6,4.5,0.798,0.35,0.0168,0.4,14,14,14,114.415,1,96.79,1.025,0,0,-1.06,0.21,1,1.05,96.79,0,0,0,0,0,0,0,17.325,0,0,0,3,0,0,0,1041.94,0,0,0,0,0,0,,0,NONE,0,0,0,0,0,0,0,0,0,0,0,802.59,0,0,0,0,0,0,0,0,0,58.97,0,0,0,0,0,0,0,0,0,0,0,0,0,0,0,0,0,VALID,0,0,0,0,0,1,0,0,0,0,0,0,0,0,0,0,0,0,0,0,0,343.03,2,0,0.1,0.1,301,10.71,0.1,0.08,28.06,FLYING,CF1-J,0:/Integrated Flight Computer/aircraft/cf1_j_cfg.ks (inferred preloaded)
28.34,APPROACH,FLY_TO_FIX,199.13,85,-114.13,935.61,801.61,-3.41,-2.08,-1.14,96.59,0.745,0,0,-12.303,1,0.6,4.5,0.823,0.35,0.0168,0.4,14,14,14,114.151,1,96.8,0.955,0,0,-0.99,0.2,1,0.98,96.8,0,0,0,0,0,0,0,17.266,0,0,0,3,0,0,0,1038.89,0,0,0,0,0,0,,0,NONE,0,0,0,0,0,0,0,0,0,0,0,801.61,0,0,0,0,0,0,0,0,0,58.97,0,0,0,0,0,0,0,0,0,0,0,0,0,0,0,0,0,VALID,0,0,0,0,0,1,0,0,0,0,0,0,0,0,0,0,0,0,0,0,0,343.08,2,0,0.08,0.08,304,10.71,0.1,0.08,28.34,FLYING,CF1-J,0:/Integrated Flight Computer/aircraft/cf1_j_cfg.ks (inferred preloaded)
28.62,APPROACH,FLY_TO_FIX,198.87,85,-113.87,934.7,800.7,-3.18,-2.02,-1.15,96.6,0.704,0,0,-12.12,1,0.6,4.5,0.847,0.35,0.0168,0.4,14,14,14,113.885,1,96.8,0.89,0,0,-0.93,0.2,1,0.91,96.8,0,0,0,0,0,0,0,17.208,0,0,0,3,0,0,0,1035.84,0,0,0,0,0,0,,0,NONE,0,0,0,0,0,0,0,0,0,0,0,800.7,0,0,0,0,0,0,0,0,0,58.97,0,0,0,0,0,0,0,0,0,0,0,0,0,0,0,0,0,VALID,0,0,0,0,0,1,0,0,0,0,0,0,0,0,0,0,0,0,0,0,0,343.13,2,0,0.1,0.1,307,10.71,0.1,0.08,28.62,FLYING,CF1-J,0:/Integrated Flight Computer/aircraft/cf1_j_cfg.ks (inferred preloaded)
28.9,APPROACH,FLY_TO_FIX,198.6,85,-113.6,933.85,799.85,-2.97,-1.97,-1.15,96.61,0.667,0,0,-11.939,1,0.6,4.5,0.87,0.35,0.0168,0.4,14,14,14,113.616,1,96.81,0.83,0,0,-0.86,0.19,1,0.85,96.8,0,0,0,0,0,0,0,17.15,0,0,0,3,0,0,0,1032.79,0,0,0,0,0,0,,0,NONE,0,0,0,0,0,0,0,0,0,0,0,799.85,0,0,0,0,0,0,0,0,0,58.97,0,0,0,0,0,0,0,0,0,0,0,0,0,0,0,0,0,VALID,0,0,0,0,0,1,0,0,0,0,0,0,0,0,0,0,0,0,0,0,0,343.18,2,0,0.08,0.08,310,10.71,0.1,0.08,28.9,FLYING,CF1-J,0:/Integrated Flight Computer/aircraft/cf1_j_cfg.ks (inferred preloaded)
29.18,APPROACH,FLY_TO_FIX,198.32,85,-113.32,933.06,799.06,-2.77,-1.92,-1.15,96.62,0.634,0,0,-11.761,1,0.6,4.5,0.891,0.35,0.0168,0.4,14,14,14,113.344,1,96.81,0.773,0,0,-0.81,0.19,1,0.79,96.81,0,0,0,0,0,0,0,17.092,0,0,0,3,0,0,0,1029.74,0,0,0,0,0,0,,0,NONE,0,0,0,0,0,0,0,0,0,0,0,799.06,0,0,0,0,0,0,0,0,0,58.97,0,0,0,0,0,0,0,0,0,0,0,0,0,0,0,0,0,VALID,0,0,0,0,0,1,0,0,0,0,0,0,0,0,0,0,0,0,0,0,0,343.22,2,0,0.1,0.1,313,10.71,0.1,0.08,29.18,FLYING,CF1-J,0:/Integrated Flight Computer/aircraft/cf1_j_cfg.ks (inferred preloaded)
29.46,APPROACH,FLY_TO_FIX,198.05,85,-113.05,932.32,798.32,-2.58,-1.87,-1.16,96.63,0.605,0,0,-11.585,1,0.6,4.5,0.911,0.35,0.0168,0.4,14,14,14,113.071,1,96.82,0.721,0,0,-0.75,0.18,1,0.74,96.81,0,0,0,0,0,0,0,17.034,0,0,0,3,0,0,0,1026.7,0,0,0,0,0,0,,0,NONE,0,0,0,0,0,0,0,0,0,0,0,798.32,0,0,0,0,0,0,0,0,0,58.97,0,0,0,0,0,0,0,0,0,0,0,0,0,0,0,0,0,VALID,0,0,0,0,0,1,0,0,0,0,0,0,0,0,0,0,0,0,0,0,0,343.27,2,0,0.08,0.08,316,10.71,0.1,0.08,29.46,FLYING,CF1-J,0:/Integrated Flight Computer/aircraft/cf1_j_cfg.ks (inferred preloaded)
29.74,APPROACH,FLY_TO_FIX,197.78,85,-112.78,931.62,797.62,-2.41,-1.82,-1.16,96.64,0.579,0,0,-11.412,1,0.6,4.5,0.929,0.35,0.0168,0.4,14,14,14,112.795,1,96.82,0.672,0,0,-0.71,0.18,1,0.69,96.82,0,0,0,0,0,0,0,16.976,0,0,0,3,0,0,0,1023.67,0,0,0,0,0,0,,0,NONE,0,0,0,0,0,0,0,0,0,0,0,797.62,0,0,0,0,0,0,0,0,0,58.97,0,0,0,0,0,0,0,0,0,0,0,0,0,0,0,0,0,VALID,0,0,0,0,0,1,0,0,0,0,0,0,0,0,0,0,0,0,0,0,0,343.31,2,0,0.1,0.1,319,10.71,0.1,0.08,29.74,FLYING,CF1-J,0:/Integrated Flight Computer/aircraft/cf1_j_cfg.ks (inferred preloaded)
30.02,APPROACH,FLY_TO_FIX,197.5,85,-112.5,930.98,796.98,-2.25,-1.78,-1.16,96.65,0.555,0,0,-11.242,1,0.6,4.5,0.946,0.35,0.0168,0.4,14,14,14,112.518,1,96.82,0.627,0,0,-0.66,0.18,1,0.64,96.82,0,0,0,0,0,0,0,16.918,0,0,0,3,0,0,0,1020.63,0,0,0,0,0,0,,0,NONE,0,0,0,0,0,0,0,0,0,0,0,796.98,0,0,0,0,0,0,0,0,0,58.97,0,0,0,0,0,0,0,0,0,0,0,0,0,0,0,0,0,VALID,0,0,0,0,0,1,0,0,0,0,0,0,0,0,0,0,0,0,0,0,0,343.35,2,0,0.08,0.08,322,10.71,0.1,0.08,30.02,FLYING,CF1-J,0:/Integrated Flight Computer/aircraft/cf1_j_cfg.ks (inferred preloaded)
30.3,APPROACH,FLY_TO_FIX,197.22,85,-112.22,930.38,796.38,-2.1,-1.74,-1.16,96.65,0.535,0,0,-11.074,1,0.6,4.5,0.963,0.35,0.0168,0.4,14,14,14,112.238,1,96.83,0.585,0,0,-0.62,0.17,1,0.6,96.83,0,0,0,0,0,0,0,16.86,0,0,0,3,0,0,0,1017.61,0,0,0,0,0,0,,0,NONE,0,0,0,0,0,0,0,0,0,0,0,796.38,0,0,0,0,0,0,0,0,0,58.97,0,0,0,0,0,0,0,0,0,0,0,0,0,0,0,0,0,VALID,0,0,0,0,0,1,0,0,0,0,0,0,0,0,0,0,0,0,0,0,0,343.39,2,0,0.1,0.1,325,10.71,0.1,0.08,30.3,FLYING,CF1-J,0:/Integrated Flight Computer/aircraft/cf1_j_cfg.ks (inferred preloaded)
30.58,APPROACH,FLY_TO_FIX,196.94,85,-111.94,929.82,795.82,-1.96,-1.71,-1.16,96.66,0.518,0,0,-10.909,1,0.6,4.5,0.978,0.35,0.0168,0.4,14,14,14,111.958,1,96.83,0.546,0,0,-0.58,0.17,1,0.56,96.83,0,0,0,0,0,0,0,16.802,0,0,0,3,0,0,0,1014.58,0,0,0,0,0,0,,0,NONE,0,0,0,0,0,0,0,0,0,0,0,795.82,0,0,0,0,0,0,0,0,0,58.97,0,0,0,0,0,0,0,0,0,0,0,0,0,0,0,0,0,VALID,0,0,0,0,0,1,0,0,0,0,0,0,0,0,0,0,0,0,0,0,0,343.43,2,0,0.08,0.08,328,10.71,0.1,0.08,30.58,FLYING,CF1-J,0:/Integrated Flight Computer/aircraft/cf1_j_cfg.ks (inferred preloaded)
30.86,APPROACH,FLY_TO_FIX,196.66,85,-111.66,929.29,795.29,-1.84,-1.67,-1.16,96.67,0.502,0,0,-10.746,1,0.6,4.5,0.992,0.35,0.0168,0.4,14,14,14,111.676,1,96.84,0.509,0,0,-0.54,0.17,1,0.52,96.84,0,0,0,0,0,0,0,16.745,0,0,0,3,0,0,0,1011.56,0,0,0,0,0,0,,0,NONE,0,0,0,0,0,0,0,0,0,0,0,795.29,0,0,0,0,0,0,0,0,0,58.97,0,0,0,0,0,0,0,0,0,0,0,0,0,0,0,0,0,VALID,0,0,0,0,0,1,0,0,0,0,0,0,0,0,0,0,0,0,0,0,0,343.47,2,0,0.1,0.1,331,10.71,0.1,0.08,30.86,FLYING,CF1-J,0:/Integrated Flight Computer/aircraft/cf1_j_cfg.ks (inferred preloaded)
31.14,APPROACH,FLY_TO_FIX,196.37,85,-111.37,928.8,794.8,-1.72,-1.64,-1.16,96.67,0.489,0,0,-10.586,1,0.6,4.5,1.005,0.35,0.0168,0.4,14,14,14,111.394,1,96.84,0.475,0,0,-0.51,0.17,1,0.49,96.84,0,0,0,0,0,0,0,16.687,0,0,0,3,0,0,0,1008.55,0,0,0,0,0,0,,0,NONE,0,0,0,0,0,0,0,0,0,0,0,794.8,0,0,0,0,0,0,0,0,0,58.97,0,0,0,0,0,0,0,0,0,0,0,0,0,0,0,0,0,VALID,0,0,0,0,0,1,0,0,0,0,0,0,0,0,0,0,0,0,0,0,0,343.5,2,0,0.08,0.08,334,10.71,0.1,0.08,31.14,FLYING,CF1-J,0:/Integrated Flight Computer/aircraft/cf1_j_cfg.ks (inferred preloaded)
